passes_logs/2026/01/01/R4.6S_Anadyr/R4.6S_Anadyr__20260101_175923_AQUA_rec.log

#Pass ID: 20260101_175923_AQUA
#Satellite: AQUA
#Configuration: AQUA
#almurnet v.1.7.20251203
#Start time: 2026-01-01 17:59:24

#Version: 2.2.20231116
#Station: R4.6S_Anadyr
#Location: 177.4865 lon 64.73178 lat
#TLE: 1 27424U 02022A   25364.96158944  .00001951  00000+0  40088-3 0  9999
#TLE: 2 27424  98.4061 326.1390 0001916  95.3188 305.7939 14.61780362258698

#Time	Az	El	Level	Level2	SNR	BER	BlckErr	Temp	State	Recorded	gain1	gain2
2026-01-01 17:59:24.93	23.04	0.10	-49.2	-64.1	3.5	1.51e+00	0	36	0	0	60	57860
2026-01-01 17:59:28.97	22.85	0.33	-49.6	-67.4	3.5	3.02e+01	0	38	104	0	60	90474
2026-01-01 17:59:33.01	22.66	0.57	-49.5	-67.4	3.5	3.02e+01	0	38	104	0	60	89767
2026-01-01 17:59:37.05	22.46	0.81	-49.0	-66.9	3.5	3.02e+01	0	38	104	0	60	85364
2026-01-01 17:59:41.09	22.26	1.05	-48.0	-66.0	3.5	3.02e+01	0	38	104	0	60	77201
2026-01-01 17:59:45.13	22.05	1.29	-48.0	-66.0	3.5	3.02e+01	0	38	104	0	60	76813
2026-01-01 17:59:49.16	21.84	1.54	-47.9	-66.0	3.5	3.02e+01	0	38	104	0	60	76668
2026-01-01 17:59:53.20	21.63	1.78	-47.9	-66.0	3.5	3.02e+01	0	38	104	0	60	77063
2026-01-01 17:59:57.24	21.41	2.03	-47.9	-66.0	3.5	3.02e+01	0	38	104	0	60	77000
2026-01-01 18:00:01.28	21.19	2.28	-47.9	-65.8	3.5	3.02e+01	0	38	104	0	60	75142
2026-01-01 18:00:05.32	20.96	2.53	-47.9	-65.7	3.5	3.02e+01	0	38	104	0	60	74573
2026-01-01 18:00:09.36	20.73	2.79	-47.9	-66.0	3.5	3.02e+01	0	38	104	0	60	76915
2026-01-01 18:00:13.40	20.49	3.05	-47.9	-65.7	3.5	3.02e+01	0	38	104	0	60	74243
2026-01-01 18:00:17.44	20.25	3.31	-47.9	-65.6	3.5	3.02e+01	0	39	104	0	60	73383
2026-01-01 18:00:21.48	20.01	3.57	-46.1	-59.4	3.5	3.02e+01	0	38	104	0	60	35952
2026-01-01 18:00:25.52	19.76	3.83	-44.9	-57.0	3.5	3.02e+01	0	38	104	0	56	34321
2026-01-01 18:00:29.56	19.50	4.10	-39.6	-50.3	3.5	3.02e+01	0	38	104	0	54	17697
2026-01-01 18:00:33.60	19.24	4.37	-44.0	-55.7	3.6	3.02e+01	0	38	104	0	58	26192
2026-01-01 18:00:37.64	18.97	4.64	-45.5	-58.0	3.5	3.02e+01	0	39	104	0	60	30663
2026-01-01 18:00:41.67	18.70	4.91	-48.3	-65.2	3.5	3.02e+01	0	39	104	0	60	70155
2026-01-01 18:00:45.71	18.42	5.19	-40.0	-50.5	3.5	3.02e+01	0	39	104	0	54	18310
2026-01-01 18:00:49.75	18.13	5.46	-39.7	-50.2	3.5	3.02e+01	0	39	104	0	54	17606
2026-01-01 18:00:53.79	17.84	5.75	-42.2	-53.2	3.5	3.02e+01	0	39	104	0	60	17625
2026-01-01 18:00:57.83	17.54	6.03	-39.3	-49.7	3.5	3.02e+01	0	39	104	0	54	16661
2026-01-01 18:01:01.86	17.23	6.32	-48.3	-65.0	3.5	3.02e+01	0	39	104	0	60	68140
2026-01-01 18:01:05.90	16.92	6.61	-38.9	-49.2	3.5	3.02e+01	0	39	104	0	52	17661
2026-01-01 18:01:09.94	16.60	6.90	-41.2	-51.9	3.5	3.02e+01	0	39	104	0	54	21349
2026-01-01 18:01:13.98	16.27	7.19	-39.5	-49.9	3.6	3.02e+01	0	39	104	0	54	17073
2026-01-01 18:01:18.01	15.94	7.49	-40.1	-50.6	3.5	3.02e+01	0	39	104	0	52	20619
2026-01-01 18:01:22.05	15.60	7.79	-48.3	-65.2	3.5	3.02e+01	0	39	104	0	60	69636
2026-01-01 18:01:26.09	15.25	8.10	-39.1	-49.5	3.5	3.02e+01	0	39	104	0	52	18127
2026-01-01 18:01:30.13	14.89	8.40	-48.5	-65.2	3.5	3.02e+01	0	39	104	0	60	70070
2026-01-01 18:01:34.17	14.52	8.71	-37.1	-47.3	3.5	3.02e+01	0	39	104	0	50	15798
2026-01-01 18:01:38.21	14.14	9.03	-48.3	-64.4	3.5	3.02e+01	0	39	104	0	60	63579
2026-01-01 18:01:42.25	13.75	9.34	-37.8	-48.1	3.5	3.02e+01	0	39	104	0	50	17338
2026-01-01 18:01:46.28	13.36	9.66	-39.3	-49.6	3.6	3.02e+01	0	39	104	0	54	16391
2026-01-01 18:01:50.32	12.95	9.99	-38.1	-39.5	26.7	3.02e+01	64	39	0	4194304	52	5736
2026-01-01 18:01:54.35	12.54	10.31	-36.8	-38.1	28.0	3.02e+01	60	39	0	11534336	48	6199
2026-01-01 18:01:58.39	12.11	10.64	-36.6	-37.8	28.1	3.02e+01	55	39	0	19398656	48	5984
2026-01-01 18:02:02.43	11.67	10.98	-36.0	-37.3	28.6	3.02e+01	58	39	0	26738688	46	6286
2026-01-01 18:02:06.47	11.22	11.31	-36.0	-37.2	28.6	3.02e+01	53	39	0	34078720	46	6256
2026-01-01 18:02:10.50	10.76	11.65	-36.0	-37.2	28.7	3.02e+01	58	39	0	41943040	46	6243
2026-01-01 18:02:14.54	10.29	12.00	-35.7	-36.9	29.0	3.02e+01	46	39	0	49283072	46	6059
2026-01-01 18:02:18.58	9.81	12.35	-35.7	-36.9	29.0	3.02e+01	58	39	0	57147392	46	6063
2026-01-01 18:02:22.61	9.31	12.70	-35.6	-36.8	29.1	3.02e+01	52	39	0	64487424	46	5989
2026-01-01 18:02:26.65	8.80	13.05	-35.5	-36.8	29.2	3.02e+01	57	39	0	72351744	46	5943
2026-01-01 18:02:30.69	8.27	13.41	-35.5	-36.7	29.1	3.02e+01	48	39	0	79691776	46	5920
2026-01-01 18:02:34.73	7.73	13.77	-35.6	-36.8	29.1	3.02e+01	56	39	0	87031808	46	5968
2026-01-01 18:02:38.76	7.18	14.14	-35.5	-36.7	29.2	3.02e+01	45	39	0	94896128	46	5923
2026-01-01 18:02:42.80	6.61	14.51	-35.5	-36.7	29.2	3.02e+01	59	39	0	102236160	46	5909
2026-01-01 18:02:46.84	6.03	14.88	-35.7	-37.0	29.1	3.02e+01	56	39	0	110100480	46	6066
2026-01-01 18:02:50.88	5.42	15.25	-35.7	-36.9	29.1	3.02e+01	60	39	0	117440512	46	6028
2026-01-01 18:02:54.91	4.81	15.63	-35.5	-36.7	29.3	3.02e+01	60	39	0	125304832	46	5863
2026-01-01 18:02:58.95	4.17	16.02	-35.4	-36.6	29.4	3.02e+01	57	39	0	132644864	46	5824
2026-01-01 18:03:02.99	3.52	16.40	-35.3	-36.5	29.5	3.02e+01	61	39	0	139984896	46	5748
2026-01-01 18:03:07.03	2.84	16.79	-35.5	-36.7	29.2	3.02e+01	60	39	0	147849216	46	5924
2026-01-01 18:03:11.06	2.15	17.18	-35.6	-36.8	29.3	3.02e+01	60	39	0	155189248	46	5947
2026-01-01 18:03:15.10	1.44	17.57	-35.6	-36.8	29.2	3.02e+01	58	39	0	163053568	46	5982
2026-01-01 18:03:19.14	0.71	17.97	-35.5	-36.7	29.4	3.02e+01	57	39	0	170393600	46	5898
2026-01-01 18:03:23.18	359.96	18.37	-35.5	-36.7	29.4	3.02e+01	57	39	0	178257920	46	5906
2026-01-01 18:03:27.21	359.19	18.77	-35.7	-36.9	29.1	3.02e+01	57	39	0	185597952	46	6064
2026-01-01 18:03:31.25	358.39	19.17	-35.4	-36.6	29.4	3.02e+01	63	39	0	193462272	46	5850
2026-01-01 18:03:35.29	357.57	19.58	-35.5	-36.7	29.3	3.02e+01	57	39	0	200802304	46	5915
2026-01-01 18:03:39.33	356.73	19.98	-35.8	-37.0	29.1	3.02e+01	60	39	0	208142336	46	6102
2026-01-01 18:03:43.37	355.86	20.39	-35.8	-37.0	29.2	3.02e+01	60	39	0	216006656	46	6087
2026-01-01 18:03:47.40	354.97	20.79	-35.8	-37.0	29.2	3.02e+01	63	39	0	223346688	46	6100
2026-01-01 18:03:51.44	354.05	21.20	-35.7	-36.9	29.2	3.02e+01	58	39	0	231211008	46	6054
2026-01-01 18:03:55.48	353.11	21.61	-35.7	-36.9	29.3	3.02e+01	55	39	0	238551040	46	6013
2026-01-01 18:03:59.51	352.14	22.01	-35.9	-37.1	29.1	3.02e+01	59	39	0	246415360	46	6177
2026-01-01 18:04:03.54	351.15	22.41	-35.9	-37.2	29.1	3.02e+01	46	39	0	253755392	46	6217
2026-01-01 18:04:07.57	350.13	22.81	-36.0	-37.2	29.1	3.02e+01	61	39	0	261619712	46	6233
2026-01-01 18:04:11.61	349.07	23.21	-35.8	-37.0	29.2	3.02e+01	57	39	0	268959744	46	6094
2026-01-01 18:04:15.65	347.99	23.60	-35.9	-37.1	29.2	3.02e+01	60	39	0	276299776	46	6183
2026-01-01 18:04:19.69	346.88	23.99	-35.9	-37.1	29.2	3.02e+01	57	39	0	284164096	46	6142
2026-01-01 18:04:23.72	345.74	24.38	-35.7	-36.9	29.3	3.02e+01	63	39	0	291504128	46	6061
2026-01-01 18:04:27.76	344.57	24.75	-35.8	-37.0	29.3	3.02e+01	53	39	0	299368448	46	6100
2026-01-01 18:04:31.81	343.37	25.12	-35.8	-37.0	29.2	3.02e+01	60	39	0	306708480	46	6122
2026-01-01 18:04:35.85	342.14	25.49	-35.6	-36.8	29.4	3.02e+01	44	39	0	314572800	46	5956
2026-01-01 18:04:39.89	340.88	25.84	-35.8	-37.0	29.3	3.02e+01	59	39	0	321912832	46	6090
2026-01-01 18:04:43.93	339.59	26.18	-35.5	-36.7	29.5	3.02e+01	44	39	0	329252864	46	5924
2026-01-01 18:04:47.96	338.28	26.52	-35.7	-37.0	29.3	3.02e+01	60	39	0	337117184	46	6065
2026-01-01 18:04:52.00	336.93	26.84	-35.6	-36.8	29.5	3.02e+01	49	39	0	344457216	46	5939
2026-01-01 18:04:56.04	335.56	27.14	-35.4	-36.6	29.6	3.02e+01	57	39	0	352321536	46	5829
2026-01-01 18:05:00.08	334.16	27.43	-35.5	-36.7	29.5	3.02e+01	47	39	0	359661568	46	5913
2026-01-01 18:05:04.12	332.73	27.71	-35.6	-36.8	29.5	3.02e+01	58	39	0	367525888	46	5975
2026-01-01 18:05:08.16	331.28	27.97	-35.5	-36.7	29.6	3.02e+01	56	39	0	374865920	46	5869
2026-01-01 18:05:12.20	329.80	28.21	-35.4	-36.6	29.6	3.02e+01	61	39	0	382730240	46	5841
2026-01-01 18:05:16.24	328.30	28.44	-35.3	-36.5	29.7	3.02e+01	58	39	0	390070272	46	5768
2026-01-01 18:05:20.28	326.78	28.64	-35.4	-36.6	29.7	3.02e+01	59	39	0	397410304	46	5844
2026-01-01 18:05:24.32	325.24	28.82	-35.4	-36.6	29.6	3.02e+01	58	39	0	405274624	46	5850
2026-01-01 18:05:28.36	323.68	28.98	-35.5	-36.7	29.6	3.02e+01	57	39	0	412614656	46	5878
2026-01-01 18:05:32.40	322.11	29.12	-35.4	-36.6	29.7	3.02e+01	58	39	0	420478976	46	5799
2026-01-01 18:05:36.44	320.52	29.24	-35.3	-36.5	29.8	3.02e+01	60	39	0	427819008	46	5755
2026-01-01 18:05:40.48	318.92	29.33	-35.5	-36.7	29.6	3.02e+01	57	39	0	435683328	46	5866
2026-01-01 18:05:44.52	317.32	29.40	-35.8	-37.0	29.4	3.02e+01	59	39	0	443023360	46	6112
2026-01-01 18:05:48.56	315.71	29.44	-35.6	-36.8	29.5	3.02e+01	59	39	0	450887680	46	5950
2026-01-01 18:05:52.60	314.09	29.46	-35.6	-36.8	29.6	3.02e+01	59	39	0	458227712	46	5953
2026-01-01 18:05:56.64	312.48	29.46	-35.7	-36.9	29.3	3.02e+01	58	39	0	465567744	46	6023
2026-01-01 18:06:00.67	310.87	29.43	-35.4	-36.6	29.1	3.02e+01	59	39	0	473432064	44	6534
2026-01-01 18:06:04.71	309.26	29.37	-36.2	-37.5	28.8	3.02e+01	60	39	0	480772096	44	7282
2026-01-01 18:06:08.75	307.65	29.29	-36.3	-37.5	28.9	3.02e+01	55	39	0	488636416	46	6498
2026-01-01 18:06:12.79	306.06	29.19	-36.6	-37.9	28.3	3.02e+01	60	39	0	495976448	46	6794
2026-01-01 18:06:16.82	304.48	29.06	-35.6	-36.8	29.3	3.02e+01	55	39	0	503840768	46	5963
2026-01-01 18:06:20.86	302.92	28.91	-36.1	-37.4	28.8	3.02e+01	60	39	0	511180800	46	6351
2026-01-01 18:06:24.90	301.36	28.74	-36.5	-37.8	28.8	3.02e+01	61	39	0	519045120	46	6679
2026-01-01 18:06:28.94	299.83	28.55	-35.9	-37.1	29.2	3.02e+01	60	39	0	526385152	46	6182
2026-01-01 18:06:32.97	298.32	28.34	-36.2	-37.4	28.8	3.02e+01	56	39	0	533725184	46	6396
2026-01-01 18:06:37.01	296.83	28.10	-36.8	-38.0	28.4	3.02e+01	58	39	0	541589504	46	6865
2026-01-01 18:06:41.05	295.36	27.85	-37.6	-39.0	27.3	3.02e+01	38	39	0	548929536	48	6841
2026-01-01 18:06:45.09	293.91	27.59	-36.2	-37.4	28.7	3.02e+01	57	39	0	556793856	48	5705
2026-01-01 18:06:49.13	292.49	27.30	-37.3	-38.6	27.8	3.02e+01	54	39	0	564133888	48	6535
2026-01-01 18:06:53.17	291.10	27.00	-37.1	-38.4	28.3	3.02e+01	63	39	0	571998208	48	6363
2026-01-01 18:06:57.21	289.74	26.69	-37.9	-39.2	27.4	3.02e+01	44	39	0	579338240	50	6242
2026-01-01 18:07:01.25	288.40	26.36	-37.7	-39.0	27.4	3.02e+01	60	39	0	587202560	50	6086
2026-01-01 18:07:05.29	287.09	26.02	-37.9	-39.3	27.3	3.02e+01	45	39	0	594542592	50	6280
2026-01-01 18:07:09.33	285.81	25.68	-37.7	-39.0	27.4	3.02e+01	60	39	0	601882624	50	6090
2026-01-01 18:07:13.37	284.56	25.32	-37.4	-38.8	27.8	3.02e+01	45	39	0	609746944	50	5930
2026-01-01 18:07:17.41	283.35	24.95	-36.6	-37.9	28.5	3.02e+01	60	39	0	617086976	48	6010
2026-01-01 18:07:21.44	282.16	24.57	-36.5	-37.8	28.7	3.02e+01	53	39	0	624951296	48	5935
2026-01-01 18:07:25.48	281.00	24.19	-37.1	-38.4	28.1	3.02e+01	59	39	0	632291328	48	6365
2026-01-01 18:07:29.52	279.87	23.80	-36.8	-38.1	28.2	3.02e+01	59	39	0	640155648	48	6162
2026-01-01 18:07:33.56	278.77	23.41	-36.7	-38.0	28.5	3.02e+01	57	39	0	647495680	48	6074
2026-01-01 18:07:37.60	277.69	23.02	-37.0	-38.2	28.2	3.02e+01	56	39	0	655360000	48	6265
2026-01-01 18:07:41.63	276.65	22.62	-36.9	-38.1	28.4	3.02e+01	58	39	0	662700032	48	6189
2026-01-01 18:07:45.67	275.64	22.21	-36.5	-37.7	28.6	3.02e+01	58	39	0	670040064	48	5898
2026-01-01 18:07:49.71	274.65	21.81	-36.7	-38.0	28.4	3.02e+01	58	39	0	677904384	48	6082
2026-01-01 18:07:53.75	273.69	21.40	-36.8	-38.0	28.4	3.02e+01	60	39	0	685244416	48	6128
2026-01-01 18:07:57.79	272.75	20.99	-36.5	-37.8	28.5	3.02e+01	53	39	0	693108736	48	5938
2026-01-01 18:08:01.83	271.84	20.58	-36.4	-37.6	28.6	3.02e+01	54	39	0	700448768	48	5838
2026-01-01 18:08:05.87	270.96	20.18	-36.5	-37.8	28.6	3.02e+01	58	39	0	708313088	48	5949
2026-01-01 18:08:09.91	270.10	19.77	-36.5	-37.7	28.5	3.02e+01	60	39	0	715653120	48	5897
2026-01-01 18:08:13.95	269.26	19.36	-36.3	-37.5	28.8	3.02e+01	62	39	0	723517440	48	5764
2026-01-01 18:08:17.99	268.45	18.96	-36.5	-37.8	28.6	3.02e+01	58	39	0	730857472	48	5929
2026-01-01 18:08:22.03	267.66	18.55	-36.5	-37.7	28.6	3.02e+01	63	39	0	738197504	48	5918
2026-01-01 18:08:26.07	266.89	18.15	-36.3	-37.5	28.9	3.02e+01	56	39	0	746061824	48	5739
2026-01-01 18:08:30.11	266.15	17.75	-36.5	-37.7	28.6	3.02e+01	46	39	0	753401856	48	5892
2026-01-01 18:08:34.15	265.42	17.36	-36.4	-37.7	28.6	3.02e+01	61	39	0	761266176	48	5876
2026-01-01 18:08:38.19	264.72	16.96	-36.1	-37.4	28.8	3.02e+01	44	39	0	768606208	48	5663
2026-01-01 18:08:42.23	264.03	16.57	-36.5	-37.7	28.5	3.02e+01	60	39	0	776470528	48	5909
2026-01-01 18:08:46.26	263.37	16.18	-36.6	-37.9	28.4	3.02e+01	58	39	0	783810560	48	6001
2026-01-01 18:08:50.30	262.72	15.80	-36.6	-37.8	28.4	3.02e+01	57	39	0	791674880	48	5959
2026-01-01 18:08:54.34	262.09	15.41	-36.4	-37.7	28.6	3.02e+01	60	39	0	799014912	48	5860
2026-01-01 18:08:58.38	261.47	15.04	-36.5	-37.7	28.4	3.02e+01	59	39	0	806354944	48	5926
2026-01-01 18:09:02.42	260.88	14.66	-36.4	-37.6	28.5	3.02e+01	50	39	0	814219264	48	5848
2026-01-01 18:09:06.46	260.30	14.29	-36.5	-37.8	28.4	3.02e+01	57	39	0	821559296	48	5963
2026-01-01 18:09:10.49	259.73	13.92	-36.7	-38.0	28.2	3.02e+01	55	39	0	829423616	48	6088
2026-01-01 18:09:14.53	259.18	13.55	-36.3	-37.6	28.6	3.02e+01	59	39	0	836763648	48	5797
2026-01-01 18:09:18.57	258.64	13.19	-36.7	-37.9	28.3	3.02e+01	45	39	0	844627968	48	6035
2026-01-01 18:09:22.60	258.12	12.84	-36.9	-38.2	28.1	3.02e+01	58	39	0	851968000	48	6214
2026-01-01 18:09:26.64	257.62	12.48	-36.7	-38.0	28.1	3.02e+01	52	39	0	859832320	48	6078
2026-01-01 18:09:30.68	257.12	12.13	-36.8	-38.0	28.1	3.02e+01	59	39	0	867172352	48	6133
2026-01-01 18:09:34.72	256.64	11.78	-37.0	-38.3	27.9	3.02e+01	45	39	0	874512384	48	6330
2026-01-01 18:09:38.76	256.17	11.44	-37.0	-38.3	27.8	3.02e+01	60	39	0	882376704	48	6280
2026-01-01 18:09:42.80	255.71	11.10	-37.1	-38.4	27.8	3.02e+01	58	39	0	889716736	48	6391
2026-01-01 18:09:46.84	255.26	10.76	-36.9	-38.2	27.9	3.02e+01	60	39	0	897581056	48	6253
2026-01-01 18:09:50.88	254.83	10.43	-37.1	-38.4	27.8	3.02e+01	57	39	0	904921088	48	6356
2026-01-01 18:09:54.92	254.40	10.10	-37.5	-38.8	27.4	3.02e+01	59	39	0	912785408	48	6674
2026-01-01 18:09:58.96	253.99	9.77	-37.3	-38.6	27.5	3.02e+01	58	39	0	920125440	48	6564
2026-01-01 18:10:02.99	253.59	9.45	-37.3	-38.6	27.6	3.02e+01	62	39	0	927989760	48	6514
2026-01-01 18:10:07.03	253.19	9.13	-37.3	-38.6	27.5	3.02e+01	59	39	0	935329792	48	6541
2026-01-01 18:10:11.07	252.81	8.82	-37.7	-39.0	27.0	3.02e+01	60	39	0	942669824	48	6882
2026-01-01 18:10:15.11	252.43	8.50	-37.5	-38.8	27.2	3.02e+01	58	39	0	950534144	48	6714
2026-01-01 18:10:19.15	252.06	8.19	-37.7	-39.0	27.0	3.02e+01	59	39	0	957874176	48	6862
2026-01-01 18:10:23.18	251.71	7.89	-37.9	-39.3	26.7	3.02e+01	57	39	0	965738496	50	6312
2026-01-01 18:10:27.23	251.36	7.58	-38.4	-39.8	26.2	3.02e+01	60	39	0	973078528	50	6660
2026-01-01 18:10:31.27	251.01	7.28	-38.5	-39.9	26.2	3.02e+01	60	39	0	980942848	50	6788
2026-01-01 18:10:35.30	250.68	6.99	-38.0	-39.4	26.6	3.02e+01	61	39	0	988282880	50	6374
2026-01-01 18:10:39.34	250.35	6.69	-38.1	-39.5	26.5	3.02e+01	57	39	0	995622912	50	6479
2026-01-01 18:10:43.38	250.03	6.40	-38.2	-39.6	26.4	3.02e+01	61	39	0	1003487232	50	6530
2026-01-01 18:10:47.42	249.72	6.11	-38.5	-40.0	26.0	3.02e+01	63	39	0	1010827264	50	6809
2026-01-01 18:10:51.46	249.42	5.82	-38.8	-40.3	25.7	3.02e+01	57	39	0	1018691584	50	7084
2026-01-01 18:10:55.50	249.12	5.54	-38.6	-40.1	25.8	3.02e+01	58	39	0	1026031616	50	6884
2026-01-01 18:10:59.53	248.83	5.26	-38.7	-40.2	25.7	3.02e+01	44	39	0	1033895936	50	6982
2026-01-01 18:11:03.57	248.54	4.98	-39.2	-40.7	25.1	3.02e+01	61	39	0	1041235968	52	6644
2026-01-01 18:11:07.61	248.26	4.71	-39.4	-40.9	24.9	3.02e+01	57	39	0	1049100288	52	6803
2026-01-01 18:11:11.65	247.99	4.43	-39.5	-41.1	24.6	3.02e+01	59	39	0	1056440320	52	6915
2026-01-01 18:11:15.69	247.72	4.16	-39.8	-41.4	24.3	3.02e+01	58	39	0	1063780352	52	7190
2026-01-01 18:11:19.72	247.46	3.90	-40.3	-42.1	23.6	3.02e+01	59	39	0	1071644672	54	6899
2026-01-01 18:11:23.76	247.20	3.63	-40.3	-42.0	23.5	3.02e+01	55	39	0	1078984704	54	6837
2026-01-01 18:11:27.80	246.95	3.37	-40.6	-42.4	23.1	3.02e+01	58	39	0	1086849024	56	6417
2026-01-01 18:11:31.84	246.70	3.11	-41.0	-42.9	22.6	3.02e+01	54	39	0	1094189056	56	6799
2026-01-01 18:11:35.88	246.46	2.85	-49.5	-67.3	3.5	3.02e+01	0	39	104	1097334784	60	89568
2026-01-01 18:11:39.92	246.22	2.59	-49.7	-67.5	3.5	3.02e+01	0	39	104	1097334784	60	91493
2026-01-01 18:11:43.95	245.99	2.34	-49.4	-67.6	3.5	3.02e+01	0	39	104	1097334784	60	92515
2026-01-01 18:11:47.99	245.76	2.09	-49.6	-67.4	3.5	3.02e+01	0	39	104	1097334784	60	90370
2026-01-01 18:11:52.03	245.54	1.83	-49.6	-67.5	3.5	3.02e+01	0	39	104	1097334784	60	90863
2026-01-01 18:11:56.07	245.32	1.59	-49.6	-67.4	3.5	3.02e+01	0	39	104	1097334784	60	90690
2026-01-01 18:12:00.11	245.10	1.34	-49.6	-67.4	3.5	3.02e+01	0	39	104	1097334784	60	89817
2026-01-01 18:12:04.15	244.89	1.10	-49.6	-67.4	3.5	3.02e+01	0	39	104	1097334784	60	89994
2026-01-01 18:12:08.18	244.69	0.85	-49.6	-67.4	3.5	3.02e+01	0	39	104	1097334784	60	90185
2026-01-01 18:12:12.22	244.48	0.61	-49.6	-67.4	3.5	3.02e+01	0	39	104	1097334784	60	89889
2026-01-01 18:12:16.26	244.28	0.37	-49.6	-67.4	3.5	3.02e+01	0	39	104	1097334784	60	90029
2026-01-01 18:12:20.30	244.09	0.14	-49.6	-67.4	3.5	3.02e+01	0	39	104	1097334784	60	90153

#Closed at: 2026-01-01 18:12:23
#Recorded file [1097 MB]: D:/lorett/data/35029_260102_055924.dat