passes_logs/2026/01/01/R4.6S_Anadyr/R4.6S_Anadyr__20260101_154657_SUOMI_NPP_rec.log

#Pass ID: 20260101_154657_SUOMI NPP
#Satellite: SUOMI NPP
#Configuration: NPP
#almurnet v.1.7.20251203
#Start time: 2026-01-01 15:46:58

#Version: 2.2.20231116
#Station: R4.6S_Anadyr
#Location: 177.4865 lon 64.73178 lat
#TLE: 1 37849U 11061A   25364.87906318  .00000195  00000+0  11345-3 0  9993
#TLE: 2 37849  98.7794 302.0592 0002571  89.2401 270.9069 14.19520347734561

#Time	Az	El	Level	Level2	SNR	BER	BlckErr	Temp	State	Recorded	gain1	gain2
2026-01-01 15:46:58.05	23.21	0.05	-49.0	-61.5	3.4	1.52e+00	0	37	0	0	60	41893
2026-01-01 15:47:02.09	23.12	0.29	-49.0	-64.2	3.6	1.51e+00	0	38	104	0	60	58826
2026-01-01 15:47:06.13	23.03	0.53	-49.1	-64.2	3.6	1.51e+00	0	38	104	0	60	58871
2026-01-01 15:47:10.17	22.94	0.77	-48.7	-63.9	3.5	1.51e+00	0	38	104	0	60	56420
2026-01-01 15:47:14.21	22.84	1.01	-47.8	-62.9	3.6	1.51e+00	0	38	104	0	60	50680
2026-01-01 15:47:18.25	22.74	1.26	-47.6	-62.8	3.6	1.51e+00	0	38	104	0	60	49716
2026-01-01 15:47:22.29	22.64	1.51	-47.6	-62.7	3.6	1.51e+00	0	38	104	0	60	49572
2026-01-01 15:47:26.33	22.54	1.76	-47.6	-62.6	3.6	1.51e+00	0	38	104	0	60	48583
2026-01-01 15:47:30.37	22.44	2.01	-47.6	-62.5	3.6	1.51e+00	0	39	104	0	60	48151
2026-01-01 15:47:34.41	22.33	2.26	-47.6	-62.7	3.6	1.51e+00	0	39	104	0	60	49118
2026-01-01 15:47:38.45	22.22	2.52	-47.6	-62.5	3.6	1.51e+00	0	39	104	0	60	48149
2026-01-01 15:47:42.49	22.11	2.78	-47.5	-61.3	3.6	1.51e+00	0	39	104	0	60	41902
2026-01-01 15:47:46.53	22.00	3.04	-47.6	-62.6	3.6	1.51e+00	0	39	104	0	60	48954
2026-01-01 15:47:50.57	21.89	3.30	-46.6	-52.8	8.1	1.70e-01	0	39	0	3145728	60	15804
2026-01-01 15:47:54.61	21.77	3.57	-45.2	-49.1	12.5	1.82e-04	11	39	0	10485760	60	10248
2026-01-01 15:47:58.64	21.65	3.84	-46.9	-54.6	4.3	0.00e+00	0	39	0	18874368	60	19333
2026-01-01 15:48:02.68	21.53	4.11	-40.4	-41.8	19.8	0.00e+00	0	39	0	24117248	54	6302
2026-01-01 15:48:06.71	21.40	4.38	-39.6	-40.8	20.6	0.00e+00	0	39	0	31457280	52	6284
2026-01-01 15:48:10.75	21.28	4.65	-39.6	-40.8	20.7	0.00e+00	92	39	0	38797312	52	6265
2026-01-01 15:48:14.79	21.15	4.93	-39.6	-40.9	20.7	0.00e+00	0	39	0	46137344	52	6320
2026-01-01 15:48:18.83	21.01	5.21	-39.4	-40.6	21.0	0.00e+00	0	39	0	54525952	52	6145
2026-01-01 15:48:22.87	20.88	5.50	-39.4	-40.6	21.0	0.00e+00	16	39	0	61865984	52	6145
2026-01-01 15:48:26.91	20.74	5.79	-39.2	-40.3	21.5	0.00e+00	45	39	0	69206016	52	5936
2026-01-01 15:48:30.94	20.60	6.08	-39.0	-40.1	21.5	0.00e+00	0	39	0	76546048	52	5820
2026-01-01 15:48:34.98	20.45	6.37	-39.0	-40.1	21.6	0.00e+00	0	39	0	83886080	52	5790
2026-01-01 15:48:39.02	20.30	6.66	-38.9	-40.0	21.7	0.00e+00	17	39	0	92274688	52	5702
2026-01-01 15:48:43.06	20.15	6.96	-38.9	-40.0	21.8	0.00e+00	0	39	0	99614720	50	6416
2026-01-01 15:48:47.09	20.00	7.27	-39.0	-40.1	21.6	0.00e+00	0	39	0	106954752	50	6476
2026-01-01 15:48:51.13	19.84	7.57	-38.9	-40.0	21.8	0.00e+00	33	39	0	114294784	50	6424
2026-01-01 15:48:55.17	19.67	7.88	-39.0	-40.1	21.7	0.00e+00	66	39	0	122683392	50	6535
2026-01-01 15:48:59.21	19.51	8.20	-39.0	-40.1	21.4	0.00e+00	0	39	0	130023424	50	6497
2026-01-01 15:49:03.25	19.34	8.51	-39.0	-40.1	21.6	0.00e+00	17	39	0	137363456	50	6483
2026-01-01 15:49:07.28	19.16	8.83	-39.1	-40.2	21.6	0.00e+00	0	39	0	144703488	50	6606
2026-01-01 15:49:11.32	18.98	9.16	-38.9	-40.0	21.8	0.00e+00	92	39	0	152043520	50	6455
2026-01-01 15:49:15.36	18.80	9.49	-38.8	-39.9	22.0	0.00e+00	0	39	0	160432128	50	6342
2026-01-01 15:49:19.40	18.61	9.82	-38.6	-39.6	22.2	0.00e+00	0	39	0	167772160	50	6168
2026-01-01 15:49:23.44	18.42	10.16	-38.5	-39.6	22.2	0.00e+00	14	39	0	175112192	50	6129
2026-01-01 15:49:27.48	18.22	10.50	-38.5	-39.5	22.3	0.00e+00	0	39	0	182452224	50	6048
2026-01-01 15:49:31.52	18.02	10.84	-38.3	-39.3	22.5	0.00e+00	0	39	0	190840832	50	5934
2026-01-01 15:49:35.56	17.81	11.19	-38.0	-39.0	22.7	0.00e+00	0	39	0	198180864	50	5708
2026-01-01 15:49:39.60	17.59	11.55	-37.9	-38.8	23.0	0.00e+00	92	39	0	205520896	50	5614
2026-01-01 15:49:43.64	17.37	11.91	-37.8	-38.8	23.1	0.00e+00	0	39	0	212860928	50	5570
2026-01-01 15:49:47.68	17.15	12.27	-37.9	-38.8	23.0	0.00e+00	0	39	0	220200960	48	6293
2026-01-01 15:49:51.72	16.92	12.64	-37.9	-38.8	23.0	0.00e+00	0	39	0	228589568	48	6304
2026-01-01 15:49:55.75	16.68	13.02	-37.8	-38.8	23.0	0.00e+00	92	39	0	235929600	48	6251
2026-01-01 15:49:59.79	16.44	13.40	-37.9	-38.9	22.9	0.00e+00	0	39	0	243269632	48	6321
2026-01-01 15:50:03.83	16.19	13.78	-37.9	-38.9	23.0	0.00e+00	0	39	0	250609664	48	6334
2026-01-01 15:50:07.87	15.93	14.17	-38.0	-39.0	22.9	0.00e+00	21	39	0	258998272	48	6409
2026-01-01 15:50:11.91	15.66	14.57	-37.8	-38.7	23.1	0.00e+00	80	39	0	266338304	48	6237
2026-01-01 15:50:15.95	15.39	14.97	-37.9	-38.8	23.1	0.00e+00	0	39	0	273678336	48	6315
2026-01-01 15:50:19.99	15.11	15.38	-37.7	-38.6	23.2	0.00e+00	0	39	0	281018368	48	6145
2026-01-01 15:50:24.03	14.82	15.80	-37.7	-38.6	23.2	0.00e+00	52	39	0	288358400	48	6161
2026-01-01 15:50:28.07	14.52	16.22	-37.7	-38.6	23.3	0.00e+00	0	39	0	296747008	48	6167
2026-01-01 15:50:32.11	14.21	16.64	-38.1	-39.1	23.1	0.00e+00	0	39	0	304087040	48	6483
2026-01-01 15:50:36.14	13.90	17.08	-38.3	-39.3	22.7	0.00e+00	0	39	0	311427072	48	6673
2026-01-01 15:50:40.18	13.57	17.52	-38.4	-39.4	22.7	0.00e+00	92	39	0	318767104	50	5973
2026-01-01 15:50:44.22	13.24	17.97	-38.0	-38.9	23.0	0.00e+00	13	39	0	327155712	50	5691
2026-01-01 15:50:48.25	12.89	18.42	-37.7	-38.6	23.2	0.00e+00	0	39	0	334495744	48	6144
2026-01-01 15:50:52.29	12.53	18.89	-37.7	-38.6	23.3	0.00e+00	0	39	0	341835776	48	6132
2026-01-01 15:50:56.33	12.16	19.36	-38.4	-39.4	22.8	0.00e+00	92	39	0	349175808	48	6762
2026-01-01 15:51:00.37	11.78	19.84	-38.9	-39.9	22.4	0.00e+00	0	39	0	356515840	50	6356
2026-01-01 15:51:04.41	11.39	20.32	-38.9	-40.0	22.3	0.00e+00	0	39	0	364904448	50	6404
2026-01-01 15:51:08.45	10.98	20.82	-38.6	-39.5	22.6	0.00e+00	52	39	0	372244480	50	6100
2026-01-01 15:51:12.49	10.56	21.32	-38.6	-39.6	22.7	0.00e+00	0	39	0	379584512	50	6160
2026-01-01 15:51:16.53	10.12	21.83	-38.8	-39.8	22.6	0.00e+00	0	39	0	386924544	50	6266
2026-01-01 15:51:20.57	9.67	22.35	-38.4	-39.4	22.8	0.00e+00	0	39	0	395313152	50	5999
2026-01-01 15:51:24.61	9.20	22.88	-38.5	-39.4	22.7	0.00e+00	92	39	0	402653184	50	6025
2026-01-01 15:51:28.64	8.72	23.42	-38.8	-39.8	22.4	0.00e+00	0	39	0	409993216	50	6287
2026-01-01 15:51:32.68	8.22	23.96	-39.3	-40.3	22.0	0.00e+00	0	39	0	417333248	50	6663
2026-01-01 15:51:36.72	7.70	24.52	-39.4	-40.4	22.0	0.00e+00	0	39	0	424673280	50	6762
2026-01-01 15:51:40.76	7.16	25.08	-39.6	-40.7	21.7	0.00e+00	92	39	0	433061888	50	7007
2026-01-01 15:51:44.79	6.60	25.65	-40.0	-41.1	21.4	0.00e+00	0	39	0	440401920	52	6536
2026-01-01 15:51:48.83	6.02	26.24	-39.8	-41.0	21.6	0.00e+00	22	39	0	447741952	52	6419
2026-01-01 15:51:52.87	5.42	26.83	-38.7	-39.7	22.6	0.00e+00	24	39	0	455081984	50	6219
2026-01-01 15:51:56.91	4.79	27.43	-39.1	-40.1	22.5	0.00e+00	48	39	0	463470592	50	6508
2026-01-01 15:52:00.95	4.14	28.05	-39.1	-40.1	22.3	0.00e+00	0	39	0	470810624	50	6532
2026-01-01 15:52:04.98	3.46	28.67	-38.8	-39.8	22.2	0.00e+00	0	39	0	478150656	50	6247
2026-01-01 15:52:09.02	2.76	29.30	-39.3	-40.3	22.1	0.00e+00	0	39	0	485490688	50	6688
2026-01-01 15:52:13.06	2.02	29.94	-39.5	-40.6	22.0	0.00e+00	0	39	0	492830720	52	6139
2026-01-01 15:52:17.10	1.26	30.58	-39.6	-40.7	21.9	0.00e+00	0	39	0	501219328	52	6233
2026-01-01 15:52:21.14	0.46	31.24	-40.0	-41.1	21.4	0.00e+00	22	39	0	508559360	52	6504
2026-01-01 15:52:25.17	359.63	31.91	-40.4	-41.6	21.1	0.00e+00	92	39	0	515899392	52	6855
2026-01-01 15:52:29.21	358.76	32.58	-40.5	-41.7	20.9	0.00e+00	0	39	0	523239424	54	6231
2026-01-01 15:52:33.25	357.86	33.26	-40.6	-41.8	20.9	0.00e+00	0	39	0	531628032	54	6308
2026-01-01 15:52:37.29	356.92	33.95	-39.8	-40.9	21.7	0.00e+00	0	39	0	538968064	54	5638
2026-01-01 15:52:41.33	355.93	34.64	-41.6	-43.1	19.9	0.00e+00	92	39	0	546308096	56	6487
2026-01-01 15:52:45.36	354.90	35.34	-40.4	-41.6	21.2	0.00e+00	0	39	0	553648128	54	6128
2026-01-01 15:52:49.40	353.83	36.04	-40.6	-41.9	20.8	0.00e+00	0	39	0	560988160	54	6334
2026-01-01 15:52:53.44	352.71	36.75	-40.9	-42.2	20.5	0.00e+00	69	39	0	569376768	54	6577
2026-01-01 15:52:57.49	351.53	37.46	-42.1	-43.6	19.4	0.00e+00	0	39	0	576716800	56	6873
2026-01-01 15:53:01.52	350.31	38.17	-39.2	-40.2	22.3	0.00e+00	0	39	0	584056832	52	5848
2026-01-01 15:53:05.56	349.03	38.88	-40.1	-41.2	21.2	0.00e+00	0	39	0	591396864	52	6601
2026-01-01 15:53:09.60	347.69	39.59	-39.8	-40.8	21.5	0.00e+00	18	40	0	599785472	52	6313
2026-01-01 15:53:13.64	346.29	40.29	-39.9	-40.9	21.8	0.00e+00	0	39	0	607125504	52	6371
2026-01-01 15:53:17.67	344.83	40.99	-39.8	-40.9	21.7	0.00e+00	0	39	0	614465536	52	6339
2026-01-01 15:53:21.71	343.31	41.68	-41.5	-42.9	19.9	0.00e+00	0	39	0	621805568	54	7137
2026-01-01 15:53:25.75	341.72	42.35	-39.9	-41.0	21.7	0.00e+00	43	39	0	629145600	54	5747
2026-01-01 15:53:29.79	340.06	43.01	-40.3	-41.5	21.2	0.00e+00	0	39	0	637534208	52	6797
2026-01-01 15:53:33.83	338.33	43.66	-41.7	-43.2	19.6	0.00e+00	0	39	0	644874240	54	7397
2026-01-01 15:53:37.87	336.53	44.28	-39.4	-40.5	22.2	0.00e+00	27	39	0	652214272	52	6078
2026-01-01 15:53:41.90	334.66	44.89	-37.7	-38.5	23.8	0.00e+00	17	39	0	659554304	48	6077
2026-01-01 15:53:45.94	332.72	45.46	-39.2	-40.3	22.1	0.00e+00	0	39	0	667942912	50	6621
2026-01-01 15:53:49.98	330.70	46.01	-39.8	-40.9	21.7	0.00e+00	0	40	0	675282944	52	6376
2026-01-01 15:53:54.02	328.62	46.52	-39.2	-40.2	22.0	0.00e+00	86	39	0	682622976	52	5892
2026-01-01 15:53:58.06	326.47	46.99	-38.5	-39.4	22.9	0.00e+00	0	39	0	689963008	50	6001
2026-01-01 15:54:02.10	324.26	47.43	-40.4	-41.6	21.3	0.00e+00	0	40	0	697303040	52	6910
2026-01-01 15:54:06.14	321.98	47.82	-44.4	-47.2	16.1	0.00e+00	26	39	0	705691648	60	8235
2026-01-01 15:54:10.18	319.66	48.16	-41.8	-43.4	19.3	0.00e+00	90	39	0	713031680	56	6769
2026-01-01 15:54:14.21	317.29	48.45	-40.6	-41.8	20.8	0.00e+00	0	39	0	720371712	54	6317
2026-01-01 15:54:18.25	314.87	48.69	-39.9	-41.1	21.3	0.00e+00	4	39	0	727711744	52	6471
2026-01-01 15:54:22.29	312.42	48.88	-38.7	-39.7	22.5	0.00e+00	0	39	0	736100352	50	6224
2026-01-01 15:54:26.33	309.94	49.00	-37.8	-38.7	23.6	0.00e+00	92	39	0	743440384	50	5530
2026-01-01 15:54:30.36	307.45	49.07	-37.1	-37.9	24.0	0.00e+00	0	39	0	750780416	46	6372
2026-01-01 15:54:34.40	304.95	49.09	-39.5	-40.6	21.8	0.00e+00	0	39	0	758120448	50	6900
2026-01-01 15:54:38.44	302.45	49.04	-39.2	-40.3	22.2	0.00e+00	79	39	0	765460480	50	6627
2026-01-01 15:54:42.48	299.96	48.94	-38.3	-39.2	22.9	0.00e+00	0	39	0	773849088	50	5852
2026-01-01 15:54:46.52	297.50	48.77	-37.4	-38.3	23.8	0.00e+00	0	39	0	781189120	48	5908
2026-01-01 15:54:50.55	295.07	48.56	-39.3	-40.3	22.1	0.00e+00	0	39	0	788529152	50	6644
2026-01-01 15:54:54.59	292.67	48.28	-39.7	-40.8	21.8	0.00e+00	92	39	0	795869184	52	6293
2026-01-01 15:54:58.63	290.32	47.96	-40.9	-42.3	20.6	0.00e+00	0	39	0	804257792	54	6625
2026-01-01 15:55:02.67	288.02	47.59	-39.6	-40.7	22.0	0.00e+00	0	39	0	811597824	52	6216
2026-01-01 15:55:06.71	285.78	47.17	-39.8	-40.9	21.9	0.00e+00	0	39	0	818937856	52	6364
2026-01-01 15:55:10.75	283.60	46.71	-39.6	-40.6	22.1	0.00e+00	92	39	0	826277888	52	6136
2026-01-01 15:55:14.78	281.50	46.22	-38.6	-39.6	22.8	0.00e+00	0	39	0	833617920	50	6116
2026-01-01 15:55:18.82	279.45	45.68	-40.4	-41.5	21.1	0.00e+00	0	39	0	842006528	52	6848
2026-01-01 15:55:22.86	277.48	45.12	-39.8	-41.0	21.7	0.00e+00	2	39	0	849346560	52	6394
2026-01-01 15:55:26.90	275.57	44.53	-38.8	-39.8	22.6	0.00e+00	0	39	0	856686592	50	6271
2026-01-01 15:55:30.93	273.74	43.91	-37.9	-38.8	23.4	0.00e+00	0	39	0	864026624	48	6258
2026-01-01 15:55:34.98	271.98	43.27	-37.0	-37.7	23.9	0.00e+00	0	39	0	872415232	48	5562
2026-01-01 15:55:39.02	270.29	42.61	-38.2	-39.1	23.0	0.00e+00	5	39	0	879755264	48	6520
2026-01-01 15:55:43.05	268.67	41.94	-39.3	-40.4	22.2	0.00e+00	0	39	0	887095296	50	6700
2026-01-01 15:55:47.09	267.11	41.26	-38.3	-39.2	23.2	0.00e+00	0	39	0	894435328	50	5847
2026-01-01 15:55:51.13	265.62	40.56	-39.5	-40.6	21.9	0.00e+00	0	39	0	901775360	52	6172
2026-01-01 15:55:55.16	264.20	39.86	-39.5	-40.6	22.2	0.00e+00	90	39	0	910163968	50	6881
2026-01-01 15:55:59.20	262.83	39.15	-40.1	-41.2	21.4	0.00e+00	0	39	0	917504000	54	5858
2026-01-01 15:56:03.24	261.53	38.44	-39.6	-40.6	22.0	0.00e+00	0	39	0	924844032	52	6142
2026-01-01 15:56:07.28	260.27	37.73	-40.9	-42.2	20.5	0.00e+00	22	39	0	932184064	54	6567
2026-01-01 15:56:11.32	259.08	37.02	-41.0	-42.3	20.5	0.00e+00	91	39	0	940572672	56	5964
2026-01-01 15:56:15.36	257.93	36.30	-42.8	-44.6	18.3	0.00e+00	0	39	0	947912704	58	6921
2026-01-01 15:56:19.40	256.83	35.60	-42.6	-44.2	17.8	0.00e+00	0	39	0	955252736	56	7415
2026-01-01 15:56:23.44	255.78	34.89	-43.9	-46.0	17.5	0.00e+00	18	39	0	962592768	60	7199
2026-01-01 15:56:27.48	254.78	34.19	-42.0	-43.5	19.5	0.00e+00	0	39	0	969932800	56	6771
2026-01-01 15:56:31.52	253.82	33.50	-40.4	-41.5	21.1	0.00e+00	0	39	0	978321408	54	6055
2026-01-01 15:56:35.56	252.89	32.81	-39.5	-40.5	22.1	0.00e+00	0	39	0	985661440	50	6817
2026-01-01 15:56:39.60	252.01	32.14	-42.3	-43.9	19.2	0.00e+00	92	39	0	993001472	56	7117
2026-01-01 15:56:43.64	251.16	31.46	-41.9	-43.4	19.3	0.00e+00	0	39	0	1000341504	56	6731
2026-01-01 15:56:47.67	250.35	30.80	-39.6	-40.6	22.0	0.00e+00	0	39	0	1008730112	52	6138
2026-01-01 15:56:51.71	249.57	30.15	-40.8	-42.1	20.6	0.00e+00	0	39	0	1016070144	52	7306
2026-01-01 15:56:55.75	248.82	29.50	-40.3	-41.5	21.2	0.00e+00	90	39	0	1023410176	54	6050
2026-01-01 15:56:59.79	248.10	28.87	-38.3	-39.2	22.9	0.00e+00	0	39	0	1030750208	50	5867
2026-01-01 15:57:03.83	247.41	28.24	-40.7	-42.0	20.7	0.00e+00	0	39	0	1038090240	52	7179
2026-01-01 15:57:07.87	246.75	27.62	-40.4	-41.5	21.1	0.00e+00	68	39	0	1046478848	54	6097
2026-01-01 15:57:11.91	246.11	27.01	-38.7	-39.7	22.7	0.00e+00	0	39	0	1053818880	50	6191
2026-01-01 15:57:15.94	245.49	26.42	-39.2	-40.2	22.2	0.00e+00	0	39	0	1061158912	50	6607
2026-01-01 15:57:19.98	244.90	25.83	-39.4	-40.4	21.9	0.00e+00	0	39	0	1068498944	52	5977
2026-01-01 15:57:24.02	244.33	25.25	-39.8	-40.9	21.7	0.00e+00	92	39	0	1076887552	52	6322
2026-01-01 15:57:28.06	243.78	24.68	-40.8	-42.0	20.6	0.00e+00	0	39	0	1084227584	54	6433
2026-01-01 15:57:32.10	243.25	24.12	-39.4	-40.4	22.2	0.00e+00	0	39	0	1091567616	52	5988
2026-01-01 15:57:36.13	242.74	23.57	-39.1	-40.1	22.3	0.00e+00	0	39	0	1098907648	52	5815
2026-01-01 15:57:40.17	242.25	23.02	-39.3	-40.3	22.1	0.00e+00	92	39	0	1106247680	52	5951
2026-01-01 15:57:44.21	241.77	22.49	-39.8	-41.0	21.7	0.00e+00	0	39	0	1114636288	52	6428
2026-01-01 15:57:48.25	241.31	21.97	-39.2	-40.2	22.2	0.00e+00	0	39	0	1121976320	52	5888
2026-01-01 15:57:52.29	240.87	21.45	-39.2	-40.3	22.1	0.00e+00	54	39	0	1129316352	50	6630
2026-01-01 15:57:56.32	240.44	20.94	-41.1	-42.5	20.1	0.00e+00	11	39	0	1136656384	54	6804
2026-01-01 15:58:00.36	240.02	20.44	-41.3	-42.7	20.0	0.00e+00	0	39	0	1143996416	56	6204
2026-01-01 15:58:04.40	239.62	19.95	-40.3	-41.5	21.0	0.00e+00	0	39	0	1152385024	54	6092
2026-01-01 15:58:08.43	239.23	19.47	-40.1	-41.3	21.2	0.00e+00	8	39	0	1159725056	54	5935
2026-01-01 15:58:12.47	238.86	19.00	-40.0	-41.2	21.4	0.00e+00	0	39	0	1167065088	54	5840
2026-01-01 15:58:16.51	238.49	18.53	-40.1	-41.3	21.1	0.00e+00	0	39	0	1174405120	54	5920
2026-01-01 15:58:20.55	238.14	18.07	-40.5	-41.7	20.8	0.00e+00	0	39	0	1182793728	54	6235
2026-01-01 15:58:24.59	237.79	17.62	-40.0	-41.1	21.3	0.00e+00	92	39	0	1190133760	54	5823
2026-01-01 15:58:28.63	237.46	17.17	-39.7	-40.8	21.6	0.00e+00	0	39	0	1197473792	52	6309
2026-01-01 15:58:32.66	237.14	16.73	-40.2	-41.4	21.1	0.00e+00	0	39	0	1204813824	52	6695
2026-01-01 15:58:36.69	236.83	16.30	-40.5	-41.8	20.7	0.00e+00	0	39	0	1212153856	52	7015
2026-01-01 15:58:40.73	236.52	15.88	-40.0	-41.2	21.1	0.00e+00	90	39	0	1220542464	52	6574
2026-01-01 15:58:44.77	236.23	15.46	-39.7	-40.7	21.6	0.00e+00	0	39	0	1227882496	52	6237
2026-01-01 15:58:48.81	235.94	15.05	-39.6	-40.6	21.6	0.00e+00	0	39	0	1235222528	52	6158
2026-01-01 15:58:52.85	235.66	14.64	-39.9	-41.0	21.3	0.00e+00	15	39	0	1242562560	52	6405
2026-01-01 15:58:56.89	235.39	14.24	-40.4	-41.6	20.8	0.00e+00	9	39	0	1250951168	52	6873
2026-01-01 15:59:00.93	235.13	13.85	-40.5	-41.7	20.7	0.00e+00	0	39	0	1258291200	52	6992
2026-01-01 15:59:04.96	234.87	13.46	-40.9	-42.3	20.1	0.00e+00	0	39	0	1265631232	54	6628
2026-01-01 15:59:09.01	234.62	13.07	-41.0	-42.3	19.9	0.00e+00	92	39	0	1272971264	54	6677
2026-01-01 15:59:13.04	234.38	12.70	-41.6	-43.1	19.3	0.00e+00	0	39	0	1280311296	54	7289
2026-01-01 15:59:17.08	234.15	12.32	-42.1	-43.7	18.9	0.00e+00	0	39	0	1288699904	56	6949
2026-01-01 15:59:21.12	233.91	11.96	-42.4	-44.1	18.2	0.00e+00	0	39	0	1296039936	56	7335
2026-01-01 15:59:25.16	233.69	11.59	-43.0	-45.0	17.5	0.00e+00	73	39	0	1303379968	58	7185
2026-01-01 15:59:29.20	233.47	11.24	-43.1	-45.1	17.3	0.00e+00	11	39	0	1310720000	58	7288
2026-01-01 15:59:33.23	233.26	10.89	-43.4	-45.5	16.9	0.00e+00	0	39	0	1319108608	58	7631
2026-01-01 15:59:37.27	233.05	10.54	-43.5	-45.7	16.5	0.00e+00	13	39	0	1326448640	58	7800
2026-01-01 15:59:41.31	232.85	10.19	-43.6	-45.8	16.6	0.00e+00	92	39	0	1333788672	58	7908
2026-01-01 15:59:45.35	232.65	9.85	-43.9	-46.3	16.1	0.00e+00	0	39	0	1341128704	60	7462
2026-01-01 15:59:49.39	232.46	9.52	-44.0	-46.5	15.9	0.00e+00	0	39	0	1348468736	60	7624
2026-01-01 15:59:53.43	232.27	9.19	-44.3	-47.0	15.2	0.00e+00	92	39	0	1356857344	60	8098
2026-01-01 15:59:57.47	232.09	8.86	-44.8	-47.9	14.3	0.00e+00	0	39	0	1364197376	60	8965
2026-01-01 16:00:01.51	231.91	8.54	-45.1	-48.4	13.8	1.50e-06	0	39	0	1371537408	60	9524
2026-01-01 16:00:05.55	231.73	8.22	-45.7	-49.5	12.6	7.70e-05	0	39	0	1378877440	60	10809
2026-01-01 16:00:09.59	231.56	7.90	-45.9	-50.2	11.8	4.82e-04	91	39	0	1387266048	60	11704
2026-01-01 16:00:13.62	231.39	7.59	-46.2	-50.8	11.0	1.64e-03	0	39	0	1394606080	60	12559
2026-01-01 16:00:17.66	231.23	7.28	-46.3	-51.2	10.7	4.61e-03	25	39	0	1401946112	60	13081
2026-01-01 16:00:21.70	231.07	6.98	-46.4	-51.4	10.2	5.00e-03	0	39	0	1409286144	60	13461
2026-01-01 16:00:25.74	230.91	6.68	-46.3	-51.4	10.1	5.60e-03	92	39	0	1416626176	60	13373
2026-01-01 16:00:29.78	230.76	6.38	-46.2	-51.4	9.9	8.80e-03	0	39	0	1425014784	60	13460
2026-01-01 16:00:33.82	230.61	6.08	-46.4	-52.1	9.1	1.70e-02	0	39	0	1432354816	60	14609
2026-01-01 16:00:37.86	230.46	5.79	-46.5	-52.5	8.6	2.78e-02	71	39	0	1439694848	60	15278
2026-01-01 16:00:41.90	230.32	5.50	-46.4	-52.4	8.4	5.30e-02	0	39	0	1447034880	60	15131
2026-01-01 16:00:45.94	230.18	5.22	-46.5	-53.1	7.6	8.59e-02	0	39	0	1455423488	60	16269
2026-01-01 16:00:49.98	230.04	4.94	-46.3	-52.9	7.6	9.37e-02	0	39	0	1462763520	60	15948
2026-01-01 16:00:54.02	229.91	4.66	-46.4	-53.5	6.8	1.45e-01	90	39	0	1470103552	60	17134
2026-01-01 16:00:58.06	229.78	4.38	-46.3	-53.3	6.8	1.61e-01	0	39	0	1477443584	60	16790
2026-01-01 16:01:02.10	229.65	4.10	-46.2	-53.9	6.1	2.56e-01	0	39	0	1484783616	60	17947
2026-01-01 16:01:06.14	229.52	3.83	-46.1	-53.7	6.1	3.07e-01	9	39	0	1493172224	60	17465
2026-01-01 16:01:10.18	229.40	3.56	-46.1	-54.2	5.5	3.88e-01	90	39	0	1500512256	60	18457
2026-01-01 16:01:14.22	229.28	3.29	-46.1	-54.3	5.4	3.85e-01	0	39	0	1507852288	60	18812
2026-01-01 16:01:18.26	229.16	3.03	-46.0	-54.4	5.3	5.88e-01	0	39	0	1515192320	60	18957
2026-01-01 16:01:22.30	229.04	2.77	-48.9	-64.1	3.6	1.51e+00	0	39	104	1516240896	60	58016
2026-01-01 16:01:26.34	228.92	2.51	-49.1	-64.3	3.6	1.51e+00	0	39	104	1516240896	60	58970
2026-01-01 16:01:30.38	228.81	2.25	-48.9	-64.2	3.6	1.51e+00	0	39	104	1516240896	60	58354
2026-01-01 16:01:34.42	228.70	1.99	-48.9	-64.1	3.6	1.51e+00	0	39	104	1516240896	60	58233
2026-01-01 16:01:38.46	228.59	1.74	-49.0	-64.1	3.6	1.51e+00	0	39	104	1516240896	60	58174
2026-01-01 16:01:42.50	228.49	1.49	-48.9	-64.1	3.6	1.51e+00	0	39	104	1516240896	60	58221
2026-01-01 16:01:46.54	228.38	1.24	-49.0	-64.1	3.6	1.51e+00	0	39	104	1516240896	60	58155
2026-01-01 16:01:50.58	228.28	0.99	-48.9	-64.1	3.6	1.51e+00	0	39	104	1516240896	60	57999
2026-01-01 16:01:54.62	228.18	0.75	-48.9	-64.1	3.6	1.51e+00	0	39	104	1516240896	60	58099
2026-01-01 16:01:58.65	228.08	0.51	-49.0	-64.1	3.6	1.51e+00	0	39	104	1516240896	60	58145
2026-01-01 16:02:02.69	227.99	0.26	-49.0	-64.1	3.6	1.51e+00	0	39	104	1516240896	60	58084
2026-01-01 16:02:06.73	227.89	0.02	-48.9	-64.1	3.6	1.51e+00	0	39	104	1516240896	60	58211

#Closed at: 2026-01-01 16:02:09
#Recorded file [1516 MB]: D:/lorett/data/35029_260102_034658.dat