passes_logs/2025/01/28/X_MFTI_02/X_MFTI_02__20250128_233200_NOAA_20_rec.log

#Pass ID: 20250128_233200_NOAA 20
#Satellite: NOAA 20
#Configuration: NOAA 20
#Start time: 2025-01-28 23:31:57

#Version: 1.5.20200625
#Station: X_MFTI_02
#Location: 37.5186 lon 55.9291 lat
#TLE: 1 43013U 17073A   23362.44808611  .00000160  00000+0  96626-4 0  9996
#TLE: 2 43013  98.7331 297.9536 0000783  57.5916 302.5335 14.19555620316533

#Time	Az	El	Level	Level2	SNR	BER	Gain	Gain2
2025-01-28 23:31:59.36	76.54	69.79	
2025-01-28 23:31:59.57	76.80	69.83	
2025-01-28 23:31:59.77	77.05	69.88	
2025-01-28 23:31:59.97	77.31	69.92	
2025-01-28 23:32:00.18	77.57	69.96	
2025-01-28 23:32:00.38	77.83	70.01	
2025-01-28 23:32:00.58	78.08	70.05	
2025-01-28 23:32:00.79	78.35	70.09	
2025-01-28 23:32:00.99	78.61	70.13	
2025-01-28 23:32:01.19	78.87	70.17	
2025-01-28 23:32:01.41	79.16	70.22	
2025-01-28 23:32:01.61	79.42	70.26	
2025-01-28 23:32:01.81	79.68	70.30	
2025-01-28 23:32:02.02	79.96	70.34	
2025-01-28 23:32:02.23	80.24	70.38	
2025-01-28 23:32:02.44	80.52	70.42	
2025-01-28 23:32:02.64	80.78	70.45	
2025-01-28 23:32:02.84	81.05	70.49	
2025-01-28 23:32:03.04	81.32	70.53	
2025-01-28 23:32:03.24	81.59	70.57	
2025-01-28 23:32:03.45	81.88	70.60	
2025-01-28 23:32:03.65	82.15	70.64	
2025-01-28 23:32:03.86	82.44	70.68	
2025-01-28 23:32:04.06	82.71	70.71	
2025-01-28 23:32:04.26	82.99	70.75	
2025-01-28 23:32:04.47	83.28	70.78	
2025-01-28 23:32:04.67	83.56	70.82	
2025-01-28 23:32:04.88	83.85	70.85	
2025-01-28 23:32:05.09	84.15	70.89	
2025-01-28 23:32:05.29	84.43	70.92	
2025-01-28 23:32:05.50	84.73	70.95	
2025-01-28 23:32:05.70	85.01	70.98	
2025-01-28 23:32:05.90	85.29	71.01	
2025-01-28 23:32:06.10	85.58	71.04	
2025-01-28 23:32:06.32	85.89	71.08	
2025-01-28 23:32:06.52	86.18	71.11	
2025-01-28 23:32:06.72	86.47	71.14	
2025-01-28 23:32:06.92	86.76	71.17	
2025-01-28 23:32:07.13	87.06	71.20	
2025-01-28 23:32:07.33	87.36	71.22	
2025-01-28 23:32:07.54	87.66	71.25	
2025-01-28 23:32:07.74	87.96	71.28	
2025-01-28 23:32:07.95	88.26	71.31	
2025-01-28 23:32:08.15	88.56	71.33	
2025-01-28 23:32:08.36	88.87	71.36	
2025-01-28 23:32:08.57	89.18	71.39	
2025-01-28 23:32:08.77	89.48	71.41	
2025-01-28 23:32:08.98	89.79	71.44	
2025-01-28 23:32:09.19	90.11	71.46	
2025-01-28 23:32:09.39	90.41	71.49	
2025-01-28 23:32:09.60	90.72	71.51	
2025-01-28 23:32:09.80	91.03	71.53	
2025-01-28 23:32:10.00	91.33	71.55	
2025-01-28 23:32:10.22	91.66	71.58	
2025-01-28 23:32:10.42	91.97	71.60	
2025-01-28 23:32:10.63	92.29	71.62	
2025-01-28 23:32:10.83	92.59	71.64	
2025-01-28 23:32:11.03	92.90	71.66	
2025-01-28 23:32:11.24	93.22	71.68	
2025-01-28 23:32:11.45	93.54	71.70	
2025-01-28 23:32:11.67	93.88	71.72	
2025-01-28 23:32:11.87	94.19	71.73	
2025-01-28 23:32:12.07	94.50	71.75	
2025-01-28 23:32:12.28	94.83	71.77	
2025-01-28 23:32:12.48	95.14	71.78	
2025-01-28 23:32:12.69	95.47	71.80	
2025-01-28 23:32:12.89	95.78	71.81	
2025-01-28 23:32:13.09	96.09	71.83	
2025-01-28 23:32:13.30	96.42	71.84	
2025-01-28 23:32:13.51	96.75	71.86	
2025-01-28 23:32:13.72	97.08	71.87	
2025-01-28 23:32:13.92	97.39	71.88	
2025-01-28 23:32:14.12	97.71	71.89	
2025-01-28 23:32:14.32	98.02	71.90	
2025-01-28 23:32:14.53	98.35	71.92	
2025-01-28 23:32:14.73	98.67	71.93	
2025-01-28 23:32:14.94	99.00	71.94	
2025-01-28 23:32:15.14	99.32	71.94	
2025-01-28 23:32:15.34	99.64	71.95	
2025-01-28 23:32:15.55	99.97	71.96	
2025-01-28 23:32:15.75	100.29	71.97	
2025-01-28 23:32:15.95	100.61	71.98	
2025-01-28 23:32:16.15	100.92	71.98	
2025-01-28 23:32:16.36	101.26	71.99	
2025-01-28 23:32:16.56	101.58	71.99	
2025-01-28 23:32:16.76	101.90	72.00	
2025-01-28 23:32:16.97	102.23	72.00	
2025-01-28 23:32:17.17	102.55	72.01	
2025-01-28 23:32:17.37	102.87	72.01	
2025-01-28 23:32:17.58	103.21	72.01	
2025-01-28 23:32:17.78	103.53	72.01	
2025-01-28 23:32:17.99	103.86	72.02	
2025-01-28 23:32:18.20	104.20	72.02	
2025-01-28 23:32:18.41	104.53	72.02	
2025-01-28 23:32:18.61	104.85	72.02	
2025-01-28 23:32:18.81	105.17	72.02	
2025-01-28 23:32:19.02	105.51	72.01	
2025-01-28 23:32:19.23	105.84	72.01	
2025-01-28 23:32:19.43	106.16	72.01	
2025-01-28 23:32:19.63	106.48	72.01	
2025-01-28 23:32:19.84	106.82	72.00	
2025-01-28 23:32:20.05	107.15	72.00	
2025-01-28 23:32:20.25	107.47	72.00	
2025-01-28 23:32:20.46	107.81	71.99	
2025-01-28 23:32:20.67	108.14	71.98	
2025-01-28 23:32:20.88	108.48	71.98	
2025-01-28 23:32:21.08	108.79	71.97	
2025-01-28 23:32:21.29	109.13	71.96	
2025-01-28 23:32:21.50	109.46	71.96	
2025-01-28 23:32:21.70	109.78	71.95	
2025-01-28 23:32:21.91	110.11	71.94	
2025-01-28 23:32:22.12	110.45	71.93	
2025-01-28 23:32:22.32	110.76	71.92	
2025-01-28 23:32:22.53	111.09	71.91	
2025-01-28 23:32:22.74	111.42	71.90	
2025-01-28 23:32:22.94	111.74	71.88	
2025-01-28 23:32:23.15	112.07	71.87	
2025-01-28 23:32:23.35	112.38	71.86	
2025-01-28 23:32:23.57	112.73	71.84	
2025-01-28 23:32:23.78	113.06	71.83	
2025-01-28 23:32:23.98	113.37	71.82	
2025-01-28 23:32:24.19	113.70	71.80	
2025-01-28 23:32:24.40	114.03	71.78	
2025-01-28 23:32:24.60	114.34	71.77	
2025-01-28 23:32:24.81	114.66	71.75	
2025-01-28 23:32:25.01	114.97	71.74	
2025-01-28 23:32:25.21	115.28	71.72	
2025-01-28 23:32:25.42	115.61	71.70	
2025-01-28 23:32:25.62	115.91	71.68	
2025-01-28 23:32:25.82	116.22	71.66	
2025-01-28 23:32:26.03	116.54	71.64	
2025-01-28 23:32:26.24	116.86	71.62	
2025-01-28 23:32:26.45	117.18	71.60	
2025-01-28 23:32:26.65	117.49	71.58	
2025-01-28 23:32:26.86	117.81	71.56	
2025-01-28 23:32:27.06	118.11	71.54	
2025-01-28 23:32:27.27	118.43	71.51	
2025-01-28 23:32:27.47	118.73	71.49	
2025-01-28 23:32:27.69	119.06	71.46	
2025-01-28 23:32:27.89	119.36	71.44	
2025-01-28 23:32:28.09	119.66	71.42	
2025-01-28 23:32:28.30	119.97	71.39	
2025-01-28 23:32:28.51	120.28	71.36	
2025-01-28 23:32:28.72	120.59	71.34	
2025-01-28 23:32:28.92	120.89	71.31	
2025-01-28 23:32:29.13	121.20	71.28	
2025-01-28 23:32:29.34	121.51	71.25	
2025-01-28 23:32:29.54	121.80	71.23	
2025-01-28 23:32:29.74	122.09	71.20	
2025-01-28 23:32:29.94	122.38	71.17	
2025-01-28 23:32:30.15	122.69	71.14	
2025-01-28 23:32:30.36	122.99	71.11	
2025-01-28 23:32:30.56	123.28	71.08	
2025-01-28 23:32:30.76	123.56	71.05	
2025-01-28 23:32:30.96	123.85	71.02	
2025-01-28 23:32:31.17	124.15	70.99	
2025-01-28 23:32:31.38	124.45	70.95	
2025-01-28 23:32:31.59	124.74	70.92	
2025-01-28 23:32:31.80	125.04	70.88	
2025-01-28 23:32:32.00	125.32	70.85	
2025-01-28 23:32:32.21	125.61	70.82	
2025-01-28 23:32:32.42	125.91	70.78	
2025-01-28 23:32:32.62	126.18	70.75	
2025-01-28 23:32:32.82	126.46	70.71	
2025-01-28 23:32:33.03	126.75	70.68	
2025-01-28 23:32:33.24	127.04	70.64	
2025-01-28 23:32:33.44	127.31	70.60	
2025-01-28 23:32:33.64	127.58	70.57	
2025-01-28 23:32:33.85	127.87	70.53	
2025-01-28 23:32:34.05	128.14	70.49	
2025-01-28 23:32:34.25	128.41	70.45	
2025-01-28 23:32:34.46	128.69	70.41	
2025-01-28 23:32:34.67	128.97	70.37	
2025-01-28 23:32:34.87	129.23	70.34	
2025-01-28 23:32:35.07	129.50	70.30	
2025-01-28 23:32:35.28	129.77	70.26	
2025-01-28 23:32:35.48	130.03	70.22	
2025-01-28 23:32:35.68	130.29	70.18	

#Closed at: 2025-01-28 23:32:35