passes_logs/2026/01/21/R3.2S_Murmansk/R3.2S_Murmansk__20260121_002920_NOAA_21_JPSS-2_rec.log

#Pass ID: 20260121_002920_NOAA 21 (JPSS-2)
#Satellite: NOAA 21 (JPSS-2)
#Configuration: NOAA-21
#almurnet v.1.7.20251203
#Start time: 2026-01-21 00:29:22

#Version: 2.2.20231116
#Station: R3.2S_Murmansk
#Location: 33.079688 lon 68.888172 lat
#TLE: 1 54234U 22150A   26020.29910383  .00000141  00000+0  87571-4 0  9990
#TLE: 2 54234  98.7506 321.1348 0000615 250.8428 109.2682 14.19536295165564

#Time	Az	El	Level	Level2	SNR	BER	BlckErr	Temp	State	Recorded	gain1	gain2
2026-01-21 00:29:22.44	23.77	2.11	-54.4	-67.2	3.8	1.49e+00	0	38	0	0	79	16518
2026-01-21 00:29:26.47	23.81	2.37	-54.4	-67.2	3.8	1.49e+00	0	38	104	0	79	16510
2026-01-21 00:29:30.50	23.85	2.63	-54.3	-67.1	3.8	1.49e+00	0	38	104	0	79	16371
2026-01-21 00:29:34.53	23.88	2.90	-54.0	-66.8	3.8	1.49e+00	0	38	104	0	79	15780
2026-01-21 00:29:38.57	23.92	3.16	-53.5	-66.2	3.8	1.49e+00	0	38	104	0	78	15674
2026-01-21 00:29:42.60	23.96	3.43	-52.4	-64.5	3.8	1.49e+00	0	38	104	0	76	14515
2026-01-21 00:29:46.64	24.00	3.70	-51.2	-56.9	6.9	1.96e-01	0	38	0	2097152	74	6799
2026-01-21 00:29:50.67	24.04	3.98	-48.6	-51.3	12.8	6.79e-05	0	39	0	14680064	69	4715
2026-01-21 00:29:54.70	24.07	4.25	-46.0	-47.5	16.5	0.00e+00	0	39	0	27262976	64	4081
2026-01-21 00:29:58.73	24.11	4.53	-45.2	-46.6	17.5	0.00e+00	0	39	0	39845888	62	4119
2026-01-21 00:30:02.77	24.15	4.82	-46.5	-48.2	15.9	0.00e+00	0	39	0	52428800	63	4675
2026-01-21 00:30:06.81	24.19	5.10	-45.9	-47.3	16.8	1.50e-06	0	39	0	65011712	63	4232
2026-01-21 00:30:10.84	24.23	5.39	-46.7	-48.4	15.8	0.00e+00	0	39	0	73400320	63	4801
2026-01-21 00:30:14.87	24.27	5.68	-45.0	-46.3	17.9	0.00e+00	0	39	0	85983232	61	4213
2026-01-21 00:30:18.91	24.32	5.98	-44.8	-46.1	18.1	0.00e+00	0	39	0	98566144	61	4106
2026-01-21 00:30:22.94	24.36	6.28	-44.8	-46.0	18.2	0.00e+00	0	39	0	111149056	61	4063
2026-01-21 00:30:26.97	24.40	6.58	-45.0	-46.3	18.0	0.00e+00	0	39	0	123731968	61	4196
2026-01-21 00:30:31.00	24.44	6.89	-44.6	-45.8	18.4	0.00e+00	0	39	0	136314880	60	4238
2026-01-21 00:30:35.04	24.49	7.20	-44.5	-45.7	18.6	0.00e+00	0	39	0	148897792	60	4148
2026-01-21 00:30:39.07	24.53	7.51	-44.4	-45.5	18.8	0.00e+00	0	39	0	161480704	60	4072
2026-01-21 00:30:43.11	24.57	7.83	-44.2	-45.3	19.1	0.00e+00	0	39	0	174063616	60	3978
2026-01-21 00:30:47.14	24.62	8.15	-44.0	-45.0	19.3	0.00e+00	0	39	0	186646528	60	3868
2026-01-21 00:30:51.17	24.66	8.47	-44.4	-45.5	19.2	0.00e+00	0	39	0	199229440	59	4328
2026-01-21 00:30:55.20	24.71	8.80	-44.2	-45.2	19.5	0.00e+00	0	39	0	211812352	59	4193
2026-01-21 00:30:59.24	24.76	9.14	-44.0	-45.1	19.7	0.00e+00	0	39	0	225443840	59	4107
2026-01-21 00:31:03.27	24.80	9.47	-44.0	-45.0	19.8	0.00e+00	0	39	0	236978176	59	4094
2026-01-21 00:31:07.30	24.85	9.82	-43.9	-44.9	19.9	0.00e+00	0	39	0	249561088	59	4037
2026-01-21 00:31:11.33	24.90	10.16	-43.8	-44.8	20.0	0.00e+00	0	39	0	262144000	59	3990
2026-01-21 00:31:15.36	24.95	10.52	-43.6	-44.6	20.2	0.00e+00	0	39	0	275775488	59	3901
2026-01-21 00:31:19.39	25.00	10.87	-43.6	-44.6	20.3	0.00e+00	0	39	0	287309824	59	3881
2026-01-21 00:31:23.42	25.05	11.24	-43.4	-44.3	20.5	0.00e+00	0	39	0	299892736	58	4003
2026-01-21 00:31:27.46	25.11	11.61	-43.4	-44.3	20.6	0.00e+00	0	39	0	313524224	58	3984
2026-01-21 00:31:31.49	25.16	11.98	-43.1	-44.0	20.9	0.00e+00	0	39	0	326107136	58	3848
2026-01-21 00:31:35.52	25.21	12.36	-43.0	-43.9	20.9	0.00e+00	0	39	0	337641472	58	3820
2026-01-21 00:31:39.55	25.27	12.75	-42.9	-43.8	21.0	0.00e+00	0	39	0	351272960	57	4004
2026-01-21 00:31:43.58	25.32	13.14	-42.9	-43.8	21.1	0.00e+00	0	39	0	363855872	57	3982
2026-01-21 00:31:47.61	25.38	13.54	-42.7	-43.6	21.2	0.00e+00	0	39	0	376438784	57	3892
2026-01-21 00:31:51.64	25.44	13.94	-42.7	-43.5	21.3	0.00e+00	0	39	0	389021696	57	3859
2026-01-21 00:31:55.68	25.50	14.35	-42.4	-43.3	21.5	0.00e+00	0	39	0	401604608	56	3969
2026-01-21 00:31:59.71	25.56	14.77	-42.5	-43.4	21.5	0.00e+00	0	39	0	414187520	56	4016
2026-01-21 00:32:03.74	25.62	15.20	-42.5	-43.3	21.6	0.00e+00	0	39	0	426770432	56	3994
2026-01-21 00:32:07.78	25.68	15.63	-42.6	-43.5	21.5	0.00e+00	0	39	0	439353344	56	4058
2026-01-21 00:32:11.81	25.75	16.08	-42.7	-43.6	21.4	0.00e+00	0	39	0	451936256	56	4106
2026-01-21 00:32:15.84	25.81	16.53	-42.8	-43.7	21.3	0.00e+00	0	39	0	464519168	56	4168
2026-01-21 00:32:19.88	25.88	16.99	-42.9	-43.7	21.3	0.00e+00	0	40	0	477102080	56	4189
2026-01-21 00:32:23.92	25.95	17.45	-42.8	-43.7	21.3	0.00e+00	0	39	0	489684992	56	4177
2026-01-21 00:32:27.95	26.02	17.93	-42.8	-43.7	21.3	0.00e+00	0	40	0	502267904	56	4170
2026-01-21 00:32:31.98	26.09	18.42	-42.8	-43.7	21.3	0.00e+00	0	39	0	514850816	56	4170
2026-01-21 00:32:36.02	26.16	18.91	-42.8	-43.6	21.4	0.00e+00	0	40	0	527433728	56	4123
2026-01-21 00:32:40.05	26.24	19.42	-42.6	-43.5	21.5	0.00e+00	0	40	0	540016640	56	4066
2026-01-21 00:32:44.08	26.32	19.93	-42.3	-43.2	21.8	0.00e+00	0	39	0	552599552	56	3915
2026-01-21 00:32:48.12	26.40	20.46	-42.3	-43.1	21.9	0.00e+00	0	39	0	565182464	56	3901
2026-01-21 00:32:52.15	26.48	21.00	-42.3	-43.1	22.0	0.00e+00	0	39	0	577765376	56	3876
2026-01-21 00:32:56.19	26.56	21.55	-42.1	-42.9	22.1	0.00e+00	0	39	0	590348288	56	3787
2026-01-21 00:33:00.22	26.65	22.11	-41.7	-42.5	22.3	0.00e+00	0	39	0	602931200	55	3851
2026-01-21 00:33:04.25	26.74	22.69	-41.5	-42.3	22.5	0.00e+00	0	40	0	615514112	55	3750
2026-01-21 00:33:08.28	26.83	23.28	-41.4	-42.1	22.6	0.00e+00	0	39	0	628097024	54	3904
2026-01-21 00:33:12.31	26.92	23.88	-41.4	-42.1	22.7	0.00e+00	0	40	0	640679936	54	3897
2026-01-21 00:33:16.35	27.02	24.50	-41.4	-42.2	22.6	0.00e+00	0	39	0	653262848	54	3936
2026-01-21 00:33:20.38	27.12	25.13	-41.6	-42.4	22.5	0.00e+00	0	40	0	665845760	54	4037
2026-01-21 00:33:24.41	27.23	25.77	-42.0	-42.8	22.2	0.00e+00	0	39	0	678428672	54	4218
2026-01-21 00:33:28.44	27.34	26.43	-42.3	-43.1	22.0	0.00e+00	0	39	0	691011584	55	4132
2026-01-21 00:33:32.48	27.45	27.11	-42.5	-43.3	21.8	0.00e+00	0	39	0	703594496	55	4221
2026-01-21 00:33:36.50	27.56	27.81	-42.7	-43.5	21.6	0.00e+00	0	40	0	716177408	55	4313
2026-01-21 00:33:40.54	27.69	28.52	-42.8	-43.6	21.6	0.00e+00	0	39	0	728760320	56	4140
2026-01-21 00:33:44.57	27.81	29.26	-42.9	-43.8	21.5	0.00e+00	0	40	0	741343232	56	4196
2026-01-21 00:33:48.60	27.94	30.01	-42.9	-43.7	21.5	0.00e+00	0	40	0	753926144	56	4189
2026-01-21 00:33:52.64	28.08	30.78	-42.6	-43.4	21.8	0.00e+00	0	39	0	766509056	56	4037
2026-01-21 00:33:56.67	28.22	31.58	-42.2	-43.0	22.1	0.00e+00	0	40	0	779091968	56	3864
2026-01-21 00:34:00.71	28.37	32.39	-42.1	-42.9	22.3	0.00e+00	0	39	0	791674880	56	3814
2026-01-21 00:34:04.74	28.53	33.23	-42.4	-43.2	22.1	0.00e+00	0	40	0	804257792	56	3928
2026-01-21 00:34:08.77	28.69	34.09	-43.1	-43.9	21.4	0.00e+00	0	39	0	816840704	56	4288
2026-01-21 00:34:12.80	28.86	34.98	-43.9	-44.9	20.6	0.00e+00	0	40	0	829423616	58	4252
2026-01-21 00:34:16.83	29.04	35.89	-44.3	-45.3	20.2	0.00e+00	0	40	0	842006528	59	4212
2026-01-21 00:34:20.86	29.23	36.83	-44.4	-45.3	20.2	0.00e+00	0	40	0	854589440	59	4229
2026-01-21 00:34:24.90	29.43	37.80	-44.3	-45.2	20.3	0.00e+00	0	40	0	867172352	59	4178
2026-01-21 00:34:28.94	29.64	38.80	-44.4	-45.4	20.2	0.00e+00	0	40	0	880803840	59	4259
2026-01-21 00:34:32.97	29.86	39.82	-44.4	-45.3	20.3	0.00e+00	0	39	0	892338176	59	4235
2026-01-21 00:34:37.01	30.10	40.88	-44.4	-45.5	20.0	0.00e+00	0	40	0	904921088	60	4053
2026-01-21 00:34:41.04	30.35	41.96	-45.7	-46.8	18.7	0.00e+00	0	40	0	918552576	61	4481
2026-01-21 00:34:45.08	30.62	43.08	-45.6	-46.7	18.7	0.00e+00	0	39	0	931135488	62	4170
2026-01-21 00:34:49.11	30.91	44.23	-45.8	-47.0	18.4	0.00e+00	0	39	0	942669824	62	4334
2026-01-21 00:34:53.15	31.22	45.42	-45.8	-47.1	18.4	0.00e+00	0	40	0	956301312	62	4343
2026-01-21 00:34:57.18	31.55	46.64	-45.6	-46.8	18.7	0.00e+00	0	40	0	968884224	62	4211
2026-01-21 00:35:01.21	31.90	47.90	-45.1	-46.2	19.3	0.00e+00	0	40	0	980418560	62	3931
2026-01-21 00:35:05.24	32.29	49.19	-44.4	-45.3	20.2	0.00e+00	0	40	0	994050048	60	4000
2026-01-21 00:35:09.27	32.71	50.52	-44.1	-45.0	20.7	0.00e+00	0	40	0	1006632960	59	4075
2026-01-21 00:35:13.31	33.16	51.90	-44.3	-45.2	20.5	0.00e+00	0	40	0	1019215872	59	4169
2026-01-21 00:35:17.34	33.66	53.30	-43.9	-44.8	20.9	0.00e+00	0	40	0	1031798784	59	3967
2026-01-21 00:35:21.37	34.21	54.75	-43.1	-44.0	21.6	0.00e+00	0	40	0	1044381696	58	3831
2026-01-21 00:35:25.40	34.82	56.23	-42.7	-43.5	21.9	0.00e+00	0	40	0	1056964608	56	4087
2026-01-21 00:35:29.43	35.49	57.76	-43.0	-43.8	21.7	0.00e+00	0	40	0	1069547520	57	3991
2026-01-21 00:35:33.47	36.25	59.32	-42.3	-43.1	22.0	0.00e+00	0	40	0	1082130432	56	3889
2026-01-21 00:35:37.50	37.10	60.91	-41.4	-42.2	23.0	0.00e+00	0	40	0	1094713344	54	3925
2026-01-21 00:35:41.53	38.06	62.54	-41.4	-42.1	23.0	0.00e+00	0	40	0	1107296256	54	3901
2026-01-21 00:35:45.57	39.17	64.21	-40.9	-41.6	23.4	0.00e+00	0	40	0	1119879168	53	3870
2026-01-21 00:35:49.61	40.44	65.90	-41.0	-41.7	23.4	0.00e+00	0	40	0	1132462080	52	4168
2026-01-21 00:35:53.65	41.93	67.62	-41.0	-41.7	23.1	0.00e+00	0	40	0	1145044992	53	3945
2026-01-21 00:35:57.68	43.69	69.35	-40.9	-41.6	23.0	0.00e+00	0	40	0	1157627904	53	3901
2026-01-21 00:36:01.72	45.79	71.10	-40.9	-41.6	23.4	0.00e+00	0	40	0	1170210816	52	4101
2026-01-21 00:36:05.75	48.35	72.84	-41.1	-41.8	23.2	0.00e+00	0	40	0	1182793728	53	3993
2026-01-21 00:36:09.79	51.52	74.58	-40.4	-41.0	23.9	0.00e+00	0	40	0	1195376640	52	3866
2026-01-21 00:36:13.82	55.50	76.28	-41.0	-41.7	23.4	0.00e+00	0	40	0	1207959552	52	4159
2026-01-21 00:36:17.86	60.64	77.92	-41.4	-42.1	23.1	0.00e+00	0	40	0	1220542464	53	4140
2026-01-21 00:36:21.89	67.36	79.45	-40.1	-40.8	24.1	0.00e+00	0	40	0	1233125376	52	3740
2026-01-21 00:36:25.93	76.26	80.80	-41.3	-42.1	23.1	0.00e+00	0	40	0	1245708288	53	4112
2026-01-21 00:36:29.96	87.85	81.87	-40.7	-41.4	23.4	0.00e+00	0	40	0	1258291200	53	3807
2026-01-21 00:36:34.00	102.26	82.53	-40.5	-41.1	23.8	0.00e+00	0	40	0	1270874112	52	3911
2026-01-21 00:36:38.03	118.23	82.66	-41.8	-42.5	22.7	0.00e+00	0	40	0	1283457024	54	4094
2026-01-21 00:36:42.07	133.59	82.23	-41.9	-42.6	22.7	0.00e+00	0	40	0	1296039936	55	3909
2026-01-21 00:36:46.10	146.49	81.32	-41.4	-42.1	23.1	0.00e+00	0	40	0	1308622848	53	4127
2026-01-21 00:36:50.14	156.55	80.08	-41.4	-42.2	23.1	0.00e+00	0	40	0	1321205760	53	4160
2026-01-21 00:36:54.17	164.16	78.62	-41.5	-42.3	22.8	0.00e+00	0	40	0	1333788672	53	4212
2026-01-21 00:36:58.21	169.95	77.02	-41.7	-42.5	22.8	0.00e+00	0	40	0	1346371584	54	4060
2026-01-21 00:37:02.25	174.41	75.34	-40.7	-41.4	23.6	0.00e+00	0	40	0	1358954496	53	3808
2026-01-21 00:37:06.28	177.91	73.61	-41.1	-41.8	23.5	0.00e+00	0	40	0	1371537408	54	3741
2026-01-21 00:37:10.32	180.72	71.87	-41.3	-42.0	23.2	0.00e+00	0	40	0	1384120320	54	3867
2026-01-21 00:37:14.35	183.01	70.12	-40.6	-41.3	23.4	0.00e+00	0	40	0	1396703232	53	3761
2026-01-21 00:37:18.38	184.91	68.38	-42.6	-43.4	22.1	0.00e+00	0	40	0	1409286144	55	4278
2026-01-21 00:37:22.41	186.50	66.65	-40.3	-41.0	23.8	0.00e+00	0	40	0	1421869056	52	3847
2026-01-21 00:37:26.44	187.87	64.95	-41.8	-42.6	22.7	0.00e+00	0	40	0	1435500544	54	4118
2026-01-21 00:37:30.47	189.04	63.27	-40.8	-41.5	23.6	0.00e+00	0	40	0	1447034880	53	3846
2026-01-21 00:37:34.51	190.06	61.62	-43.7	-44.6	21.0	0.00e+00	0	40	0	1459617792	58	4121
2026-01-21 00:37:38.54	190.96	60.00	-41.4	-42.1	23.1	0.00e+00	0	40	0	1473249280	54	3913
2026-01-21 00:37:42.58	191.76	58.42	-42.2	-43.0	22.5	0.00e+00	0	40	0	1484783616	54	4295
2026-01-21 00:37:46.61	192.47	56.88	-42.0	-42.8	22.3	0.00e+00	0	40	0	1497366528	55	3985
2026-01-21 00:37:50.64	193.10	55.37	-43.1	-43.9	21.6	0.00e+00	0	40	0	1510998016	56	4280
2026-01-21 00:37:54.68	193.68	53.90	-43.9	-44.8	20.9	0.00e+00	0	40	0	1523580928	59	3982
2026-01-21 00:37:58.71	194.20	52.47	-43.3	-44.2	21.4	0.00e+00	0	40	0	1535115264	58	3928
2026-01-21 00:38:02.75	194.67	51.08	-46.0	-47.2	18.5	0.00e+00	0	40	0	1548746752	62	4424
2026-01-21 00:38:06.78	195.11	49.73	-44.0	-45.0	20.1	0.00e+00	0	40	0	1561329664	60	3831
2026-01-21 00:38:10.81	195.51	48.41	-44.4	-45.4	19.9	0.00e+00	0	40	0	1573912576	60	4041
2026-01-21 00:38:14.84	195.88	47.14	-44.6	-45.6	20.0	0.00e+00	0	40	0	1586495488	59	4376
2026-01-21 00:38:18.88	196.22	45.89	-46.0	-47.3	18.3	0.00e+00	0	40	0	1599078400	63	4213
2026-01-21 00:38:22.91	196.53	44.69	-45.1	-46.1	19.1	0.00e+00	0	40	0	1611661312	61	4132
2026-01-21 00:38:26.95	196.83	43.52	-46.1	-47.4	17.3	0.00e+00	0	40	0	1624244224	63	4273
2026-01-21 00:38:30.99	197.11	42.38	-44.8	-45.8	19.3	0.00e+00	0	40	0	1636827136	61	3988
2026-01-21 00:38:35.02	197.36	41.27	-44.9	-46.0	19.1	0.00e+00	0	40	0	1649410048	60	4309
2026-01-21 00:38:39.05	197.61	40.20	-44.9	-46.0	19.4	0.00e+00	0	40	0	1661992960	61	4075
2026-01-21 00:38:43.09	197.84	39.16	-44.5	-45.5	19.8	0.00e+00	0	40	0	1674575872	61	3846
2026-01-21 00:38:47.12	198.05	38.15	-44.2	-45.2	20.1	0.00e+00	0	40	0	1687158784	60	3928
2026-01-21 00:38:51.15	198.25	37.17	-43.7	-44.6	20.6	0.00e+00	0	40	0	1699741696	59	3901
2026-01-21 00:38:55.19	198.45	36.21	-43.1	-44.0	21.2	0.00e+00	0	40	0	1712324608	57	4081
2026-01-21 00:38:59.22	198.63	35.29	-43.6	-44.6	20.8	0.00e+00	0	40	0	1724907520	57	4344
2026-01-21 00:39:03.25	198.80	34.39	-44.0	-45.0	20.5	0.00e+00	0	40	0	1737490432	58	4306
2026-01-21 00:39:07.29	198.97	33.51	-43.8	-44.7	20.7	0.00e+00	0	40	0	1750073344	58	4173
2026-01-21 00:39:11.32	199.13	32.66	-43.4	-44.3	21.1	0.00e+00	0	40	0	1762656256	58	3983
2026-01-21 00:39:15.36	199.28	31.83	-43.0	-43.9	21.5	0.00e+00	0	40	0	1775239168	58	3801
2026-01-21 00:39:19.40	199.42	31.02	-42.7	-43.6	21.6	0.00e+00	0	40	0	1787822080	57	3874
2026-01-21 00:39:23.43	199.56	30.24	-43.3	-44.3	21.1	0.00e+00	0	40	0	1800404992	57	4194
2026-01-21 00:39:27.46	199.69	29.48	-43.3	-44.2	21.1	0.00e+00	0	40	0	1812987904	57	4157
2026-01-21 00:39:31.50	199.82	28.73	-43.1	-43.9	21.1	0.00e+00	0	40	0	1825570816	57	4051
2026-01-21 00:39:35.53	199.94	28.01	-43.1	-44.0	21.1	0.00e+00	0	40	0	1838153728	58	3827
2026-01-21 00:39:39.57	200.06	27.30	-42.3	-43.1	21.8	0.00e+00	0	40	0	1850736640	56	3906
2026-01-21 00:39:43.60	200.17	26.61	-41.8	-42.6	22.2	0.00e+00	0	40	0	1863319552	55	3882
2026-01-21 00:39:47.63	200.28	25.94	-41.6	-42.4	22.4	0.00e+00	0	40	0	1875902464	55	3805
2026-01-21 00:39:51.67	200.38	25.29	-41.6	-42.3	22.5	0.00e+00	0	40	0	1888485376	55	3779
2026-01-21 00:39:55.71	200.48	24.65	-42.0	-42.8	22.1	0.00e+00	0	40	0	1901068288	55	3980
2026-01-21 00:39:59.75	200.58	24.02	-41.9	-42.7	22.3	0.00e+00	0	40	0	1913651200	55	3920
2026-01-21 00:40:03.78	200.68	23.41	-41.7	-42.4	22.5	0.00e+00	0	40	0	1926234112	55	3813
2026-01-21 00:40:07.81	200.77	22.82	-42.0	-42.8	22.2	0.00e+00	0	40	0	1938817024	55	3959
2026-01-21 00:40:11.84	200.86	22.23	-42.2	-43.0	22.0	0.00e+00	0	40	0	1951399936	55	4069
2026-01-21 00:40:15.88	200.94	21.66	-42.2	-43.0	21.9	0.00e+00	0	40	0	1963982848	55	4084
2026-01-21 00:40:19.91	201.03	21.11	-42.4	-43.2	21.7	0.00e+00	0	40	0	1976565760	55	4179
2026-01-21 00:40:23.94	201.11	20.56	-42.4	-43.2	21.8	0.00e+00	0	40	0	1990197248	55	4181
2026-01-21 00:40:27.97	201.19	20.03	-42.3	-43.1	21.8	0.00e+00	0	40	0	2001731584	55	4132
2026-01-21 00:40:32.00	201.26	19.51	-42.2	-43.0	21.9	0.00e+00	0	40	0	2014314496	55	4092
2026-01-21 00:40:36.03	201.34	19.00	-42.3	-43.1	21.8	0.00e+00	0	40	0	2027945984	55	4119
2026-01-21 00:40:40.07	201.41	18.49	-42.4	-43.2	21.6	0.00e+00	0	40	0	2039480320	55	4166
2026-01-21 00:40:44.10	201.48	18.00	-42.7	-43.5	21.3	0.00e+00	0	40	0	2052063232	55	4334
2026-01-21 00:40:48.13	201.55	17.52	-43.0	-43.9	21.0	0.00e+00	0	40	0	2065694720	56	4263
2026-01-21 00:40:52.17	201.62	17.05	-43.2	-44.1	20.9	0.00e+00	0	40	0	2078277632	56	4351
2026-01-21 00:40:56.20	201.68	16.59	-43.2	-44.1	20.8	0.00e+00	0	40	0	2089811968	56	4386
2026-01-21 00:41:00.24	201.75	16.13	-43.3	-44.2	20.7	0.00e+00	0	40	0	2103443456	57	4183
2026-01-21 00:41:04.27	201.81	15.68	-43.3	-44.2	20.8	0.00e+00	0	40	0	2116026368	57	4181
2026-01-21 00:41:08.29	201.87	15.25	-43.4	-44.3	20.6	0.00e+00	0	40	0	2128609280	57	4236
2026-01-21 00:41:12.33	201.93	14.81	-43.1	-44.0	20.9	0.00e+00	0	40	0	2140143616	57	4067
2026-01-21 00:41:16.36	201.99	14.39	-43.3	-44.2	20.7	0.00e+00	0	40	0	2153775104	57	4172
2026-01-21 00:41:20.39	202.05	13.98	-43.3	-44.2	20.7	0.00e+00	0	40	0	2166358016	57	4166
2026-01-21 00:41:24.43	202.10	13.57	-43.3	-44.2	20.6	0.00e+00	0	40	0	2178940928	57	4193
2026-01-21 00:41:28.46	202.16	13.16	-43.2	-44.1	20.8	0.00e+00	0	40	0	2191523840	57	4143
2026-01-21 00:41:32.49	202.21	12.77	-43.2	-44.1	20.7	0.00e+00	0	40	0	2204106752	57	4141
2026-01-21 00:41:36.53	202.27	12.38	-43.2	-44.1	20.7	0.00e+00	0	40	0	2216689664	57	4133
2026-01-21 00:41:40.56	202.32	12.00	-43.2	-44.2	20.7	0.00e+00	0	40	0	2229272576	57	4156
2026-01-21 00:41:44.59	202.37	11.62	-43.2	-44.1	20.7	0.00e+00	0	40	0	2241855488	57	4129
2026-01-21 00:41:48.62	202.42	11.25	-43.2	-44.1	20.6	0.00e+00	0	40	0	2254438400	57	4138
2026-01-21 00:41:52.66	202.47	10.88	-43.4	-44.4	20.4	0.00e+00	0	40	0	2267021312	57	4255
2026-01-21 00:41:56.69	202.52	10.52	-43.6	-44.5	20.2	0.00e+00	0	40	0	2279604224	57	4338
2026-01-21 00:42:00.72	202.56	10.16	-43.6	-44.6	20.2	0.00e+00	0	40	0	2292187136	57	4358
2026-01-21 00:42:04.75	202.61	9.81	-43.8	-44.7	20.0	0.00e+00	0	40	0	2304770048	58	4188
2026-01-21 00:42:08.78	202.66	9.47	-43.9	-44.9	19.9	0.00e+00	0	40	0	2317352960	58	4250
2026-01-21 00:42:12.81	202.70	9.13	-43.9	-44.9	19.8	0.00e+00	0	40	0	2329935872	58	4265
2026-01-21 00:42:16.85	202.75	8.79	-44.3	-45.4	19.3	0.00e+00	0	40	0	2342518784	59	4272
2026-01-21 00:42:20.88	202.79	8.46	-44.6	-45.7	19.0	0.00e+00	0	40	0	2355101696	59	4422
2026-01-21 00:42:24.91	202.83	8.13	-44.5	-45.6	19.0	0.00e+00	0	40	0	2367684608	59	4380
2026-01-21 00:42:28.94	202.88	7.81	-44.2	-45.3	18.9	0.00e+00	0	40	0	2380267520	60	3991
2026-01-21 00:42:32.98	202.92	7.49	-44.4	-45.5	18.7	0.00e+00	0	40	0	2392850432	60	4097
2026-01-21 00:42:37.01	202.96	7.17	-44.6	-45.8	18.5	0.00e+00	0	40	0	2405433344	60	4220
2026-01-21 00:42:41.04	203.00	6.86	-44.9	-46.1	18.2	0.00e+00	0	40	0	2418016256	60	4365
2026-01-21 00:42:45.07	203.04	6.55	-45.0	-46.3	18.0	0.00e+00	0	40	0	2430599168	60	4457
2026-01-21 00:42:49.10	203.08	6.25	-45.2	-46.5	17.6	0.00e+00	0	40	0	2443182080	61	4339
2026-01-21 00:42:53.13	203.12	5.95	-45.1	-46.4	17.7	0.00e+00	0	40	0	2455764992	61	4285
2026-01-21 00:42:57.17	203.16	5.65	-45.4	-46.8	17.4	0.00e+00	0	40	0	2468347904	61	4459
2026-01-21 00:43:01.20	203.20	5.36	-45.5	-46.9	17.2	0.00e+00	0	40	0	2480930816	61	4525
2026-01-21 00:43:05.23	203.23	5.07	-45.7	-47.1	17.0	0.00e+00	0	40	0	2493513728	62	4373
2026-01-21 00:43:09.27	203.27	4.78	-53.5	-66.3	3.8	1.49e+00	0	40	104	2497708032	77	16699
2026-01-21 00:43:13.30	203.31	4.49	-53.9	-66.6	3.8	1.49e+00	0	40	104	2497708032	78	16499
2026-01-21 00:43:17.33	203.34	4.21	-54.0	-66.8	3.8	1.49e+00	0	40	104	2497708032	78	16779
2026-01-21 00:43:21.37	203.38	3.93	-54.1	-66.9	3.8	1.49e+00	0	40	104	2497708032	78	16921
2026-01-21 00:43:25.40	203.41	3.66	-54.2	-66.9	3.8	1.49e+00	0	40	104	2497708032	78	17002
2026-01-21 00:43:29.44	203.45	3.39	-54.1	-66.9	3.8	1.49e+00	0	40	104	2497708032	78	16895
2026-01-21 00:43:33.47	203.48	3.11	-53.7	-66.4	3.8	1.49e+00	0	40	104	2497708032	78	16048
2026-01-21 00:43:37.50	203.52	2.85	-53.5	-66.2	3.8	1.49e+00	0	40	104	2497708032	78	15668
2026-01-21 00:43:41.53	203.55	2.58	-53.4	-66.2	3.8	1.49e+00	0	40	104	2497708032	78	15681
2026-01-21 00:43:45.56	203.58	2.32	-53.4	-66.2	3.8	1.49e+00	0	40	104	2497708032	78	15637
2026-01-21 00:43:49.60	203.62	2.06	-53.4	-66.2	3.8	1.49e+00	0	40	104	2497708032	78	15617

#Closed at: 2026-01-21 00:43:52
#Recorded file [2497 MB]: D:/lorett/data/31041_260121_032922.dat