passes_logs/2026/01/21/R3.2S_Murmansk/R3.2S_Murmansk__20260121_084510_JL1KF02B02_rec.log

#Pass ID: 20260121_084510_JL1KF02B02
#Satellite: JL1KF02B02
#Configuration: 01B_900M
#almurnet v.1.7.20251203
#Start time: 2026-01-21 08:45:12

#Version: 2.2.20231116
#Station: R3.2S_Murmansk
#Location: 33.079688 lon 68.888172 lat
#TLE: 1 61193U 24169E   26020.02206547  .00006304  00000+0  39418-3 0  9998
#TLE: 2 61193  97.5740 111.8291 0013774 118.2213 242.0409 15.09703468 73483

#Time	Az	El	Level	Level2	SNR	BER	BlckErr	Temp	State	Recorded	gain1	gain2
2026-01-21 08:45:12.04	22.68	2.11	-54.5	-56.6	6.2	0.00e+00	0	41	0	0	80	18466
2026-01-21 08:45:15.07	22.94	2.29	-54.7	-56.8	6.2	0.00e+00	0	41	104	0	81	17878
2026-01-21 08:45:18.10	23.21	2.48	-54.6	-56.7	6.2	0.00e+00	0	41	104	0	81	17716
2026-01-21 08:45:21.12	23.48	2.67	-54.5	-56.6	6.2	0.00e+00	0	41	104	0	81	17498
2026-01-21 08:45:24.14	23.75	2.85	-54.3	-56.5	6.2	0.00e+00	0	41	104	0	80	18190
2026-01-21 08:45:27.17	24.03	3.04	-54.0	-56.2	6.2	0.00e+00	0	41	104	0	80	17579
2026-01-21 08:45:30.19	24.32	3.23	-53.6	-55.8	6.2	0.00e+00	0	41	104	0	79	17808
2026-01-21 08:45:33.21	24.60	3.42	-52.7	-54.8	6.2	0.00e+00	0	41	104	0	77	17948
2026-01-21 08:45:36.24	24.90	3.62	-52.7	-54.8	6.2	0.00e+00	0	41	104	0	77	17930
2026-01-21 08:45:39.26	25.19	3.81	-52.7	-54.8	6.2	0.00e+00	0	41	104	0	77	17885
2026-01-21 08:45:42.28	25.49	4.00	-52.7	-54.8	6.2	0.00e+00	0	41	104	0	77	17905
2026-01-21 08:45:45.31	25.80	4.20	-52.7	-54.8	6.2	0.00e+00	0	41	104	0	77	17884
2026-01-21 08:45:48.33	26.11	4.40	-52.7	-54.8	6.2	0.00e+00	0	41	104	0	77	17805
2026-01-21 08:45:51.35	26.43	4.59	-52.6	-54.8	6.2	0.00e+00	0	42	104	0	77	17882
2026-01-21 08:45:54.38	26.75	4.80	-52.6	-54.8	6.2	0.00e+00	0	42	104	0	77	17803
2026-01-21 08:45:57.40	27.07	5.00	-52.7	-54.8	6.2	0.00e+00	0	41	104	0	77	17824
2026-01-21 08:46:00.43	27.41	5.20	-52.7	-54.8	6.2	0.00e+00	0	42	104	0	77	17917
2026-01-21 08:46:03.45	27.74	5.40	-52.8	-54.9	6.2	0.00e+00	0	42	104	0	77	18149
2026-01-21 08:46:06.47	28.09	5.61	-52.7	-54.8	6.2	0.00e+00	0	42	104	0	77	17952
2026-01-21 08:46:09.49	28.44	5.81	-52.7	-54.9	6.2	0.00e+00	0	42	104	0	77	18034
2026-01-21 08:46:12.52	28.79	6.02	-52.8	-54.9	6.2	0.00e+00	0	42	104	0	77	18123
2026-01-21 08:46:15.54	29.15	6.23	-52.8	-55.0	6.2	0.00e+00	0	42	104	0	77	18315
2026-01-21 08:46:18.56	29.52	6.44	-52.8	-55.0	6.2	0.00e+00	0	42	104	0	77	18259
2026-01-21 08:46:21.59	29.89	6.66	-52.8	-55.0	6.2	0.00e+00	0	42	104	0	77	18191
2026-01-21 08:46:24.61	30.27	6.87	-52.9	-55.1	6.2	0.00e+00	0	42	104	0	77	18414
2026-01-21 08:46:27.63	30.66	7.08	-53.0	-55.1	6.2	0.00e+00	0	42	104	0	77	18488
2026-01-21 08:46:30.66	31.05	7.30	-53.0	-55.2	6.2	0.00e+00	0	42	104	0	77	18603
2026-01-21 08:46:33.68	31.45	7.52	-52.9	-55.1	6.2	0.00e+00	0	42	104	0	77	18438
2026-01-21 08:46:36.71	31.86	7.74	-53.0	-55.1	6.2	0.00e+00	0	42	104	0	77	18545
2026-01-21 08:46:39.73	32.27	7.96	-53.0	-55.2	6.2	0.00e+00	0	42	104	0	77	18689
2026-01-21 08:46:42.75	32.69	8.18	-53.1	-55.2	6.2	0.00e+00	0	42	104	0	77	18816
2026-01-21 08:46:45.77	33.12	8.40	-52.9	-55.1	6.2	0.00e+00	0	42	104	0	77	18558
2026-01-21 08:46:48.80	33.56	8.63	-53.0	-55.1	6.2	0.00e+00	0	42	104	0	76	19613
2026-01-21 08:46:51.82	34.01	8.85	-39.9	-40.2	6.2	0.00e+00	0	42	104	0	51	14906
2026-01-21 08:46:54.84	34.46	9.08	-51.5	-53.2	6.3	0.00e+00	0	42	104	0	73	18782
2026-01-21 08:46:57.86	34.92	9.31	-52.7	-54.8	6.2	0.00e+00	0	42	104	0	75	20085
2026-01-21 08:47:00.89	35.39	9.54	-53.1	-55.2	6.2	0.00e+00	0	42	104	0	76	19909
2026-01-21 08:47:03.91	35.87	9.77	-53.2	-55.3	6.2	0.00e+00	0	42	104	0	77	18835
2026-01-21 08:47:06.93	36.36	10.00	-53.2	-55.4	6.2	0.00e+00	0	42	104	0	77	19098
2026-01-21 08:47:09.96	36.86	10.24	-52.9	-55.3	6.2	0.00e+00	0	42	104	0	77	18867
2026-01-21 08:47:12.98	37.36	10.47	-53.1	-55.4	6.2	0.00e+00	0	42	104	0	77	19062
2026-01-21 08:47:16.00	37.88	10.71	-53.1	-55.4	6.2	0.00e+00	0	42	104	0	77	19068
2026-01-21 08:47:19.03	38.41	10.95	-53.2	-55.4	6.2	0.00e+00	0	42	104	0	77	19201
2026-01-21 08:47:22.05	38.94	11.19	-53.2	-55.3	6.2	0.00e+00	0	42	104	0	77	18920
2026-01-21 08:47:25.07	39.49	11.43	-53.3	-55.4	6.2	0.00e+00	0	42	104	0	77	19170
2026-01-21 08:47:28.10	40.05	11.67	-53.2	-55.4	6.2	0.00e+00	0	42	104	0	77	19191
2026-01-21 08:47:31.12	40.62	11.91	-53.3	-55.5	6.2	0.00e+00	0	42	104	0	77	19292
2026-01-21 08:47:34.15	41.20	12.15	-53.3	-55.4	6.2	0.00e+00	0	42	104	0	77	19235
2026-01-21 08:47:37.17	41.79	12.39	-53.3	-55.5	6.2	0.00e+00	0	42	104	0	77	19378
2026-01-21 08:47:40.19	42.39	12.64	-53.4	-55.5	6.2	0.00e+00	0	42	104	0	77	19426
2026-01-21 08:47:43.22	43.00	12.88	-53.4	-55.6	6.2	0.00e+00	0	43	104	0	77	19490
2026-01-21 08:47:46.24	43.63	13.13	-53.4	-55.5	6.2	0.00e+00	0	42	104	0	77	19392
2026-01-21 08:47:49.26	44.26	13.37	-53.4	-55.6	6.2	0.00e+00	0	43	104	0	77	19481
2026-01-21 08:47:52.29	44.91	13.62	-53.4	-55.6	6.2	0.00e+00	0	42	104	0	77	19497
2026-01-21 08:47:55.31	45.57	13.86	-53.5	-55.6	6.2	0.00e+00	0	43	104	0	77	19589
2026-01-21 08:47:58.34	46.25	14.11	-53.4	-55.6	6.2	0.00e+00	0	42	104	0	77	19550
2026-01-21 08:48:01.36	46.94	14.36	-53.4	-55.6	6.2	0.00e+00	0	42	104	0	77	19498
2026-01-21 08:48:04.39	47.64	14.60	-53.5	-55.6	6.2	0.00e+00	0	42	104	0	77	19624
2026-01-21 08:48:07.41	48.35	14.85	-53.5	-55.6	6.2	0.00e+00	0	42	104	0	77	19618
2026-01-21 08:48:10.43	49.08	15.09	-53.5	-55.6	6.2	0.00e+00	0	43	104	0	77	19522
2026-01-21 08:48:13.45	49.82	15.33	-53.5	-55.6	6.2	0.00e+00	0	43	104	0	77	19605
2026-01-21 08:48:16.48	50.58	15.58	-53.5	-55.6	6.2	0.00e+00	0	43	104	0	77	19687
2026-01-21 08:48:19.50	51.35	15.82	-53.5	-55.7	6.2	0.00e+00	0	42	104	0	77	19738
2026-01-21 08:48:22.53	52.13	16.06	-53.5	-55.7	6.2	0.00e+00	0	42	104	0	77	19706
2026-01-21 08:48:25.55	52.93	16.29	-53.5	-55.7	6.2	0.00e+00	0	43	104	0	77	19738
2026-01-21 08:48:28.58	53.74	16.53	-53.6	-55.7	6.2	0.00e+00	0	42	104	0	77	19794
2026-01-21 08:48:31.60	54.57	16.76	-53.6	-55.7	6.2	0.00e+00	0	43	104	0	77	19843
2026-01-21 08:48:34.62	55.41	17.00	-53.6	-55.7	6.2	0.00e+00	0	42	104	0	77	19831
2026-01-21 08:48:37.65	56.27	17.23	-53.6	-55.7	6.2	0.00e+00	0	43	104	0	77	19817
2026-01-21 08:48:40.67	57.14	17.45	-53.6	-55.7	6.2	0.00e+00	0	43	104	0	77	19902
2026-01-21 08:48:43.70	58.02	17.67	-53.6	-55.8	6.2	0.00e+00	0	43	104	0	77	19944
2026-01-21 08:48:46.72	58.92	17.89	-53.6	-55.8	6.2	0.00e+00	0	43	104	0	77	19992
2026-01-21 08:48:49.74	59.84	18.11	-53.6	-55.7	6.2	0.00e+00	0	42	104	0	77	19871
2026-01-21 08:48:52.76	60.77	18.32	-53.6	-55.7	6.2	0.00e+00	0	43	104	0	77	19928
2026-01-21 08:48:55.78	61.71	18.52	-53.6	-55.7	6.2	0.00e+00	0	43	104	0	77	19904
2026-01-21 08:48:58.80	62.67	18.73	-53.7	-55.8	6.2	0.00e+00	0	43	104	0	77	20023
2026-01-21 08:49:01.82	63.64	18.92	-53.6	-55.7	6.2	0.00e+00	0	43	104	0	77	19922
2026-01-21 08:49:04.84	64.63	19.11	-53.7	-55.8	6.2	0.00e+00	0	43	104	0	77	20006
2026-01-21 08:49:07.87	65.63	19.30	-53.6	-55.8	6.2	0.00e+00	0	43	104	0	77	20062
2026-01-21 08:49:10.90	66.65	19.48	-53.7	-55.8	6.2	0.00e+00	0	42	104	0	77	20150
2026-01-21 08:49:13.92	67.67	19.65	-53.7	-55.8	6.2	0.00e+00	0	43	104	0	77	20048
2026-01-21 08:49:16.94	68.71	19.82	-53.7	-55.8	6.2	0.00e+00	0	43	104	0	77	20088
2026-01-21 08:49:19.97	69.77	19.97	-53.6	-55.8	6.2	0.00e+00	0	42	104	0	77	20076
2026-01-21 08:49:22.99	70.83	20.12	-53.7	-55.9	6.2	0.00e+00	0	42	104	0	77	20186
2026-01-21 08:49:26.02	71.91	20.27	-53.7	-55.8	6.2	0.00e+00	0	43	104	0	78	19014
2026-01-21 08:49:29.04	72.99	20.40	-53.7	-55.9	6.2	0.00e+00	0	43	104	0	78	19076
2026-01-21 08:49:32.06	74.09	20.53	-53.7	-55.8	6.2	0.00e+00	0	43	104	0	78	19026
2026-01-21 08:49:35.09	75.20	20.64	-53.8	-55.9	6.2	0.00e+00	0	43	104	0	78	19205
2026-01-21 08:49:38.11	76.31	20.75	-53.7	-55.9	6.2	0.00e+00	0	43	104	0	78	19051
2026-01-21 08:49:41.13	77.44	20.85	-53.8	-55.9	6.2	0.00e+00	0	43	104	0	78	19075
2026-01-21 08:49:44.16	78.57	20.93	-53.7	-55.9	6.2	0.00e+00	0	43	104	0	78	19074
2026-01-21 08:49:47.18	79.71	21.01	-53.8	-55.9	6.2	0.00e+00	0	43	104	0	78	19249
2026-01-21 08:49:50.21	80.86	21.08	-53.8	-55.9	6.2	0.00e+00	0	43	104	0	78	19155
2026-01-21 08:49:53.23	82.01	21.14	-53.8	-55.9	6.2	0.00e+00	0	43	104	0	78	19172
2026-01-21 08:49:56.25	83.16	21.18	-53.7	-55.9	6.2	0.00e+00	0	43	104	0	78	19144
2026-01-21 08:49:59.27	84.32	21.22	-53.8	-56.0	6.2	0.00e+00	0	43	104	0	78	19325
2026-01-21 08:50:02.30	85.48	21.25	-53.8	-55.9	6.2	0.00e+00	0	43	104	0	78	19211
2026-01-21 08:50:05.32	86.64	21.26	-53.8	-55.9	6.2	0.00e+00	0	43	104	0	78	19231
2026-01-21 08:50:08.34	87.80	21.27	-53.7	-56.0	6.2	0.00e+00	0	43	104	0	78	19262
2026-01-21 08:50:11.36	88.97	21.26	-53.7	-55.9	6.2	0.00e+00	0	43	104	0	78	19131
2026-01-21 08:50:14.39	90.13	21.24	-53.8	-55.9	6.2	0.00e+00	0	43	104	0	78	19135
2026-01-21 08:50:17.41	91.29	21.21	-53.8	-55.9	6.2	0.00e+00	0	43	104	0	78	19145
2026-01-21 08:50:20.43	92.45	21.17	-53.7	-55.9	6.2	0.00e+00	0	43	104	0	78	19248
2026-01-21 08:50:23.46	93.60	21.12	-53.7	-55.9	6.2	0.00e+00	0	43	104	0	78	19165
2026-01-21 08:50:26.48	94.75	21.06	-53.8	-55.9	6.2	0.00e+00	0	43	104	0	78	19179
2026-01-21 08:50:29.51	95.90	20.99	-53.8	-55.9	6.2	0.00e+00	0	42	104	0	78	19194
2026-01-21 08:50:32.53	97.04	20.91	-53.8	-56.0	6.2	0.00e+00	0	43	104	0	78	19263
2026-01-21 08:50:35.56	98.17	20.82	-53.6	-55.9	6.2	0.00e+00	0	43	104	0	78	19078
2026-01-21 08:50:38.58	99.29	20.72	-53.8	-56.0	6.2	0.00e+00	0	43	104	0	78	19271
2026-01-21 08:50:41.61	100.41	20.61	-53.8	-55.9	6.2	0.00e+00	0	43	104	0	78	19244
2026-01-21 08:50:44.63	101.52	20.49	-53.8	-56.0	6.2	0.00e+00	0	43	104	0	78	19291
2026-01-21 08:50:47.66	102.62	20.36	-53.6	-55.9	6.2	0.00e+00	0	43	104	0	78	19094
2026-01-21 08:50:50.67	103.70	20.22	-53.8	-55.9	6.2	0.00e+00	0	43	104	0	78	19207
2026-01-21 08:50:53.69	104.77	20.08	-53.8	-55.9	6.2	0.00e+00	0	43	104	0	78	19192
2026-01-21 08:50:56.72	105.84	19.92	-53.8	-55.9	6.2	0.00e+00	0	43	104	0	78	19202
2026-01-21 08:50:59.74	106.89	19.76	-53.5	-55.8	6.2	0.00e+00	0	43	104	0	78	19019
2026-01-21 08:51:02.77	107.93	19.59	-53.8	-55.9	6.2	0.00e+00	0	43	104	0	78	19184
2026-01-21 08:51:05.79	108.96	19.42	-53.8	-55.9	6.2	0.00e+00	0	43	104	0	78	19094
2026-01-21 08:51:08.81	109.97	19.24	-53.8	-55.9	6.2	0.00e+00	0	43	104	0	78	19254
2026-01-21 08:51:11.84	110.98	19.05	-53.6	-55.8	6.2	0.00e+00	0	43	104	0	78	18988
2026-01-21 08:51:14.86	111.96	18.86	-53.8	-55.9	6.2	0.00e+00	0	43	104	0	78	19165
2026-01-21 08:51:17.89	112.94	18.66	-53.8	-55.9	6.2	0.00e+00	0	43	104	0	78	19097
2026-01-21 08:51:20.91	113.89	18.45	-53.8	-55.9	6.2	0.00e+00	0	43	104	0	78	19199
2026-01-21 08:51:23.93	114.84	18.24	-53.5	-55.8	6.2	0.00e+00	0	43	104	0	78	18888
2026-01-21 08:51:26.95	115.76	18.03	-53.7	-55.9	6.2	0.00e+00	0	43	104	0	78	19071
2026-01-21 08:51:29.97	116.68	17.81	-53.7	-55.9	6.2	0.00e+00	0	43	104	0	78	19045
2026-01-21 08:51:33.00	117.58	17.59	-53.8	-55.9	6.2	0.00e+00	0	43	104	0	78	19090
2026-01-21 08:51:36.02	118.46	17.37	-53.5	-55.7	6.2	0.00e+00	0	43	104	0	78	18766
2026-01-21 08:51:39.05	119.34	17.14	-53.7	-55.8	6.2	0.00e+00	0	43	104	0	78	18985
2026-01-21 08:51:42.07	120.19	16.91	-53.7	-55.8	6.2	0.00e+00	0	43	104	0	78	18943
2026-01-21 08:51:45.09	121.03	16.67	-53.7	-55.8	6.2	0.00e+00	0	43	104	0	78	18948
2026-01-21 08:51:48.12	121.86	16.44	-53.4	-55.6	6.2	0.00e+00	0	43	104	0	78	18565
2026-01-21 08:51:51.14	122.67	16.20	-53.6	-55.7	6.2	0.00e+00	0	43	104	0	78	18720
2026-01-21 08:51:54.16	123.47	15.96	-53.5	-55.6	6.2	0.00e+00	0	43	104	0	78	18597
2026-01-21 08:51:57.19	124.25	15.71	-53.5	-55.6	6.2	0.00e+00	0	43	104	0	78	18544
2026-01-21 08:52:00.21	125.02	15.47	-53.3	-55.6	6.2	0.00e+00	0	43	104	0	78	18512
2026-01-21 08:52:03.23	125.77	15.23	-53.5	-55.7	6.2	0.00e+00	0	43	104	0	78	18656
2026-01-21 08:52:06.25	126.51	14.98	-53.4	-55.6	6.2	0.00e+00	0	43	104	0	78	18397
2026-01-21 08:52:09.27	127.24	14.74	-53.4	-55.6	6.2	0.00e+00	0	43	104	0	78	18415
2026-01-21 08:52:12.29	127.95	14.49	-52.6	-55.3	6.2	0.00e+00	0	43	104	0	77	18908
2026-01-21 08:52:15.32	128.65	14.24	-53.2	-55.4	6.2	0.00e+00	0	43	104	0	77	19223
2026-01-21 08:52:18.34	129.34	13.99	-53.0	-55.3	6.2	0.00e+00	0	43	104	0	77	19005
2026-01-21 08:52:21.37	130.01	13.75	-53.1	-55.3	6.2	0.00e+00	0	43	104	0	77	19014
2026-01-21 08:52:24.39	130.67	13.50	-53.2	-55.4	6.2	0.00e+00	0	43	104	0	77	19097
2026-01-21 08:52:27.41	131.32	13.25	-53.2	-55.4	6.2	0.00e+00	0	43	104	0	77	19170
2026-01-21 08:52:30.44	131.96	13.01	-53.2	-55.4	6.2	0.00e+00	0	43	104	0	77	19081
2026-01-21 08:52:33.46	132.58	12.76	-53.2	-55.4	6.2	0.00e+00	0	43	104	0	77	19082
2026-01-21 08:52:36.48	133.19	12.51	-53.2	-55.3	6.2	0.00e+00	0	43	104	0	77	18989
2026-01-21 08:52:39.51	133.80	12.27	-53.1	-55.3	6.2	0.00e+00	0	43	104	0	77	18954
2026-01-21 08:52:42.54	134.39	12.02	-53.1	-55.3	6.2	0.00e+00	0	43	104	0	77	18914
2026-01-21 08:52:45.56	134.96	11.78	-53.2	-55.3	6.2	0.00e+00	0	43	104	0	77	18879
2026-01-21 08:52:48.58	135.53	11.53	-53.1	-55.3	6.2	0.00e+00	0	43	104	0	77	18855
2026-01-21 08:52:51.61	136.09	11.29	-53.0	-55.2	6.2	0.00e+00	0	43	104	0	77	18723
2026-01-21 08:52:54.63	136.63	11.05	-53.1	-55.2	6.2	0.00e+00	0	43	104	0	77	18771
2026-01-21 08:52:57.66	137.17	10.81	-53.1	-55.2	6.2	0.00e+00	0	43	104	0	77	18811
2026-01-21 08:53:00.68	137.70	10.57	-53.1	-55.2	6.2	0.00e+00	0	43	104	0	77	18788
2026-01-21 08:53:03.71	138.21	10.33	-53.0	-55.2	6.2	0.00e+00	0	43	104	0	77	18702
2026-01-21 08:53:06.74	138.72	10.10	-53.1	-55.2	6.2	0.00e+00	0	43	104	0	77	18749
2026-01-21 08:53:09.76	139.21	9.86	-53.0	-55.2	6.2	0.00e+00	0	43	104	0	77	18693
2026-01-21 08:53:12.78	139.70	9.63	-53.1	-55.2	6.2	0.00e+00	0	43	104	0	77	18656
2026-01-21 08:53:15.81	140.18	9.39	-52.9	-55.1	6.2	0.00e+00	0	43	104	0	77	18541
2026-01-21 08:53:18.83	140.65	9.16	-53.0	-55.2	6.2	0.00e+00	0	43	104	0	77	18614
2026-01-21 08:53:21.85	141.11	8.93	-53.0	-55.1	6.2	0.00e+00	0	43	104	0	77	18481
2026-01-21 08:53:24.88	141.56	8.70	-53.0	-55.1	6.2	0.00e+00	0	43	104	0	77	18514
2026-01-21 08:53:27.90	142.01	8.48	-52.8	-55.0	6.2	0.00e+00	0	43	104	0	77	18327
2026-01-21 08:53:30.93	142.44	8.25	-53.0	-55.1	6.2	0.00e+00	0	43	104	0	77	18559
2026-01-21 08:53:33.95	142.87	8.03	-52.9	-55.0	6.2	0.00e+00	0	43	104	0	77	18267
2026-01-21 08:53:36.97	143.29	7.80	-52.9	-55.0	6.2	0.00e+00	0	43	104	0	77	18293
2026-01-21 08:53:39.99	143.70	7.58	-52.8	-55.0	6.2	0.00e+00	0	43	104	0	77	18197
2026-01-21 08:53:43.02	144.11	7.36	-52.9	-55.0	6.2	0.00e+00	0	43	104	0	77	18347
2026-01-21 08:53:46.04	144.51	7.14	-52.8	-54.9	6.2	0.00e+00	0	43	104	0	77	18088
2026-01-21 08:53:49.07	144.90	6.92	-52.8	-54.9	6.2	0.00e+00	0	43	104	0	77	18081
2026-01-21 08:53:52.09	145.28	6.71	-52.7	-54.8	6.2	0.00e+00	0	43	104	0	77	17966
2026-01-21 08:53:55.11	145.66	6.49	-52.8	-55.0	6.2	0.00e+00	0	43	104	0	77	18193
2026-01-21 08:53:58.14	146.04	6.28	-52.6	-54.8	6.2	0.00e+00	0	43	104	0	77	17770
2026-01-21 08:54:01.16	146.40	6.07	-52.7	-54.8	6.2	0.00e+00	0	43	104	0	77	17906
2026-01-21 08:54:04.19	146.76	5.86	-52.5	-54.7	6.2	0.00e+00	0	43	104	0	77	17625
2026-01-21 08:54:07.21	147.11	5.65	-52.6	-54.8	6.2	0.00e+00	0	43	104	0	77	17858
2026-01-21 08:54:10.23	147.46	5.44	-52.4	-54.5	6.2	0.00e+00	0	43	104	0	76	18256
2026-01-21 08:54:13.26	147.80	5.23	-52.5	-54.6	6.2	0.00e+00	0	43	104	0	76	18498
2026-01-21 08:54:16.28	148.14	5.03	-51.9	-54.1	6.2	0.00e+00	0	43	104	0	75	18426
2026-01-21 08:54:19.31	148.47	4.83	-53.4	-55.5	6.2	0.00e+00	0	43	104	0	77	19408
2026-01-21 08:54:22.33	148.79	4.62	-53.9	-56.0	6.2	0.00e+00	0	43	104	0	78	19311
2026-01-21 08:54:25.35	149.11	4.42	-54.1	-56.3	6.2	0.00e+00	0	43	104	0	78	19985
2026-01-21 08:54:28.38	149.42	4.22	-54.4	-56.5	6.2	0.00e+00	0	43	104	0	79	19314
2026-01-21 08:54:31.40	149.73	4.02	-54.5	-56.6	6.2	0.00e+00	0	43	104	0	79	19660
2026-01-21 08:54:34.43	150.04	3.83	-54.6	-56.8	6.2	0.00e+00	0	43	104	0	79	19995
2026-01-21 08:54:37.45	150.34	3.63	-54.7	-56.8	6.2	0.00e+00	0	43	104	0	79	20145
2026-01-21 08:54:40.48	150.63	3.44	-54.8	-56.9	6.2	0.00e+00	0	43	104	0	80	19146
2026-01-21 08:54:43.50	150.92	3.24	-54.8	-56.9	6.2	0.00e+00	0	43	104	0	80	19178
2026-01-21 08:54:46.52	151.21	3.05	-54.8	-56.9	6.2	0.00e+00	0	43	104	0	80	19188
2026-01-21 08:54:49.54	151.49	2.86	-54.7	-56.9	6.2	0.00e+00	0	43	104	0	80	19046
2026-01-21 08:54:52.57	151.77	2.67	-54.6	-56.8	6.2	0.00e+00	0	43	104	0	80	18856
2026-01-21 08:54:55.59	152.04	2.48	-54.5	-56.7	6.2	0.00e+00	0	43	104	0	80	18653
2026-01-21 08:54:58.61	152.31	2.30	-54.4	-56.5	6.2	0.00e+00	0	43	104	0	80	18200
2026-01-21 08:55:01.64	152.57	2.11	-54.1	-56.2	6.2	0.00e+00	0	43	104	0	80	17606
2026-01-21 08:55:04.66	152.83	1.93	-53.8	-55.9	6.2	0.00e+00	0	43	104	0	79	18171

#Closed at: 2026-01-21 08:55:04
#Recorded file [0 MB]: D:/lorett/data/31041_260121_114511.dat