passes_logs/2026/01/21/R3.2S_Murmansk/R3.2S_Murmansk__20260121_213724_JL1KF02B06_rec.log

#Pass ID: 20260121_213724_JL1KF02B06
#Satellite: JL1KF02B06
#Configuration: 01B_900M
#almurnet v.1.7.20251203
#Start time: 2026-01-21 21:37:26

#Version: 2.2.20231116
#Station: R3.2S_Murmansk
#Location: 33.079688 lon 68.888172 lat
#TLE: 1 61192U 24169D   26020.96389003  .00012626  00000+0  78796-3 0  9995
#TLE: 2 61192  97.5632 112.0641 0007112  86.8771 273.3272 15.09617171 73628

#Time	Az	El	Level	Level2	SNR	BER	BlckErr	Temp	State	Recorded	gain1	gain2
2026-01-21 21:37:26.68	207.52	2.11	-54.5	-56.7	6.3	0.00e+00	0	41	0	0	80	18638
2026-01-21 21:37:29.57	207.77	2.29	-54.8	-56.9	6.2	0.00e+00	0	41	104	0	81	18155
2026-01-21 21:37:32.48	208.03	2.47	-54.7	-56.8	6.2	0.00e+00	0	41	104	0	81	17908
2026-01-21 21:37:35.38	208.28	2.65	-54.6	-56.7	6.2	0.00e+00	0	41	104	0	81	17657
2026-01-21 21:37:38.28	208.55	2.83	-54.4	-56.6	6.2	0.00e+00	0	42	104	0	80	18397
2026-01-21 21:37:41.19	208.82	3.02	-54.2	-56.3	6.2	0.00e+00	0	42	104	0	80	17964
2026-01-21 21:37:44.10	209.09	3.20	-53.9	-56.0	6.2	0.00e+00	0	42	104	0	79	18372
2026-01-21 21:37:47.01	209.36	3.38	-53.0	-55.2	6.2	0.00e+00	0	42	104	0	78	17566
2026-01-21 21:37:49.93	209.65	3.57	-53.0	-55.2	6.2	0.00e+00	0	42	104	0	78	17577
2026-01-21 21:37:52.84	209.93	3.76	-53.0	-55.1	6.2	0.00e+00	0	42	104	0	78	17502
2026-01-21 21:37:55.75	210.22	3.95	-53.0	-55.1	6.2	0.00e+00	0	42	104	0	78	17539
2026-01-21 21:37:58.66	210.51	4.14	-53.0	-55.1	6.2	0.00e+00	0	42	104	0	78	17560
2026-01-21 21:38:01.56	210.81	4.33	-53.0	-55.1	6.2	0.00e+00	0	42	104	0	78	17529
2026-01-21 21:38:04.47	211.11	4.52	-53.0	-55.1	6.2	0.00e+00	0	42	104	0	78	17479
2026-01-21 21:38:07.39	211.42	4.71	-53.0	-55.1	6.2	0.00e+00	0	42	104	0	78	17521
2026-01-21 21:38:10.30	211.73	4.91	-52.9	-55.1	6.2	0.00e+00	0	42	104	0	77	18424
2026-01-21 21:38:13.21	212.05	5.10	-53.1	-55.2	6.2	0.00e+00	0	42	104	0	77	18734
2026-01-21 21:38:16.12	212.37	5.30	-53.0	-55.1	6.2	0.00e+00	0	42	104	0	77	18515
2026-01-21 21:38:19.03	212.70	5.50	-53.1	-55.2	6.2	0.00e+00	0	42	104	0	77	18702
2026-01-21 21:38:21.94	213.03	5.70	-52.9	-55.0	6.2	0.00e+00	0	42	104	0	77	18302
2026-01-21 21:38:24.84	213.37	5.90	-52.9	-55.1	6.2	0.00e+00	0	42	104	0	77	18500
2026-01-21 21:38:27.75	213.71	6.10	-53.1	-55.2	6.2	0.00e+00	0	42	104	0	77	18724
2026-01-21 21:38:30.66	214.06	6.31	-53.0	-55.2	6.2	0.00e+00	0	43	104	0	77	18733
2026-01-21 21:38:33.56	214.42	6.51	-53.0	-55.1	6.2	0.00e+00	0	42	104	0	77	18475
2026-01-21 21:38:36.47	214.78	6.72	-53.0	-55.2	6.2	0.00e+00	0	42	104	0	77	18732
2026-01-21 21:38:39.39	215.15	6.92	-53.2	-55.3	6.2	0.00e+00	0	43	104	0	77	18975
2026-01-21 21:38:42.31	215.52	7.13	-53.0	-55.2	6.2	0.00e+00	0	43	104	0	77	18767
2026-01-21 21:38:45.23	215.90	7.34	-53.1	-55.2	6.2	0.00e+00	0	43	104	0	77	18772
2026-01-21 21:38:48.13	216.29	7.55	-53.1	-55.3	6.2	0.00e+00	0	43	104	0	77	18903
2026-01-21 21:38:51.04	216.68	7.77	-53.3	-55.4	6.2	0.00e+00	0	43	104	0	77	19105
2026-01-21 21:38:53.95	217.08	7.98	-53.1	-55.3	6.2	0.00e+00	0	43	104	0	77	18828
2026-01-21 21:38:56.86	217.49	8.20	-53.1	-55.3	6.2	0.00e+00	0	43	104	0	77	18977
2026-01-21 21:38:59.77	217.90	8.41	-53.2	-55.4	6.2	0.00e+00	0	42	104	0	77	19150
2026-01-21 21:39:02.68	218.32	8.63	-53.2	-55.4	6.2	0.00e+00	0	43	104	0	77	19104
2026-01-21 21:39:05.59	218.75	8.85	-47.6	-48.0	7.0	0.00e+00	0	43	104	0	67	14492
2026-01-21 21:39:08.49	219.19	9.07	-46.5	-46.9	7.2	0.00e+00	0	43	104	0	65	14412
2026-01-21 21:39:11.39	219.63	9.29	-47.8	-48.3	7.0	0.00e+00	0	43	104	0	67	14984
2026-01-21 21:39:14.31	220.08	9.51	-48.1	-48.6	6.9	0.00e+00	0	43	104	0	67	15553
2026-01-21 21:39:17.22	220.54	9.74	-47.3	-47.7	7.0	0.00e+00	0	43	104	0	66	14900
2026-01-21 21:39:20.13	221.01	9.96	-50.4	-51.4	6.7	0.00e+00	0	43	104	0	71	17058
2026-01-21 21:39:23.04	221.49	10.19	-32.2	-32.0	13.2	7.25e-04	0	43	0	234881024	36	13744
2026-01-21 21:39:25.95	221.97	10.42	-28.1	-27.9	13.0	7.27e-04	0	43	0	562036736	28	13631
2026-01-21 21:39:28.86	222.47	10.65	-28.2	-28.0	13.0	6.94e-04	0	43	0	889192448	27	14529
2026-01-21 21:39:31.77	222.97	10.88	-27.8	-27.6	13.1	6.37e-04	0	43	0	1216348160	27	13889
2026-01-21 21:39:34.68	223.48	11.11	-27.4	-27.3	13.2	4.96e-04	0	43	0	1551892480	26	14119
2026-01-21 21:39:37.58	224.00	11.34	-27.3	-27.2	13.2	5.05e-04	0	43	0	1879048192	26	13988
2026-01-21 21:39:40.49	224.54	11.57	-27.1	-27.0	13.2	4.44e-04	0	43	0	2206203904	26	13701
2026-01-21 21:39:43.40	225.08	11.80	-27.0	-26.8	13.2	4.04e-04	0	43	0	2533359616	26	13451
2026-01-21 21:39:46.31	225.63	12.04	-27.2	-27.0	13.2	4.25e-04	0	43	0	2860515328	26	13745
2026-01-21 21:39:49.21	226.19	12.27	-26.9	-26.7	13.2	3.78e-04	0	44	0	3187671040	25	14026
2026-01-21 21:39:52.12	226.76	12.51	-26.8	-26.6	13.2	4.33e-04	0	43	0	3506438144	25	13944
2026-01-21 21:39:55.03	227.34	12.74	-26.8	-26.6	13.2	3.72e-04	0	44	0	3833593856	25	13857
2026-01-21 21:39:57.94	227.94	12.98	-26.8	-26.6	13.2	4.58e-04	0	44	0	4160749568	25	13904
2026-01-21 21:40:00.84	228.54	13.22	-26.7	-26.5	13.2	4.20e-04	0	43	0	4487905280	25	13768
2026-01-21 21:40:03.75	229.16	13.46	-26.5	-26.3	13.1	4.48e-04	0	43	0	4815060992	25	13470
2026-01-21 21:40:06.66	229.78	13.69	-26.4	-26.2	13.1	3.91e-04	0	44	0	5142216704	24	14109
2026-01-21 21:40:09.57	230.42	13.93	-26.4	-26.3	13.1	4.69e-04	0	44	0	5469372416	24	14131
2026-01-21 21:40:12.48	231.07	14.17	-26.3	-26.1	13.1	4.79e-04	0	44	0	5804916736	24	13852
2026-01-21 21:40:15.39	231.73	14.41	-26.1	-26.0	13.1	5.09e-04	0	44	0	6132072448	24	13683
2026-01-21 21:40:18.30	232.41	14.64	-25.9	-25.8	13.1	4.42e-04	0	44	0	6459228160	23	14117
2026-01-21 21:40:21.21	233.10	14.88	-26.2	-26.0	13.1	5.02e-04	0	44	0	6786383872	23	14544
2026-01-21 21:40:24.12	233.80	15.12	-26.0	-25.8	13.1	4.25e-04	0	44	0	7113539584	23	14225
2026-01-21 21:40:27.03	234.51	15.35	-26.0	-25.8	13.1	4.56e-04	0	44	0	7440695296	23	14221
2026-01-21 21:40:29.94	235.23	15.59	-25.9	-25.8	13.0	5.21e-04	0	44	0	7759462400	23	14129
2026-01-21 21:40:32.85	235.97	15.82	-25.9	-25.7	13.1	5.32e-04	0	44	0	8086618112	23	14058
2026-01-21 21:40:35.76	236.72	16.05	-25.8	-25.6	13.1	4.94e-04	0	44	0	8413773824	23	13942
2026-01-21 21:40:38.66	237.48	16.28	-25.7	-25.5	13.1	5.36e-04	0	44	0	8740929536	23	13719
2026-01-21 21:40:41.58	238.26	16.51	-25.6	-25.4	13.1	5.49e-04	0	44	0	9076473856	23	13627
2026-01-21 21:40:44.50	239.06	16.74	-25.4	-25.2	13.0	5.85e-04	0	44	0	9403629568	22	14108
2026-01-21 21:40:47.41	239.86	16.96	-25.4	-25.3	13.0	6.54e-04	0	44	0	9730785280	22	14144
2026-01-21 21:40:50.32	240.68	17.19	-25.4	-25.3	12.9	6.66e-04	0	44	0	10057940992	22	14146
2026-01-21 21:40:53.23	241.51	17.41	-25.4	-25.2	12.9	6.31e-04	0	44	0	10385096704	22	14024
2026-01-21 21:40:56.14	242.35	17.62	-25.2	-25.0	12.8	7.11e-04	0	44	0	10712252416	22	13764
2026-01-21 21:40:59.04	243.21	17.84	-25.2	-25.0	12.8	7.04e-04	0	44	0	11039408128	22	13735
2026-01-21 21:41:01.95	244.08	18.05	-25.1	-24.9	12.9	7.63e-04	0	44	0	11366563840	22	13575
2026-01-21 21:41:04.87	244.97	18.25	-25.1	-24.9	12.8	8.49e-04	0	44	0	11702108160	22	13551
2026-01-21 21:41:07.77	245.86	18.45	-25.0	-24.8	12.7	9.17e-04	0	44	0	12029263872	21	14181
2026-01-21 21:41:10.68	246.77	18.65	-24.8	-24.6	12.6	9.73e-04	0	44	0	12356419584	21	13866
2026-01-21 21:41:13.59	247.70	18.85	-24.8	-24.7	12.7	9.92e-04	0	44	0	12675186688	21	13966
2026-01-21 21:41:16.50	248.64	19.03	-24.8	-24.7	12.8	1.06e-03	0	44	0	13002342400	21	13996
2026-01-21 21:41:19.40	249.58	19.22	-24.8	-24.6	12.6	1.30e-03	0	44	0	13329498112	21	13913
2026-01-21 21:41:22.32	250.55	19.40	-24.6	-24.4	12.4	1.34e-03	0	44	0	13656653824	21	13585
2026-01-21 21:41:25.23	251.53	19.57	-24.6	-24.4	12.4	1.30e-03	0	44	0	13983809536	21	13542
2026-01-21 21:41:28.14	252.51	19.73	-24.5	-24.4	12.4	1.45e-03	0	44	0	14310965248	21	13516
2026-01-21 21:41:31.05	253.51	19.89	-24.6	-24.5	12.4	1.64e-03	0	44	0	14638120960	21	13660
2026-01-21 21:41:33.95	254.52	20.04	-24.6	-24.4	12.4	1.70e-03	0	44	0	14965276672	21	13548
2026-01-21 21:41:36.87	255.54	20.19	-24.5	-24.3	12.4	1.58e-03	0	44	0	15292432384	21	13469
2026-01-21 21:41:39.77	256.57	20.33	-24.5	-24.4	12.6	1.37e-03	0	44	0	15627976704	21	13505
2026-01-21 21:41:42.68	257.61	20.46	-24.7	-24.5	12.4	1.56e-03	0	44	0	15955132416	20	14542
2026-01-21 21:41:45.59	258.66	20.58	-24.4	-24.2	12.6	1.33e-03	0	44	0	16282288128	20	14083
2026-01-21 21:41:48.50	259.72	20.70	-24.3	-24.1	12.5	1.31e-03	0	44	0	16609443840	20	13944
2026-01-21 21:41:51.41	260.79	20.80	-24.4	-24.2	12.5	1.35e-03	0	44	0	16928210944	20	14109
2026-01-21 21:41:54.32	261.87	20.90	-24.4	-24.2	12.6	1.23e-03	0	44	0	17255366656	20	14008
2026-01-21 21:41:57.23	262.95	20.99	-24.4	-24.2	12.8	9.19e-04	0	44	0	17582522368	20	14004
2026-01-21 21:42:00.13	264.03	21.07	-24.4	-24.2	12.7	1.22e-03	0	44	0	17909678080	20	14060
2026-01-21 21:42:03.04	265.13	21.14	-24.2	-24.1	12.8	8.47e-04	0	44	0	18236833792	20	13821
2026-01-21 21:42:05.95	266.23	21.20	-24.3	-24.1	12.9	8.43e-04	0	44	0	18563989504	20	13949
2026-01-21 21:42:08.85	267.33	21.25	-24.3	-24.1	13.0	6.71e-04	0	44	0	18891145216	20	13946
2026-01-21 21:42:11.76	268.44	21.29	-24.4	-24.2	13.1	3.70e-04	0	44	0	19218300928	20	14057
2026-01-21 21:42:14.67	269.55	21.32	-24.5	-24.3	13.2	3.68e-04	0	43	0	19545456640	20	14260
2026-01-21 21:42:17.57	270.65	21.34	-24.5	-24.3	13.2	2.50e-04	0	44	0	19881000960	20	14266
2026-01-21 21:42:20.49	271.77	21.35	-24.5	-24.3	13.3	2.40e-04	0	44	0	20208156672	20	14257
2026-01-21 21:42:23.40	272.89	21.35	-24.5	-24.3	13.4	1.79e-04	0	44	0	20535312384	20	14171
2026-01-21 21:42:26.32	274.00	21.34	-24.6	-24.5	13.4	1.28e-04	0	44	0	20854079488	20	14485
2026-01-21 21:42:29.24	275.12	21.32	-24.6	-24.4	13.4	1.45e-04	0	44	0	21181235200	20	14384
2026-01-21 21:42:32.15	276.23	21.30	-24.8	-24.6	13.5	2.42e-04	0	44	0	21508390912	20	14677
2026-01-21 21:42:35.06	277.34	21.26	-24.7	-24.6	13.6	7.82e-05	0	44	0	21835546624	20	14612
2026-01-21 21:42:37.96	278.44	21.21	-24.8	-24.6	13.5	4.95e-05	0	44	0	22162702336	20	14724
2026-01-21 21:42:40.87	279.54	21.15	-24.8	-24.6	13.5	1.11e-04	0	44	0	22489858048	20	14709
2026-01-21 21:42:43.78	280.63	21.08	-24.9	-24.7	13.4	1.85e-04	0	44	0	22825402368	20	14913
2026-01-21 21:42:46.69	281.72	21.01	-24.9	-24.7	13.4	1.70e-04	0	44	0	23152558080	20	14898
2026-01-21 21:42:49.60	282.80	20.92	-25.0	-24.8	13.4	1.60e-04	0	44	0	23479713792	20	15042
2026-01-21 21:42:52.52	283.88	20.83	-24.9	-24.7	13.4	2.19e-04	0	44	0	23806869504	20	14931
2026-01-21 21:42:55.43	284.95	20.72	-24.9	-24.7	13.4	2.06e-04	0	44	0	24134025216	20	14937
2026-01-21 21:42:58.34	286.01	20.61	-25.1	-24.9	13.4	1.68e-04	0	44	0	24461180928	20	15251
2026-01-21 21:43:01.25	287.06	20.49	-25.1	-24.9	13.4	2.14e-04	0	44	0	24788336640	20	15272
2026-01-21 21:43:04.16	288.10	20.36	-25.1	-24.9	13.3	2.75e-04	0	44	0	25107103744	20	15286
2026-01-21 21:43:07.07	289.13	20.23	-25.3	-25.1	13.4	1.79e-04	0	44	0	25451036672	21	14706
2026-01-21 21:43:09.99	290.16	20.08	-25.3	-25.2	13.3	2.52e-04	0	44	0	25778192384	21	14814
2026-01-21 21:43:12.90	291.17	19.93	-25.3	-25.1	13.3	2.86e-04	0	44	0	26096959488	21	14691
2026-01-21 21:43:15.81	292.17	19.78	-25.4	-25.2	13.3	2.63e-04	0	44	0	26424115200	21	14874
2026-01-21 21:43:18.71	293.15	19.61	-25.5	-25.4	13.3	2.71e-04	0	44	0	26751270912	21	15141
2026-01-21 21:43:21.61	294.12	19.44	-25.6	-25.4	13.3	2.59e-04	0	44	0	27078426624	21	15173
2026-01-21 21:43:24.52	295.09	19.27	-25.5	-25.3	13.3	2.75e-04	0	44	0	27405582336	21	15055
2026-01-21 21:43:27.43	296.04	19.09	-25.6	-25.4	13.3	2.71e-04	0	44	0	27732738048	21	15228
2026-01-21 21:43:30.34	296.98	18.90	-25.6	-25.4	13.3	2.71e-04	0	44	0	28059893760	21	15279
2026-01-21 21:43:33.25	297.90	18.71	-25.6	-25.4	13.3	1.94e-04	0	44	0	28387049472	21	15197
2026-01-21 21:43:36.16	298.81	18.51	-25.6	-25.4	13.4	2.33e-04	0	44	0	28714205184	21	15195
2026-01-21 21:43:39.07	299.71	18.31	-25.6	-25.4	13.4	2.29e-04	0	44	0	29032972288	21	15295
2026-01-21 21:43:41.98	300.60	18.11	-25.7	-25.5	13.4	1.87e-04	0	44	0	29376905216	22	14588
2026-01-21 21:43:44.88	301.47	17.90	-25.7	-25.6	13.4	1.73e-04	0	44	0	29704060928	22	14651
2026-01-21 21:43:47.79	302.32	17.69	-25.8	-25.6	13.4	1.96e-04	0	44	0	30022828032	22	14760
2026-01-21 21:43:50.69	303.17	17.48	-25.8	-25.7	13.4	2.15e-04	0	44	0	30349983744	22	14812
2026-01-21 21:43:53.60	304.00	17.26	-25.9	-25.8	13.3	2.61e-04	0	44	0	30677139456	22	14965
2026-01-21 21:43:56.51	304.82	17.04	-26.0	-25.8	13.3	2.65e-04	0	44	0	31004295168	22	15081
2026-01-21 21:43:59.42	305.62	16.81	-26.1	-25.9	13.2	3.17e-04	0	44	0	31331450880	22	15170
2026-01-21 21:44:02.33	306.41	16.59	-26.2	-26.1	13.2	3.80e-04	0	44	0	31658606592	23	14618
2026-01-21 21:44:05.24	307.19	16.36	-26.3	-26.2	13.1	4.92e-04	0	44	0	31985762304	23	14780
2026-01-21 21:44:08.15	307.95	16.13	-26.3	-26.2	13.2	3.97e-04	0	43	0	32312918016	23	14817
2026-01-21 21:44:11.05	308.70	15.90	-26.5	-26.3	13.1	3.72e-04	0	44	0	32640073728	23	15000
2026-01-21 21:44:13.97	309.44	15.67	-26.7	-26.5	13.1	4.25e-04	0	44	0	32958840832	23	15365
2026-01-21 21:44:16.87	310.17	15.44	-26.6	-26.4	13.1	5.19e-04	0	44	0	33302773760	23	15176
2026-01-21 21:44:19.79	310.88	15.21	-26.7	-26.5	13.1	4.23e-04	0	44	0	33629929472	24	14558
2026-01-21 21:44:22.70	311.58	14.97	-26.8	-26.6	13.1	5.03e-04	0	44	0	33948696576	24	14700
2026-01-21 21:44:25.60	312.27	14.74	-26.8	-26.6	13.0	5.74e-04	0	44	0	34275852288	24	14709
2026-01-21 21:44:28.51	312.94	14.50	-26.9	-26.8	13.1	4.81e-04	0	44	0	34603008000	24	14979
2026-01-21 21:44:31.42	313.61	14.26	-27.0	-26.8	13.1	4.81e-04	0	44	0	34930163712	24	15053
2026-01-21 21:44:34.33	314.26	14.03	-27.1	-26.9	13.1	4.67e-04	0	44	0	35257319424	25	14433
2026-01-21 21:44:37.24	314.90	13.79	-27.3	-27.1	13.0	6.39e-04	0	44	0	35584475136	25	14712
2026-01-21 21:44:40.15	315.52	13.56	-27.3	-27.2	13.0	5.68e-04	0	44	0	35911630848	25	14819
2026-01-21 21:44:43.06	316.14	13.32	-27.3	-27.1	13.0	7.00e-04	0	44	0	36238786560	25	14692
2026-01-21 21:44:45.97	316.75	13.08	-27.4	-27.2	13.0	7.06e-04	0	44	0	36565942272	25	14884
2026-01-21 21:44:48.87	317.34	12.85	-27.5	-27.4	13.0	7.17e-04	0	44	0	36901486592	25	15141
2026-01-21 21:44:51.79	317.92	12.61	-27.5	-27.4	13.0	5.89e-04	0	44	0	37228642304	25	15138
2026-01-21 21:44:54.71	318.50	12.38	-27.7	-27.6	13.0	5.80e-04	0	44	0	37555798016	26	14639
2026-01-21 21:44:57.61	319.06	12.15	-27.8	-27.6	13.0	6.68e-04	0	44	0	37882953728	26	14764
2026-01-21 21:45:00.52	319.61	11.91	-28.0	-27.9	12.9	6.77e-04	0	44	0	38201720832	26	15121
2026-01-21 21:45:03.43	320.15	11.68	-28.0	-27.9	12.9	7.74e-04	0	44	0	38528876544	26	15169
2026-01-21 21:45:06.34	320.69	11.45	-28.1	-27.9	12.8	9.31e-04	0	44	0	38856032256	26	15287
2026-01-21 21:45:09.25	321.21	11.22	-28.2	-28.1	12.8	8.28e-04	0	44	0	39183187968	27	14622
2026-01-21 21:45:12.17	321.73	10.99	-28.5	-28.3	12.9	8.05e-04	0	44	0	39510343680	27	15077
2026-01-21 21:45:15.07	322.23	10.76	-28.5	-28.4	12.9	7.27e-04	0	44	0	39845888000	27	15171
2026-01-21 21:45:17.97	322.72	10.54	-28.5	-28.3	13.0	7.21e-04	0	44	0	40173043712	28	14272
2026-01-21 21:45:20.89	323.21	10.31	-28.6	-28.4	13.0	6.87e-04	0	44	0	40500199424	28	14376
2026-01-21 21:45:23.80	323.69	10.08	-28.7	-28.5	13.0	8.91e-04	0	44	0	40827355136	28	14576
2026-01-21 21:45:26.71	324.16	9.86	-53.3	-55.6	6.2	0.00e+00	0	43	104	40995127296	77	19602
2026-01-21 21:45:29.62	324.62	9.64	-53.4	-55.5	6.2	0.00e+00	0	43	104	40995127296	77	19450
2026-01-21 21:45:32.52	325.07	9.41	-53.4	-55.5	6.2	0.00e+00	0	43	104	40995127296	77	19422
2026-01-21 21:45:35.44	325.52	9.19	-53.3	-55.5	6.2	0.00e+00	0	43	104	40995127296	77	19314
2026-01-21 21:45:38.36	325.96	8.97	-53.2	-55.5	6.2	0.00e+00	0	43	104	40995127296	77	19279
2026-01-21 21:45:41.27	326.39	8.76	-53.3	-55.4	6.2	0.00e+00	0	43	104	40995127296	77	19120
2026-01-21 21:45:44.18	326.81	8.54	-53.2	-55.4	6.2	0.00e+00	0	43	104	40995127296	77	19120
2026-01-21 21:45:47.09	327.22	8.32	-53.2	-55.3	6.2	0.00e+00	0	43	104	40995127296	77	18965
2026-01-21 21:45:50.00	327.63	8.11	-53.2	-55.4	6.2	0.00e+00	0	43	104	40995127296	77	19082
2026-01-21 21:45:52.91	328.03	7.90	-53.1	-55.2	6.2	0.00e+00	0	43	104	40995127296	77	18808
2026-01-21 21:45:55.81	328.43	7.68	-53.1	-55.3	6.2	0.00e+00	0	43	104	40995127296	77	18870
2026-01-21 21:45:58.72	328.81	7.47	-53.1	-55.2	6.2	0.00e+00	0	43	104	40995127296	77	18756
2026-01-21 21:46:01.63	329.19	7.26	-53.0	-55.2	6.2	0.00e+00	0	43	104	40995127296	77	18741
2026-01-21 21:46:04.53	329.57	7.06	-53.0	-55.1	6.2	0.00e+00	0	43	104	40995127296	77	18602
2026-01-21 21:46:07.44	329.94	6.85	-53.0	-55.2	6.2	0.00e+00	0	43	104	40995127296	77	18628
2026-01-21 21:46:10.36	330.30	6.65	-53.0	-55.1	6.2	0.00e+00	0	43	104	40995127296	77	18591
2026-01-21 21:46:13.27	330.66	6.44	-52.9	-55.0	6.2	0.00e+00	0	43	104	40995127296	77	18388
2026-01-21 21:46:16.17	331.01	6.24	-53.0	-55.1	6.2	0.00e+00	0	43	104	40995127296	77	18419
2026-01-21 21:46:19.08	331.35	6.04	-52.9	-55.0	6.2	0.00e+00	0	43	104	40995127296	77	18284
2026-01-21 21:46:21.99	331.69	5.84	-52.9	-55.1	6.2	0.00e+00	0	43	104	40995127296	77	18498
2026-01-21 21:46:24.89	332.02	5.64	-52.8	-54.9	6.2	0.00e+00	0	43	104	40995127296	77	18097
2026-01-21 21:46:27.80	332.35	5.44	-52.8	-55.0	6.2	0.00e+00	0	43	104	40995127296	77	18214
2026-01-21 21:46:30.72	332.68	5.25	-52.8	-54.9	6.2	0.00e+00	0	43	104	40995127296	77	18093
2026-01-21 21:46:33.62	333.00	5.05	-52.8	-54.9	6.2	0.00e+00	0	43	104	40995127296	77	18113
2026-01-21 21:46:36.53	333.31	4.86	-53.5	-55.6	6.2	0.00e+00	0	43	104	40995127296	77	19537
2026-01-21 21:46:39.44	333.62	4.66	-53.8	-56.0	6.2	0.00e+00	0	43	104	40995127296	78	19289
2026-01-21 21:46:42.35	333.92	4.47	-54.0	-56.1	6.2	0.00e+00	0	43	104	40995127296	78	19543
2026-01-21 21:46:45.26	334.22	4.28	-53.9	-56.0	6.2	0.00e+00	0	43	104	40995127296	78	19362
2026-01-21 21:46:48.17	334.52	4.09	-53.8	-55.9	6.2	0.00e+00	0	43	104	40995127296	78	19211
2026-01-21 21:46:51.07	334.81	3.91	-53.9	-56.0	6.2	0.00e+00	0	43	104	40995127296	78	19449
2026-01-21 21:46:53.99	335.09	3.72	-54.0	-56.1	6.2	0.00e+00	0	43	104	40995127296	78	19609
2026-01-21 21:46:56.90	335.38	3.53	-53.9	-56.0	6.2	0.00e+00	0	43	104	40995127296	78	19412
2026-01-21 21:46:59.80	335.65	3.35	-53.9	-56.0	6.2	0.00e+00	0	43	104	40995127296	78	19335
2026-01-21 21:47:02.71	335.93	3.17	-53.8	-55.9	6.2	0.00e+00	0	43	104	40995127296	78	19214
2026-01-21 21:47:05.62	336.20	2.98	-53.8	-55.9	6.2	0.00e+00	0	43	104	40995127296	78	19249
2026-01-21 21:47:08.53	336.46	2.80	-53.8	-55.9	6.2	0.00e+00	0	43	104	40995127296	78	19206
2026-01-21 21:47:11.44	336.73	2.62	-53.8	-55.9	6.2	0.00e+00	0	43	104	40995127296	78	19140
2026-01-21 21:47:14.36	336.99	2.44	-53.8	-55.9	6.2	0.00e+00	0	43	104	40995127296	78	19109
2026-01-21 21:47:17.27	337.24	2.27	-53.8	-55.9	6.2	0.00e+00	0	43	104	40995127296	78	19112
2026-01-21 21:47:20.18	337.49	2.09	-53.7	-55.8	6.2	0.00e+00	0	43	104	40995127296	78	19015

#Closed at: 2026-01-21 21:47:22
#Recorded file [40995 MB]: D:/lorett/data/31041_260122_003726.dat