passes_logs/2026/01/21/R3.2S_Murmansk/R3.2S_Murmansk__20260121_043055_AQUA_rec.log

#Pass ID: 20260121_043055_AQUA
#Satellite: AQUA
#Configuration: AQUA
#almurnet v.1.7.20251203
#Start time: 2026-01-21 04:30:56

#Version: 2.2.20231116
#Station: R3.2S_Murmansk
#Location: 33.079688 lon 68.888172 lat
#TLE: 1 27424U 02022A   26020.30984080  .00001497  00000+0  30942-3 0  9998
#TLE: 2 27424  98.4092 346.8266 0001984  71.7888  69.0903 14.61835321261661

#Time	Az	El	Level	Level2	SNR	BER	BlckErr	Temp	State	Recorded	gain1	gain2
2026-01-21 04:30:56.64	33.14	2.10	-55.1	-72.9	3.8	7.42e-01	0	38	0	0	82	26779
2026-01-21 04:30:59.66	32.97	2.28	-53.8	-71.6	3.8	7.42e-01	0	38	104	0	79	27602
2026-01-21 04:31:02.69	32.80	2.47	-53.8	-71.6	3.8	7.44e-01	0	38	104	0	79	27640
2026-01-21 04:31:05.71	32.62	2.66	-53.8	-71.6	3.8	7.45e-01	0	38	104	0	79	27520
2026-01-21 04:31:08.74	32.44	2.85	-53.8	-71.5	3.8	7.45e-01	0	38	104	0	79	27182
2026-01-21 04:31:11.77	32.26	3.04	-53.8	-71.6	3.8	7.45e-01	0	39	104	0	79	27547
2026-01-21 04:31:14.79	32.07	3.24	-53.8	-71.2	3.8	7.47e-01	0	39	104	0	79	26309
2026-01-21 04:31:17.81	31.89	3.43	-53.8	-71.2	3.8	7.47e-01	0	39	104	0	79	26366
2026-01-21 04:31:20.84	31.70	3.63	-53.8	-71.5	3.8	7.43e-01	0	39	104	0	79	27295
2026-01-21 04:31:23.86	31.50	3.82	-53.7	-69.6	3.8	7.43e-01	0	39	104	0	79	21869
2026-01-21 04:31:26.89	31.31	4.02	-53.7	-68.0	4.2	7.32e-01	0	39	104	0	79	18107
2026-01-21 04:31:29.91	31.11	4.22	-53.3	-63.1	7.1	6.60e-01	182	39	0	1048576	78	10991
2026-01-21 04:31:32.93	30.91	4.42	-51.6	-56.1	14.2	6.01e-01	0	39	0	6815744	75	5838
2026-01-21 04:31:35.96	30.70	4.63	-49.8	-52.7	17.8	6.05e-01	0	39	0	12058624	71	4977
2026-01-21 04:31:38.98	30.49	4.83	-50.0	-53.0	17.7	6.01e-01	0	39	0	17825792	70	5405
2026-01-21 04:31:42.01	30.28	5.04	-51.5	-56.1	14.6	6.03e-01	0	39	0	23592960	73	6512
2026-01-21 04:31:45.03	30.06	5.24	-53.6	-66.7	4.9	7.18e-01	0	39	0	28835840	77	17524
2026-01-21 04:31:48.05	29.84	5.45	-46.0	-47.5	23.3	6.03e-01	0	39	0	32505856	64	4054
2026-01-21 04:31:51.08	29.62	5.66	-45.8	-47.3	23.7	6.03e-01	0	39	0	37748736	63	4195
2026-01-21 04:31:54.11	29.39	5.87	-45.8	-47.2	23.8	6.05e-01	0	39	0	43515904	63	4191
2026-01-21 04:31:57.13	29.16	6.08	-45.5	-46.9	24.0	6.02e-01	0	39	0	49283072	63	4020
2026-01-21 04:32:00.15	28.93	6.30	-45.6	-47.0	24.0	6.00e-01	0	39	0	55050240	62	4322
2026-01-21 04:32:03.18	28.69	6.51	-45.4	-46.8	24.1	6.04e-01	0	39	0	60817408	62	4225
2026-01-21 04:32:06.20	28.45	6.73	-45.4	-46.7	24.3	6.01e-01	0	39	0	66060288	62	4176
2026-01-21 04:32:09.22	28.20	6.95	-45.2	-46.5	24.5	6.04e-01	0	39	0	71827456	61	4330
2026-01-21 04:32:12.25	27.95	7.17	-44.9	-46.2	24.8	5.99e-01	0	39	0	77594624	61	4189
2026-01-21 04:32:15.27	27.69	7.39	-44.9	-46.2	24.9	6.03e-01	0	39	0	83361792	61	4181
2026-01-21 04:32:18.30	27.43	7.61	-45.1	-46.4	24.8	6.03e-01	0	39	0	89128960	61	4250
2026-01-21 04:32:21.32	27.17	7.84	-44.9	-46.2	25.0	6.02e-01	0	39	0	94371840	61	4149
2026-01-21 04:32:24.35	26.90	8.06	-44.7	-46.0	25.3	6.03e-01	0	39	0	100139008	61	4064
2026-01-21 04:32:27.37	26.63	8.29	-44.9	-46.2	25.0	6.03e-01	0	39	0	105906176	61	4147
2026-01-21 04:32:30.39	26.35	8.52	-44.8	-46.0	25.2	6.05e-01	0	40	0	111673344	61	4088
2026-01-21 04:32:33.41	26.07	8.75	-44.6	-45.9	25.3	6.03e-01	0	40	0	117440512	61	4024
2026-01-21 04:32:36.44	25.78	8.99	-44.7	-45.9	25.3	6.01e-01	0	39	0	123207680	61	4028
2026-01-21 04:32:39.46	25.48	9.22	-44.5	-45.7	25.5	6.02e-01	0	39	0	128450560	60	4166
2026-01-21 04:32:42.49	25.18	9.46	-44.5	-45.7	25.5	6.05e-01	0	39	0	134217728	60	4155
2026-01-21 04:32:45.51	24.88	9.70	-44.4	-45.6	25.6	6.00e-01	0	39	0	139984896	60	4129
2026-01-21 04:32:48.53	24.57	9.94	-44.2	-45.4	25.9	6.06e-01	0	39	0	145752064	60	4005
2026-01-21 04:32:51.56	24.25	10.18	-44.1	-45.3	25.9	6.01e-01	0	40	0	151519232	60	3982
2026-01-21 04:32:54.58	23.93	10.42	-44.1	-45.2	26.0	6.01e-01	0	39	0	156762112	60	3945
2026-01-21 04:32:57.60	23.60	10.67	-44.2	-45.4	25.8	6.04e-01	0	39	0	162529280	59	4261
2026-01-21 04:33:00.63	23.27	10.92	-44.4	-45.6	25.7	6.03e-01	0	40	0	168296448	59	4376
2026-01-21 04:33:03.66	22.92	11.17	-44.4	-45.6	25.7	6.02e-01	0	39	0	174063616	59	4341
2026-01-21 04:33:06.68	22.58	11.42	-44.2	-45.3	25.9	6.02e-01	0	40	0	179830784	59	4237
2026-01-21 04:33:09.71	22.22	11.67	-44.1	-45.2	26.1	5.99e-01	0	40	0	185597952	59	4180
2026-01-21 04:33:12.73	21.86	11.93	-43.9	-45.0	26.2	6.00e-01	0	40	0	190840832	59	4094
2026-01-21 04:33:15.75	21.49	12.18	-43.7	-44.8	26.3	6.02e-01	0	40	0	196608000	59	4003
2026-01-21 04:33:18.77	21.12	12.44	-43.8	-45.0	26.3	6.03e-01	0	40	0	202375168	59	4058
2026-01-21 04:33:21.80	20.73	12.70	-43.8	-44.9	26.4	6.02e-01	0	40	0	208142336	59	4032
2026-01-21 04:33:24.82	20.34	12.97	-43.7	-44.9	26.4	6.02e-01	0	40	0	213909504	59	4017
2026-01-21 04:33:27.85	19.95	13.23	-43.7	-44.9	26.4	6.00e-01	0	40	0	219676672	59	4012
2026-01-21 04:33:30.87	19.54	13.50	-43.6	-44.7	26.6	6.02e-01	0	40	0	224919552	59	3929
2026-01-21 04:33:33.90	19.12	13.77	-43.7	-44.8	26.5	6.03e-01	0	40	0	230686720	59	3994
2026-01-21 04:33:36.93	18.70	14.04	-43.7	-44.8	26.5	6.02e-01	0	40	0	236453888	59	3977
2026-01-21 04:33:39.95	18.27	14.31	-43.6	-44.8	26.6	6.02e-01	0	40	0	242221056	59	3963
2026-01-21 04:33:42.97	17.83	14.58	-43.7	-44.9	26.4	6.01e-01	0	40	0	247988224	59	4012
2026-01-21 04:33:46.00	17.38	14.86	-43.6	-44.7	26.6	6.02e-01	0	40	0	253231104	59	3935
2026-01-21 04:33:49.02	16.92	15.14	-43.7	-44.8	26.6	6.02e-01	0	40	0	258998272	59	3971
2026-01-21 04:33:52.05	16.46	15.42	-43.6	-44.7	26.7	6.02e-01	0	40	0	264765440	58	4166
2026-01-21 04:33:55.07	15.98	15.70	-43.5	-44.6	26.8	6.03e-01	0	40	0	270532608	58	4116
2026-01-21 04:33:58.09	15.49	15.98	-43.5	-44.6	26.7	6.03e-01	0	40	0	276299776	58	4138
2026-01-21 04:34:01.11	15.00	16.26	-43.6	-44.7	26.6	6.01e-01	0	40	0	281542656	58	4176
2026-01-21 04:34:04.14	14.49	16.55	-43.5	-44.6	26.8	6.02e-01	0	40	0	287309824	58	4131
2026-01-21 04:34:07.16	13.97	16.84	-43.6	-44.7	26.7	6.03e-01	0	40	0	293076992	58	4156
2026-01-21 04:34:10.19	13.44	17.12	-43.5	-44.6	26.8	6.02e-01	0	40	0	298844160	58	4129
2026-01-21 04:34:13.21	12.90	17.41	-43.4	-44.5	26.9	6.03e-01	0	40	0	304611328	58	4091
2026-01-21 04:34:16.23	12.35	17.70	-43.5	-44.6	26.9	6.03e-01	0	40	0	310378496	58	4109
2026-01-21 04:34:19.26	11.79	18.00	-43.6	-44.7	26.7	6.01e-01	0	40	0	315621376	58	4168
2026-01-21 04:34:22.28	11.21	18.29	-44.2	-54.8	3.8	7.38e-01	0	40	104	319815680	59	12549
2026-01-21 04:34:25.31	10.63	18.58	-44.6	-55.3	3.8	7.45e-01	0	40	104	319815680	59	13340
2026-01-21 04:34:28.33	10.03	18.88	-48.0	-59.2	3.9	7.46e-01	0	40	104	319815680	68	12452
2026-01-21 04:34:31.35	9.42	19.17	-45.3	-56.3	3.9	7.40e-01	0	40	104	319815680	61	13274
2026-01-21 04:34:34.37	8.79	19.47	-52.8	-66.3	3.9	7.40e-01	0	40	104	319815680	77	16763
2026-01-21 04:34:37.40	8.16	19.76	-44.0	-54.6	3.9	7.42e-01	0	40	104	319815680	60	11653
2026-01-21 04:34:40.42	7.51	20.06	-45.7	-56.5	3.7	7.43e-01	0	40	104	319815680	63	12134
2026-01-21 04:34:43.44	6.84	20.36	-44.2	-54.7	4.2	7.35e-01	0	40	104	319815680	60	11688
2026-01-21 04:34:46.47	6.16	20.65	-44.1	-54.8	3.8	7.46e-01	0	40	104	319815680	59	12530
2026-01-21 04:34:49.49	5.47	20.95	-47.2	-58.1	3.8	7.43e-01	0	40	104	319815680	64	13763
2026-01-21 04:34:52.52	4.76	21.24	-45.5	-56.4	3.8	7.49e-01	0	40	104	319815680	63	12042
2026-01-21 04:34:55.54	4.04	21.54	-46.8	-58.0	3.8	7.46e-01	0	40	104	319815680	64	13611
2026-01-21 04:34:58.56	3.31	21.83	-46.6	-57.5	3.8	7.45e-01	0	40	104	319815680	65	12205
2026-01-21 04:35:01.59	2.56	22.12	-44.2	-54.9	3.8	7.44e-01	0	40	104	319815680	60	12028
2026-01-21 04:35:04.61	1.79	22.41	-44.5	-55.2	3.8	7.45e-01	0	40	104	319815680	61	11750
2026-01-21 04:35:07.63	1.01	22.70	-46.1	-56.9	3.8	7.42e-01	0	40	104	319815680	62	13483
2026-01-21 04:35:10.66	0.21	22.99	-44.2	-54.9	3.8	7.44e-01	0	40	104	319815680	60	11997
2026-01-21 04:35:13.68	359.40	23.27	-53.3	-66.9	3.8	7.47e-01	0	40	104	319815680	76	18970
2026-01-21 04:35:16.70	358.58	23.55	-44.8	-55.5	3.9	7.43e-01	0	40	104	319815680	61	12183
2026-01-21 04:35:19.73	357.73	23.83	-48.0	-59.1	3.8	7.44e-01	0	40	104	319815680	66	13841
2026-01-21 04:35:22.75	356.87	24.11	-46.2	-57.0	3.9	7.42e-01	0	40	104	319815680	64	12167
2026-01-21 04:35:25.78	356.00	24.38	-44.2	-54.9	3.9	7.43e-01	0	40	104	319815680	60	11985
2026-01-21 04:35:28.80	355.11	24.65	-44.6	-55.4	3.8	7.43e-01	0	40	104	319815680	61	12019
2026-01-21 04:35:31.82	354.20	24.91	-47.8	-59.1	3.8	7.46e-01	0	40	104	319815680	66	13781
2026-01-21 04:35:34.85	353.28	25.17	-44.8	-55.5	3.8	7.44e-01	0	40	104	319815680	61	12149
2026-01-21 04:35:37.87	352.34	25.42	-54.6	-70.7	3.8	7.46e-01	0	40	104	319815680	79	24958
2026-01-21 04:35:40.89	351.39	25.66	-45.7	-56.5	3.8	7.45e-01	0	40	104	319815680	63	12116
2026-01-21 04:35:43.92	350.42	25.91	-46.6	-57.5	3.8	7.47e-01	0	40	104	319815680	63	13708
2026-01-21 04:35:46.94	349.43	26.14	-46.7	-57.6	3.8	7.44e-01	0	40	104	319815680	65	12271
2026-01-21 04:35:49.97	348.43	26.37	-44.4	-55.1	3.8	7.47e-01	0	40	104	319815680	60	12268
2026-01-21 04:35:52.99	347.41	26.58	-44.6	-55.3	3.8	7.43e-01	0	40	104	319815680	60	12638
2026-01-21 04:35:56.01	346.39	26.80	-49.5	-61.0	3.8	7.43e-01	0	40	104	319815680	69	14526
2026-01-21 04:35:59.04	345.34	27.00	-44.0	-54.7	3.8	7.47e-01	0	40	104	319815680	59	12462
2026-01-21 04:36:02.06	344.28	27.19	-54.6	-70.7	3.8	7.43e-01	0	40	104	319815680	79	24955
2026-01-21 04:36:05.09	343.21	27.38	-45.2	-55.9	3.8	7.47e-01	0	40	104	319815680	62	12052
2026-01-21 04:36:08.11	342.13	27.55	-45.1	-55.8	3.8	7.46e-01	0	40	104	319815680	61	12661
2026-01-21 04:36:11.14	341.03	27.72	-45.5	-56.3	3.8	7.44e-01	0	40	104	319815680	63	11902
2026-01-21 04:36:14.16	339.93	27.87	-44.4	-55.1	3.8	7.43e-01	0	40	104	319815680	60	12240
2026-01-21 04:36:17.19	338.81	28.02	-44.3	-55.1	3.8	7.44e-01	0	40	104	319815680	60	12238
2026-01-21 04:36:20.21	337.68	28.15	-49.2	-60.6	3.8	7.42e-01	0	40	104	319815680	69	13760
2026-01-21 04:36:23.24	336.54	28.27	-44.0	-54.7	3.9	7.44e-01	0	40	104	319815680	59	12398
2026-01-21 04:36:26.26	335.39	28.38	-52.9	-66.4	3.9	7.43e-01	0	40	104	319815680	78	16071
2026-01-21 04:36:29.29	334.24	28.48	-44.5	-55.2	3.8	7.45e-01	0	40	104	319815680	61	11752
2026-01-21 04:36:32.31	333.08	28.57	-45.1	-55.9	3.8	7.47e-01	0	40	104	319815680	62	11982
2026-01-21 04:36:35.33	331.91	28.64	-44.0	-54.7	3.8	7.45e-01	0	40	104	319815680	60	11809
2026-01-21 04:36:38.36	330.74	28.70	-44.1	-54.6	3.8	7.44e-01	0	40	104	319815680	59	12317
2026-01-21 04:36:41.38	329.56	28.75	-44.1	-54.7	3.8	7.46e-01	0	40	104	319815680	60	11781
2026-01-21 04:36:44.40	328.38	28.78	-48.8	-60.1	3.9	7.42e-01	0	40	104	319815680	69	13012
2026-01-21 04:36:47.43	327.20	28.80	-44.9	-55.5	3.9	7.43e-01	0	40	104	319815680	61	12178
2026-01-21 04:36:50.45	326.02	28.81	-49.6	-61.1	3.9	7.46e-01	0	40	104	319815680	71	13099
2026-01-21 04:36:53.48	324.83	28.80	-46.0	-56.8	3.8	7.43e-01	0	41	104	319815680	63	12659
2026-01-21 04:36:56.50	323.65	28.78	-44.7	-55.4	3.8	7.46e-01	0	40	104	319815680	60	12779
2026-01-21 04:36:59.53	322.47	28.75	-44.9	-55.6	3.9	7.41e-01	0	40	104	319815680	61	12283
2026-01-21 04:37:02.55	321.29	28.71	-45.4	-56.2	3.8	7.42e-01	0	40	104	319815680	62	12466
2026-01-21 04:37:05.58	320.12	28.65	-45.5	-56.1	3.9	7.46e-01	0	40	104	319815680	62	12295
2026-01-21 04:37:08.60	318.95	28.58	-48.0	-59.2	3.8	7.44e-01	0	40	104	319815680	68	12466
2026-01-21 04:37:11.63	317.79	28.49	-48.7	-59.9	3.8	7.45e-01	0	40	104	319815680	67	14254
2026-01-21 04:37:14.64	316.64	28.40	-46.4	-57.3	3.8	7.43e-01	0	40	104	319815680	64	12530
2026-01-21 04:37:17.67	315.49	28.29	-45.5	-56.2	3.8	7.45e-01	0	40	104	319815680	63	11783
2026-01-21 04:37:20.70	314.34	28.17	-46.8	-57.9	3.8	7.44e-01	0	40	104	319815680	64	13442
2026-01-21 04:37:23.72	313.21	28.04	-50.3	-61.8	3.8	7.46e-01	0	40	104	319815680	70	14890
2026-01-21 04:37:26.75	312.09	27.90	-46.0	-57.1	3.8	7.44e-01	0	40	104	319815680	63	13004
2026-01-21 04:37:29.77	310.98	27.74	-47.7	-58.6	3.8	7.48e-01	0	40	104	319815680	65	13821
2026-01-21 04:37:32.80	309.88	27.58	-46.0	-56.6	3.9	7.48e-01	0	40	104	319815680	63	12360
2026-01-21 04:37:35.82	308.80	27.41	-45.6	-56.2	3.8	7.44e-01	0	40	104	319815680	61	13248
2026-01-21 04:37:38.84	307.72	27.22	-47.2	-58.3	3.8	7.41e-01	0	40	104	319815680	64	14145
2026-01-21 04:37:41.86	306.66	27.03	-45.6	-56.1	3.8	7.46e-01	0	40	104	319815680	62	12375
2026-01-21 04:37:44.89	305.61	26.83	-48.6	-59.9	3.8	7.43e-01	0	40	104	319815680	68	13471
2026-01-21 04:37:47.91	304.58	26.62	-52.4	-65.5	3.8	7.44e-01	0	40	104	319815680	75	17203
2026-01-21 04:37:50.94	303.56	26.40	-45.4	-55.9	3.8	7.43e-01	0	40	104	319815680	62	12055
2026-01-21 04:37:53.96	302.56	26.17	-48.3	-59.6	3.9	7.45e-01	0	40	104	319815680	67	13773
2026-01-21 04:37:56.99	301.57	25.94	-45.2	-56.7	3.9	7.45e-01	0	40	104	319815680	62	13188
2026-01-21 04:38:00.01	300.60	25.70	-47.1	-57.7	3.9	7.43e-01	0	40	104	319815680	65	12402
2026-01-21 04:38:03.04	299.64	25.45	-49.1	-60.0	3.8	7.48e-01	0	40	104	319815680	70	12185
2026-01-21 04:38:06.06	298.69	25.20	-47.1	-58.3	3.8	7.43e-01	0	40	104	319815680	65	13263
2026-01-21 04:38:09.08	297.77	24.94	-51.9	-65.2	3.8	7.44e-01	0	40	104	319815680	75	16668
2026-01-21 04:38:12.10	296.86	24.68	-50.7	-63.0	3.8	7.44e-01	0	40	104	319815680	72	15321
2026-01-21 04:38:15.12	295.96	24.42	-46.0	-56.8	3.8	7.44e-01	0	40	104	319815680	64	11877
2026-01-21 04:38:18.15	295.08	24.14	-51.4	-63.8	3.8	7.44e-01	0	40	104	319815680	74	14890
2026-01-21 04:38:21.17	294.22	23.87	-46.8	-57.9	3.8	7.46e-01	0	40	104	319815680	65	12780
2026-01-21 04:38:24.20	293.37	23.59	-46.8	-57.4	3.8	7.45e-01	0	40	104	319815680	65	11968
2026-01-21 04:38:27.22	292.54	23.31	-47.2	-58.5	3.8	7.43e-01	0	40	104	319815680	66	12869
2026-01-21 04:38:30.25	291.72	23.03	-46.3	-56.9	3.8	7.46e-01	0	40	104	319815680	63	12752
2026-01-21 04:38:33.27	290.92	22.74	-45.8	-57.0	3.8	7.43e-01	0	40	104	319815680	63	12853
2026-01-21 04:38:36.29	290.14	22.45	-50.8	-62.4	3.8	7.43e-01	0	40	104	319815680	73	13415
2026-01-21 04:38:39.32	289.37	22.16	-46.2	-57.3	3.8	7.44e-01	0	40	104	319815680	64	12642
2026-01-21 04:38:42.34	288.62	21.87	-47.0	-58.1	3.8	7.42e-01	0	40	104	319815680	66	12348
2026-01-21 04:38:45.36	287.88	21.57	-45.2	-55.7	3.8	7.42e-01	0	40	104	319815680	62	11735
2026-01-21 04:38:48.39	287.15	21.28	-46.2	-56.9	3.8	7.48e-01	0	40	104	319815680	64	12018
2026-01-21 04:38:51.41	286.44	20.98	-45.5	-56.6	3.8	7.42e-01	0	40	104	319815680	63	12279
2026-01-21 04:38:54.44	285.74	20.68	-45.8	-57.5	3.8	7.44e-01	0	40	104	319815680	63	13707
2026-01-21 04:38:57.46	285.06	20.39	-45.0	-56.2	3.9	7.42e-01	0	40	104	319815680	62	12444
2026-01-21 04:39:00.49	284.39	20.09	-46.8	-58.0	3.8	7.45e-01	0	40	104	319815680	65	12956
2026-01-21 04:39:03.51	283.74	19.79	-45.3	-56.9	3.8	7.42e-01	0	40	104	319815680	62	13533
2026-01-21 04:39:06.54	283.10	19.50	-48.1	-60.1	3.9	7.48e-01	0	40	104	319815680	67	14580
2026-01-21 04:39:09.56	282.47	19.20	-46.2	-57.8	3.8	7.45e-01	0	40	104	319815680	64	13397
2026-01-21 04:39:12.58	281.86	18.91	-48.5	-59.5	3.8	7.41e-01	0	40	104	319815680	67	13588
2026-01-21 04:39:15.61	281.25	18.61	-46.7	-57.0	3.8	7.42e-01	0	40	104	319815680	63	12958
2026-01-21 04:39:18.63	280.66	18.32	-45.9	-56.7	3.8	7.45e-01	0	40	104	319815680	62	13131
2026-01-21 04:39:21.66	280.08	18.02	-47.1	-58.4	3.8	7.44e-01	0	40	104	319815680	64	14305
2026-01-21 04:39:24.68	279.52	17.73	-45.7	-56.3	3.8	7.44e-01	0	40	104	319815680	63	11909
2026-01-21 04:39:27.70	278.97	17.44	-47.5	-58.4	3.8	7.42e-01	0	40	104	319815680	65	13490
2026-01-21 04:39:30.73	278.42	17.15	-47.0	-58.3	3.8	7.42e-01	0	40	104	319815680	65	13307
2026-01-21 04:39:33.75	277.89	16.86	-45.9	-56.4	3.8	7.47e-01	0	40	104	319815680	63	11986
2026-01-21 04:39:36.77	277.37	16.57	-48.9	-60.3	3.9	7.42e-01	0	40	104	319815680	68	14109
2026-01-21 04:39:39.80	276.86	16.28	-48.7	-59.8	3.8	7.44e-01	0	40	104	319815680	67	14173
2026-01-21 04:39:42.82	276.36	16.00	-45.0	-55.8	3.8	7.41e-01	0	40	104	319815680	62	11926
2026-01-21 04:39:45.84	275.87	15.72	-50.1	-61.7	3.8	7.45e-01	0	40	104	319815680	70	14755
2026-01-21 04:39:48.87	275.39	15.43	-45.6	-56.5	3.8	7.43e-01	0	40	104	319815680	63	12228
2026-01-21 04:39:51.89	274.92	15.15	-47.9	-59.0	3.8	7.42e-01	0	40	104	319815680	66	13608
2026-01-21 04:39:54.92	274.46	14.87	-50.4	-62.3	3.8	7.44e-01	0	40	104	319815680	71	14898
2026-01-21 04:39:57.94	274.01	14.60	-45.3	-56.1	3.8	7.45e-01	0	40	104	319815680	62	12348
2026-01-21 04:40:00.97	273.56	14.32	-48.8	-60.0	3.8	7.47e-01	0	40	104	319815680	68	13674
2026-01-21 04:40:03.99	273.13	14.05	-50.4	-62.4	3.8	7.42e-01	0	40	104	319815680	71	15076
2026-01-21 04:40:07.01	272.70	13.78	-45.1	-56.0	3.8	7.42e-01	0	40	104	319815680	62	12210
2026-01-21 04:40:10.04	272.29	13.51	-50.4	-62.4	3.8	7.42e-01	0	40	104	319815680	72	14252
2026-01-21 04:40:13.06	271.88	13.24	-46.0	-56.8	3.8	7.44e-01	0	40	104	319815680	63	12520
2026-01-21 04:40:16.09	271.48	12.98	-46.6	-57.6	3.8	7.45e-01	0	40	104	319815680	64	13046
2026-01-21 04:40:19.11	271.08	12.71	-47.4	-58.6	3.8	7.42e-01	0	40	104	319815680	66	12998
2026-01-21 04:40:22.14	270.70	12.45	-45.3	-56.1	3.8	7.45e-01	0	40	104	319815680	62	12352
2026-01-21 04:40:25.16	270.32	12.19	-46.9	-58.0	3.8	7.43e-01	0	40	104	319815680	66	12227
2026-01-21 04:40:28.19	269.95	11.93	-49.6	-61.4	3.8	7.43e-01	0	40	104	319815680	71	13424
2026-01-21 04:40:31.22	269.59	11.68	-45.5	-56.4	3.8	7.44e-01	0	40	104	319815680	62	12788
2026-01-21 04:40:34.24	269.23	11.42	-49.9	-61.8	3.8	7.42e-01	0	40	104	319815680	71	14053
2026-01-21 04:40:37.27	268.88	11.17	-45.6	-56.4	3.8	7.44e-01	0	40	104	319815680	63	12021
2026-01-21 04:40:40.29	268.54	10.92	-47.5	-58.7	3.8	7.45e-01	0	40	104	319815680	65	13919
2026-01-21 04:40:43.32	268.20	10.67	-46.7	-57.8	3.8	7.46e-01	0	40	104	319815680	65	12577
2026-01-21 04:40:46.34	267.87	10.42	-46.6	-57.5	3.8	7.41e-01	0	40	104	319815680	65	12114
2026-01-21 04:40:49.37	267.54	10.18	-47.5	-58.8	3.8	7.45e-01	0	40	104	319815680	67	12643
2026-01-21 04:40:52.39	267.22	9.94	-48.6	-60.3	3.8	7.41e-01	0	40	104	319815680	69	13261
2026-01-21 04:40:55.42	266.91	9.69	-47.2	-58.2	3.8	7.40e-01	0	40	104	319815680	65	13185
2026-01-21 04:40:58.44	266.60	9.46	-50.8	-53.9	17.7	6.02e-01	0	40	0	320864256	72	5378
2026-01-21 04:41:01.46	266.30	9.22	-45.4	-46.8	24.4	6.05e-01	0	40	0	326631424	62	4195
2026-01-21 04:41:04.49	266.01	8.98	-45.4	-46.8	24.5	6.02e-01	0	40	0	332398592	62	4207
2026-01-21 04:41:07.51	265.71	8.75	-45.6	-46.9	24.4	6.04e-01	0	40	0	337641472	62	4279
2026-01-21 04:41:10.54	265.43	8.52	-45.5	-46.8	24.5	6.02e-01	0	40	0	343408640	62	4240
2026-01-21 04:41:13.56	265.15	8.28	-45.6	-46.9	24.4	6.03e-01	0	40	0	349175808	62	4286
2026-01-21 04:41:16.58	264.87	8.06	-45.6	-47.0	24.3	6.01e-01	0	40	0	354942976	62	4296
2026-01-21 04:41:19.61	264.60	7.83	-45.8	-47.2	24.1	6.04e-01	0	40	0	360710144	62	4439
2026-01-21 04:41:22.64	264.33	7.60	-45.7	-47.1	24.2	6.05e-01	0	40	0	366477312	62	4359
2026-01-21 04:41:25.67	264.07	7.38	-45.6	-47.0	24.3	6.04e-01	0	40	0	371720192	62	4293
2026-01-21 04:41:28.69	263.81	7.16	-45.8	-47.2	24.0	6.05e-01	0	40	0	377487360	62	4393
2026-01-21 04:41:31.71	263.56	6.94	-45.9	-47.4	23.8	6.01e-01	0	40	0	383254528	62	4504
2026-01-21 04:41:34.74	263.31	6.72	-46.1	-47.6	23.6	6.02e-01	0	40	0	389021696	62	4601
2026-01-21 04:41:37.76	263.07	6.50	-46.0	-47.4	23.7	6.03e-01	0	40	0	394788864	62	4545
2026-01-21 04:41:40.79	262.83	6.28	-46.0	-47.4	23.7	6.03e-01	0	40	0	400031744	63	4272
2026-01-21 04:41:43.81	262.59	6.07	-46.1	-47.6	23.5	6.04e-01	0	40	0	405798912	63	4356
2026-01-21 04:41:46.84	262.36	5.86	-46.2	-47.7	23.5	6.04e-01	0	40	0	411566080	63	4397
2026-01-21 04:41:49.86	262.13	5.65	-46.3	-47.8	23.2	6.05e-01	0	40	0	417333248	63	4468
2026-01-21 04:41:52.89	261.90	5.43	-46.1	-47.6	23.4	6.02e-01	0	40	0	423100416	63	4385
2026-01-21 04:41:55.91	261.68	5.23	-46.2	-47.7	23.3	6.02e-01	0	40	0	428343296	63	4394
2026-01-21 04:41:58.93	261.47	5.02	-46.2	-47.8	23.2	6.03e-01	0	40	0	434634752	63	4446
2026-01-21 04:42:01.96	261.25	4.81	-53.4	-71.3	3.8	7.47e-01	0	40	104	435683328	78	28090
2026-01-21 04:42:04.98	261.04	4.61	-54.4	-72.2	3.8	7.44e-01	0	40	104	435683328	79	29686
2026-01-21 04:42:08.01	260.83	4.41	-54.5	-72.3	3.8	7.46e-01	0	40	104	435683328	79	29764
2026-01-21 04:42:11.03	260.63	4.21	-54.6	-72.5	3.8	7.44e-01	0	40	104	435683328	79	30455
2026-01-21 04:42:14.06	260.43	4.01	-54.7	-72.5	3.8	7.44e-01	0	40	104	435683328	80	28868
2026-01-21 04:42:17.08	260.23	3.81	-54.8	-72.6	3.8	7.46e-01	0	40	104	435683328	80	29170
2026-01-21 04:42:20.10	260.03	3.61	-54.9	-72.7	3.8	7.45e-01	0	40	104	435683328	80	29414
2026-01-21 04:42:23.13	259.84	3.41	-54.8	-72.6	3.8	7.47e-01	0	40	104	435683328	80	29161
2026-01-21 04:42:26.15	259.65	3.22	-54.8	-72.6	3.8	7.48e-01	0	40	104	435683328	80	29129
2026-01-21 04:42:29.17	259.47	3.02	-54.8	-72.6	3.8	7.42e-01	0	40	104	435683328	80	29120
2026-01-21 04:42:32.20	259.28	2.83	-54.8	-72.5	3.8	7.48e-01	0	40	104	435683328	80	28995
2026-01-21 04:42:35.23	259.10	2.64	-54.8	-72.5	3.8	7.44e-01	0	40	104	435683328	80	28991
2026-01-21 04:42:38.25	258.92	2.45	-54.8	-72.6	3.8	7.45e-01	0	40	104	435683328	80	29044
2026-01-21 04:42:41.27	258.75	2.26	-54.8	-72.5	3.8	7.45e-01	0	40	104	435683328	80	29004
2026-01-21 04:42:44.30	258.58	2.07	-54.8	-72.5	3.8	7.46e-01	0	40	104	435683328	80	28952

#Closed at: 2026-01-21 04:42:46
#Recorded file [435 MB]: D:/lorett/data/31041_260121_073056.dat