passes_logs/2026/01/21/R3.2S_Murmansk/R3.2S_Murmansk__20260121_173139_JL1KF02B03_rec.log

#Pass ID: 20260121_173139_JL1KF02B03
#Satellite: JL1KF02B03
#Configuration: 01B_900M
#almurnet v.1.7.20251203
#Start time: 2026-01-21 17:31:40

#Version: 2.2.20231116
#Station: R3.2S_Murmansk
#Location: 33.079688 lon 68.888172 lat
#TLE: 1 61190U 24169B   26020.92389074  .00013543  00000+0  84686-3 0  9991
#TLE: 2 61190  97.5632 111.9682 0014586 162.1452 198.0293 15.09462956 73610

#Time	Az	El	Level	Level2	SNR	BER	BlckErr	Temp	State	Recorded	gain1	gain2
2026-01-21 17:31:40.56	97.22	2.14	-52.9	-55.0	6.3	0.00e+00	0	41	0	0	77	18279
2026-01-21 17:31:43.58	96.97	2.33	-52.7	-54.8	6.2	0.00e+00	0	41	104	0	76	19015
2026-01-21 17:31:46.61	96.72	2.52	-52.7	-54.8	6.2	0.00e+00	0	40	104	0	76	18906
2026-01-21 17:31:49.63	96.47	2.71	-52.7	-54.8	6.2	0.00e+00	0	41	104	0	76	18877
2026-01-21 17:31:52.66	96.21	2.90	-52.7	-54.8	6.2	0.00e+00	0	41	104	0	76	18878
2026-01-21 17:31:55.68	95.95	3.09	-52.7	-54.8	6.2	0.00e+00	0	41	104	0	76	18853
2026-01-21 17:31:58.71	95.68	3.28	-52.7	-54.8	6.2	0.00e+00	0	41	104	0	76	18925
2026-01-21 17:32:01.74	95.41	3.48	-52.7	-54.8	6.2	0.00e+00	0	41	104	0	76	18866
2026-01-21 17:32:04.76	95.13	3.67	-52.7	-54.8	6.2	0.00e+00	0	41	104	0	76	18906
2026-01-21 17:32:07.79	94.85	3.87	-52.7	-54.8	6.2	0.00e+00	0	41	104	0	76	18850
2026-01-21 17:32:10.81	94.56	4.07	-52.7	-54.8	6.2	0.00e+00	0	41	104	0	76	18864
2026-01-21 17:32:13.84	94.27	4.27	-52.6	-54.8	6.2	0.00e+00	0	41	104	0	76	18864
2026-01-21 17:32:16.86	93.97	4.47	-52.6	-54.8	6.2	0.00e+00	0	41	104	0	76	18829
2026-01-21 17:32:19.89	93.67	4.67	-52.6	-54.8	6.2	0.00e+00	0	41	104	0	76	18866
2026-01-21 17:32:22.91	93.37	4.88	-52.6	-54.8	6.2	0.00e+00	0	41	104	0	76	18838
2026-01-21 17:32:25.94	93.05	5.08	-52.7	-54.8	6.2	0.00e+00	0	42	104	0	76	18936
2026-01-21 17:32:28.96	92.74	5.29	-52.8	-54.9	6.2	0.00e+00	0	42	104	0	76	19175
2026-01-21 17:32:31.98	92.41	5.50	-52.7	-54.8	6.2	0.00e+00	0	42	104	0	76	19025
2026-01-21 17:32:35.01	92.08	5.70	-52.8	-55.0	6.2	0.00e+00	0	42	104	0	76	19384
2026-01-21 17:32:38.03	91.75	5.91	-52.7	-54.9	6.2	0.00e+00	0	42	104	0	76	19075
2026-01-21 17:32:41.06	91.41	6.13	-52.9	-55.0	6.2	0.00e+00	0	42	104	0	76	19408
2026-01-21 17:32:44.08	91.06	6.34	-52.8	-54.9	6.2	0.00e+00	0	41	104	0	76	19132
2026-01-21 17:32:47.11	90.70	6.55	-52.9	-55.1	6.2	0.00e+00	0	42	104	0	76	19531
2026-01-21 17:32:50.13	90.34	6.77	-52.8	-55.0	6.2	0.00e+00	0	42	104	0	76	19366
2026-01-21 17:32:53.16	89.98	6.99	-52.9	-55.0	6.2	0.00e+00	0	42	104	0	76	19411
2026-01-21 17:32:56.18	89.60	7.21	-52.9	-55.0	6.2	0.00e+00	0	42	104	0	76	19418
2026-01-21 17:32:59.21	89.22	7.43	-52.9	-55.1	6.2	0.00e+00	0	42	104	0	76	19639
2026-01-21 17:33:02.23	88.83	7.65	-52.9	-55.1	6.2	0.00e+00	0	42	104	0	76	19507
2026-01-21 17:33:05.25	88.43	7.87	-53.0	-55.1	6.2	0.00e+00	0	42	104	0	76	19663
2026-01-21 17:33:08.27	88.03	8.09	-53.0	-55.1	6.2	0.00e+00	0	42	104	0	76	19517
2026-01-21 17:33:11.30	87.62	8.32	-53.0	-55.2	6.2	0.00e+00	0	42	104	0	76	19776
2026-01-21 17:33:14.32	87.20	8.55	-53.0	-55.1	6.2	0.00e+00	0	42	104	0	76	19690
2026-01-21 17:33:17.34	86.77	8.77	-53.0	-55.2	6.2	0.00e+00	0	42	104	0	76	19772
2026-01-21 17:33:20.37	86.34	9.00	-53.1	-55.2	6.2	0.00e+00	0	42	104	0	76	19774
2026-01-21 17:33:23.39	85.89	9.23	-53.1	-55.2	6.2	0.00e+00	0	42	104	0	76	19855
2026-01-21 17:33:26.42	85.44	9.47	-53.1	-55.2	6.2	0.00e+00	0	42	104	0	76	19855
2026-01-21 17:33:29.45	84.97	9.70	-53.1	-55.2	6.2	0.00e+00	0	42	104	0	76	19920
2026-01-21 17:33:32.47	84.50	9.93	-53.1	-55.2	6.2	0.00e+00	0	42	104	0	76	19922
2026-01-21 17:33:35.49	84.02	10.17	-53.2	-55.3	6.2	0.00e+00	0	42	104	0	76	20036
2026-01-21 17:33:38.52	83.53	10.41	-53.2	-55.3	6.2	0.00e+00	0	42	104	0	76	20078
2026-01-21 17:33:41.55	83.03	10.64	-53.2	-55.3	6.2	0.00e+00	0	42	104	0	76	20041
2026-01-21 17:33:44.57	82.52	10.88	-53.2	-55.3	6.2	0.00e+00	0	42	104	0	76	20080
2026-01-21 17:33:47.60	82.00	11.12	-53.2	-55.3	6.2	0.00e+00	0	42	104	0	77	19005
2026-01-21 17:33:50.63	81.47	11.37	-53.2	-55.4	6.2	0.00e+00	0	42	104	0	77	19110
2026-01-21 17:33:53.65	80.93	11.61	-53.2	-55.3	6.2	0.00e+00	0	42	104	0	77	18993
2026-01-21 17:33:56.68	80.38	11.85	-53.2	-55.4	6.2	0.00e+00	0	42	104	0	77	19064
2026-01-21 17:33:59.70	79.81	12.09	-53.2	-55.4	6.2	0.00e+00	0	42	104	0	77	19071
2026-01-21 17:34:02.73	79.24	12.34	-53.3	-55.4	6.2	0.00e+00	0	42	104	0	77	19186
2026-01-21 17:34:05.75	78.65	12.58	-53.3	-55.4	6.2	0.00e+00	0	42	104	0	77	19093
2026-01-21 17:34:08.78	78.05	12.83	-53.3	-55.4	6.2	0.00e+00	0	42	104	0	77	19183
2026-01-21 17:34:11.80	77.45	13.07	-53.3	-55.4	6.2	0.00e+00	0	42	104	0	77	19167
2026-01-21 17:34:14.83	76.82	13.32	-53.3	-55.5	6.2	0.00e+00	0	42	104	0	77	19312
2026-01-21 17:34:17.85	76.19	13.57	-53.3	-55.4	6.2	0.00e+00	0	42	104	0	77	19214
2026-01-21 17:34:20.88	75.54	13.81	-53.3	-55.5	6.2	0.00e+00	0	42	104	0	77	19347
2026-01-21 17:34:23.91	74.88	14.06	-53.3	-55.5	6.2	0.00e+00	0	42	104	0	77	19270
2026-01-21 17:34:26.93	74.21	14.30	-53.3	-55.5	6.2	0.00e+00	0	42	104	0	77	19404
2026-01-21 17:34:29.96	73.52	14.55	-53.4	-55.5	6.2	0.00e+00	0	42	104	0	77	19258
2026-01-21 17:34:32.98	72.82	14.79	-53.4	-55.5	6.2	0.00e+00	0	42	104	0	77	19378
2026-01-21 17:34:36.00	72.11	15.04	-53.4	-55.5	6.2	0.00e+00	0	42	104	0	77	19387
2026-01-21 17:34:39.03	71.38	15.28	-53.3	-55.5	6.2	0.00e+00	0	42	104	0	77	19450
2026-01-21 17:34:42.05	70.64	15.52	-53.4	-55.5	6.2	0.00e+00	0	43	104	0	77	19332
2026-01-21 17:34:45.08	69.89	15.76	-53.4	-55.6	6.2	0.00e+00	0	42	104	0	77	19480
2026-01-21 17:34:48.10	69.12	16.00	-53.4	-55.6	6.2	0.00e+00	0	42	104	0	77	19510
2026-01-21 17:34:51.12	68.34	16.24	-53.4	-55.6	6.2	0.00e+00	0	42	104	0	77	19491
2026-01-21 17:34:54.15	67.54	16.47	-53.4	-55.6	6.2	0.00e+00	0	42	104	0	77	19510
2026-01-21 17:34:57.17	66.73	16.70	-53.5	-55.6	6.2	0.00e+00	0	42	104	0	77	19573
2026-01-21 17:35:00.20	65.90	16.93	-53.5	-55.6	6.2	0.00e+00	0	42	104	0	77	19606
2026-01-21 17:35:03.22	65.06	17.16	-53.3	-55.6	6.2	0.00e+00	0	42	104	0	77	19544
2026-01-21 17:35:06.25	64.20	17.38	-53.4	-55.6	6.2	0.00e+00	0	42	104	0	77	19557
2026-01-21 17:35:09.28	63.33	17.60	-53.5	-55.6	6.2	0.00e+00	0	42	104	0	77	19544
2026-01-21 17:35:12.30	62.44	17.82	-53.5	-55.6	6.2	0.00e+00	0	43	104	0	77	19598
2026-01-21 17:35:15.33	61.54	18.03	-53.4	-55.6	6.2	0.00e+00	0	43	104	0	77	19536
2026-01-21 17:35:18.35	60.63	18.24	-53.4	-55.6	6.2	0.00e+00	0	43	104	0	77	19627
2026-01-21 17:35:21.38	59.70	18.44	-53.5	-55.6	6.2	0.00e+00	0	42	104	0	77	19656
2026-01-21 17:35:24.40	58.76	18.64	-53.5	-55.6	6.2	0.00e+00	0	42	104	0	77	19660
2026-01-21 17:35:27.43	57.80	18.83	-53.4	-55.6	6.2	0.00e+00	0	43	104	0	77	19564
2026-01-21 17:35:30.45	56.83	19.02	-53.5	-55.6	6.2	0.00e+00	0	42	104	0	77	19652
2026-01-21 17:35:33.47	55.85	19.20	-53.5	-55.7	6.2	0.00e+00	0	43	104	0	77	19752
2026-01-21 17:35:36.50	54.85	19.37	-53.6	-55.7	6.2	0.00e+00	0	42	104	0	77	19797
2026-01-21 17:35:39.52	53.84	19.54	-53.5	-55.7	6.2	0.00e+00	0	43	104	0	77	19785
2026-01-21 17:35:42.55	52.82	19.70	-53.5	-55.7	6.2	0.00e+00	0	42	104	0	77	19721
2026-01-21 17:35:45.57	51.79	19.85	-53.5	-55.7	6.2	0.00e+00	0	43	104	0	77	19759
2026-01-21 17:35:48.59	50.74	19.99	-53.6	-55.7	6.2	0.00e+00	0	42	104	0	77	19837
2026-01-21 17:35:51.62	49.69	20.13	-53.6	-55.7	6.2	0.00e+00	0	42	104	0	77	19776
2026-01-21 17:35:54.64	48.62	20.26	-53.4	-55.7	6.2	0.00e+00	0	42	104	0	77	19726
2026-01-21 17:35:57.66	47.55	20.38	-53.6	-55.7	6.2	0.00e+00	0	42	104	0	77	19771
2026-01-21 17:36:00.68	46.46	20.49	-53.6	-55.7	6.2	0.00e+00	0	43	104	0	77	19820
2026-01-21 17:36:03.70	45.37	20.59	-53.6	-55.7	6.2	0.00e+00	0	42	104	0	77	19852
2026-01-21 17:36:06.72	44.27	20.68	-53.4	-55.7	6.2	0.00e+00	0	42	104	0	77	19785
2026-01-21 17:36:09.74	43.16	20.76	-53.6	-55.7	6.2	0.00e+00	0	42	104	0	77	19841
2026-01-21 17:36:12.76	42.05	20.83	-53.6	-55.7	6.2	0.00e+00	0	43	104	0	77	19886
2026-01-21 17:36:15.79	40.93	20.89	-53.6	-55.7	6.2	0.00e+00	0	42	104	0	77	19922
2026-01-21 17:36:18.81	39.80	20.94	-53.4	-55.7	6.2	0.00e+00	0	43	104	0	77	19770
2026-01-21 17:36:21.83	38.68	20.98	-53.6	-55.7	6.2	0.00e+00	0	43	104	0	77	19790
2026-01-21 17:36:24.85	37.55	21.01	-53.6	-55.8	6.2	0.00e+00	0	42	104	0	77	19956
2026-01-21 17:36:27.88	36.41	21.03	-53.6	-55.7	6.2	0.00e+00	0	43	104	0	77	19907
2026-01-21 17:36:30.90	35.28	21.04	-53.5	-55.7	6.2	0.00e+00	0	42	104	0	77	19742
2026-01-21 17:36:33.93	34.14	21.03	-53.6	-55.7	6.2	0.00e+00	0	43	104	0	77	19881
2026-01-21 17:36:36.96	33.01	21.02	-53.6	-55.7	6.2	0.00e+00	0	42	104	0	77	19861
2026-01-21 17:36:39.98	31.87	21.00	-53.6	-55.7	6.2	0.00e+00	0	42	104	0	77	19884
2026-01-21 17:36:43.00	30.75	20.96	-53.5	-55.7	6.2	0.00e+00	0	43	104	0	77	19827
2026-01-21 17:36:46.03	29.62	20.91	-53.6	-55.7	6.2	0.00e+00	0	43	104	0	77	19842
2026-01-21 17:36:49.06	28.49	20.86	-53.6	-55.8	6.2	0.00e+00	0	43	104	0	77	19941
2026-01-21 17:36:52.08	27.38	20.79	-53.6	-55.7	6.2	0.00e+00	0	42	104	0	77	19889
2026-01-21 17:36:55.11	26.26	20.71	-53.4	-55.7	6.2	0.00e+00	0	43	104	0	77	19783
2026-01-21 17:36:58.13	25.16	20.63	-53.6	-55.7	6.2	0.00e+00	0	42	104	0	77	19902
2026-01-21 17:37:01.15	24.06	20.53	-53.6	-55.7	6.2	0.00e+00	0	43	104	0	77	19842
2026-01-21 17:37:04.18	22.97	20.42	-53.6	-55.8	6.2	0.00e+00	0	43	104	0	77	19934
2026-01-21 17:37:07.19	21.89	20.31	-53.5	-55.7	6.2	0.00e+00	0	43	104	0	77	19850
2026-01-21 17:37:10.22	20.82	20.19	-53.6	-55.7	6.2	0.00e+00	0	43	104	0	77	19875
2026-01-21 17:37:13.24	19.76	20.05	-53.6	-55.7	6.2	0.00e+00	0	43	104	0	77	19909
2026-01-21 17:37:16.27	18.71	19.91	-53.6	-55.7	6.2	0.00e+00	0	43	104	0	77	19829
2026-01-21 17:37:19.29	17.67	19.76	-53.5	-55.7	6.2	0.00e+00	0	43	104	0	77	19787
2026-01-21 17:37:22.31	16.64	19.61	-53.5	-55.7	6.2	0.00e+00	0	43	104	0	77	19792
2026-01-21 17:37:25.34	15.62	19.44	-53.6	-55.7	6.2	0.00e+00	0	43	104	0	77	19833
2026-01-21 17:37:28.36	14.62	19.27	-53.6	-55.7	6.2	0.00e+00	0	43	104	0	77	19791
2026-01-21 17:37:31.38	13.63	19.09	-53.5	-55.7	6.2	0.00e+00	0	43	104	0	77	19783
2026-01-21 17:37:34.41	12.65	18.91	-53.5	-55.7	6.2	0.00e+00	0	43	104	0	77	19801
2026-01-21 17:37:37.43	11.69	18.72	-53.5	-55.7	6.2	0.00e+00	0	42	104	0	77	19793
2026-01-21 17:37:40.46	10.74	18.52	-53.6	-55.7	6.2	0.00e+00	0	43	104	0	77	19797
2026-01-21 17:37:43.48	9.80	18.32	-53.5	-55.7	6.2	0.00e+00	0	43	104	0	77	19736
2026-01-21 17:37:46.50	8.88	18.11	-53.4	-55.6	6.2	0.00e+00	0	43	104	0	77	19690
2026-01-21 17:37:49.52	7.98	17.90	-53.5	-55.6	6.2	0.00e+00	0	43	104	0	77	19632
2026-01-21 17:37:52.55	7.08	17.69	-53.5	-55.6	6.2	0.00e+00	0	43	104	0	77	19661
2026-01-21 17:37:55.58	6.20	17.47	-53.5	-55.6	6.2	0.00e+00	0	42	104	0	77	19691
2026-01-21 17:37:58.60	5.34	17.25	-53.4	-55.6	6.2	0.00e+00	0	43	104	0	77	19699
2026-01-21 17:38:01.63	4.49	17.02	-53.5	-55.6	6.2	0.00e+00	0	43	104	0	77	19628
2026-01-21 17:38:04.65	3.66	16.79	-53.5	-55.6	6.2	0.00e+00	0	43	104	0	77	19605
2026-01-21 17:38:07.67	2.84	16.56	-53.5	-55.6	6.2	0.00e+00	0	43	104	0	77	19652
2026-01-21 17:38:10.70	2.03	16.33	-53.4	-55.6	6.2	0.00e+00	0	43	104	0	77	19514
2026-01-21 17:38:13.72	1.24	16.09	-53.4	-55.6	6.2	0.00e+00	0	43	104	0	77	19568
2026-01-21 17:38:16.74	0.46	15.85	-53.5	-55.6	6.2	0.00e+00	0	43	104	0	77	19561
2026-01-21 17:38:19.76	359.70	15.61	-53.4	-55.6	6.2	0.00e+00	0	43	104	0	77	19515
2026-01-21 17:38:22.79	358.95	15.37	-53.4	-55.6	6.2	0.00e+00	0	43	104	0	77	19508
2026-01-21 17:38:25.82	358.22	15.13	-53.4	-55.5	6.2	0.00e+00	0	43	104	0	77	19472
2026-01-21 17:38:28.85	357.50	14.88	-53.4	-55.5	6.2	0.00e+00	0	43	104	0	77	19422
2026-01-21 17:38:31.87	356.79	14.64	-53.4	-55.5	6.2	0.00e+00	0	43	104	0	77	19436
2026-01-21 17:38:34.90	356.10	14.39	-53.4	-55.5	6.2	0.00e+00	0	43	104	0	77	19403
2026-01-21 17:38:37.92	355.42	14.14	-53.3	-55.5	6.2	0.00e+00	0	43	104	0	77	19310
2026-01-21 17:38:40.94	354.75	13.90	-53.4	-55.5	6.2	0.00e+00	0	43	104	0	77	19303
2026-01-21 17:38:43.97	354.10	13.65	-53.3	-55.4	6.2	0.00e+00	0	43	104	0	77	19249
2026-01-21 17:38:46.99	353.46	13.40	-53.3	-55.5	6.2	0.00e+00	0	43	104	0	77	19299
2026-01-21 17:38:50.02	352.83	13.16	-53.3	-55.4	6.2	0.00e+00	0	43	104	0	77	19209
2026-01-21 17:38:53.04	352.21	12.91	-53.3	-55.4	6.2	0.00e+00	0	43	104	0	77	19218
2026-01-21 17:38:56.06	351.61	12.67	-53.3	-55.4	6.2	0.00e+00	0	43	104	0	77	19163
2026-01-21 17:38:59.09	351.02	12.42	-53.2	-55.4	6.2	0.00e+00	0	43	104	0	77	19196
2026-01-21 17:39:02.12	350.44	12.17	-53.2	-55.4	6.2	0.00e+00	0	43	104	0	77	19128
2026-01-21 17:39:05.14	349.87	11.93	-53.2	-55.4	6.2	0.00e+00	0	43	104	0	77	19059
2026-01-21 17:39:08.16	349.31	11.69	-53.2	-55.3	6.2	0.00e+00	0	43	104	0	77	18934
2026-01-21 17:39:11.19	348.76	11.44	-53.2	-55.3	6.2	0.00e+00	0	43	104	0	77	19026
2026-01-21 17:39:14.21	348.23	11.20	-53.2	-55.3	6.2	0.00e+00	0	43	104	0	77	18969
2026-01-21 17:39:17.24	347.70	10.96	-53.2	-55.3	6.2	0.00e+00	0	43	104	0	77	18867
2026-01-21 17:39:20.26	347.19	10.72	-53.1	-55.3	6.2	0.00e+00	0	43	104	0	77	18867
2026-01-21 17:39:23.28	346.68	10.48	-53.1	-55.3	6.2	0.00e+00	0	43	104	0	77	18897
2026-01-21 17:39:26.31	346.19	10.24	-53.1	-55.2	6.2	0.00e+00	0	43	104	0	77	18800
2026-01-21 17:39:29.33	345.70	10.01	-53.1	-55.2	6.2	0.00e+00	0	43	104	0	77	18802
2026-01-21 17:39:32.36	345.23	9.77	-53.1	-55.2	6.2	0.00e+00	0	43	104	0	77	18756
2026-01-21 17:39:35.38	344.76	9.53	-53.0	-55.2	6.2	0.00e+00	0	43	104	0	77	18712
2026-01-21 17:39:38.40	344.30	9.30	-53.0	-55.2	6.2	0.00e+00	0	43	104	0	77	18704
2026-01-21 17:39:41.43	343.85	9.07	-53.0	-55.2	6.2	0.00e+00	0	43	104	0	77	18678
2026-01-21 17:39:44.45	343.41	8.84	-53.0	-55.2	6.2	0.00e+00	0	43	104	0	77	18607
2026-01-21 17:39:47.47	342.98	8.61	-53.0	-55.1	6.2	0.00e+00	0	43	104	0	77	18531
2026-01-21 17:39:50.50	342.56	8.38	-52.9	-55.1	6.2	0.00e+00	0	43	104	0	77	18513
2026-01-21 17:39:53.52	342.14	8.15	-52.9	-55.1	6.2	0.00e+00	0	43	104	0	77	18492
2026-01-21 17:39:56.54	341.74	7.93	-52.9	-55.1	6.2	0.00e+00	0	43	104	0	77	18408
2026-01-21 17:39:59.57	341.34	7.71	-52.9	-55.0	6.2	0.00e+00	0	43	104	0	77	18307
2026-01-21 17:40:02.59	340.94	7.48	-52.9	-55.0	6.2	0.00e+00	0	43	104	0	77	18342
2026-01-21 17:40:05.62	340.56	7.26	-52.8	-55.0	6.2	0.00e+00	0	43	104	0	77	18240
2026-01-21 17:40:08.64	340.18	7.04	-52.8	-54.9	6.2	0.00e+00	0	43	104	0	77	18042
2026-01-21 17:40:11.66	339.81	6.82	-52.8	-54.8	6.2	0.00e+00	0	43	104	0	77	17908
2026-01-21 17:40:14.69	339.45	6.61	-52.8	-54.9	6.2	0.00e+00	0	43	104	0	77	18171
2026-01-21 17:40:17.71	339.09	6.39	-52.7	-54.9	6.2	0.00e+00	0	43	104	0	77	17985
2026-01-21 17:40:20.74	338.74	6.18	-52.7	-54.7	6.2	0.00e+00	0	43	104	0	77	17751
2026-01-21 17:40:23.76	338.40	5.96	-52.6	-54.7	6.2	0.00e+00	0	43	104	0	77	17704
2026-01-21 17:40:26.78	338.06	5.75	-52.7	-54.8	6.2	0.00e+00	0	43	104	0	77	17950
2026-01-21 17:40:29.81	337.73	5.54	-52.6	-54.8	6.2	0.00e+00	0	43	104	0	77	17882
2026-01-21 17:40:32.83	337.40	5.33	-52.5	-54.7	6.2	0.00e+00	0	43	104	0	77	17645
2026-01-21 17:40:35.86	337.08	5.13	-52.4	-54.6	6.2	0.00e+00	0	43	104	0	76	18417
2026-01-21 17:40:38.88	336.76	4.92	-53.1	-55.2	6.2	0.00e+00	0	43	104	0	76	19779
2026-01-21 17:40:41.91	336.46	4.72	-53.6	-55.8	6.2	0.00e+00	0	43	104	0	77	19966
2026-01-21 17:40:44.93	336.15	4.51	-54.0	-56.1	6.2	0.00e+00	0	43	104	0	78	19492
2026-01-21 17:40:47.96	335.85	4.31	-54.0	-56.1	6.2	0.00e+00	0	43	104	0	78	19602
2026-01-21 17:40:50.98	335.56	4.11	-53.7	-55.8	6.2	0.00e+00	0	43	104	0	78	18913
2026-01-21 17:40:54.01	335.27	3.91	-53.8	-55.9	6.2	0.00e+00	0	43	104	0	78	19222
2026-01-21 17:40:57.03	334.99	3.71	-53.8	-56.0	6.2	0.00e+00	0	43	104	0	78	19261
2026-01-21 17:41:00.06	334.71	3.51	-53.8	-55.9	6.2	0.00e+00	0	43	104	0	78	19109
2026-01-21 17:41:03.08	334.44	3.32	-53.7	-55.9	6.2	0.00e+00	0	43	104	0	78	19078
2026-01-21 17:41:06.11	334.17	3.12	-53.7	-55.8	6.2	0.00e+00	0	43	104	0	78	19034
2026-01-21 17:41:09.13	333.91	2.93	-53.7	-55.9	6.2	0.00e+00	0	43	104	0	78	19041
2026-01-21 17:41:12.15	333.65	2.74	-53.7	-55.8	6.2	0.00e+00	0	42	104	0	78	19016
2026-01-21 17:41:15.18	333.39	2.55	-53.7	-55.8	6.2	0.00e+00	0	43	104	0	78	19022
2026-01-21 17:41:18.20	333.14	2.36	-53.7	-55.9	6.2	0.00e+00	0	43	104	0	78	19036
2026-01-21 17:41:21.23	332.89	2.17	-53.7	-55.8	6.2	0.00e+00	0	43	104	0	78	18952
2026-01-21 17:41:24.26	332.65	1.98	-53.7	-55.8	6.2	0.00e+00	0	43	104	0	78	18993
2026-01-21 17:41:27.28	332.41	1.80	-53.7	-55.8	6.2	0.00e+00	0	43	104	0	78	18932

#Closed at: 2026-01-21 17:41:27
#Recorded file [0 MB]: D:/lorett/data/31041_260121_203140.dat