passes_logs/2026/01/21/R3.2S_Murmansk/R3.2S_Murmansk__20260121_082922_KANOPUS-V_5_rec.log

#Pass ID: 20260121_082922_KANOPUS-V 5
#Satellite: KANOPUS-V 5
#Configuration: KANOPUS-V_8320
#almurnet v.1.7.20251203
#Start time: 2026-01-21 08:29:22

#Version: 2.2.20231116
#Station: R3.2S_Murmansk
#Location: 33.079688 lon 68.888172 lat
#TLE: 1 43876U 18111A   26020.95068231  .00008875  00000+0  37477-3 0  9992
#TLE: 2 43876  97.3685 289.3573 0001812  87.5365 272.6080 15.23490286392370

#Time	Az	El	Level	Level2	SNR	BER	BlckErr	Temp	State	Recorded	gain1	gain2
2026-01-21 08:29:22.50	179.71	2.06	-54.7	-63.6	3.8	7.46e-01	0	38	0	0	80	10336
2026-01-21 08:29:25.52	179.84	2.26	-54.0	-62.8	3.8	7.43e-01	0	38	104	0	79	10018
2026-01-21 08:29:28.55	179.98	2.47	-53.6	-62.4	3.8	7.44e-01	0	38	104	0	79	9579
2026-01-21 08:29:31.57	180.12	2.69	-53.6	-62.4	3.8	7.44e-01	0	39	104	0	79	9569
2026-01-21 08:29:34.59	180.25	2.90	-53.6	-62.4	3.8	7.45e-01	0	39	104	0	79	9546
2026-01-21 08:29:37.62	180.40	3.12	-53.5	-62.4	3.8	7.44e-01	0	39	104	0	79	9526
2026-01-21 08:29:40.65	180.54	3.34	-53.5	-62.4	3.8	7.46e-01	0	39	104	0	79	9528
2026-01-21 08:29:43.67	180.69	3.56	-53.5	-62.4	3.8	7.45e-01	0	39	104	0	79	9522
2026-01-21 08:29:46.69	180.84	3.78	-53.5	-62.4	3.8	7.45e-01	0	39	104	0	79	9533
2026-01-21 08:29:49.72	180.99	4.01	-53.5	-62.4	3.8	7.45e-01	0	39	104	0	79	9499
2026-01-21 08:29:52.74	181.14	4.23	-53.5	-62.4	3.8	7.45e-01	0	39	104	0	79	9543
2026-01-21 08:29:55.76	181.30	4.46	-53.5	-62.4	3.8	7.46e-01	0	39	104	0	79	9525
2026-01-21 08:29:58.79	181.46	4.70	-48.1	-50.7	5.4	7.24e-01	0	39	104	0	68	4682
2026-01-21 08:30:01.81	181.63	4.93	-45.6	-47.7	13.2	6.11e-01	0	39	0	35651584	63	4438
2026-01-21 08:30:04.84	181.80	5.17	-49.2	-52.2	9.1	6.32e-01	0	39	0	81788928	69	5244
2026-01-21 08:30:07.86	181.97	5.41	-48.7	-51.6	9.6	6.27e-01	0	39	0	127926272	68	5164
2026-01-21 08:30:10.89	182.14	5.66	-45.4	-47.5	13.5	6.10e-01	0	39	0	174063616	62	4547
2026-01-21 08:30:13.91	182.32	5.90	-44.7	-46.7	14.2	6.09e-01	0	39	0	222298112	61	4434
2026-01-21 08:30:16.93	182.50	6.15	-44.9	-46.9	14.1	6.09e-01	0	40	0	268435456	61	4512
2026-01-21 08:30:19.96	182.68	6.41	-44.5	-46.7	14.4	5.78e-01	0	40	0	314572800	61	4430
2026-01-21 08:30:22.98	182.87	6.66	-44.5	-46.7	14.5	5.78e-01	0	40	0	360710144	60	4661
2026-01-21 08:30:26.01	183.07	6.92	-44.3	-46.5	14.6	5.79e-01	0	40	0	408944640	60	4563
2026-01-21 08:30:29.03	183.26	7.18	-44.2	-46.3	14.9	5.78e-01	0	40	0	455081984	60	4471
2026-01-21 08:30:32.05	183.46	7.45	-44.1	-46.2	14.9	5.77e-01	0	40	0	501219328	59	4690
2026-01-21 08:30:35.07	183.67	7.72	-44.0	-46.1	15.0	5.78e-01	0	40	0	547356672	59	4630
2026-01-21 08:30:38.10	183.88	7.99	-44.0	-46.0	15.1	5.77e-01	0	40	0	593494016	59	4570
2026-01-21 08:30:41.12	184.09	8.27	-43.8	-45.8	15.3	5.78e-01	0	40	0	639631360	59	4480
2026-01-21 08:30:44.15	184.31	8.55	-43.7	-45.7	15.4	5.77e-01	0	40	0	685768704	59	4405
2026-01-21 08:30:47.17	184.54	8.84	-43.5	-45.5	15.6	5.98e-01	0	40	0	731906048	59	4310
2026-01-21 08:30:50.20	184.77	9.13	-43.6	-45.5	15.5	5.98e-01	0	40	0	780140544	58	4588
2026-01-21 08:30:53.22	185.00	9.42	-43.6	-45.6	15.5	6.01e-01	0	40	0	826277888	58	4625
2026-01-21 08:30:56.24	185.24	9.72	-43.3	-45.2	15.8	6.05e-01	0	40	0	872415232	58	4411
2026-01-21 08:30:59.27	185.49	10.02	-43.0	-44.9	16.1	5.98e-01	0	40	0	918552576	58	4286
2026-01-21 08:31:02.30	185.75	10.33	-43.0	-44.9	16.0	6.01e-01	0	40	0	966787072	57	4513
2026-01-21 08:31:05.32	186.01	10.64	-42.8	-44.8	16.2	6.03e-01	0	40	0	1010827264	57	4452
2026-01-21 08:31:08.35	186.27	10.95	-42.7	-44.6	16.3	6.01e-01	0	40	0	1056964608	57	4375
2026-01-21 08:31:11.37	186.54	11.28	-42.7	-44.7	16.3	6.03e-01	0	40	0	1103101952	57	4419
2026-01-21 08:31:14.39	186.82	11.60	-42.6	-44.6	16.4	6.00e-01	0	40	0	1149239296	56	4610
2026-01-21 08:31:17.41	187.11	11.93	-42.4	-44.3	16.6	6.01e-01	0	40	0	1197473792	56	4488
2026-01-21 08:31:20.44	187.41	12.27	-42.2	-44.2	16.7	5.99e-01	0	40	0	1243611136	56	4392
2026-01-21 08:31:23.46	187.71	12.62	-42.2	-44.2	16.7	6.00e-01	0	40	0	1289748480	56	4393
2026-01-21 08:31:26.48	188.02	12.96	-42.1	-44.0	17.0	5.97e-01	0	40	0	1335885824	55	4580
2026-01-21 08:31:29.50	188.34	13.32	-41.9	-43.8	17.2	5.89e-01	0	40	0	1384120320	55	4480
2026-01-21 08:31:32.53	188.67	13.68	-41.9	-43.8	17.2	5.92e-01	0	40	0	1430257664	55	4470
2026-01-21 08:31:35.55	189.01	14.05	-42.0	-43.9	17.1	5.94e-01	0	40	0	1476395008	55	4524
2026-01-21 08:31:38.57	189.36	14.42	-41.8	-43.8	17.3	6.00e-01	0	40	0	1522532352	55	4450
2026-01-21 08:31:41.59	189.72	14.80	-41.6	-43.6	17.5	5.98e-01	0	40	0	1568669696	55	4343
2026-01-21 08:31:44.62	190.09	15.19	-41.4	-43.3	17.5	6.02e-01	0	40	0	1614807040	54	4487
2026-01-21 08:31:47.64	190.47	15.59	-41.2	-43.1	17.7	5.97e-01	0	40	0	1660944384	54	4384
2026-01-21 08:31:50.66	190.86	15.99	-41.1	-43.1	17.8	6.04e-01	0	40	0	1707081728	54	4343
2026-01-21 08:31:53.69	191.27	16.40	-41.1	-43.1	17.8	6.03e-01	0	40	0	1753219072	54	4348
2026-01-21 08:31:56.71	191.69	16.82	-41.0	-43.0	17.9	6.04e-01	0	40	0	1801453568	53	4546
2026-01-21 08:31:59.74	192.12	17.25	-40.9	-42.9	18.0	6.02e-01	0	40	0	1847590912	53	4495
2026-01-21 08:32:02.76	192.57	17.69	-40.9	-42.8	18.0	6.03e-01	0	40	0	1893728256	53	4462
2026-01-21 08:32:05.78	193.03	18.13	-40.7	-42.6	18.1	6.01e-01	0	40	0	1939865600	53	4390
2026-01-21 08:32:08.81	193.51	18.58	-40.5	-42.4	18.3	5.99e-01	0	40	0	1988100096	53	4248
2026-01-21 08:32:11.83	194.00	19.05	-40.6	-42.5	18.2	6.00e-01	0	40	0	2034237440	53	4330
2026-01-21 08:32:14.85	194.51	19.52	-40.5	-42.4	18.2	6.01e-01	0	40	0	2080374784	52	4532
2026-01-21 08:32:17.88	195.04	20.00	-40.5	-42.4	18.2	6.00e-01	0	40	0	2124414976	52	4517
2026-01-21 08:32:20.90	195.59	20.49	-40.4	-42.3	18.4	6.02e-01	0	40	0	2172649472	52	4481
2026-01-21 08:32:23.92	196.15	20.99	-40.4	-42.2	18.4	6.01e-01	0	40	0	2218786816	52	4407
2026-01-21 08:32:26.95	196.74	21.50	-40.3	-42.0	18.5	6.01e-01	0	40	0	2264924160	52	4330
2026-01-21 08:32:29.97	197.35	22.02	-40.3	-42.0	18.7	5.97e-01	0	40	0	2311061504	52	4299
2026-01-21 08:32:33.00	197.99	22.55	-40.5	-42.1	18.5	6.03e-01	0	40	0	2359296000	52	4375
2026-01-21 08:32:36.02	198.65	23.10	-40.6	-42.3	18.4	5.94e-01	0	40	0	2405433344	52	4477
2026-01-21 08:32:39.04	199.33	23.65	-40.8	-42.4	18.3	5.97e-01	0	40	0	2451570688	52	4520
2026-01-21 08:32:42.07	200.04	24.21	-40.8	-42.4	18.3	6.02e-01	0	40	0	2497708032	52	4505
2026-01-21 08:32:45.09	200.78	24.79	-40.8	-42.3	18.4	5.99e-01	0	40	0	2543845376	52	4479
2026-01-21 08:32:48.12	201.56	25.38	-40.9	-42.4	18.4	6.03e-01	0	40	0	2589982720	52	4513
2026-01-21 08:32:51.14	202.36	25.97	-40.8	-42.3	18.4	6.02e-01	0	40	0	2636120064	52	4486
2026-01-21 08:32:54.17	203.20	26.58	-40.7	-42.3	18.5	6.03e-01	0	40	0	2682257408	52	4450
2026-01-21 08:32:57.19	204.07	27.20	-40.5	-42.1	18.6	6.01e-01	0	40	0	2728394752	52	4378
2026-01-21 08:33:00.21	204.98	27.83	-40.6	-42.4	18.4	6.05e-01	0	40	0	2776629248	52	4515
2026-01-21 08:33:03.23	205.93	28.47	-40.5	-42.3	18.4	6.05e-01	0	40	0	2822766592	52	4474
2026-01-21 08:33:06.26	206.92	29.12	-40.5	-42.3	18.4	6.05e-01	0	40	0	2868903936	52	4477
2026-01-21 08:33:09.28	207.96	29.77	-40.4	-42.3	18.4	6.01e-01	0	40	0	2915041280	52	4447
2026-01-21 08:33:12.29	209.03	30.44	-40.3	-42.2	18.5	6.04e-01	0	40	0	2963275776	52	4409
2026-01-21 08:33:15.32	210.17	31.11	-40.1	-42.0	18.7	6.00e-01	0	40	0	3009413120	52	4323
2026-01-21 08:33:18.34	211.35	31.79	-39.9	-41.8	18.8	6.02e-01	0	40	0	3055550464	51	4490
2026-01-21 08:33:21.36	212.59	32.48	-39.7	-41.5	19.0	6.03e-01	0	40	0	3101687808	51	4336
2026-01-21 08:33:24.38	213.88	33.17	-39.3	-41.3	19.2	6.02e-01	0	40	0	3147825152	50	4445
2026-01-21 08:33:27.41	215.23	33.86	-39.1	-41.2	19.2	6.03e-01	0	40	0	3193962496	50	4416
2026-01-21 08:33:30.43	216.65	34.56	-38.7	-40.7	19.5	6.02e-01	0	40	0	3240099840	49	4427
2026-01-21 08:33:33.45	218.13	35.25	-38.7	-41.0	19.3	6.00e-01	0	40	0	3286237184	49	4557
2026-01-21 08:33:36.48	219.68	35.94	-38.5	-40.7	19.5	6.01e-01	0	40	0	3332374528	49	4417
2026-01-21 08:33:39.50	221.29	36.62	-38.0	-40.3	19.7	6.01e-01	0	40	0	3380609024	48	4451
2026-01-21 08:33:42.53	222.99	37.30	-36.8	-38.9	19.5	6.03e-01	0	41	0	3426746368	45	4508
2026-01-21 08:33:45.55	224.75	37.96	-37.0	-39.1	19.4	6.01e-01	0	40	0	3472883712	45	4642
2026-01-21 08:33:48.57	226.59	38.61	-37.1	-39.2	19.3	6.01e-01	0	40	0	3519021056	45	4664
2026-01-21 08:33:51.60	228.51	39.24	-37.0	-39.0	19.3	6.03e-01	0	40	0	3567255552	45	4568
2026-01-21 08:33:54.62	230.50	39.84	-37.1	-39.1	19.4	6.02e-01	0	40	0	3611295744	45	4622
2026-01-21 08:33:57.64	232.56	40.42	-36.7	-38.7	19.6	6.03e-01	0	40	0	3657433088	45	4392
2026-01-21 08:34:00.67	234.72	40.97	-37.1	-39.1	19.4	6.00e-01	0	40	0	3703570432	45	4645
2026-01-21 08:34:03.69	236.93	41.48	-37.0	-39.1	19.4	6.02e-01	0	40	0	3751804928	45	4612
2026-01-21 08:34:06.72	239.23	41.95	-37.2	-39.2	19.3	5.97e-01	0	40	0	3797942272	45	4675
2026-01-21 08:34:09.74	241.58	42.38	-36.9	-38.9	19.5	5.98e-01	0	40	0	3844079616	45	4523
2026-01-21 08:34:12.76	244.00	42.76	-37.1	-39.1	19.3	6.04e-01	0	40	0	3890216960	45	4638
2026-01-21 08:34:15.78	246.47	43.09	-37.4	-39.6	19.1	5.96e-01	0	40	0	3936354304	45	4879
2026-01-21 08:34:18.81	249.00	43.36	-37.3	-39.3	19.2	6.01e-01	0	40	0	3984588800	45	4741
2026-01-21 08:34:21.83	251.56	43.58	-37.4	-39.6	19.2	6.02e-01	0	40	0	4030726144	45	4883
2026-01-21 08:34:24.86	254.16	43.73	-37.2	-39.1	19.4	6.02e-01	0	41	0	4076863488	45	4624
2026-01-21 08:34:27.88	256.77	43.82	-37.5	-39.6	19.1	6.03e-01	0	40	0	4123000832	45	4881
2026-01-21 08:34:30.91	259.40	43.85	-37.3	-39.5	19.1	5.97e-01	0	41	0	4169138176	45	4828
2026-01-21 08:34:33.93	262.02	43.81	-37.3	-39.6	19.2	5.97e-01	0	40	0	4215275520	45	4874
2026-01-21 08:34:36.95	264.63	43.72	-37.2	-39.4	19.2	5.97e-01	0	40	0	4261412864	45	4780
2026-01-21 08:34:39.98	267.22	43.56	-37.2	-39.3	19.3	5.97e-01	0	40	0	4307550208	45	4725
2026-01-21 08:34:43.00	269.77	43.33	-37.2	-39.3	19.4	5.99e-01	0	40	0	4355784704	45	4722
2026-01-21 08:34:46.02	272.29	43.06	-37.4	-39.3	19.4	5.97e-01	0	40	0	4401922048	45	4733
2026-01-21 08:34:49.05	274.76	42.72	-37.4	-39.5	19.2	5.99e-01	0	40	0	4448059392	45	4866
2026-01-21 08:34:52.07	277.17	42.34	-37.1	-39.1	19.5	5.77e-01	0	40	0	4494196736	45	4613
2026-01-21 08:34:55.09	279.51	41.91	-37.0	-39.1	19.6	5.77e-01	0	40	0	4542431232	45	4616
2026-01-21 08:34:58.12	281.79	41.43	-37.1	-39.2	19.4	5.77e-01	0	40	0	4588568576	45	4659
2026-01-21 08:35:01.14	284.00	40.92	-36.7	-38.6	19.8	5.77e-01	0	40	0	4634705920	45	4383
2026-01-21 08:35:04.16	286.13	40.37	-36.7	-38.6	19.8	5.78e-01	0	40	0	4680843264	45	4370
2026-01-21 08:35:07.18	288.19	39.79	-36.8	-38.8	19.7	5.77e-01	0	40	0	4724883456	45	4469
2026-01-21 08:35:10.21	290.17	39.18	-36.7	-38.6	19.8	5.77e-01	0	40	0	4773117952	45	4385
2026-01-21 08:35:13.23	292.07	38.56	-36.9	-38.9	19.7	5.77e-01	0	40	0	4819255296	45	4502
2026-01-21 08:35:16.25	293.90	37.91	-36.9	-38.7	19.7	6.03e-01	0	41	0	4865392640	45	4416
2026-01-21 08:35:19.28	295.65	37.25	-37.1	-39.1	19.4	6.03e-01	0	40	0	4911529984	45	4628
2026-01-21 08:35:22.30	297.33	36.57	-37.3	-39.3	19.3	6.01e-01	0	41	0	4959764480	45	4718
2026-01-21 08:35:25.33	298.94	35.89	-37.3	-39.2	19.4	6.03e-01	0	40	0	5005901824	45	4702
2026-01-21 08:35:28.35	300.48	35.21	-37.6	-39.6	19.1	6.03e-01	0	41	0	5052039168	45	4908
2026-01-21 08:35:31.37	301.94	34.52	-38.0	-40.1	18.8	6.05e-01	0	40	0	5098176512	46	4882
2026-01-21 08:35:34.39	303.35	33.83	-38.1	-39.9	19.0	6.04e-01	0	41	0	5144313856	46	4769
2026-01-21 08:35:37.42	304.69	33.14	-38.4	-40.2	18.9	6.02e-01	0	40	0	5190451200	47	4685
2026-01-21 08:35:40.44	305.98	32.45	-38.7	-40.6	18.6	6.02e-01	0	40	0	5236588544	47	4878
2026-01-21 08:35:43.46	307.21	31.77	-39.8	-41.9	18.9	6.03e-01	0	40	0	5282725888	50	4768
2026-01-21 08:35:46.49	308.38	31.09	-39.8	-41.7	19.0	6.00e-01	0	41	0	5328863232	50	4695
2026-01-21 08:35:49.51	309.51	30.42	-40.4	-42.3	18.6	6.01e-01	0	41	0	5377097728	51	4744
2026-01-21 08:35:52.54	310.58	29.76	-40.7	-42.7	18.3	6.00e-01	0	41	0	5423235072	52	4667
2026-01-21 08:35:55.56	311.61	29.10	-40.9	-42.8	18.2	6.00e-01	0	41	0	5469372416	52	4720
2026-01-21 08:35:58.58	312.60	28.46	-40.8	-42.7	18.3	5.99e-01	0	40	0	5515509760	52	4658
2026-01-21 08:36:01.61	313.54	27.82	-41.0	-42.8	18.2	5.98e-01	0	40	0	5563744256	52	4719
2026-01-21 08:36:04.63	314.44	27.20	-41.2	-43.0	18.1	6.02e-01	0	40	0	5609881600	52	4870
2026-01-21 08:36:07.65	315.31	26.58	-41.2	-43.2	17.9	6.00e-01	0	40	0	5656018944	53	4656
2026-01-21 08:36:10.67	316.14	25.98	-41.3	-43.2	17.9	5.99e-01	0	40	0	5702156288	53	4662
2026-01-21 08:36:13.69	316.94	25.39	-41.0	-42.9	18.1	6.01e-01	0	40	0	5748293632	53	4513
2026-01-21 08:36:16.72	317.71	24.81	-41.0	-42.9	18.1	6.03e-01	0	41	0	5794430976	53	4511
2026-01-21 08:36:19.74	318.44	24.23	-41.0	-42.9	18.1	6.00e-01	0	40	0	5840568320	53	4538
2026-01-21 08:36:22.77	319.15	23.67	-41.0	-42.9	18.1	6.02e-01	0	40	0	5886705664	53	4529
2026-01-21 08:36:25.78	319.83	23.13	-40.9	-42.8	18.2	6.00e-01	0	40	0	5932843008	53	4460
2026-01-21 08:36:28.81	320.49	22.59	-40.8	-42.8	18.2	6.02e-01	0	41	0	5981077504	53	4445
2026-01-21 08:36:31.83	321.12	22.06	-40.8	-42.8	18.1	6.02e-01	0	41	0	6027214848	53	4468
2026-01-21 08:36:34.86	321.73	21.54	-40.8	-42.8	18.1	6.00e-01	0	40	0	6073352192	53	4485
2026-01-21 08:36:37.88	322.31	21.03	-40.9	-43.0	17.9	6.01e-01	0	40	0	6119489536	53	4547
2026-01-21 08:36:40.90	322.88	20.53	-40.9	-42.8	18.0	6.01e-01	0	40	0	6165626880	53	4470
2026-01-21 08:36:43.93	323.43	20.05	-40.8	-42.7	18.1	6.01e-01	0	40	0	6211764224	53	4422
2026-01-21 08:36:46.95	323.95	19.57	-40.8	-42.7	18.2	6.00e-01	0	40	0	6257901568	53	4425
2026-01-21 08:36:49.97	324.46	19.10	-40.9	-42.8	18.0	6.04e-01	0	41	0	6304038912	53	4488
2026-01-21 08:36:53.00	324.95	18.64	-41.0	-43.1	17.8	6.03e-01	0	41	0	6352273408	53	4599
2026-01-21 08:36:56.02	325.43	18.19	-40.9	-43.0	17.9	6.01e-01	0	41	0	6398410752	53	4567
2026-01-21 08:36:59.04	325.89	17.75	-41.0	-43.0	17.8	6.01e-01	0	41	0	6444548096	53	4586
2026-01-21 08:37:02.07	326.33	17.32	-41.1	-43.1	17.8	6.03e-01	0	40	0	6490685440	53	4619
2026-01-21 08:37:05.09	326.76	16.89	-41.3	-43.3	17.6	5.97e-01	0	41	0	6538919936	53	4729
2026-01-21 08:37:08.12	327.18	16.47	-41.2	-43.2	17.7	5.76e-01	0	40	0	6585057280	53	4697
2026-01-21 08:37:11.14	327.58	16.07	-41.2	-43.3	17.7	5.76e-01	0	40	0	6631194624	53	4708
2026-01-21 08:37:14.17	327.98	15.66	-41.4	-43.5	17.5	5.77e-01	0	41	0	6677331968	53	4831
2026-01-21 08:37:17.19	328.36	15.27	-42.8	-43.6	17.3	5.77e-01	0	40	0	6723469312	56	4125
2026-01-21 08:37:20.22	328.73	14.88	-54.2	-63.1	3.8	7.45e-01	0	41	104	6733955072	79	10317
2026-01-21 08:37:23.23	329.09	14.51	-54.2	-63.0	3.8	7.45e-01	0	41	104	6733955072	79	10251
2026-01-21 08:37:26.26	329.43	14.13	-54.2	-63.0	3.8	7.46e-01	0	40	104	6733955072	79	10265
2026-01-21 08:37:29.29	329.77	13.76	-54.1	-63.0	3.8	7.45e-01	0	41	104	6733955072	79	10216
2026-01-21 08:37:32.31	330.10	13.41	-54.1	-62.9	3.8	7.45e-01	0	40	104	6733955072	79	10164
2026-01-21 08:37:35.33	330.42	13.05	-54.1	-62.9	3.8	7.46e-01	0	40	104	6733955072	79	10138
2026-01-21 08:37:38.35	330.73	12.71	-54.1	-62.9	3.8	7.46e-01	0	41	104	6733955072	79	10096
2026-01-21 08:37:41.37	331.04	12.36	-54.0	-62.9	3.8	7.45e-01	0	41	104	6733955072	79	10069
2026-01-21 08:37:44.39	331.33	12.03	-54.0	-62.9	3.8	7.46e-01	0	40	104	6733955072	79	10061
2026-01-21 08:37:47.41	331.62	11.70	-54.0	-62.8	3.8	7.46e-01	0	41	104	6733955072	79	9985
2026-01-21 08:37:50.44	331.90	11.37	-53.9	-62.8	3.8	7.45e-01	0	41	104	6733955072	79	9998
2026-01-21 08:37:53.45	332.17	11.05	-53.9	-62.8	3.8	7.45e-01	0	40	104	6733955072	79	9951
2026-01-21 08:37:56.48	332.44	10.74	-53.9	-62.7	3.8	7.46e-01	0	40	104	6733955072	79	9876
2026-01-21 08:37:59.50	332.70	10.43	-53.9	-62.7	3.8	7.46e-01	0	41	104	6733955072	79	9864
2026-01-21 08:38:02.53	332.95	10.12	-53.8	-62.6	3.8	7.45e-01	0	41	104	6733955072	79	9813
2026-01-21 08:38:05.55	333.20	9.82	-53.8	-62.6	3.8	7.44e-01	0	40	104	6733955072	79	9764
2026-01-21 08:38:08.56	333.44	9.53	-53.8	-62.6	3.8	7.45e-01	0	41	104	6733955072	79	9721
2026-01-21 08:38:11.59	333.68	9.23	-53.8	-62.6	3.8	7.45e-01	0	40	104	6733955072	79	9760
2026-01-21 08:38:14.62	333.91	8.95	-53.7	-62.5	3.8	7.44e-01	0	41	104	6733955072	79	9692
2026-01-21 08:38:17.64	334.13	8.66	-53.7	-62.5	3.8	7.44e-01	0	41	104	6733955072	79	9704
2026-01-21 08:38:20.66	334.35	8.38	-53.6	-62.5	3.8	7.45e-01	0	41	104	6733955072	79	9609
2026-01-21 08:38:23.69	334.57	8.11	-53.6	-62.5	3.8	7.45e-01	0	40	104	6733955072	79	9650
2026-01-21 08:38:26.71	334.78	7.83	-53.6	-62.4	3.8	7.45e-01	0	41	104	6733955072	79	9561
2026-01-21 08:38:29.73	334.99	7.57	-53.6	-62.4	3.8	7.45e-01	0	41	104	6733955072	79	9580
2026-01-21 08:38:32.76	335.19	7.30	-53.5	-62.3	3.8	7.45e-01	0	41	104	6733955072	79	9482
2026-01-21 08:38:35.78	335.39	7.04	-53.5	-62.4	3.8	7.45e-01	0	41	104	6733955072	78	10104
2026-01-21 08:38:38.81	335.58	6.78	-53.4	-62.3	3.8	7.46e-01	0	41	104	6733955072	78	9950
2026-01-21 08:38:41.83	335.77	6.53	-53.5	-62.3	3.8	7.46e-01	0	40	104	6733955072	78	10007
2026-01-21 08:38:44.85	335.96	6.27	-53.3	-62.2	3.8	7.47e-01	0	40	104	6733955072	78	9835
2026-01-21 08:38:47.87	336.14	6.03	-53.4	-62.2	3.8	7.46e-01	0	40	104	6733955072	78	9939
2026-01-21 08:38:50.89	336.32	5.78	-53.2	-62.1	3.8	7.47e-01	0	41	104	6733955072	78	9758
2026-01-21 08:38:53.92	336.49	5.54	-53.3	-62.2	3.8	7.46e-01	0	40	104	6733955072	78	9865
2026-01-21 08:38:56.94	336.66	5.30	-53.1	-62.0	3.8	7.45e-01	0	40	104	6733955072	78	9619
2026-01-21 08:38:59.96	336.83	5.06	-53.2	-62.1	3.8	7.46e-01	0	40	104	6733955072	78	9751
2026-01-21 08:39:02.99	337.00	4.83	-54.0	-62.8	3.8	7.46e-01	0	41	104	6733955072	78	10575
2026-01-21 08:39:06.01	337.16	4.59	-54.3	-63.1	3.8	7.47e-01	0	41	104	6733955072	79	10367
2026-01-21 08:39:09.03	337.32	4.36	-54.4	-63.3	3.8	7.47e-01	0	40	104	6733955072	79	10575
2026-01-21 08:39:12.05	337.48	4.14	-54.3	-63.2	3.8	7.46e-01	0	40	104	6733955072	79	10475
2026-01-21 08:39:15.08	337.63	3.91	-54.2	-63.1	3.8	7.43e-01	0	41	104	6733955072	79	10301
2026-01-21 08:39:18.10	337.78	3.69	-54.3	-63.1	3.8	7.45e-01	0	41	104	6733955072	79	10354
2026-01-21 08:39:21.13	337.93	3.47	-54.3	-63.2	3.8	7.44e-01	0	41	104	6733955072	79	10453
2026-01-21 08:39:24.15	338.07	3.25	-54.3	-63.1	3.8	7.46e-01	0	41	104	6733955072	79	10394
2026-01-21 08:39:27.17	338.22	3.04	-54.3	-63.1	3.8	7.45e-01	0	40	104	6733955072	79	10343
2026-01-21 08:39:30.20	338.36	2.82	-54.3	-63.1	3.8	7.46e-01	0	40	104	6733955072	79	10361
2026-01-21 08:39:33.22	338.50	2.61	-54.2	-63.1	3.8	7.43e-01	0	40	104	6733955072	79	10336
2026-01-21 08:39:36.24	338.63	2.40	-54.2	-63.1	3.8	7.46e-01	0	41	104	6733955072	79	10315
2026-01-21 08:39:39.26	338.77	2.19	-54.2	-63.1	3.8	7.46e-01	0	41	104	6733955072	79	10310
2026-01-21 08:39:42.29	338.90	1.99	-54.2	-63.0	3.8	7.45e-01	0	41	104	6733955072	79	10261

#Closed at: 2026-01-21 08:39:45
#Recorded file [6733 MB]: D:/lorett/data/31041_260121_112922.dat