passes_logs/2026/01/21/R3.2S_Murmansk/R3.2S_Murmansk__20260121_222957_NOAA_21_JPSS-2_rec.log

#Pass ID: 20260121_222957_NOAA 21 (JPSS-2)
#Satellite: NOAA 21 (JPSS-2)
#Configuration: NOAA-21
#almurnet v.1.7.20251203
#Start time: 2026-01-21 22:29:59

#Version: 2.2.20231116
#Station: R3.2S_Murmansk
#Location: 33.079688 lon 68.888172 lat
#TLE: 1 54234U 22150A   26021.42686626  .00000211  00000+0  12107-3 0  9996
#TLE: 2 54234  98.7506 322.2490 0000636 241.9299 118.1812 14.19537149165725

#Time	Az	El	Level	Level2	SNR	BER	BlckErr	Temp	State	Recorded	gain1	gain2
2026-01-21 22:29:59.56	19.05	2.09	-54.1	-66.9	3.8	1.49e+00	0	39	0	0	79	16106
2026-01-21 22:30:03.58	19.32	2.32	-54.2	-67.0	3.8	1.49e+00	0	39	104	0	78	17227
2026-01-21 22:30:07.61	19.59	2.55	-54.4	-67.2	3.8	1.49e+00	0	39	104	0	79	16508
2026-01-21 22:30:11.65	19.86	2.78	-54.3	-67.1	3.8	1.49e+00	0	39	104	0	79	16403
2026-01-21 22:30:15.68	20.14	3.01	-54.2	-67.0	3.8	1.49e+00	0	39	104	0	79	16131
2026-01-21 22:30:19.72	20.42	3.24	-53.9	-66.7	3.8	1.49e+00	0	40	104	0	79	15630
2026-01-21 22:30:23.75	20.71	3.48	-53.4	-66.2	3.8	1.49e+00	0	40	104	0	78	15602
2026-01-21 22:30:27.79	21.00	3.71	-52.4	-65.2	3.8	1.49e+00	0	40	104	0	76	15625
2026-01-21 22:30:31.82	21.29	3.95	-52.4	-64.8	3.8	1.49e+00	0	40	104	0	76	14890
2026-01-21 22:30:35.85	21.59	4.19	-52.3	-63.6	3.8	1.49e+00	0	40	104	0	76	13096
2026-01-21 22:30:39.89	21.90	4.43	-51.6	-58.8	5.4	7.83e-01	0	40	104	0	75	7983
2026-01-21 22:30:43.92	22.20	4.67	-48.8	-51.6	12.5	3.07e-04	0	40	0	12582912	69	4874
2026-01-21 22:30:47.95	22.52	4.91	-46.9	-48.8	15.1	0.00e+00	0	40	0	24117248	65	4478
2026-01-21 22:30:51.98	22.83	5.16	-52.1	-63.3	3.8	1.02e-01	0	40	104	36700160	74	14199
2026-01-21 22:30:56.02	23.16	5.40	-44.9	-46.2	17.9	0.00e+00	0	40	0	47185920	61	4164
2026-01-21 22:31:00.05	23.49	5.65	-44.7	-45.9	18.2	0.00e+00	0	40	0	59768832	61	4035
2026-01-21 22:31:04.08	23.82	5.90	-44.9	-46.2	18.0	0.00e+00	0	40	0	72351744	61	4162
2026-01-21 22:31:08.12	24.16	6.15	-44.3	-45.5	18.7	0.00e+00	0	40	0	84934656	60	4073
2026-01-21 22:31:12.15	24.50	6.40	-44.3	-45.4	18.8	0.00e+00	0	40	0	97517568	60	4035
2026-01-21 22:31:16.19	24.85	6.66	-44.6	-45.8	18.7	0.00e+00	0	40	0	110100480	59	4476
2026-01-21 22:31:20.22	25.21	6.91	-44.5	-45.7	18.9	0.00e+00	0	41	0	122683392	59	4417
2026-01-21 22:31:24.25	25.57	7.17	-44.1	-45.2	19.4	0.00e+00	0	40	0	135266304	59	4150
2026-01-21 22:31:28.29	25.94	7.43	-44.0	-45.1	19.5	0.00e+00	0	41	0	147849216	59	4118
2026-01-21 22:31:32.32	26.31	7.69	-44.1	-45.1	19.5	0.00e+00	0	40	0	160432128	59	4142
2026-01-21 22:31:36.35	26.69	7.95	-44.0	-45.0	19.6	0.00e+00	0	40	0	173015040	59	4090
2026-01-21 22:31:40.39	27.08	8.22	-43.9	-45.0	19.7	0.00e+00	0	40	0	185597952	59	4066
2026-01-21 22:31:44.42	27.47	8.48	-43.8	-44.8	19.8	0.00e+00	0	41	0	198180864	59	4001
2026-01-21 22:31:48.45	27.87	8.75	-43.8	-44.8	19.9	0.00e+00	0	40	0	210763776	59	3985
2026-01-21 22:31:52.48	28.28	9.02	-43.6	-44.7	20.0	0.00e+00	0	41	0	223346688	59	3916
2026-01-21 22:31:56.52	28.70	9.29	-43.7	-44.7	20.0	0.00e+00	0	40	0	235929600	58	4162
2026-01-21 22:32:00.55	29.12	9.57	-43.4	-44.4	20.3	0.00e+00	0	41	0	248512512	58	4034
2026-01-21 22:32:04.58	29.55	9.84	-43.4	-44.4	20.3	0.00e+00	0	40	0	261095424	58	4029
2026-01-21 22:32:08.61	29.99	10.12	-43.2	-44.2	20.5	0.00e+00	0	41	0	273678336	58	3917
2026-01-21 22:32:12.65	30.43	10.39	-43.2	-44.1	20.6	0.00e+00	0	41	0	286261248	58	3899
2026-01-21 22:32:16.68	30.89	10.67	-43.1	-44.0	20.7	0.00e+00	0	41	0	298844160	58	3852
2026-01-21 22:32:20.71	31.35	10.95	-43.3	-44.2	20.6	0.00e+00	0	40	0	311427072	58	3938
2026-01-21 22:32:24.74	31.82	11.24	-43.0	-43.9	20.8	0.00e+00	0	41	0	324009984	57	4031
2026-01-21 22:32:28.77	32.30	11.52	-42.9	-43.8	21.0	0.00e+00	0	41	0	336592896	57	3977
2026-01-21 22:32:32.81	32.79	11.81	-42.7	-43.6	21.1	0.00e+00	0	40	0	349175808	57	3873
2026-01-21 22:32:36.84	33.29	12.09	-42.6	-43.4	21.3	0.00e+00	0	41	0	361758720	57	3819
2026-01-21 22:32:40.87	33.79	12.38	-42.5	-43.4	21.3	0.00e+00	0	41	0	374341632	57	3814
2026-01-21 22:32:44.90	34.31	12.67	-42.7	-43.6	21.2	0.00e+00	0	41	0	386924544	57	3900
2026-01-21 22:32:48.93	34.84	12.96	-42.6	-43.4	21.3	0.00e+00	0	41	0	399507456	57	3824
2026-01-21 22:32:52.97	35.38	13.26	-42.3	-43.1	21.6	0.00e+00	0	41	0	412090368	56	3908
2026-01-21 22:32:57.00	35.92	13.55	-42.3	-43.1	21.6	0.00e+00	0	41	0	424673280	56	3899
2026-01-21 22:33:01.03	36.48	13.85	-42.7	-43.6	21.3	0.00e+00	0	41	0	437256192	56	4100
2026-01-21 22:33:05.06	37.05	14.14	-42.7	-43.6	21.2	0.00e+00	0	41	0	450887680	56	4117
2026-01-21 22:33:09.09	37.63	14.44	-42.3	-43.2	21.4	0.00e+00	0	41	0	462422016	55	4182
2026-01-21 22:33:13.13	38.22	14.74	-42.6	-43.5	21.3	0.00e+00	0	41	0	475004928	55	4322
2026-01-21 22:33:17.16	38.83	15.04	-42.6	-43.4	21.3	0.00e+00	0	41	0	488636416	55	4284
2026-01-21 22:33:21.19	39.44	15.34	-42.4	-43.3	21.5	0.00e+00	0	41	0	500170752	55	4198
2026-01-21 22:33:25.22	40.07	15.64	-42.4	-43.3	21.5	0.00e+00	0	41	0	512753664	55	4209
2026-01-21 22:33:29.25	40.70	15.94	-42.7	-43.6	21.3	0.00e+00	0	41	0	525336576	56	4136
2026-01-21 22:33:33.29	41.36	16.24	-42.9	-43.8	21.1	0.00e+00	0	41	0	538968064	56	4222
2026-01-21 22:33:37.32	42.02	16.55	-42.9	-43.8	21.1	0.00e+00	0	41	0	550502400	56	4222
2026-01-21 22:33:41.35	42.70	16.85	-43.0	-43.9	21.1	0.00e+00	0	41	0	563085312	56	4257
2026-01-21 22:33:45.39	43.39	17.15	-43.0	-43.9	21.0	0.00e+00	0	41	0	576716800	56	4280
2026-01-21 22:33:49.42	44.10	17.45	-42.7	-43.6	21.3	0.00e+00	0	41	0	589299712	56	4122
2026-01-21 22:33:53.45	44.81	17.75	-42.8	-43.7	21.3	0.00e+00	0	41	0	600834048	56	4157
2026-01-21 22:33:57.48	45.55	18.05	-42.7	-43.5	21.4	0.00e+00	0	41	0	614465536	56	4092
2026-01-21 22:34:01.52	46.29	18.35	-42.5	-43.3	21.6	0.00e+00	0	41	0	627048448	56	3992
2026-01-21 22:34:05.55	47.05	18.65	-42.4	-43.2	21.7	0.00e+00	0	41	0	639631360	56	3949
2026-01-21 22:34:09.59	47.83	18.95	-42.4	-43.2	21.7	0.00e+00	0	41	0	652214272	56	3956
2026-01-21 22:34:13.62	48.62	19.24	-42.3	-43.2	21.8	0.00e+00	0	41	0	664797184	56	3928
2026-01-21 22:34:17.66	49.43	19.54	-42.4	-43.2	21.7	0.00e+00	0	41	0	677380096	56	3951
2026-01-21 22:34:21.69	50.25	19.83	-42.5	-43.3	21.6	0.00e+00	0	41	0	689963008	56	4001
2026-01-21 22:34:25.73	51.09	20.12	-42.5	-43.3	21.6	0.00e+00	0	41	0	702545920	56	3996
2026-01-21 22:34:29.76	51.94	20.41	-42.6	-43.4	21.6	0.00e+00	0	41	0	715128832	56	4038
2026-01-21 22:34:33.80	52.81	20.69	-42.4	-43.2	21.8	0.00e+00	0	41	0	727711744	56	3947
2026-01-21 22:34:37.84	53.69	20.97	-42.5	-43.3	21.6	0.00e+00	0	41	0	740294656	56	4003
2026-01-21 22:34:41.88	54.59	21.25	-42.2	-43.0	21.8	0.00e+00	0	41	0	752877568	56	3867
2026-01-21 22:34:45.91	55.51	21.52	-42.2	-43.0	21.9	0.00e+00	0	41	0	765460480	56	3862
2026-01-21 22:34:49.95	56.44	21.79	-41.8	-42.6	22.1	0.00e+00	0	41	0	778043392	55	3896
2026-01-21 22:34:53.98	57.38	22.05	-41.4	-42.2	22.4	0.00e+00	0	41	0	790626304	54	3930
2026-01-21 22:34:58.01	58.35	22.31	-41.9	-42.7	22.1	0.00e+00	0	41	0	803209216	54	4152
2026-01-21 22:35:02.05	59.32	22.56	-41.9	-42.7	22.1	0.00e+00	0	41	0	815792128	54	4172
2026-01-21 22:35:06.08	60.32	22.80	-41.9	-42.8	22.1	0.00e+00	0	41	0	828375040	54	4195
2026-01-21 22:35:10.12	61.33	23.04	-41.9	-42.7	22.2	0.00e+00	0	41	0	840957952	54	4150
2026-01-21 22:35:14.15	62.35	23.28	-42.0	-42.8	22.0	0.00e+00	0	41	0	853540864	54	4235
2026-01-21 22:35:18.19	63.39	23.50	-41.9	-42.7	22.2	0.00e+00	0	41	0	866123776	54	4162
2026-01-21 22:35:22.22	64.44	23.72	-41.9	-42.7	22.1	0.00e+00	0	41	0	878706688	54	4192
2026-01-21 22:35:26.26	65.51	23.93	-42.2	-43.1	21.9	0.00e+00	0	41	0	891289600	54	4348
2026-01-21 22:35:30.29	66.59	24.13	-42.0	-42.8	22.1	0.00e+00	0	41	0	903872512	55	3998
2026-01-21 22:35:34.33	67.68	24.32	-42.1	-42.9	22.0	0.00e+00	0	41	0	916455424	55	4015
2026-01-21 22:35:38.36	68.79	24.50	-41.8	-42.6	22.3	0.00e+00	0	41	0	929038336	55	3906
2026-01-21 22:35:42.40	69.91	24.67	-41.9	-42.7	22.1	0.00e+00	0	41	0	941621248	55	3941
2026-01-21 22:35:46.44	71.04	24.83	-41.9	-42.7	22.1	0.00e+00	0	41	0	954204160	55	3946
2026-01-21 22:35:50.47	72.18	24.98	-42.0	-42.8	22.1	0.00e+00	0	41	0	966787072	55	3986
2026-01-21 22:35:54.50	73.34	25.12	-41.8	-42.6	22.3	0.00e+00	0	41	0	979369984	55	3884
2026-01-21 22:35:58.54	74.50	25.25	-41.8	-42.6	22.3	0.00e+00	0	41	0	991952896	55	3884
2026-01-21 22:36:02.57	75.67	25.37	-41.6	-42.4	22.5	0.00e+00	0	41	0	1005584384	54	4009
2026-01-21 22:36:06.60	76.85	25.47	-41.6	-42.4	22.4	0.00e+00	0	41	0	1017118720	54	4038
2026-01-21 22:36:10.63	78.03	25.56	-41.5	-42.3	22.5	0.00e+00	0	41	0	1029701632	54	3965
2026-01-21 22:36:14.66	79.22	25.64	-41.4	-42.1	22.6	0.00e+00	0	41	0	1043333120	54	3901
2026-01-21 22:36:18.70	80.42	25.71	-41.6	-42.4	22.4	0.00e+00	0	41	0	1054867456	54	4007
2026-01-21 22:36:22.73	81.63	25.76	-41.5	-42.3	22.5	0.00e+00	0	41	0	1067450368	54	3968
2026-01-21 22:36:26.77	82.83	25.80	-41.4	-42.2	22.6	0.00e+00	0	41	0	1081081856	54	3941
2026-01-21 22:36:30.80	84.04	25.83	-41.3	-42.1	22.8	0.00e+00	0	41	0	1093664768	54	3871
2026-01-21 22:36:34.84	85.26	25.85	-41.6	-42.4	22.4	0.00e+00	0	41	0	1105199104	54	4030
2026-01-21 22:36:38.88	86.47	25.85	-41.3	-42.1	22.7	0.00e+00	0	41	0	1118830592	54	3893
2026-01-21 22:36:42.91	87.68	25.83	-41.2	-42.0	22.8	0.00e+00	0	41	0	1131413504	54	3839
2026-01-21 22:36:46.94	88.89	25.81	-41.4	-42.2	22.7	0.00e+00	0	41	0	1143996416	54	3915
2026-01-21 22:36:50.97	90.09	25.77	-41.4	-42.2	22.6	0.00e+00	0	41	0	1156579328	54	3937
2026-01-21 22:36:55.01	91.30	25.72	-41.6	-42.4	22.5	0.00e+00	0	41	0	1169162240	54	4015
2026-01-21 22:36:59.04	92.50	25.65	-41.5	-42.3	22.5	0.00e+00	0	41	0	1181745152	54	3994
2026-01-21 22:37:03.08	93.70	25.57	-41.2	-41.9	22.8	0.00e+00	0	41	0	1194328064	54	3824
2026-01-21 22:37:07.11	94.88	25.48	-41.5	-42.2	22.5	0.00e+00	0	41	0	1206910976	54	3958
2026-01-21 22:37:11.14	96.07	25.38	-41.5	-42.2	22.5	0.00e+00	0	40	0	1219493888	54	3956
2026-01-21 22:37:15.17	97.24	25.27	-41.4	-42.2	22.6	0.00e+00	0	41	0	1232076800	54	3919
2026-01-21 22:37:19.21	98.40	25.14	-41.7	-42.5	22.3	0.00e+00	0	41	0	1244659712	54	4077
2026-01-21 22:37:23.24	99.56	25.00	-41.6	-42.4	22.4	0.00e+00	0	41	0	1257242624	54	4031
2026-01-21 22:37:27.28	100.71	24.85	-41.7	-42.5	22.3	0.00e+00	0	41	0	1269825536	54	4075
2026-01-21 22:37:31.31	101.84	24.69	-42.0	-42.8	22.1	0.00e+00	0	41	0	1282408448	54	4204
2026-01-21 22:37:35.34	102.96	24.52	-41.9	-42.7	22.1	0.00e+00	0	41	0	1294991360	54	4184
2026-01-21 22:37:39.38	104.08	24.34	-41.9	-42.7	22.2	0.00e+00	0	40	0	1307574272	54	4177
2026-01-21 22:37:43.41	105.17	24.15	-41.6	-42.4	22.4	0.00e+00	0	41	0	1320157184	54	4032
2026-01-21 22:37:47.45	106.26	23.95	-41.7	-42.5	22.3	0.00e+00	0	41	0	1332740096	54	4079
2026-01-21 22:37:51.48	107.33	23.74	-41.9	-42.7	22.1	0.00e+00	0	41	0	1345323008	54	4153
2026-01-21 22:37:55.52	108.39	23.52	-41.8	-42.6	22.1	0.00e+00	0	41	0	1357905920	54	4123
2026-01-21 22:37:59.55	109.43	23.30	-41.6	-42.3	22.3	0.00e+00	0	41	0	1370488832	54	4003
2026-01-21 22:38:03.58	110.46	23.06	-41.5	-42.2	22.4	0.00e+00	0	41	0	1383071744	54	3949
2026-01-21 22:38:07.62	111.47	22.82	-41.8	-42.6	22.2	0.00e+00	0	41	0	1395654656	54	4106
2026-01-21 22:38:11.65	112.47	22.58	-41.9	-42.8	22.0	0.00e+00	0	41	0	1408237568	54	4196
2026-01-21 22:38:15.68	113.45	22.33	-41.8	-42.6	22.2	0.00e+00	0	41	0	1420820480	54	4105
2026-01-21 22:38:19.72	114.42	22.07	-41.7	-42.5	22.2	0.00e+00	0	41	0	1433403392	54	4080
2026-01-21 22:38:23.75	115.37	21.80	-42.0	-42.8	21.9	0.00e+00	0	41	0	1445986304	54	4240
2026-01-21 22:38:27.78	116.30	21.54	-42.0	-42.9	21.9	0.00e+00	0	41	0	1458569216	54	4247
2026-01-21 22:38:31.82	117.23	21.26	-41.7	-42.5	22.2	0.00e+00	0	41	0	1471152128	54	4058
2026-01-21 22:38:35.85	118.13	20.98	-41.8	-42.6	22.1	0.00e+00	0	41	0	1483735040	54	4144
2026-01-21 22:38:39.89	119.02	20.70	-42.0	-42.8	22.0	0.00e+00	0	41	0	1496317952	54	4215
2026-01-21 22:38:43.92	119.89	20.42	-41.8	-42.7	22.1	0.00e+00	0	41	0	1508900864	54	4152
2026-01-21 22:38:47.96	120.75	20.13	-42.0	-42.9	21.9	0.00e+00	0	40	0	1521483776	54	4259
2026-01-21 22:38:51.99	121.59	19.84	-41.9	-42.7	22.1	0.00e+00	0	41	0	1534066688	54	4148
2026-01-21 22:38:56.03	122.42	19.55	-41.8	-42.6	22.1	0.00e+00	0	41	0	1546649600	54	4145
2026-01-21 22:39:00.06	123.23	19.25	-42.0	-42.8	21.9	0.00e+00	0	41	0	1560281088	54	4221
2026-01-21 22:39:04.09	124.02	18.95	-41.9	-42.8	21.9	0.00e+00	0	41	0	1571815424	54	4201
2026-01-21 22:39:08.13	124.80	18.65	-41.9	-42.8	21.8	0.00e+00	0	41	0	1584398336	54	4194
2026-01-21 22:39:12.16	125.57	18.35	-42.0	-42.9	21.8	0.00e+00	0	41	0	1598029824	54	4244
2026-01-21 22:39:16.20	126.32	18.05	-42.2	-43.1	21.6	0.00e+00	0	41	0	1609564160	55	4105
2026-01-21 22:39:20.23	127.06	17.75	-42.1	-43.0	21.7	0.00e+00	0	41	0	1622147072	55	4054
2026-01-21 22:39:24.26	127.78	17.45	-42.4	-43.3	21.4	0.00e+00	0	41	0	1635778560	55	4201
2026-01-21 22:39:28.29	128.49	17.14	-42.4	-43.2	21.4	0.00e+00	0	41	0	1648361472	55	4188
2026-01-21 22:39:32.32	129.18	16.84	-42.5	-43.3	21.3	0.00e+00	0	41	0	1659895808	55	4239
2026-01-21 22:39:36.35	129.86	16.53	-42.5	-43.4	21.2	0.00e+00	0	41	0	1672478720	55	4260
2026-01-21 22:39:40.39	130.53	16.23	-42.5	-43.4	21.2	0.00e+00	0	41	0	1686110208	55	4279
2026-01-21 22:39:44.42	131.18	15.93	-42.3	-43.2	21.4	0.00e+00	0	41	0	1698693120	55	4157
2026-01-21 22:39:48.45	131.83	15.62	-42.6	-43.5	21.0	0.00e+00	0	41	0	1710227456	55	4308
2026-01-21 22:39:52.49	132.46	15.32	-43.0	-43.9	20.7	0.00e+00	0	41	0	1723858944	56	4265
2026-01-21 22:39:56.52	133.08	15.02	-42.7	-43.6	21.0	0.00e+00	0	41	0	1736441856	56	4128
2026-01-21 22:40:00.55	133.68	14.72	-42.6	-43.5	21.1	0.00e+00	0	41	0	1749024768	56	4061
2026-01-21 22:40:04.58	134.27	14.41	-42.8	-43.7	20.9	0.00e+00	0	41	0	1761607680	56	4185
2026-01-21 22:40:08.62	134.86	14.11	-43.1	-44.0	20.7	0.00e+00	0	40	0	1774190592	56	4312
2026-01-21 22:40:12.65	135.43	13.82	-43.1	-44.0	20.7	0.00e+00	0	41	0	1786773504	56	4325
2026-01-21 22:40:16.68	135.99	13.52	-43.2	-44.2	20.5	0.00e+00	0	41	0	1799356416	57	4159
2026-01-21 22:40:20.71	136.54	13.22	-43.1	-44.0	20.5	0.00e+00	0	40	0	1811939328	57	4096
2026-01-21 22:40:24.75	137.08	12.93	-43.2	-44.1	20.4	0.00e+00	0	41	0	1824522240	57	4134
2026-01-21 22:40:28.78	137.61	12.63	-43.3	-44.3	20.3	0.00e+00	0	41	0	1837105152	57	4194
2026-01-21 22:40:32.81	138.13	12.34	-43.3	-44.3	20.3	0.00e+00	0	41	0	1849688064	57	4215
2026-01-21 22:40:36.84	138.63	12.05	-43.3	-44.3	20.3	0.00e+00	0	41	0	1862270976	57	4212
2026-01-21 22:40:40.88	139.14	11.76	-43.5	-44.4	20.1	0.00e+00	0	41	0	1874853888	57	4287
2026-01-21 22:40:44.91	139.63	11.47	-43.3	-44.3	20.3	0.00e+00	0	41	0	1887436800	57	4197
2026-01-21 22:40:48.94	140.11	11.18	-43.4	-44.4	20.2	0.00e+00	0	41	0	1900019712	57	4248
2026-01-21 22:40:52.97	140.58	10.90	-43.6	-44.6	20.0	0.00e+00	0	41	0	1912602624	57	4368
2026-01-21 22:40:57.00	141.04	10.62	-43.7	-44.7	19.8	0.00e+00	0	41	0	1925185536	58	4193
2026-01-21 22:41:01.03	141.50	10.34	-43.8	-44.9	19.7	0.00e+00	0	41	0	1937768448	58	4248
2026-01-21 22:41:05.07	141.94	10.05	-43.7	-44.7	19.8	0.00e+00	0	41	0	1950351360	58	4177
2026-01-21 22:41:09.09	142.38	9.78	-43.8	-44.8	19.7	0.00e+00	0	41	0	1962934272	58	4224
2026-01-21 22:41:13.13	142.81	9.50	-43.9	-44.9	19.6	0.00e+00	0	41	0	1975517184	58	4272
2026-01-21 22:41:17.16	143.23	9.23	-43.9	-45.0	19.5	0.00e+00	0	41	0	1988100096	58	4317
2026-01-21 22:41:21.19	143.65	8.95	-44.2	-45.4	19.2	0.00e+00	0	41	0	2000683008	59	4248
2026-01-21 22:41:25.23	144.06	8.68	-44.2	-45.3	19.2	0.00e+00	0	41	0	2013265920	59	4198
2026-01-21 22:41:29.26	144.46	8.41	-44.3	-45.4	19.1	0.00e+00	0	41	0	2025848832	59	4272
2026-01-21 22:41:33.29	144.85	8.14	-44.2	-45.3	19.1	0.00e+00	0	41	0	2038431744	59	4226
2026-01-21 22:41:37.32	145.24	7.88	-44.4	-45.5	18.8	0.00e+00	0	41	0	2051014656	59	4340
2026-01-21 22:41:41.35	145.62	7.61	-44.4	-45.6	18.5	0.00e+00	0	41	0	2063597568	60	4112
2026-01-21 22:41:45.39	145.99	7.35	-44.3	-45.4	18.6	0.00e+00	0	41	0	2076180480	60	4042
2026-01-21 22:41:49.42	146.36	7.09	-44.4	-45.6	18.4	0.00e+00	0	41	0	2088763392	60	4132
2026-01-21 22:41:53.45	146.72	6.83	-44.3	-45.5	18.5	0.00e+00	0	40	0	2101346304	60	4055
2026-01-21 22:41:57.48	147.08	6.57	-44.6	-45.9	18.1	0.00e+00	0	41	0	2113929216	60	4266
2026-01-21 22:42:01.51	147.43	6.31	-44.7	-46.0	17.9	0.00e+00	0	41	0	2126512128	60	4302
2026-01-21 22:42:05.54	147.77	6.06	-44.9	-46.3	17.6	0.00e+00	0	41	0	2139095040	60	4443
2026-01-21 22:42:09.58	148.11	5.81	-44.6	-45.8	18.0	0.00e+00	0	41	0	2151677952	60	4232
2026-01-21 22:42:13.61	148.44	5.56	-44.8	-46.1	17.7	0.00e+00	0	41	0	2164260864	60	4360
2026-01-21 22:42:17.64	148.77	5.31	-44.8	-46.1	17.7	0.00e+00	0	41	0	2176843776	60	4361
2026-01-21 22:42:21.67	149.09	5.06	-44.9	-46.3	17.4	0.00e+00	0	41	0	2189426688	60	4461
2026-01-21 22:42:25.71	149.41	4.81	-53.2	-65.9	3.8	1.49e+00	0	41	104	2192572416	76	17080
2026-01-21 22:42:29.74	149.72	4.57	-53.7	-66.5	3.8	1.49e+00	0	41	104	2192572416	77	17215
2026-01-21 22:42:33.77	150.03	4.32	-54.0	-66.8	3.8	1.49e+00	0	41	104	2192572416	78	16853
2026-01-21 22:42:37.80	150.33	4.08	-54.2	-67.0	3.8	1.49e+00	0	41	104	2192572416	79	16241
2026-01-21 22:42:41.84	150.63	3.84	-54.4	-67.2	3.8	1.49e+00	0	41	104	2192572416	79	16621
2026-01-21 22:42:45.87	150.92	3.60	-54.6	-67.3	3.8	1.49e+00	0	41	104	2192572416	79	16863
2026-01-21 22:42:49.91	151.21	3.37	-54.6	-67.4	3.8	1.49e+00	0	41	104	2192572416	79	16960
2026-01-21 22:42:53.94	151.49	3.13	-54.5	-67.3	3.8	1.49e+00	0	41	104	2192572416	79	16839
2026-01-21 22:42:57.98	151.77	2.90	-54.4	-67.2	3.8	1.49e+00	0	41	104	2192572416	79	16519
2026-01-21 22:43:02.01	152.05	2.66	-54.2	-67.0	3.8	1.49e+00	0	41	104	2192572416	79	16145
2026-01-21 22:43:06.04	152.32	2.43	-53.9	-66.7	3.8	1.49e+00	0	41	104	2192572416	79	15630
2026-01-21 22:43:10.07	152.59	2.20	-53.4	-66.2	3.8	1.49e+00	0	41	104	2192572416	78	15721
2026-01-21 22:43:14.11	152.85	1.97	-53.4	-66.2	3.8	1.49e+00	0	41	104	2192572416	78	15659

#Closed at: 2026-01-21 22:43:14
#Recorded file [2192 MB]: D:/lorett/data/31041_260122_012959.dat