passes_logs/2026/01/21/R3.2S_Murmansk/R3.2S_Murmansk__20260121_070723_NOAA_21_JPSS-2_rec.log

#Pass ID: 20260121_070723_NOAA 21 (JPSS-2)
#Satellite: NOAA 21 (JPSS-2)
#Configuration: NOAA-21
#almurnet v.1.7.20251203
#Start time: 2026-01-21 07:07:23

#Version: 2.2.20231116
#Station: R3.2S_Murmansk
#Location: 33.079688 lon 68.888172 lat
#TLE: 1 54234U 22150A   26020.29910383  .00000141  00000+0  87571-4 0  9990
#TLE: 2 54234  98.7506 321.1348 0000615 250.8428 109.2682 14.19536295165564

#Time	Az	El	Level	Level2	SNR	BER	BlckErr	Temp	State	Recorded	gain1	gain2
2026-01-21 07:07:23.54	97.51	2.00	-54.3	-67.0	3.8	1.49e+00	0	39	0	0	79	16288
2026-01-21 07:07:27.57	97.31	2.24	-54.2	-67.0	3.8	1.49e+00	0	40	104	0	79	16215
2026-01-21 07:07:31.60	97.11	2.49	-54.4	-67.2	3.8	1.49e+00	0	40	104	0	79	16666
2026-01-21 07:07:35.63	96.90	2.73	-54.4	-67.2	3.8	1.49e+00	0	40	104	0	79	16558
2026-01-21 07:07:39.67	96.69	2.98	-54.2	-67.0	3.8	1.49e+00	0	40	104	0	79	16271
2026-01-21 07:07:43.70	96.48	3.23	-53.9	-66.7	3.8	1.49e+00	0	40	104	0	79	15720
2026-01-21 07:07:47.73	96.26	3.48	-53.4	-66.1	3.8	1.49e+00	0	40	104	0	78	15540
2026-01-21 07:07:51.76	96.04	3.73	-53.0	-65.7	3.8	1.49e+00	0	40	104	0	78	14843
2026-01-21 07:07:55.80	95.82	3.99	-52.4	-65.1	3.8	1.49e+00	0	40	104	0	76	15505
2026-01-21 07:07:59.83	95.59	4.25	-51.8	-60.7	4.0	1.37e+00	2	40	104	0	75	9907
2026-01-21 07:08:03.86	95.35	4.51	-48.9	-51.7	12.3	3.11e-04	0	40	0	11534336	69	4954
2026-01-21 07:08:07.89	95.12	4.77	-47.0	-48.9	15.0	7.00e-07	0	40	0	24117248	65	4529
2026-01-21 07:08:11.93	94.87	5.03	-47.3	-49.3	14.6	7.00e-07	0	40	0	35651584	65	4757
2026-01-21 07:08:15.96	94.63	5.29	-45.1	-46.3	17.9	0.00e+00	0	40	0	49283072	61	4236
2026-01-21 07:08:19.98	94.38	5.56	-44.6	-45.8	18.3	0.00e+00	0	40	0	58720256	61	3987
2026-01-21 07:08:24.01	94.12	5.83	-44.9	-46.1	18.1	0.00e+00	0	40	0	71303168	61	4133
2026-01-21 07:08:28.05	93.86	6.10	-44.5	-45.7	18.5	0.00e+00	0	40	0	84934656	60	4156
2026-01-21 07:08:32.08	93.59	6.38	-44.5	-45.7	18.5	0.00e+00	0	40	0	97517568	60	4166
2026-01-21 07:08:36.11	93.32	6.65	-44.2	-45.3	19.0	0.00e+00	0	40	0	109051904	60	3974
2026-01-21 07:08:40.14	93.04	6.93	-44.3	-45.4	19.1	0.00e+00	0	40	0	122683392	59	4278
2026-01-21 07:08:44.17	92.76	7.21	-44.3	-45.4	19.2	0.00e+00	0	40	0	135266304	59	4245
2026-01-21 07:08:48.20	92.47	7.50	-44.2	-45.2	19.3	0.00e+00	0	40	0	147849216	59	4185
2026-01-21 07:08:52.23	92.17	7.78	-44.1	-45.1	19.4	0.00e+00	0	40	0	159383552	59	4130
2026-01-21 07:08:56.26	91.87	8.07	-44.0	-45.1	19.5	0.00e+00	0	40	0	173015040	59	4118
2026-01-21 07:09:00.29	91.56	8.36	-44.3	-45.3	19.3	0.00e+00	0	40	0	185597952	59	4239
2026-01-21 07:09:04.33	91.25	8.66	-44.1	-45.1	19.6	0.00e+00	0	40	0	198180864	59	4127
2026-01-21 07:09:08.36	90.93	8.95	-43.8	-44.9	19.8	0.00e+00	0	40	0	210763776	58	4247
2026-01-21 07:09:12.40	90.60	9.25	-43.5	-44.5	20.1	0.00e+00	0	40	0	223346688	58	4091
2026-01-21 07:09:16.43	90.27	9.55	-43.6	-44.6	20.0	0.00e+00	0	40	0	235929600	58	4134
2026-01-21 07:09:20.47	89.92	9.86	-43.5	-44.5	20.2	0.00e+00	0	40	0	248512512	58	4071
2026-01-21 07:09:24.50	89.58	10.16	-43.4	-44.4	20.2	0.00e+00	0	40	0	261095424	58	4040
2026-01-21 07:09:28.53	89.22	10.47	-43.2	-44.1	20.5	0.00e+00	0	40	0	273678336	58	3911
2026-01-21 07:09:32.56	88.85	10.79	-43.2	-44.1	20.6	0.00e+00	0	40	0	286261248	58	3885
2026-01-21 07:09:36.59	88.48	11.10	-43.1	-44.0	20.7	0.00e+00	0	40	0	298844160	58	3836
2026-01-21 07:09:40.63	88.10	11.42	-43.0	-43.9	20.7	0.00e+00	0	40	0	311427072	58	3812
2026-01-21 07:09:44.66	87.71	11.74	-43.0	-43.9	20.8	0.00e+00	0	40	0	324009984	57	4040
2026-01-21 07:09:48.69	87.31	12.06	-42.8	-43.7	20.9	0.00e+00	0	40	0	336592896	57	3950
2026-01-21 07:09:52.71	86.90	12.39	-42.9	-43.8	20.9	0.00e+00	0	40	0	349175808	57	3993
2026-01-21 07:09:56.74	86.49	12.72	-42.8	-43.7	21.0	0.00e+00	0	39	0	361758720	57	3948
2026-01-21 07:10:00.77	86.06	13.05	-42.7	-43.6	21.1	0.00e+00	0	40	0	374341632	57	3887
2026-01-21 07:10:04.81	85.62	13.39	-42.7	-43.5	21.2	0.00e+00	0	40	0	386924544	57	3863
2026-01-21 07:10:08.84	85.17	13.72	-42.7	-43.6	21.1	0.00e+00	0	40	0	399507456	57	3908
2026-01-21 07:10:12.87	84.71	14.07	-42.8	-43.7	21.1	0.00e+00	0	40	0	412090368	57	3916
2026-01-21 07:10:16.90	84.25	14.41	-42.8	-43.7	21.1	0.00e+00	0	40	0	424673280	57	3923
2026-01-21 07:10:20.93	83.77	14.76	-42.7	-43.6	21.2	0.00e+00	0	40	0	437256192	57	3896
2026-01-21 07:10:24.96	83.27	15.11	-42.5	-43.4	21.4	0.00e+00	0	40	0	449839104	57	3793
2026-01-21 07:10:28.98	82.77	15.46	-42.7	-43.5	21.3	0.00e+00	0	40	0	462422016	57	3866
2026-01-21 07:10:33.01	82.25	15.81	-42.7	-43.6	21.2	0.00e+00	0	40	0	475004928	57	3894
2026-01-21 07:10:37.04	81.73	16.17	-42.7	-43.5	21.3	0.00e+00	0	40	0	487587840	57	3861
2026-01-21 07:10:41.07	81.18	16.53	-42.8	-43.7	21.2	0.00e+00	0	40	0	500170752	57	3917
2026-01-21 07:10:45.10	80.63	16.89	-42.8	-43.7	21.2	0.00e+00	0	40	0	512753664	57	3929
2026-01-21 07:10:49.13	80.06	17.26	-42.9	-43.8	21.1	0.00e+00	0	40	0	525336576	57	3988
2026-01-21 07:10:53.16	79.48	17.63	-42.8	-43.6	21.3	0.00e+00	0	40	0	537919488	57	3908
2026-01-21 07:10:57.19	78.88	18.00	-42.6	-43.5	21.4	0.00e+00	0	40	0	550502400	56	4063
2026-01-21 07:11:01.22	78.26	18.37	-42.6	-43.4	21.4	0.00e+00	0	40	0	563085312	56	4037
2026-01-21 07:11:05.25	77.63	18.75	-42.5	-43.3	21.6	0.00e+00	0	40	0	575668224	56	3985
2026-01-21 07:11:09.28	76.99	19.12	-42.3	-43.1	21.7	0.00e+00	0	40	0	588251136	56	3904
2026-01-21 07:11:13.31	76.33	19.50	-42.3	-43.1	21.7	0.00e+00	0	40	0	600834048	56	3905
2026-01-21 07:11:17.35	75.65	19.88	-42.2	-43.0	21.9	0.00e+00	0	40	0	613416960	56	3861
2026-01-21 07:11:21.38	74.95	20.27	-41.8	-42.6	22.2	0.00e+00	0	40	0	625999872	55	3887
2026-01-21 07:11:25.41	74.24	20.65	-41.6	-42.4	22.4	0.00e+00	0	40	0	638582784	55	3781
2026-01-21 07:11:29.45	73.51	21.03	-41.6	-42.4	22.4	0.00e+00	0	40	0	651165696	55	3787
2026-01-21 07:11:33.48	72.76	21.42	-41.6	-42.4	22.4	0.00e+00	0	40	0	663748608	55	3817
2026-01-21 07:11:37.51	71.99	21.80	-41.6	-42.4	22.4	0.00e+00	0	40	0	676331520	55	3781
2026-01-21 07:11:41.54	71.20	22.19	-41.9	-42.7	22.1	0.00e+00	0	40	0	688914432	55	3942
2026-01-21 07:11:45.57	70.39	22.58	-41.6	-42.4	22.4	0.00e+00	0	40	0	701497344	55	3810
2026-01-21 07:11:49.60	69.56	22.96	-41.7	-42.5	22.2	0.00e+00	0	40	0	714080256	55	3826
2026-01-21 07:11:53.63	68.71	23.34	-41.8	-42.6	22.3	0.00e+00	0	40	0	726663168	55	3893
2026-01-21 07:11:57.67	67.83	23.73	-41.3	-42.1	22.7	0.00e+00	0	40	0	739246080	54	3873
2026-01-21 07:12:01.70	66.94	24.11	-41.5	-42.3	22.5	0.00e+00	0	40	0	751828992	54	3980
2026-01-21 07:12:05.73	66.03	24.49	-41.6	-42.4	22.3	0.00e+00	0	40	0	764411904	54	4039
2026-01-21 07:12:09.76	65.09	24.86	-41.9	-42.7	22.1	0.00e+00	0	40	0	776994816	54	4167
2026-01-21 07:12:13.80	64.12	25.23	-42.3	-43.2	21.8	0.00e+00	0	40	0	789577728	55	4154
2026-01-21 07:12:17.83	63.14	25.60	-42.0	-42.9	22.1	0.00e+00	0	40	0	802160640	55	4008
2026-01-21 07:12:21.86	62.13	25.97	-41.7	-42.5	22.4	0.00e+00	0	40	0	814743552	55	3861
2026-01-21 07:12:25.89	61.10	26.32	-42.0	-42.8	22.0	0.00e+00	0	40	0	827326464	55	4001
2026-01-21 07:12:29.93	60.05	26.68	-42.1	-43.0	22.0	0.00e+00	0	40	0	839909376	55	4053
2026-01-21 07:12:33.96	58.97	27.02	-42.4	-43.2	21.8	0.00e+00	0	40	0	852492288	55	4169
2026-01-21 07:12:37.99	57.87	27.36	-42.2	-43.1	21.9	0.00e+00	0	40	0	865075200	55	4100
2026-01-21 07:12:42.02	56.75	27.69	-42.1	-42.9	22.1	0.00e+00	0	40	0	877658112	55	4026
2026-01-21 07:12:46.06	55.60	28.02	-42.2	-43.0	22.1	0.00e+00	0	40	0	891289600	55	4069
2026-01-21 07:12:50.09	54.42	28.33	-42.5	-43.3	21.7	0.00e+00	0	40	0	902823936	55	4218
2026-01-21 07:12:54.12	53.23	28.63	-42.4	-43.2	21.8	0.00e+00	0	40	0	915406848	55	4170
2026-01-21 07:12:58.15	52.01	28.92	-42.4	-43.3	21.8	0.00e+00	0	40	0	929038336	55	4207
2026-01-21 07:13:02.18	50.78	29.20	-42.1	-42.9	22.1	0.00e+00	0	40	0	941621248	55	4037
2026-01-21 07:13:06.22	49.51	29.47	-42.5	-43.3	21.7	0.00e+00	0	40	0	953155584	55	4230
2026-01-21 07:13:10.25	48.23	29.73	-42.6	-43.5	21.6	0.00e+00	0	40	0	966787072	55	4315
2026-01-21 07:13:14.28	46.93	29.97	-42.7	-43.5	21.7	0.00e+00	0	40	0	979369984	56	4073
2026-01-21 07:13:18.31	45.62	30.19	-42.8	-43.6	21.6	0.00e+00	0	40	0	991952896	56	4136
2026-01-21 07:13:22.35	44.28	30.40	-42.8	-43.6	21.5	0.00e+00	0	40	0	1004535808	56	4142
2026-01-21 07:13:26.38	42.92	30.59	-42.7	-43.5	21.7	0.00e+00	0	40	0	1017118720	56	4084
2026-01-21 07:13:30.41	41.55	30.77	-43.1	-43.9	21.3	0.00e+00	0	40	0	1029701632	56	4289
2026-01-21 07:13:34.44	40.17	30.92	-43.0	-43.9	21.4	0.00e+00	0	40	0	1042284544	57	4011
2026-01-21 07:13:38.47	38.77	31.06	-42.9	-43.7	21.5	0.00e+00	0	40	0	1054867456	57	3957
2026-01-21 07:13:42.50	37.37	31.18	-42.6	-43.5	21.7	0.00e+00	0	40	0	1067450368	57	3834
2026-01-21 07:13:46.53	35.95	31.29	-42.8	-43.7	21.6	0.00e+00	0	40	0	1080033280	57	3922
2026-01-21 07:13:50.56	34.53	31.37	-43.0	-43.9	21.4	0.00e+00	0	40	0	1092616192	57	4015
2026-01-21 07:13:54.60	33.09	31.43	-43.1	-44.0	21.3	0.00e+00	0	40	0	1105199104	57	4079
2026-01-21 07:13:58.63	31.66	31.47	-43.3	-44.2	21.2	0.00e+00	0	40	0	1117782016	57	4168
2026-01-21 07:14:02.66	30.22	31.49	-42.9	-43.7	21.6	0.00e+00	0	40	0	1130364928	57	3951
2026-01-21 07:14:06.69	28.78	31.49	-43.2	-44.1	21.3	0.00e+00	0	40	0	1142947840	57	4118
2026-01-21 07:14:10.72	27.34	31.47	-43.1	-44.0	21.3	0.00e+00	0	40	0	1155530752	57	4089
2026-01-21 07:14:14.75	25.90	31.43	-42.7	-43.6	21.7	0.00e+00	0	40	0	1168113664	57	3873
2026-01-21 07:14:18.79	24.47	31.37	-42.5	-43.3	21.8	0.00e+00	0	40	0	1180696576	56	3990
2026-01-21 07:14:22.82	23.04	31.29	-42.7	-43.5	21.7	0.00e+00	0	40	0	1193279488	56	4095
2026-01-21 07:14:26.85	21.63	31.19	-42.6	-43.5	21.7	0.00e+00	0	40	0	1205862400	56	4061
2026-01-21 07:14:30.88	20.22	31.07	-42.7	-43.5	21.7	0.00e+00	0	40	0	1218445312	56	4096
2026-01-21 07:14:34.91	18.82	30.93	-42.7	-43.5	21.8	0.00e+00	0	40	0	1231028224	56	4064
2026-01-21 07:14:38.95	17.44	30.78	-43.1	-44.0	21.3	0.00e+00	0	40	0	1243611136	56	4311
2026-01-21 07:14:42.98	16.07	30.60	-43.2	-44.1	21.2	0.00e+00	0	40	0	1256194048	57	4132
2026-01-21 07:14:47.01	14.72	30.41	-42.5	-43.3	21.8	0.00e+00	0	40	0	1268776960	57	3765
2026-01-21 07:14:51.04	13.38	30.21	-42.5	-43.4	21.8	0.00e+00	0	40	0	1281359872	56	4017
2026-01-21 07:14:55.07	12.06	29.98	-42.7	-43.5	21.5	0.00e+00	0	40	0	1293942784	56	4097
2026-01-21 07:14:59.10	10.76	29.74	-42.5	-43.3	21.8	0.00e+00	0	40	0	1306525696	56	4003
2026-01-21 07:15:03.13	9.48	29.49	-42.8	-43.6	21.6	0.00e+00	0	40	0	1319108608	56	4134
2026-01-21 07:15:07.17	8.22	29.22	-42.1	-42.9	22.2	0.00e+00	0	40	0	1331691520	56	3820
2026-01-21 07:15:11.20	6.98	28.95	-42.5	-43.4	21.8	0.00e+00	0	40	0	1344274432	56	4013
2026-01-21 07:15:15.23	5.76	28.66	-42.3	-43.1	22.0	0.00e+00	0	40	0	1356857344	56	3880
2026-01-21 07:15:19.26	4.57	28.35	-41.7	-42.5	22.5	0.00e+00	0	40	0	1369440256	55	3850
2026-01-21 07:15:23.29	3.40	28.04	-42.0	-42.8	22.1	0.00e+00	0	40	0	1382023168	55	3990
2026-01-21 07:15:27.32	2.25	27.72	-42.2	-43.0	22.0	0.00e+00	0	40	0	1394606080	55	4084
2026-01-21 07:15:31.35	1.13	27.39	-42.5	-43.3	21.8	0.00e+00	0	40	0	1407188992	55	4238
2026-01-21 07:15:35.38	0.03	27.05	-41.5	-42.3	22.7	0.00e+00	0	40	0	1419771904	55	3750
2026-01-21 07:15:39.42	358.95	26.71	-41.8	-42.6	22.4	0.00e+00	0	40	0	1432354816	54	4099
2026-01-21 07:15:43.45	357.89	26.36	-41.2	-42.0	22.7	0.00e+00	0	40	0	1444937728	54	3828
2026-01-21 07:15:47.48	356.86	26.00	-41.9	-42.7	22.3	0.00e+00	0	40	0	1457520640	54	4151
2026-01-21 07:15:51.51	355.86	25.64	-42.1	-42.9	21.9	0.00e+00	0	40	0	1470103552	55	4038
2026-01-21 07:15:55.54	354.87	25.27	-42.0	-42.8	22.1	0.00e+00	0	40	0	1482686464	55	3965
2026-01-21 07:15:59.57	353.91	24.90	-42.5	-43.4	21.6	0.00e+00	0	40	0	1495269376	55	4244
2026-01-21 07:16:03.60	352.98	24.52	-42.3	-43.2	21.8	0.00e+00	0	40	0	1507852288	55	4154
2026-01-21 07:16:07.64	352.06	24.15	-41.9	-42.7	22.2	0.00e+00	0	40	0	1520435200	55	3915
2026-01-21 07:16:11.66	351.17	23.77	-42.0	-42.8	22.2	0.00e+00	0	40	0	1533018112	55	3967
2026-01-21 07:16:15.70	350.29	23.38	-42.2	-43.0	22.0	0.00e+00	0	40	0	1545601024	55	4064
2026-01-21 07:16:19.73	349.44	23.00	-42.2	-43.1	21.9	0.00e+00	0	40	0	1558183936	55	4108
2026-01-21 07:16:23.76	348.61	22.62	-42.0	-42.9	22.0	0.00e+00	0	40	0	1570766848	55	4009
2026-01-21 07:16:27.79	347.81	22.23	-42.3	-43.1	21.9	0.00e+00	0	40	0	1583349760	55	4125
2026-01-21 07:16:31.82	347.02	21.85	-42.0	-42.8	22.2	0.00e+00	0	40	0	1595932672	55	3977
2026-01-21 07:16:35.85	346.25	21.46	-41.9	-42.7	22.2	0.00e+00	0	40	0	1608515584	55	3948
2026-01-21 07:16:39.89	345.50	21.08	-41.7	-42.5	22.3	0.00e+00	0	40	0	1621098496	55	3854
2026-01-21 07:16:43.91	344.77	20.70	-41.7	-42.5	22.3	0.00e+00	0	40	0	1633681408	55	3857
2026-01-21 07:16:47.95	344.05	20.31	-41.9	-42.7	22.2	0.00e+00	0	40	0	1646264320	55	3942
2026-01-21 07:16:51.98	343.36	19.93	-42.1	-43.0	21.9	0.00e+00	0	40	0	1658847232	55	4060
2026-01-21 07:16:56.01	342.68	19.55	-41.8	-42.6	22.2	0.00e+00	0	40	0	1671430144	55	3910
2026-01-21 07:17:00.04	342.02	19.17	-41.9	-42.7	22.1	0.00e+00	0	40	0	1685061632	55	3938
2026-01-21 07:17:04.07	341.37	18.80	-42.5	-43.4	21.4	0.00e+00	0	40	0	1696595968	55	4267
2026-01-21 07:17:08.10	340.75	18.42	-42.2	-43.0	21.7	0.00e+00	0	40	0	1709178880	55	4079
2026-01-21 07:17:12.13	340.13	18.05	-42.3	-43.2	21.7	0.00e+00	0	40	0	1721761792	55	4148
2026-01-21 07:17:16.16	339.54	17.68	-42.4	-43.2	21.6	0.00e+00	0	40	0	1734344704	55	4183
2026-01-21 07:17:20.19	338.95	17.31	-42.4	-43.3	21.4	0.00e+00	0	40	0	1746927616	55	4215
2026-01-21 07:17:24.22	338.38	16.95	-42.3	-43.1	21.6	0.00e+00	0	40	0	1759510528	55	4137
2026-01-21 07:17:28.25	337.83	16.58	-42.2	-43.0	21.7	0.00e+00	0	40	0	1773142016	55	4097
2026-01-21 07:17:32.28	337.29	16.22	-42.4	-43.3	21.5	0.00e+00	0	40	0	1784676352	55	4219
2026-01-21 07:17:36.31	336.76	15.87	-42.6	-43.5	21.3	0.00e+00	0	40	0	1797259264	55	4324
2026-01-21 07:17:40.34	336.24	15.51	-42.4	-43.2	21.5	0.00e+00	0	40	0	1810890752	55	4187
2026-01-21 07:17:44.37	335.74	15.16	-42.2	-43.0	21.7	0.00e+00	0	40	0	1823473664	55	4095
2026-01-21 07:17:48.41	335.25	14.81	-42.5	-43.3	21.4	0.00e+00	0	40	0	1835008000	55	4237
2026-01-21 07:17:52.44	334.77	14.46	-42.7	-43.6	21.3	0.00e+00	0	40	0	1848639488	55	4356
2026-01-21 07:17:56.46	334.30	14.12	-42.9	-43.8	21.1	0.00e+00	0	40	0	1861222400	56	4204
2026-01-21 07:18:00.50	333.84	13.78	-42.8	-43.7	21.2	0.00e+00	0	40	0	1873805312	56	4156
2026-01-21 07:18:04.53	333.40	13.44	-42.9	-43.8	21.0	0.00e+00	0	40	0	1885339648	56	4232
2026-01-21 07:18:08.56	332.96	13.11	-43.1	-44.0	20.9	0.00e+00	0	40	0	1898971136	56	4310
2026-01-21 07:18:12.60	332.53	12.78	-43.5	-44.5	20.5	0.00e+00	0	40	0	1911554048	57	4292
2026-01-21 07:18:16.63	332.12	12.45	-43.6	-44.6	20.3	0.00e+00	0	40	0	1923088384	57	4377
2026-01-21 07:18:20.66	331.71	12.12	-43.9	-44.9	20.0	0.00e+00	0	40	0	1936719872	58	4254
2026-01-21 07:18:24.69	331.31	11.80	-43.9	-44.9	20.0	0.00e+00	0	40	0	1949302784	58	4257
2026-01-21 07:18:28.72	330.92	11.48	-43.6	-44.6	20.2	0.00e+00	0	40	0	1961885696	58	4141
2026-01-21 07:18:32.75	330.54	11.16	-43.5	-44.4	20.4	0.00e+00	0	40	0	1974468608	58	4048
2026-01-21 07:18:36.78	330.17	10.84	-43.9	-44.9	20.0	0.00e+00	0	40	0	1987051520	58	4256
2026-01-21 07:18:40.81	329.81	10.53	-44.2	-45.2	19.7	0.00e+00	0	40	0	1999634432	58	4429
2026-01-21 07:18:44.84	329.45	10.22	-44.3	-45.4	19.5	0.00e+00	0	40	0	2012217344	59	4258
2026-01-21 07:18:48.87	329.10	9.92	-44.4	-45.5	19.3	0.00e+00	0	39	0	2024800256	59	4324
2026-01-21 07:18:52.90	328.76	9.61	-44.2	-45.3	19.5	0.00e+00	0	40	0	2037383168	59	4223
2026-01-21 07:18:56.93	328.43	9.31	-43.9	-44.9	19.8	0.00e+00	0	40	0	2049966080	59	4044
2026-01-21 07:19:00.96	328.10	9.01	-44.1	-45.2	19.6	0.00e+00	0	40	0	2062548992	59	4148
2026-01-21 07:19:05.00	327.78	8.72	-43.9	-45.0	19.8	0.00e+00	0	40	0	2075131904	59	4057
2026-01-21 07:19:09.03	327.47	8.42	-44.2	-45.3	19.5	0.00e+00	0	40	0	2087714816	59	4217
2026-01-21 07:19:13.06	327.16	8.13	-44.3	-45.4	19.3	0.00e+00	0	40	0	2100297728	59	4265
2026-01-21 07:19:17.09	326.86	7.85	-44.5	-45.6	19.1	0.00e+00	0	40	0	2112880640	59	4355
2026-01-21 07:19:21.13	326.57	7.56	-44.5	-45.6	19.0	0.00e+00	0	40	0	2125463552	59	4370
2026-01-21 07:19:25.16	326.28	7.28	-44.2	-45.3	19.3	0.00e+00	0	40	0	2138046464	59	4225
2026-01-21 07:19:29.19	326.00	7.00	-44.4	-45.6	19.0	0.00e+00	0	40	0	2150629376	59	4342
2026-01-21 07:19:33.22	325.72	6.72	-44.4	-45.5	19.1	0.00e+00	0	40	0	2163212288	59	4316
2026-01-21 07:19:37.25	325.45	6.44	-44.4	-45.5	19.1	0.00e+00	0	40	0	2175795200	59	4311
2026-01-21 07:19:41.28	325.19	6.17	-44.6	-45.8	18.5	0.00e+00	0	40	0	2188378112	60	4196
2026-01-21 07:19:45.31	324.93	5.90	-44.5	-45.7	18.5	0.00e+00	0	40	0	2200961024	60	4157
2026-01-21 07:19:49.34	324.67	5.63	-44.5	-45.7	18.5	0.00e+00	0	40	0	2213543936	60	4167
2026-01-21 07:19:53.37	324.42	5.36	-44.8	-46.1	18.0	0.00e+00	0	40	0	2226126848	60	4364
2026-01-21 07:19:57.40	324.18	5.09	-45.1	-46.5	17.7	0.00e+00	0	40	0	2238709760	61	4297
2026-01-21 07:20:01.43	323.94	4.83	-53.1	-65.9	3.8	1.49e+00	0	40	104	2242904064	76	16943
2026-01-21 07:20:05.47	323.70	4.57	-53.2	-66.0	3.8	1.49e+00	0	40	104	2242904064	77	16212
2026-01-21 07:20:09.50	323.47	4.31	-53.2	-65.9	3.8	1.49e+00	0	40	104	2242904064	77	16094
2026-01-21 07:20:13.53	323.24	4.05	-53.3	-66.1	3.8	1.49e+00	0	40	104	2242904064	77	16435
2026-01-21 07:20:17.56	323.02	3.80	-53.4	-66.2	3.8	1.49e+00	0	40	104	2242904064	77	16568
2026-01-21 07:20:21.59	322.80	3.55	-53.4	-66.2	3.8	1.49e+00	0	40	104	2242904064	77	16543
2026-01-21 07:20:25.63	322.58	3.30	-53.4	-66.1	3.8	1.49e+00	0	40	104	2242904064	77	16433
2026-01-21 07:20:29.67	322.37	3.05	-53.4	-66.1	3.8	1.49e+00	0	40	104	2242904064	77	16474
2026-01-21 07:20:33.70	322.16	2.80	-53.3	-66.1	3.8	1.49e+00	0	40	104	2242904064	77	16461
2026-01-21 07:20:37.73	321.96	2.55	-53.3	-66.1	3.8	1.49e+00	0	40	104	2242904064	77	16415
2026-01-21 07:20:41.76	321.76	2.31	-53.3	-66.1	3.8	1.49e+00	0	40	104	2242904064	77	16390
2026-01-21 07:20:45.79	321.56	2.07	-53.3	-66.1	3.8	1.49e+00	0	40	104	2242904064	77	16397
2026-01-21 07:20:49.83	321.37	1.83	-53.3	-66.1	3.8	1.49e+00	0	40	104	2242904064	77	16403

#Closed at: 2026-01-21 07:20:49
#Recorded file [2242 MB]: D:/lorett/data/31041_260121_100723.dat