passes_logs/2026/01/21/R3.2S_Murmansk/R3.2S_Murmansk__20260121_120913_NOAA_21_JPSS-2_rec.log

#Pass ID: 20260121_120913_NOAA 21 (JPSS-2)
#Satellite: NOAA 21 (JPSS-2)
#Configuration: NOAA-21
#almurnet v.1.7.20251203
#Start time: 2026-01-21 12:09:13

#Version: 2.2.20231116
#Station: R3.2S_Murmansk
#Location: 33.079688 lon 68.888172 lat
#TLE: 1 54234U 22150A   26020.93347024  .00000206  00000+0  11859-3 0  9994
#TLE: 2 54234  98.7506 321.7615 0000627 245.8100 114.3011 14.19536899165654

#Time	Az	El	Level	Level2	SNR	BER	BlckErr	Temp	State	Recorded	gain1	gain2
2026-01-21 12:09:13.20	218.62	2.00	-50.4	-63.0	3.8	1.49e+00	0	40	0	0	71	16213
2026-01-21 12:09:16.22	218.85	2.16	-50.4	-63.1	3.8	1.49e+00	0	40	104	0	71	16445
2026-01-21 12:09:19.25	219.09	2.32	-50.4	-63.1	3.8	1.49e+00	0	40	104	0	71	16447
2026-01-21 12:09:22.27	219.32	2.48	-50.4	-63.1	3.8	1.49e+00	0	40	104	0	71	16440
2026-01-21 12:09:25.29	219.56	2.65	-50.4	-63.1	3.8	1.49e+00	0	40	104	0	71	16445
2026-01-21 12:09:28.31	219.81	2.81	-50.4	-63.1	3.8	1.49e+00	0	40	104	0	71	16498
2026-01-21 12:09:31.34	220.05	2.97	-50.4	-63.1	3.8	1.49e+00	0	40	104	0	71	16485
2026-01-21 12:09:34.36	220.30	3.14	-50.4	-63.2	3.8	1.49e+00	0	40	104	0	71	16537
2026-01-21 12:09:37.39	220.55	3.30	-50.4	-63.1	3.8	1.49e+00	0	40	104	0	71	16487
2026-01-21 12:09:40.41	220.81	3.47	-50.4	-63.2	3.8	1.49e+00	0	40	104	0	71	16555
2026-01-21 12:09:43.43	221.06	3.63	-50.4	-63.2	3.8	1.49e+00	0	40	104	0	71	16520
2026-01-21 12:09:46.45	221.32	3.80	-50.4	-63.2	3.8	1.49e+00	0	40	104	0	71	16525
2026-01-21 12:09:49.48	221.58	3.97	-50.4	-63.2	3.8	1.49e+00	0	40	104	0	71	16523
2026-01-21 12:09:52.50	221.85	4.14	-50.4	-63.2	3.8	1.49e+00	0	40	104	0	71	16528
2026-01-21 12:09:55.52	222.11	4.30	-50.4	-63.1	3.8	1.49e+00	0	40	104	0	71	16484
2026-01-21 12:09:58.55	222.39	4.47	-50.4	-63.1	3.8	1.49e+00	0	40	104	0	71	16464
2026-01-21 12:10:01.58	222.66	4.64	-50.4	-63.1	3.8	1.49e+00	0	40	104	0	71	16502
2026-01-21 12:10:04.60	222.94	4.81	-50.4	-63.1	3.8	1.49e+00	0	40	104	0	71	16477
2026-01-21 12:10:07.62	223.22	4.98	-50.4	-63.2	3.8	1.49e+00	0	40	104	0	71	16566
2026-01-21 12:10:10.65	223.50	5.15	-50.4	-63.1	3.8	1.49e+00	0	40	104	0	71	16482
2026-01-21 12:10:13.67	223.78	5.33	-50.4	-63.2	3.8	1.49e+00	0	40	104	0	71	16516
2026-01-21 12:10:16.70	224.07	5.50	-50.4	-63.2	3.8	1.49e+00	0	40	104	0	71	16535
2026-01-21 12:10:19.72	224.37	5.67	-50.4	-63.1	3.8	1.49e+00	0	40	104	0	71	16465
2026-01-21 12:10:22.75	224.66	5.84	-50.4	-63.1	3.8	1.49e+00	0	40	104	0	71	16494
2026-01-21 12:10:25.77	224.96	6.02	-50.4	-63.1	3.8	1.49e+00	0	40	104	0	71	16500
2026-01-21 12:10:28.79	225.26	6.19	-50.4	-63.1	3.8	1.49e+00	0	40	104	0	71	16467
2026-01-21 12:10:31.81	225.57	6.37	-50.4	-63.1	3.8	1.49e+00	0	40	104	0	71	16494
2026-01-21 12:10:34.84	225.88	6.54	-50.4	-63.1	3.8	1.49e+00	0	40	104	0	71	16411
2026-01-21 12:10:37.86	226.19	6.72	-50.4	-63.1	3.8	1.49e+00	0	40	104	0	71	16470
2026-01-21 12:10:40.89	226.51	6.89	-50.4	-63.1	3.8	1.49e+00	0	40	104	0	71	16454
2026-01-21 12:10:43.91	226.83	7.07	-50.4	-63.2	3.8	1.49e+00	0	40	104	0	71	16514
2026-01-21 12:10:46.93	227.15	7.25	-50.4	-63.1	3.8	1.49e+00	0	40	104	0	71	16496
2026-01-21 12:10:49.96	227.48	7.43	-50.4	-63.1	3.8	1.49e+00	0	40	104	0	71	16463
2026-01-21 12:10:52.98	227.81	7.60	-50.4	-63.2	3.8	1.49e+00	0	40	104	0	71	16513
2026-01-21 12:10:56.00	228.15	7.78	-50.4	-63.1	3.8	1.49e+00	0	40	104	0	71	16448
2026-01-21 12:10:59.02	228.49	7.96	-50.4	-63.2	3.8	1.49e+00	0	40	104	0	71	16532
2026-01-21 12:11:02.05	228.83	8.14	-50.4	-63.1	3.8	1.49e+00	0	40	104	0	71	16465
2026-01-21 12:11:05.08	229.18	8.32	-50.4	-63.2	3.8	1.49e+00	0	40	104	0	71	16507
2026-01-21 12:11:08.11	229.54	8.50	-50.4	-63.2	3.8	1.49e+00	0	40	104	0	71	16507
2026-01-21 12:11:11.13	229.89	8.68	-50.4	-63.1	3.8	1.49e+00	0	40	104	0	71	16460
2026-01-21 12:11:14.15	230.25	8.86	-50.4	-63.1	3.8	1.49e+00	0	40	104	0	71	16496
2026-01-21 12:11:17.18	230.62	9.04	-50.4	-63.1	3.8	1.49e+00	0	40	104	0	71	16440
2026-01-21 12:11:20.20	230.99	9.22	-50.4	-63.1	3.8	1.49e+00	0	40	104	0	71	16489
2026-01-21 12:11:23.22	231.36	9.41	-50.4	-63.2	3.8	1.49e+00	0	40	104	0	71	16543
2026-01-21 12:11:26.25	231.74	9.59	-50.4	-63.1	3.8	1.49e+00	0	40	104	0	71	16467
2026-01-21 12:11:29.27	232.12	9.77	-50.4	-63.2	3.8	1.49e+00	0	40	104	0	71	16549
2026-01-21 12:11:32.29	232.51	9.95	-50.4	-63.2	3.8	1.49e+00	0	40	104	0	71	16520
2026-01-21 12:11:35.32	232.90	10.14	-50.4	-63.2	3.8	1.49e+00	0	40	104	0	71	16512
2026-01-21 12:11:38.34	233.30	10.32	-50.4	-63.1	3.8	1.49e+00	0	40	104	0	71	16498
2026-01-21 12:11:41.36	233.70	10.50	-50.4	-63.2	3.8	1.49e+00	0	40	104	0	71	16511
2026-01-21 12:11:44.39	234.10	10.69	-50.4	-63.1	3.8	1.49e+00	0	40	104	0	71	16486
2026-01-21 12:11:47.42	234.52	10.87	-50.4	-63.1	3.8	1.49e+00	0	40	104	0	71	16472
2026-01-21 12:11:50.44	234.93	11.05	-50.4	-63.2	3.8	1.49e+00	0	40	104	0	71	16510
2026-01-21 12:11:53.46	235.35	11.24	-50.4	-63.1	3.8	1.49e+00	0	40	104	0	71	16480
2026-01-21 12:11:56.49	235.78	11.42	-50.4	-63.1	3.8	1.49e+00	0	40	104	0	71	16474
2026-01-21 12:11:59.51	236.21	11.60	-50.4	-63.1	3.8	1.49e+00	0	40	104	0	71	16452
2026-01-21 12:12:02.54	236.65	11.79	-50.4	-63.1	3.8	1.49e+00	0	40	104	0	71	16488
2026-01-21 12:12:05.56	237.09	11.97	-50.4	-63.1	3.8	1.49e+00	0	40	104	0	71	16486
2026-01-21 12:12:08.59	237.54	12.15	-50.4	-63.2	3.8	1.49e+00	0	40	104	0	71	16522
2026-01-21 12:12:11.61	237.99	12.33	-50.4	-63.1	3.8	1.49e+00	0	40	104	0	71	16473
2026-01-21 12:12:14.63	238.45	12.52	-50.4	-63.1	3.8	1.49e+00	0	40	104	0	71	16456
2026-01-21 12:12:17.66	238.91	12.70	-50.4	-63.1	3.8	1.49e+00	0	40	104	0	71	16480
2026-01-21 12:12:20.68	239.38	12.88	-50.4	-63.1	3.8	1.49e+00	0	40	104	0	71	16440
2026-01-21 12:12:23.70	239.86	13.06	-50.4	-63.1	3.8	1.49e+00	0	40	104	0	71	16457
2026-01-21 12:12:26.73	240.34	13.24	-50.4	-63.2	3.8	1.49e+00	0	40	104	0	71	16507
2026-01-21 12:12:29.75	240.82	13.42	-50.4	-63.1	3.8	1.49e+00	0	40	104	0	71	16489
2026-01-21 12:12:32.77	241.32	13.60	-50.4	-63.1	3.8	1.49e+00	0	40	104	0	71	16483
2026-01-21 12:12:35.80	241.82	13.78	-50.4	-63.1	3.8	1.49e+00	0	40	104	0	71	16480
2026-01-21 12:12:38.82	242.32	13.96	-50.4	-63.1	3.8	1.49e+00	0	40	104	0	71	16440
2026-01-21 12:12:41.85	242.83	14.14	-50.4	-63.1	3.8	1.49e+00	0	40	104	0	71	16489
2026-01-21 12:12:44.87	243.34	14.32	-50.4	-63.1	3.8	1.49e+00	0	40	104	0	71	16434
2026-01-21 12:12:47.90	243.87	14.49	-50.4	-63.1	3.8	1.49e+00	0	40	104	0	71	16416
2026-01-21 12:12:50.92	244.39	14.67	-50.4	-63.1	3.8	1.49e+00	0	40	104	0	71	16453
2026-01-21 12:12:53.94	244.93	14.84	-50.4	-63.1	3.8	1.49e+00	0	40	104	0	71	16458
2026-01-21 12:12:56.97	245.47	15.02	-50.4	-63.1	3.8	1.49e+00	0	40	104	0	71	16488
2026-01-21 12:12:59.99	246.01	15.19	-50.4	-63.1	3.8	1.49e+00	0	40	104	0	71	16472
2026-01-21 12:13:03.01	246.56	15.36	-50.4	-63.1	3.8	1.49e+00	0	40	104	0	71	16473
2026-01-21 12:13:06.04	247.12	15.53	-50.4	-63.1	3.8	1.49e+00	0	40	104	0	71	16457
2026-01-21 12:13:09.06	247.68	15.70	-50.4	-63.1	3.8	1.49e+00	0	40	104	0	71	16476
2026-01-21 12:13:12.09	248.26	15.86	-50.4	-63.1	3.8	1.49e+00	0	40	104	0	71	16473
2026-01-21 12:13:15.11	248.83	16.03	-50.4	-63.1	3.8	1.49e+00	0	40	104	0	71	16482
2026-01-21 12:13:18.13	249.41	16.19	-50.4	-63.1	3.8	1.49e+00	0	40	104	0	71	16443
2026-01-21 12:13:21.16	250.00	16.35	-50.4	-63.1	3.8	1.49e+00	0	40	104	0	71	16452
2026-01-21 12:13:24.18	250.60	16.51	-50.4	-63.1	3.8	1.49e+00	0	40	104	0	71	16483
2026-01-21 12:13:27.21	251.20	16.67	-50.4	-63.1	3.8	1.49e+00	0	40	104	0	71	16467
2026-01-21 12:13:30.23	251.80	16.83	-50.4	-63.1	3.8	1.49e+00	0	40	104	0	71	16447
2026-01-21 12:13:33.25	252.42	16.98	-50.4	-63.1	3.8	1.49e+00	0	40	104	0	71	16470
2026-01-21 12:13:36.28	253.04	17.13	-50.4	-63.1	3.8	1.49e+00	0	40	104	0	71	16483
2026-01-21 12:13:39.30	253.66	17.28	-50.4	-63.1	3.8	1.49e+00	0	40	104	0	71	16471
2026-01-21 12:13:42.33	254.29	17.43	-50.4	-63.1	3.8	1.49e+00	0	40	104	0	71	16494
2026-01-21 12:13:45.35	254.93	17.57	-50.4	-63.1	3.8	1.49e+00	0	40	104	0	71	16459
2026-01-21 12:13:48.37	255.57	17.71	-50.4	-63.1	3.8	1.49e+00	0	40	104	0	71	16469
2026-01-21 12:13:51.39	256.22	17.85	-50.4	-63.1	3.8	1.49e+00	0	40	104	0	71	16441
2026-01-21 12:13:54.42	256.87	17.99	-50.4	-63.1	3.8	1.49e+00	0	40	104	0	71	16477
2026-01-21 12:13:57.44	257.53	18.12	-50.4	-63.1	3.8	1.49e+00	0	40	104	0	71	16474
2026-01-21 12:14:00.46	258.20	18.25	-50.4	-63.1	3.8	1.49e+00	0	40	104	0	71	16456
2026-01-21 12:14:03.49	258.87	18.38	-50.4	-63.1	3.8	1.49e+00	0	40	104	0	71	16482
2026-01-21 12:14:06.51	259.54	18.50	-50.4	-63.1	3.8	1.49e+00	0	40	104	0	71	16438
2026-01-21 12:14:09.54	260.23	18.62	-50.4	-63.1	3.8	1.49e+00	0	40	104	0	71	16457
2026-01-21 12:14:12.56	260.91	18.74	-50.4	-63.1	3.8	1.49e+00	0	40	104	0	71	16493
2026-01-21 12:14:15.58	261.60	18.86	-50.4	-63.2	3.8	1.49e+00	0	40	104	0	71	16550
2026-01-21 12:14:18.60	262.30	18.97	-50.4	-63.1	3.8	1.49e+00	0	40	104	0	71	16434
2026-01-21 12:14:21.63	263.00	19.07	-50.4	-63.1	3.8	1.49e+00	0	40	104	0	71	16488
2026-01-21 12:14:24.65	263.71	19.18	-50.4	-63.1	3.8	1.49e+00	0	40	104	0	71	16471
2026-01-21 12:14:27.68	264.42	19.28	-50.4	-63.1	3.8	1.49e+00	0	40	104	0	71	16462
2026-01-21 12:14:30.70	265.14	19.37	-50.4	-63.1	3.8	1.49e+00	0	40	104	0	71	16467
2026-01-21 12:14:33.72	265.85	19.46	-50.4	-63.1	3.8	1.49e+00	0	40	104	0	71	16460
2026-01-21 12:14:36.75	266.58	19.55	-50.4	-63.1	3.8	1.49e+00	0	40	104	0	71	16469
2026-01-21 12:14:39.77	267.31	19.63	-50.4	-63.2	3.8	1.49e+00	0	40	104	0	71	16506
2026-01-21 12:14:42.80	268.04	19.71	-50.4	-63.1	3.8	1.49e+00	0	40	104	0	71	16429
2026-01-21 12:14:45.82	268.77	19.78	-50.4	-63.1	3.8	1.49e+00	0	40	104	0	71	16488
2026-01-21 12:14:48.85	269.51	19.85	-50.4	-63.1	3.8	1.49e+00	0	40	104	0	71	16463
2026-01-21 12:14:51.87	270.25	19.92	-50.4	-63.1	3.8	1.49e+00	0	40	104	0	71	16446
2026-01-21 12:14:54.89	271.00	19.98	-50.4	-63.1	3.8	1.49e+00	0	40	104	0	71	16467
2026-01-21 12:14:57.92	271.74	20.03	-50.4	-63.1	3.8	1.49e+00	0	40	104	0	71	16467
2026-01-21 12:15:00.94	272.49	20.09	-50.4	-63.1	3.8	1.49e+00	0	40	104	0	71	16486
2026-01-21 12:15:03.96	273.24	20.13	-50.4	-63.1	3.8	1.49e+00	0	40	104	0	71	16469
2026-01-21 12:15:06.99	274.00	20.17	-50.4	-63.1	3.8	1.49e+00	0	40	104	0	71	16453
2026-01-21 12:15:10.02	274.75	20.21	-50.4	-63.1	3.8	1.49e+00	0	40	104	0	71	16469
2026-01-21 12:15:13.05	275.51	20.24	-50.4	-63.1	3.8	1.49e+00	0	40	104	0	71	16471
2026-01-21 12:15:16.07	276.27	20.27	-50.4	-63.1	3.8	1.49e+00	0	40	104	0	71	16469
2026-01-21 12:15:19.10	277.03	20.29	-50.4	-63.1	3.8	1.49e+00	0	40	104	0	71	16478
2026-01-21 12:15:22.13	277.79	20.31	-50.4	-63.1	3.8	1.49e+00	0	40	104	0	71	16442
2026-01-21 12:15:25.14	278.55	20.32	-50.4	-63.2	3.8	1.49e+00	0	40	104	0	71	16509
2026-01-21 12:15:28.17	279.32	20.33	-50.4	-63.1	3.8	1.49e+00	0	40	104	0	71	16465
2026-01-21 12:15:31.19	280.08	20.33	-50.4	-63.1	3.8	1.49e+00	0	40	104	0	71	16462
2026-01-21 12:15:34.22	280.84	20.33	-50.4	-63.1	3.8	1.49e+00	0	40	104	0	71	16497
2026-01-21 12:15:37.24	281.60	20.32	-50.4	-63.1	3.8	1.49e+00	0	40	104	0	71	16470
2026-01-21 12:15:40.26	282.36	20.31	-50.4	-63.1	3.8	1.49e+00	0	40	104	0	71	16497
2026-01-21 12:15:43.29	283.12	20.29	-50.4	-63.1	3.8	1.49e+00	0	40	104	0	71	16458
2026-01-21 12:15:46.31	283.88	20.27	-50.4	-63.1	3.8	1.49e+00	0	40	104	0	71	16406
2026-01-21 12:15:49.33	284.64	20.24	-50.4	-63.1	3.8	1.49e+00	0	40	104	0	71	16469
2026-01-21 12:15:52.36	285.39	20.21	-50.4	-63.1	3.8	1.49e+00	0	40	104	0	71	16454
2026-01-21 12:15:55.38	286.15	20.17	-50.4	-63.1	3.8	1.49e+00	0	40	104	0	71	16452
2026-01-21 12:15:58.41	286.90	20.13	-50.4	-63.1	3.8	1.49e+00	0	40	104	0	71	16458
2026-01-21 12:16:01.43	287.65	20.08	-50.4	-63.1	3.8	1.49e+00	0	40	104	0	71	16460
2026-01-21 12:16:04.46	288.40	20.03	-50.4	-63.1	3.8	1.49e+00	0	40	104	0	71	16451
2026-01-21 12:16:07.49	289.15	19.97	-50.4	-63.1	3.8	1.49e+00	0	40	104	0	71	16450
2026-01-21 12:16:10.51	289.89	19.91	-50.4	-63.1	3.8	1.49e+00	0	40	104	0	71	16428
2026-01-21 12:16:13.53	290.63	19.84	-50.4	-63.1	3.8	1.49e+00	0	40	104	0	71	16464
2026-01-21 12:16:16.56	291.37	19.77	-50.4	-63.1	3.8	1.49e+00	0	40	104	0	71	16434
2026-01-21 12:16:19.58	292.10	19.70	-50.4	-63.1	3.8	1.49e+00	0	40	104	0	71	16409
2026-01-21 12:16:22.61	292.83	19.62	-50.4	-63.1	3.8	1.49e+00	0	40	104	0	71	16430
2026-01-21 12:16:25.63	293.55	19.54	-50.4	-63.1	3.8	1.49e+00	0	40	104	0	71	16423
2026-01-21 12:16:28.65	294.27	19.45	-50.4	-63.1	3.8	1.49e+00	0	40	104	0	71	16453
2026-01-21 12:16:31.67	294.99	19.36	-50.4	-63.1	3.8	1.49e+00	0	40	104	0	71	16404
2026-01-21 12:16:34.70	295.70	19.26	-50.4	-63.1	3.8	1.49e+00	0	40	104	0	71	16438
2026-01-21 12:16:37.72	296.41	19.16	-50.4	-63.1	3.8	1.49e+00	0	40	104	0	71	16446
2026-01-21 12:16:40.74	297.11	19.06	-50.4	-63.1	3.8	1.49e+00	0	40	104	0	71	16386
2026-01-21 12:16:43.76	297.81	18.95	-50.4	-63.1	3.8	1.49e+00	0	40	104	0	71	16426
2026-01-21 12:16:46.79	298.51	18.84	-50.4	-63.1	3.8	1.49e+00	0	40	104	0	71	16441
2026-01-21 12:16:49.81	299.20	18.73	-50.4	-63.2	3.8	1.49e+00	0	40	104	0	71	16508
2026-01-21 12:16:52.84	299.88	18.61	-50.4	-63.1	3.8	1.49e+00	0	40	104	0	71	16437
2026-01-21 12:16:55.86	300.56	18.49	-50.4	-63.1	3.8	1.49e+00	0	40	104	0	71	16451
2026-01-21 12:16:58.89	301.24	18.37	-50.4	-63.1	3.8	1.49e+00	0	40	104	0	71	16458
2026-01-21 12:17:01.91	301.90	18.24	-50.4	-63.1	3.8	1.49e+00	0	40	104	0	71	16422
2026-01-21 12:17:04.94	302.57	18.11	-50.4	-63.1	3.8	1.49e+00	0	40	104	0	71	16440
2026-01-21 12:17:07.96	303.22	17.97	-50.4	-63.1	3.8	1.49e+00	0	40	104	0	71	16482
2026-01-21 12:17:10.99	303.88	17.84	-50.4	-63.1	3.8	1.49e+00	0	40	104	0	71	16455
2026-01-21 12:17:14.01	304.52	17.70	-50.4	-63.1	3.8	1.49e+00	0	40	104	0	71	16447
2026-01-21 12:17:17.03	305.16	17.56	-50.4	-63.1	3.8	1.49e+00	0	40	104	0	71	16447
2026-01-21 12:17:20.06	305.79	17.41	-50.4	-63.1	3.8	1.49e+00	0	40	104	0	71	16383
2026-01-21 12:17:23.08	306.42	17.27	-50.4	-63.1	3.8	1.49e+00	0	40	104	0	71	16432
2026-01-21 12:17:26.11	307.04	17.12	-50.4	-63.1	3.8	1.49e+00	0	40	104	0	71	16416
2026-01-21 12:17:29.13	307.66	16.97	-50.4	-63.1	3.8	1.49e+00	0	40	104	0	71	16451
2026-01-21 12:17:32.16	308.27	16.81	-50.4	-63.1	3.8	1.49e+00	0	40	104	0	71	16452
2026-01-21 12:17:35.19	308.88	16.66	-50.4	-63.1	3.8	1.49e+00	0	40	104	0	71	16430
2026-01-21 12:17:38.21	309.47	16.50	-50.4	-63.1	3.8	1.49e+00	0	40	104	0	71	16445
2026-01-21 12:17:41.23	310.06	16.34	-50.4	-63.1	3.8	1.49e+00	0	40	104	0	71	16456
2026-01-21 12:17:44.25	310.65	16.18	-50.4	-63.1	3.8	1.49e+00	0	40	104	0	71	16402
2026-01-21 12:17:47.28	311.23	16.02	-50.4	-63.1	3.8	1.49e+00	0	40	104	0	71	16421
2026-01-21 12:17:50.30	311.80	15.86	-50.4	-63.1	3.8	1.49e+00	0	40	104	0	71	16418
2026-01-21 12:17:53.33	312.37	15.69	-50.4	-63.1	3.8	1.49e+00	0	40	104	0	71	16393
2026-01-21 12:17:56.35	312.93	15.52	-50.4	-63.1	3.8	1.49e+00	0	40	104	0	71	16415
2026-01-21 12:17:59.37	313.48	15.35	-50.4	-63.1	3.8	1.49e+00	0	40	104	0	71	16399
2026-01-21 12:18:02.39	314.03	15.18	-50.4	-63.1	3.8	1.49e+00	0	40	104	0	71	16424
2026-01-21 12:18:05.42	314.58	15.01	-50.4	-63.1	3.8	1.49e+00	0	40	104	0	71	16443
2026-01-21 12:18:08.44	315.11	14.84	-50.4	-63.1	3.8	1.49e+00	0	40	104	0	71	16422
2026-01-21 12:18:11.46	315.64	14.67	-50.4	-63.1	3.8	1.49e+00	0	40	104	0	71	16438
2026-01-21 12:18:14.48	316.17	14.49	-50.4	-63.1	3.8	1.49e+00	0	40	104	0	71	16388
2026-01-21 12:18:17.51	316.69	14.32	-50.4	-63.1	3.8	1.49e+00	0	40	104	0	71	16441
2026-01-21 12:18:20.53	317.20	14.14	-50.4	-63.1	3.8	1.49e+00	0	40	104	0	71	16430
2026-01-21 12:18:23.56	317.71	13.97	-50.4	-63.1	3.8	1.49e+00	0	40	104	0	71	16435
2026-01-21 12:18:26.58	318.21	13.79	-50.4	-63.1	3.8	1.49e+00	0	40	104	0	71	16432
2026-01-21 12:18:29.61	318.70	13.61	-50.4	-63.1	3.8	1.49e+00	0	40	104	0	71	16435
2026-01-21 12:18:32.63	319.19	13.43	-50.4	-63.1	3.8	1.49e+00	0	40	104	0	71	16433
2026-01-21 12:18:35.65	319.68	13.25	-50.4	-63.1	3.8	1.49e+00	0	40	104	0	71	16439
2026-01-21 12:18:38.68	320.15	13.07	-50.4	-63.1	3.8	1.49e+00	0	40	104	0	71	16426
2026-01-21 12:18:41.70	320.63	12.89	-50.4	-63.1	3.8	1.49e+00	0	40	104	0	71	16373
2026-01-21 12:18:44.72	321.09	12.71	-50.4	-63.1	3.8	1.49e+00	0	40	104	0	71	16370
2026-01-21 12:18:47.74	321.55	12.53	-50.4	-63.1	3.8	1.49e+00	0	40	104	0	71	16407
2026-01-21 12:18:50.77	322.01	12.35	-50.4	-63.1	3.8	1.49e+00	0	40	104	0	71	16477
2026-01-21 12:18:53.79	322.46	12.17	-50.4	-63.1	3.8	1.49e+00	0	40	104	0	71	16444
2026-01-21 12:18:56.81	322.91	11.99	-50.4	-63.1	3.8	1.49e+00	0	40	104	0	71	16424
2026-01-21 12:18:59.84	323.35	11.81	-50.4	-63.1	3.8	1.49e+00	0	40	104	0	71	16419
2026-01-21 12:19:02.87	323.78	11.62	-50.4	-63.1	3.8	1.49e+00	0	40	104	0	71	16396
2026-01-21 12:19:05.89	324.21	11.44	-50.4	-63.1	3.8	1.49e+00	0	40	104	0	71	16363
2026-01-21 12:19:08.91	324.64	11.26	-50.4	-63.1	3.8	1.49e+00	0	40	104	0	71	16398
2026-01-21 12:19:11.94	325.06	11.08	-50.4	-63.1	3.8	1.49e+00	0	40	104	0	71	16342
2026-01-21 12:19:14.96	325.47	10.90	-50.4	-63.1	3.8	1.49e+00	0	40	104	0	71	16368
2026-01-21 12:19:17.99	325.88	10.72	-50.4	-63.1	3.8	1.49e+00	0	40	104	0	71	16373
2026-01-21 12:19:21.01	326.29	10.53	-50.4	-63.1	3.8	1.49e+00	0	40	104	0	71	16386
2026-01-21 12:19:24.03	326.69	10.35	-50.4	-63.1	3.8	1.49e+00	0	40	104	0	71	16409
2026-01-21 12:19:27.06	327.08	10.17	-50.4	-63.1	3.8	1.49e+00	0	40	104	0	71	16424
2026-01-21 12:19:30.09	327.47	9.99	-50.4	-63.1	3.8	1.49e+00	0	40	104	0	71	16442
2026-01-21 12:19:33.11	327.86	9.81	-50.4	-63.1	3.8	1.49e+00	0	40	104	0	71	16405
2026-01-21 12:19:36.14	328.24	9.63	-50.4	-63.1	3.8	1.49e+00	0	40	104	0	71	16444
2026-01-21 12:19:39.16	328.62	9.45	-50.4	-63.1	3.8	1.49e+00	0	40	104	0	71	16383
2026-01-21 12:19:42.19	328.99	9.27	-50.4	-63.1	3.8	1.49e+00	0	40	104	0	71	16445
2026-01-21 12:19:45.21	329.36	9.09	-50.4	-63.1	3.8	1.49e+00	0	40	104	0	71	16354
2026-01-21 12:19:48.23	329.72	8.91	-50.4	-63.1	3.8	1.49e+00	0	40	104	0	71	16455
2026-01-21 12:19:51.26	330.08	8.73	-50.4	-63.1	3.8	1.49e+00	0	40	104	0	71	16372
2026-01-21 12:19:54.28	330.44	8.55	-50.4	-63.1	3.8	1.49e+00	0	40	104	0	71	16328
2026-01-21 12:19:57.30	330.79	8.37	-50.4	-63.1	3.8	1.49e+00	0	40	104	0	71	16401
2026-01-21 12:20:00.32	331.14	8.19	-50.4	-63.1	3.8	1.49e+00	0	40	104	0	71	16406
2026-01-21 12:20:03.35	331.48	8.01	-50.4	-63.1	3.8	1.49e+00	0	40	104	0	71	16396
2026-01-21 12:20:06.37	331.82	7.84	-50.4	-63.1	3.8	1.49e+00	0	40	104	0	71	16333
2026-01-21 12:20:09.40	332.15	7.66	-50.4	-63.1	3.8	1.49e+00	0	40	104	0	71	16346
2026-01-21 12:20:12.43	332.49	7.48	-50.4	-63.1	3.8	1.49e+00	0	40	104	0	71	16351
2026-01-21 12:20:15.45	332.81	7.30	-50.4	-63.1	3.8	1.49e+00	0	40	104	0	71	16417
2026-01-21 12:20:18.48	333.14	7.13	-50.4	-63.1	3.8	1.49e+00	0	40	104	0	71	16430
2026-01-21 12:20:21.50	333.46	6.95	-50.4	-63.1	3.8	1.49e+00	0	40	104	0	71	16391
2026-01-21 12:20:24.53	333.77	6.78	-50.4	-63.0	3.8	1.49e+00	0	40	104	0	71	16298
2026-01-21 12:20:27.55	334.09	6.60	-50.4	-63.1	3.8	1.49e+00	0	40	104	0	71	16470
2026-01-21 12:20:30.57	334.40	6.43	-50.4	-63.1	3.8	1.49e+00	0	40	104	0	71	16419
2026-01-21 12:20:33.60	334.70	6.26	-50.4	-63.1	3.8	1.49e+00	0	40	104	0	71	16319
2026-01-21 12:20:36.62	335.00	6.08	-50.4	-63.1	3.8	1.49e+00	0	40	104	0	71	16376
2026-01-21 12:20:39.64	335.30	5.91	-50.4	-63.1	3.8	1.49e+00	0	40	104	0	71	16356
2026-01-21 12:20:42.66	335.60	5.74	-50.4	-63.1	3.8	1.49e+00	0	40	104	0	71	16430
2026-01-21 12:20:45.69	335.89	5.57	-50.4	-63.1	3.8	1.49e+00	0	40	104	0	71	16417
2026-01-21 12:20:48.71	336.18	5.40	-50.4	-63.1	3.8	1.49e+00	0	40	104	0	71	16428
2026-01-21 12:20:51.73	336.47	5.23	-50.4	-63.1	3.8	1.49e+00	0	40	104	0	71	16444
2026-01-21 12:20:54.76	336.75	5.06	-50.4	-63.1	3.8	1.49e+00	0	40	104	0	71	16388
2026-01-21 12:20:57.79	337.03	4.89	-50.4	-63.1	3.8	1.49e+00	0	40	104	0	71	16409
2026-01-21 12:21:00.81	337.31	4.72	-50.4	-63.1	3.8	1.49e+00	0	40	104	0	71	16458
2026-01-21 12:21:03.83	337.58	4.55	-50.4	-63.1	3.8	1.49e+00	0	40	104	0	71	16419
2026-01-21 12:21:06.86	337.85	4.38	-50.4	-63.1	3.8	1.49e+00	0	40	104	0	71	16402
2026-01-21 12:21:09.88	338.12	4.22	-50.4	-63.1	3.8	1.49e+00	0	40	104	0	71	16413
2026-01-21 12:21:12.90	338.38	4.05	-50.4	-63.1	3.8	1.49e+00	0	40	104	0	71	16408
2026-01-21 12:21:15.93	338.65	3.89	-50.4	-63.1	3.8	1.49e+00	0	40	104	0	71	16383
2026-01-21 12:21:18.95	338.91	3.72	-50.4	-63.1	3.8	1.49e+00	0	40	104	0	71	16430
2026-01-21 12:21:21.98	339.16	3.56	-50.4	-63.1	3.8	1.49e+00	0	40	104	0	71	16445
2026-01-21 12:21:25.01	339.42	3.39	-50.4	-63.1	3.8	1.49e+00	0	40	104	0	71	16381
2026-01-21 12:21:28.03	339.67	3.23	-50.4	-63.1	3.8	1.49e+00	0	40	104	0	71	16409
2026-01-21 12:21:31.06	339.92	3.06	-50.4	-63.1	3.8	1.49e+00	0	40	104	0	71	16411
2026-01-21 12:21:34.08	340.16	2.90	-50.4	-63.1	3.8	1.49e+00	0	40	104	0	71	16395
2026-01-21 12:21:37.11	340.41	2.74	-50.4	-63.1	3.8	1.49e+00	0	40	104	0	71	16392
2026-01-21 12:21:40.13	340.65	2.58	-50.4	-63.1	3.8	1.49e+00	0	40	104	0	71	16403
2026-01-21 12:21:43.15	340.89	2.42	-50.4	-63.1	3.8	1.49e+00	0	40	104	0	71	16431
2026-01-21 12:21:46.18	341.13	2.26	-50.4	-63.1	3.8	1.49e+00	0	40	104	0	71	16446
2026-01-21 12:21:49.20	341.36	2.10	-50.4	-63.1	3.8	1.49e+00	0	40	104	0	71	16437

#Closed at: 2026-01-21 12:21:51
#Recorded file [0 MB]: D:/lorett/data/31041_260121_150913.dat