passes_logs/2026/01/21/R3.2S_Murmansk/R3.2S_Murmansk__20260121_100456_KANOPUS-V_5_rec.log

#Pass ID: 20260121_100456_KANOPUS-V 5
#Satellite: KANOPUS-V 5
#Configuration: KANOPUS-V_8320
#almurnet v.1.7.20251203
#Start time: 2026-01-21 10:04:57

#Version: 2.2.20231116
#Station: R3.2S_Murmansk
#Location: 33.079688 lon 68.888172 lat
#TLE: 1 43876U 18111A   26020.95068231  .00008875  00000+0  37477-3 0  9992
#TLE: 2 43876  97.3685 289.3573 0001812  87.5365 272.6080 15.23490286392370

#Time	Az	El	Level	Level2	SNR	BER	BlckErr	Temp	State	Recorded	gain1	gain2
2026-01-21 10:04:57.87	228.46	2.07	-55.3	-64.1	3.8	7.45e-01	0	38	0	0	81	10408
2026-01-21 10:05:00.90	228.83	2.23	-55.1	-64.0	3.8	7.45e-01	0	38	104	0	81	10248
2026-01-21 10:05:03.92	229.20	2.40	-55.0	-63.9	3.8	7.44e-01	0	38	104	0	81	10063
2026-01-21 10:05:06.95	229.59	2.56	-54.9	-63.7	3.8	7.44e-01	0	39	104	0	81	9912
2026-01-21 10:05:09.97	229.97	2.72	-54.7	-63.5	3.8	7.44e-01	0	39	104	0	81	9668
2026-01-21 10:05:12.99	230.36	2.89	-54.3	-63.1	3.8	7.45e-01	0	39	104	0	80	9810
2026-01-21 10:05:16.02	230.76	3.05	-53.7	-62.5	3.8	7.45e-01	0	39	104	0	79	9711
2026-01-21 10:05:19.04	231.16	3.21	-53.7	-62.5	3.8	7.45e-01	0	39	104	0	79	9648
2026-01-21 10:05:22.06	231.57	3.38	-53.7	-62.5	3.8	7.44e-01	0	39	104	0	79	9642
2026-01-21 10:05:25.09	231.98	3.54	-53.6	-62.5	3.8	7.45e-01	0	39	104	0	79	9630
2026-01-21 10:05:28.11	232.40	3.71	-53.6	-62.5	3.8	7.44e-01	0	39	104	0	79	9611
2026-01-21 10:05:31.13	232.83	3.87	-53.6	-62.5	3.8	7.46e-01	0	39	104	0	79	9620
2026-01-21 10:05:34.16	233.26	4.04	-53.6	-62.4	3.8	7.45e-01	0	39	104	0	79	9586
2026-01-21 10:05:37.18	233.70	4.21	-53.6	-62.4	3.8	7.45e-01	0	39	104	0	79	9585
2026-01-21 10:05:40.21	234.14	4.37	-53.6	-62.4	3.8	7.45e-01	0	39	104	0	79	9584
2026-01-21 10:05:43.23	234.59	4.54	-53.5	-62.0	3.8	7.46e-01	0	39	104	0	79	9148
2026-01-21 10:05:46.25	235.05	4.71	-52.9	-60.0	3.8	7.43e-01	0	39	104	0	77	8143
2026-01-21 10:05:49.28	235.51	4.87	-47.4	-50.2	11.0	6.10e-01	0	40	0	35651584	66	4968
2026-01-21 10:05:52.30	235.98	5.04	-45.8	-48.3	12.8	6.00e-01	0	39	0	81788928	63	4740
2026-01-21 10:05:55.32	236.45	5.21	-48.8	-52.0	9.0	6.23e-01	0	40	0	127926272	69	5112
2026-01-21 10:05:58.35	236.94	5.37	-45.6	-48.1	13.0	6.02e-01	0	40	0	174063616	63	4617
2026-01-21 10:06:01.37	237.43	5.54	-44.8	-47.2	13.8	6.04e-01	0	40	0	220200960	61	4702
2026-01-21 10:06:04.39	237.92	5.71	-44.5	-46.9	14.1	5.97e-01	0	40	0	268435456	61	4531
2026-01-21 10:06:07.42	238.43	5.87	-44.8	-47.3	13.7	6.00e-01	0	40	0	314572800	60	4994
2026-01-21 10:06:10.44	238.94	6.04	-44.7	-47.3	13.8	5.98e-01	0	40	0	360710144	60	4997
2026-01-21 10:06:13.46	239.45	6.20	-44.6	-47.3	13.8	5.97e-01	0	40	0	406847488	60	4989
2026-01-21 10:06:16.49	239.98	6.37	-44.5	-47.1	14.0	6.00e-01	0	40	0	455081984	60	4879
2026-01-21 10:06:19.52	240.51	6.54	-44.2	-46.7	14.3	6.02e-01	0	40	0	501219328	60	4695
2026-01-21 10:06:22.54	241.05	6.70	-44.5	-47.0	14.1	5.98e-01	0	40	0	547356672	60	4863
2026-01-21 10:06:25.57	241.60	6.87	-44.4	-46.9	14.2	6.00e-01	0	40	0	593494016	60	4781
2026-01-21 10:06:28.60	242.16	7.03	-44.2	-46.7	14.4	6.00e-01	0	40	0	639631360	60	4672
2026-01-21 10:06:31.63	242.72	7.20	-44.2	-46.7	14.5	5.97e-01	0	40	0	685768704	60	4672
2026-01-21 10:06:34.65	243.29	7.36	-44.0	-46.4	14.7	5.97e-01	0	40	0	731906048	59	4790
2026-01-21 10:06:37.67	243.87	7.52	-43.9	-46.2	14.8	5.96e-01	0	40	0	780140544	59	4695
2026-01-21 10:06:40.70	244.46	7.68	-43.9	-46.2	14.9	5.98e-01	0	40	0	826277888	59	4689
2026-01-21 10:06:43.72	245.05	7.84	-43.7	-46.0	15.1	5.96e-01	0	40	0	872415232	59	4559
2026-01-21 10:06:46.75	245.65	8.00	-43.7	-46.0	15.0	6.01e-01	0	40	0	918552576	58	4861
2026-01-21 10:06:49.77	246.26	8.16	-43.8	-46.3	14.8	6.01e-01	0	40	0	966787072	58	4986
2026-01-21 10:06:52.79	246.88	8.32	-43.7	-46.2	14.9	5.98e-01	0	40	0	1010827264	58	4953
2026-01-21 10:06:55.82	247.51	8.48	-43.6	-46.2	14.8	6.04e-01	0	40	0	1056964608	58	4970
2026-01-21 10:06:58.84	248.14	8.63	-43.7	-46.3	14.8	6.00e-01	0	40	0	1103101952	58	4996
2026-01-21 10:07:01.86	248.78	8.79	-43.6	-46.2	14.9	5.99e-01	0	40	0	1149239296	58	4975
2026-01-21 10:07:04.89	249.44	8.94	-43.5	-46.0	15.1	6.00e-01	0	40	0	1197473792	58	4848
2026-01-21 10:07:07.91	250.10	9.09	-43.5	-46.1	15.0	6.00e-01	0	40	0	1243611136	58	4872
2026-01-21 10:07:10.94	250.76	9.24	-43.6	-46.2	15.0	6.04e-01	0	40	0	1289748480	58	4946
2026-01-21 10:07:13.96	251.44	9.39	-43.6	-46.3	14.9	6.01e-01	0	40	0	1335885824	58	5017
2026-01-21 10:07:16.98	252.12	9.53	-43.1	-45.6	15.4	5.99e-01	0	40	0	1384120320	58	4618
2026-01-21 10:07:20.01	252.82	9.68	-42.9	-45.2	15.8	5.98e-01	0	40	0	1430257664	57	4671
2026-01-21 10:07:23.03	253.52	9.82	-42.8	-45.1	15.9	6.00e-01	0	40	0	1476395008	57	4629
2026-01-21 10:07:26.06	254.23	9.96	-42.8	-45.2	15.7	6.03e-01	0	40	0	1522532352	57	4703
2026-01-21 10:07:29.08	254.94	10.10	-43.3	-45.9	15.2	6.01e-01	0	40	0	1568669696	57	5081
2026-01-21 10:07:32.10	255.67	10.23	-43.1	-45.8	15.3	5.96e-01	0	40	0	1614807040	57	5010
2026-01-21 10:07:35.13	256.40	10.37	-43.1	-45.9	15.2	5.98e-01	0	40	0	1660944384	57	5081
2026-01-21 10:07:38.15	257.14	10.49	-43.2	-45.8	15.3	5.97e-01	0	40	0	1707081728	57	5009
2026-01-21 10:07:41.17	257.89	10.62	-43.2	-45.7	15.4	5.98e-01	0	40	0	1755316224	57	4962
2026-01-21 10:07:44.20	258.65	10.75	-42.9	-45.4	15.7	6.01e-01	0	40	0	1801453568	57	4763
2026-01-21 10:07:47.22	259.41	10.87	-42.9	-45.3	15.7	6.03e-01	0	40	0	1847590912	57	4744
2026-01-21 10:07:50.25	260.18	10.98	-43.0	-45.5	15.6	6.01e-01	0	40	0	1893728256	57	4824
2026-01-21 10:07:53.27	260.96	11.10	-43.1	-45.6	15.5	6.02e-01	0	40	0	1941962752	57	4923
2026-01-21 10:07:56.29	261.74	11.21	-43.3	-45.8	15.4	6.02e-01	0	40	0	1988100096	57	5005
2026-01-21 10:07:59.32	262.54	11.32	-43.0	-45.4	15.7	6.01e-01	0	40	0	2034237440	57	4786
2026-01-21 10:08:02.34	263.34	11.42	-43.0	-45.3	15.8	6.00e-01	0	40	0	2080374784	57	4740
2026-01-21 10:08:05.37	264.14	11.52	-43.1	-45.5	15.6	6.01e-01	0	40	0	2124414976	57	4842
2026-01-21 10:08:08.39	264.95	11.62	-42.9	-45.2	15.9	6.02e-01	0	40	0	2172649472	57	4676
2026-01-21 10:08:11.41	265.77	11.71	-42.7	-45.0	16.0	6.01e-01	0	40	0	2218786816	57	4580
2026-01-21 10:08:14.44	266.60	11.80	-42.7	-45.0	16.1	5.77e-01	0	40	0	2264924160	57	4589
2026-01-21 10:08:17.46	267.43	11.88	-42.7	-44.9	16.1	5.78e-01	0	40	0	2311061504	57	4529
2026-01-21 10:08:20.49	268.26	11.96	-42.7	-45.1	16.0	5.77e-01	0	40	0	2359296000	57	4634
2026-01-21 10:08:23.51	269.10	12.03	-44.1	-45.0	16.2	5.77e-01	0	40	0	2405433344	58	4306
2026-01-21 10:08:26.54	269.95	12.10	-54.1	-62.9	3.8	7.46e-01	0	40	104	2411724800	78	10776
2026-01-21 10:08:29.56	270.80	12.17	-54.2	-63.0	3.8	7.44e-01	0	40	104	2411724800	79	10282
2026-01-21 10:08:32.58	271.65	12.23	-54.2	-63.0	3.8	7.45e-01	0	40	104	2411724800	79	10245
2026-01-21 10:08:35.60	272.51	12.29	-54.2	-63.0	3.8	7.44e-01	0	40	104	2411724800	79	10245
2026-01-21 10:08:38.62	273.37	12.34	-54.1	-63.0	3.8	7.44e-01	0	41	104	2411724800	79	10202
2026-01-21 10:08:41.65	274.24	12.38	-54.1	-63.0	3.8	7.45e-01	0	40	104	2411724800	79	10222
2026-01-21 10:08:44.67	275.11	12.42	-54.2	-63.0	3.8	7.44e-01	0	40	104	2411724800	79	10224
2026-01-21 10:08:47.70	275.98	12.46	-54.2	-63.1	3.8	7.45e-01	0	40	104	2411724800	79	10306
2026-01-21 10:08:50.72	276.85	12.49	-54.1	-63.0	3.8	7.45e-01	0	40	104	2411724800	79	10224
2026-01-21 10:08:53.74	277.72	12.51	-54.2	-63.0	3.8	7.45e-01	0	40	104	2411724800	79	10277
2026-01-21 10:08:56.77	278.60	12.53	-54.2	-63.0	3.8	7.44e-01	0	41	104	2411724800	79	10263
2026-01-21 10:08:59.79	279.48	12.55	-54.3	-63.1	3.8	7.45e-01	0	40	104	2411724800	79	10406
2026-01-21 10:09:02.82	280.36	12.56	-54.2	-63.1	3.8	7.43e-01	0	40	104	2411724800	79	10301
2026-01-21 10:09:05.84	281.24	12.56	-54.3	-63.1	3.8	7.47e-01	0	40	104	2411724800	79	10368
2026-01-21 10:09:08.87	282.12	12.56	-54.3	-63.1	3.8	7.45e-01	0	40	104	2411724800	79	10362
2026-01-21 10:09:11.89	283.00	12.55	-54.4	-63.2	3.8	7.45e-01	0	40	104	2411724800	79	10525
2026-01-21 10:09:14.92	283.88	12.54	-54.2	-63.1	3.8	7.46e-01	0	40	104	2411724800	79	10351
2026-01-21 10:09:17.94	284.75	12.52	-54.4	-63.2	3.8	7.44e-01	0	40	104	2411724800	79	10467
2026-01-21 10:09:20.97	285.63	12.50	-54.4	-63.2	3.8	7.46e-01	0	40	104	2411724800	79	10522
2026-01-21 10:09:23.99	286.50	12.47	-54.4	-63.3	3.8	7.45e-01	0	40	104	2411724800	79	10604
2026-01-21 10:09:27.02	287.37	12.44	-54.4	-63.2	3.8	7.46e-01	0	40	104	2411724800	79	10507
2026-01-21 10:09:30.04	288.24	12.40	-54.5	-63.3	3.8	7.44e-01	0	40	104	2411724800	79	10570
2026-01-21 10:09:33.07	289.11	12.36	-54.5	-63.3	3.8	7.45e-01	0	40	104	2411724800	79	10589
2026-01-21 10:09:36.09	289.97	12.31	-54.5	-63.3	3.8	7.46e-01	0	40	104	2411724800	79	10641
2026-01-21 10:09:39.11	290.83	12.26	-54.5	-63.3	3.8	7.45e-01	0	40	104	2411724800	79	10582
2026-01-21 10:09:42.14	291.68	12.20	-54.5	-63.3	3.8	7.45e-01	0	40	104	2411724800	79	10635
2026-01-21 10:09:45.16	292.53	12.14	-54.5	-63.3	3.8	7.47e-01	0	40	104	2411724800	79	10625
2026-01-21 10:09:48.18	293.38	12.07	-54.5	-63.4	3.8	7.43e-01	0	40	104	2411724800	79	10679
2026-01-21 10:09:51.21	294.22	12.00	-54.4	-63.3	3.8	7.45e-01	0	40	104	2411724800	79	10540
2026-01-21 10:09:54.23	295.05	11.92	-54.5	-63.3	3.8	7.45e-01	0	41	104	2411724800	79	10618
2026-01-21 10:09:57.25	295.88	11.84	-54.4	-63.3	3.8	7.45e-01	0	40	104	2411724800	79	10585
2026-01-21 10:10:00.27	296.71	11.76	-54.4	-63.3	3.8	7.46e-01	0	40	104	2411724800	79	10564
2026-01-21 10:10:03.30	297.53	11.67	-54.4	-63.2	3.8	7.46e-01	0	40	104	2411724800	79	10497
2026-01-21 10:10:06.32	298.34	11.57	-54.4	-63.2	3.8	7.45e-01	0	41	104	2411724800	79	10493
2026-01-21 10:10:09.35	299.15	11.48	-54.4	-63.2	3.8	7.46e-01	0	41	104	2411724800	79	10431
2026-01-21 10:10:12.38	299.95	11.37	-54.3	-63.2	3.8	7.44e-01	0	40	104	2411724800	79	10454
2026-01-21 10:10:15.40	300.74	11.27	-54.3	-63.2	3.8	7.45e-01	0	40	104	2411724800	79	10415
2026-01-21 10:10:18.43	301.53	11.16	-54.3	-63.1	3.8	7.47e-01	0	40	104	2411724800	79	10356
2026-01-21 10:10:21.45	302.31	11.05	-54.3	-63.1	3.8	7.46e-01	0	40	104	2411724800	79	10411
2026-01-21 10:10:24.47	303.08	10.93	-54.3	-63.1	3.8	7.45e-01	0	40	104	2411724800	79	10361
2026-01-21 10:10:27.49	303.84	10.81	-54.3	-63.2	3.8	7.44e-01	0	40	104	2411724800	79	10415
2026-01-21 10:10:30.52	304.60	10.69	-54.2	-63.1	3.8	7.47e-01	0	40	104	2411724800	79	10331
2026-01-21 10:10:33.54	305.35	10.57	-54.2	-63.1	3.8	7.47e-01	0	40	104	2411724800	79	10320
2026-01-21 10:10:36.57	306.09	10.44	-54.2	-63.1	3.8	7.45e-01	0	40	104	2411724800	79	10336
2026-01-21 10:10:39.59	306.83	10.31	-54.2	-63.1	3.8	7.45e-01	0	40	104	2411724800	79	10342
2026-01-21 10:10:42.61	307.55	10.18	-54.2	-63.0	3.8	7.44e-01	0	41	104	2411724800	79	10226
2026-01-21 10:10:45.64	308.27	10.04	-54.1	-63.0	3.8	7.45e-01	0	40	104	2411724800	79	10230
2026-01-21 10:10:48.66	308.98	9.90	-54.1	-63.0	3.8	7.44e-01	0	40	104	2411724800	79	10213
2026-01-21 10:10:51.68	309.68	9.77	-54.1	-63.0	3.8	7.45e-01	0	40	104	2411724800	79	10238
2026-01-21 10:10:54.71	310.37	9.62	-54.0	-62.9	3.8	7.47e-01	0	40	104	2411724800	79	10088
2026-01-21 10:10:57.73	311.06	9.48	-54.0	-62.9	3.8	7.46e-01	0	40	104	2411724800	79	10084
2026-01-21 10:11:00.76	311.74	9.33	-54.0	-62.9	3.8	7.47e-01	0	40	104	2411724800	79	10080
2026-01-21 10:11:03.78	312.40	9.19	-54.1	-62.9	3.8	7.43e-01	0	40	104	2411724800	79	10094
2026-01-21 10:11:06.81	313.07	9.04	-54.0	-62.8	3.8	7.45e-01	0	40	104	2411724800	79	9977
2026-01-21 10:11:09.83	313.72	8.89	-53.9	-62.8	3.8	7.44e-01	0	41	104	2411724800	79	9954
2026-01-21 10:11:12.86	314.36	8.73	-53.9	-62.8	3.8	7.46e-01	0	40	104	2411724800	79	9987
2026-01-21 10:11:15.88	315.00	8.58	-54.0	-62.8	3.8	7.46e-01	0	40	104	2411724800	79	10025
2026-01-21 10:11:18.90	315.62	8.42	-53.9	-62.7	3.8	7.46e-01	0	40	104	2411724800	79	9887
2026-01-21 10:11:21.92	316.24	8.27	-53.9	-62.7	3.8	7.45e-01	0	40	104	2411724800	79	9885
2026-01-21 10:11:24.95	316.86	8.11	-53.8	-62.7	3.8	7.46e-01	0	40	104	2411724800	79	9895
2026-01-21 10:11:27.97	317.46	7.95	-53.9	-62.7	3.8	7.46e-01	0	40	104	2411724800	79	9940
2026-01-21 10:11:31.00	318.05	7.79	-53.7	-62.6	3.8	7.45e-01	0	41	104	2411724800	79	9747
2026-01-21 10:11:34.02	318.64	7.63	-53.8	-62.6	3.8	7.47e-01	0	40	104	2411724800	79	9778
2026-01-21 10:11:37.04	319.22	7.47	-53.7	-62.6	3.8	7.46e-01	0	40	104	2411724800	79	9752
2026-01-21 10:11:40.06	319.79	7.31	-53.8	-62.7	3.8	7.46e-01	0	40	104	2411724800	79	9842
2026-01-21 10:11:43.09	320.36	7.15	-53.7	-62.5	3.8	7.46e-01	0	41	104	2411724800	79	9640
2026-01-21 10:11:46.11	320.91	6.99	-53.7	-62.5	3.8	7.46e-01	0	40	104	2411724800	79	9644
2026-01-21 10:11:49.14	321.46	6.82	-53.6	-62.5	3.8	7.45e-01	0	40	104	2411724800	79	9649
2026-01-21 10:11:52.16	322.00	6.66	-53.7	-62.5	3.8	7.47e-01	0	40	104	2411724800	79	9702
2026-01-21 10:11:55.18	322.54	6.49	-53.6	-62.4	3.8	7.46e-01	0	40	104	2411724800	79	9529
2026-01-21 10:11:58.21	323.06	6.33	-53.6	-62.4	3.8	7.47e-01	0	41	104	2411724800	79	9553
2026-01-21 10:12:01.23	323.58	6.17	-53.5	-62.4	3.8	7.44e-01	0	41	104	2411724800	79	9508
2026-01-21 10:12:04.26	324.09	6.00	-53.6	-62.4	3.8	7.44e-01	0	41	104	2411724800	78	10131
2026-01-21 10:12:07.28	324.60	5.84	-53.4	-62.3	3.8	7.46e-01	0	41	104	2411724800	78	9977
2026-01-21 10:12:10.30	325.10	5.67	-53.4	-62.2	3.8	7.45e-01	0	40	104	2411724800	78	9939
2026-01-21 10:12:13.33	325.59	5.50	-53.4	-62.2	3.8	7.46e-01	0	40	104	2411724800	78	9939
2026-01-21 10:12:16.35	326.07	5.34	-53.5	-62.3	3.8	7.45e-01	0	40	104	2411724800	78	10001
2026-01-21 10:12:19.38	326.55	5.17	-53.3	-62.2	3.8	7.45e-01	0	41	104	2411724800	78	9868
2026-01-21 10:12:22.40	327.02	5.01	-53.4	-62.2	3.8	7.47e-01	0	40	104	2411724800	78	9875
2026-01-21 10:12:25.42	327.48	4.84	-54.0	-62.8	3.8	7.45e-01	0	40	104	2411724800	78	10640
2026-01-21 10:12:28.45	327.94	4.68	-54.3	-63.1	3.8	7.45e-01	0	40	104	2411724800	79	10405
2026-01-21 10:12:31.47	328.39	4.51	-54.2	-63.1	3.8	7.45e-01	0	40	104	2411724800	79	10303
2026-01-21 10:12:34.49	328.84	4.35	-54.2	-63.1	3.8	7.45e-01	0	40	104	2411724800	79	10351
2026-01-21 10:12:37.52	329.28	4.18	-54.4	-63.2	3.8	7.43e-01	0	40	104	2411724800	79	10500
2026-01-21 10:12:40.54	329.71	4.02	-54.5	-63.3	3.8	7.44e-01	0	40	104	2411724800	79	10605
2026-01-21 10:12:43.56	330.14	3.85	-54.5	-63.4	3.8	7.46e-01	0	40	104	2411724800	79	10687
2026-01-21 10:12:46.59	330.56	3.69	-54.5	-63.3	3.8	7.46e-01	0	40	104	2411724800	79	10615
2026-01-21 10:12:49.61	330.97	3.53	-54.4	-63.3	3.8	7.46e-01	0	40	104	2411724800	79	10567
2026-01-21 10:12:52.64	331.38	3.36	-54.4	-63.2	3.8	7.44e-01	0	40	104	2411724800	79	10508
2026-01-21 10:12:55.66	331.79	3.20	-54.4	-63.2	3.8	7.46e-01	0	40	104	2411724800	79	10531
2026-01-21 10:12:58.68	332.19	3.04	-54.4	-63.2	3.8	7.46e-01	0	40	104	2411724800	79	10498
2026-01-21 10:13:01.71	332.58	2.87	-54.4	-63.2	3.8	7.45e-01	0	40	104	2411724800	79	10493
2026-01-21 10:13:04.73	332.97	2.71	-54.4	-63.2	3.8	7.46e-01	0	40	104	2411724800	79	10462
2026-01-21 10:13:07.75	333.35	2.55	-54.4	-63.2	3.8	7.46e-01	0	41	104	2411724800	79	10510
2026-01-21 10:13:10.78	333.73	2.39	-54.4	-63.2	3.8	7.43e-01	0	41	104	2411724800	79	10474
2026-01-21 10:13:13.80	334.10	2.23	-54.3	-63.2	3.8	7.44e-01	0	41	104	2411724800	79	10449
2026-01-21 10:13:16.82	334.47	2.07	-54.3	-63.2	3.8	7.44e-01	0	41	104	2411724800	79	10468
2026-01-21 10:13:19.85	334.83	1.91	-54.3	-63.1	3.8	7.44e-01	0	40	104	2411724800	79	10412

#Closed at: 2026-01-21 10:13:20
#Recorded file [2411 MB]: D:/lorett/data/31041_260121_130457.dat