passes_logs/2026/01/21/R3.2S_Murmansk/R3.2S_Murmansk__20260121_151945_FENGYUN_3D_rec.log

#Pass ID: 20260121_151945_FENGYUN 3D
#Satellite: FENGYUN 3D
#Configuration: FENGYUN 3D
#almurnet v.1.7.20251203
#Start time: 2026-01-21 15:19:44

#Version: 2.2.20231116
#Station: R3.2S_Murmansk
#Location: 33.079688 lon 68.888172 lat
#TLE: 1 43010U 17072A   26020.92362722 -.00000077  00000+0 -14488-4 0  9992
#TLE: 2 43010  98.9946 352.8312 0002486  99.3651 260.7806 14.19696535424099

#Time	Az	El	Level	Level2	SNR	BER	BlckErr	Temp	State	Recorded	gain1	gain2
2026-01-21 15:19:44.87	251.01	1.99	-50.2	-62.1	3.8	8.47e-01	0	38	0	0	71	14688
2026-01-21 15:19:47.90	251.34	2.11	-50.2	-62.1	3.8	8.46e-01	0	38	104	0	70	15573
2026-01-21 15:19:50.92	251.66	2.23	-50.2	-62.1	3.8	8.47e-01	0	38	104	0	70	15525
2026-01-21 15:19:53.95	251.99	2.36	-50.2	-62.1	3.8	8.46e-01	0	38	104	0	70	15527
2026-01-21 15:19:56.97	252.32	2.48	-50.2	-62.1	3.8	8.45e-01	0	38	104	0	70	15543
2026-01-21 15:20:00.00	252.65	2.60	-50.2	-62.1	3.8	8.46e-01	0	38	104	0	70	15553
2026-01-21 15:20:03.02	252.98	2.72	-50.2	-62.1	3.8	8.47e-01	0	39	104	0	70	15572
2026-01-21 15:20:06.05	253.32	2.85	-50.2	-62.2	3.8	8.44e-01	0	39	104	0	70	15617
2026-01-21 15:20:09.07	253.66	2.97	-50.2	-62.1	3.8	8.46e-01	0	39	104	0	70	15574
2026-01-21 15:20:12.10	254.00	3.09	-50.2	-62.2	3.8	8.46e-01	0	39	104	0	71	14735
2026-01-21 15:20:15.12	254.35	3.21	-50.2	-62.1	3.8	8.47e-01	0	39	104	0	71	14697
2026-01-21 15:20:18.15	254.70	3.33	-50.2	-62.1	3.8	8.46e-01	0	39	104	0	71	14673
2026-01-21 15:20:21.18	255.05	3.45	-50.2	-62.1	3.8	8.46e-01	0	39	104	0	71	14702
2026-01-21 15:20:24.20	255.40	3.57	-50.2	-62.1	3.8	8.47e-01	0	39	104	0	71	14705
2026-01-21 15:20:27.22	255.76	3.69	-50.2	-62.1	3.8	8.46e-01	0	39	104	0	71	14703
2026-01-21 15:20:30.25	256.12	3.81	-50.2	-62.1	3.8	8.46e-01	0	39	104	0	71	14694
2026-01-21 15:20:33.27	256.48	3.93	-50.2	-62.2	3.8	8.46e-01	0	39	104	0	71	14719
2026-01-21 15:20:36.30	256.84	4.05	-50.2	-62.1	3.8	8.46e-01	0	39	104	0	71	14700
2026-01-21 15:20:39.33	257.21	4.17	-50.2	-62.2	3.8	8.46e-01	0	39	104	0	71	14746
2026-01-21 15:20:42.35	257.58	4.28	-50.2	-62.2	3.8	8.46e-01	0	39	104	0	71	14728
2026-01-21 15:20:45.38	257.95	4.40	-50.2	-62.2	3.8	8.47e-01	0	39	104	0	71	14718
2026-01-21 15:20:48.40	258.33	4.52	-50.2	-62.1	3.8	8.46e-01	0	39	104	0	71	14681
2026-01-21 15:20:51.43	258.71	4.63	-50.2	-62.2	3.8	8.45e-01	0	40	104	0	71	14746
2026-01-21 15:20:54.45	259.09	4.75	-50.2	-62.2	3.8	8.46e-01	0	39	104	0	71	14715
2026-01-21 15:20:57.48	259.47	4.86	-50.2	-62.2	3.8	8.46e-01	0	40	104	0	71	14713
2026-01-21 15:21:00.50	259.86	4.98	-50.2	-62.2	3.8	8.45e-01	0	40	104	0	71	14721
2026-01-21 15:21:03.53	260.25	5.09	-50.2	-62.2	3.8	8.45e-01	0	40	104	0	71	14722
2026-01-21 15:21:06.55	260.65	5.21	-50.2	-62.2	3.8	8.46e-01	0	40	104	0	71	14725
2026-01-21 15:21:09.58	261.04	5.32	-50.2	-62.2	3.8	8.46e-01	0	39	104	0	71	14719
2026-01-21 15:21:12.60	261.44	5.43	-50.2	-62.1	3.8	8.47e-01	0	40	104	0	71	14688
2026-01-21 15:21:15.63	261.84	5.54	-50.2	-62.2	3.8	8.48e-01	0	40	104	0	71	14713
2026-01-21 15:21:18.66	262.25	5.65	-50.2	-62.1	3.8	8.46e-01	0	40	104	0	71	14695
2026-01-21 15:21:21.68	262.66	5.76	-50.2	-62.2	3.8	8.45e-01	0	40	104	0	71	14752
2026-01-21 15:21:24.71	263.07	5.87	-50.2	-62.2	3.8	8.47e-01	0	40	104	0	71	14722
2026-01-21 15:21:27.73	263.48	5.98	-50.2	-62.2	3.8	8.46e-01	0	40	104	0	71	14733
2026-01-21 15:21:30.76	263.90	6.09	-50.2	-62.2	3.8	8.46e-01	0	40	104	0	71	14725
2026-01-21 15:21:33.79	264.32	6.19	-50.2	-62.2	3.8	8.47e-01	0	40	104	0	71	14736
2026-01-21 15:21:36.81	264.74	6.30	-50.2	-62.2	3.8	8.46e-01	0	40	104	0	71	14743
2026-01-21 15:21:39.84	265.17	6.41	-50.2	-62.2	3.8	8.45e-01	0	40	104	0	71	14747
2026-01-21 15:21:42.86	265.60	6.51	-50.2	-62.1	3.8	8.47e-01	0	40	104	0	71	14689
2026-01-21 15:21:45.88	266.03	6.61	-50.2	-62.2	3.8	8.47e-01	0	40	104	0	71	14727
2026-01-21 15:21:48.91	266.46	6.72	-50.2	-62.2	3.8	8.46e-01	0	40	104	0	71	14748
2026-01-21 15:21:51.93	266.90	6.82	-50.2	-62.2	3.8	8.46e-01	0	40	104	0	71	14752
2026-01-21 15:21:54.96	267.34	6.92	-50.2	-62.2	3.8	8.46e-01	0	40	104	0	71	14769
2026-01-21 15:21:57.98	267.78	7.02	-50.2	-62.1	3.8	8.46e-01	0	40	104	0	71	14694
2026-01-21 15:22:01.01	268.23	7.11	-50.2	-62.2	3.8	8.47e-01	0	40	104	0	71	14738
2026-01-21 15:22:04.04	268.68	7.21	-50.2	-62.2	3.8	8.45e-01	0	40	104	0	71	14710
2026-01-21 15:22:07.07	269.13	7.31	-50.2	-62.2	3.8	8.46e-01	0	40	104	0	71	14768
2026-01-21 15:22:10.09	269.59	7.40	-50.2	-62.2	3.8	8.45e-01	0	40	104	0	71	14738
2026-01-21 15:22:13.12	270.05	7.50	-50.2	-62.2	3.8	8.47e-01	0	40	104	0	71	14767
2026-01-21 15:22:16.14	270.51	7.59	-50.2	-62.2	3.8	8.46e-01	0	40	104	0	71	14738
2026-01-21 15:22:19.17	270.97	7.68	-50.2	-62.1	3.8	8.45e-01	0	40	104	0	71	14706
2026-01-21 15:22:22.20	271.44	7.77	-50.2	-62.2	3.8	8.45e-01	0	40	104	0	71	14762
2026-01-21 15:22:25.22	271.91	7.86	-50.2	-62.2	3.8	8.47e-01	0	40	104	0	71	14749
2026-01-21 15:22:28.25	272.38	7.95	-50.2	-62.2	3.8	8.47e-01	0	40	104	0	71	14723
2026-01-21 15:22:31.27	272.85	8.03	-50.2	-62.2	3.8	8.46e-01	0	40	104	0	71	14735
2026-01-21 15:22:34.30	273.33	8.12	-50.2	-62.1	3.8	8.47e-01	0	40	104	0	71	14687
2026-01-21 15:22:37.32	273.81	8.20	-50.3	-62.2	3.8	8.46e-01	0	40	104	0	71	14752
2026-01-21 15:22:40.35	274.29	8.28	-50.2	-62.2	3.8	8.46e-01	0	40	104	0	71	14748
2026-01-21 15:22:43.37	274.78	8.36	-50.2	-62.2	3.8	8.46e-01	0	40	104	0	71	14710
2026-01-21 15:22:46.40	275.26	8.44	-50.2	-62.2	3.8	8.46e-01	0	40	104	0	71	14746
2026-01-21 15:22:49.43	275.75	8.52	-50.2	-62.2	3.8	8.46e-01	0	40	104	0	71	14779
2026-01-21 15:22:52.45	276.25	8.59	-50.2	-62.2	3.8	8.45e-01	0	40	104	0	71	14763
2026-01-21 15:22:55.48	276.74	8.67	-50.2	-62.2	3.8	8.46e-01	0	40	104	0	71	14719
2026-01-21 15:22:58.50	277.24	8.74	-50.2	-62.2	3.8	8.46e-01	0	40	104	0	71	14790
2026-01-21 15:23:01.53	277.74	8.81	-50.2	-62.2	3.8	8.46e-01	0	40	104	0	71	14713
2026-01-21 15:23:04.55	278.24	8.88	-50.2	-62.2	3.8	8.46e-01	0	40	104	0	71	14744
2026-01-21 15:23:07.58	278.74	8.94	-50.2	-62.2	3.8	8.48e-01	0	40	104	0	71	14768
2026-01-21 15:23:10.60	279.25	9.01	-50.2	-62.2	3.8	8.47e-01	0	40	104	0	71	14753
2026-01-21 15:23:13.62	279.76	9.07	-50.2	-62.2	3.8	8.46e-01	0	40	104	0	71	14736
2026-01-21 15:23:16.65	280.27	9.13	-50.2	-62.1	3.8	8.46e-01	0	40	104	0	71	14706
2026-01-21 15:23:19.68	280.78	9.19	-50.3	-62.2	3.8	8.47e-01	0	40	104	0	71	14734
2026-01-21 15:23:22.70	281.29	9.25	-50.2	-62.2	3.8	8.46e-01	0	40	104	0	71	14712
2026-01-21 15:23:25.72	281.81	9.31	-50.2	-62.2	3.8	8.46e-01	0	40	104	0	71	14760
2026-01-21 15:23:28.75	282.33	9.36	-50.2	-62.2	3.8	8.46e-01	0	40	104	0	71	14758
2026-01-21 15:23:31.78	282.85	9.42	-50.2	-62.2	3.8	8.46e-01	0	40	104	0	71	14769
2026-01-21 15:23:34.80	283.37	9.47	-50.2	-62.2	3.8	8.46e-01	0	40	104	0	71	14710
2026-01-21 15:23:37.83	283.90	9.52	-50.2	-62.2	3.8	8.47e-01	0	40	104	0	71	14730
2026-01-21 15:23:40.85	284.42	9.56	-50.2	-62.2	3.8	8.46e-01	0	40	104	0	71	14743
2026-01-21 15:23:43.88	284.95	9.61	-50.2	-62.1	3.8	8.46e-01	0	40	104	0	71	14701
2026-01-21 15:23:46.91	285.48	9.65	-50.2	-62.2	3.8	8.46e-01	0	40	104	0	71	14798
2026-01-21 15:23:49.93	286.01	9.69	-50.2	-62.2	3.8	8.46e-01	0	40	104	0	71	14742
2026-01-21 15:23:52.96	286.54	9.73	-50.2	-62.2	3.8	8.45e-01	0	40	104	0	71	14719
2026-01-21 15:23:55.98	287.07	9.76	-50.2	-62.2	3.8	8.45e-01	0	40	104	0	71	14759
2026-01-21 15:23:59.01	287.60	9.80	-50.3	-62.2	3.8	8.46e-01	0	40	104	0	71	14768
2026-01-21 15:24:02.04	288.14	9.83	-50.2	-62.2	3.8	8.46e-01	0	40	104	0	71	14748
2026-01-21 15:24:05.06	288.67	9.86	-50.2	-62.1	3.8	8.47e-01	0	40	104	0	71	14679
2026-01-21 15:24:08.08	289.21	9.89	-50.3	-62.2	3.8	8.44e-01	0	40	104	0	71	14736
2026-01-21 15:24:11.11	289.75	9.91	-50.2	-62.2	3.8	8.47e-01	0	40	104	0	71	14712
2026-01-21 15:24:14.13	290.29	9.94	-50.2	-62.2	3.8	8.46e-01	0	40	104	0	71	14722
2026-01-21 15:24:17.16	290.83	9.96	-50.2	-62.2	3.8	8.46e-01	0	40	104	0	71	14765
2026-01-21 15:24:20.18	291.37	9.98	-50.2	-62.2	3.8	8.45e-01	0	40	104	0	71	14753
2026-01-21 15:24:23.21	291.91	9.99	-50.2	-62.2	3.8	8.46e-01	0	40	104	0	71	14770
2026-01-21 15:24:26.23	292.45	10.01	-50.2	-62.2	3.8	8.45e-01	0	40	104	0	71	14758
2026-01-21 15:24:29.26	292.99	10.02	-50.2	-62.2	3.8	8.46e-01	0	40	104	0	71	14742
2026-01-21 15:24:32.28	293.53	10.03	-50.2	-62.2	3.8	8.46e-01	0	40	104	0	71	14787
2026-01-21 15:24:35.31	294.08	10.04	-50.2	-62.2	3.8	8.46e-01	0	40	104	0	71	14792
2026-01-21 15:24:38.34	294.62	10.05	-50.2	-62.2	3.8	8.46e-01	0	40	104	0	71	14726
2026-01-21 15:24:41.36	295.16	10.05	-50.2	-62.2	3.8	8.45e-01	0	40	104	0	71	14741
2026-01-21 15:24:44.39	295.70	10.05	-50.2	-62.2	3.8	8.46e-01	0	40	104	0	71	14742
2026-01-21 15:24:47.41	296.25	10.05	-50.3	-62.2	3.8	8.45e-01	0	40	104	0	71	14759
2026-01-21 15:24:50.44	296.79	10.05	-50.3	-62.2	3.8	8.46e-01	0	40	104	0	71	14764
2026-01-21 15:24:53.47	297.33	10.04	-50.3	-62.2	3.8	8.46e-01	0	40	104	0	71	14779
2026-01-21 15:24:56.49	297.87	10.03	-50.2	-62.2	3.8	8.46e-01	0	40	104	0	71	14776
2026-01-21 15:24:59.52	298.42	10.02	-50.2	-62.1	3.8	8.46e-01	0	40	104	0	71	14700
2026-01-21 15:25:02.54	298.96	10.01	-50.2	-62.2	3.8	8.45e-01	0	40	104	0	71	14718
2026-01-21 15:25:05.56	299.50	10.00	-50.2	-62.2	3.8	8.45e-01	0	40	104	0	71	14742
2026-01-21 15:25:08.59	300.04	9.98	-50.2	-62.2	3.8	8.46e-01	0	40	104	0	71	14749
2026-01-21 15:25:11.61	300.58	9.96	-50.2	-62.2	3.8	8.46e-01	0	40	104	0	71	14734
2026-01-21 15:25:14.64	301.12	9.94	-50.2	-62.2	3.8	8.47e-01	0	40	104	0	71	14766
2026-01-21 15:25:17.66	301.66	9.92	-50.2	-62.2	3.8	8.46e-01	0	40	104	0	71	14709
2026-01-21 15:25:20.68	302.19	9.89	-50.2	-62.2	3.8	8.46e-01	0	40	104	0	71	14754
2026-01-21 15:25:23.71	302.73	9.86	-50.2	-62.2	3.8	8.46e-01	0	40	104	0	71	14739
2026-01-21 15:25:26.73	303.26	9.83	-50.2	-62.2	3.8	8.47e-01	0	40	104	0	71	14741
2026-01-21 15:25:29.76	303.80	9.80	-50.2	-62.2	3.8	8.46e-01	0	40	104	0	71	14740
2026-01-21 15:25:32.79	304.33	9.77	-50.2	-62.2	3.8	8.46e-01	0	40	104	0	71	14777
2026-01-21 15:25:35.81	304.86	9.73	-50.3	-62.2	3.8	8.45e-01	0	40	104	0	71	14744
2026-01-21 15:25:38.84	305.39	9.69	-50.2	-62.1	3.8	8.47e-01	0	40	104	0	71	14708
2026-01-21 15:25:41.86	305.92	9.65	-50.2	-62.2	3.8	8.46e-01	0	40	104	0	71	14727
2026-01-21 15:25:44.89	306.45	9.61	-50.2	-62.2	3.8	8.45e-01	0	40	104	0	71	14758
2026-01-21 15:25:47.91	306.98	9.57	-50.2	-62.2	3.8	8.46e-01	0	40	104	0	71	14746
2026-01-21 15:25:50.94	307.50	9.52	-50.2	-62.2	3.8	8.46e-01	0	40	104	0	71	14742
2026-01-21 15:25:53.96	308.02	9.47	-50.2	-62.1	3.8	8.47e-01	0	40	104	0	71	14685
2026-01-21 15:25:56.99	308.55	9.42	-50.2	-62.2	3.8	8.47e-01	0	40	104	0	71	14744
2026-01-21 15:26:00.02	309.07	9.37	-50.2	-62.2	3.8	8.46e-01	0	40	104	0	71	14726
2026-01-21 15:26:03.04	309.58	9.31	-50.2	-62.2	3.8	8.45e-01	0	40	104	0	71	14727
2026-01-21 15:26:06.07	310.10	9.26	-50.2	-62.2	3.8	8.45e-01	0	40	104	0	71	14709
2026-01-21 15:26:09.10	310.61	9.20	-50.2	-62.2	3.8	8.46e-01	0	40	104	0	71	14762
2026-01-21 15:26:12.12	311.12	9.14	-50.2	-62.2	3.8	8.45e-01	0	40	104	0	71	14742
2026-01-21 15:26:15.15	311.63	9.08	-50.2	-62.2	3.8	8.45e-01	0	40	104	0	71	14798
2026-01-21 15:26:18.18	312.14	9.02	-50.2	-62.2	3.8	8.47e-01	0	40	104	0	71	14730
2026-01-21 15:26:21.20	312.65	8.95	-50.2	-62.2	3.8	8.45e-01	0	40	104	0	71	14766
2026-01-21 15:26:24.22	313.15	8.88	-50.2	-62.2	3.8	8.48e-01	0	40	104	0	71	14718
2026-01-21 15:26:27.25	313.65	8.82	-50.2	-62.2	3.8	8.47e-01	0	40	104	0	71	14763
2026-01-21 15:26:30.28	314.15	8.74	-50.2	-62.2	3.8	8.46e-01	0	40	104	0	71	14735
2026-01-21 15:26:33.31	314.65	8.67	-50.3	-62.2	3.8	8.46e-01	0	40	104	0	71	14752
2026-01-21 15:26:36.33	315.14	8.60	-50.2	-62.2	3.8	8.47e-01	0	40	104	0	71	14718
2026-01-21 15:26:39.35	315.63	8.52	-50.2	-62.2	3.8	8.46e-01	0	40	104	0	71	14773
2026-01-21 15:26:42.37	316.12	8.45	-50.2	-62.2	3.8	8.45e-01	0	40	104	0	71	14787
2026-01-21 15:26:45.40	316.60	8.37	-50.2	-62.2	3.8	8.45e-01	0	40	104	0	71	14746
2026-01-21 15:26:48.42	317.09	8.29	-50.2	-62.2	3.8	8.47e-01	0	40	104	0	71	14739
2026-01-21 15:26:51.45	317.57	8.21	-50.3	-62.2	3.8	8.46e-01	0	40	104	0	71	14767
2026-01-21 15:26:54.47	318.05	8.13	-50.2	-62.2	3.8	8.45e-01	0	40	104	0	71	14770
2026-01-21 15:26:57.50	318.52	8.04	-50.3	-62.2	3.8	8.45e-01	0	40	104	0	71	14741
2026-01-21 15:27:00.52	318.99	7.96	-50.2	-62.2	3.8	8.46e-01	0	40	104	0	71	14743
2026-01-21 15:27:03.54	319.46	7.87	-50.2	-62.2	3.8	8.48e-01	0	40	104	0	71	14730
2026-01-21 15:27:06.57	319.93	7.78	-50.2	-62.2	3.8	8.44e-01	0	40	104	0	71	14775
2026-01-21 15:27:09.59	320.40	7.69	-50.2	-62.1	3.8	8.46e-01	0	40	104	0	71	14686
2026-01-21 15:27:12.62	320.86	7.60	-50.2	-62.2	3.8	8.46e-01	0	40	104	0	71	14713
2026-01-21 15:27:15.64	321.32	7.51	-50.2	-62.2	3.8	8.45e-01	0	40	104	0	71	14740
2026-01-21 15:27:18.67	321.78	7.42	-50.3	-62.2	3.8	8.46e-01	0	40	104	0	71	14762
2026-01-21 15:27:21.70	322.23	7.32	-50.2	-62.1	3.8	8.46e-01	0	40	104	0	71	14707
2026-01-21 15:27:24.72	322.68	7.23	-50.2	-62.2	3.8	8.46e-01	0	40	104	0	71	14716
2026-01-21 15:27:27.75	323.13	7.13	-50.3	-62.1	3.8	8.47e-01	0	40	104	0	71	14691
2026-01-21 15:27:30.78	323.58	7.04	-50.2	-62.1	3.8	8.47e-01	0	40	104	0	71	14687
2026-01-21 15:27:33.80	324.02	6.94	-50.2	-62.2	3.8	8.46e-01	0	40	104	0	71	14718
2026-01-21 15:27:36.82	324.46	6.84	-50.2	-62.2	3.8	8.46e-01	0	40	104	0	71	14711
2026-01-21 15:27:39.85	324.89	6.74	-50.3	-62.2	3.8	8.46e-01	0	40	104	0	71	14767
2026-01-21 15:27:42.87	325.33	6.64	-50.2	-62.2	3.8	8.45e-01	0	40	104	0	71	14732
2026-01-21 15:27:45.89	325.76	6.53	-50.2	-62.1	3.8	8.45e-01	0	40	104	0	71	14702
2026-01-21 15:27:48.92	326.18	6.43	-50.2	-62.1	3.8	8.45e-01	0	40	104	0	71	14688
2026-01-21 15:27:51.94	326.61	6.33	-50.2	-62.1	3.8	8.46e-01	0	40	104	0	71	14698
2026-01-21 15:27:54.96	327.03	6.22	-50.2	-62.2	3.8	8.46e-01	0	40	104	0	71	14752
2026-01-21 15:27:57.99	327.45	6.11	-50.2	-62.1	3.8	8.47e-01	0	40	104	0	71	14658
2026-01-21 15:28:01.01	327.86	6.01	-50.2	-62.1	3.8	8.47e-01	0	40	104	0	71	14695
2026-01-21 15:28:04.04	328.28	5.90	-50.2	-62.1	3.8	8.45e-01	0	40	104	0	71	14653
2026-01-21 15:28:07.07	328.69	5.79	-50.2	-62.1	3.8	8.47e-01	0	40	104	0	71	14694
2026-01-21 15:28:10.10	329.10	5.68	-50.2	-62.1	3.8	8.47e-01	0	40	104	0	71	14708
2026-01-21 15:28:13.12	329.50	5.57	-50.2	-62.2	3.8	8.46e-01	0	41	104	0	71	14755
2026-01-21 15:28:16.15	329.90	5.46	-50.2	-62.1	3.8	8.47e-01	0	40	104	0	71	14700
2026-01-21 15:28:19.17	330.30	5.35	-50.2	-62.2	3.8	8.47e-01	0	40	104	0	71	14724
2026-01-21 15:28:22.20	330.70	5.24	-50.2	-62.1	3.8	8.46e-01	0	40	104	0	71	14678
2026-01-21 15:28:25.22	331.09	5.13	-50.2	-62.1	3.8	8.46e-01	0	40	104	0	71	14703
2026-01-21 15:28:28.25	331.48	5.01	-50.2	-62.2	3.8	8.46e-01	0	40	104	0	71	14724
2026-01-21 15:28:31.28	331.87	4.90	-50.2	-62.1	3.8	8.46e-01	0	41	104	0	71	14662
2026-01-21 15:28:34.31	332.25	4.79	-50.2	-62.1	3.8	8.46e-01	0	40	104	0	71	14643
2026-01-21 15:28:37.33	332.63	4.67	-50.2	-62.1	3.8	8.46e-01	0	40	104	0	71	14684
2026-01-21 15:28:40.36	333.01	4.56	-50.2	-62.1	3.8	8.46e-01	0	40	104	0	71	14676
2026-01-21 15:28:43.38	333.38	4.44	-50.2	-62.1	3.8	8.46e-01	0	40	104	0	71	14673
2026-01-21 15:28:46.41	333.76	4.32	-50.2	-62.1	3.8	8.47e-01	0	40	104	0	71	14693
2026-01-21 15:28:49.43	334.13	4.21	-50.2	-62.2	3.8	8.46e-01	0	40	104	0	71	14721
2026-01-21 15:28:52.46	334.49	4.09	-50.2	-62.1	3.8	8.46e-01	0	40	104	0	71	14684
2026-01-21 15:28:55.48	334.86	3.97	-50.2	-62.1	3.8	8.46e-01	0	40	104	0	71	14703
2026-01-21 15:28:58.51	335.22	3.85	-50.2	-62.1	3.8	8.47e-01	0	40	104	0	71	14607
2026-01-21 15:29:01.53	335.58	3.74	-50.2	-62.1	3.8	8.47e-01	0	40	104	0	71	14550
2026-01-21 15:29:04.55	335.93	3.62	-50.2	-62.2	3.8	8.47e-01	0	40	104	0	71	14725
2026-01-21 15:29:07.58	336.29	3.50	-50.2	-62.2	3.8	8.46e-01	0	40	104	0	71	14709
2026-01-21 15:29:10.60	336.63	3.38	-50.2	-62.1	3.8	8.46e-01	0	40	104	0	71	14649
2026-01-21 15:29:13.63	336.98	3.26	-50.2	-62.1	3.8	8.46e-01	0	40	104	0	71	14703
2026-01-21 15:29:16.65	337.33	3.14	-50.2	-62.2	3.8	8.47e-01	0	40	104	0	71	14718
2026-01-21 15:29:19.67	337.67	3.02	-50.2	-62.1	3.8	8.47e-01	0	40	104	0	71	14672
2026-01-21 15:29:22.70	338.01	2.90	-50.2	-62.2	3.8	8.46e-01	0	40	104	0	71	14710
2026-01-21 15:29:25.72	338.35	2.78	-50.2	-62.1	3.8	8.46e-01	0	40	104	0	71	14556
2026-01-21 15:29:28.75	338.68	2.66	-50.2	-62.1	3.8	8.48e-01	0	40	104	0	71	14621
2026-01-21 15:29:31.77	339.01	2.54	-50.2	-62.1	3.8	8.47e-01	0	40	104	0	71	14656
2026-01-21 15:29:34.80	339.34	2.41	-50.2	-62.1	3.8	8.46e-01	0	40	104	0	71	14683
2026-01-21 15:29:37.82	339.67	2.29	-50.2	-62.1	3.8	8.45e-01	0	40	104	0	71	14676
2026-01-21 15:29:40.84	339.99	2.17	-50.2	-62.1	3.8	8.46e-01	0	40	104	0	71	14694
2026-01-21 15:29:43.87	340.31	2.05	-50.3	-62.2	3.8	8.47e-01	0	40	104	0	71	14747

#Closed at: 2026-01-21 15:29:46
#Recorded file [0 MB]: D:/lorett/data/31041_260121_181944.dat