passes_logs/2026/01/21/R3.2S_Murmansk/R3.2S_Murmansk__20260121_232023_NOAA_20_JPSS-1_rec.log

#Pass ID: 20260121_232023_NOAA 20 (JPSS-1)
#Satellite: NOAA 20 (JPSS-1)
#Configuration: NOAA 20
#almurnet v.1.7.20251203
#Start time: 2026-01-21 23:20:25

#Version: 2.2.20231116
#Station: R3.2S_Murmansk
#Location: 33.079688 lon 68.888172 lat
#TLE: 1 43013U 17073A   26021.46221703  .00000173  00000+0  10299-3 0  9999
#TLE: 2 43013  98.7644 322.3335 0001238  29.7597 330.3649 14.19538314423652

#Time	Az	El	Level	Level2	SNR	BER	BlckErr	Temp	State	Recorded	gain1	gain2
2026-01-21 23:20:25.18	20.54	2.08	-54.3	-69.3	3.8	1.49e+00	0	39	0	0	79	21130
2026-01-21 23:20:29.21	20.71	2.32	-54.3	-69.3	3.8	1.49e+00	0	39	104	0	79	21246
2026-01-21 23:20:33.24	20.88	2.57	-54.2	-69.2	3.8	1.49e+00	0	39	104	0	79	20991
2026-01-21 23:20:37.28	21.05	2.82	-53.9	-69.0	3.8	1.49e+00	0	39	104	0	79	20350
2026-01-21 23:20:41.31	21.23	3.08	-53.4	-68.4	3.8	1.49e+00	0	39	104	0	78	20264
2026-01-21 23:20:45.34	21.41	3.33	-52.4	-66.9	3.8	1.49e+00	0	39	104	0	76	19130
2026-01-21 23:20:49.37	21.59	3.59	-52.3	-66.4	3.8	1.49e+00	0	39	104	0	76	18050
2026-01-21 23:20:53.41	21.78	3.85	-52.1	-63.4	4.3	1.42e+00	47	39	104	0	76	12715
2026-01-21 23:20:57.44	21.96	4.11	-50.8	-56.3	9.7	1.98e-02	0	39	0	7340032	73	6657
2026-01-21 23:21:01.47	22.15	4.37	-49.5	-52.9	13.4	2.13e-05	0	39	0	14680064	70	5359
2026-01-21 23:21:05.51	22.35	4.64	-49.2	-52.5	13.9	7.60e-06	0	39	0	22020096	70	5105
2026-01-21 23:21:09.54	22.55	4.91	-50.9	-56.5	9.6	8.19e-03	0	39	0	29360128	72	7223
2026-01-21 23:21:13.57	22.75	5.18	-51.5	-58.7	6.6	1.49e+00	1	40	104	35651584	75	7856
2026-01-21 23:21:17.60	22.95	5.45	-48.3	-50.7	15.8	0.00e+00	0	39	0	41943040	68	4673
2026-01-21 23:21:21.64	23.16	5.73	-47.9	-50.2	16.2	0.00e+00	0	39	0	49283072	67	4695
2026-01-21 23:21:25.67	23.37	6.01	-47.6	-49.8	16.7	0.00e+00	0	40	0	56623104	67	4458
2026-01-21 23:21:29.70	23.58	6.29	-47.6	-49.7	16.8	0.00e+00	0	40	0	63963136	66	4680
2026-01-21 23:21:33.73	23.80	6.57	-47.5	-49.6	17.0	0.00e+00	0	40	0	72351744	66	4611
2026-01-21 23:21:37.77	24.02	6.86	-47.6	-49.6	17.0	0.00e+00	0	40	0	79691776	66	4648
2026-01-21 23:21:41.80	24.25	7.15	-47.5	-49.5	17.1	0.00e+00	0	40	0	87031808	66	4569
2026-01-21 23:21:45.83	24.48	7.44	-47.4	-49.5	17.2	0.00e+00	0	40	0	94371840	66	4547
2026-01-21 23:21:49.86	24.72	7.74	-47.3	-49.2	17.4	0.00e+00	0	40	0	101711872	66	4426
2026-01-21 23:21:53.90	24.96	8.04	-47.5	-49.5	17.2	0.00e+00	0	40	0	110100480	66	4592
2026-01-21 23:21:57.93	25.20	8.34	-47.4	-49.4	17.4	0.00e+00	0	40	0	117440512	66	4512
2026-01-21 23:22:01.97	25.45	8.65	-47.5	-49.5	17.3	0.00e+00	0	40	0	124780544	66	4583
2026-01-21 23:22:06.00	25.70	8.96	-47.1	-49.0	17.8	0.00e+00	0	40	0	132120576	66	4314
2026-01-21 23:22:10.03	25.96	9.27	-47.0	-48.8	18.0	0.00e+00	0	40	0	140509184	66	4236
2026-01-21 23:22:14.06	26.23	9.59	-46.8	-48.5	18.3	0.00e+00	0	40	0	147849216	65	4321
2026-01-21 23:22:18.10	26.50	9.91	-46.8	-48.5	18.4	0.00e+00	0	40	0	155189248	65	4294
2026-01-21 23:22:22.13	26.77	10.23	-46.7	-48.3	18.5	0.00e+00	0	40	0	162529280	65	4240
2026-01-21 23:22:26.16	27.05	10.56	-46.6	-48.2	18.7	0.00e+00	0	40	0	169869312	65	4188
2026-01-21 23:22:30.19	27.34	10.89	-46.4	-48.0	18.9	0.00e+00	0	40	0	178257920	64	4309
2026-01-21 23:22:34.23	27.63	11.22	-46.3	-47.8	19.2	0.00e+00	0	40	0	185597952	64	4211
2026-01-21 23:22:38.26	27.93	11.56	-46.2	-47.7	19.3	0.00e+00	0	40	0	192937984	64	4148
2026-01-21 23:22:42.29	28.24	11.91	-46.1	-47.5	19.5	0.00e+00	0	40	0	200278016	63	4330
2026-01-21 23:22:46.32	28.55	12.25	-45.9	-47.4	19.7	0.00e+00	0	40	0	207618048	63	4256
2026-01-21 23:22:50.35	28.87	12.60	-46.1	-47.6	19.6	0.00e+00	0	40	0	216006656	63	4346
2026-01-21 23:22:54.38	29.20	12.96	-45.9	-47.3	19.8	0.00e+00	0	40	0	223346688	63	4214
2026-01-21 23:22:58.41	29.53	13.32	-45.9	-47.3	19.8	0.00e+00	0	40	0	230686720	63	4221
2026-01-21 23:23:02.44	29.87	13.68	-45.9	-47.3	19.9	0.00e+00	0	40	0	238026752	63	4194
2026-01-21 23:23:06.48	30.22	14.05	-45.9	-47.3	19.8	0.00e+00	0	40	0	245366784	63	4240
2026-01-21 23:23:10.50	30.58	14.43	-45.9	-47.3	19.9	0.00e+00	0	40	0	253755392	63	4223
2026-01-21 23:23:14.53	30.95	14.81	-45.8	-47.2	20.0	0.00e+00	0	40	0	261095424	63	4163
2026-01-21 23:23:18.57	31.33	15.19	-45.8	-47.1	20.1	0.00e+00	0	40	0	268435456	63	4130
2026-01-21 23:23:22.60	31.71	15.58	-45.4	-46.6	20.6	0.00e+00	0	40	0	275775488	62	4140
2026-01-21 23:23:26.63	32.11	15.97	-45.3	-46.6	20.6	0.00e+00	0	40	0	283115520	62	4130
2026-01-21 23:23:30.67	32.51	16.37	-45.5	-46.8	20.5	0.00e+00	0	40	0	291504128	62	4221
2026-01-21 23:23:34.70	32.93	16.78	-45.7	-47.0	20.2	0.00e+00	0	40	0	298844160	62	4338
2026-01-21 23:23:38.73	33.36	17.19	-45.9	-47.2	20.1	0.00e+00	0	40	0	306184192	62	4440
2026-01-21 23:23:42.76	33.79	17.60	-45.8	-47.1	20.2	0.00e+00	0	40	0	313524224	62	4386
2026-01-21 23:23:46.79	34.24	18.02	-46.0	-47.4	20.0	0.00e+00	0	40	0	321912832	62	4502
2026-01-21 23:23:50.83	34.71	18.45	-46.1	-47.5	19.8	0.00e+00	0	40	0	329252864	62	4577
2026-01-21 23:23:54.86	35.18	18.88	-46.1	-47.5	19.9	0.00e+00	0	40	0	336592896	62	4575
2026-01-21 23:23:58.89	35.67	19.32	-46.2	-47.6	19.8	0.00e+00	0	40	0	343932928	62	4616
2026-01-21 23:24:02.92	36.17	19.77	-46.2	-47.6	19.8	0.00e+00	0	40	0	351272960	63	4391
2026-01-21 23:24:06.95	36.69	20.22	-46.2	-47.6	19.7	0.00e+00	0	40	0	359661568	63	4381
2026-01-21 23:24:10.99	37.22	20.67	-46.4	-47.8	19.6	0.00e+00	0	40	0	367001600	63	4470
2026-01-21 23:24:15.02	37.77	21.13	-46.4	-47.8	19.6	0.00e+00	0	40	0	374341632	63	4493
2026-01-21 23:24:19.06	38.33	21.60	-46.5	-48.0	19.5	0.00e+00	0	40	0	381681664	63	4565
2026-01-21 23:24:23.09	38.91	22.08	-46.4	-47.9	19.5	0.00e+00	0	40	0	390070272	63	4519
2026-01-21 23:24:27.12	39.51	22.56	-46.4	-47.8	19.6	0.00e+00	0	40	0	397410304	63	4466
2026-01-21 23:24:31.15	40.12	23.04	-46.2	-47.6	19.9	0.00e+00	0	40	0	404750336	63	4341
2026-01-21 23:24:35.19	40.76	23.54	-46.0	-47.3	20.1	0.00e+00	0	40	0	412090368	63	4239
2026-01-21 23:24:39.22	41.41	24.03	-45.7	-47.0	20.5	0.00e+00	0	40	0	419430400	63	4063
2026-01-21 23:24:43.25	42.08	24.54	-45.9	-47.2	20.2	0.00e+00	0	40	0	426770432	63	4186
2026-01-21 23:24:47.28	42.78	25.05	-45.9	-47.3	20.2	0.00e+00	0	40	0	435159040	63	4204
2026-01-21 23:24:51.32	43.50	25.56	-45.7	-47.0	20.5	0.00e+00	0	40	0	442499072	63	4061
2026-01-21 23:24:55.35	44.24	26.08	-46.1	-47.4	20.1	0.00e+00	0	40	0	449839104	63	4286
2026-01-21 23:24:59.38	45.00	26.61	-46.3	-47.7	19.8	0.00e+00	0	40	0	457179136	63	4409
2026-01-21 23:25:03.41	45.79	27.14	-46.1	-47.4	20.2	0.00e+00	0	40	0	465567744	63	4265
2026-01-21 23:25:07.45	46.61	27.67	-46.7	-48.2	19.3	0.00e+00	0	40	0	472907776	64	4430
2026-01-21 23:25:11.48	47.46	28.21	-46.6	-48.1	19.4	0.00e+00	0	40	0	480247808	64	4363
2026-01-21 23:25:15.51	48.33	28.75	-46.4	-47.8	19.6	0.00e+00	0	40	0	487587840	64	4241
2026-01-21 23:25:19.54	49.23	29.30	-47.0	-48.6	18.9	0.00e+00	0	40	0	494927872	64	4650
2026-01-21 23:25:23.58	50.16	29.85	-46.5	-48.0	19.5	0.00e+00	0	40	0	503316480	64	4304
2026-01-21 23:25:27.61	51.13	30.40	-46.9	-48.4	19.1	0.00e+00	0	40	0	510656512	64	4530
2026-01-21 23:25:31.64	52.12	30.95	-46.7	-48.2	19.3	0.00e+00	0	40	0	517996544	64	4416
2026-01-21 23:25:35.67	53.16	31.51	-47.1	-48.6	18.9	0.00e+00	0	40	0	525336576	64	4643
2026-01-21 23:25:39.70	54.22	32.06	-47.1	-48.6	19.0	0.00e+00	0	40	0	533725184	65	4380
2026-01-21 23:25:43.73	55.32	32.62	-47.8	-49.5	18.1	0.00e+00	0	40	0	541065216	66	4583
2026-01-21 23:25:47.77	56.47	33.17	-48.1	-49.9	17.7	0.00e+00	0	40	0	548405248	66	4808
2026-01-21 23:25:51.80	57.64	33.72	-48.1	-49.9	17.8	0.00e+00	0	40	0	555745280	66	4806
2026-01-21 23:25:55.83	58.86	34.27	-48.5	-50.6	17.1	0.00e+00	0	40	0	563085312	67	4883
2026-01-21 23:25:59.86	60.12	34.81	-48.9	-51.1	16.7	0.00e+00	0	40	0	570425344	68	4877
2026-01-21 23:26:03.89	61.42	35.34	-48.5	-50.6	17.3	0.00e+00	0	40	0	578813952	68	4600
2026-01-21 23:26:07.93	62.77	35.87	-48.6	-50.7	17.1	0.00e+00	0	40	0	586153984	68	4676
2026-01-21 23:26:11.95	64.15	36.38	-48.7	-50.8	17.0	0.00e+00	0	40	0	593494016	68	4719
2026-01-21 23:26:15.99	65.58	36.89	-47.7	-49.5	18.3	0.00e+00	0	40	0	600834048	67	4299
2026-01-21 23:26:20.02	67.05	37.39	-49.0	-51.2	16.7	0.00e+00	0	40	0	609222656	68	4948
2026-01-21 23:26:24.05	68.57	37.87	-47.9	-49.6	18.1	0.00e+00	0	40	0	616562688	67	4366
2026-01-21 23:26:28.08	70.13	38.33	-47.8	-49.5	18.2	0.00e+00	0	40	0	623902720	66	4593
2026-01-21 23:26:32.11	71.74	38.78	-47.8	-49.5	18.3	0.00e+00	0	40	0	631242752	67	4308
2026-01-21 23:26:36.15	73.39	39.20	-48.9	-51.1	16.8	0.00e+00	0	40	0	638582784	68	4908
2026-01-21 23:26:40.18	75.08	39.61	-48.4	-50.4	17.5	0.00e+00	0	40	0	646971392	68	4500
2026-01-21 23:26:44.21	76.81	39.99	-48.4	-50.4	17.5	0.00e+00	0	40	0	654311424	68	4510
2026-01-21 23:26:48.24	78.58	40.34	-47.0	-48.6	19.1	0.00e+00	0	40	0	661651456	66	4107
2026-01-21 23:26:52.28	80.40	40.67	-47.4	-49.1	18.6	0.00e+00	0	40	0	668991488	65	4602
2026-01-21 23:26:56.31	82.24	40.97	-47.4	-49.0	18.8	0.00e+00	0	40	0	676331520	65	4579
2026-01-21 23:27:00.34	84.12	41.24	-48.2	-50.1	17.7	0.00e+00	0	40	0	684720128	67	4624
2026-01-21 23:27:04.38	86.03	41.48	-48.8	-50.8	17.1	0.00e+00	0	40	0	692060160	68	4735
2026-01-21 23:27:08.41	87.96	41.68	-48.7	-50.8	17.2	0.00e+00	0	40	0	699400192	68	4720
2026-01-21 23:27:12.44	89.91	41.84	-48.1	-49.9	18.0	0.00e+00	0	40	0	706740224	68	4289
2026-01-21 23:27:16.47	91.88	41.97	-47.9	-49.7	18.1	0.00e+00	0	40	0	714080256	67	4399
2026-01-21 23:27:20.51	93.87	42.07	-46.8	-48.3	19.4	0.00e+00	0	40	0	722468864	65	4205
2026-01-21 23:27:24.54	95.87	42.12	-47.9	-49.6	18.2	0.00e+00	0	40	0	729808896	66	4651
2026-01-21 23:27:28.57	97.86	42.14	-46.2	-47.5	20.2	0.00e+00	0	40	0	737148928	64	4086
2026-01-21 23:27:32.60	99.86	42.12	-45.7	-46.9	20.8	0.00e+00	0	40	0	744488960	63	4039
2026-01-21 23:27:36.63	101.86	42.06	-46.1	-47.4	20.4	0.00e+00	0	40	0	752877568	63	4274
2026-01-21 23:27:40.66	103.84	41.96	-47.2	-48.8	18.9	0.00e+00	0	40	0	760217600	64	4709
2026-01-21 23:27:44.69	105.81	41.83	-47.1	-48.7	19.1	0.00e+00	0	40	0	767557632	65	4396
2026-01-21 23:27:48.72	107.77	41.66	-46.9	-48.4	19.3	0.00e+00	0	40	0	774897664	65	4268
2026-01-21 23:27:52.76	109.70	41.46	-48.3	-50.2	17.6	0.00e+00	0	41	0	782237696	67	4671
2026-01-21 23:27:56.79	111.61	41.22	-48.4	-50.4	17.4	0.00e+00	0	41	0	790626304	67	4804
2026-01-21 23:28:00.83	113.49	40.94	-46.7	-48.2	19.6	0.00e+00	0	40	0	797966336	65	4146
2026-01-21 23:28:04.86	115.33	40.64	-46.5	-47.9	19.7	0.00e+00	0	40	0	805306368	65	4033
2026-01-21 23:28:08.89	117.14	40.31	-47.4	-49.0	18.6	0.00e+00	0	40	0	812646400	66	4324
2026-01-21 23:28:12.92	118.91	39.95	-46.1	-47.4	20.3	0.00e+00	0	41	0	819986432	63	4271
2026-01-21 23:28:16.95	120.64	39.57	-45.4	-46.6	21.1	0.00e+00	0	40	0	828375040	62	4102
2026-01-21 23:28:20.98	122.33	39.16	-45.1	-46.3	21.3	0.00e+00	0	41	0	835715072	62	3992
2026-01-21 23:28:25.01	123.98	38.73	-45.1	-46.3	21.3	0.00e+00	0	41	0	843055104	60	4460
2026-01-21 23:28:29.04	125.58	38.28	-44.3	-45.3	22.4	0.00e+00	0	40	0	850395136	59	4217
2026-01-21 23:28:33.07	127.14	37.81	-44.4	-45.5	22.0	0.00e+00	0	40	0	857735168	60	4060
2026-01-21 23:28:37.10	128.66	37.33	-44.9	-46.0	21.6	0.00e+00	0	40	0	866123776	60	4312
2026-01-21 23:28:41.14	130.13	36.83	-44.7	-45.8	21.7	0.00e+00	0	40	0	873463808	60	4239
2026-01-21 23:28:45.17	131.56	36.32	-45.2	-46.4	21.1	0.00e+00	0	40	0	880803840	61	4283
2026-01-21 23:28:49.19	132.94	35.80	-45.6	-46.9	20.7	0.00e+00	0	40	0	888143872	62	4261
2026-01-21 23:28:53.23	134.29	35.27	-45.2	-46.4	21.1	0.00e+00	0	40	0	896532480	61	4263
2026-01-21 23:28:57.26	135.59	34.74	-44.9	-46.1	21.4	0.00e+00	0	40	0	903872512	61	4111
2026-01-21 23:29:01.29	136.84	34.19	-45.7	-47.0	20.5	0.00e+00	0	40	0	911212544	63	4077
2026-01-21 23:29:05.32	138.06	33.64	-47.1	-48.7	18.8	0.00e+00	0	40	0	918552576	64	4705
2026-01-21 23:29:09.35	139.24	33.09	-46.3	-47.7	19.7	0.00e+00	0	40	0	925892608	64	4172
2026-01-21 23:29:13.38	140.38	32.54	-47.2	-48.9	18.6	0.00e+00	0	40	0	933232640	65	4528
2026-01-21 23:29:17.42	141.48	31.98	-45.3	-46.5	20.9	0.00e+00	0	40	0	941621248	62	4081
2026-01-21 23:29:21.45	142.54	31.42	-48.5	-50.7	16.8	0.00e+00	0	40	0	948961280	67	4941
2026-01-21 23:29:25.48	143.57	30.87	-45.0	-46.1	21.3	0.00e+00	0	40	0	956301312	62	3898
2026-01-21 23:29:29.51	144.57	30.31	-47.2	-48.9	18.5	0.00e+00	0	40	0	963641344	65	4541
2026-01-21 23:29:33.55	145.53	29.76	-45.4	-46.6	20.8	0.00e+00	0	40	0	972029952	62	4115
2026-01-21 23:29:37.58	146.46	29.20	-46.5	-48.0	19.6	0.00e+00	0	40	0	979369984	63	4549
2026-01-21 23:29:41.62	147.37	28.66	-45.3	-46.5	20.9	0.00e+00	0	40	0	986710016	62	4058
2026-01-21 23:29:45.65	148.24	28.11	-44.7	-45.8	21.5	0.00e+00	0	41	0	994050048	60	4220
2026-01-21 23:29:49.69	149.08	27.57	-45.7	-47.0	20.4	0.00e+00	0	40	0	1002438656	63	4088
2026-01-21 23:29:53.72	149.90	27.03	-44.5	-45.6	21.7	0.00e+00	0	40	0	1009778688	60	4125
2026-01-21 23:29:57.76	150.69	26.50	-45.8	-47.2	20.2	0.00e+00	0	40	0	1017118720	62	4419
2026-01-21 23:30:01.79	151.45	25.97	-45.2	-46.5	20.9	0.00e+00	0	40	0	1024458752	62	4062
2026-01-21 23:30:05.82	152.19	25.45	-44.5	-45.6	21.7	0.00e+00	0	41	0	1031798784	60	4113
2026-01-21 23:30:09.85	152.91	24.93	-45.5	-46.8	20.5	0.00e+00	0	40	0	1039138816	61	4476
2026-01-21 23:30:13.88	153.60	24.42	-45.9	-47.3	20.0	0.00e+00	0	40	0	1047527424	62	4446
2026-01-21 23:30:17.91	154.27	23.92	-44.5	-45.6	21.6	0.00e+00	0	40	0	1054867456	61	3910
2026-01-21 23:30:21.94	154.92	23.42	-44.7	-45.9	21.3	0.00e+00	0	40	0	1062207488	60	4271
2026-01-21 23:30:25.98	155.56	22.92	-45.1	-46.3	20.9	0.00e+00	0	40	0	1069547520	60	4465
2026-01-21 23:30:30.01	156.17	22.43	-45.2	-46.5	20.8	0.00e+00	0	40	0	1077936128	61	4302
2026-01-21 23:30:34.04	156.77	21.95	-45.2	-46.4	20.8	0.00e+00	0	40	0	1085276160	61	4263
2026-01-21 23:30:38.07	157.34	21.48	-45.4	-46.7	20.5	0.00e+00	0	41	0	1092616192	61	4436
2026-01-21 23:30:42.10	157.90	21.01	-46.0	-47.4	19.9	0.00e+00	0	41	0	1099956224	62	4525
2026-01-21 23:30:46.14	158.45	20.54	-45.7	-47.1	20.1	0.00e+00	0	41	0	1107296256	62	4344
2026-01-21 23:30:50.17	158.98	20.09	-45.6	-46.9	20.3	0.00e+00	0	40	0	1115684864	62	4280
2026-01-21 23:30:54.20	159.49	19.64	-45.6	-47.0	20.2	0.00e+00	0	41	0	1123024896	62	4302
2026-01-21 23:30:58.23	159.99	19.19	-45.8	-47.1	20.1	0.00e+00	0	40	0	1130364928	62	4378
2026-01-21 23:31:02.26	160.48	18.75	-45.4	-46.7	20.4	0.00e+00	0	41	0	1137704960	62	4165
2026-01-21 23:31:06.29	160.95	18.32	-45.3	-46.6	20.5	0.00e+00	0	40	0	1146093568	62	4117
2026-01-21 23:31:10.33	161.41	17.89	-45.5	-46.8	20.3	0.00e+00	0	40	0	1153433600	62	4237
2026-01-21 23:31:14.36	161.86	17.47	-46.1	-47.6	19.5	0.00e+00	0	40	0	1160773632	62	4613
2026-01-21 23:31:18.39	162.30	17.05	-46.3	-47.8	19.4	0.00e+00	0	40	0	1168113664	63	4442
2026-01-21 23:31:22.42	162.72	16.64	-46.2	-47.6	19.5	0.00e+00	0	40	0	1175453696	63	4382
2026-01-21 23:31:26.45	163.14	16.23	-46.1	-47.6	19.5	0.00e+00	0	41	0	1182793728	63	4354
2026-01-21 23:31:30.49	163.54	15.83	-45.8	-47.2	19.9	0.00e+00	0	40	0	1191182336	63	4166
2026-01-21 23:31:34.52	163.93	15.44	-45.9	-47.3	19.8	0.00e+00	0	40	0	1198522368	63	4205
2026-01-21 23:31:38.55	164.32	15.05	-45.9	-47.3	19.7	0.00e+00	0	41	0	1205862400	63	4221
2026-01-21 23:31:42.58	164.69	14.66	-46.0	-47.5	19.5	0.00e+00	0	40	0	1213202432	63	4310
2026-01-21 23:31:46.62	165.06	14.28	-46.2	-47.7	19.3	0.00e+00	0	41	0	1221591040	63	4424
2026-01-21 23:31:50.65	165.41	13.90	-46.2	-47.7	19.4	0.00e+00	0	40	0	1228931072	63	4392
2026-01-21 23:31:54.68	165.76	13.53	-46.3	-47.8	19.2	0.00e+00	0	41	0	1236271104	63	4455
2026-01-21 23:31:58.71	166.10	13.17	-46.6	-48.2	18.8	0.00e+00	0	40	0	1243611136	63	4679
2026-01-21 23:32:02.74	166.43	12.81	-46.6	-48.3	18.6	0.00e+00	0	41	0	1250951168	64	4472
2026-01-21 23:32:06.78	166.76	12.45	-46.8	-48.5	18.4	0.00e+00	0	41	0	1259339776	64	4571
2026-01-21 23:32:10.81	167.08	12.10	-46.4	-48.1	18.7	0.00e+00	0	40	0	1266679808	64	4358
2026-01-21 23:32:14.84	167.39	11.75	-46.2	-47.7	19.0	0.00e+00	0	40	0	1274019840	64	4178
2026-01-21 23:32:18.87	167.69	11.41	-46.1	-47.6	19.1	0.00e+00	0	40	0	1281359872	64	4127
2026-01-21 23:32:22.90	167.99	11.07	-46.1	-47.7	19.1	0.00e+00	0	40	0	1288699904	63	4402
2026-01-21 23:32:26.94	168.28	10.73	-46.4	-48.1	18.8	0.00e+00	0	41	0	1297088512	63	4604
2026-01-21 23:32:30.97	168.56	10.40	-46.7	-48.5	18.2	0.00e+00	0	40	0	1304428544	64	4560
2026-01-21 23:32:35.00	168.84	10.07	-47.2	-49.1	17.6	0.00e+00	0	41	0	1311768576	64	4877
2026-01-21 23:32:39.03	169.11	9.75	-47.4	-49.4	17.3	0.00e+00	0	40	0	1319108608	65	4767
2026-01-21 23:32:43.06	169.38	9.43	-47.5	-49.6	17.0	0.00e+00	0	41	0	1326448640	65	4892
2026-01-21 23:32:47.09	169.64	9.11	-47.3	-49.3	17.3	0.00e+00	0	41	0	1334837248	65	4708
2026-01-21 23:32:51.13	169.89	8.79	-47.2	-49.1	17.4	0.00e+00	0	40	0	1342177280	65	4641
2026-01-21 23:32:55.16	170.15	8.48	-47.0	-48.8	17.7	0.00e+00	0	40	0	1349517312	65	4480
2026-01-21 23:32:59.19	170.39	8.18	-47.1	-49.0	17.5	0.00e+00	0	41	0	1356857344	65	4569
2026-01-21 23:33:03.22	170.63	7.87	-46.9	-48.8	17.7	0.00e+00	0	40	0	1365245952	65	4472
2026-01-21 23:33:07.25	170.87	7.57	-46.9	-48.8	17.7	0.00e+00	0	41	0	1372585984	65	4464
2026-01-21 23:33:11.29	171.10	7.28	-47.2	-49.2	17.1	0.00e+00	0	40	0	1379926016	65	4698
2026-01-21 23:33:15.32	171.33	6.98	-47.3	-49.4	17.0	0.00e+00	0	40	0	1387266048	65	4764
2026-01-21 23:33:19.35	171.55	6.69	-47.7	-50.0	16.4	0.00e+00	0	40	0	1394606080	66	4815
2026-01-21 23:33:23.38	171.77	6.40	-47.7	-50.0	16.3	0.00e+00	0	40	0	1401946112	66	4816
2026-01-21 23:33:27.41	171.99	6.12	-47.9	-50.3	15.9	0.00e+00	0	41	0	1410334720	66	5029
2026-01-21 23:33:31.45	172.20	5.84	-48.0	-50.5	15.7	0.00e+00	0	40	0	1417674752	66	5110
2026-01-21 23:33:35.48	172.41	5.56	-48.0	-50.5	15.6	0.00e+00	0	40	0	1425014784	67	4853
2026-01-21 23:33:39.51	172.61	5.28	-48.1	-50.7	15.4	0.00e+00	0	41	0	1432354816	67	4951
2026-01-21 23:33:43.54	172.81	5.00	-50.8	-56.6	10.3	0.00e+00	0	40	0	1440743424	72	7336
2026-01-21 23:33:47.57	173.01	4.73	-53.5	-68.5	3.8	1.49e+00	0	41	104	1440743424	77	21574
2026-01-21 23:33:51.61	173.21	4.46	-53.9	-68.9	3.8	1.49e+00	0	40	104	1440743424	78	21367
2026-01-21 23:33:55.64	173.40	4.20	-54.2	-69.2	3.8	1.49e+00	0	41	104	1440743424	78	22064
2026-01-21 23:33:59.67	173.58	3.93	-54.3	-69.4	3.8	1.49e+00	0	41	104	1440743424	79	21278
2026-01-21 23:34:03.70	173.77	3.67	-54.5	-69.5	3.8	1.49e+00	0	41	104	1440743424	79	21718
2026-01-21 23:34:07.73	173.95	3.41	-54.5	-69.5	3.8	1.49e+00	0	41	104	1440743424	79	21703
2026-01-21 23:34:11.77	174.13	3.15	-54.4	-69.4	3.8	1.49e+00	0	41	104	1440743424	79	21478
2026-01-21 23:34:15.80	174.30	2.90	-54.2	-69.2	3.8	1.49e+00	0	41	104	1440743424	79	21002
2026-01-21 23:34:19.83	174.48	2.64	-53.9	-68.9	3.8	1.49e+00	0	41	104	1440743424	79	20183
2026-01-21 23:34:23.86	174.65	2.39	-53.5	-68.5	3.8	1.49e+00	0	41	104	1440743424	79	19240
2026-01-21 23:34:27.90	174.81	2.14	-53.5	-68.5	3.8	1.49e+00	0	41	104	1440743424	78	20361

#Closed at: 2026-01-21 23:34:30
#Recorded file [1440 MB]: D:/lorett/data/31041_260122_022025.dat