passes_logs/2026/01/21/R3.2S_Murmansk/R3.2S_Murmansk__20260121_102656_NOAA_21_JPSS-2_rec.log

#Pass ID: 20260121_102656_NOAA 21 (JPSS-2)
#Satellite: NOAA 21 (JPSS-2)
#Configuration: NOAA-21
#almurnet v.1.7.20251203
#Start time: 2026-01-21 10:28:41

#Version: 2.2.20231116
#Station: R3.2S_Murmansk
#Location: 33.079688 lon 68.888172 lat
#TLE: 1 54234U 22150A   26020.93347024  .00000206  00000+0  11859-3 0  9994
#TLE: 2 54234  98.7506 321.7615 0000627 245.8100 114.3011 14.19536899165654

#Time	Az	El	Level	Level2	SNR	BER	BlckErr	Temp	State	Recorded	gain1	gain2
2026-01-21 10:28:41.01	178.00	9.46	-53.5	-65.5	3.8	8.47e-01	0	39	0	0	77	15236
2026-01-21 10:28:44.03	178.14	9.71	-54.4	-67.1	3.8	1.49e+00	0	40	104	0	79	16484
2026-01-21 10:28:47.06	178.28	9.96	-54.5	-67.3	3.8	1.49e+00	0	40	104	0	79	16731
2026-01-21 10:28:50.08	178.42	10.21	-54.5	-67.3	3.8	1.49e+00	0	40	104	0	79	16755
2026-01-21 10:28:53.11	178.57	10.47	-54.6	-67.4	3.8	1.49e+00	0	40	104	0	79	16937
2026-01-21 10:28:56.13	178.71	10.73	-54.6	-67.4	3.8	1.49e+00	0	40	104	0	79	17031
2026-01-21 10:28:59.15	178.86	11.00	-54.6	-67.4	3.8	1.49e+00	0	40	104	0	79	16972
2026-01-21 10:29:02.18	179.01	11.26	-54.6	-67.4	3.8	1.49e+00	0	40	104	0	79	16943
2026-01-21 10:29:05.20	179.17	11.53	-54.6	-67.4	3.8	1.49e+00	0	40	104	0	79	16889
2026-01-21 10:29:08.23	179.32	11.80	-54.5	-67.3	3.8	1.49e+00	0	40	104	0	79	16741
2026-01-21 10:29:11.25	179.48	12.08	-54.4	-67.2	3.8	1.49e+00	0	40	104	0	79	16651
2026-01-21 10:29:14.27	179.65	12.35	-54.5	-67.3	3.8	1.49e+00	0	40	104	0	79	16808
2026-01-21 10:29:17.30	179.81	12.63	-54.4	-67.2	3.8	1.49e+00	0	40	104	0	79	16686
2026-01-21 10:29:20.32	179.98	12.92	-54.4	-67.2	3.8	1.49e+00	0	40	104	0	79	16636
2026-01-21 10:29:23.35	180.15	13.20	-54.4	-67.2	3.8	1.49e+00	0	40	104	0	79	16519
2026-01-21 10:29:26.37	180.32	13.49	-54.4	-67.1	3.8	1.49e+00	0	40	104	0	79	16453
2026-01-21 10:29:29.39	180.50	13.78	-54.4	-67.1	3.8	1.49e+00	0	40	104	0	79	16498
2026-01-21 10:29:32.42	180.68	14.08	-54.3	-67.1	3.8	1.49e+00	0	40	104	0	79	16426
2026-01-21 10:29:35.44	180.87	14.38	-54.4	-67.1	3.8	1.49e+00	0	40	104	0	79	16497
2026-01-21 10:29:38.46	181.06	14.68	-54.6	-67.4	3.8	1.49e+00	0	40	104	0	79	16911
2026-01-21 10:29:41.49	181.25	14.99	-54.5	-67.3	3.8	1.49e+00	0	40	104	0	79	16786
2026-01-21 10:29:44.51	181.44	15.30	-54.4	-67.2	3.8	1.49e+00	0	40	104	0	79	16627
2026-01-21 10:29:47.54	181.64	15.61	-54.3	-67.1	3.8	1.49e+00	0	40	104	0	79	16411
2026-01-21 10:29:50.56	181.84	15.93	-54.2	-66.8	3.8	1.49e+00	0	40	104	0	79	15810
2026-01-21 10:29:53.58	182.05	16.25	-54.0	-66.7	3.8	1.49e+00	0	40	104	0	79	15673
2026-01-21 10:29:56.61	182.26	16.58	-53.6	-64.5	3.9	1.78e-01	3	40	0	3145728	77	13584
2026-01-21 10:29:59.63	182.48	16.91	-44.4	-45.3	19.9	0.00e+00	0	40	0	6291456	60	3997
2026-01-21 10:30:02.65	182.70	17.24	-43.5	-44.4	20.9	0.00e+00	0	40	0	15728640	59	3809
2026-01-21 10:30:05.68	182.92	17.58	-43.1	-44.0	21.3	0.00e+00	0	40	0	25165824	57	4065
2026-01-21 10:30:08.70	183.15	17.92	-42.9	-43.8	21.5	0.00e+00	0	40	0	35651584	57	3974
2026-01-21 10:30:11.73	183.39	18.27	-43.0	-43.9	21.4	0.00e+00	0	40	0	45088768	57	4017
2026-01-21 10:30:14.75	183.63	18.62	-43.1	-44.0	21.3	0.00e+00	0	40	0	53477376	57	4079
2026-01-21 10:30:17.77	183.87	18.97	-43.1	-44.0	21.3	0.00e+00	0	40	0	62914560	57	4080
2026-01-21 10:30:20.80	184.13	19.34	-43.3	-44.1	21.2	0.00e+00	0	40	0	72351744	57	4145
2026-01-21 10:30:23.82	184.38	19.70	-43.3	-44.2	21.2	0.00e+00	0	40	0	82837504	57	4152
2026-01-21 10:30:26.85	184.64	20.07	-43.1	-44.0	21.3	0.00e+00	0	40	0	92274688	57	4087
2026-01-21 10:30:29.87	184.91	20.44	-43.2	-44.1	21.2	0.00e+00	0	40	0	101711872	57	4104
2026-01-21 10:30:32.89	185.19	20.82	-42.7	-43.6	21.6	0.00e+00	0	40	0	110100480	57	3876
2026-01-21 10:30:35.91	185.47	21.21	-42.4	-43.2	21.9	0.00e+00	0	40	0	120586240	56	3953
2026-01-21 10:30:38.94	185.76	21.60	-42.2	-43.0	22.1	0.00e+00	0	40	0	130023424	56	3849
2026-01-21 10:30:41.96	186.05	22.00	-42.0	-42.8	22.3	0.00e+00	0	40	0	139460608	56	3760
2026-01-21 10:30:44.98	186.36	22.40	-42.0	-42.7	22.3	0.00e+00	0	40	0	148897792	55	3957
2026-01-21 10:30:48.01	186.67	22.80	-41.5	-42.3	22.6	0.00e+00	0	40	0	158334976	55	3749
2026-01-21 10:30:51.03	186.98	23.22	-41.5	-42.3	22.7	0.00e+00	0	40	0	167772160	54	3961
2026-01-21 10:30:54.06	187.31	23.64	-41.3	-42.1	22.9	0.00e+00	0	40	0	177209344	54	3871
2026-01-21 10:30:57.09	187.65	24.06	-41.4	-42.2	22.8	0.00e+00	0	40	0	186646528	54	3936
2026-01-21 10:31:00.11	187.99	24.49	-41.7	-42.4	22.7	0.00e+00	0	40	0	196083712	54	4050
2026-01-21 10:31:03.14	188.34	24.93	-41.8	-42.6	22.6	0.00e+00	0	40	0	205520896	54	4120
2026-01-21 10:31:06.16	188.71	25.37	-41.9	-42.7	22.4	0.00e+00	0	40	0	214958080	54	4182
2026-01-21 10:31:09.19	189.08	25.82	-42.0	-42.8	22.4	0.00e+00	0	40	0	224395264	54	4221
2026-01-21 10:31:12.21	189.46	26.27	-42.2	-43.0	22.2	0.00e+00	0	40	0	233832448	55	4081
2026-01-21 10:31:15.24	189.86	26.74	-42.4	-43.2	21.9	0.00e+00	0	40	0	243269632	55	4193
2026-01-21 10:31:18.26	190.26	27.20	-42.6	-43.5	21.8	0.00e+00	0	40	0	252706816	55	4295
2026-01-21 10:31:21.29	190.68	27.68	-42.8	-43.6	21.7	0.00e+00	0	40	0	262144000	56	4135
2026-01-21 10:31:24.31	191.11	28.16	-42.7	-43.5	21.8	0.00e+00	0	40	0	271581184	56	4086
2026-01-21 10:31:27.34	191.55	28.65	-42.6	-43.4	21.9	0.00e+00	0	40	0	281018368	56	4027
2026-01-21 10:31:30.36	192.01	29.14	-42.7	-43.5	21.9	0.00e+00	0	40	0	290455552	56	4068
2026-01-21 10:31:33.38	192.48	29.65	-42.8	-43.7	21.7	0.00e+00	0	40	0	299892736	56	4155
2026-01-21 10:31:36.41	192.96	30.16	-42.8	-43.6	21.7	0.00e+00	0	40	0	309329920	56	4124
2026-01-21 10:31:39.43	193.46	30.67	-42.6	-43.4	21.8	0.00e+00	0	40	0	318767104	56	4048
2026-01-21 10:31:42.46	193.97	31.20	-42.5	-43.3	22.0	0.00e+00	0	40	0	328204288	56	3972
2026-01-21 10:31:45.48	194.51	31.72	-42.5	-43.3	22.0	0.00e+00	0	40	0	337641472	56	3994
2026-01-21 10:31:48.50	195.05	32.26	-42.7	-43.5	21.9	0.00e+00	0	40	0	347078656	56	4064
2026-01-21 10:31:51.53	195.62	32.80	-42.6	-43.5	21.9	0.00e+00	0	40	0	356515840	56	4053
2026-01-21 10:31:54.55	196.21	33.35	-43.0	-43.9	21.5	0.00e+00	0	40	0	365953024	56	4245
2026-01-21 10:31:57.57	196.81	33.91	-43.5	-44.5	21.0	0.00e+00	0	40	0	375390208	57	4292
2026-01-21 10:32:00.59	197.43	34.47	-44.0	-44.9	20.5	0.00e+00	0	40	0	384827392	58	4276
2026-01-21 10:32:03.62	198.08	35.05	-44.3	-45.3	20.0	0.00e+00	0	40	0	394264576	59	4230
2026-01-21 10:32:06.64	198.75	35.62	-44.2	-45.2	20.1	0.00e+00	0	40	0	403701760	59	4183
2026-01-21 10:32:09.67	199.45	36.20	-44.4	-45.3	20.4	0.00e+00	0	40	0	413138944	59	4237
2026-01-21 10:32:12.69	200.17	36.79	-44.2	-45.1	20.3	0.00e+00	0	40	0	422576128	60	3900
2026-01-21 10:32:15.71	200.91	37.39	-44.3	-45.3	20.2	0.00e+00	0	40	0	432013312	60	3961
2026-01-21 10:32:18.74	201.68	37.99	-44.7	-45.7	19.7	0.00e+00	0	40	0	441450496	60	4161
2026-01-21 10:32:21.76	202.48	38.59	-45.0	-46.0	19.2	0.00e+00	0	40	0	450887680	60	4338
2026-01-21 10:32:24.79	203.31	39.20	-45.1	-46.2	19.1	0.00e+00	0	40	0	460324864	60	4422
2026-01-21 10:32:27.81	204.17	39.81	-44.5	-45.5	20.0	0.00e+00	0	40	0	469762048	60	4063
2026-01-21 10:32:30.83	205.07	40.43	-44.4	-45.4	20.0	0.00e+00	0	40	0	479199232	60	4044
2026-01-21 10:32:33.85	205.99	41.04	-44.3	-45.2	20.2	0.00e+00	0	40	0	488636416	60	3954
2026-01-21 10:32:36.88	206.96	41.67	-44.5	-45.5	20.3	0.00e+00	0	40	0	498073600	59	4300
2026-01-21 10:32:39.90	207.96	42.29	-44.6	-45.6	20.2	0.00e+00	0	40	0	507510784	59	4381
2026-01-21 10:32:42.92	208.99	42.91	-45.0	-46.1	19.5	0.00e+00	0	40	0	516947968	60	4363
2026-01-21 10:32:45.95	210.08	43.53	-44.9	-46.0	19.5	0.00e+00	0	40	0	526385152	60	4301
2026-01-21 10:32:48.98	211.20	44.16	-45.4	-46.5	19.2	0.00e+00	0	40	0	535822336	61	4293
2026-01-21 10:32:52.00	212.36	44.77	-45.2	-46.3	19.4	0.00e+00	0	40	0	545259520	61	4195
2026-01-21 10:32:55.03	213.58	45.39	-44.2	-45.1	20.4	0.00e+00	0	40	0	554696704	60	3901
2026-01-21 10:32:58.05	214.83	46.00	-44.4	-45.4	20.4	0.00e+00	0	40	0	564133888	59	4256
2026-01-21 10:33:01.07	216.14	46.60	-44.5	-45.5	20.0	0.00e+00	0	40	0	573571072	60	4084
2026-01-21 10:33:04.10	217.50	47.20	-44.6	-45.6	19.9	0.00e+00	0	40	0	583008256	60	4122
2026-01-21 10:33:07.12	218.91	47.78	-44.9	-46.0	19.6	0.00e+00	0	40	0	592445440	60	4321
2026-01-21 10:33:10.14	220.37	48.36	-45.0	-46.1	19.3	0.00e+00	0	40	0	601882624	60	4358
2026-01-21 10:33:13.17	221.89	48.92	-44.3	-45.2	20.2	0.00e+00	0	40	0	611319808	60	3935
2026-01-21 10:33:16.19	223.46	49.47	-44.4	-45.4	20.2	0.00e+00	0	40	0	620756992	60	4013
2026-01-21 10:33:19.22	225.09	50.00	-44.7	-45.7	19.9	0.00e+00	0	40	0	630194176	60	4151
2026-01-21 10:33:22.24	226.77	50.51	-44.1	-45.0	20.7	0.00e+00	0	40	0	639631360	59	4090
2026-01-21 10:33:25.27	228.51	51.00	-43.6	-44.5	21.2	0.00e+00	0	40	0	649068544	59	3845
2026-01-21 10:33:28.29	230.30	51.47	-43.6	-44.5	21.3	0.00e+00	0	40	0	658505728	59	3845
2026-01-21 10:33:31.31	232.15	51.91	-43.7	-44.5	21.1	0.00e+00	0	40	0	667942912	58	4090
2026-01-21 10:33:34.34	234.06	52.32	-43.8	-44.7	21.1	0.00e+00	0	40	0	677380096	58	4180
2026-01-21 10:33:37.36	236.01	52.71	-44.0	-45.0	20.7	0.00e+00	0	40	0	686817280	58	4296
2026-01-21 10:33:40.38	238.01	53.06	-43.7	-44.7	21.1	0.00e+00	0	40	0	696254464	58	4147
2026-01-21 10:33:43.41	240.07	53.38	-44.2	-45.2	20.1	0.00e+00	0	40	0	705691648	59	4174
2026-01-21 10:33:46.43	242.16	53.66	-43.9	-44.8	20.8	0.00e+00	0	40	0	715128832	59	3987
2026-01-21 10:33:49.45	244.29	53.91	-43.7	-44.6	21.0	0.00e+00	0	40	0	724566016	59	3899
2026-01-21 10:33:52.48	246.46	54.12	-43.2	-44.0	21.5	0.00e+00	0	40	0	734003200	57	4095
2026-01-21 10:33:55.50	248.65	54.28	-43.1	-44.0	21.6	0.00e+00	0	40	0	744488960	57	4075
2026-01-21 10:33:58.52	250.86	54.41	-43.6	-44.5	21.2	0.00e+00	0	40	0	752877568	58	4061
2026-01-21 10:34:01.55	253.09	54.49	-43.2	-44.0	21.4	0.00e+00	0	40	0	762314752	58	3857
2026-01-21 10:34:04.57	255.33	54.53	-43.1	-43.9	21.7	0.00e+00	0	40	0	771751936	57	4050
2026-01-21 10:34:07.60	257.58	54.53	-43.9	-44.8	20.9	0.00e+00	0	40	0	781189120	58	4229
2026-01-21 10:34:10.62	259.81	54.48	-43.7	-44.6	20.7	0.00e+00	0	40	0	791674880	58	4139
2026-01-21 10:34:13.65	262.04	54.39	-43.9	-44.8	20.8	0.00e+00	0	40	0	800063488	58	4233
2026-01-21 10:34:16.67	264.25	54.26	-43.6	-44.4	21.2	0.00e+00	0	40	0	809500672	58	4044
2026-01-21 10:34:19.69	266.44	54.09	-43.3	-44.1	21.5	0.00e+00	0	40	0	818937856	58	3899
2026-01-21 10:34:22.72	268.60	53.88	-43.0	-43.8	21.8	0.00e+00	0	40	0	829423616	58	3777
2026-01-21 10:34:25.74	270.72	53.63	-43.3	-44.2	21.5	0.00e+00	0	40	0	838860800	57	4170
2026-01-21 10:34:28.77	272.81	53.34	-44.2	-45.2	20.7	0.00e+00	0	40	0	847249408	59	4149
2026-01-21 10:34:31.79	274.85	53.02	-43.9	-44.8	21.0	0.00e+00	0	40	0	856686592	59	4001
2026-01-21 10:34:34.81	276.85	52.66	-43.5	-44.3	21.5	0.00e+00	0	40	0	867172352	58	3992
2026-01-21 10:34:37.83	278.79	52.28	-43.2	-44.0	21.6	0.00e+00	0	40	0	876609536	58	3865
2026-01-21 10:34:40.86	280.69	51.86	-44.0	-44.9	20.9	0.00e+00	0	40	0	886046720	58	4268
2026-01-21 10:34:43.88	282.53	51.41	-44.5	-45.5	20.1	0.00e+00	0	40	0	894435328	60	4090
2026-01-21 10:34:46.91	284.32	50.94	-44.5	-45.4	20.1	0.00e+00	0	40	0	904921088	60	4041
2026-01-21 10:34:49.93	286.04	50.45	-44.5	-45.4	20.5	0.00e+00	0	40	0	914358272	59	4286
2026-01-21 10:34:52.96	287.72	49.94	-44.3	-45.3	20.6	0.00e+00	0	40	0	923795456	59	4210
2026-01-21 10:34:55.98	289.34	49.41	-43.9	-44.8	21.0	0.00e+00	0	40	0	933232640	59	3962
2026-01-21 10:34:59.01	290.90	48.86	-44.7	-45.7	20.0	0.00e+00	0	40	0	942669824	60	4175
2026-01-21 10:35:02.03	292.41	48.30	-45.0	-46.0	19.6	0.00e+00	0	40	0	952107008	60	4317
2026-01-21 10:35:05.06	293.86	47.72	-44.8	-45.8	19.9	0.00e+00	0	40	0	961544192	60	4211
2026-01-21 10:35:08.09	295.26	47.14	-45.4	-46.5	19.2	0.00e+00	0	40	0	970981376	61	4318
2026-01-21 10:35:11.12	296.61	46.54	-44.7	-45.6	20.1	0.00e+00	0	40	0	980418560	61	3908
2026-01-21 10:35:14.14	297.91	45.94	-44.5	-45.5	20.2	0.00e+00	0	40	0	989855744	60	4058
2026-01-21 10:35:17.16	299.16	45.33	-44.7	-45.7	20.0	0.00e+00	0	40	0	999292928	60	4157
2026-01-21 10:35:20.19	300.37	44.72	-44.9	-45.9	19.8	0.00e+00	0	40	0	1008730112	60	4269
2026-01-21 10:35:23.21	301.52	44.10	-45.7	-46.8	18.9	0.00e+00	0	40	0	1018167296	61	4474
2026-01-21 10:35:26.24	302.64	43.48	-44.9	-45.9	19.7	0.00e+00	0	40	0	1027604480	61	4026
2026-01-21 10:35:29.26	303.71	42.86	-44.5	-45.5	20.1	0.00e+00	0	40	0	1037041664	60	4085
2026-01-21 10:35:32.29	304.75	42.24	-45.0	-46.0	19.6	0.00e+00	0	40	0	1046478848	60	4317
2026-01-21 10:35:35.31	305.74	41.62	-44.6	-45.6	19.7	0.00e+00	0	40	0	1055916032	60	4139
2026-01-21 10:35:38.34	306.70	41.00	-45.2	-46.3	19.2	0.00e+00	0	40	0	1065353216	61	4240
2026-01-21 10:35:41.36	307.62	40.39	-45.4	-46.5	19.1	0.00e+00	0	40	0	1074790400	61	4338
2026-01-21 10:35:44.39	308.51	39.77	-45.1	-46.2	19.4	0.00e+00	0	40	0	1084227584	61	4166
2026-01-21 10:35:47.41	309.36	39.16	-44.2	-45.2	20.3	0.00e+00	0	40	0	1093664768	60	3917
2026-01-21 10:35:50.44	310.19	38.56	-43.9	-44.8	20.9	0.00e+00	0	40	0	1103101952	59	3985
2026-01-21 10:35:53.46	310.98	37.96	-44.6	-45.5	20.2	0.00e+00	0	40	0	1112539136	59	4333
2026-01-21 10:35:56.49	311.75	37.36	-44.3	-45.2	20.3	0.00e+00	0	40	0	1121976320	60	3950
2026-01-21 10:35:59.51	312.49	36.77	-44.1	-45.0	20.7	0.00e+00	0	40	0	1131413504	59	4087
2026-01-21 10:36:02.53	313.20	36.18	-44.0	-44.9	20.9	0.00e+00	0	40	0	1140850688	59	4032
2026-01-21 10:36:05.56	313.90	35.60	-43.7	-44.6	21.0	0.00e+00	0	40	0	1150287872	59	3893
2026-01-21 10:36:08.59	314.56	35.03	-43.0	-43.8	21.7	0.00e+00	0	40	0	1159725056	58	3772
2026-01-21 10:36:11.61	315.21	34.46	-43.4	-44.3	21.3	0.00e+00	0	40	0	1169162240	58	3966
2026-01-21 10:36:14.64	315.83	33.90	-43.8	-44.7	20.9	0.00e+00	0	40	0	1178599424	58	4192
2026-01-21 10:36:17.66	316.43	33.35	-43.4	-44.2	21.4	0.00e+00	0	40	0	1188036608	58	3952
2026-01-21 10:36:20.68	317.01	32.80	-43.4	-44.3	21.3	0.00e+00	0	40	0	1197473792	58	3961
2026-01-21 10:36:23.71	317.58	32.26	-42.5	-43.3	22.2	0.00e+00	0	40	0	1206910976	57	3749
2026-01-21 10:36:26.73	318.12	31.73	-41.7	-42.5	22.7	0.00e+00	0	40	0	1216348160	55	3834
2026-01-21 10:36:29.76	318.65	31.20	-42.3	-43.1	22.3	0.00e+00	0	40	0	1225785344	55	4099
2026-01-21 10:36:32.79	319.17	30.68	-42.9	-43.7	21.7	0.00e+00	0	40	0	1235222528	56	4175
2026-01-21 10:36:35.81	319.66	30.17	-42.8	-43.6	21.6	0.00e+00	0	40	0	1244659712	56	4128
2026-01-21 10:36:38.84	320.15	29.66	-42.6	-43.4	21.9	0.00e+00	0	40	0	1254096896	56	4036
2026-01-21 10:36:41.86	320.61	29.16	-42.2	-43.0	22.3	0.00e+00	0	40	0	1263534080	56	3835
2026-01-21 10:36:44.89	321.07	28.67	-42.4	-43.2	22.2	0.00e+00	0	40	0	1272971264	56	3927
2026-01-21 10:36:47.91	321.51	28.18	-42.4	-43.2	22.2	0.00e+00	0	40	0	1282408448	56	3931
2026-01-21 10:36:50.93	321.93	27.71	-42.5	-43.3	22.1	0.00e+00	0	40	0	1291845632	56	3985
2026-01-21 10:36:53.96	322.35	27.23	-42.6	-43.5	21.8	0.00e+00	0	40	0	1301282816	56	4061
2026-01-21 10:36:56.99	322.76	26.77	-42.5	-43.3	22.0	0.00e+00	0	40	0	1310720000	56	3993
2026-01-21 10:37:00.01	323.15	26.31	-42.5	-43.3	22.0	0.00e+00	0	40	0	1320157184	56	3976
2026-01-21 10:37:03.03	323.53	25.86	-42.5	-43.3	22.0	0.00e+00	0	40	0	1329594368	56	3980
2026-01-21 10:37:06.06	323.90	25.41	-42.4	-43.3	22.0	0.00e+00	0	40	0	1339031552	56	3961
2026-01-21 10:37:09.08	324.26	24.97	-42.4	-43.2	22.1	0.00e+00	0	40	0	1348468736	56	3953
2026-01-21 10:37:12.11	324.62	24.53	-42.1	-42.9	22.3	0.00e+00	0	40	0	1357905920	56	3785
2026-01-21 10:37:15.13	324.96	24.11	-41.9	-42.6	22.4	0.00e+00	0	40	0	1367343104	55	3911
2026-01-21 10:37:18.15	325.29	23.69	-41.9	-42.6	22.4	0.00e+00	0	40	0	1376780288	55	3911
2026-01-21 10:37:21.18	325.62	23.27	-41.9	-42.7	22.4	0.00e+00	0	40	0	1386217472	55	3920
2026-01-21 10:37:24.20	325.94	22.86	-41.9	-42.7	22.4	0.00e+00	0	40	0	1396703232	55	3925
2026-01-21 10:37:27.23	326.25	22.45	-42.0	-42.8	22.3	0.00e+00	0	40	0	1405091840	55	3967
2026-01-21 10:37:30.26	326.55	22.05	-42.3	-43.1	22.0	0.00e+00	0	40	0	1414529024	55	4109
2026-01-21 10:37:33.28	326.85	21.66	-42.5	-43.3	21.8	0.00e+00	0	40	0	1423966208	55	4242
2026-01-21 10:37:36.30	327.14	21.27	-42.6	-43.4	21.8	0.00e+00	0	40	0	1434451968	55	4277
2026-01-21 10:37:39.33	327.42	20.89	-42.5	-43.4	21.8	0.00e+00	0	40	0	1443889152	55	4249
2026-01-21 10:37:42.35	327.69	20.51	-42.5	-43.3	21.7	0.00e+00	0	40	0	1452277760	55	4224
2026-01-21 10:37:45.38	327.96	20.14	-42.3	-43.1	21.9	0.00e+00	0	40	0	1461714944	55	4114
2026-01-21 10:37:48.40	328.22	19.77	-42.1	-43.0	21.9	0.00e+00	0	40	0	1472200704	55	4057
2026-01-21 10:37:51.43	328.48	19.41	-42.1	-42.9	22.0	0.00e+00	0	40	0	1481637888	55	4020
2026-01-21 10:37:54.45	328.73	19.05	-42.2	-43.0	21.9	0.00e+00	0	40	0	1491075072	55	4075
2026-01-21 10:37:57.48	328.98	18.69	-42.2	-43.0	22.0	0.00e+00	0	40	0	1499463680	55	4078
2026-01-21 10:38:00.50	329.22	18.35	-42.1	-42.9	22.1	0.00e+00	0	40	0	1508900864	55	4035
2026-01-21 10:38:03.53	329.46	18.00	-42.3	-43.1	21.9	0.00e+00	0	40	0	1519386624	55	4107
2026-01-21 10:38:06.55	329.69	17.66	-42.3	-43.1	21.9	0.00e+00	0	40	0	1528823808	55	4123
2026-01-21 10:38:09.58	329.91	17.32	-42.3	-43.1	21.8	0.00e+00	0	40	0	1538260992	55	4141
2026-01-21 10:38:12.60	330.13	16.99	-42.4	-43.3	21.7	0.00e+00	0	40	0	1547698176	55	4212
2026-01-21 10:38:15.62	330.35	16.66	-42.8	-43.7	21.3	0.00e+00	0	40	0	1557135360	56	4167
2026-01-21 10:38:18.65	330.56	16.34	-42.9	-43.7	21.3	0.00e+00	0	40	0	1566572544	56	4192
2026-01-21 10:38:21.67	330.77	16.02	-43.1	-44.0	21.1	0.00e+00	0	40	0	1576009728	56	4304
2026-01-21 10:38:24.70	330.97	15.70	-43.3	-44.2	20.9	0.00e+00	0	40	0	1585446912	57	4164
2026-01-21 10:38:27.72	331.17	15.39	-43.4	-44.3	20.8	0.00e+00	0	40	0	1594884096	57	4209
2026-01-21 10:38:30.74	331.37	15.08	-43.2	-44.2	20.9	0.00e+00	0	40	0	1604321280	57	4151
2026-01-21 10:38:33.77	331.56	14.78	-43.2	-44.1	21.0	0.00e+00	0	40	0	1613758464	57	4103
2026-01-21 10:38:36.79	331.75	14.48	-43.1	-44.0	21.0	0.00e+00	0	40	0	1623195648	57	4080
2026-01-21 10:38:39.82	331.94	14.18	-43.2	-44.1	20.9	0.00e+00	0	40	0	1632632832	57	4108
2026-01-21 10:38:42.84	332.12	13.88	-43.1	-44.0	20.9	0.00e+00	0	40	0	1642070016	57	4090
2026-01-21 10:38:45.87	332.30	13.59	-43.2	-44.1	20.8	0.00e+00	0	40	0	1651507200	57	4139
2026-01-21 10:38:48.89	332.47	13.30	-43.3	-44.2	20.7	0.00e+00	0	40	0	1660944384	57	4190
2026-01-21 10:38:51.91	332.64	13.02	-43.4	-44.4	20.6	0.00e+00	0	40	0	1670381568	57	4264
2026-01-21 10:38:54.94	332.81	12.74	-43.4	-44.4	20.6	0.00e+00	0	40	0	1679818752	57	4247
2026-01-21 10:38:57.96	332.98	12.46	-43.6	-44.5	20.5	0.00e+00	0	40	0	1689255936	57	4330
2026-01-21 10:39:00.99	333.14	12.18	-43.6	-44.6	20.4	0.00e+00	0	40	0	1698693120	57	4341
2026-01-21 10:39:04.01	333.30	11.91	-43.4	-44.4	20.6	0.00e+00	0	40	0	1708130304	57	4243
2026-01-21 10:39:07.03	333.46	11.64	-43.4	-44.3	20.6	0.00e+00	0	40	0	1717567488	57	4233
2026-01-21 10:39:10.05	333.62	11.37	-43.3	-44.2	20.7	0.00e+00	0	40	0	1727004672	57	4165
2026-01-21 10:39:13.08	333.77	11.11	-43.2	-44.2	20.7	0.00e+00	0	40	0	1736441856	57	4153
2026-01-21 10:39:16.11	333.92	10.85	-43.2	-44.1	20.8	0.00e+00	0	40	0	1745879040	57	4125
2026-01-21 10:39:19.13	334.07	10.59	-43.5	-44.4	20.5	0.00e+00	0	40	0	1755316224	57	4270
2026-01-21 10:39:22.15	334.22	10.33	-43.5	-44.5	20.4	0.00e+00	0	40	0	1764753408	57	4305
2026-01-21 10:39:25.18	334.36	10.08	-43.6	-44.6	20.3	0.00e+00	0	40	0	1774190592	57	4345
2026-01-21 10:39:28.20	334.50	9.82	-43.7	-44.7	20.2	0.00e+00	0	40	0	1783627776	57	4395
2026-01-21 10:39:31.22	334.64	9.58	-43.9	-44.9	20.0	0.00e+00	0	40	0	1793064960	58	4254
2026-01-21 10:39:34.25	334.78	9.33	-43.9	-45.0	19.9	0.00e+00	0	40	0	1802502144	58	4296
2026-01-21 10:39:37.27	334.91	9.08	-44.1	-45.1	19.8	0.00e+00	0	40	0	1811939328	58	4371
2026-01-21 10:39:40.29	335.04	8.84	-44.3	-45.4	19.5	6.10e-06	0	40	0	1821376512	59	4259
2026-01-21 10:39:43.32	335.18	8.60	-44.3	-45.4	19.5	0.00e+00	0	40	0	1830813696	59	4259
2026-01-21 10:39:46.34	335.30	8.36	-44.3	-45.4	19.5	0.00e+00	0	40	0	1840250880	59	4246
2026-01-21 10:39:49.37	335.43	8.13	-44.3	-45.4	19.5	0.00e+00	0	40	0	1849688064	59	4254
2026-01-21 10:39:52.39	335.56	7.89	-44.4	-45.5	19.3	0.00e+00	0	40	0	1859125248	59	4311
2026-01-21 10:39:55.42	335.68	7.66	-44.4	-45.5	19.3	1.14e-05	0	40	0	1868562432	59	4332
2026-01-21 10:39:58.44	335.80	7.43	-44.5	-45.6	19.1	0.00e+00	0	40	0	1877999616	59	4384
2026-01-21 10:40:01.47	335.92	7.20	-44.5	-45.6	19.1	6.80e-06	0	40	0	1887436800	59	4380
2026-01-21 10:40:04.49	336.04	6.98	-44.4	-45.5	18.9	0.00e+00	0	40	0	1896873984	60	4073
2026-01-21 10:40:07.51	336.16	6.75	-44.6	-45.8	18.6	0.00e+00	0	40	0	1906311168	60	4218
2026-01-21 10:40:10.54	336.27	6.53	-44.6	-45.8	18.5	1.44e-05	0	40	0	1915748352	60	4214
2026-01-21 10:40:13.56	336.39	6.31	-44.6	-45.7	18.6	9.90e-06	0	40	0	1925185536	60	4188
2026-01-21 10:40:16.59	336.50	6.09	-44.8	-46.1	18.3	0.00e+00	0	40	0	1934622720	60	4348
2026-01-21 10:40:19.61	336.61	5.87	-45.1	-46.3	18.0	0.00e+00	0	40	0	1944059904	60	4476
2026-01-21 10:40:22.63	336.72	5.66	-44.9	-46.2	18.1	0.00e+00	0	40	0	1953497088	60	4407
2026-01-21 10:40:25.65	336.83	5.45	-45.0	-46.2	18.0	0.00e+00	0	40	0	1962934272	61	4176
2026-01-21 10:40:28.68	336.94	5.23	-45.0	-46.2	18.0	0.00e+00	0	40	0	1972371456	61	4185
2026-01-21 10:40:31.70	337.04	5.02	-45.2	-46.5	17.7	0.00e+00	0	40	0	1981808640	61	4306
2026-01-21 10:40:34.73	337.15	4.82	-53.3	-66.1	3.8	1.49e+00	0	40	104	1984954368	77	16352
2026-01-21 10:40:37.75	337.25	4.61	-53.6	-66.4	3.8	1.49e+00	0	40	104	1984954368	77	16976
2026-01-21 10:40:40.77	337.35	4.40	-53.8	-66.5	3.8	1.49e+00	0	40	104	1984954368	78	16305
2026-01-21 10:40:43.80	337.45	4.20	-53.7	-66.5	3.8	1.49e+00	0	40	104	1984954368	78	16129
2026-01-21 10:40:46.82	337.55	4.00	-53.6	-66.3	3.8	1.49e+00	0	40	104	1984954368	78	15892
2026-01-21 10:40:49.84	337.65	3.80	-53.6	-66.4	3.8	1.49e+00	0	40	104	1984954368	78	15971
2026-01-21 10:40:52.87	337.75	3.60	-53.7	-66.4	3.8	1.49e+00	0	40	104	1984954368	78	16058
2026-01-21 10:40:55.89	337.84	3.40	-53.6	-66.3	3.8	1.49e+00	0	40	104	1984954368	78	15897
2026-01-21 10:40:58.91	337.94	3.20	-53.6	-66.3	3.8	1.49e+00	0	40	104	1984954368	78	15831
2026-01-21 10:41:01.94	338.03	3.01	-53.6	-66.3	3.8	1.49e+00	0	40	104	1984954368	78	15889
2026-01-21 10:41:04.96	338.12	2.81	-53.6	-66.3	3.8	1.49e+00	0	40	104	1984954368	78	15916
2026-01-21 10:41:07.99	338.22	2.62	-53.6	-66.3	3.8	1.49e+00	0	40	104	1984954368	78	15888
2026-01-21 10:41:11.02	338.31	2.43	-53.5	-66.3	3.8	1.49e+00	0	40	104	1984954368	78	15866
2026-01-21 10:41:14.04	338.40	2.24	-53.5	-66.3	3.8	1.49e+00	0	40	104	1984954368	78	15848
2026-01-21 10:41:17.06	338.48	2.05	-53.5	-66.3	3.8	1.49e+00	0	40	104	1984954368	78	15849

#Closed at: 2026-01-21 10:41:20
#Recorded file [1984 MB]: D:/lorett/data/31041_260121_132840.dat