passes_logs/2026/01/21/R3.2S_Murmansk/R3.2S_Murmansk__20260121_075701_NOAA_20_JPSS-1_rec.log

#Pass ID: 20260121_075701_NOAA 20 (JPSS-1)
#Satellite: NOAA 20 (JPSS-1)
#Configuration: NOAA 20
#almurnet v.1.7.20251203
#Start time: 2026-01-21 07:57:03

#Version: 2.2.20231116
#Station: R3.2S_Murmansk
#Location: 33.079688 lon 68.888172 lat
#TLE: 1 43013U 17073A   26020.26397077  .00000127  00000+0  80954-4 0  9999
#TLE: 2 43013  98.7643 321.1479 0001288  31.3158 328.8095 14.19537595423482

#Time	Az	El	Level	Level2	SNR	BER	BlckErr	Temp	State	Recorded	gain1	gain2
2026-01-21 07:57:03.03	115.13	2.12	-53.6	-68.6	3.8	1.49e+00	0	38	0	0	79	19403
2026-01-21 07:57:07.06	114.99	2.37	-52.4	-67.4	3.8	1.49e+00	0	38	104	0	76	20210
2026-01-21 07:57:11.09	114.85	2.62	-52.4	-67.4	3.8	1.49e+00	0	38	104	0	76	20098
2026-01-21 07:57:15.12	114.70	2.88	-52.4	-67.4	3.8	1.49e+00	0	38	104	0	76	20122
2026-01-21 07:57:19.16	114.55	3.14	-52.4	-67.4	3.8	1.49e+00	0	38	104	0	76	20136
2026-01-21 07:57:23.19	114.40	3.40	-52.4	-67.4	3.8	1.49e+00	0	38	104	0	76	20139
2026-01-21 07:57:27.22	114.24	3.66	-52.4	-66.8	3.8	1.49e+00	0	38	104	0	76	18926
2026-01-21 07:57:31.26	114.08	3.93	-52.4	-66.5	3.8	1.49e+00	0	39	104	0	76	18204
2026-01-21 07:57:35.29	113.92	4.20	-52.3	-65.1	3.8	1.49e+00	0	39	104	0	76	15541
2026-01-21 07:57:39.32	113.76	4.47	-51.3	-57.7	8.3	8.66e-02	0	39	0	5242880	74	7379
2026-01-21 07:57:43.36	113.59	4.74	-49.7	-53.3	13.1	7.17e-05	0	39	0	12582912	71	5309
2026-01-21 07:57:47.39	113.42	5.02	-49.4	-52.7	13.7	4.50e-06	0	39	0	19922944	70	5237
2026-01-21 07:57:51.43	113.24	5.30	-49.9	-53.5	12.7	1.61e-01	0	39	0	28311552	71	5457
2026-01-21 07:57:55.46	113.06	5.58	-47.5	-49.6	16.9	0.00e+00	0	39	0	35651584	67	4378
2026-01-21 07:57:59.49	112.88	5.86	-47.6	-49.7	16.9	0.00e+00	0	39	0	42991616	66	4656
2026-01-21 07:58:03.52	112.69	6.15	-47.6	-49.6	17.0	0.00e+00	0	39	0	50331648	66	4630
2026-01-21 07:58:07.56	112.50	6.44	-47.5	-49.5	17.3	0.00e+00	0	39	0	57671680	66	4566
2026-01-21 07:58:11.59	112.31	6.73	-47.3	-49.2	17.6	0.00e+00	0	39	0	66060288	66	4419
2026-01-21 07:58:15.62	112.11	7.02	-47.1	-48.9	18.0	0.00e+00	0	39	0	73400320	66	4249
2026-01-21 07:58:19.65	111.91	7.32	-47.2	-49.1	17.8	0.00e+00	0	39	0	80740352	66	4347
2026-01-21 07:58:23.68	111.70	7.62	-47.1	-48.9	18.0	0.00e+00	0	39	0	88080384	66	4267
2026-01-21 07:58:27.71	111.49	7.93	-46.8	-48.5	18.4	0.00e+00	0	39	0	95420416	65	4318
2026-01-21 07:58:31.75	111.27	8.24	-46.7	-48.3	18.6	0.00e+00	0	39	0	103809024	65	4239
2026-01-21 07:58:35.78	111.05	8.55	-46.8	-48.4	18.5	0.00e+00	0	39	0	111149056	65	4276
2026-01-21 07:58:39.81	110.82	8.86	-46.7	-48.3	18.6	0.00e+00	0	39	0	118489088	65	4242
2026-01-21 07:58:43.84	110.59	9.18	-46.6	-48.3	18.8	0.00e+00	0	39	0	125829120	64	4444
2026-01-21 07:58:47.88	110.35	9.50	-46.6	-48.1	18.9	0.00e+00	0	39	0	133169152	64	4388
2026-01-21 07:58:51.91	110.10	9.83	-46.6	-48.1	18.9	0.00e+00	0	39	0	141557760	64	4388
2026-01-21 07:58:55.94	109.86	10.16	-46.3	-47.9	19.2	0.00e+00	0	39	0	148897792	64	4255
2026-01-21 07:58:59.97	109.60	10.49	-46.3	-47.8	19.2	0.00e+00	0	39	0	156237824	64	4226
2026-01-21 07:59:04.00	109.34	10.83	-46.1	-47.6	19.5	0.00e+00	0	39	0	163577856	64	4111
2026-01-21 07:59:08.03	109.07	11.17	-46.0	-47.5	19.7	0.00e+00	0	39	0	171966464	63	4296
2026-01-21 07:59:12.06	108.80	11.52	-46.0	-47.4	19.7	0.00e+00	0	39	0	179306496	63	4291
2026-01-21 07:59:16.09	108.52	11.87	-46.0	-47.3	19.9	0.00e+00	0	40	0	186646528	63	4241
2026-01-21 07:59:20.12	108.23	12.22	-46.0	-47.4	19.8	0.00e+00	0	39	0	193986560	63	4265
2026-01-21 07:59:24.16	107.93	12.58	-46.0	-47.5	19.8	0.00e+00	0	39	0	201326592	63	4296
2026-01-21 07:59:28.19	107.63	12.94	-45.9	-47.2	20.0	0.00e+00	0	39	0	209715200	63	4190
2026-01-21 07:59:32.22	107.32	13.31	-45.9	-47.2	20.0	0.00e+00	0	39	0	217055232	63	4191
2026-01-21 07:59:36.25	107.00	13.68	-45.9	-47.3	19.9	0.00e+00	0	39	0	224395264	63	4222
2026-01-21 07:59:40.28	106.67	14.06	-45.9	-47.2	20.0	0.00e+00	0	39	0	231735296	63	4182
2026-01-21 07:59:44.31	106.33	14.44	-46.0	-47.4	19.8	0.00e+00	0	40	0	239075328	63	4281
2026-01-21 07:59:48.35	105.99	14.83	-45.9	-47.2	20.0	0.00e+00	0	39	0	247463936	63	4190
2026-01-21 07:59:52.38	105.63	15.22	-46.0	-47.4	19.8	0.00e+00	0	40	0	254803968	63	4280
2026-01-21 07:59:56.41	105.27	15.62	-46.0	-47.4	19.8	0.00e+00	0	40	0	262144000	63	4265
2026-01-21 08:00:00.42	104.89	16.02	-45.9	-47.3	19.9	0.00e+00	0	40	0	269484032	63	4197
2026-01-21 08:00:04.45	104.51	16.43	-45.9	-47.3	19.9	0.00e+00	0	40	0	276824064	63	4236
2026-01-21 08:00:08.48	104.11	16.84	-45.8	-47.2	20.0	0.00e+00	0	39	0	285212672	63	4167
2026-01-21 08:00:12.50	103.70	17.26	-45.8	-47.2	20.1	0.00e+00	0	40	0	292552704	63	4155
2026-01-21 08:00:16.54	103.28	17.68	-45.7	-47.1	20.2	0.00e+00	0	39	0	299892736	63	4099
2026-01-21 08:00:20.56	102.85	18.11	-45.8	-47.2	20.1	0.00e+00	0	40	0	307232768	63	4150
2026-01-21 08:00:24.60	102.40	18.55	-45.7	-47.1	20.2	0.00e+00	0	40	0	314572800	63	4111
2026-01-21 08:00:28.63	101.94	18.99	-45.5	-46.8	20.4	0.00e+00	0	40	0	322961408	63	4000
2026-01-21 08:00:32.66	101.47	19.44	-45.6	-47.0	20.3	0.00e+00	0	39	0	330301440	63	4053
2026-01-21 08:00:36.69	100.98	19.89	-45.8	-47.2	20.1	0.00e+00	0	39	0	337641472	63	4155
2026-01-21 08:00:40.72	100.48	20.36	-46.1	-47.6	19.8	0.00e+00	0	39	0	344981504	63	4350
2026-01-21 08:00:44.76	99.96	20.82	-45.8	-47.2	20.2	0.00e+00	0	39	0	352321536	63	4146
2026-01-21 08:00:48.79	99.43	21.30	-45.9	-47.3	20.0	0.00e+00	0	40	0	360710144	63	4220
2026-01-21 08:00:52.82	98.88	21.77	-46.0	-47.4	20.0	0.00e+00	0	40	0	368050176	63	4247
2026-01-21 08:00:56.85	98.31	22.26	-45.9	-47.2	20.1	0.00e+00	0	40	0	375390208	63	4178
2026-01-21 08:01:00.88	97.72	22.75	-45.8	-47.2	20.2	0.00e+00	0	39	0	382730240	63	4158
2026-01-21 08:01:04.92	97.11	23.25	-46.0	-47.4	20.0	0.00e+00	0	39	0	390070272	63	4247
2026-01-21 08:01:08.95	96.48	23.75	-46.0	-47.4	20.0	0.00e+00	0	40	0	398458880	63	4260
2026-01-21 08:01:12.98	95.83	24.26	-46.1	-47.5	19.9	0.00e+00	0	39	0	405798912	63	4316
2026-01-21 08:01:17.01	95.16	24.78	-46.3	-47.7	19.7	0.00e+00	0	40	0	413138944	63	4419
2026-01-21 08:01:21.05	94.47	25.30	-46.0	-47.4	20.0	0.00e+00	0	40	0	420478976	63	4252
2026-01-21 08:01:25.08	93.75	25.82	-46.1	-47.5	20.0	0.00e+00	0	40	0	428867584	63	4320
2026-01-21 08:01:29.11	93.01	26.35	-46.4	-47.9	19.5	0.00e+00	0	40	0	436207616	63	4528
2026-01-21 08:01:33.14	92.25	26.89	-46.5	-48.0	19.5	0.00e+00	0	40	0	443547648	63	4551
2026-01-21 08:01:37.17	91.45	27.43	-46.8	-48.3	19.1	0.00e+00	0	39	0	450887680	64	4474
2026-01-21 08:01:41.20	90.63	27.98	-47.6	-49.4	18.1	0.00e+00	0	39	0	458227712	65	4787
2026-01-21 08:01:45.23	89.78	28.53	-48.4	-50.5	17.1	0.00e+00	0	40	0	466616320	67	4816
2026-01-21 08:01:49.26	88.90	29.08	-48.8	-50.9	16.7	0.00e+00	0	40	0	473956352	68	4806
2026-01-21 08:01:53.30	87.99	29.64	-48.7	-50.8	16.8	0.00e+00	0	39	0	481296384	68	4726
2026-01-21 08:01:57.33	87.04	30.20	-48.4	-50.4	17.3	0.00e+00	0	40	0	488636416	68	4511
2026-01-21 08:02:01.35	86.07	30.76	-48.6	-50.6	17.0	0.00e+00	0	40	0	495976448	68	4642
2026-01-21 08:02:05.39	85.05	31.32	-48.6	-50.7	17.0	0.00e+00	0	40	0	504365056	68	4693
2026-01-21 08:02:09.42	84.01	31.88	-48.9	-51.0	16.7	0.00e+00	0	40	0	511705088	68	4867
2026-01-21 08:02:13.44	82.92	32.44	-48.8	-51.0	16.7	0.00e+00	0	40	0	519045120	68	4832
2026-01-21 08:02:17.47	81.80	33.00	-47.6	-49.4	18.2	0.00e+00	0	40	0	526385152	67	4263
2026-01-21 08:02:21.50	80.64	33.55	-47.1	-48.7	18.8	0.00e+00	0	40	0	533725184	66	4173
2026-01-21 08:02:25.53	79.43	34.11	-47.0	-48.6	19.0	0.00e+00	0	40	0	542113792	65	4360
2026-01-21 08:02:29.57	78.19	34.65	-47.7	-49.5	18.1	0.00e+00	0	39	0	549453824	65	4834
2026-01-21 08:02:33.60	76.90	35.19	-47.6	-49.3	18.3	0.00e+00	0	40	0	556793856	66	4462
2026-01-21 08:02:37.63	75.57	35.73	-47.8	-49.6	18.0	0.00e+00	0	40	0	564133888	66	4643
2026-01-21 08:02:41.66	74.19	36.25	-48.2	-50.1	17.5	0.00e+00	0	40	0	572522496	66	4898
2026-01-21 08:02:45.69	72.77	36.76	-48.2	-50.2	17.5	0.00e+00	0	40	0	579862528	67	4652
2026-01-21 08:02:49.72	71.31	37.26	-47.9	-49.7	17.9	0.00e+00	0	39	0	587202560	67	4416
2026-01-21 08:02:53.75	69.80	37.74	-47.6	-49.3	18.3	0.00e+00	0	40	0	594542592	67	4225
2026-01-21 08:02:57.79	68.24	38.21	-47.4	-49.1	18.5	0.00e+00	0	40	0	601882624	66	4374
2026-01-21 08:03:01.82	66.64	38.66	-46.5	-47.9	19.7	0.00e+00	0	40	0	609222656	64	4261
2026-01-21 08:03:05.85	65.00	39.09	-46.5	-48.0	19.6	0.00e+00	0	40	0	617611264	64	4306
2026-01-21 08:03:09.88	63.31	39.49	-46.6	-48.0	19.6	0.00e+00	0	40	0	624951296	64	4327
2026-01-21 08:03:13.91	61.59	39.87	-46.3	-47.6	20.0	0.00e+00	0	40	0	632291328	64	4127
2026-01-21 08:03:17.94	59.82	40.23	-45.6	-46.8	20.9	0.00e+00	0	40	0	639631360	63	3978
2026-01-21 08:03:21.97	58.02	40.55	-45.3	-46.5	21.2	0.00e+00	0	40	0	648019968	62	4080
2026-01-21 08:03:26.01	56.17	40.85	-45.7	-46.9	20.8	0.00e+00	0	40	0	655360000	61	4529
2026-01-21 08:03:30.04	54.30	41.11	-45.5	-46.8	20.9	0.00e+00	0	40	0	662700032	62	4204
2026-01-21 08:03:34.07	52.40	41.34	-45.1	-46.3	21.4	0.00e+00	0	40	0	670040064	61	4194
2026-01-21 08:03:38.11	50.47	41.54	-45.1	-46.3	21.4	0.00e+00	0	40	0	677380096	61	4194
2026-01-21 08:03:42.14	48.52	41.70	-45.7	-46.9	20.8	0.00e+00	0	40	0	685768704	62	4271
2026-01-21 08:03:46.16	46.57	41.82	-45.5	-46.7	21.0	0.00e+00	0	40	0	693108736	62	4176
2026-01-21 08:03:50.20	44.59	41.90	-45.7	-47.0	20.7	0.00e+00	0	40	0	700448768	62	4299
2026-01-21 08:03:54.23	42.60	41.95	-46.4	-47.8	19.9	0.00e+00	0	40	0	707788800	64	4213
2026-01-21 08:03:58.26	40.62	41.95	-46.9	-48.4	19.2	0.00e+00	0	40	0	715128832	64	4516
2026-01-21 08:04:02.29	38.63	41.92	-47.3	-48.9	18.8	0.00e+00	0	40	0	723517440	65	4507
2026-01-21 08:04:06.32	36.65	41.85	-47.5	-49.2	18.6	0.00e+00	0	40	0	730857472	65	4666
2026-01-21 08:04:10.36	34.68	41.74	-48.8	-50.9	17.0	0.00e+00	0	40	0	738197504	68	4789
2026-01-21 08:04:14.39	32.73	41.59	-49.1	-51.4	16.4	0.00e+00	0	40	0	745537536	69	4780
2026-01-21 08:04:18.42	30.80	41.41	-49.5	-51.9	16.0	0.00e+00	0	40	0	752877568	69	5098
2026-01-21 08:04:22.45	28.89	41.19	-48.6	-50.6	17.2	0.00e+00	0	40	0	761266176	68	4632
2026-01-21 08:04:26.48	27.01	40.93	-47.3	-49.0	18.8	0.00e+00	0	40	0	768606208	66	4295
2026-01-21 08:04:30.52	25.16	40.65	-46.4	-47.7	19.9	0.00e+00	0	40	0	775946240	64	4186
2026-01-21 08:04:34.55	23.35	40.33	-45.5	-46.7	21.0	0.00e+00	0	40	0	783286272	62	4154
2026-01-21 08:04:38.58	21.57	39.99	-45.2	-46.3	21.4	0.00e+00	0	40	0	791674880	62	3998
2026-01-21 08:04:42.61	19.84	39.61	-44.3	-45.4	22.3	0.00e+00	0	39	0	799014912	60	4007
2026-01-21 08:04:46.64	18.14	39.22	-44.7	-45.8	22.2	0.00e+00	0	40	0	806354944	59	4451
2026-01-21 08:04:50.67	16.49	38.80	-44.3	-45.3	22.5	0.00e+00	0	40	0	813694976	59	4216
2026-01-21 08:04:54.71	14.87	38.35	-44.6	-45.7	22.2	0.00e+00	0	40	0	821035008	59	4393
2026-01-21 08:04:58.73	13.31	37.90	-44.4	-45.4	22.2	0.00e+00	0	40	0	829423616	60	4040
2026-01-21 08:05:02.77	11.79	37.42	-44.6	-45.7	21.9	0.00e+00	0	40	0	836763648	60	4160
2026-01-21 08:05:06.80	10.31	36.92	-44.7	-45.9	21.8	0.00e+00	0	40	0	844103680	60	4243
2026-01-21 08:05:10.83	8.88	36.42	-45.0	-46.2	21.5	0.00e+00	0	40	0	851443712	60	4401
2026-01-21 08:05:14.86	7.50	35.90	-45.3	-46.5	21.1	0.00e+00	0	40	0	858783744	61	4305
2026-01-21 08:05:18.89	6.15	35.37	-45.8	-47.1	20.6	0.00e+00	0	40	0	867172352	62	4356
2026-01-21 08:05:22.92	4.86	34.83	-46.2	-47.6	20.1	0.00e+00	0	40	0	874512384	63	4369
2026-01-21 08:05:26.95	3.60	34.29	-46.5	-47.9	19.8	0.00e+00	0	40	0	881852416	63	4535
2026-01-21 08:05:30.98	2.39	33.74	-46.9	-48.5	19.2	0.00e+00	0	40	0	889192448	64	4553
2026-01-21 08:05:35.01	1.21	33.19	-47.6	-49.4	18.3	0.00e+00	0	40	0	896532480	65	4767
2026-01-21 08:05:39.05	0.08	32.63	-48.0	-49.9	17.8	0.00e+00	0	40	0	904921088	66	4792
2026-01-21 08:05:43.08	358.98	32.07	-48.3	-50.3	17.3	0.00e+00	0	40	0	912261120	67	4715
2026-01-21 08:05:47.11	357.93	31.51	-48.2	-50.2	17.5	0.00e+00	0	40	0	919601152	67	4656
2026-01-21 08:05:51.14	356.91	30.95	-48.1	-49.9	17.7	0.00e+00	0	40	0	926941184	67	4539
2026-01-21 08:05:55.17	355.92	30.39	-47.6	-49.3	18.2	0.00e+00	0	40	0	935329792	67	4241
2026-01-21 08:05:59.20	354.97	29.84	-47.3	-49.0	18.6	0.00e+00	0	40	0	942669824	66	4309
2026-01-21 08:06:03.23	354.05	29.28	-46.8	-48.3	19.3	0.00e+00	0	40	0	950009856	65	4232
2026-01-21 08:06:07.26	353.17	28.73	-46.2	-47.6	19.9	0.00e+00	0	40	0	957349888	64	4134
2026-01-21 08:06:11.29	352.31	28.18	-46.3	-47.7	19.8	0.00e+00	0	40	0	964689920	64	4179
2026-01-21 08:06:15.32	351.48	27.63	-46.0	-47.4	20.1	0.00e+00	0	40	0	973078528	64	4027
2026-01-21 08:06:19.36	350.68	27.09	-46.2	-47.6	20.0	0.00e+00	0	40	0	980418560	63	4378
2026-01-21 08:06:23.38	349.91	26.56	-46.5	-47.9	19.7	0.00e+00	0	40	0	987758592	63	4514
2026-01-21 08:06:27.41	349.16	26.02	-46.2	-47.6	20.0	0.00e+00	0	40	0	995098624	63	4366
2026-01-21 08:06:31.45	348.44	25.50	-46.3	-47.7	19.9	0.00e+00	0	40	0	1002438656	63	4403
2026-01-21 08:06:35.48	347.74	24.98	-46.6	-48.1	19.5	0.00e+00	0	40	0	1010827264	63	4624
2026-01-21 08:06:39.51	347.07	24.46	-46.5	-48.0	19.5	0.00e+00	0	40	0	1018167296	64	4306
2026-01-21 08:06:43.54	346.41	23.95	-46.4	-47.8	19.6	0.00e+00	0	40	0	1025507328	64	4236
2026-01-21 08:06:47.58	345.78	23.45	-46.5	-48.0	19.5	0.00e+00	0	40	0	1032847360	64	4299
2026-01-21 08:06:51.61	345.17	22.95	-46.1	-47.4	20.0	0.00e+00	0	40	0	1040187392	64	4036
2026-01-21 08:06:55.64	344.58	22.46	-46.4	-47.9	19.5	0.00e+00	0	40	0	1048576000	64	4258
2026-01-21 08:06:59.67	344.01	21.97	-46.6	-48.1	19.3	0.00e+00	0	40	0	1055916032	64	4357
2026-01-21 08:07:03.70	343.45	21.49	-46.6	-48.1	19.3	0.00e+00	0	40	0	1063256064	64	4355
2026-01-21 08:07:07.73	342.91	21.02	-46.4	-47.9	19.5	0.00e+00	0	40	0	1070596096	64	4248
2026-01-21 08:07:11.76	342.39	20.55	-46.1	-47.4	19.9	0.00e+00	0	40	0	1077936128	64	4048
2026-01-21 08:07:15.79	341.89	20.09	-46.3	-47.8	19.6	0.00e+00	0	40	0	1086324736	64	4205
2026-01-21 08:07:19.82	341.40	19.64	-46.4	-47.9	19.5	0.00e+00	0	40	0	1093664768	64	4245
2026-01-21 08:07:23.86	340.92	19.19	-46.2	-47.7	19.7	0.00e+00	0	40	0	1101004800	64	4147
2026-01-21 08:07:27.89	340.46	18.75	-46.0	-47.4	19.4	0.00e+00	0	40	0	1108344832	64	4031
2026-01-21 08:07:31.92	340.01	18.31	-46.1	-47.5	19.9	0.00e+00	0	40	0	1115684864	63	4315
2026-01-21 08:07:35.95	339.58	17.88	-46.4	-47.9	19.5	0.00e+00	0	40	0	1124073472	63	4502
2026-01-21 08:07:39.98	339.15	17.45	-46.6	-48.2	19.2	0.00e+00	0	40	0	1131413504	63	4665
2026-01-21 08:07:44.01	338.74	17.03	-46.5	-48.1	19.2	0.00e+00	0	40	0	1138753536	64	4352
2026-01-21 08:07:48.05	338.35	16.62	-46.3	-47.8	19.4	0.00e+00	0	40	0	1146093568	64	4230
2026-01-21 08:07:52.07	337.96	16.21	-46.5	-48.0	19.2	0.00e+00	0	40	0	1154482176	64	4335
2026-01-21 08:07:56.11	337.58	15.80	-46.6	-48.2	19.0	0.00e+00	0	40	0	1161822208	64	4405
2026-01-21 08:08:00.14	337.21	15.41	-46.7	-48.2	19.0	0.00e+00	0	40	0	1169162240	64	4429
2026-01-21 08:08:04.17	336.86	15.01	-46.5	-48.1	19.1	0.00e+00	0	40	0	1176502272	64	4356
2026-01-21 08:08:08.20	336.51	14.63	-46.6	-48.2	19.0	0.00e+00	0	40	0	1183842304	64	4417
2026-01-21 08:08:12.23	336.17	14.24	-46.6	-48.2	18.9	0.00e+00	0	40	0	1192230912	64	4424
2026-01-21 08:08:16.26	335.85	13.87	-46.9	-48.5	18.7	0.00e+00	0	40	0	1199570944	64	4590
2026-01-21 08:08:20.29	335.53	13.49	-47.1	-48.8	18.4	0.00e+00	0	40	0	1206910976	64	4708
2026-01-21 08:08:24.32	335.21	13.13	-47.2	-48.9	18.2	0.00e+00	0	40	0	1214251008	65	4540
2026-01-21 08:08:28.35	334.91	12.76	-47.2	-48.9	18.2	0.00e+00	0	40	0	1221591040	65	4521
2026-01-21 08:08:32.38	334.61	12.40	-47.0	-48.7	18.3	0.00e+00	0	40	0	1229979648	65	4439
2026-01-21 08:08:36.42	334.32	12.05	-46.9	-48.5	18.5	1.50e-06	0	40	0	1237319680	65	4320
2026-01-21 08:08:40.45	334.04	11.70	-47.0	-48.8	18.2	0.00e+00	0	40	0	1244659712	65	4453
2026-01-21 08:08:44.48	333.77	11.35	-47.4	-49.2	17.8	0.00e+00	0	40	0	1251999744	65	4684
2026-01-21 08:08:48.51	333.50	11.01	-47.6	-49.5	17.5	0.00e+00	0	40	0	1259339776	65	4828
2026-01-21 08:08:52.54	333.24	10.67	-47.6	-49.5	17.4	0.00e+00	0	40	0	1267728384	65	4830
2026-01-21 08:08:56.57	332.99	10.34	-47.6	-49.5	17.5	0.00e+00	0	40	0	1275068416	65	4837
2026-01-21 08:09:00.61	332.74	10.01	-47.4	-49.4	17.6	0.00e+00	0	40	0	1282408448	65	4760
2026-01-21 08:09:04.64	332.49	9.68	-47.5	-49.4	17.5	0.00e+00	0	40	0	1289748480	65	4806
2026-01-21 08:09:08.67	332.26	9.36	-47.4	-49.3	17.5	0.00e+00	0	40	0	1298137088	65	4740
2026-01-21 08:09:12.70	332.02	9.04	-47.4	-49.4	17.5	0.00e+00	0	40	0	1305477120	65	4763
2026-01-21 08:09:16.73	331.80	8.73	-47.6	-49.6	17.2	0.00e+00	0	40	0	1312817152	65	4901
2026-01-21 08:09:20.76	331.58	8.41	-47.5	-49.5	17.3	0.00e+00	0	40	0	1320157184	65	4860
2026-01-21 08:09:24.79	331.36	8.11	-47.5	-49.5	17.2	0.00e+00	0	40	0	1327497216	65	4864
2026-01-21 08:09:28.82	331.15	7.80	-47.7	-49.7	17.0	0.00e+00	0	40	0	1334837248	66	4696
2026-01-21 08:09:32.85	330.94	7.50	-47.7	-49.8	16.9	0.00e+00	0	40	0	1343225856	66	4720
2026-01-21 08:09:36.89	330.74	7.20	-48.0	-50.2	16.5	0.00e+00	0	40	0	1350565888	66	4952
2026-01-21 08:09:40.92	330.54	6.90	-48.1	-50.4	16.3	0.00e+00	0	40	0	1357905920	66	5073
2026-01-21 08:09:44.95	330.35	6.61	-48.4	-50.9	15.7	0.00e+00	0	40	0	1365245952	67	5055
2026-01-21 08:09:48.98	330.16	6.32	-48.1	-50.4	16.2	0.00e+00	0	40	0	1373634560	67	4784
2026-01-21 08:09:53.01	329.97	6.04	-48.2	-50.6	15.9	0.00e+00	0	40	0	1380974592	67	4904
2026-01-21 08:09:57.04	329.79	5.75	-48.4	-50.9	15.6	0.00e+00	0	40	0	1388314624	67	5058
2026-01-21 08:10:01.07	329.61	5.47	-48.1	-50.6	15.9	0.00e+00	0	40	0	1395654656	67	4874
2026-01-21 08:10:05.11	329.44	5.19	-48.3	-50.8	15.6	0.00e+00	0	40	0	1402994688	67	5023
2026-01-21 08:10:09.13	329.27	4.92	-53.0	-68.0	3.8	1.49e+00	0	40	104	1408237568	76	21550
2026-01-21 08:10:13.17	329.10	4.64	-53.5	-68.5	3.8	1.49e+00	0	40	104	1408237568	77	21562
2026-01-21 08:10:17.20	328.94	4.37	-53.3	-68.3	3.8	1.49e+00	0	40	104	1408237568	77	21178
2026-01-21 08:10:21.23	328.78	4.10	-53.3	-68.3	3.8	1.49e+00	0	40	104	1408237568	77	21181
2026-01-21 08:10:25.26	328.62	3.84	-53.4	-68.4	3.8	1.49e+00	0	40	104	1408237568	77	21432
2026-01-21 08:10:29.28	328.46	3.57	-53.5	-68.4	3.8	1.49e+00	0	40	104	1408237568	77	21476
2026-01-21 08:10:33.31	328.31	3.31	-53.4	-68.4	3.8	1.49e+00	0	40	104	1408237568	77	21363
2026-01-21 08:10:37.34	328.17	3.05	-53.4	-68.4	3.8	1.49e+00	0	40	104	1408237568	77	21342
2026-01-21 08:10:41.37	328.02	2.80	-53.4	-68.4	3.8	1.49e+00	0	40	104	1408237568	77	21361
2026-01-21 08:10:45.41	327.88	2.54	-53.4	-68.3	3.8	1.49e+00	0	40	104	1408237568	77	21259
2026-01-21 08:10:49.44	327.74	2.29	-53.4	-68.4	3.8	1.49e+00	0	40	104	1408237568	77	21298
2026-01-21 08:10:53.47	327.60	2.04	-53.3	-68.3	3.8	1.49e+00	0	40	104	1408237568	77	21182

#Closed at: 2026-01-21 08:10:56
#Recorded file [1408 MB]: D:/lorett/data/31041_260121_105702.dat