passes_logs/2026/01/21/R3.2S_Murmansk/R3.2S_Murmansk__20260121_061810_NOAA_20_JPSS-1_rec.log

#Pass ID: 20260121_061810_NOAA 20 (JPSS-1)
#Satellite: NOAA 20 (JPSS-1)
#Configuration: NOAA 20
#almurnet v.1.7.20251203
#Start time: 2026-01-21 06:18:10

#Version: 2.2.20231116
#Station: R3.2S_Murmansk
#Location: 33.079688 lon 68.888172 lat
#TLE: 1 43013U 17073A   26020.26397077  .00000127  00000+0  80954-4 0  9999
#TLE: 2 43013  98.7643 321.1479 0001288  31.3158 328.8095 14.19537595423482

#Time	Az	El	Level	Level2	SNR	BER	BlckErr	Temp	State	Recorded	gain1	gain2
2026-01-21 06:18:10.88	81.30	2.00	-52.5	-67.5	3.8	1.49e+00	0	38	0	0	77	19283
2026-01-21 06:18:14.91	81.06	2.24	-52.2	-67.2	3.8	1.49e+00	0	38	104	0	75	20948
2026-01-21 06:18:18.94	80.82	2.47	-52.2	-67.2	3.8	1.49e+00	0	38	104	0	75	20862
2026-01-21 06:18:22.98	80.57	2.71	-52.2	-67.2	3.8	1.49e+00	0	38	104	0	75	20883
2026-01-21 06:18:27.01	80.32	2.95	-52.2	-67.2	3.8	1.49e+00	0	38	104	0	75	20881
2026-01-21 06:18:31.05	80.07	3.19	-52.2	-67.2	3.8	1.49e+00	0	38	104	0	75	20846
2026-01-21 06:18:35.08	79.81	3.43	-52.2	-67.1	3.8	1.49e+00	0	38	104	0	75	20768
2026-01-21 06:18:39.12	79.54	3.67	-52.2	-67.2	3.8	1.49e+00	0	39	104	0	75	20875
2026-01-21 06:18:43.15	79.27	3.92	-52.2	-67.0	3.8	1.49e+00	0	38	104	0	75	20345
2026-01-21 06:18:47.18	79.00	4.17	-52.2	-66.6	3.8	1.49e+00	0	39	104	0	75	19440
2026-01-21 06:18:51.22	78.72	4.41	-51.9	-62.6	4.5	1.42e+00	11	39	0	0	75	12282
2026-01-21 06:18:55.25	78.44	4.66	-50.4	-55.3	10.6	6.28e-03	0	39	0	7340032	72	6331
2026-01-21 06:18:59.28	78.15	4.91	-49.3	-52.7	13.5	2.82e-05	0	39	0	14680064	70	5260
2026-01-21 06:19:03.31	77.86	5.17	-48.0	-50.4	15.9	0.00e+00	0	39	0	23068672	67	4786
2026-01-21 06:19:07.34	77.56	5.42	-49.1	-52.2	14.1	2.36e-05	0	39	0	28311552	70	4930
2026-01-21 06:19:11.38	77.25	5.68	-48.1	-50.5	15.9	0.00e+00	0	39	0	35651584	68	4565
2026-01-21 06:19:15.41	76.94	5.94	-47.7	-49.9	16.4	0.00e+00	0	39	0	42991616	67	4531
2026-01-21 06:19:19.44	76.63	6.20	-47.8	-50.0	16.4	0.00e+00	0	39	0	50331648	67	4585
2026-01-21 06:19:23.48	76.31	6.46	-47.6	-49.8	16.7	0.00e+00	0	39	0	57671680	67	4465
2026-01-21 06:19:27.51	75.98	6.72	-47.6	-49.7	16.8	0.00e+00	0	39	0	66060288	66	4660
2026-01-21 06:19:31.54	75.64	6.99	-47.7	-49.9	16.6	0.00e+00	0	39	0	73400320	66	4800
2026-01-21 06:19:35.57	75.30	7.25	-47.4	-49.5	17.1	0.00e+00	0	39	0	80740352	66	4559
2026-01-21 06:19:39.60	74.96	7.52	-47.6	-49.6	17.0	0.00e+00	0	39	0	88080384	66	4644
2026-01-21 06:19:43.63	74.60	7.79	-47.4	-49.4	17.3	0.00e+00	0	39	0	95420416	66	4520
2026-01-21 06:19:47.67	74.24	8.06	-47.5	-49.5	17.2	0.00e+00	0	39	0	103809024	66	4565
2026-01-21 06:19:51.70	73.87	8.34	-47.5	-49.5	17.1	0.00e+00	0	39	0	111149056	66	4582
2026-01-21 06:19:55.73	73.50	8.61	-47.4	-49.4	17.3	0.00e+00	0	39	0	118489088	66	4528
2026-01-21 06:19:59.77	73.12	8.89	-47.3	-49.2	17.5	0.00e+00	0	39	0	125829120	66	4416
2026-01-21 06:20:03.80	72.73	9.17	-47.4	-49.3	17.5	0.00e+00	0	39	0	134217728	66	4458
2026-01-21 06:20:07.83	72.33	9.45	-47.5	-49.4	17.4	0.00e+00	0	39	0	141557760	66	4538
2026-01-21 06:20:11.86	71.92	9.74	-47.6	-49.6	17.3	0.00e+00	0	39	0	148897792	66	4600
2026-01-21 06:20:15.89	71.51	10.02	-47.3	-49.2	17.7	0.00e+00	0	39	0	156237824	66	4404
2026-01-21 06:20:19.93	71.09	10.31	-47.0	-48.8	18.0	0.00e+00	0	39	0	163577856	66	4224
2026-01-21 06:20:23.95	70.66	10.60	-46.9	-48.6	18.3	0.00e+00	0	39	0	170917888	65	4363
2026-01-21 06:20:27.99	70.22	10.89	-46.9	-48.6	18.3	0.00e+00	0	39	0	179306496	65	4354
2026-01-21 06:20:32.02	69.77	11.18	-46.9	-48.6	18.3	0.00e+00	0	39	0	186646528	65	4347
2026-01-21 06:20:36.05	69.31	11.47	-46.9	-48.6	18.3	0.00e+00	0	39	0	193986560	65	4377
2026-01-21 06:20:40.09	68.84	11.77	-46.9	-48.6	18.3	0.00e+00	0	39	0	201326592	65	4381
2026-01-21 06:20:44.11	68.36	12.06	-46.8	-48.5	18.4	0.00e+00	0	39	0	209715200	65	4337
2026-01-21 06:20:48.15	67.88	12.36	-46.7	-48.3	18.7	0.00e+00	0	39	0	217055232	65	4211
2026-01-21 06:20:52.18	67.38	12.66	-46.5	-48.1	18.9	0.00e+00	0	39	0	224395264	65	4130
2026-01-21 06:20:56.21	66.87	12.97	-46.6	-48.2	18.8	0.00e+00	0	39	0	231735296	65	4167
2026-01-21 06:21:00.24	66.35	13.27	-46.5	-48.1	18.8	0.00e+00	0	39	0	239075328	64	4373
2026-01-21 06:21:04.28	65.82	13.57	-46.3	-47.8	19.2	0.00e+00	0	39	0	247463936	64	4213
2026-01-21 06:21:08.31	65.28	13.88	-46.4	-47.9	19.1	0.00e+00	0	39	0	254803968	64	4276
2026-01-21 06:21:12.34	64.73	14.19	-46.3	-47.9	19.2	0.00e+00	0	39	0	262144000	64	4247
2026-01-21 06:21:16.38	64.16	14.50	-46.2	-47.7	19.3	0.00e+00	0	39	0	269484032	64	4188
2026-01-21 06:21:20.41	63.59	14.80	-46.2	-47.7	19.4	0.00e+00	0	39	0	277872640	64	4173
2026-01-21 06:21:24.44	63.00	15.11	-46.1	-47.5	19.7	0.00e+00	0	40	0	285212672	63	4313
2026-01-21 06:21:28.47	62.40	15.43	-45.9	-47.4	19.8	0.00e+00	0	39	0	292552704	63	4245
2026-01-21 06:21:32.50	61.78	15.74	-46.3	-47.7	19.5	0.00e+00	0	39	0	299892736	63	4424
2026-01-21 06:21:36.53	61.15	16.05	-46.3	-47.8	19.5	0.00e+00	0	39	0	307232768	63	4443
2026-01-21 06:21:40.56	60.51	16.36	-46.4	-47.8	19.4	0.00e+00	0	39	0	314572800	63	4491
2026-01-21 06:21:44.60	59.86	16.67	-46.3	-47.8	19.4	0.00e+00	0	40	0	322961408	63	4479
2026-01-21 06:21:48.63	59.19	16.99	-46.3	-47.8	19.5	0.00e+00	0	39	0	330301440	63	4446
2026-01-21 06:21:52.66	58.51	17.30	-46.4	-47.9	19.3	0.00e+00	0	39	0	337641472	63	4526
2026-01-21 06:21:56.70	57.81	17.61	-46.3	-47.7	19.5	0.00e+00	0	39	0	344981504	63	4438
2026-01-21 06:22:00.73	57.09	17.92	-46.6	-48.1	19.2	0.00e+00	0	39	0	353370112	63	4643
2026-01-21 06:22:04.76	56.37	18.24	-46.6	-48.2	19.0	0.00e+00	0	40	0	360710144	64	4392
2026-01-21 06:22:08.79	55.63	18.54	-46.3	-47.8	19.4	0.00e+00	0	40	0	368050176	64	4221
2026-01-21 06:22:12.82	54.87	18.85	-46.2	-47.6	19.6	0.00e+00	0	40	0	375390208	64	4138
2026-01-21 06:22:16.85	54.10	19.16	-46.1	-47.6	19.7	0.00e+00	0	39	0	382730240	64	4108
2026-01-21 06:22:20.88	53.31	19.47	-45.8	-47.2	20.1	0.00e+00	0	40	0	391118848	63	4158
2026-01-21 06:22:24.92	52.50	19.77	-45.7	-47.0	20.3	0.00e+00	0	39	0	398458880	63	4083
2026-01-21 06:22:28.95	51.68	20.07	-45.3	-46.6	20.7	0.00e+00	0	39	0	405798912	62	4121
2026-01-21 06:22:32.98	50.84	20.37	-44.8	-46.0	21.3	0.00e+00	0	39	0	413138944	61	4061
2026-01-21 06:22:37.01	49.99	20.66	-44.5	-45.6	21.6	0.00e+00	0	39	0	420478976	60	4107
2026-01-21 06:22:41.04	49.11	20.95	-44.4	-45.5	21.7	0.00e+00	0	39	0	428867584	60	4088
2026-01-21 06:22:45.07	48.23	21.24	-44.5	-45.6	21.6	0.00e+00	0	39	0	436207616	60	4115
2026-01-21 06:22:49.11	47.32	21.53	-44.3	-45.5	21.8	0.00e+00	0	39	0	443547648	60	4052
2026-01-21 06:22:53.14	46.40	21.80	-44.2	-45.3	21.9	0.00e+00	0	40	0	450887680	60	3978
2026-01-21 06:22:57.17	45.46	22.08	-44.0	-45.1	22.1	0.00e+00	0	39	0	458227712	60	3887
2026-01-21 06:23:01.21	44.51	22.35	-44.3	-45.4	22.2	0.00e+00	0	40	0	466616320	59	4254
2026-01-21 06:23:05.24	43.54	22.61	-44.5	-45.6	21.7	0.00e+00	0	40	0	473956352	60	4132
2026-01-21 06:23:09.27	42.55	22.86	-44.4	-45.5	21.8	0.00e+00	0	40	0	481296384	60	4070
2026-01-21 06:23:13.30	41.54	23.11	-44.4	-45.6	21.7	0.00e+00	0	39	0	488636416	60	4101
2026-01-21 06:23:17.33	40.53	23.35	-44.4	-45.5	21.8	0.00e+00	0	39	0	497025024	60	4078
2026-01-21 06:23:21.36	39.49	23.59	-44.5	-45.6	21.7	0.00e+00	0	39	0	504365056	60	4134
2026-01-21 06:23:25.40	38.44	23.81	-44.1	-45.2	22.1	0.00e+00	0	40	0	511705088	60	3924
2026-01-21 06:23:29.43	37.37	24.03	-44.1	-45.2	22.4	0.00e+00	0	40	0	519045120	59	4168
2026-01-21 06:23:33.47	36.29	24.24	-44.1	-45.1	22.5	0.00e+00	0	40	0	526385152	59	4128
2026-01-21 06:23:37.50	35.19	24.44	-44.4	-45.5	22.1	0.00e+00	0	40	0	534773760	59	4314
2026-01-21 06:23:41.53	34.09	24.62	-44.6	-45.7	21.9	0.00e+00	0	40	0	542113792	59	4401
2026-01-21 06:23:45.56	32.97	24.80	-44.3	-45.4	21.9	0.00e+00	0	39	0	549453824	60	4019
2026-01-21 06:23:49.59	31.83	24.97	-44.8	-46.0	21.3	0.00e+00	0	39	0	556793856	60	4323
2026-01-21 06:23:53.62	30.69	25.12	-45.1	-46.3	21.1	0.00e+00	0	39	0	564133888	60	4460
2026-01-21 06:23:57.65	29.53	25.26	-45.5	-46.8	20.6	0.00e+00	0	39	0	572522496	61	4465
2026-01-21 06:24:01.68	28.37	25.39	-45.7	-47.0	20.4	0.00e+00	0	40	0	579862528	61	4549
2026-01-21 06:24:05.72	27.19	25.51	-45.7	-47.0	20.5	0.00e+00	0	39	0	587202560	62	4309
2026-01-21 06:24:09.75	26.01	25.62	-45.8	-47.1	20.4	0.00e+00	0	40	0	594542592	62	4360
2026-01-21 06:24:13.78	24.82	25.71	-46.1	-47.4	20.1	0.00e+00	0	39	0	602931200	62	4528
2026-01-21 06:24:17.81	23.62	25.79	-46.1	-47.4	20.1	0.00e+00	0	40	0	610271232	62	4536
2026-01-21 06:24:21.85	22.41	25.85	-46.1	-47.4	20.1	0.00e+00	0	39	0	617611264	62	4533
2026-01-21 06:24:25.88	21.21	25.90	-46.3	-47.7	19.9	0.00e+00	0	40	0	624951296	63	4399
2026-01-21 06:24:29.91	20.00	25.94	-46.2	-47.5	20.0	0.00e+00	0	39	0	632291328	63	4326
2026-01-21 06:24:33.94	18.78	25.97	-45.6	-46.9	20.6	0.00e+00	0	40	0	640679936	63	4021
2026-01-21 06:24:37.98	17.57	25.97	-45.7	-47.0	20.5	0.00e+00	0	40	0	648019968	63	4079
2026-01-21 06:24:42.01	16.35	25.97	-45.1	-46.3	21.1	0.00e+00	0	40	0	655360000	62	3983
2026-01-21 06:24:46.04	15.14	25.95	-44.8	-46.0	21.4	0.00e+00	0	39	0	662700032	61	4062
2026-01-21 06:24:50.07	13.93	25.92	-44.6	-45.7	21.7	0.00e+00	0	39	0	670040064	61	3916
2026-01-21 06:24:54.10	12.72	25.87	-44.4	-45.4	21.9	0.00e+00	0	40	0	678428672	60	4045
2026-01-21 06:24:58.13	11.52	25.81	-44.3	-45.3	22.3	0.00e+00	0	39	0	685768704	59	4226
2026-01-21 06:25:02.16	10.32	25.73	-44.6	-45.7	22.1	0.00e+00	0	39	0	693108736	59	4392
2026-01-21 06:25:06.20	9.12	25.64	-44.2	-45.3	22.4	0.00e+00	0	40	0	700448768	59	4217
2026-01-21 06:25:10.23	7.94	25.54	-44.3	-45.4	22.3	0.00e+00	0	40	0	707788800	59	4245
2026-01-21 06:25:14.26	6.76	25.43	-44.7	-45.8	21.9	0.00e+00	0	39	0	716177408	59	4464
2026-01-21 06:25:18.29	5.60	25.30	-44.2	-45.3	22.1	0.00e+00	0	40	0	723517440	60	3966
2026-01-21 06:25:22.33	4.43	25.16	-44.4	-45.5	21.9	0.00e+00	0	40	0	730857472	60	4064
2026-01-21 06:25:26.36	3.29	25.01	-44.7	-45.9	21.5	0.00e+00	0	40	0	738197504	60	4245
2026-01-21 06:25:30.39	2.15	24.85	-44.9	-46.0	21.4	0.00e+00	0	39	0	746586112	60	4325
2026-01-21 06:25:34.42	1.03	24.67	-45.2	-46.4	21.0	0.00e+00	0	40	0	753926144	60	4531
2026-01-21 06:25:38.45	359.92	24.49	-45.6	-46.9	20.6	0.00e+00	0	39	0	761266176	61	4494
2026-01-21 06:25:42.48	358.82	24.29	-45.6	-46.9	20.6	0.00e+00	0	40	0	768606208	61	4495
2026-01-21 06:25:46.52	357.74	24.09	-45.8	-47.1	20.3	0.00e+00	0	40	0	775946240	62	4388
2026-01-21 06:25:50.55	356.67	23.88	-45.9	-47.2	20.2	0.00e+00	0	40	0	783286272	62	4418
2026-01-21 06:25:54.58	355.61	23.65	-45.6	-46.9	20.6	0.00e+00	0	39	0	791674880	62	4251
2026-01-21 06:25:58.61	354.58	23.42	-46.0	-47.4	20.1	0.00e+00	0	40	0	799014912	62	4494
2026-01-21 06:26:02.64	353.55	23.18	-46.1	-47.5	19.9	0.00e+00	0	40	0	806354944	63	4331
2026-01-21 06:26:06.67	352.55	22.94	-46.0	-47.3	20.1	0.00e+00	0	40	0	813694976	63	4238
2026-01-21 06:26:10.71	351.55	22.68	-45.9	-47.2	20.3	0.00e+00	0	40	0	822083584	63	4160
2026-01-21 06:26:14.74	350.58	22.42	-45.5	-46.8	20.6	0.00e+00	0	40	0	829423616	63	3972
2026-01-21 06:26:18.77	349.62	22.16	-45.3	-46.5	20.8	0.00e+00	0	40	0	836763648	62	4092
2026-01-21 06:26:22.80	348.68	21.89	-45.0	-46.2	21.2	0.00e+00	0	40	0	844103680	62	3915
2026-01-21 06:26:26.83	347.76	21.61	-44.7	-45.8	21.5	0.00e+00	0	40	0	851443712	61	3997
2026-01-21 06:26:30.86	346.85	21.33	-44.7	-45.8	21.5	0.00e+00	0	40	0	859832320	61	4001
2026-01-21 06:26:34.89	345.96	21.04	-44.8	-46.0	21.3	0.00e+00	0	40	0	867172352	61	4085
2026-01-21 06:26:38.92	345.08	20.75	-44.9	-46.1	21.3	0.00e+00	0	39	0	874512384	61	4103
2026-01-21 06:26:42.96	344.22	20.46	-44.9	-46.0	21.2	0.00e+00	0	40	0	881852416	61	4090
2026-01-21 06:26:46.99	343.38	20.16	-44.5	-45.7	21.6	0.00e+00	0	39	0	890241024	61	3916
2026-01-21 06:26:51.03	342.56	19.86	-44.4	-45.5	21.8	0.00e+00	0	39	0	897581056	60	4073
2026-01-21 06:26:55.06	341.75	19.56	-44.2	-45.3	21.9	0.00e+00	0	40	0	904921088	60	3989
2026-01-21 06:26:59.09	340.96	19.25	-44.0	-45.1	22.1	0.00e+00	0	40	0	912261120	60	3885
2026-01-21 06:27:03.12	340.18	18.95	-44.1	-45.2	22.3	0.00e+00	0	39	0	919601152	59	4170
2026-01-21 06:27:07.16	339.42	18.64	-44.1	-45.1	22.4	0.00e+00	0	40	0	926941184	59	4123
2026-01-21 06:27:11.19	338.67	18.33	-44.2	-45.2	22.2	0.00e+00	0	40	0	935329792	59	4185
2026-01-21 06:27:15.22	337.94	18.02	-44.1	-45.1	22.3	0.00e+00	0	40	0	942669824	59	4145
2026-01-21 06:27:19.26	337.23	17.71	-43.9	-45.0	22.4	0.00e+00	0	39	0	950009856	59	4068
2026-01-21 06:27:23.29	336.53	17.40	-44.3	-45.4	22.1	0.00e+00	0	39	0	957349888	59	4249
2026-01-21 06:27:27.32	335.84	17.09	-44.2	-45.3	22.1	0.00e+00	0	39	0	965738496	59	4232
2026-01-21 06:27:31.35	335.17	16.77	-44.5	-45.6	21.9	0.00e+00	0	39	0	973078528	59	4358
2026-01-21 06:27:35.38	334.51	16.46	-44.4	-45.5	21.9	0.00e+00	0	40	0	980418560	59	4329
2026-01-21 06:27:39.41	333.87	16.15	-44.6	-45.8	21.7	0.00e+00	0	40	0	987758592	59	4451
2026-01-21 06:27:43.44	333.24	15.84	-44.7	-45.9	21.2	0.00e+00	0	40	0	995098624	60	4271
2026-01-21 06:27:47.47	332.62	15.53	-45.0	-46.2	20.9	0.00e+00	0	39	0	1003487232	60	4435
2026-01-21 06:27:51.51	332.02	15.22	-44.9	-46.2	21.0	0.00e+00	0	40	0	1010827264	60	4395
2026-01-21 06:27:55.53	331.43	14.91	-45.1	-46.3	20.8	0.00e+00	0	40	0	1018167296	60	4460
2026-01-21 06:27:59.57	330.85	14.60	-45.2	-46.5	20.6	0.00e+00	0	39	0	1025507328	61	4316
2026-01-21 06:28:03.59	330.28	14.29	-45.2	-46.5	20.7	0.00e+00	0	39	0	1033895936	61	4299
2026-01-21 06:28:07.63	329.73	13.98	-45.3	-46.6	20.5	0.00e+00	0	39	0	1041235968	61	4389
2026-01-21 06:28:11.66	329.19	13.68	-45.5	-46.9	20.3	0.00e+00	0	40	0	1048576000	61	4495
2026-01-21 06:28:15.69	328.65	13.37	-45.5	-46.8	20.3	0.00e+00	0	40	0	1055916032	61	4451
2026-01-21 06:28:19.73	328.13	13.07	-45.7	-47.1	20.0	0.00e+00	0	40	0	1063256064	62	4345
2026-01-21 06:28:23.77	327.62	12.77	-45.8	-47.2	19.9	0.00e+00	0	39	0	1070596096	62	4429
2026-01-21 06:28:27.80	327.12	12.47	-45.8	-47.2	19.9	0.00e+00	0	40	0	1078984704	62	4427
2026-01-21 06:28:31.83	326.63	12.17	-45.9	-47.4	19.7	0.00e+00	0	40	0	1086324736	62	4499
2026-01-21 06:28:35.87	326.15	11.87	-46.1	-47.6	19.5	0.00e+00	0	40	0	1093664768	62	4603
2026-01-21 06:28:39.89	325.69	11.58	-46.3	-47.8	19.3	0.00e+00	0	40	0	1101004800	63	4465
2026-01-21 06:28:43.92	325.23	11.28	-46.5	-48.0	19.0	0.00e+00	0	40	0	1109393408	63	4594
2026-01-21 06:28:47.96	324.78	10.99	-46.6	-48.2	18.9	0.00e+00	0	40	0	1116733440	63	4664
2026-01-21 06:28:51.98	324.34	10.70	-46.6	-48.3	18.7	0.00e+00	0	40	0	1124073472	64	4448
2026-01-21 06:28:56.01	323.90	10.41	-46.8	-48.5	18.5	0.00e+00	0	39	0	1131413504	64	4547
2026-01-21 06:29:00.04	323.48	10.12	-46.8	-48.5	18.4	0.00e+00	0	40	0	1138753536	64	4579
2026-01-21 06:29:04.07	323.07	9.84	-46.7	-48.4	18.5	0.00e+00	0	39	0	1147142144	64	4505
2026-01-21 06:29:08.10	322.66	9.56	-46.8	-48.5	18.3	0.00e+00	0	39	0	1154482176	64	4596
2026-01-21 06:29:12.13	322.26	9.28	-46.8	-48.5	18.4	0.00e+00	0	40	0	1161822208	64	4561
2026-01-21 06:29:16.16	321.87	9.00	-46.8	-48.5	18.3	0.00e+00	0	40	0	1169162240	64	4550
2026-01-21 06:29:20.19	321.49	8.72	-47.0	-48.7	18.0	0.00e+00	0	40	0	1176502272	64	4702
2026-01-21 06:29:24.23	321.11	8.44	-47.2	-49.1	17.7	0.00e+00	0	40	0	1184890880	65	4608
2026-01-21 06:29:28.26	320.74	8.17	-47.2	-49.1	17.7	0.00e+00	0	40	0	1192230912	65	4610
2026-01-21 06:29:32.28	320.38	7.90	-47.4	-49.4	17.4	0.00e+00	0	40	0	1199570944	65	4764
2026-01-21 06:29:36.31	320.03	7.63	-47.5	-49.5	17.2	0.00e+00	0	40	0	1206910976	65	4854
2026-01-21 06:29:40.35	319.68	7.36	-47.8	-50.0	16.7	0.00e+00	0	40	0	1214251008	66	4854
2026-01-21 06:29:44.38	319.34	7.09	-47.8	-50.0	16.6	0.00e+00	0	40	0	1222639616	66	4840
2026-01-21 06:29:48.41	319.00	6.82	-47.6	-49.6	17.0	0.00e+00	0	40	0	1229979648	66	4651
2026-01-21 06:29:52.44	318.67	6.56	-47.6	-49.6	16.9	0.00e+00	0	40	0	1237319680	66	4639
2026-01-21 06:29:56.48	318.35	6.30	-47.5	-49.5	17.0	0.00e+00	0	39	0	1244659712	66	4596
2026-01-21 06:30:00.51	318.04	6.04	-47.7	-49.8	16.6	0.00e+00	0	39	0	1253048320	66	4752
2026-01-21 06:30:04.54	317.73	5.78	-47.7	-49.9	16.6	0.00e+00	0	40	0	1260388352	66	4763
2026-01-21 06:30:08.57	317.42	5.52	-47.8	-50.1	16.3	0.00e+00	0	40	0	1267728384	66	4879
2026-01-21 06:30:12.60	317.12	5.27	-48.3	-50.8	15.5	0.00e+00	0	40	0	1275068416	67	5035
2026-01-21 06:30:16.63	316.83	5.02	-50.5	-54.9	12.0	7.00e-07	0	40	0	1282408448	71	6393
2026-01-21 06:30:20.67	316.54	4.76	-53.0	-67.9	3.8	1.49e+00	0	40	104	1283457024	76	21460
2026-01-21 06:30:24.70	316.26	4.52	-53.0	-67.9	3.8	1.49e+00	0	40	104	1283457024	76	21484
2026-01-21 06:30:28.74	315.98	4.27	-53.2	-68.2	3.8	1.49e+00	0	40	104	1283457024	76	22009
2026-01-21 06:30:32.77	315.70	4.02	-53.3	-68.3	3.8	1.49e+00	0	40	104	1283457024	77	21148
2026-01-21 06:30:36.80	315.43	3.78	-53.4	-68.4	3.8	1.49e+00	0	40	104	1283457024	77	21274
2026-01-21 06:30:40.83	315.17	3.53	-53.3	-68.3	3.8	1.49e+00	0	40	104	1283457024	77	21099
2026-01-21 06:30:44.87	314.91	3.29	-53.3	-68.3	3.8	1.49e+00	0	40	104	1283457024	77	21060
2026-01-21 06:30:48.90	314.66	3.05	-53.3	-68.3	3.8	1.49e+00	0	40	104	1283457024	77	21027
2026-01-21 06:30:52.93	314.41	2.81	-53.3	-68.2	3.8	1.49e+00	0	40	104	1283457024	77	20943
2026-01-21 06:30:56.96	314.16	2.57	-53.3	-68.2	3.8	1.49e+00	0	40	104	1283457024	77	20965
2026-01-21 06:31:00.99	313.92	2.34	-53.2	-68.2	3.8	1.49e+00	0	40	104	1283457024	77	20981
2026-01-21 06:31:05.03	313.68	2.10	-53.2	-68.2	3.8	1.49e+00	0	40	104	1283457024	77	20935

#Closed at: 2026-01-21 06:31:07
#Recorded file [1283 MB]: D:/lorett/data/31041_260121_091810.dat