passes_logs/2026/01/21/R3.2S_Murmansk/R3.2S_Murmansk__20260121_023917_SUOMI_NPP_rec.log

#Pass ID: 20260121_023917_SUOMI NPP
#Satellite: SUOMI NPP
#Configuration: NPP
#almurnet v.1.7.20251203
#Start time: 2026-01-21 02:39:19

#Version: 2.2.20231116
#Station: R3.2S_Murmansk
#Location: 33.079688 lon 68.888172 lat
#TLE: 1 37849U 11061A   26020.31993517  .00000142  00000+0  88240-4 0  9990
#TLE: 2 37849  98.7818 322.3228 0002330  54.3778 305.7615 14.19527005737466

#Time	Az	El	Level	Level2	SNR	BER	BlckErr	Temp	State	Recorded	gain1	gain2
2026-01-21 02:39:19.16	34.45	2.08	-53.6	-68.6	3.8	1.49e+00	0	38	0	0	78	20598
2026-01-21 02:39:23.19	34.28	2.33	-52.3	-67.3	3.8	1.49e+00	0	38	104	0	76	19885
2026-01-21 02:39:27.22	34.12	2.58	-52.3	-67.2	3.8	1.49e+00	0	38	104	0	76	19786
2026-01-21 02:39:31.25	33.95	2.83	-52.3	-67.2	3.8	1.49e+00	0	38	104	0	76	19766
2026-01-21 02:39:35.29	33.78	3.09	-52.3	-67.2	3.8	1.49e+00	0	38	104	0	76	19818
2026-01-21 02:39:39.32	33.61	3.34	-52.3	-67.1	3.8	1.49e+00	0	39	104	0	76	19412
2026-01-21 02:39:43.35	33.43	3.60	-52.2	-66.3	3.8	1.49e+00	0	39	104	0	76	17875
2026-01-21 02:39:47.39	33.25	3.86	-52.2	-66.1	3.8	1.49e+00	0	39	104	0	76	17390
2026-01-21 02:39:51.42	33.07	4.13	-51.8	-60.8	5.5	6.40e-01	0	39	0	2097152	75	9994
2026-01-21 02:39:55.46	32.88	4.39	-50.9	-56.9	9.0	2.98e-02	0	39	0	10485760	73	7172
2026-01-21 02:39:59.49	32.69	4.66	-50.9	-56.8	9.1	1.65e-02	0	39	0	17825792	73	7115
2026-01-21 02:40:03.52	32.49	4.93	-51.7	-60.3	5.9	2.85e-01	0	39	0	25165824	73	10614
2026-01-21 02:40:07.56	32.29	5.20	-52.1	-64.7	4.1	1.11e-03	33	39	0	32505856	74	16689
2026-01-21 02:40:11.59	32.09	5.48	-47.6	-49.8	16.4	0.00e+00	0	39	0	36700160	67	4475
2026-01-21 02:40:15.63	31.88	5.75	-47.6	-49.9	16.5	0.00e+00	0	39	0	44040192	66	4765
2026-01-21 02:40:19.66	31.67	6.03	-47.6	-49.8	16.5	0.00e+00	0	39	0	51380224	66	4757
2026-01-21 02:40:23.69	31.45	6.31	-47.3	-49.4	17.0	0.00e+00	0	39	0	58720256	66	4495
2026-01-21 02:40:27.72	31.23	6.60	-47.2	-49.2	17.2	0.00e+00	0	39	0	66060288	66	4438
2026-01-21 02:40:31.75	31.01	6.89	-47.3	-49.5	17.0	0.00e+00	0	39	0	74448896	65	4825
2026-01-21 02:40:35.79	30.77	7.18	-47.3	-49.4	17.0	0.00e+00	0	39	0	81788928	65	4773
2026-01-21 02:40:39.83	30.54	7.47	-47.3	-49.5	17.0	0.00e+00	0	39	0	89128960	65	4843
2026-01-21 02:40:43.86	30.30	7.77	-47.4	-49.5	17.0	0.00e+00	0	40	0	96468992	65	4837
2026-01-21 02:40:47.89	30.05	8.07	-47.3	-49.4	17.1	0.00e+00	0	39	0	103809024	65	4765
2026-01-21 02:40:51.93	29.80	8.37	-46.9	-48.8	17.7	0.00e+00	0	39	0	112197632	65	4491
2026-01-21 02:40:55.96	29.54	8.67	-47.1	-49.2	17.4	0.00e+00	0	39	0	119537664	65	4652
2026-01-21 02:40:59.99	29.28	8.98	-46.7	-48.5	18.0	0.00e+00	0	39	0	126877696	65	4337
2026-01-21 02:41:04.02	29.01	9.29	-46.7	-48.6	18.0	0.00e+00	0	40	0	134217728	64	4609
2026-01-21 02:41:08.06	28.74	9.61	-46.4	-48.1	18.4	0.00e+00	0	40	0	142606336	64	4383
2026-01-21 02:41:12.08	28.46	9.93	-46.3	-48.0	18.6	0.00e+00	0	40	0	149946368	64	4307
2026-01-21 02:41:16.12	28.17	10.25	-46.4	-48.1	18.6	0.00e+00	0	40	0	157286400	64	4348
2026-01-21 02:41:20.15	27.87	10.57	-46.3	-48.0	18.7	0.00e+00	0	39	0	164626432	64	4322
2026-01-21 02:41:24.18	27.57	10.90	-46.4	-48.1	18.7	0.00e+00	0	40	0	171966464	64	4346
2026-01-21 02:41:28.21	27.26	11.23	-46.5	-48.3	18.5	0.00e+00	0	40	0	179306496	64	4446
2026-01-21 02:41:32.24	26.95	11.57	-46.4	-48.0	18.7	0.00e+00	0	40	0	187695104	64	4324
2026-01-21 02:41:36.28	26.62	11.91	-46.4	-48.0	18.8	0.00e+00	0	40	0	195035136	63	4576
2026-01-21 02:41:40.30	26.29	12.25	-46.2	-47.8	19.0	0.00e+00	0	40	0	202375168	63	4466
2026-01-21 02:41:44.33	25.95	12.60	-46.5	-48.2	18.7	0.00e+00	0	40	0	209715200	63	4653
2026-01-21 02:41:48.37	25.60	12.95	-46.1	-47.7	19.2	0.00e+00	0	40	0	218103808	63	4411
2026-01-21 02:41:52.40	25.25	13.31	-46.2	-47.8	19.1	0.00e+00	0	40	0	225443840	63	4476
2026-01-21 02:41:56.43	24.88	13.67	-46.1	-47.6	19.3	0.00e+00	0	40	0	232783872	63	4361
2026-01-21 02:42:00.46	24.50	14.03	-46.2	-47.8	19.2	0.00e+00	0	40	0	240123904	63	4444
2026-01-21 02:42:04.50	24.12	14.40	-45.7	-47.1	19.8	0.00e+00	0	40	0	247463936	62	4380
2026-01-21 02:42:08.53	23.72	14.77	-45.8	-47.2	19.7	0.00e+00	0	40	0	255852544	62	4427
2026-01-21 02:42:12.56	23.32	15.15	-45.8	-47.3	19.7	0.00e+00	0	40	0	263192576	62	4462
2026-01-21 02:42:16.59	22.90	15.53	-46.1	-47.6	19.4	0.00e+00	0	40	0	270532608	62	4605
2026-01-21 02:42:20.62	22.47	15.91	-46.2	-47.8	19.2	0.00e+00	0	40	0	277872640	63	4448
2026-01-21 02:42:24.65	22.03	16.30	-46.6	-48.3	18.8	0.00e+00	0	40	0	285212672	63	4730
2026-01-21 02:42:28.68	21.58	16.69	-46.0	-47.5	19.6	0.00e+00	0	40	0	293601280	63	4306
2026-01-21 02:42:32.71	21.12	17.09	-46.0	-47.5	19.6	0.00e+00	0	40	0	300941312	63	4325
2026-01-21 02:42:36.75	20.64	17.49	-45.7	-47.1	20.0	0.00e+00	0	40	0	308281344	63	4129
2026-01-21 02:42:40.78	20.15	17.90	-45.4	-46.7	20.4	0.00e+00	0	40	0	315621376	62	4162
2026-01-21 02:42:44.81	19.64	18.31	-45.5	-46.8	20.3	0.00e+00	0	40	0	322961408	62	4199
2026-01-21 02:42:48.84	19.13	18.73	-46.1	-47.5	19.6	0.00e+00	0	40	0	331350016	62	4590
2026-01-21 02:42:52.88	18.59	19.15	-45.9	-47.3	19.9	0.00e+00	0	40	0	338690048	63	4196
2026-01-21 02:42:56.91	18.04	19.58	-45.6	-46.9	20.2	0.00e+00	0	40	0	346030080	62	4275
2026-01-21 02:43:00.94	17.48	20.01	-46.0	-47.5	19.7	0.00e+00	0	40	0	353370112	62	4554
2026-01-21 02:43:04.98	16.90	20.44	-45.8	-47.2	19.9	0.00e+00	0	40	0	361758720	63	4190
2026-01-21 02:43:09.02	16.30	20.88	-46.5	-48.1	19.1	0.00e+00	0	40	0	369098752	63	4637
2026-01-21 02:43:13.05	15.68	21.32	-46.4	-48.0	19.1	0.00e+00	0	40	0	376438784	64	4319
2026-01-21 02:43:17.08	15.05	21.77	-46.9	-48.5	18.7	0.00e+00	0	40	0	383778816	64	4594
2026-01-21 02:43:21.12	14.39	22.22	-46.6	-48.2	19.0	0.00e+00	0	40	0	391118848	64	4401
2026-01-21 02:43:25.15	13.72	22.68	-45.9	-47.3	19.9	0.00e+00	0	40	0	399507456	63	4201
2026-01-21 02:43:29.18	13.03	23.13	-45.7	-47.1	20.1	0.00e+00	0	40	0	406847488	62	4344
2026-01-21 02:43:33.21	12.31	23.60	-45.7	-47.1	20.0	0.00e+00	0	40	0	414187520	62	4375
2026-01-21 02:43:37.25	11.57	24.06	-45.3	-46.6	20.5	0.00e+00	0	40	0	421527552	62	4127
2026-01-21 02:43:41.28	10.82	24.53	-46.0	-47.4	19.9	0.00e+00	0	40	0	428867584	62	4498
2026-01-21 02:43:45.31	10.03	25.00	-46.2	-47.7	19.6	0.00e+00	0	40	0	437256192	63	4414
2026-01-21 02:43:49.35	9.23	25.48	-47.2	-48.9	18.3	0.00e+00	0	40	0	444596224	65	4544
2026-01-21 02:43:53.38	8.39	25.95	-47.2	-49.0	18.3	0.00e+00	0	40	0	451936256	65	4557
2026-01-21 02:43:57.41	7.54	26.43	-47.7	-49.7	17.5	0.00e+00	0	40	0	459276288	65	4968
2026-01-21 02:44:01.45	6.65	26.91	-47.3	-49.2	18.1	0.00e+00	0	40	0	466616320	66	4401
2026-01-21 02:44:05.47	5.74	27.38	-46.6	-48.2	19.1	0.00e+00	0	40	0	475004928	64	4407
2026-01-21 02:44:09.51	4.80	27.86	-46.4	-48.0	19.3	0.00e+00	0	40	0	482344960	64	4299
2026-01-21 02:44:13.54	3.83	28.34	-46.8	-48.5	18.8	0.00e+00	0	40	0	489684992	64	4563
2026-01-21 02:44:17.57	2.84	28.82	-46.6	-48.2	19.1	0.00e+00	0	40	0	497025024	64	4400
2026-01-21 02:44:21.60	1.81	29.29	-47.6	-49.5	17.9	0.00e+00	0	40	0	505413632	65	4819
2026-01-21 02:44:25.64	0.75	29.76	-47.5	-49.3	18.1	0.00e+00	0	40	0	512753664	66	4482
2026-01-21 02:44:29.67	359.66	30.23	-47.5	-49.3	18.1	0.00e+00	0	40	0	520093696	65	4725
2026-01-21 02:44:33.70	358.53	30.70	-47.1	-48.9	18.4	0.00e+00	0	40	0	527433728	66	4249
2026-01-21 02:44:37.73	357.38	31.15	-47.8	-49.9	17.5	0.00e+00	0	40	0	534773760	66	4764
2026-01-21 02:44:41.76	356.19	31.61	-48.2	-50.4	16.9	0.00e+00	0	40	0	543162368	67	4809
2026-01-21 02:44:45.79	354.97	32.05	-48.8	-51.5	16.0	0.00e+00	0	40	0	550502400	68	5117
2026-01-21 02:44:49.82	353.71	32.48	-48.1	-50.3	17.0	0.00e+00	0	40	0	557842432	67	4754
2026-01-21 02:44:53.86	352.42	32.91	-49.7	-52.9	14.6	0.00e+00	0	40	0	565182464	69	5692
2026-01-21 02:44:57.89	351.09	33.33	-50.2	-53.7	13.9	3.80e-06	0	40	0	572522496	70	5916
2026-01-21 02:45:01.92	349.73	33.73	-48.2	-50.3	17.1	0.00e+00	0	40	0	580911104	68	4458
2026-01-21 02:45:05.95	348.34	34.11	-49.5	-52.6	15.0	0.00e+00	0	40	0	588251136	70	5168
2026-01-21 02:45:09.99	346.91	34.49	-48.4	-50.8	16.7	0.00e+00	0	40	0	595591168	68	4718
2026-01-21 02:45:14.02	345.45	34.84	-49.7	-53.0	14.6	7.00e-07	0	40	0	602931200	70	5405
2026-01-21 02:45:18.05	343.96	35.18	-47.9	-50.0	17.3	0.00e+00	0	40	0	610271232	67	4559
2026-01-21 02:45:22.08	342.44	35.50	-47.0	-48.9	18.3	0.00e+00	0	40	0	618659840	66	4283
2026-01-21 02:45:26.11	340.89	35.80	-47.1	-49.0	18.4	0.00e+00	0	40	0	625999872	65	4561
2026-01-21 02:45:30.15	339.31	36.08	-46.3	-47.9	19.4	0.00e+00	0	40	0	633339904	64	4284
2026-01-21 02:45:34.18	337.71	36.33	-45.0	-46.4	20.8	0.00e+00	0	40	0	640679936	62	4005
2026-01-21 02:45:38.21	336.08	36.56	-45.3	-46.7	20.5	0.00e+00	0	40	0	649068544	61	4397
2026-01-21 02:45:42.24	334.43	36.77	-44.2	-45.3	21.8	0.00e+00	0	40	0	656408576	60	3979
2026-01-21 02:45:46.27	332.76	36.95	-44.4	-45.6	21.6	0.00e+00	0	40	0	663748608	60	4112
2026-01-21 02:45:50.30	331.07	37.10	-45.3	-46.6	20.7	0.00e+00	0	40	0	671088640	61	4385
2026-01-21 02:45:54.33	329.37	37.22	-44.6	-45.8	21.5	0.00e+00	0	40	0	678428672	60	4205
2026-01-21 02:45:58.36	327.66	37.31	-44.5	-45.6	21.9	0.00e+00	0	40	0	686817280	59	4387
2026-01-21 02:46:02.39	325.94	37.38	-45.1	-46.3	21.1	0.00e+00	0	40	0	694157312	61	4194
2026-01-21 02:46:06.42	324.21	37.41	-46.1	-47.6	19.9	0.00e+00	0	40	0	701497344	63	4345
2026-01-21 02:46:10.46	322.48	37.42	-46.6	-48.2	19.3	0.00e+00	0	40	0	708837376	64	4409
2026-01-21 02:46:14.49	320.75	37.40	-46.9	-48.5	19.0	0.00e+00	0	40	0	716177408	64	4598
2026-01-21 02:46:18.52	319.03	37.34	-46.2	-47.6	19.8	0.00e+00	0	40	0	724566016	63	4368
2026-01-21 02:46:22.55	317.31	37.26	-46.6	-48.3	19.2	0.00e+00	0	40	0	731906048	64	4455
2026-01-21 02:46:26.59	315.60	37.15	-48.3	-50.7	16.8	0.00e+00	0	40	0	739246080	67	4965
2026-01-21 02:46:30.62	313.91	37.01	-47.2	-49.1	18.3	0.00e+00	0	40	0	746586112	66	4357
2026-01-21 02:46:34.65	312.23	36.84	-47.2	-49.1	18.2	0.00e+00	0	40	0	754974720	65	4616
2026-01-21 02:46:38.69	310.57	36.64	-47.4	-49.3	18.1	0.00e+00	0	40	0	762314752	66	4444
2026-01-21 02:46:42.72	308.93	36.42	-46.5	-48.3	19.0	0.00e+00	0	40	0	769654784	64	4445
2026-01-21 02:46:46.75	307.31	36.18	-49.2	-52.3	15.3	0.00e+00	0	40	0	776994816	68	5637
2026-01-21 02:46:50.78	305.72	35.91	-46.8	-48.7	18.5	0.00e+00	0	40	0	784334848	65	4403
2026-01-21 02:46:54.81	304.16	35.62	-47.2	-49.3	18.1	0.00e+00	0	40	0	791674880	64	4985
2026-01-21 02:46:58.84	302.63	35.31	-46.1	-47.6	19.7	0.00e+00	0	40	0	800063488	63	4388
2026-01-21 02:47:02.87	301.13	34.97	-46.1	-47.6	19.9	0.00e+00	0	40	0	807403520	62	4630
2026-01-21 02:47:06.91	299.65	34.62	-47.8	-49.9	17.6	0.00e+00	0	40	0	814743552	66	4811
2026-01-21 02:47:10.94	298.21	34.26	-46.4	-48.1	19.3	0.00e+00	0	40	0	822083584	64	4357
2026-01-21 02:47:14.97	296.80	33.87	-47.6	-49.6	17.8	0.00e+00	0	40	0	830472192	65	4921
2026-01-21 02:47:19.00	295.43	33.48	-47.4	-49.3	18.2	0.00e+00	0	40	0	837812224	66	4467
2026-01-21 02:47:23.03	294.09	33.06	-46.3	-47.8	19.6	0.00e+00	0	40	0	845152256	64	4217
2026-01-21 02:47:27.06	292.79	32.64	-47.4	-49.3	18.1	0.00e+00	0	40	0	852492288	66	4462
2026-01-21 02:47:31.10	291.51	32.21	-45.9	-47.3	20.1	0.00e+00	0	40	0	859832320	63	4196
2026-01-21 02:47:35.13	290.27	31.77	-47.6	-49.5	18.0	0.00e+00	0	40	0	868220928	65	4848
2026-01-21 02:47:39.16	289.07	31.32	-46.7	-48.3	19.0	0.00e+00	0	40	0	875560960	64	4488
2026-01-21 02:47:43.19	287.90	30.86	-47.7	-49.7	17.7	0.00e+00	0	40	0	882900992	66	4663
2026-01-21 02:47:47.22	286.76	30.40	-48.8	-51.1	16.5	0.00e+00	0	40	0	890241024	69	4645
2026-01-21 02:47:51.25	285.66	29.93	-48.1	-50.1	17.4	0.00e+00	0	40	0	898629632	67	4640
2026-01-21 02:47:55.29	284.58	29.46	-47.4	-49.2	18.2	0.00e+00	0	40	0	905969664	66	4409
2026-01-21 02:47:59.32	283.54	28.99	-45.9	-47.2	20.1	0.00e+00	0	40	0	913309696	63	4191
2026-01-21 02:48:03.35	282.53	28.51	-45.7	-47.0	20.3	0.00e+00	0	40	0	920649728	62	4339
2026-01-21 02:48:07.39	281.55	28.03	-46.6	-48.1	19.2	0.00e+00	0	40	0	927989760	64	4383
2026-01-21 02:48:11.42	280.60	27.55	-45.8	-47.1	20.2	0.00e+00	0	40	0	935329792	63	4134
2026-01-21 02:48:15.45	279.67	27.07	-46.5	-48.1	19.5	0.00e+00	0	40	0	943718400	63	4609
2026-01-21 02:48:19.48	278.78	26.59	-45.0	-46.2	21.0	0.00e+00	0	40	0	951058432	62	3955
2026-01-21 02:48:23.51	277.91	26.11	-45.0	-46.3	20.9	0.00e+00	0	40	0	958398464	61	4212
2026-01-21 02:48:27.55	277.07	25.64	-45.7	-47.0	20.3	0.00e+00	0	40	0	965738496	61	4591
2026-01-21 02:48:31.58	276.25	25.16	-45.4	-46.7	20.5	0.00e+00	0	40	0	974127104	62	4190
2026-01-21 02:48:35.61	275.46	24.69	-45.4	-46.7	20.6	0.00e+00	0	40	0	981467136	61	4405
2026-01-21 02:48:39.65	274.68	24.22	-45.9	-47.3	20.0	0.00e+00	0	40	0	988807168	62	4445
2026-01-21 02:48:43.68	273.94	23.75	-45.7	-47.1	20.2	0.00e+00	0	40	0	996147200	62	4363
2026-01-21 02:48:47.71	273.21	23.29	-46.4	-48.0	19.5	0.00e+00	0	40	0	1003487232	63	4547
2026-01-21 02:48:51.74	272.51	22.83	-46.2	-47.7	19.7	0.00e+00	0	40	0	1011875840	63	4409
2026-01-21 02:48:55.78	271.83	22.37	-46.5	-48.1	19.1	0.00e+00	0	40	0	1019215872	64	4377
2026-01-21 02:48:59.81	271.17	21.91	-47.4	-49.2	18.1	0.00e+00	0	40	0	1026555904	65	4695
2026-01-21 02:49:03.84	270.52	21.47	-47.3	-49.1	18.2	0.00e+00	0	40	0	1033895936	66	4387
2026-01-21 02:49:07.87	269.90	21.02	-45.6	-47.0	20.2	0.00e+00	0	40	0	1041235968	63	4068
2026-01-21 02:49:11.91	269.29	20.58	-46.0	-47.4	19.9	0.00e+00	0	40	0	1049624576	62	4509
2026-01-21 02:49:15.94	268.70	20.14	-46.5	-48.0	19.3	0.00e+00	0	40	0	1056964608	63	4562
2026-01-21 02:49:19.97	268.13	19.71	-44.9	-46.0	21.0	0.00e+00	0	40	0	1064304640	61	4098
2026-01-21 02:49:24.01	267.57	19.28	-45.2	-46.4	20.6	0.00e+00	0	40	0	1071644672	61	4282
2026-01-21 02:49:28.04	267.03	18.86	-46.9	-48.6	18.6	0.00e+00	0	40	0	1078984704	64	4605
2026-01-21 02:49:32.08	266.50	18.44	-48.7	-51.2	16.1	0.00e+00	0	40	0	1087373312	67	5235
2026-01-21 02:49:36.11	265.99	18.02	-47.7	-49.7	17.6	0.00e+00	0	40	0	1094713344	67	4434
2026-01-21 02:49:40.14	265.50	17.62	-46.2	-47.7	19.3	0.00e+00	0	40	0	1102053376	64	4177
2026-01-21 02:49:44.17	265.01	17.21	-46.6	-48.3	18.8	0.00e+00	0	40	0	1109393408	64	4450
2026-01-21 02:49:48.20	264.54	16.81	-47.3	-49.2	18.0	0.00e+00	0	40	0	1117782016	65	4659
2026-01-21 02:49:52.24	264.08	16.41	-46.3	-47.8	19.2	0.00e+00	0	40	0	1125122048	64	4242
2026-01-21 02:49:56.27	263.64	16.02	-46.0	-47.5	19.6	0.00e+00	0	40	0	1132462080	63	4305
2026-01-21 02:50:00.31	263.20	15.63	-46.4	-48.0	19.1	0.00e+00	0	40	0	1139802112	63	4585
2026-01-21 02:50:04.34	262.78	15.25	-46.7	-48.3	18.7	0.00e+00	0	40	0	1147142144	64	4473
2026-01-21 02:50:08.37	262.37	14.87	-46.9	-48.6	18.4	0.00e+00	0	40	0	1155530752	64	4619
2026-01-21 02:50:12.40	261.97	14.50	-46.9	-48.6	18.4	0.00e+00	0	40	0	1162870784	64	4640
2026-01-21 02:50:16.44	261.58	14.13	-46.4	-48.0	19.1	0.00e+00	0	40	0	1170210816	64	4296
2026-01-21 02:50:20.47	261.20	13.76	-46.3	-47.8	19.1	0.00e+00	0	40	0	1177550848	64	4213
2026-01-21 02:50:24.51	260.82	13.40	-47.0	-48.7	18.3	0.00e+00	0	40	0	1184890880	64	4700
2026-01-21 02:50:28.54	260.46	13.04	-48.1	-50.3	16.7	0.00e+00	0	40	0	1193279488	66	5024
2026-01-21 02:50:32.57	260.11	12.69	-48.0	-50.1	16.9	0.00e+00	0	40	0	1200619520	67	4650
2026-01-21 02:50:36.61	259.76	12.34	-47.5	-49.5	17.5	0.00e+00	0	40	0	1207959552	67	4311
2026-01-21 02:50:40.64	259.43	12.00	-46.7	-48.5	18.4	0.00e+00	0	40	0	1215299584	65	4294
2026-01-21 02:50:44.67	259.10	11.65	-46.4	-48.1	18.7	0.00e+00	0	40	0	1223688192	64	4359
2026-01-21 02:50:48.70	258.78	11.32	-46.4	-48.1	18.7	0.00e+00	0	40	0	1231028224	64	4358
2026-01-21 02:50:52.73	258.46	10.98	-46.3	-47.9	18.8	0.00e+00	0	40	0	1238368256	64	4289
2026-01-21 02:50:56.76	258.16	10.65	-46.6	-48.2	18.6	0.00e+00	0	40	0	1245708288	64	4439
2026-01-21 02:51:00.79	257.86	10.33	-46.7	-48.4	18.4	0.00e+00	0	40	0	1253048320	64	4529
2026-01-21 02:51:04.83	257.57	10.00	-47.1	-49.0	17.8	0.00e+00	0	40	0	1261436928	64	4831
2026-01-21 02:51:08.85	257.28	9.68	-47.3	-49.1	17.8	0.00e+00	0	40	0	1268776960	65	4650
2026-01-21 02:51:12.88	257.00	9.37	-47.4	-49.3	17.4	0.00e+00	0	40	0	1276116992	65	4743
2026-01-21 02:51:16.92	256.73	9.05	-47.6	-49.7	17.0	0.00e+00	0	40	0	1283457024	65	4936
2026-01-21 02:51:20.95	256.46	8.74	-47.8	-50.0	16.7	0.00e+00	0	40	0	1290797056	66	4833
2026-01-21 02:51:24.98	256.20	8.44	-48.3	-50.7	16.0	0.00e+00	0	40	0	1299185664	67	4974
2026-01-21 02:51:29.01	255.95	8.13	-48.6	-51.2	15.5	0.00e+00	0	40	0	1306525696	67	5260
2026-01-21 02:51:33.05	255.70	7.83	-48.3	-50.7	16.0	0.00e+00	0	40	0	1313865728	67	4964
2026-01-21 02:51:37.08	255.45	7.53	-47.7	-49.9	16.7	0.00e+00	0	40	0	1321205760	67	4505
2026-01-21 02:51:41.11	255.21	7.24	-47.1	-49.1	17.5	0.00e+00	0	40	0	1328545792	66	4351
2026-01-21 02:51:45.14	254.98	6.95	-47.0	-48.8	17.7	0.00e+00	0	40	0	1336934400	65	4489
2026-01-21 02:51:49.17	254.75	6.66	-47.0	-48.9	17.6	0.00e+00	0	40	0	1344274432	65	4531
2026-01-21 02:51:53.20	254.52	6.37	-47.2	-49.2	17.3	0.00e+00	0	40	0	1351614464	65	4663
2026-01-21 02:51:57.23	254.30	6.09	-47.2	-49.2	17.2	0.00e+00	0	40	0	1358954496	65	4691
2026-01-21 02:52:01.26	254.09	5.81	-47.6	-49.8	16.5	0.00e+00	0	40	0	1367343104	66	4758
2026-01-21 02:52:05.30	253.88	5.53	-48.0	-50.4	16.0	0.00e+00	0	40	0	1374683136	66	5088
2026-01-21 02:52:09.33	253.67	5.26	-48.5	-51.1	15.2	0.00e+00	0	40	0	1382023168	67	5213
2026-01-21 02:52:13.36	253.47	4.98	-49.1	-52.2	14.4	0.00e+00	0	40	0	1389363200	68	5578
2026-01-21 02:52:17.40	253.27	4.71	-53.2	-68.2	3.8	1.49e+00	0	40	104	1390411776	77	20927
2026-01-21 02:52:21.43	253.07	4.44	-53.2	-68.2	3.8	1.49e+00	0	40	104	1390411776	77	20779
2026-01-21 02:52:25.47	252.88	4.18	-53.2	-68.2	3.8	1.49e+00	0	40	104	1390411776	77	20790
2026-01-21 02:52:29.50	252.69	3.91	-53.4	-68.3	3.8	1.49e+00	0	40	104	1390411776	77	21253
2026-01-21 02:52:33.54	252.51	3.65	-53.5	-68.5	3.8	1.49e+00	0	40	104	1390411776	77	21526
2026-01-21 02:52:37.57	252.33	3.39	-53.5	-68.5	3.8	1.49e+00	0	40	104	1390411776	77	21539
2026-01-21 02:52:41.61	252.15	3.13	-53.5	-68.5	3.8	1.49e+00	0	40	104	1390411776	77	21514
2026-01-21 02:52:45.64	251.98	2.88	-53.4	-68.4	3.8	1.49e+00	0	40	104	1390411776	77	21458
2026-01-21 02:52:49.68	251.81	2.62	-53.4	-68.4	3.8	1.49e+00	0	40	104	1390411776	77	21439
2026-01-21 02:52:53.71	251.64	2.37	-53.4	-68.4	3.8	1.49e+00	0	40	104	1390411776	77	21376
2026-01-21 02:52:57.74	251.47	2.12	-53.4	-68.4	3.8	1.49e+00	0	40	104	1390411776	77	21366

#Closed at: 2026-01-21 02:53:00
#Recorded file [1390 MB]: D:/lorett/data/31041_260121_053918.dat