passes_logs/2026/01/21/R3.2S_Murmansk/R3.2S_Murmansk__20260121_065536_KANOPUS-V_5_rec.log

#Pass ID: 20260121_065536_KANOPUS-V 5
#Satellite: KANOPUS-V 5
#Configuration: KANOPUS-V_8320
#almurnet v.1.7.20251203
#Start time: 2026-01-21 06:55:37

#Version: 2.2.20231116
#Station: R3.2S_Murmansk
#Location: 33.079688 lon 68.888172 lat
#TLE: 1 43876U 18111A   26020.16250899  .00005594  00000+0  23751-3 0  9993
#TLE: 2 43876  97.3687 288.5833 0001817  87.9007 272.2438 15.23474018392259

#Time	Az	El	Level	Level2	SNR	BER	BlckErr	Temp	State	Recorded	gain1	gain2
2026-01-21 06:55:37.72	136.23	2.07	-54.8	-63.7	3.8	7.44e-01	0	38	0	0	80	10454
2026-01-21 06:55:40.73	136.13	2.28	-55.0	-63.8	3.8	7.44e-01	0	38	104	0	81	10055
2026-01-21 06:55:43.75	136.04	2.49	-54.9	-63.7	3.8	7.46e-01	0	39	104	0	81	9937
2026-01-21 06:55:46.78	135.94	2.71	-54.7	-63.6	3.8	7.46e-01	0	39	104	0	81	9735
2026-01-21 06:55:49.81	135.84	2.92	-54.6	-63.4	3.8	7.44e-01	0	39	104	0	81	9536
2026-01-21 06:55:52.83	135.73	3.14	-54.2	-63.0	3.8	7.46e-01	0	39	104	0	80	9701
2026-01-21 06:55:55.85	135.63	3.37	-53.7	-62.6	3.8	7.45e-01	0	39	104	0	79	9719
2026-01-21 06:55:58.87	135.52	3.59	-53.0	-61.7	3.8	7.44e-01	0	39	104	0	78	9384
2026-01-21 06:56:01.90	135.41	3.82	-52.8	-61.3	3.8	7.45e-01	0	39	104	0	77	9409
2026-01-21 06:56:04.92	135.30	4.05	-52.9	-61.7	3.8	7.47e-01	0	39	104	0	77	9875
2026-01-21 06:56:07.94	135.18	4.28	-51.6	-57.3	4.4	7.25e-01	0	39	0	6291456	75	6667
2026-01-21 06:56:10.97	135.06	4.51	-48.7	-52.0	8.4	6.32e-01	0	39	0	52428800	69	5142
2026-01-21 06:56:13.99	134.94	4.75	-45.8	-48.1	12.3	6.02e-01	0	39	0	98566144	63	4642
2026-01-21 06:56:17.01	134.82	4.99	-45.7	-48.1	12.4	6.05e-01	0	39	0	146800640	62	4900
2026-01-21 06:56:20.04	134.69	5.23	-45.3	-47.5	13.2	6.00e-01	0	39	0	192937984	61	4868
2026-01-21 06:56:23.07	134.56	5.48	-50.4	-54.6	6.2	6.68e-01	0	39	0	239075328	71	6174
2026-01-21 06:56:26.09	134.43	5.72	-44.7	-46.8	13.7	5.99e-01	0	39	0	285212672	60	4751
2026-01-21 06:56:29.11	134.30	5.98	-44.1	-46.2	14.4	5.95e-01	0	39	0	331350016	60	4428
2026-01-21 06:56:32.13	134.16	6.23	-44.4	-46.4	14.2	6.04e-01	0	40	0	379584512	59	4814
2026-01-21 06:56:35.16	134.02	6.49	-44.4	-46.5	14.2	6.03e-01	0	39	0	425721856	59	4836
2026-01-21 06:56:38.18	133.87	6.75	-44.2	-46.2	14.4	5.97e-01	0	40	0	471859200	59	4702
2026-01-21 06:56:41.20	133.72	7.01	-44.1	-46.1	14.6	6.01e-01	0	40	0	517996544	59	4639
2026-01-21 06:56:44.23	133.57	7.28	-44.0	-46.1	14.6	5.98e-01	0	40	0	564133888	59	4626
2026-01-21 06:56:47.25	133.41	7.55	-44.4	-46.4	14.3	6.04e-01	0	40	0	610271232	59	4804
2026-01-21 06:56:50.27	133.25	7.83	-43.7	-45.7	15.0	6.03e-01	0	40	0	656408576	59	4437
2026-01-21 06:56:53.30	133.09	8.11	-43.8	-45.8	15.0	6.04e-01	0	40	0	702545920	59	4465
2026-01-21 06:56:56.32	132.92	8.39	-43.9	-46.0	14.9	6.01e-01	0	40	0	750780416	59	4566
2026-01-21 06:56:59.35	132.75	8.68	-43.9	-46.1	14.8	6.04e-01	0	40	0	796917760	59	4619
2026-01-21 06:57:02.37	132.57	8.97	-43.8	-46.0	14.9	6.01e-01	0	40	0	843055104	59	4569
2026-01-21 06:57:05.39	132.39	9.27	-43.5	-45.6	15.2	6.02e-01	0	40	0	889192448	58	4630
2026-01-21 06:57:08.42	132.20	9.57	-43.2	-45.3	15.5	6.00e-01	0	40	0	937426944	58	4492
2026-01-21 06:57:11.44	132.01	9.88	-43.1	-45.3	15.5	6.05e-01	0	40	0	983564288	58	4456
2026-01-21 06:57:14.46	131.81	10.19	-42.9	-45.0	15.8	6.02e-01	0	40	0	1029701632	57	4570
2026-01-21 06:57:17.49	131.61	10.50	-42.7	-44.8	15.9	6.02e-01	0	40	0	1075838976	57	4481
2026-01-21 06:57:20.51	131.40	10.82	-42.5	-44.5	16.2	6.03e-01	0	40	0	1121976320	57	4334
2026-01-21 06:57:23.53	131.19	11.15	-42.5	-44.5	16.2	6.00e-01	0	40	0	1168113664	56	4551
2026-01-21 06:57:26.56	130.96	11.48	-42.1	-44.0	16.6	5.99e-01	0	40	0	1214251008	56	4338
2026-01-21 06:57:29.58	130.74	11.82	-42.2	-44.1	16.7	5.96e-01	0	40	0	1260388352	55	4614
2026-01-21 06:57:32.60	130.50	12.16	-41.9	-43.8	17.0	5.96e-01	0	40	0	1306525696	55	4469
2026-01-21 06:57:35.62	130.26	12.51	-41.8	-43.6	17.1	6.00e-01	0	40	0	1354760192	55	4386
2026-01-21 06:57:38.65	130.01	12.86	-41.5	-43.3	17.4	5.97e-01	0	40	0	1400897536	55	4219
2026-01-21 06:57:41.67	129.76	13.23	-41.3	-43.1	17.5	6.01e-01	0	40	0	1447034880	54	4364
2026-01-21 06:57:44.70	129.49	13.60	-41.2	-42.9	17.7	6.01e-01	0	40	0	1493172224	54	4288
2026-01-21 06:57:47.72	129.22	13.97	-41.1	-42.8	17.7	5.95e-01	0	40	0	1539309568	54	4238
2026-01-21 06:57:50.74	128.94	14.35	-40.9	-42.7	17.8	5.97e-01	0	40	0	1585446912	53	4409
2026-01-21 06:57:53.77	128.65	14.74	-40.8	-42.6	17.9	5.98e-01	0	40	0	1631584256	53	4391
2026-01-21 06:57:56.79	128.35	15.14	-40.8	-42.6	18.0	6.01e-01	0	40	0	1677721600	53	4365
2026-01-21 06:57:59.81	128.04	15.55	-40.8	-42.6	17.9	5.98e-01	0	40	0	1723858944	53	4368
2026-01-21 06:58:02.83	127.72	15.96	-40.9	-42.7	17.9	5.94e-01	0	40	0	1772093440	53	4410
2026-01-21 06:58:05.85	127.38	16.38	-40.9	-42.6	17.9	5.96e-01	0	40	0	1818230784	53	4388
2026-01-21 06:58:08.88	127.04	16.81	-40.9	-42.7	17.9	5.97e-01	0	40	0	1864368128	53	4395
2026-01-21 06:58:11.90	126.69	17.25	-40.9	-42.8	17.9	5.98e-01	0	40	0	1910505472	53	4446
2026-01-21 06:58:14.92	126.32	17.70	-40.9	-42.7	17.9	6.00e-01	0	40	0	1958739968	53	4440
2026-01-21 06:58:17.95	125.93	18.16	-40.6	-42.5	18.0	6.01e-01	0	40	0	2004877312	53	4314
2026-01-21 06:58:20.97	125.54	18.63	-40.5	-42.5	18.1	6.01e-01	0	40	0	2051014656	53	4299
2026-01-21 06:58:23.99	125.13	19.11	-40.5	-42.5	18.1	6.00e-01	0	40	0	2097152000	53	4302
2026-01-21 06:58:27.01	124.70	19.60	-40.4	-42.2	18.2	5.95e-01	0	40	0	2143289344	52	4433
2026-01-21 06:58:30.04	124.26	20.10	-40.3	-42.1	18.4	6.00e-01	0	40	0	2189426688	52	4368
2026-01-21 06:58:33.06	123.80	20.61	-40.3	-42.0	18.5	6.01e-01	0	40	0	2235564032	52	4313
2026-01-21 06:58:36.08	123.32	21.14	-40.3	-41.9	18.5	6.01e-01	0	40	0	2281701376	52	4289
2026-01-21 06:58:39.11	122.82	21.67	-40.2	-41.9	18.6	6.01e-01	0	40	0	2327838720	52	4260
2026-01-21 06:58:42.14	122.30	22.22	-40.1	-41.9	18.6	5.95e-01	0	40	0	2376073216	52	4267
2026-01-21 06:58:45.16	121.76	22.78	-40.2	-42.0	18.5	6.02e-01	0	40	0	2422210560	52	4329
2026-01-21 06:58:48.18	121.20	23.36	-40.3	-42.2	18.5	6.01e-01	0	40	0	2468347904	52	4393
2026-01-21 06:58:51.21	120.61	23.95	-40.4	-42.2	18.4	6.02e-01	0	40	0	2514485248	52	4422
2026-01-21 06:58:54.23	120.00	24.55	-40.4	-42.1	18.4	6.03e-01	0	40	0	2562719744	52	4388
2026-01-21 06:58:57.25	119.35	25.16	-40.4	-42.2	18.5	6.01e-01	0	40	0	2606759936	52	4395
2026-01-21 06:59:00.26	118.69	25.78	-40.5	-42.4	18.4	6.02e-01	0	40	0	2652897280	52	4504
2026-01-21 06:59:03.26	117.99	26.42	-40.4	-42.4	18.3	6.04e-01	0	40	0	2699034624	52	4494
2026-01-21 06:59:06.27	117.26	27.08	-40.4	-42.3	18.5	5.79e-01	0	40	0	2745171968	52	4477
2026-01-21 06:59:09.29	116.50	27.75	-40.7	-42.7	18.2	5.79e-01	0	40	0	2791309312	52	4675
2026-01-21 06:59:12.31	115.69	28.43	-40.8	-42.8	18.1	5.79e-01	0	40	0	2839543808	52	4751
2026-01-21 06:59:15.34	114.85	29.13	-40.4	-42.4	18.4	5.79e-01	0	40	0	2885681152	52	4522
2026-01-21 06:59:18.36	113.96	29.85	-40.3	-42.4	18.4	5.79e-01	0	40	0	2931818496	52	4542
2026-01-21 06:59:21.38	113.03	30.57	-40.5	-42.7	18.1	5.80e-01	0	40	0	2977955840	52	4702
2026-01-21 06:59:24.41	112.06	31.32	-40.5	-42.5	18.3	5.79e-01	0	40	0	3024093184	52	4583
2026-01-21 06:59:27.43	111.03	32.07	-40.0	-42.2	18.6	6.00e-01	0	40	0	3072327680	52	4400
2026-01-21 06:59:30.45	109.95	32.84	-39.8	-42.0	18.7	6.03e-01	0	40	0	3118465024	51	4547
2026-01-21 06:59:33.47	108.81	33.62	-39.4	-41.7	18.9	6.00e-01	0	40	0	3164602368	50	4655
2026-01-21 06:59:36.50	107.61	34.41	-39.4	-41.7	18.9	6.01e-01	0	40	0	3210739712	50	4678
2026-01-21 06:59:39.52	106.35	35.21	-39.0	-41.2	19.2	6.03e-01	0	40	0	3256877056	50	4437
2026-01-21 06:59:42.54	105.02	36.02	-38.5	-40.7	19.4	6.02e-01	0	41	0	3303014400	49	4422
2026-01-21 06:59:45.57	103.61	36.83	-38.5	-40.7	19.4	6.01e-01	0	40	0	3349151744	48	4673
2026-01-21 06:59:48.59	102.13	37.65	-36.9	-38.8	19.5	6.00e-01	0	40	0	3395289088	45	4487
2026-01-21 06:59:51.61	100.57	38.47	-36.9	-38.9	19.5	6.00e-01	0	41	0	3443523584	45	4525
2026-01-21 06:59:54.63	98.93	39.28	-36.7	-38.7	19.5	6.03e-01	0	41	0	3489660928	45	4439
2026-01-21 06:59:57.65	97.20	40.10	-36.4	-38.5	19.7	5.93e-01	0	40	0	3535798272	44	4579
2026-01-21 07:00:00.68	95.36	40.90	-36.7	-38.9	19.3	6.02e-01	0	40	0	3581935616	44	4789
2026-01-21 07:00:03.70	93.44	41.69	-36.6	-38.7	19.5	6.02e-01	0	40	0	3628072960	44	4656
2026-01-21 07:00:06.73	91.41	42.46	-36.6	-38.7	19.5	6.01e-01	0	40	0	3676307456	44	4687
2026-01-21 07:00:09.75	89.29	43.21	-36.8	-38.8	19.5	6.05e-01	0	40	0	3720347648	44	4726
2026-01-21 07:00:12.78	87.05	43.93	-36.5	-38.5	19.7	6.02e-01	0	41	0	3766484992	44	4569
2026-01-21 07:00:15.80	84.72	44.61	-36.9	-39.0	19.4	6.01e-01	0	40	0	3812622336	44	4853
2026-01-21 07:00:18.83	82.27	45.25	-36.8	-38.8	19.5	6.01e-01	0	41	0	3860856832	44	4756
2026-01-21 07:00:21.85	79.73	45.85	-37.3	-39.3	19.2	6.03e-01	0	40	0	3906994176	45	4759
2026-01-21 07:00:24.87	77.10	46.39	-37.1	-39.1	19.4	6.03e-01	0	41	0	3953131520	45	4611
2026-01-21 07:00:27.89	74.38	46.87	-37.5	-39.7	19.0	6.03e-01	0	40	0	3999268864	45	4951
2026-01-21 07:00:30.92	71.57	47.28	-38.3	-40.5	18.6	6.00e-01	0	41	0	4047503360	47	4835
2026-01-21 07:00:33.94	68.69	47.63	-37.6	-39.6	19.1	6.03e-01	0	41	0	4093640704	47	4345
2026-01-21 07:00:36.96	65.75	47.89	-38.0	-40.1	18.8	5.93e-01	0	40	0	4139778048	47	4611
2026-01-21 07:00:39.99	62.77	48.08	-37.6	-39.5	19.2	5.97e-01	0	40	0	4185915392	47	4295
2026-01-21 07:00:43.01	59.76	48.19	-38.2	-40.2	18.8	5.95e-01	0	41	0	4232052736	47	4678
2026-01-21 07:00:46.03	56.74	48.21	-37.8	-39.8	19.0	5.92e-01	0	40	0	4278190080	47	4480
2026-01-21 07:00:49.06	53.71	48.15	-38.0	-40.0	18.8	5.97e-01	0	40	0	4324327424	47	4575
2026-01-21 07:00:52.08	50.71	48.00	-38.1	-40.2	18.7	5.97e-01	0	40	0	4370464768	47	4666
2026-01-21 07:00:55.11	47.75	47.78	-38.0	-40.0	18.8	5.98e-01	0	40	0	4416602112	47	4576
2026-01-21 07:00:58.13	44.84	47.48	-37.9	-39.8	18.9	5.96e-01	0	40	0	4464836608	47	4487
2026-01-21 07:01:01.15	42.00	47.10	-37.6	-39.7	19.1	5.97e-01	0	41	0	4510973952	47	4396
2026-01-21 07:01:04.18	39.22	46.65	-37.3	-39.3	19.4	5.96e-01	0	40	0	4557111296	46	4455
2026-01-21 07:01:07.21	36.54	46.14	-37.5	-39.5	19.2	5.96e-01	0	40	0	4603248640	46	4556
2026-01-21 07:01:10.23	33.95	45.58	-37.4	-39.3	19.3	6.01e-01	0	40	0	4651483136	46	4445
2026-01-21 07:01:13.25	31.47	44.96	-37.1	-38.8	19.6	5.98e-01	0	40	0	4697620480	46	4214
2026-01-21 07:01:16.27	29.08	44.30	-37.0	-38.9	19.5	5.98e-01	0	40	0	4743757824	45	4512
2026-01-21 07:01:19.29	26.80	43.60	-37.0	-38.8	19.6	5.96e-01	0	41	0	4789895168	45	4490
2026-01-21 07:01:22.32	24.62	42.87	-36.6	-38.6	19.7	5.95e-01	0	40	0	4836032512	45	4341
2026-01-21 07:01:25.34	22.54	42.12	-36.8	-38.7	19.5	5.99e-01	0	41	0	4882169856	45	4424
2026-01-21 07:01:28.36	20.57	41.34	-36.9	-38.8	19.6	5.96e-01	0	41	0	4928307200	45	4443
2026-01-21 07:01:31.39	18.69	40.54	-36.7	-38.6	19.7	5.98e-01	0	40	0	4974444544	45	4387
2026-01-21 07:01:34.41	16.91	39.74	-36.9	-39.0	19.3	5.91e-01	0	40	0	5020581888	45	4563
2026-01-21 07:01:37.43	15.22	38.93	-37.2	-39.3	19.2	5.99e-01	0	41	0	5068816384	45	4756
2026-01-21 07:01:40.46	13.62	38.11	-37.1	-39.1	19.4	5.96e-01	0	40	0	5114953728	45	4637
2026-01-21 07:01:43.48	12.10	37.30	-37.4	-39.4	19.2	5.96e-01	0	41	0	5161091072	45	4805
2026-01-21 07:01:46.50	10.66	36.49	-37.3	-39.2	19.3	6.00e-01	0	40	0	5207228416	45	4691
2026-01-21 07:01:49.53	9.29	35.68	-37.6	-39.7	19.0	5.95e-01	0	40	0	5253365760	45	4947
2026-01-21 07:01:52.55	7.99	34.87	-37.9	-39.9	18.8	6.03e-01	0	40	0	5299503104	46	4796
2026-01-21 07:01:55.57	6.77	34.08	-38.2	-40.1	18.7	6.00e-01	0	41	0	5345640448	47	4623
2026-01-21 07:01:58.60	5.60	33.30	-38.4	-40.3	18.6	6.03e-01	0	41	0	5391777792	47	4730
2026-01-21 07:02:01.62	4.49	32.53	-38.7	-40.7	18.4	6.01e-01	0	40	0	5440012288	47	4929
2026-01-21 07:02:04.65	3.43	31.76	-40.0	-41.8	18.8	6.03e-01	0	40	0	5486149632	50	4749
2026-01-21 07:02:07.67	2.43	31.02	-40.3	-42.0	18.7	6.01e-01	0	41	0	5532286976	51	4550
2026-01-21 07:02:10.70	1.48	30.28	-40.5	-42.1	18.5	6.02e-01	0	41	0	5578424320	51	4646
2026-01-21 07:02:13.72	0.57	29.56	-40.8	-42.5	18.3	6.01e-01	0	40	0	5626658816	52	4586
2026-01-21 07:02:16.75	359.71	28.86	-40.7	-42.4	18.4	6.00e-01	0	40	0	5672796160	52	4506
2026-01-21 07:02:19.77	358.89	28.17	-40.7	-42.4	18.3	6.04e-01	0	41	0	5718933504	52	4508
2026-01-21 07:02:22.79	358.10	27.49	-40.9	-42.6	18.1	6.00e-01	0	40	0	5765070848	52	4616
2026-01-21 07:02:25.82	357.35	26.83	-41.1	-42.8	18.0	6.00e-01	0	40	0	5811208192	52	4737
2026-01-21 07:02:28.84	356.64	26.18	-41.1	-42.9	17.9	6.01e-01	0	40	0	5857345536	53	4505
2026-01-21 07:02:31.87	355.95	25.55	-41.0	-42.8	18.0	6.01e-01	0	40	0	5903482880	53	4461
2026-01-21 07:02:34.89	355.30	24.93	-41.0	-42.8	18.0	6.03e-01	0	40	0	5949620224	53	4465
2026-01-21 07:02:37.91	354.67	24.32	-41.1	-42.8	18.0	5.98e-01	0	41	0	5997854720	53	4462
2026-01-21 07:02:40.93	354.07	23.73	-41.0	-42.7	18.0	5.99e-01	0	41	0	6043992064	53	4428
2026-01-21 07:02:43.95	353.50	23.15	-40.9	-42.7	18.0	5.98e-01	0	41	0	6090129408	53	4402
2026-01-21 07:02:46.98	352.95	22.59	-40.8	-42.6	18.1	6.00e-01	0	41	0	6136266752	53	4381
2026-01-21 07:02:50.00	352.42	22.04	-40.7	-42.6	18.1	5.98e-01	0	40	0	6182404096	53	4357
2026-01-21 07:02:53.03	351.91	21.49	-40.6	-42.4	18.2	5.94e-01	0	40	0	6230638592	53	4291
2026-01-21 07:02:56.05	351.43	20.97	-40.7	-42.5	18.2	5.99e-01	0	40	0	6274678784	53	4295
2026-01-21 07:02:59.07	350.96	20.45	-40.7	-42.5	18.1	6.02e-01	0	40	0	6320816128	53	4304
2026-01-21 07:03:02.09	350.51	19.94	-40.8	-42.6	18.1	6.02e-01	0	41	0	6366953472	53	4366
2026-01-21 07:03:05.12	350.07	19.45	-40.8	-42.7	18.0	5.79e-01	0	40	0	6415187968	53	4412
2026-01-21 07:03:08.14	349.66	18.97	-41.0	-42.9	17.9	5.79e-01	0	40	0	6461325312	53	4532
2026-01-21 07:03:11.17	349.25	18.49	-40.9	-42.9	17.9	5.79e-01	0	40	0	6507462656	53	4535
2026-01-21 07:03:14.19	348.87	18.03	-41.0	-43.0	17.8	5.79e-01	0	40	0	6553600000	53	4562
2026-01-21 07:03:17.21	348.49	17.58	-41.1	-43.2	17.6	5.79e-01	0	40	0	6601834496	53	4662
2026-01-21 07:03:20.24	348.13	17.13	-54.1	-63.0	3.8	7.46e-01	0	41	104	6624903168	78	10841
2026-01-21 07:03:23.26	347.78	16.70	-54.1	-63.0	3.8	7.46e-01	0	40	104	6624903168	78	10798
2026-01-21 07:03:26.29	347.45	16.27	-54.1	-62.9	3.8	7.45e-01	0	40	104	6624903168	78	10759
2026-01-21 07:03:29.31	347.12	15.86	-54.1	-62.9	3.8	7.43e-01	0	40	104	6624903168	78	10695
2026-01-21 07:03:32.33	346.81	15.45	-54.0	-62.9	3.8	7.46e-01	0	41	104	6624903168	78	10700
2026-01-21 07:03:35.36	346.50	15.05	-54.0	-62.9	3.8	7.47e-01	0	41	104	6624903168	78	10677
2026-01-21 07:03:38.38	346.21	14.65	-54.0	-62.8	3.8	7.44e-01	0	41	104	6624903168	78	10632
2026-01-21 07:03:41.41	345.92	14.27	-54.0	-62.8	3.8	7.45e-01	0	40	104	6624903168	78	10564
2026-01-21 07:03:44.43	345.65	13.89	-53.9	-62.8	3.8	7.44e-01	0	40	104	6624903168	78	10548
2026-01-21 07:03:47.45	345.38	13.52	-54.0	-62.8	3.8	7.46e-01	0	41	104	6624903168	78	10579
2026-01-21 07:03:50.48	345.12	13.15	-53.9	-62.7	3.8	7.45e-01	0	40	104	6624903168	78	10507
2026-01-21 07:03:53.50	344.87	12.79	-53.9	-62.7	3.8	7.45e-01	0	41	104	6624903168	78	10482
2026-01-21 07:03:56.52	344.63	12.44	-53.9	-62.7	3.8	7.46e-01	0	41	104	6624903168	78	10461
2026-01-21 07:03:59.55	344.39	12.10	-53.9	-62.7	3.8	7.45e-01	0	40	104	6624903168	78	10471
2026-01-21 07:04:02.57	344.16	11.76	-53.8	-62.7	3.8	7.45e-01	0	41	104	6624903168	78	10449
2026-01-21 07:04:05.60	343.94	11.42	-53.8	-62.6	3.8	7.44e-01	0	40	104	6624903168	78	10392
2026-01-21 07:04:08.62	343.72	11.10	-53.8	-62.6	3.8	7.45e-01	0	40	104	6624903168	78	10383
2026-01-21 07:04:11.65	343.51	10.77	-53.8	-62.6	3.8	7.46e-01	0	41	104	6624903168	78	10356
2026-01-21 07:04:14.67	343.30	10.46	-53.8	-62.6	3.8	7.46e-01	0	40	104	6624903168	78	10335
2026-01-21 07:04:17.69	343.11	10.14	-53.7	-62.5	3.8	7.46e-01	0	40	104	6624903168	78	10231
2026-01-21 07:04:20.71	342.91	9.84	-53.7	-62.5	3.8	7.44e-01	0	40	104	6624903168	78	10255
2026-01-21 07:04:23.74	342.72	9.53	-53.7	-62.5	3.8	7.46e-01	0	41	104	6624903168	78	10280
2026-01-21 07:04:26.76	342.54	9.23	-53.7	-62.5	3.8	7.45e-01	0	40	104	6624903168	78	10257
2026-01-21 07:04:29.78	342.36	8.94	-53.6	-62.4	3.8	7.45e-01	0	41	104	6624903168	78	10143
2026-01-21 07:04:32.81	342.19	8.65	-53.6	-62.4	3.8	7.45e-01	0	40	104	6624903168	78	10088
2026-01-21 07:04:35.83	342.02	8.37	-53.6	-62.4	3.8	7.45e-01	0	40	104	6624903168	78	10161
2026-01-21 07:04:38.85	341.86	8.09	-53.6	-62.4	3.8	7.45e-01	0	41	104	6624903168	78	10109
2026-01-21 07:04:41.88	341.69	7.81	-53.5	-62.3	3.8	7.44e-01	0	40	104	6624903168	78	9977
2026-01-21 07:04:44.90	341.54	7.54	-53.4	-62.3	3.8	7.45e-01	0	40	104	6624903168	78	9991
2026-01-21 07:04:47.93	341.38	7.27	-53.5	-62.3	3.8	7.46e-01	0	40	104	6624903168	78	10008
2026-01-21 07:04:50.95	341.24	7.00	-53.5	-62.3	3.8	7.47e-01	0	41	104	6624903168	78	9974
2026-01-21 07:04:53.98	341.09	6.74	-53.3	-62.2	3.8	7.44e-01	0	41	104	6624903168	78	9853
2026-01-21 07:04:57.00	340.95	6.48	-53.3	-62.1	3.8	7.45e-01	0	40	104	6624903168	78	9807
2026-01-21 07:05:00.02	340.81	6.22	-53.3	-62.2	3.8	7.45e-01	0	41	104	6624903168	78	9879
2026-01-21 07:05:03.05	340.68	5.97	-53.3	-62.2	3.8	7.47e-01	0	41	104	6624903168	78	9875
2026-01-21 07:05:06.07	340.54	5.72	-53.2	-62.0	3.8	7.46e-01	0	40	104	6624903168	78	9678
2026-01-21 07:05:09.09	340.41	5.47	-53.2	-62.0	3.8	7.46e-01	0	41	104	6624903168	78	9678
2026-01-21 07:05:12.12	340.29	5.23	-53.2	-62.0	3.8	7.45e-01	0	40	104	6624903168	78	9706
2026-01-21 07:05:15.14	340.17	4.99	-53.2	-62.0	3.8	7.45e-01	0	41	104	6624903168	78	9674
2026-01-21 07:05:18.17	340.05	4.75	-54.0	-62.8	3.8	7.45e-01	0	40	104	6624903168	78	10620
2026-01-21 07:05:21.19	339.93	4.52	-54.4	-63.2	3.8	7.45e-01	0	40	104	6624903168	79	10461
2026-01-21 07:05:24.21	339.81	4.28	-54.5	-63.4	3.8	7.46e-01	0	40	104	6624903168	79	10722
2026-01-21 07:05:27.23	339.70	4.05	-54.5	-63.3	3.8	7.45e-01	0	40	104	6624903168	79	10581
2026-01-21 07:05:30.26	339.59	3.83	-54.2	-63.1	3.8	7.45e-01	0	40	104	6624903168	79	10315
2026-01-21 07:05:33.28	339.48	3.60	-54.3	-63.1	3.8	7.46e-01	0	40	104	6624903168	79	10297
2026-01-21 07:05:36.31	339.38	3.38	-54.3	-63.2	3.8	7.47e-01	0	40	104	6624903168	79	10413
2026-01-21 07:05:39.33	339.28	3.16	-54.2	-63.1	3.8	7.44e-01	0	40	104	6624903168	79	10304
2026-01-21 07:05:42.35	339.18	2.94	-54.2	-63.1	3.8	7.46e-01	0	41	104	6624903168	79	10294
2026-01-21 07:05:45.37	339.08	2.72	-54.2	-63.1	3.8	7.44e-01	0	40	104	6624903168	79	10322
2026-01-21 07:05:48.40	338.98	2.51	-54.2	-63.0	3.8	7.45e-01	0	40	104	6624903168	79	10252
2026-01-21 07:05:51.42	338.89	2.30	-54.2	-63.0	3.8	7.47e-01	0	40	104	6624903168	79	10248
2026-01-21 07:05:54.45	338.79	2.09	-54.2	-63.0	3.8	7.45e-01	0	41	104	6624903168	79	10212

#Closed at: 2026-01-21 07:05:57
#Recorded file [6624 MB]: D:/lorett/data/31041_260121_095537.dat