passes_logs/2026/01/21/R3.2S_Murmansk/R3.2S_Murmansk__20260121_123418_AQUA_rec.log

#Pass ID: 20260121_123418_AQUA
#Satellite: AQUA
#Configuration: AQUA
#almurnet v.1.7.20251203
#Start time: 2026-01-21 12:34:19

#Version: 2.2.20231116
#Station: R3.2S_Murmansk
#Location: 33.079688 lon 68.888172 lat
#TLE: 1 27424U 02022A   26020.90316333  .00002787  00000+0  56766-3 0  9999
#TLE: 2 27424  98.4095 347.4297 0002000  71.6339 309.8236 14.61840001261750

#Time	Az	El	Level	Level2	SNR	BER	BlckErr	Temp	State	Recorded	gain1	gain2
2026-01-21 12:34:19.71	185.38	2.09	-51.8	-69.6	3.8	7.48e-01	0	38	0	0	74	29267
2026-01-21 12:34:22.74	185.52	2.28	-51.8	-69.6	3.8	7.43e-01	0	38	104	0	74	29288
2026-01-21 12:34:25.76	185.67	2.48	-51.8	-69.6	3.8	7.44e-01	0	38	104	0	74	29288
2026-01-21 12:34:28.79	185.81	2.67	-51.8	-69.6	3.8	7.42e-01	0	38	104	0	74	29307
2026-01-21 12:34:31.81	185.96	2.87	-51.8	-69.6	3.8	7.44e-01	0	38	104	0	74	29343
2026-01-21 12:34:34.84	186.10	3.07	-51.8	-69.6	3.8	7.47e-01	0	39	104	0	74	29273
2026-01-21 12:34:37.86	186.25	3.27	-51.8	-69.6	3.8	7.44e-01	0	39	104	0	74	29315
2026-01-21 12:34:40.89	186.41	3.47	-51.8	-69.6	3.8	7.45e-01	0	39	104	0	74	29295
2026-01-21 12:34:43.91	186.56	3.68	-51.8	-69.6	3.8	7.43e-01	0	38	104	0	74	29277
2026-01-21 12:34:46.93	186.72	3.88	-51.8	-69.6	3.8	7.43e-01	0	39	104	0	74	29323
2026-01-21 12:34:49.96	186.88	4.09	-51.8	-69.6	3.8	7.43e-01	0	39	104	0	74	29234
2026-01-21 12:34:52.98	187.04	4.30	-51.8	-69.6	3.8	7.45e-01	0	39	104	0	74	29249
2026-01-21 12:34:56.00	187.20	4.51	-51.8	-69.6	3.8	7.46e-01	0	38	104	0	74	29317
2026-01-21 12:34:59.03	187.37	4.72	-51.8	-69.6	3.8	7.42e-01	0	39	104	0	74	29252
2026-01-21 12:35:02.05	187.54	4.93	-51.8	-69.6	3.8	7.44e-01	0	39	104	0	74	29333
2026-01-21 12:35:05.08	187.71	5.15	-51.8	-69.6	3.8	7.48e-01	0	39	104	0	74	29316
2026-01-21 12:35:08.10	187.88	5.36	-51.8	-69.6	3.8	7.47e-01	0	39	104	0	74	29319
2026-01-21 12:35:11.12	188.06	5.58	-51.8	-69.6	3.8	7.47e-01	0	39	104	0	74	29313
2026-01-21 12:35:14.14	188.23	5.80	-51.8	-69.6	3.8	7.44e-01	0	39	104	0	74	29287
2026-01-21 12:35:17.17	188.42	6.03	-51.8	-69.6	3.8	7.48e-01	0	39	104	0	74	29326
2026-01-21 12:35:20.19	188.60	6.25	-51.8	-69.7	3.8	7.42e-01	0	39	104	0	74	29364
2026-01-21 12:35:23.22	188.79	6.48	-51.8	-69.6	3.8	7.43e-01	0	39	104	0	74	29322
2026-01-21 12:35:26.24	188.98	6.71	-51.8	-69.6	3.8	7.43e-01	0	39	104	0	74	29309
2026-01-21 12:35:29.26	189.17	6.94	-51.8	-69.7	3.8	7.47e-01	0	39	104	0	74	29367
2026-01-21 12:35:32.29	189.37	7.17	-51.8	-69.6	3.8	7.48e-01	0	39	104	0	74	29333
2026-01-21 12:35:35.32	189.57	7.40	-51.8	-69.7	3.8	7.49e-01	0	39	104	0	74	29393
2026-01-21 12:35:38.34	189.77	7.64	-51.8	-69.6	3.8	7.45e-01	0	39	104	0	74	29281
2026-01-21 12:35:41.37	189.98	7.88	-51.8	-69.7	3.8	7.43e-01	0	39	104	0	74	29388
2026-01-21 12:35:44.39	190.19	8.12	-51.8	-69.6	3.8	7.50e-01	0	39	104	0	74	29325
2026-01-21 12:35:47.42	190.40	8.36	-51.8	-69.6	3.8	7.42e-01	0	39	104	0	74	29278
2026-01-21 12:35:50.44	190.62	8.61	-51.8	-69.7	3.8	7.44e-01	0	39	104	0	74	29358
2026-01-21 12:35:53.46	190.84	8.86	-51.8	-69.6	3.8	7.43e-01	0	39	104	0	74	29331
2026-01-21 12:35:56.49	191.07	9.11	-51.8	-69.6	3.8	7.47e-01	0	39	104	0	74	29331
2026-01-21 12:35:59.51	191.30	9.36	-51.8	-69.7	3.8	7.44e-01	0	39	104	0	74	29387
2026-01-21 12:36:02.54	191.53	9.62	-51.8	-69.7	3.8	7.45e-01	0	39	104	0	74	29385
2026-01-21 12:36:05.56	191.77	9.88	-51.8	-69.7	3.8	7.42e-01	0	39	104	0	74	29365
2026-01-21 12:36:08.59	192.01	10.14	-51.8	-69.6	3.8	7.44e-01	0	39	104	0	74	29325
2026-01-21 12:36:11.61	192.26	10.40	-51.8	-69.6	3.8	7.45e-01	0	39	104	0	74	29316
2026-01-21 12:36:14.64	192.51	10.67	-51.8	-69.7	3.8	7.47e-01	0	39	104	0	74	29418
2026-01-21 12:36:17.66	192.77	10.94	-51.8	-69.7	3.8	7.42e-01	0	40	104	0	74	29358
2026-01-21 12:36:20.69	193.03	11.21	-51.8	-69.7	3.8	7.43e-01	0	39	104	0	74	29354
2026-01-21 12:36:23.71	193.29	11.48	-51.8	-69.7	3.8	7.48e-01	0	40	104	0	74	29397
2026-01-21 12:36:26.73	193.56	11.76	-51.8	-69.7	3.8	7.42e-01	0	39	104	0	74	29359
2026-01-21 12:36:29.75	193.84	12.04	-51.8	-69.6	3.8	7.44e-01	0	40	104	0	74	29340
2026-01-21 12:36:32.78	194.12	12.33	-51.8	-69.7	3.8	7.45e-01	0	40	104	0	74	29350
2026-01-21 12:36:35.80	194.41	12.61	-51.8	-69.7	3.8	7.46e-01	0	39	104	0	74	29384
2026-01-21 12:36:38.83	194.70	12.91	-51.8	-69.7	3.8	7.45e-01	0	40	104	0	74	29367
2026-01-21 12:36:41.85	195.00	13.20	-51.8	-69.7	3.8	7.46e-01	0	40	104	0	74	29364
2026-01-21 12:36:44.87	195.31	13.50	-51.8	-69.7	3.8	7.47e-01	0	40	104	0	74	29361
2026-01-21 12:36:47.90	195.62	13.80	-51.8	-69.7	3.8	7.47e-01	0	40	104	0	74	29371
2026-01-21 12:36:50.92	195.94	14.10	-51.8	-69.7	3.8	7.42e-01	0	40	104	0	74	29398
2026-01-21 12:36:53.95	196.27	14.41	-51.8	-69.7	3.8	7.46e-01	0	40	104	0	74	29366
2026-01-21 12:36:56.97	196.60	14.72	-51.8	-69.7	3.8	7.47e-01	0	40	104	0	74	29407
2026-01-21 12:36:59.99	196.94	15.03	-51.8	-69.6	3.8	7.46e-01	0	40	104	0	74	29331
2026-01-21 12:37:03.01	197.28	15.35	-51.8	-69.6	3.8	7.44e-01	0	40	104	0	74	29332
2026-01-21 12:37:06.04	197.64	15.67	-51.8	-69.7	3.8	7.42e-01	0	40	104	0	74	29353
2026-01-21 12:37:09.07	198.00	16.00	-51.8	-69.6	3.8	7.47e-01	0	40	104	0	74	29317
2026-01-21 12:37:12.09	198.38	16.33	-51.8	-69.6	3.8	7.46e-01	0	40	104	0	74	29329
2026-01-21 12:37:15.11	198.75	16.66	-51.8	-69.6	3.8	7.47e-01	0	40	104	0	74	29302
2026-01-21 12:37:18.14	199.14	17.00	-51.8	-69.6	3.8	7.46e-01	0	40	104	0	74	29313
2026-01-21 12:37:21.16	199.54	17.34	-51.8	-69.6	3.8	7.41e-01	0	40	104	0	74	29343
2026-01-21 12:37:24.19	199.95	17.68	-51.8	-69.6	3.8	7.43e-01	0	39	104	0	74	29307
2026-01-21 12:37:27.21	200.36	18.03	-51.8	-69.6	3.8	7.47e-01	0	40	104	0	74	29312
2026-01-21 12:37:30.23	200.79	18.39	-51.8	-69.6	3.8	7.44e-01	0	40	104	0	74	29331
2026-01-21 12:37:33.26	201.23	18.74	-51.8	-69.6	3.8	7.47e-01	0	40	104	0	74	29313
2026-01-21 12:37:36.28	201.67	19.10	-51.8	-69.7	3.8	7.45e-01	0	40	104	0	74	29394
2026-01-21 12:37:39.31	202.13	19.47	-51.8	-69.7	3.8	7.45e-01	0	40	104	0	74	29379
2026-01-21 12:37:42.33	202.60	19.84	-51.8	-69.7	3.8	7.43e-01	0	40	104	0	74	29408
2026-01-21 12:37:45.35	203.08	20.21	-51.8	-69.6	3.8	7.45e-01	0	40	104	0	74	29304
2026-01-21 12:37:48.37	203.58	20.59	-51.8	-69.6	3.8	7.43e-01	0	40	104	0	74	29288
2026-01-21 12:37:51.40	204.09	20.98	-51.8	-69.6	3.8	7.49e-01	0	40	104	0	74	29307
2026-01-21 12:37:54.42	204.61	21.36	-51.8	-69.7	3.8	7.42e-01	0	40	104	0	74	29371
2026-01-21 12:37:57.44	205.14	21.75	-51.8	-69.7	3.8	7.46e-01	0	40	104	0	74	29356
2026-01-21 12:38:00.47	205.69	22.15	-51.8	-69.7	3.8	7.45e-01	0	40	104	0	74	29355
2026-01-21 12:38:03.49	206.25	22.55	-51.8	-69.6	3.8	7.44e-01	0	40	104	0	74	29337
2026-01-21 12:38:06.52	206.82	22.95	-51.8	-69.6	3.8	7.45e-01	0	40	104	0	74	29310
2026-01-21 12:38:09.54	207.42	23.36	-51.8	-69.6	3.8	7.45e-01	0	40	104	0	74	29305
2026-01-21 12:38:12.56	208.02	23.77	-51.8	-69.6	3.8	7.43e-01	0	40	104	0	74	29330
2026-01-21 12:38:15.59	208.65	24.19	-51.8	-69.6	3.8	7.46e-01	0	40	104	0	74	29305
2026-01-21 12:38:18.61	209.29	24.61	-51.8	-69.6	3.8	7.42e-01	0	40	104	0	74	29282
2026-01-21 12:38:21.64	209.95	25.03	-51.8	-69.6	3.8	7.42e-01	0	40	104	0	74	29297
2026-01-21 12:38:24.66	210.63	25.46	-51.8	-69.6	3.8	7.47e-01	0	40	104	0	74	29294
2026-01-21 12:38:27.69	211.33	25.89	-51.8	-69.6	3.8	7.47e-01	0	40	104	0	74	29320
2026-01-21 12:38:30.71	212.04	26.32	-51.8	-69.6	3.8	7.42e-01	0	40	104	0	74	29322
2026-01-21 12:38:33.74	212.78	26.76	-51.8	-69.6	3.8	7.43e-01	0	40	104	0	74	29347
2026-01-21 12:38:36.77	213.54	27.20	-51.8	-69.7	3.8	7.49e-01	0	40	104	0	74	29365
2026-01-21 12:38:39.79	214.32	27.64	-51.8	-69.7	3.8	7.47e-01	0	40	104	0	74	29402
2026-01-21 12:38:42.81	215.12	28.08	-51.8	-69.7	3.8	7.45e-01	0	40	104	0	74	29383
2026-01-21 12:38:45.84	215.94	28.53	-51.8	-69.6	3.8	7.47e-01	0	40	104	0	74	29307
2026-01-21 12:38:48.86	216.79	28.97	-51.8	-69.7	3.8	7.45e-01	0	40	104	0	74	29365
2026-01-21 12:38:51.89	217.66	29.42	-51.8	-69.7	3.8	7.48e-01	0	40	104	0	74	29359
2026-01-21 12:38:54.91	218.56	29.87	-51.8	-69.7	3.8	7.43e-01	0	40	104	0	74	29348
2026-01-21 12:38:57.94	219.48	30.32	-51.8	-69.6	3.8	7.47e-01	0	40	104	0	74	29333
2026-01-21 12:39:00.97	220.43	30.76	-51.8	-69.6	3.8	7.47e-01	0	40	104	0	74	29207
2026-01-21 12:39:03.99	221.41	31.21	-51.8	-69.6	3.8	7.47e-01	0	40	104	0	74	29331
2026-01-21 12:39:07.01	222.41	31.65	-51.8	-69.6	3.8	7.45e-01	0	40	104	0	74	29201
2026-01-21 12:39:10.04	223.44	32.09	-51.8	-69.6	3.8	7.46e-01	0	40	104	0	74	29234
2026-01-21 12:39:13.06	224.50	32.53	-51.8	-69.6	3.8	7.45e-01	0	40	104	0	74	29281
2026-01-21 12:39:16.09	225.59	32.97	-51.8	-69.6	3.8	7.50e-01	0	40	104	0	74	29281
2026-01-21 12:39:19.11	226.71	33.40	-51.8	-69.6	3.8	7.44e-01	0	40	104	0	74	29315
2026-01-21 12:39:22.13	227.86	33.82	-51.8	-69.6	3.8	7.43e-01	0	40	104	0	74	29279
2026-01-21 12:39:25.15	229.04	34.24	-51.8	-69.6	3.8	7.46e-01	0	40	104	0	74	29310
2026-01-21 12:39:28.18	230.25	34.65	-51.8	-69.6	3.8	7.44e-01	0	40	104	0	74	29302
2026-01-21 12:39:31.21	231.49	35.05	-51.8	-69.6	3.8	7.49e-01	0	40	104	0	74	29306
2026-01-21 12:39:34.23	232.76	35.44	-51.8	-69.6	3.8	7.44e-01	0	40	104	0	74	29216
2026-01-21 12:39:37.25	234.06	35.82	-51.8	-69.6	3.8	7.42e-01	0	40	104	0	74	29257
2026-01-21 12:39:40.28	235.40	36.19	-51.8	-69.6	3.8	7.45e-01	0	40	104	0	74	29211
2026-01-21 12:39:43.30	236.76	36.55	-51.8	-69.6	3.8	7.46e-01	0	40	104	0	74	29267
2026-01-21 12:39:46.33	238.16	36.90	-51.8	-69.7	3.8	7.45e-01	0	40	104	0	74	29357
2026-01-21 12:39:49.35	239.58	37.22	-51.8	-69.6	3.8	7.48e-01	0	40	104	0	74	29254
2026-01-21 12:39:52.38	241.03	37.54	-51.8	-69.6	3.8	7.46e-01	0	40	104	0	74	29261
2026-01-21 12:39:55.40	242.51	37.83	-51.8	-69.6	3.8	7.45e-01	0	40	104	0	74	29341
2026-01-21 12:39:58.42	244.01	38.10	-51.8	-69.6	3.8	7.43e-01	0	40	104	0	74	29220
2026-01-21 12:40:01.45	245.54	38.36	-51.8	-69.6	3.8	7.48e-01	0	40	104	0	74	29261
2026-01-21 12:40:04.47	247.09	38.60	-51.8	-69.6	3.8	7.46e-01	0	40	104	0	74	29263
2026-01-21 12:40:07.50	248.67	38.81	-51.8	-69.6	3.8	7.49e-01	0	40	104	0	74	29247
2026-01-21 12:40:10.52	250.26	39.00	-51.8	-69.6	3.8	7.46e-01	0	40	104	0	74	29292
2026-01-21 12:40:13.55	251.88	39.17	-51.8	-69.6	3.8	7.43e-01	0	40	104	0	74	29228
2026-01-21 12:40:16.57	253.50	39.31	-51.8	-69.6	3.8	7.46e-01	0	40	104	0	74	29204
2026-01-21 12:40:19.59	255.14	39.43	-51.8	-69.6	3.8	7.46e-01	0	40	104	0	74	29230
2026-01-21 12:40:22.62	256.79	39.53	-51.8	-69.6	3.8	7.42e-01	0	40	104	0	74	29201
2026-01-21 12:40:25.64	258.45	39.60	-51.8	-69.6	3.8	7.43e-01	0	40	104	0	74	29230
2026-01-21 12:40:28.66	260.11	39.64	-51.8	-69.6	3.8	7.45e-01	0	40	104	0	74	29343
2026-01-21 12:40:31.69	261.79	39.65	-51.8	-69.6	3.8	7.44e-01	0	40	104	0	74	29185
2026-01-21 12:40:34.71	263.45	39.64	-51.8	-69.6	3.8	7.48e-01	0	40	104	0	74	29042
2026-01-21 12:40:37.73	265.11	39.60	-51.8	-69.6	3.8	7.44e-01	0	40	104	0	74	29161
2026-01-21 12:40:40.76	266.78	39.54	-51.8	-69.6	3.8	7.47e-01	0	40	104	0	74	29282
2026-01-21 12:40:43.78	268.43	39.45	-51.8	-69.6	3.8	7.45e-01	0	40	104	0	74	29113
2026-01-21 12:40:46.81	270.07	39.34	-51.8	-69.6	3.8	7.48e-01	0	40	104	0	74	29053
2026-01-21 12:40:49.83	271.70	39.20	-51.8	-69.6	3.8	7.44e-01	0	40	104	0	74	29269
2026-01-21 12:40:52.86	273.32	39.03	-51.8	-69.6	3.8	7.41e-01	0	40	104	0	74	29330
2026-01-21 12:40:55.88	274.91	38.85	-51.8	-69.6	3.8	7.45e-01	0	40	104	0	74	29330
2026-01-21 12:40:58.90	276.48	38.64	-51.8	-69.6	3.8	7.47e-01	0	40	104	0	74	29235
2026-01-21 12:41:01.93	278.04	38.41	-51.8	-69.6	3.8	7.43e-01	0	40	104	0	74	29337
2026-01-21 12:41:04.95	279.57	38.16	-51.8	-69.6	3.8	7.45e-01	0	40	104	0	74	29163
2026-01-21 12:41:07.97	281.07	37.88	-51.8	-69.7	3.8	7.42e-01	0	40	104	0	74	29356
2026-01-21 12:41:10.99	282.55	37.59	-51.8	-69.6	3.8	7.42e-01	0	40	104	0	74	29257
2026-01-21 12:41:14.02	284.01	37.29	-51.8	-69.5	3.8	7.48e-01	0	40	104	0	74	28899
2026-01-21 12:41:17.05	285.44	36.96	-51.8	-69.3	3.8	7.43e-01	0	40	104	0	74	28254
2026-01-21 12:41:20.07	286.83	36.62	-51.8	-69.2	3.8	7.49e-01	0	40	104	0	74	27972
2026-01-21 12:41:23.09	288.19	36.27	-51.8	-69.5	3.8	7.46e-01	0	40	104	0	74	28997
2026-01-21 12:41:26.12	289.53	35.90	-51.8	-69.6	3.8	7.50e-01	0	40	104	0	74	29109
2026-01-21 12:41:29.14	290.83	35.53	-51.8	-69.6	3.8	7.47e-01	0	40	104	0	74	29209
2026-01-21 12:41:32.17	292.11	35.14	-51.8	-69.5	3.8	7.45e-01	0	40	104	0	74	28928
2026-01-21 12:41:35.19	293.35	34.74	-51.8	-69.6	3.8	7.46e-01	0	40	104	0	74	29071
2026-01-21 12:41:38.21	294.56	34.33	-51.8	-69.6	3.8	7.45e-01	0	40	104	0	74	29285
2026-01-21 12:41:41.23	295.74	33.92	-51.8	-69.6	3.8	7.47e-01	0	40	104	0	74	29320
2026-01-21 12:41:44.26	296.90	33.50	-51.8	-69.6	3.8	7.45e-01	0	40	104	0	74	29146
2026-01-21 12:41:47.28	298.02	33.07	-51.8	-69.6	3.8	7.45e-01	0	40	104	0	74	29015
2026-01-21 12:41:50.31	299.11	32.64	-51.8	-69.6	3.8	7.44e-01	0	40	104	0	74	29071
2026-01-21 12:41:53.33	300.17	32.20	-51.8	-69.6	3.8	7.45e-01	0	40	104	0	74	29338
2026-01-21 12:41:56.35	301.21	31.76	-51.8	-69.5	3.8	7.43e-01	0	40	104	0	74	28923
2026-01-21 12:41:59.38	302.21	31.32	-51.8	-69.5	3.8	7.47e-01	0	40	104	0	74	28968
2026-01-21 12:42:02.40	303.19	30.88	-51.8	-69.5	3.8	7.43e-01	0	40	104	0	74	28973
2026-01-21 12:42:05.42	304.14	30.44	-51.8	-69.6	3.8	7.44e-01	0	40	104	0	74	29052
2026-01-21 12:42:08.45	305.07	29.99	-51.8	-69.6	3.8	7.44e-01	0	40	104	0	74	29021
2026-01-21 12:42:11.47	305.97	29.54	-51.8	-69.5	3.8	7.48e-01	0	40	104	0	74	28969
2026-01-21 12:42:14.49	306.84	29.10	-51.8	-69.5	3.8	7.50e-01	0	40	104	0	74	28935
2026-01-21 12:42:17.52	307.69	28.65	-51.8	-69.6	3.8	7.48e-01	0	40	104	0	74	29347
2026-01-21 12:42:20.54	308.52	28.21	-51.8	-69.6	3.8	7.47e-01	0	40	104	0	74	29343
2026-01-21 12:42:23.56	309.32	27.77	-51.8	-69.6	3.8	7.45e-01	0	40	104	0	74	29222
2026-01-21 12:42:26.59	310.10	27.33	-51.8	-69.6	3.8	7.45e-01	0	40	104	0	74	29145
2026-01-21 12:42:29.61	310.86	26.90	-51.8	-69.6	3.8	7.45e-01	0	40	104	0	74	29052
2026-01-21 12:42:32.64	311.60	26.46	-51.8	-69.4	3.8	7.41e-01	0	40	104	0	74	28530
2026-01-21 12:42:35.66	312.32	26.03	-51.8	-69.4	3.8	7.44e-01	0	40	104	0	74	28616
2026-01-21 12:42:38.69	313.02	25.60	-51.8	-69.5	3.8	7.45e-01	0	40	104	0	74	28830
2026-01-21 12:42:41.71	313.70	25.18	-51.8	-69.5	3.8	7.46e-01	0	40	104	0	74	28941
2026-01-21 12:42:44.73	314.36	24.75	-51.8	-69.6	3.8	7.45e-01	0	40	104	0	74	29328
2026-01-21 12:42:47.76	315.01	24.34	-51.8	-69.6	3.8	7.42e-01	0	40	104	0	74	29267
2026-01-21 12:42:50.78	315.63	23.92	-51.8	-69.6	3.8	7.47e-01	0	40	104	0	74	29218
2026-01-21 12:42:53.81	316.25	23.51	-51.8	-69.7	3.8	7.44e-01	0	40	104	0	74	29359
2026-01-21 12:42:56.83	316.84	23.11	-51.8	-69.5	3.8	7.44e-01	0	40	104	0	74	28820
2026-01-21 12:42:59.85	317.42	22.70	-51.8	-69.6	3.8	7.46e-01	0	40	104	0	74	29050
2026-01-21 12:43:02.87	317.98	22.31	-51.8	-69.5	3.8	7.46e-01	0	40	104	0	74	28806
2026-01-21 12:43:05.90	318.53	21.91	-51.8	-69.6	3.8	7.43e-01	0	40	104	0	74	29256
2026-01-21 12:43:08.92	319.07	21.52	-51.8	-69.6	3.8	7.44e-01	0	40	104	0	74	29242
2026-01-21 12:43:11.94	319.59	21.14	-51.8	-69.5	3.8	7.42e-01	0	40	104	0	74	28931
2026-01-21 12:43:14.96	320.10	20.75	-51.8	-69.6	3.8	7.43e-01	0	40	104	0	74	29211
2026-01-21 12:43:17.99	320.59	20.38	-51.8	-69.6	3.8	7.45e-01	0	40	104	0	74	29184
2026-01-21 12:43:21.01	321.08	20.00	-51.8	-69.6	3.8	7.46e-01	0	40	104	0	74	29222
2026-01-21 12:43:24.04	321.55	19.63	-51.8	-69.6	3.8	7.45e-01	0	40	104	0	74	29332
2026-01-21 12:43:27.07	322.01	19.27	-51.8	-69.6	3.8	7.46e-01	0	40	104	0	74	29324
2026-01-21 12:43:30.09	322.46	18.91	-51.8	-69.6	3.8	7.45e-01	0	40	104	0	74	29346
2026-01-21 12:43:33.11	322.90	18.55	-51.8	-69.6	3.8	7.47e-01	0	40	104	0	74	29314
2026-01-21 12:43:36.14	323.33	18.20	-51.8	-69.6	3.8	7.46e-01	0	40	104	0	74	29312
2026-01-21 12:43:39.16	323.74	17.85	-51.8	-69.7	3.8	7.47e-01	0	40	104	0	74	29349
2026-01-21 12:43:42.19	324.15	17.51	-51.8	-69.7	3.8	7.43e-01	0	40	104	0	74	29414
2026-01-21 12:43:45.21	324.55	17.17	-51.8	-69.6	3.8	7.49e-01	0	40	104	0	74	29293
2026-01-21 12:43:48.23	324.94	16.83	-51.8	-69.6	3.8	7.44e-01	0	40	104	0	74	29315
2026-01-21 12:43:51.25	325.32	16.50	-51.8	-69.6	3.8	7.49e-01	0	40	104	0	74	29313
2026-01-21 12:43:54.28	325.70	16.17	-51.8	-69.6	3.8	7.43e-01	0	40	104	0	74	29323
2026-01-21 12:43:57.30	326.06	15.85	-51.8	-69.6	3.8	7.47e-01	0	40	104	0	74	29224
2026-01-21 12:44:00.33	326.42	15.52	-51.8	-69.6	3.8	7.45e-01	0	40	104	0	74	29294
2026-01-21 12:44:03.35	326.77	15.21	-51.8	-69.6	3.8	7.46e-01	0	40	104	0	74	29255
2026-01-21 12:44:06.38	327.11	14.89	-51.8	-69.6	3.8	7.43e-01	0	40	104	0	74	29218
2026-01-21 12:44:09.40	327.45	14.58	-51.8	-69.6	3.8	7.44e-01	0	40	104	0	74	29258
2026-01-21 12:44:12.43	327.77	14.28	-51.8	-69.6	3.8	7.47e-01	0	40	104	0	74	29319
2026-01-21 12:44:15.45	328.09	13.97	-51.8	-69.6	3.8	7.44e-01	0	40	104	0	74	29272
2026-01-21 12:44:18.47	328.41	13.67	-51.8	-69.6	3.8	7.47e-01	0	40	104	0	74	29296
2026-01-21 12:44:21.49	328.72	13.38	-51.8	-69.6	3.8	7.46e-01	0	40	104	0	74	29307
2026-01-21 12:44:24.52	329.02	13.08	-51.8	-69.6	3.8	7.45e-01	0	40	104	0	74	29288
2026-01-21 12:44:27.54	329.31	12.80	-51.8	-69.6	3.8	7.41e-01	0	40	104	0	74	29297
2026-01-21 12:44:30.57	329.60	12.51	-51.8	-69.6	3.8	7.47e-01	0	40	104	0	74	29217
2026-01-21 12:44:33.59	329.89	12.22	-51.8	-69.5	3.8	7.44e-01	0	40	104	0	74	28860
2026-01-21 12:44:36.61	330.17	11.94	-51.8	-69.5	3.8	7.46e-01	0	40	104	0	74	28787
2026-01-21 12:44:39.64	330.44	11.67	-51.8	-69.5	3.8	7.43e-01	0	40	104	0	74	28881
2026-01-21 12:44:42.66	330.71	11.39	-51.8	-69.4	3.8	7.46e-01	0	40	104	0	74	28531
2026-01-21 12:44:45.68	330.97	11.12	-51.8	-69.4	3.8	7.45e-01	0	40	104	0	74	28636
2026-01-21 12:44:48.71	331.23	10.85	-51.8	-69.6	3.8	7.44e-01	0	40	104	0	74	29067
2026-01-21 12:44:51.73	331.48	10.59	-51.8	-69.6	3.8	7.41e-01	0	40	104	0	74	29156
2026-01-21 12:44:54.75	331.73	10.32	-51.8	-69.6	3.8	7.48e-01	0	40	104	0	74	29172
2026-01-21 12:44:57.77	331.97	10.06	-51.8	-69.6	3.8	7.45e-01	0	40	104	0	74	29311
2026-01-21 12:45:00.80	332.21	9.81	-51.8	-69.6	3.8	7.46e-01	0	40	104	0	74	29221
2026-01-21 12:45:03.83	332.45	9.55	-51.8	-69.5	3.8	7.47e-01	0	40	104	0	74	29003
2026-01-21 12:45:06.85	332.68	9.30	-51.8	-69.4	3.8	7.40e-01	0	40	104	0	74	28454
2026-01-21 12:45:09.88	332.91	9.05	-51.8	-69.4	3.8	7.47e-01	0	40	104	0	74	28498
2026-01-21 12:45:12.90	333.13	8.80	-51.8	-69.6	3.8	7.43e-01	0	40	104	0	74	29257
2026-01-21 12:45:15.93	333.35	8.55	-51.8	-69.6	3.8	7.44e-01	0	40	104	0	74	29201
2026-01-21 12:45:18.95	333.57	8.31	-51.8	-69.6	3.8	7.44e-01	0	40	104	0	74	29246
2026-01-21 12:45:21.97	333.78	8.07	-51.8	-69.6	3.8	7.45e-01	0	40	104	0	74	29308
2026-01-21 12:45:25.00	333.99	7.83	-51.8	-69.6	3.8	7.44e-01	0	40	104	0	74	29292
2026-01-21 12:45:28.03	334.20	7.59	-51.8	-69.6	3.8	7.43e-01	0	40	104	0	74	29263
2026-01-21 12:45:31.05	334.40	7.36	-51.8	-69.5	3.8	7.46e-01	0	40	104	0	74	28939
2026-01-21 12:45:34.07	334.60	7.13	-51.8	-69.6	3.8	7.45e-01	0	40	104	0	74	29232
2026-01-21 12:45:37.10	334.79	6.90	-51.8	-69.6	3.8	7.45e-01	0	40	104	0	74	29225
2026-01-21 12:45:40.13	334.99	6.67	-51.8	-69.6	3.8	7.48e-01	0	40	104	0	74	29079
2026-01-21 12:45:43.15	335.18	6.44	-51.8	-69.6	3.8	7.47e-01	0	40	104	0	74	29216
2026-01-21 12:45:46.17	335.36	6.22	-51.8	-69.5	3.8	7.45e-01	0	40	104	0	74	28776
2026-01-21 12:45:49.20	335.55	6.00	-51.8	-69.5	3.8	7.45e-01	0	40	104	0	74	28726
2026-01-21 12:45:52.22	335.73	5.78	-51.8	-69.5	3.8	7.44e-01	0	40	104	0	74	28997
2026-01-21 12:45:55.25	335.91	5.56	-51.8	-69.6	3.8	7.43e-01	0	40	104	0	74	29170
2026-01-21 12:45:58.27	336.08	5.34	-51.8	-69.5	3.8	7.48e-01	0	40	104	0	74	29002
2026-01-21 12:46:01.30	336.26	5.13	-51.8	-69.6	3.8	7.44e-01	0	40	104	0	74	29156
2026-01-21 12:46:04.32	336.43	4.92	-51.8	-69.6	3.8	7.44e-01	0	40	104	0	74	29251
2026-01-21 12:46:07.34	336.59	4.70	-51.8	-69.6	3.8	7.44e-01	0	40	104	0	74	29271
2026-01-21 12:46:10.37	336.76	4.49	-51.8	-69.6	3.8	7.46e-01	0	40	104	0	74	29243
2026-01-21 12:46:13.39	336.92	4.29	-51.8	-69.6	3.8	7.50e-01	0	40	104	0	74	29074
2026-01-21 12:46:16.42	337.09	4.08	-51.8	-69.6	3.8	7.44e-01	0	40	104	0	74	29143
2026-01-21 12:46:19.44	337.24	3.88	-51.8	-69.6	3.8	7.46e-01	0	40	104	0	74	29206
2026-01-21 12:46:22.47	337.40	3.67	-51.8	-69.6	3.8	7.43e-01	0	40	104	0	74	29280
2026-01-21 12:46:25.49	337.56	3.47	-51.8	-69.6	3.8	7.48e-01	0	40	104	0	74	29248
2026-01-21 12:46:28.51	337.71	3.27	-51.8	-69.6	3.8	7.45e-01	0	40	104	0	74	29155
2026-01-21 12:46:31.47	337.86	3.08	-51.8	-69.6	3.8	7.46e-01	0	40	104	0	74	29125
2026-01-21 12:46:34.50	338.00	2.88	-51.8	-69.5	3.8	7.50e-01	0	40	104	0	74	28930
2026-01-21 12:46:37.52	338.15	2.68	-51.8	-69.5	3.8	7.46e-01	0	40	104	0	74	28733
2026-01-21 12:46:40.54	338.30	2.49	-51.8	-69.2	3.8	7.42e-01	0	40	104	0	74	28002
2026-01-21 12:46:43.56	338.44	2.30	-51.8	-69.3	3.8	7.46e-01	0	40	104	0	74	28258
2026-01-21 12:46:46.58	338.58	2.10	-51.8	-69.5	3.8	7.49e-01	0	40	104	0	74	28946

#Closed at: 2026-01-21 12:46:48
#Recorded file [0 MB]: D:/lorett/data/31041_260121_153419.dat