passes_logs/2026/01/21/R3.2S_Murmansk/R3.2S_Murmansk__20260121_235731_FENGYUN_3D_rec.log

#Pass ID: 20260121_235731_FENGYUN 3D
#Satellite: FENGYUN 3D
#Configuration: FENGYUN 3D
#almurnet v.1.7.20251203
#Start time: 2026-01-21 23:57:31

#Version: 2.2.20231116
#Station: R3.2S_Murmansk
#Location: 33.079688 lon 68.888172 lat
#TLE: 1 43010U 17072A   26021.48744220  .00000253  00000+0  14133-3 0  9991
#TLE: 2 43010  98.9948 353.4037 0002485  97.2578 262.8880 14.19697766424177

#Time	Az	El	Level	Level2	SNR	BER	BlckErr	Temp	State	Recorded	gain1	gain2
2026-01-21 23:57:31.68	19.17	2.02	-54.1	-66.1	3.8	8.47e-01	0	39	0	0	79	14661
2026-01-21 23:57:34.69	19.42	2.17	-54.4	-66.4	3.8	8.47e-01	0	39	104	0	79	15087
2026-01-21 23:57:37.71	19.68	2.32	-54.4	-66.4	3.8	8.46e-01	0	39	104	0	79	15079
2026-01-21 23:57:40.74	19.94	2.48	-54.3	-66.3	3.8	8.45e-01	0	39	104	0	79	14927
2026-01-21 23:57:43.77	20.20	2.63	-54.2	-66.2	3.8	8.47e-01	0	39	104	0	79	14808
2026-01-21 23:57:46.80	20.46	2.79	-54.1	-66.1	3.8	8.45e-01	0	39	104	0	79	14543
2026-01-21 23:57:49.82	20.73	2.94	-53.8	-65.8	3.8	8.46e-01	0	39	104	0	79	14110
2026-01-21 23:57:52.84	21.00	3.10	-53.4	-65.4	3.8	8.47e-01	0	39	104	0	78	14217
2026-01-21 23:57:55.87	21.27	3.25	-52.4	-64.3	3.8	8.47e-01	0	39	104	0	76	14105
2026-01-21 23:57:58.89	21.55	3.41	-52.3	-64.2	3.8	8.46e-01	0	39	104	0	76	13923
2026-01-21 23:58:01.92	21.82	3.56	-52.3	-64.0	3.8	8.46e-01	0	39	104	0	76	13705
2026-01-21 23:58:04.94	22.10	3.72	-52.3	-64.3	3.8	8.47e-01	0	40	104	0	76	14095
2026-01-21 23:58:07.97	22.39	3.88	-52.3	-64.1	3.8	8.47e-01	0	39	104	0	76	13776
2026-01-21 23:58:11.00	22.67	4.03	-52.3	-64.2	3.8	8.46e-01	0	39	104	0	76	14037
2026-01-21 23:58:14.02	22.96	4.19	-52.2	-63.0	3.8	8.46e-01	0	40	104	0	76	12175
2026-01-21 23:58:17.05	23.26	4.35	-52.0	-61.6	3.9	8.45e-01	0	40	104	0	76	10353
2026-01-21 23:58:20.07	23.55	4.51	-50.5	-55.1	7.9	1.68e-01	0	40	0	5242880	73	5791
2026-01-21 23:58:23.10	23.85	4.67	-47.4	-49.5	13.7	1.14e-05	0	40	0	23068672	66	4578
2026-01-21 23:58:26.12	24.15	4.83	-46.4	-48.2	15.0	0.00e+00	0	40	0	39845888	64	4407
2026-01-21 23:58:29.15	24.46	4.99	-48.7	-51.4	11.7	2.22e-04	0	40	0	56623104	67	5370
2026-01-21 23:58:32.17	24.76	5.15	-52.0	-63.2	3.8	8.46e-01	0	40	104	70254592	74	14040
2026-01-21 23:58:35.20	25.07	5.31	-50.1	-53.9	9.2	5.35e-03	0	40	0	82837504	71	5696
2026-01-21 23:58:38.22	25.39	5.47	-43.2	-44.3	19.5	0.00e+00	0	40	0	99614720	58	3959
2026-01-21 23:58:41.25	25.71	5.63	-43.2	-44.2	19.5	0.00e+00	0	40	0	116391936	57	4181
2026-01-21 23:58:44.27	26.03	5.79	-42.8	-43.8	20.0	0.00e+00	0	40	0	133169152	57	3960
2026-01-21 23:58:47.30	26.35	5.95	-42.6	-43.6	20.3	0.00e+00	0	40	0	150994944	57	3880
2026-01-21 23:58:50.32	26.68	6.11	-42.8	-43.8	20.1	0.00e+00	0	40	0	167772160	57	3968
2026-01-21 23:58:53.35	27.01	6.27	-42.4	-43.4	20.5	0.00e+00	0	40	0	184549376	56	4018
2026-01-21 23:58:56.38	27.34	6.43	-42.5	-43.5	20.4	0.00e+00	0	40	0	201326592	56	4064
2026-01-21 23:58:59.40	27.68	6.60	-42.7	-43.7	20.2	0.00e+00	0	40	0	219152384	56	4175
2026-01-21 23:59:02.43	28.02	6.76	-42.7	-43.7	20.3	0.00e+00	0	40	0	235929600	56	4148
2026-01-21 23:59:05.45	28.37	6.92	-42.6	-43.6	20.3	0.00e+00	0	40	0	252706816	56	4127
2026-01-21 23:59:08.47	28.72	7.08	-42.5	-43.4	20.6	0.00e+00	0	40	0	269484032	56	4024
2026-01-21 23:59:11.50	29.07	7.25	-42.3	-43.2	20.8	0.00e+00	0	40	0	287309824	56	3932
2026-01-21 23:59:14.52	29.43	7.41	-42.4	-43.3	20.7	0.00e+00	0	40	0	304087040	56	3995
2026-01-21 23:59:17.55	29.79	7.57	-42.1	-43.0	21.0	0.00e+00	0	40	0	320864256	56	3847
2026-01-21 23:59:20.57	30.15	7.73	-42.2	-43.2	20.9	0.00e+00	0	40	0	337641472	56	3917
2026-01-21 23:59:23.60	30.52	7.90	-42.0	-43.0	21.1	0.00e+00	0	40	0	355467264	56	3826
2026-01-21 23:59:26.62	30.89	8.06	-42.1	-43.0	21.0	0.00e+00	0	40	0	372244480	56	3867
2026-01-21 23:59:29.64	31.27	8.22	-42.0	-42.9	21.2	0.00e+00	0	40	0	389021696	56	3811
2026-01-21 23:59:32.67	31.65	8.39	-41.8	-42.6	21.3	0.00e+00	0	40	0	405798912	55	3913
2026-01-21 23:59:35.69	32.03	8.55	-41.5	-42.4	21.6	0.00e+00	0	40	0	423624704	55	3807
2026-01-21 23:59:38.71	32.42	8.71	-41.4	-42.3	21.7	0.00e+00	0	40	0	440401920	54	3972
2026-01-21 23:59:41.74	32.81	8.88	-41.5	-42.4	21.6	0.00e+00	0	40	0	457179136	54	4027
2026-01-21 23:59:44.76	33.21	9.04	-41.6	-42.5	21.6	0.00e+00	0	40	0	473956352	54	4055
2026-01-21 23:59:47.78	33.61	9.20	-41.6	-42.5	21.6	0.00e+00	0	40	0	491782144	54	4068
2026-01-21 23:59:50.81	34.02	9.36	-41.8	-42.7	21.4	0.00e+00	0	40	0	508559360	54	4151
2026-01-21 23:59:53.83	34.43	9.53	-41.5	-42.4	21.7	0.00e+00	0	40	0	525336576	54	4032
2026-01-21 23:59:56.86	34.84	9.69	-41.5	-42.4	21.7	0.00e+00	0	40	0	542113792	54	4036
2026-01-21 23:59:59.89	35.26	9.85	-41.4	-42.2	21.9	0.00e+00	0	40	0	558891008	54	3940
2026-01-22 00:00:02.91	35.68	10.01	-41.4	-42.2	21.9	0.00e+00	0	40	0	576716800	54	3941
2026-01-22 00:00:05.94	36.11	10.18	-41.3	-42.1	21.9	0.00e+00	0	40	0	593494016	54	3912
2026-01-22 00:00:08.97	36.55	10.34	-41.5	-42.4	21.7	0.00e+00	0	40	0	610271232	54	4010
2026-01-22 00:00:11.99	36.98	10.50	-41.0	-41.9	22.3	0.00e+00	0	40	0	627048448	54	3783
2026-01-22 00:00:15.02	37.43	10.66	-41.1	-41.9	22.2	0.00e+00	0	40	0	643825664	53	4043
2026-01-22 00:00:18.04	37.87	10.82	-41.1	-41.9	22.2	0.00e+00	0	40	0	661651456	53	4026
2026-01-22 00:00:21.07	38.32	10.98	-41.0	-41.8	22.3	0.00e+00	0	40	0	678428672	53	3991
2026-01-22 00:00:24.09	38.78	11.14	-41.0	-41.8	22.3	0.00e+00	0	40	0	695205888	53	3977
2026-01-22 00:00:27.11	39.24	11.30	-41.0	-41.8	22.4	0.00e+00	0	40	0	711983104	53	3973
2026-01-22 00:00:30.14	39.71	11.45	-41.1	-41.9	22.2	0.00e+00	0	40	0	728760320	53	4029
2026-01-22 00:00:33.17	40.18	11.61	-40.8	-41.6	22.5	0.00e+00	0	40	0	746586112	53	3892
2026-01-22 00:00:36.20	40.65	11.77	-40.7	-41.5	22.7	0.00e+00	0	40	0	763363328	53	3837
2026-01-22 00:00:39.22	41.13	11.92	-40.8	-41.6	22.6	0.00e+00	0	40	0	780140544	53	3874
2026-01-22 00:00:42.25	41.62	12.08	-40.8	-41.6	22.5	0.00e+00	0	40	0	796917760	53	3912
2026-01-22 00:00:45.27	42.11	12.23	-40.6	-41.4	22.7	0.00e+00	0	40	0	813694976	53	3817
2026-01-22 00:00:48.29	42.60	12.39	-40.6	-41.4	22.7	0.00e+00	0	40	0	831520768	53	3809
2026-01-22 00:00:51.32	43.11	12.54	-40.7	-41.5	22.7	0.00e+00	0	40	0	848297984	53	3836
2026-01-22 00:00:54.35	43.61	12.69	-40.6	-41.4	22.8	0.00e+00	0	41	0	865075200	52	4011
2026-01-22 00:00:57.38	44.12	12.84	-40.5	-41.3	22.8	0.00e+00	0	40	0	881852416	52	3991
2026-01-22 00:01:00.40	44.64	12.99	-40.5	-41.3	22.8	0.00e+00	0	40	0	899678208	52	3984
2026-01-22 00:01:03.43	45.16	13.14	-40.4	-41.2	23.0	0.00e+00	0	40	0	916455424	52	3920
2026-01-22 00:01:06.46	45.69	13.28	-40.4	-41.2	23.0	0.00e+00	0	40	0	933232640	52	3918
2026-01-22 00:01:09.48	46.22	13.43	-40.3	-41.1	23.1	0.00e+00	0	40	0	951058432	52	3880
2026-01-22 00:01:12.51	46.75	13.57	-40.1	-40.9	23.2	0.00e+00	0	40	0	967835648	52	3810
2026-01-22 00:01:15.53	47.29	13.72	-40.0	-40.8	23.4	0.00e+00	0	40	0	984612864	52	3747
2026-01-22 00:01:18.56	47.84	13.86	-40.0	-40.8	23.4	0.00e+00	0	40	0	1001390080	52	3741
2026-01-22 00:01:21.59	48.39	14.00	-40.2	-41.0	23.3	0.00e+00	0	40	0	1019215872	51	4071
2026-01-22 00:01:24.61	48.95	14.13	-40.3	-41.1	23.2	0.00e+00	0	40	0	1035993088	51	4099
2026-01-22 00:01:27.64	49.51	14.27	-40.1	-40.8	23.4	0.00e+00	0	40	0	1052770304	51	3983
2026-01-22 00:01:30.67	50.08	14.41	-40.0	-40.8	23.4	0.00e+00	0	40	0	1069547520	51	3982
2026-01-22 00:01:33.70	50.65	14.54	-40.1	-40.9	23.4	0.00e+00	0	40	0	1087373312	51	4020
2026-01-22 00:01:36.72	51.22	14.67	-40.2	-41.0	23.3	0.00e+00	0	40	0	1104150528	51	4084
2026-01-22 00:01:39.75	51.81	14.80	-40.2	-41.0	23.3	0.00e+00	0	40	0	1120927744	51	4084
2026-01-22 00:01:42.77	52.39	14.92	-39.9	-40.6	23.6	0.00e+00	0	40	0	1137704960	51	3908
2026-01-22 00:01:45.80	52.98	15.05	-40.0	-40.7	23.5	0.00e+00	0	40	0	1155530752	51	3939
2026-01-22 00:01:48.82	53.58	15.17	-40.1	-40.8	23.4	0.00e+00	0	40	0	1172307968	51	3999
2026-01-22 00:01:51.85	54.18	15.29	-39.9	-40.7	23.6	0.00e+00	0	40	0	1189085184	51	3916
2026-01-22 00:01:54.87	54.78	15.41	-39.8	-40.5	23.8	0.00e+00	0	41	0	1205862400	51	3849
2026-01-22 00:01:57.89	55.39	15.52	-39.8	-40.5	23.7	0.00e+00	0	40	0	1222639616	51	3849
2026-01-22 00:02:00.92	56.00	15.63	-39.6	-40.3	23.9	0.00e+00	0	40	0	1240465408	51	3779
2026-01-22 00:02:03.94	56.62	15.74	-39.6	-40.4	23.9	0.00e+00	0	40	0	1257242624	51	3790
2026-01-22 00:02:06.97	57.25	15.85	-39.7	-40.5	23.8	0.00e+00	0	41	0	1274019840	51	3839
2026-01-22 00:02:09.99	57.87	15.96	-39.7	-40.4	23.8	0.00e+00	0	40	0	1290797056	51	3814
2026-01-22 00:02:13.02	58.51	16.06	-39.8	-40.5	23.7	0.00e+00	0	40	0	1307574272	51	3858
2026-01-22 00:02:16.04	59.14	16.16	-39.9	-40.6	23.6	0.00e+00	0	41	0	1325400064	51	3913
2026-01-22 00:02:19.06	59.78	16.25	-39.9	-40.6	23.6	0.00e+00	0	40	0	1342177280	51	3912
2026-01-22 00:02:22.09	60.42	16.34	-39.7	-40.5	23.8	0.00e+00	0	41	0	1358954496	51	3826
2026-01-22 00:02:25.11	61.07	16.43	-39.8	-40.6	23.7	0.00e+00	0	40	0	1375731712	51	3870
2026-01-22 00:02:28.14	61.72	16.52	-39.8	-40.6	23.7	0.00e+00	0	40	0	1392508928	51	3870
2026-01-22 00:02:31.16	62.38	16.60	-39.7	-40.4	23.8	0.00e+00	0	40	0	1410334720	51	3822
2026-01-22 00:02:34.19	63.04	16.68	-39.6	-40.4	23.9	0.00e+00	0	41	0	1427111936	51	3794
2026-01-22 00:02:37.22	63.70	16.76	-39.4	-40.1	24.1	0.00e+00	0	40	0	1443889152	50	3881
2026-01-22 00:02:40.24	64.36	16.83	-39.7	-40.4	23.9	0.00e+00	0	41	0	1460666368	50	4034
2026-01-22 00:02:43.26	65.03	16.90	-39.9	-40.6	23.7	0.00e+00	0	40	0	1477443584	50	4141
2026-01-22 00:02:46.28	65.70	16.97	-39.7	-40.4	23.9	0.00e+00	0	40	0	1495269376	50	4029
2026-01-22 00:02:49.31	66.38	17.03	-39.6	-40.3	24.0	0.00e+00	0	40	0	1512046592	50	3988
2026-01-22 00:02:52.33	67.05	17.09	-39.4	-40.1	24.1	0.00e+00	0	40	0	1528823808	50	3902
2026-01-22 00:02:55.36	67.73	17.15	-39.5	-40.2	24.0	0.00e+00	0	41	0	1545601024	50	3947
2026-01-22 00:02:58.38	68.41	17.20	-39.4	-40.1	24.1	0.00e+00	0	40	0	1563426816	50	3900
2026-01-22 00:03:01.40	69.09	17.25	-39.6	-40.3	24.0	0.00e+00	0	40	0	1580204032	50	3991
2026-01-22 00:03:04.43	69.78	17.29	-39.3	-40.1	24.2	0.00e+00	0	40	0	1596981248	50	3885
2026-01-22 00:03:07.45	70.47	17.33	-39.4	-40.1	24.1	0.00e+00	0	40	0	1613758464	50	3913
2026-01-22 00:03:10.47	71.16	17.37	-39.5	-40.2	24.1	0.00e+00	0	40	0	1630535680	50	3938
2026-01-22 00:03:13.49	71.85	17.40	-39.3	-40.1	24.2	0.00e+00	0	40	0	1648361472	50	3873
2026-01-22 00:03:16.52	72.54	17.43	-39.5	-40.3	24.0	0.00e+00	0	40	0	1665138688	50	3966
2026-01-22 00:03:19.54	73.23	17.45	-39.5	-40.2	24.1	0.00e+00	0	40	0	1681915904	50	3929
2026-01-22 00:03:22.57	73.93	17.48	-39.4	-40.1	24.1	0.00e+00	0	40	0	1698693120	50	3894
2026-01-22 00:03:25.59	74.62	17.49	-39.5	-40.2	24.0	0.00e+00	0	40	0	1716518912	50	3950
2026-01-22 00:03:28.62	75.32	17.50	-39.6	-40.4	23.9	0.00e+00	0	40	0	1733296128	50	4008
2026-01-22 00:03:31.64	76.02	17.51	-39.5	-40.3	24.0	0.00e+00	0	41	0	1750073344	50	3961
2026-01-22 00:03:34.67	76.72	17.52	-39.6	-40.3	23.9	0.00e+00	0	40	0	1766850560	50	3995
2026-01-22 00:03:37.69	77.41	17.52	-39.7	-40.5	23.8	0.00e+00	0	40	0	1784676352	50	4059
2026-01-22 00:03:40.71	78.11	17.51	-39.7	-40.4	23.9	0.00e+00	0	40	0	1801453568	50	4026
2026-01-22 00:03:43.74	78.81	17.51	-39.7	-40.4	23.8	0.00e+00	0	40	0	1818230784	50	4049
2026-01-22 00:03:46.76	79.50	17.49	-39.5	-40.3	23.9	0.00e+00	0	41	0	1835008000	50	3981
2026-01-22 00:03:49.79	80.20	17.48	-39.4	-40.1	24.1	0.00e+00	0	40	0	1852833792	50	3912
2026-01-22 00:03:52.82	80.90	17.46	-39.6	-40.4	23.9	0.00e+00	0	40	0	1869611008	50	4009
2026-01-22 00:03:55.84	81.59	17.44	-39.5	-40.3	24.0	0.00e+00	0	40	0	1886388224	50	3964
2026-01-22 00:03:58.87	82.29	17.41	-39.5	-40.3	24.0	0.00e+00	0	41	0	1903165440	50	3964
2026-01-22 00:04:01.89	82.98	17.38	-39.8	-40.5	23.7	0.00e+00	0	41	0	1920991232	50	4080
2026-01-22 00:04:04.91	83.67	17.34	-39.7	-40.5	23.8	0.00e+00	0	40	0	1937768448	50	4074
2026-01-22 00:04:07.94	84.36	17.30	-39.7	-40.5	23.8	0.00e+00	0	41	0	1954545664	50	4068
2026-01-22 00:04:10.96	85.04	17.26	-39.9	-40.6	23.6	0.00e+00	0	40	0	1971322880	50	4136
2026-01-22 00:04:13.99	85.73	17.21	-40.0	-40.8	23.4	0.00e+00	0	40	0	1989148672	50	4221
2026-01-22 00:04:17.01	86.41	17.16	-39.9	-40.7	23.5	0.00e+00	0	40	0	2005925888	50	4168
2026-01-22 00:04:20.03	87.09	17.10	-39.7	-40.5	23.7	0.00e+00	0	40	0	2022703104	50	4077
2026-01-22 00:04:23.06	87.77	17.04	-39.7	-40.5	23.7	0.00e+00	0	41	0	2039480320	50	4070
2026-01-22 00:04:26.09	88.45	16.98	-39.7	-40.5	23.7	0.00e+00	0	40	0	2056257536	50	4062
2026-01-22 00:04:29.11	89.12	16.92	-40.0	-40.7	23.5	0.00e+00	0	40	0	2074083328	50	4187
2026-01-22 00:04:32.13	89.79	16.85	-40.0	-40.8	23.4	0.00e+00	0	40	0	2090860544	50	4209
2026-01-22 00:04:35.16	90.46	16.77	-39.9	-40.6	23.6	0.00e+00	0	40	0	2107637760	50	4144
2026-01-22 00:04:38.18	91.12	16.70	-39.9	-40.7	23.5	0.00e+00	0	40	0	2124414976	50	4164
2026-01-22 00:04:41.21	91.78	16.62	-39.8	-40.6	23.6	0.00e+00	0	40	0	2141192192	50	4103
2026-01-22 00:04:44.23	92.44	16.53	-39.9	-40.6	23.6	0.00e+00	0	41	0	2159017984	50	4129
2026-01-22 00:04:47.25	93.09	16.45	-39.9	-40.7	23.5	0.00e+00	0	40	0	2175795200	50	4173
2026-01-22 00:04:50.28	93.74	16.36	-39.9	-40.7	23.5	0.00e+00	0	41	0	2192572416	50	4159
2026-01-22 00:04:53.30	94.38	16.27	-39.8	-40.6	23.6	0.00e+00	0	40	0	2209349632	50	4120
2026-01-22 00:04:56.33	95.03	16.17	-40.0	-40.8	23.4	0.00e+00	0	40	0	2226126848	50	4199
2026-01-22 00:04:59.35	95.66	16.07	-40.1	-40.9	23.3	0.00e+00	0	40	0	2243952640	50	4266
2026-01-22 00:05:02.37	96.30	15.97	-40.2	-40.9	23.3	0.00e+00	0	40	0	2260729856	50	4285
2026-01-22 00:05:05.40	96.93	15.87	-40.3	-41.1	22.8	0.00e+00	0	40	0	2277507072	51	4139
2026-01-22 00:05:08.42	97.55	15.76	-40.3	-41.1	22.8	0.00e+00	0	41	0	2294284288	51	4134
2026-01-22 00:05:11.45	98.18	15.65	-40.2	-41.1	22.8	0.00e+00	0	40	0	2311061504	51	4110
2026-01-22 00:05:14.47	98.79	15.54	-40.2	-41.0	23.0	0.00e+00	0	41	0	2328887296	51	4066
2026-01-22 00:05:17.49	99.40	15.42	-40.3	-41.2	22.8	0.00e+00	0	41	0	2345664512	51	4169
2026-01-22 00:05:20.52	100.01	15.30	-40.3	-41.2	22.7	0.00e+00	0	40	0	2362441728	51	4166
2026-01-22 00:05:23.54	100.61	15.18	-40.2	-41.1	22.8	0.00e+00	0	40	0	2379218944	51	4103
2026-01-22 00:05:26.57	101.21	15.06	-40.2	-41.1	22.8	0.00e+00	0	40	0	2395996160	51	4115
2026-01-22 00:05:29.59	101.80	14.94	-40.3	-41.1	22.8	0.00e+00	0	41	0	2413821952	51	4145
2026-01-22 00:05:32.61	102.39	14.81	-40.3	-41.1	22.9	0.00e+00	0	40	0	2430599168	51	4113
2026-01-22 00:05:35.64	102.98	14.68	-40.5	-41.3	22.7	0.00e+00	0	41	0	2447376384	51	4216
2026-01-22 00:05:38.66	103.55	14.55	-40.4	-41.2	22.7	0.00e+00	0	40	0	2464153600	51	4178
2026-01-22 00:05:41.69	104.13	14.42	-40.6	-41.4	22.6	0.00e+00	0	40	0	2481979392	51	4257
2026-01-22 00:05:44.72	104.70	14.28	-40.7	-41.5	22.4	0.00e+00	0	41	0	2498756608	52	4091
2026-01-22 00:05:47.74	105.26	14.15	-40.7	-41.5	22.3	0.00e+00	0	40	0	2515533824	52	4098
2026-01-22 00:05:50.77	105.82	14.01	-40.7	-41.5	22.3	0.00e+00	0	40	0	2532311040	52	4093
2026-01-22 00:05:53.79	106.37	13.87	-40.7	-41.5	22.3	0.00e+00	0	40	0	2550136832	52	4088
2026-01-22 00:05:56.82	106.92	13.73	-40.8	-41.6	22.2	0.00e+00	0	40	0	2566914048	52	4140
2026-01-22 00:05:59.84	107.47	13.58	-40.8	-41.6	22.2	0.00e+00	0	40	0	2583691264	52	4138
2026-01-22 00:06:02.87	108.01	13.44	-41.0	-41.8	22.1	0.00e+00	0	41	0	2600468480	52	4242
2026-01-22 00:06:05.90	108.54	13.29	-40.9	-41.8	22.1	0.00e+00	0	41	0	2618294272	52	4198
2026-01-22 00:06:08.92	109.07	13.15	-41.0	-41.9	22.0	0.00e+00	0	41	0	2635071488	52	4245
2026-01-22 00:06:11.94	109.59	13.00	-41.1	-42.0	21.9	0.00e+00	0	41	0	2651848704	52	4297
2026-01-22 00:06:14.97	110.11	12.85	-41.2	-42.1	21.7	0.00e+00	0	41	0	2668625920	52	4374
2026-01-22 00:06:17.99	110.62	12.70	-41.0	-41.9	21.9	0.00e+00	0	41	0	2686451712	53	4046
2026-01-22 00:06:21.02	111.13	12.54	-41.0	-41.9	22.0	0.00e+00	0	41	0	2703228928	53	4013
2026-01-22 00:06:24.04	111.63	12.39	-40.9	-41.8	22.1	0.00e+00	0	41	0	2720006144	53	3968
2026-01-22 00:06:27.07	112.13	12.24	-41.0	-41.9	21.9	0.00e+00	0	41	0	2736783360	53	4047
2026-01-22 00:06:30.09	112.62	12.08	-41.0	-41.9	21.9	0.00e+00	0	41	0	2754609152	53	4046
2026-01-22 00:06:33.11	113.11	11.93	-41.1	-42.0	21.8	0.00e+00	0	41	0	2771386368	53	4077
2026-01-22 00:06:36.14	113.60	11.77	-41.2	-42.0	21.8	0.00e+00	0	41	0	2788163584	53	4095
2026-01-22 00:06:39.16	114.07	11.61	-41.2	-42.0	21.8	0.00e+00	0	41	0	2804940800	53	4090
2026-01-22 00:06:42.18	114.54	11.45	-41.5	-42.4	21.4	0.00e+00	0	41	0	2822766592	53	4269
2026-01-22 00:06:45.21	115.01	11.29	-41.6	-42.6	21.3	0.00e+00	0	41	0	2839543808	53	4342
2026-01-22 00:06:48.23	115.48	11.14	-41.5	-42.4	21.4	0.00e+00	0	41	0	2856321024	53	4281
2026-01-22 00:06:51.25	115.93	10.98	-41.5	-42.4	21.4	0.00e+00	0	41	0	2873098240	53	4267
2026-01-22 00:06:54.28	116.39	10.81	-41.6	-42.6	21.2	0.00e+00	0	41	0	2889875456	53	4354
2026-01-22 00:06:57.30	116.84	10.65	-41.6	-42.5	21.3	0.00e+00	0	41	0	2907701248	54	4073
2026-01-22 00:07:00.33	117.28	10.49	-41.4	-42.3	21.4	0.00e+00	0	41	0	2924478464	54	3976
2026-01-22 00:07:03.35	117.72	10.33	-41.5	-42.4	21.3	0.00e+00	0	41	0	2941255680	54	4037
2026-01-22 00:07:06.37	118.15	10.17	-41.4	-42.3	21.4	0.00e+00	0	41	0	2958032896	54	3995
2026-01-22 00:07:09.40	118.58	10.00	-41.5	-42.4	21.2	0.00e+00	0	41	0	2974810112	54	4040
2026-01-22 00:07:12.43	119.01	9.84	-41.5	-42.4	21.3	0.00e+00	0	41	0	2992635904	54	4027
2026-01-22 00:07:15.45	119.43	9.68	-41.6	-42.6	21.1	0.00e+00	0	41	0	3009413120	54	4102
2026-01-22 00:07:18.48	119.85	9.51	-41.7	-42.7	21.0	0.00e+00	0	41	0	3026190336	54	4159
2026-01-22 00:07:21.50	120.26	9.35	-42.0	-43.0	20.7	0.00e+00	0	41	0	3042967552	54	4296
2026-01-22 00:07:24.53	120.67	9.19	-42.2	-43.2	20.4	0.00e+00	0	41	0	3059744768	54	4399
2026-01-22 00:07:27.56	121.07	9.02	-42.1	-43.1	20.4	0.00e+00	0	41	0	3077570560	54	4389
2026-01-22 00:07:30.59	121.47	8.86	-42.1	-43.1	20.5	0.00e+00	0	40	0	3094347776	55	4121
2026-01-22 00:07:33.61	121.86	8.69	-42.2	-43.2	20.4	0.00e+00	0	41	0	3111124992	55	4164
2026-01-22 00:07:36.64	122.26	8.53	-42.0	-43.0	20.5	0.00e+00	0	41	0	3127902208	55	4075
2026-01-22 00:07:39.66	122.64	8.36	-42.0	-43.0	20.5	0.00e+00	0	41	0	3144679424	55	4083
2026-01-22 00:07:42.69	123.02	8.20	-42.1	-43.1	20.4	0.00e+00	0	41	0	3162505216	55	4140
2026-01-22 00:07:45.71	123.40	8.03	-42.4	-43.5	20.0	0.00e+00	0	41	0	3179282432	55	4309
2026-01-22 00:07:48.74	123.77	7.87	-42.4	-43.4	20.0	0.00e+00	0	41	0	3196059648	55	4289
2026-01-22 00:07:51.76	124.14	7.70	-42.5	-43.5	20.0	0.00e+00	0	41	0	3212836864	55	4318
2026-01-22 00:07:54.79	124.51	7.54	-42.2	-43.2	20.2	0.00e+00	0	41	0	3230662656	55	4171
2026-01-22 00:07:57.81	124.87	7.38	-42.4	-43.4	20.0	0.00e+00	0	41	0	3247439872	55	4277
2026-01-22 00:08:00.84	125.23	7.21	-42.4	-43.4	20.0	0.00e+00	0	41	0	3264217088	55	4265
2026-01-22 00:08:03.86	125.58	7.05	-42.4	-43.4	20.0	0.00e+00	0	41	0	3280994304	55	4273
2026-01-22 00:08:06.89	125.93	6.88	-42.5	-43.6	19.8	0.00e+00	0	41	0	3298820096	55	4354
2026-01-22 00:08:09.91	126.28	6.72	-42.8	-43.9	19.5	0.00e+00	0	41	0	3315597312	56	4272
2026-01-22 00:08:12.94	126.62	6.56	-42.9	-44.0	19.4	0.00e+00	0	41	0	3332374528	56	4305
2026-01-22 00:08:15.97	126.96	6.39	-42.7	-43.8	19.6	0.00e+00	0	41	0	3349151744	56	4205
2026-01-22 00:08:18.99	127.30	6.23	-42.8	-43.9	19.5	0.00e+00	0	41	0	3366977536	56	4247
2026-01-22 00:08:22.01	127.63	6.07	-42.7	-43.8	19.5	0.00e+00	0	41	0	3383754752	56	4215
2026-01-22 00:08:25.04	127.96	5.90	-42.9	-44.0	19.4	0.00e+00	0	41	0	3400531968	56	4298
2026-01-22 00:08:28.06	128.28	5.74	-43.3	-44.4	19.0	0.00e+00	0	41	0	3417309184	57	4276
2026-01-22 00:08:31.09	128.60	5.58	-43.3	-44.4	18.9	0.00e+00	0	41	0	3435134976	57	4274
2026-01-22 00:08:34.11	128.92	5.42	-43.3	-44.5	18.8	0.00e+00	0	41	0	3451912192	57	4328
2026-01-22 00:08:37.13	129.23	5.26	-43.1	-44.2	19.1	0.00e+00	0	41	0	3468689408	57	4163
2026-01-22 00:08:40.15	129.54	5.10	-43.0	-44.1	19.1	0.00e+00	0	41	0	3485466624	57	4121
2026-01-22 00:08:43.18	129.85	4.93	-52.7	-64.7	3.8	8.46e-01	0	41	104	3494903808	75	15631
2026-01-22 00:08:46.20	130.16	4.77	-53.3	-65.2	3.8	8.46e-01	0	41	104	3494903808	77	14856
2026-01-22 00:08:49.23	130.46	4.61	-53.6	-65.6	3.8	8.48e-01	0	41	104	3494903808	77	15436
2026-01-22 00:08:52.25	130.76	4.45	-53.9	-65.8	3.8	8.47e-01	0	41	104	3494903808	78	15023
2026-01-22 00:08:55.28	131.05	4.29	-54.1	-66.0	3.8	8.46e-01	0	41	104	3494903808	78	15398
2026-01-22 00:08:58.30	131.35	4.13	-54.2	-66.2	3.8	8.46e-01	0	41	104	3494903808	78	15647
2026-01-22 00:09:01.32	131.63	3.98	-54.3	-66.3	3.8	8.46e-01	0	41	104	3494903808	79	14934
2026-01-22 00:09:04.34	131.92	3.82	-54.4	-66.4	3.8	8.45e-01	0	41	104	3494903808	79	15093
2026-01-22 00:09:07.37	132.20	3.66	-54.4	-66.4	3.8	8.46e-01	0	41	104	3494903808	79	15186
2026-01-22 00:09:10.40	132.48	3.50	-54.5	-66.5	3.8	8.47e-01	0	41	104	3494903808	79	15312
2026-01-22 00:09:13.42	132.76	3.34	-54.6	-66.6	3.8	8.46e-01	0	41	104	3494903808	79	15411
2026-01-22 00:09:16.45	133.04	3.19	-54.5	-66.5	3.8	8.46e-01	0	41	104	3494903808	79	15378
2026-01-22 00:09:19.47	133.31	3.03	-54.5	-66.5	3.8	8.46e-01	0	41	104	3494903808	79	15238
2026-01-22 00:09:22.50	133.58	2.87	-54.4	-66.4	3.8	8.47e-01	0	41	104	3494903808	79	15142
2026-01-22 00:09:25.52	133.84	2.72	-54.3	-66.3	3.8	8.46e-01	0	41	104	3494903808	79	14969
2026-01-22 00:09:28.55	134.11	2.56	-54.1	-66.1	3.8	8.48e-01	0	41	104	3494903808	79	14636
2026-01-22 00:09:31.57	134.37	2.41	-53.9	-65.9	3.8	8.46e-01	0	41	104	3494903808	79	14300
2026-01-22 00:09:34.59	134.63	2.25	-53.5	-65.5	3.8	8.46e-01	0	41	104	3494903808	79	13593
2026-01-22 00:09:37.62	134.88	2.10	-53.4	-65.4	3.8	8.47e-01	0	41	104	3494903808	78	14250

#Closed at: 2026-01-22 00:09:40
#Recorded file [3494 MB]: D:/lorett/data/31041_260122_025731.dat