passes_logs/2026/01/21/R3.2S_Murmansk/R3.2S_Murmansk__20260121_091608_SUOMI_NPP_rec.log

#Pass ID: 20260121_091608_SUOMI NPP
#Satellite: SUOMI NPP
#Configuration: NPP
#almurnet v.1.7.20251203
#Start time: 2026-01-21 09:16:09

#Version: 2.2.20231116
#Station: R3.2S_Murmansk
#Location: 33.079688 lon 68.888172 lat
#TLE: 1 37849U 11061A   26020.95430537  .00000198  00000+0  11470-3 0  9999
#TLE: 2 37849  98.7819 322.9518 0002315  53.3069 306.8320 14.19527555737555

#Time	Az	El	Level	Level2	SNR	BER	BlckErr	Temp	State	Recorded	gain1	gain2
2026-01-21 09:16:09.17	143.78	2.05	-54.3	-69.3	3.8	1.49e+00	0	38	0	0	79	21129
2026-01-21 09:16:13.05	143.76	2.31	-54.5	-69.5	3.8	1.49e+00	0	38	104	0	79	21576
2026-01-21 09:16:16.93	143.74	2.56	-54.4	-69.4	3.8	1.49e+00	0	38	104	0	79	21380
2026-01-21 09:16:20.81	143.71	2.81	-54.2	-69.2	3.8	1.49e+00	0	39	104	0	79	20994
2026-01-21 09:16:24.70	143.69	3.07	-54.0	-69.0	3.8	1.49e+00	0	38	104	0	79	20369
2026-01-21 09:16:28.59	143.66	3.33	-53.6	-68.6	3.8	1.49e+00	0	39	104	0	79	19446
2026-01-21 09:16:32.47	143.64	3.59	-52.8	-67.7	3.8	1.49e+00	0	39	104	0	77	19782
2026-01-21 09:16:36.35	143.61	3.86	-52.3	-64.5	4.0	1.49e+00	0	39	104	0	76	14403
2026-01-21 09:16:40.23	143.58	4.13	-51.0	-56.5	9.7	6.72e-02	0	39	0	6291456	73	6814
2026-01-21 09:16:44.11	143.56	4.40	-49.1	-52.2	14.1	3.89e-05	0	39	0	13631488	70	4955
2026-01-21 09:16:48.01	143.53	4.67	-48.3	-50.8	15.6	0.00e+00	0	39	0	20971520	68	4709
2026-01-21 09:16:51.90	143.50	4.95	-48.5	-51.2	15.0	0.00e+00	0	39	0	28311552	67	5273
2026-01-21 09:16:55.79	143.47	5.23	-50.9	-56.3	10.2	1.29e-05	0	39	0	35651584	72	7076
2026-01-21 09:16:59.67	143.44	5.51	-47.5	-49.6	16.7	0.00e+00	0	39	0	42991616	66	4621
2026-01-21 09:17:03.56	143.40	5.79	-47.2	-49.1	17.1	0.00e+00	0	39	0	50331648	66	4389
2026-01-21 09:17:07.45	143.37	6.08	-47.3	-49.2	17.2	0.00e+00	0	39	0	56623104	65	4689
2026-01-21 09:17:11.34	143.34	6.37	-46.9	-48.8	17.6	0.00e+00	0	39	0	63963136	65	4446
2026-01-21 09:17:15.23	143.30	6.67	-46.9	-48.8	17.7	0.00e+00	0	39	0	71303168	65	4455
2026-01-21 09:17:19.12	143.27	6.97	-46.7	-48.5	18.0	0.00e+00	0	39	0	78643200	65	4307
2026-01-21 09:17:23.00	143.23	7.27	-46.5	-48.2	18.2	0.00e+00	0	39	0	85983232	65	4184
2026-01-21 09:17:26.88	143.19	7.57	-46.9	-48.7	17.9	0.00e+00	0	39	0	93323264	64	4652
2026-01-21 09:17:30.77	143.15	7.88	-46.5	-48.2	18.4	0.00e+00	0	40	0	100663296	64	4392
2026-01-21 09:17:34.65	143.11	8.20	-46.3	-47.9	18.7	0.00e+00	0	39	0	108003328	64	4280
2026-01-21 09:17:38.55	143.07	8.51	-46.6	-48.2	18.4	0.00e+00	0	40	0	115343360	64	4431
2026-01-21 09:17:42.43	143.03	8.83	-46.1	-47.7	19.0	0.00e+00	0	40	0	122683392	64	4165
2026-01-21 09:17:46.31	142.98	9.16	-46.2	-47.7	18.9	0.00e+00	0	40	0	130023424	64	4181
2026-01-21 09:17:50.20	142.94	9.49	-46.2	-47.8	18.9	0.00e+00	0	40	0	137363456	64	4195
2026-01-21 09:17:54.08	142.89	9.82	-46.2	-47.8	18.9	0.00e+00	0	40	0	144703488	64	4200
2026-01-21 09:17:57.96	142.85	10.16	-46.1	-47.6	19.1	0.00e+00	0	40	0	152043520	64	4138
2026-01-21 09:18:01.85	142.80	10.50	-46.1	-47.5	19.3	0.00e+00	0	40	0	159383552	63	4334
2026-01-21 09:18:05.73	142.75	10.85	-46.0	-47.5	19.3	0.00e+00	0	40	0	166723584	63	4331
2026-01-21 09:18:09.61	142.69	11.20	-46.1	-47.5	19.3	0.00e+00	0	40	0	174063616	63	4338
2026-01-21 09:18:13.49	142.64	11.56	-46.0	-47.5	19.4	0.00e+00	0	40	0	181403648	63	4300
2026-01-21 09:18:17.38	142.58	11.92	-46.0	-47.4	19.4	0.00e+00	0	40	0	188743680	63	4286
2026-01-21 09:18:21.26	142.53	12.29	-45.9	-47.4	19.5	0.00e+00	0	40	0	195035136	63	4280
2026-01-21 09:18:25.14	142.47	12.66	-45.7	-47.1	19.8	0.00e+00	0	40	0	202375168	63	4132
2026-01-21 09:18:29.02	142.41	13.04	-45.7	-47.0	19.9	0.00e+00	0	40	0	209715200	63	4098
2026-01-21 09:18:32.91	142.34	13.42	-45.4	-46.8	20.1	0.00e+00	0	40	0	217055232	62	4218
2026-01-21 09:18:36.80	142.28	13.82	-45.3	-46.6	20.3	0.00e+00	0	40	0	224395264	62	4107
2026-01-21 09:18:40.68	142.21	14.21	-45.6	-47.0	20.0	0.00e+00	0	40	0	231735296	62	4302
2026-01-21 09:18:44.56	142.14	14.62	-45.4	-46.7	20.2	0.00e+00	0	40	0	239075328	62	4172
2026-01-21 09:18:48.45	142.07	15.03	-45.0	-46.4	20.3	0.00e+00	0	40	0	246415360	62	4032
2026-01-21 09:18:52.34	142.00	15.45	-44.9	-46.3	20.4	0.00e+00	0	40	0	253755392	61	4218
2026-01-21 09:18:56.23	141.92	15.88	-44.6	-45.9	20.8	0.00e+00	0	40	0	261095424	61	4027
2026-01-21 09:19:00.11	141.84	16.31	-44.4	-45.7	21.0	0.00e+00	0	40	0	268435456	60	4167
2026-01-21 09:19:04.01	141.76	16.75	-44.4	-45.7	21.0	0.00e+00	0	40	0	275775488	60	4148
2026-01-21 09:19:07.88	141.68	17.20	-44.2	-45.5	21.2	0.00e+00	0	40	0	283115520	60	4056
2026-01-21 09:19:11.76	141.59	17.65	-44.4	-45.7	21.1	0.00e+00	0	40	0	290455552	60	4170
2026-01-21 09:19:15.66	141.50	18.12	-44.5	-45.8	20.9	0.00e+00	0	40	0	297795584	60	4220
2026-01-21 09:19:19.54	141.41	18.60	-44.3	-45.5	21.2	0.00e+00	0	40	0	305135616	60	4079
2026-01-21 09:19:23.42	141.31	19.08	-44.3	-45.5	21.3	0.00e+00	0	40	0	312475648	60	4058
2026-01-21 09:19:27.30	141.21	19.57	-44.4	-45.7	21.1	0.00e+00	0	40	0	319815680	60	4154
2026-01-21 09:19:31.19	141.10	20.08	-44.5	-45.7	21.1	0.00e+00	0	40	0	327155712	60	4193
2026-01-21 09:19:35.07	141.00	20.59	-44.3	-45.6	21.2	0.00e+00	0	40	0	333447168	60	4114
2026-01-21 09:19:38.95	140.88	21.11	-44.5	-45.7	21.1	0.00e+00	0	40	0	340787200	60	4176
2026-01-21 09:19:42.84	140.77	21.65	-44.2	-45.4	21.4	0.00e+00	0	40	0	348127232	60	4015
2026-01-21 09:19:46.73	140.64	22.19	-44.5	-45.7	21.1	0.00e+00	0	40	0	355467264	60	4177
2026-01-21 09:19:50.61	140.52	22.75	-44.4	-45.6	21.2	0.00e+00	0	40	0	362807296	60	4115
2026-01-21 09:19:54.49	140.39	23.32	-44.6	-45.8	21.1	0.00e+00	0	40	0	370147328	60	4234
2026-01-21 09:19:58.37	140.25	23.90	-44.2	-45.4	21.4	0.00e+00	0	40	0	377487360	60	4037
2026-01-21 09:20:02.26	140.11	24.50	-44.5	-45.7	21.2	0.00e+00	0	40	0	384827392	60	4185
2026-01-21 09:20:06.16	139.96	25.11	-45.0	-46.4	20.6	0.00e+00	0	40	0	392167424	60	4497
2026-01-21 09:20:10.05	139.80	25.74	-45.2	-46.5	20.5	0.00e+00	0	40	0	399507456	61	4331
2026-01-21 09:20:13.92	139.64	26.38	-44.5	-45.7	21.3	0.00e+00	0	40	0	406847488	60	4163
2026-01-21 09:20:17.81	139.47	27.03	-44.5	-45.7	21.3	0.00e+00	0	40	0	414187520	60	4152
2026-01-21 09:20:21.70	139.29	27.70	-45.2	-46.5	20.6	0.00e+00	0	40	0	421527552	62	4090
2026-01-21 09:20:25.59	139.11	28.39	-45.1	-46.3	20.8	0.00e+00	0	40	0	428867584	62	4001
2026-01-21 09:20:29.46	138.92	29.09	-45.3	-46.7	20.5	0.00e+00	0	40	0	436207616	61	4394
2026-01-21 09:20:33.35	138.71	29.81	-45.9	-47.4	19.8	0.00e+00	0	40	0	443547648	62	4518
2026-01-21 09:20:37.23	138.50	30.55	-46.1	-47.6	19.6	0.00e+00	0	40	0	450887680	63	4375
2026-01-21 09:20:41.12	138.27	31.31	-46.0	-47.4	19.9	0.00e+00	0	40	0	458227712	63	4269
2026-01-21 09:20:44.99	138.04	32.08	-46.9	-48.6	18.6	0.00e+00	0	40	0	464519168	64	4631
2026-01-21 09:20:48.87	137.79	32.88	-47.6	-49.4	17.9	0.00e+00	0	40	0	471859200	66	4545
2026-01-21 09:20:52.75	137.53	33.69	-47.8	-49.8	17.6	0.00e+00	0	40	0	479199232	66	4720
2026-01-21 09:20:56.64	137.25	34.54	-47.8	-49.9	17.4	0.00e+00	0	40	0	486539264	67	4531
2026-01-21 09:21:00.53	136.96	35.40	-47.0	-48.8	18.6	0.00e+00	0	40	0	493879296	65	4462
2026-01-21 09:21:04.40	136.66	36.28	-47.2	-49.1	18.1	0.00e+00	0	40	0	501219328	65	4650
2026-01-21 09:21:08.28	136.33	37.19	-47.5	-49.5	17.8	0.00e+00	0	40	0	508559360	66	4584
2026-01-21 09:21:12.16	135.99	38.12	-45.3	-46.6	20.6	0.00e+00	0	40	0	515899392	61	4366
2026-01-21 09:21:16.05	135.62	39.08	-46.0	-47.5	19.8	0.00e+00	0	40	0	523239424	62	4549
2026-01-21 09:21:19.93	135.23	40.06	-46.4	-48.0	19.2	0.00e+00	0	40	0	530579456	64	4318
2026-01-21 09:21:23.82	134.81	41.08	-46.2	-47.7	19.5	0.00e+00	0	40	0	537919488	63	4440
2026-01-21 09:21:27.70	134.37	42.11	-46.1	-47.6	19.5	0.00e+00	0	40	0	545259520	64	4136
2026-01-21 09:21:31.58	133.89	43.18	-47.6	-49.9	17.5	0.00e+00	0	40	0	552599552	65	5047
2026-01-21 09:21:35.46	133.39	44.27	-47.8	-50.3	17.1	0.00e+00	0	40	0	559939584	66	4985
2026-01-21 09:21:39.35	132.84	45.39	-45.7	-47.2	20.0	0.00e+00	0	40	0	567279616	63	4159
2026-01-21 09:21:43.24	132.25	46.55	-46.4	-48.1	19.3	0.00e+00	0	40	0	574619648	63	4612
2026-01-21 09:21:47.12	131.62	47.72	-46.0	-47.6	19.7	0.00e+00	0	40	0	581959680	63	4362
2026-01-21 09:21:51.00	130.93	48.93	-46.0	-47.5	19.9	0.00e+00	0	40	0	588251136	63	4321
2026-01-21 09:21:54.89	130.19	50.17	-45.4	-46.7	20.5	0.00e+00	0	40	0	595591168	62	4189
2026-01-21 09:21:58.77	129.38	51.44	-44.9	-46.2	21.0	0.00e+00	0	40	0	602931200	61	4164
2026-01-21 09:22:02.66	128.50	52.73	-46.2	-47.9	19.6	0.00e+00	0	40	0	610271232	63	4499
2026-01-21 09:22:06.55	127.53	54.06	-45.5	-46.9	20.3	0.00e+00	0	40	0	617611264	62	4272
2026-01-21 09:22:10.44	126.47	55.40	-46.0	-47.7	19.5	0.00e+00	0	40	0	624951296	63	4421
2026-01-21 09:22:14.33	125.30	56.78	-44.4	-45.6	21.5	0.00e+00	0	40	0	632291328	60	4107
2026-01-21 09:22:18.23	124.00	58.17	-45.3	-46.7	20.3	0.00e+00	0	40	0	639631360	61	4419
2026-01-21 09:22:22.12	122.55	59.58	-46.0	-47.6	19.9	0.00e+00	0	40	0	646971392	62	4600
2026-01-21 09:22:26.00	120.95	61.00	-45.7	-47.0	20.4	0.00e+00	0	40	0	654311424	63	4094
2026-01-21 09:22:29.89	119.14	62.44	-44.2	-45.3	21.9	0.00e+00	0	40	0	661651456	60	3992
2026-01-21 09:22:33.77	117.12	63.87	-44.5	-45.7	21.5	0.00e+00	0	40	0	668991488	60	4156
2026-01-21 09:22:37.65	114.82	65.29	-44.7	-45.9	21.5	0.00e+00	0	40	0	676331520	59	4511
2026-01-21 09:22:41.53	112.21	66.70	-45.9	-47.2	20.1	0.00e+00	0	40	0	683671552	63	4191
2026-01-21 09:22:45.43	109.22	68.10	-46.3	-47.8	19.8	0.00e+00	0	40	0	691011584	63	4477
2026-01-21 09:22:49.33	105.79	69.44	-48.9	-51.3	16.4	0.00e+00	0	40	0	698351616	68	5031
2026-01-21 09:22:53.25	101.83	70.74	-47.0	-48.7	18.7	0.00e+00	0	40	0	705691648	65	4427
2026-01-21 09:22:57.23	97.20	71.96	-46.2	-47.7	19.9	0.00e+00	0	40	0	713031680	63	4394
2026-01-21 09:23:01.22	91.88	73.08	-44.4	-45.5	21.9	0.00e+00	0	40	0	720371712	60	4069
2026-01-21 09:23:05.21	85.82	74.04	-45.7	-47.0	20.5	0.00e+00	0	40	0	727711744	62	4337
2026-01-21 09:23:09.19	79.05	74.82	-46.0	-47.3	20.4	0.00e+00	0	40	0	735051776	62	4479
2026-01-21 09:23:13.19	71.60	75.37	-48.5	-50.5	17.3	0.00e+00	0	40	0	742391808	67	4861
2026-01-21 09:23:17.15	63.76	75.67	-46.8	-48.4	19.3	0.00e+00	0	40	0	749731840	65	4249
2026-01-21 09:23:21.08	55.80	75.70	-47.6	-49.4	18.3	0.00e+00	0	40	0	758120448	66	4536
2026-01-21 09:23:25.02	47.93	75.46	-45.0	-46.2	21.2	0.00e+00	0	40	0	765460480	61	4178
2026-01-21 09:23:29.00	40.39	74.97	-47.1	-48.8	18.9	0.00e+00	0	40	0	772800512	65	4456
2026-01-21 09:23:33.02	33.39	74.24	-45.0	-46.1	21.5	0.00e+00	0	40	0	780140544	61	4106
2026-01-21 09:23:37.00	27.19	73.32	-47.9	-49.7	18.0	0.00e+00	0	40	0	787480576	67	4433
2026-01-21 09:23:40.99	21.70	72.24	-49.1	-51.6	16.4	0.00e+00	0	40	0	794820608	69	4876
2026-01-21 09:23:44.99	16.90	71.03	-48.1	-50.0	17.5	0.00e+00	0	40	0	802160640	67	4593
2026-01-21 09:23:48.97	12.75	69.73	-47.4	-49.1	18.5	0.00e+00	0	40	0	809500672	65	4612
2026-01-21 09:23:52.98	9.13	68.36	-46.5	-48.0	19.4	0.00e+00	0	40	0	817889280	64	4326
2026-01-21 09:23:57.01	5.96	66.93	-47.0	-48.7	18.8	0.00e+00	0	40	0	825229312	65	4403
2026-01-21 09:24:01.04	3.21	65.47	-44.8	-45.9	21.5	0.00e+00	0	40	0	832569344	61	4033
2026-01-21 09:24:05.07	0.79	64.00	-43.7	-44.8	22.6	0.00e+00	0	40	0	839909376	59	3959
2026-01-21 09:24:09.11	358.67	62.51	-44.7	-45.9	21.3	0.00e+00	0	40	0	847249408	60	4265
2026-01-21 09:24:13.14	356.80	61.03	-45.5	-46.8	20.8	0.00e+00	0	40	0	855638016	62	4213
2026-01-21 09:24:17.18	355.13	59.55	-48.4	-50.5	17.1	0.00e+00	0	40	0	862978048	67	4868
2026-01-21 09:24:21.20	353.65	58.10	-45.8	-47.2	20.3	0.00e+00	0	40	0	870318080	62	4392
2026-01-21 09:24:25.23	352.32	56.66	-46.0	-47.5	20.0	0.00e+00	0	40	0	877658112	62	4579
2026-01-21 09:24:29.26	351.12	55.25	-45.3	-46.6	20.8	0.00e+00	0	40	0	884998144	61	4369
2026-01-21 09:24:33.29	350.04	53.86	-45.8	-47.3	20.2	0.00e+00	0	40	0	893386752	62	4474
2026-01-21 09:24:37.33	349.05	52.49	-45.5	-47.0	20.3	0.00e+00	0	40	0	900726784	61	4581
2026-01-21 09:24:41.36	348.16	51.16	-48.0	-50.3	17.2	0.00e+00	0	40	0	908066816	66	4997
2026-01-21 09:24:45.38	347.34	49.86	-45.9	-47.3	20.2	0.00e+00	0	40	0	915406848	63	4216
2026-01-21 09:24:49.42	346.59	48.59	-46.3	-47.8	19.6	0.00e+00	0	40	0	923795456	64	4236
2026-01-21 09:24:53.45	345.90	47.34	-47.2	-49.0	18.4	0.00e+00	0	40	0	931135488	65	4560
2026-01-21 09:24:57.48	345.26	46.13	-48.3	-50.5	17.2	0.00e+00	0	40	0	938475520	67	4827
2026-01-21 09:25:01.51	344.67	44.96	-45.2	-46.4	21.0	0.00e+00	0	40	0	945815552	62	4043
2026-01-21 09:25:05.54	344.12	43.81	-48.0	-50.0	17.6	0.00e+00	0	40	0	953155584	66	4838
2026-01-21 09:25:09.57	343.61	42.69	-46.5	-48.0	19.3	0.00e+00	0	40	0	961544192	65	4090
2026-01-21 09:25:13.61	343.14	41.60	-49.6	-52.7	15.1	0.00e+00	0	40	0	968884224	69	5581
2026-01-21 09:25:17.63	342.70	40.55	-45.9	-47.4	20.1	0.00e+00	0	40	0	976224256	63	4256
2026-01-21 09:25:21.67	342.28	39.52	-47.3	-49.1	18.4	0.00e+00	0	40	0	983564288	65	4637
2026-01-21 09:25:25.70	341.89	38.51	-47.5	-49.4	18.1	0.00e+00	0	40	0	990904320	66	4529
2026-01-21 09:25:29.73	341.53	37.54	-46.4	-48.0	19.5	0.00e+00	0	40	0	999292928	64	4294
2026-01-21 09:25:33.76	341.19	36.59	-46.5	-48.1	19.3	0.00e+00	0	40	0	1006632960	64	4360
2026-01-21 09:25:37.79	340.86	35.67	-47.3	-49.2	18.1	0.00e+00	0	40	0	1013972992	65	4693
2026-01-21 09:25:41.83	340.56	34.77	-47.6	-49.5	17.9	0.00e+00	0	40	0	1021313024	66	4579
2026-01-21 09:25:45.86	340.27	33.90	-46.4	-47.9	19.4	0.00e+00	0	40	0	1028653056	64	4262
2026-01-21 09:25:49.89	340.00	33.05	-46.9	-48.5	18.9	0.00e+00	0	40	0	1037041664	65	4328
2026-01-21 09:25:53.92	339.74	32.22	-47.1	-48.7	18.8	0.00e+00	0	40	0	1044381696	65	4410
2026-01-21 09:25:57.95	339.50	31.42	-47.3	-49.0	18.5	0.00e+00	0	40	0	1051721728	65	4556
2026-01-21 09:26:01.99	339.27	30.63	-47.2	-48.9	18.5	0.00e+00	0	40	0	1059061760	65	4523
2026-01-21 09:26:06.02	339.05	29.87	-47.3	-49.1	18.3	0.00e+00	0	40	0	1066401792	65	4607
2026-01-21 09:26:10.05	338.84	29.13	-47.3	-49.0	18.3	0.00e+00	0	40	0	1074790400	65	4590
2026-01-21 09:26:14.08	338.64	28.40	-45.9	-47.3	20.0	0.00e+00	0	40	0	1082130432	63	4231
2026-01-21 09:26:18.11	338.45	27.69	-46.1	-47.5	19.8	0.00e+00	0	40	0	1089470464	63	4338
2026-01-21 09:26:22.14	338.27	27.00	-46.3	-47.8	19.4	0.00e+00	0	40	0	1096810496	64	4216
2026-01-21 09:26:26.17	338.10	26.33	-45.5	-46.8	20.4	0.00e+00	0	40	0	1105199104	62	4234
2026-01-21 09:26:30.21	337.93	25.67	-45.6	-46.9	20.3	0.00e+00	0	40	0	1112539136	62	4275
2026-01-21 09:26:34.24	337.77	25.03	-45.7	-47.0	20.2	0.00e+00	0	40	0	1119879168	62	4330
2026-01-21 09:26:38.27	337.62	24.40	-46.1	-47.6	19.7	0.00e+00	0	40	0	1127219200	62	4612
2026-01-21 09:26:42.30	337.48	23.79	-47.0	-48.7	18.6	0.00e+00	0	40	0	1134559232	64	4677
2026-01-21 09:26:46.33	337.34	23.19	-47.2	-49.0	18.2	0.00e+00	0	40	0	1142947840	65	4598
2026-01-21 09:26:50.36	337.21	22.61	-46.7	-48.3	18.8	0.00e+00	0	40	0	1150287872	65	4232
2026-01-21 09:26:54.39	337.08	22.04	-45.4	-46.7	20.4	0.00e+00	0	40	0	1157627904	62	4162
2026-01-21 09:26:58.43	336.96	21.47	-45.0	-46.2	20.8	0.00e+00	0	40	0	1164967936	61	4190
2026-01-21 09:27:02.46	336.84	20.93	-45.1	-46.4	20.6	0.00e+00	0	40	0	1172307968	61	4289
2026-01-21 09:27:06.49	336.73	20.39	-45.2	-46.5	20.5	0.00e+00	0	40	0	1180696576	61	4334
2026-01-21 09:27:10.52	336.62	19.87	-44.9	-46.1	20.8	0.00e+00	0	40	0	1188036608	61	4128
2026-01-21 09:27:14.56	336.52	19.35	-44.6	-45.9	21.1	0.00e+00	0	40	0	1195376640	61	4018
2026-01-21 09:27:18.58	336.42	18.85	-44.9	-46.2	20.7	0.00e+00	0	40	0	1202716672	61	4186
2026-01-21 09:27:22.62	336.32	18.35	-46.1	-47.6	19.4	0.00e+00	0	40	0	1210056704	62	4648
2026-01-21 09:27:26.64	336.23	17.87	-47.3	-49.3	17.7	0.00e+00	0	40	0	1218445312	65	4738
2026-01-21 09:27:30.68	336.14	17.40	-48.0	-50.3	16.8	0.00e+00	0	40	0	1225785344	66	4990
2026-01-21 09:27:34.71	336.05	16.93	-48.3	-50.7	16.6	0.00e+00	0	40	0	1233125376	67	4932
2026-01-21 09:27:38.74	335.97	16.47	-47.9	-50.2	16.8	0.00e+00	0	40	0	1240465408	67	4658
2026-01-21 09:27:42.77	335.89	16.02	-47.7	-49.8	17.2	1.50e-06	0	40	0	1248854016	67	4492
2026-01-21 09:27:46.80	335.81	15.58	-47.8	-49.9	17.1	2.20e-06	0	40	0	1256194048	67	4527
2026-01-21 09:27:50.83	335.74	15.15	-47.8	-50.0	17.0	0.00e+00	0	40	0	1263534080	66	4850
2026-01-21 09:27:54.86	335.67	14.72	-47.6	-49.8	17.2	0.00e+00	0	40	0	1270874112	66	4712
2026-01-21 09:27:58.89	335.60	14.31	-46.9	-48.8	18.0	0.00e+00	0	40	0	1278214144	65	4478
2026-01-21 09:28:02.93	335.53	13.89	-46.7	-48.4	18.4	0.00e+00	0	40	0	1285554176	65	4290
2026-01-21 09:28:06.95	335.47	13.49	-46.4	-48.1	18.7	0.00e+00	0	40	0	1293942784	64	4353
2026-01-21 09:28:10.99	335.40	13.09	-46.2	-47.9	18.9	0.00e+00	0	40	0	1301282816	64	4270
2026-01-21 09:28:15.02	335.34	12.70	-46.4	-48.0	18.8	0.00e+00	0	40	0	1308622848	63	4587
2026-01-21 09:28:19.05	335.28	12.31	-46.0	-47.6	19.2	0.00e+00	0	40	0	1315962880	63	4354
2026-01-21 09:28:23.08	335.23	11.93	-46.4	-48.1	18.7	0.00e+00	0	40	0	1324351488	63	4614
2026-01-21 09:28:27.11	335.17	11.56	-46.5	-48.2	18.7	0.00e+00	0	40	0	1331691520	63	4654
2026-01-21 09:28:31.14	335.12	11.19	-46.5	-48.2	18.5	0.00e+00	0	40	0	1339031552	64	4413
2026-01-21 09:28:35.17	335.07	10.83	-46.6	-48.4	18.3	0.00e+00	0	40	0	1346371584	64	4510
2026-01-21 09:28:39.20	335.02	10.47	-46.7	-48.4	18.3	0.00e+00	0	40	0	1353711616	64	4542
2026-01-21 09:28:43.23	334.97	10.12	-46.6	-48.4	18.3	0.00e+00	0	40	0	1362100224	64	4497
2026-01-21 09:28:47.26	334.93	9.77	-46.5	-48.3	18.2	0.00e+00	0	40	0	1369440256	64	4460
2026-01-21 09:28:51.30	334.88	9.43	-46.7	-48.5	18.1	0.00e+00	0	40	0	1376780288	64	4580
2026-01-21 09:28:55.33	334.84	9.09	-46.6	-48.4	18.2	5.30e-06	0	40	0	1384120320	64	4532
2026-01-21 09:28:59.36	334.79	8.76	-46.6	-48.4	18.1	0.00e+00	0	40	0	1391460352	64	4545
2026-01-21 09:29:03.39	334.75	8.43	-46.5	-48.3	18.3	0.00e+00	0	40	0	1399848960	64	4479
2026-01-21 09:29:07.42	334.71	8.11	-46.8	-48.6	17.9	1.06e-05	0	40	0	1407188992	64	4640
2026-01-21 09:29:11.45	334.68	7.78	-46.9	-48.9	17.7	0.00e+00	0	40	0	1414529024	64	4768
2026-01-21 09:29:15.48	334.64	7.47	-46.8	-48.7	17.8	0.00e+00	0	40	0	1421869056	64	4696
2026-01-21 09:29:19.52	334.60	7.15	-47.1	-49.1	17.4	0.00e+00	0	40	0	1429209088	65	4618
2026-01-21 09:29:23.55	334.57	6.84	-47.2	-49.3	17.2	0.00e+00	0	40	0	1437597696	65	4717
2026-01-21 09:29:27.58	334.53	6.54	-47.3	-49.4	17.1	0.00e+00	0	40	0	1444937728	65	4778
2026-01-21 09:29:31.61	334.50	6.24	-47.6	-49.8	16.6	0.00e+00	0	40	0	1452277760	65	5037
2026-01-21 09:29:35.64	334.47	5.94	-47.8	-50.2	16.2	0.00e+00	0	40	0	1459617792	66	4943
2026-01-21 09:29:39.68	334.44	5.64	-47.7	-50.0	16.3	0.00e+00	0	40	0	1468006400	66	4864
2026-01-21 09:29:43.71	334.41	5.35	-47.8	-50.3	15.9	0.00e+00	0	40	0	1475346432	66	5005
2026-01-21 09:29:47.74	334.38	5.06	-48.1	-50.9	14.8	0.00e+00	0	40	0	1482686464	66	5375
2026-01-21 09:29:51.77	334.35	4.78	-53.4	-68.4	3.8	1.49e+00	0	40	104	1484783616	77	21303
2026-01-21 09:29:55.80	334.33	4.49	-53.7	-68.7	3.8	1.49e+00	0	40	104	1484783616	77	22102
2026-01-21 09:29:59.83	334.30	4.22	-53.5	-68.5	3.8	1.49e+00	0	40	104	1484783616	77	21691
2026-01-21 09:30:03.87	334.28	3.94	-53.5	-68.5	3.8	1.49e+00	0	40	104	1484783616	77	21635
2026-01-21 09:30:07.90	334.25	3.66	-53.6	-68.6	3.8	1.49e+00	0	40	104	1484783616	77	21854
2026-01-21 09:30:11.93	334.23	3.39	-53.6	-68.6	3.8	1.49e+00	0	40	104	1484783616	77	21762
2026-01-21 09:30:15.96	334.21	3.12	-53.5	-68.5	3.8	1.49e+00	0	40	104	1484783616	77	21683
2026-01-21 09:30:19.99	334.18	2.86	-53.5	-68.5	3.8	1.49e+00	0	40	104	1484783616	77	21671
2026-01-21 09:30:24.02	334.16	2.59	-53.5	-68.5	3.8	1.49e+00	0	40	104	1484783616	77	21599
2026-01-21 09:30:28.05	334.14	2.33	-53.5	-68.5	3.8	1.49e+00	0	40	104	1484783616	77	21591
2026-01-21 09:30:32.09	334.12	2.07	-53.5	-68.5	3.8	1.49e+00	0	40	104	1484783616	77	21558

#Closed at: 2026-01-21 09:30:35
#Recorded file [1484 MB]: D:/lorett/data/31041_260121_121608.dat