passes_logs/2026/01/21/R3.2S_Murmansk/R3.2S_Murmansk__20260121_225057_KANOPUS-V_5_rec.log

#Pass ID: 20260121_225057_KANOPUS-V 5
#Satellite: KANOPUS-V 5
#Configuration: KANOPUS-V_8320
#almurnet v.1.7.20251203
#Start time: 2026-01-21 22:50:56

#Version: 2.2.20231116
#Station: R3.2S_Murmansk
#Location: 33.079688 lon 68.888172 lat
#TLE: 1 43876U 18111A   26021.54180787  .00007275  00000+0  30771-3 0  9992
#TLE: 2 43876  97.3683 289.9378 0001818  88.0577 272.0869 15.23499060392462

#Time	Az	El	Level	Level2	SNR	BER	BlckErr	Temp	State	Recorded	gain1	gain2
2026-01-21 22:50:56.55	21.06	1.97	-54.8	-63.7	3.8	7.45e-01	0	39	0	0	80	10420
2026-01-21 22:50:59.56	20.99	2.17	-55.0	-63.9	3.8	7.46e-01	0	39	104	0	80	10743
2026-01-21 22:51:02.59	20.92	2.39	-55.1	-63.9	3.8	7.45e-01	0	39	104	0	80	10701
2026-01-21 22:51:05.62	20.85	2.60	-55.1	-63.9	3.8	7.45e-01	0	39	104	0	80	10678
2026-01-21 22:51:08.64	20.78	2.82	-54.9	-63.7	3.8	7.45e-01	0	39	104	0	80	10527
2026-01-21 22:51:11.67	20.70	3.04	-54.8	-63.6	3.8	7.45e-01	0	40	104	0	80	10377
2026-01-21 22:51:14.70	20.63	3.26	-54.6	-63.4	3.8	7.43e-01	0	40	104	0	80	10111
2026-01-21 22:51:17.72	20.55	3.48	-54.1	-63.0	3.8	7.46e-01	0	40	104	0	80	9647
2026-01-21 22:51:20.75	20.47	3.71	-53.3	-62.1	3.8	7.46e-01	0	40	104	0	78	9757
2026-01-21 22:51:23.77	20.39	3.93	-53.3	-62.1	3.8	7.45e-01	0	40	104	0	78	9762
2026-01-21 22:51:26.79	20.31	4.16	-53.3	-62.1	3.8	7.45e-01	0	40	104	0	78	9751
2026-01-21 22:51:29.82	20.22	4.40	-53.3	-62.1	3.8	7.46e-01	0	40	104	0	78	9811
2026-01-21 22:51:32.84	20.14	4.63	-53.3	-62.1	3.8	7.47e-01	0	40	104	0	78	9763
2026-01-21 22:51:35.87	20.05	4.87	-53.3	-62.0	3.8	7.45e-01	0	40	104	0	78	9694
2026-01-21 22:51:38.90	19.96	5.11	-53.3	-62.1	3.8	7.46e-01	0	40	104	0	78	9788
2026-01-21 22:51:41.92	19.86	5.36	-53.4	-62.2	3.8	7.46e-01	0	40	104	0	78	9853
2026-01-21 22:51:44.94	19.77	5.60	-53.3	-62.1	3.8	7.44e-01	0	40	104	0	78	9773
2026-01-21 22:51:47.97	19.67	5.86	-53.4	-62.2	3.8	7.45e-01	0	40	104	0	78	9900
2026-01-21 22:51:50.99	19.57	6.11	-53.3	-62.1	3.8	7.47e-01	0	40	104	0	78	9776
2026-01-21 22:51:54.01	19.47	6.37	-53.4	-62.3	3.8	7.45e-01	0	40	104	0	78	9947
2026-01-21 22:51:57.04	19.36	6.63	-53.4	-62.2	3.8	7.46e-01	0	40	104	0	78	9888
2026-01-21 22:52:00.07	19.25	6.89	-53.5	-62.3	3.8	7.44e-01	0	40	104	0	78	9965
2026-01-21 22:52:03.10	19.14	7.16	-53.4	-62.2	3.8	7.45e-01	0	40	104	0	78	9899
2026-01-21 22:52:06.13	19.03	7.43	-53.6	-62.4	3.8	7.45e-01	0	40	104	0	78	10109
2026-01-21 22:52:09.15	18.91	7.70	-53.5	-62.3	3.8	7.48e-01	0	41	104	0	78	9978
2026-01-21 22:52:12.17	18.79	7.98	-53.6	-62.4	3.8	7.45e-01	0	40	104	0	78	10134
2026-01-21 22:52:15.19	18.67	8.27	-53.5	-62.3	3.8	7.44e-01	0	40	104	0	78	10041
2026-01-21 22:52:18.22	18.54	8.55	-53.6	-62.4	3.8	7.45e-01	0	41	104	0	78	10169
2026-01-21 22:52:21.25	18.41	8.84	-53.6	-62.4	3.8	7.46e-01	0	41	104	0	78	10112
2026-01-21 22:52:24.28	18.28	9.14	-53.6	-62.5	3.8	7.43e-01	0	41	104	0	78	10201
2026-01-21 22:52:27.30	18.14	9.44	-53.6	-62.5	3.8	7.45e-01	0	41	104	0	78	10191
2026-01-21 22:52:30.33	18.00	9.75	-53.8	-62.6	3.8	7.45e-01	0	41	104	0	78	10312
2026-01-21 22:52:33.35	17.85	10.06	-53.7	-62.5	3.8	7.47e-01	0	41	104	0	78	10278
2026-01-21 22:52:36.38	17.70	10.37	-53.7	-62.6	3.8	7.47e-01	0	41	104	0	78	10342
2026-01-21 22:52:39.40	17.55	10.69	-53.7	-62.6	3.8	7.46e-01	0	41	104	0	78	10310
2026-01-21 22:52:42.42	17.39	11.02	-53.8	-62.6	3.8	7.45e-01	0	41	104	0	78	10365
2026-01-21 22:52:45.45	17.23	11.35	-53.7	-62.6	3.8	7.44e-01	0	41	104	0	78	10310
2026-01-21 22:52:48.47	17.06	11.69	-53.8	-62.6	3.8	7.46e-01	0	41	104	0	78	10373
2026-01-21 22:52:51.50	16.89	12.03	-53.8	-62.6	3.8	7.44e-01	0	41	104	0	78	10388
2026-01-21 22:52:54.52	16.71	12.38	-53.8	-62.7	3.8	7.45e-01	0	41	104	0	78	10420
2026-01-21 22:52:57.54	16.52	12.74	-53.9	-62.7	3.8	7.45e-01	0	41	104	0	78	10449
2026-01-21 22:53:00.56	16.33	13.10	-53.9	-62.7	3.8	7.46e-01	0	41	104	0	78	10469
2026-01-21 22:53:03.59	16.14	13.47	-53.9	-62.7	3.8	7.45e-01	0	41	104	0	78	10507
2026-01-21 22:53:06.62	15.93	13.85	-53.9	-62.7	3.8	7.44e-01	0	41	104	0	78	10522
2026-01-21 22:53:09.64	15.72	14.24	-54.0	-62.8	3.8	7.44e-01	0	41	104	0	78	10587
2026-01-21 22:53:12.67	15.51	14.63	-54.0	-62.8	3.8	7.45e-01	0	41	104	0	78	10583
2026-01-21 22:53:15.69	15.28	15.03	-54.0	-62.8	3.8	7.45e-01	0	41	104	0	78	10618
2026-01-21 22:53:18.71	15.05	15.44	-54.0	-62.8	3.8	7.45e-01	0	41	104	0	78	10597
2026-01-21 22:53:21.74	14.81	15.86	-54.0	-62.8	3.8	7.46e-01	0	41	104	0	78	10653
2026-01-21 22:53:24.76	14.56	16.29	-54.0	-62.8	3.8	7.45e-01	0	41	104	0	78	10619
2026-01-21 22:53:27.78	14.30	16.72	-54.1	-62.9	3.8	7.46e-01	0	41	104	0	78	10681
2026-01-21 22:53:30.80	14.04	17.17	-54.0	-62.8	3.8	7.45e-01	0	41	104	0	78	10633
2026-01-21 22:53:33.83	13.76	17.63	-54.1	-62.9	3.8	7.45e-01	0	41	104	0	78	10751
2026-01-21 22:53:36.86	13.47	18.10	-54.1	-62.9	3.8	7.45e-01	0	41	104	0	78	10739
2026-01-21 22:53:39.88	13.17	18.57	-54.1	-62.9	3.8	7.44e-01	0	41	104	0	78	10750
2026-01-21 22:53:42.91	12.86	19.07	-54.1	-62.9	3.8	7.45e-01	0	41	104	0	78	10755
2026-01-21 22:53:45.93	12.54	19.57	-54.2	-63.0	3.8	7.44e-01	0	41	104	0	78	10851
2026-01-21 22:53:48.95	12.21	20.08	-54.2	-63.0	3.8	7.46e-01	0	41	104	0	78	10796
2026-01-21 22:53:51.98	11.86	20.61	-54.2	-63.0	3.8	7.44e-01	0	41	104	0	78	10837
2026-01-21 22:53:55.01	11.49	21.15	-54.2	-63.0	3.8	7.46e-01	0	41	104	0	78	10804
2026-01-21 22:53:58.03	11.12	21.70	-54.2	-63.1	3.8	7.45e-01	0	41	104	0	79	10311
2026-01-21 22:54:01.06	10.72	22.27	-54.2	-63.0	3.8	7.45e-01	0	41	104	0	79	10257
2026-01-21 22:54:04.09	10.31	22.85	-54.3	-63.1	3.8	7.45e-01	0	41	104	0	79	10343
2026-01-21 22:54:07.11	9.87	23.45	-54.3	-63.1	3.8	7.44e-01	0	41	104	0	79	10335
2026-01-21 22:54:10.14	9.42	24.06	-54.3	-63.2	3.8	7.45e-01	0	41	104	0	79	10416
2026-01-21 22:54:13.16	8.95	24.69	-54.3	-63.1	3.8	7.44e-01	0	41	104	0	79	10376
2026-01-21 22:54:16.18	8.46	25.34	-54.3	-63.1	3.8	7.45e-01	0	41	104	0	79	10395
2026-01-21 22:54:19.21	7.94	26.01	-54.3	-63.1	3.8	7.43e-01	0	41	104	0	79	10363
2026-01-21 22:54:22.23	7.40	26.69	-54.4	-63.2	3.8	7.45e-01	0	41	104	0	79	10468
2026-01-21 22:54:25.26	6.82	27.39	-54.3	-63.1	3.8	7.45e-01	0	41	104	0	79	10400
2026-01-21 22:54:28.28	6.23	28.11	-54.4	-63.2	3.8	7.45e-01	0	41	104	0	79	10479
2026-01-21 22:54:31.31	5.59	28.85	-54.4	-63.2	3.8	7.45e-01	0	41	104	0	79	10491
2026-01-21 22:54:34.33	4.93	29.61	-54.4	-63.3	3.8	7.45e-01	0	41	104	0	79	10540
2026-01-21 22:54:37.36	4.23	30.40	-54.5	-63.3	3.8	7.44e-01	0	41	104	0	79	10564
2026-01-21 22:54:40.38	3.49	31.20	-54.5	-63.3	3.8	7.44e-01	0	41	104	0	79	10574
2026-01-21 22:54:43.41	2.70	32.02	-54.5	-63.3	3.8	7.45e-01	0	41	104	0	79	10626
2026-01-21 22:54:46.43	1.88	32.87	-54.5	-63.3	3.8	7.45e-01	0	41	104	0	79	10646
2026-01-21 22:54:49.46	1.00	33.74	-54.6	-63.4	3.8	7.46e-01	0	41	104	0	79	10736
2026-01-21 22:54:52.49	0.07	34.63	-54.6	-63.4	3.8	7.45e-01	0	41	104	0	79	10769
2026-01-21 22:54:55.51	359.09	35.54	-54.6	-63.4	3.8	7.45e-01	0	41	104	0	79	10708
2026-01-21 22:54:58.54	358.04	36.47	-54.6	-63.4	3.8	7.44e-01	0	41	104	0	79	10762
2026-01-21 22:55:01.56	356.93	37.42	-54.7	-63.5	3.8	7.45e-01	0	41	104	0	79	10867
2026-01-21 22:55:04.59	355.74	38.40	-54.7	-63.5	3.8	7.45e-01	0	41	104	0	79	10825
2026-01-21 22:55:07.61	354.47	39.39	-54.7	-63.5	3.8	7.44e-01	0	41	104	0	79	10865
2026-01-21 22:55:10.63	353.12	40.40	-54.7	-63.5	3.8	7.46e-01	0	41	104	0	80	10215
2026-01-21 22:55:13.66	351.68	41.42	-54.7	-63.5	3.8	7.45e-01	0	41	104	0	80	10265
2026-01-21 22:55:16.68	350.14	42.45	-54.7	-63.5	3.8	7.45e-01	0	41	104	0	80	10223
2026-01-21 22:55:19.71	348.49	43.50	-54.7	-63.5	3.8	7.46e-01	0	41	104	0	80	10293
2026-01-21 22:55:22.73	346.72	44.54	-54.8	-63.6	3.8	7.44e-01	0	41	104	0	80	10353
2026-01-21 22:55:25.76	344.82	45.59	-54.8	-63.6	3.8	7.44e-01	0	41	104	0	80	10377
2026-01-21 22:55:28.79	342.79	46.63	-54.8	-63.7	3.8	7.43e-01	0	41	104	0	80	10420
2026-01-21 22:55:31.81	340.62	47.66	-54.8	-63.6	3.8	7.46e-01	0	41	104	0	80	10410
2026-01-21 22:55:34.83	338.30	48.67	-54.8	-63.6	3.8	7.47e-01	0	41	104	0	80	10406
2026-01-21 22:55:37.86	335.81	49.65	-54.9	-63.7	3.8	7.45e-01	0	41	104	0	80	10454
2026-01-21 22:55:40.89	333.15	50.60	-54.9	-63.7	3.8	7.46e-01	0	41	104	0	80	10478
2026-01-21 22:55:43.91	330.33	51.50	-54.9	-63.8	3.8	7.44e-01	0	41	104	0	80	10546
2026-01-21 22:55:46.94	327.33	52.34	-54.9	-63.8	3.8	7.45e-01	0	41	104	0	80	10549
2026-01-21 22:55:49.96	324.16	53.11	-55.0	-63.8	3.8	7.45e-01	0	41	104	0	80	10596
2026-01-21 22:55:52.98	320.82	53.79	-55.0	-63.8	3.8	7.45e-01	0	41	104	0	80	10598
2026-01-21 22:55:56.01	317.32	54.39	-55.0	-63.8	3.8	7.45e-01	0	41	104	0	80	10601
2026-01-21 22:55:59.03	313.69	54.88	-55.0	-63.8	3.8	7.45e-01	0	41	104	0	80	10625
2026-01-21 22:56:02.06	309.93	55.27	-55.0	-63.9	3.8	7.45e-01	0	41	104	0	80	10659
2026-01-21 22:56:05.08	306.10	55.53	-55.0	-63.9	3.8	7.45e-01	0	41	104	0	80	10696
2026-01-21 22:56:08.10	302.21	55.66	-55.0	-63.9	3.8	7.46e-01	0	41	104	0	80	10676
2026-01-21 22:56:11.12	298.30	55.67	-55.0	-63.9	3.8	7.46e-01	0	41	104	0	80	10682
2026-01-21 22:56:14.15	294.39	55.54	-55.1	-63.9	3.8	7.46e-01	0	41	104	0	80	10710
2026-01-21 22:56:17.17	290.55	55.30	-55.1	-63.9	3.8	7.45e-01	0	41	104	0	80	10712
2026-01-21 22:56:20.20	286.78	54.92	-55.1	-63.9	3.8	7.46e-01	0	41	104	0	80	10704
2026-01-21 22:56:23.22	283.13	54.44	-55.0	-63.8	3.8	7.44e-01	0	41	104	0	80	10612
2026-01-21 22:56:26.24	279.63	53.85	-55.0	-63.9	3.8	7.46e-01	0	41	104	0	80	10688
2026-01-21 22:56:29.27	276.26	53.17	-55.0	-63.8	3.8	7.44e-01	0	41	104	0	80	10649
2026-01-21 22:56:32.29	273.07	52.41	-55.0	-63.9	3.8	7.45e-01	0	41	104	0	80	10668
2026-01-21 22:56:35.31	270.06	51.57	-55.0	-63.8	3.8	7.45e-01	0	41	104	0	80	10578
2026-01-21 22:56:38.34	267.20	50.68	-55.0	-63.8	3.8	7.45e-01	0	41	104	0	80	10599
2026-01-21 22:56:41.36	264.53	49.74	-55.0	-63.8	3.8	7.46e-01	0	41	104	0	80	10642
2026-01-21 22:56:44.38	262.03	48.76	-54.9	-63.8	3.8	7.46e-01	0	41	104	0	80	10572
2026-01-21 22:56:47.41	259.68	47.75	-54.9	-63.7	3.8	7.47e-01	0	41	104	0	80	10480
2026-01-21 22:56:50.43	257.50	46.72	-54.9	-63.7	3.8	7.45e-01	0	41	104	0	80	10503
2026-01-21 22:56:53.45	255.46	45.67	-54.9	-63.7	3.8	7.45e-01	0	41	104	0	80	10513
2026-01-21 22:56:56.48	253.54	44.62	-54.9	-63.7	3.8	7.44e-01	0	41	104	0	80	10476
2026-01-21 22:56:59.50	251.76	43.57	-54.8	-63.6	3.8	7.46e-01	0	41	104	0	80	10390
2026-01-21 22:57:02.53	250.09	42.52	-54.8	-63.7	3.8	7.46e-01	0	41	104	0	80	10418
2026-01-21 22:57:05.55	248.54	41.49	-54.8	-63.7	3.8	7.45e-01	0	41	104	0	80	10424
2026-01-21 22:57:08.57	247.09	40.46	-54.8	-63.6	3.8	7.45e-01	0	41	104	0	80	10368
2026-01-21 22:57:11.60	245.73	39.45	-54.7	-63.6	3.8	7.45e-01	0	41	104	0	80	10302
2026-01-21 22:57:14.62	244.45	38.45	-54.7	-63.6	3.8	7.45e-01	0	41	104	0	80	10312
2026-01-21 22:57:17.64	243.26	37.48	-54.7	-63.5	3.8	7.46e-01	0	41	104	0	80	10253
2026-01-21 22:57:20.67	242.13	36.52	-54.7	-63.5	3.8	7.45e-01	0	41	104	0	80	10234
2026-01-21 22:57:23.69	241.08	35.58	-54.6	-63.5	3.8	7.43e-01	0	41	104	0	80	10191
2026-01-21 22:57:26.71	240.09	34.67	-54.6	-63.5	3.8	7.45e-01	0	41	104	0	80	10182
2026-01-21 22:57:29.74	239.15	33.77	-54.6	-63.5	3.8	7.45e-01	0	41	104	0	80	10196
2026-01-21 22:57:32.76	238.27	32.90	-54.6	-63.4	3.8	7.46e-01	0	41	104	0	80	10138
2026-01-21 22:57:35.79	237.43	32.05	-54.5	-63.4	3.8	7.44e-01	0	41	104	0	80	10073
2026-01-21 22:57:38.81	236.64	31.22	-54.5	-63.4	3.8	7.46e-01	0	41	104	0	80	10080
2026-01-21 22:57:41.83	235.90	30.41	-54.5	-63.4	3.8	7.45e-01	0	41	104	0	80	10078
2026-01-21 22:57:44.86	235.19	29.62	-54.5	-63.4	3.8	7.44e-01	0	41	104	0	80	10064
2026-01-21 22:57:47.88	234.52	28.86	-54.5	-63.3	3.8	7.44e-01	0	41	104	0	80	10000
2026-01-21 22:57:50.91	233.89	28.11	-54.5	-63.3	3.8	7.46e-01	0	41	104	0	80	10006
2026-01-21 22:57:53.93	233.28	27.39	-54.4	-63.3	3.8	7.47e-01	0	41	104	0	80	9983
2026-01-21 22:57:56.96	232.71	26.68	-54.4	-63.3	3.8	7.45e-01	0	41	104	0	80	9945
2026-01-21 22:57:59.98	232.16	26.00	-54.4	-63.2	3.8	7.45e-01	0	41	104	0	80	9938
2026-01-21 22:58:03.01	231.64	25.33	-54.3	-63.2	3.8	7.44e-01	0	41	104	0	80	9879
2026-01-21 22:58:06.03	231.14	24.68	-54.3	-63.2	3.8	7.44e-01	0	41	104	0	80	9871
2026-01-21 22:58:09.06	230.66	24.04	-54.3	-63.1	3.8	7.47e-01	0	41	104	0	80	9824
2026-01-21 22:58:12.08	230.21	23.43	-54.3	-63.1	3.8	7.46e-01	0	41	104	0	80	9802
2026-01-21 22:58:15.11	229.77	22.82	-54.3	-63.1	3.8	7.46e-01	0	41	104	0	80	9812
2026-01-21 22:58:18.13	229.36	22.24	-54.3	-63.1	3.8	7.45e-01	0	41	104	0	80	9800
2026-01-21 22:58:21.15	228.96	21.67	-54.3	-63.1	3.8	7.45e-01	0	41	104	0	80	9761
2026-01-21 22:58:24.18	228.58	21.11	-54.2	-63.1	3.8	7.46e-01	0	41	104	0	80	9742
2026-01-21 22:58:27.20	228.21	20.57	-54.2	-63.0	3.8	7.44e-01	0	42	104	0	80	9703
2026-01-21 22:58:30.23	227.86	20.04	-54.2	-63.0	3.8	7.46e-01	0	41	104	0	80	9716
2026-01-21 22:58:33.26	227.52	19.52	-54.2	-63.0	3.8	7.45e-01	0	42	104	0	80	9666
2026-01-21 22:58:36.28	227.20	19.02	-54.1	-63.0	3.8	7.46e-01	0	41	104	0	80	9612
2026-01-21 22:58:39.30	226.89	18.53	-54.1	-63.0	3.8	7.45e-01	0	41	104	0	80	9650
2026-01-21 22:58:42.33	226.58	18.04	-54.1	-62.9	3.8	7.45e-01	0	41	104	0	80	9589
2026-01-21 22:58:45.35	226.30	17.58	-54.1	-62.9	3.8	7.45e-01	0	41	104	0	80	9588
2026-01-21 22:58:48.38	226.02	17.12	-54.1	-62.9	3.8	7.44e-01	0	41	104	0	80	9578
2026-01-21 22:58:51.40	225.75	16.67	-54.1	-62.9	3.8	7.44e-01	0	41	104	0	80	9549
2026-01-21 22:58:54.43	225.49	16.23	-54.0	-62.9	3.8	7.44e-01	0	41	104	0	80	9500
2026-01-21 22:58:57.45	225.24	15.80	-54.0	-62.8	3.8	7.45e-01	0	42	104	0	80	9491
2026-01-21 22:59:00.47	225.00	15.38	-54.0	-62.8	3.8	7.46e-01	0	41	104	0	80	9480
2026-01-21 22:59:03.50	224.76	14.97	-54.0	-62.9	3.8	7.45e-01	0	41	104	0	79	10120
2026-01-21 22:59:06.52	224.54	14.56	-54.0	-62.8	3.8	7.46e-01	0	41	104	0	79	10056
2026-01-21 22:59:09.55	224.32	14.17	-54.0	-62.8	3.8	7.46e-01	0	41	104	0	79	10013
2026-01-21 22:59:12.57	224.10	13.78	-53.9	-62.8	3.8	7.44e-01	0	41	104	0	79	9984
2026-01-21 22:59:15.60	223.90	13.40	-54.0	-62.8	3.8	7.46e-01	0	41	104	0	79	9988
2026-01-21 22:59:18.62	223.70	13.03	-53.9	-62.8	3.8	7.44e-01	0	41	104	0	79	9960
2026-01-21 22:59:21.64	223.51	12.67	-53.9	-62.7	3.8	7.46e-01	0	42	104	0	79	9879
2026-01-21 22:59:24.67	223.32	12.31	-53.8	-62.7	3.8	7.45e-01	0	42	104	0	79	9841
2026-01-21 22:59:27.69	223.14	11.96	-53.9	-62.7	3.8	7.45e-01	0	42	104	0	79	9873
2026-01-21 22:59:30.71	222.97	11.61	-53.8	-62.6	3.8	7.44e-01	0	41	104	0	79	9811
2026-01-21 22:59:33.74	222.80	11.27	-53.8	-62.6	3.8	7.45e-01	0	42	104	0	79	9770
2026-01-21 22:59:36.76	222.63	10.94	-53.7	-62.6	3.8	7.44e-01	0	42	104	0	79	9754
2026-01-21 22:59:39.79	222.47	10.61	-53.8	-62.6	3.8	7.45e-01	0	41	104	0	79	9745
2026-01-21 22:59:42.81	222.32	10.29	-53.7	-62.6	3.8	7.45e-01	0	41	104	0	79	9745
2026-01-21 22:59:45.83	222.16	9.97	-53.6	-62.5	3.8	7.45e-01	0	42	104	0	79	9637
2026-01-21 22:59:48.86	222.02	9.66	-53.6	-62.5	3.8	7.46e-01	0	41	104	0	79	9626
2026-01-21 22:59:51.88	221.87	9.36	-53.6	-62.4	3.8	7.45e-01	0	42	104	0	79	9604
2026-01-21 22:59:54.91	221.73	9.05	-53.6	-62.5	3.8	7.45e-01	0	42	104	0	79	9613
2026-01-21 22:59:57.93	221.60	8.76	-53.5	-62.3	3.8	7.45e-01	0	41	104	0	79	9440
2026-01-21 23:00:00.96	221.47	8.46	-53.5	-62.3	3.8	7.45e-01	0	41	104	0	79	9439
2026-01-21 23:00:03.99	221.34	8.18	-53.5	-62.3	3.8	7.47e-01	0	42	104	0	78	10018
2026-01-21 23:00:07.01	221.21	7.89	-53.5	-62.3	3.8	7.46e-01	0	42	104	0	78	9994
2026-01-21 23:00:10.04	221.09	7.61	-53.3	-62.2	3.8	7.46e-01	0	42	104	0	78	9857
2026-01-21 23:00:13.06	220.97	7.34	-53.3	-62.1	3.8	7.47e-01	0	41	104	0	78	9828
2026-01-21 23:00:16.09	220.86	7.06	-53.3	-62.1	3.8	7.45e-01	0	42	104	0	78	9798
2026-01-21 23:00:19.11	220.74	6.80	-53.3	-62.2	3.8	7.45e-01	0	41	104	0	78	9881
2026-01-21 23:00:22.14	220.63	6.53	-53.2	-62.0	3.8	7.47e-01	0	41	104	0	78	9645
2026-01-21 23:00:25.17	220.53	6.27	-53.2	-62.0	3.8	7.46e-01	0	41	104	0	78	9651
2026-01-21 23:00:28.20	220.42	6.01	-53.2	-62.0	3.8	7.44e-01	0	41	104	0	78	9682
2026-01-21 23:00:31.22	220.32	5.76	-53.2	-62.0	3.8	7.45e-01	0	41	104	0	78	9705
2026-01-21 23:00:34.25	220.22	5.51	-53.0	-61.8	3.8	7.44e-01	0	42	104	0	78	9483
2026-01-21 23:00:37.27	220.12	5.26	-52.9	-61.8	3.8	7.44e-01	0	41	104	0	77	9968
2026-01-21 23:00:40.30	220.03	5.01	-53.0	-61.8	3.8	7.45e-01	0	41	104	0	77	10040
2026-01-21 23:00:43.32	219.93	4.77	-54.0	-62.9	3.8	7.47e-01	0	41	104	0	78	10698
2026-01-21 23:00:46.35	219.84	4.53	-54.4	-63.3	3.8	7.46e-01	0	41	104	0	79	10543
2026-01-21 23:00:49.38	219.76	4.30	-54.6	-63.4	3.8	7.45e-01	0	41	104	0	79	10718
2026-01-21 23:00:52.40	219.67	4.06	-54.6	-63.5	3.8	7.45e-01	0	42	104	0	79	10809
2026-01-21 23:00:55.43	219.58	3.83	-54.7	-63.5	3.8	7.46e-01	0	42	104	0	79	10809
2026-01-21 23:00:58.45	219.50	3.60	-54.6	-63.4	3.8	7.45e-01	0	41	104	0	79	10769
2026-01-21 23:01:01.48	219.42	3.38	-54.4	-63.2	3.8	7.44e-01	0	42	104	0	79	10531
2026-01-21 23:01:04.50	219.34	3.15	-54.3	-63.1	3.8	7.46e-01	0	42	104	0	79	10386
2026-01-21 23:01:07.53	219.26	2.93	-54.3	-63.1	3.8	7.45e-01	0	41	104	0	79	10363
2026-01-21 23:01:10.56	219.19	2.71	-54.3	-63.1	3.8	7.45e-01	0	42	104	0	79	10332
2026-01-21 23:01:13.58	219.11	2.49	-54.3	-63.1	3.8	7.44e-01	0	41	104	0	79	10295
2026-01-21 23:01:16.61	219.04	2.28	-54.3	-63.1	3.8	7.45e-01	0	42	104	0	79	10346
2026-01-21 23:01:19.63	218.97	2.07	-54.2	-63.1	3.8	7.45e-01	0	42	104	0	79	10294

#Closed at: 2026-01-21 23:01:22
#Recorded file [0 MB]: D:/lorett/data/31041_260122_015056.dat