passes_logs/2026/01/21/R3.2S_Murmansk/R3.2S_Murmansk__20260121_200346_JL1KF02B07_rec.log

#Pass ID: 20260121_200346_JL1KF02B07
#Satellite: JL1KF02B07
#Configuration: 01B_900M
#almurnet v.1.7.20251203
#Start time: 2026-01-21 20:03:47

#Version: 2.2.20231116
#Station: R3.2S_Murmansk
#Location: 33.079688 lon 68.888172 lat
#TLE: 1 65939U 25226B   26020.89886288  .00033261  00000+0  20820-2 0  9994
#TLE: 2 65939  97.6530  99.8959 0018064 279.8018  80.1170 15.09176210 15350

#Time	Az	El	Level	Level2	SNR	BER	BlckErr	Temp	State	Recorded	gain1	gain2
2026-01-21 20:03:47.25	185.36	2.02	-54.5	-56.6	6.2	0.00e+00	0	42	0	0	80	18552
2026-01-21 20:03:50.16	185.51	2.22	-54.8	-56.9	6.2	0.00e+00	0	41	104	0	80	19168
2026-01-21 20:03:53.07	185.66	2.41	-54.7	-56.9	6.2	0.00e+00	0	42	104	0	80	19062
2026-01-21 20:03:55.98	185.81	2.61	-54.7	-56.8	6.2	0.00e+00	0	41	104	0	80	18915
2026-01-21 20:03:58.89	185.97	2.81	-54.6	-56.7	6.2	0.00e+00	0	42	104	0	80	18755
2026-01-21 20:04:01.80	186.13	3.01	-54.5	-56.6	6.2	0.00e+00	0	42	104	0	80	18447
2026-01-21 20:04:04.71	186.29	3.21	-54.3	-56.4	6.2	0.00e+00	0	42	104	0	80	18066
2026-01-21 20:04:07.61	186.45	3.42	-54.0	-56.1	6.2	0.00e+00	0	42	104	0	79	18475
2026-01-21 20:04:10.53	186.62	3.62	-53.1	-55.2	6.2	0.00e+00	0	42	104	0	78	17733
2026-01-21 20:04:13.44	186.78	3.83	-53.1	-55.2	6.2	0.00e+00	0	42	104	0	78	17661
2026-01-21 20:04:16.35	186.95	4.04	-53.1	-55.2	6.2	0.00e+00	0	42	104	0	78	17673
2026-01-21 20:04:19.27	187.13	4.25	-53.0	-55.2	6.2	0.00e+00	0	42	104	0	78	17637
2026-01-21 20:04:22.18	187.31	4.47	-53.0	-55.2	6.2	0.00e+00	0	42	104	0	78	17583
2026-01-21 20:04:25.09	187.48	4.68	-53.0	-55.2	6.2	0.00e+00	0	42	104	0	78	17596
2026-01-21 20:04:28.01	187.67	4.90	-53.0	-55.1	6.2	0.00e+00	0	42	104	0	78	17536
2026-01-21 20:04:30.93	187.85	5.12	-53.0	-55.1	6.2	0.00e+00	0	42	104	0	77	18584
2026-01-21 20:04:33.85	188.04	5.34	-53.1	-55.2	6.2	0.00e+00	0	42	104	0	77	18768
2026-01-21 20:04:36.76	188.24	5.57	-53.1	-55.2	6.2	0.00e+00	0	42	104	0	77	18727
2026-01-21 20:04:39.68	188.43	5.80	-52.9	-55.1	6.2	0.00e+00	0	42	104	0	77	18404
2026-01-21 20:04:42.58	188.63	6.02	-52.9	-55.1	6.2	0.00e+00	0	42	104	0	77	18519
2026-01-21 20:04:45.50	188.83	6.25	-53.1	-55.3	6.2	0.00e+00	0	42	104	0	77	18859
2026-01-21 20:04:48.42	189.04	6.49	-52.9	-55.1	6.2	0.00e+00	0	42	104	0	77	18512
2026-01-21 20:04:51.33	189.25	6.72	-52.9	-55.1	6.2	0.00e+00	0	42	104	0	77	18522
2026-01-21 20:04:54.24	189.47	6.96	-53.1	-55.3	6.2	0.00e+00	0	42	104	0	77	18841
2026-01-21 20:04:57.15	189.68	7.20	-53.2	-55.3	6.2	0.00e+00	0	42	104	0	77	18936
2026-01-21 20:05:00.07	189.91	7.45	-53.0	-55.2	6.2	0.00e+00	0	43	104	0	77	18631
2026-01-21 20:05:02.99	190.14	7.69	-53.0	-55.2	6.2	0.00e+00	0	43	104	0	77	18654
2026-01-21 20:05:05.91	190.37	7.94	-53.2	-55.4	6.2	0.00e+00	0	43	104	0	77	19072
2026-01-21 20:05:08.83	190.60	8.20	-53.2	-55.4	6.2	0.00e+00	0	43	104	0	77	19051
2026-01-21 20:05:11.73	190.84	8.45	-53.0	-55.2	6.2	0.00e+00	0	43	104	0	77	18771
2026-01-21 20:05:14.64	191.09	8.71	-49.2	-49.9	6.6	0.00e+00	0	43	104	0	70	15130
2026-01-21 20:05:17.55	191.34	8.97	-47.1	-47.7	6.3	0.00e+00	0	43	104	0	65	15660
2026-01-21 20:05:20.48	191.60	9.23	-48.2	-48.9	6.3	0.00e+00	0	43	104	0	66	17146
2026-01-21 20:05:23.39	191.86	9.50	-50.2	-51.2	6.3	0.00e+00	0	43	104	0	72	15695
2026-01-21 20:05:26.30	192.12	9.77	-46.7	-47.3	6.3	0.00e+00	0	43	104	0	65	14948
2026-01-21 20:05:29.22	192.40	10.04	-52.8	-54.8	6.2	0.00e+00	0	43	104	0	76	18836
2026-01-21 20:05:32.13	192.67	10.32	-33.2	-33.0	16.1	2.47e-05	0	43	0	134217728	38	13759
2026-01-21 20:05:35.04	192.96	10.60	-32.9	-32.7	16.5	1.14e-05	0	43	0	461373440	37	14100
2026-01-21 20:05:37.95	193.25	10.88	-32.8	-32.7	16.5	1.33e-05	0	43	0	796917760	37	13966
2026-01-21 20:05:40.86	193.54	11.17	-32.7	-32.5	16.7	0.00e+00	0	43	0	1124073472	37	13705
2026-01-21 20:05:43.77	193.85	11.46	-32.4	-32.3	16.5	5.70e-06	0	43	0	1451229184	36	14116
2026-01-21 20:05:46.68	194.16	11.75	-32.4	-32.3	16.7	7.60e-06	0	43	0	1778384896	36	14158
2026-01-21 20:05:49.60	194.47	12.05	-32.3	-32.1	16.7	0.00e+00	0	43	0	2105540608	36	13924
2026-01-21 20:05:52.51	194.80	12.35	-32.2	-32.0	17.1	1.90e-06	0	43	0	2432696320	36	13763
2026-01-21 20:05:55.42	195.13	12.66	-32.1	-32.0	17.4	1.90e-06	0	44	0	2759852032	36	13661
2026-01-21 20:05:58.33	195.47	12.97	-32.0	-31.9	17.1	0.00e+00	0	43	0	3087007744	36	13519
2026-01-21 20:06:01.25	195.82	13.28	-29.6	-29.5	16.8	1.71e-05	0	43	0	3422552064	31	13690
2026-01-21 20:06:04.16	196.17	13.60	-29.5	-29.3	16.7	5.70e-06	0	43	0	3749707776	30	14177
2026-01-21 20:06:07.08	196.54	13.93	-29.2	-29.1	16.7	3.80e-06	0	43	0	4076863488	30	13858
2026-01-21 20:06:09.99	196.91	14.25	-29.1	-28.9	17.0	7.60e-06	0	43	0	4395630592	30	13595
2026-01-21 20:06:12.90	197.30	14.59	-29.1	-28.9	17.0	5.70e-06	0	43	0	4722786304	30	13585
2026-01-21 20:06:15.81	197.69	14.92	-28.8	-28.7	17.0	3.80e-06	0	43	0	5049942016	29	14024
2026-01-21 20:06:18.72	198.09	15.26	-28.8	-28.6	17.0	5.70e-06	0	43	0	5377097728	29	13902
2026-01-21 20:06:21.64	198.51	15.61	-28.5	-28.3	16.9	1.90e-06	0	44	0	5712642048	29	13475
2026-01-21 20:06:24.56	198.93	15.96	-28.5	-28.3	17.3	1.90e-06	0	43	0	6039797760	28	14202
2026-01-21 20:06:27.46	199.37	16.32	-28.3	-28.1	17.4	0.00e+00	0	43	0	6366953472	28	13894
2026-01-21 20:06:30.38	199.82	16.68	-28.3	-28.1	17.4	0.00e+00	0	44	0	6694109184	28	13935
2026-01-21 20:06:33.29	200.27	17.05	-28.2	-28.0	17.6	0.00e+00	0	44	0	7021264896	28	13732
2026-01-21 20:06:36.21	200.75	17.42	-28.1	-27.9	17.8	0.00e+00	0	44	0	7348420608	28	13599
2026-01-21 20:06:39.12	201.23	17.80	-28.0	-27.9	18.1	0.00e+00	0	43	0	7675576320	28	13477
2026-01-21 20:06:42.04	201.73	18.18	-28.0	-27.8	18.3	1.90e-06	0	44	0	8002732032	27	14191
2026-01-21 20:06:44.95	202.24	18.57	-27.9	-27.7	18.3	0.00e+00	0	44	0	8338276352	27	14077
2026-01-21 20:06:47.85	202.77	18.96	-27.7	-27.6	18.3	0.00e+00	0	43	0	8665432064	27	13831
2026-01-21 20:06:50.77	203.31	19.36	-27.6	-27.4	18.5	0.00e+00	0	44	0	8992587776	27	13566
2026-01-21 20:06:53.68	203.87	19.76	-27.4	-27.2	18.4	0.00e+00	0	44	0	9319743488	26	14102
2026-01-21 20:06:56.60	204.45	20.17	-27.3	-27.1	18.6	0.00e+00	0	44	0	9638510592	26	13889
2026-01-21 20:06:59.51	205.04	20.59	-27.1	-26.9	18.6	0.00e+00	0	44	0	9965666304	26	13593
2026-01-21 20:07:02.43	205.65	21.01	-26.9	-26.7	19.0	0.00e+00	0	44	0	10292822016	25	14011
2026-01-21 20:07:05.34	206.27	21.43	-26.6	-26.4	19.1	0.00e+00	0	44	0	10619977728	25	13630
2026-01-21 20:07:08.25	206.92	21.86	-26.6	-26.4	18.8	0.00e+00	0	44	0	10955522048	25	13612
2026-01-21 20:07:11.16	207.58	22.30	-26.4	-26.2	18.9	0.00e+00	0	44	0	11282677760	24	14028
2026-01-21 20:07:14.07	208.27	22.74	-26.2	-26.0	19.2	0.00e+00	0	44	0	11609833472	24	13766
2026-01-21 20:07:16.99	208.98	23.19	-26.1	-25.9	19.1	0.00e+00	0	43	0	11936989184	24	13585
2026-01-21 20:07:19.90	209.71	23.64	-26.0	-25.8	19.3	0.00e+00	0	44	0	12264144896	23	14228
2026-01-21 20:07:22.82	210.47	24.10	-25.9	-25.7	19.6	0.00e+00	0	44	0	12591300608	23	14080
2026-01-21 20:07:25.73	211.24	24.56	-26.0	-25.9	19.4	0.00e+00	0	44	0	12918456320	23	14305
2026-01-21 20:07:28.63	212.04	25.03	-25.6	-25.4	19.4	0.00e+00	0	44	0	13245612032	23	13596
2026-01-21 20:07:31.55	212.87	25.50	-25.5	-25.3	19.4	0.00e+00	0	44	0	13581156352	22	14225
2026-01-21 20:07:34.47	213.73	25.97	-25.3	-25.1	19.4	0.00e+00	0	44	0	13908312064	22	13924
2026-01-21 20:07:37.39	214.61	26.45	-25.1	-24.9	19.1	0.00e+00	0	44	0	14235467776	22	13627
2026-01-21 20:07:40.30	215.53	26.93	-24.9	-24.8	19.3	0.00e+00	0	44	0	14554234880	21	14175
2026-01-21 20:07:43.21	216.47	27.42	-25.0	-24.8	19.6	0.00e+00	0	44	0	14881390592	21	14209
2026-01-21 20:07:46.12	217.44	27.90	-25.0	-24.9	19.7	0.00e+00	0	44	0	15208546304	21	14313
2026-01-21 20:07:49.03	218.44	28.39	-24.7	-24.5	19.7	0.00e+00	0	44	0	15535702016	21	13702
2026-01-21 20:07:51.95	219.48	28.88	-24.8	-24.6	19.8	0.00e+00	0	44	0	15871246336	21	13938
2026-01-21 20:07:54.86	220.55	29.36	-24.4	-24.3	19.5	0.00e+00	0	44	0	16198402048	20	14134
2026-01-21 20:07:57.77	221.65	29.85	-24.3	-24.1	19.8	0.00e+00	0	44	0	16525557760	20	13890
2026-01-21 20:08:00.68	222.79	30.33	-24.2	-24.0	19.4	0.00e+00	0	44	0	16852713472	20	13733
2026-01-21 20:08:03.60	223.97	30.82	-24.4	-24.2	19.8	0.00e+00	0	44	0	17179869184	20	14068
2026-01-21 20:08:06.51	225.18	31.30	-24.1	-24.0	19.5	0.00e+00	0	44	0	17507024896	20	13685
2026-01-21 20:08:09.41	226.43	31.77	-23.9	-23.7	19.0	0.00e+00	0	44	0	17834180608	19	14057
2026-01-21 20:08:12.32	227.72	32.23	-23.9	-23.7	18.9	0.00e+00	0	44	0	18161336320	19	14004
2026-01-21 20:08:15.24	229.05	32.70	-23.7	-23.5	18.7	0.00e+00	0	44	0	18488492032	19	13738
2026-01-21 20:08:18.15	230.42	33.15	-23.7	-23.5	18.5	0.00e+00	0	44	0	18824036352	19	13726
2026-01-21 20:08:21.06	231.82	33.59	-23.4	-23.2	18.2	0.00e+00	0	44	0	19151192064	18	14038
2026-01-21 20:08:23.97	233.27	34.02	-23.3	-23.1	17.7	0.00e+00	0	44	0	19478347776	18	13895
2026-01-21 20:08:26.87	234.75	34.43	-23.3	-23.1	18.1	0.00e+00	0	44	0	19797114880	18	13944
2026-01-21 20:08:29.78	236.28	34.83	-23.3	-23.1	17.5	0.00e+00	0	44	0	20124270592	18	13937
2026-01-21 20:08:32.70	237.85	35.22	-23.0	-22.9	17.5	0.00e+00	0	44	0	20451426304	18	13520
2026-01-21 20:08:35.62	239.45	35.59	-23.1	-23.0	17.0	0.00e+00	0	44	0	20778582016	18	13656
2026-01-21 20:08:38.52	241.09	35.93	-23.0	-22.8	17.3	0.00e+00	0	44	0	21105737728	17	14228
2026-01-21 20:08:41.44	242.76	36.26	-23.2	-23.0	17.3	0.00e+00	0	44	0	21432893440	17	14562
2026-01-21 20:08:44.35	244.47	36.56	-23.2	-23.0	17.7	0.00e+00	0	44	0	21768437760	17	14529
2026-01-21 20:08:47.26	246.21	36.84	-23.2	-23.0	18.0	0.00e+00	0	44	0	22095593472	17	14500
2026-01-21 20:08:50.16	247.97	37.09	-23.2	-23.0	18.0	0.00e+00	0	44	0	22422749184	17	14519
2026-01-21 20:08:53.08	249.77	37.32	-23.3	-23.1	17.9	0.00e+00	0	44	0	22749904896	17	14713
2026-01-21 20:08:55.99	251.59	37.51	-23.4	-23.2	18.5	0.00e+00	0	44	0	23077060608	17	14837
2026-01-21 20:08:58.90	253.43	37.68	-23.6	-23.4	19.0	0.00e+00	0	44	0	23404216320	17	15270
2026-01-21 20:09:01.81	255.29	37.81	-23.7	-23.5	18.6	0.00e+00	0	44	0	23731372032	18	14518
2026-01-21 20:09:04.72	257.15	37.91	-23.7	-23.6	19.3	0.00e+00	0	44	0	24050139136	18	14643
2026-01-21 20:09:07.63	259.03	37.98	-24.0	-23.8	19.3	0.00e+00	0	44	0	24377294848	18	15115
2026-01-21 20:09:10.55	260.93	38.02	-23.9	-23.8	19.6	0.00e+00	0	44	0	24721227776	18	14955
2026-01-21 20:09:13.47	262.82	38.02	-24.1	-24.0	19.4	0.00e+00	0	44	0	25039994880	19	14461
2026-01-21 20:09:16.37	264.70	37.99	-24.1	-23.9	19.5	0.00e+00	0	44	0	25367150592	19	14435
2026-01-21 20:09:19.29	266.59	37.93	-24.0	-23.8	20.0	0.00e+00	0	44	0	25694306304	19	14190
2026-01-21 20:09:22.21	268.46	37.83	-24.3	-24.2	19.7	0.00e+00	0	44	0	26021462016	19	14814
2026-01-21 20:09:25.12	270.32	37.70	-24.3	-24.2	19.8	0.00e+00	0	44	0	26348617728	19	14802
2026-01-21 20:09:28.05	272.17	37.54	-24.3	-24.1	19.7	0.00e+00	0	44	0	26684162048	19	14654
2026-01-21 20:09:30.96	273.99	37.35	-24.2	-24.0	19.6	0.00e+00	0	44	0	27011317760	19	14556
2026-01-21 20:09:33.86	275.78	37.13	-24.3	-24.1	20.2	0.00e+00	0	44	0	27338473472	19	14743
2026-01-21 20:09:36.77	277.55	36.89	-24.4	-24.2	19.6	0.00e+00	0	44	0	27665629184	19	14841
2026-01-21 20:09:39.69	279.29	36.62	-24.4	-24.3	19.8	0.00e+00	0	44	0	27992784896	19	14976
2026-01-21 20:09:42.60	281.00	36.32	-24.6	-24.4	19.2	0.00e+00	0	44	0	28319940608	19	15243
2026-01-21 20:09:45.51	282.67	36.00	-24.3	-24.1	19.4	0.00e+00	0	44	0	28647096320	19	14679
2026-01-21 20:09:48.43	284.32	35.66	-24.3	-24.1	19.7	0.00e+00	0	44	0	28965863424	19	14658
2026-01-21 20:09:51.34	285.92	35.29	-24.2	-24.1	20.0	0.00e+00	0	44	0	29309796352	19	14635
2026-01-21 20:09:54.25	287.48	34.91	-24.0	-23.8	20.1	0.00e+00	0	44	0	29636952064	19	14259
2026-01-21 20:09:57.16	289.01	34.52	-24.2	-24.0	20.1	0.00e+00	0	44	0	29955719168	19	14579
2026-01-21 20:10:00.08	290.50	34.11	-24.2	-24.0	20.5	0.00e+00	0	44	0	30282874880	19	14574
2026-01-21 20:10:02.99	291.95	33.68	-24.2	-24.0	20.3	0.00e+00	0	44	0	30610030592	19	14596
2026-01-21 20:10:05.91	293.36	33.24	-24.1	-23.9	20.3	0.00e+00	0	44	0	30937186304	19	14437
2026-01-21 20:10:08.81	294.72	32.80	-24.3	-24.1	20.4	0.00e+00	0	44	0	31264342016	19	14666
2026-01-21 20:10:11.72	296.05	32.34	-24.3	-24.1	20.4	0.00e+00	0	44	0	31591497728	19	14701
2026-01-21 20:10:14.63	297.34	31.88	-24.4	-24.2	20.4	0.00e+00	0	44	0	31918653440	19	14902
2026-01-21 20:10:17.54	298.59	31.41	-24.6	-24.4	20.2	0.00e+00	0	44	0	32254197760	19	15175
2026-01-21 20:10:20.46	299.81	30.94	-24.9	-24.7	20.1	0.00e+00	0	44	0	32581353472	20	14922
2026-01-21 20:10:23.37	300.98	30.46	-24.6	-24.4	20.1	0.00e+00	0	44	0	32908509184	20	14436
2026-01-21 20:10:26.28	302.12	29.98	-24.8	-24.7	20.0	0.00e+00	0	44	0	33235664896	20	14777
2026-01-21 20:10:29.19	303.23	29.50	-25.0	-24.8	19.7	0.00e+00	0	44	0	33562820608	20	15038
2026-01-21 20:10:32.11	304.30	29.01	-25.0	-24.8	19.7	0.00e+00	0	44	0	33881587712	20	15025
2026-01-21 20:10:35.02	305.34	28.53	-25.1	-24.9	19.7	0.00e+00	0	44	0	34208743424	20	15287
2026-01-21 20:10:37.92	306.34	28.05	-25.3	-25.1	19.3	0.00e+00	0	44	0	34535899136	21	14670
2026-01-21 20:10:40.83	307.31	27.57	-25.4	-25.3	19.3	0.00e+00	0	44	0	34863054848	21	14975
2026-01-21 20:10:43.75	308.25	27.09	-25.6	-25.4	19.3	0.00e+00	0	44	0	35198599168	21	15204
2026-01-21 20:10:46.66	309.16	26.61	-25.6	-25.5	18.8	0.00e+00	0	44	0	35525754880	21	15327
2026-01-21 20:10:49.57	310.05	26.14	-25.8	-25.7	18.9	0.00e+00	0	44	0	35852910592	22	14783
2026-01-21 20:10:52.49	310.90	25.66	-25.9	-25.8	18.5	0.00e+00	0	44	0	36180066304	22	14982
2026-01-21 20:10:55.40	311.73	25.20	-26.1	-25.9	17.8	0.00e+00	0	44	0	36507222016	22	15230
2026-01-21 20:10:58.31	312.54	24.73	-26.3	-26.1	17.8	0.00e+00	0	44	0	36834377728	23	14720
2026-01-21 20:11:01.22	313.31	24.28	-26.4	-26.2	17.9	0.00e+00	0	44	0	37161533440	23	14853
2026-01-21 20:11:04.13	314.07	23.82	-26.5	-26.4	18.0	0.00e+00	0	44	0	37488689152	23	15145
2026-01-21 20:11:07.05	314.80	23.37	-26.6	-26.4	18.2	0.00e+00	0	44	0	37824233472	23	15266
2026-01-21 20:11:09.96	315.51	22.93	-26.7	-26.6	17.9	0.00e+00	0	44	0	38151389184	24	14640
2026-01-21 20:11:12.87	316.20	22.49	-26.8	-26.6	18.3	0.00e+00	0	44	0	38478544896	24	14703
2026-01-21 20:11:15.79	316.86	22.05	-26.9	-26.7	18.3	0.00e+00	0	44	0	38805700608	24	14923
2026-01-21 20:11:18.71	317.51	21.62	-27.0	-26.9	17.8	0.00e+00	0	44	0	39124467712	24	15125
2026-01-21 20:11:21.62	318.14	21.20	-27.1	-26.9	17.9	0.00e+00	0	44	0	39451623424	24	15215
2026-01-21 20:11:24.54	318.75	20.78	-27.1	-27.0	17.7	0.00e+00	0	44	0	39795556352	24	15368
2026-01-21 20:11:27.45	319.34	20.37	-27.3	-27.2	17.2	0.00e+00	0	44	0	40114323456	25	14842
2026-01-21 20:11:30.37	319.92	19.96	-27.5	-27.3	17.2	1.90e-06	0	44	0	40441479168	25	15036
2026-01-21 20:11:33.28	320.48	19.56	-27.6	-27.4	17.0	3.80e-06	0	44	0	40768634880	25	15274
2026-01-21 20:11:36.19	321.02	19.16	-27.8	-27.7	16.9	0.00e+00	0	44	0	41095790592	26	14815
2026-01-21 20:11:39.10	321.55	18.77	-27.9	-27.8	17.1	0.00e+00	0	44	0	41422946304	26	15014
2026-01-21 20:11:42.02	322.06	18.39	-28.1	-27.9	17.2	0.00e+00	0	44	0	41750102016	26	15254
2026-01-21 20:11:44.93	322.56	18.01	-28.3	-28.2	17.6	1.90e-06	0	44	0	42077257728	27	14843
2026-01-21 20:11:47.84	323.05	17.63	-28.4	-28.3	17.3	0.00e+00	0	44	0	42404413440	27	15002
2026-01-21 20:11:50.76	323.52	17.26	-28.6	-28.4	17.4	1.90e-06	0	44	0	42739957760	27	15269
2026-01-21 20:11:53.67	323.98	16.90	-28.7	-28.6	17.5	1.90e-06	0	44	0	43067113472	28	14614
2026-01-21 20:11:56.58	324.43	16.54	-28.9	-28.7	17.6	1.90e-06	0	44	0	43394269184	28	14872
2026-01-21 20:11:59.49	324.87	16.19	-29.1	-29.0	17.6	0.00e+00	0	44	0	43721424896	28	15316
2026-01-21 20:12:02.40	325.29	15.84	-29.1	-29.0	17.4	0.00e+00	0	44	0	44040192000	28	15379
2026-01-21 20:12:05.32	325.71	15.49	-29.2	-29.1	17.6	0.00e+00	0	44	0	44367347712	29	14641
2026-01-21 20:12:08.22	326.11	15.15	-29.5	-29.3	17.6	1.90e-06	0	44	0	44694503424	29	15091
2026-01-21 20:12:11.14	326.51	14.82	-29.6	-29.5	17.6	0.00e+00	0	44	0	45030047744	30	14510
2026-01-21 20:12:14.05	326.89	14.49	-29.7	-29.6	17.8	3.80e-06	0	44	0	45357203456	30	14638
2026-01-21 20:12:16.96	327.27	14.16	-29.8	-29.7	17.7	1.90e-06	0	44	0	45684359168	30	14850
2026-01-21 20:12:19.87	327.63	13.84	-30.0	-29.9	17.4	0.00e+00	0	44	0	46011514880	30	15203
2026-01-21 20:12:22.78	327.99	13.52	-30.3	-30.1	17.4	1.90e-06	0	44	0	46338670592	31	14712
2026-01-21 20:12:25.69	328.34	13.21	-30.2	-30.0	17.3	0.00e+00	0	44	0	46665826304	31	14558
2026-01-21 20:12:28.61	328.68	12.90	-30.5	-30.3	17.4	3.80e-06	0	44	0	46992982016	31	15055
2026-01-21 20:12:31.53	329.01	12.59	-30.6	-30.4	17.2	5.70e-06	0	44	0	47320137728	31	15243
2026-01-21 20:12:34.44	329.34	12.29	-30.6	-30.4	17.2	5.70e-06	0	44	0	47647293440	31	15268
2026-01-21 20:12:37.35	329.66	12.00	-30.7	-30.6	17.0	9.50e-06	0	44	0	47982837760	32	14610
2026-01-21 20:12:40.27	329.97	11.70	-30.9	-30.7	16.7	1.52e-05	0	44	0	48309993472	32	14912
2026-01-21 20:12:43.19	330.28	11.41	-31.0	-30.9	16.7	1.33e-05	0	44	0	48637149184	32	15143
2026-01-21 20:12:46.12	330.58	11.12	-31.1	-30.9	16.7	1.52e-05	0	44	0	48964304896	32	15267
2026-01-21 20:12:49.06	330.87	10.84	-31.5	-31.3	16.3	3.62e-05	0	44	0	49299849216	33	15114
2026-01-21 20:12:51.98	331.16	10.56	-31.3	-31.2	16.5	2.86e-05	0	44	0	49627004928	33	14840
2026-01-21 20:12:54.91	331.44	10.28	-31.6	-31.4	16.2	4.19e-05	0	44	0	49954160640	33	15212
2026-01-21 20:12:57.86	331.71	10.01	-31.5	-31.3	16.2	5.72e-05	0	44	0	50289704960	33	15077
2026-01-21 20:13:00.85	331.99	9.73	-53.1	-55.4	6.2	0.00e+00	0	44	104	50440699904	76	20283
2026-01-21 20:13:03.87	332.26	9.46	-49.8	-50.8	6.7	0.00e+00	0	44	104	50440699904	71	15953
2026-01-21 20:13:06.86	332.52	9.19	-48.1	-48.9	7.2	0.00e+00	0	44	104	50440699904	67	16028
2026-01-21 20:13:09.86	332.78	8.92	-47.3	-48.1	7.4	0.00e+00	0	44	104	50440699904	66	15480
2026-01-21 20:13:12.83	333.03	8.66	-53.0	-55.1	6.2	0.00e+00	0	44	104	50440699904	76	19636
2026-01-21 20:13:15.82	333.28	8.40	-47.1	-47.7	7.5	0.00e+00	0	44	104	50440699904	66	14859
2026-01-21 20:13:18.83	333.52	8.14	-48.9	-49.7	7.0	0.00e+00	0	44	104	50440699904	68	16748
2026-01-21 20:13:21.82	333.76	7.89	-46.3	-46.8	7.7	0.00e+00	0	44	104	50440699904	64	15039
2026-01-21 20:13:24.84	334.00	7.64	-45.8	-46.2	7.8	0.00e+00	0	44	0	50440699904	63	14947
2026-01-21 20:13:27.86	334.23	7.38	-52.9	-55.0	6.2	0.00e+00	0	44	104	50440699904	76	19460
2026-01-21 20:13:30.89	334.46	7.14	-45.4	-45.8	8.0	0.00e+00	0	44	0	50440699904	62	15077
2026-01-21 20:13:33.91	334.68	6.89	-44.4	-44.8	8.2	0.00e+00	0	44	0	50440699904	60	14965
2026-01-21 20:13:36.94	334.90	6.65	-47.0	-47.5	7.5	0.00e+00	0	44	104	50440699904	66	14483
2026-01-21 20:13:39.96	335.11	6.41	-47.0	-47.5	7.5	0.00e+00	0	43	104	50440699904	65	15459
2026-01-21 20:13:42.99	335.32	6.17	-49.7	-50.7	6.7	0.00e+00	0	43	104	50440699904	69	17700
2026-01-21 20:13:46.01	335.53	5.93	-44.1	-44.4	8.3	0.00e+00	0	43	104	50440699904	60	14298
2026-01-21 20:13:49.03	335.73	5.70	-43.8	-44.1	8.3	0.00e+00	0	44	0	50440699904	59	14716
2026-01-21 20:13:52.06	335.93	5.47	-52.5	-54.5	6.2	0.00e+00	0	44	104	50440699904	75	19441
2026-01-21 20:13:55.09	336.13	5.24	-44.7	-45.0	8.1	0.00e+00	0	43	104	50440699904	61	14555
2026-01-21 20:13:58.11	336.32	5.02	-48.3	-49.1	7.1	0.00e+00	0	44	104	50440699904	67	16461
2026-01-21 20:14:01.14	336.51	4.79	-53.6	-55.7	6.2	0.00e+00	0	44	104	50440699904	77	19828
2026-01-21 20:14:04.17	336.70	4.57	-53.9	-56.0	6.2	0.00e+00	0	43	104	50440699904	78	19428
2026-01-21 20:14:07.19	336.88	4.35	-39.5	-39.7	6.1	0.00e+00	0	44	104	50440699904	51	13967
2026-01-21 20:14:10.21	337.06	4.13	-54.0	-56.2	6.2	0.00e+00	0	43	104	50440699904	78	19749
2026-01-21 20:14:13.24	337.24	3.92	-53.9	-56.0	6.2	0.00e+00	0	44	104	50440699904	78	19292
2026-01-21 20:14:16.26	337.41	3.70	-54.0	-56.1	6.2	0.00e+00	0	44	104	50440699904	78	19607
2026-01-21 20:14:19.29	337.58	3.49	-54.0	-56.1	6.2	0.00e+00	0	44	104	50440699904	78	19698
2026-01-21 20:14:22.31	337.75	3.28	-53.9	-56.0	6.2	0.00e+00	0	44	104	50440699904	78	19470
2026-01-21 20:14:25.34	337.92	3.08	-53.9	-56.0	6.2	0.00e+00	0	43	104	50440699904	78	19425
2026-01-21 20:14:28.36	338.08	2.87	-53.9	-56.0	6.2	0.00e+00	0	43	104	50440699904	78	19405
2026-01-21 20:14:31.38	338.24	2.67	-53.9	-56.0	6.2	0.00e+00	0	43	104	50440699904	78	19328
2026-01-21 20:14:34.41	338.40	2.46	-53.9	-56.0	6.2	0.00e+00	0	44	104	50440699904	78	19370
2026-01-21 20:14:37.43	338.56	2.26	-53.8	-56.0	6.2	0.00e+00	0	43	104	50440699904	78	19278
2026-01-21 20:14:40.46	338.71	2.06	-53.8	-56.0	6.2	0.00e+00	0	44	104	50440699904	78	19259

#Closed at: 2026-01-21 20:14:42
#Recorded file [50440 MB]: D:/lorett/data/31041_260121_230347.dat