passes_logs/2026/01/21/R3.2S_Murmansk/R3.2S_Murmansk__20260121_115423_FENGYUN_3D_rec.log

#Pass ID: 20260121_115423_FENGYUN 3D
#Satellite: FENGYUN 3D
#Configuration: FENGYUN 3D
#almurnet v.1.7.20251203
#Start time: 2026-01-21 11:54:23

#Version: 2.2.20231116
#Station: R3.2S_Murmansk
#Location: 33.079688 lon 68.888172 lat
#TLE: 1 43010U 17072A   26020.92362722 -.00000077  00000+0 -14488-4 0  9992
#TLE: 2 43010  98.9946 352.8312 0002486  99.3651 260.7806 14.19696535424099

#Time	Az	El	Level	Level2	SNR	BER	BlckErr	Temp	State	Recorded	gain1	gain2
2026-01-21 11:54:23.85	159.54	1.99	-50.4	-62.3	3.8	8.46e-01	0	38	0	0	71	14943
2026-01-21 11:54:27.89	159.59	2.25	-50.4	-62.3	3.8	8.47e-01	0	38	104	0	71	15008
2026-01-21 11:54:31.92	159.64	2.51	-50.4	-62.3	3.8	8.46e-01	0	39	104	0	71	14966
2026-01-21 11:54:35.95	159.69	2.78	-50.4	-62.3	3.8	8.46e-01	0	38	104	0	71	14999
2026-01-21 11:54:39.98	159.75	3.04	-50.4	-62.3	3.8	8.47e-01	0	39	104	0	71	14965
2026-01-21 11:54:44.02	159.80	3.31	-50.4	-62.3	3.8	8.45e-01	0	39	104	0	71	14964
2026-01-21 11:54:48.05	159.85	3.59	-50.4	-62.3	3.8	8.44e-01	0	39	104	0	71	14939
2026-01-21 11:54:52.08	159.91	3.86	-50.4	-62.3	3.8	8.46e-01	0	39	104	0	71	15005
2026-01-21 11:54:56.11	159.96	4.14	-50.4	-62.3	3.8	8.45e-01	0	39	104	0	71	14972
2026-01-21 11:55:00.15	160.02	4.42	-50.4	-62.3	3.8	8.45e-01	0	39	104	0	71	15013
2026-01-21 11:55:04.18	160.08	4.70	-50.4	-62.3	3.8	8.45e-01	0	39	104	0	71	14986
2026-01-21 11:55:08.21	160.14	4.99	-50.4	-62.3	3.8	8.45e-01	0	39	104	0	71	14961
2026-01-21 11:55:12.24	160.20	5.28	-50.4	-62.3	3.8	8.47e-01	0	39	104	0	71	14934
2026-01-21 11:55:16.27	160.26	5.57	-50.4	-62.3	3.8	8.45e-01	0	39	104	0	71	14948
2026-01-21 11:55:20.31	160.32	5.86	-50.4	-62.3	3.8	8.46e-01	0	39	104	0	71	14985
2026-01-21 11:55:24.33	160.38	6.16	-50.4	-62.3	3.8	8.46e-01	0	39	104	0	71	14954
2026-01-21 11:55:28.37	160.44	6.46	-50.4	-62.3	3.8	8.47e-01	0	39	104	0	71	14997
2026-01-21 11:55:32.39	160.51	6.77	-50.4	-62.3	3.8	8.46e-01	0	39	104	0	71	14955
2026-01-21 11:55:36.42	160.57	7.08	-50.4	-62.3	3.8	8.45e-01	0	39	104	0	71	14914
2026-01-21 11:55:40.46	160.64	7.39	-50.4	-62.3	3.8	8.47e-01	0	39	104	0	71	15003
2026-01-21 11:55:44.49	160.71	7.71	-50.4	-62.3	3.8	8.46e-01	0	40	104	0	71	14976
2026-01-21 11:55:48.53	160.78	8.03	-50.4	-62.3	3.8	8.47e-01	0	40	104	0	71	14976
2026-01-21 11:55:52.56	160.85	8.36	-50.4	-62.3	3.8	8.45e-01	0	40	104	0	71	15012
2026-01-21 11:55:56.59	160.92	8.69	-50.4	-62.3	3.8	8.46e-01	0	40	104	0	71	14933
2026-01-21 11:56:00.62	160.99	9.02	-50.4	-62.3	3.8	8.46e-01	0	40	104	0	71	15042
2026-01-21 11:56:04.65	161.06	9.36	-50.4	-62.3	3.8	8.46e-01	0	40	104	0	71	14966
2026-01-21 11:56:08.68	161.14	9.70	-50.4	-62.3	3.8	8.47e-01	0	40	104	0	71	14971
2026-01-21 11:56:12.71	161.22	10.05	-50.4	-62.3	3.8	8.48e-01	0	40	104	0	71	14979
2026-01-21 11:56:16.74	161.29	10.40	-50.4	-62.3	3.8	8.46e-01	0	40	104	0	71	14996
2026-01-21 11:56:20.77	161.37	10.76	-50.4	-62.3	3.8	8.48e-01	0	40	104	0	71	14990
2026-01-21 11:56:24.81	161.45	11.13	-50.4	-62.3	3.8	8.47e-01	0	40	104	0	71	14983
2026-01-21 11:56:28.84	161.54	11.49	-50.4	-62.3	3.8	8.46e-01	0	40	104	0	71	14990
2026-01-21 11:56:32.87	161.62	11.87	-50.4	-62.3	3.8	8.47e-01	0	40	104	0	71	14971
2026-01-21 11:56:36.90	161.71	12.25	-50.4	-62.3	3.8	8.47e-01	0	40	104	0	71	15015
2026-01-21 11:56:40.93	161.80	12.63	-50.4	-62.3	3.8	8.46e-01	0	40	104	0	71	14950
2026-01-21 11:56:44.96	161.89	13.03	-50.4	-62.3	3.8	8.46e-01	0	40	104	0	71	15017
2026-01-21 11:56:48.99	161.98	13.43	-50.4	-62.3	3.8	8.47e-01	0	40	104	0	71	14995
2026-01-21 11:56:53.03	162.08	13.83	-50.4	-62.3	3.8	8.46e-01	0	40	104	0	71	15027
2026-01-21 11:56:57.05	162.17	14.24	-50.4	-62.3	3.8	8.46e-01	0	40	104	0	71	14996
2026-01-21 11:57:01.09	162.27	14.66	-50.4	-62.3	3.8	8.47e-01	0	40	104	0	71	14986
2026-01-21 11:57:05.12	162.38	15.09	-50.4	-62.3	3.8	8.46e-01	0	40	104	0	71	15023
2026-01-21 11:57:09.15	162.48	15.52	-50.4	-62.3	3.8	8.47e-01	0	40	104	0	71	15007
2026-01-21 11:57:13.18	162.59	15.96	-50.4	-62.3	3.8	8.46e-01	0	40	104	0	71	15028
2026-01-21 11:57:17.22	162.70	16.42	-50.4	-62.3	3.8	8.46e-01	0	40	104	0	71	15039
2026-01-21 11:57:21.25	162.81	16.87	-50.4	-62.3	3.8	8.46e-01	0	40	104	0	71	15014
2026-01-21 11:57:25.28	162.93	17.34	-50.4	-62.3	3.8	8.46e-01	0	40	104	0	71	15019
2026-01-21 11:57:29.31	163.05	17.82	-50.4	-62.3	3.8	8.45e-01	0	40	104	0	71	15027
2026-01-21 11:57:33.34	163.17	18.30	-50.4	-62.3	3.8	8.45e-01	0	40	104	0	71	15030
2026-01-21 11:57:37.37	163.29	18.80	-50.4	-62.3	3.8	8.45e-01	0	40	104	0	71	14999
2026-01-21 11:57:41.41	163.42	19.30	-50.4	-62.3	3.8	8.44e-01	0	40	104	0	71	15001
2026-01-21 11:57:45.44	163.56	19.82	-50.4	-62.3	3.8	8.47e-01	0	40	104	0	71	14971
2026-01-21 11:57:49.47	163.70	20.34	-50.4	-62.3	3.8	8.46e-01	0	40	104	0	71	14961
2026-01-21 11:57:53.50	163.84	20.88	-50.4	-62.3	3.8	8.47e-01	0	40	104	0	71	15008
2026-01-21 11:57:57.53	163.98	21.43	-50.4	-62.4	3.8	8.45e-01	0	40	104	0	71	15087
2026-01-21 11:58:01.56	164.13	21.99	-50.4	-62.3	3.8	8.46e-01	0	40	104	0	71	15016
2026-01-21 11:58:05.60	164.29	22.57	-50.4	-62.3	3.8	8.44e-01	0	40	104	0	71	15051
2026-01-21 11:58:09.63	164.45	23.15	-50.4	-62.3	3.8	8.46e-01	0	40	104	0	71	15037
2026-01-21 11:58:13.66	164.62	23.75	-50.4	-62.3	3.8	8.46e-01	0	40	104	0	71	15027
2026-01-21 11:58:17.69	164.79	24.36	-50.4	-62.3	3.8	8.47e-01	0	40	104	0	71	14994
2026-01-21 11:58:21.72	164.97	24.99	-50.4	-62.4	3.8	8.45e-01	0	40	104	0	71	15082
2026-01-21 11:58:25.76	165.16	25.64	-50.4	-62.3	3.8	8.45e-01	0	40	104	0	71	15046
2026-01-21 11:58:29.79	165.35	26.30	-50.4	-62.3	3.8	8.46e-01	0	40	104	0	71	15001
2026-01-21 11:58:33.82	165.56	26.97	-50.4	-62.3	3.8	8.46e-01	0	40	104	0	71	15012
2026-01-21 11:58:37.85	165.77	27.66	-50.4	-62.3	3.8	8.46e-01	0	40	104	0	71	15032
2026-01-21 11:58:41.88	165.98	28.37	-50.4	-62.3	3.8	8.47e-01	0	40	104	0	71	15021
2026-01-21 11:58:45.91	166.21	29.10	-50.4	-62.3	3.8	8.47e-01	0	40	104	0	71	14973
2026-01-21 11:58:49.95	166.45	29.85	-50.4	-62.3	3.8	8.46e-01	0	40	104	0	71	14954
2026-01-21 11:58:53.98	166.70	30.61	-50.4	-62.3	3.8	8.47e-01	0	40	104	0	71	15007
2026-01-21 11:58:58.01	166.96	31.40	-50.4	-62.3	3.8	8.45e-01	0	40	104	0	71	15036
2026-01-21 11:59:02.04	167.23	32.21	-50.4	-62.4	3.8	8.47e-01	0	40	104	0	71	15052
2026-01-21 11:59:06.07	167.51	33.04	-50.4	-62.3	3.8	8.46e-01	0	40	104	0	71	15013
2026-01-21 11:59:10.11	167.81	33.89	-50.4	-62.3	3.8	8.46e-01	0	40	104	0	71	15003
2026-01-21 11:59:14.14	168.13	34.77	-50.4	-62.3	3.8	8.45e-01	0	40	104	0	71	15001
2026-01-21 11:59:18.17	168.46	35.67	-50.4	-62.3	3.8	8.46e-01	0	40	104	0	71	15005
2026-01-21 11:59:22.20	168.81	36.59	-50.4	-62.3	3.8	8.47e-01	0	40	104	0	71	15005
2026-01-21 11:59:26.23	169.18	37.54	-50.4	-62.3	3.8	8.47e-01	0	40	104	0	71	15050
2026-01-21 11:59:30.27	169.57	38.52	-50.4	-62.3	3.8	8.46e-01	0	40	104	0	71	14991
2026-01-21 11:59:34.30	169.98	39.52	-50.4	-62.3	3.8	8.45e-01	0	40	104	0	71	15025
2026-01-21 11:59:38.33	170.42	40.56	-50.4	-62.3	3.8	8.46e-01	0	40	104	0	71	15017
2026-01-21 11:59:42.36	170.89	41.62	-50.4	-62.3	3.8	8.45e-01	0	40	104	0	71	15046
2026-01-21 11:59:46.39	171.39	42.71	-50.4	-62.3	3.8	8.45e-01	0	40	104	0	71	15004
2026-01-21 11:59:50.42	171.92	43.83	-50.4	-62.3	3.8	8.47e-01	0	40	104	0	71	15049
2026-01-21 11:59:54.45	172.49	44.98	-50.4	-62.4	3.8	8.45e-01	0	40	104	0	71	15052
2026-01-21 11:59:58.49	173.11	46.16	-50.4	-62.4	3.8	8.46e-01	0	40	104	0	71	15056
2026-01-21 12:00:02.52	173.77	47.38	-50.4	-62.3	3.8	8.46e-01	0	40	104	0	71	15005
2026-01-21 12:00:06.55	174.48	48.62	-50.4	-62.3	3.8	8.46e-01	0	40	104	0	71	15009
2026-01-21 12:00:10.59	175.26	49.90	-50.4	-62.3	3.8	8.46e-01	0	40	104	0	71	15019
2026-01-21 12:00:14.61	176.10	51.21	-50.4	-62.3	3.8	8.46e-01	0	40	104	0	71	14959
2026-01-21 12:00:18.65	177.01	52.55	-50.4	-62.3	3.8	8.47e-01	0	40	104	0	71	14966
2026-01-21 12:00:22.68	178.02	53.91	-50.4	-62.3	3.8	8.47e-01	0	40	104	0	71	15017
2026-01-21 12:00:26.71	179.12	55.31	-50.4	-62.3	3.8	8.45e-01	0	40	104	0	71	15008
2026-01-21 12:00:30.74	180.33	56.73	-50.4	-62.3	3.8	8.47e-01	0	40	104	0	71	14978
2026-01-21 12:00:34.78	181.68	58.17	-50.4	-62.3	3.8	8.46e-01	0	40	104	0	71	15021
2026-01-21 12:00:38.81	183.18	59.64	-50.4	-62.4	3.8	8.46e-01	0	40	104	0	71	15052
2026-01-21 12:00:42.84	184.86	61.12	-50.4	-62.3	3.8	8.46e-01	0	40	104	0	71	15045
2026-01-21 12:00:46.87	186.75	62.60	-50.4	-62.3	3.8	8.46e-01	0	40	104	0	71	15016
2026-01-21 12:00:50.91	188.89	64.10	-50.4	-62.3	3.8	8.45e-01	0	40	104	0	71	15008
2026-01-21 12:00:54.94	191.31	65.58	-50.4	-62.3	3.8	8.47e-01	0	40	104	0	71	15006
2026-01-21 12:00:58.97	194.08	67.05	-50.4	-62.4	3.8	8.46e-01	0	40	104	0	71	15057
2026-01-21 12:01:03.01	197.27	68.50	-50.4	-62.3	3.8	8.46e-01	0	40	104	0	71	15021
2026-01-21 12:01:07.04	200.94	69.89	-50.4	-62.3	3.8	8.46e-01	0	40	104	0	71	15028
2026-01-21 12:01:11.07	205.17	71.21	-50.4	-62.3	3.8	8.46e-01	0	40	104	0	71	15038
2026-01-21 12:01:15.11	210.07	72.44	-50.4	-62.3	3.8	8.46e-01	0	40	104	0	71	14985
2026-01-21 12:01:19.14	215.69	73.53	-50.4	-62.3	3.8	8.46e-01	0	40	104	0	71	15046
2026-01-21 12:01:23.17	222.08	74.47	-50.4	-62.3	3.8	8.45e-01	0	40	104	0	71	14990
2026-01-21 12:01:27.20	229.22	75.21	-50.4	-62.3	3.8	8.47e-01	0	40	104	0	71	15019
2026-01-21 12:01:31.24	237.03	75.70	-50.4	-62.3	3.8	8.45e-01	0	40	104	0	71	14996
2026-01-21 12:01:35.27	245.23	75.93	-50.4	-62.3	3.8	8.46e-01	0	40	104	0	71	15020
2026-01-21 12:01:39.31	253.55	75.87	-50.4	-62.3	3.8	8.47e-01	0	40	104	0	71	15025
2026-01-21 12:01:43.34	261.62	75.53	-50.4	-62.3	3.8	8.46e-01	0	40	104	0	71	15035
2026-01-21 12:01:47.37	269.17	74.94	-50.4	-62.3	3.8	8.46e-01	0	40	104	0	71	14999
2026-01-21 12:01:51.40	276.01	74.12	-50.4	-62.3	3.8	8.46e-01	0	40	104	0	71	15045
2026-01-21 12:01:55.43	282.09	73.11	-50.4	-62.3	3.8	8.48e-01	0	40	104	0	71	15035
2026-01-21 12:01:59.47	287.41	71.96	-50.4	-62.3	3.8	8.46e-01	0	40	104	0	71	15026
2026-01-21 12:02:03.48	292.00	70.70	-50.4	-62.4	3.8	8.46e-01	0	40	104	0	71	15066
2026-01-21 12:02:07.51	296.00	69.35	-50.4	-62.3	3.8	8.46e-01	0	41	104	0	71	15007
2026-01-21 12:02:11.55	299.47	67.93	-50.4	-62.3	3.8	8.46e-01	0	40	104	0	71	15001
2026-01-21 12:02:15.58	302.47	66.48	-50.4	-62.3	3.8	8.47e-01	0	40	104	0	71	14999
2026-01-21 12:02:19.61	305.10	65.01	-50.4	-62.3	3.8	8.46e-01	0	40	104	0	71	15007
2026-01-21 12:02:23.64	307.40	63.52	-50.4	-62.3	3.8	8.45e-01	0	40	104	0	71	14997
2026-01-21 12:02:27.67	309.43	62.04	-50.4	-62.3	3.8	8.47e-01	0	40	104	0	71	14989
2026-01-21 12:02:31.71	311.24	60.55	-50.4	-62.3	3.8	8.46e-01	0	40	104	0	71	14996
2026-01-21 12:02:35.74	312.84	59.08	-50.4	-62.3	3.8	8.46e-01	0	40	104	0	71	15010
2026-01-21 12:02:39.77	314.28	57.63	-50.4	-62.3	3.8	8.47e-01	0	40	104	0	71	14953
2026-01-21 12:02:43.80	315.57	56.20	-50.4	-62.3	3.8	8.46e-01	0	40	104	0	71	15006
2026-01-21 12:02:47.83	316.74	54.79	-50.4	-62.3	3.8	8.46e-01	0	40	104	0	71	15021
2026-01-21 12:02:51.87	317.80	53.41	-50.4	-62.3	3.8	8.45e-01	0	40	104	0	71	15010
2026-01-21 12:02:55.90	318.77	52.05	-50.4	-62.3	3.8	8.46e-01	0	40	104	0	71	15029
2026-01-21 12:02:59.93	319.65	50.73	-50.4	-62.3	3.8	8.47e-01	0	40	104	0	71	14914
2026-01-21 12:03:03.96	320.47	49.44	-50.4	-62.3	3.8	8.45e-01	0	40	104	0	71	14988
2026-01-21 12:03:07.99	321.22	48.18	-50.4	-62.3	3.8	8.46e-01	0	40	104	0	71	15027
2026-01-21 12:03:12.03	321.91	46.95	-50.4	-62.3	3.8	8.46e-01	0	40	104	0	71	14971
2026-01-21 12:03:16.06	322.55	45.75	-50.4	-62.3	3.8	8.47e-01	0	40	104	0	71	14988
2026-01-21 12:03:20.09	323.15	44.58	-50.4	-62.3	3.8	8.46e-01	0	40	104	0	71	15009
2026-01-21 12:03:24.12	323.71	43.45	-50.4	-62.3	3.8	8.46e-01	0	40	104	0	71	14974
2026-01-21 12:03:28.15	324.23	42.34	-50.4	-62.3	3.8	8.45e-01	0	40	104	0	71	14992
2026-01-21 12:03:32.18	324.71	41.26	-50.4	-62.3	3.8	8.47e-01	0	40	104	0	71	14986
2026-01-21 12:03:36.21	325.17	40.22	-50.4	-62.3	3.8	8.46e-01	0	40	104	0	71	14966
2026-01-21 12:03:40.25	325.60	39.20	-50.4	-62.3	3.8	8.46e-01	0	40	104	0	71	15044
2026-01-21 12:03:44.28	326.01	38.21	-50.4	-62.3	3.8	8.46e-01	0	40	104	0	71	14997
2026-01-21 12:03:48.31	326.39	37.24	-50.4	-62.3	3.8	8.46e-01	0	40	104	0	71	14995
2026-01-21 12:03:52.34	326.75	36.31	-50.4	-62.3	3.8	8.45e-01	0	40	104	0	71	14969
2026-01-21 12:03:56.37	327.09	35.39	-50.4	-62.3	3.8	8.48e-01	0	40	104	0	71	15039
2026-01-21 12:04:00.40	327.42	34.51	-50.4	-62.3	3.8	8.46e-01	0	40	104	0	71	15021
2026-01-21 12:04:04.43	327.73	33.64	-50.4	-62.3	3.8	8.46e-01	0	40	104	0	71	15038
2026-01-21 12:04:08.47	328.02	32.80	-50.4	-62.3	3.8	8.46e-01	0	40	104	0	71	14987
2026-01-21 12:04:12.50	328.30	31.98	-50.4	-62.3	3.8	8.48e-01	0	40	104	0	71	14978
2026-01-21 12:04:16.53	328.57	31.18	-50.4	-62.3	3.8	8.47e-01	0	40	104	0	71	14991
2026-01-21 12:04:20.56	328.83	30.41	-50.4	-62.3	3.8	8.46e-01	0	40	104	0	71	15045
2026-01-21 12:04:24.59	329.07	29.65	-50.4	-62.3	3.8	8.46e-01	0	40	104	0	71	15027
2026-01-21 12:04:28.63	329.31	28.91	-50.4	-62.3	3.8	8.46e-01	0	40	104	0	71	15036
2026-01-21 12:04:32.66	329.53	28.19	-50.4	-62.3	3.8	8.47e-01	0	40	104	0	71	15018
2026-01-21 12:04:36.69	329.75	27.49	-50.4	-62.3	3.8	8.47e-01	0	40	104	0	71	14963
2026-01-21 12:04:40.72	329.96	26.81	-50.4	-62.3	3.8	8.46e-01	0	40	104	0	71	14932
2026-01-21 12:04:44.75	330.16	26.14	-50.4	-62.3	3.8	8.47e-01	0	40	104	0	71	15018
2026-01-21 12:04:48.79	330.35	25.49	-50.4	-62.3	3.8	8.46e-01	0	40	104	0	71	14990
2026-01-21 12:04:52.82	330.53	24.85	-50.4	-62.3	3.8	8.47e-01	0	40	104	0	71	14969
2026-01-21 12:04:56.85	330.71	24.23	-50.4	-62.3	3.8	8.46e-01	0	40	104	0	71	15051
2026-01-21 12:05:00.88	330.89	23.63	-50.4	-62.3	3.8	8.45e-01	0	40	104	0	71	15016
2026-01-21 12:05:04.91	331.05	23.03	-50.4	-62.3	3.8	8.47e-01	0	40	104	0	71	15016
2026-01-21 12:05:08.95	331.21	22.45	-50.4	-62.3	3.8	8.47e-01	0	40	104	0	71	14986
2026-01-21 12:05:12.98	331.37	21.88	-50.4	-62.3	3.8	8.47e-01	0	40	104	0	71	15005
2026-01-21 12:05:17.01	331.52	21.33	-50.4	-62.3	3.8	8.46e-01	0	40	104	0	71	15033
2026-01-21 12:05:21.04	331.67	20.79	-50.4	-62.3	3.8	8.46e-01	0	40	104	0	71	15017
2026-01-21 12:05:25.07	331.81	20.26	-50.4	-62.4	3.8	8.46e-01	0	40	104	0	71	15072
2026-01-21 12:05:29.10	331.95	19.73	-50.4	-62.3	3.8	8.45e-01	0	40	104	0	71	14969
2026-01-21 12:05:33.13	332.08	19.22	-50.4	-62.3	3.8	8.47e-01	0	40	104	0	71	14999
2026-01-21 12:05:37.16	332.21	18.72	-50.4	-62.3	3.8	8.47e-01	0	40	104	0	71	15032
2026-01-21 12:05:41.19	332.34	18.23	-50.4	-62.3	3.8	8.46e-01	0	40	104	0	71	15046
2026-01-21 12:05:45.22	332.46	17.75	-50.4	-62.3	3.8	8.46e-01	0	40	104	0	71	14993
2026-01-21 12:05:49.26	332.58	17.28	-50.4	-62.3	3.8	8.47e-01	0	40	104	0	71	15044
2026-01-21 12:05:53.29	332.70	16.82	-50.4	-62.3	3.8	8.46e-01	0	40	104	0	71	15011
2026-01-21 12:05:57.32	332.81	16.37	-50.4	-62.3	3.8	8.46e-01	0	40	104	0	71	15006
2026-01-21 12:06:01.35	332.92	15.92	-50.4	-62.3	3.8	8.45e-01	0	40	104	0	71	15001
2026-01-21 12:06:05.38	333.03	15.48	-50.4	-62.3	3.8	8.46e-01	0	40	104	0	71	15035
2026-01-21 12:06:09.42	333.14	15.05	-50.4	-62.3	3.8	8.46e-01	0	40	104	0	71	14977
2026-01-21 12:06:13.45	333.24	14.63	-50.4	-62.3	3.8	8.46e-01	0	40	104	0	71	14975
2026-01-21 12:06:17.48	333.34	14.21	-50.4	-62.3	3.8	8.46e-01	0	40	104	0	71	14952
2026-01-21 12:06:21.51	333.44	13.80	-50.4	-62.3	3.8	8.46e-01	0	40	104	0	71	14977
2026-01-21 12:06:25.54	333.53	13.40	-50.4	-62.3	3.8	8.45e-01	0	40	104	0	71	14988
2026-01-21 12:06:29.57	333.63	13.01	-50.4	-62.3	3.8	8.47e-01	0	40	104	0	71	14956
2026-01-21 12:06:33.60	333.72	12.62	-50.4	-62.3	3.8	8.45e-01	0	40	104	0	71	14970
2026-01-21 12:06:37.64	333.81	12.23	-50.4	-62.3	3.8	8.46e-01	0	40	104	0	71	14959
2026-01-21 12:06:41.67	333.90	11.86	-50.4	-62.2	3.8	8.46e-01	0	40	104	0	71	14867
2026-01-21 12:06:45.70	333.99	11.49	-50.4	-62.2	3.8	8.46e-01	0	40	104	0	71	14783
2026-01-21 12:06:49.74	334.07	11.12	-50.4	-62.2	3.8	8.46e-01	0	40	104	0	71	14838
2026-01-21 12:06:53.77	334.15	10.76	-50.4	-62.3	3.8	8.46e-01	0	40	104	0	71	15007
2026-01-21 12:06:57.80	334.24	10.40	-50.4	-62.3	3.8	8.46e-01	0	40	104	0	71	14999
2026-01-21 12:07:01.83	334.32	10.05	-50.4	-62.3	3.8	8.45e-01	0	40	104	0	71	14942
2026-01-21 12:07:05.87	334.40	9.71	-50.4	-62.3	3.8	8.48e-01	0	40	104	0	71	14950
2026-01-21 12:07:09.90	334.47	9.37	-50.4	-62.3	3.8	8.46e-01	0	40	104	0	71	14941
2026-01-21 12:07:13.93	334.55	9.03	-50.4	-62.2	3.8	8.46e-01	0	40	104	0	71	14877
2026-01-21 12:07:17.96	334.62	8.70	-50.4	-62.3	3.8	8.45e-01	0	40	104	0	71	14965
2026-01-21 12:07:21.99	334.70	8.37	-50.4	-62.3	3.8	8.46e-01	0	40	104	0	71	14902
2026-01-21 12:07:26.02	334.77	8.05	-50.4	-62.3	3.8	8.46e-01	0	40	104	0	71	14934
2026-01-21 12:07:30.05	334.84	7.73	-50.4	-62.3	3.8	8.47e-01	0	40	104	0	71	14912
2026-01-21 12:07:34.09	334.91	7.41	-50.4	-62.3	3.8	8.47e-01	0	40	104	0	71	14945
2026-01-21 12:07:38.12	334.98	7.10	-50.4	-62.3	3.8	8.46e-01	0	40	104	0	71	14954
2026-01-21 12:07:42.15	335.05	6.79	-50.4	-62.3	3.8	8.45e-01	0	40	104	0	71	14957
2026-01-21 12:07:46.19	335.11	6.49	-50.4	-62.3	3.8	8.46e-01	0	40	104	0	71	14910
2026-01-21 12:07:50.22	335.18	6.19	-50.4	-62.3	3.8	8.47e-01	0	40	104	0	71	14900
2026-01-21 12:07:54.25	335.24	5.89	-50.4	-62.3	3.8	8.46e-01	0	40	104	0	71	14921
2026-01-21 12:07:58.28	335.31	5.60	-50.4	-62.3	3.8	8.46e-01	0	40	104	0	71	14913
2026-01-21 12:08:02.31	335.37	5.31	-50.4	-62.3	3.8	8.46e-01	0	40	104	0	71	14969
2026-01-21 12:08:06.34	335.43	5.02	-50.4	-62.3	3.8	8.48e-01	0	40	104	0	71	14962
2026-01-21 12:08:10.37	335.49	4.74	-50.4	-62.3	3.8	8.48e-01	0	40	104	0	71	14924
2026-01-21 12:08:14.40	335.55	4.46	-50.4	-62.3	3.8	8.46e-01	0	40	104	0	71	15022
2026-01-21 12:08:18.43	335.61	4.18	-50.4	-62.3	3.8	8.47e-01	0	40	104	0	71	14985
2026-01-21 12:08:22.46	335.67	3.90	-50.4	-62.3	3.8	8.47e-01	0	40	104	0	71	14956
2026-01-21 12:08:26.49	335.73	3.63	-50.4	-62.3	3.8	8.46e-01	0	40	104	0	71	14895
2026-01-21 12:08:30.53	335.79	3.36	-50.4	-62.2	3.8	8.47e-01	0	40	104	0	71	14850
2026-01-21 12:08:34.56	335.84	3.09	-50.4	-62.2	3.8	8.45e-01	0	40	104	0	71	14716
2026-01-21 12:08:38.59	335.90	2.83	-50.4	-62.3	3.8	8.48e-01	0	40	104	0	71	14907
2026-01-21 12:08:42.62	335.96	2.56	-50.4	-62.3	3.8	8.46e-01	0	40	104	0	71	14945
2026-01-21 12:08:46.65	336.01	2.30	-50.4	-62.2	3.8	8.47e-01	0	40	104	0	71	14838
2026-01-21 12:08:50.69	336.06	2.05	-50.4	-62.3	3.8	8.46e-01	0	40	104	0	71	14908

#Closed at: 2026-01-21 12:08:53
#Recorded file [0 MB]: D:/lorett/data/31041_260121_145423.dat