passes_logs/2026/01/21/R3.2S_Murmansk/R3.2S_Murmansk__20260121_111758_NOAA_20_JPSS-1_rec.log

#Pass ID: 20260121_111758_NOAA 20 (JPSS-1)
#Satellite: NOAA 20 (JPSS-1)
#Configuration: NOAA 20
#almurnet v.1.7.20251203
#Start time: 2026-01-21 11:18:00

#Version: 2.2.20231116
#Station: R3.2S_Murmansk
#Location: 33.079688 lon 68.888172 lat
#TLE: 1 43013U 17073A   26020.82785136  .00000155  00000+0  94366-4 0  9991
#TLE: 2 43013  98.7643 321.7058 0001260  30.3785 329.7464 14.19537992423566

#Time	Az	El	Level	Level2	SNR	BER	BlckErr	Temp	State	Recorded	gain1	gain2
2026-01-21 11:18:00.32	195.94	2.12	-54.5	-69.5	3.8	1.49e+00	0	38	0	0	79	21690
2026-01-21 11:18:04.35	196.15	2.36	-54.3	-69.3	3.8	1.49e+00	0	38	104	0	79	21164
2026-01-21 11:18:08.38	196.37	2.61	-54.1	-69.0	3.8	1.49e+00	0	38	104	0	79	20485
2026-01-21 11:18:12.42	196.60	2.85	-53.6	-68.6	3.8	1.49e+00	0	38	104	0	79	19491
2026-01-21 11:18:16.45	196.83	3.10	-52.8	-67.8	3.8	1.49e+00	0	39	104	0	77	19972
2026-01-21 11:18:20.49	197.06	3.35	-52.8	-67.7	3.8	1.49e+00	0	39	104	0	77	19835
2026-01-21 11:18:24.52	197.29	3.60	-52.8	-67.7	3.8	1.49e+00	0	39	104	0	77	19812
2026-01-21 11:18:28.55	197.53	3.85	-52.7	-67.1	3.8	1.49e+00	0	39	104	0	77	18510
2026-01-21 11:18:32.58	197.77	4.10	-52.7	-67.1	3.8	1.49e+00	0	39	104	0	77	18470
2026-01-21 11:18:36.61	198.02	4.36	-51.8	-58.9	7.5	1.79e-01	0	39	0	3145728	75	8054
2026-01-21 11:18:40.65	198.27	4.61	-49.7	-53.0	13.7	3.12e-05	0	39	0	10485760	71	5134
2026-01-21 11:18:44.68	198.52	4.87	-49.1	-52.0	14.8	7.00e-07	0	39	0	18874368	70	4828
2026-01-21 11:18:48.71	198.78	5.14	-49.1	-51.9	15.0	0.00e+00	0	39	0	26214400	69	5084
2026-01-21 11:18:52.75	199.04	5.40	-49.3	-52.1	14.6	1.29e-02	0	39	0	33554432	70	4919
2026-01-21 11:18:56.78	199.31	5.67	-48.8	-51.4	15.4	0.00e+00	0	39	0	40894464	69	4794
2026-01-21 11:19:00.81	199.58	5.94	-48.4	-50.8	16.1	0.00e+00	0	39	0	48234496	68	4714
2026-01-21 11:19:04.84	199.86	6.21	-48.4	-50.8	16.3	0.00e+00	0	39	0	56623104	68	4710
2026-01-21 11:19:08.87	200.14	6.48	-52.5	-63.0	4.6	1.28e+00	68	39	0	58720256	76	12183
2026-01-21 11:19:12.90	200.43	6.76	-51.4	-56.9	9.7	6.13e-04	0	39	0	66060288	73	7202
2026-01-21 11:19:16.93	200.72	7.03	-48.8	-51.3	15.6	0.00e+00	0	39	0	69206016	69	4715
2026-01-21 11:19:20.96	201.02	7.31	-47.7	-49.7	17.2	0.00e+00	0	40	0	76546048	67	4402
2026-01-21 11:19:25.00	201.32	7.60	-47.5	-49.4	17.5	0.00e+00	0	39	0	83886080	67	4289
2026-01-21 11:19:29.03	201.63	7.88	-47.4	-49.2	17.8	0.00e+00	0	39	0	92274688	66	4436
2026-01-21 11:19:33.06	201.94	8.17	-47.3	-49.1	17.9	0.00e+00	0	39	0	99614720	66	4365
2026-01-21 11:19:37.09	202.26	8.46	-47.2	-49.0	18.0	0.00e+00	0	39	0	106954752	66	4306
2026-01-21 11:19:41.12	202.59	8.75	-47.0	-48.8	18.3	0.00e+00	0	39	0	114294784	65	4444
2026-01-21 11:19:45.15	202.92	9.05	-46.8	-48.5	18.6	0.00e+00	0	39	0	121634816	65	4301
2026-01-21 11:19:49.19	203.26	9.35	-47.1	-48.8	18.3	0.00e+00	0	39	0	130023424	65	4490
2026-01-21 11:19:53.23	203.61	9.65	-46.8	-48.4	18.7	0.00e+00	0	39	0	137363456	65	4274
2026-01-21 11:19:57.26	203.96	9.96	-46.8	-48.4	18.7	0.00e+00	0	39	0	144703488	65	4274
2026-01-21 11:20:01.29	204.32	10.26	-46.7	-48.2	18.9	0.00e+00	0	39	0	152043520	64	4433
2026-01-21 11:20:05.32	204.69	10.57	-46.5	-48.1	19.1	0.00e+00	0	39	0	160432128	64	4356
2026-01-21 11:20:09.35	205.06	10.88	-46.1	-47.5	19.8	0.00e+00	0	39	0	167772160	63	4326
2026-01-21 11:20:13.38	205.44	11.20	-45.8	-47.1	20.1	0.00e+00	0	40	0	175112192	63	4141
2026-01-21 11:20:17.41	205.83	11.52	-45.6	-46.9	20.3	0.00e+00	0	40	0	182452224	63	4051
2026-01-21 11:20:21.44	206.23	11.84	-45.5	-46.8	20.5	0.00e+00	0	40	0	189792256	63	3981
2026-01-21 11:20:25.47	206.64	12.17	-45.5	-46.8	20.5	0.00e+00	0	40	0	197132288	62	4219
2026-01-21 11:20:29.51	207.06	12.49	-45.6	-46.9	20.4	0.00e+00	0	40	0	205520896	62	4265
2026-01-21 11:20:33.54	207.48	12.82	-45.6	-46.9	20.5	0.00e+00	0	40	0	212860928	62	4244
2026-01-21 11:20:37.57	207.92	13.16	-45.6	-46.9	20.4	0.00e+00	0	40	0	220200960	62	4266
2026-01-21 11:20:41.60	208.36	13.50	-45.6	-46.9	20.5	0.00e+00	0	40	0	227540992	62	4256
2026-01-21 11:20:45.63	208.81	13.84	-45.4	-46.7	20.6	0.00e+00	0	40	0	235929600	62	4180
2026-01-21 11:20:49.66	209.28	14.18	-45.4	-46.6	20.7	0.00e+00	0	40	0	243269632	62	4136
2026-01-21 11:20:53.70	209.75	14.53	-45.3	-46.5	20.7	0.00e+00	0	40	0	250609664	62	4093
2026-01-21 11:20:57.73	210.24	14.88	-45.6	-46.9	20.4	0.00e+00	0	39	0	257949696	62	4277
2026-01-21 11:21:01.76	210.73	15.23	-45.7	-47.0	20.4	0.00e+00	0	40	0	265289728	62	4328
2026-01-21 11:21:05.79	211.24	15.59	-45.9	-47.2	20.2	0.00e+00	0	40	0	273678336	62	4435
2026-01-21 11:21:09.83	211.76	15.95	-46.2	-47.6	19.9	0.00e+00	0	39	0	281018368	63	4344
2026-01-21 11:21:13.86	212.29	16.31	-46.4	-47.8	19.7	0.00e+00	0	40	0	288358400	63	4469
2026-01-21 11:21:17.89	212.83	16.67	-46.5	-47.9	19.6	0.00e+00	0	40	0	295698432	63	4518
2026-01-21 11:21:21.92	213.39	17.04	-46.3	-47.7	19.8	0.00e+00	0	40	0	304087040	63	4403
2026-01-21 11:21:25.95	213.96	17.41	-46.4	-47.8	19.7	0.00e+00	0	40	0	311427072	63	4491
2026-01-21 11:21:29.98	214.54	17.79	-46.4	-47.8	19.7	0.00e+00	0	40	0	318767104	63	4476
2026-01-21 11:21:34.01	215.14	18.17	-46.4	-47.8	19.7	0.00e+00	0	40	0	326107136	63	4482
2026-01-21 11:21:38.05	215.76	18.55	-46.5	-48.0	19.6	0.00e+00	0	40	0	333447168	63	4569
2026-01-21 11:21:42.08	216.39	18.93	-46.4	-47.8	19.7	0.00e+00	0	39	0	340787200	63	4478
2026-01-21 11:21:46.11	217.03	19.32	-46.1	-47.5	20.1	0.00e+00	0	40	0	349175808	63	4295
2026-01-21 11:21:50.14	217.69	19.70	-46.0	-47.3	20.2	0.00e+00	0	40	0	356515840	63	4223
2026-01-21 11:21:54.17	218.36	20.09	-46.0	-47.3	20.3	0.00e+00	0	40	0	363855872	63	4214
2026-01-21 11:21:58.21	219.06	20.49	-45.7	-47.0	20.5	0.00e+00	0	40	0	371195904	63	4090
2026-01-21 11:22:02.24	219.77	20.88	-45.6	-46.8	20.7	0.00e+00	0	40	0	379584512	63	3988
2026-01-21 11:22:06.27	220.50	21.28	-45.3	-46.5	21.0	0.00e+00	0	40	0	386924544	62	4072
2026-01-21 11:22:10.30	221.24	21.67	-45.2	-46.4	21.2	0.00e+00	0	40	0	394264576	62	4017
2026-01-21 11:22:14.33	222.01	22.07	-44.8	-45.9	21.6	0.00e+00	0	40	0	401604608	61	4023
2026-01-21 11:22:18.36	222.79	22.47	-44.5	-45.6	21.9	0.00e+00	0	40	0	408944640	61	3888
2026-01-21 11:22:22.39	223.60	22.87	-44.2	-45.2	22.3	0.00e+00	0	40	0	417333248	60	3938
2026-01-21 11:22:26.43	224.42	23.28	-44.2	-45.2	22.5	0.00e+00	0	40	0	424673280	59	4186
2026-01-21 11:22:30.46	225.27	23.68	-43.8	-44.8	22.9	0.00e+00	0	39	0	432013312	59	3977
2026-01-21 11:22:34.49	226.14	24.08	-43.9	-44.9	22.8	0.00e+00	0	40	0	439353344	59	4051
2026-01-21 11:22:38.52	227.02	24.48	-44.3	-45.3	22.4	0.00e+00	0	40	0	447741952	59	4237
2026-01-21 11:22:42.55	227.94	24.88	-44.4	-45.5	22.3	0.00e+00	0	40	0	455081984	59	4308
2026-01-21 11:22:46.58	228.87	25.27	-44.4	-45.5	22.1	0.00e+00	0	40	0	462422016	60	4056
2026-01-21 11:22:50.61	229.83	25.67	-44.7	-45.8	21.8	0.00e+00	0	40	0	469762048	60	4214
2026-01-21 11:22:54.64	230.81	26.06	-45.1	-46.3	21.3	0.00e+00	0	40	0	477102080	60	4443
2026-01-21 11:22:58.68	231.81	26.45	-45.2	-46.4	21.2	0.00e+00	0	40	0	484442112	61	4262
2026-01-21 11:23:02.71	232.84	26.84	-46.0	-47.3	20.4	0.00e+00	0	40	0	492830720	62	4477
2026-01-21 11:23:06.74	233.89	27.22	-46.2	-47.6	20.1	0.00e+00	0	40	0	500170752	63	4356
2026-01-21 11:23:10.77	234.97	27.59	-45.9	-47.2	20.4	0.00e+00	0	40	0	507510784	63	4188
2026-01-21 11:23:14.80	236.07	27.96	-46.4	-47.8	19.9	0.00e+00	0	40	0	514850816	63	4483
2026-01-21 11:23:18.83	237.20	28.33	-47.4	-49.0	18.6	0.00e+00	0	40	0	523239424	65	4575
2026-01-21 11:23:22.87	238.36	28.68	-48.0	-49.8	18.0	0.00e+00	0	40	0	530579456	66	4724
2026-01-21 11:23:26.90	239.53	29.03	-48.6	-50.7	17.0	0.00e+00	0	40	0	537919488	67	4975
2026-01-21 11:23:30.93	240.74	29.37	-48.6	-50.6	17.3	0.00e+00	0	40	0	545259520	68	4610
2026-01-21 11:23:34.96	241.96	29.70	-48.8	-50.9	16.8	0.00e+00	0	40	0	552599552	68	4812
2026-01-21 11:23:38.99	243.21	30.02	-48.6	-50.6	17.2	0.00e+00	0	40	0	560988160	68	4630
2026-01-21 11:23:43.02	244.49	30.32	-47.6	-49.2	18.4	0.00e+00	0	40	0	568328192	67	4186
2026-01-21 11:23:47.05	245.79	30.62	-47.3	-48.9	18.8	0.00e+00	0	40	0	575668224	66	4270
2026-01-21 11:23:51.09	247.11	30.90	-47.4	-49.1	18.7	0.00e+00	0	40	0	583008256	66	4344
2026-01-21 11:23:55.12	248.46	31.17	-46.8	-48.3	19.4	0.00e+00	0	40	0	590348288	65	4197
2026-01-21 11:23:59.15	249.82	31.42	-48.4	-50.4	17.3	0.00e+00	0	40	0	598736896	67	4810
2026-01-21 11:24:03.18	251.21	31.65	-47.7	-49.5	18.3	0.00e+00	0	40	0	606076928	67	4302
2026-01-21 11:24:07.21	252.61	31.87	-47.4	-49.1	18.7	0.00e+00	0	40	0	613416960	66	4350
2026-01-21 11:24:11.25	254.04	32.08	-47.8	-49.6	18.1	0.00e+00	0	40	0	620756992	66	4607
2026-01-21 11:24:15.28	255.47	32.26	-47.4	-49.0	18.7	0.00e+00	0	40	0	628097024	66	4317
2026-01-21 11:24:19.31	256.93	32.42	-48.0	-49.8	18.0	0.00e+00	0	40	0	636485632	66	4724
2026-01-21 11:24:23.35	258.40	32.57	-47.7	-49.3	18.4	0.00e+00	0	40	0	643825664	66	4492
2026-01-21 11:24:27.38	259.88	32.70	-47.3	-48.8	18.9	0.00e+00	0	40	0	651165696	66	4237
2026-01-21 11:24:31.41	261.37	32.80	-47.7	-49.4	18.4	0.00e+00	0	40	0	658505728	66	4505
2026-01-21 11:24:35.45	262.87	32.89	-47.7	-49.4	18.3	0.00e+00	0	40	0	666894336	66	4534
2026-01-21 11:24:39.47	264.37	32.95	-48.1	-50.0	17.8	0.00e+00	0	40	0	674234368	67	4555
2026-01-21 11:24:43.51	265.88	32.99	-47.8	-49.5	18.3	0.00e+00	0	40	0	681574400	67	4322
2026-01-21 11:24:47.54	267.40	33.01	-47.7	-49.5	18.4	0.00e+00	0	40	0	688914432	67	4294
2026-01-21 11:24:51.57	268.91	33.01	-47.4	-49.0	18.8	0.00e+00	0	40	0	696254464	66	4318
2026-01-21 11:24:55.61	270.42	32.99	-47.6	-49.3	18.5	0.00e+00	0	40	0	703594496	66	4473
2026-01-21 11:24:59.64	271.93	32.94	-47.9	-49.6	18.2	0.00e+00	0	40	0	711983104	66	4631
2026-01-21 11:25:03.66	273.43	32.87	-46.7	-48.1	19.6	0.00e+00	0	40	0	719323136	65	4143
2026-01-21 11:25:07.70	274.93	32.79	-47.8	-49.5	18.3	0.00e+00	0	40	0	726663168	66	4562
2026-01-21 11:25:11.73	276.42	32.68	-48.3	-50.2	17.6	0.00e+00	0	40	0	734003200	67	4684
2026-01-21 11:25:15.76	277.89	32.55	-48.2	-50.1	17.7	0.00e+00	0	40	0	742391808	67	4621
2026-01-21 11:25:19.79	279.36	32.40	-48.4	-50.3	17.5	0.00e+00	0	40	0	749731840	67	4741
2026-01-21 11:25:23.82	280.81	32.23	-48.5	-50.4	17.4	0.00e+00	0	40	0	757071872	67	4809
2026-01-21 11:25:27.85	282.24	32.04	-49.1	-51.3	16.7	0.00e+00	0	40	0	764411904	68	4997
2026-01-21 11:25:31.89	283.66	31.84	-48.7	-50.8	17.2	0.00e+00	0	40	0	771751936	69	4449
2026-01-21 11:25:35.92	285.06	31.62	-47.6	-49.3	18.6	0.00e+00	0	40	0	780140544	67	4197
2026-01-21 11:25:39.95	286.44	31.38	-47.6	-49.2	18.7	0.00e+00	0	40	0	787480576	66	4421
2026-01-21 11:25:43.99	287.80	31.13	-47.9	-49.7	18.2	0.00e+00	0	40	0	794820608	66	4672
2026-01-21 11:25:48.02	289.13	30.86	-47.6	-49.3	18.6	0.00e+00	0	40	0	802160640	66	4467
2026-01-21 11:25:52.05	290.45	30.58	-47.4	-49.0	18.9	0.00e+00	0	40	0	810549248	66	4295
2026-01-21 11:25:56.08	291.74	30.28	-47.9	-49.7	18.2	0.00e+00	0	40	0	817889280	66	4659
2026-01-21 11:26:00.11	293.01	29.97	-48.4	-50.3	17.6	0.00e+00	0	40	0	825229312	67	4749
2026-01-21 11:26:04.14	294.25	29.65	-47.7	-49.4	18.6	0.00e+00	0	40	0	832569344	67	4255
2026-01-21 11:26:08.17	295.47	29.33	-47.8	-49.5	18.5	0.00e+00	0	40	0	839909376	67	4308
2026-01-21 11:26:12.20	296.67	28.99	-48.1	-49.9	18.0	0.00e+00	0	40	0	847249408	67	4523
2026-01-21 11:26:16.24	297.84	28.64	-48.2	-50.1	17.8	0.00e+00	0	40	0	855638016	67	4618
2026-01-21 11:26:20.27	298.98	28.28	-47.6	-49.2	18.6	0.00e+00	0	40	0	862978048	67	4189
2026-01-21 11:26:24.31	300.11	27.92	-46.9	-48.4	19.4	0.00e+00	0	40	0	870318080	65	4272
2026-01-21 11:26:28.34	301.20	27.55	-46.5	-47.9	19.9	0.00e+00	0	40	0	877658112	64	4265
2026-01-21 11:26:32.37	302.27	27.18	-47.3	-48.8	19.0	0.00e+00	0	40	0	886046720	65	4490
2026-01-21 11:26:36.40	303.32	26.80	-47.3	-48.9	18.9	0.00e+00	0	40	0	893386752	65	4517
2026-01-21 11:26:40.43	304.34	26.41	-46.1	-47.4	20.5	0.00e+00	0	40	0	900726784	63	4260
2026-01-21 11:26:44.46	305.34	26.03	-46.2	-47.5	20.2	0.00e+00	0	40	0	908066816	64	4088
2026-01-21 11:26:48.49	306.31	25.64	-46.6	-48.0	19.9	0.00e+00	0	40	0	915406848	63	4579
2026-01-21 11:26:52.52	307.26	25.24	-48.0	-49.8	18.0	0.00e+00	0	40	0	923795456	67	4452
2026-01-21 11:26:56.55	308.19	24.85	-46.9	-48.4	19.3	0.00e+00	0	40	0	931135488	65	4255
2026-01-21 11:27:00.58	309.09	24.45	-46.4	-47.8	19.9	0.00e+00	0	40	0	938475520	64	4218
2026-01-21 11:27:04.61	309.97	24.05	-45.7	-46.9	20.9	0.00e+00	0	40	0	945815552	63	4031
2026-01-21 11:27:08.64	310.84	23.65	-46.6	-48.0	19.7	0.00e+00	0	40	0	953155584	64	4309
2026-01-21 11:27:12.68	311.68	23.25	-45.8	-47.0	20.7	0.00e+00	0	40	0	961544192	63	4083
2026-01-21 11:27:16.71	312.50	22.86	-46.7	-48.2	19.5	0.00e+00	0	40	0	968884224	64	4416
2026-01-21 11:27:20.74	313.30	22.46	-45.3	-46.5	21.2	0.00e+00	0	40	0	976224256	62	4074
2026-01-21 11:27:24.77	314.08	22.06	-45.6	-46.9	20.8	0.00e+00	0	40	0	983564288	62	4255
2026-01-21 11:27:28.81	314.84	21.66	-45.0	-46.2	21.5	0.00e+00	0	40	0	990904320	62	3928
2026-01-21 11:27:32.84	315.58	21.27	-45.6	-46.9	20.8	0.00e+00	0	40	0	999292928	61	4502
2026-01-21 11:27:36.87	316.30	20.88	-45.4	-46.6	20.9	0.00e+00	0	40	0	1006632960	62	4145
2026-01-21 11:27:40.90	317.01	20.48	-44.9	-46.0	21.6	0.00e+00	0	40	0	1013972992	61	4075
2026-01-21 11:27:44.93	317.70	20.10	-44.6	-45.7	21.8	0.00e+00	0	40	0	1021313024	61	3918
2026-01-21 11:27:48.96	318.37	19.71	-44.3	-45.4	22.1	0.00e+00	0	40	0	1029701632	60	4020
2026-01-21 11:27:52.99	319.02	19.32	-44.4	-45.5	22.0	0.00e+00	0	40	0	1037041664	60	4064
2026-01-21 11:27:57.02	319.66	18.94	-44.9	-46.0	21.4	0.00e+00	0	40	0	1044381696	60	4337
2026-01-21 11:28:01.05	320.29	18.56	-44.8	-46.0	21.5	0.00e+00	0	40	0	1051721728	60	4293
2026-01-21 11:28:05.09	320.90	18.18	-44.6	-45.7	21.8	0.00e+00	0	40	0	1059061760	60	4150
2026-01-21 11:28:09.12	321.49	17.81	-44.8	-45.9	21.5	0.00e+00	0	40	0	1067450368	60	4285
2026-01-21 11:28:13.15	322.07	17.44	-45.2	-46.4	21.1	0.00e+00	0	40	0	1074790400	61	4255
2026-01-21 11:28:17.18	322.64	17.07	-45.2	-46.4	21.1	0.00e+00	0	40	0	1082130432	61	4243
2026-01-21 11:28:21.21	323.20	16.70	-45.3	-46.5	20.9	0.00e+00	0	40	0	1089470464	61	4309
2026-01-21 11:28:25.24	323.74	16.34	-45.5	-46.7	20.6	0.00e+00	0	40	0	1096810496	61	4441
2026-01-21 11:28:29.28	324.27	15.98	-45.7	-47.0	20.4	0.00e+00	0	40	0	1105199104	61	4575
2026-01-21 11:28:33.31	324.79	15.62	-46.1	-47.5	19.9	0.00e+00	0	40	0	1112539136	62	4556
2026-01-21 11:28:37.35	325.29	15.27	-46.3	-47.8	19.6	0.00e+00	0	40	0	1119879168	63	4463
2026-01-21 11:28:41.38	325.79	14.92	-46.6	-48.1	19.3	0.00e+00	0	40	0	1127219200	63	4607
2026-01-21 11:28:45.41	326.27	14.57	-46.6	-48.1	19.2	0.00e+00	0	40	0	1134559232	64	4380
2026-01-21 11:28:49.44	326.74	14.23	-46.2	-47.7	19.6	0.00e+00	0	40	0	1142947840	64	4157
2026-01-21 11:28:53.47	327.20	13.89	-45.7	-47.0	20.2	0.00e+00	0	40	0	1150287872	63	4098
2026-01-21 11:28:57.50	327.66	13.55	-46.2	-47.6	19.7	0.00e+00	0	40	0	1157627904	63	4350
2026-01-21 11:29:01.54	328.10	13.21	-46.4	-47.9	19.4	0.00e+00	0	40	0	1164967936	63	4526
2026-01-21 11:29:05.56	328.53	12.88	-46.4	-47.9	19.4	0.00e+00	0	40	0	1173356544	63	4503
2026-01-21 11:29:09.60	328.96	12.55	-45.9	-47.2	20.0	0.00e+00	0	40	0	1180696576	63	4193
2026-01-21 11:29:13.63	329.37	12.23	-45.7	-47.0	20.2	0.00e+00	0	40	0	1188036608	63	4091
2026-01-21 11:29:17.66	329.78	11.91	-46.1	-47.5	19.7	0.00e+00	0	40	0	1195376640	63	4319
2026-01-21 11:29:21.69	330.18	11.59	-46.2	-47.7	19.5	0.00e+00	0	40	0	1202716672	63	4439
2026-01-21 11:29:25.73	330.57	11.27	-46.3	-47.8	19.4	0.00e+00	0	40	0	1211105280	63	4448
2026-01-21 11:29:29.76	330.95	10.96	-45.9	-47.3	19.9	0.00e+00	0	40	0	1218445312	63	4201
2026-01-21 11:29:33.79	331.32	10.65	-45.8	-47.2	20.0	0.00e+00	0	40	0	1225785344	63	4149
2026-01-21 11:29:37.83	331.69	10.34	-46.1	-47.6	19.5	0.00e+00	0	40	0	1233125376	63	4358
2026-01-21 11:29:41.86	332.05	10.03	-46.3	-47.9	19.2	0.00e+00	0	40	0	1240465408	63	4495
2026-01-21 11:29:45.89	332.40	9.73	-46.3	-47.9	19.2	0.00e+00	0	40	0	1248854016	63	4514
2026-01-21 11:29:49.92	332.75	9.43	-46.2	-47.6	19.4	0.00e+00	0	40	0	1256194048	63	4389
2026-01-21 11:29:53.96	333.09	9.13	-45.9	-47.3	19.7	0.00e+00	0	40	0	1263534080	63	4207
2026-01-21 11:29:57.99	333.42	8.84	-46.1	-47.5	19.5	0.00e+00	0	40	0	1270874112	63	4335
2026-01-21 11:30:02.02	333.75	8.55	-46.3	-47.9	19.1	0.00e+00	0	40	0	1278214144	63	4523
2026-01-21 11:30:06.05	334.07	8.26	-46.4	-47.9	19.0	0.00e+00	0	40	0	1286602752	63	4538
2026-01-21 11:30:10.08	334.39	7.98	-46.8	-48.5	18.3	0.00e+00	0	40	0	1293942784	64	4567
2026-01-21 11:30:14.11	334.70	7.69	-46.7	-48.4	18.4	0.00e+00	0	40	0	1301282816	64	4542
2026-01-21 11:30:18.14	335.00	7.41	-46.6	-48.3	18.5	9.10e-06	0	40	0	1308622848	64	4445
2026-01-21 11:30:22.18	335.30	7.13	-46.6	-48.3	18.4	0.00e+00	0	40	0	1315962880	64	4469
2026-01-21 11:30:26.21	335.59	6.86	-46.8	-48.6	18.1	0.00e+00	0	40	0	1324351488	64	4635
2026-01-21 11:30:30.24	335.88	6.58	-47.0	-48.8	17.9	1.14e-05	0	40	0	1331691520	64	4736
2026-01-21 11:30:34.27	336.16	6.31	-47.3	-49.2	17.5	1.50e-06	0	40	0	1339031552	65	4677
2026-01-21 11:30:38.30	336.44	6.04	-47.3	-49.3	17.3	0.00e+00	0	40	0	1346371584	65	4744
2026-01-21 11:30:42.33	336.71	5.78	-47.3	-49.3	17.3	1.22e-05	0	40	0	1354760192	65	4722
2026-01-21 11:30:46.36	336.98	5.51	-47.2	-49.2	17.3	6.10e-06	0	40	0	1362100224	65	4655
2026-01-21 11:30:50.40	337.25	5.25	-47.4	-49.4	17.1	0.00e+00	0	40	0	1369440256	65	4789
2026-01-21 11:30:54.43	337.51	4.99	-48.5	-51.1	15.7	0.00e+00	0	40	0	1376780288	67	5182
2026-01-21 11:30:58.46	337.76	4.73	-50.6	-65.5	3.8	1.49e+00	0	40	104	1377828864	71	21735
2026-01-21 11:31:02.50	338.02	4.47	-50.6	-65.5	3.8	1.49e+00	0	40	104	1377828864	71	21711
2026-01-21 11:31:06.53	338.26	4.22	-50.6	-65.5	3.8	1.49e+00	0	40	104	1377828864	71	21741
2026-01-21 11:31:10.56	338.51	3.97	-50.6	-65.6	3.8	1.49e+00	0	40	104	1377828864	71	21771
2026-01-21 11:31:14.60	338.75	3.72	-50.6	-65.5	3.8	1.49e+00	0	40	104	1377828864	71	21671
2026-01-21 11:31:18.63	338.98	3.47	-50.6	-65.5	3.8	1.49e+00	0	40	104	1377828864	71	21751
2026-01-21 11:31:22.66	339.22	3.22	-50.6	-65.5	3.8	1.49e+00	0	40	104	1377828864	71	21674
2026-01-21 11:31:26.70	339.45	2.98	-50.6	-65.5	3.8	1.49e+00	0	40	104	1377828864	71	21643
2026-01-21 11:31:30.73	339.67	2.73	-50.6	-65.5	3.8	1.49e+00	0	40	104	1377828864	71	21657
2026-01-21 11:31:34.77	339.89	2.49	-50.6	-65.5	3.8	1.49e+00	0	40	104	1377828864	71	21693
2026-01-21 11:31:38.80	340.11	2.25	-50.6	-65.5	3.8	1.49e+00	0	40	104	1377828864	71	21720
2026-01-21 11:31:42.83	340.33	2.02	-50.6	-65.5	3.8	1.49e+00	0	40	104	1377828864	71	21688

#Closed at: 2026-01-21 11:31:44
#Recorded file [1377 MB]: D:/lorett/data/31041_260121_141800.dat