passes_logs/2026/01/21/R3.2S_Murmansk/R3.2S_Murmansk__20260121_101432_FENGYUN_3D_rec.log

#Pass ID: 20260121_101432_FENGYUN 3D
#Satellite: FENGYUN 3D
#Configuration: FENGYUN 3D
#almurnet v.1.7.20251203
#Start time: 2026-01-21 10:14:31

#Version: 2.2.20231116
#Station: R3.2S_Murmansk
#Location: 33.079688 lon 68.888172 lat
#TLE: 1 43010U 17072A   26020.92362722 -.00000077  00000+0 -14488-4 0  9992
#TLE: 2 43010  98.9946 352.8312 0002486  99.3651 260.7806 14.19696535424099

#Time	Az	El	Level	Level2	SNR	BER	BlckErr	Temp	State	Recorded	gain1	gain2
2026-01-21 10:14:31.36	120.59	1.96	-54.3	-66.3	3.8	8.47e-01	0	40	0	0	79	15008
2026-01-21 10:14:35.39	120.47	2.21	-54.5	-66.5	3.8	8.47e-01	0	40	104	0	79	15344
2026-01-21 10:14:39.43	120.35	2.47	-54.4	-66.4	3.8	8.45e-01	0	40	104	0	79	15084
2026-01-21 10:14:43.46	120.23	2.73	-54.2	-66.2	3.8	8.46e-01	0	40	104	0	79	14768
2026-01-21 10:14:47.49	120.11	2.99	-53.8	-65.8	3.8	8.47e-01	0	40	104	0	79	14095
2026-01-21 10:14:51.53	119.98	3.25	-53.6	-65.5	3.8	8.46e-01	0	40	104	0	79	13714
2026-01-21 10:14:55.56	119.85	3.52	-53.2	-65.2	3.8	8.46e-01	0	40	104	0	78	13919
2026-01-21 10:14:59.59	119.72	3.78	-52.4	-62.9	3.8	8.46e-01	0	40	104	0	76	12029
2026-01-21 10:15:03.62	119.59	4.05	-52.2	-62.5	3.8	8.47e-01	0	40	104	0	76	11518
2026-01-21 10:15:07.65	119.45	4.33	-50.3	-54.5	8.5	6.24e-02	0	40	0	10485760	72	5748
2026-01-21 10:15:11.69	119.31	4.60	-46.6	-48.4	14.9	0.00e+00	0	40	0	33554432	65	4248
2026-01-21 10:15:15.72	119.17	4.88	-44.9	-46.3	17.0	0.00e+00	0	40	0	55574528	61	4229
2026-01-21 10:15:19.75	119.03	5.16	-45.2	-46.6	17.1	0.00e+00	0	40	0	78643200	60	4628
2026-01-21 10:15:23.79	118.88	5.45	-43.6	-44.8	18.9	1.58e-03	0	40	0	101711872	59	3959
2026-01-21 10:15:27.82	118.73	5.73	-43.0	-44.1	19.6	0.00e+00	0	40	0	123731968	58	3878
2026-01-21 10:15:31.85	118.57	6.02	-43.1	-44.1	19.6	0.00e+00	0	40	0	146800640	57	4128
2026-01-21 10:15:35.88	118.41	6.31	-43.0	-44.0	19.8	0.00e+00	0	40	0	169869312	57	4097
2026-01-21 10:15:39.91	118.25	6.61	-43.2	-44.3	19.6	0.00e+00	0	40	0	191889408	57	4206
2026-01-21 10:15:43.95	118.09	6.91	-42.7	-43.7	20.2	0.00e+00	0	40	0	214958080	57	3928
2026-01-21 10:15:47.98	117.92	7.21	-42.6	-43.5	20.4	0.00e+00	0	40	0	238026752	57	3863
2026-01-21 10:15:52.01	117.74	7.51	-42.8	-43.8	20.2	0.00e+00	0	40	0	260046848	56	4203
2026-01-21 10:15:56.04	117.57	7.82	-42.6	-43.6	20.3	0.00e+00	0	40	0	283115520	56	4144
2026-01-21 10:16:00.07	117.39	8.13	-42.4	-43.4	20.6	0.00e+00	0	40	0	306184192	56	4026
2026-01-21 10:16:04.11	117.20	8.45	-42.6	-43.5	20.5	0.00e+00	0	40	0	328204288	56	4096
2026-01-21 10:16:08.14	117.01	8.77	-42.6	-43.6	20.5	0.00e+00	0	40	0	351272960	56	4107
2026-01-21 10:16:12.17	116.82	9.09	-42.5	-43.5	20.7	0.00e+00	0	40	0	374341632	56	4054
2026-01-21 10:16:16.20	116.62	9.42	-42.4	-43.4	20.7	0.00e+00	0	40	0	396361728	56	4039
2026-01-21 10:16:20.23	116.42	9.75	-42.3	-43.3	20.8	0.00e+00	0	40	0	418381824	56	3971
2026-01-21 10:16:24.26	116.21	10.09	-42.4	-43.3	20.8	0.00e+00	0	40	0	441450496	56	3992
2026-01-21 10:16:28.30	115.99	10.43	-42.3	-43.2	20.9	0.00e+00	0	40	0	464519168	56	3944
2026-01-21 10:16:32.34	115.78	10.77	-42.3	-43.3	20.9	0.00e+00	0	40	0	486539264	56	3961
2026-01-21 10:16:36.37	115.55	11.12	-41.9	-42.8	21.4	0.00e+00	0	40	0	509607936	55	3965
2026-01-21 10:16:40.40	115.32	11.47	-41.8	-42.7	21.5	0.00e+00	0	40	0	532676608	55	3947
2026-01-21 10:16:44.43	115.09	11.83	-41.6	-42.5	21.7	0.00e+00	0	40	0	554696704	55	3851
2026-01-21 10:16:48.46	114.84	12.19	-41.6	-42.5	21.7	0.00e+00	0	40	0	577765376	55	3834
2026-01-21 10:16:52.49	114.59	12.56	-41.3	-42.2	22.0	0.00e+00	0	40	0	600834048	54	3946
2026-01-21 10:16:56.53	114.34	12.93	-41.4	-42.3	21.9	0.00e+00	0	40	0	622854144	54	3968
2026-01-21 10:17:00.56	114.08	13.31	-41.2	-42.1	22.1	0.00e+00	0	40	0	645922816	54	3872
2026-01-21 10:17:04.59	113.81	13.69	-41.2	-42.1	22.1	0.00e+00	0	40	0	668991488	54	3872
2026-01-21 10:17:08.62	113.53	14.08	-41.0	-41.9	22.3	0.00e+00	0	40	0	691011584	54	3792
2026-01-21 10:17:12.66	113.25	14.47	-41.0	-41.9	22.3	0.00e+00	0	40	0	714080256	53	4020
2026-01-21 10:17:16.69	112.95	14.87	-40.8	-41.6	22.6	0.00e+00	0	40	0	737148928	53	3883
2026-01-21 10:17:20.72	112.65	15.28	-40.7	-41.6	22.6	0.00e+00	0	40	0	759169024	53	3882
2026-01-21 10:17:24.75	112.34	15.69	-40.8	-41.6	22.6	0.00e+00	0	40	0	781189120	53	3912
2026-01-21 10:17:28.79	112.02	16.11	-40.5	-41.4	22.8	0.00e+00	0	40	0	804257792	53	3787
2026-01-21 10:17:32.82	111.70	16.53	-40.3	-41.1	23.1	0.00e+00	0	40	0	827326464	52	3880
2026-01-21 10:17:36.86	111.36	16.96	-40.2	-41.0	23.2	0.00e+00	0	40	0	850395136	52	3850
2026-01-21 10:17:40.89	111.01	17.40	-40.1	-40.8	23.4	0.00e+00	0	40	0	872415232	51	4004
2026-01-21 10:17:44.92	110.65	17.84	-40.1	-40.9	23.3	0.00e+00	0	40	0	895483904	51	4013
2026-01-21 10:17:48.95	110.28	18.29	-40.3	-41.1	23.1	0.00e+00	0	40	0	917504000	51	4127
2026-01-21 10:17:52.98	109.90	18.75	-39.9	-40.7	23.6	0.00e+00	0	40	0	940572672	51	3923
2026-01-21 10:17:57.02	109.51	19.21	-39.9	-40.6	23.9	0.00e+00	0	40	0	963641344	51	3897
2026-01-21 10:18:01.05	109.10	19.68	-39.7	-40.4	24.1	0.00e+00	0	40	0	985661440	51	3800
2026-01-21 10:18:05.08	108.68	20.16	-39.6	-40.3	24.2	0.00e+00	0	40	0	1008730112	50	3978
2026-01-21 10:18:09.11	108.25	20.65	-39.7	-40.5	24.1	0.00e+00	0	40	0	1031798784	50	4059
2026-01-21 10:18:13.15	107.80	21.14	-39.3	-40.1	24.4	0.00e+00	0	40	0	1053818880	50	3871
2026-01-21 10:18:17.18	107.34	21.65	-39.1	-39.8	24.7	0.00e+00	0	40	0	1076887552	50	3755
2026-01-21 10:18:21.21	106.86	22.16	-39.0	-39.7	24.8	0.00e+00	0	40	0	1099956224	49	3923
2026-01-21 10:18:25.24	106.37	22.68	-39.1	-39.8	24.6	0.00e+00	0	40	0	1121976320	49	3998
2026-01-21 10:18:29.27	105.85	23.20	-38.9	-39.7	24.8	0.00e+00	0	40	0	1145044992	49	3916
2026-01-21 10:18:33.30	105.32	23.74	-38.6	-39.3	25.1	0.00e+00	0	40	0	1168113664	49	3769
2026-01-21 10:18:37.33	104.78	24.28	-38.6	-39.3	25.1	0.00e+00	0	40	0	1190133760	48	3990
2026-01-21 10:18:41.36	104.21	24.83	-38.7	-39.4	25.0	0.00e+00	0	40	0	1213202432	48	4043
2026-01-21 10:18:45.40	103.62	25.39	-38.4	-39.1	25.2	0.00e+00	0	40	0	1235222528	48	3902
2026-01-21 10:18:49.43	103.00	25.96	-38.2	-38.9	25.5	0.00e+00	0	40	0	1258291200	48	3795
2026-01-21 10:18:53.46	102.37	26.54	-38.2	-39.0	25.4	0.00e+00	0	40	0	1281359872	48	3827
2026-01-21 10:18:57.50	101.71	27.13	-38.3	-39.0	25.4	0.00e+00	0	40	0	1303379968	48	3847
2026-01-21 10:19:01.54	101.03	27.72	-38.1	-38.8	25.6	0.00e+00	0	40	0	1326448640	48	3742
2026-01-21 10:19:05.57	100.32	28.32	-37.9	-38.6	25.3	0.00e+00	0	40	0	1349517312	47	3884
2026-01-21 10:19:09.60	99.58	28.93	-38.1	-38.8	25.1	0.00e+00	0	40	0	1371537408	47	3986
2026-01-21 10:19:13.64	98.81	29.55	-38.0	-38.8	25.1	0.00e+00	0	40	0	1394606080	47	3964
2026-01-21 10:19:17.67	98.01	30.18	-38.0	-38.7	25.2	0.00e+00	0	40	0	1417674752	47	3928
2026-01-21 10:19:21.70	97.18	30.81	-37.9	-38.6	25.2	0.00e+00	0	40	0	1439694848	47	3912
2026-01-21 10:19:25.73	96.32	31.45	-37.6	-38.3	25.5	0.00e+00	0	40	0	1462763520	46	3971
2026-01-21 10:19:29.77	95.42	32.10	-37.5	-38.2	25.6	0.00e+00	0	40	0	1485832192	46	3952
2026-01-21 10:19:33.80	94.48	32.75	-37.1	-37.8	25.9	0.00e+00	0	40	0	1507852288	46	3764
2026-01-21 10:19:37.83	93.51	33.41	-37.3	-38.0	25.8	0.00e+00	0	40	0	1530920960	46	3864
2026-01-21 10:19:41.87	92.49	34.07	-37.6	-38.3	25.6	0.00e+00	0	40	0	1553989632	46	3961
2026-01-21 10:19:45.90	91.43	34.73	-37.3	-38.0	25.8	0.00e+00	0	40	0	1576009728	46	3847
2026-01-21 10:19:49.93	90.33	35.40	-37.2	-37.9	25.9	0.00e+00	0	40	0	1598029824	46	3788
2026-01-21 10:19:53.96	89.18	36.07	-37.3	-38.0	25.8	0.00e+00	0	40	0	1621098496	46	3842
2026-01-21 10:19:57.99	87.98	36.74	-37.4	-38.1	25.8	0.00e+00	0	40	0	1644167168	46	3872
2026-01-21 10:20:02.02	86.74	37.40	-37.4	-38.1	25.8	0.00e+00	0	40	0	1666187264	46	3876
2026-01-21 10:20:06.06	85.43	38.07	-37.5	-38.2	25.7	0.00e+00	0	40	0	1689255936	46	3929
2026-01-21 10:20:10.09	84.08	38.73	-37.7	-38.4	25.5	0.00e+00	0	40	0	1712324608	46	4032
2026-01-21 10:20:14.12	82.67	39.38	-37.5	-38.2	25.7	0.00e+00	0	40	0	1734344704	46	3930
2026-01-21 10:20:18.15	81.20	40.02	-37.7	-38.4	25.5	0.00e+00	0	40	0	1757413376	46	4014
2026-01-21 10:20:22.19	79.67	40.66	-37.2	-37.9	26.0	0.00e+00	0	40	0	1780482048	46	3792
2026-01-21 10:20:26.22	78.08	41.28	-37.3	-38.0	25.9	0.00e+00	0	40	0	1802502144	46	3825
2026-01-21 10:20:30.25	76.43	41.88	-37.6	-38.3	25.6	0.00e+00	0	40	0	1825570816	46	3980
2026-01-21 10:20:34.28	74.72	42.47	-37.5	-38.2	25.8	0.00e+00	0	40	0	1848639488	46	3923
2026-01-21 10:20:38.31	72.94	43.03	-37.2	-37.8	26.0	0.00e+00	0	40	0	1870659584	46	3778
2026-01-21 10:20:42.34	71.10	43.57	-37.2	-37.9	26.0	0.00e+00	0	40	0	1893728256	46	3785
2026-01-21 10:20:46.37	69.20	44.09	-37.4	-38.1	25.8	0.00e+00	0	40	0	1916796928	46	3891
2026-01-21 10:20:50.40	67.24	44.57	-37.5	-38.2	25.7	0.00e+00	0	40	0	1938817024	46	3947
2026-01-21 10:20:54.43	65.22	45.02	-37.4	-38.1	25.9	0.00e+00	0	40	0	1960837120	46	3882
2026-01-21 10:20:58.47	63.14	45.44	-37.6	-38.3	25.7	0.00e+00	0	40	0	1983905792	46	3989
2026-01-21 10:21:02.50	61.02	45.81	-37.4	-38.1	25.8	0.00e+00	0	40	0	2006974464	46	3889
2026-01-21 10:21:06.53	58.84	46.15	-37.6	-38.3	25.7	0.00e+00	0	40	0	2028994560	46	3972
2026-01-21 10:21:10.56	56.62	46.44	-37.6	-38.3	25.6	0.00e+00	0	40	0	2052063232	46	3992
2026-01-21 10:21:14.59	54.36	46.68	-37.3	-37.9	26.0	0.00e+00	0	40	0	2075131904	46	3819
2026-01-21 10:21:18.63	52.07	46.88	-37.5	-38.2	25.7	0.00e+00	0	40	0	2097152000	46	3935
2026-01-21 10:21:22.66	49.75	47.02	-37.5	-38.2	25.7	0.00e+00	0	40	0	2120220672	46	3949
2026-01-21 10:21:26.69	47.42	47.11	-37.2	-37.9	26.0	0.00e+00	0	40	0	2143289344	46	3815
2026-01-21 10:21:30.72	45.08	47.15	-37.1	-37.8	26.1	0.00e+00	0	40	0	2165309440	46	3766
2026-01-21 10:21:34.75	42.74	47.14	-37.6	-38.3	25.7	0.00e+00	0	40	0	2188378112	46	3961
2026-01-21 10:21:38.78	40.40	47.08	-37.5	-38.2	25.8	0.00e+00	0	40	0	2211446784	46	3953
2026-01-21 10:21:42.82	38.07	46.96	-37.3	-38.0	25.9	0.00e+00	0	40	0	2233466880	46	3838
2026-01-21 10:21:46.85	35.76	46.80	-37.6	-38.3	25.7	0.00e+00	0	40	0	2256535552	46	3975
2026-01-21 10:21:50.88	33.49	46.58	-37.6	-38.3	25.7	0.00e+00	0	40	0	2279604224	46	3997
2026-01-21 10:21:54.91	31.25	46.32	-37.0	-37.7	26.2	0.00e+00	0	40	0	2301624320	46	3705
2026-01-21 10:21:58.95	29.04	46.01	-37.2	-37.9	26.0	0.00e+00	0	40	0	2323644416	46	3808
2026-01-21 10:22:02.98	26.89	45.65	-37.3	-38.0	25.9	0.00e+00	0	40	0	2346713088	46	3853
2026-01-21 10:22:07.01	24.79	45.26	-37.3	-38.0	26.0	0.00e+00	0	40	0	2369781760	46	3846
2026-01-21 10:22:11.04	22.74	44.83	-37.1	-37.8	26.1	0.00e+00	0	40	0	2391801856	46	3763
2026-01-21 10:22:15.07	20.75	44.36	-36.9	-37.6	26.3	0.00e+00	0	40	0	2414870528	45	3880
2026-01-21 10:22:19.11	18.81	43.87	-36.9	-37.6	26.2	0.00e+00	0	40	0	2437939200	45	3903
2026-01-21 10:22:23.14	16.94	43.34	-37.2	-37.9	26.1	0.00e+00	0	40	0	2459959296	45	4011
2026-01-21 10:22:27.17	15.14	42.79	-36.8	-37.5	26.3	0.00e+00	0	40	0	2483027968	45	3856
2026-01-21 10:22:31.20	13.39	42.22	-36.7	-37.3	26.5	0.00e+00	0	40	0	2506096640	45	3769
2026-01-21 10:22:35.23	11.71	41.62	-36.9	-37.5	26.3	0.00e+00	0	40	0	2528116736	45	3856
2026-01-21 10:22:39.26	10.09	41.01	-36.9	-37.5	26.3	0.00e+00	0	40	0	2551185408	45	3862
2026-01-21 10:22:43.30	8.53	40.39	-37.3	-38.0	25.9	0.00e+00	0	40	0	2574254080	45	4081
2026-01-21 10:22:47.33	7.03	39.75	-37.3	-37.9	26.0	0.00e+00	0	40	0	2596274176	45	4047
2026-01-21 10:22:51.36	5.59	39.10	-37.0	-37.7	26.2	0.00e+00	0	40	0	2619342848	45	3923
2026-01-21 10:22:55.40	4.20	38.45	-37.1	-37.7	26.1	0.00e+00	0	40	0	2642411520	45	3953
2026-01-21 10:22:59.43	2.87	37.79	-37.0	-37.6	26.2	0.00e+00	0	40	0	2664431616	45	3908
2026-01-21 10:23:03.47	1.60	37.12	-36.6	-37.2	26.5	0.00e+00	0	40	0	2687500288	45	3736
2026-01-21 10:23:07.50	0.37	36.45	-36.6	-37.2	26.6	0.00e+00	0	40	0	2709520384	45	3724
2026-01-21 10:23:11.53	359.20	35.79	-36.7	-37.4	26.4	0.00e+00	0	40	0	2732589056	45	3807
2026-01-21 10:23:15.56	358.08	35.12	-37.0	-37.7	26.1	0.00e+00	0	40	0	2755657728	45	3915
2026-01-21 10:23:19.60	356.99	34.46	-37.0	-37.7	26.1	0.00e+00	0	40	0	2777677824	45	3949
2026-01-21 10:23:23.63	355.96	33.80	-36.9	-37.6	26.2	0.00e+00	0	40	0	2800746496	45	3899
2026-01-21 10:23:27.66	354.96	33.14	-36.7	-37.4	26.4	0.00e+00	0	40	0	2823815168	45	3783
2026-01-21 10:23:31.69	354.01	32.48	-37.0	-37.7	26.1	0.00e+00	0	40	0	2845835264	45	3935
2026-01-21 10:23:35.73	353.09	31.84	-37.0	-37.7	26.1	0.00e+00	0	40	0	2868903936	45	3946
2026-01-21 10:23:39.76	352.21	31.19	-37.0	-37.7	26.1	0.00e+00	0	40	0	2891972608	45	3924
2026-01-21 10:23:43.79	351.36	30.56	-37.1	-37.8	26.0	0.00e+00	0	40	0	2913992704	45	3991
2026-01-21 10:23:47.82	350.55	29.93	-37.6	-38.3	25.6	0.00e+00	0	40	0	2937061376	45	4203
2026-01-21 10:23:51.85	349.77	29.31	-37.4	-38.1	25.7	0.00e+00	0	40	0	2959081472	45	4114
2026-01-21 10:23:55.89	349.01	28.70	-37.3	-38.0	25.8	0.00e+00	0	40	0	2982150144	45	4097
2026-01-21 10:23:59.92	348.29	28.09	-37.2	-37.9	25.9	0.00e+00	0	40	0	3005218816	45	4016
2026-01-21 10:24:03.95	347.59	27.49	-37.5	-38.2	25.6	0.00e+00	0	40	0	3027238912	45	4184
2026-01-21 10:24:07.98	346.92	26.91	-37.7	-38.4	25.5	0.00e+00	0	40	0	3050307584	46	4020
2026-01-21 10:24:12.01	346.28	26.33	-37.5	-38.2	25.6	0.00e+00	0	40	0	3072327680	46	3925
2026-01-21 10:24:16.05	345.65	25.75	-37.5	-38.2	25.6	0.00e+00	0	40	0	3095396352	46	3924
2026-01-21 10:24:20.08	345.05	25.19	-37.4	-38.1	25.7	0.00e+00	0	40	0	3118465024	46	3884
2026-01-21 10:24:24.11	344.47	24.63	-37.3	-37.9	25.8	0.00e+00	0	40	0	3140485120	46	3819
2026-01-21 10:24:28.15	343.92	24.09	-37.6	-38.3	25.5	0.00e+00	0	40	0	3163553792	46	3992
2026-01-21 10:24:32.18	343.38	23.55	-37.5	-38.2	25.5	0.00e+00	0	40	0	3186622464	46	3946
2026-01-21 10:24:36.21	342.86	23.02	-37.7	-38.4	25.4	0.00e+00	0	40	0	3208642560	46	4025
2026-01-21 10:24:40.24	342.35	22.50	-37.9	-38.6	25.2	0.00e+00	0	40	0	3231711232	46	4136
2026-01-21 10:24:44.27	341.87	21.98	-38.0	-38.8	25.0	0.00e+00	0	40	0	3254779904	46	4201
2026-01-21 10:24:48.30	341.40	21.48	-37.9	-38.6	25.1	0.00e+00	0	40	0	3276800000	46	4135
2026-01-21 10:24:52.33	340.95	20.98	-38.0	-38.7	25.1	0.00e+00	0	40	0	3299868672	46	4171
2026-01-21 10:24:56.37	340.51	20.49	-38.1	-38.8	25.0	0.00e+00	0	40	0	3322937344	46	4221
2026-01-21 10:25:00.40	340.08	20.01	-38.3	-39.0	24.8	0.00e+00	0	40	0	3344957440	47	4088
2026-01-21 10:25:04.43	339.67	19.53	-38.6	-39.3	24.4	0.00e+00	0	40	0	3368026112	47	4241
2026-01-21 10:25:08.46	339.27	19.06	-39.2	-40.0	24.4	0.00e+00	0	40	0	3391094784	49	4074
2026-01-21 10:25:12.49	338.89	18.60	-39.4	-40.2	24.2	0.00e+00	0	40	0	3413114880	49	4150
2026-01-21 10:25:16.52	338.51	18.15	-39.2	-39.9	24.4	0.00e+00	0	40	0	3435134976	49	4033
2026-01-21 10:25:20.55	338.15	17.70	-39.3	-40.0	24.3	0.00e+00	0	40	0	3458203648	49	4076
2026-01-21 10:25:24.58	337.80	17.27	-39.4	-40.1	24.2	0.00e+00	0	40	0	3481272320	49	4141
2026-01-21 10:25:28.62	337.45	16.83	-39.5	-40.2	24.1	0.00e+00	0	40	0	3503292416	49	4177
2026-01-21 10:25:32.65	337.12	16.41	-39.5	-40.3	24.1	5.70e-06	0	40	0	3526361088	49	4200
2026-01-21 10:25:36.68	336.80	15.99	-39.7	-40.5	23.8	0.00e+00	0	40	0	3549429760	50	4069
2026-01-21 10:25:40.72	336.49	15.57	-40.0	-40.8	23.6	0.00e+00	0	40	0	3571449856	50	4205
2026-01-21 10:25:44.75	336.18	15.16	-40.3	-41.1	23.3	0.00e+00	0	40	0	3594518528	51	4107
2026-01-21 10:25:48.78	335.89	14.76	-40.4	-41.2	23.2	0.00e+00	0	40	0	3617587200	51	4152
2026-01-21 10:25:52.80	335.60	14.37	-40.5	-41.3	23.0	0.00e+00	0	40	0	3639607296	51	4236
2026-01-21 10:25:56.84	335.32	13.98	-40.3	-41.1	23.3	0.00e+00	0	40	0	3662675968	51	4101
2026-01-21 10:26:00.87	335.05	13.59	-40.2	-41.0	23.3	0.00e+00	0	40	0	3685744640	51	4072
2026-01-21 10:26:04.91	334.79	13.21	-40.3	-41.1	23.2	0.00e+00	0	40	0	3707764736	51	4119
2026-01-21 10:26:08.94	334.53	12.84	-40.5	-41.2	23.0	0.00e+00	0	40	0	3730833408	51	4185
2026-01-21 10:26:12.97	334.28	12.47	-40.6	-41.4	22.9	5.70e-06	0	40	0	3753902080	51	4257
2026-01-21 10:26:17.01	334.03	12.10	-40.8	-41.6	22.6	0.00e+00	0	40	0	3775922176	52	4120
2026-01-21 10:26:21.03	333.80	11.74	-40.8	-41.6	22.6	0.00e+00	0	40	0	3797942272	52	4118
2026-01-21 10:26:25.06	333.57	11.39	-41.1	-41.9	22.2	0.00e+00	0	40	0	3821010944	52	4289
2026-01-21 10:26:29.09	333.34	11.04	-41.0	-41.9	22.3	0.00e+00	0	40	0	3844079616	52	4243
2026-01-21 10:26:33.12	333.12	10.69	-40.9	-41.8	22.4	0.00e+00	0	40	0	3866099712	52	4200
2026-01-21 10:26:37.15	332.91	10.35	-41.0	-41.8	22.3	0.00e+00	0	40	0	3889168384	52	4237
2026-01-21 10:26:41.19	332.70	10.02	-41.0	-41.8	22.2	0.00e+00	0	40	0	3912237056	52	4234
2026-01-21 10:26:45.22	332.49	9.68	-41.1	-42.0	22.1	0.00e+00	0	40	0	3934257152	53	4053
2026-01-21 10:26:49.25	332.29	9.35	-41.2	-42.1	22.0	0.00e+00	0	40	0	3957325824	53	4100
2026-01-21 10:26:53.28	332.10	9.03	-41.3	-42.2	21.9	0.00e+00	0	40	0	3980394496	53	4151
2026-01-21 10:26:57.31	331.91	8.71	-41.5	-42.3	21.7	0.00e+00	0	40	0	4002414592	53	4228
2026-01-21 10:27:01.35	331.72	8.39	-41.7	-42.6	21.4	0.00e+00	0	40	0	4025483264	53	4350
2026-01-21 10:27:05.39	331.54	8.08	-41.8	-42.7	21.3	0.00e+00	0	40	0	4048551936	54	4180
2026-01-21 10:27:09.42	331.36	7.77	-41.8	-42.7	21.3	0.00e+00	0	40	0	4070572032	54	4157
2026-01-21 10:27:13.45	331.19	7.46	-41.9	-42.8	21.1	0.00e+00	0	40	0	4093640704	54	4234
2026-01-21 10:27:17.48	331.02	7.16	-42.1	-43.0	20.9	0.00e+00	0	40	0	4116709376	55	4097
2026-01-21 10:27:21.51	330.86	6.86	-42.0	-42.9	21.0	0.00e+00	0	40	0	4138729472	55	4022
2026-01-21 10:27:25.55	330.70	6.56	-42.5	-43.5	20.4	0.00e+00	0	40	0	4160749568	55	4294
2026-01-21 10:27:29.57	330.54	6.27	-42.5	-43.5	20.4	0.00e+00	0	40	0	4183818240	55	4313
2026-01-21 10:27:33.61	330.38	5.97	-42.7	-43.7	20.2	0.00e+00	0	40	0	4206886912	56	4170
2026-01-21 10:27:37.64	330.23	5.69	-42.5	-43.5	20.4	0.00e+00	0	40	0	4228907008	56	4074
2026-01-21 10:27:41.67	330.09	5.40	-42.9	-43.9	20.0	0.00e+00	0	40	0	4251975680	56	4250
2026-01-21 10:27:45.71	329.94	5.12	-42.9	-43.9	19.9	0.00e+00	0	40	0	4275044352	56	4273
2026-01-21 10:27:49.73	329.80	4.84	-53.2	-65.2	3.8	8.47e-01	0	40	104	4286578688	76	15582
2026-01-21 10:27:53.76	329.66	4.56	-53.5	-65.5	3.8	8.47e-01	0	40	104	4286578688	77	15324
2026-01-21 10:27:57.80	329.52	4.29	-53.4	-65.4	3.8	8.47e-01	0	40	104	4286578688	77	15069
2026-01-21 10:28:01.83	329.39	4.02	-53.5	-65.5	3.8	8.45e-01	0	40	104	4286578688	77	15249
2026-01-21 10:28:05.86	329.26	3.75	-53.6	-65.6	3.8	8.46e-01	0	40	104	4286578688	77	15415
2026-01-21 10:28:09.89	329.13	3.48	-53.6	-65.5	3.8	8.46e-01	0	40	104	4286578688	77	15358
2026-01-21 10:28:13.92	329.01	3.22	-53.5	-65.5	3.8	8.46e-01	0	40	104	4286578688	77	15303
2026-01-21 10:28:17.96	328.89	2.96	-53.5	-65.5	3.8	8.46e-01	0	40	104	4286578688	77	15305
2026-01-21 10:28:21.99	328.77	2.70	-53.5	-65.5	3.8	8.45e-01	0	40	104	4286578688	77	15244
2026-01-21 10:28:26.02	328.65	2.44	-53.5	-65.5	3.8	8.45e-01	0	40	104	4286578688	77	15286
2026-01-21 10:28:30.05	328.53	2.19	-53.5	-65.5	3.8	8.46e-01	0	40	104	4286578688	77	15273

#Closed at: 2026-01-21 10:28:33
#Recorded file [4286 MB]: D:/lorett/data/31041_260121_131431.dat