passes_logs/2026/01/21/R3.2S_Murmansk/R3.2S_Murmansk__20260121_052307_KANOPUS-V_5_rec.log

#Pass ID: 20260121_052307_KANOPUS-V 5
#Satellite: KANOPUS-V 5
#Configuration: KANOPUS-V_8320
#almurnet v.1.7.20251203
#Start time: 2026-01-21 05:23:08

#Version: 2.2.20231116
#Station: R3.2S_Murmansk
#Location: 33.079688 lon 68.888172 lat
#TLE: 1 43876U 18111A   26020.16250899  .00005594  00000+0  23751-3 0  9993
#TLE: 2 43876  97.3687 288.5833 0001817  87.9007 272.2438 15.23474018392259

#Time	Az	El	Level	Level2	SNR	BER	BlckErr	Temp	State	Recorded	gain1	gain2
2026-01-21 05:23:08.69	96.08	2.10	-54.9	-63.7	3.8	7.46e-01	0	39	0	0	80	10515
2026-01-21 05:23:11.72	95.81	2.29	-54.9	-63.8	3.8	7.44e-01	0	39	104	0	81	9980
2026-01-21 05:23:14.74	95.53	2.48	-54.8	-63.6	3.8	7.45e-01	0	39	104	0	81	9791
2026-01-21 05:23:17.77	95.25	2.67	-54.6	-63.5	3.8	7.45e-01	0	39	104	0	81	9644
2026-01-21 05:23:20.79	94.96	2.86	-54.3	-63.1	3.8	7.45e-01	0	39	104	0	80	9808
2026-01-21 05:23:23.81	94.67	3.05	-53.8	-62.7	3.8	7.44e-01	0	39	104	0	79	9834
2026-01-21 05:23:26.84	94.37	3.24	-53.5	-62.3	3.8	7.46e-01	0	39	104	0	79	9480
2026-01-21 05:23:29.86	94.07	3.44	-53.1	-62.0	3.8	7.43e-01	0	39	104	0	78	9611
2026-01-21 05:23:32.89	93.76	3.63	-53.1	-61.9	3.8	7.45e-01	0	39	104	0	78	9549
2026-01-21 05:23:35.91	93.45	3.83	-53.1	-61.9	3.8	7.44e-01	0	39	104	0	78	9571
2026-01-21 05:23:38.94	93.13	4.03	-53.1	-61.9	3.8	7.47e-01	0	40	104	0	78	9532
2026-01-21 05:23:41.97	92.80	4.23	-53.0	-61.8	3.8	7.44e-01	0	39	104	0	78	9400
2026-01-21 05:23:44.99	92.47	4.43	-52.8	-60.8	3.8	7.45e-01	0	40	104	0	77	8921
2026-01-21 05:23:48.01	92.13	4.63	-51.9	-57.9	4.3	7.30e-01	0	40	104	0	75	7140
2026-01-21 05:23:51.04	91.79	4.84	-48.4	-51.5	9.0	6.23e-01	0	40	0	46137344	68	5137
2026-01-21 05:23:54.06	91.44	5.04	-48.3	-51.2	9.4	6.26e-01	0	40	0	92274688	67	5275
2026-01-21 05:23:57.09	91.08	5.25	-52.9	-61.3	3.8	7.46e-01	0	40	104	134217728	76	10048
2026-01-21 05:24:00.11	90.72	5.45	-44.4	-46.5	14.0	5.99e-01	0	40	0	165675008	60	4579
2026-01-21 05:24:03.14	90.35	5.66	-44.1	-46.1	14.4	6.02e-01	0	40	0	211812352	59	4636
2026-01-21 05:24:06.16	89.98	5.87	-44.0	-46.0	14.6	5.99e-01	0	40	0	257949696	59	4568
2026-01-21 05:24:09.19	89.59	6.08	-43.7	-45.7	14.8	6.01e-01	0	40	0	306184192	59	4425
2026-01-21 05:24:12.21	89.20	6.29	-43.9	-46.0	14.6	6.02e-01	0	40	0	352321536	59	4562
2026-01-21 05:24:15.24	88.80	6.51	-43.6	-45.6	14.9	6.03e-01	0	40	0	398458880	59	4369
2026-01-21 05:24:18.26	88.40	6.72	-43.6	-45.6	14.9	6.02e-01	0	40	0	444596224	58	4650
2026-01-21 05:24:21.29	87.98	6.94	-43.2	-45.2	15.4	6.01e-01	0	40	0	490733568	58	4422
2026-01-21 05:24:24.31	87.56	7.16	-43.3	-45.3	15.4	5.99e-01	0	40	0	536870912	58	4442
2026-01-21 05:24:27.34	87.13	7.38	-43.0	-44.9	15.6	5.98e-01	0	40	0	583008256	57	4508
2026-01-21 05:24:30.37	86.69	7.60	-43.1	-44.9	15.6	6.01e-01	0	40	0	629145600	57	4540
2026-01-21 05:24:33.40	86.24	7.82	-42.9	-44.8	15.7	5.99e-01	0	40	0	677380096	57	4475
2026-01-21 05:24:36.42	85.79	8.04	-43.0	-45.0	15.6	6.00e-01	0	40	0	723517440	57	4551
2026-01-21 05:24:39.44	85.33	8.26	-43.1	-45.0	15.6	5.99e-01	0	40	0	769654784	57	4585
2026-01-21 05:24:42.47	84.85	8.49	-42.9	-44.8	15.8	6.01e-01	0	40	0	815792128	57	4492
2026-01-21 05:24:45.50	84.37	8.71	-42.9	-44.9	15.8	5.95e-01	0	40	0	864026624	57	4509
2026-01-21 05:24:48.52	83.88	8.94	-42.7	-44.7	15.9	5.98e-01	0	40	0	910163968	57	4418
2026-01-21 05:24:51.55	83.37	9.17	-42.7	-44.7	15.9	6.01e-01	0	41	0	956301312	57	4410
2026-01-21 05:24:54.57	82.86	9.40	-42.5	-44.6	16.1	5.92e-01	0	40	0	1002438656	57	4345
2026-01-21 05:24:57.60	82.34	9.63	-42.3	-44.2	16.4	6.02e-01	0	40	0	1048576000	56	4425
2026-01-21 05:25:00.62	81.80	9.86	-42.6	-44.5	16.2	5.91e-01	0	40	0	1094713344	56	4551
2026-01-21 05:25:03.65	81.26	10.09	-42.6	-44.4	16.2	5.91e-01	0	40	0	1140850688	56	4516
2026-01-21 05:25:06.67	80.71	10.32	-42.5	-44.3	16.3	6.00e-01	0	40	0	1186988032	56	4470
2026-01-21 05:25:09.70	80.14	10.56	-42.2	-44.1	16.5	5.92e-01	0	40	0	1235222528	56	4342
2026-01-21 05:25:12.73	79.56	10.79	-42.1	-44.0	16.7	5.97e-01	0	40	0	1281359872	55	4587
2026-01-21 05:25:15.75	78.97	11.02	-42.0	-43.8	16.9	5.96e-01	0	40	0	1327497216	55	4488
2026-01-21 05:25:18.78	78.37	11.26	-41.9	-43.8	16.9	5.96e-01	0	40	0	1373634560	55	4478
2026-01-21 05:25:21.80	77.76	11.49	-41.8	-43.7	17.0	5.98e-01	0	41	0	1421869056	55	4435
2026-01-21 05:25:24.82	77.14	11.73	-41.7	-43.6	17.0	5.96e-01	0	40	0	1468006400	55	4390
2026-01-21 05:25:27.85	76.50	11.96	-41.7	-43.6	17.1	5.92e-01	0	41	0	1514143744	55	4355
2026-01-21 05:25:30.87	75.85	12.20	-41.8	-43.7	17.0	5.97e-01	0	41	0	1558183936	55	4416
2026-01-21 05:25:33.90	75.19	12.43	-41.8	-43.6	17.1	5.93e-01	0	41	0	1606418432	55	4366
2026-01-21 05:25:36.92	74.51	12.67	-41.7	-43.6	17.2	5.92e-01	0	41	0	1652555776	55	4353
2026-01-21 05:25:39.95	73.82	12.90	-41.8	-43.8	16.9	5.98e-01	0	41	0	1698693120	55	4470
2026-01-21 05:25:42.97	73.12	13.13	-41.8	-43.8	17.0	5.94e-01	0	41	0	1744830464	55	4449
2026-01-21 05:25:45.99	72.41	13.37	-41.6	-43.6	17.2	5.96e-01	0	41	0	1793064960	55	4341
2026-01-21 05:25:49.02	71.68	13.60	-41.4	-43.3	17.3	5.96e-01	0	41	0	1839202304	54	4472
2026-01-21 05:25:52.04	70.93	13.83	-41.5	-43.4	17.3	5.93e-01	0	41	0	1885339648	54	4530
2026-01-21 05:25:55.06	70.18	14.06	-41.4	-43.2	17.4	5.96e-01	0	41	0	1931476992	54	4424
2026-01-21 05:25:58.09	69.40	14.29	-41.6	-43.5	17.3	5.94e-01	0	41	0	1977614336	54	4548
2026-01-21 05:26:01.11	68.62	14.51	-41.6	-43.5	17.3	5.99e-01	0	41	0	2023751680	54	4561
2026-01-21 05:26:04.14	67.82	14.74	-41.4	-43.3	17.4	5.99e-01	0	41	0	2069889024	54	4491
2026-01-21 05:26:07.16	67.00	14.96	-41.3	-43.2	17.5	5.99e-01	0	41	0	2116026368	54	4398
2026-01-21 05:26:10.19	66.17	15.18	-41.4	-43.3	17.5	5.85e-01	0	41	0	2164260864	54	4489
2026-01-21 05:26:13.21	65.33	15.39	-41.5	-43.4	17.4	5.86e-01	0	41	0	2210398208	54	4500
2026-01-21 05:26:16.24	64.47	15.61	-41.6	-43.5	17.3	5.86e-01	0	41	0	2256535552	54	4583
2026-01-21 05:26:19.27	63.59	15.82	-41.5	-43.5	17.3	5.85e-01	0	41	0	2302672896	54	4581
2026-01-21 05:26:22.29	62.71	16.02	-41.4	-43.4	17.4	5.85e-01	0	41	0	2350907392	54	4526
2026-01-21 05:26:25.31	61.81	16.23	-41.2	-43.1	17.6	5.85e-01	0	41	0	2397044736	54	4386
2026-01-21 05:26:28.34	60.89	16.42	-41.3	-43.3	17.4	5.94e-01	0	41	0	2443182080	54	4488
2026-01-21 05:26:31.36	59.96	16.62	-41.5	-43.5	17.3	5.98e-01	0	41	0	2489319424	54	4588
2026-01-21 05:26:34.39	59.01	16.81	-41.9	-43.8	17.0	5.97e-01	0	40	0	2535456768	54	4756
2026-01-21 05:26:37.41	58.06	16.99	-41.8	-43.7	17.1	5.99e-01	0	41	0	2581594112	54	4698
2026-01-21 05:26:40.43	57.08	17.17	-41.6	-43.5	17.3	6.03e-01	0	41	0	2627731456	54	4586
2026-01-21 05:26:43.46	56.10	17.34	-41.5	-43.5	17.3	5.97e-01	0	41	0	2673868800	54	4565
2026-01-21 05:26:46.48	55.10	17.50	-41.8	-43.8	17.1	5.98e-01	0	41	0	2720006144	54	4731
2026-01-21 05:26:49.51	54.09	17.66	-41.8	-43.9	17.0	5.97e-01	0	41	0	2768240640	54	4804
2026-01-21 05:26:52.53	53.06	17.82	-41.6	-43.7	17.2	5.99e-01	0	41	0	2814377984	54	4700
2026-01-21 05:26:55.56	52.03	17.96	-41.8	-43.9	17.0	6.03e-01	0	41	0	2860515328	54	4779
2026-01-21 05:26:58.59	50.98	18.10	-41.9	-44.1	16.9	5.97e-01	0	41	0	2906652672	54	4884
2026-01-21 05:27:01.61	49.92	18.23	-42.0	-44.1	16.9	5.98e-01	0	41	0	2954887168	54	4913
2026-01-21 05:27:04.63	48.86	18.35	-42.0	-44.2	16.8	5.99e-01	0	41	0	3001024512	54	4968
2026-01-21 05:27:07.66	47.78	18.46	-42.1	-44.3	16.7	5.98e-01	0	41	0	3045064704	54	5023
2026-01-21 05:27:10.68	46.69	18.57	-42.1	-44.4	16.7	5.98e-01	0	40	0	3091202048	54	5054
2026-01-21 05:27:13.70	45.60	18.66	-42.4	-44.6	16.5	5.98e-01	0	41	0	3139436544	55	4925
2026-01-21 05:27:16.73	44.50	18.75	-42.1	-44.4	16.7	5.98e-01	0	41	0	3185573888	55	4782
2026-01-21 05:27:19.75	43.39	18.83	-42.1	-44.4	16.7	5.98e-01	0	41	0	3231711232	55	4813
2026-01-21 05:27:22.78	42.27	18.89	-42.0	-44.2	16.8	5.98e-01	0	41	0	3277848576	55	4688
2026-01-21 05:27:25.80	41.16	18.95	-42.1	-44.4	16.7	6.01e-01	0	41	0	3326083072	55	4801
2026-01-21 05:27:28.82	40.03	19.00	-42.1	-44.4	16.7	5.98e-01	0	41	0	3372220416	55	4766
2026-01-21 05:27:31.85	38.90	19.03	-42.1	-44.4	16.7	5.97e-01	0	41	0	3418357760	55	4805
2026-01-21 05:27:34.87	37.77	19.06	-42.1	-44.3	16.7	6.00e-01	0	41	0	3464495104	55	4745
2026-01-21 05:27:37.89	36.64	19.08	-42.2	-44.5	16.6	6.01e-01	0	41	0	3510632448	55	4822
2026-01-21 05:27:40.92	35.51	19.09	-42.3	-44.7	16.4	6.02e-01	0	41	0	3556769792	55	4951
2026-01-21 05:27:43.94	34.38	19.08	-42.2	-44.6	16.5	6.02e-01	0	41	0	3602907136	55	4914
2026-01-21 05:27:46.97	33.24	19.07	-42.3	-44.7	16.4	6.00e-01	0	41	0	3649044480	55	4957
2026-01-21 05:27:49.98	32.12	19.04	-42.3	-44.8	16.3	6.01e-01	0	41	0	3695181824	55	5024
2026-01-21 05:27:53.01	30.98	19.01	-42.5	-45.0	16.2	5.98e-01	0	41	0	3743416320	55	5104
2026-01-21 05:27:56.03	29.86	18.96	-42.6	-45.0	16.2	6.03e-01	0	41	0	3789553664	55	5119
2026-01-21 05:27:59.06	28.74	18.91	-42.6	-45.1	16.1	5.99e-01	0	41	0	3835691008	55	5171
2026-01-21 05:28:02.08	27.63	18.85	-42.5	-44.9	16.3	5.98e-01	0	41	0	3881828352	55	5054
2026-01-21 05:28:05.10	26.52	18.77	-42.7	-45.1	16.0	5.99e-01	0	41	0	3930062848	56	4882
2026-01-21 05:28:08.13	25.41	18.69	-42.8	-45.0	16.0	5.99e-01	0	41	0	3976200192	56	4835
2026-01-21 05:28:11.15	24.32	18.59	-42.6	-44.9	16.1	6.04e-01	0	41	0	4022337536	56	4807
2026-01-21 05:28:14.17	23.23	18.49	-42.8	-45.2	15.9	5.98e-01	0	41	0	4068474880	56	4980
2026-01-21 05:28:17.20	22.15	18.38	-42.8	-45.2	15.9	5.98e-01	0	41	0	4114612224	56	4954
2026-01-21 05:28:20.22	21.09	18.26	-42.6	-45.0	16.0	6.02e-01	0	41	0	4160749568	56	4815
2026-01-21 05:28:23.25	20.03	18.14	-42.5	-44.8	16.2	5.99e-01	0	41	0	4206886912	56	4752
2026-01-21 05:28:26.27	18.98	18.00	-42.5	-44.8	16.1	6.04e-01	0	41	0	4253024256	56	4750
2026-01-21 05:28:29.29	17.94	17.86	-42.5	-44.8	16.2	6.01e-01	0	41	0	4301258752	56	4747
2026-01-21 05:28:32.32	16.92	17.71	-42.6	-45.0	16.0	6.00e-01	0	41	0	4347396096	56	4834
2026-01-21 05:28:35.34	15.91	17.55	-42.7	-45.1	15.9	5.99e-01	0	41	0	4393533440	56	4908
2026-01-21 05:28:38.37	14.90	17.39	-42.8	-45.0	16.0	6.00e-01	0	41	0	4439670784	56	4869
2026-01-21 05:28:41.39	13.92	17.22	-42.8	-45.1	15.9	6.01e-01	0	41	0	4485808128	56	4889
2026-01-21 05:28:44.41	12.95	17.04	-42.9	-45.2	15.8	6.02e-01	0	41	0	4531945472	56	4955
2026-01-21 05:28:47.43	11.99	16.86	-42.5	-44.8	16.2	6.01e-01	0	41	0	4578082816	56	4723
2026-01-21 05:28:50.46	11.04	16.68	-42.6	-44.9	16.1	6.03e-01	0	41	0	4624220160	56	4770
2026-01-21 05:28:53.48	10.11	16.48	-42.8	-45.1	15.9	6.04e-01	0	41	0	4670357504	56	4917
2026-01-21 05:28:56.50	9.19	16.29	-42.8	-45.1	15.9	6.03e-01	0	41	0	4718592000	56	4900
2026-01-21 05:28:59.53	8.29	16.09	-42.6	-44.9	16.1	5.86e-01	0	41	0	4764729344	56	4804
2026-01-21 05:29:02.55	7.40	15.88	-42.6	-45.0	16.0	5.85e-01	0	41	0	4810866688	56	4827
2026-01-21 05:29:05.57	6.52	15.67	-42.7	-45.1	15.9	5.86e-01	0	41	0	4857004032	56	4898
2026-01-21 05:29:08.60	5.66	15.46	-44.1	-45.0	16.1	5.86e-01	0	41	0	4905238528	58	4334
2026-01-21 05:29:11.62	4.82	15.25	-54.1	-63.0	3.8	7.47e-01	0	41	104	4924112896	78	10799
2026-01-21 05:29:14.65	3.98	15.03	-54.1	-62.9	3.8	7.45e-01	0	41	104	4924112896	78	10739
2026-01-21 05:29:17.67	3.17	14.81	-54.1	-62.9	3.8	7.46e-01	0	41	104	4924112896	78	10672
2026-01-21 05:29:20.69	2.37	14.59	-54.1	-62.9	3.8	7.45e-01	0	41	104	4924112896	78	10684
2026-01-21 05:29:23.72	1.58	14.36	-54.0	-62.9	3.8	7.44e-01	0	41	104	4924112896	78	10657
2026-01-21 05:29:26.74	0.81	14.14	-54.0	-62.8	3.8	7.46e-01	0	41	104	4924112896	78	10622
2026-01-21 05:29:29.77	0.05	13.91	-54.0	-62.8	3.8	7.47e-01	0	41	104	4924112896	78	10618
2026-01-21 05:29:32.79	359.30	13.68	-54.0	-62.8	3.8	7.45e-01	0	41	104	4924112896	78	10608
2026-01-21 05:29:35.81	358.57	13.45	-53.9	-62.8	3.8	7.45e-01	0	41	104	4924112896	78	10556
2026-01-21 05:29:38.84	357.85	13.22	-53.9	-62.8	3.8	7.45e-01	0	41	104	4924112896	78	10547
2026-01-21 05:29:41.86	357.15	12.98	-53.9	-62.7	3.8	7.46e-01	0	41	104	4924112896	78	10511
2026-01-21 05:29:44.89	356.46	12.75	-53.9	-62.8	3.8	7.45e-01	0	41	104	4924112896	78	10559
2026-01-21 05:29:47.91	355.78	12.52	-53.9	-62.7	3.8	7.47e-01	0	41	104	4924112896	78	10509
2026-01-21 05:29:50.93	355.12	12.28	-53.9	-62.7	3.8	7.45e-01	0	41	104	4924112896	78	10459
2026-01-21 05:29:53.96	354.47	12.05	-53.8	-62.7	3.8	7.45e-01	0	41	104	4924112896	78	10431
2026-01-21 05:29:56.98	353.83	11.81	-53.9	-62.7	3.8	7.45e-01	0	41	104	4924112896	78	10526
2026-01-21 05:30:00.01	353.20	11.58	-53.8	-62.7	3.8	7.45e-01	0	41	104	4924112896	78	10465
2026-01-21 05:30:03.03	352.59	11.35	-53.8	-62.6	3.8	7.46e-01	0	41	104	4924112896	78	10346
2026-01-21 05:30:06.06	351.99	11.11	-53.8	-62.6	3.8	7.47e-01	0	41	104	4924112896	78	10341
2026-01-21 05:30:09.08	351.40	10.88	-53.8	-62.6	3.8	7.45e-01	0	41	104	4924112896	78	10397
2026-01-21 05:30:12.11	350.82	10.65	-53.8	-62.6	3.8	7.46e-01	0	41	104	4924112896	78	10308
2026-01-21 05:30:15.13	350.26	10.41	-53.7	-62.5	3.8	7.44e-01	0	41	104	4924112896	78	10265
2026-01-21 05:30:18.16	349.70	10.18	-53.7	-62.5	3.8	7.45e-01	0	41	104	4924112896	78	10208
2026-01-21 05:30:21.18	349.15	9.95	-53.7	-62.6	3.8	7.45e-01	0	41	104	4924112896	78	10334
2026-01-21 05:30:24.20	348.62	9.72	-53.7	-62.5	3.8	7.45e-01	0	41	104	4924112896	78	10250
2026-01-21 05:30:27.23	348.10	9.49	-53.6	-62.5	3.8	7.44e-01	0	41	104	4924112896	78	10207
2026-01-21 05:30:30.25	347.58	9.26	-53.6	-62.4	3.8	7.45e-01	0	41	104	4924112896	78	10102
2026-01-21 05:30:33.28	347.08	9.04	-53.7	-62.5	3.8	7.45e-01	0	41	104	4924112896	78	10204
2026-01-21 05:30:36.31	346.59	8.81	-53.6	-62.4	3.8	7.45e-01	0	41	104	4924112896	78	10145
2026-01-21 05:30:39.33	346.10	8.58	-53.6	-62.4	3.8	7.44e-01	0	41	104	4924112896	78	10109
2026-01-21 05:30:42.35	345.63	8.36	-53.5	-62.3	3.8	7.43e-01	0	41	104	4924112896	78	10054
2026-01-21 05:30:45.37	345.17	8.14	-53.6	-62.4	3.8	7.45e-01	0	41	104	4924112896	78	10076
2026-01-21 05:30:48.40	344.71	7.91	-53.5	-62.3	3.8	7.45e-01	0	41	104	4924112896	78	10051
2026-01-21 05:30:51.42	344.26	7.69	-53.5	-62.3	3.8	7.47e-01	0	41	104	4924112896	78	10011
2026-01-21 05:30:54.45	343.82	7.47	-53.4	-62.2	3.8	7.45e-01	0	41	104	4924112896	78	9938
2026-01-21 05:30:57.47	343.39	7.26	-53.4	-62.3	3.8	7.45e-01	0	41	104	4924112896	78	9979
2026-01-21 05:31:00.50	342.97	7.04	-53.5	-62.3	3.8	7.43e-01	0	41	104	4924112896	78	9984
2026-01-21 05:31:03.52	342.56	6.82	-53.4	-62.2	3.8	7.46e-01	0	41	104	4924112896	78	9905
2026-01-21 05:31:06.55	342.15	6.61	-53.3	-62.1	3.8	7.45e-01	0	41	104	4924112896	78	9812
2026-01-21 05:31:09.57	341.75	6.39	-53.3	-62.1	3.8	7.45e-01	0	41	104	4924112896	78	9806
2026-01-21 05:31:12.60	341.36	6.18	-53.4	-62.2	3.8	7.45e-01	0	41	104	4924112896	78	9855
2026-01-21 05:31:15.63	340.97	5.97	-53.3	-62.1	3.8	7.45e-01	0	41	104	4924112896	78	9773
2026-01-21 05:31:18.65	340.60	5.76	-53.2	-62.0	3.8	7.45e-01	0	41	104	4924112896	78	9662
2026-01-21 05:31:21.67	340.23	5.55	-53.1	-62.0	3.8	7.46e-01	0	41	104	4924112896	78	9653
2026-01-21 05:31:24.70	339.87	5.35	-53.2	-62.0	3.8	7.47e-01	0	41	104	4924112896	78	9715
2026-01-21 05:31:27.72	339.51	5.14	-53.1	-62.0	3.8	7.45e-01	0	41	104	4924112896	78	9612
2026-01-21 05:31:30.75	339.16	4.94	-52.3	-61.1	3.8	7.45e-01	0	40	104	4924112896	76	9807
2026-01-21 05:31:33.77	338.82	4.73	-49.1	-58.0	3.8	7.44e-01	0	41	104	4924112896	70	9627
2026-01-21 05:31:36.79	338.48	4.53	-49.1	-58.0	3.8	7.45e-01	0	41	104	4924112896	70	9625
2026-01-21 05:31:39.82	338.15	4.33	-49.1	-58.0	3.8	7.44e-01	0	41	104	4924112896	70	9607
2026-01-21 05:31:42.84	337.82	4.13	-49.1	-58.0	3.8	7.46e-01	0	41	104	4924112896	70	9637
2026-01-21 05:31:45.87	337.50	3.93	-49.1	-57.9	3.8	7.45e-01	0	41	104	4924112896	70	9588
2026-01-21 05:31:48.89	337.19	3.74	-49.1	-57.9	3.8	7.46e-01	0	41	104	4924112896	70	9551
2026-01-21 05:31:51.91	336.88	3.54	-49.1	-58.0	3.8	7.45e-01	0	41	104	4924112896	70	9614
2026-01-21 05:31:54.94	336.58	3.35	-49.1	-58.0	3.8	7.46e-01	0	41	104	4924112896	70	9619
2026-01-21 05:31:57.97	336.28	3.15	-49.1	-58.0	3.8	7.47e-01	0	41	104	4924112896	70	9627
2026-01-21 05:32:00.99	335.99	2.96	-49.1	-57.9	3.8	7.45e-01	0	41	104	4924112896	70	9582
2026-01-21 05:32:04.02	335.70	2.77	-49.1	-57.9	3.8	7.46e-01	0	41	104	4924112896	70	9577
2026-01-21 05:32:07.04	335.42	2.58	-49.1	-58.0	3.8	7.46e-01	0	41	104	4924112896	70	9613
2026-01-21 05:32:10.07	335.14	2.39	-49.1	-58.0	3.8	7.45e-01	0	41	104	4924112896	70	9615
2026-01-21 05:32:13.09	334.87	2.20	-49.1	-58.0	3.8	7.44e-01	0	41	104	4924112896	70	9609
2026-01-21 05:32:16.12	334.60	2.02	-49.1	-57.9	3.8	7.46e-01	0	41	104	4924112896	70	9596

#Closed at: 2026-01-21 05:32:16
#Recorded file [4924 MB]: D:/lorett/data/31041_260121_082308.dat