passes_logs/2026/01/21/R3.2S_Murmansk/R3.2S_Murmansk__20260121_073644_SUOMI_NPP_rec.log

#Pass ID: 20260121_073644_SUOMI NPP
#Satellite: SUOMI NPP
#Configuration: NPP
#almurnet v.1.7.20251203
#Start time: 2026-01-21 07:36:45

#Version: 2.2.20231116
#Station: R3.2S_Murmansk
#Location: 33.079688 lon 68.888172 lat
#TLE: 1 37849U 11061A   26020.31993517  .00000142  00000+0  88240-4 0  9990
#TLE: 2 37849  98.7818 322.3228 0002330  54.3778 305.7615 14.19527005737466

#Time	Az	El	Level	Level2	SNR	BER	BlckErr	Temp	State	Recorded	gain1	gain2
2026-01-21 07:36:45.74	106.15	2.09	-54.2	-69.2	3.8	1.49e+00	0	38	0	0	79	20899
2026-01-21 07:36:49.76	105.98	2.33	-54.4	-69.4	3.8	1.49e+00	0	38	104	0	79	21364
2026-01-21 07:36:53.79	105.80	2.58	-54.1	-69.2	3.8	1.49e+00	0	38	104	0	79	20799
2026-01-21 07:36:57.82	105.62	2.84	-53.9	-68.9	3.8	1.49e+00	0	38	104	0	79	20198
2026-01-21 07:37:01.85	105.44	3.09	-53.7	-68.7	3.8	1.49e+00	0	38	104	0	79	19655
2026-01-21 07:37:05.88	105.26	3.34	-53.4	-68.3	3.8	1.49e+00	0	38	104	0	78	20068
2026-01-21 07:37:09.91	105.07	3.60	-52.9	-67.9	3.8	1.49e+00	0	38	104	0	77	20190
2026-01-21 07:37:13.95	104.87	3.86	-52.3	-66.8	3.8	1.49e+00	0	39	104	0	76	18890
2026-01-21 07:37:17.98	104.68	4.12	-52.2	-65.2	3.8	1.49e+00	0	39	104	0	76	15655
2026-01-21 07:37:22.00	104.48	4.39	-51.4	-58.5	7.4	1.50e-01	0	39	0	5242880	74	8126
2026-01-21 07:37:26.04	104.27	4.66	-50.0	-54.2	11.9	7.39e-04	0	39	0	12582912	72	5543
2026-01-21 07:37:30.07	104.06	4.92	-49.8	-53.7	12.5	5.95e-05	0	39	0	19922944	71	5563
2026-01-21 07:37:34.10	103.85	5.20	-50.0	-53.8	12.5	1.83e-05	0	39	0	27262976	70	5979
2026-01-21 07:37:38.13	103.64	5.47	-48.8	-51.5	15.0	2.29e-04	0	39	0	34603008	69	4850
2026-01-21 07:37:42.17	103.41	5.75	-48.6	-51.3	15.2	0.00e+00	0	39	0	41943040	68	5014
2026-01-21 07:37:46.20	103.19	6.02	-47.8	-50.1	16.2	0.00e+00	0	39	0	50331648	67	4626
2026-01-21 07:37:50.23	102.96	6.31	-47.4	-49.5	16.9	0.00e+00	0	39	0	57671680	66	4557
2026-01-21 07:37:54.26	102.73	6.59	-47.5	-49.6	16.8	0.00e+00	0	39	0	65011712	66	4624
2026-01-21 07:37:58.29	102.49	6.87	-47.2	-49.2	17.2	0.00e+00	0	39	0	72351744	66	4426
2026-01-21 07:38:02.33	102.24	7.16	-47.2	-49.1	17.2	0.00e+00	0	39	0	79691776	66	4379
2026-01-21 07:38:06.36	101.99	7.46	-47.0	-48.9	17.5	0.00e+00	0	39	0	88080384	65	4542
2026-01-21 07:38:10.39	101.74	7.75	-46.7	-48.4	18.0	0.00e+00	0	39	0	95420416	65	4288
2026-01-21 07:38:14.42	101.48	8.05	-47.1	-49.0	17.5	0.00e+00	0	39	0	102760448	65	4556
2026-01-21 07:38:18.45	101.21	8.35	-46.6	-48.4	18.0	0.00e+00	0	39	0	110100480	65	4277
2026-01-21 07:38:22.48	100.94	8.65	-46.6	-48.5	18.0	0.00e+00	0	39	0	118489088	65	4299
2026-01-21 07:38:26.51	100.66	8.96	-46.3	-48.1	18.3	0.00e+00	0	39	0	125829120	64	4365
2026-01-21 07:38:30.55	100.37	9.27	-46.8	-48.8	17.6	0.00e+00	0	40	0	133169152	64	4751
2026-01-21 07:38:34.58	100.08	9.58	-46.5	-48.3	18.1	0.00e+00	0	39	0	140509184	64	4490
2026-01-21 07:38:38.61	99.79	9.90	-46.3	-48.1	18.3	0.00e+00	0	40	0	147849216	64	4370
2026-01-21 07:38:42.64	99.48	10.22	-46.3	-48.1	18.4	0.00e+00	0	40	0	156237824	64	4352
2026-01-21 07:38:46.67	99.17	10.54	-46.0	-47.7	18.8	0.00e+00	0	40	0	163577856	64	4151
2026-01-21 07:38:50.70	98.85	10.87	-45.7	-47.2	19.3	0.00e+00	0	40	0	170917888	63	4171
2026-01-21 07:38:54.73	98.53	11.20	-45.8	-47.4	19.2	0.00e+00	0	40	0	178257920	63	4260
2026-01-21 07:38:58.76	98.19	11.53	-45.9	-47.5	19.1	0.00e+00	0	40	0	185597952	63	4326
2026-01-21 07:39:02.80	97.85	11.87	-45.8	-47.4	19.2	0.00e+00	0	40	0	193986560	63	4257
2026-01-21 07:39:06.82	97.50	12.20	-46.0	-47.6	18.9	0.00e+00	0	40	0	201326592	63	4349
2026-01-21 07:39:10.86	97.14	12.55	-46.1	-47.7	19.0	0.00e+00	0	40	0	208666624	63	4402
2026-01-21 07:39:14.89	96.78	12.90	-46.0	-47.6	19.1	0.00e+00	0	40	0	216006656	63	4358
2026-01-21 07:39:18.92	96.40	13.25	-46.2	-47.8	18.9	0.00e+00	0	40	0	223346688	63	4467
2026-01-21 07:39:22.95	96.02	13.60	-46.0	-47.6	19.2	0.00e+00	0	40	0	231735296	63	4341
2026-01-21 07:39:26.99	95.62	13.96	-46.1	-47.8	19.0	0.00e+00	0	40	0	239075328	63	4458
2026-01-21 07:39:31.03	95.21	14.33	-45.9	-47.4	19.4	0.00e+00	0	40	0	246415360	63	4268
2026-01-21 07:39:35.06	94.80	14.69	-45.7	-47.2	19.6	0.00e+00	0	40	0	253755392	63	4155
2026-01-21 07:39:39.09	94.37	15.07	-45.1	-46.4	20.3	0.00e+00	0	40	0	261095424	62	4036
2026-01-21 07:39:43.12	93.93	15.44	-45.1	-46.5	20.2	0.00e+00	0	40	0	269484032	61	4297
2026-01-21 07:39:47.15	93.49	15.82	-45.0	-46.2	20.5	0.00e+00	0	40	0	276824064	61	4186
2026-01-21 07:39:51.18	93.02	16.20	-45.4	-46.7	20.1	0.00e+00	0	40	0	284164096	61	4435
2026-01-21 07:39:55.21	92.55	16.59	-45.5	-46.9	19.9	0.00e+00	0	40	0	291504128	61	4516
2026-01-21 07:39:59.24	92.07	16.98	-45.7	-47.2	19.6	0.00e+00	0	40	0	299892736	62	4396
2026-01-21 07:40:03.28	91.57	17.38	-45.4	-46.7	20.1	0.00e+00	0	40	0	307232768	62	4189
2026-01-21 07:40:07.31	91.05	17.78	-45.5	-46.9	19.9	0.00e+00	0	40	0	314572800	62	4272
2026-01-21 07:40:11.34	90.53	18.18	-45.6	-47.0	19.8	0.00e+00	0	40	0	321912832	62	4324
2026-01-21 07:40:15.37	89.99	18.59	-45.9	-47.4	19.6	0.00e+00	0	40	0	329252864	62	4504
2026-01-21 07:40:19.40	89.43	19.00	-46.2	-47.7	19.3	0.00e+00	0	40	0	337641472	63	4441
2026-01-21 07:40:23.44	88.86	19.42	-46.4	-48.0	19.1	0.00e+00	0	40	0	344981504	63	4562
2026-01-21 07:40:27.47	88.27	19.84	-46.1	-47.6	19.2	0.00e+00	0	40	0	352321536	64	4139
2026-01-21 07:40:31.50	87.66	20.26	-46.3	-47.9	19.2	0.00e+00	0	40	0	359661568	63	4496
2026-01-21 07:40:35.53	87.04	20.69	-46.2	-47.7	19.3	0.00e+00	0	40	0	367001600	63	4416
2026-01-21 07:40:39.56	86.40	21.12	-45.9	-47.4	19.6	0.00e+00	0	40	0	375390208	63	4261
2026-01-21 07:40:43.60	85.74	21.55	-45.3	-46.6	20.3	0.00e+00	0	40	0	382730240	62	4127
2026-01-21 07:40:47.63	85.07	21.99	-45.8	-47.2	19.8	0.00e+00	0	40	0	390070272	62	4438
2026-01-21 07:40:51.66	84.37	22.43	-45.7	-47.1	19.9	0.00e+00	0	40	0	397410304	62	4376
2026-01-21 07:40:55.70	83.65	22.88	-46.5	-48.1	19.1	0.00e+00	0	40	0	404750336	63	4622
2026-01-21 07:40:59.73	82.91	23.32	-46.4	-47.9	19.2	0.00e+00	0	40	0	413138944	63	4541
2026-01-21 07:41:03.75	82.15	23.77	-47.2	-49.1	18.0	0.00e+00	0	40	0	420478976	64	4881
2026-01-21 07:41:07.79	81.37	24.22	-47.0	-48.9	18.2	0.00e+00	0	40	0	427819008	65	4531
2026-01-21 07:41:11.82	80.56	24.67	-46.7	-48.4	18.6	0.00e+00	0	40	0	435159040	64	4533
2026-01-21 07:41:15.85	79.73	25.13	-46.5	-48.1	18.9	0.00e+00	0	40	0	443547648	64	4386
2026-01-21 07:41:19.88	78.88	25.58	-46.5	-48.1	19.0	0.00e+00	0	40	0	450887680	64	4378
2026-01-21 07:41:23.91	78.00	26.04	-46.5	-48.2	19.0	0.00e+00	0	40	0	458227712	64	4394
2026-01-21 07:41:27.94	77.10	26.49	-46.4	-48.1	19.1	0.00e+00	0	40	0	465567744	64	4344
2026-01-21 07:41:31.97	76.16	26.95	-46.3	-47.8	19.3	0.00e+00	0	40	0	472907776	64	4235
2026-01-21 07:41:36.00	75.21	27.40	-46.3	-47.8	19.4	0.00e+00	0	40	0	481296384	63	4464
2026-01-21 07:41:40.03	74.22	27.85	-46.9	-48.6	18.6	0.00e+00	0	40	0	488636416	64	4626
2026-01-21 07:41:44.06	73.20	28.30	-46.5	-48.0	19.0	0.00e+00	0	40	0	495976448	64	4337
2026-01-21 07:41:48.09	72.16	28.75	-45.6	-46.9	20.2	0.00e+00	0	40	0	503316480	62	4272
2026-01-21 07:41:52.12	71.09	29.19	-46.1	-47.7	19.5	0.00e+00	0	40	0	510656512	63	4399
2026-01-21 07:41:56.15	69.98	29.63	-46.4	-48.0	19.2	0.00e+00	0	40	0	519045120	63	4547
2026-01-21 07:42:00.18	68.85	30.06	-47.9	-50.0	17.2	0.00e+00	0	40	0	526385152	66	4842
2026-01-21 07:42:04.21	67.69	30.49	-47.2	-49.1	18.1	0.00e+00	0	40	0	533725184	66	4366
2026-01-21 07:42:08.24	66.49	30.90	-47.6	-49.6	17.5	0.00e+00	0	40	0	541065216	66	4643
2026-01-21 07:42:12.27	65.26	31.31	-48.4	-50.9	16.3	0.00e+00	0	40	0	548405248	67	5044
2026-01-21 07:42:16.31	64.00	31.71	-49.0	-51.7	15.6	0.00e+00	0	40	0	556793856	68	5240
2026-01-21 07:42:20.34	62.71	32.10	-49.3	-52.3	15.0	0.00e+00	0	40	0	564133888	69	5307
2026-01-21 07:42:24.37	61.39	32.48	-48.7	-51.4	15.9	0.00e+00	0	40	0	571473920	68	5047
2026-01-21 07:42:28.40	60.04	32.84	-48.1	-50.4	16.8	0.00e+00	0	40	0	578813952	67	4767
2026-01-21 07:42:32.43	58.66	33.19	-47.4	-49.4	17.7	0.00e+00	0	40	0	586153984	66	4530
2026-01-21 07:42:36.46	57.25	33.53	-48.3	-50.9	16.3	0.00e+00	0	40	0	594542592	67	5082
2026-01-21 07:42:40.49	55.81	33.84	-47.8	-50.0	17.0	0.00e+00	0	40	0	601882624	66	4870
2026-01-21 07:42:44.52	54.35	34.14	-48.0	-50.4	16.7	0.00e+00	0	40	0	609222656	66	5047
2026-01-21 07:42:48.55	52.85	34.42	-45.7	-47.1	20.0	0.00e+00	0	40	0	616562688	63	4103
2026-01-21 07:42:52.59	51.33	34.68	-44.6	-45.9	21.1	0.00e+00	0	40	0	623902720	60	4243
2026-01-21 07:42:56.61	49.80	34.92	-44.8	-46.0	21.0	0.00e+00	0	40	0	632291328	60	4340
2026-01-21 07:43:00.65	48.23	35.14	-45.6	-47.0	20.1	0.00e+00	0	40	0	639631360	62	4331
2026-01-21 07:43:04.67	46.65	35.33	-44.9	-46.2	20.9	0.00e+00	0	40	0	646971392	61	4160
2026-01-21 07:43:08.70	45.05	35.50	-44.9	-46.2	20.8	0.00e+00	0	40	0	654311424	61	4188
2026-01-21 07:43:12.74	43.43	35.64	-44.4	-45.5	21.4	0.00e+00	0	40	0	661651456	60	4091
2026-01-21 07:43:16.77	41.80	35.76	-45.2	-46.5	20.7	0.00e+00	0	40	0	670040064	60	4574
2026-01-21 07:43:20.79	40.17	35.85	-46.0	-47.5	19.7	0.00e+00	0	40	0	677380096	62	4558
2026-01-21 07:43:24.82	38.52	35.92	-45.8	-47.2	20.1	0.00e+00	0	40	0	684720128	62	4421
2026-01-21 07:43:28.86	36.86	35.96	-45.8	-47.2	20.1	0.00e+00	0	40	0	692060160	63	4149
2026-01-21 07:43:32.89	35.21	35.97	-45.4	-46.7	20.5	0.00e+00	0	40	0	700448768	62	4185
2026-01-21 07:43:36.92	33.56	35.95	-46.6	-48.2	19.0	0.00e+00	0	40	0	707788800	64	4425
2026-01-21 07:43:40.95	31.90	35.91	-46.5	-48.2	18.9	0.00e+00	0	40	0	715128832	64	4430
2026-01-21 07:43:44.98	30.26	35.84	-46.6	-48.3	18.9	0.00e+00	0	40	0	722468864	64	4460
2026-01-21 07:43:49.01	28.62	35.74	-46.9	-48.7	18.3	0.00e+00	0	40	0	729808896	65	4426
2026-01-21 07:43:53.04	27.00	35.62	-46.5	-48.1	19.1	0.00e+00	0	40	0	738197504	63	4649
2026-01-21 07:43:57.08	25.38	35.47	-47.3	-49.3	17.8	0.00e+00	0	40	0	745537536	65	4748
2026-01-21 07:44:01.11	23.79	35.29	-46.4	-48.1	18.9	0.00e+00	0	40	0	752877568	64	4361
2026-01-21 07:44:05.14	22.21	35.10	-46.6	-48.4	18.7	0.00e+00	0	40	0	760217600	63	4783
2026-01-21 07:44:09.18	20.65	34.87	-46.6	-48.3	18.7	0.00e+00	0	40	0	767557632	64	4493
2026-01-21 07:44:13.20	19.12	34.63	-46.2	-47.8	19.3	0.00e+00	0	40	0	775946240	63	4470
2026-01-21 07:44:17.23	17.61	34.37	-47.4	-49.6	17.5	0.00e+00	0	40	0	783286272	66	4608
2026-01-21 07:44:21.26	16.12	34.08	-45.4	-46.8	20.2	0.00e+00	0	40	0	790626304	62	4223
2026-01-21 07:44:25.29	14.66	33.78	-47.3	-49.3	17.9	0.00e+00	0	40	0	797966336	65	4707
2026-01-21 07:44:29.32	13.23	33.46	-47.1	-49.1	18.1	0.00e+00	0	40	0	805306368	66	4342
2026-01-21 07:44:33.35	11.83	33.13	-48.0	-50.3	17.0	0.00e+00	0	40	0	813694976	66	5029
2026-01-21 07:44:37.38	10.46	32.77	-47.3	-49.2	17.8	0.00e+00	0	40	0	821035008	66	4430
2026-01-21 07:44:41.41	9.12	32.41	-47.0	-48.9	18.3	0.00e+00	0	40	0	828375040	65	4519
2026-01-21 07:44:45.44	7.80	32.03	-46.6	-48.3	18.9	0.00e+00	0	40	0	835715072	63	4723
2026-01-21 07:44:49.48	6.52	31.64	-47.2	-49.0	18.1	0.00e+00	0	40	0	844103680	66	4334
2026-01-21 07:44:53.51	5.27	31.24	-45.8	-47.2	20.0	0.00e+00	0	40	0	851443712	62	4416
2026-01-21 07:44:57.54	4.05	30.83	-47.1	-48.9	18.3	0.00e+00	0	40	0	858783744	65	4529
2026-01-21 07:45:01.57	2.87	30.41	-47.2	-49.1	18.1	0.00e+00	0	40	0	866123776	65	4632
2026-01-21 07:45:05.60	1.71	29.98	-47.8	-50.0	17.3	0.00e+00	0	40	0	873463808	66	4819
2026-01-21 07:45:09.63	0.59	29.55	-47.4	-49.3	18.0	0.00e+00	0	40	0	880803840	66	4446
2026-01-21 07:45:13.66	359.49	29.11	-47.4	-49.2	18.0	0.00e+00	0	40	0	889192448	66	4408
2026-01-21 07:45:17.70	358.42	28.67	-46.5	-48.1	19.0	0.00e+00	0	40	0	896532480	65	4115
2026-01-21 07:45:21.73	357.39	28.23	-44.9	-46.1	21.0	0.00e+00	0	40	0	903872512	61	4119
2026-01-21 07:45:25.76	356.38	27.78	-46.2	-47.7	19.5	0.00e+00	0	40	0	911212544	63	4419
2026-01-21 07:45:29.79	355.40	27.33	-45.8	-47.2	20.1	0.00e+00	0	40	0	919601152	63	4146
2026-01-21 07:45:33.82	354.45	26.87	-45.4	-46.8	20.4	0.00e+00	0	40	0	926941184	62	4219
2026-01-21 07:45:37.85	353.53	26.42	-45.8	-47.3	19.9	0.00e+00	0	40	0	934281216	63	4218
2026-01-21 07:45:41.89	352.63	25.96	-45.1	-46.5	20.7	0.00e+00	0	40	0	941621248	62	4058
2026-01-21 07:45:45.92	351.76	25.51	-45.0	-46.3	20.7	0.00e+00	0	40	0	948961280	62	3983
2026-01-21 07:45:49.95	350.91	25.06	-45.2	-46.6	20.4	0.00e+00	0	40	0	957349888	61	4360
2026-01-21 07:45:53.98	350.09	24.60	-44.9	-46.2	20.8	0.00e+00	0	40	0	964689920	61	4173
2026-01-21 07:45:58.01	349.29	24.15	-45.2	-46.6	20.6	0.00e+00	0	40	0	972029952	61	4346
2026-01-21 07:46:02.05	348.51	23.70	-44.8	-46.0	21.0	0.00e+00	0	40	0	979369984	61	4079
2026-01-21 07:46:06.08	347.76	23.26	-45.7	-47.1	20.1	0.00e+00	0	40	0	986710016	61	4609
2026-01-21 07:46:10.11	347.03	22.81	-45.1	-46.4	20.7	0.00e+00	0	40	0	995098624	62	4011
2026-01-21 07:46:14.14	346.32	22.37	-45.3	-46.6	20.5	0.00e+00	0	40	0	1002438656	61	4358
2026-01-21 07:46:18.17	345.63	21.93	-46.4	-48.0	19.3	0.00e+00	0	40	0	1009778688	63	4560
2026-01-21 07:46:22.21	344.96	21.49	-46.8	-48.5	18.5	0.00e+00	0	40	0	1017118720	64	4592
2026-01-21 07:46:26.23	344.30	21.06	-45.9	-47.3	19.7	0.00e+00	0	40	0	1024458752	63	4226
2026-01-21 07:46:30.26	343.67	20.63	-44.8	-46.1	20.9	0.00e+00	0	40	0	1032847360	61	4104
2026-01-21 07:46:34.30	343.05	20.21	-45.5	-46.8	20.2	0.00e+00	0	40	0	1040187392	61	4488
2026-01-21 07:46:38.33	342.45	19.79	-44.9	-46.2	20.8	0.00e+00	0	40	0	1047527424	61	4159
2026-01-21 07:46:42.36	341.87	19.37	-44.9	-46.2	20.7	0.00e+00	0	40	0	1054867456	61	4162
2026-01-21 07:46:46.39	341.31	18.96	-46.2	-47.8	19.3	0.00e+00	0	40	0	1063256064	62	4714
2026-01-21 07:46:50.43	340.75	18.55	-48.1	-50.4	16.8	0.00e+00	0	40	0	1070596096	67	4767
2026-01-21 07:46:54.46	340.22	18.14	-47.4	-49.4	17.7	0.00e+00	0	40	0	1077936128	66	4498
2026-01-21 07:46:58.49	339.70	17.74	-45.9	-47.4	19.6	0.00e+00	0	40	0	1085276160	63	4268
2026-01-21 07:47:02.52	339.19	17.34	-46.3	-48.0	19.1	0.00e+00	0	40	0	1092616192	63	4549
2026-01-21 07:47:06.55	338.69	16.95	-46.5	-48.2	18.7	0.00e+00	0	40	0	1101004800	64	4407
2026-01-21 07:47:10.58	338.21	16.56	-45.4	-46.8	20.1	0.00e+00	0	40	0	1108344832	62	4233
2026-01-21 07:47:14.61	337.74	16.17	-45.2	-46.6	20.3	0.00e+00	0	40	0	1115684864	62	4120
2026-01-21 07:47:18.65	337.29	15.79	-45.6	-47.0	19.9	0.00e+00	0	40	0	1123024896	62	4317
2026-01-21 07:47:22.68	336.84	15.41	-45.9	-47.4	19.5	0.00e+00	0	40	0	1130364928	62	4508
2026-01-21 07:47:26.71	336.41	15.04	-46.2	-47.8	19.2	0.00e+00	0	40	0	1138753536	63	4442
2026-01-21 07:47:30.74	335.99	14.67	-46.2	-47.8	19.2	0.00e+00	0	40	0	1146093568	63	4442
2026-01-21 07:47:34.77	335.58	14.30	-45.8	-47.3	19.6	0.00e+00	0	40	0	1153433600	63	4202
2026-01-21 07:47:38.80	335.17	13.94	-46.1	-47.7	19.2	0.00e+00	0	40	0	1160773632	63	4399
2026-01-21 07:47:42.83	334.78	13.59	-47.2	-49.1	17.8	0.00e+00	0	40	0	1168113664	64	4876
2026-01-21 07:47:46.87	334.40	13.23	-48.2	-50.6	16.4	0.00e+00	0	40	0	1176502272	66	5169
2026-01-21 07:47:50.90	334.03	12.88	-47.5	-49.5	17.4	0.00e+00	0	40	0	1183842304	66	4562
2026-01-21 07:47:54.93	333.66	12.54	-46.4	-48.0	18.7	0.00e+00	0	40	0	1191182336	64	4339
2026-01-21 07:47:58.96	333.31	12.19	-46.1	-47.6	19.1	0.00e+00	0	40	0	1198522368	63	4374
2026-01-21 07:48:02.99	332.96	11.85	-45.9	-47.5	19.3	0.00e+00	0	40	0	1206910976	63	4298
2026-01-21 07:48:07.03	332.63	11.52	-45.8	-47.3	19.4	0.00e+00	0	40	0	1214251008	63	4213
2026-01-21 07:48:11.06	332.30	11.19	-46.0	-47.5	19.2	0.00e+00	0	40	0	1221591040	63	4336
2026-01-21 07:48:15.09	331.97	10.86	-46.1	-47.7	19.0	0.00e+00	0	40	0	1228931072	63	4420
2026-01-21 07:48:19.13	331.66	10.53	-46.5	-48.2	18.6	0.00e+00	0	40	0	1236271104	63	4657
2026-01-21 07:48:23.16	331.35	10.21	-46.8	-48.6	18.0	0.00e+00	0	40	0	1244659712	64	4617
2026-01-21 07:48:27.19	331.05	9.89	-47.0	-48.8	17.8	0.00e+00	0	40	0	1251999744	64	4757
2026-01-21 07:48:31.23	330.75	9.58	-47.2	-49.2	17.5	0.00e+00	0	40	0	1259339776	64	4931
2026-01-21 07:48:35.26	330.47	9.27	-47.7	-49.9	16.8	0.00e+00	0	40	0	1266679808	66	4765
2026-01-21 07:48:39.29	330.19	8.96	-48.3	-50.8	15.9	0.00e+00	0	40	0	1274019840	67	5015
2026-01-21 07:48:43.32	329.91	8.65	-48.5	-51.2	15.5	0.00e+00	0	40	0	1282408448	67	5241
2026-01-21 07:48:47.36	329.64	8.35	-48.4	-50.9	15.7	0.00e+00	0	40	0	1289748480	67	5062
2026-01-21 07:48:51.38	329.38	8.05	-47.6	-49.8	16.8	0.00e+00	0	40	0	1297088512	67	4458
2026-01-21 07:48:55.42	329.12	7.76	-47.2	-49.2	17.2	0.00e+00	0	40	0	1304428544	66	4435
2026-01-21 07:48:59.45	328.87	7.46	-46.8	-48.7	17.8	0.00e+00	0	40	0	1312817152	65	4418
2026-01-21 07:49:03.48	328.62	7.17	-46.7	-48.5	17.8	0.00e+00	0	40	0	1320157184	65	4334
2026-01-21 07:49:07.51	328.38	6.88	-47.2	-49.2	17.2	0.00e+00	0	40	0	1327497216	65	4679
2026-01-21 07:49:11.54	328.15	6.60	-47.6	-49.7	16.9	0.00e+00	0	40	0	1334837248	65	4983
2026-01-21 07:49:15.58	327.91	6.31	-47.9	-50.3	16.1	0.00e+00	0	40	0	1342177280	66	4989
2026-01-21 07:49:19.61	327.69	6.03	-48.0	-50.5	15.8	0.00e+00	0	40	0	1349517312	67	4852
2026-01-21 07:49:23.64	327.46	5.76	-48.6	-51.3	15.0	0.00e+00	0	40	0	1357905920	67	5339
2026-01-21 07:49:27.67	327.25	5.48	-48.5	-51.3	15.2	0.00e+00	0	40	0	1365245952	68	5002
2026-01-21 07:49:31.70	327.03	5.21	-48.6	-51.4	15.0	0.00e+00	0	40	0	1372585984	68	5057
2026-01-21 07:49:35.73	326.82	4.94	-52.9	-67.9	3.8	1.49e+00	0	40	104	1378877440	76	21351
2026-01-21 07:49:39.76	326.62	4.67	-53.4	-68.4	3.8	1.49e+00	0	40	104	1378877440	77	21261
2026-01-21 07:49:43.80	326.42	4.41	-53.2	-68.2	3.8	1.49e+00	0	40	104	1378877440	77	20945
2026-01-21 07:49:47.83	326.22	4.14	-53.3	-68.3	3.8	1.49e+00	0	40	104	1378877440	77	21168
2026-01-21 07:49:51.86	326.03	3.88	-53.4	-68.4	3.8	1.49e+00	0	40	104	1378877440	77	21380
2026-01-21 07:49:55.90	325.84	3.62	-53.4	-68.4	3.8	1.49e+00	0	40	104	1378877440	77	21484
2026-01-21 07:49:59.93	325.65	3.36	-53.4	-68.4	3.8	1.49e+00	0	40	104	1378877440	77	21372
2026-01-21 07:50:03.96	325.47	3.11	-53.4	-68.4	3.8	1.49e+00	0	40	104	1378877440	77	21333
2026-01-21 07:50:07.99	325.29	2.86	-53.4	-68.4	3.8	1.49e+00	0	40	104	1378877440	77	21277
2026-01-21 07:50:12.02	325.11	2.61	-53.4	-68.4	3.8	1.49e+00	0	40	104	1378877440	77	21275
2026-01-21 07:50:16.06	324.94	2.36	-53.4	-68.3	3.8	1.49e+00	0	40	104	1378877440	77	21258
2026-01-21 07:50:20.09	324.77	2.11	-53.3	-68.3	3.8	1.49e+00	0	40	104	1378877440	77	21183
2026-01-21 07:50:24.13	324.60	1.86	-53.3	-68.3	3.8	1.49e+00	0	40	104	1378877440	77	21229

#Closed at: 2026-01-21 07:50:24
#Recorded file [1378 MB]: D:/lorett/data/31041_260121_103645.dat