passes_logs/2026/01/21/R3.2S_Murmansk/R3.2S_Murmansk__20260121_130125_NOAA_20_JPSS-1_rec.log

#Pass ID: 20260121_130125_NOAA 20 (JPSS-1)
#Satellite: NOAA 20 (JPSS-1)
#Configuration: NOAA 20
#almurnet v.1.7.20251203
#Start time: 2026-01-21 13:01:26

#Version: 2.2.20231116
#Station: R3.2S_Murmansk
#Location: 33.079688 lon 68.888172 lat
#TLE: 1 43013U 17073A   26020.82785136  .00000155  00000+0  94366-4 0  9991
#TLE: 2 43013  98.7643 321.7058 0001260  30.3785 329.7464 14.19537992423566

#Time	Az	El	Level	Level2	SNR	BER	BlckErr	Temp	State	Recorded	gain1	gain2
2026-01-21 13:01:26.35	243.44	2.05	-50.3	-65.2	3.8	1.49e+00	0	38	0	0	71	20986
2026-01-21 13:01:29.38	243.74	2.19	-50.3	-65.2	3.8	1.49e+00	0	38	104	0	71	20995
2026-01-21 13:01:32.40	244.05	2.32	-50.3	-65.2	3.8	1.49e+00	0	38	104	0	71	20983
2026-01-21 13:01:35.43	244.35	2.46	-50.3	-65.2	3.8	1.49e+00	0	38	104	0	71	20955
2026-01-21 13:01:38.45	244.66	2.59	-50.3	-65.2	3.8	1.49e+00	0	38	104	0	71	21005
2026-01-21 13:01:41.48	244.98	2.72	-50.3	-65.2	3.8	1.49e+00	0	38	104	0	71	20964
2026-01-21 13:01:44.50	245.29	2.86	-50.3	-65.2	3.8	1.49e+00	0	38	104	0	71	20947
2026-01-21 13:01:47.53	245.61	2.99	-50.3	-65.2	3.8	1.49e+00	0	38	104	0	71	20977
2026-01-21 13:01:50.55	245.93	3.13	-50.3	-65.2	3.8	1.49e+00	0	38	104	0	71	20939
2026-01-21 13:01:53.58	246.26	3.26	-50.3	-65.2	3.8	1.49e+00	0	39	104	0	71	20977
2026-01-21 13:01:56.60	246.58	3.39	-50.3	-65.2	3.8	1.49e+00	0	39	104	0	71	20965
2026-01-21 13:01:59.63	246.91	3.53	-50.3	-65.2	3.8	1.49e+00	0	39	104	0	71	20932
2026-01-21 13:02:02.62	247.24	3.66	-50.3	-65.2	3.8	1.49e+00	0	39	104	0	71	20971
2026-01-21 13:02:05.65	247.58	3.79	-50.3	-65.2	3.8	1.49e+00	0	39	104	0	71	20928
2026-01-21 13:02:08.67	247.92	3.93	-50.3	-65.2	3.8	1.49e+00	0	39	104	0	71	20915
2026-01-21 13:02:11.70	248.26	4.06	-50.3	-65.2	3.8	1.49e+00	0	39	104	0	71	20957
2026-01-21 13:02:14.72	248.60	4.19	-50.3	-65.2	3.8	1.49e+00	0	39	104	0	71	20937
2026-01-21 13:02:17.74	248.95	4.32	-50.3	-65.2	3.8	1.49e+00	0	39	104	0	71	20955
2026-01-21 13:02:20.76	249.30	4.46	-50.3	-65.2	3.8	1.49e+00	0	39	104	0	71	20965
2026-01-21 13:02:23.79	249.65	4.59	-50.3	-65.2	3.8	1.49e+00	0	39	104	0	71	20894
2026-01-21 13:02:26.81	250.01	4.72	-50.3	-65.2	3.8	1.49e+00	0	39	104	0	71	20998
2026-01-21 13:02:29.83	250.37	4.85	-50.3	-65.2	3.8	1.49e+00	0	39	104	0	71	20956
2026-01-21 13:02:32.86	250.73	4.98	-50.3	-65.2	3.8	1.49e+00	0	39	104	0	71	20897
2026-01-21 13:02:35.88	251.10	5.11	-50.3	-65.2	3.8	1.49e+00	0	39	104	0	71	20996
2026-01-21 13:02:38.90	251.46	5.24	-50.3	-65.2	3.8	1.49e+00	0	39	104	0	71	20946
2026-01-21 13:02:41.93	251.84	5.38	-50.3	-65.2	3.8	1.49e+00	0	39	104	0	71	20912
2026-01-21 13:02:44.95	252.21	5.51	-50.3	-65.2	3.8	1.49e+00	0	39	104	0	71	20947
2026-01-21 13:02:47.98	252.59	5.63	-50.3	-65.2	3.8	1.49e+00	0	39	104	0	71	20903
2026-01-21 13:02:51.01	252.97	5.76	-50.3	-65.2	3.8	1.49e+00	0	39	104	0	71	20984
2026-01-21 13:02:54.03	253.36	5.89	-50.3	-65.2	3.8	1.49e+00	0	39	104	0	71	20976
2026-01-21 13:02:57.06	253.75	6.02	-50.3	-65.2	3.8	1.49e+00	0	39	104	0	71	20929
2026-01-21 13:03:00.08	254.14	6.15	-50.3	-65.2	3.8	1.49e+00	0	39	104	0	71	20952
2026-01-21 13:03:03.10	254.53	6.28	-50.3	-65.2	3.8	1.49e+00	0	39	104	0	71	20988
2026-01-21 13:03:06.13	254.93	6.40	-50.3	-65.2	3.8	1.49e+00	0	39	104	0	71	20976
2026-01-21 13:03:09.15	255.33	6.53	-50.3	-65.2	3.8	1.49e+00	0	39	104	0	71	20897
2026-01-21 13:03:12.18	255.74	6.66	-50.3	-65.2	3.8	1.49e+00	0	40	104	0	71	20952
2026-01-21 13:03:15.20	256.14	6.78	-50.3	-65.2	3.8	1.49e+00	0	39	104	0	71	20997
2026-01-21 13:03:18.22	256.55	6.91	-50.3	-65.2	3.8	1.49e+00	0	39	104	0	71	20946
2026-01-21 13:03:21.24	256.97	7.03	-50.3	-65.2	3.8	1.49e+00	0	40	104	0	71	20929
2026-01-21 13:03:24.27	257.39	7.15	-50.3	-65.2	3.8	1.49e+00	0	39	104	0	71	20982
2026-01-21 13:03:27.30	257.81	7.28	-50.3	-65.2	3.8	1.49e+00	0	39	104	0	71	20952
2026-01-21 13:03:30.32	258.23	7.40	-50.3	-65.2	3.8	1.49e+00	0	40	104	0	71	20965
2026-01-21 13:03:33.35	258.66	7.52	-50.3	-65.2	3.8	1.49e+00	0	39	104	0	71	20974
2026-01-21 13:03:36.37	259.09	7.64	-50.3	-65.2	3.8	1.49e+00	0	40	104	0	71	20930
2026-01-21 13:03:39.39	259.53	7.76	-50.3	-65.2	3.8	1.49e+00	0	40	104	0	71	20971
2026-01-21 13:03:42.42	259.97	7.88	-50.3	-65.2	3.8	1.49e+00	0	40	104	0	71	20942
2026-01-21 13:03:45.44	260.41	8.00	-50.3	-65.2	3.8	1.49e+00	0	40	104	0	71	20961
2026-01-21 13:03:48.47	260.86	8.11	-50.3	-65.2	3.8	1.49e+00	0	39	104	0	71	21010
2026-01-21 13:03:51.49	261.30	8.23	-50.3	-65.2	3.8	1.49e+00	0	40	104	0	71	20951
2026-01-21 13:03:54.52	261.76	8.34	-50.3	-65.2	3.8	1.49e+00	0	40	104	0	71	20964
2026-01-21 13:03:57.54	262.21	8.46	-50.3	-65.2	3.8	1.49e+00	0	40	104	0	71	20998
2026-01-21 13:04:00.56	262.67	8.57	-50.3	-65.2	3.8	1.49e+00	0	40	104	0	71	20954
2026-01-21 13:04:03.58	263.13	8.68	-50.3	-65.2	3.8	1.49e+00	0	39	104	0	71	21017
2026-01-21 13:04:06.61	263.60	8.79	-50.3	-65.3	3.8	1.49e+00	0	39	104	0	71	21055
2026-01-21 13:04:09.63	264.07	8.90	-50.3	-65.2	3.8	1.49e+00	0	40	104	0	71	20992
2026-01-21 13:04:12.65	264.54	9.01	-50.3	-65.2	3.8	1.49e+00	0	40	104	0	71	20961
2026-01-21 13:04:15.68	265.02	9.12	-50.3	-65.2	3.8	1.49e+00	0	40	104	0	71	20918
2026-01-21 13:04:18.70	265.50	9.22	-50.3	-65.2	3.8	1.49e+00	0	40	104	0	71	21004
2026-01-21 13:04:21.73	265.98	9.33	-50.3	-65.2	3.8	1.49e+00	0	40	104	0	71	20975
2026-01-21 13:04:24.75	266.47	9.43	-50.3	-65.2	3.8	1.49e+00	0	40	104	0	71	20997
2026-01-21 13:04:27.78	266.96	9.53	-50.3	-65.2	3.8	1.49e+00	0	40	104	0	71	20957
2026-01-21 13:04:30.80	267.45	9.63	-50.3	-65.2	3.8	1.49e+00	0	40	104	0	71	20991
2026-01-21 13:04:33.82	267.94	9.73	-50.3	-65.2	3.8	1.49e+00	0	40	104	0	71	20966
2026-01-21 13:04:36.85	268.44	9.83	-50.3	-65.3	3.8	1.49e+00	0	40	104	0	71	21022
2026-01-21 13:04:39.87	268.95	9.92	-50.3	-65.3	3.8	1.49e+00	0	40	104	0	71	21037
2026-01-21 13:04:42.89	269.45	10.02	-50.3	-65.2	3.8	1.49e+00	0	40	104	0	71	20968
2026-01-21 13:04:45.92	269.96	10.11	-50.3	-65.2	3.8	1.49e+00	0	40	104	0	71	20973
2026-01-21 13:04:48.94	270.47	10.20	-50.3	-65.2	3.8	1.49e+00	0	40	104	0	71	20987
2026-01-21 13:04:51.97	270.99	10.29	-50.3	-65.2	3.8	1.49e+00	0	40	104	0	71	20982
2026-01-21 13:04:54.99	271.50	10.38	-50.3	-65.2	3.8	1.49e+00	0	40	104	0	71	20961
2026-01-21 13:04:58.01	272.02	10.47	-50.3	-65.2	3.8	1.49e+00	0	40	104	0	71	20953
2026-01-21 13:05:01.04	272.55	10.55	-50.3	-65.3	3.8	1.49e+00	0	40	104	0	71	21048
2026-01-21 13:05:04.06	273.08	10.63	-50.3	-65.2	3.8	1.49e+00	0	40	104	0	71	20981
2026-01-21 13:05:07.09	273.61	10.71	-50.3	-65.3	3.8	1.49e+00	0	40	104	0	71	21037
2026-01-21 13:05:10.11	274.14	10.79	-50.3	-65.2	3.8	1.49e+00	0	40	104	0	71	20988
2026-01-21 13:05:13.13	274.67	10.87	-50.3	-65.3	3.8	1.49e+00	0	40	104	0	71	21026
2026-01-21 13:05:16.16	275.21	10.94	-50.3	-65.2	3.8	1.49e+00	0	40	104	0	71	20962
2026-01-21 13:05:19.18	275.75	11.01	-50.3	-65.2	3.8	1.49e+00	0	40	104	0	71	20958
2026-01-21 13:05:22.21	276.29	11.08	-50.3	-65.2	3.8	1.49e+00	0	40	104	0	71	20995
2026-01-21 13:05:25.23	276.84	11.15	-50.3	-65.2	3.8	1.49e+00	0	40	104	0	71	20958
2026-01-21 13:05:28.25	277.38	11.22	-50.3	-65.2	3.8	1.49e+00	0	40	104	0	71	20942
2026-01-21 13:05:31.27	277.93	11.28	-50.3	-65.2	3.8	1.49e+00	0	40	104	0	71	20962
2026-01-21 13:05:34.30	278.49	11.35	-50.3	-65.2	3.8	1.49e+00	0	40	104	0	71	20984
2026-01-21 13:05:37.32	279.04	11.41	-50.3	-65.3	3.8	1.49e+00	0	40	104	0	71	21020
2026-01-21 13:05:40.35	279.60	11.46	-50.3	-65.2	3.8	1.49e+00	0	40	104	0	71	20991
2026-01-21 13:05:43.37	280.15	11.52	-50.3	-65.2	3.8	1.49e+00	0	40	104	0	71	20976
2026-01-21 13:05:46.39	280.71	11.57	-50.3	-65.2	3.8	1.49e+00	0	40	104	0	71	20992
2026-01-21 13:05:49.42	281.28	11.62	-50.3	-65.2	3.8	1.49e+00	0	40	104	0	71	20958
2026-01-21 13:05:52.44	281.84	11.67	-50.3	-65.2	3.8	1.49e+00	0	40	104	0	71	20991
2026-01-21 13:05:55.46	282.40	11.71	-50.3	-65.2	3.8	1.49e+00	0	40	104	0	71	20934
2026-01-21 13:05:58.48	282.97	11.76	-50.3	-65.3	3.8	1.49e+00	0	40	104	0	71	21040
2026-01-21 13:06:01.51	283.54	11.80	-50.3	-65.2	3.8	1.49e+00	0	40	104	0	71	21015
2026-01-21 13:06:04.54	284.11	11.84	-50.3	-65.2	3.8	1.49e+00	0	40	104	0	71	20982
2026-01-21 13:06:07.56	284.68	11.87	-50.3	-65.2	3.8	1.49e+00	0	40	104	0	71	20973
2026-01-21 13:06:10.58	285.26	11.91	-50.3	-65.2	3.8	1.49e+00	0	40	104	0	71	20991
2026-01-21 13:06:13.61	285.83	11.94	-50.3	-65.2	3.8	1.49e+00	0	40	104	0	71	21001
2026-01-21 13:06:16.63	286.41	11.97	-50.3	-65.2	3.8	1.49e+00	0	40	104	0	71	20971
2026-01-21 13:06:19.66	286.98	11.99	-50.3	-65.2	3.8	1.49e+00	0	40	104	0	71	20972
2026-01-21 13:06:22.68	287.56	12.02	-50.3	-65.2	3.8	1.49e+00	0	40	104	0	71	21001
2026-01-21 13:06:25.70	288.14	12.04	-50.3	-65.2	3.8	1.49e+00	0	40	104	0	71	21010
2026-01-21 13:06:28.72	288.72	12.05	-50.3	-65.2	3.8	1.49e+00	0	40	104	0	71	20967
2026-01-21 13:06:31.75	289.30	12.07	-50.3	-65.2	3.8	1.49e+00	0	40	104	0	71	20927
2026-01-21 13:06:34.77	289.88	12.08	-50.3	-65.2	3.8	1.49e+00	0	40	104	0	71	20939
2026-01-21 13:06:37.80	290.46	12.09	-50.3	-65.3	3.8	1.49e+00	0	40	104	0	71	21053
2026-01-21 13:06:40.82	291.04	12.10	-50.3	-65.2	3.8	1.49e+00	0	40	104	0	71	20986
2026-01-21 13:06:43.84	291.62	12.10	-50.3	-65.2	3.8	1.49e+00	0	40	104	0	71	20968
2026-01-21 13:06:46.86	292.20	12.11	-50.3	-65.2	3.8	1.49e+00	0	40	104	0	71	21017
2026-01-21 13:06:49.89	292.78	12.11	-50.3	-65.2	3.8	1.49e+00	0	40	104	0	71	21004
2026-01-21 13:06:52.91	293.36	12.10	-50.3	-65.2	3.8	1.49e+00	0	40	104	0	71	20984
2026-01-21 13:06:55.94	293.94	12.10	-50.3	-65.2	3.8	1.49e+00	0	40	104	0	71	20943
2026-01-21 13:06:58.97	294.52	12.09	-50.3	-65.2	3.8	1.49e+00	0	40	104	0	71	20981
2026-01-21 13:07:01.98	295.10	12.08	-50.3	-65.2	3.8	1.49e+00	0	40	104	0	71	21001
2026-01-21 13:07:05.01	295.68	12.07	-50.3	-65.2	3.8	1.49e+00	0	40	104	0	71	20978
2026-01-21 13:07:08.03	296.26	12.05	-50.3	-65.3	3.8	1.49e+00	0	40	104	0	71	21028
2026-01-21 13:07:11.06	296.84	12.03	-50.3	-65.2	3.8	1.49e+00	0	40	104	0	71	20933
2026-01-21 13:07:14.08	297.41	12.01	-50.3	-65.2	3.8	1.49e+00	0	40	104	0	71	20982
2026-01-21 13:07:17.10	297.99	11.99	-50.3	-65.2	3.8	1.49e+00	0	40	104	0	71	20976
2026-01-21 13:07:20.13	298.57	11.96	-50.3	-65.2	3.8	1.49e+00	0	40	104	0	71	20996
2026-01-21 13:07:23.15	299.14	11.93	-50.3	-65.2	3.8	1.49e+00	0	40	104	0	71	20963
2026-01-21 13:07:26.18	299.71	11.90	-50.3	-65.2	3.8	1.49e+00	0	40	104	0	71	20993
2026-01-21 13:07:29.20	300.28	11.86	-50.3	-65.2	3.8	1.49e+00	0	40	104	0	71	21010
2026-01-21 13:07:32.22	300.85	11.83	-50.3	-65.2	3.8	1.49e+00	0	40	104	0	71	20988
2026-01-21 13:07:35.24	301.42	11.79	-50.3	-65.2	3.8	1.49e+00	0	40	104	0	71	20938
2026-01-21 13:07:38.26	301.99	11.75	-50.3	-65.2	3.8	1.49e+00	0	40	104	0	71	20979
2026-01-21 13:07:41.28	302.55	11.70	-50.3	-65.2	3.8	1.49e+00	0	40	104	0	71	20989
2026-01-21 13:07:44.30	303.12	11.66	-50.3	-65.2	3.8	1.49e+00	0	40	104	0	71	20986
2026-01-21 13:07:47.33	303.68	11.61	-50.3	-65.2	3.8	1.49e+00	0	40	104	0	71	20972
2026-01-21 13:07:50.35	304.24	11.56	-50.3	-65.2	3.8	1.49e+00	0	40	104	0	71	21017
2026-01-21 13:07:53.38	304.80	11.50	-50.3	-65.2	3.8	1.49e+00	0	40	104	0	71	20913
2026-01-21 13:07:56.41	305.36	11.45	-50.3	-65.2	3.8	1.49e+00	0	40	104	0	71	21011
2026-01-21 13:07:59.43	305.91	11.39	-50.3	-65.2	3.8	1.49e+00	0	40	104	0	71	21015
2026-01-21 13:08:02.45	306.46	11.33	-50.3	-65.2	3.8	1.49e+00	0	40	104	0	71	20898
2026-01-21 13:08:05.48	307.02	11.27	-50.3	-65.2	3.8	1.49e+00	0	40	104	0	71	20974
2026-01-21 13:08:08.50	307.56	11.20	-50.3	-65.2	3.8	1.49e+00	0	40	104	0	71	20978
2026-01-21 13:08:11.52	308.11	11.14	-50.3	-65.2	3.8	1.49e+00	0	40	104	0	71	20965
2026-01-21 13:08:14.55	308.65	11.07	-50.3	-65.2	3.8	1.49e+00	0	40	104	0	71	20937
2026-01-21 13:08:17.58	309.19	11.00	-50.3	-65.2	3.8	1.49e+00	0	40	104	0	71	20950
2026-01-21 13:08:20.60	309.73	10.92	-50.3	-65.2	3.8	1.49e+00	0	40	104	0	71	20946
2026-01-21 13:08:23.62	310.26	10.85	-50.3	-65.2	3.8	1.49e+00	0	40	104	0	71	20914
2026-01-21 13:08:26.65	310.80	10.77	-50.3	-65.2	3.8	1.49e+00	0	40	104	0	71	20967
2026-01-21 13:08:29.68	311.33	10.69	-50.3	-65.2	3.8	1.49e+00	0	40	104	0	71	20949
2026-01-21 13:08:32.70	311.85	10.61	-50.3	-65.2	3.8	1.49e+00	0	40	104	0	71	20981
2026-01-21 13:08:35.73	312.38	10.53	-50.3	-65.2	3.8	1.49e+00	0	40	104	0	71	20900
2026-01-21 13:08:38.75	312.90	10.45	-50.3	-65.2	3.8	1.49e+00	0	40	104	0	71	20919
2026-01-21 13:08:41.78	313.42	10.36	-50.3	-65.2	3.8	1.49e+00	0	40	104	0	71	20958
2026-01-21 13:08:44.80	313.93	10.27	-50.3	-65.2	3.8	1.49e+00	0	40	104	0	71	20982
2026-01-21 13:08:47.83	314.45	10.18	-50.3	-65.2	3.8	1.49e+00	0	40	104	0	71	20978
2026-01-21 13:08:50.85	314.96	10.09	-50.3	-65.2	3.8	1.49e+00	0	40	104	0	71	20956
2026-01-21 13:08:53.88	315.46	10.00	-50.3	-65.2	3.8	1.49e+00	0	40	104	0	71	21015
2026-01-21 13:08:56.90	315.96	9.91	-50.3	-65.2	3.8	1.49e+00	0	40	104	0	71	20938
2026-01-21 13:08:59.92	316.46	9.81	-50.3	-65.2	3.8	1.49e+00	0	40	104	0	71	20950
2026-01-21 13:09:02.94	316.96	9.71	-50.3	-65.2	3.8	1.49e+00	0	40	104	0	71	20958
2026-01-21 13:09:05.97	317.45	9.62	-50.3	-65.2	3.8	1.49e+00	0	40	104	0	71	20928
2026-01-21 13:09:08.99	317.94	9.52	-50.3	-65.2	3.8	1.49e+00	0	40	104	0	71	20948
2026-01-21 13:09:12.01	318.43	9.41	-50.3	-65.2	3.8	1.49e+00	0	40	104	0	71	20945
2026-01-21 13:09:15.03	318.91	9.31	-50.3	-65.2	3.8	1.49e+00	0	40	104	0	71	20968
2026-01-21 13:09:18.06	319.39	9.21	-50.3	-65.2	3.8	1.49e+00	0	40	104	0	71	20938
2026-01-21 13:09:21.08	319.87	9.10	-50.3	-65.2	3.8	1.49e+00	0	40	104	0	71	20963
2026-01-21 13:09:24.10	320.34	9.00	-50.3	-65.2	3.8	1.49e+00	0	40	104	0	71	20931
2026-01-21 13:09:27.12	320.81	8.89	-50.3	-65.2	3.8	1.49e+00	0	40	104	0	71	20959
2026-01-21 13:09:30.15	321.28	8.78	-50.3	-65.2	3.8	1.49e+00	0	40	104	0	71	20984
2026-01-21 13:09:33.17	321.74	8.67	-50.3	-65.2	3.8	1.49e+00	0	40	104	0	71	20936
2026-01-21 13:09:36.20	322.20	8.56	-50.3	-65.2	3.8	1.49e+00	0	40	104	0	71	20976
2026-01-21 13:09:39.22	322.66	8.44	-50.3	-65.2	3.8	1.49e+00	0	40	104	0	71	20951
2026-01-21 13:09:42.25	323.11	8.33	-50.3	-65.2	3.8	1.49e+00	0	40	104	0	71	20912
2026-01-21 13:09:45.28	323.56	8.22	-50.3	-65.2	3.8	1.49e+00	0	40	104	0	71	20978
2026-01-21 13:09:48.30	324.01	8.10	-50.3	-65.2	3.8	1.49e+00	0	40	104	0	71	20952
2026-01-21 13:09:51.33	324.45	7.99	-50.3	-65.2	3.8	1.49e+00	0	40	104	0	71	20920
2026-01-21 13:09:54.36	324.89	7.87	-50.3	-65.2	3.8	1.49e+00	0	40	104	0	71	20963
2026-01-21 13:09:57.38	325.33	7.75	-50.3	-65.2	3.8	1.49e+00	0	40	104	0	71	20990
2026-01-21 13:10:00.41	325.76	7.63	-50.3	-65.2	3.8	1.49e+00	0	40	104	0	71	20907
2026-01-21 13:10:03.44	326.19	7.51	-50.3	-65.2	3.8	1.49e+00	0	40	104	0	71	20965
2026-01-21 13:10:06.46	326.62	7.39	-50.3	-65.2	3.8	1.49e+00	0	40	104	0	71	20936
2026-01-21 13:10:09.49	327.04	7.27	-50.3	-65.2	3.8	1.49e+00	0	40	104	0	71	20941
2026-01-21 13:10:12.51	327.46	7.15	-50.3	-65.3	3.8	1.49e+00	0	40	104	0	71	21020
2026-01-21 13:10:15.54	327.88	7.03	-50.3	-65.2	3.8	1.49e+00	0	40	104	0	71	21017
2026-01-21 13:10:18.56	328.29	6.90	-50.3	-65.2	3.8	1.49e+00	0	40	104	0	71	20929
2026-01-21 13:10:21.59	328.70	6.78	-50.3	-65.2	3.8	1.49e+00	0	40	104	0	71	21000
2026-01-21 13:10:24.61	329.10	6.65	-50.3	-65.2	3.8	1.49e+00	0	40	104	0	71	21005
2026-01-21 13:10:27.64	329.51	6.53	-50.3	-65.2	3.8	1.49e+00	0	40	104	0	71	20991
2026-01-21 13:10:30.67	329.91	6.40	-50.3	-65.2	3.8	1.49e+00	0	40	104	0	71	20887
2026-01-21 13:10:33.69	330.30	6.28	-50.3	-65.2	3.8	1.49e+00	0	40	104	0	71	20940
2026-01-21 13:10:36.71	330.69	6.15	-50.3	-65.2	3.8	1.49e+00	0	40	104	0	71	20898
2026-01-21 13:10:39.74	331.08	6.02	-50.3	-65.2	3.8	1.49e+00	0	40	104	0	71	20851
2026-01-21 13:10:42.77	331.47	5.90	-50.3	-65.2	3.8	1.49e+00	0	40	104	0	71	20793
2026-01-21 13:10:45.79	331.85	5.77	-50.3	-65.2	3.8	1.49e+00	0	40	104	0	71	20893
2026-01-21 13:10:48.82	332.23	5.64	-50.3	-65.2	3.8	1.49e+00	0	40	104	0	71	20914
2026-01-21 13:10:51.85	332.61	5.51	-50.3	-65.2	3.8	1.49e+00	0	40	104	0	71	20887
2026-01-21 13:10:54.87	332.98	5.38	-50.3	-65.2	3.8	1.49e+00	0	40	104	0	71	20801
2026-01-21 13:10:57.90	333.35	5.25	-50.3	-65.2	3.8	1.49e+00	0	40	104	0	71	20813
2026-01-21 13:11:00.92	333.72	5.12	-50.3	-65.2	3.8	1.49e+00	0	40	104	0	71	20886
2026-01-21 13:11:03.94	334.08	4.99	-50.3	-65.2	3.8	1.49e+00	0	40	104	0	71	20852
2026-01-21 13:11:06.97	334.44	4.86	-50.3	-65.2	3.8	1.49e+00	0	40	104	0	71	20820
2026-01-21 13:11:09.99	334.80	4.73	-50.3	-65.2	3.8	1.49e+00	0	40	104	0	71	20933
2026-01-21 13:11:13.01	335.16	4.60	-50.3	-65.2	3.8	1.49e+00	0	40	104	0	71	20944
2026-01-21 13:11:16.04	335.51	4.47	-50.3	-65.2	3.8	1.49e+00	0	40	104	0	71	20871
2026-01-21 13:11:19.06	335.86	4.34	-50.3	-65.2	3.8	1.49e+00	0	40	104	0	71	21001
2026-01-21 13:11:22.09	336.20	4.21	-50.3	-65.2	3.8	1.49e+00	0	40	104	0	71	20927
2026-01-21 13:11:25.12	336.55	4.08	-50.3	-65.2	3.8	1.49e+00	0	40	104	0	71	20930
2026-01-21 13:11:28.14	336.88	3.94	-50.3	-65.2	3.8	1.49e+00	0	40	104	0	71	20892
2026-01-21 13:11:31.17	337.22	3.81	-50.3	-65.2	3.8	1.49e+00	0	40	104	0	71	20974
2026-01-21 13:11:34.19	337.56	3.68	-50.3	-65.2	3.8	1.49e+00	0	40	104	0	71	20985
2026-01-21 13:11:37.22	337.89	3.55	-50.3	-65.2	3.8	1.49e+00	0	40	104	0	71	21010
2026-01-21 13:11:40.24	338.22	3.42	-50.3	-65.2	3.8	1.49e+00	0	40	104	0	71	20996
2026-01-21 13:11:43.26	338.54	3.28	-50.3	-65.2	3.8	1.49e+00	0	40	104	0	71	20926
2026-01-21 13:11:46.29	338.86	3.15	-50.3	-65.2	3.8	1.49e+00	0	40	104	0	71	20899
2026-01-21 13:11:49.31	339.18	3.02	-50.3	-65.2	3.8	1.49e+00	0	40	104	0	71	20907
2026-01-21 13:11:52.34	339.50	2.89	-50.3	-65.2	3.8	1.49e+00	0	40	104	0	71	20912
2026-01-21 13:11:55.37	339.82	2.75	-50.3	-65.2	3.8	1.49e+00	0	40	104	0	71	20902
2026-01-21 13:11:58.39	340.13	2.62	-50.3	-65.2	3.8	1.49e+00	0	40	104	0	71	20938
2026-01-21 13:12:01.42	340.44	2.49	-50.3	-65.2	3.8	1.49e+00	0	40	104	0	71	20924
2026-01-21 13:12:04.44	340.74	2.35	-50.3	-65.2	3.8	1.49e+00	0	40	104	0	71	20993
2026-01-21 13:12:07.46	341.05	2.22	-50.3	-65.2	3.8	1.49e+00	0	40	104	0	71	20994
2026-01-21 13:12:10.49	341.35	2.09	-50.3	-65.2	3.8	1.49e+00	0	40	104	0	71	21004

#Closed at: 2026-01-21 13:12:13
#Recorded file [0 MB]: D:/lorett/data/31041_260121_160126.dat