passes_logs/2026/01/21/R3.2S_Murmansk/R3.2S_Murmansk__20260121_105623_AQUA_rec.log

#Pass ID: 20260121_105623_AQUA
#Satellite: AQUA
#Configuration: AQUA
#almurnet v.1.7.20251203
#Start time: 2026-01-21 10:56:24

#Version: 2.2.20231116
#Station: R3.2S_Murmansk
#Location: 33.079688 lon 68.888172 lat
#TLE: 1 27424U 02022A   26020.90316333  .00002787  00000+0  56766-3 0  9999
#TLE: 2 27424  98.4095 347.4297 0002000  71.6339 309.8236 14.61840001261750

#Time	Az	El	Level	Level2	SNR	BER	BlckErr	Temp	State	Recorded	gain1	gain2
2026-01-21 10:56:24.50	143.44	2.09	-55.8	-73.6	3.8	7.47e-01	0	38	0	0	82	29031
2026-01-21 10:56:28.52	143.40	2.36	-55.9	-73.8	3.8	7.44e-01	0	38	104	0	82	29751
2026-01-21 10:56:32.56	143.36	2.63	-55.9	-73.7	3.8	7.45e-01	0	38	104	0	82	29557
2026-01-21 10:56:36.59	143.32	2.91	-55.8	-73.5	3.8	7.47e-01	0	38	104	0	82	28744
2026-01-21 10:56:40.62	143.28	3.19	-55.6	-73.3	3.8	7.45e-01	0	38	104	0	82	28252
2026-01-21 10:56:44.65	143.24	3.47	-55.1	-72.9	3.8	7.48e-01	0	38	104	0	82	27029
2026-01-21 10:56:48.68	143.19	3.75	-54.2	-71.9	3.8	7.44e-01	0	39	104	0	80	26916
2026-01-21 10:56:52.71	143.15	4.04	-54.0	-68.1	4.2	7.31e-01	0	39	104	0	79	18364
2026-01-21 10:56:56.74	143.10	4.34	-52.2	-57.2	13.5	6.10e-01	0	39	0	3670016	76	6237
2026-01-21 10:57:00.77	143.05	4.63	-48.9	-51.2	19.7	6.07e-01	0	39	0	11010048	69	4657
2026-01-21 10:57:04.81	143.00	4.93	-46.8	-48.4	22.5	6.07e-01	0	39	0	18874368	65	4281
2026-01-21 10:57:08.84	142.95	5.23	-50.0	-52.8	18.5	6.06e-01	0	39	0	26214400	70	5304
2026-01-21 10:57:12.87	142.90	5.54	-46.1	-47.7	23.2	6.05e-01	0	39	0	34078720	64	4146
2026-01-21 10:57:16.90	142.84	5.85	-45.8	-47.2	23.8	6.03e-01	0	39	0	41418752	62	4439
2026-01-21 10:57:20.94	142.79	6.17	-45.7	-47.0	24.1	6.03e-01	0	39	0	49283072	62	4340
2026-01-21 10:57:24.97	142.73	6.49	-45.5	-46.9	24.2	6.05e-01	0	39	0	56623104	62	4263
2026-01-21 10:57:29.00	142.67	6.81	-45.6	-47.0	24.2	6.07e-01	0	39	0	63963136	62	4294
2026-01-21 10:57:33.03	142.61	7.14	-45.2	-46.5	24.6	6.06e-01	0	39	0	71827456	62	4076
2026-01-21 10:57:37.07	142.55	7.48	-45.5	-46.8	24.4	6.05e-01	0	39	0	79167488	62	4215
2026-01-21 10:57:41.10	142.48	7.81	-44.9	-46.2	25.0	6.03e-01	0	39	0	87031808	61	4176
2026-01-21 10:57:45.13	142.42	8.16	-44.7	-45.9	25.3	6.06e-01	0	39	0	94371840	61	4029
2026-01-21 10:57:49.16	142.35	8.51	-44.9	-46.2	25.1	6.05e-01	0	39	0	102236160	61	4149
2026-01-21 10:57:53.19	142.28	8.86	-44.7	-46.0	25.3	6.03e-01	0	39	0	109576192	61	4052
2026-01-21 10:57:57.22	142.20	9.22	-44.6	-45.8	25.4	6.07e-01	0	39	0	117440512	61	3998
2026-01-21 10:58:01.26	142.13	9.58	-44.5	-45.7	25.6	6.04e-01	0	39	0	124780544	60	4182
2026-01-21 10:58:05.29	142.05	9.96	-44.6	-45.8	25.5	6.05e-01	0	39	0	132120576	60	4207
2026-01-21 10:58:09.32	141.97	10.33	-44.3	-45.5	25.8	6.04e-01	0	39	0	139984896	60	4090
2026-01-21 10:58:13.35	141.89	10.72	-44.3	-45.5	25.7	6.03e-01	0	39	0	147324928	60	4075
2026-01-21 10:58:17.39	141.80	11.11	-44.4	-45.6	25.8	6.02e-01	0	39	0	154664960	60	4100
2026-01-21 10:58:21.42	141.71	11.51	-44.2	-45.4	26.0	6.05e-01	0	39	0	162529280	60	4008
2026-01-21 10:58:25.45	141.62	11.91	-44.1	-45.3	26.1	6.05e-01	0	39	0	169869312	60	3987
2026-01-21 10:58:29.48	141.52	12.33	-44.1	-45.2	26.1	6.07e-01	0	39	0	177733632	60	3955
2026-01-21 10:58:33.51	141.43	12.75	-43.9	-45.1	26.2	6.04e-01	0	39	0	185073664	59	4116
2026-01-21 10:58:37.54	141.32	13.18	-43.9	-45.1	26.2	6.04e-01	0	39	0	192937984	59	4117
2026-01-21 10:58:41.58	141.22	13.61	-43.9	-45.1	26.3	6.05e-01	0	39	0	200278016	59	4104
2026-01-21 10:58:45.61	141.11	14.06	-43.9	-45.1	26.3	6.03e-01	0	39	0	208142336	59	4101
2026-01-21 10:58:49.64	140.99	14.51	-43.7	-44.9	26.5	6.06e-01	0	39	0	215482368	59	4013
2026-01-21 10:58:53.67	140.88	14.98	-43.8	-44.9	26.5	6.06e-01	0	39	0	222822400	59	4039
2026-01-21 10:58:57.71	140.75	15.45	-43.9	-45.0	26.4	6.04e-01	0	39	0	230686720	59	4093
2026-01-21 10:59:01.74	140.63	15.94	-43.9	-45.0	26.4	6.04e-01	0	40	0	238026752	59	4081
2026-01-21 10:59:05.77	140.49	16.43	-44.0	-45.2	26.2	6.05e-01	0	39	0	245891072	59	4162
2026-01-21 10:59:09.80	140.36	16.94	-44.0	-45.1	26.3	6.05e-01	0	39	0	253231104	59	4135
2026-01-21 10:59:13.83	140.21	17.46	-43.9	-45.0	26.4	6.06e-01	0	39	0	260571136	59	4070
2026-01-21 10:59:17.87	140.06	17.99	-43.8	-44.9	26.5	6.08e-01	0	40	0	268435456	59	4031
2026-01-21 10:59:21.90	139.91	18.53	-43.8	-44.9	26.6	6.06e-01	0	39	0	275775488	59	4023
2026-01-21 10:59:25.93	139.75	19.09	-43.8	-44.9	26.6	6.06e-01	0	39	0	283639808	59	4014
2026-01-21 10:59:29.96	139.58	19.66	-44.0	-45.1	26.4	6.06e-01	0	39	0	290979840	59	4128
2026-01-21 10:59:34.00	139.40	20.24	-44.1	-45.2	26.3	6.04e-01	0	39	0	298319872	59	4184
2026-01-21 10:59:38.03	139.22	20.84	-44.1	-45.2	26.3	6.05e-01	0	40	0	306184192	59	4169
2026-01-21 10:59:42.06	139.02	21.46	-43.9	-45.0	26.5	6.05e-01	0	39	0	313524224	59	4094
2026-01-21 10:59:46.10	138.82	22.09	-43.8	-44.9	26.7	6.06e-01	0	40	0	321388544	59	4021
2026-01-21 10:59:50.13	138.61	22.74	-44.0	-45.2	26.4	6.07e-01	0	39	0	328728576	59	4160
2026-01-21 10:59:54.16	138.39	23.41	-44.3	-45.5	26.1	6.04e-01	0	40	0	336592896	59	4310
2026-01-21 10:59:58.19	138.16	24.09	-44.3	-45.4	26.2	6.04e-01	0	40	0	343932928	59	4277
2026-01-21 11:00:02.23	137.92	24.80	-44.1	-45.2	26.3	6.05e-01	0	39	0	351797248	59	4169
2026-01-21 11:00:06.26	137.66	25.52	-44.6	-55.4	3.8	7.46e-01	0	40	104	355467264	60	12670
2026-01-21 11:00:10.29	137.39	26.27	-50.0	-61.7	3.8	7.42e-01	0	40	104	355467264	72	13118
2026-01-21 11:00:14.33	137.11	27.04	-44.2	-54.7	4.4	7.26e-01	0	40	104	355467264	60	11747
2026-01-21 11:00:18.36	136.81	27.83	-47.5	-58.4	4.3	7.27e-01	0	39	104	355467264	67	11967
2026-01-21 11:00:22.39	136.49	28.65	-44.1	-54.9	3.8	7.45e-01	0	40	104	355467264	59	12671
2026-01-21 11:00:26.42	136.16	29.49	-45.1	-55.8	3.8	7.46e-01	0	40	104	355467264	62	11940
2026-01-21 11:00:30.45	135.81	30.35	-43.8	-54.5	3.8	7.47e-01	0	39	104	355467264	59	12184
2026-01-21 11:00:34.49	135.43	31.25	-45.2	-55.8	3.8	7.44e-01	0	40	104	355467264	62	11953
2026-01-21 11:00:38.52	135.04	32.18	-45.9	-56.9	3.8	7.43e-01	0	40	104	355467264	62	13416
2026-01-21 11:00:42.55	134.61	33.13	-44.1	-54.7	3.8	7.44e-01	0	40	104	355467264	60	11793
2026-01-21 11:00:46.58	134.16	34.11	-45.9	-56.8	3.9	7.41e-01	0	40	104	355467264	62	13321
2026-01-21 11:00:50.61	133.68	35.13	-44.5	-55.1	3.8	7.47e-01	0	40	104	355467264	60	12342
2026-01-21 11:00:54.65	133.17	36.18	-46.4	-57.3	3.8	7.44e-01	0	40	104	355467264	63	13400
2026-01-21 11:00:58.68	132.62	37.27	-45.5	-56.2	3.8	7.49e-01	0	40	104	355467264	62	12424
2026-01-21 11:01:02.71	132.03	38.39	-46.8	-57.8	3.8	7.45e-01	0	40	104	355467264	64	13330
2026-01-21 11:01:06.75	131.39	39.55	-46.8	-57.7	3.8	7.44e-01	0	40	104	355467264	64	13173
2026-01-21 11:01:10.78	130.71	40.74	-46.6	-57.4	3.8	7.44e-01	0	40	104	355467264	63	13517
2026-01-21 11:01:14.81	129.97	41.98	-46.7	-57.8	3.8	7.45e-01	0	40	104	355467264	64	13334
2026-01-21 11:01:18.84	129.17	43.25	-49.8	-61.5	3.9	7.42e-01	0	40	104	355467264	70	14414
2026-01-21 11:01:22.87	128.30	44.56	-46.0	-56.8	3.8	7.45e-01	0	40	104	355467264	62	13283
2026-01-21 11:01:26.91	127.35	45.91	-50.4	-62.2	3.8	7.46e-01	0	40	104	355467264	71	14783
2026-01-21 11:01:30.94	126.31	47.30	-46.9	-57.8	3.8	7.44e-01	0	40	104	355467264	64	13410
2026-01-21 11:01:34.97	125.18	48.73	-48.4	-59.6	3.8	7.49e-01	0	40	104	355467264	67	13851
2026-01-21 11:01:39.00	123.92	50.19	-46.3	-57.0	3.9	7.44e-01	0	40	104	355467264	62	13687
2026-01-21 11:01:43.03	122.54	51.68	-50.4	-62.3	3.9	7.42e-01	0	40	104	355467264	72	14198
2026-01-21 11:01:47.06	121.01	53.21	-46.2	-57.0	3.9	7.47e-01	0	40	104	355467264	62	13654
2026-01-21 11:01:51.10	119.30	54.76	-49.5	-61.0	3.8	7.48e-01	0	40	104	355467264	70	13634
2026-01-21 11:01:55.13	117.39	56.33	-46.7	-57.6	3.8	7.41e-01	0	40	104	355467264	64	13075
2026-01-21 11:01:59.17	115.24	57.92	-47.0	-57.9	3.8	7.40e-01	0	40	104	355467264	66	12001
2026-01-21 11:02:03.19	112.83	59.50	-47.5	-58.4	3.8	7.45e-01	0	40	104	355467264	65	13435
2026-01-21 11:02:07.22	110.11	61.07	-49.7	-61.2	3.8	7.44e-01	0	40	104	355467264	71	13123
2026-01-21 11:02:11.25	107.01	62.62	-47.8	-59.1	3.8	7.47e-01	0	40	104	355467264	66	13878
2026-01-21 11:02:15.29	103.49	64.13	-51.5	-63.6	3.9	7.46e-01	0	40	104	355467264	75	13760
2026-01-21 11:02:19.32	99.49	65.56	-48.8	-60.2	3.9	7.42e-01	0	40	104	355467264	69	13214
2026-01-21 11:02:23.36	94.95	66.90	-52.0	-64.3	3.9	7.44e-01	0	40	104	355467264	76	14120
2026-01-21 11:02:27.39	89.83	68.10	-49.2	-60.5	3.9	7.44e-01	0	40	104	355467264	69	13584
2026-01-21 11:02:31.42	84.11	69.14	-49.4	-60.6	3.8	7.46e-01	0	40	104	355467264	70	12982
2026-01-21 11:02:35.45	77.80	69.98	-49.1	-61.0	3.8	7.47e-01	0	40	104	355467264	70	13614
2026-01-21 11:02:39.48	70.99	70.57	-50.2	-62.0	3.8	7.46e-01	0	40	104	355467264	72	13654
2026-01-21 11:02:43.51	63.83	70.89	-48.2	-59.2	3.8	7.46e-01	0	40	104	355467264	68	12396
2026-01-21 11:02:47.54	56.52	70.93	-51.2	-62.9	3.8	7.47e-01	0	40	104	355467264	74	13444
2026-01-21 11:02:51.58	49.29	70.67	-48.7	-59.8	3.8	7.44e-01	0	40	104	355467264	69	12583
2026-01-21 11:02:55.61	42.38	70.14	-51.0	-62.6	3.8	7.44e-01	0	40	104	355467264	72	14692
2026-01-21 11:02:59.64	35.95	69.36	-49.0	-60.1	3.8	7.45e-01	0	40	104	355467264	70	12354
2026-01-21 11:03:03.67	30.09	68.37	-52.3	-64.8	3.8	7.45e-01	0	40	104	355467264	76	14952
2026-01-21 11:03:07.70	24.83	67.20	-49.4	-60.8	3.8	7.43e-01	0	40	104	355467264	70	13408
2026-01-21 11:03:11.73	20.16	65.90	-50.6	-62.2	3.9	7.44e-01	0	40	104	355467264	71	14783
2026-01-21 11:03:15.76	16.04	64.49	-49.1	-60.0	3.9	7.43e-01	0	40	104	355467264	70	12174
2026-01-21 11:03:19.80	12.41	63.00	-50.4	-62.2	3.9	7.44e-01	0	40	104	355467264	73	13216
2026-01-21 11:03:23.83	9.23	61.46	-46.4	-57.4	3.8	7.43e-01	0	40	104	355467264	64	12770
2026-01-21 11:03:27.87	6.41	59.89	-48.2	-59.1	3.9	7.44e-01	0	40	104	355467264	66	13859
2026-01-21 11:03:31.89	3.94	58.32	-45.6	-56.5	3.8	7.41e-01	0	40	104	355467264	63	12166
2026-01-21 11:03:35.93	1.73	56.73	-47.4	-58.1	3.8	7.43e-01	0	40	104	355467264	65	13056
2026-01-21 11:03:39.96	359.77	55.16	-43.9	-54.4	3.8	7.44e-01	0	40	104	355467264	59	11977
2026-01-21 11:03:43.99	358.02	53.61	-46.1	-57.0	3.9	7.44e-01	0	40	104	355467264	62	13719
2026-01-21 11:03:48.03	356.45	52.08	-43.7	-54.6	3.8	7.44e-01	0	40	104	355467264	59	12312
2026-01-21 11:03:52.05	355.03	50.58	-46.3	-57.0	3.9	7.43e-01	0	40	104	355467264	64	12098
2026-01-21 11:03:56.09	353.75	49.11	-44.6	-55.3	3.8	7.41e-01	0	40	104	355467264	60	12649
2026-01-21 11:04:00.12	352.59	47.68	-46.2	-57.0	3.9	7.43e-01	0	40	104	355467264	63	12820
2026-01-21 11:04:04.15	351.53	46.29	-44.0	-54.6	3.8	7.47e-01	0	40	104	355467264	60	11622
2026-01-21 11:04:08.18	350.56	44.94	-46.6	-57.6	3.8	7.45e-01	0	40	104	355467264	65	12256
2026-01-21 11:04:12.21	349.67	43.62	-44.9	-55.6	3.8	7.44e-01	0	40	104	355467264	61	12370
2026-01-21 11:04:16.24	348.86	42.34	-46.3	-57.2	3.8	7.43e-01	0	40	104	355467264	64	12496
2026-01-21 11:04:20.28	348.10	41.10	-46.2	-57.2	3.8	7.47e-01	0	40	104	355467264	64	12442
2026-01-21 11:04:24.31	347.41	39.90	-48.1	-59.1	3.8	7.44e-01	0	40	104	355467264	67	13069
2026-01-21 11:04:28.35	346.76	38.73	-46.4	-57.3	3.8	7.46e-01	0	40	104	355467264	64	12656
2026-01-21 11:04:32.38	346.16	37.61	-47.0	-57.8	3.8	7.42e-01	0	40	104	355467264	65	12546
2026-01-21 11:04:36.41	345.61	36.52	-46.2	-57.0	3.8	7.44e-01	0	40	104	355467264	64	12192
2026-01-21 11:04:40.45	345.08	35.46	-48.5	-59.7	3.8	7.43e-01	0	40	104	355467264	67	13926
2026-01-21 11:04:44.48	344.60	34.44	-45.2	-56.0	3.8	7.45e-01	0	40	104	355467264	62	12199
2026-01-21 11:04:48.51	344.14	33.45	-51.3	-63.3	3.8	7.48e-01	0	40	104	355467264	72	15910
2026-01-21 11:04:52.55	343.71	32.49	-45.4	-56.1	3.8	7.43e-01	0	40	104	355467264	62	12295
2026-01-21 11:04:56.58	343.31	31.56	-51.3	-63.4	3.8	7.50e-01	0	40	104	355467264	72	16112
2026-01-21 11:05:00.61	342.93	30.66	-44.8	-55.6	3.8	7.41e-01	0	40	104	355467264	61	12267
2026-01-21 11:05:04.65	342.58	29.78	-54.1	-68.6	3.7	7.49e-01	0	40	104	355467264	78	20771
2026-01-21 11:05:08.68	342.24	28.94	-44.9	-55.7	3.8	7.44e-01	0	40	104	355467264	61	12456
2026-01-21 11:05:12.71	341.92	28.12	-54.9	-71.5	3.7	7.50e-01	0	40	104	355467264	80	25767
2026-01-21 11:05:16.75	341.62	27.32	-45.3	-55.8	3.9	7.45e-01	0	40	104	355467264	62	11856
2026-01-21 11:05:20.79	341.33	26.55	-54.9	-71.6	3.7	7.44e-01	0	40	104	355467264	80	26007
2026-01-21 11:05:24.82	341.06	25.80	-45.6	-56.3	3.8	7.43e-01	0	40	104	355467264	63	11907
2026-01-21 11:05:28.85	340.80	25.07	-55.0	-72.2	3.8	7.48e-01	0	40	104	355467264	80	27727
2026-01-21 11:05:32.88	340.56	24.36	-45.4	-56.2	3.8	7.46e-01	0	40	104	355467264	62	12384
2026-01-21 11:05:36.91	340.33	23.67	-53.8	-68.1	3.8	7.42e-01	0	40	104	355467264	78	19606
2026-01-21 11:05:40.95	340.10	23.00	-44.8	-55.6	3.8	7.43e-01	0	40	104	355467264	61	12338
2026-01-21 11:05:44.98	339.89	22.35	-54.9	-71.9	3.8	7.42e-01	0	40	104	355467264	80	27032
2026-01-21 11:05:49.01	339.69	21.72	-45.3	-56.2	3.8	7.45e-01	0	40	104	355467264	62	12500
2026-01-21 11:05:53.05	339.50	21.10	-54.8	-71.9	3.8	7.47e-01	0	40	104	355467264	80	26946
2026-01-21 11:05:57.08	339.31	20.50	-44.6	-55.4	3.8	7.44e-01	0	40	104	355467264	61	12013
2026-01-21 11:06:01.11	339.14	19.91	-54.7	-71.6	3.8	7.45e-01	0	40	104	355467264	80	25955
2026-01-21 11:06:05.15	338.97	19.34	-44.6	-55.4	3.8	7.44e-01	0	40	104	355467264	61	11972
2026-01-21 11:06:09.18	338.81	18.78	-54.6	-71.5	3.8	7.47e-01	0	40	104	355467264	80	25609
2026-01-21 11:06:13.21	338.65	18.24	-44.7	-55.3	3.8	7.42e-01	0	40	104	355467264	61	11934
2026-01-21 11:06:17.24	338.50	17.70	-54.0	-69.6	3.8	7.38e-01	0	40	104	355467264	80	20586
2026-01-21 11:06:21.28	338.36	17.18	-44.3	-54.8	3.9	7.40e-01	0	40	104	355467264	60	11932
2026-01-21 11:06:25.31	338.22	16.67	-51.9	-55.6	14.0	6.00e-01	0	40	0	358088704	76	5199
2026-01-21 11:06:29.34	338.09	16.18	-44.2	-45.4	26.1	6.02e-01	0	40	0	365428736	59	4269
2026-01-21 11:06:33.37	337.96	15.69	-44.0	-45.2	26.3	6.01e-01	0	40	0	373293056	59	4147
2026-01-21 11:06:37.40	337.84	15.21	-44.1	-45.2	26.1	6.03e-01	0	40	0	380633088	59	4174
2026-01-21 11:06:41.43	337.72	14.75	-44.1	-45.2	26.2	6.02e-01	0	40	0	388497408	59	4173
2026-01-21 11:06:45.46	337.61	14.29	-44.2	-45.4	25.9	6.03e-01	0	40	0	395837440	59	4249
2026-01-21 11:06:49.49	337.50	13.84	-44.1	-45.3	26.0	6.02e-01	0	40	0	403177472	59	4218
2026-01-21 11:06:53.53	337.40	13.41	-44.0	-45.2	26.1	6.04e-01	0	40	0	411041792	59	4166
2026-01-21 11:06:57.56	337.30	12.98	-44.0	-45.2	26.1	6.02e-01	0	40	0	418381824	59	4146
2026-01-21 11:07:01.59	337.20	12.55	-44.1	-45.3	26.0	6.04e-01	0	40	0	425721856	59	4219
2026-01-21 11:07:05.62	337.10	12.14	-44.3	-45.4	25.9	6.05e-01	0	40	0	433586176	59	4284
2026-01-21 11:07:09.65	337.01	11.73	-44.5	-45.8	25.6	6.03e-01	0	40	0	440926208	59	4455
2026-01-21 11:07:13.69	336.93	11.33	-44.5	-45.7	25.6	6.01e-01	0	40	0	448790528	59	4409
2026-01-21 11:07:17.72	336.84	10.94	-44.6	-45.8	25.4	6.04e-01	0	40	0	456130560	59	4479
2026-01-21 11:07:21.74	336.76	10.56	-44.6	-45.8	25.5	6.02e-01	0	40	0	463994880	60	4218
2026-01-21 11:07:25.78	336.68	10.18	-44.6	-45.8	25.5	6.03e-01	0	40	0	471334912	60	4210
2026-01-21 11:07:29.81	336.60	9.81	-44.7	-45.9	25.3	6.03e-01	0	40	0	479199232	60	4285
2026-01-21 11:07:33.84	336.53	9.44	-44.5	-45.8	25.4	6.00e-01	0	40	0	486539264	60	4200
2026-01-21 11:07:37.88	336.46	9.08	-44.6	-45.8	25.5	6.03e-01	0	40	0	493879296	60	4205
2026-01-21 11:07:41.91	336.39	8.72	-44.6	-45.8	25.4	6.02e-01	0	40	0	501743616	60	4213
2026-01-21 11:07:45.94	336.32	8.37	-44.7	-45.9	25.3	6.02e-01	0	40	0	509083648	60	4265
2026-01-21 11:07:49.97	336.26	8.03	-44.6	-45.9	25.3	6.01e-01	0	40	0	516947968	60	4248
2026-01-21 11:07:54.01	336.19	7.69	-45.0	-46.3	24.9	6.01e-01	0	40	0	524288000	60	4486
2026-01-21 11:07:58.04	336.13	7.36	-45.3	-46.6	24.6	6.04e-01	0	40	0	532152320	61	4362
2026-01-21 11:08:02.07	336.07	7.03	-45.1	-46.4	24.7	6.04e-01	0	40	0	539492352	61	4275
2026-01-21 11:08:06.10	336.02	6.70	-45.4	-46.7	24.3	6.05e-01	0	40	0	546832384	61	4439
2026-01-21 11:08:10.14	335.96	6.38	-45.5	-46.9	24.1	6.03e-01	0	40	0	554696704	62	4281
2026-01-21 11:08:14.17	335.91	6.07	-45.5	-46.9	24.2	6.02e-01	0	40	0	562036736	62	4249
2026-01-21 11:08:18.20	335.86	5.75	-45.7	-47.1	23.9	6.02e-01	0	40	0	569376768	62	4364
2026-01-21 11:08:22.23	335.81	5.45	-46.0	-47.5	21.7	6.02e-01	0	40	0	577241088	62	4569
2026-01-21 11:08:26.26	335.76	5.14	-46.2	-47.7	23.3	6.02e-01	0	40	0	584581120	63	4405
2026-01-21 11:08:30.29	335.71	4.84	-54.6	-72.5	3.8	7.46e-01	0	40	104	589299712	79	30407
2026-01-21 11:08:34.33	335.66	4.55	-55.1	-72.9	3.8	7.46e-01	0	40	104	589299712	80	30243
2026-01-21 11:08:38.36	335.62	4.25	-55.1	-72.9	3.8	7.43e-01	0	40	104	589299712	80	30344
2026-01-21 11:08:42.39	335.58	3.96	-54.9	-72.7	3.8	7.47e-01	0	40	104	589299712	80	29576
2026-01-21 11:08:46.42	335.53	3.68	-55.0	-72.8	3.8	7.46e-01	0	40	104	589299712	80	29900
2026-01-21 11:08:50.45	335.49	3.40	-55.0	-72.8	3.8	7.44e-01	0	40	104	589299712	80	29945
2026-01-21 11:08:54.49	335.45	3.12	-55.0	-72.8	3.8	7.44e-01	0	40	104	589299712	80	29805
2026-01-21 11:08:58.52	335.42	2.84	-55.0	-72.8	3.8	7.48e-01	0	40	104	589299712	80	29709
2026-01-21 11:09:02.55	335.38	2.57	-54.9	-72.8	3.8	7.48e-01	0	40	104	589299712	80	29780
2026-01-21 11:09:06.58	335.34	2.30	-54.9	-72.7	3.8	7.44e-01	0	40	104	589299712	80	29644
2026-01-21 11:09:10.62	335.31	2.03	-54.9	-72.7	3.8	7.46e-01	0	40	104	589299712	80	29617

#Closed at: 2026-01-21 11:09:11
#Recorded file [589 MB]: D:/lorett/data/31041_260121_135624.dat