passes_logs/2026/01/21/R3.2S_Murmansk/R3.2S_Murmansk__20260121_093642_NOAA_20_JPSS-1_rec.log

#Pass ID: 20260121_093642_NOAA 20 (JPSS-1)
#Satellite: NOAA 20 (JPSS-1)
#Configuration: NOAA 20
#almurnet v.1.7.20251203
#Start time: 2026-01-21 09:36:41

#Version: 2.2.20231116
#Station: R3.2S_Murmansk
#Location: 33.079688 lon 68.888172 lat
#TLE: 1 43013U 17073A   26020.82785136  .00000155  00000+0  94366-4 0  9991
#TLE: 2 43013  98.7643 321.7058 0001260  30.3785 329.7464 14.19537992423566

#Time	Az	El	Level	Level2	SNR	BER	BlckErr	Temp	State	Recorded	gain1	gain2
2026-01-21 09:36:41.79	153.72	1.96	-52.7	-67.7	3.8	1.49e+00	0	38	0	0	77	19717
2026-01-21 09:36:45.83	153.74	2.22	-52.5	-67.5	3.8	1.49e+00	0	38	104	0	75	21651
2026-01-21 09:36:49.85	153.77	2.48	-52.5	-67.5	3.8	1.49e+00	0	38	104	0	75	21645
2026-01-21 09:36:53.89	153.79	2.75	-52.5	-67.5	3.8	1.49e+00	0	38	104	0	75	21534
2026-01-21 09:36:57.92	153.81	3.01	-52.5	-67.3	3.8	1.49e+00	0	38	104	0	75	21251
2026-01-21 09:37:01.95	153.83	3.28	-52.5	-67.0	3.8	1.49e+00	0	38	104	0	75	20393
2026-01-21 09:37:05.99	153.85	3.55	-52.5	-67.1	3.8	1.49e+00	0	39	104	0	75	20667
2026-01-21 09:37:10.02	153.87	3.83	-52.3	-63.6	4.3	1.38e+00	34	39	0	0	75	13808
2026-01-21 09:37:14.05	153.90	4.11	-50.9	-56.1	10.1	2.79e-02	0	39	0	6291456	73	6530
2026-01-21 09:37:18.08	153.92	4.39	-49.6	-53.1	13.4	4.80e-05	0	39	0	14680064	71	5169
2026-01-21 09:37:22.12	153.94	4.67	-49.1	-52.0	14.4	0.00e+00	0	39	0	22020096	69	5150
2026-01-21 09:37:26.15	153.96	4.96	-49.7	-53.2	13.2	2.13e-05	0	39	0	29360128	70	5546
2026-01-21 09:37:30.19	153.99	5.25	-52.3	-64.6	3.9	8.46e-01	0	39	104	36700160	75	15528
2026-01-21 09:37:34.22	154.01	5.54	-48.7	-51.3	15.2	0.00e+00	0	39	0	42991616	69	4756
2026-01-21 09:37:38.25	154.03	5.84	-48.5	-51.1	15.6	0.00e+00	0	39	0	50331648	69	4600
2026-01-21 09:37:42.28	154.06	6.14	-48.7	-51.2	15.5	0.00e+00	0	39	0	57671680	69	4689
2026-01-21 09:37:46.31	154.08	6.44	-48.5	-50.9	15.8	0.00e+00	0	39	0	65011712	68	4797
2026-01-21 09:37:50.34	154.10	6.75	-48.4	-50.8	16.0	0.00e+00	0	39	0	73400320	68	4738
2026-01-21 09:37:54.37	154.13	7.06	-48.1	-50.3	16.5	0.00e+00	0	39	0	80740352	68	4481
2026-01-21 09:37:58.41	154.15	7.37	-48.1	-50.3	16.5	0.00e+00	0	40	0	88080384	68	4492
2026-01-21 09:38:02.44	154.18	7.69	-48.3	-50.5	16.4	0.00e+00	0	39	0	95420416	68	4593
2026-01-21 09:38:06.46	154.20	8.01	-48.3	-50.5	16.4	0.00e+00	0	39	0	102760448	68	4576
2026-01-21 09:38:10.50	154.22	8.34	-48.1	-50.2	16.8	0.00e+00	0	39	0	111149056	68	4420
2026-01-21 09:38:14.53	154.25	8.67	-47.9	-50.0	16.9	0.00e+00	0	39	0	118489088	67	4557
2026-01-21 09:38:18.56	154.28	9.01	-48.0	-50.2	16.7	0.00e+00	0	39	0	125829120	67	4666
2026-01-21 09:38:22.59	154.30	9.35	-47.7	-49.7	17.3	0.00e+00	0	39	0	133169152	67	4419
2026-01-21 09:38:26.63	154.33	9.69	-47.8	-49.8	17.2	0.00e+00	0	40	0	141557760	67	4450
2026-01-21 09:38:30.66	154.35	10.04	-47.6	-49.5	17.5	0.00e+00	0	39	0	148897792	67	4340
2026-01-21 09:38:34.69	154.38	10.40	-47.6	-49.5	17.5	0.00e+00	0	39	0	156237824	67	4318
2026-01-21 09:38:38.73	154.41	10.76	-47.3	-49.2	17.9	0.00e+00	0	40	0	163577856	66	4395
2026-01-21 09:38:42.76	154.43	11.12	-47.2	-49.0	18.1	0.00e+00	0	39	0	170917888	66	4298
2026-01-21 09:38:46.79	154.46	11.49	-47.3	-49.0	18.0	0.00e+00	0	39	0	179306496	66	4338
2026-01-21 09:38:50.82	154.49	11.87	-47.1	-48.8	18.3	0.00e+00	0	40	0	186646528	66	4205
2026-01-21 09:38:54.85	154.52	12.25	-47.0	-48.7	18.4	0.00e+00	0	40	0	193986560	65	4427
2026-01-21 09:38:58.88	154.55	12.64	-46.8	-48.5	18.6	0.00e+00	0	40	0	201326592	65	4312
2026-01-21 09:39:02.91	154.58	13.03	-46.6	-48.2	18.9	0.00e+00	0	39	0	208666624	65	4158
2026-01-21 09:39:06.94	154.61	13.43	-46.5	-48.1	19.1	0.00e+00	0	40	0	217055232	65	4104
2026-01-21 09:39:10.96	154.64	13.84	-46.5	-48.0	19.1	0.00e+00	0	39	0	224395264	64	4331
2026-01-21 09:39:14.99	154.67	14.25	-46.4	-47.9	19.3	0.00e+00	0	40	0	231735296	64	4257
2026-01-21 09:39:19.03	154.70	14.68	-46.2	-47.7	19.5	0.00e+00	0	40	0	239075328	64	4147
2026-01-21 09:39:23.06	154.73	15.11	-46.1	-47.5	19.7	0.00e+00	0	40	0	246415360	64	4074
2026-01-21 09:39:27.09	154.76	15.54	-46.0	-47.4	19.8	0.00e+00	0	40	0	254803968	63	4281
2026-01-21 09:39:31.12	154.79	15.99	-45.9	-47.3	20.0	0.00e+00	0	40	0	262144000	63	4202
2026-01-21 09:39:35.15	154.82	16.44	-45.8	-47.2	20.1	0.00e+00	0	40	0	269484032	63	4164
2026-01-21 09:39:39.18	154.86	16.90	-45.7	-47.1	20.3	0.00e+00	0	40	0	276824064	63	4109
2026-01-21 09:39:43.21	154.89	17.37	-45.7	-47.0	20.3	0.00e+00	0	40	0	285212672	63	4081
2026-01-21 09:39:47.24	154.93	17.85	-45.6	-47.0	20.4	0.00e+00	0	39	0	292552704	63	4053
2026-01-21 09:39:51.27	154.96	18.34	-45.4	-46.7	20.6	0.00e+00	0	40	0	299892736	62	4178
2026-01-21 09:39:55.30	155.00	18.84	-45.4	-46.6	20.7	0.00e+00	0	40	0	307232768	62	4130
2026-01-21 09:39:59.34	155.03	19.35	-45.2	-46.5	20.9	0.00e+00	0	40	0	314572800	62	4058
2026-01-21 09:40:03.37	155.07	19.87	-45.2	-46.5	20.9	0.00e+00	0	40	0	321912832	62	4064
2026-01-21 09:40:07.40	155.11	20.40	-45.1	-46.3	21.0	0.00e+00	0	40	0	330301440	62	3998
2026-01-21 09:40:11.43	155.15	20.94	-45.1	-46.3	21.1	0.00e+00	0	39	0	337641472	62	3961
2026-01-21 09:40:15.46	155.19	21.50	-45.1	-46.4	21.0	0.00e+00	0	40	0	344981504	62	4006
2026-01-21 09:40:19.50	155.23	22.07	-45.1	-46.3	21.1	0.00e+00	0	40	0	352321536	61	4209
2026-01-21 09:40:23.53	155.27	22.65	-45.0	-46.2	21.2	0.00e+00	0	40	0	360710144	61	4159
2026-01-21 09:40:27.56	155.32	23.24	-45.0	-46.2	21.2	0.00e+00	0	40	0	368050176	61	4155
2026-01-21 09:40:31.59	155.36	23.85	-45.2	-46.4	21.0	0.00e+00	0	40	0	375390208	61	4272
2026-01-21 09:40:35.62	155.40	24.47	-45.1	-46.2	21.2	0.00e+00	0	40	0	382730240	61	4184
2026-01-21 09:40:39.65	155.45	25.11	-45.1	-46.3	21.1	0.00e+00	0	40	0	390070272	61	4230
2026-01-21 09:40:43.69	155.50	25.76	-45.4	-46.6	20.9	0.00e+00	0	40	0	398458880	61	4355
2026-01-21 09:40:47.72	155.55	26.43	-45.6	-46.9	20.6	0.00e+00	0	40	0	405798912	61	4519
2026-01-21 09:40:51.75	155.60	27.12	-46.0	-47.4	20.2	0.00e+00	0	40	0	413138944	62	4506
2026-01-21 09:40:55.78	155.65	27.82	-46.5	-47.9	19.7	0.00e+00	0	40	0	420478976	63	4518
2026-01-21 09:40:59.81	155.70	28.54	-47.2	-48.8	18.7	0.00e+00	0	40	0	427819008	65	4465
2026-01-21 09:41:03.84	155.76	29.29	-47.8	-49.6	18.0	0.00e+00	0	40	0	436207616	66	4614
2026-01-21 09:41:07.87	155.82	30.05	-48.1	-50.1	17.5	0.00e+00	0	40	0	443547648	66	4874
2026-01-21 09:41:11.91	155.88	30.83	-48.4	-50.4	17.2	0.00e+00	0	40	0	450887680	67	4799
2026-01-21 09:41:15.94	155.94	31.64	-48.2	-50.1	17.5	0.00e+00	0	40	0	458227712	67	4640
2026-01-21 09:41:19.97	156.01	32.46	-48.1	-50.0	17.7	0.00e+00	0	40	0	465567744	67	4548
2026-01-21 09:41:24.01	156.07	33.31	-47.4	-49.1	18.5	0.00e+00	0	40	0	473956352	66	4369
2026-01-21 09:41:28.04	156.14	34.19	-46.2	-47.5	20.0	0.00e+00	0	40	0	481296384	64	4090
2026-01-21 09:41:32.08	156.22	35.09	-45.1	-46.3	21.3	0.00e+00	0	40	0	488636416	62	3984
2026-01-21 09:41:36.11	156.29	36.02	-45.0	-46.2	21.4	0.00e+00	0	40	0	495976448	61	4158
2026-01-21 09:41:40.15	156.37	36.97	-44.7	-45.8	21.7	0.00e+00	0	40	0	504365056	61	3997
2026-01-21 09:41:44.18	156.46	37.95	-44.3	-45.4	22.5	0.00e+00	0	40	0	511705088	59	4246
2026-01-21 09:41:48.21	156.55	38.96	-44.4	-45.4	22.4	0.00e+00	0	40	0	519045120	59	4275
2026-01-21 09:41:52.24	156.64	40.01	-44.3	-45.4	22.5	0.00e+00	0	40	0	526385152	59	4257
2026-01-21 09:41:56.27	156.74	41.08	-44.3	-45.3	22.5	0.00e+00	0	40	0	533725184	59	4242
2026-01-21 09:42:00.31	156.84	42.19	-44.4	-45.5	22.4	0.00e+00	0	40	0	542113792	59	4296
2026-01-21 09:42:04.34	156.95	43.33	-44.7	-45.8	21.8	0.00e+00	0	40	0	549453824	60	4213
2026-01-21 09:42:08.38	157.07	44.51	-45.8	-47.0	20.7	0.00e+00	0	40	0	556793856	62	4333
2026-01-21 09:42:12.41	157.20	45.72	-46.6	-48.1	19.7	0.00e+00	0	40	0	564133888	64	4345
2026-01-21 09:42:16.44	157.33	46.97	-47.4	-49.1	18.7	0.00e+00	0	40	0	571473920	65	4627
2026-01-21 09:42:20.47	157.48	48.25	-47.3	-48.9	18.9	0.00e+00	0	40	0	579862528	65	4528
2026-01-21 09:42:24.50	157.63	49.58	-47.7	-49.4	18.3	0.00e+00	0	40	0	587202560	66	4531
2026-01-21 09:42:28.54	157.80	50.95	-45.9	-47.1	20.6	0.00e+00	0	40	0	594542592	63	4145
2026-01-21 09:42:32.57	157.98	52.36	-44.3	-45.4	22.6	0.00e+00	0	40	0	601882624	59	4254
2026-01-21 09:42:36.60	158.19	53.80	-43.5	-44.4	23.4	0.00e+00	0	40	0	610271232	58	4040
2026-01-21 09:42:40.63	158.41	55.29	-44.4	-45.4	22.6	0.00e+00	0	40	0	617611264	59	4283
2026-01-21 09:42:44.66	158.65	56.83	-45.1	-46.3	21.5	0.00e+00	0	40	0	624951296	60	4452
2026-01-21 09:42:48.69	158.92	58.40	-45.9	-47.2	20.7	0.00e+00	0	40	0	632291328	62	4420
2026-01-21 09:42:52.73	159.23	60.02	-44.4	-45.5	22.2	0.00e+00	0	40	0	639631360	60	4069
2026-01-21 09:42:56.76	159.57	61.68	-43.7	-44.6	23.3	0.00e+00	0	40	0	648019968	59	3904
2026-01-21 09:43:00.79	159.96	63.38	-43.1	-44.0	23.9	0.00e+00	0	40	0	655360000	57	4061
2026-01-21 09:43:04.83	160.41	65.12	-45.4	-46.6	21.3	0.00e+00	0	40	0	662700032	61	4347
2026-01-21 09:43:08.86	160.94	66.90	-45.7	-46.9	21.0	0.00e+00	0	40	0	670040064	62	4283
2026-01-21 09:43:12.89	161.56	68.71	-46.9	-48.4	19.4	0.00e+00	0	40	0	677380096	64	4499
2026-01-21 09:43:16.92	162.30	70.56	-45.2	-46.4	21.5	0.00e+00	0	39	0	685768704	62	4020
2026-01-21 09:43:20.95	163.21	72.44	-46.5	-47.8	20.2	0.00e+00	0	40	0	693108736	63	4463
2026-01-21 09:43:24.98	164.34	74.35	-47.5	-49.0	18.9	0.00e+00	0	40	0	700448768	65	4598
2026-01-21 09:43:29.02	165.81	76.28	-46.7	-48.1	19.8	0.00e+00	0	40	0	707788800	65	4108
2026-01-21 09:43:33.05	167.77	78.23	-46.0	-47.3	20.6	0.00e+00	0	40	0	715128832	64	3973
2026-01-21 09:43:37.08	170.52	80.18	-44.6	-45.7	22.2	0.00e+00	0	40	0	723517440	61	3936
2026-01-21 09:43:41.11	174.65	82.11	-48.6	-50.6	17.4	0.00e+00	0	40	0	730857472	67	4893
2026-01-21 09:43:45.15	181.45	84.00	-46.9	-48.4	19.6	0.00e+00	0	40	0	738197504	65	4264
2026-01-21 09:43:49.18	194.09	85.73	-45.8	-47.0	21.0	0.00e+00	0	40	0	745537536	63	4075
2026-01-21 09:43:53.21	220.29	87.02	-47.0	-48.5	19.5	0.00e+00	0	39	0	753926144	64	4575
2026-01-21 09:43:57.25	261.97	87.16	-46.3	-47.6	20.3	0.00e+00	0	40	0	761266176	64	4145
2026-01-21 09:44:01.28	291.73	86.02	-45.8	-47.0	21.0	0.00e+00	0	40	0	768606208	63	4075
2026-01-21 09:44:05.30	306.11	84.34	-44.9	-46.0	21.9	0.00e+00	0	40	0	775946240	60	4327
2026-01-21 09:44:09.34	313.68	82.47	-48.8	-50.7	17.4	0.00e+00	0	40	0	783286272	68	4697
2026-01-21 09:44:13.37	318.17	80.55	-45.9	-47.1	20.9	0.00e+00	0	40	0	790626304	63	4132
2026-01-21 09:44:17.40	321.13	78.60	-46.8	-48.2	19.9	0.00e+00	0	40	0	799014912	64	4404
2026-01-21 09:44:21.44	323.21	76.65	-49.5	-51.8	16.5	0.00e+00	0	40	0	806354944	70	4710
2026-01-21 09:44:25.47	324.75	74.72	-49.5	-51.8	16.6	0.00e+00	0	40	0	813694976	69	4984
2026-01-21 09:44:29.50	325.94	72.81	-46.0	-47.3	20.8	0.00e+00	0	40	0	821035008	64	3972
2026-01-21 09:44:33.53	326.89	70.93	-44.6	-45.7	22.3	0.00e+00	0	40	0	829423616	60	4160
2026-01-21 09:44:37.56	327.66	69.08	-46.2	-47.5	20.5	0.00e+00	0	40	0	836763648	64	4071
2026-01-21 09:44:41.60	328.30	67.26	-48.3	-50.1	18.1	0.00e+00	0	40	0	844103680	68	4367
2026-01-21 09:44:45.63	328.84	65.47	-48.5	-50.4	17.7	0.00e+00	0	40	0	851443712	67	4808
2026-01-21 09:44:49.66	329.30	63.73	-44.8	-45.9	22.1	0.00e+00	0	40	0	858783744	61	4032
2026-01-21 09:44:53.70	329.71	62.02	-44.2	-45.2	23.0	0.00e+00	0	40	0	867172352	59	4182
2026-01-21 09:44:57.73	330.06	60.36	-47.7	-49.3	18.7	0.00e+00	0	40	0	874512384	65	4742
2026-01-21 09:45:01.76	330.37	58.74	-47.3	-48.8	19.3	0.00e+00	0	40	0	881852416	65	4456
2026-01-21 09:45:05.79	330.65	57.16	-47.9	-49.5	18.6	0.00e+00	0	40	0	889192448	67	4329
2026-01-21 09:45:09.83	330.90	55.62	-45.9	-47.1	20.9	0.00e+00	0	40	0	897581056	63	4132
2026-01-21 09:45:13.86	331.12	54.13	-45.7	-46.9	21.2	0.00e+00	0	40	0	904921088	61	4532
2026-01-21 09:45:17.89	331.33	52.68	-44.9	-46.0	22.0	0.00e+00	0	40	0	912261120	61	4063
2026-01-21 09:45:21.93	331.51	51.26	-47.7	-49.3	18.8	0.00e+00	0	40	0	919601152	65	4737
2026-01-21 09:45:25.96	331.69	49.89	-48.0	-49.7	18.4	0.00e+00	0	40	0	926941184	67	4400
2026-01-21 09:45:29.99	331.85	48.56	-52.1	-57.1	10.9	2.51e-05	0	40	0	935329792	74	6935
2026-01-21 09:45:34.03	331.99	47.27	-46.0	-47.2	20.6	0.00e+00	0	40	0	942669824	64	3942
2026-01-21 09:45:38.06	332.13	46.02	-46.7	-48.1	20.0	0.00e+00	0	40	0	950009856	63	4614
2026-01-21 09:45:42.09	332.26	44.80	-46.5	-48.0	19.9	0.00e+00	0	39	0	957349888	65	4067
2026-01-21 09:45:46.12	332.38	43.63	-44.9	-45.9	21.9	0.00e+00	0	40	0	964689920	61	4051
2026-01-21 09:45:50.16	332.49	42.48	-45.8	-47.1	20.9	0.00e+00	0	40	0	973078528	62	4341
2026-01-21 09:45:54.19	332.60	41.37	-46.5	-47.9	19.9	0.00e+00	0	40	0	980418560	65	4007
2026-01-21 09:45:58.22	332.70	40.29	-44.9	-46.0	21.8	0.00e+00	0	40	0	987758592	61	4086
2026-01-21 09:46:02.25	332.79	39.25	-46.7	-48.1	19.8	0.00e+00	0	40	0	995098624	63	4630
2026-01-21 09:46:06.28	332.88	38.23	-50.1	-52.9	15.1	0.00e+00	0	40	0	1002438656	70	5393
2026-01-21 09:46:10.31	332.97	37.25	-48.5	-50.4	17.5	0.00e+00	0	40	0	1010827264	69	4279
2026-01-21 09:46:14.35	333.05	36.29	-46.9	-48.4	19.4	0.00e+00	0	40	0	1018167296	65	4267
2026-01-21 09:46:18.38	333.13	35.36	-47.3	-48.8	19.0	0.00e+00	0	40	0	1025507328	65	4491
2026-01-21 09:46:22.41	333.21	34.46	-50.7	-53.9	14.1	0.00e+00	0	40	0	1032847360	71	5661
2026-01-21 09:46:26.44	333.28	33.58	-51.0	-54.6	13.2	4.65e-05	0	40	0	1040187392	73	5476
2026-01-21 09:46:30.47	333.35	32.73	-49.2	-51.4	16.5	0.00e+00	0	40	0	1048576000	70	4516
2026-01-21 09:46:34.51	333.41	31.90	-48.3	-50.1	17.8	0.00e+00	0	40	0	1055916032	68	4368
2026-01-21 09:46:38.54	333.48	31.09	-48.6	-50.6	17.3	0.00e+00	0	40	0	1063256064	68	4611
2026-01-21 09:46:42.57	333.54	30.31	-49.0	-51.2	16.7	0.00e+00	0	40	0	1070596096	68	4938
2026-01-21 09:46:46.60	333.60	29.55	-48.8	-51.0	16.9	0.00e+00	0	40	0	1078984704	68	4815
2026-01-21 09:46:50.63	333.65	28.80	-48.1	-50.0	17.8	0.00e+00	0	40	0	1086324736	68	4310
2026-01-21 09:46:54.66	333.71	28.08	-47.1	-48.6	19.1	0.00e+00	0	40	0	1093664768	66	4122
2026-01-21 09:46:58.69	333.76	27.37	-46.1	-47.5	20.2	0.00e+00	0	40	0	1101004800	64	4059
2026-01-21 09:47:02.73	333.82	26.68	-45.9	-47.2	20.5	0.00e+00	0	40	0	1108344832	63	4178
2026-01-21 09:47:06.76	333.87	26.01	-46.1	-47.4	20.3	0.00e+00	0	40	0	1116733440	63	4261
2026-01-21 09:47:10.79	333.92	25.36	-46.2	-47.5	20.2	0.00e+00	0	40	0	1124073472	63	4332
2026-01-21 09:47:14.83	333.97	24.72	-45.9	-47.2	20.4	0.00e+00	0	40	0	1131413504	63	4156
2026-01-21 09:47:18.86	334.01	24.10	-45.3	-46.5	21.1	0.00e+00	0	40	0	1138753536	62	4095
2026-01-21 09:47:22.89	334.06	23.49	-44.6	-45.7	21.9	0.00e+00	0	40	0	1147142144	61	3930
2026-01-21 09:47:26.92	334.10	22.89	-44.3	-45.4	22.0	0.00e+00	0	40	0	1154482176	60	4037
2026-01-21 09:47:30.95	334.15	22.31	-44.4	-45.5	22.0	0.00e+00	0	40	0	1161822208	60	4059
2026-01-21 09:47:34.99	334.19	21.74	-44.6	-45.7	21.8	0.00e+00	0	40	0	1169162240	60	4166
2026-01-21 09:47:39.02	334.23	21.18	-44.7	-45.9	21.6	0.00e+00	0	40	0	1176502272	60	4248
2026-01-21 09:47:43.05	334.27	20.64	-45.1	-46.3	21.2	0.00e+00	0	40	0	1183842304	60	4444
2026-01-21 09:47:47.08	334.31	20.11	-45.2	-46.4	21.0	0.00e+00	0	40	0	1192230912	61	4290
2026-01-21 09:47:51.12	334.35	19.59	-45.1	-46.3	21.1	0.00e+00	0	40	0	1199570944	61	4239
2026-01-21 09:47:55.15	334.39	19.08	-45.3	-46.6	20.8	0.00e+00	0	40	0	1206910976	61	4367
2026-01-21 09:47:59.18	334.43	18.58	-45.4	-46.6	20.8	7.00e-07	0	40	0	1214251008	61	4389
2026-01-21 09:48:03.22	334.47	18.08	-45.6	-46.9	20.5	0.00e+00	0	40	0	1222639616	61	4498
2026-01-21 09:48:07.25	334.50	17.60	-45.6	-46.9	20.5	0.00e+00	0	40	0	1229979648	61	4522
2026-01-21 09:48:11.28	334.54	17.13	-45.8	-47.1	20.3	0.00e+00	0	40	0	1237319680	62	4359
2026-01-21 09:48:15.31	334.57	16.67	-45.6	-46.9	20.5	0.00e+00	0	40	0	1244659712	62	4262
2026-01-21 09:48:19.35	334.61	16.22	-45.6	-46.9	20.5	0.00e+00	0	40	0	1251999744	62	4248
2026-01-21 09:48:23.38	334.64	15.77	-45.4	-46.7	20.6	0.00e+00	0	40	0	1260388352	62	4167
2026-01-21 09:48:27.41	334.68	15.33	-45.5	-46.7	20.6	0.00e+00	0	40	0	1267728384	62	4190
2026-01-21 09:48:31.44	334.71	14.90	-45.4	-46.6	20.6	0.00e+00	0	40	0	1275068416	62	4143
2026-01-21 09:48:35.47	334.74	14.48	-45.4	-46.7	20.6	0.00e+00	0	40	0	1282408448	62	4177
2026-01-21 09:48:39.50	334.78	14.07	-45.5	-46.7	20.5	0.00e+00	0	40	0	1289748480	62	4193
2026-01-21 09:48:43.54	334.81	13.66	-45.6	-46.9	20.3	0.00e+00	0	40	0	1298137088	62	4279
2026-01-21 09:48:47.57	334.84	13.26	-45.7	-47.0	20.2	0.00e+00	0	40	0	1305477120	62	4337
2026-01-21 09:48:51.60	334.87	12.86	-45.8	-47.2	20.0	0.00e+00	0	40	0	1312817152	62	4420
2026-01-21 09:48:55.63	334.90	12.47	-45.7	-47.1	20.1	0.00e+00	0	40	0	1320157184	62	4375
2026-01-21 09:48:59.67	334.93	12.09	-46.0	-47.4	19.8	0.00e+00	0	40	0	1327497216	62	4519
2026-01-21 09:49:03.69	334.96	11.71	-46.0	-47.4	19.7	0.00e+00	0	40	0	1335885824	62	4532
2026-01-21 09:49:07.73	334.99	11.34	-46.2	-47.6	19.5	0.00e+00	0	40	0	1343225856	62	4637
2026-01-21 09:49:11.76	335.02	10.98	-46.1	-47.6	19.5	0.00e+00	0	40	0	1350565888	63	4360
2026-01-21 09:49:15.79	335.05	10.62	-46.3	-47.8	19.3	0.00e+00	0	40	0	1357905920	63	4471
2026-01-21 09:49:19.82	335.08	10.26	-46.1	-47.6	19.4	0.00e+00	0	40	0	1366294528	63	4383
2026-01-21 09:49:23.85	335.11	9.91	-46.1	-47.6	19.5	0.00e+00	0	40	0	1373634560	63	4345
2026-01-21 09:49:27.89	335.14	9.57	-46.3	-47.8	19.2	7.00e-07	0	40	0	1380974592	63	4491
2026-01-21 09:49:31.92	335.17	9.23	-46.4	-48.0	19.0	0.00e+00	0	40	0	1388314624	63	4570
2026-01-21 09:49:35.95	335.20	8.89	-46.3	-47.9	19.1	0.00e+00	0	40	0	1395654656	63	4514
2026-01-21 09:49:39.98	335.22	8.56	-46.2	-47.7	19.2	3.00e-06	0	39	0	1404043264	63	4424
2026-01-21 09:49:44.01	335.25	8.23	-46.1	-47.6	19.2	6.80e-06	0	40	0	1411383296	63	4391
2026-01-21 09:49:48.05	335.28	7.91	-46.2	-47.8	19.1	0.00e+00	0	40	0	1418723328	63	4454
2026-01-21 09:49:52.08	335.31	7.59	-46.0	-47.4	19.4	0.00e+00	0	40	0	1426063360	63	4285
2026-01-21 09:49:56.11	335.33	7.28	-46.2	-47.8	19.0	9.90e-06	0	40	0	1433403392	63	4460
2026-01-21 09:50:00.14	335.36	6.97	-46.2	-47.7	19.0	0.00e+00	0	40	0	1441792000	63	4441
2026-01-21 09:50:04.18	335.39	6.66	-46.5	-48.1	18.6	0.00e+00	0	40	0	1449132032	63	4651
2026-01-21 09:50:08.21	335.41	6.36	-46.3	-47.9	18.8	0.00e+00	0	40	0	1456472064	63	4539
2026-01-21 09:50:12.24	335.44	6.06	-46.2	-47.8	18.9	0.00e+00	0	40	0	1463812096	63	4489
2026-01-21 09:50:16.27	335.47	5.76	-46.7	-48.4	18.2	0.00e+00	0	40	0	1471152128	63	4805
2026-01-21 09:50:20.31	335.49	5.47	-46.5	-48.3	18.2	0.00e+00	0	40	0	1479540736	64	4450
2026-01-21 09:50:24.34	335.52	5.18	-46.6	-48.4	18.0	0.00e+00	0	40	0	1486880768	64	4528
2026-01-21 09:50:28.37	335.54	4.89	-53.1	-68.1	3.8	1.49e+00	0	40	104	1491075072	76	21966
2026-01-21 09:50:32.41	335.57	4.61	-53.6	-68.7	3.8	1.49e+00	0	40	104	1491075072	77	22014
2026-01-21 09:50:36.44	335.59	4.33	-53.7	-68.7	3.8	1.49e+00	0	40	104	1491075072	77	22038
2026-01-21 09:50:40.47	335.62	4.05	-53.4	-68.4	3.8	1.49e+00	0	40	104	1491075072	77	21455
2026-01-21 09:50:44.51	335.64	3.77	-53.5	-68.5	3.8	1.49e+00	0	40	104	1491075072	77	21745
2026-01-21 09:50:48.54	335.67	3.50	-53.6	-68.6	3.8	1.49e+00	0	40	104	1491075072	77	21780
2026-01-21 09:50:52.56	335.69	3.23	-53.5	-68.5	3.8	1.49e+00	0	40	104	1491075072	77	21605
2026-01-21 09:50:56.60	335.72	2.96	-53.5	-68.5	3.8	1.49e+00	0	40	104	1491075072	77	21589
2026-01-21 09:51:00.63	335.74	2.70	-53.5	-68.5	3.8	1.49e+00	0	40	104	1491075072	77	21548
2026-01-21 09:51:04.67	335.77	2.44	-53.5	-68.5	3.8	1.49e+00	0	40	104	1491075072	77	21533
2026-01-21 09:51:08.70	335.79	2.18	-53.5	-68.5	3.8	1.49e+00	0	40	104	1491075072	77	21526
2026-01-21 09:51:12.73	335.82	1.92	-53.4	-68.4	3.8	1.49e+00	0	40	104	1491075072	77	21480

#Closed at: 2026-01-21 09:51:14
#Recorded file [1491 MB]: D:/lorett/data/31041_260121_123641.dat