passes_logs/2026/01/21/R3.2S_Murmansk/R3.2S_Murmansk__20260121_005904_SUOMI_NPP_rec.log

#Pass ID: 20260121_005904_SUOMI NPP
#Satellite: SUOMI NPP
#Configuration: NPP
#almurnet v.1.7.20251203
#Start time: 2026-01-21 00:59:04

#Version: 2.2.20231116
#Station: R3.2S_Murmansk
#Location: 33.079688 lon 68.888172 lat
#TLE: 1 37849U 11061A   26020.31993517  .00000142  00000+0  88240-4 0  9990
#TLE: 2 37849  98.7818 322.3228 0002330  54.3778 305.7615 14.19527005737466

#Time	Az	El	Level	Level2	SNR	BER	BlckErr	Temp	State	Recorded	gain1	gain2
2026-01-21 00:59:04.83	25.42	2.01	-52.8	-67.8	3.8	1.49e+00	0	38	0	0	77	19893
2026-01-21 00:59:08.87	25.41	2.27	-52.3	-67.3	3.8	1.49e+00	0	38	104	0	75	21093
2026-01-21 00:59:12.90	25.40	2.53	-52.3	-67.3	3.8	1.49e+00	0	38	104	0	75	21072
2026-01-21 00:59:16.93	25.39	2.79	-52.3	-67.3	3.8	1.49e+00	0	38	104	0	75	21076
2026-01-21 00:59:20.96	25.38	3.06	-52.3	-67.3	3.8	1.49e+00	0	38	104	0	75	21050
2026-01-21 00:59:24.99	25.37	3.33	-52.3	-67.2	3.8	1.49e+00	0	38	104	0	75	20968
2026-01-21 00:59:29.03	25.36	3.60	-52.2	-65.6	3.8	1.49e+00	0	39	104	0	75	17365
2026-01-21 00:59:33.07	25.35	3.87	-51.6	-59.4	6.6	3.00e-01	0	39	0	4194304	75	8535
2026-01-21 00:59:37.10	25.34	4.15	-50.2	-54.7	11.3	1.56e-03	0	38	0	11534336	72	5883
2026-01-21 00:59:41.13	25.33	4.43	-49.4	-52.8	13.4	1.44e-05	0	39	0	18874368	70	5289
2026-01-21 00:59:45.17	25.31	4.71	-49.6	-53.2	13.0	2.13e-05	0	39	0	26214400	70	5540
2026-01-21 00:59:49.21	25.30	5.00	-50.6	-55.6	10.5	3.93e-03	0	39	0	34603008	71	6925
2026-01-21 00:59:53.24	25.29	5.29	-51.6	-59.4	6.4	3.07e-01	0	39	0	41943040	74	9022
2026-01-21 00:59:57.27	25.27	5.58	-49.4	-52.7	13.7	3.00e-06	0	39	0	46137344	70	5230
2026-01-21 01:00:01.31	25.26	5.87	-48.8	-51.6	14.8	7.00e-07	0	39	0	53477376	69	4925
2026-01-21 01:00:05.34	25.24	6.17	-48.9	-51.7	14.8	0.00e+00	0	39	0	60817408	69	4941
2026-01-21 01:00:09.37	25.22	6.47	-48.8	-51.6	14.9	0.00e+00	0	39	0	69206016	69	4902
2026-01-21 01:00:13.41	25.21	6.78	-48.6	-51.2	15.3	0.00e+00	0	39	0	76546048	68	4977
2026-01-21 01:00:17.44	25.19	7.09	-48.6	-51.1	15.5	0.00e+00	0	39	0	83886080	68	4908
2026-01-21 01:00:21.47	25.17	7.40	-48.6	-51.1	15.6	0.00e+00	0	39	0	91226112	68	4885
2026-01-21 01:00:25.51	25.15	7.72	-48.4	-50.9	15.8	0.00e+00	0	39	0	98566144	68	4762
2026-01-21 01:00:29.54	25.13	8.04	-48.2	-50.5	16.2	0.00e+00	0	39	0	106954752	68	4595
2026-01-21 01:00:33.57	25.11	8.36	-48.1	-50.4	16.4	0.00e+00	0	39	0	114294784	68	4508
2026-01-21 01:00:37.60	25.08	8.69	-48.1	-50.4	16.4	0.00e+00	0	39	0	121634816	68	4502
2026-01-21 01:00:41.64	25.06	9.03	-48.0	-50.1	16.6	0.00e+00	0	39	0	128974848	67	4643
2026-01-21 01:00:45.67	25.04	9.36	-47.9	-50.0	16.7	0.00e+00	0	40	0	136314880	67	4568
2026-01-21 01:00:49.70	25.01	9.71	-47.9	-50.0	16.8	0.00e+00	0	39	0	144703488	67	4548
2026-01-21 01:00:53.73	24.98	10.05	-47.6	-49.5	17.3	0.00e+00	0	39	0	152043520	67	4324
2026-01-21 01:00:57.76	24.96	10.40	-47.7	-49.7	17.1	0.00e+00	0	39	0	159383552	67	4422
2026-01-21 01:01:01.79	24.93	10.76	-47.4	-49.2	17.6	0.00e+00	0	39	0	166723584	66	4435
2026-01-21 01:01:05.82	24.90	11.12	-47.4	-49.2	17.6	0.00e+00	0	40	0	174063616	66	4441
2026-01-21 01:01:09.86	24.87	11.49	-46.9	-48.6	18.3	0.00e+00	0	39	0	182452224	65	4342
2026-01-21 01:01:13.89	24.84	11.87	-46.8	-48.4	18.4	0.00e+00	0	39	0	189792256	65	4285
2026-01-21 01:01:17.93	24.80	12.25	-46.8	-48.4	18.5	0.00e+00	0	40	0	197132288	65	4263
2026-01-21 01:01:21.96	24.77	12.63	-46.7	-48.4	18.5	0.00e+00	0	39	0	204472320	65	4252
2026-01-21 01:01:25.99	24.73	13.02	-46.7	-48.4	18.6	0.00e+00	0	39	0	212860928	65	4245
2026-01-21 01:01:30.03	24.70	13.42	-46.4	-47.9	19.0	0.00e+00	0	39	0	220200960	64	4281
2026-01-21 01:01:34.06	24.66	13.82	-46.3	-47.8	19.1	0.00e+00	0	39	0	227540992	64	4227
2026-01-21 01:01:38.09	24.62	14.24	-46.3	-47.8	19.1	0.00e+00	0	39	0	234881024	64	4231
2026-01-21 01:01:42.12	24.57	14.65	-46.0	-47.4	19.6	0.00e+00	0	39	0	242221056	63	4287
2026-01-21 01:01:46.16	24.53	15.08	-45.7	-47.1	19.9	0.00e+00	0	39	0	250609664	63	4109
2026-01-21 01:01:50.19	24.49	15.51	-45.6	-46.9	20.1	0.00e+00	0	39	0	257949696	63	4035
2026-01-21 01:01:54.23	24.44	15.96	-45.5	-46.8	20.2	0.00e+00	0	40	0	265289728	62	4230
2026-01-21 01:01:58.26	24.39	16.40	-45.9	-47.2	19.8	0.00e+00	0	39	0	272629760	62	4428
2026-01-21 01:02:02.29	24.34	16.86	-45.6	-46.9	20.1	0.00e+00	0	39	0	279969792	62	4281
2026-01-21 01:02:06.33	24.28	17.33	-45.5	-46.8	20.2	0.00e+00	0	40	0	288358400	62	4239
2026-01-21 01:02:10.36	24.23	17.80	-45.7	-47.1	20.0	0.00e+00	0	40	0	295698432	62	4351
2026-01-21 01:02:14.39	24.17	18.29	-45.4	-46.6	20.5	0.00e+00	0	39	0	303038464	62	4140
2026-01-21 01:02:18.42	24.11	18.78	-45.3	-46.6	20.5	0.00e+00	0	39	0	310378496	62	4131
2026-01-21 01:02:22.45	24.05	19.29	-45.3	-46.6	20.5	0.00e+00	0	39	0	318767104	62	4129
2026-01-21 01:02:26.48	23.98	19.80	-45.5	-46.8	20.3	0.00e+00	0	40	0	326107136	62	4224
2026-01-21 01:02:30.51	23.91	20.33	-45.8	-47.2	20.0	0.00e+00	0	39	0	333447168	62	4414
2026-01-21 01:02:34.54	23.84	20.86	-45.6	-46.9	20.2	0.00e+00	0	39	0	340787200	62	4280
2026-01-21 01:02:38.57	23.77	21.41	-45.9	-47.2	20.0	0.00e+00	0	40	0	348127232	62	4430
2026-01-21 01:02:42.60	23.69	21.97	-45.9	-47.2	20.0	0.00e+00	0	39	0	355467264	62	4424
2026-01-21 01:02:46.63	23.61	22.54	-46.2	-47.6	19.7	0.00e+00	0	39	0	363855872	62	4619
2026-01-21 01:02:50.66	23.52	23.13	-45.5	-46.8	20.5	0.00e+00	0	39	0	371195904	63	3959
2026-01-21 01:02:54.69	23.43	23.73	-45.4	-46.6	20.5	0.00e+00	0	40	0	378535936	62	4145
2026-01-21 01:02:58.73	23.34	24.35	-45.5	-46.7	20.5	0.00e+00	0	39	0	385875968	62	4190
2026-01-21 01:03:02.76	23.24	24.97	-45.4	-46.6	20.7	0.00e+00	0	39	0	394264576	62	4135
2026-01-21 01:03:06.79	23.14	25.62	-45.5	-46.8	20.6	0.00e+00	0	40	0	401604608	62	4200
2026-01-21 01:03:10.82	23.03	26.28	-44.5	-45.5	21.6	0.00e+00	0	40	0	408944640	60	4096
2026-01-21 01:03:14.85	22.92	26.95	-45.6	-46.8	20.5	0.00e+00	0	40	0	416284672	61	4480
2026-01-21 01:03:18.89	22.80	27.65	-45.9	-47.2	20.1	0.00e+00	0	39	0	423624704	62	4433
2026-01-21 01:03:22.92	22.68	28.36	-45.8	-47.2	20.2	0.00e+00	0	40	0	432013312	62	4392
2026-01-21 01:03:26.95	22.54	29.09	-46.5	-48.0	19.4	0.00e+00	0	40	0	439353344	63	4571
2026-01-21 01:03:30.98	22.41	29.84	-47.7	-49.4	18.1	0.00e+00	0	40	0	446693376	66	4539
2026-01-21 01:03:35.01	22.26	30.60	-47.1	-48.7	18.7	0.00e+00	0	40	0	454033408	65	4431
2026-01-21 01:03:39.04	22.11	31.39	-47.5	-49.1	18.4	0.00e+00	0	40	0	462422016	66	4385
2026-01-21 01:03:43.07	21.95	32.20	-48.6	-50.7	16.9	0.00e+00	0	40	0	469762048	68	4691
2026-01-21 01:03:47.10	21.78	33.04	-48.0	-49.9	17.8	0.00e+00	0	40	0	477102080	67	4517
2026-01-21 01:03:51.13	21.60	33.89	-47.6	-49.3	18.3	0.00e+00	0	40	0	484442112	67	4225
2026-01-21 01:03:55.17	21.40	34.78	-46.5	-47.9	19.6	0.00e+00	0	40	0	491782144	64	4261
2026-01-21 01:03:59.20	21.20	35.68	-45.1	-46.2	21.2	0.00e+00	0	40	0	499122176	62	3956
2026-01-21 01:04:03.23	20.98	36.61	-44.9	-46.1	21.3	0.00e+00	0	39	0	507510784	61	4106
2026-01-21 01:04:07.26	20.75	37.57	-44.1	-45.1	22.1	0.00e+00	0	40	0	514850816	60	3907
2026-01-21 01:04:11.29	20.51	38.56	-44.5	-45.6	21.7	0.00e+00	0	40	0	522190848	61	3894
2026-01-21 01:04:15.32	20.25	39.57	-45.0	-46.2	21.2	0.00e+00	0	40	0	529530880	61	4155
2026-01-21 01:04:19.36	19.97	40.62	-45.8	-47.0	20.6	0.00e+00	0	40	0	537919488	62	4317
2026-01-21 01:04:23.39	19.67	41.70	-46.5	-47.9	19.6	0.00e+00	0	40	0	545259520	64	4272
2026-01-21 01:04:27.43	19.35	42.81	-47.2	-48.7	18.9	0.00e+00	0	39	0	552599552	65	4434
2026-01-21 01:04:31.46	19.00	43.95	-48.6	-50.7	17.1	0.00e+00	0	40	0	559939584	67	4949
2026-01-21 01:04:35.49	18.63	45.12	-46.2	-47.4	20.1	0.00e+00	0	40	0	567279616	64	4047
2026-01-21 01:04:39.52	18.22	46.33	-46.7	-48.1	19.6	0.00e+00	0	40	0	575668224	64	4377
2026-01-21 01:04:43.55	17.78	47.57	-47.2	-48.8	18.9	0.00e+00	0	40	0	583008256	66	4217
2026-01-21 01:04:47.59	17.31	48.85	-47.9	-49.6	17.9	0.00e+00	0	39	0	590348288	67	4372
2026-01-21 01:04:51.62	16.79	50.16	-46.6	-48.1	19.5	0.00e+00	0	40	0	597688320	65	4113
2026-01-21 01:04:55.65	16.22	51.51	-45.0	-46.2	21.3	0.00e+00	0	40	0	605028352	61	4159
2026-01-21 01:04:59.68	15.59	52.90	-44.9	-46.0	21.6	0.00e+00	0	40	0	613416960	60	4301
2026-01-21 01:05:03.71	14.91	54.32	-45.3	-46.5	21.2	0.00e+00	0	40	0	620756992	61	4309
2026-01-21 01:05:07.74	14.14	55.77	-45.4	-46.6	21.0	0.00e+00	0	40	0	628097024	62	4135
2026-01-21 01:05:11.78	13.29	57.27	-45.9	-47.2	20.5	0.00e+00	0	40	0	635437056	63	4148
2026-01-21 01:05:15.81	12.34	58.79	-47.2	-48.9	18.9	0.00e+00	0	40	0	642777088	65	4526
2026-01-21 01:05:19.84	11.27	60.34	-44.4	-45.5	21.8	0.00e+00	0	39	0	651165696	60	4061
2026-01-21 01:05:23.87	10.06	61.92	-45.4	-46.6	21.0	0.00e+00	0	40	0	658505728	61	4383
2026-01-21 01:05:27.90	8.67	63.53	-44.1	-45.1	22.6	0.00e+00	0	40	0	665845760	59	4128
2026-01-21 01:05:31.93	7.08	65.16	-44.4	-45.4	22.0	0.00e+00	0	40	0	673185792	60	4044
2026-01-21 01:05:35.96	5.24	66.80	-46.3	-47.6	20.1	0.00e+00	0	39	0	681574400	64	4105
2026-01-21 01:05:39.99	3.08	68.45	-46.1	-47.4	20.4	0.00e+00	0	40	0	688914432	63	4271
2026-01-21 01:05:44.03	0.53	70.10	-46.2	-47.5	20.3	0.00e+00	0	39	0	696254464	63	4325
2026-01-21 01:05:48.06	357.48	71.73	-44.5	-45.5	22.0	0.00e+00	0	40	0	703594496	60	4094
2026-01-21 01:05:52.09	353.81	73.32	-44.5	-45.6	21.9	0.00e+00	0	40	0	710934528	60	4114
2026-01-21 01:05:56.12	349.33	74.86	-47.2	-48.7	19.2	0.00e+00	0	40	0	718274560	65	4398
2026-01-21 01:06:00.15	343.82	76.30	-48.2	-50.0	17.9	0.00e+00	0	40	0	726663168	68	4317
2026-01-21 01:06:04.18	337.05	77.61	-46.9	-48.3	19.4	0.00e+00	0	40	0	734003200	65	4218
2026-01-21 01:06:08.22	328.75	78.71	-47.8	-49.5	18.4	0.00e+00	0	40	0	741343232	66	4558
2026-01-21 01:06:12.25	318.88	79.54	-49.5	-51.8	16.2	0.00e+00	0	40	0	748683264	69	5001
2026-01-21 01:06:16.28	307.67	80.02	-50.8	-54.0	14.1	1.06e-05	0	40	0	757071872	73	5137
2026-01-21 01:06:20.31	295.81	80.10	-50.9	-54.1	13.9	5.30e-06	0	40	0	764411904	72	5527
2026-01-21 01:06:24.34	284.25	79.76	-49.4	-51.6	16.4	0.00e+00	0	40	0	771751936	69	4917
2026-01-21 01:06:28.38	273.82	79.05	-48.1	-49.8	18.2	0.00e+00	0	40	0	779091968	68	4226
2026-01-21 01:06:32.41	264.96	78.03	-47.6	-49.2	18.7	0.00e+00	0	40	0	786432000	65	4684
2026-01-21 01:06:36.44	257.65	76.80	-50.9	-54.1	14.2	0.00e+00	0	40	0	794820608	72	5493
2026-01-21 01:06:40.48	251.70	75.39	-47.5	-49.0	19.0	0.00e+00	0	40	0	802160640	66	4305
2026-01-21 01:06:44.51	246.87	73.89	-46.3	-47.6	20.3	0.00e+00	0	40	0	809500672	63	4344
2026-01-21 01:06:48.54	242.92	72.31	-44.7	-45.7	22.0	0.00e+00	0	40	0	816840704	60	4182
2026-01-21 01:06:52.58	239.66	70.68	-44.3	-45.3	22.5	0.00e+00	0	40	0	825229312	59	4222
2026-01-21 01:06:56.61	236.94	69.04	-45.6	-46.8	21.0	0.00e+00	0	40	0	832569344	62	4228
2026-01-21 01:07:00.65	234.65	67.38	-45.9	-47.1	20.7	0.00e+00	0	40	0	839909376	63	4107
2026-01-21 01:07:04.68	232.70	65.74	-46.3	-47.6	20.2	0.00e+00	0	40	0	847249408	63	4381
2026-01-21 01:07:08.72	231.02	64.10	-45.9	-47.1	20.7	0.00e+00	0	40	0	854589440	63	4139
2026-01-21 01:07:12.75	229.56	62.48	-48.7	-50.8	17.2	0.00e+00	0	40	0	862978048	67	4998
2026-01-21 01:07:16.78	228.29	60.88	-45.1	-46.2	21.4	0.00e+00	0	40	0	870318080	61	4178
2026-01-21 01:07:20.82	227.17	59.31	-44.5	-45.5	22.0	0.00e+00	0	40	0	877658112	60	4088
2026-01-21 01:07:24.85	226.18	57.78	-44.8	-45.9	21.7	0.00e+00	0	40	0	884998144	61	4031
2026-01-21 01:07:28.89	225.29	56.27	-46.9	-48.4	19.5	0.00e+00	0	39	0	892338176	64	4524
2026-01-21 01:07:32.92	224.50	54.80	-45.8	-47.0	20.6	0.00e+00	0	40	0	900726784	63	4058
2026-01-21 01:07:36.95	223.78	53.36	-44.7	-45.7	21.8	0.00e+00	0	40	0	908066816	61	3955
2026-01-21 01:07:40.99	223.14	51.96	-44.7	-45.8	21.6	0.00e+00	0	40	0	915406848	60	4219
2026-01-21 01:07:45.02	222.55	50.59	-46.4	-47.7	20.1	0.00e+00	0	40	0	922746880	63	4438
2026-01-21 01:07:49.05	222.01	49.27	-47.5	-49.2	18.6	0.00e+00	0	40	0	931135488	65	4654
2026-01-21 01:07:53.09	221.52	47.97	-49.3	-51.6	16.3	0.00e+00	0	40	0	938475520	69	4895
2026-01-21 01:07:57.12	221.07	46.71	-47.9	-49.6	18.1	0.00e+00	0	40	0	945815552	66	4649
2026-01-21 01:08:01.15	220.65	45.49	-46.1	-47.4	20.2	0.00e+00	0	40	0	953155584	64	4010
2026-01-21 01:08:05.18	220.27	44.30	-47.3	-48.8	18.9	0.00e+00	0	40	0	960495616	66	4200
2026-01-21 01:08:09.21	219.91	43.15	-48.2	-50.1	17.6	0.00e+00	0	40	0	967835648	67	4622
2026-01-21 01:08:13.25	219.58	42.03	-48.7	-50.7	17.1	0.00e+00	0	40	0	976224256	69	4411
2026-01-21 01:08:17.29	219.27	40.93	-48.2	-50.0	17.7	0.00e+00	0	40	0	983564288	66	4855
2026-01-21 01:08:21.32	218.98	39.88	-48.6	-50.7	17.1	0.00e+00	0	40	0	990904320	67	4933
2026-01-21 01:08:25.35	218.71	38.85	-46.7	-48.2	19.3	0.00e+00	0	40	0	998244352	65	4158
2026-01-21 01:08:29.38	218.46	37.85	-46.0	-47.3	20.3	0.00e+00	0	40	0	1006632960	63	4239
2026-01-21 01:08:33.42	218.23	36.88	-47.6	-49.3	18.3	0.00e+00	0	40	0	1013972992	67	4225
2026-01-21 01:08:37.45	218.00	35.93	-48.7	-50.7	17.0	0.00e+00	0	40	0	1021313024	68	4700
2026-01-21 01:08:41.48	217.80	35.02	-48.2	-50.1	17.6	0.00e+00	0	40	0	1028653056	68	4355
2026-01-21 01:08:45.51	217.60	34.13	-46.7	-48.2	19.3	0.00e+00	0	40	0	1035993088	65	4159
2026-01-21 01:08:49.54	217.41	33.26	-47.1	-48.6	18.9	0.00e+00	0	40	0	1044381696	65	4388
2026-01-21 01:08:53.58	217.24	32.41	-47.5	-49.2	18.3	0.00e+00	0	40	0	1051721728	65	4667
2026-01-21 01:08:57.60	217.07	31.60	-47.8	-49.5	18.1	0.00e+00	0	40	0	1059061760	66	4590
2026-01-21 01:09:01.64	216.91	30.80	-47.6	-49.3	18.2	0.00e+00	0	40	0	1066401792	66	4488
2026-01-21 01:09:05.67	216.77	30.02	-47.6	-49.4	18.1	0.00e+00	0	40	0	1074790400	66	4515
2026-01-21 01:09:09.70	216.62	29.26	-47.3	-49.0	18.5	0.00e+00	0	40	0	1082130432	66	4310
2026-01-21 01:09:13.73	216.49	28.52	-46.0	-47.3	20.0	0.00e+00	0	40	0	1089470464	63	4216
2026-01-21 01:09:17.76	216.36	27.81	-46.1	-47.5	19.9	0.00e+00	0	40	0	1096810496	63	4319
2026-01-21 01:09:21.79	216.24	27.11	-46.2	-47.6	19.8	0.00e+00	0	40	0	1104150528	63	4365
2026-01-21 01:09:25.82	216.12	26.42	-45.7	-47.0	20.4	0.00e+00	0	40	0	1111490560	63	4056
2026-01-21 01:09:29.86	216.01	25.75	-45.5	-46.8	20.5	0.00e+00	0	39	0	1119879168	62	4209
2026-01-21 01:09:33.89	215.91	25.10	-45.5	-46.8	20.5	0.00e+00	0	40	0	1127219200	62	4211
2026-01-21 01:09:37.92	215.81	24.47	-45.9	-47.3	20.1	0.00e+00	0	40	0	1134559232	62	4453
2026-01-21 01:09:41.96	215.71	23.85	-46.6	-48.1	19.2	0.00e+00	0	40	0	1141899264	64	4344
2026-01-21 01:09:45.99	215.62	23.24	-47.2	-48.8	18.4	0.00e+00	0	40	0	1150287872	64	4759
2026-01-21 01:09:50.02	215.53	22.65	-46.8	-48.3	19.0	0.00e+00	0	40	0	1157627904	65	4225
2026-01-21 01:09:54.05	215.45	22.07	-45.7	-47.0	20.2	0.00e+00	0	40	0	1164967936	63	4069
2026-01-21 01:09:58.09	215.36	21.51	-45.1	-46.3	20.8	0.00e+00	0	40	0	1172307968	62	3973
2026-01-21 01:10:02.12	215.29	20.95	-45.6	-46.9	20.3	0.00e+00	0	40	0	1179648000	62	4270
2026-01-21 01:10:06.15	215.21	20.41	-45.6	-46.8	20.4	0.00e+00	0	40	0	1188036608	62	4229
2026-01-21 01:10:10.19	215.14	19.88	-45.4	-46.6	20.5	0.00e+00	0	40	0	1195376640	62	4145
2026-01-21 01:10:14.22	215.07	19.36	-44.9	-46.0	21.0	0.00e+00	0	40	0	1202716672	61	4095
2026-01-21 01:10:18.25	215.01	18.85	-45.2	-46.5	20.6	0.00e+00	0	40	0	1210056704	61	4294
2026-01-21 01:10:22.29	214.94	18.35	-46.2	-47.6	19.6	0.00e+00	0	39	0	1217396736	62	4624
2026-01-21 01:10:26.32	214.88	17.86	-46.9	-48.5	18.6	0.00e+00	0	40	0	1225785344	64	4588
2026-01-21 01:10:30.36	214.83	17.38	-47.8	-49.8	17.5	0.00e+00	0	40	0	1233125376	66	4709
2026-01-21 01:10:34.39	214.77	16.91	-47.9	-49.8	17.4	0.00e+00	0	39	0	1240465408	67	4469
2026-01-21 01:10:38.43	214.72	16.45	-47.9	-49.8	17.4	0.00e+00	0	40	0	1247805440	67	4475
2026-01-21 01:10:42.47	214.66	16.00	-47.6	-49.5	17.7	0.00e+00	0	40	0	1256194048	67	4306
2026-01-21 01:10:46.50	214.61	15.55	-48.1	-50.2	17.0	0.00e+00	0	40	0	1263534080	67	4667
2026-01-21 01:10:50.53	214.57	15.12	-48.3	-50.4	16.8	0.00e+00	0	40	0	1270874112	67	4788
2026-01-21 01:10:54.56	214.52	14.69	-48.2	-50.3	16.9	0.00e+00	0	40	0	1278214144	67	4739
2026-01-21 01:10:58.60	214.47	14.27	-48.2	-50.3	16.8	0.00e+00	0	40	0	1285554176	67	4740
2026-01-21 01:11:02.63	214.43	13.85	-47.7	-49.7	17.4	0.00e+00	0	40	0	1293942784	67	4408
2026-01-21 01:11:06.67	214.39	13.45	-47.5	-49.4	17.7	0.00e+00	0	40	0	1301282816	66	4534
2026-01-21 01:11:10.70	214.35	13.05	-47.1	-48.8	18.2	0.00e+00	0	40	0	1308622848	66	4216
2026-01-21 01:11:14.73	214.31	12.65	-47.1	-48.9	18.1	0.00e+00	0	40	0	1315962880	65	4513
2026-01-21 01:11:18.77	214.27	12.26	-46.9	-48.6	18.4	0.00e+00	0	40	0	1324351488	65	4346
2026-01-21 01:11:22.80	214.24	11.88	-46.9	-48.6	18.4	0.00e+00	0	40	0	1331691520	65	4372
2026-01-21 01:11:26.83	214.20	11.51	-47.1	-48.9	18.0	0.00e+00	0	40	0	1339031552	65	4523
2026-01-21 01:11:30.87	214.17	11.13	-47.2	-49.0	17.9	0.00e+00	0	40	0	1346371584	65	4555
2026-01-21 01:11:34.90	214.14	10.77	-47.3	-49.1	17.8	0.00e+00	0	40	0	1353711616	65	4643
2026-01-21 01:11:38.93	214.11	10.41	-47.1	-48.9	18.0	0.00e+00	0	40	0	1362100224	65	4524
2026-01-21 01:11:42.97	214.08	10.06	-47.3	-49.2	17.6	0.00e+00	0	40	0	1369440256	65	4681
2026-01-21 01:11:47.00	214.05	9.71	-47.0	-48.8	18.0	0.00e+00	0	40	0	1376780288	65	4447
2026-01-21 01:11:51.03	214.02	9.36	-47.1	-48.9	17.9	0.00e+00	0	40	0	1384120320	65	4520
2026-01-21 01:11:55.07	213.99	9.02	-47.1	-48.9	17.9	0.00e+00	0	39	0	1391460352	65	4532
2026-01-21 01:11:59.10	213.97	8.69	-47.1	-48.9	17.8	0.00e+00	0	40	0	1399848960	65	4529
2026-01-21 01:12:03.13	213.94	8.36	-47.2	-49.0	17.7	0.00e+00	0	40	0	1407188992	65	4578
2026-01-21 01:12:07.17	213.92	8.03	-47.2	-49.1	17.5	0.00e+00	0	40	0	1414529024	65	4634
2026-01-21 01:12:11.20	213.89	7.71	-47.3	-49.3	17.4	0.00e+00	0	40	0	1421869056	65	4724
2026-01-21 01:12:15.23	213.87	7.39	-47.1	-49.0	17.5	0.00e+00	0	40	0	1429209088	65	4575
2026-01-21 01:12:19.26	213.85	7.07	-47.4	-49.4	17.1	0.00e+00	0	40	0	1437597696	65	4788
2026-01-21 01:12:23.29	213.83	6.76	-47.6	-49.7	16.8	0.00e+00	0	40	0	1444937728	65	4967
2026-01-21 01:12:27.32	213.81	6.46	-47.6	-49.7	16.8	0.00e+00	0	40	0	1452277760	65	4963
2026-01-21 01:12:31.35	213.79	6.15	-47.5	-49.5	16.9	0.00e+00	0	40	0	1459617792	66	4567
2026-01-21 01:12:35.39	213.77	5.85	-47.8	-50.0	16.4	0.00e+00	0	40	0	1466957824	66	4869
2026-01-21 01:12:39.42	213.75	5.56	-48.0	-50.4	16.0	0.00e+00	0	40	0	1475346432	66	5047
2026-01-21 01:12:43.45	213.73	5.26	-48.1	-50.5	15.9	0.00e+00	0	40	0	1482686464	66	5118
2026-01-21 01:12:47.48	213.71	4.97	-50.7	-55.4	11.6	0.00e+00	0	40	0	1490026496	71	6768
2026-01-21 01:12:51.51	213.70	4.69	-53.6	-68.6	3.8	1.49e+00	0	40	104	1490026496	77	21950
2026-01-21 01:12:55.54	213.68	4.40	-53.9	-68.9	3.8	1.49e+00	0	40	104	1490026496	78	21455
2026-01-21 01:12:59.58	213.67	4.12	-54.0	-69.0	3.8	1.49e+00	0	40	104	1490026496	78	21585
2026-01-21 01:13:03.61	213.65	3.84	-54.0	-69.0	3.8	1.49e+00	0	40	104	1490026496	78	21743
2026-01-21 01:13:07.64	213.64	3.57	-54.0	-69.0	3.8	1.49e+00	0	40	104	1490026496	78	21508
2026-01-21 01:13:11.68	213.62	3.30	-53.6	-68.6	3.8	1.49e+00	0	40	104	1490026496	78	20583
2026-01-21 01:13:15.72	213.61	3.03	-53.6	-68.5	3.8	1.49e+00	0	40	104	1490026496	78	20506
2026-01-21 01:13:19.75	213.60	2.76	-53.6	-68.5	3.8	1.49e+00	0	40	104	1490026496	78	20515
2026-01-21 01:13:23.78	213.58	2.50	-53.5	-68.5	3.8	1.49e+00	0	40	104	1490026496	78	20398
2026-01-21 01:13:27.82	213.57	2.23	-53.5	-68.5	3.8	1.49e+00	0	40	104	1490026496	78	20420

#Closed at: 2026-01-21 01:13:31
#Recorded file [1490 MB]: D:/lorett/data/31041_260121_035904.dat