passes_logs/2026/01/21/R3.2S_Murmansk/R3.2S_Murmansk__20260121_011941_NOAA_20_JPSS-1_rec.log

#Pass ID: 20260121_011941_NOAA 20 (JPSS-1)
#Satellite: NOAA 20 (JPSS-1)
#Configuration: NOAA 20
#almurnet v.1.7.20251203
#Start time: 2026-01-21 01:19:43

#Version: 2.2.20231116
#Station: R3.2S_Murmansk
#Location: 33.079688 lon 68.888172 lat
#TLE: 1 43013U 17073A   26020.26397077  .00000127  00000+0  80954-4 0  9999
#TLE: 2 43013  98.7643 321.1479 0001288  31.3158 328.8095 14.19537595423482

#Time	Az	El	Level	Level2	SNR	BER	BlckErr	Temp	State	Recorded	gain1	gain2
2026-01-21 01:19:43.59	27.19	2.11	-54.2	-69.2	3.8	1.49e+00	0	38	0	0	79	20941
2026-01-21 01:19:47.62	27.14	2.37	-54.4	-69.4	3.8	1.49e+00	0	38	104	0	79	21286
2026-01-21 01:19:51.66	27.09	2.63	-54.4	-69.4	3.8	1.49e+00	0	38	104	0	79	21292
2026-01-21 01:19:55.69	27.03	2.89	-54.3	-69.3	3.8	1.49e+00	0	38	104	0	79	21184
2026-01-21 01:19:59.72	26.98	3.16	-54.2	-69.2	3.8	1.49e+00	0	38	104	0	79	20829
2026-01-21 01:20:03.75	26.92	3.43	-53.9	-68.8	3.8	1.49e+00	0	38	104	0	79	20051
2026-01-21 01:20:07.79	26.86	3.70	-53.2	-68.1	3.8	1.49e+00	0	39	104	0	78	19592
2026-01-21 01:20:11.82	26.80	3.97	-51.2	-57.4	8.5	7.17e-02	0	39	0	3145728	74	7204
2026-01-21 01:20:15.86	26.74	4.25	-49.5	-53.0	13.2	4.65e-05	0	39	0	10485760	71	5148
2026-01-21 01:20:19.89	26.68	4.53	-48.3	-50.9	15.4	1.50e-06	0	39	0	17825792	68	4803
2026-01-21 01:20:23.92	26.61	4.81	-49.0	-52.1	14.2	0.00e+00	0	39	0	26214400	68	5502
2026-01-21 01:20:27.95	26.55	5.09	-48.1	-50.5	16.0	0.00e+00	0	39	0	33554432	68	4554
2026-01-21 01:20:31.99	26.48	5.38	-52.1	-64.5	4.0	4.44e-02	0	39	0	40894464	74	16208
2026-01-21 01:20:36.02	26.41	5.67	-47.9	-50.2	16.3	0.00e+00	0	39	0	46137344	67	4692
2026-01-21 01:20:40.05	26.34	5.96	-47.6	-49.7	16.9	0.00e+00	0	39	0	54525952	66	4660
2026-01-21 01:20:44.07	26.27	6.26	-47.3	-49.3	17.3	0.00e+00	0	39	0	61865984	66	4449
2026-01-21 01:20:48.11	26.19	6.56	-47.3	-49.2	17.4	0.00e+00	0	39	0	69206016	66	4440
2026-01-21 01:20:52.13	26.12	6.87	-47.1	-49.0	17.7	0.00e+00	0	39	0	76546048	66	4312
2026-01-21 01:20:56.16	26.04	7.17	-46.9	-48.8	17.9	0.00e+00	0	39	0	83886080	65	4444
2026-01-21 01:21:00.19	25.96	7.48	-46.9	-48.7	18.0	0.00e+00	0	39	0	92274688	65	4395
2026-01-21 01:21:04.23	25.87	7.80	-46.7	-48.4	18.3	0.00e+00	0	39	0	99614720	65	4285
2026-01-21 01:21:08.26	25.79	8.12	-46.6	-48.3	18.5	0.00e+00	0	39	0	106954752	65	4198
2026-01-21 01:21:12.29	25.70	8.44	-46.4	-48.1	18.7	0.00e+00	0	39	0	114294784	64	4341
2026-01-21 01:21:16.32	25.61	8.77	-46.5	-48.1	18.8	0.00e+00	0	39	0	122683392	64	4366
2026-01-21 01:21:20.35	25.52	9.10	-46.2	-47.7	19.1	0.00e+00	0	39	0	130023424	64	4184
2026-01-21 01:21:24.38	25.43	9.44	-46.1	-47.6	19.3	0.00e+00	0	39	0	137363456	64	4118
2026-01-21 01:21:28.41	25.33	9.78	-46.0	-47.5	19.5	0.00e+00	0	40	0	144703488	63	4298
2026-01-21 01:21:32.44	25.23	10.12	-45.9	-47.3	19.7	0.00e+00	0	39	0	152043520	63	4221
2026-01-21 01:21:36.47	25.13	10.47	-45.9	-47.3	19.7	0.00e+00	0	39	0	159383552	63	4216
2026-01-21 01:21:40.50	25.02	10.83	-45.8	-47.2	19.8	0.00e+00	0	39	0	167772160	63	4172
2026-01-21 01:21:44.54	24.91	11.19	-45.5	-46.9	20.2	0.00e+00	0	39	0	175112192	63	4024
2026-01-21 01:21:48.57	24.80	11.55	-45.5	-46.8	20.3	0.00e+00	0	39	0	182452224	63	3995
2026-01-21 01:21:52.60	24.69	11.92	-45.4	-46.7	20.4	0.00e+00	0	39	0	189792256	62	4183
2026-01-21 01:21:56.63	24.57	12.30	-45.4	-46.7	20.4	0.00e+00	0	39	0	198180864	62	4174
2026-01-21 01:22:00.66	24.45	12.68	-45.3	-46.6	20.5	0.00e+00	0	40	0	205520896	62	4114
2026-01-21 01:22:04.69	24.32	13.06	-45.2	-46.4	20.7	0.00e+00	0	39	0	212860928	62	4044
2026-01-21 01:22:08.72	24.19	13.46	-45.2	-46.4	20.7	0.00e+00	0	40	0	220200960	62	4039
2026-01-21 01:22:12.76	24.06	13.86	-45.0	-46.2	20.9	0.00e+00	0	39	0	227540992	61	4191
2026-01-21 01:22:16.79	23.92	14.26	-44.9	-46.1	21.1	0.00e+00	0	39	0	235929600	61	4103
2026-01-21 01:22:20.82	23.78	14.68	-45.0	-46.2	21.0	0.00e+00	0	39	0	243269632	61	4159
2026-01-21 01:22:24.85	23.64	15.10	-44.8	-46.0	21.2	0.00e+00	0	39	0	250609664	61	4068
2026-01-21 01:22:28.89	23.48	15.53	-44.8	-45.9	21.3	0.00e+00	0	39	0	257949696	61	4041
2026-01-21 01:22:32.92	23.33	15.96	-44.6	-45.8	21.5	0.00e+00	0	39	0	266338304	61	3969
2026-01-21 01:22:36.95	23.17	16.40	-44.6	-45.7	21.5	0.00e+00	0	39	0	273678336	61	3930
2026-01-21 01:22:40.98	23.00	16.85	-44.5	-45.6	21.6	0.00e+00	0	40	0	281018368	60	4135
2026-01-21 01:22:45.01	22.83	17.31	-44.4	-45.5	21.7	0.00e+00	0	39	0	288358400	60	4095
2026-01-21 01:22:49.05	22.65	17.78	-44.3	-45.4	21.9	0.00e+00	0	40	0	295698432	60	4024
2026-01-21 01:22:53.08	22.47	18.25	-44.3	-45.4	21.8	0.00e+00	0	39	0	304087040	60	4036
2026-01-21 01:22:57.11	22.28	18.74	-44.3	-45.4	21.9	0.00e+00	0	39	0	311427072	60	4009
2026-01-21 01:23:01.15	22.08	19.23	-44.4	-45.6	21.7	0.00e+00	0	39	0	318767104	60	4104
2026-01-21 01:23:05.18	21.88	19.73	-44.2	-45.3	21.9	0.00e+00	0	39	0	326107136	60	4000
2026-01-21 01:23:09.21	21.67	20.25	-44.2	-45.3	22.0	0.00e+00	0	39	0	333447168	60	3964
2026-01-21 01:23:13.24	21.45	20.77	-44.5	-45.6	22.0	0.00e+00	0	40	0	341835776	59	4365
2026-01-21 01:23:17.28	21.22	21.30	-44.4	-45.5	22.1	0.00e+00	0	40	0	349175808	59	4324
2026-01-21 01:23:21.31	20.99	21.85	-44.4	-45.4	22.2	0.00e+00	0	40	0	356515840	59	4286
2026-01-21 01:23:25.34	20.74	22.41	-44.4	-45.5	22.2	0.00e+00	0	40	0	363855872	59	4312
2026-01-21 01:23:29.38	20.49	22.98	-44.4	-45.5	22.2	0.00e+00	0	40	0	371195904	59	4327
2026-01-21 01:23:33.41	20.23	23.56	-44.6	-45.7	22.1	0.00e+00	0	40	0	379584512	59	4410
2026-01-21 01:23:37.44	19.95	24.15	-44.6	-45.7	21.7	0.00e+00	0	40	0	386924544	60	4173
2026-01-21 01:23:41.48	19.66	24.76	-44.7	-45.8	21.7	0.00e+00	0	40	0	394264576	60	4214
2026-01-21 01:23:45.51	19.37	25.37	-45.0	-46.2	21.3	0.00e+00	0	40	0	401604608	60	4401
2026-01-21 01:23:49.54	19.05	26.01	-45.4	-46.6	20.9	0.00e+00	0	40	0	408944640	61	4383
2026-01-21 01:23:53.57	18.73	26.65	-45.8	-47.0	20.6	0.00e+00	0	40	0	417333248	62	4339
2026-01-21 01:23:57.61	18.39	27.32	-46.4	-47.7	19.9	0.00e+00	0	40	0	424673280	63	4439
2026-01-21 01:24:01.64	18.04	27.99	-47.0	-48.5	19.1	0.00e+00	0	40	0	432013312	64	4581
2026-01-21 01:24:05.67	17.67	28.69	-47.4	-49.1	18.5	0.00e+00	0	40	0	439353344	65	4618
2026-01-21 01:24:09.71	17.28	29.40	-47.4	-49.0	18.6	0.00e+00	0	40	0	447741952	65	4570
2026-01-21 01:24:13.75	16.87	30.13	-47.4	-49.0	18.7	0.00e+00	0	40	0	455081984	65	4569
2026-01-21 01:24:17.78	16.45	30.87	-47.8	-49.6	18.1	0.00e+00	0	40	0	462422016	66	4640
2026-01-21 01:24:21.82	16.00	31.63	-48.2	-50.1	17.6	0.00e+00	0	40	0	469762048	66	4885
2026-01-21 01:24:25.85	15.53	32.41	-48.7	-50.8	17.0	0.00e+00	0	40	0	477102080	67	4984
2026-01-21 01:24:29.88	15.04	33.20	-48.9	-51.0	16.8	0.00e+00	0	40	0	485490688	68	4846
2026-01-21 01:24:33.92	14.52	34.02	-48.8	-50.9	16.9	0.00e+00	0	40	0	492830720	68	4803
2026-01-21 01:24:37.96	13.98	34.86	-48.6	-50.6	17.2	0.00e+00	0	40	0	500170752	68	4643
2026-01-21 01:24:41.99	13.40	35.71	-49.0	-51.1	16.8	0.00e+00	0	40	0	507510784	68	4881
2026-01-21 01:24:46.01	12.79	36.58	-49.3	-51.6	16.3	0.00e+00	0	40	0	515899392	69	4880
2026-01-21 01:24:50.05	12.15	37.48	-49.1	-51.3	16.7	0.00e+00	0	40	0	523239424	69	4713
2026-01-21 01:24:54.08	11.47	38.39	-48.6	-50.6	17.3	0.00e+00	0	40	0	530579456	69	4367
2026-01-21 01:24:58.11	10.75	39.33	-48.1	-49.9	18.0	0.00e+00	0	40	0	537919488	68	4265
2026-01-21 01:25:02.14	9.99	40.28	-47.7	-49.4	18.4	0.00e+00	0	40	0	545259520	67	4272
2026-01-21 01:25:06.18	9.17	41.26	-47.2	-48.7	19.1	0.00e+00	0	40	0	552599552	66	4181
2026-01-21 01:25:10.21	8.31	42.25	-46.7	-48.1	19.7	0.00e+00	0	40	0	560988160	65	4131
2026-01-21 01:25:14.24	7.39	43.27	-46.5	-47.9	20.0	0.00e+00	0	40	0	568328192	64	4255
2026-01-21 01:25:18.27	6.41	44.30	-46.3	-47.6	20.2	0.00e+00	0	40	0	575668224	64	4145
2026-01-21 01:25:22.30	5.36	45.35	-46.0	-47.3	20.5	0.00e+00	0	40	0	583008256	64	3994
2026-01-21 01:25:26.33	4.24	46.41	-45.8	-47.0	20.9	0.00e+00	0	40	0	591396864	63	4088
2026-01-21 01:25:30.36	3.03	47.49	-46.1	-47.4	20.5	0.00e+00	0	40	0	598736896	63	4274
2026-01-21 01:25:34.40	1.74	48.59	-46.1	-47.4	20.6	0.00e+00	0	40	0	606076928	63	4267
2026-01-21 01:25:38.43	0.35	49.69	-45.9	-47.1	20.9	0.00e+00	0	40	0	613416960	63	4121
2026-01-21 01:25:42.47	358.85	50.81	-45.5	-46.7	21.2	0.00e+00	0	40	0	620756992	63	3948
2026-01-21 01:25:46.50	357.24	51.93	-45.5	-46.6	21.3	0.00e+00	0	40	0	629145600	62	4144
2026-01-21 01:25:50.53	355.51	53.04	-45.1	-46.2	21.7	0.00e+00	0	40	0	636485632	62	3955
2026-01-21 01:25:54.56	353.63	54.15	-45.1	-46.2	21.7	0.00e+00	0	40	0	643825664	61	4193
2026-01-21 01:25:58.60	351.60	55.26	-46.2	-47.5	20.6	0.00e+00	0	40	0	651165696	62	4550
2026-01-21 01:26:02.63	349.41	56.34	-47.3	-48.8	19.2	0.00e+00	0	40	0	658505728	65	4463
2026-01-21 01:26:06.66	347.04	57.41	-47.1	-48.6	19.4	0.00e+00	0	40	0	666894336	65	4349
2026-01-21 01:26:10.69	344.48	58.44	-46.9	-48.3	19.7	0.00e+00	0	40	0	674234368	65	4234
2026-01-21 01:26:14.72	341.71	59.43	-46.5	-47.9	20.0	0.00e+00	0	40	0	681574400	65	4042
2026-01-21 01:26:18.75	338.74	60.37	-45.3	-46.4	21.6	0.00e+00	0	40	0	688914432	62	4035
2026-01-21 01:26:22.79	335.53	61.25	-45.2	-46.3	21.6	0.00e+00	0	40	0	697303040	62	3984
2026-01-21 01:26:26.82	332.11	62.05	-44.2	-45.2	22.9	0.00e+00	0	40	0	704643072	59	4148
2026-01-21 01:26:30.85	328.46	62.77	-43.7	-44.7	23.5	0.00e+00	0	40	0	711983104	59	3919
2026-01-21 01:26:34.88	324.61	63.39	-44.2	-45.2	23.0	0.00e+00	0	40	0	719323136	59	4148
2026-01-21 01:26:38.91	320.56	63.91	-44.4	-45.5	22.5	0.00e+00	0	40	0	726663168	60	4054
2026-01-21 01:26:42.94	316.35	64.30	-44.1	-45.1	22.8	0.00e+00	0	40	0	735051776	60	3883
2026-01-21 01:26:46.98	312.00	64.57	-44.0	-44.9	23.2	0.00e+00	0	40	0	742391808	59	4050
2026-01-21 01:26:51.01	307.59	64.71	-44.5	-45.6	22.6	0.00e+00	0	40	0	749731840	59	4359
2026-01-21 01:26:55.04	303.15	64.71	-42.9	-43.7	24.3	0.00e+00	0	40	0	757071872	57	3950
2026-01-21 01:26:59.07	298.74	64.57	-44.0	-44.9	23.2	0.00e+00	0	40	0	764411904	58	4286
2026-01-21 01:27:03.11	294.40	64.30	-44.3	-45.3	22.9	0.00e+00	0	40	0	772800512	59	4216
2026-01-21 01:27:07.14	290.19	63.90	-44.4	-45.4	22.5	0.00e+00	0	40	0	780140544	60	4016
2026-01-21 01:27:11.17	286.14	63.39	-43.9	-44.9	23.3	0.00e+00	0	40	0	787480576	59	4017
2026-01-21 01:27:15.21	282.28	62.76	-43.9	-44.9	23.2	0.00e+00	0	40	0	794820608	59	4026
2026-01-21 01:27:19.24	278.63	62.04	-43.8	-44.7	23.4	0.00e+00	0	40	0	802160640	58	4186
2026-01-21 01:27:23.28	275.20	61.23	-44.5	-45.6	22.4	0.00e+00	0	40	0	810549248	60	4099
2026-01-21 01:27:27.31	272.00	60.35	-46.2	-47.4	20.6	0.00e+00	0	40	0	817889280	62	4541
2026-01-21 01:27:31.35	269.02	59.41	-48.4	-50.3	17.9	0.00e+00	0	40	0	825229312	67	4716
2026-01-21 01:27:35.38	266.26	58.41	-48.5	-50.4	17.7	0.00e+00	0	40	0	832569344	68	4528
2026-01-21 01:27:39.42	263.69	57.38	-48.6	-50.6	17.5	0.00e+00	0	40	0	840957952	68	4613
2026-01-21 01:27:43.45	261.32	56.31	-46.3	-47.5	20.4	0.00e+00	0	40	0	848297984	64	4098
2026-01-21 01:27:47.48	259.13	55.22	-46.1	-47.4	20.6	0.00e+00	0	40	0	855638016	63	4272
2026-01-21 01:27:51.52	257.10	54.12	-45.6	-46.8	21.2	0.00e+00	0	40	0	862978048	63	3979
2026-01-21 01:27:55.55	255.23	53.00	-46.4	-47.8	20.2	0.00e+00	0	40	0	870318080	63	4460
2026-01-21 01:27:59.58	253.49	51.88	-46.9	-48.3	19.6	0.00e+00	0	40	0	878706688	64	4475
2026-01-21 01:28:03.61	251.88	50.77	-47.9	-49.6	18.5	0.00e+00	0	40	0	886046720	66	4610
2026-01-21 01:28:07.65	250.38	49.65	-47.7	-49.3	18.6	0.00e+00	0	40	0	893386752	66	4472
2026-01-21 01:28:11.68	249.00	48.54	-47.1	-48.6	19.4	0.00e+00	0	40	0	900726784	65	4341
2026-01-21 01:28:15.72	247.70	47.44	-46.6	-47.9	20.0	0.00e+00	0	40	0	909115392	65	4049
2026-01-21 01:28:19.75	246.50	46.36	-46.6	-47.9	19.9	0.00e+00	0	40	0	916455424	64	4288
2026-01-21 01:28:23.78	245.38	45.29	-46.5	-47.8	20.0	0.00e+00	0	40	0	923795456	64	4229
2026-01-21 01:28:27.81	244.33	44.24	-46.8	-48.2	19.7	0.00e+00	0	40	0	931135488	64	4417
2026-01-21 01:28:31.85	243.34	43.21	-48.3	-50.2	17.7	0.00e+00	0	40	0	938475520	67	4691
2026-01-21 01:28:35.88	242.42	42.19	-48.0	-49.7	18.2	0.00e+00	0	40	0	945815552	67	4433
2026-01-21 01:28:39.91	241.56	41.19	-49.1	-51.2	16.8	0.00e+00	0	40	0	954204160	68	4982
2026-01-21 01:28:43.94	240.75	40.22	-49.9	-52.4	15.5	0.00e+00	0	40	0	961544192	70	5077
2026-01-21 01:28:47.98	239.98	39.26	-50.3	-53.2	14.7	7.00e-07	0	40	0	968884224	71	5260
2026-01-21 01:28:52.01	239.26	38.32	-49.5	-51.9	16.1	0.00e+00	0	40	0	976224256	70	4771
2026-01-21 01:28:56.04	238.58	37.41	-48.5	-50.5	17.5	0.00e+00	0	40	0	984612864	69	4306
2026-01-21 01:29:00.07	237.94	36.51	-47.9	-49.6	18.2	0.00e+00	0	40	0	991952896	67	4354
2026-01-21 01:29:04.10	237.33	35.64	-46.9	-48.4	19.4	0.00e+00	0	40	0	999292928	65	4244
2026-01-21 01:29:08.13	236.75	34.78	-47.5	-49.1	18.7	0.00e+00	0	40	0	1006632960	65	4616
2026-01-21 01:29:12.16	236.21	33.95	-47.5	-49.1	18.6	0.00e+00	0	40	0	1013972992	66	4384
2026-01-21 01:29:16.20	235.69	33.13	-47.3	-48.9	18.9	0.00e+00	0	40	0	1022361600	66	4248
2026-01-21 01:29:20.23	235.19	32.33	-48.1	-49.9	17.8	0.00e+00	0	40	0	1029701632	66	4786
2026-01-21 01:29:24.26	234.72	31.55	-48.2	-50.1	17.6	0.00e+00	0	40	0	1037041664	67	4626
2026-01-21 01:29:28.29	234.28	30.79	-47.8	-49.5	18.2	0.00e+00	0	40	0	1044381696	67	4313
2026-01-21 01:29:32.33	233.85	30.04	-47.6	-49.3	18.4	0.00e+00	0	40	0	1051721728	67	4226
2026-01-21 01:29:36.36	233.44	29.32	-48.1	-50.0	17.7	0.00e+00	0	40	0	1060110336	67	4566
2026-01-21 01:29:40.39	233.06	28.60	-48.5	-50.5	17.2	0.00e+00	0	40	0	1067450368	67	4820
2026-01-21 01:29:44.42	232.69	27.91	-48.0	-49.8	17.9	0.00e+00	0	40	0	1074790400	67	4451
2026-01-21 01:29:48.45	232.33	27.23	-47.3	-49.0	18.7	0.00e+00	0	40	0	1082130432	66	4294
2026-01-21 01:29:52.49	231.99	26.57	-47.4	-49.1	18.5	0.00e+00	0	40	0	1090519040	66	4372
2026-01-21 01:29:56.52	231.67	25.92	-47.6	-49.3	18.3	0.00e+00	0	40	0	1097859072	66	4463
2026-01-21 01:30:00.55	231.35	25.29	-47.3	-48.9	18.7	0.00e+00	0	40	0	1105199104	66	4256
2026-01-21 01:30:04.58	231.05	24.67	-47.1	-48.7	18.8	0.00e+00	0	40	0	1112539136	66	4186
2026-01-21 01:30:08.61	230.77	24.06	-47.2	-48.8	18.7	0.00e+00	0	40	0	1119879168	66	4227
2026-01-21 01:30:12.64	230.49	23.47	-47.1	-48.7	18.8	0.00e+00	0	40	0	1128267776	66	4165
2026-01-21 01:30:16.67	230.22	22.88	-46.6	-48.0	19.4	0.00e+00	0	40	0	1135607808	65	4084
2026-01-21 01:30:20.70	229.97	22.32	-46.2	-47.6	19.9	0.00e+00	0	40	0	1142947840	64	4102
2026-01-21 01:30:24.73	229.72	21.76	-46.0	-47.4	20.0	0.00e+00	0	40	0	1150287872	64	4026
2026-01-21 01:30:28.76	229.49	21.21	-46.2	-47.5	20.0	0.00e+00	0	40	0	1157627904	63	4339
2026-01-21 01:30:32.79	229.26	20.68	-46.3	-47.7	19.8	0.00e+00	0	40	0	1166016512	63	4401
2026-01-21 01:30:36.82	229.04	20.15	-46.4	-47.9	19.6	0.00e+00	0	40	0	1173356544	63	4497
2026-01-21 01:30:40.85	228.83	19.64	-46.3	-47.7	19.8	0.00e+00	0	40	0	1180696576	63	4413
2026-01-21 01:30:44.88	228.62	19.14	-46.5	-47.9	19.6	0.00e+00	0	40	0	1188036608	63	4535
2026-01-21 01:30:48.92	228.42	18.64	-46.5	-48.0	19.5	0.00e+00	0	40	0	1195376640	63	4579
2026-01-21 01:30:52.95	228.23	18.16	-46.7	-48.2	19.3	0.00e+00	0	40	0	1203765248	63	4669
2026-01-21 01:30:56.98	228.05	17.68	-46.4	-47.8	19.6	0.00e+00	0	40	0	1211105280	63	4493
2026-01-21 01:31:01.01	227.87	17.21	-46.1	-47.5	19.9	0.00e+00	0	40	0	1218445312	63	4327
2026-01-21 01:31:05.04	227.69	16.75	-46.1	-47.5	19.9	0.00e+00	0	40	0	1225785344	63	4301
2026-01-21 01:31:09.07	227.53	16.30	-46.3	-47.8	19.6	0.00e+00	0	40	0	1233125376	63	4466
2026-01-21 01:31:13.11	227.36	15.86	-46.7	-48.2	19.2	0.00e+00	0	40	0	1241513984	63	4688
2026-01-21 01:31:17.14	227.21	15.42	-46.8	-48.4	18.9	0.00e+00	0	40	0	1248854016	64	4495
2026-01-21 01:31:21.17	227.05	15.00	-46.7	-48.3	19.0	0.00e+00	0	40	0	1256194048	64	4448
2026-01-21 01:31:25.20	226.91	14.58	-46.7	-48.3	19.0	0.00e+00	0	40	0	1263534080	64	4447
2026-01-21 01:31:29.23	226.76	14.16	-46.7	-48.2	19.0	0.00e+00	0	40	0	1271922688	64	4433
2026-01-21 01:31:33.26	226.62	13.76	-46.6	-48.2	19.0	0.00e+00	0	40	0	1279262720	64	4409
2026-01-21 01:31:37.29	226.49	13.36	-47.0	-48.6	18.6	0.00e+00	0	40	0	1286602752	64	4634
2026-01-21 01:31:41.32	226.36	12.96	-47.1	-48.9	18.3	0.00e+00	0	40	0	1293942784	64	4777
2026-01-21 01:31:45.36	226.23	12.57	-47.1	-48.9	18.3	0.00e+00	0	40	0	1301282816	65	4504
2026-01-21 01:31:49.39	226.11	12.19	-47.2	-49.0	18.2	0.00e+00	0	40	0	1309671424	65	4561
2026-01-21 01:31:53.42	225.99	11.82	-47.3	-49.1	18.0	0.00e+00	0	40	0	1317011456	65	4616
2026-01-21 01:31:57.45	225.87	11.45	-47.3	-49.0	18.0	0.00e+00	0	40	0	1324351488	65	4594
2026-01-21 01:32:01.48	225.76	11.08	-47.4	-49.2	17.9	0.00e+00	0	40	0	1331691520	65	4702
2026-01-21 01:32:05.51	225.64	10.72	-47.5	-49.4	17.6	0.00e+00	0	40	0	1339031552	65	4794
2026-01-21 01:32:09.54	225.54	10.36	-47.7	-49.6	17.5	0.00e+00	0	40	0	1347420160	66	4609
2026-01-21 01:32:13.57	225.43	10.01	-47.8	-49.7	17.3	0.00e+00	0	40	0	1354760192	66	4691
2026-01-21 01:32:17.61	225.33	9.67	-47.9	-49.9	17.1	0.00e+00	0	40	0	1362100224	66	4809
2026-01-21 01:32:21.64	225.23	9.33	-47.9	-49.9	17.1	0.00e+00	0	40	0	1369440256	66	4771
2026-01-21 01:32:25.67	225.13	8.99	-48.0	-50.0	16.9	0.00e+00	0	40	0	1376780288	66	4857
2026-01-21 01:32:29.70	225.04	8.66	-48.0	-50.1	16.9	0.00e+00	0	40	0	1385168896	66	4885
2026-01-21 01:32:33.74	224.95	8.33	-47.9	-49.9	16.9	0.00e+00	0	40	0	1392508928	66	4794
2026-01-21 01:32:37.77	224.86	8.01	-47.8	-49.9	16.9	0.00e+00	0	40	0	1399848960	66	4802
2026-01-21 01:32:41.80	224.77	7.69	-47.7	-49.7	17.1	0.00e+00	0	40	0	1407188992	66	4683
2026-01-21 01:32:45.83	224.69	7.37	-47.8	-49.9	16.9	0.00e+00	0	40	0	1414529024	66	4763
2026-01-21 01:32:49.86	224.60	7.06	-47.7	-49.8	16.9	0.00e+00	0	40	0	1422917632	66	4734
2026-01-21 01:32:53.90	224.52	6.75	-47.7	-49.8	16.9	0.00e+00	0	40	0	1430257664	66	4746
2026-01-21 01:32:57.93	224.44	6.45	-47.9	-50.1	16.5	0.00e+00	0	40	0	1437597696	66	4923
2026-01-21 01:33:01.96	224.37	6.15	-48.0	-50.3	16.3	0.00e+00	0	40	0	1444937728	66	4998
2026-01-21 01:33:05.99	224.29	5.85	-48.2	-50.6	16.0	0.00e+00	0	40	0	1453326336	67	4882
2026-01-21 01:33:10.03	224.22	5.56	-48.2	-50.5	16.0	7.00e-07	0	40	0	1460666368	67	4868
2026-01-21 01:33:14.06	224.15	5.27	-48.4	-51.0	15.5	0.00e+00	0	40	0	1468006400	67	5107
2026-01-21 01:33:18.09	224.08	4.98	-52.9	-67.9	3.8	3.75e-01	0	40	104	1474297856	76	21306
2026-01-21 01:33:22.12	224.01	4.69	-53.7	-68.7	3.8	1.49e+00	0	40	104	1474297856	77	22076
2026-01-21 01:33:26.15	223.94	4.41	-53.8	-68.8	3.8	1.49e+00	0	40	104	1474297856	78	21168
2026-01-21 01:33:30.18	223.87	4.13	-53.9	-68.9	3.8	1.49e+00	0	40	104	1474297856	78	21291
2026-01-21 01:33:34.22	223.81	3.85	-53.8	-68.8	3.8	1.49e+00	0	40	104	1474297856	78	21118
2026-01-21 01:33:38.26	223.75	3.58	-53.5	-68.5	3.8	1.49e+00	0	40	104	1474297856	78	20405
2026-01-21 01:33:42.29	223.69	3.31	-53.5	-68.5	3.8	1.49e+00	0	40	104	1474297856	78	20427
2026-01-21 01:33:46.33	223.63	3.04	-53.5	-68.5	3.8	1.49e+00	0	40	104	1474297856	78	20376
2026-01-21 01:33:50.36	223.57	2.77	-53.5	-68.5	3.8	1.49e+00	0	40	104	1474297856	78	20371
2026-01-21 01:33:54.40	223.51	2.51	-53.5	-68.4	3.8	1.49e+00	0	40	104	1474297856	78	20281
2026-01-21 01:33:58.43	223.45	2.25	-53.5	-68.4	3.8	1.49e+00	0	40	104	1474297856	78	20296
2026-01-21 01:34:02.46	223.40	1.99	-53.5	-68.4	3.8	1.49e+00	0	40	104	1474297856	78	20293

#Closed at: 2026-01-21 01:34:04
#Recorded file [1474 MB]: D:/lorett/data/31041_260121_041943.dat