passes_logs/2026/01/21/R3.2S_Murmansk/R3.2S_Murmansk__20260121_194942_TY-42_rec.log

#Pass ID: 20260121_194942_TY-42
#Satellite: TY-42
#Configuration: TY-42_900M
#almurnet v.1.7.20251203
#Start time: 2026-01-21 19:49:43

#Version: 2.2.20231116
#Station: R3.2S_Murmansk
#Location: 33.079688 lon 68.888172 lat
#TLE: 1 64048U 25103A   26021.69263889  .00008011  00000-0  38191-3 0 09990
#TLE: 2 64048 097.4122 096.9841 0001655 091.0670 308.0136 15.19173465 37830

#Time	Az	El	Level	Level2	SNR	BER	BlckErr	Temp	State	Recorded	gain1	gain2
2026-01-21 19:49:43.05	185.74	2.00	-54.4	-56.5	6.2	0.00e+00	0	47	0	0	80	18206
2026-01-21 19:49:46.07	185.90	2.20	-54.7	-56.8	6.2	0.00e+00	0	47	104	0	80	18943
2026-01-21 19:49:49.10	186.06	2.41	-54.7	-56.8	6.2	0.00e+00	0	47	104	0	80	18838
2026-01-21 19:49:52.12	186.23	2.61	-54.6	-56.7	6.2	0.00e+00	0	47	104	0	80	18735
2026-01-21 19:49:55.15	186.40	2.82	-54.5	-56.6	6.2	0.00e+00	0	47	104	0	80	18525
2026-01-21 19:49:58.17	186.57	3.04	-54.4	-56.5	6.2	0.00e+00	0	47	104	0	80	18269
2026-01-21 19:50:01.20	186.74	3.25	-54.2	-56.3	6.2	0.00e+00	0	48	104	0	80	17836
2026-01-21 19:50:04.22	186.92	3.46	-53.8	-56.0	6.2	0.00e+00	0	48	104	0	79	18188
2026-01-21 19:50:07.25	187.10	3.68	-53.0	-55.1	6.2	0.00e+00	0	48	104	0	78	17562
2026-01-21 19:50:10.27	187.29	3.90	-53.0	-55.1	6.2	0.00e+00	0	48	104	0	78	17505
2026-01-21 19:50:13.30	187.48	4.12	-53.0	-55.1	6.2	0.00e+00	0	48	104	0	78	17481
2026-01-21 19:50:16.32	187.67	4.35	-53.0	-55.1	6.2	0.00e+00	0	48	104	0	78	17465
2026-01-21 19:50:19.35	187.86	4.57	-53.0	-55.1	6.2	0.00e+00	0	48	104	0	77	18446
2026-01-21 19:50:22.37	188.06	4.80	-52.9	-55.1	6.2	0.00e+00	0	48	104	0	77	18471
2026-01-21 19:50:25.39	188.26	5.03	-52.9	-55.0	6.2	0.00e+00	0	48	104	0	77	18388
2026-01-21 19:50:28.42	188.47	5.26	-53.0	-55.1	6.2	0.00e+00	0	49	104	0	77	18572
2026-01-21 19:50:31.44	188.68	5.50	-41.3	-41.2	12.2	0.00e+00	1618	51	0	8388608	54	14065
2026-01-21 19:50:34.47	188.90	5.74	-36.2	-36.1	14.1	3.48e-02	0	50	0	360710144	44	13912
2026-01-21 19:50:37.49	189.11	5.98	-36.2	-36.1	14.2	2.48e-02	0	51	0	696254464	43	14646
2026-01-21 19:50:40.51	189.34	6.22	-35.9	-35.8	14.3	2.60e-02	0	51	0	1031798784	43	14225
2026-01-21 19:50:43.53	189.56	6.47	-35.7	-35.7	14.4	2.34e-02	0	51	0	1375731712	43	13962
2026-01-21 19:50:46.55	189.79	6.72	-35.5	-35.4	14.5	2.16e-02	0	51	0	1719664640	43	13625
2026-01-21 19:50:49.58	190.03	6.97	-35.9	-35.8	14.2	1.98e-02	0	52	0	2055208960	43	14254
2026-01-21 19:50:52.60	190.27	7.22	-35.7	-35.6	14.4	1.84e-02	0	52	0	2399141888	43	13805
2026-01-21 19:50:55.63	190.52	7.48	-35.3	-35.2	14.6	1.59e-02	0	52	0	2734686208	42	14062
2026-01-21 19:50:58.65	190.77	7.74	-35.1	-35.0	14.7	1.23e-02	0	52	0	3087007744	42	13749
2026-01-21 19:51:01.67	191.03	8.01	-34.9	-34.8	14.8	1.17e-02	0	52	0	3422552064	41	14132
2026-01-21 19:51:04.70	191.29	8.27	-34.7	-34.6	14.9	9.10e-03	0	52	0	3758096384	41	13809
2026-01-21 19:51:07.72	191.56	8.54	-34.7	-34.6	14.9	7.86e-03	0	52	0	4093640704	40	14683
2026-01-21 19:51:10.75	191.84	8.82	-34.3	-34.2	15.1	6.93e-03	0	52	0	4445962240	40	14021
2026-01-21 19:51:13.77	192.12	9.10	-34.2	-34.1	15.1	5.66e-03	0	52	0	4781506560	40	13905
2026-01-21 19:51:16.80	192.40	9.38	-34.0	-33.9	15.2	5.49e-03	0	53	0	5117050880	39	14360
2026-01-21 19:51:19.82	192.70	9.66	-33.8	-33.6	15.3	4.21e-03	0	53	0	5452595200	39	13933
2026-01-21 19:51:22.84	193.00	9.95	-33.7	-33.6	15.4	3.52e-03	0	53	0	5796528128	39	13814
2026-01-21 19:51:25.87	193.31	10.25	-33.8	-33.6	15.3	3.02e-03	0	53	0	6140461056	39	13941
2026-01-21 19:51:28.89	193.62	10.54	-33.5	-33.3	15.4	3.42e-03	0	53	0	6484393984	38	14272
2026-01-21 19:51:31.91	193.94	10.85	-33.5	-33.4	15.4	2.71e-03	0	53	0	6819938304	38	14409
2026-01-21 19:51:34.93	194.27	11.15	-33.4	-33.3	15.5	2.74e-03	0	53	0	7155482624	38	14140
2026-01-21 19:51:37.96	194.61	11.46	-33.2	-33.1	15.6	2.31e-03	0	53	0	7507804160	38	13915
2026-01-21 19:51:40.98	194.96	11.77	-33.0	-32.9	15.8	2.29e-03	0	54	0	7843348480	38	13496
2026-01-21 19:51:44.01	195.32	12.09	-33.0	-32.9	15.8	4.82e-03	0	53	0	8178892800	37	14285
2026-01-21 19:51:47.03	195.68	12.42	-32.7	-32.6	15.8	3.50e-03	0	54	0	8514437120	37	13817
2026-01-21 19:51:50.05	196.06	12.75	-32.5	-32.4	15.9	1.58e-03	0	54	0	8866758656	37	13583
2026-01-21 19:51:53.08	196.44	13.08	-32.4	-32.3	15.9	1.02e-03	0	53	0	9202302976	36	14205
2026-01-21 19:51:56.10	196.84	13.42	-32.2	-32.1	16.0	8.96e-04	0	54	0	9537847296	36	13874
2026-01-21 19:51:59.13	197.24	13.76	-29.6	-29.5	15.7	1.80e-03	0	54	0	9881780224	31	13696
2026-01-21 19:52:02.15	197.66	14.11	-29.6	-29.5	15.7	2.06e-03	0	54	0	10225713152	31	13670
2026-01-21 19:52:05.17	198.08	14.46	-29.6	-29.5	15.7	2.71e-03	0	54	0	10561257472	31	13712
2026-01-21 19:52:08.20	198.53	14.82	-29.4	-29.3	15.7	2.63e-03	0	54	0	10905190400	30	14272
2026-01-21 19:52:11.22	198.98	15.19	-29.6	-29.5	15.7	2.70e-03	0	54	0	11240734720	30	14460
2026-01-21 19:52:14.25	199.44	15.56	-29.4	-29.3	15.7	2.69e-03	0	54	0	11584667648	30	14242
2026-01-21 19:52:17.27	199.92	15.94	-29.2	-29.0	15.8	1.84e-03	0	54	0	11928600576	30	13775
2026-01-21 19:52:20.29	200.41	16.32	-28.8	-28.7	15.9	2.27e-03	0	54	0	12264144896	29	14066
2026-01-21 19:52:23.32	200.92	16.71	-28.7	-28.6	16.0	3.01e-03	0	54	0	12599689216	29	13822
2026-01-21 19:52:26.35	201.44	17.10	-28.4	-28.3	16.0	1.42e-03	0	54	0	12952010752	28	14168
2026-01-21 19:52:29.37	201.98	17.50	-28.4	-28.3	16.0	8.96e-04	0	54	0	13287555072	28	14124
2026-01-21 19:52:32.39	202.53	17.91	-28.2	-28.1	16.1	9.73e-04	0	54	0	13623099392	28	13903
2026-01-21 19:52:35.41	203.11	18.32	-28.2	-28.1	16.1	8.06e-04	0	54	0	13958643712	28	13804
2026-01-21 19:52:38.44	203.70	18.74	-27.9	-27.8	16.2	8.06e-04	0	54	0	14302576640	27	14231
2026-01-21 19:52:41.46	204.30	19.17	-27.9	-27.7	16.2	6.53e-04	0	54	0	14646509568	27	14104
2026-01-21 19:52:44.49	204.93	19.60	-27.7	-27.6	16.3	7.06e-04	0	54	0	14982053888	27	13848
2026-01-21 19:52:47.51	205.58	20.04	-27.5	-27.4	16.3	4.39e-04	0	54	0	15325986816	27	13626
2026-01-21 19:52:50.54	206.25	20.48	-27.3	-27.2	16.3	4.34e-04	0	54	0	15661531136	26	13976
2026-01-21 19:52:53.56	206.94	20.94	-27.1	-27.0	16.4	3.53e-04	0	54	0	16005464064	26	13723
2026-01-21 19:52:56.58	207.65	21.39	-26.8	-26.7	16.5	3.24e-04	0	54	0	16349396992	25	14092
2026-01-21 19:52:59.61	208.39	21.86	-26.9	-26.8	16.5	2.53e-04	0	54	0	16684941312	25	14123
2026-01-21 19:53:02.63	209.15	22.33	-26.6	-26.5	16.5	2.29e-04	0	54	0	17020485632	25	13705
2026-01-21 19:53:05.65	209.94	22.80	-26.3	-26.2	16.6	3.29e-04	0	54	0	17372807168	24	14033
2026-01-21 19:53:08.68	210.76	23.29	-26.1	-26.0	16.6	2.72e-04	0	54	0	17708351488	24	13772
2026-01-21 19:53:11.70	211.60	23.77	-25.9	-25.8	16.7	1.19e-04	0	55	0	18043895808	23	14170
2026-01-21 19:53:14.73	212.47	24.27	-25.8	-25.7	16.7	5.24e-05	0	55	0	18379440128	23	13976
2026-01-21 19:53:17.75	213.38	24.76	-25.8	-25.6	16.7	7.62e-05	0	54	0	18731761664	23	13933
2026-01-21 19:53:20.78	214.31	25.27	-25.4	-25.3	16.8	6.67e-05	0	54	0	19067305984	22	14189
2026-01-21 19:53:23.80	215.28	25.77	-25.2	-25.1	16.8	4.76e-05	0	54	0	19402850304	22	13814
2026-01-21 19:53:26.82	216.28	26.28	-25.0	-24.8	16.8	1.90e-05	0	55	0	19746783232	21	14265
2026-01-21 19:53:29.85	217.32	26.80	-24.7	-24.6	16.9	9.50e-06	0	55	0	20090716160	21	13862
2026-01-21 19:53:32.87	218.40	27.31	-24.6	-24.5	16.9	0.00e+00	0	55	0	20434649088	21	13706
2026-01-21 19:53:35.89	219.51	27.83	-24.4	-24.3	16.8	4.70e-06	0	54	0	20770193408	20	14222
2026-01-21 19:53:38.92	220.66	28.34	-24.2	-24.1	17.0	4.70e-06	0	54	0	21105737728	20	13901
2026-01-21 19:53:41.94	221.85	28.86	-24.0	-23.9	17.0	1.43e-05	0	54	0	21441282048	19	14366
2026-01-21 19:53:44.96	223.09	29.37	-23.9	-23.8	17.0	4.70e-06	0	54	0	21793603584	19	14254
2026-01-21 19:53:47.99	224.36	29.89	-23.8	-23.7	17.0	1.90e-05	0	54	0	22129147904	19	14074
2026-01-21 19:53:51.01	225.68	30.39	-23.7	-23.6	17.0	0.00e+00	0	54	0	22464692224	19	13887
2026-01-21 19:53:54.03	227.05	30.89	-23.5	-23.4	17.1	4.70e-06	0	54	0	22808625152	19	13556
2026-01-21 19:53:57.06	228.46	31.39	-23.4	-23.3	17.1	2.38e-05	0	54	0	23152558080	18	14157
2026-01-21 19:54:00.08	229.92	31.87	-23.3	-23.2	17.2	4.70e-06	0	54	0	23488102400	18	13986
2026-01-21 19:54:03.11	231.42	32.35	-23.1	-23.0	17.1	4.70e-06	0	54	0	23832035328	18	13664
2026-01-21 19:54:06.13	232.97	32.81	-23.0	-22.9	17.1	0.00e+00	0	54	0	24167579648	17	14318
2026-01-21 19:54:09.15	234.56	33.26	-23.0	-22.9	17.2	0.00e+00	0	54	0	24511512576	17	14277
2026-01-21 19:54:12.18	236.21	33.69	-22.8	-22.7	17.2	0.00e+00	0	54	0	24855445504	17	13960
2026-01-21 19:54:15.20	237.90	34.11	-22.7	-22.6	17.2	4.70e-06	0	54	0	25190989824	17	13822
2026-01-21 19:54:18.23	239.63	34.50	-22.6	-22.5	17.2	0.00e+00	0	54	0	25526534144	17	13689
2026-01-21 19:54:21.25	241.40	34.87	-22.7	-22.6	17.1	0.00e+00	0	54	0	25878855680	17	13800
2026-01-21 19:54:24.27	243.22	35.22	-22.3	-22.1	17.2	9.50e-06	0	54	0	26214400000	16	13935
2026-01-21 19:54:27.30	245.08	35.54	-22.2	-22.1	17.2	0.00e+00	0	54	0	26549944320	16	13866
2026-01-21 19:54:30.32	246.97	35.82	-22.1	-22.0	17.2	0.00e+00	0	54	0	26885488640	16	13742
2026-01-21 19:54:33.35	248.90	36.08	-21.9	-21.8	17.2	0.00e+00	0	55	0	27237810176	15	14150
2026-01-21 19:54:36.37	250.85	36.31	-21.9	-21.8	17.2	4.70e-06	0	54	0	27573354496	15	14127
2026-01-21 19:54:39.39	252.83	36.50	-22.0	-21.9	17.1	0.00e+00	0	54	0	27908898816	15	14296
2026-01-21 19:54:42.42	254.84	36.66	-21.9	-21.8	17.1	0.00e+00	0	54	0	28252831744	15	14112
2026-01-21 19:54:45.44	256.86	36.78	-21.8	-21.7	17.1	0.00e+00	0	54	0	28596764672	15	14048
2026-01-21 19:54:48.47	258.90	36.86	-21.9	-21.7	17.0	0.00e+00	0	54	0	28932308992	15	14110
2026-01-21 19:54:51.49	260.94	36.90	-22.0	-21.9	17.0	0.00e+00	0	54	0	29276241920	15	14365
2026-01-21 19:54:54.52	262.99	36.91	-22.0	-21.8	17.0	4.70e-06	0	54	0	29611786240	15	14273
2026-01-21 19:54:57.54	265.03	36.87	-21.9	-21.8	17.0	0.00e+00	0	54	0	29947330560	15	14175
2026-01-21 19:55:00.56	267.06	36.80	-22.1	-21.9	17.0	4.70e-06	0	54	0	30299652096	15	14412
2026-01-21 19:55:03.59	269.09	36.69	-22.1	-21.9	17.0	0.00e+00	0	54	0	30635196416	15	14413
2026-01-21 19:55:06.61	271.10	36.54	-22.1	-22.0	17.0	0.00e+00	0	54	0	30970740736	15	14451
2026-01-21 19:55:09.63	273.08	36.36	-22.1	-22.0	17.0	0.00e+00	0	54	0	31306285056	15	14531
2026-01-21 19:55:12.66	275.04	36.14	-22.1	-22.0	17.1	4.70e-06	0	54	0	31658606592	15	14551
2026-01-21 19:55:15.68	276.97	35.89	-22.2	-22.1	17.1	0.00e+00	0	55	0	31994150912	15	14710
2026-01-21 19:55:18.70	278.87	35.61	-22.5	-22.3	17.0	0.00e+00	0	54	0	32329695232	15	15100
2026-01-21 19:55:21.73	280.73	35.30	-22.6	-22.5	17.0	0.00e+00	0	54	0	32673628160	15	15345
2026-01-21 19:55:24.75	282.55	34.96	-22.7	-22.6	17.0	0.00e+00	0	54	0	33017561088	15	15503
2026-01-21 19:55:27.77	284.33	34.60	-22.8	-22.7	17.1	0.00e+00	0	54	0	33353105408	16	14818
2026-01-21 19:55:30.80	286.08	34.21	-23.0	-22.8	17.1	0.00e+00	0	54	0	33697038336	16	15088
2026-01-21 19:55:33.82	287.77	33.80	-23.0	-22.9	17.2	0.00e+00	0	55	0	34032582656	16	15132
2026-01-21 19:55:36.85	289.42	33.38	-23.1	-22.9	17.2	0.00e+00	0	54	0	34376515584	16	15258
2026-01-21 19:55:39.87	291.02	32.93	-23.0	-22.9	17.3	4.70e-06	0	54	0	34720448512	16	15253
2026-01-21 19:55:42.89	292.58	32.48	-23.1	-23.0	17.3	4.70e-06	0	54	0	35055992832	16	15424
2026-01-21 19:55:45.92	294.09	32.01	-23.3	-23.2	17.3	0.00e+00	0	54	0	35391537152	17	14781
2026-01-21 19:55:48.94	295.55	31.53	-23.4	-23.3	17.3	4.70e-06	0	54	0	35743858688	17	15032
2026-01-21 19:55:51.97	296.97	31.03	-23.6	-23.5	17.3	0.00e+00	0	54	0	36079403008	17	15352
2026-01-21 19:55:54.99	298.34	30.54	-23.7	-23.6	17.3	0.00e+00	0	55	0	36414947328	18	14728
2026-01-21 19:55:58.02	299.67	30.03	-23.9	-23.8	17.3	0.00e+00	0	54	0	36750491648	18	15008
2026-01-21 19:56:01.04	300.96	29.52	-24.1	-24.0	17.2	1.43e-05	0	54	0	37102813184	18	15361
2026-01-21 19:56:04.06	302.19	29.01	-24.2	-24.1	17.2	4.70e-06	0	54	0	37438357504	19	14721
2026-01-21 19:56:07.09	303.40	28.50	-24.3	-24.2	17.2	1.90e-05	0	55	0	37782290432	19	14844
2026-01-21 19:56:10.11	304.55	27.99	-24.4	-24.3	17.1	1.43e-05	0	54	0	38117834752	19	15027
2026-01-21 19:56:13.13	305.67	27.47	-24.6	-24.5	17.1	9.50e-06	0	54	0	38453379072	19	15321
2026-01-21 19:56:16.16	306.75	26.96	-24.7	-24.5	17.0	1.43e-05	0	55	0	38805700608	19	15467
2026-01-21 19:56:19.19	307.80	26.45	-24.7	-24.6	17.0	4.70e-06	0	54	0	39141244928	20	14737
2026-01-21 19:56:22.21	308.81	25.94	-25.0	-24.8	16.9	1.43e-05	0	54	0	39476789248	20	15105
2026-01-21 19:56:25.23	309.78	25.44	-25.1	-25.0	16.9	1.90e-05	0	55	0	39812333568	20	15300
2026-01-21 19:56:28.26	310.72	24.94	-25.2	-25.1	16.8	2.38e-05	0	55	0	40164655104	20	15514
2026-01-21 19:56:31.28	311.63	24.44	-25.5	-25.4	16.8	9.50e-06	0	55	0	40500199424	21	15161
2026-01-21 19:56:34.31	312.51	23.95	-25.5	-25.4	16.8	3.81e-05	0	55	0	40835743744	21	15188
2026-01-21 19:56:37.33	313.36	23.46	-25.7	-25.6	16.7	2.86e-05	0	55	0	41179676672	21	15508
2026-01-21 19:56:40.36	314.18	22.98	-26.0	-25.9	16.7	6.19e-05	0	54	0	41523609600	22	15251
2026-01-21 19:56:43.39	314.97	22.50	-26.2	-26.1	16.6	6.67e-05	0	55	0	41859153920	22	15502
2026-01-21 19:56:46.41	315.74	22.04	-26.2	-26.1	16.6	1.38e-04	0	54	0	42203086848	23	14696
2026-01-21 19:56:49.44	316.48	21.57	-26.4	-26.3	16.6	7.15e-05	0	55	0	42538631168	23	15019
2026-01-21 19:56:52.45	317.20	21.12	-26.4	-26.3	16.5	2.19e-04	0	55	0	42882564096	23	15067
2026-01-21 19:56:55.48	317.89	20.66	-26.5	-26.4	16.5	1.81e-04	0	55	0	43226497024	23	15257
2026-01-21 19:56:58.50	318.56	20.22	-26.6	-26.5	16.5	1.48e-04	0	54	0	43562041344	23	15376
2026-01-21 19:57:01.53	319.22	19.78	-26.7	-26.6	16.5	1.62e-04	0	55	0	43897585664	23	15524
2026-01-21 19:57:04.55	319.85	19.35	-26.9	-26.8	16.4	2.91e-04	0	55	0	44249907200	24	14953
2026-01-21 19:57:07.57	320.46	18.93	-27.1	-27.0	16.4	3.58e-04	0	55	0	44585451520	24	15400
2026-01-21 19:57:10.60	321.05	18.51	-27.3	-27.2	16.3	3.77e-04	0	55	0	44920995840	25	14796
2026-01-21 19:57:13.62	321.63	18.09	-27.4	-27.3	16.3	4.29e-04	0	55	0	45256540160	25	14949
2026-01-21 19:57:16.64	322.18	17.69	-27.5	-27.4	16.3	5.48e-04	0	55	0	45600473088	25	15205
2026-01-21 19:57:19.67	322.73	17.29	-27.6	-27.5	16.2	7.63e-04	0	55	0	45944406016	25	15394
2026-01-21 19:57:22.69	323.25	16.89	-27.8	-27.7	16.2	9.15e-04	0	55	0	46279950336	26	14814
2026-01-21 19:57:25.71	323.76	16.51	-28.0	-27.9	16.2	9.39e-04	0	55	0	46623883264	26	15219
2026-01-21 19:57:28.74	324.26	16.12	-28.2	-28.1	16.1	1.19e-03	0	55	0	46959427584	26	15487
2026-01-21 19:57:31.76	324.74	15.75	-28.4	-28.2	16.1	1.15e-03	0	55	0	47303360512	27	14945
2026-01-21 19:57:34.78	325.21	15.38	-28.3	-28.2	16.1	1.04e-03	0	55	0	47647293440	27	14820
2026-01-21 19:57:37.81	325.66	15.01	-28.3	-28.2	16.1	1.00e-03	0	55	0	47982837760	27	14784
2026-01-21 19:57:40.83	326.10	14.65	-28.3	-28.2	16.1	2.28e-03	0	55	0	48318382080	27	14823
2026-01-21 19:57:43.86	326.53	14.30	-28.4	-28.3	16.0	1.35e-03	0	55	0	48670703616	27	15034
2026-01-21 19:57:46.88	326.95	13.95	-28.6	-28.5	15.9	1.72e-03	0	55	0	49006247936	27	15434
2026-01-21 19:57:49.90	327.36	13.61	-28.8	-28.7	15.9	1.83e-03	0	55	0	49341792256	28	14795
2026-01-21 19:57:52.93	327.76	13.27	-28.9	-28.8	15.8	8.58e-03	0	55	0	49677336576	28	15048
2026-01-21 19:57:55.95	328.15	12.94	-29.1	-29.0	15.7	8.77e-03	0	55	0	50029658112	28	15412
2026-01-21 19:57:58.97	328.52	12.61	-29.2	-29.1	15.7	9.62e-03	0	55	0	50365202432	29	14743
2026-01-21 19:58:02.00	328.89	12.29	-29.3	-29.2	15.7	9.82e-03	0	55	0	50700746752	29	14798
2026-01-21 19:58:05.02	329.25	11.97	-29.3	-29.2	15.6	9.88e-03	0	55	0	51044679680	29	14863
2026-01-21 19:58:08.04	329.60	11.65	-29.4	-29.3	15.6	1.10e-02	0	55	0	51388612608	29	14982
2026-01-21 19:58:11.07	329.94	11.34	-29.6	-29.5	15.5	1.40e-02	0	55	0	51724156928	30	14541
2026-01-21 19:58:14.09	330.27	11.04	-29.9	-29.8	15.4	1.43e-02	0	55	0	52068089856	30	15076
2026-01-21 19:58:17.11	330.60	10.74	-30.2	-30.1	15.3	1.63e-02	0	55	0	52403634176	30	15614
2026-01-21 19:58:20.14	330.92	10.44	-30.3	-30.3	15.2	1.78e-02	0	55	0	52739178496	31	14966
2026-01-21 19:58:23.16	331.23	10.15	-30.5	-30.4	15.2	1.87e-02	0	55	0	53091500032	31	15292
2026-01-21 19:58:26.18	331.53	9.86	-30.4	-30.3	15.2	1.98e-02	0	55	0	53427044352	31	15076
2026-01-21 19:58:29.20	331.83	9.57	-30.4	-30.4	15.1	1.96e-02	0	55	0	53762588672	32	14277
2026-01-21 19:58:32.23	332.12	9.29	-30.6	-30.5	15.1	2.05e-02	0	55	0	54098132992	32	14501
2026-01-21 19:58:35.25	332.40	9.01	-30.6	-30.5	15.0	2.27e-02	0	55	0	54450454528	32	14535
2026-01-21 19:58:38.28	332.68	8.74	-30.7	-30.6	15.0	2.48e-02	0	55	0	54785998848	32	14708
2026-01-21 19:58:41.30	332.95	8.47	-30.8	-30.8	14.9	2.70e-02	0	55	0	55121543168	32	14982
2026-01-21 19:58:44.33	333.21	8.20	-30.8	-30.8	14.9	2.62e-02	0	55	0	55465476096	32	14951
2026-01-21 19:58:47.35	333.47	7.94	-31.4	-31.3	14.6	2.86e-02	0	55	0	55809409024	33	15074
2026-01-21 19:58:50.38	333.73	7.68	-31.3	-31.2	14.7	3.27e-02	0	55	0	56144953344	33	14864
2026-01-21 19:58:53.40	333.98	7.42	-31.3	-31.2	14.7	3.42e-02	0	55	0	56488886272	33	14840
2026-01-21 19:58:56.42	334.22	7.16	-31.4	-31.3	14.6	3.71e-02	0	55	0	56824430592	33	15012
2026-01-21 19:58:59.45	334.46	6.91	-31.7	-31.6	14.4	3.90e-02	0	56	0	57176752128	33	15642
2026-01-21 19:59:02.48	334.69	6.66	-31.9	-31.8	14.4	4.63e-02	0	55	0	57512296448	35	14207
2026-01-21 19:59:05.50	334.92	6.42	-31.9	-31.8	14.3	4.51e-02	0	55	0	57847840768	35	14170
2026-01-21 19:59:08.52	335.15	6.17	-32.0	-31.9	14.3	4.51e-02	0	56	0	58183385088	35	14373
2026-01-21 19:59:11.55	335.37	5.93	-32.1	-32.0	14.2	4.61e-02	0	55	0	58535706624	35	14565
2026-01-21 19:59:14.57	335.58	5.69	-32.0	-31.9	14.2	4.97e-02	0	55	0	58871250944	35	14400
2026-01-21 19:59:17.59	335.80	5.46	-32.1	-32.1	14.1	5.27e-02	0	55	0	59206795264	35	14643
2026-01-21 19:59:20.61	336.01	5.23	-32.2	-32.1	14.1	5.33e-02	0	55	0	59542339584	35	14716
2026-01-21 19:59:23.64	336.21	5.00	-44.3	-44.6	10.1	5.52e-02	4382	56	0	59886272512	58	16463
2026-01-21 19:59:26.66	336.41	4.77	-53.7	-55.8	6.2	5.52e-02	0	54	104	59886272512	77	20138
2026-01-21 19:59:29.69	336.61	4.54	-54.0	-56.1	6.2	5.52e-02	0	54	104	59886272512	78	19624
2026-01-21 19:59:32.71	336.80	4.32	-54.1	-56.2	6.2	5.52e-02	0	54	104	59886272512	78	19839
2026-01-21 19:59:35.74	336.99	4.10	-53.9	-56.0	6.2	6.77e-03	0	54	104	59886272512	78	19464
2026-01-21 19:59:38.76	337.18	3.88	-53.9	-56.1	6.2	6.77e-03	0	54	104	59886272512	78	19491
2026-01-21 19:59:41.79	337.36	3.66	-54.0	-56.1	6.2	6.77e-03	0	54	104	59886272512	78	19601
2026-01-21 19:59:44.81	337.54	3.45	-54.0	-56.1	6.2	0.00e+00	0	54	104	59886272512	78	19625
2026-01-21 19:59:47.84	337.72	3.23	-53.9	-56.0	6.2	0.00e+00	0	53	104	59886272512	78	19383
2026-01-21 19:59:50.85	337.90	3.02	-53.9	-56.0	6.2	0.00e+00	0	53	104	59886272512	78	19402
2026-01-21 19:59:53.88	338.07	2.81	-53.8	-56.0	6.2	0.00e+00	0	53	104	59886272512	78	19261
2026-01-21 19:59:56.91	338.24	2.61	-53.8	-56.0	6.2	0.00e+00	0	53	104	59886272512	78	19297
2026-01-21 19:59:59.93	338.40	2.40	-53.8	-55.9	6.2	0.00e+00	0	53	104	59886272512	78	19196
2026-01-21 20:00:02.95	338.57	2.20	-53.8	-55.9	6.2	0.00e+00	0	53	104	59886272512	78	19144

#Closed at: 2026-01-21 20:00:05
#Recorded file [59886 MB]: D:/lorett/data/31041_260121_224942.dat