passes_logs/2026/01/21/R3.2S_Murmansk/R3.2S_Murmansk__20260121_133555_FENGYUN_3D_rec.log

#Pass ID: 20260121_133555_FENGYUN 3D
#Satellite: FENGYUN 3D
#Configuration: FENGYUN 3D
#almurnet v.1.7.20251203
#Start time: 2026-01-21 13:35:55

#Version: 2.2.20231116
#Station: R3.2S_Murmansk
#Location: 33.079688 lon 68.888172 lat
#TLE: 1 43010U 17072A   26020.92362722 -.00000077  00000+0 -14488-4 0  9992
#TLE: 2 43010  98.9946 352.8312 0002486  99.3651 260.7806 14.19696535424099

#Time	Az	El	Level	Level2	SNR	BER	BlckErr	Temp	State	Recorded	gain1	gain2
2026-01-21 13:35:55.97	202.26	2.02	-50.3	-62.2	3.8	8.46e-01	0	38	0	0	71	14811
2026-01-21 13:35:58.99	202.44	2.20	-50.3	-62.2	3.8	8.46e-01	0	38	104	0	71	14767
2026-01-21 13:36:02.02	202.63	2.37	-50.3	-62.2	3.8	8.47e-01	0	38	104	0	71	14782
2026-01-21 13:36:05.04	202.82	2.55	-50.3	-62.2	3.8	8.47e-01	0	38	104	0	71	14746
2026-01-21 13:36:08.07	203.01	2.73	-50.3	-62.2	3.8	8.47e-01	0	38	104	0	71	14745
2026-01-21 13:36:11.09	203.20	2.91	-50.3	-62.2	3.8	8.46e-01	0	38	104	0	71	14788
2026-01-21 13:36:14.12	203.40	3.08	-50.3	-62.2	3.8	8.46e-01	0	39	104	0	71	14789
2026-01-21 13:36:17.14	203.59	3.26	-50.3	-62.2	3.8	8.46e-01	0	39	104	0	71	14753
2026-01-21 13:36:20.17	203.80	3.45	-50.3	-62.2	3.8	8.46e-01	0	39	104	0	71	14763
2026-01-21 13:36:23.19	204.00	3.63	-50.3	-62.2	3.8	8.45e-01	0	39	104	0	71	14742
2026-01-21 13:36:26.21	204.20	3.81	-50.3	-62.2	3.8	8.46e-01	0	39	104	0	71	14782
2026-01-21 13:36:29.23	204.41	3.99	-50.3	-62.2	3.8	8.45e-01	0	39	104	0	71	14758
2026-01-21 13:36:32.26	204.62	4.18	-50.3	-62.2	3.8	8.46e-01	0	39	104	0	71	14764
2026-01-21 13:36:35.28	204.83	4.37	-50.3	-62.2	3.8	8.47e-01	0	39	104	0	71	14753
2026-01-21 13:36:38.31	205.05	4.55	-50.3	-62.2	3.8	8.47e-01	0	39	104	0	71	14774
2026-01-21 13:36:41.34	205.26	4.74	-50.3	-62.2	3.8	8.46e-01	0	39	104	0	71	14761
2026-01-21 13:36:44.36	205.48	4.93	-50.3	-62.2	3.8	8.45e-01	0	39	104	0	71	14777
2026-01-21 13:36:47.38	205.71	5.12	-50.3	-62.2	3.8	8.47e-01	0	39	104	0	71	14770
2026-01-21 13:36:50.41	205.93	5.31	-50.3	-62.2	3.8	8.47e-01	0	39	104	0	71	14770
2026-01-21 13:36:53.44	206.16	5.50	-50.3	-62.2	3.8	8.47e-01	0	39	104	0	71	14793
2026-01-21 13:36:56.46	206.39	5.70	-50.3	-62.2	3.8	8.47e-01	0	39	104	0	71	14791
2026-01-21 13:36:59.49	206.63	5.89	-50.3	-62.2	3.8	8.46e-01	0	39	104	0	71	14756
2026-01-21 13:37:02.51	206.86	6.08	-50.3	-62.1	3.8	8.46e-01	0	39	104	0	71	14706
2026-01-21 13:37:05.54	207.10	6.28	-50.3	-62.2	3.8	8.47e-01	0	39	104	0	71	14805
2026-01-21 13:37:08.56	207.35	6.48	-50.3	-62.2	3.8	8.47e-01	0	39	104	0	71	14769
2026-01-21 13:37:11.59	207.59	6.68	-50.3	-62.2	3.8	8.45e-01	0	39	104	0	71	14838
2026-01-21 13:37:14.62	207.84	6.88	-50.3	-62.2	3.8	8.46e-01	0	40	104	0	71	14747
2026-01-21 13:37:17.64	208.10	7.08	-50.3	-62.2	3.8	8.46e-01	0	40	104	0	71	14825
2026-01-21 13:37:20.66	208.35	7.28	-50.3	-62.2	3.8	8.47e-01	0	39	104	0	71	14745
2026-01-21 13:37:23.69	208.61	7.48	-50.3	-62.2	3.8	8.46e-01	0	40	104	0	71	14777
2026-01-21 13:37:26.71	208.87	7.69	-50.3	-62.2	3.8	8.47e-01	0	40	104	0	71	14741
2026-01-21 13:37:29.74	209.14	7.89	-50.3	-62.2	3.8	8.45e-01	0	40	104	0	71	14810
2026-01-21 13:37:32.76	209.41	8.10	-50.3	-62.2	3.8	8.46e-01	0	40	104	0	71	14757
2026-01-21 13:37:35.79	209.69	8.30	-50.3	-62.2	3.8	8.45e-01	0	40	104	0	71	14828
2026-01-21 13:37:38.81	209.96	8.51	-50.3	-62.2	3.8	8.47e-01	0	40	104	0	71	14750
2026-01-21 13:37:41.84	210.25	8.72	-50.3	-62.2	3.8	8.46e-01	0	40	104	0	71	14784
2026-01-21 13:37:44.86	210.53	8.93	-50.3	-62.2	3.8	8.46e-01	0	40	104	0	71	14795
2026-01-21 13:37:47.89	210.82	9.15	-50.3	-62.2	3.8	8.46e-01	0	40	104	0	71	14772
2026-01-21 13:37:50.92	211.11	9.36	-50.3	-62.2	3.8	8.46e-01	0	40	104	0	71	14776
2026-01-21 13:37:53.94	211.41	9.57	-50.3	-62.2	3.8	8.46e-01	0	40	104	0	71	14752
2026-01-21 13:37:56.97	211.71	9.79	-50.3	-62.2	3.8	8.46e-01	0	40	104	0	71	14805
2026-01-21 13:38:00.00	212.02	10.01	-50.3	-62.2	3.8	8.46e-01	0	40	104	0	71	14769
2026-01-21 13:38:03.02	212.33	10.23	-50.3	-62.2	3.8	8.47e-01	0	40	104	0	71	14800
2026-01-21 13:38:06.04	212.65	10.44	-50.3	-62.2	3.8	8.46e-01	0	40	104	0	71	14746
2026-01-21 13:38:09.07	212.97	10.67	-50.3	-62.2	3.8	8.45e-01	0	40	104	0	71	14757
2026-01-21 13:38:12.10	213.29	10.89	-50.3	-62.2	3.8	8.45e-01	0	40	104	0	71	14796
2026-01-21 13:38:15.12	213.62	11.11	-50.3	-62.2	3.8	8.45e-01	0	40	104	0	71	14793
2026-01-21 13:38:18.14	213.95	11.33	-50.3	-62.2	3.8	8.46e-01	0	40	104	0	71	14778
2026-01-21 13:38:21.17	214.29	11.56	-50.3	-62.2	3.8	8.46e-01	0	40	104	0	71	14806
2026-01-21 13:38:24.19	214.64	11.79	-50.3	-62.2	3.8	8.47e-01	0	40	104	0	71	14779
2026-01-21 13:38:27.22	214.99	12.02	-50.3	-62.2	3.8	8.46e-01	0	40	104	0	71	14788
2026-01-21 13:38:30.24	215.34	12.24	-50.3	-62.2	3.8	8.46e-01	0	40	104	0	71	14774
2026-01-21 13:38:33.26	215.70	12.47	-50.3	-62.2	3.8	8.46e-01	0	40	104	0	71	14771
2026-01-21 13:38:36.29	216.06	12.71	-50.3	-62.2	3.8	8.46e-01	0	40	104	0	71	14824
2026-01-21 13:38:39.32	216.44	12.94	-50.3	-62.2	3.8	8.45e-01	0	40	104	0	71	14787
2026-01-21 13:38:42.34	216.81	13.17	-50.3	-62.2	3.8	8.46e-01	0	40	104	0	71	14794
2026-01-21 13:38:45.37	217.19	13.41	-50.3	-62.2	3.8	8.45e-01	0	40	104	0	71	14816
2026-01-21 13:38:48.40	217.58	13.64	-50.3	-62.2	3.8	8.48e-01	0	40	104	0	71	14832
2026-01-21 13:38:51.42	217.98	13.88	-50.3	-62.2	3.8	8.47e-01	0	40	104	0	71	14815
2026-01-21 13:38:54.45	218.38	14.12	-50.3	-62.2	3.8	8.45e-01	0	40	104	0	71	14800
2026-01-21 13:38:57.48	218.78	14.36	-50.3	-62.2	3.8	8.46e-01	0	40	104	0	71	14798
2026-01-21 13:39:00.50	219.20	14.60	-50.3	-62.2	3.8	8.45e-01	0	40	104	0	71	14790
2026-01-21 13:39:03.53	219.62	14.84	-50.3	-62.2	3.8	8.45e-01	0	40	104	0	71	14751
2026-01-21 13:39:06.55	220.04	15.08	-50.3	-62.2	3.8	8.45e-01	0	40	104	0	71	14790
2026-01-21 13:39:09.58	220.48	15.33	-50.3	-62.2	3.8	8.46e-01	0	40	104	0	71	14754
2026-01-21 13:39:12.60	220.91	15.57	-50.3	-62.2	3.8	8.46e-01	0	40	104	0	71	14828
2026-01-21 13:39:15.63	221.36	15.81	-50.3	-62.2	3.8	8.47e-01	0	40	104	0	71	14757
2026-01-21 13:39:18.66	221.82	16.06	-50.3	-62.2	3.8	8.47e-01	0	40	104	0	71	14801
2026-01-21 13:39:21.68	222.28	16.31	-50.3	-62.2	3.8	8.47e-01	0	40	104	0	71	14773
2026-01-21 13:39:24.71	222.75	16.55	-50.3	-62.2	3.8	8.47e-01	0	40	104	0	71	14794
2026-01-21 13:39:27.73	223.22	16.80	-50.3	-62.2	3.8	8.46e-01	0	40	104	0	71	14806
2026-01-21 13:39:30.75	223.70	17.05	-50.3	-62.2	3.8	8.46e-01	0	40	104	0	71	14783
2026-01-21 13:39:33.78	224.20	17.30	-50.3	-62.2	3.8	8.45e-01	0	40	104	0	71	14820
2026-01-21 13:39:36.80	224.70	17.55	-50.3	-62.2	3.8	8.47e-01	0	40	104	0	71	14816
2026-01-21 13:39:39.83	225.20	17.80	-50.3	-62.2	3.8	8.46e-01	0	40	104	0	71	14750
2026-01-21 13:39:42.86	225.72	18.05	-50.3	-62.2	3.8	8.46e-01	0	40	104	0	71	14837
2026-01-21 13:39:45.88	226.24	18.30	-50.3	-62.2	3.8	8.46e-01	0	40	104	0	71	14775
2026-01-21 13:39:48.91	226.78	18.55	-50.3	-62.2	3.8	8.47e-01	0	40	104	0	71	14797
2026-01-21 13:39:51.93	227.32	18.80	-50.3	-62.2	3.8	8.45e-01	0	40	104	0	71	14781
2026-01-21 13:39:54.96	227.87	19.06	-50.3	-62.2	3.8	8.46e-01	0	40	104	0	71	14786
2026-01-21 13:39:57.98	228.43	19.31	-50.3	-62.2	3.8	8.46e-01	0	40	104	0	71	14770
2026-01-21 13:40:01.01	228.99	19.56	-50.3	-62.2	3.8	8.48e-01	0	40	104	0	71	14765
2026-01-21 13:40:04.03	229.57	19.81	-50.3	-62.2	3.8	8.46e-01	0	40	104	0	71	14794
2026-01-21 13:40:07.06	230.16	20.06	-50.3	-62.2	3.8	8.46e-01	0	40	104	0	71	14814
2026-01-21 13:40:10.08	230.75	20.31	-50.3	-62.2	3.8	8.45e-01	0	40	104	0	71	14789
2026-01-21 13:40:13.11	231.36	20.56	-50.3	-62.2	3.8	8.46e-01	0	40	104	0	71	14800
2026-01-21 13:40:16.14	231.97	20.81	-50.3	-62.2	3.8	8.47e-01	0	40	104	0	71	14821
2026-01-21 13:40:19.16	232.60	21.06	-50.3	-62.2	3.8	8.46e-01	0	40	104	0	71	14786
2026-01-21 13:40:22.19	233.23	21.30	-50.3	-62.2	3.8	8.46e-01	0	40	104	0	71	14804
2026-01-21 13:40:25.21	233.88	21.55	-50.3	-62.2	3.8	8.46e-01	0	40	104	0	71	14780
2026-01-21 13:40:28.24	234.53	21.79	-50.3	-62.2	3.8	8.47e-01	0	40	104	0	71	14760
2026-01-21 13:40:31.27	235.20	22.04	-50.3	-62.2	3.8	8.45e-01	0	40	104	0	71	14792
2026-01-21 13:40:34.29	235.87	22.28	-50.3	-62.2	3.8	8.47e-01	0	40	104	0	71	14783
2026-01-21 13:40:37.32	236.55	22.52	-50.3	-62.2	3.8	8.45e-01	0	40	104	0	71	14809
2026-01-21 13:40:40.35	237.25	22.76	-50.3	-62.2	3.8	8.46e-01	0	40	104	0	71	14777
2026-01-21 13:40:43.37	237.95	22.99	-50.3	-62.2	3.8	8.46e-01	0	40	104	0	71	14816
2026-01-21 13:40:46.40	238.67	23.22	-50.3	-62.2	3.8	8.46e-01	0	40	104	0	71	14796
2026-01-21 13:40:49.42	239.40	23.46	-50.3	-62.2	3.8	8.46e-01	0	40	104	0	71	14802
2026-01-21 13:40:52.44	240.13	23.68	-50.3	-62.2	3.8	8.46e-01	0	40	104	0	71	14818
2026-01-21 13:40:55.47	240.88	23.91	-50.3	-62.2	3.8	8.45e-01	0	40	104	0	71	14782
2026-01-21 13:40:58.50	241.64	24.13	-50.3	-62.2	3.8	8.46e-01	0	40	104	0	71	14758
2026-01-21 13:41:01.53	242.41	24.35	-50.3	-62.2	3.8	8.46e-01	0	40	104	0	71	14797
2026-01-21 13:41:04.55	243.18	24.56	-50.3	-62.2	3.8	8.46e-01	0	40	104	0	71	14759
2026-01-21 13:41:07.57	243.97	24.78	-50.3	-62.2	3.8	8.45e-01	0	40	104	0	71	14841
2026-01-21 13:41:10.60	244.77	24.98	-50.3	-62.2	3.8	8.47e-01	0	40	104	0	71	14796
2026-01-21 13:41:13.62	245.58	25.19	-50.3	-62.2	3.8	8.46e-01	0	40	104	0	71	14795
2026-01-21 13:41:16.65	246.40	25.38	-50.3	-62.2	3.8	8.47e-01	0	40	104	0	71	14786
2026-01-21 13:41:19.68	247.23	25.58	-50.3	-62.2	3.8	8.45e-01	0	40	104	0	71	14818
2026-01-21 13:41:22.70	248.07	25.77	-50.3	-62.2	3.8	8.45e-01	0	40	104	0	71	14827
2026-01-21 13:41:25.73	248.92	25.95	-50.3	-62.2	3.8	8.47e-01	0	40	104	0	71	14784
2026-01-21 13:41:28.75	249.78	26.13	-50.3	-62.2	3.8	8.45e-01	0	40	104	0	71	14840
2026-01-21 13:41:31.78	250.64	26.30	-50.3	-62.2	3.8	8.47e-01	0	40	104	0	71	14798
2026-01-21 13:41:34.81	251.52	26.47	-50.3	-62.2	3.8	8.46e-01	0	40	104	0	71	14771
2026-01-21 13:41:37.83	252.41	26.63	-50.3	-62.2	3.8	8.46e-01	0	40	104	0	71	14816
2026-01-21 13:41:40.86	253.30	26.78	-50.3	-62.2	3.8	8.47e-01	0	40	104	0	71	14796
2026-01-21 13:41:43.88	254.20	26.93	-50.3	-62.2	3.8	8.47e-01	0	40	104	0	71	14795
2026-01-21 13:41:46.90	255.11	27.07	-50.3	-62.2	3.8	8.46e-01	0	40	104	0	71	14791
2026-01-21 13:41:49.93	256.03	27.21	-50.3	-62.2	3.8	8.45e-01	0	40	104	0	71	14770
2026-01-21 13:41:52.95	256.96	27.33	-50.3	-62.2	3.8	8.46e-01	0	40	104	0	71	14791
2026-01-21 13:41:55.98	257.89	27.45	-50.3	-62.2	3.8	8.46e-01	0	40	104	0	71	14829
2026-01-21 13:41:59.01	258.83	27.57	-50.3	-62.2	3.8	8.46e-01	0	40	104	0	71	14733
2026-01-21 13:42:02.03	259.77	27.67	-50.3	-62.2	3.8	8.46e-01	0	40	104	0	71	14765
2026-01-21 13:42:05.05	260.72	27.77	-50.3	-62.2	3.8	8.48e-01	0	40	104	0	71	14806
2026-01-21 13:42:08.08	261.68	27.86	-50.3	-62.2	3.8	8.46e-01	0	40	104	0	71	14837
2026-01-21 13:42:11.10	262.64	27.93	-50.3	-62.2	3.8	8.44e-01	0	40	104	0	71	14793
2026-01-21 13:42:14.12	263.61	28.01	-50.3	-62.2	3.8	8.47e-01	0	40	104	0	71	14762
2026-01-21 13:42:17.15	264.58	28.07	-50.3	-62.2	3.8	8.48e-01	0	40	104	0	71	14784
2026-01-21 13:42:20.17	265.55	28.12	-50.3	-62.2	3.8	8.47e-01	0	40	104	0	71	14788
2026-01-21 13:42:23.20	266.53	28.17	-50.3	-62.2	3.8	8.47e-01	0	40	104	0	71	14814
2026-01-21 13:42:26.22	267.50	28.21	-50.3	-62.2	3.8	8.45e-01	0	40	104	0	71	14819
2026-01-21 13:42:29.25	268.49	28.24	-50.3	-62.2	3.8	8.47e-01	0	40	104	0	71	14791
2026-01-21 13:42:32.28	269.47	28.26	-50.3	-62.2	3.8	8.47e-01	0	40	104	0	71	14841
2026-01-21 13:42:35.30	270.45	28.27	-50.3	-62.2	3.8	8.47e-01	0	40	104	0	71	14810
2026-01-21 13:42:38.33	271.43	28.27	-50.3	-62.2	3.8	8.47e-01	0	40	104	0	71	14802
2026-01-21 13:42:41.36	272.42	28.26	-50.3	-62.2	3.8	8.47e-01	0	40	104	0	71	14858
2026-01-21 13:42:44.38	273.40	28.24	-50.3	-62.2	3.8	8.46e-01	0	40	104	0	71	14777
2026-01-21 13:42:47.41	274.38	28.22	-50.3	-62.2	3.8	8.47e-01	0	40	104	0	71	14769
2026-01-21 13:42:50.43	275.36	28.18	-50.3	-62.2	3.8	8.47e-01	0	40	104	0	71	14847
2026-01-21 13:42:53.45	276.33	28.14	-50.3	-62.2	3.8	8.47e-01	0	40	104	0	71	14815
2026-01-21 13:42:56.48	277.31	28.09	-50.3	-62.2	3.8	8.45e-01	0	40	104	0	71	14772
2026-01-21 13:42:59.51	278.28	28.03	-50.3	-62.2	3.8	8.47e-01	0	40	104	0	71	14762
2026-01-21 13:43:02.53	279.25	27.96	-50.3	-62.2	3.8	8.47e-01	0	40	104	0	71	14843
2026-01-21 13:43:05.56	280.21	27.88	-50.3	-62.2	3.8	8.46e-01	0	40	104	0	71	14775
2026-01-21 13:43:08.58	281.16	27.80	-50.3	-62.2	3.8	8.47e-01	0	40	104	0	71	14788
2026-01-21 13:43:11.61	282.12	27.70	-50.3	-62.2	3.8	8.45e-01	0	40	104	0	71	14776
2026-01-21 13:43:14.63	283.06	27.60	-50.3	-62.2	3.8	8.47e-01	0	40	104	0	71	14796
2026-01-21 13:43:17.66	284.00	27.49	-50.3	-62.2	3.8	8.47e-01	0	40	104	0	71	14804
2026-01-21 13:43:20.69	284.94	27.38	-50.3	-62.2	3.8	8.46e-01	0	40	104	0	71	14841
2026-01-21 13:43:23.72	285.87	27.25	-50.3	-62.2	3.8	8.46e-01	0	40	104	0	71	14800
2026-01-21 13:43:26.74	286.78	27.12	-50.3	-62.2	3.8	8.46e-01	0	40	104	0	71	14797
2026-01-21 13:43:29.77	287.70	26.98	-50.3	-62.2	3.8	8.46e-01	0	40	104	0	71	14801
2026-01-21 13:43:32.79	288.60	26.84	-50.3	-62.2	3.8	8.46e-01	0	40	104	0	71	14791
2026-01-21 13:43:35.82	289.50	26.69	-50.3	-62.2	3.8	8.46e-01	0	41	104	0	71	14859
2026-01-21 13:43:38.85	290.38	26.53	-50.3	-62.2	3.8	8.46e-01	0	40	104	0	71	14812
2026-01-21 13:43:41.88	291.26	26.36	-50.3	-62.2	3.8	8.46e-01	0	40	104	0	71	14820
2026-01-21 13:43:44.90	292.13	26.19	-50.3	-62.2	3.8	8.46e-01	0	40	104	0	71	14806
2026-01-21 13:43:47.92	292.99	26.02	-50.3	-62.2	3.8	8.46e-01	0	40	104	0	71	14791
2026-01-21 13:43:50.95	293.84	25.83	-50.3	-62.2	3.8	8.46e-01	0	40	104	0	71	14792
2026-01-21 13:43:53.97	294.68	25.65	-50.3	-62.2	3.8	8.46e-01	0	40	104	0	71	14831
2026-01-21 13:43:57.00	295.51	25.46	-50.3	-62.2	3.8	8.45e-01	0	40	104	0	71	14811
2026-01-21 13:44:00.02	296.33	25.26	-50.3	-62.2	3.8	8.47e-01	0	40	104	0	71	14816
2026-01-21 13:44:03.05	297.14	25.06	-50.3	-62.2	3.8	8.46e-01	0	40	104	0	71	14810
2026-01-21 13:44:06.07	297.94	24.86	-50.3	-62.2	3.8	8.46e-01	0	40	104	0	71	14793
2026-01-21 13:44:09.10	298.73	24.65	-50.3	-62.2	3.8	8.46e-01	0	40	104	0	71	14784
2026-01-21 13:44:12.12	299.51	24.43	-50.3	-62.2	3.8	8.47e-01	0	40	104	0	71	14802
2026-01-21 13:44:15.14	300.28	24.22	-50.3	-62.2	3.8	8.46e-01	0	41	104	0	71	14825
2026-01-21 13:44:18.17	301.04	24.00	-50.3	-62.2	3.8	8.46e-01	0	40	104	0	71	14793
2026-01-21 13:44:21.20	301.79	23.77	-50.3	-62.2	3.8	8.46e-01	0	40	104	0	71	14790
2026-01-21 13:44:24.22	302.52	23.55	-50.3	-62.2	3.8	8.47e-01	0	40	104	0	71	14801
2026-01-21 13:44:27.25	303.25	23.32	-50.3	-62.2	3.8	8.45e-01	0	40	104	0	71	14817
2026-01-21 13:44:30.28	303.97	23.09	-50.3	-62.2	3.8	8.46e-01	0	40	104	0	71	14825
2026-01-21 13:44:33.31	304.68	22.85	-50.3	-62.2	3.8	8.46e-01	0	40	104	0	71	14772
2026-01-21 13:44:36.33	305.37	22.62	-50.3	-62.2	3.8	8.47e-01	0	40	104	0	71	14810
2026-01-21 13:44:39.35	306.06	22.38	-50.3	-62.2	3.8	8.46e-01	0	40	104	0	71	14833
2026-01-21 13:44:42.38	306.74	22.14	-50.3	-62.2	3.8	8.45e-01	0	40	104	0	71	14819
2026-01-21 13:44:45.41	307.40	21.90	-50.3	-62.2	3.8	8.46e-01	0	40	104	0	71	14814
2026-01-21 13:44:48.43	308.06	21.66	-50.3	-62.2	3.8	8.46e-01	0	40	104	0	71	14766
2026-01-21 13:44:51.46	308.70	21.41	-50.3	-62.2	3.8	8.45e-01	0	40	104	0	71	14829
2026-01-21 13:44:54.49	309.34	21.17	-50.3	-62.2	3.8	8.45e-01	0	40	104	0	71	14851
2026-01-21 13:44:57.51	309.97	20.92	-50.3	-62.2	3.8	8.46e-01	0	40	104	0	71	14780
2026-01-21 13:45:00.54	310.58	20.68	-50.3	-62.2	3.8	8.47e-01	0	40	104	0	71	14817
2026-01-21 13:45:03.56	311.19	20.43	-50.3	-62.2	3.8	8.46e-01	0	40	104	0	71	14790
2026-01-21 13:45:06.58	311.78	20.18	-50.3	-62.2	3.8	8.45e-01	0	41	104	0	71	14779
2026-01-21 13:45:09.61	312.37	19.93	-50.3	-62.2	3.8	8.46e-01	0	40	104	0	71	14823
2026-01-21 13:45:12.63	312.95	19.68	-50.3	-62.2	3.8	8.47e-01	0	40	104	0	71	14823
2026-01-21 13:45:15.66	313.52	19.43	-50.3	-62.2	3.8	8.46e-01	0	40	104	0	71	14777
2026-01-21 13:45:18.68	314.08	19.18	-50.3	-62.2	3.8	8.46e-01	0	40	104	0	71	14804
2026-01-21 13:45:21.71	314.63	18.93	-50.3	-62.2	3.8	8.45e-01	0	40	104	0	71	14835
2026-01-21 13:45:24.74	315.18	18.68	-50.3	-62.2	3.8	8.47e-01	0	40	104	0	71	14820
2026-01-21 13:45:27.76	315.71	18.43	-50.3	-62.2	3.8	8.45e-01	0	40	104	0	71	14790
2026-01-21 13:45:30.79	316.24	18.18	-50.3	-62.2	3.8	8.46e-01	0	40	104	0	71	14759
2026-01-21 13:45:33.81	316.75	17.93	-50.3	-62.2	3.8	8.46e-01	0	40	104	0	71	14846
2026-01-21 13:45:36.84	317.26	17.68	-50.3	-62.2	3.8	8.45e-01	0	40	104	0	71	14811
2026-01-21 13:45:39.87	317.77	17.44	-50.3	-62.2	3.8	8.46e-01	0	40	104	0	71	14821
2026-01-21 13:45:42.90	318.26	17.19	-50.3	-62.2	3.8	8.46e-01	0	40	104	0	71	14791
2026-01-21 13:45:45.92	318.74	16.94	-50.3	-62.2	3.8	8.46e-01	0	40	104	0	71	14829
2026-01-21 13:45:48.94	319.22	16.69	-50.3	-62.2	3.8	8.47e-01	0	40	104	0	71	14787
2026-01-21 13:45:51.97	319.69	16.45	-50.3	-62.2	3.8	8.47e-01	0	40	104	0	71	14768
2026-01-21 13:45:54.99	320.15	16.20	-50.3	-62.2	3.8	8.46e-01	0	40	104	0	71	14790
2026-01-21 13:45:58.02	320.61	15.96	-50.3	-62.2	3.8	8.47e-01	0	40	104	0	71	14806
2026-01-21 13:46:01.04	321.06	15.71	-50.3	-62.2	3.8	8.45e-01	0	40	104	0	71	14797
2026-01-21 13:46:04.07	321.50	15.47	-50.3	-62.2	3.8	8.46e-01	0	40	104	0	71	14816
2026-01-21 13:46:07.09	321.93	15.23	-50.3	-62.2	3.8	8.46e-01	0	40	104	0	71	14806
2026-01-21 13:46:10.12	322.36	14.99	-50.3	-62.2	3.8	8.46e-01	0	40	104	0	71	14813
2026-01-21 13:46:13.14	322.78	14.75	-50.3	-62.2	3.8	8.47e-01	0	40	104	0	71	14831
2026-01-21 13:46:16.17	323.20	14.51	-50.3	-62.2	3.8	8.45e-01	0	40	104	0	71	14747
2026-01-21 13:46:19.19	323.61	14.27	-50.3	-62.2	3.8	8.47e-01	0	40	104	0	71	14826
2026-01-21 13:46:22.21	324.01	14.03	-50.3	-62.2	3.8	8.46e-01	0	40	104	0	71	14799
2026-01-21 13:46:25.24	324.41	13.80	-50.3	-62.2	3.8	8.46e-01	0	40	104	0	71	14743
2026-01-21 13:46:28.26	324.80	13.56	-50.3	-62.2	3.8	8.45e-01	0	40	104	0	71	14786
2026-01-21 13:46:31.29	325.18	13.33	-50.3	-62.2	3.8	8.46e-01	0	40	104	0	71	14836
2026-01-21 13:46:34.31	325.56	13.10	-50.3	-62.2	3.8	8.45e-01	0	40	104	0	71	14804
2026-01-21 13:46:37.34	325.93	12.87	-50.3	-62.2	3.8	8.47e-01	0	40	104	0	71	14826
2026-01-21 13:46:40.36	326.30	12.64	-50.3	-62.2	3.8	8.45e-01	0	40	104	0	71	14793
2026-01-21 13:46:43.38	326.66	12.41	-50.3	-62.2	3.8	8.45e-01	0	40	104	0	71	14836
2026-01-21 13:46:46.41	327.02	12.18	-50.3	-62.2	3.8	8.46e-01	0	40	104	0	71	14800
2026-01-21 13:46:49.44	327.37	11.95	-50.3	-62.2	3.8	8.46e-01	0	40	104	0	71	14806
2026-01-21 13:46:52.47	327.71	11.72	-50.3	-62.2	3.8	8.45e-01	0	40	104	0	71	14792
2026-01-21 13:46:55.49	328.05	11.50	-50.3	-62.2	3.8	8.47e-01	0	40	104	0	71	14788
2026-01-21 13:46:58.51	328.39	11.28	-50.3	-62.2	3.8	8.47e-01	0	40	104	0	71	14821
2026-01-21 13:47:01.54	328.72	11.06	-50.2	-62.2	3.8	8.46e-01	0	40	104	0	71	14734
2026-01-21 13:47:04.57	329.05	10.83	-50.2	-62.2	3.8	8.46e-01	0	40	104	0	71	14741
2026-01-21 13:47:07.59	329.37	10.61	-50.2	-62.1	3.8	8.47e-01	0	40	104	0	71	14704
2026-01-21 13:47:10.62	329.69	10.40	-50.1	-62.2	3.8	8.47e-01	0	40	104	0	71	14762
2026-01-21 13:47:13.65	330.00	10.18	-49.9	-62.2	3.8	8.45e-01	0	40	104	0	71	14747
2026-01-21 13:47:16.67	330.31	9.96	-50.1	-62.2	3.8	8.46e-01	0	40	104	0	71	14764
2026-01-21 13:47:19.70	330.61	9.75	-50.3	-62.2	3.8	8.44e-01	0	40	104	0	71	14720
2026-01-21 13:47:22.72	330.91	9.53	-50.2	-62.1	3.8	8.46e-01	0	40	104	0	71	14613
2026-01-21 13:47:25.75	331.21	9.32	-50.2	-62.1	3.8	8.46e-01	0	40	104	0	71	14559
2026-01-21 13:47:28.78	331.50	9.11	-50.3	-62.1	3.8	8.46e-01	0	40	104	0	71	14614
2026-01-21 13:47:31.81	331.79	8.90	-50.3	-62.1	3.8	8.45e-01	0	40	104	0	71	14678
2026-01-21 13:47:34.83	332.07	8.69	-50.3	-62.2	3.8	8.46e-01	0	40	104	0	71	14801
2026-01-21 13:47:37.85	332.35	8.48	-50.3	-62.2	3.8	8.46e-01	0	40	104	0	71	14758
2026-01-21 13:47:40.87	332.63	8.28	-50.3	-62.2	3.8	8.47e-01	0	40	104	0	71	14772
2026-01-21 13:47:43.90	332.90	8.07	-50.3	-62.2	3.8	8.46e-01	0	41	104	0	71	14728
2026-01-21 13:47:46.92	333.17	7.87	-50.3	-62.2	3.8	8.46e-01	0	40	104	0	71	14748
2026-01-21 13:47:49.95	333.44	7.66	-50.3	-62.2	3.8	8.46e-01	0	40	104	0	71	14790
2026-01-21 13:47:52.97	333.70	7.46	-50.3	-62.2	3.8	8.46e-01	0	40	104	0	71	14709
2026-01-21 13:47:56.00	333.96	7.26	-50.3	-62.2	3.8	8.46e-01	0	40	104	0	71	14742
2026-01-21 13:47:59.02	334.21	7.06	-50.3	-62.2	3.8	8.46e-01	0	40	104	0	71	14762
2026-01-21 13:48:02.05	334.46	6.86	-50.3	-62.2	3.8	8.46e-01	0	40	104	0	71	14747
2026-01-21 13:48:05.08	334.71	6.66	-50.3	-62.2	3.8	8.47e-01	0	40	104	0	71	14759
2026-01-21 13:48:08.10	334.96	6.47	-50.3	-62.2	3.8	8.46e-01	0	40	104	0	71	14720
2026-01-21 13:48:11.13	335.20	6.27	-50.3	-62.2	3.8	8.46e-01	0	40	104	0	71	14740
2026-01-21 13:48:14.15	335.44	6.08	-50.3	-62.1	3.8	8.45e-01	0	40	104	0	71	14695
2026-01-21 13:48:17.18	335.68	5.88	-50.3	-62.2	3.8	8.46e-01	0	40	104	0	71	14712
2026-01-21 13:48:20.20	335.91	5.69	-50.3	-62.2	3.8	8.45e-01	0	40	104	0	71	14780
2026-01-21 13:48:23.23	336.14	5.50	-50.3	-62.2	3.8	8.46e-01	0	40	104	0	71	14792
2026-01-21 13:48:26.25	336.37	5.31	-50.3	-62.2	3.8	8.46e-01	0	40	104	0	71	14739
2026-01-21 13:48:29.27	336.59	5.12	-50.3	-62.2	3.8	8.46e-01	0	40	104	0	71	14773
2026-01-21 13:48:32.30	336.82	4.93	-50.3	-62.2	3.8	8.46e-01	0	40	104	0	71	14755
2026-01-21 13:48:35.32	337.04	4.75	-50.3	-62.2	3.8	8.45e-01	0	40	104	0	71	14741
2026-01-21 13:48:38.35	337.25	4.56	-50.3	-62.2	3.8	8.47e-01	0	40	104	0	71	14834
2026-01-21 13:48:41.37	337.47	4.37	-50.3	-62.2	3.8	8.46e-01	0	40	104	0	71	14784
2026-01-21 13:48:44.40	337.68	4.19	-50.3	-62.2	3.8	8.46e-01	0	40	104	0	71	14786
2026-01-21 13:48:47.42	337.89	4.01	-50.3	-62.2	3.8	8.47e-01	0	40	104	0	71	14788
2026-01-21 13:48:50.45	338.10	3.82	-50.3	-62.2	3.8	8.46e-01	0	40	104	0	71	14815
2026-01-21 13:48:53.48	338.30	3.64	-50.3	-62.2	3.8	8.46e-01	0	40	104	0	71	14793
2026-01-21 13:48:56.50	338.51	3.46	-50.3	-62.2	3.8	8.46e-01	0	40	104	0	71	14802
2026-01-21 13:48:59.53	338.71	3.28	-50.3	-62.2	3.8	8.46e-01	0	40	104	0	71	14728
2026-01-21 13:49:02.55	338.90	3.10	-50.3	-62.2	3.8	8.45e-01	0	40	104	0	71	14722
2026-01-21 13:49:05.58	339.10	2.93	-50.3	-62.2	3.8	8.45e-01	0	40	104	0	71	14736
2026-01-21 13:49:08.60	339.29	2.75	-50.3	-62.2	3.8	8.46e-01	0	40	104	0	71	14738
2026-01-21 13:49:11.62	339.49	2.57	-50.3	-62.2	3.8	8.46e-01	0	40	104	0	71	14732
2026-01-21 13:49:14.65	339.68	2.40	-50.3	-62.2	3.8	8.47e-01	0	40	104	0	71	14748
2026-01-21 13:49:17.67	339.86	2.22	-50.3	-62.2	3.8	8.46e-01	0	40	104	0	71	14818
2026-01-21 13:49:20.70	340.05	2.05	-50.3	-62.2	3.8	8.45e-01	0	40	104	0	71	14778

#Closed at: 2026-01-21 13:49:22
#Recorded file [0 MB]: D:/lorett/data/31041_260121_163555.dat