passes_logs/2026/01/21/R3.2S_Murmansk/R3.2S_Murmansk__20260121_025333_AQUA_rec.log

#Pass ID: 20260121_025333_AQUA
#Satellite: AQUA
#Configuration: AQUA
#almurnet v.1.7.20251203
#Start time: 2026-01-21 02:53:35

#Version: 2.2.20231116
#Station: R3.2S_Murmansk
#Location: 33.079688 lon 68.888172 lat
#TLE: 1 27424U 02022A   26020.30984080  .00001497  00000+0  30942-3 0  9998
#TLE: 2 27424  98.4092 346.8266 0001984  71.7888  69.0903 14.61835321261661

#Time	Az	El	Level	Level2	SNR	BER	BlckErr	Temp	State	Recorded	gain1	gain2
2026-01-21 02:53:35.55	25.22	2.15	-55.9	-73.7	3.8	7.46e-01	0	40	0	0	82	29489
2026-01-21 02:53:39.58	25.16	2.42	-55.8	-73.6	3.8	7.46e-01	0	40	104	0	82	29266
2026-01-21 02:53:43.62	25.10	2.69	-55.8	-73.6	3.8	7.46e-01	0	40	104	0	82	29231
2026-01-21 02:53:47.65	25.04	2.96	-55.7	-73.6	3.8	7.49e-01	0	40	104	0	82	29123
2026-01-21 02:53:51.68	24.98	3.24	-55.7	-73.5	3.8	7.47e-01	0	40	104	0	82	29000
2026-01-21 02:53:55.72	24.92	3.52	-55.7	-73.5	3.8	7.46e-01	0	40	104	0	82	28873
2026-01-21 02:53:59.75	24.85	3.80	-55.7	-73.5	3.8	7.43e-01	0	40	104	0	82	28822
2026-01-21 02:54:03.78	24.79	4.09	-55.7	-73.5	3.8	7.45e-01	0	40	104	0	82	28769
2026-01-21 02:54:07.81	24.72	4.38	-55.8	-73.6	3.8	7.43e-01	0	40	104	0	82	29067
2026-01-21 02:54:11.85	24.65	4.67	-55.9	-73.7	3.8	7.43e-01	0	40	104	0	82	29502
2026-01-21 02:54:15.89	24.58	4.97	-55.8	-73.6	3.8	7.45e-01	0	40	104	0	82	29193
2026-01-21 02:54:19.92	24.50	5.27	-55.7	-73.4	3.8	7.42e-01	0	40	104	0	82	28593
2026-01-21 02:54:23.95	24.43	5.58	-55.5	-73.3	3.8	7.48e-01	0	40	104	0	82	28195
2026-01-21 02:54:27.98	24.35	5.89	-54.9	-72.7	3.8	7.47e-01	0	40	104	0	81	27816
2026-01-21 02:54:32.02	24.27	6.20	-49.4	-51.9	19.4	5.99e-01	0	40	0	3670016	69	5065
2026-01-21 02:54:36.04	24.18	6.51	-50.7	-53.9	17.5	6.00e-01	0	40	0	11534336	71	5661
2026-01-21 02:54:40.07	24.10	6.83	-45.9	-47.3	23.8	6.01e-01	0	40	0	18874368	63	4214
2026-01-21 02:54:44.11	24.01	7.16	-45.4	-46.7	24.6	5.98e-01	0	40	0	26214400	62	4164
2026-01-21 02:54:48.14	23.92	7.49	-45.2	-46.5	24.8	6.00e-01	0	39	0	34078720	62	4072
2026-01-21 02:54:52.17	23.83	7.83	-45.0	-46.2	24.9	6.00e-01	0	40	0	41418752	61	4192
2026-01-21 02:54:56.20	23.73	8.16	-44.7	-46.0	25.2	6.01e-01	0	39	0	49283072	61	4061
2026-01-21 02:55:00.23	23.63	8.51	-44.7	-46.0	25.3	6.00e-01	0	40	0	56623104	61	4057
2026-01-21 02:55:04.27	23.53	8.86	-44.9	-46.1	25.2	5.99e-01	0	40	0	64487424	61	4133
2026-01-21 02:55:08.30	23.42	9.22	-44.7	-45.9	25.4	6.01e-01	0	40	0	71827456	61	4022
2026-01-21 02:55:12.33	23.31	9.58	-44.5	-45.7	25.6	6.01e-01	0	40	0	79167488	61	3941
2026-01-21 02:55:16.36	23.20	9.94	-44.4	-45.6	25.6	6.01e-01	0	40	0	87031808	60	4141
2026-01-21 02:55:20.39	23.09	10.32	-44.3	-45.5	25.7	6.02e-01	0	40	0	94371840	60	4085
2026-01-21 02:55:24.42	22.97	10.69	-44.3	-45.5	25.9	5.99e-01	0	40	0	102236160	60	4061
2026-01-21 02:55:28.46	22.84	11.08	-44.2	-45.4	26.0	6.02e-01	0	40	0	109576192	60	4030
2026-01-21 02:55:32.49	22.72	11.47	-44.3	-45.5	25.9	6.01e-01	0	39	0	117440512	60	4087
2026-01-21 02:55:36.52	22.59	11.87	-44.3	-45.5	26.0	6.02e-01	0	40	0	124780544	60	4057
2026-01-21 02:55:40.56	22.45	12.28	-44.2	-45.4	26.2	6.02e-01	0	40	0	132120576	60	4006
2026-01-21 02:55:44.59	22.31	12.69	-44.2	-45.3	26.2	6.02e-01	0	39	0	139984896	60	3992
2026-01-21 02:55:48.63	22.16	13.12	-44.0	-45.1	26.3	6.01e-01	0	39	0	147324928	59	4134
2026-01-21 02:55:52.66	22.01	13.55	-44.1	-45.2	26.3	6.04e-01	0	40	0	155189248	59	4181
2026-01-21 02:55:56.69	21.86	13.98	-43.8	-44.9	26.5	6.00e-01	0	40	0	162529280	59	4022
2026-01-21 02:56:00.70	21.70	14.43	-43.7	-44.8	26.7	6.03e-01	0	40	0	169869312	59	3978
2026-01-21 02:56:04.73	21.53	14.88	-43.7	-44.9	26.6	6.00e-01	0	39	0	177733632	59	4012
2026-01-21 02:56:08.77	21.36	15.35	-43.8	-45.0	26.5	6.00e-01	0	39	0	185073664	59	4060
2026-01-21 02:56:12.80	21.18	15.82	-43.9	-45.1	26.4	6.03e-01	0	40	0	192937984	59	4099
2026-01-21 02:56:16.83	20.99	16.31	-44.1	-45.2	26.4	6.00e-01	0	40	0	200278016	59	4167
2026-01-21 02:56:20.86	20.80	16.80	-44.1	-45.2	26.3	6.03e-01	0	40	0	208142336	59	4172
2026-01-21 02:56:24.89	20.60	17.31	-44.0	-45.2	26.4	6.00e-01	0	40	0	215482368	59	4149
2026-01-21 02:56:28.93	20.39	17.83	-43.9	-45.0	26.5	6.01e-01	0	40	0	222822400	59	4070
2026-01-21 02:56:32.96	20.17	18.36	-43.7	-44.9	26.6	6.02e-01	0	39	0	230686720	59	4006
2026-01-21 02:56:36.99	19.94	18.90	-43.4	-44.5	27.0	5.99e-01	0	40	0	238026752	58	4080
2026-01-21 02:56:41.02	19.71	19.46	-43.6	-44.7	26.9	6.02e-01	0	40	0	245891072	58	4148
2026-01-21 02:56:45.05	19.46	20.02	-44.2	-54.9	3.9	7.38e-01	0	40	104	251658240	59	12671
2026-01-21 02:56:49.09	19.21	20.61	-51.7	-64.4	3.8	7.42e-01	0	40	104	251658240	74	15958
2026-01-21 02:56:53.11	18.94	21.20	-44.9	-55.6	3.9	7.41e-01	0	40	104	251658240	61	12254
2026-01-21 02:56:57.14	18.66	21.82	-50.6	-62.5	3.8	7.46e-01	0	40	104	251658240	73	13679
2026-01-21 02:57:01.18	18.37	22.44	-44.4	-55.0	3.8	7.48e-01	0	40	104	251658240	60	12170
2026-01-21 02:57:05.21	18.06	23.09	-50.6	-62.6	3.9	7.46e-01	0	39	104	251658240	73	13846
2026-01-21 02:57:09.24	17.74	23.75	-44.7	-55.4	3.8	7.46e-01	0	40	104	251658240	61	12057
2026-01-21 02:57:13.27	17.41	24.43	-49.5	-61.2	3.8	7.45e-01	0	40	104	251658240	71	13120
2026-01-21 02:57:17.30	17.06	25.13	-44.7	-55.4	3.8	7.43e-01	0	40	104	251658240	61	12001
2026-01-21 02:57:21.34	16.69	25.84	-49.6	-61.2	3.8	7.45e-01	0	40	104	251658240	71	13251
2026-01-21 02:57:25.37	16.30	26.58	-44.5	-55.3	3.8	7.45e-01	0	40	104	251658240	61	11894
2026-01-21 02:57:29.40	15.89	27.34	-48.1	-59.3	3.9	7.41e-01	0	40	104	251658240	68	12525
2026-01-21 02:57:33.44	15.46	28.12	-44.0	-54.6	3.8	7.45e-01	0	40	104	251658240	59	12369
2026-01-21 02:57:37.47	15.01	28.92	-47.2	-58.2	3.8	7.43e-01	0	40	104	251658240	66	12478
2026-01-21 02:57:41.51	14.53	29.74	-44.1	-54.7	3.8	7.46e-01	0	40	104	251658240	60	11809
2026-01-21 02:57:45.54	14.03	30.59	-46.2	-57.1	3.8	7.44e-01	0	40	104	251658240	64	12320
2026-01-21 02:57:49.57	13.49	31.47	-44.7	-55.4	3.8	7.43e-01	0	40	104	251658240	61	11961
2026-01-21 02:57:53.60	12.93	32.36	-46.8	-57.7	3.8	7.43e-01	0	40	104	251658240	64	13259
2026-01-21 02:57:57.63	12.33	33.29	-44.8	-55.5	3.8	7.43e-01	0	40	104	251658240	61	12142
2026-01-21 02:58:01.66	11.69	34.24	-46.5	-57.4	3.8	7.46e-01	0	40	104	251658240	64	12683
2026-01-21 02:58:05.69	11.01	35.22	-45.0	-55.7	3.8	7.42e-01	0	40	104	251658240	62	11760
2026-01-21 02:58:09.72	10.28	36.23	-48.9	-60.1	3.8	7.44e-01	0	40	104	251658240	69	13088
2026-01-21 02:58:13.75	9.51	37.27	-46.3	-57.2	3.8	7.44e-01	0	40	104	251658240	64	12455
2026-01-21 02:58:17.78	8.69	38.33	-50.2	-61.8	3.9	7.46e-01	0	40	104	251658240	70	14909
2026-01-21 02:58:21.81	7.80	39.43	-47.3	-58.3	3.8	7.41e-01	0	40	104	251658240	66	12555
2026-01-21 02:58:25.84	6.85	40.55	-49.6	-60.9	3.8	7.45e-01	0	40	104	251658240	69	14356
2026-01-21 02:58:29.87	5.83	41.70	-46.5	-57.3	3.8	7.47e-01	0	40	104	251658240	65	11909
2026-01-21 02:58:33.90	4.73	42.88	-49.1	-60.3	3.8	7.41e-01	0	40	104	251658240	68	14081
2026-01-21 02:58:37.93	3.54	44.09	-46.1	-56.9	3.9	7.44e-01	0	40	104	251658240	64	12055
2026-01-21 02:58:41.97	2.25	45.33	-50.5	-62.3	3.8	7.40e-01	0	40	104	251658240	72	14206
2026-01-21 02:58:46.00	0.86	46.59	-46.2	-57.1	3.8	7.43e-01	0	40	104	251658240	64	12246
2026-01-21 02:58:50.03	359.34	47.86	-49.1	-60.2	3.8	7.43e-01	0	40	104	251658240	68	14040
2026-01-21 02:58:54.06	357.69	49.16	-45.3	-56.1	3.8	7.39e-01	0	40	104	251658240	62	12312
2026-01-21 02:58:58.09	355.90	50.46	-49.3	-60.8	3.9	7.43e-01	0	40	104	251658240	70	13316
2026-01-21 02:59:02.13	353.93	51.78	-45.7	-56.4	3.8	7.43e-01	0	40	104	251658240	63	12073
2026-01-21 02:59:06.16	351.78	53.09	-47.0	-58.1	3.8	7.44e-01	0	40	104	251658240	66	12240
2026-01-21 02:59:10.19	349.43	54.39	-44.6	-55.3	3.8	7.43e-01	0	40	104	251658240	61	11824
2026-01-21 02:59:14.23	346.85	55.68	-47.3	-58.2	3.8	7.45e-01	0	40	104	251658240	66	12443
2026-01-21 02:59:18.26	344.02	56.93	-45.7	-56.5	3.8	7.44e-01	0	40	104	251658240	63	12127
2026-01-21 02:59:22.30	340.92	58.14	-46.8	-57.5	3.9	7.45e-01	0	40	104	251658240	65	12100
2026-01-21 02:59:26.33	337.54	59.28	-46.4	-57.2	3.8	7.47e-01	0	40	104	251658240	64	12484
2026-01-21 02:59:30.36	333.85	60.35	-47.1	-58.2	3.8	7.42e-01	0	40	104	251658240	66	12409
2026-01-21 02:59:34.39	329.86	61.31	-47.2	-58.1	3.8	7.45e-01	0	40	104	251658240	64	13833
2026-01-21 02:59:38.43	325.55	62.17	-47.6	-58.5	3.9	7.42e-01	0	40	104	251658240	67	12133
2026-01-21 02:59:42.46	320.97	62.88	-47.3	-58.1	3.8	7.43e-01	0	40	104	251658240	65	13038
2026-01-21 02:59:46.49	316.13	63.44	-47.7	-58.8	3.8	7.46e-01	0	40	104	251658240	67	12569
2026-01-21 02:59:50.53	311.08	63.82	-48.2	-59.2	3.8	7.43e-01	0	40	104	251658240	66	13934
2026-01-21 02:59:54.56	305.92	64.02	-48.3	-59.2	3.8	7.45e-01	0	40	104	251658240	67	13111
2026-01-21 02:59:58.59	300.70	64.03	-50.2	-61.5	3.8	7.44e-01	0	40	104	251658240	70	14411
2026-01-21 03:00:02.63	295.51	63.85	-48.5	-59.5	3.8	7.43e-01	0	40	104	251658240	68	12889
2026-01-21 03:00:06.66	290.46	63.49	-52.5	-65.4	3.8	7.45e-01	0	40	104	251658240	75	16952
2026-01-21 03:00:10.69	285.59	62.95	-48.9	-60.1	3.8	7.41e-01	0	40	104	251658240	68	13779
2026-01-21 03:00:14.72	280.98	62.25	-48.7	-60.4	3.9	7.45e-01	0	39	104	251658240	68	14231
2026-01-21 03:00:18.76	276.63	61.41	-50.4	-62.0	3.8	7.44e-01	0	40	104	251658240	71	14385
2026-01-21 03:00:22.79	272.61	60.45	-50.4	-61.8	3.8	7.42e-01	0	40	104	251658240	71	14131
2026-01-21 03:00:26.82	268.89	59.39	-49.8	-60.8	3.8	7.46e-01	0	40	104	251658240	69	14117
2026-01-21 03:00:30.86	265.47	58.25	-47.0	-58.2	3.8	7.47e-01	0	40	104	251658240	65	13162
2026-01-21 03:00:34.89	262.34	57.05	-50.0	-61.4	3.8	7.44e-01	0	40	104	251658240	70	14241
2026-01-21 03:00:38.92	259.48	55.80	-48.1	-59.3	3.8	7.44e-01	0	40	104	251658240	66	14054
2026-01-21 03:00:42.95	256.88	54.51	-49.4	-60.7	3.8	7.47e-01	0	40	104	251658240	69	14044
2026-01-21 03:00:46.98	254.50	53.21	-48.5	-60.1	3.8	7.45e-01	0	40	104	251658240	67	14554
2026-01-21 03:00:51.02	252.33	51.89	-49.0	-60.2	3.8	7.43e-01	0	40	104	251658240	68	13986
2026-01-21 03:00:55.05	250.34	50.58	-47.2	-58.2	3.8	7.42e-01	0	40	104	251658240	65	13177
2026-01-21 03:00:59.08	248.53	49.27	-48.7	-59.8	3.8	7.45e-01	0	40	104	251658240	68	13370
2026-01-21 03:01:03.11	246.86	47.97	-45.2	-56.0	3.8	7.43e-01	0	40	104	251658240	61	12824
2026-01-21 03:01:07.14	245.33	46.69	-48.4	-59.1	3.8	7.41e-01	0	40	104	251658240	68	12365
2026-01-21 03:01:11.18	243.92	45.42	-50.3	-62.3	3.8	7.45e-01	0	40	104	251658240	72	14106
2026-01-21 03:01:15.21	242.62	44.18	-48.6	-59.8	3.8	7.41e-01	0	40	104	251658240	68	13366
2026-01-21 03:01:19.24	241.42	42.97	-44.8	-55.4	3.8	7.43e-01	0	40	104	251658240	61	12073
2026-01-21 03:01:23.27	240.31	41.78	-48.8	-60.0	3.8	7.45e-01	0	40	104	251658240	68	13685
2026-01-21 03:01:27.31	239.28	40.62	-46.0	-56.9	3.8	7.39e-01	0	40	104	251658240	64	11968
2026-01-21 03:01:31.34	238.32	39.49	-48.5	-59.6	3.8	7.42e-01	0	40	104	251658240	69	12349
2026-01-21 03:01:35.37	237.43	38.39	-47.2	-58.1	3.9	7.45e-01	0	40	104	251658240	66	12315
2026-01-21 03:01:39.40	236.59	37.32	-47.9	-58.7	3.9	7.44e-01	0	39	104	251658240	67	12504
2026-01-21 03:01:43.43	235.81	36.28	-46.6	-57.6	3.8	7.46e-01	0	40	104	251658240	65	12354
2026-01-21 03:01:47.47	235.08	35.26	-47.3	-58.4	3.9	7.44e-01	0	40	104	251658240	66	12743
2026-01-21 03:01:51.50	234.40	34.28	-45.2	-55.9	3.8	7.44e-01	0	39	104	251658240	62	12042
2026-01-21 03:01:55.53	233.75	33.32	-46.0	-57.0	3.8	7.42e-01	0	39	104	251658240	64	12106
2026-01-21 03:01:59.56	233.15	32.39	-45.9	-56.6	3.8	7.45e-01	0	40	104	251658240	62	13027
2026-01-21 03:02:03.59	232.58	31.49	-44.4	-54.7	3.8	7.46e-01	0	39	104	251658240	60	11741
2026-01-21 03:02:07.63	232.04	30.61	-44.7	-55.3	3.8	7.43e-01	0	39	104	251658240	60	12644
2026-01-21 03:02:11.66	231.53	29.75	-44.9	-55.8	3.8	7.47e-01	0	39	104	251658240	61	12547
2026-01-21 03:02:15.69	231.05	28.92	-46.9	-57.9	3.8	7.44e-01	0	39	104	251658240	64	13415
2026-01-21 03:02:19.73	230.59	28.12	-44.5	-55.2	3.8	7.46e-01	0	39	104	251658240	61	11810
2026-01-21 03:02:23.76	230.16	27.34	-46.7	-57.4	3.8	7.42e-01	0	39	104	251658240	63	13484
2026-01-21 03:02:27.80	229.74	26.57	-45.2	-55.9	3.9	7.42e-01	0	39	104	251658240	62	12039
2026-01-21 03:02:31.83	229.35	25.83	-46.8	-57.7	3.8	7.42e-01	0	39	104	251658240	64	13171
2026-01-21 03:02:35.87	228.98	25.11	-45.2	-55.9	3.8	7.43e-01	0	39	104	251658240	62	11966
2026-01-21 03:02:39.91	228.63	24.41	-47.5	-58.5	3.8	7.46e-01	0	39	104	251658240	65	13709
2026-01-21 03:02:43.94	228.29	23.73	-45.2	-56.0	3.8	7.43e-01	0	39	104	251658240	62	12224
2026-01-21 03:02:47.98	227.96	23.06	-48.5	-59.7	3.8	7.46e-01	0	39	104	251658240	67	13927
2026-01-21 03:02:52.01	227.66	22.41	-45.4	-56.1	3.8	7.43e-01	0	39	104	251658240	62	12301
2026-01-21 03:02:56.04	227.36	21.78	-47.4	-58.6	3.8	7.42e-01	0	39	104	251658240	66	13015
2026-01-21 03:03:00.08	227.08	21.17	-45.3	-56.2	3.8	7.44e-01	0	39	104	251658240	62	12453
2026-01-21 03:03:04.11	226.81	20.57	-47.2	-58.2	3.8	7.43e-01	0	39	104	251658240	65	13216
2026-01-21 03:03:08.15	226.55	19.98	-45.2	-55.8	3.8	7.45e-01	0	39	104	251658240	62	11890
2026-01-21 03:03:12.18	226.30	19.41	-46.1	-57.1	3.9	7.47e-01	0	39	104	251658240	64	12262
2026-01-21 03:03:16.22	226.06	18.85	-45.2	-55.9	3.8	7.47e-01	0	39	104	251658240	62	11981
2026-01-21 03:03:20.25	225.84	18.31	-45.9	-56.6	3.8	7.46e-01	0	39	104	251658240	63	12343
2026-01-21 03:03:24.28	225.62	17.78	-44.2	-45.3	16.3	6.02e-01	1	39	104	251658240	60	3971
2026-01-21 03:03:28.32	225.40	17.26	-44.2	-45.3	26.3	6.04e-01	0	39	0	258473984	60	3998
2026-01-21 03:03:32.36	225.20	16.75	-44.1	-45.3	26.3	6.00e-01	0	39	0	266338304	60	3974
2026-01-21 03:03:36.39	225.00	16.25	-44.2	-45.4	26.2	6.02e-01	0	39	0	273678336	60	4017
2026-01-21 03:03:40.43	224.82	15.76	-44.2	-45.4	26.2	6.03e-01	0	39	0	281018368	60	4027
2026-01-21 03:03:44.46	224.63	15.29	-44.3	-45.5	26.1	6.05e-01	0	39	0	288882688	60	4073
2026-01-21 03:03:48.49	224.46	14.82	-44.5	-45.7	25.9	6.02e-01	0	39	0	296222720	60	4146
2026-01-21 03:03:52.52	224.29	14.36	-44.3	-45.4	26.1	6.05e-01	0	39	0	303562752	60	4032
2026-01-21 03:03:56.55	224.13	13.91	-44.4	-45.6	25.9	6.03e-01	0	39	0	311427072	60	4122
2026-01-21 03:04:00.58	223.97	13.48	-44.4	-45.6	25.9	6.04e-01	0	39	0	318767104	60	4106
2026-01-21 03:04:04.61	223.82	13.04	-44.5	-45.6	25.8	6.04e-01	0	39	0	326631424	60	4142
2026-01-21 03:04:08.65	223.67	12.62	-44.4	-45.6	25.8	6.03e-01	0	39	0	333971456	60	4109
2026-01-21 03:04:12.68	223.52	12.21	-44.5	-45.7	25.7	6.03e-01	0	39	0	341835776	60	4169
2026-01-21 03:04:16.71	223.39	11.80	-44.3	-45.4	26.0	6.02e-01	0	39	0	349175808	60	4043
2026-01-21 03:04:20.74	223.25	11.40	-44.4	-45.6	25.8	6.03e-01	0	39	0	357040128	60	4134
2026-01-21 03:04:24.78	223.12	11.00	-44.5	-45.7	25.7	6.03e-01	0	39	0	364380160	60	4173
2026-01-21 03:04:28.80	223.00	10.62	-44.5	-45.6	25.7	6.04e-01	0	39	0	371720192	60	4145
2026-01-21 03:04:32.84	222.88	10.24	-44.8	-46.0	25.4	6.04e-01	0	39	0	379584512	60	4327
2026-01-21 03:04:36.87	222.76	9.86	-44.8	-46.0	25.4	6.04e-01	0	39	0	386924544	60	4307
2026-01-21 03:04:40.90	222.64	9.50	-44.8	-46.1	25.3	6.02e-01	0	39	0	394788864	60	4361
2026-01-21 03:04:44.93	222.53	9.13	-44.9	-46.1	25.2	6.02e-01	0	39	0	402128896	60	4377
2026-01-21 03:04:48.96	222.43	8.78	-45.1	-46.4	24.9	6.04e-01	0	39	0	409468928	60	4509
2026-01-21 03:04:53.00	222.32	8.43	-45.1	-46.4	24.9	6.03e-01	0	39	0	417333248	61	4243
2026-01-21 03:04:57.03	222.22	8.08	-45.2	-46.5	24.8	6.04e-01	0	39	0	424673280	61	4307
2026-01-21 03:05:01.06	222.12	7.74	-45.2	-46.5	24.7	6.04e-01	0	39	0	432537600	61	4321
2026-01-21 03:05:05.09	222.03	7.40	-45.4	-46.8	24.5	6.04e-01	0	39	0	439877632	61	4442
2026-01-21 03:05:09.12	221.93	7.07	-45.5	-46.9	24.3	6.03e-01	0	39	0	447217664	61	4499
2026-01-21 03:05:13.16	221.84	6.75	-45.6	-47.0	24.2	6.03e-01	0	39	0	455081984	62	4317
2026-01-21 03:05:17.19	221.75	6.43	-45.8	-47.2	23.9	6.03e-01	0	39	0	462422016	62	4438
2026-01-21 03:05:21.22	221.67	6.11	-45.6	-47.0	24.1	6.02e-01	0	39	0	470286336	62	4316
2026-01-21 03:05:25.25	221.58	5.79	-45.6	-47.0	24.0	6.03e-01	0	39	0	477626368	62	4302
2026-01-21 03:05:29.28	221.50	5.49	-45.9	-47.3	23.7	6.02e-01	0	39	0	485490688	62	4485
2026-01-21 03:05:33.31	221.42	5.18	-46.0	-47.4	23.6	6.02e-01	0	39	0	492830720	62	4542
2026-01-21 03:05:37.35	221.35	4.88	-54.8	-72.6	3.8	7.43e-01	0	39	104	497549312	80	29209
2026-01-21 03:05:41.38	221.27	4.58	-55.2	-73.1	3.8	7.46e-01	0	39	104	497549312	81	29053
2026-01-21 03:05:45.41	221.20	4.29	-55.4	-73.2	3.8	7.46e-01	0	39	104	497549312	81	29471
2026-01-21 03:05:49.45	221.13	4.00	-55.4	-73.2	3.8	7.44e-01	0	39	104	497549312	81	29556
2026-01-21 03:05:53.48	221.06	3.71	-55.3	-73.1	3.8	7.43e-01	0	39	104	497549312	81	29269
2026-01-21 03:05:57.51	220.99	3.43	-55.1	-72.9	3.8	7.48e-01	0	39	104	497549312	81	28562
2026-01-21 03:06:01.55	220.93	3.14	-55.0	-72.8	3.8	7.44e-01	0	39	104	497549312	81	28271
2026-01-21 03:06:05.58	220.86	2.87	-55.0	-72.8	3.8	7.44e-01	0	39	104	497549312	81	28231
2026-01-21 03:06:09.61	220.80	2.59	-55.0	-72.8	3.8	7.47e-01	0	39	104	497549312	81	28170
2026-01-21 03:06:13.64	220.74	2.32	-55.0	-72.8	3.8	7.46e-01	0	39	104	497549312	81	28152
2026-01-21 03:06:17.67	220.68	2.05	-55.0	-72.8	3.8	7.44e-01	0	39	104	497549312	81	28029

#Closed at: 2026-01-21 03:06:19
#Recorded file [497 MB]: D:/lorett/data/31041_260121_055335.dat