passes_logs/2026/01/21/R3.2S_Murmansk/R3.2S_Murmansk__20260121_205535_JL1KF02B01_rec.log

#Pass ID: 20260121_205535_JL1KF02B01
#Satellite: JL1KF02B01
#Configuration: 01B_900M
#almurnet v.1.7.20251203
#Start time: 2026-01-21 20:55:36

#Version: 2.2.20231116
#Station: R3.2S_Murmansk
#Location: 33.079688 lon 68.888172 lat
#TLE: 1 61191U 24169C   26020.93503993  .00012980  00000+0  80904-3 0  9994
#TLE: 2 61191  97.5705 112.4167 0014537 105.0491 255.2348 15.09590380 73611

#Time	Az	El	Level	Level2	SNR	BER	BlckErr	Temp	State	Recorded	gain1	gain2
2026-01-21 20:55:36.68	186.36	2.09	-54.5	-56.7	6.2	0.00e+00	0	41	0	0	80	18652
2026-01-21 20:55:39.71	186.52	2.30	-54.5	-56.6	6.2	0.00e+00	0	41	104	0	80	18520
2026-01-21 20:55:42.73	186.69	2.50	-54.7	-56.9	6.2	0.00e+00	0	41	104	0	80	19081
2026-01-21 20:55:45.76	186.85	2.71	-54.7	-56.9	6.2	0.00e+00	0	41	104	0	80	19043
2026-01-21 20:55:48.78	187.02	2.91	-54.7	-56.8	6.2	0.00e+00	0	41	104	0	80	18880
2026-01-21 20:55:51.81	187.20	3.12	-54.6	-56.7	6.2	0.00e+00	0	41	104	0	80	18711
2026-01-21 20:55:54.84	187.37	3.33	-54.4	-56.6	6.2	0.00e+00	0	41	104	0	80	18443
2026-01-21 20:55:57.86	187.55	3.55	-54.2	-56.4	6.2	0.00e+00	0	42	104	0	80	18070
2026-01-21 20:56:00.88	187.73	3.76	-53.9	-56.1	6.2	0.00e+00	0	41	104	0	79	18454
2026-01-21 20:56:03.91	187.92	3.98	-53.1	-55.2	6.2	0.00e+00	0	41	104	0	78	17680
2026-01-21 20:56:06.93	188.11	4.20	-53.1	-55.2	6.2	0.00e+00	0	41	104	0	78	17643
2026-01-21 20:56:09.96	188.30	4.42	-53.0	-55.2	6.2	0.00e+00	0	42	104	0	78	17568
2026-01-21 20:56:12.99	188.50	4.64	-53.0	-55.2	6.2	0.00e+00	0	42	104	0	78	17613
2026-01-21 20:56:16.01	188.69	4.87	-53.0	-55.2	6.2	0.00e+00	0	42	104	0	78	17571
2026-01-21 20:56:19.03	188.90	5.10	-53.2	-55.3	6.2	0.00e+00	0	42	104	0	77	18936
2026-01-21 20:56:22.06	189.10	5.33	-53.1	-55.2	6.2	0.00e+00	0	42	104	0	77	18730
2026-01-21 20:56:25.09	189.31	5.56	-53.1	-55.2	6.2	0.00e+00	0	42	104	0	77	18753
2026-01-21 20:56:28.11	189.53	5.79	-52.9	-55.1	6.2	0.00e+00	0	42	104	0	77	18489
2026-01-21 20:56:31.14	189.74	6.03	-53.0	-55.1	6.2	0.00e+00	0	42	104	0	77	18473
2026-01-21 20:56:34.16	189.97	6.27	-53.1	-55.3	6.2	0.00e+00	0	42	104	0	77	18826
2026-01-21 20:56:37.18	190.19	6.51	-53.1	-55.3	6.2	0.00e+00	0	42	104	0	77	18888
2026-01-21 20:56:40.21	190.42	6.76	-53.0	-55.2	6.2	0.00e+00	0	42	104	0	77	18615
2026-01-21 20:56:43.24	190.66	7.01	-53.0	-55.2	6.2	0.00e+00	0	42	104	0	77	18680
2026-01-21 20:56:46.26	190.90	7.26	-53.1	-55.3	6.2	0.00e+00	0	42	104	0	77	18930
2026-01-21 20:56:49.28	191.14	7.51	-53.2	-55.3	6.2	0.00e+00	0	42	104	0	77	18985
2026-01-21 20:56:52.31	191.39	7.77	-53.1	-55.3	6.2	0.00e+00	0	42	104	0	77	18834
2026-01-21 20:56:55.33	191.65	8.03	-53.1	-55.3	6.2	0.00e+00	0	42	104	0	77	18868
2026-01-21 20:56:58.35	191.91	8.29	-53.2	-55.4	6.2	0.00e+00	0	42	104	0	77	19072
2026-01-21 20:57:01.38	192.18	8.56	-49.3	-50.1	6.4	0.00e+00	0	42	104	0	70	15544
2026-01-21 20:57:04.40	192.45	8.83	-46.0	-46.4	6.3	0.00e+00	0	42	104	0	63	15184
2026-01-21 20:57:07.43	192.72	9.10	-45.8	-46.2	6.4	0.00e+00	0	42	104	0	62	15819
2026-01-21 20:57:10.45	193.01	9.37	-45.5	-46.0	6.3	0.00e+00	0	42	104	0	63	14509
2026-01-21 20:57:13.48	193.30	9.65	-45.1	-45.5	6.3	0.00e+00	0	42	104	0	62	14525
2026-01-21 20:57:16.50	193.59	9.94	-28.4	-28.2	16.8	1.90e-06	0	43	0	75497472	28	14008
2026-01-21 20:57:19.53	193.90	10.22	-33.3	-33.1	16.5	2.09e-05	0	43	0	419430400	38	13876
2026-01-21 20:57:22.56	194.21	10.51	-28.4	-28.2	16.8	1.90e-06	0	43	0	754974720	28	14060
2026-01-21 20:57:25.58	194.53	10.81	-28.0	-27.8	17.0	0.00e+00	0	43	0	1098907648	27	14177
2026-01-21 20:57:28.61	194.85	11.11	-27.8	-27.7	17.2	0.00e+00	0	43	0	1442840576	27	13972
2026-01-21 20:57:31.64	195.19	11.41	-27.6	-27.5	17.2	0.00e+00	0	43	0	1778384896	27	13658
2026-01-21 20:57:34.66	195.53	11.71	-27.6	-27.4	17.3	0.00e+00	0	43	0	2113929216	27	13615
2026-01-21 20:57:37.68	195.87	12.02	-27.3	-27.2	17.5	0.00e+00	0	43	0	2466250752	26	13952
2026-01-21 20:57:40.71	196.23	12.34	-27.2	-27.0	17.5	0.00e+00	0	43	0	2801795072	26	13688
2026-01-21 20:57:43.73	196.60	12.66	-27.1	-27.0	17.4	0.00e+00	0	43	0	3137339392	26	13670
2026-01-21 20:57:46.75	196.97	12.98	-26.9	-26.7	17.5	0.00e+00	0	43	0	3472883712	25	14017
2026-01-21 20:57:49.78	197.36	13.31	-26.8	-26.7	17.5	0.00e+00	0	43	0	3825205248	25	13973
2026-01-21 20:57:52.80	197.75	13.64	-26.6	-26.5	17.8	0.00e+00	0	43	0	4160749568	25	13665
2026-01-21 20:57:55.82	198.16	13.98	-26.5	-26.4	17.9	0.00e+00	0	43	0	4496293888	25	13486
2026-01-21 20:57:58.85	198.57	14.32	-26.6	-26.4	18.0	0.00e+00	0	43	0	4840226816	25	13507
2026-01-21 20:58:01.87	199.00	14.67	-26.4	-26.2	18.1	0.00e+00	0	43	0	5175771136	24	14076
2026-01-21 20:58:04.90	199.44	15.02	-26.4	-26.2	17.9	0.00e+00	0	43	0	5528092672	24	14011
2026-01-21 20:58:07.92	199.89	15.38	-26.1	-25.9	18.0	0.00e+00	0	43	0	5863636992	24	13616
2026-01-21 20:58:10.94	200.35	15.74	-26.0	-25.8	18.3	0.00e+00	0	43	0	6199181312	24	13460
2026-01-21 20:58:13.97	200.83	16.11	-25.9	-25.7	18.1	0.00e+00	0	43	0	6534725632	23	14045
2026-01-21 20:58:16.99	201.32	16.48	-25.7	-25.5	18.3	0.00e+00	0	43	0	6887047168	23	13705
2026-01-21 20:58:20.02	201.82	16.86	-25.6	-25.4	18.3	0.00e+00	0	43	0	7222591488	23	13598
2026-01-21 20:58:23.04	202.34	17.24	-25.5	-25.3	18.6	0.00e+00	0	43	0	7558135808	22	14221
2026-01-21 20:58:26.06	202.87	17.63	-25.2	-25.0	18.9	0.00e+00	0	43	0	7902068736	22	13724
2026-01-21 20:58:29.09	203.42	18.03	-25.1	-24.9	19.1	0.00e+00	0	43	0	8246001664	22	13509
2026-01-21 20:58:32.12	203.98	18.43	-24.9	-24.7	18.9	0.00e+00	0	43	0	8581545984	21	14015
2026-01-21 20:58:35.14	204.56	18.84	-24.6	-24.5	19.1	0.00e+00	0	43	0	8925478912	21	13640
2026-01-21 20:58:38.17	205.16	19.25	-24.6	-24.4	19.0	0.00e+00	0	43	0	9261023232	21	13575
2026-01-21 20:58:41.20	205.78	19.67	-24.4	-24.3	19.2	0.00e+00	0	43	0	9604956160	20	14125
2026-01-21 20:58:44.22	206.42	20.09	-24.2	-24.0	19.2	0.00e+00	0	43	0	9948889088	20	13779
2026-01-21 20:58:47.25	207.07	20.52	-24.2	-24.0	19.2	0.00e+00	0	44	0	10284433408	20	13680
2026-01-21 20:58:50.27	207.75	20.96	-24.1	-24.0	19.4	0.00e+00	0	43	0	10619977728	20	13680
2026-01-21 20:58:53.30	208.45	21.40	-24.2	-24.0	19.4	0.00e+00	0	43	0	10972299264	19	14528
2026-01-21 20:58:56.32	209.17	21.85	-24.0	-23.8	19.2	0.00e+00	0	43	0	11307843584	19	14247
2026-01-21 20:58:59.35	209.91	22.30	-23.8	-23.6	19.5	0.00e+00	0	43	0	11643387904	19	13826
2026-01-21 20:59:02.37	210.68	22.76	-23.6	-23.4	19.5	0.00e+00	0	43	0	11978932224	19	13576
2026-01-21 20:59:05.40	211.48	23.22	-23.6	-23.4	19.6	0.00e+00	0	44	0	12331253760	18	14302
2026-01-21 20:59:08.42	212.29	23.69	-23.3	-23.1	19.6	0.00e+00	0	43	0	12666798080	18	13860
2026-01-21 20:59:11.45	213.14	24.16	-23.3	-23.1	19.5	0.00e+00	0	44	0	13002342400	18	13938
2026-01-21 20:59:14.47	214.01	24.64	-23.2	-23.0	19.7	0.00e+00	0	43	0	13354663936	18	13712
2026-01-21 20:59:17.50	214.92	25.12	-22.7	-22.5	19.5	0.00e+00	0	43	0	13690208256	17	13789
2026-01-21 20:59:20.52	215.85	25.60	-22.7	-22.5	19.5	0.00e+00	0	44	0	14025752576	17	13756
2026-01-21 20:59:23.55	216.82	26.09	-22.5	-22.3	19.3	0.00e+00	0	44	0	14369685504	16	14168
2026-01-21 20:59:26.58	217.82	26.58	-22.4	-22.2	19.4	0.00e+00	0	43	0	14713618432	16	14065
2026-01-21 20:59:29.61	218.85	27.07	-22.1	-21.9	19.5	0.00e+00	0	43	0	15049162752	16	13618
2026-01-21 20:59:32.63	219.91	27.56	-22.1	-21.9	19.4	0.00e+00	0	44	0	15393095680	16	13544
2026-01-21 20:59:35.66	221.02	28.05	-22.1	-21.9	19.3	0.00e+00	0	43	0	15728640000	16	13520
2026-01-21 20:59:38.68	222.15	28.54	-21.8	-21.6	19.2	0.00e+00	0	44	0	16080961536	15	13927
2026-01-21 20:59:41.71	223.33	29.03	-21.7	-21.6	19.1	0.00e+00	0	44	0	16416505856	15	13803
2026-01-21 20:59:44.73	224.54	29.51	-21.6	-21.4	19.0	0.00e+00	0	44	0	16752050176	15	13568
2026-01-21 20:59:47.75	225.80	30.00	-21.4	-21.2	18.7	0.00e+00	0	44	0	17087594496	14	14060
2026-01-21 20:59:50.78	227.09	30.48	-21.3	-21.1	18.6	0.00e+00	0	44	0	17439916032	14	13925
2026-01-21 20:59:53.80	228.42	30.95	-21.1	-20.9	18.3	0.00e+00	0	43	0	17775460352	14	13492
2026-01-21 20:59:56.83	229.80	31.41	-20.9	-20.7	18.2	0.00e+00	0	44	0	18111004672	13	14070
2026-01-21 20:59:59.85	231.22	31.86	-20.8	-20.7	18.0	0.00e+00	0	44	0	18446548992	13	13983
2026-01-21 21:00:02.88	232.68	32.31	-20.7	-20.5	17.7	0.00e+00	0	44	0	18798870528	13	13749
2026-01-21 21:00:05.90	234.18	32.74	-20.8	-20.6	17.5	0.00e+00	0	44	0	19134414848	13	13880
2026-01-21 21:00:08.93	235.73	33.16	-20.6	-20.5	17.1	0.00e+00	0	44	0	19478347776	13	13635
2026-01-21 21:00:11.95	237.31	33.56	-20.4	-20.2	16.9	0.00e+00	0	44	0	19813892096	12	14055
2026-01-21 21:00:14.98	238.94	33.94	-20.3	-20.1	16.8	0.00e+00	0	44	0	20157825024	12	13942
2026-01-21 21:00:18.00	240.60	34.31	-20.3	-20.1	16.7	0.00e+00	0	44	0	20501757952	12	13838
2026-01-21 21:00:21.03	242.31	34.65	-20.1	-20.0	17.1	0.00e+00	0	44	0	20837302272	12	13667
2026-01-21 21:00:24.06	244.05	34.97	-20.2	-20.1	17.2	0.00e+00	0	44	0	21172846592	12	13797
2026-01-21 21:00:27.09	245.83	35.26	-20.2	-20.0	17.6	0.00e+00	0	44	0	21525168128	12	13670
2026-01-21 21:00:30.11	247.63	35.53	-20.3	-20.1	17.5	0.00e+00	0	44	0	21860712448	12	13832
2026-01-21 21:00:33.14	249.47	35.77	-20.2	-20.0	17.4	0.00e+00	0	44	0	22196256768	12	13693
2026-01-21 21:00:36.16	251.33	35.98	-20.1	-19.9	17.8	0.00e+00	0	44	0	22531801088	12	13622
2026-01-21 21:00:39.19	253.22	36.16	-20.1	-19.9	17.9	0.00e+00	0	44	0	22884122624	12	13547
2026-01-21 21:00:42.21	255.13	36.30	-20.2	-20.0	17.8	0.00e+00	0	44	0	23219666944	12	13764
2026-01-21 21:00:45.24	257.05	36.42	-20.3	-20.1	18.4	0.00e+00	0	44	0	23555211264	11	14668
2026-01-21 21:00:48.27	258.99	36.50	-20.4	-20.2	18.6	0.00e+00	0	44	0	23899144192	11	14838
2026-01-21 21:00:51.29	260.93	36.54	-20.4	-20.2	19.0	0.00e+00	0	44	0	24243077120	11	14937
2026-01-21 21:00:54.31	262.87	36.55	-20.5	-20.3	19.3	0.00e+00	0	44	0	24578621440	11	15050
2026-01-21 21:00:57.34	264.81	36.52	-20.6	-20.4	19.6	0.00e+00	0	44	0	24922554368	11	15276
2026-01-21 21:01:00.37	266.75	36.46	-20.5	-20.3	19.7	0.00e+00	0	44	0	25258098688	11	15061
2026-01-21 21:01:03.40	268.69	36.37	-20.5	-20.3	19.7	0.00e+00	0	44	0	25602031616	11	15119
2026-01-21 21:01:06.42	270.60	36.24	-20.7	-20.5	19.7	0.00e+00	0	44	0	25945964544	11	15323
2026-01-21 21:01:09.45	272.50	36.07	-20.5	-20.3	19.9	0.00e+00	0	44	0	26281508864	12	14184
2026-01-21 21:01:12.47	274.37	35.88	-20.5	-20.3	19.9	0.00e+00	0	44	0	26625441792	12	14240
2026-01-21 21:01:15.50	276.22	35.66	-20.6	-20.4	19.8	0.00e+00	0	44	0	26969374720	12	14384
2026-01-21 21:01:18.52	278.04	35.40	-20.6	-20.4	19.6	0.00e+00	0	44	0	27304919040	12	14433
2026-01-21 21:01:21.55	279.83	35.12	-20.7	-20.5	19.6	0.00e+00	0	44	0	27640463360	12	14469
2026-01-21 21:01:24.57	281.59	34.82	-20.7	-20.5	19.6	0.00e+00	0	44	0	27992784896	12	14592
2026-01-21 21:01:27.60	283.31	34.49	-20.8	-20.6	19.4	0.00e+00	0	44	0	28328329216	12	14690
2026-01-21 21:01:30.63	285.00	34.13	-20.9	-20.8	19.3	0.00e+00	0	44	0	28663873536	12	14962
2026-01-21 21:01:33.66	286.64	33.76	-20.9	-20.7	19.5	0.00e+00	0	44	0	28999417856	12	14846
2026-01-21 21:01:36.69	288.25	33.37	-21.0	-20.9	19.5	0.00e+00	0	44	0	29351739392	12	15134
2026-01-21 21:01:39.71	289.81	32.96	-21.1	-20.9	19.7	0.00e+00	0	44	0	29687283712	12	15274
2026-01-21 21:01:42.74	291.34	32.53	-21.3	-21.2	19.9	0.00e+00	0	44	0	30022828032	13	14795
2026-01-21 21:01:45.77	292.82	32.10	-21.4	-21.2	20.1	0.00e+00	0	44	0	30366760960	13	14882
2026-01-21 21:01:48.79	294.25	31.65	-21.5	-21.3	20.0	0.00e+00	0	44	0	30710693888	13	15026
2026-01-21 21:01:51.82	295.65	31.19	-21.7	-21.5	20.1	0.00e+00	0	44	0	31046238208	14	14589
2026-01-21 21:01:54.84	297.00	30.72	-21.7	-21.5	20.0	0.00e+00	0	44	0	31390171136	14	14606
2026-01-21 21:01:57.87	298.32	30.25	-21.8	-21.6	20.0	0.00e+00	0	44	0	31725715456	14	14753
2026-01-21 21:02:00.90	299.59	29.77	-21.9	-21.7	19.9	0.00e+00	0	44	0	32078036992	14	14933
2026-01-21 21:02:03.92	300.82	29.29	-22.0	-21.8	19.6	0.00e+00	0	44	0	32413581312	14	15010
2026-01-21 21:02:06.95	302.02	28.80	-22.1	-21.9	19.6	0.00e+00	0	44	0	32749125632	14	15250
2026-01-21 21:02:09.98	303.17	28.31	-22.2	-22.0	19.5	0.00e+00	0	44	0	33101447168	14	15384
2026-01-21 21:02:13.00	304.29	27.82	-22.5	-22.3	19.3	0.00e+00	0	44	0	33436991488	15	15037
2026-01-21 21:02:16.03	305.37	27.33	-22.6	-22.4	19.4	0.00e+00	0	44	0	33772535808	15	15175
2026-01-21 21:02:19.06	306.42	26.84	-22.7	-22.5	19.3	0.00e+00	0	44	0	34108080128	15	15349
2026-01-21 21:02:22.09	307.44	26.35	-23.0	-22.8	19.2	0.00e+00	0	44	0	34460401664	16	15019
2026-01-21 21:02:25.11	308.42	25.86	-23.1	-23.0	19.2	0.00e+00	0	44	0	34795945984	16	15316
2026-01-21 21:02:28.14	309.37	25.38	-23.3	-23.2	18.5	0.00e+00	0	44	0	35131490304	17	14789
2026-01-21 21:02:31.16	310.28	24.90	-23.4	-23.2	18.3	0.00e+00	0	44	0	35475423232	17	14939
2026-01-21 21:02:34.19	311.17	24.42	-23.6	-23.4	18.3	0.00e+00	0	44	0	35819356160	17	15232
2026-01-21 21:02:37.21	312.03	23.95	-23.7	-23.5	18.0	0.00e+00	0	44	0	36154900480	18	14574
2026-01-21 21:02:40.23	312.86	23.48	-23.8	-23.6	17.9	0.00e+00	0	44	0	36498833408	18	14758
2026-01-21 21:02:43.26	313.67	23.02	-24.0	-23.8	17.8	0.00e+00	0	44	0	36834377728	18	15056
2026-01-21 21:02:46.28	314.45	22.56	-24.1	-23.9	18.2	0.00e+00	0	44	0	37178310656	18	15196
2026-01-21 21:02:49.30	315.20	22.11	-24.1	-23.9	17.9	0.00e+00	0	44	0	37522243584	18	15272
2026-01-21 21:02:52.33	315.93	21.66	-24.3	-24.2	18.0	0.00e+00	0	44	0	37857787904	19	14780
2026-01-21 21:02:55.35	316.64	21.22	-24.4	-24.3	17.8	0.00e+00	0	44	0	38193332224	19	14973
2026-01-21 21:02:58.37	317.33	20.78	-24.7	-24.5	18.0	0.00e+00	0	44	0	38545653760	19	15346
2026-01-21 21:03:01.40	318.00	20.35	-24.7	-24.5	17.5	0.00e+00	0	44	0	38881198080	20	14574
2026-01-21 21:03:04.42	318.64	19.92	-24.9	-24.7	17.4	0.00e+00	0	44	0	39216742400	20	14844
2026-01-21 21:03:07.44	319.27	19.50	-25.1	-24.9	17.4	0.00e+00	0	44	0	39552286720	20	15195
2026-01-21 21:03:10.47	319.88	19.09	-25.2	-25.1	17.3	0.00e+00	0	44	0	39896219648	21	14641
2026-01-21 21:03:13.50	320.47	18.68	-25.3	-25.2	17.3	0.00e+00	0	44	0	40240152576	21	14783
2026-01-21 21:03:16.52	321.04	18.27	-25.4	-25.3	17.8	0.00e+00	0	44	0	40575696896	21	14963
2026-01-21 21:03:19.55	321.60	17.87	-25.5	-25.3	18.0	0.00e+00	0	44	0	40919629824	21	15097
2026-01-21 21:03:22.57	322.14	17.48	-25.8	-25.6	17.8	0.00e+00	0	44	0	41255174144	22	14755
2026-01-21 21:03:25.59	322.66	17.10	-26.0	-25.8	18.0	0.00e+00	0	44	0	41599107072	22	14993
2026-01-21 21:03:28.62	323.17	16.72	-26.1	-26.0	18.2	0.00e+00	0	44	0	41943040000	22	15339
2026-01-21 21:03:31.65	323.67	16.34	-26.2	-26.1	18.2	0.00e+00	0	44	0	42278584320	23	14608
2026-01-21 21:03:34.67	324.15	15.97	-26.4	-26.3	18.2	0.00e+00	0	44	0	42614128640	23	14986
2026-01-21 21:03:37.70	324.62	15.61	-26.6	-26.5	18.1	0.00e+00	0	44	0	42966450176	23	15306
2026-01-21 21:03:40.72	325.08	15.25	-26.6	-26.4	18.3	0.00e+00	0	44	0	43301994496	24	14428
2026-01-21 21:03:43.75	325.53	14.89	-26.8	-26.6	18.3	0.00e+00	0	44	0	43637538816	24	14746
2026-01-21 21:03:46.78	325.96	14.54	-27.0	-26.8	18.3	0.00e+00	0	44	0	43989860352	24	15037
2026-01-21 21:03:49.80	326.38	14.20	-27.2	-27.0	18.4	0.00e+00	0	44	0	44325404672	24	15387
2026-01-21 21:03:52.83	326.79	13.86	-27.2	-27.1	18.3	0.00e+00	0	44	0	44660948992	25	14646
2026-01-21 21:03:55.85	327.19	13.53	-27.5	-27.3	18.3	1.90e-06	0	44	0	44996493312	25	15014
2026-01-21 21:03:58.87	327.58	13.20	-53.5	-55.8	6.2	0.00e+00	0	44	104	45164265472	77	20026
2026-01-21 21:04:01.90	327.96	12.87	-53.7	-55.8	6.2	0.00e+00	0	44	104	45164265472	77	19966
2026-01-21 21:04:04.93	328.34	12.55	-53.6	-55.7	6.2	0.00e+00	0	44	104	45164265472	77	19924
2026-01-21 21:04:07.95	328.70	12.24	-53.6	-55.7	6.2	0.00e+00	0	44	104	45164265472	77	19906
2026-01-21 21:04:10.98	329.05	11.92	-53.5	-55.7	6.2	0.00e+00	0	44	104	45164265472	77	19728
2026-01-21 21:04:14.00	329.40	11.62	-53.4	-55.6	6.2	0.00e+00	0	44	104	45164265472	77	19654
2026-01-21 21:04:17.03	329.74	11.31	-53.5	-55.6	6.2	0.00e+00	0	44	104	45164265472	77	19537
2026-01-21 21:04:20.05	330.07	11.01	-53.5	-55.6	6.2	0.00e+00	0	43	104	45164265472	77	19589
2026-01-21 21:04:23.08	330.39	10.72	-53.4	-55.5	6.2	0.00e+00	0	43	104	45164265472	77	19470
2026-01-21 21:04:26.10	330.70	10.43	-53.3	-55.5	6.2	0.00e+00	0	43	104	45164265472	77	19429
2026-01-21 21:04:29.13	331.01	10.14	-53.3	-55.5	6.2	0.00e+00	0	43	104	45164265472	77	19391
2026-01-21 21:04:32.16	331.31	9.85	-53.3	-55.5	6.2	0.00e+00	0	43	104	45164265472	77	19335
2026-01-21 21:04:35.19	331.61	9.57	-53.3	-55.4	6.2	0.00e+00	0	43	104	45164265472	77	19232
2026-01-21 21:04:38.21	331.90	9.30	-53.2	-55.4	6.2	0.00e+00	0	43	104	45164265472	77	19155
2026-01-21 21:04:41.23	332.18	9.02	-53.2	-55.4	6.2	0.00e+00	0	43	104	45164265472	77	19041
2026-01-21 21:04:44.26	332.45	8.75	-53.2	-55.3	6.2	0.00e+00	0	43	104	45164265472	77	19015
2026-01-21 21:04:47.28	332.72	8.49	-53.1	-55.3	6.2	0.00e+00	0	43	104	45164265472	77	18890
2026-01-21 21:04:50.30	332.99	8.22	-53.2	-55.3	6.2	0.00e+00	0	43	104	45164265472	77	18969
2026-01-21 21:04:53.32	333.25	7.96	-53.1	-55.3	6.2	0.00e+00	0	43	104	45164265472	77	18835
2026-01-21 21:04:56.35	333.50	7.70	-53.1	-55.2	6.2	0.00e+00	0	43	104	45164265472	77	18802
2026-01-21 21:04:59.38	333.75	7.45	-53.1	-55.2	6.2	0.00e+00	0	43	104	45164265472	77	18720
2026-01-21 21:05:02.40	333.99	7.20	-53.0	-55.2	6.2	0.00e+00	0	43	104	45164265472	77	18683
2026-01-21 21:05:05.43	334.23	6.95	-53.0	-55.2	6.2	0.00e+00	0	43	104	45164265472	77	18614
2026-01-21 21:05:08.45	334.47	6.70	-53.0	-55.1	6.2	0.00e+00	0	43	104	45164265472	77	18512
2026-01-21 21:05:11.48	334.70	6.46	-52.9	-55.1	6.2	0.00e+00	0	43	104	45164265472	77	18477
2026-01-21 21:05:14.51	334.92	6.22	-52.9	-55.0	6.2	0.00e+00	0	43	104	45164265472	77	18303
2026-01-21 21:05:17.53	335.15	5.98	-52.9	-55.0	6.2	0.00e+00	0	43	104	45164265472	76	19341
2026-01-21 21:05:20.56	335.36	5.74	-52.1	-54.2	6.2	0.00e+00	0	43	104	45164265472	76	17675
2026-01-21 21:05:23.58	335.58	5.51	-52.6	-54.7	6.2	0.00e+00	0	43	104	45164265472	76	18729
2026-01-21 21:05:26.60	335.79	5.28	-52.7	-54.8	6.2	0.00e+00	0	43	104	45164265472	76	18982
2026-01-21 21:05:29.63	335.99	5.05	-52.7	-54.8	6.2	0.00e+00	0	43	104	45164265472	76	19014
2026-01-21 21:05:32.65	336.19	4.83	-53.5	-55.6	6.2	0.00e+00	0	43	104	45164265472	77	19521
2026-01-21 21:05:35.67	336.39	4.60	-53.9	-56.0	6.2	0.00e+00	0	43	104	45164265472	78	19434
2026-01-21 21:05:38.70	336.59	4.38	-54.1	-56.2	6.2	0.00e+00	0	43	104	45164265472	78	19849
2026-01-21 21:05:41.73	336.78	4.16	-54.0	-56.1	6.2	0.00e+00	0	43	104	45164265472	78	19666
2026-01-21 21:05:44.75	336.97	3.94	-53.9	-56.0	6.2	0.00e+00	0	43	104	45164265472	78	19321
2026-01-21 21:05:47.77	337.15	3.73	-54.0	-56.1	6.2	0.00e+00	0	43	104	45164265472	78	19532
2026-01-21 21:05:50.80	337.34	3.51	-54.0	-56.1	6.2	0.00e+00	0	43	104	45164265472	78	19634
2026-01-21 21:05:53.82	337.51	3.30	-53.9	-56.0	6.2	0.00e+00	0	43	104	45164265472	78	19432
2026-01-21 21:05:56.85	337.69	3.09	-53.9	-56.0	6.2	0.00e+00	0	43	104	45164265472	78	19280
2026-01-21 21:05:59.88	337.87	2.88	-53.6	-55.8	6.2	0.00e+00	0	43	104	45164265472	78	19007
2026-01-21 21:06:02.90	338.04	2.68	-53.7	-55.9	6.2	0.00e+00	0	43	104	45164265472	78	19158
2026-01-21 21:06:05.93	338.20	2.47	-53.8	-55.9	6.2	0.00e+00	0	43	104	45164265472	78	19190
2026-01-21 21:06:08.95	338.37	2.27	-53.8	-55.9	6.2	0.00e+00	0	43	104	45164265472	78	19210
2026-01-21 21:06:11.98	338.53	2.07	-53.8	-55.9	6.2	0.00e+00	0	43	104	45164265472	78	19208

#Closed at: 2026-01-21 21:06:14
#Recorded file [45164 MB]: D:/lorett/data/31041_260121_235536.dat