passes_logs/2026/01/21/R3.2S_Murmansk/R3.2S_Murmansk__20260121_141411_AQUA_rec.log

#Pass ID: 20260121_141411_AQUA
#Satellite: AQUA
#Configuration: AQUA
#almurnet v.1.7.20251203
#Start time: 2026-01-21 14:14:11

#Version: 2.2.20231116
#Station: R3.2S_Murmansk
#Location: 33.079688 lon 68.888172 lat
#TLE: 1 27424U 02022A   26020.90316333  .00002787  00000+0  56766-3 0  9999
#TLE: 2 27424  98.4095 347.4297 0002000  71.6339 309.8236 14.61840001261750

#Time	Az	El	Level	Level2	SNR	BER	BlckErr	Temp	State	Recorded	gain1	gain2
2026-01-21 14:14:11.76	232.30	2.03	-51.7	-69.6	3.8	7.45e-01	0	38	0	0	74	29037
2026-01-21 14:14:14.79	232.61	2.18	-51.7	-69.6	3.8	7.47e-01	0	38	104	0	74	29043
2026-01-21 14:14:17.82	232.93	2.33	-51.7	-69.6	3.8	7.44e-01	0	38	104	0	74	29042
2026-01-21 14:14:20.84	233.24	2.48	-51.7	-69.6	3.8	7.43e-01	0	38	104	0	74	29120
2026-01-21 14:14:23.87	233.57	2.63	-51.7	-69.6	3.8	7.47e-01	0	38	104	0	74	29099
2026-01-21 14:14:26.89	233.89	2.79	-51.7	-69.6	3.8	7.45e-01	0	38	104	0	74	29052
2026-01-21 14:14:29.92	234.22	2.94	-51.7	-69.6	3.8	7.49e-01	0	38	104	0	74	29073
2026-01-21 14:14:32.95	234.55	3.09	-51.8	-69.6	3.8	7.46e-01	0	38	104	0	74	29048
2026-01-21 14:14:35.97	234.89	3.24	-51.7	-69.6	3.8	7.44e-01	0	38	104	0	74	29102
2026-01-21 14:14:39.00	235.23	3.39	-51.7	-69.6	3.8	7.45e-01	0	39	104	0	74	29048
2026-01-21 14:14:42.02	235.57	3.54	-51.7	-69.6	3.8	7.45e-01	0	39	104	0	74	29105
2026-01-21 14:14:45.05	235.92	3.70	-51.7	-69.6	3.8	7.46e-01	0	39	104	0	74	29100
2026-01-21 14:14:48.07	236.27	3.85	-51.7	-69.6	3.8	7.43e-01	0	38	104	0	74	29075
2026-01-21 14:14:51.10	236.63	4.00	-51.8	-69.6	3.8	7.44e-01	0	39	104	0	74	29087
2026-01-21 14:14:54.12	236.98	4.16	-51.7	-69.6	3.8	7.44e-01	0	39	104	0	74	29070
2026-01-21 14:14:57.14	237.35	4.31	-51.7	-69.6	3.8	7.44e-01	0	39	104	0	74	29048
2026-01-21 14:15:00.17	237.71	4.46	-51.7	-69.6	3.8	7.44e-01	0	39	104	0	74	29066
2026-01-21 14:15:03.19	238.08	4.61	-51.7	-69.6	3.8	7.45e-01	0	39	104	0	74	29118
2026-01-21 14:15:06.21	238.46	4.77	-51.7	-69.6	3.8	7.45e-01	0	39	104	0	74	29110
2026-01-21 14:15:09.24	238.84	4.92	-51.8	-69.6	3.8	7.47e-01	0	39	104	0	74	29107
2026-01-21 14:15:12.27	239.22	5.07	-51.8	-69.6	3.8	7.46e-01	0	39	104	0	74	29112
2026-01-21 14:15:15.30	239.61	5.23	-51.8	-69.6	3.8	7.47e-01	0	39	104	0	74	29107
2026-01-21 14:15:18.33	240.00	5.38	-51.8	-69.6	3.8	7.46e-01	0	39	104	0	74	29073
2026-01-21 14:15:21.35	240.40	5.53	-51.7	-69.6	3.8	7.47e-01	0	39	104	0	74	29068
2026-01-21 14:15:24.38	240.80	5.69	-51.8	-69.6	3.8	7.44e-01	0	39	104	0	74	29055
2026-01-21 14:15:27.40	241.20	5.84	-51.7	-69.6	3.8	7.47e-01	0	39	104	0	74	29178
2026-01-21 14:15:30.43	241.61	5.99	-51.7	-69.6	3.8	7.49e-01	0	39	104	0	74	29093
2026-01-21 14:15:33.45	242.02	6.14	-51.7	-69.6	3.8	7.47e-01	0	39	104	0	74	29109
2026-01-21 14:15:36.48	242.44	6.30	-51.7	-69.6	3.8	7.46e-01	0	39	104	0	74	29064
2026-01-21 14:15:39.50	242.87	6.45	-51.7	-69.6	3.8	7.47e-01	0	39	104	0	74	29052
2026-01-21 14:15:42.53	243.29	6.60	-51.8	-69.6	3.8	7.46e-01	0	39	104	0	74	29058
2026-01-21 14:15:45.56	243.73	6.75	-51.7	-69.6	3.8	7.47e-01	0	40	104	0	74	29101
2026-01-21 14:15:48.58	244.16	6.90	-51.7	-69.6	3.8	7.46e-01	0	39	104	0	74	29128
2026-01-21 14:15:51.61	244.61	7.05	-51.7	-69.6	3.8	7.47e-01	0	39	104	0	74	29129
2026-01-21 14:15:54.64	245.05	7.20	-51.7	-69.6	3.8	7.45e-01	0	40	104	0	74	29105
2026-01-21 14:15:57.66	245.50	7.35	-51.8	-69.6	3.8	7.47e-01	0	40	104	0	74	29125
2026-01-21 14:16:00.68	245.96	7.50	-51.8	-69.6	3.8	7.46e-01	0	40	104	0	74	29072
2026-01-21 14:16:03.71	246.42	7.65	-51.8	-69.6	3.8	7.46e-01	0	40	104	0	74	29152
2026-01-21 14:16:06.74	246.89	7.80	-51.8	-69.6	3.8	7.42e-01	0	40	104	0	74	29068
2026-01-21 14:16:09.76	247.36	7.95	-51.8	-69.6	3.8	7.43e-01	0	40	104	0	74	29078
2026-01-21 14:16:12.78	247.84	8.10	-51.7	-69.6	3.8	7.44e-01	0	40	104	0	74	29114
2026-01-21 14:16:15.81	248.32	8.24	-51.8	-69.6	3.8	7.44e-01	0	40	104	0	74	29077
2026-01-21 14:16:18.83	248.80	8.39	-51.8	-69.6	3.8	7.42e-01	0	40	104	0	74	29109
2026-01-21 14:16:21.86	249.30	8.53	-51.8	-69.6	3.8	7.45e-01	0	40	104	0	74	29080
2026-01-21 14:16:24.88	249.79	8.68	-51.8	-69.6	3.8	7.44e-01	0	40	104	0	74	29143
2026-01-21 14:16:27.90	250.29	8.82	-51.8	-69.6	3.8	7.44e-01	0	40	104	0	74	29169
2026-01-21 14:16:30.93	250.80	8.97	-51.8	-69.6	3.8	7.46e-01	0	40	104	0	74	29121
2026-01-21 14:16:33.96	251.31	9.11	-51.8	-69.6	3.8	7.42e-01	0	40	104	0	74	29151
2026-01-21 14:16:36.98	251.83	9.25	-51.8	-69.6	3.8	7.43e-01	0	40	104	0	74	29142
2026-01-21 14:16:40.01	252.35	9.39	-51.8	-69.6	3.8	7.48e-01	0	40	104	0	74	29228
2026-01-21 14:16:43.03	252.88	9.53	-51.8	-69.6	3.8	7.47e-01	0	40	104	0	74	29177
2026-01-21 14:16:46.06	253.42	9.66	-51.8	-69.6	3.8	7.46e-01	0	40	104	0	74	29167
2026-01-21 14:16:49.08	253.95	9.80	-51.8	-69.6	3.8	7.44e-01	0	40	104	0	74	29185
2026-01-21 14:16:52.10	254.50	9.93	-51.8	-69.6	3.8	7.44e-01	0	40	104	0	74	29214
2026-01-21 14:16:55.13	255.05	10.07	-51.8	-69.6	3.8	7.45e-01	0	40	104	0	74	29191
2026-01-21 14:16:58.15	255.60	10.20	-51.8	-69.6	3.8	7.47e-01	0	40	104	0	74	29145
2026-01-21 14:17:01.18	256.16	10.33	-51.8	-69.6	3.8	7.47e-01	0	40	104	0	74	29181
2026-01-21 14:17:04.20	256.72	10.46	-51.8	-69.6	3.8	7.46e-01	0	40	104	0	74	29228
2026-01-21 14:17:07.22	257.29	10.59	-51.8	-69.6	3.8	7.47e-01	0	40	104	0	74	29145
2026-01-21 14:17:10.25	257.87	10.71	-51.8	-69.6	3.8	7.46e-01	0	40	104	0	74	29120
2026-01-21 14:17:13.28	258.45	10.84	-51.8	-69.6	3.8	7.49e-01	0	40	104	0	74	29163
2026-01-21 14:17:16.31	259.03	10.96	-51.8	-69.6	3.8	7.43e-01	0	40	104	0	74	29197
2026-01-21 14:17:19.33	259.62	11.08	-51.8	-69.6	3.8	7.43e-01	0	40	104	0	74	29168
2026-01-21 14:17:22.36	260.22	11.20	-51.8	-69.6	3.8	7.48e-01	0	40	104	0	74	29201
2026-01-21 14:17:25.39	260.82	11.32	-51.8	-69.6	3.8	7.45e-01	0	40	104	0	74	29193
2026-01-21 14:17:28.41	261.43	11.43	-51.8	-69.6	3.8	7.44e-01	0	40	104	0	74	29170
2026-01-21 14:17:31.43	262.04	11.54	-51.8	-69.6	3.8	7.43e-01	0	40	104	0	74	29192
2026-01-21 14:17:34.46	262.65	11.65	-51.8	-69.6	3.8	7.48e-01	0	40	104	0	74	29156
2026-01-21 14:17:37.48	263.27	11.76	-51.8	-69.6	3.8	7.44e-01	0	40	104	0	74	29173
2026-01-21 14:17:40.51	263.90	11.86	-51.8	-69.6	3.8	7.44e-01	0	40	104	0	74	29119
2026-01-21 14:17:43.53	264.52	11.97	-51.8	-69.6	3.8	7.44e-01	0	40	104	0	74	29166
2026-01-21 14:17:46.55	265.16	12.07	-51.8	-69.6	3.8	7.46e-01	0	40	104	0	74	29163
2026-01-21 14:17:49.58	265.80	12.17	-51.8	-69.6	3.8	7.45e-01	0	40	104	0	74	29172
2026-01-21 14:17:52.60	266.44	12.26	-51.8	-69.6	3.8	7.47e-01	0	40	104	0	74	29162
2026-01-21 14:17:55.63	267.08	12.35	-51.8	-69.6	3.8	7.44e-01	0	40	104	0	74	29097
2026-01-21 14:17:58.66	267.74	12.44	-51.8	-69.6	3.8	7.45e-01	0	40	104	0	74	29162
2026-01-21 14:18:01.68	268.39	12.53	-51.8	-69.6	3.8	7.44e-01	0	40	104	0	74	29167
2026-01-21 14:18:04.71	269.05	12.61	-51.8	-69.6	3.8	7.44e-01	0	40	104	0	74	29194
2026-01-21 14:18:07.74	269.71	12.69	-51.8	-69.6	3.8	7.48e-01	0	40	104	0	74	29200
2026-01-21 14:18:10.76	270.38	12.77	-51.8	-69.6	3.8	7.45e-01	0	40	104	0	74	29166
2026-01-21 14:18:13.79	271.05	12.85	-51.8	-69.6	3.8	7.47e-01	0	40	104	0	74	29133
2026-01-21 14:18:16.82	271.72	12.92	-51.8	-69.6	3.8	7.47e-01	0	40	104	0	74	29204
2026-01-21 14:18:19.84	272.40	12.99	-51.8	-69.6	3.8	7.46e-01	0	40	104	0	74	29153
2026-01-21 14:18:22.86	273.08	13.05	-51.8	-69.6	3.8	7.45e-01	0	40	104	0	74	29166
2026-01-21 14:18:25.89	273.76	13.11	-51.8	-69.6	3.8	7.44e-01	0	40	104	0	74	29192
2026-01-21 14:18:28.91	274.45	13.17	-51.8	-69.6	3.8	7.44e-01	0	40	104	0	74	29178
2026-01-21 14:18:31.94	275.14	13.23	-51.8	-69.6	3.8	7.46e-01	0	40	104	0	74	29200
2026-01-21 14:18:34.96	275.83	13.28	-51.8	-69.6	3.8	7.45e-01	0	40	104	0	74	29051
2026-01-21 14:18:37.99	276.52	13.33	-51.8	-69.6	3.8	7.45e-01	0	40	104	0	74	29190
2026-01-21 14:18:41.02	277.22	13.37	-51.8	-69.6	3.8	7.46e-01	0	40	104	0	74	29190
2026-01-21 14:18:44.04	277.92	13.41	-51.8	-69.6	3.8	7.44e-01	0	40	104	0	74	29059
2026-01-21 14:18:47.07	278.62	13.45	-51.8	-69.6	3.8	7.46e-01	0	40	104	0	74	29139
2026-01-21 14:18:50.10	279.32	13.48	-51.8	-69.6	3.8	7.46e-01	0	40	104	0	74	29161
2026-01-21 14:18:53.12	280.02	13.51	-51.8	-69.6	3.8	7.43e-01	0	40	104	0	74	29107
2026-01-21 14:18:56.15	280.73	13.54	-51.8	-69.6	3.8	7.44e-01	0	40	104	0	74	29114
2026-01-21 14:18:59.17	281.43	13.56	-51.8	-69.6	3.8	7.47e-01	0	40	104	0	74	29055
2026-01-21 14:19:02.20	282.14	13.58	-51.8	-69.6	3.8	7.45e-01	0	40	104	0	74	29187
2026-01-21 14:19:05.23	282.85	13.59	-51.8	-69.6	3.8	7.49e-01	0	40	104	0	74	29076
2026-01-21 14:19:08.25	283.55	13.61	-51.8	-69.6	3.8	7.47e-01	0	40	104	0	74	29046
2026-01-21 14:19:11.28	284.26	13.61	-51.8	-69.6	3.8	7.42e-01	0	40	104	0	74	29170
2026-01-21 14:19:14.30	284.97	13.62	-51.8	-69.5	3.8	7.47e-01	0	40	104	0	74	28692
2026-01-21 14:19:17.33	285.68	13.62	-51.8	-69.4	3.8	7.44e-01	0	40	104	0	74	28635
2026-01-21 14:19:20.36	286.39	13.61	-51.8	-69.4	3.8	7.44e-01	0	40	104	0	74	28496
2026-01-21 14:19:23.38	287.09	13.60	-51.8	-69.5	3.8	7.43e-01	0	40	104	0	74	28982
2026-01-21 14:19:26.41	287.80	13.59	-51.8	-69.6	3.8	7.47e-01	0	40	104	0	74	29241
2026-01-21 14:19:29.43	288.51	13.57	-51.8	-69.6	3.8	7.44e-01	0	40	104	0	74	29176
2026-01-21 14:19:32.46	289.21	13.55	-51.8	-69.5	3.8	7.46e-01	0	40	104	0	74	28953
2026-01-21 14:19:35.48	289.92	13.53	-51.8	-69.5	3.8	7.46e-01	0	40	104	0	74	28942
2026-01-21 14:19:38.50	290.62	13.50	-51.8	-69.5	3.8	7.50e-01	0	40	104	0	74	28776
2026-01-21 14:19:41.53	291.32	13.47	-51.8	-69.4	3.8	7.43e-01	0	40	104	0	74	28421
2026-01-21 14:19:44.56	292.02	13.44	-51.8	-69.6	3.8	7.44e-01	0	40	104	0	74	29028
2026-01-21 14:19:47.58	292.72	13.40	-51.8	-69.2	3.8	7.46e-01	0	40	104	0	74	27934
2026-01-21 14:19:50.61	293.42	13.36	-51.8	-68.9	3.8	7.45e-01	0	40	104	0	74	26915
2026-01-21 14:19:53.63	294.11	13.31	-51.8	-69.6	3.8	7.45e-01	0	40	104	0	74	29056
2026-01-21 14:19:56.66	294.80	13.26	-51.8	-69.5	3.8	7.48e-01	0	40	104	0	74	28903
2026-01-21 14:19:59.68	295.49	13.21	-51.8	-69.6	3.8	7.46e-01	0	40	104	0	74	29026
2026-01-21 14:20:02.71	296.18	13.16	-51.8	-69.3	3.8	7.44e-01	0	40	104	0	74	28066
2026-01-21 14:20:05.73	296.86	13.10	-51.8	-69.4	3.8	7.46e-01	0	40	104	0	74	28628
2026-01-21 14:20:08.75	297.54	13.03	-51.8	-69.3	3.8	7.48e-01	0	40	104	0	74	28170
2026-01-21 14:20:11.78	298.22	12.97	-51.8	-69.4	3.8	7.48e-01	0	40	104	0	74	28627
2026-01-21 14:20:14.81	298.89	12.90	-51.8	-69.6	3.8	7.46e-01	0	40	104	0	74	29236
2026-01-21 14:20:17.83	299.56	12.83	-51.8	-69.5	3.8	7.45e-01	0	40	104	0	74	28891
2026-01-21 14:20:20.86	300.23	12.75	-51.8	-69.4	3.8	7.48e-01	0	40	104	0	74	28624
2026-01-21 14:20:23.88	300.89	12.67	-51.8	-69.4	3.9	7.42e-01	0	40	104	0	74	28437
2026-01-21 14:20:26.91	301.55	12.59	-51.8	-69.5	3.8	7.46e-01	0	40	104	0	74	28901
2026-01-21 14:20:29.93	302.21	12.51	-51.8	-69.6	3.8	7.45e-01	0	40	104	0	74	29201
2026-01-21 14:20:32.95	302.86	12.42	-51.8	-69.6	3.8	7.46e-01	0	40	104	0	74	29276
2026-01-21 14:20:35.98	303.51	12.33	-51.8	-69.4	3.8	7.46e-01	0	40	104	0	74	28583
2026-01-21 14:20:39.01	304.15	12.24	-51.8	-69.6	3.8	7.43e-01	0	40	104	0	74	29040
2026-01-21 14:20:42.03	304.79	12.14	-51.8	-69.4	3.8	7.47e-01	0	40	104	0	74	28528
2026-01-21 14:20:45.06	305.43	12.04	-51.8	-69.5	3.8	7.49e-01	0	40	104	0	74	28863
2026-01-21 14:20:48.08	306.06	11.94	-51.8	-69.6	3.8	7.47e-01	0	40	104	0	74	29172
2026-01-21 14:20:51.11	306.68	11.84	-51.8	-69.6	3.8	7.44e-01	0	40	104	0	74	29069
2026-01-21 14:20:54.13	307.30	11.73	-51.8	-69.6	3.8	7.45e-01	0	40	104	0	74	29228
2026-01-21 14:20:57.16	307.92	11.63	-51.8	-69.6	3.8	7.42e-01	0	40	104	0	74	29168
2026-01-21 14:21:00.19	308.53	11.52	-51.8	-69.6	3.8	7.46e-01	0	40	104	0	74	29216
2026-01-21 14:21:03.21	309.14	11.40	-51.8	-69.6	3.8	7.44e-01	0	40	104	0	74	29254
2026-01-21 14:21:06.23	309.74	11.29	-51.8	-69.6	3.8	7.44e-01	0	40	104	0	74	29174
2026-01-21 14:21:09.26	310.34	11.17	-51.8	-69.6	3.8	7.45e-01	0	40	104	0	74	29216
2026-01-21 14:21:12.28	310.93	11.05	-51.8	-69.6	3.8	7.45e-01	0	40	104	0	74	29304
2026-01-21 14:21:15.30	311.51	10.93	-51.8	-69.6	3.8	7.46e-01	0	40	104	0	74	29235
2026-01-21 14:21:18.33	312.09	10.81	-51.8	-69.6	3.8	7.42e-01	0	40	104	0	74	29285
2026-01-21 14:21:21.35	312.67	10.69	-51.8	-69.7	3.8	7.43e-01	0	40	104	0	74	29351
2026-01-21 14:21:24.38	313.24	10.56	-51.8	-69.6	3.8	7.44e-01	0	40	104	0	74	29176
2026-01-21 14:21:27.40	313.81	10.44	-51.8	-69.6	3.8	7.47e-01	0	40	104	0	74	29210
2026-01-21 14:21:30.42	314.37	10.31	-51.8	-69.6	3.8	7.44e-01	0	40	104	0	74	29204
2026-01-21 14:21:33.45	314.92	10.18	-51.8	-69.6	3.8	7.46e-01	0	40	104	0	74	29312
2026-01-21 14:21:36.47	315.47	10.05	-51.8	-69.6	3.8	7.47e-01	0	40	104	0	74	29233
2026-01-21 14:21:39.50	316.02	9.91	-51.8	-69.6	3.8	7.46e-01	0	40	104	0	74	29251
2026-01-21 14:21:42.52	316.56	9.78	-51.8	-69.6	3.8	7.47e-01	0	40	104	0	74	29192
2026-01-21 14:21:45.55	317.09	9.64	-51.8	-69.6	3.8	7.45e-01	0	40	104	0	74	29286
2026-01-21 14:21:48.57	317.62	9.51	-51.8	-69.6	3.8	7.45e-01	0	40	104	0	74	29238
2026-01-21 14:21:51.59	318.15	9.37	-51.8	-69.6	3.8	7.47e-01	0	40	104	0	74	29128
2026-01-21 14:21:54.62	318.67	9.23	-51.8	-69.6	3.8	7.43e-01	0	40	104	0	74	29144
2026-01-21 14:21:57.65	319.18	9.09	-51.8	-69.6	3.8	7.45e-01	0	40	104	0	74	29299
2026-01-21 14:22:00.67	319.69	8.95	-51.8	-69.6	3.8	7.44e-01	0	40	104	0	74	29246
2026-01-21 14:22:03.70	320.19	8.81	-51.8	-69.6	3.8	7.42e-01	0	40	104	0	74	29186
2026-01-21 14:22:06.72	320.69	8.66	-51.8	-69.6	3.8	7.47e-01	0	40	104	0	74	29262
2026-01-21 14:22:09.74	321.18	8.52	-51.8	-69.6	3.8	7.45e-01	0	40	104	0	74	29276
2026-01-21 14:22:12.77	321.67	8.38	-51.8	-69.6	3.8	7.45e-01	0	40	104	0	74	29209
2026-01-21 14:22:15.80	322.16	8.23	-51.8	-69.6	3.8	7.43e-01	0	40	104	0	74	29161
2026-01-21 14:22:18.82	322.63	8.08	-51.8	-69.6	3.8	7.47e-01	0	40	104	0	74	29288
2026-01-21 14:22:21.84	323.10	7.94	-51.8	-69.6	3.8	7.47e-01	0	40	104	0	74	29195
2026-01-21 14:22:24.87	323.57	7.79	-51.8	-69.6	3.8	7.46e-01	0	40	104	0	74	29272
2026-01-21 14:22:27.89	324.04	7.64	-51.8	-69.6	3.8	7.40e-01	0	40	104	0	74	29124
2026-01-21 14:22:30.92	324.49	7.50	-51.8	-69.6	3.8	7.47e-01	0	40	104	0	74	29253
2026-01-21 14:22:33.95	324.95	7.35	-51.8	-69.6	3.8	7.46e-01	0	40	104	0	74	29323
2026-01-21 14:22:36.97	325.40	7.20	-51.8	-69.6	3.8	7.48e-01	0	40	104	0	74	29263
2026-01-21 14:22:40.00	325.84	7.05	-51.8	-69.6	3.8	7.47e-01	0	40	104	0	74	29235
2026-01-21 14:22:43.02	326.28	6.90	-51.8	-69.6	3.8	7.44e-01	0	40	104	0	74	29254
2026-01-21 14:22:46.05	326.71	6.75	-51.8	-69.6	3.8	7.46e-01	0	40	104	0	74	29137
2026-01-21 14:22:49.07	327.14	6.60	-51.8	-69.6	3.8	7.47e-01	0	40	104	0	74	29075
2026-01-21 14:22:52.10	327.57	6.45	-51.8	-69.6	3.8	7.41e-01	0	40	104	0	74	29211
2026-01-21 14:22:55.12	327.99	6.30	-51.8	-69.5	3.8	7.46e-01	0	40	104	0	74	28898
2026-01-21 14:22:58.15	328.40	6.15	-51.8	-69.6	3.8	7.49e-01	0	40	104	0	74	29200
2026-01-21 14:23:01.18	328.82	5.99	-51.8	-69.6	3.8	7.42e-01	0	40	104	0	74	29209
2026-01-21 14:23:04.20	329.22	5.84	-51.8	-69.6	3.8	7.47e-01	0	40	104	0	74	29130
2026-01-21 14:23:07.23	329.63	5.69	-51.8	-69.6	3.8	7.45e-01	0	40	104	0	74	29176
2026-01-21 14:23:10.25	330.02	5.54	-51.8	-69.6	3.8	7.49e-01	0	40	104	0	74	29104
2026-01-21 14:23:13.28	330.42	5.39	-51.8	-69.6	3.8	7.46e-01	0	40	104	0	74	29028
2026-01-21 14:23:16.31	330.81	5.24	-51.8	-69.6	3.8	7.46e-01	0	40	104	0	74	29279
2026-01-21 14:23:19.33	331.19	5.08	-51.8	-69.6	3.8	7.46e-01	0	40	104	0	74	29247
2026-01-21 14:23:22.36	331.57	4.93	-51.8	-69.6	3.8	7.45e-01	0	40	104	0	74	29226
2026-01-21 14:23:25.39	331.95	4.78	-51.8	-69.6	3.8	7.46e-01	0	40	104	0	74	29102
2026-01-21 14:23:28.41	332.32	4.63	-51.8	-69.4	3.8	7.45e-01	0	40	104	0	74	28484
2026-01-21 14:23:31.44	332.69	4.48	-51.8	-69.5	3.8	7.45e-01	0	40	104	0	74	28868
2026-01-21 14:23:34.47	333.06	4.33	-51.8	-69.6	3.8	7.47e-01	0	40	104	0	74	29215
2026-01-21 14:23:37.49	333.42	4.17	-51.8	-69.6	3.8	7.42e-01	0	40	104	0	74	29157
2026-01-21 14:23:40.52	333.77	4.02	-51.8	-69.6	3.8	7.45e-01	0	40	104	0	74	29196
2026-01-21 14:23:43.55	334.13	3.87	-51.8	-69.6	3.8	7.46e-01	0	40	104	0	74	29164
2026-01-21 14:23:46.56	334.48	3.72	-51.8	-69.6	3.8	7.45e-01	0	40	104	0	74	29151
2026-01-21 14:23:49.59	334.82	3.57	-51.8	-69.3	3.8	7.42e-01	0	40	104	0	74	28266
2026-01-21 14:23:52.62	335.16	3.42	-51.8	-68.7	3.8	7.47e-01	0	40	104	0	74	26425
2026-01-21 14:23:55.64	335.50	3.27	-51.8	-69.0	3.8	7.42e-01	0	40	104	0	74	27262
2026-01-21 14:23:58.66	335.84	3.12	-51.8	-69.4	3.8	7.43e-01	0	40	104	0	74	28483
2026-01-21 14:24:01.69	336.17	2.97	-51.8	-69.6	3.8	7.42e-01	0	40	104	0	74	29130
2026-01-21 14:24:04.71	336.49	2.82	-51.8	-69.6	3.8	7.46e-01	0	40	104	0	74	29269
2026-01-21 14:24:07.74	336.82	2.67	-51.8	-69.6	3.8	7.46e-01	0	40	104	0	74	29239
2026-01-21 14:24:10.77	337.14	2.52	-51.8	-69.4	3.8	7.48e-01	0	40	104	0	74	28414
2026-01-21 14:24:13.79	337.46	2.37	-51.8	-69.4	3.8	7.45e-01	0	40	104	0	74	28421
2026-01-21 14:24:16.82	337.77	2.22	-51.8	-69.4	3.8	7.47e-01	0	40	104	0	74	28569
2026-01-21 14:24:19.84	338.08	2.07	-51.8	-69.4	3.8	7.44e-01	0	40	104	0	74	28525

#Closed at: 2026-01-21 14:24:22
#Recorded file [0 MB]: D:/lorett/data/31041_260121_171411.dat