passes_logs/2026/01/21/R3.2S_Murmansk/R3.2S_Murmansk__20260121_211703_JL1KF02B02_rec.log

#Pass ID: 20260121_211703_JL1KF02B02
#Satellite: JL1KF02B02
#Configuration: 01B_900M
#almurnet v.1.7.20251203
#Start time: 2026-01-21 21:17:03

#Version: 2.2.20231116
#Station: R3.2S_Murmansk
#Location: 33.079688 lon 68.888172 lat
#TLE: 1 61193U 24169E   26020.94997262  .00012006  00000+0  74603-3 0  9991
#TLE: 2 61193  97.5735 112.7460 0013713 115.5489 244.7159 15.09733748 73624

#Time	Az	El	Level	Level2	SNR	BER	BlckErr	Temp	State	Recorded	gain1	gain2
2026-01-21 21:17:03.51	195.98	1.99	-54.6	-56.7	6.2	0.00e+00	0	41	0	0	80	18706
2026-01-21 21:17:06.42	196.18	2.18	-54.8	-56.9	6.2	0.00e+00	0	41	104	0	80	19180
2026-01-21 21:17:09.32	196.38	2.37	-54.8	-57.0	6.2	0.00e+00	0	41	104	0	80	19263
2026-01-21 21:17:12.23	196.59	2.56	-54.7	-56.8	6.2	0.00e+00	0	41	104	0	80	18978
2026-01-21 21:17:15.14	196.80	2.75	-54.6	-56.7	6.2	0.00e+00	0	42	104	0	80	18796
2026-01-21 21:17:18.05	197.01	2.94	-54.4	-56.6	6.2	0.00e+00	0	42	104	0	80	18479
2026-01-21 21:17:20.96	197.22	3.13	-54.2	-56.4	6.2	0.00e+00	0	42	104	0	80	18039
2026-01-21 21:17:23.87	197.44	3.33	-54.0	-56.1	6.2	0.00e+00	0	42	104	0	79	18546
2026-01-21 21:17:26.77	197.66	3.53	-53.2	-55.3	6.2	0.00e+00	0	42	104	0	78	17790
2026-01-21 21:17:29.69	197.89	3.73	-53.1	-55.3	6.2	0.00e+00	0	42	104	0	78	17804
2026-01-21 21:17:32.59	198.12	3.93	-53.1	-55.3	6.2	0.00e+00	0	42	104	0	78	17798
2026-01-21 21:17:35.50	198.35	4.13	-53.1	-55.2	6.2	0.00e+00	0	42	104	0	78	17740
2026-01-21 21:17:38.41	198.59	4.33	-53.1	-55.3	6.2	0.00e+00	0	42	104	0	78	17776
2026-01-21 21:17:41.32	198.83	4.54	-53.1	-55.2	6.2	0.00e+00	0	42	104	0	78	17729
2026-01-21 21:17:44.24	199.08	4.74	-53.1	-55.2	6.2	0.00e+00	0	42	104	0	78	17739
2026-01-21 21:17:47.14	199.32	4.95	-53.0	-55.2	6.2	0.00e+00	0	42	104	0	78	17651
2026-01-21 21:17:50.05	199.58	5.16	-53.0	-55.2	6.2	0.00e+00	0	42	104	0	78	17571
2026-01-21 21:17:52.95	199.83	5.37	-53.0	-55.2	6.2	0.00e+00	0	42	104	0	78	17592
2026-01-21 21:17:55.86	200.10	5.59	-53.1	-55.3	6.2	0.00e+00	0	42	104	0	78	17877
2026-01-21 21:17:58.78	200.36	5.80	-53.1	-55.3	6.2	0.00e+00	0	42	104	0	78	17821
2026-01-21 21:18:01.69	200.64	6.02	-53.0	-55.2	6.2	0.00e+00	0	42	104	0	78	17629
2026-01-21 21:18:04.60	200.91	6.24	-53.1	-55.3	6.2	0.00e+00	0	42	104	0	78	17770
2026-01-21 21:18:07.51	201.19	6.46	-53.2	-55.3	6.2	0.00e+00	0	42	104	0	78	17946
2026-01-21 21:18:10.41	201.48	6.68	-53.1	-55.3	6.2	0.00e+00	0	43	104	0	78	17770
2026-01-21 21:18:13.32	201.77	6.91	-53.1	-55.3	6.2	0.00e+00	0	42	104	0	78	17811
2026-01-21 21:18:16.23	202.07	7.14	-53.2	-55.4	6.2	0.00e+00	0	43	104	0	78	18009
2026-01-21 21:18:19.15	202.37	7.37	-53.3	-55.4	6.2	0.00e+00	0	42	104	0	78	18073
2026-01-21 21:18:22.06	202.68	7.60	-53.2	-55.3	6.2	0.00e+00	0	43	104	0	78	17940
2026-01-21 21:18:24.97	202.99	7.83	-53.2	-55.4	6.2	0.00e+00	0	43	104	0	78	17998
2026-01-21 21:18:27.88	203.31	8.07	-53.3	-55.4	6.2	0.00e+00	0	43	104	0	78	18147
2026-01-21 21:18:30.79	203.64	8.31	-53.3	-55.5	6.2	0.00e+00	0	43	104	0	78	18186
2026-01-21 21:18:33.70	203.97	8.55	-53.2	-55.4	6.2	0.00e+00	0	43	104	0	78	18055
2026-01-21 21:18:36.60	204.31	8.79	-45.4	-45.8	6.4	0.00e+00	0	43	104	0	62	15043
2026-01-21 21:18:39.51	204.66	9.03	-44.8	-45.2	6.5	0.00e+00	0	43	104	0	61	14786
2026-01-21 21:18:42.42	205.01	9.28	-44.9	-45.3	6.5	0.00e+00	0	43	104	0	62	14191
2026-01-21 21:18:45.34	205.37	9.53	-49.7	-50.6	6.4	0.00e+00	0	43	104	0	71	15590
2026-01-21 21:18:48.25	205.73	9.78	-44.3	-44.5	6.7	0.00e+00	0	43	104	0	60	14453
2026-01-21 21:18:51.17	206.11	10.04	-33.7	-33.5	11.5	5.54e-03	0	43	104	0	38	14533
2026-01-21 21:18:54.08	206.49	10.30	-34.1	-34.0	15.9	3.05e-05	0	43	0	268435456	39	14462
2026-01-21 21:18:56.99	206.88	10.56	-29.3	-29.2	16.5	1.90e-06	0	43	0	595591168	30	13954
2026-01-21 21:18:59.90	207.28	10.82	-28.2	-28.0	17.0	0.00e+00	0	43	0	922746880	28	13761
2026-01-21 21:19:02.81	207.69	11.08	-27.4	-27.3	17.3	0.00e+00	0	43	0	1258291200	26	14134
2026-01-21 21:19:05.71	208.10	11.35	-27.1	-27.0	17.6	0.00e+00	0	43	0	1585446912	26	13659
2026-01-21 21:19:08.62	208.52	11.62	-27.0	-26.8	17.7	0.00e+00	0	43	0	1912602624	25	14230
2026-01-21 21:19:11.53	208.96	11.89	-26.8	-26.7	17.8	0.00e+00	0	43	0	2239758336	25	13962
2026-01-21 21:19:14.44	209.40	12.17	-26.7	-26.5	17.6	0.00e+00	0	43	0	2566914048	25	13781
2026-01-21 21:19:17.35	209.85	12.45	-26.7	-26.5	17.8	0.00e+00	0	43	0	2894069760	25	13720
2026-01-21 21:19:20.25	210.31	12.73	-26.6	-26.4	17.9	0.00e+00	0	43	0	3221225472	25	13577
2026-01-21 21:19:23.17	210.78	13.01	-26.4	-26.2	17.9	0.00e+00	0	44	0	3548381184	24	14108
2026-01-21 21:19:26.08	211.27	13.29	-26.2	-26.0	18.2	0.00e+00	0	44	0	3867148288	24	13733
2026-01-21 21:19:29.00	211.76	13.58	-26.1	-25.9	18.2	0.00e+00	0	44	0	4194304000	24	13564
2026-01-21 21:19:31.90	212.26	13.87	-26.1	-25.9	18.3	0.00e+00	0	43	0	4538236928	24	13587
2026-01-21 21:19:34.81	212.78	14.17	-25.8	-25.6	18.3	0.00e+00	0	44	0	4857004032	23	13861
2026-01-21 21:19:37.72	213.31	14.46	-25.7	-25.5	18.4	0.00e+00	0	44	0	5184159744	23	13765
2026-01-21 21:19:40.63	213.85	14.76	-25.8	-25.6	18.2	0.00e+00	0	44	0	5511315456	23	13927
2026-01-21 21:19:43.54	214.40	15.06	-25.6	-25.4	18.5	0.00e+00	0	44	0	5838471168	23	13612
2026-01-21 21:19:46.45	214.97	15.37	-25.6	-25.4	18.5	0.00e+00	0	44	0	6165626880	22	14342
2026-01-21 21:19:49.36	215.54	15.67	-25.3	-25.1	18.6	0.00e+00	0	44	0	6492782592	22	13885
2026-01-21 21:19:52.27	216.14	15.98	-25.3	-25.2	18.5	0.00e+00	0	44	0	6819938304	22	13963
2026-01-21 21:19:55.18	216.74	16.29	-25.2	-25.0	18.6	0.00e+00	0	44	0	7147094016	22	13750
2026-01-21 21:19:58.08	217.36	16.61	-25.1	-24.9	18.7	0.00e+00	0	44	0	7474249728	22	13596
2026-01-21 21:20:01.00	218.00	16.92	-24.8	-24.7	18.6	0.00e+00	0	44	0	7793016832	21	14003
2026-01-21 21:20:03.90	218.64	17.24	-24.7	-24.6	18.8	0.00e+00	0	44	0	8136949760	21	13843
2026-01-21 21:20:06.82	219.31	17.56	-24.7	-24.5	18.8	0.00e+00	0	44	0	8464105472	21	13729
2026-01-21 21:20:09.72	219.99	17.88	-24.4	-24.3	18.9	0.00e+00	0	44	0	8782872576	20	14154
2026-01-21 21:20:12.63	220.69	18.20	-24.4	-24.2	18.7	0.00e+00	0	44	0	9110028288	20	14100
2026-01-21 21:20:15.55	221.41	18.53	-24.3	-24.1	18.8	0.00e+00	0	44	0	9437184000	20	13894
2026-01-21 21:20:18.46	222.14	18.85	-24.4	-24.2	18.8	0.00e+00	0	44	0	9764339712	20	14043
2026-01-21 21:20:21.37	222.89	19.18	-24.1	-23.9	18.8	0.00e+00	0	44	0	10091495424	20	13527
2026-01-21 21:20:24.28	223.66	19.51	-24.0	-23.9	18.9	0.00e+00	0	44	0	10418651136	19	14322
2026-01-21 21:20:27.19	224.44	19.83	-24.2	-24.1	18.9	0.00e+00	0	44	0	10745806848	19	14615
2026-01-21 21:20:30.09	225.25	20.16	-23.8	-23.6	18.9	0.00e+00	0	44	0	11072962560	19	13901
2026-01-21 21:20:33.00	226.07	20.49	-23.9	-23.8	18.9	0.00e+00	0	44	0	11400118272	19	14162
2026-01-21 21:20:35.91	226.91	20.82	-23.7	-23.5	18.8	0.00e+00	0	44	0	11735662592	19	13742
2026-01-21 21:20:38.82	227.78	21.15	-23.7	-23.6	18.8	0.00e+00	0	44	0	12062818304	19	13808
2026-01-21 21:20:41.73	228.66	21.47	-23.4	-23.3	18.7	0.00e+00	0	44	0	12389974016	18	14113
2026-01-21 21:20:44.65	229.57	21.80	-23.3	-23.2	18.7	0.00e+00	0	44	0	12717129728	18	13979
2026-01-21 21:20:47.56	230.50	22.12	-23.4	-23.2	18.8	0.00e+00	0	44	0	13035896832	18	14085
2026-01-21 21:20:50.47	231.44	22.44	-23.4	-23.2	18.7	0.00e+00	0	44	0	13363052544	18	14009
2026-01-21 21:20:53.38	232.41	22.76	-23.2	-23.0	18.3	0.00e+00	0	44	0	13690208256	18	13756
2026-01-21 21:20:56.30	233.41	23.08	-23.1	-22.9	18.1	0.00e+00	0	44	0	14017363968	18	13594
2026-01-21 21:20:59.21	234.42	23.39	-23.0	-22.8	18.2	0.00e+00	0	44	0	14352908288	18	13400
2026-01-21 21:21:02.11	235.45	23.70	-22.8	-22.7	17.9	0.00e+00	0	44	0	14680064000	17	13987
2026-01-21 21:21:05.02	236.51	24.00	-22.7	-22.6	17.8	0.00e+00	0	44	0	15007219712	17	13807
2026-01-21 21:21:07.93	237.59	24.30	-22.6	-22.5	17.6	0.00e+00	0	44	0	15334375424	17	13643
2026-01-21 21:21:10.84	238.69	24.59	-22.6	-22.4	17.4	0.00e+00	0	44	0	15661531136	17	13543
2026-01-21 21:21:13.75	239.81	24.88	-22.5	-22.3	17.2	0.00e+00	0	44	0	15988686848	16	14172
2026-01-21 21:21:16.66	240.96	25.15	-22.4	-22.2	17.2	0.00e+00	0	44	0	16315842560	16	14025
2026-01-21 21:21:19.58	242.13	25.42	-22.2	-22.1	16.9	0.00e+00	0	44	0	16642998272	16	13811
2026-01-21 21:21:22.49	243.32	25.69	-22.2	-22.0	16.8	0.00e+00	0	44	0	16961765376	16	13723
2026-01-21 21:21:25.39	244.53	25.94	-22.1	-21.9	17.1	0.00e+00	0	44	0	17288921088	16	13594
2026-01-21 21:21:28.31	245.76	26.18	-22.1	-22.0	16.9	0.00e+00	0	44	0	17632854016	16	13655
2026-01-21 21:21:31.22	247.01	26.41	-21.8	-21.7	16.7	0.00e+00	0	44	0	17951621120	15	13983
2026-01-21 21:21:34.14	248.28	26.63	-21.9	-21.7	16.9	0.00e+00	0	44	0	18278776832	15	14111
2026-01-21 21:21:37.05	249.57	26.84	-22.0	-21.8	16.6	0.00e+00	0	44	0	18605932544	15	14207
2026-01-21 21:21:39.96	250.88	27.04	-21.9	-21.7	17.2	0.00e+00	0	44	0	18933088256	15	13984
2026-01-21 21:21:42.87	252.20	27.22	-21.8	-21.6	16.9	0.00e+00	0	44	0	19260243968	15	13850
2026-01-21 21:21:45.78	253.54	27.39	-21.7	-21.5	17.3	0.00e+00	0	44	0	19587399680	15	13779
2026-01-21 21:21:48.70	254.89	27.54	-21.7	-21.5	17.3	0.00e+00	0	44	0	19914555392	15	13715
2026-01-21 21:21:51.60	256.25	27.68	-21.7	-21.5	17.2	0.00e+00	0	44	0	20250099712	15	13770
2026-01-21 21:21:54.52	257.64	27.80	-21.7	-21.5	17.5	0.00e+00	0	44	0	20577255424	15	13759
2026-01-21 21:21:57.42	259.02	27.91	-21.6	-21.4	17.4	0.00e+00	0	44	0	20904411136	15	13596
2026-01-21 21:22:00.33	260.42	28.00	-21.6	-21.4	17.7	0.00e+00	0	44	0	21231566848	15	13586
2026-01-21 21:22:03.24	261.82	28.07	-21.6	-21.5	17.9	0.00e+00	0	44	0	21558722560	15	13642
2026-01-21 21:22:06.15	263.23	28.12	-21.7	-21.5	18.2	0.00e+00	0	44	0	21885878272	15	13733
2026-01-21 21:22:09.06	264.65	28.16	-21.7	-21.5	18.5	0.00e+00	0	44	0	22204645376	15	13766
2026-01-21 21:22:11.96	266.06	28.18	-21.8	-21.6	18.8	0.00e+00	0	44	0	22531801088	15	13887
2026-01-21 21:22:14.87	267.48	28.19	-21.8	-21.7	18.9	0.00e+00	0	44	0	22858956800	15	13997
2026-01-21 21:22:17.78	268.90	28.17	-21.8	-21.6	19.1	0.00e+00	0	44	0	23186112512	15	13906
2026-01-21 21:22:20.70	270.32	28.14	-21.9	-21.8	19.3	0.00e+00	0	44	0	23521656832	15	14167
2026-01-21 21:22:23.61	271.73	28.09	-21.9	-21.8	19.3	0.00e+00	0	44	0	23848812544	15	14145
2026-01-21 21:22:26.52	273.14	28.03	-22.1	-21.9	19.3	0.00e+00	0	44	0	24175968256	15	14344
2026-01-21 21:22:29.43	274.54	27.94	-22.1	-21.9	19.4	0.00e+00	0	44	0	24503123968	15	14379
2026-01-21 21:22:32.35	275.93	27.84	-22.1	-21.9	19.3	0.00e+00	0	44	0	24830279680	15	14401
2026-01-21 21:22:35.25	277.31	27.73	-22.1	-21.9	19.3	0.00e+00	0	44	0	25157435392	15	14372
2026-01-21 21:22:38.16	278.68	27.59	-22.2	-22.1	19.1	0.00e+00	0	44	0	25484591104	15	14625
2026-01-21 21:22:41.06	280.03	27.45	-22.2	-22.0	19.3	0.00e+00	0	44	0	25811746816	15	14601
2026-01-21 21:22:43.98	281.38	27.28	-22.2	-22.0	19.2	0.00e+00	0	44	0	26130513920	15	14540
2026-01-21 21:22:46.88	282.70	27.11	-22.2	-22.1	19.2	0.00e+00	0	44	0	26457669632	15	14658
2026-01-21 21:22:49.79	284.01	26.92	-22.3	-22.1	19.3	0.00e+00	0	44	0	26784825344	15	14762
2026-01-21 21:22:52.70	285.31	26.71	-22.4	-22.3	19.3	0.00e+00	0	44	0	27111981056	15	15012
2026-01-21 21:22:55.61	286.58	26.50	-22.4	-22.2	19.4	0.00e+00	0	44	0	27447525376	15	14873
2026-01-21 21:22:58.51	287.83	26.27	-22.5	-22.3	19.5	0.00e+00	0	44	0	27774681088	15	15016
2026-01-21 21:23:01.42	289.07	26.04	-22.5	-22.3	19.5	0.00e+00	0	44	0	28101836800	15	15064
2026-01-21 21:23:04.32	290.28	25.79	-22.5	-22.3	19.5	0.00e+00	0	44	0	28428992512	15	15097
2026-01-21 21:23:07.23	291.48	25.53	-22.8	-22.6	19.6	0.00e+00	0	44	0	28756148224	16	14695
2026-01-21 21:23:10.15	292.66	25.26	-22.8	-22.6	19.6	0.00e+00	0	44	0	29083303936	16	14772
2026-01-21 21:23:13.06	293.81	24.99	-22.9	-22.7	19.5	0.00e+00	0	44	0	29410459648	16	14860
2026-01-21 21:23:15.97	294.94	24.71	-23.0	-22.9	19.5	0.00e+00	0	44	0	29737615360	16	15152
2026-01-21 21:23:18.88	296.05	24.42	-23.0	-22.9	19.6	0.00e+00	0	44	0	30056382464	16	15155
2026-01-21 21:23:21.80	297.14	24.12	-23.1	-23.0	19.5	0.00e+00	0	44	0	30400315392	16	15313
2026-01-21 21:23:24.71	298.21	23.82	-23.2	-23.1	19.5	0.00e+00	0	44	0	30727471104	17	14618
2026-01-21 21:23:27.62	299.25	23.52	-23.3	-23.1	19.5	0.00e+00	0	44	0	31054626816	17	14761
2026-01-21 21:23:30.53	300.27	23.21	-23.3	-23.2	19.2	0.00e+00	0	44	0	31373393920	17	14814
2026-01-21 21:23:33.44	301.27	22.89	-23.5	-23.3	19.1	0.00e+00	0	44	0	31700549632	17	15025
2026-01-21 21:23:36.36	302.25	22.58	-23.5	-23.3	19.0	0.00e+00	0	44	0	32027705344	17	15103
2026-01-21 21:23:39.26	303.20	22.26	-23.7	-23.6	18.8	0.00e+00	0	44	0	32354861056	18	14635
2026-01-21 21:23:42.17	304.13	21.94	-23.8	-23.6	18.5	0.00e+00	0	44	0	32682016768	18	14743
2026-01-21 21:23:45.08	305.04	21.61	-23.8	-23.7	18.6	0.00e+00	0	44	0	33009172480	18	14787
2026-01-21 21:23:47.99	305.94	21.29	-23.9	-23.7	18.4	0.00e+00	0	44	0	33336328192	18	14926
2026-01-21 21:23:50.90	306.81	20.96	-24.1	-23.9	18.4	0.00e+00	0	44	0	33663483904	18	15201
2026-01-21 21:23:53.81	307.66	20.63	-24.3	-24.1	18.3	0.00e+00	0	44	0	33999028224	19	14692
2026-01-21 21:23:56.72	308.49	20.30	-24.4	-24.2	18.1	0.00e+00	0	44	0	34326183936	19	14858
2026-01-21 21:23:59.62	309.30	19.98	-24.4	-24.2	18.4	0.00e+00	0	44	0	34653339648	19	14932
2026-01-21 21:24:02.54	310.09	19.65	-24.6	-24.4	18.0	0.00e+00	0	44	0	34980495360	19	15280
2026-01-21 21:24:05.45	310.87	19.32	-24.6	-24.4	18.0	0.00e+00	0	44	0	35299262464	19	15201
2026-01-21 21:24:08.35	311.62	19.00	-24.6	-24.4	17.6	0.00e+00	0	44	0	35626418176	20	14408
2026-01-21 21:24:11.27	312.36	18.67	-24.7	-24.5	17.2	0.00e+00	0	44	0	35953573888	20	14607
2026-01-21 21:24:14.18	313.09	18.35	-24.8	-24.6	17.3	0.00e+00	0	44	0	36280729600	20	14776
2026-01-21 21:24:17.08	313.79	18.03	-24.9	-24.7	17.3	0.00e+00	0	44	0	36607885312	20	14932
2026-01-21 21:24:20.00	314.48	17.70	-25.1	-25.0	17.5	0.00e+00	0	44	0	36943429632	20	15312
2026-01-21 21:24:22.90	315.15	17.39	-25.1	-25.0	17.4	0.00e+00	0	44	0	37270585344	20	15340
2026-01-21 21:24:25.81	315.80	17.07	-25.3	-25.1	19.5	0.00e+00	0	44	0	37597741056	21	14723
2026-01-21 21:24:28.72	316.44	16.75	-53.8	-56.0	6.2	0.00e+00	0	44	104	37648072704	78	19444
2026-01-21 21:24:31.63	317.07	16.44	-53.9	-56.1	6.2	0.00e+00	0	44	104	37648072704	78	19588
2026-01-21 21:24:34.55	317.68	16.13	-53.8	-56.0	6.2	0.00e+00	0	44	104	37648072704	78	19406
2026-01-21 21:24:37.46	318.28	15.82	-53.9	-56.0	6.2	0.00e+00	0	44	104	37648072704	78	19392
2026-01-21 21:24:40.37	318.86	15.51	-53.8	-56.0	6.2	0.00e+00	0	44	104	37648072704	78	19267
2026-01-21 21:24:43.27	319.43	15.21	-53.6	-55.9	6.2	0.00e+00	0	44	104	37648072704	78	19167
2026-01-21 21:24:46.18	319.99	14.91	-53.8	-55.9	6.2	0.00e+00	0	44	104	37648072704	78	19206
2026-01-21 21:24:49.08	320.53	14.61	-53.7	-55.9	6.2	0.00e+00	0	44	104	37648072704	78	19112
2026-01-21 21:24:51.99	321.07	14.31	-53.7	-55.9	6.2	0.00e+00	0	44	104	37648072704	78	19120
2026-01-21 21:24:54.90	321.59	14.02	-53.6	-55.8	6.2	0.00e+00	0	44	104	37648072704	78	19027
2026-01-21 21:24:57.82	322.10	13.73	-53.7	-55.9	6.2	0.00e+00	0	44	104	37648072704	78	19052
2026-01-21 21:25:00.72	322.59	13.44	-53.6	-55.8	6.2	0.00e+00	0	43	104	37648072704	78	18885
2026-01-21 21:25:03.63	323.08	13.15	-53.6	-55.8	6.2	0.00e+00	0	43	104	37648072704	78	18937
2026-01-21 21:25:06.54	323.56	12.87	-53.5	-55.7	6.2	0.00e+00	0	43	104	37648072704	78	18795
2026-01-21 21:25:09.45	324.02	12.59	-53.6	-55.7	6.2	0.00e+00	0	43	104	37648072704	78	18769
2026-01-21 21:25:12.36	324.48	12.31	-53.6	-55.7	6.2	0.00e+00	0	43	104	37648072704	78	18719
2026-01-21 21:25:15.27	324.93	12.04	-53.5	-55.7	6.2	0.00e+00	0	43	104	37648072704	78	18716
2026-01-21 21:25:18.19	325.36	11.76	-53.6	-55.7	6.2	0.00e+00	0	44	104	37648072704	78	18658
2026-01-21 21:25:21.11	325.79	11.49	-53.5	-55.7	6.2	0.00e+00	0	44	104	37648072704	78	18640
2026-01-21 21:25:24.02	326.21	11.22	-53.5	-55.7	6.2	0.00e+00	0	43	104	37648072704	78	18619
2026-01-21 21:25:26.93	326.62	10.96	-53.5	-55.7	6.2	0.00e+00	0	43	104	37648072704	78	18627
2026-01-21 21:25:29.84	327.02	10.70	-53.5	-55.6	6.2	0.00e+00	0	43	104	37648072704	78	18479
2026-01-21 21:25:32.75	327.42	10.44	-53.4	-55.6	6.2	0.00e+00	0	43	104	37648072704	78	18401
2026-01-21 21:25:35.66	327.80	10.18	-53.4	-55.6	6.2	0.00e+00	0	43	104	37648072704	78	18420
2026-01-21 21:25:38.57	328.18	9.92	-53.4	-55.5	6.2	0.00e+00	0	43	104	37648072704	78	18387
2026-01-21 21:25:41.49	328.55	9.67	-53.4	-55.5	6.2	0.00e+00	0	43	104	37648072704	78	18292
2026-01-21 21:25:44.40	328.92	9.42	-53.4	-55.5	6.2	0.00e+00	0	43	104	37648072704	78	18244
2026-01-21 21:25:47.31	329.27	9.17	-53.3	-55.5	6.2	0.00e+00	0	43	104	37648072704	78	18210
2026-01-21 21:25:50.22	329.62	8.93	-53.3	-55.4	6.2	0.00e+00	0	43	104	37648072704	78	18147
2026-01-21 21:25:53.13	329.96	8.68	-53.3	-55.4	6.2	0.00e+00	0	44	104	37648072704	78	18115
2026-01-21 21:25:56.04	330.30	8.44	-53.3	-55.4	6.2	0.00e+00	0	43	104	37648072704	78	18073
2026-01-21 21:25:58.95	330.63	8.20	-53.2	-55.4	6.2	0.00e+00	0	44	104	37648072704	78	18067
2026-01-21 21:26:01.87	330.95	7.97	-53.2	-55.3	6.2	0.00e+00	0	43	104	37648072704	78	17939
2026-01-21 21:26:04.77	331.27	7.73	-53.2	-55.3	6.2	0.00e+00	0	43	104	37648072704	78	17958
2026-01-21 21:26:07.68	331.58	7.50	-53.2	-55.3	6.2	0.00e+00	0	43	104	37648072704	78	17843
2026-01-21 21:26:10.59	331.89	7.27	-53.2	-55.3	6.2	0.00e+00	0	43	104	37648072704	78	17866
2026-01-21 21:26:13.50	332.19	7.04	-53.1	-55.2	6.2	0.00e+00	0	43	104	37648072704	78	17730
2026-01-21 21:26:16.41	332.48	6.82	-53.1	-55.2	6.2	0.00e+00	0	43	104	37648072704	78	17667
2026-01-21 21:26:19.32	332.77	6.60	-53.1	-55.2	6.2	0.00e+00	0	43	104	37648072704	78	17742
2026-01-21 21:26:22.23	333.06	6.37	-53.0	-55.1	6.2	0.00e+00	0	43	104	37648072704	77	18550
2026-01-21 21:26:25.14	333.34	6.15	-53.0	-55.1	6.2	0.00e+00	0	44	104	37648072704	77	18576
2026-01-21 21:26:28.05	333.61	5.94	-52.8	-55.0	6.2	0.00e+00	0	44	104	37648072704	77	18224
2026-01-21 21:26:30.96	333.88	5.72	-52.9	-55.1	6.2	0.00e+00	0	44	104	37648072704	77	18519
2026-01-21 21:26:33.88	334.15	5.51	-51.6	-53.7	6.2	0.00e+00	0	43	104	37648072704	75	17705
2026-01-21 21:26:36.79	334.41	5.29	-52.3	-54.5	6.2	0.00e+00	0	43	104	37648072704	75	19271
2026-01-21 21:26:39.70	334.66	5.08	-51.0	-53.2	6.2	0.00e+00	0	43	104	37648072704	74	17619
2026-01-21 21:26:42.61	334.92	4.87	-53.4	-55.6	6.2	0.00e+00	0	44	104	37648072704	77	19497
2026-01-21 21:26:45.52	335.16	4.67	-53.8	-55.9	6.2	0.00e+00	0	43	104	37648072704	78	19186
2026-01-21 21:26:48.43	335.41	4.46	-54.0	-56.2	6.2	0.00e+00	0	43	104	37648072704	78	19753
2026-01-21 21:26:51.34	335.65	4.26	-54.0	-56.1	6.2	0.00e+00	0	43	104	37648072704	78	19594
2026-01-21 21:26:54.25	335.88	4.06	-53.8	-56.0	6.2	0.00e+00	0	43	104	37648072704	78	19270
2026-01-21 21:26:57.16	336.12	3.86	-53.9	-56.1	6.2	0.00e+00	0	43	104	37648072704	78	19497
2026-01-21 21:27:00.06	336.35	3.66	-54.0	-56.1	6.2	0.00e+00	0	44	104	37648072704	78	19604
2026-01-21 21:27:02.97	336.57	3.46	-53.9	-56.1	6.2	0.00e+00	0	43	104	37648072704	78	19555
2026-01-21 21:27:05.88	336.79	3.26	-53.9	-56.0	6.2	0.00e+00	0	43	104	37648072704	78	19364
2026-01-21 21:27:08.80	337.01	3.07	-53.9	-56.0	6.2	0.00e+00	0	43	104	37648072704	78	19356
2026-01-21 21:27:11.70	337.23	2.88	-53.9	-56.0	6.2	0.00e+00	0	43	104	37648072704	78	19265
2026-01-21 21:27:14.61	337.44	2.69	-53.8	-56.0	6.2	0.00e+00	0	44	104	37648072704	78	19350
2026-01-21 21:27:17.52	337.65	2.50	-53.8	-56.0	6.2	0.00e+00	0	43	104	37648072704	78	19263
2026-01-21 21:27:20.44	337.85	2.31	-53.8	-55.9	6.2	0.00e+00	0	44	104	37648072704	78	19247
2026-01-21 21:27:23.35	338.06	2.12	-53.8	-55.9	6.2	0.00e+00	0	44	104	37648072704	78	19220

#Closed at: 2026-01-21 21:27:26
#Recorded file [37648 MB]: D:/lorett/data/31041_260122_001703.dat