passes_logs/2026/01/21/R3.2S_Murmansk/R3.2S_Murmansk__20260121_085641_TY-42_rec.log

#Pass ID: 20260121_085641_TY-42
#Satellite: TY-42
#Configuration: TY-42_900M
#almurnet v.1.7.20251203
#Start time: 2026-01-21 08:56:43

#Version: 2.2.20231116
#Station: R3.2S_Murmansk
#Location: 33.079688 lon 68.888172 lat
#TLE: 1 64048U 25103A   26020.90027778  .00008008  00000-0  38191-3 0 09994
#TLE: 2 64048 097.4121 096.2065 0001560 086.9654 301.4475 15.19159220 37713

#Time	Az	El	Level	Level2	SNR	BER	BlckErr	Temp	State	Recorded	gain1	gain2
2026-01-21 08:56:43.04	20.88	2.12	-54.5	-56.6	6.2	0.00e+00	0	48	0	0	80	18528
2026-01-21 08:56:46.07	20.96	2.33	-54.7	-56.8	6.2	0.00e+00	0	48	104	0	81	17857
2026-01-21 08:56:49.09	21.04	2.54	-54.6	-56.7	6.2	0.00e+00	0	48	104	0	81	17759
2026-01-21 08:56:52.11	21.12	2.75	-54.5	-56.7	6.2	0.00e+00	0	48	104	0	81	17624
2026-01-21 08:56:55.14	21.21	2.97	-54.4	-56.5	6.2	0.00e+00	0	48	104	0	80	18357
2026-01-21 08:56:58.16	21.29	3.19	-54.2	-56.3	6.2	0.00e+00	0	49	104	0	80	17909
2026-01-21 08:57:01.19	21.38	3.41	-53.9	-56.0	6.2	0.00e+00	0	49	104	0	79	18212
2026-01-21 08:57:04.21	21.46	3.63	-52.9	-55.0	6.2	0.00e+00	0	49	104	0	77	18373
2026-01-21 08:57:07.23	21.55	3.85	-52.7	-54.8	6.2	0.00e+00	0	49	104	0	77	17855
2026-01-21 08:57:10.26	21.64	4.08	-52.7	-54.8	6.2	0.00e+00	0	49	104	0	77	17881
2026-01-21 08:57:13.28	21.73	4.31	-52.8	-54.9	6.2	0.00e+00	0	49	104	0	77	18009
2026-01-21 08:57:16.30	21.82	4.55	-52.8	-54.9	6.2	0.00e+00	0	49	104	0	77	18112
2026-01-21 08:57:19.33	21.92	4.78	-52.8	-54.9	6.2	0.00e+00	0	49	104	0	77	18084
2026-01-21 08:57:22.35	22.01	5.02	-52.8	-54.9	6.2	0.00e+00	0	49	104	0	77	18022
2026-01-21 08:57:25.37	22.11	5.26	-52.8	-54.9	6.2	0.00e+00	0	49	104	0	77	18034
2026-01-21 08:57:28.40	22.21	5.50	-52.7	-54.9	6.2	0.00e+00	0	49	104	0	77	17974
2026-01-21 08:57:31.42	22.31	5.75	-38.7	-38.7	12.5	1.18e-02	0	51	0	33554432	47	15701
2026-01-21 08:57:34.44	22.42	6.00	-36.4	-36.3	13.9	0.00e+00	0	51	0	184549376	44	14192
2026-01-21 08:57:37.47	22.52	6.25	-36.3	-36.2	14.0	1.90e-02	0	51	0	520093696	43	14922
2026-01-21 08:57:40.49	22.63	6.51	-36.0	-35.9	14.1	2.29e-02	0	51	0	855638016	43	14419
2026-01-21 08:57:43.51	22.74	6.77	-36.1	-36.0	14.0	1.99e-02	0	52	0	1199570944	43	14569
2026-01-21 08:57:46.54	22.85	7.03	-36.0	-35.9	14.0	1.96e-02	0	52	0	1535115264	43	14344
2026-01-21 08:57:49.56	22.96	7.30	-35.9	-35.8	14.1	1.79e-02	0	52	0	1879048192	42	15047
2026-01-21 08:57:52.59	23.08	7.57	-35.7	-35.6	14.2	1.85e-02	0	52	0	2222981120	42	14729
2026-01-21 08:57:55.61	23.20	7.85	-35.6	-35.5	14.3	1.63e-02	0	52	0	2558525440	42	14504
2026-01-21 08:57:58.63	23.32	8.12	-35.4	-35.3	14.4	1.56e-02	0	52	0	2894069760	42	14239
2026-01-21 08:58:01.66	23.44	8.41	-35.3	-35.2	14.5	1.43e-02	0	52	0	3246391296	42	13976
2026-01-21 08:58:04.68	23.57	8.69	-35.2	-35.2	14.5	1.19e-02	0	53	0	3581935616	42	13951
2026-01-21 08:58:07.70	23.70	8.98	-34.9	-34.8	14.6	1.05e-02	0	52	0	3917479936	41	14128
2026-01-21 08:58:10.73	23.83	9.28	-34.8	-34.7	14.6	8.89e-03	0	53	0	4253024256	41	14029
2026-01-21 08:58:13.75	23.96	9.58	-34.6	-34.6	14.7	7.65e-03	0	53	0	4605345792	41	13794
2026-01-21 08:58:16.77	24.10	9.88	-34.5	-34.4	14.8	6.86e-03	0	53	0	4940890112	40	14389
2026-01-21 08:58:19.80	24.24	10.19	-34.2	-34.1	14.9	6.14e-03	0	53	0	5276434432	40	13946
2026-01-21 08:58:22.82	24.39	10.51	-34.1	-34.0	15.0	5.11e-03	0	53	0	5620367360	39	14463
2026-01-21 08:58:25.85	24.54	10.83	-33.9	-33.8	15.1	4.15e-03	0	53	0	5964300288	39	14261
2026-01-21 08:58:28.87	24.69	11.15	-33.8	-33.7	15.1	3.66e-03	0	53	0	6299844608	39	14100
2026-01-21 08:58:31.89	24.84	11.48	-33.7	-33.6	15.2	3.42e-03	0	53	0	6643777536	39	13896
2026-01-21 08:58:34.92	25.00	11.82	-33.6	-33.5	15.2	3.03e-03	0	53	0	6979321856	39	13769
2026-01-21 08:58:37.94	25.17	12.16	-33.5	-33.4	15.2	2.78e-03	0	53	0	7314866176	38	14325
2026-01-21 08:58:40.97	25.33	12.51	-33.2	-33.1	15.3	2.38e-03	0	54	0	7667187712	38	13941
2026-01-21 08:58:43.99	25.51	12.87	-33.3	-33.2	15.3	2.09e-03	0	54	0	8002732032	38	14060
2026-01-21 08:58:47.01	25.68	13.23	-33.0	-32.8	15.4	1.90e-03	0	54	0	8338276352	37	14267
2026-01-21 08:58:50.03	25.87	13.60	-32.8	-32.7	15.5	1.53e-03	0	54	0	8673820672	37	14083
2026-01-21 08:58:53.05	26.05	13.98	-32.6	-32.5	15.5	1.27e-03	0	54	0	9026142208	37	13724
2026-01-21 08:58:56.08	26.25	14.36	-32.4	-32.3	15.6	9.58e-04	0	54	0	9361686528	36	14157
2026-01-21 08:58:59.10	26.44	14.75	-32.4	-32.3	15.6	7.87e-04	0	54	0	9697230848	36	14193
2026-01-21 08:59:02.13	26.65	15.15	-32.3	-32.2	15.7	6.10e-04	0	54	0	10041163776	36	14093
2026-01-21 08:59:05.15	26.86	15.56	-29.6	-29.5	15.4	1.13e-03	0	54	0	10385096704	31	13684
2026-01-21 08:59:08.17	27.08	15.98	-29.4	-29.2	15.5	1.28e-03	0	54	0	10720641024	30	14103
2026-01-21 08:59:11.19	27.30	16.40	-29.2	-29.1	15.5	1.34e-03	0	54	0	11064573952	30	13923
2026-01-21 08:59:14.22	27.53	16.84	-29.1	-29.0	15.6	1.28e-03	0	54	0	11400118272	30	13785
2026-01-21 08:59:17.24	27.77	17.28	-29.1	-29.0	15.6	1.11e-03	0	54	0	11744051200	30	13678
2026-01-21 08:59:20.26	28.01	17.74	-28.9	-28.8	15.7	9.87e-04	0	54	0	12087984128	29	14177
2026-01-21 08:59:23.29	28.27	18.21	-28.6	-28.5	15.7	8.53e-04	0	54	0	12423528448	29	13747
2026-01-21 08:59:26.31	28.53	18.68	-28.7	-28.6	15.7	5.77e-04	0	54	0	12759072768	29	13799
2026-01-21 08:59:29.34	28.81	19.17	-28.3	-28.2	15.8	5.34e-04	0	54	0	13094617088	28	14039
2026-01-21 08:59:32.36	29.09	19.67	-28.1	-28.0	15.9	3.58e-04	0	54	0	13446938624	28	13714
2026-01-21 08:59:35.38	29.38	20.18	-28.0	-27.9	16.0	2.29e-04	0	54	0	13782482944	27	14341
2026-01-21 08:59:38.42	29.69	20.71	-28.0	-27.8	16.0	1.81e-04	0	54	0	14118027264	27	14256
2026-01-21 08:59:41.44	30.00	21.25	-27.6	-27.5	16.1	1.81e-04	0	54	0	14461960192	27	13731
2026-01-21 08:59:44.47	30.33	21.80	-27.3	-27.2	16.2	1.14e-04	0	54	0	14805893120	26	14045
2026-01-21 08:59:47.49	30.67	22.37	-26.9	-26.8	16.3	6.19e-05	0	54	0	15149826048	25	14161
2026-01-21 08:59:50.51	31.03	22.95	-26.8	-26.7	16.3	6.19e-05	0	54	0	15485370368	25	13961
2026-01-21 08:59:53.54	31.40	23.55	-26.5	-26.4	16.4	3.81e-05	0	54	0	15829303296	25	13527
2026-01-21 08:59:56.57	31.78	24.17	-26.1	-26.0	16.5	4.70e-06	0	54	0	16173236224	24	13753
2026-01-21 08:59:59.59	32.18	24.80	-26.0	-25.9	16.5	4.70e-06	0	54	0	16508780544	23	14309
2026-01-21 09:00:02.61	32.60	25.44	-25.8	-25.7	16.5	1.43e-05	0	54	0	16844324864	23	13987
2026-01-21 09:00:05.63	33.04	26.11	-25.5	-25.3	16.6	2.38e-05	0	54	0	17179869184	23	13476
2026-01-21 09:00:08.66	33.50	26.80	-25.2	-25.1	16.7	4.70e-06	0	54	0	17532190720	22	13835
2026-01-21 09:00:11.69	33.99	27.50	-25.1	-25.0	16.7	4.70e-06	0	54	0	17867735040	22	13644
2026-01-21 09:00:14.70	34.49	28.23	-24.9	-24.8	16.7	0.00e+00	0	54	0	18203279360	21	14167
2026-01-21 09:00:17.73	35.02	28.98	-24.6	-24.5	16.8	0.00e+00	0	54	0	18547212288	21	13641
2026-01-21 09:00:20.76	35.58	29.75	-24.4	-24.2	16.8	0.00e+00	0	54	0	18891145216	20	14078
2026-01-21 09:00:23.78	36.16	30.54	-24.1	-24.0	16.9	0.00e+00	0	54	0	19226689536	20	13731
2026-01-21 09:00:26.80	36.78	31.35	-23.9	-23.8	16.9	0.00e+00	0	54	0	19570622464	19	14197
2026-01-21 09:00:29.83	37.44	32.19	-23.7	-23.6	16.9	0.00e+00	0	54	0	19906166784	19	13892
2026-01-21 09:00:32.85	38.13	33.05	-23.4	-23.3	17.0	0.00e+00	0	54	0	20250099712	18	14156
2026-01-21 09:00:35.87	38.85	33.94	-23.1	-23.0	17.0	0.00e+00	0	54	0	20594032640	18	13651
2026-01-21 09:00:38.90	39.63	34.86	-22.7	-22.6	17.1	0.00e+00	0	54	0	20929576960	17	13861
2026-01-21 09:00:41.92	40.45	35.80	-22.4	-22.3	17.1	0.00e+00	0	54	0	21265121280	16	14182
2026-01-21 09:00:44.94	41.32	36.76	-22.1	-22.0	17.2	0.00e+00	0	54	0	21617442816	16	13727
2026-01-21 09:00:47.97	42.25	37.76	-21.8	-21.7	17.2	0.00e+00	0	54	0	21952987136	15	14054
2026-01-21 09:00:50.99	43.24	38.77	-21.3	-21.2	17.3	0.00e+00	0	54	0	22288531456	14	14029
2026-01-21 09:00:54.02	44.30	39.82	-21.2	-21.1	17.3	0.00e+00	0	54	0	22624075776	14	13817
2026-01-21 09:00:57.05	45.43	40.89	-20.9	-20.7	17.3	0.00e+00	0	54	0	22976397312	13	14062
2026-01-21 09:01:00.07	46.64	41.99	-20.4	-20.2	17.4	0.00e+00	0	54	0	23311941632	12	14098
2026-01-21 09:01:03.08	47.94	43.10	-20.4	-20.2	17.4	0.00e+00	0	54	0	23647485952	12	14072
2026-01-21 09:01:06.10	49.34	44.24	-20.1	-19.9	17.4	0.00e+00	0	54	0	23991418880	11	14440
2026-01-21 09:01:09.13	50.84	45.40	-19.8	-19.6	17.5	0.00e+00	0	54	0	24326963200	11	13950
2026-01-21 09:01:12.15	52.47	46.57	-19.6	-19.5	17.5	0.00e+00	0	54	0	24670896128	11	13704
2026-01-21 09:01:15.17	54.22	47.75	-19.3	-19.1	17.5	0.00e+00	0	54	0	25014829056	10	13945
2026-01-21 09:01:18.19	56.11	48.94	-19.2	-19.0	17.6	0.00e+00	0	54	0	25350373376	10	13764
2026-01-21 09:01:21.22	58.17	50.13	-18.6	-18.4	17.7	0.00e+00	0	54	0	25685917696	9	13628
2026-01-21 09:01:24.24	60.39	51.32	-18.6	-18.4	17.7	0.00e+00	0	54	0	26038239232	9	13583
2026-01-21 09:01:27.26	62.79	52.49	-18.2	-18.0	17.7	0.00e+00	0	54	0	26373783552	8	13786
2026-01-21 09:01:30.29	65.41	53.64	-18.0	-17.8	17.7	0.00e+00	0	54	0	26709327872	7	14216
2026-01-21 09:01:33.31	68.23	54.75	-17.9	-17.8	17.7	0.00e+00	0	54	0	27044872192	7	14158
2026-01-21 09:01:36.33	71.27	55.81	-17.7	-17.5	17.8	0.00e+00	0	54	0	27388805120	7	13784
2026-01-21 09:01:39.36	74.57	56.81	-17.6	-17.5	17.7	0.00e+00	0	54	0	27732738048	7	13639
2026-01-21 09:01:42.38	78.09	57.73	-17.4	-17.3	17.7	0.00e+00	0	54	0	28068282368	6	14128
2026-01-21 09:01:45.41	81.87	58.57	-17.1	-17.0	17.7	0.00e+00	0	54	0	28412215296	6	13715
2026-01-21 09:01:48.43	85.87	59.29	-17.2	-17.1	17.7	0.00e+00	0	54	0	28747759616	6	13798
2026-01-21 09:01:51.45	90.08	59.89	-17.3	-17.2	17.7	0.00e+00	0	54	0	29091692544	6	13967
2026-01-21 09:01:54.48	94.48	60.35	-17.3	-17.2	17.7	0.00e+00	0	54	0	29435625472	6	13966
2026-01-21 09:01:57.50	99.00	60.66	-17.1	-17.0	17.7	0.00e+00	0	54	0	29771169792	6	13694
2026-01-21 09:02:00.53	103.62	60.82	-17.1	-17.0	17.7	0.00e+00	0	54	0	30106714112	6	13634
2026-01-21 09:02:03.55	108.25	60.81	-17.2	-17.1	17.7	0.00e+00	0	54	0	30459035648	6	13819
2026-01-21 09:02:06.58	112.87	60.64	-16.9	-16.8	17.6	0.00e+00	0	54	0	30794579968	5	14211
2026-01-21 09:02:09.60	117.39	60.31	-17.0	-16.9	17.6	0.00e+00	0	54	0	31130124288	5	14323
2026-01-21 09:02:12.62	121.76	59.84	-17.2	-17.1	17.6	0.00e+00	0	54	0	31465668608	5	14700
2026-01-21 09:02:15.64	125.95	59.23	-17.1	-17.0	17.5	0.00e+00	0	54	0	31817990144	5	14462
2026-01-21 09:02:18.67	129.94	58.49	-17.2	-17.1	17.5	0.00e+00	0	54	0	32153534464	5	14674
2026-01-21 09:02:21.70	133.70	57.65	-17.4	-17.2	17.5	0.00e+00	0	54	0	32497467392	5	14912
2026-01-21 09:02:24.72	137.21	56.71	-17.4	-17.3	17.6	0.00e+00	0	54	0	32833011712	5	14995
2026-01-21 09:02:27.74	140.48	55.71	-17.5	-17.4	17.7	0.00e+00	0	54	0	33176944640	5	15221
2026-01-21 09:02:30.76	143.51	54.64	-17.8	-17.6	17.7	0.00e+00	0	54	0	33520877568	6	14773
2026-01-21 09:02:33.78	146.31	53.52	-54.4	-56.7	6.2	0.00e+00	0	53	104	33806090240	79	19733
2026-01-21 09:02:36.81	148.91	52.37	-54.4	-56.6	6.2	0.00e+00	0	53	104	33806090240	79	19492
2026-01-21 09:02:39.84	151.31	51.19	-54.4	-56.5	6.2	0.00e+00	0	53	104	33806090240	79	19435
2026-01-21 09:02:42.86	153.52	50.00	-54.4	-56.6	6.2	0.00e+00	0	52	104	33806090240	79	19491
2026-01-21 09:02:45.89	155.56	48.80	-54.4	-56.5	6.2	0.00e+00	0	52	104	33806090240	79	19311
2026-01-21 09:02:48.91	157.44	47.61	-54.4	-56.5	6.2	0.00e+00	0	52	104	33806090240	79	19354
2026-01-21 09:02:51.93	159.18	46.42	-54.3	-56.5	6.2	0.00e+00	0	52	104	33806090240	79	19299
2026-01-21 09:02:54.96	160.80	45.24	-54.3	-56.5	6.2	0.00e+00	0	52	104	33806090240	79	19267
2026-01-21 09:02:57.98	162.30	44.09	-54.3	-56.4	6.2	0.00e+00	0	52	104	33806090240	79	19157
2026-01-21 09:03:01.00	163.68	42.95	-54.3	-56.4	6.2	0.00e+00	0	52	104	33806090240	79	19133
2026-01-21 09:03:04.03	164.98	41.82	-54.3	-56.4	6.2	0.00e+00	0	52	104	33806090240	79	19130
2026-01-21 09:03:07.05	166.18	40.73	-54.3	-56.4	6.2	0.00e+00	0	52	104	33806090240	79	19042
2026-01-21 09:03:10.07	167.31	39.66	-54.2	-56.3	6.2	0.00e+00	0	52	104	33806090240	79	19003
2026-01-21 09:03:13.09	168.36	38.61	-54.2	-56.3	6.2	0.00e+00	0	52	104	33806090240	79	18942
2026-01-21 09:03:16.12	169.34	37.59	-54.2	-56.3	6.2	0.00e+00	0	52	104	33806090240	79	18941
2026-01-21 09:03:19.14	170.27	36.60	-54.2	-56.3	6.2	0.00e+00	0	51	104	33806090240	79	18990
2026-01-21 09:03:22.16	171.13	35.63	-54.1	-56.2	6.2	0.00e+00	0	52	104	33806090240	79	18811
2026-01-21 09:03:25.19	171.95	34.69	-54.1	-56.2	6.2	0.00e+00	0	51	104	33806090240	79	18636
2026-01-21 09:03:28.21	172.72	33.78	-54.1	-56.1	6.2	0.00e+00	0	51	104	33806090240	79	18547
2026-01-21 09:03:31.24	173.45	32.89	-54.1	-56.2	6.2	0.00e+00	0	51	104	33806090240	79	18683
2026-01-21 09:03:34.26	174.13	32.02	-54.0	-56.1	6.2	0.00e+00	0	51	104	33806090240	79	18554
2026-01-21 09:03:37.29	174.78	31.18	-54.0	-56.1	6.2	0.00e+00	0	51	104	33806090240	79	18469
2026-01-21 09:03:40.31	175.40	30.37	-54.0	-56.1	6.2	0.00e+00	0	51	104	33806090240	79	18575
2026-01-21 09:03:43.33	175.98	29.58	-54.0	-56.1	6.2	0.00e+00	0	51	104	33806090240	79	18393
2026-01-21 09:03:46.36	176.54	28.81	-53.9	-56.0	6.2	0.00e+00	0	51	104	33806090240	79	18277
2026-01-21 09:03:49.38	177.06	28.06	-54.0	-56.1	6.2	0.00e+00	0	51	104	33806090240	79	18555
2026-01-21 09:03:52.40	177.57	27.34	-53.9	-56.1	6.2	0.00e+00	0	51	104	33806090240	79	18433
2026-01-21 09:03:55.43	178.05	26.63	-54.0	-56.1	6.2	0.00e+00	0	51	104	33806090240	79	18461
2026-01-21 09:03:58.45	178.50	25.94	-53.9	-56.0	6.2	0.00e+00	0	51	104	33806090240	79	18337
2026-01-21 09:04:01.47	178.94	25.28	-53.9	-56.0	6.2	0.00e+00	0	51	104	33806090240	79	18262
2026-01-21 09:04:04.50	179.36	24.63	-53.9	-56.0	6.2	0.00e+00	0	51	104	33806090240	79	18384
2026-01-21 09:04:07.52	179.76	24.00	-53.9	-56.0	6.2	0.00e+00	0	51	104	33806090240	79	18270
2026-01-21 09:04:10.55	180.14	23.38	-53.8	-56.0	6.2	0.00e+00	0	51	104	33806090240	79	18202
2026-01-21 09:04:13.57	180.51	22.78	-53.8	-56.0	6.2	0.00e+00	0	51	104	33806090240	79	18212
2026-01-21 09:04:16.59	180.86	22.20	-53.8	-56.0	6.2	0.00e+00	0	51	104	33806090240	79	18201
2026-01-21 09:04:19.61	181.20	21.63	-53.8	-55.9	6.2	0.00e+00	0	51	104	33806090240	79	18167
2026-01-21 09:04:22.64	181.53	21.08	-53.8	-55.9	6.2	0.00e+00	0	51	104	33806090240	79	18036
2026-01-21 09:04:25.67	181.84	20.54	-53.8	-55.9	6.2	0.00e+00	0	51	104	33806090240	79	18019
2026-01-21 09:04:28.69	182.14	20.01	-53.7	-55.9	6.2	0.00e+00	0	51	104	33806090240	79	18007
2026-01-21 09:04:31.71	182.43	19.50	-53.7	-55.9	6.2	0.00e+00	0	51	104	33806090240	79	18001
2026-01-21 09:04:34.74	182.72	19.00	-53.7	-55.8	6.2	0.00e+00	0	51	104	33806090240	79	17958
2026-01-21 09:04:37.76	182.99	18.51	-53.7	-55.8	6.2	0.00e+00	0	51	104	33806090240	79	17938
2026-01-21 09:04:40.79	183.25	18.04	-53.7	-55.8	6.2	0.00e+00	0	51	104	33806090240	79	17803
2026-01-21 09:04:43.81	183.50	17.57	-53.7	-55.8	6.2	0.00e+00	0	51	104	33806090240	79	17819
2026-01-21 09:04:46.83	183.75	17.11	-53.6	-55.8	6.2	0.00e+00	0	51	104	33806090240	79	17768
2026-01-21 09:04:49.85	183.98	16.67	-53.6	-55.8	6.2	0.00e+00	0	51	104	33806090240	79	17820
2026-01-21 09:04:52.88	184.21	16.23	-53.6	-55.7	6.2	0.00e+00	0	51	104	33806090240	79	17734
2026-01-21 09:04:55.90	184.43	15.81	-53.6	-55.7	6.2	0.00e+00	0	51	104	33806090240	79	17664
2026-01-21 09:04:58.93	184.65	15.39	-53.6	-55.7	6.2	0.00e+00	0	51	104	33806090240	79	17610
2026-01-21 09:05:01.95	184.86	14.98	-53.6	-55.7	6.2	0.00e+00	0	51	104	33806090240	79	17661
2026-01-21 09:05:04.97	185.06	14.58	-53.5	-55.7	6.2	0.00e+00	0	51	104	33806090240	79	17609
2026-01-21 09:05:07.99	185.26	14.19	-53.5	-55.6	6.2	0.00e+00	0	51	104	33806090240	79	17550
2026-01-21 09:05:11.02	185.45	13.81	-53.5	-55.6	6.2	0.00e+00	0	51	104	33806090240	79	17521
2026-01-21 09:05:14.04	185.63	13.43	-53.5	-55.6	6.2	0.00e+00	0	51	104	33806090240	79	17478
2026-01-21 09:05:17.07	185.81	13.06	-53.4	-55.5	6.2	0.00e+00	0	51	104	33806090240	78	18371
2026-01-21 09:05:20.09	185.99	12.70	-53.4	-55.5	6.2	0.00e+00	0	51	104	33806090240	78	18376
2026-01-21 09:05:23.11	186.16	12.34	-53.4	-55.5	6.2	0.00e+00	0	51	104	33806090240	78	18325
2026-01-21 09:05:26.13	186.33	11.99	-53.4	-55.5	6.2	0.00e+00	0	51	104	33806090240	78	18388
2026-01-21 09:05:29.16	186.49	11.65	-53.4	-55.5	6.2	0.00e+00	0	51	104	33806090240	78	18267
2026-01-21 09:05:32.18	186.65	11.31	-53.4	-55.4	6.2	0.00e+00	0	51	104	33806090240	78	18175
2026-01-21 09:05:35.21	186.80	10.98	-53.3	-55.4	6.2	0.00e+00	0	51	104	33806090240	78	18145
2026-01-21 09:05:38.23	186.95	10.66	-53.4	-55.4	6.2	0.00e+00	0	51	104	33806090240	78	18179
2026-01-21 09:05:41.25	187.10	10.34	-53.3	-55.4	6.2	0.00e+00	0	51	104	33806090240	78	18005
2026-01-21 09:05:44.27	187.24	10.02	-53.3	-55.4	6.2	0.00e+00	0	51	104	33806090240	78	18010
2026-01-21 09:05:47.30	187.38	9.71	-53.2	-55.3	6.2	0.00e+00	0	51	104	33806090240	78	17938
2026-01-21 09:05:50.32	187.52	9.41	-53.2	-55.4	6.2	0.00e+00	0	51	104	33806090240	78	17993
2026-01-21 09:05:53.35	187.65	9.11	-53.2	-55.3	6.2	0.00e+00	0	51	104	33806090240	78	17854
2026-01-21 09:05:56.37	187.78	8.81	-53.2	-55.3	6.2	0.00e+00	0	51	104	33806090240	78	17773
2026-01-21 09:05:59.40	187.91	8.52	-53.1	-55.2	6.2	0.00e+00	0	51	104	33806090240	78	17754
2026-01-21 09:06:02.42	188.03	8.23	-53.1	-55.3	6.2	0.00e+00	0	51	104	33806090240	78	17795
2026-01-21 09:06:05.45	188.15	7.95	-53.1	-55.2	6.2	0.00e+00	0	51	104	33806090240	78	17699
2026-01-21 09:06:08.47	188.27	7.67	-53.0	-55.1	6.2	0.00e+00	0	51	104	33806090240	78	17549
2026-01-21 09:06:11.49	188.39	7.40	-53.0	-55.1	6.2	0.00e+00	0	51	104	33806090240	78	17523
2026-01-21 09:06:14.51	188.50	7.13	-53.0	-55.1	6.2	0.00e+00	0	51	104	33806090240	77	18519
2026-01-21 09:06:17.54	188.61	6.86	-53.0	-55.1	6.2	0.00e+00	0	51	104	33806090240	77	18437
2026-01-21 09:06:20.56	188.72	6.60	-52.9	-55.0	6.2	0.00e+00	0	51	104	33806090240	77	18315
2026-01-21 09:06:23.58	188.83	6.34	-52.9	-55.0	6.2	0.00e+00	0	51	104	33806090240	77	18324
2026-01-21 09:06:26.61	188.94	6.08	-52.8	-55.0	6.2	0.00e+00	0	51	104	33806090240	77	18205
2026-01-21 09:06:29.63	189.04	5.83	-52.8	-55.0	6.2	0.00e+00	0	50	104	33806090240	77	18231
2026-01-21 09:06:32.66	189.14	5.58	-52.7	-54.8	6.2	0.00e+00	0	50	104	33806090240	77	17888
2026-01-21 09:06:35.68	189.24	5.33	-52.7	-54.9	6.2	0.00e+00	0	50	104	33806090240	77	18013
2026-01-21 09:06:38.71	189.34	5.08	-52.6	-54.8	6.2	0.00e+00	0	51	104	33806090240	77	17780
2026-01-21 09:06:41.73	189.43	4.84	-53.5	-55.6	6.2	0.00e+00	0	51	104	33806090240	77	19641
2026-01-21 09:06:44.75	189.53	4.61	-54.0	-56.1	6.2	0.00e+00	0	51	104	33806090240	78	19700
2026-01-21 09:06:47.78	189.62	4.37	-54.3	-56.4	6.2	0.00e+00	0	51	104	33806090240	79	19078
2026-01-21 09:06:50.80	189.71	4.14	-54.4	-56.5	6.2	0.00e+00	0	51	104	33806090240	79	19403
2026-01-21 09:06:53.82	189.80	3.91	-54.6	-56.7	6.2	0.00e+00	0	51	104	33806090240	79	19737
2026-01-21 09:06:56.84	189.89	3.68	-54.6	-56.8	6.2	0.00e+00	0	51	104	33806090240	79	19964
2026-01-21 09:06:59.87	189.97	3.45	-54.7	-56.8	6.2	0.00e+00	0	51	104	33806090240	80	19019
2026-01-21 09:07:02.89	190.06	3.23	-54.7	-56.8	6.2	0.00e+00	0	50	104	33806090240	80	18952
2026-01-21 09:07:05.92	190.14	3.01	-54.6	-56.7	6.2	0.00e+00	0	51	104	33806090240	80	18744
2026-01-21 09:07:08.94	190.22	2.79	-54.4	-56.5	6.2	0.00e+00	0	51	104	33806090240	80	18312
2026-01-21 09:07:11.97	190.31	2.57	-54.0	-56.1	6.2	0.00e+00	0	51	104	33806090240	80	17500
2026-01-21 09:07:14.99	190.38	2.36	-53.9	-56.1	6.2	0.00e+00	0	50	104	33806090240	79	18413
2026-01-21 09:07:18.01	190.46	2.15	-53.9	-56.1	6.2	0.00e+00	0	51	104	33806090240	79	18433

#Closed at: 2026-01-21 09:07:20
#Recorded file [33806 MB]: D:/lorett/data/31041_260121_115642.dat