passes_logs/2026/01/21/R3.2S_Murmansk/R3.2S_Murmansk__20260121_055758_SUOMI_NPP_rec.log

#Pass ID: 20260121_055758_SUOMI NPP
#Satellite: SUOMI NPP
#Configuration: NPP
#almurnet v.1.7.20251203
#Start time: 2026-01-21 05:57:59

#Version: 2.2.20231116
#Station: R3.2S_Murmansk
#Location: 33.079688 lon 68.888172 lat
#TLE: 1 37849U 11061A   26020.31993517  .00000142  00000+0  88240-4 0  9990
#TLE: 2 37849  98.7818 322.3228 0002330  54.3778 305.7615 14.19527005737466

#Time	Az	El	Level	Level2	SNR	BER	BlckErr	Temp	State	Recorded	gain1	gain2
2026-01-21 05:57:59.15	73.87	2.05	-48.0	-62.9	3.8	1.49e+00	0	38	0	0	66	21456
2026-01-21 05:58:02.17	73.68	2.22	-48.0	-62.9	3.8	1.49e+00	0	38	104	0	66	21419
2026-01-21 05:58:05.19	73.49	2.40	-48.0	-62.9	3.8	1.49e+00	0	38	104	0	66	21427
2026-01-21 05:58:08.22	73.29	2.57	-48.0	-62.9	3.8	1.49e+00	0	38	104	0	66	21451
2026-01-21 05:58:11.24	73.10	2.75	-48.1	-62.9	3.8	1.49e+00	0	38	104	0	66	21434
2026-01-21 05:58:14.27	72.90	2.93	-48.0	-62.9	3.8	1.49e+00	0	38	104	0	66	21462
2026-01-21 05:58:17.29	72.70	3.10	-48.0	-63.0	3.8	1.49e+00	0	38	104	0	66	21508
2026-01-21 05:58:20.31	72.50	3.28	-48.0	-62.9	3.8	1.49e+00	0	38	104	0	66	21432
2026-01-21 05:58:23.34	72.29	3.46	-48.0	-62.9	3.8	1.49e+00	0	38	104	0	66	21476
2026-01-21 05:58:26.36	72.09	3.64	-48.0	-62.9	3.8	1.49e+00	0	39	104	0	66	21429
2026-01-21 05:58:29.38	71.87	3.82	-48.0	-62.9	3.8	1.49e+00	0	38	104	0	66	21475
2026-01-21 05:58:32.41	71.66	4.00	-48.0	-62.9	3.8	1.49e+00	0	39	104	0	66	21414
2026-01-21 05:58:35.43	71.45	4.18	-48.0	-62.9	3.8	1.49e+00	0	38	104	0	66	21466
2026-01-21 05:58:38.46	71.23	4.37	-48.0	-62.9	3.8	1.49e+00	0	38	104	0	66	21415
2026-01-21 05:58:41.48	71.00	4.55	-48.0	-62.9	3.8	1.49e+00	0	39	104	0	66	21443
2026-01-21 05:58:44.50	70.78	4.74	-48.0	-62.9	3.8	1.49e+00	0	39	104	0	66	21438
2026-01-21 05:58:47.53	70.55	4.92	-48.0	-62.9	3.8	1.49e+00	0	39	104	0	66	21405
2026-01-21 05:58:50.55	70.32	5.11	-48.0	-62.9	3.8	1.49e+00	0	39	104	0	66	21413
2026-01-21 05:58:53.58	70.09	5.30	-48.0	-62.9	3.8	1.49e+00	0	39	104	0	66	21397
2026-01-21 05:58:56.60	69.85	5.48	-48.0	-62.9	3.8	1.49e+00	0	39	104	0	66	21433
2026-01-21 05:58:59.63	69.61	5.67	-48.0	-62.9	3.8	1.49e+00	0	39	104	0	66	21440
2026-01-21 05:59:02.63	69.37	5.86	-48.0	-62.9	3.8	1.49e+00	0	39	104	0	66	21444
2026-01-21 05:59:05.65	69.12	6.05	-48.0	-62.9	3.8	1.49e+00	0	39	104	0	66	21426
2026-01-21 05:59:08.68	68.87	6.25	-48.0	-62.9	3.8	1.49e+00	0	39	104	0	66	21423
2026-01-21 05:59:11.70	68.61	6.44	-48.0	-62.9	3.8	1.49e+00	0	39	104	0	66	21434
2026-01-21 05:59:14.73	68.36	6.63	-48.0	-62.9	3.8	1.49e+00	0	39	104	0	66	21447
2026-01-21 05:59:17.75	68.10	6.83	-48.0	-62.9	3.8	1.49e+00	0	39	104	0	66	21389
2026-01-21 05:59:20.77	67.83	7.02	-48.0	-62.9	3.8	1.49e+00	0	39	104	0	66	21419
2026-01-21 05:59:23.80	67.56	7.22	-48.0	-62.9	3.8	1.49e+00	0	39	104	0	66	21410
2026-01-21 05:59:26.82	67.29	7.41	-48.0	-62.9	3.8	1.49e+00	0	39	104	0	66	21465
2026-01-21 05:59:29.85	67.01	7.61	-48.0	-62.9	3.8	1.49e+00	0	39	104	0	66	21393
2026-01-21 05:59:32.87	66.74	7.81	-48.0	-62.9	3.8	1.49e+00	0	39	104	0	66	21408
2026-01-21 05:59:35.90	66.45	8.01	-48.0	-62.9	3.8	1.49e+00	0	39	104	0	66	21425
2026-01-21 05:59:38.93	66.16	8.21	-48.0	-62.9	3.8	1.49e+00	0	39	104	0	66	21457
2026-01-21 05:59:41.95	65.87	8.41	-48.0	-62.9	3.8	1.49e+00	0	39	104	0	66	21366
2026-01-21 05:59:44.97	65.57	8.62	-48.0	-62.9	3.8	1.49e+00	0	39	104	0	66	21391
2026-01-21 05:59:48.00	65.27	8.82	-48.0	-62.9	3.8	1.49e+00	0	39	104	0	66	21420
2026-01-21 05:59:51.02	64.97	9.02	-48.0	-62.9	3.8	1.49e+00	0	39	104	0	66	21406
2026-01-21 05:59:54.04	64.66	9.23	-48.0	-62.9	3.8	1.49e+00	0	39	104	0	66	21399
2026-01-21 05:59:57.07	64.35	9.43	-48.0	-62.9	3.8	1.49e+00	0	39	104	0	66	21403
2026-01-21 06:00:00.09	64.03	9.64	-48.0	-62.9	3.8	1.49e+00	0	39	104	0	66	21451
2026-01-21 06:00:03.12	63.70	9.85	-48.0	-62.9	3.8	1.49e+00	0	40	104	0	66	21431
2026-01-21 06:00:06.15	63.38	10.06	-48.0	-62.9	3.8	1.49e+00	0	39	104	0	66	21390
2026-01-21 06:00:09.17	63.04	10.27	-48.0	-62.9	3.8	1.49e+00	0	40	104	0	66	21435
2026-01-21 06:00:12.20	62.70	10.48	-48.0	-62.9	3.8	1.49e+00	0	39	104	0	66	21389
2026-01-21 06:00:15.23	62.36	10.69	-48.0	-62.9	3.8	1.49e+00	0	39	104	0	66	21432
2026-01-21 06:00:18.26	62.01	10.90	-48.0	-62.9	3.8	1.49e+00	0	39	104	0	66	21483
2026-01-21 06:00:21.28	61.66	11.11	-48.0	-62.9	3.8	1.49e+00	0	39	104	0	66	21367
2026-01-21 06:00:24.31	61.30	11.33	-48.0	-62.9	3.8	1.49e+00	0	40	104	0	66	21378
2026-01-21 06:00:27.33	60.94	11.54	-48.0	-62.9	3.8	1.49e+00	0	39	104	0	66	21426
2026-01-21 06:00:30.36	60.57	11.76	-48.0	-62.9	3.8	1.49e+00	0	39	104	0	66	21430
2026-01-21 06:00:33.38	60.19	11.97	-48.0	-62.9	3.8	1.49e+00	0	40	104	0	66	21404
2026-01-21 06:00:36.41	59.81	12.19	-48.0	-62.9	3.8	1.49e+00	0	40	104	0	66	21373
2026-01-21 06:00:39.43	59.43	12.40	-48.0	-62.9	3.8	1.49e+00	0	39	104	0	66	21441
2026-01-21 06:00:42.45	59.03	12.62	-48.0	-62.9	3.8	1.49e+00	0	39	104	0	66	21374
2026-01-21 06:00:45.48	58.64	12.84	-48.0	-62.9	3.8	1.49e+00	0	39	104	0	66	21430
2026-01-21 06:00:48.50	58.23	13.06	-48.0	-62.9	3.8	1.49e+00	0	39	104	0	66	21362
2026-01-21 06:00:51.53	57.82	13.28	-48.0	-62.9	3.8	1.49e+00	0	40	104	0	66	21410
2026-01-21 06:00:54.55	57.40	13.50	-48.0	-62.9	3.8	1.49e+00	0	39	104	0	66	21411
2026-01-21 06:00:57.58	56.98	13.72	-48.0	-62.9	3.8	1.49e+00	0	40	104	0	66	21421
2026-01-21 06:01:00.60	56.55	13.94	-48.0	-62.9	3.8	1.49e+00	0	40	104	0	66	21446
2026-01-21 06:01:03.63	56.12	14.16	-48.0	-62.9	3.8	1.49e+00	0	40	104	0	66	21439
2026-01-21 06:01:06.65	55.67	14.38	-48.0	-62.9	3.8	1.49e+00	0	40	104	0	66	21415
2026-01-21 06:01:09.67	55.22	14.60	-48.0	-62.9	3.8	1.49e+00	0	40	104	0	66	21427
2026-01-21 06:01:12.69	54.77	14.82	-48.0	-62.9	3.8	1.49e+00	0	40	104	0	66	21353
2026-01-21 06:01:15.72	54.31	15.04	-48.0	-62.9	3.8	1.49e+00	0	39	104	0	66	21404
2026-01-21 06:01:18.75	53.83	15.26	-48.0	-62.9	3.8	1.49e+00	0	40	104	0	66	21406
2026-01-21 06:01:21.77	53.36	15.48	-48.0	-62.9	3.8	1.49e+00	0	40	104	0	66	21366
2026-01-21 06:01:24.80	52.87	15.71	-48.0	-62.9	3.8	1.49e+00	0	40	104	0	66	21440
2026-01-21 06:01:27.83	52.38	15.93	-48.0	-62.9	3.8	1.49e+00	0	40	104	0	66	21431
2026-01-21 06:01:30.85	51.88	16.15	-48.0	-62.9	3.8	1.49e+00	0	40	104	0	66	21407
2026-01-21 06:01:33.88	51.37	16.37	-48.0	-62.9	3.8	1.49e+00	0	40	104	0	66	21377
2026-01-21 06:01:36.90	50.86	16.59	-48.0	-62.9	3.8	1.49e+00	0	40	104	0	66	21326
2026-01-21 06:01:39.93	50.33	16.81	-48.0	-62.9	3.8	1.49e+00	0	40	104	0	66	21349
2026-01-21 06:01:42.95	49.81	17.03	-48.0	-62.9	3.8	1.49e+00	0	40	104	0	66	21309
2026-01-21 06:01:45.97	49.27	17.25	-48.0	-62.9	3.8	1.49e+00	0	40	104	0	66	21364
2026-01-21 06:01:49.00	48.72	17.47	-48.0	-62.9	3.8	1.49e+00	0	40	104	0	66	21338
2026-01-21 06:01:52.02	48.17	17.69	-48.0	-62.9	3.8	1.49e+00	0	40	104	0	66	21394
2026-01-21 06:01:55.05	47.60	17.90	-48.0	-62.9	3.8	1.49e+00	0	40	104	0	66	21385
2026-01-21 06:01:58.07	47.04	18.12	-48.0	-62.9	3.8	1.49e+00	0	40	104	0	66	21410
2026-01-21 06:02:01.10	46.46	18.33	-48.0	-62.9	3.8	1.49e+00	0	40	104	0	66	21412
2026-01-21 06:02:04.12	45.87	18.55	-48.0	-62.9	3.8	1.49e+00	0	40	104	0	66	21376
2026-01-21 06:02:07.14	45.28	18.76	-48.0	-62.9	3.8	1.49e+00	0	40	104	0	66	21392
2026-01-21 06:02:10.17	44.67	18.97	-48.0	-62.9	3.8	1.49e+00	0	40	104	0	66	21407
2026-01-21 06:02:13.19	44.06	19.18	-48.0	-62.9	3.8	1.49e+00	0	40	104	0	66	21412
2026-01-21 06:02:16.21	43.44	19.38	-48.0	-62.9	3.8	1.49e+00	0	40	104	0	66	21381
2026-01-21 06:02:19.24	42.81	19.59	-48.0	-62.9	3.8	1.49e+00	0	40	104	0	66	21404
2026-01-21 06:02:22.26	42.17	19.79	-48.0	-62.9	3.8	1.49e+00	0	40	104	0	66	21436
2026-01-21 06:02:25.29	41.52	19.99	-48.0	-62.9	3.8	1.49e+00	0	40	104	0	66	21449
2026-01-21 06:02:28.31	40.87	20.19	-48.0	-62.9	3.8	1.49e+00	0	40	104	0	66	21368
2026-01-21 06:02:31.34	40.21	20.39	-48.0	-62.9	3.8	1.49e+00	0	40	104	0	66	21418
2026-01-21 06:02:34.36	39.54	20.58	-48.0	-62.9	3.8	1.49e+00	0	40	104	0	66	21379
2026-01-21 06:02:37.39	38.85	20.77	-48.0	-62.9	3.8	1.49e+00	0	40	104	0	66	21383
2026-01-21 06:02:40.40	38.17	20.96	-48.0	-62.9	3.8	1.49e+00	0	39	104	0	66	21393
2026-01-21 06:02:43.43	37.47	21.15	-48.0	-62.9	3.8	1.49e+00	0	40	104	0	66	21463
2026-01-21 06:02:46.45	36.76	21.33	-48.0	-62.9	3.8	1.49e+00	0	40	104	0	66	21376
2026-01-21 06:02:49.48	36.05	21.51	-48.0	-62.9	3.8	1.49e+00	0	40	104	0	66	21399
2026-01-21 06:02:52.51	35.32	21.68	-48.0	-62.9	3.8	1.49e+00	0	40	104	0	66	21408
2026-01-21 06:02:55.53	34.60	21.85	-48.0	-62.9	3.8	1.49e+00	0	40	104	0	66	21373
2026-01-21 06:02:58.55	33.86	22.02	-48.0	-62.9	3.8	1.49e+00	0	40	104	0	66	21369
2026-01-21 06:03:01.58	33.11	22.18	-48.0	-62.9	3.8	1.49e+00	0	40	104	0	66	21400
2026-01-21 06:03:04.60	32.36	22.34	-48.0	-62.9	3.8	1.49e+00	0	40	104	0	66	21359
2026-01-21 06:03:07.62	31.60	22.49	-48.0	-62.9	3.8	1.49e+00	0	40	104	0	66	21384
2026-01-21 06:03:10.65	30.82	22.64	-48.0	-62.9	3.8	1.49e+00	0	40	104	0	66	21342
2026-01-21 06:03:13.67	30.05	22.79	-48.0	-62.9	3.8	1.49e+00	0	40	104	0	66	21355
2026-01-21 06:03:16.69	29.26	22.93	-48.0	-62.9	3.8	1.49e+00	0	40	104	0	66	21362
2026-01-21 06:03:19.72	28.47	23.06	-48.0	-62.9	3.8	1.49e+00	0	40	104	0	66	21469
2026-01-21 06:03:22.75	27.67	23.19	-48.0	-62.9	3.8	1.49e+00	0	40	104	0	66	21429
2026-01-21 06:03:25.78	26.87	23.32	-48.0	-62.9	3.8	1.49e+00	0	40	104	0	66	21426
2026-01-21 06:03:28.80	26.06	23.44	-48.0	-62.9	3.8	1.49e+00	0	40	104	0	66	21415
2026-01-21 06:03:31.83	25.24	23.55	-48.0	-62.9	3.8	1.49e+00	0	40	104	0	66	21385
2026-01-21 06:03:34.85	24.42	23.66	-48.0	-63.0	3.8	1.49e+00	0	40	104	0	66	21528
2026-01-21 06:03:37.87	23.59	23.76	-48.0	-62.9	3.8	1.49e+00	0	40	104	0	66	21387
2026-01-21 06:03:40.90	22.75	23.85	-48.0	-62.9	3.8	1.49e+00	0	40	104	0	66	21487
2026-01-21 06:03:43.92	21.92	23.94	-48.0	-62.9	3.8	1.49e+00	0	40	104	0	66	21401
2026-01-21 06:03:46.95	21.07	24.02	-50.0	-64.9	3.8	1.49e+00	0	40	104	0	70	21490
2026-01-21 06:03:49.97	20.23	24.10	-52.4	-67.4	3.8	1.49e+00	0	40	104	0	75	21384
2026-01-21 06:03:53.00	19.37	24.17	-52.4	-67.4	3.8	1.49e+00	0	40	104	0	75	21323
2026-01-21 06:03:56.02	18.52	24.23	-52.4	-67.4	3.8	1.49e+00	0	40	104	0	75	21279
2026-01-21 06:03:59.05	17.66	24.28	-52.4	-67.4	3.8	1.49e+00	0	40	104	0	75	21263
2026-01-21 06:04:02.07	16.80	24.33	-52.4	-67.4	3.8	1.49e+00	0	40	104	0	75	21269
2026-01-21 06:04:05.10	15.94	24.37	-52.4	-67.3	3.8	1.49e+00	0	40	104	0	75	21192
2026-01-21 06:04:08.12	15.07	24.41	-52.4	-67.4	3.8	1.49e+00	0	40	104	0	75	21299
2026-01-21 06:04:11.15	14.20	24.43	-52.4	-67.4	3.8	1.49e+00	0	40	104	0	75	21275
2026-01-21 06:04:14.18	13.33	24.46	-52.4	-67.3	3.8	1.49e+00	0	40	104	0	75	21179
2026-01-21 06:04:17.20	12.47	24.47	-52.4	-67.3	3.8	1.49e+00	0	40	104	0	75	21169
2026-01-21 06:04:20.23	11.60	24.47	-52.4	-67.3	3.8	1.49e+00	0	40	104	0	75	21201
2026-01-21 06:04:23.25	10.73	24.47	-52.3	-67.3	3.8	1.49e+00	0	40	104	0	75	21225
2026-01-21 06:04:26.28	9.86	24.46	-52.3	-67.3	3.8	1.49e+00	0	40	104	0	75	21192
2026-01-21 06:04:29.30	8.99	24.45	-52.4	-67.3	3.8	1.49e+00	0	40	104	0	75	21207
2026-01-21 06:04:32.33	8.12	24.42	-52.3	-67.3	3.8	1.49e+00	0	40	104	0	75	21192
2026-01-21 06:04:35.35	7.25	24.39	-52.3	-67.3	3.8	1.49e+00	0	40	104	0	75	21189
2026-01-21 06:04:38.38	6.39	24.36	-52.3	-67.3	3.8	1.49e+00	0	40	104	0	75	21186
2026-01-21 06:04:41.40	5.53	24.31	-52.3	-67.3	3.8	1.49e+00	0	40	104	0	75	21165
2026-01-21 06:04:44.43	4.67	24.26	-52.3	-67.3	3.8	1.49e+00	0	40	104	0	75	21242
2026-01-21 06:04:47.46	3.81	24.20	-52.3	-67.3	3.8	1.49e+00	0	40	104	0	75	21087
2026-01-21 06:04:50.48	2.96	24.14	-52.3	-67.3	3.8	1.49e+00	0	40	104	0	75	21133
2026-01-21 06:04:53.50	2.11	24.07	-52.3	-67.3	3.8	1.49e+00	0	40	104	0	75	21145
2026-01-21 06:04:56.53	1.26	23.99	-52.3	-67.3	3.8	1.49e+00	0	40	104	0	75	21138
2026-01-21 06:04:59.55	0.42	23.91	-52.3	-67.3	3.8	1.49e+00	0	40	104	0	75	21238
2026-01-21 06:05:02.58	359.58	23.81	-52.3	-67.3	3.8	1.49e+00	0	40	104	0	75	21161
2026-01-21 06:05:05.60	358.75	23.72	-52.3	-67.3	3.8	1.49e+00	0	40	104	0	75	21160
2026-01-21 06:05:08.63	357.93	23.61	-53.1	-68.1	3.8	1.49e+00	0	40	104	0	76	21844
2026-01-21 06:05:11.65	357.11	23.50	-53.5	-68.5	3.8	1.49e+00	0	40	104	0	77	21533
2026-01-21 06:05:14.67	356.30	23.39	-53.8	-68.8	3.8	1.49e+00	0	40	104	0	78	21047
2026-01-21 06:05:17.69	355.49	23.27	-54.0	-69.0	3.8	1.49e+00	0	40	104	0	78	21518
2026-01-21 06:05:20.72	354.69	23.14	-54.0	-69.0	3.8	1.49e+00	0	40	104	0	78	21639
2026-01-21 06:05:23.75	353.89	23.01	-54.1	-69.1	3.8	1.49e+00	0	40	104	0	78	21905
2026-01-21 06:05:26.77	353.10	22.87	-54.3	-69.2	3.8	1.49e+00	0	40	104	0	79	21004
2026-01-21 06:05:29.80	352.32	22.73	-54.4	-69.4	3.8	1.49e+00	0	40	104	0	79	21414
2026-01-21 06:05:32.83	351.55	22.59	-54.4	-69.5	3.8	1.49e+00	0	40	104	0	79	21511
2026-01-21 06:05:35.85	350.78	22.43	-54.5	-69.5	3.8	1.49e+00	0	40	104	0	79	21597
2026-01-21 06:05:38.88	350.02	22.28	-54.4	-69.4	3.8	1.49e+00	0	40	104	0	79	21352
2026-01-21 06:05:41.90	349.27	22.12	-54.4	-69.4	3.8	1.49e+00	0	40	104	0	79	21375
2026-01-21 06:05:44.92	348.53	21.95	-54.4	-69.4	3.8	1.49e+00	0	40	104	0	79	21351
2026-01-21 06:05:47.95	347.79	21.79	-54.3	-69.3	3.8	1.49e+00	0	40	104	0	79	21142
2026-01-21 06:05:50.98	347.06	21.61	-54.3	-69.3	3.8	1.49e+00	0	40	104	0	79	21128
2026-01-21 06:05:54.00	346.35	21.44	-54.2	-69.2	3.8	1.49e+00	0	40	104	0	79	21001
2026-01-21 06:05:57.02	345.64	21.26	-54.2	-69.2	3.8	1.49e+00	0	40	104	0	79	20827
2026-01-21 06:06:00.04	344.94	21.07	-54.2	-69.2	3.8	1.49e+00	0	40	104	0	79	20813
2026-01-21 06:06:03.07	344.24	20.89	-54.1	-69.1	3.8	1.49e+00	0	40	104	0	79	20704
2026-01-21 06:06:06.10	343.56	20.70	-54.1	-69.1	3.8	1.49e+00	0	40	104	0	79	20681
2026-01-21 06:06:09.13	342.88	20.51	-54.1	-69.1	3.8	1.49e+00	0	40	104	0	79	20603
2026-01-21 06:06:12.15	342.21	20.31	-54.3	-69.4	3.8	1.49e+00	0	40	104	0	79	21290
2026-01-21 06:06:15.18	341.55	20.12	-54.4	-69.4	3.8	1.49e+00	0	40	104	0	79	21355
2026-01-21 06:06:18.21	340.90	19.92	-54.4	-69.4	3.8	1.49e+00	0	40	104	0	79	21360
2026-01-21 06:06:21.23	340.26	19.71	-54.3	-69.3	3.8	1.49e+00	0	40	104	0	79	21036
2026-01-21 06:06:24.26	339.62	19.51	-54.0	-69.0	3.8	1.49e+00	0	40	104	0	79	20373
2026-01-21 06:06:27.28	339.00	19.30	-53.7	-68.2	3.8	1.49e+00	0	40	104	0	79	18576
2026-01-21 06:06:30.31	338.38	19.10	-46.4	-48.2	18.3	0.00e+00	0	40	0	4194304	65	4176
2026-01-21 06:06:33.33	337.78	18.89	-47.6	-49.4	17.5	7.00e-07	0	40	0	9437184	67	4290
2026-01-21 06:06:36.36	337.18	18.68	-44.1	-45.3	21.4	0.00e+00	0	40	0	15728640	60	3982
2026-01-21 06:06:39.38	336.59	18.46	-44.6	-45.8	21.2	0.00e+00	0	40	0	20971520	59	4487
2026-01-21 06:06:42.41	336.00	18.25	-45.1	-46.5	20.4	0.00e+00	0	40	0	26214400	61	4326
2026-01-21 06:06:45.43	335.43	18.04	-44.9	-46.2	20.6	0.00e+00	0	40	0	32505856	61	4189
2026-01-21 06:06:48.46	334.86	17.82	-45.3	-46.7	20.3	0.00e+00	0	40	0	37748736	61	4415
2026-01-21 06:06:51.48	334.30	17.60	-45.4	-46.9	20.1	0.00e+00	0	40	0	44040192	61	4504
2026-01-21 06:06:54.50	333.75	17.39	-44.9	-46.2	20.7	0.00e+00	0	40	0	49283072	61	4156
2026-01-21 06:06:57.53	333.21	17.17	-44.6	-45.9	21.0	0.00e+00	0	40	0	54525952	61	4008
2026-01-21 06:07:00.56	332.68	16.95	-44.3	-45.5	21.2	0.00e+00	0	40	0	60817408	60	4093
2026-01-21 06:07:03.58	332.15	16.73	-44.5	-45.8	21.1	0.00e+00	0	40	0	66060288	60	4195
2026-01-21 06:07:06.61	331.63	16.51	-44.5	-45.7	21.1	0.00e+00	0	40	0	72351744	60	4166
2026-01-21 06:07:09.63	331.12	16.29	-44.3	-45.5	21.5	0.00e+00	0	40	0	77594624	59	4313
2026-01-21 06:07:12.65	330.62	16.07	-44.0	-45.1	21.9	0.00e+00	0	40	0	82837504	59	4131
2026-01-21 06:07:15.68	330.12	15.85	-44.4	-45.6	21.4	0.00e+00	0	40	0	89128960	59	4373
2026-01-21 06:07:18.70	329.63	15.63	-44.7	-45.9	21.2	0.00e+00	0	40	0	94371840	59	4537
2026-01-21 06:07:21.72	329.15	15.40	-44.4	-45.7	21.1	0.00e+00	0	40	0	100663296	60	4150
2026-01-21 06:07:24.75	328.68	15.18	-44.3	-45.4	21.4	0.00e+00	0	40	0	105906176	59	4291
2026-01-21 06:07:27.78	328.21	14.96	-44.4	-45.5	21.5	0.00e+00	0	40	0	112197632	59	4326
2026-01-21 06:07:30.80	327.75	14.74	-44.7	-46.0	20.7	0.00e+00	0	40	0	117440512	60	4323
2026-01-21 06:07:33.83	327.30	14.52	-45.3	-46.7	20.1	0.00e+00	0	40	0	122683392	61	4439
2026-01-21 06:07:36.85	326.85	14.30	-45.0	-46.3	20.4	0.00e+00	0	40	0	128974848	61	4236
2026-01-21 06:07:39.87	326.42	14.08	-44.7	-46.0	20.7	0.00e+00	0	40	0	134217728	61	4080
2026-01-21 06:07:42.89	325.98	13.86	-44.5	-45.8	20.9	0.00e+00	0	40	0	140509184	61	3963
2026-01-21 06:07:45.92	325.56	13.64	-44.7	-46.0	20.7	0.00e+00	0	40	0	145752064	60	4305
2026-01-21 06:07:48.94	325.14	13.42	-45.2	-46.5	20.3	0.00e+00	0	40	0	150994944	61	4327
2026-01-21 06:07:51.96	324.73	13.20	-46.2	-47.8	19.1	0.00e+00	0	40	0	157286400	63	4487
2026-01-21 06:07:54.98	324.32	12.98	-46.0	-47.6	19.2	0.00e+00	0	40	0	162529280	63	4367
2026-01-21 06:07:58.01	323.92	12.76	-45.1	-46.4	20.3	0.00e+00	0	40	0	168820736	62	4040
2026-01-21 06:08:01.03	323.52	12.55	-44.9	-46.1	20.6	0.00e+00	0	40	0	174063616	61	4139
2026-01-21 06:08:04.06	323.13	12.33	-45.1	-46.4	20.3	0.00e+00	0	40	0	179306496	61	4258
2026-01-21 06:08:07.08	322.75	12.11	-45.1	-46.4	20.4	0.00e+00	0	40	0	185597952	61	4253
2026-01-21 06:08:10.10	322.37	11.90	-44.9	-46.2	20.5	0.00e+00	0	40	0	190840832	61	4154
2026-01-21 06:08:13.13	322.00	11.68	-45.3	-46.7	20.0	0.00e+00	0	40	0	197132288	61	4397
2026-01-21 06:08:16.15	321.63	11.47	-45.6	-47.0	19.7	0.00e+00	0	40	0	202375168	61	4592
2026-01-21 06:08:19.17	321.27	11.26	-45.7	-47.2	19.5	0.00e+00	0	40	0	207618048	62	4439
2026-01-21 06:08:22.20	320.92	11.04	-45.8	-47.4	19.3	0.00e+00	0	40	0	213909504	62	4510
2026-01-21 06:08:25.22	320.57	10.83	-46.1	-47.7	19.1	0.00e+00	0	40	0	219152384	62	4652
2026-01-21 06:08:28.25	320.22	10.62	-46.5	-48.3	18.5	0.00e+00	0	40	0	225443840	63	4708
2026-01-21 06:08:31.27	319.88	10.41	-46.3	-48.0	18.6	0.00e+00	0	40	0	230686720	64	4332
2026-01-21 06:08:34.29	319.55	10.20	-46.0	-47.6	19.0	0.00e+00	0	40	0	235929600	64	4111
2026-01-21 06:08:37.32	319.22	9.99	-45.7	-47.1	19.5	0.00e+00	0	40	0	242221056	63	4127
2026-01-21 06:08:40.34	318.89	9.78	-46.0	-47.5	19.2	0.00e+00	0	40	0	247463936	62	4574
2026-01-21 06:08:43.37	318.57	9.58	-46.1	-47.7	18.9	0.00e+00	0	40	0	253755392	63	4436
2026-01-21 06:08:46.39	318.26	9.37	-46.6	-48.3	18.4	0.00e+00	0	40	0	258998272	63	4735
2026-01-21 06:08:49.41	317.94	9.17	-46.5	-48.3	18.3	0.00e+00	0	40	0	264241152	64	4447
2026-01-21 06:08:52.44	317.64	8.96	-46.3	-48.0	18.6	0.00e+00	0	39	0	270532608	64	4292
2026-01-21 06:08:55.46	317.33	8.76	-46.2	-47.8	18.7	0.00e+00	0	40	0	275775488	64	4224
2026-01-21 06:08:58.48	317.04	8.56	-46.0	-47.5	19.0	0.00e+00	0	40	0	282066944	63	4338
2026-01-21 06:09:01.51	316.74	8.35	-46.4	-48.1	18.5	0.00e+00	0	40	0	287309824	63	4630
2026-01-21 06:09:04.53	316.45	8.15	-46.8	-48.7	17.8	0.00e+00	0	40	0	292552704	64	4654
2026-01-21 06:09:07.55	316.17	7.95	-47.0	-48.9	17.6	0.00e+00	0	40	0	298844160	64	4782
2026-01-21 06:09:10.58	315.89	7.75	-47.4	-49.5	17.0	0.00e+00	0	40	0	304087040	65	4825
2026-01-21 06:09:13.60	315.61	7.55	-47.5	-49.6	16.9	0.00e+00	0	40	0	310378496	65	4900
2026-01-21 06:09:16.63	315.33	7.36	-47.4	-49.6	16.9	0.00e+00	0	40	0	315621376	65	4881
2026-01-21 06:09:19.65	315.06	7.16	-47.5	-49.7	16.6	0.00e+00	0	40	0	320864256	65	4964
2026-01-21 06:09:22.67	314.80	6.97	-47.4	-49.4	17.0	0.00e+00	0	40	0	327155712	65	4799
2026-01-21 06:09:25.70	314.54	6.77	-47.5	-49.6	16.8	0.00e+00	0	40	0	332398592	65	4903
2026-01-21 06:09:28.72	314.28	6.58	-47.3	-49.4	17.0	0.00e+00	0	40	0	338690048	65	4773
2026-01-21 06:09:31.75	314.02	6.38	-47.6	-49.8	16.5	0.00e+00	0	40	0	343932928	65	5039
2026-01-21 06:09:34.77	313.77	6.19	-47.9	-50.3	16.0	0.00e+00	0	40	0	350224384	66	5034
2026-01-21 06:09:37.80	313.52	6.00	-47.9	-50.3	16.1	0.00e+00	0	40	0	355467264	66	5010
2026-01-21 06:09:40.82	313.28	5.81	-47.7	-49.9	16.3	0.00e+00	0	40	0	360710144	66	4812
2026-01-21 06:09:43.85	313.03	5.62	-47.5	-49.7	16.6	0.00e+00	0	40	0	367001600	66	4658
2026-01-21 06:09:46.87	312.79	5.43	-47.0	-49.0	17.2	0.00e+00	0	40	0	372244480	65	4575
2026-01-21 06:09:49.89	312.56	5.24	-46.8	-48.7	17.4	0.00e+00	0	40	0	378535936	65	4437
2026-01-21 06:09:52.92	312.33	5.06	-46.3	-48.1	18.0	0.00e+00	0	40	0	383778816	64	4344
2026-01-21 06:09:55.94	312.10	4.87	-52.8	-67.7	3.8	1.49e+00	0	40	104	385875968	76	20988
2026-01-21 06:09:58.97	311.87	4.69	-52.8	-67.7	3.8	1.49e+00	0	40	104	385875968	76	20900
2026-01-21 06:10:02.00	311.65	4.50	-53.0	-67.9	3.8	1.49e+00	0	40	104	385875968	76	21463
2026-01-21 06:10:05.02	311.43	4.32	-53.1	-68.1	3.8	1.49e+00	0	40	104	385875968	76	21788
2026-01-21 06:10:08.05	311.21	4.13	-53.3	-68.3	3.8	1.49e+00	0	40	104	385875968	77	21060
2026-01-21 06:10:11.07	311.00	3.95	-53.3	-68.3	3.8	1.49e+00	0	40	104	385875968	77	21077
2026-01-21 06:10:14.10	310.78	3.77	-53.3	-68.3	3.8	1.49e+00	0	40	104	385875968	77	21101
2026-01-21 06:10:17.12	310.58	3.59	-53.3	-68.3	3.8	1.49e+00	0	40	104	385875968	77	21058
2026-01-21 06:10:20.15	310.37	3.41	-53.3	-68.2	3.8	1.49e+00	0	40	104	385875968	77	20956
2026-01-21 06:10:23.17	310.17	3.23	-53.3	-68.2	3.8	1.49e+00	0	40	104	385875968	77	21006
2026-01-21 06:10:26.20	309.96	3.06	-53.3	-68.2	3.8	1.49e+00	0	40	104	385875968	77	20961
2026-01-21 06:10:29.22	309.77	2.88	-53.2	-68.2	3.8	1.49e+00	0	40	104	385875968	77	20972
2026-01-21 06:10:32.25	309.57	2.70	-53.3	-68.2	3.8	1.49e+00	0	40	104	385875968	77	20955
2026-01-21 06:10:35.27	309.38	2.53	-53.2	-68.2	3.8	1.49e+00	0	40	104	385875968	77	20863
2026-01-21 06:10:38.30	309.18	2.35	-53.2	-68.2	3.8	1.49e+00	0	40	104	385875968	77	20902
2026-01-21 06:10:41.32	309.00	2.18	-53.2	-68.2	3.8	1.49e+00	0	40	104	385875968	77	20828
2026-01-21 06:10:44.35	308.81	2.01	-53.2	-68.2	3.8	1.49e+00	0	40	104	385875968	77	20859

#Closed at: 2026-01-21 06:10:46
#Recorded file [385 MB]: D:/lorett/data/31041_260121_085758.dat