passes_logs/2026/01/21/R3.2S_Murmansk/R3.2S_Murmansk__20260121_004541_KANOPUS-V_5_rec.log

#Pass ID: 20260121_004541_KANOPUS-V 5
#Satellite: KANOPUS-V 5
#Configuration: KANOPUS-V_8320
#almurnet v.1.7.20251203
#Start time: 2026-01-21 00:45:42

#Version: 2.2.20231116
#Station: R3.2S_Murmansk
#Location: 33.079688 lon 68.888172 lat
#TLE: 1 43876U 18111A   26020.16250899  .00005594  00000+0  23751-3 0  9993
#TLE: 2 43876  97.3687 288.5833 0001817  87.9007 272.2438 15.23474018392259

#Time	Az	El	Level	Level2	SNR	BER	BlckErr	Temp	State	Recorded	gain1	gain2
2026-01-21 00:45:42.41	26.16	2.04	-53.9	-62.8	3.8	7.45e-01	0	39	0	0	79	9966
2026-01-21 00:45:44.43	25.97	2.16	-53.3	-62.2	3.8	7.44e-01	0	39	104	0	77	10460
2026-01-21 00:45:46.45	25.78	2.28	-53.3	-62.1	3.8	7.44e-01	0	39	104	0	77	10389
2026-01-21 00:45:48.46	25.59	2.41	-53.3	-62.1	3.8	7.45e-01	0	39	104	0	77	10407
2026-01-21 00:45:50.48	25.40	2.53	-53.3	-62.1	3.8	7.46e-01	0	39	104	0	77	10378
2026-01-21 00:45:52.49	25.20	2.65	-53.3	-62.1	3.8	7.45e-01	0	39	104	0	77	10412
2026-01-21 00:45:54.51	25.00	2.78	-53.3	-62.2	3.8	7.44e-01	0	40	104	0	77	10416
2026-01-21 00:45:56.53	24.80	2.90	-53.3	-62.1	3.8	7.46e-01	0	40	104	0	77	10396
2026-01-21 00:45:58.54	24.59	3.03	-53.3	-62.1	3.8	7.47e-01	0	40	104	0	77	10392
2026-01-21 00:46:00.56	24.39	3.15	-53.3	-62.1	3.8	7.45e-01	0	39	104	0	77	10408
2026-01-21 00:46:02.57	24.18	3.28	-53.3	-62.1	3.8	7.48e-01	0	40	104	0	77	10395
2026-01-21 00:46:04.59	23.97	3.41	-53.3	-62.1	3.8	7.45e-01	0	40	104	0	77	10385
2026-01-21 00:46:06.60	23.75	3.53	-53.3	-62.2	3.8	7.46e-01	0	40	104	0	77	10416
2026-01-21 00:46:08.62	23.54	3.66	-53.3	-62.2	3.8	7.45e-01	0	40	104	0	77	10418
2026-01-21 00:46:10.64	23.32	3.79	-53.3	-62.1	3.8	7.46e-01	0	39	104	0	77	10388
2026-01-21 00:46:12.66	23.10	3.92	-53.3	-62.1	3.8	7.45e-01	0	40	104	0	77	10377
2026-01-21 00:46:14.67	22.87	4.05	-53.3	-62.1	3.8	7.48e-01	0	40	104	0	77	10400
2026-01-21 00:46:16.69	22.65	4.18	-53.3	-62.1	3.8	7.46e-01	0	39	104	0	77	10390
2026-01-21 00:46:18.71	22.42	4.31	-53.3	-62.1	3.8	7.44e-01	0	40	104	0	77	10340
2026-01-21 00:46:20.73	22.18	4.44	-53.3	-62.1	3.8	7.45e-01	0	40	104	0	77	10382
2026-01-21 00:46:22.74	21.95	4.57	-53.3	-62.1	3.8	7.43e-01	0	40	104	0	77	10412
2026-01-21 00:46:24.76	21.71	4.70	-53.3	-62.1	3.8	7.44e-01	0	40	104	0	77	10389
2026-01-21 00:46:26.78	21.47	4.83	-53.3	-62.1	3.8	7.45e-01	0	40	104	0	77	10359
2026-01-21 00:46:28.79	21.23	4.96	-53.3	-62.1	3.8	7.46e-01	0	40	104	0	77	10363
2026-01-21 00:46:30.75	20.99	5.09	-53.3	-62.1	3.8	7.45e-01	0	40	104	0	77	10398
2026-01-21 00:46:32.76	20.74	5.23	-53.3	-62.1	3.8	7.46e-01	0	40	104	0	77	10362
2026-01-21 00:46:34.78	20.49	5.36	-53.3	-62.1	3.8	7.44e-01	0	40	104	0	77	10339
2026-01-21 00:46:36.79	20.24	5.49	-53.3	-62.2	3.8	7.46e-01	0	40	104	0	77	10426
2026-01-21 00:46:38.81	19.98	5.63	-53.3	-62.1	3.8	7.44e-01	0	40	104	0	77	10374
2026-01-21 00:46:40.83	19.71	5.76	-53.3	-62.2	3.8	7.46e-01	0	40	104	0	77	10444
2026-01-21 00:46:42.84	19.45	5.90	-53.3	-62.2	3.8	7.45e-01	0	40	104	0	77	10464
2026-01-21 00:46:44.86	19.18	6.04	-53.4	-62.2	3.8	7.45e-01	0	40	104	0	77	10457
2026-01-21 00:46:46.87	18.91	6.17	-53.3	-62.2	3.8	7.45e-01	0	40	104	0	77	10425
2026-01-21 00:46:48.89	18.64	6.31	-53.4	-62.2	3.8	7.46e-01	0	40	104	0	77	10518
2026-01-21 00:46:50.90	18.36	6.45	-53.4	-62.2	3.8	7.43e-01	0	40	104	0	77	10486
2026-01-21 00:46:52.92	18.08	6.58	-53.4	-62.3	3.8	7.44e-01	0	40	104	0	77	10551
2026-01-21 00:46:54.94	17.80	6.72	-53.4	-62.2	3.8	7.45e-01	0	40	104	0	77	10465
2026-01-21 00:46:56.95	17.51	6.86	-53.4	-62.3	3.8	7.46e-01	0	40	104	0	77	10583
2026-01-21 00:46:58.97	17.22	7.00	-53.4	-62.2	3.8	7.45e-01	0	40	104	0	77	10505
2026-01-21 00:47:00.98	16.92	7.14	-53.5	-62.3	3.8	7.44e-01	0	40	104	0	77	10598
2026-01-21 00:47:03.00	16.62	7.28	-53.4	-62.3	3.8	7.44e-01	0	40	104	0	77	10585
2026-01-21 00:47:05.01	16.32	7.42	-53.5	-62.3	3.8	7.44e-01	0	40	104	0	77	10655
2026-01-21 00:47:07.03	16.01	7.56	-53.5	-62.3	3.8	7.47e-01	0	40	104	0	77	10581
2026-01-21 00:47:09.05	15.70	7.70	-53.5	-62.4	3.8	7.46e-01	0	40	104	0	77	10680
2026-01-21 00:47:11.07	15.39	7.85	-53.5	-62.3	3.8	7.46e-01	0	40	104	0	77	10645
2026-01-21 00:47:13.08	15.07	7.99	-53.6	-62.4	3.8	7.46e-01	0	40	104	0	77	10696
2026-01-21 00:47:15.10	14.75	8.13	-53.6	-62.4	3.8	7.47e-01	0	40	104	0	77	10671
2026-01-21 00:47:17.12	14.42	8.27	-53.6	-62.4	3.8	7.46e-01	0	40	104	0	77	10760
2026-01-21 00:47:19.13	14.09	8.42	-53.6	-62.4	3.8	7.46e-01	0	40	104	0	77	10740
2026-01-21 00:47:21.15	13.76	8.56	-53.7	-62.5	3.8	7.44e-01	0	40	104	0	77	10783
2026-01-21 00:47:23.17	13.42	8.70	-53.7	-62.5	3.8	7.46e-01	0	40	104	0	78	10260
2026-01-21 00:47:25.19	13.08	8.85	-53.7	-62.5	3.8	7.46e-01	0	40	104	0	78	10288
2026-01-21 00:47:27.20	12.73	8.99	-53.7	-62.5	3.8	7.46e-01	0	40	104	0	78	10237
2026-01-21 00:47:29.22	12.38	9.14	-53.7	-62.6	3.8	7.47e-01	0	40	104	0	78	10304
2026-01-21 00:47:31.24	12.02	9.28	-53.7	-62.5	3.8	7.43e-01	0	40	104	0	78	10265
2026-01-21 00:47:33.26	11.66	9.43	-53.8	-62.6	3.8	7.45e-01	0	40	104	0	78	10349
2026-01-21 00:47:35.27	11.30	9.57	-53.7	-62.5	3.8	7.45e-01	0	40	104	0	78	10277
2026-01-21 00:47:37.29	10.93	9.72	-53.8	-62.6	3.8	7.47e-01	0	40	104	0	78	10366
2026-01-21 00:47:39.31	10.55	9.86	-53.8	-62.6	3.8	7.47e-01	0	40	104	0	78	10374
2026-01-21 00:47:41.32	10.17	10.01	-53.8	-62.6	3.8	7.45e-01	0	40	104	0	78	10377
2026-01-21 00:47:43.34	9.79	10.15	-53.8	-62.6	3.8	7.44e-01	0	40	104	0	78	10392
2026-01-21 00:47:45.36	9.40	10.30	-53.8	-62.7	3.8	7.44e-01	0	40	104	0	78	10416
2026-01-21 00:47:47.37	9.01	10.45	-53.8	-62.6	3.8	7.45e-01	0	40	104	0	78	10378
2026-01-21 00:47:49.39	8.61	10.59	-53.9	-62.7	3.8	7.45e-01	0	40	104	0	78	10448
2026-01-21 00:47:51.41	8.20	10.74	-53.8	-62.7	3.8	7.45e-01	0	40	104	0	78	10442
2026-01-21 00:47:53.42	7.80	10.88	-53.9	-62.7	3.8	7.45e-01	0	40	104	0	78	10457
2026-01-21 00:47:55.44	7.38	11.03	-53.9	-62.7	3.8	7.46e-01	0	40	104	0	78	10441
2026-01-21 00:47:57.45	6.97	11.18	-53.9	-62.7	3.8	7.45e-01	0	40	104	0	78	10530
2026-01-21 00:47:59.47	6.54	11.32	-53.9	-62.7	3.8	7.46e-01	0	40	104	0	78	10500
2026-01-21 00:48:01.49	6.11	11.47	-53.9	-62.7	3.8	7.45e-01	0	40	104	0	78	10528
2026-01-21 00:48:03.50	5.68	11.61	-53.9	-62.7	3.8	7.47e-01	0	40	104	0	78	10460
2026-01-21 00:48:05.52	5.24	11.76	-53.9	-62.7	3.8	7.46e-01	0	40	104	0	78	10529
2026-01-21 00:48:07.54	4.79	11.90	-53.9	-62.7	3.8	7.47e-01	0	40	104	0	78	10482
2026-01-21 00:48:09.55	4.34	12.05	-53.9	-62.8	3.8	7.45e-01	0	40	104	0	78	10546
2026-01-21 00:48:11.57	3.89	12.19	-53.9	-62.8	3.8	7.45e-01	0	40	104	0	78	10540
2026-01-21 00:48:13.59	3.42	12.34	-54.0	-62.8	3.8	7.45e-01	0	40	104	0	78	10580
2026-01-21 00:48:15.60	2.96	12.48	-53.9	-62.8	3.8	7.45e-01	0	40	104	0	78	10545
2026-01-21 00:48:17.62	2.48	12.62	-54.0	-62.8	3.8	7.45e-01	0	40	104	0	78	10600
2026-01-21 00:48:19.63	2.01	12.76	-54.0	-62.8	3.8	7.45e-01	0	40	104	0	78	10555
2026-01-21 00:48:21.65	1.52	12.90	-54.0	-62.8	3.8	7.46e-01	0	40	104	0	78	10604
2026-01-21 00:48:23.67	1.03	13.05	-54.0	-62.8	3.8	7.45e-01	0	40	104	0	78	10584
2026-01-21 00:48:25.68	0.54	13.19	-54.0	-62.8	3.8	7.46e-01	0	40	104	0	78	10622
2026-01-21 00:48:27.70	0.03	13.32	-54.0	-62.8	3.8	7.44e-01	0	40	104	0	78	10583
2026-01-21 00:48:29.71	359.53	13.46	-54.0	-62.8	3.8	7.43e-01	0	40	104	0	78	10652
2026-01-21 00:48:31.73	359.02	13.60	-54.0	-62.8	3.8	7.45e-01	0	40	104	0	78	10588
2026-01-21 00:48:33.74	358.50	13.74	-54.0	-62.9	3.8	7.44e-01	0	40	104	0	78	10667
2026-01-21 00:48:35.76	357.97	13.87	-54.0	-62.8	3.8	7.45e-01	0	40	104	0	78	10643
2026-01-21 00:48:37.78	357.44	14.01	-54.0	-62.9	3.8	7.46e-01	0	40	104	0	78	10677
2026-01-21 00:48:39.79	356.91	14.14	-54.0	-62.8	3.8	7.46e-01	0	40	104	0	78	10646
2026-01-21 00:48:41.81	356.36	14.27	-54.1	-62.9	3.8	7.45e-01	0	40	104	0	78	10725
2026-01-21 00:48:43.83	355.82	14.40	-54.1	-62.9	3.8	7.45e-01	0	40	104	0	78	10683
2026-01-21 00:48:45.84	355.26	14.53	-54.1	-62.9	3.8	7.44e-01	0	40	104	0	78	10748
2026-01-21 00:48:47.86	354.70	14.66	-54.1	-62.9	3.8	7.46e-01	0	40	104	0	78	10690
2026-01-21 00:48:49.87	354.14	14.79	-54.1	-62.9	3.8	7.45e-01	0	40	104	0	78	10765
2026-01-21 00:48:51.89	353.57	14.91	-54.1	-62.9	3.8	7.45e-01	0	40	104	0	78	10721
2026-01-21 00:48:53.91	352.99	15.04	-54.1	-62.9	3.8	7.46e-01	0	40	104	0	78	10721
2026-01-21 00:48:55.92	352.41	15.16	-54.1	-62.9	3.8	7.46e-01	0	40	104	0	78	10733
2026-01-21 00:48:57.94	351.82	15.28	-54.1	-63.0	3.8	7.46e-01	0	40	104	0	78	10810
2026-01-21 00:48:59.96	351.22	15.40	-54.1	-62.9	3.8	7.45e-01	0	40	104	0	78	10761
2026-01-21 00:49:01.97	350.63	15.51	-54.2	-63.0	3.8	7.45e-01	0	40	104	0	78	10800
2026-01-21 00:49:03.99	350.02	15.62	-54.1	-63.0	3.8	7.46e-01	0	40	104	0	78	10814
2026-01-21 00:49:06.01	349.41	15.74	-54.1	-63.0	3.8	7.44e-01	0	40	104	0	78	10790
2026-01-21 00:49:08.02	348.79	15.85	-54.1	-62.9	3.8	7.46e-01	0	41	104	0	78	10764
2026-01-21 00:49:10.04	348.17	15.95	-54.2	-63.0	3.8	7.44e-01	0	40	104	0	78	10826
2026-01-21 00:49:12.06	347.54	16.06	-54.2	-63.0	3.8	7.46e-01	0	40	104	0	78	10844
2026-01-21 00:49:14.08	346.91	16.16	-54.2	-63.0	3.8	7.46e-01	0	40	104	0	78	10807
2026-01-21 00:49:16.09	346.28	16.26	-54.2	-63.0	3.8	7.46e-01	0	40	104	0	78	10798
2026-01-21 00:49:18.11	345.63	16.36	-54.2	-63.0	3.8	7.47e-01	0	40	104	0	78	10855
2026-01-21 00:49:20.13	344.99	16.45	-54.2	-63.0	3.8	7.43e-01	0	40	104	0	78	10819
2026-01-21 00:49:22.14	344.34	16.54	-54.2	-63.0	3.8	7.46e-01	0	40	104	0	78	10862
2026-01-21 00:49:24.16	343.68	16.63	-54.2	-63.0	3.8	7.45e-01	0	40	104	0	78	10787
2026-01-21 00:49:26.18	343.02	16.72	-54.2	-63.0	3.8	7.46e-01	0	40	104	0	78	10833
2026-01-21 00:49:28.20	342.35	16.80	-54.2	-63.0	3.8	7.46e-01	0	40	104	0	78	10829
2026-01-21 00:49:30.21	341.68	16.88	-54.2	-63.0	3.8	7.44e-01	0	40	104	0	78	10831
2026-01-21 00:49:32.23	341.01	16.95	-54.2	-63.0	3.8	7.46e-01	0	40	104	0	78	10794
2026-01-21 00:49:34.25	340.33	17.03	-54.2	-63.0	3.8	7.45e-01	0	40	104	0	78	10811
2026-01-21 00:49:36.26	339.65	17.10	-54.2	-63.0	3.8	7.46e-01	0	40	104	0	78	10835
2026-01-21 00:49:38.28	338.97	17.16	-54.2	-63.0	3.8	7.45e-01	0	40	104	0	78	10819
2026-01-21 00:49:40.30	338.28	17.23	-54.2	-63.0	3.8	7.45e-01	0	40	104	0	78	10825
2026-01-21 00:49:42.31	337.59	17.29	-54.2	-63.1	3.8	7.45e-01	0	41	104	0	79	10301
2026-01-21 00:49:44.33	336.89	17.34	-54.2	-63.0	3.8	7.45e-01	0	41	104	0	79	10266
2026-01-21 00:49:46.34	336.19	17.39	-54.2	-63.0	3.8	7.45e-01	0	40	104	0	79	10267
2026-01-21 00:49:48.36	335.49	17.44	-54.2	-63.0	3.8	7.46e-01	0	40	104	0	79	10286
2026-01-21 00:49:50.38	334.79	17.49	-54.2	-63.0	3.8	7.44e-01	0	40	104	0	79	10263
2026-01-21 00:49:52.39	334.09	17.53	-54.2	-63.0	3.8	7.45e-01	0	40	104	0	79	10287
2026-01-21 00:49:54.41	333.38	17.56	-54.2	-63.1	3.8	7.45e-01	0	40	104	0	79	10304
2026-01-21 00:49:56.42	332.67	17.60	-54.2	-63.1	3.8	7.45e-01	0	40	104	0	79	10311
2026-01-21 00:49:58.44	331.96	17.63	-54.3	-63.1	3.8	7.44e-01	0	40	104	0	79	10333
2026-01-21 00:50:00.46	331.24	17.65	-54.2	-63.0	3.8	7.46e-01	0	40	104	0	79	10288
2026-01-21 00:50:02.47	330.53	17.67	-54.3	-63.1	3.8	7.44e-01	0	40	104	0	79	10319
2026-01-21 00:50:04.49	329.81	17.69	-54.2	-63.0	3.8	7.45e-01	0	40	104	0	79	10279
2026-01-21 00:50:06.51	329.10	17.70	-54.3	-63.1	3.8	7.45e-01	0	40	104	0	79	10329
2026-01-21 00:50:08.52	328.38	17.71	-54.2	-63.1	3.8	7.47e-01	0	40	104	0	79	10364
2026-01-21 00:50:10.54	327.66	17.72	-54.3	-63.1	3.8	7.45e-01	0	40	104	0	79	10333
2026-01-21 00:50:12.56	326.95	17.72	-54.3	-63.1	3.8	7.45e-01	0	40	104	0	79	10327
2026-01-21 00:50:14.57	326.23	17.71	-54.3	-63.1	3.8	7.46e-01	0	40	104	0	79	10323
2026-01-21 00:50:16.59	325.51	17.71	-54.3	-63.1	3.8	7.45e-01	0	40	104	0	79	10357
2026-01-21 00:50:18.61	324.79	17.70	-54.3	-63.1	3.8	7.46e-01	0	40	104	0	79	10349
2026-01-21 00:50:20.62	324.08	17.68	-54.3	-63.1	3.8	7.46e-01	0	40	104	0	79	10341
2026-01-21 00:50:22.64	323.37	17.66	-54.3	-63.1	3.8	7.44e-01	0	40	104	0	79	10376
2026-01-21 00:50:24.65	322.65	17.64	-54.3	-63.1	3.8	7.44e-01	0	40	104	0	79	10394
2026-01-21 00:50:26.67	321.94	17.61	-54.3	-63.1	3.8	7.45e-01	0	40	104	0	79	10365
2026-01-21 00:50:28.69	321.23	17.58	-54.3	-63.1	3.8	7.45e-01	0	40	104	0	79	10404
2026-01-21 00:50:30.70	320.52	17.55	-54.3	-63.1	3.8	7.46e-01	0	40	104	0	79	10412
2026-01-21 00:50:32.72	319.81	17.51	-54.3	-63.1	3.8	7.45e-01	0	40	104	0	79	10348
2026-01-21 00:50:34.74	319.11	17.46	-54.3	-63.1	3.8	7.45e-01	0	40	104	0	79	10409
2026-01-21 00:50:36.75	318.41	17.42	-54.3	-63.1	3.8	7.44e-01	0	40	104	0	79	10396
2026-01-21 00:50:38.77	317.71	17.37	-54.3	-63.1	3.8	7.45e-01	0	40	104	0	79	10411
2026-01-21 00:50:40.78	317.01	17.31	-54.3	-63.2	3.8	7.46e-01	0	40	104	0	79	10431
2026-01-21 00:50:42.80	316.32	17.26	-54.3	-63.1	3.8	7.46e-01	0	40	104	0	79	10393
2026-01-21 00:50:44.82	315.62	17.19	-54.3	-63.1	3.8	7.46e-01	0	40	104	0	79	10381
2026-01-21 00:50:46.83	314.94	17.13	-54.3	-63.1	3.8	7.45e-01	0	40	104	0	79	10376
2026-01-21 00:50:48.85	314.25	17.06	-54.3	-63.2	3.8	7.45e-01	0	40	104	0	79	10424
2026-01-21 00:50:50.85	313.58	16.99	-54.3	-63.1	3.8	7.44e-01	0	40	104	0	79	10408
2026-01-21 00:50:52.87	312.90	16.92	-54.4	-63.2	3.8	7.47e-01	0	40	104	0	79	10466
2026-01-21 00:50:54.88	312.23	16.84	-54.4	-63.2	3.8	7.47e-01	0	41	104	0	79	10466
2026-01-21 00:50:56.90	311.56	16.76	-54.4	-63.2	3.8	7.45e-01	0	40	104	0	79	10459
2026-01-21 00:50:58.92	310.90	16.67	-54.4	-63.2	3.8	7.44e-01	0	40	104	0	79	10516
2026-01-21 00:51:00.93	310.24	16.59	-54.4	-63.2	3.8	7.43e-01	0	40	104	0	79	10476
2026-01-21 00:51:02.95	309.58	16.50	-54.4	-63.2	3.8	7.45e-01	0	40	104	0	79	10490
2026-01-21 00:51:04.97	308.93	16.40	-54.4	-63.2	3.8	7.45e-01	0	40	104	0	79	10476
2026-01-21 00:51:06.98	308.29	16.31	-54.4	-63.2	3.8	7.44e-01	0	40	104	0	79	10495
2026-01-21 00:51:08.99	307.65	16.21	-54.4	-63.2	3.8	7.44e-01	0	40	104	0	79	10456
2026-01-21 00:51:11.01	307.01	16.11	-54.4	-63.2	3.8	7.46e-01	0	40	104	0	79	10512
2026-01-21 00:51:13.03	306.38	16.00	-54.4	-63.2	3.8	7.46e-01	0	41	104	0	79	10447
2026-01-21 00:51:15.04	305.76	15.90	-54.3	-63.2	3.8	7.46e-01	0	41	104	0	79	10454
2026-01-21 00:51:17.06	305.14	15.79	-54.3	-63.1	3.8	7.44e-01	0	40	104	0	79	10403
2026-01-21 00:51:19.08	304.52	15.68	-54.3	-63.1	3.8	7.45e-01	0	40	104	0	79	10373
2026-01-21 00:51:21.10	303.91	15.57	-54.3	-63.2	3.8	7.45e-01	0	40	104	0	79	10417
2026-01-21 00:51:23.11	303.31	15.45	-54.3	-63.1	3.8	7.46e-01	0	40	104	0	79	10398
2026-01-21 00:51:25.13	302.71	15.33	-54.3	-63.2	3.8	7.46e-01	0	41	104	0	79	10421
2026-01-21 00:51:27.15	302.12	15.22	-54.3	-63.2	3.8	7.43e-01	0	40	104	0	79	10427
2026-01-21 00:51:29.16	301.53	15.09	-54.3	-63.1	3.8	7.44e-01	0	40	104	0	79	10396
2026-01-21 00:51:31.18	300.95	14.97	-54.3	-63.1	3.8	7.46e-01	0	40	104	0	79	10401
2026-01-21 00:51:33.20	300.37	14.85	-54.3	-63.1	3.8	7.45e-01	0	40	104	0	79	10393
2026-01-21 00:51:35.21	299.80	14.72	-54.3	-63.1	3.8	7.46e-01	0	41	104	0	79	10389
2026-01-21 00:51:37.23	299.24	14.59	-54.3	-63.2	3.8	7.45e-01	0	41	104	0	79	10433
2026-01-21 00:51:39.25	298.68	14.46	-54.3	-63.1	3.8	7.43e-01	0	41	104	0	79	10406
2026-01-21 00:51:41.26	298.13	14.33	-54.3	-63.2	3.8	7.47e-01	0	40	104	0	79	10416
2026-01-21 00:51:43.28	297.58	14.20	-54.3	-63.2	3.8	7.45e-01	0	41	104	0	79	10449
2026-01-21 00:51:45.29	297.04	14.07	-54.4	-63.2	3.8	7.45e-01	0	40	104	0	79	10474
2026-01-21 00:51:47.31	296.51	13.94	-54.3	-63.1	3.8	7.44e-01	0	41	104	0	79	10407
2026-01-21 00:51:49.32	295.98	13.80	-54.4	-63.2	3.8	7.45e-01	0	40	104	0	79	10510
2026-01-21 00:51:51.34	295.46	13.66	-54.3	-63.1	3.8	7.44e-01	0	40	104	0	79	10408
2026-01-21 00:51:53.36	294.94	13.53	-54.4	-63.2	3.8	7.46e-01	0	41	104	0	79	10487
2026-01-21 00:51:55.37	294.43	13.39	-54.4	-63.2	3.8	7.47e-01	0	40	104	0	79	10463
2026-01-21 00:51:57.39	293.92	13.25	-54.4	-63.2	3.8	7.45e-01	0	41	104	0	79	10528
2026-01-21 00:51:59.41	293.42	13.11	-54.4	-63.2	3.8	7.45e-01	0	41	104	0	79	10470
2026-01-21 00:52:01.42	292.93	12.97	-54.4	-63.3	3.8	7.44e-01	0	41	104	0	79	10567
2026-01-21 00:52:03.44	292.44	12.83	-54.4	-63.2	3.8	7.46e-01	0	40	104	0	79	10453
2026-01-21 00:52:05.46	291.95	12.68	-54.4	-63.3	3.8	7.46e-01	0	40	104	0	79	10544
2026-01-21 00:52:07.47	291.48	12.54	-54.4	-63.2	3.8	7.45e-01	0	41	104	0	79	10474
2026-01-21 00:52:09.49	291.01	12.40	-54.4	-63.3	3.8	7.45e-01	0	41	104	0	79	10566
2026-01-21 00:52:11.50	290.54	12.25	-54.4	-63.2	3.8	7.45e-01	0	40	104	0	79	10497
2026-01-21 00:52:13.52	290.08	12.11	-54.4	-63.3	3.8	7.45e-01	0	41	104	0	79	10535
2026-01-21 00:52:15.54	289.62	11.96	-54.4	-63.2	3.8	7.48e-01	0	41	104	0	79	10450
2026-01-21 00:52:17.55	289.18	11.82	-54.4	-63.2	3.8	7.45e-01	0	41	104	0	79	10489
2026-01-21 00:52:19.57	288.73	11.67	-54.3	-63.1	3.8	7.46e-01	0	41	104	0	79	10409
2026-01-21 00:52:21.59	288.29	11.53	-54.4	-63.2	3.8	7.44e-01	0	41	104	0	79	10427
2026-01-21 00:52:23.60	287.86	11.38	-54.3	-63.1	3.8	7.45e-01	0	41	104	0	79	10347
2026-01-21 00:52:25.62	287.43	11.24	-54.3	-63.2	3.8	7.46e-01	0	40	104	0	79	10417
2026-01-21 00:52:27.64	287.01	11.09	-54.2	-63.1	3.8	7.44e-01	0	41	104	0	79	10324
2026-01-21 00:52:29.66	286.59	10.94	-54.3	-63.1	3.8	7.46e-01	0	41	104	0	79	10351
2026-01-21 00:52:31.67	286.18	10.80	-54.2	-63.0	3.8	7.45e-01	0	41	104	0	79	10262
2026-01-21 00:52:33.69	285.77	10.65	-54.2	-63.0	3.8	7.47e-01	0	41	104	0	79	10285
2026-01-21 00:52:35.71	285.37	10.50	-54.2	-63.0	3.8	7.46e-01	0	41	104	0	79	10237
2026-01-21 00:52:37.72	284.97	10.36	-54.2	-63.0	3.8	7.47e-01	0	41	104	0	79	10244
2026-01-21 00:52:39.74	284.58	10.21	-54.1	-63.0	3.8	7.44e-01	0	41	104	0	79	10180
2026-01-21 00:52:41.75	284.19	10.06	-54.2	-63.0	3.8	7.44e-01	0	40	104	0	79	10222
2026-01-21 00:52:43.77	283.81	9.92	-54.1	-62.9	3.8	7.46e-01	0	41	104	0	79	10130
2026-01-21 00:52:45.78	283.43	9.77	-54.1	-62.9	3.8	7.46e-01	0	40	104	0	79	10153
2026-01-21 00:52:47.80	283.06	9.63	-54.1	-62.9	3.8	7.44e-01	0	40	104	0	79	10119
2026-01-21 00:52:49.82	282.69	9.48	-54.1	-62.9	3.8	7.45e-01	0	41	104	0	79	10097
2026-01-21 00:52:51.83	282.33	9.34	-54.0	-62.9	3.8	7.45e-01	0	40	104	0	79	10093
2026-01-21 00:52:53.85	281.96	9.19	-54.1	-62.9	3.8	7.44e-01	0	41	104	0	79	10088
2026-01-21 00:52:55.86	281.61	9.04	-54.0	-62.9	3.8	7.47e-01	0	40	104	0	79	10073
2026-01-21 00:52:57.88	281.26	8.90	-54.0	-62.9	3.8	7.44e-01	0	40	104	0	79	10073
2026-01-21 00:52:59.89	280.91	8.76	-54.0	-62.8	3.8	7.46e-01	0	41	104	0	79	10029
2026-01-21 00:53:01.91	280.57	8.61	-54.0	-62.8	3.8	7.46e-01	0	40	104	0	79	9988
2026-01-21 00:53:03.92	280.24	8.47	-53.9	-62.7	3.8	7.46e-01	0	41	104	0	79	9935
2026-01-21 00:53:05.94	279.90	8.32	-53.9	-62.8	3.8	7.44e-01	0	40	104	0	79	9984
2026-01-21 00:53:07.96	279.57	8.18	-53.9	-62.7	3.8	7.45e-01	0	41	104	0	79	9899
2026-01-21 00:53:09.97	279.25	8.04	-53.9	-62.7	3.8	7.46e-01	0	41	104	0	79	9926
2026-01-21 00:53:11.99	278.92	7.89	-53.8	-62.6	3.8	7.45e-01	0	41	104	0	79	9825
2026-01-21 00:53:14.01	278.61	7.75	-53.8	-62.7	3.8	7.45e-01	0	40	104	0	79	9864
2026-01-21 00:53:16.03	278.29	7.61	-53.7	-62.6	3.8	7.46e-01	0	41	104	0	79	9729
2026-01-21 00:53:18.04	277.98	7.47	-53.8	-62.6	3.8	7.47e-01	0	40	104	0	79	9809
2026-01-21 00:53:20.06	277.68	7.33	-53.7	-62.6	3.8	7.44e-01	0	41	104	0	79	9732
2026-01-21 00:53:22.07	277.38	7.19	-53.8	-62.6	3.8	7.46e-01	0	40	104	0	79	9801
2026-01-21 00:53:24.09	277.08	7.05	-53.7	-62.5	3.8	7.46e-01	0	40	104	0	79	9697
2026-01-21 00:53:26.11	276.78	6.91	-53.7	-62.6	3.8	7.45e-01	0	40	104	0	79	9745
2026-01-21 00:53:28.13	276.49	6.77	-53.6	-62.5	3.8	7.46e-01	0	40	104	0	79	9614
2026-01-21 00:53:30.14	276.20	6.63	-53.7	-62.5	3.8	7.44e-01	0	41	104	0	79	9689
2026-01-21 00:53:32.16	275.92	6.49	-53.6	-62.4	3.8	7.45e-01	0	40	104	0	79	9562
2026-01-21 00:53:34.17	275.64	6.35	-53.6	-62.5	3.8	7.46e-01	0	41	104	0	79	9617
2026-01-21 00:53:36.19	275.36	6.21	-53.6	-62.4	3.8	7.45e-01	0	40	104	0	79	9534
2026-01-21 00:53:38.21	275.09	6.08	-53.6	-62.4	3.8	7.45e-01	0	40	104	0	79	9556
2026-01-21 00:53:40.23	274.82	5.94	-53.5	-62.4	3.8	7.46e-01	0	40	104	0	79	9526
2026-01-21 00:53:42.24	274.55	5.80	-53.6	-62.4	3.8	7.46e-01	0	40	104	0	79	9538
2026-01-21 00:53:44.26	274.29	5.67	-53.5	-62.3	3.8	7.44e-01	0	41	104	0	78	10016
2026-01-21 00:53:46.27	274.03	5.53	-53.5	-62.3	3.8	7.44e-01	0	40	104	0	78	10048
2026-01-21 00:53:48.29	273.77	5.40	-53.5	-62.3	3.8	7.44e-01	0	40	104	0	78	9974
2026-01-21 00:53:50.31	273.51	5.26	-53.5	-62.3	3.8	7.45e-01	0	40	104	0	78	9949
2026-01-21 00:53:52.32	273.26	5.13	-53.4	-62.2	3.8	7.45e-01	0	41	104	0	78	9926
2026-01-21 00:53:54.34	273.01	5.00	-53.5	-62.3	3.8	7.46e-01	0	41	104	0	78	10016
2026-01-21 00:53:56.36	272.77	4.86	-53.5	-62.3	3.8	7.46e-01	0	40	104	0	78	9986
2026-01-21 00:53:58.37	272.53	4.73	-53.6	-62.4	3.8	7.45e-01	0	40	104	0	78	10079
2026-01-21 00:54:00.37	272.29	4.60	-53.8	-62.6	3.8	7.45e-01	0	40	104	0	78	10376
2026-01-21 00:54:02.39	272.05	4.47	-53.9	-62.7	3.8	7.45e-01	0	40	104	0	78	10470
2026-01-21 00:54:04.40	271.82	4.34	-54.0	-62.8	3.8	7.47e-01	0	40	104	0	78	10636
2026-01-21 00:54:06.42	271.58	4.21	-54.1	-62.9	3.8	7.45e-01	0	40	104	0	78	10722
2026-01-21 00:54:08.44	271.35	4.08	-54.1	-63.0	3.8	7.45e-01	0	41	104	0	78	10818
2026-01-21 00:54:10.46	271.13	3.95	-54.2	-63.0	3.8	7.47e-01	0	40	104	0	78	10891
2026-01-21 00:54:12.47	270.91	3.82	-54.3	-63.1	3.8	7.44e-01	0	41	104	0	79	10335
2026-01-21 00:54:14.49	270.68	3.69	-54.2	-63.1	3.8	7.43e-01	0	41	104	0	79	10355
2026-01-21 00:54:16.51	270.46	3.56	-54.2	-63.1	3.8	7.46e-01	0	40	104	0	79	10303
2026-01-21 00:54:18.52	270.25	3.43	-54.2	-63.0	3.8	7.45e-01	0	40	104	0	79	10291
2026-01-21 00:54:20.54	270.04	3.31	-54.2	-63.1	3.8	7.46e-01	0	40	104	0	79	10305
2026-01-21 00:54:22.56	269.82	3.18	-54.2	-63.0	3.8	7.46e-01	0	40	104	0	79	10268
2026-01-21 00:54:24.57	269.62	3.05	-54.2	-63.0	3.8	7.46e-01	0	40	104	0	79	10265
2026-01-21 00:54:26.59	269.41	2.93	-54.2	-63.0	3.8	7.47e-01	0	40	104	0	79	10246
2026-01-21 00:54:28.61	269.20	2.80	-54.2	-63.0	3.8	7.44e-01	0	40	104	0	79	10243
2026-01-21 00:54:30.62	269.00	2.68	-54.2	-63.0	3.8	7.45e-01	0	40	104	0	79	10256
2026-01-21 00:54:32.64	268.80	2.55	-54.2	-63.0	3.8	7.45e-01	0	41	104	0	79	10250
2026-01-21 00:54:34.65	268.61	2.43	-54.2	-63.0	3.8	7.45e-01	0	40	104	0	79	10252
2026-01-21 00:54:36.67	268.41	2.30	-54.2	-63.0	3.8	7.46e-01	0	40	104	0	79	10251
2026-01-21 00:54:38.69	268.22	2.18	-54.2	-63.0	3.8	7.46e-01	0	40	104	0	79	10203
2026-01-21 00:54:40.71	268.03	2.06	-54.2	-63.0	3.8	7.46e-01	0	41	104	0	79	10269
2026-01-21 00:54:42.72	267.84	1.94	-54.2	-63.0	3.8	7.45e-01	0	40	104	0	79	10204

#Closed at: 2026-01-21 00:54:44
#Recorded file [0 MB]: D:/lorett/data/31041_260121_034542.dat