passes_logs/2026/01/25/planumMaritime01/planumMaritime01__20260125_055428_METOP-B_rec.log

#Pass ID: 20260125_055428_METOP-B
#Satellite: METOP-B
#Configuration: METOP-B
#Start time: 2026-01-25 05:54:33.244808

#LorettStation: 1.0.0 05.05.2024
#Station: planumMaritime01
#Location: 37.49445 lon 55.92918 lat
#TLE: 1 38771U 12049A   26024.30979649  .00000246  00000+0  13231-3 0  9997
#TLE: 2 38771  98.6735  78.5342 0003027  57.8768 302.2703 14.21427789692827

#Time	Az	El	Level	SNR
2026-01-25 05:54:35.421055	35.3	10.1	-73.7	0.0
2026-01-25 05:54:37.673337	35.5	10.3	-73.4	0.0
2026-01-25 05:54:39.928405	35.8	10.5	-68.7	0.0
2026-01-25 05:54:42.179850	36.0	10.6	-68.4	0.0
2026-01-25 05:54:44.432639	36.3	10.8	-64.1	0.0
2026-01-25 05:54:46.685433	36.5	10.9	-59.8	0.0
2026-01-25 05:54:48.938099	36.8	11.1	-59.0	0.0
2026-01-25 05:54:51.192480	37.1	11.2	-61.9	0.0
2026-01-25 05:54:53.444828	37.3	11.4	-61.6	0.0
2026-01-25 05:54:55.698372	37.6	11.6	-61.6	0.0
2026-01-25 05:54:57.949333	37.9	11.7	-60.0	0.0
2026-01-25 05:55:00.201426	38.2	11.9	-61.0	0.0
2026-01-25 05:55:02.455003	38.5	12.0	-61.7	0.0
2026-01-25 05:55:04.706747	38.7	12.2	-62.0	0.0
2026-01-25 05:55:06.962616	39.0	12.4	-63.7	0.0
2026-01-25 05:55:09.216492	39.3	12.5	-62.3	0.0
2026-01-25 05:55:11.469298	39.6	12.7	-62.0	0.0
2026-01-25 05:55:13.724085	39.9	12.9	-63.2	0.0
2026-01-25 05:55:15.978158	40.2	13.0	-63.1	0.0
2026-01-25 05:55:18.231865	40.5	13.2	-62.1	0.0
2026-01-25 05:55:20.485465	40.8	13.4	-61.4	0.0
2026-01-25 05:55:22.739318	41.1	13.5	-62.2	0.0
2026-01-25 05:55:24.991181	41.5	13.7	-61.5	0.0
2026-01-25 05:55:27.249121	41.8	13.8	-62.7	0.0
2026-01-25 05:55:29.507086	42.1	14.0	-60.2	0.0
2026-01-25 05:55:31.762911	42.4	14.2	-65.1	0.0
2026-01-25 05:55:34.017858	42.8	14.3	-56.4	0.0
2026-01-25 05:55:36.273220	43.1	14.5	-60.1	0.0
2026-01-25 05:55:38.529401	43.4	14.7	-60.3	0.0
2026-01-25 05:55:40.783354	43.8	14.8	-62.2	0.0
2026-01-25 05:55:43.038867	44.1	15.0	-61.4	0.0
2026-01-25 05:55:45.292827	44.5	15.2	-63.8	0.0
2026-01-25 05:55:47.547736	44.8	15.4	-63.8	0.0
2026-01-25 05:55:49.801751	45.2	15.5	-63.8	0.0
2026-01-25 05:55:52.057604	45.5	15.7	-66.3	0.0
2026-01-25 05:55:54.309831	45.9	15.9	-66.3	0.0
2026-01-25 05:55:56.562212	46.2	16.0	-65.4	0.0
2026-01-25 05:55:58.815918	46.6	16.2	-66.5	0.0
2026-01-25 05:56:01.073372	47.0	16.4	-65.3	0.0
2026-01-25 05:56:03.326491	47.4	16.5	-64.5	0.0
2026-01-25 05:56:05.580373	47.8	16.7	-65.9	0.0
2026-01-25 05:56:07.835845	48.1	16.9	-64.3	0.0
2026-01-25 05:56:10.089161	48.5	17.0	-67.0	0.0
2026-01-25 05:56:12.347427	48.9	17.2	-67.4	0.0
2026-01-25 05:56:14.602615	49.3	17.4	-67.5	0.0
2026-01-25 05:56:16.856533	49.7	17.5	-65.4	0.0
2026-01-25 05:56:19.108437	50.1	17.7	-66.2	0.0
2026-01-25 05:56:21.361107	50.6	17.9	-66.8	0.0
2026-01-25 05:56:23.615292	51.0	18.0	-67.3	0.0
2026-01-25 05:56:25.867397	51.4	18.2	-67.0	0.0
2026-01-25 05:56:28.124827	51.8	18.4	-66.5	0.0
2026-01-25 05:56:30.380937	52.3	18.5	-67.2	0.0
2026-01-25 05:56:32.635398	52.7	18.7	-67.2	0.0
2026-01-25 05:56:34.889392	53.1	18.9	-69.2	0.0
2026-01-25 05:56:37.143319	53.6	19.0	-68.5	0.0
2026-01-25 05:56:39.395520	54.0	19.2	-67.9	0.0
2026-01-25 05:56:41.648793	54.5	19.4	-68.6	0.0
2026-01-25 05:56:43.905797	54.9	19.5	-68.4	0.0
2026-01-25 05:56:46.157506	55.4	19.7	-67.2	0.0
2026-01-25 05:56:48.410379	55.9	19.9	-69.1	0.0
2026-01-25 05:56:50.667394	56.3	20.0	-67.6	0.0
2026-01-25 05:56:52.923376	56.8	20.2	-67.9	0.0
2026-01-25 05:56:55.181041	57.3	20.3	-67.9	0.0
2026-01-25 05:56:57.435832	57.8	20.5	-67.7	0.0
2026-01-25 05:56:59.692425	58.3	20.6	-68.3	0.0
2026-01-25 05:57:01.948848	58.8	20.8	-67.9	0.0
2026-01-25 05:57:04.205516	59.3	21.0	-68.5	0.0
2026-01-25 05:57:06.460159	59.8	21.1	-69.6	0.0
2026-01-25 05:57:08.716654	60.3	21.3	-66.7	0.0
2026-01-25 05:57:10.971134	60.8	21.4	-68.2	0.0
2026-01-25 05:57:13.226764	61.4	21.6	-69.0	0.0
2026-01-25 05:57:15.480416	61.9	21.7	-68.6	0.0
2026-01-25 05:57:17.732010	62.4	21.9	-69.6	0.0
2026-01-25 05:57:19.986386	63.0	22.0	-68.9	0.0
2026-01-25 05:57:22.240922	63.5	22.1	-68.3	0.3
2026-01-25 05:57:24.493048	64.1	22.3	-67.8	0.0
2026-01-25 05:57:26.747382	64.6	22.4	-66.9	0.0
2026-01-25 05:57:28.999919	65.2	22.6	-70.2	0.0
2026-01-25 05:57:31.255291	65.7	22.7	-70.8	2.0
2026-01-25 05:57:33.508681	66.3	22.8	-70.6	0.0
2026-01-25 05:57:35.763581	66.9	23.0	-70.8	2.2
2026-01-25 05:57:38.018918	67.5	23.1	-70.7	4.1
2026-01-25 05:57:40.274888	68.0	23.2	-70.0	2.7
2026-01-25 05:57:42.528009	68.6	23.3	-70.4	0.8
2026-01-25 05:57:44.780639	69.2	23.5	-69.8	2.7
2026-01-25 05:57:47.030755	69.8	23.6	-70.9	2.5
2026-01-25 05:57:49.282006	70.4	23.7	-71.4	5.0
2026-01-25 05:57:51.535975	71.0	23.8	-70.9	2.1
2026-01-25 05:57:53.787478	71.6	23.9	-70.8	2.6
2026-01-25 05:57:56.042856	72.2	24.0	-71.2	4.1
2026-01-25 05:57:58.293786	72.9	24.1	-71.2	0.0
2026-01-25 05:58:00.548279	73.5	24.2	-70.9	3.3
2026-01-25 05:58:02.799227	74.1	24.3	-71.0	3.4
2026-01-25 05:58:05.051364	74.7	24.4	-70.8	2.5
2026-01-25 05:58:07.305791	75.4	24.5	-71.3	0.1
2026-01-25 05:58:09.556320	76.0	24.6	-70.8	4.6
2026-01-25 05:58:11.808890	76.6	24.7	-71.3	2.5
2026-01-25 05:58:14.059897	77.3	24.8	-71.6	1.3
2026-01-25 05:58:16.311558	77.9	24.8	-71.3	5.0
2026-01-25 05:58:18.564470	78.6	24.9	-71.2	3.7
2026-01-25 05:58:20.812917	79.2	25.0	-70.9	3.4
2026-01-25 05:58:23.063372	79.9	25.0	-71.1	2.0
2026-01-25 05:58:25.314694	80.5	25.1	-71.5	4.8
2026-01-25 05:58:27.567019	81.2	25.2	-72.1	5.1
2026-01-25 05:58:29.820270	81.9	25.2	-71.5	4.3
2026-01-25 05:58:32.074251	82.5	25.3	-70.5	0.3
2026-01-25 05:58:34.325548	83.2	25.3	-70.5	3.4
2026-01-25 05:58:36.570178	83.9	25.4	-69.4	0.0
2026-01-25 05:58:38.821900	84.5	25.4	-71.8	4.5
2026-01-25 05:58:41.074185	85.2	25.4	-71.1	4.1
2026-01-25 05:58:43.327953	85.9	25.5	-72.2	6.1
2026-01-25 05:58:45.580406	86.5	25.5	-71.0	5.0
2026-01-25 05:58:47.830035	87.2	25.5	-71.3	2.6
2026-01-25 05:58:50.078319	87.9	25.6	-69.2	2.1
2026-01-25 05:58:52.329752	88.6	25.6	-71.7	4.9
2026-01-25 05:58:54.582172	89.2	25.6	-72.0	4.6
2026-01-25 05:58:56.837660	89.9	25.6	-72.0	5.5
2026-01-25 05:58:59.090017	90.6	25.6	-72.4	2.5
2026-01-25 05:59:01.345976	91.3	25.6	-71.8	4.2
2026-01-25 05:59:03.599553	92.0	25.6	-71.7	3.9
2026-01-25 05:59:05.850926	92.6	25.6	-71.2	4.7
2026-01-25 05:59:08.107329	93.3	25.6	-71.4	3.8
2026-01-25 05:59:10.360187	94.0	25.5	-72.0	5.0
2026-01-25 05:59:12.613242	94.7	25.5	-71.3	4.1
2026-01-25 05:59:14.863798	95.4	25.5	-72.4	7.7
2026-01-25 05:59:17.117591	96.0	25.5	-72.3	8.2
2026-01-25 05:59:19.371867	96.7	25.4	-72.8	9.2
2026-01-25 05:59:21.623803	97.4	25.4	-72.3	5.8
2026-01-25 05:59:23.876184	98.0	25.3	-72.9	7.9
2026-01-25 05:59:26.126160	98.7	25.3	-72.8	5.8
2026-01-25 05:59:28.376783	99.4	25.3	-72.9	6.3
2026-01-25 05:59:30.626619	100.0	25.2	-72.5	5.8
2026-01-25 05:59:32.882261	100.7	25.1	-72.7	7.4
2026-01-25 05:59:35.134427	101.4	25.1	-71.9	5.9
2026-01-25 05:59:37.387989	102.0	25.0	-72.8	7.5
2026-01-25 05:59:39.640499	102.7	24.9	-72.9	7.9
2026-01-25 05:59:41.891514	103.3	24.9	-72.6	8.7
2026-01-25 05:59:44.146400	104.0	24.8	-73.1	7.5
2026-01-25 05:59:46.403969	104.6	24.7	-73.2	8.2
2026-01-25 05:59:48.656626	105.3	24.6	-73.6	8.6
2026-01-25 05:59:50.906360	105.9	24.5	-73.4	7.1
2026-01-25 05:59:53.158324	106.5	24.4	-73.6	8.3
2026-01-25 05:59:55.413551	107.2	24.4	-73.6	6.6
2026-01-25 05:59:57.668051	107.8	24.3	-73.5	7.0
2026-01-25 05:59:59.923198	108.4	24.2	-73.8	7.1
2026-01-25 06:00:02.175328	109.0	24.1	-73.7	6.8
2026-01-25 06:00:04.425755	109.7	23.9	-73.1	5.5
2026-01-25 06:00:06.677506	110.3	23.8	-73.9	8.3
2026-01-25 06:00:08.930166	110.9	23.7	-74.1	7.2
2026-01-25 06:00:11.181648	111.5	23.6	-73.9	7.6
2026-01-25 06:00:13.432351	112.1	23.5	-73.7	9.0
2026-01-25 06:00:15.683569	112.7	23.4	-73.7	6.5
2026-01-25 06:00:17.933465	113.3	23.3	-73.9	8.1
2026-01-25 06:00:20.186116	113.8	23.1	-74.0	8.8
2026-01-25 06:00:22.439418	114.4	23.0	-73.4	7.0
2026-01-25 06:00:24.691563	115.0	22.9	-74.1	7.7
2026-01-25 06:00:26.942659	115.6	22.7	-74.3	8.2
2026-01-25 06:00:29.196231	116.1	22.6	-74.3	7.4
2026-01-25 06:00:31.450425	116.7	22.5	-74.2	7.9
2026-01-25 06:00:33.702411	117.3	22.3	-73.4	7.2
2026-01-25 06:00:35.957150	117.8	22.2	-74.6	7.8
2026-01-25 06:00:38.212509	118.4	22.0	-74.0	7.5
2026-01-25 06:00:40.467028	118.9	21.9	-74.3	8.1
2026-01-25 06:00:42.714379	119.4	21.8	-73.8	8.1
2026-01-25 06:00:44.964732	120.0	21.6	-74.2	7.3
2026-01-25 06:00:47.216504	120.5	21.5	-74.3	7.0
2026-01-25 06:00:49.468282	121.0	21.3	-74.5	5.5
2026-01-25 06:00:51.720134	121.5	21.2	-74.2	7.4
2026-01-25 06:00:53.972826	122.1	21.0	-73.7	7.5
2026-01-25 06:00:56.224585	122.6	20.8	-74.4	7.9
2026-01-25 06:00:58.477482	123.1	20.7	-74.1	7.7
2026-01-25 06:01:00.730328	123.6	20.5	-73.7	5.9
2026-01-25 06:01:02.983206	124.1	20.4	-73.9	5.8
2026-01-25 06:01:05.233999	124.5	20.2	-73.9	5.9
2026-01-25 06:01:07.485983	125.0	20.1	-73.7	5.8
2026-01-25 06:01:09.741591	125.5	19.9	-73.6	5.1
2026-01-25 06:01:11.995358	126.0	19.7	-73.7	6.4
2026-01-25 06:01:14.245114	126.4	19.6	-73.3	6.3
2026-01-25 06:01:16.497197	126.9	19.4	-73.6	5.7
2026-01-25 06:01:18.749433	127.4	19.2	-73.7	6.4
2026-01-25 06:01:21.001358	127.8	19.1	-73.9	6.9
2026-01-25 06:01:23.255517	128.3	18.9	-73.4	5.7
2026-01-25 06:01:25.504924	128.7	18.7	-73.5	4.6
2026-01-25 06:01:27.757878	129.2	18.6	-73.3	6.8
2026-01-25 06:01:30.010435	129.6	18.4	-73.6	6.4
2026-01-25 06:01:32.264143	130.0	18.2	-73.4	5.4
2026-01-25 06:01:34.517999	130.4	18.1	-73.5	4.2
2026-01-25 06:01:36.769871	130.9	17.9	-73.6	4.5
2026-01-25 06:01:39.022680	131.3	17.7	-73.5	5.1
2026-01-25 06:01:41.274410	131.7	17.6	-73.9	5.3
2026-01-25 06:01:43.527334	132.1	17.4	-73.2	5.5
2026-01-25 06:01:45.779732	132.5	17.2	-73.0	4.1
2026-01-25 06:01:48.034262	132.9	17.1	-73.1	4.5
2026-01-25 06:01:50.287816	133.3	16.9	-73.7	5.1
2026-01-25 06:01:52.538843	133.7	16.7	-73.2	3.6
2026-01-25 06:01:54.793978	134.1	16.6	-73.8	5.0
2026-01-25 06:01:57.046486	134.5	16.4	-73.7	3.8
2026-01-25 06:01:59.298064	134.8	16.2	-73.6	4.2
2026-01-25 06:02:01.548337	135.2	16.0	-73.7	3.9
2026-01-25 06:02:03.801068	135.6	15.9	-73.6	4.6
2026-01-25 06:02:06.055425	135.9	15.7	-73.6	3.4
2026-01-25 06:02:08.305779	136.3	15.5	-73.9	4.7
2026-01-25 06:02:10.558523	136.7	15.4	-74.0	4.9
2026-01-25 06:02:12.815759	137.0	15.2	-73.7	5.2
2026-01-25 06:02:15.067332	137.4	15.0	-74.1	3.7
2026-01-25 06:02:17.317616	137.7	14.9	-74.0	4.8
2026-01-25 06:02:19.569203	138.0	14.7	-73.9	4.5
2026-01-25 06:02:21.821650	138.4	14.5	-73.9	3.9
2026-01-25 06:02:24.072883	138.7	14.4	-74.4	6.0
2026-01-25 06:02:26.328162	139.0	14.2	-74.4	3.7
2026-01-25 06:02:28.580631	139.4	14.0	-73.9	3.1
2026-01-25 06:02:30.831619	139.7	13.8	-73.4	1.5
2026-01-25 06:02:33.083273	140.0	13.7	-73.5	1.8
2026-01-25 06:02:35.336860	140.3	13.5	-73.3	0.4
2026-01-25 06:02:37.589597	140.6	13.3	-73.5	3.2
2026-01-25 06:02:39.845072	141.0	13.2	-73.5	2.0
2026-01-25 06:02:42.099229	141.3	13.0	-73.6	1.5
2026-01-25 06:02:44.354937	141.6	12.9	-73.7	2.2
2026-01-25 06:02:46.607745	141.9	12.7	-73.4	0.8
2026-01-25 06:02:48.859668	142.2	12.5	-73.3	0.0
2026-01-25 06:02:51.117619	142.5	12.4	-73.7	0.0
2026-01-25 06:02:53.369533	142.7	12.2	-73.8	0.0
2026-01-25 06:02:55.622005	143.0	12.0	-73.7	0.0
2026-01-25 06:02:57.876972	143.3	11.9	-73.8	0.0
2026-01-25 06:03:00.127858	143.6	11.7	-73.6	0.0
2026-01-25 06:03:02.385986	143.9	11.5	-73.9	0.0
2026-01-25 06:03:04.640782	144.1	11.4	-74.1	1.2
2026-01-25 06:03:06.893914	144.4	11.2	-74.2	0.0
2026-01-25 06:03:09.148814	144.7	11.1	-74.6	1.3
2026-01-25 06:03:11.400074	145.0	10.9	-74.9	0.0
2026-01-25 06:03:13.653183	145.2	10.7	-75.8	0.0
2026-01-25 06:03:15.903575	145.5	10.6	-77.3	0.0
2026-01-25 06:03:18.156320	145.7	10.4	-78.2	0.0
2026-01-25 06:03:20.406614	146.0	10.3	-78.1	0.0
2026-01-25 06:03:22.659890	146.2	10.1	-78.2	0.0
#Closed at: 2026-01-25 05:54:28.252078