passes_logs/2026/01/25/planumMaritime01/planumMaritime01__20260125_180151_METOP-C_rec.log

#Pass ID: 20260125_180151_METOP-C
#Satellite: METOP-C
#Configuration: METOP-C
#Start time: 2026-01-25 18:01:56.870951

#LorettStation: 1.0.0 05.05.2024
#Station: planumMaritime01
#Location: 37.49445 lon 55.92918 lat
#TLE: 1 43689U 18087A   26025.32165390  .00000214  00000+0  11767-3 0  9999
#TLE: 2 43689  98.6860  87.4089 0001078 164.4879 195.6331 14.21504306374536

#Time	Az	El	Level	SNR
2026-01-25 18:01:59.041124	160.1	10.2	-72.5	0.0
2026-01-25 18:02:01.291903	160.1	10.4	-72.3	0.0
2026-01-25 18:02:03.543856	160.1	10.6	-72.0	0.0
2026-01-25 18:02:05.796744	160.1	10.8	-70.8	0.0
2026-01-25 18:02:08.051074	160.1	11.0	-70.7	0.0
2026-01-25 18:02:10.302054	160.1	11.2	-71.6	0.0
2026-01-25 18:02:12.555963	160.1	11.4	-70.9	0.0
2026-01-25 18:02:14.810008	160.1	11.6	-71.5	0.0
2026-01-25 18:02:17.062399	160.1	11.8	-71.1	0.0
2026-01-25 18:02:19.317918	160.1	12.1	-69.8	0.0
2026-01-25 18:02:21.573405	160.1	12.3	-69.7	0.0
2026-01-25 18:02:23.828221	160.1	12.5	-71.5	1.0
2026-01-25 18:02:26.081182	160.1	12.7	-70.8	0.0
2026-01-25 18:02:28.333689	160.1	12.9	-70.6	0.0
2026-01-25 18:02:30.588230	160.1	13.1	-71.6	0.9
2026-01-25 18:02:32.843271	160.1	13.4	-71.6	2.5
2026-01-25 18:02:35.098252	160.1	13.6	-71.8	1.8
2026-01-25 18:02:37.354481	160.1	13.8	-70.5	0.0
2026-01-25 18:02:39.611025	160.1	14.1	-72.5	2.6
2026-01-25 18:02:41.867862	160.1	14.3	-71.4	1.4
2026-01-25 18:02:44.122409	160.1	14.5	-71.2	0.0
2026-01-25 18:02:46.372638	160.1	14.8	-70.1	0.0
2026-01-25 18:02:48.627867	160.1	15.0	-70.2	0.0
2026-01-25 18:02:50.879235	160.1	15.3	-72.3	1.4
2026-01-25 18:02:53.132353	160.1	15.5	-72.5	1.1
2026-01-25 18:02:55.384457	160.1	15.8	-71.9	0.0
2026-01-25 18:02:57.641472	160.1	16.0	-72.5	1.8
2026-01-25 18:02:59.894795	160.1	16.3	-71.8	1.9
2026-01-25 18:03:02.147119	160.1	16.5	-72.3	3.5
2026-01-25 18:03:04.401017	160.1	16.8	-72.0	2.4
2026-01-25 18:03:06.653935	160.1	17.0	-72.2	2.4
2026-01-25 18:03:08.904363	160.1	17.3	-71.5	3.2
2026-01-25 18:03:11.158251	160.1	17.6	-71.4	0.0
2026-01-25 18:03:13.411193	160.1	17.8	-71.5	2.4
2026-01-25 18:03:15.665064	160.1	18.1	-71.7	2.2
2026-01-25 18:03:17.917721	160.1	18.4	-71.9	1.8
2026-01-25 18:03:20.170554	160.1	18.7	-70.7	1.4
2026-01-25 18:03:22.423315	160.1	19.0	-71.7	2.5
2026-01-25 18:03:24.676545	160.1	19.3	-71.8	2.8
2026-01-25 18:03:26.929264	160.1	19.5	-72.1	3.7
2026-01-25 18:03:29.182030	160.1	19.8	-72.6	3.7
2026-01-25 18:03:31.436644	160.1	20.1	-72.0	3.9
2026-01-25 18:03:33.693659	160.1	20.4	-71.6	3.0
2026-01-25 18:03:35.948276	160.1	20.7	-72.2	2.9
2026-01-25 18:03:38.201352	160.1	21.1	-72.1	3.5
2026-01-25 18:03:40.454192	160.1	21.4	-71.6	3.5
2026-01-25 18:03:42.707650	160.1	21.7	-71.9	1.6
2026-01-25 18:03:44.957858	160.1	22.0	-72.0	3.9
2026-01-25 18:03:47.211476	160.1	22.3	-69.8	0.8
2026-01-25 18:03:49.462117	160.1	22.7	-71.7	4.9
2026-01-25 18:03:51.715319	160.1	23.0	-71.5	6.9
2026-01-25 18:03:53.968917	160.0	23.3	-71.9	5.1
2026-01-25 18:03:56.222956	160.0	23.7	-71.6	5.6
2026-01-25 18:03:58.475762	160.0	24.0	-71.6	5.2
2026-01-25 18:04:00.729031	160.0	24.4	-70.5	3.1
2026-01-25 18:04:02.984273	160.0	24.7	-70.9	5.0
2026-01-25 18:04:05.239155	160.0	25.1	-71.4	5.5
2026-01-25 18:04:07.493670	160.0	25.4	-71.3	4.7
2026-01-25 18:04:09.747530	160.0	25.8	-72.1	6.6
2026-01-25 18:04:11.999760	160.0	26.2	-72.4	6.8
2026-01-25 18:04:14.252224	160.0	26.6	-71.0	3.5
2026-01-25 18:04:16.505920	160.0	27.0	-72.3	7.6
2026-01-25 18:04:18.758192	160.0	27.4	-71.9	6.8
2026-01-25 18:04:21.011483	160.0	27.8	-72.4	5.7
2026-01-25 18:04:23.260362	159.9	28.2	-72.5	7.6
2026-01-25 18:04:25.514646	159.9	28.6	-72.6	6.7
2026-01-25 18:04:27.769080	159.9	29.0	-73.2	5.6
2026-01-25 18:04:30.021557	159.9	29.4	-73.0	4.7
2026-01-25 18:04:32.274588	159.9	29.8	-72.7	7.7
2026-01-25 18:04:34.528321	159.9	30.3	-73.0	7.7
2026-01-25 18:04:36.779085	159.9	30.7	-73.8	8.4
2026-01-25 18:04:39.029683	159.9	31.2	-73.4	9.7
2026-01-25 18:04:41.283008	159.8	31.6	-73.0	7.3
2026-01-25 18:04:43.535975	159.8	32.1	-73.5	10.2
2026-01-25 18:04:45.788866	159.8	32.6	-72.5	8.2
2026-01-25 18:04:48.040067	159.8	33.0	-73.1	10.1
2026-01-25 18:04:50.291962	159.8	33.5	-73.4	10.3
2026-01-25 18:04:52.543636	159.8	34.0	-72.9	10.1
2026-01-25 18:04:54.796313	159.7	34.5	-73.1	12.1
2026-01-25 18:04:57.047142	159.7	35.0	-73.1	11.1
2026-01-25 18:04:59.301950	159.7	35.5	-72.4	10.4
2026-01-25 18:05:01.558976	159.7	36.1	-73.0	11.3
2026-01-25 18:05:03.812571	159.7	36.6	-72.0	10.2
2026-01-25 18:05:06.062809	159.6	37.2	-72.3	7.7
2026-01-25 18:05:08.317543	159.6	37.7	-72.8	9.5
2026-01-25 18:05:10.569348	159.6	38.3	-72.8	8.3
2026-01-25 18:05:12.819249	159.6	38.8	-73.3	8.8
2026-01-25 18:05:15.070639	159.5	39.4	-73.5	9.1
2026-01-25 18:05:17.322286	159.5	40.0	-72.9	9.2
2026-01-25 18:05:19.574417	159.5	40.6	-72.5	7.4
2026-01-25 18:05:21.828827	159.4	41.2	-72.8	8.9
2026-01-25 18:05:24.080497	159.4	41.9	-72.7	9.3
2026-01-25 18:05:26.332493	159.4	42.5	-72.2	9.4
2026-01-25 18:05:28.583466	159.3	43.1	-72.6	11.9
2026-01-25 18:05:30.835525	159.3	43.8	-71.9	9.9
2026-01-25 18:05:33.090116	159.3	44.5	-72.1	10.3
2026-01-25 18:05:35.341526	159.2	45.1	-72.4	9.9
2026-01-25 18:05:37.593857	159.2	45.8	-72.4	9.0
2026-01-25 18:05:39.844794	159.1	46.5	-72.7	8.6
2026-01-25 18:05:42.095006	159.1	47.2	-72.8	8.3
2026-01-25 18:05:44.346066	159.0	48.0	-72.5	7.7
2026-01-25 18:05:46.597811	159.0	48.7	-72.8	10.2
2026-01-25 18:05:48.849420	158.9	49.5	-72.2	9.7
2026-01-25 18:05:51.105073	158.9	50.2	-72.5	11.0
2026-01-25 18:05:53.358003	158.8	51.0	-72.5	8.9
2026-01-25 18:05:55.609329	158.7	51.8	-72.2	9.1
2026-01-25 18:05:57.862625	158.7	52.6	-71.6	8.2
2026-01-25 18:06:00.115235	158.6	53.4	-71.3	10.6
2026-01-25 18:06:02.365892	158.5	54.3	-71.6	9.6
2026-01-25 18:06:04.620085	158.4	55.1	-71.4	8.5
2026-01-25 18:06:06.871170	158.3	56.0	-71.8	7.0
2026-01-25 18:06:09.126432	158.2	56.8	-72.3	9.0
2026-01-25 18:06:11.378330	158.1	57.7	-72.2	10.1
2026-01-25 18:06:13.634026	158.0	58.6	-72.1	10.0
2026-01-25 18:06:15.885419	157.9	59.5	-72.4	8.7
2026-01-25 18:06:18.139101	157.7	60.5	-72.2	8.0
2026-01-25 18:06:20.391692	157.6	61.4	-72.1	7.6
2026-01-25 18:06:22.642892	157.5	62.4	-72.3	9.0
2026-01-25 18:06:24.893346	157.3	63.3	-71.5	8.2
2026-01-25 18:06:27.146691	157.1	64.3	-71.9	7.9
2026-01-25 18:06:29.399751	156.9	65.3	-71.7	10.1
2026-01-25 18:06:31.651608	156.7	66.3	-72.4	8.9
2026-01-25 18:06:33.904669	156.4	67.3	-72.9	8.0
2026-01-25 18:06:36.158382	156.2	68.3	-72.8	6.6
2026-01-25 18:06:38.410976	155.9	69.4	-73.9	6.1
2026-01-25 18:06:40.663936	155.5	70.4	-72.9	1.8
2026-01-25 18:06:42.916753	155.2	71.5	-72.6	2.8
2026-01-25 18:06:45.170984	154.8	72.6	-72.5	7.4
2026-01-25 18:06:47.420617	154.3	73.6	-72.3	7.0
2026-01-25 18:06:49.673860	153.7	74.7	-71.2	4.9
2026-01-25 18:06:51.925404	153.1	75.8	-70.8	2.5
2026-01-25 18:06:54.179746	152.3	76.9	-70.8	5.0
2026-01-25 18:06:56.431810	151.4	78.1	-70.3	5.1
2026-01-25 18:06:58.684294	150.3	79.2	-71.1	6.5
2026-01-25 18:07:00.940648	148.9	80.3	-71.4	4.0
2026-01-25 18:07:03.194357	147.2	81.4	-70.2	3.3
2026-01-25 18:07:05.446693	145.0	82.5	-69.8	2.1
2026-01-25 18:07:07.701655	141.9	83.6	-70.1	1.8
2026-01-25 18:07:09.957375	137.7	84.7	-70.1	3.0
2026-01-25 18:07:12.211810	131.2	85.7	-70.5	3.0
2026-01-25 18:07:14.463495	120.9	86.7	-71.0	1.4
2026-01-25 18:07:16.715128	103.5	87.4	-69.7	2.9
2026-01-25 18:07:18.966415	76.4	87.8	-70.0	6.0
2026-01-25 18:07:21.223530	47.3	87.6	-70.6	4.6
2026-01-25 18:07:23.477260	27.1	86.9	-70.3	3.7
2026-01-25 18:07:25.728114	15.1	86.0	-69.3	2.7
2026-01-25 18:07:27.984869	7.7	85.0	-69.7	2.4
2026-01-25 18:07:30.239689	2.9	83.9	-69.2	3.9
2026-01-25 18:07:32.491386	359.6	82.8	-68.7	3.7
2026-01-25 18:07:34.742972	357.1	81.7	-68.7	2.0
2026-01-25 18:07:36.995836	355.3	80.6	-70.1	4.8
2026-01-25 18:07:39.248494	353.8	79.5	-68.5	2.3
2026-01-25 18:07:41.500909	352.7	78.4	-69.7	3.5
2026-01-25 18:07:43.754369	351.7	77.3	-69.3	4.2
2026-01-25 18:07:46.005191	350.9	76.2	-68.8	2.6
2026-01-25 18:07:48.258979	350.2	75.1	-68.3	3.2
2026-01-25 18:07:50.511247	349.6	74.0	-68.3	1.3
2026-01-25 18:07:52.764466	349.1	72.9	-67.8	0.0
2026-01-25 18:07:55.017367	348.7	71.8	-68.7	1.0
2026-01-25 18:07:57.271144	348.3	70.8	-68.3	0.7
2026-01-25 18:07:59.523848	348.0	69.7	-68.7	0.1
2026-01-25 18:08:01.777864	347.7	68.7	-67.7	0.0
2026-01-25 18:08:04.031481	347.4	67.6	-68.9	0.0
2026-01-25 18:08:06.284346	347.1	66.6	-68.9	2.9
2026-01-25 18:08:08.545241	346.9	65.6	-69.2	4.1
2026-01-25 18:08:10.798618	346.7	64.6	-68.4	2.3
2026-01-25 18:08:13.052113	346.5	63.6	-67.3	2.9
2026-01-25 18:08:15.303827	346.4	62.7	-68.1	2.3
2026-01-25 18:08:17.558512	346.2	61.7	-68.1	2.1
2026-01-25 18:08:19.814078	346.1	60.8	-68.8	4.6
2026-01-25 18:08:22.066238	345.9	59.8	-67.5	1.1
2026-01-25 18:08:24.322370	345.8	58.9	-68.9	4.3
2026-01-25 18:08:26.577234	345.7	58.0	-69.5	4.2
2026-01-25 18:08:28.830730	345.6	57.1	-69.4	4.0
2026-01-25 18:08:31.085660	345.5	56.3	-68.7	2.8
2026-01-25 18:08:33.340551	345.4	55.4	-69.4	0.7
2026-01-25 18:08:35.595588	345.3	54.6	-69.1	3.7
2026-01-25 18:08:37.847354	345.2	53.7	-69.9	5.1
2026-01-25 18:08:40.104169	345.1	52.9	-68.5	4.1
2026-01-25 18:08:42.357020	345.1	52.1	-69.4	6.2
2026-01-25 18:08:44.607276	345.0	51.3	-68.6	4.6
2026-01-25 18:08:46.863195	344.9	50.5	-66.5	0.0
2026-01-25 18:08:49.113763	344.9	49.8	-68.4	2.9
2026-01-25 18:08:51.368059	344.8	49.0	-67.6	1.0
2026-01-25 18:08:53.619987	344.8	48.3	-67.2	0.0
2026-01-25 18:08:55.873674	344.7	47.5	-68.2	0.0
2026-01-25 18:08:58.126736	344.7	46.8	-67.9	0.0
2026-01-25 18:09:00.381281	344.6	46.1	-68.2	0.0
2026-01-25 18:09:02.634077	344.6	45.4	-66.7	0.0
2026-01-25 18:09:04.886735	344.5	44.7	-66.6	0.0
2026-01-25 18:09:07.139768	344.5	44.1	-65.3	0.0
2026-01-25 18:09:09.392324	344.4	43.4	-65.2	0.0
2026-01-25 18:09:11.645322	344.4	42.8	-62.9	0.0
2026-01-25 18:09:13.899218	344.4	42.1	-65.5	0.0
2026-01-25 18:09:16.153895	344.3	41.5	-63.5	0.0
2026-01-25 18:09:18.406656	344.3	40.9	-65.1	0.0
2026-01-25 18:09:20.659238	344.3	40.3	-65.4	0.0
2026-01-25 18:09:22.913676	344.3	39.7	-64.3	0.0
2026-01-25 18:09:25.167290	344.2	39.1	-64.9	0.0
2026-01-25 18:09:27.422234	344.2	38.5	-64.8	0.0
2026-01-25 18:09:29.674050	344.2	38.0	-63.6	0.0
2026-01-25 18:09:31.929414	344.2	37.4	-65.6	0.0
2026-01-25 18:09:34.180137	344.1	36.9	-65.5	0.0
2026-01-25 18:09:36.433979	344.1	36.3	-66.1	0.0
2026-01-25 18:09:38.684834	344.1	35.8	-65.2	0.0
2026-01-25 18:09:40.938250	344.1	35.3	-65.0	0.0
2026-01-25 18:09:43.194482	344.1	34.8	-64.6	0.0
2026-01-25 18:09:45.447680	344.0	34.3	-65.5	0.0
2026-01-25 18:09:47.701162	344.0	33.8	-65.0	0.0
2026-01-25 18:09:49.957435	344.0	33.3	-63.6	0.0
2026-01-25 18:09:52.210137	344.0	32.8	-63.8	0.0
2026-01-25 18:09:54.462883	344.0	32.3	-65.8	0.0
2026-01-25 18:09:56.715227	344.0	31.9	-64.4	0.0
2026-01-25 18:09:58.971727	343.9	31.4	-64.1	0.0
2026-01-25 18:10:01.227288	343.9	31.0	-63.8	0.0
2026-01-25 18:10:03.480360	343.9	30.5	-63.4	0.0
2026-01-25 18:10:05.735562	343.9	30.1	-64.4	0.0
2026-01-25 18:10:07.988026	343.9	29.7	-62.9	0.0
2026-01-25 18:10:10.244814	343.9	29.2	-64.6	0.0
2026-01-25 18:10:12.497515	343.9	28.8	-66.1	0.0
2026-01-25 18:10:14.749931	343.9	28.4	-64.8	0.0
2026-01-25 18:10:17.003652	343.9	28.0	-63.9	0.0
2026-01-25 18:10:19.256230	343.8	27.6	-64.2	0.0
2026-01-25 18:10:21.512010	343.8	27.2	-62.4	0.0
2026-01-25 18:10:23.764663	343.8	26.8	-62.0	0.0
2026-01-25 18:10:26.018681	343.8	26.4	-62.7	0.0
2026-01-25 18:10:28.271768	343.8	26.1	-62.7	0.0
2026-01-25 18:10:30.524086	343.8	25.7	-61.5	0.0
2026-01-25 18:10:32.775037	343.8	25.3	-62.7	0.0
2026-01-25 18:10:35.029609	343.8	25.0	-63.8	0.0
2026-01-25 18:10:37.282148	343.8	24.6	-62.9	0.0
2026-01-25 18:10:39.536454	343.8	24.3	-64.1	0.0
2026-01-25 18:10:41.791175	343.8	23.9	-64.3	0.0
2026-01-25 18:10:44.044802	343.8	23.6	-61.9	0.0
2026-01-25 18:10:46.301160	343.8	23.2	-64.8	0.0
2026-01-25 18:10:48.555829	343.8	22.9	-64.9	0.0
2026-01-25 18:10:50.811685	343.8	22.6	-64.0	0.0
2026-01-25 18:10:53.064517	343.8	22.2	-63.3	0.0
2026-01-25 18:10:55.317244	343.8	21.9	-63.6	0.0
2026-01-25 18:10:57.569492	343.8	21.6	-65.4	0.0
2026-01-25 18:10:59.827022	343.7	21.3	-65.3	0.0
2026-01-25 18:11:02.083071	343.7	21.0	-64.8	0.0
2026-01-25 18:11:04.335836	343.7	20.7	-65.3	0.0
2026-01-25 18:11:06.590219	343.7	20.4	-64.7	0.0
2026-01-25 18:11:08.843569	343.7	20.1	-65.8	0.0
2026-01-25 18:11:11.097251	343.7	19.8	-65.6	0.0
2026-01-25 18:11:13.349702	343.7	19.5	-62.3	0.0
2026-01-25 18:11:15.601383	343.7	19.2	-66.5	0.0
2026-01-25 18:11:17.854869	343.7	18.9	-65.0	0.0
2026-01-25 18:11:20.106991	343.7	18.6	-62.0	0.0
2026-01-25 18:11:22.359842	343.7	18.4	-65.1	0.0
2026-01-25 18:11:24.618778	343.7	18.1	-65.7	0.0
2026-01-25 18:11:26.875309	343.7	17.8	-64.9	0.0
2026-01-25 18:11:29.130033	343.7	17.6	-65.4	0.0
2026-01-25 18:11:31.383517	343.7	17.3	-66.6	0.0
2026-01-25 18:11:33.634399	343.7	17.0	-66.6	0.0
2026-01-25 18:11:35.880854	343.7	16.8	-65.1	0.0
2026-01-25 18:11:38.132390	343.7	16.5	-63.8	0.0
2026-01-25 18:11:40.383674	343.7	16.3	-64.3	0.0
2026-01-25 18:11:42.635754	343.7	16.0	-66.6	0.0
2026-01-25 18:11:44.885125	343.7	15.8	-67.1	0.0
2026-01-25 18:11:47.135403	343.7	15.5	-64.7	0.0
2026-01-25 18:11:49.388759	343.7	15.3	-66.2	0.0
2026-01-25 18:11:51.643189	343.7	15.0	-67.5	0.0
2026-01-25 18:11:53.894176	343.7	14.8	-66.8	0.0
2026-01-25 18:11:56.147738	343.7	14.5	-66.1	0.0
2026-01-25 18:11:58.401175	343.7	14.3	-65.1	0.0
2026-01-25 18:12:00.654532	343.7	14.1	-65.0	0.0
2026-01-25 18:12:02.910859	343.7	13.8	-63.8	0.0
2026-01-25 18:12:05.163200	343.7	13.6	-66.3	0.0
2026-01-25 18:12:07.417173	343.7	13.4	-66.2	0.0
2026-01-25 18:12:09.671648	343.7	13.2	-66.6	0.0
2026-01-25 18:12:11.924827	343.8	13.0	-66.0	0.0
2026-01-25 18:12:14.179221	343.8	12.7	-65.8	0.0
2026-01-25 18:12:16.434240	343.8	12.5	-65.6	0.0
2026-01-25 18:12:18.690076	343.8	12.3	-65.2	0.0
2026-01-25 18:12:20.943051	343.8	12.1	-65.8	0.0
2026-01-25 18:12:23.196547	343.8	11.9	-65.4	0.0
2026-01-25 18:12:25.449166	343.8	11.7	-64.7	0.0
2026-01-25 18:12:27.707597	343.8	11.5	-64.1	0.0
2026-01-25 18:12:29.960426	343.8	11.2	-64.3	0.0
2026-01-25 18:12:32.212480	343.8	11.0	-66.7	0.0
2026-01-25 18:12:34.468158	343.8	10.8	-65.9	0.0
2026-01-25 18:12:36.724429	343.8	10.6	-64.7	0.0
2026-01-25 18:12:38.981822	343.8	10.4	-63.5	0.0
2026-01-25 18:12:41.235100	343.8	10.2	-67.1	0.0
2026-01-25 18:12:43.489350	343.8	10.0	-69.3	0.0
#Closed at: 2026-01-25 18:01:51.877510