passes_logs/2026/01/25/planumMaritime01/planumMaritime01__20260125_111104_METEOR-M2_4_rec.log

#Pass ID: 20260125_111104_METEOR-M2 4
#Satellite: METEOR-M2 4
#Configuration: METEOR-M2 4
#Start time: 2026-01-25 11:11:09.329891

#LorettStation: 1.0.0 05.05.2024
#Station: planumMaritime01
#Location: 37.49445 lon 55.92918 lat
#TLE: 1 59051U 24039A   26024.26280030  .00000113  00000+0  70284-4 0  9992
#TLE: 2 59051  98.6828 345.5183 0006251 220.2927 139.7788 14.22409431 98808

#Time	Az	El	Level	SNR
2026-01-25 11:11:11.499492	155.7	10.2	-81.1	0.0
2026-01-25 11:11:13.763686	155.7	10.4	-80.2	0.0
2026-01-25 11:11:16.028056	155.7	10.6	-79.5	0.0
2026-01-25 11:11:18.300990	155.7	10.8	-77.3	3.1
2026-01-25 11:11:20.571869	155.6	11.0	-77.4	6.7
2026-01-25 11:11:22.840079	155.6	11.2	-77.7	6.9
2026-01-25 11:11:25.109680	155.6	11.4	-77.4	6.0
2026-01-25 11:11:27.380640	155.6	11.6	-76.6	5.0
2026-01-25 11:11:29.648460	155.6	11.8	-77.2	7.3
2026-01-25 11:11:31.919353	155.5	12.1	-76.5	5.4
2026-01-25 11:11:34.186582	155.5	12.3	-77.0	5.5
2026-01-25 11:11:36.455988	155.5	12.5	-76.9	4.3
2026-01-25 11:11:38.723599	155.5	12.7	-77.2	7.4
2026-01-25 11:11:40.990372	155.4	12.9	-77.6	7.4
2026-01-25 11:11:43.259015	155.4	13.2	-77.3	7.0
2026-01-25 11:11:45.530395	155.4	13.4	-76.9	7.5
2026-01-25 11:11:47.808555	155.3	13.6	-77.2	5.6
2026-01-25 11:11:50.084005	155.3	13.9	-77.0	7.0
2026-01-25 11:11:52.360297	155.3	14.1	-77.0	5.9
2026-01-25 11:11:54.633121	155.3	14.3	-77.2	8.0
2026-01-25 11:11:56.906251	155.2	14.6	-77.5	8.0
2026-01-25 11:11:59.175347	155.2	14.8	-76.7	7.2
2026-01-25 11:12:01.445748	155.2	15.0	-77.4	8.5
2026-01-25 11:12:03.711590	155.1	15.3	-77.2	8.0
2026-01-25 11:12:05.977381	155.1	15.5	-76.8	7.5
2026-01-25 11:12:08.241116	155.1	15.8	-76.9	6.9
2026-01-25 11:12:10.517320	155.0	16.0	-76.9	4.5
2026-01-25 11:12:12.794084	155.0	16.3	-75.9	3.5
2026-01-25 11:12:15.069665	155.0	16.6	-77.4	6.4
2026-01-25 11:12:17.344609	154.9	16.8	-77.5	5.2
2026-01-25 11:12:19.620555	154.9	17.1	-77.5	6.5
2026-01-25 11:12:21.896650	154.9	17.4	-76.9	5.0
2026-01-25 11:12:24.169617	154.8	17.6	-77.0	8.5
2026-01-25 11:12:26.445685	154.8	17.9	-77.0	8.2
2026-01-25 11:12:28.723928	154.7	18.2	-77.0	6.3
2026-01-25 11:12:31.003735	154.7	18.5	-77.0	7.2
2026-01-25 11:12:33.280062	154.7	18.7	-76.4	4.9
2026-01-25 11:12:35.552620	154.6	19.0	-74.9	1.5
2026-01-25 11:12:37.827672	154.6	19.3	-75.2	8.1
2026-01-25 11:12:40.101070	154.5	19.6	-77.3	8.6
2026-01-25 11:12:42.376960	154.5	19.9	-73.3	1.4
2026-01-25 11:12:44.652915	154.4	20.2	-76.3	8.0
2026-01-25 11:12:46.931915	154.4	20.5	-77.3	9.0
2026-01-25 11:12:49.210338	154.4	20.8	-76.8	8.7
2026-01-25 11:12:51.483566	154.3	21.1	-76.6	9.3
2026-01-25 11:12:53.757706	154.3	21.4	-75.2	7.0
2026-01-25 11:12:56.032647	154.2	21.8	-76.7	9.5
2026-01-25 11:12:58.310333	154.1	22.1	-76.8	8.9
2026-01-25 11:13:00.588140	154.1	22.4	-76.4	7.7
2026-01-25 11:13:02.854855	154.0	22.7	-75.6	8.5
2026-01-25 11:13:05.121584	154.0	23.1	-75.9	7.4
2026-01-25 11:13:07.386242	153.9	23.4	-76.6	9.1
2026-01-25 11:13:09.652496	153.9	23.8	-76.9	8.9
2026-01-25 11:13:11.920939	153.8	24.1	-76.6	9.9
2026-01-25 11:13:14.188930	153.7	24.5	-76.9	6.9
2026-01-25 11:13:16.455031	153.7	24.8	-76.3	7.3
2026-01-25 11:13:18.720302	153.6	25.2	-77.0	9.7
2026-01-25 11:13:20.984522	153.5	25.5	-77.6	10.2
2026-01-25 11:13:23.254197	153.5	25.9	-77.1	9.8
2026-01-25 11:13:25.529007	153.4	26.3	-77.4	10.3
2026-01-25 11:13:27.807810	153.3	26.7	-77.4	10.9
2026-01-25 11:13:30.080631	153.3	27.1	-77.2	10.0
2026-01-25 11:13:32.357979	153.2	27.5	-77.4	10.7
2026-01-25 11:13:34.635240	153.1	27.9	-77.4	8.0
2026-01-25 11:13:36.913926	153.0	28.3	-77.4	9.3
2026-01-25 11:13:39.193568	152.9	28.7	-77.3	9.8
2026-01-25 11:13:41.466178	152.9	29.1	-77.7	8.8
2026-01-25 11:13:43.750457	152.8	29.5	-77.4	9.1
2026-01-25 11:13:46.028213	152.7	30.0	-77.7	10.2
2026-01-25 11:13:48.301326	152.6	30.4	-77.6	10.1
2026-01-25 11:13:50.575932	152.5	30.8	-78.1	10.7
2026-01-25 11:13:52.849370	152.4	31.3	-77.4	9.9
2026-01-25 11:13:55.122366	152.3	31.8	-77.1	9.2
2026-01-25 11:13:57.401081	152.2	32.2	-77.3	10.0
2026-01-25 11:13:59.671882	152.1	32.7	-77.5	11.0
2026-01-25 11:14:01.947453	152.0	33.2	-77.5	12.0
2026-01-25 11:14:04.217739	151.8	33.7	-77.4	10.3
2026-01-25 11:14:06.494026	151.7	34.2	-77.8	10.9
2026-01-25 11:14:08.768432	151.6	34.7	-77.9	11.6
2026-01-25 11:14:11.038314	151.5	35.2	-77.8	11.7
2026-01-25 11:14:13.313447	151.3	35.7	-78.1	11.5
2026-01-25 11:14:15.584732	151.2	36.2	-77.5	11.1
2026-01-25 11:14:17.857848	151.1	36.8	-77.4	10.9
2026-01-25 11:14:20.133496	150.9	37.3	-77.6	12.1
2026-01-25 11:14:22.407010	150.8	37.9	-77.4	12.1
2026-01-25 11:14:24.678105	150.6	38.4	-77.7	11.4
2026-01-25 11:14:26.949873	150.5	39.0	-77.7	11.4
2026-01-25 11:14:29.223403	150.3	39.6	-78.0	11.9
2026-01-25 11:14:31.499125	150.1	40.2	-77.9	11.4
2026-01-25 11:14:33.766459	149.9	40.8	-77.8	12.4
2026-01-25 11:14:36.031222	149.7	41.4	-78.2	11.3
2026-01-25 11:14:38.299423	149.6	42.0	-78.3	12.3
2026-01-25 11:14:40.576962	149.3	42.6	-78.2	10.5
2026-01-25 11:14:42.853149	149.1	43.3	-78.8	9.5
2026-01-25 11:14:45.130269	148.9	43.9	-78.4	10.6
2026-01-25 11:14:47.404894	148.7	44.6	-78.9	11.7
2026-01-25 11:14:49.679502	148.4	45.3	-78.6	10.7
2026-01-25 11:14:51.950653	148.2	46.0	-78.5	9.8
2026-01-25 11:14:54.223604	147.9	46.6	-78.6	10.9
2026-01-25 11:14:56.499352	147.6	47.4	-79.3	10.8
2026-01-25 11:14:58.775229	147.4	48.1	-79.2	10.6
2026-01-25 11:15:01.055072	147.1	48.8	-78.9	10.1
2026-01-25 11:15:03.323784	146.7	49.5	-78.5	8.3
2026-01-25 11:15:05.593068	146.4	50.3	-79.0	9.6
2026-01-25 11:15:07.859186	146.1	51.1	-79.2	9.7
2026-01-25 11:15:10.126744	145.7	51.8	-79.5	8.8
2026-01-25 11:15:12.398161	145.3	52.6	-79.7	8.9
2026-01-25 11:15:14.674678	144.9	53.4	-79.8	8.8
2026-01-25 11:15:16.936471	144.4	54.2	-80.0	9.4
2026-01-25 11:15:19.199471	144.0	55.0	-80.0	9.3
2026-01-25 11:15:21.466217	143.5	55.9	-79.4	7.3
2026-01-25 11:15:23.732239	143.0	56.7	-79.5	7.4
2026-01-25 11:15:25.996137	142.4	57.6	-80.1	8.1
2026-01-25 11:15:28.257687	141.8	58.4	-80.1	8.3
2026-01-25 11:15:30.516285	141.2	59.3	-79.9	7.1
2026-01-25 11:15:32.775587	140.5	60.1	-79.8	7.9
2026-01-25 11:15:35.034546	139.8	61.0	-79.3	6.0
2026-01-25 11:15:37.295055	139.0	61.9	-79.2	8.1
2026-01-25 11:15:39.563443	138.2	62.8	-78.9	6.8
2026-01-25 11:15:41.840605	137.3	63.7	-79.6	7.4
2026-01-25 11:15:44.116965	136.3	64.6	-79.2	6.2
2026-01-25 11:15:46.394375	135.3	65.6	-79.5	7.5
2026-01-25 11:15:48.668766	134.1	66.5	-78.7	7.3
2026-01-25 11:15:50.944436	132.9	67.4	-79.6	6.0
2026-01-25 11:15:53.220058	131.5	68.3	-79.8	7.6
2026-01-25 11:15:55.493545	130.0	69.2	-78.8	6.4
2026-01-25 11:15:57.770590	128.3	70.2	-79.4	7.3
2026-01-25 11:16:00.046058	126.5	71.1	-79.0	7.1
2026-01-25 11:16:02.322490	124.5	72.0	-77.5	4.7
2026-01-25 11:16:04.592618	122.2	72.8	-77.5	5.6
2026-01-25 11:16:06.865363	119.7	73.7	-77.2	7.8
2026-01-25 11:16:09.139972	116.9	74.5	-77.1	5.5
2026-01-25 11:16:11.405332	113.9	75.3	-77.2	6.4
2026-01-25 11:16:13.672919	110.4	76.0	-78.2	7.4
2026-01-25 11:16:15.949411	106.6	76.7	-77.0	4.3
2026-01-25 11:16:18.222539	102.3	77.4	-77.3	4.1
2026-01-25 11:16:20.498435	97.6	77.9	-77.3	3.3
2026-01-25 11:16:22.772404	92.5	78.4	-78.3	6.6
2026-01-25 11:16:25.045919	86.9	78.8	-76.9	6.3
2026-01-25 11:16:27.309343	81.1	79.1	-77.0	5.6
2026-01-25 11:16:29.565593	75.0	79.2	-77.5	8.0
2026-01-25 11:16:31.828547	68.8	79.2	-76.2	5.1
2026-01-25 11:16:34.103375	62.6	79.2	-76.6	4.7
2026-01-25 11:16:36.378430	56.6	78.9	-77.1	4.8
2026-01-25 11:16:38.655700	50.9	78.6	-77.2	6.9
2026-01-25 11:16:40.929796	45.6	78.2	-76.5	5.0
2026-01-25 11:16:43.200829	40.7	77.7	-76.5	4.4
2026-01-25 11:16:45.460303	36.2	77.1	-77.0	7.0
2026-01-25 11:16:47.721031	32.2	76.4	-76.5	3.6
2026-01-25 11:16:49.981632	28.6	75.7	-76.3	2.2
2026-01-25 11:16:52.246699	25.3	74.9	-77.1	4.3
2026-01-25 11:16:54.526774	22.4	74.1	-76.8	2.4
2026-01-25 11:16:56.799473	19.7	73.3	-77.0	5.0
2026-01-25 11:16:59.080894	17.4	72.4	-76.3	3.0
2026-01-25 11:17:01.354386	15.2	71.5	-75.1	2.6
2026-01-25 11:17:03.621578	13.3	70.6	-76.7	3.5
2026-01-25 11:17:05.886236	11.6	69.7	-75.2	2.1
2026-01-25 11:17:08.152561	10.0	68.8	-76.4	7.1
2026-01-25 11:17:10.419890	8.6	67.9	-76.1	3.6
2026-01-25 11:17:12.687252	7.2	67.0	-76.4	3.0
2026-01-25 11:17:14.954153	6.0	66.1	-76.2	2.1
2026-01-25 11:17:17.218412	4.9	65.2	-77.0	2.4
2026-01-25 11:17:19.490564	3.9	64.2	-77.3	2.4
2026-01-25 11:17:21.767310	3.0	63.3	-76.6	2.1
2026-01-25 11:17:24.043267	2.1	62.4	-77.6	4.9
2026-01-25 11:17:26.318140	1.3	61.5	-76.8	1.2
2026-01-25 11:17:28.590998	0.6	60.6	-77.4	1.8
2026-01-25 11:17:30.855874	359.9	59.8	-76.8	0.3
2026-01-25 11:17:33.121641	359.2	58.9	-78.6	3.0
2026-01-25 11:17:35.386687	358.6	58.0	-77.8	1.6
2026-01-25 11:17:37.650941	358.0	57.2	-78.3	3.1
2026-01-25 11:17:39.915788	357.5	56.3	-78.8	2.8
2026-01-25 11:17:42.179829	357.0	55.5	-78.4	3.1
2026-01-25 11:17:44.443016	356.5	54.7	-77.7	2.4
2026-01-25 11:17:46.707092	356.1	53.9	-78.0	0.7
2026-01-25 11:17:48.971987	355.6	53.1	-77.7	0.0
2026-01-25 11:17:51.245288	355.2	52.3	-77.2	1.2
2026-01-25 11:17:53.517899	354.9	51.5	-77.5	1.9
2026-01-25 11:17:55.792391	354.5	50.7	-76.4	0.4
2026-01-25 11:17:58.068019	354.2	50.0	-76.6	1.8
2026-01-25 11:18:00.343998	353.8	49.2	-76.1	2.6
2026-01-25 11:18:02.619830	353.5	48.5	-75.3	1.2
2026-01-25 11:18:04.893237	353.2	47.8	-75.5	0.0
2026-01-25 11:18:07.168139	352.9	47.1	-75.5	0.0
2026-01-25 11:18:09.436504	352.7	46.4	-75.7	0.7
2026-01-25 11:18:11.699394	352.4	45.7	-75.3	2.4
2026-01-25 11:18:13.966972	352.2	45.0	-75.1	1.3
2026-01-25 11:18:16.230212	351.9	44.4	-74.1	0.0
2026-01-25 11:18:18.498900	351.7	43.7	-73.8	0.0
2026-01-25 11:18:20.768068	351.5	43.1	-72.5	0.0
2026-01-25 11:18:23.035129	351.3	42.4	-72.2	0.0
2026-01-25 11:18:25.300037	351.1	41.8	-73.4	0.0
2026-01-25 11:18:27.569420	350.9	41.2	-73.9	0.0
2026-01-25 11:18:29.845806	350.7	40.6	-73.1	0.0
2026-01-25 11:18:32.120603	350.5	40.0	-73.0	0.0
2026-01-25 11:18:34.395899	350.4	39.4	-72.9	0.0
2026-01-25 11:18:36.664230	350.2	38.8	-73.4	0.0
2026-01-25 11:18:38.935064	350.1	38.3	-72.5	0.0
2026-01-25 11:18:41.199252	349.9	37.7	-72.7	0.0
2026-01-25 11:18:43.465628	349.8	37.2	-69.1	0.0
2026-01-25 11:18:45.728962	349.6	36.6	-71.3	0.0
2026-01-25 11:18:48.001622	349.5	36.1	-72.7	0.0
2026-01-25 11:18:50.279576	349.3	35.6	-71.6	0.0
2026-01-25 11:18:52.555792	349.2	35.0	-70.9	0.0
2026-01-25 11:18:54.828100	349.1	34.5	-70.7	0.0
2026-01-25 11:18:57.088280	349.0	34.0	-71.4	0.0
2026-01-25 11:18:59.347253	348.9	33.6	-69.1	0.0
2026-01-25 11:19:01.610077	348.7	33.1	-70.1	0.0
2026-01-25 11:19:03.873531	348.6	32.6	-71.7	0.0
2026-01-25 11:19:06.135992	348.5	32.1	-70.4	0.0
2026-01-25 11:19:08.414452	348.4	31.7	-70.4	0.0
2026-01-25 11:19:10.691441	348.3	31.2	-69.9	0.0
2026-01-25 11:19:12.976279	348.2	30.8	-71.1	0.0
2026-01-25 11:19:15.247859	348.1	30.3	-71.4	0.0
2026-01-25 11:19:17.520359	348.0	29.9	-69.9	0.0
2026-01-25 11:19:19.791309	348.0	29.5	-70.6	0.0
2026-01-25 11:19:22.062247	347.9	29.0	-70.8	0.0
2026-01-25 11:19:24.337357	347.8	28.6	-70.2	0.0
2026-01-25 11:19:26.604403	347.7	28.2	-70.1	0.0
2026-01-25 11:19:28.875206	347.6	27.8	-70.4	0.0
2026-01-25 11:19:31.148460	347.6	27.4	-70.9	0.0
2026-01-25 11:19:33.423064	347.5	27.0	-70.9	0.0
2026-01-25 11:19:35.700307	347.4	26.6	-68.7	0.0
2026-01-25 11:19:37.971738	347.3	26.3	-70.7	0.0
2026-01-25 11:19:40.247490	347.3	25.9	-70.8	0.0
2026-01-25 11:19:42.520467	347.2	25.5	-71.1	0.0
2026-01-25 11:19:44.788458	347.1	25.2	-71.4	0.0
2026-01-25 11:19:47.056116	347.1	24.8	-71.3	0.0
2026-01-25 11:19:49.319943	347.0	24.4	-69.7	0.0
2026-01-25 11:19:51.585110	347.0	24.1	-72.4	0.0
2026-01-25 11:19:53.849613	346.9	23.7	-70.7	0.0
2026-01-25 11:19:56.112863	346.8	23.4	-70.4	0.0
2026-01-25 11:19:58.377001	346.8	23.1	-71.3	0.0
2026-01-25 11:20:00.645651	346.7	22.7	-70.5	0.0
2026-01-25 11:20:02.915993	346.7	22.4	-71.1	0.0
2026-01-25 11:20:05.187916	346.6	22.1	-70.5	0.0
2026-01-25 11:20:07.454985	346.6	21.8	-70.7	0.0
2026-01-25 11:20:09.726832	346.5	21.5	-72.7	0.0
2026-01-25 11:20:12.000082	346.5	21.1	-71.4	0.0
2026-01-25 11:20:14.275564	346.4	20.8	-70.4	0.0
2026-01-25 11:20:16.547409	346.4	20.5	-70.5	0.0
2026-01-25 11:20:18.822055	346.3	20.2	-71.7	0.0
2026-01-25 11:20:21.095164	346.3	19.9	-68.7	0.0
2026-01-25 11:20:23.372753	346.2	19.6	-71.3	0.0
2026-01-25 11:20:25.645762	346.2	19.3	-72.0	0.0
2026-01-25 11:20:27.922607	346.2	19.1	-72.6	0.0
2026-01-25 11:20:30.195156	346.1	18.8	-70.8	0.0
2026-01-25 11:20:32.466080	346.1	18.5	-72.7	0.0
2026-01-25 11:20:34.740975	346.0	18.2	-70.7	0.0
2026-01-25 11:20:37.014766	346.0	17.9	-72.6	0.0
2026-01-25 11:20:39.290231	346.0	17.7	-71.8	0.0
2026-01-25 11:20:41.563090	345.9	17.4	-70.9	0.0
2026-01-25 11:20:43.838458	345.9	17.1	-72.3	0.0
2026-01-25 11:20:46.115082	345.9	16.9	-72.6	0.0
2026-01-25 11:20:48.390523	345.8	16.6	-72.4	0.0
2026-01-25 11:20:50.668092	345.8	16.4	-70.7	0.0
2026-01-25 11:20:52.940275	345.8	16.1	-71.3	0.0
2026-01-25 11:20:55.218969	345.7	15.8	-71.8	0.0
2026-01-25 11:20:57.495208	345.7	15.6	-71.2	0.0
2026-01-25 11:20:59.770515	345.7	15.3	-73.4	0.0
2026-01-25 11:21:02.043704	345.6	15.1	-70.6	0.0
2026-01-25 11:21:04.322465	345.6	14.9	-72.6	0.0
2026-01-25 11:21:06.598849	345.6	14.6	-70.8	0.0
2026-01-25 11:21:08.876073	345.6	14.4	-72.2	0.0
2026-01-25 11:21:11.153575	345.5	14.2	-70.9	0.0
2026-01-25 11:21:13.426404	345.5	13.9	-71.9	0.0
2026-01-25 11:21:15.700180	345.5	13.7	-71.8	0.0
2026-01-25 11:21:17.974920	345.5	13.5	-72.5	0.0
2026-01-25 11:21:20.240322	345.4	13.2	-73.0	0.0
2026-01-25 11:21:22.513791	345.4	13.0	-73.1	0.0
2026-01-25 11:21:24.790145	345.4	12.8	-72.6	0.0
2026-01-25 11:21:27.066171	345.4	12.6	-72.8	0.0
2026-01-25 11:21:29.337050	345.3	12.4	-73.1	0.0
2026-01-25 11:21:31.608003	345.3	12.1	-74.3	0.0
2026-01-25 11:21:33.879156	345.3	11.9	-73.9	0.0
2026-01-25 11:21:36.147890	345.3	11.7	-73.6	0.0
2026-01-25 11:21:38.416444	345.3	11.5	-74.5	0.0
2026-01-25 11:21:40.687056	345.2	11.3	-73.2	0.0
2026-01-25 11:21:42.962068	345.2	11.1	-73.4	0.0
2026-01-25 11:21:45.236578	345.2	10.9	-72.2	0.0
2026-01-25 11:21:47.497575	345.2	10.7	-70.8	0.0
2026-01-25 11:21:49.750978	345.2	10.5	-72.8	0.0
2026-01-25 11:21:52.007861	345.1	10.3	-72.4	0.0
#Closed at: 2026-01-25 11:11:04.336403