passes_logs/2026/01/25/planumMaritime01/planumMaritime01__20260125_012139_METEOR-M2_4_rec.log

#Pass ID: 20260125_012139_METEOR-M2 4
#Satellite: METEOR-M2 4
#Configuration: METEOR-M2 4
#Start time: 2026-01-25 01:21:44.350278

#LorettStation: 1.0.0 05.05.2024
#Station: planumMaritime01
#Location: 37.49445 lon 55.92918 lat
#TLE: 1 59051U 24039A   26024.26280030  .00000113  00000+0  70284-4 0  9992
#TLE: 2 59051  98.6828 345.5183 0006251 220.2927 139.7788 14.22409431 98808

#Time	Az	El	Level	SNR
2026-01-25 01:21:46.529957	13.4	10.2	-77.1	0.0
2026-01-25 01:21:48.802100	13.4	10.4	-75.0	0.0
2026-01-25 01:21:51.077646	13.3	10.6	-77.4	0.0
2026-01-25 01:21:53.352647	13.3	10.8	-73.8	0.0
2026-01-25 01:21:55.627084	13.3	11.0	-72.8	0.0
2026-01-25 01:21:57.897733	13.2	11.2	-72.3	0.0
2026-01-25 01:22:00.171052	13.2	11.4	-73.8	0.0
2026-01-25 01:22:02.450497	13.1	11.6	-73.9	0.0
2026-01-25 01:22:04.725956	13.1	11.8	-74.1	0.0
2026-01-25 01:22:07.001077	13.0	12.0	-72.9	0.0
2026-01-25 01:22:09.279251	13.0	12.2	-73.5	0.0
2026-01-25 01:22:11.540621	12.9	12.5	-73.4	0.0
2026-01-25 01:22:13.818465	12.9	12.7	-74.5	0.0
2026-01-25 01:22:16.092125	12.8	12.9	-72.3	0.0
2026-01-25 01:22:18.362360	12.8	13.1	-72.4	0.0
2026-01-25 01:22:20.628571	12.7	13.3	-72.3	0.0
2026-01-25 01:22:22.900100	12.7	13.6	-75.0	0.0
2026-01-25 01:22:25.166574	12.6	13.8	-74.1	0.0
2026-01-25 01:22:27.432657	12.5	14.0	-73.3	0.0
2026-01-25 01:22:29.701455	12.5	14.3	-73.7	0.0
2026-01-25 01:22:31.968747	12.4	14.5	-71.7	0.0
2026-01-25 01:22:34.236164	12.4	14.7	-72.2	0.0
2026-01-25 01:22:36.513136	12.3	15.0	-74.1	0.0
2026-01-25 01:22:38.784442	12.2	15.2	-73.6	0.0
2026-01-25 01:22:41.058879	12.2	15.5	-72.6	0.0
2026-01-25 01:22:43.331207	12.1	15.7	-74.7	0.0
2026-01-25 01:22:45.606018	12.0	15.9	-74.4	0.0
2026-01-25 01:22:47.878167	12.0	16.2	-74.6	0.0
2026-01-25 01:22:50.134808	11.9	16.5	-74.9	0.0
2026-01-25 01:22:52.389650	11.8	16.7	-74.4	0.0
2026-01-25 01:22:54.647483	11.8	17.0	-73.7	0.0
2026-01-25 01:22:56.903454	11.7	17.2	-73.0	0.0
2026-01-25 01:22:59.163483	11.6	17.5	-72.5	0.0
2026-01-25 01:23:01.418278	11.6	17.7	-72.7	0.0
2026-01-25 01:23:03.677901	11.5	18.0	-73.3	0.0
2026-01-25 01:23:05.935426	11.4	18.3	-72.7	0.0
2026-01-25 01:23:08.192265	11.3	18.6	-74.2	2.7
2026-01-25 01:23:10.447291	11.2	18.8	-73.6	0.0
2026-01-25 01:23:12.702709	11.2	19.1	-73.6	0.3
2026-01-25 01:23:14.956750	11.1	19.4	-73.9	1.1
2026-01-25 01:23:17.229760	11.0	19.7	-72.1	0.0
2026-01-25 01:23:19.500354	10.9	20.0	-74.1	0.2
2026-01-25 01:23:21.768952	10.8	20.3	-74.3	4.2
2026-01-25 01:23:24.037703	10.7	20.6	-75.0	3.3
2026-01-25 01:23:26.305838	10.6	20.9	-74.0	3.6
2026-01-25 01:23:28.562287	10.5	21.2	-74.3	3.6
2026-01-25 01:23:30.819477	10.4	21.5	-75.2	5.7
2026-01-25 01:23:33.078020	10.3	21.8	-73.9	4.7
2026-01-25 01:23:35.333141	10.2	22.1	-74.3	3.0
2026-01-25 01:23:37.590886	10.1	22.4	-73.7	2.7
2026-01-25 01:23:39.847026	10.0	22.8	-74.7	1.9
2026-01-25 01:23:42.101422	9.9	23.1	-74.0	2.1
2026-01-25 01:23:44.360594	9.8	23.4	-75.6	4.4
2026-01-25 01:23:46.617627	9.7	23.8	-75.2	4.3
2026-01-25 01:23:48.875078	9.6	24.1	-75.4	4.8
2026-01-25 01:23:51.133553	9.4	24.4	-75.5	5.4
2026-01-25 01:23:53.391294	9.3	24.8	-74.8	2.8
2026-01-25 01:23:55.651803	9.2	25.1	-74.5	4.8
2026-01-25 01:23:57.913719	9.1	25.5	-74.7	4.9
2026-01-25 01:24:00.171951	8.9	25.9	-75.2	4.6
2026-01-25 01:24:02.432382	8.8	26.2	-74.3	4.1
2026-01-25 01:24:04.700665	8.7	26.6	-75.3	4.2
2026-01-25 01:24:06.970220	8.5	27.0	-74.4	5.0
2026-01-25 01:24:09.238626	8.4	27.4	-75.4	4.8
2026-01-25 01:24:11.505850	8.2	27.8	-74.9	4.6
2026-01-25 01:24:13.778556	8.1	28.1	-76.1	6.8
2026-01-25 01:24:16.046496	7.9	28.5	-75.7	4.3
2026-01-25 01:24:18.318752	7.7	29.0	-75.2	6.2
2026-01-25 01:24:20.596431	7.6	29.4	-74.8	3.3
2026-01-25 01:24:22.871671	7.4	29.8	-75.7	5.5
2026-01-25 01:24:25.144828	7.2	30.2	-75.5	4.8
2026-01-25 01:24:27.422727	7.0	30.6	-75.5	2.9
2026-01-25 01:24:29.699414	6.9	31.1	-76.0	2.6
2026-01-25 01:24:31.976541	6.7	31.5	-74.8	4.3
2026-01-25 01:24:34.250536	6.5	32.0	-72.0	0.0
2026-01-25 01:24:36.524851	6.3	32.4	-75.4	5.4
2026-01-25 01:24:38.791015	6.1	32.9	-75.8	8.4
2026-01-25 01:24:41.063035	5.8	33.4	-74.8	7.1
2026-01-25 01:24:43.334927	5.6	33.8	-75.8	8.2
2026-01-25 01:24:45.606101	5.4	34.3	-75.8	8.3
2026-01-25 01:24:47.872389	5.1	34.8	-75.8	7.6
2026-01-25 01:24:50.145713	4.9	35.3	-75.6	6.9
2026-01-25 01:24:52.412129	4.6	35.8	-75.7	8.2
2026-01-25 01:24:54.683820	4.4	36.3	-75.8	6.6
2026-01-25 01:24:56.954447	4.1	36.8	-75.8	7.9
2026-01-25 01:24:59.233726	3.8	37.4	-76.2	9.0
2026-01-25 01:25:01.509239	3.6	37.9	-76.5	9.6
2026-01-25 01:25:03.783528	3.3	38.5	-76.3	7.9
2026-01-25 01:25:06.061556	2.9	39.0	-76.6	10.0
2026-01-25 01:25:08.338681	2.6	39.6	-77.2	10.4
2026-01-25 01:25:10.594520	2.3	40.1	-77.2	9.9
2026-01-25 01:25:12.853388	2.0	40.7	-77.4	10.1
2026-01-25 01:25:15.109269	1.6	41.3	-76.9	8.6
2026-01-25 01:25:17.364476	1.2	41.9	-77.6	11.1
2026-01-25 01:25:19.619887	0.9	42.5	-77.6	10.6
2026-01-25 01:25:21.877633	0.5	43.1	-77.3	8.9
2026-01-25 01:25:24.138676	0.0	43.7	-77.5	8.5
2026-01-25 01:25:26.396688	359.6	44.3	-77.4	10.6
2026-01-25 01:25:28.660644	359.2	44.9	-78.5	10.6
2026-01-25 01:25:30.917840	358.7	45.6	-78.8	11.5
2026-01-25 01:25:33.184940	358.2	46.2	-78.8	11.2
2026-01-25 01:25:35.460139	357.7	46.9	-78.1	8.6
2026-01-25 01:25:37.734143	357.2	47.5	-79.2	9.7
2026-01-25 01:25:40.009613	356.6	48.2	-79.4	9.6
2026-01-25 01:25:42.282718	356.0	48.9	-79.8	10.0
2026-01-25 01:25:44.559123	355.4	49.6	-79.9	7.9
2026-01-25 01:25:46.839470	354.8	50.3	-79.9	9.2
2026-01-25 01:25:49.110659	354.1	51.0	-79.1	7.2
2026-01-25 01:25:51.386656	353.4	51.7	-80.3	8.9
2026-01-25 01:25:53.660116	352.7	52.4	-80.4	8.7
2026-01-25 01:25:55.938052	351.9	53.1	-80.1	10.4
2026-01-25 01:25:58.213375	351.1	53.9	-79.7	9.2
2026-01-25 01:26:00.487804	350.3	54.6	-80.0	9.5
2026-01-25 01:26:02.761440	349.4	55.3	-80.4	9.7
2026-01-25 01:26:05.031924	348.4	56.1	-79.5	8.4
2026-01-25 01:26:07.304290	347.4	56.8	-79.7	6.7
2026-01-25 01:26:09.574994	346.4	57.5	-79.1	4.8
2026-01-25 01:26:11.843431	345.3	58.3	-79.9	9.0
2026-01-25 01:26:14.113873	344.1	59.0	-80.6	7.8
2026-01-25 01:26:16.382497	342.9	59.7	-79.7	5.7
2026-01-25 01:26:18.647854	341.6	60.5	-80.2	6.3
2026-01-25 01:26:20.914091	340.2	61.2	-80.0	7.0
2026-01-25 01:26:23.179585	338.7	61.9	-80.4	8.7
2026-01-25 01:26:25.444928	337.1	62.6	-80.2	8.9
2026-01-25 01:26:27.713231	335.5	63.3	-79.8	9.5
2026-01-25 01:26:29.977588	333.7	64.0	-79.6	8.4
2026-01-25 01:26:32.240821	331.9	64.6	-80.2	9.2
2026-01-25 01:26:34.509166	329.9	65.3	-78.8	7.8
2026-01-25 01:26:36.778128	327.8	65.9	-79.3	9.0
2026-01-25 01:26:39.044527	325.6	66.5	-80.1	10.4
2026-01-25 01:26:41.319157	323.3	67.1	-80.3	8.9
2026-01-25 01:26:43.596756	320.8	67.6	-79.8	7.3
2026-01-25 01:26:45.873291	318.2	68.1	-79.8	9.3
2026-01-25 01:26:48.150662	315.5	68.6	-79.9	10.4
2026-01-25 01:26:50.427937	312.7	69.0	-79.7	11.8
2026-01-25 01:26:52.695613	309.7	69.3	-79.2	11.6
2026-01-25 01:26:54.960599	306.7	69.6	-80.0	11.4
2026-01-25 01:26:57.222517	303.5	69.9	-80.4	9.0
2026-01-25 01:26:59.487868	300.3	70.1	-80.6	8.5
2026-01-25 01:27:01.749164	297.1	70.2	-80.3	7.6
2026-01-25 01:27:04.014453	293.8	70.3	-80.5	9.8
2026-01-25 01:27:06.278567	290.4	70.3	-80.1	12.2
2026-01-25 01:27:08.545921	287.1	70.3	-79.9	10.8
2026-01-25 01:27:10.811881	283.8	70.1	-80.2	12.2
2026-01-25 01:27:13.078191	280.6	70.0	-80.3	12.2
2026-01-25 01:27:15.340562	277.4	69.7	-80.7	11.7
2026-01-25 01:27:17.600216	274.3	69.5	-80.8	10.9
2026-01-25 01:27:19.858672	271.3	69.1	-81.5	10.5
2026-01-25 01:27:22.116680	268.5	68.7	-81.5	11.4
2026-01-25 01:27:24.376444	265.7	68.3	-81.4	10.8
2026-01-25 01:27:26.633532	263.1	67.8	-81.3	12.0
2026-01-25 01:27:28.890903	260.6	67.3	-81.1	12.6
2026-01-25 01:27:31.148998	258.2	66.8	-81.1	11.1
2026-01-25 01:27:33.409158	255.9	66.2	-81.4	12.0
2026-01-25 01:27:35.664491	253.8	65.6	-81.6	11.5
2026-01-25 01:27:37.925331	251.8	65.0	-81.8	10.8
2026-01-25 01:27:40.189610	249.9	64.3	-81.8	11.1
2026-01-25 01:27:42.453103	248.1	63.6	-81.8	9.8
2026-01-25 01:27:44.713592	246.4	62.9	-82.0	11.2
2026-01-25 01:27:46.975453	244.7	62.2	-81.7	11.0
2026-01-25 01:27:49.239467	243.2	61.5	-81.7	11.8
2026-01-25 01:27:51.500836	241.8	60.8	-81.3	12.0
2026-01-25 01:27:53.764728	240.4	60.1	-81.5	11.6
2026-01-25 01:27:56.030155	239.2	59.4	-81.6	11.1
2026-01-25 01:27:58.290122	238.0	58.6	-81.7	10.0
2026-01-25 01:28:00.548358	236.8	57.9	-81.0	10.1
2026-01-25 01:28:02.813645	235.7	57.1	-81.3	11.4
2026-01-25 01:28:05.082302	234.7	56.4	-81.1	10.2
2026-01-25 01:28:07.349747	233.8	55.7	-81.2	11.0
2026-01-25 01:28:09.619601	232.8	54.9	-81.2	12.3
2026-01-25 01:28:11.894998	232.0	54.2	-80.9	12.7
2026-01-25 01:28:14.177538	231.1	53.5	-81.1	11.2
2026-01-25 01:28:16.454157	230.3	52.7	-80.8	10.4
2026-01-25 01:28:18.729624	229.6	52.0	-81.0	11.9
2026-01-25 01:28:21.002990	228.9	51.3	-81.0	11.4
2026-01-25 01:28:23.275411	228.2	50.6	-81.1	11.1
2026-01-25 01:28:25.551583	227.5	49.9	-81.4	11.5
2026-01-25 01:28:27.827731	226.9	49.2	-81.4	11.5
2026-01-25 01:28:30.098388	226.3	48.5	-81.9	10.1
2026-01-25 01:28:32.370445	225.7	47.8	-81.6	11.0
2026-01-25 01:28:34.636082	225.2	47.1	-81.5	11.7
2026-01-25 01:28:36.900743	224.7	46.5	-81.3	11.4
2026-01-25 01:28:39.172615	224.2	45.8	-81.2	10.9
2026-01-25 01:28:41.441037	223.7	45.2	-81.1	12.1
2026-01-25 01:28:43.707300	223.2	44.5	-80.9	12.9
2026-01-25 01:28:45.974732	222.8	43.9	-80.3	13.2
2026-01-25 01:28:48.239785	222.4	43.3	-80.3	13.4
2026-01-25 01:28:50.511720	222.0	42.7	-80.3	13.5
2026-01-25 01:28:52.774129	221.6	42.1	-80.4	13.2
2026-01-25 01:28:55.038469	221.2	41.5	-80.2	13.4
2026-01-25 01:28:57.299399	220.8	40.9	-80.3	13.8
2026-01-25 01:28:59.568452	220.5	40.3	-80.5	13.7
2026-01-25 01:29:01.834839	220.1	39.7	-80.1	13.6
2026-01-25 01:29:04.100329	219.8	39.2	-79.5	14.2
2026-01-25 01:29:06.370137	219.5	38.6	-79.6	14.0
2026-01-25 01:29:08.637605	219.2	38.0	-79.8	14.1
2026-01-25 01:29:10.906814	218.9	37.5	-79.7	13.9
2026-01-25 01:29:13.175551	218.6	37.0	-79.5	14.2
2026-01-25 01:29:15.446173	218.4	36.4	-79.4	14.5
2026-01-25 01:29:17.715313	218.1	35.9	-79.5	13.1
2026-01-25 01:29:19.985414	217.8	35.4	-79.7	14.3
2026-01-25 01:29:22.258832	217.6	34.9	-79.4	13.9
2026-01-25 01:29:24.527874	217.3	34.4	-79.3	14.5
2026-01-25 01:29:26.794733	217.1	33.9	-79.6	13.7
2026-01-25 01:29:29.062471	216.9	33.4	-79.2	14.6
2026-01-25 01:29:31.329021	216.7	33.0	-79.4	12.7
2026-01-25 01:29:33.599808	216.4	32.5	-79.7	13.8
2026-01-25 01:29:35.866662	216.2	32.0	-79.3	13.3
2026-01-25 01:29:38.136865	216.0	31.6	-79.4	10.0
2026-01-25 01:29:40.404649	215.8	31.1	-79.1	11.8
2026-01-25 01:29:42.672097	215.6	30.7	-79.3	11.7
2026-01-25 01:29:44.945289	215.5	30.3	-79.4	10.7
2026-01-25 01:29:47.204049	215.3	29.8	-79.1	13.1
2026-01-25 01:29:49.460543	215.1	29.4	-79.7	12.6
2026-01-25 01:29:51.722218	214.9	29.0	-78.9	13.1
2026-01-25 01:29:53.978358	214.8	28.6	-79.3	10.8
2026-01-25 01:29:56.237142	214.6	28.2	-79.1	10.0
2026-01-25 01:29:58.496038	214.5	27.8	-79.3	11.0
2026-01-25 01:30:00.753216	214.3	27.4	-79.1	10.8
2026-01-25 01:30:03.013609	214.1	27.0	-79.1	11.7
2026-01-25 01:30:05.271303	214.0	26.6	-78.9	12.1
2026-01-25 01:30:07.529828	213.9	26.2	-78.9	11.6
2026-01-25 01:30:09.793014	213.7	25.9	-79.1	8.3
2026-01-25 01:30:12.067608	213.6	25.5	-78.9	8.2
2026-01-25 01:30:14.343432	213.5	25.1	-79.1	10.4
2026-01-25 01:30:16.618398	213.3	24.8	-79.3	7.0
2026-01-25 01:30:18.890613	213.2	24.4	-79.3	6.4
2026-01-25 01:30:21.164347	213.1	24.1	-79.2	8.2
2026-01-25 01:30:23.438650	213.0	23.7	-78.9	8.8
2026-01-25 01:30:25.711007	212.8	23.4	-79.4	7.5
2026-01-25 01:30:27.991732	212.7	23.1	-79.1	5.7
2026-01-25 01:30:30.265367	212.6	22.7	-79.2	8.1
2026-01-25 01:30:32.544624	212.5	22.4	-79.5	7.5
2026-01-25 01:30:34.817813	212.4	22.1	-78.7	8.7
2026-01-25 01:30:37.088993	212.3	21.7	-79.6	8.7
2026-01-25 01:30:39.362219	212.2	21.4	-79.1	3.2
2026-01-25 01:30:41.633701	212.1	21.1	-79.3	6.7
2026-01-25 01:30:43.900562	212.0	20.8	-79.0	8.5
2026-01-25 01:30:46.167430	211.9	20.5	-78.8	6.4
2026-01-25 01:30:48.437920	211.8	20.2	-78.9	8.4
2026-01-25 01:30:50.705987	211.7	19.9	-79.3	10.9
2026-01-25 01:30:52.972631	211.6	19.6	-79.6	5.2
2026-01-25 01:30:55.240922	211.5	19.3	-79.0	5.1
2026-01-25 01:30:57.503780	211.4	19.0	-79.3	7.2
2026-01-25 01:30:59.759804	211.3	18.7	-79.3	11.4
2026-01-25 01:31:02.016502	211.3	18.5	-79.3	6.3
2026-01-25 01:31:04.272581	211.2	18.2	-78.9	5.1
2026-01-25 01:31:06.531345	211.1	17.9	-79.4	3.1
2026-01-25 01:31:08.786731	211.0	17.6	-79.3	8.8
2026-01-25 01:31:11.044423	210.9	17.4	-79.5	6.5
2026-01-25 01:31:13.302517	210.9	17.1	-78.3	4.6
2026-01-25 01:31:15.558730	210.8	16.9	-79.3	3.2
2026-01-25 01:31:17.816728	210.7	16.6	-79.4	6.7
2026-01-25 01:31:20.071099	210.6	16.3	-80.1	3.0
2026-01-25 01:31:22.324694	210.6	16.1	-79.4	3.8
2026-01-25 01:31:24.581650	210.5	15.8	-79.6	8.9
2026-01-25 01:31:26.838604	210.4	15.6	-79.4	8.2
2026-01-25 01:31:29.097331	210.4	15.3	-79.5	4.4
2026-01-25 01:31:31.351446	210.3	15.1	-78.6	3.7
2026-01-25 01:31:33.608679	210.2	14.9	-79.8	9.7
2026-01-25 01:31:35.864039	210.2	14.6	-79.2	4.4
2026-01-25 01:31:38.124977	210.1	14.4	-79.3	5.4
2026-01-25 01:31:40.395553	210.1	14.1	-78.7	2.3
2026-01-25 01:31:42.660983	210.0	13.9	-79.4	2.7
2026-01-25 01:31:44.918161	209.9	13.7	-80.3	4.8
2026-01-25 01:31:47.176968	209.9	13.4	-79.0	2.4
2026-01-25 01:31:49.432545	209.8	13.2	-78.9	7.1
2026-01-25 01:31:51.693711	209.8	13.0	-79.2	7.3
2026-01-25 01:31:53.949202	209.7	12.8	-80.2	6.2
2026-01-25 01:31:56.207691	209.7	12.6	-80.3	7.3
2026-01-25 01:31:58.463485	209.6	12.3	-78.8	2.5
2026-01-25 01:32:00.721824	209.6	12.1	-78.7	5.1
2026-01-25 01:32:02.976020	209.5	11.9	-78.1	3.9
2026-01-25 01:32:05.230625	209.4	11.7	-78.3	0.1
2026-01-25 01:32:07.488617	209.4	11.5	-79.7	3.7
2026-01-25 01:32:09.747891	209.3	11.3	-79.4	0.6
2026-01-25 01:32:12.008463	209.3	11.1	-79.7	9.8
2026-01-25 01:32:14.266102	209.3	10.9	-79.1	6.4
2026-01-25 01:32:16.524023	209.2	10.7	-82.2	5.8
2026-01-25 01:32:18.794608	209.2	10.5	-85.7	0.0
2026-01-25 01:32:21.062435	209.1	10.3	-85.3	0.3
#Closed at: 2026-01-25 01:21:39.357583