passes_logs/2026/01/25/planumMaritime01/planumMaritime01__20260125_172400_METOP-B_rec.log

#Pass ID: 20260125_172400_METOP-B
#Satellite: METOP-B
#Configuration: METOP-B
#Start time: 2026-01-25 17:24:05.638954

#LorettStation: 1.0.0 05.05.2024
#Station: planumMaritime01
#Location: 37.49445 lon 55.92918 lat
#TLE: 1 38771U 12049A   26025.22488633  .00000217  00000+0  11914-3 0  9991
#TLE: 2 38771  98.6733  79.4332 0002986  55.8942 304.2519 14.21428262692957

#Time	Az	El	Level	SNR
2026-01-25 17:24:07.815153	156.3	10.2	-77.8	0.0
2026-01-25 17:24:10.071287	156.3	10.4	-74.5	0.0
2026-01-25 17:24:12.324666	156.3	10.6	-73.9	0.0
2026-01-25 17:24:14.579182	156.3	10.8	-73.3	0.0
2026-01-25 17:24:16.832591	156.3	11.0	-72.7	0.0
2026-01-25 17:24:19.087370	156.2	11.2	-72.7	0.0
2026-01-25 17:24:21.340309	156.2	11.4	-72.7	0.0
2026-01-25 17:24:23.594389	156.2	11.6	-71.9	0.0
2026-01-25 17:24:25.848923	156.2	11.8	-72.5	0.0
2026-01-25 17:24:28.104714	156.2	12.1	-72.3	0.0
2026-01-25 17:24:30.358524	156.1	12.3	-72.7	0.0
2026-01-25 17:24:32.612681	156.1	12.5	-71.9	0.0
2026-01-25 17:24:34.866390	156.1	12.7	-72.7	0.0
2026-01-25 17:24:37.122824	156.1	12.9	-72.5	0.0
2026-01-25 17:24:39.376034	156.1	13.2	-71.5	0.0
2026-01-25 17:24:41.634129	156.0	13.4	-72.7	0.0
2026-01-25 17:24:43.887101	156.0	13.6	-73.0	0.0
2026-01-25 17:24:46.139342	156.0	13.8	-72.0	0.0
2026-01-25 17:24:48.396265	156.0	14.1	-71.9	0.0
2026-01-25 17:24:50.648650	155.9	14.3	-71.6	0.0
2026-01-25 17:24:52.900898	155.9	14.5	-72.7	0.0
2026-01-25 17:24:55.159114	155.9	14.8	-72.4	0.0
2026-01-25 17:24:57.411816	155.9	15.0	-73.5	0.0
2026-01-25 17:24:59.668205	155.8	15.3	-72.1	0.0
2026-01-25 17:25:01.922070	155.8	15.5	-73.4	0.0
2026-01-25 17:25:04.175348	155.8	15.8	-73.3	0.0
2026-01-25 17:25:06.427822	155.7	16.0	-71.1	0.0
2026-01-25 17:25:08.678204	155.7	16.3	-73.0	0.0
2026-01-25 17:25:10.932677	155.7	16.5	-73.0	0.0
2026-01-25 17:25:13.185966	155.7	16.8	-72.9	0.0
2026-01-25 17:25:15.439150	155.6	17.0	-74.0	0.0
2026-01-25 17:25:17.689498	155.6	17.3	-72.6	0.0
2026-01-25 17:25:19.942294	155.6	17.6	-73.2	0.0
2026-01-25 17:25:22.197470	155.5	17.9	-71.8	0.0
2026-01-25 17:25:24.449824	155.5	18.1	-73.3	0.0
2026-01-25 17:25:26.703115	155.5	18.4	-73.6	0.0
2026-01-25 17:25:28.953885	155.4	18.7	-72.8	0.5
2026-01-25 17:25:31.207152	155.4	19.0	-72.1	0.0
2026-01-25 17:25:33.460542	155.3	19.3	-72.6	2.2
2026-01-25 17:25:35.714052	155.3	19.5	-69.7	0.0
2026-01-25 17:25:37.966835	155.3	19.8	-73.6	2.6
2026-01-25 17:25:40.220086	155.2	20.1	-73.9	1.7
2026-01-25 17:25:42.472852	155.2	20.4	-71.5	0.0
2026-01-25 17:25:44.725953	155.1	20.7	-74.0	0.1
2026-01-25 17:25:46.979128	155.1	21.1	-73.8	2.9
2026-01-25 17:25:49.232394	155.1	21.4	-73.9	2.5
2026-01-25 17:25:51.484046	155.0	21.7	-73.1	3.5
2026-01-25 17:25:53.737002	155.0	22.0	-73.1	3.1
2026-01-25 17:25:55.988788	154.9	22.3	-73.8	4.5
2026-01-25 17:25:58.241135	154.9	22.7	-73.4	3.9
2026-01-25 17:26:00.495315	154.8	23.0	-73.3	3.2
2026-01-25 17:26:02.747867	154.8	23.3	-73.6	3.5
2026-01-25 17:26:04.999909	154.7	23.7	-74.0	4.0
2026-01-25 17:26:07.253547	154.7	24.0	-73.6	3.2
2026-01-25 17:26:09.505292	154.6	24.4	-73.2	0.9
2026-01-25 17:26:11.755184	154.6	24.7	-72.4	4.1
2026-01-25 17:26:14.005861	154.5	25.1	-74.0	4.7
2026-01-25 17:26:16.260032	154.4	25.4	-73.6	4.3
2026-01-25 17:26:18.517532	154.4	25.8	-73.8	4.2
2026-01-25 17:26:20.767853	154.3	26.2	-73.8	5.7
2026-01-25 17:26:23.021984	154.3	26.6	-73.9	4.3
2026-01-25 17:26:25.270776	154.2	27.0	-73.1	3.8
2026-01-25 17:26:27.523968	154.1	27.3	-73.2	5.3
2026-01-25 17:26:29.777172	154.1	27.7	-73.6	5.7
2026-01-25 17:26:32.030521	154.0	28.1	-72.9	2.3
2026-01-25 17:26:34.280707	153.9	28.6	-74.0	4.8
2026-01-25 17:26:36.534653	153.8	29.0	-73.8	4.8
2026-01-25 17:26:38.784436	153.8	29.4	-74.0	4.4
2026-01-25 17:26:41.037217	153.7	29.8	-73.8	4.6
2026-01-25 17:26:43.294609	153.6	30.3	-73.8	3.1
2026-01-25 17:26:45.547097	153.5	30.7	-73.7	4.0
2026-01-25 17:26:47.800123	153.4	31.1	-73.9	5.8
2026-01-25 17:26:50.052011	153.3	31.6	-73.8	5.4
2026-01-25 17:26:52.302553	153.2	32.1	-74.0	6.4
2026-01-25 17:26:54.552806	153.1	32.5	-73.5	4.9
2026-01-25 17:26:56.804795	153.1	33.0	-73.8	5.2
2026-01-25 17:26:59.054996	153.0	33.5	-73.4	5.3
2026-01-25 17:27:01.307054	152.8	34.0	-73.1	3.6
2026-01-25 17:27:03.560214	152.7	34.5	-73.3	4.9
2026-01-25 17:27:05.813016	152.6	35.0	-73.6	7.0
2026-01-25 17:27:08.066498	152.5	35.5	-73.0	6.1
2026-01-25 17:27:10.318837	152.4	36.0	-73.6	7.6
2026-01-25 17:27:12.573879	152.3	36.5	-73.2	5.6
2026-01-25 17:27:14.825818	152.1	37.1	-73.4	5.0
2026-01-25 17:27:17.075443	152.0	37.6	-73.1	3.7
2026-01-25 17:27:19.328111	151.9	38.2	-72.0	0.5
2026-01-25 17:27:21.578906	151.7	38.8	-74.0	5.5
2026-01-25 17:27:23.830560	151.6	39.3	-73.7	3.9
2026-01-25 17:27:26.080036	151.4	39.9	-73.8	7.6
2026-01-25 17:27:28.332004	151.3	40.5	-73.2	5.6
2026-01-25 17:27:30.585990	151.1	41.1	-72.8	4.8
2026-01-25 17:27:32.839650	150.9	41.7	-72.5	7.0
2026-01-25 17:27:35.090245	150.8	42.4	-72.6	6.8
2026-01-25 17:27:37.342287	150.6	43.0	-73.0	6.8
2026-01-25 17:27:39.594073	150.4	43.7	-73.0	7.9
2026-01-25 17:27:41.845588	150.2	44.3	-73.1	7.7
2026-01-25 17:27:44.099238	150.0	45.0	-73.0	6.7
2026-01-25 17:27:46.348940	149.8	45.7	-73.2	6.6
2026-01-25 17:27:48.598247	149.5	46.4	-73.4	6.4
2026-01-25 17:27:50.847837	149.3	47.1	-73.4	5.8
2026-01-25 17:27:53.104270	149.0	47.8	-73.7	6.3
2026-01-25 17:27:55.354705	148.8	48.5	-73.7	7.8
2026-01-25 17:27:57.605318	148.5	49.2	-73.6	6.0
2026-01-25 17:27:59.862792	148.2	50.0	-73.0	6.4
2026-01-25 17:28:02.115611	147.9	50.7	-74.0	7.3
2026-01-25 17:28:04.367396	147.6	51.5	-73.5	6.7
2026-01-25 17:28:06.622101	147.2	52.3	-73.1	6.0
2026-01-25 17:28:08.873983	146.9	53.1	-73.1	7.9
2026-01-25 17:28:11.125184	146.5	53.9	-73.2	5.6
2026-01-25 17:28:13.378527	146.1	54.7	-73.1	6.6
2026-01-25 17:28:15.627013	145.7	55.5	-73.2	6.0
2026-01-25 17:28:17.878115	145.2	56.4	-73.7	7.2
2026-01-25 17:28:20.131474	144.7	57.2	-73.3	5.9
2026-01-25 17:28:22.381676	144.2	58.1	-73.2	5.2
2026-01-25 17:28:24.633704	143.7	59.0	-72.4	3.4
2026-01-25 17:28:26.883652	143.1	59.8	-73.1	5.7
2026-01-25 17:28:29.134116	142.5	60.7	-73.5	5.5
2026-01-25 17:28:31.388774	141.8	61.6	-73.8	6.5
2026-01-25 17:28:33.641906	141.0	62.5	-73.7	5.8
2026-01-25 17:28:35.896207	140.3	63.5	-73.2	5.3
2026-01-25 17:28:38.151478	139.4	64.4	-73.5	6.2
2026-01-25 17:28:40.405224	138.5	65.3	-73.1	6.6
2026-01-25 17:28:42.656323	137.5	66.3	-72.6	5.1
2026-01-25 17:28:44.908754	136.4	67.2	-72.2	4.3
2026-01-25 17:28:47.163834	135.2	68.1	-72.6	3.2
2026-01-25 17:28:49.413389	133.9	69.1	-72.7	4.4
2026-01-25 17:28:51.669791	132.4	70.0	-72.2	0.0
2026-01-25 17:28:53.923170	130.8	71.0	-73.1	1.1
2026-01-25 17:28:56.171864	129.0	71.9	-72.7	1.8
2026-01-25 17:28:58.423862	127.0	72.8	-71.9	0.3
2026-01-25 17:29:00.677773	124.8	73.7	-71.5	0.0
2026-01-25 17:29:02.935862	122.3	74.6	-73.1	1.8
2026-01-25 17:29:05.189720	119.5	75.4	-73.1	1.7
2026-01-25 17:29:07.444653	116.4	76.3	-73.4	0.3
2026-01-25 17:29:09.697166	112.8	77.0	-73.1	2.4
2026-01-25 17:29:11.954241	108.7	77.8	-71.9	0.0
2026-01-25 17:29:14.207434	104.2	78.4	-72.0	0.0
2026-01-25 17:29:16.463522	99.2	79.0	-71.9	0.0
2026-01-25 17:29:18.715136	93.6	79.5	-71.3	0.0
2026-01-25 17:29:20.968085	87.4	79.9	-71.9	0.0
2026-01-25 17:29:23.222604	80.9	80.2	-72.9	2.8
2026-01-25 17:29:25.474444	74.1	80.3	-72.0	2.0
2026-01-25 17:29:27.727060	67.2	80.3	-70.0	0.0
2026-01-25 17:29:29.982445	60.4	80.2	-71.2	0.0
2026-01-25 17:29:32.236485	53.8	79.9	-72.4	3.8
2026-01-25 17:29:34.488055	47.7	79.5	-71.4	0.0
2026-01-25 17:29:36.741563	42.1	79.0	-71.2	0.0
2026-01-25 17:29:38.995252	37.0	78.5	-70.2	0.0
2026-01-25 17:29:41.249181	32.5	77.8	-71.3	0.0
2026-01-25 17:29:43.500700	28.5	77.1	-71.4	0.0
2026-01-25 17:29:45.754996	24.9	76.3	-72.0	0.0
2026-01-25 17:29:48.005283	21.7	75.5	-73.1	0.0
2026-01-25 17:29:50.257268	18.9	74.6	-71.8	0.0
2026-01-25 17:29:52.507376	16.4	73.7	-71.3	0.0
2026-01-25 17:29:54.761565	14.2	72.8	-72.0	0.0
2026-01-25 17:29:57.013642	12.2	71.9	-72.3	0.0
2026-01-25 17:29:59.270811	10.4	71.0	-72.5	0.0
2026-01-25 17:30:01.523136	8.8	70.1	-72.8	0.0
2026-01-25 17:30:03.775953	7.3	69.1	-72.2	0.0
2026-01-25 17:30:06.028954	6.0	68.2	-71.6	0.0
2026-01-25 17:30:08.284306	4.8	67.2	-70.9	0.0
2026-01-25 17:30:10.539073	3.7	66.3	-71.5	3.1
2026-01-25 17:30:12.793914	2.7	65.4	-72.5	3.7
2026-01-25 17:30:15.048554	1.8	64.4	-71.2	2.0
2026-01-25 17:30:17.300022	0.9	63.5	-71.3	2.3
2026-01-25 17:30:19.552757	0.1	62.6	-72.5	5.1
2026-01-25 17:30:21.806470	359.4	61.7	-71.4	2.7
2026-01-25 17:30:24.061007	358.7	60.8	-70.2	0.0
2026-01-25 17:30:26.312909	358.1	59.9	-70.4	0.0
2026-01-25 17:30:28.565693	357.5	59.0	-71.3	1.8
2026-01-25 17:30:30.818898	357.0	58.2	-71.5	0.6
2026-01-25 17:30:33.070338	356.5	57.3	-71.8	0.0
2026-01-25 17:30:35.326232	356.0	56.5	-71.2	0.0
2026-01-25 17:30:37.582763	355.5	55.6	-70.2	0.0
2026-01-25 17:30:39.838184	355.1	54.8	-67.9	0.0
2026-01-25 17:30:42.091056	354.7	54.0	-68.2	0.0
2026-01-25 17:30:44.343424	354.3	53.2	-71.7	0.0
2026-01-25 17:30:46.599855	354.0	52.4	-67.9	0.0
2026-01-25 17:30:48.856176	353.6	51.6	-68.2	0.0
2026-01-25 17:30:51.108079	353.3	50.8	-69.6	0.0
2026-01-25 17:30:53.359255	353.0	50.1	-68.3	0.0
2026-01-25 17:30:55.614326	352.7	49.3	-68.2	0.0
2026-01-25 17:30:57.866001	352.4	48.6	-67.3	0.0
2026-01-25 17:31:00.119045	352.2	47.9	-66.7	0.0
2026-01-25 17:31:02.374092	351.9	47.1	-67.2	0.0
2026-01-25 17:31:04.626072	351.7	46.4	-67.0	0.0
2026-01-25 17:31:06.879302	351.4	45.8	-66.1	0.0
2026-01-25 17:31:09.129061	351.2	45.1	-66.8	0.0
2026-01-25 17:31:11.384880	351.0	44.4	-67.6	0.0
2026-01-25 17:31:13.639443	350.8	43.8	-66.9	0.0
2026-01-25 17:31:15.895374	350.6	43.1	-67.9	0.0
2026-01-25 17:31:18.150187	350.4	42.5	-67.6	0.0
2026-01-25 17:31:20.403240	350.2	41.9	-67.3	0.0
2026-01-25 17:31:22.657929	350.1	41.2	-62.5	0.0
2026-01-25 17:31:24.912293	349.9	40.6	-64.0	0.0
2026-01-25 17:31:27.168787	349.8	40.0	-67.9	0.0
2026-01-25 17:31:29.423550	349.6	39.5	-64.9	0.0
2026-01-25 17:31:31.675310	349.5	38.9	-67.3	0.0
2026-01-25 17:31:33.929234	349.3	38.3	-66.1	0.0
2026-01-25 17:31:36.182951	349.2	37.8	-66.4	0.0
2026-01-25 17:31:38.433807	349.1	37.2	-65.5	0.0
2026-01-25 17:31:40.686591	348.9	36.7	-66.0	0.0
2026-01-25 17:31:42.937198	348.8	36.1	-64.0	0.0
2026-01-25 17:31:45.189905	348.7	35.6	-64.3	0.0
2026-01-25 17:31:47.440921	348.6	35.1	-64.7	0.0
2026-01-25 17:31:49.694595	348.5	34.6	-62.6	0.0
2026-01-25 17:31:51.947346	348.4	34.1	-61.7	0.0
2026-01-25 17:31:54.201490	348.3	33.6	-62.7	0.0
2026-01-25 17:31:56.452201	348.2	33.1	-61.0	0.0
2026-01-25 17:31:58.703859	348.1	32.7	-64.3	0.0
2026-01-25 17:32:00.957617	348.0	32.2	-63.5	0.0
2026-01-25 17:32:03.210639	347.9	31.7	-62.3	0.0
2026-01-25 17:32:05.465573	347.8	31.3	-64.4	0.0
2026-01-25 17:32:07.719055	347.7	30.8	-64.9	0.0
2026-01-25 17:32:09.974223	347.6	30.4	-64.2	0.0
2026-01-25 17:32:12.226841	347.5	30.0	-64.0	0.0
2026-01-25 17:32:14.482611	347.5	29.5	-64.1	0.0
2026-01-25 17:32:16.735841	347.4	29.1	-64.6	0.0
2026-01-25 17:32:18.988757	347.3	28.7	-63.8	0.0
2026-01-25 17:32:21.241514	347.2	28.3	-63.7	0.0
2026-01-25 17:32:23.495641	347.2	27.9	-61.0	0.0
2026-01-25 17:32:25.747101	347.1	27.5	-62.3	0.0
2026-01-25 17:32:27.999557	347.0	27.1	-64.0	0.0
2026-01-25 17:32:30.257323	347.0	26.7	-61.3	0.0
2026-01-25 17:32:32.511020	346.9	26.3	-61.0	0.0
2026-01-25 17:32:34.766099	346.8	26.0	-63.7	0.0
2026-01-25 17:32:37.018543	346.8	25.6	-63.1	0.0
2026-01-25 17:32:39.272636	346.7	25.2	-61.3	0.0
2026-01-25 17:32:41.529904	346.7	24.9	-62.9	0.0
2026-01-25 17:32:43.783567	346.6	24.5	-64.7	0.0
2026-01-25 17:32:46.035323	346.6	24.2	-64.1	0.0
2026-01-25 17:32:48.292191	346.5	23.8	-62.7	0.0
2026-01-25 17:32:50.548204	346.5	23.5	-61.2	0.0
2026-01-25 17:32:52.802820	346.4	23.1	-65.2	0.0
2026-01-25 17:32:55.058199	346.4	22.8	-65.6	0.0
2026-01-25 17:32:57.311400	346.3	22.5	-65.4	0.0
2026-01-25 17:32:59.564378	346.3	22.2	-65.7	0.0
2026-01-25 17:33:01.815959	346.2	21.8	-65.4	0.0
2026-01-25 17:33:04.066158	346.2	21.5	-64.2	0.0
2026-01-25 17:33:06.317530	346.1	21.2	-66.0	0.0
2026-01-25 17:33:08.568285	346.1	20.9	-67.9	0.0
2026-01-25 17:33:10.818714	346.1	20.6	-67.5	0.0
2026-01-25 17:33:13.072867	346.0	20.3	-66.0	0.0
2026-01-25 17:33:15.325441	346.0	20.0	-66.9	0.0
2026-01-25 17:33:17.580517	345.9	19.7	-63.9	0.0
2026-01-25 17:33:19.833474	345.9	19.4	-65.9	0.0
2026-01-25 17:33:22.087245	345.9	19.1	-64.9	0.0
2026-01-25 17:33:24.336025	345.8	18.9	-66.0	0.0
2026-01-25 17:33:26.590185	345.8	18.6	-59.3	0.0
2026-01-25 17:33:28.842397	345.8	18.3	-66.9	0.0
2026-01-25 17:33:31.094647	345.7	18.0	-66.4	0.0
2026-01-25 17:33:33.347156	345.7	17.8	-66.2	0.0
2026-01-25 17:33:35.599504	345.7	17.5	-68.0	0.0
2026-01-25 17:33:37.853641	345.6	17.2	-66.6	0.0
2026-01-25 17:33:40.104865	345.6	17.0	-68.7	0.0
2026-01-25 17:33:42.356853	345.6	16.7	-65.3	0.0
2026-01-25 17:33:44.609930	345.6	16.4	-64.0	0.0
2026-01-25 17:33:46.863631	345.5	16.2	-64.7	0.0
2026-01-25 17:33:49.116992	345.5	15.9	-66.8	0.0
2026-01-25 17:33:51.373633	345.5	15.7	-65.4	0.0
2026-01-25 17:33:53.626268	345.5	15.5	-66.6	0.0
2026-01-25 17:33:55.879259	345.4	15.2	-66.6	0.0
2026-01-25 17:33:58.130944	345.4	15.0	-66.2	0.0
2026-01-25 17:34:00.382389	345.4	14.7	-66.9	0.0
2026-01-25 17:34:02.634869	345.4	14.5	-63.8	0.0
2026-01-25 17:34:04.891123	345.3	14.3	-67.4	0.0
2026-01-25 17:34:07.144643	345.3	14.0	-64.6	0.0
2026-01-25 17:34:09.396745	345.3	13.8	-66.0	0.0
2026-01-25 17:34:11.650615	345.3	13.6	-65.3	0.0
2026-01-25 17:34:13.904490	345.2	13.3	-66.3	0.0
2026-01-25 17:34:16.158080	345.2	13.1	-66.0	0.0
2026-01-25 17:34:18.411390	345.2	12.9	-62.8	0.0
2026-01-25 17:34:20.664568	345.2	12.7	-64.6	0.0
2026-01-25 17:34:22.919169	345.2	12.5	-64.9	0.0
2026-01-25 17:34:25.174303	345.1	12.2	-65.0	0.0
2026-01-25 17:34:27.429008	345.1	12.0	-65.6	0.0
2026-01-25 17:34:29.682364	345.1	11.8	-64.4	0.0
2026-01-25 17:34:31.934704	345.1	11.6	-66.5	0.0
2026-01-25 17:34:34.189294	345.1	11.4	-66.3	0.0
2026-01-25 17:34:36.439862	345.1	11.2	-66.8	0.0
2026-01-25 17:34:38.695433	345.0	11.0	-66.2	0.0
2026-01-25 17:34:40.950702	345.0	10.8	-66.8	0.0
2026-01-25 17:34:43.205827	345.0	10.6	-64.7	0.0
2026-01-25 17:34:45.459238	345.0	10.4	-64.0	0.0
2026-01-25 17:34:47.714385	345.0	10.2	-65.5	0.0
2026-01-25 17:34:49.966398	345.0	10.0	-70.6	0.0
#Closed at: 2026-01-25 17:24:00.646134