passes_logs/2026/01/25/planumMaritime01/planumMaritime01__20260125_073409_METOP-B_rec.log

#Pass ID: 20260125_073409_METOP-B
#Satellite: METOP-B
#Configuration: METOP-B
#Start time: 2026-01-25 07:34:14.500170

#LorettStation: 1.0.0 05.05.2024
#Station: planumMaritime01
#Location: 37.49445 lon 55.92918 lat
#TLE: 1 38771U 12049A   26024.30979649  .00000246  00000+0  13231-3 0  9997
#TLE: 2 38771  98.6735  78.5342 0003027  57.8768 302.2703 14.21427789692827

#Time	Az	El	Level	SNR
2026-01-25 07:34:16.668179	13.3	10.2	-65.2	0.0
2026-01-25 07:34:18.921846	13.2	10.4	-68.0	0.0
2026-01-25 07:34:21.178073	13.2	10.6	-63.5	0.0
2026-01-25 07:34:23.427916	13.2	10.8	-62.7	0.0
2026-01-25 07:34:25.684260	13.1	11.0	-61.4	0.0
2026-01-25 07:34:27.938178	13.1	11.2	-62.4	0.0
2026-01-25 07:34:30.191948	13.0	11.4	-60.4	0.0
2026-01-25 07:34:32.443697	13.0	11.6	-60.7	0.0
2026-01-25 07:34:34.698092	12.9	11.8	-59.6	0.0
2026-01-25 07:34:36.951250	12.9	12.0	-63.3	0.0
2026-01-25 07:34:39.202977	12.8	12.2	-64.6	0.0
2026-01-25 07:34:41.456664	12.8	12.4	-65.2	0.0
2026-01-25 07:34:43.707751	12.7	12.7	-66.1	0.0
2026-01-25 07:34:45.962148	12.7	12.9	-63.8	0.0
2026-01-25 07:34:48.214565	12.6	13.1	-64.8	0.0
2026-01-25 07:34:50.469059	12.5	13.3	-62.3	0.0
2026-01-25 07:34:52.724155	12.5	13.5	-62.0	0.0
2026-01-25 07:34:54.976162	12.4	13.8	-63.6	0.0
2026-01-25 07:34:57.229750	12.4	14.0	-61.9	0.0
2026-01-25 07:34:59.487194	12.3	14.2	-62.6	0.0
2026-01-25 07:35:01.740551	12.3	14.5	-60.0	0.0
2026-01-25 07:35:03.997255	12.2	14.7	-60.6	0.0
2026-01-25 07:35:06.255219	12.1	14.9	-62.1	0.0
2026-01-25 07:35:08.511160	12.1	15.2	-62.4	0.0
2026-01-25 07:35:10.763784	12.0	15.4	-61.1	0.0
2026-01-25 07:35:13.020872	11.9	15.7	-62.7	0.0
2026-01-25 07:35:15.276589	11.9	15.9	-62.0	0.0
2026-01-25 07:35:17.533229	11.8	16.1	-63.1	0.0
2026-01-25 07:35:19.788348	11.7	16.4	-63.1	0.0
2026-01-25 07:35:22.042807	11.6	16.7	-62.6	0.0
2026-01-25 07:35:24.302154	11.6	16.9	-62.4	0.0
2026-01-25 07:35:26.558012	11.5	17.2	-59.7	0.0
2026-01-25 07:35:28.812936	11.4	17.4	-63.7	0.0
2026-01-25 07:35:31.066227	11.3	17.7	-63.1	0.0
2026-01-25 07:35:33.320700	11.3	18.0	-62.3	0.0
2026-01-25 07:35:35.581324	11.2	18.2	-60.3	0.0
2026-01-25 07:35:37.835326	11.1	18.5	-63.0	0.0
2026-01-25 07:35:40.088993	11.0	18.8	-64.3	0.0
2026-01-25 07:35:42.343078	10.9	19.1	-62.6	0.0
2026-01-25 07:35:44.598051	10.8	19.3	-60.5	0.0
2026-01-25 07:35:46.850580	10.8	19.6	-62.9	0.0
2026-01-25 07:35:49.105747	10.7	19.9	-62.4	0.0
2026-01-25 07:35:51.358829	10.6	20.2	-60.7	0.0
2026-01-25 07:35:53.614039	10.5	20.5	-63.5	0.0
2026-01-25 07:35:55.867812	10.4	20.8	-63.2	0.0
2026-01-25 07:35:58.120490	10.3	21.1	-63.6	0.0
2026-01-25 07:36:00.376889	10.2	21.4	-65.1	0.0
2026-01-25 07:36:02.631388	10.1	21.7	-61.8	0.0
2026-01-25 07:36:04.885165	10.0	22.0	-64.1	0.0
2026-01-25 07:36:07.143716	9.9	22.4	-63.5	0.0
2026-01-25 07:36:09.400121	9.8	22.7	-62.8	0.0
2026-01-25 07:36:11.654060	9.6	23.0	-65.4	0.0
2026-01-25 07:36:13.910165	9.5	23.3	-65.6	0.0
2026-01-25 07:36:16.165049	9.4	23.7	-64.9	0.0
2026-01-25 07:36:18.420962	9.3	24.0	-63.7	0.0
2026-01-25 07:36:20.677957	9.2	24.3	-64.2	0.0
2026-01-25 07:36:22.933392	9.0	24.7	-62.8	0.0
2026-01-25 07:36:25.188224	8.9	25.0	-62.2	0.0
2026-01-25 07:36:27.443383	8.8	25.4	-63.9	0.0
2026-01-25 07:36:29.699160	8.6	25.8	-64.3	0.0
2026-01-25 07:36:31.953688	8.5	26.1	-66.4	0.0
2026-01-25 07:36:34.209172	8.4	26.5	-67.9	0.0
2026-01-25 07:36:36.462659	8.2	26.9	-64.8	0.0
2026-01-25 07:36:38.717945	8.1	27.3	-60.1	0.0
2026-01-25 07:36:40.972172	7.9	27.6	-65.9	0.0
2026-01-25 07:36:43.230122	7.7	28.0	-66.0	0.0
2026-01-25 07:36:45.484956	7.6	28.4	-67.9	0.0
2026-01-25 07:36:47.740352	7.4	28.8	-65.2	0.0
2026-01-25 07:36:49.995051	7.2	29.2	-66.7	0.0
2026-01-25 07:36:52.249602	7.1	29.6	-65.9	0.0
2026-01-25 07:36:54.504304	6.9	30.1	-64.4	0.0
2026-01-25 07:36:56.765431	6.7	30.5	-62.6	0.0
2026-01-25 07:36:59.019569	6.5	30.9	-65.0	0.0
2026-01-25 07:37:01.278683	6.3	31.4	-65.2	0.0
2026-01-25 07:37:03.533959	6.1	31.8	-61.8	0.0
2026-01-25 07:37:05.789257	5.9	32.2	-63.3	0.0
2026-01-25 07:37:08.042712	5.7	32.7	-62.6	0.0
2026-01-25 07:37:10.296424	5.5	33.2	-62.7	0.0
2026-01-25 07:37:12.550341	5.2	33.6	-62.4	0.0
2026-01-25 07:37:14.805149	5.0	34.1	-65.1	0.0
2026-01-25 07:37:17.060171	4.8	34.6	-66.7	0.0
2026-01-25 07:37:19.315405	4.5	35.1	-66.8	0.0
2026-01-25 07:37:21.568894	4.3	35.6	-66.6	0.0
2026-01-25 07:37:23.822299	4.0	36.1	-65.2	0.0
2026-01-25 07:37:26.078343	3.7	36.6	-68.1	0.0
2026-01-25 07:37:28.333928	3.4	37.1	-67.5	0.0
2026-01-25 07:37:30.587590	3.2	37.6	-67.2	0.0
2026-01-25 07:37:32.840571	2.9	38.2	-65.6	0.0
2026-01-25 07:37:35.092704	2.5	38.7	-68.3	0.0
2026-01-25 07:37:37.345121	2.2	39.3	-69.1	1.2
2026-01-25 07:37:39.598314	1.9	39.8	-68.7	0.2
2026-01-25 07:37:41.852890	1.5	40.4	-68.1	1.4
2026-01-25 07:37:44.109950	1.2	40.9	-69.7	5.2
2026-01-25 07:37:46.363171	0.8	41.5	-67.6	0.2
2026-01-25 07:37:48.615786	0.4	42.1	-67.1	1.1
2026-01-25 07:37:50.869524	0.0	42.7	-68.5	4.8
2026-01-25 07:37:53.126115	359.6	43.3	-68.5	4.5
2026-01-25 07:37:55.378577	359.2	43.9	-71.2	8.0
2026-01-25 07:37:57.634012	358.7	44.5	-68.4	3.8
2026-01-25 07:37:59.886538	358.3	45.2	-68.9	5.2
2026-01-25 07:38:02.139362	357.8	45.8	-70.7	5.2
2026-01-25 07:38:04.391329	357.3	46.4	-71.2	5.2
2026-01-25 07:38:06.643062	356.7	47.1	-70.6	4.2
2026-01-25 07:38:08.896676	356.2	47.7	-70.9	5.5
2026-01-25 07:38:11.150196	355.6	48.4	-71.3	7.9
2026-01-25 07:38:13.401430	355.0	49.1	-72.0	8.8
2026-01-25 07:38:15.655119	354.4	49.8	-71.8	7.7
2026-01-25 07:38:17.905837	353.7	50.4	-71.9	9.7
2026-01-25 07:38:20.159475	353.0	51.1	-71.5	7.8
2026-01-25 07:38:22.413921	352.3	51.8	-69.9	6.4
2026-01-25 07:38:24.667315	351.5	52.5	-70.7	8.4
2026-01-25 07:38:26.920792	350.7	53.2	-70.8	6.6
2026-01-25 07:38:29.172112	349.9	53.9	-70.4	7.9
2026-01-25 07:38:31.424862	349.0	54.7	-71.7	6.8
2026-01-25 07:38:33.677676	348.1	55.4	-71.3	6.3
2026-01-25 07:38:35.929624	347.1	56.1	-71.7	6.9
2026-01-25 07:38:38.181805	346.1	56.8	-70.8	5.4
2026-01-25 07:38:40.432602	345.0	57.5	-71.5	7.3
2026-01-25 07:38:42.688348	343.9	58.3	-71.6	6.6
2026-01-25 07:38:44.941641	342.7	59.0	-71.8	7.2
2026-01-25 07:38:47.193435	341.4	59.7	-71.2	5.8
2026-01-25 07:38:49.446305	340.1	60.4	-72.2	6.4
2026-01-25 07:38:51.701039	338.7	61.1	-69.3	2.6
2026-01-25 07:38:53.952502	337.2	61.8	-72.5	8.9
2026-01-25 07:38:56.202920	335.6	62.4	-72.0	7.5
2026-01-25 07:38:58.456785	333.9	63.1	-70.0	4.6
2026-01-25 07:39:00.710063	332.1	63.8	-71.1	7.1
2026-01-25 07:39:02.961582	330.2	64.4	-70.3	5.0
2026-01-25 07:39:05.214447	328.3	65.0	-70.3	5.1
2026-01-25 07:39:07.471272	326.2	65.6	-71.3	4.6
2026-01-25 07:39:09.726315	324.0	66.2	-71.1	7.7
2026-01-25 07:39:11.978342	321.7	66.7	-71.0	5.0
2026-01-25 07:39:14.227155	319.2	67.2	-71.4	7.1
2026-01-25 07:39:16.479587	316.7	67.6	-72.6	7.0
2026-01-25 07:39:18.733115	314.0	68.1	-72.1	6.3
2026-01-25 07:39:20.984291	311.3	68.4	-72.2	6.7
2026-01-25 07:39:23.238226	308.4	68.8	-72.1	4.7
2026-01-25 07:39:25.492176	305.5	69.0	-72.3	4.3
2026-01-25 07:39:27.740741	302.4	69.3	-72.6	4.5
2026-01-25 07:39:29.992079	299.4	69.4	-72.2	3.5
2026-01-25 07:39:32.242978	296.2	69.6	-73.6	6.2
2026-01-25 07:39:34.493218	293.0	69.6	-72.7	6.1
2026-01-25 07:39:36.746632	289.9	69.6	-72.6	2.1
2026-01-25 07:39:39.001689	286.7	69.6	-73.4	6.6
2026-01-25 07:39:41.252637	283.5	69.4	-73.3	1.2
2026-01-25 07:39:43.504014	280.5	69.3	-73.9	7.4
2026-01-25 07:39:45.755484	277.4	69.0	-73.6	4.3
2026-01-25 07:39:48.007821	274.5	68.8	-74.2	7.2
2026-01-25 07:39:50.260900	271.6	68.4	-73.6	7.6
2026-01-25 07:39:52.514140	268.8	68.1	-73.9	7.7
2026-01-25 07:39:54.767206	266.2	67.6	-74.2	9.1
2026-01-25 07:39:57.019123	263.7	67.2	-73.9	7.1
2026-01-25 07:39:59.279111	261.2	66.7	-74.6	7.8
2026-01-25 07:40:01.531064	258.9	66.1	-74.0	9.8
2026-01-25 07:40:03.786162	256.7	65.6	-73.8	9.2
2026-01-25 07:40:06.040986	254.6	65.0	-73.4	9.2
2026-01-25 07:40:08.298285	252.6	64.4	-73.5	9.3
2026-01-25 07:40:10.552315	250.8	63.7	-73.8	9.6
2026-01-25 07:40:12.806394	249.0	63.1	-73.5	9.0
2026-01-25 07:40:15.059938	247.3	62.4	-74.0	9.8
2026-01-25 07:40:17.311017	245.7	61.7	-73.7	9.0
2026-01-25 07:40:19.564911	244.2	61.1	-73.8	10.7
2026-01-25 07:40:21.818663	242.8	60.4	-73.6	9.1
2026-01-25 07:40:24.074204	241.5	59.6	-74.3	10.0
2026-01-25 07:40:26.329222	240.2	58.9	-73.9	9.9
2026-01-25 07:40:28.582439	239.0	58.2	-73.6	10.3
2026-01-25 07:40:30.841011	237.8	57.5	-73.8	10.5
2026-01-25 07:40:33.098188	236.8	56.8	-73.3	9.3
2026-01-25 07:40:35.351460	235.7	56.0	-73.8	10.4
2026-01-25 07:40:37.610038	234.8	55.3	-73.9	10.8
2026-01-25 07:40:39.865930	233.8	54.6	-73.5	9.5
2026-01-25 07:40:42.122642	233.0	53.9	-73.4	10.1
2026-01-25 07:40:44.377688	232.1	53.2	-73.2	9.7
2026-01-25 07:40:46.628090	231.3	52.5	-73.2	10.6
2026-01-25 07:40:48.883254	230.6	51.8	-73.4	10.8
2026-01-25 07:40:51.135882	229.8	51.1	-73.2	9.8
2026-01-25 07:40:53.385613	229.1	50.4	-73.0	10.3
2026-01-25 07:40:55.637444	228.5	49.7	-72.6	9.7
2026-01-25 07:40:57.890234	227.9	49.0	-72.5	7.9
2026-01-25 07:41:00.142552	227.3	48.3	-73.1	9.3
2026-01-25 07:41:02.397234	226.7	47.7	-73.4	9.3
2026-01-25 07:41:04.646936	226.1	47.0	-73.4	10.1
2026-01-25 07:41:06.902400	225.6	46.4	-73.5	9.5
2026-01-25 07:41:09.155254	225.1	45.7	-73.7	10.2
2026-01-25 07:41:11.406485	224.6	45.1	-73.8	10.2
2026-01-25 07:41:13.658852	224.1	44.5	-73.8	10.8
2026-01-25 07:41:15.917855	223.7	43.8	-73.8	10.5
2026-01-25 07:41:18.175036	223.2	43.2	-73.8	10.8
2026-01-25 07:41:20.425926	222.8	42.6	-73.8	11.1
2026-01-25 07:41:22.679187	222.4	42.0	-73.7	11.4
2026-01-25 07:41:24.935279	222.0	41.4	-74.2	11.4
2026-01-25 07:41:27.189206	221.7	40.8	-74.0	11.1
2026-01-25 07:41:29.441909	221.3	40.3	-73.9	10.9
2026-01-25 07:41:31.693008	221.0	39.7	-74.2	11.6
2026-01-25 07:41:33.947877	220.6	39.2	-74.0	11.4
2026-01-25 07:41:36.199913	220.3	38.6	-74.1	10.5
2026-01-25 07:41:38.453083	220.0	38.1	-74.1	10.2
2026-01-25 07:41:40.711713	219.7	37.5	-73.8	11.0
2026-01-25 07:41:42.960950	219.4	37.0	-74.0	10.4
2026-01-25 07:41:45.212625	219.1	36.5	-73.8	10.6
2026-01-25 07:41:47.463074	218.8	36.0	-73.7	9.8
2026-01-25 07:41:49.713901	218.6	35.5	-74.3	9.6
2026-01-25 07:41:51.965197	218.3	35.0	-73.8	10.1
2026-01-25 07:41:54.218397	218.1	34.5	-73.7	10.1
2026-01-25 07:41:56.466377	217.8	34.0	-73.0	8.9
2026-01-25 07:41:58.718318	217.6	33.5	-73.1	7.6
2026-01-25 07:42:00.970291	217.4	33.1	-72.8	6.0
2026-01-25 07:42:03.222527	217.2	32.6	-73.1	7.7
2026-01-25 07:42:05.471834	216.9	32.1	-72.9	7.7
2026-01-25 07:42:07.720416	216.7	31.7	-73.2	6.3
2026-01-25 07:42:09.970907	216.5	31.2	-72.9	6.7
2026-01-25 07:42:12.220446	216.3	30.8	-72.6	4.9
2026-01-25 07:42:14.473238	216.1	30.4	-72.0	3.9
2026-01-25 07:42:16.725161	216.0	30.0	-72.8	5.8
2026-01-25 07:42:18.978189	215.8	29.5	-71.9	5.8
2026-01-25 07:42:21.230944	215.6	29.1	-71.9	2.1
2026-01-25 07:42:23.483535	215.4	28.7	-72.4	5.1
2026-01-25 07:42:25.734623	215.3	28.3	-71.9	1.9
2026-01-25 07:42:27.987791	215.1	27.9	-72.1	3.0
2026-01-25 07:42:30.239367	214.9	27.5	-71.6	3.1
2026-01-25 07:42:32.489570	214.8	27.1	-71.6	0.2
2026-01-25 07:42:34.741020	214.6	26.8	-71.2	1.3
2026-01-25 07:42:36.992925	214.5	26.4	-70.9	0.0
2026-01-25 07:42:39.248000	214.3	26.0	-71.3	0.0
2026-01-25 07:42:41.502257	214.2	25.6	-70.2	0.0
2026-01-25 07:42:43.753914	214.1	25.3	-71.9	0.0
2026-01-25 07:42:46.007601	213.9	24.9	-71.4	0.0
2026-01-25 07:42:48.260411	213.8	24.6	-70.6	0.0
2026-01-25 07:42:50.509407	213.7	24.2	-70.6	0.0
2026-01-25 07:42:52.763703	213.5	23.9	-70.9	0.0
2026-01-25 07:42:55.015091	213.4	23.5	-70.6	0.0
2026-01-25 07:42:57.267453	213.3	23.2	-70.4	0.0
2026-01-25 07:42:59.519060	213.2	22.9	-70.6	0.0
2026-01-25 07:43:01.773121	213.1	22.6	-70.7	0.0
2026-01-25 07:43:04.024792	213.0	22.2	-69.8	0.0
2026-01-25 07:43:06.278062	212.8	21.9	-70.8	0.0
2026-01-25 07:43:08.530748	212.7	21.6	-70.3	0.0
2026-01-25 07:43:10.782586	212.6	21.3	-69.7	0.0
2026-01-25 07:43:13.034960	212.5	21.0	-69.4	0.0
2026-01-25 07:43:15.289192	212.4	20.7	-70.2	0.0
2026-01-25 07:43:17.539805	212.3	20.4	-69.8	0.0
2026-01-25 07:43:19.790108	212.2	20.1	-69.3	0.0
2026-01-25 07:43:22.042322	212.1	19.8	-70.0	0.0
2026-01-25 07:43:24.298788	212.0	19.5	-69.6	0.0
2026-01-25 07:43:26.553109	212.0	19.2	-70.1	0.0
2026-01-25 07:43:28.807691	211.9	18.9	-70.1	0.0
2026-01-25 07:43:31.059081	211.8	18.7	-69.4	0.0
2026-01-25 07:43:33.314054	211.7	18.4	-70.1	0.0
2026-01-25 07:43:35.566736	211.6	18.1	-70.1	0.0
2026-01-25 07:43:37.818260	211.5	17.8	-70.1	0.0
2026-01-25 07:43:40.070459	211.4	17.6	-69.6	0.0
2026-01-25 07:43:42.322744	211.4	17.3	-69.5	0.0
2026-01-25 07:43:44.574697	211.3	17.0	-69.2	0.0
2026-01-25 07:43:46.825142	211.2	16.8	-68.8	0.0
2026-01-25 07:43:49.081673	211.1	16.5	-69.2	0.0
2026-01-25 07:43:51.334471	211.1	16.3	-69.2	0.0
2026-01-25 07:43:53.587296	211.0	16.0	-69.1	0.0
2026-01-25 07:43:55.836464	210.9	15.8	-69.8	0.0
2026-01-25 07:43:58.088532	210.8	15.5	-69.1	0.0
2026-01-25 07:44:00.343231	210.8	15.3	-69.7	0.0
2026-01-25 07:44:02.592331	210.7	15.0	-69.4	0.0
2026-01-25 07:44:04.842429	210.6	14.8	-69.5	0.0
2026-01-25 07:44:07.097411	210.6	14.6	-70.1	0.0
2026-01-25 07:44:09.353362	210.5	14.3	-70.6	0.0
2026-01-25 07:44:11.606056	210.5	14.1	-69.9	0.0
2026-01-25 07:44:13.858429	210.4	13.9	-69.5	0.0
2026-01-25 07:44:16.110009	210.3	13.6	-69.4	0.0
2026-01-25 07:44:18.365293	210.3	13.4	-69.6	0.0
2026-01-25 07:44:20.620346	210.2	13.2	-70.0	0.0
2026-01-25 07:44:22.874066	210.2	13.0	-70.4	0.0
2026-01-25 07:44:25.124757	210.1	12.7	-70.9	0.0
2026-01-25 07:44:27.380263	210.0	12.5	-70.4	0.0
2026-01-25 07:44:29.632198	210.0	12.3	-70.4	0.0
2026-01-25 07:44:31.885039	209.9	12.1	-70.1	0.0
2026-01-25 07:44:34.134864	209.9	11.9	-70.5	0.0
2026-01-25 07:44:36.386860	209.8	11.7	-71.0	0.0
2026-01-25 07:44:38.639075	209.8	11.5	-70.9	0.0
2026-01-25 07:44:40.890391	209.7	11.3	-69.8	0.0
2026-01-25 07:44:43.141019	209.7	11.0	-70.3	0.0
2026-01-25 07:44:45.392915	209.6	10.8	-70.0	0.0
2026-01-25 07:44:47.649405	209.6	10.6	-74.6	0.0
2026-01-25 07:44:49.902120	209.5	10.4	-78.9	0.0
2026-01-25 07:44:52.155445	209.5	10.2	-78.2	0.0
2026-01-25 07:44:54.409251	209.4	10.0	-78.5	0.0
#Closed at: 2026-01-25 07:34:09.504835