passes_logs/2025/01/07/X_MFTI_01/X_MFTI_01__20250107_075639_TERRA_rec.log

#Pass ID: 20250107_075639_TERRA
#Satellite: TERRA
#Configuration: TERRA
#Start time: 2025-01-07 07:56:35

#Version: 1.5.20200625
#Station: X_MFTI_01
#Location: 37.5186 lon 55.9291 lat
#TLE: 1 25994U 99068A   23362.45014226  .00000817  00000+0  18168-3 0  9993
#TLE: 2 25994  98.0729  65.8244 0002317 146.5078 343.6211 14.59509299278111

#Time	Az	El	Level	Level2	SNR	BER	Gain	Gain2
2025-01-07 07:56:35.26	13.53	68.35	-77.7	-102.6	3.3	14909004	99	63212
2025-01-07 07:56:35.68	13.50	68.58	-77.4	-102.3	3.3	14906135	99	63202
2025-01-07 07:56:36.09	13.46	68.81	-77.9	-102.8	3.3	14899620	99	63420
2025-01-07 07:56:36.51	13.42	69.04	-77.9	-102.8	3.3	14905471	99	63655
2025-01-07 07:56:36.91	13.39	69.26	-77.9	-102.9	3.3	14878028	99	63732
2025-01-07 07:56:37.33	13.35	69.49	-77.8	-102.8	3.3	14906349	99	63734
2025-01-07 07:56:37.73	13.31	69.71	-77.8	-102.8	3.3	14906349	99	63796
2025-01-07 07:56:38.13	13.28	69.93	-77.9	-102.8	3.2	14899147	99	63585
2025-01-07 07:56:38.53	13.24	70.16	-77.8	-102.8	3.3	14901855	99	63776
2025-01-07 07:56:38.95	13.19	70.39	-77.7	-102.7	3.3	14898277	99	63538
2025-01-07 07:56:39.35	13.15	70.61	-77.9	-102.8	3.2	14898422	99	63651
2025-01-07 07:56:39.78	13.11	70.85	-77.9	-102.8	3.2	14898422	99	63554
2025-01-07 07:56:40.20	13.06	71.09	-77.7	-102.6	3.3	14898551	99	63240
2025-01-07 07:56:40.63	13.01	71.33	-77.7	-102.6	3.3	14914649	99	63364
2025-01-07 07:56:41.06	12.96	71.58	-77.7	-102.7	3.3	14904891	99	63518
2025-01-07 07:56:41.47	12.91	71.81	-77.9	-102.9	3.3	14894195	99	63626
2025-01-07 07:56:41.87	12.87	72.03	-77.7	-102.6	3.2	14887756	99	63292
2025-01-07 07:56:42.29	12.81	72.27	-77.9	-102.8	3.3	14912925	99	63338
2025-01-07 07:56:42.69	12.76	72.50	-77.9	-102.8	3.3	14912925	99	63608
2025-01-07 07:56:43.09	12.71	72.73	-77.8	-102.7	3.3	14887756	99	63520
2025-01-07 07:56:43.52	12.65	72.98	-77.7	-102.7	3.2	14896881	99	63368
2025-01-07 07:56:43.94	12.59	73.22	-77.8	-102.7	3.2	14910720	99	63189
2025-01-07 07:56:44.36	12.53	73.46	-77.5	-102.5	3.3	14895965	99	64071
2025-01-07 07:56:44.77	12.47	73.69	-77.7	-102.7	3.3	14881668	99	63376
2025-01-07 07:56:45.18	12.40	73.93	-77.7	-102.7	3.3	14881668	99	63710
2025-01-07 07:56:45.60	12.34	74.17	-77.9	-102.9	3.3	14894668	99	63787
2025-01-07 07:56:46.00	12.27	74.40	-77.7	-102.7	3.3	14899467	99	63790
2025-01-07 07:56:46.42	12.20	74.65	-77.7	-102.7	3.2	14890213	99	63829
2025-01-07 07:56:46.85	12.12	74.90	-77.9	-102.9	3.3	14902137	99	63724
2025-01-07 07:56:47.27	12.05	75.14	-77.7	-102.7	3.3	14905700	99	63727
2025-01-07 07:56:47.67	11.97	75.37	-77.9	-102.8	3.2	14905700	99	63641
2025-01-07 07:56:48.07	11.89	75.61	-77.7	-102.7	3.2	14896728	99	63807
2025-01-07 07:56:48.49	11.81	75.85	-77.9	-102.8	3.3	14908027	99	63698
2025-01-07 07:56:48.89	11.72	76.09	-77.7	-102.7	3.3	14902954	99	63752
2025-01-07 07:56:49.31	11.63	76.34	-77.9	-102.9	3.3	14903427	99	63956
2025-01-07 07:56:49.74	11.54	76.59	-77.7	-102.7	3.2	14903427	99	63757
2025-01-07 07:56:50.17	11.43	76.84	-77.9	-102.8	3.2	14904785	99	63262
2025-01-07 07:56:50.60	11.33	77.10	-77.7	-102.6	3.3	14910232	99	63451
2025-01-07 07:56:51.00	11.23	77.33	-77.7	-102.7	3.3	14902473	99	63433
2025-01-07 07:56:51.41	11.12	77.57	-77.9	-102.8	3.2	14911643	99	63387
2025-01-07 07:56:51.82	11.01	77.82	-77.7	-102.5	3.2	14911399	99	62624
2025-01-07 07:56:52.23	10.89	78.06	-77.7	-102.7	3.3	14911399	99	63570
2025-01-07 07:56:52.65	10.76	78.31	-78.0	-103.0	3.2	14887115	99	63481
2025-01-07 07:56:53.08	10.63	78.57	-77.7	-102.7	3.2	14898887	99	63305
2025-01-07 07:56:53.49	10.49	78.81	-77.9	-102.9	3.3	14909164	99	63579
2025-01-07 07:56:53.92	10.34	79.07	-78.0	-103.0	3.3	14872238	99	63651
2025-01-07 07:56:54.33	10.20	79.31	-77.7	-102.6	3.3	14880844	99	63336
2025-01-07 07:56:54.74	10.04	79.56	-77.8	-102.7	3.2	14880844	99	63318
2025-01-07 07:56:55.15	9.88	79.80	-77.7	-102.7	3.2	14906013	99	63886
2025-01-07 07:56:55.55	9.71	80.04	-77.9	-102.8	3.3	14893684	99	63743
2025-01-07 07:56:55.96	9.53	80.29	-77.7	-102.7	3.3	14902328	99	63759
2025-01-07 07:56:56.37	9.34	80.53	-77.7	-102.7	3.2	14897079	99	63499
2025-01-07 07:56:56.78	9.14	80.78	-77.8	-102.8	3.3	14907638	99	63874
2025-01-07 07:56:57.18	8.94	81.02	-77.7	-102.7	3.3	14907638	99	63823
2025-01-07 07:56:57.60	8.71	81.27	-77.9	-102.9	3.3	14901992	99	63830
2025-01-07 07:56:58.00	8.48	81.51	-77.9	-102.9	3.3	14918190	99	63739
2025-01-07 07:56:58.41	8.23	81.76	-77.5	-102.4	3.3	14897544	99	63804
2025-01-07 07:56:58.81	7.97	82.00	-77.7	-102.7	3.3	14913108	99	63722
2025-01-07 07:56:59.21	7.69	82.24	-77.7	-102.7	3.3	14913108	99	63673
2025-01-07 07:56:59.61	7.40	82.48	-77.9	-102.9	3.3	14902854	99	63707
2025-01-07 07:57:00.03	7.07	82.74	-77.6	-102.4	3.5	14909210	99	62821
2025-01-07 07:57:00.45	6.72	82.99	-77.9	-102.8	3.2	14899887	99	63427
2025-01-07 07:57:00.86	6.35	83.24	-77.9	-102.8	3.3	14898994	99	63439
2025-01-07 07:57:01.30	5.92	83.50	-77.7	-102.7	3.3	14896141	99	63736
2025-01-07 07:57:01.70	5.49	83.74	-77.8	-102.7	3.3	14896141	99	63679
2025-01-07 07:57:02.13	5.00	84.00	-77.7	-102.7	3.3	14869400	99	63423
2025-01-07 07:57:02.54	4.49	84.25	-77.9	-102.8	3.2	14901977	99	63440
2025-01-07 07:57:02.98	3.89	84.51	-77.9	-102.9	3.3	14900077	99	64229
2025-01-07 07:57:03.38	3.29	84.75	-77.7	-102.7	3.3	14869987	99	63403
2025-01-07 07:57:03.80	2.60	85.00	-77.9	-102.8	3.2	14901115	99	63498
2025-01-07 07:57:04.23	1.81	85.26	-77.9	-102.9	3.1	14901115	99	63737
2025-01-07 07:57:04.63	1.00	85.50	-77.7	-102.8	3.3	14905456	99	64161
2025-01-07 07:57:05.03	0.10	85.73	-77.7	-102.7	3.3	14876106	99	63558
2025-01-07 07:57:05.46	359.02	85.99	-77.7	-102.7	3.3	14886978	99	63833
2025-01-07 07:57:05.86	357.88	86.22	-77.9	-102.9	3.3	14907897	99	63946
2025-01-07 07:57:06.29	356.48	86.47	-77.7	-102.7	3.3	14896530	99	63908
2025-01-07 07:57:06.71	354.91	86.71	-77.9	-102.8	3.3	14896530	99	63365
2025-01-07 07:57:07.14	353.05	86.96	-77.9	-102.8	3.3	14910408	99	63377
2025-01-07 07:57:07.56	350.91	87.19	-77.9	-102.9	3.3	14908363	99	63714
2025-01-07 07:57:07.96	348.52	87.41	-77.7	-102.7	3.3	14880050	99	63398
2025-01-07 07:57:08.38	345.53	87.64	-77.9	-102.8	3.2	14889984	99	63362
2025-01-07 07:57:08.81	341.82	87.86	-77.9	-102.8	3.3	14904846	99	63386
2025-01-07 07:57:09.21	337.63	88.06	-77.9	-102.9	3.3	14904846	99	63668
2025-01-07 07:57:09.63	332.22	88.26	-77.9	-102.8	3.3	14871704	99	63503
2025-01-07 07:57:10.06	325.37	88.43	-77.9	-102.8	3.2	14889953	99	63310
2025-01-07 07:57:10.48	317.12	88.58	-77.9	-102.9	3.3	14902282	99	64053
2025-01-07 07:57:10.88	307.72	88.69	-78.1	-103.1	3.3	14886108	99	64127
2025-01-07 07:57:11.30	296.43	88.76	-77.7	-102.7	3.3	14889366	99	63836
2025-01-07 07:57:11.70	284.91	88.78	-77.8	-102.8	3.3	14889366	99	63718
2025-01-07 07:57:12.11	273.27	88.74	-77.7	-102.7	3.2	14910270	99	63565
2025-01-07 07:57:12.52	262.65	88.66	-77.7	-102.7	3.3	14898849	99	63548
2025-01-07 07:57:12.94	253.32	88.53	-77.9	-102.9	3.3	14899681	99	63862
2025-01-07 07:57:13.34	245.97	88.38	-77.7	-102.7	3.2	14907676	99	63916
2025-01-07 07:57:13.78	239.41	88.19	-77.7	-102.7	3.3	14901351	99	63816
2025-01-07 07:57:14.18	234.58	88.00	-77.9	-102.9	3.3	14901351	99	63798
2025-01-07 07:57:14.60	230.44	87.79	-77.7	-102.7	3.2	14909126	99	63763
2025-01-07 07:57:15.00	227.18	87.58	-77.7	-102.7	3.3	14911613	99	63763
2025-01-07 07:57:15.42	224.32	87.36	-77.8	-102.7	3.3	14907295	99	63397
2025-01-07 07:57:15.82	222.03	87.13	-77.7	-102.7	3.2	14910011	99	63311
2025-01-07 07:57:16.24	219.98	86.90	-77.7	-102.6	3.3	14910011	99	63384
2025-01-07 07:57:16.65	218.27	86.66	-77.8	-102.7	3.3	14902931	99	63180
2025-01-07 07:57:17.06	216.78	86.43	-77.7	-102.7	3.3	14903213	99	63716
2025-01-07 07:57:17.47	215.47	86.19	-77.8	-102.7	3.2	14877250	99	63336
2025-01-07 07:57:17.90	214.27	85.93	-77.6	-102.5	3.3	14908279	99	63075
2025-01-07 07:57:18.31	213.26	85.69	-77.7	-102.7	3.3	14902770	99	63706
2025-01-07 07:57:18.72	212.36	85.45	-77.9	-102.9	3.3	14902770	99	63765
2025-01-07 07:57:19.14	211.52	85.20	-77.9	-102.8	3.2	14872406	99	63448
2025-01-07 07:57:19.54	210.81	84.96	-77.8	-102.8	3.2	14894012	99	63426
2025-01-07 07:57:19.96	210.13	84.71	-77.7	-102.6	3.3	14900367	99	63431
2025-01-07 07:57:20.38	209.51	84.46	-77.9	-102.8	3.2	14869499	99	63791
2025-01-07 07:57:20.79	208.96	84.21	-77.7	-102.7	3.3	14904159	99	63836
2025-01-07 07:57:21.21	208.44	83.96	-77.7	-102.7	3.3	14904067	99	63892
2025-01-07 07:57:21.63	207.97	83.71	-77.9	-102.9	3.3	14904067	99	63650
2025-01-07 07:57:22.04	207.54	83.46	-77.7	-102.7	3.3	14903129	99	63783
2025-01-07 07:57:22.46	207.13	83.21	-77.9	-102.9	3.3	14915344	99	63794
2025-01-07 07:57:22.88	206.76	82.95	-77.7	-102.7	3.2	14916488	99	63737
2025-01-07 07:57:23.29	206.41	82.70	-77.7	-102.7	3.3	14893852	99	63674
2025-01-07 07:57:23.69	206.10	82.46	-77.7	-102.7	3.3	14893852	99	63895
2025-01-07 07:57:24.10	205.80	82.22	-77.9	-102.9	3.2	14903274	99	63774
2025-01-07 07:57:24.51	205.52	81.97	-77.9	-102.9	3.2	14901641	99	64058
2025-01-07 07:57:24.91	205.26	81.73	-77.8	-102.8	3.2	14917144	99	63974
2025-01-07 07:57:25.32	205.02	81.48	-77.9	-102.8	3.3	14908134	99	63464
2025-01-07 07:57:25.73	204.78	81.23	-77.8	-102.7	3.3	14899734	99	63364
2025-01-07 07:57:26.14	204.56	80.99	-77.9	-102.8	3.3	14899734	99	63714
2025-01-07 07:57:26.57	204.34	80.73	-77.9	-102.8	3.2	14884002	99	63530
2025-01-07 07:57:27.00	204.13	80.47	-77.9	-102.8	3.2	14895042	99	63429
2025-01-07 07:57:27.42	203.94	80.22	-77.9	-102.8	3.3	14906150	99	63488
2025-01-07 07:57:27.83	203.77	79.97	-77.7	-102.7	3.3	14882423	99	63775
2025-01-07 07:57:28.25	203.59	79.72	-77.7	-102.6	3.4	14875587	99	63267
2025-01-07 07:57:28.65	203.44	79.48	-77.8	-102.7	3.2	14875587	99	63362
2025-01-07 07:57:29.07	203.28	79.23	-77.8	-102.7	3.3	14903663	99	63762
2025-01-07 07:57:29.48	203.13	78.98	-77.9	-102.9	3.4	14896041	99	63644
2025-01-07 07:57:29.89	203.00	78.74	-77.9	-102.8	3.3	14884147	99	63379
2025-01-07 07:57:30.29	202.87	78.50	-77.8	-102.7	3.3	14898246	99	63334
2025-01-07 07:57:30.71	202.73	78.25	-77.9	-102.8	3.3	14898246	99	63448
2025-01-07 07:57:31.11	202.62	78.01	-77.8	-102.7	3.2	14904586	99	63420
2025-01-07 07:57:31.53	202.50	77.76	-77.9	-102.8	3.2	14908546	99	63445
2025-01-07 07:57:31.96	202.38	77.51	-77.7	-102.7	3.2	14897277	99	63402
2025-01-07 07:57:32.36	202.27	77.27	-77.8	-102.7	3.3	14900901	99	63733
2025-01-07 07:57:32.76	202.17	77.03	-77.9	-102.9	3.2	14879852	99	63556
2025-01-07 07:57:33.18	202.07	76.79	-77.8	-102.7	3.2	14879852	99	63445
2025-01-07 07:57:33.60	201.97	76.54	-77.9	-102.8	3.2	14906776	99	63321
2025-01-07 07:57:34.02	201.88	76.29	-77.9	-102.9	3.2	14899391	99	64170
2025-01-07 07:57:34.43	201.79	76.05	-77.7	-102.7	3.2	14881721	99	63791
2025-01-07 07:57:34.86	201.70	75.80	-77.9	-102.9	3.3	14908752	99	63993
2025-01-07 07:57:35.28	201.61	75.55	-77.8	-102.8	3.3	14906478	99	64236
2025-01-07 07:57:35.68	201.54	75.32	-77.9	-102.9	3.2	14906478	99	64245
2025-01-07 07:57:36.10	201.46	75.07	-77.7	-102.7	3.3	14912986	99	63910
2025-01-07 07:57:36.52	201.38	74.83	-77.7	-102.7	3.3	14892814	99	63881
2025-01-07 07:57:36.92	201.31	74.60	-77.9	-102.9	3.3	14914932	99	64118
2025-01-07 07:57:37.34	201.24	74.35	-77.8	-102.8	3.3	14903663	99	64190
2025-01-07 07:57:37.74	201.17	74.12	-77.9	-102.9	3.3	14908340	99	63887
2025-01-07 07:57:38.15	201.11	73.88	-77.9	-102.9	3.3	14908340	99	63357
2025-01-07 07:57:38.56	201.05	73.65	-77.8	-102.7	3.3	14902046	99	63808
2025-01-07 07:57:38.97	200.98	73.41	-77.7	-102.7	3.3	14882522	99	63444
2025-01-07 07:57:39.39	200.92	73.17	-77.9	-102.9	3.3	14894508	99	63834
2025-01-07 07:57:39.81	200.86	72.93	-77.7	-102.7	3.2	14906509	99	63826
2025-01-07 07:57:40.21	200.81	72.70	-77.8	-102.8	3.3	14906509	99	64087
2025-01-07 07:57:40.63	200.75	72.46	-77.7	-102.7	3.3	14894935	99	63853
2025-01-07 07:57:41.03	200.70	72.23	-77.9	-102.9	3.3	14895500	99	63788
2025-01-07 07:57:41.43	200.65	72.00	-77.7	-102.7	3.2	14904525	99	63642
2025-01-07 07:57:41.83	200.60	71.78	-77.8	-102.8	3.2	14901542	99	64078
2025-01-07 07:57:42.25	200.55	71.54	-77.7	-102.7	3.2	14905624	99	63943
2025-01-07 07:57:42.68	200.50	71.29	-77.7	-102.7	3.2	14905624	99	63846
2025-01-07 07:57:43.10	200.46	71.06	-77.9	-102.9	3.3	14911277	99	64203
2025-01-07 07:57:43.51	200.41	70.83	-77.9	-102.9	3.2	14901489	99	64351
2025-01-07 07:57:43.92	200.37	70.60	-77.9	-102.8	3.2	14903549	99	63535

#Closed at: 2025-01-07 07:57:44