passes_logs/2025/01/07/X_MFTI_01/X_MFTI_01__20250107_011805_FENGYUN_3D_rec.log

#Pass ID: 20250107_011805_FENGYUN 3D
#Satellite: FENGYUN 3D
#Configuration: FENGYUN 3D
#Start time: 2025-01-07 01:18:01

#Version: 1.5.20200625
#Station: X_MFTI_01
#Location: 37.5186 lon 55.9291 lat
#TLE: 1 43010U 17072A   23362.50642187  .00000183  00000+0  10870-3 0  9994
#TLE: 2 43010  98.8887 311.3857 0002475  98.0400 262.1057 14.19259665317063

#Time	Az	El	Level	Level2	SNR	BER	Gain	Gain2
2025-01-07 01:18:01.55	346.30	68.63	-74.7	-95.6	3.8	8454174	99	39798
2025-01-07 01:18:01.96	346.00	68.78	-74.7	-95.5	3.8	8450271	99	39284
2025-01-07 01:18:02.39	345.67	68.95	-74.8	-95.7	3.8	8461051	99	39863
2025-01-07 01:18:02.82	345.34	69.11	-74.8	-95.4	3.8	8464336	99	38438
2025-01-07 01:18:03.24	345.01	69.27	-74.7	-95.6	3.8	8460720	99	39884
2025-01-07 01:18:03.67	344.67	69.43	-74.8	-95.6	3.8	8456325	99	39862
2025-01-07 01:18:04.09	344.33	69.59	-74.7	-95.6	3.6	8450305	99	39960
2025-01-07 01:18:04.50	343.99	69.74	-74.8	-95.6	3.8	8454196	99	39343
2025-01-07 01:18:04.93	343.63	69.90	-74.7	-95.6	3.8	8463203	99	39893
2025-01-07 01:18:05.36	343.26	70.06	-74.8	-95.7	3.8	8466888	99	39844
2025-01-07 01:18:05.79	342.89	70.22	-74.7	-95.5	3.8	8446609	99	39420
2025-01-07 01:18:06.21	342.52	70.38	-74.8	-95.6	3.8	8454574	99	39496
2025-01-07 01:18:06.64	342.13	70.54	-74.7	-95.7	3.8	8465217	99	40231
2025-01-07 01:18:07.07	341.74	70.70	-74.7	-95.6	3.8	8452938	99	40109
2025-01-07 01:18:07.49	341.35	70.85	-74.8	-95.6	3.8	8472610	99	39513
2025-01-07 01:18:07.92	340.94	71.01	-74.7	-95.7	3.8	8457481	99	40099
2025-01-07 01:18:08.33	340.55	71.16	-74.7	-95.6	3.8	8459678	99	40200
2025-01-07 01:18:08.76	340.13	71.31	-74.7	-95.7	3.8	8452308	99	40288
2025-01-07 01:18:09.18	339.71	71.47	-74.5	-95.2	3.8	8458557	99	38855
2025-01-07 01:18:09.61	339.27	71.62	-74.6	-95.6	3.8	8470458	99	40218
2025-01-07 01:18:10.03	338.84	71.77	-74.8	-95.7	3.8	8456771	99	40138
2025-01-07 01:18:10.46	338.39	71.92	-74.7	-95.4	3.8	8458465	99	38983
2025-01-07 01:18:10.88	337.94	72.07	-74.7	-95.4	3.8	8459735	99	39000
2025-01-07 01:18:11.29	337.49	72.21	-74.8	-95.7	3.8	8448669	99	40207
2025-01-07 01:18:11.71	337.03	72.36	-74.8	-95.7	3.7	8456176	99	39907
2025-01-07 01:18:12.14	336.55	72.51	-74.8	-95.5	3.8	8467632	99	39267
2025-01-07 01:18:12.55	336.08	72.65	-74.8	-95.7	3.8	8458328	99	39934
2025-01-07 01:18:12.98	335.57	72.80	-74.7	-95.6	3.8	8447525	99	39838
2025-01-07 01:18:13.40	335.07	72.94	-74.8	-95.6	3.7	8455833	99	39841
2025-01-07 01:18:13.82	334.57	73.08	-74.7	-95.4	3.8	8456153	99	38886
2025-01-07 01:18:14.23	334.06	73.22	-74.7	-95.6	3.8	8460388	99	39858
2025-01-07 01:18:14.65	333.54	73.36	-74.7	-95.6	3.8	8456680	99	39964
2025-01-07 01:18:15.05	333.03	73.49	-74.7	-95.5	3.7	8463523	99	39464
2025-01-07 01:18:15.45	332.51	73.62	-74.8	-95.6	3.8	8461704	99	39261
2025-01-07 01:18:15.87	331.96	73.76	-74.7	-95.6	3.8	8448211	99	39897
2025-01-07 01:18:16.28	331.41	73.89	-74.8	-95.7	3.8	8464668	99	39885
2025-01-07 01:18:16.72	330.81	74.03	-74.8	-95.4	3.8	8466945	99	38381
2025-01-07 01:18:17.15	330.21	74.16	-74.7	-95.3	3.8	8461544	99	38452
2025-01-07 01:18:17.58	329.60	74.30	-74.7	-95.6	3.8	8461212	99	39871
2025-01-07 01:18:17.99	329.02	74.42	-74.8	-95.7	3.8	8468135	99	39954
2025-01-07 01:18:18.42	328.39	74.55	-74.8	-95.5	3.8	8456714	99	38822
2025-01-07 01:18:18.84	327.76	74.68	-74.8	-95.7	3.8	8463260	99	39912
2025-01-07 01:18:19.27	327.11	74.80	-74.8	-95.7	3.8	8455661	99	39825
2025-01-07 01:18:19.70	326.45	74.93	-74.7	-95.4	3.7	8458969	99	39018
2025-01-07 01:18:20.13	325.78	75.05	-74.8	-95.4	3.8	8472976	99	38987
2025-01-07 01:18:20.56	325.09	75.17	-74.7	-95.7	3.8	8451747	99	40255
2025-01-07 01:18:20.96	324.44	75.28	-74.7	-95.7	3.8	8454368	99	40272
2025-01-07 01:18:21.39	323.74	75.40	-74.7	-95.6	3.8	8475723	99	40034
2025-01-07 01:18:21.83	323.00	75.52	-74.7	-95.6	3.8	8467311	99	40124
2025-01-07 01:18:22.26	322.27	75.63	-74.7	-95.7	3.8	8460868	99	40206
2025-01-07 01:18:22.69	321.52	75.74	-74.6	-95.6	3.7	8473445	99	40137
2025-01-07 01:18:23.10	320.80	75.84	-74.6	-95.5	3.8	8462425	99	39745
2025-01-07 01:18:23.53	320.04	75.95	-74.7	-95.7	3.8	8468273	99	40305
2025-01-07 01:18:23.95	319.28	76.05	-74.7	-95.6	3.8	8460708	99	40096
2025-01-07 01:18:24.37	318.51	76.15	-74.7	-95.7	3.8	8464187	99	40451
2025-01-07 01:18:24.77	317.76	76.24	-74.7	-95.7	3.8	8454402	99	40316
2025-01-07 01:18:25.20	316.95	76.34	-74.6	-95.6	3.8	8461635	99	40148
2025-01-07 01:18:25.63	316.12	76.43	-74.8	-95.7	3.8	8460044	99	39889
2025-01-07 01:18:26.06	315.29	76.52	-74.8	-95.6	3.8	8464828	99	39289
2025-01-07 01:18:26.47	314.48	76.61	-74.8	-95.7	3.8	8459106	99	40033
2025-01-07 01:18:26.89	313.64	76.69	-74.8	-95.7	3.8	8449722	99	39858
2025-01-07 01:18:27.30	312.81	76.77	-74.8	-95.7	3.7	8465927	99	39987
2025-01-07 01:18:27.74	311.91	76.85	-74.7	-95.3	3.8	8455272	99	38707
2025-01-07 01:18:28.17	311.02	76.93	-74.7	-95.6	3.8	8467643	99	40256
2025-01-07 01:18:28.60	310.11	77.00	-74.7	-95.6	3.8	8458179	99	40222
2025-01-07 01:18:29.01	309.24	77.07	-74.6	-95.4	3.8	8463787	99	39534
2025-01-07 01:18:29.44	308.32	77.14	-74.7	-95.6	3.8	8452983	99	39671
2025-01-07 01:18:29.87	307.39	77.20	-74.7	-95.7	3.8	8461738	99	40218
2025-01-07 01:18:30.29	306.47	77.26	-74.7	-95.6	3.8	8460594	99	40245
2025-01-07 01:18:30.70	305.56	77.32	-74.7	-95.4	3.8	8455490	99	38840
2025-01-07 01:18:31.11	304.65	77.37	-74.8	-95.7	3.8	8458248	99	39944
2025-01-07 01:18:31.52	303.73	77.42	-74.7	-95.6	3.8	8458248	99	39928
2025-01-07 01:18:31.95	302.75	77.47	-74.7	-95.6	3.8	8460617	99	39924
2025-01-07 01:18:32.38	301.77	77.51	-74.8	-95.6	3.8	8458110	99	39342
2025-01-07 01:18:32.81	300.78	77.55	-74.7	-95.5	3.8	8457595	99	39735
2025-01-07 01:18:33.24	299.79	77.59	-74.8	-95.7	3.8	8462814	99	39914
2025-01-07 01:18:33.68	298.76	77.62	-74.8	-95.5	3.8	8463100	99	38956
2025-01-07 01:18:34.09	297.80	77.65	-74.7	-95.3	3.8	8467002	99	38934
2025-01-07 01:18:34.52	296.79	77.68	-74.7	-95.6	3.8	8453006	99	39988
2025-01-07 01:18:34.94	295.80	77.70	-74.8	-95.7	3.8	8455570	99	39878
2025-01-07 01:18:35.37	294.78	77.72	-74.8	-95.4	3.8	8464588	99	38479
2025-01-07 01:18:35.79	293.78	77.73	-74.7	-95.6	3.8	8458694	99	39987
2025-01-07 01:18:36.19	292.83	77.74	-74.7	-95.6	3.8	8465698	99	39733
2025-01-07 01:18:36.62	291.81	77.75	-74.7	-95.6	3.8	8458614	99	39847
2025-01-07 01:18:37.04	290.81	77.75	-74.8	-95.4	3.8	8463867	99	38657
2025-01-07 01:18:37.47	289.78	77.75	-74.8	-95.6	3.8	8461864	99	39863
2025-01-07 01:18:37.88	288.80	77.75	-74.7	-95.6	3.8	8459289	99	39966
2025-01-07 01:18:38.31	287.78	77.74	-74.7	-95.5	3.8	8453716	99	39621
2025-01-07 01:18:38.74	286.75	77.73	-74.8	-95.6	3.8	8472908	99	39540
2025-01-07 01:18:39.17	285.73	77.71	-74.7	-95.6	3.8	8458454	99	39883
2025-01-07 01:18:39.59	284.74	77.70	-74.8	-95.7	3.8	8459735	99	39862
2025-01-07 01:18:40.02	283.72	77.67	-74.7	-95.5	3.8	8456233	99	39453
2025-01-07 01:18:40.44	282.74	77.65	-74.7	-95.6	3.8	8464096	99	39938
2025-01-07 01:18:40.87	281.73	77.62	-74.6	-95.6	3.8	8471305	99	40156
2025-01-07 01:18:41.30	280.73	77.58	-74.7	-95.6	3.7	8444480	99	40082
2025-01-07 01:18:41.71	279.78	77.55	-74.7	-95.4	3.8	8456130	99	38980
2025-01-07 01:18:42.14	278.79	77.51	-74.6	-95.5	3.8	8456073	99	40068
2025-01-07 01:18:42.57	277.81	77.46	-74.6	-95.5	3.8	8457126	99	40100
2025-01-07 01:18:43.01	276.82	77.41	-74.7	-95.5	3.9	8459758	99	39711
2025-01-07 01:18:43.42	275.89	77.36	-74.7	-95.5	3.8	8459529	99	39525
2025-01-07 01:18:43.85	274.94	77.31	-74.7	-95.6	3.8	8455741	99	40182
2025-01-07 01:18:44.28	273.99	77.25	-74.7	-95.6	3.8	8468982	99	39888
2025-01-07 01:18:44.70	273.07	77.19	-74.7	-95.4	3.8	8457481	99	38981
2025-01-07 01:18:45.11	272.18	77.13	-74.7	-95.6	3.8	8462024	99	39995
2025-01-07 01:18:45.53	271.28	77.06	-74.7	-95.6	3.8	8459609	99	39974
2025-01-07 01:18:45.96	270.37	76.99	-74.8	-95.6	3.8	8449401	99	39892
2025-01-07 01:18:46.36	269.53	76.92	-74.8	-95.4	3.8	8462688	99	38844
2025-01-07 01:18:46.78	268.66	76.85	-74.7	-95.6	3.8	8468902	99	39948
2025-01-07 01:18:47.20	267.80	76.77	-74.8	-95.6	3.8	8450019	99	39862
2025-01-07 01:18:47.61	266.97	76.69	-74.7	-95.3	3.8	8453281	99	38417
2025-01-07 01:18:48.01	266.17	76.61	-74.7	-95.3	3.8	8450969	99	38555
2025-01-07 01:18:48.43	265.34	76.52	-74.7	-95.6	3.8	8459106	99	39894
2025-01-07 01:18:48.86	264.50	76.43	-74.8	-95.7	3.8	8459323	99	40007
2025-01-07 01:18:49.28	263.70	76.34	-74.7	-95.3	3.8	8472747	99	38922
2025-01-07 01:18:49.68	262.94	76.25	-74.7	-95.3	3.8	8459827	99	38789
2025-01-07 01:18:50.10	262.16	76.15	-74.7	-95.6	3.8	8467369	99	40006
2025-01-07 01:18:50.51	261.40	76.06	-74.7	-95.6	3.8	8453453	99	39936
2025-01-07 01:18:50.94	260.62	75.95	-74.6	-95.3	3.8	8459163	99	39024
2025-01-07 01:18:51.36	259.87	75.85	-74.6	-95.6	3.8	8457378	99	40211
2025-01-07 01:18:51.78	259.13	75.74	-74.6	-95.6	3.8	8463008	99	40155
2025-01-07 01:18:52.21	258.39	75.63	-74.6	-95.5	3.7	8453178	99	40047
2025-01-07 01:18:52.64	257.66	75.52	-74.7	-95.7	3.8	8455959	99	40184
2025-01-07 01:18:53.07	256.94	75.41	-74.8	-95.8	3.8	8464679	99	40290
2025-01-07 01:18:53.48	256.26	75.29	-74.6	-95.5	3.8	8455204	99	40100
2025-01-07 01:18:53.90	255.58	75.18	-74.6	-95.5	3.8	8462608	99	39871
2025-01-07 01:18:54.32	254.91	75.06	-74.6	-95.5	3.8	8463340	99	39925
2025-01-07 01:18:54.72	254.28	74.94	-74.6	-95.5	3.8	8456703	99	40040
2025-01-07 01:18:55.15	253.62	74.82	-74.6	-95.5	3.8	8469451	99	40089
2025-01-07 01:18:55.58	252.96	74.69	-74.6	-95.6	3.8	8469314	99	40241
2025-01-07 01:18:56.00	252.34	74.57	-74.6	-95.6	3.8	8464942	99	40174
2025-01-07 01:18:56.43	251.71	74.44	-74.7	-95.7	3.8	8458534	99	40209
2025-01-07 01:18:56.83	251.13	74.32	-74.7	-95.6	3.8	8469051	99	40295
2025-01-07 01:18:57.26	250.52	74.18	-74.6	-95.7	3.8	8454483	99	40614
2025-01-07 01:18:57.67	249.95	74.05	-74.6	-95.5	3.8	8449092	99	39678
2025-01-07 01:18:58.10	249.36	73.92	-74.6	-95.6	3.8	8463809	99	40344
2025-01-07 01:18:58.53	248.78	73.78	-74.6	-95.3	3.8	8463363	99	38897
2025-01-07 01:18:58.95	248.22	73.65	-74.8	-95.4	3.8	8456840	99	38790
2025-01-07 01:18:59.37	247.68	73.51	-74.7	-95.7	3.8	8465503	99	40227
2025-01-07 01:18:59.80	247.13	73.37	-74.8	-95.7	3.7	8470561	99	40163
2025-01-07 01:19:00.21	246.62	73.23	-74.7	-95.5	3.9	8465160	99	39748
2025-01-07 01:19:00.63	246.10	73.09	-74.6	-95.6	3.8	8463088	99	40191
2025-01-07 01:19:01.05	245.59	72.95	-74.6	-95.6	3.8	8451690	99	40101
2025-01-07 01:19:01.48	245.08	72.80	-74.6	-95.5	3.8	8459186	99	40114
2025-01-07 01:19:01.91	244.57	72.66	-74.6	-95.5	3.8	8461750	99	39681
2025-01-07 01:19:02.32	244.10	72.51	-74.7	-95.7	3.8	8449596	99	40210
2025-01-07 01:19:02.75	243.62	72.36	-74.6	-95.6	3.8	8465469	99	40232
2025-01-07 01:19:03.17	243.15	72.22	-74.6	-95.3	3.8	8462699	99	38951
2025-01-07 01:19:03.58	242.71	72.07	-74.8	-95.5	3.8	8461189	99	38918
2025-01-07 01:19:04.00	242.26	71.93	-74.7	-95.6	3.8	8459987	99	40066
2025-01-07 01:19:04.43	241.80	71.77	-74.7	-95.7	3.7	8452846	99	40277
2025-01-07 01:19:04.86	241.36	71.62	-74.7	-95.4	3.8	8470172	99	39027
2025-01-07 01:19:05.30	240.91	71.46	-74.8	-95.7	3.8	8452068	99	40182
2025-01-07 01:19:05.73	240.48	71.31	-74.7	-95.6	3.8	8471488	99	40199
2025-01-07 01:19:06.14	240.08	71.16	-74.7	-95.6	3.8	8459243	99	40204
2025-01-07 01:19:06.57	239.67	71.00	-74.7	-95.5	3.8	8450889	99	39530
2025-01-07 01:19:06.99	239.27	70.85	-74.7	-95.6	3.9	8463134	99	39690
2025-01-07 01:19:07.41	238.88	70.69	-74.7	-95.7	3.8	8468708	99	40090
2025-01-07 01:19:07.84	238.49	70.53	-74.8	-95.6	3.8	8462768	99	39454
2025-01-07 01:19:08.27	238.10	70.37	-74.8	-95.6	3.8	8453212	99	39591

#Closed at: 2025-01-07 01:19:08