passes_logs/2026/01/12/R2.0S_Moscow/R2.0S_Moscow__20260112_002910_AQUA_rec.log

#Pass ID: 20260112_002910_AQUA
#Satellite: AQUA
#Configuration: AQUA
#almurnet v.1.7.20251203
#Start time: 2026-01-12 00:29:11

#Version: 2.2.20231116
#Station: R2.0S_Moscow
#Location: 37.707566 lon 55.798166 lat
#TLE: 1 27424U 02022A   26011.34052177  .00001139  00000+0  23789-3 0  9999
#TLE: 2 27424  98.4078 337.7066 0002035  82.6124  44.5301 14.61815662260355

#Time	Az	El	Level	Level2	SNR	BER	BlckErr	Temp	State	Recorded	gain1	gain2
2026-01-12 00:29:11.16	21.80	2.04	-42.4	-62.7	3.8	7.45e-01	0	47	0	0	56	37333
2026-01-12 00:29:14.20	21.95	2.23	-42.4	-62.6	3.8	7.45e-01	0	47	104	0	55	39000
2026-01-12 00:29:17.23	22.11	2.42	-42.3	-62.6	3.8	7.44e-01	0	47	104	0	55	39004
2026-01-12 00:29:20.26	22.27	2.62	-42.3	-62.7	3.8	7.44e-01	0	48	104	0	55	39139
2026-01-12 00:29:23.30	22.43	2.81	-42.3	-62.6	3.8	7.45e-01	0	48	104	0	55	39112
2026-01-12 00:29:26.33	22.59	3.01	-42.3	-62.6	3.8	7.45e-01	0	48	104	0	55	38978
2026-01-12 00:29:29.36	22.76	3.20	-42.3	-62.7	3.8	7.43e-01	0	48	104	0	55	39186
2026-01-12 00:29:32.40	22.92	3.40	-42.3	-62.7	3.8	7.44e-01	0	49	104	0	55	39201
2026-01-12 00:29:35.43	23.09	3.60	-42.3	-62.7	3.8	7.44e-01	0	49	104	0	55	39142
2026-01-12 00:29:38.46	23.26	3.80	-42.3	-62.6	3.8	7.44e-01	0	49	104	0	55	39118
2026-01-12 00:29:41.49	23.44	4.00	-42.4	-62.7	3.8	7.45e-01	0	49	104	0	55	39160
2026-01-12 00:29:44.52	23.62	4.21	-42.3	-62.7	3.8	7.44e-01	0	49	104	0	55	39166
2026-01-12 00:29:47.56	23.79	4.41	-42.3	-62.7	3.8	7.45e-01	0	50	104	0	55	39173
2026-01-12 00:29:50.59	23.98	4.62	-42.3	-62.7	3.8	7.46e-01	0	50	104	0	55	39157
2026-01-12 00:29:53.62	24.16	4.83	-42.3	-62.6	3.8	7.46e-01	0	50	104	0	55	39095
2026-01-12 00:29:56.65	24.35	5.04	-42.3	-62.6	3.8	7.45e-01	0	50	104	0	55	38962
2026-01-12 00:29:59.69	24.54	5.25	-42.2	-62.6	3.8	7.47e-01	0	50	104	0	55	38942
2026-01-12 00:30:02.72	24.73	5.46	-42.3	-62.6	3.8	7.42e-01	0	50	104	0	55	39058
2026-01-12 00:30:05.75	24.93	5.68	-42.3	-62.6	3.8	7.48e-01	0	50	104	0	55	39055
2026-01-12 00:30:08.79	25.13	5.89	-42.3	-62.6	3.8	7.47e-01	0	50	104	0	55	39024
2026-01-12 00:30:11.82	25.33	6.11	-42.3	-62.7	3.8	7.45e-01	0	51	104	0	55	39177
2026-01-12 00:30:14.85	25.53	6.33	-42.3	-62.6	3.8	7.46e-01	0	51	104	0	55	38778
2026-01-12 00:30:17.89	25.74	6.56	-42.3	-62.6	3.8	7.45e-01	0	51	104	0	55	38953
2026-01-12 00:30:20.92	25.95	6.78	-42.4	-62.6	3.8	7.48e-01	0	51	104	0	55	38931
2026-01-12 00:30:23.95	26.17	7.01	-42.3	-61.4	3.8	7.45e-01	0	51	104	0	55	34024
2026-01-12 00:30:26.98	26.38	7.23	-42.2	-57.8	4.6	7.19e-01	0	51	104	0	55	22471
2026-01-12 00:30:30.02	26.60	7.46	-41.8	-52.6	8.7	6.36e-01	5	52	0	3670016	55	12299
2026-01-12 00:30:33.05	26.83	7.70	-40.6	-46.5	15.1	6.03e-01	0	52	0	8912896	53	6821
2026-01-12 00:30:36.08	27.06	7.93	-39.5	-43.6	18.1	6.04e-01	0	52	0	14680064	51	5494
2026-01-12 00:30:39.11	27.29	8.17	-41.1	-60.9	3.7	7.44e-01	0	52	104	19922944	53	36076
2026-01-12 00:30:42.14	27.53	8.40	-41.3	-48.0	13.7	6.06e-01	0	52	0	24641536	53	8130
2026-01-12 00:30:45.17	27.77	8.64	-40.6	-44.7	17.5	6.04e-01	0	52	0	30408704	52	5889
2026-01-12 00:30:48.20	28.01	8.89	-40.6	-44.7	17.6	6.04e-01	0	52	0	36175872	52	5871
2026-01-12 00:30:51.23	28.26	9.13	-40.7	-44.5	17.9	6.04e-01	0	52	0	41418752	52	5786
2026-01-12 00:30:54.26	28.51	9.38	-40.5	-43.9	18.8	6.04e-01	0	53	0	47185920	52	5372
2026-01-12 00:30:57.29	28.77	9.63	-40.5	-43.8	18.9	6.03e-01	0	52	0	52953088	52	5306
2026-01-12 00:31:00.32	29.03	9.88	-40.2	-43.3	19.5	6.02e-01	0	53	0	58720256	52	5015
2026-01-12 00:31:03.34	29.30	10.13	-40.2	-43.3	19.5	6.03e-01	0	52	0	64487424	52	5014
2026-01-12 00:31:06.37	29.57	10.39	-40.2	-43.2	19.7	6.02e-01	0	53	0	70254592	52	4932
2026-01-12 00:31:09.40	29.85	10.65	-40.1	-43.0	20.0	6.05e-01	0	53	0	75497472	52	4824
2026-01-12 00:31:12.42	30.13	10.91	-40.1	-42.8	20.1	6.01e-01	0	53	0	81264640	52	4737
2026-01-12 00:31:15.45	30.41	11.17	-40.1	-42.8	20.2	6.05e-01	0	53	0	87031808	52	4724
2026-01-12 00:31:18.48	30.71	11.44	-40.2	-42.9	20.1	6.03e-01	0	53	0	92798976	52	4792
2026-01-12 00:31:21.51	31.01	11.71	-40.1	-42.8	20.3	6.04e-01	0	53	0	98566144	52	4750
2026-01-12 00:31:24.54	31.31	11.98	-40.0	-42.7	20.3	6.05e-01	0	53	0	104333312	52	4657
2026-01-12 00:31:27.57	31.62	12.26	-40.0	-42.5	20.7	6.04e-01	0	53	0	109576192	51	4865
2026-01-12 00:31:30.60	31.93	12.53	-39.9	-42.5	20.5	6.05e-01	0	53	0	115343360	51	4839
2026-01-12 00:31:33.63	32.25	12.81	-39.4	-42.5	18.5	6.04e-01	0	53	0	121110528	50	5115
2026-01-12 00:31:36.66	32.58	13.10	-39.7	-42.5	19.4	6.03e-01	0	53	0	126877696	50	5151
2026-01-12 00:31:39.68	32.92	13.38	-39.6	-42.4	19.5	6.04e-01	0	53	0	132644864	50	5082
2026-01-12 00:31:42.71	33.26	13.67	-38.4	-42.3	16.2	6.04e-01	0	53	0	138412032	48	5599
2026-01-12 00:31:45.74	33.61	13.96	-38.8	-42.3	18.0	6.04e-01	0	54	0	143654912	48	5604
2026-01-12 00:31:48.77	33.96	14.26	-39.7	-42.3	20.1	6.04e-01	0	54	0	149422080	50	5031
2026-01-12 00:31:51.80	34.32	14.56	-39.7	-42.2	20.9	6.04e-01	0	54	0	155189248	50	4938
2026-01-12 00:31:54.83	34.69	14.86	-39.7	-42.1	20.6	6.06e-01	0	54	0	160956416	50	4912
2026-01-12 00:31:57.86	35.07	15.16	-39.8	-42.2	21.2	6.04e-01	0	54	0	166723584	50	4935
2026-01-12 00:32:00.89	35.46	15.47	-39.8	-42.1	21.3	6.03e-01	0	54	0	172490752	50	4904
2026-01-12 00:32:03.92	35.85	15.78	-39.8	-42.2	21.1	6.05e-01	0	54	0	177733632	50	4939
2026-01-12 00:32:06.94	36.26	16.10	-39.8	-42.1	21.4	6.04e-01	0	54	0	183500800	50	4899
2026-01-12 00:32:09.97	36.67	16.41	-39.7	-42.0	21.5	6.02e-01	0	54	0	189267968	50	4837
2026-01-12 00:32:13.00	37.09	16.73	-39.7	-42.0	21.5	6.02e-01	0	54	0	195035136	50	4846
2026-01-12 00:32:16.03	37.52	17.06	-39.9	-42.2	21.3	6.02e-01	0	54	0	200802304	50	4974
2026-01-12 00:32:19.05	37.96	17.39	-39.8	-42.1	21.5	6.03e-01	0	54	0	206045184	50	4882
2026-01-12 00:32:22.08	38.41	17.72	-39.9	-42.2	21.2	6.04e-01	0	54	0	211812352	50	4928
2026-01-12 00:32:25.11	38.87	18.05	-39.7	-42.0	21.6	6.04e-01	0	54	0	217579520	50	4815
2026-01-12 00:32:28.14	39.34	18.39	-39.7	-42.0	21.6	6.05e-01	0	54	0	223346688	50	4827
2026-01-12 00:32:31.17	39.82	18.73	-39.7	-42.0	21.6	6.04e-01	0	54	0	229113856	50	4828
2026-01-12 00:32:34.20	40.32	19.07	-39.7	-42.0	21.6	6.02e-01	0	54	0	234881024	50	4846
2026-01-12 00:32:37.23	40.82	19.42	-39.7	-42.0	21.6	6.04e-01	0	54	0	240648192	50	4854
2026-01-12 00:32:40.26	41.34	19.77	-39.7	-41.9	21.7	6.05e-01	0	54	0	245891072	50	4798
2026-01-12 00:32:43.29	41.87	20.12	-39.8	-42.0	21.6	6.01e-01	0	54	0	251658240	50	4846
2026-01-12 00:32:46.32	42.41	20.48	-39.8	-42.0	21.6	6.02e-01	0	54	0	257425408	50	4843
2026-01-12 00:32:49.35	42.97	20.84	-39.7	-41.9	21.7	6.03e-01	0	55	0	263192576	50	4774
2026-01-12 00:32:52.38	43.54	21.20	-39.8	-42.0	21.7	6.02e-01	0	54	0	268959744	50	4857
2026-01-12 00:32:55.41	44.12	21.57	-39.8	-42.1	21.6	6.03e-01	0	54	0	274726912	50	4894
2026-01-12 00:32:58.44	44.72	21.94	-39.9	-42.1	21.6	6.04e-01	0	54	0	279969792	50	4899
2026-01-12 00:33:01.47	45.33	22.31	-39.8	-42.0	21.7	6.04e-01	0	55	0	285736960	50	4855
2026-01-12 00:33:04.50	45.96	22.69	-39.9	-42.2	21.6	6.06e-01	0	54	0	291504128	50	4939
2026-01-12 00:33:07.53	46.60	23.07	-40.0	-42.2	21.5	6.04e-01	0	55	0	297271296	50	4970
2026-01-12 00:33:10.55	47.26	23.44	-40.0	-42.2	21.5	6.03e-01	0	54	0	303038464	50	4980
2026-01-12 00:33:13.58	47.94	23.83	-40.1	-42.4	21.4	6.03e-01	0	55	0	308805632	50	5081
2026-01-12 00:33:16.61	48.63	24.21	-39.9	-42.1	21.7	6.03e-01	0	55	0	314048512	50	4903
2026-01-12 00:33:19.64	49.34	24.60	-40.0	-42.3	21.4	6.04e-01	0	55	0	319815680	50	5023
2026-01-12 00:33:22.67	50.07	24.99	-40.1	-42.5	21.3	6.04e-01	0	55	0	325582848	50	5118
2026-01-12 00:33:25.70	50.82	25.38	-39.9	-42.1	21.7	6.02e-01	0	55	0	331350016	50	4922
2026-01-12 00:33:28.72	51.58	25.77	-40.0	-42.3	21.5	6.03e-01	0	55	0	337117184	50	5016
2026-01-12 00:33:31.75	52.37	26.16	-40.1	-42.4	21.4	6.04e-01	0	55	0	342360064	50	5086
2026-01-12 00:33:34.79	53.18	26.55	-40.0	-42.2	21.7	6.05e-01	0	55	0	348127232	50	4942
2026-01-12 00:33:37.82	54.01	26.95	-40.1	-42.3	21.5	6.02e-01	0	55	0	353894400	50	5037
2026-01-12 00:33:40.85	54.86	27.34	-40.0	-42.3	21.5	6.02e-01	0	55	0	359661568	50	4991
2026-01-12 00:33:43.87	55.73	27.73	-40.0	-42.2	21.6	6.04e-01	0	55	0	365428736	50	4967
2026-01-12 00:33:46.90	56.62	28.12	-40.0	-42.2	21.7	6.02e-01	0	55	0	371195904	50	4955
2026-01-12 00:33:49.93	57.53	28.51	-40.1	-42.3	21.6	6.04e-01	0	55	0	376963072	50	5023
2026-01-12 00:33:52.96	58.47	28.90	-39.8	-42.0	21.9	6.04e-01	0	55	0	382205952	50	4851
2026-01-12 00:33:55.99	59.43	29.28	-40.1	-42.4	21.6	6.02e-01	0	55	0	387973120	50	5042
2026-01-12 00:33:59.02	60.42	29.67	-40.0	-42.2	21.7	6.04e-01	0	55	0	393740288	50	4939
2026-01-12 00:34:02.05	61.43	30.05	-39.9	-42.1	21.8	6.02e-01	0	55	0	399507456	50	4907
2026-01-12 00:34:05.08	62.46	30.42	-40.0	-42.3	21.7	6.01e-01	0	55	0	405274624	50	4988
2026-01-12 00:34:08.11	63.52	30.79	-39.9	-42.1	21.8	6.04e-01	0	55	0	410517504	50	4913
2026-01-12 00:34:11.13	64.60	31.16	-39.9	-42.1	21.9	6.03e-01	0	55	0	416284672	50	4887
2026-01-12 00:34:14.16	65.71	31.51	-39.9	-42.1	21.8	6.04e-01	0	55	0	422051840	50	4926
2026-01-12 00:34:17.19	66.84	31.87	-39.9	-42.0	21.9	6.03e-01	0	55	0	427819008	50	4866
2026-01-12 00:34:20.21	68.00	32.21	-40.0	-42.2	21.8	6.03e-01	0	55	0	433586176	50	4940
2026-01-12 00:34:23.25	69.19	32.54	-40.0	-42.2	21.8	6.04e-01	0	55	0	439353344	50	4965
2026-01-12 00:34:26.27	70.39	32.87	-39.8	-42.0	22.0	6.04e-01	0	55	0	445120512	50	4821
2026-01-12 00:34:29.30	71.62	33.19	-39.9	-42.0	22.0	6.03e-01	0	55	0	450363392	50	4842
2026-01-12 00:34:32.33	72.88	33.49	-39.8	-41.9	22.1	6.03e-01	0	55	0	456130560	50	4784
2026-01-12 00:34:35.36	74.16	33.78	-40.0	-42.2	21.8	6.06e-01	0	55	0	461897728	50	4956
2026-01-12 00:34:38.39	75.47	34.06	-39.8	-42.0	22.0	6.03e-01	0	55	0	467664896	50	4829
2026-01-12 00:34:41.42	76.79	34.33	-39.9	-42.0	22.1	6.01e-01	0	55	0	473432064	50	4851
2026-01-12 00:34:44.45	78.14	34.58	-39.9	-42.1	22.0	6.03e-01	0	55	0	478674944	50	4896
2026-01-12 00:34:47.48	79.51	34.82	-39.7	-41.8	22.2	6.03e-01	0	55	0	484442112	51	4474
2026-01-12 00:34:50.51	80.90	35.04	-39.8	-41.9	22.1	6.04e-01	0	55	0	490209280	51	4513
2026-01-12 00:34:53.54	82.31	35.24	-39.8	-42.0	22.1	6.03e-01	0	55	0	495976448	51	4551
2026-01-12 00:34:56.56	83.73	35.43	-39.7	-41.8	22.2	6.05e-01	0	55	0	501743616	51	4475
2026-01-12 00:34:59.60	85.17	35.59	-39.8	-41.9	22.2	6.01e-01	0	55	0	507510784	51	4505
2026-01-12 00:35:02.63	86.63	35.74	-39.8	-41.9	22.1	6.04e-01	0	55	0	513277952	51	4508
2026-01-12 00:35:05.65	88.09	35.87	-39.8	-41.9	22.1	6.03e-01	0	55	0	518520832	51	4544
2026-01-12 00:35:08.68	89.57	35.98	-39.8	-41.9	22.2	6.03e-01	0	55	0	524288000	51	4508
2026-01-12 00:35:11.71	91.06	36.07	-39.9	-42.0	22.0	6.03e-01	0	55	0	530055168	51	4576
2026-01-12 00:35:14.74	92.56	36.14	-39.8	-41.9	22.2	6.02e-01	0	55	0	535822336	51	4511
2026-01-12 00:35:17.77	94.06	36.18	-39.7	-41.8	22.2	6.04e-01	0	55	0	541589504	51	4488
2026-01-12 00:35:20.80	95.56	36.21	-39.8	-41.9	22.2	6.03e-01	0	55	0	546832384	51	4502
2026-01-12 00:35:23.83	97.07	36.21	-39.8	-41.9	22.2	6.04e-01	0	55	0	552599552	51	4505
2026-01-12 00:35:26.86	98.57	36.20	-39.8	-41.9	22.1	6.02e-01	0	55	0	558366720	51	4526
2026-01-12 00:35:29.89	100.08	36.16	-39.7	-41.8	22.3	6.03e-01	0	55	0	564133888	51	4442
2026-01-12 00:35:32.92	101.58	36.10	-39.6	-41.7	22.3	6.05e-01	0	55	0	569901056	51	4418
2026-01-12 00:35:35.95	103.07	36.02	-39.6	-41.6	22.4	6.04e-01	0	55	0	575668224	51	4364
2026-01-12 00:35:38.98	104.55	35.91	-39.7	-41.8	22.3	6.04e-01	0	55	0	581435392	51	4452
2026-01-12 00:35:42.01	106.03	35.79	-39.6	-41.6	22.4	6.03e-01	0	55	0	586678272	51	4367
2026-01-12 00:35:45.04	107.49	35.65	-39.5	-41.4	22.6	6.02e-01	0	56	0	592445440	50	4498
2026-01-12 00:35:48.07	108.94	35.49	-39.6	-41.7	22.3	6.03e-01	0	55	0	598212608	50	4681
2026-01-12 00:35:51.10	110.37	35.31	-39.4	-41.4	22.6	6.03e-01	0	55	0	603979776	50	4516
2026-01-12 00:35:54.13	111.79	35.11	-39.6	-41.6	22.4	6.03e-01	0	55	0	609746944	50	4634
2026-01-12 00:35:57.16	113.19	34.90	-39.5	-41.5	22.5	6.04e-01	0	56	0	615514112	50	4570
2026-01-12 00:36:00.19	114.57	34.67	-39.5	-41.5	22.5	6.03e-01	0	55	0	620756992	50	4588
2026-01-12 00:36:03.22	115.93	34.42	-39.3	-41.3	22.8	6.05e-01	0	55	0	626524160	50	4446
2026-01-12 00:36:06.25	117.26	34.16	-39.4	-41.5	22.4	6.02e-01	0	55	0	632291328	50	4547
2026-01-12 00:36:09.28	118.58	33.88	-39.3	-41.2	22.8	6.03e-01	0	56	0	638058496	50	4425
2026-01-12 00:36:12.31	119.87	33.59	-39.2	-41.1	22.9	6.04e-01	0	56	0	643825664	50	4374
2026-01-12 00:36:15.34	121.14	33.29	-39.1	-41.0	23.0	6.05e-01	0	56	0	649592832	50	4312
2026-01-12 00:36:18.37	122.39	32.98	-39.0	-40.9	23.0	6.03e-01	0	56	0	654835712	50	4291
2026-01-12 00:36:21.40	123.61	32.65	-39.2	-41.1	22.9	6.03e-01	0	56	0	660602880	50	4376
2026-01-12 00:36:24.43	124.81	32.32	-39.0	-40.9	23.1	6.02e-01	0	56	0	666370048	50	4287
2026-01-12 00:36:27.45	125.97	31.98	-39.1	-41.0	23.0	6.04e-01	0	55	0	672137216	49	4559
2026-01-12 00:36:30.49	127.12	31.63	-39.0	-40.9	23.1	6.01e-01	0	55	0	677904384	49	4526
2026-01-12 00:36:33.51	128.24	31.27	-39.1	-41.1	22.9	6.03e-01	0	56	0	683671552	49	4609
2026-01-12 00:36:36.54	129.34	30.90	-39.1	-41.1	22.9	6.03e-01	0	56	0	688914432	49	4606
2026-01-12 00:36:39.57	130.41	30.53	-39.1	-41.0	23.0	6.01e-01	0	56	0	694681600	49	4565
2026-01-12 00:36:42.60	131.46	30.16	-39.1	-41.1	22.9	6.04e-01	0	56	0	700448768	49	4631
2026-01-12 00:36:45.62	132.48	29.78	-39.1	-41.0	23.0	6.04e-01	0	56	0	706215936	49	4579
2026-01-12 00:36:48.65	133.47	29.39	-39.2	-41.1	22.9	6.04e-01	0	56	0	711983104	49	4629
2026-01-12 00:36:51.68	134.45	29.01	-39.4	-41.4	22.6	6.04e-01	0	56	0	717750272	49	4773
2026-01-12 00:36:54.71	135.40	28.62	-39.2	-41.2	22.8	6.04e-01	0	56	0	722993152	49	4679
2026-01-12 00:36:57.74	136.32	28.23	-39.4	-41.4	22.5	6.03e-01	0	56	0	728760320	49	4803
2026-01-12 00:37:00.77	137.23	27.83	-39.5	-41.5	22.4	6.06e-01	0	56	0	734527488	49	4845
2026-01-12 00:37:03.80	138.11	27.44	-39.6	-41.7	22.3	6.04e-01	0	56	0	740294656	49	4961
2026-01-12 00:37:06.83	138.97	27.04	-39.6	-41.7	22.3	6.03e-01	0	56	0	746061824	50	4690
2026-01-12 00:37:09.86	139.81	26.65	-39.8	-41.9	22.1	6.04e-01	0	56	0	751304704	50	4794
2026-01-12 00:37:12.89	140.62	26.25	-39.8	-41.9	22.0	6.04e-01	0	56	0	757071872	50	4812
2026-01-12 00:37:15.92	141.42	25.86	-39.6	-41.7	22.3	6.02e-01	0	56	0	762839040	50	4664
2026-01-12 00:37:18.94	142.20	25.46	-39.9	-42.0	21.9	6.03e-01	0	56	0	768606208	50	4862
2026-01-12 00:37:21.97	142.95	25.07	-39.8	-42.0	21.9	6.03e-01	0	56	0	774373376	50	4822
2026-01-12 00:37:25.00	143.69	24.68	-39.9	-42.1	21.8	6.04e-01	0	56	0	780140544	50	4918
2026-01-12 00:37:28.03	144.41	24.29	-40.0	-42.3	21.7	6.04e-01	0	56	0	785907712	50	4985
2026-01-12 00:37:31.06	145.11	23.90	-39.9	-42.1	21.8	6.02e-01	0	56	0	791150592	50	4872
2026-01-12 00:37:34.09	145.80	23.51	-39.9	-42.0	21.8	6.02e-01	0	56	0	796917760	50	4860
2026-01-12 00:37:37.11	146.46	23.13	-39.9	-42.1	21.7	6.04e-01	0	56	0	802684928	50	4914
2026-01-12 00:37:40.15	147.12	22.75	-40.0	-42.3	21.6	6.01e-01	0	56	0	808452096	50	4999
2026-01-12 00:37:43.18	147.75	22.37	-39.8	-42.0	21.9	6.02e-01	0	56	0	814219264	50	4821
2026-01-12 00:37:46.21	148.37	21.99	-39.7	-41.9	22.0	6.05e-01	0	56	0	819462144	50	4769
2026-01-12 00:37:49.23	148.97	21.62	-39.7	-41.9	22.0	6.04e-01	0	56	0	825229312	50	4764
2026-01-12 00:37:52.26	149.56	21.25	-39.7	-41.9	21.9	6.04e-01	0	56	0	830996480	50	4791
2026-01-12 00:37:55.29	150.14	20.88	-39.7	-41.9	21.9	6.02e-01	0	56	0	836763648	50	4783
2026-01-12 00:37:58.32	150.70	20.52	-39.8	-42.0	21.9	6.03e-01	0	56	0	842530816	50	4815
2026-01-12 00:38:01.34	151.24	20.16	-39.7	-41.9	21.9	6.04e-01	0	56	0	848297984	50	4786
2026-01-12 00:38:04.37	151.78	19.80	-39.7	-41.8	21.9	6.04e-01	0	56	0	854065152	50	4758
2026-01-12 00:38:07.39	152.30	19.45	-39.7	-41.9	21.8	6.04e-01	0	56	0	859308032	50	4799
2026-01-12 00:38:10.42	152.81	19.10	-39.7	-41.8	21.9	6.01e-01	0	56	0	865075200	50	4744
2026-01-12 00:38:13.45	153.31	18.75	-39.7	-41.8	21.9	6.02e-01	0	56	0	870842368	50	4747
2026-01-12 00:38:16.48	153.80	18.41	-39.6	-41.7	22.0	6.01e-01	0	56	0	876609536	50	4691
2026-01-12 00:38:19.51	154.27	18.07	-39.5	-41.6	22.1	6.05e-01	0	56	0	882376704	50	4629
2026-01-12 00:38:22.54	154.74	17.73	-39.4	-41.5	22.2	6.02e-01	0	56	0	887619584	50	4569
2026-01-12 00:38:25.57	155.19	17.39	-39.4	-41.5	22.1	6.04e-01	0	56	0	893386752	50	4585
2026-01-12 00:38:28.59	155.63	17.06	-39.7	-41.9	21.8	6.01e-01	0	56	0	899153920	50	4780
2026-01-12 00:38:31.62	156.07	16.74	-39.6	-41.7	22.0	6.02e-01	0	56	0	904921088	50	4683
2026-01-12 00:38:34.65	156.49	16.41	-39.5	-41.6	22.1	6.02e-01	0	56	0	910688256	50	4608
2026-01-12 00:38:37.68	156.91	16.09	-39.6	-41.8	21.9	6.04e-01	0	56	0	916455424	50	4723
2026-01-12 00:38:40.71	157.31	15.77	-39.5	-41.7	21.9	6.04e-01	0	56	0	922222592	50	4678
2026-01-12 00:38:43.74	157.71	15.46	-39.5	-41.6	22.0	6.03e-01	0	56	0	927465472	50	4643
2026-01-12 00:38:46.77	158.10	15.15	-39.5	-41.6	22.0	6.05e-01	0	56	0	933232640	50	4622
2026-01-12 00:38:49.80	158.48	14.84	-39.5	-41.7	21.9	6.04e-01	0	56	0	938999808	50	4666
2026-01-12 00:38:52.82	158.85	14.54	-39.5	-41.7	21.9	6.02e-01	0	56	0	944766976	50	4666
2026-01-12 00:38:55.85	159.22	14.24	-39.6	-41.9	21.7	6.05e-01	0	56	0	950534144	50	4760
2026-01-12 00:38:58.88	159.57	13.94	-39.6	-41.8	21.7	6.02e-01	0	56	0	955777024	50	4739
2026-01-12 00:39:01.91	159.92	13.64	-39.6	-41.8	21.7	6.02e-01	0	56	0	961544192	50	4735
2026-01-12 00:39:04.93	160.27	13.35	-39.6	-41.8	21.7	6.03e-01	0	56	0	967311360	50	4746
2026-01-12 00:39:07.96	160.60	13.06	-39.7	-41.9	21.5	6.02e-01	0	56	0	973078528	50	4804
2026-01-12 00:39:10.99	160.93	12.78	-39.7	-42.0	21.4	6.03e-01	0	56	0	978845696	50	4842
2026-01-12 00:39:14.02	161.25	12.49	-39.7	-42.0	21.4	6.06e-01	0	56	0	984612864	50	4816
2026-01-12 00:39:17.05	161.57	12.21	-39.7	-42.0	21.4	6.03e-01	0	56	0	990380032	50	4857
2026-01-12 00:39:20.08	161.88	11.93	-39.8	-42.1	21.2	6.03e-01	0	56	0	995622912	50	4895
2026-01-12 00:39:23.10	162.18	11.66	-39.8	-42.1	21.1	6.05e-01	0	56	0	1001390080	50	4924
2026-01-12 00:39:26.13	162.48	11.39	-39.8	-42.1	21.2	6.03e-01	0	56	0	1007157248	50	4884
2026-01-12 00:39:29.16	162.77	11.12	-40.0	-42.3	21.0	6.06e-01	0	56	0	1012924416	50	5036
2026-01-12 00:39:32.19	163.06	10.85	-39.9	-42.2	20.9	6.03e-01	0	56	0	1018691584	50	4980
2026-01-12 00:39:35.22	163.34	10.59	-39.9	-42.3	21.0	6.04e-01	0	56	0	1023934464	50	4995
2026-01-12 00:39:38.25	163.62	10.33	-39.9	-42.3	20.8	6.04e-01	0	56	0	1029701632	50	5020
2026-01-12 00:39:41.28	163.89	10.07	-40.0	-42.4	20.7	6.03e-01	0	56	0	1035468800	50	5098
2026-01-12 00:39:44.31	164.16	9.81	-40.0	-42.5	20.6	6.03e-01	0	56	0	1041235968	50	5158
2026-01-12 00:39:47.34	164.42	9.56	-40.2	-42.7	20.3	6.05e-01	0	56	0	1047003136	50	5272
2026-01-12 00:39:50.37	164.68	9.30	-40.2	-42.8	20.2	6.03e-01	0	56	0	1052770304	50	5290
2026-01-12 00:39:53.40	164.93	9.06	-40.4	-43.1	19.9	6.04e-01	0	56	0	1058537472	51	5176
2026-01-12 00:39:56.43	165.18	8.81	-40.2	-42.8	20.1	6.02e-01	0	56	0	1063780352	51	5025
2026-01-12 00:39:59.46	165.42	8.56	-40.2	-42.9	20.0	6.04e-01	0	56	0	1069547520	51	5045
2026-01-12 00:40:02.49	165.66	8.32	-40.3	-43.0	19.8	6.03e-01	0	56	0	1075314688	51	5128
2026-01-12 00:40:05.52	165.90	8.08	-40.3	-43.2	19.5	6.02e-01	0	56	0	1081081856	51	5224
2026-01-12 00:40:08.55	166.13	7.84	-45.7	-64.4	3.8	7.48e-01	0	56	104	1083703296	61	33862
2026-01-12 00:40:11.59	166.36	7.61	-46.1	-64.9	3.8	7.44e-01	0	56	104	1083703296	62	33716
2026-01-12 00:40:14.61	166.58	7.37	-46.1	-65.0	3.8	7.44e-01	0	56	104	1083703296	62	34154
2026-01-12 00:40:17.65	166.80	7.14	-46.1	-65.0	3.8	7.47e-01	0	56	104	1083703296	62	34274
2026-01-12 00:40:20.68	167.02	6.91	-46.0	-64.9	3.8	7.42e-01	0	56	104	1083703296	62	34062
2026-01-12 00:40:23.71	167.23	6.68	-46.0	-64.9	3.8	7.46e-01	0	56	104	1083703296	62	33872
2026-01-12 00:40:26.74	167.44	6.46	-46.0	-64.9	3.8	7.45e-01	0	56	104	1083703296	62	33774
2026-01-12 00:40:29.78	167.65	6.23	-46.0	-64.8	3.8	7.41e-01	0	56	104	1083703296	62	33601
2026-01-12 00:40:32.81	167.85	6.01	-46.0	-64.8	3.8	7.45e-01	0	56	104	1083703296	62	33650
2026-01-12 00:40:35.84	168.05	5.79	-46.0	-64.8	3.8	7.47e-01	0	56	104	1083703296	62	33594
2026-01-12 00:40:38.87	168.25	5.57	-46.0	-64.8	3.8	7.43e-01	0	56	104	1083703296	62	33627
2026-01-12 00:40:41.91	168.44	5.35	-46.0	-64.8	3.8	7.44e-01	0	56	104	1083703296	62	33599
2026-01-12 00:40:44.94	168.64	5.14	-45.9	-64.8	3.8	7.44e-01	0	56	104	1083703296	62	33601
2026-01-12 00:40:47.97	168.82	4.92	-46.0	-64.8	3.8	7.48e-01	0	56	104	1083703296	62	33577
2026-01-12 00:40:51.01	169.01	4.71	-46.0	-64.8	3.8	7.45e-01	0	56	104	1083703296	62	33604
2026-01-12 00:40:54.04	169.19	4.50	-46.0	-64.8	3.8	7.46e-01	0	56	104	1083703296	62	33533
2026-01-12 00:40:57.07	169.37	4.29	-46.0	-64.8	3.8	7.43e-01	0	56	104	1083703296	62	33589
2026-01-12 00:41:00.10	169.55	4.09	-45.9	-64.8	3.8	7.44e-01	0	56	104	1083703296	62	33529
2026-01-12 00:41:03.14	169.72	3.88	-46.0	-64.8	3.8	7.46e-01	0	56	104	1083703296	62	33526
2026-01-12 00:41:06.17	169.90	3.68	-46.0	-64.8	3.8	7.43e-01	0	56	104	1083703296	62	33505
2026-01-12 00:41:09.20	170.06	3.48	-46.0	-64.8	3.8	7.46e-01	0	57	104	1083703296	62	33569
2026-01-12 00:41:12.24	170.23	3.27	-46.0	-64.8	3.8	7.42e-01	0	56	104	1083703296	62	33567
2026-01-12 00:41:15.27	170.40	3.07	-45.9	-64.8	3.8	7.45e-01	0	56	104	1083703296	62	33512
2026-01-12 00:41:18.30	170.56	2.88	-46.0	-64.8	3.8	7.45e-01	0	56	104	1083703296	62	33582
2026-01-12 00:41:21.34	170.72	2.68	-46.0	-64.8	3.8	7.43e-01	0	56	104	1083703296	62	33495
2026-01-12 00:41:24.37	170.88	2.48	-45.9	-64.8	3.8	7.44e-01	0	56	104	1083703296	62	33536
2026-01-12 00:41:27.40	171.03	2.29	-45.9	-64.8	3.8	7.45e-01	0	56	104	1083703296	62	33526
2026-01-12 00:41:30.44	171.19	2.10	-45.9	-64.8	3.8	7.49e-01	0	56	104	1083703296	62	33521
2026-01-12 00:41:33.47	171.34	1.91	-46.0	-64.8	3.8	7.47e-01	0	56	104	1083703296	62	33505

#Closed at: 2026-01-12 00:41:34
#Recorded file [1083 MB]: D:/lorett/data/31039_260112_032910.dat