passes_logs/2026/01/12/R2.0S_Moscow/R2.0S_Moscow__20260112_084159_SUOMI_NPP_rec.log

#Pass ID: 20260112_084159_SUOMI NPP
#Satellite: SUOMI NPP
#Configuration: NPP
#almurnet v.1.7.20251203
#Start time: 2026-01-12 08:41:58

#Version: 2.2.20231116
#Station: R2.0S_Moscow
#Location: 37.707566 lon 55.798166 lat
#TLE: 1 37849U 11061A   26011.29776829  .00000112  00000+0  74065-4 0  9999
#TLE: 2 37849  98.7807 313.3784 0002522  70.0451 290.0996 14.19524507736187

#Time	Az	El	Level	Level2	SNR	BER	BlckErr	Temp	State	Recorded	gain1	gain2
2026-01-12 08:41:58.90	122.84	1.96	-20.9	-37.8	3.9	1.50e+00	0	47	0	0	9	31606
2026-01-12 08:42:02.95	122.62	2.21	-16.6	-35.9	3.8	1.50e+00	0	47	104	0	11	22695
2026-01-12 08:42:06.99	122.41	2.45	-19.2	-36.6	3.9	1.50e+00	0	47	104	0	11	24626
2026-01-12 08:42:11.03	122.19	2.69	-22.0	-36.9	3.9	1.50e+00	0	48	104	0	12	23902
2026-01-12 08:42:15.07	121.96	2.94	-11.6	-31.6	3.8	1.51e+00	0	48	104	0	11	13832
2026-01-12 08:42:19.12	121.73	3.19	-16.3	-36.7	3.9	1.50e+00	0	48	104	0	12	23436
2026-01-12 08:42:23.16	121.50	3.44	-9.1	-31.2	3.5	1.50e+00	0	48	104	0	3	20962
2026-01-12 08:42:27.20	121.26	3.69	-20.1	-37.5	3.9	1.50e+00	0	49	104	0	11	27320
2026-01-12 08:42:31.25	121.02	3.94	-19.6	-37.1	3.8	1.50e+00	0	49	104	0	8	31032
2026-01-12 08:42:35.29	120.77	4.20	-18.0	-34.7	3.8	1.50e+00	0	49	104	0	8	23389
2026-01-12 08:42:39.34	120.52	4.45	-20.2	-36.1	3.9	1.50e+00	0	49	104	0	9	26064
2026-01-12 08:42:43.38	120.27	4.71	-18.0	-38.0	3.9	1.50e+00	0	50	104	0	11	28922
2026-01-12 08:42:47.42	120.01	4.97	-21.8	-39.7	3.6	1.50e+00	0	50	104	0	8	41589
2026-01-12 08:42:51.47	119.74	5.24	-20.6	-38.9	4.0	1.50e+00	0	50	104	0	12	30034
2026-01-12 08:42:55.51	119.48	5.50	-21.5	-36.5	3.9	1.50e+00	0	50	104	0	10	25657
2026-01-12 08:42:59.55	119.20	5.77	-21.3	-39.7	4.0	1.50e+00	0	50	104	0	10	37088
2026-01-12 08:43:03.60	118.92	6.04	-18.7	-38.3	3.7	1.50e+00	0	51	104	0	8	35442
2026-01-12 08:43:07.64	118.64	6.31	-20.2	-35.8	3.9	1.50e+00	0	51	104	0	9	25185
2026-01-12 08:43:11.69	118.34	6.58	-20.8	-37.4	3.9	1.50e+00	0	51	104	0	11	26767
2026-01-12 08:43:15.73	118.05	6.86	-19.9	-38.5	3.7	1.50e+00	0	51	104	0	11	30573
2026-01-12 08:43:19.77	117.74	7.14	-17.6	-37.9	3.9	1.50e+00	0	51	104	0	12	26802
2026-01-12 08:43:23.82	117.44	7.42	-16.5	-34.9	4.0	1.50e+00	0	52	104	0	11	20101
2026-01-12 08:43:27.86	117.12	7.70	-20.6	-37.2	3.6	1.50e+00	0	52	104	0	9	29490
2026-01-12 08:43:31.90	116.80	7.99	-20.4	-38.4	4.3	1.50e+00	0	52	104	0	13	27030
2026-01-12 08:43:35.94	116.47	8.27	-21.8	-37.8	4.3	1.50e+00	0	52	104	0	13	25075
2026-01-12 08:43:39.98	116.14	8.56	-20.8	-39.6	4.0	1.50e+00	0	52	104	0	15	27666
2026-01-12 08:43:44.02	115.80	8.86	-21.6	-38.3	4.3	1.49e+00	0	52	104	0	12	28135
2026-01-12 08:43:48.06	115.45	9.15	-18.8	-37.1	3.6	1.50e+00	0	52	104	0	10	27650
2026-01-12 08:43:52.10	115.09	9.45	-30.2	-43.5	4.0	1.48e+00	0	53	104	0	25	24287
2026-01-12 08:43:56.14	114.73	9.75	-24.4	-41.6	4.2	1.50e+00	0	53	104	0	17	30864
2026-01-12 08:44:00.19	114.36	10.05	-23.1	-40.8	4.0	1.50e+00	0	53	104	0	18	26666
2026-01-12 08:44:04.22	113.98	10.35	-23.1	-41.2	4.0	1.50e+00	0	53	104	0	18	27843
2026-01-12 08:44:08.27	113.59	10.66	-28.8	-43.9	4.8	1.48e+00	0	53	104	0	27	22704
2026-01-12 08:44:12.31	113.20	10.97	-33.2	-44.9	4.7	1.45e+00	0	53	104	0	32	18952
2026-01-12 08:44:16.34	112.79	11.28	-37.2	-46.2	6.7	4.62e-01	0	53	0	3145728	41	13241
2026-01-12 08:44:20.38	112.38	11.60	-36.8	-46.9	6.5	3.63e-01	0	53	0	10485760	43	12750
2026-01-12 08:44:24.43	111.96	11.91	-39.4	-45.8	9.2	1.39e-01	0	53	0	17825792	48	8403
2026-01-12 08:44:28.47	111.53	12.23	-41.1	-46.5	10.0	2.91e-02	0	53	0	25165824	52	7233
2026-01-12 08:44:32.51	111.08	12.56	-41.4	-45.9	10.9	5.17e-03	0	54	0	33554432	53	6382
2026-01-12 08:44:36.54	110.63	12.88	-41.2	-45.3	11.8	9.28e-04	0	54	0	40894464	53	5945
2026-01-12 08:44:40.58	110.17	13.21	-41.3	-45.4	11.7	1.49e-03	0	54	0	48234496	53	5993
2026-01-12 08:44:44.62	109.70	13.54	-40.9	-44.6	12.6	3.60e-04	0	54	0	55574528	52	5828
2026-01-12 08:44:48.65	109.22	13.87	-41.4	-45.6	11.5	8.37e-04	0	54	0	63963136	53	6134
2026-01-12 08:44:52.69	108.72	14.21	-41.4	-45.5	11.6	7.03e-04	0	54	0	71303168	53	6102
2026-01-12 08:44:56.73	108.22	14.54	-41.6	-45.7	11.4	1.00e-03	0	54	0	78643200	53	6262
2026-01-12 08:45:00.77	107.70	14.88	-41.2	-45.0	12.1	5.35e-04	0	54	0	85983232	53	5782
2026-01-12 08:45:04.81	107.17	15.23	-40.8	-44.7	12.4	7.86e-04	0	54	0	93323264	52	5886
2026-01-12 08:45:08.84	106.63	15.57	-40.7	-44.5	12.5	5.39e-04	0	54	0	101711872	52	5787
2026-01-12 08:45:12.89	106.07	15.92	-40.6	-43.7	13.6	7.55e-05	0	54	0	109051904	52	5273
2026-01-12 08:45:16.93	105.50	16.27	-40.6	-43.7	13.6	3.62e-04	0	54	0	116391936	51	5552
2026-01-12 08:45:20.97	104.92	16.62	-40.7	-43.8	13.5	1.36e-04	0	54	0	123731968	51	5645
2026-01-12 08:45:25.01	104.32	16.97	-40.4	-43.4	14.1	1.06e-05	0	54	0	132120576	51	5351
2026-01-12 08:45:29.05	103.71	17.33	-40.7	-43.8	13.7	7.60e-06	0	55	0	139460608	51	5653
2026-01-12 08:45:33.09	103.09	17.69	-40.5	-43.5	14.0	7.60e-06	0	55	0	146800640	52	5129
2026-01-12 08:45:37.13	102.45	18.04	-40.7	-43.9	13.6	9.90e-06	0	55	0	154140672	52	5374
2026-01-12 08:45:41.17	101.79	18.40	-40.5	-43.6	13.9	6.10e-06	0	55	0	161480704	52	5173
2026-01-12 08:45:45.21	101.12	18.77	-40.6	-43.9	13.6	4.50e-06	0	55	0	169869312	52	5343
2026-01-12 08:45:49.25	100.43	19.13	-41.0	-44.3	13.2	2.89e-05	0	55	0	177209344	52	5639
2026-01-12 08:45:53.28	99.73	19.49	-40.9	-44.4	13.0	6.63e-05	0	55	0	184549376	52	5696
2026-01-12 08:45:57.32	99.01	19.85	-41.6	-45.6	11.9	1.59e-04	0	55	0	191889408	53	6169
2026-01-12 08:46:01.36	98.27	20.22	-40.9	-44.2	13.3	2.21e-05	0	55	0	200278016	53	5237
2026-01-12 08:46:05.40	97.51	20.58	-41.2	-44.8	12.8	3.28e-05	0	55	0	207618048	53	5603
2026-01-12 08:46:09.44	96.73	20.95	-41.4	-45.2	12.4	1.32e-04	0	55	0	214958080	53	5856
2026-01-12 08:46:13.48	95.94	21.31	-41.1	-44.5	13.0	5.64e-05	0	55	0	222298112	53	5451
2026-01-12 08:46:17.52	95.13	21.67	-40.9	-44.3	13.3	1.44e-05	0	55	0	229638144	53	5283
2026-01-12 08:46:21.56	94.29	22.04	-40.8	-44.1	13.4	2.44e-05	0	55	0	238026752	53	5165
2026-01-12 08:46:25.59	93.44	22.40	-40.9	-44.3	13.2	1.90e-05	0	55	0	245366784	53	5294
2026-01-12 08:46:29.63	92.57	22.75	-40.0	-42.8	14.8	0.00e+00	0	55	0	252706816	52	4716
2026-01-12 08:46:33.67	91.68	23.11	-39.5	-41.9	15.7	0.00e+00	0	55	0	260046848	51	4522
2026-01-12 08:46:37.71	90.76	23.46	-40.2	-43.0	14.6	0.00e+00	0	55	0	268435456	51	5121
2026-01-12 08:46:41.75	89.83	23.81	-40.3	-43.0	14.6	0.00e+00	0	55	0	275775488	51	5157
2026-01-12 08:46:45.78	88.87	24.16	-39.9	-42.6	15.0	0.00e+00	0	55	0	283115520	51	4876
2026-01-12 08:46:49.83	87.89	24.50	-40.0	-42.6	15.0	0.00e+00	0	55	0	290455552	51	4926
2026-01-12 08:46:53.86	86.90	24.84	-40.2	-43.0	14.7	0.00e+00	0	55	0	297795584	51	5101
2026-01-12 08:46:57.90	85.88	25.17	-40.3	-43.0	14.6	0.00e+00	0	55	0	306184192	51	5158
2026-01-12 08:47:01.94	84.84	25.50	-39.8	-42.4	15.2	0.00e+00	0	55	0	313524224	51	4804
2026-01-12 08:47:05.98	83.77	25.82	-40.0	-42.7	14.9	0.00e+00	0	55	0	320864256	51	4950
2026-01-12 08:47:10.02	82.69	26.13	-40.3	-43.2	14.4	1.50e-06	0	55	0	328204288	51	5278
2026-01-12 08:47:14.06	81.58	26.43	-40.4	-43.3	14.4	0.00e+00	0	55	0	336592896	51	5298
2026-01-12 08:47:18.10	80.46	26.73	-40.8	-44.3	13.4	1.14e-05	0	55	0	343932928	52	5598
2026-01-12 08:47:22.14	79.31	27.01	-40.4	-43.5	14.2	0.00e+00	0	55	0	351272960	52	5157
2026-01-12 08:47:26.18	78.14	27.29	-40.3	-43.2	14.5	1.50e-06	0	55	0	358612992	52	4954
2026-01-12 08:47:30.21	76.96	27.55	-40.5	-43.6	14.1	7.00e-07	0	55	0	365953024	52	5177
2026-01-12 08:47:34.25	75.75	27.81	-40.2	-43.1	14.6	1.50e-06	0	55	0	374341632	52	4919
2026-01-12 08:47:38.29	74.52	28.05	-40.4	-43.3	14.4	7.00e-07	0	55	0	381681664	52	5034
2026-01-12 08:47:42.33	73.28	28.28	-40.9	-44.3	13.4	7.60e-06	0	55	0	389021696	52	5631
2026-01-12 08:47:46.37	72.01	28.49	-40.1	-42.9	14.8	0.00e+00	0	56	0	396361728	52	4803
2026-01-12 08:47:50.40	70.74	28.69	-40.1	-42.8	15.0	0.00e+00	0	56	0	404750336	51	5019
2026-01-12 08:47:54.44	69.45	28.88	-40.7	-43.9	13.9	7.00e-07	0	56	0	412090368	52	5395
2026-01-12 08:47:58.48	68.14	29.05	-41.5	-45.5	12.2	1.93e-04	0	56	0	419430400	53	6093
2026-01-12 08:48:02.52	66.82	29.21	-41.6	-45.6	12.2	4.81e-04	0	56	0	426770432	54	5791
2026-01-12 08:48:06.56	65.48	29.35	-41.4	-45.2	12.5	1.32e-04	0	56	0	434110464	54	5583
2026-01-12 08:48:10.60	64.14	29.47	-41.2	-44.9	12.9	1.83e-05	0	56	0	442499072	53	5667
2026-01-12 08:48:14.64	62.78	29.57	-41.3	-45.2	12.5	1.97e-04	0	56	0	449839104	54	5571
2026-01-12 08:48:18.67	61.42	29.66	-41.5	-45.6	12.1	1.12e-04	0	56	0	457179136	54	5800
2026-01-12 08:48:22.71	60.06	29.73	-41.3	-45.2	12.5	1.96e-04	0	56	0	464519168	54	5557
2026-01-12 08:48:26.76	58.68	29.78	-40.5	-43.6	14.2	0.00e+00	0	56	0	472907776	52	5187
2026-01-12 08:48:30.79	57.31	29.81	-41.3	-44.9	12.9	6.40e-05	0	56	0	480247808	53	5699
2026-01-12 08:48:34.83	55.93	29.82	-41.3	-44.9	12.9	7.17e-05	0	56	0	487587840	53	5709
2026-01-12 08:48:38.88	54.54	29.82	-40.8	-43.9	13.9	1.50e-06	0	56	0	494927872	53	5089
2026-01-12 08:48:42.92	53.17	29.80	-41.3	-44.9	12.9	2.36e-05	0	56	0	502267904	53	5696
2026-01-12 08:48:46.95	51.80	29.75	-40.6	-43.7	14.1	2.20e-06	0	56	0	510656512	53	4947
2026-01-12 08:48:50.99	50.43	29.69	-41.2	-44.8	13.1	2.51e-05	0	56	0	517996544	53	5603
2026-01-12 08:48:55.03	49.06	29.62	-40.5	-43.5	14.4	0.00e+00	0	56	0	525336576	53	4837
2026-01-12 08:48:59.07	47.70	29.52	-40.6	-43.8	14.0	0.00e+00	0	56	0	532676608	52	5291
2026-01-12 08:49:03.11	46.36	29.41	-40.3	-43.3	14.7	0.00e+00	0	56	0	541065216	52	4993
2026-01-12 08:49:07.15	45.02	29.28	-40.7	-43.9	13.9	2.20e-06	0	56	0	548405248	52	5380
2026-01-12 08:49:11.19	43.69	29.13	-41.4	-45.1	12.8	6.40e-05	0	56	0	555745280	53	5805
2026-01-12 08:49:15.23	42.38	28.97	-40.5	-43.4	14.4	1.50e-06	0	56	0	563085312	53	4768
2026-01-12 08:49:19.27	41.08	28.79	-41.4	-45.0	12.8	2.67e-05	0	56	0	570425344	53	5749
2026-01-12 08:49:23.31	39.80	28.59	-41.1	-44.4	13.4	1.29e-05	0	56	0	578813952	53	5393
2026-01-12 08:49:27.35	38.53	28.38	-41.5	-45.2	12.6	6.02e-05	0	56	0	586153984	53	5904
2026-01-12 08:49:31.39	37.28	28.16	-41.6	-45.4	12.4	8.46e-05	0	56	0	593494016	53	6059
2026-01-12 08:49:35.43	36.05	27.93	-42.3	-47.0	10.7	2.52e-03	0	56	0	600834048	55	6483
2026-01-12 08:49:39.46	34.84	27.68	-42.3	-47.0	10.6	1.95e-03	0	56	0	609222656	55	6487
2026-01-12 08:49:43.50	33.65	27.42	-41.9	-46.3	11.4	2.57e-03	0	56	0	616562688	55	5958
2026-01-12 08:49:47.54	32.47	27.15	-40.8	-44.0	13.8	9.10e-06	0	56	0	623902720	53	5126
2026-01-12 08:49:51.58	31.32	26.87	-40.3	-43.2	14.6	0.00e+00	0	56	0	631242752	52	4955
2026-01-12 08:49:55.62	30.18	26.58	-40.0	-42.8	15.0	7.00e-07	0	56	0	638582784	52	4717
2026-01-12 08:49:59.66	29.07	26.28	-41.0	-44.5	13.3	1.98e-05	0	56	0	646971392	52	5728
2026-01-12 08:50:03.70	27.98	25.98	-41.5	-45.4	12.4	9.00e-05	0	56	0	654311424	53	6016
2026-01-12 08:50:07.74	26.91	25.66	-41.7	-45.8	11.9	2.88e-04	0	56	0	661651456	54	5974
2026-01-12 08:50:11.77	25.87	25.34	-40.5	-43.4	14.4	3.00e-06	0	56	0	668991488	52	5077
2026-01-12 08:50:15.81	24.84	25.01	-40.0	-42.7	15.1	0.00e+00	0	56	0	677380096	52	4698
2026-01-12 08:50:19.85	23.84	24.68	-39.8	-42.3	15.5	0.00e+00	0	56	0	684720128	51	4747
2026-01-12 08:50:23.89	22.85	24.34	-39.5	-42.0	15.9	0.00e+00	0	56	0	692060160	51	4569
2026-01-12 08:50:27.93	21.89	24.00	-39.5	-41.9	16.0	0.00e+00	0	56	0	699400192	50	4774
2026-01-12 08:50:31.98	20.95	23.65	-40.2	-43.1	14.8	0.00e+00	0	56	0	706740224	51	5168
2026-01-12 08:50:36.02	20.03	23.30	-40.2	-43.0	14.8	0.00e+00	0	56	0	715128832	51	5134
2026-01-12 08:50:40.06	19.13	22.95	-39.9	-42.6	15.3	7.00e-07	0	56	0	722468864	51	4894
2026-01-12 08:50:44.09	18.25	22.59	-39.0	-41.3	16.5	0.00e+00	0	56	0	729808896	50	4448
2026-01-12 08:50:48.13	17.40	22.23	-39.1	-41.4	16.4	0.00e+00	0	56	0	737148928	49	4778
2026-01-12 08:50:52.17	16.56	21.87	-39.7	-42.2	15.6	0.00e+00	0	56	0	745537536	50	4983
2026-01-12 08:50:56.21	15.74	21.51	-39.6	-42.0	15.9	0.00e+00	0	56	0	752877568	50	4837
2026-01-12 08:51:00.25	14.94	21.15	-39.7	-42.2	15.7	0.00e+00	0	56	0	760217600	50	4936
2026-01-12 08:51:04.28	14.16	20.79	-40.0	-42.6	15.2	0.00e+00	0	56	0	767557632	50	5215
2026-01-12 08:51:08.32	13.40	20.43	-39.5	-41.9	15.9	0.00e+00	0	56	0	774897664	50	4796
2026-01-12 08:51:12.36	12.66	20.06	-39.7	-42.2	15.6	0.00e+00	0	56	0	783286272	50	4945
2026-01-12 08:51:16.40	11.93	19.70	-40.4	-43.2	14.6	0.00e+00	0	56	0	790626304	51	5263
2026-01-12 08:51:20.43	11.22	19.34	-39.9	-42.5	15.2	7.00e-07	0	56	0	797966336	51	4855
2026-01-12 08:51:24.47	10.53	18.98	-39.7	-42.2	15.6	0.00e+00	0	56	0	805306368	51	4656
2026-01-12 08:51:28.51	9.85	18.62	-40.3	-43.2	14.5	0.00e+00	0	56	0	813694976	51	5257
2026-01-12 08:51:32.55	9.20	18.26	-41.3	-45.1	12.5	6.56e-05	0	56	0	821035008	53	5797
2026-01-12 08:51:36.59	8.55	17.90	-40.7	-43.9	13.7	6.80e-06	0	56	0	828375040	53	5075
2026-01-12 08:51:40.63	7.92	17.55	-40.4	-43.5	14.0	2.20e-06	0	56	0	835715072	52	5135
2026-01-12 08:51:44.66	7.31	17.19	-40.9	-44.4	13.1	4.73e-05	0	56	0	843055104	52	5693
2026-01-12 08:51:48.70	6.71	16.84	-40.5	-43.7	13.7	8.30e-06	0	56	0	851443712	52	5256
2026-01-12 08:51:52.74	6.13	16.49	-39.9	-42.7	14.7	7.00e-07	0	56	0	858783744	51	4960
2026-01-12 08:51:56.78	5.56	16.14	-40.0	-42.9	14.5	0.00e+00	0	56	0	866123776	51	5049
2026-01-12 08:52:00.82	5.00	15.79	-40.4	-43.6	13.7	4.50e-06	0	56	0	873463808	51	5490
2026-01-12 08:52:04.86	4.45	15.45	-40.3	-43.6	13.6	1.67e-05	0	56	0	881852416	51	5473
2026-01-12 08:52:08.89	3.92	15.11	-40.0	-43.2	13.9	6.10e-06	0	56	0	889192448	51	5226
2026-01-12 08:52:12.93	3.40	14.77	-40.6	-44.6	12.1	1.87e-04	0	56	0	896532480	51	6143
2026-01-12 08:52:16.97	2.90	14.43	-40.9	-45.9	10.4	5.15e-03	0	56	0	903872512	52	6745
2026-01-12 08:52:21.01	2.40	14.09	-39.8	-43.5	12.8	2.21e-04	0	56	0	911212544	51	5418
2026-01-12 08:52:25.04	1.92	13.76	-39.0	-42.4	13.5	3.80e-06	0	56	0	919601152	49	5400
2026-01-12 08:52:29.08	1.44	13.43	-40.4	-46.6	8.7	1.19e-02	0	56	0	926941184	51	7747
2026-01-12 08:52:33.12	0.98	13.10	-40.9	-51.7	4.4	9.93e-01	0	56	0	934281216	52	13165
2026-01-12 08:52:37.16	0.53	12.78	-40.6	-53.7	3.8	1.49e+00	0	56	104	934281216	52	16512
2026-01-12 08:52:41.19	0.09	12.46	-40.3	-54.8	3.8	1.49e+00	0	56	104	934281216	52	18844
2026-01-12 08:52:45.24	359.65	12.14	-39.9	-54.8	3.8	1.49e+00	0	56	104	934281216	51	19945
2026-01-12 08:52:49.28	359.23	11.82	-40.3	-55.0	3.8	1.49e+00	0	57	104	934281216	51	20431
2026-01-12 08:52:53.32	358.82	11.50	-39.6	-54.7	3.8	1.49e+00	0	56	104	934281216	51	19661
2026-01-12 08:52:57.36	358.41	11.19	-39.8	-54.8	3.8	1.49e+00	0	56	104	934281216	51	19958
2026-01-12 08:53:01.40	358.02	10.88	-39.8	-54.6	3.8	1.49e+00	0	56	104	934281216	50	20550
2026-01-12 08:53:05.44	357.63	10.58	-39.9	-54.6	3.8	1.49e+00	0	56	104	934281216	50	20680
2026-01-12 08:53:09.48	357.25	10.27	-38.9	-54.4	3.8	1.49e+00	0	57	104	934281216	49	21390
2026-01-12 08:53:13.52	356.88	9.97	-38.7	-54.4	3.8	1.49e+00	0	56	104	934281216	49	21411
2026-01-12 08:53:17.56	356.52	9.67	-38.7	-54.3	3.8	1.49e+00	0	56	104	934281216	49	21200
2026-01-12 08:53:21.59	356.17	9.37	-39.1	-54.4	3.8	1.49e+00	0	57	104	934281216	49	21286
2026-01-12 08:53:25.63	355.82	9.08	-39.4	-54.4	3.8	1.49e+00	0	56	104	934281216	50	20191
2026-01-12 08:53:29.67	355.48	8.79	-39.7	-54.5	3.8	1.49e+00	0	57	104	934281216	50	20479
2026-01-12 08:53:33.72	355.14	8.50	-39.7	-54.5	3.8	1.49e+00	0	56	104	934281216	50	20459
2026-01-12 08:53:37.76	354.82	8.21	-39.8	-54.5	3.8	1.49e+00	0	57	104	934281216	50	20391
2026-01-12 08:53:41.80	354.50	7.92	-41.8	-56.5	3.8	1.49e+00	0	57	104	934281216	54	20534
2026-01-12 08:53:45.84	354.18	7.64	-45.0	-59.6	3.8	1.49e+00	0	56	104	934281216	60	20740
2026-01-12 08:53:49.89	353.88	7.36	-45.1	-59.8	3.8	1.49e+00	0	57	104	934281216	60	21070
2026-01-12 08:53:53.93	353.58	7.08	-45.0	-59.7	3.8	1.49e+00	0	56	104	934281216	60	20787
2026-01-12 08:53:57.98	353.28	6.80	-44.9	-59.5	3.8	1.49e+00	0	57	104	934281216	60	20524
2026-01-12 08:54:02.02	352.99	6.53	-44.9	-59.6	3.8	1.49e+00	0	57	104	934281216	60	20574
2026-01-12 08:54:06.07	352.71	6.26	-44.9	-59.5	3.8	1.49e+00	0	56	104	934281216	60	20527
2026-01-12 08:54:10.11	352.43	5.99	-44.9	-59.5	3.8	1.49e+00	0	56	104	934281216	60	20525
2026-01-12 08:54:14.16	352.16	5.72	-44.9	-59.5	3.8	1.49e+00	0	57	104	934281216	60	20440
2026-01-12 08:54:18.20	351.89	5.45	-44.9	-59.5	3.8	1.49e+00	0	57	104	934281216	60	20509
2026-01-12 08:54:22.24	351.63	5.19	-44.9	-59.5	3.8	1.49e+00	0	57	104	934281216	60	20446
2026-01-12 08:54:26.29	351.37	4.93	-44.9	-59.5	3.8	1.49e+00	0	57	104	934281216	60	20493
2026-01-12 08:54:30.33	351.12	4.67	-44.8	-59.5	3.8	1.49e+00	0	57	104	934281216	60	20473
2026-01-12 08:54:34.37	350.87	4.41	-44.9	-59.5	3.8	1.49e+00	0	57	104	934281216	60	20506
2026-01-12 08:54:38.42	350.62	4.16	-44.9	-59.5	3.8	1.49e+00	0	57	104	934281216	60	20405
2026-01-12 08:54:42.46	350.38	3.90	-44.9	-59.5	3.8	1.49e+00	0	57	104	934281216	60	20381
2026-01-12 08:54:46.50	350.15	3.65	-44.8	-59.5	3.8	1.49e+00	0	56	104	934281216	60	20414
2026-01-12 08:54:50.54	349.92	3.40	-44.9	-59.5	3.8	1.49e+00	0	57	104	934281216	60	20414
2026-01-12 08:54:54.59	349.69	3.15	-44.9	-59.5	3.8	1.49e+00	0	57	104	934281216	60	20341
2026-01-12 08:54:58.63	349.47	2.91	-44.9	-59.5	3.8	1.49e+00	0	57	104	934281216	60	20358
2026-01-12 08:55:02.68	349.25	2.66	-44.9	-59.5	3.8	1.49e+00	0	57	104	934281216	60	20376
2026-01-12 08:55:06.72	349.04	2.42	-44.9	-59.5	3.8	1.49e+00	0	57	104	934281216	60	20359
2026-01-12 08:55:10.77	348.83	2.18	-44.9	-59.5	3.8	1.49e+00	0	57	104	934281216	60	20357
2026-01-12 08:55:14.81	348.62	1.94	-44.9	-59.5	3.8	1.49e+00	0	57	104	934281216	60	20355

#Closed at: 2026-01-12 08:55:15
#Recorded file [934 MB]: D:/lorett/data/31039_260112_114158.dat