passes_logs/2026/01/12/R2.0S_Moscow/R2.0S_Moscow__20260112_222855_FENGYUN_3G_rec.log

#Pass ID: 20260112_222855_FENGYUN 3G
#Satellite: FENGYUN 3G
#Configuration: FENGYUN 3G
#almurnet v.1.7.20251203
#Start time: 2026-01-12 22:28:55

#Version: 2.2.20231116
#Station: R2.0S_Moscow
#Location: 37.707566 lon 55.798166 lat
#TLE: 1 56232U 23055A   26012.28315646  .00028343  00000+0  44482-3 0  9993
#TLE: 2 56232  49.9940  69.9476 0004238  14.1066 346.0019 15.53388001155773

#Time	Az	El	Level	Level2	SNR	BER	BlckErr	Temp	State	Recorded	gain1	gain2
2026-01-12 22:28:55.34	219.39	2.01	-44.0	-62.1	3.8	8.46e-01	0	50	0	0	59	29261
2026-01-12 22:28:58.37	219.10	2.19	-44.0	-62.1	3.8	8.47e-01	0	50	104	0	59	29138
2026-01-12 22:29:01.40	218.81	2.38	-43.9	-62.1	3.8	8.47e-01	0	51	104	0	59	29229
2026-01-12 22:29:04.43	218.51	2.57	-44.0	-62.1	3.8	8.46e-01	0	51	104	0	59	29179
2026-01-12 22:29:07.47	218.20	2.76	-43.9	-62.1	3.8	8.45e-01	0	51	104	0	59	29186
2026-01-12 22:29:10.50	217.89	2.95	-43.9	-62.1	3.8	8.46e-01	0	51	104	0	59	29106
2026-01-12 22:29:13.53	217.58	3.14	-43.9	-62.1	3.8	8.46e-01	0	51	104	0	59	29105
2026-01-12 22:29:16.56	217.25	3.33	-43.9	-62.1	3.8	8.46e-01	0	51	104	0	59	29068
2026-01-12 22:29:19.59	216.93	3.53	-43.9	-62.1	3.8	8.46e-01	0	52	104	0	59	29084
2026-01-12 22:29:22.62	216.59	3.72	-43.9	-62.1	3.8	8.46e-01	0	52	104	0	59	29073
2026-01-12 22:29:25.65	216.25	3.92	-43.9	-62.1	3.8	8.45e-01	0	52	104	0	59	29075
2026-01-12 22:29:28.68	215.90	4.12	-43.9	-62.0	3.8	8.46e-01	0	53	104	0	59	28953
2026-01-12 22:29:31.70	215.55	4.32	-43.9	-62.0	3.8	8.46e-01	0	52	104	0	59	29009
2026-01-12 22:29:34.73	215.18	4.52	-43.9	-62.0	3.8	8.46e-01	0	53	104	0	59	28868
2026-01-12 22:29:37.76	214.81	4.73	-43.9	-62.1	3.8	8.46e-01	0	53	104	0	59	29061
2026-01-12 22:29:40.80	214.43	4.93	-43.9	-61.9	3.8	8.46e-01	0	53	104	0	59	28361
2026-01-12 22:29:43.82	214.05	5.14	-43.9	-61.9	3.8	8.46e-01	0	53	104	0	59	28607
2026-01-12 22:29:46.85	213.66	5.34	-43.9	-61.7	3.8	8.46e-01	0	53	104	0	59	27987
2026-01-12 22:29:49.89	213.25	5.55	-43.9	-61.4	3.8	8.47e-01	0	53	104	0	59	27049
2026-01-12 22:29:52.91	212.85	5.77	-43.9	-61.6	3.8	8.46e-01	0	54	104	0	59	27437
2026-01-12 22:29:55.94	212.43	5.98	-43.9	-61.6	3.8	8.46e-01	0	54	104	0	59	27497
2026-01-12 22:29:58.98	212.00	6.19	-43.9	-60.7	3.8	8.46e-01	0	54	104	0	59	24747
2026-01-12 22:30:02.01	211.56	6.41	-43.8	-59.3	4.0	8.44e-01	0	54	104	0	59	21209
2026-01-12 22:30:05.04	211.12	6.63	-43.8	-59.1	4.1	8.41e-01	0	54	0	0	59	20691
2026-01-12 22:30:08.07	210.67	6.84	-43.7	-55.8	5.4	8.35e-01	0	54	0	0	59	14108
2026-01-12 22:30:11.11	210.20	7.06	-43.3	-52.5	8.2	3.85e-01	0	55	0	2621440	58	10278
2026-01-12 22:30:14.14	209.73	7.29	-43.1	-51.5	9.3	2.20e-02	0	55	0	6291456	58	9167
2026-01-12 22:30:17.17	209.24	7.51	-43.8	-59.0	4.1	5.16e-01	0	55	0	8388608	58	21655
2026-01-12 22:30:20.20	208.75	7.73	-43.1	-51.1	9.5	4.15e-01	0	55	0	9437184	58	8740
2026-01-12 22:30:23.23	208.24	7.96	-41.5	-46.3	14.5	2.74e-05	0	55	0	12582912	55	5981
2026-01-12 22:30:26.26	207.73	8.19	-42.4	-48.4	11.9	1.08e-01	0	55	0	16252928	56	7155
2026-01-12 22:30:29.29	207.20	8.42	-43.4	-54.6	6.2	3.76e-03	0	55	0	19398656	57	13825
2026-01-12 22:30:32.32	206.66	8.65	-40.6	-44.2	16.8	0.00e+00	0	55	0	23068672	53	5275
2026-01-12 22:30:35.34	206.11	8.88	-40.6	-44.3	16.8	0.00e+00	0	55	0	26214400	53	5301
2026-01-12 22:30:38.37	205.55	9.11	-40.7	-44.4	16.7	0.00e+00	0	55	0	29884416	53	5390
2026-01-12 22:30:41.40	204.97	9.35	-40.6	-44.1	17.0	0.00e+00	0	55	0	33030144	53	5212
2026-01-12 22:30:44.43	204.38	9.58	-40.3	-43.6	17.6	0.00e+00	0	56	0	36700160	52	5172
2026-01-12 22:30:47.45	203.78	9.82	-40.1	-43.3	17.9	0.00e+00	0	56	0	39845888	52	5040
2026-01-12 22:30:50.48	203.17	10.05	-40.4	-43.7	17.5	0.00e+00	0	56	0	43515904	52	5273
2026-01-12 22:30:53.51	202.54	10.29	-40.4	-43.8	17.4	0.00e+00	0	56	0	46661632	52	5333
2026-01-12 22:30:56.54	201.90	10.53	-40.1	-43.2	18.1	0.00e+00	0	56	0	50331648	52	4963
2026-01-12 22:30:59.56	201.24	10.77	-40.1	-43.2	18.2	0.00e+00	0	56	0	53477376	51	5264
2026-01-12 22:31:02.60	200.57	11.01	-40.3	-43.5	17.9	0.00e+00	0	56	0	57147392	51	5412
2026-01-12 22:31:05.63	199.88	11.25	-40.3	-43.5	18.0	0.00e+00	0	56	0	60293120	51	5423
2026-01-12 22:31:08.66	199.18	11.49	-39.8	-42.7	18.8	0.00e+00	0	56	0	63963136	51	4953
2026-01-12 22:31:11.68	198.47	11.73	-39.5	-42.2	19.3	0.00e+00	0	56	0	67108864	51	4661
2026-01-12 22:31:14.71	197.74	11.98	-39.7	-42.6	19.0	0.00e+00	0	56	0	70778880	51	4873
2026-01-12 22:31:17.74	196.99	12.22	-40.1	-43.1	18.5	0.00e+00	0	57	0	73924608	51	5160
2026-01-12 22:31:20.77	196.22	12.46	-39.9	-42.7	18.8	0.00e+00	0	56	0	77594624	51	4982
2026-01-12 22:31:23.80	195.44	12.70	-39.5	-42.1	19.5	0.00e+00	0	56	0	80740352	50	4919
2026-01-12 22:31:26.83	194.64	12.94	-39.7	-42.4	19.2	0.00e+00	0	56	0	84410368	50	5071
2026-01-12 22:31:29.86	193.83	13.18	-39.8	-42.6	19.0	0.00e+00	0	57	0	87556096	50	5200
2026-01-12 22:31:32.89	193.00	13.41	-39.4	-42.0	19.6	0.00e+00	0	57	0	91226112	50	4870
2026-01-12 22:31:35.91	192.15	13.65	-39.3	-41.8	19.8	0.00e+00	0	57	0	94371840	50	4720
2026-01-12 22:31:38.94	191.28	13.88	-39.3	-41.8	19.8	0.00e+00	0	57	0	98041856	50	4741
2026-01-12 22:31:41.97	190.40	14.11	-39.4	-41.9	19.7	0.00e+00	0	57	0	101187584	50	4802
2026-01-12 22:31:45.00	189.50	14.34	-39.3	-41.9	19.8	0.00e+00	0	57	0	104857600	50	4769
2026-01-12 22:31:48.03	188.58	14.57	-39.5	-42.1	19.6	0.00e+00	0	57	0	108003328	50	4895
2026-01-12 22:31:51.05	187.64	14.79	-39.4	-42.0	19.6	0.00e+00	0	57	0	111673344	50	4869
2026-01-12 22:31:54.08	186.69	15.01	-38.9	-41.3	20.3	0.00e+00	0	57	0	114819072	49	4726
2026-01-12 22:31:57.11	185.71	15.23	-38.6	-40.9	20.7	0.00e+00	0	57	0	118489088	49	4535
2026-01-12 22:32:00.14	184.72	15.44	-38.7	-41.0	20.6	0.00e+00	0	57	0	121634816	48	4862
2026-01-12 22:32:03.17	183.71	15.65	-38.7	-41.0	20.6	0.00e+00	0	57	0	125304832	48	4824
2026-01-12 22:32:06.19	182.69	15.85	-38.4	-40.6	20.9	0.00e+00	0	57	0	128450560	48	4650
2026-01-12 22:32:09.22	181.64	16.05	-38.4	-40.6	21.0	0.00e+00	0	57	0	132120576	48	4637
2026-01-12 22:32:12.25	180.58	16.24	-38.5	-40.8	20.8	0.00e+00	0	57	0	135266304	48	4742
2026-01-12 22:32:15.28	179.50	16.42	-38.4	-40.7	20.9	0.00e+00	0	57	0	138936320	48	4655
2026-01-12 22:32:18.31	178.41	16.60	-38.3	-40.4	21.1	0.00e+00	0	57	0	142082048	48	4544
2026-01-12 22:32:21.34	177.29	16.77	-38.5	-40.7	20.9	0.00e+00	0	57	0	145752064	48	4685
2026-01-12 22:32:24.36	176.17	16.94	-38.3	-40.5	21.1	0.00e+00	0	57	0	148897792	48	4568
2026-01-12 22:32:27.39	175.03	17.09	-38.3	-40.5	21.1	0.00e+00	0	57	0	152567808	48	4573
2026-01-12 22:32:30.42	173.87	17.24	-38.2	-40.4	21.4	0.00e+00	0	58	0	155713536	48	4502
2026-01-12 22:32:33.45	172.70	17.38	-38.1	-40.2	21.6	0.00e+00	0	58	0	159383552	48	4398
2026-01-12 22:32:36.48	171.52	17.51	-38.4	-40.6	21.1	0.00e+00	0	58	0	162529280	48	4634
2026-01-12 22:32:39.51	170.33	17.63	-38.3	-40.4	21.3	0.00e+00	0	58	0	166199296	48	4515
2026-01-12 22:32:42.53	169.13	17.74	-37.7	-39.7	22.0	0.00e+00	0	58	0	169345024	47	4431
2026-01-12 22:32:45.56	167.91	17.84	-37.8	-39.8	22.1	0.00e+00	0	58	0	173015040	47	4457
2026-01-12 22:32:48.59	166.69	17.93	-37.7	-39.7	22.1	0.00e+00	0	58	0	176160768	47	4437
2026-01-12 22:32:51.62	165.45	18.01	-37.9	-40.0	21.8	0.00e+00	0	58	0	179830784	47	4561
2026-01-12 22:32:54.65	164.21	18.07	-38.0	-40.1	21.7	0.00e+00	0	58	0	182976512	47	4609
2026-01-12 22:32:57.68	162.97	18.13	-37.9	-40.0	21.9	0.00e+00	0	58	0	186646528	47	4562
2026-01-12 22:33:00.71	161.72	18.17	-38.2	-40.3	21.6	0.00e+00	0	58	0	189792256	47	4720
2026-01-12 22:33:03.74	160.46	18.21	-38.2	-40.4	21.6	0.00e+00	0	58	0	193462272	47	4760
2026-01-12 22:33:06.77	159.20	18.23	-38.1	-40.2	21.6	0.00e+00	0	58	0	196608000	47	4692
2026-01-12 22:33:09.79	157.95	18.24	-37.8	-39.8	22.1	0.00e+00	0	58	0	200278016	47	4466
2026-01-12 22:33:12.82	156.69	18.23	-37.7	-39.7	22.2	0.00e+00	0	58	0	203423744	47	4401
2026-01-12 22:33:15.84	155.43	18.22	-38.4	-40.6	21.3	0.00e+00	0	58	0	207093760	47	4896
2026-01-12 22:33:18.88	154.17	18.19	-38.2	-40.3	21.6	0.00e+00	0	58	0	210239488	47	4746
2026-01-12 22:33:21.90	152.93	18.15	-37.7	-39.7	22.2	0.00e+00	0	58	0	213909504	47	4414
2026-01-12 22:33:24.93	151.68	18.10	-37.6	-39.7	22.2	0.00e+00	0	58	0	217055232	47	4396
2026-01-12 22:33:27.96	150.44	18.04	-38.0	-40.1	21.7	0.00e+00	0	58	0	220725248	47	4632
2026-01-12 22:33:30.99	149.20	17.97	-37.7	-39.7	22.0	0.00e+00	0	58	0	223870976	47	4429
2026-01-12 22:33:34.02	147.97	17.88	-37.3	-39.2	22.5	0.00e+00	0	58	0	227540992	46	4435
2026-01-12 22:33:37.05	146.75	17.79	-37.7	-39.7	22.1	0.00e+00	0	58	0	230686720	46	4692
2026-01-12 22:33:40.08	145.55	17.68	-38.2	-40.3	21.4	0.00e+00	0	58	0	234356736	46	5041
2026-01-12 22:33:43.11	144.35	17.57	-37.9	-40.0	21.7	0.00e+00	0	58	0	237502464	47	4584
2026-01-12 22:33:46.14	143.16	17.44	-37.9	-40.0	21.7	0.00e+00	0	58	0	241172480	47	4553
2026-01-12 22:33:49.17	141.99	17.31	-37.9	-40.1	21.6	0.00e+00	0	58	0	244318208	47	4612
2026-01-12 22:33:52.20	140.83	17.17	-38.3	-40.6	21.0	0.00e+00	0	58	0	247988224	47	4873
2026-01-12 22:33:55.22	139.69	17.02	-38.0	-40.1	21.5	0.00e+00	0	58	0	251133952	47	4630
2026-01-12 22:33:58.25	138.56	16.86	-38.4	-40.6	21.0	0.00e+00	0	58	0	254803968	47	4918
2026-01-12 22:34:01.29	137.44	16.69	-38.1	-40.3	21.2	0.00e+00	0	58	0	257949696	47	4758
2026-01-12 22:34:04.31	136.34	16.52	-38.2	-40.4	21.1	0.00e+00	0	58	0	261619712	46	5095
2026-01-12 22:34:07.34	135.26	16.33	-38.2	-40.8	20.6	9.10e-06	0	58	0	264765440	47	5038
2026-01-12 22:34:10.37	134.20	16.15	-38.0	-40.8	20.5	2.40e-05	0	58	0	268435456	47	5028
2026-01-12 22:34:13.40	133.15	15.95	-38.8	-41.4	19.7	7.09e-05	0	58	0	271581184	47	5379
2026-01-12 22:34:16.42	132.12	15.75	-37.0	-41.3	19.1	2.95e-04	0	58	0	275251200	45	5988
2026-01-12 22:34:19.45	131.10	15.55	-37.0	-40.6	19.5	2.76e-04	0	58	0	278396928	43	6174
2026-01-12 22:34:22.48	130.11	15.34	-38.6	-41.2	19.3	3.62e-04	0	58	0	282066944	47	5230
2026-01-12 22:34:25.51	129.13	15.13	-36.8	-40.8	19.1	4.06e-04	0	59	0	285212672	45	5644
2026-01-12 22:34:28.53	128.17	14.91	-38.5	-41.2	19.5	5.44e-03	0	58	0	288882688	47	5232
2026-01-12 22:34:31.56	127.23	14.69	-38.9	-41.6	19.4	8.58e-05	0	58	0	292028416	48	5164
2026-01-12 22:34:34.59	126.30	14.47	-38.1	-41.8	18.5	2.36e-04	0	59	0	295698432	48	5286
2026-01-12 22:34:37.61	125.40	14.24	-39.0	-41.7	19.3	2.87e-04	0	59	0	298844160	48	5250
2026-01-12 22:34:40.64	124.51	14.01	-38.5	-41.2	19.6	1.33e-04	0	58	0	302514176	47	5261
2026-01-12 22:34:43.67	123.64	13.78	-36.6	-41.9	18.9	9.49e-05	0	58	0	305659904	46	6024
2026-01-12 22:34:46.70	122.78	13.54	-35.8	-42.0	18.0	1.41e-04	0	58	0	309329920	43	7274
2026-01-12 22:34:49.74	121.94	13.31	-36.1	-41.9	18.1	1.01e-04	0	59	0	312475648	44	6753
2026-01-12 22:34:52.76	121.13	13.07	-37.3	-42.1	18.2	9.38e-05	0	59	0	316145664	45	6495
2026-01-12 22:34:55.80	120.32	12.83	-39.5	-42.5	17.4	1.44e-04	0	59	0	319291392	49	5405
2026-01-12 22:34:58.82	119.54	12.60	-39.3	-42.5	18.3	5.14e-05	0	59	0	322961408	49	5405
2026-01-12 22:35:01.85	118.77	12.36	-39.0	-42.0	18.8	5.70e-06	0	59	0	326107136	48	5452
2026-01-12 22:35:04.88	118.02	12.12	-35.9	-42.1	16.7	2.20e-06	0	59	0	329777152	43	7308
2026-01-12 22:35:07.91	117.28	11.88	-39.2	-42.8	17.2	1.02e-05	0	59	0	332922880	48	5986
2026-01-12 22:35:10.94	116.56	11.64	-38.2	-43.1	16.5	3.20e-05	0	59	0	336592896	47	6513
2026-01-12 22:35:13.97	115.86	11.40	-37.0	-42.4	16.3	1.48e-04	0	59	0	339738624	44	7133
2026-01-12 22:35:17.00	115.17	11.16	-36.5	-42.8	14.2	5.71e-04	0	59	0	343408640	42	8374
2026-01-12 22:35:20.03	114.49	10.92	-37.9	-43.8	15.6	1.23e-04	0	59	0	346554368	47	7066
2026-01-12 22:35:23.06	113.83	10.68	-38.0	-43.1	16.3	9.61e-05	0	59	0	350224384	46	6905
2026-01-12 22:35:26.08	113.19	10.44	-34.4	-42.8	12.3	1.29e-04	0	59	0	353370112	39	9947
2026-01-12 22:35:29.11	112.56	10.20	-36.3	-45.4	13.2	6.35e-04	0	59	0	357040128	45	9569
2026-01-12 22:35:32.14	111.94	9.97	-39.4	-45.6	13.1	7.83e-04	0	59	0	360185856	46	9198
2026-01-12 22:35:35.17	111.34	9.73	-38.5	-45.3	13.9	4.22e-04	0	59	0	363855872	51	6713
2026-01-12 22:35:38.20	110.74	9.50	-40.2	-44.7	15.3	4.16e-04	0	59	0	367001600	51	6239
2026-01-12 22:35:41.22	110.17	9.26	-39.7	-43.4	16.7	2.20e-06	0	59	0	370671616	50	5710
2026-01-12 22:35:44.25	109.60	9.03	-39.2	-43.7	16.6	3.40e-06	0	59	0	373817344	50	5922
2026-01-12 22:35:47.28	109.05	8.80	-39.5	-44.5	15.6	2.20e-06	0	59	0	377487360	50	6447
2026-01-12 22:35:50.31	108.51	8.57	-39.4	-44.4	15.3	3.43e-05	0	59	0	380633088	50	6391
2026-01-12 22:35:53.34	107.98	8.34	-39.9	-44.3	15.3	3.40e-06	0	59	0	384303104	50	6322
2026-01-12 22:35:56.37	107.46	8.12	-39.7	-45.0	13.7	1.94e-04	0	59	0	387448832	48	7688
2026-01-12 22:35:59.40	106.95	7.89	-44.6	-62.6	3.8	8.31e-01	0	59	104	389021696	59	30867
2026-01-12 22:36:02.43	106.45	7.67	-45.2	-63.3	3.8	8.46e-01	0	59	104	389021696	60	31623
2026-01-12 22:36:05.46	105.97	7.44	-45.5	-63.7	3.8	8.46e-01	0	59	104	389021696	61	31126
2026-01-12 22:36:08.49	105.49	7.22	-45.5	-63.7	3.8	8.47e-01	0	59	104	389021696	61	31267
2026-01-12 22:36:11.52	105.02	7.00	-45.3	-63.6	3.8	8.46e-01	0	59	104	389021696	61	30808
2026-01-12 22:36:14.55	104.57	6.78	-45.2	-63.5	3.8	8.46e-01	0	59	104	389021696	61	30649
2026-01-12 22:36:17.58	104.12	6.57	-45.2	-63.5	3.8	8.46e-01	0	59	104	389021696	61	30593
2026-01-12 22:36:20.60	103.69	6.35	-45.2	-63.5	3.8	8.47e-01	0	59	104	389021696	61	30623
2026-01-12 22:36:23.63	103.26	6.14	-45.2	-63.5	3.8	8.46e-01	0	59	104	389021696	61	30536
2026-01-12 22:36:26.66	102.84	5.92	-45.2	-63.5	3.8	8.45e-01	0	59	104	389021696	61	30496
2026-01-12 22:36:29.69	102.43	5.71	-45.2	-63.5	3.8	8.46e-01	0	59	104	389021696	61	30613
2026-01-12 22:36:32.72	102.02	5.50	-45.2	-63.5	3.8	8.47e-01	0	59	104	389021696	61	30553
2026-01-12 22:36:35.75	101.63	5.30	-45.2	-63.5	3.8	8.46e-01	0	59	104	389021696	61	30491
2026-01-12 22:36:38.79	101.24	5.09	-45.1	-63.5	3.8	8.47e-01	0	59	104	389021696	61	30457
2026-01-12 22:36:41.81	100.86	4.89	-45.2	-63.5	3.8	8.45e-01	0	59	104	389021696	61	30532
2026-01-12 22:36:44.84	100.49	4.68	-45.1	-63.5	3.8	8.46e-01	0	59	104	389021696	61	30431
2026-01-12 22:36:47.87	100.13	4.48	-45.1	-63.4	3.8	8.46e-01	0	59	104	389021696	61	30346
2026-01-12 22:36:50.90	99.77	4.28	-45.1	-63.5	3.8	8.46e-01	0	59	104	389021696	61	30401
2026-01-12 22:36:53.93	99.42	4.08	-45.1	-63.5	3.8	8.46e-01	0	59	104	389021696	61	30419
2026-01-12 22:36:56.96	99.08	3.88	-45.1	-63.4	3.8	8.47e-01	0	59	104	389021696	61	30293
2026-01-12 22:36:59.98	98.74	3.69	-45.1	-63.4	3.8	8.47e-01	0	59	104	389021696	61	30357
2026-01-12 22:37:03.01	98.41	3.49	-45.1	-63.5	3.8	8.45e-01	0	59	104	389021696	61	30451
2026-01-12 22:37:06.04	98.09	3.30	-45.1	-63.4	3.8	8.46e-01	0	59	104	389021696	61	30360
2026-01-12 22:37:09.07	97.77	3.11	-45.1	-63.4	3.8	8.46e-01	0	59	104	389021696	61	30272
2026-01-12 22:37:12.10	97.46	2.92	-45.1	-63.4	3.8	8.47e-01	0	59	104	389021696	61	30319
2026-01-12 22:37:15.13	97.16	2.73	-45.1	-63.4	3.8	8.47e-01	0	59	104	389021696	61	30306
2026-01-12 22:37:18.15	96.86	2.54	-45.1	-63.5	3.8	8.46e-01	0	59	104	389021696	61	30426
2026-01-12 22:37:21.17	96.56	2.36	-45.1	-63.4	3.8	8.47e-01	0	59	104	389021696	61	30290
2026-01-12 22:37:24.20	96.28	2.17	-45.1	-63.4	3.8	8.46e-01	0	59	104	389021696	61	30239

#Closed at: 2026-01-12 22:37:27
#Recorded file [389 MB]: D:/lorett/data/31039_260113_012855.dat