passes_logs/2026/01/12/R2.0S_Moscow/R2.0S_Moscow__20260112_045609_FENGYUN_3E_rec.log

#Pass ID: 20260112_045609_FENGYUN 3E
#Satellite: FENGYUN 3E
#Configuration: FENGYUN 3E
#almurnet v.1.7.20251203
#Start time: 2026-01-12 04:56:08

#Version: 2.2.20231116
#Station: R2.0S_Moscow
#Location: 37.707566 lon 55.798166 lat
#TLE: 1 49008U 21062A   26011.27090272  .00000463  00000+0  23869-3 0  9994
#TLE: 2 49008  98.7490  16.4432 0001856 145.0812 215.0487 14.19886022234312

#Time	Az	El	Level	Level2	SNR	BER	BlckErr	Temp	State	Recorded	gain1	gain2
2026-01-12 04:56:08.43	12.34	1.97	-40.2	-51.1	3.8	8.47e-01	0	47	0	0	51	12336
2026-01-12 04:56:12.46	12.18	2.22	-40.2	-51.1	3.8	8.46e-01	0	47	104	0	51	12322
2026-01-12 04:56:16.51	12.03	2.47	-40.2	-51.1	3.8	8.46e-01	0	47	104	0	51	12321
2026-01-12 04:56:20.55	11.87	2.72	-40.2	-51.1	3.8	8.47e-01	0	48	104	0	51	12342
2026-01-12 04:56:24.59	11.70	2.97	-40.2	-51.1	3.8	8.46e-01	0	48	104	0	51	12315
2026-01-12 04:56:28.64	11.54	3.23	-40.2	-51.1	3.8	8.46e-01	0	48	104	0	51	12287
2026-01-12 04:56:32.68	11.36	3.49	-40.2	-51.1	3.8	8.45e-01	0	48	104	0	51	12286
2026-01-12 04:56:36.72	11.19	3.75	-40.2	-51.1	3.8	8.47e-01	0	49	104	0	51	12238
2026-01-12 04:56:40.76	11.01	4.01	-40.2	-51.0	3.8	8.46e-01	0	49	104	0	51	12223
2026-01-12 04:56:44.81	10.83	4.28	-40.2	-51.0	3.8	8.46e-01	0	49	104	0	51	12210
2026-01-12 04:56:48.85	10.65	4.54	-40.2	-51.1	3.8	8.46e-01	0	50	104	0	51	12274
2026-01-12 04:56:52.89	10.46	4.81	-40.2	-51.1	3.8	8.46e-01	0	50	104	0	51	12255
2026-01-12 04:56:56.93	10.27	5.09	-40.2	-51.1	3.8	8.46e-01	0	50	104	0	51	12271
2026-01-12 04:57:00.98	10.07	5.36	-40.2	-51.1	3.8	8.45e-01	0	50	104	0	51	12261
2026-01-12 04:57:05.02	9.88	5.64	-40.2	-51.1	3.8	8.46e-01	0	51	104	0	51	12296
2026-01-12 04:57:09.07	9.67	5.92	-40.2	-51.1	3.8	8.46e-01	0	51	104	0	51	12340
2026-01-12 04:57:13.11	9.46	6.20	-40.2	-51.1	3.8	8.45e-01	0	51	104	0	51	12317
2026-01-12 04:57:17.15	9.25	6.49	-40.2	-51.1	3.8	8.45e-01	0	51	104	0	51	12339
2026-01-12 04:57:21.19	9.03	6.77	-40.2	-51.1	3.8	8.47e-01	0	51	104	0	51	12322
2026-01-12 04:57:25.24	8.81	7.07	-40.2	-51.1	3.8	8.47e-01	0	52	104	0	51	12295
2026-01-12 04:57:29.28	8.59	7.36	-40.2	-51.1	3.8	8.47e-01	0	51	104	0	51	12290
2026-01-12 04:57:33.33	8.35	7.66	-40.2	-51.1	3.8	8.45e-01	0	52	104	0	51	12321
2026-01-12 04:57:37.37	8.12	7.96	-40.2	-51.1	3.8	8.46e-01	0	52	104	0	51	12244
2026-01-12 04:57:41.41	7.87	8.26	-40.2	-51.1	3.8	8.46e-01	0	52	104	0	51	12247
2026-01-12 04:57:45.45	7.63	8.57	-40.3	-51.2	3.8	8.46e-01	0	52	104	0	51	12432
2026-01-12 04:57:49.49	7.37	8.87	-40.2	-51.1	3.8	8.46e-01	0	52	104	0	51	12345
2026-01-12 04:57:53.54	7.12	9.19	-40.3	-51.2	3.8	8.46e-01	0	53	104	0	51	12473
2026-01-12 04:57:57.58	6.85	9.50	-40.2	-51.1	3.8	8.46e-01	0	53	104	0	51	12375
2026-01-12 04:58:01.62	6.58	9.82	-40.4	-51.3	3.8	8.47e-01	0	53	104	0	51	12635
2026-01-12 04:58:05.66	6.30	10.15	-40.5	-51.5	3.8	8.46e-01	0	53	104	0	51	12864
2026-01-12 04:58:09.70	6.02	10.47	-40.7	-51.7	3.8	8.46e-01	0	53	104	0	51	13131
2026-01-12 04:58:13.74	5.73	10.80	-40.4	-51.3	3.8	8.46e-01	0	53	104	0	51	12605
2026-01-12 04:58:17.78	5.43	11.14	-40.3	-51.2	3.8	8.45e-01	0	53	104	0	51	12497
2026-01-12 04:58:21.82	5.13	11.47	-41.7	-48.8	4.5	8.18e-01	0	53	0	0	52	8927
2026-01-12 04:58:25.86	4.81	11.81	-40.8	-46.1	6.0	3.74e-01	0	54	0	4194304	52	6558
2026-01-12 04:58:29.90	4.49	12.16	-41.3	-47.1	5.4	7.04e-01	0	54	0	30408704	52	7345
2026-01-12 04:58:33.95	4.16	12.51	-40.4	-45.0	6.8	1.91e-01	0	54	0	47185920	51	6108
2026-01-12 04:58:37.99	3.83	12.86	-40.6	-45.7	6.2	2.77e-01	0	54	0	76546048	50	7012
2026-01-12 04:58:42.02	3.48	13.22	-38.8	-41.8	10.1	1.05e-02	0	54	0	105906176	48	5019
2026-01-12 04:58:46.06	3.13	13.58	-36.0	-37.8	14.0	9.10e-06	0	54	0	135266304	43	4230
2026-01-12 04:58:50.10	2.77	13.95	-35.2	-36.7	15.9	0.00e+00	0	54	0	163577856	41	4182
2026-01-12 04:58:54.14	2.39	14.32	-36.6	-38.3	14.5	0.00e+00	0	54	0	192937984	42	4726
2026-01-12 04:58:58.19	2.01	14.69	-36.0	-37.5	15.5	0.00e+00	0	54	0	222298112	42	4331
2026-01-12 04:59:02.22	1.62	15.07	-36.4	-37.9	15.5	0.00e+00	0	54	0	251658240	42	4545
2026-01-12 04:59:06.27	1.21	15.46	-36.5	-38.0	15.8	0.00e+00	0	54	0	281018368	43	4295
2026-01-12 04:59:10.31	0.80	15.85	-36.2	-37.6	16.3	0.00e+00	0	54	0	310378496	43	4140
2026-01-12 04:59:14.35	0.37	16.24	-35.9	-37.2	16.9	0.00e+00	0	55	0	338690048	42	4184
2026-01-12 04:59:18.39	359.94	16.64	-35.7	-37.0	17.1	0.00e+00	0	54	0	368050176	42	4096
2026-01-12 04:59:22.42	359.49	17.04	-35.9	-37.2	16.9	0.00e+00	0	54	0	397410304	41	4425
2026-01-12 04:59:26.46	359.03	17.45	-35.7	-37.0	17.1	0.00e+00	0	55	0	426770432	41	4338
2026-01-12 04:59:30.51	358.55	17.86	-35.7	-37.1	17.0	0.00e+00	0	55	0	456130560	41	4348
2026-01-12 04:59:34.55	358.06	18.28	-35.6	-36.9	17.0	0.00e+00	0	55	0	484442112	41	4266
2026-01-12 04:59:38.59	357.56	18.70	-35.1	-36.4	17.3	0.00e+00	0	55	0	513802240	41	4027
2026-01-12 04:59:42.62	357.04	19.13	-34.9	-36.1	17.5	0.00e+00	0	55	0	543162368	40	4131
2026-01-12 04:59:46.66	356.51	19.56	-35.8	-37.2	16.1	0.00e+00	0	55	0	572522496	41	4422
2026-01-12 04:59:50.70	355.96	20.00	-37.1	-39.0	13.9	4.50e-06	0	55	0	601882624	43	4822
2026-01-12 04:59:54.74	355.40	20.44	-37.2	-39.0	14.1	4.50e-06	0	55	0	631242752	44	4572
2026-01-12 04:59:58.78	354.81	20.88	-35.1	-36.4	16.7	0.00e+00	0	55	0	659554304	41	4051
2026-01-12 05:00:02.81	354.22	21.33	-34.8	-36.1	17.1	0.00e+00	0	55	0	688914432	39	4361
2026-01-12 05:00:06.86	353.60	21.79	-34.1	-35.3	17.9	0.00e+00	0	55	0	718274560	39	3978
2026-01-12 05:00:10.90	352.96	22.25	-34.1	-35.2	18.2	0.00e+00	0	55	0	747634688	38	4187
2026-01-12 05:00:14.94	352.30	22.72	-34.9	-36.2	17.5	0.00e+00	0	55	0	776994816	39	4400
2026-01-12 05:00:18.98	351.63	23.19	-34.6	-35.8	18.2	0.00e+00	0	55	0	805306368	39	4224
2026-01-12 05:00:23.01	350.93	23.66	-34.6	-35.7	18.6	0.00e+00	0	55	0	834666496	39	4173
2026-01-12 05:00:27.05	350.21	24.14	-34.5	-35.6	18.7	0.00e+00	0	56	0	864026624	39	4139
2026-01-12 05:00:31.09	349.47	24.62	-34.4	-35.5	19.0	0.00e+00	0	55	0	893386752	39	4061
2026-01-12 05:00:35.13	348.70	25.10	-34.4	-35.5	19.0	0.00e+00	0	55	0	921698304	39	4063
2026-01-12 05:00:39.17	347.91	25.59	-34.4	-35.5	19.0	0.00e+00	0	55	0	951058432	39	4094
2026-01-12 05:00:43.21	347.09	26.08	-34.4	-35.6	19.0	0.00e+00	0	55	0	980418560	39	4101
2026-01-12 05:00:47.26	346.25	26.58	-34.5	-35.6	19.0	0.00e+00	0	55	0	1009778688	39	4101
2026-01-12 05:00:51.30	345.38	27.07	-34.5	-35.6	19.0	0.00e+00	0	55	0	1039138816	39	4144
2026-01-12 05:00:55.34	344.48	27.57	-34.7	-35.8	18.9	0.00e+00	0	55	0	1068498944	39	4217
2026-01-12 05:00:59.38	343.56	28.07	-34.4	-35.5	19.2	0.00e+00	0	55	0	1096810496	39	4080
2026-01-12 05:01:03.41	342.60	28.57	-34.4	-35.4	19.2	0.00e+00	0	55	0	1126170624	39	4050
2026-01-12 05:01:07.45	341.62	29.06	-34.4	-35.5	19.2	0.00e+00	0	55	0	1155530752	39	4082
2026-01-12 05:01:11.49	340.60	29.56	-34.2	-35.2	19.5	0.00e+00	0	55	0	1184890880	39	3943
2026-01-12 05:01:15.53	339.55	30.06	-34.1	-35.2	19.5	0.00e+00	0	55	0	1213202432	39	3938
2026-01-12 05:01:19.57	338.47	30.55	-33.9	-35.0	19.8	0.00e+00	0	55	0	1242562560	38	4065
2026-01-12 05:01:23.61	337.35	31.04	-34.0	-35.0	19.8	0.00e+00	0	56	0	1271922688	38	4080
2026-01-12 05:01:27.65	336.20	31.52	-33.9	-34.9	19.9	0.00e+00	0	56	0	1301282816	38	4043
2026-01-12 05:01:31.69	335.01	32.00	-33.9	-34.9	19.8	0.00e+00	0	56	0	1330642944	38	4041
2026-01-12 05:01:35.74	333.79	32.47	-33.8	-34.8	20.0	0.00e+00	0	56	0	1360003072	38	3981
2026-01-12 05:01:39.78	332.53	32.94	-33.8	-34.8	20.0	0.00e+00	0	56	0	1388314624	38	3985
2026-01-12 05:01:43.82	331.23	33.39	-33.9	-34.9	19.9	0.00e+00	0	56	0	1417674752	38	4039
2026-01-12 05:01:47.86	329.90	33.84	-33.7	-34.8	20.0	0.00e+00	0	55	0	1447034880	38	3969
2026-01-12 05:01:51.90	328.53	34.27	-33.8	-34.9	19.9	0.00e+00	0	56	0	1476395008	38	4014
2026-01-12 05:01:55.94	327.13	34.69	-33.4	-34.3	20.4	0.00e+00	0	55	0	1505755136	37	4000
2026-01-12 05:01:59.97	325.69	35.09	-33.8	-34.9	19.9	0.00e+00	0	56	0	1534066688	37	4249
2026-01-12 05:02:04.01	324.21	35.48	-34.0	-35.0	19.8	0.00e+00	0	56	0	1563426816	37	4313
2026-01-12 05:02:08.05	322.70	35.85	-33.6	-34.6	20.2	0.00e+00	0	56	0	1592786944	37	4107
2026-01-12 05:02:12.09	321.15	36.21	-34.0	-35.1	19.7	0.00e+00	0	56	0	1622147072	37	4355
2026-01-12 05:02:16.13	319.57	36.54	-33.9	-34.9	19.9	0.00e+00	0	55	0	1651507200	37	4277
2026-01-12 05:02:20.18	317.95	36.85	-33.8	-34.8	20.0	0.00e+00	0	56	0	1680867328	37	4227
2026-01-12 05:02:24.21	316.32	37.13	-34.0	-35.0	19.8	0.00e+00	0	56	0	1709178880	37	4312
2026-01-12 05:02:28.25	314.65	37.39	-34.2	-35.3	19.6	0.00e+00	0	56	0	1738539008	38	4195
2026-01-12 05:02:32.30	312.95	37.63	-33.8	-34.9	20.0	0.00e+00	0	56	0	1767899136	38	4008
2026-01-12 05:02:36.33	311.23	37.83	-33.6	-34.6	20.3	0.00e+00	0	56	0	1797259264	37	4102
2026-01-12 05:02:40.37	309.49	38.01	-34.0	-35.0	19.8	0.00e+00	0	56	0	1826619392	37	4337
2026-01-12 05:02:44.41	307.73	38.16	-34.2	-35.2	19.6	0.00e+00	0	56	0	1854930944	38	4186
2026-01-12 05:02:48.45	305.96	38.28	-34.2	-35.2	19.6	0.00e+00	0	56	0	1884291072	38	4177
2026-01-12 05:02:52.49	304.18	38.36	-33.9	-34.9	19.9	0.00e+00	0	56	0	1913651200	38	4039
2026-01-12 05:02:56.53	302.38	38.42	-34.0	-35.0	19.8	0.00e+00	0	56	0	1943011328	38	4090
2026-01-12 05:03:00.57	300.59	38.44	-33.8	-34.9	20.0	0.00e+00	0	56	0	1972371456	38	4020
2026-01-12 05:03:04.61	298.79	38.43	-34.0	-35.0	19.8	0.00e+00	0	56	0	2001731584	38	4089
2026-01-12 05:03:08.65	296.99	38.39	-33.7	-34.7	20.1	0.00e+00	0	56	0	2030043136	38	3924
2026-01-12 05:03:12.69	295.21	38.32	-33.7	-34.8	20.1	0.00e+00	0	56	0	2059403264	38	3961
2026-01-12 05:03:16.73	293.43	38.22	-33.8	-34.8	20.0	0.00e+00	0	56	0	2088763392	37	4215
2026-01-12 05:03:20.77	291.66	38.08	-33.5	-34.5	20.3	0.00e+00	0	56	0	2118123520	37	4079
2026-01-12 05:03:24.81	289.91	37.92	-33.7	-34.7	20.2	0.00e+00	0	56	0	2147483648	37	4150
2026-01-12 05:03:28.85	288.18	37.72	-33.8	-34.8	20.0	0.00e+00	0	56	0	2175795200	37	4235
2026-01-12 05:03:32.89	286.47	37.50	-33.8	-34.8	20.0	0.00e+00	0	56	0	2205155328	37	4234
2026-01-12 05:03:36.93	284.78	37.25	-33.6	-34.6	20.2	0.00e+00	0	56	0	2234515456	37	4118
2026-01-12 05:03:40.97	283.12	36.98	-33.6	-34.6	20.2	0.00e+00	0	56	0	2263875584	37	4111
2026-01-12 05:03:45.01	281.49	36.68	-33.8	-34.8	20.0	0.00e+00	0	56	0	2293235712	37	4216
2026-01-12 05:03:49.05	279.90	36.36	-33.5	-34.5	20.3	0.00e+00	0	56	0	2322595840	37	4066
2026-01-12 05:03:53.09	278.33	36.01	-33.8	-34.8	20.0	0.00e+00	0	56	0	2350907392	37	4227
2026-01-12 05:03:57.13	276.80	35.65	-33.7	-34.7	20.1	0.00e+00	0	56	0	2380267520	37	4181
2026-01-12 05:04:01.17	275.30	35.27	-33.6	-34.6	20.2	0.00e+00	0	56	0	2409627648	37	4103
2026-01-12 05:04:05.21	273.84	34.87	-33.3	-34.3	20.5	0.00e+00	0	56	0	2438987776	37	4000
2026-01-12 05:04:09.24	272.41	34.45	-33.5	-34.5	20.3	0.00e+00	0	56	0	2468347904	37	4076
2026-01-12 05:04:13.28	271.02	34.02	-33.2	-34.2	20.6	0.00e+00	0	56	0	2496659456	37	3915
2026-01-12 05:04:17.32	269.67	33.58	-33.4	-34.4	20.4	0.00e+00	0	56	0	2526019584	37	4013
2026-01-12 05:04:21.36	268.35	33.13	-33.1	-34.1	20.7	0.00e+00	0	56	0	2555379712	37	3875
2026-01-12 05:04:25.41	267.07	32.67	-33.2	-34.2	20.6	0.00e+00	0	56	0	2584739840	36	4167
2026-01-12 05:04:29.45	265.83	32.20	-33.6	-34.6	20.1	0.00e+00	0	56	0	2614099968	36	4367
2026-01-12 05:04:33.49	264.62	31.72	-33.7	-34.8	20.0	0.00e+00	0	56	0	2643460096	37	4203
2026-01-12 05:04:37.53	263.45	31.23	-33.5	-34.5	20.2	0.00e+00	0	56	0	2671771648	37	4086
2026-01-12 05:04:41.57	262.31	30.75	-33.5	-34.5	20.2	0.00e+00	0	56	0	2701131776	37	4095
2026-01-12 05:04:45.61	261.21	30.25	-34.0	-35.1	19.7	0.00e+00	0	56	0	2730491904	37	4359
2026-01-12 05:04:49.65	260.14	29.76	-34.1	-35.1	19.6	0.00e+00	0	56	0	2759852032	37	4387
2026-01-12 05:04:53.69	259.10	29.26	-33.7	-34.8	20.0	0.00e+00	0	56	0	2789212160	37	4207
2026-01-12 05:04:57.73	258.09	28.76	-34.1	-35.1	19.7	0.00e+00	0	56	0	2817523712	37	4372
2026-01-12 05:05:01.77	257.12	28.26	-34.2	-35.2	19.6	0.00e+00	0	56	0	2846883840	38	4182
2026-01-12 05:05:05.81	256.18	27.76	-34.3	-35.4	19.3	0.00e+00	0	56	0	2876243968	38	4256
2026-01-12 05:05:09.85	255.26	27.26	-34.0	-35.1	19.7	0.00e+00	0	56	0	2905604096	38	4121
2026-01-12 05:05:13.89	254.38	26.76	-34.0	-35.0	19.7	0.00e+00	0	56	0	2934964224	38	4086
2026-01-12 05:05:17.93	253.52	26.26	-33.9	-34.9	19.8	0.00e+00	0	56	0	2963275776	38	4018
2026-01-12 05:05:21.97	252.68	25.77	-34.1	-35.1	19.6	0.00e+00	0	56	0	2992635904	38	4133
2026-01-12 05:05:26.01	251.88	25.27	-34.2	-35.2	19.5	0.00e+00	0	56	0	3021996032	38	4188
2026-01-12 05:05:30.04	251.10	24.79	-34.4	-35.5	19.2	0.00e+00	0	56	0	3051356160	38	4318
2026-01-12 05:05:34.08	250.34	24.30	-34.2	-35.3	19.4	0.00e+00	0	56	0	3080716288	38	4223
2026-01-12 05:05:38.13	249.60	23.82	-34.0	-35.0	19.7	0.00e+00	0	56	0	3109027840	38	4097
2026-01-12 05:05:42.17	248.89	23.34	-34.2	-35.3	19.4	0.00e+00	0	56	0	3138387968	38	4219
2026-01-12 05:05:46.21	248.20	22.87	-34.6	-35.7	19.1	0.00e+00	0	56	0	3167748096	38	4402
2026-01-12 05:05:50.25	247.53	22.40	-34.5	-35.6	19.1	0.00e+00	0	56	0	3197108224	38	4369
2026-01-12 05:05:54.29	246.88	21.93	-34.7	-35.8	19.0	0.00e+00	0	56	0	3226468352	38	4450
2026-01-12 05:05:58.33	246.25	21.47	-35.0	-36.2	18.5	0.00e+00	0	56	0	3254779904	39	4409
2026-01-12 05:06:02.37	245.64	21.01	-34.6	-35.7	19.0	0.00e+00	0	56	0	3284140032	39	4165
2026-01-12 05:06:06.41	245.05	20.56	-34.6	-35.7	19.0	0.00e+00	0	56	0	3313500160	39	4160
2026-01-12 05:06:10.45	244.47	20.12	-35.1	-36.2	18.4	0.00e+00	0	56	0	3342860288	39	4441
2026-01-12 05:06:14.50	243.91	19.68	-35.1	-36.2	18.4	0.00e+00	0	56	0	3372220416	39	4430
2026-01-12 05:06:18.54	243.37	19.24	-35.2	-36.4	18.2	0.00e+00	0	56	0	3401580544	40	4282
2026-01-12 05:06:22.58	242.84	18.81	-35.1	-36.2	18.3	0.00e+00	0	56	0	3429892096	40	4181
2026-01-12 05:06:26.62	242.32	18.38	-35.1	-36.3	18.3	0.00e+00	0	56	0	3459252224	40	4194
2026-01-12 05:06:30.66	241.82	17.96	-35.5	-36.7	17.8	0.00e+00	0	56	0	3488612352	40	4417
2026-01-12 05:06:34.70	241.34	17.54	-35.4	-36.6	17.9	0.00e+00	0	56	0	3517972480	40	4391
2026-01-12 05:06:38.74	240.87	17.13	-35.3	-36.4	18.0	0.00e+00	0	56	0	3547332608	40	4284
2026-01-12 05:06:42.77	240.41	16.73	-35.4	-36.6	17.9	0.00e+00	0	56	0	3575644160	40	4391
2026-01-12 05:06:46.81	239.96	16.32	-35.4	-36.6	17.9	0.00e+00	0	56	0	3605004288	40	4354
2026-01-12 05:06:50.86	239.53	15.93	-35.6	-36.9	17.6	0.00e+00	0	56	0	3634364416	40	4501
2026-01-12 05:06:54.90	239.10	15.53	-35.6	-36.8	17.7	0.00e+00	0	56	0	3663724544	40	4474
2026-01-12 05:06:58.93	238.69	15.15	-35.8	-37.1	17.4	0.00e+00	0	56	0	3693084672	41	4357
2026-01-12 05:07:02.98	238.29	14.76	-36.1	-37.4	17.0	0.00e+00	0	56	0	3721396224	41	4533
2026-01-12 05:07:07.01	237.90	14.38	-36.3	-37.7	16.8	0.00e+00	0	56	0	3750756352	42	4409
2026-01-12 05:07:11.05	237.52	14.01	-36.3	-37.7	16.7	0.00e+00	0	57	0	3780116480	42	4404
2026-01-12 05:07:15.09	237.15	13.64	-36.4	-37.8	16.6	0.00e+00	0	56	0	3809476608	42	4475
2026-01-12 05:07:19.13	236.79	13.28	-36.7	-38.1	16.2	0.00e+00	0	56	0	3838836736	43	4391
2026-01-12 05:07:23.17	236.43	12.92	-36.8	-38.2	16.1	0.00e+00	0	56	0	3867148288	43	4421
2026-01-12 05:07:27.21	236.09	12.56	-36.6	-38.0	16.4	0.00e+00	0	56	0	3896508416	43	4299
2026-01-12 05:07:31.25	235.75	12.21	-36.2	-37.6	16.7	0.00e+00	0	56	0	3925868544	43	4116
2026-01-12 05:07:35.29	235.43	11.86	-36.4	-37.8	16.5	0.00e+00	0	56	0	3955228672	43	4206
2026-01-12 05:07:39.34	235.11	11.51	-36.9	-38.4	15.9	0.00e+00	0	56	0	3984588800	43	4512
2026-01-12 05:07:43.38	234.79	11.17	-37.5	-39.0	15.4	0.00e+00	0	56	0	4012900352	44	4593
2026-01-12 05:07:47.42	234.49	10.84	-37.6	-39.2	15.2	0.00e+00	0	56	0	4042260480	44	4683
2026-01-12 05:07:51.46	234.19	10.50	-37.6	-39.3	15.0	0.00e+00	0	56	0	4071620608	45	4452
2026-01-12 05:07:55.50	233.90	10.17	-37.5	-39.1	15.2	0.00e+00	0	56	0	4100980736	45	4374
2026-01-12 05:07:59.54	233.62	9.85	-37.6	-39.2	15.1	0.00e+00	0	57	0	4130340864	45	4417
2026-01-12 05:08:03.56	233.34	9.53	-37.4	-39.0	15.2	0.00e+00	0	56	0	4159700992	45	4328
2026-01-12 05:08:07.60	233.07	9.21	-37.3	-38.9	15.3	0.00e+00	0	56	0	4188012544	45	4257
2026-01-12 05:08:11.64	232.80	8.89	-37.4	-39.0	15.2	0.00e+00	0	56	0	4217372672	45	4313
2026-01-12 05:08:15.68	232.54	8.58	-37.5	-39.1	15.1	0.00e+00	0	57	0	4246732800	45	4353
2026-01-12 05:08:19.73	232.29	8.27	-37.5	-39.1	15.0	0.00e+00	0	56	0	4276092928	45	4347
2026-01-12 05:08:23.77	232.04	7.97	-44.0	-51.0	4.5	8.48e-02	0	56	0	4303355904	57	8644
2026-01-12 05:08:27.81	231.80	7.67	-45.4	-56.6	3.8	8.47e-01	0	56	104	4303355904	60	13762
2026-01-12 05:08:31.85	231.56	7.37	-45.6	-56.8	3.8	8.46e-01	0	57	104	4303355904	60	14060
2026-01-12 05:08:35.89	231.33	7.07	-45.5	-56.6	3.8	8.45e-01	0	57	104	4303355904	60	13805
2026-01-12 05:08:39.93	231.10	6.78	-45.4	-56.5	3.8	8.47e-01	0	57	104	4303355904	60	13697
2026-01-12 05:08:43.98	230.87	6.49	-45.4	-56.4	3.8	8.46e-01	0	57	104	4303355904	60	13568
2026-01-12 05:08:48.02	230.65	6.20	-45.4	-56.4	3.8	8.46e-01	0	57	104	4303355904	60	13567
2026-01-12 05:08:52.06	230.44	5.92	-45.4	-56.5	3.8	8.46e-01	0	56	104	4303355904	60	13625
2026-01-12 05:08:56.11	230.23	5.63	-45.4	-56.5	3.8	8.46e-01	0	56	104	4303355904	60	13624
2026-01-12 05:09:00.15	230.02	5.35	-45.4	-56.5	3.8	8.46e-01	0	57	104	4303355904	60	13656
2026-01-12 05:09:04.19	229.82	5.08	-45.4	-56.4	3.8	8.45e-01	0	56	104	4303355904	60	13550
2026-01-12 05:09:08.23	229.62	4.80	-45.4	-56.5	3.8	8.46e-01	0	57	104	4303355904	60	13601
2026-01-12 05:09:12.28	229.43	4.53	-44.9	-56.2	3.8	8.46e-01	0	57	104	4303355904	60	13168
2026-01-12 05:09:16.32	229.24	4.26	-45.4	-56.4	3.8	8.46e-01	0	57	104	4303355904	60	13541
2026-01-12 05:09:20.37	229.05	4.00	-45.4	-56.5	3.8	8.46e-01	0	57	104	4303355904	60	13594
2026-01-12 05:09:24.41	228.87	3.73	-45.3	-56.4	3.8	8.46e-01	0	57	104	4303355904	60	13534
2026-01-12 05:09:28.45	228.69	3.47	-45.3	-56.5	3.8	8.47e-01	0	56	104	4303355904	60	13587
2026-01-12 05:09:32.50	228.51	3.21	-45.4	-56.5	3.8	8.47e-01	0	57	104	4303355904	60	13585
2026-01-12 05:09:36.54	228.34	2.95	-45.3	-56.5	3.8	8.46e-01	0	57	104	4303355904	60	13606
2026-01-12 05:09:40.58	228.17	2.69	-45.4	-56.4	3.8	8.46e-01	0	57	104	4303355904	60	13564
2026-01-12 05:09:44.63	228.00	2.44	-45.3	-56.4	3.8	8.46e-01	0	57	104	4303355904	60	13503
2026-01-12 05:09:48.67	227.84	2.19	-45.3	-56.4	3.8	8.46e-01	0	57	104	4303355904	60	13519

#Closed at: 2026-01-12 05:09:52
#Recorded file [4303 MB]: D:/lorett/data/31039_260112_075608.dat