passes_logs/2026/01/12/R2.0S_Moscow/R2.0S_Moscow__20260112_113329_NOAA_21_JPSS-2_rec.log

#Pass ID: 20260112_113329_NOAA 21 (JPSS-2)
#Satellite: NOAA 21 (JPSS-2)
#Configuration: NOAA-21
#almurnet v.1.7.20251203
#Start time: 2026-01-12 11:35:21

#Version: 2.2.20231116
#Station: R2.0S_Moscow
#Location: 37.707566 lon 55.798166 lat
#TLE: 1 54234U 22150A   26011.27699114  .00000090  00000+0  63771-4 0  9993
#TLE: 2 54234  98.7494 312.2218 0000765 314.9553  45.1561 14.19534106164285

#Time	Az	El	Level	Level2	SNR	BER	BlckErr	Temp	State	Recorded	gain1	gain2
2026-01-12 11:35:21.11	221.01	8.38	-45.0	-56.5	3.8	8.46e-01	0	59	0	0	60	14532
2026-01-12 11:35:24.13	221.36	8.56	-45.1	-57.3	3.8	1.49e+00	0	59	104	0	62	14202
2026-01-12 11:35:27.16	221.71	8.74	-44.9	-57.2	3.8	1.49e+00	0	59	104	0	61	14865
2026-01-12 11:35:30.19	222.07	8.93	-44.7	-56.9	3.8	1.49e+00	0	60	104	0	61	14314
2026-01-12 11:35:33.22	222.44	9.11	-44.4	-56.5	3.8	1.49e+00	0	60	104	0	60	14383
2026-01-12 11:35:36.26	222.81	9.30	-44.4	-56.4	3.8	1.49e+00	0	60	104	0	60	14221
2026-01-12 11:35:39.29	223.18	9.48	-44.4	-56.3	3.8	1.49e+00	0	59	104	0	60	14100
2026-01-12 11:35:42.32	223.56	9.67	-44.3	-56.1	3.8	1.49e+00	0	60	104	0	60	13758
2026-01-12 11:35:45.35	223.94	9.85	-44.3	-55.7	3.8	1.49e+00	0	60	104	0	60	13128
2026-01-12 11:35:48.38	224.33	10.04	-44.2	-54.8	3.8	1.49e+00	0	60	104	0	60	11873
2026-01-12 11:35:51.41	224.72	10.23	-44.0	-53.0	3.9	1.42e+00	0	60	104	0	59	10184
2026-01-12 11:35:54.44	225.12	10.41	-43.7	-50.7	5.1	6.88e-01	0	60	0	2097152	59	7861
2026-01-12 11:35:57.48	225.52	10.60	-43.3	-49.2	6.2	3.09e-01	0	60	0	11534336	58	7036
2026-01-12 11:36:00.50	225.92	10.79	-43.1	-48.4	6.8	1.79e-01	0	59	0	20971520	58	6413
2026-01-12 11:36:03.53	226.34	10.97	-43.1	-48.6	6.7	1.97e-01	0	59	0	30408704	58	6513
2026-01-12 11:36:06.57	226.75	11.16	-43.1	-48.5	6.8	1.93e-01	0	60	0	39845888	58	6475
2026-01-12 11:36:09.60	227.18	11.35	-42.2	-46.3	8.9	3.71e-02	0	59	0	49283072	56	5650
2026-01-12 11:36:12.63	227.60	11.54	-41.2	-44.4	10.7	3.45e-03	0	60	0	58720256	54	5096
2026-01-12 11:36:15.66	228.04	11.72	-44.2	-53.2	4.0	2.53e-01	0	60	104	68157440	59	10429
2026-01-12 11:36:18.69	228.47	11.91	-41.2	-44.4	10.8	4.21e-03	0	60	0	71303168	54	5077
2026-01-12 11:36:21.72	228.92	12.10	-40.6	-43.5	11.7	5.80e-04	0	60	0	78643200	53	4865
2026-01-12 11:36:24.75	229.37	12.28	-40.7	-43.7	11.5	6.78e-04	0	60	0	88080384	53	4936
2026-01-12 11:36:27.78	229.82	12.47	-40.5	-43.4	11.8	3.97e-04	0	59	0	97517568	53	4768
2026-01-12 11:36:30.82	230.28	12.66	-40.4	-43.2	12.1	3.21e-04	0	60	0	106954752	52	4940
2026-01-12 11:36:33.85	230.75	12.85	-40.4	-43.1	12.1	2.45e-04	0	60	0	116391936	52	4921
2026-01-12 11:36:36.88	231.22	13.03	-40.4	-43.1	12.2	2.84e-04	0	59	0	125829120	52	4893
2026-01-12 11:36:39.91	231.69	13.22	-40.3	-43.0	12.3	1.78e-04	0	60	0	135266304	52	4853
2026-01-12 11:36:42.94	232.18	13.40	-40.3	-42.9	12.4	1.24e-04	0	60	0	144703488	52	4804
2026-01-12 11:36:45.97	232.67	13.59	-40.2	-42.8	12.5	1.33e-04	0	60	0	154140672	52	4757
2026-01-12 11:36:49.00	233.16	13.77	-40.2	-42.7	12.6	7.85e-05	0	60	0	163577856	52	4694
2026-01-12 11:36:52.03	233.66	13.96	-40.2	-42.8	12.5	1.11e-04	0	60	0	173015040	52	4732
2026-01-12 11:36:55.06	234.17	14.14	-40.2	-42.8	12.6	1.20e-04	0	60	0	182452224	52	4713
2026-01-12 11:36:58.09	234.68	14.32	-40.2	-42.8	12.6	1.17e-04	0	59	0	191889408	52	4744
2026-01-12 11:37:01.12	235.20	14.50	-40.1	-42.6	12.7	7.09e-05	0	60	0	201326592	52	4651
2026-01-12 11:37:04.15	235.73	14.68	-40.2	-42.7	12.7	8.77e-05	0	59	0	210763776	52	4689
2026-01-12 11:37:07.18	236.26	14.86	-40.3	-42.9	12.4	1.11e-04	0	60	0	220200960	52	4812
2026-01-12 11:37:10.21	236.80	15.04	-40.3	-42.9	12.5	9.99e-05	0	60	0	229638144	52	4764
2026-01-12 11:37:13.24	237.34	15.22	-40.3	-42.9	12.5	1.31e-04	0	59	0	239075328	52	4797
2026-01-12 11:37:16.26	237.89	15.39	-40.3	-43.0	12.4	1.48e-04	0	60	0	248512512	52	4825
2026-01-12 11:37:19.29	238.44	15.57	-40.4	-43.1	12.4	1.82e-04	0	60	0	257949696	52	4871
2026-01-12 11:37:22.32	239.01	15.74	-40.4	-43.0	12.4	1.50e-04	0	60	0	267386880	52	4840
2026-01-12 11:37:25.35	239.58	15.92	-40.5	-43.1	12.3	1.69e-04	0	59	0	276824064	52	4919
2026-01-12 11:37:28.38	240.15	16.09	-40.6	-43.4	12.0	3.51e-04	0	60	0	286261248	52	5065
2026-01-12 11:37:31.40	240.73	16.26	-40.6	-43.4	12.0	3.10e-04	0	60	0	295698432	52	5078
2026-01-12 11:37:34.43	241.32	16.42	-40.4	-43.0	12.4	1.46e-04	0	59	0	305135616	52	4838
2026-01-12 11:37:37.46	241.92	16.59	-40.3	-42.9	12.5	9.91e-05	0	59	0	314572800	52	4774
2026-01-12 11:37:40.49	242.52	16.75	-40.3	-42.9	12.6	9.30e-05	0	60	0	324009984	52	4760
2026-01-12 11:37:43.52	243.12	16.92	-40.3	-42.8	12.6	1.12e-04	0	60	0	334495744	52	4757
2026-01-12 11:37:46.56	243.74	17.08	-40.3	-42.9	12.5	1.30e-04	0	60	0	342884352	52	4807
2026-01-12 11:37:49.58	244.36	17.24	-40.2	-42.8	12.7	9.99e-05	0	60	0	353370112	52	4719
2026-01-12 11:37:52.62	244.99	17.39	-40.2	-42.7	12.7	7.55e-05	0	60	0	362807296	52	4684
2026-01-12 11:37:55.64	245.62	17.54	-40.1	-42.6	12.9	3.73e-05	0	60	0	372244480	52	4620
2026-01-12 11:37:58.67	246.26	17.70	-40.2	-42.7	12.8	5.79e-05	0	60	0	381681664	52	4671
2026-01-12 11:38:01.70	246.90	17.84	-40.2	-42.7	12.7	6.63e-05	0	60	0	391118848	52	4674
2026-01-12 11:38:04.72	247.55	17.99	-40.1	-42.6	12.8	4.19e-05	0	60	0	400556032	52	4643
2026-01-12 11:38:07.75	248.21	18.13	-40.0	-42.4	13.1	2.74e-05	0	60	0	409993216	52	4527
2026-01-12 11:38:10.78	248.87	18.27	-40.1	-42.6	13.0	3.73e-05	0	60	0	419430400	51	4874
2026-01-12 11:38:13.81	249.54	18.41	-40.1	-42.6	13.0	3.96e-05	0	60	0	428867584	51	4885
2026-01-12 11:38:16.84	250.22	18.54	-39.9	-42.3	13.2	2.44e-05	0	60	0	438304768	51	4729
2026-01-12 11:38:19.87	250.90	18.68	-40.0	-42.3	13.2	3.35e-05	0	60	0	447741952	51	4743
2026-01-12 11:38:22.90	251.58	18.80	-40.1	-42.5	13.1	2.82e-05	0	60	0	457179136	51	4835
2026-01-12 11:38:25.93	252.27	18.93	-39.9	-42.3	13.3	1.75e-05	0	60	0	466616320	51	4711
2026-01-12 11:38:28.96	252.97	19.05	-39.9	-42.2	13.3	1.52e-05	0	59	0	476053504	51	4696
2026-01-12 11:38:31.99	253.67	19.16	-39.9	-42.2	13.3	1.67e-05	0	60	0	485490688	51	4688
2026-01-12 11:38:35.01	254.38	19.28	-39.8	-42.1	13.5	7.60e-06	0	60	0	494927872	51	4639
2026-01-12 11:38:38.04	255.09	19.39	-39.7	-41.9	13.6	8.30e-06	0	60	0	504365056	51	4530
2026-01-12 11:38:41.07	255.81	19.49	-39.8	-42.1	13.5	9.10e-06	0	60	0	513802240	51	4607
2026-01-12 11:38:44.10	256.53	19.59	-39.7	-42.0	13.6	4.50e-06	0	59	0	523239424	51	4568
2026-01-12 11:38:47.13	257.26	19.69	-39.7	-42.0	13.6	6.10e-06	0	60	0	532676608	51	4547
2026-01-12 11:38:50.16	257.99	19.79	-39.6	-41.9	13.7	5.30e-06	0	60	0	542113792	51	4511
2026-01-12 11:38:53.19	258.73	19.87	-39.7	-41.9	13.7	6.80e-06	0	60	0	551550976	51	4505
2026-01-12 11:38:56.22	259.47	19.96	-39.6	-41.8	13.8	3.80e-06	0	60	0	560988160	51	4452
2026-01-12 11:38:59.25	260.21	20.04	-39.7	-42.0	13.6	8.30e-06	0	60	0	570425344	51	4570
2026-01-12 11:39:02.29	260.96	20.12	-39.7	-42.0	13.6	9.90e-06	0	60	0	579862528	51	4580
2026-01-12 11:39:05.32	261.71	20.19	-39.6	-41.9	13.7	6.10e-06	0	60	0	589299712	51	4497
2026-01-12 11:39:08.35	262.46	20.25	-39.7	-42.0	13.6	8.30e-06	0	60	0	598736896	51	4554
2026-01-12 11:39:11.38	263.22	20.31	-39.7	-41.9	13.7	6.80e-06	0	60	0	608174080	51	4532
2026-01-12 11:39:14.41	263.98	20.37	-39.7	-42.0	13.6	3.80e-06	0	60	0	617611264	51	4568
2026-01-12 11:39:17.44	264.74	20.42	-39.9	-42.2	13.4	1.98e-05	0	60	0	627048448	51	4665
2026-01-12 11:39:20.47	265.50	20.47	-39.8	-42.1	13.6	1.06e-05	0	60	0	636485632	51	4614
2026-01-12 11:39:23.51	266.27	20.51	-39.7	-41.9	13.7	6.10e-06	0	60	0	646971392	51	4538
2026-01-12 11:39:26.54	267.04	20.55	-39.7	-41.9	13.7	5.30e-06	0	59	0	656408576	51	4507
2026-01-12 11:39:29.56	267.81	20.58	-39.7	-41.9	13.7	6.10e-06	0	60	0	665845760	51	4523
2026-01-12 11:39:32.59	268.58	20.61	-39.8	-42.1	13.5	8.30e-06	0	60	0	675282944	51	4602
2026-01-12 11:39:35.62	269.35	20.63	-39.8	-42.1	13.5	1.06e-05	0	60	0	684720128	51	4641
2026-01-12 11:39:38.65	270.13	20.64	-39.8	-42.0	13.6	9.10e-06	0	60	0	694157312	51	4588
2026-01-12 11:39:41.68	270.90	20.66	-39.7	-42.0	13.6	5.30e-06	0	60	0	703594496	51	4558
2026-01-12 11:39:44.71	271.68	20.66	-39.7	-42.0	13.7	6.80e-06	0	60	0	713031680	51	4563
2026-01-12 11:39:47.74	272.45	20.66	-39.8	-42.1	13.5	7.60e-06	0	60	0	722468864	51	4604
2026-01-12 11:39:50.78	273.23	20.66	-39.8	-42.1	13.5	1.14e-05	0	60	0	731906048	51	4599
2026-01-12 11:39:53.81	274.00	20.65	-39.8	-42.0	13.6	1.44e-05	0	60	0	741343232	51	4591
2026-01-12 11:39:56.84	274.77	20.63	-39.8	-42.0	13.5	9.10e-06	0	60	0	750780416	51	4590
2026-01-12 11:39:59.87	275.55	20.61	-39.8	-42.2	13.5	1.52e-05	0	60	0	760217600	51	4653
2026-01-12 11:40:02.90	276.32	20.59	-39.9	-42.3	13.3	1.37e-05	0	60	0	769654784	51	4708
2026-01-12 11:40:05.93	277.09	20.56	-39.7	-42.0	13.6	7.60e-06	0	60	0	779091968	51	4573
2026-01-12 11:40:08.95	277.85	20.52	-39.8	-42.0	13.5	1.22e-05	0	60	0	788529152	51	4579
2026-01-12 11:40:11.98	278.62	20.48	-39.8	-42.1	13.5	1.83e-05	0	60	0	797966336	51	4648
2026-01-12 11:40:15.01	279.38	20.44	-39.7	-41.9	13.7	6.80e-06	0	60	0	807403520	51	4526
2026-01-12 11:40:18.03	280.14	20.38	-39.8	-42.0	13.5	9.10e-06	0	60	0	816840704	51	4589
2026-01-12 11:40:21.06	280.90	20.33	-39.8	-42.1	13.5	1.06e-05	0	60	0	826277888	51	4609
2026-01-12 11:40:24.09	281.66	20.27	-39.9	-42.2	13.4	1.98e-05	0	60	0	835715072	51	4680
2026-01-12 11:40:27.12	282.41	20.20	-39.8	-42.1	13.4	9.90e-06	0	60	0	845152256	51	4639
2026-01-12 11:40:30.15	283.16	20.14	-39.7	-41.9	13.7	1.14e-05	0	60	0	854589440	51	4529
2026-01-12 11:40:33.18	283.90	20.06	-39.7	-42.0	13.6	9.90e-06	0	60	0	864026624	51	4553
2026-01-12 11:40:36.20	284.64	19.98	-39.7	-42.0	13.6	1.14e-05	0	60	0	873463808	51	4569
2026-01-12 11:40:39.24	285.39	19.90	-39.8	-42.1	13.5	9.90e-06	0	60	0	882900992	51	4612
2026-01-12 11:40:42.27	286.12	19.81	-39.7	-41.9	13.6	6.10e-06	0	60	0	892338176	51	4527
2026-01-12 11:40:45.30	286.85	19.72	-39.7	-41.9	13.6	1.22e-05	0	60	0	901775360	51	4531
2026-01-12 11:40:48.33	287.58	19.62	-39.7	-41.9	13.6	7.60e-06	0	60	0	911212544	51	4537
2026-01-12 11:40:51.35	288.29	19.52	-39.7	-41.9	13.6	7.60e-06	0	60	0	920649728	51	4542
2026-01-12 11:40:54.38	289.01	19.42	-39.8	-42.0	13.5	2.28e-05	0	60	0	930086912	51	4594
2026-01-12 11:40:57.41	289.72	19.31	-39.8	-42.2	13.4	1.52e-05	0	60	0	939524096	51	4660
2026-01-12 11:41:00.44	290.43	19.20	-39.8	-42.0	13.5	1.14e-05	0	60	0	948961280	51	4595
2026-01-12 11:41:03.47	291.13	19.08	-39.7	-42.0	13.5	9.10e-06	0	60	0	958398464	51	4578
2026-01-12 11:41:06.50	291.83	18.97	-39.7	-41.9	13.6	1.14e-05	0	60	0	967835648	51	4535
2026-01-12 11:41:09.53	292.52	18.84	-39.7	-42.0	13.5	1.29e-05	0	60	0	977272832	51	4568
2026-01-12 11:41:12.57	293.20	18.72	-39.7	-41.9	13.6	3.00e-06	0	60	0	987758592	51	4519
2026-01-12 11:41:15.59	293.88	18.59	-39.6	-41.9	13.6	4.50e-06	0	60	0	996147200	51	4513
2026-01-12 11:41:18.63	294.56	18.46	-39.7	-42.0	13.5	7.60e-06	0	60	0	1006632960	51	4582
2026-01-12 11:41:21.66	295.23	18.32	-39.7	-41.9	13.6	9.10e-06	0	60	0	1016070144	51	4539
2026-01-12 11:41:24.69	295.89	18.18	-39.8	-42.1	13.4	1.22e-05	0	60	0	1025507328	51	4615
2026-01-12 11:41:27.72	296.54	18.04	-39.7	-42.0	13.5	6.10e-06	0	60	0	1034944512	51	4567
2026-01-12 11:41:30.75	297.19	17.90	-39.8	-42.2	13.3	2.13e-05	0	60	0	1044381696	51	4674
2026-01-12 11:41:33.79	297.84	17.75	-39.9	-42.3	13.2	2.51e-05	0	60	0	1053818880	51	4729
2026-01-12 11:41:36.82	298.48	17.60	-40.1	-42.6	12.9	5.18e-05	0	60	0	1063256064	51	4881
2026-01-12 11:41:39.85	299.11	17.45	-40.0	-42.4	13.0	3.96e-05	0	60	0	1072693248	51	4814
2026-01-12 11:41:42.88	299.73	17.29	-40.1	-42.6	12.9	4.19e-05	0	60	0	1082130432	51	4899
2026-01-12 11:41:45.91	300.35	17.14	-40.2	-42.8	12.7	8.39e-05	0	60	0	1091567616	51	4986
2026-01-12 11:41:48.94	300.96	16.98	-40.1	-42.7	12.7	7.24e-05	0	60	0	1101004800	51	4949
2026-01-12 11:41:51.97	301.57	16.82	-40.2	-42.8	12.7	8.39e-05	0	60	0	1110441984	51	4984
2026-01-12 11:41:55.00	302.17	16.66	-39.9	-42.4	13.1	4.11e-05	0	60	0	1119879168	51	4765
2026-01-12 11:41:58.03	302.76	16.49	-40.1	-42.5	12.9	4.27e-05	0	60	0	1129316352	51	4853
2026-01-12 11:42:01.06	303.35	16.33	-40.2	-42.7	12.7	7.40e-05	0	60	0	1138753536	51	4962
2026-01-12 11:42:04.09	303.93	16.16	-40.4	-43.0	12.4	1.36e-04	0	60	0	1148190720	51	5124
2026-01-12 11:42:07.13	304.51	15.99	-40.3	-42.9	12.6	1.01e-04	0	60	0	1157627904	51	5045
2026-01-12 11:42:10.15	305.08	15.82	-40.1	-42.6	12.8	7.01e-05	0	60	0	1167065088	51	4921
2026-01-12 11:42:13.18	305.64	15.65	-40.1	-42.5	12.8	5.26e-05	0	60	0	1176502272	51	4868
2026-01-12 11:42:16.21	306.19	15.47	-40.2	-42.7	12.7	6.25e-05	0	60	0	1185939456	51	4972
2026-01-12 11:42:19.24	306.74	15.30	-40.4	-43.0	12.3	1.64e-04	0	60	0	1195376640	51	5158
2026-01-12 11:42:22.27	307.28	15.12	-40.5	-43.2	12.2	2.69e-04	0	60	0	1204813824	51	5240
2026-01-12 11:42:25.30	307.82	14.95	-40.5	-43.2	12.2	2.34e-04	0	60	0	1214251008	51	5236
2026-01-12 11:42:28.33	308.35	14.77	-40.4	-43.0	12.3	2.10e-04	0	60	0	1223688192	51	5142
2026-01-12 11:42:31.36	308.88	14.59	-40.4	-43.1	12.3	2.12e-04	0	60	0	1233125376	51	5168
2026-01-12 11:42:34.39	309.40	14.41	-40.4	-43.2	12.1	2.19e-04	0	60	0	1242562560	51	5225
2026-01-12 11:42:37.42	309.91	14.23	-40.5	-43.3	12.0	2.74e-04	0	60	0	1251999744	51	5298
2026-01-12 11:42:40.45	310.41	14.05	-40.7	-43.5	11.6	5.42e-04	0	60	0	1262485504	52	5152
2026-01-12 11:42:43.49	310.92	13.87	-40.6	-43.5	11.7	6.28e-04	0	60	0	1270874112	52	5125
2026-01-12 11:42:46.52	311.41	13.69	-40.2	-42.9	12.3	1.88e-04	0	60	0	1281359872	52	4775
2026-01-12 11:42:49.55	311.90	13.50	-40.1	-42.7	12.5	1.43e-04	0	60	0	1289748480	52	4703
2026-01-12 11:42:52.58	312.38	13.32	-40.1	-42.6	12.6	1.11e-04	0	60	0	1300234240	52	4638
2026-01-12 11:42:55.61	312.86	13.14	-40.2	-42.8	12.4	1.33e-04	0	60	0	1309671424	52	4742
2026-01-12 11:42:58.64	313.33	12.95	-40.3	-43.0	12.2	2.14e-04	0	60	0	1319108608	52	4842
2026-01-12 11:43:01.67	313.79	12.77	-40.4	-43.1	12.0	3.94e-04	0	60	0	1328545792	52	4924
2026-01-12 11:43:04.70	314.25	12.58	-40.2	-42.8	12.4	1.70e-04	0	60	0	1337982976	52	4746
2026-01-12 11:43:07.73	314.71	12.40	-40.2	-42.9	12.3	1.77e-04	0	60	0	1347420160	52	4792
2026-01-12 11:43:10.76	315.16	12.21	-40.2	-42.9	12.2	2.17e-04	0	60	0	1356857344	52	4794
2026-01-12 11:43:13.79	315.60	12.03	-40.2	-42.9	12.2	1.86e-04	0	60	0	1366294528	52	4765
2026-01-12 11:43:16.81	316.04	11.85	-40.4	-43.2	11.8	4.07e-04	0	60	0	1375731712	52	4974
2026-01-12 11:43:19.84	316.47	11.66	-40.4	-43.2	11.9	4.28e-04	0	60	0	1385168896	52	4963
2026-01-12 11:43:22.87	316.90	11.47	-40.4	-43.2	11.9	3.81e-04	0	60	0	1394606080	52	4937
2026-01-12 11:43:25.90	317.32	11.29	-40.5	-43.4	11.7	5.26e-04	0	60	0	1404043264	52	5044
2026-01-12 11:43:28.93	317.73	11.10	-40.5	-43.4	11.6	6.51e-04	0	60	0	1413480448	52	5081
2026-01-12 11:43:31.96	318.15	10.92	-40.7	-43.7	11.3	1.04e-03	0	60	0	1422917632	52	5259
2026-01-12 11:43:34.98	318.55	10.74	-40.7	-43.8	11.2	1.16e-03	0	60	0	1432354816	52	5301
2026-01-12 11:43:38.01	318.95	10.55	-40.8	-44.0	11.0	1.86e-03	0	60	0	1441792000	52	5420
2026-01-12 11:43:41.04	319.35	10.37	-41.0	-44.2	10.7	2.84e-03	0	60	0	1451229184	52	5577
2026-01-12 11:43:44.07	319.74	10.18	-40.9	-44.2	10.7	2.44e-03	0	60	0	1460666368	52	5540
2026-01-12 11:43:47.10	320.13	10.00	-40.8	-43.9	11.1	1.85e-03	0	60	0	1470103552	52	5359
2026-01-12 11:43:50.12	320.51	9.81	-40.7	-43.8	11.2	1.44e-03	0	60	0	1479540736	52	5300
2026-01-12 11:43:53.15	320.89	9.63	-40.7	-43.8	11.1	1.50e-03	0	60	0	1488977920	52	5323
2026-01-12 11:43:56.18	321.26	9.45	-40.8	-44.0	10.9	2.45e-03	0	60	0	1498415104	52	5452
2026-01-12 11:43:59.21	321.63	9.26	-40.9	-44.2	10.7	2.94e-03	0	60	0	1507852288	52	5557
2026-01-12 11:44:02.24	322.00	9.08	-40.9	-44.2	10.6	3.29e-03	0	60	0	1517289472	52	5576
2026-01-12 11:44:05.27	322.36	8.90	-41.0	-44.5	10.3	4.82e-03	0	60	0	1526726656	52	5742
2026-01-12 11:44:08.30	322.71	8.72	-41.0	-44.4	10.4	4.73e-03	0	60	0	1536163840	52	5687
2026-01-12 11:44:11.33	323.07	8.54	-41.0	-44.4	10.4	4.12e-03	0	60	0	1545601024	52	5663
2026-01-12 11:44:14.36	323.41	8.36	-40.9	-44.2	10.5	3.91e-03	0	60	0	1555038208	52	5586
2026-01-12 11:44:17.39	323.76	8.17	-41.1	-44.7	10.1	6.15e-03	0	60	0	1564475392	52	5862
2026-01-12 11:44:20.42	324.10	7.99	-41.4	-45.3	9.6	6.18e-03	0	60	0	1573912576	53	5978
2026-01-12 11:44:23.45	324.43	7.82	-44.8	-57.0	3.8	1.49e+00	0	60	104	1574961152	60	15375
2026-01-12 11:44:26.48	324.77	7.64	-45.1	-57.4	3.8	1.49e+00	0	60	104	1574961152	60	16070
2026-01-12 11:44:29.52	325.09	7.46	-45.2	-57.5	3.8	1.49e+00	0	60	104	1574961152	60	16194
2026-01-12 11:44:32.55	325.42	7.28	-45.0	-57.4	3.8	1.49e+00	0	60	104	1574961152	60	16042
2026-01-12 11:44:35.58	325.74	7.10	-45.1	-57.4	3.8	1.49e+00	0	60	104	1574961152	60	16061
2026-01-12 11:44:38.61	326.05	6.92	-45.1	-57.4	3.8	1.49e+00	0	60	104	1574961152	60	16000
2026-01-12 11:44:41.64	326.37	6.75	-45.1	-57.4	3.8	1.49e+00	0	60	104	1574961152	60	15977
2026-01-12 11:44:44.68	326.68	6.57	-45.1	-57.4	3.8	1.49e+00	0	60	104	1574961152	60	15978
2026-01-12 11:44:47.71	326.98	6.39	-45.1	-57.4	3.8	1.49e+00	0	60	104	1574961152	60	15951
2026-01-12 11:44:50.74	327.29	6.22	-45.0	-57.4	3.8	1.49e+00	0	60	104	1574961152	60	15963
2026-01-12 11:44:53.77	327.58	6.04	-45.1	-57.3	3.8	1.49e+00	0	60	104	1574961152	60	15927
2026-01-12 11:44:56.81	327.88	5.87	-45.1	-57.3	3.8	1.49e+00	0	60	104	1574961152	60	15939
2026-01-12 11:44:59.84	328.17	5.70	-45.1	-57.3	3.8	1.49e+00	0	61	104	1574961152	60	15943
2026-01-12 11:45:02.87	328.46	5.52	-45.0	-57.4	3.8	1.49e+00	0	60	104	1574961152	60	15985
2026-01-12 11:45:05.91	328.75	5.35	-45.0	-57.3	3.8	1.49e+00	0	60	104	1574961152	60	15931
2026-01-12 11:45:08.94	329.03	5.18	-45.0	-57.3	3.8	1.49e+00	0	60	104	1574961152	60	15929
2026-01-12 11:45:11.98	329.31	5.01	-45.1	-57.3	3.8	1.49e+00	0	60	104	1574961152	60	15904
2026-01-12 11:45:15.01	329.59	4.84	-45.1	-57.4	3.8	1.49e+00	0	60	104	1574961152	60	15960
2026-01-12 11:45:18.04	329.86	4.67	-45.0	-57.3	3.8	1.49e+00	0	60	104	1574961152	60	15888
2026-01-12 11:45:21.07	330.13	4.50	-45.0	-57.3	3.8	1.49e+00	0	60	104	1574961152	60	15898
2026-01-12 11:45:24.11	330.40	4.33	-44.9	-57.3	3.8	1.49e+00	0	60	104	1574961152	60	15885
2026-01-12 11:45:27.14	330.66	4.16	-45.0	-57.4	3.8	1.49e+00	0	60	104	1574961152	60	15959
2026-01-12 11:45:30.17	330.92	3.99	-45.0	-57.3	3.8	1.49e+00	0	60	104	1574961152	60	15926
2026-01-12 11:45:33.20	331.18	3.83	-45.0	-57.3	3.8	1.49e+00	0	60	104	1574961152	60	15903
2026-01-12 11:45:36.24	331.44	3.66	-45.0	-57.3	3.8	1.49e+00	0	60	104	1574961152	60	15879
2026-01-12 11:45:39.27	331.69	3.49	-45.0	-57.3	3.8	1.49e+00	0	60	104	1574961152	60	15896
2026-01-12 11:45:42.30	331.94	3.33	-45.0	-57.3	3.8	1.49e+00	0	60	104	1574961152	60	15867
2026-01-12 11:45:45.34	332.19	3.16	-45.0	-57.4	3.8	1.49e+00	0	60	104	1574961152	60	15951
2026-01-12 11:45:48.37	332.44	3.00	-45.0	-57.3	3.8	1.49e+00	0	60	104	1574961152	60	15926
2026-01-12 11:45:51.40	332.68	2.83	-45.0	-57.3	3.8	1.49e+00	0	60	104	1574961152	60	15840
2026-01-12 11:45:54.44	332.92	2.67	-45.0	-57.3	3.8	1.49e+00	0	60	104	1574961152	60	15824
2026-01-12 11:45:57.47	333.16	2.51	-44.9	-57.3	3.8	1.49e+00	0	61	104	1574961152	60	15879
2026-01-12 11:46:00.50	333.39	2.35	-45.0	-57.3	3.8	1.49e+00	0	60	104	1574961152	60	15879
2026-01-12 11:46:03.53	333.63	2.18	-45.0	-57.3	3.8	1.49e+00	0	60	104	1574961152	60	15873
2026-01-12 11:46:06.56	333.86	2.02	-45.0	-57.3	3.8	1.49e+00	0	60	104	1574961152	60	15827

#Closed at: 2026-01-12 11:46:08
#Recorded file [1574 MB]: D:/lorett/data/31039_260112_143520.dat