passes_logs/2026/01/12/R2.0S_Moscow/R2.0S_Moscow__20260112_095139_NOAA_21_JPSS-2_rec.log

#Pass ID: 20260112_095139_NOAA 21 (JPSS-2)
#Satellite: NOAA 21 (JPSS-2)
#Configuration: NOAA-21
#almurnet v.1.7.20251203
#Start time: 2026-01-12 09:54:43

#Version: 2.2.20231116
#Station: R2.0S_Moscow
#Location: 37.707566 lon 55.798166 lat
#TLE: 1 54234U 22150A   26011.27699114  .00000090  00000+0  63771-4 0  9993
#TLE: 2 54234  98.7494 312.2218 0000765 314.9553  45.1561 14.19534106164285

#Time	Az	El	Level	Level2	SNR	BER	BlckErr	Temp	State	Recorded	gain1	gain2
2026-01-12 09:54:43.29	158.53	17.80	-44.9	-56.5	3.8	8.47e-01	0	59	0	0	60	14495
2026-01-12 09:54:46.32	158.51	18.17	-45.3	-57.7	3.8	1.49e+00	0	59	104	0	62	14741
2026-01-12 09:54:49.35	158.49	18.54	-45.2	-57.5	3.8	1.49e+00	0	59	104	0	62	14529
2026-01-12 09:54:52.38	158.47	18.92	-44.9	-56.7	3.8	1.49e+00	0	59	104	0	61	13999
2026-01-12 09:54:55.42	158.45	19.31	-44.9	-56.7	3.8	1.49e+00	0	59	104	0	61	13931
2026-01-12 09:54:58.45	158.43	19.70	-44.9	-57.0	3.8	1.49e+00	0	59	104	0	61	14458
2026-01-12 09:55:01.48	158.41	20.10	-45.0	-57.3	3.8	1.49e+00	0	59	104	0	61	14888
2026-01-12 09:55:04.51	158.39	20.50	-44.9	-57.3	3.8	1.49e+00	0	59	104	0	61	14951
2026-01-12 09:55:07.54	158.37	20.91	-44.9	-57.3	3.8	1.49e+00	0	59	104	0	61	14919
2026-01-12 09:55:10.57	158.35	21.33	-44.9	-57.1	3.8	1.49e+00	0	59	104	0	61	14613
2026-01-12 09:55:13.60	158.32	21.75	-44.9	-56.7	3.8	1.49e+00	0	59	104	0	61	13961
2026-01-12 09:55:16.63	158.30	22.18	-44.7	-54.6	4.0	1.48e+00	0	59	104	0	61	10977
2026-01-12 09:55:19.67	158.27	22.62	-44.4	-52.6	4.6	1.14e+00	2	59	104	0	60	9188
2026-01-12 09:55:22.70	158.25	23.07	-44.4	-53.3	4.0	1.00e+00	2	59	104	0	60	9978
2026-01-12 09:55:25.73	158.22	23.52	-44.5	-53.5	4.3	1.45e+00	0	59	104	0	60	10216
2026-01-12 09:55:28.76	158.19	23.98	-44.4	-53.9	3.9	1.44e+00	0	59	104	0	60	10686
2026-01-12 09:55:31.79	158.16	24.45	-43.0	-47.6	8.3	1.11e-01	0	59	0	4194304	58	5810
2026-01-12 09:55:34.82	158.13	24.93	-39.6	-41.7	14.2	3.80e-06	0	59	0	13631488	51	4432
2026-01-12 09:55:37.86	158.10	25.42	-44.7	-54.9	3.8	8.65e-01	0	59	104	22020096	60	11995
2026-01-12 09:55:40.89	158.06	25.92	-43.9	-50.2	6.1	3.22e-02	0	59	0	27262976	58	7847
2026-01-12 09:55:43.92	158.03	26.42	-37.9	-39.6	16.2	0.00e+00	0	59	0	36700160	47	4351
2026-01-12 09:55:46.94	157.99	26.94	-38.2	-39.9	16.0	0.00e+00	0	59	0	46137344	47	4510
2026-01-12 09:55:49.97	157.95	27.46	-38.3	-40.1	15.8	0.00e+00	0	59	0	55574528	47	4615
2026-01-12 09:55:53.00	157.92	28.00	-38.4	-40.2	15.7	0.00e+00	0	59	0	65011712	47	4659
2026-01-12 09:55:56.03	157.87	28.55	-38.4	-40.1	15.7	0.00e+00	0	59	0	74448896	47	4647
2026-01-12 09:55:59.06	157.83	29.10	-38.5	-40.3	15.6	0.00e+00	0	59	0	83886080	47	4733
2026-01-12 09:56:02.09	157.79	29.67	-38.5	-40.3	15.6	0.00e+00	0	59	0	93323264	47	4751
2026-01-12 09:56:05.12	157.74	30.25	-38.4	-40.2	15.7	0.00e+00	0	59	0	102760448	47	4652
2026-01-12 09:56:08.15	157.69	30.84	-38.2	-39.9	16.0	0.00e+00	0	59	0	113246208	47	4511
2026-01-12 09:56:11.18	157.64	31.45	-38.3	-40.1	15.8	0.00e+00	0	59	0	121634816	47	4607
2026-01-12 09:56:14.21	157.59	32.07	-38.3	-40.1	15.8	0.00e+00	0	59	0	132120576	47	4636
2026-01-12 09:56:17.23	157.53	32.69	-38.7	-40.6	15.4	0.00e+00	0	59	0	141557760	47	4880
2026-01-12 09:56:20.26	157.47	33.34	-38.9	-40.8	15.2	0.00e+00	0	59	0	150994944	48	4732
2026-01-12 09:56:23.29	157.41	33.99	-39.0	-40.9	15.1	0.00e+00	0	59	0	160432128	48	4808
2026-01-12 09:56:26.32	157.35	34.67	-39.2	-41.2	14.8	0.00e+00	0	59	0	169869312	49	4660
2026-01-12 09:56:29.35	157.28	35.35	-39.6	-41.7	14.3	1.50e-06	0	59	0	179306496	49	4969
2026-01-12 09:56:32.38	157.21	36.05	-39.8	-42.0	14.0	1.50e-06	0	59	0	188743680	50	4856
2026-01-12 09:56:35.41	157.14	36.77	-40.0	-42.3	13.8	4.50e-06	0	59	0	198180864	50	5005
2026-01-12 09:56:38.44	157.06	37.50	-39.9	-42.1	13.9	2.20e-06	0	59	0	207618048	50	4916
2026-01-12 09:56:41.47	156.98	38.25	-39.9	-42.1	13.9	4.50e-06	0	59	0	217055232	50	4890
2026-01-12 09:56:44.50	156.89	39.02	-39.8	-41.9	14.1	1.50e-06	0	59	0	226492416	50	4779
2026-01-12 09:56:47.53	156.80	39.80	-39.7	-41.8	14.2	3.00e-06	0	59	0	235929600	50	4745
2026-01-12 09:56:50.56	156.71	40.60	-39.9	-42.0	14.0	3.80e-06	0	59	0	245366784	50	4859
2026-01-12 09:56:53.59	156.61	41.42	-40.0	-42.2	13.8	3.80e-06	0	59	0	254803968	50	4974
2026-01-12 09:56:56.61	156.50	42.26	-40.2	-42.5	13.5	1.44e-05	0	59	0	264241152	51	4842
2026-01-12 09:56:59.64	156.39	43.11	-40.2	-42.6	13.5	1.60e-05	0	59	0	273678336	51	4871
2026-01-12 09:57:02.67	156.27	43.99	-40.0	-42.2	13.9	8.30e-06	0	59	0	283115520	51	4658
2026-01-12 09:57:05.70	156.14	44.89	-40.6	-43.0	13.0	2.05e-05	0	59	0	292552704	51	5154
2026-01-12 09:57:08.73	156.01	45.81	-40.9	-43.7	12.3	1.85e-04	0	60	0	301989888	52	5223
2026-01-12 09:57:11.76	155.86	46.74	-40.5	-43.0	13.1	2.82e-05	0	59	0	311427072	52	4831
2026-01-12 09:57:14.79	155.71	47.70	-40.1	-42.5	13.5	1.29e-05	0	59	0	320864256	52	4552
2026-01-12 09:57:17.82	155.55	48.69	-40.0	-42.3	13.7	9.90e-06	0	59	0	330301440	52	4475
2026-01-12 09:57:20.85	155.37	49.69	-40.1	-42.4	13.7	2.20e-06	0	59	0	339738624	51	4762
2026-01-12 09:57:23.88	155.18	50.71	-39.8	-42.0	14.1	3.00e-06	0	59	0	349175808	51	4577
2026-01-12 09:57:26.91	154.98	51.76	-39.8	-42.0	14.1	3.80e-06	0	59	0	358612992	51	4560
2026-01-12 09:57:29.94	154.76	52.83	-39.3	-41.3	14.8	0.00e+00	0	59	0	368050176	50	4453
2026-01-12 09:57:32.97	154.53	53.93	-38.8	-40.6	15.4	0.00e+00	0	59	0	377487360	49	4388
2026-01-12 09:57:36.00	154.27	55.05	-38.4	-40.1	15.9	0.00e+00	0	59	0	386924544	48	4389
2026-01-12 09:57:39.03	154.00	56.19	-38.1	-39.7	16.3	0.00e+00	0	59	0	396361728	48	4174
2026-01-12 09:57:42.05	153.70	57.35	-37.9	-39.6	16.4	0.00e+00	0	60	0	405798912	47	4346
2026-01-12 09:57:45.08	153.37	58.54	-37.3	-38.8	17.1	0.00e+00	0	59	0	415236096	46	4210
2026-01-12 09:57:48.11	153.01	59.75	-37.4	-38.9	17.0	0.00e+00	0	59	0	424673280	46	4289
2026-01-12 09:57:51.14	152.61	60.98	-37.5	-39.0	16.9	0.00e+00	0	59	0	434110464	46	4338
2026-01-12 09:57:54.17	152.17	62.24	-37.1	-38.6	17.3	0.00e+00	0	59	0	443547648	46	4117
2026-01-12 09:57:57.20	151.68	63.51	-37.1	-38.6	17.3	0.00e+00	0	59	0	452984832	46	4141
2026-01-12 09:58:00.23	151.13	64.81	-37.0	-38.5	17.4	0.00e+00	0	59	0	463470592	45	4306
2026-01-12 09:58:03.26	150.52	66.13	-36.7	-38.1	17.7	0.00e+00	0	59	0	472907776	45	4139
2026-01-12 09:58:06.30	149.82	67.47	-36.5	-37.9	18.0	0.00e+00	0	59	0	482344960	44	4254
2026-01-12 09:58:09.33	149.02	68.83	-36.6	-38.1	17.7	0.00e+00	0	59	0	491782144	44	4344
2026-01-12 09:58:12.35	148.11	70.19	-37.1	-38.5	17.3	0.00e+00	0	59	0	501219328	44	4592
2026-01-12 09:58:15.38	147.05	71.58	-37.2	-38.7	17.1	0.00e+00	0	59	0	510656512	44	4674
2026-01-12 09:58:18.41	145.79	72.97	-37.1	-38.7	17.1	0.00e+00	0	59	0	520093696	44	4666
2026-01-12 09:58:21.44	144.31	74.38	-37.4	-39.0	16.8	0.00e+00	0	59	0	529530880	45	4553
2026-01-12 09:58:24.47	142.51	75.78	-37.5	-39.0	16.7	0.00e+00	0	59	0	538968064	45	4593
2026-01-12 09:58:27.50	140.30	77.19	-37.0	-38.5	17.2	0.00e+00	0	59	0	548405248	45	4320
2026-01-12 09:58:30.52	137.53	78.58	-37.1	-38.6	17.1	0.00e+00	0	59	0	557842432	45	4357
2026-01-12 09:58:33.55	133.98	79.95	-37.1	-38.5	17.2	0.00e+00	0	59	0	567279616	45	4330
2026-01-12 09:58:36.58	129.30	81.28	-37.3	-38.9	16.9	0.00e+00	0	59	0	576716800	45	4501
2026-01-12 09:58:39.62	122.94	82.54	-37.5	-39.0	16.7	0.00e+00	0	59	0	586153984	46	4340
2026-01-12 09:58:42.65	114.15	83.68	-37.8	-39.5	16.3	0.00e+00	0	59	0	595591168	46	4559
2026-01-12 09:58:45.68	101.91	84.61	-37.7	-39.3	16.5	0.00e+00	0	59	0	605028352	46	4484
2026-01-12 09:58:48.71	85.64	85.21	-37.6	-39.1	16.7	0.00e+00	0	59	0	614465536	46	4384
2026-01-12 09:58:51.74	66.73	85.34	-37.1	-38.6	17.2	0.00e+00	0	59	0	623902720	46	4106
2026-01-12 09:58:54.77	48.74	84.97	-37.1	-38.6	17.2	0.00e+00	0	59	0	633339904	45	4355
2026-01-12 09:58:57.80	34.42	84.19	-37.3	-38.8	17.0	0.00e+00	0	59	0	642777088	45	4486
2026-01-12 09:59:00.83	23.97	83.15	-37.5	-39.1	16.7	0.00e+00	0	59	0	652214272	45	4603
2026-01-12 09:59:03.86	16.49	81.95	-37.1	-38.6	17.2	0.00e+00	0	59	0	661651456	46	4134
2026-01-12 09:59:06.89	11.03	80.65	-36.8	-38.3	17.5	0.00e+00	0	59	0	671088640	45	4206
2026-01-12 09:59:09.92	6.94	79.30	-36.9	-38.4	17.5	0.00e+00	0	59	0	680525824	45	4267
2026-01-12 09:59:12.95	3.80	77.92	-37.6	-39.2	16.6	0.00e+00	0	59	0	689963008	46	4429
2026-01-12 09:59:15.98	1.32	76.52	-36.6	-38.0	17.9	0.00e+00	0	59	0	699400192	44	4308
2026-01-12 09:59:19.01	359.33	75.12	-37.6	-39.2	16.7	0.00e+00	0	59	0	708837376	46	4392
2026-01-12 09:59:22.03	357.69	73.72	-36.8	-38.3	17.6	0.00e+00	0	59	0	718274560	45	4218
2026-01-12 09:59:25.06	356.33	72.32	-38.2	-39.9	16.0	0.00e+00	0	59	0	727711744	46	4778
2026-01-12 09:59:28.09	355.17	70.93	-36.2	-37.5	18.3	0.00e+00	0	60	0	737148928	44	4082
2026-01-12 09:59:31.12	354.18	69.56	-36.7	-38.1	17.7	0.00e+00	0	59	0	746586112	44	4379
2026-01-12 09:59:34.15	353.33	68.20	-36.9	-38.3	17.5	0.00e+00	0	59	0	756023296	44	4465
2026-01-12 09:59:37.18	352.58	66.85	-36.9	-38.3	17.4	0.00e+00	0	60	0	765460480	44	4447
2026-01-12 09:59:40.21	351.93	65.53	-37.8	-39.4	16.5	0.00e+00	0	59	0	774897664	47	4289
2026-01-12 09:59:43.24	351.35	64.22	-36.4	-37.7	18.2	0.00e+00	0	59	0	785383424	44	4170
2026-01-12 09:59:46.27	350.83	62.94	-38.3	-40.0	16.0	4.50e-06	0	59	0	793772032	47	4580
2026-01-12 09:59:49.29	350.37	61.68	-37.9	-39.5	16.4	7.00e-07	0	59	0	804257792	47	4330
2026-01-12 09:59:52.32	349.95	60.44	-37.3	-38.8	17.1	7.00e-07	0	59	0	813694976	46	4241
2026-01-12 09:59:55.36	349.57	59.22	-38.6	-40.6	15.4	7.00e-07	0	59	0	823132160	47	4879
2026-01-12 09:59:58.39	349.22	58.02	-38.4	-40.1	15.9	0.00e+00	0	59	0	832569344	48	4352
2026-01-12 10:00:01.42	348.91	56.85	-37.9	-39.5	16.5	0.00e+00	0	60	0	842006528	47	4305
2026-01-12 10:00:04.44	348.62	55.70	-39.8	-41.9	14.2	1.50e-06	0	59	0	851443712	50	4797
2026-01-12 10:00:07.48	348.36	54.57	-40.0	-42.2	13.8	1.50e-06	0	60	0	860880896	51	4685
2026-01-12 10:00:10.50	348.11	53.47	-38.9	-40.7	15.4	7.00e-07	0	59	0	870318080	49	4413
2026-01-12 10:00:13.54	347.89	52.39	-38.5	-40.2	15.7	0.00e+00	0	59	0	879755264	47	4696
2026-01-12 10:00:16.56	347.68	51.34	-39.8	-41.9	14.2	7.00e-07	0	59	0	889192448	50	4812
2026-01-12 10:00:19.59	347.49	50.30	-40.1	-42.4	13.7	7.60e-06	0	60	0	898629632	50	5066
2026-01-12 10:00:22.63	347.30	49.29	-40.1	-42.4	13.6	8.30e-06	0	59	0	908066816	51	4797
2026-01-12 10:00:25.65	347.14	48.30	-40.0	-42.3	13.8	2.20e-06	0	60	0	917504000	51	4720
2026-01-12 10:00:28.69	346.98	47.33	-40.7	-43.4	12.6	9.53e-05	0	59	0	926941184	52	5046
2026-01-12 10:00:31.71	346.83	46.39	-40.7	-43.2	12.8	7.01e-05	0	59	0	936378368	52	4948
2026-01-12 10:00:34.75	346.69	45.46	-40.6	-43.1	12.9	3.66e-05	0	59	0	945815552	52	4889
2026-01-12 10:00:37.78	346.56	44.56	-40.7	-43.2	12.7	7.47e-05	0	59	0	955252736	52	4976
2026-01-12 10:00:40.81	346.44	43.67	-40.2	-42.6	13.4	1.29e-05	0	59	0	964689920	52	4614
2026-01-12 10:00:43.83	346.32	42.81	-40.1	-42.4	13.6	1.14e-05	0	60	0	974127104	51	4793
2026-01-12 10:00:46.86	346.22	41.97	-40.7	-43.2	12.7	1.04e-04	0	59	0	983564288	51	5267
2026-01-12 10:00:49.89	346.11	41.14	-40.5	-43.0	13.1	3.81e-05	0	59	0	993001472	51	5126
2026-01-12 10:00:52.91	346.02	40.33	-40.1	-42.4	13.7	1.06e-05	0	59	0	1002438656	51	4796
2026-01-12 10:00:55.94	345.92	39.54	-40.2	-42.5	13.6	6.10e-06	0	59	0	1011875840	51	4828
2026-01-12 10:00:58.97	345.84	38.77	-40.2	-42.6	13.4	1.44e-05	0	59	0	1021313024	51	4891
2026-01-12 10:01:02.00	345.76	38.02	-39.8	-42.0	14.1	3.80e-06	0	59	0	1030750208	51	4550
2026-01-12 10:01:05.03	345.68	37.28	-39.2	-41.2	14.9	0.00e+00	0	59	0	1040187392	50	4400
2026-01-12 10:01:08.06	345.60	36.56	-39.7	-41.8	14.2	0.00e+00	0	59	0	1049624576	50	4756
2026-01-12 10:01:11.09	345.53	35.85	-40.4	-42.8	13.1	2.44e-05	0	59	0	1059061760	51	5038
2026-01-12 10:01:14.12	345.46	35.16	-39.9	-42.1	13.9	7.00e-07	0	59	0	1068498944	51	4611
2026-01-12 10:01:17.15	345.40	34.48	-39.4	-41.4	14.6	2.20e-06	0	59	0	1077936128	50	4538
2026-01-12 10:01:20.18	345.34	33.82	-38.9	-40.7	15.2	0.00e+00	0	59	0	1087373312	49	4419
2026-01-12 10:01:23.20	345.28	33.17	-38.8	-40.6	15.4	0.00e+00	0	59	0	1096810496	49	4356
2026-01-12 10:01:26.24	345.23	32.54	-38.6	-40.3	15.6	0.00e+00	0	59	0	1107296256	49	4234
2026-01-12 10:01:29.27	345.17	31.91	-38.8	-40.6	15.3	0.00e+00	0	59	0	1115684864	49	4372
2026-01-12 10:01:32.30	345.12	31.31	-38.6	-40.5	15.4	0.00e+00	0	59	0	1126170624	49	4297
2026-01-12 10:01:35.33	345.07	30.71	-38.6	-40.4	15.5	0.00e+00	0	59	0	1135607808	49	4284
2026-01-12 10:01:38.36	345.03	30.13	-38.6	-40.4	15.5	0.00e+00	0	59	0	1145044992	49	4253
2026-01-12 10:01:41.39	344.98	29.55	-38.8	-40.7	15.1	0.00e+00	0	59	0	1154482176	49	4425
2026-01-12 10:01:44.42	344.94	28.99	-39.0	-41.0	14.8	0.00e+00	0	59	0	1163919360	49	4584
2026-01-12 10:01:47.45	344.90	28.44	-38.7	-40.6	15.1	1.50e-06	0	59	0	1173356544	49	4391
2026-01-12 10:01:50.47	344.86	27.90	-38.8	-40.8	14.9	0.00e+00	0	59	0	1182793728	49	4464
2026-01-12 10:01:53.50	344.83	27.37	-38.6	-40.4	15.3	0.00e+00	0	59	0	1192230912	49	4289
2026-01-12 10:01:56.53	344.79	26.85	-38.0	-39.7	16.0	0.00e+00	0	60	0	1201668096	48	4191
2026-01-12 10:01:59.56	344.76	26.35	-37.6	-39.3	16.3	0.00e+00	0	59	0	1211105280	47	4223
2026-01-12 10:02:02.60	344.72	25.84	-37.6	-39.2	16.3	0.00e+00	0	59	0	1220542464	47	4180
2026-01-12 10:02:05.62	344.69	25.35	-37.4	-39.0	16.5	0.00e+00	0	59	0	1229979648	46	4300
2026-01-12 10:02:08.65	344.66	24.87	-37.3	-39.0	16.5	0.00e+00	0	59	0	1239416832	46	4298
2026-01-12 10:02:11.68	344.63	24.40	-37.4	-39.0	16.4	0.00e+00	0	59	0	1248854016	46	4339
2026-01-12 10:02:14.71	344.61	23.94	-37.6	-39.3	16.0	0.00e+00	0	59	0	1258291200	46	4481
2026-01-12 10:02:17.74	344.58	23.48	-38.0	-39.8	15.5	0.00e+00	0	59	0	1267728384	46	4741
2026-01-12 10:02:20.77	344.56	23.03	-37.8	-39.7	15.3	0.00e+00	0	59	0	1277165568	46	4692
2026-01-12 10:02:23.80	344.53	22.59	-37.7	-39.8	14.8	0.00e+00	0	59	0	1286602752	46	4729
2026-01-12 10:02:26.83	344.51	22.16	-37.5	-39.5	14.9	7.00e-07	0	60	0	1296039936	46	4562
2026-01-12 10:02:29.85	344.49	21.73	-37.6	-39.8	14.2	0.00e+00	0	59	0	1305477120	46	4748
2026-01-12 10:02:32.88	344.47	21.31	-39.2	-42.5	10.9	7.51e-04	0	60	0	1314914304	48	5785
2026-01-12 10:02:35.91	344.44	20.90	-40.5	-47.2	5.7	3.22e-01	0	59	0	1324351488	51	8360
2026-01-12 10:02:38.94	344.43	20.49	-40.7	-51.8	3.8	1.48e+00	0	60	104	1327497216	52	13357
2026-01-12 10:02:41.97	344.41	20.09	-40.7	-53.2	3.8	1.49e+00	0	59	104	1327497216	52	15669
2026-01-12 10:02:45.00	344.39	19.70	-41.0	-52.7	3.8	1.49e+00	0	60	104	1327497216	52	14819
2026-01-12 10:02:48.02	344.37	19.32	-40.8	-53.1	3.8	1.49e+00	0	59	104	1327497216	52	15427
2026-01-12 10:02:51.06	344.35	18.93	-40.5	-53.1	3.8	1.49e+00	0	59	104	1327497216	52	15404
2026-01-12 10:02:54.09	344.34	18.56	-40.7	-53.1	3.8	1.49e+00	0	60	104	1327497216	52	15455
2026-01-12 10:02:57.12	344.32	18.19	-40.7	-53.3	3.8	1.49e+00	0	59	104	1327497216	52	15843
2026-01-12 10:03:00.15	344.31	17.83	-40.9	-53.3	3.8	1.49e+00	0	60	104	1327497216	52	15844
2026-01-12 10:03:03.18	344.30	17.47	-40.5	-53.0	3.8	1.49e+00	0	60	104	1327497216	52	15373
2026-01-12 10:03:06.21	344.28	17.11	-40.7	-53.2	3.8	1.49e+00	0	60	104	1327497216	52	15631
2026-01-12 10:03:09.24	344.27	16.77	-40.1	-53.0	3.8	1.49e+00	0	60	104	1327497216	51	16303
2026-01-12 10:03:12.27	344.26	16.42	-40.6	-53.3	3.8	1.49e+00	0	60	104	1327497216	52	15763
2026-01-12 10:03:15.30	344.25	16.08	-40.4	-53.0	3.8	1.49e+00	0	59	104	1327497216	52	15263
2026-01-12 10:03:18.33	344.23	15.75	-40.7	-53.4	3.8	1.49e+00	0	60	104	1327497216	52	15972
2026-01-12 10:03:21.36	344.22	15.42	-40.3	-53.1	3.8	1.49e+00	0	60	104	1327497216	52	15541
2026-01-12 10:03:24.39	344.21	15.10	-40.6	-53.3	3.8	1.49e+00	0	60	104	1327497216	52	15867
2026-01-12 10:03:27.42	344.20	14.78	-40.4	-53.1	3.8	1.49e+00	0	60	104	1327497216	52	15416
2026-01-12 10:03:30.45	344.20	14.46	-40.4	-53.1	3.8	1.49e+00	0	60	104	1327497216	52	15478
2026-01-12 10:03:33.48	344.19	14.15	-40.4	-53.1	3.8	1.49e+00	0	60	104	1327497216	52	15403
2026-01-12 10:03:36.51	344.18	13.84	-40.7	-53.2	3.8	1.49e+00	0	60	104	1327497216	52	15616
2026-01-12 10:03:39.54	344.17	13.53	-40.9	-53.2	3.8	1.49e+00	0	59	104	1327497216	52	15760
2026-01-12 10:03:42.57	344.16	13.23	-40.5	-52.9	3.8	1.49e+00	0	60	104	1327497216	52	15209
2026-01-12 10:03:45.60	344.16	12.93	-40.7	-53.1	3.8	1.49e+00	0	60	104	1327497216	52	15446
2026-01-12 10:03:48.63	344.15	12.64	-40.4	-52.9	3.8	1.49e+00	0	60	104	1327497216	52	15109
2026-01-12 10:03:51.66	344.14	12.35	-40.5	-52.9	3.8	1.49e+00	0	60	104	1327497216	52	15195
2026-01-12 10:03:54.69	344.14	12.06	-40.4	-52.8	3.8	1.49e+00	0	60	104	1327497216	52	14947
2026-01-12 10:03:57.73	344.13	11.78	-40.8	-53.2	3.8	1.49e+00	0	60	104	1327497216	52	15586
2026-01-12 10:04:00.76	344.13	11.50	-40.4	-52.7	3.8	1.49e+00	0	60	104	1327497216	52	14847
2026-01-12 10:04:03.78	344.12	11.22	-40.7	-53.1	3.8	1.49e+00	0	60	104	1327497216	52	15433
2026-01-12 10:04:06.81	344.12	10.95	-40.4	-52.8	3.8	1.49e+00	0	60	104	1327497216	52	14970
2026-01-12 10:04:09.84	344.11	10.68	-40.7	-53.1	3.8	1.49e+00	0	60	104	1327497216	52	15496
2026-01-12 10:04:12.87	344.11	10.41	-40.1	-52.5	3.8	1.49e+00	0	60	104	1327497216	52	14452
2026-01-12 10:04:15.90	344.11	10.15	-40.5	-52.8	3.8	1.49e+00	0	60	104	1327497216	52	15022
2026-01-12 10:04:18.93	344.10	9.88	-40.2	-52.6	3.8	1.49e+00	0	60	104	1327497216	52	14640
2026-01-12 10:04:21.97	344.10	9.62	-40.7	-53.1	3.8	1.49e+00	0	60	104	1327497216	52	15402
2026-01-12 10:04:25.00	344.10	9.37	-40.4	-52.7	3.8	1.49e+00	0	60	104	1327497216	52	14844
2026-01-12 10:04:28.02	344.10	9.11	-40.6	-52.9	3.8	1.49e+00	0	60	104	1327497216	52	15210
2026-01-12 10:04:31.05	344.09	8.86	-40.5	-52.9	3.8	1.49e+00	0	60	104	1327497216	52	15115
2026-01-12 10:04:34.08	344.09	8.61	-40.6	-52.9	3.8	1.49e+00	0	60	104	1327497216	52	15206
2026-01-12 10:04:37.11	344.09	8.37	-40.3	-52.6	3.8	1.49e+00	0	60	104	1327497216	52	14660
2026-01-12 10:04:40.14	344.09	8.12	-40.5	-52.8	3.8	1.49e+00	0	60	104	1327497216	52	14990
2026-01-12 10:04:43.17	344.09	7.88	-40.4	-52.8	3.8	1.49e+00	0	60	104	1327497216	51	15940
2026-01-12 10:04:46.21	344.09	7.64	-44.9	-57.3	3.8	1.49e+00	0	60	104	1327497216	60	15768
2026-01-12 10:04:49.24	344.09	7.40	-45.1	-57.5	3.8	1.49e+00	0	60	104	1327497216	60	16223
2026-01-12 10:04:52.27	344.08	7.17	-45.1	-57.5	3.8	1.49e+00	0	60	104	1327497216	60	16225
2026-01-12 10:04:55.31	344.08	6.94	-45.0	-57.4	3.8	1.49e+00	0	60	104	1327497216	60	16068
2026-01-12 10:04:58.34	344.08	6.70	-44.9	-57.3	3.8	1.49e+00	0	60	104	1327497216	60	15915
2026-01-12 10:05:01.37	344.08	6.48	-44.9	-57.3	3.8	1.49e+00	0	60	104	1327497216	60	15872
2026-01-12 10:05:04.41	344.09	6.25	-44.9	-57.3	3.8	1.49e+00	0	60	104	1327497216	60	15918
2026-01-12 10:05:07.44	344.09	6.02	-44.9	-57.3	3.8	1.49e+00	0	60	104	1327497216	60	15896
2026-01-12 10:05:10.47	344.09	5.80	-44.9	-57.3	3.8	1.49e+00	0	60	104	1327497216	60	15921
2026-01-12 10:05:13.50	344.09	5.58	-44.9	-57.3	3.8	1.49e+00	0	60	104	1327497216	60	15857
2026-01-12 10:05:16.54	344.09	5.36	-44.8	-57.3	3.8	1.49e+00	0	60	104	1327497216	60	15808
2026-01-12 10:05:19.57	344.09	5.14	-44.9	-57.3	3.8	1.49e+00	0	60	104	1327497216	60	15887
2026-01-12 10:05:22.60	344.09	4.93	-44.6	-57.3	3.8	1.49e+00	0	60	104	1327497216	60	15849
2026-01-12 10:05:25.64	344.09	4.71	-44.9	-57.3	3.8	1.49e+00	0	60	104	1327497216	60	15839
2026-01-12 10:05:28.67	344.09	4.50	-44.9	-57.3	3.8	1.49e+00	0	60	104	1327497216	60	15844
2026-01-12 10:05:31.71	344.10	4.29	-44.9	-57.3	3.8	1.49e+00	0	60	104	1327497216	60	15864
2026-01-12 10:05:34.74	344.10	4.08	-44.9	-57.3	3.8	1.49e+00	0	60	104	1327497216	60	15789
2026-01-12 10:05:37.77	344.10	3.87	-44.9	-57.3	3.8	1.49e+00	0	60	104	1327497216	60	15821
2026-01-12 10:05:40.80	344.10	3.67	-44.9	-57.3	3.8	1.49e+00	0	60	104	1327497216	60	15786
2026-01-12 10:05:43.83	344.11	3.46	-44.9	-57.3	3.8	1.49e+00	0	60	104	1327497216	60	15846
2026-01-12 10:05:46.86	344.11	3.26	-44.9	-57.3	3.8	1.49e+00	0	60	104	1327497216	60	15866
2026-01-12 10:05:49.89	344.11	3.06	-44.9	-57.3	3.8	1.49e+00	0	60	104	1327497216	60	15814
2026-01-12 10:05:52.92	344.11	2.86	-44.9	-57.3	3.8	1.49e+00	0	60	104	1327497216	60	15823
2026-01-12 10:05:55.96	344.12	2.66	-44.9	-57.3	3.8	1.49e+00	0	60	104	1327497216	60	15836
2026-01-12 10:05:58.99	344.12	2.46	-44.9	-57.3	3.8	1.49e+00	0	60	104	1327497216	60	15813
2026-01-12 10:06:02.02	344.12	2.27	-44.9	-57.3	3.8	1.49e+00	0	60	104	1327497216	60	15800
2026-01-12 10:06:05.06	344.13	2.07	-44.9	-57.3	3.8	1.49e+00	0	60	104	1327497216	60	15849

#Closed at: 2026-01-12 10:06:06
#Recorded file [1327 MB]: D:/lorett/data/31039_260112_125443.dat