passes_logs/2026/01/12/R2.0S_Moscow/R2.0S_Moscow__20260112_130142_FENGYUN_3D_rec.log

#Pass ID: 20260112_130142_FENGYUN 3D
#Satellite: FENGYUN 3D
#Configuration: FENGYUN 3D
#almurnet v.1.7.20251203
#Start time: 2026-01-12 13:01:43

#Version: 2.2.20231116
#Station: R2.0S_Moscow
#Location: 37.707566 lon 55.798166 lat
#TLE: 1 43010U 17072A   26011.97305084  .00000235  00000+0  13268-3 0  9993
#TLE: 2 43010  98.9935 343.7425 0002238 114.1623 245.9787 14.19695178422825

#Time	Az	El	Level	Level2	SNR	BER	BlckErr	Temp	State	Recorded	gain1	gain2
2026-01-12 13:01:43.97	192.33	2.12	-43.8	-55.1	3.8	8.45e-01	0	49	0	0	59	13025
2026-01-12 13:01:48.01	192.54	2.36	-43.8	-55.1	3.8	8.46e-01	0	50	104	0	59	13034
2026-01-12 13:01:52.05	192.75	2.61	-43.8	-55.1	3.8	8.46e-01	0	50	104	0	59	12983
2026-01-12 13:01:56.09	192.96	2.85	-43.8	-55.1	3.8	8.46e-01	0	51	104	0	59	13007
2026-01-12 13:02:00.14	193.18	3.10	-43.8	-55.1	3.8	8.46e-01	0	51	104	0	59	13044
2026-01-12 13:02:04.18	193.41	3.35	-43.8	-55.1	3.8	8.46e-01	0	51	104	0	59	13000
2026-01-12 13:02:08.22	193.63	3.61	-43.8	-55.1	3.8	8.47e-01	0	52	104	0	59	13062
2026-01-12 13:02:12.26	193.86	3.86	-43.8	-55.1	3.8	8.44e-01	0	52	104	0	59	13041
2026-01-12 13:02:16.31	194.10	4.12	-43.8	-55.1	3.8	8.46e-01	0	52	104	0	59	13048
2026-01-12 13:02:20.35	194.34	4.38	-43.8	-55.0	3.8	8.47e-01	0	52	104	0	59	12872
2026-01-12 13:02:24.39	194.58	4.64	-43.8	-54.8	3.8	8.47e-01	0	52	104	0	59	12659
2026-01-12 13:02:28.44	194.82	4.90	-43.7	-54.4	3.8	8.46e-01	0	53	104	0	59	12042
2026-01-12 13:02:32.48	195.08	5.17	-43.7	-54.0	3.8	8.46e-01	0	53	104	0	59	11512
2026-01-12 13:02:36.53	195.33	5.44	-43.6	-53.4	3.8	8.45e-01	0	53	104	0	59	10701
2026-01-12 13:02:40.57	195.59	5.71	-43.4	-52.4	3.9	8.43e-01	0	53	104	0	58	10123
2026-01-12 13:02:44.62	195.86	5.98	-43.3	-51.4	4.2	8.34e-01	0	54	0	0	58	9056
2026-01-12 13:02:48.66	196.12	6.25	-43.0	-50.0	4.8	7.90e-01	0	54	0	0	57	8089
2026-01-12 13:02:52.71	196.40	6.53	-42.6	-48.6	5.5	7.19e-01	0	54	0	0	57	6951
2026-01-12 13:02:56.75	196.68	6.81	-42.5	-48.3	5.8	4.80e-01	0	54	0	15728640	56	7073
2026-01-12 13:03:00.79	196.96	7.09	-42.1	-47.3	6.6	2.49e-01	0	54	0	38797312	56	6279
2026-01-12 13:03:04.84	197.25	7.38	-40.8	-44.6	9.0	3.36e-02	0	54	0	60817408	53	5493
2026-01-12 13:03:08.89	197.55	7.67	-40.1	-43.3	10.5	4.89e-03	0	55	0	83886080	51	5286
2026-01-12 13:03:12.93	197.85	7.96	-40.3	-43.6	10.1	7.60e-03	0	55	0	106954752	51	5506
2026-01-12 13:03:16.97	198.15	8.25	-43.2	-51.2	4.3	2.13e-02	0	55	0	119537664	56	9913
2026-01-12 13:03:21.01	198.47	8.55	-39.8	-42.7	11.3	9.52e-04	0	55	0	132120576	51	4977
2026-01-12 13:03:25.05	198.78	8.84	-39.7	-42.5	11.5	4.89e-04	0	55	0	155189248	51	4847
2026-01-12 13:03:29.09	199.11	9.15	-39.5	-42.2	11.9	2.83e-04	0	55	0	177209344	50	4968
2026-01-12 13:03:33.13	199.44	9.45	-39.4	-41.9	12.2	1.59e-04	0	55	0	200278016	50	4803
2026-01-12 13:03:37.17	199.78	9.76	-39.2	-41.7	12.5	8.69e-05	0	55	0	222298112	50	4688
2026-01-12 13:03:41.20	200.12	10.07	-39.2	-41.7	12.6	6.52e-05	0	55	0	245366784	50	4667
2026-01-12 13:03:45.24	200.47	10.38	-39.1	-41.6	12.7	3.66e-05	0	56	0	268435456	50	4622
2026-01-12 13:03:49.28	200.83	10.70	-39.1	-41.5	12.8	4.57e-05	0	56	0	291504128	49	4833
2026-01-12 13:03:53.32	201.20	11.01	-39.0	-41.4	12.9	2.97e-05	0	56	0	313524224	49	4778
2026-01-12 13:03:57.36	201.58	11.34	-38.9	-41.2	13.2	1.14e-05	0	56	0	336592896	49	4672
2026-01-12 13:04:01.40	201.96	11.66	-38.8	-41.0	13.4	4.50e-06	0	56	0	359661568	49	4594
2026-01-12 13:04:05.44	202.35	11.99	-38.8	-41.1	13.3	4.50e-06	0	56	0	381681664	49	4620
2026-01-12 13:04:09.48	202.75	12.32	-38.8	-41.0	13.4	1.02e-05	0	56	0	404750336	49	4591
2026-01-12 13:04:13.52	203.16	12.66	-38.7	-41.0	13.5	6.80e-06	0	56	0	426770432	49	4572
2026-01-12 13:04:17.56	203.58	13.00	-38.6	-40.8	13.7	5.70e-06	0	56	0	449839104	49	4463
2026-01-12 13:04:21.60	204.00	13.34	-38.4	-40.6	14.0	1.10e-06	0	56	0	472907776	48	4617
2026-01-12 13:04:25.64	204.44	13.68	-38.5	-40.7	13.9	2.20e-06	0	57	0	495976448	48	4668
2026-01-12 13:04:29.68	204.89	14.03	-38.3	-40.4	14.1	0.00e+00	0	57	0	517996544	48	4540
2026-01-12 13:04:33.71	205.34	14.39	-38.3	-40.3	14.3	0.00e+00	0	57	0	541065216	48	4485
2026-01-12 13:04:37.75	205.81	14.74	-38.3	-40.4	14.3	0.00e+00	0	57	0	564133888	48	4504
2026-01-12 13:04:41.80	206.29	15.10	-38.4	-40.6	14.1	1.10e-06	0	57	0	586153984	48	4613
2026-01-12 13:04:45.84	206.78	15.46	-38.2	-40.3	14.4	0.00e+00	0	57	0	609222656	48	4456
2026-01-12 13:04:49.88	207.28	15.83	-38.1	-40.1	14.6	0.00e+00	0	57	0	632291328	48	4372
2026-01-12 13:04:53.92	207.80	16.20	-38.1	-40.1	14.6	0.00e+00	0	57	0	654311424	48	4380
2026-01-12 13:04:57.96	208.32	16.57	-38.2	-40.3	14.4	0.00e+00	0	57	0	677380096	48	4455
2026-01-12 13:05:02.00	208.86	16.95	-38.2	-40.2	14.5	1.10e-06	0	57	0	700448768	48	4424
2026-01-12 13:05:06.04	209.41	17.33	-38.1	-40.1	14.6	1.10e-06	0	57	0	722468864	48	4386
2026-01-12 13:05:10.08	209.98	17.71	-37.8	-39.7	14.9	0.00e+00	0	57	0	745537536	47	4431
2026-01-12 13:05:14.12	210.56	18.10	-37.8	-39.7	14.9	0.00e+00	0	57	0	768606208	47	4423
2026-01-12 13:05:18.16	211.16	18.49	-37.8	-39.7	14.9	0.00e+00	0	58	0	790626304	47	4430
2026-01-12 13:05:22.20	211.77	18.88	-37.6	-39.5	15.2	0.00e+00	0	57	0	813694976	47	4327
2026-01-12 13:05:26.24	212.39	19.28	-37.4	-39.3	15.4	0.00e+00	0	57	0	836763648	46	4483
2026-01-12 13:05:30.28	213.03	19.68	-37.5	-39.4	15.3	0.00e+00	0	58	0	858783744	46	4531
2026-01-12 13:05:34.32	213.69	20.08	-37.5	-39.4	15.3	0.00e+00	0	58	0	881852416	46	4504
2026-01-12 13:05:38.36	214.37	20.49	-37.4	-39.3	15.5	0.00e+00	0	58	0	904921088	46	4443
2026-01-12 13:05:42.41	215.06	20.90	-37.3	-39.2	15.5	0.00e+00	0	57	0	926941184	46	4413
2026-01-12 13:05:46.45	215.77	21.31	-37.2	-39.0	15.7	0.00e+00	0	58	0	950009856	46	4324
2026-01-12 13:05:50.49	216.50	21.72	-37.2	-39.0	15.7	0.00e+00	0	58	0	973078528	46	4337
2026-01-12 13:05:54.53	217.25	22.13	-36.8	-38.6	16.1	0.00e+00	0	58	0	996147200	45	4371
2026-01-12 13:05:58.57	218.02	22.55	-36.9	-38.6	16.1	0.00e+00	0	58	0	1018167296	45	4374
2026-01-12 13:06:02.61	218.81	22.97	-36.8	-38.5	16.2	0.00e+00	0	58	0	1041235968	45	4321
2026-01-12 13:06:06.65	219.62	23.38	-36.8	-38.5	16.2	0.00e+00	0	58	0	1063256064	45	4322
2026-01-12 13:06:10.69	220.45	23.80	-36.7	-38.4	16.3	0.00e+00	0	58	0	1086324736	45	4287
2026-01-12 13:06:14.73	221.31	24.22	-36.6	-38.3	16.5	0.00e+00	0	58	0	1109393408	45	4223
2026-01-12 13:06:18.77	222.18	24.64	-36.5	-38.2	16.5	0.00e+00	0	58	0	1131413504	45	4172
2026-01-12 13:06:22.81	223.08	25.06	-36.5	-38.3	16.5	0.00e+00	0	58	0	1154482176	45	4196
2026-01-12 13:06:26.84	224.00	25.48	-36.5	-38.2	16.6	0.00e+00	0	58	0	1177550848	45	4166
2026-01-12 13:06:30.88	224.95	25.90	-36.6	-38.4	16.4	0.00e+00	0	58	0	1200619520	45	4248
2026-01-12 13:06:34.93	225.92	26.31	-36.3	-38.0	16.8	0.00e+00	0	58	0	1222639616	44	4299
2026-01-12 13:06:38.97	226.92	26.72	-36.2	-37.8	16.9	0.00e+00	0	58	0	1245708288	44	4241
2026-01-12 13:06:43.01	227.94	27.13	-36.3	-37.9	16.8	0.00e+00	0	58	0	1267728384	44	4286
2026-01-12 13:06:47.05	228.99	27.54	-36.2	-37.9	16.9	0.00e+00	0	58	0	1290797056	44	4250
2026-01-12 13:06:51.09	230.07	27.94	-36.1	-37.7	17.1	0.00e+00	0	58	0	1313865728	44	4168
2026-01-12 13:06:55.12	231.16	28.34	-36.0	-37.6	17.2	0.00e+00	0	58	0	1335885824	44	4106
2026-01-12 13:06:59.17	232.30	28.73	-36.0	-37.6	17.2	0.00e+00	0	58	0	1358954496	44	4118
2026-01-12 13:07:03.21	233.45	29.11	-35.9	-37.5	17.1	0.00e+00	0	58	0	1382023168	43	4334
2026-01-12 13:07:07.25	234.63	29.49	-35.6	-37.2	17.4	0.00e+00	0	58	0	1405091840	43	4160
2026-01-12 13:07:11.28	235.84	29.85	-35.8	-37.4	17.2	0.00e+00	0	58	0	1427111936	43	4274
2026-01-12 13:07:15.32	237.07	30.21	-35.8	-37.4	17.2	0.00e+00	0	58	0	1450180608	43	4245
2026-01-12 13:07:19.37	238.34	30.56	-35.9	-37.5	17.1	0.00e+00	0	58	0	1472200704	43	4306
2026-01-12 13:07:23.41	239.63	30.90	-35.9	-37.5	17.1	0.00e+00	0	58	0	1495269376	43	4316
2026-01-12 13:07:27.45	240.94	31.22	-35.9	-37.6	17.0	0.00e+00	0	58	0	1518338048	43	4361
2026-01-12 13:07:31.49	242.29	31.53	-35.7	-37.3	17.3	0.00e+00	0	59	0	1541406720	43	4196
2026-01-12 13:07:35.53	243.65	31.83	-35.8	-37.4	17.2	0.00e+00	0	59	0	1563426816	43	4248
2026-01-12 13:07:39.58	245.05	32.11	-35.4	-36.9	17.7	0.00e+00	0	59	0	1586495488	42	4258
2026-01-12 13:07:43.61	246.45	32.38	-35.9	-37.6	17.1	0.00e+00	0	58	0	1609564160	42	4599
2026-01-12 13:07:47.65	247.89	32.63	-35.8	-37.4	17.2	0.00e+00	0	59	0	1631584256	42	4545
2026-01-12 13:07:51.69	249.35	32.86	-35.8	-37.5	17.1	0.00e+00	0	59	0	1654652928	42	4552
2026-01-12 13:07:55.73	250.82	33.07	-35.7	-37.3	17.3	0.00e+00	0	58	0	1676673024	42	4472
2026-01-12 13:07:59.77	252.32	33.26	-35.6	-37.1	17.4	0.00e+00	0	59	0	1699741696	42	4383
2026-01-12 13:08:03.81	253.83	33.43	-35.7	-37.3	17.3	0.00e+00	0	59	0	1722810368	42	4454
2026-01-12 13:08:07.83	255.34	33.58	-35.7	-37.2	17.4	0.00e+00	0	59	0	1745879040	42	4430
2026-01-12 13:08:11.87	256.88	33.71	-35.6	-37.2	17.4	0.00e+00	0	59	0	1767899136	42	4414
2026-01-12 13:08:15.91	258.43	33.82	-35.8	-37.2	17.6	0.00e+00	0	59	0	1790967808	42	4439
2026-01-12 13:08:19.95	259.99	33.90	-35.6	-37.0	17.9	0.00e+00	0	59	0	1814036480	42	4324
2026-01-12 13:08:23.99	261.55	33.96	-35.7	-37.1	17.8	0.00e+00	0	59	0	1836056576	42	4344
2026-01-12 13:08:28.02	263.11	34.00	-35.8	-37.2	17.7	0.00e+00	0	59	0	1859125248	42	4436
2026-01-12 13:08:32.06	264.68	34.01	-35.7	-37.1	17.8	0.00e+00	0	59	0	1881145344	42	4364
2026-01-12 13:08:36.11	266.26	34.00	-35.8	-37.2	17.7	0.00e+00	0	59	0	1904214016	42	4441
2026-01-12 13:08:40.15	267.83	33.97	-35.8	-37.3	17.6	0.00e+00	0	58	0	1927282688	42	4443
2026-01-12 13:08:44.19	269.39	33.91	-35.9	-37.3	17.6	0.00e+00	0	59	0	1950351360	42	4475
2026-01-12 13:08:48.23	270.95	33.83	-35.7	-37.0	17.9	0.00e+00	0	59	0	1972371456	42	4337
2026-01-12 13:08:52.27	272.50	33.73	-36.0	-37.4	17.5	0.00e+00	0	59	0	1995440128	42	4533
2026-01-12 13:08:56.31	274.03	33.61	-35.7	-37.1	17.8	0.00e+00	0	59	0	2018508800	42	4357
2026-01-12 13:09:00.35	275.56	33.46	-35.7	-37.0	17.8	0.00e+00	0	59	0	2040528896	42	4338
2026-01-12 13:09:04.39	277.07	33.29	-36.0	-37.4	17.5	0.00e+00	0	59	0	2063597568	42	4519
2026-01-12 13:09:08.43	278.56	33.10	-36.1	-37.6	17.3	0.00e+00	0	59	0	2086666240	42	4638
2026-01-12 13:09:12.46	280.04	32.90	-36.0	-37.4	17.5	0.00e+00	0	59	0	2108686336	43	4274
2026-01-12 13:09:16.50	281.49	32.67	-36.0	-37.4	17.5	0.00e+00	0	59	0	2131755008	43	4272
2026-01-12 13:09:20.55	282.93	32.42	-36.0	-37.5	17.4	0.00e+00	0	59	0	2154823680	43	4311
2026-01-12 13:09:24.59	284.34	32.16	-35.9	-37.3	17.6	0.00e+00	0	59	0	2176843776	43	4207
2026-01-12 13:09:28.62	285.73	31.89	-36.2	-37.7	17.2	0.00e+00	0	59	0	2199912448	43	4402
2026-01-12 13:09:32.66	287.10	31.59	-36.3	-37.8	17.1	0.00e+00	0	59	0	2221932544	43	4468
2026-01-12 13:09:36.70	288.44	31.29	-36.1	-37.6	17.3	0.00e+00	0	59	0	2245001216	43	4353
2026-01-12 13:09:40.73	289.75	30.97	-36.1	-37.5	17.3	0.00e+00	0	59	0	2268069888	43	4312
2026-01-12 13:09:44.78	291.05	30.63	-36.2	-37.7	17.1	0.00e+00	0	59	0	2291138560	43	4420
2026-01-12 13:09:48.81	292.31	30.29	-36.2	-37.6	17.2	0.00e+00	0	59	0	2313158656	43	4388
2026-01-12 13:09:52.85	293.54	29.93	-36.2	-37.7	17.1	0.00e+00	0	59	0	2336227328	43	4414
2026-01-12 13:09:56.89	294.75	29.57	-36.2	-37.6	17.2	0.00e+00	0	59	0	2359296000	43	4387
2026-01-12 13:10:00.94	295.94	29.20	-36.3	-37.8	17.0	0.00e+00	0	59	0	2381316096	43	4459
2026-01-12 13:10:04.98	297.10	28.82	-36.2	-37.7	17.1	0.00e+00	0	59	0	2404384768	43	4414
2026-01-12 13:10:09.01	298.22	28.43	-36.4	-37.9	16.9	0.00e+00	0	59	0	2426404864	43	4515
2026-01-12 13:10:13.05	299.32	28.04	-36.5	-38.0	16.8	0.00e+00	0	59	0	2449473536	43	4586
2026-01-12 13:10:17.09	300.40	27.64	-36.4	-37.9	16.9	0.00e+00	0	59	0	2472542208	43	4508
2026-01-12 13:10:21.13	301.45	27.24	-36.5	-38.0	16.7	0.00e+00	0	59	0	2495610880	43	4587
2026-01-12 13:10:25.17	302.47	26.83	-36.5	-38.0	16.7	0.00e+00	0	59	0	2517630976	43	4584
2026-01-12 13:10:29.21	303.47	26.42	-36.5	-38.0	16.8	0.00e+00	0	59	0	2540699648	43	4572
2026-01-12 13:10:33.25	304.45	26.01	-36.4	-38.0	16.8	0.00e+00	0	59	0	2563768320	43	4565
2026-01-12 13:10:37.29	305.39	25.60	-36.6	-38.3	16.5	0.00e+00	0	59	0	2585788416	43	4706
2026-01-12 13:10:41.32	306.32	25.18	-36.5	-38.0	16.7	0.00e+00	0	59	0	2608857088	43	4590
2026-01-12 13:10:45.36	307.22	24.77	-36.7	-38.3	16.5	0.00e+00	0	59	0	2630877184	43	4710
2026-01-12 13:10:49.40	308.10	24.35	-36.8	-38.4	16.5	0.00e+00	0	59	0	2653945856	44	4523
2026-01-12 13:10:53.44	308.95	23.93	-36.8	-38.3	16.5	0.00e+00	0	59	0	2677014528	44	4493
2026-01-12 13:10:57.48	309.78	23.52	-36.9	-38.5	16.3	0.00e+00	0	59	0	2700083200	44	4587
2026-01-12 13:11:01.52	310.60	23.10	-37.1	-38.7	16.1	0.00e+00	0	59	0	2722103296	44	4678
2026-01-12 13:11:05.56	311.39	22.69	-37.1	-38.8	16.0	0.00e+00	0	59	0	2745171968	44	4725
2026-01-12 13:11:09.60	312.16	22.27	-37.1	-38.8	16.0	0.00e+00	0	59	0	2768240640	44	4709
2026-01-12 13:11:13.64	312.91	21.86	-37.6	-39.3	15.5	0.00e+00	0	59	0	2790260736	45	4752
2026-01-12 13:11:17.68	313.64	21.45	-37.6	-39.3	15.5	0.00e+00	0	59	0	2813329408	45	4742
2026-01-12 13:11:21.72	314.36	21.05	-37.7	-39.5	15.3	0.00e+00	0	59	0	2835349504	45	4834
2026-01-12 13:11:25.76	315.05	20.64	-37.8	-39.6	15.2	0.00e+00	0	59	0	2858418176	46	4609
2026-01-12 13:11:29.80	315.73	20.24	-37.6	-39.3	15.4	0.00e+00	0	59	0	2881486848	46	4480
2026-01-12 13:11:33.84	316.39	19.84	-37.6	-39.4	15.3	0.00e+00	0	59	0	2904555520	46	4532
2026-01-12 13:11:37.88	317.03	19.44	-37.8	-39.6	15.1	0.00e+00	0	59	0	2926575616	46	4625
2026-01-12 13:11:41.91	317.66	19.05	-38.0	-39.8	14.9	0.00e+00	0	59	0	2949644288	46	4757
2026-01-12 13:11:45.96	318.28	18.66	-38.1	-40.0	14.7	0.00e+00	0	59	0	2972712960	46	4816
2026-01-12 13:11:50.00	318.87	18.27	-38.2	-40.1	14.5	0.00e+00	0	59	0	2994733056	46	4907
2026-01-12 13:11:54.04	319.46	17.89	-38.2	-40.2	14.5	0.00e+00	0	59	0	3017801728	47	4657
2026-01-12 13:11:58.08	320.03	17.50	-38.1	-40.0	14.6	0.00e+00	0	59	0	3040870400	47	4584
2026-01-12 13:12:02.11	320.58	17.13	-38.4	-40.4	14.2	0.00e+00	0	59	0	3062890496	47	4770
2026-01-12 13:12:06.16	321.12	16.75	-38.5	-40.6	14.0	2.20e-06	0	59	0	3085959168	47	4874
2026-01-12 13:12:10.19	321.65	16.38	-38.4	-40.4	14.1	0.00e+00	0	59	0	3109027840	47	4792
2026-01-12 13:12:14.24	322.17	16.01	-38.4	-40.5	14.0	1.10e-06	0	59	0	3131047936	47	4832
2026-01-12 13:12:18.28	322.67	15.65	-38.5	-40.6	13.9	1.10e-06	0	59	0	3154116608	47	4902
2026-01-12 13:12:22.32	323.17	15.29	-38.8	-41.0	13.6	8.00e-06	0	59	0	3177185280	48	4831
2026-01-12 13:12:26.36	323.65	14.93	-38.6	-40.7	13.9	1.10e-06	0	59	0	3199205376	48	4695
2026-01-12 13:12:30.40	324.12	14.58	-38.6	-40.6	13.9	4.50e-06	0	59	0	3222274048	48	4651
2026-01-12 13:12:34.44	324.58	14.23	-38.7	-40.8	13.7	5.70e-06	0	59	0	3245342720	48	4744
2026-01-12 13:12:38.48	325.03	13.88	-38.8	-40.9	13.6	2.20e-06	0	59	0	3267362816	48	4797
2026-01-12 13:12:42.52	325.47	13.53	-38.9	-41.1	13.3	1.37e-05	0	59	0	3290431488	48	4921
2026-01-12 13:12:46.56	325.90	13.19	-39.0	-41.3	13.2	1.48e-05	0	59	0	3313500160	48	4996
2026-01-12 13:12:50.60	326.32	12.86	-39.2	-41.6	12.9	2.86e-05	0	59	0	3335520256	48	5160
2026-01-12 13:12:54.64	326.73	12.52	-39.2	-41.6	12.8	4.80e-05	0	59	0	3358588928	49	4903
2026-01-12 13:12:58.69	327.14	12.19	-39.3	-41.7	12.6	6.98e-05	0	59	0	3381657600	49	4981
2026-01-12 13:13:02.73	327.53	11.87	-39.4	-41.9	12.4	1.07e-04	0	59	0	3404726272	49	5062
2026-01-12 13:13:06.77	327.92	11.54	-39.3	-41.8	12.5	8.01e-05	0	59	0	3426746368	49	4985
2026-01-12 13:13:10.80	328.30	11.22	-39.5	-42.0	12.2	1.28e-04	0	59	0	3449815040	49	5133
2026-01-12 13:13:14.84	328.67	10.90	-39.5	-42.1	12.1	1.58e-04	0	59	0	3471835136	49	5194
2026-01-12 13:13:18.88	329.03	10.59	-39.6	-42.2	11.9	2.54e-04	0	59	0	3494903808	49	5250
2026-01-12 13:13:22.92	329.39	10.28	-39.6	-42.2	11.9	3.11e-04	0	59	0	3517972480	50	4960
2026-01-12 13:13:26.96	329.73	9.97	-39.6	-42.3	11.8	4.11e-04	0	59	0	3539992576	50	4984
2026-01-12 13:13:31.00	330.08	9.66	-39.7	-42.4	11.6	3.90e-04	0	60	0	3563061248	50	5079
2026-01-12 13:13:35.04	330.41	9.36	-39.7	-42.4	11.6	5.16e-04	0	59	0	3586129920	50	5074
2026-01-12 13:13:39.08	330.74	9.06	-39.7	-42.4	11.5	6.83e-04	0	59	0	3609198592	50	5094
2026-01-12 13:13:43.11	331.06	8.77	-39.8	-42.6	11.3	1.09e-03	0	59	0	3631218688	50	5174
2026-01-12 13:13:47.14	331.38	8.47	-39.9	-42.9	10.9	1.59e-03	0	59	0	3654287360	50	5372
2026-01-12 13:13:51.19	331.69	8.18	-39.7	-42.5	11.2	8.67e-04	0	59	0	3676307456	50	5144
2026-01-12 13:13:55.23	331.99	7.89	-44.4	-55.6	3.8	8.46e-01	0	59	104	3689938944	59	13760
2026-01-12 13:13:59.27	332.29	7.61	-45.0	-56.5	3.8	8.46e-01	0	60	104	3689938944	60	14526
2026-01-12 13:14:03.29	332.59	7.32	-45.1	-56.6	3.8	8.46e-01	0	59	104	3689938944	60	14692
2026-01-12 13:14:07.33	332.87	7.04	-45.0	-56.6	3.8	8.46e-01	0	59	104	3689938944	60	14595
2026-01-12 13:14:11.37	333.16	6.76	-45.0	-56.5	3.8	8.45e-01	0	59	104	3689938944	60	14510
2026-01-12 13:14:15.41	333.44	6.49	-45.0	-56.5	3.8	8.46e-01	0	59	104	3689938944	60	14496
2026-01-12 13:14:19.46	333.71	6.21	-45.0	-56.5	3.8	8.45e-01	0	60	104	3689938944	60	14517
2026-01-12 13:14:23.50	333.98	5.94	-45.0	-56.5	3.8	8.46e-01	0	59	104	3689938944	60	14525
2026-01-12 13:14:27.54	334.24	5.67	-45.0	-56.5	3.8	8.46e-01	0	60	104	3689938944	60	14499
2026-01-12 13:14:31.58	334.50	5.41	-44.8	-56.5	3.8	8.46e-01	0	60	104	3689938944	60	14470
2026-01-12 13:14:35.62	334.76	5.14	-45.0	-56.5	3.8	8.46e-01	0	59	104	3689938944	60	14461
2026-01-12 13:14:39.67	335.01	4.88	-44.9	-56.5	3.8	8.46e-01	0	60	104	3689938944	60	14466
2026-01-12 13:14:43.71	335.26	4.62	-45.0	-56.5	3.8	8.44e-01	0	59	104	3689938944	60	14454
2026-01-12 13:14:47.75	335.50	4.36	-44.9	-56.5	3.8	8.45e-01	0	59	104	3689938944	60	14436
2026-01-12 13:14:51.80	335.74	4.11	-45.0	-56.5	3.8	8.45e-01	0	60	104	3689938944	60	14436
2026-01-12 13:14:55.84	335.97	3.85	-44.9	-56.5	3.8	8.46e-01	0	59	104	3689938944	60	14438
2026-01-12 13:14:59.88	336.21	3.60	-44.9	-56.5	3.8	8.47e-01	0	60	104	3689938944	60	14397
2026-01-12 13:15:03.93	336.44	3.35	-44.9	-56.5	3.8	8.47e-01	0	59	104	3689938944	60	14399
2026-01-12 13:15:07.98	336.66	3.10	-44.9	-56.5	3.8	8.45e-01	0	59	104	3689938944	60	14437
2026-01-12 13:15:12.02	336.88	2.86	-44.9	-56.5	3.8	8.47e-01	0	59	104	3689938944	60	14429
2026-01-12 13:15:16.07	337.10	2.61	-44.9	-56.5	3.8	8.47e-01	0	59	104	3689938944	60	14414
2026-01-12 13:15:20.11	337.31	2.37	-44.9	-56.5	3.8	8.45e-01	0	59	104	3689938944	60	14430
2026-01-12 13:15:24.15	337.53	2.13	-44.9	-56.5	3.8	8.46e-01	0	60	104	3689938944	60	14381
2026-01-12 13:15:28.20	337.73	1.89	-44.9	-56.5	3.8	8.46e-01	0	60	104	3689938944	60	14419

#Closed at: 2026-01-12 13:15:28
#Recorded file [3689 MB]: D:/lorett/data/31039_260112_160143.dat