passes_logs/2026/01/12/R2.0S_Moscow/R2.0S_Moscow__20260112_223144_SUOMI_NPP_rec.log

#Pass ID: 20260112_223144_SUOMI NPP
#Satellite: SUOMI NPP
#Configuration: NPP
#almurnet v.1.7.20251203
#Start time: 2026-01-12 22:37:34

#Version: 2.2.20231116
#Station: R2.0S_Moscow
#Location: 37.707566 lon 55.798166 lat
#TLE: 1 37849U 11061A   26012.28456845  .00000093  00000+0  65163-4 0  9999
#TLE: 2 37849  98.7807 314.3566 0002508  68.3553 291.7890 14.19524725736322

#Time	Az	El	Level	Level2	SNR	BER	BlckErr	Temp	State	Recorded	gain1	gain2
2026-01-12 22:37:34.19	74.40	27.88	-45.1	-63.4	3.8	8.46e-01	0	59	0	0	61	30290
2026-01-12 22:37:36.21	75.02	27.99	-45.4	-59.9	3.8	1.49e+00	0	59	104	0	62	19159
2026-01-12 22:37:38.23	75.64	28.09	-45.4	-60.0	3.8	1.49e+00	0	59	104	0	62	19311
2026-01-12 22:37:40.25	76.27	28.20	-45.3	-59.9	3.8	1.49e+00	0	59	104	0	62	18968
2026-01-12 22:37:42.27	76.90	28.29	-45.1	-59.6	3.8	1.49e+00	0	59	104	0	62	18452
2026-01-12 22:37:44.28	77.53	28.39	-45.0	-59.6	3.8	1.49e+00	0	59	104	0	62	18338
2026-01-12 22:37:46.30	78.17	28.48	-45.0	-59.5	3.8	1.49e+00	0	59	104	0	62	18226
2026-01-12 22:37:48.32	78.82	28.57	-45.0	-59.5	3.8	1.49e+00	0	59	104	0	61	19279
2026-01-12 22:37:50.34	79.46	28.65	-44.9	-59.5	3.8	1.49e+00	0	59	104	0	61	19227
2026-01-12 22:37:52.36	80.11	28.73	-44.9	-59.4	3.8	1.49e+00	0	59	104	0	61	19166
2026-01-12 22:37:54.38	80.77	28.81	-44.9	-59.5	3.8	1.49e+00	0	59	104	0	61	19174
2026-01-12 22:37:56.40	81.42	28.88	-44.9	-59.3	3.8	1.49e+00	0	59	104	0	61	18867
2026-01-12 22:37:58.42	82.08	28.95	-44.9	-59.2	3.8	1.49e+00	0	59	104	0	61	18718
2026-01-12 22:38:00.44	82.74	29.01	-44.9	-59.3	3.8	1.49e+00	0	59	104	0	61	18854
2026-01-12 22:38:02.46	83.41	29.07	-44.9	-59.1	3.8	1.49e+00	0	59	104	0	61	18463
2026-01-12 22:38:04.48	84.07	29.13	-44.8	-59.0	3.8	1.49e+00	0	59	104	0	61	18167
2026-01-12 22:38:06.50	84.74	29.19	-44.8	-59.2	3.8	1.49e+00	0	59	104	0	61	18532
2026-01-12 22:38:08.52	85.41	29.23	-44.8	-58.8	3.8	1.49e+00	0	59	104	0	61	17760
2026-01-12 22:38:10.53	86.08	29.28	-44.8	-58.5	3.8	1.49e+00	0	59	104	0	61	17184
2026-01-12 22:38:12.56	86.76	29.32	-44.8	-59.0	3.8	1.49e+00	0	59	104	0	61	18133
2026-01-12 22:38:14.57	87.43	29.36	-44.9	-59.3	3.8	1.49e+00	0	59	104	0	61	18785
2026-01-12 22:38:16.60	88.11	29.39	-44.9	-59.3	3.8	1.49e+00	0	59	104	0	61	18915
2026-01-12 22:38:18.62	88.79	29.42	-44.7	-57.0	3.8	1.49e+00	0	59	104	0	61	14519
2026-01-12 22:38:20.64	89.47	29.44	-44.4	-53.5	5.2	6.39e-01	0	59	0	2097152	60	10271
2026-01-12 22:38:22.66	90.15	29.46	-44.4	-53.7	5.1	5.19e-01	0	59	0	5242880	60	10505
2026-01-12 22:38:24.68	90.84	29.47	-44.8	-57.9	3.8	1.49e+00	0	59	104	7340032	60	16963
2026-01-12 22:38:26.70	91.52	29.48	-43.7	-50.0	8.0	1.99e-01	0	59	0	9437184	59	7228
2026-01-12 22:38:28.72	92.20	29.49	-44.9	-57.5	3.8	1.94e-01	0	59	104	12582912	60	16275
2026-01-12 22:38:30.74	92.88	29.49	-44.7	-54.8	4.9	8.09e-02	0	59	0	13631488	59	12592
2026-01-12 22:38:32.76	93.57	29.49	-43.5	-49.2	8.9	6.94e-01	0	59	0	14680064	58	6978
2026-01-12 22:38:34.78	94.25	29.48	-43.2	-48.3	9.8	1.12e-02	0	59	0	17825792	58	6285
2026-01-12 22:38:36.80	94.93	29.47	-42.8	-47.4	10.6	4.58e-03	0	59	0	22020096	57	5993
2026-01-12 22:38:38.82	95.61	29.46	-42.9	-47.7	10.3	2.72e-03	0	59	0	26214400	57	6229
2026-01-12 22:38:40.83	96.29	29.44	-43.4	-49.1	8.9	2.33e-02	0	60	0	29360128	57	7367
2026-01-12 22:38:42.85	96.97	29.41	-43.5	-49.2	8.8	3.36e-02	0	60	0	33554432	57	7452
2026-01-12 22:38:44.87	97.65	29.39	-43.3	-48.6	9.4	2.06e-02	0	60	0	36700160	57	6919
2026-01-12 22:38:46.89	98.33	29.35	-43.4	-49.0	9.0	3.06e-02	0	59	0	40894464	57	7232
2026-01-12 22:38:48.91	99.01	29.32	-43.3	-48.7	9.3	2.32e-02	0	60	0	45088768	57	7020
2026-01-12 22:38:50.93	99.68	29.27	-43.5	-49.3	8.7	2.79e-02	0	60	0	48234496	57	7492
2026-01-12 22:38:52.95	100.35	29.23	-43.9	-50.5	7.5	8.56e-02	0	60	0	52428800	58	8148
2026-01-12 22:38:54.97	101.03	29.18	-43.7	-50.0	7.9	7.17e-02	0	60	0	55574528	58	7696
2026-01-12 22:38:56.99	101.70	29.13	-43.7	-50.0	8.0	5.71e-02	0	60	0	59768832	58	7713
2026-01-12 22:38:59.00	102.36	29.07	-43.9	-50.6	7.5	9.81e-02	0	60	0	63963136	58	8197
2026-01-12 22:39:01.02	103.02	29.01	-43.6	-49.5	8.5	4.74e-02	0	60	0	67108864	58	7234
2026-01-12 22:39:03.04	103.69	28.94	-43.4	-49.0	9.1	1.86e-02	0	60	0	71303168	58	6806
2026-01-12 22:39:05.06	104.35	28.87	-44.0	-51.1	6.9	1.26e-01	0	60	0	74448896	58	8717
2026-01-12 22:39:07.08	105.00	28.80	-43.9	-50.8	7.2	1.84e-01	0	60	0	78643200	58	8391
2026-01-12 22:39:09.09	105.65	28.72	-43.5	-49.4	8.6	4.43e-02	0	60	0	82837504	58	7155
2026-01-12 22:39:11.11	106.30	28.64	-43.2	-48.4	9.6	1.28e-02	0	60	0	85983232	58	6420
2026-01-12 22:39:13.13	106.95	28.56	-43.1	-48.1	9.9	1.11e-02	0	60	0	90177536	58	6171
2026-01-12 22:39:15.15	107.59	28.47	-43.0	-47.9	10.1	5.51e-03	0	60	0	93323264	57	6385
2026-01-12 22:39:17.17	108.24	28.38	-43.0	-47.8	10.2	4.73e-03	0	60	0	97517568	57	6318
2026-01-12 22:39:19.19	108.87	28.28	-43.2	-48.3	9.7	1.09e-02	0	60	0	101711872	57	6704
2026-01-12 22:39:21.21	109.51	28.18	-43.1	-48.1	10.0	8.86e-03	0	60	0	104857600	57	6496
2026-01-12 22:39:23.23	110.13	28.08	-42.9	-47.5	10.5	4.18e-03	0	60	0	109051904	57	6105
2026-01-12 22:39:25.25	110.76	27.98	-43.1	-48.0	10.1	5.11e-03	0	60	0	113246208	57	6451
2026-01-12 22:39:27.26	111.38	27.87	-43.0	-47.8	10.3	6.44e-03	0	60	0	116391936	57	6326
2026-01-12 22:39:29.28	111.99	27.76	-42.9	-47.7	10.4	4.40e-03	0	60	0	120586240	57	6240
2026-01-12 22:39:31.30	112.61	27.64	-43.3	-48.7	9.3	1.10e-02	0	60	0	123731968	57	6975
2026-01-12 22:39:33.32	113.22	27.52	-43.4	-48.9	9.1	2.14e-02	0	60	0	127926272	57	7181
2026-01-12 22:39:35.34	113.82	27.40	-43.2	-48.3	9.7	2.05e-02	0	60	0	132120576	57	6671
2026-01-12 22:39:37.36	114.42	27.28	-43.3	-48.7	9.2	1.08e-02	0	60	0	135266304	57	7033
2026-01-12 22:39:39.38	115.01	27.15	-43.8	-50.3	7.7	6.96e-02	0	60	0	139460608	58	7977
2026-01-12 22:39:41.40	115.60	27.03	-43.8	-50.2	7.8	1.10e-01	0	60	0	142606336	58	7814
2026-01-12 22:39:43.42	116.19	26.90	-43.4	-48.9	9.1	2.10e-02	0	59	0	146800640	58	6734
2026-01-12 22:39:45.44	116.77	26.76	-43.4	-49.0	8.9	2.37e-02	0	60	0	150994944	58	6870
2026-01-12 22:39:47.46	117.35	26.63	-43.6	-49.6	8.4	4.18e-02	0	60	0	154140672	58	7289
2026-01-12 22:39:49.48	117.92	26.49	-43.3	-48.6	9.4	2.02e-02	0	60	0	158334976	58	6537
2026-01-12 22:39:51.50	118.48	26.35	-43.3	-48.5	9.5	9.91e-03	0	60	0	161480704	58	6488
2026-01-12 22:39:53.52	119.05	26.20	-43.4	-49.0	9.0	1.59e-02	0	60	0	165675008	58	6839
2026-01-12 22:39:55.54	119.60	26.06	-43.3	-48.6	9.5	1.78e-02	0	60	0	169869312	58	6542
2026-01-12 22:39:57.56	120.15	25.91	-43.3	-48.5	9.5	1.25e-02	0	60	0	173015040	58	6478
2026-01-12 22:39:59.58	120.70	25.76	-43.2	-48.5	9.4	1.29e-02	0	60	0	177209344	58	6473
2026-01-12 22:40:01.60	121.24	25.61	-43.2	-48.4	9.5	1.40e-02	0	60	0	181403648	58	6418
2026-01-12 22:40:03.63	121.78	25.46	-43.0	-47.8	10.2	6.78e-03	0	60	0	184549376	58	5950
2026-01-12 22:40:05.64	122.31	25.31	-43.0	-47.8	10.2	5.06e-03	0	60	0	188743680	57	6324
2026-01-12 22:40:07.66	122.84	25.15	-43.1	-48.2	9.8	7.11e-03	0	60	0	191889408	57	6609
2026-01-12 22:40:09.68	123.36	24.99	-42.8	-47.5	10.5	6.11e-03	0	60	0	196083712	57	6087
2026-01-12 22:40:11.70	123.87	24.84	-42.4	-46.5	11.6	6.83e-04	0	60	0	200278016	56	5738
2026-01-12 22:40:13.72	124.39	24.67	-42.6	-46.9	11.1	1.67e-03	0	60	0	203423744	56	6055
2026-01-12 22:40:15.74	124.89	24.51	-42.6	-47.0	11.0	3.25e-03	0	60	0	207618048	56	6095
2026-01-12 22:40:17.76	125.39	24.35	-42.4	-46.5	11.6	7.89e-04	0	60	0	210763776	56	5740
2026-01-12 22:40:19.78	125.89	24.19	-42.4	-46.4	11.6	4.42e-04	0	60	0	214958080	56	5708
2026-01-12 22:40:21.80	126.38	24.02	-42.7	-47.2	10.8	2.29e-03	0	60	0	219152384	56	6237
2026-01-12 22:40:23.81	126.86	23.86	-42.7	-47.2	10.8	3.60e-03	0	60	0	222298112	56	6265
2026-01-12 22:40:25.83	127.34	23.69	-42.3	-46.3	11.7	6.16e-04	0	60	0	226492416	56	5634
2026-01-12 22:40:27.85	127.82	23.52	-42.4	-46.7	11.3	1.16e-03	0	60	0	229638144	56	5876
2026-01-12 22:40:29.87	128.29	23.35	-43.1	-48.4	9.6	7.33e-03	0	60	0	233832448	56	7131
2026-01-12 22:40:31.89	128.76	23.18	-42.7	-47.4	10.6	4.38e-03	0	60	0	238026752	56	6353
2026-01-12 22:40:33.91	129.22	23.01	-42.1	-46.0	12.0	6.35e-04	0	60	0	241172480	56	5462
2026-01-12 22:40:35.93	129.67	22.84	-42.1	-45.9	12.2	2.37e-04	0	60	0	245366784	56	5347
2026-01-12 22:40:37.95	130.12	22.67	-42.1	-46.0	12.1	2.62e-04	0	60	0	249561088	56	5419
2026-01-12 22:40:39.97	130.57	22.49	-41.4	-44.8	13.1	8.31e-05	0	60	0	252706816	54	5292
2026-01-12 22:40:41.99	131.01	22.32	-41.5	-45.0	12.9	3.81e-05	0	60	0	256901120	54	5462
2026-01-12 22:40:44.01	131.45	22.15	-42.5	-47.2	10.6	1.61e-03	0	60	0	260046848	55	6593
2026-01-12 22:40:46.03	131.88	21.97	-43.3	-49.0	8.9	2.40e-02	0	60	0	264241152	57	7244
2026-01-12 22:40:48.04	132.31	21.80	-43.1	-48.4	9.5	2.78e-02	0	60	0	268435456	57	6755
2026-01-12 22:40:50.06	132.73	21.62	-42.7	-47.3	10.6	5.19e-03	0	60	0	271581184	57	5958
2026-01-12 22:40:52.08	133.15	21.45	-42.7	-47.4	10.5	2.52e-03	0	60	0	275775488	57	6018
2026-01-12 22:40:54.10	133.56	21.27	-42.7	-47.4	10.6	5.60e-03	0	60	0	278921216	57	5996
2026-01-12 22:40:56.12	133.97	21.10	-42.3	-46.5	11.4	1.63e-03	0	60	0	283115520	56	5758
2026-01-12 22:40:58.14	134.37	20.92	-42.0	-45.9	12.1	3.39e-04	0	60	0	287309824	56	5378
2026-01-12 22:41:00.16	134.77	20.74	-42.0	-45.9	12.0	3.02e-04	0	60	0	290455552	55	5673
2026-01-12 22:41:02.18	135.17	20.57	-42.1	-46.2	11.5	7.41e-04	0	60	0	294649856	55	5916
2026-01-12 22:41:04.20	135.56	20.39	-42.2	-46.5	11.2	1.48e-03	0	60	0	297795584	55	6130
2026-01-12 22:41:06.22	135.95	20.21	-42.0	-46.0	11.8	7.33e-04	0	60	0	301989888	55	5752
2026-01-12 22:41:08.24	136.33	20.04	-42.1	-46.3	11.5	5.97e-04	0	60	0	306184192	55	5927
2026-01-12 22:41:10.26	136.71	19.86	-42.4	-47.0	10.8	1.61e-03	0	60	0	309329920	55	6432
2026-01-12 22:41:12.28	137.08	19.68	-42.4	-46.9	10.8	2.89e-03	0	60	0	313524224	55	6396
2026-01-12 22:41:14.30	137.45	19.51	-41.9	-45.9	11.9	8.31e-04	0	60	0	317718528	55	5685
2026-01-12 22:41:16.32	137.81	19.33	-41.6	-45.2	12.6	1.28e-04	0	60	0	320864256	55	5231
2026-01-12 22:41:18.34	138.18	19.16	-41.4	-44.9	12.9	5.11e-05	0	60	0	325058560	54	5354
2026-01-12 22:41:20.36	138.53	18.98	-41.6	-45.3	12.4	8.92e-05	0	60	0	328204288	54	5635
2026-01-12 22:41:22.37	138.88	18.80	-41.7	-45.6	12.2	1.86e-04	0	60	0	332398592	54	5795
2026-01-12 22:41:24.39	139.23	18.63	-41.7	-45.4	12.3	1.72e-04	0	60	0	336592896	54	5689
2026-01-12 22:41:26.41	139.58	18.45	-41.5	-45.1	12.6	8.46e-05	0	60	0	339738624	54	5526
2026-01-12 22:41:28.43	139.92	18.28	-41.6	-45.3	12.5	1.30e-04	0	60	0	343932928	54	5614
2026-01-12 22:41:30.45	140.26	18.10	-41.7	-45.4	12.3	1.61e-04	0	60	0	347078656	54	5715
2026-01-12 22:41:32.46	140.59	17.93	-41.7	-45.5	12.2	1.91e-04	0	60	0	351272960	54	5750
2026-01-12 22:41:34.48	140.92	17.75	-41.6	-45.4	12.3	2.10e-04	0	60	0	355467264	54	5684
2026-01-12 22:41:36.50	141.25	17.58	-41.6	-45.5	12.1	2.07e-04	0	60	0	358612992	54	5730
2026-01-12 22:41:38.52	141.57	17.41	-41.6	-45.3	12.4	1.56e-04	0	60	0	362807296	54	5633
2026-01-12 22:41:40.54	141.89	17.23	-41.4	-45.1	12.6	9.46e-05	0	60	0	365953024	54	5476
2026-01-12 22:41:42.56	142.21	17.06	-41.5	-45.2	12.4	1.30e-04	0	60	0	370147328	54	5574
2026-01-12 22:41:44.58	142.52	16.89	-41.5	-45.2	12.4	5.04e-04	0	60	0	374341632	54	5578
2026-01-12 22:41:46.60	142.83	16.72	-41.7	-45.6	12.0	2.14e-04	0	60	0	377487360	54	5827
2026-01-12 22:41:48.61	143.13	16.54	-41.7	-45.6	12.0	3.58e-04	0	60	0	381681664	54	5833
2026-01-12 22:41:50.64	143.44	16.37	-41.5	-45.3	12.3	2.43e-04	0	60	0	385875968	54	5653
2026-01-12 22:41:52.65	143.73	16.20	-41.5	-45.1	12.5	1.27e-04	0	60	0	389021696	54	5528
2026-01-12 22:41:54.67	144.03	16.03	-41.6	-45.3	12.2	1.33e-03	0	60	0	393216000	53	5986
2026-01-12 22:41:56.69	144.32	15.86	-41.7	-45.9	11.6	4.49e-04	0	60	0	396361728	54	6029
2026-01-12 22:41:58.71	144.61	15.69	-42.1	-46.5	11.1	1.60e-03	0	60	0	400556032	54	6470
2026-01-12 22:42:00.73	144.90	15.52	-42.4	-47.3	10.1	4.15e-03	0	60	0	404750336	55	6721
2026-01-12 22:42:02.75	145.18	15.36	-42.4	-47.4	10.1	5.68e-03	0	60	0	407896064	55	6726
2026-01-12 22:42:04.77	145.46	15.19	-42.1	-46.6	10.9	2.78e-03	0	60	0	412090368	55	6173
2026-01-12 22:42:06.79	145.74	15.02	-42.0	-46.2	11.2	1.89e-03	0	60	0	415236096	55	5910
2026-01-12 22:42:08.81	146.01	14.85	-42.1	-46.5	11.0	1.82e-03	0	60	0	419430400	55	6087
2026-01-12 22:42:10.83	146.28	14.69	-42.1	-46.6	10.9	1.34e-03	0	60	0	423624704	55	6159
2026-01-12 22:42:12.85	146.55	14.52	-42.2	-46.8	10.7	2.86e-03	0	60	0	426770432	55	6293
2026-01-12 22:42:14.87	146.81	14.36	-42.4	-47.5	9.9	8.81e-03	0	60	0	430964736	55	6830
2026-01-12 22:42:16.89	147.08	14.19	-42.6	-48.0	9.4	1.83e-02	0	60	0	434110464	55	7228
2026-01-12 22:42:18.91	147.34	14.03	-42.9	-48.6	9.0	2.11e-02	0	60	0	438304768	56	7291
2026-01-12 22:42:20.93	147.59	13.87	-42.8	-48.2	9.3	1.68e-02	0	60	0	442499072	56	7000
2026-01-12 22:42:22.94	147.85	13.70	-42.7	-47.9	9.6	1.40e-02	0	60	0	445644800	56	6725
2026-01-12 22:42:24.97	148.10	13.54	-42.7	-48.1	9.4	1.82e-02	0	60	0	449839104	56	6947
2026-01-12 22:42:26.98	148.35	13.38	-42.8	-48.3	9.2	1.58e-02	0	60	0	454033408	56	7062
2026-01-12 22:42:29.01	148.59	13.22	-42.6	-47.7	9.7	1.12e-02	0	60	0	457179136	56	6646
2026-01-12 22:42:31.02	148.83	13.06	-42.6	-47.7	9.7	1.14e-02	0	60	0	461373440	56	6633
2026-01-12 22:42:33.04	149.08	12.90	-42.5	-47.5	9.9	1.10e-02	0	60	0	464519168	56	6490
2026-01-12 22:42:35.06	149.31	12.74	-42.4	-47.4	10.0	6.95e-03	0	60	0	468713472	56	6406
2026-01-12 22:42:37.08	149.55	12.58	-42.3	-47.0	10.5	3.64e-03	0	60	0	472907776	56	6069
2026-01-12 22:42:39.10	149.78	12.42	-42.2	-46.9	10.6	3.24e-03	0	60	0	476053504	56	6012
2026-01-12 22:42:41.12	150.01	12.27	-42.3	-46.9	10.5	4.60e-03	0	60	0	480247808	56	6060
2026-01-12 22:42:43.14	150.24	12.11	-42.3	-47.0	10.3	3.81e-03	0	60	0	483393536	56	6118
2026-01-12 22:42:45.16	150.47	11.95	-42.3	-47.2	10.2	4.99e-03	0	60	0	487587840	56	6224
2026-01-12 22:42:47.18	150.69	11.80	-42.5	-47.6	9.7	1.23e-02	0	60	0	491782144	56	6553
2026-01-12 22:42:49.20	150.92	11.64	-42.6	-48.1	9.2	2.02e-02	0	60	0	494927872	56	6910
2026-01-12 22:42:51.22	151.13	11.49	-42.8	-48.5	8.7	2.91e-02	0	60	0	499122176	56	7268
2026-01-12 22:42:53.24	151.35	11.33	-42.7	-48.3	9.0	2.38e-02	0	60	0	502267904	56	7087
2026-01-12 22:42:55.25	151.57	11.18	-42.5	-48.0	9.3	2.07e-02	0	60	0	506462208	56	6821
2026-01-12 22:42:57.28	151.78	11.03	-42.6	-48.2	9.1	2.25e-02	0	60	0	510656512	56	6975
2026-01-12 22:42:59.29	151.99	10.88	-42.5	-47.9	9.3	1.96e-02	0	60	0	513802240	56	6771
2026-01-12 22:43:01.32	152.20	10.72	-42.4	-47.5	9.7	1.01e-02	0	60	0	517996544	56	6458
2026-01-12 22:43:03.34	152.41	10.57	-42.3	-47.4	9.8	9.65e-03	0	60	0	522190848	56	6371
2026-01-12 22:43:05.36	152.61	10.42	-42.3	-47.6	9.6	1.33e-02	0	60	0	525336576	56	6497
2026-01-12 22:43:07.38	152.81	10.27	-42.5	-48.0	9.1	2.24e-02	0	60	0	529530880	56	6832
2026-01-12 22:43:09.40	153.01	10.12	-42.6	-48.4	8.7	3.01e-02	0	60	0	532676608	56	7170
2026-01-12 22:43:11.41	153.21	9.98	-42.4	-47.9	9.1	2.64e-02	0	60	0	536870912	56	6761
2026-01-12 22:43:13.43	153.41	9.83	-42.4	-47.9	9.2	1.91e-02	0	60	0	541065216	56	6757
2026-01-12 22:43:15.45	153.60	9.68	-42.3	-47.8	9.2	2.24e-02	0	60	0	544210944	56	6667
2026-01-12 22:43:17.47	153.80	9.53	-42.3	-47.6	9.4	1.57e-02	0	60	0	548405248	56	6544
2026-01-12 22:43:19.49	153.99	9.39	-42.2	-47.3	9.6	1.19e-02	0	60	0	551550976	56	6337
2026-01-12 22:43:21.51	154.18	9.24	-41.8	-46.7	10.1	7.36e-03	0	60	0	555745280	55	6217
2026-01-12 22:43:23.53	154.37	9.10	-41.9	-46.9	9.9	1.11e-02	0	60	0	559939584	55	6377
2026-01-12 22:43:25.55	154.55	8.95	-41.9	-47.1	9.7	9.86e-03	0	60	0	563085312	55	6529
2026-01-12 22:43:27.57	154.74	8.81	-41.9	-47.0	9.7	1.16e-02	0	60	0	567279616	55	6490
2026-01-12 22:43:29.59	154.92	8.67	-41.9	-47.0	9.7	1.20e-02	0	60	0	570425344	55	6477
2026-01-12 22:43:31.61	155.10	8.52	-41.9	-47.1	9.5	1.58e-02	0	60	0	574619648	55	6553
2026-01-12 22:43:33.63	155.28	8.38	-42.0	-47.4	9.2	1.91e-02	0	60	0	578813952	55	6794
2026-01-12 22:43:35.65	155.45	8.24	-42.0	-47.5	9.1	2.22e-02	0	60	0	581959680	55	6820
2026-01-12 22:43:37.67	155.63	8.10	-41.9	-47.3	9.3	2.28e-02	0	60	0	586153984	55	6678
2026-01-12 22:43:39.69	155.80	7.96	-43.5	-54.0	4.4	4.54e-02	0	60	0	590348288	57	12829
2026-01-12 22:43:41.71	155.98	7.82	-44.7	-59.3	3.8	1.49e+00	0	60	104	590348288	60	19909
2026-01-12 22:43:43.73	156.15	7.68	-45.1	-59.7	3.8	1.49e+00	0	60	104	590348288	60	20892
2026-01-12 22:43:45.75	156.32	7.54	-45.3	-59.9	3.8	1.49e+00	0	60	104	590348288	61	20230
2026-01-12 22:43:47.76	156.48	7.41	-45.3	-60.0	3.8	1.49e+00	0	60	104	590348288	61	20307
2026-01-12 22:43:49.78	156.65	7.27	-45.2	-59.8	3.8	1.49e+00	0	60	104	590348288	61	19996
2026-01-12 22:43:51.80	156.81	7.13	-45.1	-59.6	3.8	1.49e+00	0	60	104	590348288	61	19492
2026-01-12 22:43:53.82	156.98	6.99	-45.1	-59.6	3.8	1.49e+00	0	60	104	590348288	61	19543
2026-01-12 22:43:55.84	157.14	6.86	-45.1	-59.5	3.8	1.49e+00	0	60	104	590348288	61	19358
2026-01-12 22:43:57.86	157.30	6.72	-45.1	-59.5	3.8	1.49e+00	0	60	104	590348288	61	19346
2026-01-12 22:43:59.88	157.46	6.59	-45.1	-59.5	3.8	1.49e+00	0	60	104	590348288	61	19345
2026-01-12 22:44:01.90	157.61	6.45	-45.1	-59.6	3.8	1.49e+00	0	60	104	590348288	61	19395
2026-01-12 22:44:03.92	157.77	6.32	-45.1	-59.5	3.8	1.49e+00	0	60	104	590348288	61	19280
2026-01-12 22:44:05.93	157.92	6.19	-45.0	-59.5	3.8	1.49e+00	0	60	104	590348288	61	19363
2026-01-12 22:44:07.96	158.08	6.05	-45.0	-59.5	3.8	1.49e+00	0	60	104	590348288	61	19243
2026-01-12 22:44:09.98	158.23	5.92	-45.0	-59.5	3.8	1.49e+00	0	60	104	590348288	61	19291
2026-01-12 22:44:11.99	158.38	5.79	-45.0	-59.5	3.8	1.49e+00	0	60	104	590348288	61	19337
2026-01-12 22:44:14.02	158.53	5.66	-45.1	-59.5	3.8	1.49e+00	0	60	104	590348288	61	19298
2026-01-12 22:44:16.03	158.68	5.53	-45.0	-59.5	3.8	1.49e+00	0	60	104	590348288	61	19217
2026-01-12 22:44:18.05	158.83	5.40	-45.0	-59.5	3.8	1.49e+00	0	60	104	590348288	61	19219
2026-01-12 22:44:20.07	158.97	5.27	-45.0	-59.5	3.8	1.49e+00	0	60	104	590348288	61	19187
2026-01-12 22:44:22.09	159.12	5.14	-45.0	-59.5	3.8	1.49e+00	0	60	104	590348288	61	19225
2026-01-12 22:44:24.11	159.26	5.01	-45.0	-59.4	3.8	1.49e+00	0	60	104	590348288	61	19163
2026-01-12 22:44:26.13	159.40	4.88	-45.0	-59.5	3.8	1.49e+00	0	60	104	590348288	61	19215
2026-01-12 22:44:28.15	159.54	4.75	-45.0	-59.5	3.8	1.49e+00	0	60	104	590348288	61	19210
2026-01-12 22:44:30.16	159.68	4.63	-45.0	-59.5	3.8	1.49e+00	0	60	104	590348288	61	19207
2026-01-12 22:44:32.18	159.82	4.50	-45.0	-59.5	3.8	1.49e+00	0	60	104	590348288	61	19181
2026-01-12 22:44:34.21	159.96	4.37	-45.0	-59.5	3.8	1.49e+00	0	60	104	590348288	61	19181
2026-01-12 22:44:36.23	160.09	4.25	-45.0	-59.5	3.8	1.49e+00	0	60	104	590348288	61	19177
2026-01-12 22:44:38.25	160.23	4.12	-45.0	-59.5	3.8	1.49e+00	0	60	104	590348288	61	19190
2026-01-12 22:44:40.27	160.36	4.00	-45.0	-59.5	3.8	1.49e+00	0	60	104	590348288	61	19184
2026-01-12 22:44:42.29	160.50	3.87	-45.0	-59.5	3.8	1.49e+00	0	60	104	590348288	61	19191
2026-01-12 22:44:44.32	160.63	3.75	-45.0	-59.5	3.8	1.49e+00	0	60	104	590348288	61	19194
2026-01-12 22:44:46.33	160.76	3.62	-45.0	-59.4	3.8	1.49e+00	0	60	104	590348288	61	19065
2026-01-12 22:44:48.36	160.89	3.50	-45.0	-59.4	3.8	1.49e+00	0	60	104	590348288	61	19148
2026-01-12 22:44:50.38	161.02	3.38	-45.0	-59.4	3.8	1.49e+00	0	60	104	590348288	61	19140
2026-01-12 22:44:52.40	161.15	3.25	-45.0	-59.4	3.8	1.49e+00	0	60	104	590348288	61	19146
2026-01-12 22:44:54.41	161.27	3.13	-45.0	-59.4	3.8	1.49e+00	0	60	104	590348288	61	19144
2026-01-12 22:44:56.43	161.40	3.01	-45.0	-59.4	3.8	1.49e+00	0	60	104	590348288	61	19164
2026-01-12 22:44:58.45	161.52	2.89	-45.0	-59.4	3.8	1.49e+00	0	60	104	590348288	61	19148
2026-01-12 22:45:00.47	161.65	2.77	-45.0	-59.4	3.8	1.49e+00	0	60	104	590348288	61	19084
2026-01-12 22:45:02.49	161.77	2.65	-45.0	-59.5	3.8	1.49e+00	0	60	104	590348288	61	19174
2026-01-12 22:45:04.51	161.89	2.53	-45.0	-59.4	3.8	1.49e+00	0	60	104	590348288	61	19121
2026-01-12 22:45:06.53	162.01	2.41	-45.0	-59.4	3.8	1.49e+00	0	60	104	590348288	61	19153
2026-01-12 22:45:08.55	162.13	2.29	-45.0	-59.4	3.8	1.49e+00	0	60	104	590348288	61	19103
2026-01-12 22:45:10.57	162.25	2.17	-45.0	-59.4	3.8	1.49e+00	0	60	104	590348288	61	19148
2026-01-12 22:45:12.59	162.37	2.05	-45.0	-59.4	3.8	1.49e+00	0	60	104	590348288	61	19119
2026-01-12 22:45:14.60	162.48	1.94	-45.0	-59.4	3.8	1.49e+00	0	60	104	590348288	61	19167

#Closed at: 2026-01-12 22:45:15
#Recorded file [590 MB]: D:/lorett/data/31039_260113_013733.dat