passes_logs/2026/01/12/R2.0S_Moscow/R2.0S_Moscow__20260112_131926_AQUA_rec.log

#Pass ID: 20260112_131926_AQUA
#Satellite: AQUA
#Configuration: AQUA
#almurnet v.1.7.20251203
#Start time: 2026-01-12 13:20:37

#Version: 2.2.20231116
#Station: R2.0S_Moscow
#Location: 37.707566 lon 55.798166 lat
#TLE: 1 27424U 02022A   26011.93923927  .00001110  00000+0  23211-3 0  9993
#TLE: 2 27424  98.4078 338.3153 0002029  81.9924 314.0623 14.61816932260445

#Time	Az	El	Level	Level2	SNR	BER	BlckErr	Temp	State	Recorded	gain1	gain2
2026-01-12 13:20:37.05	223.35	5.92	-45.3	-56.5	3.8	8.46e-01	0	60	0	0	60	13606
2026-01-12 13:20:40.08	223.73	6.09	-46.1	-64.8	3.8	7.43e-01	0	60	104	0	62	33612
2026-01-12 13:20:43.12	224.11	6.26	-46.0	-64.7	3.8	7.43e-01	0	61	104	0	62	33263
2026-01-12 13:20:46.15	224.50	6.43	-45.8	-64.5	3.8	7.47e-01	0	60	104	0	62	32444
2026-01-12 13:20:49.18	224.88	6.61	-44.9	-63.7	3.8	7.43e-01	0	60	104	0	61	31166
2026-01-12 13:20:52.21	225.28	6.78	-44.7	-63.2	3.8	7.43e-01	0	60	104	0	61	29457
2026-01-12 13:20:55.25	225.68	6.95	-44.7	-63.1	3.8	7.45e-01	0	60	104	0	61	29084
2026-01-12 13:20:58.28	226.08	7.13	-44.7	-63.0	3.8	7.41e-01	0	60	104	0	61	28937
2026-01-12 13:21:01.31	226.49	7.30	-44.7	-62.6	3.8	7.48e-01	0	60	104	0	61	27421
2026-01-12 13:21:04.35	226.91	7.47	-44.7	-60.6	4.1	7.38e-01	0	60	104	0	61	21895
2026-01-12 13:21:07.38	227.33	7.65	-44.6	-57.9	5.1	7.05e-01	0	61	0	0	61	15953
2026-01-12 13:21:10.41	227.75	7.82	-44.4	-55.1	7.1	6.60e-01	91	60	0	3145728	60	12375
2026-01-12 13:21:13.44	228.18	7.99	-44.0	-52.9	9.4	6.29e-01	0	60	0	8912896	60	9596
2026-01-12 13:21:16.48	228.62	8.17	-44.0	-51.6	11.2	6.18e-01	0	60	0	14680064	59	8707
2026-01-12 13:21:19.51	229.06	8.34	-43.8	-50.9	12.0	6.12e-01	0	60	0	20447232	59	7996
2026-01-12 13:21:22.54	229.51	8.51	-44.0	-51.6	11.2	6.16e-01	0	60	0	26214400	59	8664
2026-01-12 13:21:25.57	229.96	8.69	-43.6	-50.1	12.8	6.10e-01	0	60	0	31981568	59	7323
2026-01-12 13:21:28.61	230.42	8.86	-42.8	-47.7	15.2	6.07e-01	0	60	0	37224448	57	6235
2026-01-12 13:21:31.64	230.89	9.04	-45.2	-60.9	4.2	7.53e-01	0	60	104	42467328	60	23960
2026-01-12 13:21:34.67	231.36	9.21	-44.7	-56.7	6.4	6.80e-01	92	60	0	45613056	59	15729
2026-01-12 13:21:37.70	231.83	9.38	-42.2	-46.2	16.8	6.09e-01	0	60	0	50331648	56	5582
2026-01-12 13:21:40.73	232.31	9.55	-42.1	-46.0	17.1	6.05e-01	0	60	0	56098816	56	5429
2026-01-12 13:21:43.76	232.80	9.73	-41.9	-45.6	17.3	6.07e-01	0	60	0	61865984	55	5528
2026-01-12 13:21:46.79	233.29	9.90	-41.9	-45.6	17.4	6.07e-01	0	60	0	67633152	55	5514
2026-01-12 13:21:49.82	233.79	10.07	-41.9	-45.6	17.5	6.07e-01	0	60	0	72876032	55	5481
2026-01-12 13:21:52.85	234.30	10.24	-41.9	-45.6	17.5	6.06e-01	0	60	0	78643200	55	5484
2026-01-12 13:21:55.88	234.81	10.41	-41.7	-45.3	17.8	6.04e-01	0	60	0	84410368	55	5302
2026-01-12 13:21:58.92	235.33	10.58	-41.9	-45.6	17.5	6.06e-01	0	60	0	90177536	55	5508
2026-01-12 13:22:01.95	235.86	10.75	-41.7	-45.3	17.8	6.06e-01	0	60	0	95944704	55	5303
2026-01-12 13:22:04.97	236.39	10.91	-41.8	-45.4	17.7	6.08e-01	0	60	0	101711872	55	5352
2026-01-12 13:22:08.00	236.93	11.08	-41.8	-45.4	17.7	6.08e-01	0	60	0	106954752	55	5366
2026-01-12 13:22:11.03	237.47	11.25	-41.7	-45.2	18.0	6.07e-01	0	60	0	112721920	55	5243
2026-01-12 13:22:14.06	238.02	11.41	-41.7	-45.1	18.0	6.04e-01	0	60	0	118489088	55	5204
2026-01-12 13:22:17.09	238.58	11.58	-41.8	-45.4	17.8	6.04e-01	0	60	0	124256256	55	5344
2026-01-12 13:22:20.12	239.14	11.74	-41.7	-45.1	18.1	6.06e-01	0	60	0	130023424	55	5189
2026-01-12 13:22:23.15	239.71	11.90	-41.6	-45.0	18.2	6.07e-01	0	60	0	135790592	55	5122
2026-01-12 13:22:26.18	240.29	12.06	-41.8	-45.2	18.0	6.06e-01	0	60	0	141033472	55	5268
2026-01-12 13:22:29.20	240.87	12.22	-41.6	-45.0	18.2	6.07e-01	0	60	0	146800640	55	5108
2026-01-12 13:22:32.23	241.46	12.38	-41.6	-45.0	18.2	6.06e-01	0	60	0	152567808	55	5115
2026-01-12 13:22:35.26	242.06	12.53	-41.5	-44.8	18.4	6.06e-01	0	60	0	158334976	55	5018
2026-01-12 13:22:38.29	242.66	12.69	-41.6	-44.9	18.4	6.07e-01	0	60	0	164102144	55	5069
2026-01-12 13:22:41.33	243.27	12.84	-41.5	-44.8	18.5	6.07e-01	0	60	0	169869312	55	5017
2026-01-12 13:22:44.36	243.89	12.99	-41.5	-44.8	18.5	6.06e-01	0	60	0	175112192	55	5004
2026-01-12 13:22:47.39	244.51	13.14	-41.5	-44.7	18.5	6.08e-01	0	60	0	180879360	54	5263
2026-01-12 13:22:50.42	245.14	13.29	-41.5	-44.7	18.5	6.07e-01	0	60	0	186646528	54	5267
2026-01-12 13:22:53.45	245.77	13.44	-41.5	-44.8	18.5	6.06e-01	0	60	0	192413696	54	5298
2026-01-12 13:22:56.48	246.42	13.58	-41.5	-44.8	18.5	6.08e-01	0	60	0	198180864	54	5303
2026-01-12 13:22:59.51	247.07	13.72	-41.5	-44.7	18.6	6.04e-01	0	60	0	203948032	54	5265
2026-01-12 13:23:02.54	247.72	13.86	-41.6	-44.9	18.4	6.07e-01	0	60	0	209190912	54	5377
2026-01-12 13:23:05.56	248.38	13.99	-41.5	-44.7	18.6	6.05e-01	0	60	0	214958080	54	5248
2026-01-12 13:23:08.59	249.05	14.13	-41.4	-44.6	18.7	6.08e-01	0	60	0	220725248	54	5183
2026-01-12 13:23:11.62	249.72	14.26	-41.5	-44.6	18.7	6.08e-01	0	60	0	226492416	54	5200
2026-01-12 13:23:14.65	250.40	14.38	-41.5	-44.6	18.7	6.06e-01	0	60	0	232259584	54	5192
2026-01-12 13:23:17.68	251.09	14.51	-41.4	-44.6	18.8	6.07e-01	0	60	0	238026752	54	5178
2026-01-12 13:23:20.71	251.78	14.63	-41.4	-44.5	18.8	6.06e-01	0	60	0	243269632	54	5148
2026-01-12 13:23:23.74	252.48	14.75	-41.5	-44.6	18.8	6.05e-01	0	60	0	249036800	54	5182
2026-01-12 13:23:26.77	253.18	14.87	-41.4	-44.5	18.8	6.09e-01	0	60	0	254803968	54	5134
2026-01-12 13:23:29.80	253.89	14.98	-41.4	-44.5	18.9	6.04e-01	0	60	0	260571136	54	5105
2026-01-12 13:23:32.83	254.61	15.09	-41.5	-44.6	18.8	6.07e-01	0	60	0	266338304	54	5191
2026-01-12 13:23:35.86	255.33	15.19	-41.5	-44.7	18.6	6.08e-01	0	60	0	272105472	54	5258
2026-01-12 13:23:38.89	256.05	15.30	-41.4	-44.6	18.8	6.08e-01	0	60	0	277348352	54	5174
2026-01-12 13:23:41.92	256.78	15.39	-41.4	-44.6	18.8	6.06e-01	0	60	0	283115520	54	5173
2026-01-12 13:23:44.95	257.52	15.49	-41.5	-44.7	18.7	6.06e-01	0	60	0	288882688	54	5247
2026-01-12 13:23:47.98	258.26	15.58	-41.4	-44.5	18.9	6.05e-01	0	60	0	294649856	54	5134
2026-01-12 13:23:51.01	259.00	15.66	-41.4	-44.5	18.9	6.06e-01	0	60	0	300417024	54	5142
2026-01-12 13:23:54.04	259.75	15.75	-41.4	-44.5	18.9	6.06e-01	0	60	0	306184192	54	5117
2026-01-12 13:23:57.07	260.50	15.83	-41.4	-44.5	18.9	6.07e-01	0	60	0	311427072	54	5130
2026-01-12 13:24:00.10	261.26	15.90	-41.4	-44.5	18.9	6.09e-01	0	60	0	317194240	54	5109
2026-01-12 13:24:03.12	262.02	15.97	-41.4	-44.5	18.9	6.05e-01	0	60	0	322961408	54	5117
2026-01-12 13:24:06.15	262.78	16.03	-41.4	-44.5	18.9	6.04e-01	0	60	0	328728576	54	5118
2026-01-12 13:24:09.18	263.55	16.10	-41.5	-44.6	18.8	6.07e-01	0	60	0	334495744	54	5207
2026-01-12 13:24:12.21	264.32	16.15	-41.4	-44.6	18.8	6.06e-01	0	60	0	340262912	54	5169
2026-01-12 13:24:15.24	265.09	16.20	-41.4	-44.5	18.8	6.05e-01	0	60	0	345505792	54	5156
2026-01-12 13:24:18.27	265.87	16.25	-41.5	-44.6	18.8	6.06e-01	0	60	0	351272960	54	5198
2026-01-12 13:24:21.30	266.65	16.29	-41.4	-44.5	18.8	6.07e-01	0	60	0	357040128	54	5159
2026-01-12 13:24:24.33	267.43	16.33	-41.5	-44.6	18.7	6.07e-01	0	60	0	362807296	54	5208
2026-01-12 13:24:27.36	268.21	16.36	-41.5	-44.8	18.6	6.08e-01	0	60	0	368574464	54	5283
2026-01-12 13:24:30.39	269.00	16.39	-41.3	-44.4	19.0	6.05e-01	0	60	0	374341632	54	5077
2026-01-12 13:24:33.42	269.78	16.41	-41.5	-44.6	18.8	6.05e-01	0	60	0	379584512	54	5196
2026-01-12 13:24:36.45	270.57	16.43	-41.4	-44.5	18.8	6.07e-01	0	60	0	385351680	54	5156
2026-01-12 13:24:39.48	271.35	16.45	-41.5	-44.6	18.7	6.05e-01	0	60	0	391118848	54	5209
2026-01-12 13:24:42.50	272.14	16.46	-41.3	-44.4	19.0	6.07e-01	0	60	0	396886016	54	5047
2026-01-12 13:24:45.53	272.93	16.46	-41.5	-44.7	18.7	6.08e-01	0	60	0	402653184	54	5221
2026-01-12 13:24:48.56	273.71	16.46	-41.5	-44.6	18.7	6.06e-01	0	60	0	408420352	54	5209
2026-01-12 13:24:51.59	274.50	16.45	-41.3	-44.4	18.9	6.05e-01	0	60	0	413663232	54	5082
2026-01-12 13:24:54.62	275.29	16.44	-41.4	-44.6	18.7	6.05e-01	0	60	0	419430400	54	5185
2026-01-12 13:24:57.64	276.07	16.42	-41.4	-44.6	18.8	6.06e-01	0	60	0	425197568	54	5170
2026-01-12 13:25:00.67	276.86	16.40	-41.5	-44.7	18.6	6.06e-01	0	60	0	430964736	54	5247
2026-01-12 13:25:03.70	277.64	16.38	-41.4	-44.4	18.9	6.08e-01	0	60	0	436731904	54	5096
2026-01-12 13:25:06.73	278.42	16.35	-41.4	-44.5	18.8	6.07e-01	0	60	0	442499072	54	5124
2026-01-12 13:25:09.76	279.20	16.31	-41.5	-44.8	18.6	6.06e-01	0	60	0	447741952	54	5289
2026-01-12 13:25:12.79	279.98	16.27	-41.3	-44.3	19.0	6.07e-01	0	60	0	453509120	54	5002
2026-01-12 13:25:15.81	280.76	16.23	-41.4	-44.6	18.7	6.04e-01	0	60	0	459276288	54	5203
2026-01-12 13:25:18.84	281.53	16.18	-41.4	-44.6	18.7	6.08e-01	0	60	0	465043456	54	5182
2026-01-12 13:25:21.87	282.30	16.12	-41.4	-44.5	18.7	6.06e-01	0	60	0	470810624	54	5154
2026-01-12 13:25:24.90	283.07	16.06	-41.4	-44.5	18.8	6.05e-01	0	60	0	476577792	54	5126
2026-01-12 13:25:27.93	283.83	16.00	-41.3	-44.3	18.9	6.07e-01	0	60	0	481820672	54	5026
2026-01-12 13:25:30.96	284.59	15.93	-41.5	-44.7	18.6	6.07e-01	0	60	0	487587840	54	5233
2026-01-12 13:25:33.98	285.34	15.86	-41.4	-44.5	18.7	6.06e-01	0	60	0	493355008	54	5150
2026-01-12 13:25:37.01	286.10	15.78	-41.4	-44.6	18.7	6.07e-01	0	60	0	499122176	54	5167
2026-01-12 13:25:40.04	286.85	15.70	-41.4	-44.5	18.7	6.07e-01	0	60	0	504889344	54	5150
2026-01-12 13:25:43.07	287.59	15.62	-41.4	-44.6	18.6	6.07e-01	0	60	0	510656512	54	5217
2026-01-12 13:25:46.09	288.33	15.53	-41.4	-44.5	18.8	6.06e-01	0	60	0	515899392	54	5135
2026-01-12 13:25:49.13	289.06	15.44	-41.4	-44.6	18.6	6.06e-01	0	60	0	521666560	54	5213
2026-01-12 13:25:52.16	289.79	15.34	-41.3	-44.4	18.8	6.08e-01	0	60	0	527433728	54	5094
2026-01-12 13:25:55.19	290.52	15.24	-41.4	-44.6	18.6	6.07e-01	0	60	0	533200896	54	5162
2026-01-12 13:25:58.21	291.24	15.14	-41.4	-44.5	18.7	6.05e-01	0	60	0	538968064	54	5149
2026-01-12 13:26:01.24	291.95	15.03	-41.3	-44.5	18.7	6.05e-01	0	60	0	544210944	54	5143
2026-01-12 13:26:04.27	292.66	14.92	-41.4	-44.7	18.5	6.05e-01	0	60	0	549978112	54	5252
2026-01-12 13:26:07.30	293.36	14.81	-41.4	-44.6	18.5	6.06e-01	0	60	0	555745280	54	5199
2026-01-12 13:26:10.33	294.06	14.69	-41.4	-44.7	18.4	6.08e-01	0	60	0	561512448	54	5274
2026-01-12 13:26:13.35	294.75	14.58	-41.6	-45.0	18.1	6.06e-01	0	60	0	567279616	54	5419
2026-01-12 13:26:16.38	295.44	14.45	-41.6	-44.9	18.2	6.06e-01	0	60	0	573046784	54	5381
2026-01-12 13:26:19.41	296.12	14.33	-41.5	-44.8	18.3	6.08e-01	0	60	0	578813952	54	5296
2026-01-12 13:26:22.44	296.79	14.20	-41.5	-44.9	18.2	6.05e-01	0	60	0	584056832	54	5369
2026-01-12 13:26:25.47	297.46	14.07	-41.5	-44.8	18.4	6.05e-01	0	60	0	589824000	54	5283
2026-01-12 13:26:28.49	298.12	13.93	-41.5	-44.9	18.2	6.07e-01	0	60	0	595591168	54	5355
2026-01-12 13:26:31.52	298.77	13.80	-41.5	-44.8	18.3	6.07e-01	0	60	0	601358336	54	5313
2026-01-12 13:26:34.55	299.42	13.66	-41.4	-44.7	18.4	6.06e-01	0	60	0	607125504	54	5254
2026-01-12 13:26:37.58	300.06	13.52	-41.5	-44.8	18.3	6.06e-01	0	60	0	612368384	54	5311
2026-01-12 13:26:40.61	300.70	13.38	-41.4	-44.7	18.4	6.07e-01	0	60	0	618135552	54	5233
2026-01-12 13:26:43.63	301.33	13.23	-41.6	-44.9	18.1	6.08e-01	0	60	0	623902720	54	5398
2026-01-12 13:26:46.66	301.95	13.08	-41.4	-44.7	18.4	6.06e-01	0	60	0	629669888	54	5233
2026-01-12 13:26:49.69	302.57	12.94	-41.5	-44.8	18.3	6.08e-01	0	60	0	635437056	54	5301
2026-01-12 13:26:52.71	303.17	12.79	-41.4	-44.6	18.5	6.08e-01	0	60	0	641204224	54	5174
2026-01-12 13:26:55.74	303.78	12.63	-41.5	-44.9	18.3	6.08e-01	0	60	0	646971392	54	5345
2026-01-12 13:26:58.78	304.38	12.48	-41.5	-44.9	18.2	6.06e-01	0	60	0	652214272	54	5351
2026-01-12 13:27:01.80	304.96	12.32	-41.5	-44.8	18.3	6.08e-01	0	60	0	657981440	54	5295
2026-01-12 13:27:04.83	305.55	12.17	-41.4	-44.8	18.3	6.05e-01	0	60	0	663748608	54	5285
2026-01-12 13:27:07.86	306.12	12.01	-41.5	-44.9	18.2	6.07e-01	0	60	0	669515776	54	5368
2026-01-12 13:27:10.89	306.69	11.85	-41.5	-44.9	18.1	6.03e-01	0	60	0	675282944	54	5401
2026-01-12 13:27:13.92	307.26	11.69	-41.4	-44.8	18.2	6.07e-01	0	60	0	680525824	54	5305
2026-01-12 13:27:16.95	307.82	11.53	-41.5	-44.9	18.2	6.07e-01	0	60	0	686292992	54	5355
2026-01-12 13:27:19.98	308.37	11.36	-41.5	-44.9	18.1	6.07e-01	0	60	0	692060160	54	5391
2026-01-12 13:27:23.01	308.91	11.20	-41.6	-45.2	17.9	6.08e-01	0	60	0	697827328	54	5531
2026-01-12 13:27:26.03	309.45	11.03	-41.7	-45.2	17.8	6.06e-01	0	60	0	703594496	54	5578
2026-01-12 13:27:29.06	309.98	10.87	-41.6	-45.1	17.9	6.07e-01	0	60	0	709361664	54	5469
2026-01-12 13:27:32.09	310.51	10.70	-41.7	-45.3	17.6	6.07e-01	0	60	0	714604544	54	5637
2026-01-12 13:27:35.12	311.02	10.53	-41.7	-45.3	17.7	6.08e-01	0	60	0	720371712	54	5623
2026-01-12 13:27:38.15	311.54	10.37	-41.7	-45.3	17.6	6.06e-01	0	60	0	726138880	54	5648
2026-01-12 13:27:41.18	312.04	10.20	-41.7	-45.2	17.7	6.06e-01	0	60	0	731906048	54	5588
2026-01-12 13:27:44.20	312.54	10.03	-41.7	-45.4	17.6	6.09e-01	0	60	0	737673216	54	5678
2026-01-12 13:27:47.23	313.04	9.86	-41.7	-45.3	17.5	6.05e-01	0	60	0	743440384	54	5656
2026-01-12 13:27:50.26	313.53	9.69	-41.7	-45.4	17.5	6.07e-01	0	60	0	748683264	54	5671
2026-01-12 13:27:53.29	314.01	9.52	-41.7	-45.4	17.4	6.06e-01	0	60	0	754450432	54	5703
2026-01-12 13:27:56.31	314.48	9.35	-41.8	-45.7	17.2	6.05e-01	0	60	0	760217600	54	5877
2026-01-12 13:27:59.34	314.95	9.18	-41.9	-45.7	17.1	6.07e-01	0	60	0	765984768	54	5895
2026-01-12 13:28:02.37	315.42	9.01	-41.8	-45.6	17.1	6.06e-01	0	60	0	771751936	54	5853
2026-01-12 13:28:05.40	315.88	8.84	-41.8	-45.6	17.2	6.07e-01	0	60	0	777519104	54	5814
2026-01-12 13:28:08.42	316.33	8.67	-41.8	-45.5	17.2	6.07e-01	0	60	0	782761984	54	5782
2026-01-12 13:28:11.45	316.78	8.49	-41.8	-45.6	17.1	6.06e-01	0	60	0	788529152	54	5851
2026-01-12 13:28:14.48	317.22	8.32	-41.9	-45.9	16.9	6.07e-01	0	60	0	794296320	54	6011
2026-01-12 13:28:17.51	317.66	8.15	-41.9	-45.9	16.8	6.08e-01	0	60	0	800063488	54	6012
2026-01-12 13:28:20.54	318.09	7.98	-44.3	-52.7	12.1	6.14e-01	0	60	0	805830656	58	10434
2026-01-12 13:28:23.57	318.52	7.81	-45.7	-64.4	3.8	7.47e-01	0	60	104	805830656	61	33872
2026-01-12 13:28:26.60	318.94	7.63	-46.0	-64.8	3.8	7.47e-01	0	60	104	805830656	62	33474
2026-01-12 13:28:29.64	319.36	7.46	-46.1	-64.9	3.8	7.45e-01	0	60	104	805830656	62	33697
2026-01-12 13:28:32.67	319.77	7.29	-46.0	-64.8	3.8	7.45e-01	0	60	104	805830656	62	33497
2026-01-12 13:28:35.70	320.17	7.12	-46.0	-64.8	3.8	7.49e-01	0	60	104	805830656	62	33410
2026-01-12 13:28:38.73	320.57	6.95	-46.0	-64.7	3.8	7.45e-01	0	60	104	805830656	62	33297
2026-01-12 13:28:41.76	320.97	6.78	-46.0	-64.7	3.8	7.47e-01	0	60	104	805830656	62	33298
2026-01-12 13:28:44.80	321.36	6.61	-46.0	-64.7	3.8	7.43e-01	0	60	104	805830656	62	33278
2026-01-12 13:28:47.83	321.75	6.44	-46.0	-64.8	3.8	7.46e-01	0	60	104	805830656	62	33320
2026-01-12 13:28:50.86	322.13	6.27	-46.0	-64.7	3.8	7.48e-01	0	60	104	805830656	62	33290
2026-01-12 13:28:53.90	322.51	6.09	-46.0	-64.8	3.8	7.43e-01	0	60	104	805830656	62	33383
2026-01-12 13:28:56.93	322.88	5.92	-46.0	-64.8	3.8	7.44e-01	0	60	104	805830656	62	33335
2026-01-12 13:28:59.96	323.25	5.76	-46.0	-64.7	3.8	7.44e-01	0	60	104	805830656	62	33260
2026-01-12 13:29:02.99	323.61	5.59	-46.0	-64.7	3.8	7.47e-01	0	60	104	805830656	62	33290
2026-01-12 13:29:06.03	323.97	5.42	-45.9	-64.7	3.8	7.45e-01	0	60	104	805830656	62	33264
2026-01-12 13:29:09.06	324.32	5.25	-45.9	-64.7	3.8	7.46e-01	0	60	104	805830656	62	33251
2026-01-12 13:29:12.09	324.67	5.08	-46.0	-64.7	3.8	7.44e-01	0	60	104	805830656	62	33256
2026-01-12 13:29:15.13	325.02	4.91	-45.9	-64.7	3.8	7.46e-01	0	60	104	805830656	62	33272
2026-01-12 13:29:18.16	325.36	4.75	-45.9	-64.7	3.8	7.46e-01	0	60	104	805830656	62	33189
2026-01-12 13:29:21.19	325.70	4.58	-46.0	-64.7	3.8	7.47e-01	0	60	104	805830656	62	33212
2026-01-12 13:29:24.23	326.04	4.41	-45.9	-64.7	3.8	7.48e-01	0	60	104	805830656	62	33197
2026-01-12 13:29:27.26	326.37	4.25	-45.9	-64.7	3.8	7.42e-01	0	60	104	805830656	62	33185
2026-01-12 13:29:30.29	326.69	4.08	-45.9	-64.7	3.8	7.45e-01	0	60	104	805830656	62	33207
2026-01-12 13:29:33.33	327.01	3.91	-45.9	-64.7	3.8	7.43e-01	0	60	104	805830656	62	33149
2026-01-12 13:29:36.36	327.33	3.75	-45.9	-64.7	3.8	7.46e-01	0	60	104	805830656	62	33131
2026-01-12 13:29:39.39	327.65	3.59	-45.9	-64.7	3.8	7.47e-01	0	60	104	805830656	62	33106
2026-01-12 13:29:42.43	327.96	3.42	-45.9	-64.7	3.8	7.44e-01	0	60	104	805830656	62	33161
2026-01-12 13:29:45.46	328.27	3.26	-45.9	-64.7	3.8	7.43e-01	0	60	104	805830656	62	33167
2026-01-12 13:29:48.49	328.57	3.10	-45.9	-64.7	3.8	7.44e-01	0	60	104	805830656	62	33134
2026-01-12 13:29:51.53	328.87	2.93	-45.9	-64.7	3.8	7.44e-01	0	60	104	805830656	62	33113
2026-01-12 13:29:54.56	329.17	2.77	-45.9	-64.7	3.8	7.47e-01	0	60	104	805830656	62	33109
2026-01-12 13:29:57.59	329.46	2.61	-45.9	-64.7	3.8	7.44e-01	0	60	104	805830656	62	33111
2026-01-12 13:30:00.62	329.75	2.45	-45.9	-64.7	3.8	7.43e-01	0	60	104	805830656	62	33112
2026-01-12 13:30:03.65	330.04	2.29	-45.9	-64.7	3.8	7.45e-01	0	60	104	805830656	62	33160
2026-01-12 13:30:06.69	330.32	2.13	-45.9	-64.7	3.8	7.43e-01	0	60	104	805830656	62	33098
2026-01-12 13:30:09.72	330.60	1.97	-45.9	-64.7	3.8	7.45e-01	0	60	104	805830656	62	33192

#Closed at: 2026-01-12 13:30:11
#Recorded file [805 MB]: D:/lorett/data/31039_260112_162036.dat