passes_logs/2026/01/12/R2.0S_Moscow/R2.0S_Moscow__20260112_023235_FENGYUN_3G_rec.log

#Pass ID: 20260112_023235_FENGYUN 3G
#Satellite: FENGYUN 3G
#Configuration: FENGYUN 3G
#almurnet v.1.7.20251203
#Start time: 2026-01-12 02:32:36

#Version: 2.2.20231116
#Station: R2.0S_Moscow
#Location: 37.707566 lon 55.798166 lat
#TLE: 1 56232U 23055A   26011.25391515  .00034535  00000+0  54118-3 0  9995
#TLE: 2 56232  49.9937  75.2574 0004230   9.7874 350.3175 15.53326427155615

#Time	Az	El	Level	Level2	SNR	BER	BlckErr	Temp	State	Recorded	gain1	gain2
2026-01-12 02:32:36.12	263.93	2.02	-44.1	-62.4	3.8	8.45e-01	0	47	0	0	60	28647
2026-01-12 02:32:39.16	263.65	2.21	-44.1	-62.4	3.8	8.46e-01	0	47	104	0	60	28646
2026-01-12 02:32:42.19	263.36	2.39	-44.1	-62.4	3.8	8.45e-01	0	48	104	0	60	28563
2026-01-12 02:32:45.22	263.07	2.58	-44.1	-62.4	3.8	8.47e-01	0	48	104	0	60	28637
2026-01-12 02:32:48.26	262.77	2.77	-44.1	-62.4	3.8	8.45e-01	0	48	104	0	60	28604
2026-01-12 02:32:51.29	262.47	2.96	-44.1	-62.4	3.8	8.46e-01	0	48	104	0	60	28594
2026-01-12 02:32:54.32	262.16	3.15	-44.1	-62.4	3.8	8.47e-01	0	49	104	0	60	28627
2026-01-12 02:32:57.35	261.85	3.35	-44.1	-62.4	3.8	8.45e-01	0	49	104	0	60	28577
2026-01-12 02:33:00.38	261.52	3.54	-44.1	-62.3	3.8	8.47e-01	0	49	104	0	60	28348
2026-01-12 02:33:03.42	261.20	3.74	-44.1	-62.1	3.8	8.47e-01	0	49	104	0	60	27430
2026-01-12 02:33:06.45	260.86	3.94	-44.1	-61.7	3.8	8.46e-01	0	49	104	0	60	26209
2026-01-12 02:33:09.48	260.52	4.14	-44.1	-61.6	3.8	8.46e-01	0	50	104	0	60	26154
2026-01-12 02:33:12.51	260.17	4.34	-44.1	-62.2	3.8	8.46e-01	0	50	104	0	60	27813
2026-01-12 02:33:15.54	259.82	4.54	-44.1	-62.4	3.8	8.47e-01	0	50	104	0	60	28604
2026-01-12 02:33:18.58	259.46	4.74	-44.1	-62.4	3.8	8.46e-01	0	50	104	0	60	28380
2026-01-12 02:33:21.61	259.09	4.95	-44.1	-62.4	3.8	8.46e-01	0	50	104	0	60	28407
2026-01-12 02:33:24.65	258.71	5.16	-44.1	-62.4	3.8	8.46e-01	0	50	104	0	60	28452
2026-01-12 02:33:27.68	258.33	5.36	-44.1	-62.2	3.8	8.47e-01	0	50	104	0	60	27892
2026-01-12 02:33:30.71	257.93	5.57	-44.1	-61.5	3.8	8.46e-01	0	51	104	0	60	25757
2026-01-12 02:33:33.74	257.53	5.78	-44.1	-61.2	3.8	8.47e-01	0	51	104	0	60	24853
2026-01-12 02:33:36.77	257.12	6.00	-44.1	-61.3	3.8	8.45e-01	0	51	104	0	60	25216
2026-01-12 02:33:39.81	256.71	6.21	-44.1	-61.2	3.8	8.46e-01	0	51	104	0	60	24694
2026-01-12 02:33:42.84	256.28	6.43	-44.1	-60.5	3.8	8.45e-01	0	51	104	0	60	22930
2026-01-12 02:33:45.87	255.84	6.65	-44.0	-58.6	4.2	8.45e-01	0	51	0	0	60	18496
2026-01-12 02:33:48.90	255.40	6.87	-43.8	-54.9	6.3	8.02e-01	0	51	0	524288	59	12704
2026-01-12 02:33:51.94	254.94	7.09	-43.5	-52.2	9.0	5.63e-02	0	52	0	4194304	59	9281
2026-01-12 02:33:54.97	254.48	7.31	-43.7	-54.0	7.2	6.77e-02	0	52	0	7340032	58	12222
2026-01-12 02:33:58.00	254.01	7.53	-44.1	-58.9	3.9	8.45e-01	0	52	104	8388608	58	21421
2026-01-12 02:34:01.03	253.52	7.76	-41.7	-46.4	14.7	3.44e-03	0	52	0	11010048	55	6058
2026-01-12 02:34:04.07	253.02	7.99	-39.9	-43.0	18.3	0.00e+00	0	52	0	14680064	51	5131
2026-01-12 02:34:07.10	252.52	8.22	-40.3	-43.6	17.3	3.04e-01	0	52	0	16777216	52	5200
2026-01-12 02:34:10.13	252.00	8.45	-41.5	-46.0	15.1	2.39e-01	0	52	0	18874368	53	6480
2026-01-12 02:34:13.16	251.47	8.68	-39.3	-42.0	19.4	0.00e+00	0	52	0	22020096	50	4835
2026-01-12 02:34:16.18	250.93	8.91	-39.2	-41.8	19.6	0.00e+00	0	52	0	25690112	49	5036
2026-01-12 02:34:19.21	250.38	9.14	-39.0	-41.6	19.8	0.00e+00	0	52	0	28835840	49	4904
2026-01-12 02:34:22.24	249.82	9.38	-38.9	-41.4	20.1	0.00e+00	0	53	0	32505856	49	4771
2026-01-12 02:34:25.27	249.24	9.62	-38.6	-41.0	20.5	0.00e+00	0	53	0	35651584	49	4548
2026-01-12 02:34:28.30	248.65	9.86	-38.7	-41.1	20.3	0.00e+00	0	53	0	39321600	49	4621
2026-01-12 02:34:31.32	248.05	10.09	-38.8	-41.2	20.2	0.00e+00	0	53	0	42467328	49	4689
2026-01-12 02:34:34.35	247.43	10.33	-38.7	-41.2	20.3	0.00e+00	0	53	0	46137344	49	4663
2026-01-12 02:34:37.38	246.80	10.58	-38.2	-40.4	21.1	0.00e+00	0	53	0	49283072	48	4530
2026-01-12 02:34:40.41	246.16	10.82	-38.0	-40.2	21.3	0.00e+00	0	53	0	52953088	48	4434
2026-01-12 02:34:43.44	245.50	11.06	-38.1	-40.4	21.1	0.00e+00	0	53	0	56098816	47	4775
2026-01-12 02:34:46.47	244.82	11.30	-38.1	-40.3	21.2	0.00e+00	0	53	0	59768832	47	4739
2026-01-12 02:34:49.50	244.13	11.55	-37.9	-40.0	21.5	0.00e+00	0	53	0	62914560	47	4591
2026-01-12 02:34:52.53	243.43	11.79	-37.6	-39.6	21.9	0.00e+00	0	53	0	66584576	47	4385
2026-01-12 02:34:55.56	242.71	12.04	-38.1	-40.3	21.3	0.00e+00	0	53	0	69730304	47	4751
2026-01-12 02:34:58.59	241.97	12.28	-38.0	-40.2	21.4	0.00e+00	0	53	0	73400320	47	4663
2026-01-12 02:35:01.61	241.22	12.52	-37.5	-39.6	22.0	0.00e+00	0	53	0	76546048	47	4368
2026-01-12 02:35:04.64	240.45	12.77	-37.1	-39.1	22.5	0.00e+00	0	53	0	80216064	46	4363
2026-01-12 02:35:07.67	239.67	13.01	-37.7	-39.8	21.9	0.00e+00	0	54	0	83361792	46	4714
2026-01-12 02:35:10.70	238.87	13.25	-37.8	-39.9	21.8	0.00e+00	0	54	0	87031808	46	4763
2026-01-12 02:35:13.73	238.05	13.50	-37.6	-39.7	22.0	0.00e+00	0	54	0	90177536	46	4680
2026-01-12 02:35:16.75	237.21	13.74	-37.5	-39.5	22.1	0.00e+00	0	54	0	93847552	46	4581
2026-01-12 02:35:19.78	236.36	13.97	-37.4	-39.3	22.3	0.00e+00	0	54	0	96993280	46	4491
2026-01-12 02:35:22.81	235.48	14.21	-37.3	-39.3	22.4	0.00e+00	0	54	0	100663296	46	4447
2026-01-12 02:35:25.83	234.59	14.45	-37.5	-39.5	22.2	0.00e+00	0	54	0	103809024	46	4570
2026-01-12 02:35:28.86	233.68	14.68	-37.1	-39.1	22.7	0.00e+00	0	54	0	107479040	46	4343
2026-01-12 02:35:31.89	232.76	14.91	-36.9	-38.8	22.9	0.00e+00	0	54	0	110624768	45	4447
2026-01-12 02:35:34.92	231.81	15.13	-36.8	-38.7	23.0	0.00e+00	0	54	0	114294784	45	4415
2026-01-12 02:35:37.95	230.85	15.36	-37.2	-39.1	22.7	0.00e+00	0	54	0	117440512	45	4631
2026-01-12 02:35:40.98	229.86	15.58	-37.3	-39.2	22.5	0.00e+00	0	54	0	121110528	45	4705
2026-01-12 02:35:44.01	228.86	15.79	-36.3	-38.1	23.7	0.00e+00	0	54	0	124256256	44	4343
2026-01-12 02:35:47.04	227.84	16.00	-35.8	-37.6	23.9	0.00e+00	0	54	0	127926272	43	4341
2026-01-12 02:35:50.06	226.81	16.20	-35.9	-37.6	23.9	0.00e+00	0	54	0	131072000	43	4362
2026-01-12 02:35:53.09	225.75	16.40	-36.1	-37.8	23.7	0.00e+00	0	54	0	134742016	43	4474
2026-01-12 02:35:56.12	224.68	16.60	-36.0	-37.8	23.8	0.00e+00	0	54	0	137887744	43	4449
2026-01-12 02:35:59.15	223.59	16.78	-36.3	-38.1	23.5	0.00e+00	0	54	0	141557760	43	4621
2026-01-12 02:36:02.18	222.49	16.96	-36.4	-38.2	23.4	0.00e+00	0	55	0	144703488	43	4658
2026-01-12 02:36:05.21	221.36	17.14	-36.0	-37.7	23.8	0.00e+00	0	55	0	148373504	43	4438
2026-01-12 02:36:08.24	220.23	17.30	-35.9	-37.6	24.0	0.00e+00	0	55	0	151519232	43	4355
2026-01-12 02:36:11.27	219.07	17.46	-35.8	-37.4	24.2	0.00e+00	0	55	0	155189248	43	4282
2026-01-12 02:36:14.29	217.91	17.61	-35.5	-37.1	24.5	0.00e+00	0	55	0	158334976	42	4366
2026-01-12 02:36:17.32	216.73	17.74	-35.3	-36.9	24.7	0.00e+00	0	55	0	162004992	42	4255
2026-01-12 02:36:20.35	215.53	17.87	-35.3	-36.9	24.6	0.00e+00	0	55	0	165150720	42	4268
2026-01-12 02:36:23.38	214.32	17.99	-35.6	-37.3	24.3	0.00e+00	0	55	0	168820736	42	4458
2026-01-12 02:36:26.41	213.11	18.10	-35.2	-36.8	24.8	0.00e+00	0	55	0	171966464	42	4221
2026-01-12 02:36:29.44	211.88	18.20	-35.0	-36.5	25.0	0.00e+00	0	55	0	175636480	41	4325
2026-01-12 02:36:32.46	210.64	18.29	-34.9	-36.4	25.2	0.00e+00	0	55	0	178782208	41	4271
2026-01-12 02:36:35.49	209.40	18.36	-35.1	-36.7	24.9	0.00e+00	0	55	0	182452224	41	4400
2026-01-12 02:36:38.52	208.14	18.43	-35.5	-37.1	24.5	0.00e+00	0	55	0	185597952	41	4631
2026-01-12 02:36:41.55	206.88	18.48	-35.3	-36.9	24.7	0.00e+00	0	55	0	189267968	41	4504
2026-01-12 02:36:44.58	205.62	18.52	-35.5	-37.1	24.5	0.00e+00	0	55	0	192413696	41	4642
2026-01-12 02:36:47.61	204.35	18.55	-35.7	-37.3	24.3	0.00e+00	0	55	0	196083712	41	4757
2026-01-12 02:36:50.64	203.08	18.57	-35.5	-37.1	24.6	0.00e+00	0	55	0	199229440	42	4361
2026-01-12 02:36:53.67	201.81	18.58	-35.4	-37.0	24.6	0.00e+00	0	55	0	202899456	42	4335
2026-01-12 02:36:56.70	200.54	18.57	-35.3	-36.9	24.7	0.00e+00	0	55	0	206045184	42	4243
2026-01-12 02:36:59.73	199.27	18.55	-35.3	-36.9	24.7	0.00e+00	0	55	0	209715200	42	4260
2026-01-12 02:37:02.76	198.00	18.52	-35.8	-37.5	24.2	0.00e+00	0	55	0	212860928	42	4550
2026-01-12 02:37:05.79	196.74	18.47	-35.6	-37.3	24.4	0.00e+00	0	55	0	216530944	42	4445
2026-01-12 02:37:08.81	195.48	18.42	-34.9	-36.4	25.1	0.00e+00	0	55	0	219676672	41	4279
2026-01-12 02:37:11.84	194.23	18.35	-35.1	-36.7	24.9	0.00e+00	0	55	0	223346688	41	4433
2026-01-12 02:37:14.87	192.98	18.27	-35.8	-37.5	24.1	0.00e+00	0	55	0	226492416	42	4576
2026-01-12 02:37:17.90	191.75	18.18	-35.3	-36.9	24.7	0.00e+00	0	55	0	230162432	42	4253
2026-01-12 02:37:20.93	190.52	18.08	-34.8	-36.3	25.2	0.00e+00	0	55	0	233308160	41	4235
2026-01-12 02:37:23.96	189.30	17.97	-35.1	-36.7	24.9	0.00e+00	0	55	0	236978176	41	4433
2026-01-12 02:37:26.99	188.10	17.85	-35.7	-37.4	24.1	0.00e+00	0	55	0	240123904	42	4529
2026-01-12 02:37:30.01	186.91	17.72	-35.6	-37.2	24.4	0.00e+00	0	55	0	243793920	42	4424
2026-01-12 02:37:33.04	185.73	17.58	-35.6	-37.2	24.4	0.00e+00	0	55	0	246939648	42	4420
2026-01-12 02:37:36.07	184.56	17.43	-35.6	-37.3	24.3	0.00e+00	0	55	0	250609664	42	4464
2026-01-12 02:37:39.10	183.41	17.27	-35.9	-37.6	23.9	0.00e+00	0	55	0	253755392	42	4646
2026-01-12 02:37:42.13	182.28	17.10	-35.6	-37.3	24.3	0.00e+00	0	55	0	257425408	42	4446
2026-01-12 02:37:45.16	181.16	16.93	-36.3	-38.0	23.5	0.00e+00	0	55	0	260571136	43	4593
2026-01-12 02:37:48.19	180.05	16.75	-35.9	-37.6	23.9	0.00e+00	0	55	0	264241152	43	4353
2026-01-12 02:37:51.21	178.97	16.56	-35.9	-37.6	23.8	0.00e+00	0	55	0	267386880	43	4375
2026-01-12 02:37:54.24	177.90	16.37	-36.5	-38.3	23.2	0.00e+00	0	55	0	271056896	43	4720
2026-01-12 02:37:57.27	176.85	16.17	-36.6	-38.4	23.1	0.00e+00	0	55	0	274202624	43	4789
2026-01-12 02:38:00.30	175.81	15.96	-37.1	-39.0	22.7	0.00e+00	0	55	0	277872640	44	4822
2026-01-12 02:38:03.32	174.80	15.75	-37.2	-39.1	22.6	0.00e+00	0	55	0	281018368	45	4616
2026-01-12 02:38:06.35	173.80	15.53	-36.7	-38.5	23.2	0.00e+00	0	56	0	284688384	45	4311
2026-01-12 02:38:09.38	172.82	15.31	-37.0	-38.9	22.9	0.00e+00	0	55	0	287834112	45	4508
2026-01-12 02:38:12.41	171.86	15.09	-36.9	-38.8	22.9	0.00e+00	0	55	0	291504128	45	4456
2026-01-12 02:38:15.44	170.91	14.86	-37.0	-38.8	22.9	0.00e+00	0	55	0	294649856	45	4489
2026-01-12 02:38:18.47	169.99	14.63	-37.1	-39.0	22.7	0.00e+00	0	55	0	298319872	45	4573
2026-01-12 02:38:21.50	169.08	14.40	-37.4	-39.4	22.4	0.00e+00	0	55	0	301465600	45	4775
2026-01-12 02:38:24.53	168.19	14.16	-37.6	-39.6	22.2	0.00e+00	0	56	0	305135616	45	4899
2026-01-12 02:38:27.56	167.32	13.93	-37.4	-39.3	22.5	0.00e+00	0	56	0	308281344	45	4744
2026-01-12 02:38:30.58	166.47	13.69	-37.4	-39.3	22.4	0.00e+00	0	56	0	311951360	45	4730
2026-01-12 02:38:33.61	165.63	13.45	-37.9	-39.9	21.9	0.00e+00	0	55	0	315097088	46	4800
2026-01-12 02:38:36.64	164.81	13.20	-37.8	-39.8	22.0	0.00e+00	0	56	0	318767104	46	4755
2026-01-12 02:38:39.67	164.01	12.96	-37.8	-39.9	21.9	0.00e+00	0	56	0	321912832	46	4779
2026-01-12 02:38:42.70	163.23	12.72	-38.1	-40.2	21.6	0.00e+00	0	56	0	325582848	46	4980
2026-01-12 02:38:45.73	162.46	12.47	-38.1	-40.2	21.6	0.00e+00	0	56	0	328728576	46	4958
2026-01-12 02:38:48.76	161.71	12.23	-37.8	-39.9	21.9	0.00e+00	0	56	0	332398592	46	4760
2026-01-12 02:38:51.78	160.98	11.99	-38.0	-40.1	21.6	0.00e+00	0	55	0	335544320	46	4913
2026-01-12 02:38:54.81	160.26	11.74	-38.3	-40.5	21.2	0.00e+00	0	56	0	339214336	47	4846
2026-01-12 02:38:57.84	159.56	11.50	-38.3	-40.6	21.0	0.00e+00	0	56	0	342360064	47	4911
2026-01-12 02:39:00.87	158.87	11.25	-38.6	-40.9	20.8	0.00e+00	0	56	0	346030080	47	5084
2026-01-12 02:39:03.90	158.20	11.01	-38.3	-40.6	20.9	0.00e+00	0	56	0	349175808	47	4889
2026-01-12 02:39:06.93	157.54	10.77	-38.2	-40.5	20.9	0.00e+00	0	56	0	352845824	47	4861
2026-01-12 02:39:09.96	156.90	10.52	-38.3	-40.7	20.7	0.00e+00	0	56	0	355991552	47	4950
2026-01-12 02:39:12.98	156.27	10.28	-38.4	-40.8	20.5	0.00e+00	0	56	0	359661568	47	5001
2026-01-12 02:39:16.01	155.66	10.04	-38.8	-41.3	20.1	0.00e+00	0	56	0	362807296	48	5011
2026-01-12 02:39:19.04	155.05	9.80	-38.9	-41.5	19.8	0.00e+00	0	56	0	366477312	48	5128
2026-01-12 02:39:22.07	154.46	9.56	-39.1	-41.7	19.6	0.00e+00	0	56	0	369623040	48	5258
2026-01-12 02:39:25.10	153.89	9.33	-38.9	-41.5	19.8	0.00e+00	0	56	0	373293056	49	4828
2026-01-12 02:39:28.13	153.33	9.09	-38.5	-41.0	20.2	0.00e+00	0	56	0	376438784	49	4566
2026-01-12 02:39:31.15	152.78	8.86	-38.5	-40.9	20.2	0.00e+00	0	56	0	380108800	48	4812
2026-01-12 02:39:34.18	152.24	8.63	-38.6	-41.1	20.0	0.00e+00	0	56	0	383254528	48	4894
2026-01-12 02:39:37.21	151.71	8.39	-38.9	-41.6	19.3	0.00e+00	0	56	0	386924544	48	5209
2026-01-12 02:39:40.24	151.19	8.16	-39.3	-42.3	18.7	0.00e+00	0	56	0	390070272	49	5297
2026-01-12 02:39:43.27	150.69	7.94	-44.6	-62.5	3.6	1.10e-01	0	56	104	393216000	59	30417
2026-01-12 02:39:46.30	150.19	7.71	-45.2	-63.4	3.8	8.46e-01	0	56	104	393216000	60	32046
2026-01-12 02:39:49.33	149.71	7.48	-45.5	-63.7	3.8	8.46e-01	0	56	104	393216000	61	31235
2026-01-12 02:39:52.36	149.24	7.26	-45.4	-63.7	3.8	8.46e-01	0	56	104	393216000	61	31271
2026-01-12 02:39:55.40	148.77	7.04	-45.3	-63.7	3.8	8.46e-01	0	56	104	393216000	61	31096
2026-01-12 02:39:58.43	148.32	6.81	-45.2	-63.6	3.8	8.45e-01	0	56	104	393216000	61	30846
2026-01-12 02:40:01.46	147.88	6.60	-45.2	-63.6	3.8	8.46e-01	0	56	104	393216000	61	30885
2026-01-12 02:40:04.49	147.44	6.38	-45.2	-63.6	3.8	8.46e-01	0	56	104	393216000	61	30884
2026-01-12 02:40:07.52	147.01	6.16	-45.2	-63.6	3.8	8.46e-01	0	56	104	393216000	61	30767
2026-01-12 02:40:10.56	146.60	5.95	-45.2	-63.5	3.8	8.46e-01	0	56	104	393216000	61	30713
2026-01-12 02:40:13.59	146.19	5.73	-45.2	-63.5	3.8	8.47e-01	0	56	104	393216000	61	30644
2026-01-12 02:40:16.62	145.79	5.52	-45.2	-63.6	3.8	8.46e-01	0	56	104	393216000	61	30735
2026-01-12 02:40:19.65	145.40	5.31	-45.2	-63.5	3.8	8.46e-01	0	56	104	393216000	61	30718
2026-01-12 02:40:22.68	145.01	5.11	-45.2	-63.5	3.8	8.45e-01	0	56	104	393216000	61	30621
2026-01-12 02:40:25.72	144.63	4.90	-45.2	-63.5	3.8	8.46e-01	0	56	104	393216000	61	30623
2026-01-12 02:40:28.75	144.27	4.69	-45.2	-63.6	3.8	8.46e-01	0	56	104	393216000	61	30739
2026-01-12 02:40:31.78	143.90	4.49	-45.2	-63.5	3.8	8.45e-01	0	56	104	393216000	61	30619
2026-01-12 02:40:34.81	143.55	4.29	-45.1	-63.5	3.8	8.46e-01	0	56	104	393216000	61	30572
2026-01-12 02:40:37.85	143.20	4.09	-45.1	-63.5	3.8	8.46e-01	0	56	104	393216000	61	30615
2026-01-12 02:40:40.88	142.86	3.89	-45.2	-63.5	3.8	8.46e-01	0	56	104	393216000	61	30565
2026-01-12 02:40:43.91	142.53	3.69	-45.2	-63.5	3.8	8.46e-01	0	56	104	393216000	61	30624
2026-01-12 02:40:46.95	142.20	3.49	-45.1	-63.5	3.8	8.47e-01	0	56	104	393216000	61	30554
2026-01-12 02:40:49.98	141.88	3.30	-45.1	-63.5	3.8	8.46e-01	0	56	104	393216000	61	30514
2026-01-12 02:40:53.01	141.56	3.11	-45.1	-63.5	3.8	8.45e-01	0	56	104	393216000	61	30575
2026-01-12 02:40:56.04	141.25	2.91	-45.1	-63.5	3.8	8.47e-01	0	56	104	393216000	61	30597
2026-01-12 02:40:59.08	140.95	2.72	-45.1	-63.5	3.8	8.46e-01	0	56	104	393216000	61	30610
2026-01-12 02:41:02.11	140.65	2.53	-45.1	-63.5	3.8	8.46e-01	0	56	104	393216000	61	30535
2026-01-12 02:41:05.14	140.36	2.35	-45.1	-63.5	3.8	8.46e-01	0	56	104	393216000	61	30636
2026-01-12 02:41:08.18	140.07	2.16	-45.1	-63.5	3.8	8.47e-01	0	56	104	393216000	61	30572
2026-01-12 02:41:11.21	139.79	1.98	-45.1	-63.5	3.8	8.45e-01	0	56	104	393216000	61	30612

#Closed at: 2026-01-12 02:41:13
#Recorded file [393 MB]: D:/lorett/data/31039_260112_053235.dat