passes_logs/2026/01/12/R2.0S_Moscow/R2.0S_Moscow__20260112_013018_FENGYUN_3D_rec.log

#Pass ID: 20260112_013018_FENGYUN 3D
#Satellite: FENGYUN 3D
#Configuration: FENGYUN 3D
#almurnet v.1.7.20251203
#Start time: 2026-01-12 01:30:19

#Version: 2.2.20231116
#Station: R2.0S_Moscow
#Location: 37.707566 lon 55.798166 lat
#TLE: 1 43010U 17072A   26011.26828046  .00000354  00000+0  18908-3 0  9991
#TLE: 2 43010  98.9936 343.0270 0002205 114.1788 245.9618 14.19695184422722

#Time	Az	El	Level	Level2	SNR	BER	BlckErr	Temp	State	Recorded	gain1	gain2
2026-01-12 01:30:19.87	17.73	2.09	-41.0	-53.3	3.8	8.45e-01	0	47	0	0	53	14921
2026-01-12 01:30:23.91	17.79	2.35	-40.9	-53.2	3.8	8.47e-01	0	47	104	0	53	14878
2026-01-12 01:30:27.96	17.85	2.61	-40.9	-53.3	3.8	8.46e-01	0	48	104	0	53	14881
2026-01-12 01:30:32.00	17.91	2.87	-41.0	-53.2	3.8	8.46e-01	0	48	104	0	53	14826
2026-01-12 01:30:36.04	17.97	3.14	-40.9	-53.2	3.8	8.46e-01	0	48	104	0	53	14833
2026-01-12 01:30:40.09	18.03	3.41	-40.9	-53.2	3.8	8.47e-01	0	49	104	0	53	14861
2026-01-12 01:30:44.13	18.10	3.68	-40.9	-53.2	3.8	8.46e-01	0	49	104	0	53	14833
2026-01-12 01:30:48.17	18.16	3.95	-40.9	-53.2	3.8	8.46e-01	0	49	104	0	53	14806
2026-01-12 01:30:52.22	18.23	4.23	-40.8	-53.2	3.8	8.46e-01	0	49	104	0	53	14802
2026-01-12 01:30:56.26	18.29	4.51	-40.8	-53.3	3.8	8.47e-01	0	49	104	0	53	14894
2026-01-12 01:31:00.30	18.36	4.79	-40.9	-53.2	3.8	8.46e-01	0	50	104	0	53	14875
2026-01-12 01:31:04.35	18.43	5.07	-40.8	-53.2	3.8	8.46e-01	0	50	104	0	53	14805
2026-01-12 01:31:08.39	18.50	5.36	-40.9	-53.2	3.8	8.45e-01	0	50	104	0	53	14830
2026-01-12 01:31:12.44	18.57	5.65	-40.9	-53.2	3.8	8.46e-01	0	50	104	0	53	14836
2026-01-12 01:31:16.48	18.64	5.95	-40.9	-53.2	3.8	8.47e-01	0	51	104	0	53	14848
2026-01-12 01:31:20.52	18.71	6.25	-40.9	-53.1	3.8	8.45e-01	0	51	104	0	53	14671
2026-01-12 01:31:24.57	18.79	6.55	-40.9	-53.1	3.8	8.45e-01	0	51	104	0	53	14626
2026-01-12 01:31:28.61	18.86	6.85	-40.8	-52.8	3.8	8.47e-01	0	51	104	0	53	14052
2026-01-12 01:31:32.65	18.94	7.16	-40.8	-52.6	3.8	8.46e-01	0	51	104	0	53	13779
2026-01-12 01:31:36.70	19.02	7.47	-40.8	-52.1	3.8	8.46e-01	0	51	104	0	53	13047
2026-01-12 01:31:40.74	19.10	7.79	-40.6	-50.2	3.9	8.43e-01	0	52	104	0	53	10484
2026-01-12 01:31:44.78	19.18	8.11	-41.1	-46.1	7.3	8.46e-02	0	52	0	4194304	52	6947
2026-01-12 01:31:48.82	19.26	8.43	-39.6	-45.1	7.1	6.03e-03	0	52	0	20971520	49	7320
2026-01-12 01:31:52.86	19.34	8.76	-37.5	-39.8	13.7	1.48e-05	0	52	0	42991616	45	5015
2026-01-12 01:31:56.91	19.42	9.10	-37.6	-39.7	13.9	5.70e-06	0	52	0	66060288	46	4693
2026-01-12 01:32:00.95	19.51	9.43	-37.3	-39.3	14.5	2.20e-06	0	52	0	88080384	46	4474
2026-01-12 01:32:04.99	19.60	9.77	-37.2	-39.2	14.8	0.00e+00	0	52	0	111149056	46	4393
2026-01-12 01:32:09.03	19.69	10.12	-37.1	-39.0	15.1	0.00e+00	0	52	0	134217728	46	4312
2026-01-12 01:32:13.07	19.78	10.47	-37.4	-39.3	14.9	0.00e+00	0	53	0	157286400	46	4443
2026-01-12 01:32:17.11	19.87	10.83	-37.4	-39.3	14.9	0.00e+00	0	53	0	179306496	46	4488
2026-01-12 01:32:21.15	19.96	11.19	-37.3	-39.1	15.2	0.00e+00	0	53	0	202375168	46	4359
2026-01-12 01:32:25.19	20.06	11.56	-37.3	-39.0	15.4	0.00e+00	0	53	0	225443840	46	4320
2026-01-12 01:32:29.23	20.16	11.93	-37.3	-39.0	15.4	0.00e+00	0	53	0	247463936	46	4316
2026-01-12 01:32:33.27	20.26	12.31	-37.2	-39.0	15.5	0.00e+00	0	53	0	270532608	46	4299
2026-01-12 01:32:37.31	20.36	12.69	-37.3	-39.0	15.6	0.00e+00	0	53	0	292552704	46	4311
2026-01-12 01:32:41.35	20.47	13.08	-37.1	-38.8	15.8	0.00e+00	0	53	0	315621376	46	4226
2026-01-12 01:32:45.39	20.58	13.48	-37.1	-38.8	15.9	0.00e+00	0	53	0	338690048	46	4205
2026-01-12 01:32:49.44	20.69	13.88	-36.9	-38.5	16.1	0.00e+00	0	53	0	361758720	45	4305
2026-01-12 01:32:53.47	20.80	14.29	-36.7	-38.3	16.3	0.00e+00	0	54	0	383778816	45	4217
2026-01-12 01:32:57.52	20.91	14.71	-36.5	-38.0	16.6	0.00e+00	0	54	0	406847488	45	4091
2026-01-12 01:33:01.56	21.03	15.13	-36.4	-37.9	16.8	0.00e+00	0	54	0	429916160	44	4274
2026-01-12 01:33:05.60	21.15	15.57	-36.2	-37.7	17.1	0.00e+00	0	54	0	451936256	44	4155
2026-01-12 01:33:09.64	21.28	16.01	-36.1	-37.5	17.3	0.00e+00	0	54	0	475004928	44	4075
2026-01-12 01:33:13.68	21.40	16.45	-35.8	-37.2	17.4	0.00e+00	0	54	0	498073600	43	4173
2026-01-12 01:33:17.72	21.54	16.91	-35.7	-37.1	17.6	0.00e+00	0	54	0	520093696	43	4104
2026-01-12 01:33:21.77	21.67	17.37	-35.5	-36.9	17.8	0.00e+00	0	54	0	543162368	43	4024
2026-01-12 01:33:25.80	21.81	17.85	-35.4	-36.8	17.9	0.00e+00	0	54	0	566231040	42	4227
2026-01-12 01:33:29.84	21.95	18.33	-35.5	-36.9	17.9	0.00e+00	0	54	0	588251136	42	4243
2026-01-12 01:33:33.88	22.09	18.82	-35.5	-36.9	17.9	0.00e+00	0	54	0	611319808	42	4251
2026-01-12 01:33:37.91	22.24	19.32	-35.4	-36.7	18.1	0.00e+00	0	55	0	634388480	42	4182
2026-01-12 01:33:41.95	22.40	19.83	-35.2	-36.5	18.3	0.00e+00	0	54	0	656408576	42	4089
2026-01-12 01:33:45.99	22.56	20.36	-35.1	-36.4	18.4	0.00e+00	0	55	0	679477248	42	4043
2026-01-12 01:33:50.03	22.72	20.89	-35.1	-36.4	18.5	0.00e+00	0	55	0	702545920	42	4017
2026-01-12 01:33:54.07	22.89	21.43	-35.1	-36.4	18.5	0.00e+00	0	55	0	724566016	42	4018
2026-01-12 01:33:58.11	23.07	21.99	-34.8	-36.1	18.7	0.00e+00	0	55	0	747634688	41	4135
2026-01-12 01:34:02.15	23.25	22.56	-34.5	-35.8	19.1	0.00e+00	0	55	0	770703360	41	3971
2026-01-12 01:34:06.19	23.44	23.14	-34.4	-35.6	19.2	0.00e+00	0	55	0	792723456	40	4132
2026-01-12 01:34:10.23	23.63	23.74	-34.2	-35.4	19.5	0.00e+00	0	55	0	815792128	40	4026
2026-01-12 01:34:14.27	23.83	24.35	-34.2	-35.4	19.5	0.00e+00	0	55	0	838860800	40	4035
2026-01-12 01:34:18.31	24.04	24.97	-34.3	-35.5	19.4	0.00e+00	0	55	0	860880896	40	4081
2026-01-12 01:34:22.35	24.26	25.61	-34.2	-35.4	19.5	0.00e+00	0	55	0	883949568	40	4030
2026-01-12 01:34:26.39	24.48	26.26	-34.2	-35.4	19.6	0.00e+00	0	55	0	907018240	40	4036
2026-01-12 01:34:30.44	24.71	26.93	-34.1	-35.2	19.8	0.00e+00	0	55	0	929038336	40	3945
2026-01-12 01:34:34.48	24.96	27.62	-34.0	-35.1	19.9	0.00e+00	0	55	0	952107008	39	4126
2026-01-12 01:34:38.52	25.21	28.32	-34.0	-35.1	19.9	0.00e+00	0	55	0	975175680	39	4144
2026-01-12 01:34:42.55	25.47	29.04	-33.9	-35.1	20.0	0.00e+00	0	55	0	997195776	39	4119
2026-01-12 01:34:46.59	25.75	29.78	-33.9	-35.1	20.0	0.00e+00	0	55	0	1020264448	39	4122
2026-01-12 01:34:50.63	26.03	30.54	-33.8	-35.0	20.1	0.00e+00	0	55	0	1043333120	39	4067
2026-01-12 01:34:54.68	26.33	31.32	-34.1	-35.2	19.9	0.00e+00	0	55	0	1066401792	39	4187
2026-01-12 01:34:58.72	26.65	32.12	-33.9	-35.1	20.0	0.00e+00	0	55	0	1088421888	39	4121
2026-01-12 01:35:02.76	26.98	32.94	-34.0	-35.2	19.9	0.00e+00	0	55	0	1111490560	39	4181
2026-01-12 01:35:06.80	27.33	33.78	-33.6	-34.8	20.3	0.00e+00	0	55	0	1133510656	39	3966
2026-01-12 01:35:10.85	27.69	34.65	-33.6	-34.7	20.4	0.00e+00	0	55	0	1156579328	39	3950
2026-01-12 01:35:14.88	28.07	35.53	-33.7	-34.8	20.3	0.00e+00	0	56	0	1179648000	39	3994
2026-01-12 01:35:18.93	28.48	36.45	-33.7	-34.8	20.3	0.00e+00	0	55	0	1202716672	39	4003
2026-01-12 01:35:22.97	28.91	37.38	-33.6	-34.8	20.4	0.00e+00	0	56	0	1224736768	39	3970
2026-01-12 01:35:27.00	29.36	38.35	-33.5	-34.7	20.5	0.00e+00	0	55	0	1247805440	39	3915
2026-01-12 01:35:31.05	29.84	39.34	-33.5	-34.6	20.6	0.00e+00	0	55	0	1270874112	38	4113
2026-01-12 01:35:35.08	30.34	40.35	-33.7	-34.9	20.3	0.00e+00	0	56	0	1292894208	38	4243
2026-01-12 01:35:39.12	30.88	41.39	-33.5	-34.8	20.0	0.00e+00	0	56	0	1315962880	38	4207
2026-01-12 01:35:43.16	31.46	42.47	-34.0	-35.3	19.4	0.00e+00	0	56	0	1337982976	38	4493
2026-01-12 01:35:47.20	32.07	43.57	-34.0	-35.3	19.4	0.00e+00	0	56	0	1361051648	38	4481
2026-01-12 01:35:51.24	32.73	44.69	-34.0	-35.4	19.4	0.00e+00	0	56	0	1384120320	38	4497
2026-01-12 01:35:55.28	33.44	45.85	-34.2	-35.5	19.3	0.00e+00	0	56	0	1407188992	39	4317
2026-01-12 01:35:59.32	34.20	47.04	-33.9	-35.1	19.8	0.00e+00	0	56	0	1429209088	39	4122
2026-01-12 01:36:03.36	35.02	48.26	-34.0	-35.3	19.7	0.00e+00	0	56	0	1452277760	39	4198
2026-01-12 01:36:07.40	35.90	49.50	-34.1	-35.4	19.5	0.00e+00	0	56	0	1475346432	39	4254
2026-01-12 01:36:11.44	36.86	50.77	-34.7	-36.0	18.9	0.00e+00	0	56	0	1497366528	40	4334
2026-01-12 01:36:15.48	37.91	52.07	-34.4	-35.8	19.2	0.00e+00	0	56	0	1520435200	40	4195
2026-01-12 01:36:19.51	39.04	53.39	-34.8	-36.1	18.9	0.00e+00	0	56	0	1543503872	40	4361
2026-01-12 01:36:23.55	40.29	54.74	-34.9	-36.3	18.7	0.00e+00	0	56	0	1565523968	40	4469
2026-01-12 01:36:27.59	41.66	56.11	-34.6	-35.9	18.9	0.00e+00	0	56	0	1588592640	41	4050
2026-01-12 01:36:31.63	43.18	57.49	-34.3	-35.6	19.3	0.00e+00	0	56	0	1611661312	40	4117
2026-01-12 01:36:35.67	44.85	58.89	-34.5	-35.9	19.0	0.00e+00	0	56	0	1633681408	40	4269
2026-01-12 01:36:39.71	46.71	60.30	-33.8	-35.1	19.9	0.00e+00	0	56	0	1656750080	39	4101
2026-01-12 01:36:43.75	48.79	61.71	-33.9	-35.1	19.8	0.00e+00	0	56	0	1679818752	39	4126
2026-01-12 01:36:47.79	51.12	63.12	-33.5	-34.7	20.1	0.00e+00	0	56	0	1701838848	38	4165
2026-01-12 01:36:51.83	53.73	64.50	-33.4	-34.6	20.2	0.00e+00	0	56	0	1724907520	38	4143
2026-01-12 01:36:55.87	56.68	65.87	-33.3	-34.5	20.3	0.00e+00	0	56	0	1747976192	38	4077
2026-01-12 01:36:59.91	60.02	67.18	-33.4	-34.6	20.1	0.00e+00	0	56	0	1769996288	38	4141
2026-01-12 01:37:03.95	63.79	68.44	-33.3	-34.5	20.2	0.00e+00	0	56	0	1793064960	37	4338
2026-01-12 01:37:07.99	68.05	69.62	-33.0	-34.2	20.5	0.00e+00	0	56	0	1816133632	37	4177
2026-01-12 01:37:12.03	72.84	70.70	-32.7	-33.9	20.7	0.00e+00	0	56	0	1838153728	37	4048
2026-01-12 01:37:16.07	78.20	71.64	-32.7	-33.9	20.7	0.00e+00	0	56	0	1861222400	36	4265
2026-01-12 01:37:20.11	84.13	72.43	-32.8	-34.1	20.4	0.00e+00	0	56	0	1884291072	36	4367
2026-01-12 01:37:24.15	90.56	73.02	-32.4	-33.6	20.9	0.00e+00	0	56	0	1906311168	36	4129
2026-01-12 01:37:28.19	97.39	73.40	-32.4	-33.5	21.0	0.00e+00	0	56	0	1929379840	36	4092
2026-01-12 01:37:32.24	104.47	73.55	-32.6	-33.8	20.7	0.00e+00	0	56	0	1952448512	36	4208
2026-01-12 01:37:36.28	111.56	73.46	-32.1	-33.3	21.2	0.00e+00	0	56	0	1974468608	36	3965
2026-01-12 01:37:40.32	118.47	73.13	-32.8	-34.1	20.4	0.00e+00	0	56	0	1997537280	36	4357
2026-01-12 01:37:44.35	125.00	72.59	-32.5	-33.6	20.9	0.00e+00	0	56	0	2020605952	36	4142
2026-01-12 01:37:48.39	131.06	71.85	-32.5	-33.7	20.8	0.00e+00	0	56	0	2042626048	36	4165
2026-01-12 01:37:52.44	136.57	70.93	-32.6	-33.7	20.8	0.00e+00	0	56	0	2065694720	36	4193
2026-01-12 01:37:56.48	141.51	69.89	-32.7	-33.9	20.7	0.00e+00	0	56	0	2088763392	36	4260
2026-01-12 01:38:00.51	145.89	68.73	-32.9	-34.1	20.4	0.00e+00	0	56	0	2111832064	36	4379
2026-01-12 01:38:04.55	149.77	67.49	-33.2	-34.4	20.2	0.00e+00	0	56	0	2133852160	36	4530
2026-01-12 01:38:08.59	153.21	66.18	-33.1	-34.3	20.2	0.00e+00	0	56	0	2156920832	37	4240
2026-01-12 01:38:12.63	156.25	64.82	-32.9	-34.1	20.5	0.00e+00	0	56	0	2178940928	37	4113
2026-01-12 01:38:16.67	158.95	63.43	-33.3	-34.6	20.1	0.00e+00	0	56	0	2202009600	37	4348
2026-01-12 01:38:20.71	161.34	62.03	-33.2	-34.5	20.2	0.00e+00	0	56	0	2225078272	37	4306
2026-01-12 01:38:24.75	163.48	60.61	-33.5	-34.7	19.9	0.00e+00	0	56	0	2248146944	37	4422
2026-01-12 01:38:28.79	165.39	59.20	-33.8	-35.1	19.7	0.00e+00	0	56	0	2270167040	38	4357
2026-01-12 01:38:32.83	167.11	57.79	-34.1	-35.4	19.3	0.00e+00	0	56	0	2293235712	38	4522
2026-01-12 01:38:36.86	168.65	56.40	-34.7	-36.1	18.7	0.00e+00	0	56	0	2316304384	39	4600
2026-01-12 01:38:40.91	170.06	55.02	-34.7	-36.0	18.7	0.00e+00	0	56	0	2338324480	40	4326
2026-01-12 01:38:44.95	171.34	53.66	-34.5	-35.8	18.9	0.00e+00	0	56	0	2361393152	40	4233
2026-01-12 01:38:48.99	172.50	52.33	-34.4	-35.7	19.0	0.00e+00	0	56	0	2383413248	40	4183
2026-01-12 01:38:53.03	173.57	51.02	-34.3	-35.7	19.0	0.00e+00	0	56	0	2406481920	40	4148
2026-01-12 01:38:57.07	174.55	49.73	-33.9	-35.2	19.6	0.00e+00	0	56	0	2429550592	39	4149
2026-01-12 01:39:01.11	175.45	48.48	-33.9	-35.2	19.5	0.00e+00	0	56	0	2452619264	39	4165
2026-01-12 01:39:05.15	176.29	47.25	-33.8	-35.1	19.5	0.00e+00	0	56	0	2474639360	39	4132
2026-01-12 01:39:09.18	177.06	46.05	-33.8	-35.0	19.5	0.00e+00	0	56	0	2497708032	39	4094
2026-01-12 01:39:13.23	177.78	44.88	-33.6	-34.9	19.7	0.00e+00	0	56	0	2520776704	39	4026
2026-01-12 01:39:17.26	178.44	43.74	-33.5	-34.7	19.9	0.00e+00	0	56	0	2542796800	39	3944
2026-01-12 01:39:21.31	179.07	42.63	-33.6	-34.8	19.8	0.00e+00	0	56	0	2565865472	38	4224
2026-01-12 01:39:25.35	179.65	41.55	-33.6	-34.9	19.7	0.00e+00	0	57	0	2587885568	38	4269
2026-01-12 01:39:29.38	180.20	40.50	-33.2	-34.4	20.1	0.00e+00	0	56	0	2610954240	38	4039
2026-01-12 01:39:33.42	180.71	39.47	-32.8	-34.0	20.4	0.00e+00	0	56	0	2634022912	37	4089
2026-01-12 01:39:37.46	181.20	38.47	-33.1	-34.4	20.1	0.00e+00	0	56	0	2657091584	37	4256
2026-01-12 01:39:41.50	181.65	37.50	-33.2	-34.4	20.0	0.00e+00	0	56	0	2679111680	37	4290
2026-01-12 01:39:45.54	182.08	36.55	-33.2	-34.5	19.9	0.00e+00	0	56	0	2702180352	37	4313
2026-01-12 01:39:49.58	182.49	35.63	-33.5	-34.8	19.7	0.00e+00	0	56	0	2725249024	37	4444
2026-01-12 01:39:53.62	182.88	34.73	-33.3	-34.6	19.7	0.00e+00	0	56	0	2747269120	37	4378
2026-01-12 01:39:57.66	183.25	33.86	-33.4	-34.6	19.7	0.00e+00	0	56	0	2770337792	37	4390
2026-01-12 01:40:01.70	183.59	33.01	-33.4	-34.7	19.6	0.00e+00	0	56	0	2792357888	37	4418
2026-01-12 01:40:05.74	183.93	32.18	-33.4	-34.7	19.7	0.00e+00	0	56	0	2815426560	37	4405
2026-01-12 01:40:09.78	184.24	31.37	-33.5	-34.8	19.6	0.00e+00	0	56	0	2838495232	37	4443
2026-01-12 01:40:13.82	184.54	30.58	-33.6	-34.9	19.5	0.00e+00	0	56	0	2861563904	37	4499
2026-01-12 01:40:17.86	184.83	29.82	-33.7	-35.0	19.4	0.00e+00	0	56	0	2883584000	37	4558
2026-01-12 01:40:21.90	185.11	29.07	-33.8	-35.1	19.3	0.00e+00	0	56	0	2906652672	38	4353
2026-01-12 01:40:25.94	185.37	28.34	-33.7	-35.0	19.4	0.00e+00	0	56	0	2928672768	38	4313
2026-01-12 01:40:29.98	185.63	27.63	-33.7	-35.0	19.4	0.00e+00	0	56	0	2951741440	38	4303
2026-01-12 01:40:34.02	185.87	26.94	-33.7	-35.0	19.4	0.00e+00	0	56	0	2974810112	38	4321
2026-01-12 01:40:38.06	186.10	26.27	-33.6	-34.9	19.4	0.00e+00	0	56	0	2997878784	38	4286
2026-01-12 01:40:42.10	186.33	25.61	-33.6	-34.9	19.4	0.00e+00	0	56	0	3019898880	38	4254
2026-01-12 01:40:46.15	186.54	24.96	-33.7	-35.0	19.4	0.00e+00	0	56	0	3042967552	38	4296
2026-01-12 01:40:50.18	186.75	24.33	-33.8	-35.1	19.2	0.00e+00	0	56	0	3066036224	38	4365
2026-01-12 01:40:54.22	186.95	23.72	-34.0	-35.4	19.0	0.00e+00	0	56	0	3088056320	38	4505
2026-01-12 01:40:58.26	187.14	23.12	-34.2	-35.6	18.8	0.00e+00	0	56	0	3111124992	38	4609
2026-01-12 01:41:02.31	187.33	22.53	-34.3	-35.7	18.7	0.00e+00	0	56	0	3134193664	39	4432
2026-01-12 01:41:06.34	187.51	21.96	-34.4	-35.8	18.6	0.00e+00	0	56	0	3156213760	39	4480
2026-01-12 01:41:10.38	187.68	21.39	-34.5	-35.9	18.5	0.00e+00	0	56	0	3179282432	39	4496
2026-01-12 01:41:14.42	187.85	20.84	-34.5	-35.9	18.5	0.00e+00	0	57	0	3202351104	39	4537
2026-01-12 01:41:18.46	188.01	20.31	-34.6	-36.0	18.4	0.00e+00	0	56	0	3224371200	39	4557
2026-01-12 01:41:22.50	188.17	19.78	-34.7	-36.1	18.3	0.00e+00	0	57	0	3247439872	39	4603
2026-01-12 01:41:26.54	188.32	19.26	-34.7	-36.1	18.3	0.00e+00	0	56	0	3270508544	40	4342
2026-01-12 01:41:30.58	188.47	18.76	-34.8	-36.2	18.1	0.00e+00	0	56	0	3292528640	40	4424
2026-01-12 01:41:34.62	188.62	18.26	-34.9	-36.4	18.0	0.00e+00	0	56	0	3315597312	40	4507
2026-01-12 01:41:38.66	188.76	17.78	-35.1	-36.5	17.8	0.00e+00	0	57	0	3338665984	40	4586
2026-01-12 01:41:42.71	188.89	17.30	-35.3	-36.8	17.5	0.00e+00	0	56	0	3360686080	41	4493
2026-01-12 01:41:46.75	189.02	16.83	-35.6	-37.2	17.2	0.00e+00	0	56	0	3383754752	41	4656
2026-01-12 01:41:50.79	189.15	16.37	-35.7	-37.3	17.1	0.00e+00	0	56	0	3406823424	41	4706
2026-01-12 01:41:54.83	189.28	15.92	-36.0	-37.6	16.7	0.00e+00	0	57	0	3428843520	42	4651
2026-01-12 01:41:58.86	189.40	15.48	-36.0	-37.6	16.8	0.00e+00	0	56	0	3451912192	42	4615
2026-01-12 01:42:02.91	189.52	15.04	-36.3	-37.9	16.4	0.00e+00	0	56	0	3474980864	43	4532
2026-01-12 01:42:06.95	189.63	14.62	-36.3	-38.0	16.3	0.00e+00	0	56	0	3497000960	43	4588
2026-01-12 01:42:10.99	189.75	14.20	-36.4	-38.1	16.2	0.00e+00	0	56	0	3520069632	43	4646
2026-01-12 01:42:15.03	189.85	13.78	-36.3	-38.0	16.3	0.00e+00	0	56	0	3543138304	43	4547
2026-01-12 01:42:19.07	189.96	13.38	-36.4	-38.1	16.2	0.00e+00	0	56	0	3565158400	43	4617
2026-01-12 01:42:23.11	190.07	12.98	-36.6	-38.4	15.9	0.00e+00	0	57	0	3588227072	43	4781
2026-01-12 01:42:27.15	190.17	12.58	-36.8	-38.6	15.9	0.00e+00	0	56	0	3611295744	44	4608
2026-01-12 01:42:31.19	190.27	12.20	-36.9	-38.7	15.7	0.00e+00	0	56	0	3633315840	44	4693
2026-01-12 01:42:35.23	190.37	11.82	-37.0	-38.8	15.6	0.00e+00	0	57	0	3656384512	44	4746
2026-01-12 01:42:39.28	190.46	11.44	-37.1	-39.0	15.4	0.00e+00	0	56	0	3679453184	44	4833
2026-01-12 01:42:43.32	190.55	11.07	-37.1	-39.0	15.4	0.00e+00	0	56	0	3702521856	45	4549
2026-01-12 01:42:47.36	190.64	10.71	-37.4	-39.4	15.0	0.00e+00	0	57	0	3724541952	45	4764
2026-01-12 01:42:51.40	190.73	10.35	-37.2	-39.1	15.2	0.00e+00	0	57	0	3747610624	45	4647
2026-01-12 01:42:55.44	190.82	10.00	-37.1	-39.0	15.3	0.00e+00	0	57	0	3769630720	45	4584
2026-01-12 01:42:59.48	190.91	9.65	-37.5	-39.4	14.9	0.00e+00	0	56	0	3792699392	45	4812
2026-01-12 01:43:03.52	190.99	9.30	-37.3	-39.2	15.1	0.00e+00	0	56	0	3815768064	45	4675
2026-01-12 01:43:07.56	191.07	8.96	-37.5	-39.5	14.8	0.00e+00	0	57	0	3838836736	45	4829
2026-01-12 01:43:11.60	191.15	8.63	-37.4	-39.3	14.9	1.10e-06	0	57	0	3860856832	45	4733
2026-01-12 01:43:15.64	191.23	8.30	-37.8	-39.8	14.4	2.20e-06	0	57	0	3883925504	46	4724
2026-01-12 01:43:19.68	191.31	7.97	-43.1	-49.1	5.9	3.36e-02	0	57	0	3906994176	56	7747
2026-01-12 01:43:23.72	191.38	7.65	-45.0	-56.6	3.8	8.47e-01	0	57	104	3906994176	60	14665
2026-01-12 01:43:27.77	191.46	7.33	-45.2	-56.9	3.8	8.47e-01	0	57	104	3906994176	61	14217
2026-01-12 01:43:31.81	191.53	7.02	-45.1	-56.7	3.8	8.45e-01	0	57	104	3906994176	61	13953
2026-01-12 01:43:35.85	191.60	6.71	-45.1	-56.7	3.8	8.46e-01	0	57	104	3906994176	61	13911
2026-01-12 01:43:39.89	191.67	6.40	-45.0	-56.7	3.8	8.45e-01	0	57	104	3906994176	61	13954
2026-01-12 01:43:43.93	191.74	6.10	-45.0	-56.6	3.8	8.48e-01	0	57	104	3906994176	61	13882
2026-01-12 01:43:47.97	191.81	5.80	-45.0	-56.7	3.8	8.46e-01	0	57	104	3906994176	61	13897
2026-01-12 01:43:52.02	191.88	5.50	-45.0	-56.6	3.8	8.47e-01	0	57	104	3906994176	61	13802
2026-01-12 01:43:56.07	191.94	5.21	-45.0	-56.6	3.8	8.46e-01	0	57	104	3906994176	61	13802
2026-01-12 01:44:00.11	192.01	4.92	-44.9	-56.6	3.8	8.46e-01	0	57	104	3906994176	61	13727
2026-01-12 01:44:04.15	192.07	4.63	-45.0	-56.6	3.8	8.46e-01	0	57	104	3906994176	61	13807
2026-01-12 01:44:08.20	192.14	4.35	-44.9	-56.6	3.8	8.46e-01	0	57	104	3906994176	61	13750
2026-01-12 01:44:12.24	192.20	4.07	-44.9	-56.6	3.8	8.47e-01	0	57	104	3906994176	60	14553
2026-01-12 01:44:16.28	192.26	3.79	-44.9	-56.6	3.8	8.47e-01	0	57	104	3906994176	60	14587
2026-01-12 01:44:20.33	192.32	3.52	-44.9	-56.5	3.8	8.45e-01	0	57	104	3906994176	60	14527
2026-01-12 01:44:24.37	192.38	3.24	-44.9	-56.6	3.8	8.46e-01	0	57	104	3906994176	60	14607
2026-01-12 01:44:28.42	192.43	2.97	-44.9	-56.5	3.8	8.46e-01	0	56	104	3906994176	60	14535
2026-01-12 01:44:32.46	192.49	2.71	-44.9	-56.6	3.8	8.45e-01	0	57	104	3906994176	60	14545
2026-01-12 01:44:36.50	192.55	2.44	-44.9	-56.6	3.8	8.45e-01	0	57	104	3906994176	60	14546
2026-01-12 01:44:40.54	192.60	2.18	-44.9	-56.6	3.8	8.46e-01	0	57	104	3906994176	60	14558

#Closed at: 2026-01-12 01:44:43
#Recorded file [3906 MB]: D:/lorett/data/31039_260112_043019.dat