passes_logs/2026/01/12/R2.0S_Moscow/R2.0S_Moscow__20260112_102120_SUOMI_NPP_rec.log

#Pass ID: 20260112_102120_SUOMI NPP
#Satellite: SUOMI NPP
#Configuration: NPP
#almurnet v.1.7.20251203
#Start time: 2026-01-12 10:21:22

#Version: 2.2.20231116
#Station: R2.0S_Moscow
#Location: 37.707566 lon 55.798166 lat
#TLE: 1 37849U 11061A   26011.29776829  .00000112  00000+0  74065-4 0  9999
#TLE: 2 37849  98.7807 313.3784 0002522  70.0451 290.0996 14.19524507736187

#Time	Az	El	Level	Level2	SNR	BER	BlckErr	Temp	State	Recorded	gain1	gain2
2026-01-12 10:21:22.37	171.24	2.15	-43.1	-57.3	3.8	1.49e+00	0	50	0	0	58	17780
2026-01-12 10:21:26.42	171.32	2.41	-43.0	-57.3	3.8	1.49e+00	0	50	104	0	57	18824
2026-01-12 10:21:30.46	171.39	2.67	-43.0	-57.3	3.8	1.49e+00	0	50	104	0	57	18758
2026-01-12 10:21:34.50	171.47	2.94	-43.0	-57.3	3.8	1.49e+00	0	51	104	0	57	18771
2026-01-12 10:21:38.54	171.55	3.20	-43.0	-57.3	3.8	1.49e+00	0	51	104	0	57	18753
2026-01-12 10:21:42.59	171.64	3.48	-43.0	-57.3	3.8	1.49e+00	0	51	104	0	57	18781
2026-01-12 10:21:46.63	171.72	3.75	-43.0	-57.3	3.8	1.49e+00	0	52	104	0	57	18750
2026-01-12 10:21:50.67	171.80	4.02	-43.0	-57.2	3.8	1.49e+00	0	52	104	0	57	18643
2026-01-12 10:21:54.71	171.89	4.30	-43.0	-56.9	3.8	1.49e+00	0	52	104	0	57	18092
2026-01-12 10:21:58.76	171.98	4.58	-43.0	-56.4	3.8	1.49e+00	0	52	104	0	57	16997
2026-01-12 10:22:02.80	172.07	4.87	-43.0	-56.3	3.8	1.49e+00	0	53	104	0	57	16721
2026-01-12 10:22:06.84	172.16	5.16	-42.9	-55.9	3.8	1.49e+00	0	53	104	0	57	16034
2026-01-12 10:22:10.89	172.25	5.45	-42.9	-55.0	3.8	1.48e+00	0	53	104	0	57	14382
2026-01-12 10:22:14.93	172.35	5.74	-42.9	-54.9	3.8	1.49e+00	0	53	104	0	57	14311
2026-01-12 10:22:18.97	172.44	6.04	-42.9	-55.0	3.8	1.49e+00	0	53	104	0	57	14433
2026-01-12 10:22:23.02	172.54	6.34	-42.9	-54.7	3.8	1.48e+00	0	54	104	0	57	13952
2026-01-12 10:22:27.06	172.64	6.64	-42.7	-53.2	4.4	1.35e+00	0	54	0	0	57	11737
2026-01-12 10:22:31.11	172.74	6.95	-42.5	-51.2	5.3	6.48e-01	0	54	0	7340032	56	9885
2026-01-12 10:22:35.15	172.84	7.26	-42.1	-49.1	6.9	2.07e-01	0	54	0	14680064	56	7791
2026-01-12 10:22:39.19	172.95	7.58	-41.7	-47.9	7.9	6.77e-02	0	54	0	23068672	55	7154
2026-01-12 10:22:43.23	173.06	7.89	-41.6	-47.8	8.0	5.69e-02	0	54	0	30408704	54	7525
2026-01-12 10:22:47.27	173.16	8.22	-41.8	-47.3	8.8	7.95e-02	0	55	0	37748736	55	6703
2026-01-12 10:22:51.31	173.28	8.54	-41.7	-46.6	9.8	1.14e-02	0	55	0	41943040	55	6201
2026-01-12 10:22:55.35	173.39	8.87	-41.5	-46.3	10.2	6.25e-03	0	55	0	50331648	55	5946
2026-01-12 10:22:59.39	173.51	9.21	-41.6	-46.4	10.2	7.65e-03	0	55	0	57671680	55	6010
2026-01-12 10:23:03.43	173.62	9.55	-41.5	-46.1	10.6	3.28e-03	0	55	0	65011712	55	5816
2026-01-12 10:23:07.46	173.75	9.89	-41.5	-46.0	10.7	3.17e-03	0	55	0	72351744	55	5757
2026-01-12 10:23:11.50	173.87	10.24	-41.5	-45.9	10.9	2.89e-03	0	55	0	79691776	55	5689
2026-01-12 10:23:15.54	174.00	10.60	-41.4	-45.7	11.2	1.56e-03	0	55	0	88080384	54	5856
2026-01-12 10:23:19.58	174.13	10.96	-41.3	-45.4	11.5	8.97e-04	0	56	0	95420416	54	5677
2026-01-12 10:23:23.62	174.26	11.32	-41.2	-45.1	11.8	3.89e-04	0	56	0	102760448	54	5525
2026-01-12 10:23:27.66	174.39	11.69	-41.1	-44.9	12.0	3.07e-04	0	56	0	110100480	54	5402
2026-01-12 10:23:31.69	174.53	12.07	-41.1	-44.8	12.2	2.03e-04	0	56	0	118489088	54	5309
2026-01-12 10:23:35.73	174.67	12.45	-41.1	-44.7	12.4	1.77e-04	0	56	0	125829120	53	5557
2026-01-12 10:23:39.76	174.82	12.83	-41.0	-44.6	12.5	1.27e-04	0	56	0	133169152	53	5519
2026-01-12 10:23:43.80	174.97	13.23	-41.0	-44.5	12.7	8.39e-05	0	56	0	140509184	53	5421
2026-01-12 10:23:47.84	175.12	13.63	-41.0	-44.6	12.6	9.00e-05	0	56	0	147849216	53	5477
2026-01-12 10:23:51.87	175.28	14.03	-40.9	-44.3	12.9	7.09e-05	0	56	0	156237824	53	5340
2026-01-12 10:23:55.91	175.44	14.44	-40.9	-44.3	13.0	7.40e-05	0	56	0	163577856	53	5296
2026-01-12 10:23:59.95	175.60	14.86	-41.1	-44.6	12.7	5.64e-05	0	57	0	170917888	53	5487
2026-01-12 10:24:03.99	175.77	15.29	-41.1	-44.7	12.5	9.68e-05	0	57	0	178257920	53	5556
2026-01-12 10:24:08.03	175.94	15.72	-41.3	-45.0	12.3	1.50e-04	0	56	0	186646528	53	5739
2026-01-12 10:24:12.07	176.12	16.17	-41.3	-44.9	12.4	1.37e-04	0	57	0	193986560	53	5691
2026-01-12 10:24:16.11	176.31	16.62	-41.5	-45.4	11.9	2.45e-04	0	57	0	201326592	53	6032
2026-01-12 10:24:20.15	176.49	17.08	-41.7	-45.7	11.7	4.39e-04	0	57	0	208666624	53	6210
2026-01-12 10:24:24.18	176.69	17.54	-41.8	-45.8	11.5	6.48e-04	0	57	0	216006656	54	5982
2026-01-12 10:24:28.22	176.89	18.02	-41.7	-45.8	11.6	7.62e-04	0	57	0	224395264	54	5940
2026-01-12 10:24:32.26	177.09	18.50	-41.7	-45.7	11.7	7.90e-04	0	57	0	231735296	54	5871
2026-01-12 10:24:36.29	177.30	18.99	-41.7	-45.7	11.7	7.21e-04	0	57	0	239075328	54	5896
2026-01-12 10:24:40.33	177.52	19.50	-41.7	-45.7	11.7	6.11e-04	0	57	0	246415360	54	5889
2026-01-12 10:24:44.37	177.75	20.01	-41.7	-45.6	11.8	4.04e-04	0	57	0	254803968	54	5824
2026-01-12 10:24:48.41	177.98	20.53	-41.8	-45.8	11.7	6.03e-04	0	57	0	262144000	54	5939
2026-01-12 10:24:52.45	178.22	21.07	-42.1	-46.4	11.1	1.18e-03	0	57	0	269484032	54	6390
2026-01-12 10:24:56.49	178.47	21.62	-42.0	-46.2	11.4	9.15e-04	0	57	0	276824064	54	6208
2026-01-12 10:25:00.53	178.73	22.17	-41.8	-45.7	11.8	5.52e-04	0	57	0	284164096	54	5885
2026-01-12 10:25:04.57	179.00	22.74	-41.7	-45.5	12.0	3.28e-04	0	57	0	292552704	54	5748
2026-01-12 10:25:08.60	179.27	23.32	-41.3	-44.8	12.8	7.70e-05	0	58	0	299892736	54	5284
2026-01-12 10:25:12.64	179.56	23.92	-41.1	-44.4	13.2	2.67e-05	0	57	0	307232768	54	5048
2026-01-12 10:25:16.68	179.85	24.52	-41.2	-44.5	13.2	2.13e-05	0	57	0	314572800	54	5111
2026-01-12 10:25:20.72	180.16	25.15	-41.3	-44.6	13.1	2.74e-05	0	57	0	321912832	54	5179
2026-01-12 10:25:24.76	180.48	25.78	-41.2	-44.5	13.1	2.21e-05	0	57	0	330301440	54	5149
2026-01-12 10:25:28.80	180.81	26.43	-41.4	-44.8	12.8	3.50e-05	0	57	0	337641472	54	5320
2026-01-12 10:25:32.84	181.16	27.10	-41.3	-44.6	13.1	6.56e-05	0	58	0	344981504	54	5205
2026-01-12 10:25:36.87	181.52	27.77	-41.1	-44.3	13.4	1.83e-05	0	57	0	352321536	54	5027
2026-01-12 10:25:40.91	181.89	28.47	-41.0	-44.1	13.6	1.06e-05	0	58	0	360710144	53	5216
2026-01-12 10:25:44.95	182.29	29.18	-40.9	-43.9	13.8	2.20e-06	0	57	0	368050176	53	5099
2026-01-12 10:25:49.00	182.70	29.92	-41.3	-44.7	13.0	3.73e-05	0	58	0	375390208	53	5544
2026-01-12 10:25:53.03	183.12	30.66	-42.3	-46.5	11.2	1.17e-03	0	58	0	382730240	55	6126
2026-01-12 10:25:57.07	183.57	31.43	-42.3	-46.6	11.1	1.67e-03	0	58	0	390070272	55	6145
2026-01-12 10:26:01.11	184.04	32.21	-42.5	-47.1	10.6	3.29e-03	0	58	0	398458880	55	6513
2026-01-12 10:26:05.15	184.53	33.01	-42.9	-47.7	10.2	4.42e-03	0	58	0	405798912	56	6595
2026-01-12 10:26:09.19	185.04	33.84	-42.6	-47.0	10.8	5.00e-03	0	58	0	413138944	56	6115
2026-01-12 10:26:13.23	185.58	34.68	-42.4	-46.5	11.4	1.24e-03	0	58	0	420478976	56	5738
2026-01-12 10:26:17.26	186.15	35.54	-42.6	-47.0	10.9	2.52e-03	0	58	0	428867584	56	6097
2026-01-12 10:26:21.30	186.75	36.42	-42.9	-47.8	10.1	4.77e-03	0	58	0	436207616	56	6650
2026-01-12 10:26:25.34	187.38	37.33	-43.0	-48.1	9.7	1.20e-02	0	58	0	443547648	56	6928
2026-01-12 10:26:29.38	188.05	38.26	-43.0	-47.8	10.0	1.24e-02	0	58	0	450887680	57	6316
2026-01-12 10:26:33.41	188.76	39.20	-43.0	-48.0	9.9	7.58e-03	0	58	0	458227712	57	6435
2026-01-12 10:26:37.45	189.51	40.17	-43.5	-49.4	8.4	3.94e-02	0	58	0	466616320	57	7593
2026-01-12 10:26:41.49	190.30	41.16	-43.5	-49.3	8.5	3.54e-02	0	58	0	473956352	57	7495
2026-01-12 10:26:45.53	191.15	42.17	-43.5	-49.3	8.5	4.73e-02	0	58	0	481296384	58	7118
2026-01-12 10:26:49.57	192.05	43.21	-42.5	-46.7	11.2	2.37e-03	0	58	0	488636416	57	5559
2026-01-12 10:26:53.61	193.00	44.26	-42.2	-46.1	11.9	6.56e-04	0	58	0	497025024	56	5498
2026-01-12 10:26:57.65	194.03	45.33	-42.8	-47.4	10.7	1.99e-03	0	58	0	504365056	56	6360
2026-01-12 10:27:01.68	195.12	46.42	-42.9	-47.7	10.4	5.89e-03	0	58	0	511705088	56	6573
2026-01-12 10:27:05.72	196.29	47.53	-42.7	-47.1	11.0	4.82e-03	0	58	0	519045120	56	6145
2026-01-12 10:27:09.76	197.55	48.66	-42.5	-46.8	11.2	6.32e-04	0	58	0	526385152	56	5970
2026-01-12 10:27:13.80	198.90	49.79	-41.7	-45.4	12.5	1.58e-04	0	58	0	534773760	55	5353
2026-01-12 10:27:17.84	200.36	50.94	-41.1	-44.1	13.7	6.80e-06	0	58	0	542113792	53	5173
2026-01-12 10:27:21.88	201.93	52.10	-41.3	-44.6	13.3	5.18e-05	0	58	0	549453824	54	5193
2026-01-12 10:27:25.91	203.63	53.26	-39.4	-41.5	16.5	0.00e+00	0	58	0	556793856	50	4584
2026-01-12 10:27:29.95	205.46	54.42	-39.8	-42.1	15.9	0.00e+00	0	58	0	565182464	50	4912
2026-01-12 10:27:33.99	207.45	55.58	-40.3	-42.8	15.2	0.00e+00	0	58	0	572522496	51	5026
2026-01-12 10:27:38.02	209.61	56.72	-40.3	-42.8	15.2	0.00e+00	0	58	0	579862528	51	5020
2026-01-12 10:27:42.06	211.95	57.84	-40.2	-42.7	15.3	0.00e+00	0	58	0	587202560	51	4956
2026-01-12 10:27:46.10	214.49	58.94	-41.0	-44.0	14.0	2.20e-06	0	58	0	594542592	52	5426
2026-01-12 10:27:50.14	217.25	60.00	-41.2	-44.4	13.5	8.30e-06	0	58	0	602931200	53	5381
2026-01-12 10:27:54.18	220.24	61.02	-41.2	-44.2	13.7	1.50e-06	0	58	0	610271232	53	5272
2026-01-12 10:27:58.22	223.47	61.97	-40.5	-44.1	13.7	0.00e+00	0	58	0	617611264	53	5210
2026-01-12 10:28:02.26	226.95	62.86	-40.8	-43.7	14.2	3.00e-06	0	58	0	624951296	53	4939
2026-01-12 10:28:06.29	230.68	63.66	-40.1	-42.6	15.4	0.00e+00	0	58	0	633339904	51	4884
2026-01-12 10:28:10.33	234.66	64.36	-41.2	-44.3	13.7	3.80e-06	0	59	0	640679936	52	5608
2026-01-12 10:28:14.37	238.87	64.96	-40.8	-43.6	14.2	5.30e-06	0	58	0	648019968	52	5215
2026-01-12 10:28:18.41	243.29	65.43	-42.0	-45.9	12.1	3.65e-04	0	58	0	655360000	55	5660
2026-01-12 10:28:22.45	247.86	65.77	-41.7	-45.2	12.7	1.36e-04	0	59	0	662700032	54	5540
2026-01-12 10:28:26.48	252.54	65.96	-41.6	-45.0	12.9	7.47e-05	0	58	0	671088640	54	5448
2026-01-12 10:28:30.52	257.28	66.01	-41.0	-44.0	14.0	1.60e-05	0	58	0	678428672	53	5116
2026-01-12 10:28:34.56	262.01	65.91	-40.5	-43.1	14.8	9.10e-06	0	58	0	685768704	52	4900
2026-01-12 10:28:38.60	266.67	65.67	-41.0	-44.0	13.9	3.80e-06	0	59	0	693108736	52	5457
2026-01-12 10:28:42.64	271.19	65.29	-39.8	-42.0	16.0	0.00e+00	0	58	0	701497344	51	4580
2026-01-12 10:28:46.68	275.54	64.78	-40.7	-43.4	14.6	7.00e-07	0	58	0	708837376	52	5074
2026-01-12 10:28:50.72	279.68	64.14	-40.8	-43.6	14.3	3.00e-06	0	58	0	716177408	53	4907
2026-01-12 10:28:54.76	283.57	63.41	-41.1	-44.1	13.9	7.00e-07	0	58	0	723517440	52	5494
2026-01-12 10:28:58.79	287.21	62.58	-41.2	-44.3	13.6	5.30e-06	0	59	0	730857472	53	5309
2026-01-12 10:29:02.83	290.60	61.67	-41.1	-44.1	13.8	1.50e-06	0	59	0	739246080	52	5487
2026-01-12 10:29:06.86	293.74	60.70	-40.3	-42.8	15.3	0.00e+00	0	58	0	746586112	51	5026
2026-01-12 10:29:10.90	296.65	59.67	-39.8	-42.2	15.9	0.00e+00	0	58	0	753926144	51	4666
2026-01-12 10:29:14.94	299.33	58.60	-39.9	-42.4	15.6	7.00e-07	0	58	0	761266176	50	5094
2026-01-12 10:29:18.98	301.81	57.50	-40.3	-42.8	15.4	0.00e+00	0	58	0	769654784	50	5328
2026-01-12 10:29:23.02	304.08	56.37	-38.3	-43.4	13.5	2.20e-06	0	58	0	776994816	48	6405
2026-01-12 10:29:27.06	306.18	55.23	-36.9	-42.0	14.4	0.00e+00	0	58	0	784334848	45	6444
2026-01-12 10:29:31.10	308.12	54.07	-41.0	-44.7	13.1	9.90e-06	0	58	0	791674880	52	5918
2026-01-12 10:29:35.14	309.91	52.92	-40.5	-43.9	13.9	1.50e-06	0	59	0	799014912	51	5692
2026-01-12 10:29:39.17	311.56	51.76	-41.3	-44.5	13.5	3.80e-06	0	59	0	807403520	53	5447
2026-01-12 10:29:43.21	313.09	50.61	-40.8	-43.6	14.4	0.00e+00	0	59	0	814743552	52	5188
2026-01-12 10:29:47.25	314.51	49.47	-41.9	-45.5	12.5	4.88e-05	0	58	0	822083584	54	5768
2026-01-12 10:29:51.29	315.83	48.34	-41.2	-44.3	13.8	8.30e-06	0	59	0	829423616	54	5024
2026-01-12 10:29:55.33	317.06	47.23	-41.7	-45.1	13.0	1.22e-05	0	58	0	837812224	54	5478
2026-01-12 10:29:59.36	318.20	46.13	-43.2	-48.1	10.0	9.94e-03	0	58	0	845152256	57	6515
2026-01-12 10:30:03.40	319.27	45.05	-42.2	-46.0	12.2	3.38e-04	0	59	0	852492288	56	5449
2026-01-12 10:30:07.43	320.27	43.99	-43.0	-47.8	10.3	6.77e-03	0	58	0	859832320	56	6689
2026-01-12 10:30:11.47	321.21	42.95	-42.4	-46.2	11.8	2.20e-04	0	59	0	867172352	56	5587
2026-01-12 10:30:15.51	322.09	41.93	-42.1	-45.8	12.4	7.90e-04	0	59	0	875560960	56	5298
2026-01-12 10:30:19.55	322.92	40.92	-41.3	-44.4	13.7	4.50e-06	0	59	0	882900992	53	5342
2026-01-12 10:30:23.58	323.70	39.95	-43.7	-49.8	8.2	4.38e-02	0	59	0	890241024	57	7955
2026-01-12 10:30:27.62	324.43	38.99	-41.2	-44.2	13.8	1.90e-05	0	59	0	897581056	54	4978
2026-01-12 10:30:31.66	325.13	38.05	-42.4	-46.5	11.5	5.34e-05	0	58	0	904921088	55	6114
2026-01-12 10:30:35.70	325.78	37.14	-42.2	-46.1	12.0	1.69e-03	0	58	0	913309696	56	5503
2026-01-12 10:30:39.74	326.41	36.24	-41.2	-44.3	13.8	7.00e-07	0	59	0	920649728	53	5280
2026-01-12 10:30:43.78	327.00	35.37	-42.7	-47.2	10.7	1.65e-03	0	59	0	927989760	55	6643
2026-01-12 10:30:47.82	327.56	34.52	-41.7	-45.3	12.7	2.13e-04	0	58	0	935329792	55	5288
2026-01-12 10:30:51.86	328.09	33.69	-41.5	-44.9	13.0	3.28e-05	0	59	0	943718400	54	5352
2026-01-12 10:30:55.90	328.60	32.87	-41.8	-45.4	12.5	1.16e-04	0	59	0	951058432	54	5690
2026-01-12 10:30:59.94	329.09	32.08	-41.5	-44.8	13.2	2.82e-05	0	59	0	958398464	54	5310
2026-01-12 10:31:03.98	329.55	31.31	-42.3	-46.5	11.4	5.13e-04	0	59	0	965738496	55	6095
2026-01-12 10:31:08.01	329.99	30.55	-42.9	-47.7	10.3	5.36e-03	0	59	0	973078528	56	6572
2026-01-12 10:31:12.05	330.41	29.81	-42.3	-46.3	11.7	1.21e-03	0	58	0	981467136	56	5606
2026-01-12 10:31:16.09	330.82	29.09	-42.0	-45.7	12.2	2.58e-04	0	59	0	988807168	56	5279
2026-01-12 10:31:20.12	331.20	28.39	-42.5	-46.8	11.1	1.05e-03	0	59	0	996147200	56	5955
2026-01-12 10:31:24.16	331.58	27.70	-42.2	-46.2	11.7	6.90e-04	0	59	0	1003487232	56	5590
2026-01-12 10:31:28.20	331.93	27.03	-41.5	-44.9	12.9	4.50e-05	0	59	0	1011875840	54	5386
2026-01-12 10:31:32.24	332.28	26.37	-41.4	-44.8	13.0	3.05e-05	0	59	0	1019215872	54	5320
2026-01-12 10:31:36.27	332.61	25.73	-41.2	-44.5	13.3	9.90e-06	0	59	0	1026555904	54	5135
2026-01-12 10:31:40.31	332.92	25.10	-41.3	-44.7	13.0	4.04e-05	0	58	0	1033895936	54	5266
2026-01-12 10:31:44.35	333.23	24.49	-41.4	-44.9	12.8	5.87e-05	0	59	0	1041235968	54	5366
2026-01-12 10:31:48.39	333.53	23.89	-41.6	-45.2	12.5	1.85e-04	0	59	0	1049624576	54	5579
2026-01-12 10:31:52.42	333.81	23.30	-40.9	-44.1	13.6	6.10e-06	0	58	0	1056964608	53	5170
2026-01-12 10:31:56.46	334.09	22.72	-40.0	-42.6	15.1	0.00e+00	0	59	0	1064304640	51	4873
2026-01-12 10:32:00.50	334.35	22.16	-39.7	-42.1	15.6	0.00e+00	0	59	0	1071644672	51	4631
2026-01-12 10:32:04.54	334.61	21.61	-40.1	-42.8	14.8	0.00e+00	0	58	0	1080033280	51	5020
2026-01-12 10:32:08.58	334.86	21.07	-40.4	-43.3	14.2	7.00e-07	0	59	0	1087373312	51	5331
2026-01-12 10:32:12.62	335.10	20.54	-40.2	-43.0	14.5	7.00e-07	0	59	0	1094713344	51	5149
2026-01-12 10:32:16.66	335.33	20.02	-40.2	-43.0	14.5	0.00e+00	0	59	0	1102053376	51	5104
2026-01-12 10:32:20.69	335.56	19.51	-40.1	-42.9	14.4	2.20e-06	0	59	0	1109393408	51	5080
2026-01-12 10:32:24.73	335.78	19.01	-40.4	-43.5	13.8	6.80e-06	0	59	0	1117782016	51	5427
2026-01-12 10:32:28.77	335.99	18.53	-40.7	-44.0	13.3	1.14e-05	0	59	0	1125122048	51	5765
2026-01-12 10:32:32.81	336.20	18.05	-40.9	-44.4	12.6	6.17e-05	0	59	0	1132462080	52	5717
2026-01-12 10:32:36.85	336.40	17.57	-41.0	-44.8	12.3	1.50e-04	0	59	0	1139802112	52	5932
2026-01-12 10:32:40.89	336.59	17.11	-41.1	-44.9	12.1	2.03e-04	0	59	0	1148190720	52	6014
2026-01-12 10:32:44.93	336.78	16.66	-41.0	-44.8	12.0	3.39e-04	0	59	0	1155530752	52	5989
2026-01-12 10:32:48.97	336.97	16.21	-40.6	-44.1	12.7	9.23e-05	0	59	0	1162870784	52	5473
2026-01-12 10:32:53.01	337.15	15.77	-40.2	-43.4	13.5	9.10e-06	0	59	0	1170210816	52	5045
2026-01-12 10:32:57.05	337.32	15.34	-40.3	-43.8	12.9	4.04e-05	0	58	0	1177550848	52	5322
2026-01-12 10:33:01.08	337.49	14.92	-40.3	-43.9	12.6	8.69e-05	0	59	0	1185939456	52	5398
2026-01-12 10:33:05.13	337.66	14.50	-40.3	-44.0	12.4	1.26e-04	0	58	0	1193279488	52	5454
2026-01-12 10:33:09.16	337.82	14.10	-40.2	-43.9	12.4	1.07e-04	0	59	0	1200619520	52	5368
2026-01-12 10:33:13.20	337.98	13.69	-40.1	-43.9	12.4	1.34e-04	0	59	0	1207959552	52	5375
2026-01-12 10:33:17.24	338.14	13.30	-40.3	-44.4	11.7	4.49e-04	0	59	0	1216348160	52	5716
2026-01-12 10:33:21.28	338.29	12.91	-40.3	-44.6	11.4	8.70e-04	0	59	0	1223688192	52	5833
2026-01-12 10:33:25.32	338.44	12.52	-40.6	-45.4	10.5	3.59e-03	0	59	0	1231028224	52	6416
2026-01-12 10:33:29.36	338.58	12.15	-40.9	-46.4	9.4	1.44e-02	0	59	0	1238368256	52	7125
2026-01-12 10:33:33.40	338.72	11.77	-40.9	-46.9	8.7	3.58e-02	0	59	0	1245708288	52	7587
2026-01-12 10:33:37.44	338.86	11.41	-41.1	-47.9	7.5	9.69e-02	0	59	0	1254096896	52	8483
2026-01-12 10:33:41.48	339.00	11.04	-41.1	-48.8	6.5	2.23e-01	0	59	0	1261436928	52	9490
2026-01-12 10:33:45.52	339.13	10.69	-41.2	-49.9	5.6	4.07e-01	0	59	0	1268776960	52	10658
2026-01-12 10:33:49.56	339.26	10.34	-41.2	-50.7	5.0	6.63e-01	0	59	0	1276116992	53	11108
2026-01-12 10:33:53.60	339.39	9.99	-41.1	-51.4	4.6	9.30e-01	0	59	0	1284505600	53	12000
2026-01-12 10:33:57.64	339.51	9.65	-41.0	-52.2	4.2	1.35e+00	0	59	0	1289748480	53	13254
2026-01-12 10:34:01.68	339.63	9.31	-40.8	-53.2	4.0	1.47e+00	0	59	104	1289748480	53	14845
2026-01-12 10:34:05.72	339.75	8.98	-40.8	-53.7	3.8	1.49e+00	0	59	104	1289748480	53	15713
2026-01-12 10:34:09.75	339.87	8.65	-40.8	-54.2	3.8	1.49e+00	0	59	104	1289748480	53	16615
2026-01-12 10:34:13.79	339.98	8.33	-41.4	-54.5	3.8	1.49e+00	0	59	104	1289748480	53	17230
2026-01-12 10:34:17.83	340.10	8.01	-42.5	-56.6	3.8	1.49e+00	0	59	104	1289748480	55	19563
2026-01-12 10:34:21.87	340.21	7.69	-44.9	-59.4	3.8	1.49e+00	0	59	104	1289748480	60	20239
2026-01-12 10:34:25.91	340.32	7.38	-45.1	-59.7	3.8	1.49e+00	0	59	104	1289748480	60	20992
2026-01-12 10:34:29.96	340.42	7.07	-45.1	-59.7	3.8	1.49e+00	0	59	104	1289748480	60	20840
2026-01-12 10:34:34.00	340.53	6.76	-45.0	-59.6	3.8	1.49e+00	0	59	104	1289748480	60	20629
2026-01-12 10:34:38.05	340.63	6.46	-45.0	-59.5	3.8	1.49e+00	0	59	104	1289748480	60	20533
2026-01-12 10:34:42.09	340.73	6.16	-44.9	-59.6	3.8	1.49e+00	0	59	104	1289748480	60	20569
2026-01-12 10:34:46.14	340.84	5.87	-45.0	-59.5	3.8	1.49e+00	0	59	104	1289748480	60	20470
2026-01-12 10:34:50.18	340.93	5.57	-44.7	-59.5	3.8	1.49e+00	0	59	104	1289748480	60	20476
2026-01-12 10:34:54.22	341.03	5.29	-45.0	-59.5	3.8	1.49e+00	0	59	104	1289748480	60	20526
2026-01-12 10:34:58.26	341.13	5.00	-44.6	-59.5	3.8	1.49e+00	0	59	104	1289748480	60	20435
2026-01-12 10:35:02.31	341.22	4.72	-44.9	-59.5	3.8	1.49e+00	0	59	104	1289748480	60	20444
2026-01-12 10:35:06.35	341.31	4.44	-44.9	-59.5	3.8	1.49e+00	0	59	104	1289748480	60	20486
2026-01-12 10:35:10.40	341.40	4.16	-44.8	-59.5	3.8	1.49e+00	0	59	104	1289748480	60	20405
2026-01-12 10:35:14.44	341.49	3.89	-44.9	-59.5	3.8	1.49e+00	0	59	104	1289748480	60	20434
2026-01-12 10:35:18.48	341.58	3.62	-44.9	-59.5	3.8	1.49e+00	0	59	104	1289748480	60	20439
2026-01-12 10:35:22.53	341.67	3.35	-45.0	-59.5	3.8	1.49e+00	0	59	104	1289748480	60	20422
2026-01-12 10:35:26.57	341.75	3.08	-44.9	-59.5	3.8	1.49e+00	0	59	104	1289748480	60	20408
2026-01-12 10:35:30.62	341.84	2.82	-44.9	-59.5	3.8	1.49e+00	0	59	104	1289748480	60	20394
2026-01-12 10:35:34.66	341.92	2.56	-44.9	-59.5	3.8	1.49e+00	0	59	104	1289748480	60	20386
2026-01-12 10:35:38.70	342.00	2.30	-43.9	-59.5	3.8	1.49e+00	0	59	104	1289748480	60	20368
2026-01-12 10:35:42.75	342.09	2.04	-44.9	-59.5	3.8	1.49e+00	0	59	104	1289748480	60	20304

#Closed at: 2026-01-12 10:35:46
#Recorded file [1289 MB]: D:/lorett/data/31039_260112_132122.dat