passes_logs/2026/01/12/R2.0S_Moscow/R2.0S_Moscow__20260112_144636_FENGYUN_3E_rec.log

#Pass ID: 20260112_144636_FENGYUN 3E
#Satellite: FENGYUN 3E
#Configuration: FENGYUN 3E
#almurnet v.1.7.20251203
#Start time: 2026-01-12 14:46:38

#Version: 2.2.20231116
#Station: R2.0S_Moscow
#Location: 37.707566 lon 55.798166 lat
#TLE: 1 49008U 21062A   26011.97558190  .00000066  00000+0  51928-4 0  9996
#TLE: 2 49008  98.7491  17.1395 0001916 144.4283 215.7021 14.19885193234411

#Time	Az	El	Level	Level2	SNR	BER	BlckErr	Temp	State	Recorded	gain1	gain2
2026-01-12 14:46:38.63	177.59	2.14	-44.1	-55.0	3.8	8.45e-01	0	50	0	0	59	12196
2026-01-12 14:46:42.68	177.70	2.40	-44.1	-55.0	3.8	8.46e-01	0	51	104	0	59	12233
2026-01-12 14:46:46.72	177.82	2.66	-44.1	-55.0	3.8	8.46e-01	0	51	104	0	59	12196
2026-01-12 14:46:50.76	177.94	2.92	-44.1	-55.1	3.8	8.46e-01	0	51	104	0	59	12251
2026-01-12 14:46:54.81	178.07	3.18	-44.1	-55.0	3.8	8.46e-01	0	52	104	0	59	12161
2026-01-12 14:46:58.85	178.19	3.45	-44.1	-55.0	3.8	8.47e-01	0	52	104	0	59	12153
2026-01-12 14:47:02.90	178.32	3.72	-44.1	-55.0	3.8	8.46e-01	0	52	104	0	59	12155
2026-01-12 14:47:06.94	178.44	3.99	-44.1	-55.0	3.8	8.47e-01	0	52	104	0	59	12154
2026-01-12 14:47:10.98	178.58	4.26	-44.1	-55.0	3.8	8.46e-01	0	52	104	0	59	12158
2026-01-12 14:47:15.03	178.71	4.54	-44.1	-55.0	3.8	8.46e-01	0	53	104	0	59	12184
2026-01-12 14:47:19.07	178.84	4.82	-44.1	-54.9	3.8	8.45e-01	0	53	104	0	59	12041
2026-01-12 14:47:23.12	178.98	5.10	-44.0	-54.2	3.8	8.46e-01	0	54	104	0	58	11762
2026-01-12 14:47:27.16	179.12	5.39	-43.5	-51.7	4.1	8.39e-01	0	54	0	0	58	8767
2026-01-12 14:47:31.20	179.27	5.68	-43.4	-50.9	4.4	8.30e-01	0	54	0	0	57	8507
2026-01-12 14:47:35.24	179.41	5.97	-43.0	-49.4	5.0	7.56e-01	0	54	0	0	56	7610
2026-01-12 14:47:39.29	179.56	6.26	-42.7	-48.6	5.6	6.75e-01	0	54	0	1048576	56	6892
2026-01-12 14:47:43.33	179.71	6.56	-42.6	-48.4	5.6	6.58e-01	0	54	0	12582912	56	6785
2026-01-12 14:47:47.38	179.86	6.86	-42.0	-46.9	6.7	2.38e-01	0	55	0	39845888	55	6035
2026-01-12 14:47:51.42	180.02	7.17	-40.7	-44.3	9.2	2.95e-02	0	55	0	69206016	52	5322
2026-01-12 14:47:55.47	180.18	7.48	-39.5	-42.4	11.3	2.15e-03	0	55	0	98566144	50	4762
2026-01-12 14:47:59.51	180.35	7.79	-38.8	-41.4	12.2	3.12e-04	0	55	0	127926272	48	4805
2026-01-12 14:48:03.55	180.51	8.10	-39.1	-41.8	11.9	5.19e-04	0	55	0	157286400	48	5000
2026-01-12 14:48:07.59	180.68	8.42	-39.5	-42.2	11.7	9.61e-05	0	55	0	182452224	48	5260
2026-01-12 14:48:11.63	180.86	8.75	-38.1	-40.4	13.3	3.66e-05	0	56	0	208666624	47	4540
2026-01-12 14:48:15.67	181.03	9.07	-38.0	-40.3	13.5	9.10e-06	0	56	0	238026752	46	4757
2026-01-12 14:48:19.71	181.21	9.40	-38.0	-40.3	13.6	1.60e-05	0	56	0	267386880	46	4723
2026-01-12 14:48:23.75	181.40	9.74	-37.8	-40.0	13.8	6.80e-06	0	56	0	295698432	46	4594
2026-01-12 14:48:27.79	181.59	10.08	-37.9	-40.2	13.7	4.50e-06	0	56	0	325058560	46	4697
2026-01-12 14:48:31.82	181.78	10.42	-37.8	-40.1	13.9	2.20e-06	0	56	0	354418688	46	4622
2026-01-12 14:48:35.86	181.98	10.77	-37.9	-40.1	13.8	5.70e-06	0	56	0	383778816	46	4646
2026-01-12 14:48:39.91	182.18	11.13	-37.8	-40.1	13.9	1.10e-06	0	56	0	413138944	46	4609
2026-01-12 14:48:43.95	182.39	11.49	-37.9	-40.2	13.8	4.50e-06	0	56	0	442499072	46	4702
2026-01-12 14:48:47.99	182.60	11.85	-37.9	-40.2	13.9	6.80e-06	0	57	0	470810624	46	4659
2026-01-12 14:48:52.03	182.81	12.22	-37.8	-40.1	13.9	8.00e-06	0	57	0	500170752	46	4635
2026-01-12 14:48:56.07	183.04	12.59	-37.7	-40.0	14.0	4.50e-06	0	57	0	529530880	46	4574
2026-01-12 14:49:00.11	183.26	12.97	-37.6	-39.9	14.2	0.00e+00	0	57	0	558891008	45	4788
2026-01-12 14:49:04.15	183.49	13.36	-37.5	-39.8	14.3	1.10e-06	0	57	0	588251136	45	4709
2026-01-12 14:49:08.18	183.73	13.75	-37.3	-39.5	14.6	1.10e-06	0	57	0	617611264	45	4592
2026-01-12 14:49:12.22	183.98	14.14	-37.1	-39.2	14.8	0.00e+00	0	57	0	645922816	45	4441
2026-01-12 14:49:16.26	184.23	14.55	-37.0	-39.1	15.0	0.00e+00	0	57	0	675282944	44	4635
2026-01-12 14:49:20.30	184.49	14.96	-37.0	-39.1	15.0	0.00e+00	0	57	0	704643072	44	4620
2026-01-12 14:49:24.34	184.75	15.37	-36.9	-39.1	15.1	0.00e+00	0	57	0	734003200	44	4599
2026-01-12 14:49:28.38	185.02	15.79	-36.8	-38.9	15.3	0.00e+00	0	58	0	762314752	44	4512
2026-01-12 14:49:32.42	185.30	16.22	-36.8	-38.9	15.3	0.00e+00	0	58	0	791674880	44	4499
2026-01-12 14:49:36.46	185.59	16.66	-36.7	-38.8	15.3	0.00e+00	0	58	0	821035008	44	4487
2026-01-12 14:49:40.50	185.88	17.10	-36.7	-38.7	15.5	0.00e+00	0	58	0	850395136	44	4439
2026-01-12 14:49:44.54	186.18	17.56	-36.6	-38.7	15.6	0.00e+00	0	58	0	879755264	44	4403
2026-01-12 14:49:48.58	186.50	18.01	-36.5	-38.6	15.7	0.00e+00	0	58	0	909115392	44	4347
2026-01-12 14:49:52.63	186.82	18.48	-36.3	-38.2	15.9	0.00e+00	0	58	0	937426944	43	4435
2026-01-12 14:49:56.67	187.15	18.96	-36.1	-38.0	16.2	0.00e+00	0	58	0	966787072	43	4304
2026-01-12 14:50:00.71	187.49	19.44	-36.0	-37.8	16.3	0.00e+00	0	58	0	996147200	42	4485
2026-01-12 14:50:04.75	187.84	19.93	-36.0	-37.9	16.3	0.00e+00	0	58	0	1025507328	42	4495
2026-01-12 14:50:08.79	188.21	20.43	-36.0	-37.9	16.3	0.00e+00	0	58	0	1054867456	42	4526
2026-01-12 14:50:12.82	188.58	20.94	-36.0	-37.9	16.3	0.00e+00	0	58	0	1083179008	42	4522
2026-01-12 14:50:16.86	188.97	21.46	-36.0	-37.8	16.4	0.00e+00	0	58	0	1112539136	42	4491
2026-01-12 14:50:20.90	189.37	21.99	-35.9	-37.8	16.4	0.00e+00	0	58	0	1141899264	42	4477
2026-01-12 14:50:24.94	189.78	22.53	-35.8	-37.7	16.5	0.00e+00	0	59	0	1171259392	42	4418
2026-01-12 14:50:28.98	190.21	23.08	-35.7	-37.6	16.6	0.00e+00	0	58	0	1200619520	42	4347
2026-01-12 14:50:33.02	190.65	23.64	-35.4	-37.2	16.9	0.00e+00	0	58	0	1228931072	41	4423
2026-01-12 14:50:37.06	191.11	24.21	-35.7	-37.7	16.5	0.00e+00	0	58	0	1258291200	41	4675
2026-01-12 14:50:41.11	191.58	24.79	-35.6	-37.6	16.5	0.00e+00	0	58	0	1287651328	41	4648
2026-01-12 14:50:45.15	192.07	25.38	-35.5	-37.5	16.7	0.00e+00	0	58	0	1317011456	41	4585
2026-01-12 14:50:49.19	192.58	25.98	-35.3	-37.1	17.1	0.00e+00	0	59	0	1346371584	41	4383
2026-01-12 14:50:53.23	193.11	26.60	-35.0	-36.8	17.5	0.00e+00	0	59	0	1374683136	41	4219
2026-01-12 14:50:57.27	193.66	27.22	-35.1	-36.9	17.4	0.00e+00	0	59	0	1404043264	40	4504
2026-01-12 14:51:01.31	194.23	27.86	-35.1	-36.9	17.4	0.00e+00	0	59	0	1433403392	40	4514
2026-01-12 14:51:05.35	194.83	28.51	-35.1	-36.9	17.4	0.00e+00	0	59	0	1462763520	40	4520
2026-01-12 14:51:09.39	195.44	29.17	-34.8	-36.6	17.6	0.00e+00	0	59	0	1492123648	40	4378
2026-01-12 14:51:13.43	196.09	29.84	-34.7	-36.5	17.7	0.00e+00	0	59	0	1520435200	40	4336
2026-01-12 14:51:17.47	196.76	30.53	-35.0	-36.9	17.3	0.00e+00	0	59	0	1549795328	40	4527
2026-01-12 14:51:21.51	197.46	31.23	-35.1	-37.0	17.2	0.00e+00	0	59	0	1579155456	40	4573
2026-01-12 14:51:25.55	198.19	31.94	-35.1	-37.0	17.3	0.00e+00	0	59	0	1608515584	40	4574
2026-01-12 14:51:29.59	198.95	32.66	-35.0	-36.8	17.4	0.00e+00	0	59	0	1637875712	40	4475
2026-01-12 14:51:33.63	199.74	33.40	-35.1	-36.9	17.4	0.00e+00	0	59	0	1666187264	40	4497
2026-01-12 14:51:37.67	200.58	34.14	-35.2	-37.1	17.2	0.00e+00	0	59	0	1695547392	40	4624
2026-01-12 14:51:41.71	201.45	34.90	-35.0	-36.9	17.4	0.00e+00	0	59	0	1724907520	40	4536
2026-01-12 14:51:45.74	202.35	35.67	-35.0	-36.9	17.5	0.00e+00	0	59	0	1754267648	40	4509
2026-01-12 14:51:49.78	203.31	36.44	-35.0	-36.7	17.6	0.00e+00	0	59	0	1783627776	40	4426
2026-01-12 14:51:53.82	204.31	37.23	-35.0	-36.8	17.5	0.00e+00	0	59	0	1812987904	40	4465
2026-01-12 14:51:57.85	205.36	38.03	-35.2	-37.1	17.1	0.00e+00	0	59	0	1841299456	40	4619
2026-01-12 14:52:01.90	206.46	38.84	-35.4	-37.4	17.0	0.00e+00	0	59	0	1870659584	40	4780
2026-01-12 14:52:05.94	207.62	39.65	-35.5	-37.3	17.1	0.00e+00	0	59	0	1900019712	41	4444
2026-01-12 14:52:09.98	208.83	40.47	-35.5	-37.2	17.1	0.00e+00	0	59	0	1929379840	41	4436
2026-01-12 14:52:14.01	210.11	41.29	-35.6	-37.4	17.0	0.00e+00	0	59	0	1958739968	41	4545
2026-01-12 14:52:18.05	211.45	42.11	-35.4	-37.3	17.2	0.00e+00	0	59	0	1988100096	41	4462
2026-01-12 14:52:22.10	212.87	42.94	-35.3	-37.1	17.4	0.00e+00	0	59	0	2016411648	41	4351
2026-01-12 14:52:26.14	214.35	43.76	-35.4	-37.2	17.2	0.00e+00	0	59	0	2045771776	41	4416
2026-01-12 14:52:30.18	215.92	44.58	-35.8	-37.6	16.9	0.00e+00	0	59	0	2075131904	41	4638
2026-01-12 14:52:34.22	217.56	45.39	-36.6	-37.9	16.9	0.00e+00	0	59	0	2104492032	43	4276
2026-01-12 14:52:38.26	219.29	46.19	-36.7	-38.1	16.7	0.00e+00	0	59	0	2133852160	43	4358
2026-01-12 14:52:42.30	221.11	46.98	-36.4	-37.7	17.1	0.00e+00	0	59	0	2162163712	43	4186
2026-01-12 14:52:46.34	223.02	47.75	-37.0	-38.3	16.6	0.00e+00	0	60	0	2191523840	43	4487
2026-01-12 14:52:50.37	225.02	48.49	-37.0	-38.4	16.5	0.00e+00	0	59	0	2220883968	43	4495
2026-01-12 14:52:54.41	227.12	49.21	-37.5	-38.9	16.2	0.00e+00	0	59	0	2250244096	44	4523
2026-01-12 14:52:58.45	229.32	49.90	-37.0	-38.4	16.7	0.00e+00	0	59	0	2279604224	44	4268
2026-01-12 14:53:02.49	231.61	50.55	-37.3	-38.8	16.3	0.00e+00	0	60	0	2308964352	44	4456
2026-01-12 14:53:06.53	234.01	51.16	-37.0	-38.3	16.7	0.00e+00	0	59	0	2337275904	44	4229
2026-01-12 14:53:10.57	236.49	51.73	-37.0	-38.4	16.7	0.00e+00	0	59	0	2366636032	44	4258
2026-01-12 14:53:14.61	239.07	52.24	-36.9	-38.3	16.8	0.00e+00	0	60	0	2395996160	44	4202
2026-01-12 14:53:18.65	241.74	52.70	-37.7	-39.2	15.8	1.48e-05	0	60	0	2425356288	45	4431
2026-01-12 14:53:22.69	244.48	53.09	-37.6	-39.0	15.9	0.00e+00	0	60	0	2454716416	45	4338
2026-01-12 14:53:26.73	247.29	53.43	-37.3	-38.7	16.3	0.00e+00	0	60	0	2483027968	45	4179
2026-01-12 14:53:30.76	250.15	53.69	-37.1	-38.5	16.6	0.00e+00	0	60	0	2512388096	44	4302
2026-01-12 14:53:34.80	253.06	53.88	-37.1	-38.5	16.5	0.00e+00	0	59	0	2541748224	44	4328
2026-01-12 14:53:38.84	256.01	54.00	-37.3	-38.8	16.3	0.00e+00	0	60	0	2571108352	44	4447
2026-01-12 14:53:42.88	258.96	54.04	-37.0	-38.3	16.7	0.00e+00	0	59	0	2599419904	44	4232
2026-01-12 14:53:46.91	261.92	54.01	-37.6	-39.0	16.1	0.00e+00	0	60	0	2628780032	44	4572
2026-01-12 14:53:50.95	264.86	53.90	-37.3	-38.7	16.4	0.00e+00	0	59	0	2658140160	44	4409
2026-01-12 14:53:54.99	267.78	53.72	-37.5	-39.0	16.0	0.00e+00	0	59	0	2687500288	44	4551
2026-01-12 14:53:59.03	270.65	53.47	-37.1	-38.5	16.6	0.00e+00	0	60	0	2715811840	44	4330
2026-01-12 14:54:03.07	273.47	53.14	-37.0	-38.4	16.7	0.00e+00	0	60	0	2745171968	44	4265
2026-01-12 14:54:07.11	276.22	52.75	-37.4	-38.9	16.2	0.00e+00	0	59	0	2774532096	44	4500
2026-01-12 14:54:11.15	278.89	52.30	-37.3	-38.7	16.3	0.00e+00	0	59	0	2803892224	44	4435
2026-01-12 14:54:15.19	281.47	51.80	-37.1	-38.5	16.5	0.00e+00	0	60	0	2833252352	44	4314
2026-01-12 14:54:19.23	283.97	51.24	-37.2	-38.6	16.4	0.00e+00	0	60	0	2862612480	44	4376
2026-01-12 14:54:23.26	286.36	50.64	-37.3	-38.7	16.3	0.00e+00	0	60	0	2890924032	44	4430
2026-01-12 14:54:27.31	288.67	49.99	-37.0	-38.4	16.7	0.00e+00	0	59	0	2920284160	44	4251
2026-01-12 14:54:31.35	290.88	49.31	-37.0	-38.3	16.7	0.00e+00	0	60	0	2949644288	44	4217
2026-01-12 14:54:35.39	292.99	48.60	-36.8	-38.1	16.9	0.00e+00	0	60	0	2979004416	44	4118
2026-01-12 14:54:39.42	295.00	47.86	-36.8	-38.2	16.8	0.00e+00	0	60	0	3008364544	44	4161
2026-01-12 14:54:43.46	296.91	47.10	-36.9	-38.2	16.8	0.00e+00	0	60	0	3036676096	44	4193
2026-01-12 14:54:47.50	298.74	46.32	-36.6	-38.0	17.0	0.00e+00	0	60	0	3066036224	44	4052
2026-01-12 14:54:51.54	300.48	45.52	-36.6	-37.9	17.1	0.00e+00	0	60	0	3095396352	44	4027
2026-01-12 14:54:55.58	302.13	44.72	-36.4	-37.7	17.1	0.00e+00	0	60	0	3124756480	43	4168
2026-01-12 14:54:59.62	303.70	43.90	-35.9	-37.1	17.8	0.00e+00	0	60	0	3154116608	42	4107
2026-01-12 14:55:03.66	305.19	43.08	-35.7	-36.9	18.0	0.00e+00	0	60	0	3183476736	42	4011
2026-01-12 14:55:07.70	306.61	42.26	-36.2	-37.5	17.4	0.00e+00	0	60	0	3211788288	42	4309
2026-01-12 14:55:11.74	307.96	41.44	-36.0	-37.3	17.5	0.00e+00	0	59	0	3241148416	42	4222
2026-01-12 14:55:15.79	309.25	40.62	-35.8	-37.0	17.8	0.00e+00	0	60	0	3270508544	42	4078
2026-01-12 14:55:19.82	310.47	39.81	-36.2	-37.4	17.4	0.00e+00	0	60	0	3299868672	42	4284
2026-01-12 14:55:23.86	311.63	39.00	-35.8	-37.0	17.9	0.00e+00	0	60	0	3329228800	42	4057
2026-01-12 14:55:27.90	312.74	38.20	-35.7	-36.9	17.9	0.00e+00	0	60	0	3357540352	42	4022
2026-01-12 14:55:31.94	313.80	37.40	-35.9	-37.1	17.7	0.00e+00	0	60	0	3386900480	42	4115
2026-01-12 14:55:35.98	314.80	36.62	-35.8	-37.0	17.8	0.00e+00	0	60	0	3416260608	42	4086
2026-01-12 14:55:40.02	315.76	35.84	-35.9	-37.1	17.7	0.00e+00	0	60	0	3445620736	42	4124
2026-01-12 14:55:44.06	316.68	35.07	-35.4	-36.6	18.2	0.00e+00	0	60	0	3474980864	41	4112
2026-01-12 14:55:48.10	317.55	34.32	-35.3	-36.4	18.3	0.00e+00	0	60	0	3504340992	41	4050
2026-01-12 14:55:52.14	318.39	33.57	-35.6	-36.8	18.0	0.00e+00	0	60	0	3532652544	41	4195
2026-01-12 14:55:56.18	319.19	32.84	-36.0	-37.2	17.5	0.00e+00	0	60	0	3562012672	41	4439
2026-01-12 14:56:00.21	319.95	32.12	-35.8	-37.1	17.7	0.00e+00	0	60	0	3591372800	41	4345
2026-01-12 14:56:04.25	320.69	31.42	-35.5	-36.7	18.0	0.00e+00	0	60	0	3620732928	41	4153
2026-01-12 14:56:08.29	321.39	30.72	-35.5	-36.7	18.0	0.00e+00	0	60	0	3650093056	41	4171
2026-01-12 14:56:12.33	322.06	30.04	-35.7	-36.9	17.8	0.00e+00	0	60	0	3678404608	41	4262
2026-01-12 14:56:16.37	322.71	29.36	-35.9	-37.2	17.5	0.00e+00	0	60	0	3707764736	41	4392
2026-01-12 14:56:20.41	323.33	28.70	-36.3	-37.6	17.1	0.00e+00	0	60	0	3737124864	42	4359
2026-01-12 14:56:24.45	323.93	28.06	-36.3	-37.6	17.1	0.00e+00	0	60	0	3766484992	42	4359
2026-01-12 14:56:28.48	324.51	27.42	-36.1	-37.4	17.3	0.00e+00	0	60	0	3795845120	42	4253
2026-01-12 14:56:32.53	325.06	26.80	-35.8	-37.0	17.6	0.00e+00	0	60	0	3824156672	42	4083
2026-01-12 14:56:36.57	325.59	26.18	-35.8	-37.0	17.6	0.00e+00	0	60	0	3853516800	42	4084
2026-01-12 14:56:40.60	326.11	25.58	-35.9	-37.1	17.5	0.00e+00	0	60	0	3882876928	42	4139
2026-01-12 14:56:44.65	326.60	24.99	-35.9	-37.2	17.4	0.00e+00	0	60	0	3912237056	42	4148
2026-01-12 14:56:48.69	327.08	24.41	-35.9	-37.2	17.4	0.00e+00	0	60	0	3941597184	42	4164
2026-01-12 14:56:52.73	327.54	23.85	-36.1	-37.3	17.2	0.00e+00	0	60	0	3969908736	42	4240
2026-01-12 14:56:56.77	327.99	23.29	-36.2	-37.5	17.1	0.00e+00	0	60	0	3999268864	42	4293
2026-01-12 14:57:00.81	328.42	22.74	-36.1	-37.4	17.1	0.00e+00	0	60	0	4028628992	42	4269
2026-01-12 14:57:04.85	328.84	22.20	-36.3	-37.6	16.9	0.00e+00	0	60	0	4057989120	42	4361
2026-01-12 14:57:08.89	329.24	21.67	-36.4	-37.8	16.7	0.00e+00	0	60	0	4087349248	42	4448
2026-01-12 14:57:12.93	329.63	21.16	-36.5	-37.9	16.6	0.00e+00	0	60	0	4116709376	42	4521
2026-01-12 14:57:16.97	330.01	20.65	-36.6	-38.0	16.5	0.00e+00	0	60	0	4145020928	42	4567
2026-01-12 14:57:21.01	330.37	20.15	-36.7	-38.1	16.3	0.00e+00	0	60	0	4174381056	42	4607
2026-01-12 14:57:25.05	330.73	19.66	-36.7	-38.1	16.3	0.00e+00	0	60	0	4203741184	43	4342
2026-01-12 14:57:29.09	331.07	19.17	-36.6	-38.0	16.3	0.00e+00	0	60	0	4233101312	43	4319
2026-01-12 14:57:33.13	331.41	18.70	-36.6	-38.0	16.3	0.00e+00	0	60	0	4262461440	43	4338
2026-01-12 14:57:37.17	331.73	18.23	-36.7	-38.2	16.1	0.00e+00	0	60	0	4290772992	43	4400
2026-01-12 14:57:41.21	332.05	17.78	-36.8	-38.3	15.9	0.00e+00	0	60	0	4320133120	43	4464
2026-01-12 14:57:45.26	332.36	17.32	-36.9	-38.4	15.8	0.00e+00	0	60	0	4349493248	43	4532
2026-01-12 14:57:49.30	332.66	16.88	-37.0	-38.4	15.7	0.00e+00	0	60	0	4378853376	43	4538
2026-01-12 14:57:53.34	332.95	16.45	-37.1	-38.6	15.6	0.00e+00	0	60	0	4408213504	43	4614
2026-01-12 14:57:57.38	333.23	16.02	-37.5	-39.1	15.2	0.00e+00	0	60	0	4436525056	44	4608
2026-01-12 14:58:01.42	333.51	15.60	-37.5	-39.1	15.1	0.00e+00	0	60	0	4465885184	44	4633
2026-01-12 14:58:05.46	333.77	15.18	-37.5	-39.1	15.1	0.00e+00	0	60	0	4495245312	44	4617
2026-01-12 14:58:09.50	334.03	14.77	-37.6	-39.2	14.9	0.00e+00	0	60	0	4524605440	44	4671
2026-01-12 14:58:13.54	334.29	14.37	-37.6	-39.2	14.9	0.00e+00	0	60	0	4553965568	44	4674
2026-01-12 14:58:17.58	334.54	13.97	-37.7	-39.4	14.7	0.00e+00	0	60	0	4582277120	44	4763
2026-01-12 14:58:21.61	334.78	13.58	-37.8	-39.5	14.4	0.00e+00	0	60	0	4611637248	45	4585
2026-01-12 14:58:25.65	335.02	13.20	-37.9	-39.7	14.2	0.00e+00	0	60	0	4640997376	45	4661
2026-01-12 14:58:29.69	335.25	12.82	-37.9	-39.7	14.2	2.20e-06	0	60	0	4670357504	45	4658
2026-01-12 14:58:33.73	335.47	12.45	-38.3	-40.2	13.6	1.02e-05	0	60	0	4699717632	46	4680
2026-01-12 14:58:37.77	335.69	12.08	-38.3	-40.2	13.5	1.02e-05	0	60	0	4728029184	46	4694
2026-01-12 14:58:41.81	335.91	11.72	-38.4	-40.4	13.3	1.94e-05	0	60	0	4757389312	46	4763
2026-01-12 14:58:45.84	336.12	11.36	-38.4	-40.4	13.2	2.28e-05	0	60	0	4786749440	46	4774
2026-01-12 14:58:49.88	336.33	11.01	-38.4	-40.4	13.2	2.86e-05	0	60	0	4816109568	46	4780
2026-01-12 14:58:53.92	336.53	10.66	-38.5	-40.6	12.9	4.57e-05	0	60	0	4845469696	47	4614
2026-01-12 14:58:57.97	336.73	10.31	-38.5	-40.7	12.7	7.43e-05	0	60	0	4873781248	47	4653
2026-01-12 14:59:02.00	336.92	9.98	-38.9	-41.2	12.1	3.13e-04	0	60	0	4903141376	47	4953
2026-01-12 14:59:06.04	337.11	9.64	-38.8	-41.1	12.1	3.26e-04	0	60	0	4932501504	47	4880
2026-01-12 14:59:10.08	337.29	9.31	-38.4	-40.6	12.4	1.20e-04	0	60	0	4961861632	47	4610
2026-01-12 14:59:14.12	337.48	8.98	-38.8	-41.3	11.5	8.09e-04	0	60	0	4991221760	47	5020
2026-01-12 14:59:18.16	337.65	8.66	-38.9	-41.4	11.2	1.95e-03	0	60	0	5020581888	47	5085
2026-01-12 14:59:22.20	337.83	8.34	-38.6	-41.1	11.3	1.29e-03	0	60	0	5048893440	47	4897
2026-01-12 14:59:26.24	338.00	8.03	-38.3	-40.7	11.6	6.67e-04	0	60	0	5078253568	47	4693
2026-01-12 14:59:30.28	338.17	7.72	-45.2	-56.3	3.8	8.45e-01	0	60	104	5081399296	60	13411
2026-01-12 14:59:34.32	338.33	7.41	-45.6	-56.7	3.8	8.46e-01	0	60	104	5081399296	60	13929
2026-01-12 14:59:38.37	338.50	7.11	-45.5	-56.5	3.8	8.46e-01	0	60	104	5081399296	60	13672
2026-01-12 14:59:42.41	338.65	6.81	-45.4	-56.5	3.8	8.45e-01	0	60	104	5081399296	60	13661
2026-01-12 14:59:46.45	338.81	6.51	-45.2	-56.4	3.8	8.46e-01	0	60	104	5081399296	60	13417
2026-01-12 14:59:50.49	338.96	6.21	-45.4	-56.5	3.8	8.45e-01	0	60	104	5081399296	60	13706
2026-01-12 14:59:54.53	339.11	5.92	-45.4	-56.5	3.8	8.46e-01	0	60	104	5081399296	60	13659
2026-01-12 14:59:58.57	339.26	5.64	-45.4	-56.5	3.8	8.46e-01	0	60	104	5081399296	60	13627
2026-01-12 15:00:02.62	339.41	5.35	-45.4	-56.5	3.8	8.46e-01	0	60	104	5081399296	60	13606
2026-01-12 15:00:06.66	339.55	5.07	-45.2	-56.3	3.8	8.46e-01	0	60	104	5081399296	60	13365
2026-01-12 15:00:10.70	339.69	4.79	-45.4	-56.5	3.8	8.46e-01	0	60	104	5081399296	60	13641
2026-01-12 15:00:14.75	339.83	4.51	-45.4	-56.5	3.8	8.46e-01	0	60	104	5081399296	60	13621
2026-01-12 15:00:18.79	339.97	4.24	-45.3	-56.5	3.8	8.47e-01	0	60	104	5081399296	60	13578
2026-01-12 15:00:22.83	340.10	3.97	-45.4	-56.4	3.8	8.45e-01	0	60	104	5081399296	60	13559
2026-01-12 15:00:26.87	340.23	3.70	-45.3	-56.5	3.8	8.47e-01	0	61	104	5081399296	60	13607
2026-01-12 15:00:30.92	340.36	3.44	-45.3	-56.4	3.8	8.46e-01	0	60	104	5081399296	60	13554
2026-01-12 15:00:34.96	340.49	3.17	-45.3	-56.4	3.8	8.47e-01	0	60	104	5081399296	60	13520
2026-01-12 15:00:39.00	340.62	2.91	-45.3	-56.4	3.8	8.45e-01	0	60	104	5081399296	60	13537
2026-01-12 15:00:43.05	340.74	2.65	-45.3	-56.5	3.8	8.47e-01	0	60	104	5081399296	60	13593
2026-01-12 15:00:47.10	340.86	2.40	-45.3	-56.5	3.8	8.46e-01	0	60	104	5081399296	60	13585
2026-01-12 15:00:51.14	340.98	2.14	-45.3	-56.4	3.8	8.46e-01	0	60	104	5081399296	60	13553
2026-01-12 15:00:55.19	341.10	1.89	-45.2	-56.5	3.8	8.47e-01	0	60	104	5081399296	60	13570

#Closed at: 2026-01-12 15:00:55
#Recorded file [5081 MB]: D:/lorett/data/31039_260112_174638.dat