passes_logs/2026/01/12/R2.0S_Moscow/R2.0S_Moscow__20260112_220217_NOAA_21_JPSS-2_rec.log

#Pass ID: 20260112_220217_NOAA 21 (JPSS-2)
#Satellite: NOAA 21 (JPSS-2)
#Configuration: NOAA-21
#almurnet v.1.7.20251203
#Start time: 2026-01-12 22:02:18

#Version: 2.2.20231116
#Station: R2.0S_Moscow
#Location: 37.707566 lon 55.798166 lat
#TLE: 1 54234U 22150A   26012.26378519  .00000063  00000+0  50547-4 0  9993
#TLE: 2 54234  98.7495 313.1967 0000726 309.1075  51.0036 14.19534275164425

#Time	Az	El	Level	Level2	SNR	BER	BlckErr	Temp	State	Recorded	gain1	gain2
2026-01-12 22:02:18.85	26.46	2.10	-42.0	-54.8	3.8	1.49e+00	0	50	0	0	56	14899
2026-01-12 22:02:21.87	26.69	2.26	-41.9	-54.6	3.8	1.49e+00	0	51	104	0	54	16407
2026-01-12 22:02:24.91	26.93	2.42	-41.9	-54.6	3.8	1.49e+00	0	51	104	0	54	16430
2026-01-12 22:02:27.94	27.17	2.58	-41.9	-54.6	3.8	1.49e+00	0	51	104	0	54	16389
2026-01-12 22:02:30.97	27.41	2.74	-41.9	-54.6	3.8	1.49e+00	0	51	104	0	54	16469
2026-01-12 22:02:34.00	27.66	2.90	-41.8	-54.6	3.8	1.49e+00	0	52	104	0	54	16399
2026-01-12 22:02:37.03	27.91	3.06	-41.8	-54.6	3.8	1.49e+00	0	51	104	0	54	16439
2026-01-12 22:02:40.07	28.16	3.23	-41.8	-54.6	3.8	1.49e+00	0	52	104	0	54	16420
2026-01-12 22:02:43.10	28.41	3.39	-41.9	-54.6	3.8	1.49e+00	0	52	104	0	54	16415
2026-01-12 22:02:46.13	28.66	3.56	-41.9	-54.6	3.8	1.49e+00	0	52	104	0	54	16380
2026-01-12 22:02:49.16	28.92	3.72	-41.9	-54.6	3.8	1.49e+00	0	52	104	0	54	16406
2026-01-12 22:02:52.19	29.18	3.89	-41.9	-54.6	3.8	1.49e+00	0	53	104	0	54	16394
2026-01-12 22:02:55.22	29.44	4.05	-41.9	-54.6	3.8	1.49e+00	0	53	104	0	54	16382
2026-01-12 22:02:58.25	29.71	4.22	-41.8	-54.6	3.8	1.49e+00	0	53	104	0	54	16497
2026-01-12 22:03:01.28	29.98	4.39	-41.9	-54.6	3.8	1.49e+00	0	53	104	0	54	16424
2026-01-12 22:03:04.31	30.25	4.56	-41.9	-54.6	3.8	1.49e+00	0	53	104	0	54	16356
2026-01-12 22:03:07.34	30.53	4.72	-41.9	-54.6	3.8	1.49e+00	0	54	104	0	54	16426
2026-01-12 22:03:10.38	30.81	4.89	-41.8	-54.6	3.8	1.49e+00	0	54	104	0	54	16411
2026-01-12 22:03:13.41	31.09	5.06	-41.9	-54.6	3.8	1.49e+00	0	54	104	0	54	16424
2026-01-12 22:03:16.44	31.37	5.23	-41.9	-54.6	3.8	1.49e+00	0	54	104	0	54	16419
2026-01-12 22:03:19.47	31.66	5.40	-41.9	-54.6	3.8	1.49e+00	0	54	104	0	54	16419
2026-01-12 22:03:22.51	31.95	5.57	-41.9	-54.6	3.8	1.49e+00	0	54	104	0	54	16385
2026-01-12 22:03:25.54	32.24	5.75	-41.9	-54.6	3.8	1.49e+00	0	54	104	0	54	16381
2026-01-12 22:03:28.57	32.54	5.92	-41.8	-54.6	3.8	1.49e+00	0	55	104	0	54	16383
2026-01-12 22:03:31.60	32.84	6.09	-41.9	-54.6	3.8	1.49e+00	0	55	104	0	54	16416
2026-01-12 22:03:34.63	33.14	6.26	-41.9	-54.6	3.8	1.49e+00	0	55	104	0	54	16392
2026-01-12 22:03:37.66	33.45	6.44	-41.9	-54.6	3.8	1.49e+00	0	55	104	0	54	16363
2026-01-12 22:03:40.70	33.76	6.61	-41.8	-54.4	3.8	1.49e+00	0	55	104	0	54	16071
2026-01-12 22:03:43.73	34.08	6.79	-41.9	-54.6	3.8	1.49e+00	0	55	104	0	54	16328
2026-01-12 22:03:46.76	34.39	6.96	-41.9	-54.6	3.8	1.49e+00	0	55	104	0	54	16375
2026-01-12 22:03:49.79	34.72	7.14	-41.9	-54.3	3.8	1.49e+00	0	55	104	0	54	15889
2026-01-12 22:03:52.82	35.04	7.31	-41.9	-54.5	3.8	1.49e+00	0	55	104	0	54	16128
2026-01-12 22:03:55.85	35.37	7.49	-41.9	-54.6	3.8	1.49e+00	0	56	104	0	54	16410
2026-01-12 22:03:58.88	35.70	7.67	-41.8	-54.5	3.8	1.49e+00	0	56	104	0	54	16169
2026-01-12 22:04:01.91	36.04	7.84	-41.7	-52.9	3.8	1.49e+00	0	56	104	0	54	13419
2026-01-12 22:04:04.94	36.38	8.02	-41.2	-49.1	5.0	8.29e-01	0	56	0	0	54	8709
2026-01-12 22:04:07.97	36.73	8.20	-40.6	-46.9	6.3	7.86e-02	0	56	0	3145728	52	7620
2026-01-12 22:04:11.00	37.07	8.38	-40.4	-44.8	8.9	2.93e-02	0	56	0	9437184	52	5970
2026-01-12 22:04:14.03	37.43	8.56	-40.7	-45.0	8.9	2.90e-02	0	56	0	18874368	52	6098
2026-01-12 22:04:17.06	37.78	8.74	-40.9	-45.4	8.6	3.60e-02	0	56	0	28311552	52	6360
2026-01-12 22:04:20.09	38.15	8.92	-40.5	-44.5	9.5	1.49e-02	0	56	0	37748736	52	5766
2026-01-12 22:04:23.12	38.51	9.10	-40.7	-44.7	9.5	1.33e-02	0	56	0	47185920	52	5857
2026-01-12 22:04:26.14	38.88	9.28	-40.8	-44.8	9.5	1.53e-02	0	56	0	56623104	52	5935
2026-01-12 22:04:29.17	39.26	9.46	-40.7	-44.5	9.9	8.33e-03	0	56	0	66060288	52	5746
2026-01-12 22:04:32.20	39.63	9.64	-40.8	-44.6	9.8	1.17e-02	0	57	0	75497472	52	5825
2026-01-12 22:04:35.24	40.02	9.82	-40.7	-44.3	10.2	7.62e-03	0	57	0	84934656	52	5621
2026-01-12 22:04:38.26	40.41	10.00	-40.8	-44.4	10.1	6.87e-03	0	57	0	94371840	52	5690
2026-01-12 22:04:41.29	40.80	10.18	-40.9	-44.6	9.9	9.63e-03	0	57	0	103809024	52	5851
2026-01-12 22:04:44.33	41.20	10.36	-41.0	-44.8	9.9	9.06e-03	0	57	0	113246208	52	5940
2026-01-12 22:04:47.35	41.60	10.54	-41.0	-44.6	10.0	8.28e-03	0	57	0	122683392	52	5849
2026-01-12 22:04:50.38	42.01	10.73	-40.7	-44.1	10.5	4.47e-03	0	57	0	132120576	52	5520
2026-01-12 22:04:53.41	42.42	10.91	-40.7	-44.1	10.7	2.88e-03	0	57	0	141557760	52	5478
2026-01-12 22:04:56.44	42.84	11.09	-40.7	-44.1	10.6	3.10e-03	0	57	0	150994944	52	5480
2026-01-12 22:04:59.47	43.26	11.27	-40.8	-44.3	10.5	3.82e-03	0	57	0	160432128	52	5619
2026-01-12 22:05:02.49	43.68	11.45	-40.8	-44.2	10.7	3.07e-03	0	57	0	169869312	52	5559
2026-01-12 22:05:05.53	44.12	11.64	-40.7	-43.9	10.9	2.09e-03	0	57	0	179306496	52	5383
2026-01-12 22:05:08.56	44.56	11.82	-40.8	-44.1	10.8	2.32e-03	0	57	0	188743680	52	5500
2026-01-12 22:05:11.59	45.00	12.00	-40.8	-44.1	10.8	2.37e-03	0	57	0	198180864	52	5498
2026-01-12 22:05:14.61	45.45	12.18	-40.8	-44.0	10.9	1.93e-03	0	57	0	207618048	52	5432
2026-01-12 22:05:17.65	45.90	12.36	-40.6	-43.7	11.2	1.29e-03	0	57	0	217055232	52	5272
2026-01-12 22:05:20.68	46.36	12.54	-40.7	-43.8	11.1	1.36e-03	0	58	0	226492416	52	5337
2026-01-12 22:05:23.71	46.82	12.72	-40.7	-43.9	11.1	1.57e-03	0	58	0	235929600	52	5389
2026-01-12 22:05:26.74	47.29	12.90	-40.7	-43.8	11.2	1.24e-03	0	58	0	245366784	52	5324
2026-01-12 22:05:29.77	47.77	13.08	-40.7	-43.8	11.2	1.40e-03	0	58	0	254803968	52	5333
2026-01-12 22:05:32.80	48.25	13.26	-40.7	-43.8	11.3	1.26e-03	0	58	0	264241152	52	5305
2026-01-12 22:05:35.83	48.74	13.44	-40.6	-43.7	11.4	1.06e-03	0	58	0	274726912	52	5262
2026-01-12 22:05:38.86	49.23	13.62	-40.6	-43.6	11.5	7.50e-04	0	58	0	284164096	52	5196
2026-01-12 22:05:41.89	49.73	13.80	-40.5	-43.5	11.7	6.74e-04	0	58	0	293601280	52	5116
2026-01-12 22:05:44.92	50.24	13.97	-40.5	-43.5	11.6	6.47e-04	0	58	0	303038464	52	5124
2026-01-12 22:05:47.96	50.75	14.15	-40.6	-43.6	11.5	7.94e-04	0	58	0	312475648	52	5196
2026-01-12 22:05:50.98	51.26	14.33	-40.7	-43.8	11.3	1.12e-03	0	58	0	321912832	52	5332
2026-01-12 22:05:54.02	51.79	14.50	-40.7	-43.7	11.4	8.11e-04	0	58	0	331350016	52	5255
2026-01-12 22:05:57.05	52.31	14.68	-40.7	-43.8	11.4	1.09e-03	0	58	0	340787200	52	5297
2026-01-12 22:06:00.08	52.85	14.85	-40.8	-43.9	11.3	1.03e-03	0	58	0	350224384	52	5342
2026-01-12 22:06:03.11	53.39	15.02	-40.6	-43.6	11.6	6.47e-04	0	58	0	359661568	52	5165
2026-01-12 22:06:06.14	53.94	15.19	-40.5	-43.4	11.7	5.46e-04	0	58	0	369098752	52	5093
2026-01-12 22:06:09.17	54.49	15.36	-40.6	-43.5	11.7	6.55e-04	0	58	0	378535936	52	5155
2026-01-12 22:06:12.20	55.05	15.53	-40.8	-43.9	11.3	1.07e-03	0	58	0	387973120	52	5380
2026-01-12 22:06:15.23	55.61	15.69	-40.6	-43.6	11.6	7.51e-04	0	58	0	397410304	52	5172
2026-01-12 22:06:18.26	56.18	15.86	-40.6	-43.5	11.8	4.97e-04	0	58	0	406847488	52	5123
2026-01-12 22:06:21.29	56.76	16.02	-40.5	-43.4	11.8	5.42e-04	0	58	0	416284672	52	5070
2026-01-12 22:06:24.32	57.34	16.18	-40.5	-43.5	11.8	5.42e-04	0	58	0	425721856	52	5114
2026-01-12 22:06:27.35	57.93	16.34	-40.4	-43.3	11.9	4.74e-04	0	58	0	435159040	52	5028
2026-01-12 22:06:30.38	58.53	16.50	-40.5	-43.4	11.8	5.35e-04	0	58	0	444596224	52	5091
2026-01-12 22:06:33.41	59.13	16.66	-40.4	-43.2	12.0	3.39e-04	0	58	0	454033408	52	4947
2026-01-12 22:06:36.44	59.74	16.81	-40.4	-43.2	12.0	3.18e-04	0	58	0	463470592	52	4974
2026-01-12 22:06:39.47	60.35	16.96	-40.4	-43.3	12.0	3.54e-04	0	59	0	472907776	52	4996
2026-01-12 22:06:42.50	60.97	17.11	-40.2	-43.0	12.3	2.07e-04	0	58	0	482344960	52	4835
2026-01-12 22:06:45.54	61.60	17.26	-40.2	-42.9	12.3	1.94e-04	0	59	0	491782144	52	4799
2026-01-12 22:06:48.56	62.23	17.40	-40.2	-42.9	12.3	1.51e-04	0	59	0	501219328	52	4763
2026-01-12 22:06:51.59	62.87	17.55	-40.2	-42.9	12.3	1.69e-04	0	59	0	510656512	52	4771
2026-01-12 22:06:54.62	63.51	17.69	-40.1	-42.8	12.4	1.43e-04	0	58	0	520093696	52	4715
2026-01-12 22:06:57.65	64.16	17.82	-40.0	-42.7	12.5	1.23e-04	0	59	0	529530880	52	4672
2026-01-12 22:07:00.68	64.82	17.96	-40.1	-42.7	12.6	1.13e-04	0	59	0	538968064	51	4958
2026-01-12 22:07:03.71	65.48	18.09	-40.0	-42.7	12.5	1.12e-04	0	59	0	548405248	51	4953
2026-01-12 22:07:06.74	66.15	18.22	-40.0	-42.7	12.4	1.50e-04	0	59	0	557842432	51	4947
2026-01-12 22:07:09.77	66.82	18.34	-39.9	-42.6	12.3	1.73e-04	0	59	0	568328192	51	4915
2026-01-12 22:07:12.80	67.50	18.46	-40.0	-42.8	12.0	2.90e-04	0	59	0	576716800	51	4995
2026-01-12 22:07:15.83	68.18	18.58	-39.9	-42.8	11.8	4.97e-04	0	59	0	587202560	51	5020
2026-01-12 22:07:18.86	68.87	18.70	-39.9	-42.9	11.5	7.53e-04	0	59	0	596639744	51	5099
2026-01-12 22:07:21.89	69.56	18.81	-40.1	-43.5	10.8	2.47e-03	0	59	0	606076928	51	5414
2026-01-12 22:07:24.92	70.26	18.92	-40.1	-43.5	10.6	3.17e-03	0	59	0	615514112	51	5461
2026-01-12 22:07:27.95	70.97	19.02	-40.4	-44.1	9.8	8.37e-03	0	58	0	624951296	51	5855
2026-01-12 22:07:30.98	71.67	19.12	-40.4	-44.4	9.5	1.50e-02	0	59	0	634388480	51	5997
2026-01-12 22:07:34.01	72.39	19.22	-40.3	-44.3	9.5	1.37e-02	0	59	0	643825664	51	5957
2026-01-12 22:07:37.04	73.10	19.31	-40.3	-44.2	9.6	1.29e-02	0	59	0	653262848	51	5915
2026-01-12 22:07:40.07	73.82	19.40	-40.3	-44.1	9.7	1.07e-02	0	59	0	662700032	51	5821
2026-01-12 22:07:43.10	74.55	19.49	-40.0	-43.8	10.0	7.99e-03	0	59	0	672137216	51	5594
2026-01-12 22:07:46.14	75.28	19.57	-40.2	-44.1	9.7	1.10e-02	0	59	0	681574400	51	5817
2026-01-12 22:07:49.17	76.01	19.64	-40.4	-44.5	9.4	1.66e-02	0	59	0	691011584	51	6075
2026-01-12 22:07:52.20	76.75	19.71	-40.3	-44.1	9.9	9.53e-03	0	59	0	700448768	51	5826
2026-01-12 22:07:55.23	77.49	19.78	-40.2	-43.9	10.0	7.29e-03	0	59	0	709885952	51	5662
2026-01-12 22:07:58.26	78.23	19.84	-40.2	-43.8	10.4	4.79e-03	0	59	0	719323136	51	5605
2026-01-12 22:08:01.28	78.97	19.90	-40.4	-44.1	10.1	6.68e-03	0	59	0	728760320	51	5834
2026-01-12 22:08:04.31	79.72	19.95	-40.4	-44.2	9.9	8.28e-03	0	59	0	738197504	51	5884
2026-01-12 22:08:07.35	80.48	20.00	-40.3	-43.8	10.6	3.50e-03	0	59	0	747634688	51	5610
2026-01-12 22:08:10.36	81.22	20.05	-40.1	-43.3	11.1	1.50e-03	0	59	0	757071872	51	5330
2026-01-12 22:08:13.39	81.98	20.09	-40.1	-43.3	11.1	1.49e-03	0	59	0	766509056	51	5311
2026-01-12 22:08:16.42	82.74	20.12	-40.0	-43.0	11.5	9.95e-04	0	59	0	775946240	51	5129
2026-01-12 22:08:19.45	83.50	20.15	-40.0	-43.1	11.4	9.77e-04	0	59	0	785383424	51	5184
2026-01-12 22:08:22.48	84.26	20.17	-40.1	-43.3	11.0	1.82e-03	0	59	0	794820608	51	5323
2026-01-12 22:08:25.51	85.02	20.19	-40.0	-43.3	11.0	1.63e-03	0	59	0	804257792	51	5290
2026-01-12 22:08:28.54	85.78	20.21	-40.2	-43.5	10.8	2.20e-03	0	59	0	813694976	51	5418
2026-01-12 22:08:31.57	86.54	20.22	-40.3	-43.8	10.3	4.55e-03	0	59	0	823132160	51	5648
2026-01-12 22:08:34.60	87.30	20.22	-40.5	-44.2	10.0	7.49e-03	0	59	0	832569344	51	5871
2026-01-12 22:08:37.63	88.07	20.22	-40.4	-43.9	10.6	3.77e-03	0	59	0	842006528	51	5661
2026-01-12 22:08:40.66	88.83	20.21	-40.4	-43.8	10.7	3.14e-03	0	59	0	851443712	51	5638
2026-01-12 22:08:43.70	89.59	20.20	-40.2	-43.2	11.5	1.02e-03	0	59	0	861929472	51	5249
2026-01-12 22:08:46.72	90.35	20.19	-40.0	-42.9	12.0	3.84e-04	0	59	0	870318080	51	5049
2026-01-12 22:08:49.75	91.12	20.16	-39.9	-42.6	12.5	1.30e-04	0	59	0	880803840	51	4900
2026-01-12 22:08:52.78	91.88	20.14	-39.9	-42.5	12.6	1.05e-04	0	59	0	889192448	51	4865
2026-01-12 22:08:55.82	92.64	20.11	-40.0	-42.6	12.6	9.84e-05	0	59	0	899678208	51	4912
2026-01-12 22:08:58.85	93.39	20.07	-39.9	-42.4	12.9	4.80e-05	0	59	0	909115392	51	4814
2026-01-12 22:09:01.88	94.15	20.03	-39.8	-42.2	13.2	1.67e-05	0	59	0	918552576	51	4668
2026-01-12 22:09:04.91	94.90	19.99	-39.8	-42.2	13.2	1.60e-05	0	59	0	927989760	51	4682
2026-01-12 22:09:07.94	95.65	19.94	-39.8	-42.2	13.2	2.05e-05	0	59	0	937426944	51	4677
2026-01-12 22:09:10.97	96.40	19.88	-39.8	-42.2	13.2	2.59e-05	0	59	0	946864128	51	4693
2026-01-12 22:09:14.00	97.15	19.82	-39.7	-42.1	13.4	1.60e-05	0	59	0	956301312	51	4602
2026-01-12 22:09:17.03	97.89	19.76	-39.7	-42.0	13.5	1.06e-05	0	59	0	965738496	51	4573
2026-01-12 22:09:20.06	98.63	19.69	-39.7	-42.1	13.5	1.37e-05	0	59	0	975175680	51	4604
2026-01-12 22:09:23.09	99.37	19.61	-39.9	-42.3	13.2	2.13e-05	0	59	0	984612864	51	4706
2026-01-12 22:09:26.12	100.10	19.54	-40.0	-42.5	13.0	3.12e-05	0	59	0	994050048	51	4818
2026-01-12 22:09:29.16	100.83	19.45	-39.9	-42.4	13.1	3.05e-05	0	59	0	1003487232	51	4768
2026-01-12 22:09:32.19	101.56	19.37	-39.9	-42.3	13.2	2.05e-05	0	59	0	1012924416	51	4720
2026-01-12 22:09:35.22	102.28	19.28	-39.8	-42.2	13.3	2.21e-05	0	60	0	1022361600	51	4687
2026-01-12 22:09:38.25	103.00	19.18	-39.9	-42.2	13.2	1.60e-05	0	60	0	1031798784	51	4704
2026-01-12 22:09:41.28	103.71	19.08	-39.9	-42.3	13.2	2.97e-05	0	59	0	1041235968	51	4714
2026-01-12 22:09:44.31	104.42	18.98	-39.8	-42.2	13.3	1.52e-05	0	59	0	1050673152	51	4652
2026-01-12 22:09:47.34	105.12	18.87	-39.8	-42.2	13.3	2.28e-05	0	59	0	1060110336	51	4673
2026-01-12 22:09:50.37	105.82	18.76	-39.9	-42.3	13.2	2.13e-05	0	59	0	1069547520	51	4737
2026-01-12 22:09:53.40	106.52	18.65	-39.8	-42.3	13.2	1.83e-05	0	59	0	1078984704	51	4708
2026-01-12 22:09:56.43	107.20	18.53	-39.9	-42.3	13.2	1.98e-05	0	59	0	1088421888	51	4711
2026-01-12 22:09:59.46	107.89	18.41	-39.9	-42.4	13.1	3.05e-05	0	60	0	1097859072	51	4785
2026-01-12 22:10:02.49	108.57	18.29	-39.9	-42.3	13.1	3.20e-05	0	59	0	1107296256	51	4755
2026-01-12 22:10:05.52	109.24	18.16	-40.2	-42.8	12.7	6.40e-05	0	60	0	1116733440	51	4990
2026-01-12 22:10:08.56	109.91	18.03	-40.1	-42.7	12.8	6.10e-05	0	60	0	1126170624	51	4936
2026-01-12 22:10:11.58	110.57	17.90	-40.1	-42.7	12.7	7.17e-05	0	59	0	1135607808	51	4976
2026-01-12 22:10:14.61	111.23	17.76	-40.4	-43.1	12.2	2.22e-04	0	60	0	1145044992	51	5217
2026-01-12 22:10:17.64	111.88	17.62	-40.4	-43.1	12.3	1.57e-04	0	60	0	1154482176	51	5189
2026-01-12 22:10:20.67	112.52	17.48	-40.3	-43.0	12.4	1.08e-04	0	60	0	1163919360	51	5123
2026-01-12 22:10:23.70	113.16	17.33	-39.9	-42.4	13.0	3.50e-05	0	60	0	1174405120	51	4787
2026-01-12 22:10:26.72	113.79	17.19	-40.1	-42.7	12.6	5.49e-05	0	59	0	1182793728	51	4976
2026-01-12 22:10:29.75	114.42	17.04	-40.3	-42.9	12.4	1.47e-04	0	59	0	1193279488	51	5098
2026-01-12 22:10:32.78	115.04	16.89	-40.3	-43.0	12.4	1.93e-04	0	60	0	1202716672	51	5124
2026-01-12 22:10:35.82	115.65	16.73	-40.2	-42.9	12.5	1.23e-04	0	60	0	1212153856	51	5051
2026-01-12 22:10:38.85	116.26	16.58	-40.2	-42.8	12.5	1.36e-04	0	59	0	1221591040	51	5029
2026-01-12 22:10:41.87	116.86	16.42	-40.0	-42.8	12.5	1.33e-04	0	59	0	1231028224	51	5012
2026-01-12 22:10:44.90	117.46	16.26	-40.5	-43.3	12.0	3.51e-04	0	59	0	1240465408	51	5296
2026-01-12 22:10:47.94	118.05	16.10	-40.5	-43.4	11.8	6.06e-04	0	60	0	1249902592	51	5379
2026-01-12 22:10:50.97	118.63	15.93	-40.2	-43.0	11.2	4.16e-03	0	60	0	1259339776	49	5745
2026-01-12 22:10:54.00	119.21	15.77	-40.3	-43.0	12.3	3.29e-04	0	59	0	1268776960	51	5146
2026-01-12 22:10:57.03	119.78	15.60	-40.3	-43.2	11.9	4.26e-04	0	60	0	1278214144	51	5245
2026-01-12 22:11:00.06	120.35	15.43	-40.5	-43.3	11.9	8.25e-04	0	60	0	1287651328	51	5308
2026-01-12 22:11:03.09	120.91	15.26	-40.4	-43.3	11.9	1.82e-03	0	60	0	1297088512	51	5334
2026-01-12 22:11:06.12	121.46	15.09	-40.6	-43.5	11.4	3.16e-03	0	60	0	1306525696	51	5426
2026-01-12 22:11:09.15	122.01	14.92	-40.5	-43.4	11.8	3.25e-03	0	60	0	1315962880	51	5355
2026-01-12 22:11:12.18	122.55	14.74	-40.5	-43.5	11.6	6.53e-03	0	59	0	1325400064	51	5418
2026-01-12 22:11:15.21	123.08	14.57	-40.3	-43.3	11.7	1.54e-03	0	60	0	1334837248	51	5336
2026-01-12 22:11:18.24	123.61	14.39	-40.3	-43.2	11.9	3.03e-03	0	60	0	1344274432	51	5252
2026-01-12 22:11:21.28	124.13	14.22	-40.3	-43.4	11.6	2.70e-03	0	60	0	1353711616	51	5345
2026-01-12 22:11:24.30	124.65	14.04	-40.3	-43.2	11.6	1.08e-02	0	60	0	1363148800	51	5269
2026-01-12 22:11:27.33	125.16	13.86	-40.2	-43.1	11.8	4.03e-03	0	60	0	1372585984	50	5482
2026-01-12 22:11:30.37	125.66	13.68	-32.2	-41.7	5.6	6.72e-03	3	60	0	1382023168	42	7418
2026-01-12 22:11:33.40	126.16	13.50	-39.9	-42.7	11.4	1.97e-02	2	60	0	1391460352	49	5563
2026-01-12 22:11:36.43	126.65	13.32	-38.8	-43.2	5.0	4.18e-01	0	60	104	1396703232	37	11753
2026-01-12 22:11:39.46	127.14	13.14	-36.0	-42.2	9.8	2.37e-01	7	60	0	1400897536	46	6264
2026-01-12 22:11:42.49	127.62	12.96	-35.6	-42.3	8.1	1.14e+00	82	60	104	1405091840	40	8963
2026-01-12 22:11:45.52	128.10	12.78	-32.7	-42.8	5.0	1.42e+00	0	60	104	1406140416	37	11204
2026-01-12 22:11:48.54	128.57	12.59	-32.7	-43.2	5.2	1.45e+00	0	60	104	1406140416	34	13965
2026-01-12 22:11:51.57	129.03	12.41	-29.3	-41.7	5.2	1.47e+00	0	60	104	1406140416	28	16552
2026-01-12 22:11:54.60	129.49	12.23	-24.7	-39.9	4.9	1.48e+00	0	60	104	1406140416	22	19061
2026-01-12 22:11:57.63	129.94	12.05	-22.9	-35.1	3.7	1.51e+00	0	60	104	1406140416	15	16430
2026-01-12 22:12:00.66	130.39	11.86	-21.4	-35.6	5.0	1.50e+00	0	60	104	1406140416	13	19580
2026-01-12 22:12:03.69	130.83	11.68	-26.0	-38.0	4.4	1.48e+00	0	60	104	1406140416	18	19328
2026-01-12 22:12:06.72	131.27	11.49	-22.2	-36.8	4.3	1.50e+00	0	60	104	1406140416	18	16873
2026-01-12 22:12:09.75	131.70	11.31	-26.2	-39.9	4.7	1.48e+00	0	60	104	1406140416	24	17060
2026-01-12 22:12:12.78	132.13	11.13	-26.9	-41.7	3.8	1.49e+00	0	60	104	1406140416	23	22042
2026-01-12 22:12:15.80	132.55	10.94	-24.6	-39.3	4.4	1.47e+00	0	60	104	1406140416	23	16800
2026-01-12 22:12:18.84	132.96	10.76	-29.9	-47.3	4.3	1.52e+00	0	60	104	1406140416	29	29707
2026-01-12 22:12:21.86	133.37	10.58	-22.1	-34.2	3.9	1.51e+00	0	60	104	1406140416	21	10499
2026-01-12 22:12:24.89	133.78	10.39	-23.6	-41.4	4.2	1.51e+00	0	60	104	1406140416	22	22689
2026-01-12 22:12:27.92	134.18	10.21	-26.1	-40.6	3.9	1.52e+00	0	60	104	1406140416	20	23118
2026-01-12 22:12:30.94	134.58	10.02	-16.5	-39.9	4.0	1.52e+00	0	60	104	1406140416	25	16014
2026-01-12 22:12:33.98	134.97	9.84	-23.8	-44.0	3.8	1.52e+00	0	60	104	1406140416	15	45670
2026-01-12 22:12:37.00	135.36	9.66	-41.2	-54.5	3.7	1.50e+00	0	60	104	1406140416	52	18187
2026-01-12 22:12:40.03	135.74	9.48	-32.7	-47.6	4.1	1.51e+00	0	60	104	1406140416	39	17377
2026-01-12 22:12:43.05	136.12	9.29	-37.0	-49.7	3.8	1.50e+00	0	60	104	1406140416	45	15744
2026-01-12 22:12:46.08	136.49	9.11	-40.2	-53.7	3.9	1.49e+00	0	60	104	1406140416	53	15694
2026-01-12 22:12:49.11	136.86	8.93	-36.9	-49.8	4.0	1.50e+00	0	60	104	1406140416	41	19852
2026-01-12 22:12:52.14	137.22	8.75	-41.7	-54.2	3.8	1.49e+00	0	60	104	1406140416	54	15619
2026-01-12 22:12:55.17	137.58	8.57	-41.5	-54.3	3.8	1.49e+00	0	60	104	1406140416	54	15926
2026-01-12 22:12:58.19	137.94	8.38	-41.1	-54.3	3.8	1.49e+00	0	60	104	1406140416	52	17720
2026-01-12 22:13:01.22	138.29	8.20	-42.4	-54.4	3.9	1.49e+00	0	60	104	1406140416	50	20234
2026-01-12 22:13:04.25	138.64	8.02	-40.9	-54.1	3.8	1.49e+00	0	60	104	1406140416	53	16477
2026-01-12 22:13:07.28	138.98	7.84	-44.7	-57.1	3.8	1.49e+00	0	60	104	1406140416	60	15408
2026-01-12 22:13:10.31	139.32	7.66	-45.2	-57.6	3.8	1.49e+00	0	60	104	1406140416	60	16373
2026-01-12 22:13:13.35	139.65	7.48	-45.4	-57.8	3.8	1.49e+00	0	60	104	1406140416	61	15761
2026-01-12 22:13:16.38	139.98	7.31	-45.2	-57.6	3.8	1.49e+00	0	60	104	1406140416	61	15455
2026-01-12 22:13:19.41	140.31	7.13	-45.0	-57.5	3.8	1.49e+00	0	60	104	1406140416	61	15340
2026-01-12 22:13:22.44	140.64	6.95	-45.1	-57.4	3.8	1.49e+00	0	60	104	1406140416	61	15214
2026-01-12 22:13:25.47	140.96	6.77	-45.1	-57.4	3.8	1.49e+00	0	60	104	1406140416	61	15225
2026-01-12 22:13:28.49	141.27	6.60	-45.1	-57.4	3.8	1.49e+00	0	60	104	1406140416	61	15225
2026-01-12 22:13:31.52	141.58	6.42	-45.1	-57.4	3.8	1.49e+00	0	60	104	1406140416	60	16112
2026-01-12 22:13:34.55	141.89	6.24	-45.1	-57.4	3.8	1.49e+00	0	60	104	1406140416	60	16093
2026-01-12 22:13:37.59	142.20	6.07	-45.1	-57.4	3.8	1.49e+00	0	60	104	1406140416	60	16098
2026-01-12 22:13:40.62	142.50	5.89	-45.1	-57.4	3.8	1.49e+00	0	60	104	1406140416	60	16094
2026-01-12 22:13:43.65	142.80	5.72	-45.1	-57.4	3.8	1.49e+00	0	60	104	1406140416	60	16018
2026-01-12 22:13:46.68	143.09	5.55	-45.1	-57.4	3.8	1.49e+00	0	60	104	1406140416	60	16059
2026-01-12 22:13:49.71	143.38	5.37	-45.1	-57.4	3.8	1.49e+00	0	60	104	1406140416	60	15993
2026-01-12 22:13:52.74	143.67	5.20	-45.1	-57.4	3.8	1.49e+00	0	60	104	1406140416	60	15991
2026-01-12 22:13:55.77	143.96	5.03	-45.1	-57.4	3.8	1.49e+00	0	60	104	1406140416	60	16033
2026-01-12 22:13:58.80	144.24	4.86	-45.1	-57.4	3.8	1.49e+00	0	60	104	1406140416	60	15978
2026-01-12 22:14:01.81	144.51	4.69	-45.1	-57.4	3.8	1.49e+00	0	60	104	1406140416	60	16015
2026-01-12 22:14:04.84	144.79	4.52	-45.1	-57.4	3.8	1.49e+00	0	60	104	1406140416	60	16012
2026-01-12 22:14:07.87	145.06	4.35	-44.9	-57.4	3.8	1.49e+00	0	60	104	1406140416	60	16018
2026-01-12 22:14:10.90	145.33	4.18	-45.1	-57.4	3.8	1.49e+00	0	60	104	1406140416	60	16002
2026-01-12 22:14:13.93	145.60	4.01	-45.1	-57.4	3.8	1.49e+00	0	60	104	1406140416	60	15977
2026-01-12 22:14:16.96	145.86	3.84	-45.1	-57.4	3.8	1.49e+00	0	60	104	1406140416	60	16003
2026-01-12 22:14:20.00	146.12	3.67	-45.1	-57.4	3.8	1.49e+00	0	60	104	1406140416	60	16028
2026-01-12 22:14:23.03	146.38	3.50	-45.1	-57.4	3.8	1.49e+00	0	60	104	1406140416	60	16039
2026-01-12 22:14:26.06	146.64	3.34	-45.1	-57.4	3.8	1.49e+00	0	60	104	1406140416	60	16048
2026-01-12 22:14:29.09	146.89	3.17	-45.1	-57.4	3.8	1.49e+00	0	60	104	1406140416	60	15992
2026-01-12 22:14:32.12	147.14	3.01	-45.1	-57.4	3.8	1.49e+00	0	60	104	1406140416	60	16038
2026-01-12 22:14:35.15	147.38	2.84	-45.1	-57.4	3.8	1.49e+00	0	60	104	1406140416	60	15982
2026-01-12 22:14:38.18	147.63	2.68	-45.1	-57.4	3.8	1.49e+00	0	60	104	1406140416	60	15978
2026-01-12 22:14:41.21	147.87	2.51	-45.0	-57.4	3.8	1.49e+00	0	60	104	1406140416	60	15991
2026-01-12 22:14:44.23	148.11	2.35	-45.1	-57.4	3.8	1.49e+00	0	60	104	1406140416	60	15960
2026-01-12 22:14:47.26	148.34	2.19	-45.1	-57.4	3.8	1.49e+00	0	60	104	1406140416	60	15978
2026-01-12 22:14:50.29	148.58	2.02	-45.1	-57.3	3.8	1.49e+00	0	60	104	1406140416	60	15936

#Closed at: 2026-01-12 22:14:51
#Recorded file [1406 MB]: D:/lorett/data/31039_260113_010218.dat