passes_logs/2026/01/12/R2.0S_Moscow/R2.0S_Moscow__20260112_005133_NOAA_20_JPSS-1_rec.log

#Pass ID: 20260112_005133_NOAA 20 (JPSS-1)
#Satellite: NOAA 20 (JPSS-1)
#Configuration: NOAA 20
#almurnet v.1.7.20251203
#Start time: 2026-01-12 00:51:33

#Version: 2.2.20231116
#Station: R2.0S_Moscow
#Location: 37.707566 lon 55.798166 lat
#TLE: 1 43013U 17073A   26011.31235446  .00000090  00000+0  63634-4 0  9991
#TLE: 2 43013  98.7632 312.2907 0001646  44.6084 315.5224 14.19535308422217

#Time	Az	El	Level	Level2	SNR	BER	BlckErr	Temp	State	Recorded	gain1	gain2
2026-01-12 00:51:33.17	11.70	2.00	-39.8	-54.4	3.8	1.49e+00	0	47	0	0	51	18988
2026-01-12 00:51:37.21	11.52	2.24	-39.8	-54.3	3.8	1.49e+00	0	47	104	0	51	18943
2026-01-12 00:51:41.25	11.33	2.48	-39.8	-54.4	3.8	1.49e+00	0	47	104	0	51	18957
2026-01-12 00:51:45.30	11.13	2.73	-39.8	-54.3	3.8	1.49e+00	0	48	104	0	51	18921
2026-01-12 00:51:49.34	10.93	2.98	-39.8	-54.3	3.8	1.49e+00	0	48	104	0	51	18914
2026-01-12 00:51:53.38	10.73	3.23	-39.8	-54.3	3.8	1.49e+00	0	48	104	0	51	18848
2026-01-12 00:51:57.43	10.53	3.49	-39.8	-54.3	3.8	1.49e+00	0	49	104	0	51	18917
2026-01-12 00:52:01.47	10.32	3.74	-39.8	-54.3	3.8	1.49e+00	0	49	104	0	51	18886
2026-01-12 00:52:05.52	10.10	4.00	-39.8	-54.3	3.8	1.49e+00	0	49	104	0	51	18916
2026-01-12 00:52:09.56	9.89	4.26	-39.8	-54.3	3.8	1.49e+00	0	49	104	0	51	18899
2026-01-12 00:52:13.60	9.67	4.52	-39.8	-54.4	3.8	1.49e+00	0	49	104	0	51	18966
2026-01-12 00:52:17.65	9.44	4.78	-39.8	-54.3	3.8	1.49e+00	0	50	104	0	51	18870
2026-01-12 00:52:21.69	9.21	5.04	-39.8	-54.3	3.8	1.49e+00	0	50	104	0	51	18882
2026-01-12 00:52:25.74	8.97	5.31	-39.8	-54.3	3.8	1.49e+00	0	50	104	0	51	18857
2026-01-12 00:52:29.78	8.74	5.58	-39.8	-54.4	3.8	1.49e+00	0	50	104	0	51	18949
2026-01-12 00:52:33.82	8.49	5.85	-39.8	-54.3	3.8	1.49e+00	0	51	104	0	51	18864
2026-01-12 00:52:37.87	8.24	6.13	-39.8	-54.3	3.8	1.49e+00	0	51	104	0	51	18865
2026-01-12 00:52:41.91	7.99	6.41	-39.8	-54.3	3.8	1.49e+00	0	51	104	0	51	18872
2026-01-12 00:52:45.96	7.73	6.68	-39.8	-54.3	3.8	1.49e+00	0	51	104	0	51	18933
2026-01-12 00:52:50.00	7.46	6.97	-39.8	-54.3	3.8	1.49e+00	0	51	104	0	51	18844
2026-01-12 00:52:54.04	7.19	7.25	-39.8	-54.3	3.8	1.49e+00	0	51	104	0	51	18828
2026-01-12 00:52:58.09	6.92	7.54	-39.8	-54.3	3.8	1.49e+00	0	52	104	0	51	18854
2026-01-12 00:53:02.13	6.64	7.83	-39.8	-54.3	3.8	1.49e+00	0	52	104	0	51	18836
2026-01-12 00:53:06.18	6.35	8.12	-39.8	-54.4	3.8	1.49e+00	0	52	104	0	51	18976
2026-01-12 00:53:10.22	6.06	8.41	-39.9	-54.3	3.8	1.49e+00	0	52	104	0	51	18941
2026-01-12 00:53:14.26	5.76	8.71	-39.9	-54.4	3.8	1.49e+00	0	52	104	0	51	19034
2026-01-12 00:53:18.30	5.45	9.01	-39.8	-54.4	3.8	1.49e+00	0	52	104	0	51	18978
2026-01-12 00:53:22.34	5.14	9.31	-39.9	-54.4	3.8	1.49e+00	0	53	104	0	51	19005
2026-01-12 00:53:26.38	4.82	9.62	-39.9	-54.4	3.8	1.49e+00	0	53	104	0	51	19083
2026-01-12 00:53:30.42	4.49	9.92	-39.9	-54.5	3.8	1.49e+00	0	53	104	0	51	19241
2026-01-12 00:53:34.46	4.15	10.24	-40.0	-54.6	3.8	1.49e+00	0	53	104	0	51	19470
2026-01-12 00:53:38.51	3.81	10.55	-40.1	-54.7	3.8	1.49e+00	0	53	104	0	51	19658
2026-01-12 00:53:42.54	3.46	10.87	-40.1	-54.7	3.8	1.49e+00	0	53	104	0	51	19707
2026-01-12 00:53:46.58	3.10	11.19	-39.9	-54.5	3.8	1.49e+00	0	53	104	0	51	19316
2026-01-12 00:53:50.62	2.74	11.51	-40.2	-54.9	3.8	1.49e+00	0	53	104	0	51	20131
2026-01-12 00:53:54.66	2.36	11.84	-39.9	-54.6	3.8	1.49e+00	0	53	104	0	51	19464
2026-01-12 00:53:58.70	1.98	12.17	-40.1	-54.7	3.8	1.49e+00	0	53	104	0	51	19821
2026-01-12 00:54:02.74	1.59	12.50	-40.0	-54.6	3.8	1.49e+00	0	54	104	0	52	18487
2026-01-12 00:54:06.78	1.19	12.83	-40.3	-54.9	3.8	1.49e+00	0	54	104	0	52	18956
2026-01-12 00:54:10.82	0.78	13.17	-40.9	-50.1	4.3	1.49e+00	0	54	104	1048576	52	11000
2026-01-12 00:54:14.86	0.35	13.51	-41.1	-46.8	9.1	3.22e-02	0	54	0	7340032	53	7118
2026-01-12 00:54:18.89	359.92	13.86	-40.2	-44.2	12.0	4.93e-04	0	54	0	14680064	52	5564
2026-01-12 00:54:22.93	359.48	14.21	-40.2	-44.0	12.5	1.22e-04	0	54	0	23068672	51	5765
2026-01-12 00:54:26.97	359.03	14.56	-40.6	-44.5	12.1	1.88e-04	0	54	0	30408704	51	6091
2026-01-12 00:54:31.01	358.56	14.92	-40.5	-44.2	12.6	9.15e-05	0	54	0	37748736	51	5912
2026-01-12 00:54:35.04	358.09	15.27	-40.6	-44.3	12.6	5.49e-05	0	54	0	45088768	51	5926
2026-01-12 00:54:39.08	357.60	15.63	-40.5	-44.3	12.5	1.29e-04	0	54	0	53477376	51	5948
2026-01-12 00:54:43.12	357.10	16.00	-40.5	-44.2	12.4	1.12e-04	0	54	0	60817408	51	5915
2026-01-12 00:54:47.15	356.59	16.37	-40.5	-44.8	11.4	5.75e-04	0	54	0	68157440	51	6323
2026-01-12 00:54:51.19	356.06	16.74	-41.1	-48.5	6.7	1.07e-01	0	55	0	75497472	52	9155
2026-01-12 00:54:55.23	355.53	17.11	-40.9	-53.3	4.0	1.48e+00	0	55	104	80740352	52	15934
2026-01-12 00:54:59.27	354.97	17.49	-40.7	-55.2	3.8	1.49e+00	0	55	104	80740352	52	19746
2026-01-12 00:55:03.31	354.40	17.87	-40.8	-55.4	3.8	1.49e+00	0	55	104	80740352	52	20208
2026-01-12 00:55:07.35	353.82	18.25	-40.6	-55.3	3.8	1.49e+00	0	55	104	80740352	52	19902
2026-01-12 00:55:11.39	353.22	18.64	-40.7	-55.3	3.8	1.49e+00	0	55	104	80740352	52	19910
2026-01-12 00:55:15.43	352.61	19.03	-40.7	-55.3	3.8	1.49e+00	0	55	104	80740352	52	20008
2026-01-12 00:55:19.47	351.98	19.42	-40.8	-55.4	3.8	1.49e+00	0	55	104	80740352	52	20178
2026-01-12 00:55:23.51	351.33	19.81	-40.9	-55.4	3.8	1.49e+00	0	55	104	80740352	52	20210
2026-01-12 00:55:27.55	350.67	20.21	-40.8	-55.1	3.8	1.49e+00	0	55	104	80740352	53	18308
2026-01-12 00:55:31.59	349.99	20.61	-41.4	-52.6	4.2	1.46e+00	0	55	104	80740352	53	13820
2026-01-12 00:55:35.63	349.29	21.01	-41.3	-50.1	5.5	5.61e-01	0	55	0	87031808	53	10398
2026-01-12 00:55:39.67	348.57	21.41	-40.9	-47.8	7.4	1.57e-01	0	55	0	94371840	53	7918
2026-01-12 00:55:43.70	347.83	21.81	-40.3	-44.9	10.9	3.03e-03	0	55	0	101711872	52	6033
2026-01-12 00:55:47.74	347.07	22.22	-40.4	-44.5	11.9	5.16e-04	0	55	0	110100480	52	5729
2026-01-12 00:55:51.78	346.30	22.62	-40.6	-44.4	12.4	1.80e-04	0	55	0	117440512	52	5691
2026-01-12 00:55:55.82	345.50	23.03	-41.0	-44.9	12.2	3.55e-04	0	55	0	124780544	52	6043
2026-01-12 00:55:59.86	344.68	23.44	-41.2	-45.0	12.4	1.56e-04	0	55	0	132120576	53	5775
2026-01-12 00:56:03.89	343.84	23.84	-41.4	-45.0	12.7	8.77e-05	0	55	0	139460608	53	5753
2026-01-12 00:56:07.93	342.97	24.25	-41.2	-44.6	13.1	3.12e-05	0	55	0	147849216	53	5518
2026-01-12 00:56:11.97	342.08	24.65	-41.2	-44.6	13.3	2.05e-05	0	55	0	155189248	53	5491
2026-01-12 00:56:16.01	341.17	25.06	-41.2	-44.5	13.4	1.06e-05	0	55	0	162529280	53	5458
2026-01-12 00:56:20.05	340.24	25.46	-40.9	-43.9	14.1	7.00e-07	0	55	0	169869312	53	5093
2026-01-12 00:56:24.09	339.28	25.86	-40.9	-43.9	14.1	7.00e-07	0	55	0	178257920	53	5069
2026-01-12 00:56:28.13	338.29	26.25	-40.9	-43.8	14.2	0.00e+00	0	55	0	185597952	53	5040
2026-01-12 00:56:32.17	337.28	26.64	-40.7	-43.5	14.6	7.00e-07	0	55	0	192937984	53	4841
2026-01-12 00:56:36.21	336.25	27.03	-41.0	-44.0	14.1	1.50e-06	0	55	0	200278016	53	5157
2026-01-12 00:56:40.25	335.19	27.41	-40.7	-43.6	14.5	0.00e+00	0	55	0	207618048	53	4890
2026-01-12 00:56:44.29	334.10	27.79	-41.3	-44.5	13.6	6.10e-06	0	56	0	216006656	53	5443
2026-01-12 00:56:48.32	333.00	28.16	-41.7	-45.2	12.9	3.66e-05	0	55	0	223346688	53	5891
2026-01-12 00:56:52.36	331.86	28.52	-42.0	-45.7	12.4	1.42e-04	0	56	0	230686720	54	5894
2026-01-12 00:56:56.40	330.69	28.87	-42.4	-46.5	11.7	5.76e-04	0	56	0	238026752	55	6067
2026-01-12 00:57:00.44	329.50	29.22	-42.4	-46.5	11.6	5.91e-04	0	55	0	246415360	55	6123
2026-01-12 00:57:04.48	328.29	29.55	-42.5	-46.8	11.4	9.78e-04	0	55	0	253755392	55	6285
2026-01-12 00:57:08.51	327.05	29.87	-42.9	-47.4	10.8	2.85e-03	0	55	0	261095424	56	6417
2026-01-12 00:57:12.55	325.79	30.19	-42.5	-46.6	11.7	6.72e-04	0	56	0	268435456	56	5818
2026-01-12 00:57:16.59	324.50	30.48	-42.5	-46.5	11.9	3.71e-04	0	55	0	275775488	56	5756
2026-01-12 00:57:20.63	323.18	30.77	-42.3	-46.1	12.2	2.13e-04	0	56	0	284164096	56	5507
2026-01-12 00:57:24.66	321.85	31.04	-42.2	-46.0	12.4	1.33e-04	0	56	0	291504128	56	5419
2026-01-12 00:57:28.70	320.49	31.30	-42.1	-45.7	12.7	6.33e-05	0	56	0	298844160	56	5222
2026-01-12 00:57:32.75	319.11	31.53	-42.1	-45.6	12.7	6.25e-05	0	56	0	306184192	56	5211
2026-01-12 00:57:36.79	317.71	31.76	-42.0	-45.6	12.6	8.85e-05	0	56	0	314572800	55	5507
2026-01-12 00:57:40.83	316.29	31.96	-42.1	-45.9	12.3	1.87e-04	0	56	0	321912832	55	5673
2026-01-12 00:57:44.86	314.86	32.14	-41.9	-45.6	12.6	9.15e-05	0	56	0	329252864	55	5491
2026-01-12 00:57:48.90	313.40	32.31	-41.9	-45.5	12.7	6.17e-05	0	55	0	336592896	55	5437
2026-01-12 00:57:52.94	311.94	32.45	-41.7	-45.2	13.1	4.57e-05	0	56	0	343932928	55	5219
2026-01-12 00:57:56.98	310.46	32.58	-41.1	-44.0	14.3	1.50e-06	0	56	0	352321536	54	4844
2026-01-12 00:58:01.03	308.97	32.68	-41.4	-44.5	13.8	1.50e-06	0	56	0	359661568	54	5117
2026-01-12 00:58:05.06	307.47	32.76	-41.6	-45.0	13.3	2.21e-05	0	56	0	367001600	54	5409
2026-01-12 00:58:09.10	305.97	32.82	-41.8	-45.2	13.0	3.81e-05	0	56	0	374341632	54	5590
2026-01-12 00:58:13.14	304.46	32.86	-42.0	-45.7	12.6	8.16e-05	0	56	0	382730240	54	5864
2026-01-12 00:58:17.18	302.95	32.87	-42.0	-45.7	12.5	1.14e-04	0	56	0	390070272	54	5912
2026-01-12 00:58:21.22	301.44	32.87	-42.1	-45.8	12.4	1.20e-04	0	56	0	397410304	54	5963
2026-01-12 00:58:25.26	299.92	32.83	-41.7	-45.1	13.2	2.59e-05	0	56	0	404750336	54	5488
2026-01-12 00:58:29.29	298.42	32.78	-41.6	-45.0	13.2	2.28e-05	0	56	0	412090368	54	5453
2026-01-12 00:58:33.33	296.92	32.71	-42.2	-46.1	12.1	2.37e-04	0	56	0	420478976	55	5817
2026-01-12 00:58:37.37	295.43	32.61	-41.9	-45.4	12.7	9.30e-05	0	56	0	427819008	55	5386
2026-01-12 00:58:41.40	293.95	32.49	-42.0	-45.7	12.5	9.99e-05	0	56	0	435159040	55	5549
2026-01-12 00:58:45.44	292.48	32.35	-42.2	-46.1	12.1	3.26e-04	0	56	0	442499072	55	5831
2026-01-12 00:58:49.48	291.02	32.19	-41.9	-45.6	12.6	1.07e-04	0	56	0	450887680	55	5479
2026-01-12 00:58:53.52	289.58	32.01	-42.0	-45.6	12.5	9.76e-05	0	56	0	458227712	55	5493
2026-01-12 00:58:57.56	288.15	31.81	-42.1	-46.0	12.2	2.43e-04	0	56	0	465567744	55	5745
2026-01-12 00:59:01.59	286.75	31.59	-42.1	-45.9	12.2	1.75e-04	0	56	0	472907776	55	5691
2026-01-12 00:59:05.63	285.36	31.36	-42.3	-46.3	11.8	4.71e-04	0	56	0	480247808	55	5965
2026-01-12 00:59:09.67	283.99	31.11	-41.9	-45.6	12.6	1.62e-04	0	56	0	488636416	55	5498
2026-01-12 00:59:13.71	282.65	30.84	-42.3	-46.4	11.7	4.78e-04	0	56	0	495976448	55	6037
2026-01-12 00:59:17.75	281.32	30.56	-42.3	-46.2	11.9	5.22e-04	0	56	0	503316480	55	5921
2026-01-12 00:59:21.79	280.02	30.26	-42.2	-46.2	11.9	3.49e-04	0	56	0	510656512	55	5874
2026-01-12 00:59:25.83	278.75	29.95	-42.2	-46.2	11.9	4.43e-04	0	56	0	519045120	55	5893
2026-01-12 00:59:29.87	277.50	29.63	-42.1	-45.9	12.2	2.40e-04	0	56	0	526385152	55	5698
2026-01-12 00:59:33.91	276.27	29.30	-41.9	-45.6	12.5	1.24e-04	0	56	0	533725184	55	5514
2026-01-12 00:59:37.95	275.07	28.96	-41.9	-45.6	12.5	1.14e-04	0	56	0	541065216	55	5492
2026-01-12 00:59:41.99	273.90	28.60	-41.6	-44.9	13.2	2.67e-05	0	56	0	548405248	55	5098
2026-01-12 00:59:46.03	272.75	28.24	-41.9	-45.6	12.5	6.56e-05	0	56	0	556793856	55	5475
2026-01-12 00:59:50.07	271.62	27.87	-41.6	-44.9	13.2	2.36e-05	0	56	0	564133888	55	5092
2026-01-12 00:59:54.11	270.53	27.50	-41.3	-44.5	13.6	1.22e-05	0	56	0	571473920	54	5152
2026-01-12 00:59:58.15	269.46	27.12	-41.4	-44.7	13.4	6.80e-06	0	56	0	578813952	54	5255
2026-01-12 01:00:02.18	268.42	26.73	-41.2	-44.4	13.7	5.30e-06	0	56	0	587202560	54	5051
2026-01-12 01:00:06.22	267.40	26.34	-41.1	-44.1	14.0	1.50e-06	0	56	0	594542592	54	4902
2026-01-12 01:00:10.26	266.40	25.94	-40.7	-43.6	14.5	7.00e-07	0	56	0	601882624	53	4883
2026-01-12 01:00:14.30	265.43	25.54	-40.3	-42.9	15.2	0.00e+00	0	56	0	609222656	52	4768
2026-01-12 01:00:18.34	264.48	25.14	-40.0	-42.4	15.7	0.00e+00	0	56	0	616562688	51	4806
2026-01-12 01:00:22.38	263.56	24.74	-39.8	-42.1	16.1	0.00e+00	0	56	0	624951296	51	4620
2026-01-12 01:00:26.42	262.67	24.33	-39.6	-41.9	16.3	0.00e+00	0	56	0	632291328	51	4519
2026-01-12 01:00:30.47	261.79	23.92	-39.4	-41.6	16.5	0.00e+00	0	56	0	639631360	50	4638
2026-01-12 01:00:34.50	260.94	23.51	-39.3	-41.4	16.8	0.00e+00	0	56	0	646971392	50	4510
2026-01-12 01:00:38.55	260.11	23.11	-39.1	-41.1	17.0	0.00e+00	0	56	0	655360000	50	4368
2026-01-12 01:00:42.59	259.30	22.70	-39.1	-41.2	16.9	0.00e+00	0	56	0	662700032	50	4440
2026-01-12 01:00:46.63	258.51	22.29	-39.2	-41.3	16.9	0.00e+00	0	56	0	670040064	50	4451
2026-01-12 01:00:50.66	257.74	21.88	-39.4	-41.7	16.5	0.00e+00	0	56	0	677380096	50	4653
2026-01-12 01:00:54.70	257.00	21.48	-39.7	-42.0	16.1	0.00e+00	0	56	0	684720128	50	4821
2026-01-12 01:00:58.74	256.27	21.07	-39.5	-41.7	16.4	0.00e+00	0	56	0	693108736	50	4671
2026-01-12 01:01:02.78	255.56	20.67	-39.8	-42.1	15.9	0.00e+00	0	56	0	700448768	50	4921
2026-01-12 01:01:06.82	254.87	20.27	-40.0	-42.5	15.5	0.00e+00	0	56	0	707788800	50	5130
2026-01-12 01:01:10.86	254.20	19.87	-40.0	-42.5	15.5	0.00e+00	0	56	0	715128832	50	5127
2026-01-12 01:01:14.89	253.54	19.48	-40.4	-43.0	15.0	0.00e+00	0	56	0	723517440	51	5159
2026-01-12 01:01:18.93	252.91	19.08	-40.2	-42.8	15.2	0.00e+00	0	56	0	730857472	51	4995
2026-01-12 01:01:22.97	252.28	18.69	-40.2	-42.8	15.2	0.00e+00	0	56	0	738197504	51	4994
2026-01-12 01:01:27.01	251.68	18.30	-40.5	-43.2	14.8	0.00e+00	0	56	0	745537536	51	5262
2026-01-12 01:01:31.05	251.09	17.92	-40.4	-43.2	14.8	0.00e+00	0	56	0	752877568	51	5232
2026-01-12 01:01:35.09	250.51	17.54	-40.4	-43.1	14.9	0.00e+00	0	56	0	761266176	51	5183
2026-01-12 01:01:39.13	249.95	17.16	-40.7	-43.6	14.2	0.00e+00	0	56	0	768606208	52	5217
2026-01-12 01:01:43.17	249.40	16.78	-40.7	-43.6	14.2	7.00e-07	0	56	0	775946240	52	5216
2026-01-12 01:01:47.21	248.87	16.41	-40.6	-43.6	14.3	0.00e+00	0	56	0	783286272	52	5160
2026-01-12 01:01:51.25	248.35	16.04	-40.8	-43.8	14.0	3.80e-06	0	56	0	791674880	52	5332
2026-01-12 01:01:55.29	247.84	15.67	-41.1	-44.3	13.5	1.06e-05	0	56	0	799014912	52	5616
2026-01-12 01:01:59.32	247.35	15.31	-40.9	-44.0	13.8	9.10e-06	0	56	0	806354944	52	5406
2026-01-12 01:02:03.36	246.87	14.95	-40.9	-44.0	13.8	5.30e-06	0	56	0	813694976	52	5426
2026-01-12 01:02:07.40	246.40	14.59	-41.1	-44.5	13.3	1.29e-05	0	56	0	821035008	52	5726
2026-01-12 01:02:11.44	245.94	14.23	-41.1	-44.4	13.3	2.28e-05	0	56	0	829423616	53	5387
2026-01-12 01:02:15.48	245.49	13.88	-40.9	-44.0	13.7	1.37e-05	0	56	0	836763648	53	5140
2026-01-12 01:02:19.52	245.05	13.54	-40.8	-44.0	13.7	7.60e-06	0	56	0	844103680	53	5112
2026-01-12 01:02:23.56	244.62	13.19	-41.2	-44.6	13.1	2.51e-05	0	56	0	851443712	53	5488
2026-01-12 01:02:27.60	244.20	12.85	-41.3	-44.9	12.7	8.01e-05	0	56	0	859832320	53	5682
2026-01-12 01:02:31.63	243.80	12.51	-41.2	-44.6	13.0	3.89e-05	0	56	0	867172352	53	5522
2026-01-12 01:02:35.67	243.40	12.18	-41.2	-44.6	13.0	3.28e-05	0	56	0	874512384	53	5490
2026-01-12 01:02:39.71	243.01	11.85	-41.3	-44.9	12.7	6.79e-05	0	56	0	881852416	53	5681
2026-01-12 01:02:43.75	242.63	11.52	-41.5	-45.3	12.2	2.26e-04	0	56	0	889192448	53	5970
2026-01-12 01:02:47.79	242.26	11.20	-41.5	-45.3	12.2	2.41e-04	0	56	0	897581056	53	5973
2026-01-12 01:02:51.83	241.89	10.87	-41.4	-45.2	12.3	1.94e-04	0	56	0	904921088	53	5862
2026-01-12 01:02:55.87	241.54	10.55	-41.4	-45.0	12.4	1.12e-04	0	56	0	912261120	53	5782
2026-01-12 01:02:59.91	241.19	10.24	-41.4	-45.1	12.3	1.75e-04	0	56	0	919601152	53	5831
2026-01-12 01:03:03.94	240.85	9.93	-41.4	-45.2	12.2	2.19e-04	0	56	0	927989760	53	5922
2026-01-12 01:03:07.99	240.52	9.62	-41.4	-45.3	12.2	2.43e-04	0	56	0	935329792	53	5924
2026-01-12 01:03:12.02	240.19	9.31	-41.6	-45.5	11.8	4.02e-04	0	56	0	942669824	53	6125
2026-01-12 01:03:16.07	239.87	9.00	-41.6	-45.6	11.7	5.89e-04	0	56	0	950009856	53	6183
2026-01-12 01:03:20.11	239.56	8.70	-41.8	-46.1	11.2	1.25e-03	0	56	0	957349888	54	6148
2026-01-12 01:03:24.15	239.25	8.41	-41.9	-46.3	11.0	2.04e-03	0	56	0	965738496	54	6307
2026-01-12 01:03:28.18	238.95	8.11	-41.9	-46.3	10.8	2.33e-03	0	56	0	973078528	54	6347
2026-01-12 01:03:32.22	238.66	7.82	-44.9	-59.5	3.8	1.49e+00	0	57	104	975175680	60	20360
2026-01-12 01:03:36.26	238.37	7.53	-45.2	-59.8	3.8	1.49e+00	0	56	104	975175680	60	21100
2026-01-12 01:03:40.31	238.09	7.24	-45.2	-59.8	3.8	1.49e+00	0	57	104	975175680	61	19863
2026-01-12 01:03:44.35	237.82	6.95	-45.1	-59.8	3.8	1.49e+00	0	56	104	975175680	60	21054
2026-01-12 01:03:48.39	237.55	6.67	-45.1	-59.7	3.8	1.49e+00	0	57	104	975175680	60	20933
2026-01-12 01:03:52.44	237.28	6.39	-45.1	-59.7	3.8	1.49e+00	0	57	104	975175680	60	20956
2026-01-12 01:03:56.48	237.02	6.11	-45.1	-59.7	3.8	1.49e+00	0	57	104	975175680	60	20922
2026-01-12 01:04:00.52	236.77	5.84	-45.1	-59.7	3.8	1.49e+00	0	56	104	975175680	60	20910
2026-01-12 01:04:04.57	236.52	5.56	-45.1	-59.7	3.8	1.49e+00	0	56	104	975175680	60	20883
2026-01-12 01:04:08.61	236.27	5.29	-45.0	-59.7	3.8	1.49e+00	0	56	104	975175680	60	20871
2026-01-12 01:04:12.65	236.03	5.02	-45.0	-59.7	3.8	1.49e+00	0	56	104	975175680	60	20867
2026-01-12 01:04:16.70	235.80	4.76	-45.0	-59.7	3.8	1.49e+00	0	57	104	975175680	60	20854
2026-01-12 01:04:20.74	235.56	4.49	-45.0	-59.7	3.8	1.49e+00	0	57	104	975175680	60	20821
2026-01-12 01:04:24.79	235.34	4.23	-45.0	-59.7	3.8	1.49e+00	0	56	104	975175680	60	20803
2026-01-12 01:04:28.83	235.11	3.97	-45.0	-59.7	3.8	1.49e+00	0	57	104	975175680	60	20798
2026-01-12 01:04:32.88	234.89	3.71	-45.0	-59.6	3.8	1.49e+00	0	57	104	975175680	60	20770
2026-01-12 01:04:36.92	234.68	3.46	-45.0	-59.7	3.8	1.49e+00	0	57	104	975175680	60	20815
2026-01-12 01:04:40.96	234.47	3.20	-45.0	-59.6	3.8	1.49e+00	0	57	104	975175680	60	20734
2026-01-12 01:04:45.00	234.26	2.95	-45.0	-59.6	3.8	1.49e+00	0	57	104	975175680	60	20729
2026-01-12 01:04:49.05	234.06	2.70	-45.0	-59.6	3.8	1.49e+00	0	57	104	975175680	60	20697
2026-01-12 01:04:53.09	233.86	2.45	-45.0	-59.6	3.8	1.49e+00	0	56	104	975175680	60	20702
2026-01-12 01:04:57.14	233.66	2.21	-45.0	-59.7	3.8	1.49e+00	0	57	104	975175680	60	20801
2026-01-12 01:05:01.18	233.47	1.96	-45.0	-59.6	3.8	1.49e+00	0	56	104	975175680	60	20774

#Closed at: 2026-01-12 01:05:02
#Recorded file [975 MB]: D:/lorett/data/31039_260112_035132.dat