passes_logs/2026/01/12/R2.0S_Moscow/R2.0S_Moscow__20260112_031047_FENGYUN_3D_rec.log

#Pass ID: 20260112_031047_FENGYUN 3D
#Satellite: FENGYUN 3D
#Configuration: FENGYUN 3D
#almurnet v.1.7.20251203
#Start time: 2026-01-12 03:10:49

#Version: 2.2.20231116
#Station: R2.0S_Moscow
#Location: 37.707566 lon 55.798166 lat
#TLE: 1 43010U 17072A   26011.26828046  .00000354  00000+0  18908-3 0  9991
#TLE: 2 43010  98.9936 343.0270 0002205 114.1788 245.9618 14.19695184422722

#Time	Az	El	Level	Level2	SNR	BER	BlckErr	Temp	State	Recorded	gain1	gain2
2026-01-12 03:10:49.28	11.31	2.12	-39.8	-51.5	3.8	8.46e-01	0	47	0	0	51	13652
2026-01-12 03:10:53.32	11.08	2.36	-39.8	-51.5	3.8	8.46e-01	0	48	104	0	51	13618
2026-01-12 03:10:57.37	10.85	2.60	-39.8	-51.5	3.8	8.46e-01	0	48	104	0	51	13620
2026-01-12 03:11:01.41	10.62	2.84	-39.8	-51.5	3.8	8.46e-01	0	48	104	0	51	13615
2026-01-12 03:11:05.46	10.38	3.08	-39.8	-51.5	3.8	8.46e-01	0	49	104	0	51	13621
2026-01-12 03:11:09.50	10.13	3.32	-39.8	-51.5	3.8	8.45e-01	0	49	104	0	51	13642
2026-01-12 03:11:13.55	9.89	3.57	-39.8	-51.5	3.8	8.45e-01	0	49	104	0	51	13649
2026-01-12 03:11:17.59	9.63	3.82	-39.8	-51.5	3.8	8.46e-01	0	50	104	0	51	13632
2026-01-12 03:11:21.63	9.38	4.07	-39.8	-51.5	3.8	8.46e-01	0	50	104	0	51	13616
2026-01-12 03:11:25.68	9.11	4.32	-39.8	-51.5	3.8	8.46e-01	0	50	104	0	51	13603
2026-01-12 03:11:29.72	8.85	4.57	-39.8	-51.4	3.8	8.47e-01	0	51	104	0	51	13567
2026-01-12 03:11:33.77	8.58	4.82	-39.8	-51.5	3.8	8.46e-01	0	51	104	0	51	13589
2026-01-12 03:11:37.81	8.30	5.08	-39.8	-51.5	3.8	8.46e-01	0	51	104	0	51	13580
2026-01-12 03:11:41.85	8.02	5.34	-39.8	-51.4	3.8	8.46e-01	0	51	104	0	51	13562
2026-01-12 03:11:45.89	7.73	5.59	-39.8	-51.5	3.8	8.46e-01	0	51	104	0	51	13601
2026-01-12 03:11:49.94	7.44	5.86	-39.8	-51.5	3.8	8.46e-01	0	52	104	0	51	13613
2026-01-12 03:11:53.98	7.14	6.12	-39.8	-51.5	3.8	8.46e-01	0	52	104	0	51	13595
2026-01-12 03:11:58.03	6.84	6.39	-39.8	-51.4	3.8	8.47e-01	0	52	104	0	51	13563
2026-01-12 03:12:02.07	6.53	6.65	-39.8	-51.5	3.8	8.46e-01	0	52	104	0	51	13597
2026-01-12 03:12:06.12	6.21	6.92	-39.8	-51.5	3.8	8.47e-01	0	52	104	0	51	13592
2026-01-12 03:12:10.16	5.89	7.19	-39.8	-51.4	3.8	8.46e-01	0	52	104	0	51	13567
2026-01-12 03:12:14.20	5.56	7.47	-39.8	-51.5	3.8	8.47e-01	0	52	104	0	51	13597
2026-01-12 03:12:18.25	5.22	7.74	-39.8	-51.5	3.8	8.47e-01	0	53	104	0	51	13575
2026-01-12 03:12:22.29	4.88	8.02	-39.8	-51.5	3.8	8.47e-01	0	53	104	0	51	13607
2026-01-12 03:12:26.33	4.53	8.30	-39.9	-51.6	3.8	8.45e-01	0	53	104	0	51	13749
2026-01-12 03:12:30.38	4.18	8.58	-39.9	-51.5	3.8	8.45e-01	0	53	104	0	51	13715
2026-01-12 03:12:34.41	3.82	8.86	-39.8	-51.5	3.8	8.46e-01	0	53	104	0	51	13657
2026-01-12 03:12:38.45	3.45	9.15	-39.9	-51.6	3.8	8.46e-01	0	53	104	0	51	13788
2026-01-12 03:12:42.49	3.07	9.43	-39.8	-51.6	3.8	8.45e-01	0	54	104	0	51	13740
2026-01-12 03:12:46.53	2.68	9.72	-39.9	-51.6	3.8	8.46e-01	0	54	104	0	51	13875
2026-01-12 03:12:50.57	2.29	10.01	-39.8	-51.6	3.8	8.46e-01	0	54	104	0	51	13747
2026-01-12 03:12:54.61	1.89	10.31	-39.9	-51.7	3.8	8.47e-01	0	54	104	0	51	13967
2026-01-12 03:12:58.65	1.48	10.60	-39.9	-51.7	3.8	8.45e-01	0	54	104	0	51	13949
2026-01-12 03:13:02.69	1.06	10.90	-40.1	-51.8	3.8	8.46e-01	0	54	104	0	51	14174
2026-01-12 03:13:06.73	0.63	11.20	-40.0	-51.8	3.8	8.46e-01	0	54	104	0	51	14183
2026-01-12 03:13:10.77	0.19	11.50	-40.2	-52.0	3.8	8.46e-01	0	54	104	0	51	14530
2026-01-12 03:13:14.81	359.75	11.81	-39.7	-51.7	3.8	8.46e-01	0	55	104	0	51	14043
2026-01-12 03:13:18.85	359.29	12.11	-39.6	-51.6	3.8	8.46e-01	0	54	104	0	51	13758
2026-01-12 03:13:22.89	358.82	12.42	-40.7	-51.1	3.8	8.46e-01	0	54	104	0	52	12322
2026-01-12 03:13:26.93	358.35	12.73	-40.2	-47.4	4.9	8.08e-01	0	55	0	0	51	8464
2026-01-12 03:13:30.96	357.86	13.04	-38.3	-41.6	10.3	1.43e-02	0	55	0	18874368	48	5215
2026-01-12 03:13:35.01	357.36	13.35	-37.0	-39.5	12.9	6.52e-05	0	55	0	41943040	45	4830
2026-01-12 03:13:39.04	356.85	13.67	-37.5	-39.9	12.9	1.58e-04	0	55	0	63963136	47	4516
2026-01-12 03:13:43.08	356.33	13.99	-38.1	-40.9	11.8	6.01e-04	0	55	0	87031808	46	5389
2026-01-12 03:13:47.12	355.80	14.31	-40.2	-45.5	6.6	2.09e-01	0	55	0	110100480	50	7273
2026-01-12 03:13:51.16	355.26	14.63	-40.7	-50.2	4.0	8.44e-01	0	55	104	116391936	51	11753
2026-01-12 03:13:55.19	354.71	14.95	-40.6	-52.1	3.8	8.46e-01	0	55	104	116391936	51	14601
2026-01-12 03:13:59.23	354.14	15.27	-40.3	-52.2	3.8	8.45e-01	0	55	104	116391936	51	14731
2026-01-12 03:14:03.25	353.56	15.60	-40.5	-52.2	3.8	8.46e-01	0	55	104	116391936	51	14763
2026-01-12 03:14:07.29	352.97	15.92	-40.3	-52.2	3.8	8.47e-01	0	55	104	116391936	51	14755
2026-01-12 03:14:11.33	352.36	16.25	-40.6	-52.4	3.8	8.46e-01	0	56	104	116391936	51	15156
2026-01-12 03:14:15.37	351.74	16.58	-40.4	-52.4	3.8	8.46e-01	0	55	104	116391936	51	15150
2026-01-12 03:14:19.40	351.10	16.91	-40.1	-52.4	3.8	8.47e-01	0	56	104	116391936	51	15194
2026-01-12 03:14:23.44	350.45	17.24	-40.0	-52.5	3.8	8.46e-01	0	56	104	116391936	51	15378
2026-01-12 03:14:27.48	349.79	17.57	-41.0	-52.6	3.8	8.46e-01	0	56	104	116391936	52	14635
2026-01-12 03:14:31.52	349.11	17.90	-40.5	-52.4	3.8	8.46e-01	0	56	104	116391936	52	14210
2026-01-12 03:14:35.56	348.42	18.23	-40.7	-52.4	3.8	8.46e-01	0	56	104	116391936	53	13520
2026-01-12 03:14:39.60	347.71	18.56	-40.7	-52.5	3.8	8.46e-01	0	56	104	116391936	53	13725
2026-01-12 03:14:43.64	346.98	18.89	-40.5	-52.4	3.8	8.45e-01	0	56	104	116391936	52	14229
2026-01-12 03:14:47.68	346.24	19.23	-40.9	-52.6	3.8	8.46e-01	0	56	104	116391936	52	14583
2026-01-12 03:14:51.72	345.48	19.56	-40.7	-52.4	3.8	8.46e-01	0	56	104	116391936	52	14358
2026-01-12 03:14:55.76	344.70	19.88	-40.7	-52.0	3.8	8.46e-01	0	56	104	116391936	52	13618
2026-01-12 03:14:59.80	343.91	20.21	-40.5	-49.3	4.2	8.41e-01	0	56	0	116391936	52	9994
2026-01-12 03:15:03.84	343.10	20.54	-40.2	-47.9	4.6	8.16e-01	0	56	0	116391936	52	8549
2026-01-12 03:15:07.88	342.27	20.86	-39.0	-42.6	9.9	2.52e-02	0	56	0	127926272	50	5182
2026-01-12 03:15:11.93	341.42	21.19	-36.9	-38.8	14.8	2.20e-06	0	56	0	150994944	45	4467
2026-01-12 03:15:15.97	340.56	21.50	-34.3	-35.7	17.9	0.00e+00	0	56	0	173015040	40	4171
2026-01-12 03:15:20.00	339.68	21.82	-34.6	-35.9	18.1	0.00e+00	0	56	0	196083712	40	4284
2026-01-12 03:15:24.05	338.78	22.13	-34.8	-36.1	18.4	0.00e+00	0	56	0	219152384	40	4388
2026-01-12 03:15:28.09	337.86	22.44	-34.9	-36.3	18.4	0.00e+00	0	56	0	242221056	40	4449
2026-01-12 03:15:32.12	336.92	22.75	-34.6	-35.9	18.8	0.00e+00	0	56	0	264241152	40	4269
2026-01-12 03:15:36.17	335.96	23.05	-34.6	-35.9	18.9	0.00e+00	0	56	0	287309824	40	4243
2026-01-12 03:15:40.21	334.99	23.34	-34.6	-35.9	18.9	0.00e+00	0	56	0	310378496	40	4264
2026-01-12 03:15:44.25	334.00	23.63	-34.7	-35.9	19.0	0.00e+00	0	56	0	332398592	40	4273
2026-01-12 03:15:48.28	332.99	23.91	-34.5	-35.7	19.2	0.00e+00	0	56	0	355467264	40	4170
2026-01-12 03:15:52.33	331.95	24.18	-34.6	-35.8	19.1	0.00e+00	0	56	0	377487360	40	4222
2026-01-12 03:15:56.37	330.91	24.45	-34.4	-35.7	19.3	0.00e+00	0	56	0	400556032	40	4152
2026-01-12 03:16:00.40	329.84	24.71	-34.5	-35.8	19.1	0.00e+00	0	56	0	423624704	40	4210
2026-01-12 03:16:04.44	328.76	24.96	-34.1	-35.3	19.6	0.00e+00	0	56	0	446693376	40	3996
2026-01-12 03:16:08.48	327.66	25.20	-34.0	-35.2	19.7	0.00e+00	0	56	0	468713472	40	3942
2026-01-12 03:16:12.51	326.54	25.44	-34.3	-35.5	19.4	0.00e+00	0	56	0	491782144	40	4086
2026-01-12 03:16:16.56	325.40	25.66	-34.4	-35.6	19.4	0.00e+00	0	57	0	514850816	40	4111
2026-01-12 03:16:20.60	324.25	25.87	-34.1	-35.3	19.6	0.00e+00	0	57	0	536870912	40	3991
2026-01-12 03:16:24.63	323.09	26.07	-34.0	-35.2	19.7	0.00e+00	0	57	0	559939584	40	3955
2026-01-12 03:16:28.67	321.91	26.26	-34.2	-35.4	19.5	0.00e+00	0	57	0	581959680	39	4281
2026-01-12 03:16:32.72	320.71	26.44	-34.2	-35.4	19.6	0.00e+00	0	57	0	605028352	39	4246
2026-01-12 03:16:36.76	319.51	26.60	-34.2	-35.3	19.6	0.00e+00	0	57	0	628097024	39	4240
2026-01-12 03:16:40.79	318.29	26.75	-34.0	-35.2	19.7	0.00e+00	0	57	0	651165696	39	4177
2026-01-12 03:16:44.83	317.06	26.89	-33.9	-35.1	19.8	0.00e+00	0	57	0	673185792	39	4134
2026-01-12 03:16:48.87	315.82	27.01	-33.9	-35.1	19.9	0.00e+00	0	57	0	696254464	39	4116
2026-01-12 03:16:52.91	314.57	27.12	-34.0	-35.1	19.8	0.00e+00	0	57	0	719323136	39	4139
2026-01-12 03:16:56.95	313.31	27.21	-34.0	-35.2	19.8	0.00e+00	0	57	0	741343232	39	4149
2026-01-12 03:17:00.99	312.04	27.29	-34.1	-35.3	19.7	0.00e+00	0	57	0	764411904	39	4197
2026-01-12 03:17:05.03	310.77	27.35	-33.8	-34.9	20.0	0.00e+00	0	57	0	786432000	39	4049
2026-01-12 03:17:09.06	309.50	27.40	-33.7	-34.9	20.0	0.00e+00	0	57	0	809500672	39	4036
2026-01-12 03:17:13.10	308.22	27.43	-33.7	-34.9	20.1	0.00e+00	0	57	0	832569344	39	4021
2026-01-12 03:17:17.14	306.94	27.45	-33.5	-34.6	20.3	0.00e+00	0	57	0	855638016	39	3900
2026-01-12 03:17:21.18	305.66	27.45	-33.6	-34.8	20.1	0.00e+00	0	56	0	877658112	38	4210
2026-01-12 03:17:25.23	304.37	27.43	-34.1	-35.3	19.7	0.00e+00	0	57	0	900726784	38	4449
2026-01-12 03:17:29.27	303.09	27.40	-33.9	-35.1	19.9	0.00e+00	0	57	0	923795456	38	4356
2026-01-12 03:17:33.31	301.82	27.35	-33.6	-34.7	20.2	0.00e+00	0	57	0	945815552	38	4191
2026-01-12 03:17:37.34	300.55	27.29	-33.7	-34.9	20.1	0.00e+00	0	57	0	968884224	38	4251
2026-01-12 03:17:41.39	299.28	27.21	-33.9	-35.1	19.9	0.00e+00	0	57	0	991952896	38	4361
2026-01-12 03:17:45.42	298.02	27.12	-33.8	-34.9	20.0	0.00e+00	0	57	0	1013972992	38	4280
2026-01-12 03:17:49.46	296.77	27.01	-33.9	-35.1	19.8	0.00e+00	0	57	0	1037041664	38	4378
2026-01-12 03:17:53.50	295.53	26.89	-33.9	-35.0	19.9	0.00e+00	0	57	0	1060110336	38	4329
2026-01-12 03:17:57.54	294.29	26.75	-34.1	-35.3	19.7	0.00e+00	0	57	0	1082130432	38	4449
2026-01-12 03:18:01.58	293.07	26.60	-33.8	-34.9	20.0	0.00e+00	0	57	0	1105199104	38	4277
2026-01-12 03:18:05.62	291.86	26.44	-33.6	-34.8	20.1	0.00e+00	0	57	0	1128267776	38	4208
2026-01-12 03:18:09.65	290.67	26.26	-33.7	-34.9	20.0	0.00e+00	0	57	0	1150287872	38	4275
2026-01-12 03:18:13.69	289.48	26.07	-33.8	-34.9	20.0	0.00e+00	0	57	0	1173356544	38	4274
2026-01-12 03:18:17.74	288.31	25.87	-33.8	-34.9	20.0	0.00e+00	0	57	0	1196425216	38	4269
2026-01-12 03:18:21.78	287.16	25.66	-34.0	-35.2	19.7	0.00e+00	0	57	0	1218445312	38	4437
2026-01-12 03:18:25.81	286.02	25.44	-34.0	-35.1	19.8	0.00e+00	0	57	0	1241513984	38	4374
2026-01-12 03:18:29.86	284.90	25.20	-33.8	-35.0	19.9	0.00e+00	0	57	0	1264582656	38	4303
2026-01-12 03:18:33.90	283.79	24.96	-33.7	-34.9	20.0	0.00e+00	0	57	0	1286602752	38	4262
2026-01-12 03:18:37.94	282.71	24.71	-34.0	-35.1	19.8	0.00e+00	0	57	0	1309671424	38	4384
2026-01-12 03:18:41.98	281.64	24.45	-33.9	-35.1	19.8	0.00e+00	0	57	0	1332740096	38	4371
2026-01-12 03:18:46.02	280.58	24.18	-34.0	-35.2	19.7	0.00e+00	0	57	0	1354760192	38	4409
2026-01-12 03:18:50.06	279.55	23.90	-34.0	-35.1	19.7	0.00e+00	0	57	0	1377828864	38	4373
2026-01-12 03:18:54.10	278.53	23.62	-34.1	-35.3	19.6	0.00e+00	0	57	0	1400897536	38	4460
2026-01-12 03:18:58.14	277.54	23.33	-34.2	-35.3	19.5	0.00e+00	0	57	0	1422917632	38	4492
2026-01-12 03:19:02.18	276.56	23.04	-34.0	-35.1	19.7	0.00e+00	0	57	0	1445986304	38	4383
2026-01-12 03:19:06.22	275.60	22.74	-33.9	-35.1	19.7	0.00e+00	0	57	0	1469054976	38	4371
2026-01-12 03:19:10.26	274.65	22.43	-34.2	-35.4	19.5	0.00e+00	0	57	0	1491075072	38	4523
2026-01-12 03:19:14.30	273.73	22.12	-34.2	-35.5	19.4	0.00e+00	0	57	0	1514143744	39	4294
2026-01-12 03:19:18.34	272.83	21.81	-34.3	-35.5	19.4	0.00e+00	0	57	0	1537212416	39	4293
2026-01-12 03:19:22.38	271.94	21.49	-34.5	-35.8	19.1	0.00e+00	0	57	0	1560281088	39	4445
2026-01-12 03:19:26.42	271.07	21.17	-34.5	-35.7	19.1	0.00e+00	0	57	0	1582301184	39	4420
2026-01-12 03:19:30.45	270.22	20.85	-34.7	-36.0	18.8	0.00e+00	0	57	0	1605369856	40	4312
2026-01-12 03:19:34.50	269.39	20.52	-34.6	-35.9	18.8	0.00e+00	0	57	0	1627389952	40	4273
2026-01-12 03:19:38.53	268.58	20.20	-34.9	-36.2	18.5	0.00e+00	0	57	0	1650458624	40	4438
2026-01-12 03:19:42.58	267.78	19.87	-34.9	-36.2	18.6	0.00e+00	0	57	0	1673527296	40	4397
2026-01-12 03:19:46.61	267.00	19.54	-34.9	-36.2	18.6	0.00e+00	0	57	0	1695547392	40	4399
2026-01-12 03:19:50.65	266.23	19.20	-34.8	-36.2	18.6	0.00e+00	0	57	0	1718616064	40	4393
2026-01-12 03:19:54.69	265.49	18.87	-34.7	-36.0	18.7	0.00e+00	0	57	0	1741684736	40	4305
2026-01-12 03:19:58.73	264.76	18.54	-35.0	-36.3	18.4	0.00e+00	0	57	0	1764753408	40	4468
2026-01-12 03:20:02.77	264.04	18.21	-35.1	-36.5	18.2	0.00e+00	0	57	0	1786773504	40	4559
2026-01-12 03:20:06.81	263.34	17.87	-35.2	-36.5	18.2	0.00e+00	0	57	0	1809842176	41	4315
2026-01-12 03:20:10.85	262.66	17.54	-35.3	-36.7	18.0	0.00e+00	0	57	0	1831862272	41	4416
2026-01-12 03:20:14.90	261.99	17.21	-35.3	-36.7	18.0	0.00e+00	0	57	0	1854930944	41	4407
2026-01-12 03:20:18.94	261.34	16.87	-35.6	-37.0	17.6	0.00e+00	0	57	0	1877999616	41	4566
2026-01-12 03:20:22.98	260.70	16.54	-35.6	-37.0	17.6	0.00e+00	0	57	0	1901068288	42	4310
2026-01-12 03:20:27.02	260.07	16.21	-35.9	-37.3	17.3	0.00e+00	0	57	0	1923088384	42	4476
2026-01-12 03:20:31.05	259.46	15.89	-35.9	-37.3	17.3	0.00e+00	0	57	0	1946157056	42	4479
2026-01-12 03:20:35.10	258.86	15.56	-35.8	-37.2	17.4	0.00e+00	0	57	0	1969225728	42	4430
2026-01-12 03:20:39.14	258.28	15.23	-36.2	-37.6	17.0	0.00e+00	0	57	0	1991245824	42	4645
2026-01-12 03:20:43.18	257.70	14.90	-36.0	-37.5	17.1	0.00e+00	0	57	0	2014314496	42	4554
2026-01-12 03:20:47.21	257.14	14.58	-35.9	-37.4	17.2	0.00e+00	0	57	0	2036334592	42	4498
2026-01-12 03:20:51.25	256.60	14.26	-36.4	-37.9	16.7	0.00e+00	0	57	0	2059403264	43	4509
2026-01-12 03:20:55.29	256.06	13.94	-36.1	-37.6	16.9	0.00e+00	0	57	0	2082471936	43	4366
2026-01-12 03:20:59.33	255.54	13.62	-36.3	-37.9	16.7	0.00e+00	0	57	0	2105540608	43	4502
2026-01-12 03:21:03.37	255.02	13.30	-36.5	-38.0	16.5	0.00e+00	0	57	0	2127560704	43	4597
2026-01-12 03:21:07.41	254.52	12.99	-36.5	-38.0	16.5	0.00e+00	0	57	0	2150629376	43	4590
2026-01-12 03:21:11.44	254.03	12.68	-36.6	-38.2	16.3	0.00e+00	0	57	0	2172649472	43	4672
2026-01-12 03:21:15.49	253.55	12.36	-36.9	-38.5	16.1	0.00e+00	0	57	0	2195718144	44	4585
2026-01-12 03:21:19.52	253.08	12.06	-36.8	-38.4	16.3	0.00e+00	0	57	0	2218786816	44	4505
2026-01-12 03:21:23.57	252.62	11.75	-37.0	-38.7	15.9	0.00e+00	0	57	0	2240806912	44	4682
2026-01-12 03:21:27.61	252.17	11.44	-36.8	-38.4	16.2	0.00e+00	0	57	0	2263875584	44	4502
2026-01-12 03:21:31.65	251.73	11.14	-37.1	-38.8	15.8	0.00e+00	0	57	0	2286944256	44	4707
2026-01-12 03:21:35.69	251.30	10.84	-37.2	-38.8	15.7	0.00e+00	0	57	0	2310012928	44	4752
2026-01-12 03:21:39.73	250.87	10.54	-37.2	-38.9	15.6	0.00e+00	0	57	0	2332033024	45	4530
2026-01-12 03:21:43.77	250.46	10.24	-37.3	-39.1	15.4	0.00e+00	0	57	0	2355101696	45	4609
2026-01-12 03:21:47.81	250.05	9.95	-37.3	-39.1	15.4	0.00e+00	0	57	0	2377121792	45	4608
2026-01-12 03:21:51.85	249.65	9.66	-37.4	-39.1	15.4	0.00e+00	0	57	0	2400190464	45	4636
2026-01-12 03:21:55.89	249.26	9.37	-37.5	-39.2	15.2	0.00e+00	0	57	0	2423259136	45	4703
2026-01-12 03:21:59.93	248.88	9.08	-37.6	-39.4	15.0	1.10e-06	0	57	0	2446327808	45	4812
2026-01-12 03:22:03.97	248.51	8.79	-37.8	-39.6	14.8	0.00e+00	0	57	0	2468347904	46	4646
2026-01-12 03:22:08.01	248.14	8.51	-37.8	-39.6	14.7	0.00e+00	0	57	0	2491416576	46	4640
2026-01-12 03:22:12.05	247.78	8.23	-38.0	-39.9	14.4	2.20e-06	0	57	0	2514485248	46	4797
2026-01-12 03:22:16.09	247.43	7.95	-44.4	-55.3	3.8	7.89e-01	0	57	104	2534408192	59	13279
2026-01-12 03:22:20.13	247.08	7.67	-45.0	-56.6	3.8	8.46e-01	0	57	104	2534408192	60	14672
2026-01-12 03:22:24.18	246.74	7.39	-45.2	-56.8	3.8	8.46e-01	0	57	104	2534408192	60	14937
2026-01-12 03:22:28.21	246.41	7.12	-45.1	-56.7	3.8	8.46e-01	0	57	104	2534408192	60	14788
2026-01-12 03:22:32.26	246.08	6.85	-45.0	-56.7	3.8	8.46e-01	0	57	104	2534408192	60	14764
2026-01-12 03:22:36.30	245.76	6.58	-45.0	-56.7	3.8	8.46e-01	0	57	104	2534408192	60	14742
2026-01-12 03:22:40.34	245.45	6.31	-45.0	-56.6	3.8	8.45e-01	0	57	104	2534408192	60	14699
2026-01-12 03:22:44.39	245.14	6.04	-45.0	-56.6	3.8	8.46e-01	0	57	104	2534408192	60	14676
2026-01-12 03:22:48.43	244.84	5.78	-45.0	-56.6	3.8	8.47e-01	0	57	104	2534408192	60	14704
2026-01-12 03:22:52.47	244.54	5.52	-45.0	-56.7	3.8	8.48e-01	0	58	104	2534408192	60	14714
2026-01-12 03:22:56.52	244.25	5.26	-45.0	-56.6	3.8	8.45e-01	0	57	104	2534408192	60	14674
2026-01-12 03:23:00.56	243.96	5.00	-45.0	-56.6	3.8	8.46e-01	0	57	104	2534408192	60	14680
2026-01-12 03:23:04.60	243.68	4.74	-45.0	-56.6	3.8	8.47e-01	0	58	104	2534408192	60	14673
2026-01-12 03:23:08.65	243.41	4.49	-45.0	-56.6	3.8	8.45e-01	0	57	104	2534408192	60	14680
2026-01-12 03:23:12.69	243.13	4.23	-45.0	-56.6	3.8	8.47e-01	0	57	104	2534408192	60	14665
2026-01-12 03:23:16.74	242.87	3.98	-45.0	-56.6	3.8	8.47e-01	0	57	104	2534408192	60	14634
2026-01-12 03:23:20.78	242.61	3.73	-45.0	-56.6	3.8	8.47e-01	0	58	104	2534408192	60	14645
2026-01-12 03:23:24.82	242.35	3.49	-45.0	-56.6	3.8	8.46e-01	0	57	104	2534408192	60	14613
2026-01-12 03:23:28.86	242.10	3.24	-45.0	-56.6	3.8	8.45e-01	0	58	104	2534408192	60	14665
2026-01-12 03:23:32.91	241.85	3.00	-45.0	-56.6	3.8	8.46e-01	0	57	104	2534408192	60	14682
2026-01-12 03:23:36.95	241.60	2.75	-45.0	-56.6	3.8	8.46e-01	0	58	104	2534408192	60	14648
2026-01-12 03:23:41.00	241.36	2.51	-45.0	-56.6	3.8	8.46e-01	0	58	104	2534408192	60	14606
2026-01-12 03:23:45.04	241.13	2.27	-45.0	-56.6	3.8	8.46e-01	0	58	104	2534408192	60	14629
2026-01-12 03:23:49.08	240.90	2.04	-45.0	-56.6	3.8	8.46e-01	0	58	104	2534408192	60	14572

#Closed at: 2026-01-12 03:23:52
#Recorded file [2534 MB]: D:/lorett/data/31039_260112_061049.dat