passes_logs/2026/01/12/R2.0S_Moscow/R2.0S_Moscow__20260112_081302_NOAA_21_JPSS-2_rec.log

#Pass ID: 20260112_081302_NOAA 21 (JPSS-2)
#Satellite: NOAA 21 (JPSS-2)
#Configuration: NOAA-21
#almurnet v.1.7.20251203
#Start time: 2026-01-12 08:13:04

#Version: 2.2.20231116
#Station: R2.0S_Moscow
#Location: 37.707566 lon 55.798166 lat
#TLE: 1 54234U 22150A   26011.27699114  .00000090  00000+0  63771-4 0  9993
#TLE: 2 54234  98.7494 312.2218 0000765 314.9553  45.1561 14.19534106164285

#Time	Az	El	Level	Level2	SNR	BER	BlckErr	Temp	State	Recorded	gain1	gain2
2026-01-12 08:13:04.02	110.57	2.07	-33.9	-45.8	3.8	1.50e+00	0	47	0	0	22	37730
2026-01-12 08:13:07.06	110.36	2.24	-29.6	-45.5	4.0	1.50e+00	0	47	104	0	36	16256
2026-01-12 08:13:10.09	110.15	2.41	-35.9	-47.7	3.9	1.51e+00	0	47	104	0	40	16615
2026-01-12 08:13:13.13	109.93	2.58	-33.0	-44.1	3.7	1.52e+00	0	48	104	0	20	34515
2026-01-12 08:13:16.16	109.72	2.76	-23.0	-38.5	3.8	1.52e+00	0	48	104	0	20	18130
2026-01-12 08:13:19.19	109.50	2.93	-24.4	-40.8	3.7	1.51e+00	0	48	104	0	23	19985
2026-01-12 08:13:22.22	109.28	3.10	-27.6	-43.9	3.8	1.50e+00	0	48	104	0	33	16068
2026-01-12 08:13:25.26	109.05	3.28	-25.5	-41.0	3.7	1.51e+00	0	49	104	0	29	14376
2026-01-12 08:13:28.29	108.83	3.45	-35.8	-47.6	3.9	1.50e+00	0	49	104	0	41	15425
2026-01-12 08:13:31.32	108.60	3.63	-33.3	-46.1	4.1	1.50e+00	0	49	104	0	39	14592
2026-01-12 08:13:34.35	108.37	3.80	-36.7	-49.3	4.0	1.50e+00	0	49	104	0	41	18772
2026-01-12 08:13:37.38	108.13	3.98	-34.2	-47.6	4.0	1.50e+00	0	49	104	0	35	21967
2026-01-12 08:13:40.42	107.89	4.16	-30.7	-46.4	3.9	1.51e+00	0	49	104	0	38	16022
2026-01-12 08:13:43.45	107.65	4.33	-34.8	-49.2	3.9	1.51e+00	0	50	104	0	37	23339
2026-01-12 08:13:46.48	107.41	4.51	-36.5	-50.0	4.0	1.50e+00	0	49	104	0	41	20329
2026-01-12 08:13:49.52	107.16	4.69	-25.0	-38.4	4.0	1.50e+00	0	50	104	0	34	8079
2026-01-12 08:13:52.55	106.91	4.87	-34.0	-47.9	3.9	1.50e+00	0	50	104	0	35	22569
2026-01-12 08:13:55.58	106.65	5.05	-34.6	-48.6	3.9	1.51e+00	0	50	104	0	38	20744
2026-01-12 08:13:58.62	106.40	5.24	-31.1	-47.0	4.0	1.50e+00	0	51	104	0	34	21652
2026-01-12 08:14:01.63	106.14	5.42	-32.0	-44.8	3.6	1.51e+00	0	51	104	0	23	31760
2026-01-12 08:14:04.66	105.88	5.60	-28.8	-42.6	3.5	1.51e+00	0	51	104	0	26	20759
2026-01-12 08:14:07.70	105.61	5.78	-26.5	-39.1	3.9	1.51e+00	0	51	104	0	22	17470
2026-01-12 08:14:10.73	105.34	5.97	-25.1	-39.9	3.7	1.51e+00	0	51	104	0	20	21335
2026-01-12 08:14:13.76	105.06	6.15	-36.3	-47.3	3.8	1.51e+00	0	51	104	0	32	25015
2026-01-12 08:14:16.79	104.79	6.34	-23.2	-38.4	3.7	1.51e+00	0	51	104	0	19	18971
2026-01-12 08:14:19.82	104.51	6.53	-35.6	-45.9	4.0	1.50e+00	0	51	104	0	34	19076
2026-01-12 08:14:22.86	104.22	6.71	-31.7	-45.4	3.7	1.51e+00	0	52	104	0	24	31963
2026-01-12 08:14:25.89	103.93	6.90	-34.6	-48.1	4.1	1.50e+00	0	51	104	0	41	16445
2026-01-12 08:14:28.92	103.64	7.09	-36.3	-48.6	3.9	1.50e+00	0	52	104	0	42	16327
2026-01-12 08:14:31.96	103.34	7.28	-36.5	-45.6	4.0	1.51e+00	0	52	104	0	27	27471
2026-01-12 08:14:34.99	103.04	7.47	-32.3	-46.2	4.1	1.50e+00	0	52	104	0	42	12441
2026-01-12 08:14:38.02	102.74	7.66	-35.2	-45.5	4.3	1.48e+00	0	52	104	0	39	13710
2026-01-12 08:14:41.05	102.43	7.85	-33.8	-40.1	4.3	1.48e+00	0	52	104	0	30	12339
2026-01-12 08:14:44.09	102.11	8.04	-30.2	-40.7	4.5	7.57e-01	0	52	104	0	34	10468
2026-01-12 08:14:47.11	101.80	8.24	-23.2	-37.8	4.2	1.35e+00	0	52	104	0	32	8403
2026-01-12 08:14:50.15	101.48	8.43	-31.5	-43.4	4.5	1.48e+00	0	53	104	0	36	12714
2026-01-12 08:14:53.17	101.15	8.62	-33.6	-45.3	4.1	1.48e+00	0	53	104	0	39	13356
2026-01-12 08:14:56.20	100.82	8.82	-27.7	-42.2	4.0	1.50e+00	0	53	104	0	34	12501
2026-01-12 08:14:59.23	100.49	9.01	-22.7	-37.9	3.7	1.50e+00	0	53	104	0	27	11348
2026-01-12 08:15:02.26	100.15	9.21	-31.8	-44.1	4.4	1.49e+00	0	53	104	0	40	11006
2026-01-12 08:15:05.29	99.81	9.40	-34.2	-45.1	4.2	1.50e+00	0	53	104	0	32	19534
2026-01-12 08:15:08.32	99.46	9.60	-33.6	-43.6	4.3	1.48e+00	0	53	104	0	32	16470
2026-01-12 08:15:11.34	99.10	9.80	-21.3	-36.9	3.8	1.50e+00	0	53	104	0	16	19166
2026-01-12 08:15:14.38	98.75	10.00	-32.1	-43.8	4.1	1.50e+00	0	53	104	0	26	23741
2026-01-12 08:15:17.41	98.38	10.19	-28.0	-40.2	4.2	1.47e+00	0	53	104	0	24	17630
2026-01-12 08:15:20.44	98.01	10.39	-34.5	-41.9	6.3	1.42e+00	0	53	104	0	37	10069
2026-01-12 08:15:23.47	97.64	10.59	-34.9	-41.8	7.0	7.27e-01	9	53	0	0	40	8438
2026-01-12 08:15:26.50	97.26	10.79	-35.8	-41.8	4.5	1.18e+00	0	54	104	0	35	11279
2026-01-12 08:15:29.53	96.88	10.99	-37.7	-42.2	8.7	2.68e-01	2	54	0	1048576	44	6975
2026-01-12 08:15:32.56	96.49	11.19	-32.1	-40.8	8.0	1.56e-01	3	54	0	4194304	42	6703
2026-01-12 08:15:35.59	96.10	11.39	-38.5	-41.7	11.1	1.35e-01	0	54	0	9437184	47	5542
2026-01-12 08:15:38.62	95.70	11.59	-37.9	-42.0	11.2	8.97e-03	0	54	0	18874368	47	5728
2026-01-12 08:15:41.65	95.29	11.79	-39.0	-41.6	12.4	8.52e-04	0	54	0	28311552	48	5192
2026-01-12 08:15:44.67	94.88	12.00	-37.6	-40.5	12.5	3.71e-04	0	54	0	37748736	46	5101
2026-01-12 08:15:47.70	94.46	12.20	-38.2	-40.5	13.6	1.06e-05	0	54	0	47185920	47	4850
2026-01-12 08:15:50.73	94.04	12.40	-38.2	-40.5	13.7	1.06e-05	0	54	0	56623104	47	4836
2026-01-12 08:15:53.76	93.61	12.60	-38.3	-40.6	13.6	9.90e-06	0	54	0	66060288	47	4918
2026-01-12 08:15:56.79	93.18	12.80	-38.5	-41.0	13.3	1.37e-05	0	54	0	75497472	47	5117
2026-01-12 08:15:59.82	92.74	13.00	-38.6	-41.0	13.3	1.29e-05	0	54	0	84934656	48	4854
2026-01-12 08:16:02.83	92.29	13.21	-38.4	-40.7	13.5	2.36e-05	0	54	0	94371840	48	4681
2026-01-12 08:16:05.86	91.84	13.41	-38.2	-40.6	13.6	7.60e-06	0	54	0	103809024	48	4603
2026-01-12 08:16:08.89	91.38	13.61	-38.4	-40.7	13.4	1.67e-05	0	54	0	113246208	48	4693
2026-01-12 08:16:11.92	90.91	13.81	-37.9	-40.1	14.0	0.00e+00	0	54	0	122683392	47	4634
2026-01-12 08:16:14.95	90.44	14.01	-37.9	-40.3	13.7	6.10e-06	0	54	0	132120576	47	4726
2026-01-12 08:16:17.98	89.96	14.21	-37.6	-39.9	14.1	3.00e-06	0	54	0	142606336	47	4512
2026-01-12 08:16:21.00	89.48	14.41	-37.9	-40.3	13.5	9.90e-06	0	54	0	150994944	47	4758
2026-01-12 08:16:24.03	88.99	14.61	-38.5	-41.2	12.6	7.93e-05	0	55	0	161480704	47	5263
2026-01-12 08:16:27.06	88.49	14.81	-38.8	-41.7	12.0	2.77e-04	0	55	0	169869312	48	5246
2026-01-12 08:16:30.09	87.98	15.01	-38.9	-42.0	11.5	8.57e-04	0	54	0	180355072	48	5432
2026-01-12 08:16:33.13	87.47	15.21	-38.8	-42.0	11.3	1.03e-03	0	54	0	189792256	48	5409
2026-01-12 08:16:36.16	86.95	15.41	-39.1	-42.5	10.6	3.05e-03	0	55	0	199229440	48	5784
2026-01-12 08:16:39.19	86.42	15.61	-39.3	-43.0	9.9	7.87e-03	0	55	0	208666624	49	5753
2026-01-12 08:16:42.22	85.89	15.80	-39.7	-43.9	9.0	2.66e-02	0	55	0	218103808	49	6356
2026-01-12 08:16:45.24	85.35	16.00	-39.5	-43.3	9.7	1.24e-02	0	55	0	227540992	49	5983
2026-01-12 08:16:48.27	84.80	16.19	-39.4	-43.1	10.0	8.36e-03	0	55	0	236978176	49	5807
2026-01-12 08:16:51.30	84.25	16.38	-39.4	-42.8	10.5	4.30e-03	0	55	0	246415360	49	5638
2026-01-12 08:16:54.32	83.69	16.57	-39.4	-42.6	11.0	1.91e-03	0	55	0	255852544	49	5476
2026-01-12 08:16:57.35	83.12	16.76	-39.2	-42.3	11.3	1.36e-03	0	55	0	265289728	49	5308
2026-01-12 08:17:00.38	82.55	16.95	-39.1	-42.1	11.5	7.32e-04	0	55	0	274726912	49	5201
2026-01-12 08:17:03.41	81.96	17.14	-39.2	-42.1	11.7	4.63e-04	0	55	0	284164096	49	5202
2026-01-12 08:17:06.44	81.37	17.32	-39.4	-42.7	11.0	1.56e-03	0	55	0	293601280	49	5536
2026-01-12 08:17:09.47	80.77	17.51	-39.1	-42.4	11.1	1.56e-03	0	55	0	303038464	49	5345
2026-01-12 08:17:12.50	80.17	17.69	-39.1	-42.6	10.5	3.31e-03	0	55	0	312475648	49	5472
2026-01-12 08:17:15.53	79.56	17.87	-39.4	-43.4	9.5	1.46e-02	0	55	0	321912832	49	5993
2026-01-12 08:17:18.56	78.94	18.05	-39.2	-43.0	9.7	1.20e-02	0	55	0	331350016	49	5783
2026-01-12 08:17:21.59	78.31	18.22	-39.1	-42.6	10.4	4.65e-03	0	55	0	340787200	49	5509
2026-01-12 08:17:24.62	77.67	18.40	-38.9	-42.1	11.0	1.74e-03	0	55	0	350224384	49	5218
2026-01-12 08:17:27.65	77.03	18.57	-38.8	-41.8	11.6	7.42e-04	0	55	0	359661568	49	4999
2026-01-12 08:17:30.68	76.38	18.74	-38.7	-41.7	11.7	6.55e-04	0	55	0	369098752	49	4928
2026-01-12 08:17:33.71	75.73	18.90	-38.8	-41.9	11.4	1.11e-03	0	55	0	378535936	49	5063
2026-01-12 08:17:36.74	75.06	19.06	-38.6	-41.6	11.7	5.90e-04	0	55	0	387973120	49	4890
2026-01-12 08:17:39.77	74.39	19.22	-38.5	-41.2	12.2	2.30e-04	0	55	0	397410304	49	4687
2026-01-12 08:17:42.80	73.72	19.38	-38.6	-41.4	12.2	2.30e-04	0	56	0	406847488	48	5091
2026-01-12 08:17:45.83	73.03	19.53	-38.6	-41.3	12.6	1.22e-04	0	55	0	416284672	48	4994
2026-01-12 08:17:48.86	72.34	19.68	-38.4	-40.9	13.1	3.05e-05	0	55	0	425721856	48	4767
2026-01-12 08:17:51.90	71.64	19.83	-38.4	-40.8	13.3	1.98e-05	0	55	0	435159040	48	4727
2026-01-12 08:17:54.92	70.94	19.97	-38.2	-40.4	13.9	2.20e-06	0	56	0	444596224	48	4506
2026-01-12 08:17:57.95	70.23	20.11	-38.3	-40.4	14.1	3.00e-06	0	55	0	454033408	48	4537
2026-01-12 08:18:00.99	69.51	20.24	-37.8	-39.7	15.2	0.00e+00	0	55	0	463470592	47	4402
2026-01-12 08:18:04.01	68.79	20.38	-37.6	-39.4	15.5	0.00e+00	0	55	0	472907776	47	4267
2026-01-12 08:18:07.04	68.06	20.50	-37.5	-39.2	15.8	0.00e+00	0	56	0	483393536	46	4430
2026-01-12 08:18:10.07	67.32	20.62	-37.6	-39.3	15.9	0.00e+00	0	56	0	491782144	46	4466
2026-01-12 08:18:13.10	66.58	20.74	-37.4	-39.1	16.1	0.00e+00	0	56	0	502267904	46	4380
2026-01-12 08:18:16.13	65.83	20.85	-37.6	-39.3	16.0	0.00e+00	0	56	0	511705088	46	4465
2026-01-12 08:18:19.16	65.08	20.96	-37.8	-39.6	15.7	0.00e+00	0	56	0	521142272	46	4633
2026-01-12 08:18:22.20	64.32	21.07	-38.1	-39.9	15.4	0.00e+00	0	55	0	530579456	46	4807
2026-01-12 08:18:25.23	63.56	21.17	-38.2	-40.1	15.3	0.00e+00	0	56	0	540016640	47	4612
2026-01-12 08:18:28.25	62.79	21.26	-37.9	-39.7	15.6	0.00e+00	0	56	0	549453824	47	4404
2026-01-12 08:18:31.28	62.02	21.35	-37.6	-39.3	16.0	0.00e+00	0	56	0	558891008	47	4232
2026-01-12 08:18:34.31	61.25	21.43	-37.7	-39.4	16.0	0.00e+00	0	56	0	568328192	47	4266
2026-01-12 08:18:37.35	60.46	21.51	-37.8	-39.6	15.8	0.00e+00	0	56	0	577765376	47	4358
2026-01-12 08:18:40.38	59.68	21.58	-38.1	-39.9	15.5	0.00e+00	0	56	0	587202560	47	4542
2026-01-12 08:18:43.40	58.90	21.65	-38.2	-40.1	15.3	0.00e+00	0	56	0	596639744	47	4619
2026-01-12 08:18:46.43	58.10	21.71	-38.2	-40.1	15.3	0.00e+00	0	56	0	606076928	47	4625
2026-01-12 08:18:49.46	57.31	21.77	-37.9	-39.7	15.7	0.00e+00	0	56	0	615514112	47	4417
2026-01-12 08:18:52.49	56.51	21.82	-37.6	-39.3	16.1	0.00e+00	0	56	0	624951296	47	4216
2026-01-12 08:18:55.52	55.72	21.86	-37.7	-39.4	16.0	0.00e+00	0	56	0	634388480	47	4277
2026-01-12 08:18:58.55	54.92	21.90	-37.4	-39.0	16.4	0.00e+00	0	56	0	643825664	46	4327
2026-01-12 08:19:01.58	54.11	21.93	-37.7	-39.4	16.0	0.00e+00	0	56	0	653262848	46	4521
2026-01-12 08:19:04.61	53.31	21.96	-37.8	-39.5	15.9	0.00e+00	0	56	0	662700032	46	4589
2026-01-12 08:19:07.64	52.50	21.98	-37.5	-39.1	16.3	0.00e+00	0	56	0	672137216	46	4375
2026-01-12 08:19:10.67	51.70	21.99	-37.7	-39.4	16.1	0.00e+00	0	56	0	681574400	46	4514
2026-01-12 08:19:13.70	50.89	22.00	-37.5	-39.2	16.3	0.00e+00	0	56	0	691011584	46	4411
2026-01-12 08:19:16.73	50.08	22.00	-37.8	-39.5	16.0	0.00e+00	0	56	0	700448768	46	4553
2026-01-12 08:19:19.75	49.28	22.00	-37.9	-39.6	15.9	0.00e+00	0	56	0	709885952	46	4634
2026-01-12 08:19:22.79	48.47	21.99	-37.9	-39.7	15.8	0.00e+00	0	56	0	719323136	46	4673
2026-01-12 08:19:25.82	47.67	21.97	-38.1	-39.9	15.6	0.00e+00	0	56	0	728760320	47	4542
2026-01-12 08:19:28.85	46.86	21.95	-37.8	-39.6	16.0	0.00e+00	0	56	0	738197504	47	4341
2026-01-12 08:19:31.88	46.06	21.93	-37.7	-39.4	16.1	0.00e+00	0	56	0	747634688	47	4279
2026-01-12 08:19:34.91	45.26	21.89	-37.7	-39.4	16.1	0.00e+00	0	56	0	757071872	47	4275
2026-01-12 08:19:37.94	44.46	21.85	-38.0	-39.7	15.8	0.00e+00	0	56	0	766509056	47	4432
2026-01-12 08:19:40.97	43.66	21.81	-38.1	-39.9	15.6	0.00e+00	0	56	0	775946240	47	4537
2026-01-12 08:19:43.99	42.87	21.76	-37.9	-39.6	15.9	0.00e+00	0	56	0	785383424	47	4363
2026-01-12 08:19:47.02	42.08	21.70	-38.0	-39.8	15.7	0.00e+00	0	56	0	795869184	47	4447
2026-01-12 08:19:50.05	41.29	21.64	-37.7	-39.4	16.1	0.00e+00	0	56	0	804257792	47	4252
2026-01-12 08:19:53.08	40.50	21.57	-37.4	-39.0	16.5	0.00e+00	0	56	0	814743552	46	4333
2026-01-12 08:19:56.11	39.72	21.49	-37.6	-39.3	16.2	0.00e+00	0	56	0	824180736	46	4458
2026-01-12 08:19:59.14	38.94	21.41	-37.8	-39.5	16.0	0.00e+00	0	56	0	833617920	46	4591
2026-01-12 08:20:02.18	38.17	21.33	-37.8	-39.5	16.0	0.00e+00	0	56	0	843055104	46	4588
2026-01-12 08:20:05.21	37.40	21.24	-37.8	-39.5	16.0	0.00e+00	0	56	0	852492288	46	4592
2026-01-12 08:20:08.24	36.63	21.15	-38.0	-39.8	15.8	0.00e+00	0	56	0	861929472	46	4715
2026-01-12 08:20:11.26	35.88	21.05	-37.7	-39.4	16.1	0.00e+00	0	56	0	871366656	46	4535
2026-01-12 08:20:14.30	35.12	20.94	-38.0	-39.8	15.8	0.00e+00	0	56	0	880803840	46	4714
2026-01-12 08:20:17.33	34.37	20.83	-37.8	-39.5	16.0	0.00e+00	0	56	0	890241024	46	4597
2026-01-12 08:20:20.35	33.63	20.72	-38.0	-39.8	15.8	0.00e+00	0	56	0	899678208	46	4709
2026-01-12 08:20:23.39	32.89	20.60	-38.1	-39.8	15.7	0.00e+00	0	56	0	909115392	46	4752
2026-01-12 08:20:26.41	32.16	20.48	-38.0	-39.8	15.7	0.00e+00	0	56	0	918552576	46	4727
2026-01-12 08:20:29.44	31.43	20.35	-38.2	-40.0	15.5	0.00e+00	0	56	0	927989760	46	4835
2026-01-12 08:20:32.47	30.71	20.22	-37.8	-39.5	16.0	0.00e+00	0	56	0	937426944	46	4574
2026-01-12 08:20:35.50	30.00	20.08	-37.7	-39.4	16.0	0.00e+00	0	56	0	946864128	46	4539
2026-01-12 08:20:38.53	29.29	19.94	-38.0	-39.8	15.7	0.00e+00	0	56	0	956301312	46	4713
2026-01-12 08:20:41.55	28.59	19.80	-38.2	-40.0	15.5	0.00e+00	0	56	0	965738496	46	4859
2026-01-12 08:20:44.58	27.90	19.66	-38.5	-40.4	15.2	0.00e+00	0	56	0	975175680	47	4771
2026-01-12 08:20:47.62	27.21	19.50	-38.0	-39.8	15.7	0.00e+00	0	56	0	984612864	47	4461
2026-01-12 08:20:50.65	26.53	19.35	-38.1	-39.9	15.6	0.00e+00	0	56	0	994050048	47	4533
2026-01-12 08:20:53.67	25.86	19.20	-38.4	-40.4	15.1	0.00e+00	0	56	0	1003487232	47	4762
2026-01-12 08:20:56.70	25.19	19.04	-38.4	-40.3	15.2	7.00e-07	0	56	0	1012924416	47	4715
2026-01-12 08:20:59.73	24.53	18.87	-38.2	-40.1	15.4	0.00e+00	0	56	0	1022361600	47	4600
2026-01-12 08:21:02.76	23.88	18.71	-38.0	-39.8	15.7	0.00e+00	0	56	0	1031798784	47	4452
2026-01-12 08:21:05.79	23.24	18.54	-38.1	-39.9	15.6	0.00e+00	0	56	0	1041235968	47	4526
2026-01-12 08:21:08.82	22.60	18.37	-38.1	-39.9	15.5	0.00e+00	0	56	0	1050673152	47	4524
2026-01-12 08:21:11.85	21.97	18.20	-38.1	-39.9	15.5	0.00e+00	0	56	0	1060110336	47	4535
2026-01-12 08:21:14.88	21.35	18.02	-38.4	-40.3	15.1	0.00e+00	0	56	0	1069547520	47	4737
2026-01-12 08:21:17.91	20.73	17.84	-38.1	-39.9	15.5	0.00e+00	0	56	0	1078984704	47	4538
2026-01-12 08:21:20.94	20.12	17.66	-37.9	-39.7	15.7	0.00e+00	0	56	0	1088421888	47	4417
2026-01-12 08:21:23.97	19.52	17.48	-37.9	-39.7	15.7	0.00e+00	0	56	0	1097859072	47	4415
2026-01-12 08:21:27.00	18.93	17.30	-38.0	-39.9	15.5	0.00e+00	0	56	0	1107296256	47	4508
2026-01-12 08:21:30.03	18.34	17.11	-38.2	-40.0	15.4	0.00e+00	0	56	0	1116733440	47	4593
2026-01-12 08:21:33.05	17.77	16.93	-38.4	-40.4	15.0	0.00e+00	0	56	0	1126170624	47	4768
2026-01-12 08:21:36.08	17.19	16.74	-38.6	-40.6	14.8	0.00e+00	0	56	0	1136656384	47	4879
2026-01-12 08:21:39.12	16.63	16.55	-38.5	-40.5	14.9	0.00e+00	0	56	0	1145044992	47	4837
2026-01-12 08:21:42.15	16.07	16.36	-38.2	-40.1	15.3	0.00e+00	0	56	0	1155530752	47	4599
2026-01-12 08:21:45.18	15.52	16.17	-38.3	-40.3	15.1	0.00e+00	0	56	0	1164967936	47	4716
2026-01-12 08:21:48.21	14.98	15.97	-38.6	-40.6	14.7	0.00e+00	0	56	0	1174405120	47	4902
2026-01-12 08:21:51.23	14.45	15.78	-38.5	-40.5	14.8	0.00e+00	0	56	0	1183842304	47	4828
2026-01-12 08:21:54.26	13.92	15.58	-38.4	-40.4	14.9	7.00e-07	0	56	0	1193279488	47	4775
2026-01-12 08:21:57.29	13.40	15.39	-38.6	-40.6	14.6	7.00e-07	0	56	0	1202716672	47	4905
2026-01-12 08:22:00.32	12.88	15.19	-38.7	-40.8	14.5	0.00e+00	0	56	0	1212153856	47	5001
2026-01-12 08:22:03.35	12.37	14.99	-38.8	-40.9	14.4	2.20e-06	0	56	0	1221591040	48	4799
2026-01-12 08:22:06.38	11.87	14.79	-38.7	-40.7	14.5	0.00e+00	0	56	0	1231028224	48	4682
2026-01-12 08:22:09.41	11.38	14.59	-38.6	-40.6	14.6	1.50e-06	0	56	0	1240465408	48	4603
2026-01-12 08:22:12.44	10.89	14.40	-38.5	-40.5	14.6	7.00e-07	0	56	0	1249902592	48	4594
2026-01-12 08:22:15.47	10.41	14.20	-38.5	-40.5	14.7	0.00e+00	0	56	0	1259339776	48	4554
2026-01-12 08:22:18.50	9.94	14.00	-38.4	-40.4	14.6	7.00e-07	0	56	0	1268776960	48	4532
2026-01-12 08:22:21.53	9.47	13.79	-38.4	-40.4	14.6	7.00e-07	0	56	0	1278214144	48	4528
2026-01-12 08:22:24.56	9.01	13.59	-38.6	-40.8	14.1	4.50e-06	0	56	0	1287651328	48	4735
2026-01-12 08:22:27.59	8.55	13.39	-38.5	-40.6	14.2	4.50e-06	0	57	0	1297088512	48	4621
2026-01-12 08:22:30.62	8.10	13.19	-38.5	-40.7	13.8	6.80e-06	0	56	0	1306525696	48	4693
2026-01-12 08:22:33.65	7.66	12.99	-38.7	-41.2	13.0	3.66e-05	0	56	0	1315962880	48	4980
2026-01-12 08:22:36.68	7.23	12.79	-38.7	-41.3	12.9	3.28e-05	0	57	0	1325400064	48	4997
2026-01-12 08:22:39.71	6.80	12.59	-38.9	-41.6	12.4	1.11e-04	0	56	0	1334837248	48	5218
2026-01-12 08:22:42.75	6.37	12.39	-38.9	-41.8	11.9	3.68e-04	0	56	0	1344274432	48	5327
2026-01-12 08:22:45.78	5.95	12.19	-39.2	-42.9	10.3	2.85e-03	0	56	0	1353711616	49	5682
2026-01-12 08:22:48.81	5.54	11.99	-39.8	-44.7	7.9	5.54e-02	0	56	0	1363148800	50	6638
2026-01-12 08:22:51.84	5.13	11.79	-40.4	-47.7	5.2	5.63e-01	0	56	0	1372585984	51	8768
2026-01-12 08:22:54.87	4.73	11.58	-40.6	-51.2	3.9	1.48e+00	0	57	104	1374683136	51	13217
2026-01-12 08:22:57.90	4.34	11.38	-40.1	-52.5	3.8	1.49e+00	0	56	104	1374683136	52	14451
2026-01-12 08:23:00.93	3.95	11.19	-40.0	-52.5	3.8	1.49e+00	0	57	104	1374683136	52	14415
2026-01-12 08:23:03.96	3.56	10.99	-40.0	-52.4	3.8	1.49e+00	0	57	104	1374683136	52	14264
2026-01-12 08:23:06.99	3.18	10.79	-40.0	-52.4	3.8	1.49e+00	0	57	104	1374683136	51	15112
2026-01-12 08:23:10.02	2.81	10.59	-40.2	-52.6	3.8	1.49e+00	0	57	104	1374683136	51	15409
2026-01-12 08:23:13.05	2.44	10.39	-40.1	-52.6	3.8	1.49e+00	0	56	104	1374683136	51	15501
2026-01-12 08:23:16.08	2.07	10.19	-40.0	-52.4	3.8	1.49e+00	0	57	104	1374683136	51	15160
2026-01-12 08:23:19.11	1.72	9.99	-39.9	-52.4	3.8	1.49e+00	0	57	104	1374683136	51	15162
2026-01-12 08:23:22.14	1.36	9.80	-39.8	-52.2	3.8	1.49e+00	0	57	104	1374683136	51	14862
2026-01-12 08:23:25.17	1.01	9.60	-39.5	-52.2	3.8	1.49e+00	0	57	104	1374683136	51	14803
2026-01-12 08:23:28.20	0.67	9.41	-39.5	-52.2	3.8	1.49e+00	0	57	104	1374683136	51	14800
2026-01-12 08:23:31.23	0.33	9.21	-39.3	-52.3	3.8	1.49e+00	0	57	104	1374683136	50	15780
2026-01-12 08:23:34.26	360.00	9.02	-39.6	-52.2	3.8	1.49e+00	0	57	104	1374683136	50	15697
2026-01-12 08:23:37.29	359.67	8.82	-39.1	-52.2	3.8	1.49e+00	0	57	104	1374683136	50	15745
2026-01-12 08:23:40.32	359.34	8.63	-39.2	-52.2	3.8	1.49e+00	0	57	104	1374683136	50	15757
2026-01-12 08:23:43.35	359.02	8.44	-39.3	-52.2	3.8	1.49e+00	0	57	104	1374683136	50	15666
2026-01-12 08:23:46.38	358.70	8.24	-39.2	-52.1	3.8	1.49e+00	0	57	104	1374683136	50	15505
2026-01-12 08:23:49.41	358.39	8.05	-38.7	-52.0	3.8	1.49e+00	0	57	104	1374683136	49	16287
2026-01-12 08:23:52.44	358.08	7.86	-44.5	-56.6	3.8	1.49e+00	0	57	104	1374683136	59	15547
2026-01-12 08:23:55.47	357.78	7.67	-45.1	-57.4	3.8	1.49e+00	0	57	104	1374683136	60	16108
2026-01-12 08:23:58.51	357.48	7.48	-45.2	-57.7	3.8	1.49e+00	0	57	104	1374683136	61	15593
2026-01-12 08:24:01.54	357.18	7.29	-45.1	-57.5	3.8	1.49e+00	0	57	104	1374683136	60	16296
2026-01-12 08:24:04.57	356.89	7.10	-45.0	-57.5	3.8	1.49e+00	0	57	104	1374683136	60	16160
2026-01-12 08:24:07.61	356.60	6.91	-45.0	-57.4	3.8	1.49e+00	0	57	104	1374683136	60	16035
2026-01-12 08:24:10.64	356.31	6.73	-45.0	-57.3	3.8	1.49e+00	0	57	104	1374683136	60	15940
2026-01-12 08:24:13.67	356.03	6.54	-45.0	-57.4	3.8	1.49e+00	0	57	104	1374683136	60	15951
2026-01-12 08:24:16.70	355.76	6.35	-45.0	-57.4	3.8	1.49e+00	0	57	104	1374683136	60	15957
2026-01-12 08:24:19.74	355.48	6.17	-45.0	-57.4	3.8	1.49e+00	0	57	104	1374683136	60	15974
2026-01-12 08:24:22.77	355.21	5.98	-44.9	-57.4	3.8	1.49e+00	0	57	104	1374683136	60	15951
2026-01-12 08:24:25.80	354.95	5.80	-45.0	-57.4	3.8	1.49e+00	0	57	104	1374683136	60	15960
2026-01-12 08:24:28.83	354.68	5.62	-45.0	-57.3	3.8	1.49e+00	0	57	104	1374683136	60	15925
2026-01-12 08:24:31.87	354.42	5.43	-44.9	-57.3	3.8	1.49e+00	0	57	104	1374683136	60	15876
2026-01-12 08:24:34.90	354.17	5.25	-44.9	-57.3	3.8	1.49e+00	0	57	104	1374683136	60	15881
2026-01-12 08:24:37.93	353.91	5.07	-44.9	-57.3	3.8	1.49e+00	0	57	104	1374683136	60	15873
2026-01-12 08:24:40.97	353.66	4.89	-44.9	-57.3	3.8	1.49e+00	0	57	104	1374683136	60	15910
2026-01-12 08:24:44.00	353.42	4.71	-44.9	-57.3	3.8	1.49e+00	0	57	104	1374683136	60	15827
2026-01-12 08:24:47.03	353.18	4.53	-44.9	-57.3	3.8	1.49e+00	0	57	104	1374683136	60	15838
2026-01-12 08:24:50.06	352.94	4.36	-44.9	-57.3	3.8	1.49e+00	0	57	104	1374683136	60	15825
2026-01-12 08:24:53.10	352.70	4.18	-44.9	-57.3	3.8	1.49e+00	0	57	104	1374683136	60	15875
2026-01-12 08:24:56.13	352.46	4.00	-44.9	-57.3	3.8	1.49e+00	0	57	104	1374683136	60	15824
2026-01-12 08:24:59.16	352.23	3.82	-44.9	-57.3	3.8	1.49e+00	0	57	104	1374683136	60	15864
2026-01-12 08:25:02.20	352.00	3.65	-44.9	-57.3	3.8	1.49e+00	0	57	104	1374683136	60	15791
2026-01-12 08:25:05.23	351.78	3.47	-44.9	-57.3	3.8	1.49e+00	0	57	104	1374683136	60	15821
2026-01-12 08:25:08.26	351.56	3.30	-44.9	-57.3	3.8	1.49e+00	0	57	104	1374683136	60	15862
2026-01-12 08:25:11.29	351.34	3.13	-44.9	-57.3	3.8	1.49e+00	0	57	104	1374683136	60	15830
2026-01-12 08:25:14.33	351.12	2.95	-44.9	-57.3	3.8	1.49e+00	0	57	104	1374683136	60	15824
2026-01-12 08:25:17.36	350.91	2.78	-44.9	-57.3	3.8	1.49e+00	0	57	104	1374683136	60	15814
2026-01-12 08:25:20.39	350.69	2.61	-44.9	-57.3	3.8	1.49e+00	0	57	104	1374683136	60	15805
2026-01-12 08:25:23.42	350.48	2.44	-44.9	-57.3	3.8	1.49e+00	0	57	104	1374683136	60	15837
2026-01-12 08:25:26.45	350.28	2.27	-44.8	-57.3	3.8	1.49e+00	0	57	104	1374683136	60	15772
2026-01-12 08:25:29.49	350.07	2.10	-44.9	-57.3	3.8	1.49e+00	0	57	104	1374683136	60	15799
2026-01-12 08:25:32.52	349.87	1.93	-44.9	-57.3	3.8	1.49e+00	0	57	104	1374683136	60	15869

#Closed at: 2026-01-12 08:25:32
#Recorded file [1374 MB]: D:/lorett/data/31039_260112_111303.dat