passes_logs/2026/01/12/R2.0S_Moscow/R2.0S_Moscow__20260112_112104_FENGYUN_3D_rec.log

#Pass ID: 20260112_112104_FENGYUN 3D
#Satellite: FENGYUN 3D
#Configuration: FENGYUN 3D
#almurnet v.1.7.20251203
#Start time: 2026-01-12 11:21:05

#Version: 2.2.20231116
#Station: R2.0S_Moscow
#Location: 37.707566 lon 55.798166 lat
#TLE: 1 43010U 17072A   26011.26828046  .00000354  00000+0  18908-3 0  9991
#TLE: 2 43010  98.9936 343.0270 0002205 114.1788 245.9618 14.19695184422722

#Time	Az	El	Level	Level2	SNR	BER	BlckErr	Temp	State	Recorded	gain1	gain2
2026-01-12 11:21:05.97	142.71	2.12	-43.2	-54.7	3.8	8.47e-01	0	50	0	0	56	14862
2026-01-12 11:21:10.00	142.62	2.38	-43.1	-54.5	3.7	8.45e-01	0	50	104	0	55	15356
2026-01-12 11:21:14.05	142.52	2.64	-43.2	-54.7	3.8	8.46e-01	0	50	104	0	56	14828
2026-01-12 11:21:18.09	142.41	2.91	-43.2	-54.7	3.8	8.46e-01	0	51	104	0	57	13916
2026-01-12 11:21:22.13	142.31	3.17	-43.2	-54.7	3.8	8.46e-01	0	51	104	0	57	13960
2026-01-12 11:21:26.18	142.20	3.44	-43.2	-54.7	3.8	8.48e-01	0	51	104	0	57	13925
2026-01-12 11:21:30.22	142.10	3.71	-43.2	-54.7	3.8	8.46e-01	0	51	104	0	57	14009
2026-01-12 11:21:34.27	141.98	3.98	-43.2	-54.7	3.8	8.45e-01	0	52	104	0	57	13944
2026-01-12 11:21:38.32	141.87	4.26	-43.2	-54.7	3.8	8.46e-01	0	52	104	0	57	13906
2026-01-12 11:21:42.36	141.76	4.54	-42.2	-54.3	3.8	8.45e-01	0	52	104	0	56	14128
2026-01-12 11:21:46.41	141.64	4.82	-43.2	-54.7	3.8	8.47e-01	0	52	104	0	57	13888
2026-01-12 11:21:50.45	141.52	5.10	-43.2	-54.5	3.8	8.47e-01	0	53	104	0	56	14530
2026-01-12 11:21:54.49	141.40	5.39	-43.1	-54.3	3.8	8.46e-01	0	53	104	0	56	14189
2026-01-12 11:21:58.54	141.27	5.68	-37.9	-50.5	4.2	8.47e-01	0	53	104	0	48	14443
2026-01-12 11:22:02.58	141.14	5.97	-42.7	-53.4	3.8	8.46e-01	0	54	104	0	56	12687
2026-01-12 11:22:06.62	141.01	6.27	-42.9	-52.8	3.9	8.45e-01	0	53	104	0	56	11819
2026-01-12 11:22:10.67	140.88	6.57	-42.9	-52.9	3.9	8.45e-01	0	54	104	0	56	12010
2026-01-12 11:22:14.71	140.74	6.87	-43.1	-54.1	3.8	8.46e-01	0	54	104	0	56	13881
2026-01-12 11:22:18.76	140.60	7.18	-43.2	-54.3	3.8	8.47e-01	0	54	104	0	56	14100
2026-01-12 11:22:22.80	140.46	7.49	-42.1	-49.0	4.9	8.05e-01	0	54	0	0	54	8633
2026-01-12 11:22:26.85	140.31	7.81	-40.6	-44.7	8.6	4.39e-02	0	54	0	15728640	51	6210
2026-01-12 11:22:30.89	140.16	8.12	-38.9	-50.0	4.4	5.42e-01	0	55	0	37748736	54	9654
2026-01-12 11:22:34.93	140.01	8.44	-42.6	-52.6	3.9	3.68e-01	0	55	0	48234496	55	12339
2026-01-12 11:22:38.97	139.85	8.77	-38.5	-42.0	10.7	3.40e-03	0	55	0	66060288	48	5404
2026-01-12 11:22:43.01	139.69	9.10	-38.4	-40.7	10.4	1.13e-01	0	55	0	88080384	46	5269
2026-01-12 11:22:47.05	139.53	9.43	-37.3	-40.3	10.7	6.69e-02	0	55	0	110100480	44	5619
2026-01-12 11:22:51.09	139.36	9.77	-37.4	-41.9	8.5	3.48e-02	0	55	0	132120576	43	7128
2026-01-12 11:22:55.14	139.18	10.11	-40.8	-45.4	7.5	3.77e-01	0	56	0	148897792	52	6407
2026-01-12 11:22:59.18	139.01	10.46	-39.6	-43.1	9.6	2.74e-01	0	56	0	166723584	46	6886
2026-01-12 11:23:03.22	138.82	10.81	-35.5	-39.9	13.1	4.41e-02	0	56	0	187695104	45	5050
2026-01-12 11:23:07.26	138.64	11.17	-36.5	-41.2	10.3	5.12e-02	0	56	0	209715200	46	5552
2026-01-12 11:23:11.29	138.45	11.53	-36.4	-40.9	11.5	3.34e-02	0	56	0	231735296	46	5360
2026-01-12 11:23:15.33	138.25	11.89	-37.9	-40.5	11.6	1.49e-02	0	56	0	253755392	44	5751
2026-01-12 11:23:19.37	138.05	12.26	-34.8	-40.5	11.7	8.84e-02	0	56	0	275775488	42	6440
2026-01-12 11:23:23.41	137.84	12.64	-37.1	-40.3	12.4	2.07e-01	0	56	0	295698432	41	6716
2026-01-12 11:23:27.46	137.63	13.02	-36.1	-40.4	10.1	7.93e-02	0	56	0	315621376	38	8026
2026-01-12 11:23:31.50	137.41	13.41	-36.5	-40.3	11.2	6.77e-02	0	57	0	336592896	44	5629
2026-01-12 11:23:35.54	137.19	13.81	-37.9	-40.4	12.8	4.06e-02	0	57	0	358612992	46	5058
2026-01-12 11:23:39.58	136.95	14.21	-37.0	-40.2	12.7	5.32e-02	0	57	0	379584512	45	5243
2026-01-12 11:23:43.61	136.72	14.61	-37.5	-40.1	12.9	4.88e-02	0	57	0	399507456	46	4885
2026-01-12 11:23:47.65	136.47	15.02	-36.5	-40.0	11.7	2.09e-01	0	57	0	420478976	44	5454
2026-01-12 11:23:51.70	136.22	15.44	-33.5	-40.0	13.3	1.27e-01	0	57	0	439353344	43	5753
2026-01-12 11:23:55.74	135.96	15.87	-36.3	-39.7	13.2	7.14e-02	0	57	0	461373440	45	4949
2026-01-12 11:23:59.78	135.69	16.30	-37.3	-39.4	14.5	3.95e-02	0	57	0	483393536	45	4782
2026-01-12 11:24:03.82	135.42	16.74	-35.8	-39.1	15.1	4.98e-03	0	57	0	504365056	45	4633
2026-01-12 11:24:07.86	135.14	17.19	-37.1	-39.0	15.2	7.18e-03	0	57	0	527433728	44	4846
2026-01-12 11:24:11.90	134.84	17.64	-36.9	-38.9	15.5	2.29e-03	0	57	0	550502400	44	4814
2026-01-12 11:24:15.95	134.54	18.11	-34.6	-38.7	14.4	9.97e-03	0	57	0	572522496	44	4688
2026-01-12 11:24:19.99	134.23	18.58	-36.7	-38.7	15.7	1.15e-03	0	57	0	595591168	44	4667
2026-01-12 11:24:24.03	133.91	19.06	-36.7	-38.6	15.6	1.46e-03	0	57	0	618659840	44	4624
2026-01-12 11:24:28.06	133.57	19.54	-36.5	-38.3	16.1	3.73e-04	0	57	0	640679936	43	4717
2026-01-12 11:24:32.10	133.23	20.04	-36.2	-37.9	16.5	1.94e-05	0	58	0	663748608	43	4534
2026-01-12 11:24:36.14	132.87	20.54	-36.3	-38.0	16.6	2.28e-05	0	57	0	685768704	43	4561
2026-01-12 11:24:40.18	132.51	21.05	-36.3	-38.0	16.6	0.00e+00	0	58	0	708837376	43	4559
2026-01-12 11:24:44.23	132.13	21.58	-36.2	-37.9	16.6	0.00e+00	0	58	0	731906048	43	4520
2026-01-12 11:24:48.26	131.73	22.11	-36.0	-37.6	17.0	0.00e+00	0	58	0	753926144	43	4366
2026-01-12 11:24:52.31	131.32	22.65	-35.8	-37.4	17.2	0.00e+00	0	58	0	776994816	43	4261
2026-01-12 11:24:56.34	130.90	23.20	-35.9	-37.5	17.2	0.00e+00	0	58	0	800063488	43	4307
2026-01-12 11:25:00.38	130.46	23.77	-35.9	-37.6	17.1	0.00e+00	0	58	0	823132160	43	4346
2026-01-12 11:25:04.43	130.00	24.34	-35.7	-37.3	17.4	0.00e+00	0	58	0	845152256	43	4212
2026-01-12 11:25:08.47	129.53	24.93	-35.5	-37.0	17.6	0.00e+00	0	58	0	868220928	43	4095
2026-01-12 11:25:12.51	129.04	25.52	-35.6	-37.2	17.5	1.10e-06	0	58	0	890241024	42	4413
2026-01-12 11:25:16.55	128.53	26.13	-35.6	-37.2	17.5	0.00e+00	0	58	0	913309696	42	4418
2026-01-12 11:25:20.59	128.00	26.74	-35.5	-37.1	17.6	0.00e+00	0	58	0	936378368	42	4344
2026-01-12 11:25:24.63	127.45	27.37	-35.4	-36.9	17.8	0.00e+00	0	58	0	959447040	42	4291
2026-01-12 11:25:28.66	126.87	28.01	-35.8	-37.4	17.3	0.00e+00	0	58	0	981467136	42	4519
2026-01-12 11:25:32.71	126.27	28.66	-35.7	-37.3	17.5	0.00e+00	0	58	0	1004535808	42	4462
2026-01-12 11:25:36.75	125.65	29.33	-35.4	-36.9	17.8	0.00e+00	0	58	0	1027604480	42	4269
2026-01-12 11:25:40.79	124.99	30.00	-35.5	-37.1	17.7	0.00e+00	0	58	0	1049624576	42	4357
2026-01-12 11:25:44.83	124.31	30.69	-35.6	-37.1	17.7	0.00e+00	0	58	0	1072693248	42	4382
2026-01-12 11:25:48.87	123.60	31.39	-35.2	-36.7	18.1	0.00e+00	0	58	0	1094713344	42	4157
2026-01-12 11:25:52.91	122.86	32.10	-35.1	-36.6	18.2	0.00e+00	0	58	0	1117782016	42	4106
2026-01-12 11:25:56.95	122.08	32.82	-35.3	-36.8	18.0	0.00e+00	0	58	0	1140850688	42	4229
2026-01-12 11:26:00.99	121.27	33.55	-35.1	-36.6	18.2	0.00e+00	0	58	0	1163919360	42	4134
2026-01-12 11:26:05.03	120.42	34.30	-35.3	-36.8	18.0	0.00e+00	0	58	0	1185939456	42	4205
2026-01-12 11:26:09.07	119.53	35.05	-35.1	-36.6	18.1	0.00e+00	0	58	0	1209008128	42	4138
2026-01-12 11:26:13.11	118.60	35.82	-35.0	-36.5	18.3	0.00e+00	0	58	0	1232076800	42	4056
2026-01-12 11:26:17.15	117.62	36.59	-35.2	-36.7	18.2	0.00e+00	0	59	0	1254096896	42	4146
2026-01-12 11:26:21.20	116.59	37.38	-35.1	-36.5	18.3	0.00e+00	0	59	0	1277165568	42	4086
2026-01-12 11:26:25.24	115.51	38.17	-35.1	-36.6	18.2	0.00e+00	0	58	0	1300234240	42	4118
2026-01-12 11:26:29.28	114.38	38.96	-35.3	-36.8	18.1	0.00e+00	0	59	0	1322254336	42	4205
2026-01-12 11:26:33.32	113.19	39.76	-35.1	-36.6	18.3	0.00e+00	0	58	0	1345323008	42	4115
2026-01-12 11:26:37.36	111.94	40.57	-35.4	-36.9	18.0	0.00e+00	0	59	0	1368391680	42	4264
2026-01-12 11:26:41.40	110.62	41.38	-35.2	-36.7	18.2	0.00e+00	0	58	0	1390411776	42	4158
2026-01-12 11:26:45.44	109.24	42.18	-35.2	-36.7	18.3	0.00e+00	0	58	0	1413480448	42	4152
2026-01-12 11:26:49.48	107.78	42.99	-35.4	-36.9	18.1	0.00e+00	0	59	0	1436549120	42	4255
2026-01-12 11:26:53.52	106.25	43.79	-35.2	-36.7	18.2	0.00e+00	0	59	0	1458569216	42	4159
2026-01-12 11:26:57.56	104.65	44.58	-35.2	-36.6	18.3	0.00e+00	0	59	0	1481637888	42	4135
2026-01-12 11:27:01.61	102.95	45.36	-35.7	-37.2	17.8	0.00e+00	0	59	0	1504706560	42	4437
2026-01-12 11:27:05.64	101.18	46.12	-35.3	-36.8	18.2	0.00e+00	0	59	0	1526726656	42	4224
2026-01-12 11:27:09.68	99.32	46.87	-35.4	-36.8	18.2	0.00e+00	0	58	0	1549795328	42	4233
2026-01-12 11:27:13.73	97.36	47.60	-35.9	-37.4	17.6	0.00e+00	0	59	0	1572864000	42	4535
2026-01-12 11:27:17.77	95.32	48.30	-36.1	-37.7	17.4	0.00e+00	0	59	0	1594884096	42	4694
2026-01-12 11:27:21.81	93.18	48.97	-36.1	-37.6	17.5	0.00e+00	0	59	0	1617952768	42	4646
2026-01-12 11:27:25.85	90.95	49.61	-36.0	-37.5	17.6	0.00e+00	0	59	0	1641021440	43	4307
2026-01-12 11:27:29.89	88.63	50.20	-36.2	-37.7	17.3	0.00e+00	0	59	0	1664090112	43	4433
2026-01-12 11:27:33.93	86.22	50.75	-36.4	-38.1	17.0	0.00e+00	0	59	0	1686110208	43	4603
2026-01-12 11:27:37.97	83.72	51.25	-36.0	-37.6	17.6	0.00e+00	0	59	0	1709178880	43	4356
2026-01-12 11:27:42.01	81.15	51.70	-35.9	-37.4	17.7	0.00e+00	0	59	0	1731198976	43	4278
2026-01-12 11:27:46.05	78.50	52.08	-35.7	-37.2	18.0	0.00e+00	0	59	0	1754267648	43	4158
2026-01-12 11:27:50.09	75.78	52.41	-36.1	-37.7	17.5	0.00e+00	0	59	0	1777336320	43	4393
2026-01-12 11:27:54.13	73.01	52.67	-35.7	-37.2	18.0	0.00e+00	0	59	0	1800404992	43	4148
2026-01-12 11:27:58.17	70.20	52.85	-35.9	-37.3	17.8	0.00e+00	0	59	0	1822425088	43	4222
2026-01-12 11:28:02.21	67.36	52.97	-35.9	-37.4	17.8	0.00e+00	0	59	0	1845493760	43	4248
2026-01-12 11:28:06.25	64.51	53.02	-36.0	-37.5	17.7	0.00e+00	0	59	0	1868562432	43	4306
2026-01-12 11:28:10.29	61.65	52.99	-35.8	-37.3	17.9	0.00e+00	0	59	0	1890582528	43	4202
2026-01-12 11:28:14.33	58.80	52.89	-35.9	-37.4	17.7	0.00e+00	0	59	0	1913651200	43	4271
2026-01-12 11:28:18.37	55.98	52.72	-36.2	-37.8	17.3	0.00e+00	0	59	0	1935671296	43	4479
2026-01-12 11:28:22.42	53.20	52.48	-36.3	-37.9	17.2	0.00e+00	0	59	0	1958739968	43	4509
2026-01-12 11:28:26.46	50.47	52.17	-35.8	-37.3	17.8	0.00e+00	0	59	0	1981808640	43	4213
2026-01-12 11:28:30.49	47.82	51.80	-35.9	-37.4	17.7	0.00e+00	0	59	0	2004877312	43	4255
2026-01-12 11:28:34.54	45.22	51.36	-35.8	-37.3	17.8	0.00e+00	0	59	0	2026897408	43	4222
2026-01-12 11:28:38.58	42.70	50.88	-35.8	-37.3	17.8	0.00e+00	0	59	0	2049966080	43	4231
2026-01-12 11:28:42.62	40.28	50.34	-35.8	-37.3	17.8	0.00e+00	0	59	0	2073034752	43	4209
2026-01-12 11:28:46.66	37.94	49.76	-35.6	-37.0	18.0	0.00e+00	0	59	0	2095054848	43	4096
2026-01-12 11:28:50.70	35.69	49.14	-35.9	-37.4	17.6	0.00e+00	0	59	0	2118123520	43	4290
2026-01-12 11:28:54.74	33.53	48.48	-35.5	-36.9	18.2	0.00e+00	0	59	0	2141192192	43	4027
2026-01-12 11:28:58.78	31.47	47.78	-35.4	-36.8	18.2	0.00e+00	0	59	0	2163212288	42	4235
2026-01-12 11:29:02.82	29.50	47.07	-35.4	-36.8	18.2	0.00e+00	0	59	0	2186280960	42	4225
2026-01-12 11:29:06.86	27.62	46.32	-35.3	-36.7	18.3	0.00e+00	0	59	0	2209349632	42	4188
2026-01-12 11:29:10.90	25.83	45.56	-35.3	-36.7	18.3	0.00e+00	0	59	0	2231369728	42	4185
2026-01-12 11:29:14.94	24.12	44.79	-35.2	-36.6	18.4	0.00e+00	0	59	0	2254438400	42	4145
2026-01-12 11:29:18.98	22.50	44.00	-35.2	-36.7	18.4	0.00e+00	0	59	0	2277507072	42	4148
2026-01-12 11:29:23.02	20.96	43.21	-35.2	-36.5	18.8	0.00e+00	0	59	0	2299527168	42	4067
2026-01-12 11:29:27.06	19.49	42.41	-35.2	-36.5	18.8	0.00e+00	0	59	0	2322595840	42	4065
2026-01-12 11:29:31.10	18.09	41.60	-35.2	-36.5	18.8	0.00e+00	0	59	0	2345664512	42	4090
2026-01-12 11:29:35.14	16.76	40.80	-35.4	-36.8	18.4	0.00e+00	0	59	0	2367684608	42	4219
2026-01-12 11:29:39.19	15.50	40.00	-35.2	-36.4	18.8	0.00e+00	0	59	0	2390753280	42	4042
2026-01-12 11:29:43.23	14.30	39.20	-35.2	-36.5	18.7	0.00e+00	0	59	0	2413821952	42	4076
2026-01-12 11:29:47.26	13.16	38.40	-35.4	-36.8	18.4	0.00e+00	0	59	0	2435842048	42	4214
2026-01-12 11:29:51.30	12.07	37.62	-35.7	-37.1	18.2	0.00e+00	0	59	0	2458910720	42	4354
2026-01-12 11:29:55.34	11.03	36.83	-35.3	-36.7	18.5	0.00e+00	0	59	0	2481979392	42	4147
2026-01-12 11:29:59.38	10.04	36.06	-35.3	-36.6	18.6	0.00e+00	0	59	0	2505048064	42	4144
2026-01-12 11:30:03.42	9.10	35.30	-35.0	-36.3	18.9	0.00e+00	0	59	0	2527068160	42	3988
2026-01-12 11:30:07.46	8.20	34.54	-34.9	-36.2	18.9	0.00e+00	0	59	0	2550136832	41	4171
2026-01-12 11:30:11.50	7.35	33.80	-35.1	-36.4	18.7	0.00e+00	0	59	0	2572156928	41	4291
2026-01-12 11:30:15.54	6.53	33.07	-35.1	-36.4	18.7	0.00e+00	0	59	0	2595225600	41	4251
2026-01-12 11:30:19.58	5.75	32.34	-35.3	-36.7	18.4	0.00e+00	0	59	0	2618294272	41	4406
2026-01-12 11:30:23.62	5.00	31.63	-35.5	-36.9	18.2	0.00e+00	0	59	0	2640314368	41	4518
2026-01-12 11:30:27.65	4.28	30.94	-35.4	-36.8	18.3	0.00e+00	0	59	0	2663383040	41	4457
2026-01-12 11:30:31.69	3.60	30.25	-35.4	-36.7	18.3	0.00e+00	0	59	0	2686451712	41	4432
2026-01-12 11:30:35.73	2.94	29.57	-35.7	-37.1	17.9	0.00e+00	0	59	0	2709520384	41	4618
2026-01-12 11:30:39.77	2.31	28.91	-35.8	-37.3	17.8	0.00e+00	0	59	0	2731540480	42	4449
2026-01-12 11:30:43.81	1.71	28.26	-35.7	-37.1	17.9	0.00e+00	0	59	0	2754609152	42	4377
2026-01-12 11:30:47.84	1.13	27.62	-35.7	-37.1	17.9	0.00e+00	0	59	0	2776629248	42	4352
2026-01-12 11:30:51.88	0.58	26.99	-35.7	-37.1	17.8	0.00e+00	0	59	0	2799697920	42	4388
2026-01-12 11:30:55.92	0.05	26.37	-35.7	-37.1	17.8	0.00e+00	0	59	0	2822766592	42	4365
2026-01-12 11:30:59.96	359.53	25.76	-35.5	-36.9	18.0	0.00e+00	0	59	0	2844786688	42	4276
2026-01-12 11:31:04.01	359.04	25.17	-35.6	-37.0	17.8	0.00e+00	0	59	0	2867855360	42	4339
2026-01-12 11:31:08.04	358.56	24.58	-35.8	-37.2	17.6	0.00e+00	0	59	0	2890924032	42	4418
2026-01-12 11:31:12.08	358.11	24.01	-35.9	-37.4	17.4	0.00e+00	0	59	0	2912944128	42	4512
2026-01-12 11:31:16.12	357.67	23.45	-36.0	-37.5	17.3	0.00e+00	0	59	0	2936012800	42	4570
2026-01-12 11:31:20.16	357.24	22.89	-36.0	-37.5	17.2	0.00e+00	0	59	0	2959081472	42	4566
2026-01-12 11:31:24.21	356.83	22.35	-36.0	-37.6	17.0	0.00e+00	0	59	0	2981101568	42	4600
2026-01-12 11:31:28.25	356.44	21.82	-36.1	-37.7	16.6	0.00e+00	0	59	0	3004170240	42	4662
2026-01-12 11:31:32.29	356.06	21.29	-35.8	-37.4	16.4	0.00e+00	0	59	0	3027238912	42	4534
2026-01-12 11:31:36.33	355.69	20.78	-36.2	-38.0	15.6	0.00e+00	0	59	0	3050307584	42	4829
2026-01-12 11:31:40.37	355.33	20.27	-38.9	-41.9	11.2	7.80e-04	0	59	0	3072327680	48	5390
2026-01-12 11:31:44.41	354.99	19.78	-40.7	-47.1	5.5	4.21e-01	0	59	0	3094347776	51	8265
2026-01-12 11:31:48.45	354.66	19.29	-41.0	-51.3	3.8	8.44e-01	0	59	104	3095396352	52	12591
2026-01-12 11:31:52.49	354.34	18.81	-41.0	-52.7	3.8	8.46e-01	0	59	104	3095396352	52	14749
2026-01-12 11:31:56.53	354.02	18.34	-40.9	-52.7	3.8	8.47e-01	0	59	104	3095396352	53	13953
2026-01-12 11:32:00.57	353.72	17.88	-40.5	-52.4	3.8	8.46e-01	0	59	104	3095396352	52	14267
2026-01-12 11:32:04.61	353.43	17.42	-40.7	-52.5	3.8	8.46e-01	0	59	104	3095396352	52	14532
2026-01-12 11:32:08.65	353.15	16.97	-39.9	-52.4	3.8	8.47e-01	0	59	104	3095396352	51	15224
2026-01-12 11:32:12.69	352.87	16.53	-40.6	-52.6	3.8	8.46e-01	0	60	104	3095396352	52	14614
2026-01-12 11:32:16.72	352.61	16.10	-40.4	-52.6	3.8	8.46e-01	0	59	104	3095396352	51	15475
2026-01-12 11:32:20.76	352.35	15.68	-40.6	-52.5	3.8	8.46e-01	0	59	104	3095396352	51	15282
2026-01-12 11:32:24.80	352.10	15.26	-40.5	-52.4	3.8	8.46e-01	0	59	104	3095396352	52	14223
2026-01-12 11:32:28.84	351.86	14.84	-40.2	-52.5	3.8	8.47e-01	0	60	104	3095396352	51	15390
2026-01-12 11:32:32.89	351.62	14.44	-40.7	-52.4	3.8	8.47e-01	0	60	104	3095396352	52	14325
2026-01-12 11:32:36.92	351.39	14.04	-40.3	-52.6	3.8	8.45e-01	0	60	104	3095396352	52	14650
2026-01-12 11:32:40.96	351.17	13.64	-40.9	-52.5	3.8	8.46e-01	0	59	104	3095396352	52	14503
2026-01-12 11:32:45.00	350.95	13.25	-40.7	-52.5	3.8	8.46e-01	0	60	104	3095396352	52	14449
2026-01-12 11:32:49.04	350.74	12.87	-40.6	-52.3	3.8	8.46e-01	0	59	104	3095396352	52	14165
2026-01-12 11:32:53.08	350.54	12.49	-40.8	-52.5	3.8	8.46e-01	0	59	104	3095396352	52	14474
2026-01-12 11:32:57.12	350.34	12.12	-40.7	-52.4	3.8	8.46e-01	0	59	104	3095396352	52	14326
2026-01-12 11:33:01.16	350.14	11.75	-40.5	-52.4	3.8	8.47e-01	0	59	104	3095396352	52	14228
2026-01-12 11:33:05.20	349.96	11.39	-40.7	-52.4	3.8	8.46e-01	0	59	104	3095396352	52	14228
2026-01-12 11:33:09.23	349.77	11.04	-40.7	-52.5	3.8	8.45e-01	0	59	104	3095396352	52	14434
2026-01-12 11:33:13.27	349.59	10.69	-40.7	-52.4	3.8	8.46e-01	0	60	104	3095396352	52	14350
2026-01-12 11:33:17.31	349.42	10.34	-40.8	-52.6	3.8	8.46e-01	0	59	104	3095396352	52	14565
2026-01-12 11:33:21.35	349.25	10.00	-40.8	-52.6	3.8	8.45e-01	0	59	104	3095396352	52	14544
2026-01-12 11:33:25.40	349.08	9.66	-40.8	-52.6	3.8	8.47e-01	0	59	104	3095396352	52	14610
2026-01-12 11:33:29.44	348.92	9.32	-40.9	-52.6	3.8	8.46e-01	0	60	104	3095396352	52	14627
2026-01-12 11:33:33.47	348.76	8.99	-41.0	-52.7	3.8	8.46e-01	0	60	104	3095396352	52	14709
2026-01-12 11:33:37.51	348.61	8.67	-40.9	-52.6	3.8	8.45e-01	0	59	104	3095396352	52	14623
2026-01-12 11:33:41.55	348.46	8.35	-40.9	-52.6	3.8	8.46e-01	0	60	104	3095396352	52	14544
2026-01-12 11:33:45.59	348.31	8.03	-40.9	-52.5	3.8	8.46e-01	0	59	104	3095396352	52	14423
2026-01-12 11:33:49.63	348.17	7.72	-44.7	-56.4	3.8	8.47e-01	0	60	104	3095396352	60	14240
2026-01-12 11:33:53.68	348.03	7.40	-44.6	-56.7	3.8	8.47e-01	0	60	104	3095396352	60	14768
2026-01-12 11:33:57.72	347.89	7.10	-45.2	-56.8	3.8	8.45e-01	0	60	104	3095396352	60	14952
2026-01-12 11:34:01.76	347.76	6.79	-45.1	-56.7	3.8	8.46e-01	0	60	104	3095396352	60	14724
2026-01-12 11:34:05.81	347.63	6.49	-45.0	-56.6	3.8	8.46e-01	0	60	104	3095396352	60	14643
2026-01-12 11:34:09.85	347.50	6.20	-45.0	-56.6	3.8	8.46e-01	0	59	104	3095396352	60	14666
2026-01-12 11:34:13.90	347.38	5.90	-45.0	-56.6	3.8	8.46e-01	0	60	104	3095396352	60	14650
2026-01-12 11:34:17.94	347.26	5.61	-45.0	-56.6	3.8	8.47e-01	0	60	104	3095396352	60	14552
2026-01-12 11:34:21.99	347.14	5.33	-45.0	-56.6	3.8	8.47e-01	0	60	104	3095396352	60	14579
2026-01-12 11:34:26.03	347.02	5.04	-45.0	-56.6	3.8	8.46e-01	0	60	104	3095396352	60	14599
2026-01-12 11:34:30.07	346.91	4.76	-45.0	-56.6	3.8	8.46e-01	0	60	104	3095396352	60	14569
2026-01-12 11:34:34.11	346.80	4.48	-44.9	-56.5	3.8	8.46e-01	0	60	104	3095396352	60	14536
2026-01-12 11:34:38.16	346.69	4.20	-45.0	-56.6	3.8	8.46e-01	0	60	104	3095396352	60	14550
2026-01-12 11:34:42.20	346.58	3.93	-44.9	-56.5	3.8	8.46e-01	0	60	104	3095396352	60	14510
2026-01-12 11:34:46.24	346.48	3.66	-45.0	-56.5	3.8	8.46e-01	0	60	104	3095396352	60	14494
2026-01-12 11:34:50.29	346.38	3.39	-45.0	-56.5	3.8	8.45e-01	0	60	104	3095396352	60	14538
2026-01-12 11:34:54.33	346.28	3.13	-45.0	-56.6	3.8	8.47e-01	0	60	104	3095396352	60	14545
2026-01-12 11:34:58.38	346.18	2.86	-45.0	-56.5	3.8	8.46e-01	0	60	104	3095396352	60	14477
2026-01-12 11:35:02.42	346.08	2.60	-44.9	-56.5	3.8	8.46e-01	0	60	104	3095396352	60	14516
2026-01-12 11:35:06.46	345.99	2.34	-44.8	-56.5	3.8	8.46e-01	0	60	104	3095396352	60	14468
2026-01-12 11:35:10.51	345.90	2.09	-45.0	-56.5	3.8	8.46e-01	0	60	104	3095396352	60	14513

#Closed at: 2026-01-12 11:35:14
#Recorded file [3095 MB]: D:/lorett/data/31039_260112_142105.dat