passes_logs/2026/01/12/R2.0S_Moscow/R2.0S_Moscow__20260112_020640_AQUA_rec.log

#Pass ID: 20260112_020640_AQUA
#Satellite: AQUA
#Configuration: AQUA
#almurnet v.1.7.20251203
#Start time: 2026-01-12 02:06:42

#Version: 2.2.20231116
#Station: R2.0S_Moscow
#Location: 37.707566 lon 55.798166 lat
#TLE: 1 27424U 02022A   26011.34052177  .00001139  00000+0  23789-3 0  9999
#TLE: 2 27424  98.4078 337.7066 0002035  82.6124  44.5301 14.61815662260355

#Time	Az	El	Level	Level2	SNR	BER	BlckErr	Temp	State	Recorded	gain1	gain2
2026-01-12 02:06:42.38	11.11	2.11	-40.6	-59.5	3.8	7.46e-01	0	47	0	0	53	30561
2026-01-12 02:06:45.42	11.00	2.30	-40.7	-59.6	3.8	7.46e-01	0	48	104	0	51	34503
2026-01-12 02:06:48.45	10.89	2.50	-40.7	-59.6	3.8	7.42e-01	0	48	104	0	51	34491
2026-01-12 02:06:51.48	10.77	2.70	-40.7	-59.5	3.8	7.48e-01	0	48	104	0	51	34459
2026-01-12 02:06:54.52	10.65	2.90	-40.7	-59.6	3.8	7.47e-01	0	48	104	0	51	34524
2026-01-12 02:06:57.55	10.53	3.10	-40.7	-59.5	3.8	7.42e-01	0	49	104	0	51	34470
2026-01-12 02:07:00.58	10.41	3.30	-40.7	-59.5	3.8	7.48e-01	0	49	104	0	51	34460
2026-01-12 02:07:03.62	10.29	3.51	-40.7	-59.5	3.8	7.48e-01	0	49	104	0	51	34409
2026-01-12 02:07:06.65	10.16	3.71	-40.7	-59.5	3.8	7.46e-01	0	49	104	0	51	34433
2026-01-12 02:07:09.68	10.03	3.92	-40.7	-59.5	3.8	7.43e-01	0	49	104	0	51	34459
2026-01-12 02:07:12.71	9.90	4.13	-40.7	-59.6	3.8	7.45e-01	0	50	104	0	51	34489
2026-01-12 02:07:15.74	9.77	4.34	-40.7	-59.5	3.8	7.46e-01	0	50	104	0	51	34441
2026-01-12 02:07:18.78	9.63	4.56	-40.7	-59.5	3.8	7.44e-01	0	50	104	0	51	34459
2026-01-12 02:07:21.81	9.50	4.77	-40.7	-59.5	3.8	7.42e-01	0	50	104	0	51	34448
2026-01-12 02:07:24.84	9.36	4.99	-40.7	-59.6	3.8	7.42e-01	0	50	104	0	51	34525
2026-01-12 02:07:27.88	9.21	5.21	-40.7	-59.5	3.8	7.46e-01	0	50	104	0	51	34463
2026-01-12 02:07:30.91	9.07	5.43	-40.7	-59.5	3.8	7.46e-01	0	51	104	0	51	34427
2026-01-12 02:07:33.95	8.92	5.65	-40.7	-59.5	3.8	7.49e-01	0	51	104	0	51	34407
2026-01-12 02:07:36.98	8.77	5.87	-40.7	-59.5	3.8	7.49e-01	0	51	104	0	51	34400
2026-01-12 02:07:40.01	8.62	6.10	-40.7	-59.5	3.8	7.47e-01	0	51	104	0	51	34420
2026-01-12 02:07:43.04	8.46	6.33	-40.7	-59.5	3.8	7.46e-01	0	51	104	0	51	34417
2026-01-12 02:07:46.08	8.30	6.56	-40.7	-59.5	3.8	7.44e-01	0	51	104	0	51	34334
2026-01-12 02:07:49.11	8.14	6.79	-40.7	-59.5	3.8	7.46e-01	0	52	104	0	51	34424
2026-01-12 02:07:52.14	7.97	7.02	-40.6	-59.5	3.8	7.47e-01	0	51	104	0	51	34391
2026-01-12 02:07:55.18	7.80	7.26	-40.7	-59.5	3.8	7.45e-01	0	52	104	0	51	34383
2026-01-12 02:07:58.21	7.63	7.50	-40.6	-59.5	3.8	7.45e-01	0	52	104	0	51	34417
2026-01-12 02:08:01.24	7.46	7.74	-40.7	-59.5	3.8	7.49e-01	0	52	104	0	51	34353
2026-01-12 02:08:04.26	7.28	7.98	-40.7	-59.5	3.8	7.46e-01	0	52	104	0	51	34424
2026-01-12 02:08:07.29	7.10	8.23	-40.7	-59.6	3.8	7.46e-01	0	52	104	0	52	32666
2026-01-12 02:08:10.32	6.91	8.47	-40.6	-59.5	3.8	7.48e-01	0	52	104	0	52	32441
2026-01-12 02:08:13.35	6.73	8.72	-40.7	-59.6	3.8	7.46e-01	0	52	104	0	52	32616
2026-01-12 02:08:16.38	6.53	8.98	-40.6	-59.5	3.8	7.45e-01	0	52	104	0	52	32240
2026-01-12 02:08:19.41	6.34	9.23	-40.7	-59.6	3.8	7.44e-01	0	53	104	0	52	32802
2026-01-12 02:08:22.44	6.14	9.49	-40.6	-59.5	3.8	7.49e-01	0	53	104	0	52	32281
2026-01-12 02:08:25.46	5.93	9.75	-40.8	-59.7	3.8	7.42e-01	0	53	104	0	52	33283
2026-01-12 02:08:28.50	5.72	10.01	-40.8	-59.7	3.8	7.49e-01	0	53	104	0	52	33178
2026-01-12 02:08:31.53	5.51	10.28	-40.6	-59.5	3.8	7.46e-01	0	53	104	0	52	32319
2026-01-12 02:08:34.56	5.29	10.55	-40.6	-59.5	3.8	7.44e-01	0	53	104	0	52	32533
2026-01-12 02:08:37.59	5.07	10.82	-40.9	-59.8	3.8	7.49e-01	0	53	104	0	53	31713
2026-01-12 02:08:40.61	4.84	11.10	-41.2	-58.7	3.8	7.47e-01	0	53	104	0	53	27951
2026-01-12 02:08:43.64	4.61	11.37	-41.1	-59.5	3.8	7.49e-01	0	54	104	0	53	30686
2026-01-12 02:08:46.67	4.38	11.65	-41.3	-58.9	3.9	7.47e-01	0	53	104	0	54	27048
2026-01-12 02:08:49.70	4.13	11.94	-43.2	-60.3	3.8	7.46e-01	0	53	104	0	56	28163
2026-01-12 02:08:52.73	3.89	12.23	-42.1	-56.4	4.0	7.36e-01	0	53	104	0	54	20134
2026-01-12 02:08:55.76	3.63	12.52	-42.1	-55.5	5.2	7.06e-01	30	54	0	524288	54	18249
2026-01-12 02:08:58.79	3.37	12.81	-42.3	-55.6	5.1	7.04e-01	0	54	104	524288	55	17337
2026-01-12 02:09:01.82	3.11	13.11	-42.0	-49.4	11.6	6.10e-01	0	54	0	5767168	55	8522
2026-01-12 02:09:04.85	2.84	13.41	-41.2	-45.9	15.9	6.03e-01	0	54	0	11010048	54	6046
2026-01-12 02:09:07.88	2.56	13.71	-40.6	-44.3	17.7	6.02e-01	0	54	0	16777216	53	5315
2026-01-12 02:09:10.91	2.28	14.02	-40.4	-43.9	18.2	6.03e-01	0	54	0	22544384	52	5368
2026-01-12 02:09:13.94	1.99	14.33	-40.2	-43.5	18.6	6.04e-01	0	54	0	28311552	52	5154
2026-01-12 02:09:16.97	1.69	14.65	-39.5	-42.2	20.1	6.02e-01	0	54	0	34078720	51	4685
2026-01-12 02:09:20.00	1.39	14.97	-39.5	-42.1	20.5	6.02e-01	0	54	0	39845888	50	4880
2026-01-12 02:09:23.02	1.08	15.29	-39.3	-41.7	21.2	6.04e-01	0	54	0	45613056	50	4683
2026-01-12 02:09:26.05	0.76	15.62	-39.2	-41.4	21.5	6.04e-01	0	54	0	50855936	50	4544
2026-01-12 02:09:29.08	0.43	15.95	-39.2	-41.4	21.7	6.03e-01	0	54	0	56623104	50	4527
2026-01-12 02:09:32.11	0.10	16.28	-39.2	-41.4	21.7	6.02e-01	0	54	0	62390272	50	4520
2026-01-12 02:09:35.14	359.75	16.62	-39.2	-41.4	21.7	6.06e-01	0	54	0	68157440	50	4514
2026-01-12 02:09:38.17	359.40	16.97	-39.2	-41.4	21.8	6.04e-01	0	54	0	73924608	50	4512
2026-01-12 02:09:41.19	359.04	17.31	-39.3	-41.5	21.7	6.02e-01	0	54	0	79167488	50	4562
2026-01-12 02:09:44.22	358.67	17.67	-39.2	-41.4	21.8	6.06e-01	0	54	0	84934656	50	4501
2026-01-12 02:09:47.25	358.29	18.02	-39.1	-41.3	21.7	6.05e-01	0	54	0	90701824	50	4453
2026-01-12 02:09:50.27	357.91	18.38	-39.4	-41.8	21.1	6.04e-01	0	54	0	96468992	50	4726
2026-01-12 02:09:53.30	357.51	18.75	-39.1	-41.5	21.4	6.01e-01	0	54	0	102236160	50	4549
2026-01-12 02:09:56.33	357.10	19.12	-38.9	-41.2	21.5	6.05e-01	0	54	0	108003328	49	4673
2026-01-12 02:09:59.36	356.67	19.49	-39.2	-41.7	20.8	6.04e-01	0	55	0	113246208	49	4945
2026-01-12 02:10:02.39	356.24	19.87	-40.2	-43.5	18.6	6.03e-01	0	55	0	119013376	51	5416
2026-01-12 02:10:05.41	355.80	20.26	-40.5	-44.1	17.7	6.03e-01	0	55	0	124780544	51	5801
2026-01-12 02:10:08.44	355.34	20.64	-40.2	-43.2	19.2	6.03e-01	0	55	0	130547712	51	5242
2026-01-12 02:10:11.47	354.87	21.04	-38.6	-40.9	21.3	6.03e-01	0	55	0	136314880	49	4543
2026-01-12 02:10:14.50	354.39	21.44	-38.6	-41.0	21.2	6.02e-01	0	55	0	142082048	48	4833
2026-01-12 02:10:17.53	353.89	21.84	-39.0	-41.5	20.8	6.02e-01	0	55	0	147324928	48	5145
2026-01-12 02:10:20.55	353.39	22.25	-39.3	-41.7	20.8	6.02e-01	0	55	0	153092096	49	4982
2026-01-12 02:10:23.58	352.86	22.66	-39.9	-42.5	20.5	6.02e-01	0	55	0	158859264	50	5111
2026-01-12 02:10:26.61	352.32	23.08	-39.3	-41.5	21.6	6.02e-01	0	55	0	164626432	50	4593
2026-01-12 02:10:29.64	351.77	23.50	-39.6	-41.9	21.5	6.05e-01	0	55	0	170393600	50	4772
2026-01-12 02:10:32.67	351.19	23.93	-39.6	-41.8	21.6	6.04e-01	0	55	0	175636480	50	4739
2026-01-12 02:10:35.70	350.61	24.36	-39.4	-41.6	21.9	6.03e-01	0	55	0	181403648	50	4612
2026-01-12 02:10:38.73	350.00	24.79	-39.6	-41.8	21.8	6.02e-01	0	55	0	187170816	50	4713
2026-01-12 02:10:41.76	349.37	25.23	-39.7	-41.9	21.7	6.05e-01	0	55	0	192937984	50	4789
2026-01-12 02:10:44.79	348.73	25.68	-39.6	-41.8	21.8	6.04e-01	0	55	0	198705152	50	4748
2026-01-12 02:10:47.82	348.07	26.13	-39.5	-41.6	22.0	6.04e-01	0	55	0	204472320	50	4643
2026-01-12 02:10:50.84	347.39	26.58	-39.3	-41.4	22.2	6.02e-01	0	55	0	210239488	50	4534
2026-01-12 02:10:53.87	346.68	27.04	-39.3	-41.4	22.3	6.03e-01	0	55	0	215482368	50	4505
2026-01-12 02:10:56.90	345.96	27.50	-39.5	-41.7	22.0	6.03e-01	0	55	0	221249536	50	4663
2026-01-12 02:10:59.93	345.21	27.96	-39.3	-41.3	22.4	6.04e-01	0	55	0	227016704	50	4490
2026-01-12 02:11:02.96	344.44	28.43	-39.2	-41.2	22.5	6.01e-01	0	55	0	232783872	50	4399
2026-01-12 02:11:05.98	343.65	28.89	-39.1	-41.1	22.7	6.04e-01	0	55	0	238551040	50	4365
2026-01-12 02:11:09.01	342.83	29.37	-39.1	-41.1	22.7	6.04e-01	0	55	0	243793920	50	4362
2026-01-12 02:11:12.04	341.98	29.84	-39.2	-41.2	22.6	6.04e-01	0	55	0	249561088	50	4410
2026-01-12 02:11:15.07	341.11	30.31	-39.1	-41.1	22.8	6.06e-01	0	55	0	255328256	50	4355
2026-01-12 02:11:18.10	340.21	30.79	-39.1	-41.0	22.8	6.02e-01	0	55	0	261095424	50	4330
2026-01-12 02:11:21.13	339.29	31.27	-39.1	-41.1	22.8	6.04e-01	0	55	0	266862592	50	4344
2026-01-12 02:11:24.16	338.33	31.74	-39.1	-41.1	22.8	6.04e-01	0	55	0	272629760	50	4365
2026-01-12 02:11:27.19	337.35	32.22	-39.0	-40.9	23.0	6.03e-01	0	55	0	278396928	50	4278
2026-01-12 02:11:30.22	336.33	32.69	-39.2	-41.2	22.7	6.05e-01	0	55	0	283639808	50	4431
2026-01-12 02:11:33.25	335.28	33.16	-39.2	-41.2	22.7	6.02e-01	0	55	0	289406976	50	4406
2026-01-12 02:11:36.28	334.20	33.63	-39.4	-41.4	22.5	6.04e-01	0	55	0	295174144	50	4541
2026-01-12 02:11:39.30	333.10	34.09	-39.5	-41.5	22.4	6.05e-01	0	55	0	300941312	50	4590
2026-01-12 02:11:42.33	331.95	34.55	-39.9	-42.0	21.9	6.02e-01	0	56	0	306708480	50	4862
2026-01-12 02:11:45.36	330.77	35.01	-39.7	-41.8	22.1	6.02e-01	0	56	0	311951360	50	4748
2026-01-12 02:11:48.39	329.56	35.45	-39.9	-42.0	21.9	6.04e-01	0	55	0	317718528	50	4856
2026-01-12 02:11:51.42	328.32	35.89	-40.2	-42.4	21.5	6.03e-01	0	55	0	323485696	50	5088
2026-01-12 02:11:54.45	327.03	36.32	-40.2	-42.4	21.6	6.03e-01	0	56	0	329252864	50	5092
2026-01-12 02:11:57.48	325.72	36.74	-40.4	-42.8	21.3	6.04e-01	0	56	0	335020032	51	5010
2026-01-12 02:12:00.51	324.37	37.14	-40.3	-42.6	21.4	6.03e-01	0	56	0	340787200	51	4896
2026-01-12 02:12:03.53	322.99	37.53	-40.7	-43.1	20.9	6.03e-01	0	55	0	346554368	51	5206
2026-01-12 02:12:06.56	321.57	37.91	-40.5	-42.9	21.1	6.02e-01	0	55	0	351797248	52	4765
2026-01-12 02:12:09.59	320.12	38.28	-40.7	-43.2	20.8	6.03e-01	0	56	0	357564416	52	4951
2026-01-12 02:12:12.62	318.63	38.62	-40.5	-42.8	21.2	6.03e-01	0	55	0	363331584	52	4747
2026-01-12 02:12:15.65	317.11	38.95	-40.7	-43.2	20.9	6.02e-01	0	55	0	369098752	52	4940
2026-01-12 02:12:18.67	315.57	39.26	-40.5	-42.9	21.1	6.05e-01	0	56	0	374865920	52	4812
2026-01-12 02:12:21.70	313.99	39.54	-40.3	-42.6	21.3	6.02e-01	0	56	0	380108800	52	4642
2026-01-12 02:12:24.73	312.38	39.81	-40.4	-42.7	21.2	6.04e-01	0	56	0	385875968	52	4697
2026-01-12 02:12:27.76	310.75	40.05	-40.3	-42.6	21.5	6.03e-01	0	56	0	391643136	52	4609
2026-01-12 02:12:30.79	309.10	40.26	-40.4	-42.7	21.4	6.03e-01	0	56	0	397410304	52	4671
2026-01-12 02:12:33.81	307.43	40.45	-40.2	-42.5	21.4	6.04e-01	0	56	0	403177472	52	4579
2026-01-12 02:12:36.84	305.73	40.62	-40.5	-42.8	21.3	6.04e-01	0	56	0	408944640	51	5032
2026-01-12 02:12:39.87	304.02	40.75	-40.0	-42.2	21.9	6.03e-01	0	56	0	414187520	51	4658
2026-01-12 02:12:42.90	302.29	40.86	-39.3	-41.3	22.7	6.04e-01	0	56	0	419954688	50	4451
2026-01-12 02:12:45.93	300.56	40.94	-39.9	-42.1	21.6	6.06e-01	0	56	0	425721856	51	4622
2026-01-12 02:12:48.96	298.81	40.99	-40.0	-42.1	21.5	6.03e-01	0	56	0	431489024	51	4633
2026-01-12 02:12:51.98	297.07	41.01	-40.1	-42.3	21.8	6.03e-01	0	56	0	437256192	51	4733
2026-01-12 02:12:55.01	295.32	41.00	-40.3	-42.6	21.5	6.02e-01	0	56	0	443023360	51	4878
2026-01-12 02:12:58.04	293.58	40.96	-39.9	-42.0	22.0	6.04e-01	0	56	0	448266240	51	4590
2026-01-12 02:13:01.06	291.84	40.89	-39.7	-41.8	22.2	6.04e-01	0	56	0	454033408	51	4472
2026-01-12 02:13:04.09	290.11	40.79	-39.9	-42.1	22.0	6.02e-01	0	56	0	459800576	51	4620
2026-01-12 02:13:07.12	288.40	40.66	-40.6	-43.0	21.0	6.04e-01	0	56	0	465567744	51	5156
2026-01-12 02:13:10.15	286.69	40.51	-40.6	-43.1	21.0	6.01e-01	0	56	0	471334912	51	5180
2026-01-12 02:13:13.18	285.01	40.33	-40.2	-42.5	21.6	6.05e-01	0	56	0	477102080	51	4863
2026-01-12 02:13:16.21	283.34	40.12	-40.2	-42.5	21.5	6.01e-01	0	56	0	482344960	51	4854
2026-01-12 02:13:19.23	281.70	39.89	-39.3	-41.2	22.8	6.03e-01	0	56	0	488112128	50	4425
2026-01-12 02:13:22.26	280.09	39.63	-40.4	-42.7	20.8	6.03e-01	0	56	0	493879296	52	4695
2026-01-12 02:13:25.29	278.50	39.35	-40.5	-42.9	20.9	6.03e-01	0	56	0	499646464	51	5071
2026-01-12 02:13:28.32	276.93	39.05	-39.8	-41.9	21.5	6.02e-01	0	56	0	505413632	51	4530
2026-01-12 02:13:31.35	275.40	38.73	-40.6	-43.0	20.8	6.03e-01	0	56	0	511180800	52	4851
2026-01-12 02:13:34.38	273.90	38.39	-41.4	-44.4	19.6	6.02e-01	0	56	0	516423680	53	5349
2026-01-12 02:13:37.41	272.43	38.03	-41.0	-43.6	20.2	6.04e-01	0	56	0	522190848	53	4873
2026-01-12 02:13:40.44	271.00	37.66	-40.6	-43.0	20.8	6.03e-01	0	56	0	527958016	53	4572
2026-01-12 02:13:43.47	269.60	37.27	-40.2	-42.5	21.4	6.02e-01	0	56	0	533725184	52	4565
2026-01-12 02:13:46.50	268.23	36.86	-40.8	-43.3	20.5	6.04e-01	0	56	0	539492352	53	4752
2026-01-12 02:13:49.53	266.90	36.45	-40.9	-43.5	20.5	6.05e-01	0	56	0	545259520	53	4819
2026-01-12 02:13:52.56	265.60	36.02	-40.6	-43.0	20.9	6.05e-01	0	56	0	550502400	53	4595
2026-01-12 02:13:55.59	264.34	35.58	-40.4	-42.8	21.2	6.02e-01	0	56	0	556269568	52	4727
2026-01-12 02:13:58.62	263.12	35.14	-40.5	-42.9	21.0	6.03e-01	0	56	0	562036736	52	4783
2026-01-12 02:14:01.62	261.93	34.69	-40.5	-43.0	21.0	6.01e-01	0	56	0	567803904	52	4823
2026-01-12 02:14:04.65	260.77	34.23	-40.0	-42.2	21.8	6.01e-01	0	56	0	573571072	51	4684
2026-01-12 02:14:07.68	259.65	33.77	-40.3	-42.6	21.5	6.01e-01	0	56	0	579338240	51	4876
2026-01-12 02:14:10.71	258.56	33.30	-40.0	-42.1	21.9	6.04e-01	0	56	0	584581120	51	4644
2026-01-12 02:14:13.74	257.49	32.83	-39.9	-42.1	21.8	6.03e-01	0	56	0	590348288	51	4630
2026-01-12 02:14:16.76	256.47	32.35	-40.3	-42.6	21.4	6.03e-01	0	56	0	596115456	51	4892
2026-01-12 02:14:19.79	255.47	31.88	-40.2	-42.5	21.5	6.02e-01	0	56	0	601882624	51	4824
2026-01-12 02:14:22.82	254.50	31.40	-39.9	-42.0	21.9	6.03e-01	0	56	0	607649792	51	4588
2026-01-12 02:14:25.85	253.56	30.92	-39.7	-41.9	22.1	6.03e-01	0	56	0	612892672	51	4502
2026-01-12 02:14:28.88	252.65	30.44	-39.8	-41.9	22.0	6.05e-01	0	56	0	618659840	51	4511
2026-01-12 02:14:31.91	251.76	29.96	-39.8	-42.0	22.0	6.03e-01	0	56	0	624427008	51	4553
2026-01-12 02:14:34.93	250.91	29.49	-39.9	-42.1	21.8	6.03e-01	0	56	0	630194176	51	4632
2026-01-12 02:14:37.96	250.08	29.01	-39.7	-41.8	22.1	6.03e-01	0	56	0	635961344	51	4488
2026-01-12 02:14:40.99	249.27	28.54	-40.1	-42.4	21.5	6.06e-01	0	56	0	641728512	51	4785
2026-01-12 02:14:44.02	248.49	28.07	-39.9	-42.1	21.8	6.02e-01	0	56	0	646971392	51	4641
2026-01-12 02:14:47.05	247.73	27.61	-39.6	-41.7	22.2	6.02e-01	0	56	0	652738560	51	4431
2026-01-12 02:14:50.07	246.99	27.14	-40.3	-42.6	21.2	6.02e-01	0	56	0	658505728	51	4917
2026-01-12 02:14:53.10	246.28	26.68	-40.1	-42.4	21.6	6.04e-01	0	56	0	664272896	51	4763
2026-01-12 02:14:56.13	245.59	26.23	-40.0	-42.2	21.7	6.05e-01	0	56	0	670040064	51	4666
2026-01-12 02:14:59.16	244.91	25.77	-40.4	-42.9	21.1	6.00e-01	0	56	0	675807232	51	5044
2026-01-12 02:15:02.19	244.26	25.33	-40.2	-42.5	21.3	6.01e-01	0	56	0	681050112	51	4850
2026-01-12 02:15:05.22	243.63	24.88	-40.1	-42.3	21.5	6.02e-01	0	56	0	686817280	51	4757
2026-01-12 02:15:08.24	243.01	24.44	-40.1	-42.4	21.4	6.01e-01	0	56	0	692584448	51	4807
2026-01-12 02:15:11.27	242.42	24.01	-40.2	-42.5	21.4	6.04e-01	0	56	0	698351616	51	4852
2026-01-12 02:15:14.30	241.84	23.58	-40.3	-42.6	21.2	6.04e-01	0	56	0	704118784	51	4899
2026-01-12 02:15:17.33	241.27	23.15	-40.3	-42.6	21.2	6.02e-01	0	56	0	709885952	51	4901
2026-01-12 02:15:20.36	240.72	22.73	-40.1	-42.4	21.4	6.03e-01	0	56	0	715128832	51	4800
2026-01-12 02:15:23.38	240.19	22.32	-40.3	-42.6	21.2	6.04e-01	0	56	0	720896000	51	4897
2026-01-12 02:15:26.41	239.68	21.90	-40.1	-42.4	21.4	6.03e-01	0	56	0	726663168	51	4764
2026-01-12 02:15:29.44	239.17	21.50	-40.1	-42.4	21.4	6.04e-01	0	56	0	732430336	51	4811
2026-01-12 02:15:32.47	238.68	21.09	-39.9	-42.2	21.6	6.05e-01	0	56	0	738197504	51	4666
2026-01-12 02:15:35.49	238.21	20.70	-40.0	-42.3	21.5	6.05e-01	0	56	0	743964672	51	4715
2026-01-12 02:15:38.52	237.74	20.31	-40.1	-42.4	21.3	6.05e-01	0	56	0	749207552	51	4795
2026-01-12 02:15:41.55	237.29	19.92	-40.1	-42.4	21.4	6.01e-01	0	56	0	754974720	51	4783
2026-01-12 02:15:44.58	236.85	19.54	-40.0	-42.2	21.5	6.05e-01	0	56	0	760741888	51	4705
2026-01-12 02:15:47.61	236.42	19.16	-39.9	-42.2	21.5	6.03e-01	0	56	0	766509056	51	4684
2026-01-12 02:15:50.63	236.01	18.79	-40.2	-42.5	21.2	6.02e-01	0	56	0	772276224	51	4867
2026-01-12 02:15:53.66	235.60	18.42	-40.2	-42.6	21.1	6.02e-01	0	56	0	777519104	51	4889
2026-01-12 02:15:56.69	235.21	18.05	-40.2	-42.5	21.1	6.04e-01	0	56	0	783286272	51	4869
2026-01-12 02:15:59.73	234.82	17.69	-40.3	-42.7	21.0	6.01e-01	0	56	0	789053440	51	4932
2026-01-12 02:16:02.75	234.45	17.34	-39.9	-42.1	21.5	6.03e-01	0	56	0	794820608	51	4631
2026-01-12 02:16:05.78	234.08	16.99	-40.0	-42.3	20.5	6.02e-01	0	56	0	800587776	51	4737
2026-01-12 02:16:08.80	233.72	16.64	-40.2	-42.6	21.0	6.01e-01	0	56	0	806354944	51	4921
2026-01-12 02:16:11.83	233.38	16.30	-40.0	-42.3	21.3	6.02e-01	0	56	0	812122112	51	4745
2026-01-12 02:16:14.86	233.04	15.96	-40.1	-42.4	21.2	6.04e-01	0	56	0	817364992	51	4784
2026-01-12 02:16:17.89	232.70	15.63	-40.3	-42.8	20.8	6.04e-01	0	56	0	823132160	51	5014
2026-01-12 02:16:20.92	232.38	15.30	-40.4	-42.9	20.6	6.03e-01	0	56	0	828899328	51	5086
2026-01-12 02:16:23.95	232.06	14.97	-40.1	-42.5	21.0	6.04e-01	0	56	0	834666496	51	4856
2026-01-12 02:16:26.98	231.75	14.65	-40.0	-42.3	21.2	6.02e-01	0	57	0	840433664	51	4755
2026-01-12 02:16:30.01	231.45	14.33	-40.1	-42.6	21.0	6.02e-01	0	56	0	845676544	51	4876
2026-01-12 02:16:33.04	231.16	14.02	-40.2	-42.7	20.9	6.02e-01	0	56	0	851443712	51	4961
2026-01-12 02:16:36.06	230.87	13.71	-40.2	-42.7	20.8	6.02e-01	0	56	0	857210880	51	4950
2026-01-12 02:16:39.09	230.59	13.40	-40.2	-42.6	20.8	6.03e-01	0	56	0	862978048	51	4926
2026-01-12 02:16:42.12	230.31	13.10	-40.1	-42.5	21.0	6.02e-01	0	56	0	868745216	51	4853
2026-01-12 02:16:45.16	230.04	12.80	-40.2	-42.6	20.9	6.03e-01	0	56	0	874512384	51	4919
2026-01-12 02:16:48.19	229.78	12.50	-40.2	-42.8	20.6	6.02e-01	0	56	0	880279552	51	4984
2026-01-12 02:16:51.21	229.52	12.21	-40.2	-42.7	20.7	6.01e-01	0	56	0	885522432	51	4965
2026-01-12 02:16:54.24	229.27	11.92	-40.3	-42.8	20.6	6.01e-01	0	57	0	891289600	51	5033
2026-01-12 02:16:57.27	229.02	11.64	-40.4	-43.0	20.5	6.01e-01	0	56	0	897056768	51	5110
2026-01-12 02:17:00.30	228.78	11.35	-40.6	-43.3	20.1	6.02e-01	0	56	0	902823936	51	5301
2026-01-12 02:17:03.33	228.55	11.07	-40.7	-43.4	20.0	6.03e-01	0	57	0	908591104	51	5374
2026-01-12 02:17:06.36	228.31	10.80	-40.4	-43.1	20.2	6.03e-01	0	56	0	913833984	52	4891
2026-01-12 02:17:09.39	228.09	10.52	-40.4	-43.1	20.2	6.01e-01	0	56	0	919601152	52	4882
2026-01-12 02:17:12.42	227.87	10.25	-40.5	-43.3	20.0	6.03e-01	0	57	0	925368320	52	4987
2026-01-12 02:17:15.44	227.65	9.98	-40.3	-42.9	20.3	6.01e-01	0	56	0	931135488	52	4793
2026-01-12 02:17:18.47	227.44	9.72	-40.5	-43.2	20.0	6.03e-01	0	57	0	936902656	52	4945
2026-01-12 02:17:21.50	227.23	9.46	-40.6	-43.4	19.8	6.04e-01	0	56	0	942669824	52	5080
2026-01-12 02:17:24.53	227.02	9.20	-40.6	-43.4	19.8	6.04e-01	0	57	0	948436992	52	5060
2026-01-12 02:17:27.57	226.82	8.94	-40.5	-43.3	19.8	6.04e-01	0	56	0	953679872	52	5012
2026-01-12 02:17:30.60	226.62	8.68	-40.5	-43.3	19.7	6.03e-01	0	57	0	959447040	52	5041
2026-01-12 02:17:33.62	226.43	8.43	-40.5	-43.4	19.7	6.04e-01	0	56	0	965214208	52	5078
2026-01-12 02:17:36.65	226.24	8.18	-40.7	-43.6	19.4	6.04e-01	0	57	0	970981376	52	5182
2026-01-12 02:17:39.69	226.06	7.94	-45.4	-64.3	3.8	7.46e-01	0	57	104	975175680	61	33405
2026-01-12 02:17:42.72	225.87	7.69	-46.0	-64.8	3.8	7.45e-01	0	57	104	975175680	62	33421
2026-01-12 02:17:45.75	225.70	7.45	-46.2	-65.0	3.8	7.47e-01	0	57	104	975175680	62	34259
2026-01-12 02:17:48.78	225.52	7.21	-46.1	-65.0	3.8	7.47e-01	0	57	104	975175680	62	34224
2026-01-12 02:17:51.81	225.35	6.97	-46.1	-64.9	3.8	7.42e-01	0	57	104	975175680	62	34008
2026-01-12 02:17:54.84	225.18	6.74	-46.0	-64.9	3.8	7.47e-01	0	56	104	975175680	62	33846
2026-01-12 02:17:57.87	225.01	6.50	-46.0	-64.8	3.8	7.43e-01	0	57	104	975175680	62	33677
2026-01-12 02:18:00.90	224.85	6.27	-46.0	-64.9	3.8	7.50e-01	0	57	104	975175680	62	33761
2026-01-12 02:18:03.93	224.69	6.04	-46.0	-64.9	3.8	7.46e-01	0	57	104	975175680	62	33720
2026-01-12 02:18:06.97	224.53	5.82	-46.0	-64.8	3.8	7.44e-01	0	57	104	975175680	62	33625
2026-01-12 02:18:10.00	224.38	5.59	-46.0	-64.8	3.8	7.44e-01	0	57	104	975175680	62	33632
2026-01-12 02:18:13.04	224.22	5.37	-46.0	-64.8	3.8	7.43e-01	0	57	104	975175680	62	33662
2026-01-12 02:18:16.07	224.08	5.15	-46.0	-64.8	3.8	7.42e-01	0	57	104	975175680	62	33612
2026-01-12 02:18:19.10	223.93	4.93	-46.0	-64.8	3.8	7.45e-01	0	57	104	975175680	62	33646
2026-01-12 02:18:22.14	223.78	4.71	-46.0	-64.8	3.8	7.46e-01	0	57	104	975175680	62	33615
2026-01-12 02:18:25.17	223.64	4.49	-46.0	-64.8	3.8	7.47e-01	0	57	104	975175680	62	33638
2026-01-12 02:18:28.20	223.50	4.28	-46.0	-64.8	3.8	7.45e-01	0	57	104	975175680	62	33613
2026-01-12 02:18:31.24	223.37	4.07	-46.0	-64.8	3.8	7.46e-01	0	57	104	975175680	62	33554
2026-01-12 02:18:34.27	223.23	3.86	-46.0	-64.8	3.8	7.46e-01	0	57	104	975175680	62	33577
2026-01-12 02:18:37.30	223.10	3.65	-46.0	-64.8	3.8	7.47e-01	0	57	104	975175680	62	33585
2026-01-12 02:18:40.34	222.97	3.44	-46.0	-64.8	3.8	7.44e-01	0	57	104	975175680	62	33585
2026-01-12 02:18:43.37	222.84	3.23	-46.0	-64.8	3.8	7.43e-01	0	57	104	975175680	62	33609
2026-01-12 02:18:46.40	222.71	3.03	-46.0	-64.8	3.8	7.45e-01	0	57	104	975175680	62	33510
2026-01-12 02:18:49.43	222.59	2.83	-46.0	-64.8	3.8	7.47e-01	0	57	104	975175680	62	33422
2026-01-12 02:18:52.47	222.47	2.63	-45.9	-64.8	3.8	7.42e-01	0	57	104	975175680	62	33448
2026-01-12 02:18:55.50	222.35	2.43	-46.0	-64.8	3.8	7.44e-01	0	57	104	975175680	62	33473
2026-01-12 02:18:58.53	222.23	2.23	-45.9	-64.8	3.8	7.46e-01	0	57	104	975175680	62	33535
2026-01-12 02:19:01.57	222.11	2.03	-46.0	-64.8	3.8	7.45e-01	0	57	104	975175680	62	33421

#Closed at: 2026-01-12 02:19:03
#Recorded file [975 MB]: D:/lorett/data/31039_260112_050642.dat