passes_logs/2026/01/12/R2.0S_Moscow/R2.0S_Moscow__20260112_000106_NOAA_21_JPSS-2_rec.log

#Pass ID: 20260112_000106_NOAA 21 (JPSS-2)
#Satellite: NOAA 21 (JPSS-2)
#Configuration: NOAA-21
#almurnet v.1.7.20251203
#Start time: 2026-01-12 00:02:18

#Version: 2.2.20231116
#Station: R2.0S_Moscow
#Location: 37.707566 lon 55.798166 lat
#TLE: 1 54234U 22150A   26011.27699114  .00000090  00000+0  63771-4 0  9993
#TLE: 2 54234  98.7494 312.2218 0000765 314.9553  45.1561 14.19534106164285

#Time	Az	El	Level	Level2	SNR	BER	BlckErr	Temp	State	Recorded	gain1	gain2
2026-01-12 00:02:18.91	13.62	7.06	-44.9	-56.6	3.8	8.46e-01	0	57	0	0	60	14705
2026-01-12 00:02:22.96	13.55	7.37	-45.3	-57.7	3.8	1.49e+00	0	57	104	0	62	14799
2026-01-12 00:02:27.00	13.47	7.69	-44.0	-56.1	3.8	1.49e+00	0	57	104	0	60	13806
2026-01-12 00:02:31.04	13.40	8.00	-43.7	-55.7	3.8	1.49e+00	0	57	104	0	59	13935
2026-01-12 00:02:35.09	13.32	8.33	-43.7	-55.2	3.8	1.49e+00	0	57	104	0	59	13200
2026-01-12 00:02:39.13	13.24	8.65	-43.6	-54.7	3.8	1.49e+00	0	57	104	0	59	12504
2026-01-12 00:02:43.17	13.15	8.98	-43.4	-53.6	3.9	1.48e+00	0	57	104	0	58	11582
2026-01-12 00:02:47.21	13.07	9.32	-43.2	-52.2	3.9	1.35e+00	1	57	104	0	58	9834
2026-01-12 00:02:51.25	12.98	9.66	-43.5	-54.2	3.8	1.48e+00	0	57	104	0	58	12499
2026-01-12 00:02:55.29	12.89	10.00	-43.6	-54.9	3.8	1.49e+00	0	57	104	0	58	13502
2026-01-12 00:02:59.34	12.79	10.35	-42.0	-47.1	7.6	1.40e-01	0	57	0	5242880	56	6150
2026-01-12 00:03:03.37	12.70	10.71	-40.0	-43.1	11.5	8.18e-04	0	57	0	17825792	52	4874
2026-01-12 00:03:07.41	12.60	11.06	-39.1	-41.6	13.2	1.90e-05	0	57	0	30408704	50	4605
2026-01-12 00:03:11.46	12.50	11.43	-39.0	-41.4	13.4	1.44e-05	0	57	0	42991616	49	4762
2026-01-12 00:03:15.50	12.39	11.80	-39.4	-41.9	12.9	2.82e-03	0	57	0	55574528	50	4795
2026-01-12 00:03:19.54	12.29	12.17	-38.7	-40.8	14.2	7.00e-07	0	57	0	66060288	49	4465
2026-01-12 00:03:23.57	12.17	12.55	-38.5	-40.6	14.6	7.00e-07	0	57	0	78643200	48	4614
2026-01-12 00:03:27.62	12.06	12.94	-38.5	-40.5	14.7	0.00e+00	0	57	0	91226112	48	4581
2026-01-12 00:03:31.65	11.94	13.33	-38.5	-40.5	14.8	0.00e+00	0	57	0	103809024	48	4575
2026-01-12 00:03:35.69	11.82	13.73	-38.6	-40.6	14.7	0.00e+00	0	57	0	116391936	48	4602
2026-01-12 00:03:39.73	11.70	14.14	-38.6	-40.6	14.8	0.00e+00	0	57	0	128974848	48	4605
2026-01-12 00:03:43.78	11.57	14.55	-38.6	-40.5	14.8	0.00e+00	0	57	0	141557760	48	4584
2026-01-12 00:03:47.82	11.43	14.97	-38.6	-40.6	14.8	0.00e+00	0	57	0	154140672	48	4616
2026-01-12 00:03:51.85	11.30	15.40	-38.6	-40.6	14.9	0.00e+00	0	57	0	166723584	48	4609
2026-01-12 00:03:55.89	11.15	15.83	-38.6	-40.5	15.1	0.00e+00	0	57	0	179306496	48	4554
2026-01-12 00:03:59.93	11.01	16.27	-38.5	-40.4	15.2	0.00e+00	0	57	0	191889408	48	4513
2026-01-12 00:04:03.97	10.86	16.72	-38.5	-40.4	15.2	0.00e+00	0	57	0	204472320	48	4529
2026-01-12 00:04:08.01	10.70	17.18	-38.5	-40.3	15.3	0.00e+00	0	57	0	217055232	48	4488
2026-01-12 00:04:12.06	10.54	17.65	-38.5	-40.4	15.3	0.00e+00	0	57	0	229638144	48	4495
2026-01-12 00:04:16.10	10.37	18.12	-38.5	-40.4	15.3	0.00e+00	0	57	0	242221056	48	4508
2026-01-12 00:04:20.13	10.20	18.60	-38.5	-40.4	15.4	0.00e+00	0	57	0	254803968	48	4496
2026-01-12 00:04:24.17	10.02	19.10	-38.5	-40.3	15.4	0.00e+00	0	57	0	267386880	48	4475
2026-01-12 00:04:28.22	9.83	19.60	-38.4	-40.2	15.6	0.00e+00	0	57	0	279969792	48	4412
2026-01-12 00:04:32.25	9.64	20.11	-38.3	-40.1	15.7	0.00e+00	0	57	0	292552704	48	4367
2026-01-12 00:04:36.29	9.44	20.64	-38.2	-39.9	15.9	0.00e+00	0	57	0	305135616	48	4257
2026-01-12 00:04:40.33	9.23	21.17	-37.9	-39.6	16.2	0.00e+00	0	57	0	317718528	47	4360
2026-01-12 00:04:44.37	9.02	21.72	-37.6	-39.2	16.5	0.00e+00	0	57	0	330301440	47	4183
2026-01-12 00:04:48.42	8.79	22.28	-37.4	-38.9	16.8	0.00e+00	0	57	0	343932928	46	4286
2026-01-12 00:04:52.46	8.56	22.85	-37.2	-38.7	17.0	0.00e+00	0	57	0	355467264	46	4185
2026-01-12 00:04:56.50	8.32	23.43	-37.0	-38.5	17.2	0.00e+00	0	57	0	369098752	46	4079
2026-01-12 00:05:00.54	8.06	24.02	-36.9	-38.4	17.3	0.00e+00	0	57	0	381681664	45	4262
2026-01-12 00:05:04.58	7.80	24.63	-37.0	-38.5	17.2	0.00e+00	0	57	0	394264576	45	4318
2026-01-12 00:05:08.62	7.53	25.25	-37.3	-38.8	17.0	0.00e+00	0	57	0	406847488	45	4456
2026-01-12 00:05:12.65	7.25	25.88	-37.5	-39.1	16.6	0.00e+00	0	57	0	419430400	45	4635
2026-01-12 00:05:16.69	6.95	26.53	-37.8	-39.5	16.4	0.00e+00	0	57	0	432013312	46	4555
2026-01-12 00:05:20.73	6.64	27.20	-37.9	-39.6	16.2	0.00e+00	0	57	0	444596224	46	4631
2026-01-12 00:05:24.77	6.31	27.88	-38.0	-39.7	16.1	0.00e+00	0	58	0	457179136	46	4688
2026-01-12 00:05:28.81	5.97	28.57	-38.2	-39.9	16.0	0.00e+00	0	57	0	469762048	46	4781
2026-01-12 00:05:32.85	5.62	29.29	-38.4	-40.1	15.8	0.00e+00	0	57	0	482344960	47	4643
2026-01-12 00:05:36.88	5.25	30.02	-38.2	-39.9	16.0	0.00e+00	0	57	0	494927872	47	4529
2026-01-12 00:05:40.92	4.86	30.76	-38.1	-39.8	16.2	0.00e+00	0	57	0	507510784	47	4445
2026-01-12 00:05:44.96	4.45	31.53	-38.1	-39.8	16.1	0.00e+00	0	57	0	520093696	47	4454
2026-01-12 00:05:49.00	4.02	32.31	-38.3	-40.0	15.9	0.00e+00	0	57	0	532676608	47	4586
2026-01-12 00:05:53.04	3.56	33.12	-38.5	-40.3	15.6	0.00e+00	0	57	0	545259520	47	4739
2026-01-12 00:05:57.09	3.09	33.94	-38.8	-40.6	15.5	0.00e+00	0	57	0	557842432	48	4634
2026-01-12 00:06:01.13	2.58	34.79	-39.0	-40.8	15.3	0.00e+00	0	57	0	570425344	48	4759
2026-01-12 00:06:05.17	2.05	35.65	-39.5	-41.6	14.5	0.00e+00	0	57	0	583008256	49	4875
2026-01-12 00:06:09.21	1.49	36.54	-39.8	-42.0	14.1	1.50e-06	0	57	0	595591168	50	4859
2026-01-12 00:06:13.25	0.90	37.44	-40.0	-42.3	13.8	6.10e-06	0	57	0	608174080	50	5012
2026-01-12 00:06:17.29	0.27	38.37	-39.7	-41.8	14.3	7.00e-07	0	57	0	620756992	50	4729
2026-01-12 00:06:21.33	359.61	39.32	-39.7	-41.8	14.3	2.20e-06	0	57	0	633339904	50	4757
2026-01-12 00:06:25.38	358.90	40.30	-39.1	-41.0	15.2	0.00e+00	0	57	0	645922816	50	4303
2026-01-12 00:06:29.41	358.15	41.29	-39.1	-41.0	15.1	0.00e+00	0	57	0	659554304	49	4559
2026-01-12 00:06:33.45	357.35	42.31	-39.9	-42.1	14.0	4.50e-06	0	57	0	671088640	50	4919
2026-01-12 00:06:37.49	356.49	43.34	-39.8	-41.9	14.1	3.00e-06	0	57	0	684720128	50	4802
2026-01-12 00:06:41.53	355.58	44.40	-40.1	-42.3	13.9	2.20e-06	0	57	0	697303040	50	5003
2026-01-12 00:06:45.57	354.60	45.48	-40.5	-43.0	13.2	3.05e-05	0	57	0	709885952	51	5127
2026-01-12 00:06:49.61	353.55	46.58	-40.0	-42.1	14.0	0.00e+00	0	57	0	722468864	51	4648
2026-01-12 00:06:53.64	352.42	47.70	-39.9	-42.0	14.1	0.00e+00	0	57	0	735051776	51	4581
2026-01-12 00:06:57.68	351.21	48.83	-39.4	-41.3	14.8	0.00e+00	0	57	0	747634688	50	4484
2026-01-12 00:07:01.72	349.90	49.98	-39.7	-41.7	14.5	1.50e-06	0	57	0	760217600	50	4705
2026-01-12 00:07:05.76	348.49	51.14	-39.6	-41.7	14.5	7.00e-07	0	57	0	772800512	50	4657
2026-01-12 00:07:09.80	346.97	52.31	-38.9	-40.7	15.5	0.00e+00	0	57	0	785383424	49	4411
2026-01-12 00:07:13.84	345.31	53.48	-39.5	-41.6	14.6	7.00e-07	0	57	0	797966336	49	4889
2026-01-12 00:07:17.88	343.52	54.66	-38.9	-40.7	15.4	0.00e+00	0	57	0	810549248	49	4427
2026-01-12 00:07:21.92	341.57	55.83	-38.2	-39.8	16.4	0.00e+00	0	57	0	823132160	48	4238
2026-01-12 00:07:25.96	339.45	56.99	-38.2	-39.9	16.3	0.00e+00	0	57	0	835715072	47	4504
2026-01-12 00:07:30.00	337.14	58.13	-37.9	-39.5	16.6	0.00e+00	0	57	0	848297984	47	4337
2026-01-12 00:07:34.03	334.63	59.25	-37.6	-39.1	16.9	0.00e+00	0	58	0	860880896	47	4141
2026-01-12 00:07:38.07	331.90	60.33	-37.7	-39.3	16.8	0.00e+00	0	57	0	873463808	46	4447
2026-01-12 00:07:42.11	328.92	61.36	-36.7	-38.1	18.0	0.00e+00	0	57	0	886046720	45	4117
2026-01-12 00:07:46.15	325.70	62.34	-36.8	-38.2	17.8	0.00e+00	0	57	0	898629632	45	4189
2026-01-12 00:07:50.20	322.20	63.25	-37.0	-38.4	17.6	0.00e+00	0	57	0	911212544	45	4280
2026-01-12 00:07:54.23	318.46	64.07	-37.2	-38.6	17.4	0.00e+00	0	57	0	923795456	45	4378
2026-01-12 00:07:58.27	314.45	64.80	-37.2	-38.7	17.3	0.00e+00	0	58	0	936378368	45	4416
2026-01-12 00:08:02.30	310.20	65.41	-37.4	-38.9	17.2	0.00e+00	0	57	0	948961280	45	4511
2026-01-12 00:08:06.34	305.72	65.90	-36.6	-37.9	18.0	0.00e+00	0	57	0	961544192	45	4033
2026-01-12 00:08:10.38	301.07	66.25	-36.3	-37.6	18.3	0.00e+00	0	57	0	974127104	44	4107
2026-01-12 00:08:14.42	296.30	66.45	-36.9	-38.3	17.7	0.00e+00	0	57	0	986710016	44	4476
2026-01-12 00:08:18.47	291.45	66.50	-36.9	-38.3	17.7	0.00e+00	0	58	0	1000341504	44	4491
2026-01-12 00:08:22.51	286.63	66.40	-36.8	-38.2	17.7	0.00e+00	0	57	0	1012924416	44	4441
2026-01-12 00:08:26.55	281.89	66.15	-37.7	-39.3	16.7	0.00e+00	0	57	0	1025507328	46	4489
2026-01-12 00:08:30.59	277.28	65.76	-37.3	-38.8	17.2	0.00e+00	0	57	0	1038090240	46	4224
2026-01-12 00:08:34.63	272.87	65.23	-36.8	-38.2	17.7	0.00e+00	0	58	0	1050673152	45	4181
2026-01-12 00:08:38.66	268.69	64.58	-37.4	-38.9	17.1	0.00e+00	0	57	0	1063256064	45	4528
2026-01-12 00:08:42.70	264.75	63.82	-36.9	-38.3	17.7	0.00e+00	0	58	0	1075838976	45	4219
2026-01-12 00:08:46.74	261.08	62.97	-36.7	-38.0	17.9	0.00e+00	0	57	0	1088421888	45	4095
2026-01-12 00:08:50.78	257.67	62.03	-37.6	-39.2	16.7	0.00e+00	0	57	0	1101004800	45	4683
2026-01-12 00:08:54.82	254.52	61.03	-37.3	-38.8	17.1	0.00e+00	0	57	0	1113587712	46	4214
2026-01-12 00:08:58.86	251.62	59.98	-37.4	-38.9	17.1	0.00e+00	0	57	0	1126170624	45	4502
2026-01-12 00:09:02.90	248.96	58.88	-37.6	-39.1	16.8	0.00e+00	0	58	0	1138753536	45	4644
2026-01-12 00:09:06.95	246.50	57.75	-37.4	-38.9	17.1	0.00e+00	0	57	0	1151336448	46	4267
2026-01-12 00:09:10.99	244.25	56.59	-38.3	-40.1	15.9	0.00e+00	0	57	0	1163919360	47	4604
2026-01-12 00:09:15.03	242.18	55.43	-37.4	-38.9	17.1	0.00e+00	0	57	0	1176502272	46	4266
2026-01-12 00:09:19.07	240.28	54.25	-39.3	-41.2	14.9	0.00e+00	0	57	0	1189085184	49	4697
2026-01-12 00:09:23.11	238.53	53.07	-38.4	-40.1	16.0	0.00e+00	0	57	0	1201668096	48	4364
2026-01-12 00:09:27.15	236.92	51.89	-39.5	-41.5	14.5	1.50e-06	0	57	0	1214251008	49	4867
2026-01-12 00:09:31.19	235.43	50.72	-39.7	-41.8	14.2	0.00e+00	0	57	0	1226833920	51	4493
2026-01-12 00:09:35.23	234.05	49.56	-40.0	-42.3	13.9	7.60e-06	0	58	0	1239416832	50	4987
2026-01-12 00:09:39.27	232.77	48.41	-41.1	-43.9	12.1	2.77e-04	0	57	0	1251999744	52	5399
2026-01-12 00:09:43.31	231.58	47.28	-40.3	-42.7	13.3	2.21e-05	0	57	0	1264582656	52	4687
2026-01-12 00:09:47.35	230.48	46.16	-40.3	-42.6	13.3	2.05e-05	0	57	0	1277165568	51	4912
2026-01-12 00:09:51.39	229.45	45.07	-39.9	-42.0	14.1	6.10e-06	0	58	0	1289748480	51	4563
2026-01-12 00:09:55.42	228.49	43.99	-39.6	-41.7	14.4	0.00e+00	0	58	0	1302331392	51	4404
2026-01-12 00:09:59.46	227.60	42.94	-39.3	-41.2	14.9	0.00e+00	0	58	0	1315962880	50	4433
2026-01-12 00:10:03.50	226.76	41.90	-40.9	-43.6	12.3	1.87e-04	0	57	0	1328545792	52	5208
2026-01-12 00:10:07.54	225.97	40.89	-40.1	-42.3	13.7	5.30e-06	0	57	0	1341128704	52	4475
2026-01-12 00:10:11.58	225.23	39.90	-39.8	-41.9	14.1	1.50e-06	0	57	0	1353711616	51	4531
2026-01-12 00:10:15.62	224.53	38.93	-39.6	-41.6	14.5	0.00e+00	0	57	0	1366294528	50	4651
2026-01-12 00:10:19.66	223.88	37.98	-40.1	-42.4	13.7	5.30e-06	0	58	0	1378877440	50	5051
2026-01-12 00:10:23.70	223.26	37.06	-39.7	-41.9	14.3	0.00e+00	0	58	0	1391460352	50	4760
2026-01-12 00:10:27.74	222.68	36.15	-39.3	-41.2	14.9	7.00e-07	0	57	0	1404043264	49	4684
2026-01-12 00:10:31.78	222.12	35.27	-39.9	-42.0	14.0	3.80e-06	0	57	0	1416626176	50	4855
2026-01-12 00:10:35.82	221.60	34.41	-39.5	-41.6	14.5	1.50e-06	0	58	0	1429209088	50	4636
2026-01-12 00:10:39.86	221.10	33.57	-39.1	-41.0	15.1	0.00e+00	0	57	0	1441792000	50	4336
2026-01-12 00:10:43.90	220.63	32.75	-38.0	-39.9	15.8	0.00e+00	0	57	0	1454374912	48	4280
2026-01-12 00:10:47.94	220.19	31.95	-38.3	-39.9	16.1	0.00e+00	0	58	0	1466957824	48	4285
2026-01-12 00:10:51.98	219.76	31.17	-38.8	-40.7	15.3	0.00e+00	0	57	0	1479540736	48	4672
2026-01-12 00:10:56.02	219.35	30.40	-38.6	-40.4	15.6	0.00e+00	0	57	0	1492123648	48	4519
2026-01-12 00:11:00.05	218.97	29.66	-38.3	-40.0	15.9	0.00e+00	0	57	0	1504706560	48	4320
2026-01-12 00:11:04.09	218.60	28.93	-37.9	-39.5	16.4	0.00e+00	0	58	0	1517289472	47	4321
2026-01-12 00:11:08.14	218.25	28.22	-38.0	-39.6	16.3	0.00e+00	0	57	0	1529872384	47	4382
2026-01-12 00:11:12.18	217.91	27.53	-37.8	-39.4	16.5	0.00e+00	0	57	0	1542455296	47	4262
2026-01-12 00:11:16.22	217.59	26.85	-37.9	-39.6	16.2	0.00e+00	0	57	0	1555038208	47	4368
2026-01-12 00:11:20.26	217.28	26.19	-38.0	-39.6	16.2	0.00e+00	0	57	0	1567621120	47	4391
2026-01-12 00:11:24.29	216.98	25.54	-37.9	-39.6	16.3	0.00e+00	0	57	0	1580204032	47	4366
2026-01-12 00:11:28.33	216.70	24.91	-37.3	-38.9	17.0	0.00e+00	0	58	0	1592786944	46	4246
2026-01-12 00:11:32.38	216.43	24.29	-37.4	-38.9	16.9	0.00e+00	0	57	0	1605369856	46	4276
2026-01-12 00:11:36.42	216.17	23.68	-37.8	-39.4	16.4	0.00e+00	0	58	0	1617952768	46	4527
2026-01-12 00:11:40.46	215.92	23.09	-37.8	-39.4	16.4	0.00e+00	0	57	0	1631584256	46	4522
2026-01-12 00:11:44.50	215.67	22.51	-37.8	-39.5	16.3	0.00e+00	0	57	0	1643118592	46	4565
2026-01-12 00:11:48.54	215.44	21.95	-38.1	-39.8	16.1	0.00e+00	0	57	0	1656750080	46	4708
2026-01-12 00:11:52.58	215.22	21.39	-37.9	-39.5	16.3	0.00e+00	0	57	0	1669332992	46	4587
2026-01-12 00:11:56.62	215.00	20.85	-37.7	-39.4	16.4	0.00e+00	0	57	0	1681915904	46	4494
2026-01-12 00:12:00.66	214.79	20.32	-37.7	-39.4	16.4	0.00e+00	0	57	0	1694498816	46	4516
2026-01-12 00:12:04.70	214.59	19.79	-37.9	-39.6	16.2	0.00e+00	0	57	0	1707081728	46	4607
2026-01-12 00:12:08.74	214.40	19.28	-38.1	-39.8	15.9	0.00e+00	0	57	0	1719664640	46	4743
2026-01-12 00:12:12.78	214.21	18.78	-38.1	-39.9	15.8	0.00e+00	0	57	0	1732247552	46	4769
2026-01-12 00:12:16.82	214.03	18.29	-38.2	-40.0	15.7	0.00e+00	0	57	0	1744830464	47	4583
2026-01-12 00:12:20.85	213.86	17.81	-38.2	-40.0	15.7	0.00e+00	0	57	0	1757413376	47	4563
2026-01-12 00:12:24.89	213.69	17.33	-38.3	-40.1	15.5	0.00e+00	0	57	0	1769996288	47	4650
2026-01-12 00:12:28.93	213.53	16.87	-38.5	-40.3	15.3	0.00e+00	0	57	0	1782579200	47	4750
2026-01-12 00:12:32.97	213.37	16.41	-38.5	-40.4	15.2	0.00e+00	0	57	0	1795162112	47	4794
2026-01-12 00:12:37.01	213.22	15.96	-38.7	-40.6	15.0	0.00e+00	0	57	0	1807745024	47	4913
2026-01-12 00:12:41.05	213.07	15.52	-38.8	-40.7	15.0	0.00e+00	0	57	0	1820327936	48	4657
2026-01-12 00:12:45.08	212.92	15.09	-38.8	-40.7	15.0	0.00e+00	0	57	0	1832910848	48	4670
2026-01-12 00:12:49.12	212.78	14.67	-38.7	-40.6	15.0	0.00e+00	0	57	0	1845493760	48	4637
2026-01-12 00:12:53.17	212.65	14.25	-38.7	-40.6	15.1	0.00e+00	0	57	0	1858076672	48	4600
2026-01-12 00:12:57.21	212.52	13.84	-38.6	-40.5	15.1	0.00e+00	0	57	0	1870659584	48	4598
2026-01-12 00:13:01.24	212.39	13.43	-38.6	-40.5	15.1	7.00e-07	0	57	0	1883242496	48	4563
2026-01-12 00:13:05.28	212.27	13.04	-38.7	-40.7	14.9	0.00e+00	0	57	0	1895825408	48	4658
2026-01-12 00:13:09.32	212.15	12.64	-38.7	-40.6	14.9	7.00e-07	0	57	0	1908408320	48	4639
2026-01-12 00:13:13.36	212.03	12.26	-38.6	-40.5	15.0	0.00e+00	0	57	0	1920991232	48	4574
2026-01-12 00:13:17.39	211.92	11.88	-38.8	-40.7	14.8	0.00e+00	0	57	0	1933574144	48	4696
2026-01-12 00:13:21.44	211.81	11.50	-38.7	-40.6	14.8	0.00e+00	0	57	0	1946157056	48	4639
2026-01-12 00:13:25.48	211.70	11.13	-38.8	-40.8	14.6	7.00e-07	0	57	0	1958739968	48	4734
2026-01-12 00:13:29.52	211.59	10.77	-38.9	-40.9	14.5	7.00e-07	0	57	0	1972371456	48	4786
2026-01-12 00:13:33.56	211.49	10.41	-38.7	-40.7	14.7	0.00e+00	0	57	0	1984954368	48	4669
2026-01-12 00:13:37.60	211.39	10.06	-38.9	-40.9	14.4	0.00e+00	0	57	0	1997537280	48	4787
2026-01-12 00:13:41.63	211.30	9.71	-39.0	-41.2	14.1	3.00e-06	0	57	0	2010120192	48	4940
2026-01-12 00:13:45.67	211.20	9.37	-38.9	-41.0	14.2	7.00e-07	0	57	0	2022703104	48	4867
2026-01-12 00:13:49.71	211.11	9.03	-39.1	-41.3	13.9	4.50e-06	0	57	0	2035286016	48	5002
2026-01-12 00:13:53.76	211.02	8.70	-39.3	-41.6	13.6	7.60e-06	0	57	0	2047868928	49	4888
2026-01-12 00:13:57.80	210.93	8.37	-39.4	-41.7	13.5	1.44e-05	0	57	0	2060451840	49	4936
2026-01-12 00:14:01.80	210.85	8.04	-39.4	-41.8	13.2	1.52e-05	0	57	0	2073034752	49	5027
2026-01-12 00:14:05.85	210.77	7.72	-45.0	-57.3	3.8	1.49e+00	0	57	104	2075131904	60	15920
2026-01-12 00:14:09.89	210.69	7.40	-45.3	-57.7	3.8	1.49e+00	0	57	104	2075131904	61	15656
2026-01-12 00:14:13.93	210.61	7.09	-45.2	-57.6	3.8	1.49e+00	0	57	104	2075131904	60	16362
2026-01-12 00:14:17.97	210.53	6.78	-45.2	-57.6	3.8	1.49e+00	0	57	104	2075131904	60	16412
2026-01-12 00:14:22.01	210.46	6.47	-45.1	-57.5	3.8	1.49e+00	0	57	104	2075131904	60	16285
2026-01-12 00:14:26.06	210.38	6.17	-45.1	-57.5	3.8	1.49e+00	0	57	104	2075131904	60	16261
2026-01-12 00:14:30.10	210.31	5.87	-45.1	-57.5	3.8	1.49e+00	0	57	104	2075131904	60	16230
2026-01-12 00:14:34.14	210.24	5.57	-45.1	-57.5	3.8	1.49e+00	0	57	104	2075131904	60	16189
2026-01-12 00:14:38.19	210.17	5.28	-45.0	-57.5	3.8	1.49e+00	0	57	104	2075131904	60	16188
2026-01-12 00:14:42.23	210.11	4.99	-45.0	-57.5	3.8	1.49e+00	0	57	104	2075131904	60	16164
2026-01-12 00:14:46.28	210.04	4.70	-45.0	-57.5	3.8	1.49e+00	0	57	104	2075131904	60	16169
2026-01-12 00:14:50.32	209.98	4.42	-45.0	-57.4	3.8	1.49e+00	0	57	104	2075131904	60	16103
2026-01-12 00:14:54.36	209.91	4.14	-45.0	-57.5	3.8	1.49e+00	0	57	104	2075131904	60	16131
2026-01-12 00:14:58.40	209.85	3.86	-45.0	-57.5	3.8	1.49e+00	0	58	104	2075131904	60	16162
2026-01-12 00:15:02.45	209.79	3.58	-45.0	-57.4	3.8	1.49e+00	0	57	104	2075131904	60	16127
2026-01-12 00:15:06.49	209.73	3.31	-45.0	-57.5	3.8	1.49e+00	0	57	104	2075131904	60	16135
2026-01-12 00:15:10.53	209.68	3.04	-45.0	-57.5	3.8	1.49e+00	0	57	104	2075131904	60	16156
2026-01-12 00:15:14.58	209.62	2.77	-45.0	-57.5	3.8	1.49e+00	0	57	104	2075131904	60	16194
2026-01-12 00:15:18.62	209.57	2.51	-45.0	-57.5	3.8	1.49e+00	0	57	104	2075131904	60	16130
2026-01-12 00:15:22.67	209.51	2.25	-45.0	-57.4	3.8	1.49e+00	0	57	104	2075131904	60	16093
2026-01-12 00:15:26.71	209.46	1.99	-45.0	-57.4	3.8	1.49e+00	0	57	104	2075131904	60	16096

#Closed at: 2026-01-12 00:15:27
#Recorded file [2075 MB]: D:/lorett/data/31039_260112_030218.dat