passes_logs/2026/01/12/R2.0S_Moscow/R2.0S_Moscow__20260112_114016_AQUA_rec.log

#Pass ID: 20260112_114016_AQUA
#Satellite: AQUA
#Configuration: AQUA
#almurnet v.1.7.20251203
#Start time: 2026-01-12 11:46:14

#Version: 2.2.20231116
#Station: R2.0S_Moscow
#Location: 37.707566 lon 55.798166 lat
#TLE: 1 27424U 02022A   26011.34052177  .00001139  00000+0  23789-3 0  9999
#TLE: 2 27424  98.4078 337.7066 0002035  82.6124  44.5301 14.61815662260355

#Time	Az	El	Level	Level2	SNR	BER	BlckErr	Temp	State	Recorded	gain1	gain2
2026-01-12 11:46:14.95	162.28	74.72	-45.0	-57.3	3.8	1.49e+00	0	60	0	0	60	15830
2026-01-12 11:46:16.97	162.25	75.92	-46.0	-64.8	3.8	7.49e-01	0	60	104	0	62	33656
2026-01-12 11:46:18.99	162.20	77.12	-46.1	-64.9	3.8	7.43e-01	0	60	104	0	62	33705
2026-01-12 11:46:21.01	162.15	78.34	-46.1	-64.8	3.8	7.47e-01	0	60	104	0	62	33513
2026-01-12 11:46:23.04	162.08	79.57	-44.8	-64.6	3.6	7.41e-01	0	60	104	0	61	34734
2026-01-12 11:46:25.06	161.99	80.80	-45.9	-64.7	3.8	7.47e-01	0	60	104	0	62	33138
2026-01-12 11:46:27.08	161.87	82.04	-46.0	-64.7	3.8	7.44e-01	0	60	104	0	62	33307
2026-01-12 11:46:29.10	161.70	83.29	-46.1	-64.8	3.8	7.42e-01	0	60	104	0	62	33545
2026-01-12 11:46:31.12	161.45	84.54	-46.1	-64.8	3.8	7.48e-01	0	60	104	0	62	33559
2026-01-12 11:46:33.14	161.04	85.80	-46.0	-64.8	3.8	7.46e-01	0	60	104	0	62	33428
2026-01-12 11:46:35.16	160.29	87.06	-45.4	-64.9	3.8	7.49e-01	0	60	104	0	62	33809
2026-01-12 11:46:37.19	158.36	88.33	-46.0	-64.7	3.8	7.47e-01	0	60	104	0	62	33294
2026-01-12 11:46:39.21	144.95	89.58	-45.9	-64.7	3.8	7.47e-01	0	60	104	0	62	32989
2026-01-12 11:46:41.23	351.48	89.13	-45.9	-65.0	3.9	7.46e-01	0	60	104	0	62	34269
2026-01-12 11:46:43.25	346.37	87.87	-45.9	-64.8	3.8	7.48e-01	0	60	104	0	62	33394
2026-01-12 11:46:45.27	345.07	86.61	-46.0	-64.8	3.8	7.44e-01	0	60	104	0	62	33488
2026-01-12 11:46:47.30	344.48	85.35	-46.0	-64.8	3.8	7.47e-01	0	60	104	0	62	33408
2026-01-12 11:46:49.32	344.14	84.09	-45.9	-64.8	3.8	7.46e-01	0	60	104	0	62	33398
2026-01-12 11:46:51.34	343.93	82.84	-46.0	-64.7	3.8	7.47e-01	0	60	104	0	62	33262
2026-01-12 11:46:53.36	343.78	81.60	-45.8	-64.5	3.8	7.46e-01	0	60	104	0	62	32350
2026-01-12 11:46:55.38	343.67	80.36	-46.0	-64.7	3.8	7.47e-01	0	59	104	0	62	33041
2026-01-12 11:46:57.41	343.59	79.13	-45.8	-64.8	3.8	7.46e-01	0	60	104	0	62	33355
2026-01-12 11:46:59.43	343.52	77.91	-46.0	-64.6	3.7	7.45e-01	0	60	104	0	62	32582
2026-01-12 11:47:01.45	343.47	76.70	-46.0	-64.0	3.8	7.48e-01	0	60	104	0	62	30452
2026-01-12 11:47:03.47	343.43	75.50	-45.8	-59.0	5.0	7.07e-01	0	60	104	0	62	17257
2026-01-12 11:47:05.49	343.40	74.31	-45.3	-54.4	9.1	6.32e-01	0	60	0	3145728	61	10668
2026-01-12 11:47:07.52	343.37	73.12	-44.4	-54.2	9.3	6.31e-01	0	60	0	6815744	61	10423
2026-01-12 11:47:09.54	343.35	71.96	-44.7	-49.8	14.9	6.08e-01	0	60	0	10485760	59	7083
2026-01-12 11:47:11.56	343.33	70.81	-43.5	-48.8	14.3	6.07e-01	0	59	0	14680064	59	6333
2026-01-12 11:47:13.58	343.32	69.67	-44.1	-49.5	13.9	6.07e-01	0	60	0	16777216	60	6456
2026-01-12 11:47:15.60	343.30	68.54	-44.2	-49.2	15.0	6.07e-01	0	60	0	20447232	59	6616
2026-01-12 11:47:17.62	343.29	67.43	-44.0	-48.8	15.3	6.06e-01	0	60	0	24117248	59	6283
2026-01-12 11:47:19.64	343.28	66.34	-43.9	-48.6	15.5	6.07e-01	0	59	0	27787264	59	6141
2026-01-12 11:47:21.66	343.28	65.25	-44.2	-49.4	14.9	6.06e-01	0	60	0	31981568	59	6743
2026-01-12 11:47:23.67	343.27	64.20	-43.6	-47.8	16.4	6.07e-01	0	59	0	35651584	58	5962
2026-01-12 11:47:25.69	343.27	63.15	-43.2	-46.9	17.2	6.07e-01	0	59	0	39321600	58	5391
2026-01-12 11:47:27.71	343.26	62.11	-43.1	-46.8	17.4	6.06e-01	0	60	0	42991616	56	5955
2026-01-12 11:47:29.73	343.26	61.10	-42.1	-45.1	19.1	6.08e-01	0	60	0	47185920	56	4882
2026-01-12 11:47:31.75	343.26	60.09	-42.7	-46.2	17.9	6.07e-01	0	59	0	50855936	55	5908
2026-01-12 11:47:33.77	343.26	59.11	-42.4	-45.8	18.4	6.05e-01	0	60	0	54525952	55	5608
2026-01-12 11:47:35.79	343.25	58.14	-41.9	-44.9	19.2	6.07e-01	0	60	0	58195968	55	5059
2026-01-12 11:47:37.81	343.25	57.19	-41.8	-44.8	19.3	6.08e-01	0	60	0	62390272	55	4985
2026-01-12 11:47:39.83	343.25	56.25	-41.3	-43.9	20.2	6.06e-01	0	60	0	66060288	54	4793
2026-01-12 11:47:41.84	343.25	55.34	-40.8	-43.3	20.7	6.07e-01	0	59	0	69730304	53	4728
2026-01-12 11:47:43.86	343.26	54.44	-41.1	-43.7	20.3	6.06e-01	0	60	0	73400320	53	4981
2026-01-12 11:47:45.88	343.26	53.55	-40.7	-43.0	21.0	6.08e-01	0	60	0	77070336	53	4598
2026-01-12 11:47:47.90	343.26	52.68	-41.0	-43.5	20.5	6.06e-01	0	60	0	81264640	53	4863
2026-01-12 11:47:49.92	343.26	51.82	-41.0	-43.6	20.5	6.05e-01	0	60	0	84934656	53	4878
2026-01-12 11:47:51.93	343.26	50.99	-41.5	-44.2	19.8	6.06e-01	0	59	0	88604672	53	5260
2026-01-12 11:47:53.95	343.27	50.16	-41.8	-44.8	19.3	6.06e-01	0	60	0	92274688	54	5289
2026-01-12 11:47:55.97	343.27	49.35	-41.6	-44.4	19.6	6.05e-01	0	60	0	95944704	54	5076
2026-01-12 11:47:57.99	343.27	48.56	-41.6	-44.4	19.7	6.06e-01	0	59	0	100139008	54	5058
2026-01-12 11:48:00.01	343.28	47.78	-41.8	-44.7	19.3	6.06e-01	0	60	0	103809024	54	5263
2026-01-12 11:48:02.03	343.28	47.01	-41.7	-44.5	19.5	6.06e-01	0	59	0	107479040	54	5152
2026-01-12 11:48:04.05	343.28	46.26	-41.7	-44.6	19.5	6.05e-01	0	60	0	111149056	54	5188
2026-01-12 11:48:06.07	343.29	45.53	-41.5	-44.3	19.8	6.07e-01	0	59	0	115343360	54	5003
2026-01-12 11:48:08.08	343.29	44.81	-41.7	-44.6	19.4	6.05e-01	0	59	0	119013376	54	5200
2026-01-12 11:48:10.10	343.30	44.10	-41.7	-44.6	19.5	6.05e-01	0	59	0	122683392	54	5184
2026-01-12 11:48:12.12	343.30	43.41	-41.9	-45.0	19.1	6.06e-01	0	60	0	126353408	54	5407
2026-01-12 11:48:14.14	343.30	42.72	-41.8	-44.7	19.3	6.08e-01	0	59	0	130023424	54	5262
2026-01-12 11:48:16.16	343.31	42.05	-42.1	-45.1	18.9	6.06e-01	0	59	0	134217728	54	5527
2026-01-12 11:48:18.17	343.31	41.40	-42.5	-45.9	18.1	6.08e-01	0	59	0	137887744	55	5667
2026-01-12 11:48:20.20	343.32	40.75	-42.5	-45.9	18.1	6.05e-01	0	60	0	141557760	55	5696
2026-01-12 11:48:22.22	343.32	40.12	-42.3	-45.5	18.4	6.06e-01	0	59	0	145227776	55	5455
2026-01-12 11:48:24.24	343.33	39.50	-42.5	-45.9	18.1	6.07e-01	0	60	0	148897792	55	5663
2026-01-12 11:48:26.25	343.33	38.89	-42.4	-45.8	18.2	6.07e-01	0	59	0	153092096	55	5610
2026-01-12 11:48:28.27	343.34	38.30	-42.5	-45.9	18.1	6.07e-01	0	59	0	156762112	55	5668
2026-01-12 11:48:30.29	343.34	37.71	-42.6	-46.1	17.8	6.06e-01	0	60	0	160432128	55	5830
2026-01-12 11:48:32.31	343.35	37.13	-42.2	-45.5	18.5	6.07e-01	0	60	0	164102144	55	5404
2026-01-12 11:48:34.33	343.35	36.57	-42.1	-45.3	18.6	6.07e-01	0	60	0	168296448	55	5299
2026-01-12 11:48:36.35	343.36	36.01	-41.9	-44.9	18.9	6.07e-01	0	59	0	171966464	55	5091
2026-01-12 11:48:38.37	343.37	35.47	-41.7	-44.7	19.2	6.05e-01	0	60	0	175636480	55	4928
2026-01-12 11:48:40.39	343.37	34.93	-41.5	-44.4	19.5	6.07e-01	0	59	0	179306496	55	4782
2026-01-12 11:48:42.41	343.38	34.41	-41.5	-44.3	19.6	6.06e-01	0	59	0	183500800	54	5003
2026-01-12 11:48:44.42	343.38	33.89	-41.2	-43.9	19.9	6.07e-01	0	59	0	187170816	54	4795
2026-01-12 11:48:46.44	343.39	33.38	-41.1	-43.7	20.1	6.05e-01	0	59	0	190840832	54	4673
2026-01-12 11:48:48.46	343.39	32.89	-40.9	-43.4	20.4	6.07e-01	0	59	0	194510848	53	4787
2026-01-12 11:48:50.48	343.40	32.40	-40.8	-43.3	20.5	6.06e-01	0	60	0	198180864	53	4743
2026-01-12 11:48:52.50	343.41	31.91	-40.8	-43.3	20.5	6.09e-01	0	59	0	202375168	53	4731
2026-01-12 11:48:54.52	343.41	31.44	-41.0	-43.6	19.8	6.06e-01	0	59	0	206045184	53	4904
2026-01-12 11:48:56.54	343.42	30.98	-40.9	-43.5	20.2	6.07e-01	0	59	0	209715200	53	4869
2026-01-12 11:48:58.56	343.42	30.52	-40.9	-43.6	20.2	6.05e-01	0	59	0	213385216	53	4871
2026-01-12 11:49:00.57	343.43	30.07	-41.0	-43.7	20.0	6.05e-01	0	59	0	217055232	53	4980
2026-01-12 11:49:02.59	343.44	29.63	-41.1	-43.8	19.9	6.05e-01	0	59	0	221249536	53	5018
2026-01-12 11:49:04.61	343.44	29.19	-41.1	-43.8	19.8	6.06e-01	0	59	0	224919552	53	5038
2026-01-12 11:49:06.63	343.45	28.77	-41.1	-43.9	19.7	6.06e-01	0	59	0	228589568	53	5088
2026-01-12 11:49:08.65	343.46	28.34	-41.1	-43.9	19.7	6.08e-01	0	59	0	232259584	53	5067
2026-01-12 11:49:10.67	343.46	27.93	-41.0	-43.7	19.8	6.08e-01	0	59	0	236453888	53	4983
2026-01-12 11:49:12.69	343.47	27.52	-41.1	-43.9	19.6	6.06e-01	0	59	0	240123904	53	5069
2026-01-12 11:49:14.71	343.48	27.12	-41.1	-43.9	19.6	6.07e-01	0	59	0	243793920	53	5079
2026-01-12 11:49:16.73	343.48	26.73	-41.2	-44.0	19.4	6.07e-01	0	59	0	247463936	53	5159
2026-01-12 11:49:18.75	343.49	26.34	-41.3	-44.2	19.2	6.06e-01	0	59	0	251658240	53	5260
2026-01-12 11:49:20.77	343.49	25.96	-41.4	-44.5	18.9	6.07e-01	0	59	0	255328256	53	5432
2026-01-12 11:49:22.79	343.50	25.58	-41.5	-44.8	18.5	6.05e-01	0	59	0	258998272	53	5625
2026-01-12 11:49:24.81	343.51	25.21	-41.6	-44.9	18.4	6.05e-01	0	59	0	262668288	53	5707
2026-01-12 11:49:26.82	343.51	24.84	-41.8	-45.1	18.1	6.05e-01	0	60	0	266338304	54	5525
2026-01-12 11:49:28.84	343.52	24.48	-41.6	-45.0	18.2	6.05e-01	0	59	0	270532608	54	5441
2026-01-12 11:49:30.86	343.53	24.13	-41.6	-45.0	18.1	6.06e-01	0	60	0	274202624	54	5455
2026-01-12 11:49:32.88	343.53	23.78	-41.6	-45.0	18.1	6.07e-01	0	59	0	277872640	54	5409
2026-01-12 11:49:34.90	343.54	23.43	-41.5	-45.0	17.9	6.06e-01	0	59	0	281542656	54	5432
2026-01-12 11:49:36.92	343.55	23.09	-41.3	-44.7	18.1	6.07e-01	0	59	0	285212672	54	5257
2026-01-12 11:49:38.94	343.55	22.76	-41.4	-45.2	17.4	6.06e-01	0	59	0	289406976	54	5558
2026-01-12 11:49:40.96	343.56	22.43	-40.8	-44.4	17.8	6.06e-01	0	60	0	293076992	53	5375
2026-01-12 11:49:42.98	343.57	22.10	-40.7	-44.4	17.5	6.06e-01	0	59	0	296747008	53	5367
2026-01-12 11:49:45.00	343.58	21.78	-40.4	-44.0	17.8	6.05e-01	0	59	0	300417024	52	5414
2026-01-12 11:49:47.01	343.58	21.47	-40.8	-44.9	16.7	6.08e-01	0	60	0	304611328	52	6030
2026-01-12 11:49:49.03	343.59	21.16	-41.6	-47.4	13.8	6.08e-01	0	59	0	308281344	53	7564
2026-01-12 11:49:51.05	343.60	20.85	-42.1	-51.0	9.6	6.23e-01	0	59	0	311951360	54	10820
2026-01-12 11:49:53.07	343.60	20.54	-42.1	-54.8	5.7	6.92e-01	92	59	0	315621376	54	16752
2026-01-12 11:49:55.09	343.61	20.24	-42.1	-58.8	4.0	7.45e-01	0	59	104	315621376	54	26710
2026-01-12 11:49:57.11	343.62	19.95	-42.1	-60.5	3.8	7.46e-01	0	59	104	315621376	54	32541
2026-01-12 11:49:59.13	343.62	19.65	-42.1	-60.8	3.8	7.43e-01	0	59	104	315621376	55	31571
2026-01-12 11:50:01.15	343.63	19.37	-42.1	-60.6	3.8	7.44e-01	0	59	104	315621376	54	32794
2026-01-12 11:50:03.17	343.64	19.08	-41.1	-60.3	3.8	7.45e-01	0	60	104	315621376	54	31716
2026-01-12 11:50:05.18	343.64	18.80	-41.0	-60.8	3.8	7.43e-01	0	60	104	315621376	53	35315
2026-01-12 11:50:07.20	343.65	18.52	-41.6	-60.6	3.8	7.45e-01	0	60	104	315621376	54	32647
2026-01-12 11:50:09.22	343.66	18.25	-41.8	-60.8	3.8	7.45e-01	0	60	104	315621376	54	33475
2026-01-12 11:50:11.24	343.67	17.98	-41.7	-60.7	3.8	7.45e-01	0	59	104	315621376	54	32989
2026-01-12 11:50:13.26	343.67	17.71	-41.1	-60.7	3.8	7.46e-01	0	60	104	315621376	53	34961
2026-01-12 11:50:15.28	343.68	17.44	-41.0	-60.8	3.8	7.42e-01	0	59	104	315621376	53	35499
2026-01-12 11:50:17.30	343.69	17.18	-40.5	-60.6	3.8	7.45e-01	0	60	104	315621376	52	36598
2026-01-12 11:50:19.32	343.69	16.92	-40.5	-60.6	3.8	7.46e-01	0	59	104	315621376	51	39086
2026-01-12 11:50:21.34	343.70	16.67	-40.3	-60.6	3.8	7.45e-01	0	59	104	315621376	52	36567
2026-01-12 11:50:23.36	343.71	16.42	-41.1	-60.5	3.8	7.43e-01	0	60	104	315621376	52	36518
2026-01-12 11:50:25.38	343.72	16.17	-40.1	-60.6	3.8	7.44e-01	0	59	104	315621376	51	38822
2026-01-12 11:50:27.41	343.72	15.92	-40.3	-60.6	3.8	7.47e-01	0	59	104	315621376	51	38864
2026-01-12 11:50:29.42	343.73	15.68	-41.6	-60.6	3.8	7.42e-01	0	60	104	315621376	54	32869
2026-01-12 11:50:31.45	343.74	15.43	-41.5	-60.7	3.8	7.47e-01	0	59	104	315621376	54	33179
2026-01-12 11:50:33.46	343.74	15.19	-41.6	-60.6	3.8	7.45e-01	0	59	104	315621376	53	34604
2026-01-12 11:50:35.49	343.75	14.96	-41.6	-60.6	3.8	7.46e-01	0	59	104	315621376	53	34759
2026-01-12 11:50:37.51	343.76	14.72	-41.0	-60.5	3.8	7.47e-01	0	60	104	315621376	53	34232
2026-01-12 11:50:39.53	343.77	14.49	-41.3	-60.6	3.8	7.43e-01	0	60	104	315621376	53	34529
2026-01-12 11:50:41.55	343.77	14.26	-41.1	-60.5	3.8	7.46e-01	0	59	104	315621376	53	34279
2026-01-12 11:50:43.57	343.78	14.04	-41.1	-60.5	3.8	7.46e-01	0	60	104	315621376	53	34310
2026-01-12 11:50:45.59	343.79	13.81	-41.4	-60.5	3.8	7.47e-01	0	60	104	315621376	53	34397
2026-01-12 11:50:47.61	343.80	13.59	-41.5	-60.6	3.8	7.45e-01	0	60	104	315621376	54	32591
2026-01-12 11:50:49.63	343.80	13.37	-41.4	-60.5	3.8	7.47e-01	0	59	104	315621376	53	34439
2026-01-12 11:50:51.65	343.81	13.15	-41.5	-60.5	3.8	7.46e-01	0	59	104	315621376	53	34280
2026-01-12 11:50:53.67	343.82	12.94	-41.4	-60.4	3.8	7.47e-01	0	60	104	315621376	53	33859
2026-01-12 11:50:55.69	343.83	12.72	-41.5	-60.5	3.8	7.45e-01	0	60	104	315621376	53	34195
2026-01-12 11:50:57.71	343.83	12.51	-41.2	-60.4	3.8	7.46e-01	0	60	104	315621376	53	33821
2026-01-12 11:50:59.73	343.84	12.30	-41.6	-60.5	3.8	7.44e-01	0	60	104	315621376	53	34310
2026-01-12 11:51:01.75	343.85	12.10	-41.5	-60.4	3.8	7.45e-01	0	60	104	315621376	53	34085
2026-01-12 11:51:03.77	343.86	11.89	-41.3	-60.4	3.8	7.47e-01	0	60	104	315621376	53	33957
2026-01-12 11:51:05.80	343.86	11.69	-41.4	-60.5	3.8	7.46e-01	0	60	104	315621376	53	34158
2026-01-12 11:51:07.82	343.87	11.49	-41.1	-60.2	3.8	7.46e-01	0	59	104	315621376	54	31257
2026-01-12 11:51:09.83	343.88	11.29	-41.5	-60.5	3.8	7.45e-01	0	60	104	315621376	54	32230
2026-01-12 11:51:11.86	343.89	11.09	-41.4	-60.4	3.8	7.45e-01	0	60	104	315621376	54	31827
2026-01-12 11:51:13.88	343.89	10.89	-41.2	-60.3	3.8	7.46e-01	0	60	104	315621376	54	31754
2026-01-12 11:51:15.90	343.90	10.70	-41.2	-60.3	3.8	7.50e-01	0	60	104	315621376	54	31614
2026-01-12 11:51:17.92	343.91	10.51	-41.3	-60.3	3.8	7.43e-01	0	59	104	315621376	54	31688
2026-01-12 11:51:19.94	343.92	10.31	-41.0	-60.2	3.8	7.47e-01	0	60	104	315621376	54	31319
2026-01-12 11:51:21.96	343.92	10.13	-41.1	-60.2	3.8	7.45e-01	0	60	104	315621376	54	31411
2026-01-12 11:51:23.98	343.93	9.94	-41.4	-60.3	3.8	7.44e-01	0	59	104	315621376	54	31594
2026-01-12 11:51:26.00	343.94	9.75	-41.4	-60.2	3.8	7.44e-01	0	60	104	315621376	54	31401
2026-01-12 11:51:28.02	343.95	9.57	-41.3	-60.4	3.8	7.46e-01	0	60	104	315621376	54	31902
2026-01-12 11:51:30.05	343.95	9.38	-41.4	-60.4	3.8	7.45e-01	0	60	104	315621376	54	31827
2026-01-12 11:51:32.07	343.96	9.20	-41.4	-60.2	3.8	7.44e-01	0	60	104	315621376	54	31353
2026-01-12 11:51:34.09	343.97	9.02	-41.4	-60.3	3.8	7.43e-01	0	60	104	315621376	54	31460
2026-01-12 11:51:36.11	343.98	8.84	-41.4	-60.2	3.8	7.41e-01	0	60	104	315621376	54	31407
2026-01-12 11:51:38.13	343.98	8.66	-41.3	-60.2	3.8	7.47e-01	0	60	104	315621376	54	31375
2026-01-12 11:51:40.15	343.99	8.49	-41.4	-60.3	3.8	7.48e-01	0	59	104	315621376	54	31766
2026-01-12 11:51:42.17	344.00	8.31	-41.4	-60.4	3.8	7.44e-01	0	60	104	315621376	54	31855
2026-01-12 11:51:44.19	344.01	8.14	-41.3	-60.2	3.8	7.47e-01	0	60	104	315621376	54	31332
2026-01-12 11:51:46.21	344.01	7.97	-41.4	-60.4	3.8	7.46e-01	0	59	104	315621376	54	32088
2026-01-12 11:51:48.24	344.02	7.80	-44.2	-63.1	3.8	7.47e-01	0	59	104	315621376	58	34540
2026-01-12 11:51:50.26	344.03	7.63	-45.9	-64.6	3.8	7.47e-01	0	60	104	315621376	62	32789
2026-01-12 11:51:52.28	344.04	7.46	-46.1	-64.8	3.8	7.44e-01	0	59	104	315621376	62	33402
2026-01-12 11:51:54.30	344.05	7.29	-46.2	-64.8	3.8	7.50e-01	0	60	104	315621376	62	33666
2026-01-12 11:51:56.32	344.05	7.13	-46.1	-64.9	3.8	7.47e-01	0	60	104	315621376	62	33719
2026-01-12 11:51:58.35	344.06	6.96	-45.9	-64.7	3.8	7.44e-01	0	60	104	315621376	62	33003
2026-01-12 11:52:00.37	344.07	6.80	-46.1	-64.8	3.8	7.45e-01	0	60	104	315621376	62	33681
2026-01-12 11:52:02.39	344.08	6.64	-46.0	-64.8	3.8	7.43e-01	0	60	104	315621376	62	33570
2026-01-12 11:52:04.41	344.08	6.48	-46.0	-64.8	3.8	7.46e-01	0	60	104	315621376	62	33500
2026-01-12 11:52:06.43	344.09	6.32	-46.0	-64.8	3.8	7.43e-01	0	59	104	315621376	62	33455
2026-01-12 11:52:08.46	344.10	6.16	-46.0	-64.8	3.8	7.45e-01	0	59	104	315621376	62	33440
2026-01-12 11:52:10.48	344.11	6.00	-46.0	-64.8	3.8	7.42e-01	0	60	104	315621376	62	33491
2026-01-12 11:52:12.50	344.12	5.84	-46.0	-64.8	3.8	7.46e-01	0	60	104	315621376	62	33425
2026-01-12 11:52:14.52	344.12	5.69	-46.0	-64.8	3.8	7.45e-01	0	59	104	315621376	62	33463
2026-01-12 11:52:16.55	344.13	5.53	-46.0	-64.8	3.8	7.43e-01	0	60	104	315621376	62	33441
2026-01-12 11:52:18.57	344.14	5.38	-46.0	-64.8	3.8	7.49e-01	0	60	104	315621376	62	33448
2026-01-12 11:52:20.59	344.15	5.23	-46.0	-64.8	3.8	7.45e-01	0	59	104	315621376	62	33415
2026-01-12 11:52:22.61	344.16	5.07	-46.0	-64.8	3.8	7.46e-01	0	59	104	315621376	62	33354
2026-01-12 11:52:24.63	344.16	4.92	-46.0	-64.8	3.8	7.44e-01	0	60	104	315621376	62	33366
2026-01-12 11:52:26.65	344.17	4.77	-46.0	-64.8	3.8	7.45e-01	0	59	104	315621376	62	33390
2026-01-12 11:52:28.67	344.18	4.63	-46.0	-64.8	3.8	7.43e-01	0	60	104	315621376	62	33394
2026-01-12 11:52:30.69	344.19	4.48	-46.0	-64.8	3.8	7.47e-01	0	60	104	315621376	62	33333
2026-01-12 11:52:32.72	344.19	4.33	-46.0	-64.8	3.8	7.49e-01	0	60	104	315621376	62	33380
2026-01-12 11:52:34.74	344.20	4.18	-46.0	-64.8	3.8	7.46e-01	0	60	104	315621376	62	33374
2026-01-12 11:52:36.76	344.21	4.04	-46.0	-64.8	3.8	7.45e-01	0	60	104	315621376	62	33330
2026-01-12 11:52:38.78	344.22	3.90	-46.0	-64.8	3.8	7.44e-01	0	60	104	315621376	62	33369
2026-01-12 11:52:40.80	344.23	3.75	-46.0	-64.8	3.8	7.44e-01	0	59	104	315621376	62	33367
2026-01-12 11:52:42.83	344.23	3.61	-46.0	-64.8	3.8	7.46e-01	0	60	104	315621376	62	33347
2026-01-12 11:52:44.85	344.24	3.47	-45.6	-64.9	3.8	7.47e-01	0	60	104	315621376	62	34078
2026-01-12 11:52:46.87	344.25	3.33	-46.0	-64.8	3.8	7.49e-01	0	60	104	315621376	62	33355
2026-01-12 11:52:48.89	344.26	3.19	-45.7	-64.7	3.8	7.46e-01	0	60	104	315621376	62	33301
2026-01-12 11:52:50.91	344.27	3.05	-46.0	-64.8	3.8	7.46e-01	0	60	104	315621376	62	33326
2026-01-12 11:52:52.93	344.27	2.91	-45.6	-64.7	3.9	7.44e-01	0	60	104	315621376	62	33276
2026-01-12 11:52:54.96	344.28	2.77	-46.0	-64.8	3.8	7.47e-01	0	60	104	315621376	62	33323
2026-01-12 11:52:56.98	344.29	2.63	-46.0	-64.7	3.8	7.44e-01	0	60	104	315621376	62	33286
2026-01-12 11:52:59.00	344.30	2.50	-46.0	-64.8	3.8	7.45e-01	0	59	104	315621376	62	33338
2026-01-12 11:53:01.02	344.31	2.36	-46.0	-64.7	3.8	7.48e-01	0	60	104	315621376	62	33269
2026-01-12 11:53:03.04	344.31	2.23	-45.9	-64.8	3.8	7.46e-01	0	60	104	315621376	62	33342
2026-01-12 11:53:05.06	344.32	2.09	-46.0	-64.7	3.8	7.44e-01	0	60	104	315621376	62	33261

#Closed at: 2026-01-12 11:53:07
#Recorded file [315 MB]: D:/lorett/data/31039_260112_144614.dat