passes_logs/2026/01/12/R2.0S_Moscow/R2.0S_Moscow__20260112_090210_NOAA_20_JPSS-1_rec.log

#Pass ID: 20260112_090210_NOAA 20 (JPSS-1)
#Satellite: NOAA 20 (JPSS-1)
#Configuration: NOAA 20
#almurnet v.1.7.20251203
#Start time: 2026-01-12 09:02:10

#Version: 2.2.20231116
#Station: R2.0S_Moscow
#Location: 37.707566 lon 55.798166 lat
#TLE: 1 43013U 17073A   26011.31235446  .00000090  00000+0  63634-4 0  9991
#TLE: 2 43013  98.7632 312.2907 0001646  44.6084 315.5224 14.19535308422217

#Time	Az	El	Level	Level2	SNR	BER	BlckErr	Temp	State	Recorded	gain1	gain2
2026-01-12 09:02:10.66	134.83	2.03	-17.8	-31.7	3.8	1.51e+00	0	48	0	0	6	18682
2026-01-12 09:02:14.71	134.68	2.28	-18.8	-33.0	3.9	1.51e+00	0	49	104	0	5	22916
2026-01-12 09:02:18.76	134.53	2.54	-17.2	-30.9	3.9	1.51e+00	0	49	104	0	3	20096
2026-01-12 09:02:22.80	134.38	2.80	-14.6	-32.2	3.8	1.50e+00	0	49	104	0	5	20879
2026-01-12 09:02:26.85	134.22	3.05	-17.8	-33.2	3.5	1.50e+00	0	49	104	0	12	15739
2026-01-12 09:02:30.89	134.06	3.32	-17.7	-30.8	3.7	1.51e+00	0	50	104	0	6	16860
2026-01-12 09:02:34.93	133.90	3.58	-18.8	-33.6	3.5	1.50e+00	0	50	104	0	9	19541
2026-01-12 09:02:38.97	133.74	3.84	-12.0	-32.7	3.8	1.51e+00	0	50	104	0	0	29407
2026-01-12 09:02:43.02	133.57	4.11	-14.3	-28.9	3.7	1.50e+00	0	51	104	0	0	19147
2026-01-12 09:02:47.06	133.40	4.38	-16.1	-30.5	3.5	1.51e+00	0	51	104	0	9	13719
2026-01-12 09:02:51.10	133.23	4.66	-15.2	-29.0	3.6	1.50e+00	0	51	104	0	4	15384
2026-01-12 09:02:55.15	133.05	4.93	-19.0	-33.4	3.8	1.50e+00	0	51	104	0	4	25334
2026-01-12 09:02:59.19	132.87	5.21	-17.7	-34.0	3.7	1.51e+00	0	52	104	0	5	25810
2026-01-12 09:03:03.23	132.68	5.49	-14.1	-26.4	3.9	1.50e+00	0	52	104	0	3	12070
2026-01-12 09:03:07.28	132.49	5.77	-19.8	-34.5	3.4	1.50e+00	0	52	104	0	6	25852
2026-01-12 09:03:11.32	132.30	6.06	-18.7	-35.7	3.5	1.50e+00	0	52	104	0	11	22084
2026-01-12 09:03:15.36	132.10	6.35	-18.1	-33.5	3.8	1.51e+00	0	52	104	0	8	20423
2026-01-12 09:03:19.41	131.90	6.64	-18.1	-33.4	3.5	1.50e+00	0	53	104	0	6	22716
2026-01-12 09:03:23.45	131.70	6.94	-17.7	-31.6	3.8	1.51e+00	0	53	104	0	1	24478
2026-01-12 09:03:27.50	131.49	7.24	-14.5	-28.5	4.0	1.50e+00	0	53	104	0	5	13713
2026-01-12 09:03:31.54	131.27	7.54	-19.7	-33.4	3.5	1.51e+00	0	53	104	0	7	21485
2026-01-12 09:03:35.58	131.05	7.84	-19.7	-34.9	3.6	1.50e+00	0	53	104	0	9	22683
2026-01-12 09:03:39.62	130.83	8.15	-21.7	-35.3	3.6	1.50e+00	0	53	104	0	8	25013
2026-01-12 09:03:43.66	130.60	8.46	-19.8	-33.8	3.8	1.50e+00	0	54	104	0	2	29900
2026-01-12 09:03:47.70	130.37	8.77	-17.2	-33.5	3.7	1.51e+00	0	54	104	0	9	19258
2026-01-12 09:03:51.74	130.13	9.09	-15.1	-29.9	3.6	1.50e+00	0	54	104	0	9	12706
2026-01-12 09:03:55.78	129.88	9.41	-20.0	-35.0	3.8	1.50e+00	0	54	104	0	10	21654
2026-01-12 09:03:59.82	129.63	9.74	-19.1	-34.1	3.6	1.50e+00	0	54	104	0	8	21963
2026-01-12 09:04:03.86	129.38	10.07	-16.7	-30.7	4.0	1.51e+00	0	54	104	0	5	17642
2026-01-12 09:04:07.90	129.11	10.40	-14.2	-27.5	3.5	1.50e+00	0	54	104	0	1	15273
2026-01-12 09:04:11.94	128.85	10.74	-21.0	-37.7	3.8	1.50e+00	0	54	104	0	13	24899
2026-01-12 09:04:15.98	128.57	11.08	-19.0	-34.9	4.0	1.50e+00	0	55	104	0	11	20086
2026-01-12 09:04:20.02	128.29	11.42	-20.2	-37.5	3.7	1.50e+00	0	54	104	0	16	20427
2026-01-12 09:04:24.06	128.00	11.77	-20.7	-34.5	3.7	1.50e+00	0	55	104	0	5	27382
2026-01-12 09:04:28.10	127.70	12.13	-18.1	-36.1	3.5	1.50e+00	0	55	104	0	8	27424
2026-01-12 09:04:32.14	127.40	12.48	-29.9	-42.2	4.7	1.46e+00	0	55	104	0	14	39563
2026-01-12 09:04:36.18	127.09	12.85	-20.2	-37.2	4.3	1.39e+00	0	55	104	0	13	23457
2026-01-12 09:04:40.22	126.77	13.21	-38.2	-45.3	5.8	1.38e+00	21	55	104	0	40	12595
2026-01-12 09:04:44.26	126.44	13.58	-24.7	-39.3	4.1	1.40e+00	0	55	104	0	32	10007
2026-01-12 09:04:48.30	126.11	13.96	-37.8	-45.6	8.9	1.27e-01	3	55	0	5242880	49	7775
2026-01-12 09:04:52.34	125.76	14.34	-36.2	-45.8	8.9	1.64e-01	3	55	0	12582912	43	11238
2026-01-12 09:04:56.38	125.41	14.73	-31.8	-43.8	8.1	2.38e-02	8	55	0	19922944	45	7973
2026-01-12 09:05:00.42	125.04	15.12	-36.6	-45.5	9.9	2.11e-02	0	56	0	27262976	45	9685
2026-01-12 09:05:04.45	124.67	15.52	-40.9	-44.4	12.9	1.14e-04	0	56	0	34603008	52	5666
2026-01-12 09:05:08.49	124.28	15.92	-40.9	-44.6	12.7	6.70e-04	0	56	0	41943040	52	5819
2026-01-12 09:05:12.53	123.89	16.32	-40.6	-43.6	13.9	1.14e-05	0	56	0	50331648	51	5513
2026-01-12 09:05:16.57	123.48	16.74	-40.6	-43.8	13.6	8.30e-06	0	56	0	57671680	52	5330
2026-01-12 09:05:20.60	123.07	17.15	-40.6	-43.6	14.0	9.10e-06	0	56	0	65011712	51	5506
2026-01-12 09:05:24.64	122.64	17.58	-40.7	-43.8	13.8	9.90e-06	0	56	0	72351744	51	5618
2026-01-12 09:05:28.69	122.19	18.01	-39.7	-43.6	13.3	3.40e-03	0	56	0	80740352	50	5845
2026-01-12 09:05:32.73	121.74	18.44	-40.6	-43.8	13.8	9.80e-04	0	56	0	88080384	52	5287
2026-01-12 09:05:36.77	121.27	18.88	-40.7	-43.8	13.7	3.15e-04	0	56	0	95420416	51	5613
2026-01-12 09:05:40.81	120.78	19.33	-40.7	-43.7	13.9	2.20e-06	0	56	0	102760448	52	5262
2026-01-12 09:05:44.84	120.29	19.78	-40.7	-43.8	13.9	1.44e-05	0	56	0	110100480	52	5281
2026-01-12 09:05:48.88	119.78	20.24	-40.7	-43.8	13.9	1.50e-06	0	56	0	118489088	52	5297
2026-01-12 09:05:52.92	119.25	20.71	-40.8	-43.9	13.9	2.20e-06	0	56	0	125829120	52	5346
2026-01-12 09:05:56.96	118.70	21.18	-40.8	-44.0	13.7	6.10e-06	0	56	0	133169152	52	5449
2026-01-12 09:06:01.00	118.14	21.65	-41.0	-44.3	13.4	1.22e-05	0	56	0	140509184	52	5621
2026-01-12 09:06:05.04	117.56	22.14	-41.0	-44.1	13.6	1.90e-05	0	56	0	148897792	52	5523
2026-01-12 09:06:09.08	116.96	22.63	-41.1	-44.4	13.4	1.14e-05	0	56	0	156237824	52	5659
2026-01-12 09:06:13.12	116.34	23.12	-41.0	-44.2	13.6	7.60e-06	0	56	0	163577856	52	5551
2026-01-12 09:06:17.16	115.70	23.62	-41.1	-44.3	13.5	1.50e-06	0	57	0	170917888	52	5622
2026-01-12 09:06:21.20	115.04	24.13	-41.0	-44.2	13.7	3.00e-06	0	56	0	178257920	52	5529
2026-01-12 09:06:25.24	114.36	24.64	-41.0	-44.1	13.7	5.30e-06	0	56	0	186646528	52	5513
2026-01-12 09:06:29.28	113.65	25.16	-41.0	-44.0	13.9	6.10e-06	0	57	0	193986560	52	5456
2026-01-12 09:06:33.32	112.92	25.68	-41.2	-44.5	13.5	9.90e-06	0	57	0	201326592	52	5723
2026-01-12 09:06:37.36	112.17	26.21	-41.3	-44.6	13.3	1.75e-05	0	56	0	208666624	53	5485
2026-01-12 09:06:41.39	111.39	26.74	-41.5	-45.0	12.9	4.42e-05	0	57	0	217055232	53	5747
2026-01-12 09:06:45.43	110.58	27.27	-41.9	-45.7	12.2	2.00e-04	0	57	0	224395264	54	5860
2026-01-12 09:06:49.47	109.75	27.81	-42.1	-46.1	11.7	4.50e-04	0	57	0	231735296	54	6186
2026-01-12 09:06:53.51	108.88	28.36	-42.4	-46.7	11.1	1.55e-03	0	57	0	239075328	55	6265
2026-01-12 09:06:57.54	107.99	28.91	-42.5	-47.0	10.9	2.25e-03	0	57	0	246415360	55	6421
2026-01-12 09:07:01.58	107.07	29.46	-42.4	-46.7	11.1	1.57e-03	0	57	0	254803968	55	6262
2026-01-12 09:07:05.62	106.11	30.01	-42.3	-46.6	11.3	1.23e-03	0	57	0	262144000	55	6138
2026-01-12 09:07:09.65	105.12	30.56	-42.4	-46.7	11.2	1.25e-03	0	57	0	269484032	55	6239
2026-01-12 09:07:13.69	104.09	31.11	-43.0	-48.1	9.9	8.31e-03	0	57	0	276824064	56	6937
2026-01-12 09:07:17.73	103.03	31.67	-42.9	-47.8	10.2	6.47e-03	0	57	0	285212672	56	6695
2026-01-12 09:07:21.77	101.93	32.22	-42.6	-47.0	11.0	2.77e-03	0	57	0	292552704	56	6114
2026-01-12 09:07:25.80	100.80	32.77	-42.2	-46.2	12.0	3.65e-04	0	57	0	299892736	56	5530
2026-01-12 09:07:29.84	99.62	33.32	-42.3	-46.3	11.8	4.17e-04	0	57	0	307232768	56	5614
2026-01-12 09:07:33.88	98.41	33.86	-42.5	-46.8	11.3	9.87e-04	0	57	0	314572800	56	5965
2026-01-12 09:07:37.92	97.15	34.40	-42.4	-46.5	11.7	4.61e-04	0	57	0	322961408	56	5743
2026-01-12 09:07:41.96	95.85	34.93	-42.7	-47.1	11.0	2.79e-03	0	57	0	330301440	56	6168
2026-01-12 09:07:46.00	94.51	35.45	-42.8	-47.4	10.7	2.65e-03	0	57	0	337641472	56	6389
2026-01-12 09:07:50.03	93.12	35.96	-43.1	-48.1	10.0	7.27e-03	0	57	0	344981504	56	6933
2026-01-12 09:07:54.07	91.69	36.46	-42.9	-47.6	10.5	4.82e-03	0	57	0	353370112	56	6549
2026-01-12 09:07:58.11	90.22	36.94	-42.5	-46.6	11.6	8.32e-04	0	57	0	360710144	56	5814
2026-01-12 09:08:02.15	88.70	37.42	-42.6	-46.8	11.4	1.00e-03	0	57	0	368050176	56	5983
2026-01-12 09:08:06.18	87.15	37.87	-42.3	-46.2	12.1	3.49e-04	0	57	0	375390208	56	5530
2026-01-12 09:08:10.22	85.54	38.30	-41.5	-44.9	13.2	1.98e-05	0	57	0	382730240	55	5059
2026-01-12 09:08:14.25	83.90	38.71	-41.5	-44.7	13.4	6.80e-06	0	58	0	391118848	54	5255
2026-01-12 09:08:18.29	82.21	39.11	-41.2	-44.3	13.9	4.50e-06	0	57	0	398458880	54	5009
2026-01-12 09:08:22.33	80.49	39.47	-40.8	-43.6	14.6	7.00e-07	0	57	0	405798912	53	4909
2026-01-12 09:08:26.37	78.72	39.81	-40.5	-43.2	15.0	0.00e+00	0	58	0	413138944	53	4682
2026-01-12 09:08:30.41	76.92	40.12	-40.8	-43.6	14.6	0.00e+00	0	57	0	421527552	52	5164
2026-01-12 09:08:34.44	75.09	40.40	-40.6	-43.3	14.9	7.00e-07	0	57	0	428867584	52	5037
2026-01-12 09:08:38.48	73.23	40.65	-40.2	-42.7	15.6	0.00e+00	0	57	0	436207616	52	4665
2026-01-12 09:08:42.52	71.34	40.86	-40.4	-42.9	15.3	0.00e+00	0	58	0	443547648	52	4806
2026-01-12 09:08:46.56	69.42	41.04	-40.4	-42.9	15.3	0.00e+00	0	58	0	450887680	52	4812
2026-01-12 09:08:50.60	67.49	41.19	-40.6	-43.3	14.9	1.50e-06	0	57	0	459276288	52	5016
2026-01-12 09:08:54.64	65.54	41.30	-40.6	-43.3	15.0	0.00e+00	0	58	0	466616320	52	5017
2026-01-12 09:08:58.68	63.58	41.37	-41.4	-44.5	13.8	6.80e-06	0	57	0	473956352	53	5455
2026-01-12 09:09:02.72	61.62	41.40	-41.8	-45.2	13.0	2.67e-05	0	58	0	481296384	54	5592
2026-01-12 09:09:06.76	59.65	41.39	-42.1	-45.8	12.5	9.84e-05	0	58	0	489684992	54	5967
2026-01-12 09:09:10.80	57.69	41.35	-42.2	-46.0	12.1	3.19e-04	0	58	0	497025024	55	5774
2026-01-12 09:09:14.83	55.74	41.27	-43.1	-47.7	10.6	2.22e-03	0	58	0	504365056	56	6624
2026-01-12 09:09:18.87	53.80	41.15	-43.2	-48.1	10.1	7.73e-03	0	58	0	511705088	57	6547
2026-01-12 09:09:22.91	51.87	40.99	-43.3	-48.4	9.8	1.06e-02	0	58	0	519045120	57	6799
2026-01-12 09:09:26.95	49.97	40.80	-43.0	-47.5	10.8	3.21e-03	0	58	0	527433728	57	6111
2026-01-12 09:09:30.98	48.09	40.58	-42.5	-46.4	12.0	7.03e-04	0	58	0	534773760	56	5676
2026-01-12 09:09:35.02	46.24	40.32	-41.5	-44.7	13.5	1.14e-05	0	58	0	542113792	55	4959
2026-01-12 09:09:39.06	44.42	40.03	-40.8	-43.6	14.6	0.00e+00	0	58	0	549453824	53	4891
2026-01-12 09:09:43.10	42.63	39.72	-40.3	-42.8	15.4	0.00e+00	0	58	0	557842432	52	4758
2026-01-12 09:09:47.14	40.88	39.37	-40.0	-42.3	16.0	0.00e+00	0	58	0	565182464	51	4733
2026-01-12 09:09:51.18	39.17	39.00	-39.8	-42.0	16.3	0.00e+00	0	58	0	572522496	51	4594
2026-01-12 09:09:55.22	37.50	38.60	-39.7	-42.0	16.4	0.00e+00	0	58	0	579862528	51	4554
2026-01-12 09:09:59.26	35.87	38.18	-39.9	-42.2	16.1	0.00e+00	0	58	0	587202560	51	4688
2026-01-12 09:10:03.30	34.28	37.74	-40.3	-42.7	15.7	0.00e+00	0	58	0	595591168	51	4951
2026-01-12 09:10:07.34	32.74	37.29	-40.3	-42.7	15.6	0.00e+00	0	58	0	602931200	51	4981
2026-01-12 09:10:11.39	31.24	36.81	-40.4	-42.9	15.5	0.00e+00	0	58	0	610271232	51	5061
2026-01-12 09:10:15.43	29.78	36.32	-40.6	-43.2	15.1	0.00e+00	0	58	0	617611264	51	5242
2026-01-12 09:10:19.47	28.37	35.82	-40.6	-43.3	15.0	0.00e+00	0	58	0	625999872	51	5302
2026-01-12 09:10:23.50	27.00	35.31	-40.9	-43.7	14.5	0.00e+00	0	58	0	633339904	52	5263
2026-01-12 09:10:27.55	25.68	34.79	-41.5	-44.7	13.4	6.80e-06	0	58	0	640679936	53	5592
2026-01-12 09:10:31.59	24.39	34.26	-41.6	-44.9	13.2	1.29e-05	0	58	0	648019968	53	5700
2026-01-12 09:10:35.62	23.16	33.72	-41.9	-45.5	12.6	9.15e-05	0	58	0	655360000	54	5771
2026-01-12 09:10:39.66	21.96	33.18	-42.3	-46.4	11.7	4.87e-04	0	58	0	663748608	55	5994
2026-01-12 09:10:43.70	20.80	32.63	-42.4	-46.5	11.6	8.03e-04	0	58	0	671088640	55	6093
2026-01-12 09:10:47.74	19.68	32.09	-42.7	-47.1	10.9	2.19e-03	0	58	0	678428672	55	6564
2026-01-12 09:10:51.78	18.59	31.54	-42.5	-46.8	11.3	1.54e-03	0	58	0	685768704	55	6337
2026-01-12 09:10:55.82	17.55	30.98	-42.5	-46.9	11.2	1.98e-03	0	58	0	694157312	55	6401
2026-01-12 09:10:59.86	16.54	30.43	-42.3	-46.4	11.6	7.11e-04	0	58	0	701497344	55	6048
2026-01-12 09:11:03.89	15.56	29.88	-42.0	-45.8	12.3	1.93e-04	0	58	0	708837376	55	5604
2026-01-12 09:11:07.93	14.62	29.33	-41.9	-45.7	12.3	1.75e-04	0	58	0	716177408	55	5564
2026-01-12 09:11:11.97	13.71	28.79	-41.6	-45.0	13.1	2.51e-05	0	58	0	723517440	55	5135
2026-01-12 09:11:16.01	12.83	28.24	-41.6	-45.0	13.0	3.58e-05	0	58	0	731906048	55	5128
2026-01-12 09:11:20.05	11.98	27.70	-41.4	-44.6	13.4	1.06e-05	0	58	0	739246080	54	5213
2026-01-12 09:11:24.09	11.16	27.17	-41.4	-44.7	13.3	9.90e-06	0	58	0	746586112	54	5250
2026-01-12 09:11:28.12	10.36	26.63	-41.5	-44.9	13.1	3.81e-05	0	58	0	753926144	54	5345
2026-01-12 09:11:32.16	9.59	26.11	-41.3	-44.6	13.4	1.75e-05	0	58	0	762314752	54	5169
2026-01-12 09:11:36.20	8.85	25.58	-41.5	-45.0	13.0	2.82e-05	0	58	0	769654784	54	5410
2026-01-12 09:11:40.24	8.13	25.06	-41.8	-45.4	12.5	8.77e-05	0	58	0	776994816	54	5702
2026-01-12 09:11:44.27	7.44	24.55	-41.7	-45.4	12.6	9.99e-05	0	58	0	784334848	54	5657
2026-01-12 09:11:48.31	6.77	24.04	-41.6	-45.2	12.7	6.79e-05	0	58	0	791674880	54	5565
2026-01-12 09:11:52.35	6.12	23.54	-41.4	-44.9	13.1	3.73e-05	0	58	0	800063488	54	5344
2026-01-12 09:11:56.39	5.49	23.04	-41.4	-44.8	13.1	2.13e-05	0	58	0	807403520	54	5294
2026-01-12 09:12:00.42	4.88	22.56	-41.7	-45.4	12.5	1.18e-04	0	58	0	814743552	54	5664
2026-01-12 09:12:04.46	4.29	22.07	-41.7	-45.5	12.3	1.94e-04	0	58	0	822083584	54	5771
2026-01-12 09:12:08.50	3.72	21.59	-41.6	-45.4	12.4	1.63e-04	0	58	0	830472192	54	5677
2026-01-12 09:12:12.54	3.17	21.12	-41.5	-45.0	12.7	8.46e-05	0	58	0	837812224	54	5459
2026-01-12 09:12:16.58	2.63	20.65	-41.4	-44.9	12.8	5.11e-05	0	58	0	845152256	54	5393
2026-01-12 09:12:20.61	2.11	20.19	-41.4	-45.0	12.7	6.63e-05	0	58	0	852492288	54	5457
2026-01-12 09:12:24.65	1.61	19.74	-41.4	-45.0	12.7	9.15e-05	0	58	0	859832320	54	5435
2026-01-12 09:12:28.69	1.12	19.29	-41.4	-45.0	12.6	9.30e-05	0	58	0	868220928	54	5418
2026-01-12 09:12:32.73	0.64	18.85	-41.3	-45.0	12.6	8.92e-05	0	58	0	875560960	54	5413
2026-01-12 09:12:36.77	0.18	18.41	-41.3	-44.9	12.6	7.24e-05	0	58	0	882900992	54	5371
2026-01-12 09:12:40.81	359.73	17.98	-41.5	-45.3	12.1	1.95e-04	0	58	0	890241024	54	5634
2026-01-12 09:12:44.84	359.30	17.55	-41.5	-45.5	11.8	4.30e-04	0	58	0	898629632	54	5786
2026-01-12 09:12:48.88	358.87	17.13	-41.3	-45.2	12.2	2.72e-04	0	58	0	905969664	54	5530
2026-01-12 09:12:52.92	358.46	16.72	-41.3	-45.3	11.9	3.98e-04	0	58	0	913309696	54	5601
2026-01-12 09:12:56.97	358.06	16.31	-41.1	-45.2	11.7	5.07e-04	0	58	0	920649728	54	5545
2026-01-12 09:13:01.00	357.68	15.90	-41.1	-45.5	11.2	1.59e-03	0	58	0	927989760	54	5776
2026-01-12 09:13:05.04	357.30	15.51	-41.0	-45.5	11.0	1.53e-03	0	58	0	936378368	53	6127
2026-01-12 09:13:09.08	356.93	15.11	-40.8	-45.1	11.2	1.84e-03	0	58	0	943718400	53	5844
2026-01-12 09:13:13.12	356.57	14.72	-40.6	-45.6	10.3	3.96e-03	0	58	0	951058432	53	6152
2026-01-12 09:13:17.17	356.22	14.34	-40.9	-47.9	7.3	9.65e-02	0	58	0	958398464	53	8076
2026-01-12 09:13:21.21	355.89	13.96	-40.9	-51.2	4.6	8.02e-01	0	58	0	966787072	53	11731
2026-01-12 09:13:25.24	355.56	13.59	-40.6	-53.6	3.8	1.49e+00	0	58	104	967835648	53	15464
2026-01-12 09:13:29.28	355.24	13.22	-40.3	-54.7	3.8	1.49e+00	0	58	104	967835648	52	18569
2026-01-12 09:13:33.32	354.92	12.86	-40.1	-54.8	3.8	1.49e+00	0	58	104	967835648	52	18822
2026-01-12 09:13:37.35	354.62	12.50	-40.1	-54.9	3.8	1.49e+00	0	58	104	967835648	52	18995
2026-01-12 09:13:41.39	354.32	12.14	-40.2	-54.8	3.8	1.49e+00	0	58	104	967835648	52	18897
2026-01-12 09:13:45.43	354.03	11.79	-40.3	-54.9	3.8	1.49e+00	0	58	104	967835648	51	20198
2026-01-12 09:13:49.47	353.75	11.44	-39.9	-54.7	3.8	1.49e+00	0	58	104	967835648	51	19756
2026-01-12 09:13:53.51	353.47	11.10	-39.7	-54.7	3.8	1.49e+00	0	59	104	967835648	51	19755
2026-01-12 09:13:57.55	353.20	10.76	-39.9	-54.7	3.8	1.49e+00	0	58	104	967835648	51	19809
2026-01-12 09:14:01.57	352.94	10.43	-40.2	-54.9	3.8	1.49e+00	0	58	104	967835648	51	20106
2026-01-12 09:14:05.61	352.69	10.10	-40.3	-55.0	3.8	1.49e+00	0	58	104	967835648	51	20349
2026-01-12 09:14:09.65	352.43	9.77	-40.4	-55.1	3.8	1.49e+00	0	58	104	967835648	51	20571
2026-01-12 09:14:13.69	352.19	9.45	-40.2	-55.0	3.8	1.49e+00	0	58	104	967835648	51	20351
2026-01-12 09:14:17.73	351.95	9.13	-40.3	-54.9	3.8	1.49e+00	0	58	104	967835648	51	20239
2026-01-12 09:14:21.77	351.72	8.81	-40.4	-55.1	3.8	1.49e+00	0	59	104	967835648	51	20575
2026-01-12 09:14:25.80	351.49	8.50	-40.5	-55.0	3.8	1.49e+00	0	58	104	967835648	51	20533
2026-01-12 09:14:29.84	351.27	8.19	-40.5	-55.1	3.8	1.49e+00	0	58	104	967835648	51	20667
2026-01-12 09:14:33.88	351.05	7.89	-40.2	-55.2	3.8	1.49e+00	0	58	104	967835648	52	19826
2026-01-12 09:14:37.92	350.84	7.58	-44.9	-59.5	3.8	1.49e+00	0	58	104	967835648	60	20511
2026-01-12 09:14:41.97	350.63	7.28	-45.1	-59.8	3.8	1.49e+00	0	58	104	967835648	60	21018
2026-01-12 09:14:46.01	350.42	6.99	-45.0	-59.7	3.8	1.49e+00	0	59	104	967835648	60	20827
2026-01-12 09:14:50.05	350.22	6.69	-45.0	-59.6	3.8	1.49e+00	0	58	104	967835648	60	20614
2026-01-12 09:14:54.10	350.03	6.40	-45.0	-59.6	3.8	1.49e+00	0	59	104	967835648	60	20594
2026-01-12 09:14:58.14	349.84	6.12	-45.0	-59.6	3.8	1.49e+00	0	58	104	967835648	60	20572
2026-01-12 09:15:02.18	349.65	5.83	-44.9	-59.5	3.8	1.49e+00	0	58	104	967835648	60	20537
2026-01-12 09:15:06.23	349.47	5.55	-44.9	-59.6	3.8	1.49e+00	0	58	104	967835648	60	20545
2026-01-12 09:15:10.27	349.29	5.27	-44.9	-59.5	3.8	1.49e+00	0	59	104	967835648	60	20515
2026-01-12 09:15:14.31	349.11	4.99	-44.9	-59.6	3.8	1.49e+00	0	58	104	967835648	60	20589
2026-01-12 09:15:18.36	348.94	4.72	-44.9	-59.5	3.8	1.49e+00	0	58	104	967835648	60	20511
2026-01-12 09:15:22.40	348.77	4.45	-44.9	-59.5	3.8	1.49e+00	0	59	104	967835648	60	20472
2026-01-12 09:15:26.45	348.61	4.18	-44.9	-59.5	3.8	1.49e+00	0	59	104	967835648	60	20499
2026-01-12 09:15:30.49	348.44	3.91	-44.9	-59.5	3.8	1.49e+00	0	59	104	967835648	60	20486
2026-01-12 09:15:34.54	348.28	3.65	-44.9	-59.5	3.8	1.49e+00	0	59	104	967835648	60	20420
2026-01-12 09:15:38.58	348.13	3.38	-44.9	-59.5	3.8	1.49e+00	0	58	104	967835648	60	20402
2026-01-12 09:15:42.62	347.98	3.12	-44.9	-59.5	3.8	1.49e+00	0	58	104	967835648	60	20431
2026-01-12 09:15:46.67	347.83	2.87	-44.9	-59.5	3.8	1.49e+00	0	58	104	967835648	60	20407
2026-01-12 09:15:50.71	347.68	2.61	-44.9	-59.5	3.8	1.49e+00	0	59	104	967835648	60	20399
2026-01-12 09:15:54.76	347.54	2.36	-44.9	-59.5	3.8	1.49e+00	0	59	104	967835648	60	20367
2026-01-12 09:15:58.80	347.40	2.11	-44.6	-59.5	3.8	1.49e+00	0	59	104	967835648	60	20401

#Closed at: 2026-01-12 09:16:01
#Recorded file [967 MB]: D:/lorett/data/31039_260112_120210.dat