passes_logs/2026/01/12/R2.0S_Moscow/R2.0S_Moscow__20260112_014143_NOAA_21_JPSS-2_rec.log

#Pass ID: 20260112_014143_NOAA 21 (JPSS-2)
#Satellite: NOAA 21 (JPSS-2)
#Configuration: NOAA-21
#almurnet v.1.7.20251203
#Start time: 2026-01-12 01:44:50

#Version: 2.2.20231116
#Station: R2.0S_Moscow
#Location: 37.707566 lon 55.798166 lat
#TLE: 1 54234U 22150A   26011.27699114  .00000090  00000+0  63771-4 0  9993
#TLE: 2 54234  98.7494 312.2218 0000765 314.9553  45.1561 14.19534106164285

#Time	Az	El	Level	Level2	SNR	BER	BlckErr	Temp	State	Recorded	gain1	gain2
2026-01-12 01:44:50.27	348.25	12.36	-44.9	-56.6	3.8	8.46e-01	0	56	0	0	60	14567
2026-01-12 01:44:53.31	347.77	12.52	-45.2	-57.6	3.8	1.49e+00	0	57	104	0	62	14546
2026-01-12 01:44:56.34	347.28	12.69	-45.1	-57.5	3.8	1.49e+00	0	56	104	0	62	14408
2026-01-12 01:44:59.37	346.78	12.85	-44.7	-57.1	3.8	1.49e+00	0	56	104	0	61	14590
2026-01-12 01:45:02.40	346.28	13.01	-42.4	-55.2	3.8	1.49e+00	0	56	104	0	56	15599
2026-01-12 01:45:05.43	345.77	13.17	-42.4	-55.1	3.8	1.49e+00	0	56	104	0	56	15540
2026-01-12 01:45:08.47	345.26	13.33	-42.4	-55.1	3.8	1.49e+00	0	57	104	0	56	15565
2026-01-12 01:45:11.50	344.74	13.48	-42.4	-55.2	3.8	1.49e+00	0	56	104	0	56	15589
2026-01-12 01:45:14.53	344.22	13.64	-42.4	-55.1	3.8	1.49e+00	0	56	104	0	56	15505
2026-01-12 01:45:17.56	343.69	13.79	-42.4	-55.1	3.8	1.49e+00	0	56	104	0	56	15562
2026-01-12 01:45:20.60	343.15	13.95	-42.4	-55.1	3.8	1.49e+00	0	56	104	0	56	15480
2026-01-12 01:45:23.63	342.61	14.10	-42.4	-55.1	3.8	1.49e+00	0	56	104	0	56	15512
2026-01-12 01:45:26.66	342.06	14.25	-42.3	-55.1	3.8	1.49e+00	0	57	104	0	56	15451
2026-01-12 01:45:29.70	341.51	14.40	-42.3	-55.0	3.8	1.49e+00	0	56	104	0	56	15365
2026-01-12 01:45:32.73	340.95	14.54	-42.3	-54.9	3.8	1.49e+00	0	57	104	0	56	15089
2026-01-12 01:45:35.76	340.39	14.69	-42.3	-54.1	3.8	1.49e+00	0	56	104	0	56	13822
2026-01-12 01:45:38.79	339.82	14.83	-41.8	-50.5	4.5	1.43e+00	0	56	104	0	55	9689
2026-01-12 01:45:41.83	339.25	14.97	-40.3	-45.1	8.5	6.21e-02	0	56	0	7340032	52	6177
2026-01-12 01:45:44.86	338.67	15.11	-39.1	-41.9	12.5	6.33e-05	0	56	0	16777216	49	5066
2026-01-12 01:45:47.89	338.08	15.24	-39.9	-42.7	12.1	1.25e-03	0	56	0	23068672	51	4959
2026-01-12 01:45:50.92	337.49	15.38	-38.6	-40.8	14.0	2.20e-06	0	57	0	32505856	48	4722
2026-01-12 01:45:53.94	336.90	15.51	-38.6	-40.6	14.6	0.00e+00	0	56	0	41943040	48	4646
2026-01-12 01:45:56.97	336.30	15.64	-38.6	-40.6	14.7	0.00e+00	0	56	0	51380224	48	4625
2026-01-12 01:46:00.00	335.69	15.76	-38.4	-40.3	15.1	0.00e+00	0	56	0	60817408	48	4470
2026-01-12 01:46:03.03	335.08	15.89	-38.2	-40.1	15.3	0.00e+00	0	57	0	71303168	48	4360
2026-01-12 01:46:06.06	334.46	16.01	-38.0	-39.8	15.7	0.00e+00	0	57	0	79691776	48	4214
2026-01-12 01:46:09.09	333.84	16.12	-37.8	-39.6	15.8	0.00e+00	0	56	0	90177536	47	4349
2026-01-12 01:46:12.12	333.22	16.24	-37.9	-39.6	15.8	0.00e+00	0	56	0	99614720	47	4387
2026-01-12 01:46:15.15	332.59	16.35	-37.9	-39.7	15.7	0.00e+00	0	56	0	109051904	47	4423
2026-01-12 01:46:18.19	331.95	16.46	-37.8	-39.6	15.9	0.00e+00	0	56	0	118489088	47	4343
2026-01-12 01:46:21.21	331.31	16.57	-38.0	-39.7	15.7	0.00e+00	0	56	0	127926272	47	4434
2026-01-12 01:46:24.24	330.66	16.67	-38.0	-39.8	15.7	0.00e+00	0	56	0	137363456	47	4488
2026-01-12 01:46:27.27	330.01	16.77	-38.1	-39.8	15.7	0.00e+00	0	56	0	146800640	47	4487
2026-01-12 01:46:30.30	329.36	16.86	-38.0	-39.8	15.7	0.00e+00	0	57	0	156237824	47	4484
2026-01-12 01:46:33.33	328.70	16.96	-38.1	-39.9	15.7	0.00e+00	0	56	0	165675008	47	4501
2026-01-12 01:46:36.36	328.04	17.05	-37.9	-39.6	15.9	0.00e+00	0	56	0	175112192	47	4355
2026-01-12 01:46:39.39	327.38	17.13	-37.9	-39.6	15.9	0.00e+00	0	56	0	184549376	47	4374
2026-01-12 01:46:42.42	326.71	17.21	-37.8	-39.6	16.0	0.00e+00	0	56	0	193986560	47	4349
2026-01-12 01:46:45.44	326.03	17.29	-38.0	-39.8	15.8	0.00e+00	0	56	0	203423744	47	4456
2026-01-12 01:46:48.47	325.36	17.36	-38.2	-40.0	15.6	0.00e+00	0	56	0	212860928	47	4573
2026-01-12 01:46:51.50	324.68	17.43	-38.1	-39.9	15.7	0.00e+00	0	57	0	222298112	47	4523
2026-01-12 01:46:54.54	323.99	17.50	-38.1	-40.0	15.6	0.00e+00	0	56	0	231735296	47	4546
2026-01-12 01:46:57.57	323.31	17.56	-38.1	-39.8	15.7	0.00e+00	0	56	0	241172480	47	4490
2026-01-12 01:47:00.60	322.62	17.62	-38.0	-39.8	15.7	0.00e+00	0	56	0	250609664	47	4468
2026-01-12 01:47:03.63	321.93	17.67	-38.1	-39.9	15.7	0.00e+00	0	56	0	260046848	47	4504
2026-01-12 01:47:06.66	321.23	17.72	-38.1	-39.8	15.7	0.00e+00	0	57	0	269484032	47	4477
2026-01-12 01:47:09.69	320.53	17.77	-38.1	-39.9	15.7	0.00e+00	0	57	0	278921216	47	4494
2026-01-12 01:47:12.72	319.84	17.81	-38.3	-40.1	15.5	0.00e+00	0	57	0	288358400	47	4620
2026-01-12 01:47:15.75	319.14	17.85	-38.2	-40.0	15.5	0.00e+00	0	57	0	297795584	47	4582
2026-01-12 01:47:18.78	318.43	17.88	-38.0	-39.7	15.8	0.00e+00	0	57	0	307232768	47	4439
2026-01-12 01:47:21.81	317.73	17.91	-37.9	-39.7	15.9	0.00e+00	0	57	0	316669952	47	4401
2026-01-12 01:47:24.84	317.03	17.93	-38.0	-39.7	15.8	0.00e+00	0	57	0	326107136	47	4414
2026-01-12 01:47:27.87	316.32	17.95	-37.9	-39.7	15.9	0.00e+00	0	57	0	335544320	47	4399
2026-01-12 01:47:30.90	315.61	17.97	-38.0	-39.8	15.8	0.00e+00	0	56	0	344981504	47	4445
2026-01-12 01:47:33.93	314.91	17.98	-38.0	-39.8	15.7	0.00e+00	0	57	0	354418688	47	4473
2026-01-12 01:47:36.96	314.20	17.98	-38.2	-40.0	15.6	0.00e+00	0	57	0	363855872	47	4560
2026-01-12 01:47:39.99	313.49	17.98	-38.3	-40.2	15.4	0.00e+00	0	57	0	373293056	47	4664
2026-01-12 01:47:43.02	312.78	17.98	-38.2	-39.9	15.6	0.00e+00	0	57	0	382730240	47	4543
2026-01-12 01:47:46.05	312.08	17.97	-38.0	-39.7	15.8	0.00e+00	0	57	0	392167424	47	4414
2026-01-12 01:47:49.07	311.37	17.96	-38.0	-39.8	15.8	0.00e+00	0	57	0	402653184	47	4457
2026-01-12 01:47:52.10	310.67	17.94	-38.0	-39.8	15.8	0.00e+00	0	57	0	412090368	47	4446
2026-01-12 01:47:55.13	309.96	17.92	-37.9	-39.7	15.9	0.00e+00	0	57	0	421527552	47	4399
2026-01-12 01:47:58.17	309.25	17.90	-37.9	-39.7	15.8	0.00e+00	0	57	0	430964736	47	4404
2026-01-12 01:48:01.20	308.55	17.87	-37.9	-39.6	15.9	0.00e+00	0	57	0	440401920	47	4386
2026-01-12 01:48:04.23	307.85	17.83	-37.9	-39.6	15.9	0.00e+00	0	57	0	449839104	47	4357
2026-01-12 01:48:07.26	307.15	17.79	-38.0	-39.7	15.8	0.00e+00	0	57	0	459276288	47	4421
2026-01-12 01:48:10.29	306.45	17.75	-38.1	-39.9	15.7	0.00e+00	0	57	0	468713472	47	4500
2026-01-12 01:48:13.32	305.75	17.70	-38.0	-39.8	15.7	0.00e+00	0	56	0	478150656	47	4457
2026-01-12 01:48:16.35	305.06	17.65	-38.0	-39.7	15.8	0.00e+00	0	57	0	487587840	47	4440
2026-01-12 01:48:19.37	304.37	17.59	-38.2	-40.0	15.5	0.00e+00	0	56	0	497025024	47	4569
2026-01-12 01:48:22.41	303.68	17.53	-38.3	-40.1	15.4	0.00e+00	0	57	0	506462208	47	4621
2026-01-12 01:48:25.44	302.99	17.47	-38.4	-40.3	15.1	0.00e+00	0	56	0	515899392	47	4741
2026-01-12 01:48:28.46	302.31	17.40	-38.2	-40.0	15.5	0.00e+00	0	57	0	525336576	47	4557
2026-01-12 01:48:31.49	301.63	17.33	-38.0	-39.8	15.7	0.00e+00	0	57	0	534773760	47	4456
2026-01-12 01:48:34.53	300.95	17.25	-38.0	-39.7	15.7	0.00e+00	0	57	0	544210944	47	4429
2026-01-12 01:48:37.56	300.28	17.18	-38.1	-39.9	15.6	0.00e+00	0	57	0	553648128	47	4512
2026-01-12 01:48:40.59	299.61	17.09	-38.0	-39.8	15.6	0.00e+00	0	57	0	563085312	47	4482
2026-01-12 01:48:43.62	298.95	17.00	-38.1	-39.9	15.6	0.00e+00	0	57	0	572522496	47	4495
2026-01-12 01:48:46.65	298.28	16.91	-38.1	-39.9	15.6	0.00e+00	0	57	0	581959680	47	4509
2026-01-12 01:48:49.67	297.63	16.82	-38.3	-40.1	15.3	0.00e+00	0	57	0	591396864	47	4638
2026-01-12 01:48:52.70	296.97	16.72	-38.3	-40.2	15.2	0.00e+00	0	57	0	600834048	47	4695
2026-01-12 01:48:55.73	296.33	16.62	-38.3	-40.2	15.2	0.00e+00	0	56	0	610271232	47	4652
2026-01-12 01:48:58.76	295.68	16.52	-38.2	-40.0	15.4	0.00e+00	0	57	0	619708416	47	4593
2026-01-12 01:49:01.79	295.04	16.41	-38.0	-39.8	15.6	0.00e+00	0	57	0	629145600	47	4474
2026-01-12 01:49:04.82	294.40	16.30	-37.9	-39.7	15.7	0.00e+00	0	57	0	638582784	47	4415
2026-01-12 01:49:07.84	293.78	16.19	-38.1	-39.9	15.5	0.00e+00	0	57	0	648019968	47	4545
2026-01-12 01:49:10.87	293.15	16.07	-38.3	-40.2	15.2	0.00e+00	0	57	0	657457152	47	4666
2026-01-12 01:49:13.90	292.53	15.95	-38.2	-40.1	15.3	0.00e+00	0	57	0	666894336	47	4611
2026-01-12 01:49:16.93	291.91	15.83	-38.4	-40.3	15.1	0.00e+00	0	57	0	676331520	47	4729
2026-01-12 01:49:19.96	291.30	15.70	-38.5	-40.5	14.9	0.00e+00	0	57	0	685768704	47	4815
2026-01-12 01:49:22.99	290.70	15.57	-38.3	-40.2	15.1	0.00e+00	0	57	0	695205888	47	4694
2026-01-12 01:49:26.01	290.10	15.45	-38.1	-39.9	15.4	0.00e+00	0	57	0	704643072	47	4511
2026-01-12 01:49:29.04	289.50	15.31	-38.1	-40.0	15.3	0.00e+00	0	56	0	714080256	47	4562
2026-01-12 01:49:32.07	288.91	15.18	-38.2	-40.1	15.2	0.00e+00	0	57	0	724566016	47	4611
2026-01-12 01:49:35.10	288.33	15.04	-37.9	-39.7	15.5	0.00e+00	0	57	0	732954624	47	4434
2026-01-12 01:49:38.14	287.75	14.90	-38.0	-39.8	15.4	0.00e+00	0	57	0	743440384	47	4479
2026-01-12 01:49:41.16	287.17	14.76	-38.3	-40.2	15.0	7.00e-07	0	57	0	752877568	47	4693
2026-01-12 01:49:44.19	286.60	14.62	-38.5	-40.5	14.6	7.00e-07	0	57	0	762314752	47	4860
2026-01-12 01:49:47.22	286.04	14.47	-38.6	-40.6	14.5	0.00e+00	0	57	0	771751936	47	4909
2026-01-12 01:49:50.25	285.48	14.32	-38.5	-40.6	14.5	0.00e+00	0	57	0	781189120	47	4889
2026-01-12 01:49:53.28	284.93	14.17	-38.4	-40.4	14.7	0.00e+00	0	57	0	790626304	47	4779
2026-01-12 01:49:56.31	284.39	14.02	-38.4	-40.5	14.6	7.00e-07	0	57	0	800063488	47	4825
2026-01-12 01:49:59.34	283.85	13.87	-38.6	-40.7	14.4	0.00e+00	0	57	0	809500672	47	4934
2026-01-12 01:50:02.37	283.31	13.72	-38.4	-40.3	14.7	0.00e+00	0	57	0	818937856	47	4751
2026-01-12 01:50:05.40	282.78	13.56	-38.4	-40.4	14.7	7.00e-07	0	57	0	828375040	47	4785
2026-01-12 01:50:08.43	282.26	13.41	-38.7	-40.8	14.3	0.00e+00	0	57	0	837812224	47	5018
2026-01-12 01:50:11.46	281.74	13.25	-38.8	-40.8	14.4	0.00e+00	0	57	0	847249408	48	4741
2026-01-12 01:50:14.48	281.23	13.09	-38.5	-40.4	14.8	7.00e-07	0	56	0	856686592	48	4533
2026-01-12 01:50:17.52	280.72	12.93	-38.3	-40.2	15.0	0.00e+00	0	57	0	866123776	48	4400
2026-01-12 01:50:20.55	280.22	12.77	-38.2	-40.1	15.1	7.00e-07	0	57	0	875560960	48	4353
2026-01-12 01:50:23.58	279.72	12.60	-38.0	-39.9	15.3	0.00e+00	0	57	0	884998144	48	4249
2026-01-12 01:50:26.61	279.23	12.44	-38.2	-40.1	15.1	0.00e+00	0	57	0	894435328	48	4356
2026-01-12 01:50:29.63	278.75	12.28	-38.5	-40.5	14.6	7.00e-07	0	57	0	903872512	48	4569
2026-01-12 01:50:32.66	278.27	12.11	-38.8	-40.9	14.2	1.50e-06	0	57	0	913309696	48	4810
2026-01-12 01:50:35.69	277.80	11.94	-39.0	-41.2	13.9	6.10e-06	0	57	0	922746880	48	4961
2026-01-12 01:50:38.72	277.33	11.78	-39.1	-41.3	13.6	6.80e-06	0	57	0	932184064	48	5037
2026-01-12 01:50:41.75	276.86	11.61	-39.1	-41.4	13.5	1.22e-05	0	57	0	941621248	48	5066
2026-01-12 01:50:44.78	276.41	11.44	-39.0	-41.3	13.5	1.60e-05	0	57	0	951058432	48	5006
2026-01-12 01:50:47.81	275.95	11.27	-38.9	-41.2	13.6	6.10e-06	0	57	0	960495616	48	4936
2026-01-12 01:50:50.84	275.50	11.10	-38.6	-40.8	13.9	3.00e-06	0	57	0	969932800	48	4754
2026-01-12 01:50:53.87	275.06	10.93	-38.6	-40.8	13.8	4.50e-06	0	57	0	979369984	48	4752
2026-01-12 01:50:56.90	274.63	10.76	-39.0	-41.5	13.0	2.97e-05	0	57	0	988807168	48	5136
2026-01-12 01:50:59.93	274.19	10.59	-39.5	-42.4	12.0	2.34e-04	0	57	0	998244352	49	5347
2026-01-12 01:51:02.95	273.77	10.42	-39.8	-42.8	11.5	8.21e-04	0	57	0	1007681536	50	5313
2026-01-12 01:51:05.98	273.35	10.25	-40.0	-43.2	11.1	1.59e-03	0	57	0	1017118720	50	5548
2026-01-12 01:51:09.01	272.93	10.08	-39.8	-43.0	11.0	1.79e-03	0	57	0	1026555904	50	5439
2026-01-12 01:51:12.03	272.52	9.91	-39.8	-43.1	10.7	3.03e-03	0	57	0	1035993088	50	5510
2026-01-12 01:51:15.07	272.11	9.73	-39.9	-43.4	10.4	4.15e-03	0	57	0	1045430272	50	5688
2026-01-12 01:51:18.10	271.71	9.56	-40.2	-44.0	9.7	1.03e-02	0	57	0	1054867456	51	5771
2026-01-12 01:51:21.13	271.31	9.39	-40.5	-44.6	9.2	1.89e-02	0	57	0	1065353216	51	6159
2026-01-12 01:51:24.16	270.92	9.21	-40.7	-45.1	8.6	3.58e-02	0	57	0	1073741824	51	6520
2026-01-12 01:51:27.19	270.53	9.04	-40.7	-45.3	8.3	5.17e-02	0	57	0	1084227584	52	6297
2026-01-12 01:51:30.23	270.15	8.87	-40.5	-45.3	7.9	6.78e-02	0	57	0	1093664768	52	6327
2026-01-12 01:51:33.26	269.77	8.69	-40.5	-46.0	7.0	1.37e-01	0	57	0	1103101952	52	6828
2026-01-12 01:51:36.29	269.39	8.52	-40.6	-47.0	5.9	3.19e-01	0	57	0	1112539136	52	7647
2026-01-12 01:51:39.32	269.02	8.35	-40.7	-48.3	4.9	6.72e-01	0	57	0	1121976320	52	8879
2026-01-12 01:51:42.35	268.66	8.18	-40.7	-49.6	4.3	1.43e+00	0	57	104	1121976320	52	10302
2026-01-12 01:51:45.39	268.30	8.00	-40.8	-51.6	3.9	1.49e+00	0	57	104	1121976320	52	13006
2026-01-12 01:51:48.42	267.94	7.83	-44.9	-57.2	3.8	1.49e+00	0	57	104	1121976320	60	15636
2026-01-12 01:51:51.45	267.59	7.66	-45.1	-57.4	3.8	1.49e+00	0	57	104	1121976320	60	16125
2026-01-12 01:51:54.48	267.24	7.49	-45.2	-57.6	3.8	1.49e+00	0	57	104	1121976320	60	16365
2026-01-12 01:51:57.51	266.89	7.31	-45.1	-57.5	3.7	1.49e+00	0	57	104	1121976320	60	16242
2026-01-12 01:52:00.55	266.55	7.14	-45.1	-57.5	3.8	1.49e+00	0	57	104	1121976320	60	16247
2026-01-12 01:52:03.58	266.22	6.97	-45.1	-57.5	3.8	1.49e+00	0	58	104	1121976320	60	16129
2026-01-12 01:52:06.61	265.89	6.80	-45.1	-57.5	3.8	1.49e+00	0	57	104	1121976320	60	16133
2026-01-12 01:52:09.65	265.56	6.63	-45.0	-57.4	3.8	1.49e+00	0	58	104	1121976320	60	16049
2026-01-12 01:52:12.68	265.23	6.46	-45.0	-57.4	3.8	1.49e+00	0	57	104	1121976320	60	16091
2026-01-12 01:52:15.71	264.91	6.28	-45.0	-57.4	3.8	1.49e+00	0	57	104	1121976320	60	16023
2026-01-12 01:52:18.74	264.60	6.11	-45.0	-57.4	3.8	1.49e+00	0	57	104	1121976320	60	16044
2026-01-12 01:52:21.78	264.28	5.94	-45.0	-57.4	3.8	1.49e+00	0	57	104	1121976320	60	16034
2026-01-12 01:52:24.81	263.98	5.77	-45.0	-57.4	3.8	1.49e+00	0	58	104	1121976320	60	16004
2026-01-12 01:52:27.84	263.67	5.60	-45.0	-57.4	3.8	1.49e+00	0	58	104	1121976320	60	16034
2026-01-12 01:52:30.87	263.37	5.44	-45.0	-57.4	3.8	1.49e+00	0	58	104	1121976320	60	16001
2026-01-12 01:52:33.90	263.07	5.27	-45.0	-57.4	3.8	1.49e+00	0	57	104	1121976320	60	16047
2026-01-12 01:52:36.94	262.78	5.10	-45.0	-57.4	3.8	1.49e+00	0	57	104	1121976320	60	16023
2026-01-12 01:52:39.97	262.48	4.93	-45.0	-57.4	3.8	1.49e+00	0	57	104	1121976320	60	15994
2026-01-12 01:52:43.00	262.20	4.76	-45.0	-57.4	3.8	1.49e+00	0	57	104	1121976320	60	16005
2026-01-12 01:52:46.03	261.91	4.59	-45.0	-57.4	3.8	1.49e+00	0	58	104	1121976320	60	16006
2026-01-12 01:52:49.06	261.63	4.43	-45.0	-57.4	3.8	1.49e+00	0	58	104	1121976320	60	15968
2026-01-12 01:52:52.10	261.35	4.26	-45.0	-57.4	3.8	1.49e+00	0	58	104	1121976320	60	15980
2026-01-12 01:52:55.13	261.08	4.09	-45.0	-57.4	3.8	1.49e+00	0	58	104	1121976320	60	15988
2026-01-12 01:52:58.16	260.81	3.93	-45.0	-57.4	3.8	1.49e+00	0	58	104	1121976320	60	15981
2026-01-12 01:53:01.19	260.54	3.76	-44.9	-57.3	3.8	1.49e+00	0	58	104	1121976320	60	15935
2026-01-12 01:53:04.23	260.27	3.60	-44.9	-57.4	3.8	1.49e+00	0	58	104	1121976320	60	15988
2026-01-12 01:53:07.26	260.01	3.43	-45.0	-57.3	3.8	1.49e+00	0	57	104	1121976320	60	15936
2026-01-12 01:53:10.29	259.75	3.27	-45.0	-57.3	3.8	1.49e+00	0	58	104	1121976320	60	15922
2026-01-12 01:53:13.33	259.49	3.11	-45.0	-57.4	3.8	1.49e+00	0	57	104	1121976320	60	15963
2026-01-12 01:53:16.36	259.24	2.94	-45.0	-57.4	3.8	1.49e+00	0	58	104	1121976320	60	15978
2026-01-12 01:53:19.39	258.99	2.78	-44.9	-57.4	3.8	1.49e+00	0	58	104	1121976320	60	15963
2026-01-12 01:53:22.42	258.74	2.62	-45.0	-57.4	3.8	1.49e+00	0	57	104	1121976320	60	15958
2026-01-12 01:53:25.46	258.50	2.46	-45.0	-57.4	3.8	1.49e+00	0	58	104	1121976320	60	15988
2026-01-12 01:53:28.49	258.26	2.30	-44.9	-57.3	3.8	1.49e+00	0	58	104	1121976320	60	15924
2026-01-12 01:53:31.52	258.02	2.13	-44.9	-57.3	3.8	1.49e+00	0	58	104	1121976320	60	15930
2026-01-12 01:53:34.55	257.78	1.97	-45.0	-57.4	3.8	1.49e+00	0	58	104	1121976320	60	15948

#Closed at: 2026-01-12 01:53:36
#Recorded file [1121 MB]: D:/lorett/data/31039_260112_044450.dat