passes_logs/2026/01/12/R2.0S_Moscow/R2.0S_Moscow__20260112_094322_FENGYUN_3D_rec.log

#Pass ID: 20260112_094322_FENGYUN 3D
#Satellite: FENGYUN 3D
#Configuration: FENGYUN 3D
#almurnet v.1.7.20251203
#Start time: 2026-01-12 09:43:22

#Version: 2.2.20231116
#Station: R2.0S_Moscow
#Location: 37.707566 lon 55.798166 lat
#TLE: 1 43010U 17072A   26011.26828046  .00000354  00000+0  18908-3 0  9991
#TLE: 2 43010  98.9936 343.0270 0002205 114.1788 245.9618 14.19695184422722

#Time	Az	El	Level	Level2	SNR	BER	BlckErr	Temp	State	Recorded	gain1	gain2
2026-01-12 09:43:22.57	94.36	2.00	-39.3	-51.4	3.8	8.47e-01	0	49	0	0	49	15107
2026-01-12 09:43:25.59	94.10	2.15	-39.6	-51.5	3.8	8.44e-01	0	49	104	0	50	14463
2026-01-12 09:43:28.62	93.84	2.31	-39.7	-51.6	3.8	8.47e-01	0	50	104	0	50	14552
2026-01-12 09:43:31.66	93.57	2.46	-39.7	-51.6	3.8	8.46e-01	0	50	104	0	50	14592
2026-01-12 09:43:34.69	93.30	2.61	-39.5	-51.5	3.8	8.46e-01	0	50	104	0	50	14456
2026-01-12 09:43:37.72	93.03	2.76	-39.5	-51.5	3.8	8.46e-01	0	50	104	0	50	14459
2026-01-12 09:43:40.76	92.75	2.92	-39.8	-51.6	3.8	8.47e-01	0	50	104	0	50	14564
2026-01-12 09:43:43.79	92.47	3.07	-39.9	-51.6	3.8	8.47e-01	0	50	104	0	50	14560
2026-01-12 09:43:46.82	92.19	3.23	-39.7	-51.5	3.8	8.46e-01	0	51	104	0	50	14532
2026-01-12 09:43:49.86	91.91	3.38	-39.6	-51.6	3.8	8.47e-01	0	51	104	0	50	14596
2026-01-12 09:43:52.89	91.62	3.53	-39.8	-51.6	3.8	8.46e-01	0	51	104	0	50	14639
2026-01-12 09:43:55.92	91.33	3.69	-39.8	-51.6	3.8	8.45e-01	0	52	104	0	50	14616
2026-01-12 09:43:58.96	91.03	3.84	-39.8	-51.6	3.8	8.46e-01	0	52	104	0	50	14597
2026-01-12 09:44:01.99	90.73	4.00	-39.7	-51.6	3.8	8.47e-01	0	52	104	0	50	14576
2026-01-12 09:44:05.02	90.43	4.15	-39.8	-51.6	3.8	8.46e-01	0	52	104	0	50	14607
2026-01-12 09:44:08.05	90.13	4.31	-39.8	-51.6	3.8	8.45e-01	0	52	104	0	50	14642
2026-01-12 09:44:11.09	89.82	4.46	-39.7	-51.6	3.8	8.47e-01	0	52	104	0	50	14614
2026-01-12 09:44:14.12	89.51	4.62	-39.7	-51.6	3.8	8.46e-01	0	52	104	0	50	14624
2026-01-12 09:44:17.15	89.20	4.77	-39.8	-51.6	3.8	8.46e-01	0	53	104	0	50	14572
2026-01-12 09:44:20.19	88.88	4.93	-39.8	-51.6	3.8	8.47e-01	0	53	104	0	50	14624
2026-01-12 09:44:23.22	88.56	5.09	-39.8	-51.6	3.8	8.46e-01	0	53	104	0	50	14631
2026-01-12 09:44:26.25	88.23	5.24	-39.6	-51.5	3.8	8.46e-01	0	53	104	0	50	14463
2026-01-12 09:44:29.29	87.91	5.40	-39.8	-51.6	3.8	8.46e-01	0	53	104	0	50	14566
2026-01-12 09:44:32.32	87.57	5.55	-39.6	-51.5	3.8	8.47e-01	0	53	104	0	50	14528
2026-01-12 09:44:35.35	87.24	5.71	-39.8	-51.6	3.8	8.44e-01	0	54	104	0	50	14565
2026-01-12 09:44:38.38	86.90	5.86	-39.7	-51.6	3.8	8.46e-01	0	54	104	0	50	14587
2026-01-12 09:44:41.42	86.56	6.02	-39.8	-51.6	3.8	8.46e-01	0	54	104	0	50	14582
2026-01-12 09:44:44.45	86.21	6.18	-39.7	-51.5	3.8	8.46e-01	0	54	104	0	50	14516
2026-01-12 09:44:47.49	85.86	6.33	-39.8	-51.6	3.8	8.45e-01	0	54	104	0	50	14582
2026-01-12 09:44:50.52	85.51	6.49	-39.6	-51.5	3.8	8.46e-01	0	54	104	0	50	14459
2026-01-12 09:44:53.55	85.15	6.64	-39.8	-51.6	3.8	8.47e-01	0	54	104	0	50	14620
2026-01-12 09:44:56.58	84.79	6.80	-39.8	-51.6	3.8	8.47e-01	0	54	104	0	50	14569
2026-01-12 09:44:59.62	84.42	6.95	-39.8	-51.5	3.8	8.47e-01	0	55	104	0	50	14526
2026-01-12 09:45:02.65	84.05	7.11	-39.5	-51.5	3.8	8.46e-01	0	55	104	0	50	14523
2026-01-12 09:45:05.68	83.68	7.26	-39.8	-51.6	3.8	8.46e-01	0	55	104	0	50	14633
2026-01-12 09:45:08.72	83.30	7.42	-39.9	-51.6	3.8	8.47e-01	0	55	104	0	50	14611
2026-01-12 09:45:11.75	82.92	7.57	-39.8	-51.6	3.8	8.46e-01	0	55	104	0	50	14581
2026-01-12 09:45:14.78	82.53	7.73	-39.7	-51.5	3.8	8.45e-01	0	55	104	0	50	14432
2026-01-12 09:45:17.82	82.14	7.88	-39.6	-51.5	3.8	8.46e-01	0	55	104	0	50	14470
2026-01-12 09:45:20.85	81.74	8.04	-39.8	-51.6	3.8	8.45e-01	0	55	104	0	50	14592
2026-01-12 09:45:23.88	81.35	8.19	-39.8	-51.6	3.8	8.47e-01	0	55	104	0	50	14672
2026-01-12 09:45:26.91	80.94	8.34	-40.1	-51.7	3.8	8.46e-01	0	55	104	0	50	14841
2026-01-12 09:45:29.94	80.54	8.49	-39.9	-51.6	3.8	8.46e-01	0	56	104	0	50	14590
2026-01-12 09:45:32.98	80.12	8.65	-40.2	-51.8	3.8	8.46e-01	0	55	104	0	50	15034
2026-01-12 09:45:36.00	79.71	8.80	-40.0	-51.6	3.8	8.45e-01	0	56	104	0	51	13848
2026-01-12 09:45:39.04	79.29	8.95	-40.2	-51.9	3.8	8.47e-01	0	56	104	0	51	14211
2026-01-12 09:45:42.06	78.86	9.10	-40.1	-51.8	3.8	8.46e-01	0	56	104	0	51	14132
2026-01-12 09:45:45.09	78.44	9.25	-40.4	-52.0	3.8	8.46e-01	0	56	104	0	51	14465
2026-01-12 09:45:48.12	78.00	9.40	-40.7	-52.3	3.8	8.46e-01	0	56	104	0	51	15038
2026-01-12 09:45:51.15	77.56	9.54	-40.8	-52.3	3.8	8.45e-01	0	56	104	0	52	14168
2026-01-12 09:45:54.18	77.12	9.69	-40.7	-52.3	3.8	8.46e-01	0	56	104	0	52	14169
2026-01-12 09:45:57.21	76.67	9.84	-40.9	-52.5	3.8	8.46e-01	0	56	104	0	52	14457
2026-01-12 09:46:00.24	76.22	9.99	-40.8	-52.4	3.8	8.47e-01	0	56	104	0	52	14214
2026-01-12 09:46:03.27	75.77	10.13	-40.8	-52.4	3.8	8.47e-01	0	56	104	0	52	14351
2026-01-12 09:46:06.30	75.31	10.27	-40.9	-52.5	3.8	8.46e-01	0	56	104	0	52	14515
2026-01-12 09:46:09.33	74.84	10.42	-40.9	-52.5	3.8	8.47e-01	0	56	104	0	52	14423
2026-01-12 09:46:12.36	74.37	10.56	-40.5	-52.2	3.8	8.47e-01	0	57	104	0	52	13980
2026-01-12 09:46:15.39	73.90	10.70	-40.5	-52.2	3.8	8.46e-01	0	57	104	0	52	13946
2026-01-12 09:46:18.42	73.42	10.84	-40.5	-52.2	3.8	8.47e-01	0	57	104	0	52	13937
2026-01-12 09:46:21.45	72.93	10.98	-40.7	-52.3	3.8	8.46e-01	0	57	104	0	52	14154
2026-01-12 09:46:24.47	72.44	11.12	-40.6	-52.2	3.8	8.46e-01	0	57	104	0	52	14044
2026-01-12 09:46:27.51	71.95	11.25	-40.9	-52.5	3.8	8.46e-01	0	57	104	0	52	14443
2026-01-12 09:46:30.54	71.45	11.39	-40.9	-52.6	3.8	8.46e-01	0	57	104	0	52	14547
2026-01-12 09:46:33.57	70.95	11.52	-40.9	-52.5	3.8	8.45e-01	0	57	104	0	52	14477
2026-01-12 09:46:36.60	70.44	11.65	-40.8	-52.5	3.8	8.46e-01	0	57	104	0	52	14392
2026-01-12 09:46:39.63	69.93	11.79	-40.7	-52.4	3.8	8.46e-01	0	57	104	0	52	14246
2026-01-12 09:46:42.66	69.41	11.91	-40.8	-52.4	3.8	8.46e-01	0	57	104	0	52	14303
2026-01-12 09:46:45.69	68.89	12.04	-40.9	-52.5	3.8	8.47e-01	0	57	104	0	53	13607
2026-01-12 09:46:48.72	68.37	12.17	-40.9	-52.5	3.8	8.45e-01	0	57	104	0	53	13713
2026-01-12 09:46:51.75	67.84	12.29	-40.9	-52.5	3.8	8.47e-01	0	57	104	0	53	13596
2026-01-12 09:46:54.78	67.30	12.41	-41.0	-52.6	3.8	8.48e-01	0	57	104	0	53	13883
2026-01-12 09:46:57.81	66.77	12.53	-40.9	-52.5	3.8	8.45e-01	0	57	104	0	53	13690
2026-01-12 09:47:00.84	66.22	12.65	-41.4	-52.7	3.8	8.46e-01	0	57	104	0	53	13913
2026-01-12 09:47:03.87	65.67	12.77	-41.6	-53.2	3.8	8.46e-01	0	57	104	0	54	13967
2026-01-12 09:47:06.90	65.12	12.88	-41.2	-52.8	3.8	8.46e-01	0	57	104	0	54	13367
2026-01-12 09:47:09.94	64.56	13.00	-41.3	-52.8	3.8	8.45e-01	0	58	104	0	54	13414
2026-01-12 09:47:12.97	64.00	13.11	-41.4	-53.1	3.8	8.45e-01	0	57	104	0	54	13796
2026-01-12 09:47:16.00	63.44	13.22	-41.4	-46.4	6.8	1.34e-01	0	58	0	0	53	6788
2026-01-12 09:47:19.02	62.87	13.32	-39.7	-42.8	10.7	2.76e-02	0	57	0	9437184	51	5003
2026-01-12 09:47:22.06	62.30	13.42	-37.9	-40.1	13.7	1.60e-05	0	58	0	26214400	47	4647
2026-01-12 09:47:25.09	61.72	13.53	-38.1	-40.3	13.5	1.60e-05	0	58	0	42991616	47	4737
2026-01-12 09:47:28.12	61.14	13.62	-37.6	-39.6	14.3	0.00e+00	0	58	0	59768832	47	4388
2026-01-12 09:47:31.15	60.55	13.72	-37.3	-39.2	14.8	0.00e+00	0	58	0	76546048	46	4426
2026-01-12 09:47:34.18	59.97	13.81	-37.3	-39.2	14.8	0.00e+00	0	58	0	94371840	45	4703
2026-01-12 09:47:37.21	59.37	13.90	-36.7	-38.5	15.5	0.00e+00	0	58	0	111149056	45	4325
2026-01-12 09:47:40.23	58.78	13.99	-36.4	-38.1	16.0	0.00e+00	0	58	0	127926272	44	4374
2026-01-12 09:47:43.26	58.18	14.08	-36.3	-38.0	16.1	0.00e+00	0	58	0	144703488	44	4310
2026-01-12 09:47:46.29	57.58	14.16	-36.2	-38.0	16.1	0.00e+00	0	58	0	162529280	44	4300
2026-01-12 09:47:49.33	56.97	14.24	-36.3	-38.0	16.1	0.00e+00	0	58	0	179306496	44	4322
2026-01-12 09:47:52.36	56.36	14.32	-36.0	-37.7	16.4	0.00e+00	0	58	0	196083712	44	4177
2026-01-12 09:47:55.39	55.75	14.39	-36.0	-37.7	16.4	0.00e+00	0	58	0	213909504	44	4171
2026-01-12 09:47:58.42	55.13	14.46	-35.8	-37.4	16.5	0.00e+00	0	58	0	230686720	43	4288
2026-01-12 09:48:01.44	54.52	14.53	-35.9	-37.5	16.4	0.00e+00	0	58	0	247463936	43	4334
2026-01-12 09:48:04.48	53.89	14.59	-36.2	-37.8	16.5	0.00e+00	0	58	0	264241152	43	4449
2026-01-12 09:48:07.51	53.27	14.65	-35.9	-37.4	16.9	0.00e+00	0	58	0	281018368	43	4244
2026-01-12 09:48:10.54	52.65	14.71	-35.8	-37.3	17.0	0.00e+00	0	58	0	298844160	43	4209
2026-01-12 09:48:13.57	52.02	14.76	-35.8	-37.3	17.0	0.00e+00	0	58	0	315621376	43	4204
2026-01-12 09:48:16.60	51.39	14.82	-35.6	-37.1	17.2	0.00e+00	0	58	0	332398592	43	4120
2026-01-12 09:48:19.63	50.75	14.86	-35.9	-37.4	16.9	0.00e+00	0	58	0	350224384	43	4280
2026-01-12 09:48:22.66	50.12	14.91	-36.1	-37.6	16.7	0.00e+00	0	58	0	367001600	43	4385
2026-01-12 09:48:25.69	49.48	14.95	-35.9	-37.3	17.0	0.00e+00	0	58	0	383778816	43	4238
2026-01-12 09:48:28.72	48.84	14.99	-35.8	-37.3	17.0	0.00e+00	0	58	0	400556032	43	4227
2026-01-12 09:48:31.76	48.20	15.02	-35.8	-37.3	17.0	0.00e+00	0	58	0	418381824	43	4206
2026-01-12 09:48:34.79	47.56	15.05	-35.8	-37.3	17.0	0.00e+00	0	58	0	435159040	43	4227
2026-01-12 09:48:37.82	46.92	15.08	-36.0	-37.6	16.8	0.00e+00	0	58	0	451936256	43	4344
2026-01-12 09:48:40.84	46.28	15.10	-35.9	-37.3	17.0	0.00e+00	0	58	0	468713472	43	4236
2026-01-12 09:48:43.87	45.63	15.12	-35.8	-37.3	17.0	0.00e+00	0	58	0	486539264	43	4221
2026-01-12 09:48:46.90	44.99	15.13	-36.0	-37.5	16.8	0.00e+00	0	58	0	503316480	43	4318
2026-01-12 09:48:49.93	44.34	15.15	-36.2	-37.8	16.6	0.00e+00	0	58	0	520093696	43	4455
2026-01-12 09:48:52.97	43.70	15.16	-36.1	-37.7	16.7	0.00e+00	0	58	0	536870912	43	4410
2026-01-12 09:48:56.00	43.05	15.16	-35.8	-37.2	17.1	0.00e+00	0	58	0	554696704	43	4192
2026-01-12 09:48:59.03	42.40	15.16	-35.8	-37.3	17.0	0.00e+00	0	58	0	571473920	43	4223
2026-01-12 09:49:02.05	41.76	15.16	-35.8	-37.3	17.1	0.00e+00	0	58	0	588251136	43	4202
2026-01-12 09:49:05.08	41.11	15.15	-35.8	-37.3	17.0	0.00e+00	0	58	0	605028352	43	4230
2026-01-12 09:49:08.11	40.47	15.14	-35.9	-37.4	17.0	0.00e+00	0	58	0	622854144	43	4250
2026-01-12 09:49:11.15	39.82	15.13	-36.1	-37.6	16.7	0.00e+00	0	58	0	639631360	43	4382
2026-01-12 09:49:14.18	39.18	15.11	-36.1	-37.7	16.7	0.00e+00	0	58	0	656408576	43	4405
2026-01-12 09:49:17.21	38.53	15.09	-35.9	-37.4	16.9	0.00e+00	0	58	0	673185792	43	4265
2026-01-12 09:49:20.23	37.89	15.07	-35.9	-37.4	17.0	0.00e+00	0	58	0	691011584	43	4252
2026-01-12 09:49:23.26	37.25	15.04	-35.9	-37.4	16.9	0.00e+00	0	58	0	707788800	43	4284
2026-01-12 09:49:26.29	36.61	15.01	-35.8	-37.3	17.0	0.00e+00	0	58	0	724566016	43	4227
2026-01-12 09:49:29.32	35.97	14.98	-35.7	-37.1	17.2	0.00e+00	0	58	0	742391808	43	4121
2026-01-12 09:49:32.35	35.34	14.94	-35.7	-37.2	17.1	0.00e+00	0	58	0	759169024	43	4162
2026-01-12 09:49:35.38	34.70	14.90	-35.8	-37.3	17.1	0.00e+00	0	58	0	775946240	43	4194
2026-01-12 09:49:38.41	34.07	14.85	-36.0	-37.6	16.8	0.00e+00	0	58	0	792723456	43	4346
2026-01-12 09:49:41.43	33.44	14.80	-36.1	-37.6	16.8	0.00e+00	0	58	0	809500672	43	4362
2026-01-12 09:49:44.46	32.81	14.75	-35.9	-37.5	16.9	0.00e+00	0	58	0	827326464	43	4293
2026-01-12 09:49:47.49	32.18	14.69	-35.9	-37.4	16.9	0.00e+00	0	58	0	844103680	43	4280
2026-01-12 09:49:50.52	31.56	14.64	-35.9	-37.5	16.9	0.00e+00	0	58	0	860880896	43	4293
2026-01-12 09:49:53.54	30.94	14.57	-36.0	-37.5	16.8	0.00e+00	0	58	0	877658112	43	4317
2026-01-12 09:49:56.58	30.32	14.51	-35.9	-37.4	16.9	0.00e+00	0	58	0	895483904	43	4280
2026-01-12 09:49:59.61	29.70	14.44	-36.0	-37.6	16.8	0.00e+00	0	58	0	912261120	43	4347
2026-01-12 09:50:02.63	29.09	14.37	-36.3	-37.9	16.5	0.00e+00	0	58	0	929038336	43	4508
2026-01-12 09:50:05.66	28.48	14.30	-36.2	-37.8	16.6	0.00e+00	0	58	0	945815552	43	4447
2026-01-12 09:50:08.69	27.87	14.22	-36.5	-38.1	16.2	0.00e+00	0	59	0	963641344	43	4650
2026-01-12 09:50:11.73	27.27	14.14	-36.5	-38.1	16.2	0.00e+00	0	58	0	980418560	43	4617
2026-01-12 09:50:14.75	26.67	14.06	-36.3	-37.8	16.5	0.00e+00	0	59	0	997195776	43	4474
2026-01-12 09:50:17.78	26.07	13.97	-36.4	-38.0	16.3	0.00e+00	0	59	0	1013972992	43	4575
2026-01-12 09:50:20.81	25.48	13.88	-36.4	-37.9	16.3	0.00e+00	0	58	0	1031798784	43	4540
2026-01-12 09:50:23.84	24.89	13.79	-36.4	-38.0	16.3	0.00e+00	0	58	0	1048576000	43	4574
2026-01-12 09:50:26.87	24.30	13.70	-36.4	-38.0	16.3	0.00e+00	0	59	0	1065353216	43	4583
2026-01-12 09:50:29.90	23.72	13.60	-36.6	-38.3	16.0	0.00e+00	0	59	0	1082130432	43	4725
2026-01-12 09:50:32.93	23.14	13.50	-36.8	-38.5	15.9	0.00e+00	0	59	0	1099956224	44	4566
2026-01-12 09:50:35.96	22.57	13.40	-36.9	-38.5	15.9	0.00e+00	0	59	0	1116733440	44	4587
2026-01-12 09:50:38.99	22.00	13.30	-36.8	-38.5	15.9	0.00e+00	0	59	0	1133510656	44	4566
2026-01-12 09:50:42.02	21.43	13.19	-36.9	-38.5	15.9	0.00e+00	0	59	0	1151336448	44	4582
2026-01-12 09:50:45.05	20.87	13.08	-36.8	-38.5	15.9	0.00e+00	0	59	0	1168113664	44	4553
2026-01-12 09:50:48.08	20.31	12.97	-36.8	-38.5	15.9	0.00e+00	0	59	0	1184890880	44	4570
2026-01-12 09:50:51.11	19.76	12.86	-36.8	-38.4	16.0	0.00e+00	0	59	0	1201668096	44	4530
2026-01-12 09:50:54.14	19.21	12.74	-36.7	-38.4	16.0	0.00e+00	0	59	0	1218445312	44	4517
2026-01-12 09:50:57.18	18.66	12.63	-36.7	-38.3	16.1	0.00e+00	0	59	0	1236271104	44	4469
2026-01-12 09:51:00.21	18.12	12.51	-36.8	-38.5	15.9	0.00e+00	0	59	0	1253048320	44	4547
2026-01-12 09:51:03.24	17.59	12.39	-36.9	-38.6	15.7	0.00e+00	0	59	0	1269825536	44	4612
2026-01-12 09:51:06.27	17.05	12.26	-37.2	-39.0	15.3	0.00e+00	0	59	0	1286602752	45	4571
2026-01-12 09:51:09.30	16.53	12.14	-37.3	-39.1	15.2	0.00e+00	0	59	0	1304428544	45	4631
2026-01-12 09:51:12.32	16.01	12.01	-37.0	-38.8	15.5	0.00e+00	0	59	0	1321205760	45	4455
2026-01-12 09:51:15.36	15.49	11.89	-37.1	-38.9	15.3	0.00e+00	0	59	0	1337982976	45	4527
2026-01-12 09:51:18.39	14.98	11.76	-37.3	-39.1	15.0	0.00e+00	0	59	0	1354760192	45	4648
2026-01-12 09:51:21.42	14.47	11.63	-37.3	-39.2	15.0	0.00e+00	0	59	0	1372585984	45	4674
2026-01-12 09:51:24.45	13.96	11.49	-37.6	-39.5	14.6	0.00e+00	0	59	0	1389363200	45	4842
2026-01-12 09:51:27.48	13.46	11.36	-37.4	-39.3	14.8	0.00e+00	0	59	0	1406140416	45	4708
2026-01-12 09:51:30.51	12.97	11.22	-37.4	-39.3	14.7	0.00e+00	0	59	0	1422917632	45	4707
2026-01-12 09:51:33.54	12.48	11.09	-37.7	-39.8	14.0	3.40e-06	0	59	0	1440743424	46	4731
2026-01-12 09:51:36.57	11.99	10.95	-37.2	-39.1	14.5	3.40e-06	0	59	0	1457520640	46	4375
2026-01-12 09:51:39.61	11.51	10.81	-36.8	-38.8	14.4	0.00e+00	0	59	0	1474297856	45	4489
2026-01-12 09:51:42.63	11.04	10.67	-38.5	-41.5	10.9	1.42e-03	0	59	0	1492123648	47	5459
2026-01-12 09:51:45.66	10.57	10.53	-40.0	-45.5	6.3	2.08e-01	0	59	0	1508900864	50	7285
2026-01-12 09:51:48.69	10.10	10.39	-40.3	-48.9	4.2	8.33e-01	0	59	0	1513095168	51	10095
2026-01-12 09:51:51.72	9.64	10.24	-40.3	-51.0	3.8	8.44e-01	0	59	104	1513095168	51	12937
2026-01-12 09:51:54.75	9.18	10.10	-40.2	-51.8	3.8	8.45e-01	0	59	104	1513095168	51	14124
2026-01-12 09:51:57.78	8.73	9.96	-40.5	-51.7	3.8	8.48e-01	0	59	104	1513095168	52	13212
2026-01-12 09:52:00.81	8.28	9.81	-40.1	-51.6	3.8	8.46e-01	0	59	104	1513095168	52	13004
2026-01-12 09:52:03.84	7.84	9.66	-40.2	-51.9	3.8	8.46e-01	0	59	104	1513095168	51	14239
2026-01-12 09:52:06.87	7.40	9.52	-39.8	-51.5	3.8	8.47e-01	0	59	104	1513095168	51	13635
2026-01-12 09:52:09.89	6.96	9.37	-39.8	-51.4	3.8	8.47e-01	0	59	104	1513095168	51	13566
2026-01-12 09:52:12.92	6.53	9.22	-39.8	-51.4	3.8	8.47e-01	0	59	104	1513095168	51	13489
2026-01-12 09:52:15.95	6.11	9.07	-39.8	-51.4	3.8	8.47e-01	0	59	104	1513095168	51	13531
2026-01-12 09:52:18.98	5.69	8.92	-39.8	-51.5	3.8	8.46e-01	0	59	104	1513095168	51	13573
2026-01-12 09:52:22.01	5.27	8.77	-39.9	-51.6	3.8	8.46e-01	0	59	104	1513095168	51	13824
2026-01-12 09:52:25.03	4.86	8.62	-39.8	-51.4	3.8	8.46e-01	0	59	104	1513095168	51	13537
2026-01-12 09:52:28.06	4.45	8.47	-39.9	-51.6	3.8	8.47e-01	0	59	104	1513095168	51	13788
2026-01-12 09:52:31.10	4.05	8.31	-39.8	-51.4	3.8	8.47e-01	0	59	104	1513095168	51	13564
2026-01-12 09:52:34.13	3.65	8.16	-39.7	-51.4	3.8	8.45e-01	0	59	104	1513095168	51	13445
2026-01-12 09:52:37.16	3.25	8.01	-39.8	-51.4	3.8	8.47e-01	0	59	104	1513095168	51	13519
2026-01-12 09:52:40.19	2.86	7.86	-44.7	-56.3	3.8	8.46e-01	0	59	104	1513095168	60	14161
2026-01-12 09:52:43.22	2.48	7.70	-45.1	-56.8	3.8	8.45e-01	0	59	104	1513095168	60	14993
2026-01-12 09:52:46.26	2.09	7.55	-45.3	-56.9	3.8	8.47e-01	0	59	104	1513095168	61	14356
2026-01-12 09:52:49.29	1.72	7.39	-45.1	-56.8	3.8	8.46e-01	0	59	104	1513095168	61	14104
2026-01-12 09:52:52.32	1.34	7.24	-45.0	-56.7	3.8	8.46e-01	0	59	104	1513095168	61	13887
2026-01-12 09:52:55.36	0.97	7.08	-44.9	-56.6	3.8	8.47e-01	0	59	104	1513095168	60	14627
2026-01-12 09:52:58.39	0.60	6.93	-45.0	-56.6	3.8	8.46e-01	0	59	104	1513095168	60	14628
2026-01-12 09:53:01.42	0.24	6.77	-45.0	-56.6	3.8	8.46e-01	0	59	104	1513095168	60	14626
2026-01-12 09:53:04.46	359.88	6.62	-44.8	-56.6	3.8	8.46e-01	0	59	104	1513095168	60	14659
2026-01-12 09:53:07.49	359.53	6.46	-45.0	-56.6	3.8	8.46e-01	0	59	104	1513095168	60	14623
2026-01-12 09:53:10.52	359.18	6.31	-44.9	-56.6	3.8	8.46e-01	0	59	104	1513095168	60	14613
2026-01-12 09:53:13.55	358.83	6.15	-44.9	-56.6	3.8	8.46e-01	0	59	104	1513095168	60	14559
2026-01-12 09:53:16.59	358.49	6.00	-44.9	-56.6	3.8	8.46e-01	0	59	104	1513095168	60	14582
2026-01-12 09:53:19.62	358.15	5.84	-44.9	-56.6	3.8	8.46e-01	0	59	104	1513095168	60	14612
2026-01-12 09:53:22.65	357.81	5.69	-44.9	-56.6	3.8	8.46e-01	0	59	104	1513095168	60	14586
2026-01-12 09:53:25.68	357.48	5.53	-44.9	-56.6	3.8	8.47e-01	0	59	104	1513095168	60	14554
2026-01-12 09:53:28.72	357.15	5.38	-44.9	-56.6	3.8	8.47e-01	0	59	104	1513095168	60	14589
2026-01-12 09:53:31.75	356.83	5.22	-44.9	-56.6	3.8	8.45e-01	0	59	104	1513095168	60	14567
2026-01-12 09:53:34.78	356.51	5.06	-44.9	-56.6	3.8	8.46e-01	0	59	104	1513095168	60	14590
2026-01-12 09:53:37.82	356.19	4.91	-44.9	-56.6	3.8	8.47e-01	0	59	104	1513095168	60	14560
2026-01-12 09:53:40.85	355.88	4.75	-44.9	-56.5	3.8	8.45e-01	0	59	104	1513095168	60	14534
2026-01-12 09:53:43.88	355.57	4.60	-44.9	-56.6	3.8	8.45e-01	0	59	104	1513095168	60	14541
2026-01-12 09:53:46.91	355.26	4.44	-44.9	-56.6	3.8	8.47e-01	0	59	104	1513095168	60	14582
2026-01-12 09:53:49.95	354.96	4.29	-44.9	-56.6	3.8	8.46e-01	0	59	104	1513095168	60	14552
2026-01-12 09:53:52.98	354.66	4.13	-44.7	-56.6	3.8	8.46e-01	0	59	104	1513095168	60	14553
2026-01-12 09:53:56.01	354.36	3.98	-44.9	-56.6	3.8	8.47e-01	0	59	104	1513095168	60	14569
2026-01-12 09:53:59.04	354.07	3.82	-44.9	-56.5	3.8	8.45e-01	0	59	104	1513095168	60	14520
2026-01-12 09:54:02.08	353.77	3.67	-44.9	-56.5	3.8	8.46e-01	0	59	104	1513095168	60	14522
2026-01-12 09:54:05.11	353.49	3.52	-44.9	-56.6	3.8	8.47e-01	0	59	104	1513095168	60	14564
2026-01-12 09:54:08.14	353.20	3.36	-44.9	-56.6	3.8	8.47e-01	0	59	104	1513095168	60	14583
2026-01-12 09:54:11.18	352.92	3.21	-44.8	-56.5	3.8	8.45e-01	0	59	104	1513095168	60	14488
2026-01-12 09:54:14.21	352.64	3.06	-44.9	-56.5	3.8	8.47e-01	0	59	104	1513095168	60	14473
2026-01-12 09:54:17.24	352.37	2.90	-44.9	-56.5	3.8	8.45e-01	0	59	104	1513095168	60	14506
2026-01-12 09:54:20.28	352.09	2.75	-44.9	-56.5	3.8	8.46e-01	0	60	104	1513095168	60	14493
2026-01-12 09:54:23.31	351.83	2.60	-44.9	-56.5	3.8	8.46e-01	0	59	104	1513095168	60	14517
2026-01-12 09:54:26.34	351.56	2.44	-44.9	-56.5	3.8	8.46e-01	0	59	104	1513095168	60	14488
2026-01-12 09:54:29.37	351.30	2.29	-44.9	-56.5	3.8	8.46e-01	0	59	104	1513095168	60	14437
2026-01-12 09:54:32.41	351.03	2.14	-44.9	-56.5	3.8	8.47e-01	0	59	104	1513095168	60	14489
2026-01-12 09:54:35.44	350.78	1.99	-44.9	-56.5	3.8	8.46e-01	0	59	104	1513095168	60	14437

#Closed at: 2026-01-12 09:54:36
#Recorded file [1513 MB]: D:/lorett/data/31039_260112_124322.dat