passes_logs/2026/01/12/R2.0S_Moscow/R2.0S_Moscow__20260112_130654_FENGYUN_3E_rec.log

#Pass ID: 20260112_130654_FENGYUN 3E
#Satellite: FENGYUN 3E
#Configuration: FENGYUN 3E
#almurnet v.1.7.20251203
#Start time: 2026-01-12 13:15:35

#Version: 2.2.20231116
#Station: R2.0S_Moscow
#Location: 37.707566 lon 55.798166 lat
#TLE: 1 49008U 21062A   26011.97558190  .00000066  00000+0  51928-4 0  9996
#TLE: 2 49008  98.7491  17.1395 0001916 144.4283 215.7021 14.19885193234411

#Time	Az	El	Level	Level2	SNR	BER	BlckErr	Temp	State	Recorded	gain1	gain2
2026-01-12 13:15:35.18	19.67	27.06	-44.9	-56.5	3.8	8.47e-01	0	59	0	0	60	14412
2026-01-12 13:15:37.19	19.19	26.84	-45.7	-56.8	3.8	8.46e-01	0	59	104	0	62	12543
2026-01-12 13:15:39.22	18.71	26.62	-45.5	-56.7	3.8	8.46e-01	0	60	104	0	62	12392
2026-01-12 13:15:41.24	18.23	26.40	-44.6	-51.7	4.5	8.18e-01	0	59	104	0	60	7813
2026-01-12 13:15:43.26	17.76	26.18	-45.1	-56.1	3.8	8.46e-01	0	59	104	4194304	60	13040
2026-01-12 13:15:45.28	17.30	25.96	-45.0	-56.0	3.8	8.47e-01	0	59	104	4194304	60	12873
2026-01-12 13:15:47.30	16.85	25.74	-45.0	-56.0	3.8	8.47e-01	0	59	104	4194304	60	12947
2026-01-12 13:15:49.32	16.40	25.52	-45.0	-56.1	3.8	8.46e-01	0	60	104	4194304	60	13065
2026-01-12 13:15:51.34	15.96	25.30	-45.0	-56.2	3.8	8.46e-01	0	60	104	4194304	60	13120
2026-01-12 13:15:53.36	15.53	25.08	-45.0	-56.0	3.8	8.45e-01	0	60	104	4194304	60	12908
2026-01-12 13:15:55.38	15.10	24.86	-45.0	-56.0	3.8	8.46e-01	0	59	104	4194304	60	12867
2026-01-12 13:15:57.40	14.67	24.64	-45.0	-55.7	3.8	8.46e-01	0	59	104	4194304	60	12466
2026-01-12 13:15:59.42	14.26	24.42	-44.9	-55.3	3.8	8.46e-01	0	59	104	4194304	60	11873
2026-01-12 13:16:01.43	13.85	24.20	-45.0	-55.6	3.8	8.45e-01	0	60	104	4194304	60	12268
2026-01-12 13:16:03.45	13.44	23.98	-45.0	-55.8	3.8	8.46e-01	0	60	104	4194304	60	12576
2026-01-12 13:16:05.47	13.04	23.76	-44.9	-55.3	3.8	8.47e-01	0	59	104	4194304	60	11865
2026-01-12 13:16:07.49	12.65	23.55	-44.9	-54.9	3.8	8.46e-01	0	60	104	4194304	60	11365
2026-01-12 13:16:09.52	12.26	23.33	-44.7	-53.9	3.9	8.44e-01	0	59	104	4194304	60	10064
2026-01-12 13:16:11.54	11.88	23.11	-44.2	-50.5	4.9	7.96e-01	0	59	0	4194304	59	7270
2026-01-12 13:16:13.56	11.50	22.89	-43.0	-47.2	7.4	1.31e-01	0	60	0	13631488	57	5589
2026-01-12 13:16:15.58	11.13	22.67	-41.8	-44.9	9.7	1.33e-02	0	60	0	28311552	54	5053
2026-01-12 13:16:17.60	10.76	22.46	-41.2	-43.9	10.8	3.37e-03	0	59	0	41943040	53	4772
2026-01-12 13:16:19.62	10.40	22.24	-41.3	-44.1	10.5	3.56e-03	0	60	0	57671680	53	4898
2026-01-12 13:16:21.65	10.04	22.02	-42.0	-45.3	9.3	1.66e-02	0	59	0	71303168	53	5630
2026-01-12 13:16:23.67	9.69	21.81	-41.8	-45.1	9.5	2.22e-02	0	60	0	85983232	53	5477
2026-01-12 13:16:25.69	9.34	21.59	-39.8	-41.9	12.9	1.41e-04	0	60	0	100663296	50	4518
2026-01-12 13:16:27.71	9.00	21.38	-37.8	-39.3	15.3	0.00e+00	0	60	0	115343360	46	4239
2026-01-12 13:16:29.73	8.66	21.17	-37.2	-38.7	16.0	0.00e+00	0	60	0	130023424	45	4163
2026-01-12 13:16:31.75	8.33	20.96	-40.6	-43.0	12.1	6.80e-06	0	60	0	144703488	50	5142
2026-01-12 13:16:33.78	8.00	20.74	-38.9	-40.8	13.9	0.00e+00	0	60	0	159383552	47	4738
2026-01-12 13:16:35.79	7.68	20.53	-37.2	-38.6	15.9	0.00e+00	0	60	0	173015040	45	4144
2026-01-12 13:16:37.81	7.36	20.33	-37.1	-38.5	16.1	0.00e+00	0	60	0	187695104	45	4077
2026-01-12 13:16:39.83	7.04	20.12	-37.1	-38.6	16.0	0.00e+00	0	60	0	202375168	45	4103
2026-01-12 13:16:41.85	6.73	19.91	-37.3	-38.8	15.8	0.00e+00	0	60	0	217055232	45	4207
2026-01-12 13:16:43.87	6.43	19.70	-37.4	-38.9	15.6	0.00e+00	0	60	0	231735296	45	4272
2026-01-12 13:16:45.89	6.13	19.49	-37.5	-39.0	15.5	0.00e+00	0	60	0	246415360	45	4320
2026-01-12 13:16:47.91	5.83	19.29	-37.5	-39.1	15.3	0.00e+00	0	60	0	261095424	45	4382
2026-01-12 13:16:49.93	5.54	19.09	-37.5	-39.0	15.4	0.00e+00	0	60	0	275775488	45	4331
2026-01-12 13:16:51.94	5.25	18.88	-37.4	-38.9	15.5	0.00e+00	0	60	0	290455552	45	4276
2026-01-12 13:16:53.96	4.96	18.68	-37.2	-38.7	15.7	0.00e+00	0	60	0	304087040	45	4184
2026-01-12 13:16:55.98	4.68	18.48	-37.3	-38.8	15.5	0.00e+00	0	60	0	318767104	45	4237
2026-01-12 13:16:58.00	4.40	18.28	-37.5	-39.1	15.2	0.00e+00	0	60	0	333447168	45	4369
2026-01-12 13:17:00.02	4.13	18.08	-37.7	-39.3	14.9	0.00e+00	0	60	0	348127232	45	4479
2026-01-12 13:17:02.04	3.86	17.88	-37.6	-39.3	14.9	0.00e+00	0	60	0	362807296	45	4465
2026-01-12 13:17:04.06	3.59	17.68	-37.6	-39.2	14.9	0.00e+00	0	60	0	377487360	45	4441
2026-01-12 13:17:06.08	3.33	17.48	-37.6	-39.3	14.9	0.00e+00	0	60	0	392167424	45	4454
2026-01-12 13:17:08.10	3.07	17.29	-37.5	-39.2	14.9	0.00e+00	0	60	0	406847488	45	4395
2026-01-12 13:17:10.13	2.81	17.09	-37.7	-39.4	14.6	0.00e+00	0	60	0	421527552	45	4498
2026-01-12 13:17:12.15	2.56	16.90	-37.5	-39.2	14.8	0.00e+00	0	60	0	436207616	45	4404
2026-01-12 13:17:14.17	2.31	16.70	-37.6	-39.3	14.6	0.00e+00	0	60	0	449839104	45	4470
2026-01-12 13:17:16.19	2.06	16.51	-37.5	-39.2	14.7	1.10e-06	0	60	0	464519168	45	4408
2026-01-12 13:17:18.20	1.82	16.32	-37.5	-39.2	14.6	0.00e+00	0	60	0	479199232	45	4428
2026-01-12 13:17:20.22	1.58	16.13	-37.5	-39.3	14.5	0.00e+00	0	60	0	493879296	45	4442
2026-01-12 13:17:22.25	1.34	15.94	-37.7	-39.5	14.2	1.10e-06	0	60	0	508559360	45	4562
2026-01-12 13:17:24.26	1.11	15.75	-37.8	-39.6	14.1	2.20e-06	0	60	0	523239424	45	4625
2026-01-12 13:17:26.29	0.88	15.56	-37.9	-39.8	13.7	2.20e-06	0	60	0	537919488	45	4725
2026-01-12 13:17:28.30	0.65	15.38	-38.2	-40.2	13.1	2.97e-05	0	60	0	552599552	46	4689
2026-01-12 13:17:30.32	0.43	15.19	-37.7	-39.5	13.8	2.20e-06	0	60	0	567279616	46	4340
2026-01-12 13:17:32.34	0.20	15.01	-38.1	-40.1	13.1	2.74e-05	0	60	0	581959680	46	4642
2026-01-12 13:17:34.37	359.98	14.82	-37.7	-39.7	13.2	1.71e-05	0	60	0	595591168	46	4430
2026-01-12 13:17:36.39	359.77	14.64	-38.1	-40.2	12.6	6.40e-05	0	60	0	611319808	46	4672
2026-01-12 13:17:38.41	359.55	14.46	-38.2	-40.5	12.2	2.21e-04	0	60	0	624951296	46	4831
2026-01-12 13:17:40.42	359.34	14.28	-37.9	-40.0	12.7	7.09e-05	0	60	0	639631360	46	4569
2026-01-12 13:17:42.44	359.13	14.10	-37.6	-39.8	12.7	5.37e-05	0	60	0	654311424	46	4463
2026-01-12 13:17:44.46	358.93	13.92	-37.7	-39.9	12.5	7.66e-05	0	60	0	668991488	46	4511
2026-01-12 13:17:46.48	358.73	13.74	-37.7	-40.0	12.1	2.13e-04	0	60	0	683671552	46	4594
2026-01-12 13:17:48.50	358.52	13.57	-38.4	-41.1	10.7	1.75e-03	0	60	0	698351616	46	5202
2026-01-12 13:17:50.53	358.33	13.39	-38.8	-42.0	9.6	9.55e-03	0	60	0	713031680	47	5421
2026-01-12 13:17:52.55	358.13	13.21	-38.7	-41.7	9.8	9.01e-03	0	60	0	727711744	47	5275
2026-01-12 13:17:54.56	357.94	13.04	-39.0	-42.4	8.9	2.68e-02	0	60	0	741343232	47	5713
2026-01-12 13:17:56.58	357.75	12.87	-39.6	-43.6	7.8	6.84e-02	0	60	0	757071872	48	6144
2026-01-12 13:17:58.60	357.56	12.70	-39.5	-43.6	7.8	8.56e-02	0	60	0	770703360	48	6183
2026-01-12 13:18:00.62	357.37	12.52	-39.4	-43.5	7.8	8.10e-02	0	60	0	785383424	48	6079
2026-01-12 13:18:02.64	357.19	12.35	-39.5	-43.8	7.5	9.15e-02	0	60	0	800063488	48	6275
2026-01-12 13:18:04.66	357.00	12.18	-40.0	-45.6	5.9	3.16e-01	0	60	0	814743552	49	7311
2026-01-12 13:18:06.68	356.82	12.02	-40.4	-47.6	4.6	8.07e-01	0	60	0	817889280	50	8676
2026-01-12 13:18:08.69	356.65	11.85	-40.6	-49.0	4.1	8.39e-01	0	60	0	817889280	50	10293
2026-01-12 13:18:10.71	356.47	11.68	-40.6	-50.1	3.8	8.46e-01	0	60	104	817889280	50	11641
2026-01-12 13:18:12.73	356.30	11.51	-40.6	-50.9	3.8	8.46e-01	0	60	104	817889280	50	12789
2026-01-12 13:18:14.76	356.12	11.35	-40.6	-51.3	3.8	8.47e-01	0	60	104	817889280	50	13347
2026-01-12 13:18:16.78	355.96	11.18	-40.6	-51.6	3.8	8.47e-01	0	60	104	817889280	50	13740
2026-01-12 13:18:18.80	355.79	11.02	-40.2	-51.4	3.8	8.46e-01	0	60	104	817889280	51	12692
2026-01-12 13:18:20.82	355.62	10.86	-40.1	-51.3	3.8	8.46e-01	0	60	104	817889280	51	12597
2026-01-12 13:18:22.84	355.46	10.70	-40.1	-51.3	3.8	8.45e-01	0	60	104	817889280	51	12540
2026-01-12 13:18:24.86	355.30	10.53	-40.3	-51.3	3.8	8.46e-01	0	60	104	817889280	51	12562
2026-01-12 13:18:26.88	355.14	10.37	-40.7	-51.7	3.8	8.46e-01	0	60	104	817889280	51	13198
2026-01-12 13:18:28.90	354.98	10.21	-40.3	-51.6	3.8	8.47e-01	0	60	104	817889280	51	12996
2026-01-12 13:18:30.92	354.82	10.06	-40.3	-51.5	3.8	8.48e-01	0	60	104	817889280	51	12911
2026-01-12 13:18:32.94	354.67	9.90	-40.3	-51.3	3.8	8.45e-01	0	60	104	817889280	51	12622
2026-01-12 13:18:34.96	354.51	9.74	-40.3	-51.3	3.8	8.46e-01	0	60	104	817889280	51	12612
2026-01-12 13:18:36.98	354.36	9.58	-40.4	-51.5	3.8	8.45e-01	0	60	104	817889280	51	12856
2026-01-12 13:18:39.00	354.21	9.43	-40.4	-51.5	3.8	8.47e-01	0	60	104	817889280	51	12813
2026-01-12 13:18:41.03	354.06	9.27	-40.3	-51.4	3.8	8.46e-01	0	60	104	817889280	51	12748
2026-01-12 13:18:43.04	353.92	9.12	-40.4	-51.4	3.8	8.47e-01	0	60	104	817889280	51	12782
2026-01-12 13:18:45.07	353.77	8.97	-40.4	-51.4	3.8	8.48e-01	0	60	104	817889280	51	12706
2026-01-12 13:18:47.09	353.63	8.81	-40.4	-51.4	3.8	8.44e-01	0	60	104	817889280	51	12672
2026-01-12 13:18:49.11	353.49	8.66	-40.4	-51.4	3.8	8.46e-01	0	60	104	817889280	51	12707
2026-01-12 13:18:51.13	353.35	8.51	-40.4	-51.4	3.8	8.45e-01	0	60	104	817889280	51	12670
2026-01-12 13:18:53.15	353.21	8.36	-40.5	-51.4	3.8	8.45e-01	0	60	104	817889280	51	12749
2026-01-12 13:18:55.17	353.07	8.21	-40.5	-51.4	3.8	8.46e-01	0	60	104	817889280	51	12747
2026-01-12 13:18:57.19	352.94	8.06	-40.6	-51.4	3.8	8.47e-01	0	60	104	817889280	51	12801
2026-01-12 13:18:59.21	352.80	7.91	-41.0	-51.8	3.8	8.47e-01	0	60	104	817889280	51	13368
2026-01-12 13:19:01.23	352.67	7.77	-44.3	-55.2	3.8	8.47e-01	0	60	104	817889280	58	13181
2026-01-12 13:19:03.25	352.54	7.62	-45.3	-56.4	3.8	8.45e-01	0	60	104	817889280	60	13552
2026-01-12 13:19:05.27	352.41	7.47	-45.5	-56.6	3.8	8.46e-01	0	61	104	817889280	60	13728
2026-01-12 13:19:07.29	352.28	7.33	-45.5	-56.6	3.8	8.46e-01	0	61	104	817889280	60	13882
2026-01-12 13:19:09.31	352.15	7.18	-45.5	-56.7	3.8	8.46e-01	0	60	104	817889280	60	13915
2026-01-12 13:19:11.33	352.03	7.04	-45.5	-56.6	3.8	8.46e-01	0	60	104	817889280	60	13811
2026-01-12 13:19:13.36	351.90	6.90	-45.5	-56.5	3.8	8.46e-01	0	61	104	817889280	60	13714
2026-01-12 13:19:15.37	351.78	6.76	-45.4	-56.5	3.8	8.45e-01	0	60	104	817889280	60	13719
2026-01-12 13:19:17.40	351.66	6.61	-45.4	-56.5	3.8	8.46e-01	0	60	104	817889280	60	13665
2026-01-12 13:19:19.42	351.54	6.47	-45.4	-56.5	3.8	8.46e-01	0	60	104	817889280	60	13638
2026-01-12 13:19:21.44	351.42	6.33	-45.4	-56.5	3.8	8.46e-01	0	60	104	817889280	60	13616
2026-01-12 13:19:23.46	351.30	6.19	-45.4	-56.5	3.8	8.46e-01	0	61	104	817889280	60	13635
2026-01-12 13:19:25.48	351.18	6.05	-45.4	-56.5	3.8	8.46e-01	0	60	104	817889280	60	13621
2026-01-12 13:19:27.51	351.07	5.91	-45.4	-56.5	3.8	8.47e-01	0	60	104	817889280	60	13658
2026-01-12 13:19:29.53	350.95	5.77	-45.4	-56.5	3.8	8.47e-01	0	61	104	817889280	60	13657
2026-01-12 13:19:31.55	350.84	5.64	-45.4	-56.5	3.8	8.47e-01	0	60	104	817889280	60	13602
2026-01-12 13:19:33.57	350.73	5.50	-45.4	-56.5	3.8	8.47e-01	0	60	104	817889280	60	13622
2026-01-12 13:19:35.59	350.62	5.36	-45.4	-56.5	3.8	8.47e-01	0	60	104	817889280	60	13663
2026-01-12 13:19:37.61	350.51	5.23	-45.4	-56.5	3.8	8.46e-01	0	61	104	817889280	60	13620
2026-01-12 13:19:39.63	350.40	5.09	-45.4	-56.5	3.8	8.46e-01	0	61	104	817889280	60	13625
2026-01-12 13:19:41.65	350.29	4.96	-45.4	-56.5	3.8	8.46e-01	0	61	104	817889280	60	13603
2026-01-12 13:19:43.68	350.18	4.82	-45.4	-56.5	3.8	8.46e-01	0	61	104	817889280	60	13598
2026-01-12 13:19:45.70	350.08	4.69	-45.3	-56.5	3.8	8.46e-01	0	60	104	817889280	60	13616
2026-01-12 13:19:47.72	349.97	4.56	-45.3	-56.4	3.8	8.45e-01	0	60	104	817889280	60	13531
2026-01-12 13:19:49.74	349.87	4.42	-45.3	-56.4	3.8	8.46e-01	0	61	104	817889280	60	13541
2026-01-12 13:19:51.76	349.77	4.29	-45.3	-56.4	3.8	8.46e-01	0	60	104	817889280	60	13528
2026-01-12 13:19:53.79	349.66	4.16	-45.4	-56.4	3.8	8.47e-01	0	61	104	817889280	60	13556
2026-01-12 13:19:55.81	349.56	4.03	-45.3	-56.4	3.8	8.46e-01	0	61	104	817889280	60	13526
2026-01-12 13:19:57.83	349.46	3.90	-45.3	-56.5	3.8	8.47e-01	0	60	104	817889280	60	13580
2026-01-12 13:19:59.85	349.36	3.77	-45.3	-56.4	3.8	8.47e-01	0	61	104	817889280	60	13559
2026-01-12 13:20:01.87	349.27	3.64	-45.4	-56.4	3.8	8.46e-01	0	61	104	817889280	60	13516
2026-01-12 13:20:03.90	349.17	3.51	-45.2	-56.2	3.8	8.46e-01	0	61	104	817889280	60	13260
2026-01-12 13:20:05.92	349.07	3.38	-45.3	-56.4	3.8	8.46e-01	0	61	104	817889280	60	13517
2026-01-12 13:20:07.94	348.98	3.26	-45.3	-56.5	3.8	8.46e-01	0	60	104	817889280	60	13631
2026-01-12 13:20:09.97	348.88	3.13	-45.3	-56.5	3.8	8.45e-01	0	61	104	817889280	60	13576
2026-01-12 13:20:11.99	348.79	3.00	-45.3	-56.5	3.8	8.45e-01	0	61	104	817889280	60	13586
2026-01-12 13:20:14.01	348.70	2.88	-45.3	-56.4	3.8	8.46e-01	0	60	104	817889280	60	13545
2026-01-12 13:20:16.03	348.61	2.75	-45.3	-56.4	3.8	8.45e-01	0	61	104	817889280	60	13559
2026-01-12 13:20:18.05	348.52	2.63	-45.3	-56.4	3.8	8.46e-01	0	60	104	817889280	60	13480
2026-01-12 13:20:20.07	348.43	2.50	-45.3	-56.4	3.8	8.46e-01	0	61	104	817889280	60	13558
2026-01-12 13:20:22.10	348.34	2.38	-45.3	-56.4	3.8	8.46e-01	0	61	104	817889280	60	13535
2026-01-12 13:20:24.12	348.25	2.25	-45.3	-56.4	3.8	8.46e-01	0	61	104	817889280	60	13502
2026-01-12 13:20:26.14	348.16	2.13	-45.3	-56.4	3.8	8.46e-01	0	61	104	817889280	60	13503
2026-01-12 13:20:28.16	348.07	2.01	-45.3	-56.4	3.8	8.46e-01	0	60	104	817889280	60	13518

#Closed at: 2026-01-12 13:20:30
#Recorded file [817 MB]: D:/lorett/data/31039_260112_161534.dat