passes_logs/2026/01/12/R2.0S_Moscow/R2.0S_Moscow__20260112_100421_AQUA_rec.log

#Pass ID: 20260112_100421_AQUA
#Satellite: AQUA
#Configuration: AQUA
#almurnet v.1.7.20251203
#Start time: 2026-01-12 10:06:13

#Version: 2.2.20231116
#Station: R2.0S_Moscow
#Location: 37.707566 lon 55.798166 lat
#TLE: 1 27424U 02022A   26011.34052177  .00001139  00000+0  23789-3 0  9999
#TLE: 2 27424  98.4078 337.7066 0002035  82.6124  44.5301 14.61815662260355

#Time	Az	El	Level	Level2	SNR	BER	BlckErr	Temp	State	Recorded	gain1	gain2
2026-01-12 10:06:13.42	99.83	8.93	-44.9	-57.3	3.8	1.49e+00	0	59	0	0	60	15847
2026-01-12 10:06:16.46	99.42	9.13	-46.3	-65.1	3.8	7.47e-01	0	60	104	0	63	32731
2026-01-12 10:06:19.49	99.00	9.33	-45.8	-64.8	3.8	7.46e-01	0	59	104	0	63	31731
2026-01-12 10:06:22.52	98.58	9.53	-45.4	-63.8	3.8	7.44e-01	0	59	104	0	61	31679
2026-01-12 10:06:25.56	98.15	9.73	-42.1	-62.2	3.7	7.45e-01	0	59	104	0	56	35240
2026-01-12 10:06:28.59	97.72	9.93	-43.8	-62.2	3.8	7.44e-01	0	60	104	0	58	31356
2026-01-12 10:06:31.62	97.28	10.13	-43.8	-62.0	3.8	7.46e-01	0	59	104	0	58	30574
2026-01-12 10:06:34.65	96.83	10.34	-43.8	-62.3	3.8	7.49e-01	0	59	104	0	58	31800
2026-01-12 10:06:37.69	96.37	10.54	-43.8	-62.6	3.8	7.45e-01	0	59	104	0	58	32590
2026-01-12 10:06:40.72	95.91	10.74	-43.8	-62.5	3.8	7.42e-01	0	59	104	0	58	32393
2026-01-12 10:06:43.75	95.44	10.94	-43.8	-62.5	3.8	7.47e-01	0	59	104	0	58	32421
2026-01-12 10:06:46.79	94.97	11.15	-43.8	-61.3	3.8	7.45e-01	0	59	104	0	58	28297
2026-01-12 10:06:49.82	94.48	11.35	-43.7	-58.4	3.9	7.38e-01	0	60	104	0	58	20160
2026-01-12 10:06:52.85	93.99	11.55	-43.6	-56.4	5.4	6.99e-01	0	59	0	524288	57	16965
2026-01-12 10:06:55.89	93.49	11.75	-43.6	-57.1	5.0	7.10e-01	0	59	0	2621440	57	18462
2026-01-12 10:06:58.92	92.99	11.96	-43.6	-56.5	5.4	6.98e-01	0	60	0	2621440	57	17217
2026-01-12 10:07:01.95	92.47	12.16	-43.1	-51.9	9.4	6.28e-01	0	59	0	6291456	57	10122
2026-01-12 10:07:04.98	91.95	12.36	-41.2	-45.7	15.8	6.06e-01	0	59	0	12058624	54	5914
2026-01-12 10:07:08.01	91.42	12.56	-44.6	-63.1	3.8	7.44e-01	0	59	104	16252928	60	31082
2026-01-12 10:07:11.05	90.89	12.76	-40.8	-47.2	13.1	6.10e-01	0	60	0	18874368	52	7875
2026-01-12 10:07:14.08	90.34	12.96	-41.8	-51.2	9.3	6.32e-01	0	59	0	24641536	54	11060
2026-01-12 10:07:17.10	89.79	13.16	-42.0	-55.5	5.2	7.03e-01	0	59	0	29884416	54	18221
2026-01-12 10:07:20.13	89.23	13.36	-41.4	-56.4	4.7	7.22e-01	0	60	104	29884416	53	21306
2026-01-12 10:07:23.16	88.66	13.56	-42.6	-54.3	6.3	6.73e-01	92	59	0	30408704	55	14936
2026-01-12 10:07:26.19	88.09	13.76	-41.5	-49.7	10.7	6.18e-01	0	59	0	33030144	53	9863
2026-01-12 10:07:29.21	87.50	13.95	-41.1	-47.4	13.1	6.09e-01	0	59	0	38797312	53	7580
2026-01-12 10:07:32.24	86.91	14.15	-40.7	-45.9	14.6	6.09e-01	0	59	0	44564480	51	7201
2026-01-12 10:07:35.27	86.31	14.34	-40.3	-45.2	15.2	6.09e-01	0	59	0	49807360	51	6580
2026-01-12 10:07:38.30	85.70	14.53	-40.4	-45.9	14.2	6.08e-01	0	59	0	55574528	51	7173
2026-01-12 10:07:41.34	85.08	14.73	-40.7	-47.1	12.8	6.10e-01	0	59	0	61341696	52	7754
2026-01-12 10:07:44.36	84.45	14.91	-40.8	-46.8	13.3	6.07e-01	0	60	0	67108864	52	7537
2026-01-12 10:07:47.39	83.81	15.10	-40.9	-46.4	14.1	6.10e-01	0	59	0	72876032	52	7203
2026-01-12 10:07:50.42	83.17	15.29	-40.6	-45.4	15.2	6.04e-01	0	59	0	78643200	52	6410
2026-01-12 10:07:53.45	82.52	15.47	-40.5	-45.0	15.8	6.06e-01	0	59	0	83886080	52	6118
2026-01-12 10:07:56.48	81.85	15.65	-40.5	-44.9	16.2	6.07e-01	0	59	0	89653248	52	6043
2026-01-12 10:07:59.51	81.18	15.83	-40.7	-45.4	15.5	6.10e-01	0	59	0	95420416	52	6396
2026-01-12 10:08:02.54	80.50	16.01	-40.7	-45.8	14.9	6.07e-01	0	59	0	101187584	52	6691
2026-01-12 10:08:05.56	79.82	16.19	-40.8	-46.1	14.5	6.08e-01	0	59	0	106954752	52	6938
2026-01-12 10:08:08.59	79.12	16.36	-41.0	-46.4	14.4	6.08e-01	0	59	0	112721920	53	6799
2026-01-12 10:08:11.63	78.41	16.53	-41.3	-47.5	13.2	6.09e-01	0	59	0	118489088	53	7693
2026-01-12 10:08:14.66	77.70	16.70	-41.1	-47.3	13.1	6.09e-01	0	59	0	123731968	53	7527
2026-01-12 10:08:17.69	76.98	16.86	-41.0	-47.4	13.0	6.09e-01	0	59	0	129499136	53	7587
2026-01-12 10:08:20.71	76.25	17.02	-41.0	-47.1	13.2	6.09e-01	0	59	0	135266304	53	7363
2026-01-12 10:08:23.74	75.51	17.17	-41.0	-47.1	13.3	6.09e-01	0	59	0	141033472	53	7301
2026-01-12 10:08:26.77	74.77	17.33	-41.1	-47.6	12.7	6.11e-01	0	59	0	146800640	53	7792
2026-01-12 10:08:29.81	74.01	17.48	-41.2	-48.2	12.0	6.14e-01	0	59	0	152043520	53	8346
2026-01-12 10:08:32.83	73.25	17.62	-41.1	-47.8	12.5	6.10e-01	0	59	0	157810688	53	7926
2026-01-12 10:08:35.87	72.48	17.76	-41.2	-47.9	12.4	6.11e-01	0	59	0	163577856	53	8044
2026-01-12 10:08:38.89	71.70	17.90	-41.2	-47.4	13.2	6.09e-01	0	59	0	169345024	53	7621
2026-01-12 10:08:41.92	70.92	18.03	-41.3	-46.9	14.1	6.09e-01	0	60	0	175112192	53	7162
2026-01-12 10:08:44.95	70.13	18.16	-41.4	-46.4	15.1	6.08e-01	0	59	0	180879360	53	6767
2026-01-12 10:08:47.98	69.33	18.29	-41.1	-45.3	16.5	6.07e-01	0	59	0	186646528	53	5973
2026-01-12 10:08:51.01	68.52	18.40	-41.0	-44.7	17.6	6.06e-01	0	59	0	191889408	53	5568
2026-01-12 10:08:54.04	67.71	18.52	-41.0	-44.3	18.3	6.04e-01	0	59	0	197656576	53	5334
2026-01-12 10:08:57.07	66.89	18.63	-41.0	-44.1	18.7	6.06e-01	0	60	0	203423744	53	5203
2026-01-12 10:09:00.10	66.07	18.73	-41.0	-44.1	18.8	6.05e-01	0	59	0	209190912	53	5212
2026-01-12 10:09:03.13	65.23	18.83	-41.1	-44.1	18.9	6.07e-01	0	59	0	214958080	53	5216
2026-01-12 10:09:06.16	64.40	18.92	-41.1	-44.2	18.9	6.06e-01	0	59	0	220200960	53	5234
2026-01-12 10:09:09.19	63.56	19.00	-41.1	-44.2	18.9	6.08e-01	0	59	0	225968128	53	5273
2026-01-12 10:09:12.22	62.71	19.08	-41.2	-44.3	18.9	6.05e-01	0	59	0	231735296	53	5305
2026-01-12 10:09:15.25	61.86	19.16	-41.1	-44.2	19.0	6.07e-01	0	59	0	237502464	53	5232
2026-01-12 10:09:18.28	61.01	19.23	-41.1	-44.2	19.0	6.06e-01	0	59	0	243269632	53	5230
2026-01-12 10:09:21.31	60.15	19.29	-41.1	-44.2	19.1	6.03e-01	0	59	0	249036800	53	5227
2026-01-12 10:09:24.34	59.29	19.34	-41.2	-44.3	19.0	6.04e-01	0	59	0	254803968	53	5308
2026-01-12 10:09:27.37	58.42	19.39	-41.2	-44.2	19.1	6.07e-01	0	59	0	260046848	53	5236
2026-01-12 10:09:30.40	57.56	19.44	-41.2	-44.3	18.9	6.05e-01	0	59	0	265814016	53	5333
2026-01-12 10:09:33.43	56.69	19.47	-41.2	-44.2	19.1	6.06e-01	0	59	0	271581184	53	5240
2026-01-12 10:09:36.46	55.81	19.50	-41.2	-44.3	18.9	6.06e-01	0	59	0	277348352	53	5340
2026-01-12 10:09:39.49	54.94	19.53	-41.1	-44.1	19.2	6.04e-01	0	59	0	283115520	53	5206
2026-01-12 10:09:42.52	54.07	19.54	-41.2	-44.2	19.0	6.07e-01	0	59	0	288358400	53	5272
2026-01-12 10:09:45.55	53.19	19.55	-41.1	-44.2	19.1	6.07e-01	0	59	0	294125568	53	5221
2026-01-12 10:09:48.58	52.31	19.56	-41.2	-44.2	19.0	6.08e-01	0	59	0	299892736	53	5271
2026-01-12 10:09:51.61	51.44	19.55	-41.6	-54.1	3.8	7.45e-01	0	59	104	305135616	53	16478
2026-01-12 10:09:54.64	50.56	19.54	-41.7	-54.1	3.9	7.43e-01	0	59	104	305135616	53	16331
2026-01-12 10:09:57.67	49.69	19.53	-43.3	-57.0	3.8	7.43e-01	0	59	104	305135616	58	17161
2026-01-12 10:10:00.69	48.82	19.50	-42.0	-54.5	3.9	7.43e-01	0	59	104	305135616	56	14440
2026-01-12 10:10:03.72	47.95	19.47	-42.9	-56.3	3.8	7.48e-01	0	59	104	305135616	57	16721
2026-01-12 10:10:06.75	47.08	19.44	-43.7	-57.5	3.9	7.49e-01	0	59	104	305135616	57	19208
2026-01-12 10:10:09.78	46.21	19.40	-42.4	-55.2	3.8	7.44e-01	0	59	104	305135616	56	15748
2026-01-12 10:10:12.81	45.35	19.35	-44.1	-58.4	3.8	7.44e-01	0	59	104	305135616	58	20293
2026-01-12 10:10:15.84	44.49	19.29	-43.0	-56.3	3.8	7.42e-01	0	59	104	305135616	58	15844
2026-01-12 10:10:18.87	43.63	19.23	-41.6	-54.1	3.8	7.45e-01	0	59	104	305135616	55	14594
2026-01-12 10:10:21.90	42.78	19.16	-44.6	-60.1	3.8	7.48e-01	0	59	104	305135616	59	23244
2026-01-12 10:10:24.93	41.93	19.09	-42.3	-55.2	3.8	7.45e-01	0	59	104	305135616	56	15587
2026-01-12 10:10:27.96	41.08	19.01	-44.9	-62.0	3.7	7.49e-01	0	59	104	305135616	60	27179
2026-01-12 10:10:30.99	40.24	18.92	-45.0	-61.9	3.7	7.48e-01	0	59	104	305135616	60	26988
2026-01-12 10:10:34.02	39.41	18.83	-41.7	-54.2	3.8	7.44e-01	0	59	104	305135616	55	14788
2026-01-12 10:10:37.05	38.58	18.73	-45.0	-62.8	3.7	7.49e-01	0	59	104	305135616	60	29798
2026-01-12 10:10:40.08	37.76	18.63	-42.5	-55.6	3.8	7.44e-01	0	59	104	305135616	57	15478
2026-01-12 10:10:43.11	36.94	18.52	-41.9	-54.6	3.8	7.46e-01	0	59	104	305135616	55	15413
2026-01-12 10:10:46.14	36.13	18.41	-42.0	-55.0	3.8	7.44e-01	0	59	104	305135616	56	15325
2026-01-12 10:10:49.17	35.33	18.29	-41.6	-54.0	3.8	7.46e-01	0	59	104	305135616	55	14439
2026-01-12 10:10:52.19	34.53	18.17	-42.0	-54.8	3.8	7.47e-01	0	59	104	305135616	55	15829
2026-01-12 10:10:55.22	33.74	18.04	-44.9	-62.5	3.9	7.48e-01	0	59	104	305135616	60	28819
2026-01-12 10:10:58.25	32.96	17.91	-42.0	-54.7	3.8	7.40e-01	0	59	104	305135616	56	14815
2026-01-12 10:11:01.28	32.18	17.77	-44.1	-58.9	3.8	7.40e-01	0	59	104	305135616	59	20279
2026-01-12 10:11:04.31	31.42	17.63	-42.4	-55.4	3.8	7.45e-01	0	59	104	305135616	56	15989
2026-01-12 10:11:07.34	30.66	17.49	-41.7	-54.2	3.8	7.47e-01	0	59	104	305135616	55	14753
2026-01-12 10:11:10.36	29.91	17.34	-41.5	-53.9	3.8	7.44e-01	0	59	104	305135616	55	14221
2026-01-12 10:11:13.40	29.16	17.19	-41.5	-54.0	3.8	7.43e-01	0	59	104	305135616	54	15352
2026-01-12 10:11:16.43	28.43	17.03	-41.4	-53.7	3.8	7.42e-01	0	59	104	305135616	54	14816
2026-01-12 10:11:19.46	27.70	16.87	-44.1	-59.4	3.9	7.43e-01	0	59	104	305135616	59	21343
2026-01-12 10:11:22.49	26.98	16.71	-41.8	-54.4	3.8	7.43e-01	0	59	104	305135616	54	16021
2026-01-12 10:11:25.52	26.27	16.54	-44.2	-59.1	3.9	7.45e-01	0	59	104	305135616	59	20705
2026-01-12 10:11:28.55	25.57	16.38	-42.3	-55.1	3.8	7.45e-01	0	59	104	305135616	56	15564
2026-01-12 10:11:31.58	24.87	16.20	-43.9	-58.3	3.8	7.44e-01	0	59	104	305135616	58	19949
2026-01-12 10:11:34.61	24.19	16.03	-42.4	-55.5	3.8	7.44e-01	0	59	104	305135616	55	17090
2026-01-12 10:11:37.64	23.51	15.85	-41.7	-54.3	3.8	7.46e-01	0	59	104	305135616	55	14942
2026-01-12 10:11:40.67	22.84	15.67	-43.2	-56.8	3.8	7.45e-01	0	59	104	305135616	56	18815
2026-01-12 10:11:43.70	22.18	15.49	-42.7	-56.0	3.8	7.44e-01	0	59	104	305135616	57	16166
2026-01-12 10:11:46.73	21.53	15.31	-41.5	-54.0	3.8	7.43e-01	0	59	104	305135616	54	15353
2026-01-12 10:11:49.76	20.89	15.12	-42.5	-55.6	3.9	7.42e-01	0	59	104	305135616	57	15405
2026-01-12 10:11:52.79	20.26	14.94	-41.6	-54.2	3.8	7.43e-01	0	59	104	305135616	55	14794
2026-01-12 10:11:55.82	19.63	14.75	-42.3	-55.4	3.8	7.41e-01	0	59	104	305135616	55	16905
2026-01-12 10:11:58.86	19.02	14.56	-44.5	-61.8	3.8	7.50e-01	0	59	104	305135616	60	26691
2026-01-12 10:12:01.89	18.41	14.37	-41.4	-53.9	3.8	7.46e-01	0	59	104	305135616	54	15121
2026-01-12 10:12:04.92	17.81	14.17	-44.7	-62.4	3.8	7.46e-01	0	59	104	305135616	60	28404
2026-01-12 10:12:07.95	17.22	13.98	-42.1	-55.1	3.8	7.47e-01	0	59	104	305135616	56	15533
2026-01-12 10:12:10.98	16.64	13.78	-41.9	-54.9	3.8	7.48e-01	0	59	104	305135616	54	17003
2026-01-12 10:12:14.01	16.06	13.59	-43.8	-58.6	3.8	7.47e-01	0	59	104	305135616	58	20691
2026-01-12 10:12:17.04	15.50	13.39	-41.6	-54.4	3.8	7.41e-01	0	59	104	305135616	55	15122
2026-01-12 10:12:20.07	14.94	13.19	-42.3	-55.7	3.8	7.42e-01	0	59	104	305135616	55	17586
2026-01-12 10:12:23.10	14.39	12.99	-44.5	-63.0	3.8	7.45e-01	0	59	104	305135616	60	30692
2026-01-12 10:12:26.13	13.85	12.79	-41.5	-54.2	3.8	7.47e-01	0	59	104	305135616	55	14851
2026-01-12 10:12:29.16	13.32	12.59	-44.7	-63.1	3.8	7.43e-01	0	59	104	305135616	59	32748
2026-01-12 10:12:32.19	12.79	12.39	-41.6	-54.7	3.9	7.43e-01	0	59	104	305135616	55	15625
2026-01-12 10:12:35.22	12.27	12.19	-41.6	-55.2	3.8	7.47e-01	0	59	104	305135616	54	17677
2026-01-12 10:12:38.25	11.76	11.99	-41.4	-55.0	3.8	7.46e-01	0	59	104	305135616	54	17270
2026-01-12 10:12:41.28	11.26	11.79	-41.1	-54.4	3.8	7.46e-01	0	59	104	305135616	54	16106
2026-01-12 10:12:44.31	10.77	11.59	-41.0	-55.1	3.8	7.43e-01	0	59	104	305135616	53	18513
2026-01-12 10:12:47.34	10.28	11.39	-42.4	-61.2	3.8	7.45e-01	0	59	104	305135616	55	33241
2026-01-12 10:12:50.37	9.80	11.19	-41.9	-58.5	3.8	7.45e-01	0	59	104	305135616	55	24299
2026-01-12 10:12:53.40	9.33	10.98	-41.4	-60.3	3.8	7.45e-01	0	59	104	305135616	54	31487
2026-01-12 10:12:56.44	8.86	10.78	-41.8	-59.9	3.8	7.45e-01	0	59	104	305135616	55	28493
2026-01-12 10:12:59.47	8.40	10.58	-41.6	-60.3	3.8	7.45e-01	0	59	104	305135616	54	31528
2026-01-12 10:13:02.50	7.95	10.38	-41.0	-59.8	3.8	7.45e-01	0	59	104	305135616	53	31507
2026-01-12 10:13:05.53	7.51	10.18	-40.9	-59.7	3.8	7.44e-01	0	59	104	305135616	53	31229
2026-01-12 10:13:08.56	7.07	9.98	-41.0	-59.9	3.8	7.43e-01	0	60	104	305135616	53	31885
2026-01-12 10:13:11.59	6.64	9.78	-40.7	-59.6	3.8	7.45e-01	0	59	104	305135616	53	30951
2026-01-12 10:13:14.62	6.21	9.58	-40.7	-59.6	3.8	7.45e-01	0	59	104	305135616	53	30786
2026-01-12 10:13:17.65	5.79	9.38	-40.7	-59.6	3.8	7.44e-01	0	59	104	305135616	53	31005
2026-01-12 10:13:20.68	5.38	9.18	-40.7	-59.6	3.8	7.50e-01	0	59	104	305135616	53	30761
2026-01-12 10:13:23.71	4.97	8.98	-40.6	-59.5	3.8	7.43e-01	0	59	104	305135616	53	30660
2026-01-12 10:13:26.74	4.57	8.78	-40.7	-59.6	3.8	7.49e-01	0	59	104	305135616	53	30942
2026-01-12 10:13:29.77	4.18	8.58	-40.8	-59.7	3.8	7.43e-01	0	59	104	305135616	53	31374
2026-01-12 10:13:32.79	3.79	8.39	-40.6	-59.6	3.8	7.43e-01	0	59	104	305135616	53	31013
2026-01-12 10:13:35.82	3.41	8.19	-40.4	-59.6	3.8	7.47e-01	0	59	104	305135616	52	32592
2026-01-12 10:13:38.86	3.03	7.99	-41.0	-60.0	3.8	7.46e-01	0	59	104	305135616	52	34273
2026-01-12 10:13:41.89	2.66	7.80	-45.8	-64.5	3.8	7.47e-01	0	59	104	305135616	62	32535
2026-01-12 10:13:44.92	2.30	7.60	-46.1	-64.9	3.8	7.44e-01	0	59	104	305135616	62	33731
2026-01-12 10:13:47.96	1.94	7.41	-46.2	-64.9	3.8	7.44e-01	0	59	104	305135616	63	32169
2026-01-12 10:13:50.99	1.58	7.21	-46.0	-64.8	3.8	7.43e-01	0	59	104	305135616	63	31590
2026-01-12 10:13:54.02	1.23	7.02	-45.9	-64.7	3.8	7.48e-01	0	59	104	305135616	63	31244
2026-01-12 10:13:57.05	0.89	6.83	-45.9	-64.7	3.8	7.49e-01	0	59	104	305135616	62	33133
2026-01-12 10:14:00.08	0.55	6.64	-45.9	-64.7	3.8	7.46e-01	0	59	104	305135616	62	33001
2026-01-12 10:14:03.10	0.22	6.45	-45.9	-64.7	3.8	7.48e-01	0	59	104	305135616	62	33121
2026-01-12 10:14:06.13	359.89	6.26	-45.9	-64.7	3.8	7.41e-01	0	59	104	305135616	62	33243
2026-01-12 10:14:09.16	359.56	6.07	-45.8	-64.6	3.8	7.47e-01	0	59	104	305135616	62	32873
2026-01-12 10:14:12.20	359.24	5.88	-45.2	-64.7	3.8	7.42e-01	0	59	104	305135616	62	32984
2026-01-12 10:14:15.23	358.93	5.69	-44.0	-65.0	3.8	7.47e-01	0	59	104	305135616	59	40758
2026-01-12 10:14:18.26	358.62	5.50	-45.9	-64.7	3.9	7.43e-01	0	59	104	305135616	62	33303
2026-01-12 10:14:21.29	358.31	5.32	-45.4	-64.7	3.8	7.44e-01	0	59	104	305135616	61	35142
2026-01-12 10:14:24.33	358.01	5.13	-45.7	-64.7	3.8	7.44e-01	0	59	104	305135616	62	33234
2026-01-12 10:14:27.36	357.71	4.94	-45.8	-64.7	3.8	7.45e-01	0	59	104	305135616	62	33150
2026-01-12 10:14:30.39	357.42	4.76	-45.9	-64.7	3.8	7.46e-01	0	59	104	305135616	62	33188
2026-01-12 10:14:33.43	357.13	4.58	-45.9	-64.7	3.8	7.44e-01	0	59	104	305135616	62	33220
2026-01-12 10:14:36.46	356.84	4.39	-45.9	-64.7	3.8	7.46e-01	0	59	104	305135616	62	33075
2026-01-12 10:14:39.49	356.56	4.21	-45.9	-64.7	3.8	7.46e-01	0	59	104	305135616	62	33091
2026-01-12 10:14:42.52	356.28	4.03	-45.9	-64.7	3.8	7.48e-01	0	59	104	305135616	62	33099
2026-01-12 10:14:45.56	356.01	3.85	-45.9	-64.7	3.8	7.44e-01	0	59	104	305135616	62	33055
2026-01-12 10:14:48.59	355.74	3.67	-45.9	-64.7	3.8	7.44e-01	0	59	104	305135616	62	33065
2026-01-12 10:14:51.62	355.48	3.49	-45.8	-64.7	3.8	7.44e-01	0	59	104	305135616	62	33071
2026-01-12 10:14:54.66	355.21	3.31	-45.9	-64.7	3.8	7.43e-01	0	59	104	305135616	62	33143
2026-01-12 10:14:57.69	354.96	3.13	-45.9	-64.7	3.8	7.44e-01	0	59	104	305135616	62	33102
2026-01-12 10:15:00.72	354.70	2.96	-45.9	-64.7	3.8	7.49e-01	0	59	104	305135616	62	33059
2026-01-12 10:15:03.76	354.45	2.78	-45.9	-64.7	3.8	7.45e-01	0	59	104	305135616	62	33134
2026-01-12 10:15:06.79	354.20	2.60	-45.9	-64.7	3.8	7.44e-01	0	59	104	305135616	62	33095
2026-01-12 10:15:09.82	353.96	2.43	-45.9	-64.7	3.8	7.42e-01	0	59	104	305135616	62	33022
2026-01-12 10:15:12.85	353.72	2.26	-45.9	-64.7	3.8	7.49e-01	0	59	104	305135616	62	33090
2026-01-12 10:15:15.89	353.48	2.08	-45.8	-64.7	3.8	7.45e-01	0	59	104	305135616	62	33142

#Closed at: 2026-01-12 10:15:18
#Recorded file [305 MB]: D:/lorett/data/31039_260112_130613.dat