passes_logs/2026/01/12/R2.0S_Moscow/R2.0S_Moscow__20260112_225219_NOAA_20_JPSS-1_rec.log

#Pass ID: 20260112_225219_NOAA 20 (JPSS-1)
#Satellite: NOAA 20 (JPSS-1)
#Configuration: NOAA 20
#almurnet v.1.7.20251203
#Start time: 2026-01-12 22:52:20

#Version: 2.2.20231116
#Station: R2.0S_Moscow
#Location: 37.707566 lon 55.798166 lat
#TLE: 1 43013U 17073A   26012.29914746  .00000087  00000+0  62270-4 0  9997
#TLE: 2 43013  98.7632 313.2670 0001616  43.2193 316.9110 14.19535514422351

#Time	Az	El	Level	Level2	SNR	BER	BlckErr	Temp	State	Recorded	gain1	gain2
2026-01-12 22:52:20.66	20.31	2.06	-41.7	-56.7	3.8	1.49e+00	0	51	0	0	55	19774
2026-01-12 22:52:24.69	20.47	2.31	-41.7	-56.7	3.8	1.49e+00	0	52	104	0	54	20959
2026-01-12 22:52:28.74	20.63	2.56	-41.7	-56.7	3.8	1.49e+00	0	51	104	0	54	21004
2026-01-12 22:52:32.77	20.80	2.81	-41.7	-56.7	3.8	1.49e+00	0	52	104	0	54	20970
2026-01-12 22:52:36.81	20.97	3.06	-41.7	-56.7	3.8	1.49e+00	0	53	104	0	54	20923
2026-01-12 22:52:40.85	21.14	3.32	-41.7	-56.7	3.8	1.49e+00	0	53	104	0	54	20982
2026-01-12 22:52:44.90	21.32	3.58	-41.7	-56.7	3.8	1.49e+00	0	53	104	0	54	20970
2026-01-12 22:52:48.94	21.49	3.84	-41.7	-56.7	3.8	1.49e+00	0	53	104	0	54	20930
2026-01-12 22:52:52.98	21.67	4.10	-41.7	-56.7	3.8	1.49e+00	0	53	104	0	54	20971
2026-01-12 22:52:57.02	21.86	4.37	-41.7	-56.7	3.8	1.49e+00	0	53	104	0	54	20960
2026-01-12 22:53:01.06	22.04	4.64	-41.7	-56.7	3.8	1.49e+00	0	54	104	0	54	20906
2026-01-12 22:53:05.09	22.23	4.91	-41.7	-56.7	3.8	1.49e+00	0	54	104	0	54	21004
2026-01-12 22:53:09.13	22.43	5.18	-41.7	-56.7	3.8	1.49e+00	0	54	104	0	54	20879
2026-01-12 22:53:13.17	22.62	5.45	-41.7	-56.7	3.8	1.49e+00	0	54	104	0	54	20909
2026-01-12 22:53:17.22	22.82	5.73	-41.7	-56.7	3.8	1.49e+00	0	55	104	0	54	20863
2026-01-12 22:53:21.26	23.02	6.01	-41.7	-56.7	3.8	1.49e+00	0	55	104	0	54	20877
2026-01-12 22:53:25.30	23.23	6.30	-41.7	-56.7	3.8	1.49e+00	0	55	104	0	54	21016
2026-01-12 22:53:29.35	23.44	6.58	-41.7	-56.7	3.8	1.49e+00	0	55	104	0	54	20909
2026-01-12 22:53:33.39	23.65	6.87	-41.7	-56.7	3.8	1.49e+00	0	55	104	0	54	20905
2026-01-12 22:53:37.43	23.87	7.17	-41.7	-56.6	3.8	1.49e+00	0	55	104	0	54	20713
2026-01-12 22:53:41.48	24.09	7.46	-41.7	-56.1	3.8	1.49e+00	0	56	104	0	54	19596
2026-01-12 22:53:45.52	24.32	7.76	-41.5	-53.5	4.1	1.46e+00	0	56	0	0	54	14377
2026-01-12 22:53:49.56	24.55	8.06	-41.4	-50.3	5.7	3.00e-01	0	56	0	5242880	54	9985
2026-01-12 22:53:53.60	24.79	8.37	-41.3	-48.2	7.7	5.35e-01	0	56	0	10485760	54	7835
2026-01-12 22:53:57.63	25.02	8.68	-41.7	-48.9	7.1	1.86e-01	0	56	0	17825792	54	8527
2026-01-12 22:54:01.67	25.27	8.99	-41.9	-49.0	7.1	1.30e-01	0	56	0	26214400	54	8580
2026-01-12 22:54:05.71	25.52	9.31	-42.0	-48.6	7.6	1.04e-01	0	56	0	33554432	54	8261
2026-01-12 22:54:09.75	25.77	9.62	-42.0	-48.3	8.1	6.58e-02	0	56	0	40894464	54	7944
2026-01-12 22:54:13.79	26.03	9.95	-42.2	-48.7	7.8	9.71e-02	0	57	0	48234496	55	7835
2026-01-12 22:54:17.82	26.30	10.27	-42.2	-48.3	8.2	5.76e-02	0	57	0	56623104	55	7517
2026-01-12 22:54:21.86	26.57	10.60	-42.2	-47.9	8.8	3.25e-02	0	57	0	63963136	55	7156
2026-01-12 22:54:25.89	26.84	10.94	-42.2	-47.7	9.1	2.31e-02	0	57	0	71303168	55	6964
2026-01-12 22:54:29.93	27.12	11.28	-42.1	-47.4	9.5	1.61e-02	0	57	0	78643200	55	6752
2026-01-12 22:54:33.98	27.41	11.62	-42.1	-47.2	9.7	1.25e-02	0	57	0	85983232	55	6623
2026-01-12 22:54:38.02	27.71	11.97	-42.1	-47.2	9.8	1.01e-02	0	57	0	94371840	55	6586
2026-01-12 22:54:42.06	28.01	12.32	-42.0	-46.9	10.1	6.34e-03	0	57	0	101711872	55	6390
2026-01-12 22:54:46.10	28.32	12.68	-42.1	-47.0	10.1	6.79e-03	0	57	0	109051904	55	6465
2026-01-12 22:54:50.14	28.63	13.04	-42.1	-47.0	10.1	7.67e-03	0	58	0	116391936	55	6440
2026-01-12 22:54:54.18	28.96	13.40	-42.1	-47.1	10.1	6.72e-03	0	57	0	124780544	55	6506
2026-01-12 22:54:58.22	29.29	13.77	-42.1	-46.9	10.3	6.74e-03	0	57	0	132120576	55	6404
2026-01-12 22:55:02.25	29.62	14.15	-42.1	-46.8	10.5	3.87e-03	0	58	0	139460608	55	6294
2026-01-12 22:55:06.28	29.97	14.52	-42.2	-46.9	10.4	4.22e-03	0	58	0	146800640	55	6367
2026-01-12 22:55:10.32	30.32	14.91	-42.2	-46.9	10.4	4.38e-03	0	58	0	154140672	55	6400
2026-01-12 22:55:14.36	30.69	15.30	-42.0	-46.6	10.8	2.73e-03	0	58	0	162529280	55	6136
2026-01-12 22:55:18.40	31.06	15.70	-42.0	-46.5	11.0	2.13e-03	0	58	0	169869312	55	6077
2026-01-12 22:55:22.43	31.44	16.10	-41.9	-46.2	11.3	1.31e-03	0	58	0	177209344	55	5876
2026-01-12 22:55:26.47	31.84	16.50	-41.9	-46.2	11.3	1.33e-03	0	58	0	184549376	55	5909
2026-01-12 22:55:30.51	32.24	16.91	-42.1	-46.4	11.0	1.78e-03	0	58	0	192937984	55	6061
2026-01-12 22:55:34.55	32.66	17.33	-42.2	-46.7	10.8	2.58e-03	0	58	0	200278016	55	6266
2026-01-12 22:55:38.59	33.08	17.76	-42.2	-46.7	10.8	2.43e-03	0	58	0	207618048	55	6267
2026-01-12 22:55:42.63	33.52	18.19	-42.2	-46.8	10.8	2.82e-03	0	58	0	214958080	55	6312
2026-01-12 22:55:46.67	33.97	18.62	-42.3	-47.0	10.7	3.11e-03	0	58	0	222298112	55	6423
2026-01-12 22:55:50.71	34.43	19.06	-42.4	-47.1	10.5	3.60e-03	0	58	0	230686720	55	6526
2026-01-12 22:55:54.74	34.90	19.51	-42.4	-47.0	10.6	3.35e-03	0	59	0	238026752	55	6485
2026-01-12 22:55:58.78	35.39	19.97	-42.4	-47.1	10.6	3.30e-03	0	59	0	245366784	55	6497
2026-01-12 22:56:02.82	35.89	20.43	-42.5	-47.2	10.5	3.74e-03	0	58	0	252706816	55	6607
2026-01-12 22:56:06.85	36.41	20.89	-42.5	-47.1	10.5	3.82e-03	0	59	0	260046848	55	6569
2026-01-12 22:56:10.89	36.94	21.37	-42.4	-47.1	10.6	3.16e-03	0	58	0	268435456	55	6512
2026-01-12 22:56:14.93	37.49	21.85	-42.5	-47.3	10.5	4.34e-03	0	59	0	275775488	55	6661
2026-01-12 22:56:18.97	38.06	22.33	-42.6	-47.4	10.4	4.96e-03	0	59	0	283115520	55	6736
2026-01-12 22:56:23.01	38.64	22.83	-42.5	-47.2	10.5	3.75e-03	0	59	0	290455552	55	6625
2026-01-12 22:56:27.05	39.24	23.33	-42.5	-47.1	10.7	3.02e-03	0	59	0	298844160	55	6506
2026-01-12 22:56:31.09	39.87	23.84	-42.5	-47.0	10.9	2.37e-03	0	59	0	306184192	55	6423
2026-01-12 22:56:35.12	40.51	24.35	-42.5	-47.0	10.8	2.60e-03	0	59	0	313524224	55	6465
2026-01-12 22:56:39.16	41.17	24.87	-42.6	-47.2	10.7	3.30e-03	0	59	0	320864256	55	6580
2026-01-12 22:56:43.20	41.85	25.39	-42.6	-47.2	10.6	3.10e-03	0	59	0	328204288	55	6636
2026-01-12 22:56:47.24	42.56	25.93	-42.6	-47.3	10.6	2.82e-03	0	59	0	336592896	55	6660
2026-01-12 22:56:51.27	43.29	26.46	-42.9	-47.6	10.4	4.57e-03	0	59	0	343932928	56	6555
2026-01-12 22:56:55.31	44.04	27.01	-42.9	-47.7	10.3	4.97e-03	0	59	0	351272960	56	6615
2026-01-12 22:56:59.35	44.82	27.56	-42.8	-47.4	10.6	3.23e-03	0	59	0	358612992	56	6415
2026-01-12 22:57:03.39	45.63	28.12	-43.0	-48.0	10.1	6.17e-03	0	59	0	367001600	56	6819
2026-01-12 22:57:07.43	46.46	28.68	-43.1	-48.1	10.0	7.75e-03	0	59	0	374341632	56	6915
2026-01-12 22:57:11.46	47.33	29.24	-43.0	-47.9	10.2	6.07e-03	0	59	0	381681664	56	6758
2026-01-12 22:57:15.50	48.22	29.81	-43.2	-48.3	9.8	1.01e-02	0	59	0	389021696	56	7079
2026-01-12 22:57:19.54	49.15	30.39	-43.2	-48.2	9.9	7.79e-03	0	59	0	396361728	56	6991
2026-01-12 22:57:23.58	50.11	30.97	-43.5	-49.1	9.0	2.71e-02	0	59	0	404750336	57	7366
2026-01-12 22:57:27.62	51.10	31.55	-43.5	-49.0	9.1	2.34e-02	0	59	0	412090368	57	7261
2026-01-12 22:57:31.67	52.14	32.13	-43.7	-49.7	8.4	3.72e-02	0	59	0	419430400	57	7826
2026-01-12 22:57:35.70	53.20	32.71	-43.5	-49.1	9.0	2.99e-02	0	59	0	426770432	58	6941
2026-01-12 22:57:39.74	54.31	33.30	-43.5	-49.1	9.1	2.00e-02	0	59	0	435159040	58	6911
2026-01-12 22:57:43.78	55.45	33.88	-43.7	-49.5	8.6	3.74e-02	0	59	0	442499072	58	7243
2026-01-12 22:57:47.81	56.64	34.46	-43.3	-48.4	9.8	1.11e-02	0	59	0	449839104	58	6375
2026-01-12 22:57:51.85	57.87	35.04	-43.3	-48.4	9.8	8.85e-03	0	59	0	457179136	58	6360
2026-01-12 22:57:55.89	59.14	35.61	-43.9	-50.2	8.0	5.22e-02	0	60	0	464519168	58	7826
2026-01-12 22:57:59.93	60.46	36.18	-43.4	-48.6	9.7	1.31e-02	0	59	0	472907776	58	6525
2026-01-12 22:58:03.97	61.82	36.74	-43.7	-49.7	8.5	2.92e-02	0	60	0	480247808	58	7423
2026-01-12 22:58:08.00	63.23	37.29	-43.8	-49.7	8.6	4.72e-02	0	60	0	487587840	58	7387
2026-01-12 22:58:12.04	64.68	37.83	-43.5	-48.9	9.3	1.34e-02	0	59	0	494927872	58	6770
2026-01-12 22:58:16.08	66.19	38.36	-43.8	-49.8	8.4	4.40e-02	0	59	0	503316480	58	7516
2026-01-12 22:58:20.11	67.74	38.88	-43.4	-48.5	9.7	1.27e-02	0	60	0	510656512	58	6472
2026-01-12 22:58:24.15	69.34	39.38	-43.8	-49.7	8.6	2.74e-02	0	60	0	517996544	58	7381
2026-01-12 22:58:28.19	70.99	39.86	-44.0	-50.4	7.9	7.94e-02	0	60	0	525336576	58	7995
2026-01-12 22:58:32.23	72.69	40.32	-43.7	-49.4	8.9	3.27e-02	0	59	0	532676608	58	7186
2026-01-12 22:58:36.27	74.44	40.75	-43.5	-48.9	9.3	1.50e-02	0	59	0	541065216	58	6763
2026-01-12 22:58:40.31	76.23	41.17	-43.3	-48.3	10.0	9.02e-03	0	59	0	548405248	58	6327
2026-01-12 22:58:44.35	78.07	41.55	-43.3	-48.2	10.1	6.47e-03	0	60	0	555745280	58	6213
2026-01-12 22:58:48.38	79.95	41.90	-43.8	-49.8	8.4	4.17e-02	0	59	0	563085312	58	7538
2026-01-12 22:58:52.42	81.87	42.23	-43.5	-48.8	9.4	2.04e-02	0	60	0	571473920	58	6705
2026-01-12 22:58:56.46	83.82	42.52	-43.5	-48.8	9.4	1.50e-02	0	60	0	578813952	58	6694
2026-01-12 22:59:00.49	85.81	42.78	-43.1	-47.7	10.7	3.30e-03	0	59	0	586153984	58	5885
2026-01-12 22:59:04.53	87.83	42.99	-43.3	-48.2	10.1	8.29e-03	0	60	0	593494016	58	6261
2026-01-12 22:59:08.57	89.87	43.18	-43.5	-48.8	9.5	1.04e-02	0	60	0	600834048	58	6664
2026-01-12 22:59:12.61	91.94	43.32	-42.9	-47.4	10.9	2.62e-03	0	60	0	609222656	57	6018
2026-01-12 22:59:16.64	94.01	43.42	-43.3	-48.4	9.9	7.82e-03	0	60	0	616562688	57	6744
2026-01-12 22:59:20.68	96.11	43.48	-42.6	-46.7	11.7	6.31e-04	0	60	0	623902720	57	5575
2026-01-12 22:59:24.72	98.20	43.49	-42.6	-46.6	11.7	6.42e-04	0	60	0	631242752	57	5513
2026-01-12 22:59:28.76	100.30	43.47	-42.4	-46.2	12.2	2.95e-04	0	60	0	638582784	56	5553
2026-01-12 22:59:32.80	102.39	43.40	-43.2	-48.0	10.3	4.22e-03	0	60	0	646971392	56	6824
2026-01-12 22:59:36.84	104.47	43.30	-42.9	-47.3	11.1	1.44e-03	0	60	0	654311424	56	6331
2026-01-12 22:59:40.88	106.54	43.15	-43.1	-47.8	10.6	4.79e-03	0	60	0	661651456	57	6279
2026-01-12 22:59:44.92	108.58	42.96	-43.1	-47.7	10.6	6.55e-03	0	60	0	668991488	57	6245
2026-01-12 22:59:48.95	110.59	42.74	-43.3	-48.4	9.9	8.15e-03	0	60	0	677380096	57	6738
2026-01-12 22:59:52.99	112.58	42.47	-43.3	-48.4	10.0	5.64e-03	0	60	0	684720128	57	6737
2026-01-12 22:59:57.03	114.53	42.18	-42.8	-47.1	11.3	1.18e-03	0	60	0	692060160	57	5789
2026-01-12 23:00:01.06	116.45	41.85	-42.9	-47.2	11.1	3.80e-03	0	60	0	699400192	57	5923
2026-01-12 23:00:05.11	118.33	41.48	-43.0	-47.5	10.9	2.36e-03	0	60	0	706740224	57	6075
2026-01-12 23:00:09.15	120.16	41.09	-42.1	-45.8	12.5	2.36e-05	0	60	0	715128832	55	5629
2026-01-12 23:00:13.19	121.95	40.68	-41.8	-45.2	13.1	3.43e-05	0	60	0	722468864	55	5278
2026-01-12 23:00:17.22	123.69	40.23	-42.0	-45.5	12.8	1.44e-04	0	60	0	729808896	55	5443
2026-01-12 23:00:21.26	125.39	39.77	-42.1	-45.7	12.6	4.19e-05	0	60	0	737148928	55	5554
2026-01-12 23:00:25.30	127.04	39.28	-41.9	-45.5	12.9	3.58e-05	0	60	0	745537536	55	5404
2026-01-12 23:00:29.33	128.63	38.78	-42.1	-45.8	12.5	1.19e-04	0	60	0	752877568	55	5596
2026-01-12 23:00:33.37	130.18	38.26	-42.2	-45.9	12.4	2.59e-04	0	60	0	760217600	55	5719
2026-01-12 23:00:37.41	131.68	37.73	-42.3	-46.3	12.0	2.74e-04	0	60	0	767557632	55	5927
2026-01-12 23:00:41.45	133.14	37.18	-42.5	-46.6	11.7	5.10e-04	0	60	0	774897664	55	6163
2026-01-12 23:00:45.49	134.54	36.62	-41.5	-44.7	13.6	6.80e-06	0	60	0	783286272	55	4966
2026-01-12 23:00:49.53	135.90	36.06	-42.5	-46.6	11.7	5.86e-04	0	60	0	790626304	55	6160
2026-01-12 23:00:53.57	137.21	35.49	-42.3	-46.1	12.2	1.03e-04	0	60	0	797966336	55	5829
2026-01-12 23:00:57.61	138.48	34.91	-42.5	-46.5	11.9	5.72e-04	0	60	0	805306368	56	5758
2026-01-12 23:01:01.65	139.71	34.32	-43.4	-48.5	9.8	7.70e-03	0	60	0	813694976	57	6831
2026-01-12 23:01:05.68	140.89	33.74	-41.6	-44.9	13.3	1.75e-05	0	60	0	821035008	55	5084
2026-01-12 23:01:09.72	142.03	33.15	-43.8	-49.8	8.4	3.38e-02	0	60	0	828375040	58	7515
2026-01-12 23:01:13.76	143.13	32.57	-42.5	-46.6	11.8	6.37e-04	0	60	0	835715072	57	5479
2026-01-12 23:01:17.80	144.19	31.98	-43.9	-50.3	7.9	8.40e-02	0	60	0	843055104	58	7921
2026-01-12 23:01:21.84	145.22	31.39	-42.3	-46.1	12.3	1.54e-04	0	60	0	851443712	56	5479
2026-01-12 23:01:25.87	146.21	30.81	-43.7	-49.6	8.6	3.45e-02	0	60	0	858783744	57	7802
2026-01-12 23:01:29.91	147.16	30.23	-42.5	-46.5	11.8	5.68e-04	0	60	0	866123776	57	5446
2026-01-12 23:01:33.95	148.09	29.65	-43.8	-50.0	8.2	4.65e-02	0	60	0	873463808	58	7653
2026-01-12 23:01:37.99	148.98	29.08	-42.5	-46.7	11.6	1.23e-03	0	60	0	881852416	57	5547
2026-01-12 23:01:42.03	149.84	28.51	-42.6	-46.8	11.5	3.77e-04	0	60	0	889192448	56	5963
2026-01-12 23:01:46.07	150.67	27.95	-43.2	-48.4	9.8	1.25e-02	0	60	0	896532480	57	6743
2026-01-12 23:01:50.10	151.47	27.39	-42.5	-46.6	11.6	7.57e-04	0	60	0	903872512	57	5522
2026-01-12 23:01:54.14	152.25	26.84	-42.8	-47.3	10.9	1.68e-03	0	60	0	911212544	56	6331
2026-01-12 23:01:58.18	153.00	26.29	-42.6	-46.9	11.4	1.29e-03	0	60	0	919601152	56	6011
2026-01-12 23:02:02.22	153.73	25.75	-42.4	-46.5	11.7	4.26e-04	0	60	0	926941184	56	5764
2026-01-12 23:02:06.26	154.43	25.21	-42.6	-47.0	11.2	1.37e-03	0	60	0	934281216	56	6063
2026-01-12 23:02:10.30	155.11	24.68	-42.5	-46.7	11.5	8.85e-04	0	60	0	941621248	56	5909
2026-01-12 23:02:14.34	155.77	24.16	-42.3	-46.4	11.8	4.85e-04	0	60	0	950009856	56	5673
2026-01-12 23:02:18.38	156.41	23.64	-42.3	-46.3	11.8	5.13e-04	0	60	0	957349888	56	5651
2026-01-12 23:02:22.41	157.02	23.14	-42.6	-46.9	11.3	1.13e-03	0	60	0	964689920	56	6002
2026-01-12 23:02:26.45	157.62	22.63	-42.8	-47.6	10.5	4.06e-03	0	60	0	972029952	56	6514
2026-01-12 23:02:30.49	158.20	22.14	-42.7	-47.3	10.8	2.69e-03	0	60	0	979369984	56	6278
2026-01-12 23:02:34.53	158.77	21.65	-42.6	-47.0	11.1	1.43e-03	0	60	0	987758592	56	6085
2026-01-12 23:02:38.56	159.31	21.17	-42.7	-47.4	10.6	3.20e-03	0	60	0	995098624	56	6389
2026-01-12 23:02:42.60	159.84	20.69	-42.6	-47.1	10.9	2.26e-03	0	60	0	1002438656	56	6189
2026-01-12 23:02:46.64	160.35	20.22	-42.6	-47.1	11.0	2.04e-03	0	60	0	1009778688	56	6132
2026-01-12 23:02:50.68	160.85	19.76	-42.6	-47.3	10.7	2.96e-03	0	60	0	1018167296	56	6275
2026-01-12 23:02:54.72	161.34	19.31	-42.7	-47.4	10.5	3.46e-03	0	60	0	1025507328	56	6386
2026-01-12 23:02:58.75	161.81	18.86	-42.8	-47.6	10.4	4.96e-03	0	60	0	1032847360	56	6510
2026-01-12 23:03:02.79	162.27	18.41	-42.8	-47.8	10.0	7.18e-03	0	60	0	1040187392	56	6711
2026-01-12 23:03:06.83	162.71	17.98	-42.9	-47.9	10.0	8.44e-03	0	60	0	1047527424	56	6744
2026-01-12 23:03:10.87	163.15	17.54	-42.8	-47.6	10.2	6.11e-03	0	60	0	1055916032	56	6568
2026-01-12 23:03:14.90	163.57	17.12	-42.7	-47.6	10.3	6.03e-03	0	60	0	1063256064	56	6515
2026-01-12 23:03:18.94	163.98	16.70	-42.7	-47.6	10.1	5.52e-03	0	60	0	1070596096	56	6561
2026-01-12 23:03:22.98	164.38	16.29	-42.7	-47.5	10.2	6.31e-03	0	60	0	1077936128	56	6486
2026-01-12 23:03:27.02	164.77	15.88	-42.6	-47.4	10.3	4.95e-03	0	60	0	1086324736	56	6368
2026-01-12 23:03:31.06	165.14	15.48	-42.6	-47.4	10.3	4.79e-03	0	60	0	1093664768	56	6357
2026-01-12 23:03:35.09	165.51	15.08	-42.7	-47.6	10.0	7.89e-03	0	60	0	1101004800	56	6568
2026-01-12 23:03:39.13	165.87	14.69	-42.8	-48.0	9.6	1.38e-02	0	60	0	1108344832	56	6876
2026-01-12 23:03:43.17	166.22	14.30	-42.9	-48.4	9.2	1.99e-02	0	60	0	1115684864	56	7145
2026-01-12 23:03:47.21	166.57	13.92	-42.8	-48.1	9.4	1.64e-02	0	60	0	1124073472	56	6937
2026-01-12 23:03:51.24	166.90	13.55	-42.6	-47.6	9.9	9.23e-03	0	60	0	1131413504	56	6501
2026-01-12 23:03:55.28	167.23	13.18	-42.4	-47.1	10.4	4.76e-03	0	60	0	1138753536	56	6158
2026-01-12 23:03:59.32	167.55	12.81	-42.4	-47.2	10.3	5.77e-03	0	60	0	1146093568	56	6211
2026-01-12 23:04:03.35	167.86	12.45	-42.5	-47.5	9.9	9.48e-03	0	60	0	1153433600	56	6426
2026-01-12 23:04:07.40	168.16	12.09	-42.7	-48.2	9.1	2.24e-02	0	60	0	1161822208	56	6989
2026-01-12 23:04:11.43	168.46	11.74	-42.9	-48.7	8.5	3.97e-02	0	60	0	1169162240	56	7415
2026-01-12 23:04:15.47	168.75	11.39	-42.9	-48.9	8.3	4.96e-02	0	60	0	1176502272	56	7577
2026-01-12 23:04:19.50	169.03	11.05	-42.9	-48.9	8.3	5.65e-02	0	60	0	1183842304	56	7581
2026-01-12 23:04:23.54	169.31	10.71	-42.8	-48.7	8.4	4.48e-02	0	60	0	1192230912	56	7433
2026-01-12 23:04:27.58	169.58	10.37	-42.6	-48.3	8.8	3.49e-02	0	60	0	1199570944	56	7075
2026-01-12 23:04:31.62	169.85	10.04	-42.6	-48.1	8.9	2.64e-02	0	60	0	1206910976	56	6956
2026-01-12 23:04:35.66	170.11	9.71	-42.4	-47.9	9.1	2.30e-02	0	60	0	1214251008	56	6730
2026-01-12 23:04:39.70	170.36	9.39	-42.4	-48.0	8.9	2.71e-02	0	60	0	1221591040	56	6847
2026-01-12 23:04:43.74	170.61	9.07	-42.5	-48.3	8.5	3.83e-02	0	60	0	1229979648	56	7052
2026-01-12 23:04:47.78	170.86	8.75	-42.4	-48.3	8.4	4.70e-02	0	60	0	1237319680	56	7085
2026-01-12 23:04:51.82	171.10	8.44	-42.5	-48.8	7.7	7.81e-02	0	60	0	1244659712	56	7496
2026-01-12 23:04:55.85	171.33	8.13	-42.4	-48.9	7.5	1.05e-01	0	60	0	1251999744	56	7594
2026-01-12 23:04:59.89	171.56	7.82	-44.7	-59.1	3.8	1.49e+00	0	60	104	1256194048	60	19524
2026-01-12 23:05:03.93	171.79	7.52	-45.0	-59.5	3.8	1.49e+00	0	60	104	1256194048	60	20349
2026-01-12 23:05:07.96	172.01	7.22	-45.1	-59.6	3.8	1.49e+00	0	60	104	1256194048	60	20563
2026-01-12 23:05:12.00	172.23	6.92	-45.1	-59.5	3.8	1.49e+00	0	60	104	1256194048	60	20336
2026-01-12 23:05:16.04	172.44	6.63	-45.0	-59.5	3.8	1.49e+00	0	60	104	1256194048	60	20385
2026-01-12 23:05:20.08	172.65	6.34	-45.0	-59.5	3.8	1.49e+00	0	60	104	1256194048	60	20317
2026-01-12 23:05:24.12	172.85	6.05	-45.0	-59.5	3.8	1.49e+00	0	60	104	1256194048	60	20328
2026-01-12 23:05:28.16	173.05	5.77	-45.0	-59.5	3.8	1.49e+00	0	60	104	1256194048	60	20324
2026-01-12 23:05:32.20	173.25	5.48	-45.0	-59.5	3.8	1.49e+00	0	60	104	1256194048	60	20332
2026-01-12 23:05:36.24	173.45	5.20	-45.0	-59.5	3.8	1.49e+00	0	60	104	1256194048	60	20316
2026-01-12 23:05:40.28	173.64	4.93	-45.0	-59.4	3.8	1.49e+00	0	60	104	1256194048	60	20289
2026-01-12 23:05:44.32	173.82	4.65	-45.0	-59.4	3.8	1.49e+00	0	60	104	1256194048	60	20272
2026-01-12 23:05:48.37	174.01	4.38	-44.9	-59.4	3.8	1.49e+00	0	60	104	1256194048	60	20251
2026-01-12 23:05:52.40	174.19	4.11	-44.9	-59.4	3.8	1.49e+00	0	60	104	1256194048	60	20253
2026-01-12 23:05:56.44	174.37	3.85	-44.8	-59.4	3.8	1.49e+00	0	60	104	1256194048	60	20282
2026-01-12 23:06:00.48	174.54	3.58	-45.0	-59.4	3.8	1.49e+00	0	60	104	1256194048	60	20235
2026-01-12 23:06:04.52	174.71	3.32	-44.8	-59.4	3.8	1.49e+00	0	60	104	1256194048	60	20213
2026-01-12 23:06:08.56	174.88	3.06	-44.9	-59.4	3.8	1.49e+00	0	60	104	1256194048	60	20244
2026-01-12 23:06:12.61	175.05	2.80	-45.0	-59.4	3.8	1.49e+00	0	60	104	1256194048	60	20234
2026-01-12 23:06:16.64	175.21	2.55	-44.9	-59.4	3.8	1.49e+00	0	60	104	1256194048	60	20264
2026-01-12 23:06:20.68	175.37	2.30	-44.9	-59.4	3.8	1.49e+00	0	60	104	1256194048	60	20277
2026-01-12 23:06:24.72	175.53	2.05	-44.8	-59.4	3.8	1.49e+00	0	61	104	1256194048	60	20230

#Closed at: 2026-01-12 23:06:27
#Recorded file [1256 MB]: D:/lorett/data/31039_260113_015220.dat