passes_logs/2026/01/12/R2.0S_Moscow/R2.0S_Moscow__20260112_234217_NOAA_21_JPSS-2_rec.log

#Pass ID: 20260112_234217_NOAA 21 (JPSS-2)
#Satellite: NOAA 21 (JPSS-2)
#Configuration: NOAA-21
#almurnet v.1.7.20251203
#Start time: 2026-01-12 23:42:16

#Version: 2.2.20231116
#Station: R2.0S_Moscow
#Location: 37.707566 lon 55.798166 lat
#TLE: 1 54234U 22150A   26012.26378519  .00000063  00000+0  50547-4 0  9993
#TLE: 2 54234  98.7495 313.1967 0000726 309.1075  51.0036 14.19534275164425

#Time	Az	El	Level	Level2	SNR	BER	BlckErr	Temp	State	Recorded	gain1	gain2
2026-01-12 23:42:16.51	15.97	1.97	-42.5	-55.0	3.8	1.49e+00	0	50	0	0	56	15270
2026-01-12 23:42:20.55	15.98	2.23	-42.5	-55.0	3.8	1.49e+00	0	51	104	0	56	15245
2026-01-12 23:42:24.59	15.99	2.49	-42.5	-55.0	3.8	1.49e+00	0	51	104	0	56	15232
2026-01-12 23:42:28.63	16.00	2.75	-42.5	-54.9	3.8	1.49e+00	0	51	104	0	56	15176
2026-01-12 23:42:32.67	16.01	3.02	-42.5	-54.9	3.8	1.49e+00	0	52	104	0	56	15187
2026-01-12 23:42:36.71	16.02	3.29	-42.5	-54.9	3.8	1.49e+00	0	52	104	0	56	15201
2026-01-12 23:42:40.75	16.03	3.56	-42.5	-55.0	3.8	1.49e+00	0	52	104	0	56	15230
2026-01-12 23:42:44.79	16.03	3.83	-42.5	-54.9	3.8	1.49e+00	0	53	104	0	56	15212
2026-01-12 23:42:48.83	16.04	4.11	-42.5	-55.0	3.8	1.49e+00	0	53	104	0	56	15265
2026-01-12 23:42:52.88	16.05	4.39	-42.5	-54.9	3.8	1.49e+00	0	53	104	0	56	15157
2026-01-12 23:42:56.92	16.06	4.67	-42.4	-54.9	3.8	1.49e+00	0	53	104	0	56	15147
2026-01-12 23:43:00.96	16.06	4.95	-42.5	-54.9	3.8	1.49e+00	0	53	104	0	56	15174
2026-01-12 23:43:05.00	16.07	5.24	-42.5	-54.9	3.8	1.49e+00	0	54	104	0	56	15191
2026-01-12 23:43:09.04	16.08	5.53	-42.4	-54.9	3.8	1.49e+00	0	54	104	0	56	15167
2026-01-12 23:43:13.08	16.08	5.83	-42.5	-54.9	3.8	1.49e+00	0	54	104	0	56	15190
2026-01-12 23:43:17.12	16.09	6.13	-42.5	-54.9	3.8	1.49e+00	0	54	104	0	56	15199
2026-01-12 23:43:21.16	16.10	6.43	-42.4	-54.8	3.8	1.49e+00	0	55	104	0	56	15006
2026-01-12 23:43:25.20	16.10	6.73	-42.4	-54.6	3.8	1.49e+00	0	55	104	0	56	14576
2026-01-12 23:43:29.25	16.11	7.04	-42.3	-53.4	3.8	1.49e+00	0	55	104	0	56	12756
2026-01-12 23:43:33.29	16.11	7.35	-41.6	-49.0	5.1	7.25e-01	0	55	0	1048576	55	8105
2026-01-12 23:43:37.33	16.12	7.67	-40.2	-44.7	8.8	3.07e-02	0	55	0	13631488	52	5861
2026-01-12 23:43:41.37	16.12	7.99	-40.7	-45.8	7.6	7.73e-02	0	55	0	26214400	52	6690
2026-01-12 23:43:45.41	16.13	8.32	-41.5	-52.5	3.8	1.49e+00	0	56	104	36700160	53	13578
2026-01-12 23:43:49.44	16.13	8.64	-40.6	-44.8	9.0	2.65e-02	0	56	0	45088768	53	5620
2026-01-12 23:43:53.48	16.14	8.98	-40.6	-44.5	9.6	1.39e-02	0	56	0	57671680	52	5735
2026-01-12 23:43:57.52	16.14	9.31	-40.5	-44.2	10.1	6.77e-03	0	56	0	70254592	52	5532
2026-01-12 23:44:01.56	16.14	9.66	-40.4	-43.9	10.5	4.44e-03	0	56	0	82837504	52	5349
2026-01-12 23:44:05.60	16.15	10.00	-40.5	-44.1	10.3	5.35e-03	0	56	0	95420416	52	5470
2026-01-12 23:44:09.63	16.15	10.35	-40.6	-44.2	10.2	5.93e-03	0	56	0	108003328	52	5556
2026-01-12 23:44:13.67	16.15	10.71	-40.5	-43.9	10.6	3.80e-03	0	56	0	120586240	52	5381
2026-01-12 23:44:17.71	16.16	11.07	-40.6	-44.0	10.6	3.18e-03	0	56	0	133169152	52	5419
2026-01-12 23:44:21.76	16.16	11.44	-40.5	-43.7	10.9	1.94e-03	0	56	0	145752064	52	5265
2026-01-12 23:44:25.79	16.16	11.81	-40.5	-43.6	11.1	1.77e-03	0	57	0	158334976	52	5202
2026-01-12 23:44:29.83	16.16	12.19	-40.4	-43.6	11.2	1.35e-03	0	57	0	171966464	52	5180
2026-01-12 23:44:33.87	16.16	12.58	-40.4	-43.5	11.2	1.36e-03	0	57	0	184549376	52	5156
2026-01-12 23:44:37.91	16.16	12.97	-40.3	-43.4	11.4	1.05e-03	0	57	0	197132288	52	5081
2026-01-12 23:44:41.95	16.16	13.37	-40.5	-43.6	11.3	1.15e-03	0	57	0	209715200	52	5185
2026-01-12 23:44:45.98	16.16	13.77	-40.4	-43.5	11.5	7.67e-04	0	57	0	222298112	52	5104
2026-01-12 23:44:50.02	16.16	14.18	-40.5	-43.5	11.5	7.33e-04	0	57	0	234881024	52	5123
2026-01-12 23:44:54.06	16.16	14.60	-40.4	-43.4	11.7	5.39e-04	0	57	0	247463936	52	5049
2026-01-12 23:44:58.09	16.15	15.02	-40.4	-43.4	11.7	5.68e-04	0	58	0	260046848	52	5060
2026-01-12 23:45:02.14	16.15	15.46	-40.4	-43.2	11.9	4.22e-04	0	58	0	272629760	52	4969
2026-01-12 23:45:06.18	16.15	15.90	-40.4	-43.3	11.8	4.52e-04	0	58	0	285212672	52	5020
2026-01-12 23:45:10.22	16.14	16.35	-40.5	-43.4	11.8	4.53e-04	0	58	0	297795584	52	5083
2026-01-12 23:45:14.26	16.14	16.81	-40.6	-43.5	11.8	5.19e-04	0	58	0	310378496	52	5127
2026-01-12 23:45:18.30	16.13	17.27	-40.6	-43.4	11.9	3.91e-04	0	58	0	322961408	52	5056
2026-01-12 23:45:22.34	16.13	17.75	-40.5	-43.4	12.0	3.48e-04	0	58	0	335544320	52	5051
2026-01-12 23:45:26.39	16.12	18.23	-40.5	-43.3	12.2	2.51e-04	0	58	0	348127232	52	4987
2026-01-12 23:45:30.43	16.11	18.73	-40.5	-43.3	12.2	2.51e-04	0	58	0	360710144	52	4997
2026-01-12 23:45:34.47	16.10	19.23	-40.5	-43.2	12.3	2.00e-04	0	58	0	373293056	52	4934
2026-01-12 23:45:38.51	16.09	19.75	-40.4	-43.1	12.4	1.51e-04	0	58	0	385875968	52	4873
2026-01-12 23:45:42.55	16.08	20.28	-40.3	-42.8	12.7	9.99e-05	0	58	0	398458880	52	4754
2026-01-12 23:45:46.59	16.07	20.81	-40.1	-42.6	13.0	5.03e-05	0	58	0	411041792	52	4624
2026-01-12 23:45:50.62	16.06	21.36	-40.0	-42.4	13.3	1.52e-05	0	58	0	423624704	51	4772
2026-01-12 23:45:54.66	16.05	21.92	-39.8	-42.1	13.6	1.14e-05	0	58	0	436207616	51	4620
2026-01-12 23:45:58.70	16.03	22.50	-39.6	-41.8	14.0	1.50e-06	0	58	0	448790528	51	4457
2026-01-12 23:46:02.74	16.02	23.08	-39.5	-41.7	14.1	3.00e-06	0	58	0	461373440	51	4403
2026-01-12 23:46:06.78	16.00	23.69	-39.5	-41.6	14.2	3.00e-06	0	58	0	473956352	50	4642
2026-01-12 23:46:10.82	15.98	24.30	-39.6	-41.8	14.0	2.20e-06	0	58	0	487587840	50	4729
2026-01-12 23:46:14.86	15.97	24.93	-39.7	-41.9	13.9	2.20e-06	0	59	0	499122176	50	4765
2026-01-12 23:46:18.90	15.95	25.58	-39.8	-42.0	13.8	6.10e-06	0	59	0	512753664	50	4839
2026-01-12 23:46:22.93	15.92	26.24	-40.0	-42.4	13.5	1.06e-05	0	59	0	525336576	50	5045
2026-01-12 23:46:26.97	15.90	26.92	-40.4	-42.8	13.0	3.28e-05	0	59	0	537919488	51	5031
2026-01-12 23:46:31.01	15.87	27.61	-40.6	-43.1	12.7	8.01e-05	0	59	0	550502400	51	5205
2026-01-12 23:46:35.05	15.85	28.33	-40.7	-43.4	12.3	1.36e-04	0	59	0	563085312	52	5097
2026-01-12 23:46:39.09	15.82	29.06	-40.7	-43.4	12.4	1.46e-04	0	59	0	575668224	52	5051
2026-01-12 23:46:43.13	15.79	29.81	-40.6	-43.3	12.5	1.25e-04	0	59	0	588251136	52	5007
2026-01-12 23:46:47.17	15.75	30.59	-40.2	-42.6	13.2	2.44e-05	0	59	0	600834048	52	4615
2026-01-12 23:46:51.21	15.72	31.38	-40.0	-42.4	13.4	1.06e-05	0	59	0	613416960	52	4508
2026-01-12 23:46:55.25	15.68	32.20	-40.0	-42.2	13.7	7.60e-06	0	59	0	625999872	51	4705
2026-01-12 23:46:59.29	15.64	33.04	-40.6	-43.2	12.7	5.34e-05	0	59	0	638582784	51	5263
2026-01-12 23:47:03.33	15.59	33.90	-40.8	-43.5	12.4	1.38e-04	0	59	0	651165696	52	5121
2026-01-12 23:47:07.37	15.55	34.79	-41.3	-44.4	11.5	8.67e-04	0	59	0	663748608	53	5369
2026-01-12 23:47:11.41	15.49	35.71	-41.7	-45.0	10.9	2.27e-03	0	59	0	676331520	53	5724
2026-01-12 23:47:15.45	15.44	36.65	-41.9	-45.4	10.4	3.78e-03	0	59	0	688914432	54	5687
2026-01-12 23:47:19.49	15.38	37.62	-41.5	-44.6	11.3	1.33e-03	0	59	0	701497344	54	5201
2026-01-12 23:47:23.53	15.32	38.62	-41.5	-44.5	11.3	9.93e-04	0	59	0	714080256	54	5152
2026-01-12 23:47:27.57	15.25	39.65	-41.4	-44.3	11.6	7.51e-04	0	59	0	726663168	54	5026
2026-01-12 23:47:31.61	15.17	40.71	-41.4	-44.4	11.6	6.84e-04	0	59	0	739246080	54	5046
2026-01-12 23:47:35.64	15.09	41.80	-41.6	-44.8	11.1	1.85e-03	0	59	0	751828992	54	5293
2026-01-12 23:47:39.68	15.00	42.93	-42.0	-45.5	10.4	4.58e-03	0	59	0	764411904	54	5729
2026-01-12 23:47:43.72	14.91	44.09	-42.1	-45.6	10.3	5.17e-03	0	59	0	776994816	54	5812
2026-01-12 23:47:47.77	14.81	45.29	-42.4	-46.2	9.7	1.16e-02	0	59	0	789577728	55	5915
2026-01-12 23:47:51.81	14.69	46.53	-42.1	-45.6	10.3	6.03e-03	0	59	0	802160640	55	5483
2026-01-12 23:47:55.85	14.57	47.80	-41.7	-44.9	11.0	1.85e-03	0	59	0	814743552	55	5059
2026-01-12 23:47:59.89	14.43	49.11	-41.4	-44.3	11.6	7.67e-04	0	59	0	828375040	54	5028
2026-01-12 23:48:03.93	14.28	50.47	-41.2	-44.1	11.9	4.25e-04	0	59	0	840957952	54	4891
2026-01-12 23:48:07.97	14.12	51.86	-41.6	-44.7	11.2	1.38e-03	0	59	0	853540864	54	5256
2026-01-12 23:48:12.01	13.93	53.29	-40.6	-43.1	12.8	6.63e-05	0	59	0	866123776	53	4650
2026-01-12 23:48:16.04	13.73	54.76	-40.9	-43.6	12.4	1.47e-04	0	59	0	878706688	53	4916
2026-01-12 23:48:20.08	13.50	56.28	-40.2	-42.6	13.3	1.52e-05	0	59	0	891289600	52	4620
2026-01-12 23:48:24.13	13.25	57.85	-40.3	-42.7	13.3	2.36e-05	0	59	0	903872512	52	4685
2026-01-12 23:48:28.16	12.96	59.45	-40.0	-42.2	13.9	6.10e-06	0	59	0	916455424	51	4669
2026-01-12 23:48:32.20	12.63	61.09	-40.0	-42.2	13.9	4.50e-06	0	60	0	929038336	51	4677
2026-01-12 23:48:36.24	12.25	62.78	-39.5	-41.5	14.6	0.00e+00	0	59	0	941621248	50	4595
2026-01-12 23:48:40.29	11.81	64.51	-39.4	-41.4	14.7	0.00e+00	0	59	0	954204160	50	4527
2026-01-12 23:48:44.32	11.29	66.27	-38.9	-40.8	15.3	0.00e+00	0	59	0	966787072	49	4477
2026-01-12 23:48:48.37	10.68	68.08	-39.1	-41.1	15.0	0.00e+00	0	60	0	979369984	49	4603
2026-01-12 23:48:52.41	9.94	69.92	-39.3	-41.3	14.8	0.00e+00	0	59	0	991952896	49	4716
2026-01-12 23:48:56.44	9.04	71.79	-39.1	-41.1	15.0	0.00e+00	0	59	0	1004535808	49	4617
2026-01-12 23:49:00.48	7.92	73.69	-39.1	-41.0	15.0	0.00e+00	0	60	0	1017118720	49	4587
2026-01-12 23:49:04.52	6.47	75.61	-39.1	-41.0	15.0	0.00e+00	0	60	0	1029701632	49	4574
2026-01-12 23:49:08.56	4.56	77.55	-39.2	-41.2	14.8	0.00e+00	0	60	0	1042284544	49	4689
2026-01-12 23:49:12.60	1.91	79.49	-39.4	-41.4	14.6	7.00e-07	0	60	0	1054867456	49	4781
2026-01-12 23:49:16.64	358.03	81.42	-39.4	-41.5	14.5	7.00e-07	0	60	0	1067450368	49	4824
2026-01-12 23:49:20.67	351.90	83.30	-39.3	-41.4	14.6	0.00e+00	0	60	0	1080033280	49	4763
2026-01-12 23:49:24.72	341.09	85.07	-40.3	-42.8	13.1	3.05e-05	0	60	0	1092616192	51	5005
2026-01-12 23:49:28.76	320.11	86.49	-39.7	-41.9	13.9	4.50e-06	0	60	0	1105199104	51	4542
2026-01-12 23:49:32.80	283.92	87.00	-39.5	-41.5	14.4	0.00e+00	0	59	0	1117782016	50	4579
2026-01-12 23:49:36.83	250.67	86.23	-39.7	-41.8	14.1	1.50e-06	0	60	0	1130364928	50	4740
2026-01-12 23:49:40.87	232.61	84.70	-39.5	-41.5	14.3	7.00e-07	0	60	0	1143996416	50	4589
2026-01-12 23:49:44.91	223.16	82.90	-39.6	-41.8	14.1	1.50e-06	0	60	0	1155530752	50	4725
2026-01-12 23:49:48.95	217.64	81.00	-39.7	-41.9	14.0	3.00e-06	0	60	0	1169162240	50	4762
2026-01-12 23:49:52.99	214.10	79.06	-39.3	-41.3	14.5	7.00e-07	0	60	0	1181745152	50	4487
2026-01-12 23:49:57.03	211.64	77.11	-39.4	-41.4	14.4	0.00e+00	0	60	0	1194328064	50	4539
2026-01-12 23:50:01.07	209.84	75.17	-39.9	-42.3	13.6	9.10e-06	0	60	0	1206910976	50	4990
2026-01-12 23:50:05.11	208.48	73.25	-40.2	-42.6	13.2	1.44e-05	0	60	0	1219493888	50	5190
2026-01-12 23:50:09.15	207.41	71.35	-39.4	-41.4	14.5	1.50e-06	0	60	0	1232076800	50	4510
2026-01-12 23:50:13.19	206.55	69.49	-39.5	-41.6	14.2	7.00e-07	0	60	0	1244659712	49	4871
2026-01-12 23:50:17.23	205.84	67.65	-38.6	-40.4	15.5	0.00e+00	0	60	0	1257242624	49	4244
2026-01-12 23:50:21.27	205.26	65.85	-40.1	-42.5	13.3	1.83e-05	0	60	0	1269825536	51	4831
2026-01-12 23:50:25.31	204.76	64.09	-38.7	-40.5	15.4	0.00e+00	0	60	0	1282408448	48	4561
2026-01-12 23:50:29.35	204.33	62.36	-40.5	-43.1	12.7	8.31e-05	0	60	0	1294991360	51	5181
2026-01-12 23:50:33.39	203.96	60.68	-39.3	-41.3	14.5	7.00e-07	0	60	0	1307574272	50	4480
2026-01-12 23:50:37.43	203.64	59.04	-40.3	-42.6	13.1	1.14e-05	0	60	0	1320157184	51	4923
2026-01-12 23:50:41.46	203.36	57.44	-40.0	-42.2	13.7	5.30e-06	0	60	0	1332740096	51	4665
2026-01-12 23:50:45.50	203.11	55.89	-40.8	-43.5	12.3	1.46e-04	0	60	0	1345323008	52	5108
2026-01-12 23:50:49.55	202.88	54.37	-42.0	-45.6	10.1	8.09e-03	0	60	0	1357905920	54	5852
2026-01-12 23:50:53.59	202.68	52.90	-40.1	-42.5	13.3	2.28e-05	0	60	0	1370488832	52	4546
2026-01-12 23:50:57.62	202.50	51.47	-41.7	-44.9	10.8	2.08e-03	0	60	0	1383071744	53	5700
2026-01-12 23:51:01.66	202.34	50.09	-42.1	-45.8	9.9	7.79e-03	0	60	0	1395654656	55	5599
2026-01-12 23:51:05.70	202.19	48.74	-41.7	-45.1	10.6	3.41e-03	0	60	0	1408237568	55	5165
2026-01-12 23:51:09.74	202.06	47.43	-41.9	-45.3	10.3	4.35e-03	0	60	0	1420820480	54	5631
2026-01-12 23:51:13.78	201.94	46.16	-42.3	-46.0	9.5	1.52e-02	0	60	0	1433403392	55	5784
2026-01-12 23:51:17.82	201.82	44.93	-42.4	-46.4	9.2	1.63e-02	0	60	0	1445986304	55	6018
2026-01-12 23:51:21.86	201.72	43.74	-42.1	-45.7	9.9	1.11e-02	0	60	0	1458569216	55	5554
2026-01-12 23:51:25.91	201.63	42.57	-40.9	-43.6	12.1	3.73e-04	0	60	0	1471152128	53	4892
2026-01-12 23:51:29.95	201.54	41.45	-41.9	-45.4	10.3	3.97e-03	0	60	0	1484783616	54	5686
2026-01-12 23:51:33.99	201.46	40.36	-42.4	-46.4	9.1	2.29e-02	0	60	0	1497366528	55	6019
2026-01-12 23:51:38.03	201.38	39.30	-41.8	-45.1	10.4	5.44e-03	0	60	0	1509949440	55	5198
2026-01-12 23:51:42.06	201.31	38.28	-41.7	-45.0	10.6	3.64e-03	0	60	0	1522532352	55	5129
2026-01-12 23:51:46.10	201.25	37.28	-41.3	-44.3	11.4	1.15e-03	0	60	0	1535115264	54	5013
2026-01-12 23:51:50.14	201.19	36.31	-40.9	-43.8	11.9	4.45e-04	0	60	0	1547698176	53	4988
2026-01-12 23:51:54.18	201.13	35.37	-40.9	-43.6	12.1	2.61e-04	0	60	0	1560281088	53	4899
2026-01-12 23:51:58.21	201.08	34.46	-40.7	-43.3	12.4	2.09e-04	0	60	0	1572864000	53	4727
2026-01-12 23:52:02.25	201.03	33.58	-40.4	-42.8	12.8	7.09e-05	0	60	0	1585446912	52	4755
2026-01-12 23:52:06.29	200.99	32.72	-40.3	-42.8	12.8	5.87e-05	0	60	0	1598029824	52	4729
2026-01-12 23:52:10.34	200.94	31.88	-40.2	-42.7	13.0	3.50e-05	0	60	0	1610612736	52	4668
2026-01-12 23:52:14.38	200.90	31.06	-40.6	-43.3	12.3	1.64e-04	0	60	0	1623195648	52	4990
2026-01-12 23:52:18.41	200.87	30.27	-40.8	-43.6	12.0	3.06e-04	0	60	0	1635778560	52	5181
2026-01-12 23:52:22.45	200.83	29.50	-40.7	-43.4	12.2	2.08e-04	0	60	0	1648361472	52	5053
2026-01-12 23:52:26.49	200.80	28.75	-40.4	-43.0	12.6	9.15e-05	0	60	0	1660944384	52	4864
2026-01-12 23:52:30.53	200.77	28.02	-40.4	-42.9	12.7	8.23e-05	0	60	0	1673527296	52	4810
2026-01-12 23:52:34.57	200.74	27.30	-40.2	-42.6	13.0	4.50e-05	0	60	0	1686110208	52	4637
2026-01-12 23:52:38.61	200.71	26.61	-40.1	-42.4	13.2	2.74e-05	0	60	0	1698693120	51	4803
2026-01-12 23:52:42.65	200.69	25.93	-39.9	-42.2	13.5	1.14e-05	0	60	0	1711276032	51	4689
2026-01-12 23:52:46.69	200.66	25.27	-39.9	-42.2	13.5	1.22e-05	0	60	0	1723858944	51	4665
2026-01-12 23:52:50.73	200.64	24.63	-39.8	-42.0	13.6	9.10e-06	0	60	0	1736441856	51	4596
2026-01-12 23:52:54.77	200.62	24.00	-39.7	-42.0	13.7	3.80e-06	0	60	0	1749024768	51	4550
2026-01-12 23:52:58.82	200.60	23.38	-39.8	-42.1	13.5	6.10e-06	0	60	0	1761607680	51	4601
2026-01-12 23:53:02.86	200.58	22.78	-39.8	-42.0	13.5	1.37e-05	0	60	0	1774190592	51	4590
2026-01-12 23:53:06.90	200.56	22.19	-39.7	-42.0	13.6	9.90e-06	0	60	0	1786773504	51	4549
2026-01-12 23:53:10.94	200.55	21.62	-39.8	-42.0	13.5	5.30e-06	0	60	0	1800404992	51	4581
2026-01-12 23:53:14.98	200.53	21.06	-39.7	-42.0	13.6	1.60e-05	0	60	0	1812987904	51	4552
2026-01-12 23:53:19.02	200.52	20.51	-39.8	-42.0	13.5	1.22e-05	0	60	0	1825570816	51	4593
2026-01-12 23:53:23.06	200.50	19.98	-39.9	-42.2	13.3	1.83e-05	0	60	0	1838153728	51	4683
2026-01-12 23:53:27.10	200.49	19.45	-40.2	-42.6	12.8	4.50e-05	0	60	0	1850736640	51	4920
2026-01-12 23:53:31.14	200.48	18.94	-40.2	-42.6	12.8	5.79e-05	0	60	0	1863319552	51	4921
2026-01-12 23:53:35.17	200.47	18.43	-40.3	-42.9	12.5	9.76e-05	0	60	0	1875902464	51	5079
2026-01-12 23:53:39.21	200.46	17.94	-40.5	-43.1	12.3	1.56e-04	0	60	0	1888485376	51	5214
2026-01-12 23:53:43.24	200.45	17.46	-40.6	-43.3	12.1	2.33e-04	0	60	0	1901068288	51	5324
2026-01-12 23:53:47.28	200.44	16.98	-40.6	-43.3	12.0	3.20e-04	0	60	0	1913651200	51	5338
2026-01-12 23:53:51.32	200.43	16.52	-40.6	-43.4	12.0	3.03e-04	0	60	0	1926234112	51	5362
2026-01-12 23:53:55.36	200.42	16.06	-40.6	-43.3	12.0	3.57e-04	0	60	0	1938817024	51	5330
2026-01-12 23:53:59.40	200.41	15.61	-40.6	-43.4	11.9	3.74e-04	0	60	0	1951399936	51	5396
2026-01-12 23:54:03.44	200.41	15.17	-40.7	-43.5	11.8	5.25e-04	0	60	0	1963982848	51	5450
2026-01-12 23:54:07.48	200.40	14.74	-40.6	-43.5	11.7	6.21e-04	0	60	0	1976565760	52	5112
2026-01-12 23:54:11.52	200.39	14.31	-40.7	-43.6	11.5	7.69e-04	0	60	0	1989148672	52	5206
2026-01-12 23:54:15.56	200.39	13.90	-40.8	-43.8	11.3	1.06e-03	0	60	0	2001731584	52	5338
2026-01-12 23:54:19.60	200.38	13.49	-40.7	-43.7	11.4	9.60e-04	0	60	0	2014314496	52	5269
2026-01-12 23:54:23.63	200.38	13.08	-40.7	-43.8	11.3	9.96e-04	0	60	0	2026897408	52	5282
2026-01-12 23:54:27.67	200.38	12.69	-40.7	-43.8	11.3	1.15e-03	0	60	0	2039480320	52	5298
2026-01-12 23:54:31.71	200.37	12.30	-40.8	-43.9	11.2	1.39e-03	0	60	0	2052063232	52	5366
2026-01-12 23:54:35.75	200.37	11.91	-40.8	-43.8	11.2	1.62e-03	0	60	0	2064646144	52	5334
2026-01-12 23:54:39.79	200.37	11.53	-40.8	-43.9	11.0	1.79e-03	0	60	0	2077229056	52	5401
2026-01-12 23:54:43.83	200.36	11.16	-40.9	-44.1	10.9	2.31e-03	0	60	0	2089811968	52	5469
2026-01-12 23:54:47.87	200.36	10.79	-40.9	-44.2	10.7	3.01e-03	0	60	0	2102394880	52	5557
2026-01-12 23:54:51.91	200.36	10.43	-40.9	-44.2	10.7	3.19e-03	0	60	0	2114977792	52	5551
2026-01-12 23:54:55.95	200.36	10.07	-41.0	-44.4	10.5	4.68e-03	0	60	0	2127560704	52	5672
2026-01-12 23:54:59.99	200.36	9.72	-41.0	-44.4	10.4	5.12e-03	0	60	0	2141192192	52	5703
2026-01-12 23:55:04.03	200.36	9.37	-41.1	-44.6	10.1	6.35e-03	0	60	0	2153775104	52	5830
2026-01-12 23:55:08.07	200.35	9.03	-41.1	-44.7	10.0	7.50e-03	0	60	0	2166358016	52	5905
2026-01-12 23:55:12.11	200.35	8.70	-41.1	-44.7	9.9	8.32e-03	0	60	0	2178940928	52	5880
2026-01-12 23:55:16.15	200.35	8.36	-41.1	-44.9	9.6	1.30e-02	0	60	0	2191523840	52	6022
2026-01-12 23:55:20.19	200.35	8.03	-41.2	-45.1	9.3	1.77e-02	0	60	0	2204106752	52	6149
2026-01-12 23:55:24.23	200.35	7.71	-45.0	-57.2	3.8	1.49e+00	0	60	104	2206203904	60	15649
2026-01-12 23:55:28.26	200.35	7.39	-45.2	-57.4	3.8	1.49e+00	0	60	104	2206203904	60	16001
2026-01-12 23:55:32.30	200.36	7.08	-45.1	-57.3	3.8	1.49e+00	0	60	104	2206203904	60	15921
2026-01-12 23:55:36.34	200.36	6.76	-45.1	-57.3	3.8	1.49e+00	0	60	104	2206203904	60	15897
2026-01-12 23:55:40.38	200.36	6.45	-45.1	-57.3	3.8	1.49e+00	0	60	104	2206203904	60	15843
2026-01-12 23:55:44.42	200.36	6.15	-45.1	-57.3	3.8	1.49e+00	0	60	104	2206203904	60	15846
2026-01-12 23:55:48.46	200.36	5.85	-45.1	-57.3	3.8	1.49e+00	0	60	104	2206203904	60	15809
2026-01-12 23:55:52.50	200.36	5.55	-45.1	-57.3	3.8	1.49e+00	0	60	104	2206203904	60	15802
2026-01-12 23:55:56.54	200.36	5.26	-45.0	-57.3	3.8	1.49e+00	0	60	104	2206203904	60	15793
2026-01-12 23:56:00.57	200.37	4.97	-45.0	-57.3	3.8	1.49e+00	0	60	104	2206203904	60	15780
2026-01-12 23:56:04.61	200.37	4.68	-45.0	-57.3	3.8	1.49e+00	0	61	104	2206203904	60	15798
2026-01-12 23:56:08.65	200.37	4.39	-45.0	-57.2	3.8	1.49e+00	0	60	104	2206203904	60	15750
2026-01-12 23:56:12.69	200.37	4.11	-45.0	-57.2	3.8	1.49e+00	0	60	104	2206203904	60	15760
2026-01-12 23:56:16.73	200.38	3.83	-45.0	-57.2	3.8	1.49e+00	0	61	104	2206203904	60	15734
2026-01-12 23:56:20.77	200.38	3.55	-45.0	-57.2	3.8	1.49e+00	0	60	104	2206203904	60	15734
2026-01-12 23:56:24.80	200.38	3.28	-45.0	-57.2	3.8	1.49e+00	0	61	104	2206203904	60	15716
2026-01-12 23:56:28.84	200.38	3.01	-45.0	-57.3	3.8	1.49e+00	0	61	104	2206203904	60	15761
2026-01-12 23:56:32.88	200.39	2.74	-45.0	-57.2	3.8	1.49e+00	0	61	104	2206203904	60	15731
2026-01-12 23:56:36.92	200.39	2.48	-45.0	-57.2	3.8	1.49e+00	0	60	104	2206203904	60	15745
2026-01-12 23:56:40.96	200.39	2.21	-45.0	-57.2	3.8	1.49e+00	0	61	104	2206203904	60	15728
2026-01-12 23:56:45.00	200.40	1.95	-45.0	-57.2	3.8	1.49e+00	0	60	104	2206203904	60	15730

#Closed at: 2026-01-12 23:56:46
#Recorded file [2206 MB]: D:/lorett/data/31039_260113_024216.dat