passes_logs/2026/01/12/R2.0S_Moscow/R2.0S_Moscow__20260112_104216_NOAA_20_JPSS-1_rec.log

#Pass ID: 20260112_104216_NOAA 20 (JPSS-1)
#Satellite: NOAA 20 (JPSS-1)
#Configuration: NOAA 20
#almurnet v.1.7.20251203
#Start time: 2026-01-12 10:42:17

#Version: 2.2.20231116
#Station: R2.0S_Moscow
#Location: 37.707566 lon 55.798166 lat
#TLE: 1 43013U 17073A   26011.31235446  .00000090  00000+0  63634-4 0  9991
#TLE: 2 43013  98.7632 312.2907 0001646  44.6084 315.5224 14.19535308422217

#Time	Az	El	Level	Level2	SNR	BER	BlckErr	Temp	State	Recorded	gain1	gain2
2026-01-12 10:42:17.66	183.78	2.05	-43.9	-58.1	3.8	1.49e+00	0	51	0	0	58	19522
2026-01-12 10:42:21.70	183.93	2.30	-43.8	-58.1	3.8	1.49e+00	0	51	104	0	59	18415
2026-01-12 10:42:25.74	184.09	2.56	-43.8	-58.1	3.8	1.49e+00	0	52	104	0	59	18417
2026-01-12 10:42:29.79	184.25	2.81	-43.8	-58.1	3.8	1.49e+00	0	52	104	0	59	18428
2026-01-12 10:42:33.83	184.41	3.07	-43.8	-58.1	3.8	1.49e+00	0	52	104	0	59	18406
2026-01-12 10:42:37.87	184.58	3.33	-43.8	-58.1	3.8	1.49e+00	0	52	104	0	59	18445
2026-01-12 10:42:41.91	184.75	3.60	-43.8	-58.1	3.8	1.49e+00	0	53	104	0	59	18409
2026-01-12 10:42:45.95	184.92	3.86	-43.8	-58.1	3.8	1.49e+00	0	53	104	0	59	18439
2026-01-12 10:42:49.99	185.09	4.13	-43.8	-58.0	3.8	1.49e+00	0	53	104	0	59	18289
2026-01-12 10:42:54.04	185.27	4.40	-43.8	-57.8	3.8	1.49e+00	0	53	104	0	59	17844
2026-01-12 10:42:58.08	185.45	4.67	-43.8	-57.4	3.8	1.49e+00	0	53	104	0	59	16910
2026-01-12 10:43:02.13	185.63	4.95	-43.8	-57.4	3.8	1.49e+00	0	54	104	0	59	17003
2026-01-12 10:43:06.17	185.82	5.22	-43.8	-57.1	3.8	1.49e+00	0	54	104	0	59	16336
2026-01-12 10:43:10.21	186.01	5.50	-43.8	-56.9	3.8	1.49e+00	0	54	104	0	59	16006
2026-01-12 10:43:14.26	186.20	5.79	-43.7	-56.2	3.8	1.49e+00	0	54	104	0	59	14752
2026-01-12 10:43:18.30	186.40	6.07	-43.7	-55.5	3.8	1.48e+00	0	54	104	0	59	13659
2026-01-12 10:43:22.35	186.60	6.36	-43.6	-54.4	4.2	1.41e+00	0	54	0	0	59	11963
2026-01-12 10:43:26.39	186.80	6.66	-43.5	-53.3	4.6	9.66e-01	0	55	0	3145728	58	11231
2026-01-12 10:43:30.43	187.01	6.95	-43.1	-50.6	6.3	3.12e-01	0	55	0	11534336	58	8247
2026-01-12 10:43:34.48	187.22	7.25	-42.5	-48.5	8.2	7.26e-02	0	55	0	18874368	57	6857
2026-01-12 10:43:38.52	187.44	7.55	-42.2	-47.7	9.2	1.81e-02	0	55	0	26214400	56	6576
2026-01-12 10:43:42.56	187.66	7.86	-42.4	-48.0	8.8	2.65e-02	0	55	0	33554432	56	6848
2026-01-12 10:43:46.61	187.88	8.17	-43.3	-52.1	5.6	6.50e-02	0	56	0	41943040	57	10310
2026-01-12 10:43:50.65	188.11	8.48	-43.0	-50.2	6.4	1.49e+00	0	55	104	45088768	58	7812
2026-01-12 10:43:54.68	188.34	8.79	-42.2	-47.3	9.7	1.09e-02	0	56	0	51380224	56	6291
2026-01-12 10:43:58.72	188.58	9.11	-42.1	-47.1	10.0	6.66e-03	0	56	0	59768832	56	6154
2026-01-12 10:44:02.76	188.83	9.43	-42.1	-46.9	10.2	6.46e-03	0	56	0	67108864	56	6022
2026-01-12 10:44:06.80	189.08	9.76	-42.1	-46.9	10.2	5.85e-03	0	56	0	74448896	56	6030
2026-01-12 10:44:10.83	189.33	10.09	-42.1	-46.9	10.3	5.38e-03	0	56	0	81788928	56	6020
2026-01-12 10:44:14.87	189.59	10.42	-41.8	-46.5	10.4	3.84e-03	0	56	0	90177536	55	6112
2026-01-12 10:44:18.91	189.86	10.76	-41.7	-46.2	10.7	3.84e-03	0	56	0	97517568	55	5921
2026-01-12 10:44:22.95	190.13	11.10	-41.6	-45.8	11.1	2.11e-03	0	56	0	104857600	55	5653
2026-01-12 10:44:26.98	190.40	11.45	-41.5	-45.6	11.4	9.37e-04	0	56	0	112197632	55	5513
2026-01-12 10:44:31.02	190.69	11.80	-41.4	-45.3	11.9	5.16e-04	0	56	0	119537664	54	5602
2026-01-12 10:44:35.06	190.98	12.16	-41.3	-45.0	12.2	2.52e-04	0	57	0	127926272	54	5452
2026-01-12 10:44:39.10	191.28	12.52	-41.3	-45.1	12.1	2.95e-04	0	57	0	135266304	54	5502
2026-01-12 10:44:43.14	191.58	12.88	-41.4	-45.2	12.1	2.54e-04	0	57	0	142606336	54	5534
2026-01-12 10:44:47.17	191.89	13.25	-41.4	-45.1	12.2	2.49e-04	0	57	0	149946368	54	5496
2026-01-12 10:44:51.21	192.21	13.62	-41.4	-45.1	12.2	2.27e-04	0	57	0	157286400	54	5510
2026-01-12 10:44:55.25	192.54	14.00	-41.3	-45.0	12.3	1.85e-04	0	57	0	165675008	54	5444
2026-01-12 10:44:59.28	192.88	14.39	-41.3	-44.9	12.4	1.30e-04	0	57	0	173015040	54	5398
2026-01-12 10:45:03.32	193.22	14.78	-41.2	-44.8	12.6	9.23e-05	0	57	0	180355072	54	5304
2026-01-12 10:45:07.36	193.57	15.17	-41.2	-44.6	12.9	6.63e-05	0	57	0	187695104	54	5182
2026-01-12 10:45:11.39	193.93	15.57	-41.1	-44.5	13.0	3.50e-05	0	57	0	196083712	54	5126
2026-01-12 10:45:15.43	194.31	15.98	-41.0	-44.3	13.2	2.59e-05	0	57	0	203423744	54	5005
2026-01-12 10:45:19.47	194.69	16.39	-41.0	-44.3	13.2	2.05e-05	0	57	0	210763776	53	5318
2026-01-12 10:45:23.51	195.08	16.81	-41.0	-44.3	13.2	1.29e-05	0	57	0	218103808	53	5322
2026-01-12 10:45:27.55	195.48	17.23	-41.1	-44.5	13.0	4.19e-05	0	57	0	225443840	53	5440
2026-01-12 10:45:31.59	195.90	17.67	-41.2	-44.7	12.9	3.89e-05	0	58	0	233832448	53	5547
2026-01-12 10:45:35.63	196.32	18.10	-41.3	-44.8	12.8	4.19e-05	0	58	0	241172480	53	5595
2026-01-12 10:45:39.67	196.76	18.55	-41.5	-45.1	12.5	9.23e-05	0	58	0	248512512	53	5814
2026-01-12 10:45:43.71	197.21	18.99	-41.5	-45.0	12.5	1.11e-04	0	58	0	255852544	53	5787
2026-01-12 10:45:47.74	197.67	19.45	-41.5	-45.1	12.5	9.53e-05	0	58	0	264241152	53	5819
2026-01-12 10:45:51.79	198.15	19.91	-41.5	-45.1	12.5	9.30e-05	0	58	0	271581184	53	5828
2026-01-12 10:45:55.82	198.64	20.38	-41.6	-45.2	12.5	1.38e-04	0	58	0	278921216	53	5894
2026-01-12 10:45:59.86	199.14	20.86	-41.6	-45.2	12.5	1.33e-04	0	58	0	286261248	53	5897
2026-01-12 10:46:03.90	199.66	21.34	-41.4	-44.9	12.8	6.33e-05	0	58	0	293601280	53	5682
2026-01-12 10:46:07.94	200.20	21.83	-41.4	-44.9	12.8	6.10e-05	0	58	0	301989888	53	5693
2026-01-12 10:46:11.98	200.76	22.33	-41.5	-44.9	12.8	4.80e-05	0	58	0	309329920	53	5715
2026-01-12 10:46:16.02	201.33	22.83	-41.4	-44.8	12.9	4.73e-05	0	58	0	316669952	53	5650
2026-01-12 10:46:20.06	201.92	23.34	-41.6	-45.2	12.6	8.16e-05	0	58	0	324009984	53	5875
2026-01-12 10:46:24.10	202.53	23.86	-41.5	-45.0	12.9	6.25e-05	0	58	0	332398592	53	5726
2026-01-12 10:46:28.14	203.16	24.39	-41.4	-44.7	13.1	3.58e-05	0	58	0	339738624	53	5551
2026-01-12 10:46:32.17	203.81	24.92	-41.5	-44.9	12.9	3.05e-05	0	58	0	347078656	53	5686
2026-01-12 10:46:36.22	204.48	25.46	-41.6	-45.2	12.7	6.48e-05	0	58	0	354418688	53	5861
2026-01-12 10:46:40.26	205.17	26.01	-41.5	-45.0	12.9	5.03e-05	0	58	0	361758720	53	5740
2026-01-12 10:46:44.30	205.89	26.56	-41.7	-45.3	12.6	8.85e-05	0	58	0	370147328	54	5626
2026-01-12 10:46:48.33	206.64	27.12	-42.0	-45.7	12.2	2.39e-04	0	58	0	377487360	54	5908
2026-01-12 10:46:52.38	207.41	27.69	-42.2	-46.2	11.7	6.06e-04	0	58	0	384827392	54	6214
2026-01-12 10:46:56.41	208.20	28.26	-42.2	-46.2	11.6	5.86e-04	0	58	0	392167424	55	5919
2026-01-12 10:47:00.45	209.03	28.84	-42.5	-46.7	11.2	1.26e-03	0	58	0	400556032	55	6257
2026-01-12 10:47:04.48	209.88	29.42	-42.9	-47.5	10.5	3.63e-03	0	58	0	407896064	56	6482
2026-01-12 10:47:08.52	210.77	30.01	-42.9	-47.6	10.4	4.59e-03	0	58	0	415236096	56	6528
2026-01-12 10:47:12.56	211.69	30.60	-42.7	-47.0	11.1	1.49e-03	0	58	0	422576128	56	6070
2026-01-12 10:47:16.60	212.64	31.20	-42.6	-46.9	11.1	1.70e-03	0	59	0	429916160	56	6055
2026-01-12 10:47:20.63	213.63	31.80	-42.4	-46.4	11.7	7.22e-04	0	58	0	438304768	56	5713
2026-01-12 10:47:24.67	214.65	32.40	-42.5	-46.6	11.5	7.85e-04	0	59	0	445644800	56	5808
2026-01-12 10:47:28.71	215.71	33.01	-42.4	-46.3	11.9	4.77e-04	0	59	0	452984832	56	5619
2026-01-12 10:47:32.75	216.82	33.62	-42.3	-46.1	12.1	3.35e-04	0	59	0	460324864	56	5487
2026-01-12 10:47:36.79	217.96	34.22	-42.4	-46.4	11.7	6.06e-04	0	59	0	468713472	56	5709
2026-01-12 10:47:40.83	219.15	34.83	-42.6	-46.7	11.5	1.13e-03	0	59	0	476053504	56	5887
2026-01-12 10:47:44.87	220.38	35.43	-42.0	-45.6	12.6	1.31e-04	0	59	0	483393536	56	5169
2026-01-12 10:47:48.91	221.65	36.03	-41.5	-44.8	13.2	1.44e-05	0	58	0	490733568	55	4992
2026-01-12 10:47:52.95	222.97	36.63	-41.9	-45.5	12.4	1.62e-04	0	58	0	498073600	54	5773
2026-01-12 10:47:56.99	224.34	37.21	-41.6	-44.9	13.2	3.05e-05	0	59	0	506462208	54	5355
2026-01-12 10:48:01.02	225.76	37.79	-42.1	-46.1	11.8	4.03e-03	0	59	0	513802240	54	6180
2026-01-12 10:48:05.06	227.23	38.36	-42.3	-46.5	11.4	1.37e-03	0	58	0	521142272	55	6099
2026-01-12 10:48:09.10	228.75	38.92	-42.6	-47.0	10.9	2.73e-03	0	59	0	528482304	55	6456
2026-01-12 10:48:13.14	230.32	39.46	-43.0	-47.6	10.5	4.21e-03	0	59	0	536870912	56	6532
2026-01-12 10:48:17.18	231.95	39.99	-42.4	-46.4	11.7	7.42e-04	0	58	0	544210944	56	5688
2026-01-12 10:48:21.22	233.62	40.50	-42.5	-46.6	11.5	1.36e-03	0	59	0	551550976	56	5800
2026-01-12 10:48:25.25	235.34	40.99	-42.4	-46.4	11.7	3.60e-03	0	59	0	558891008	56	5705
2026-01-12 10:48:29.29	237.12	41.45	-43.1	-47.9	10.2	7.38e-03	0	59	0	566231040	56	6750
2026-01-12 10:48:33.33	238.95	41.89	-43.0	-47.6	10.5	2.56e-03	0	59	0	574619648	56	6506
2026-01-12 10:48:37.37	240.82	42.30	-43.4	-48.7	9.3	2.75e-02	0	59	0	581959680	57	6989
2026-01-12 10:48:41.40	242.74	42.68	-43.0	-47.8	10.3	5.17e-03	0	59	0	589299712	57	6300
2026-01-12 10:48:45.44	244.71	43.03	-43.2	-48.1	10.0	9.89e-03	0	59	0	596639744	57	6498
2026-01-12 10:48:49.48	246.71	43.34	-43.3	-48.5	9.5	9.38e-03	0	59	0	605028352	57	6877
2026-01-12 10:48:53.52	248.75	43.62	-42.2	-45.9	12.3	2.43e-04	0	59	0	612368384	56	5348
2026-01-12 10:48:57.56	250.83	43.86	-42.7	-47.0	11.1	8.93e-04	0	59	0	619708416	56	6114
2026-01-12 10:49:01.60	252.93	44.05	-42.7	-47.0	11.3	1.03e-03	0	59	0	627048448	56	6069
2026-01-12 10:49:05.64	255.06	44.21	-43.1	-48.0	10.1	5.28e-03	0	59	0	634388480	56	6802
2026-01-12 10:49:09.68	257.20	44.32	-42.9	-47.4	10.7	2.71e-03	0	59	0	642777088	57	6050
2026-01-12 10:49:13.71	259.35	44.39	-42.6	-46.7	11.5	7.89e-04	0	59	0	650117120	57	5576
2026-01-12 10:49:17.75	261.51	44.42	-42.4	-46.3	11.8	6.34e-04	0	59	0	657457152	56	5633
2026-01-12 10:49:21.79	263.67	44.40	-42.5	-46.5	11.7	4.74e-04	0	59	0	664797184	56	5733
2026-01-12 10:49:25.83	265.83	44.34	-42.0	-45.7	12.4	1.17e-04	0	58	0	673185792	55	5536
2026-01-12 10:49:29.87	267.97	44.23	-41.5	-44.8	13.3	2.28e-05	0	59	0	680525824	55	5019
2026-01-12 10:49:33.91	270.10	44.08	-42.5	-46.7	11.3	1.30e-03	0	59	0	687865856	55	6274
2026-01-12 10:49:37.95	272.20	43.89	-42.0	-45.7	12.3	1.47e-04	0	59	0	695205888	55	5549
2026-01-12 10:49:41.99	274.28	43.66	-42.1	-45.9	12.2	2.04e-04	0	59	0	702545920	55	5664
2026-01-12 10:49:46.03	276.32	43.39	-42.8	-47.3	10.8	3.18e-03	0	59	0	710934528	56	6284
2026-01-12 10:49:50.06	278.33	43.08	-42.9	-47.4	10.7	2.35e-03	0	59	0	718274560	56	6358
2026-01-12 10:49:54.11	280.30	42.74	-42.5	-46.5	11.7	4.00e-04	0	59	0	725614592	56	5759
2026-01-12 10:49:58.15	282.22	42.37	-42.3	-46.1	12.0	3.68e-04	0	59	0	732954624	56	5511
2026-01-12 10:50:02.19	284.10	41.96	-42.8	-47.1	11.0	1.89e-03	0	59	0	741343232	56	6192
2026-01-12 10:50:06.22	285.93	41.53	-42.0	-45.7	12.3	1.10e-04	0	59	0	748683264	55	5563
2026-01-12 10:50:10.26	287.71	41.07	-40.8	-43.6	14.5	0.00e+00	0	59	0	756023296	53	4887
2026-01-12 10:50:14.30	289.44	40.59	-41.6	-44.9	13.1	7.62e-05	0	59	0	763363328	54	5390
2026-01-12 10:50:18.34	291.12	40.09	-41.6	-45.0	13.1	9.90e-06	0	59	0	770703360	54	5415
2026-01-12 10:50:22.38	292.75	39.57	-40.7	-43.5	14.5	7.00e-07	0	59	0	779091968	53	4843
2026-01-12 10:50:26.42	294.32	39.03	-41.5	-44.8	13.3	2.59e-05	0	59	0	786432000	53	5616
2026-01-12 10:50:30.46	295.85	38.48	-41.6	-45.0	13.1	2.82e-05	0	59	0	793772032	53	5753
2026-01-12 10:50:34.50	297.32	37.91	-41.2	-44.4	13.7	6.10e-06	0	59	0	801112064	53	5347
2026-01-12 10:50:38.54	298.74	37.34	-41.4	-44.6	13.4	1.14e-05	0	59	0	809500672	53	5478
2026-01-12 10:50:42.58	300.12	36.75	-42.0	-45.6	12.4	1.46e-04	0	59	0	816840704	54	5845
2026-01-12 10:50:46.62	301.44	36.16	-41.3	-44.5	13.6	1.29e-05	0	59	0	824180736	54	5119
2026-01-12 10:50:50.66	302.72	35.57	-40.9	-43.8	14.3	7.00e-07	0	59	0	831520768	53	5020
2026-01-12 10:50:54.70	303.96	34.97	-42.2	-46.1	11.9	3.28e-04	0	59	0	838860800	54	6147
2026-01-12 10:50:58.74	305.15	34.37	-41.7	-45.1	12.9	2.36e-05	0	59	0	847249408	54	5513
2026-01-12 10:51:02.78	306.29	33.76	-42.8	-47.4	10.6	5.87e-03	0	59	0	854589440	56	6414
2026-01-12 10:51:06.82	307.40	33.16	-42.4	-46.4	11.8	2.70e-04	0	59	0	861929472	56	5668
2026-01-12 10:51:10.85	308.46	32.56	-42.9	-47.7	10.4	6.11e-03	0	59	0	869269504	57	6221
2026-01-12 10:51:14.89	309.49	31.96	-42.8	-47.3	10.8	1.33e-03	0	59	0	877658112	56	6292
2026-01-12 10:51:18.93	310.48	31.36	-42.9	-47.7	10.4	1.58e-02	0	59	0	884998144	57	6211
2026-01-12 10:51:22.97	311.44	30.77	-41.4	-44.8	13.2	9.90e-06	0	59	0	892338176	54	5291
2026-01-12 10:51:27.00	312.36	30.18	-42.8	-47.5	10.6	5.45e-03	0	59	0	899678208	56	6426
2026-01-12 10:51:31.04	313.25	29.59	-41.3	-44.5	13.5	1.52e-05	0	59	0	907018240	54	5127
2026-01-12 10:51:35.08	314.11	29.01	-42.6	-47.3	10.5	2.55e-03	0	59	0	915406848	55	6660
2026-01-12 10:51:39.12	314.94	28.44	-40.7	-43.5	14.4	1.50e-06	0	59	0	922746880	53	4857
2026-01-12 10:51:43.16	315.74	27.87	-41.4	-44.6	13.3	8.30e-06	0	59	0	930086912	53	5523
2026-01-12 10:51:47.20	316.51	27.30	-41.8	-45.4	12.5	1.77e-04	0	59	0	937426944	54	5692
2026-01-12 10:51:51.24	317.26	26.75	-40.8	-43.8	14.1	1.50e-06	0	59	0	945815552	53	5003
2026-01-12 10:51:55.29	317.98	26.19	-41.7	-45.4	12.5	6.71e-05	0	59	0	953155584	53	5998
2026-01-12 10:51:59.32	318.68	25.65	-41.1	-44.2	13.7	4.50e-06	0	59	0	960495616	54	4960
2026-01-12 10:52:03.36	319.36	25.12	-41.0	-44.1	13.8	3.00e-06	0	59	0	967835648	53	5170
2026-01-12 10:52:07.40	320.01	24.59	-41.4	-44.8	13.0	3.05e-05	0	59	0	975175680	53	5643
2026-01-12 10:52:11.44	320.64	24.06	-41.5	-45.0	12.8	4.04e-05	0	59	0	983564288	53	5773
2026-01-12 10:52:15.48	321.25	23.55	-41.2	-44.5	13.3	2.28e-05	0	59	0	990904320	53	5449
2026-01-12 10:52:19.52	321.85	23.04	-41.1	-44.4	13.5	8.30e-06	0	59	0	998244352	53	5347
2026-01-12 10:52:23.56	322.42	22.53	-41.3	-44.7	13.0	1.98e-05	0	59	0	1005584384	53	5578
2026-01-12 10:52:27.60	322.98	22.04	-41.5	-45.1	12.7	7.55e-05	0	59	0	1013972992	53	5793
2026-01-12 10:52:31.64	323.52	21.55	-41.6	-45.3	12.4	1.17e-04	0	59	0	1021313024	53	5980
2026-01-12 10:52:35.67	324.04	21.07	-41.7	-45.4	12.3	1.53e-04	0	59	0	1028653056	53	5997
2026-01-12 10:52:39.71	324.55	20.60	-41.8	-45.7	12.0	3.07e-04	0	59	0	1035993088	54	5918
2026-01-12 10:52:43.75	325.05	20.13	-41.9	-45.8	11.8	5.58e-04	0	59	0	1043333120	54	5961
2026-01-12 10:52:47.79	325.53	19.67	-41.9	-46.0	11.6	6.03e-04	0	59	0	1051721728	54	6093
2026-01-12 10:52:51.83	326.00	19.21	-41.6	-45.3	12.3	1.78e-04	0	59	0	1059061760	54	5646
2026-01-12 10:52:55.87	326.45	18.77	-41.7	-45.5	12.1	2.51e-04	0	59	0	1066401792	54	5767
2026-01-12 10:52:59.91	326.89	18.33	-41.7	-45.5	12.1	2.85e-04	0	59	0	1073741824	54	5749
2026-01-12 10:53:03.95	327.32	17.89	-41.7	-45.6	12.0	3.07e-04	0	59	0	1082130432	54	5802
2026-01-12 10:53:07.99	327.74	17.46	-41.7	-45.6	11.9	3.49e-04	0	59	0	1089470464	54	5819
2026-01-12 10:53:12.03	328.14	17.04	-41.6	-45.5	12.0	3.00e-04	0	59	0	1096810496	54	5757
2026-01-12 10:53:16.06	328.54	16.62	-41.8	-45.8	11.6	6.40e-04	0	59	0	1104150528	54	5971
2026-01-12 10:53:20.10	328.92	16.21	-42.0	-46.4	11.0	2.73e-03	0	59	0	1111490560	54	6375
2026-01-12 10:53:24.14	329.30	15.81	-42.1	-46.7	10.6	3.29e-03	0	59	0	1119879168	54	6638
2026-01-12 10:53:28.18	329.66	15.41	-41.8	-46.1	11.3	1.44e-03	0	59	0	1127219200	54	6147
2026-01-12 10:53:32.22	330.02	15.01	-41.7	-45.8	11.4	2.77e-03	0	59	0	1134559232	54	5976
2026-01-12 10:53:36.25	330.37	14.63	-41.6	-45.7	11.7	5.99e-04	0	59	0	1141899264	54	5863
2026-01-12 10:53:40.30	330.71	14.24	-41.6	-45.6	11.6	7.19e-04	0	59	0	1150287872	54	5851
2026-01-12 10:53:44.33	331.04	13.86	-41.7	-45.9	11.3	1.00e-03	0	59	0	1157627904	54	6024
2026-01-12 10:53:48.37	331.36	13.49	-41.8	-46.2	11.0	1.51e-03	0	59	0	1164967936	54	6251
2026-01-12 10:53:52.41	331.68	13.12	-41.9	-46.5	10.6	3.08e-03	0	59	0	1172307968	54	6480
2026-01-12 10:53:56.44	331.99	12.76	-41.9	-46.5	10.5	3.74e-03	0	59	0	1179648000	54	6477
2026-01-12 10:54:00.48	332.29	12.40	-41.9	-46.4	10.6	3.59e-03	0	59	0	1188036608	54	6399
2026-01-12 10:54:04.52	332.58	12.05	-42.0	-46.7	10.3	4.92e-03	0	59	0	1195376640	54	6591
2026-01-12 10:54:08.56	332.87	11.70	-42.0	-46.9	10.1	8.86e-03	0	59	0	1202716672	54	6738
2026-01-12 10:54:12.60	333.15	11.35	-42.0	-47.0	9.9	8.58e-03	0	59	0	1210056704	54	6847
2026-01-12 10:54:16.64	333.43	11.01	-42.2	-47.5	9.3	1.79e-02	0	59	0	1218445312	54	7276
2026-01-12 10:54:20.68	333.70	10.67	-42.2	-47.6	9.2	1.72e-02	0	59	0	1225785344	55	6911
2026-01-12 10:54:24.72	333.96	10.34	-42.1	-47.4	9.3	1.92e-02	0	59	0	1233125376	55	6769
2026-01-12 10:54:28.76	334.22	10.01	-42.1	-47.4	9.3	1.41e-02	0	59	0	1240465408	55	6726
2026-01-12 10:54:32.80	334.47	9.69	-42.0	-47.2	9.5	1.41e-02	0	59	0	1247805440	55	6587
2026-01-12 10:54:36.83	334.72	9.37	-41.9	-46.9	9.7	1.08e-02	0	59	0	1256194048	55	6414
2026-01-12 10:54:40.87	334.97	9.05	-41.8	-46.8	9.7	1.18e-02	0	59	0	1263534080	55	6311
2026-01-12 10:54:44.91	335.20	8.73	-41.8	-47.0	9.5	1.36e-02	0	59	0	1270874112	55	6434
2026-01-12 10:54:48.94	335.44	8.43	-41.8	-47.2	9.1	2.29e-02	0	59	0	1278214144	55	6636
2026-01-12 10:54:52.98	335.67	8.12	-41.8	-47.5	8.7	3.52e-02	0	59	0	1286602752	55	6855
2026-01-12 10:54:57.02	335.89	7.81	-44.7	-59.0	3.8	1.49e+00	0	59	104	1288699904	59	20399
2026-01-12 10:55:01.06	336.11	7.51	-45.1	-59.6	3.8	1.49e+00	0	59	104	1288699904	60	20763
2026-01-12 10:55:05.11	336.33	7.22	-45.2	-59.7	3.8	1.49e+00	0	59	104	1288699904	60	20922
2026-01-12 10:55:09.15	336.54	6.92	-45.1	-59.6	3.8	1.49e+00	0	59	104	1288699904	60	20762
2026-01-12 10:55:13.19	336.75	6.63	-45.1	-59.6	3.8	1.49e+00	0	59	104	1288699904	60	20651
2026-01-12 10:55:17.24	336.96	6.34	-45.0	-59.6	3.8	1.49e+00	0	59	104	1288699904	60	20570
2026-01-12 10:55:21.28	337.16	6.06	-45.0	-59.6	3.8	1.49e+00	0	59	104	1288699904	60	20628
2026-01-12 10:55:25.32	337.36	5.78	-45.0	-59.6	3.8	1.49e+00	0	59	104	1288699904	60	20611
2026-01-12 10:55:29.37	337.55	5.50	-45.0	-59.6	3.8	1.49e+00	0	59	104	1288699904	60	20577
2026-01-12 10:55:33.41	337.74	5.22	-45.0	-59.6	3.8	1.49e+00	0	59	104	1288699904	60	20544
2026-01-12 10:55:37.46	337.93	4.94	-45.0	-59.5	3.8	1.49e+00	0	59	104	1288699904	60	20538
2026-01-12 10:55:41.50	338.12	4.67	-45.0	-59.6	3.8	1.49e+00	0	59	104	1288699904	60	20562
2026-01-12 10:55:45.55	338.30	4.40	-45.0	-59.5	3.8	1.49e+00	0	59	104	1288699904	60	20518
2026-01-12 10:55:49.59	338.48	4.14	-45.0	-59.6	3.8	1.49e+00	0	59	104	1288699904	60	20579
2026-01-12 10:55:53.63	338.65	3.87	-45.0	-59.6	3.8	1.49e+00	0	59	104	1288699904	60	20578
2026-01-12 10:55:57.68	338.83	3.61	-45.0	-59.5	3.8	1.49e+00	0	59	104	1288699904	60	20527
2026-01-12 10:56:01.72	339.00	3.35	-45.0	-59.5	3.8	1.49e+00	0	59	104	1288699904	60	20505
2026-01-12 10:56:05.76	339.16	3.09	-45.0	-59.6	3.8	1.49e+00	0	59	104	1288699904	60	20584
2026-01-12 10:56:09.81	339.33	2.84	-45.0	-59.5	3.8	1.49e+00	0	59	104	1288699904	60	20515
2026-01-12 10:56:13.85	339.49	2.59	-44.9	-59.5	3.8	1.49e+00	0	59	104	1288699904	60	20486
2026-01-12 10:56:17.89	339.65	2.33	-45.0	-59.5	3.8	1.49e+00	0	59	104	1288699904	60	20512
2026-01-12 10:56:21.94	339.81	2.09	-45.0	-59.5	3.8	1.49e+00	0	59	104	1288699904	60	20471

#Closed at: 2026-01-12 10:56:24
#Recorded file [1288 MB]: D:/lorett/data/31039_260112_134217.dat