passes_logs/2026/01/12/R2.0S_Moscow/R2.0S_Moscow__20260112_031545_FENGYUN_3E_rec.log

#Pass ID: 20260112_031545_FENGYUN 3E
#Satellite: FENGYUN 3E
#Configuration: FENGYUN 3E
#almurnet v.1.7.20251203
#Start time: 2026-01-12 03:23:58

#Version: 2.2.20231116
#Station: R2.0S_Moscow
#Location: 37.707566 lon 55.798166 lat
#TLE: 1 49008U 21062A   26011.27090272  .00000463  00000+0  23869-3 0  9994
#TLE: 2 49008  98.7490  16.4432 0001856 145.0812 215.0487 14.19886022234312

#Time	Az	El	Level	Level2	SNR	BER	BlckErr	Temp	State	Recorded	gain1	gain2
2026-01-12 03:23:58.93	134.37	42.16	-45.0	-56.6	3.8	8.46e-01	0	57	0	0	60	14596
2026-01-12 03:24:00.96	135.20	41.84	-45.8	-56.7	3.8	8.46e-01	0	57	104	0	62	12444
2026-01-12 03:24:02.98	136.01	41.51	-45.7	-56.6	3.8	8.46e-01	0	57	104	0	62	12321
2026-01-12 03:24:05.00	136.80	41.19	-45.7	-56.8	3.8	8.46e-01	0	57	104	0	62	12587
2026-01-12 03:24:07.03	137.59	40.85	-45.6	-56.7	3.8	8.46e-01	0	57	104	0	62	12493
2026-01-12 03:24:09.05	138.35	40.52	-45.6	-56.7	3.8	8.46e-01	0	57	104	0	62	12446
2026-01-12 03:24:11.07	139.10	40.18	-45.6	-56.7	3.8	8.46e-01	0	57	104	0	62	12421
2026-01-12 03:24:13.09	139.83	39.85	-45.6	-56.7	3.8	8.46e-01	0	57	104	0	62	12504
2026-01-12 03:24:15.11	140.55	39.51	-45.6	-56.7	3.8	8.46e-01	0	57	104	0	62	12464
2026-01-12 03:24:17.13	141.25	39.16	-45.6	-56.7	3.8	8.46e-01	0	58	104	0	62	12443
2026-01-12 03:24:19.16	141.94	38.82	-45.5	-56.6	3.8	8.46e-01	0	57	104	0	62	12315
2026-01-12 03:24:21.18	142.62	38.48	-45.5	-56.3	3.8	8.47e-01	0	58	104	0	62	11875
2026-01-12 03:24:23.20	143.28	38.13	-45.5	-56.3	3.8	8.45e-01	0	57	104	0	62	11837
2026-01-12 03:24:25.22	143.93	37.79	-45.6	-56.6	3.8	8.45e-01	0	58	104	0	62	12359
2026-01-12 03:24:27.24	144.56	37.44	-45.6	-56.4	3.8	8.48e-01	0	58	104	0	62	12028
2026-01-12 03:24:29.27	145.18	37.09	-45.5	-56.2	3.8	8.47e-01	0	58	104	0	62	11766
2026-01-12 03:24:31.29	145.79	36.75	-45.5	-56.4	3.8	8.44e-01	0	58	104	0	62	11967
2026-01-12 03:24:33.31	146.39	36.40	-45.3	-54.9	3.8	8.45e-01	0	58	104	0	61	10704
2026-01-12 03:24:35.33	146.97	36.06	-45.5	-56.3	3.8	8.46e-01	0	58	104	0	61	12555
2026-01-12 03:24:37.35	147.54	35.71	-45.3	-55.0	3.8	8.45e-01	0	58	104	0	61	10870
2026-01-12 03:24:39.37	148.10	35.37	-45.1	-53.5	4.1	8.41e-01	0	58	0	0	61	9152
2026-01-12 03:24:41.40	148.65	35.03	-45.4	-56.1	3.8	8.45e-01	0	58	104	0	61	12340
2026-01-12 03:24:43.42	149.19	34.68	-44.3	-49.6	5.8	8.00e-01	0	57	0	0	59	6536
2026-01-12 03:24:45.44	149.71	34.34	-40.8	-43.0	12.1	8.01e-04	0	58	0	14680064	52	4592
2026-01-12 03:24:47.46	150.23	34.00	-41.9	-44.8	10.3	1.81e-03	0	58	0	28311552	53	5308
2026-01-12 03:24:49.48	150.73	33.66	-43.3	-47.3	7.8	2.54e-01	0	58	0	40894464	57	5626
2026-01-12 03:24:51.50	151.22	33.33	-37.0	-38.4	16.7	0.00e+00	0	58	0	55574528	45	4026
2026-01-12 03:24:53.52	151.71	32.99	-39.3	-41.2	14.2	0.00e+00	0	57	0	70254592	47	4932
2026-01-12 03:24:55.54	152.18	32.66	-35.6	-36.8	18.3	0.00e+00	0	58	0	83886080	40	4461
2026-01-12 03:24:57.57	152.65	32.32	-34.8	-35.9	19.0	0.00e+00	0	57	0	93323264	40	4047
2026-01-12 03:24:59.59	153.11	31.99	-34.8	-35.9	19.0	0.00e+00	0	58	0	108003328	40	4019
2026-01-12 03:25:01.61	153.55	31.66	-34.2	-35.3	19.7	0.00e+00	0	58	0	122683392	39	3961
2026-01-12 03:25:03.63	153.99	31.33	-33.9	-34.9	20.0	0.00e+00	0	58	0	136314880	38	4041
2026-01-12 03:25:05.65	154.42	31.01	-34.1	-35.2	19.8	0.00e+00	0	58	0	150994944	38	4147
2026-01-12 03:25:07.67	154.84	30.69	-34.4	-35.4	19.5	0.00e+00	0	58	0	165675008	38	4279
2026-01-12 03:25:09.69	155.26	30.36	-34.6	-35.8	19.2	0.00e+00	0	57	0	180355072	38	4442
2026-01-12 03:25:11.71	155.66	30.04	-34.9	-36.0	18.8	0.00e+00	0	58	0	195035136	39	4325
2026-01-12 03:25:13.73	156.06	29.73	-34.8	-35.9	19.0	0.00e+00	0	58	0	209715200	39	4280
2026-01-12 03:25:15.75	156.45	29.41	-34.7	-35.8	19.1	0.00e+00	0	58	0	224395264	39	4203
2026-01-12 03:25:17.78	156.83	29.10	-34.6	-35.7	19.2	0.00e+00	0	58	0	239075328	39	4186
2026-01-12 03:25:19.79	157.21	28.79	-34.3	-35.3	19.5	0.00e+00	0	58	0	253755392	39	4003
2026-01-12 03:25:21.81	157.58	28.48	-34.3	-35.4	19.5	0.00e+00	0	58	0	268435456	39	4005
2026-01-12 03:25:23.83	157.94	28.17	-34.2	-35.3	19.6	0.00e+00	0	58	0	282066944	39	3968
2026-01-12 03:25:25.85	158.29	27.87	-34.4	-35.5	19.4	0.00e+00	0	58	0	296747008	39	4067
2026-01-12 03:25:27.87	158.64	27.56	-34.6	-35.7	19.2	0.00e+00	0	58	0	311427072	39	4161
2026-01-12 03:25:29.89	158.98	27.26	-34.8	-35.9	19.0	0.00e+00	0	58	0	326107136	39	4254
2026-01-12 03:25:31.91	159.32	26.96	-34.9	-36.0	18.8	0.00e+00	0	58	0	340787200	39	4318
2026-01-12 03:25:33.93	159.65	26.67	-34.9	-36.1	18.8	0.00e+00	0	58	0	355467264	39	4344
2026-01-12 03:25:35.95	159.97	26.38	-34.8	-36.0	18.9	0.00e+00	0	58	0	370147328	39	4298
2026-01-12 03:25:37.97	160.29	26.08	-34.7	-35.8	19.0	0.00e+00	0	58	0	384827392	39	4203
2026-01-12 03:25:39.99	160.60	25.80	-34.6	-35.7	19.0	0.00e+00	0	58	0	399507456	39	4153
2026-01-12 03:25:42.01	160.91	25.51	-34.5	-35.6	19.3	0.00e+00	0	58	0	414187520	39	4102
2026-01-12 03:25:44.03	161.21	25.22	-34.5	-35.5	19.2	0.00e+00	0	58	0	427819008	39	4095
2026-01-12 03:25:46.05	161.51	24.94	-34.4	-35.4	19.2	0.00e+00	0	58	0	443547648	39	4040
2026-01-12 03:25:48.07	161.80	24.66	-34.4	-35.5	19.3	0.00e+00	0	58	0	457179136	39	4059
2026-01-12 03:25:50.09	162.08	24.38	-34.5	-35.5	19.2	0.00e+00	0	57	0	471859200	39	4094
2026-01-12 03:25:52.11	162.37	24.11	-34.4	-35.5	19.3	0.00e+00	0	58	0	486539264	39	4081
2026-01-12 03:25:54.13	162.64	23.83	-34.5	-35.5	19.3	0.00e+00	0	58	0	501219328	39	4090
2026-01-12 03:25:56.15	162.91	23.56	-34.6	-35.7	19.1	0.00e+00	0	58	0	515899392	39	4171
2026-01-12 03:25:58.17	163.18	23.29	-34.7	-35.8	19.0	0.00e+00	0	58	0	530579456	39	4194
2026-01-12 03:26:00.19	163.45	23.03	-34.7	-35.8	19.0	0.00e+00	0	58	0	545259520	39	4213
2026-01-12 03:26:02.20	163.70	22.76	-34.7	-35.9	18.9	0.00e+00	0	58	0	559939584	39	4243
2026-01-12 03:26:04.23	163.96	22.50	-34.9	-36.0	18.8	0.00e+00	0	58	0	573571072	39	4302
2026-01-12 03:26:06.25	164.21	22.24	-34.8	-35.9	18.8	0.00e+00	0	58	0	589299712	39	4276
2026-01-12 03:26:08.27	164.46	21.98	-34.7	-35.9	18.9	0.00e+00	0	58	0	602931200	39	4243
2026-01-12 03:26:10.29	164.70	21.73	-34.8	-35.9	18.8	0.00e+00	0	58	0	617611264	39	4266
2026-01-12 03:26:12.30	164.94	21.47	-34.9	-36.0	18.7	0.00e+00	0	58	0	632291328	39	4337
2026-01-12 03:26:14.32	165.17	21.22	-35.0	-36.2	18.6	0.00e+00	0	58	0	646971392	39	4408
2026-01-12 03:26:16.34	165.40	20.97	-35.1	-36.2	18.4	0.00e+00	0	58	0	661651456	40	4192
2026-01-12 03:26:18.37	165.63	20.72	-35.1	-36.3	18.4	0.00e+00	0	58	0	676331520	40	4198
2026-01-12 03:26:20.39	165.86	20.48	-35.1	-36.3	18.4	0.00e+00	0	58	0	691011584	40	4214
2026-01-12 03:26:22.41	166.08	20.23	-35.2	-36.3	18.3	0.00e+00	0	58	0	705691648	40	4239
2026-01-12 03:26:24.42	166.29	19.99	-35.3	-36.5	18.1	0.00e+00	0	58	0	720371712	40	4321
2026-01-12 03:26:26.44	166.51	19.75	-35.2	-36.4	18.2	0.00e+00	0	58	0	735051776	40	4260
2026-01-12 03:26:28.46	166.72	19.51	-35.3	-36.5	18.1	0.00e+00	0	58	0	748683264	40	4331
2026-01-12 03:26:30.48	166.93	19.28	-35.2	-36.4	18.2	0.00e+00	0	58	0	763363328	40	4273
2026-01-12 03:26:32.50	167.13	19.04	-35.3	-36.5	18.1	0.00e+00	0	58	0	778043392	40	4311
2026-01-12 03:26:34.51	167.33	18.81	-35.4	-36.6	18.0	0.00e+00	0	58	0	792723456	40	4367
2026-01-12 03:26:36.53	167.53	18.58	-35.3	-36.5	18.1	0.00e+00	0	58	0	807403520	40	4298
2026-01-12 03:26:38.56	167.73	18.35	-35.4	-36.6	17.9	0.00e+00	0	58	0	822083584	40	4380
2026-01-12 03:26:40.58	167.92	18.12	-35.5	-36.7	17.9	0.00e+00	0	58	0	836763648	40	4436
2026-01-12 03:26:42.59	168.11	17.90	-35.4	-36.6	18.0	0.00e+00	0	58	0	851443712	40	4381
2026-01-12 03:26:44.61	168.30	17.67	-35.3	-36.5	18.1	0.00e+00	0	58	0	866123776	40	4313
2026-01-12 03:26:46.63	168.48	17.45	-35.4	-36.6	18.0	0.00e+00	0	58	0	879755264	40	4357
2026-01-12 03:26:48.65	168.67	17.23	-35.5	-36.7	17.8	0.00e+00	0	58	0	894435328	40	4408
2026-01-12 03:26:50.67	168.85	17.01	-35.7	-36.9	17.6	0.00e+00	0	58	0	909115392	40	4518
2026-01-12 03:26:52.69	169.02	16.80	-35.7	-37.0	17.6	0.00e+00	0	58	0	923795456	41	4302
2026-01-12 03:26:54.71	169.20	16.58	-35.7	-37.0	17.6	0.00e+00	0	58	0	938475520	41	4302
2026-01-12 03:26:56.73	169.37	16.37	-35.8	-37.0	17.5	0.00e+00	0	58	0	953155584	41	4335
2026-01-12 03:26:58.75	169.54	16.16	-35.8	-37.1	17.4	0.00e+00	0	58	0	967835648	41	4367
2026-01-12 03:27:00.77	169.71	15.95	-36.0	-37.3	17.2	0.00e+00	0	58	0	982515712	41	4449
2026-01-12 03:27:02.79	169.88	15.74	-36.0	-37.3	17.2	0.00e+00	0	58	0	997195776	41	4479
2026-01-12 03:27:04.81	170.04	15.53	-36.0	-37.3	17.2	0.00e+00	0	58	0	1011875840	41	4455
2026-01-12 03:27:06.83	170.20	15.33	-36.0	-37.2	17.2	0.00e+00	0	58	0	1025507328	41	4433
2026-01-12 03:27:08.85	170.36	15.12	-35.9	-37.2	17.3	0.00e+00	0	58	0	1041235968	41	4407
2026-01-12 03:27:10.87	170.52	14.92	-35.9	-37.2	17.3	0.00e+00	0	58	0	1054867456	41	4398
2026-01-12 03:27:12.89	170.67	14.72	-36.0	-37.3	17.1	0.00e+00	0	58	0	1069547520	41	4455
2026-01-12 03:27:14.91	170.83	14.52	-36.1	-37.4	17.0	0.00e+00	0	58	0	1084227584	41	4504
2026-01-12 03:27:16.93	170.98	14.32	-36.3	-37.6	16.8	0.00e+00	0	58	0	1098907648	42	4372
2026-01-12 03:27:18.95	171.13	14.12	-36.3	-37.7	16.7	0.00e+00	0	58	0	1113587712	42	4414
2026-01-12 03:27:20.97	171.28	13.93	-36.4	-37.8	16.6	0.00e+00	0	58	0	1128267776	42	4470
2026-01-12 03:27:22.99	171.42	13.74	-36.5	-37.9	16.6	0.00e+00	0	58	0	1142947840	42	4498
2026-01-12 03:27:25.00	171.56	13.54	-36.5	-37.9	16.5	0.00e+00	0	58	0	1157627904	42	4514
2026-01-12 03:27:27.02	171.71	13.35	-36.6	-38.0	16.4	0.00e+00	0	58	0	1171259392	42	4555
2026-01-12 03:27:29.04	171.85	13.16	-36.6	-38.0	16.4	0.00e+00	0	58	0	1186988032	42	4560
2026-01-12 03:27:31.06	171.99	12.97	-36.5	-37.9	16.5	0.00e+00	0	58	0	1200619520	42	4515
2026-01-12 03:27:33.08	172.12	12.79	-36.6	-38.0	16.4	0.00e+00	0	58	0	1215299584	42	4586
2026-01-12 03:27:35.10	172.26	12.60	-36.7	-38.1	16.3	0.00e+00	0	58	0	1229979648	42	4610
2026-01-12 03:27:37.12	172.39	12.42	-36.8	-38.2	16.1	0.00e+00	0	58	0	1244659712	43	4422
2026-01-12 03:27:39.14	172.52	12.23	-37.0	-38.4	15.8	0.00e+00	0	58	0	1259339776	43	4543
2026-01-12 03:27:41.16	172.66	12.05	-36.9	-38.4	15.9	0.00e+00	0	58	0	1274019840	43	4505
2026-01-12 03:27:43.18	172.78	11.87	-37.1	-38.7	15.6	0.00e+00	0	58	0	1288699904	43	4664
2026-01-12 03:27:45.20	172.91	11.69	-37.0	-38.5	15.7	0.00e+00	0	58	0	1303379968	43	4590
2026-01-12 03:27:47.22	173.04	11.51	-36.9	-38.3	15.9	0.00e+00	0	58	0	1318060032	43	4492
2026-01-12 03:27:49.24	173.16	11.34	-36.9	-38.4	15.8	0.00e+00	0	58	0	1332740096	43	4527
2026-01-12 03:27:51.25	173.29	11.16	-37.0	-38.6	15.7	0.00e+00	0	58	0	1346371584	43	4609
2026-01-12 03:27:53.27	173.41	10.99	-37.0	-38.5	15.7	0.00e+00	0	58	0	1361051648	43	4583
2026-01-12 03:27:55.29	173.53	10.81	-37.1	-38.7	15.5	0.00e+00	0	58	0	1375731712	43	4668
2026-01-12 03:27:57.31	173.65	10.64	-37.0	-38.5	15.6	0.00e+00	0	58	0	1390411776	43	4577
2026-01-12 03:27:59.33	173.77	10.47	-37.1	-38.6	15.5	0.00e+00	0	58	0	1405091840	43	4630
2026-01-12 03:28:01.35	173.88	10.30	-37.2	-38.8	15.3	0.00e+00	0	58	0	1419771904	43	4718
2026-01-12 03:28:03.37	174.00	10.13	-37.4	-38.9	15.3	0.00e+00	0	58	0	1434451968	44	4540
2026-01-12 03:28:05.39	174.11	9.96	-37.4	-39.0	15.1	0.00e+00	0	58	0	1449132032	44	4583
2026-01-12 03:28:07.41	174.23	9.79	-37.5	-39.1	15.0	0.00e+00	0	58	0	1463812096	44	4640
2026-01-12 03:28:09.43	174.34	9.63	-37.6	-39.2	14.9	1.10e-06	0	58	0	1477443584	44	4686
2026-01-12 03:28:11.45	174.45	9.46	-37.5	-39.1	14.9	0.00e+00	0	58	0	1492123648	44	4639
2026-01-12 03:28:13.47	174.56	9.30	-37.7	-39.4	14.5	0.00e+00	0	58	0	1506803712	44	4779
2026-01-12 03:28:15.50	174.67	9.13	-37.7	-39.5	14.3	0.00e+00	0	58	0	1521483776	45	4572
2026-01-12 03:28:17.52	174.77	8.97	-37.7	-39.5	14.3	0.00e+00	0	58	0	1536163840	45	4585
2026-01-12 03:28:19.54	174.88	8.81	-37.7	-39.5	14.2	1.10e-06	0	58	0	1550843904	45	4585
2026-01-12 03:28:21.56	174.98	8.65	-37.8	-39.7	14.0	2.20e-06	0	58	0	1565523968	45	4667
2026-01-12 03:28:23.58	175.09	8.49	-37.8	-39.7	13.8	3.40e-06	0	58	0	1580204032	45	4679
2026-01-12 03:28:25.60	175.19	8.33	-37.9	-39.8	13.7	1.48e-05	0	58	0	1594884096	45	4726
2026-01-12 03:28:27.61	175.29	8.17	-38.1	-40.0	13.3	1.94e-05	0	58	0	1609564160	45	4856
2026-01-12 03:28:29.64	175.39	8.02	-42.7	-47.9	6.4	1.06e-04	0	58	0	1624244224	54	7128
2026-01-12 03:28:31.66	175.49	7.86	-45.2	-56.1	3.8	8.45e-01	0	58	104	1624244224	59	13756
2026-01-12 03:28:33.68	175.59	7.71	-45.4	-56.5	3.8	8.48e-01	0	58	104	1624244224	60	13687
2026-01-12 03:28:35.70	175.69	7.55	-45.5	-56.7	3.8	8.47e-01	0	58	104	1624244224	60	13962
2026-01-12 03:28:37.73	175.79	7.40	-45.6	-56.8	3.8	8.45e-01	0	58	104	1624244224	60	14065
2026-01-12 03:28:39.75	175.88	7.25	-45.6	-56.7	3.8	8.46e-01	0	58	104	1624244224	60	14020
2026-01-12 03:28:41.77	175.98	7.10	-45.5	-56.7	3.8	8.46e-01	0	58	104	1624244224	60	13928
2026-01-12 03:28:43.79	176.07	6.95	-45.5	-56.6	3.8	8.46e-01	0	58	104	1624244224	60	13859
2026-01-12 03:28:45.81	176.16	6.80	-45.5	-56.5	3.8	8.46e-01	0	58	104	1624244224	60	13689
2026-01-12 03:28:47.84	176.26	6.65	-45.4	-56.5	3.8	8.46e-01	0	58	104	1624244224	60	13690
2026-01-12 03:28:49.86	176.35	6.50	-45.4	-56.5	3.8	8.46e-01	0	58	104	1624244224	60	13630
2026-01-12 03:28:51.88	176.44	6.35	-45.4	-56.5	3.8	8.46e-01	0	58	104	1624244224	60	13635
2026-01-12 03:28:53.90	176.53	6.20	-45.4	-56.5	3.8	8.45e-01	0	58	104	1624244224	60	13656
2026-01-12 03:28:55.92	176.62	6.06	-45.4	-56.5	3.8	8.45e-01	0	58	104	1624244224	60	13628
2026-01-12 03:28:57.94	176.70	5.91	-45.4	-56.5	3.8	8.47e-01	0	58	104	1624244224	60	13594
2026-01-12 03:28:59.96	176.79	5.77	-45.3	-56.4	3.8	8.46e-01	0	58	104	1624244224	60	13529
2026-01-12 03:29:01.98	176.88	5.63	-45.3	-56.4	3.8	8.47e-01	0	58	104	1624244224	60	13523
2026-01-12 03:29:04.00	176.96	5.48	-45.3	-56.5	3.8	8.46e-01	0	58	104	1624244224	60	13580
2026-01-12 03:29:06.02	177.05	5.34	-45.3	-56.4	3.8	8.46e-01	0	58	104	1624244224	60	13508
2026-01-12 03:29:08.04	177.13	5.20	-45.3	-56.5	3.8	8.46e-01	0	58	104	1624244224	60	13581
2026-01-12 03:29:10.07	177.21	5.06	-45.3	-56.5	3.8	8.45e-01	0	58	104	1624244224	60	13579
2026-01-12 03:29:12.09	177.30	4.92	-45.3	-56.4	3.8	8.46e-01	0	58	104	1624244224	60	13461
2026-01-12 03:29:14.11	177.38	4.78	-45.3	-56.4	3.8	8.46e-01	0	58	104	1624244224	60	13480
2026-01-12 03:29:16.13	177.46	4.64	-45.3	-56.4	3.8	8.47e-01	0	58	104	1624244224	60	13497
2026-01-12 03:29:18.15	177.54	4.50	-45.3	-56.4	3.8	8.46e-01	0	58	104	1624244224	60	13500
2026-01-12 03:29:20.17	177.62	4.37	-45.3	-56.4	3.8	8.46e-01	0	58	104	1624244224	60	13538
2026-01-12 03:29:22.19	177.70	4.23	-45.3	-56.4	3.8	8.47e-01	0	58	104	1624244224	60	13487
2026-01-12 03:29:24.22	177.78	4.09	-45.3	-56.4	3.8	8.47e-01	0	59	104	1624244224	60	13480
2026-01-12 03:29:26.24	177.85	3.96	-45.3	-56.4	3.8	8.46e-01	0	58	104	1624244224	60	13511
2026-01-12 03:29:28.26	177.93	3.82	-45.3	-56.4	3.8	8.46e-01	0	58	104	1624244224	60	13532
2026-01-12 03:29:30.29	178.01	3.69	-45.3	-56.4	3.8	8.45e-01	0	59	104	1624244224	60	13509
2026-01-12 03:29:32.31	178.08	3.56	-45.3	-56.4	3.8	8.46e-01	0	58	104	1624244224	60	13535
2026-01-12 03:29:34.33	178.16	3.42	-45.3	-56.4	3.8	8.45e-01	0	59	104	1624244224	60	13522
2026-01-12 03:29:36.35	178.23	3.29	-45.3	-56.4	3.8	8.46e-01	0	59	104	1624244224	60	13541
2026-01-12 03:29:38.37	178.31	3.16	-45.3	-56.4	3.8	8.46e-01	0	58	104	1624244224	60	13499
2026-01-12 03:29:40.39	178.38	3.03	-45.3	-56.4	3.8	8.46e-01	0	59	104	1624244224	60	13563
2026-01-12 03:29:42.42	178.45	2.90	-45.3	-56.4	3.8	8.48e-01	0	59	104	1624244224	60	13477
2026-01-12 03:29:44.44	178.52	2.77	-45.3	-56.4	3.8	8.46e-01	0	59	104	1624244224	60	13538
2026-01-12 03:29:46.46	178.59	2.64	-45.3	-56.4	3.8	8.45e-01	0	59	104	1624244224	60	13539
2026-01-12 03:29:48.48	178.66	2.51	-45.3	-56.4	3.8	8.45e-01	0	58	104	1624244224	60	13466
2026-01-12 03:29:50.50	178.74	2.38	-45.3	-56.4	3.8	8.47e-01	0	59	104	1624244224	60	13472
2026-01-12 03:29:52.53	178.80	2.25	-45.3	-56.4	3.8	8.46e-01	0	59	104	1624244224	60	13526
2026-01-12 03:29:54.55	178.87	2.13	-45.3	-56.4	3.8	8.47e-01	0	59	104	1624244224	60	13504
2026-01-12 03:29:56.57	178.94	2.00	-45.3	-56.4	3.8	8.45e-01	0	59	104	1624244224	60	13544

#Closed at: 2026-01-12 03:29:57
#Recorded file [1624 MB]: D:/lorett/data/31039_260112_062358.dat