passes_logs/2026/01/24/R3.2S_Murmansk/R3.2S_Murmansk__20260124_082009_SUOMI_NPP_rec.log

#Pass ID: 20260124_082009_SUOMI NPP
#Satellite: SUOMI NPP
#Configuration: NPP
#almurnet v.1.7.20251203
#Start time: 2026-01-24 08:20:10

#Version: 2.2.20231116
#Station: R3.2S_Murmansk
#Location: 33.079688 lon 68.888172 lat
#TLE: 1 37849U 11061A   26023.63275593  .00000212  00000+0  12133-3 0  9990
#TLE: 2 37849  98.7820 325.6074 0002234  48.9695 311.1673 14.19528901737937

#Time	Az	El	Level	Level2	SNR	BER	BlckErr	Temp	State	Recorded	gain1	gain2
2026-01-24 08:20:10.03	122.13	2.05	-51.6	-66.6	3.8	1.49e+00	0	41	0	0	75	19585
2026-01-24 08:20:14.05	122.02	2.30	-51.6	-66.6	3.8	1.49e+00	0	41	104	0	73	21862
2026-01-24 08:20:18.09	121.90	2.56	-51.6	-66.6	3.8	1.49e+00	0	41	104	0	73	21856
2026-01-24 08:20:22.12	121.78	2.82	-51.6	-66.6	3.8	1.49e+00	0	42	104	0	73	21869
2026-01-24 08:20:26.16	121.66	3.08	-51.6	-66.6	3.8	1.49e+00	0	42	104	0	73	21837
2026-01-24 08:20:30.19	121.54	3.35	-51.6	-66.4	3.8	1.49e+00	0	42	104	0	73	21395
2026-01-24 08:20:34.23	121.41	3.61	-51.6	-66.0	3.8	1.49e+00	0	42	104	0	73	20404
2026-01-24 08:20:38.26	121.28	3.88	-51.6	-66.0	3.8	1.49e+00	0	42	104	0	73	20358
2026-01-24 08:20:42.29	121.15	4.15	-50.8	-57.9	7.3	3.64e-01	0	42	0	2097152	73	8068
2026-01-24 08:20:46.33	121.02	4.43	-48.0	-50.9	14.6	6.10e-06	0	42	0	10485760	68	4783
2026-01-24 08:20:50.36	120.88	4.70	-46.7	-48.8	16.5	0.00e+00	0	42	0	17825792	65	4487
2026-01-24 08:20:54.39	120.74	4.98	-47.1	-49.6	15.9	0.00e+00	0	42	0	25165824	64	5165
2026-01-24 08:20:58.42	120.60	5.27	-49.5	-53.7	11.7	1.13e-01	0	42	0	32505856	71	5563
2026-01-24 08:21:02.45	120.46	5.55	-46.4	-48.4	17.3	0.00e+00	0	42	0	39845888	64	4514
2026-01-24 08:21:06.49	120.31	5.84	-46.1	-47.9	17.8	0.00e+00	0	42	0	48234496	64	4290
2026-01-24 08:21:10.52	120.15	6.13	-46.1	-47.9	17.9	0.00e+00	0	42	0	55574528	64	4280
2026-01-24 08:21:14.55	120.00	6.42	-46.2	-48.1	17.8	0.00e+00	0	42	0	62914560	64	4345
2026-01-24 08:21:18.58	119.84	6.72	-46.3	-48.2	17.8	0.00e+00	0	42	0	70254592	64	4399
2026-01-24 08:21:22.61	119.68	7.02	-46.4	-48.2	17.7	0.00e+00	0	42	0	77594624	64	4408
2026-01-24 08:21:26.64	119.51	7.32	-46.2	-48.0	18.0	0.00e+00	0	43	0	85983232	64	4308
2026-01-24 08:21:30.67	119.34	7.63	-46.5	-48.3	17.7	0.00e+00	0	43	0	93323264	64	4459
2026-01-24 08:21:34.70	119.17	7.94	-46.3	-48.0	18.2	0.00e+00	0	42	0	100663296	63	4561
2026-01-24 08:21:38.73	118.99	8.26	-46.4	-48.1	18.1	0.00e+00	0	43	0	108003328	63	4635
2026-01-24 08:21:42.76	118.81	8.57	-46.1	-47.8	18.5	0.00e+00	0	43	0	116391936	63	4454
2026-01-24 08:21:46.79	118.62	8.90	-46.0	-47.6	18.8	0.00e+00	0	43	0	123731968	63	4341
2026-01-24 08:21:50.83	118.43	9.22	-46.0	-47.6	18.8	0.00e+00	0	43	0	131072000	63	4351
2026-01-24 08:21:54.86	118.24	9.55	-46.0	-47.6	18.8	0.00e+00	0	43	0	138412032	63	4372
2026-01-24 08:21:58.90	118.04	9.89	-45.8	-47.3	19.1	0.00e+00	0	43	0	145752064	63	4228
2026-01-24 08:22:02.93	117.83	10.22	-45.8	-47.3	19.2	0.00e+00	0	43	0	154140672	63	4207
2026-01-24 08:22:06.97	117.62	10.57	-45.9	-47.5	19.1	0.00e+00	0	43	0	161480704	63	4293
2026-01-24 08:22:11.00	117.41	10.91	-45.8	-47.3	19.2	0.00e+00	0	43	0	168820736	63	4212
2026-01-24 08:22:15.03	117.18	11.26	-45.6	-47.0	19.5	0.00e+00	0	43	0	176160768	62	4323
2026-01-24 08:22:19.06	116.96	11.62	-45.7	-47.3	19.2	0.00e+00	0	43	0	183500800	62	4459
2026-01-24 08:22:23.10	116.73	11.98	-45.7	-47.2	19.2	0.00e+00	0	43	0	191889408	62	4432
2026-01-24 08:22:27.13	116.49	12.34	-45.2	-46.6	19.8	0.00e+00	0	43	0	199229440	62	4132
2026-01-24 08:22:31.17	116.24	12.72	-45.5	-47.0	19.5	0.00e+00	0	43	0	206569472	62	4293
2026-01-24 08:22:35.20	115.99	13.09	-45.6	-47.2	19.4	0.00e+00	0	43	0	213909504	62	4422
2026-01-24 08:22:39.23	115.73	13.47	-45.5	-47.0	19.6	0.00e+00	0	43	0	222298112	62	4322
2026-01-24 08:22:43.27	115.46	13.86	-45.5	-47.0	19.6	0.00e+00	0	43	0	229638144	62	4327
2026-01-24 08:22:47.30	115.19	14.25	-45.5	-47.1	19.5	0.00e+00	0	43	0	236978176	62	4348
2026-01-24 08:22:51.33	114.91	14.65	-45.2	-46.6	20.0	0.00e+00	0	43	0	244318208	62	4125
2026-01-24 08:22:55.36	114.62	15.05	-45.0	-46.4	20.1	0.00e+00	0	43	0	251658240	61	4287
2026-01-24 08:22:59.40	114.33	15.46	-45.3	-46.8	19.8	0.00e+00	0	43	0	258998272	61	4475
2026-01-24 08:23:03.44	114.02	15.88	-45.2	-46.6	20.0	0.00e+00	0	43	0	267386880	61	4371
2026-01-24 08:23:07.47	113.70	16.30	-45.2	-46.7	20.0	0.00e+00	0	43	0	274726912	61	4401
2026-01-24 08:23:11.51	113.38	16.73	-45.2	-46.6	20.1	0.00e+00	0	43	0	282066944	61	4364
2026-01-24 08:23:15.54	113.05	17.16	-44.8	-46.1	20.5	0.00e+00	0	43	0	289406976	61	4111
2026-01-24 08:23:19.58	112.70	17.60	-44.9	-46.3	20.4	0.00e+00	0	43	0	297795584	61	4217
2026-01-24 08:23:23.61	112.35	18.05	-45.2	-46.6	20.1	0.00e+00	0	43	0	305135616	61	4390
2026-01-24 08:23:27.64	111.98	18.51	-45.0	-46.4	20.3	0.00e+00	0	43	0	312475648	61	4261
2026-01-24 08:23:31.68	111.60	18.97	-45.4	-46.8	19.9	0.00e+00	0	43	0	319815680	61	4483
2026-01-24 08:23:35.71	111.21	19.44	-45.6	-47.1	19.7	0.00e+00	0	43	0	327155712	61	4625
2026-01-24 08:23:39.75	110.81	19.92	-45.7	-47.1	19.7	0.00e+00	0	43	0	335544320	62	4390
2026-01-24 08:23:43.78	110.40	20.40	-46.0	-47.6	19.3	0.00e+00	0	43	0	342884352	63	4346
2026-01-24 08:23:47.81	109.97	20.90	-45.8	-47.3	19.6	0.00e+00	0	43	0	350224384	63	4231
2026-01-24 08:23:51.84	109.52	21.40	-45.8	-47.3	19.6	0.00e+00	0	43	0	357564416	63	4212
2026-01-24 08:23:55.88	109.07	21.91	-45.3	-46.7	20.2	0.00e+00	0	43	0	365953024	62	4155
2026-01-24 08:23:59.91	108.59	22.42	-46.1	-47.7	19.2	0.00e+00	0	43	0	373293056	62	4689
2026-01-24 08:24:03.94	108.10	22.95	-46.2	-47.8	19.1	0.00e+00	0	43	0	380633088	63	4458
2026-01-24 08:24:07.97	107.59	23.48	-46.7	-48.5	18.4	0.00e+00	0	43	0	387973120	64	4548
2026-01-24 08:24:12.00	107.07	24.03	-46.1	-47.6	19.3	0.00e+00	0	43	0	395313152	63	4391
2026-01-24 08:24:16.03	106.52	24.58	-46.6	-48.3	18.5	0.00e+00	0	43	0	403701760	64	4491
2026-01-24 08:24:20.07	105.95	25.14	-46.1	-47.7	19.2	0.00e+00	0	43	0	411041792	63	4431
2026-01-24 08:24:24.10	105.37	25.71	-46.0	-47.6	19.3	0.00e+00	0	43	0	418381824	63	4343
2026-01-24 08:24:28.13	104.76	26.29	-45.1	-46.5	20.3	0.00e+00	0	43	0	425721856	62	4068
2026-01-24 08:24:32.17	104.13	26.88	-46.0	-47.7	19.2	0.00e+00	0	43	0	433061888	63	4401
2026-01-24 08:24:36.20	103.47	27.47	-45.8	-47.4	19.5	0.00e+00	0	43	0	441450496	63	4259
2026-01-24 08:24:40.23	102.79	28.08	-46.0	-47.7	19.2	0.00e+00	0	43	0	448790528	63	4404
2026-01-24 08:24:44.26	102.08	28.69	-46.1	-47.7	19.2	0.00e+00	0	43	0	456130560	63	4432
2026-01-24 08:24:48.29	101.35	29.31	-46.3	-48.0	19.0	0.00e+00	0	43	0	463470592	63	4554
2026-01-24 08:24:52.33	100.58	29.94	-46.1	-47.7	19.2	0.00e+00	0	43	0	470810624	63	4425
2026-01-24 08:24:56.36	99.78	30.58	-46.6	-48.3	18.6	0.00e+00	0	43	0	479199232	64	4482
2026-01-24 08:25:00.39	98.95	31.22	-47.0	-49.0	18.0	0.00e+00	0	43	0	486539264	64	4819
2026-01-24 08:25:04.43	98.08	31.88	-47.2	-49.2	17.8	0.00e+00	0	43	0	493879296	65	4673
2026-01-24 08:25:08.46	97.18	32.54	-46.9	-48.7	18.2	0.00e+00	0	43	0	501219328	65	4414
2026-01-24 08:25:12.49	96.25	33.20	-46.8	-48.5	18.5	0.00e+00	0	43	0	508559360	64	4598
2026-01-24 08:25:16.52	95.27	33.87	-46.8	-48.5	18.5	0.00e+00	0	43	0	516947968	64	4582
2026-01-24 08:25:20.55	94.25	34.55	-47.1	-49.0	18.0	0.00e+00	0	43	0	524288000	64	4858
2026-01-24 08:25:24.58	93.19	35.23	-48.3	-50.8	16.3	0.00e+00	0	43	0	531628032	67	5024
2026-01-24 08:25:28.61	92.08	35.91	-47.8	-49.9	17.2	0.00e+00	0	43	0	538968064	67	4531
2026-01-24 08:25:32.65	90.92	36.60	-46.4	-48.1	18.9	0.00e+00	0	43	0	547356672	64	4352
2026-01-24 08:25:36.68	89.71	37.28	-46.6	-48.3	18.7	0.00e+00	0	43	0	554696704	64	4488
2026-01-24 08:25:40.71	88.45	37.96	-47.0	-49.0	18.1	0.00e+00	0	43	0	562036736	64	4846
2026-01-24 08:25:44.75	87.14	38.65	-47.4	-49.5	17.7	0.00e+00	0	43	0	569376768	65	4817
2026-01-24 08:25:48.78	85.77	39.32	-48.1	-50.4	16.6	0.00e+00	0	43	0	576716800	67	4787
2026-01-24 08:25:52.81	84.34	39.99	-46.1	-47.7	19.2	0.00e+00	0	43	0	585105408	63	4427
2026-01-24 08:25:56.85	82.85	40.65	-47.9	-50.2	16.8	0.00e+00	0	43	0	592445440	67	4676
2026-01-24 08:26:00.88	81.30	41.30	-45.9	-47.4	19.6	0.00e+00	0	43	0	599785472	63	4279
2026-01-24 08:26:04.91	79.69	41.94	-46.6	-48.4	18.6	0.00e+00	0	43	0	607125504	64	4518
2026-01-24 08:26:08.95	78.00	42.56	-46.5	-48.2	18.9	0.00e+00	0	43	0	615514112	65	4153
2026-01-24 08:26:12.98	76.26	43.16	-44.2	-45.4	21.4	0.00e+00	0	43	0	622854144	60	4021
2026-01-24 08:26:17.01	74.45	43.74	-46.3	-48.0	19.0	0.00e+00	0	43	0	630194176	63	4588
2026-01-24 08:26:21.05	72.58	44.30	-44.9	-46.2	20.7	0.00e+00	0	43	0	637534208	61	4170
2026-01-24 08:26:25.07	70.64	44.82	-44.5	-45.7	21.2	0.00e+00	0	43	0	644874240	60	4153
2026-01-24 08:26:29.11	68.64	45.32	-45.8	-47.3	19.8	0.00e+00	0	43	0	652214272	62	4486
2026-01-24 08:26:33.14	66.57	45.78	-48.1	-50.6	16.5	0.00e+00	0	43	0	660602880	67	4879
2026-01-24 08:26:37.17	64.45	46.20	-48.9	-51.6	15.7	0.00e+00	0	43	0	667942912	69	4910
2026-01-24 08:26:41.20	62.27	46.58	-47.3	-49.2	17.9	0.00e+00	0	43	0	675282944	65	4698
2026-01-24 08:26:45.24	60.04	46.92	-46.6	-48.2	18.9	0.00e+00	0	43	0	682622976	64	4421
2026-01-24 08:26:49.27	57.77	47.22	-46.4	-48.5	18.3	0.00e+00	0	43	0	691011584	65	4299
2026-01-24 08:26:53.30	55.45	47.46	-45.6	-47.2	19.9	0.00e+00	0	43	0	698351616	63	4159
2026-01-24 08:26:57.34	53.10	47.65	-46.3	-48.1	18.9	0.00e+00	0	43	0	705691648	64	4344
2026-01-24 08:27:01.37	50.73	47.79	-44.6	-45.9	20.9	0.00e+00	0	43	0	713031680	61	4026
2026-01-24 08:27:05.40	48.34	47.88	-46.0	-48.3	18.8	0.00e+00	0	43	0	720371712	63	4739
2026-01-24 08:27:09.43	45.94	47.91	-45.8	-47.4	19.3	0.00e+00	0	43	0	728760320	63	4271
2026-01-24 08:27:13.46	43.55	47.89	-45.1	-46.6	20.1	0.00e+00	0	43	0	736100352	62	4129
2026-01-24 08:27:17.49	41.16	47.82	-44.5	-45.8	20.9	0.00e+00	0	43	0	743440384	60	4220
2026-01-24 08:27:21.52	38.78	47.69	-45.7	-47.3	19.6	0.00e+00	0	43	0	750780416	62	4489
2026-01-24 08:27:25.55	36.43	47.50	-46.6	-48.5	18.4	0.00e+00	0	43	0	758120448	64	4575
2026-01-24 08:27:29.59	34.11	47.27	-46.4	-48.1	18.9	0.00e+00	0	43	0	766509056	63	4636
2026-01-24 08:27:33.62	31.83	46.98	-46.0	-47.5	19.4	0.00e+00	0	43	0	773849088	63	4335
2026-01-24 08:27:37.65	29.59	46.66	-46.5	-48.3	18.6	0.00e+00	0	43	0	781189120	64	4465
2026-01-24 08:27:41.68	27.41	46.28	-47.5	-49.7	17.4	0.00e+00	0	44	0	788529152	66	4684
2026-01-24 08:27:45.72	25.27	45.87	-45.4	-46.9	20.0	0.00e+00	0	43	0	795869184	62	4257
2026-01-24 08:27:49.75	23.20	45.41	-45.7	-47.2	19.8	0.00e+00	0	43	0	804257792	62	4419
2026-01-24 08:27:53.78	21.19	44.93	-45.8	-47.3	19.8	0.00e+00	0	43	0	811597824	63	4197
2026-01-24 08:27:57.81	19.24	44.41	-45.5	-47.1	19.9	0.00e+00	0	43	0	818937856	62	4341
2026-01-24 08:28:01.85	17.35	43.86	-44.7	-45.9	21.0	0.00e+00	0	44	0	826277888	61	4039
2026-01-24 08:28:05.88	15.53	43.28	-44.8	-46.1	20.8	0.00e+00	0	43	0	834666496	60	4384
2026-01-24 08:28:09.91	13.78	42.69	-44.6	-45.9	21.1	0.00e+00	0	43	0	842006528	60	4271
2026-01-24 08:28:13.94	12.09	42.07	-45.2	-46.5	20.5	0.00e+00	0	44	0	849346560	60	4571
2026-01-24 08:28:17.97	10.47	41.44	-44.0	-45.1	22.0	0.00e+00	0	43	0	856686592	59	4104
2026-01-24 08:28:22.00	8.91	40.80	-44.8	-46.2	20.8	0.00e+00	0	43	0	864026624	60	4412
2026-01-24 08:28:26.03	7.42	40.14	-44.8	-46.0	20.9	0.00e+00	0	43	0	872415232	61	4092
2026-01-24 08:28:30.07	5.98	39.47	-47.4	-49.4	17.7	0.00e+00	0	43	0	879755264	65	4807
2026-01-24 08:28:34.10	4.60	38.80	-46.5	-48.1	19.1	0.00e+00	0	44	0	887095296	64	4352
2026-01-24 08:28:38.13	3.28	38.12	-47.3	-49.1	17.9	0.00e+00	0	43	0	894435328	65	4644
2026-01-24 08:28:42.17	2.01	37.44	-47.5	-49.5	17.7	0.00e+00	0	43	0	901775360	66	4552
2026-01-24 08:28:46.20	0.79	36.76	-48.2	-50.5	16.6	0.00e+00	0	43	0	910163968	66	5144
2026-01-24 08:28:50.23	359.63	36.08	-47.5	-49.5	17.6	0.00e+00	0	43	0	917504000	66	4571
2026-01-24 08:28:54.26	358.51	35.39	-50.7	-55.1	12.0	6.66e-04	0	43	0	924844032	72	6186
2026-01-24 08:28:58.30	357.44	34.72	-47.3	-49.1	18.0	0.00e+00	0	43	0	932184064	66	4375
2026-01-24 08:29:02.33	356.42	34.04	-47.1	-48.8	18.4	0.00e+00	0	44	0	939524096	65	4462
2026-01-24 08:29:06.36	355.43	33.37	-45.9	-47.2	19.9	0.00e+00	0	43	0	947912704	63	4186
2026-01-24 08:29:10.39	354.49	32.71	-48.2	-50.4	16.8	0.00e+00	0	43	0	955252736	66	5056
2026-01-24 08:29:14.42	353.58	32.05	-47.7	-49.7	17.5	0.00e+00	0	43	0	962592768	66	4699
2026-01-24 08:29:18.45	352.71	31.40	-47.0	-48.7	18.4	0.00e+00	0	43	0	969932800	65	4435
2026-01-24 08:29:22.49	351.88	30.75	-48.9	-51.5	15.8	0.00e+00	0	43	0	978321408	68	5149
2026-01-24 08:29:26.52	351.08	30.11	-48.3	-50.5	16.6	0.00e+00	0	43	0	985661440	68	4582
2026-01-24 08:29:30.55	350.31	29.48	-45.6	-46.9	20.1	0.00e+00	0	43	0	993001472	63	4037
2026-01-24 08:29:34.58	349.57	28.86	-47.4	-49.4	17.7	0.00e+00	0	43	0	1000341504	65	4761
2026-01-24 08:29:38.61	348.86	28.25	-47.5	-49.4	17.7	0.00e+00	0	43	0	1007681536	66	4521
2026-01-24 08:29:42.64	348.17	27.65	-46.0	-47.5	19.5	0.00e+00	0	43	0	1016070144	63	4322
2026-01-24 08:29:46.67	347.51	27.05	-45.8	-47.2	19.8	0.00e+00	0	43	0	1023410176	63	4173
2026-01-24 08:29:50.71	346.88	26.46	-45.9	-47.3	19.7	0.00e+00	0	43	0	1030750208	63	4220
2026-01-24 08:29:54.74	346.27	25.88	-46.6	-48.3	18.7	0.00e+00	0	43	0	1038090240	64	4462
2026-01-24 08:29:58.77	345.68	25.31	-47.8	-49.9	17.2	0.00e+00	0	43	0	1045430272	66	4792
2026-01-24 08:30:02.81	345.11	24.75	-46.2	-47.8	19.1	0.00e+00	0	43	0	1053818880	64	4196
2026-01-24 08:30:06.84	344.56	24.20	-45.8	-47.3	19.7	0.00e+00	0	43	0	1061158912	63	4198
2026-01-24 08:30:10.87	344.03	23.66	-45.7	-47.1	19.8	0.00e+00	0	43	0	1068498944	62	4353
2026-01-24 08:30:14.90	343.52	23.12	-46.3	-48.0	19.0	0.00e+00	0	43	0	1075838976	63	4556
2026-01-24 08:30:18.93	343.03	22.60	-45.8	-47.2	19.7	0.00e+00	0	43	0	1084227584	63	4167
2026-01-24 08:30:22.97	342.55	22.08	-45.7	-47.1	19.7	0.00e+00	0	43	0	1091567616	63	4137
2026-01-24 08:30:27.00	342.09	21.57	-46.2	-47.7	19.2	0.00e+00	0	43	0	1098907648	63	4414
2026-01-24 08:30:31.03	341.65	21.07	-45.9	-47.4	19.5	0.00e+00	0	43	0	1106247680	63	4274
2026-01-24 08:30:35.06	341.22	20.57	-46.1	-47.6	19.3	0.00e+00	0	43	0	1113587712	63	4366
2026-01-24 08:30:39.09	340.80	20.09	-46.0	-47.6	19.3	0.00e+00	0	43	0	1120927744	63	4341
2026-01-24 08:30:43.13	340.40	19.61	-45.8	-47.2	19.6	0.00e+00	0	43	0	1129316352	63	4188
2026-01-24 08:30:47.16	340.01	19.14	-45.7	-47.2	19.7	0.00e+00	0	43	0	1136656384	63	4150
2026-01-24 08:30:51.19	339.63	18.68	-45.7	-47.2	19.6	0.00e+00	0	43	0	1143996416	63	4168
2026-01-24 08:30:55.23	339.27	18.22	-46.2	-47.8	19.0	0.00e+00	0	43	0	1151336448	63	4486
2026-01-24 08:30:59.26	338.91	17.77	-46.4	-48.1	18.7	0.00e+00	0	43	0	1159725056	63	4618
2026-01-24 08:31:03.30	338.57	17.33	-46.0	-47.5	19.3	0.00e+00	0	43	0	1167065088	63	4317
2026-01-24 08:31:07.33	338.23	16.89	-45.4	-46.8	19.9	0.00e+00	0	43	0	1174405120	62	4199
2026-01-24 08:31:11.37	337.91	16.47	-44.8	-46.1	20.6	0.00e+00	0	43	0	1181745152	61	4106
2026-01-24 08:31:15.40	337.59	16.04	-45.5	-46.9	19.8	0.00e+00	0	43	0	1189085184	61	4517
2026-01-24 08:31:19.43	337.29	15.63	-46.6	-48.3	18.4	0.00e+00	0	43	0	1197473792	63	4733
2026-01-24 08:31:23.46	336.99	15.22	-47.5	-49.5	17.2	0.00e+00	0	43	0	1204813824	65	4861
2026-01-24 08:31:27.49	336.70	14.82	-47.7	-49.9	16.7	0.00e+00	0	43	0	1212153856	66	4805
2026-01-24 08:31:31.53	336.42	14.42	-47.2	-49.2	17.5	5.30e-06	0	43	0	1219493888	66	4401
2026-01-24 08:31:35.56	336.15	14.03	-47.0	-48.9	17.7	0.00e+00	0	43	0	1227882496	65	4512
2026-01-24 08:31:39.59	335.88	13.64	-46.8	-48.6	18.1	0.00e+00	0	43	0	1235222528	65	4355
2026-01-24 08:31:43.62	335.63	13.26	-46.8	-48.6	17.9	0.00e+00	0	43	0	1242562560	65	4391
2026-01-24 08:31:47.65	335.38	12.88	-47.2	-49.2	17.4	0.00e+00	0	43	0	1249902592	65	4660
2026-01-24 08:31:51.69	335.13	12.51	-46.9	-48.7	17.8	0.00e+00	0	43	0	1257242624	65	4438
2026-01-24 08:31:55.73	334.89	12.15	-46.9	-48.8	17.8	0.00e+00	0	43	0	1264582656	65	4459
2026-01-24 08:31:59.76	334.66	11.79	-46.6	-48.4	18.1	4.50e-06	0	43	0	1272971264	65	4244
2026-01-24 08:32:03.79	334.43	11.43	-46.7	-48.5	18.1	0.00e+00	0	43	0	1280311296	64	4549
2026-01-24 08:32:07.83	334.21	11.08	-46.6	-48.5	17.9	9.90e-06	0	43	0	1287651328	64	4546
2026-01-24 08:32:11.86	334.00	10.73	-47.0	-49.0	17.4	0.00e+00	0	43	0	1294991360	64	4830
2026-01-24 08:32:15.89	333.79	10.39	-47.5	-49.7	16.7	2.20e-06	0	43	0	1303379968	65	4957
2026-01-24 08:32:19.93	333.59	10.05	-47.9	-50.3	16.1	0.00e+00	0	43	0	1310720000	66	5016
2026-01-24 08:32:23.96	333.39	9.72	-47.9	-50.3	16.1	0.00e+00	0	43	0	1318060032	66	5000
2026-01-24 08:32:27.99	333.19	9.39	-47.9	-50.3	16.0	0.00e+00	0	43	0	1325400064	66	5033
2026-01-24 08:32:32.02	333.00	9.06	-47.4	-49.6	16.7	0.00e+00	0	43	0	1332740096	66	4616
2026-01-24 08:32:36.06	332.82	8.74	-47.3	-49.4	16.9	0.00e+00	0	43	0	1341128704	66	4499
2026-01-24 08:32:40.09	332.64	8.42	-47.4	-49.6	16.6	0.00e+00	0	43	0	1348468736	66	4633
2026-01-24 08:32:44.12	332.46	8.11	-47.2	-49.4	16.8	0.00e+00	0	43	0	1355808768	66	4499
2026-01-24 08:32:48.16	332.29	7.80	-47.3	-49.5	16.5	0.00e+00	0	43	0	1363148800	66	4586
2026-01-24 08:32:52.19	332.12	7.49	-47.1	-49.2	16.8	0.00e+00	0	43	0	1370488832	66	4424
2026-01-24 08:32:56.22	331.96	7.19	-47.3	-49.5	16.5	0.00e+00	0	43	0	1378877440	66	4580
2026-01-24 08:33:00.26	331.80	6.88	-47.2	-49.4	16.6	0.00e+00	0	43	0	1386217472	66	4516
2026-01-24 08:33:04.29	331.64	6.59	-47.3	-49.6	16.3	0.00e+00	0	43	0	1393557504	66	4622
2026-01-24 08:33:08.32	331.48	6.29	-47.5	-49.8	16.1	0.00e+00	0	43	0	1400897536	66	4748
2026-01-24 08:33:12.31	331.34	6.01	-47.6	-50.0	15.8	0.00e+00	0	43	0	1408237568	66	4835
2026-01-24 08:33:16.34	331.19	5.72	-47.5	-49.9	15.9	0.00e+00	0	43	0	1416626176	66	4781
2026-01-24 08:33:20.37	331.04	5.43	-47.7	-50.3	15.4	0.00e+00	0	43	0	1423966208	66	5032
2026-01-24 08:33:24.40	330.90	5.15	-47.8	-50.4	15.3	0.00e+00	0	44	0	1431306240	67	4775
2026-01-24 08:33:28.44	330.77	4.87	-52.8	-67.8	3.8	1.49e+00	0	44	104	1435500544	76	21192
2026-01-24 08:33:32.47	330.63	4.59	-53.5	-68.5	3.8	1.49e+00	0	43	104	1435500544	77	21704
2026-01-24 08:33:36.50	330.50	4.32	-54.1	-69.0	3.8	1.49e+00	0	43	104	1435500544	78	21714
2026-01-24 08:33:40.53	330.37	4.05	-54.2	-69.2	3.8	1.49e+00	0	44	104	1435500544	78	22062
2026-01-24 08:33:44.56	330.24	3.78	-54.2	-69.2	3.8	1.49e+00	0	44	104	1435500544	79	20957
2026-01-24 08:33:48.60	330.12	3.51	-54.3	-69.3	3.8	1.49e+00	0	43	104	1435500544	79	21178
2026-01-24 08:33:52.64	330.00	3.25	-54.0	-69.0	3.8	1.49e+00	0	44	104	1435500544	79	20432
2026-01-24 08:33:56.67	329.88	2.99	-54.0	-69.0	3.8	1.49e+00	0	44	104	1435500544	79	20352
2026-01-24 08:34:00.70	329.76	2.73	-53.8	-68.8	3.8	1.49e+00	0	44	104	1435500544	79	20011
2026-01-24 08:34:04.73	329.65	2.47	-53.8	-68.8	3.8	1.49e+00	0	44	104	1435500544	79	19906
2026-01-24 08:34:08.77	329.54	2.21	-53.8	-68.8	3.8	1.49e+00	0	44	104	1435500544	79	19868

#Closed at: 2026-01-24 08:34:12
#Recorded file [1435 MB]: D:/lorett/data/31041_260124_112009.dat