passes_logs/2026/01/24/R3.2S_Murmansk/R3.2S_Murmansk__20260124_125110_AQUA_rec.log

#Pass ID: 20260124_125110_AQUA
#Satellite: AQUA
#Configuration: AQUA
#almurnet v.1.7.20251203
#Start time: 2026-01-24 12:52:28

#Version: 2.2.20231116
#Station: R3.2S_Murmansk
#Location: 33.079688 lon 68.888172 lat
#TLE: 1 27424U 02022A   26023.58972979  .00001888  00000+0  38753-3 0  9997
#TLE: 2 27424  98.4100 350.1620 0001948  68.5331  43.0280 14.61852003262140

#Time	Az	El	Level	Level2	SNR	BER	BlckErr	Temp	State	Recorded	gain1	gain2
2026-01-24 12:52:28.38	197.93	7.34	-53.7	-65.7	3.8	8.45e-01	0	43	0	0	79	13991
2026-01-24 12:52:31.39	198.18	7.57	-55.4	-73.2	3.8	7.43e-01	0	43	104	0	81	29557
2026-01-24 12:52:34.42	198.43	7.80	-55.4	-73.2	3.8	7.44e-01	0	43	104	0	81	29413
2026-01-24 12:52:37.44	198.68	8.03	-55.4	-73.2	3.8	7.46e-01	0	43	104	0	81	29397
2026-01-24 12:52:40.47	198.94	8.26	-55.3	-73.1	3.8	7.43e-01	0	43	104	0	81	29253
2026-01-24 12:52:43.49	199.20	8.50	-55.3	-73.1	3.8	7.47e-01	0	43	104	0	81	29219
2026-01-24 12:52:46.51	199.47	8.73	-55.3	-73.1	3.8	7.45e-01	0	43	104	0	81	29057
2026-01-24 12:52:49.54	199.74	8.97	-55.3	-73.1	3.8	7.46e-01	0	43	104	0	81	29058
2026-01-24 12:52:52.56	200.02	9.21	-55.3	-73.0	3.8	7.43e-01	0	43	104	0	81	28997
2026-01-24 12:52:55.59	200.30	9.46	-55.2	-73.0	3.8	7.44e-01	0	43	104	0	81	28900
2026-01-24 12:52:58.61	200.58	9.70	-55.2	-73.0	3.8	7.46e-01	0	43	104	0	81	28916
2026-01-24 12:53:01.62	200.87	9.95	-55.2	-73.0	3.8	7.47e-01	0	43	104	0	81	28873
2026-01-24 12:53:04.64	201.17	10.20	-55.2	-73.0	3.8	7.42e-01	0	43	104	0	81	28921
2026-01-24 12:53:07.67	201.47	10.45	-55.2	-73.0	3.8	7.46e-01	0	43	104	0	81	28933
2026-01-24 12:53:10.69	201.78	10.71	-55.2	-73.0	3.8	7.45e-01	0	43	104	0	81	28901
2026-01-24 12:53:13.72	202.09	10.97	-55.2	-73.0	3.8	7.46e-01	0	43	104	0	81	28955
2026-01-24 12:53:16.75	202.41	11.23	-55.2	-73.0	3.8	7.45e-01	0	43	104	0	81	28952
2026-01-24 12:53:19.77	202.73	11.49	-55.2	-73.0	3.8	7.43e-01	0	43	104	0	81	28899
2026-01-24 12:53:22.80	203.06	11.75	-55.2	-73.0	3.8	7.45e-01	0	43	104	0	81	28870
2026-01-24 12:53:25.82	203.40	12.02	-55.2	-73.0	3.8	7.45e-01	0	43	104	0	81	28847
2026-01-24 12:53:28.85	203.74	12.29	-55.2	-73.0	3.8	7.43e-01	0	43	104	0	81	28913
2026-01-24 12:53:31.87	204.09	12.56	-55.2	-73.0	3.8	7.47e-01	0	43	104	0	81	28903
2026-01-24 12:53:34.90	204.45	12.83	-55.2	-73.0	3.8	7.45e-01	0	43	104	0	81	28919
2026-01-24 12:53:37.92	204.81	13.11	-55.2	-73.0	3.8	7.45e-01	0	43	104	0	81	28774
2026-01-24 12:53:40.95	205.18	13.39	-55.2	-73.0	3.8	7.44e-01	0	43	104	0	81	28701
2026-01-24 12:53:43.97	205.56	13.67	-55.1	-73.0	3.8	7.45e-01	0	43	104	0	81	28746
2026-01-24 12:53:47.00	205.94	13.95	-55.1	-73.0	3.8	7.45e-01	0	43	104	0	81	28718
2026-01-24 12:53:50.02	206.34	14.24	-55.1	-73.0	3.8	7.45e-01	0	43	104	0	81	28684
2026-01-24 12:53:53.05	206.74	14.53	-55.1	-72.9	3.8	7.47e-01	0	43	104	0	81	28651
2026-01-24 12:53:56.07	207.15	14.82	-55.1	-73.0	3.8	7.48e-01	0	43	104	0	81	28698
2026-01-24 12:53:59.10	207.56	15.12	-55.1	-72.9	3.8	7.45e-01	0	43	104	0	81	28648
2026-01-24 12:54:02.13	207.99	15.41	-55.1	-72.9	3.8	7.47e-01	0	43	104	0	81	28620
2026-01-24 12:54:05.15	208.42	15.71	-55.1	-72.9	3.8	7.46e-01	0	43	104	0	81	28614
2026-01-24 12:54:08.18	208.87	16.01	-55.1	-73.0	3.8	7.46e-01	0	43	104	0	81	28690
2026-01-24 12:54:11.21	209.32	16.32	-55.1	-73.0	3.8	7.46e-01	0	43	104	0	81	28738
2026-01-24 12:54:14.23	209.79	16.63	-55.1	-72.9	3.8	7.45e-01	0	43	104	0	81	28641
2026-01-24 12:54:17.25	210.26	16.94	-55.1	-72.9	3.8	7.43e-01	0	43	104	0	81	28665
2026-01-24 12:54:20.28	210.74	17.25	-55.1	-72.9	3.8	7.48e-01	0	43	104	0	81	28678
2026-01-24 12:54:23.30	211.23	17.56	-55.1	-73.0	3.8	7.48e-01	0	43	104	0	81	28688
2026-01-24 12:54:26.33	211.74	17.88	-55.1	-72.9	3.8	7.44e-01	0	43	104	0	81	28553
2026-01-24 12:54:29.35	212.25	18.20	-55.1	-72.9	3.8	7.46e-01	0	43	104	0	81	28507
2026-01-24 12:54:32.37	212.78	18.52	-55.1	-72.9	3.8	7.47e-01	0	43	104	0	81	28491
2026-01-24 12:54:35.39	213.32	18.85	-55.1	-72.9	3.8	7.44e-01	0	43	104	0	81	28606
2026-01-24 12:54:38.42	213.87	19.18	-55.1	-72.9	3.8	7.44e-01	0	43	104	0	81	28639
2026-01-24 12:54:41.44	214.43	19.51	-55.1	-72.9	3.8	7.47e-01	0	43	104	0	81	28663
2026-01-24 12:54:44.46	215.00	19.84	-55.1	-72.9	3.8	7.46e-01	0	43	104	0	81	28611
2026-01-24 12:54:47.49	215.59	20.17	-55.1	-73.0	3.8	7.45e-01	0	43	104	0	81	28702
2026-01-24 12:54:50.51	216.19	20.51	-55.1	-72.9	3.8	7.43e-01	0	43	104	0	81	28574
2026-01-24 12:54:53.53	216.80	20.84	-55.1	-72.9	3.8	7.46e-01	0	43	104	0	81	28607
2026-01-24 12:54:56.56	217.43	21.18	-55.1	-72.9	3.8	7.45e-01	0	43	104	0	81	28588
2026-01-24 12:54:59.58	218.08	21.52	-55.1	-72.9	3.8	7.46e-01	0	43	104	0	81	28640
2026-01-24 12:55:02.60	218.73	21.87	-55.1	-72.9	3.8	7.49e-01	0	43	104	0	81	28548
2026-01-24 12:55:05.62	219.40	22.21	-55.1	-72.9	3.8	7.44e-01	0	43	104	0	81	28573
2026-01-24 12:55:08.65	220.09	22.55	-55.1	-72.9	3.8	7.44e-01	0	43	104	0	81	28529
2026-01-24 12:55:11.67	220.80	22.90	-55.1	-72.9	3.8	7.46e-01	0	43	104	0	81	28593
2026-01-24 12:55:14.69	221.51	23.25	-55.1	-72.9	3.8	7.44e-01	0	43	104	0	81	28488
2026-01-24 12:55:17.72	222.25	23.59	-55.1	-72.9	3.8	7.46e-01	0	43	104	0	81	28524
2026-01-24 12:55:20.74	223.00	23.94	-55.2	-73.0	3.8	7.41e-01	0	43	104	0	81	28821
2026-01-24 12:55:23.77	223.78	24.29	-55.2	-73.0	3.8	7.49e-01	0	43	104	0	81	28705
2026-01-24 12:55:26.79	224.56	24.64	-55.1	-73.0	3.8	7.43e-01	0	43	104	0	81	28737
2026-01-24 12:55:29.82	225.37	24.98	-55.1	-73.0	3.8	7.46e-01	0	43	104	0	81	28753
2026-01-24 12:55:32.85	226.20	25.33	-55.1	-72.9	3.8	7.46e-01	0	43	104	0	81	28560
2026-01-24 12:55:35.87	227.04	25.67	-55.1	-72.9	3.8	7.49e-01	0	43	104	0	81	28575
2026-01-24 12:55:38.90	227.90	26.02	-55.1	-73.0	3.8	7.44e-01	0	43	104	0	81	28695
2026-01-24 12:55:41.93	228.78	26.36	-55.1	-73.0	3.8	7.43e-01	0	43	104	0	81	28702
2026-01-24 12:55:44.95	229.68	26.70	-55.1	-72.9	3.8	7.46e-01	0	43	104	0	81	28671
2026-01-24 12:55:47.98	230.61	27.03	-55.1	-72.9	3.8	7.45e-01	0	43	104	0	81	28625
2026-01-24 12:55:51.01	231.55	27.37	-55.1	-73.0	3.8	7.44e-01	0	43	104	0	81	28701
2026-01-24 12:55:54.03	232.51	27.69	-55.1	-72.9	3.8	7.48e-01	0	43	104	0	81	28663
2026-01-24 12:55:57.05	233.48	28.02	-55.1	-72.9	3.8	7.46e-01	0	43	104	0	81	28657
2026-01-24 12:56:00.08	234.49	28.34	-55.1	-72.9	3.8	7.47e-01	0	44	104	0	81	28653
2026-01-24 12:56:03.11	235.51	28.65	-55.1	-72.9	3.8	7.45e-01	0	43	104	0	81	28620
2026-01-24 12:56:06.13	236.55	28.96	-55.1	-72.9	3.8	7.49e-01	0	43	104	0	81	28596
2026-01-24 12:56:09.16	237.61	29.26	-55.1	-72.9	3.8	7.44e-01	0	43	104	0	81	28642
2026-01-24 12:56:12.18	238.69	29.56	-55.1	-72.9	3.8	7.43e-01	0	43	104	0	81	28574
2026-01-24 12:56:15.21	239.79	29.84	-55.1	-72.9	3.8	7.47e-01	0	44	104	0	81	28591
2026-01-24 12:56:18.24	240.92	30.12	-55.1	-72.9	3.8	7.44e-01	0	43	104	0	81	28659
2026-01-24 12:56:21.26	242.05	30.39	-55.1	-72.9	3.8	7.46e-01	0	43	104	0	81	28629
2026-01-24 12:56:24.28	243.21	30.65	-55.1	-73.0	3.8	7.46e-01	0	43	104	0	81	28699
2026-01-24 12:56:27.30	244.39	30.90	-55.1	-72.9	3.8	7.46e-01	0	43	104	0	81	28649
2026-01-24 12:56:30.33	245.59	31.14	-55.1	-72.9	3.8	7.43e-01	0	43	104	0	81	28596
2026-01-24 12:56:33.35	246.80	31.37	-55.1	-72.9	3.8	7.47e-01	0	43	104	0	81	28660
2026-01-24 12:56:36.37	248.03	31.59	-55.1	-72.9	3.8	7.45e-01	0	43	104	0	81	28580
2026-01-24 12:56:39.40	249.28	31.79	-55.1	-72.9	3.8	7.43e-01	0	44	104	0	81	28564
2026-01-24 12:56:42.42	250.54	31.98	-55.1	-72.9	3.8	7.46e-01	0	43	104	0	81	28592
2026-01-24 12:56:45.45	251.82	32.16	-55.1	-72.9	3.8	7.44e-01	0	43	104	0	81	28565
2026-01-24 12:56:48.47	253.10	32.32	-55.1	-72.9	3.8	7.49e-01	0	43	104	0	81	28519
2026-01-24 12:56:51.49	254.41	32.46	-55.1	-72.9	3.8	7.47e-01	0	43	104	0	81	28549
2026-01-24 12:56:54.52	255.72	32.60	-55.1	-72.9	3.8	7.46e-01	0	43	104	0	81	28502
2026-01-24 12:56:57.55	257.05	32.71	-55.1	-72.9	3.8	7.45e-01	0	43	104	0	81	28488
2026-01-24 12:57:00.57	258.38	32.81	-55.1	-72.9	3.8	7.45e-01	0	43	104	0	81	28461
2026-01-24 12:57:03.59	259.72	32.90	-55.1	-72.9	3.8	7.49e-01	0	43	104	0	81	28408
2026-01-24 12:57:06.62	261.07	32.97	-55.1	-72.9	3.8	7.45e-01	0	43	104	0	81	28441
2026-01-24 12:57:09.64	262.42	33.02	-55.1	-72.9	3.8	7.45e-01	0	43	104	0	81	28484
2026-01-24 12:57:12.67	263.77	33.05	-55.1	-72.9	3.8	7.45e-01	0	43	104	0	81	28411
2026-01-24 12:57:15.69	265.13	33.07	-55.0	-72.9	3.8	7.50e-01	0	43	104	0	81	28420
2026-01-24 12:57:18.72	266.49	33.06	-55.0	-72.9	3.8	7.46e-01	0	43	104	0	81	28388
2026-01-24 12:57:21.74	267.84	33.05	-55.0	-72.9	3.8	7.43e-01	0	43	104	0	81	28386
2026-01-24 12:57:24.77	269.20	33.01	-55.0	-72.8	3.8	7.42e-01	0	43	104	0	81	28246
2026-01-24 12:57:27.79	270.55	32.96	-55.0	-72.8	3.8	7.48e-01	0	43	104	0	81	28321
2026-01-24 12:57:30.82	271.90	32.89	-55.0	-72.8	3.8	7.48e-01	0	43	104	0	81	28305
2026-01-24 12:57:33.85	273.24	32.80	-55.1	-72.9	3.8	7.44e-01	0	43	104	0	81	28416
2026-01-24 12:57:36.87	274.57	32.70	-55.1	-72.9	3.8	7.45e-01	0	43	104	0	81	28453
2026-01-24 12:57:39.89	275.89	32.59	-55.1	-72.9	3.8	7.44e-01	0	43	104	0	81	28433
2026-01-24 12:57:42.92	277.20	32.45	-55.1	-72.8	3.8	7.46e-01	0	43	104	0	81	28340
2026-01-24 12:57:45.95	278.50	32.30	-55.0	-72.8	3.8	7.44e-01	0	43	104	0	81	28290
2026-01-24 12:57:48.97	279.79	32.14	-55.1	-72.9	3.8	7.43e-01	0	43	104	0	81	28406
2026-01-24 12:57:51.99	281.06	31.96	-55.1	-72.9	3.8	7.48e-01	0	43	104	0	81	28417
2026-01-24 12:57:55.02	282.32	31.77	-55.0	-72.9	3.8	7.45e-01	0	43	104	0	81	28387
2026-01-24 12:57:58.04	283.56	31.57	-55.1	-72.8	3.8	7.45e-01	0	43	104	0	81	28315
2026-01-24 12:58:01.07	284.79	31.35	-55.1	-72.9	3.8	7.50e-01	0	43	104	0	81	28382
2026-01-24 12:58:04.09	286.00	31.12	-55.0	-72.8	3.8	7.46e-01	0	43	104	0	81	28209
2026-01-24 12:58:07.11	287.19	30.88	-55.0	-72.9	3.8	7.47e-01	0	43	104	0	81	28363
2026-01-24 12:58:10.14	288.36	30.63	-55.0	-72.9	3.8	7.43e-01	0	43	104	0	81	28374
2026-01-24 12:58:13.17	289.52	30.37	-55.0	-72.8	3.8	7.44e-01	0	43	104	0	81	28344
2026-01-24 12:58:16.19	290.65	30.10	-55.0	-72.9	3.8	7.48e-01	0	43	104	0	81	28427
2026-01-24 12:58:19.21	291.77	29.83	-55.0	-72.9	3.8	7.44e-01	0	43	104	0	81	28368
2026-01-24 12:58:22.24	292.86	29.54	-55.0	-72.9	3.8	7.46e-01	0	43	104	0	81	28381
2026-01-24 12:58:25.26	293.94	29.24	-55.0	-72.8	3.8	7.45e-01	0	43	104	0	81	28303
2026-01-24 12:58:28.29	295.00	28.94	-55.0	-72.9	3.8	7.43e-01	0	43	104	0	81	28393
2026-01-24 12:58:31.31	296.03	28.64	-55.0	-72.9	3.8	7.48e-01	0	43	104	0	81	28386
2026-01-24 12:58:34.34	297.05	28.32	-55.0	-72.8	3.8	7.46e-01	0	43	104	0	81	28335
2026-01-24 12:58:37.37	298.05	28.00	-55.0	-72.8	3.8	7.48e-01	0	43	104	0	81	28333
2026-01-24 12:58:40.39	299.02	27.68	-55.0	-72.9	3.8	7.45e-01	0	43	104	0	81	28354
2026-01-24 12:58:43.42	299.98	27.35	-55.0	-72.8	3.8	7.45e-01	0	43	104	0	81	28303
2026-01-24 12:58:46.45	300.91	27.02	-55.0	-72.8	3.8	7.45e-01	0	43	104	0	81	28292
2026-01-24 12:58:49.48	301.83	26.69	-55.0	-72.9	3.8	7.43e-01	0	43	104	0	81	28396
2026-01-24 12:58:52.50	302.72	26.35	-55.0	-72.8	3.8	7.45e-01	0	44	104	0	81	28293
2026-01-24 12:58:55.53	303.60	26.01	-55.0	-72.8	3.8	7.49e-01	0	43	104	0	81	28333
2026-01-24 12:58:58.55	304.46	25.67	-55.0	-72.9	3.8	7.44e-01	0	43	104	0	81	28365
2026-01-24 12:59:01.57	305.29	25.33	-55.0	-72.8	3.8	7.47e-01	0	43	104	0	81	28284
2026-01-24 12:59:04.60	306.12	24.98	-55.0	-72.8	3.8	7.48e-01	0	43	104	0	81	28262
2026-01-24 12:59:07.62	306.92	24.64	-55.0	-72.8	3.8	7.47e-01	0	43	104	0	81	28216
2026-01-24 12:59:10.65	307.70	24.29	-55.0	-72.8	3.8	7.41e-01	0	43	104	0	81	28314
2026-01-24 12:59:13.68	308.47	23.95	-55.0	-72.8	3.8	7.46e-01	0	43	104	0	81	28240
2026-01-24 12:59:16.71	309.22	23.60	-55.0	-72.8	3.8	7.43e-01	0	43	104	0	81	28215
2026-01-24 12:59:19.73	309.95	23.26	-55.0	-72.8	3.8	7.45e-01	0	43	104	0	81	28244
2026-01-24 12:59:22.75	310.67	22.91	-55.0	-72.8	3.8	7.46e-01	0	43	104	0	81	28316
2026-01-24 12:59:25.78	311.37	22.57	-55.0	-72.8	3.8	7.45e-01	0	43	104	0	81	28278
2026-01-24 12:59:28.81	312.06	22.22	-55.0	-72.8	3.8	7.44e-01	0	43	104	0	81	28241
2026-01-24 12:59:31.83	312.72	21.88	-55.0	-72.8	3.8	7.43e-01	0	43	104	0	81	28323
2026-01-24 12:59:34.86	313.38	21.54	-55.0	-72.8	3.8	7.42e-01	0	43	104	0	81	28318
2026-01-24 12:59:37.88	314.02	21.20	-55.0	-72.8	3.8	7.45e-01	0	43	104	0	81	28287
2026-01-24 12:59:40.91	314.64	20.87	-55.0	-72.8	3.8	7.45e-01	0	43	104	0	81	28297
2026-01-24 12:59:43.94	315.26	20.53	-55.0	-72.8	3.8	7.46e-01	0	43	104	0	81	28226
2026-01-24 12:59:46.97	315.86	20.20	-55.0	-72.8	3.8	7.45e-01	0	43	104	0	81	28253
2026-01-24 12:59:49.99	316.44	19.87	-55.0	-72.8	3.8	7.41e-01	0	43	104	0	81	28254
2026-01-24 12:59:53.01	317.01	19.54	-55.0	-72.8	3.8	7.45e-01	0	43	104	0	81	28298
2026-01-24 12:59:56.04	317.57	19.21	-55.0	-72.8	3.8	7.45e-01	0	43	104	0	81	28270
2026-01-24 12:59:59.06	318.12	18.88	-55.0	-72.8	3.8	7.44e-01	0	43	104	0	81	28330
2026-01-24 13:00:02.09	318.66	18.56	-55.0	-72.8	3.8	7.46e-01	0	43	104	0	81	28232
2026-01-24 13:00:05.11	319.18	18.24	-55.0	-72.8	3.8	7.47e-01	0	43	104	0	81	28272
2026-01-24 13:00:08.14	319.69	17.92	-55.0	-72.8	3.8	7.44e-01	0	43	104	0	81	28267
2026-01-24 13:00:11.17	320.20	17.61	-55.0	-72.8	3.8	7.44e-01	0	43	104	0	81	28267
2026-01-24 13:00:14.19	320.69	17.29	-55.0	-72.8	3.8	7.45e-01	0	43	104	0	81	28287
2026-01-24 13:00:17.21	321.17	16.98	-55.0	-72.8	3.8	7.47e-01	0	43	104	0	81	28287
2026-01-24 13:00:20.24	321.64	16.68	-55.0	-72.8	3.8	7.47e-01	0	43	104	0	81	28291
2026-01-24 13:00:23.27	322.10	16.37	-55.0	-72.8	3.8	7.45e-01	0	43	104	0	81	28263
2026-01-24 13:00:26.30	322.55	16.07	-55.0	-72.8	3.8	7.44e-01	0	43	104	0	81	28214
2026-01-24 13:00:29.33	323.00	15.77	-55.0	-72.8	3.8	7.47e-01	0	43	104	0	81	28323
2026-01-24 13:00:32.35	323.43	15.47	-55.0	-72.8	3.8	7.44e-01	0	43	104	0	81	28223
2026-01-24 13:00:35.37	323.85	15.17	-55.0	-72.8	3.8	7.43e-01	0	43	104	0	81	28269
2026-01-24 13:00:38.40	324.27	14.88	-55.0	-72.8	3.8	7.47e-01	0	43	104	0	81	28275
2026-01-24 13:00:41.43	324.68	14.59	-55.0	-72.8	3.8	7.47e-01	0	43	104	0	81	28232
2026-01-24 13:00:44.45	325.08	14.30	-55.0	-72.8	3.8	7.43e-01	0	43	104	0	81	28270
2026-01-24 13:00:47.48	325.47	14.02	-55.0	-72.8	3.8	7.45e-01	0	43	104	0	81	28311
2026-01-24 13:00:50.50	325.85	13.74	-55.0	-72.8	3.8	7.44e-01	0	43	104	0	81	28295
2026-01-24 13:00:53.53	326.23	13.46	-55.0	-72.8	3.8	7.47e-01	0	43	104	0	81	28334
2026-01-24 13:00:56.55	326.60	13.18	-55.0	-72.8	3.8	7.46e-01	0	43	104	0	81	28296
2026-01-24 13:00:59.57	326.96	12.91	-55.0	-72.8	3.8	7.43e-01	0	43	104	0	81	28282
2026-01-24 13:01:02.60	327.32	12.63	-55.0	-72.8	3.8	7.46e-01	0	43	104	0	81	28320
2026-01-24 13:01:05.62	327.67	12.36	-55.0	-72.8	3.8	7.44e-01	0	43	104	0	81	28307
2026-01-24 13:01:08.65	328.01	12.10	-55.0	-72.8	3.8	7.45e-01	0	43	104	0	81	28309
2026-01-24 13:01:11.68	328.35	11.83	-55.0	-72.8	3.8	7.44e-01	0	43	104	0	81	28318
2026-01-24 13:01:14.70	328.68	11.57	-55.0	-72.8	3.8	7.43e-01	0	43	104	0	81	28288
2026-01-24 13:01:17.73	329.00	11.31	-55.0	-72.8	3.8	7.46e-01	0	43	104	0	81	28326
2026-01-24 13:01:20.75	329.32	11.05	-55.0	-72.8	3.8	7.46e-01	0	43	104	0	81	28297
2026-01-24 13:01:23.78	329.63	10.80	-55.0	-72.8	3.8	7.42e-01	0	43	104	0	81	28236
2026-01-24 13:01:26.81	329.94	10.54	-55.0	-72.8	3.8	7.45e-01	0	43	104	0	81	28190
2026-01-24 13:01:29.83	330.24	10.29	-55.0	-72.8	3.8	7.44e-01	0	43	104	0	81	28250
2026-01-24 13:01:32.86	330.54	10.04	-55.0	-72.8	3.8	7.44e-01	0	44	104	0	81	28173
2026-01-24 13:01:35.89	330.83	9.80	-55.0	-72.8	3.8	7.46e-01	0	43	104	0	81	28180
2026-01-24 13:01:38.91	331.11	9.55	-55.0	-72.8	3.8	7.45e-01	0	43	104	0	81	28198
2026-01-24 13:01:41.94	331.40	9.31	-55.0	-72.8	3.8	7.45e-01	0	43	104	0	81	28167
2026-01-24 13:01:44.96	331.67	9.07	-55.0	-72.8	3.8	7.47e-01	0	43	104	0	81	28188
2026-01-24 13:01:47.99	331.95	8.83	-55.0	-72.8	3.8	7.47e-01	0	43	104	0	81	28150
2026-01-24 13:01:51.01	332.21	8.59	-55.0	-72.8	3.8	7.48e-01	0	43	104	0	81	28220
2026-01-24 13:01:54.04	332.48	8.36	-55.0	-72.8	3.8	7.43e-01	0	44	104	0	81	28238
2026-01-24 13:01:57.06	332.73	8.13	-55.0	-72.8	3.8	7.45e-01	0	44	104	0	81	28179
2026-01-24 13:02:00.09	332.99	7.90	-55.0	-72.8	3.8	7.46e-01	0	43	104	0	81	28167
2026-01-24 13:02:03.11	333.24	7.67	-55.0	-72.8	3.8	7.45e-01	0	44	104	0	81	28270
2026-01-24 13:02:06.13	333.49	7.44	-55.0	-72.8	3.8	7.43e-01	0	44	104	0	81	28215
2026-01-24 13:02:09.16	333.73	7.22	-55.0	-72.8	3.8	7.47e-01	0	44	104	0	81	28199
2026-01-24 13:02:12.18	333.97	7.00	-55.0	-72.8	3.8	7.41e-01	0	44	104	0	81	28179
2026-01-24 13:02:15.21	334.20	6.77	-55.0	-72.8	3.8	7.46e-01	0	44	104	0	81	28084
2026-01-24 13:02:18.23	334.44	6.56	-55.0	-72.8	3.8	7.46e-01	0	44	104	0	81	28215
2026-01-24 13:02:21.25	334.66	6.34	-55.0	-72.8	3.8	7.47e-01	0	43	104	0	81	28210
2026-01-24 13:02:24.28	334.89	6.12	-55.0	-72.8	3.8	7.40e-01	0	43	104	0	81	28212
2026-01-24 13:02:27.30	335.11	5.91	-55.0	-72.8	3.8	7.42e-01	0	43	104	0	81	28215
2026-01-24 13:02:30.33	335.33	5.69	-55.0	-72.8	3.8	7.47e-01	0	44	104	0	81	28143
2026-01-24 13:02:33.35	335.54	5.48	-55.0	-72.8	3.8	7.47e-01	0	43	104	0	81	28142
2026-01-24 13:02:36.37	335.75	5.27	-55.0	-72.8	3.8	7.46e-01	0	44	104	0	81	28190
2026-01-24 13:02:39.40	335.96	5.07	-55.0	-72.8	3.8	7.45e-01	0	44	104	0	81	28128
2026-01-24 13:02:42.42	336.17	4.86	-55.0	-72.8	3.8	7.49e-01	0	44	104	0	81	28172
2026-01-24 13:02:45.45	336.37	4.65	-55.0	-72.8	3.8	7.43e-01	0	44	104	0	81	28108
2026-01-24 13:02:48.47	336.57	4.45	-55.0	-72.8	3.8	7.48e-01	0	44	104	0	81	28038
2026-01-24 13:02:51.49	336.77	4.25	-55.0	-72.8	3.8	7.45e-01	0	43	104	0	81	28068
2026-01-24 13:02:54.52	336.96	4.05	-54.9	-72.8	3.8	7.44e-01	0	44	104	0	81	28055
2026-01-24 13:02:57.55	337.16	3.85	-55.0	-72.8	3.8	7.44e-01	0	43	104	0	81	28035
2026-01-24 13:03:00.57	337.34	3.65	-54.9	-72.8	3.8	7.44e-01	0	43	104	0	81	28031
2026-01-24 13:03:03.60	337.53	3.46	-54.9	-72.8	3.8	7.44e-01	0	44	104	0	81	28098
2026-01-24 13:03:06.62	337.72	3.26	-55.0	-72.8	3.8	7.44e-01	0	44	104	0	81	28073
2026-01-24 13:03:09.65	337.90	3.07	-54.9	-72.8	3.8	7.44e-01	0	44	104	0	81	28053
2026-01-24 13:03:12.67	338.08	2.88	-54.9	-72.8	3.8	7.47e-01	0	43	104	0	81	28079
2026-01-24 13:03:15.70	338.25	2.68	-54.9	-72.8	3.8	7.46e-01	0	44	104	0	81	28102
2026-01-24 13:03:18.72	338.43	2.49	-54.9	-72.7	3.8	7.45e-01	0	43	104	0	81	27994
2026-01-24 13:03:21.75	338.60	2.31	-54.9	-72.8	3.8	7.51e-01	0	43	104	0	81	28061
2026-01-24 13:03:24.77	338.77	2.12	-54.9	-72.8	3.8	7.45e-01	0	43	104	0	81	28062
2026-01-24 13:03:27.80	338.94	1.93	-54.9	-72.8	3.8	7.48e-01	0	44	104	0	81	28075

#Closed at: 2026-01-24 13:03:29
#Recorded file [0 MB]: D:/lorett/data/31041_260124_155228.dat