passes_logs/2026/01/24/R3.2S_Murmansk/R3.2S_Murmansk__20260124_111257_AQUA_rec.log

#Pass ID: 20260124_111257_AQUA
#Satellite: AQUA
#Configuration: AQUA
#almurnet v.1.7.20251203
#Start time: 2026-01-24 11:12:58

#Version: 2.2.20231116
#Station: R3.2S_Murmansk
#Location: 33.079688 lon 68.888172 lat
#TLE: 1 27424U 02022A   26023.58972979  .00001888  00000+0  38753-3 0  9997
#TLE: 2 27424  98.4100 350.1620 0001948  68.5331  43.0280 14.61852003262140

#Time	Az	El	Level	Level2	SNR	BER	BlckErr	Temp	State	Recorded	gain1	gain2
2026-01-24 11:12:58.44	150.18	2.04	-53.6	-71.4	3.8	7.44e-01	0	43	0	0	77	30284
2026-01-24 11:13:02.46	150.18	2.31	-53.6	-71.4	3.8	7.48e-01	0	43	104	0	77	30033
2026-01-24 11:13:06.50	150.17	2.58	-53.5	-71.3	3.8	7.48e-01	0	43	104	0	77	29896
2026-01-24 11:13:10.53	150.17	2.86	-53.6	-71.3	3.8	7.46e-01	0	43	104	0	77	29986
2026-01-24 11:13:14.56	150.17	3.14	-53.5	-71.0	3.8	7.46e-01	0	43	104	0	77	28968
2026-01-24 11:13:18.60	150.16	3.42	-53.5	-70.3	3.8	7.43e-01	0	43	104	0	77	26605
2026-01-24 11:13:22.63	150.16	3.71	-53.5	-70.2	3.8	7.44e-01	0	43	104	0	77	26291
2026-01-24 11:13:26.66	150.15	4.00	-53.1	-63.6	6.4	6.73e-01	183	43	0	524288	77	12284
2026-01-24 11:13:30.69	150.14	4.29	-50.3	-53.9	16.3	6.05e-01	0	43	0	7864320	72	5345
2026-01-24 11:13:34.73	150.14	4.59	-47.0	-48.9	21.4	6.04e-01	0	43	0	15728640	65	4515
2026-01-24 11:13:38.76	150.13	4.89	-45.9	-47.4	22.8	6.07e-01	0	43	0	23068672	63	4288
2026-01-24 11:13:42.79	150.12	5.19	-48.0	-50.1	20.2	6.06e-01	0	43	0	30932992	66	4903
2026-01-24 11:13:46.83	150.12	5.50	-45.9	-47.4	22.4	6.05e-01	0	43	0	38273024	63	4266
2026-01-24 11:13:50.86	150.11	5.81	-45.8	-47.3	23.0	6.05e-01	0	43	0	46137344	62	4477
2026-01-24 11:13:54.89	150.10	6.13	-45.8	-47.3	23.1	6.04e-01	0	43	0	53477376	62	4481
2026-01-24 11:13:58.92	150.09	6.45	-45.7	-47.2	23.3	6.06e-01	0	43	0	60817408	62	4431
2026-01-24 11:14:02.95	150.08	6.77	-45.5	-47.0	23.6	6.06e-01	0	43	0	68681728	62	4306
2026-01-24 11:14:06.99	150.07	7.10	-45.3	-46.7	24.0	6.08e-01	0	43	0	76021760	62	4192
2026-01-24 11:14:11.02	150.06	7.43	-45.4	-46.8	23.9	6.05e-01	0	43	0	83361792	62	4220
2026-01-24 11:14:15.05	150.05	7.77	-45.4	-46.8	24.1	6.07e-01	0	43	0	91226112	62	4197
2026-01-24 11:14:19.08	150.04	8.12	-45.0	-46.3	24.4	6.05e-01	0	43	0	98566144	61	4218
2026-01-24 11:14:23.11	150.02	8.47	-45.1	-46.5	24.3	6.08e-01	0	43	0	106430464	61	4299
2026-01-24 11:14:27.15	150.01	8.82	-44.8	-46.1	24.7	6.05e-01	0	43	0	113770496	61	4134
2026-01-24 11:14:31.18	149.99	9.18	-44.6	-45.9	24.9	6.07e-01	0	43	0	121634816	60	4269
2026-01-24 11:14:35.21	149.98	9.55	-44.6	-45.9	24.9	6.07e-01	0	43	0	128974848	60	4253
2026-01-24 11:14:39.24	149.96	9.92	-44.6	-45.9	24.9	6.04e-01	0	43	0	136839168	60	4270
2026-01-24 11:14:43.28	149.95	10.30	-44.3	-45.5	25.2	6.04e-01	0	43	0	144179200	60	4094
2026-01-24 11:14:47.31	149.93	10.69	-44.3	-45.6	25.4	6.06e-01	0	43	0	151519232	60	4109
2026-01-24 11:14:51.34	149.91	11.08	-44.3	-45.6	25.4	6.04e-01	0	43	0	159383552	60	4109
2026-01-24 11:14:55.38	149.89	11.48	-44.2	-45.4	25.5	6.06e-01	0	43	0	166723584	60	4028
2026-01-24 11:14:59.41	149.87	11.89	-44.2	-45.4	25.5	6.04e-01	0	43	0	174587904	60	4036
2026-01-24 11:15:03.44	149.85	12.30	-44.1	-45.3	25.6	6.05e-01	0	43	0	181927936	59	4207
2026-01-24 11:15:07.48	149.83	12.72	-44.1	-45.3	25.6	6.05e-01	0	43	0	189267968	59	4228
2026-01-24 11:15:11.51	149.80	13.15	-43.9	-45.1	25.9	6.04e-01	0	43	0	197132288	59	4101
2026-01-24 11:15:15.54	149.78	13.59	-44.1	-45.3	25.7	6.05e-01	0	43	0	204472320	59	4211
2026-01-24 11:15:19.57	149.75	14.04	-44.3	-45.5	25.5	6.03e-01	0	43	0	212336640	59	4316
2026-01-24 11:15:23.60	149.72	14.50	-43.9	-45.1	25.9	6.06e-01	0	43	0	219676672	59	4104
2026-01-24 11:15:27.63	149.69	14.97	-44.0	-45.2	25.8	6.05e-01	0	43	0	227016704	59	4172
2026-01-24 11:15:31.67	149.66	15.45	-44.1	-45.3	25.8	6.06e-01	0	43	0	234881024	59	4196
2026-01-24 11:15:35.70	149.63	15.93	-43.8	-45.0	26.0	6.04e-01	0	43	0	242221056	59	4081
2026-01-24 11:15:39.73	149.60	16.43	-43.9	-45.1	26.0	6.07e-01	0	43	0	250085376	59	4107
2026-01-24 11:15:43.76	149.56	16.94	-43.7	-44.9	26.2	6.04e-01	0	43	0	257425408	59	4009
2026-01-24 11:15:47.79	149.53	17.47	-43.8	-44.9	26.2	6.03e-01	0	43	0	265289728	59	4038
2026-01-24 11:15:51.83	149.49	18.00	-43.8	-45.0	26.1	6.06e-01	0	43	0	272629760	59	4069
2026-01-24 11:15:55.86	149.44	18.55	-43.8	-44.9	26.2	6.02e-01	0	43	0	280494080	59	4050
2026-01-24 11:15:59.89	149.40	19.11	-44.0	-45.1	26.1	6.08e-01	0	43	0	287834112	59	4135
2026-01-24 11:16:03.92	149.36	19.69	-44.1	-45.2	26.0	6.06e-01	0	43	0	295174144	59	4180
2026-01-24 11:16:07.95	149.31	20.28	-44.1	-45.3	26.0	6.06e-01	0	43	0	303038464	59	4219
2026-01-24 11:16:11.98	149.26	20.89	-44.4	-45.5	25.7	6.04e-01	0	43	0	310378496	59	4338
2026-01-24 11:16:16.00	149.20	21.51	-44.4	-45.5	25.7	6.04e-01	0	43	0	317718528	59	4339
2026-01-24 11:16:20.03	149.15	22.15	-44.3	-45.5	25.8	6.05e-01	0	43	0	325582848	59	4310
2026-01-24 11:16:24.07	149.09	22.81	-44.3	-45.5	25.8	6.05e-01	0	43	0	332922880	59	4328
2026-01-24 11:16:28.10	149.02	23.49	-44.2	-45.3	26.0	6.06e-01	0	43	0	340787200	59	4229
2026-01-24 11:16:32.13	148.96	24.19	-44.1	-45.2	26.1	6.04e-01	0	43	0	348127232	59	4192
2026-01-24 11:16:36.16	148.88	24.91	-44.1	-45.3	26.1	6.06e-01	0	43	0	355991552	59	4218
2026-01-24 11:16:40.19	148.81	25.65	-44.3	-45.5	25.9	6.03e-01	0	43	0	363331584	59	4295
2026-01-24 11:16:44.23	148.73	26.41	-44.1	-45.3	26.1	6.05e-01	0	43	0	370671616	59	4201
2026-01-24 11:16:48.25	148.65	27.19	-43.7	-44.9	26.5	6.07e-01	0	43	0	378535936	59	4008
2026-01-24 11:16:52.29	148.56	28.01	-43.9	-45.0	26.5	6.05e-01	0	43	0	385875968	59	4070
2026-01-24 11:16:56.32	148.46	28.85	-43.5	-44.7	26.7	6.05e-01	0	43	0	393740288	59	3918
2026-01-24 11:17:00.35	148.36	29.71	-43.7	-44.8	26.6	6.07e-01	0	43	0	401080320	59	3971
2026-01-24 11:17:04.38	148.25	30.61	-43.7	-44.8	26.6	6.05e-01	0	43	0	408944640	59	3979
2026-01-24 11:17:08.41	148.14	31.53	-43.6	-44.7	26.7	6.05e-01	0	43	0	416284672	59	3948
2026-01-24 11:17:12.45	148.01	32.49	-43.9	-45.0	26.6	6.04e-01	0	43	0	424148992	59	4062
2026-01-24 11:17:16.48	147.88	33.48	-43.8	-44.9	26.6	6.06e-01	0	43	0	431489024	59	4030
2026-01-24 11:17:20.51	147.74	34.51	-44.5	-45.7	25.9	6.05e-01	0	43	0	438829056	59	4431
2026-01-24 11:17:24.54	147.58	35.57	-45.1	-46.3	25.5	6.06e-01	0	43	0	446693376	60	4471
2026-01-24 11:17:28.57	147.42	36.67	-45.3	-46.6	25.3	6.04e-01	0	43	0	454033408	61	4344
2026-01-24 11:17:32.61	147.24	37.82	-45.6	-46.9	24.9	6.05e-01	0	43	0	461373440	61	4543
2026-01-24 11:17:36.64	147.05	39.00	-45.8	-47.1	24.9	6.04e-01	0	43	0	469237760	62	4362
2026-01-24 11:17:40.67	146.84	40.23	-45.3	-46.6	25.3	6.06e-01	0	43	0	476577792	62	4114
2026-01-24 11:17:44.70	146.62	41.50	-45.3	-46.5	25.4	6.05e-01	0	43	0	484442112	62	4098
2026-01-24 11:17:48.73	146.37	42.82	-44.4	-45.5	26.3	6.06e-01	0	43	0	491782144	60	4079
2026-01-24 11:17:52.76	146.10	44.20	-44.4	-45.6	26.2	6.06e-01	0	43	0	499646464	60	4108
2026-01-24 11:17:56.79	145.80	45.62	-44.1	-45.2	26.5	6.05e-01	0	43	0	506986496	59	4173
2026-01-24 11:18:00.83	145.48	47.10	-44.1	-45.3	26.4	6.08e-01	0	43	0	514326528	59	4195
2026-01-24 11:18:04.86	145.11	48.63	-44.1	-45.3	26.3	6.04e-01	0	43	0	522190848	59	4206
2026-01-24 11:18:08.89	144.71	50.22	-44.0	-45.1	26.5	6.05e-01	0	43	0	529530880	59	4140
2026-01-24 11:18:12.93	144.26	51.87	-43.7	-44.8	26.9	6.04e-01	0	42	0	537395200	59	3967
2026-01-24 11:18:16.96	143.75	53.58	-43.4	-44.5	27.1	6.04e-01	0	43	0	544735232	58	4072
2026-01-24 11:18:20.99	143.18	55.34	-43.6	-44.7	27.0	6.05e-01	0	43	0	552075264	58	4153
2026-01-24 11:18:25.02	142.53	57.17	-44.5	-45.7	26.0	6.05e-01	0	43	0	559939584	59	4411
2026-01-24 11:18:29.05	141.78	59.05	-44.6	-45.7	26.2	6.05e-01	0	43	0	567279616	60	4181
2026-01-24 11:18:33.08	140.91	60.99	-45.2	-46.5	25.5	6.05e-01	0	43	0	575143936	61	4298
2026-01-24 11:18:37.11	139.88	62.98	-46.0	-47.3	24.8	6.07e-01	0	43	0	582483968	62	4453
2026-01-24 11:18:41.15	138.67	65.03	-46.5	-47.9	24.1	6.06e-01	0	43	0	590348288	64	4279
2026-01-24 11:18:45.18	137.20	67.11	-48.0	-49.6	22.6	6.06e-01	0	43	0	597688320	66	4625
2026-01-24 11:18:49.21	135.40	69.24	-48.2	-49.8	22.3	6.05e-01	0	43	0	605028352	67	4491
2026-01-24 11:18:53.25	133.15	71.40	-47.7	-49.2	22.9	6.07e-01	0	43	0	612892672	67	4185
2026-01-24 11:18:57.28	130.26	73.56	-47.5	-49.1	23.1	6.05e-01	0	43	0	620232704	65	4624
2026-01-24 11:19:01.30	126.46	75.70	-47.5	-49.1	23.2	6.05e-01	0	43	0	628097024	66	4354
2026-01-24 11:19:05.34	121.24	77.81	-46.2	-47.5	24.5	6.03e-01	0	43	0	635437056	64	4079
2026-01-24 11:19:09.37	113.87	79.80	-45.5	-46.7	25.4	6.06e-01	0	43	0	643301376	62	4193
2026-01-24 11:19:13.40	103.12	81.56	-44.8	-45.9	26.2	6.05e-01	0	43	0	650641408	61	4027
2026-01-24 11:19:17.43	87.50	82.89	-45.0	-46.2	26.0	6.05e-01	0	43	0	657981440	61	4163
2026-01-24 11:19:21.47	66.91	83.51	-44.9	-46.1	26.0	6.04e-01	0	43	0	665845760	61	4132
2026-01-24 11:19:25.50	45.36	83.20	-45.3	-46.6	25.5	6.05e-01	0	43	0	673185792	61	4352
2026-01-24 11:19:29.53	27.87	82.08	-45.4	-46.6	25.6	6.06e-01	0	43	0	680525824	61	4365
2026-01-24 11:19:33.56	15.57	80.45	-44.9	-46.0	26.0	6.05e-01	0	43	0	688390144	61	4098
2026-01-24 11:19:37.59	7.18	78.52	-46.1	-47.4	24.9	6.03e-01	0	43	0	695730176	62	4539
2026-01-24 11:19:41.62	1.33	76.46	-47.9	-49.6	22.8	6.05e-01	0	43	0	703594496	66	4606
2026-01-24 11:19:45.65	357.09	74.32	-48.3	-49.9	22.6	6.00e-01	0	43	0	710934528	67	4527
2026-01-24 11:19:49.68	353.92	72.16	-47.7	-49.2	23.1	6.03e-01	0	43	0	718798848	67	4181
2026-01-24 11:19:53.71	351.48	70.01	-48.6	-50.4	21.9	6.04e-01	0	43	0	726138880	69	4248
2026-01-24 11:19:57.74	349.54	67.88	-48.6	-50.4	21.9	6.04e-01	0	43	0	734003200	69	4250
2026-01-24 11:20:01.78	347.96	65.77	-48.0	-49.6	22.6	6.03e-01	0	43	0	741343232	68	4129
2026-01-24 11:20:05.81	346.67	63.72	-46.6	-47.9	24.4	6.02e-01	0	43	0	748683264	65	4029
2026-01-24 11:20:09.84	345.58	61.71	-46.0	-47.2	25.1	6.01e-01	0	43	0	756547584	63	4190
2026-01-24 11:20:13.87	344.66	59.76	-45.6	-46.9	25.4	6.03e-01	0	43	0	763887616	63	4008
2026-01-24 11:20:17.90	343.87	57.86	-44.9	-46.1	26.2	6.02e-01	0	43	0	771751936	61	4116
2026-01-24 11:20:21.93	343.19	56.02	-43.6	-44.7	27.2	6.03e-01	0	43	0	779091968	59	3937
2026-01-24 11:20:25.97	342.59	54.24	-43.2	-44.3	27.5	6.02e-01	0	43	0	786956288	58	3966
2026-01-24 11:20:30.00	342.06	52.52	-43.9	-45.0	27.0	6.03e-01	0	43	0	794296320	58	4310
2026-01-24 11:20:34.03	341.59	50.85	-44.1	-45.2	26.8	6.01e-01	0	43	0	801636352	58	4396
2026-01-24 11:20:38.06	341.17	49.25	-44.5	-45.7	26.2	6.02e-01	0	43	0	809500672	59	4404
2026-01-24 11:20:42.09	340.80	47.70	-44.5	-45.7	26.5	6.02e-01	0	43	0	816840704	60	4155
2026-01-24 11:20:46.13	340.46	46.20	-44.4	-45.5	26.6	6.01e-01	0	43	0	824180736	60	4074
2026-01-24 11:20:50.16	340.15	44.76	-44.1	-45.1	26.8	6.04e-01	0	43	0	832045056	59	4142
2026-01-24 11:20:54.20	339.88	43.37	-44.8	-46.0	26.1	6.03e-01	0	43	0	839385088	60	4332
2026-01-24 11:20:58.23	339.62	42.04	-44.8	-46.0	26.1	6.01e-01	0	43	0	847249408	60	4307
2026-01-24 11:21:02.26	339.39	40.75	-45.3	-46.5	25.6	6.02e-01	0	43	0	854589440	61	4305
2026-01-24 11:21:06.29	339.18	39.51	-45.9	-47.2	24.8	6.02e-01	0	43	0	862453760	62	4402
2026-01-24 11:21:10.33	338.98	38.31	-45.9	-47.2	24.5	6.02e-01	0	43	0	869793792	62	4400
2026-01-24 11:21:14.36	338.80	37.16	-45.4	-46.7	25.4	6.05e-01	0	43	0	877658112	62	4158
2026-01-24 11:21:18.39	338.63	36.04	-44.6	-45.7	26.2	6.02e-01	0	43	0	884998144	61	3941
2026-01-24 11:21:22.43	338.47	34.97	-44.3	-45.4	26.4	6.04e-01	0	43	0	892338176	60	4026
2026-01-24 11:21:26.46	338.33	33.93	-44.1	-45.2	26.7	6.03e-01	0	43	0	900202496	60	3942
2026-01-24 11:21:30.49	338.19	32.93	-43.8	-44.9	26.7	6.02e-01	0	43	0	907542528	59	4044
2026-01-24 11:21:34.52	338.07	31.96	-43.5	-44.6	26.9	6.00e-01	0	43	0	914882560	58	4122
2026-01-24 11:21:38.56	337.95	31.03	-43.3	-44.3	27.3	6.01e-01	0	43	0	922746880	58	3990
2026-01-24 11:21:42.58	337.84	30.13	-43.6	-44.7	27.0	6.04e-01	0	43	0	930086912	58	4155
2026-01-24 11:21:46.62	337.74	29.25	-43.8	-44.9	26.6	6.00e-01	0	43	0	937951232	58	4286
2026-01-24 11:21:50.65	337.64	28.41	-43.9	-45.0	26.4	6.03e-01	0	43	0	945291264	58	4320
2026-01-24 11:21:54.68	337.55	27.59	-43.7	-44.8	26.6	5.98e-01	0	43	0	953155584	58	4221
2026-01-24 11:21:58.72	337.47	26.79	-43.9	-45.0	26.5	6.01e-01	0	43	0	960495616	58	4304
2026-01-24 11:22:02.75	337.39	26.02	-43.8	-44.9	26.6	6.02e-01	0	43	0	968359936	58	4275
2026-01-24 11:22:06.78	337.31	25.28	-44.4	-45.5	26.0	6.03e-01	0	43	0	975699968	59	4334
2026-01-24 11:22:10.81	337.24	24.55	-44.7	-45.9	25.6	6.03e-01	0	43	0	983040000	59	4521
2026-01-24 11:22:14.85	337.17	23.85	-44.5	-45.7	25.7	6.01e-01	0	43	0	990904320	59	4432
2026-01-24 11:22:18.88	337.11	23.17	-44.4	-45.6	25.7	6.02e-01	0	43	0	998244352	59	4375
2026-01-24 11:22:22.91	337.05	22.50	-44.2	-45.4	26.0	6.02e-01	0	43	0	1006108672	59	4260
2026-01-24 11:22:26.95	337.00	21.86	-44.4	-45.5	25.8	6.02e-01	0	43	0	1013448704	59	4336
2026-01-24 11:22:30.98	336.94	21.23	-44.2	-45.4	26.1	6.03e-01	0	43	0	1021313024	59	4253
2026-01-24 11:22:35.01	336.89	20.62	-44.0	-45.2	26.2	6.01e-01	0	43	0	1028653056	59	4164
2026-01-24 11:22:39.05	336.84	20.02	-44.1	-45.3	26.0	6.01e-01	0	43	0	1036517376	59	4219
2026-01-24 11:22:43.08	336.80	19.44	-44.5	-45.7	25.7	6.01e-01	0	43	0	1043857408	59	4429
2026-01-24 11:22:47.11	336.76	18.87	-44.4	-45.6	25.7	6.02e-01	0	44	0	1051197440	59	4368
2026-01-24 11:22:51.15	336.72	18.32	-44.5	-45.7	25.7	6.04e-01	0	43	0	1059061760	59	4417
2026-01-24 11:22:55.18	336.68	17.78	-44.4	-45.6	25.6	6.03e-01	0	43	0	1066401792	59	4356
2026-01-24 11:22:59.21	336.64	17.25	-44.3	-45.5	25.7	6.02e-01	0	43	0	1073741824	59	4338
2026-01-24 11:23:03.25	336.61	16.74	-44.2	-45.4	25.9	6.02e-01	0	43	0	1081606144	59	4248
2026-01-24 11:23:07.28	336.57	16.24	-44.1	-45.3	25.9	5.99e-01	0	43	0	1088946176	59	4195
2026-01-24 11:23:11.31	336.54	15.75	-44.0	-45.2	25.9	6.02e-01	0	43	0	1096810496	59	4170
2026-01-24 11:23:15.35	336.51	15.26	-44.3	-45.5	25.7	6.01e-01	0	43	0	1104150528	59	4293
2026-01-24 11:23:19.38	336.49	14.79	-43.9	-45.1	25.9	6.04e-01	0	43	0	1112014848	59	4124
2026-01-24 11:23:23.41	336.46	14.33	-44.1	-45.3	25.8	6.05e-01	0	43	0	1119354880	59	4203
2026-01-24 11:23:27.44	336.43	13.88	-43.7	-44.9	26.1	6.04e-01	0	43	0	1127219200	59	4009
2026-01-24 11:23:31.47	336.41	13.44	-43.8	-44.9	26.1	6.02e-01	0	43	0	1134559232	59	4050
2026-01-24 11:23:35.50	336.39	13.01	-43.8	-44.9	26.1	6.01e-01	0	43	0	1141899264	59	4025
2026-01-24 11:23:39.53	336.37	12.58	-43.8	-45.0	26.1	6.04e-01	0	43	0	1149763584	59	4060
2026-01-24 11:23:43.57	336.35	12.17	-43.9	-45.1	25.9	6.00e-01	0	43	0	1157103616	59	4116
2026-01-24 11:23:47.60	336.33	11.76	-44.1	-45.2	25.7	6.02e-01	0	43	0	1164443648	59	4187
2026-01-24 11:23:51.63	336.31	11.36	-44.1	-45.3	25.6	6.04e-01	0	43	0	1172307968	59	4207
2026-01-24 11:23:55.66	336.29	10.96	-44.3	-45.5	25.3	6.01e-01	0	43	0	1179648000	59	4325
2026-01-24 11:23:59.70	336.28	10.57	-44.6	-45.9	25.1	6.01e-01	0	43	0	1187512320	60	4272
2026-01-24 11:24:03.73	336.26	10.19	-44.5	-45.8	25.2	6.02e-01	0	43	0	1194852352	60	4197
2026-01-24 11:24:07.76	336.25	9.82	-44.3	-45.5	25.4	6.01e-01	0	43	0	1202716672	60	4095
2026-01-24 11:24:11.79	336.24	9.45	-44.7	-46.0	25.0	6.02e-01	0	43	0	1210056704	60	4325
2026-01-24 11:24:15.83	336.22	9.09	-44.6	-45.9	25.0	6.02e-01	0	43	0	1217396736	60	4247
2026-01-24 11:24:19.86	336.21	8.73	-45.0	-46.3	24.6	6.03e-01	0	43	0	1225261056	60	4487
2026-01-24 11:24:23.89	336.20	8.38	-45.4	-46.8	24.1	6.04e-01	0	43	0	1232601088	61	4456
2026-01-24 11:24:27.92	336.19	8.04	-45.5	-46.9	24.0	6.02e-01	0	43	0	1240465408	62	4252
2026-01-24 11:24:31.95	336.18	7.70	-45.6	-47.0	23.8	6.03e-01	0	43	0	1247805440	62	4315
2026-01-24 11:24:35.99	336.17	7.36	-45.9	-47.3	23.5	6.01e-01	0	43	0	1255669760	62	4489
2026-01-24 11:24:40.02	336.17	7.03	-46.2	-47.7	23.1	6.03e-01	0	43	0	1263009792	63	4435
2026-01-24 11:24:44.05	336.16	6.70	-46.2	-47.7	23.0	6.02e-01	0	43	0	1270874112	63	4430
2026-01-24 11:24:48.08	336.15	6.38	-46.2	-47.8	23.0	6.02e-01	0	43	0	1278214144	63	4444
2026-01-24 11:24:52.11	336.14	6.07	-46.4	-48.0	22.8	6.02e-01	0	43	0	1285554176	63	4559
2026-01-24 11:24:56.14	336.14	5.75	-45.5	-46.9	23.7	6.03e-01	0	43	0	1293418496	62	4282
2026-01-24 11:25:00.18	336.13	5.45	-45.9	-47.4	23.1	6.02e-01	0	43	0	1300758528	62	4513
2026-01-24 11:25:04.21	336.13	5.14	-45.6	-47.1	23.4	6.03e-01	0	43	0	1308098560	62	4361
2026-01-24 11:25:08.24	336.12	4.84	-54.4	-72.2	3.8	7.46e-01	0	43	104	1313341440	79	29462
2026-01-24 11:25:12.27	336.12	4.54	-55.1	-72.9	3.8	7.44e-01	0	43	104	1313341440	80	30144
2026-01-24 11:25:16.30	336.12	4.25	-55.5	-73.3	3.8	7.42e-01	0	43	104	1313341440	81	29838
2026-01-24 11:25:20.34	336.11	3.96	-55.6	-73.4	3.8	7.45e-01	0	43	104	1313341440	81	30304
2026-01-24 11:25:24.37	336.11	3.67	-55.9	-73.7	3.8	7.44e-01	0	43	104	1313341440	82	29495
2026-01-24 11:25:28.40	336.11	3.39	-55.8	-73.6	3.8	7.48e-01	0	43	104	1313341440	82	29259
2026-01-24 11:25:32.44	336.11	3.11	-55.6	-73.4	3.8	7.45e-01	0	43	104	1313341440	82	28579
2026-01-24 11:25:36.47	336.11	2.83	-55.5	-73.3	3.8	7.44e-01	0	44	104	1313341440	82	28286
2026-01-24 11:25:40.51	336.11	2.56	-55.4	-73.2	3.8	7.46e-01	0	43	104	1313341440	82	27882
2026-01-24 11:25:44.55	336.11	2.29	-55.4	-73.2	3.8	7.46e-01	0	43	104	1313341440	82	27846
2026-01-24 11:25:48.58	336.11	2.02	-55.4	-73.3	3.8	7.44e-01	0	43	104	1313341440	82	28061

#Closed at: 2026-01-24 11:25:51
#Recorded file [1313 MB]: D:/lorett/data/31041_260124_141258.dat