passes_logs/2026/01/24/R3.2S_Murmansk/R3.2S_Murmansk__20260124_100005_SUOMI_NPP_rec.log

#Pass ID: 20260124_100005_SUOMI NPP
#Satellite: SUOMI NPP
#Configuration: NPP
#almurnet v.1.7.20251203
#Start time: 2026-01-24 10:00:06

#Version: 2.2.20231116
#Station: R3.2S_Murmansk
#Location: 33.079688 lon 68.888172 lat
#TLE: 1 37849U 11061A   26023.63275593  .00000212  00000+0  12133-3 0  9990
#TLE: 2 37849  98.7820 325.6074 0002234  48.9695 311.1673 14.19528901737937

#Time	Az	El	Level	Level2	SNR	BER	BlckErr	Temp	State	Recorded	gain1	gain2
2026-01-24 10:00:06.70	161.37	2.08	-52.0	-66.9	3.8	1.49e+00	0	41	0	0	74	21413
2026-01-24 10:00:10.60	161.43	2.33	-52.0	-66.9	3.8	1.49e+00	0	41	104	0	74	21347
2026-01-24 10:00:14.50	161.48	2.58	-51.9	-66.9	3.8	1.49e+00	0	42	104	0	74	21370
2026-01-24 10:00:18.41	161.54	2.84	-52.0	-66.8	3.8	1.49e+00	0	42	104	0	74	21178
2026-01-24 10:00:22.32	161.60	3.10	-52.0	-66.9	3.8	1.49e+00	0	42	104	0	74	21288
2026-01-24 10:00:26.23	161.65	3.36	-51.9	-66.9	3.9	1.49e+00	0	42	104	0	74	21273
2026-01-24 10:00:30.14	161.71	3.62	-52.0	-66.8	3.8	1.49e+00	0	42	104	0	74	21180
2026-01-24 10:00:34.05	161.77	3.89	-51.9	-66.4	3.8	1.49e+00	0	42	104	0	74	20289
2026-01-24 10:00:37.97	161.83	4.16	-51.5	-61.2	5.1	8.10e-01	0	42	0	1048576	73	11685
2026-01-24 10:00:41.88	161.89	4.43	-50.3	-55.4	10.3	1.36e-02	0	42	0	8388608	71	6757
2026-01-24 10:00:45.79	161.96	4.70	-48.7	-51.9	13.9	5.30e-06	0	42	0	15728640	69	5072
2026-01-24 10:00:49.70	162.02	4.98	-48.5	-51.5	14.2	0.00e+00	0	42	0	23068672	67	5448
2026-01-24 10:00:53.60	162.08	5.26	-50.6	-56.2	9.5	9.08e-02	0	42	0	30408704	72	7028
2026-01-24 10:00:57.50	162.15	5.54	-47.8	-50.2	15.7	0.00e+00	0	42	0	37748736	67	4690
2026-01-24 10:01:01.40	162.21	5.83	-48.2	-50.9	15.0	0.00e+00	0	42	0	45088768	66	5380
2026-01-24 10:01:05.30	162.28	6.12	-47.6	-49.9	16.1	0.00e+00	0	42	0	52428800	66	4794
2026-01-24 10:01:09.21	162.35	6.41	-47.6	-49.9	16.1	0.00e+00	0	43	0	59768832	66	4807
2026-01-24 10:01:13.11	162.42	6.70	-47.1	-49.2	16.9	0.00e+00	0	43	0	67108864	65	4678
2026-01-24 10:01:16.99	162.49	7.00	-47.6	-49.9	16.2	0.00e+00	0	43	0	74448896	65	5060
2026-01-24 10:01:20.88	162.56	7.30	-47.2	-49.3	16.8	0.00e+00	0	43	0	81788928	65	4718
2026-01-24 10:01:24.78	162.63	7.61	-47.7	-50.0	16.1	0.00e+00	0	43	0	89128960	65	5128
2026-01-24 10:01:28.67	162.71	7.92	-47.0	-49.1	17.1	0.00e+00	0	43	0	96468992	65	4600
2026-01-24 10:01:32.55	162.78	8.23	-46.9	-48.8	17.3	0.00e+00	0	43	0	103809024	64	4745
2026-01-24 10:01:36.43	162.86	8.54	-46.9	-48.8	17.3	0.00e+00	0	43	0	111149056	64	4747
2026-01-24 10:01:40.33	162.94	8.86	-46.3	-48.0	18.1	0.00e+00	0	43	0	118489088	64	4324
2026-01-24 10:01:44.23	163.02	9.19	-46.3	-48.0	18.2	0.00e+00	0	43	0	125829120	63	4596
2026-01-24 10:01:48.12	163.10	9.52	-46.3	-47.9	18.4	0.00e+00	0	43	0	133169152	63	4540
2026-01-24 10:01:52.01	163.18	9.85	-45.7	-47.3	19.0	0.00e+00	0	43	0	140509184	63	4198
2026-01-24 10:01:55.91	163.26	10.19	-45.9	-47.4	18.9	0.00e+00	0	43	0	146800640	62	4535
2026-01-24 10:01:59.80	163.35	10.53	-45.7	-47.2	19.2	0.00e+00	0	43	0	154140672	62	4410
2026-01-24 10:02:03.70	163.43	10.88	-45.8	-47.4	19.0	0.00e+00	0	43	0	161480704	62	4500
2026-01-24 10:02:07.59	163.52	11.23	-45.8	-47.3	19.1	0.00e+00	0	43	0	168820736	62	4479
2026-01-24 10:02:11.48	163.61	11.58	-45.3	-46.8	19.6	0.00e+00	0	43	0	176160768	62	4207
2026-01-24 10:02:15.38	163.71	11.95	-45.2	-46.6	19.8	0.00e+00	0	43	0	183500800	62	4113
2026-01-24 10:02:19.27	163.80	12.31	-45.0	-46.4	20.0	0.00e+00	0	43	0	190840832	61	4255
2026-01-24 10:02:23.16	163.90	12.69	-44.9	-46.2	20.2	0.00e+00	0	43	0	198180864	61	4168
2026-01-24 10:02:27.05	164.00	13.07	-45.0	-46.3	20.1	0.00e+00	0	43	0	205520896	61	4239
2026-01-24 10:02:30.94	164.10	13.45	-44.7	-46.0	20.4	0.00e+00	0	43	0	212860928	61	4087
2026-01-24 10:02:34.82	164.20	13.84	-44.6	-45.8	20.6	0.00e+00	0	43	0	220200960	61	3999
2026-01-24 10:02:38.71	164.31	14.24	-43.6	-45.6	20.8	0.00e+00	0	43	0	227540992	60	4117
2026-01-24 10:02:42.60	164.42	14.64	-44.5	-45.7	20.7	0.00e+00	0	43	0	234881024	60	4181
2026-01-24 10:02:46.49	164.53	15.05	-44.5	-45.7	20.8	0.00e+00	0	43	0	242221056	60	4165
2026-01-24 10:02:50.38	164.64	15.47	-44.2	-45.3	21.1	0.00e+00	0	43	0	249561088	60	3988
2026-01-24 10:02:54.28	164.76	15.89	-44.1	-45.3	21.2	0.00e+00	0	43	0	256901120	60	3966
2026-01-24 10:02:58.16	164.88	16.32	-44.5	-45.7	20.8	0.00e+00	0	43	0	264241152	60	4155
2026-01-24 10:03:02.06	165.00	16.76	-44.3	-45.5	21.0	0.00e+00	0	43	0	271581184	60	4086
2026-01-24 10:03:05.97	165.13	17.21	-44.5	-45.8	20.7	0.00e+00	0	43	0	278921216	60	4197
2026-01-24 10:03:09.90	165.26	17.68	-44.7	-45.9	20.6	0.00e+00	0	43	0	286261248	60	4271
2026-01-24 10:03:13.80	165.39	18.14	-45.0	-46.3	20.2	0.00e+00	0	43	0	293601280	60	4487
2026-01-24 10:03:17.70	165.53	18.62	-45.2	-46.6	20.0	0.00e+00	0	43	0	300941312	61	4359
2026-01-24 10:03:21.61	165.67	19.10	-45.2	-46.5	20.1	0.00e+00	0	43	0	308281344	61	4320
2026-01-24 10:03:25.51	165.81	19.59	-45.6	-47.0	19.7	0.00e+00	0	43	0	315621376	61	4581
2026-01-24 10:03:29.41	165.96	20.10	-46.0	-47.4	19.3	0.00e+00	0	43	0	322961408	62	4537
2026-01-24 10:03:33.30	166.11	20.61	-46.2	-47.7	19.1	0.00e+00	0	43	0	330301440	63	4408
2026-01-24 10:03:37.18	166.27	21.13	-46.1	-47.6	19.1	0.00e+00	0	43	0	336592896	63	4378
2026-01-24 10:03:41.06	166.43	21.66	-46.1	-47.6	19.3	0.00e+00	0	43	0	343932928	63	4343
2026-01-24 10:03:44.95	166.60	22.20	-46.2	-47.7	19.2	0.00e+00	0	43	0	351272960	63	4417
2026-01-24 10:03:48.84	166.77	22.76	-45.9	-47.3	19.4	0.00e+00	0	43	0	358612992	63	4235
2026-01-24 10:03:52.74	166.95	23.33	-45.7	-47.1	19.7	0.00e+00	0	43	0	365953024	63	4133
2026-01-24 10:03:56.64	167.14	23.91	-45.6	-47.0	19.8	0.00e+00	0	43	0	373293056	62	4327
2026-01-24 10:04:00.53	167.33	24.51	-45.6	-46.9	19.9	0.00e+00	0	43	0	380633088	62	4284
2026-01-24 10:04:04.42	167.53	25.11	-45.2	-46.5	20.3	0.00e+00	0	43	0	387973120	62	4082
2026-01-24 10:04:08.33	167.74	25.74	-45.2	-46.5	20.4	0.00e+00	0	43	0	395313152	61	4337
2026-01-24 10:04:12.22	167.95	26.37	-45.3	-46.7	20.2	0.00e+00	0	43	0	402653184	61	4401
2026-01-24 10:04:16.13	168.18	27.03	-45.3	-46.6	20.3	0.00e+00	0	43	0	409993216	61	4358
2026-01-24 10:04:20.04	168.41	27.69	-45.5	-46.8	20.1	0.00e+00	0	43	0	417333248	61	4477
2026-01-24 10:04:23.94	168.65	28.38	-45.7	-47.0	19.9	0.00e+00	0	43	0	424673280	62	4329
2026-01-24 10:04:27.85	168.90	29.08	-46.1	-47.6	19.5	0.00e+00	0	43	0	432013312	63	4374
2026-01-24 10:04:31.76	169.16	29.80	-45.9	-47.3	19.7	0.00e+00	0	43	0	439353344	63	4223
2026-01-24 10:04:35.67	169.44	30.54	-46.1	-47.6	19.5	0.00e+00	0	44	0	446693376	63	4351
2026-01-24 10:04:39.58	169.72	31.29	-46.6	-48.1	18.9	0.00e+00	0	43	0	454033408	64	4391
2026-01-24 10:04:43.49	170.02	32.07	-46.4	-47.9	19.1	0.00e+00	0	43	0	461373440	64	4246
2026-01-24 10:04:47.39	170.33	32.86	-46.8	-48.4	18.8	0.00e+00	0	43	0	468713472	64	4498
2026-01-24 10:04:51.30	170.66	33.68	-46.6	-48.1	19.0	0.00e+00	0	43	0	476053504	64	4382
2026-01-24 10:04:55.22	171.00	34.52	-47.1	-48.8	18.3	0.00e+00	0	43	0	483393536	64	4730
2026-01-24 10:04:59.12	171.36	35.38	-46.8	-48.4	18.7	0.00e+00	0	43	0	490733568	64	4506
2026-01-24 10:05:03.03	171.75	36.26	-46.5	-48.0	19.1	0.00e+00	0	43	0	498073600	64	4334
2026-01-24 10:05:06.93	172.15	37.16	-46.9	-48.5	18.7	0.00e+00	0	43	0	505413632	64	4570
2026-01-24 10:05:10.84	172.57	38.09	-46.0	-47.4	19.8	0.00e+00	0	43	0	512753664	63	4267
2026-01-24 10:05:14.74	173.01	39.04	-46.2	-47.7	19.5	0.00e+00	0	43	0	520093696	64	4146
2026-01-24 10:05:18.64	173.49	40.02	-47.6	-49.5	17.8	0.00e+00	0	43	0	527433728	66	4581
2026-01-24 10:05:22.54	173.99	41.02	-47.9	-49.9	17.4	0.00e+00	0	43	0	534773760	67	4524
2026-01-24 10:05:26.44	174.52	42.05	-46.9	-48.5	18.7	0.00e+00	0	43	0	542113792	65	4327
2026-01-24 10:05:30.33	175.09	43.10	-46.1	-47.5	19.7	0.00e+00	0	43	0	549453824	63	4317
2026-01-24 10:05:34.23	175.69	44.18	-46.5	-47.9	19.4	0.00e+00	0	43	0	556793856	63	4541
2026-01-24 10:05:38.13	176.34	45.29	-47.4	-49.1	18.3	0.00e+00	0	44	0	564133888	65	4629
2026-01-24 10:05:42.03	177.03	46.42	-47.3	-49.0	18.3	0.00e+00	0	43	0	571473920	65	4566
2026-01-24 10:05:45.93	177.77	47.59	-48.4	-50.5	17.0	0.00e+00	0	43	0	578813952	67	4842
2026-01-24 10:05:49.83	178.57	48.78	-48.1	-50.1	17.4	0.00e+00	0	43	0	586153984	68	4355
2026-01-24 10:05:53.73	179.44	49.99	-45.1	-46.4	20.8	0.00e+00	0	43	0	593494016	61	4266
2026-01-24 10:05:57.62	180.37	51.23	-44.2	-45.3	21.8	0.00e+00	0	43	0	600834048	60	3960
2026-01-24 10:06:01.52	181.39	52.50	-43.8	-44.8	22.4	0.00e+00	0	43	0	608174080	59	3999
2026-01-24 10:06:05.45	182.50	53.80	-43.9	-44.9	22.4	0.00e+00	0	43	0	615514112	58	4244
2026-01-24 10:06:09.38	183.72	55.12	-42.8	-43.7	23.4	0.00e+00	0	43	0	622854144	57	3917
2026-01-24 10:06:13.29	185.05	56.46	-43.0	-44.0	23.1	0.00e+00	0	43	0	630194176	56	4305
2026-01-24 10:06:17.20	186.52	57.81	-43.1	-44.1	23.0	0.00e+00	0	43	0	637534208	57	4130
2026-01-24 10:06:21.10	188.13	59.17	-43.2	-44.2	23.0	0.00e+00	0	43	0	644874240	58	3937
2026-01-24 10:06:24.98	189.91	60.53	-42.5	-43.4	23.7	0.00e+00	0	43	0	652214272	56	4020
2026-01-24 10:06:28.88	191.90	61.90	-43.4	-44.4	22.8	0.00e+00	0	43	0	658505728	57	4261
2026-01-24 10:06:32.77	194.12	63.26	-44.3	-45.4	22.0	0.00e+00	0	43	0	665845760	59	4268
2026-01-24 10:06:36.64	196.59	64.60	-43.8	-44.8	22.6	0.00e+00	0	43	0	673185792	58	4203
2026-01-24 10:06:40.54	199.39	65.93	-43.6	-44.6	22.7	0.00e+00	0	43	0	680525824	58	4120
2026-01-24 10:06:44.43	202.54	67.22	-46.1	-47.5	20.0	0.00e+00	0	43	0	687865856	63	4310
2026-01-24 10:06:48.31	206.07	68.46	-46.0	-47.3	20.1	0.00e+00	0	43	0	695205888	62	4463
2026-01-24 10:06:52.19	210.06	69.62	-46.5	-48.0	19.4	0.00e+00	0	43	0	702545920	64	4334
2026-01-24 10:06:56.08	214.56	70.70	-46.4	-47.8	19.7	0.00e+00	0	43	0	709885952	64	4195
2026-01-24 10:06:59.97	219.60	71.66	-47.4	-49.2	18.4	0.00e+00	0	43	0	717225984	65	4660
2026-01-24 10:07:03.85	225.16	72.49	-44.7	-45.8	21.4	0.00e+00	0	43	0	724566016	61	3999
2026-01-24 10:07:07.74	231.26	73.14	-45.6	-46.8	20.7	0.00e+00	0	44	0	731906048	62	4207
2026-01-24 10:07:11.62	237.78	73.61	-45.8	-47.1	20.1	0.00e+00	0	43	0	739246080	62	4381
2026-01-24 10:07:15.50	244.60	73.86	-44.3	-45.4	22.1	0.00e+00	0	43	0	746586112	59	4249
2026-01-24 10:07:19.39	251.56	73.89	-45.2	-46.4	21.1	0.00e+00	0	44	0	753926144	60	4497
2026-01-24 10:07:23.27	258.44	73.70	-43.9	-44.9	22.5	0.00e+00	0	43	0	761266176	59	4045
2026-01-24 10:07:27.17	265.08	73.29	-45.6	-46.9	20.7	0.00e+00	0	43	0	768606208	61	4500
2026-01-24 10:07:31.06	271.30	72.68	-46.8	-48.4	19.2	0.00e+00	0	43	0	775946240	64	4505
2026-01-24 10:07:34.93	276.99	71.90	-47.7	-49.5	18.0	0.00e+00	0	43	0	783286272	66	4551
2026-01-24 10:07:38.81	282.15	70.97	-50.5	-53.7	14.3	0.00e+00	0	44	0	790626304	71	5543
2026-01-24 10:07:42.70	286.79	69.93	-47.5	-49.1	18.4	0.00e+00	0	44	0	797966336	66	4378
2026-01-24 10:07:46.60	290.93	68.78	-48.6	-50.8	17.0	0.00e+00	0	43	0	805306368	67	4984
2026-01-24 10:07:50.48	294.58	67.56	-46.7	-48.2	19.3	0.00e+00	0	44	0	811597824	65	4154
2026-01-24 10:07:54.37	297.82	66.29	-46.0	-47.3	20.2	0.00e+00	0	43	0	818937856	63	4211
2026-01-24 10:07:58.26	300.70	64.97	-43.5	-44.5	22.9	0.00e+00	0	43	0	826277888	58	4071
2026-01-24 10:08:02.15	303.26	63.63	-43.6	-44.6	22.8	0.00e+00	0	43	0	833617920	59	3901
2026-01-24 10:08:06.04	305.54	62.28	-42.4	-43.3	23.8	0.00e+00	0	43	0	840957952	55	4198
2026-01-24 10:08:09.92	307.58	60.92	-43.4	-44.4	23.0	0.00e+00	0	44	0	848297984	58	4016
2026-01-24 10:08:13.82	309.42	59.55	-42.4	-43.3	23.7	0.00e+00	0	44	0	855638016	56	3977
2026-01-24 10:08:17.72	311.08	58.19	-44.6	-45.8	21.5	0.00e+00	0	43	0	862978048	60	4198
2026-01-24 10:08:21.62	312.58	56.84	-42.9	-43.9	23.4	0.00e+00	0	43	0	870318080	57	4020
2026-01-24 10:08:25.52	313.94	55.51	-43.9	-44.9	22.6	0.00e+00	0	43	0	877658112	59	4049
2026-01-24 10:08:29.41	315.17	54.20	-44.4	-45.5	22.1	0.00e+00	0	43	0	884998144	59	4314
2026-01-24 10:08:33.31	316.31	52.91	-44.0	-45.0	22.5	0.00e+00	0	43	0	892338176	59	4061
2026-01-24 10:08:37.23	317.35	51.63	-42.9	-43.8	23.4	0.00e+00	0	43	0	899678208	57	4003
2026-01-24 10:08:41.13	318.31	50.38	-44.6	-45.7	21.5	0.00e+00	0	43	0	907018240	61	3958
2026-01-24 10:08:45.03	319.20	49.17	-46.7	-48.2	19.4	0.00e+00	0	43	0	914358272	63	4692
2026-01-24 10:08:48.93	320.01	47.97	-46.1	-47.5	20.1	0.00e+00	0	43	0	921698304	63	4306
2026-01-24 10:08:52.83	320.77	46.81	-46.8	-48.4	19.1	0.00e+00	0	43	0	929038336	65	4247
2026-01-24 10:08:56.72	321.48	45.67	-46.8	-48.4	19.0	0.00e+00	0	43	0	936378368	65	4248
2026-01-24 10:09:00.61	322.13	44.56	-45.8	-47.1	20.4	0.00e+00	0	43	0	943718400	62	4378
2026-01-24 10:09:04.50	322.75	43.48	-47.7	-49.5	18.1	0.00e+00	0	43	0	951058432	66	4580
2026-01-24 10:09:08.40	323.33	42.42	-46.3	-47.7	19.9	0.00e+00	0	43	0	958398464	63	4393
2026-01-24 10:09:12.29	323.87	41.39	-43.9	-44.9	22.5	0.00e+00	0	43	0	965738496	59	4046
2026-01-24 10:09:16.18	324.38	40.39	-45.5	-46.8	20.6	0.00e+00	0	43	0	973078528	62	4216
2026-01-24 10:09:20.07	324.86	39.41	-44.0	-45.0	22.1	0.00e+00	0	43	0	980418560	60	3865
2026-01-24 10:09:23.96	325.31	38.46	-46.7	-48.2	19.4	0.00e+00	0	44	0	987758592	63	4671
2026-01-24 10:09:27.84	325.74	37.53	-46.0	-47.4	20.0	0.00e+00	0	43	0	995098624	63	4254
2026-01-24 10:09:31.73	326.14	36.62	-44.9	-46.1	21.2	0.00e+00	0	43	0	1002438656	60	4341
2026-01-24 10:09:35.62	326.53	35.74	-45.0	-46.1	21.1	0.00e+00	0	43	0	1009778688	61	4128
2026-01-24 10:09:39.50	326.89	34.89	-46.1	-47.5	19.9	0.00e+00	0	43	0	1016070144	62	4571
2026-01-24 10:09:43.39	327.24	34.05	-48.7	-50.8	16.8	0.00e+00	0	43	0	1023410176	68	4724
2026-01-24 10:09:47.29	327.58	33.23	-47.5	-49.3	18.2	0.00e+00	0	44	0	1030750208	66	4445
2026-01-24 10:09:51.19	327.89	32.43	-46.6	-48.1	19.2	0.00e+00	0	43	0	1038090240	64	4370
2026-01-24 10:09:55.07	328.19	31.66	-46.5	-48.0	19.3	0.00e+00	0	43	0	1045430272	64	4323
2026-01-24 10:09:58.97	328.49	30.90	-46.9	-48.5	18.9	0.00e+00	0	43	0	1052770304	64	4554
2026-01-24 10:10:02.86	328.76	30.16	-46.3	-47.7	19.6	0.00e+00	0	43	0	1060110336	63	4438
2026-01-24 10:10:06.75	329.03	29.44	-46.5	-48.0	19.3	0.00e+00	0	43	0	1067450368	63	4593
2026-01-24 10:10:10.64	329.28	28.74	-46.4	-47.9	19.3	0.00e+00	0	43	0	1074790400	64	4291
2026-01-24 10:10:14.53	329.53	28.05	-46.1	-47.5	19.8	0.00e+00	0	43	0	1082130432	63	4304
2026-01-24 10:10:18.44	329.76	27.38	-44.9	-46.1	21.0	0.00e+00	0	43	0	1089470464	61	4107
2026-01-24 10:10:22.33	329.99	26.73	-44.0	-45.0	22.2	0.00e+00	0	43	0	1096810496	59	4096
2026-01-24 10:10:26.22	330.21	26.09	-44.4	-45.5	21.4	0.00e+00	0	43	0	1104150528	60	4097
2026-01-24 10:10:30.12	330.42	25.46	-46.3	-47.7	19.5	0.00e+00	0	43	0	1111490560	63	4440
2026-01-24 10:10:34.02	330.62	24.85	-45.8	-47.2	20.0	0.00e+00	0	43	0	1118830592	63	4150
2026-01-24 10:10:37.90	330.82	24.26	-44.1	-45.2	21.7	0.00e+00	0	43	0	1126170624	60	3943
2026-01-24 10:10:41.80	331.01	23.67	-44.2	-45.2	21.9	0.00e+00	0	43	0	1133510656	59	4190
2026-01-24 10:10:45.68	331.19	23.10	-44.1	-45.2	21.9	0.00e+00	0	43	0	1140850688	59	4173
2026-01-24 10:10:49.58	331.37	22.54	-44.2	-45.2	21.9	0.00e+00	0	43	0	1148190720	59	4193
2026-01-24 10:10:53.47	331.54	21.99	-44.4	-45.5	21.6	0.00e+00	0	43	0	1155530752	59	4338
2026-01-24 10:10:57.35	331.71	21.46	-44.7	-45.9	21.0	0.00e+00	0	43	0	1162870784	60	4258
2026-01-24 10:11:01.24	331.87	20.93	-45.0	-46.2	20.7	0.00e+00	0	43	0	1170210816	60	4416
2026-01-24 10:11:05.13	332.02	20.42	-44.0	-45.1	21.6	0.00e+00	0	43	0	1177550848	60	3877
2026-01-24 10:11:09.03	332.18	19.91	-43.3	-44.3	22.6	0.00e+00	0	43	0	1184890880	58	3986
2026-01-24 10:11:12.92	332.32	19.42	-42.9	-43.9	22.9	0.00e+00	0	44	0	1191182336	56	4266
2026-01-24 10:11:16.83	332.47	18.93	-43.3	-44.3	22.6	0.00e+00	0	43	0	1198522368	57	4205
2026-01-24 10:11:20.71	332.61	18.46	-43.9	-44.9	22.1	0.00e+00	0	43	0	1205862400	58	4274
2026-01-24 10:11:24.61	332.74	17.99	-44.1	-45.2	21.7	0.00e+00	0	43	0	1213202432	58	4439
2026-01-24 10:11:28.50	332.88	17.53	-44.5	-45.6	21.4	0.00e+00	0	43	0	1220542464	59	4367
2026-01-24 10:11:32.38	333.00	17.09	-44.7	-45.9	20.8	0.00e+00	0	43	0	1227882496	60	4264
2026-01-24 10:11:36.28	333.13	16.64	-44.9	-46.2	20.6	0.00e+00	0	43	0	1235222528	60	4392
2026-01-24 10:11:40.17	333.25	16.21	-44.9	-46.2	20.6	0.00e+00	0	43	0	1242562560	60	4401
2026-01-24 10:11:44.07	333.37	15.78	-44.9	-46.2	20.5	0.00e+00	0	43	0	1249902592	60	4412
2026-01-24 10:11:47.95	333.49	15.36	-45.1	-46.4	20.3	0.00e+00	0	43	0	1257242624	61	4248
2026-01-24 10:11:51.84	333.60	14.95	-45.3	-46.6	20.1	7.00e-07	0	43	0	1264582656	61	4373
2026-01-24 10:11:55.71	333.71	14.55	-45.5	-47.0	19.7	0.00e+00	0	44	0	1271922688	61	4551
2026-01-24 10:11:59.61	333.82	14.15	-46.2	-47.7	19.0	0.00e+00	0	44	0	1279262720	63	4436
2026-01-24 10:12:03.49	333.93	13.76	-46.3	-47.9	18.9	0.00e+00	0	44	0	1286602752	63	4530
2026-01-24 10:12:07.43	334.03	13.37	-46.6	-48.4	18.4	0.00e+00	0	43	0	1293942784	63	4762
2026-01-24 10:12:11.35	334.14	12.98	-46.8	-48.6	18.0	0.00e+00	0	44	0	1301282816	64	4641
2026-01-24 10:12:15.27	334.24	12.61	-46.9	-48.7	17.9	0.00e+00	0	44	0	1308622848	64	4700
2026-01-24 10:12:19.18	334.34	12.24	-46.9	-48.8	17.8	0.00e+00	0	44	0	1315962880	64	4718
2026-01-24 10:12:23.09	334.43	11.87	-46.4	-48.1	18.4	0.00e+00	0	43	0	1323302912	64	4389
2026-01-24 10:12:27.00	334.53	11.51	-46.6	-48.3	18.3	0.00e+00	0	43	0	1330642944	63	4739
2026-01-24 10:12:30.92	334.62	11.16	-46.1	-47.7	18.8	0.00e+00	0	43	0	1337982976	63	4437
2026-01-24 10:12:34.82	334.71	10.81	-45.9	-47.4	19.1	0.00e+00	0	44	0	1345323008	62	4526
2026-01-24 10:12:38.72	334.80	10.47	-45.4	-46.8	19.6	0.00e+00	0	43	0	1352663040	61	4493
2026-01-24 10:12:42.61	334.88	10.13	-45.5	-47.0	19.4	0.00e+00	0	44	0	1360003072	62	4305
2026-01-24 10:12:46.49	334.97	9.80	-45.3	-46.8	19.6	0.00e+00	0	43	0	1367343104	61	4455
2026-01-24 10:12:50.39	335.05	9.47	-45.2	-46.6	19.7	0.00e+00	0	43	0	1374683136	61	4355
2026-01-24 10:12:54.29	335.14	9.14	-45.2	-46.6	19.6	0.00e+00	0	43	0	1382023168	61	4390
2026-01-24 10:12:58.18	335.22	8.82	-44.2	-46.6	19.7	0.00e+00	0	43	0	1389363200	61	4352
2026-01-24 10:13:02.07	335.30	8.50	-45.2	-46.6	19.7	0.00e+00	0	44	0	1396703232	61	4345
2026-01-24 10:13:05.98	335.37	8.19	-45.4	-46.8	19.4	0.00e+00	0	44	0	1404043264	61	4474
2026-01-24 10:13:09.87	335.45	7.88	-45.5	-47.0	19.3	0.00e+00	0	44	0	1411383296	61	4565
2026-01-24 10:13:13.77	335.53	7.57	-45.0	-46.4	19.8	0.00e+00	0	44	0	1417674752	61	4256
2026-01-24 10:13:17.67	335.60	7.27	-45.2	-46.7	19.5	0.00e+00	0	43	0	1425014784	61	4406
2026-01-24 10:13:21.57	335.68	6.97	-45.4	-46.9	19.3	0.00e+00	0	43	0	1432354816	61	4516
2026-01-24 10:13:25.45	335.75	6.68	-45.4	-46.9	19.2	0.00e+00	0	44	0	1439694848	61	4515
2026-01-24 10:13:29.35	335.82	6.39	-45.4	-46.9	19.2	0.00e+00	0	43	0	1447034880	61	4530
2026-01-24 10:13:33.24	335.89	6.10	-45.7	-47.3	18.8	0.00e+00	0	44	0	1454374912	62	4445
2026-01-24 10:13:37.12	335.96	5.81	-45.8	-47.5	18.6	0.00e+00	0	44	0	1461714944	62	4546
2026-01-24 10:13:41.01	336.03	5.53	-45.9	-47.6	18.4	0.00e+00	0	44	0	1469054976	62	4614
2026-01-24 10:13:44.90	336.09	5.25	-46.2	-47.9	18.1	0.00e+00	0	43	0	1476395008	62	4801
2026-01-24 10:13:48.80	336.16	4.98	-52.3	-66.4	3.8	1.69e-02	4	43	0	1483735040	75	19113
2026-01-24 10:13:52.69	336.22	4.70	-53.4	-68.4	3.8	1.49e+00	0	44	104	1483735040	77	21350
2026-01-24 10:13:56.58	336.29	4.43	-53.9	-68.9	3.8	1.49e+00	0	44	104	1483735040	78	21354
2026-01-24 10:14:00.47	336.35	4.16	-54.1	-69.1	3.8	1.49e+00	0	44	104	1483735040	78	21930
2026-01-24 10:14:04.36	336.41	3.90	-54.4	-69.4	3.8	1.49e+00	0	44	104	1483735040	79	21349
2026-01-24 10:14:08.24	336.48	3.64	-54.4	-69.4	3.8	1.49e+00	0	44	104	1483735040	79	21443
2026-01-24 10:14:12.13	336.54	3.38	-54.2	-69.2	3.8	1.49e+00	0	44	104	1483735040	79	20988
2026-01-24 10:14:16.02	336.60	3.12	-54.1	-69.1	3.8	1.49e+00	0	44	104	1483735040	79	20706
2026-01-24 10:14:19.94	336.66	2.86	-54.0	-69.0	3.8	1.49e+00	0	44	104	1483735040	79	20502
2026-01-24 10:14:23.85	336.72	2.61	-53.9	-69.0	3.8	1.49e+00	0	44	104	1483735040	78	21532
2026-01-24 10:14:27.75	336.78	2.36	-53.9	-68.9	3.8	1.49e+00	0	44	104	1483735040	78	21366
2026-01-24 10:14:31.65	336.83	2.11	-53.9	-68.9	3.8	1.49e+00	0	44	104	1483735040	78	21292
2026-01-24 10:14:35.55	336.89	1.86	-53.8	-68.8	3.8	1.49e+00	0	44	104	1483735040	78	21230

#Closed at: 2026-01-24 10:14:35
#Recorded file [1483 MB]: D:/lorett/data/31041_260124_130006.dat