passes_logs/2026/01/24/R3.2S_Murmansk/R3.2S_Murmansk__20260124_024030_FENGYUN_3D_rec.log

#Pass ID: 20260124_024030_FENGYUN 3D
#Satellite: FENGYUN 3D
#Configuration: FENGYUN 3D
#almurnet v.1.7.20251203
#Start time: 2026-01-24 02:40:30

#Version: 2.2.20231116
#Station: R3.2S_Murmansk
#Location: 33.079688 lon 68.888172 lat
#TLE: 1 43010U 17072A   26023.60174628  .00000324  00000+0  17481-3 0  9994
#TLE: 2 43010  98.9958 355.5514 0002482  93.7422 266.4037 14.19699955424476

#Time	Az	El	Level	Level2	SNR	BER	BlckErr	Temp	State	Recorded	gain1	gain2
2026-01-24 02:40:30.36	24.71	2.01	-53.4	-65.3	3.8	8.46e-01	0	41	0	0	77	14990
2026-01-24 02:40:34.39	24.74	2.26	-53.4	-65.3	3.8	8.47e-01	0	41	104	0	77	15042
2026-01-24 02:40:38.43	24.77	2.53	-53.4	-65.3	3.8	8.47e-01	0	41	104	0	77	15015
2026-01-24 02:40:42.46	24.80	2.79	-53.3	-65.3	3.8	8.46e-01	0	42	104	0	77	15024
2026-01-24 02:40:46.49	24.83	3.05	-53.4	-65.3	3.8	8.45e-01	0	41	104	0	77	15005
2026-01-24 02:40:50.52	24.86	3.32	-53.4	-65.3	3.8	8.46e-01	0	42	104	0	77	15033
2026-01-24 02:40:54.55	24.89	3.59	-53.4	-65.3	3.8	8.45e-01	0	42	104	0	77	15047
2026-01-24 02:40:58.59	24.92	3.87	-53.4	-65.4	3.8	8.46e-01	0	42	104	0	77	15077
2026-01-24 02:41:02.62	24.95	4.14	-53.4	-65.3	3.8	8.45e-01	0	42	104	0	77	15025
2026-01-24 02:41:06.65	24.98	4.42	-53.4	-65.3	3.8	8.47e-01	0	42	104	0	77	15043
2026-01-24 02:41:10.68	25.01	4.70	-53.4	-65.3	3.8	8.46e-01	0	42	104	0	77	15014
2026-01-24 02:41:14.71	25.04	4.99	-53.4	-65.4	3.8	8.46e-01	0	42	104	0	77	15074
2026-01-24 02:41:18.74	25.08	5.28	-53.4	-65.3	3.8	8.46e-01	0	42	104	0	77	15038
2026-01-24 02:41:22.77	25.11	5.57	-53.4	-65.3	3.8	8.47e-01	0	42	104	0	77	15017
2026-01-24 02:41:26.80	25.14	5.86	-53.4	-65.3	3.8	8.45e-01	0	42	104	0	77	15027
2026-01-24 02:41:30.84	25.17	6.16	-53.4	-65.3	3.8	8.47e-01	0	42	104	0	77	14999
2026-01-24 02:41:34.88	25.21	6.46	-53.4	-65.3	3.8	8.47e-01	0	42	104	0	77	15046
2026-01-24 02:41:38.91	25.24	6.77	-53.4	-65.3	3.8	8.45e-01	0	42	104	0	77	15035
2026-01-24 02:41:42.94	25.27	7.08	-53.4	-65.3	3.8	8.46e-01	0	43	104	0	77	15009
2026-01-24 02:41:46.97	25.31	7.39	-53.4	-65.3	3.8	8.46e-01	0	43	104	0	77	15005
2026-01-24 02:41:51.01	25.34	7.71	-53.4	-65.3	3.8	8.46e-01	0	43	104	0	77	14992
2026-01-24 02:41:55.04	25.38	8.03	-53.4	-65.3	3.8	8.45e-01	0	43	104	0	77	15018
2026-01-24 02:41:59.07	25.41	8.35	-53.4	-65.3	3.8	8.46e-01	0	43	104	0	77	14996
2026-01-24 02:42:03.10	25.45	8.68	-53.4	-65.3	3.8	8.45e-01	0	43	104	0	77	15002
2026-01-24 02:42:07.14	25.49	9.01	-53.4	-65.3	3.8	8.46e-01	0	43	104	0	77	15000
2026-01-24 02:42:11.18	25.52	9.35	-53.4	-65.3	3.8	8.47e-01	0	43	104	0	77	15002
2026-01-24 02:42:15.21	25.56	9.69	-53.4	-65.4	3.8	8.46e-01	0	43	104	0	77	15060
2026-01-24 02:42:19.25	25.60	10.04	-53.4	-65.3	3.8	8.45e-01	0	43	104	0	77	15017
2026-01-24 02:42:23.28	25.63	10.39	-53.4	-65.3	3.8	8.46e-01	0	43	104	0	77	15013
2026-01-24 02:42:27.32	25.67	10.75	-53.4	-65.3	3.8	8.45e-01	0	43	104	0	77	14985
2026-01-24 02:42:31.35	25.71	11.11	-53.4	-65.3	3.8	8.46e-01	0	43	104	0	77	15038
2026-01-24 02:42:35.39	25.75	11.48	-53.4	-65.3	3.8	8.46e-01	0	43	104	0	77	15022
2026-01-24 02:42:39.42	25.79	11.85	-53.4	-65.3	3.8	8.46e-01	0	43	104	0	77	15044
2026-01-24 02:42:43.45	25.83	12.23	-53.4	-65.3	3.8	8.46e-01	0	43	104	0	77	15019
2026-01-24 02:42:47.48	25.87	12.62	-53.4	-65.3	3.8	8.46e-01	0	43	104	0	77	15027
2026-01-24 02:42:51.51	25.92	13.01	-53.4	-65.3	3.8	8.46e-01	0	43	104	0	77	15025
2026-01-24 02:42:55.55	25.96	13.41	-53.4	-65.3	3.8	8.46e-01	0	43	104	0	77	15037
2026-01-24 02:42:59.58	26.00	13.81	-53.4	-65.3	3.8	8.45e-01	0	43	104	0	77	15016
2026-01-24 02:43:03.61	26.05	14.22	-53.4	-65.3	3.8	8.48e-01	0	43	104	0	77	15006
2026-01-24 02:43:07.65	26.09	14.64	-53.4	-65.4	3.8	8.46e-01	0	43	104	0	77	15062
2026-01-24 02:43:11.68	26.14	15.07	-53.4	-65.3	3.8	8.46e-01	0	43	104	0	77	14970
2026-01-24 02:43:15.72	26.18	15.50	-53.4	-65.4	3.8	8.45e-01	0	43	104	0	77	15062
2026-01-24 02:43:19.76	26.23	15.94	-53.4	-65.3	3.8	8.46e-01	0	43	104	0	77	15018
2026-01-24 02:43:23.79	26.28	16.39	-53.4	-65.3	3.8	8.47e-01	0	43	104	0	77	14992
2026-01-24 02:43:27.83	26.33	16.85	-53.4	-65.3	3.8	8.46e-01	0	43	104	0	77	15016
2026-01-24 02:43:31.86	26.38	17.32	-53.4	-65.4	3.8	8.47e-01	0	43	104	0	77	15079
2026-01-24 02:43:35.89	26.43	17.79	-53.4	-65.3	3.8	8.47e-01	0	43	104	0	77	15008
2026-01-24 02:43:39.92	26.48	18.28	-53.4	-65.4	3.8	8.47e-01	0	43	104	0	77	15098
2026-01-24 02:43:43.96	26.53	18.77	-53.4	-65.4	3.8	8.47e-01	0	43	104	0	77	15082
2026-01-24 02:43:47.99	26.59	19.28	-53.4	-65.4	3.8	8.46e-01	0	43	104	0	77	15135
2026-01-24 02:43:52.03	26.64	19.79	-53.4	-65.4	3.8	8.46e-01	0	43	104	0	77	15084
2026-01-24 02:43:56.06	26.70	20.32	-53.4	-65.3	3.8	8.47e-01	0	43	104	0	77	15042
2026-01-24 02:44:00.09	26.76	20.86	-53.4	-65.4	3.8	8.46e-01	0	43	104	0	77	15081
2026-01-24 02:44:04.12	26.82	21.40	-53.4	-65.4	3.8	8.45e-01	0	43	104	0	77	15097
2026-01-24 02:44:08.15	26.88	21.97	-53.4	-65.4	3.8	8.46e-01	0	43	104	0	77	15069
2026-01-24 02:44:12.19	26.94	22.54	-53.4	-65.3	3.8	8.44e-01	0	43	104	0	77	15032
2026-01-24 02:44:16.22	27.01	23.13	-53.4	-65.3	3.8	8.47e-01	0	43	104	0	77	15045
2026-01-24 02:44:20.25	27.08	23.73	-53.4	-65.3	3.8	8.47e-01	0	43	104	0	77	15017
2026-01-24 02:44:24.28	27.14	24.34	-53.4	-65.4	3.8	8.47e-01	0	43	104	0	77	15088
2026-01-24 02:44:28.31	27.21	24.97	-53.4	-65.4	3.8	8.45e-01	0	43	104	0	77	15074
2026-01-24 02:44:32.35	27.29	25.62	-53.4	-65.3	3.8	8.45e-01	0	43	104	0	77	15011
2026-01-24 02:44:36.38	27.36	26.28	-53.4	-65.3	3.8	8.47e-01	0	43	104	0	77	15039
2026-01-24 02:44:40.42	27.44	26.96	-53.4	-65.3	3.8	8.46e-01	0	43	104	0	77	15015
2026-01-24 02:44:44.45	27.52	27.66	-53.4	-65.4	3.8	8.45e-01	0	43	104	0	77	15067
2026-01-24 02:44:48.49	27.61	28.37	-53.4	-65.4	3.8	8.46e-01	0	43	104	0	77	15084
2026-01-24 02:44:52.52	27.69	29.11	-53.4	-65.3	3.8	8.46e-01	0	43	104	0	77	15044
2026-01-24 02:44:56.55	27.78	29.86	-53.4	-65.4	3.8	8.46e-01	0	43	104	0	77	15052
2026-01-24 02:45:00.58	27.88	30.63	-53.4	-65.3	3.8	8.47e-01	0	43	104	0	77	15027
2026-01-24 02:45:04.61	27.97	31.43	-53.4	-65.3	3.8	8.47e-01	0	43	104	0	77	14985
2026-01-24 02:45:08.65	28.07	32.24	-53.4	-65.3	3.8	8.46e-01	0	43	104	0	77	15033
2026-01-24 02:45:12.68	28.18	33.08	-53.4	-65.4	3.8	8.46e-01	0	43	104	0	77	15058
2026-01-24 02:45:16.72	28.29	33.95	-53.4	-65.3	3.8	8.46e-01	0	43	104	0	77	15015
2026-01-24 02:45:20.75	28.41	34.84	-53.4	-65.3	3.8	8.46e-01	0	43	104	0	77	14970
2026-01-24 02:45:24.78	28.53	35.75	-53.4	-65.3	3.8	8.46e-01	0	43	104	0	77	14951
2026-01-24 02:45:28.82	28.65	36.69	-53.4	-65.3	3.8	8.47e-01	0	43	104	0	77	14966
2026-01-24 02:45:32.86	28.79	37.66	-53.4	-65.3	3.8	8.47e-01	0	44	104	0	77	15038
2026-01-24 02:45:36.89	28.93	38.66	-53.4	-65.3	3.8	8.45e-01	0	43	104	0	77	15032
2026-01-24 02:45:40.92	29.08	39.69	-53.4	-65.3	3.8	8.47e-01	0	43	104	0	77	14959
2026-01-24 02:45:44.96	29.24	40.75	-53.4	-65.3	3.8	8.46e-01	0	43	104	0	77	14991
2026-01-24 02:45:48.98	29.41	41.84	-53.4	-65.3	3.8	8.45e-01	0	43	104	0	77	14998
2026-01-24 02:45:53.02	29.59	42.96	-53.4	-65.3	3.8	8.46e-01	0	43	104	0	77	14990
2026-01-24 02:45:57.05	29.78	44.12	-53.4	-65.3	3.8	8.45e-01	0	43	104	0	77	15019
2026-01-24 02:46:01.05	29.98	45.31	-53.4	-65.3	3.8	8.47e-01	0	43	104	0	77	14946
2026-01-24 02:46:05.09	30.20	46.54	-53.4	-65.3	3.8	8.46e-01	0	43	104	0	77	14991
2026-01-24 02:46:09.12	30.43	47.81	-53.4	-65.3	3.8	8.46e-01	0	43	104	0	77	14971
2026-01-24 02:46:13.16	30.69	49.11	-53.4	-65.2	3.8	8.46e-01	0	43	104	0	77	14869
2026-01-24 02:46:17.19	30.96	50.46	-53.4	-65.3	3.8	8.46e-01	0	43	104	0	77	14976
2026-01-24 02:46:21.22	31.26	51.84	-53.4	-65.3	3.8	8.48e-01	0	43	104	0	77	14967
2026-01-24 02:46:25.25	31.59	53.27	-53.4	-65.3	3.8	8.46e-01	0	43	104	0	77	14907
2026-01-24 02:46:29.29	31.96	54.74	-53.4	-65.3	3.8	8.46e-01	0	43	104	0	77	15001
2026-01-24 02:46:33.32	32.35	56.24	-53.4	-65.3	3.8	8.46e-01	0	43	104	0	77	14961
2026-01-24 02:46:37.36	32.80	57.79	-53.4	-65.3	3.8	8.46e-01	0	43	104	0	77	15039
2026-01-24 02:46:41.39	33.30	59.38	-53.4	-65.3	3.8	8.46e-01	0	43	104	0	77	14932
2026-01-24 02:46:45.42	33.86	61.01	-53.4	-65.3	3.8	8.46e-01	0	43	104	0	77	14953
2026-01-24 02:46:49.45	34.49	62.68	-53.4	-65.3	3.8	8.46e-01	0	43	104	0	77	14963
2026-01-24 02:46:53.49	35.22	64.39	-53.4	-65.3	3.8	8.46e-01	0	43	104	0	77	14896
2026-01-24 02:46:57.52	36.07	66.13	-53.4	-65.2	3.8	8.45e-01	0	43	104	0	77	14878
2026-01-24 02:47:01.56	37.07	67.91	-53.4	-65.1	3.8	8.48e-01	0	43	104	0	77	14699
2026-01-24 02:47:05.58	38.24	69.71	-53.3	-65.2	3.8	8.46e-01	0	43	104	0	77	14725
2026-01-24 02:47:09.62	39.68	71.54	-53.4	-65.3	3.8	8.46e-01	0	43	104	0	77	14980
2026-01-24 02:47:13.66	41.45	73.40	-53.4	-65.3	3.8	8.45e-01	0	43	104	0	77	14911
2026-01-24 02:47:17.69	43.67	75.26	-53.4	-65.3	3.8	8.47e-01	0	43	104	0	77	15009
2026-01-24 02:47:21.72	46.57	77.12	-53.4	-65.3	3.8	8.46e-01	0	43	104	0	77	14934
2026-01-24 02:47:25.76	50.47	78.96	-53.4	-65.3	3.8	8.46e-01	0	43	104	0	77	15030
2026-01-24 02:47:29.79	55.93	80.75	-53.4	-65.3	3.8	8.47e-01	0	43	104	0	77	14995
2026-01-24 02:47:33.83	63.96	82.43	-53.4	-65.2	3.8	8.48e-01	0	43	104	0	77	14779
2026-01-24 02:47:37.86	76.21	83.90	-53.4	-65.3	3.8	8.46e-01	0	43	104	0	77	14926
2026-01-24 02:47:41.89	94.74	84.94	-53.3	-65.1	3.8	8.46e-01	0	43	104	0	77	14551
2026-01-24 02:47:45.92	118.86	85.25	-53.2	-64.0	3.8	8.47e-01	0	43	104	0	77	12920
2026-01-24 02:47:49.95	141.86	84.71	-53.3	-65.1	3.8	8.46e-01	0	43	104	0	77	14595
2026-01-24 02:47:53.99	158.51	83.52	-53.3	-65.0	3.8	8.47e-01	0	43	104	0	77	14524
2026-01-24 02:47:58.02	169.35	81.97	-53.3	-65.1	3.8	8.45e-01	0	43	104	0	77	14628
2026-01-24 02:48:02.05	176.52	80.25	-53.4	-65.2	3.8	8.46e-01	0	43	104	0	77	14857
2026-01-24 02:48:06.08	181.46	78.44	-53.4	-65.3	3.8	8.47e-01	0	43	104	0	77	14924
2026-01-24 02:48:10.11	185.03	76.60	-53.4	-65.3	3.8	8.48e-01	0	43	104	0	77	14981
2026-01-24 02:48:14.15	187.72	74.73	-53.4	-65.3	3.8	8.46e-01	0	43	104	0	77	14937
2026-01-24 02:48:18.18	189.80	72.87	-53.4	-65.3	3.8	8.46e-01	0	43	104	0	77	15040
2026-01-24 02:48:22.21	191.46	71.02	-53.4	-65.3	3.8	8.47e-01	0	43	104	0	77	15011
2026-01-24 02:48:26.24	192.82	69.19	-53.4	-65.3	3.8	8.46e-01	0	43	104	0	77	14911
2026-01-24 02:48:30.28	193.94	67.39	-53.4	-65.2	3.8	8.46e-01	0	43	104	0	77	14875
2026-01-24 02:48:34.31	194.89	65.62	-53.3	-65.2	3.8	8.46e-01	0	43	104	0	77	14769
2026-01-24 02:48:38.35	195.70	63.88	-53.4	-65.2	3.8	8.47e-01	0	43	104	0	77	14831
2026-01-24 02:48:42.38	196.40	62.18	-53.4	-65.3	3.8	8.45e-01	0	43	104	0	77	14902
2026-01-24 02:48:46.41	197.02	60.52	-53.4	-65.3	3.8	8.46e-01	0	43	104	0	77	14884
2026-01-24 02:48:50.44	197.56	58.90	-53.4	-65.3	3.8	8.46e-01	0	43	104	0	77	14940
2026-01-24 02:48:54.48	198.04	57.32	-53.4	-65.3	3.8	8.46e-01	0	43	104	0	77	14996
2026-01-24 02:48:58.51	198.47	55.78	-53.4	-65.3	3.8	8.45e-01	0	43	104	0	77	14980
2026-01-24 02:49:02.54	198.86	54.28	-53.4	-65.3	3.8	8.47e-01	0	44	104	0	77	14933
2026-01-24 02:49:06.58	199.21	52.82	-53.4	-65.3	3.8	8.44e-01	0	43	104	0	77	14956
2026-01-24 02:49:10.61	199.53	51.40	-53.4	-65.3	3.8	8.47e-01	0	43	104	0	77	15012
2026-01-24 02:49:14.65	199.82	50.02	-53.4	-65.3	3.8	8.47e-01	0	43	104	0	77	15012
2026-01-24 02:49:18.68	200.09	48.69	-53.4	-65.3	3.8	8.47e-01	0	43	104	0	77	14948
2026-01-24 02:49:22.72	200.34	47.39	-53.4	-65.3	3.8	8.46e-01	0	43	104	0	77	14980
2026-01-24 02:49:26.75	200.57	46.13	-53.4	-65.3	3.8	8.46e-01	0	43	104	0	77	14949
2026-01-24 02:49:30.78	200.78	44.90	-53.3	-65.2	3.8	8.46e-01	0	43	104	0	77	14847
2026-01-24 02:49:34.82	200.98	43.72	-53.4	-65.3	3.8	8.47e-01	0	43	104	0	77	14986
2026-01-24 02:49:38.85	201.17	42.56	-53.4	-65.3	3.8	8.47e-01	0	43	104	0	77	14952
2026-01-24 02:49:42.88	201.34	41.45	-53.4	-65.3	3.8	8.46e-01	0	43	104	0	77	14979
2026-01-24 02:49:46.92	201.51	40.36	-53.4	-65.3	3.8	8.46e-01	0	43	104	0	77	14958
2026-01-24 02:49:50.95	201.66	39.31	-53.4	-65.3	3.8	8.46e-01	0	43	104	0	77	14890
2026-01-24 02:49:54.98	201.81	38.29	-53.3	-65.3	3.8	8.46e-01	0	43	104	0	77	14907
2026-01-24 02:49:59.02	201.95	37.29	-53.4	-65.3	3.8	8.46e-01	0	44	104	0	77	14991
2026-01-24 02:50:03.05	202.08	36.33	-53.4	-65.3	3.8	8.47e-01	0	43	104	0	77	15013
2026-01-24 02:50:07.08	202.20	35.40	-53.4	-65.3	3.8	8.47e-01	0	44	104	0	77	14987
2026-01-24 02:50:11.11	202.32	34.49	-53.4	-65.3	3.8	8.47e-01	0	44	104	0	77	14972
2026-01-24 02:50:15.15	202.44	33.60	-53.4	-65.3	3.8	8.46e-01	0	44	104	0	77	15009
2026-01-24 02:50:19.18	202.54	32.75	-53.4	-65.3	3.8	8.46e-01	0	44	104	0	77	15011
2026-01-24 02:50:23.21	202.65	31.91	-53.4	-65.3	3.8	8.47e-01	0	44	104	0	77	14976
2026-01-24 02:50:27.24	202.75	31.10	-53.4	-65.3	3.8	8.44e-01	0	44	104	0	77	15024
2026-01-24 02:50:31.27	202.84	30.31	-53.4	-65.3	3.8	8.45e-01	0	43	104	0	77	14992
2026-01-24 02:50:35.30	202.93	29.54	-53.4	-65.3	3.8	8.46e-01	0	44	104	0	77	14983
2026-01-24 02:50:39.33	203.02	28.79	-53.4	-65.3	3.8	8.47e-01	0	44	104	0	77	14980
2026-01-24 02:50:43.36	203.10	28.06	-53.4	-65.3	3.8	8.46e-01	0	44	104	0	77	14994
2026-01-24 02:50:47.40	203.18	27.35	-53.3	-65.3	3.8	8.46e-01	0	43	104	0	77	14996
2026-01-24 02:50:51.43	203.26	26.66	-53.4	-65.3	3.8	8.46e-01	0	43	104	0	77	14976
2026-01-24 02:50:55.47	203.34	25.98	-53.4	-65.3	3.8	8.46e-01	0	44	104	0	77	14996
2026-01-24 02:50:59.50	203.41	25.33	-53.4	-65.3	3.8	8.46e-01	0	43	104	0	77	14996
2026-01-24 02:51:03.53	203.48	24.68	-53.4	-65.3	3.8	8.46e-01	0	44	104	0	77	14950
2026-01-24 02:51:07.56	203.55	24.06	-53.4	-65.3	3.8	8.45e-01	0	43	104	0	77	14991
2026-01-24 02:51:11.59	203.62	23.44	-53.4	-65.3	3.8	8.45e-01	0	44	104	0	77	15013
2026-01-24 02:51:15.62	203.68	22.85	-53.4	-65.3	3.8	8.47e-01	0	43	104	0	77	14994
2026-01-24 02:51:19.66	203.75	22.26	-53.4	-65.3	3.8	8.45e-01	0	44	104	0	77	14966
2026-01-24 02:51:23.69	203.81	21.69	-53.4	-65.3	3.8	8.47e-01	0	43	104	0	77	14987
2026-01-24 02:51:27.72	203.87	21.13	-53.4	-65.3	3.8	8.46e-01	0	43	104	0	77	14996
2026-01-24 02:51:31.75	203.92	20.58	-53.4	-65.3	3.8	8.46e-01	0	43	104	0	77	15020
2026-01-24 02:51:35.78	203.98	20.05	-53.4	-65.3	3.8	8.47e-01	0	44	104	0	77	15010
2026-01-24 02:51:39.81	204.04	19.52	-53.4	-65.3	3.8	8.46e-01	0	43	104	0	77	15009
2026-01-24 02:51:43.85	204.09	19.01	-53.4	-65.3	3.8	8.44e-01	0	43	104	0	77	15019
2026-01-24 02:51:47.87	204.14	18.51	-53.4	-65.3	3.8	8.46e-01	0	43	104	0	77	15038
2026-01-24 02:51:51.91	204.19	18.01	-53.4	-65.3	3.8	8.46e-01	0	44	104	0	77	14979
2026-01-24 02:51:55.94	204.24	17.53	-53.4	-65.3	3.8	8.45e-01	0	44	104	0	77	15034
2026-01-24 02:51:59.98	204.29	17.06	-53.4	-65.3	3.8	8.46e-01	0	43	104	0	77	14993
2026-01-24 02:52:04.01	204.34	16.59	-53.4	-65.3	3.8	8.45e-01	0	43	104	0	77	15019
2026-01-24 02:52:08.04	204.39	16.13	-53.4	-65.3	3.8	8.45e-01	0	43	104	0	77	15012
2026-01-24 02:52:12.07	204.43	15.69	-53.4	-65.3	3.8	8.46e-01	0	43	104	0	77	15036
2026-01-24 02:52:16.11	204.48	15.25	-53.4	-65.3	3.8	8.45e-01	0	43	104	0	77	15032
2026-01-24 02:52:20.14	204.52	14.82	-53.3	-65.3	3.8	8.47e-01	0	43	104	0	77	14971
2026-01-24 02:52:24.17	204.56	14.39	-53.4	-65.3	3.8	8.46e-01	0	44	104	0	77	15009
2026-01-24 02:52:28.22	204.61	13.97	-53.4	-65.3	3.8	8.46e-01	0	43	104	0	77	14993
2026-01-24 02:52:32.25	204.65	13.56	-53.4	-65.3	3.8	8.48e-01	0	43	104	0	77	14978
2026-01-24 02:52:36.28	204.69	13.16	-53.3	-65.3	3.8	8.46e-01	0	43	104	0	77	15015
2026-01-24 02:52:40.31	204.73	12.76	-53.4	-65.3	3.8	8.46e-01	0	43	104	0	77	15004
2026-01-24 02:52:44.34	204.77	12.37	-53.3	-65.3	3.8	8.46e-01	0	43	104	0	77	14961
2026-01-24 02:52:48.38	204.81	11.99	-53.4	-65.3	3.8	8.47e-01	0	43	104	0	77	14998
2026-01-24 02:52:52.41	204.84	11.61	-53.3	-65.3	3.8	8.46e-01	0	43	104	0	77	15015
2026-01-24 02:52:56.45	204.88	11.24	-53.4	-65.3	3.8	8.47e-01	0	43	104	0	77	15019
2026-01-24 02:53:00.48	204.92	10.87	-53.3	-65.3	3.8	8.48e-01	0	43	104	0	77	14989
2026-01-24 02:53:04.52	204.96	10.51	-53.4	-65.3	3.8	8.45e-01	0	43	104	0	77	15002
2026-01-24 02:53:08.55	204.99	10.15	-53.3	-65.3	3.8	8.47e-01	0	44	104	0	77	14991
2026-01-24 02:53:12.59	205.03	9.80	-53.4	-65.3	3.8	8.47e-01	0	43	104	0	77	15032
2026-01-24 02:53:16.62	205.06	9.46	-53.4	-65.3	3.8	8.46e-01	0	44	104	0	77	14999
2026-01-24 02:53:20.65	205.10	9.11	-53.4	-65.3	3.8	8.47e-01	0	43	104	0	77	14997
2026-01-24 02:53:24.69	205.13	8.78	-53.4	-65.3	3.8	8.46e-01	0	43	104	0	77	15022
2026-01-24 02:53:28.72	205.16	8.44	-53.4	-65.3	3.8	8.45e-01	0	43	104	0	77	15008
2026-01-24 02:53:32.76	205.20	8.12	-53.4	-65.3	3.8	8.45e-01	0	43	104	0	77	15001
2026-01-24 02:53:36.79	205.23	7.79	-53.4	-65.3	3.8	8.45e-01	0	43	104	0	77	15018
2026-01-24 02:53:40.83	205.26	7.47	-53.4	-65.3	3.8	8.45e-01	0	43	104	0	77	15031
2026-01-24 02:53:44.86	205.29	7.16	-53.4	-65.3	3.8	8.47e-01	0	43	104	0	77	15010
2026-01-24 02:53:48.89	205.32	6.84	-53.4	-65.4	3.8	8.46e-01	0	43	104	0	77	15053
2026-01-24 02:53:52.92	205.36	6.54	-53.4	-65.3	3.8	8.47e-01	0	44	104	0	77	15019
2026-01-24 02:53:56.95	205.39	6.23	-53.4	-65.3	3.8	8.46e-01	0	44	104	0	77	14987
2026-01-24 02:54:00.98	205.42	5.93	-53.4	-65.3	3.8	8.47e-01	0	43	104	0	77	15023
2026-01-24 02:54:05.02	205.45	5.63	-53.4	-65.3	3.8	8.46e-01	0	44	104	0	77	15019
2026-01-24 02:54:09.06	205.48	5.34	-53.4	-65.3	3.8	8.46e-01	0	43	104	0	77	15041
2026-01-24 02:54:13.09	205.51	5.05	-53.4	-65.3	3.8	8.46e-01	0	44	104	0	77	15003
2026-01-24 02:54:17.13	205.53	4.76	-53.4	-65.3	3.8	8.46e-01	0	44	104	0	77	14975
2026-01-24 02:54:21.16	205.56	4.48	-53.4	-65.3	3.8	8.46e-01	0	44	104	0	77	15028
2026-01-24 02:54:25.19	205.59	4.19	-53.4	-65.3	3.8	8.46e-01	0	43	104	0	77	15048
2026-01-24 02:54:29.23	205.62	3.91	-53.4	-65.3	3.8	8.45e-01	0	44	104	0	77	15007
2026-01-24 02:54:33.26	205.65	3.64	-53.4	-65.3	3.8	8.46e-01	0	44	104	0	77	15002
2026-01-24 02:54:37.29	205.67	3.37	-53.4	-65.3	3.8	8.46e-01	0	44	104	0	77	14997
2026-01-24 02:54:41.33	205.70	3.10	-53.4	-65.3	3.8	8.46e-01	0	44	104	0	77	14989
2026-01-24 02:54:45.36	205.73	2.83	-53.4	-65.3	3.8	8.46e-01	0	43	104	0	77	14997
2026-01-24 02:54:49.39	205.76	2.56	-53.4	-65.3	3.8	8.46e-01	0	43	104	0	77	14992
2026-01-24 02:54:53.43	205.78	2.30	-53.4	-65.3	3.8	8.45e-01	0	43	104	0	77	14976
2026-01-24 02:54:57.46	205.81	2.04	-53.4	-65.3	3.8	8.47e-01	0	44	104	0	77	14991

#Closed at: 2026-01-24 02:55:00
#Recorded file [0 MB]: D:/lorett/data/31041_260124_054030.dat