passes_logs/2026/01/24/R3.2S_Murmansk/R3.2S_Murmansk__20260124_120256_NOAA_20_JPSS-1_rec.log

#Pass ID: 20260124_120256_NOAA 20 (JPSS-1)
#Satellite: NOAA 20 (JPSS-1)
#Configuration: NOAA 20
#almurnet v.1.7.20251203
#Start time: 2026-01-24 12:02:56

#Version: 2.2.20231116
#Station: R3.2S_Murmansk
#Location: 33.079688 lon 68.888172 lat
#TLE: 1 43013U 17073A   26023.57676825  .00000205  00000+0  11821-3 0  9990
#TLE: 2 43013  98.7645 324.4259 0001147  27.0566 333.0670 14.19539368423954

#Time	Az	El	Level	Level2	SNR	BER	BlckErr	Temp	State	Recorded	gain1	gain2
2026-01-24 12:02:56.91	215.71	2.00	-52.3	-67.3	3.8	1.49e+00	0	41	0	0	76	19928
2026-01-24 12:03:00.95	216.01	2.22	-52.3	-67.3	3.8	1.49e+00	0	41	104	0	75	21122
2026-01-24 12:03:04.98	216.31	2.44	-52.3	-67.3	3.8	1.49e+00	0	41	104	0	75	21063
2026-01-24 12:03:09.01	216.62	2.66	-52.3	-67.3	3.8	1.49e+00	0	41	104	0	75	21037
2026-01-24 12:03:13.04	216.94	2.88	-52.3	-67.2	3.8	1.49e+00	0	41	104	0	75	20974
2026-01-24 12:03:17.08	217.25	3.11	-52.3	-67.3	3.8	1.49e+00	0	42	104	0	75	21091
2026-01-24 12:03:21.11	217.58	3.33	-52.3	-67.3	3.8	1.49e+00	0	42	104	0	75	21027
2026-01-24 12:03:25.14	217.90	3.56	-52.3	-67.1	3.8	1.49e+00	0	42	104	0	75	20754
2026-01-24 12:03:29.18	218.24	3.78	-52.3	-67.2	3.8	1.49e+00	0	42	104	0	75	20902
2026-01-24 12:03:33.21	218.57	4.01	-52.3	-67.2	3.8	1.49e+00	0	42	104	0	75	20868
2026-01-24 12:03:37.24	218.92	4.24	-52.2	-66.8	3.8	1.49e+00	0	42	104	0	75	20047
2026-01-24 12:03:41.28	219.26	4.47	-52.2	-66.0	3.8	1.49e+00	0	42	104	0	75	18128
2026-01-24 12:03:45.31	219.62	4.70	-51.7	-60.0	6.1	7.16e-01	0	42	0	1048576	75	9168
2026-01-24 12:03:49.35	219.97	4.93	-49.3	-52.6	13.5	5.30e-06	0	42	0	8388608	70	5208
2026-01-24 12:03:53.38	220.34	5.17	-50.1	-54.3	11.3	5.28e-02	0	42	0	15728640	72	5626
2026-01-24 12:03:57.41	220.70	5.40	-47.5	-49.7	16.5	0.00e+00	0	42	0	24117248	67	4419
2026-01-24 12:04:01.45	221.08	5.64	-47.3	-49.4	16.9	0.00e+00	0	42	0	31457280	66	4515
2026-01-24 12:04:05.48	221.46	5.87	-47.4	-49.6	16.7	0.00e+00	0	43	0	38797312	66	4613
2026-01-24 12:04:09.52	221.85	6.11	-47.4	-49.5	16.9	0.00e+00	0	42	0	46137344	66	4551
2026-01-24 12:04:13.55	222.24	6.35	-47.3	-49.3	17.1	0.00e+00	0	42	0	53477376	66	4476
2026-01-24 12:04:17.58	222.64	6.59	-47.7	-49.9	16.6	0.00e+00	0	42	0	61865984	66	4760
2026-01-24 12:04:21.61	223.04	6.83	-47.2	-49.2	17.3	0.00e+00	0	43	0	69206016	66	4424
2026-01-24 12:04:25.63	223.45	7.07	-47.2	-49.2	17.3	0.00e+00	0	43	0	76546048	66	4420
2026-01-24 12:04:29.67	223.87	7.32	-47.0	-48.9	17.6	0.00e+00	0	43	0	83886080	66	4280
2026-01-24 12:04:33.69	224.29	7.56	-47.0	-48.9	17.6	0.00e+00	0	42	0	91226112	65	4528
2026-01-24 12:04:37.72	224.72	7.81	-47.1	-49.0	17.6	0.00e+00	0	42	0	99614720	65	4559
2026-01-24 12:04:41.75	225.16	8.05	-46.9	-48.7	17.9	0.00e+00	0	43	0	106954752	65	4434
2026-01-24 12:04:45.78	225.61	8.30	-47.1	-49.0	17.7	0.00e+00	0	43	0	114294784	65	4565
2026-01-24 12:04:49.80	226.06	8.55	-47.0	-48.8	17.8	0.00e+00	0	43	0	121634816	65	4484
2026-01-24 12:04:53.83	226.52	8.79	-46.7	-48.5	18.2	0.00e+00	0	43	0	130023424	65	4295
2026-01-24 12:04:57.86	226.99	9.04	-46.7	-48.4	18.3	0.00e+00	0	43	0	137363456	65	4268
2026-01-24 12:05:01.89	227.46	9.30	-46.4	-48.1	18.6	0.00e+00	0	43	0	144703488	64	4360
2026-01-24 12:05:05.93	227.95	9.55	-46.4	-48.0	18.8	0.00e+00	0	43	0	152043520	64	4297
2026-01-24 12:05:09.96	228.44	9.80	-46.2	-47.8	18.9	0.00e+00	0	43	0	159383552	64	4214
2026-01-24 12:05:13.99	228.94	10.05	-46.1	-47.6	19.3	0.00e+00	0	43	0	166723584	63	4363
2026-01-24 12:05:18.02	229.45	10.31	-46.3	-47.8	19.0	0.00e+00	0	43	0	175112192	63	4481
2026-01-24 12:05:22.05	229.96	10.56	-46.2	-47.7	19.2	0.00e+00	0	43	0	182452224	63	4419
2026-01-24 12:05:26.08	230.49	10.82	-46.3	-47.9	19.0	0.00e+00	0	43	0	189792256	63	4523
2026-01-24 12:05:30.11	231.02	11.07	-46.3	-47.8	19.1	0.00e+00	0	43	0	197132288	63	4483
2026-01-24 12:05:34.15	231.57	11.33	-46.1	-47.6	19.3	0.00e+00	0	43	0	205520896	63	4359
2026-01-24 12:05:38.17	232.12	11.58	-45.9	-47.4	19.5	0.00e+00	0	43	0	212860928	63	4276
2026-01-24 12:05:42.21	232.68	11.84	-45.9	-47.4	19.5	0.00e+00	0	43	0	220200960	63	4267
2026-01-24 12:05:46.24	233.25	12.10	-46.0	-47.4	19.5	0.00e+00	0	43	0	227540992	63	4277
2026-01-24 12:05:50.27	233.83	12.35	-45.9	-47.3	19.7	0.00e+00	0	43	0	234881024	63	4220
2026-01-24 12:05:54.30	234.42	12.61	-45.9	-47.3	19.6	0.00e+00	0	43	0	243269632	63	4242
2026-01-24 12:05:58.34	235.03	12.87	-45.9	-47.3	19.7	0.00e+00	0	43	0	250609664	63	4221
2026-01-24 12:06:02.37	235.64	13.12	-45.8	-47.2	19.8	0.00e+00	0	43	0	257949696	63	4153
2026-01-24 12:06:06.40	236.26	13.38	-46.1	-47.6	19.4	0.00e+00	0	43	0	265289728	63	4360
2026-01-24 12:06:10.43	236.89	13.64	-45.8	-47.2	19.8	0.00e+00	0	43	0	273678336	63	4172
2026-01-24 12:06:14.46	237.53	13.89	-45.7	-47.1	19.9	0.00e+00	0	43	0	281018368	63	4115
2026-01-24 12:06:18.49	238.18	14.15	-45.8	-47.2	19.8	0.00e+00	0	43	0	288358400	63	4150
2026-01-24 12:06:22.53	238.85	14.40	-45.8	-47.2	19.8	0.00e+00	0	43	0	295698432	63	4161
2026-01-24 12:06:26.56	239.53	14.65	-45.8	-47.2	19.8	0.00e+00	0	43	0	303038464	63	4170
2026-01-24 12:06:30.59	240.21	14.91	-45.8	-47.3	19.8	0.00e+00	0	43	0	310378496	63	4201
2026-01-24 12:06:34.62	240.91	15.16	-45.8	-47.2	19.9	0.00e+00	0	43	0	318767104	63	4157
2026-01-24 12:06:38.65	241.62	15.41	-45.7	-47.1	19.9	0.00e+00	0	43	0	326107136	63	4140
2026-01-24 12:06:42.68	242.34	15.65	-45.7	-47.0	20.0	0.00e+00	0	43	0	333447168	63	4091
2026-01-24 12:06:46.71	243.07	15.90	-45.4	-46.7	20.4	0.00e+00	0	43	0	340787200	62	4175
2026-01-24 12:06:50.75	243.82	16.14	-45.0	-46.3	20.8	0.00e+00	0	43	0	349175808	62	3968
2026-01-24 12:06:54.78	244.57	16.39	-45.1	-46.3	20.7	0.00e+00	0	43	0	356515840	62	4000
2026-01-24 12:06:58.81	245.34	16.62	-44.6	-45.8	21.2	0.00e+00	0	43	0	363855872	61	3972
2026-01-24 12:07:02.85	246.12	16.86	-44.8	-46.0	21.0	0.00e+00	0	43	0	371195904	61	4078
2026-01-24 12:07:06.88	246.91	17.10	-44.8	-46.1	21.0	0.00e+00	0	43	0	378535936	61	4101
2026-01-24 12:07:10.91	247.71	17.33	-44.8	-46.0	21.0	0.00e+00	0	43	0	386924544	61	4081
2026-01-24 12:07:14.94	248.53	17.55	-45.1	-46.4	20.7	0.00e+00	0	43	0	394264576	61	4251
2026-01-24 12:07:18.97	249.36	17.78	-45.4	-46.7	20.4	0.00e+00	0	43	0	401604608	61	4439
2026-01-24 12:07:23.00	250.19	18.00	-45.4	-46.7	20.4	0.00e+00	0	43	0	408944640	61	4396
2026-01-24 12:07:27.03	251.05	18.21	-45.6	-47.0	20.2	0.00e+00	0	43	0	416284672	61	4546
2026-01-24 12:07:31.06	251.91	18.42	-45.9	-47.3	19.9	0.00e+00	0	43	0	424673280	62	4461
2026-01-24 12:07:35.09	252.78	18.63	-46.4	-47.9	19.3	0.00e+00	0	43	0	432013312	63	4509
2026-01-24 12:07:39.12	253.67	18.83	-46.6	-48.2	19.0	0.00e+00	0	43	0	439353344	63	4671
2026-01-24 12:07:43.15	254.56	19.03	-46.8	-48.4	18.8	0.00e+00	0	43	0	446693376	64	4498
2026-01-24 12:07:47.18	255.47	19.22	-47.0	-48.6	18.5	0.00e+00	0	43	0	454033408	64	4643
2026-01-24 12:07:51.21	256.39	19.41	-46.9	-48.6	18.6	0.00e+00	0	43	0	462422016	64	4611
2026-01-24 12:07:55.25	257.32	19.59	-46.3	-47.9	19.3	0.00e+00	0	43	0	469762048	64	4246
2026-01-24 12:07:59.28	258.26	19.76	-46.4	-48.0	19.1	0.00e+00	0	43	0	477102080	64	4311
2026-01-24 12:08:03.31	259.21	19.93	-46.5	-48.1	19.0	0.00e+00	0	43	0	484442112	64	4347
2026-01-24 12:08:07.35	260.17	20.09	-46.4	-48.0	19.1	0.00e+00	0	43	0	492830720	64	4308
2026-01-24 12:08:11.38	261.14	20.25	-46.2	-47.7	19.5	0.00e+00	0	43	0	500170752	64	4159
2026-01-24 12:08:15.41	262.12	20.39	-46.4	-47.9	19.2	0.00e+00	0	43	0	507510784	64	4274
2026-01-24 12:08:19.44	263.11	20.53	-46.3	-47.8	19.3	0.00e+00	0	43	0	514850816	64	4239
2026-01-24 12:08:23.48	264.11	20.66	-46.0	-47.4	19.8	0.00e+00	0	43	0	522190848	63	4286
2026-01-24 12:08:27.51	265.11	20.78	-45.8	-47.2	20.0	0.00e+00	0	43	0	530579456	63	4174
2026-01-24 12:08:31.54	266.12	20.90	-45.7	-47.1	20.2	0.00e+00	0	43	0	537919488	63	4113
2026-01-24 12:08:35.57	267.14	21.01	-45.7	-47.0	20.2	0.00e+00	0	43	0	545259520	63	4092
2026-01-24 12:08:39.60	268.16	21.10	-45.5	-46.8	20.4	0.00e+00	0	43	0	552599552	62	4225
2026-01-24 12:08:43.63	269.20	21.19	-45.7	-47.0	20.2	0.00e+00	0	43	0	559939584	62	4316
2026-01-24 12:08:47.66	270.23	21.27	-45.8	-47.2	20.1	0.00e+00	0	43	0	568328192	62	4410
2026-01-24 12:08:51.70	271.28	21.34	-46.4	-47.8	19.5	0.00e+00	0	43	0	575668224	63	4482
2026-01-24 12:08:55.73	272.32	21.40	-46.6	-48.1	19.2	0.00e+00	0	43	0	583008256	63	4641
2026-01-24 12:08:59.76	273.37	21.46	-45.8	-47.2	20.1	0.00e+00	0	43	0	590348288	63	4163
2026-01-24 12:09:03.80	274.42	21.50	-46.0	-47.4	19.9	0.00e+00	0	43	0	597688320	63	4278
2026-01-24 12:09:07.83	275.48	21.53	-46.6	-48.2	19.2	0.00e+00	0	43	0	606076928	63	4660
2026-01-24 12:09:11.87	276.54	21.55	-46.2	-47.6	19.7	0.00e+00	0	43	0	613416960	63	4352
2026-01-24 12:09:15.90	277.60	21.57	-46.5	-47.9	19.4	0.00e+00	0	43	0	620756992	63	4543
2026-01-24 12:09:19.93	278.65	21.57	-46.6	-48.2	19.1	0.00e+00	0	43	0	628097024	64	4398
2026-01-24 12:09:23.96	279.71	21.56	-46.0	-47.4	19.9	0.00e+00	0	43	0	636485632	63	4269
2026-01-24 12:09:27.99	280.77	21.55	-45.6	-46.9	20.5	0.00e+00	0	43	0	643825664	63	4012
2026-01-24 12:09:32.03	281.83	21.52	-46.2	-47.6	19.8	0.00e+00	0	43	0	651165696	63	4360
2026-01-24 12:09:36.06	282.88	21.48	-46.5	-48.0	19.4	0.00e+00	0	43	0	658505728	63	4567
2026-01-24 12:09:40.09	283.93	21.44	-46.4	-47.9	19.5	0.00e+00	0	43	0	665845760	63	4524
2026-01-24 12:09:44.12	284.98	21.38	-46.3	-47.7	19.7	0.00e+00	0	43	0	674234368	63	4414
2026-01-24 12:09:48.15	286.02	21.32	-46.5	-48.0	19.4	0.00e+00	0	43	0	681574400	63	4567
2026-01-24 12:09:52.19	287.06	21.25	-46.3	-47.7	19.7	0.00e+00	0	43	0	688914432	63	4411
2026-01-24 12:09:56.22	288.09	21.16	-46.0	-47.3	20.1	0.00e+00	0	43	0	696254464	63	4228
2026-01-24 12:10:00.25	289.12	21.07	-46.1	-47.5	20.0	0.00e+00	0	43	0	703594496	63	4294
2026-01-24 12:10:04.28	290.14	20.97	-45.7	-47.0	20.4	0.00e+00	0	43	0	711983104	63	4079
2026-01-24 12:10:08.31	291.16	20.86	-45.5	-46.8	20.6	0.00e+00	0	43	0	719323136	63	3971
2026-01-24 12:10:12.35	292.17	20.75	-45.4	-46.7	20.7	0.00e+00	0	43	0	726663168	62	4149
2026-01-24 12:10:16.38	293.17	20.62	-45.9	-47.2	20.2	0.00e+00	0	43	0	734003200	62	4428
2026-01-24 12:10:20.41	294.16	20.49	-45.4	-46.6	20.8	0.00e+00	0	43	0	742391808	62	4141
2026-01-24 12:10:24.44	295.14	20.35	-44.8	-46.0	21.4	0.00e+00	0	43	0	749731840	61	4053
2026-01-24 12:10:28.47	296.11	20.20	-44.3	-45.4	21.9	0.00e+00	0	43	0	757071872	60	4029
2026-01-24 12:10:32.51	297.08	20.05	-45.0	-46.2	21.2	0.00e+00	0	43	0	764411904	60	4399
2026-01-24 12:10:36.54	298.03	19.88	-44.9	-46.1	21.2	0.00e+00	0	43	0	771751936	60	4355
2026-01-24 12:10:40.57	298.98	19.71	-44.5	-45.6	21.6	0.00e+00	0	43	0	779091968	60	4134
2026-01-24 12:10:44.60	299.91	19.54	-44.0	-45.1	22.1	0.00e+00	0	43	0	787480576	60	3890
2026-01-24 12:10:48.63	300.83	19.36	-44.3	-45.4	22.1	0.00e+00	0	43	0	794820608	59	4286
2026-01-24 12:10:52.67	301.75	19.17	-44.6	-45.7	21.8	0.00e+00	0	43	0	802160640	59	4430
2026-01-24 12:10:56.70	302.65	18.98	-44.7	-45.9	21.3	0.00e+00	0	43	0	809500672	60	4253
2026-01-24 12:11:00.73	303.54	18.78	-44.7	-45.9	21.3	0.00e+00	0	43	0	817889280	60	4260
2026-01-24 12:11:04.76	304.42	18.58	-44.9	-46.1	21.1	0.00e+00	0	43	0	825229312	60	4387
2026-01-24 12:11:08.80	305.29	18.37	-44.9	-46.1	21.0	0.00e+00	0	43	0	832569344	60	4381
2026-01-24 12:11:12.84	306.14	18.16	-45.6	-47.0	20.2	0.00e+00	0	43	0	839909376	61	4559
2026-01-24 12:11:16.87	306.99	17.94	-45.9	-47.3	19.9	0.00e+00	0	43	0	847249408	62	4463
2026-01-24 12:11:20.91	307.82	17.72	-46.1	-47.5	19.8	0.00e+00	0	43	0	855638016	62	4557
2026-01-24 12:11:24.94	308.64	17.50	-46.0	-47.5	19.8	0.00e+00	0	43	0	862978048	62	4550
2026-01-24 12:11:28.98	309.45	17.27	-45.9	-47.3	20.0	0.00e+00	0	43	0	870318080	62	4447
2026-01-24 12:11:33.01	310.25	17.04	-45.9	-47.3	19.9	0.00e+00	0	43	0	877658112	62	4488
2026-01-24 12:11:37.05	311.03	16.81	-46.1	-47.5	19.6	0.00e+00	0	43	0	886046720	62	4579
2026-01-24 12:11:41.08	311.81	16.57	-45.8	-47.1	20.0	0.00e+00	0	43	0	893386752	62	4386
2026-01-24 12:11:45.11	312.57	16.33	-45.4	-46.7	20.4	0.00e+00	0	43	0	900726784	62	4156
2026-01-24 12:11:49.14	313.32	16.09	-45.4	-46.7	20.4	0.00e+00	0	43	0	908066816	62	4175
2026-01-24 12:11:53.17	314.05	15.85	-45.6	-47.0	20.1	0.00e+00	0	43	0	915406848	62	4321
2026-01-24 12:11:57.21	314.78	15.60	-46.5	-48.1	19.0	0.00e+00	0	43	0	923795456	63	4619
2026-01-24 12:12:01.24	315.49	15.36	-45.9	-47.3	19.7	0.00e+00	0	43	0	931135488	63	4231
2026-01-24 12:12:05.28	316.20	15.11	-45.5	-46.8	20.2	0.00e+00	0	43	0	938475520	62	4242
2026-01-24 12:12:09.30	316.89	14.86	-45.8	-47.3	19.8	0.00e+00	0	43	0	945815552	62	4446
2026-01-24 12:12:13.34	317.57	14.61	-45.5	-46.8	20.2	0.00e+00	0	43	0	953155584	62	4224
2026-01-24 12:12:17.38	318.24	14.36	-45.8	-47.2	19.8	0.00e+00	0	43	0	961544192	62	4394
2026-01-24 12:12:21.41	318.90	14.11	-45.5	-46.8	20.2	0.00e+00	0	43	0	968884224	62	4232
2026-01-24 12:12:25.44	319.55	13.85	-45.2	-46.5	20.4	0.00e+00	0	43	0	976224256	62	4083
2026-01-24 12:12:29.48	320.19	13.60	-45.7	-47.2	19.8	0.00e+00	0	43	0	983564288	62	4404
2026-01-24 12:12:33.51	320.81	13.35	-45.5	-46.8	20.1	0.00e+00	0	43	0	991952896	62	4230
2026-01-24 12:12:37.54	321.43	13.09	-45.3	-46.6	20.2	0.00e+00	0	43	0	999292928	62	4142
2026-01-24 12:12:41.57	322.04	12.84	-45.9	-47.3	19.5	0.00e+00	0	43	0	1006632960	62	4486
2026-01-24 12:12:45.61	322.63	12.58	-45.9	-47.4	19.5	0.00e+00	0	43	0	1013972992	62	4515
2026-01-24 12:12:49.63	323.22	12.33	-45.8	-47.2	19.6	0.00e+00	0	43	0	1021313024	62	4412
2026-01-24 12:12:53.67	323.79	12.07	-46.2	-47.7	19.1	0.00e+00	0	43	0	1028653056	62	4703
2026-01-24 12:12:57.70	324.36	11.82	-46.0	-47.6	19.2	0.00e+00	0	43	0	1037041664	63	4343
2026-01-24 12:13:01.73	324.92	11.56	-46.0	-47.5	19.4	0.00e+00	0	43	0	1044381696	63	4297
2026-01-24 12:13:05.76	325.47	11.31	-46.4	-48.0	18.8	0.00e+00	0	43	0	1051721728	63	4552
2026-01-24 12:13:09.80	326.01	11.05	-46.4	-48.0	18.8	0.00e+00	0	43	0	1059061760	63	4569
2026-01-24 12:13:13.83	326.54	10.80	-46.2	-47.7	19.0	0.00e+00	0	43	0	1067450368	63	4436
2026-01-24 12:13:17.86	327.06	10.55	-46.4	-48.1	18.7	0.00e+00	0	43	0	1074790400	63	4604
2026-01-24 12:13:21.89	327.57	10.30	-46.5	-48.2	18.5	0.00e+00	0	43	0	1082130432	63	4666
2026-01-24 12:13:25.92	328.08	10.04	-46.4	-48.0	18.6	0.00e+00	0	43	0	1089470464	63	4578
2026-01-24 12:13:29.95	328.57	9.79	-46.6	-48.3	18.4	0.00e+00	0	43	0	1096810496	63	4709
2026-01-24 12:13:33.99	329.06	9.54	-47.0	-48.8	17.7	0.00e+00	0	43	0	1105199104	64	4744
2026-01-24 12:13:38.02	329.54	9.29	-47.1	-49.0	17.5	0.00e+00	0	43	0	1112539136	64	4866
2026-01-24 12:13:42.05	330.01	9.04	-46.5	-48.3	18.2	0.00e+00	0	43	0	1119879168	64	4449
2026-01-24 12:13:46.08	330.48	8.80	-46.3	-47.9	18.5	0.00e+00	0	43	0	1127219200	64	4274
2026-01-24 12:13:50.11	330.94	8.55	-46.7	-48.6	17.8	0.00e+00	0	43	0	1135607808	64	4616
2026-01-24 12:13:54.14	331.39	8.30	-46.7	-48.6	17.8	0.00e+00	0	43	0	1142947840	64	4616
2026-01-24 12:13:58.18	331.83	8.06	-46.7	-48.6	17.7	0.00e+00	0	43	0	1150287872	64	4619
2026-01-24 12:14:02.21	332.27	7.82	-47.2	-49.2	17.2	0.00e+00	0	43	0	1157627904	64	4937
2026-01-24 12:14:06.24	332.70	7.57	-47.3	-49.4	16.9	0.00e+00	0	43	0	1164967936	65	4778
2026-01-24 12:14:10.28	333.12	7.33	-47.3	-49.4	16.9	0.00e+00	0	43	0	1172307968	65	4777
2026-01-24 12:14:14.31	333.53	7.09	-47.1	-49.1	17.1	0.00e+00	0	43	0	1180696576	65	4632
2026-01-24 12:14:18.34	333.94	6.85	-47.2	-49.3	16.9	0.00e+00	0	43	0	1188036608	65	4742
2026-01-24 12:14:22.37	334.35	6.61	-47.6	-49.9	16.2	0.00e+00	0	43	0	1195376640	65	5098
2026-01-24 12:14:26.40	334.74	6.37	-47.8	-50.2	15.9	0.00e+00	0	43	0	1202716672	66	4965
2026-01-24 12:14:30.43	335.13	6.14	-47.8	-50.2	15.9	0.00e+00	0	43	0	1211105280	66	4973
2026-01-24 12:14:34.46	335.52	5.90	-48.0	-50.5	15.5	0.00e+00	0	43	0	1218445312	66	5126
2026-01-24 12:14:38.49	335.90	5.67	-48.2	-50.9	15.0	0.00e+00	0	43	0	1225785344	66	5387
2026-01-24 12:14:42.52	336.27	5.43	-48.0	-50.7	15.3	0.00e+00	0	43	0	1233125376	67	4937
2026-01-24 12:14:46.55	336.64	5.20	-48.2	-51.0	14.9	0.00e+00	0	43	0	1240465408	67	5139
2026-01-24 12:14:50.58	337.00	4.97	-49.4	-53.1	13.3	1.50e-06	0	43	0	1248854016	69	5835
2026-01-24 12:14:54.61	337.36	4.74	-53.4	-68.4	3.8	1.49e+00	0	43	104	1248854016	77	21355
2026-01-24 12:14:58.65	337.71	4.51	-53.8	-68.7	3.8	1.49e+00	0	43	104	1248854016	78	20778
2026-01-24 12:15:02.68	338.05	4.28	-54.1	-69.1	3.8	1.49e+00	0	43	104	1248854016	78	21887
2026-01-24 12:15:06.71	338.40	4.06	-54.2	-69.2	3.8	1.49e+00	0	43	104	1248854016	79	20952
2026-01-24 12:15:10.74	338.73	3.83	-54.2	-69.2	3.8	1.49e+00	0	43	104	1248854016	79	20872
2026-01-24 12:15:14.77	339.06	3.61	-54.1	-69.0	3.8	1.49e+00	0	43	104	1248854016	79	20499
2026-01-24 12:15:18.81	339.39	3.38	-53.9	-68.9	3.8	1.49e+00	0	43	104	1248854016	79	20257
2026-01-24 12:15:22.84	339.71	3.16	-53.9	-68.9	3.8	1.49e+00	0	44	104	1248854016	79	20251
2026-01-24 12:15:26.88	340.03	2.94	-54.0	-69.0	3.8	1.49e+00	0	43	104	1248854016	79	20454
2026-01-24 12:15:30.91	340.34	2.72	-53.8	-68.8	3.8	1.49e+00	0	44	104	1248854016	79	20012
2026-01-24 12:15:34.95	340.65	2.50	-53.8	-68.8	3.8	1.49e+00	0	43	104	1248854016	79	19872
2026-01-24 12:15:38.98	340.96	2.28	-53.8	-68.8	3.8	1.49e+00	0	43	104	1248854016	79	19860
2026-01-24 12:15:43.01	341.26	2.07	-53.8	-68.8	3.8	1.49e+00	0	43	104	1248854016	79	19881
2026-01-24 12:15:47.05	341.56	1.85	-53.7	-68.7	3.8	1.49e+00	0	44	104	1248854016	79	19821

#Closed at: 2026-01-24 12:15:47
#Recorded file [1248 MB]: D:/lorett/data/31041_260124_150256.dat