passes_logs/2026/01/24/R3.2S_Murmansk/R3.2S_Murmansk__20260124_091822_FENGYUN_3D_rec.log

#Pass ID: 20260124_091822_FENGYUN 3D
#Satellite: FENGYUN 3D
#Configuration: FENGYUN 3D
#almurnet v.1.7.20251203
#Start time: 2026-01-24 09:18:24

#Version: 2.2.20231116
#Station: R3.2S_Murmansk
#Location: 33.079688 lon 68.888172 lat
#TLE: 1 43010U 17072A   26023.60174628  .00000324  00000+0  17481-3 0  9994
#TLE: 2 43010  98.9958 355.5514 0002482  93.7422 266.4037 14.19699955424476

#Time	Az	El	Level	Level2	SNR	BER	BlckErr	Temp	State	Recorded	gain1	gain2
2026-01-24 09:18:24.36	100.06	2.10	-51.9	-63.9	3.8	8.46e-01	0	41	0	0	75	14215
2026-01-24 09:18:28.39	99.87	2.34	-51.9	-63.8	3.8	8.46e-01	0	41	104	0	74	15022
2026-01-24 09:18:32.42	99.68	2.59	-51.9	-63.8	3.8	8.47e-01	0	41	104	0	74	15049
2026-01-24 09:18:36.45	99.49	2.84	-51.9	-63.7	3.8	8.46e-01	0	41	104	0	74	14818
2026-01-24 09:18:40.48	99.29	3.09	-51.9	-63.7	3.8	8.46e-01	0	41	104	0	74	14826
2026-01-24 09:18:44.51	99.08	3.34	-51.9	-63.8	3.8	8.46e-01	0	41	104	0	74	15050
2026-01-24 09:18:48.54	98.88	3.59	-51.9	-63.7	3.8	8.46e-01	0	41	104	0	74	14807
2026-01-24 09:18:52.58	98.67	3.85	-51.8	-63.1	3.8	8.46e-01	0	42	104	0	74	13874
2026-01-24 09:18:56.61	98.45	4.11	-51.5	-60.1	4.2	8.39e-01	0	42	0	0	74	9745
2026-01-24 09:19:00.65	98.23	4.37	-51.5	-60.3	4.2	8.37e-01	0	42	0	0	74	10003
2026-01-24 09:19:04.68	98.01	4.63	-49.8	-54.0	8.6	6.66e-02	0	42	0	8388608	71	5723
2026-01-24 09:19:08.71	97.78	4.90	-46.4	-48.3	14.4	4.50e-06	0	42	0	30408704	64	4492
2026-01-24 09:19:12.74	97.55	5.17	-44.0	-45.2	17.8	4.23e-05	0	42	0	53477376	60	3930
2026-01-24 09:19:16.77	97.32	5.44	-43.5	-44.6	18.6	0.00e+00	0	42	0	70254592	59	3910
2026-01-24 09:19:20.81	97.08	5.71	-43.5	-44.7	18.7	0.00e+00	0	42	0	93323264	58	4162
2026-01-24 09:19:24.84	96.83	5.98	-43.0	-44.1	19.3	0.00e+00	0	42	0	115343360	56	4347
2026-01-24 09:19:28.87	96.58	6.26	-42.9	-44.0	19.3	0.00e+00	0	42	0	138412032	56	4336
2026-01-24 09:19:32.90	96.33	6.54	-42.5	-43.5	19.8	0.00e+00	0	42	0	161480704	56	4095
2026-01-24 09:19:36.93	96.06	6.82	-42.6	-43.6	19.8	0.00e+00	0	42	0	183500800	56	4119
2026-01-24 09:19:40.97	95.80	7.10	-42.6	-43.6	19.8	0.00e+00	0	42	0	206569472	56	4120
2026-01-24 09:19:45.00	95.53	7.39	-42.8	-43.9	19.5	0.00e+00	0	42	0	229638144	56	4261
2026-01-24 09:19:49.03	95.25	7.68	-42.6	-43.7	19.7	0.00e+00	0	42	0	251658240	56	4163
2026-01-24 09:19:53.06	94.97	7.97	-42.2	-43.2	20.2	0.00e+00	0	42	0	274726912	56	3945
2026-01-24 09:19:57.09	94.68	8.27	-42.1	-43.0	20.4	0.00e+00	0	42	0	297795584	56	3861
2026-01-24 09:20:01.12	94.38	8.56	-42.4	-43.4	20.1	0.00e+00	0	42	0	319815680	56	4005
2026-01-24 09:20:05.16	94.08	8.86	-42.2	-43.2	20.2	0.00e+00	0	42	0	342884352	55	4161
2026-01-24 09:20:09.19	93.77	9.17	-41.8	-42.8	20.7	0.00e+00	0	42	0	365953024	55	3963
2026-01-24 09:20:13.22	93.46	9.47	-42.1	-43.1	20.4	0.00e+00	0	43	0	387973120	55	4140
2026-01-24 09:20:17.25	93.14	9.78	-41.8	-42.8	20.7	0.00e+00	0	43	0	411041792	55	3984
2026-01-24 09:20:21.29	92.81	10.09	-42.1	-43.1	20.6	0.00e+00	0	43	0	433061888	55	4106
2026-01-24 09:20:25.32	92.47	10.41	-41.9	-42.9	20.6	0.00e+00	0	43	0	456130560	55	4026
2026-01-24 09:20:29.35	92.13	10.72	-42.0	-43.0	20.6	0.00e+00	0	43	0	479199232	55	4053
2026-01-24 09:20:33.39	91.77	11.05	-41.7	-42.6	21.0	0.00e+00	0	43	0	501219328	55	3902
2026-01-24 09:20:37.42	91.41	11.37	-41.8	-42.8	20.8	0.00e+00	0	43	0	524288000	55	3985
2026-01-24 09:20:41.46	91.05	11.70	-41.8	-42.8	20.9	0.00e+00	0	43	0	547356672	55	3977
2026-01-24 09:20:45.49	90.67	12.03	-41.4	-42.3	21.5	0.00e+00	0	43	0	569376768	54	3974
2026-01-24 09:20:49.53	90.28	12.36	-41.3	-42.2	21.5	0.00e+00	0	43	0	592445440	54	3936
2026-01-24 09:20:53.56	89.89	12.70	-41.2	-42.1	21.6	0.00e+00	0	43	0	615514112	54	3881
2026-01-24 09:20:57.59	89.48	13.04	-41.0	-41.9	21.7	0.00e+00	0	43	0	637534208	54	3824
2026-01-24 09:21:01.62	89.07	13.38	-40.7	-41.5	22.0	0.00e+00	0	43	0	660602880	53	3867
2026-01-24 09:21:05.66	88.64	13.73	-40.7	-41.6	22.0	0.00e+00	0	43	0	683671552	53	3874
2026-01-24 09:21:09.70	88.21	14.08	-40.6	-41.4	22.2	0.00e+00	0	43	0	705691648	53	3811
2026-01-24 09:21:13.73	87.76	14.43	-40.4	-41.3	22.3	0.00e+00	0	43	0	728760320	52	3969
2026-01-24 09:21:17.77	87.31	14.79	-40.6	-41.5	22.2	0.00e+00	0	43	0	751828992	52	4052
2026-01-24 09:21:21.80	86.84	15.15	-40.5	-41.3	22.5	0.00e+00	0	43	0	773849088	52	4001
2026-01-24 09:21:25.83	86.36	15.51	-40.6	-41.4	22.5	0.00e+00	0	43	0	795869184	52	4034
2026-01-24 09:21:29.87	85.87	15.88	-40.2	-41.0	22.9	0.00e+00	0	43	0	818937856	52	3844
2026-01-24 09:21:33.91	85.36	16.25	-40.2	-41.0	23.0	0.00e+00	0	43	0	842006528	52	3851
2026-01-24 09:21:37.94	84.84	16.63	-40.0	-40.8	23.4	0.00e+00	0	43	0	864026624	51	3974
2026-01-24 09:21:41.97	84.31	17.00	-40.0	-40.7	23.3	0.00e+00	0	43	0	887095296	51	3949
2026-01-24 09:21:46.00	83.77	17.38	-40.1	-40.9	23.1	0.00e+00	0	43	0	910163968	51	4024
2026-01-24 09:21:50.04	83.21	17.77	-39.8	-40.6	23.6	0.00e+00	0	43	0	932184064	51	3888
2026-01-24 09:21:54.07	82.64	18.15	-39.5	-40.2	23.9	0.00e+00	0	43	0	955252736	51	3726
2026-01-24 09:21:58.10	82.05	18.54	-39.7	-40.4	23.8	0.00e+00	0	43	0	978321408	50	4028
2026-01-24 09:22:02.13	81.44	18.93	-39.6	-40.3	23.8	0.00e+00	0	43	0	1000341504	50	4001
2026-01-24 09:22:06.16	80.82	19.33	-39.5	-40.3	23.8	0.00e+00	0	43	0	1023410176	50	3961
2026-01-24 09:22:10.20	80.19	19.73	-39.2	-39.9	24.1	0.00e+00	0	43	0	1046478848	50	3820
2026-01-24 09:22:14.23	79.53	20.13	-39.0	-39.8	24.2	0.00e+00	0	43	0	1068498944	49	3962
2026-01-24 09:22:18.26	78.86	20.53	-39.3	-40.0	24.1	0.00e+00	0	43	0	1091567616	49	4067
2026-01-24 09:22:22.30	78.17	20.93	-39.4	-40.1	24.0	0.00e+00	0	43	0	1114636288	49	4134
2026-01-24 09:22:26.33	77.46	21.34	-39.2	-39.9	24.2	0.00e+00	0	43	0	1136656384	49	4038
2026-01-24 09:22:30.36	76.74	21.75	-38.8	-39.6	24.5	0.00e+00	0	43	0	1159725056	49	3871
2026-01-24 09:22:34.39	75.99	22.16	-38.8	-39.5	24.5	0.00e+00	0	43	0	1181745152	49	3860
2026-01-24 09:22:38.43	75.22	22.57	-38.6	-39.3	24.7	0.00e+00	0	43	0	1204813824	49	3762
2026-01-24 09:22:42.46	74.43	22.98	-38.6	-39.3	24.9	0.00e+00	0	43	0	1227882496	49	3757
2026-01-24 09:22:46.49	73.62	23.39	-38.5	-39.2	24.8	0.00e+00	0	43	0	1249902592	48	3954
2026-01-24 09:22:50.52	72.79	23.81	-38.8	-39.5	24.6	0.00e+00	0	43	0	1272971264	48	4061
2026-01-24 09:22:54.56	71.94	24.22	-38.6	-39.3	24.8	0.00e+00	0	43	0	1296039936	48	3982
2026-01-24 09:22:58.59	71.06	24.63	-38.3	-39.0	25.0	0.00e+00	0	43	0	1318060032	48	3861
2026-01-24 09:23:02.62	70.16	25.04	-38.1	-38.8	25.2	0.00e+00	0	43	0	1341128704	48	3759
2026-01-24 09:23:06.65	69.24	25.45	-38.1	-38.8	25.2	0.00e+00	0	43	0	1364197376	48	3772
2026-01-24 09:23:10.68	68.29	25.86	-38.1	-38.8	25.2	0.00e+00	0	43	0	1386217472	48	3766
2026-01-24 09:23:14.71	67.32	26.26	-37.7	-38.4	25.1	0.00e+00	0	43	0	1409286144	47	3787
2026-01-24 09:23:18.74	66.32	26.66	-37.9	-38.6	24.9	0.00e+00	0	43	0	1431306240	47	3898
2026-01-24 09:23:22.77	65.29	27.06	-37.7	-38.4	25.1	0.00e+00	0	43	0	1454374912	47	3805
2026-01-24 09:23:26.81	64.24	27.45	-37.5	-38.2	25.3	0.00e+00	0	43	0	1477443584	46	3931
2026-01-24 09:23:30.84	63.17	27.84	-37.6	-38.4	25.1	0.00e+00	0	43	0	1499463680	46	4005
2026-01-24 09:23:34.87	62.06	28.22	-37.7	-38.4	25.1	0.00e+00	0	43	0	1522532352	46	4026
2026-01-24 09:23:38.91	60.93	28.59	-37.2	-37.9	25.6	0.00e+00	0	43	0	1544552448	46	3783
2026-01-24 09:23:42.94	59.78	28.96	-37.5	-38.2	25.3	0.00e+00	0	43	0	1567621120	46	3938
2026-01-24 09:23:46.98	58.59	29.32	-37.6	-38.4	25.1	0.00e+00	0	43	0	1590689792	46	4014
2026-01-24 09:23:51.01	57.39	29.66	-37.4	-38.1	25.4	0.00e+00	0	43	0	1612709888	46	3884
2026-01-24 09:23:55.05	56.15	30.00	-37.4	-38.1	25.4	0.00e+00	0	43	0	1635778560	46	3895
2026-01-24 09:23:59.08	54.89	30.32	-37.4	-38.1	25.5	0.00e+00	0	43	0	1658847232	46	3879
2026-01-24 09:24:03.11	53.60	30.64	-37.0	-37.7	25.8	0.00e+00	0	43	0	1680867328	46	3722
2026-01-24 09:24:07.15	52.29	30.94	-37.1	-37.8	25.7	0.00e+00	0	43	0	1703936000	45	3977
2026-01-24 09:24:11.19	50.95	31.22	-37.0	-37.7	25.8	0.00e+00	0	43	0	1727004672	45	3949
2026-01-24 09:24:15.22	49.60	31.49	-36.7	-37.4	26.1	0.00e+00	0	43	0	1749024768	45	3815
2026-01-24 09:24:19.25	48.22	31.75	-36.8	-37.5	26.0	0.00e+00	0	43	0	1772093440	45	3852
2026-01-24 09:24:23.29	46.82	31.98	-36.9	-37.6	25.9	0.00e+00	0	43	0	1795162112	45	3886
2026-01-24 09:24:27.32	45.40	32.20	-36.5	-37.2	26.2	0.00e+00	0	43	0	1817182208	45	3718
2026-01-24 09:24:31.35	43.96	32.40	-36.8	-37.5	25.9	0.00e+00	0	43	0	1840250880	45	3846
2026-01-24 09:24:35.38	42.50	32.58	-36.6	-37.3	26.1	0.00e+00	0	43	0	1863319552	45	3759
2026-01-24 09:24:39.41	41.03	32.74	-36.6	-37.3	26.1	0.00e+00	0	43	0	1885339648	45	3738
2026-01-24 09:24:43.45	39.54	32.88	-36.9	-37.6	25.9	0.00e+00	0	43	0	1908408320	45	3871
2026-01-24 09:24:47.47	38.05	33.00	-36.7	-37.4	26.1	0.00e+00	0	43	0	1930428416	45	3790
2026-01-24 09:24:51.51	36.54	33.09	-36.8	-37.5	25.9	0.00e+00	0	43	0	1953497088	45	3859
2026-01-24 09:24:55.54	35.03	33.17	-36.5	-37.2	26.2	0.00e+00	0	43	0	1975517184	45	3725
2026-01-24 09:24:59.57	33.51	33.22	-36.7	-37.4	26.0	0.00e+00	0	43	0	1998585856	44	4030
2026-01-24 09:25:03.61	31.98	33.24	-36.4	-37.0	26.4	0.00e+00	0	43	0	2021654528	44	3862
2026-01-24 09:25:07.64	30.46	33.25	-36.3	-37.0	26.4	0.00e+00	0	43	0	2043674624	44	3843
2026-01-24 09:25:11.67	28.93	33.23	-36.7	-37.4	26.0	0.00e+00	0	43	0	2066743296	44	4030
2026-01-24 09:25:15.70	27.41	33.19	-36.8	-37.5	26.0	0.00e+00	0	43	0	2089811968	44	4073
2026-01-24 09:25:19.75	25.89	33.12	-36.8	-37.5	26.0	0.00e+00	0	43	0	2111832064	44	4075
2026-01-24 09:25:23.78	24.38	33.04	-36.7	-37.3	26.1	0.00e+00	0	43	0	2134900736	44	4000
2026-01-24 09:25:27.81	22.88	32.93	-36.5	-37.2	26.3	0.00e+00	0	43	0	2157969408	44	3930
2026-01-24 09:25:31.85	21.39	32.80	-36.6	-37.3	26.1	0.00e+00	0	43	0	2179989504	44	3981
2026-01-24 09:25:35.88	19.91	32.65	-36.7	-37.4	26.1	0.00e+00	0	43	0	2203058176	44	4012
2026-01-24 09:25:39.91	18.45	32.47	-36.7	-37.4	26.0	0.00e+00	0	43	0	2226126848	44	4031
2026-01-24 09:25:43.95	17.01	32.28	-36.6	-37.3	26.1	0.00e+00	0	43	0	2248146944	44	3997
2026-01-24 09:25:47.98	15.58	32.07	-36.6	-37.3	26.2	0.00e+00	0	43	0	2271215616	44	3978
2026-01-24 09:25:52.01	14.17	31.84	-36.6	-37.2	26.2	0.00e+00	0	43	0	2294284288	44	3950
2026-01-24 09:25:56.05	12.78	31.59	-36.8	-37.5	26.1	0.00e+00	0	43	0	2316304384	44	4070
2026-01-24 09:26:00.08	11.42	31.33	-36.7	-37.4	26.1	0.00e+00	0	43	0	2339373056	44	4036
2026-01-24 09:26:04.11	10.08	31.05	-36.8	-37.5	26.0	0.00e+00	0	43	0	2361393152	44	4077
2026-01-24 09:26:08.14	8.76	30.76	-36.8	-37.5	26.0	0.00e+00	0	43	0	2384461824	44	4062
2026-01-24 09:26:12.18	7.47	30.45	-37.1	-37.9	25.7	0.00e+00	0	43	0	2407530496	44	4243
2026-01-24 09:26:16.21	6.20	30.13	-36.9	-37.6	25.9	0.00e+00	0	43	0	2429550592	45	3901
2026-01-24 09:26:20.24	4.96	29.80	-36.8	-37.5	25.9	0.00e+00	0	43	0	2452619264	45	3850
2026-01-24 09:26:24.28	3.74	29.46	-36.8	-37.5	25.9	0.00e+00	0	43	0	2475687936	45	3854
2026-01-24 09:26:28.31	2.55	29.10	-37.2	-37.9	25.6	0.00e+00	0	43	0	2497708032	45	4018
2026-01-24 09:26:32.34	1.38	28.74	-37.1	-37.8	25.6	0.00e+00	0	43	0	2520776704	45	3997
2026-01-24 09:26:36.37	0.25	28.37	-36.9	-37.6	25.9	0.00e+00	0	43	0	2543845376	45	3885
2026-01-24 09:26:40.40	359.14	28.00	-37.0	-37.7	25.7	0.00e+00	0	43	0	2565865472	45	3947
2026-01-24 09:26:44.43	358.05	27.61	-37.2	-37.9	25.6	0.00e+00	0	43	0	2588934144	45	4017
2026-01-24 09:26:48.46	356.99	27.22	-37.3	-38.0	25.4	0.00e+00	0	44	0	2612002816	45	4078
2026-01-24 09:26:52.50	355.96	26.83	-37.3	-38.0	25.4	0.00e+00	0	43	0	2634022912	45	4086
2026-01-24 09:26:56.53	354.95	26.43	-37.1	-37.8	25.6	0.00e+00	0	43	0	2657091584	45	3968
2026-01-24 09:27:00.56	353.97	26.03	-37.7	-38.4	25.1	0.00e+00	0	43	0	2680160256	46	4030
2026-01-24 09:27:04.60	353.01	25.62	-37.7	-38.4	25.1	0.00e+00	0	43	0	2702180352	46	4046
2026-01-24 09:27:08.63	352.08	25.21	-37.5	-38.2	25.3	0.00e+00	0	43	0	2724200448	46	3935
2026-01-24 09:27:12.67	351.17	24.80	-37.9	-38.7	24.9	0.00e+00	0	43	0	2747269120	46	4152
2026-01-24 09:27:16.70	350.29	24.39	-37.6	-38.3	25.1	0.00e+00	0	44	0	2770337792	46	3995
2026-01-24 09:27:20.73	349.43	23.98	-37.6	-38.3	25.2	0.00e+00	0	43	0	2792357888	46	3978
2026-01-24 09:27:24.76	348.59	23.57	-37.8	-38.5	25.0	0.00e+00	0	43	0	2815426560	46	4079
2026-01-24 09:27:28.79	347.77	23.16	-37.8	-38.5	25.0	0.00e+00	0	43	0	2838495232	46	4071
2026-01-24 09:27:32.83	346.98	22.75	-37.8	-38.5	24.9	0.00e+00	0	43	0	2860515328	46	4093
2026-01-24 09:27:36.86	346.20	22.34	-38.0	-38.7	24.8	0.00e+00	0	43	0	2883584000	46	4174
2026-01-24 09:27:40.89	345.45	21.93	-37.8	-38.5	24.9	0.00e+00	0	43	0	2906652672	46	4090
2026-01-24 09:27:44.92	344.72	21.52	-37.9	-38.6	24.8	0.00e+00	0	43	0	2928672768	46	4124
2026-01-24 09:27:48.95	344.00	21.11	-37.8	-38.5	24.9	0.00e+00	0	43	0	2951741440	46	4068
2026-01-24 09:27:52.98	343.31	20.71	-37.9	-38.6	24.8	0.00e+00	0	44	0	2974810112	46	4137
2026-01-24 09:27:57.02	342.63	20.30	-38.0	-38.8	24.6	0.00e+00	0	44	0	2996830208	46	4200
2026-01-24 09:28:01.05	341.97	19.90	-38.3	-39.0	24.4	0.00e+00	0	44	0	3019898880	47	4083
2026-01-24 09:28:05.08	341.33	19.51	-38.3	-39.0	24.4	0.00e+00	0	43	0	3042967552	47	4079
2026-01-24 09:28:09.11	340.71	19.11	-38.5	-39.2	24.3	0.00e+00	0	44	0	3064987648	47	4171
2026-01-24 09:28:13.14	340.10	18.72	-38.9	-39.7	24.3	0.00e+00	0	44	0	3087007744	48	4165
2026-01-24 09:28:17.17	339.51	18.33	-39.0	-39.7	24.2	0.00e+00	0	44	0	3110076416	48	4162
2026-01-24 09:28:21.21	338.93	17.94	-39.3	-40.0	23.9	0.00e+00	0	44	0	3133145088	49	4077
2026-01-24 09:28:25.24	338.36	17.56	-39.1	-39.9	24.1	0.00e+00	0	44	0	3155165184	49	4011
2026-01-24 09:28:29.27	337.82	17.18	-39.3	-40.0	23.9	0.00e+00	0	44	0	3178233856	49	4086
2026-01-24 09:28:33.30	337.28	16.80	-39.6	-40.3	23.6	0.00e+00	0	44	0	3201302528	49	4231
2026-01-24 09:28:37.33	336.76	16.43	-39.8	-40.6	23.4	0.00e+00	0	44	0	3223322624	50	4126
2026-01-24 09:28:41.37	336.25	16.06	-40.0	-40.7	23.3	3.40e-06	0	44	0	3246391296	50	4177
2026-01-24 09:28:45.40	335.76	15.69	-40.1	-40.9	23.1	0.00e+00	0	43	0	3269459968	51	4032
2026-01-24 09:28:49.43	335.28	15.33	-40.1	-40.9	23.1	0.00e+00	0	43	0	3291480064	51	4028
2026-01-24 09:28:53.47	334.80	14.96	-40.4	-41.2	22.8	0.00e+00	0	44	0	3314548736	51	4157
2026-01-24 09:28:57.51	334.34	14.61	-40.4	-41.2	22.8	0.00e+00	0	44	0	3337617408	51	4166
2026-01-24 09:29:01.53	333.90	14.25	-40.1	-40.9	23.0	0.00e+00	0	43	0	3359637504	51	4029
2026-01-24 09:29:05.57	333.46	13.90	-40.3	-41.1	22.8	0.00e+00	0	44	0	3382706176	51	4129
2026-01-24 09:29:09.60	333.03	13.55	-40.3	-41.1	22.8	0.00e+00	0	44	0	3405774848	51	4126
2026-01-24 09:29:13.64	332.61	13.21	-40.5	-41.3	22.6	0.00e+00	0	43	0	3427794944	51	4216
2026-01-24 09:29:17.67	332.21	12.87	-40.6	-41.4	22.4	0.00e+00	0	43	0	3450863616	52	4035
2026-01-24 09:29:21.71	331.81	12.53	-40.9	-41.7	22.1	0.00e+00	0	44	0	3472883712	52	4175
2026-01-24 09:29:25.74	331.42	12.20	-40.9	-41.7	22.1	0.00e+00	0	44	0	3495952384	52	4176
2026-01-24 09:29:29.77	331.04	11.87	-41.0	-41.8	21.9	0.00e+00	0	44	0	3519021056	52	4231
2026-01-24 09:29:33.81	330.67	11.54	-41.0	-41.8	21.9	0.00e+00	0	44	0	3541041152	52	4238
2026-01-24 09:29:37.84	330.31	11.21	-41.2	-42.0	21.7	0.00e+00	0	44	0	3564109824	53	4095
2026-01-24 09:29:41.87	329.96	10.89	-41.2	-42.0	21.7	0.00e+00	0	44	0	3587178496	53	4083
2026-01-24 09:29:45.91	329.61	10.57	-41.3	-42.2	21.5	0.00e+00	0	44	0	3609198592	53	4176
2026-01-24 09:29:49.94	329.27	10.26	-41.2	-42.0	21.7	0.00e+00	0	44	0	3632267264	53	4086
2026-01-24 09:29:53.97	328.94	9.94	-41.4	-42.3	21.5	0.00e+00	0	44	0	3655335936	53	4195
2026-01-24 09:29:58.01	328.62	9.63	-41.5	-42.4	21.3	0.00e+00	0	44	0	3677356032	53	4274
2026-01-24 09:30:02.04	328.30	9.33	-41.4	-42.3	21.4	0.00e+00	0	44	0	3700424704	53	4217
2026-01-24 09:30:06.07	328.00	9.03	-41.6	-42.5	21.1	0.00e+00	0	43	0	3723493376	54	4079
2026-01-24 09:30:10.11	327.69	8.72	-41.8	-42.7	21.0	0.00e+00	0	44	0	3745513472	54	4152
2026-01-24 09:30:14.14	327.40	8.43	-41.8	-42.7	20.8	0.00e+00	0	43	0	3768582144	54	4188
2026-01-24 09:30:18.17	327.11	8.13	-41.7	-42.6	20.9	0.00e+00	0	44	0	3790602240	54	4141
2026-01-24 09:30:22.20	326.82	7.84	-42.0	-42.9	20.6	0.00e+00	0	44	0	3813670912	54	4267
2026-01-24 09:30:26.24	326.54	7.55	-42.3	-43.2	20.3	0.00e+00	0	44	0	3835691008	55	4185
2026-01-24 09:30:30.27	326.27	7.26	-42.2	-43.2	20.2	0.00e+00	0	43	0	3858759680	55	4153
2026-01-24 09:30:34.31	326.01	6.98	-42.2	-43.2	20.3	0.00e+00	0	43	0	3881828352	55	4146
2026-01-24 09:30:38.34	325.75	6.69	-42.4	-43.4	20.1	0.00e+00	0	44	0	3903848448	56	4031
2026-01-24 09:30:42.38	325.49	6.41	-42.2	-43.2	20.1	0.00e+00	0	43	0	3926917120	55	4181
2026-01-24 09:30:46.40	325.24	6.14	-42.6	-43.6	19.8	0.00e+00	0	43	0	3949985792	56	4130
2026-01-24 09:30:50.44	324.99	5.86	-42.9	-44.0	19.4	0.00e+00	0	43	0	3972005888	56	4297
2026-01-24 09:30:54.47	324.75	5.59	-42.9	-43.9	19.4	0.00e+00	0	43	0	3995074560	57	4040
2026-01-24 09:30:58.51	324.52	5.32	-42.6	-43.6	19.6	0.00e+00	0	43	0	4018143232	56	4137
2026-01-24 09:31:02.54	324.28	5.05	-42.7	-43.8	19.4	0.00e+00	0	43	0	4040163328	56	4214
2026-01-24 09:31:06.57	324.06	4.79	-53.0	-65.0	3.8	8.46e-01	0	44	104	4047503360	76	15264
2026-01-24 09:31:10.61	323.84	4.52	-53.7	-65.6	3.8	8.46e-01	0	44	104	4047503360	77	15564
2026-01-24 09:31:14.64	323.62	4.26	-54.1	-66.1	3.8	8.47e-01	0	44	104	4047503360	78	15421
2026-01-24 09:31:18.68	323.40	4.00	-54.3	-66.3	3.8	8.47e-01	0	44	104	4047503360	79	14907
2026-01-24 09:31:22.71	323.19	3.74	-54.3	-66.3	3.8	8.46e-01	0	44	104	4047503360	79	14956
2026-01-24 09:31:26.75	322.99	3.49	-54.1	-66.1	3.8	8.45e-01	0	44	104	4047503360	79	14578
2026-01-24 09:31:30.78	322.78	3.23	-53.9	-65.9	3.8	8.45e-01	0	44	104	4047503360	79	14341
2026-01-24 09:31:34.82	322.58	2.98	-53.9	-65.9	3.8	8.46e-01	0	44	104	4047503360	79	14269
2026-01-24 09:31:38.85	322.39	2.73	-53.9	-65.8	3.8	8.46e-01	0	44	104	4047503360	79	14158
2026-01-24 09:31:42.88	322.20	2.49	-53.8	-65.8	3.8	8.46e-01	0	44	104	4047503360	79	14095
2026-01-24 09:31:46.91	322.01	2.24	-53.8	-65.8	3.8	8.46e-01	0	44	104	4047503360	79	14146
2026-01-24 09:31:50.94	321.83	2.00	-53.8	-65.8	3.8	8.46e-01	0	44	104	4047503360	79	14056

#Closed at: 2026-01-24 09:31:53
#Recorded file [4047 MB]: D:/lorett/data/31041_260124_121824.dat