passes_logs/2026/01/24/R3.2S_Murmansk/R3.2S_Murmansk__20260124_220314_SUOMI_NPP_rec.log

#Pass ID: 20260124_220314_SUOMI NPP
#Satellite: SUOMI NPP
#Configuration: NPP
#almurnet v.1.7.20251203
#Start time: 2026-01-24 22:03:15

#Version: 2.2.20231116
#Station: R3.2S_Murmansk
#Location: 33.079688 lon 68.888172 lat
#TLE: 1 37849U 11061A   26024.54906732  .00000185  00000+0  10878-3 0  9990
#TLE: 2 37849  98.7821 326.5159 0002200  47.3746 312.7615 14.19529340738061

#Time	Az	El	Level	Level2	SNR	BER	BlckErr	Temp	State	Recorded	gain1	gain2
2026-01-24 22:03:15.51	18.61	2.04	-53.3	-68.3	3.8	1.49e+00	0	41	0	0	77	21040
2026-01-24 22:03:18.54	18.86	2.20	-53.3	-68.3	3.8	1.49e+00	0	41	104	0	77	21047
2026-01-24 22:03:21.56	19.10	2.36	-53.3	-68.2	3.8	1.49e+00	0	41	104	0	77	20961
2026-01-24 22:03:24.59	19.35	2.52	-53.3	-68.3	3.8	1.49e+00	0	41	104	0	77	21039
2026-01-24 22:03:27.61	19.60	2.67	-53.3	-68.3	3.8	1.49e+00	0	41	104	0	77	21026
2026-01-24 22:03:30.63	19.86	2.83	-53.3	-68.3	3.8	1.49e+00	0	41	104	0	77	21027
2026-01-24 22:03:33.67	20.11	2.99	-53.3	-68.3	3.8	1.49e+00	0	42	104	0	77	21031
2026-01-24 22:03:36.69	20.37	3.15	-53.3	-68.3	3.8	1.49e+00	0	42	104	0	77	21080
2026-01-24 22:03:39.71	20.63	3.31	-53.3	-68.3	3.8	1.49e+00	0	42	104	0	77	21027
2026-01-24 22:03:42.74	20.90	3.47	-53.3	-68.2	3.8	1.49e+00	0	42	104	0	77	20990
2026-01-24 22:03:45.76	21.16	3.63	-53.3	-68.2	3.8	1.49e+00	0	42	104	0	77	21002
2026-01-24 22:03:48.78	21.43	3.79	-53.3	-68.2	3.8	1.49e+00	0	42	104	0	77	21001
2026-01-24 22:03:51.80	21.71	3.95	-51.2	-67.3	4.0	1.50e+00	0	42	104	0	74	22407
2026-01-24 22:03:54.82	21.98	4.12	-51.4	-67.3	4.1	1.50e+00	0	42	104	0	74	22434
2026-01-24 22:03:57.85	22.26	4.28	-52.8	-67.5	4.0	1.49e+00	0	42	104	0	76	20326
2026-01-24 22:04:00.87	22.54	4.44	-48.0	-66.9	4.0	1.51e+00	0	42	104	0	66	33953
2026-01-24 22:04:03.90	22.82	4.61	-42.4	-66.7	4.0	1.51e+00	0	42	104	0	56	59105
2026-01-24 22:04:06.92	23.11	4.77	-41.0	-65.1	3.7	1.54e+00	0	42	104	0	51	65451
2026-01-24 22:04:09.95	23.40	4.93	-41.7	-67.0	3.9	1.51e+00	0	42	104	0	55	64234
2026-01-24 22:04:12.97	23.69	5.10	-44.7	-67.1	3.9	1.50e+00	0	42	104	0	59	51623
2026-01-24 22:04:16.00	23.99	5.27	-48.5	-67.0	4.0	1.50e+00	0	42	104	0	67	32533
2026-01-24 22:04:19.02	24.29	5.43	-53.3	-68.3	3.8	1.49e+00	0	42	104	0	77	21066
2026-01-24 22:04:22.04	24.59	5.60	-53.3	-68.3	3.8	1.49e+00	0	42	104	0	77	21054
2026-01-24 22:04:25.06	24.90	5.76	-53.3	-68.2	3.8	1.49e+00	0	42	104	0	77	21006
2026-01-24 22:04:28.09	25.21	5.93	-53.3	-68.3	3.8	1.49e+00	0	42	104	0	77	21038
2026-01-24 22:04:31.11	25.52	6.10	-53.3	-68.2	3.8	1.49e+00	0	42	104	0	77	20983
2026-01-24 22:04:34.14	25.84	6.27	-53.3	-68.2	3.8	1.49e+00	0	42	104	0	77	20968
2026-01-24 22:04:37.16	26.16	6.43	-53.3	-68.2	3.8	1.49e+00	0	42	104	0	77	21011
2026-01-24 22:04:40.18	26.48	6.60	-53.3	-68.2	3.8	1.49e+00	0	42	104	0	77	20996
2026-01-24 22:04:43.21	26.81	6.77	-53.3	-68.3	3.8	1.49e+00	0	42	104	0	77	21046
2026-01-24 22:04:46.23	27.14	6.94	-53.3	-68.3	3.8	1.49e+00	0	42	104	0	77	21029
2026-01-24 22:04:49.26	27.47	7.11	-53.3	-68.3	3.8	1.49e+00	0	43	104	0	77	21021
2026-01-24 22:04:52.28	27.81	7.28	-51.2	-67.5	4.0	1.50e+00	0	42	104	0	74	22979
2026-01-24 22:04:55.30	28.15	7.45	-51.3	-67.4	4.0	1.50e+00	0	42	104	0	74	22722
2026-01-24 22:04:58.33	28.49	7.62	-52.2	-67.7	3.9	1.50e+00	0	43	104	0	75	22176
2026-01-24 22:05:01.35	28.84	7.79	-52.3	-67.8	3.9	1.49e+00	0	42	104	0	75	22431
2026-01-24 22:05:04.38	29.20	7.96	-52.5	-67.7	4.0	1.50e+00	0	42	104	0	75	22052
2026-01-24 22:05:07.40	29.55	8.13	-52.2	-67.6	4.0	1.50e+00	0	43	104	0	75	21943
2026-01-24 22:05:10.43	29.92	8.30	-52.4	-67.6	4.0	1.50e+00	0	42	104	0	75	21897
2026-01-24 22:05:13.46	30.28	8.48	-53.0	-67.8	3.9	1.50e+00	0	43	104	0	76	21138
2026-01-24 22:05:16.48	30.65	8.65	-53.1	-68.1	3.8	1.49e+00	0	42	104	0	76	21760
2026-01-24 22:05:19.50	31.02	8.82	-53.2	-68.2	3.8	1.49e+00	0	42	104	0	77	20864
2026-01-24 22:05:22.53	31.40	8.99	-53.3	-68.2	3.8	1.49e+00	0	43	104	0	77	20973
2026-01-24 22:05:25.55	31.78	9.16	-53.2	-68.2	3.8	1.49e+00	0	43	104	0	77	20821
2026-01-24 22:05:28.58	32.17	9.34	-53.3	-68.3	3.8	1.49e+00	0	43	104	0	77	21057
2026-01-24 22:05:31.60	32.56	9.51	-53.3	-68.3	3.8	1.49e+00	0	43	104	0	77	21020
2026-01-24 22:05:34.62	32.96	9.68	-53.3	-68.3	3.8	1.49e+00	0	43	104	0	77	21037
2026-01-24 22:05:37.64	33.36	9.85	-53.3	-68.3	3.8	1.49e+00	0	43	104	0	77	21087
2026-01-24 22:05:40.67	33.76	10.03	-53.3	-68.3	3.8	1.49e+00	0	43	104	0	77	21028
2026-01-24 22:05:43.70	34.17	10.20	-53.3	-68.3	3.8	1.49e+00	0	43	104	0	77	21021
2026-01-24 22:05:46.72	34.59	10.37	-53.3	-68.3	3.8	1.49e+00	0	43	104	0	77	21067
2026-01-24 22:05:49.74	35.00	10.54	-53.3	-68.3	3.8	1.49e+00	0	43	104	0	77	21035
2026-01-24 22:05:52.76	35.43	10.71	-53.3	-68.3	3.8	1.49e+00	0	43	104	0	77	21083
2026-01-24 22:05:55.79	35.86	10.89	-53.3	-68.3	3.8	1.49e+00	0	43	104	0	77	21031
2026-01-24 22:05:58.82	36.29	11.06	-53.3	-68.3	3.8	1.49e+00	0	43	104	0	77	21072
2026-01-24 22:06:01.84	36.73	11.23	-53.3	-68.3	3.8	1.49e+00	0	43	104	0	77	21059
2026-01-24 22:06:04.86	37.17	11.40	-53.3	-68.3	3.8	1.49e+00	0	43	104	0	77	21076
2026-01-24 22:06:07.88	37.62	11.57	-53.3	-68.3	3.8	1.49e+00	0	43	104	0	77	21034
2026-01-24 22:06:10.91	38.07	11.74	-53.3	-68.3	3.8	1.49e+00	0	42	104	0	77	21077
2026-01-24 22:06:13.93	38.53	11.91	-53.3	-68.2	3.8	1.49e+00	0	43	104	0	77	21010
2026-01-24 22:06:16.96	38.99	12.08	-53.3	-68.3	3.8	1.49e+00	0	43	104	0	77	21020
2026-01-24 22:06:19.98	39.46	12.25	-53.3	-68.3	3.8	1.49e+00	0	43	104	0	77	21019
2026-01-24 22:06:23.01	39.93	12.42	-53.3	-68.2	3.8	1.49e+00	0	43	104	0	77	21016
2026-01-24 22:06:26.03	40.41	12.59	-53.3	-68.2	3.8	1.49e+00	0	43	104	0	77	21001
2026-01-24 22:06:29.06	40.90	12.76	-53.3	-68.3	3.8	1.49e+00	0	43	104	0	77	21044
2026-01-24 22:06:32.08	41.39	12.92	-53.3	-68.2	3.8	1.49e+00	0	43	104	0	77	20995
2026-01-24 22:06:35.10	41.88	13.09	-53.3	-68.3	3.8	1.49e+00	0	43	104	0	77	21023
2026-01-24 22:06:38.13	42.38	13.26	-53.3	-68.3	3.8	1.49e+00	0	43	104	0	77	21041
2026-01-24 22:06:41.15	42.89	13.42	-53.3	-68.3	3.8	1.49e+00	0	43	104	0	77	21059
2026-01-24 22:06:44.17	43.40	13.58	-53.3	-68.3	3.8	1.49e+00	0	43	104	0	77	21103
2026-01-24 22:06:47.20	43.92	13.75	-53.3	-68.3	3.8	1.49e+00	0	43	104	0	77	21084
2026-01-24 22:06:50.22	44.44	13.91	-53.3	-68.3	3.8	1.49e+00	0	43	104	0	77	21039
2026-01-24 22:06:53.24	44.96	14.07	-53.3	-68.3	3.8	1.49e+00	0	43	104	0	77	21041
2026-01-24 22:06:56.26	45.50	14.23	-53.3	-68.2	3.8	1.49e+00	0	43	104	0	77	21016
2026-01-24 22:06:59.29	46.04	14.38	-53.3	-68.3	3.8	1.49e+00	0	43	104	0	77	21031
2026-01-24 22:07:02.31	46.58	14.54	-53.3	-68.3	3.8	1.49e+00	0	43	104	0	77	21028
2026-01-24 22:07:05.34	47.13	14.70	-53.3	-68.3	3.8	1.49e+00	0	43	104	0	77	21076
2026-01-24 22:07:08.36	47.69	14.85	-53.3	-68.3	3.8	1.49e+00	0	43	104	0	77	21041
2026-01-24 22:07:11.38	48.25	15.00	-53.3	-68.3	3.8	1.49e+00	0	43	104	0	77	21060
2026-01-24 22:07:14.40	48.81	15.15	-53.3	-68.3	3.8	1.49e+00	0	43	104	0	77	21062
2026-01-24 22:07:17.43	49.39	15.30	-53.3	-68.3	3.8	1.49e+00	0	43	104	0	77	21070
2026-01-24 22:07:20.45	49.96	15.45	-53.3	-68.3	3.8	1.49e+00	0	43	104	0	77	21093
2026-01-24 22:07:23.47	50.55	15.59	-53.3	-68.3	3.8	1.49e+00	0	43	104	0	77	21082
2026-01-24 22:07:26.50	51.14	15.74	-53.3	-68.3	3.8	1.49e+00	0	43	104	0	77	21069
2026-01-24 22:07:29.52	51.73	15.88	-53.3	-68.3	3.8	1.49e+00	0	43	104	0	77	21109
2026-01-24 22:07:32.55	52.33	16.02	-53.3	-68.3	3.8	1.49e+00	0	43	104	0	77	21084
2026-01-24 22:07:35.57	52.94	16.15	-53.3	-68.3	3.8	1.49e+00	0	43	104	0	77	21027
2026-01-24 22:07:38.59	53.55	16.29	-53.3	-68.3	3.8	1.49e+00	0	43	104	0	77	21068
2026-01-24 22:07:41.62	54.16	16.42	-53.3	-68.3	3.8	1.49e+00	0	43	104	0	77	21089
2026-01-24 22:07:44.64	54.78	16.55	-53.3	-68.3	3.8	1.49e+00	0	43	104	0	77	21119
2026-01-24 22:07:47.66	55.41	16.68	-53.3	-68.3	3.8	1.49e+00	0	43	104	0	77	21035
2026-01-24 22:07:50.68	56.04	16.80	-53.3	-68.3	3.8	1.49e+00	0	43	104	0	77	21025
2026-01-24 22:07:53.71	56.68	16.92	-53.3	-68.3	3.8	1.49e+00	0	43	104	0	77	21076
2026-01-24 22:07:56.73	57.32	17.04	-53.3	-68.3	3.8	1.49e+00	0	43	104	0	77	21053
2026-01-24 22:07:59.76	57.97	17.16	-53.3	-68.3	3.8	1.49e+00	0	43	104	0	77	21020
2026-01-24 22:08:02.78	58.62	17.27	-53.3	-68.3	3.8	1.49e+00	0	43	104	0	77	21034
2026-01-24 22:08:05.80	59.27	17.38	-53.3	-68.3	3.8	1.49e+00	0	43	104	0	77	21058
2026-01-24 22:08:08.83	59.93	17.49	-53.3	-68.3	3.8	1.49e+00	0	43	104	0	77	21107
2026-01-24 22:08:11.85	60.60	17.59	-53.3	-68.3	3.8	1.49e+00	0	43	104	0	77	21067
2026-01-24 22:08:14.88	61.27	17.70	-53.3	-68.3	3.8	1.49e+00	0	43	104	0	77	21044
2026-01-24 22:08:17.90	61.94	17.79	-53.3	-68.3	3.8	1.49e+00	0	43	104	0	77	21049
2026-01-24 22:08:20.93	62.62	17.89	-53.3	-68.3	3.8	1.49e+00	0	43	104	0	77	21028
2026-01-24 22:08:23.95	63.31	17.98	-53.3	-68.3	3.8	1.49e+00	0	43	104	0	77	21066
2026-01-24 22:08:26.97	63.99	18.06	-53.3	-68.3	3.8	1.49e+00	0	43	104	0	77	21084
2026-01-24 22:08:30.00	64.68	18.15	-53.3	-68.3	3.8	1.49e+00	0	43	104	0	77	21028
2026-01-24 22:08:33.02	65.38	18.23	-53.3	-68.3	3.8	1.49e+00	0	43	104	0	77	21089
2026-01-24 22:08:36.05	66.07	18.30	-53.3	-68.3	3.8	1.49e+00	0	43	104	0	77	21064
2026-01-24 22:08:39.07	66.77	18.37	-53.3	-68.3	3.8	1.49e+00	0	43	104	0	77	21056
2026-01-24 22:08:42.09	67.48	18.44	-53.3	-68.3	3.8	1.49e+00	0	43	104	0	77	21094
2026-01-24 22:08:45.12	68.19	18.51	-53.3	-68.3	3.8	1.49e+00	0	43	104	0	77	21063
2026-01-24 22:08:48.15	68.90	18.57	-53.3	-68.3	3.8	1.49e+00	0	43	104	0	77	21046
2026-01-24 22:08:51.17	69.61	18.62	-53.3	-68.3	3.8	1.49e+00	0	43	104	0	77	21032
2026-01-24 22:08:54.19	70.32	18.67	-53.3	-68.3	3.8	1.49e+00	0	43	104	0	77	21080
2026-01-24 22:08:57.22	71.04	18.72	-53.3	-68.3	3.8	1.49e+00	0	43	104	0	77	21062
2026-01-24 22:09:00.24	71.76	18.76	-53.3	-68.3	3.8	1.49e+00	0	43	104	0	77	21033
2026-01-24 22:09:03.26	72.48	18.80	-53.3	-68.3	3.8	1.49e+00	0	43	104	0	77	21036
2026-01-24 22:09:06.29	73.20	18.84	-53.3	-68.3	3.8	1.49e+00	0	43	104	0	77	21036
2026-01-24 22:09:09.31	73.93	18.87	-53.3	-68.3	3.8	1.49e+00	0	43	104	0	77	21102
2026-01-24 22:09:12.33	74.65	18.89	-53.3	-68.3	3.8	1.49e+00	0	43	104	0	77	21058
2026-01-24 22:09:15.36	75.38	18.91	-53.3	-68.3	3.8	1.49e+00	0	43	104	0	77	21029
2026-01-24 22:09:18.38	76.11	18.93	-53.3	-68.3	3.8	1.49e+00	0	43	104	0	77	21086
2026-01-24 22:09:21.41	76.84	18.94	-53.3	-68.3	3.8	1.49e+00	0	43	104	0	77	21061
2026-01-24 22:09:24.44	77.57	18.95	-53.3	-68.3	3.8	1.49e+00	0	43	104	0	77	21100
2026-01-24 22:09:27.46	78.30	18.95	-53.3	-68.3	3.8	1.49e+00	0	43	104	0	77	21044
2026-01-24 22:09:30.48	79.02	18.95	-53.3	-68.3	3.8	1.49e+00	0	43	104	0	77	21067
2026-01-24 22:09:33.51	79.76	18.94	-53.3	-68.3	3.8	1.49e+00	0	43	104	0	77	21067
2026-01-24 22:09:36.53	80.48	18.93	-53.3	-68.3	3.8	1.49e+00	0	43	104	0	77	21100
2026-01-24 22:09:39.55	81.21	18.92	-53.3	-68.3	3.8	1.49e+00	0	43	104	0	77	21020
2026-01-24 22:09:42.57	81.94	18.90	-53.3	-68.3	3.8	1.49e+00	0	43	104	0	77	21092
2026-01-24 22:09:45.60	82.66	18.87	-53.3	-68.3	3.8	1.49e+00	0	43	104	0	77	21062
2026-01-24 22:09:48.62	83.39	18.84	-53.3	-68.3	3.8	1.49e+00	0	43	104	0	77	21069
2026-01-24 22:09:51.65	84.11	18.81	-53.3	-68.3	3.8	1.49e+00	0	43	104	0	77	21044
2026-01-24 22:09:54.68	84.84	18.77	-53.3	-68.3	3.8	1.49e+00	0	43	104	0	77	21088
2026-01-24 22:09:57.70	85.56	18.73	-53.3	-68.3	3.8	1.49e+00	0	43	104	0	77	21029
2026-01-24 22:10:00.72	86.28	18.69	-53.3	-68.3	3.8	1.49e+00	0	43	104	0	77	21086
2026-01-24 22:10:03.75	86.99	18.64	-53.3	-68.3	3.8	1.49e+00	0	43	104	0	77	21112
2026-01-24 22:10:06.77	87.71	18.58	-53.3	-68.3	3.8	1.49e+00	0	43	104	0	77	21037
2026-01-24 22:10:09.79	88.42	18.52	-53.3	-68.3	3.8	1.49e+00	0	43	104	0	77	21124
2026-01-24 22:10:12.82	89.13	18.46	-53.3	-68.3	3.8	1.49e+00	0	43	104	0	77	21089
2026-01-24 22:10:15.84	89.83	18.39	-53.3	-68.3	3.8	1.49e+00	0	43	104	0	77	21120
2026-01-24 22:10:18.86	90.53	18.32	-53.3	-68.3	3.8	1.49e+00	0	43	104	0	77	21027
2026-01-24 22:10:21.89	91.23	18.25	-53.3	-68.3	3.8	1.49e+00	0	43	104	0	77	21069
2026-01-24 22:10:24.91	91.93	18.17	-53.3	-68.3	3.8	1.49e+00	0	43	104	0	77	21090
2026-01-24 22:10:27.93	92.62	18.09	-53.3	-68.3	3.8	1.49e+00	0	43	104	0	77	21107
2026-01-24 22:10:30.96	93.31	18.00	-53.3	-68.3	3.8	1.49e+00	0	43	104	0	77	21077
2026-01-24 22:10:33.98	93.99	17.91	-53.3	-68.3	3.8	1.49e+00	0	43	104	0	77	21059
2026-01-24 22:10:37.00	94.68	17.82	-53.3	-68.3	3.8	1.49e+00	0	43	104	0	77	21069
2026-01-24 22:10:40.02	95.35	17.72	-53.3	-68.3	3.8	1.49e+00	0	43	104	0	77	21084
2026-01-24 22:10:43.05	96.02	17.62	-53.3	-68.3	3.8	1.49e+00	0	43	104	0	77	21059
2026-01-24 22:10:46.07	96.69	17.52	-53.3	-68.3	3.8	1.49e+00	0	43	104	0	77	21075
2026-01-24 22:10:49.10	97.36	17.41	-53.3	-68.3	3.8	1.49e+00	0	43	104	0	77	21019
2026-01-24 22:10:52.12	98.02	17.30	-53.3	-68.3	3.8	1.49e+00	0	43	104	0	77	21080
2026-01-24 22:10:55.14	98.67	17.19	-53.3	-68.3	3.8	1.49e+00	0	43	104	0	77	21044
2026-01-24 22:10:58.16	99.32	17.07	-53.3	-68.3	3.8	1.49e+00	0	43	104	0	77	21073
2026-01-24 22:11:01.19	99.96	16.95	-53.3	-68.3	3.8	1.49e+00	0	43	104	0	77	21035
2026-01-24 22:11:04.21	100.60	16.83	-53.3	-68.2	3.8	1.49e+00	0	43	104	0	77	20990
2026-01-24 22:11:07.23	101.24	16.70	-53.3	-68.3	3.8	1.49e+00	0	43	104	0	77	21042
2026-01-24 22:11:10.25	101.86	16.58	-53.3	-68.3	3.8	1.49e+00	0	43	104	0	77	21038
2026-01-24 22:11:13.28	102.49	16.45	-53.3	-68.3	3.8	1.49e+00	0	43	104	0	77	21079
2026-01-24 22:11:16.30	103.11	16.32	-53.3	-68.3	3.8	1.49e+00	0	43	104	0	77	21030
2026-01-24 22:11:19.32	103.72	16.18	-53.3	-68.3	3.8	1.49e+00	0	43	104	0	77	21089
2026-01-24 22:11:22.35	104.33	16.04	-53.3	-68.3	3.8	1.49e+00	0	43	104	0	77	21046
2026-01-24 22:11:25.38	104.94	15.90	-53.3	-68.3	3.8	1.49e+00	0	43	104	0	77	21055
2026-01-24 22:11:28.40	105.53	15.76	-53.3	-68.3	3.8	1.49e+00	0	43	104	0	77	21109
2026-01-24 22:11:31.42	106.12	15.62	-53.3	-68.3	3.8	1.49e+00	0	43	104	0	77	21097
2026-01-24 22:11:34.45	106.71	15.47	-53.3	-68.3	3.8	1.49e+00	0	43	104	0	77	21074
2026-01-24 22:11:37.47	107.29	15.33	-53.3	-68.3	3.8	1.49e+00	0	43	104	0	77	21041
2026-01-24 22:11:40.49	107.87	15.18	-53.3	-68.3	3.8	1.49e+00	0	43	104	0	77	21069
2026-01-24 22:11:43.52	108.44	15.03	-53.3	-68.3	3.8	1.49e+00	0	43	104	0	77	21042
2026-01-24 22:11:46.54	109.00	14.87	-53.3	-68.3	3.8	1.49e+00	0	43	104	0	77	21087
2026-01-24 22:11:49.56	109.56	14.72	-53.3	-68.3	3.8	1.49e+00	0	43	104	0	77	21083
2026-01-24 22:11:52.59	110.11	14.56	-53.3	-68.3	3.8	1.49e+00	0	43	104	0	77	21029
2026-01-24 22:11:55.61	110.66	14.41	-53.3	-68.3	3.8	1.49e+00	0	43	104	0	77	21076
2026-01-24 22:11:58.63	111.20	14.25	-53.3	-68.3	3.8	1.49e+00	0	43	104	0	77	21073
2026-01-24 22:12:01.66	111.74	14.09	-53.3	-68.3	3.8	1.49e+00	0	43	104	0	77	21041
2026-01-24 22:12:04.68	112.27	13.93	-53.3	-68.3	3.8	1.49e+00	0	43	104	0	77	21046
2026-01-24 22:12:07.71	112.79	13.77	-53.3	-68.3	3.8	1.49e+00	0	43	104	0	77	21049
2026-01-24 22:12:10.74	113.32	13.60	-53.3	-68.3	3.8	1.49e+00	0	43	104	0	77	21036
2026-01-24 22:12:13.76	113.83	13.44	-53.3	-68.3	3.8	1.49e+00	0	43	104	0	77	21018
2026-01-24 22:12:16.78	114.34	13.27	-53.3	-68.3	3.8	1.49e+00	0	43	104	0	77	21078
2026-01-24 22:12:19.81	114.84	13.11	-53.3	-68.3	3.8	1.49e+00	0	43	104	0	77	21088
2026-01-24 22:12:22.83	115.34	12.94	-53.3	-68.3	3.8	1.49e+00	0	43	104	0	77	21068
2026-01-24 22:12:25.85	115.83	12.77	-53.3	-68.3	3.8	1.49e+00	0	43	104	0	77	21021
2026-01-24 22:12:28.88	116.32	12.60	-53.3	-68.3	3.8	1.49e+00	0	43	104	0	77	21047
2026-01-24 22:12:31.90	116.80	12.43	-53.3	-68.2	3.8	1.49e+00	0	43	104	0	77	21017
2026-01-24 22:12:34.93	117.28	12.26	-53.3	-68.3	3.8	1.49e+00	0	43	104	0	77	21070
2026-01-24 22:12:37.95	117.75	12.09	-53.3	-68.3	3.8	1.49e+00	0	43	104	0	77	21070
2026-01-24 22:12:40.97	118.21	11.92	-53.3	-68.3	3.8	1.49e+00	0	43	104	0	77	21037
2026-01-24 22:12:44.00	118.67	11.75	-53.3	-68.3	3.8	1.49e+00	0	43	104	0	77	21027
2026-01-24 22:12:47.02	119.13	11.58	-53.3	-68.2	3.8	1.49e+00	0	43	104	0	77	21015
2026-01-24 22:12:50.05	119.58	11.41	-53.3	-68.3	3.8	1.49e+00	0	43	104	0	77	21044
2026-01-24 22:12:53.07	120.02	11.24	-53.3	-68.3	3.8	1.49e+00	0	43	104	0	77	21097
2026-01-24 22:12:56.10	120.46	11.06	-53.3	-68.3	3.8	1.49e+00	0	43	104	0	77	21065
2026-01-24 22:12:59.12	120.90	10.89	-53.3	-68.3	3.8	1.49e+00	0	43	104	0	77	21031
2026-01-24 22:13:02.14	121.33	10.72	-53.3	-68.3	3.8	1.49e+00	0	43	104	0	77	21053
2026-01-24 22:13:05.17	121.75	10.54	-53.3	-68.3	3.8	1.49e+00	0	43	104	0	77	21085
2026-01-24 22:13:08.19	122.17	10.37	-53.3	-68.3	3.8	1.49e+00	0	43	104	0	77	21025
2026-01-24 22:13:11.22	122.59	10.20	-53.3	-68.3	3.8	1.49e+00	0	43	104	0	77	21033
2026-01-24 22:13:14.24	123.00	10.02	-53.3	-68.3	3.8	1.49e+00	0	43	104	0	77	21032
2026-01-24 22:13:17.27	123.41	9.85	-53.3	-68.3	3.8	1.49e+00	0	43	104	0	77	21040
2026-01-24 22:13:20.29	123.81	9.68	-53.3	-68.2	3.8	1.49e+00	0	43	104	0	77	21013
2026-01-24 22:13:23.31	124.21	9.50	-53.3	-68.3	3.8	1.49e+00	0	43	104	0	77	21023
2026-01-24 22:13:26.34	124.60	9.33	-53.3	-68.3	3.8	1.49e+00	0	43	104	0	77	21034
2026-01-24 22:13:29.36	124.99	9.15	-53.3	-68.3	3.8	1.49e+00	0	43	104	0	77	21040
2026-01-24 22:13:32.38	125.37	8.98	-53.3	-68.3	3.8	1.49e+00	0	43	104	0	77	21058
2026-01-24 22:13:35.41	125.75	8.81	-53.3	-68.3	3.8	1.49e+00	0	43	104	0	77	21055
2026-01-24 22:13:38.43	126.13	8.63	-53.3	-68.3	3.8	1.49e+00	0	43	104	0	77	21035
2026-01-24 22:13:41.45	126.50	8.46	-53.3	-68.3	3.8	1.49e+00	0	43	104	0	77	21078
2026-01-24 22:13:44.48	126.86	8.29	-53.3	-68.2	3.8	1.49e+00	0	43	104	0	77	20993
2026-01-24 22:13:47.50	127.23	8.12	-53.3	-68.3	3.8	1.49e+00	0	43	104	0	77	21057
2026-01-24 22:13:50.52	127.58	7.94	-53.3	-68.3	3.8	1.49e+00	0	43	104	0	77	21072
2026-01-24 22:13:53.55	127.94	7.77	-53.3	-68.3	3.8	1.49e+00	0	43	104	0	77	21058
2026-01-24 22:13:56.57	128.29	7.60	-53.3	-68.3	3.8	1.49e+00	0	43	104	0	77	21088
2026-01-24 22:13:59.60	128.64	7.43	-53.3	-68.3	3.8	1.49e+00	0	43	104	0	77	21059
2026-01-24 22:14:02.62	128.98	7.26	-53.3	-68.3	3.8	1.49e+00	0	43	104	0	77	21117
2026-01-24 22:14:05.64	129.32	7.09	-53.3	-68.3	3.8	1.49e+00	0	43	104	0	77	21052
2026-01-24 22:14:08.66	129.65	6.91	-53.3	-68.3	3.8	1.49e+00	0	43	104	0	77	21051
2026-01-24 22:14:11.69	129.98	6.74	-53.3	-68.3	3.8	1.49e+00	0	43	104	0	77	21037
2026-01-24 22:14:14.71	130.31	6.57	-53.3	-68.3	3.8	1.49e+00	0	43	104	0	77	21024
2026-01-24 22:14:17.73	130.63	6.40	-53.3	-68.3	3.8	1.49e+00	0	43	104	0	77	21047
2026-01-24 22:14:20.76	130.95	6.23	-53.3	-68.3	3.8	1.49e+00	0	43	104	0	77	21057
2026-01-24 22:14:23.78	131.27	6.07	-53.3	-68.3	3.8	1.49e+00	0	43	104	0	77	21057
2026-01-24 22:14:26.80	131.58	5.90	-53.3	-68.2	3.8	1.49e+00	0	43	104	0	77	20997
2026-01-24 22:14:29.83	131.89	5.73	-53.3	-68.3	3.8	1.49e+00	0	43	104	0	77	21064
2026-01-24 22:14:32.85	132.20	5.56	-53.3	-68.3	3.8	1.49e+00	0	43	104	0	77	21051
2026-01-24 22:14:35.87	132.50	5.39	-53.3	-68.3	3.8	1.49e+00	0	43	104	0	77	21042
2026-01-24 22:14:38.89	132.80	5.23	-53.3	-68.2	3.8	1.49e+00	0	43	104	0	77	20999
2026-01-24 22:14:41.92	133.10	5.06	-53.3	-68.3	3.8	1.49e+00	0	43	104	0	77	21031
2026-01-24 22:14:44.94	133.39	4.89	-53.3	-68.3	3.8	1.49e+00	0	43	104	0	77	21082
2026-01-24 22:14:47.96	133.68	4.73	-53.3	-68.3	3.8	1.49e+00	0	43	104	0	77	21045
2026-01-24 22:14:50.99	133.97	4.56	-53.3	-68.3	3.8	1.49e+00	0	43	104	0	77	21052
2026-01-24 22:14:54.01	134.25	4.40	-53.3	-68.2	3.8	1.49e+00	0	43	104	0	77	21008
2026-01-24 22:14:57.03	134.53	4.23	-53.3	-68.3	3.8	1.49e+00	0	43	104	0	77	21054
2026-01-24 22:15:00.05	134.81	4.07	-53.3	-68.3	3.8	1.49e+00	0	43	104	0	77	21073
2026-01-24 22:15:03.08	135.09	3.91	-53.3	-68.3	3.8	1.49e+00	0	43	104	0	77	21076
2026-01-24 22:15:06.10	135.36	3.74	-53.3	-68.3	3.8	1.49e+00	0	43	104	0	77	21081
2026-01-24 22:15:09.12	135.63	3.58	-53.3	-68.3	3.8	1.49e+00	0	43	104	0	77	21067
2026-01-24 22:15:12.14	135.89	3.42	-53.3	-68.3	3.8	1.49e+00	0	43	104	0	77	21030
2026-01-24 22:15:15.17	136.16	3.26	-53.3	-68.3	3.8	1.49e+00	0	43	104	0	77	21052
2026-01-24 22:15:18.19	136.42	3.10	-53.3	-68.3	3.8	1.49e+00	0	43	104	0	77	21060
2026-01-24 22:15:21.22	136.68	2.94	-53.3	-68.2	3.8	1.49e+00	0	43	104	0	77	21011
2026-01-24 22:15:24.24	136.93	2.78	-53.3	-68.3	3.8	1.49e+00	0	43	104	0	77	21070
2026-01-24 22:15:27.26	137.19	2.62	-53.3	-68.3	3.8	1.49e+00	0	43	104	0	77	21081
2026-01-24 22:15:30.28	137.44	2.46	-53.3	-68.3	3.8	1.49e+00	0	43	104	0	77	21038
2026-01-24 22:15:33.31	137.68	2.30	-53.3	-68.3	3.8	1.49e+00	0	43	104	0	77	21045
2026-01-24 22:15:36.33	137.93	2.14	-53.3	-68.3	3.8	1.49e+00	0	43	104	0	77	21049
2026-01-24 22:15:39.36	138.17	1.98	-53.3	-68.2	3.8	1.49e+00	0	43	104	0	77	21008

#Closed at: 2026-01-24 22:15:41
#Recorded file [0 MB]: D:/lorett/data/31041_260125_010315.dat