passes_logs/2026/01/24/R3.2S_Murmansk/R3.2S_Murmansk__20260124_042045_FENGYUN_3D_rec.log

#Pass ID: 20260124_042045_FENGYUN 3D
#Satellite: FENGYUN 3D
#Configuration: FENGYUN 3D
#almurnet v.1.7.20251203
#Start time: 2026-01-24 04:20:47

#Version: 2.2.20231116
#Station: R3.2S_Murmansk
#Location: 33.079688 lon 68.888172 lat
#TLE: 1 43010U 17072A   26023.60174628  .00000324  00000+0  17481-3 0  9994
#TLE: 2 43010  98.9958 355.5514 0002482  93.7422 266.4037 14.19699955424476

#Time	Az	El	Level	Level2	SNR	BER	BlckErr	Temp	State	Recorded	gain1	gain2
2026-01-24 04:20:47.36	32.86	2.09	-53.3	-65.2	3.8	8.46e-01	0	41	0	0	77	14866
2026-01-24 04:20:51.39	32.73	2.34	-53.3	-65.2	3.8	8.46e-01	0	41	104	0	77	14860
2026-01-24 04:20:55.42	32.60	2.60	-53.3	-65.2	3.8	8.46e-01	0	41	104	0	77	14839
2026-01-24 04:20:59.45	32.46	2.85	-53.3	-65.2	3.8	8.46e-01	0	41	104	0	77	14868
2026-01-24 04:21:03.49	32.32	3.11	-53.3	-65.2	3.8	8.46e-01	0	41	104	0	77	14842
2026-01-24 04:21:07.53	32.17	3.37	-53.3	-65.2	3.8	8.47e-01	0	42	104	0	77	14840
2026-01-24 04:21:11.56	32.03	3.64	-53.3	-65.2	3.8	8.46e-01	0	42	104	0	77	14856
2026-01-24 04:21:15.59	31.88	3.90	-53.3	-65.2	3.8	8.45e-01	0	42	104	0	77	14824
2026-01-24 04:21:19.62	31.73	4.17	-53.3	-65.2	3.8	8.47e-01	0	42	104	0	77	14851
2026-01-24 04:21:23.65	31.57	4.44	-53.3	-65.2	3.8	8.46e-01	0	42	104	0	77	14848
2026-01-24 04:21:27.68	31.41	4.71	-53.3	-65.3	3.8	8.46e-01	0	42	104	0	77	14895
2026-01-24 04:21:31.71	31.25	4.99	-53.2	-65.2	3.8	8.45e-01	0	42	104	0	77	14849
2026-01-24 04:21:35.74	31.08	5.26	-53.3	-65.3	3.8	8.47e-01	0	42	104	0	77	14882
2026-01-24 04:21:39.77	30.91	5.54	-53.3	-65.2	3.8	8.46e-01	0	42	104	0	77	14841
2026-01-24 04:21:43.81	30.74	5.83	-53.3	-65.2	3.8	8.44e-01	0	43	104	0	77	14863
2026-01-24 04:21:47.84	30.56	6.11	-53.3	-65.2	3.8	8.46e-01	0	42	104	0	77	14857
2026-01-24 04:21:51.87	30.38	6.40	-53.3	-65.2	3.8	8.46e-01	0	42	104	0	77	14860
2026-01-24 04:21:55.90	30.20	6.70	-53.3	-65.2	3.8	8.46e-01	0	42	104	0	77	14850
2026-01-24 04:21:59.93	30.01	6.99	-53.2	-65.2	3.8	8.46e-01	0	42	104	0	77	14861
2026-01-24 04:22:03.97	29.82	7.29	-53.2	-65.2	3.8	8.46e-01	0	43	104	0	77	14837
2026-01-24 04:22:08.00	29.62	7.59	-53.2	-65.2	3.8	8.47e-01	0	43	104	0	77	14857
2026-01-24 04:22:12.03	29.42	7.89	-53.3	-65.2	3.8	8.47e-01	0	43	104	0	77	14839
2026-01-24 04:22:16.07	29.21	8.20	-53.3	-65.2	3.8	8.46e-01	0	43	104	0	77	14832
2026-01-24 04:22:20.10	29.00	8.51	-53.3	-65.2	3.8	8.47e-01	0	43	104	0	77	14821
2026-01-24 04:22:24.14	28.79	8.83	-53.3	-65.2	3.8	8.47e-01	0	43	104	0	77	14841
2026-01-24 04:22:28.17	28.57	9.15	-53.3	-65.2	3.8	8.45e-01	0	43	104	0	77	14847
2026-01-24 04:22:32.21	28.34	9.47	-53.3	-65.3	3.8	8.46e-01	0	43	104	0	77	14880
2026-01-24 04:22:36.24	28.11	9.79	-53.3	-65.2	3.8	8.47e-01	0	43	104	0	77	14827
2026-01-24 04:22:40.27	27.87	10.12	-53.3	-65.3	3.8	8.46e-01	0	43	104	0	77	14925
2026-01-24 04:22:44.31	27.63	10.46	-53.3	-65.2	3.8	8.45e-01	0	43	104	0	77	14862
2026-01-24 04:22:48.34	27.38	10.79	-53.3	-65.2	3.8	8.46e-01	0	43	104	0	77	14874
2026-01-24 04:22:52.37	27.12	11.14	-53.3	-65.2	3.8	8.46e-01	0	43	104	0	77	14852
2026-01-24 04:22:56.41	26.86	11.48	-53.3	-65.3	3.8	8.45e-01	0	43	104	0	77	14885
2026-01-24 04:23:00.45	26.59	11.83	-53.3	-65.3	3.8	8.46e-01	0	43	104	0	77	14915
2026-01-24 04:23:04.48	26.32	12.19	-53.3	-65.3	3.8	8.47e-01	0	43	104	0	77	14906
2026-01-24 04:23:08.52	26.04	12.55	-53.3	-65.3	3.8	8.45e-01	0	43	104	0	77	14887
2026-01-24 04:23:12.55	25.75	12.91	-53.3	-65.3	3.8	8.46e-01	0	43	104	0	77	14881
2026-01-24 04:23:16.58	25.45	13.28	-53.3	-65.3	3.8	8.46e-01	0	43	104	0	77	14895
2026-01-24 04:23:20.61	25.15	13.65	-53.3	-65.2	3.8	8.46e-01	0	43	104	0	77	14867
2026-01-24 04:23:24.65	24.83	14.03	-53.3	-65.2	3.8	8.45e-01	0	43	104	0	77	14862
2026-01-24 04:23:28.68	24.51	14.41	-53.3	-65.2	3.8	8.46e-01	0	43	104	0	77	14857
2026-01-24 04:23:32.72	24.18	14.80	-53.3	-65.3	3.8	8.45e-01	0	43	104	0	77	14883
2026-01-24 04:23:36.75	23.84	15.20	-53.3	-65.2	3.8	8.47e-01	0	43	104	0	77	14854
2026-01-24 04:23:40.78	23.49	15.59	-53.3	-65.2	3.8	8.46e-01	0	43	104	0	77	14845
2026-01-24 04:23:44.81	23.13	16.00	-53.3	-65.3	3.8	8.45e-01	0	43	104	0	77	14893
2026-01-24 04:23:48.84	22.76	16.41	-53.3	-65.3	3.8	8.46e-01	0	43	104	0	77	14892
2026-01-24 04:23:52.87	22.38	16.82	-53.3	-65.2	3.8	8.46e-01	0	43	104	0	77	14829
2026-01-24 04:23:56.91	21.99	17.25	-53.3	-65.3	3.8	8.46e-01	0	43	104	0	77	14884
2026-01-24 04:24:00.94	21.58	17.67	-53.3	-65.3	3.8	8.46e-01	0	43	104	0	77	14904
2026-01-24 04:24:04.97	21.17	18.11	-53.3	-65.3	3.8	8.47e-01	0	43	104	0	77	14890
2026-01-24 04:24:09.00	20.74	18.54	-53.3	-65.2	3.8	8.45e-01	0	43	104	0	77	14871
2026-01-24 04:24:13.04	20.30	18.99	-53.3	-65.2	3.8	8.45e-01	0	43	104	0	77	14853
2026-01-24 04:24:17.07	19.85	19.44	-53.3	-65.2	3.8	8.46e-01	0	43	104	0	77	14871
2026-01-24 04:24:21.10	19.38	19.90	-53.3	-65.2	3.8	8.46e-01	0	43	104	0	77	14840
2026-01-24 04:24:25.13	18.89	20.36	-53.3	-65.2	3.8	8.46e-01	0	43	104	0	77	14862
2026-01-24 04:24:29.17	18.39	20.84	-53.3	-65.3	3.8	8.46e-01	0	43	104	0	77	14899
2026-01-24 04:24:33.19	17.88	21.31	-53.3	-65.2	3.8	8.45e-01	0	43	104	0	77	14834
2026-01-24 04:24:37.22	17.35	21.80	-53.3	-65.2	3.8	8.46e-01	0	43	104	0	77	14860
2026-01-24 04:24:41.26	16.80	22.29	-53.3	-65.2	3.8	8.47e-01	0	43	104	0	77	14842
2026-01-24 04:24:45.29	16.23	22.78	-53.3	-65.2	3.8	8.46e-01	0	43	104	0	77	14787
2026-01-24 04:24:49.33	15.65	23.29	-53.3	-65.2	3.8	8.45e-01	0	43	104	0	77	14796
2026-01-24 04:24:53.36	15.04	23.80	-53.3	-65.2	3.8	8.46e-01	0	43	104	0	77	14870
2026-01-24 04:24:57.40	14.41	24.32	-53.3	-65.3	3.8	8.46e-01	0	43	104	0	77	14913
2026-01-24 04:25:01.43	13.76	24.84	-53.3	-65.3	3.8	8.46e-01	0	43	104	0	77	14891
2026-01-24 04:25:05.46	13.09	25.37	-53.3	-65.2	3.8	8.46e-01	0	43	104	0	77	14828
2026-01-24 04:25:09.49	12.40	25.90	-53.3	-65.2	3.8	8.46e-01	0	43	104	0	77	14869
2026-01-24 04:25:13.53	11.68	26.45	-53.3	-65.3	3.8	8.47e-01	0	43	104	0	77	14898
2026-01-24 04:25:17.56	10.94	26.99	-53.3	-65.3	3.8	8.47e-01	0	43	104	0	77	14900
2026-01-24 04:25:21.59	10.17	27.55	-53.3	-65.2	3.8	8.46e-01	0	43	104	0	77	14845
2026-01-24 04:25:25.62	9.37	28.11	-53.3	-65.2	3.8	8.45e-01	0	43	104	0	77	14835
2026-01-24 04:25:29.65	8.54	28.67	-53.3	-65.2	3.8	8.46e-01	0	43	104	0	77	14866
2026-01-24 04:25:33.69	7.68	29.24	-53.3	-65.2	3.8	8.45e-01	0	43	104	0	77	14837
2026-01-24 04:25:37.72	6.80	29.81	-53.3	-65.2	3.8	8.46e-01	0	43	104	0	77	14829
2026-01-24 04:25:41.75	5.87	30.38	-53.3	-65.2	3.8	8.45e-01	0	43	104	0	77	14869
2026-01-24 04:25:45.78	4.92	30.96	-53.3	-65.2	3.8	8.46e-01	0	44	104	0	77	14848
2026-01-24 04:25:49.82	3.93	31.54	-53.3	-65.2	3.8	8.46e-01	0	43	104	0	77	14867
2026-01-24 04:25:53.85	2.90	32.12	-53.3	-65.2	3.8	8.45e-01	0	43	104	0	77	14828
2026-01-24 04:25:57.88	1.84	32.70	-53.3	-65.2	3.8	8.46e-01	0	44	104	0	77	14851
2026-01-24 04:26:01.92	0.73	33.29	-53.3	-65.2	3.8	8.45e-01	0	43	104	0	77	14855
2026-01-24 04:26:05.95	359.58	33.87	-53.3	-65.2	3.8	8.46e-01	0	43	104	0	77	14846
2026-01-24 04:26:09.98	358.40	34.44	-53.3	-65.2	3.8	8.46e-01	0	44	104	0	77	14830
2026-01-24 04:26:14.02	357.16	35.02	-53.3	-65.2	3.8	8.46e-01	0	44	104	0	77	14794
2026-01-24 04:26:18.05	355.89	35.59	-53.2	-65.2	3.8	8.46e-01	0	44	104	0	77	14855
2026-01-24 04:26:22.09	354.57	36.15	-53.3	-65.2	3.8	8.46e-01	0	44	104	0	77	14877
2026-01-24 04:26:26.12	353.20	36.70	-53.3	-65.2	3.8	8.46e-01	0	43	104	0	77	14855
2026-01-24 04:26:30.15	351.79	37.24	-53.3	-65.2	3.8	8.47e-01	0	43	104	0	77	14825
2026-01-24 04:26:34.19	350.33	37.77	-53.3	-65.2	3.8	8.46e-01	0	44	104	0	77	14823
2026-01-24 04:26:38.22	348.82	38.29	-53.3	-65.2	3.8	8.46e-01	0	44	104	0	77	14816
2026-01-24 04:26:42.25	347.26	38.79	-53.3	-65.2	3.8	8.47e-01	0	44	104	0	77	14875
2026-01-24 04:26:46.28	345.65	39.27	-53.3	-65.2	3.8	8.46e-01	0	44	104	0	77	14841
2026-01-24 04:26:50.31	344.00	39.74	-53.3	-65.2	3.8	8.47e-01	0	43	104	0	77	14831
2026-01-24 04:26:54.34	342.30	40.18	-53.3	-65.2	3.8	8.46e-01	0	43	104	0	77	14823
2026-01-24 04:26:58.37	340.55	40.60	-53.2	-65.2	3.8	8.46e-01	0	44	104	0	77	14864
2026-01-24 04:27:02.41	338.76	40.99	-53.3	-65.2	3.8	8.47e-01	0	44	104	0	77	14809
2026-01-24 04:27:06.44	336.93	41.35	-53.2	-65.2	3.8	8.47e-01	0	44	104	0	77	14810
2026-01-24 04:27:10.48	335.05	41.68	-53.3	-65.2	3.8	8.46e-01	0	44	104	0	77	14865
2026-01-24 04:27:14.51	333.14	41.98	-53.3	-65.2	3.8	8.47e-01	0	44	104	0	77	14827
2026-01-24 04:27:18.54	331.19	42.24	-53.3	-65.2	3.8	8.46e-01	0	43	104	0	77	14823
2026-01-24 04:27:22.58	329.22	42.47	-53.3	-65.2	3.8	8.45e-01	0	44	104	0	77	14841
2026-01-24 04:27:26.62	327.21	42.66	-53.3	-65.2	3.8	8.45e-01	0	43	104	0	77	14872
2026-01-24 04:27:30.65	325.19	42.81	-53.3	-65.2	3.8	8.46e-01	0	44	104	0	77	14854
2026-01-24 04:27:34.68	323.15	42.92	-53.3	-65.2	3.8	8.46e-01	0	44	104	0	77	14812
2026-01-24 04:27:38.72	321.09	42.99	-53.2	-65.2	3.8	8.47e-01	0	43	104	0	77	14825
2026-01-24 04:27:42.76	319.03	43.02	-53.2	-65.2	3.8	8.46e-01	0	43	104	0	77	14812
2026-01-24 04:27:46.79	316.97	43.00	-53.2	-65.2	3.8	8.46e-01	0	43	104	0	77	14800
2026-01-24 04:27:50.82	314.92	42.95	-53.2	-65.2	3.8	8.47e-01	0	44	104	0	77	14773
2026-01-24 04:27:54.85	312.88	42.85	-53.2	-65.2	3.8	8.46e-01	0	43	104	0	77	14711
2026-01-24 04:27:58.89	310.84	42.71	-53.2	-65.2	3.8	8.46e-01	0	43	104	0	77	14719
2026-01-24 04:28:02.92	308.83	42.54	-53.2	-65.2	3.8	8.45e-01	0	44	104	0	77	14767
2026-01-24 04:28:06.96	306.84	42.32	-53.2	-65.2	3.8	8.47e-01	0	44	104	0	77	14830
2026-01-24 04:28:10.99	304.89	42.07	-53.2	-65.2	3.8	8.47e-01	0	43	104	0	77	14793
2026-01-24 04:28:15.02	302.96	41.78	-53.2	-65.2	3.8	8.46e-01	0	44	104	0	77	14740
2026-01-24 04:28:19.05	301.08	41.46	-53.2	-65.2	3.8	8.46e-01	0	44	104	0	77	14787
2026-01-24 04:28:23.08	299.23	41.11	-53.2	-65.1	3.8	8.46e-01	0	43	104	0	77	14686
2026-01-24 04:28:27.12	297.42	40.73	-53.3	-65.2	3.8	8.46e-01	0	43	104	0	77	14836
2026-01-24 04:28:31.14	295.66	40.32	-53.3	-65.2	3.8	8.45e-01	0	44	104	0	77	14839
2026-01-24 04:28:35.18	293.93	39.89	-53.3	-65.3	3.8	8.46e-01	0	43	104	0	77	14886
2026-01-24 04:28:39.21	292.26	39.43	-53.3	-65.2	3.8	8.45e-01	0	43	104	0	77	14712
2026-01-24 04:28:43.25	290.63	38.95	-53.3	-65.3	3.8	8.45e-01	0	44	104	0	77	14882
2026-01-24 04:28:47.28	289.06	38.46	-53.3	-65.3	3.8	8.46e-01	0	43	104	0	77	14919
2026-01-24 04:28:51.32	287.53	37.94	-53.3	-65.2	3.8	8.46e-01	0	43	104	0	77	14829
2026-01-24 04:28:55.36	286.04	37.42	-53.3	-65.2	3.8	8.47e-01	0	43	104	0	77	14878
2026-01-24 04:28:59.39	284.61	36.88	-53.3	-65.2	3.8	8.47e-01	0	43	104	0	77	14854
2026-01-24 04:29:03.43	283.23	36.32	-53.3	-65.2	3.8	8.46e-01	0	43	104	0	77	14861
2026-01-24 04:29:07.46	281.89	35.76	-53.3	-65.2	3.8	8.46e-01	0	43	104	0	77	14804
2026-01-24 04:29:11.50	280.59	35.20	-53.3	-65.2	3.8	8.47e-01	0	44	104	0	77	14833
2026-01-24 04:29:15.53	279.35	34.62	-53.3	-65.2	3.8	8.47e-01	0	43	104	0	77	14815
2026-01-24 04:29:19.56	278.14	34.05	-53.3	-65.2	3.8	8.47e-01	0	43	104	0	77	14837
2026-01-24 04:29:23.60	276.98	33.47	-53.3	-65.2	3.8	8.47e-01	0	43	104	0	77	14788
2026-01-24 04:29:27.63	275.86	32.88	-53.3	-65.2	3.8	8.46e-01	0	43	104	0	77	14878
2026-01-24 04:29:31.67	274.78	32.30	-53.3	-65.3	3.8	8.47e-01	0	43	104	0	77	14931
2026-01-24 04:29:35.70	273.74	31.72	-53.3	-65.2	3.8	8.46e-01	0	43	104	0	77	14875
2026-01-24 04:29:39.74	272.73	31.13	-53.3	-65.2	3.8	8.46e-01	0	44	104	0	77	14841
2026-01-24 04:29:43.77	271.76	30.55	-53.3	-65.2	3.8	8.46e-01	0	43	104	0	77	14831
2026-01-24 04:29:47.80	270.83	29.98	-53.3	-65.3	3.8	8.47e-01	0	43	104	0	77	14908
2026-01-24 04:29:51.83	269.92	29.40	-53.2	-65.2	3.8	8.46e-01	0	44	104	0	77	14839
2026-01-24 04:29:55.87	269.05	28.83	-53.3	-65.2	3.8	8.46e-01	0	43	104	0	77	14866
2026-01-24 04:29:59.90	268.21	28.26	-53.3	-65.2	3.8	8.46e-01	0	44	104	0	77	14833
2026-01-24 04:30:03.93	267.40	27.70	-53.3	-65.2	3.8	8.45e-01	0	44	104	0	77	14875
2026-01-24 04:30:07.97	266.62	27.15	-53.3	-65.2	3.8	8.46e-01	0	43	104	0	77	14838
2026-01-24 04:30:12.01	265.87	26.59	-53.2	-65.2	3.8	8.46e-01	0	44	104	0	77	14791
2026-01-24 04:30:16.04	265.14	26.05	-53.3	-65.2	3.8	8.47e-01	0	44	104	0	77	14852
2026-01-24 04:30:20.07	264.43	25.51	-53.2	-65.2	3.8	8.45e-01	0	43	104	0	77	14858
2026-01-24 04:30:24.11	263.75	24.98	-53.3	-65.2	3.8	8.47e-01	0	43	104	0	77	14838
2026-01-24 04:30:28.14	263.10	24.45	-53.2	-65.2	3.8	8.47e-01	0	44	104	0	77	14806
2026-01-24 04:30:32.18	262.46	23.93	-53.3	-65.2	3.8	8.47e-01	0	44	104	0	77	14813
2026-01-24 04:30:36.21	261.84	23.42	-53.3	-65.3	3.8	8.46e-01	0	43	104	0	77	14921
2026-01-24 04:30:40.25	261.25	22.91	-53.3	-65.2	3.8	8.46e-01	0	44	104	0	77	14850
2026-01-24 04:30:44.28	260.67	22.41	-53.3	-65.2	3.8	8.46e-01	0	44	104	0	77	14840
2026-01-24 04:30:48.31	260.12	21.91	-53.3	-65.2	3.8	8.46e-01	0	44	104	0	77	14831
2026-01-24 04:30:52.35	259.58	21.42	-53.2	-65.2	3.8	8.45e-01	0	43	104	0	77	14852
2026-01-24 04:30:56.38	259.06	20.94	-53.3	-65.2	3.8	8.46e-01	0	44	104	0	77	14857
2026-01-24 04:31:00.42	258.55	20.47	-53.3	-65.3	3.8	8.46e-01	0	43	104	0	77	14889
2026-01-24 04:31:04.45	258.06	20.00	-53.3	-65.2	3.8	8.47e-01	0	44	104	0	77	14859
2026-01-24 04:31:08.48	257.59	19.54	-53.3	-65.2	3.8	8.45e-01	0	44	104	0	77	14831
2026-01-24 04:31:12.52	257.12	19.09	-53.3	-65.2	3.8	8.46e-01	0	44	104	0	77	14868
2026-01-24 04:31:16.55	256.68	18.64	-53.3	-65.2	3.8	8.47e-01	0	44	104	0	77	14854
2026-01-24 04:31:20.58	256.24	18.19	-53.3	-65.3	3.8	8.47e-01	0	44	104	0	77	14886
2026-01-24 04:31:24.61	255.82	17.76	-53.3	-65.2	3.8	8.47e-01	0	43	104	0	77	14831
2026-01-24 04:31:28.65	255.41	17.33	-53.3	-65.2	3.8	8.47e-01	0	44	104	0	77	14849
2026-01-24 04:31:32.68	255.02	16.90	-53.3	-65.2	3.8	8.47e-01	0	43	104	0	77	14863
2026-01-24 04:31:36.71	254.63	16.49	-53.3	-65.2	3.8	8.46e-01	0	43	104	0	77	14757
2026-01-24 04:31:40.74	254.26	16.07	-53.3	-65.2	3.8	8.47e-01	0	44	104	0	77	14813
2026-01-24 04:31:44.77	253.89	15.67	-53.3	-65.2	3.8	8.46e-01	0	44	104	0	77	14840
2026-01-24 04:31:48.80	253.54	15.27	-53.3	-65.3	3.8	8.48e-01	0	44	104	0	77	14880
2026-01-24 04:31:52.83	253.19	14.87	-53.3	-65.2	3.8	8.47e-01	0	44	104	0	77	14843
2026-01-24 04:31:56.86	252.86	14.48	-53.3	-65.2	3.8	8.46e-01	0	44	104	0	77	14879
2026-01-24 04:32:00.90	252.53	14.09	-53.3	-65.3	3.8	8.47e-01	0	43	104	0	77	14904
2026-01-24 04:32:04.93	252.21	13.71	-53.3	-65.2	3.8	8.46e-01	0	43	104	0	77	14870
2026-01-24 04:32:08.96	251.90	13.34	-53.3	-65.3	3.8	8.45e-01	0	44	104	0	77	14885
2026-01-24 04:32:12.99	251.60	12.97	-53.3	-65.2	3.8	8.47e-01	0	43	104	0	77	14876
2026-01-24 04:32:17.02	251.31	12.60	-53.3	-65.2	3.8	8.45e-01	0	44	104	0	77	14868
2026-01-24 04:32:21.05	251.02	12.24	-53.3	-65.3	3.8	8.47e-01	0	44	104	0	77	14887
2026-01-24 04:32:25.08	250.74	11.88	-53.3	-65.3	3.8	8.45e-01	0	44	104	0	77	14913
2026-01-24 04:32:29.12	250.47	11.53	-53.3	-65.2	3.8	8.46e-01	0	43	104	0	77	14834
2026-01-24 04:32:33.15	250.20	11.18	-53.3	-65.2	3.8	8.46e-01	0	44	104	0	77	14874
2026-01-24 04:32:37.18	249.94	10.84	-53.3	-65.2	3.8	8.47e-01	0	44	104	0	77	14812
2026-01-24 04:32:41.22	249.69	10.50	-53.3	-65.2	3.8	8.46e-01	0	43	104	0	77	14876
2026-01-24 04:32:45.25	249.44	10.17	-53.3	-65.2	3.8	8.46e-01	0	43	104	0	77	14841
2026-01-24 04:32:49.29	249.20	9.83	-53.3	-65.2	3.8	8.47e-01	0	43	104	0	77	14827
2026-01-24 04:32:53.32	248.97	9.51	-53.3	-65.3	3.8	8.46e-01	0	43	104	0	77	14906
2026-01-24 04:32:57.35	248.74	9.18	-53.3	-65.2	3.8	8.46e-01	0	44	104	0	77	14844
2026-01-24 04:33:01.39	248.51	8.86	-53.3	-65.2	3.8	8.47e-01	0	43	104	0	77	14875
2026-01-24 04:33:05.42	248.29	8.55	-53.3	-65.2	3.8	8.47e-01	0	43	104	0	77	14836
2026-01-24 04:33:09.45	248.08	8.23	-53.3	-65.2	3.8	8.46e-01	0	43	104	0	77	14873
2026-01-24 04:33:13.48	247.87	7.92	-53.3	-65.2	3.8	8.47e-01	0	43	104	0	77	14852
2026-01-24 04:33:17.52	247.66	7.62	-53.3	-65.2	3.8	8.46e-01	0	43	104	0	77	14871
2026-01-24 04:33:21.55	247.46	7.32	-53.3	-65.2	3.8	8.46e-01	0	44	104	0	77	14866
2026-01-24 04:33:25.59	247.27	7.02	-53.3	-65.2	3.8	8.46e-01	0	44	104	0	77	14845
2026-01-24 04:33:29.62	247.08	6.72	-53.3	-65.3	3.8	8.46e-01	0	43	104	0	77	14900
2026-01-24 04:33:33.66	246.89	6.43	-53.3	-65.3	3.8	8.46e-01	0	44	104	0	77	14894
2026-01-24 04:33:37.69	246.70	6.14	-53.3	-65.2	3.8	8.46e-01	0	44	104	0	77	14835
2026-01-24 04:33:41.72	246.52	5.85	-53.2	-65.2	3.8	8.46e-01	0	44	104	0	77	14847
2026-01-24 04:33:45.75	246.35	5.56	-53.3	-65.2	3.8	8.47e-01	0	43	104	0	77	14859
2026-01-24 04:33:49.79	246.17	5.28	-53.3	-65.2	3.8	8.46e-01	0	43	104	0	77	14843
2026-01-24 04:33:53.82	246.01	5.00	-53.2	-65.2	3.8	8.46e-01	0	43	104	0	77	14799
2026-01-24 04:33:57.86	245.84	4.73	-53.2	-65.2	3.8	8.46e-01	0	43	104	0	77	14818
2026-01-24 04:34:01.89	245.68	4.45	-53.2	-65.2	3.8	8.46e-01	0	43	104	0	77	14806
2026-01-24 04:34:05.92	245.52	4.18	-53.3	-65.2	3.8	8.45e-01	0	44	104	0	77	14815
2026-01-24 04:34:09.95	245.36	3.91	-53.2	-65.2	3.8	8.47e-01	0	43	104	0	77	14832
2026-01-24 04:34:13.99	245.21	3.65	-53.2	-65.2	3.8	8.45e-01	0	43	104	0	77	14834
2026-01-24 04:34:18.02	245.06	3.38	-53.2	-65.2	3.8	8.47e-01	0	44	104	0	77	14829
2026-01-24 04:34:22.05	244.91	3.12	-53.2	-65.2	3.8	8.46e-01	0	44	104	0	77	14803
2026-01-24 04:34:26.09	244.77	2.86	-53.2	-65.2	3.8	8.46e-01	0	43	104	0	77	14831
2026-01-24 04:34:30.12	244.63	2.60	-53.2	-65.2	3.8	8.47e-01	0	43	104	0	77	14781
2026-01-24 04:34:34.15	244.49	2.35	-53.2	-65.2	3.8	8.47e-01	0	44	104	0	77	14852
2026-01-24 04:34:38.19	244.35	2.09	-53.2	-65.2	3.8	8.46e-01	0	43	104	0	77	14842

#Closed at: 2026-01-24 04:34:41
#Recorded file [0 MB]: D:/lorett/data/31041_260124_072047.dat