passes_logs/2026/01/24/R3.2S_Murmansk/R3.2S_Murmansk__20260124_102048_NOAA_20_JPSS-1_rec.log

#Pass ID: 20260124_102048_NOAA 20 (JPSS-1)
#Satellite: NOAA 20 (JPSS-1)
#Configuration: NOAA 20
#almurnet v.1.7.20251203
#Start time: 2026-01-24 10:20:48

#Version: 2.2.20231116
#Station: R3.2S_Murmansk
#Location: 33.079688 lon 68.888172 lat
#TLE: 1 43013U 17073A   26023.57676825  .00000205  00000+0  11821-3 0  9990
#TLE: 2 43013  98.7645 324.4259 0001147  27.0566 333.0670 14.19539368423954

#Time	Az	El	Level	Level2	SNR	BER	BlckErr	Temp	State	Recorded	gain1	gain2
2026-01-24 10:20:48.30	171.66	1.99	-52.1	-67.1	3.8	1.49e+00	0	41	0	0	74	21864
2026-01-24 10:20:52.34	171.76	2.24	-52.1	-67.1	3.8	1.49e+00	0	42	104	0	74	21851
2026-01-24 10:20:56.37	171.87	2.50	-52.5	-67.2	3.8	1.49e+00	0	42	104	0	72	24700
2026-01-24 10:21:00.40	171.97	2.76	-52.1	-67.1	3.8	1.49e+00	0	42	104	0	74	21857
2026-01-24 10:21:04.44	172.08	3.02	-52.1	-66.9	3.8	1.49e+00	0	42	104	0	74	21433
2026-01-24 10:21:08.47	172.19	3.29	-52.1	-66.9	3.8	1.49e+00	0	42	104	0	74	21340
2026-01-24 10:21:12.51	172.30	3.56	-52.1	-67.0	3.8	1.49e+00	0	42	104	0	74	21690
2026-01-24 10:21:16.55	172.42	3.83	-52.1	-67.0	3.7	1.49e+00	0	42	104	0	74	21600
2026-01-24 10:21:20.58	172.54	4.10	-52.0	-65.9	3.8	1.49e+00	0	42	104	0	74	19097
2026-01-24 10:21:24.61	172.65	4.38	-50.9	-57.0	8.7	1.12e-01	0	42	0	4194304	73	7238
2026-01-24 10:21:28.65	172.77	4.65	-48.7	-51.7	14.3	5.30e-06	0	42	0	11534336	68	5250
2026-01-24 10:21:32.68	172.90	4.94	-47.4	-49.7	16.3	0.00e+00	0	43	0	18874368	65	4966
2026-01-24 10:21:36.71	173.02	5.22	-47.1	-49.1	17.0	1.43e-03	0	43	0	27262976	64	4908
2026-01-24 10:21:40.75	173.15	5.51	-46.9	-48.9	17.1	0.00e+00	0	43	0	34603008	65	4532
2026-01-24 10:21:44.78	173.27	5.80	-46.6	-48.5	17.7	0.00e+00	0	43	0	41943040	64	4551
2026-01-24 10:21:48.81	173.41	6.09	-46.8	-48.7	17.5	0.00e+00	0	43	0	49283072	64	4671
2026-01-24 10:21:52.84	173.54	6.39	-47.0	-49.0	17.3	0.00e+00	0	42	0	57671680	64	4818
2026-01-24 10:21:56.87	173.67	6.69	-46.7	-48.6	17.6	0.00e+00	0	43	0	65011712	64	4651
2026-01-24 10:22:00.91	173.81	6.99	-46.8	-48.6	17.7	0.00e+00	0	43	0	72351744	64	4649
2026-01-24 10:22:04.94	173.95	7.30	-46.3	-48.0	18.4	0.00e+00	0	43	0	79691776	64	4300
2026-01-24 10:22:08.97	174.10	7.61	-46.5	-48.2	18.3	0.00e+00	0	43	0	87031808	63	4679
2026-01-24 10:22:12.99	174.24	7.92	-46.4	-48.1	18.5	0.00e+00	0	43	0	94371840	63	4621
2026-01-24 10:22:17.03	174.39	8.24	-46.4	-48.2	18.4	0.00e+00	0	43	0	102760448	63	4654
2026-01-24 10:22:21.06	174.54	8.56	-46.1	-47.7	18.9	0.00e+00	0	43	0	110100480	63	4434
2026-01-24 10:22:25.09	174.70	8.88	-46.3	-47.9	18.7	0.00e+00	0	43	0	117440512	63	4529
2026-01-24 10:22:29.12	174.86	9.21	-46.1	-47.7	19.0	0.00e+00	0	43	0	124780544	63	4401
2026-01-24 10:22:33.15	175.02	9.55	-46.0	-47.5	19.2	0.00e+00	0	43	0	133169152	63	4318
2026-01-24 10:22:37.18	175.18	9.89	-46.0	-47.5	19.2	0.00e+00	0	43	0	140509184	63	4316
2026-01-24 10:22:41.21	175.35	10.23	-45.7	-47.1	19.6	0.00e+00	0	43	0	147849216	63	4139
2026-01-24 10:22:45.24	175.53	10.58	-45.9	-47.3	19.4	0.00e+00	0	43	0	155189248	62	4493
2026-01-24 10:22:49.27	175.70	10.93	-45.7	-47.1	19.6	0.00e+00	0	43	0	162529280	62	4370
2026-01-24 10:22:53.31	175.88	11.29	-45.7	-47.1	19.6	0.00e+00	0	43	0	170917888	62	4381
2026-01-24 10:22:57.34	176.07	11.65	-45.6	-47.0	19.8	0.00e+00	0	43	0	178257920	62	4313
2026-01-24 10:23:01.37	176.25	12.01	-45.5	-46.9	19.9	0.00e+00	0	43	0	185597952	62	4268
2026-01-24 10:23:05.40	176.45	12.39	-45.5	-46.9	19.9	0.00e+00	0	43	0	192937984	62	4284
2026-01-24 10:23:09.43	176.64	12.77	-45.6	-47.0	19.8	0.00e+00	0	43	0	200278016	62	4336
2026-01-24 10:23:13.47	176.85	13.15	-45.5	-46.9	20.0	0.00e+00	0	43	0	208666624	62	4243
2026-01-24 10:23:17.50	177.05	13.54	-45.3	-46.7	20.2	0.00e+00	0	43	0	216006656	61	4401
2026-01-24 10:23:21.53	177.27	13.94	-45.5	-46.8	20.0	0.00e+00	0	43	0	223346688	61	4489
2026-01-24 10:23:25.57	177.48	14.34	-45.4	-46.8	20.1	0.00e+00	0	43	0	230686720	61	4462
2026-01-24 10:23:29.60	177.71	14.75	-45.5	-46.9	20.0	0.00e+00	0	43	0	238026752	61	4531
2026-01-24 10:23:33.64	177.94	15.16	-45.5	-46.8	20.2	0.00e+00	0	43	0	246415360	61	4471
2026-01-24 10:23:37.67	178.17	15.58	-45.4	-46.8	20.2	0.00e+00	0	43	0	253755392	61	4453
2026-01-24 10:23:41.70	178.41	16.01	-45.5	-46.8	20.2	0.00e+00	0	43	0	261095424	61	4465
2026-01-24 10:23:45.74	178.66	16.45	-45.5	-46.8	20.2	0.00e+00	0	43	0	268435456	61	4467
2026-01-24 10:23:49.77	178.92	16.89	-45.5	-46.9	20.2	0.00e+00	0	43	0	276824064	61	4497
2026-01-24 10:23:53.81	179.18	17.35	-45.6	-46.9	20.1	0.00e+00	0	43	0	284164096	61	4536
2026-01-24 10:23:57.84	179.45	17.80	-45.5	-46.8	20.2	0.00e+00	0	43	0	291504128	61	4469
2026-01-24 10:24:01.87	179.73	18.27	-45.5	-46.8	20.3	0.00e+00	0	43	0	298844160	62	4231
2026-01-24 10:24:05.91	180.01	18.75	-45.6	-46.9	20.2	0.00e+00	0	43	0	307232768	62	4275
2026-01-24 10:24:09.94	180.31	19.23	-45.5	-46.8	20.3	0.00e+00	0	43	0	314572800	62	4220
2026-01-24 10:24:13.97	180.61	19.73	-45.5	-46.8	20.3	0.00e+00	0	43	0	321912832	61	4477
2026-01-24 10:24:18.01	180.92	20.23	-45.3	-46.7	20.4	0.00e+00	0	43	0	329252864	61	4417
2026-01-24 10:24:22.04	181.25	20.74	-45.0	-46.3	20.8	0.00e+00	0	43	0	336592896	61	4214
2026-01-24 10:24:26.07	181.58	21.26	-44.8	-46.0	21.1	0.00e+00	0	43	0	343932928	61	4062
2026-01-24 10:24:30.10	181.92	21.79	-44.6	-45.8	21.4	0.00e+00	0	43	0	352321536	60	4194
2026-01-24 10:24:34.13	182.28	22.34	-44.2	-45.3	21.8	0.00e+00	0	43	0	359661568	60	3973
2026-01-24 10:24:38.16	182.65	22.89	-44.3	-45.4	22.0	0.00e+00	0	43	0	367001600	59	4282
2026-01-24 10:24:42.19	183.03	23.45	-44.1	-45.2	22.2	0.00e+00	0	43	0	374341632	59	4174
2026-01-24 10:24:46.23	183.42	24.03	-44.2	-45.3	22.1	0.00e+00	0	43	0	382730240	59	4216
2026-01-24 10:24:50.26	183.83	24.62	-44.1	-45.2	22.2	0.00e+00	0	43	0	390070272	59	4179
2026-01-24 10:24:54.29	184.26	25.21	-44.2	-45.2	22.2	0.00e+00	0	43	0	397410304	59	4188
2026-01-24 10:24:58.33	184.70	25.83	-44.0	-45.2	22.2	0.00e+00	0	43	0	404750336	58	4398
2026-01-24 10:25:02.36	185.15	26.45	-44.4	-45.5	22.0	0.00e+00	0	43	0	412090368	59	4292
2026-01-24 10:25:06.39	185.62	27.08	-44.6	-45.7	21.8	0.00e+00	0	43	0	420478976	59	4421
2026-01-24 10:25:10.42	186.12	27.73	-44.4	-45.5	21.7	0.00e+00	0	43	0	427819008	60	4075
2026-01-24 10:25:14.45	186.63	28.39	-44.9	-46.1	21.1	0.00e+00	0	43	0	435159040	60	4387
2026-01-24 10:25:18.49	187.16	29.07	-45.7	-47.0	20.3	0.00e+00	0	43	0	442499072	61	4576
2026-01-24 10:25:22.52	187.72	29.76	-46.4	-47.8	19.5	0.00e+00	0	43	0	449839104	63	4489
2026-01-24 10:25:26.55	188.30	30.47	-47.1	-48.8	18.5	0.00e+00	0	43	0	458227712	64	4720
2026-01-24 10:25:30.58	188.90	31.18	-47.8	-49.6	17.7	0.00e+00	0	43	0	465567744	66	4648
2026-01-24 10:25:34.61	189.53	31.92	-48.0	-50.0	17.4	0.00e+00	0	43	0	472907776	66	4846
2026-01-24 10:25:38.65	190.20	32.66	-47.7	-49.5	17.9	0.00e+00	0	43	0	480247808	65	4838
2026-01-24 10:25:42.68	190.89	33.43	-47.0	-48.7	18.7	0.00e+00	0	43	0	487587840	64	4654
2026-01-24 10:25:46.71	191.61	34.20	-46.8	-48.4	19.0	0.00e+00	0	43	0	495976448	64	4510
2026-01-24 10:25:50.74	192.37	34.99	-47.0	-48.6	18.8	0.00e+00	0	43	0	503316480	64	4621
2026-01-24 10:25:54.77	193.16	35.80	-46.9	-48.5	18.9	0.00e+00	0	43	0	510656512	64	4550
2026-01-24 10:25:58.80	193.99	36.62	-46.2	-47.6	19.8	0.00e+00	0	43	0	517996544	63	4381
2026-01-24 10:26:02.83	194.87	37.45	-46.1	-47.5	20.0	0.00e+00	0	43	0	526385152	63	4294
2026-01-24 10:26:06.87	195.80	38.30	-46.4	-47.8	19.7	0.00e+00	0	43	0	533725184	63	4460
2026-01-24 10:26:10.90	196.77	39.16	-46.1	-47.5	20.0	0.00e+00	0	43	0	541065216	63	4326
2026-01-24 10:26:14.93	197.79	40.04	-45.1	-46.3	21.2	0.00e+00	0	43	0	548405248	62	3962
2026-01-24 10:26:18.96	198.87	40.92	-45.0	-46.3	21.1	0.00e+00	0	43	0	555745280	61	4230
2026-01-24 10:26:23.00	200.01	41.82	-45.3	-46.6	20.9	0.00e+00	0	43	0	563085312	61	4353
2026-01-24 10:26:27.03	201.21	42.72	-45.3	-46.5	21.0	0.00e+00	0	43	0	571473920	62	4055
2026-01-24 10:26:31.06	202.48	43.63	-45.6	-46.8	20.7	0.00e+00	0	43	0	578813952	62	4237
2026-01-24 10:26:35.09	203.83	44.55	-46.2	-47.6	20.0	0.00e+00	0	43	0	586153984	63	4349
2026-01-24 10:26:39.13	205.25	45.47	-47.1	-48.7	18.8	0.00e+00	0	43	0	593494016	64	4698
2026-01-24 10:26:43.16	206.76	46.39	-47.4	-49.1	18.5	0.00e+00	0	43	0	601882624	65	4607
2026-01-24 10:26:47.19	208.36	47.31	-49.3	-51.7	16.0	0.00e+00	0	43	0	609222656	69	4943
2026-01-24 10:26:51.22	210.05	48.23	-49.2	-51.5	16.2	0.00e+00	0	43	0	616562688	69	4844
2026-01-24 10:26:55.25	211.85	49.13	-50.0	-52.7	15.0	0.00e+00	0	43	0	623902720	71	4976
2026-01-24 10:26:59.29	213.75	50.03	-47.8	-49.6	18.0	0.00e+00	0	43	0	631242752	67	4363
2026-01-24 10:27:03.32	215.77	50.90	-47.4	-49.0	18.7	0.00e+00	0	43	0	639631360	66	4324
2026-01-24 10:27:07.35	217.90	51.75	-45.9	-47.2	20.5	0.00e+00	0	43	0	646971392	63	4164
2026-01-24 10:27:11.38	220.15	52.58	-45.7	-47.0	20.7	0.00e+00	0	43	0	654311424	63	4078
2026-01-24 10:27:15.41	222.53	53.37	-45.6	-46.8	20.9	0.00e+00	0	43	0	661651456	61	4477
2026-01-24 10:27:19.45	225.05	54.12	-44.9	-46.1	21.6	0.00e+00	0	43	0	670040064	61	4113
2026-01-24 10:27:23.48	227.68	54.82	-45.5	-46.7	21.0	0.00e+00	0	43	0	677380096	61	4415
2026-01-24 10:27:27.51	230.45	55.47	-45.0	-46.2	21.4	0.00e+00	0	43	0	684720128	61	4173
2026-01-24 10:27:31.54	233.33	56.06	-45.1	-46.3	21.4	0.00e+00	0	43	0	692060160	62	3959
2026-01-24 10:27:35.57	236.34	56.58	-45.6	-46.8	20.9	0.00e+00	0	43	0	699400192	61	4476
2026-01-24 10:27:39.61	239.45	57.03	-45.6	-46.8	20.9	0.00e+00	0	43	0	707788800	61	4489
2026-01-24 10:27:43.64	242.66	57.40	-46.9	-48.4	19.4	0.00e+00	0	43	0	715128832	64	4508
2026-01-24 10:27:47.67	245.94	57.68	-48.8	-50.9	16.9	0.00e+00	0	44	0	722468864	68	4805
2026-01-24 10:27:51.70	249.27	57.88	-47.8	-49.6	18.2	0.00e+00	0	43	0	729808896	66	4626
2026-01-24 10:27:55.73	252.65	57.99	-47.9	-49.6	18.2	0.00e+00	0	44	0	737148928	67	4359
2026-01-24 10:27:59.76	256.04	58.00	-48.1	-50.3	17.5	0.00e+00	0	43	0	745537536	67	4719
2026-01-24 10:28:03.79	259.42	57.92	-47.0	-48.5	19.2	0.00e+00	0	44	0	752877568	66	4088
2026-01-24 10:28:07.82	262.77	57.75	-46.9	-48.4	19.4	0.00e+00	0	44	0	760217600	64	4509
2026-01-24 10:28:11.86	266.08	57.49	-47.8	-49.6	18.2	0.00e+00	0	44	0	767557632	66	4620
2026-01-24 10:28:15.89	269.30	57.14	-50.1	-52.9	15.1	0.00e+00	0	43	0	774897664	70	5354
2026-01-24 10:28:19.92	272.44	56.72	-48.2	-50.1	17.6	0.00e+00	0	44	0	783286272	67	4619
2026-01-24 10:28:23.95	275.47	56.22	-48.2	-50.0	17.8	0.00e+00	0	44	0	790626304	67	4578
2026-01-24 10:28:27.99	278.39	55.65	-47.1	-48.7	19.1	0.00e+00	0	44	0	797966336	65	4428
2026-01-24 10:28:32.02	281.19	55.02	-44.2	-45.3	22.4	0.00e+00	0	44	0	805306368	60	3960
2026-01-24 10:28:36.06	283.87	54.33	-43.0	-43.9	23.9	0.00e+00	0	44	0	813694976	58	3814
2026-01-24 10:28:40.09	286.41	53.60	-42.9	-43.9	23.9	0.00e+00	0	43	0	821035008	57	4008
2026-01-24 10:28:44.12	288.82	52.82	-43.3	-44.2	23.6	0.00e+00	0	43	0	828375040	57	4163
2026-01-24 10:28:48.15	291.11	52.01	-44.3	-45.3	22.3	0.00e+00	0	44	0	835715072	60	3997
2026-01-24 10:28:52.18	293.27	51.16	-47.2	-48.8	19.0	0.00e+00	0	44	0	843055104	65	4460
2026-01-24 10:28:56.21	295.31	50.30	-48.9	-51.0	16.8	0.00e+00	0	44	0	851443712	68	4865
2026-01-24 10:29:00.25	297.25	49.41	-48.0	-49.9	17.9	0.00e+00	0	44	0	858783744	67	4519
2026-01-24 10:29:04.28	299.07	48.51	-48.7	-50.8	17.1	0.00e+00	0	44	0	866123776	69	4457
2026-01-24 10:29:08.31	300.79	47.60	-48.7	-50.7	17.1	0.00e+00	0	44	0	873463808	67	4983
2026-01-24 10:29:12.35	302.42	46.69	-47.3	-48.9	18.9	0.00e+00	0	44	0	880803840	65	4518
2026-01-24 10:29:16.38	303.95	45.77	-49.2	-51.5	16.4	0.00e+00	0	44	0	889192448	69	4821
2026-01-24 10:29:20.41	305.39	44.85	-47.6	-49.3	18.5	0.00e+00	0	44	0	896532480	65	4724
2026-01-24 10:29:24.45	306.76	43.94	-47.6	-49.2	18.5	0.00e+00	0	44	0	903872512	67	4184
2026-01-24 10:29:28.48	308.05	43.03	-47.4	-49.0	18.7	0.00e+00	0	44	0	911212544	66	4340
2026-01-24 10:29:32.51	309.27	42.12	-49.2	-51.4	16.5	0.00e+00	0	44	0	919601152	68	5091
2026-01-24 10:29:36.54	310.42	41.23	-46.6	-48.1	19.6	0.00e+00	0	43	0	926941184	65	4107
2026-01-24 10:29:40.58	311.52	40.34	-48.7	-50.8	17.0	0.00e+00	0	44	0	934281216	67	4986
2026-01-24 10:29:44.61	312.56	39.47	-46.3	-47.7	20.0	0.00e+00	0	44	0	941621248	64	4151
2026-01-24 10:29:48.65	313.55	38.61	-49.3	-51.7	16.1	0.00e+00	0	44	0	948961280	69	4956
2026-01-24 10:29:52.68	314.48	37.76	-46.0	-47.3	20.3	0.00e+00	0	44	0	956301312	64	3960
2026-01-24 10:29:56.71	315.37	36.93	-48.4	-50.4	17.3	0.00e+00	0	44	0	964689920	67	4788
2026-01-24 10:30:00.74	316.21	36.11	-45.7	-46.9	20.8	0.00e+00	0	44	0	972029952	63	4023
2026-01-24 10:30:04.77	317.02	35.30	-45.3	-46.5	21.2	0.00e+00	0	44	0	979369984	61	4298
2026-01-24 10:30:08.81	317.79	34.50	-47.5	-49.2	18.4	0.00e+00	0	44	0	986710016	65	4677
2026-01-24 10:30:12.84	318.52	33.73	-46.6	-48.0	19.5	0.00e+00	0	44	0	995098624	64	4333
2026-01-24 10:30:16.87	319.22	32.96	-47.3	-49.0	18.6	0.00e+00	0	44	0	1002438656	65	4558
2026-01-24 10:30:20.90	319.89	32.22	-47.6	-49.3	18.2	0.00e+00	0	44	0	1009778688	65	4755
2026-01-24 10:30:24.93	320.53	31.48	-47.7	-49.5	18.1	0.00e+00	0	44	0	1017118720	66	4590
2026-01-24 10:30:28.96	321.14	30.76	-46.8	-48.4	19.1	0.00e+00	0	44	0	1024458752	65	4247
2026-01-24 10:30:33.00	321.73	30.06	-46.9	-48.4	19.1	0.00e+00	0	44	0	1032847360	64	4530
2026-01-24 10:30:37.03	322.29	29.37	-47.2	-48.9	18.6	0.00e+00	0	44	0	1040187392	65	4525
2026-01-24 10:30:41.05	322.83	28.69	-46.8	-48.3	19.2	0.00e+00	0	44	0	1047527424	63	4737
2026-01-24 10:30:45.08	323.35	28.03	-46.5	-47.9	19.6	0.00e+00	0	44	0	1054867456	63	4545
2026-01-24 10:30:49.11	323.85	27.38	-47.0	-48.6	18.9	0.00e+00	0	44	0	1063256064	64	4604
2026-01-24 10:30:53.15	324.33	26.74	-47.5	-49.3	18.1	0.00e+00	0	44	0	1070596096	65	4753
2026-01-24 10:30:57.18	324.79	26.11	-47.3	-49.0	18.4	0.00e+00	0	44	0	1077936128	65	4577
2026-01-24 10:31:01.21	325.24	25.50	-46.8	-48.4	19.0	0.00e+00	0	44	0	1085276160	64	4515
2026-01-24 10:31:05.24	325.66	24.90	-46.2	-47.6	19.8	0.00e+00	0	44	0	1092616192	63	4372
2026-01-24 10:31:09.27	326.08	24.32	-45.7	-47.0	20.4	0.00e+00	0	44	0	1099956224	62	4323
2026-01-24 10:31:13.30	326.48	23.74	-46.0	-47.4	20.0	0.00e+00	0	44	0	1108344832	62	4524
2026-01-24 10:31:17.33	326.86	23.17	-46.7	-48.2	19.3	0.00e+00	0	44	0	1115684864	63	4667
2026-01-24 10:31:21.37	327.24	22.62	-45.4	-47.6	19.8	0.00e+00	0	44	0	1123024896	63	4362
2026-01-24 10:31:25.40	327.60	22.08	-45.7	-47.0	20.4	0.00e+00	0	44	0	1130364928	61	4560
2026-01-24 10:31:29.43	327.95	21.54	-45.6	-47.0	20.4	0.00e+00	0	43	0	1138753536	61	4547
2026-01-24 10:31:33.47	328.28	21.02	-45.8	-47.1	20.2	0.00e+00	0	44	0	1146093568	62	4360
2026-01-24 10:31:37.50	328.61	20.51	-45.8	-47.1	20.2	0.00e+00	0	43	0	1153433600	62	4369
2026-01-24 10:31:41.53	328.93	20.00	-45.5	-46.8	20.5	0.00e+00	0	43	0	1160773632	61	4463
2026-01-24 10:31:45.56	329.24	19.51	-45.0	-46.3	20.9	0.00e+00	0	44	0	1168113664	61	4206
2026-01-24 10:31:49.59	329.53	19.02	-44.9	-46.1	21.1	0.00e+00	0	43	0	1176502272	61	4113
2026-01-24 10:31:53.62	329.82	18.55	-44.9	-46.1	21.1	0.00e+00	0	43	0	1183842304	60	4350
2026-01-24 10:31:57.66	330.11	18.08	-44.6	-45.7	21.3	0.00e+00	0	43	0	1191182336	60	4189
2026-01-24 10:32:01.69	330.38	17.62	-44.8	-46.1	21.0	0.00e+00	0	44	0	1198522368	60	4354
2026-01-24 10:32:05.72	330.65	17.17	-45.4	-46.7	20.4	0.00e+00	0	43	0	1205862400	61	4416
2026-01-24 10:32:09.76	330.91	16.72	-45.5	-46.9	20.2	0.00e+00	0	43	0	1214251008	61	4505
2026-01-24 10:32:13.80	331.16	16.28	-45.7	-47.0	20.0	0.00e+00	0	43	0	1221591040	62	4336
2026-01-24 10:32:17.83	331.40	15.85	-45.4	-46.7	20.3	0.00e+00	0	43	0	1228931072	61	4435
2026-01-24 10:32:21.86	331.64	15.43	-45.2	-46.5	20.4	0.00e+00	0	43	0	1236271104	61	4320
2026-01-24 10:32:25.89	331.87	15.02	-45.2	-46.5	20.5	0.00e+00	0	44	0	1243611136	61	4313
2026-01-24 10:32:29.93	332.10	14.61	-45.0	-46.2	20.7	0.00e+00	0	43	0	1251999744	61	4180
2026-01-24 10:32:33.96	332.32	14.20	-45.1	-46.4	20.4	0.00e+00	0	43	0	1259339776	60	4541
2026-01-24 10:32:37.99	332.54	13.81	-45.4	-46.7	20.2	0.00e+00	0	43	0	1266679808	61	4418
2026-01-24 10:32:42.03	332.75	13.42	-45.5	-46.9	19.9	0.00e+00	0	43	0	1274019840	61	4542
2026-01-24 10:32:46.06	332.96	13.03	-45.8	-47.3	19.6	0.00e+00	0	43	0	1282408448	62	4443
2026-01-24 10:32:50.09	333.16	12.65	-45.9	-47.4	19.5	0.00e+00	0	43	0	1289748480	62	4500
2026-01-24 10:32:54.13	333.35	12.28	-46.0	-47.4	19.4	0.00e+00	0	43	0	1297088512	62	4544
2026-01-24 10:32:58.16	333.55	11.91	-45.9	-47.4	19.5	0.00e+00	0	44	0	1304428544	62	4526
2026-01-24 10:33:02.19	333.73	11.55	-45.9	-47.4	19.3	0.00e+00	0	44	0	1311768576	62	4512
2026-01-24 10:33:06.23	333.92	11.19	-45.9	-47.4	19.3	0.00e+00	0	44	0	1320157184	62	4535
2026-01-24 10:33:10.25	334.10	10.84	-46.0	-47.5	19.2	0.00e+00	0	44	0	1327497216	62	4576
2026-01-24 10:33:14.29	334.27	10.49	-45.9	-47.4	19.2	0.00e+00	0	43	0	1334837248	62	4534
2026-01-24 10:33:18.32	334.44	10.15	-45.7	-47.2	19.5	0.00e+00	0	44	0	1342177280	62	4415
2026-01-24 10:33:22.35	334.61	9.81	-45.9	-47.4	19.2	0.00e+00	0	44	0	1349517312	62	4523
2026-01-24 10:33:26.38	334.78	9.48	-46.1	-47.6	19.0	0.00e+00	0	44	0	1357905920	62	4632
2026-01-24 10:33:30.42	334.94	9.14	-46.2	-47.8	18.7	0.00e+00	0	44	0	1365245952	63	4479
2026-01-24 10:33:34.45	335.10	8.82	-46.3	-48.0	18.5	0.00e+00	0	44	0	1372585984	63	4568
2026-01-24 10:33:38.49	335.26	8.50	-46.4	-48.1	18.4	6.10e-06	0	44	0	1379926016	63	4628
2026-01-24 10:33:42.52	335.41	8.18	-46.6	-48.3	18.2	0.00e+00	0	44	0	1388314624	63	4743
2026-01-24 10:33:46.55	335.56	7.86	-46.6	-48.5	17.9	0.00e+00	0	44	0	1395654656	64	4548
2026-01-24 10:33:50.58	335.71	7.55	-46.9	-48.8	17.5	0.00e+00	0	44	0	1402994688	64	4743
2026-01-24 10:33:54.61	335.85	7.25	-46.9	-48.8	17.5	0.00e+00	0	44	0	1410334720	64	4752
2026-01-24 10:33:58.65	335.99	6.94	-47.0	-49.0	17.2	0.00e+00	0	44	0	1417674752	64	4866
2026-01-24 10:34:02.68	336.13	6.64	-46.9	-48.8	17.3	0.00e+00	0	44	0	1426063360	64	4751
2026-01-24 10:34:06.71	336.27	6.35	-47.0	-49.1	17.1	0.00e+00	0	44	0	1433403392	64	4887
2026-01-24 10:34:10.74	336.40	6.06	-46.9	-48.9	17.2	0.00e+00	0	43	0	1440743424	64	4771
2026-01-24 10:34:14.77	336.53	5.77	-47.2	-49.3	16.7	0.00e+00	0	44	0	1448083456	64	5014
2026-01-24 10:34:18.80	336.66	5.48	-47.0	-49.1	16.9	0.00e+00	0	44	0	1455423488	64	4878
2026-01-24 10:34:22.83	336.79	5.19	-47.0	-49.1	16.9	0.00e+00	0	44	0	1463812096	64	4875
2026-01-24 10:34:26.86	336.92	4.91	-53.2	-68.1	3.8	1.49e+00	0	44	104	1469054976	76	22001
2026-01-24 10:34:30.90	337.04	4.63	-53.6	-68.5	3.8	1.49e+00	0	44	104	1469054976	77	21703
2026-01-24 10:34:34.93	337.16	4.36	-54.1	-69.0	3.8	1.49e+00	0	44	104	1469054976	78	21742
2026-01-24 10:34:38.97	337.28	4.09	-54.2	-69.2	3.8	1.49e+00	0	44	104	1469054976	79	20924
2026-01-24 10:34:43.00	337.40	3.82	-54.3	-69.3	3.8	1.49e+00	0	44	104	1469054976	79	21169
2026-01-24 10:34:47.04	337.52	3.55	-54.3	-69.3	3.8	1.49e+00	0	44	104	1469054976	79	21088
2026-01-24 10:34:51.07	337.63	3.28	-54.1	-69.1	3.8	1.49e+00	0	44	104	1469054976	79	20656
2026-01-24 10:34:55.10	337.74	3.02	-54.0	-69.0	3.8	1.49e+00	0	44	104	1469054976	79	20436
2026-01-24 10:34:59.13	337.86	2.76	-53.9	-68.9	3.8	1.49e+00	0	44	104	1469054976	79	20276
2026-01-24 10:35:03.17	337.97	2.50	-53.8	-68.9	3.8	1.49e+00	0	44	104	1469054976	79	20111
2026-01-24 10:35:07.20	338.07	2.25	-53.8	-68.8	3.8	1.49e+00	0	44	104	1469054976	79	20034
2026-01-24 10:35:11.23	338.18	1.99	-53.8	-68.8	3.8	1.49e+00	0	44	104	1469054976	79	19965

#Closed at: 2026-01-24 10:35:12
#Recorded file [1469 MB]: D:/lorett/data/31041_260124_132048.dat