passes_logs/2026/01/24/R3.2S_Murmansk/R3.2S_Murmansk__20260124_064113_SUOMI_NPP_rec.log

#Pass ID: 20260124_064113_SUOMI NPP
#Satellite: SUOMI NPP
#Configuration: NPP
#almurnet v.1.7.20251203
#Start time: 2026-01-24 06:41:15

#Version: 2.2.20231116
#Station: R3.2S_Murmansk
#Location: 33.079688 lon 68.888172 lat
#TLE: 1 37849U 11061A   26023.63275593  .00000212  00000+0  12133-3 0  9990
#TLE: 2 37849  98.7820 325.6074 0002234  48.9695 311.1673 14.19528901737937

#Time	Az	El	Level	Level2	SNR	BER	BlckErr	Temp	State	Recorded	gain1	gain2
2026-01-24 06:41:15.15	87.09	2.11	-52.0	-66.9	3.8	1.49e+00	0	42	0	0	74	21467
2026-01-24 06:41:19.19	86.86	2.35	-51.9	-66.9	3.8	1.49e+00	0	42	104	0	74	21421
2026-01-24 06:41:23.22	86.63	2.59	-51.9	-66.9	3.8	1.49e+00	0	42	104	0	74	21410
2026-01-24 06:41:27.26	86.39	2.83	-51.9	-66.9	3.8	1.49e+00	0	42	104	0	74	21393
2026-01-24 06:41:31.29	86.15	3.07	-51.9	-66.9	3.8	1.49e+00	0	42	104	0	74	21306
2026-01-24 06:41:35.32	85.91	3.32	-51.9	-66.9	3.8	1.49e+00	0	42	104	0	74	21403
2026-01-24 06:41:39.36	85.66	3.56	-51.9	-66.8	3.8	1.49e+00	0	42	104	0	74	21188
2026-01-24 06:41:43.39	85.41	3.81	-51.9	-66.7	3.8	1.49e+00	0	42	104	0	74	20887
2026-01-24 06:41:47.42	85.15	4.06	-51.8	-64.4	4.0	1.49e+00	0	42	104	0	74	16064
2026-01-24 06:41:51.45	84.89	4.31	-51.8	-64.1	3.9	1.46e+00	0	42	104	0	74	15572
2026-01-24 06:41:55.49	84.62	4.56	-51.0	-58.1	7.5	2.70e-01	0	43	0	4194304	73	8184
2026-01-24 06:41:59.52	84.35	4.82	-49.5	-53.4	12.5	2.14e-04	0	43	0	11534336	71	5357
2026-01-24 06:42:03.56	84.08	5.08	-48.8	-51.9	14.0	2.72e-04	0	43	0	19922944	69	5060
2026-01-24 06:42:07.60	83.79	5.33	-48.6	-51.5	14.6	9.53e-05	0	43	0	25165824	68	5143
2026-01-24 06:42:11.62	83.51	5.59	-48.4	-51.3	14.6	7.00e-07	0	43	0	33554432	67	5292
2026-01-24 06:42:15.66	83.22	5.86	-48.4	-51.3	14.8	0.00e+00	0	43	0	40894464	67	5294
2026-01-24 06:42:19.69	82.92	6.12	-48.1	-50.8	15.2	0.00e+00	0	43	0	48234496	66	5305
2026-01-24 06:42:23.73	82.61	6.39	-47.8	-50.4	15.6	0.00e+00	0	43	0	55574528	67	4773
2026-01-24 06:42:27.77	82.30	6.65	-47.5	-49.9	16.0	0.00e+00	0	43	0	62914560	66	4777
2026-01-24 06:42:31.80	81.99	6.92	-46.9	-49.1	16.8	0.00e+00	0	43	0	71303168	65	4620
2026-01-24 06:42:35.83	81.67	7.20	-46.9	-49.1	16.8	0.00e+00	0	43	0	78643200	65	4650
2026-01-24 06:42:39.86	81.34	7.47	-47.0	-49.2	16.7	0.00e+00	0	43	0	85983232	65	4653
2026-01-24 06:42:43.90	81.01	7.75	-46.8	-48.9	17.0	0.00e+00	0	43	0	93323264	65	4502
2026-01-24 06:42:47.94	80.66	8.02	-46.9	-49.1	16.8	0.00e+00	0	43	0	100663296	64	4925
2026-01-24 06:42:51.97	80.32	8.30	-46.9	-49.1	16.8	0.00e+00	0	43	0	109051904	64	4897
2026-01-24 06:42:56.01	79.96	8.59	-47.0	-49.2	16.9	0.00e+00	0	43	0	116391936	65	4657
2026-01-24 06:43:00.04	79.60	8.87	-46.8	-48.8	17.3	0.00e+00	0	43	0	123731968	65	4475
2026-01-24 06:43:04.07	79.23	9.16	-47.4	-49.7	16.5	0.00e+00	0	43	0	131072000	65	4947
2026-01-24 06:43:08.11	78.85	9.44	-47.0	-49.1	17.1	0.00e+00	0	43	0	139460608	65	4625
2026-01-24 06:43:12.14	78.47	9.73	-46.8	-48.9	17.1	0.00e+00	0	43	0	146800640	65	4530
2026-01-24 06:43:16.17	78.08	10.03	-47.1	-49.3	16.9	0.00e+00	0	43	0	154140672	65	4721
2026-01-24 06:43:20.20	77.68	10.32	-47.0	-49.2	17.0	0.00e+00	0	43	0	161480704	65	4668
2026-01-24 06:43:24.24	77.27	10.62	-46.5	-48.5	17.7	0.00e+00	0	43	0	168820736	65	4303
2026-01-24 06:43:28.27	76.85	10.92	-46.9	-49.0	17.3	0.00e+00	0	43	0	177209344	65	4576
2026-01-24 06:43:32.30	76.42	11.22	-46.6	-48.6	17.7	0.00e+00	0	43	0	184549376	65	4344
2026-01-24 06:43:36.33	75.99	11.52	-46.9	-49.0	17.3	0.00e+00	0	43	0	191889408	65	4547
2026-01-24 06:43:40.36	75.54	11.83	-46.6	-48.4	17.9	0.00e+00	0	43	0	199229440	65	4285
2026-01-24 06:43:44.40	75.09	12.13	-46.4	-48.2	18.0	0.00e+00	0	43	0	206569472	64	4440
2026-01-24 06:43:48.42	74.62	12.44	-46.2	-48.0	18.3	0.00e+00	0	43	0	214958080	64	4308
2026-01-24 06:43:52.46	74.15	12.75	-46.3	-48.1	18.4	0.00e+00	0	43	0	222298112	63	4600
2026-01-24 06:43:56.49	73.66	13.07	-46.8	-48.8	17.6	0.00e+00	0	43	0	229638144	64	4743
2026-01-24 06:44:00.52	73.17	13.38	-46.9	-48.9	17.5	0.00e+00	0	43	0	236978176	64	4786
2026-01-24 06:44:04.56	72.66	13.70	-47.0	-49.0	17.6	0.00e+00	0	43	0	245366784	64	4819
2026-01-24 06:44:08.59	72.14	14.02	-46.4	-48.2	18.2	0.00e+00	0	43	0	252706816	64	4411
2026-01-24 06:44:12.63	71.61	14.34	-46.1	-47.8	18.6	0.00e+00	0	43	0	260046848	64	4207
2026-01-24 06:44:16.66	71.07	14.66	-45.6	-47.1	19.3	0.00e+00	0	43	0	267386880	63	4117
2026-01-24 06:44:20.70	70.52	14.99	-45.7	-47.3	19.1	0.00e+00	0	43	0	274726912	62	4481
2026-01-24 06:44:24.74	69.95	15.31	-45.6	-47.2	19.3	0.00e+00	0	43	0	283115520	62	4415
2026-01-24 06:44:28.77	69.37	15.64	-45.7	-47.2	19.2	0.00e+00	0	43	0	290455552	62	4436
2026-01-24 06:44:32.80	68.78	15.97	-45.5	-47.0	19.5	0.00e+00	0	43	0	297795584	62	4303
2026-01-24 06:44:36.84	68.17	16.30	-45.7	-47.3	19.2	0.00e+00	0	43	0	305135616	62	4467
2026-01-24 06:44:40.87	67.55	16.63	-45.7	-47.3	19.2	0.00e+00	0	43	0	312475648	62	4475
2026-01-24 06:44:44.90	66.92	16.96	-45.9	-47.6	19.0	0.00e+00	0	43	0	320864256	62	4640
2026-01-24 06:44:48.94	66.27	17.29	-45.9	-47.6	18.9	0.00e+00	0	43	0	328204288	62	4610
2026-01-24 06:44:52.97	65.61	17.63	-46.4	-48.2	18.2	0.00e+00	0	43	0	335544320	63	4661
2026-01-24 06:44:57.00	64.93	17.96	-46.6	-48.5	18.0	0.00e+00	0	44	0	342884352	64	4590
2026-01-24 06:45:01.03	64.24	18.29	-46.5	-48.3	18.4	0.00e+00	0	43	0	350224384	63	4742
2026-01-24 06:45:05.07	63.53	18.63	-46.2	-48.0	18.7	0.00e+00	0	43	0	358612992	63	4547
2026-01-24 06:45:09.11	62.81	18.96	-46.1	-47.7	18.8	0.00e+00	0	43	0	365953024	63	4424
2026-01-24 06:45:13.14	62.07	19.29	-46.0	-47.6	19.0	0.00e+00	0	43	0	373293056	63	4374
2026-01-24 06:45:17.17	61.31	19.63	-46.3	-48.1	18.6	0.00e+00	0	43	0	380633088	63	4607
2026-01-24 06:45:21.21	60.54	19.96	-45.9	-47.5	19.2	0.00e+00	0	43	0	389021696	63	4304
2026-01-24 06:45:25.24	59.75	20.29	-45.9	-47.5	19.2	0.00e+00	0	43	0	396361728	62	4552
2026-01-24 06:45:29.27	58.94	20.62	-45.8	-47.3	19.4	0.00e+00	0	44	0	403701760	62	4476
2026-01-24 06:45:33.30	58.11	20.94	-46.1	-47.8	18.9	0.00e+00	0	43	0	411041792	63	4457
2026-01-24 06:45:37.33	57.27	21.27	-45.5	-47.0	19.6	0.00e+00	0	44	0	418381824	63	4089
2026-01-24 06:45:41.36	56.41	21.59	-44.4	-45.7	20.8	0.00e+00	0	43	0	426770432	60	4150
2026-01-24 06:45:45.39	55.53	21.91	-44.7	-46.1	20.4	0.00e+00	0	43	0	434110464	60	4362
2026-01-24 06:45:49.42	54.64	22.22	-45.2	-46.7	19.9	0.00e+00	0	43	0	441450496	61	4409
2026-01-24 06:45:53.45	53.72	22.54	-44.4	-45.6	20.2	0.00e+00	0	43	0	448790528	60	4141
2026-01-24 06:45:57.49	52.78	22.84	-44.5	-45.7	20.8	0.00e+00	0	44	0	456130560	60	4184
2026-01-24 06:46:01.52	51.83	23.15	-44.6	-45.8	20.7	0.00e+00	0	44	0	464519168	60	4228
2026-01-24 06:46:05.56	50.86	23.44	-43.9	-45.1	21.6	0.00e+00	0	43	0	471859200	59	4115
2026-01-24 06:46:09.59	49.87	23.73	-44.4	-45.7	21.2	0.00e+00	0	43	0	479199232	59	4405
2026-01-24 06:46:13.63	48.86	24.02	-44.4	-45.7	20.9	0.00e+00	0	43	0	486539264	60	4160
2026-01-24 06:46:17.66	47.83	24.30	-44.8	-46.1	20.6	0.00e+00	0	44	0	494927872	60	4381
2026-01-24 06:46:21.69	46.78	24.57	-44.9	-46.2	20.5	0.00e+00	0	43	0	502267904	60	4426
2026-01-24 06:46:25.72	45.72	24.83	-44.3	-45.5	21.1	0.00e+00	0	43	0	509607936	60	4096
2026-01-24 06:46:29.75	44.64	25.09	-44.0	-45.2	21.3	0.00e+00	0	43	0	516947968	60	3949
2026-01-24 06:46:33.73	43.56	25.33	-44.6	-45.8	20.8	0.00e+00	0	43	0	524288000	60	4234
2026-01-24 06:46:37.76	42.44	25.56	-44.4	-45.6	21.3	0.00e+00	0	43	0	532676608	59	4385
2026-01-24 06:46:41.80	41.31	25.79	-44.2	-45.4	21.5	0.00e+00	0	43	0	540016640	59	4282
2026-01-24 06:46:45.83	40.16	26.01	-44.4	-45.6	21.4	0.00e+00	0	43	0	547356672	59	4347
2026-01-24 06:46:49.86	39.00	26.21	-44.6	-45.8	21.2	0.00e+00	0	43	0	554696704	59	4482
2026-01-24 06:46:53.90	37.82	26.40	-44.8	-46.1	20.7	0.00e+00	0	43	0	562036736	60	4341
2026-01-24 06:46:57.93	36.63	26.58	-45.6	-47.0	19.8	0.00e+00	0	44	0	570425344	61	4594
2026-01-24 06:47:01.96	35.42	26.75	-46.2	-47.8	19.2	0.00e+00	0	43	0	577765376	63	4449
2026-01-24 06:47:06.00	34.20	26.91	-45.1	-46.5	20.3	0.00e+00	0	44	0	585105408	62	4057
2026-01-24 06:47:10.03	32.97	27.05	-45.9	-47.4	19.5	0.00e+00	0	43	0	592445440	62	4524
2026-01-24 06:47:14.06	31.73	27.17	-46.3	-48.0	19.0	0.00e+00	0	44	0	599785472	63	4549
2026-01-24 06:47:18.10	30.48	27.28	-45.7	-47.2	19.7	0.00e+00	0	43	0	608174080	63	4163
2026-01-24 06:47:22.13	29.23	27.38	-46.0	-47.6	19.3	0.00e+00	0	44	0	615514112	63	4385
2026-01-24 06:47:26.17	27.96	27.46	-45.8	-47.4	19.5	0.00e+00	0	43	0	622854144	63	4252
2026-01-24 06:47:30.20	26.69	27.53	-46.0	-47.7	19.1	0.00e+00	0	44	0	630194176	63	4393
2026-01-24 06:47:34.23	25.42	27.58	-47.0	-49.0	17.9	0.00e+00	0	43	0	638582784	64	4820
2026-01-24 06:47:38.27	24.14	27.62	-45.8	-47.3	19.6	0.00e+00	0	43	0	645922816	63	4194
2026-01-24 06:47:42.31	22.86	27.64	-45.3	-46.7	20.1	0.00e+00	0	44	0	653262848	61	4399
2026-01-24 06:47:46.34	21.58	27.64	-46.1	-47.7	19.2	0.00e+00	0	43	0	660602880	62	4658
2026-01-24 06:47:50.37	20.30	27.63	-45.4	-46.8	20.2	0.00e+00	0	43	0	667942912	62	4214
2026-01-24 06:47:54.40	19.02	27.60	-45.7	-47.2	19.8	0.00e+00	0	44	0	676331520	62	4413
2026-01-24 06:47:58.43	17.74	27.56	-46.2	-47.8	19.2	0.00e+00	0	44	0	683671552	63	4487
2026-01-24 06:48:02.47	16.47	27.50	-45.0	-46.3	20.6	0.00e+00	0	43	0	691011584	61	4226
2026-01-24 06:48:06.50	15.20	27.42	-44.5	-45.7	21.3	0.00e+00	0	43	0	698351616	59	4428
2026-01-24 06:48:10.53	13.94	27.33	-44.3	-45.5	21.2	0.00e+00	0	43	0	705691648	60	4085
2026-01-24 06:48:14.57	12.69	27.23	-44.4	-45.7	21.0	0.00e+00	0	43	0	714080256	60	4151
2026-01-24 06:48:18.60	11.45	27.11	-44.9	-46.2	20.7	0.00e+00	0	43	0	721420288	61	4186
2026-01-24 06:48:22.63	10.22	26.97	-45.2	-46.5	20.5	0.00e+00	0	43	0	728760320	61	4312
2026-01-24 06:48:26.67	8.99	26.83	-45.1	-46.4	20.5	0.00e+00	0	43	0	736100352	62	4035
2026-01-24 06:48:30.70	7.78	26.67	-44.9	-46.2	20.8	0.00e+00	0	44	0	744488960	61	4147
2026-01-24 06:48:34.73	6.58	26.49	-45.0	-46.2	20.7	0.00e+00	0	44	0	751828992	61	4193
2026-01-24 06:48:38.76	5.40	26.31	-45.0	-46.3	20.6	0.00e+00	0	44	0	759169024	60	4473
2026-01-24 06:48:42.80	4.23	26.11	-45.7	-47.2	19.9	0.00e+00	0	44	0	766509056	62	4399
2026-01-24 06:48:46.83	3.08	25.90	-46.4	-48.0	19.0	0.00e+00	0	44	0	773849088	63	4594
2026-01-24 06:48:50.87	1.94	25.68	-46.6	-48.4	18.6	0.00e+00	0	44	0	782237696	64	4495
2026-01-24 06:48:54.90	0.82	25.44	-46.2	-47.8	19.0	0.00e+00	0	43	0	789577728	64	4212
2026-01-24 06:48:58.93	359.71	25.20	-45.9	-47.4	19.5	0.00e+00	0	43	0	796917760	63	4243
2026-01-24 06:49:02.94	358.63	24.95	-45.9	-47.4	19.4	0.00e+00	0	43	0	804257792	62	4508
2026-01-24 06:49:06.97	357.56	24.70	-45.2	-46.5	20.2	0.00e+00	0	43	0	811597824	62	4090
2026-01-24 06:49:11.00	356.51	24.43	-45.9	-47.4	19.5	0.00e+00	0	43	0	819986432	62	4522
2026-01-24 06:49:15.03	355.47	24.16	-46.5	-48.3	18.7	0.00e+00	0	43	0	827326464	63	4714
2026-01-24 06:49:19.07	354.46	23.87	-46.1	-47.7	19.2	0.00e+00	0	43	0	834666496	63	4419
2026-01-24 06:49:23.10	353.46	23.59	-45.6	-47.1	19.7	0.00e+00	0	43	0	842006528	62	4368
2026-01-24 06:49:27.13	352.48	23.29	-45.9	-47.5	19.4	0.00e+00	0	43	0	849346560	62	4573
2026-01-24 06:49:31.16	351.52	22.99	-45.0	-46.3	20.4	0.00e+00	0	44	0	857735168	62	3987
2026-01-24 06:49:35.19	350.58	22.69	-44.6	-45.9	20.9	0.00e+00	0	43	0	865075200	61	4017
2026-01-24 06:49:39.23	349.65	22.38	-44.2	-45.4	21.2	0.00e+00	0	43	0	872415232	60	4044
2026-01-24 06:49:43.26	348.75	22.07	-44.3	-45.5	21.4	0.00e+00	0	43	0	879755264	59	4308
2026-01-24 06:49:47.30	347.86	21.75	-44.0	-45.2	21.6	0.00e+00	0	44	0	888143872	59	4168
2026-01-24 06:49:51.33	346.99	21.43	-44.7	-46.1	20.5	0.00e+00	0	44	0	895483904	60	4342
2026-01-24 06:49:55.36	346.15	21.11	-45.2	-46.7	20.0	0.00e+00	0	44	0	902823936	61	4403
2026-01-24 06:49:59.39	345.31	20.78	-44.4	-45.6	21.0	0.00e+00	0	44	0	910163968	60	4134
2026-01-24 06:50:03.42	344.50	20.45	-44.8	-46.1	20.5	0.00e+00	0	43	0	917504000	60	4382
2026-01-24 06:50:07.45	343.70	20.13	-43.7	-44.8	22.0	0.00e+00	0	44	0	924844032	59	3973
2026-01-24 06:50:11.48	342.92	19.80	-43.6	-44.8	22.0	0.00e+00	0	44	0	933232640	58	4194
2026-01-24 06:50:15.51	342.16	19.46	-44.1	-45.2	21.6	0.00e+00	0	44	0	940572672	58	4429
2026-01-24 06:50:19.55	341.42	19.13	-44.2	-45.3	21.5	0.00e+00	0	44	0	947912704	59	4237
2026-01-24 06:50:23.58	340.69	18.80	-44.3	-45.6	21.3	0.00e+00	0	44	0	955252736	59	4349
2026-01-24 06:50:27.62	339.97	18.47	-44.5	-45.7	21.1	0.00e+00	0	44	0	963641344	59	4438
2026-01-24 06:50:31.65	339.27	18.13	-44.3	-45.4	21.4	0.00e+00	0	44	0	970981376	59	4286
2026-01-24 06:50:35.68	338.59	17.80	-43.7	-44.8	21.9	0.00e+00	0	44	0	978321408	59	3960
2026-01-24 06:50:39.72	337.92	17.47	-44.3	-45.5	20.9	0.00e+00	0	43	0	985661440	60	4086
2026-01-24 06:50:43.75	337.27	17.13	-45.0	-46.3	20.3	0.00e+00	0	44	0	993001472	61	4236
2026-01-24 06:50:47.79	336.63	16.80	-44.7	-45.9	20.6	0.00e+00	0	44	0	1001390080	61	4050
2026-01-24 06:50:51.83	336.01	16.47	-44.9	-46.2	20.4	0.00e+00	0	44	0	1008730112	60	4437
2026-01-24 06:50:55.86	335.40	16.14	-45.5	-47.0	19.6	0.00e+00	0	44	0	1016070144	61	4572
2026-01-24 06:50:59.89	334.80	15.81	-46.0	-47.6	19.1	0.00e+00	0	44	0	1023410176	62	4614
2026-01-24 06:51:03.92	334.22	15.49	-44.8	-46.1	20.4	0.00e+00	0	44	0	1031798784	61	4126
2026-01-24 06:51:07.96	333.65	15.16	-44.7	-46.0	20.5	0.00e+00	0	44	0	1039138816	60	4333
2026-01-24 06:51:11.99	333.09	14.84	-45.3	-46.7	19.8	0.00e+00	0	44	0	1046478848	61	4422
2026-01-24 06:51:16.02	332.54	14.51	-45.0	-46.3	20.1	0.00e+00	0	44	0	1053818880	61	4222
2026-01-24 06:51:20.05	332.01	14.19	-44.7	-46.0	20.4	0.00e+00	0	44	0	1061158912	61	4072
2026-01-24 06:51:24.09	331.49	13.87	-44.7	-46.0	20.4	0.00e+00	0	44	0	1068498944	61	4081
2026-01-24 06:51:28.12	330.98	13.56	-45.2	-46.7	19.8	0.00e+00	0	44	0	1076887552	61	4396
2026-01-24 06:51:32.15	330.48	13.24	-45.5	-47.0	19.5	0.00e+00	0	44	0	1084227584	61	4551
2026-01-24 06:51:36.19	329.99	12.93	-45.2	-46.6	19.7	0.00e+00	0	44	0	1091567616	62	4139
2026-01-24 06:51:40.22	329.51	12.62	-45.4	-46.9	19.5	0.00e+00	0	44	0	1098907648	62	4272
2026-01-24 06:51:44.25	329.04	12.31	-46.0	-47.6	18.9	0.00e+00	0	44	0	1107296256	62	4643
2026-01-24 06:51:48.29	328.58	12.00	-46.6	-48.4	18.0	0.00e+00	0	44	0	1114636288	64	4529
2026-01-24 06:51:52.32	328.14	11.69	-46.1	-47.7	18.7	0.00e+00	0	44	0	1121976320	63	4435
2026-01-24 06:51:56.35	327.70	11.39	-45.3	-46.8	19.6	0.00e+00	0	44	0	1129316352	62	4217
2026-01-24 06:52:00.39	327.27	11.09	-45.5	-47.0	19.3	0.00e+00	0	44	0	1136656384	62	4302
2026-01-24 06:52:04.42	326.85	10.79	-46.3	-48.0	18.4	0.00e+00	0	44	0	1145044992	63	4567
2026-01-24 06:52:08.45	326.43	10.49	-46.9	-48.9	17.5	0.00e+00	0	44	0	1152385024	64	4765
2026-01-24 06:52:12.49	326.03	10.20	-46.9	-48.9	17.4	0.00e+00	0	44	0	1159725056	64	4794
2026-01-24 06:52:16.52	325.64	9.90	-46.6	-48.5	17.8	0.00e+00	0	44	0	1167065088	64	4576
2026-01-24 06:52:20.55	325.25	9.61	-46.5	-48.4	17.9	0.00e+00	0	44	0	1174405120	64	4499
2026-01-24 06:52:24.59	324.87	9.32	-46.7	-48.6	17.7	0.00e+00	0	43	0	1182793728	64	4623
2026-01-24 06:52:28.62	324.50	9.04	-47.3	-49.4	16.8	0.00e+00	0	43	0	1190133760	65	4786
2026-01-24 06:52:32.65	324.14	8.75	-47.6	-49.9	16.4	0.00e+00	0	44	0	1197473792	65	5062
2026-01-24 06:52:36.68	323.78	8.47	-47.4	-49.6	16.7	0.00e+00	0	44	0	1204813824	66	4609
2026-01-24 06:52:40.72	323.43	8.19	-46.6	-48.5	17.7	0.00e+00	0	44	0	1213202432	65	4298
2026-01-24 06:52:44.75	323.09	7.91	-46.6	-48.4	17.8	0.00e+00	0	44	0	1220542464	63	4809
2026-01-24 06:52:48.78	322.75	7.64	-46.1	-47.8	18.5	0.00e+00	0	44	0	1227882496	63	4446
2026-01-24 06:52:52.81	322.42	7.36	-46.4	-48.2	17.8	0.00e+00	0	44	0	1235222528	63	4688
2026-01-24 06:52:56.84	322.10	7.09	-47.1	-49.2	16.9	0.00e+00	0	43	0	1242562560	64	4969
2026-01-24 06:53:00.88	321.78	6.82	-47.5	-49.8	16.4	0.00e+00	0	44	0	1250951168	65	5000
2026-01-24 06:53:04.91	321.47	6.55	-47.7	-50.1	16.0	0.00e+00	0	44	0	1258291200	66	4920
2026-01-24 06:53:08.94	321.17	6.28	-47.8	-50.3	15.7	0.00e+00	0	44	0	1265631232	66	5014
2026-01-24 06:53:12.97	320.87	6.02	-47.9	-50.5	15.5	0.00e+00	0	43	0	1272971264	66	5140
2026-01-24 06:53:17.01	320.58	5.76	-47.7	-50.1	15.9	0.00e+00	0	44	0	1281359872	66	4903
2026-01-24 06:53:21.04	320.29	5.50	-47.7	-50.2	15.7	0.00e+00	0	44	0	1288699904	66	4965
2026-01-24 06:53:25.08	320.00	5.24	-47.4	-49.7	16.2	0.00e+00	0	43	0	1296039936	66	4687
2026-01-24 06:53:29.11	319.73	4.98	-52.4	-67.4	3.8	4.12e-01	0	44	104	1302331392	75	21320
2026-01-24 06:53:33.14	319.46	4.73	-53.4	-68.3	3.8	1.49e+00	0	44	104	1302331392	77	21243
2026-01-24 06:53:37.17	319.19	4.47	-53.9	-68.9	3.8	1.49e+00	0	43	104	1302331392	78	21330
2026-01-24 06:53:41.21	318.93	4.22	-54.2	-69.2	3.8	1.49e+00	0	44	104	1302331392	78	22053
2026-01-24 06:53:45.24	318.67	3.97	-54.3	-69.3	3.8	1.49e+00	0	44	104	1302331392	79	21243
2026-01-24 06:53:49.28	318.41	3.72	-54.3	-69.2	3.8	1.49e+00	0	44	104	1302331392	79	21010
2026-01-24 06:53:53.32	318.17	3.48	-54.1	-69.1	3.8	1.49e+00	0	43	104	1302331392	79	20627
2026-01-24 06:53:57.35	317.92	3.23	-54.0	-69.0	3.8	1.49e+00	0	44	104	1302331392	79	20426
2026-01-24 06:54:01.39	317.68	2.99	-53.9	-68.9	3.8	1.49e+00	0	44	104	1302331392	79	20269
2026-01-24 06:54:05.42	317.45	2.75	-53.8	-68.9	3.8	1.49e+00	0	44	104	1302331392	79	20090
2026-01-24 06:54:09.45	317.21	2.51	-53.8	-68.8	3.8	1.49e+00	0	44	104	1302331392	79	20002
2026-01-24 06:54:13.49	316.99	2.27	-53.8	-68.8	3.8	1.49e+00	0	44	104	1302331392	79	19964
2026-01-24 06:54:17.53	316.76	2.03	-53.8	-68.8	3.8	1.49e+00	0	44	104	1302331392	79	19945

#Closed at: 2026-01-24 06:54:20
#Recorded file [1302 MB]: D:/lorett/data/31041_260124_094114.dat