passes_logs/2026/01/24/R3.2S_Murmansk/R3.2S_Murmansk__20260124_132539_SUOMI_NPP_rec.log

#Pass ID: 20260124_132539_SUOMI NPP
#Satellite: SUOMI NPP
#Configuration: NPP
#almurnet v.1.7.20251203
#Start time: 2026-01-24 13:25:41

#Version: 2.2.20231116
#Station: R3.2S_Murmansk
#Location: 33.079688 lon 68.888172 lat
#TLE: 1 37849U 11061A   26023.63275593  .00000212  00000+0  12133-3 0  9990
#TLE: 2 37849  98.7820 325.6074 0002234  48.9695 311.1673 14.19528901737937

#Time	Az	El	Level	Level2	SNR	BER	BlckErr	Temp	State	Recorded	gain1	gain2
2026-01-24 13:25:41.74	253.50	2.08	-52.2	-67.2	3.8	1.49e+00	0	41	0	0	76	19739
2026-01-24 13:25:44.75	253.83	2.20	-52.2	-67.2	3.8	1.49e+00	0	41	104	0	74	22078
2026-01-24 13:25:47.78	254.16	2.32	-52.2	-67.1	3.8	1.49e+00	0	41	104	0	74	21998
2026-01-24 13:25:50.80	254.49	2.44	-52.2	-67.2	3.8	1.49e+00	0	41	104	0	74	22038
2026-01-24 13:25:53.83	254.82	2.56	-52.2	-67.2	3.8	1.49e+00	0	41	104	0	74	22059
2026-01-24 13:25:56.85	255.16	2.68	-52.2	-67.2	3.8	1.49e+00	0	41	104	0	74	22055
2026-01-24 13:25:59.88	255.50	2.80	-52.2	-67.2	3.8	1.49e+00	0	42	104	0	74	22057
2026-01-24 13:26:02.90	255.84	2.92	-52.2	-67.2	3.8	1.49e+00	0	42	104	0	74	22049
2026-01-24 13:26:05.92	256.19	3.04	-52.2	-67.2	3.8	1.49e+00	0	42	104	0	74	22034
2026-01-24 13:26:08.95	256.54	3.16	-52.2	-67.2	3.8	1.49e+00	0	42	104	0	74	22063
2026-01-24 13:26:11.97	256.89	3.27	-52.2	-67.1	3.8	1.49e+00	0	42	104	0	74	21936
2026-01-24 13:26:15.00	257.24	3.39	-52.2	-67.1	3.8	1.49e+00	0	42	104	0	74	21979
2026-01-24 13:26:18.02	257.59	3.51	-52.2	-67.2	3.8	1.49e+00	0	42	104	0	74	22010
2026-01-24 13:26:21.05	257.95	3.63	-52.2	-67.2	3.8	1.49e+00	0	42	104	0	74	22010
2026-01-24 13:26:24.07	258.31	3.74	-52.2	-67.1	3.8	1.49e+00	0	42	104	0	74	21990
2026-01-24 13:26:27.09	258.68	3.86	-52.2	-67.1	3.8	1.49e+00	0	42	104	0	74	21874
2026-01-24 13:26:30.12	259.04	3.98	-52.2	-67.1	3.8	1.49e+00	0	42	104	0	74	21858
2026-01-24 13:26:33.15	259.41	4.09	-52.2	-67.2	3.8	1.49e+00	0	42	104	0	74	22034
2026-01-24 13:26:36.17	259.79	4.21	-52.2	-67.1	3.8	1.49e+00	0	42	104	0	74	21949
2026-01-24 13:26:39.20	260.16	4.32	-52.2	-66.9	3.8	1.49e+00	0	42	104	0	74	21458
2026-01-24 13:26:42.23	260.54	4.44	-52.2	-67.1	3.8	1.49e+00	0	42	104	0	74	21884
2026-01-24 13:26:45.25	260.92	4.55	-52.2	-67.1	3.8	1.49e+00	0	42	104	0	74	21874
2026-01-24 13:26:48.27	261.30	4.66	-52.2	-66.4	3.8	1.49e+00	0	42	104	0	74	20263
2026-01-24 13:26:51.30	261.69	4.78	-52.1	-65.7	3.8	1.49e+00	0	42	104	0	74	18602
2026-01-24 13:26:54.32	262.08	4.89	-51.5	-59.3	6.6	6.24e-01	0	42	0	1048576	74	8914
2026-01-24 13:26:57.35	262.47	5.00	-48.5	-51.2	14.9	3.80e-06	0	42	0	7340032	69	4677
2026-01-24 13:27:00.37	262.87	5.11	-48.8	-51.7	14.2	2.65e-03	0	42	0	12582912	69	4963
2026-01-24 13:27:03.40	263.26	5.22	-48.2	-50.8	15.4	0.00e+00	0	43	0	18874368	68	4724
2026-01-24 13:27:06.42	263.66	5.33	-46.5	-48.4	17.6	0.00e+00	0	42	0	24117248	64	4506
2026-01-24 13:27:09.44	264.07	5.44	-46.7	-48.6	17.4	0.00e+00	0	42	0	30408704	64	4650
2026-01-24 13:27:12.46	264.47	5.54	-46.8	-48.7	17.3	0.00e+00	0	42	0	35651584	64	4678
2026-01-24 13:27:15.49	264.88	5.65	-47.1	-49.1	17.0	0.00e+00	0	42	0	40894464	64	4905
2026-01-24 13:27:18.51	265.29	5.76	-47.1	-49.2	16.9	0.00e+00	0	42	0	47185920	65	4684
2026-01-24 13:27:21.54	265.71	5.86	-46.9	-48.9	17.2	0.00e+00	0	43	0	52428800	65	4520
2026-01-24 13:27:24.56	266.13	5.97	-47.1	-49.1	17.0	0.00e+00	0	42	0	58720256	65	4640
2026-01-24 13:27:27.59	266.55	6.07	-47.1	-49.2	17.0	0.00e+00	0	43	0	63963136	65	4669
2026-01-24 13:27:30.61	266.97	6.17	-47.2	-49.3	16.9	0.00e+00	0	43	0	69206016	65	4725
2026-01-24 13:27:33.64	267.40	6.28	-47.6	-49.8	16.4	0.00e+00	0	43	0	75497472	65	5002
2026-01-24 13:27:36.66	267.83	6.38	-48.3	-50.9	15.2	0.00e+00	0	42	0	80740352	67	5084
2026-01-24 13:27:39.69	268.26	6.48	-48.9	-52.1	13.9	7.00e-07	0	42	0	87031808	68	5497
2026-01-24 13:27:42.71	268.70	6.58	-49.3	-53.1	12.6	5.03e-05	0	43	0	92274688	69	5846
2026-01-24 13:27:45.73	269.13	6.67	-49.4	-53.4	12.2	2.10e-04	0	43	0	97517568	69	6047
2026-01-24 13:27:48.75	269.57	6.77	-49.3	-53.1	12.7	6.86e-05	0	43	0	103809024	69	5814
2026-01-24 13:27:51.78	270.02	6.87	-48.8	-51.9	14.0	3.00e-06	0	43	0	109051904	69	5065
2026-01-24 13:27:54.81	270.46	6.96	-47.9	-50.4	15.5	0.00e+00	0	43	0	115343360	67	4791
2026-01-24 13:27:57.83	270.91	7.06	-47.7	-50.0	16.1	0.00e+00	0	43	0	120586240	67	4571
2026-01-24 13:28:00.86	271.36	7.15	-47.8	-50.1	16.1	0.00e+00	0	43	0	125829120	67	4633
2026-01-24 13:28:03.88	271.82	7.24	-47.7	-49.9	16.5	0.00e+00	0	43	0	132120576	67	4512
2026-01-24 13:28:06.91	272.28	7.33	-47.4	-49.5	16.8	0.00e+00	0	43	0	137363456	66	4584
2026-01-24 13:28:09.93	272.74	7.42	-47.3	-49.3	17.1	0.00e+00	0	43	0	143654912	66	4473
2026-01-24 13:28:12.96	273.20	7.51	-47.2	-49.2	17.2	0.00e+00	0	43	0	148897792	66	4410
2026-01-24 13:28:15.99	273.67	7.59	-47.3	-49.4	17.0	0.00e+00	0	43	0	154140672	65	4776
2026-01-24 13:28:19.01	274.13	7.68	-47.5	-49.6	16.8	0.00e+00	0	43	0	160432128	65	4923
2026-01-24 13:28:22.04	274.60	7.76	-47.5	-49.6	16.9	0.00e+00	0	43	0	165675008	65	4877
2026-01-24 13:28:25.06	275.08	7.84	-47.3	-49.3	17.0	0.00e+00	0	43	0	171966464	65	4744
2026-01-24 13:28:28.09	275.55	7.93	-47.1	-49.1	17.4	0.00e+00	0	43	0	177209344	65	4620
2026-01-24 13:28:31.12	276.03	8.00	-47.1	-49.1	17.3	0.00e+00	0	43	0	182452224	65	4600
2026-01-24 13:28:34.14	276.51	8.08	-47.6	-49.8	16.7	0.00e+00	0	43	0	188743680	65	5004
2026-01-24 13:28:37.16	276.99	8.16	-47.6	-49.7	16.7	0.00e+00	0	43	0	193986560	66	4705
2026-01-24 13:28:40.19	277.48	8.23	-47.5	-49.6	16.8	0.00e+00	0	43	0	200278016	66	4621
2026-01-24 13:28:43.21	277.97	8.31	-47.7	-49.8	16.6	0.00e+00	0	43	0	205520896	66	4728
2026-01-24 13:28:46.24	278.46	8.38	-47.5	-49.5	16.9	0.00e+00	0	43	0	210763776	66	4594
2026-01-24 13:28:49.26	278.95	8.45	-47.2	-49.2	17.3	0.00e+00	0	43	0	217055232	66	4407
2026-01-24 13:28:52.29	279.45	8.52	-47.1	-49.0	17.5	0.00e+00	0	43	0	222298112	65	4564
2026-01-24 13:28:55.31	279.94	8.59	-47.6	-49.6	16.9	0.00e+00	0	43	0	228589568	65	4922
2026-01-24 13:28:58.34	280.44	8.65	-48.2	-50.6	16.0	0.00e+00	0	43	0	233832448	67	4872
2026-01-24 13:29:01.36	280.94	8.71	-48.4	-50.9	15.7	0.00e+00	0	43	0	240123904	67	5071
2026-01-24 13:29:04.38	281.45	8.78	-47.9	-50.1	16.5	0.00e+00	0	43	0	245366784	67	4609
2026-01-24 13:29:07.40	281.95	8.84	-47.5	-49.6	17.0	0.00e+00	0	43	0	250609664	66	4604
2026-01-24 13:29:10.43	282.46	8.89	-47.6	-49.7	16.8	0.00e+00	0	43	0	256901120	66	4692
2026-01-24 13:29:13.45	282.97	8.95	-47.6	-49.6	16.9	0.00e+00	0	43	0	262144000	66	4631
2026-01-24 13:29:16.48	283.48	9.01	-46.9	-48.6	17.8	0.00e+00	0	43	0	268435456	65	4389
2026-01-24 13:29:19.51	283.99	9.06	-47.5	-49.5	17.1	0.00e+00	0	43	0	273678336	65	4828
2026-01-24 13:29:22.53	284.51	9.11	-48.1	-50.3	16.3	0.00e+00	0	43	0	278921216	66	5017
2026-01-24 13:29:25.56	285.02	9.16	-47.4	-49.4	17.2	0.00e+00	0	43	0	285212672	66	4514
2026-01-24 13:29:28.58	285.54	9.21	-47.5	-49.4	17.2	0.00e+00	0	43	0	290455552	66	4538
2026-01-24 13:29:31.61	286.06	9.25	-48.0	-50.2	16.5	0.00e+00	0	43	0	296747008	66	4931
2026-01-24 13:29:34.63	286.58	9.29	-47.4	-49.3	17.4	0.00e+00	0	43	0	301989888	66	4486
2026-01-24 13:29:37.65	287.10	9.34	-46.9	-48.7	18.1	0.00e+00	0	43	0	308281344	65	4392
2026-01-24 13:29:40.67	287.63	9.38	-47.1	-48.9	17.9	0.00e+00	0	43	0	313524224	65	4510
2026-01-24 13:29:43.70	288.15	9.41	-47.4	-49.3	17.4	0.00e+00	0	43	0	318767104	65	4755
2026-01-24 13:29:46.72	288.68	9.45	-47.3	-49.1	17.6	0.00e+00	0	43	0	325058560	65	4650
2026-01-24 13:29:49.75	289.21	9.48	-48.0	-50.2	16.7	0.00e+00	0	43	0	330301440	66	4936
2026-01-24 13:29:52.77	289.73	9.51	-48.9	-51.5	15.5	0.00e+00	0	43	0	336592896	68	5104
2026-01-24 13:29:55.80	290.26	9.54	-49.0	-51.7	15.3	0.00e+00	0	43	0	341835776	68	5234
2026-01-24 13:29:58.82	290.79	9.57	-48.8	-51.3	15.7	0.00e+00	0	43	0	347078656	68	5023
2026-01-24 13:30:01.84	291.32	9.59	-49.1	-51.7	15.3	0.00e+00	0	43	0	353370112	68	5241
2026-01-24 13:30:04.87	291.86	9.61	-49.0	-51.6	15.3	0.00e+00	0	43	0	358612992	68	5205
2026-01-24 13:30:07.90	292.39	9.64	-48.6	-51.0	16.0	0.00e+00	0	43	0	364904448	68	4845
2026-01-24 13:30:10.92	292.93	9.65	-48.7	-51.1	15.9	0.00e+00	0	43	0	370147328	68	4902
2026-01-24 13:30:13.95	293.46	9.67	-48.3	-50.6	16.4	0.00e+00	0	43	0	375390208	68	4620
2026-01-24 13:30:16.97	293.99	9.68	-48.1	-50.2	16.7	0.00e+00	0	43	0	381681664	68	4408
2026-01-24 13:30:19.99	294.53	9.70	-47.9	-50.0	16.9	0.00e+00	0	43	0	386924544	67	4555
2026-01-24 13:30:23.02	295.07	9.71	-48.0	-50.1	16.7	0.00e+00	0	43	0	393216000	67	4614
2026-01-24 13:30:26.05	295.60	9.71	-47.8	-49.8	17.0	0.00e+00	0	43	0	398458880	67	4458
2026-01-24 13:30:29.07	296.14	9.72	-47.5	-49.5	17.2	0.00e+00	0	43	0	403701760	67	4322
2026-01-24 13:30:32.09	296.67	9.72	-47.6	-49.6	17.1	0.00e+00	0	43	0	409993216	67	4389
2026-01-24 13:30:35.12	297.21	9.72	-47.9	-50.0	16.8	0.00e+00	0	43	0	415236096	67	4575
2026-01-24 13:30:38.15	297.75	9.72	-47.5	-49.4	17.3	0.00e+00	0	43	0	421527552	67	4281
2026-01-24 13:30:41.17	298.28	9.72	-47.1	-48.9	17.8	0.00e+00	0	43	0	426770432	66	4253
2026-01-24 13:30:44.19	298.82	9.71	-47.1	-49.0	17.7	0.00e+00	0	43	0	432013312	65	4554
2026-01-24 13:30:47.22	299.35	9.70	-46.5	-48.1	18.5	0.00e+00	0	43	0	438304768	65	4120
2026-01-24 13:30:50.24	299.89	9.69	-46.3	-47.8	18.8	0.00e+00	0	43	0	443547648	64	4234
2026-01-24 13:30:53.27	300.42	9.68	-46.6	-48.2	18.5	0.00e+00	0	43	0	449839104	64	4429
2026-01-24 13:30:56.29	300.96	9.67	-47.1	-49.0	17.7	0.00e+00	0	43	0	455081984	64	4816
2026-01-24 13:30:59.32	301.49	9.65	-46.7	-48.5	18.2	0.00e+00	0	43	0	460324864	64	4546
2026-01-24 13:31:02.35	302.03	9.63	-47.1	-48.9	17.9	0.00e+00	0	43	0	466616320	64	4781
2026-01-24 13:31:05.37	302.56	9.61	-47.2	-49.1	17.7	0.00e+00	0	43	0	471859200	65	4610
2026-01-24 13:31:08.40	303.09	9.59	-47.2	-49.1	17.6	0.00e+00	0	43	0	478150656	65	4621
2026-01-24 13:31:11.42	303.62	9.57	-46.5	-48.2	18.6	0.00e+00	0	43	0	483393536	65	4152
2026-01-24 13:31:14.45	304.15	9.54	-46.6	-48.4	18.3	0.00e+00	0	43	0	489684992	64	4501
2026-01-24 13:31:17.47	304.68	9.51	-46.8	-48.6	18.1	0.00e+00	0	43	0	494927872	64	4604
2026-01-24 13:31:20.50	305.21	9.48	-46.0	-47.5	19.1	0.00e+00	0	43	0	500170752	64	4089
2026-01-24 13:31:23.53	305.74	9.44	-45.6	-47.1	19.5	0.00e+00	0	43	0	506462208	63	4108
2026-01-24 13:31:26.55	306.26	9.41	-45.8	-47.2	19.4	0.00e+00	0	43	0	511705088	63	4184
2026-01-24 13:31:29.57	306.78	9.37	-46.2	-47.8	18.9	0.00e+00	0	43	0	517996544	63	4443
2026-01-24 13:31:32.60	307.31	9.33	-46.4	-48.0	18.6	0.00e+00	0	43	0	523239424	63	4591
2026-01-24 13:31:35.62	307.83	9.29	-46.2	-47.7	18.9	0.00e+00	0	43	0	528482304	63	4424
2026-01-24 13:31:38.64	308.35	9.25	-46.3	-47.9	18.7	0.00e+00	0	43	0	534773760	63	4535
2026-01-24 13:31:41.67	308.87	9.20	-46.1	-47.9	18.7	0.00e+00	0	43	0	540016640	63	4543
2026-01-24 13:31:44.69	309.38	9.16	-46.2	-47.8	18.8	0.00e+00	0	43	0	546308096	63	4483
2026-01-24 13:31:47.71	309.90	9.11	-46.0	-47.5	19.1	0.00e+00	0	43	0	551550976	63	4310
2026-01-24 13:31:50.74	310.41	9.06	-46.4	-48.0	18.6	0.00e+00	0	43	0	556793856	63	4570
2026-01-24 13:31:53.76	310.92	9.00	-46.8	-48.6	17.9	0.00e+00	0	43	0	563085312	64	4633
2026-01-24 13:31:56.78	311.43	8.95	-46.8	-48.6	17.9	0.00e+00	0	43	0	568328192	64	4635
2026-01-24 13:31:59.81	311.94	8.89	-46.7	-48.5	18.0	0.00e+00	0	43	0	574619648	64	4576
2026-01-24 13:32:02.84	312.45	8.83	-46.5	-48.2	18.3	0.00e+00	0	43	0	579862528	64	4421
2026-01-24 13:32:05.86	312.95	8.77	-45.7	-47.2	19.3	0.00e+00	0	43	0	586153984	63	4180
2026-01-24 13:32:08.89	313.45	8.71	-45.2	-46.6	19.9	0.00e+00	0	43	0	591396864	62	4101
2026-01-24 13:32:11.91	313.95	8.65	-45.0	-46.3	20.0	0.00e+00	0	43	0	596639744	61	4238
2026-01-24 13:32:14.94	314.45	8.58	-45.4	-46.8	19.6	0.00e+00	0	43	0	602931200	61	4451
2026-01-24 13:32:17.96	314.95	8.52	-45.4	-46.9	19.5	0.00e+00	0	43	0	608174080	61	4504
2026-01-24 13:32:20.99	315.44	8.45	-45.6	-47.1	19.3	0.00e+00	0	43	0	614465536	62	4356
2026-01-24 13:32:24.01	315.93	8.38	-45.8	-47.3	19.1	0.00e+00	0	43	0	619708416	62	4447
2026-01-24 13:32:27.03	316.42	8.31	-45.7	-47.1	19.3	0.00e+00	0	43	0	624951296	62	4386
2026-01-24 13:32:30.06	316.90	8.23	-45.7	-47.2	19.2	0.00e+00	0	43	0	631242752	62	4420
2026-01-24 13:32:33.08	317.39	8.16	-46.4	-48.0	18.4	0.00e+00	0	43	0	636485632	63	4595
2026-01-24 13:32:36.11	317.87	8.08	-45.9	-47.4	18.9	0.00e+00	0	43	0	642777088	63	4289
2026-01-24 13:32:39.13	318.35	8.00	-45.3	-46.7	19.6	0.00e+00	0	43	0	648019968	62	4187
2026-01-24 13:32:42.15	318.82	7.93	-45.2	-46.6	19.6	0.00e+00	0	43	0	653262848	61	4383
2026-01-24 13:32:45.18	319.30	7.85	-45.8	-47.4	18.9	0.00e+00	0	43	0	659554304	62	4494
2026-01-24 13:32:48.20	319.77	7.76	-46.0	-47.6	18.6	0.00e+00	0	43	0	664797184	62	4650
2026-01-24 13:32:51.22	320.24	7.68	-45.8	-47.3	19.0	0.00e+00	0	43	0	671088640	62	4471
2026-01-24 13:32:54.25	320.70	7.60	-46.0	-47.6	18.7	0.00e+00	0	43	0	676331520	62	4631
2026-01-24 13:32:57.27	321.17	7.51	-46.3	-48.0	18.3	0.00e+00	0	43	0	681574400	63	4567
2026-01-24 13:33:00.29	321.63	7.42	-46.7	-48.5	17.7	0.00e+00	0	43	0	687865856	64	4597
2026-01-24 13:33:03.32	322.09	7.33	-46.9	-48.7	17.5	0.00e+00	0	43	0	693108736	64	4693
2026-01-24 13:33:06.34	322.54	7.24	-47.0	-49.0	17.3	0.00e+00	0	43	0	699400192	64	4825
2026-01-24 13:33:09.37	322.99	7.15	-47.2	-49.2	17.1	0.00e+00	0	43	0	704643072	65	4670
2026-01-24 13:33:12.39	323.44	7.06	-47.5	-49.7	16.6	0.00e+00	0	43	0	709885952	65	4937
2026-01-24 13:33:15.41	323.89	6.97	-47.2	-49.3	16.9	0.00e+00	0	43	0	716177408	65	4734
2026-01-24 13:33:18.44	324.33	6.87	-47.2	-49.3	16.9	0.00e+00	0	43	0	721420288	65	4728
2026-01-24 13:33:21.46	324.78	6.78	-47.1	-49.1	17.2	0.00e+00	0	43	0	727711744	65	4607
2026-01-24 13:33:24.49	325.22	6.68	-47.7	-49.9	16.3	0.00e+00	0	43	0	732954624	66	4798
2026-01-24 13:33:27.51	325.65	6.59	-47.6	-49.8	16.5	0.00e+00	0	43	0	738197504	66	4739
2026-01-24 13:33:30.53	326.08	6.49	-47.8	-50.1	16.1	0.00e+00	0	43	0	744488960	66	4907
2026-01-24 13:33:33.56	326.51	6.39	-48.4	-51.1	15.1	0.00e+00	0	43	0	749731840	67	5204
2026-01-24 13:33:36.58	326.94	6.29	-49.1	-52.2	14.1	0.00e+00	0	43	0	756023296	68	5537
2026-01-24 13:33:39.61	327.37	6.19	-48.8	-51.7	14.6	0.00e+00	0	43	0	761266176	68	5253
2026-01-24 13:33:42.63	327.79	6.08	-48.3	-50.9	15.4	0.00e+00	0	43	0	766509056	68	4787
2026-01-24 13:33:45.65	328.21	5.98	-48.3	-50.9	15.3	0.00e+00	0	43	0	772800512	68	4795
2026-01-24 13:33:48.67	328.62	5.88	-48.1	-50.6	15.7	0.00e+00	0	43	0	778043392	68	4614
2026-01-24 13:33:51.69	329.03	5.77	-48.2	-50.8	15.2	0.00e+00	0	43	0	784334848	67	5037
2026-01-24 13:33:54.72	329.45	5.67	-48.4	-51.1	14.9	0.00e+00	0	43	0	789577728	67	5218
2026-01-24 13:33:57.74	329.85	5.56	-48.5	-51.3	14.8	0.00e+00	0	43	0	795869184	67	5282
2026-01-24 13:34:00.77	330.26	5.45	-48.6	-51.6	14.4	0.00e+00	0	43	0	801112064	67	5470
2026-01-24 13:34:03.79	330.66	5.35	-48.1	-50.7	15.4	0.00e+00	0	43	0	806354944	67	4936
2026-01-24 13:34:06.82	331.06	5.24	-47.7	-50.1	15.9	0.00e+00	0	43	0	812646400	67	4614
2026-01-24 13:34:09.84	331.46	5.13	-48.0	-50.6	15.5	0.00e+00	0	43	0	817889280	66	5171
2026-01-24 13:34:12.87	331.85	5.02	-48.0	-50.5	15.5	0.00e+00	0	43	0	824180736	67	4837
2026-01-24 13:34:15.89	332.24	4.91	-53.1	-68.1	3.8	1.49e+00	0	43	104	825229312	76	21857
2026-01-24 13:34:18.92	332.63	4.80	-53.5	-67.6	3.8	1.49e+00	0	43	104	825229312	77	19612
2026-01-24 13:34:21.94	333.01	4.69	-53.9	-68.9	3.8	1.49e+00	0	43	104	825229312	78	21482
2026-01-24 13:34:24.97	333.39	4.57	-54.1	-69.1	3.8	1.49e+00	0	43	104	825229312	78	21973
2026-01-24 13:34:27.99	333.77	4.46	-54.3	-69.3	3.8	1.49e+00	0	43	104	825229312	79	21133
2026-01-24 13:34:31.01	334.15	4.35	-54.3	-69.3	3.8	1.49e+00	0	43	104	825229312	79	21210
2026-01-24 13:34:34.04	334.52	4.24	-54.2	-69.2	3.8	1.49e+00	0	43	104	825229312	79	20909
2026-01-24 13:34:37.07	334.90	4.12	-54.0	-69.0	3.8	1.49e+00	0	44	104	825229312	79	20514
2026-01-24 13:34:40.09	335.26	4.01	-53.9	-69.0	3.8	1.49e+00	0	43	104	825229312	79	20308
2026-01-24 13:34:43.12	335.63	3.89	-53.9	-68.9	3.8	1.49e+00	0	43	104	825229312	79	20097
2026-01-24 13:34:46.15	335.99	3.78	-53.8	-68.8	3.8	1.49e+00	0	43	104	825229312	79	20026
2026-01-24 13:34:49.17	336.35	3.66	-53.8	-68.8	3.8	1.49e+00	0	43	104	825229312	79	19994
2026-01-24 13:34:52.20	336.71	3.54	-53.8	-68.8	3.8	1.49e+00	0	43	104	825229312	79	19898
2026-01-24 13:34:55.22	337.06	3.43	-53.8	-68.8	3.8	1.49e+00	0	43	104	825229312	79	19844
2026-01-24 13:34:58.25	337.42	3.31	-53.8	-68.8	3.8	1.49e+00	0	43	104	825229312	79	19901
2026-01-24 13:35:01.27	337.76	3.19	-53.8	-68.8	3.8	1.49e+00	0	43	104	825229312	79	19855
2026-01-24 13:35:04.30	338.11	3.08	-53.8	-68.8	3.8	1.49e+00	0	43	104	825229312	79	19846
2026-01-24 13:35:07.33	338.46	2.96	-53.7	-68.7	3.8	1.49e+00	0	43	104	825229312	79	19774
2026-01-24 13:35:10.34	338.80	2.84	-53.7	-68.7	3.8	1.49e+00	0	43	104	825229312	79	19785
2026-01-24 13:35:13.37	339.13	2.72	-53.7	-68.7	3.8	1.49e+00	0	43	104	825229312	79	19803
2026-01-24 13:35:16.40	339.47	2.60	-53.7	-68.7	3.8	1.49e+00	0	43	104	825229312	79	19728
2026-01-24 13:35:19.43	339.81	2.48	-53.7	-68.7	3.8	1.49e+00	0	43	104	825229312	79	19654
2026-01-24 13:35:22.45	340.14	2.36	-53.7	-68.7	3.8	1.49e+00	0	43	104	825229312	79	19707
2026-01-24 13:35:25.48	340.46	2.24	-53.7	-68.7	3.8	1.49e+00	0	43	104	825229312	79	19671
2026-01-24 13:35:28.51	340.79	2.12	-53.7	-68.7	3.8	1.49e+00	0	44	104	825229312	79	19686
2026-01-24 13:35:31.53	341.11	2.00	-53.7	-68.7	3.8	1.49e+00	0	44	104	825229312	79	19716

#Closed at: 2026-01-24 13:35:31
#Recorded file [825 MB]: D:/lorett/data/31041_260124_162541.dat