passes_logs/2026/01/24/R3.2S_Murmansk/R3.2S_Murmansk__20260124_090005_KANOPUS-V_5_rec.log

#Pass ID: 20260124_090005_KANOPUS-V 5
#Satellite: KANOPUS-V 5
#Configuration: KANOPUS-V_8320
#almurnet v.1.7.20251203
#Start time: 2026-01-24 09:00:06

#Version: 2.2.20231116
#Station: R3.2S_Murmansk
#Location: 33.079688 lon 68.888172 lat
#TLE: 1 43876U 18111A   26023.64356892  .00004816  00000+0  20464-3 0  9993
#TLE: 2 43876  97.3677 292.0017 0001813  88.2876 271.8569 15.23520012392780

#Time	Az	El	Level	Level2	SNR	BER	BlckErr	Temp	State	Recorded	gain1	gain2
2026-01-24 09:00:06.60	194.73	2.07	-52.9	-61.7	3.8	7.45e-01	0	41	0	0	77	9914
2026-01-24 09:00:09.62	194.94	2.27	-52.9	-61.7	3.8	7.45e-01	0	42	104	0	77	9903
2026-01-24 09:00:12.65	195.15	2.47	-52.9	-61.7	3.8	7.45e-01	0	42	104	0	77	9913
2026-01-24 09:00:15.67	195.37	2.67	-52.9	-61.7	3.8	7.45e-01	0	42	104	0	77	9914
2026-01-24 09:00:18.69	195.59	2.87	-52.9	-61.7	3.8	7.46e-01	0	42	104	0	77	9929
2026-01-24 09:00:21.72	195.82	3.08	-52.9	-61.7	3.8	7.46e-01	0	42	104	0	77	9879
2026-01-24 09:00:24.74	196.05	3.29	-52.9	-61.7	3.8	7.47e-01	0	42	104	0	77	9855
2026-01-24 09:00:27.77	196.28	3.50	-52.9	-61.7	3.8	7.45e-01	0	42	104	0	77	9833
2026-01-24 09:00:30.79	196.52	3.71	-52.9	-61.7	3.8	7.45e-01	0	42	104	0	77	9911
2026-01-24 09:00:33.81	196.76	3.92	-52.9	-61.7	3.8	7.44e-01	0	42	104	0	77	9874
2026-01-24 09:00:36.84	197.00	4.13	-52.8	-61.3	3.8	7.44e-01	0	42	104	0	77	9493
2026-01-24 09:00:39.86	197.26	4.35	-52.7	-60.9	3.8	7.46e-01	0	42	104	0	77	9018
2026-01-24 09:00:42.88	197.51	4.57	-52.1	-58.7	4.0	7.37e-01	0	42	104	0	76	7453
2026-01-24 09:00:45.91	197.77	4.79	-49.7	-53.6	7.1	6.35e-01	0	43	0	35651584	71	5523
2026-01-24 09:00:48.93	198.03	5.01	-46.8	-49.6	11.0	5.88e-01	0	42	0	81788928	65	4891
2026-01-24 09:00:51.96	198.30	5.24	-45.7	-48.2	12.5	5.85e-01	0	43	0	96468992	62	4940
2026-01-24 09:00:54.98	198.58	5.47	-45.5	-47.9	12.8	5.86e-01	0	43	0	142606336	62	4771
2026-01-24 09:00:58.01	198.86	5.70	-44.9	-47.2	13.4	5.83e-01	0	43	0	190840832	61	4699
2026-01-24 09:01:01.03	199.14	5.93	-45.3	-47.7	13.0	5.83e-01	0	43	0	236978176	61	4961
2026-01-24 09:01:04.05	199.43	6.16	-44.8	-47.3	13.4	5.83e-01	0	43	0	283115520	61	4713
2026-01-24 09:01:07.08	199.73	6.40	-44.8	-47.2	13.5	5.83e-01	0	43	0	329252864	61	4659
2026-01-24 09:01:10.10	200.03	6.64	-44.8	-47.2	13.5	5.84e-01	0	43	0	377487360	61	4691
2026-01-24 09:01:13.13	200.34	6.88	-44.8	-47.2	13.5	5.82e-01	0	43	0	423624704	61	4678
2026-01-24 09:01:16.15	200.66	7.12	-44.7	-47.1	13.5	5.97e-01	0	43	0	469762048	61	4640
2026-01-24 09:01:19.17	200.98	7.37	-44.4	-46.8	13.8	5.99e-01	0	43	0	513802240	60	4709
2026-01-24 09:01:22.19	201.31	7.62	-44.4	-46.7	14.0	5.95e-01	0	43	0	559939584	60	4670
2026-01-24 09:01:25.22	201.64	7.87	-44.2	-46.5	14.1	5.97e-01	0	43	0	608174080	60	4577
2026-01-24 09:01:28.24	201.98	8.12	-44.2	-46.5	14.2	5.98e-01	0	43	0	654311424	59	4829
2026-01-24 09:01:31.27	202.33	8.38	-44.2	-46.5	14.2	5.98e-01	0	43	0	700448768	59	4825
2026-01-24 09:01:34.29	202.69	8.64	-44.1	-46.3	14.3	5.99e-01	0	43	0	746586112	59	4757
2026-01-24 09:01:37.32	203.06	8.90	-44.0	-46.2	14.4	5.97e-01	0	43	0	794820608	59	4702
2026-01-24 09:01:40.35	203.43	9.17	-43.6	-45.7	14.9	5.99e-01	0	43	0	840957952	59	4427
2026-01-24 09:01:43.37	203.81	9.44	-43.7	-45.9	14.8	5.97e-01	0	43	0	887095296	59	4523
2026-01-24 09:01:46.39	204.20	9.71	-43.5	-45.7	14.9	5.99e-01	0	43	0	933232640	58	4680
2026-01-24 09:01:49.41	204.60	9.98	-43.6	-45.8	14.9	5.98e-01	0	43	0	979369984	58	4711
2026-01-24 09:01:52.43	205.00	10.26	-43.5	-45.7	15.1	5.97e-01	0	43	0	1025507328	58	4661
2026-01-24 09:01:55.46	205.42	10.54	-43.5	-45.8	14.9	6.01e-01	0	43	0	1071644672	58	4720
2026-01-24 09:01:58.48	205.85	10.82	-43.3	-45.6	15.1	5.98e-01	0	43	0	1117782016	58	4604
2026-01-24 09:02:01.51	206.28	11.11	-43.3	-45.5	15.2	5.99e-01	0	43	0	1166016512	58	4568
2026-01-24 09:02:04.53	206.73	11.40	-42.8	-44.9	15.7	5.99e-01	0	43	0	1212153856	57	4498
2026-01-24 09:02:07.55	207.18	11.69	-42.8	-44.8	15.8	5.98e-01	0	43	0	1258291200	57	4456
2026-01-24 09:02:10.57	207.65	11.99	-42.7	-44.8	15.9	6.01e-01	0	43	0	1304428544	57	4448
2026-01-24 09:02:13.60	208.13	12.29	-42.7	-44.8	16.0	5.97e-01	0	43	0	1352663040	57	4448
2026-01-24 09:02:16.62	208.62	12.59	-42.5	-44.5	16.1	5.96e-01	0	43	0	1398800384	56	4579
2026-01-24 09:02:19.65	209.13	12.90	-42.3	-44.4	16.2	5.97e-01	0	43	0	1444937728	56	4522
2026-01-24 09:02:22.67	209.64	13.21	-42.3	-44.5	16.2	5.98e-01	0	44	0	1491075072	56	4578
2026-01-24 09:02:25.69	210.17	13.52	-42.2	-44.4	16.2	6.01e-01	0	43	0	1537212416	56	4523
2026-01-24 09:02:28.72	210.71	13.84	-42.0	-44.2	16.4	5.97e-01	0	43	0	1583349760	56	4405
2026-01-24 09:02:31.74	211.27	14.16	-42.0	-44.3	16.5	5.97e-01	0	43	0	1629487104	55	4713
2026-01-24 09:02:34.77	211.84	14.49	-41.7	-44.0	16.8	5.94e-01	0	43	0	1675624448	55	4548
2026-01-24 09:02:37.79	212.42	14.81	-41.5	-43.7	17.0	5.97e-01	0	43	0	1721761792	55	4418
2026-01-24 09:02:40.81	213.02	15.14	-41.4	-43.5	17.1	5.97e-01	0	44	0	1769996288	54	4563
2026-01-24 09:02:43.84	213.64	15.48	-41.4	-43.6	17.1	5.98e-01	0	43	0	1816133632	54	4603
2026-01-24 09:02:46.86	214.27	15.81	-41.3	-43.3	17.2	5.96e-01	0	44	0	1862270976	54	4491
2026-01-24 09:02:49.89	214.92	16.15	-41.3	-43.4	17.2	5.95e-01	0	44	0	1908408320	54	4523
2026-01-24 09:02:52.91	215.58	16.50	-41.4	-43.5	17.1	5.95e-01	0	44	0	1956642816	54	4579
2026-01-24 09:02:55.93	216.26	16.84	-41.3	-43.4	17.2	5.99e-01	0	44	0	2000683008	54	4514
2026-01-24 09:02:58.96	216.97	17.19	-41.1	-43.1	17.4	5.97e-01	0	44	0	2046820352	54	4389
2026-01-24 09:03:01.98	217.69	17.54	-40.8	-42.9	17.6	5.95e-01	0	44	0	2092957696	53	4516
2026-01-24 09:03:05.01	218.43	17.90	-40.5	-42.6	17.8	5.83e-01	0	44	0	2141192192	52	4613
2026-01-24 09:03:08.03	219.19	18.26	-40.7	-42.9	17.7	5.82e-01	0	44	0	2187329536	52	4778
2026-01-24 09:03:11.05	219.97	18.61	-40.9	-43.2	17.4	5.82e-01	0	44	0	2233466880	52	4946
2026-01-24 09:03:14.08	220.77	18.98	-40.8	-42.9	17.6	5.82e-01	0	44	0	2279604224	52	4807
2026-01-24 09:03:17.10	221.59	19.34	-40.3	-42.4	18.1	5.82e-01	0	44	0	2327838720	52	4501
2026-01-24 09:03:20.13	222.44	19.70	-40.2	-42.4	18.0	5.82e-01	0	44	0	2373976064	52	4506
2026-01-24 09:03:23.15	223.31	20.07	-40.3	-42.6	17.9	5.83e-01	0	44	0	2420113408	52	4649
2026-01-24 09:03:26.17	224.20	20.43	-40.5	-42.8	17.8	5.83e-01	0	44	0	2466250752	52	4712
2026-01-24 09:03:29.19	225.11	20.80	-40.3	-42.4	18.0	5.83e-01	0	44	0	2512388096	52	4513
2026-01-24 09:03:32.22	226.05	21.17	-40.0	-42.0	18.2	6.01e-01	0	44	0	2558525440	51	4595
2026-01-24 09:03:35.24	227.02	21.53	-40.3	-42.4	18.0	6.03e-01	0	44	0	2604662784	51	4813
2026-01-24 09:03:38.27	228.01	21.90	-40.5	-42.8	17.8	6.00e-01	0	44	0	2650800128	51	5000
2026-01-24 09:03:41.29	229.03	22.26	-40.0	-42.0	18.4	6.02e-01	0	44	0	2696937472	51	4561
2026-01-24 09:03:44.31	230.07	22.62	-40.0	-41.9	18.4	6.02e-01	0	44	0	2745171968	51	4543
2026-01-24 09:03:47.34	231.15	22.98	-40.4	-42.7	17.9	6.02e-01	0	44	0	2791309312	51	4929
2026-01-24 09:03:50.36	232.25	23.33	-40.5	-42.8	17.8	6.02e-01	0	44	0	2837446656	51	5007
2026-01-24 09:03:53.39	233.38	23.68	-40.3	-42.5	18.1	6.02e-01	0	44	0	2883584000	51	4822
2026-01-24 09:03:56.41	234.53	24.03	-40.1	-42.1	18.3	6.01e-01	0	44	0	2931818496	51	4615
2026-01-24 09:03:59.44	235.71	24.37	-40.3	-42.6	17.9	6.01e-01	0	44	0	2977955840	51	4913
2026-01-24 09:04:02.46	236.92	24.70	-40.5	-42.9	17.8	6.01e-01	0	44	0	3024093184	51	5052
2026-01-24 09:04:05.49	238.17	25.03	-40.1	-42.2	18.2	6.01e-01	0	44	0	3070230528	51	4697
2026-01-24 09:04:08.51	239.43	25.35	-40.0	-42.2	18.2	6.00e-01	0	44	0	3116367872	51	4659
2026-01-24 09:04:11.53	240.72	25.65	-40.6	-42.9	17.8	6.01e-01	0	44	0	3162505216	51	5053
2026-01-24 09:04:14.56	242.05	25.95	-40.6	-43.2	17.6	6.00e-01	0	44	0	3208642560	51	5245
2026-01-24 09:04:17.58	243.40	26.24	-40.6	-43.0	17.6	6.00e-01	0	44	0	3254779904	52	4848
2026-01-24 09:04:20.61	244.77	26.51	-40.3	-42.5	18.0	6.00e-01	0	44	0	3303014400	52	4583
2026-01-24 09:04:23.63	246.17	26.77	-40.3	-42.4	18.1	6.02e-01	0	44	0	3349151744	52	4536
2026-01-24 09:04:26.65	247.59	27.02	-40.6	-43.0	17.7	6.01e-01	0	44	0	3395289088	52	4862
2026-01-24 09:04:29.68	249.05	27.25	-40.6	-43.2	17.5	6.02e-01	0	44	0	3441426432	52	4972
2026-01-24 09:04:32.70	250.51	27.47	-40.5	-43.0	17.7	6.02e-01	0	44	0	3487563776	52	4824
2026-01-24 09:04:35.73	252.01	27.67	-40.2	-42.7	17.9	6.03e-01	0	44	0	3533701120	52	4664
2026-01-24 09:04:38.75	253.52	27.85	-40.2	-42.6	18.0	6.01e-01	0	44	0	3579838464	52	4618
2026-01-24 09:04:41.77	255.04	28.01	-40.4	-42.8	17.9	6.02e-01	0	44	0	3625975808	52	4713
2026-01-24 09:04:44.80	256.59	28.15	-40.6	-43.1	17.6	6.03e-01	0	44	0	3674210304	52	4913
2026-01-24 09:04:47.82	258.14	28.28	-40.8	-43.3	17.4	6.03e-01	0	44	0	3720347648	52	5009
2026-01-24 09:04:50.85	259.71	28.38	-40.9	-43.4	17.4	6.03e-01	0	44	0	3766484992	52	5078
2026-01-24 09:04:53.87	261.29	28.46	-40.8	-43.3	17.5	6.01e-01	0	44	0	3812622336	52	5015
2026-01-24 09:04:56.90	262.88	28.52	-40.5	-43.0	17.7	6.02e-01	0	44	0	3858759680	52	4818
2026-01-24 09:04:59.92	264.47	28.56	-40.6	-43.2	17.6	6.02e-01	0	44	0	3906994176	52	4928
2026-01-24 09:05:02.95	266.06	28.57	-40.5	-43.0	17.7	6.02e-01	0	44	0	3953131520	52	4815
2026-01-24 09:05:05.97	267.66	28.57	-40.5	-43.0	17.8	6.02e-01	0	44	0	3999268864	52	4841
2026-01-24 09:05:08.99	269.24	28.54	-40.5	-42.8	17.9	6.03e-01	0	44	0	4045406208	52	4720
2026-01-24 09:05:12.02	270.84	28.49	-40.4	-42.8	17.9	6.03e-01	0	44	0	4091543552	52	4733
2026-01-24 09:05:15.04	272.41	28.41	-40.3	-42.7	18.0	6.02e-01	0	44	0	4137680896	52	4679
2026-01-24 09:05:18.07	273.99	28.32	-40.5	-42.6	18.0	6.03e-01	0	44	0	4183818240	52	4631
2026-01-24 09:05:21.10	275.55	28.20	-40.4	-42.7	18.0	6.02e-01	0	44	0	4232052736	52	4701
2026-01-24 09:05:24.13	277.10	28.07	-40.1	-42.2	18.4	6.03e-01	0	44	0	4278190080	52	4415
2026-01-24 09:05:27.15	278.63	27.92	-40.3	-42.4	18.3	6.02e-01	0	44	0	4324327424	52	4503
2026-01-24 09:05:30.18	280.15	27.74	-40.0	-42.1	18.5	6.02e-01	0	44	0	4370464768	52	4344
2026-01-24 09:05:33.21	281.65	27.55	-40.1	-42.2	18.4	6.02e-01	0	44	0	4418699264	51	4686
2026-01-24 09:05:36.23	283.12	27.34	-40.1	-42.1	18.5	5.99e-01	0	44	0	4464836608	51	4628
2026-01-24 09:05:39.25	284.57	27.12	-40.1	-42.3	18.4	5.82e-01	0	43	0	4510973952	51	4728
2026-01-24 09:05:42.28	286.00	26.88	-40.4	-42.4	18.3	5.83e-01	0	44	0	4557111296	51	4776
2026-01-24 09:05:45.31	287.41	26.62	-40.1	-42.1	18.6	5.82e-01	0	44	0	4603248640	51	4603
2026-01-24 09:05:48.33	288.79	26.35	-39.9	-41.9	18.7	5.83e-01	0	44	0	4649385984	51	4517
2026-01-24 09:05:51.36	290.15	26.07	-54.4	-63.3	3.8	7.45e-01	0	43	104	4689231872	79	10647
2026-01-24 09:05:54.38	291.48	25.78	-54.4	-63.2	3.8	7.45e-01	0	43	104	4689231872	79	10475
2026-01-24 09:05:57.41	292.78	25.48	-54.4	-63.2	3.8	7.45e-01	0	44	104	4689231872	79	10478
2026-01-24 09:06:00.44	294.06	25.16	-54.4	-63.2	3.8	7.45e-01	0	44	104	4689231872	79	10501
2026-01-24 09:06:03.46	295.30	24.84	-54.4	-63.3	3.8	7.45e-01	0	43	104	4689231872	79	10555
2026-01-24 09:06:06.49	296.52	24.51	-54.4	-63.2	3.8	7.45e-01	0	43	104	4689231872	79	10515
2026-01-24 09:06:09.51	297.71	24.18	-54.4	-63.2	3.8	7.45e-01	0	43	104	4689231872	79	10509
2026-01-24 09:06:12.54	298.87	23.84	-54.4	-63.2	3.8	7.46e-01	0	43	104	4689231872	79	10498
2026-01-24 09:06:15.57	300.01	23.49	-54.4	-63.3	3.8	7.47e-01	0	43	104	4689231872	79	10586
2026-01-24 09:06:18.59	301.11	23.14	-54.4	-63.2	3.8	7.45e-01	0	44	104	4689231872	79	10495
2026-01-24 09:06:21.61	302.19	22.78	-54.4	-63.2	3.8	7.46e-01	0	43	104	4689231872	79	10466
2026-01-24 09:06:24.64	303.24	22.42	-54.4	-63.2	3.8	7.45e-01	0	43	104	4689231872	79	10488
2026-01-24 09:06:27.66	304.27	22.06	-54.4	-63.2	3.8	7.45e-01	0	44	104	4689231872	79	10478
2026-01-24 09:06:30.69	305.27	21.70	-54.3	-63.1	3.8	7.45e-01	0	43	104	4689231872	79	10402
2026-01-24 09:06:33.72	306.24	21.34	-54.3	-63.1	3.8	7.45e-01	0	43	104	4689231872	79	10405
2026-01-24 09:06:36.74	307.19	20.98	-54.4	-63.2	3.8	7.44e-01	0	44	104	4689231872	79	10454
2026-01-24 09:06:39.77	308.11	20.61	-54.3	-63.1	3.8	7.44e-01	0	43	104	4689231872	79	10361
2026-01-24 09:06:42.79	309.01	20.25	-54.3	-63.1	3.8	7.46e-01	0	43	104	4689231872	79	10344
2026-01-24 09:06:45.82	309.89	19.88	-54.2	-63.1	3.8	7.44e-01	0	43	104	4689231872	79	10294
2026-01-24 09:06:48.84	310.74	19.52	-54.2	-63.0	3.8	7.45e-01	0	44	104	4689231872	79	10240
2026-01-24 09:06:51.87	311.57	19.16	-54.2	-63.1	3.8	7.48e-01	0	43	104	4689231872	79	10294
2026-01-24 09:06:54.89	312.37	18.80	-54.2	-63.0	3.8	7.43e-01	0	43	104	4689231872	79	10277
2026-01-24 09:06:57.92	313.16	18.44	-54.2	-63.0	3.8	7.46e-01	0	43	104	4689231872	79	10200
2026-01-24 09:07:00.95	313.93	18.09	-54.1	-62.9	3.8	7.46e-01	0	44	104	4689231872	79	10174
2026-01-24 09:07:03.97	314.67	17.73	-54.1	-63.0	3.8	7.45e-01	0	43	104	4689231872	79	10200
2026-01-24 09:07:07.00	315.40	17.38	-54.1	-63.0	3.8	7.46e-01	0	43	104	4689231872	79	10211
2026-01-24 09:07:10.03	316.10	17.03	-54.1	-62.9	3.8	7.45e-01	0	43	104	4689231872	79	10155
2026-01-24 09:07:13.05	316.79	16.69	-54.1	-62.9	3.8	7.45e-01	0	43	104	4689231872	79	10136
2026-01-24 09:07:16.08	317.46	16.35	-54.0	-62.8	3.8	7.44e-01	0	44	104	4689231872	79	10052
2026-01-24 09:07:19.11	318.12	16.01	-54.0	-62.9	3.8	7.46e-01	0	43	104	4689231872	79	10071
2026-01-24 09:07:22.13	318.75	15.67	-54.0	-62.8	3.8	7.46e-01	0	43	104	4689231872	79	9998
2026-01-24 09:07:25.16	319.37	15.34	-54.0	-62.8	3.8	7.45e-01	0	43	104	4689231872	79	9968
2026-01-24 09:07:28.19	319.98	15.01	-53.9	-62.7	3.8	7.46e-01	0	43	104	4689231872	79	9901
2026-01-24 09:07:31.21	320.56	14.68	-53.9	-62.7	3.8	7.45e-01	0	43	104	4689231872	79	9912
2026-01-24 09:07:34.24	321.14	14.36	-53.8	-62.6	3.8	7.44e-01	0	43	104	4689231872	79	9804
2026-01-24 09:07:37.26	321.70	14.04	-53.8	-62.6	3.8	7.47e-01	0	43	104	4689231872	79	9794
2026-01-24 09:07:40.29	322.25	13.72	-53.8	-62.6	3.8	7.47e-01	0	43	104	4689231872	79	9795
2026-01-24 09:07:43.31	322.78	13.41	-53.8	-62.6	3.8	7.43e-01	0	43	104	4689231872	79	9806
2026-01-24 09:07:46.33	323.30	13.10	-53.7	-62.6	3.8	7.46e-01	0	43	104	4689231872	79	9749
2026-01-24 09:07:49.35	323.80	12.79	-53.7	-62.5	3.8	7.46e-01	0	44	104	4689231872	79	9717
2026-01-24 09:07:52.38	324.30	12.49	-53.7	-62.5	3.8	7.45e-01	0	43	104	4689231872	79	9696
2026-01-24 09:07:55.40	324.78	12.19	-53.7	-62.6	3.8	7.45e-01	0	43	104	4689231872	79	9725
2026-01-24 09:07:58.43	325.25	11.89	-53.7	-62.5	3.8	7.46e-01	0	43	104	4689231872	79	9671
2026-01-24 09:08:01.45	325.71	11.60	-53.6	-62.4	3.8	7.45e-01	0	43	104	4689231872	79	9567
2026-01-24 09:08:04.47	326.16	11.31	-53.6	-62.4	3.8	7.45e-01	0	43	104	4689231872	79	9606
2026-01-24 09:08:07.50	326.60	11.02	-53.6	-62.5	3.8	7.46e-01	0	43	104	4689231872	79	9614
2026-01-24 09:08:10.52	327.03	10.74	-53.6	-62.4	3.8	7.43e-01	0	43	104	4689231872	79	9587
2026-01-24 09:08:13.55	327.45	10.46	-53.5	-62.4	3.8	7.44e-01	0	43	104	4689231872	79	9512
2026-01-24 09:08:16.58	327.86	10.18	-53.5	-62.4	3.8	7.45e-01	0	43	104	4689231872	79	9509
2026-01-24 09:08:19.60	328.26	9.91	-53.5	-62.3	3.8	7.45e-01	0	43	104	4689231872	79	9489
2026-01-24 09:08:22.63	328.66	9.64	-53.5	-62.3	3.8	7.44e-01	0	43	104	4689231872	78	10052
2026-01-24 09:08:25.65	329.04	9.37	-53.4	-62.2	3.8	7.44e-01	0	43	104	4689231872	78	9904
2026-01-24 09:08:28.67	329.41	9.10	-53.4	-62.2	3.8	7.46e-01	0	43	104	4689231872	78	9929
2026-01-24 09:08:31.70	329.78	8.84	-53.4	-62.2	3.8	7.47e-01	0	43	104	4689231872	78	9878
2026-01-24 09:08:34.72	330.14	8.58	-53.4	-62.2	3.8	7.45e-01	0	43	104	4689231872	78	9913
2026-01-24 09:08:37.75	330.49	8.33	-53.3	-62.1	3.8	7.47e-01	0	43	104	4689231872	78	9821
2026-01-24 09:08:40.77	330.84	8.07	-53.3	-62.1	3.8	7.47e-01	0	43	104	4689231872	78	9813
2026-01-24 09:08:43.80	331.18	7.82	-53.3	-62.1	3.8	7.46e-01	0	43	104	4689231872	78	9778
2026-01-24 09:08:46.82	331.51	7.57	-53.3	-62.1	3.8	7.45e-01	0	43	104	4689231872	78	9801
2026-01-24 09:08:49.85	331.83	7.33	-53.2	-62.0	3.8	7.46e-01	0	43	104	4689231872	78	9648
2026-01-24 09:08:52.87	332.15	7.08	-53.2	-62.0	3.8	7.47e-01	0	43	104	4689231872	78	9668
2026-01-24 09:08:55.90	332.46	6.84	-53.1	-62.0	3.8	7.45e-01	0	43	104	4689231872	78	9614
2026-01-24 09:08:58.92	332.77	6.60	-53.2	-62.0	3.8	7.46e-01	0	43	104	4689231872	78	9694
2026-01-24 09:09:01.95	333.07	6.37	-53.0	-61.9	3.8	7.46e-01	0	43	104	4689231872	78	9514
2026-01-24 09:09:04.97	333.36	6.13	-53.2	-62.0	3.8	7.46e-01	0	43	104	4689231872	78	9643
2026-01-24 09:09:08.00	333.65	5.90	-52.9	-61.7	3.8	7.46e-01	0	43	104	4689231872	77	9923
2026-01-24 09:09:11.02	333.93	5.67	-53.1	-61.9	3.8	7.46e-01	0	43	104	4689231872	77	10095
2026-01-24 09:09:14.05	334.21	5.45	-52.7	-61.4	3.8	7.46e-01	0	43	104	4689231872	77	9588
2026-01-24 09:09:17.07	334.48	5.22	-52.8	-61.6	3.8	7.47e-01	0	43	104	4689231872	76	10328
2026-01-24 09:09:20.10	334.75	5.00	-51.3	-60.1	3.8	7.44e-01	0	43	104	4689231872	74	9808
2026-01-24 09:09:23.12	335.01	4.78	-53.8	-62.7	3.8	7.45e-01	0	43	104	4689231872	78	10472
2026-01-24 09:09:26.15	335.27	4.56	-54.4	-63.2	3.8	7.45e-01	0	43	104	4689231872	79	10444
2026-01-24 09:09:29.17	335.52	4.34	-54.7	-63.5	3.8	7.44e-01	0	43	104	4689231872	79	10805
2026-01-24 09:09:32.19	335.77	4.13	-54.8	-63.7	3.8	7.45e-01	0	43	104	4689231872	80	10493
2026-01-24 09:09:35.22	336.02	3.91	-55.0	-63.8	3.8	7.44e-01	0	43	104	4689231872	80	10628
2026-01-24 09:09:38.24	336.26	3.70	-55.2	-64.0	3.8	7.45e-01	0	43	104	4689231872	80	10826
2026-01-24 09:09:41.27	336.49	3.49	-55.1	-63.9	3.8	7.46e-01	0	43	104	4689231872	80	10726
2026-01-24 09:09:44.29	336.72	3.29	-54.8	-63.6	3.8	7.45e-01	0	43	104	4689231872	80	10365
2026-01-24 09:09:47.31	336.95	3.08	-54.7	-63.5	3.8	7.46e-01	0	43	104	4689231872	80	10261
2026-01-24 09:09:50.34	337.18	2.88	-54.6	-63.4	3.8	7.46e-01	0	43	104	4689231872	80	10167
2026-01-24 09:09:53.36	337.40	2.68	-54.6	-63.4	3.8	7.45e-01	0	43	104	4689231872	80	10108
2026-01-24 09:09:56.39	337.61	2.48	-54.5	-63.3	3.8	7.44e-01	0	43	104	4689231872	80	10034
2026-01-24 09:09:59.41	337.83	2.28	-54.5	-63.3	3.8	7.43e-01	0	43	104	4689231872	80	10022
2026-01-24 09:10:02.43	338.04	2.08	-54.5	-63.4	3.8	7.45e-01	0	43	104	4689231872	80	10064
2026-01-24 09:10:05.46	338.24	1.88	-54.5	-63.3	3.8	7.45e-01	0	43	104	4689231872	80	10020

#Closed at: 2026-01-24 09:10:05
#Recorded file [4689 MB]: D:/lorett/data/31041_260124_120006.dat