passes_logs/2026/01/24/R3.2S_Murmansk/R3.2S_Murmansk__20260124_234347_SUOMI_NPP_rec.log

#Pass ID: 20260124_234347_SUOMI NPP
#Satellite: SUOMI NPP
#Configuration: NPP
#almurnet v.1.7.20251203
#Start time: 2026-01-24 23:43:48

#Version: 2.2.20231116
#Station: R3.2S_Murmansk
#Location: 33.079688 lon 68.888172 lat
#TLE: 1 37849U 11061A   26024.54906732  .00000185  00000+0  10878-3 0  9990
#TLE: 2 37849  98.7821 326.5159 0002200  47.3746 312.7615 14.19529340738061

#Time	Az	El	Level	Level2	SNR	BER	BlckErr	Temp	State	Recorded	gain1	gain2
2026-01-24 23:43:48.74	21.33	2.08	-53.2	-68.2	3.8	1.49e+00	0	41	0	0	77	20978
2026-01-24 23:43:52.78	21.46	2.33	-53.2	-68.2	3.8	1.49e+00	0	41	104	0	77	20978
2026-01-24 23:43:56.81	21.60	2.58	-53.2	-68.2	3.8	1.49e+00	0	41	104	0	77	20929
2026-01-24 23:44:00.84	21.73	2.84	-53.3	-68.2	3.8	1.49e+00	0	41	104	0	77	20965
2026-01-24 23:44:04.88	21.87	3.10	-53.3	-68.2	3.8	1.49e+00	0	41	104	0	77	20946
2026-01-24 23:44:08.91	22.01	3.36	-53.3	-68.2	3.8	1.49e+00	0	41	104	0	77	20979
2026-01-24 23:44:12.94	22.15	3.62	-53.2	-68.2	3.8	1.49e+00	0	41	104	0	77	20992
2026-01-24 23:44:16.97	22.30	3.89	-53.3	-68.2	3.8	1.49e+00	0	41	104	0	77	20961
2026-01-24 23:44:21.00	22.45	4.16	-53.2	-68.2	3.8	1.49e+00	0	42	104	0	77	20931
2026-01-24 23:44:25.03	22.60	4.43	-53.2	-68.2	3.8	1.49e+00	0	42	104	0	77	20940
2026-01-24 23:44:29.06	22.75	4.70	-53.2	-68.2	3.8	1.49e+00	0	42	104	0	77	20940
2026-01-24 23:44:33.09	22.90	4.97	-53.2	-68.2	3.8	1.49e+00	0	42	104	0	77	20960
2026-01-24 23:44:37.12	23.06	5.25	-53.3	-68.2	3.8	1.49e+00	0	42	104	0	77	20952
2026-01-24 23:44:41.16	23.22	5.53	-53.3	-68.2	3.8	1.49e+00	0	42	104	0	77	21017
2026-01-24 23:44:45.19	23.38	5.82	-53.3	-68.2	3.8	1.49e+00	0	42	104	0	77	20964
2026-01-24 23:44:49.22	23.55	6.10	-53.3	-68.2	3.8	1.49e+00	0	42	104	0	77	20993
2026-01-24 23:44:53.26	23.72	6.39	-53.3	-68.2	3.8	1.49e+00	0	42	104	0	77	20965
2026-01-24 23:44:57.29	23.89	6.69	-53.3	-68.2	3.8	1.49e+00	0	42	104	0	77	20937
2026-01-24 23:45:01.32	24.07	6.98	-53.3	-68.3	3.8	1.49e+00	0	42	104	0	77	21056
2026-01-24 23:45:05.35	24.24	7.28	-53.3	-68.2	3.8	1.49e+00	0	42	104	0	77	21010
2026-01-24 23:45:09.38	24.42	7.59	-53.3	-68.2	3.8	1.49e+00	0	42	104	0	77	20956
2026-01-24 23:45:13.42	24.61	7.89	-53.3	-68.2	3.8	1.49e+00	0	42	104	0	77	20964
2026-01-24 23:45:17.45	24.80	8.20	-53.3	-68.2	3.8	1.49e+00	0	42	104	0	77	20956
2026-01-24 23:45:21.48	24.99	8.52	-53.3	-68.2	3.8	1.49e+00	0	42	104	0	77	20983
2026-01-24 23:45:25.51	25.19	8.83	-53.3	-68.2	3.8	1.49e+00	0	42	104	0	77	20993
2026-01-24 23:45:29.54	25.38	9.15	-53.3	-68.2	3.8	1.49e+00	0	42	104	0	77	20958
2026-01-24 23:45:33.58	25.59	9.48	-53.3	-68.2	3.8	1.49e+00	0	42	104	0	77	20930
2026-01-24 23:45:37.61	25.80	9.81	-53.3	-68.2	3.8	1.49e+00	0	43	104	0	77	20947
2026-01-24 23:45:41.63	26.01	10.14	-53.3	-68.2	3.8	1.49e+00	0	42	104	0	77	20958
2026-01-24 23:45:45.67	26.23	10.48	-53.3	-68.2	3.8	1.49e+00	0	42	104	0	77	20959
2026-01-24 23:45:49.70	26.45	10.82	-53.2	-68.2	3.8	1.49e+00	0	42	104	0	77	20973
2026-01-24 23:45:53.73	26.67	11.17	-53.3	-68.2	3.8	1.49e+00	0	42	104	0	77	20993
2026-01-24 23:45:57.76	26.90	11.52	-53.3	-68.2	3.8	1.49e+00	0	42	104	0	77	20927
2026-01-24 23:46:01.79	27.14	11.87	-53.3	-68.2	3.8	1.49e+00	0	42	104	0	77	20966
2026-01-24 23:46:05.82	27.38	12.23	-53.3	-68.3	3.8	1.49e+00	0	42	104	0	77	21029
2026-01-24 23:46:09.86	27.63	12.60	-53.3	-68.2	3.8	1.49e+00	0	42	104	0	77	21005
2026-01-24 23:46:13.89	27.88	12.97	-53.3	-68.2	3.8	1.49e+00	0	43	104	0	77	21008
2026-01-24 23:46:17.92	28.14	13.35	-53.3	-68.3	3.8	1.49e+00	0	42	104	0	77	21018
2026-01-24 23:46:21.95	28.41	13.73	-53.3	-68.2	3.8	1.49e+00	0	42	104	0	77	20976
2026-01-24 23:46:25.98	28.68	14.11	-53.3	-68.3	3.8	1.49e+00	0	43	104	0	77	21024
2026-01-24 23:46:30.01	28.95	14.51	-53.2	-68.2	3.8	1.49e+00	0	43	104	0	77	20989
2026-01-24 23:46:34.04	29.24	14.90	-53.3	-68.2	3.8	1.49e+00	0	43	104	0	77	20970
2026-01-24 23:46:38.08	29.53	15.31	-53.3	-68.2	3.8	1.49e+00	0	43	104	0	77	20975
2026-01-24 23:46:42.10	29.83	15.72	-53.3	-68.2	3.8	1.49e+00	0	43	104	0	77	21001
2026-01-24 23:46:46.14	30.14	16.14	-53.3	-68.3	3.8	1.49e+00	0	43	104	0	77	21019
2026-01-24 23:46:50.16	30.46	16.56	-53.3	-68.3	3.8	1.49e+00	0	43	104	0	77	21022
2026-01-24 23:46:54.20	30.78	16.99	-53.2	-68.2	3.8	1.49e+00	0	42	104	0	77	20976
2026-01-24 23:46:58.23	31.11	17.42	-53.3	-68.2	3.8	1.49e+00	0	43	104	0	77	20963
2026-01-24 23:47:02.26	31.46	17.87	-53.3	-68.3	3.8	1.49e+00	0	43	104	0	77	21038
2026-01-24 23:47:06.29	31.81	18.32	-53.3	-68.3	3.8	1.49e+00	0	43	104	0	77	21041
2026-01-24 23:47:10.32	32.17	18.78	-53.3	-68.2	3.8	1.49e+00	0	43	104	0	77	20976
2026-01-24 23:47:14.36	32.55	19.24	-53.3	-68.2	3.8	1.49e+00	0	43	104	0	77	20960
2026-01-24 23:47:18.39	32.93	19.72	-53.3	-68.2	3.8	1.49e+00	0	43	104	0	77	21008
2026-01-24 23:47:22.42	33.33	20.20	-53.3	-68.2	3.8	1.49e+00	0	43	104	0	77	20936
2026-01-24 23:47:26.45	33.74	20.69	-53.3	-68.2	3.8	1.49e+00	0	43	104	0	77	21002
2026-01-24 23:47:30.48	34.16	21.19	-53.3	-68.2	3.8	1.49e+00	0	43	104	0	77	20981
2026-01-24 23:47:34.51	34.59	21.69	-53.3	-68.2	3.8	1.49e+00	0	43	104	0	77	20904
2026-01-24 23:47:38.55	35.04	22.21	-53.3	-68.3	3.8	1.49e+00	0	43	104	0	77	21051
2026-01-24 23:47:42.58	35.50	22.73	-53.3	-68.2	3.8	1.49e+00	0	43	104	0	77	21007
2026-01-24 23:47:46.62	35.98	23.27	-53.3	-68.2	3.8	1.49e+00	0	43	104	0	77	20942
2026-01-24 23:47:50.64	36.47	23.81	-53.3	-68.2	3.8	1.49e+00	0	43	104	0	77	20981
2026-01-24 23:47:54.68	36.99	24.36	-53.3	-68.3	3.8	1.49e+00	0	43	104	0	77	21039
2026-01-24 23:47:58.70	37.51	24.92	-53.3	-68.2	3.8	1.49e+00	0	43	104	0	77	20992
2026-01-24 23:48:02.74	38.06	25.50	-53.3	-68.2	3.8	1.49e+00	0	43	104	0	77	20973
2026-01-24 23:48:06.77	38.63	26.08	-53.3	-68.2	3.8	1.49e+00	0	43	104	0	77	20969
2026-01-24 23:48:10.80	39.22	26.67	-53.3	-68.2	3.8	1.49e+00	0	43	104	0	77	20997
2026-01-24 23:48:14.83	39.82	27.27	-53.3	-68.2	3.8	1.49e+00	0	43	104	0	77	20999
2026-01-24 23:48:18.86	40.46	27.88	-53.3	-68.2	3.8	1.49e+00	0	43	104	0	77	20943
2026-01-24 23:48:22.89	41.11	28.50	-53.3	-68.2	3.8	1.49e+00	0	43	104	0	77	20986
2026-01-24 23:48:26.92	41.79	29.13	-53.3	-68.2	3.8	1.49e+00	0	43	104	0	77	20990
2026-01-24 23:48:30.96	42.50	29.77	-53.3	-68.3	3.8	1.49e+00	0	43	104	0	77	21042
2026-01-24 23:48:34.99	43.24	30.43	-53.3	-68.2	3.8	1.49e+00	0	43	104	0	77	20997
2026-01-24 23:48:39.02	44.00	31.09	-53.3	-68.2	3.8	1.49e+00	0	43	104	0	77	20964
2026-01-24 23:48:43.06	44.80	31.76	-53.3	-68.2	3.8	1.49e+00	0	43	104	0	77	20957
2026-01-24 23:48:47.09	45.63	32.44	-53.3	-68.2	3.8	1.49e+00	0	43	104	0	77	20999
2026-01-24 23:48:51.12	46.50	33.13	-53.3	-68.3	3.8	1.49e+00	0	43	104	0	77	21044
2026-01-24 23:48:55.15	47.40	33.82	-53.3	-68.2	3.8	1.49e+00	0	43	104	0	77	20993
2026-01-24 23:48:59.18	48.34	34.53	-53.3	-68.2	3.8	1.49e+00	0	43	104	0	77	20997
2026-01-24 23:49:03.22	49.33	35.24	-53.3	-68.2	3.8	1.49e+00	0	43	104	0	77	20964
2026-01-24 23:49:07.25	50.35	35.96	-53.3	-68.2	3.8	1.49e+00	0	43	104	0	77	20934
2026-01-24 23:49:11.28	51.42	36.69	-53.3	-68.2	3.8	1.49e+00	0	43	104	0	77	20977
2026-01-24 23:49:15.31	52.54	37.42	-53.3	-68.2	3.8	1.49e+00	0	43	104	0	77	20992
2026-01-24 23:49:19.34	53.71	38.15	-53.3	-68.2	3.8	1.49e+00	0	43	104	0	77	20998
2026-01-24 23:49:23.38	54.94	38.89	-53.3	-68.2	3.8	1.49e+00	0	43	104	0	77	20981
2026-01-24 23:49:27.41	56.22	39.63	-53.3	-68.2	3.8	1.49e+00	0	43	104	0	77	20966
2026-01-24 23:49:31.44	57.55	40.37	-53.3	-68.3	3.8	1.49e+00	0	43	104	0	77	21018
2026-01-24 23:49:35.47	58.95	41.10	-53.3	-68.2	3.8	1.49e+00	0	43	104	0	77	20930
2026-01-24 23:49:39.50	60.41	41.83	-53.3	-68.2	3.8	1.49e+00	0	43	104	0	77	20974
2026-01-24 23:49:43.53	61.94	42.55	-53.3	-68.2	3.8	1.49e+00	0	43	104	0	77	20974
2026-01-24 23:49:47.56	63.54	43.27	-53.3	-68.2	3.8	1.49e+00	0	43	104	0	77	21004
2026-01-24 23:49:51.60	65.21	43.97	-53.3	-68.2	3.8	1.49e+00	0	43	104	0	77	21012
2026-01-24 23:49:55.63	66.96	44.66	-53.3	-68.2	3.8	1.49e+00	0	43	104	0	77	20991
2026-01-24 23:49:59.66	68.78	45.33	-53.3	-68.2	3.8	1.49e+00	0	43	104	0	77	20991
2026-01-24 23:50:03.69	70.67	45.97	-53.3	-68.2	3.8	1.49e+00	0	43	104	0	77	20993
2026-01-24 23:50:07.72	72.64	46.60	-53.3	-68.2	3.8	1.49e+00	0	43	104	0	77	20980
2026-01-24 23:50:11.75	74.69	47.19	-53.3	-68.2	3.8	1.49e+00	0	43	104	0	77	20951
2026-01-24 23:50:15.78	76.82	47.75	-53.3	-68.2	3.8	1.49e+00	0	43	104	0	77	20985
2026-01-24 23:50:19.82	79.02	48.28	-53.3	-68.2	3.8	1.49e+00	0	43	104	0	77	20960
2026-01-24 23:50:23.84	81.29	48.76	-53.3	-68.2	3.8	1.49e+00	0	43	104	0	77	20959
2026-01-24 23:50:27.88	83.64	49.20	-53.3	-68.2	3.8	1.49e+00	0	43	104	0	77	20983
2026-01-24 23:50:31.91	86.04	49.59	-53.3	-68.2	3.8	1.49e+00	0	43	104	0	77	20964
2026-01-24 23:50:35.94	88.51	49.93	-53.3	-68.2	3.8	1.49e+00	0	43	104	0	77	20988
2026-01-24 23:50:39.97	91.02	50.22	-53.2	-68.2	3.8	1.49e+00	0	43	104	0	77	20928
2026-01-24 23:50:44.00	93.58	50.45	-53.3	-68.2	3.8	1.49e+00	0	43	104	0	77	20991
2026-01-24 23:50:48.03	96.18	50.62	-53.3	-68.2	3.8	1.49e+00	0	43	104	0	77	21008
2026-01-24 23:50:52.06	98.79	50.73	-53.3	-68.3	3.8	1.49e+00	0	43	104	0	77	21024
2026-01-24 23:50:56.10	101.43	50.78	-53.3	-68.2	3.8	1.49e+00	0	43	104	0	77	20971
2026-01-24 23:51:00.12	104.06	50.77	-53.3	-68.2	3.8	1.49e+00	0	43	104	0	77	20920
2026-01-24 23:51:04.16	106.69	50.69	-53.3	-68.2	3.8	1.49e+00	0	43	104	0	77	21000
2026-01-24 23:51:08.19	109.30	50.55	-53.3	-68.2	3.8	1.49e+00	0	43	104	0	77	21009
2026-01-24 23:51:12.22	111.88	50.36	-53.3	-68.2	3.8	1.49e+00	0	43	104	0	77	21014
2026-01-24 23:51:16.25	114.42	50.10	-53.3	-68.2	3.8	1.49e+00	0	43	104	0	77	20936
2026-01-24 23:51:20.28	116.92	49.79	-53.3	-68.2	3.8	1.49e+00	0	43	104	0	77	20926
2026-01-24 23:51:24.31	119.36	49.42	-53.3	-68.2	3.8	1.49e+00	0	43	104	0	77	21000
2026-01-24 23:51:28.34	121.74	49.01	-53.2	-68.2	3.8	1.49e+00	0	43	104	0	77	20951
2026-01-24 23:51:32.37	124.06	48.55	-53.3	-68.2	3.8	1.49e+00	0	43	104	0	77	20922
2026-01-24 23:51:36.41	126.31	48.04	-53.3	-68.2	3.8	1.49e+00	0	43	104	0	77	20961
2026-01-24 23:51:40.44	128.48	47.50	-53.3	-68.2	3.8	1.49e+00	0	43	104	0	77	21008
2026-01-24 23:51:44.47	130.57	46.92	-53.3	-68.2	3.8	1.49e+00	0	43	104	0	77	20966
2026-01-24 23:51:48.50	132.59	46.31	-53.3	-68.2	3.8	1.49e+00	0	43	104	0	77	20984
2026-01-24 23:51:52.53	134.53	45.68	-53.3	-68.2	3.8	1.49e+00	0	43	104	0	77	20980
2026-01-24 23:51:56.56	136.39	45.02	-53.3	-68.2	3.8	1.49e+00	0	43	104	0	77	20999
2026-01-24 23:52:00.59	138.18	44.34	-53.3	-68.2	3.8	1.49e+00	0	43	104	0	77	20985
2026-01-24 23:52:04.62	139.89	43.64	-53.3	-68.2	3.8	1.49e+00	0	43	104	0	77	21013
2026-01-24 23:52:08.66	141.53	42.93	-53.3	-68.2	3.8	1.49e+00	0	43	104	0	77	21007
2026-01-24 23:52:12.69	143.10	42.21	-53.3	-68.2	3.8	1.49e+00	0	43	104	0	77	20998
2026-01-24 23:52:16.72	144.60	41.48	-53.3	-68.2	3.8	1.49e+00	0	43	104	0	77	20971
2026-01-24 23:52:20.75	146.04	40.75	-53.3	-68.2	3.8	1.49e+00	0	43	104	0	77	20995
2026-01-24 23:52:24.78	147.41	40.01	-53.3	-68.2	3.8	1.49e+00	0	43	104	0	77	20980
2026-01-24 23:52:28.81	148.73	39.27	-53.3	-68.2	3.8	1.49e+00	0	43	104	0	77	20976
2026-01-24 23:52:32.84	149.98	38.53	-53.3	-68.2	3.8	1.49e+00	0	43	104	0	77	20993
2026-01-24 23:52:36.88	151.18	37.79	-53.3	-68.3	3.8	1.49e+00	0	43	104	0	77	21063
2026-01-24 23:52:40.91	152.33	37.05	-53.3	-68.2	3.8	1.49e+00	0	43	104	0	77	20998
2026-01-24 23:52:44.94	153.43	36.32	-53.3	-68.2	3.8	1.49e+00	0	43	104	0	77	20954
2026-01-24 23:52:48.97	154.48	35.60	-53.3	-68.2	3.8	1.49e+00	0	43	104	0	77	20948
2026-01-24 23:52:53.00	155.49	34.88	-53.2	-68.2	3.8	1.49e+00	0	43	104	0	77	20935
2026-01-24 23:52:57.03	156.45	34.17	-53.3	-68.3	3.8	1.49e+00	0	43	104	0	77	21041
2026-01-24 23:53:01.06	157.38	33.46	-53.3	-68.2	3.8	1.49e+00	0	43	104	0	77	20962
2026-01-24 23:53:05.09	158.26	32.76	-53.3	-68.3	3.8	1.49e+00	0	43	104	0	77	21024
2026-01-24 23:53:09.12	159.11	32.08	-53.3	-68.2	3.8	1.49e+00	0	43	104	0	77	20986
2026-01-24 23:53:13.15	159.93	31.40	-53.3	-68.3	3.8	1.49e+00	0	43	104	0	77	21031
2026-01-24 23:53:17.18	160.71	30.73	-53.3	-68.3	3.8	1.49e+00	0	43	104	0	77	21071
2026-01-24 23:53:21.21	161.46	30.07	-53.3	-68.2	3.8	1.49e+00	0	43	104	0	77	20988
2026-01-24 23:53:25.24	162.19	29.42	-53.3	-68.2	3.8	1.49e+00	0	43	104	0	77	20980
2026-01-24 23:53:29.28	162.89	28.78	-53.3	-68.2	3.8	1.49e+00	0	43	104	0	77	21006
2026-01-24 23:53:33.31	163.56	28.15	-53.3	-68.2	3.8	1.49e+00	0	43	104	0	77	20983
2026-01-24 23:53:37.34	164.20	27.53	-53.3	-68.2	3.8	1.49e+00	0	43	104	0	77	21008
2026-01-24 23:53:41.37	164.82	26.93	-53.3	-68.2	3.8	1.49e+00	0	43	104	0	77	21004
2026-01-24 23:53:45.40	165.42	26.33	-53.3	-68.2	3.8	1.49e+00	0	43	104	0	77	20940
2026-01-24 23:53:49.43	166.00	25.74	-53.3	-68.2	3.8	1.49e+00	0	43	104	0	77	20994
2026-01-24 23:53:53.45	166.55	25.16	-53.3	-68.2	3.8	1.49e+00	0	43	104	0	77	20961
2026-01-24 23:53:57.48	167.09	24.59	-53.3	-68.2	3.8	1.49e+00	0	43	104	0	77	20987
2026-01-24 23:54:01.51	167.61	24.03	-53.3	-68.2	3.8	1.49e+00	0	43	104	0	77	20930
2026-01-24 23:54:05.55	168.12	23.48	-53.3	-68.2	3.8	1.49e+00	0	43	104	0	77	21002
2026-01-24 23:54:09.58	168.60	22.94	-53.3	-68.3	3.8	1.49e+00	0	43	104	0	77	21023
2026-01-24 23:54:13.61	169.07	22.41	-53.3	-68.3	3.8	1.49e+00	0	43	104	0	77	21018
2026-01-24 23:54:17.64	169.53	21.89	-53.3	-68.2	3.8	1.49e+00	0	43	104	0	77	21010
2026-01-24 23:54:21.67	169.97	21.38	-53.3	-68.2	3.8	1.49e+00	0	43	104	0	77	20985
2026-01-24 23:54:25.70	170.39	20.87	-53.3	-68.2	3.8	1.49e+00	0	43	104	0	77	20974
2026-01-24 23:54:29.73	170.81	20.37	-53.3	-68.3	3.8	1.49e+00	0	43	104	0	77	21018
2026-01-24 23:54:33.76	171.21	19.89	-53.3	-68.2	3.8	1.49e+00	0	43	104	0	77	20973
2026-01-24 23:54:37.79	171.60	19.41	-53.3	-68.2	3.8	1.49e+00	0	43	104	0	77	20995
2026-01-24 23:54:41.83	171.98	18.93	-53.3	-68.2	3.8	1.49e+00	0	43	104	0	77	20916
2026-01-24 23:54:45.86	172.34	18.47	-53.3	-68.2	3.8	1.49e+00	0	43	104	0	77	21007
2026-01-24 23:54:49.89	172.70	18.01	-53.3	-68.2	3.8	1.49e+00	0	43	104	0	77	20979
2026-01-24 23:54:53.92	173.05	17.56	-53.3	-68.2	3.8	1.49e+00	0	43	104	0	77	21005
2026-01-24 23:54:57.96	173.39	17.12	-53.3	-68.2	3.8	1.49e+00	0	43	104	0	77	20996
2026-01-24 23:55:01.99	173.71	16.69	-53.3	-68.2	3.8	1.49e+00	0	43	104	0	77	21012
2026-01-24 23:55:06.02	174.03	16.26	-53.3	-68.2	3.8	1.49e+00	0	43	104	0	77	20983
2026-01-24 23:55:10.05	174.34	15.84	-53.3	-68.2	3.8	1.49e+00	0	43	104	0	77	20997
2026-01-24 23:55:14.08	174.65	15.42	-53.3	-68.2	3.8	1.49e+00	0	43	104	0	77	20990
2026-01-24 23:55:18.11	174.94	15.01	-53.3	-68.2	3.8	1.49e+00	0	43	104	0	77	20999
2026-01-24 23:55:22.14	175.23	14.61	-53.3	-68.2	3.8	1.49e+00	0	43	104	0	77	20987
2026-01-24 23:55:26.17	175.51	14.21	-53.3	-68.2	3.8	1.49e+00	0	43	104	0	77	20971
2026-01-24 23:55:30.20	175.78	13.82	-53.3	-68.2	3.8	1.49e+00	0	43	104	0	77	20945
2026-01-24 23:55:34.24	176.05	13.44	-53.3	-68.2	3.8	1.49e+00	0	43	104	0	77	20973
2026-01-24 23:55:38.27	176.31	13.06	-53.3	-68.2	3.8	1.49e+00	0	43	104	0	77	20908
2026-01-24 23:55:42.30	176.56	12.68	-53.3	-68.2	3.8	1.49e+00	0	43	104	0	77	20960
2026-01-24 23:55:46.33	176.81	12.31	-53.3	-68.3	3.8	1.49e+00	0	43	104	0	77	21038
2026-01-24 23:55:50.36	177.05	11.95	-53.3	-68.2	3.8	1.49e+00	0	43	104	0	77	20990
2026-01-24 23:55:54.39	177.29	11.59	-53.3	-68.3	3.8	1.49e+00	0	43	104	0	77	21052
2026-01-24 23:55:58.42	177.52	11.24	-53.3	-68.2	3.8	1.49e+00	0	43	104	0	77	21013
2026-01-24 23:56:02.45	177.75	10.89	-53.3	-68.2	3.8	1.49e+00	0	43	104	0	77	20973
2026-01-24 23:56:06.48	177.97	10.54	-53.3	-68.2	3.8	1.49e+00	0	43	104	0	77	21017
2026-01-24 23:56:10.52	178.19	10.20	-53.3	-68.2	3.8	1.49e+00	0	43	104	0	77	20977
2026-01-24 23:56:14.55	178.40	9.86	-53.3	-68.2	3.8	1.49e+00	0	43	104	0	77	20972
2026-01-24 23:56:18.58	178.61	9.53	-53.3	-68.2	3.8	1.49e+00	0	43	104	0	77	20993
2026-01-24 23:56:22.61	178.81	9.20	-53.3	-68.2	3.8	1.49e+00	0	43	104	0	77	21010
2026-01-24 23:56:26.64	179.01	8.88	-53.3	-68.2	3.8	1.49e+00	0	43	104	0	77	20990
2026-01-24 23:56:30.68	179.21	8.56	-53.3	-68.2	3.8	1.49e+00	0	43	104	0	77	20953
2026-01-24 23:56:34.71	179.40	8.24	-53.3	-68.2	3.8	1.49e+00	0	43	104	0	77	20980
2026-01-24 23:56:38.74	179.58	7.93	-53.3	-68.2	3.8	1.49e+00	0	43	104	0	77	21004
2026-01-24 23:56:42.77	179.77	7.62	-53.3	-68.2	3.8	1.49e+00	0	43	104	0	77	21001
2026-01-24 23:56:46.80	179.95	7.31	-53.3	-68.2	3.8	1.49e+00	0	43	104	0	77	20952
2026-01-24 23:56:50.83	180.13	7.01	-53.3	-68.2	3.8	1.49e+00	0	43	104	0	77	20982
2026-01-24 23:56:54.86	180.30	6.71	-53.3	-68.2	3.8	1.49e+00	0	43	104	0	77	20960
2026-01-24 23:56:58.89	180.47	6.42	-53.3	-68.2	3.8	1.49e+00	0	43	104	0	77	20986
2026-01-24 23:57:02.92	180.64	6.12	-53.3	-68.2	3.8	1.49e+00	0	43	104	0	77	21000
2026-01-24 23:57:06.95	180.80	5.84	-53.3	-68.2	3.8	1.49e+00	0	43	104	0	77	20995
2026-01-24 23:57:10.99	180.96	5.55	-53.3	-68.2	3.8	1.49e+00	0	43	104	0	77	20928
2026-01-24 23:57:15.02	181.12	5.26	-53.3	-68.2	3.8	1.49e+00	0	43	104	0	77	20949
2026-01-24 23:57:19.05	181.28	4.98	-53.3	-68.2	3.8	1.49e+00	0	43	104	0	77	21011
2026-01-24 23:57:23.08	181.43	4.71	-53.3	-68.2	3.8	1.49e+00	0	43	104	0	77	20982
2026-01-24 23:57:27.11	181.58	4.43	-53.3	-68.2	3.8	1.49e+00	0	43	104	0	77	20986
2026-01-24 23:57:31.15	181.73	4.16	-53.3	-68.3	3.8	1.49e+00	0	43	104	0	77	21021
2026-01-24 23:57:35.18	181.88	3.89	-53.3	-68.2	3.8	1.49e+00	0	43	104	0	77	20944
2026-01-24 23:57:39.21	182.02	3.62	-53.3	-68.2	3.8	1.49e+00	0	43	104	0	77	21011
2026-01-24 23:57:43.24	182.16	3.36	-53.3	-68.2	3.8	1.49e+00	0	43	104	0	77	20965
2026-01-24 23:57:47.27	182.30	3.09	-53.3	-68.2	3.8	1.49e+00	0	44	104	0	77	20997
2026-01-24 23:57:51.30	182.43	2.83	-53.3	-68.2	3.8	1.49e+00	0	43	104	0	77	20948
2026-01-24 23:57:55.33	182.57	2.58	-53.3	-68.2	3.8	1.49e+00	0	43	104	0	77	20937
2026-01-24 23:57:59.36	182.70	2.32	-53.3	-68.2	3.8	1.49e+00	0	43	104	0	77	20994
2026-01-24 23:58:03.40	182.83	2.07	-53.3	-68.2	3.8	1.49e+00	0	43	104	0	77	20972

#Closed at: 2026-01-24 23:58:06
#Recorded file [0 MB]: D:/lorett/data/31041_260125_024348.dat