passes_logs/2026/01/24/R3.2S_Murmansk/R3.2S_Murmansk__20260124_222351_NOAA_20_JPSS-1_rec.log

#Pass ID: 20260124_222351_NOAA 20 (JPSS-1)
#Satellite: NOAA 20 (JPSS-1)
#Configuration: NOAA 20
#almurnet v.1.7.20251203
#Start time: 2026-01-24 22:23:53

#Version: 2.2.20231116
#Station: R3.2S_Murmansk
#Location: 33.079688 lon 68.888172 lat
#TLE: 1 43013U 17073A   26024.42258823  .00000183  00000+0  10747-3 0  9990
#TLE: 2 43013  98.7646 325.2629 0001105  25.8644 334.2587 14.19539754424075

#Time	Az	El	Level	Level2	SNR	BER	BlckErr	Temp	State	Recorded	gain1	gain2
2026-01-24 22:23:53.84	19.01	2.12	-53.3	-68.3	3.8	1.49e+00	0	41	0	0	77	21044
2026-01-24 22:23:56.85	19.22	2.29	-53.3	-68.3	3.8	1.49e+00	0	41	104	0	77	21018
2026-01-24 22:23:59.87	19.43	2.46	-53.3	-68.2	3.8	1.49e+00	0	41	104	0	77	20995
2026-01-24 22:24:02.89	19.64	2.62	-53.3	-68.2	3.8	1.49e+00	0	41	104	0	77	21011
2026-01-24 22:24:05.92	19.86	2.80	-53.3	-68.2	3.8	1.49e+00	0	41	104	0	77	21012
2026-01-24 22:24:08.94	20.08	2.97	-53.3	-68.3	3.8	1.49e+00	0	41	104	0	77	21039
2026-01-24 22:24:11.96	20.30	3.14	-53.3	-68.3	3.8	1.49e+00	0	41	104	0	77	21044
2026-01-24 22:24:14.98	20.52	3.31	-53.3	-68.3	3.8	1.49e+00	0	42	104	0	77	21020
2026-01-24 22:24:18.01	20.74	3.48	-53.3	-68.3	3.8	1.49e+00	0	42	104	0	77	21051
2026-01-24 22:24:21.03	20.97	3.65	-53.3	-68.3	3.8	1.49e+00	0	42	104	0	77	21045
2026-01-24 22:24:24.05	21.20	3.83	-53.3	-68.2	3.8	1.49e+00	0	42	104	0	77	20970
2026-01-24 22:24:27.08	21.43	4.00	-53.3	-68.3	3.8	1.49e+00	0	42	104	0	77	21032
2026-01-24 22:24:30.10	21.67	4.18	-53.3	-68.2	3.8	1.49e+00	0	42	104	0	77	20975
2026-01-24 22:24:33.13	21.91	4.36	-53.3	-68.2	3.8	1.49e+00	0	42	104	0	77	21005
2026-01-24 22:24:36.15	22.15	4.53	-53.3	-68.2	3.8	1.49e+00	0	42	104	0	77	21007
2026-01-24 22:24:39.17	22.39	4.71	-53.3	-68.2	3.8	1.49e+00	0	42	104	0	77	20960
2026-01-24 22:24:42.20	22.64	4.89	-53.3	-68.3	3.8	1.49e+00	0	42	104	0	77	21058
2026-01-24 22:24:45.22	22.89	5.07	-53.3	-68.3	3.8	1.49e+00	0	42	104	0	77	21038
2026-01-24 22:24:48.25	23.14	5.25	-53.3	-68.2	3.8	1.49e+00	0	42	104	0	77	20996
2026-01-24 22:24:51.27	23.39	5.43	-53.3	-68.3	3.8	1.49e+00	0	42	104	0	77	21025
2026-01-24 22:24:54.29	23.65	5.62	-53.3	-68.2	3.8	1.49e+00	0	42	104	0	77	20953
2026-01-24 22:24:57.32	23.91	5.80	-53.3	-68.2	3.8	1.49e+00	0	42	104	0	77	21017
2026-01-24 22:25:00.34	24.18	5.98	-53.3	-68.2	3.8	1.49e+00	0	42	104	0	77	20956
2026-01-24 22:25:03.37	24.44	6.17	-53.3	-68.2	3.8	1.49e+00	0	42	104	0	77	21011
2026-01-24 22:25:06.39	24.71	6.35	-53.3	-68.2	3.8	1.49e+00	0	42	104	0	77	21004
2026-01-24 22:25:09.41	24.99	6.54	-53.3	-68.2	3.8	1.49e+00	0	43	104	0	77	21014
2026-01-24 22:25:12.43	25.26	6.73	-53.3	-68.3	3.8	1.49e+00	0	42	104	0	77	21027
2026-01-24 22:25:15.46	25.55	6.91	-53.3	-68.2	3.8	1.49e+00	0	42	104	0	77	20997
2026-01-24 22:25:18.48	25.83	7.10	-53.3	-68.3	3.8	1.49e+00	0	42	104	0	77	21037
2026-01-24 22:25:21.51	26.12	7.29	-53.3	-68.3	3.8	1.49e+00	0	43	104	0	77	21025
2026-01-24 22:25:24.53	26.41	7.48	-53.3	-68.2	3.8	1.49e+00	0	43	104	0	77	20988
2026-01-24 22:25:27.55	26.70	7.67	-53.3	-68.3	3.8	1.49e+00	0	43	104	0	77	21068
2026-01-24 22:25:30.58	27.00	7.87	-53.3	-68.3	3.8	1.49e+00	0	43	104	0	77	21108
2026-01-24 22:25:33.60	27.30	8.06	-53.3	-68.2	3.8	1.49e+00	0	43	104	0	77	20976
2026-01-24 22:25:36.62	27.61	8.25	-53.3	-68.2	3.8	1.49e+00	0	43	104	0	77	20943
2026-01-24 22:25:39.65	27.92	8.45	-53.3	-68.3	3.8	1.49e+00	0	43	104	0	77	21065
2026-01-24 22:25:42.67	28.23	8.64	-53.3	-68.2	3.8	1.49e+00	0	43	104	0	77	20986
2026-01-24 22:25:45.69	28.55	8.84	-53.3	-68.2	3.8	1.49e+00	0	43	104	0	77	20960
2026-01-24 22:25:48.71	28.87	9.03	-53.3	-68.2	3.8	1.49e+00	0	43	104	0	77	21005
2026-01-24 22:25:51.74	29.20	9.23	-53.3	-68.3	3.8	1.49e+00	0	43	104	0	77	21064
2026-01-24 22:25:54.77	29.53	9.43	-53.3	-68.2	3.8	1.49e+00	0	43	104	0	77	20970
2026-01-24 22:25:57.79	29.86	9.63	-53.3	-68.3	3.8	1.49e+00	0	43	104	0	77	21031
2026-01-24 22:26:00.82	30.20	9.83	-53.3	-68.3	3.8	1.49e+00	0	43	104	0	77	21036
2026-01-24 22:26:03.84	30.54	10.03	-53.3	-68.3	3.8	1.49e+00	0	43	104	0	77	21074
2026-01-24 22:26:06.86	30.89	10.23	-53.3	-68.3	3.8	1.49e+00	0	43	104	0	77	21057
2026-01-24 22:26:09.88	31.24	10.44	-53.3	-68.3	3.8	1.49e+00	0	43	104	0	77	21022
2026-01-24 22:26:12.91	31.60	10.64	-53.3	-68.2	3.8	1.49e+00	0	43	104	0	77	20987
2026-01-24 22:26:15.93	31.96	10.84	-53.3	-68.3	3.8	1.49e+00	0	43	104	0	77	21053
2026-01-24 22:26:18.95	32.33	11.05	-53.3	-68.2	3.8	1.49e+00	0	43	104	0	77	21000
2026-01-24 22:26:21.98	32.70	11.25	-53.3	-68.3	3.8	1.49e+00	0	43	104	0	77	21056
2026-01-24 22:26:25.00	33.08	11.46	-53.3	-68.3	3.8	1.49e+00	0	43	104	0	77	21030
2026-01-24 22:26:28.03	33.46	11.66	-53.3	-68.3	3.8	1.49e+00	0	43	104	0	77	21032
2026-01-24 22:26:31.05	33.85	11.87	-53.3	-68.2	3.8	1.49e+00	0	43	104	0	77	21013
2026-01-24 22:26:34.07	34.24	12.08	-53.3	-68.2	3.8	1.49e+00	0	43	104	0	77	21011
2026-01-24 22:26:37.10	34.64	12.29	-53.3	-68.3	3.8	1.49e+00	0	43	104	0	77	21069
2026-01-24 22:26:40.12	35.04	12.50	-53.3	-68.2	3.8	1.49e+00	0	43	104	0	77	20968
2026-01-24 22:26:43.15	35.45	12.71	-53.3	-68.2	3.8	1.49e+00	0	43	104	0	77	20987
2026-01-24 22:26:46.17	35.87	12.92	-53.3	-68.3	3.8	1.49e+00	0	43	104	0	77	21045
2026-01-24 22:26:49.19	36.29	13.13	-53.3	-68.3	3.8	1.49e+00	0	43	104	0	77	21021
2026-01-24 22:26:52.22	36.71	13.34	-53.3	-68.3	3.8	1.49e+00	0	43	104	0	77	21042
2026-01-24 22:26:55.24	37.15	13.55	-53.3	-68.3	3.8	1.49e+00	0	43	104	0	77	21043
2026-01-24 22:26:58.26	37.58	13.76	-53.3	-68.3	3.8	1.49e+00	0	43	104	0	77	21039
2026-01-24 22:27:01.29	38.03	13.97	-53.3	-68.3	3.8	1.49e+00	0	43	104	0	77	21060
2026-01-24 22:27:04.31	38.48	14.18	-53.3	-68.2	3.8	1.49e+00	0	43	104	0	77	20990
2026-01-24 22:27:07.34	38.93	14.40	-53.3	-68.3	3.8	1.49e+00	0	43	104	0	77	21059
2026-01-24 22:27:10.36	39.40	14.61	-53.3	-68.3	3.8	1.49e+00	0	43	104	0	77	21076
2026-01-24 22:27:13.38	39.87	14.82	-53.3	-68.3	3.8	1.49e+00	0	43	104	0	77	21019
2026-01-24 22:27:16.40	40.34	15.03	-53.3	-68.2	3.8	1.49e+00	0	43	104	0	77	21004
2026-01-24 22:27:19.43	40.82	15.25	-53.3	-68.2	3.8	1.49e+00	0	43	104	0	77	21016
2026-01-24 22:27:22.45	41.31	15.46	-53.3	-68.3	3.8	1.49e+00	0	43	104	0	77	21038
2026-01-24 22:27:25.47	41.81	15.67	-53.3	-68.3	3.8	1.49e+00	0	43	104	0	77	21036
2026-01-24 22:27:28.50	42.31	15.89	-53.3	-68.3	3.8	1.49e+00	0	43	104	0	77	21089
2026-01-24 22:27:31.52	42.82	16.10	-53.3	-68.3	3.8	1.49e+00	0	43	104	0	77	21029
2026-01-24 22:27:34.55	43.34	16.31	-53.3	-68.3	3.8	1.49e+00	0	43	104	0	77	21068
2026-01-24 22:27:37.57	43.86	16.52	-53.3	-68.3	3.8	1.49e+00	0	43	104	0	77	21057
2026-01-24 22:27:40.59	44.39	16.73	-53.3	-68.3	3.8	1.49e+00	0	43	104	0	77	21052
2026-01-24 22:27:43.62	44.93	16.94	-53.3	-68.3	3.8	1.49e+00	0	43	104	0	77	21021
2026-01-24 22:27:46.64	45.48	17.15	-53.3	-68.2	3.8	1.49e+00	0	43	104	0	77	20996
2026-01-24 22:27:49.66	46.03	17.36	-53.3	-68.2	3.8	1.49e+00	0	43	104	0	77	20976
2026-01-24 22:27:52.69	46.59	17.57	-53.3	-68.2	3.8	1.49e+00	0	43	104	0	77	20976
2026-01-24 22:27:55.71	47.16	17.78	-53.3	-68.3	3.8	1.49e+00	0	43	104	0	77	21079
2026-01-24 22:27:58.74	47.74	17.99	-53.3	-68.2	3.8	1.49e+00	0	43	104	0	77	20990
2026-01-24 22:28:01.76	48.32	18.19	-53.3	-68.3	3.8	1.49e+00	0	43	104	0	77	21050
2026-01-24 22:28:04.78	48.91	18.40	-53.3	-68.3	3.8	1.49e+00	0	43	104	0	77	21025
2026-01-24 22:28:07.80	49.51	18.60	-53.3	-68.3	3.8	1.49e+00	0	43	104	0	77	21080
2026-01-24 22:28:10.83	50.12	18.80	-53.3	-68.2	3.8	1.49e+00	0	43	104	0	77	20989
2026-01-24 22:28:13.85	50.73	19.00	-53.3	-68.2	3.8	1.49e+00	0	43	104	0	77	21000
2026-01-24 22:28:16.88	51.36	19.20	-53.3	-68.3	3.8	1.49e+00	0	43	104	0	77	21067
2026-01-24 22:28:19.90	51.99	19.40	-53.3	-68.3	3.8	1.49e+00	0	43	104	0	77	21045
2026-01-24 22:28:22.92	52.62	19.59	-53.3	-68.3	3.8	1.49e+00	0	43	104	0	77	21022
2026-01-24 22:28:25.94	53.27	19.79	-53.3	-68.3	3.8	1.49e+00	0	43	104	0	77	21060
2026-01-24 22:28:28.97	53.93	19.98	-53.3	-68.3	3.8	1.49e+00	0	43	104	0	77	21033
2026-01-24 22:28:31.99	54.59	20.17	-53.3	-68.3	3.8	1.49e+00	0	43	104	0	77	21031
2026-01-24 22:28:35.02	55.26	20.36	-53.3	-68.3	3.8	1.49e+00	0	43	104	0	77	21043
2026-01-24 22:28:38.04	55.94	20.54	-53.3	-68.2	3.8	1.49e+00	0	43	104	0	77	21006
2026-01-24 22:28:41.06	56.62	20.72	-53.3	-68.3	3.8	1.49e+00	0	43	104	0	77	21046
2026-01-24 22:28:44.08	57.32	20.90	-53.3	-68.2	3.8	1.49e+00	0	43	104	0	77	21014
2026-01-24 22:28:47.11	58.02	21.08	-53.3	-68.3	3.8	1.49e+00	0	43	104	0	77	21061
2026-01-24 22:28:50.13	58.73	21.25	-53.3	-68.3	3.8	1.49e+00	0	43	104	0	77	21061
2026-01-24 22:28:53.15	59.45	21.42	-53.3	-68.2	3.8	1.49e+00	0	43	104	0	77	20984
2026-01-24 22:28:56.18	60.18	21.58	-53.3	-68.2	3.8	1.49e+00	0	43	104	0	77	21007
2026-01-24 22:28:59.20	60.91	21.74	-53.3	-68.3	3.8	1.49e+00	0	43	104	0	77	21035
2026-01-24 22:29:02.22	61.65	21.90	-53.3	-68.3	3.8	1.49e+00	0	43	104	0	77	21033
2026-01-24 22:29:05.25	62.40	22.06	-53.3	-68.3	3.8	1.49e+00	0	43	104	0	77	21055
2026-01-24 22:29:08.27	63.15	22.21	-53.3	-68.2	3.8	1.49e+00	0	43	104	0	77	20971
2026-01-24 22:29:11.30	63.92	22.36	-53.3	-68.3	3.8	1.49e+00	0	43	104	0	77	21050
2026-01-24 22:29:14.32	64.68	22.50	-53.3	-68.3	3.8	1.49e+00	0	43	104	0	77	21035
2026-01-24 22:29:17.34	65.46	22.64	-53.3	-68.3	3.8	1.49e+00	0	43	104	0	77	21018
2026-01-24 22:29:20.36	66.24	22.77	-53.3	-68.3	3.8	1.49e+00	0	43	104	0	77	21043
2026-01-24 22:29:23.39	67.03	22.90	-53.3	-68.3	3.8	1.49e+00	0	43	104	0	77	21044
2026-01-24 22:29:26.41	67.83	23.02	-53.3	-68.3	3.8	1.49e+00	0	43	104	0	77	21034
2026-01-24 22:29:29.43	68.63	23.14	-53.3	-68.2	3.8	1.49e+00	0	43	104	0	77	20994
2026-01-24 22:29:32.46	69.44	23.25	-53.3	-68.3	3.8	1.49e+00	0	43	104	0	77	21075
2026-01-24 22:29:35.48	70.25	23.36	-53.3	-68.2	3.8	1.49e+00	0	43	104	0	77	21014
2026-01-24 22:29:38.51	71.07	23.46	-53.3	-68.2	3.8	1.49e+00	0	43	104	0	77	21006
2026-01-24 22:29:41.53	71.89	23.56	-53.3	-68.3	3.8	1.49e+00	0	43	104	0	77	21023
2026-01-24 22:29:44.56	72.72	23.65	-53.3	-68.3	3.8	1.49e+00	0	43	104	0	77	21046
2026-01-24 22:29:47.58	73.56	23.73	-53.3	-68.3	3.8	1.49e+00	0	43	104	0	77	21076
2026-01-24 22:29:50.61	74.40	23.81	-53.3	-68.3	3.8	1.49e+00	0	43	104	0	77	21074
2026-01-24 22:29:53.63	75.24	23.89	-53.3	-68.3	3.8	1.49e+00	0	43	104	0	77	21066
2026-01-24 22:29:56.65	76.08	23.95	-53.3	-68.3	3.8	1.49e+00	0	43	104	0	77	21051
2026-01-24 22:29:59.68	76.93	24.01	-53.3	-68.3	3.8	1.49e+00	0	43	104	0	77	21039
2026-01-24 22:30:02.70	77.78	24.07	-53.3	-68.3	3.8	1.49e+00	0	43	104	0	77	21051
2026-01-24 22:30:05.73	78.64	24.12	-53.3	-68.2	3.8	1.49e+00	0	43	104	0	77	21001
2026-01-24 22:30:08.75	79.49	24.16	-53.3	-68.2	3.8	1.49e+00	0	43	104	0	77	21014
2026-01-24 22:30:11.78	80.36	24.19	-53.3	-68.3	3.8	1.49e+00	0	43	104	0	77	21025
2026-01-24 22:30:14.80	81.22	24.22	-53.3	-68.3	3.8	1.49e+00	0	43	104	0	77	21054
2026-01-24 22:30:17.82	82.08	24.24	-53.3	-68.3	3.8	1.49e+00	0	43	104	0	77	21053
2026-01-24 22:30:20.85	82.94	24.26	-53.3	-68.2	3.8	1.49e+00	0	43	104	0	77	20977
2026-01-24 22:30:23.88	83.81	24.27	-53.3	-68.2	3.8	1.49e+00	0	43	104	0	77	20984
2026-01-24 22:30:26.90	84.67	24.27	-53.3	-68.2	3.8	1.49e+00	0	43	104	0	77	21013
2026-01-24 22:30:29.92	85.54	24.26	-53.3	-68.3	3.8	1.49e+00	0	43	104	0	77	21046
2026-01-24 22:30:32.95	86.40	24.25	-53.3	-68.3	3.8	1.49e+00	0	43	104	0	77	21033
2026-01-24 22:30:35.97	87.26	24.23	-53.3	-68.2	3.8	1.49e+00	0	43	104	0	77	20998
2026-01-24 22:30:39.00	88.13	24.21	-53.3	-68.3	3.8	1.49e+00	0	43	104	0	77	21030
2026-01-24 22:30:42.02	88.99	24.17	-53.3	-68.2	3.8	1.49e+00	0	43	104	0	77	21011
2026-01-24 22:30:45.04	89.84	24.14	-53.3	-68.2	3.8	1.49e+00	0	43	104	0	77	20989
2026-01-24 22:30:48.07	90.70	24.09	-53.3	-68.3	3.8	1.49e+00	0	43	104	0	77	21025
2026-01-24 22:30:51.09	91.56	24.04	-53.3	-68.2	3.8	1.49e+00	0	43	104	0	77	21008
2026-01-24 22:30:54.12	92.41	23.98	-53.3	-68.3	3.8	1.49e+00	0	43	104	0	77	21046
2026-01-24 22:30:57.14	93.26	23.92	-53.3	-68.3	3.8	1.49e+00	0	43	104	0	77	21019
2026-01-24 22:31:00.16	94.10	23.85	-53.3	-68.2	3.8	1.49e+00	0	43	104	0	77	20978
2026-01-24 22:31:03.19	94.94	23.77	-53.3	-68.3	3.8	1.49e+00	0	43	104	0	77	21057
2026-01-24 22:31:06.21	95.78	23.69	-53.3	-68.2	3.8	1.49e+00	0	43	104	0	77	21014
2026-01-24 22:31:09.23	96.61	23.60	-53.3	-68.2	3.8	1.49e+00	0	43	104	0	77	20995
2026-01-24 22:31:12.26	97.44	23.51	-53.3	-68.2	3.8	1.49e+00	0	43	104	0	77	21008
2026-01-24 22:31:15.28	98.26	23.41	-53.3	-68.3	3.8	1.49e+00	0	43	104	0	77	21031
2026-01-24 22:31:18.30	99.08	23.30	-53.3	-68.2	3.8	1.49e+00	0	43	104	0	77	20975
2026-01-24 22:31:21.32	99.89	23.19	-53.3	-68.2	3.8	1.49e+00	0	43	104	0	77	20994
2026-01-24 22:31:24.35	100.69	23.07	-53.3	-68.2	3.8	1.49e+00	0	43	104	0	77	21008
2026-01-24 22:31:27.37	101.49	22.95	-53.3	-68.2	3.8	1.49e+00	0	43	104	0	77	20994
2026-01-24 22:31:30.39	102.29	22.83	-53.3	-68.3	3.8	1.49e+00	0	43	104	0	77	21056
2026-01-24 22:31:33.42	103.08	22.69	-53.3	-68.3	3.8	1.49e+00	0	43	104	0	77	21056
2026-01-24 22:31:36.44	103.86	22.56	-53.3	-68.2	3.8	1.49e+00	0	43	104	0	77	20992
2026-01-24 22:31:39.46	104.63	22.42	-53.3	-68.3	3.8	1.49e+00	0	43	104	0	77	21060
2026-01-24 22:31:42.49	105.40	22.27	-53.3	-68.2	3.8	1.49e+00	0	43	104	0	77	21005
2026-01-24 22:31:45.51	106.16	22.12	-53.3	-68.3	3.8	1.49e+00	0	43	104	0	77	21027
2026-01-24 22:31:48.54	106.91	21.97	-53.3	-68.2	3.8	1.49e+00	0	43	104	0	77	21007
2026-01-24 22:31:51.56	107.66	21.81	-53.3	-68.3	3.8	1.49e+00	0	43	104	0	77	21053
2026-01-24 22:31:54.58	108.40	21.65	-53.3	-68.2	3.8	1.49e+00	0	43	104	0	77	21017
2026-01-24 22:31:57.61	109.13	21.48	-53.3	-68.2	3.8	1.49e+00	0	43	104	0	77	21013
2026-01-24 22:32:00.63	109.85	21.32	-53.3	-68.3	3.8	1.49e+00	0	43	104	0	77	21040
2026-01-24 22:32:03.65	110.57	21.14	-53.3	-68.3	3.8	1.49e+00	0	43	104	0	77	21036
2026-01-24 22:32:06.68	111.28	20.97	-53.3	-68.3	3.8	1.49e+00	0	43	104	0	77	21050
2026-01-24 22:32:09.70	111.97	20.79	-53.3	-68.3	3.8	1.49e+00	0	43	104	0	77	21039
2026-01-24 22:32:12.73	112.67	20.61	-53.3	-68.3	3.8	1.49e+00	0	43	104	0	77	21031
2026-01-24 22:32:15.75	113.35	20.43	-53.3	-68.3	3.8	1.49e+00	0	43	104	0	77	21025
2026-01-24 22:32:18.77	114.03	20.24	-53.3	-68.3	3.8	1.49e+00	0	43	104	0	77	21051
2026-01-24 22:32:21.79	114.69	20.05	-53.3	-68.3	3.8	1.49e+00	0	43	104	0	77	21025
2026-01-24 22:32:24.82	115.36	19.86	-53.3	-68.3	3.8	1.49e+00	0	43	104	0	77	21060
2026-01-24 22:32:27.84	116.01	19.67	-53.3	-68.2	3.8	1.49e+00	0	43	104	0	77	20961
2026-01-24 22:32:30.86	116.65	19.47	-53.3	-68.3	3.8	1.49e+00	0	43	104	0	77	21022
2026-01-24 22:32:33.89	117.29	19.27	-53.3	-68.2	3.8	1.49e+00	0	43	104	0	77	21012
2026-01-24 22:32:36.91	117.92	19.07	-53.3	-68.2	3.8	1.49e+00	0	43	104	0	77	21016
2026-01-24 22:32:39.94	118.54	18.87	-53.3	-68.3	3.8	1.49e+00	0	43	104	0	77	21044
2026-01-24 22:32:42.96	119.15	18.67	-53.3	-68.2	3.8	1.49e+00	0	43	104	0	77	21008
2026-01-24 22:32:45.98	119.75	18.47	-53.3	-68.3	3.8	1.49e+00	0	43	104	0	77	21023
2026-01-24 22:32:49.00	120.35	18.26	-53.3	-68.3	3.8	1.49e+00	0	43	104	0	77	21023
2026-01-24 22:32:52.03	120.94	18.05	-53.3	-68.3	3.8	1.49e+00	0	43	104	0	77	21063
2026-01-24 22:32:55.05	121.52	17.85	-53.3	-68.3	3.8	1.49e+00	0	43	104	0	77	21050
2026-01-24 22:32:58.08	122.10	17.64	-53.3	-68.3	3.8	1.49e+00	0	43	104	0	77	21044
2026-01-24 22:33:01.10	122.66	17.43	-53.3	-68.2	3.8	1.49e+00	0	43	104	0	77	20992
2026-01-24 22:33:04.12	123.22	17.22	-53.3	-68.2	3.8	1.49e+00	0	43	104	0	77	21002
2026-01-24 22:33:07.15	123.77	17.01	-53.3	-68.2	3.8	1.49e+00	0	43	104	0	77	20990
2026-01-24 22:33:10.16	124.31	16.79	-53.3	-68.3	3.8	1.49e+00	0	43	104	0	77	21038
2026-01-24 22:33:13.19	124.85	16.58	-53.3	-68.2	3.8	1.49e+00	0	43	104	0	77	20993
2026-01-24 22:33:16.20	125.37	16.37	-53.3	-68.3	3.8	1.49e+00	0	43	104	0	77	21019
2026-01-24 22:33:19.22	125.90	16.16	-53.3	-68.3	3.8	1.49e+00	0	43	104	0	77	21021
2026-01-24 22:33:22.24	126.41	15.94	-53.3	-68.3	3.8	1.49e+00	0	43	104	0	77	21057
2026-01-24 22:33:25.26	126.92	15.73	-53.3	-68.2	3.8	1.49e+00	0	43	104	0	77	20988
2026-01-24 22:33:28.27	127.41	15.52	-53.3	-68.3	3.8	1.49e+00	0	43	104	0	77	21046
2026-01-24 22:33:31.29	127.91	15.30	-53.3	-68.3	3.8	1.49e+00	0	44	104	0	77	21037
2026-01-24 22:33:34.31	128.39	15.09	-53.3	-68.3	3.8	1.49e+00	0	43	104	0	77	21035
2026-01-24 22:33:37.33	128.87	14.87	-53.3	-68.2	3.8	1.49e+00	0	43	104	0	77	21009
2026-01-24 22:33:40.35	129.34	14.66	-53.3	-68.2	3.8	1.49e+00	0	44	104	0	77	21008
2026-01-24 22:33:43.38	129.81	14.45	-53.3	-68.3	3.8	1.49e+00	0	43	104	0	77	21053
2026-01-24 22:33:46.40	130.27	14.23	-53.3	-68.3	3.8	1.49e+00	0	44	104	0	77	21019
2026-01-24 22:33:49.43	130.73	14.02	-53.3	-68.2	3.8	1.49e+00	0	44	104	0	77	21016
2026-01-24 22:33:52.45	131.17	13.80	-53.3	-68.3	3.8	1.49e+00	0	44	104	0	77	21051
2026-01-24 22:33:55.47	131.62	13.59	-53.3	-68.3	3.8	1.49e+00	0	44	104	0	77	21044
2026-01-24 22:33:58.50	132.05	13.38	-53.3	-68.3	3.8	1.49e+00	0	44	104	0	77	21021
2026-01-24 22:34:01.52	132.48	13.17	-53.3	-68.2	3.8	1.49e+00	0	43	104	0	77	21008
2026-01-24 22:34:04.54	132.90	12.95	-53.3	-68.3	3.8	1.49e+00	0	44	104	0	77	21082
2026-01-24 22:34:07.56	133.32	12.74	-53.3	-68.2	3.8	1.49e+00	0	44	104	0	77	20950
2026-01-24 22:34:10.59	133.73	12.53	-53.3	-68.2	3.8	1.49e+00	0	43	104	0	77	21003
2026-01-24 22:34:13.61	134.14	12.32	-53.3	-68.2	3.8	1.49e+00	0	44	104	0	77	20990
2026-01-24 22:34:16.64	134.54	12.11	-53.3	-68.2	3.8	1.49e+00	0	44	104	0	77	21013
2026-01-24 22:34:19.66	134.94	11.90	-53.3	-68.2	3.8	1.49e+00	0	44	104	0	77	21014
2026-01-24 22:34:22.68	135.33	11.69	-53.3	-68.2	3.8	1.49e+00	0	44	104	0	77	20978
2026-01-24 22:34:25.70	135.71	11.49	-53.3	-68.3	3.8	1.49e+00	0	44	104	0	77	21040
2026-01-24 22:34:28.72	136.09	11.28	-53.3	-68.2	3.8	1.49e+00	0	44	104	0	77	21009
2026-01-24 22:34:31.75	136.47	11.07	-53.3	-68.3	3.8	1.49e+00	0	43	104	0	77	21057
2026-01-24 22:34:34.77	136.83	10.87	-53.3	-68.3	3.8	1.49e+00	0	44	104	0	77	21029
2026-01-24 22:34:37.79	137.20	10.66	-53.3	-68.2	3.8	1.49e+00	0	44	104	0	77	21009
2026-01-24 22:34:40.82	137.56	10.45	-53.3	-68.3	3.8	1.49e+00	0	44	104	0	77	21032
2026-01-24 22:34:43.84	137.91	10.25	-53.3	-68.3	3.8	1.49e+00	0	44	104	0	77	21018
2026-01-24 22:34:46.86	138.26	10.05	-53.3	-68.2	3.8	1.49e+00	0	43	104	0	77	20985
2026-01-24 22:34:49.89	138.61	9.84	-53.3	-68.2	3.8	1.49e+00	0	43	104	0	77	20982
2026-01-24 22:34:52.91	138.95	9.64	-53.3	-68.2	3.8	1.49e+00	0	44	104	0	77	21015
2026-01-24 22:34:55.94	139.29	9.44	-53.3	-68.3	3.8	1.49e+00	0	44	104	0	77	21058
2026-01-24 22:34:58.96	139.62	9.24	-53.3	-68.2	3.8	1.49e+00	0	44	104	0	77	21007
2026-01-24 22:35:01.98	139.95	9.04	-53.3	-68.3	3.8	1.49e+00	0	44	104	0	77	21049
2026-01-24 22:35:05.00	140.27	8.84	-53.3	-68.3	3.8	1.49e+00	0	44	104	0	77	21074
2026-01-24 22:35:08.03	140.59	8.65	-53.3	-68.3	3.8	1.49e+00	0	44	104	0	77	21029
2026-01-24 22:35:11.05	140.90	8.45	-53.3	-68.3	3.8	1.49e+00	0	44	104	0	77	21039
2026-01-24 22:35:14.07	141.21	8.25	-53.3	-68.3	3.8	1.49e+00	0	44	104	0	77	21035
2026-01-24 22:35:17.10	141.52	8.06	-53.3	-68.3	3.8	1.49e+00	0	44	104	0	77	21047
2026-01-24 22:35:20.12	141.82	7.86	-53.3	-68.3	3.8	1.49e+00	0	44	104	0	77	21051
2026-01-24 22:35:23.15	142.12	7.67	-53.3	-68.3	3.8	1.49e+00	0	44	104	0	77	21058
2026-01-24 22:35:26.17	142.42	7.48	-53.3	-68.3	3.8	1.49e+00	0	44	104	0	77	21051
2026-01-24 22:35:29.20	142.71	7.28	-53.3	-68.3	3.8	1.49e+00	0	44	104	0	77	21061
2026-01-24 22:35:32.22	143.00	7.09	-53.3	-68.3	3.8	1.49e+00	0	44	104	0	77	21038
2026-01-24 22:35:35.25	143.29	6.90	-53.3	-68.3	3.8	1.49e+00	0	43	104	0	77	21034
2026-01-24 22:35:38.27	143.57	6.71	-53.3	-68.3	3.8	1.49e+00	0	43	104	0	77	21039
2026-01-24 22:35:41.29	143.84	6.52	-53.3	-68.3	3.8	1.49e+00	0	43	104	0	77	21070
2026-01-24 22:35:44.32	144.12	6.34	-53.3	-68.3	3.8	1.49e+00	0	44	104	0	77	21019
2026-01-24 22:35:47.34	144.39	6.15	-53.3	-68.3	3.8	1.49e+00	0	44	104	0	77	21042
2026-01-24 22:35:50.37	144.66	5.96	-53.3	-68.2	3.8	1.49e+00	0	43	104	0	77	21012
2026-01-24 22:35:53.39	144.92	5.78	-53.3	-68.3	3.8	1.49e+00	0	43	104	0	77	21046
2026-01-24 22:35:56.41	145.18	5.59	-53.3	-68.2	3.8	1.49e+00	0	43	104	0	77	21017
2026-01-24 22:35:59.43	145.44	5.41	-53.3	-68.2	3.8	1.49e+00	0	44	104	0	77	21001
2026-01-24 22:36:02.46	145.70	5.23	-53.3	-68.3	3.8	1.49e+00	0	44	104	0	77	21020
2026-01-24 22:36:05.48	145.95	5.04	-53.3	-68.2	3.8	1.49e+00	0	44	104	0	77	21001
2026-01-24 22:36:08.50	146.20	4.86	-53.3	-68.3	3.8	1.49e+00	0	44	104	0	77	21036
2026-01-24 22:36:11.53	146.44	4.68	-53.3	-68.2	3.8	1.49e+00	0	44	104	0	77	21008
2026-01-24 22:36:14.55	146.69	4.50	-53.3	-68.3	3.8	1.49e+00	0	44	104	0	77	21041
2026-01-24 22:36:17.58	146.93	4.32	-53.3	-68.2	3.8	1.49e+00	0	44	104	0	77	20974
2026-01-24 22:36:20.60	147.17	4.14	-53.3	-68.2	3.8	1.49e+00	0	43	104	0	77	21016
2026-01-24 22:36:23.62	147.40	3.97	-53.3	-68.3	3.8	1.49e+00	0	44	104	0	77	21051
2026-01-24 22:36:26.64	147.63	3.79	-53.3	-68.3	3.8	1.49e+00	0	44	104	0	77	21054
2026-01-24 22:36:29.67	147.86	3.62	-53.3	-68.2	3.8	1.49e+00	0	44	104	0	77	21001
2026-01-24 22:36:32.69	148.09	3.44	-53.3	-68.2	3.8	1.49e+00	0	44	104	0	77	21004
2026-01-24 22:36:35.71	148.31	3.27	-53.3	-68.3	3.8	1.49e+00	0	44	104	0	77	21033
2026-01-24 22:36:38.74	148.54	3.09	-53.3	-68.3	3.8	1.49e+00	0	43	104	0	77	21026
2026-01-24 22:36:41.76	148.76	2.92	-53.3	-68.3	3.8	1.49e+00	0	43	104	0	77	21021
2026-01-24 22:36:44.79	148.97	2.75	-53.3	-68.2	3.8	1.49e+00	0	43	104	0	77	20996
2026-01-24 22:36:47.81	149.19	2.58	-53.3	-68.3	3.8	1.49e+00	0	43	104	0	77	21062
2026-01-24 22:36:50.84	149.40	2.41	-53.3	-68.2	3.8	1.49e+00	0	43	104	0	77	21011
2026-01-24 22:36:53.86	149.61	2.24	-53.3	-68.2	3.8	1.49e+00	0	43	104	0	77	20997
2026-01-24 22:36:56.88	149.82	2.07	-53.3	-68.2	3.8	1.49e+00	0	44	104	0	77	21014

#Closed at: 2026-01-24 22:36:59
#Recorded file [0 MB]: D:/lorett/data/31041_260125_012353.dat