passes_logs/2026/01/24/R3.2S_Murmansk/R3.2S_Murmansk__20260124_003521_ZKG05_rec.log

#Pass ID: 20260124_003521_ZKG05
#Satellite: ZKG05
#Configuration: ZKG05
#almurnet v.1.7.20251203
#Start time: 2026-01-24 00:35:21

#Version: 2.2.20231116
#Station: R3.2S_Murmansk
#Location: 33.079688 lon 68.888172 lat
#TLE: 1 65263U 25180E   26022.95928453  .00000683  00000-0  38596-4 0  9997
#TLE: 2 65263  97.4777 152.0845 0001589  87.5050 272.6364 15.16349981 23718

#Time	Az	El	Level	Level2	SNR	BER	BlckErr	Temp	State	Recorded	gain1	gain2
2026-01-24 00:35:21.73	220.97	2.03	-52.5	-54.6	6.2	0.00e+00	0	50	0	0	77	17536
2026-01-24 00:35:24.75	221.29	2.20	-52.5	-54.6	6.2	0.00e+00	0	50	104	0	76	18577
2026-01-24 00:35:27.78	221.63	2.37	-52.5	-54.6	6.2	0.00e+00	0	50	104	0	76	18547
2026-01-24 00:35:30.81	221.96	2.55	-52.5	-54.6	6.2	0.00e+00	0	50	104	0	76	18545
2026-01-24 00:35:33.83	222.30	2.72	-52.5	-54.6	6.2	0.00e+00	0	51	104	0	76	18522
2026-01-24 00:35:36.86	222.65	2.89	-52.5	-54.6	6.2	0.00e+00	0	51	104	0	76	18525
2026-01-24 00:35:39.88	223.00	3.07	-52.5	-54.6	6.2	0.00e+00	0	51	104	0	76	18523
2026-01-24 00:35:42.91	223.36	3.24	-52.5	-54.6	6.2	0.00e+00	0	51	104	0	76	18514
2026-01-24 00:35:45.93	223.72	3.42	-52.5	-54.6	6.2	0.00e+00	0	51	104	0	76	18569
2026-01-24 00:35:48.96	224.09	3.60	-52.5	-54.6	6.2	0.00e+00	0	51	104	0	76	18510
2026-01-24 00:35:51.99	224.46	3.77	-52.5	-54.6	6.2	0.00e+00	0	51	104	0	76	18516
2026-01-24 00:35:55.01	224.84	3.95	-52.5	-54.6	6.2	0.00e+00	0	52	104	0	76	18531
2026-01-24 00:35:58.03	225.23	4.13	-52.5	-54.6	6.2	0.00e+00	0	52	104	0	76	18442
2026-01-24 00:36:01.06	225.62	4.31	-52.5	-54.6	6.2	0.00e+00	0	52	104	0	76	18567
2026-01-24 00:36:04.08	226.01	4.49	-52.5	-54.6	6.2	0.00e+00	0	52	104	0	76	18560
2026-01-24 00:36:07.11	226.41	4.67	-52.5	-54.6	6.2	0.00e+00	0	52	104	0	76	18519
2026-01-24 00:36:10.13	226.82	4.85	-52.5	-54.6	6.2	0.00e+00	0	52	104	0	76	18417
2026-01-24 00:36:13.16	227.23	5.03	-52.5	-54.6	6.2	0.00e+00	0	52	104	0	76	18531
2026-01-24 00:36:16.18	227.65	5.21	-52.7	-54.8	6.2	0.00e+00	0	52	104	0	76	18993
2026-01-24 00:36:19.21	228.08	5.40	-52.5	-54.6	6.2	0.00e+00	0	52	104	0	76	18465
2026-01-24 00:36:22.24	228.51	5.58	-52.5	-54.7	6.2	0.00e+00	0	53	104	0	76	18636
2026-01-24 00:36:25.26	228.95	5.76	-52.6	-54.8	6.2	0.00e+00	0	53	104	0	76	18861
2026-01-24 00:36:28.29	229.40	5.95	-52.7	-54.9	6.2	0.00e+00	0	53	104	0	76	19098
2026-01-24 00:36:31.31	229.85	6.13	-52.6	-54.7	6.2	0.00e+00	0	53	104	0	76	18817
2026-01-24 00:36:34.34	230.31	6.32	-52.7	-54.8	6.2	0.00e+00	0	53	104	0	76	18928
2026-01-24 00:36:37.37	230.78	6.50	-52.7	-54.8	6.2	0.00e+00	0	53	104	0	76	18967
2026-01-24 00:36:40.39	231.25	6.69	-52.8	-54.9	6.2	0.00e+00	0	53	104	0	76	19153
2026-01-24 00:36:43.41	231.73	6.87	-52.7	-54.8	6.2	0.00e+00	0	53	104	0	76	18957
2026-01-24 00:36:46.44	232.22	7.06	-52.7	-54.8	6.2	0.00e+00	0	53	104	0	76	18902
2026-01-24 00:36:49.47	232.72	7.25	-52.7	-54.9	6.2	0.00e+00	0	53	104	0	76	19113
2026-01-24 00:36:52.49	233.22	7.43	-52.9	-55.0	6.2	0.00e+00	0	53	104	0	76	19334
2026-01-24 00:36:55.51	233.74	7.62	-52.8	-54.9	6.2	0.00e+00	0	53	104	0	76	19178
2026-01-24 00:36:58.54	234.26	7.81	-51.7	-53.4	6.3	0.00e+00	0	53	104	0	75	17136
2026-01-24 00:37:01.57	234.78	7.99	-33.4	-33.3	16.1	0.00e+00	0	55	0	58720256	38	14167
2026-01-24 00:37:04.59	235.32	8.18	-33.2	-33.0	14.4	2.57e-02	0	55	0	394264576	38	13780
2026-01-24 00:37:07.62	235.86	8.37	-32.9	-32.8	14.4	6.62e-02	0	56	0	729808896	37	14208
2026-01-24 00:37:10.65	236.42	8.55	-32.9	-32.8	14.4	6.61e-02	0	56	0	1082130432	37	14135
2026-01-24 00:37:13.67	236.98	8.74	-32.6	-32.5	14.4	6.44e-02	0	56	0	1417674752	37	13721
2026-01-24 00:37:16.70	237.55	8.93	-32.8	-32.6	14.4	6.23e-02	0	56	0	1753219072	37	13937
2026-01-24 00:37:19.72	238.13	9.11	-32.5	-32.4	14.5	6.29e-02	0	56	0	2088763392	36	14285
2026-01-24 00:37:22.75	238.71	9.30	-32.5	-32.3	14.4	6.04e-02	0	56	0	2441084928	36	14255
2026-01-24 00:37:25.77	239.31	9.48	-32.4	-32.3	14.6	4.80e-02	0	56	0	2776629248	36	14130
2026-01-24 00:37:28.79	239.91	9.67	-32.2	-32.1	14.6	4.80e-02	0	57	0	3120562176	36	13858
2026-01-24 00:37:31.82	240.53	9.85	-32.4	-32.3	14.6	3.41e-02	0	57	0	3456106496	36	14152
2026-01-24 00:37:34.84	241.15	10.04	-32.3	-32.1	14.7	3.31e-02	0	57	0	3800039424	36	13912
2026-01-24 00:37:37.87	241.78	10.22	-32.3	-32.1	14.7	2.90e-02	0	57	0	4143972352	36	13903
2026-01-24 00:37:40.89	242.42	10.40	-32.2	-32.0	14.7	3.01e-02	0	57	0	4479516672	36	13781
2026-01-24 00:37:43.91	243.07	10.58	-32.1	-32.0	14.7	3.01e-02	0	57	0	4815060992	36	13709
2026-01-24 00:37:46.94	243.74	10.76	-29.9	-29.8	14.6	3.31e-02	0	58	0	5167382528	31	14181
2026-01-24 00:37:49.97	244.41	10.94	-29.7	-29.6	14.8	3.11e-02	0	57	0	5502926848	31	13851
2026-01-24 00:37:52.99	245.09	11.11	-29.6	-29.5	14.8	2.62e-02	0	57	0	5838471168	31	13733
2026-01-24 00:37:56.02	245.78	11.29	-29.5	-29.3	14.8	2.37e-02	0	58	0	6174015488	30	14250
2026-01-24 00:37:59.04	246.47	11.46	-29.7	-29.5	14.6	2.33e-02	0	58	0	6526337024	30	14563
2026-01-24 00:38:02.07	247.18	11.63	-29.5	-29.4	14.6	2.25e-02	0	58	0	6861881344	30	14358
2026-01-24 00:38:05.10	247.90	11.80	-29.3	-29.2	14.7	2.01e-02	0	58	0	7197425664	30	14018
2026-01-24 00:38:08.12	248.63	11.97	-29.5	-29.4	14.6	1.83e-02	0	58	0	7541358592	30	14279
2026-01-24 00:38:11.15	249.37	12.13	-29.3	-29.2	14.6	1.86e-02	0	58	0	7885291520	30	14067
2026-01-24 00:38:14.17	250.11	12.29	-29.6	-29.5	14.5	1.76e-02	0	58	0	8220835840	30	14542
2026-01-24 00:38:17.20	250.87	12.46	-29.2	-29.1	14.5	1.83e-02	0	58	0	8564768768	30	13843
2026-01-24 00:38:20.22	251.64	12.61	-29.3	-29.2	14.5	1.62e-02	0	58	0	8900313088	30	14050
2026-01-24 00:38:23.25	252.41	12.77	-29.4	-29.2	14.4	1.71e-02	0	58	0	9244246016	30	14080
2026-01-24 00:38:26.27	253.20	12.92	-29.3	-29.2	14.4	1.81e-02	0	58	0	9588178944	30	13973
2026-01-24 00:38:29.30	253.99	13.07	-29.4	-29.3	14.4	1.81e-02	0	58	0	9923723264	30	14125
2026-01-24 00:38:32.33	254.80	13.21	-29.4	-29.3	14.4	1.71e-02	0	58	0	10267656192	30	14160
2026-01-24 00:38:35.35	255.61	13.35	-29.3	-29.1	14.5	1.77e-02	0	58	0	10611589120	30	13925
2026-01-24 00:38:38.38	256.43	13.49	-29.3	-29.1	14.4	1.64e-02	0	58	0	10947133440	30	13904
2026-01-24 00:38:41.41	257.26	13.62	-29.2	-29.1	14.4	1.59e-02	0	59	0	11282677760	30	13813
2026-01-24 00:38:44.43	258.10	13.75	-29.3	-29.2	14.4	1.38e-02	0	58	0	11634999296	30	13988
2026-01-24 00:38:47.45	258.94	13.88	-29.3	-29.2	14.4	1.55e-02	0	58	0	11970543616	30	14050
2026-01-24 00:38:50.48	259.80	14.00	-29.0	-28.9	14.4	1.48e-02	0	59	0	12306087936	30	13500
2026-01-24 00:38:53.50	260.66	14.12	-29.3	-29.2	14.3	1.32e-02	0	59	0	12641632256	29	14809
2026-01-24 00:38:56.53	261.53	14.23	-28.9	-28.8	14.4	1.47e-02	0	58	0	12993953792	29	14230
2026-01-24 00:38:59.55	262.41	14.34	-29.2	-29.1	14.4	1.47e-02	0	59	0	13329498112	29	14694
2026-01-24 00:39:02.58	263.30	14.44	-28.8	-28.7	14.4	1.55e-02	0	59	0	13665042432	29	14030
2026-01-24 00:39:05.61	264.19	14.54	-29.1	-29.0	14.4	1.46e-02	0	58	0	14008975360	29	14511
2026-01-24 00:39:08.63	265.09	14.63	-29.3	-29.2	14.3	1.50e-02	0	59	0	14352908288	29	14841
2026-01-24 00:39:11.66	265.99	14.71	-29.1	-29.0	14.4	1.47e-02	0	59	0	14696841216	29	14460
2026-01-24 00:39:14.69	266.91	14.79	-29.2	-29.1	14.4	1.47e-02	0	59	0	15032385536	29	14715
2026-01-24 00:39:17.71	267.82	14.87	-29.5	-29.4	14.4	1.67e-02	0	59	0	15367929856	30	14344
2026-01-24 00:39:20.74	268.74	14.94	-29.1	-28.9	14.4	1.32e-02	0	59	0	15720251392	29	14409
2026-01-24 00:39:23.76	269.67	15.00	-29.1	-28.9	14.4	1.32e-02	0	59	0	16055795712	29	14397
2026-01-24 00:39:26.79	270.60	15.06	-29.7	-29.6	14.5	1.50e-02	0	58	0	16391340032	30	14702
2026-01-24 00:39:29.81	271.53	15.11	-29.6	-29.4	14.4	1.37e-02	0	59	0	16726884352	29	15276
2026-01-24 00:39:32.84	272.47	15.15	-28.9	-28.8	14.3	1.42e-02	0	59	0	17079205888	29	14150
2026-01-24 00:39:35.86	273.41	15.19	-29.4	-29.3	14.5	1.50e-02	0	59	0	17414750208	30	14122
2026-01-24 00:39:38.88	274.35	15.22	-29.3	-29.2	14.4	1.36e-02	0	59	0	17750294528	29	14872
2026-01-24 00:39:41.91	275.29	15.25	-28.7	-28.5	14.4	1.62e-02	0	59	0	18094227456	29	13775
2026-01-24 00:39:44.93	276.24	15.27	-29.0	-28.8	14.4	1.31e-02	0	59	0	18438160384	29	14264
2026-01-24 00:39:47.96	277.18	15.28	-28.8	-28.6	14.5	1.35e-02	0	59	0	18773704704	29	13905
2026-01-24 00:39:50.98	278.13	15.29	-28.7	-28.6	14.3	1.24e-02	0	59	0	19117637632	29	13819
2026-01-24 00:39:54.01	279.08	15.28	-28.9	-28.8	14.4	1.29e-02	0	59	0	19453181952	29	14119
2026-01-24 00:39:57.03	280.02	15.28	-29.0	-28.9	14.4	1.30e-02	0	59	0	19797114880	29	14299
2026-01-24 00:40:00.06	280.97	15.26	-28.7	-28.6	14.3	1.16e-02	0	59	0	20141047808	29	13876
2026-01-24 00:40:03.08	281.91	15.24	-29.1	-29.0	14.4	1.19e-02	0	59	0	20476592128	29	14463
2026-01-24 00:40:06.11	282.86	15.22	-29.1	-29.0	14.4	1.21e-02	0	59	0	20812136448	29	14533
2026-01-24 00:40:09.13	283.80	15.18	-29.2	-29.1	14.4	1.18e-02	0	59	0	21164457984	29	14703
2026-01-24 00:40:12.16	284.74	15.14	-29.1	-28.9	14.4	1.15e-02	0	59	0	21500002304	29	14395
2026-01-24 00:40:15.18	285.67	15.10	-29.0	-28.9	14.3	1.24e-02	0	59	0	21835546624	29	14377
2026-01-24 00:40:18.21	286.60	15.05	-28.9	-28.8	14.4	1.26e-02	0	59	0	22171090944	29	14182
2026-01-24 00:40:21.23	287.53	14.99	-29.2	-29.1	14.4	1.27e-02	0	59	0	22523412480	29	14702
2026-01-24 00:40:24.25	288.45	14.92	-29.2	-29.1	14.3	1.27e-02	0	59	0	22858956800	29	14743
2026-01-24 00:40:27.28	289.37	14.85	-29.1	-29.0	14.4	1.32e-02	0	59	0	23194501120	29	14449
2026-01-24 00:40:30.31	290.28	14.78	-29.0	-28.9	14.5	1.30e-02	0	59	0	23538434048	29	14309
2026-01-24 00:40:33.34	291.19	14.70	-29.0	-28.8	14.4	1.27e-02	0	59	0	23882366976	29	14250
2026-01-24 00:40:36.36	292.09	14.61	-29.2	-29.1	14.4	1.22e-02	0	59	0	24217911296	29	14629
2026-01-24 00:40:39.38	292.98	14.52	-29.3	-29.2	14.4	1.23e-02	0	59	0	24561844224	29	14785
2026-01-24 00:40:42.41	293.87	14.42	-29.3	-29.1	14.5	1.21e-02	0	59	0	24897388544	29	14747
2026-01-24 00:40:45.43	294.75	14.32	-29.1	-29.0	14.4	1.23e-02	0	59	0	25241321472	29	14470
2026-01-24 00:40:48.46	295.63	14.21	-29.3	-29.2	14.4	1.35e-02	0	59	0	25585254400	29	14789
2026-01-24 00:40:51.48	296.49	14.10	-29.2	-29.1	14.3	1.21e-02	0	59	0	25920798720	29	14698
2026-01-24 00:40:54.51	297.35	13.98	-29.3	-29.2	14.4	1.21e-02	0	59	0	26256343040	29	14800
2026-01-24 00:40:57.53	298.20	13.86	-29.3	-29.1	14.4	1.36e-02	0	59	0	26608664576	29	14760
2026-01-24 00:41:00.55	299.04	13.73	-29.2	-29.1	14.5	1.39e-02	0	59	0	26944208896	29	14701
2026-01-24 00:41:03.57	299.88	13.60	-29.4	-29.3	14.4	1.43e-02	0	59	0	27279753216	29	15079
2026-01-24 00:41:06.60	300.70	13.47	-29.2	-29.0	14.4	1.41e-02	0	59	0	27615297536	29	14585
2026-01-24 00:41:09.62	301.52	13.33	-29.3	-29.2	14.4	1.42e-02	0	59	0	27959230464	29	14790
2026-01-24 00:41:12.64	302.32	13.19	-29.4	-29.2	14.4	1.47e-02	0	59	0	28303163392	29	14916
2026-01-24 00:41:15.67	303.12	13.04	-29.4	-29.3	14.3	1.31e-02	0	59	0	28638707712	29	14999
2026-01-24 00:41:18.69	303.91	12.90	-29.6	-29.4	14.3	1.27e-02	0	59	0	28982640640	29	15250
2026-01-24 00:41:21.72	304.69	12.74	-29.7	-29.6	14.4	1.40e-02	0	59	0	29318184960	29	15475
2026-01-24 00:41:24.74	305.46	12.59	-29.8	-29.7	14.5	1.48e-02	0	59	0	29670506496	30	14836
2026-01-24 00:41:27.77	306.22	12.43	-30.0	-29.9	14.7	1.50e-02	0	59	0	30006050816	30	15183
2026-01-24 00:41:30.79	306.97	12.27	-30.1	-30.0	14.7	1.57e-02	0	59	0	30341595136	30	15362
2026-01-24 00:41:33.81	307.71	12.11	-30.1	-30.0	14.6	1.97e-02	0	59	0	30677139456	30	15433
2026-01-24 00:41:36.83	308.44	11.95	-30.2	-30.0	14.5	2.15e-02	0	59	0	31029460992	31	14562
2026-01-24 00:41:39.85	309.16	11.78	-30.2	-30.1	14.5	2.28e-02	0	59	0	31365005312	31	14698
2026-01-24 00:41:42.87	309.88	11.61	-30.3	-30.2	14.5	2.24e-02	0	59	0	31700549632	31	14813
2026-01-24 00:41:45.90	310.58	11.44	-30.4	-30.3	14.5	2.29e-02	0	59	0	32044482560	31	15011
2026-01-24 00:41:48.92	311.27	11.27	-30.6	-30.5	14.6	2.48e-02	0	59	0	32380026880	31	15370
2026-01-24 00:41:51.94	311.96	11.10	-30.7	-30.6	14.6	2.53e-02	0	59	0	32723959808	32	14650
2026-01-24 00:41:54.97	312.63	10.92	-30.6	-30.5	14.6	2.81e-02	0	59	0	33067892736	32	14504
2026-01-24 00:41:57.99	313.30	10.75	-30.8	-30.7	14.6	2.74e-02	0	59	0	33403437056	32	14791
2026-01-24 00:42:01.02	313.95	10.57	-30.9	-30.8	14.6	2.77e-02	0	59	0	33738981376	32	15057
2026-01-24 00:42:04.04	314.60	10.39	-31.0	-30.9	14.5	2.80e-02	0	59	0	34091302912	32	15235
2026-01-24 00:42:07.07	315.24	10.21	-31.1	-31.0	14.5	3.07e-02	0	59	0	34426847232	33	14481
2026-01-24 00:42:10.09	315.86	10.03	-31.3	-31.2	14.4	3.45e-02	0	59	0	34762391552	33	14839
2026-01-24 00:42:13.11	316.48	9.85	-31.2	-31.1	14.6	3.55e-02	0	59	0	35097935872	33	14681
2026-01-24 00:42:16.14	317.09	9.66	-31.4	-31.3	14.6	3.58e-02	0	59	0	35450257408	33	15058
2026-01-24 00:42:19.16	317.69	9.48	-31.6	-31.4	14.7	3.35e-02	0	59	0	35785801728	34	14427
2026-01-24 00:42:22.18	318.28	9.30	-31.7	-31.6	14.6	3.02e-02	0	59	0	36121346048	34	14648
2026-01-24 00:42:25.21	318.86	9.11	-32.0	-31.9	14.7	3.08e-02	0	59	0	36465278976	34	15142
2026-01-24 00:42:28.23	319.44	8.93	-31.8	-31.7	14.6	3.00e-02	0	59	0	36809211904	34	14809
2026-01-24 00:42:31.25	320.00	8.74	-32.0	-31.9	14.7	2.57e-02	0	59	0	37144756224	34	15140
2026-01-24 00:42:34.28	320.56	8.56	-32.0	-31.9	14.7	2.76e-02	0	59	0	37488689152	34	15191
2026-01-24 00:42:37.30	321.11	8.37	-32.1	-32.0	14.7	3.30e-02	0	59	0	37824233472	34	15454
2026-01-24 00:42:40.33	321.65	8.19	-32.3	-32.2	14.6	3.33e-02	0	59	0	38168166400	35	14824
2026-01-24 00:42:43.35	322.18	8.00	-32.4	-32.3	14.7	3.33e-02	0	59	0	38512099328	35	15009
2026-01-24 00:42:46.37	322.70	7.82	-32.3	-32.2	14.8	3.08e-02	0	59	0	38847643648	35	14897
2026-01-24 00:42:49.40	323.22	7.63	-35.2	-35.1	14.7	3.01e-02	0	59	0	39183187968	41	14677
2026-01-24 00:42:52.42	323.73	7.45	-52.9	-55.2	6.2	3.05e-02	0	57	104	39392903168	76	19778
2026-01-24 00:42:55.45	324.23	7.26	-53.0	-55.1	6.2	3.05e-02	0	57	104	39392903168	76	19687
2026-01-24 00:42:58.47	324.72	7.08	-53.0	-55.1	6.2	3.05e-02	0	57	104	39392903168	76	19675
2026-01-24 00:43:01.49	325.20	6.89	-53.0	-55.1	6.2	0.00e+00	0	57	104	39392903168	76	19616
2026-01-24 00:43:04.52	325.68	6.71	-52.9	-55.0	6.2	0.00e+00	0	57	104	39392903168	76	19478
2026-01-24 00:43:07.54	326.15	6.52	-52.9	-55.0	6.2	0.00e+00	0	57	104	39392903168	76	19446
2026-01-24 00:43:10.56	326.62	6.34	-52.9	-55.0	6.2	0.00e+00	0	57	104	39392903168	76	19426
2026-01-24 00:43:13.58	327.07	6.16	-52.9	-55.0	6.2	0.00e+00	0	56	104	39392903168	76	19392
2026-01-24 00:43:16.61	327.52	5.97	-52.8	-54.9	6.2	0.00e+00	0	57	104	39392903168	76	19147
2026-01-24 00:43:19.63	327.97	5.79	-52.8	-54.9	6.2	0.00e+00	0	56	104	39392903168	76	19064
2026-01-24 00:43:22.66	328.40	5.61	-52.7	-54.9	6.2	0.00e+00	0	56	104	39392903168	76	19093
2026-01-24 00:43:25.68	328.83	5.43	-52.8	-54.9	6.2	0.00e+00	0	56	104	39392903168	76	19152
2026-01-24 00:43:28.71	329.26	5.25	-52.6	-54.7	6.2	0.00e+00	0	56	104	39392903168	76	18732
2026-01-24 00:43:31.73	329.67	5.07	-52.6	-54.7	6.2	0.00e+00	0	56	104	39392903168	76	18782
2026-01-24 00:43:34.76	330.09	4.89	-53.6	-55.6	6.2	0.00e+00	0	56	104	39392903168	77	19698
2026-01-24 00:43:37.78	330.49	4.71	-54.1	-56.2	6.2	0.00e+00	0	56	104	39392903168	78	19796
2026-01-24 00:43:40.80	330.89	4.53	-54.4	-56.5	6.2	0.00e+00	0	56	104	39392903168	79	19470
2026-01-24 00:43:43.83	331.28	4.35	-54.6	-56.6	6.2	0.00e+00	0	55	104	39392903168	79	19651
2026-01-24 00:43:46.86	331.67	4.17	-54.7	-56.8	6.2	0.00e+00	0	56	104	39392903168	79	19973
2026-01-24 00:43:49.88	332.05	3.99	-54.7	-56.8	6.2	0.00e+00	0	56	104	39392903168	79	20043
2026-01-24 00:43:52.91	332.43	3.82	-54.7	-56.8	6.2	0.00e+00	0	56	104	39392903168	79	20072
2026-01-24 00:43:55.93	332.80	3.64	-54.6	-56.7	6.2	0.00e+00	0	55	104	39392903168	79	19916
2026-01-24 00:43:58.96	333.17	3.47	-54.6	-56.7	6.2	0.00e+00	0	56	104	39392903168	79	19795
2026-01-24 00:44:01.98	333.53	3.29	-54.6	-56.7	6.2	0.00e+00	0	56	104	39392903168	79	19770
2026-01-24 00:44:05.00	333.88	3.12	-54.6	-56.7	6.2	0.00e+00	0	56	104	39392903168	79	19729
2026-01-24 00:44:08.03	334.24	2.95	-54.5	-56.6	6.2	0.00e+00	0	55	104	39392903168	79	19570
2026-01-24 00:44:11.05	334.58	2.77	-54.5	-56.6	6.2	0.00e+00	0	55	104	39392903168	79	19582
2026-01-24 00:44:14.08	334.92	2.60	-54.4	-56.5	6.2	0.00e+00	0	55	104	39392903168	79	19397
2026-01-24 00:44:17.10	335.26	2.43	-54.4	-56.5	6.2	0.00e+00	0	55	104	39392903168	79	19400
2026-01-24 00:44:20.13	335.59	2.26	-54.4	-56.5	6.2	0.00e+00	0	56	104	39392903168	79	19278
2026-01-24 00:44:23.15	335.92	2.09	-54.4	-56.5	6.2	0.00e+00	0	55	104	39392903168	79	19288
2026-01-24 00:44:26.17	336.24	1.92	-54.4	-56.4	6.2	0.00e+00	0	55	104	39392903168	79	19200

#Closed at: 2026-01-24 00:44:26
#Recorded file [39392 MB]: D:/lorett/data/31041_260124_033521.dat