passes_logs/2026/01/24/R3.2S_Murmansk/R3.2S_Murmansk__20260124_105735_FENGYUN_3D_rec.log

#Pass ID: 20260124_105735_FENGYUN 3D
#Satellite: FENGYUN 3D
#Configuration: FENGYUN 3D
#almurnet v.1.7.20251203
#Start time: 2026-01-24 10:57:35

#Version: 2.2.20231116
#Station: R3.2S_Murmansk
#Location: 33.079688 lon 68.888172 lat
#TLE: 1 43010U 17072A   26023.60174628  .00000324  00000+0  17481-3 0  9994
#TLE: 2 43010  98.9958 355.5514 0002482  93.7422 266.4037 14.19699955424476

#Time	Az	El	Level	Level2	SNR	BER	BlckErr	Temp	State	Recorded	gain1	gain2
2026-01-24 10:57:35.37	136.87	1.97	-51.7	-63.6	3.8	8.47e-01	0	41	0	0	73	15534
2026-01-24 10:57:39.41	136.82	2.23	-51.6	-63.6	3.8	8.47e-01	0	41	104	0	73	15446
2026-01-24 10:57:43.44	136.77	2.49	-51.6	-63.5	3.8	8.45e-01	0	41	104	0	73	15368
2026-01-24 10:57:47.48	136.72	2.76	-51.6	-63.5	3.8	8.46e-01	0	41	104	0	73	15252
2026-01-24 10:57:51.51	136.66	3.02	-51.6	-63.4	3.8	8.46e-01	0	41	104	0	73	15223
2026-01-24 10:57:55.54	136.61	3.29	-51.6	-63.3	3.8	8.46e-01	0	42	104	0	73	15011
2026-01-24 10:57:59.57	136.55	3.56	-51.5	-63.0	3.8	8.46e-01	0	42	104	0	73	14508
2026-01-24 10:58:03.61	136.49	3.84	-51.4	-61.2	3.8	8.45e-01	0	42	104	0	73	11710
2026-01-24 10:58:07.64	136.43	4.12	-48.1	-50.9	11.5	3.24e-03	0	42	0	13631488	68	4779
2026-01-24 10:58:11.67	136.37	4.39	-45.4	-47.1	15.5	0.00e+00	0	42	0	36700160	62	4343
2026-01-24 10:58:15.70	136.31	4.68	-43.4	-44.6	18.3	0.00e+00	0	42	0	58720256	58	4107
2026-01-24 10:58:19.74	136.25	4.96	-44.2	-45.5	17.4	0.00e+00	0	42	0	81788928	58	4577
2026-01-24 10:58:23.77	136.18	5.25	-47.8	-50.5	12.1	1.60e-05	0	42	0	104857600	66	5141
2026-01-24 10:58:27.81	136.12	5.54	-43.8	-45.0	18.1	0.00e+00	0	42	0	126877696	59	4091
2026-01-24 10:58:31.85	136.05	5.84	-42.8	-43.9	19.3	0.00e+00	0	42	0	149946368	56	4246
2026-01-24 10:58:35.88	135.98	6.14	-42.6	-43.7	19.6	0.00e+00	0	42	0	173015040	56	4151
2026-01-24 10:58:39.92	135.91	6.44	-42.7	-43.8	19.5	0.00e+00	0	42	0	195035136	56	4227
2026-01-24 10:58:43.95	135.83	6.74	-42.9	-44.0	19.4	0.00e+00	0	42	0	218103808	56	4295
2026-01-24 10:58:47.98	135.76	7.05	-42.5	-43.5	19.8	0.00e+00	0	42	0	241172480	55	4313
2026-01-24 10:58:52.01	135.68	7.36	-42.5	-43.6	19.8	0.00e+00	0	42	0	263192576	56	4116
2026-01-24 10:58:56.05	135.60	7.68	-42.2	-43.2	20.2	0.00e+00	0	42	0	286261248	55	4174
2026-01-24 10:59:00.08	135.52	8.00	-42.3	-43.4	20.0	0.00e+00	0	42	0	308281344	55	4270
2026-01-24 10:59:04.11	135.44	8.33	-42.0	-42.9	20.5	0.00e+00	0	42	0	331350016	55	4051
2026-01-24 10:59:08.14	135.35	8.65	-42.1	-43.1	20.4	0.00e+00	0	42	0	353370112	55	4103
2026-01-24 10:59:12.18	135.26	8.99	-41.8	-42.8	20.7	0.00e+00	0	42	0	376438784	54	4222
2026-01-24 10:59:16.21	135.17	9.32	-41.8	-42.7	20.8	0.00e+00	0	42	0	399507456	54	4181
2026-01-24 10:59:20.24	135.08	9.67	-41.7	-42.7	20.9	0.00e+00	0	43	0	421527552	54	4154
2026-01-24 10:59:24.28	134.99	10.01	-41.5	-42.4	21.1	0.00e+00	0	43	0	444596224	54	4051
2026-01-24 10:59:28.31	134.89	10.36	-41.3	-42.3	21.3	0.00e+00	0	43	0	467664896	54	3961
2026-01-24 10:59:32.34	134.79	10.72	-41.0	-41.9	21.7	0.00e+00	0	43	0	489684992	53	4037
2026-01-24 10:59:36.37	134.69	11.08	-40.9	-41.8	21.8	0.00e+00	0	43	0	512753664	52	4223
2026-01-24 10:59:40.41	134.58	11.45	-40.4	-41.9	21.7	0.00e+00	0	43	0	535822336	52	4246
2026-01-24 10:59:44.44	134.47	11.82	-40.9	-41.8	21.8	0.00e+00	0	43	0	557842432	52	4211
2026-01-24 10:59:48.47	134.36	12.20	-40.8	-41.7	21.9	0.00e+00	0	43	0	580911104	52	4160
2026-01-24 10:59:52.51	134.24	12.58	-40.9	-41.8	21.9	0.00e+00	0	43	0	603979776	52	4194
2026-01-24 10:59:56.54	134.12	12.97	-40.8	-41.7	22.0	0.00e+00	0	43	0	625999872	52	4146
2026-01-24 11:00:00.57	134.00	13.37	-40.7	-41.6	22.1	0.00e+00	0	43	0	649068544	52	4102
2026-01-24 11:00:04.60	133.88	13.77	-40.7	-41.5	22.1	0.00e+00	0	43	0	672137216	52	4090
2026-01-24 11:00:08.63	133.75	14.18	-40.6	-41.5	22.2	0.00e+00	0	43	0	694157312	52	4063
2026-01-24 11:00:12.67	133.61	14.59	-40.4	-41.3	22.4	0.00e+00	0	43	0	717225984	52	3969
2026-01-24 11:00:16.70	133.47	15.01	-40.4	-41.2	22.4	0.00e+00	0	43	0	739246080	52	3956
2026-01-24 11:00:20.73	133.33	15.44	-40.2	-41.0	22.6	0.00e+00	0	43	0	762314752	52	3849
2026-01-24 11:00:24.76	133.18	15.88	-40.2	-41.0	22.7	0.00e+00	0	43	0	784334848	51	4082
2026-01-24 11:00:28.80	133.03	16.33	-39.9	-40.7	23.0	0.00e+00	0	43	0	807403520	51	3917
2026-01-24 11:00:32.83	132.87	16.78	-39.7	-40.5	23.2	0.00e+00	0	43	0	830472192	51	3850
2026-01-24 11:00:36.86	132.71	17.24	-39.8	-40.6	23.2	0.00e+00	0	43	0	852492288	50	4109
2026-01-24 11:00:40.90	132.54	17.71	-39.4	-40.2	23.5	0.00e+00	0	43	0	875560960	50	3925
2026-01-24 11:00:44.93	132.37	18.19	-39.3	-40.1	23.6	0.00e+00	0	43	0	898629632	50	3901
2026-01-24 11:00:48.96	132.19	18.68	-39.3	-40.1	23.6	0.00e+00	0	43	0	920649728	50	3898
2026-01-24 11:00:53.00	132.00	19.18	-39.3	-40.0	23.7	0.00e+00	0	43	0	943718400	50	3857
2026-01-24 11:00:57.03	131.81	19.68	-39.0	-39.8	23.9	0.00e+00	0	43	0	966787072	49	3977
2026-01-24 11:01:01.06	131.61	20.20	-38.9	-39.6	24.1	0.00e+00	0	43	0	988807168	49	3908
2026-01-24 11:01:05.09	131.41	20.73	-38.9	-39.6	24.1	0.00e+00	0	43	0	1011875840	49	3907
2026-01-24 11:01:09.13	131.19	21.27	-38.7	-39.5	24.3	0.00e+00	0	43	0	1034944512	49	3829
2026-01-24 11:01:13.16	130.97	21.82	-38.7	-39.5	24.2	0.00e+00	0	43	0	1056964608	49	3844
2026-01-24 11:01:17.19	130.74	22.38	-38.8	-39.6	24.2	0.00e+00	0	43	0	1080033280	49	3884
2026-01-24 11:01:21.22	130.50	22.95	-38.6	-39.3	24.4	0.00e+00	0	43	0	1102053376	49	3779
2026-01-24 11:01:25.25	130.25	23.54	-38.4	-39.2	24.5	0.00e+00	0	43	0	1125122048	48	3921
2026-01-24 11:01:29.29	129.99	24.14	-38.5	-39.2	24.5	0.00e+00	0	43	0	1148190720	48	3940
2026-01-24 11:01:33.32	129.71	24.75	-38.3	-39.0	24.7	0.00e+00	0	43	0	1170210816	48	3847
2026-01-24 11:01:37.35	129.43	25.38	-38.1	-38.8	24.9	0.00e+00	0	43	0	1193279488	48	3757
2026-01-24 11:01:41.38	129.14	26.02	-37.8	-38.6	24.6	0.00e+00	0	43	0	1216348160	47	3898
2026-01-24 11:01:45.41	128.83	26.67	-37.9	-38.6	24.6	0.00e+00	0	43	0	1238368256	47	3902
2026-01-24 11:01:49.45	128.51	27.35	-38.0	-38.8	24.5	0.00e+00	0	43	0	1261436928	47	3966
2026-01-24 11:01:53.48	128.17	28.03	-37.7	-38.5	24.7	0.00e+00	0	43	0	1284505600	47	3851
2026-01-24 11:01:57.51	127.82	28.73	-37.6	-38.4	24.8	0.00e+00	0	43	0	1306525696	47	3805
2026-01-24 11:02:01.55	127.45	29.45	-37.6	-38.4	24.8	0.00e+00	0	43	0	1329594368	47	3783
2026-01-24 11:02:05.58	127.07	30.19	-37.6	-38.4	24.8	0.00e+00	0	43	0	1352663040	47	3807
2026-01-24 11:02:09.61	126.67	30.95	-37.3	-38.0	25.1	0.00e+00	0	43	0	1374683136	46	3861
2026-01-24 11:02:13.65	126.24	31.72	-37.2	-37.9	25.2	0.00e+00	0	43	0	1397751808	46	3818
2026-01-24 11:02:17.68	125.80	32.51	-37.4	-38.1	25.5	0.00e+00	0	43	0	1420820480	46	3884
2026-01-24 11:02:21.71	125.33	33.32	-37.2	-37.9	25.7	0.00e+00	0	43	0	1442840576	46	3801
2026-01-24 11:02:25.74	124.84	34.15	-37.3	-37.9	25.7	0.00e+00	0	43	0	1464860672	46	3822
2026-01-24 11:02:29.77	124.32	35.00	-37.2	-37.9	25.7	0.00e+00	0	43	0	1487929344	46	3784
2026-01-24 11:02:33.81	123.77	35.87	-37.1	-37.8	25.8	0.00e+00	0	43	0	1510998016	46	3738
2026-01-24 11:02:37.84	123.19	36.77	-37.3	-38.0	25.7	0.00e+00	0	43	0	1533018112	46	3838
2026-01-24 11:02:41.87	122.57	37.68	-37.4	-38.1	25.6	0.00e+00	0	43	0	1556086784	46	3886
2026-01-24 11:02:45.90	121.92	38.61	-37.5	-38.2	25.4	0.00e+00	0	43	0	1579155456	46	3932
2026-01-24 11:02:49.94	121.23	39.57	-37.4	-38.2	25.5	0.00e+00	0	43	0	1601175552	46	3920
2026-01-24 11:02:53.97	120.50	40.55	-37.6	-38.3	25.4	0.00e+00	0	43	0	1624244224	46	4002
2026-01-24 11:02:58.00	119.72	41.55	-37.7	-38.4	25.4	0.00e+00	0	43	0	1647312896	46	4018
2026-01-24 11:03:02.03	118.89	42.57	-37.8	-38.6	25.2	0.00e+00	0	43	0	1669332992	46	4107
2026-01-24 11:03:06.06	118.00	43.61	-37.9	-38.6	25.1	0.00e+00	0	43	0	1692401664	46	4134
2026-01-24 11:03:10.09	117.05	44.67	-38.1	-38.8	25.0	0.00e+00	0	43	0	1715470336	46	4216
2026-01-24 11:03:14.13	116.03	45.76	-37.6	-38.3	25.3	0.00e+00	0	43	0	1737490432	46	4004
2026-01-24 11:03:18.16	114.95	46.86	-38.0	-38.8	25.0	0.00e+00	0	43	0	1760559104	46	4194
2026-01-24 11:03:22.20	113.77	47.98	-38.1	-38.8	24.9	0.00e+00	0	43	0	1783627776	47	3997
2026-01-24 11:03:26.23	112.51	49.11	-38.5	-39.2	24.6	0.00e+00	0	43	0	1805647872	47	4190
2026-01-24 11:03:30.27	111.15	50.26	-39.2	-40.0	24.4	0.00e+00	0	43	0	1828716544	49	4070
2026-01-24 11:03:34.30	109.69	51.41	-39.1	-39.8	24.7	0.00e+00	0	43	0	1850736640	49	3973
2026-01-24 11:03:38.34	108.10	52.58	-38.7	-39.4	25.0	0.00e+00	0	43	0	1873805312	49	3784
2026-01-24 11:03:42.37	106.39	53.75	-39.0	-39.7	24.7	0.00e+00	0	43	0	1896873984	48	4188
2026-01-24 11:03:46.41	104.52	54.91	-38.5	-39.2	25.2	0.00e+00	0	43	0	1918894080	48	3939
2026-01-24 11:03:50.44	102.50	56.07	-39.2	-39.9	24.9	0.00e+00	0	43	0	1941962752	48	4287
2026-01-24 11:03:54.47	100.31	57.21	-38.8	-39.5	25.1	0.00e+00	0	43	0	1965031424	49	3864
2026-01-24 11:03:58.51	97.92	58.33	-38.9	-39.6	25.0	0.00e+00	0	43	0	1987051520	49	3887
2026-01-24 11:04:02.54	95.32	59.42	-38.7	-39.4	25.1	0.00e+00	0	43	0	2010120192	49	3814
2026-01-24 11:04:06.58	92.50	60.48	-38.6	-39.2	25.3	0.00e+00	0	43	0	2033188864	49	3729
2026-01-24 11:04:10.62	89.44	61.48	-38.3	-39.0	25.5	0.00e+00	0	43	0	2055208960	48	3837
2026-01-24 11:04:14.64	86.14	62.41	-37.8	-38.5	25.5	0.00e+00	0	43	0	2078277632	47	3858
2026-01-24 11:04:18.68	82.58	63.27	-37.3	-38.0	25.9	0.00e+00	0	43	0	2101346304	45	4073
2026-01-24 11:04:22.71	78.76	64.05	-37.2	-37.9	25.9	0.00e+00	0	43	0	2123366400	45	4045
2026-01-24 11:04:26.74	74.70	64.71	-36.7	-37.4	26.4	0.00e+00	0	43	0	2146435072	44	4027
2026-01-24 11:04:30.78	70.41	65.27	-36.7	-37.3	26.4	0.00e+00	0	43	0	2169503744	44	3999
2026-01-24 11:04:34.81	65.93	65.69	-36.7	-37.4	26.4	0.00e+00	0	43	0	2191523840	44	4038
2026-01-24 11:04:38.85	61.30	65.98	-36.1	-36.8	26.9	0.00e+00	0	43	0	2213543936	44	3752
2026-01-24 11:04:42.88	56.59	66.12	-36.6	-37.2	26.6	0.00e+00	0	43	0	2236612608	44	3949
2026-01-24 11:04:46.91	51.84	66.11	-36.6	-37.3	26.5	0.00e+00	0	43	0	2259681280	44	3971
2026-01-24 11:04:50.95	47.12	65.95	-36.3	-37.0	26.8	0.00e+00	0	43	0	2281701376	44	3833
2026-01-24 11:04:54.98	42.51	65.65	-36.3	-36.9	26.8	0.00e+00	0	43	0	2304770048	44	3813
2026-01-24 11:04:59.01	38.06	65.22	-36.6	-37.3	26.4	0.00e+00	0	43	0	2327838720	44	3989
2026-01-24 11:05:03.05	33.79	64.65	-37.3	-37.9	25.9	0.00e+00	0	43	0	2349858816	45	4045
2026-01-24 11:05:07.08	29.76	63.97	-37.1	-37.8	26.1	0.00e+00	0	43	0	2372927488	45	3992
2026-01-24 11:05:11.11	25.97	63.19	-36.9	-37.6	26.3	0.00e+00	0	43	0	2395996160	45	3875
2026-01-24 11:05:15.15	22.44	62.32	-37.4	-38.0	25.8	0.00e+00	0	43	0	2418016256	46	3867
2026-01-24 11:05:19.18	19.17	61.38	-37.2	-37.9	26.0	0.00e+00	0	43	0	2441084928	46	3807
2026-01-24 11:05:23.21	16.14	60.37	-37.8	-38.6	25.4	0.00e+00	0	43	0	2464153600	46	4103
2026-01-24 11:05:27.25	13.34	59.32	-37.9	-38.6	25.5	0.00e+00	0	43	0	2486173696	46	4110
2026-01-24 11:05:31.28	10.78	58.23	-37.7	-38.4	25.6	0.00e+00	0	43	0	2509242368	46	4022
2026-01-24 11:05:35.32	8.41	57.10	-38.4	-39.1	24.9	0.00e+00	0	43	0	2532311040	47	4123
2026-01-24 11:05:39.35	6.23	55.96	-37.9	-38.6	25.3	0.00e+00	0	43	0	2554331136	47	3908
2026-01-24 11:05:43.38	4.23	54.81	-38.6	-39.3	24.9	0.00e+00	0	43	0	2577399808	47	4239
2026-01-24 11:05:47.41	2.39	53.65	-38.5	-39.2	24.9	0.00e+00	0	43	0	2599419904	47	4163
2026-01-24 11:05:51.45	0.69	52.48	-38.6	-39.3	25.4	0.00e+00	0	43	0	2622488576	49	3763
2026-01-24 11:05:55.48	359.12	51.32	-38.3	-38.9	25.6	0.00e+00	0	43	0	2645557248	48	3820
2026-01-24 11:05:59.51	357.67	50.17	-38.1	-38.8	25.7	0.00e+00	0	43	0	2667577344	48	3762
2026-01-24 11:06:03.55	356.32	49.02	-37.6	-38.3	25.6	0.00e+00	0	43	0	2690646016	46	3991
2026-01-24 11:06:07.58	355.07	47.90	-37.5	-38.2	25.7	0.00e+00	0	43	0	2713714688	46	3942
2026-01-24 11:06:11.61	353.91	46.78	-37.3	-38.0	25.9	0.00e+00	0	42	0	2735734784	46	3831
2026-01-24 11:06:15.64	352.83	45.69	-37.1	-37.7	26.0	0.00e+00	0	43	0	2758803456	46	3732
2026-01-24 11:06:19.67	351.83	44.61	-37.4	-38.1	25.7	0.00e+00	0	43	0	2781872128	46	3893
2026-01-24 11:06:23.70	350.89	43.55	-37.3	-38.0	25.8	0.00e+00	0	43	0	2803892224	46	3864
2026-01-24 11:06:27.74	350.00	42.51	-37.1	-37.8	26.0	0.00e+00	0	42	0	2826960896	46	3746
2026-01-24 11:06:31.77	349.18	41.50	-36.7	-37.4	26.3	0.00e+00	0	43	0	2850029568	45	3790
2026-01-24 11:06:35.81	348.40	40.50	-37.0	-37.7	26.0	0.00e+00	0	43	0	2872049664	45	3931
2026-01-24 11:06:39.84	347.68	39.53	-37.0	-37.7	26.0	0.00e+00	0	43	0	2895118336	45	3948
2026-01-24 11:06:43.87	346.99	38.57	-36.9	-37.5	26.2	0.00e+00	0	43	0	2918187008	45	3862
2026-01-24 11:06:47.90	346.35	37.64	-36.9	-37.6	26.1	0.00e+00	0	43	0	2940207104	45	3874
2026-01-24 11:06:51.93	345.74	36.73	-36.7	-37.4	26.3	0.00e+00	0	43	0	2962227200	45	3786
2026-01-24 11:06:55.96	345.16	35.85	-37.2	-37.9	25.9	0.00e+00	0	43	0	2985295872	45	4015
2026-01-24 11:07:00.00	344.62	34.98	-37.0	-37.7	26.0	0.00e+00	0	43	0	3008364544	45	3924
2026-01-24 11:07:04.03	344.10	34.13	-37.3	-38.0	25.7	0.00e+00	0	43	0	3030384640	45	4096
2026-01-24 11:07:08.07	343.61	33.30	-37.3	-38.0	25.6	0.00e+00	0	43	0	3053453312	45	4092
2026-01-24 11:07:12.10	343.15	32.50	-37.1	-37.8	25.9	0.00e+00	0	43	0	3076521984	45	3966
2026-01-24 11:07:16.14	342.70	31.71	-37.1	-37.8	25.8	0.00e+00	0	42	0	3098542080	45	3963
2026-01-24 11:07:20.17	342.28	30.94	-37.1	-37.7	25.8	0.00e+00	0	43	0	3121610752	45	3957
2026-01-24 11:07:24.21	341.88	30.19	-37.2	-37.9	25.7	0.00e+00	0	43	0	3144679424	45	4039
2026-01-24 11:07:28.24	341.50	29.45	-37.3	-38.0	25.6	0.00e+00	0	43	0	3166699520	45	4083
2026-01-24 11:07:32.27	341.14	28.74	-37.3	-38.0	25.6	0.00e+00	0	43	0	3189768192	45	4097
2026-01-24 11:07:36.31	340.79	28.04	-37.1	-37.8	25.8	0.00e+00	0	43	0	3212836864	45	3981
2026-01-24 11:07:40.35	340.45	27.35	-37.3	-38.0	25.6	0.00e+00	0	43	0	3234856960	45	4063
2026-01-24 11:07:44.38	340.14	26.69	-37.4	-38.1	25.4	0.00e+00	0	43	0	3257925632	45	4142
2026-01-24 11:07:48.41	339.83	26.03	-37.5	-38.2	25.3	0.00e+00	0	43	0	3280994304	45	4192
2026-01-24 11:07:52.44	339.54	25.40	-37.4	-38.1	25.4	0.00e+00	0	43	0	3303014400	45	4134
2026-01-24 11:07:56.48	339.26	24.77	-37.7	-38.4	25.2	0.00e+00	0	43	0	3326083072	45	4260
2026-01-24 11:08:00.52	338.99	24.16	-38.1	-38.8	24.8	0.00e+00	0	43	0	3348103168	46	4217
2026-01-24 11:08:04.55	338.73	23.56	-38.3	-39.0	24.7	0.00e+00	0	43	0	3371171840	47	4077
2026-01-24 11:08:08.58	338.49	22.98	-37.9	-38.7	24.9	0.00e+00	0	43	0	3394240512	47	3926
2026-01-24 11:08:12.61	338.25	22.41	-37.9	-38.6	24.9	0.00e+00	0	43	0	3416260608	47	3912
2026-01-24 11:08:16.65	338.02	21.85	-38.0	-38.8	24.8	0.00e+00	0	43	0	3439329280	47	3961
2026-01-24 11:08:20.68	337.80	21.30	-38.2	-38.9	24.6	0.00e+00	0	43	0	3462397952	47	4043
2026-01-24 11:08:24.71	337.59	20.76	-38.3	-39.1	24.5	0.00e+00	0	43	0	3484418048	47	4107
2026-01-24 11:08:28.74	337.38	20.24	-38.4	-39.2	24.4	0.00e+00	0	43	0	3507486720	47	4153
2026-01-24 11:08:32.77	337.18	19.72	-38.5	-39.2	24.4	0.00e+00	0	43	0	3530555392	47	4164
2026-01-24 11:08:36.80	336.99	19.22	-39.0	-39.7	24.4	0.00e+00	0	43	0	3552575488	48	4185
2026-01-24 11:08:40.84	336.81	18.72	-39.1	-39.8	24.3	0.00e+00	0	43	0	3575644160	48	4205
2026-01-24 11:08:44.87	336.63	18.24	-39.4	-40.1	24.0	0.00e+00	0	43	0	3598712832	49	4145
2026-01-24 11:08:48.90	336.46	17.76	-39.6	-40.4	23.8	0.00e+00	0	43	0	3620732928	49	4249
2026-01-24 11:08:52.93	336.30	17.29	-39.7	-40.4	23.7	0.00e+00	0	43	0	3643801600	50	4051
2026-01-24 11:08:56.97	336.14	16.83	-39.8	-40.6	23.5	0.00e+00	0	43	0	3666870272	50	4117
2026-01-24 11:09:01.00	335.98	16.38	-39.9	-40.7	23.4	0.00e+00	0	43	0	3688890368	50	4158
2026-01-24 11:09:05.03	335.83	15.94	-40.0	-40.8	23.4	0.00e+00	0	43	0	3710910464	50	4199
2026-01-24 11:09:09.07	335.69	15.50	-40.1	-40.9	23.2	0.00e+00	0	43	0	3733979136	50	4260
2026-01-24 11:09:13.10	335.55	15.07	-40.2	-41.0	23.1	0.00e+00	0	43	0	3757047808	51	4091
2026-01-24 11:09:17.13	335.41	14.65	-40.3	-41.1	23.0	0.00e+00	0	43	0	3779067904	51	4118
2026-01-24 11:09:21.17	335.28	14.24	-40.1	-40.9	23.1	0.00e+00	0	43	0	3802136576	51	4044
2026-01-24 11:09:25.20	335.15	13.83	-40.2	-40.9	23.1	0.00e+00	0	43	0	3825205248	51	4051
2026-01-24 11:09:29.23	335.03	13.43	-40.2	-41.0	23.0	0.00e+00	0	43	0	3847225344	51	4059
2026-01-24 11:09:33.27	334.91	13.03	-40.3	-41.1	22.8	0.00e+00	0	43	0	3870294016	51	4125
2026-01-24 11:09:37.30	334.79	12.65	-40.4	-41.2	22.7	0.00e+00	0	43	0	3893362688	51	4178
2026-01-24 11:09:41.33	334.68	12.26	-40.5	-41.3	22.7	0.00e+00	0	43	0	3915382784	51	4194
2026-01-24 11:09:45.37	334.57	11.89	-40.6	-41.4	22.4	0.00e+00	0	43	0	3938451456	52	4040
2026-01-24 11:09:49.40	334.46	11.52	-40.8	-41.6	22.3	0.00e+00	0	43	0	3961520128	52	4111
2026-01-24 11:09:53.43	334.36	11.15	-40.9	-41.7	22.1	0.00e+00	0	43	0	3983540224	52	4182
2026-01-24 11:09:57.47	334.26	10.79	-41.0	-41.9	21.9	0.00e+00	0	43	0	4006608896	52	4256
2026-01-24 11:10:01.50	334.16	10.44	-41.2	-42.1	21.7	0.00e+00	0	43	0	4029677568	52	4357
2026-01-24 11:10:05.54	334.07	10.08	-42.0	-42.9	20.9	0.00e+00	0	43	0	4051697664	54	4260
2026-01-24 11:10:09.57	333.97	9.74	-42.3	-43.2	20.5	0.00e+00	0	43	0	4074766336	55	4190
2026-01-24 11:10:13.61	333.88	9.40	-42.1	-43.1	20.7	0.00e+00	0	43	0	4096786432	55	4102
2026-01-24 11:10:17.64	333.80	9.06	-41.3	-42.1	21.5	0.00e+00	0	43	0	4119855104	54	3901
2026-01-24 11:10:21.68	333.71	8.73	-41.4	-42.3	21.4	0.00e+00	0	43	0	4142923776	54	3986
2026-01-24 11:10:25.71	333.63	8.40	-41.8	-42.7	21.0	0.00e+00	0	43	0	4164943872	54	4155
2026-01-24 11:10:29.75	333.55	8.08	-41.9	-42.8	20.9	0.00e+00	0	43	0	4188012544	54	4205
2026-01-24 11:10:33.78	333.47	7.76	-42.3	-43.2	20.4	0.00e+00	0	43	0	4211081216	55	4171
2026-01-24 11:10:37.82	333.39	7.44	-42.0	-42.9	20.7	0.00e+00	0	43	0	4233101312	55	4027
2026-01-24 11:10:41.85	333.32	7.13	-42.1	-43.1	20.5	0.00e+00	0	43	0	4256169984	55	4118
2026-01-24 11:10:45.88	333.25	6.82	-42.6	-43.6	20.0	0.00e+00	0	43	0	4279238656	55	4363
2026-01-24 11:10:49.91	333.17	6.52	-42.7	-43.7	19.9	0.00e+00	0	43	0	4301258752	56	4181
2026-01-24 11:10:53.95	333.11	6.22	-42.1	-43.0	20.5	0.00e+00	0	43	0	4324327424	56	3856
2026-01-24 11:10:57.98	333.04	5.92	-43.0	-44.1	19.4	0.00e+00	0	43	0	4347396096	56	4352
2026-01-24 11:11:02.01	332.97	5.63	-42.6	-43.6	19.8	0.00e+00	0	43	0	4369416192	56	4134
2026-01-24 11:11:06.05	332.91	5.34	-43.3	-44.4	18.9	0.00e+00	0	43	0	4392484864	57	4276
2026-01-24 11:11:10.08	332.85	5.05	-42.8	-43.9	19.4	0.00e+00	0	43	0	4415553536	56	4263
2026-01-24 11:11:14.12	332.79	4.76	-53.1	-65.2	3.8	8.46e-01	0	43	104	4418699264	77	14724
2026-01-24 11:11:18.15	332.73	4.48	-53.8	-65.9	3.8	8.48e-01	0	43	104	4418699264	78	15052
2026-01-24 11:11:22.19	332.67	4.20	-54.2	-66.2	3.8	8.46e-01	0	43	104	4418699264	78	15582
2026-01-24 11:11:26.22	332.61	3.93	-54.3	-66.3	3.8	8.48e-01	0	43	104	4418699264	79	14898
2026-01-24 11:11:30.26	332.56	3.65	-54.2	-66.2	3.8	8.45e-01	0	43	104	4418699264	79	14867
2026-01-24 11:11:34.29	332.51	3.38	-54.1	-66.1	3.8	8.45e-01	0	43	104	4418699264	79	14621
2026-01-24 11:11:38.32	332.45	3.11	-54.1	-66.1	3.8	8.46e-01	0	43	104	4418699264	79	14572
2026-01-24 11:11:42.35	332.40	2.85	-54.0	-66.0	3.8	8.46e-01	0	43	104	4418699264	79	14451
2026-01-24 11:11:46.38	332.35	2.59	-54.0	-66.0	3.8	8.45e-01	0	43	104	4418699264	79	14423
2026-01-24 11:11:50.41	332.30	2.33	-53.9	-65.9	3.8	8.46e-01	0	44	104	4418699264	79	14320
2026-01-24 11:11:54.45	332.26	2.07	-53.9	-65.9	3.8	8.45e-01	0	43	104	4418699264	79	14275

#Closed at: 2026-01-24 11:11:56
#Recorded file [4418 MB]: D:/lorett/data/31041_260124_135735.dat