passes_logs/2026/01/24/R3.2S_Murmansk/R3.2S_Murmansk__20260124_073937_FENGYUN_3D_rec.log

#Pass ID: 20260124_073937_FENGYUN 3D
#Satellite: FENGYUN 3D
#Configuration: FENGYUN 3D
#almurnet v.1.7.20251203
#Start time: 2026-01-24 07:39:38

#Version: 2.2.20231116
#Station: R3.2S_Murmansk
#Location: 33.079688 lon 68.888172 lat
#TLE: 1 43010U 17072A   26023.60174628  .00000324  00000+0  17481-3 0  9994
#TLE: 2 43010  98.9958 355.5514 0002482  93.7422 266.4037 14.19699955424476

#Time	Az	El	Level	Level2	SNR	BER	BlckErr	Temp	State	Recorded	gain1	gain2
2026-01-24 07:39:38.39	69.22	2.03	-51.9	-63.8	3.8	8.46e-01	0	42	0	0	75	14124
2026-01-24 07:39:42.43	68.96	2.26	-51.9	-63.8	3.8	8.46e-01	0	42	104	0	74	14911
2026-01-24 07:39:46.46	68.71	2.49	-51.8	-63.8	3.8	8.46e-01	0	42	104	0	74	14949
2026-01-24 07:39:50.49	68.45	2.72	-51.8	-63.7	3.8	8.46e-01	0	42	104	0	74	14873
2026-01-24 07:39:54.52	68.18	2.96	-51.8	-63.8	3.8	8.46e-01	0	42	104	0	74	14900
2026-01-24 07:39:58.55	67.91	3.20	-51.8	-63.6	3.8	8.47e-01	0	42	104	0	74	14663
2026-01-24 07:40:02.58	67.64	3.43	-51.8	-63.6	3.8	8.46e-01	0	42	104	0	74	14683
2026-01-24 07:40:06.62	67.36	3.67	-51.8	-63.7	3.8	8.46e-01	0	42	104	0	74	14778
2026-01-24 07:40:10.65	67.08	3.91	-51.8	-63.7	3.8	8.46e-01	0	42	104	0	74	14778
2026-01-24 07:40:14.69	66.79	4.16	-51.7	-62.0	3.8	8.45e-01	0	42	104	0	74	12218
2026-01-24 07:40:18.72	66.49	4.40	-51.4	-59.5	4.4	8.26e-01	0	43	0	0	74	9150
2026-01-24 07:40:22.76	66.19	4.65	-51.2	-58.5	4.9	8.19e-01	0	42	0	0	74	8116
2026-01-24 07:40:26.79	65.89	4.89	-48.9	-52.1	10.5	6.37e-03	0	43	0	18874368	69	5218
2026-01-24 07:40:30.82	65.58	5.14	-44.3	-45.5	17.8	8.00e-06	0	43	0	41943040	59	4305
2026-01-24 07:40:34.86	65.27	5.39	-43.6	-44.7	18.6	0.00e+00	0	43	0	55574528	59	3952
2026-01-24 07:40:38.90	64.94	5.64	-44.0	-45.2	18.2	0.00e+00	0	43	0	78643200	59	4158
2026-01-24 07:40:42.93	64.62	5.90	-43.4	-44.6	18.8	0.00e+00	0	43	0	101711872	57	4348
2026-01-24 07:40:46.96	64.28	6.15	-43.1	-44.2	19.2	0.00e+00	0	43	0	123731968	57	4157
2026-01-24 07:40:50.99	63.95	6.41	-42.9	-43.9	19.5	0.00e+00	0	43	0	146800640	57	4045
2026-01-24 07:40:55.03	63.60	6.66	-42.7	-43.7	19.8	0.00e+00	0	43	0	169869312	57	3920
2026-01-24 07:40:59.06	63.25	6.92	-43.0	-44.1	19.5	0.00e+00	0	43	0	191889408	57	4109
2026-01-24 07:41:03.09	62.89	7.18	-43.1	-44.1	19.4	0.00e+00	0	43	0	214958080	57	4129
2026-01-24 07:41:07.13	62.53	7.45	-42.6	-43.6	20.0	0.00e+00	0	43	0	238026752	57	3893
2026-01-24 07:41:11.16	62.15	7.71	-42.8	-43.8	19.8	0.00e+00	0	43	0	260046848	57	3974
2026-01-24 07:41:15.19	61.78	7.97	-42.5	-43.5	20.1	0.00e+00	0	43	0	283115520	56	4084
2026-01-24 07:41:19.23	61.39	8.24	-42.4	-43.4	20.3	0.00e+00	0	43	0	306184192	56	4007
2026-01-24 07:41:23.27	60.99	8.51	-41.7	-42.6	21.0	0.00e+00	0	43	0	328204288	55	3902
2026-01-24 07:41:27.30	60.59	8.78	-42.0	-42.9	20.7	0.00e+00	0	43	0	351272960	55	4048
2026-01-24 07:41:31.33	60.19	9.05	-42.2	-43.1	20.5	0.00e+00	0	43	0	373293056	55	4129
2026-01-24 07:41:35.37	59.77	9.33	-42.2	-43.1	20.5	0.00e+00	0	43	0	396361728	55	4135
2026-01-24 07:41:39.40	59.34	9.60	-42.1	-43.0	20.6	0.00e+00	0	43	0	419430400	55	4096
2026-01-24 07:41:43.43	58.91	9.88	-41.8	-42.7	21.0	0.00e+00	0	43	0	441450496	55	3940
2026-01-24 07:41:47.46	58.47	10.15	-42.1	-43.0	20.7	0.00e+00	0	43	0	464519168	55	4078
2026-01-24 07:41:51.50	58.02	10.43	-42.0	-42.9	20.8	0.00e+00	0	43	0	487587840	55	4025
2026-01-24 07:41:55.54	57.56	10.71	-41.7	-42.6	21.1	0.00e+00	0	43	0	509607936	55	3909
2026-01-24 07:41:59.58	57.09	11.00	-41.5	-42.4	21.4	0.00e+00	0	43	0	532676608	54	4014
2026-01-24 07:42:03.61	56.61	11.28	-41.5	-42.4	21.4	0.00e+00	0	43	0	555745280	54	4013
2026-01-24 07:42:07.64	56.12	11.56	-41.4	-42.2	21.5	0.00e+00	0	43	0	577765376	54	3952
2026-01-24 07:42:11.67	55.63	11.85	-41.2	-42.0	21.8	0.00e+00	0	43	0	600834048	54	3847
2026-01-24 07:42:15.70	55.12	12.13	-41.3	-42.1	21.7	0.00e+00	0	43	0	623902720	54	3905
2026-01-24 07:42:19.73	54.60	12.42	-41.1	-41.9	21.9	0.00e+00	0	43	0	645922816	54	3819
2026-01-24 07:42:23.77	54.07	12.71	-41.1	-42.0	21.8	0.00e+00	0	43	0	668991488	53	4072
2026-01-24 07:42:27.80	53.54	13.00	-40.9	-41.7	22.2	0.00e+00	0	43	0	692060160	53	3940
2026-01-24 07:42:31.83	52.99	13.29	-40.8	-41.6	22.3	0.00e+00	0	43	0	714080256	53	3900
2026-01-24 07:42:35.86	52.43	13.58	-40.6	-41.4	22.5	0.00e+00	0	43	0	736100352	53	3811
2026-01-24 07:42:39.89	51.85	13.87	-40.5	-41.4	22.5	0.00e+00	0	43	0	759169024	53	3786
2026-01-24 07:42:43.92	51.27	14.17	-40.7	-41.5	22.4	0.00e+00	0	43	0	782237696	52	4088
2026-01-24 07:42:47.95	50.68	14.46	-40.3	-41.1	22.7	0.00e+00	0	43	0	804257792	52	3904
2026-01-24 07:42:51.98	50.07	14.75	-40.4	-41.2	22.6	0.00e+00	0	43	0	827326464	52	3956
2026-01-24 07:42:56.01	49.45	15.05	-40.3	-41.1	22.8	0.00e+00	0	43	0	850395136	52	3897
2026-01-24 07:43:00.05	48.81	15.34	-40.1	-40.9	23.0	0.00e+00	0	43	0	872415232	52	3816
2026-01-24 07:43:04.08	48.17	15.63	-40.1	-40.9	23.0	0.00e+00	0	43	0	895483904	52	3815
2026-01-24 07:43:08.11	47.51	15.93	-40.2	-41.0	22.9	0.00e+00	0	43	0	918552576	52	3840
2026-01-24 07:43:12.15	46.84	16.22	-40.0	-40.8	23.1	0.00e+00	0	43	0	940572672	52	3764
2026-01-24 07:43:16.18	46.15	16.51	-40.3	-41.1	22.9	0.00e+00	0	43	0	963641344	51	4118
2026-01-24 07:43:20.21	45.46	16.80	-40.1	-40.9	23.1	0.00e+00	0	43	0	986710016	51	4033
2026-01-24 07:43:24.24	44.74	17.09	-40.1	-40.9	23.2	0.00e+00	0	43	0	1008730112	51	4011
2026-01-24 07:43:28.27	44.02	17.38	-39.8	-40.6	23.4	0.00e+00	0	43	0	1031798784	51	3886
2026-01-24 07:43:32.30	43.28	17.67	-39.7	-40.4	23.6	0.00e+00	0	43	0	1054867456	51	3810
2026-01-24 07:43:36.33	42.52	17.95	-39.7	-40.4	23.6	0.00e+00	0	43	0	1076887552	51	3812
2026-01-24 07:43:40.37	41.75	18.24	-39.4	-40.2	23.8	0.00e+00	0	43	0	1098907648	50	3921
2026-01-24 07:43:44.39	40.97	18.52	-39.3	-40.1	23.9	0.00e+00	0	43	0	1121976320	50	3882
2026-01-24 07:43:48.43	40.17	18.80	-39.1	-39.8	24.2	0.00e+00	0	43	0	1145044992	50	3762
2026-01-24 07:43:52.46	39.36	19.08	-39.0	-39.8	24.2	0.00e+00	0	43	0	1167065088	49	3960
2026-01-24 07:43:56.49	38.53	19.35	-39.2	-39.9	24.1	0.00e+00	0	43	0	1190133760	49	4024
2026-01-24 07:44:00.52	37.68	19.62	-39.0	-39.7	24.3	0.00e+00	0	43	0	1213202432	49	3937
2026-01-24 07:44:04.55	36.82	19.88	-39.0	-39.7	24.3	0.00e+00	0	43	0	1235222528	49	3943
2026-01-24 07:44:08.59	35.95	20.15	-39.0	-39.7	24.3	0.00e+00	0	43	0	1258291200	49	3948
2026-01-24 07:44:12.62	35.06	20.40	-38.8	-39.5	24.5	0.00e+00	0	43	0	1281359872	49	3845
2026-01-24 07:44:16.66	34.15	20.66	-39.0	-39.7	24.4	0.00e+00	0	43	0	1303379968	49	3938
2026-01-24 07:44:20.69	33.23	20.91	-39.1	-39.8	24.4	0.00e+00	0	43	0	1326448640	49	3973
2026-01-24 07:44:24.72	32.30	21.15	-38.9	-39.6	24.5	0.00e+00	0	43	0	1349517312	49	3886
2026-01-24 07:44:28.75	31.35	21.38	-38.7	-39.5	24.6	0.00e+00	0	43	0	1371537408	49	3832
2026-01-24 07:44:32.78	30.39	21.61	-38.7	-39.5	24.6	0.00e+00	0	43	0	1394606080	49	3826
2026-01-24 07:44:36.81	29.41	21.83	-38.7	-39.5	24.7	0.00e+00	0	43	0	1417674752	49	3826
2026-01-24 07:44:40.85	28.42	22.05	-38.6	-39.3	24.8	0.00e+00	0	43	0	1439694848	49	3746
2026-01-24 07:44:44.88	27.41	22.26	-38.7	-39.4	24.7	0.00e+00	0	43	0	1462763520	49	3813
2026-01-24 07:44:48.92	26.39	22.46	-38.3	-39.0	25.0	0.00e+00	0	43	0	1485832192	48	3849
2026-01-24 07:44:52.95	25.36	22.65	-38.3	-39.0	25.0	0.00e+00	0	43	0	1507852288	48	3868
2026-01-24 07:44:56.98	24.32	22.83	-38.3	-39.1	25.0	0.00e+00	0	43	0	1529872384	48	3872
2026-01-24 07:45:01.02	23.26	23.01	-38.4	-39.1	25.0	0.00e+00	0	43	0	1552941056	48	3896
2026-01-24 07:45:05.05	22.19	23.17	-38.1	-38.8	25.3	0.00e+00	0	43	0	1576009728	48	3750
2026-01-24 07:45:09.09	21.11	23.33	-38.3	-39.1	25.0	0.00e+00	0	43	0	1598029824	48	3872
2026-01-24 07:45:13.12	20.02	23.47	-38.4	-39.1	25.0	0.00e+00	0	43	0	1621098496	48	3898
2026-01-24 07:45:17.15	18.92	23.60	-38.4	-39.1	25.0	0.00e+00	0	43	0	1644167168	48	3895
2026-01-24 07:45:21.18	17.81	23.73	-38.1	-38.8	25.3	0.00e+00	0	43	0	1666187264	48	3766
2026-01-24 07:45:25.21	16.70	23.84	-37.6	-38.4	25.2	0.00e+00	0	43	0	1689255936	47	3785
2026-01-24 07:45:29.24	15.57	23.94	-37.4	-38.1	25.4	0.00e+00	0	43	0	1712324608	46	3906
2026-01-24 07:45:33.27	14.44	24.03	-37.7	-38.4	25.1	0.00e+00	0	43	0	1734344704	46	4040
2026-01-24 07:45:37.30	13.30	24.10	-37.7	-38.5	25.1	0.00e+00	0	43	0	1757413376	46	4059
2026-01-24 07:45:41.33	12.16	24.17	-37.6	-38.3	25.2	0.00e+00	0	43	0	1780482048	46	3992
2026-01-24 07:45:45.36	11.02	24.22	-37.4	-38.1	25.4	0.00e+00	0	43	0	1802502144	46	3903
2026-01-24 07:45:49.39	9.87	24.26	-37.4	-38.1	25.4	0.00e+00	0	43	0	1825570816	46	3897
2026-01-24 07:45:53.43	8.71	24.28	-37.7	-38.4	25.2	0.00e+00	0	43	0	1848639488	46	4041
2026-01-24 07:45:57.46	7.56	24.30	-37.5	-38.2	25.3	0.00e+00	0	43	0	1870659584	46	3958
2026-01-24 07:46:01.49	6.40	24.30	-37.5	-38.2	25.3	0.00e+00	0	43	0	1893728256	46	3946
2026-01-24 07:46:05.53	5.25	24.29	-37.4	-38.1	25.4	0.00e+00	0	43	0	1915748352	46	3884
2026-01-24 07:46:09.56	4.09	24.27	-37.5	-38.2	25.3	0.00e+00	0	43	0	1938817024	46	3939
2026-01-24 07:46:13.59	2.94	24.23	-37.6	-38.3	25.2	0.00e+00	0	43	0	1961885696	46	3997
2026-01-24 07:46:17.63	1.79	24.18	-37.6	-38.3	25.2	0.00e+00	0	43	0	1983905792	46	3974
2026-01-24 07:46:21.66	0.65	24.12	-37.5	-38.2	25.3	0.00e+00	0	43	0	2006974464	46	3952
2026-01-24 07:46:25.69	359.51	24.05	-37.6	-38.3	25.2	0.00e+00	0	43	0	2030043136	46	3984
2026-01-24 07:46:29.72	358.38	23.96	-37.2	-37.9	25.5	0.00e+00	0	43	0	2052063232	46	3799
2026-01-24 07:46:33.75	357.25	23.87	-37.5	-38.2	25.3	0.00e+00	0	43	0	2075131904	46	3949
2026-01-24 07:46:37.79	356.13	23.76	-37.5	-38.2	25.3	0.00e+00	0	43	0	2097152000	46	3922
2026-01-24 07:46:41.82	355.02	23.64	-37.8	-38.5	25.2	0.00e+00	0	43	0	2120220672	46	4062
2026-01-24 07:46:45.85	353.92	23.51	-37.6	-38.3	25.2	0.00e+00	0	43	0	2143289344	46	3995
2026-01-24 07:46:49.89	352.83	23.37	-37.4	-38.1	25.4	0.00e+00	0	43	0	2165309440	46	3904
2026-01-24 07:46:53.91	351.75	23.21	-37.5	-38.2	25.3	0.00e+00	0	43	0	2188378112	46	3939
2026-01-24 07:46:57.95	350.67	23.05	-37.7	-38.5	25.1	0.00e+00	0	43	0	2211446784	46	4056
2026-01-24 07:47:01.98	349.61	22.88	-37.7	-38.4	25.2	0.00e+00	0	43	0	2233466880	46	4010
2026-01-24 07:47:06.01	348.57	22.70	-37.6	-38.3	25.2	0.00e+00	0	43	0	2256535552	46	3990
2026-01-24 07:47:10.04	347.53	22.51	-37.7	-38.4	25.1	0.00e+00	0	43	0	2278555648	46	4037
2026-01-24 07:47:14.07	346.51	22.31	-37.8	-38.6	25.0	0.00e+00	0	43	0	2301624320	46	4101
2026-01-24 07:47:18.11	345.50	22.11	-37.9	-38.6	24.9	0.00e+00	0	43	0	2324692992	46	4108
2026-01-24 07:47:22.14	344.51	21.89	-37.8	-38.5	25.0	0.00e+00	0	43	0	2346713088	46	4074
2026-01-24 07:47:26.17	343.52	21.67	-37.7	-38.4	25.1	0.00e+00	0	43	0	2369781760	46	4014
2026-01-24 07:47:30.21	342.56	21.45	-37.6	-38.3	25.2	0.00e+00	0	43	0	2392850432	46	3979
2026-01-24 07:47:34.24	341.60	21.21	-37.8	-38.5	25.0	0.00e+00	0	43	0	2414870528	46	4084
2026-01-24 07:47:38.28	340.66	20.97	-37.9	-38.7	24.8	0.00e+00	0	43	0	2437939200	46	4146
2026-01-24 07:47:42.31	339.74	20.73	-38.3	-39.1	24.5	0.00e+00	0	43	0	2461007872	47	4101
2026-01-24 07:47:46.35	338.83	20.47	-38.2	-38.9	24.6	0.00e+00	0	43	0	2483027968	47	4023
2026-01-24 07:47:50.38	337.94	20.22	-38.1	-38.8	24.7	0.00e+00	0	43	0	2506096640	47	3993
2026-01-24 07:47:54.41	337.06	19.96	-38.5	-39.2	24.3	0.00e+00	0	43	0	2529165312	47	4174
2026-01-24 07:47:58.45	336.20	19.69	-38.6	-39.4	24.2	0.00e+00	0	43	0	2551185408	47	4246
2026-01-24 07:48:02.49	335.35	19.42	-38.9	-39.6	24.4	0.00e+00	0	43	0	2574254080	48	4136
2026-01-24 07:48:06.52	334.52	19.15	-39.1	-39.9	24.2	0.00e+00	0	43	0	2597322752	48	4257
2026-01-24 07:48:10.56	333.70	18.87	-38.9	-39.7	24.4	0.00e+00	0	43	0	2619342848	48	4146
2026-01-24 07:48:14.59	332.89	18.60	-39.0	-39.8	24.3	0.00e+00	0	43	0	2641362944	48	4206
2026-01-24 07:48:18.62	332.11	18.31	-39.0	-39.7	24.4	0.00e+00	0	43	0	2664431616	48	4157
2026-01-24 07:48:22.65	331.33	18.03	-39.1	-39.8	24.2	6.80e-06	0	43	0	2687500288	49	3993
2026-01-24 07:48:26.69	330.57	17.75	-39.1	-39.8	24.2	0.00e+00	0	43	0	2709520384	49	3981
2026-01-24 07:48:30.72	329.83	17.46	-39.0	-39.7	24.3	0.00e+00	0	43	0	2732589056	49	3935
2026-01-24 07:48:34.76	329.10	17.17	-39.0	-39.8	24.2	0.00e+00	0	43	0	2755657728	49	3961
2026-01-24 07:48:38.79	328.38	16.88	-39.1	-39.8	24.1	0.00e+00	0	43	0	2777677824	49	4000
2026-01-24 07:48:42.82	327.68	16.59	-39.5	-40.3	23.7	0.00e+00	0	43	0	2800746496	49	4220
2026-01-24 07:48:46.85	327.00	16.30	-39.6	-40.3	23.7	0.00e+00	0	43	0	2823815168	50	3984
2026-01-24 07:48:50.87	326.32	16.01	-39.8	-40.6	23.4	0.00e+00	0	43	0	2845835264	50	4108
2026-01-24 07:48:54.91	325.66	15.71	-39.7	-40.4	23.6	4.50e-06	0	43	0	2868903936	50	4028
2026-01-24 07:48:58.94	325.01	15.42	-39.6	-40.4	23.6	0.00e+00	0	43	0	2891972608	50	4021
2026-01-24 07:49:02.97	324.38	15.13	-39.8	-40.6	23.4	0.00e+00	0	43	0	2913992704	50	4119
2026-01-24 07:49:07.00	323.75	14.83	-40.0	-40.7	23.2	0.00e+00	0	43	0	2937061376	50	4192
2026-01-24 07:49:11.04	323.14	14.54	-40.2	-41.0	23.0	0.00e+00	0	43	0	2960130048	51	4084
2026-01-24 07:49:15.07	322.55	14.25	-40.5	-41.3	22.6	0.00e+00	0	43	0	2982150144	51	4240
2026-01-24 07:49:19.11	321.96	13.95	-40.1	-40.9	23.1	0.00e+00	0	43	0	3005218816	51	4007
2026-01-24 07:49:23.14	321.38	13.66	-40.3	-41.2	22.8	0.00e+00	0	43	0	3027238912	51	4146
2026-01-24 07:49:27.17	320.82	13.37	-40.5	-41.3	22.7	0.00e+00	0	43	0	3050307584	51	4212
2026-01-24 07:49:31.20	320.27	13.08	-40.3	-41.1	22.8	0.00e+00	0	43	0	3073376256	51	4130
2026-01-24 07:49:35.23	319.73	12.79	-40.5	-41.3	22.6	0.00e+00	0	43	0	3095396352	51	4222
2026-01-24 07:49:39.27	319.20	12.50	-40.6	-41.5	22.5	0.00e+00	0	43	0	3118465024	51	4293
2026-01-24 07:49:43.30	318.68	12.21	-40.7	-41.5	22.3	0.00e+00	0	43	0	3141533696	52	4082
2026-01-24 07:49:47.34	318.17	11.93	-40.8	-41.6	22.2	0.00e+00	0	43	0	3163553792	52	4145
2026-01-24 07:49:51.37	317.67	11.64	-41.0	-41.9	22.0	0.00e+00	0	43	0	3186622464	52	4254
2026-01-24 07:49:55.41	317.18	11.35	-40.9	-41.8	22.1	0.00e+00	0	43	0	3209691136	52	4197
2026-01-24 07:49:59.44	316.70	11.07	-41.2	-42.1	21.8	0.00e+00	0	43	0	3231711232	53	4108
2026-01-24 07:50:03.45	316.23	10.79	-41.2	-42.1	21.7	0.00e+00	0	43	0	3254779904	53	4104
2026-01-24 07:50:07.49	315.77	10.51	-41.2	-42.1	21.7	0.00e+00	0	43	0	3276800000	53	4107
2026-01-24 07:50:11.51	315.32	10.23	-41.1	-42.0	21.7	0.00e+00	0	43	0	3299868672	53	4066
2026-01-24 07:50:15.55	314.87	9.95	-41.3	-42.1	21.6	0.00e+00	0	43	0	3322937344	53	4131
2026-01-24 07:50:19.58	314.44	9.68	-41.5	-42.3	21.4	0.00e+00	0	43	0	3344957440	54	3996
2026-01-24 07:50:23.61	314.01	9.40	-41.7	-42.6	21.1	0.00e+00	0	43	0	3368026112	54	4115
2026-01-24 07:50:27.65	313.59	9.13	-41.9	-42.8	20.9	0.00e+00	0	43	0	3390046208	54	4214
2026-01-24 07:50:31.68	313.18	8.86	-41.5	-42.4	21.3	0.00e+00	0	43	0	3413114880	54	4006
2026-01-24 07:50:35.71	312.78	8.59	-41.6	-42.5	21.1	0.00e+00	0	43	0	3436183552	54	4091
2026-01-24 07:50:39.75	312.38	8.32	-41.8	-42.8	20.9	0.00e+00	0	43	0	3458203648	54	4205
2026-01-24 07:50:43.78	312.00	8.05	-41.8	-42.7	20.8	0.00e+00	0	43	0	3481272320	54	4185
2026-01-24 07:50:47.81	311.62	7.79	-41.9	-42.9	20.7	0.00e+00	0	43	0	3504340992	55	4011
2026-01-24 07:50:51.84	311.24	7.52	-42.3	-43.3	20.2	0.00e+00	0	43	0	3526361088	55	4232
2026-01-24 07:50:55.88	310.88	7.26	-42.2	-43.2	20.4	0.00e+00	0	43	0	3549429760	55	4147
2026-01-24 07:50:59.91	310.52	7.00	-42.5	-43.5	20.1	0.00e+00	0	43	0	3572498432	56	4083
2026-01-24 07:51:03.95	310.16	6.74	-42.6	-43.6	20.0	0.00e+00	0	43	0	3594518528	56	4118
2026-01-24 07:51:07.99	309.82	6.48	-42.2	-43.2	20.3	0.00e+00	0	43	0	3617587200	55	4157
2026-01-24 07:51:12.02	309.48	6.22	-42.3	-43.2	20.2	0.00e+00	0	43	0	3640655872	55	4192
2026-01-24 07:51:16.05	309.14	5.97	-42.4	-43.4	20.0	0.00e+00	0	43	0	3662675968	55	4263
2026-01-24 07:51:20.08	308.82	5.72	-42.8	-43.9	19.6	0.00e+00	0	43	0	3685744640	57	4012
2026-01-24 07:51:24.11	308.49	5.46	-42.9	-43.9	19.5	0.00e+00	0	43	0	3708813312	57	4048
2026-01-24 07:51:28.15	308.18	5.21	-42.5	-43.4	19.9	0.00e+00	0	43	0	3730833408	56	4050
2026-01-24 07:51:32.17	307.87	4.97	-52.3	-64.3	3.8	8.44e-01	0	43	104	3751804928	75	15030
2026-01-24 07:51:36.21	307.56	4.72	-53.4	-65.3	3.8	8.46e-01	0	43	104	3751804928	77	14991
2026-01-24 07:51:40.24	307.26	4.47	-53.8	-65.8	3.8	8.45e-01	0	43	104	3751804928	78	15050
2026-01-24 07:51:44.27	306.97	4.23	-54.2	-66.1	3.8	8.46e-01	0	43	104	3751804928	78	15494
2026-01-24 07:51:48.30	306.68	3.99	-54.3	-66.2	3.8	8.46e-01	0	44	104	3751804928	79	14844
2026-01-24 07:51:52.34	306.39	3.74	-54.3	-66.2	3.8	8.45e-01	0	44	104	3751804928	79	14830
2026-01-24 07:51:56.37	306.11	3.51	-54.2	-66.2	3.8	8.47e-01	0	44	104	3751804928	79	14720
2026-01-24 07:52:00.40	305.84	3.27	-54.0	-66.0	3.8	8.46e-01	0	44	104	3751804928	79	14377
2026-01-24 07:52:04.44	305.57	3.03	-53.9	-65.9	3.8	8.45e-01	0	44	104	3751804928	79	14216
2026-01-24 07:52:08.47	305.30	2.79	-53.9	-65.9	3.8	8.45e-01	0	44	104	3751804928	79	14211
2026-01-24 07:52:12.50	305.04	2.56	-53.8	-65.8	3.8	8.46e-01	0	43	104	3751804928	79	14121
2026-01-24 07:52:16.53	304.78	2.33	-53.8	-65.8	3.8	8.46e-01	0	44	104	3751804928	79	14100
2026-01-24 07:52:20.57	304.53	2.10	-53.7	-65.7	3.8	8.46e-01	0	44	104	3751804928	79	13955

#Closed at: 2026-01-24 07:52:22
#Recorded file [3751 MB]: D:/lorett/data/31041_260124_103938.dat