passes_logs/2026/01/24/R3.2S_Murmansk/R3.2S_Murmansk__20260124_072548_KANOPUS-V_5_rec.log

#Pass ID: 20260124_072548_KANOPUS-V 5
#Satellite: KANOPUS-V 5
#Configuration: KANOPUS-V_8320
#almurnet v.1.7.20251203
#Start time: 2026-01-24 07:25:48

#Version: 2.2.20231116
#Station: R3.2S_Murmansk
#Location: 33.079688 lon 68.888172 lat
#TLE: 1 43876U 18111A   26023.64356892  .00004816  00000+0  20464-3 0  9993
#TLE: 2 43876  97.3677 292.0017 0001813  88.2876 271.8569 15.23520012392780

#Time	Az	El	Level	Level2	SNR	BER	BlckErr	Temp	State	Recorded	gain1	gain2
2026-01-24 07:25:48.89	149.96	2.01	-52.5	-61.3	3.8	7.46e-01	0	42	0	0	76	10033
2026-01-24 07:25:51.91	149.94	2.22	-52.5	-61.3	3.8	7.45e-01	0	42	104	0	76	10015
2026-01-24 07:25:54.93	149.91	2.44	-52.5	-61.3	3.8	7.45e-01	0	42	104	0	76	10030
2026-01-24 07:25:57.96	149.89	2.66	-52.5	-61.3	3.8	7.45e-01	0	42	104	0	76	10001
2026-01-24 07:26:00.99	149.86	2.88	-52.5	-61.3	3.8	7.43e-01	0	42	104	0	76	9987
2026-01-24 07:26:04.01	149.83	3.10	-52.5	-61.3	3.8	7.45e-01	0	43	104	0	76	9977
2026-01-24 07:26:07.04	149.80	3.33	-52.5	-61.2	3.8	7.47e-01	0	43	104	0	76	9931
2026-01-24 07:26:10.06	149.77	3.55	-52.5	-61.2	3.8	7.45e-01	0	42	104	0	76	9933
2026-01-24 07:26:13.09	149.74	3.78	-52.4	-60.8	3.8	7.44e-01	0	43	104	0	76	9462
2026-01-24 07:26:16.11	149.71	4.02	-51.2	-57.0	4.4	7.26e-01	0	43	104	0	74	6828
2026-01-24 07:26:19.13	149.68	4.25	-48.9	-52.4	7.6	6.45e-01	0	43	0	44040192	69	5381
2026-01-24 07:26:22.16	149.65	4.49	-46.4	-49.0	11.0	6.09e-01	0	43	0	90177536	64	4835
2026-01-24 07:26:25.18	149.62	4.73	-45.4	-47.8	12.3	6.04e-01	0	43	0	136314880	62	4716
2026-01-24 07:26:28.20	149.58	4.97	-46.3	-48.8	11.3	6.04e-01	0	43	0	184549376	63	5041
2026-01-24 07:26:31.23	149.54	5.22	-48.2	-51.3	8.8	6.27e-01	0	43	0	209715200	68	5040
2026-01-24 07:26:34.25	149.51	5.47	-51.6	-58.1	3.9	7.42e-01	0	43	104	253755392	74	7769
2026-01-24 07:26:37.28	149.47	5.72	-45.6	-47.9	12.4	6.02e-01	0	43	0	291504128	61	5057
2026-01-24 07:26:40.31	149.43	5.98	-44.7	-46.9	13.5	5.99e-01	0	43	0	339738624	61	4507
2026-01-24 07:26:43.33	149.39	6.24	-44.6	-46.8	13.7	5.99e-01	0	43	0	385875968	61	4445
2026-01-24 07:26:46.36	149.35	6.50	-44.7	-46.9	13.6	6.02e-01	0	43	0	432013312	61	4510
2026-01-24 07:26:49.39	149.31	6.77	-44.6	-46.7	13.8	6.02e-01	0	43	0	478150656	61	4441
2026-01-24 07:26:52.41	149.27	7.04	-44.3	-46.5	14.0	6.02e-01	0	43	0	524288000	60	4549
2026-01-24 07:26:55.44	149.22	7.32	-44.3	-46.4	14.1	6.01e-01	0	43	0	570425344	60	4513
2026-01-24 07:26:58.47	149.18	7.60	-44.0	-46.1	14.5	5.97e-01	0	43	0	616562688	59	4604
2026-01-24 07:27:01.49	149.13	7.88	-44.0	-46.1	14.5	5.99e-01	0	44	0	664797184	59	4604
2026-01-24 07:27:04.52	149.08	8.17	-43.8	-45.8	14.7	5.99e-01	0	43	0	710934528	59	4486
2026-01-24 07:27:07.54	149.03	8.46	-43.7	-45.8	14.8	6.00e-01	0	44	0	757071872	59	4452
2026-01-24 07:27:10.57	148.98	8.76	-43.5	-45.6	14.9	5.99e-01	0	43	0	803209216	58	4640
2026-01-24 07:27:13.60	148.92	9.06	-43.4	-45.5	15.0	5.98e-01	0	44	0	851443712	58	4590
2026-01-24 07:27:16.62	148.87	9.36	-43.5	-45.6	15.0	5.99e-01	0	43	0	897581056	58	4603
2026-01-24 07:27:19.65	148.81	9.68	-43.1	-45.2	15.4	5.98e-01	0	44	0	943718400	57	4675
2026-01-24 07:27:22.68	148.75	9.99	-42.9	-44.9	15.6	6.00e-01	0	44	0	989855744	57	4544
2026-01-24 07:27:25.70	148.69	10.31	-42.9	-45.0	15.5	6.01e-01	0	43	0	1035993088	57	4564
2026-01-24 07:27:28.72	148.63	10.64	-42.8	-44.8	15.7	6.00e-01	0	44	0	1082130432	57	4485
2026-01-24 07:27:31.75	148.57	10.98	-42.6	-44.6	15.8	5.99e-01	0	44	0	1128267776	56	4628
2026-01-24 07:27:34.77	148.50	11.31	-42.5	-44.5	16.0	5.99e-01	0	44	0	1174405120	56	4595
2026-01-24 07:27:37.79	148.43	11.66	-42.3	-44.3	16.2	6.04e-01	0	44	0	1222639616	56	4472
2026-01-24 07:27:40.81	148.36	12.01	-42.2	-44.2	16.2	5.99e-01	0	44	0	1268776960	56	4441
2026-01-24 07:27:43.84	148.29	12.37	-42.1	-44.1	16.4	5.99e-01	0	44	0	1314914304	56	4372
2026-01-24 07:27:46.86	148.21	12.74	-42.2	-44.2	16.5	5.99e-01	0	44	0	1361051648	55	4654
2026-01-24 07:27:49.89	148.13	13.11	-41.9	-43.9	16.7	5.99e-01	0	44	0	1407188992	55	4522
2026-01-24 07:27:52.92	148.05	13.50	-41.9	-43.9	16.8	5.97e-01	0	44	0	1455423488	55	4496
2026-01-24 07:27:55.94	147.97	13.89	-41.8	-43.7	16.9	5.98e-01	0	44	0	1501560832	55	4407
2026-01-24 07:27:58.97	147.88	14.28	-41.6	-43.5	17.1	5.99e-01	0	44	0	1547698176	55	4313
2026-01-24 07:28:01.99	147.79	14.69	-41.4	-43.2	17.3	5.96e-01	0	44	0	1593835520	54	4440
2026-01-24 07:28:05.02	147.69	15.11	-41.2	-43.0	17.5	5.96e-01	0	44	0	1639972864	54	4294
2026-01-24 07:28:08.04	147.59	15.53	-41.1	-42.8	17.6	5.97e-01	0	44	0	1686110208	54	4227
2026-01-24 07:28:11.07	147.49	15.97	-40.9	-42.6	17.7	5.91e-01	0	43	0	1732247552	53	4389
2026-01-24 07:28:14.09	147.39	16.41	-40.7	-42.5	17.8	5.96e-01	0	44	0	1778384896	53	4311
2026-01-24 07:28:17.11	147.28	16.87	-40.7	-42.5	17.8	5.97e-01	0	44	0	1826619392	53	4326
2026-01-24 07:28:20.14	147.16	17.34	-40.6	-42.5	17.8	5.99e-01	0	44	0	1872756736	53	4315
2026-01-24 07:28:23.16	147.05	17.81	-40.5	-42.4	17.8	6.01e-01	0	44	0	1918894080	53	4278
2026-01-24 07:28:26.19	146.92	18.31	-40.4	-42.3	18.0	6.02e-01	0	44	0	1965031424	52	4489
2026-01-24 07:28:29.22	146.79	18.81	-40.3	-42.2	18.0	6.00e-01	0	44	0	2011168768	52	4423
2026-01-24 07:28:32.25	146.66	19.33	-40.2	-42.1	18.2	5.99e-01	0	44	0	2057306112	52	4349
2026-01-24 07:28:35.27	146.52	19.86	-40.2	-42.0	18.2	6.03e-01	0	44	0	2103443456	52	4332
2026-01-24 07:28:38.30	146.37	20.40	-40.1	-41.9	18.4	6.02e-01	0	44	0	2151677952	52	4254
2026-01-24 07:28:41.32	146.22	20.96	-40.0	-41.7	18.5	6.03e-01	0	44	0	2197815296	52	4174
2026-01-24 07:28:44.35	146.06	21.54	-39.8	-41.5	18.7	6.02e-01	0	44	0	2243952640	51	4310
2026-01-24 07:28:47.37	145.89	22.13	-39.8	-41.5	18.6	5.99e-01	0	44	0	2290089984	51	4308
2026-01-24 07:28:50.40	145.72	22.75	-39.6	-41.2	18.8	6.01e-01	0	44	0	2338324480	51	4182
2026-01-24 07:28:53.43	145.53	23.38	-39.5	-41.2	18.9	6.02e-01	0	44	0	2384461824	50	4402
2026-01-24 07:28:56.45	145.34	24.02	-39.7	-41.5	18.7	5.95e-01	0	44	0	2430599168	50	4549
2026-01-24 07:28:59.48	145.14	24.69	-39.8	-41.7	18.5	5.98e-01	0	44	0	2476736512	50	4700
2026-01-24 07:29:02.50	144.93	25.38	-39.9	-41.8	18.5	6.00e-01	0	44	0	2522873856	50	4751
2026-01-24 07:29:05.53	144.70	26.09	-39.9	-41.7	18.6	5.97e-01	0	44	0	2569011200	50	4654
2026-01-24 07:29:08.55	144.46	26.83	-39.7	-41.4	18.8	6.02e-01	0	44	0	2615148544	50	4540
2026-01-24 07:29:11.57	144.22	27.58	-39.7	-41.4	18.8	5.99e-01	0	44	0	2661285888	50	4534
2026-01-24 07:29:14.60	143.95	28.37	-39.9	-41.8	18.6	6.00e-01	0	44	0	2709520384	50	4713
2026-01-24 07:29:17.62	143.67	29.18	-40.1	-42.0	18.5	5.82e-01	0	44	0	2755657728	50	4836
2026-01-24 07:29:20.65	143.38	30.02	-40.1	-42.0	18.6	5.81e-01	0	44	0	2801795072	51	4563
2026-01-24 07:29:23.67	143.06	30.89	-40.0	-41.9	18.5	5.81e-01	0	44	0	2847932416	51	4537
2026-01-24 07:29:26.70	142.73	31.79	-39.9	-41.9	18.6	5.83e-01	0	44	0	2896166912	51	4520
2026-01-24 07:29:29.72	142.38	32.72	-40.0	-42.1	18.5	5.83e-01	0	44	0	2942304256	51	4623
2026-01-24 07:29:32.74	142.00	33.68	-54.2	-63.2	3.8	7.45e-01	0	44	104	2975858688	79	10443
2026-01-24 07:29:35.76	141.60	34.68	-54.3	-63.1	3.8	7.44e-01	0	44	104	2975858688	79	10379
2026-01-24 07:29:38.79	141.16	35.72	-54.4	-63.2	3.8	7.45e-01	0	44	104	2975858688	79	10453
2026-01-24 07:29:41.81	140.70	36.79	-54.4	-63.2	3.8	7.44e-01	0	44	104	2975858688	79	10453
2026-01-24 07:29:44.84	140.20	37.91	-54.3	-63.2	3.8	7.46e-01	0	44	104	2975858688	79	10421
2026-01-24 07:29:47.86	139.66	39.07	-54.4	-63.2	3.8	7.44e-01	0	44	104	2975858688	79	10477
2026-01-24 07:29:50.88	139.08	40.27	-54.4	-63.2	3.8	7.44e-01	0	44	104	2975858688	79	10489
2026-01-24 07:29:53.91	138.45	41.51	-54.4	-63.3	3.8	7.44e-01	0	44	104	2975858688	79	10536
2026-01-24 07:29:56.93	137.77	42.80	-54.4	-63.2	3.8	7.46e-01	0	44	104	2975858688	79	10516
2026-01-24 07:29:59.96	137.02	44.14	-54.4	-63.3	3.8	7.46e-01	0	44	104	2975858688	79	10537
2026-01-24 07:30:02.98	136.21	45.52	-54.5	-63.3	3.8	7.46e-01	0	44	104	2975858688	79	10595
2026-01-24 07:30:06.00	135.32	46.95	-54.5	-63.3	3.8	7.45e-01	0	44	104	2975858688	79	10597
2026-01-24 07:30:09.03	134.33	48.44	-54.5	-63.3	3.8	7.47e-01	0	44	104	2975858688	79	10590
2026-01-24 07:30:12.05	133.24	49.96	-54.5	-63.3	3.8	7.45e-01	0	44	104	2975858688	79	10613
2026-01-24 07:30:15.07	132.03	51.54	-54.5	-63.3	3.8	7.45e-01	0	44	104	2975858688	79	10644
2026-01-24 07:30:18.10	130.67	53.16	-54.5	-63.3	3.8	7.46e-01	0	44	104	2975858688	79	10616
2026-01-24 07:30:21.12	129.15	54.82	-54.5	-63.3	3.8	7.45e-01	0	44	104	2975858688	79	10634
2026-01-24 07:30:24.15	127.43	56.52	-54.5	-63.3	3.8	7.46e-01	0	44	104	2975858688	79	10639
2026-01-24 07:30:27.17	125.49	58.24	-54.5	-63.4	3.8	7.45e-01	0	44	104	2975858688	79	10678
2026-01-24 07:30:30.19	123.27	59.98	-54.6	-63.4	3.8	7.45e-01	0	44	104	2975858688	79	10671
2026-01-24 07:30:33.22	120.71	61.74	-54.6	-63.4	3.8	7.46e-01	0	44	104	2975858688	79	10700
2026-01-24 07:30:36.24	117.76	63.49	-54.5	-63.4	3.8	7.46e-01	0	44	104	2975858688	79	10656
2026-01-24 07:30:39.27	114.32	65.21	-54.6	-63.4	3.8	7.46e-01	0	44	104	2975858688	79	10700
2026-01-24 07:30:42.29	110.33	66.88	-54.6	-63.4	3.8	7.45e-01	0	44	104	2975858688	79	10713
2026-01-24 07:30:45.31	105.67	68.46	-54.6	-63.4	3.8	7.45e-01	0	44	104	2975858688	79	10720
2026-01-24 07:30:48.33	100.23	69.92	-54.6	-63.4	3.8	7.46e-01	0	44	104	2975858688	79	10709
2026-01-24 07:30:51.36	93.90	71.20	-54.6	-63.4	3.8	7.46e-01	0	44	104	2975858688	79	10703
2026-01-24 07:30:54.38	86.71	72.25	-54.6	-63.4	3.8	7.45e-01	0	44	104	2975858688	79	10765
2026-01-24 07:30:57.41	78.67	73.01	-54.7	-63.5	3.8	7.45e-01	0	44	104	2975858688	79	10788
2026-01-24 07:31:00.43	70.05	73.43	-54.6	-63.4	3.8	7.45e-01	0	44	104	2975858688	79	10748
2026-01-24 07:31:03.45	61.17	73.47	-54.7	-63.5	3.8	7.46e-01	0	44	104	2975858688	79	10829
2026-01-24 07:31:06.48	52.42	73.14	-54.7	-63.5	3.8	7.44e-01	0	44	104	2975858688	79	10890
2026-01-24 07:31:09.50	44.23	72.46	-54.7	-63.5	3.8	7.45e-01	0	44	104	2975858688	80	10260
2026-01-24 07:31:12.53	36.81	71.48	-54.7	-63.5	3.8	7.47e-01	0	44	104	2975858688	80	10207
2026-01-24 07:31:15.55	30.29	70.25	-54.7	-63.5	3.8	7.46e-01	0	44	104	2975858688	80	10207
2026-01-24 07:31:18.58	24.63	68.83	-54.7	-63.6	3.8	7.46e-01	0	44	104	2975858688	80	10297
2026-01-24 07:31:21.60	19.79	67.28	-54.7	-63.5	3.8	7.44e-01	0	44	104	2975858688	80	10265
2026-01-24 07:31:24.62	15.65	65.63	-54.7	-63.5	3.8	7.45e-01	0	44	104	2975858688	80	10238
2026-01-24 07:31:27.65	12.09	63.92	-54.7	-63.5	3.8	7.44e-01	0	44	104	2975858688	80	10211
2026-01-24 07:31:30.67	9.03	62.19	-54.7	-63.5	3.8	7.46e-01	0	44	104	2975858688	80	10254
2026-01-24 07:31:33.70	6.39	60.43	-54.7	-63.5	3.8	7.45e-01	0	44	104	2975858688	80	10257
2026-01-24 07:31:36.72	4.09	58.69	-54.7	-63.5	3.8	7.45e-01	0	44	104	2975858688	80	10248
2026-01-24 07:31:39.74	2.09	56.96	-54.6	-63.4	3.8	7.46e-01	0	44	104	2975858688	80	10169
2026-01-24 07:31:42.77	0.32	55.26	-54.7	-63.5	3.8	7.46e-01	0	44	104	2975858688	80	10232
2026-01-24 07:31:45.79	358.75	53.60	-54.6	-63.5	3.8	7.44e-01	0	44	104	2975858688	80	10198
2026-01-24 07:31:48.81	357.36	51.97	-54.6	-63.4	3.8	7.45e-01	0	44	104	2975858688	80	10102
2026-01-24 07:31:51.84	356.12	50.39	-54.6	-63.4	3.8	7.46e-01	0	44	104	2975858688	80	10089
2026-01-24 07:31:54.86	355.00	48.85	-54.6	-63.4	3.8	7.44e-01	0	44	104	2975858688	80	10130
2026-01-24 07:31:57.89	353.99	47.36	-54.6	-63.4	3.8	7.45e-01	0	44	104	2975858688	80	10091
2026-01-24 07:32:00.91	353.08	45.92	-54.5	-63.4	3.8	7.45e-01	0	44	104	2975858688	80	10067
2026-01-24 07:32:03.93	352.24	44.53	-54.5	-63.4	3.8	7.45e-01	0	44	104	2975858688	80	10065
2026-01-24 07:32:06.96	351.48	43.18	-54.6	-63.3	3.8	7.46e-01	0	44	104	2975858688	80	10052
2026-01-24 07:32:09.99	350.78	41.88	-54.5	-63.4	3.8	7.44e-01	0	44	104	2975858688	80	10085
2026-01-24 07:32:13.01	350.14	40.63	-54.5	-63.3	3.8	7.45e-01	0	44	104	2975858688	80	10011
2026-01-24 07:32:16.03	349.55	39.43	-54.5	-63.3	3.8	7.45e-01	0	44	104	2975858688	80	9988
2026-01-24 07:32:19.06	349.00	38.26	-54.5	-63.3	3.8	7.44e-01	0	44	104	2975858688	80	9950
2026-01-24 07:32:22.07	348.50	37.14	-54.5	-63.3	3.8	7.44e-01	0	44	104	2975858688	80	9988
2026-01-24 07:32:25.10	348.03	36.06	-54.4	-63.2	3.8	7.46e-01	0	44	104	2975858688	80	9931
2026-01-24 07:32:28.12	347.59	35.02	-54.4	-63.2	3.8	7.45e-01	0	44	104	2975858688	80	9909
2026-01-24 07:32:31.15	347.18	34.01	-54.4	-63.2	3.8	7.44e-01	0	44	104	2975858688	80	9875
2026-01-24 07:32:34.17	346.80	33.04	-54.4	-63.2	3.8	7.46e-01	0	44	104	2975858688	80	9880
2026-01-24 07:32:37.19	346.44	32.10	-54.3	-63.1	3.8	7.44e-01	0	44	104	2975858688	80	9825
2026-01-24 07:32:40.22	346.10	31.20	-54.3	-63.1	3.8	7.46e-01	0	44	104	2975858688	80	9785
2026-01-24 07:32:43.24	345.78	30.32	-54.3	-63.1	3.8	7.45e-01	0	44	104	2975858688	80	9741
2026-01-24 07:32:46.27	345.48	29.48	-54.3	-63.1	3.8	7.44e-01	0	44	104	2975858688	80	9742
2026-01-24 07:32:49.29	345.20	28.66	-54.2	-63.1	3.8	7.46e-01	0	44	104	2975858688	80	9763
2026-01-24 07:32:52.31	344.93	27.88	-54.2	-63.0	3.8	7.46e-01	0	44	104	2975858688	80	9706
2026-01-24 07:32:55.34	344.68	27.11	-54.2	-63.0	3.8	7.44e-01	0	44	104	2975858688	80	9682
2026-01-24 07:32:58.36	344.44	26.38	-54.2	-63.0	3.8	7.45e-01	0	44	104	2975858688	80	9681
2026-01-24 07:33:01.39	344.22	25.66	-54.2	-63.0	3.8	7.45e-01	0	44	104	2975858688	80	9647
2026-01-24 07:33:04.41	344.00	24.97	-54.1	-62.9	3.8	7.45e-01	0	44	104	2975858688	80	9593
2026-01-24 07:33:07.43	343.80	24.30	-54.1	-62.9	3.8	7.46e-01	0	44	104	2975858688	80	9586
2026-01-24 07:33:10.46	343.60	23.64	-54.1	-62.9	3.8	7.47e-01	0	44	104	2975858688	80	9593
2026-01-24 07:33:13.48	343.42	23.01	-54.1	-62.9	3.8	7.45e-01	0	44	104	2975858688	80	9541
2026-01-24 07:33:16.51	343.24	22.40	-54.1	-62.9	3.8	7.45e-01	0	44	104	2975858688	80	9517
2026-01-24 07:33:19.53	343.08	21.80	-54.0	-62.9	3.8	7.45e-01	0	44	104	2975858688	80	9521
2026-01-24 07:33:22.55	342.91	21.22	-54.0	-62.8	3.8	7.45e-01	0	44	104	2975858688	80	9485
2026-01-24 07:33:25.58	342.76	20.66	-54.0	-62.8	3.8	7.46e-01	0	44	104	2975858688	80	9484
2026-01-24 07:33:28.60	342.61	20.11	-54.0	-62.8	3.8	7.44e-01	0	44	104	2975858688	80	9451
2026-01-24 07:33:31.63	342.47	19.58	-54.0	-62.9	3.8	7.45e-01	0	44	104	2975858688	79	10102
2026-01-24 07:33:34.66	342.34	19.06	-54.0	-62.8	3.8	7.46e-01	0	44	104	2975858688	79	10026
2026-01-24 07:33:37.68	342.21	18.55	-54.0	-62.8	3.8	7.45e-01	0	44	104	2975858688	79	10024
2026-01-24 07:33:40.71	342.09	18.06	-54.0	-62.8	3.8	7.46e-01	0	44	104	2975858688	79	9988
2026-01-24 07:33:43.73	341.97	17.58	-54.0	-62.8	3.8	7.44e-01	0	44	104	2975858688	79	9967
2026-01-24 07:33:46.76	341.85	17.11	-53.9	-62.7	3.8	7.47e-01	0	44	104	2975858688	79	9927
2026-01-24 07:33:49.77	341.74	16.65	-53.9	-62.7	3.8	7.46e-01	0	44	104	2975858688	79	9918
2026-01-24 07:33:52.80	341.64	16.20	-53.9	-62.7	3.8	7.45e-01	0	44	104	2975858688	79	9885
2026-01-24 07:33:55.82	341.54	15.77	-53.9	-62.7	3.8	7.45e-01	0	44	104	2975858688	79	9888
2026-01-24 07:33:58.84	341.44	15.34	-53.8	-62.6	3.8	7.45e-01	0	44	104	2975858688	79	9815
2026-01-24 07:34:01.87	341.35	14.92	-53.8	-62.6	3.8	7.45e-01	0	44	104	2975858688	79	9814
2026-01-24 07:34:04.89	341.25	14.52	-53.8	-62.6	3.8	7.44e-01	0	44	104	2975858688	79	9799
2026-01-24 07:34:07.91	341.17	14.12	-53.8	-62.6	3.8	7.45e-01	0	44	104	2975858688	79	9789
2026-01-24 07:34:10.93	341.08	13.73	-53.7	-62.6	3.8	7.44e-01	0	44	104	2975858688	79	9749
2026-01-24 07:34:13.95	341.00	13.34	-53.7	-62.5	3.8	7.44e-01	0	44	104	2975858688	79	9710
2026-01-24 07:34:16.98	340.92	12.97	-53.7	-62.5	3.8	7.46e-01	0	44	104	2975858688	79	9659
2026-01-24 07:34:20.00	340.85	12.60	-53.7	-62.6	3.8	7.45e-01	0	44	104	2975858688	79	9718
2026-01-24 07:34:23.03	340.78	12.24	-53.6	-62.4	3.8	7.44e-01	0	44	104	2975858688	79	9600
2026-01-24 07:34:26.05	340.71	11.88	-53.6	-62.4	3.8	7.45e-01	0	44	104	2975858688	79	9597
2026-01-24 07:34:29.08	340.64	11.54	-53.6	-62.4	3.8	7.45e-01	0	44	104	2975858688	79	9569
2026-01-24 07:34:32.10	340.57	11.20	-53.6	-62.4	3.8	7.45e-01	0	44	104	2975858688	79	9574
2026-01-24 07:34:35.13	340.51	10.86	-53.5	-62.4	3.8	7.45e-01	0	44	104	2975858688	79	9518
2026-01-24 07:34:38.15	340.45	10.53	-53.5	-62.4	3.8	7.45e-01	0	44	104	2975858688	79	9506
2026-01-24 07:34:41.17	340.39	10.21	-53.5	-62.3	3.8	7.45e-01	0	44	104	2975858688	79	9446
2026-01-24 07:34:44.20	340.33	9.89	-53.5	-62.4	3.8	7.46e-01	0	44	104	2975858688	78	10090
2026-01-24 07:34:47.22	340.27	9.58	-53.4	-62.3	3.8	7.44e-01	0	44	104	2975858688	78	9958
2026-01-24 07:34:50.24	340.22	9.27	-53.4	-62.2	3.8	7.44e-01	0	44	104	2975858688	78	9925
2026-01-24 07:34:53.27	340.17	8.97	-53.4	-62.3	3.8	7.44e-01	0	44	104	2975858688	78	9946
2026-01-24 07:34:56.29	340.12	8.67	-53.4	-62.2	3.8	7.45e-01	0	44	104	2975858688	78	9938
2026-01-24 07:34:59.31	340.07	8.38	-53.3	-62.1	3.8	7.47e-01	0	44	104	2975858688	78	9823
2026-01-24 07:35:02.34	340.02	8.09	-53.3	-62.1	3.8	7.45e-01	0	44	104	2975858688	78	9824
2026-01-24 07:35:05.36	339.97	7.81	-53.3	-62.1	3.8	7.45e-01	0	44	104	2975858688	78	9742
2026-01-24 07:35:08.38	339.93	7.53	-53.3	-62.1	3.8	7.45e-01	0	44	104	2975858688	78	9764
2026-01-24 07:35:11.41	339.88	7.25	-53.2	-62.1	3.8	7.45e-01	0	44	104	2975858688	78	9739
2026-01-24 07:35:14.43	339.84	6.98	-53.1	-62.0	3.8	7.46e-01	0	44	104	2975858688	78	9624
2026-01-24 07:35:17.46	339.80	6.71	-53.1	-62.0	3.8	7.46e-01	0	44	104	2975858688	78	9622
2026-01-24 07:35:20.48	339.76	6.45	-53.1	-62.0	3.8	7.45e-01	0	44	104	2975858688	78	9616
2026-01-24 07:35:23.50	339.72	6.19	-53.1	-61.9	3.8	7.46e-01	0	44	104	2975858688	78	9536
2026-01-24 07:35:26.52	339.69	5.93	-53.0	-61.8	3.8	7.46e-01	0	44	104	2975858688	78	9437
2026-01-24 07:35:29.55	339.65	5.68	-53.0	-61.8	3.8	7.46e-01	0	44	104	2975858688	77	9998
2026-01-24 07:35:32.57	339.61	5.43	-53.0	-61.8	3.8	7.46e-01	0	44	104	2975858688	77	9988
2026-01-24 07:35:35.59	339.58	5.18	-53.0	-61.8	3.8	7.45e-01	0	44	104	2975858688	77	9961
2026-01-24 07:35:38.61	339.55	4.94	-53.4	-62.2	3.8	7.46e-01	0	44	104	2975858688	77	10503
2026-01-24 07:35:41.64	339.52	4.70	-54.1	-62.9	3.8	7.46e-01	0	44	104	2975858688	78	10762
2026-01-24 07:35:44.66	339.48	4.46	-54.5	-63.3	3.8	7.47e-01	0	44	104	2975858688	79	10559
2026-01-24 07:35:47.69	339.45	4.22	-54.7	-63.5	3.8	7.46e-01	0	44	104	2975858688	80	10245
2026-01-24 07:35:50.71	339.42	3.99	-54.8	-63.6	3.8	7.46e-01	0	44	104	2975858688	80	10395
2026-01-24 07:35:53.73	339.40	3.76	-54.9	-63.7	3.8	7.44e-01	0	44	104	2975858688	80	10511
2026-01-24 07:35:56.76	339.37	3.53	-54.9	-63.7	3.8	7.44e-01	0	44	104	2975858688	80	10523
2026-01-24 07:35:59.78	339.34	3.31	-54.9	-63.7	3.8	7.45e-01	0	44	104	2975858688	80	10511
2026-01-24 07:36:02.81	339.32	3.08	-54.8	-63.6	3.8	7.43e-01	0	44	104	2975858688	80	10349
2026-01-24 07:36:05.83	339.29	2.86	-54.7	-63.5	3.8	7.45e-01	0	44	104	2975858688	80	10291
2026-01-24 07:36:08.85	339.27	2.65	-54.7	-63.5	3.8	7.44e-01	0	44	104	2975858688	80	10203
2026-01-24 07:36:11.88	339.24	2.43	-54.6	-63.4	3.8	7.45e-01	0	44	104	2975858688	80	10122
2026-01-24 07:36:14.91	339.22	2.21	-54.5	-63.3	3.8	7.45e-01	0	44	104	2975858688	80	10028
2026-01-24 07:36:17.93	339.20	2.00	-54.5	-63.3	3.8	7.44e-01	0	44	104	2975858688	80	10052

#Closed at: 2026-01-24 07:36:20
#Recorded file [2975 MB]: D:/lorett/data/31041_260124_102548.dat