passes_logs/2026/01/24/R3.2S_Murmansk/R3.2S_Murmansk__20260124_061153_NOAA_21_JPSS-2_rec.log

#Pass ID: 20260124_061153_NOAA 21 (JPSS-2)
#Satellite: NOAA 21 (JPSS-2)
#Configuration: NOAA-21
#almurnet v.1.7.20251203
#Start time: 2026-01-24 06:11:53

#Version: 2.2.20231116
#Station: R3.2S_Murmansk
#Location: 33.079688 lon 68.888172 lat
#TLE: 1 54234U 22150A   26023.61190495  .00000215  00000+0  12293-3 0  9993
#TLE: 2 54234  98.7508 324.4078 0000700 226.6110 133.5008 14.19538339166032

#Time	Az	El	Level	Level2	SNR	BER	BlckErr	Temp	State	Recorded	gain1	gain2
2026-01-24 06:11:53.38	79.40	2.01	-51.8	-64.6	3.8	1.49e+00	0	41	0	0	75	15453
2026-01-24 06:11:57.41	79.16	2.24	-51.8	-64.6	3.8	1.49e+00	0	41	104	0	74	16328
2026-01-24 06:12:01.44	78.92	2.47	-51.8	-64.5	3.8	1.49e+00	0	42	104	0	74	16296
2026-01-24 06:12:05.48	78.67	2.71	-51.8	-64.5	3.8	1.49e+00	0	42	104	0	74	16282
2026-01-24 06:12:09.50	78.41	2.95	-51.8	-64.5	3.8	1.49e+00	0	42	104	0	74	16251
2026-01-24 06:12:13.53	78.15	3.19	-51.8	-64.5	3.8	1.49e+00	0	42	104	0	74	16251
2026-01-24 06:12:17.57	77.89	3.43	-51.8	-64.5	3.8	1.49e+00	0	42	104	0	74	16159
2026-01-24 06:12:21.59	77.62	3.67	-51.8	-64.5	3.8	1.49e+00	0	42	104	0	74	16172
2026-01-24 06:12:25.63	77.35	3.91	-51.8	-64.5	3.8	1.49e+00	0	42	104	0	74	16143
2026-01-24 06:12:29.65	77.07	4.16	-51.7	-63.5	3.8	1.49e+00	0	42	104	0	74	14465
2026-01-24 06:12:33.68	76.79	4.40	-51.5	-61.2	4.1	1.47e+00	0	42	104	0	74	11092
2026-01-24 06:12:37.70	76.51	4.65	-51.5	-61.5	4.1	1.48e+00	0	42	104	0	74	11443
2026-01-24 06:12:41.73	76.21	4.90	-50.0	-54.5	8.8	4.61e-02	0	43	0	7340032	71	6072
2026-01-24 06:12:45.77	75.92	5.15	-46.5	-48.3	15.3	7.00e-07	0	42	0	19922944	65	4207
2026-01-24 06:12:49.80	75.61	5.41	-46.0	-47.7	15.9	0.00e+00	0	43	0	28311552	63	4415
2026-01-24 06:12:53.83	75.31	5.66	-44.8	-46.1	17.5	0.00e+00	0	43	0	40894464	61	4113
2026-01-24 06:12:57.86	74.99	5.92	-45.4	-46.8	16.8	0.00e+00	0	43	0	53477376	61	4469
2026-01-24 06:13:01.89	74.67	6.17	-45.1	-46.5	17.2	0.00e+00	0	43	0	66060288	61	4329
2026-01-24 06:13:05.92	74.35	6.43	-44.6	-45.8	18.0	0.00e+00	0	43	0	78643200	60	4229
2026-01-24 06:13:09.96	74.01	6.70	-44.4	-45.6	18.2	0.00e+00	0	43	0	91226112	60	4141
2026-01-24 06:13:13.99	73.68	6.96	-44.5	-45.8	18.1	0.00e+00	0	43	0	103809024	60	4217
2026-01-24 06:13:18.02	73.33	7.22	-44.2	-45.4	18.5	0.00e+00	0	43	0	116391936	60	4033
2026-01-24 06:13:22.05	72.98	7.49	-44.0	-45.2	18.7	0.00e+00	0	43	0	128974848	60	3915
2026-01-24 06:13:26.08	72.62	7.76	-44.3	-45.4	18.8	0.00e+00	0	43	0	141557760	59	4278
2026-01-24 06:13:30.12	72.26	8.03	-44.1	-45.2	19.1	0.00e+00	0	43	0	154140672	59	4174
2026-01-24 06:13:34.15	71.89	8.30	-44.1	-45.2	19.1	0.00e+00	0	43	0	166723584	59	4162
2026-01-24 06:13:38.18	71.51	8.57	-43.8	-44.9	19.4	0.00e+00	0	43	0	179306496	59	4020
2026-01-24 06:13:42.22	71.12	8.85	-43.7	-44.8	19.5	0.00e+00	0	43	0	191889408	59	3969
2026-01-24 06:13:46.25	70.73	9.13	-43.5	-44.6	19.7	0.00e+00	0	43	0	204472320	59	3875
2026-01-24 06:13:50.28	70.33	9.41	-43.5	-44.5	19.8	0.00e+00	0	43	0	217055232	58	4074
2026-01-24 06:13:54.31	69.92	9.69	-43.3	-44.3	20.0	0.00e+00	0	43	0	230686720	58	3969
2026-01-24 06:13:58.34	69.50	9.97	-43.3	-44.3	20.0	0.00e+00	0	43	0	242221056	58	3984
2026-01-24 06:14:02.38	69.07	10.25	-43.0	-43.9	20.3	0.00e+00	0	43	0	254803968	58	3822
2026-01-24 06:14:06.41	68.64	10.54	-43.0	-44.0	20.3	0.00e+00	0	43	0	268435456	57	4057
2026-01-24 06:14:10.45	68.19	10.83	-43.0	-44.0	20.3	0.00e+00	0	43	0	279969792	57	4059
2026-01-24 06:14:14.48	67.74	11.12	-42.9	-43.8	20.5	0.00e+00	0	43	0	292552704	57	4000
2026-01-24 06:14:18.52	67.27	11.41	-42.8	-43.8	20.6	0.00e+00	0	43	0	306184192	57	3959
2026-01-24 06:14:22.55	66.80	11.70	-43.1	-44.0	20.4	0.00e+00	0	43	0	318767104	57	4086
2026-01-24 06:14:26.58	66.32	11.99	-43.0	-44.0	20.4	0.00e+00	0	43	0	330301440	57	4062
2026-01-24 06:14:30.62	65.83	12.29	-43.0	-43.9	20.5	0.00e+00	0	43	0	343932928	57	4045
2026-01-24 06:14:34.65	65.33	12.58	-42.6	-43.5	20.8	0.00e+00	0	43	0	356515840	57	3860
2026-01-24 06:14:38.68	64.82	12.88	-42.6	-43.5	20.9	0.00e+00	0	43	0	369098752	56	4068
2026-01-24 06:14:42.72	64.29	13.18	-42.7	-43.6	20.8	0.00e+00	0	43	0	381681664	56	4118
2026-01-24 06:14:46.75	63.76	13.48	-42.7	-43.6	20.7	0.00e+00	0	43	0	394264576	56	4143
2026-01-24 06:14:50.78	63.21	13.78	-42.5	-43.4	21.1	0.00e+00	0	43	0	406847488	56	4027
2026-01-24 06:14:54.82	62.66	14.09	-42.6	-43.5	21.0	0.00e+00	0	43	0	419430400	56	4072
2026-01-24 06:14:58.85	62.09	14.39	-42.7	-43.6	20.9	0.00e+00	0	43	0	432013312	56	4121
2026-01-24 06:15:02.89	61.51	14.69	-42.8	-43.7	20.9	0.00e+00	0	43	0	444596224	56	4157
2026-01-24 06:15:06.92	60.91	15.00	-42.9	-43.8	20.8	0.00e+00	0	43	0	457179136	56	4239
2026-01-24 06:15:10.96	60.31	15.31	-43.0	-44.0	20.7	0.00e+00	0	43	0	469762048	56	4297
2026-01-24 06:15:14.99	59.69	15.61	-43.1	-44.0	20.6	0.00e+00	0	43	0	482344960	57	4074
2026-01-24 06:15:19.02	59.06	15.92	-43.0	-43.9	20.7	0.00e+00	0	43	0	494927872	57	4027
2026-01-24 06:15:23.06	58.41	16.23	-43.2	-44.1	20.6	0.00e+00	0	43	0	507510784	57	4132
2026-01-24 06:15:27.09	57.76	16.53	-43.1	-44.0	20.7	0.00e+00	0	43	0	520093696	57	4075
2026-01-24 06:15:31.12	57.09	16.84	-43.0	-43.9	20.8	0.00e+00	0	43	0	532676608	57	4050
2026-01-24 06:15:35.16	56.40	17.15	-42.8	-43.7	21.0	0.00e+00	0	43	0	545259520	57	3937
2026-01-24 06:15:39.19	55.70	17.45	-42.6	-43.5	21.2	0.00e+00	0	43	0	557842432	57	3841
2026-01-24 06:15:43.23	54.99	17.76	-42.4	-43.3	21.4	0.00e+00	0	43	0	570425344	56	3971
2026-01-24 06:15:47.26	54.26	18.06	-42.3	-43.1	21.5	0.00e+00	0	43	0	583008256	56	3898
2026-01-24 06:15:51.29	53.51	18.37	-42.4	-43.2	21.4	0.00e+00	0	43	0	595591168	56	3944
2026-01-24 06:15:55.33	52.75	18.67	-42.7	-43.6	21.2	0.00e+00	0	43	0	608174080	56	4107
2026-01-24 06:15:59.36	51.98	18.97	-42.4	-43.3	21.4	0.00e+00	0	43	0	620756992	56	3974
2026-01-24 06:16:03.40	51.19	19.27	-42.3	-43.2	21.5	0.00e+00	0	43	0	633339904	56	3918
2026-01-24 06:16:07.43	50.38	19.56	-42.1	-42.9	21.7	0.00e+00	0	43	0	645922816	56	3809
2026-01-24 06:16:11.46	49.56	19.86	-42.0	-42.9	21.7	0.00e+00	0	43	0	658505728	56	3789
2026-01-24 06:16:15.50	48.72	20.15	-41.8	-42.7	21.9	0.00e+00	0	43	0	671088640	55	3917
2026-01-24 06:16:19.53	47.87	20.43	-42.1	-42.9	21.7	0.00e+00	0	43	0	683671552	55	4027
2026-01-24 06:16:23.56	47.00	20.72	-41.9	-42.7	21.9	0.00e+00	0	43	0	696254464	55	3955
2026-01-24 06:16:27.60	46.11	21.00	-41.8	-42.7	22.0	0.00e+00	0	43	0	708837376	55	3920
2026-01-24 06:16:31.63	45.21	21.27	-42.0	-42.9	21.7	0.00e+00	0	43	0	721420288	55	4025
2026-01-24 06:16:35.67	44.29	21.54	-41.8	-42.7	21.9	0.00e+00	0	43	0	734003200	55	3921
2026-01-24 06:16:39.70	43.36	21.81	-41.9	-42.8	21.9	0.00e+00	0	43	0	746586112	55	3970
2026-01-24 06:16:43.73	42.41	22.07	-42.0	-42.8	21.8	0.00e+00	0	43	0	759169024	55	3995
2026-01-24 06:16:47.76	41.44	22.32	-41.8	-42.6	22.0	0.00e+00	0	43	0	771751936	55	3911
2026-01-24 06:16:51.80	40.46	22.57	-41.7	-42.5	22.1	0.00e+00	0	43	0	785383424	55	3854
2026-01-24 06:16:55.83	39.46	22.81	-41.9	-42.7	22.0	0.00e+00	0	43	0	796917760	55	3923
2026-01-24 06:16:59.86	38.45	23.04	-41.8	-42.6	21.9	0.00e+00	0	43	0	809500672	55	3896
2026-01-24 06:17:03.90	37.42	23.27	-42.0	-42.8	21.9	0.00e+00	0	43	0	823132160	55	4000
2026-01-24 06:17:07.93	36.37	23.48	-41.8	-42.6	22.1	0.00e+00	0	43	0	834666496	55	3909
2026-01-24 06:17:11.96	35.32	23.69	-41.8	-42.6	22.1	0.00e+00	0	43	0	847249408	55	3885
2026-01-24 06:17:15.99	34.25	23.89	-41.9	-42.7	21.9	0.00e+00	0	43	0	860880896	55	3952
2026-01-24 06:17:20.03	33.16	24.08	-41.9	-42.8	21.9	0.00e+00	0	43	0	873463808	55	3966
2026-01-24 06:17:24.06	32.06	24.26	-42.0	-42.9	21.8	0.00e+00	0	43	0	884998144	55	4008
2026-01-24 06:17:28.09	30.95	24.43	-41.8	-42.6	22.0	0.00e+00	0	43	0	898629632	55	3892
2026-01-24 06:17:32.12	29.83	24.58	-41.7	-42.5	22.2	0.00e+00	0	43	0	911212544	55	3836
2026-01-24 06:17:36.16	28.70	24.73	-41.5	-42.3	22.4	0.00e+00	0	43	0	923795456	54	3959
2026-01-24 06:17:40.20	27.55	24.87	-41.8	-42.6	22.0	0.00e+00	0	43	0	936378368	54	4122
2026-01-24 06:17:44.23	26.40	24.99	-41.8	-42.6	22.0	0.00e+00	0	43	0	948961280	54	4124
2026-01-24 06:17:48.26	25.24	25.10	-41.7	-42.5	22.2	0.00e+00	0	43	0	961544192	54	4089
2026-01-24 06:17:52.30	24.07	25.20	-41.5	-42.3	22.4	0.00e+00	0	43	0	974127104	54	3989
2026-01-24 06:17:56.33	22.90	25.29	-41.5	-42.3	22.4	0.00e+00	0	43	0	986710016	54	3991
2026-01-24 06:18:00.37	21.71	25.36	-41.8	-42.6	22.2	0.00e+00	0	43	0	999292928	54	4123
2026-01-24 06:18:04.40	20.53	25.42	-41.8	-42.6	22.2	0.00e+00	0	43	0	1011875840	54	4102
2026-01-24 06:18:08.43	19.34	25.46	-41.5	-42.3	22.4	0.00e+00	0	43	0	1024458752	54	3969
2026-01-24 06:18:12.47	18.14	25.50	-41.8	-42.6	22.1	0.00e+00	0	43	0	1037041664	54	4137
2026-01-24 06:18:16.50	16.95	25.51	-41.6	-42.4	22.3	0.00e+00	0	43	0	1049624576	54	4035
2026-01-24 06:18:20.53	15.75	25.52	-41.6	-42.3	22.4	0.00e+00	0	43	0	1062207488	54	4001
2026-01-24 06:18:24.57	14.55	25.51	-41.6	-42.4	22.3	0.00e+00	0	43	0	1074790400	54	4007
2026-01-24 06:18:28.60	13.36	25.49	-41.5	-42.3	22.4	0.00e+00	0	43	0	1087373312	54	3965
2026-01-24 06:18:32.63	12.17	25.45	-41.5	-42.3	22.4	0.00e+00	0	43	0	1099956224	54	3977
2026-01-24 06:18:36.67	10.98	25.40	-41.7	-42.5	22.3	0.00e+00	0	43	0	1112539136	54	4053
2026-01-24 06:18:40.70	9.79	25.34	-41.8	-42.6	22.2	0.00e+00	0	43	0	1125122048	54	4116
2026-01-24 06:18:44.73	8.61	25.26	-41.8	-42.6	22.2	0.00e+00	0	43	0	1137704960	54	4100
2026-01-24 06:18:48.77	7.44	25.17	-42.0	-42.9	21.9	0.00e+00	0	43	0	1150287872	54	4246
2026-01-24 06:18:52.80	6.27	25.07	-41.7	-42.5	22.2	0.00e+00	0	43	0	1162870784	54	4095
2026-01-24 06:18:56.84	5.11	24.96	-41.9	-42.7	22.0	0.00e+00	0	43	0	1175453696	54	4181
2026-01-24 06:19:00.88	3.96	24.83	-42.1	-43.0	21.8	0.00e+00	0	43	0	1188036608	54	4293
2026-01-24 06:19:04.91	2.82	24.69	-42.3	-43.2	21.5	0.00e+00	0	43	0	1200619520	55	4152
2026-01-24 06:19:08.94	1.69	24.54	-41.9	-42.7	22.0	0.00e+00	0	43	0	1213202432	55	3926
2026-01-24 06:19:12.97	0.57	24.38	-42.0	-42.8	21.9	0.00e+00	0	43	0	1225785344	55	3968
2026-01-24 06:19:17.01	359.47	24.21	-41.9	-42.8	21.9	0.00e+00	0	43	0	1238368256	55	3969
2026-01-24 06:19:21.04	358.37	24.03	-41.6	-42.4	22.2	0.00e+00	0	43	0	1250951168	55	3793
2026-01-24 06:19:25.07	357.29	23.84	-41.8	-42.6	21.9	0.00e+00	0	43	0	1263534080	55	3910
2026-01-24 06:19:29.11	356.22	23.64	-41.9	-42.7	22.0	0.00e+00	0	43	0	1276116992	55	3937
2026-01-24 06:19:33.14	355.17	23.43	-41.9	-42.7	22.0	0.00e+00	0	43	0	1288699904	55	3954
2026-01-24 06:19:37.17	354.13	23.21	-41.7	-42.5	22.1	0.00e+00	0	43	0	1301282816	55	3861
2026-01-24 06:19:41.20	353.11	22.98	-41.9	-42.7	22.0	0.00e+00	0	43	0	1313865728	55	3937
2026-01-24 06:19:45.24	352.10	22.75	-41.7	-42.5	22.1	0.00e+00	0	43	0	1326448640	55	3840
2026-01-24 06:19:49.27	351.11	22.50	-41.8	-42.6	21.9	0.00e+00	0	43	0	1339031552	55	3897
2026-01-24 06:19:53.31	350.13	22.25	-42.0	-42.8	21.8	0.00e+00	0	43	0	1351614464	55	3982
2026-01-24 06:19:57.34	349.17	22.00	-41.8	-42.6	22.0	0.00e+00	0	43	0	1364197376	55	3895
2026-01-24 06:20:01.37	348.22	21.74	-42.0	-42.9	21.7	0.00e+00	0	43	0	1376780288	55	4014
2026-01-24 06:20:05.41	347.29	21.47	-41.5	-42.3	22.2	0.00e+00	0	43	0	1389363200	55	3770
2026-01-24 06:20:09.44	346.38	21.20	-41.8	-42.6	22.0	0.00e+00	0	43	0	1401946112	55	3901
2026-01-24 06:20:13.48	345.48	20.92	-41.9	-42.7	21.9	0.00e+00	0	43	0	1414529024	55	3920
2026-01-24 06:20:17.51	344.60	20.64	-41.5	-42.3	22.2	0.00e+00	0	43	0	1428160512	55	3780
2026-01-24 06:20:21.54	343.74	20.36	-41.7	-42.5	22.0	0.00e+00	0	43	0	1439694848	55	3859
2026-01-24 06:20:25.58	342.89	20.07	-41.7	-42.5	22.1	0.00e+00	0	43	0	1452277760	55	3858
2026-01-24 06:20:29.62	342.06	19.78	-42.1	-43.0	21.6	0.00e+00	0	43	0	1465909248	55	4070
2026-01-24 06:20:33.65	341.24	19.49	-42.1	-42.9	21.7	0.00e+00	0	43	0	1478492160	55	4036
2026-01-24 06:20:37.68	340.44	19.19	-41.6	-42.4	22.1	0.00e+00	0	43	0	1490026496	55	3789
2026-01-24 06:20:41.71	339.66	18.89	-41.9	-42.8	21.8	0.00e+00	0	43	0	1503657984	55	3963
2026-01-24 06:20:45.74	338.89	18.59	-42.0	-42.8	21.7	0.00e+00	0	43	0	1516240896	55	3975
2026-01-24 06:20:49.78	338.13	18.29	-42.1	-43.0	21.6	0.00e+00	0	43	0	1528823808	55	4055
2026-01-24 06:20:53.81	337.39	17.99	-42.5	-43.3	21.2	0.00e+00	0	43	0	1541406720	55	4238
2026-01-24 06:20:57.85	336.67	17.68	-42.4	-43.3	21.3	0.00e+00	0	43	0	1553989632	55	4218
2026-01-24 06:21:01.88	335.96	17.38	-42.3	-43.2	21.4	0.00e+00	0	43	0	1566572544	55	4168
2026-01-24 06:21:05.91	335.27	17.07	-42.4	-43.3	21.3	0.00e+00	0	43	0	1579155456	55	4233
2026-01-24 06:21:09.94	334.59	16.76	-42.4	-43.3	21.3	0.00e+00	0	43	0	1591738368	55	4200
2026-01-24 06:21:13.98	333.92	16.46	-42.3	-43.1	21.4	0.00e+00	0	43	0	1604321280	55	4145
2026-01-24 06:21:18.01	333.26	16.15	-42.3	-43.2	21.3	0.00e+00	0	43	0	1616904192	55	4165
2026-01-24 06:21:22.04	332.63	15.84	-42.4	-43.3	21.2	0.00e+00	0	43	0	1629487104	55	4223
2026-01-24 06:21:26.08	332.00	15.54	-42.8	-43.7	21.0	0.00e+00	0	43	0	1642070016	56	4169
2026-01-24 06:21:30.11	331.39	15.23	-42.8	-43.7	20.9	0.00e+00	0	43	0	1654652928	56	4192
2026-01-24 06:21:34.15	330.78	14.93	-42.6	-43.5	21.1	0.00e+00	0	43	0	1667235840	56	4054
2026-01-24 06:21:38.18	330.20	14.62	-42.6	-43.5	21.0	0.00e+00	0	44	0	1679818752	56	4084
2026-01-24 06:21:42.21	329.62	14.32	-43.2	-44.1	20.5	0.00e+00	0	43	0	1692401664	56	4381
2026-01-24 06:21:46.25	329.05	14.01	-43.3	-44.2	20.2	0.00e+00	0	43	0	1704984576	57	4186
2026-01-24 06:21:50.28	328.50	13.71	-43.0	-43.9	20.5	0.00e+00	0	43	0	1717567488	57	4047
2026-01-24 06:21:54.31	327.96	13.41	-43.1	-44.1	20.5	0.00e+00	0	44	0	1730150400	57	4110
2026-01-24 06:21:58.35	327.43	13.11	-43.8	-44.8	19.8	0.00e+00	0	44	0	1742733312	58	4217
2026-01-24 06:22:02.38	326.91	12.81	-43.9	-44.9	19.7	0.00e+00	0	44	0	1755316224	58	4276
2026-01-24 06:22:06.42	326.40	12.51	-43.1	-44.1	20.4	0.00e+00	0	43	0	1767899136	58	3884
2026-01-24 06:22:10.46	325.90	12.22	-43.2	-44.2	20.3	0.00e+00	0	44	0	1780482048	58	3937
2026-01-24 06:22:14.49	325.42	11.92	-43.5	-44.5	20.0	0.00e+00	0	43	0	1793064960	58	4086
2026-01-24 06:22:18.52	324.94	11.63	-43.8	-44.9	19.6	0.00e+00	0	44	0	1805647872	58	4243
2026-01-24 06:22:22.55	324.47	11.34	-43.2	-44.2	20.1	0.00e+00	0	44	0	1818230784	58	3930
2026-01-24 06:22:26.59	324.01	11.05	-42.8	-43.8	20.5	0.00e+00	0	43	0	1830813696	57	3960
2026-01-24 06:22:30.62	323.56	10.76	-42.9	-43.8	20.5	0.00e+00	0	44	0	1843396608	57	3997
2026-01-24 06:22:34.66	323.12	10.47	-43.7	-44.7	19.7	0.00e+00	0	43	0	1855979520	57	4434
2026-01-24 06:22:38.69	322.69	10.19	-44.0	-45.1	19.3	0.00e+00	0	43	0	1868562432	58	4350
2026-01-24 06:22:42.72	322.27	9.91	-44.1	-45.2	19.1	0.00e+00	0	44	0	1881145344	59	4160
2026-01-24 06:22:46.76	321.85	9.62	-43.5	-44.6	19.7	0.00e+00	0	44	0	1893728256	58	4107
2026-01-24 06:22:50.79	321.44	9.34	-43.4	-44.4	19.9	0.00e+00	0	44	0	1906311168	58	4009
2026-01-24 06:22:54.83	321.04	9.07	-43.7	-44.8	19.5	0.00e+00	0	44	0	1918894080	58	4211
2026-01-24 06:22:58.87	320.65	8.79	-44.4	-45.5	18.8	0.00e+00	0	43	0	1931476992	59	4325
2026-01-24 06:23:02.90	320.27	8.51	-44.4	-45.6	18.7	0.00e+00	0	43	0	1944059904	59	4345
2026-01-24 06:23:06.94	319.89	8.24	-44.5	-45.7	18.5	0.00e+00	0	44	0	1956642816	59	4427
2026-01-24 06:23:10.97	319.52	7.97	-44.3	-45.4	18.7	0.00e+00	0	44	0	1969225728	59	4276
2026-01-24 06:23:15.01	319.16	7.70	-44.4	-45.6	18.6	0.00e+00	0	44	0	1982857216	59	4346
2026-01-24 06:23:19.04	318.81	7.43	-44.2	-45.3	18.8	0.00e+00	0	43	0	1994391552	59	4237
2026-01-24 06:23:23.08	318.46	7.17	-44.4	-45.6	18.2	0.00e+00	0	43	0	2006974464	60	4126
2026-01-24 06:23:27.12	318.11	6.90	-44.7	-46.0	17.9	0.00e+00	0	44	0	2020605952	60	4311
2026-01-24 06:23:31.15	317.78	6.64	-44.8	-46.1	17.7	0.00e+00	0	43	0	2033188864	60	4382
2026-01-24 06:23:35.18	317.45	6.38	-44.5	-45.8	18.0	0.00e+00	0	43	0	2044723200	60	4205
2026-01-24 06:23:39.22	317.13	6.12	-44.4	-45.7	18.2	0.00e+00	0	43	0	2058354688	60	4147
2026-01-24 06:23:43.25	316.81	5.86	-44.6	-45.8	18.3	0.00e+00	0	43	0	2070937600	59	4464
2026-01-24 06:23:47.28	316.50	5.60	-44.3	-45.5	18.3	0.00e+00	0	43	0	2082471936	60	4079
2026-01-24 06:23:51.32	316.19	5.35	-44.7	-46.0	17.8	0.00e+00	0	43	0	2096103424	60	4315
2026-01-24 06:23:55.35	315.89	5.10	-45.2	-46.6	17.2	0.00e+00	0	43	0	2108686336	60	4611
2026-01-24 06:23:59.38	315.60	4.85	-52.8	-65.6	3.8	1.49e+00	0	44	104	2112880640	76	16394
2026-01-24 06:24:03.41	315.31	4.60	-53.6	-66.4	3.8	1.49e+00	0	44	104	2112880640	77	17063
2026-01-24 06:24:07.45	315.02	4.35	-54.0	-66.8	3.8	1.49e+00	0	44	104	2112880640	78	16736
2026-01-24 06:24:11.48	314.74	4.10	-54.1	-66.9	3.8	1.49e+00	0	44	104	2112880640	78	17051
2026-01-24 06:24:15.51	314.47	3.86	-54.2	-67.0	3.8	1.49e+00	0	44	104	2112880640	78	17129
2026-01-24 06:24:19.54	314.20	3.62	-54.1	-66.9	3.8	1.49e+00	0	44	104	2112880640	78	16908
2026-01-24 06:24:23.58	313.93	3.38	-53.9	-66.7	3.8	1.49e+00	0	44	104	2112880640	78	16666
2026-01-24 06:24:27.62	313.67	3.13	-53.9	-66.7	3.8	1.49e+00	0	44	104	2112880640	78	16580
2026-01-24 06:24:31.65	313.42	2.90	-53.8	-66.6	3.8	1.49e+00	0	44	104	2112880640	78	16421
2026-01-24 06:24:35.69	313.16	2.66	-53.8	-66.6	3.8	1.49e+00	0	44	104	2112880640	78	16396
2026-01-24 06:24:39.72	312.92	2.42	-53.8	-66.6	3.8	1.49e+00	0	44	104	2112880640	78	16398
2026-01-24 06:24:43.75	312.67	2.19	-53.7	-66.5	3.8	1.49e+00	0	44	104	2112880640	78	16248
2026-01-24 06:24:47.79	312.43	1.96	-53.7	-66.5	3.8	1.49e+00	0	44	104	2112880640	78	16216

#Closed at: 2026-01-24 06:24:49
#Recorded file [2112 MB]: D:/lorett/data/31041_260124_091153.dat