passes_logs/2026/01/24/R3.2S_Murmansk/R3.2S_Murmansk__20260124_093924_TY-42_rec.log

#Pass ID: 20260124_093924_TY-42
#Satellite: TY-42
#Configuration: TY-42_900M
#almurnet v.1.7.20251203
#Start time: 2026-01-24 09:39:24

#Version: 2.2.20231116
#Station: R3.2S_Murmansk
#Location: 33.079688 lon 68.888172 lat
#TLE: 1 64048U 25103A   26023.93556713  .00008007  00000-0  38191-3 0 09995
#TLE: 2 64048 097.4116 099.1849 0001849 091.5787 326.2147 15.19153894 38171

#Time	Az	El	Level	Level2	SNR	BER	BlckErr	Temp	State	Recorded	gain1	gain2
2026-01-24 09:39:24.75	20.97	2.03	-52.4	-54.5	6.3	0.00e+00	0	49	0	0	75	19439
2026-01-24 09:39:27.77	20.94	2.24	-52.4	-54.5	6.2	0.00e+00	0	49	104	0	75	19357
2026-01-24 09:39:30.79	20.92	2.45	-52.4	-54.5	6.2	0.00e+00	0	49	104	0	75	19426
2026-01-24 09:39:33.82	20.90	2.67	-52.4	-54.5	6.2	0.00e+00	0	50	104	0	75	19343
2026-01-24 09:39:36.84	20.87	2.89	-52.3	-54.5	6.2	0.00e+00	0	50	104	0	75	19366
2026-01-24 09:39:39.87	20.85	3.11	-52.4	-54.5	6.2	0.00e+00	0	50	104	0	75	19299
2026-01-24 09:39:42.89	20.82	3.33	-52.3	-54.5	6.2	0.00e+00	0	50	104	0	75	19301
2026-01-24 09:39:45.91	20.80	3.55	-52.4	-54.5	6.2	0.00e+00	0	50	104	0	75	19346
2026-01-24 09:39:48.94	20.77	3.78	-52.3	-54.5	6.2	0.00e+00	0	51	104	0	75	19305
2026-01-24 09:39:51.97	20.74	4.01	-52.4	-54.5	6.2	0.00e+00	0	51	104	0	75	19335
2026-01-24 09:39:54.99	20.71	4.24	-52.4	-54.5	6.2	0.00e+00	0	51	104	0	75	19334
2026-01-24 09:39:58.02	20.68	4.48	-52.3	-54.5	6.2	0.00e+00	0	51	104	0	75	19313
2026-01-24 09:40:01.05	20.65	4.71	-52.4	-54.5	6.2	0.00e+00	0	51	104	0	75	19311
2026-01-24 09:40:04.07	20.62	4.95	-52.3	-54.5	6.2	0.00e+00	0	51	104	0	75	19334
2026-01-24 09:40:07.10	20.59	5.20	-52.5	-54.6	6.2	0.00e+00	0	52	104	0	75	19654
2026-01-24 09:40:10.12	20.56	5.44	-52.4	-54.5	6.2	0.00e+00	0	51	104	0	75	19465
2026-01-24 09:40:13.14	20.52	5.69	-38.7	-38.6	11.8	0.00e+00	11022	54	104	0	49	13825
2026-01-24 09:40:16.17	20.49	5.94	-38.2	-38.1	13.6	5.58e-02	0	54	0	192937984	48	13887
2026-01-24 09:40:19.19	20.45	6.20	-36.3	-36.3	13.7	7.50e-02	0	54	0	536870912	44	14126
2026-01-24 09:40:22.22	20.41	6.46	-36.6	-36.6	13.6	4.33e-02	0	54	0	872415232	44	14609
2026-01-24 09:40:25.25	20.37	6.72	-37.0	-36.9	13.4	4.25e-02	0	55	0	1207959552	44	15285
2026-01-24 09:40:28.28	20.33	6.99	-35.9	-35.8	14.0	3.63e-02	0	54	0	1560281088	43	14244
2026-01-24 09:40:31.30	20.29	7.26	-35.9	-35.8	14.0	3.04e-02	0	55	0	1895825408	43	14260
2026-01-24 09:40:34.33	20.25	7.53	-35.9	-35.9	14.0	2.51e-02	0	55	0	2231369728	43	14292
2026-01-24 09:40:37.35	20.21	7.81	-35.9	-35.8	14.0	2.48e-02	0	55	0	2566914048	43	14211
2026-01-24 09:40:40.37	20.16	8.09	-35.4	-35.3	14.2	2.34e-02	0	55	0	2919235584	42	14271
2026-01-24 09:40:43.40	20.12	8.37	-35.9	-35.8	14.0	2.10e-02	0	55	0	3254779904	42	15001
2026-01-24 09:40:46.42	20.07	8.66	-35.4	-35.4	14.2	2.11e-02	0	56	0	3598712832	42	14311
2026-01-24 09:40:49.45	20.02	8.96	-35.3	-35.2	14.3	1.84e-02	0	55	0	3934257152	42	14111
2026-01-24 09:40:52.47	19.97	9.26	-35.2	-35.1	14.3	1.52e-02	0	56	0	4278190080	41	14708
2026-01-24 09:40:55.49	19.92	9.56	-35.1	-35.0	14.4	1.34e-02	0	56	0	4622123008	41	14516
2026-01-24 09:40:58.52	19.86	9.87	-34.9	-34.8	14.5	1.22e-02	0	56	0	4957667328	41	14140
2026-01-24 09:41:01.54	19.81	10.18	-34.8	-34.7	14.5	1.03e-02	0	56	0	5293211648	41	14005
2026-01-24 09:41:04.56	19.75	10.50	-34.7	-34.6	14.6	9.07e-03	0	56	0	5645533184	41	13859
2026-01-24 09:41:07.59	19.69	10.83	-34.4	-34.3	14.7	9.07e-03	0	56	0	5981077504	40	14173
2026-01-24 09:41:10.61	19.63	11.16	-34.2	-34.1	14.8	7.18e-03	0	56	0	6316621824	40	13934
2026-01-24 09:41:13.63	19.56	11.49	-34.3	-34.2	14.8	6.45e-03	0	56	0	6652166144	40	14096
2026-01-24 09:41:16.66	19.50	11.84	-34.1	-34.1	14.9	6.54e-03	0	56	0	7004487680	39	14624
2026-01-24 09:41:19.68	19.43	12.19	-34.2	-34.1	14.9	5.59e-03	0	57	0	7340032000	39	14692
2026-01-24 09:41:22.71	19.36	12.54	-33.8	-33.7	15.0	5.12e-03	0	57	0	7675576320	39	14079
2026-01-24 09:41:25.74	19.29	12.91	-34.0	-33.9	15.0	4.11e-03	0	57	0	8019509248	39	14392
2026-01-24 09:41:28.76	19.21	13.27	-33.8	-33.7	15.1	4.13e-03	0	57	0	8363442176	39	14092
2026-01-24 09:41:31.79	19.13	13.65	-33.4	-33.3	15.2	3.51e-03	0	57	0	8698986496	38	14147
2026-01-24 09:41:34.81	19.05	14.04	-33.0	-32.9	15.3	2.77e-03	0	57	0	9042919424	37	14419
2026-01-24 09:41:37.84	18.97	14.43	-32.8	-32.7	15.4	1.78e-03	0	57	0	9378463744	37	14101
2026-01-24 09:41:40.87	18.88	14.83	-32.7	-32.6	15.4	1.55e-03	0	57	0	9722396672	37	13909
2026-01-24 09:41:43.89	18.79	15.24	-32.6	-32.5	15.5	1.55e-03	0	57	0	10066329600	37	13655
2026-01-24 09:41:46.91	18.70	15.66	-32.6	-32.5	15.5	1.13e-03	0	57	0	10401873920	36	14587
2026-01-24 09:41:49.94	18.60	16.09	-32.3	-32.2	15.6	1.23e-03	0	57	0	10737418240	36	14044
2026-01-24 09:41:52.96	18.50	16.53	-32.2	-32.1	15.6	6.91e-04	0	57	0	11089739776	36	13829
2026-01-24 09:41:55.98	18.39	16.97	-29.5	-29.4	15.3	7.39e-04	0	58	0	11425284096	31	13592
2026-01-24 09:41:59.01	18.28	17.43	-29.5	-29.4	15.3	2.43e-03	0	58	0	11760828416	30	14307
2026-01-24 09:42:02.03	18.17	17.90	-29.1	-29.0	15.5	2.01e-03	0	58	0	12096372736	30	13775
2026-01-24 09:42:05.05	18.05	18.38	-29.3	-29.2	15.4	1.43e-03	0	58	0	12448694272	30	14056
2026-01-24 09:42:08.08	17.93	18.88	-28.7	-28.6	15.6	1.42e-03	0	58	0	12784238592	29	13841
2026-01-24 09:42:11.10	17.80	19.38	-28.7	-28.6	15.6	8.73e-04	0	58	0	13119782912	29	13872
2026-01-24 09:42:14.13	17.67	19.90	-28.4	-28.3	15.7	8.15e-04	0	58	0	13463715840	28	14246
2026-01-24 09:42:17.15	17.53	20.43	-28.0	-27.9	15.8	7.77e-04	0	58	0	13807648768	28	13628
2026-01-24 09:42:20.18	17.38	20.98	-28.0	-27.9	15.8	4.15e-04	0	58	0	14143193088	27	14379
2026-01-24 09:42:23.20	17.23	21.55	-27.9	-27.8	15.8	3.91e-04	0	58	0	14487126016	27	14212
2026-01-24 09:42:26.23	17.07	22.12	-27.6	-27.5	15.9	2.62e-04	0	58	0	14822670336	27	13755
2026-01-24 09:42:29.25	16.90	22.72	-27.3	-27.2	16.0	1.76e-04	0	58	0	15158214656	26	13983
2026-01-24 09:42:32.28	16.73	23.33	-27.0	-27.0	16.1	1.86e-04	0	58	0	15510536192	26	13636
2026-01-24 09:42:35.30	16.55	23.96	-26.6	-26.5	16.2	1.19e-04	0	58	0	15846080512	25	13732
2026-01-24 09:42:38.33	16.35	24.61	-26.3	-26.2	16.3	7.62e-05	0	58	0	16181624832	24	14047
2026-01-24 09:42:41.35	16.15	25.28	-26.3	-26.2	16.3	2.38e-05	0	58	0	16517169152	24	14018
2026-01-24 09:42:44.38	15.94	25.97	-25.7	-25.7	16.4	1.90e-05	0	58	0	16869490688	23	13961
2026-01-24 09:42:47.40	15.72	26.68	-25.4	-25.3	16.5	9.50e-06	0	58	0	17205035008	22	14222
2026-01-24 09:42:50.42	15.48	27.41	-25.0	-24.9	16.6	4.70e-06	0	58	0	17548967936	22	13611
2026-01-24 09:42:53.45	15.23	28.17	-24.7	-24.6	16.6	4.70e-06	0	58	0	17884512256	21	13888
2026-01-24 09:42:56.47	14.97	28.95	-24.6	-24.5	16.7	0.00e+00	0	58	0	18228445184	21	13706
2026-01-24 09:42:59.50	14.69	29.76	-24.5	-24.4	16.7	0.00e+00	0	58	0	18572378112	20	14301
2026-01-24 09:43:02.52	14.40	30.60	-24.0	-23.9	16.8	0.00e+00	0	58	0	18907922432	20	13547
2026-01-24 09:43:05.55	14.09	31.46	-24.1	-24.0	16.9	9.50e-06	0	58	0	19243466752	19	14516
2026-01-24 09:43:08.57	13.75	32.36	-23.3	-23.2	17.0	4.70e-06	0	58	0	19595788288	18	13988
2026-01-24 09:43:11.59	13.40	33.28	-23.1	-23.0	17.0	0.00e+00	0	58	0	19931332608	18	13680
2026-01-24 09:43:14.62	13.03	34.24	-22.7	-22.6	17.1	4.70e-06	0	58	0	20266876928	17	13893
2026-01-24 09:43:17.65	12.62	35.24	-22.4	-22.3	17.1	0.00e+00	0	58	0	20602421248	16	14141
2026-01-24 09:43:20.67	12.20	36.26	-22.0	-21.9	17.2	0.00e+00	0	58	0	20954742784	16	13603
2026-01-24 09:43:23.69	11.74	37.33	-21.9	-21.8	17.2	0.00e+00	0	58	0	21290287104	15	14123
2026-01-24 09:43:26.72	11.24	38.43	-21.4	-21.3	17.3	0.00e+00	0	58	0	21625831424	14	14195
2026-01-24 09:43:29.74	10.71	39.58	-21.3	-21.2	17.3	0.00e+00	0	58	0	21969764352	14	13986
2026-01-24 09:43:32.77	10.13	40.76	-20.8	-20.7	17.4	0.00e+00	0	58	0	22313697280	13	13956
2026-01-24 09:43:35.80	9.51	41.99	-20.6	-20.5	17.5	0.00e+00	0	58	0	22649241600	13	13700
2026-01-24 09:43:38.82	8.83	43.26	-20.2	-20.1	17.4	0.00e+00	0	58	0	22993174528	12	13906
2026-01-24 09:43:41.84	8.10	44.58	-20.3	-20.2	17.5	0.00e+00	0	58	0	23328718848	12	14006
2026-01-24 09:43:44.86	7.29	45.94	-19.8	-19.7	17.6	0.00e+00	0	58	0	23672651776	11	13974
2026-01-24 09:43:47.89	6.41	47.35	-19.5	-19.4	17.6	0.00e+00	0	58	0	24016584704	11	13578
2026-01-24 09:43:50.91	5.44	48.80	-19.4	-19.3	17.6	0.00e+00	0	57	0	24352129024	10	14200
2026-01-24 09:43:53.93	4.37	50.30	-19.0	-18.8	17.6	0.00e+00	0	58	0	24687673344	9	14237
2026-01-24 09:43:56.96	3.18	51.84	-18.7	-18.5	17.7	0.00e+00	0	57	0	25039994880	9	13742
2026-01-24 09:43:59.98	1.86	53.42	-18.3	-18.2	17.7	0.00e+00	0	57	0	25375539200	8	14055
2026-01-24 09:44:03.00	0.37	55.05	-18.2	-18.1	17.7	0.00e+00	0	57	0	25711083520	8	13794
2026-01-24 09:44:06.03	358.70	56.71	-17.9	-17.8	17.8	0.00e+00	0	58	0	26046627840	7	14154
2026-01-24 09:44:09.05	356.80	58.39	-17.7	-17.6	17.9	0.00e+00	0	57	0	26390560768	7	13806
2026-01-24 09:44:12.07	354.65	60.09	-17.6	-17.5	17.9	0.00e+00	0	57	0	26734493696	6	14486
2026-01-24 09:44:15.09	352.18	61.81	-17.3	-17.2	17.8	0.00e+00	0	57	0	27070038016	6	13973
2026-01-24 09:44:18.12	349.33	63.52	-17.3	-17.1	17.9	0.00e+00	0	57	0	27413970944	6	13949
2026-01-24 09:44:21.14	346.04	65.20	-17.2	-17.1	17.9	0.00e+00	0	57	0	27749515264	6	13808
2026-01-24 09:44:24.17	342.20	66.85	-16.8	-16.7	17.9	0.00e+00	0	57	0	28093448192	5	14031
2026-01-24 09:44:27.19	337.74	68.41	-16.8	-16.6	17.9	0.00e+00	0	57	0	28437381120	5	13884
2026-01-24 09:44:30.22	332.52	69.86	-16.6	-16.5	17.9	0.00e+00	0	57	0	28772925440	5	13679
2026-01-24 09:44:33.24	326.50	71.15	-16.7	-16.6	17.9	0.00e+00	0	57	0	29108469760	5	13854
2026-01-24 09:44:36.27	319.59	72.23	-16.9	-16.8	17.9	0.00e+00	0	57	0	29460791296	5	14128
2026-01-24 09:44:39.29	311.87	73.04	-16.7	-16.5	17.9	0.00e+00	0	57	0	29796335616	5	13719
2026-01-24 09:44:42.31	303.51	73.54	-16.5	-16.4	17.9	0.00e+00	0	57	0	30131879936	5	13489
2026-01-24 09:44:45.34	294.76	73.68	-16.5	-16.3	17.9	0.00e+00	0	57	0	30467424256	4	14244
2026-01-24 09:44:48.36	286.08	73.46	-16.5	-16.3	17.9	0.00e+00	0	57	0	30819745792	4	14232
2026-01-24 09:44:51.39	277.79	72.90	-16.5	-16.4	17.8	0.00e+00	0	57	0	31155290112	4	14311
2026-01-24 09:44:54.41	270.24	72.02	-16.6	-16.5	17.8	0.00e+00	0	57	0	31490834432	4	14521
2026-01-24 09:44:57.43	263.52	70.90	-16.7	-16.5	17.8	0.00e+00	0	57	0	31834767360	4	14568
2026-01-24 09:45:00.46	257.65	69.57	-16.6	-16.5	17.7	0.00e+00	0	57	0	32178700288	4	14511
2026-01-24 09:45:03.48	252.60	68.09	-16.8	-16.7	17.7	0.00e+00	0	57	0	32522633216	4	14854
2026-01-24 09:45:06.50	248.27	66.51	-16.9	-16.7	17.7	0.00e+00	0	57	0	32858177536	4	14890
2026-01-24 09:45:09.53	244.55	64.85	-17.0	-16.8	18.0	0.00e+00	0	57	0	33193721856	4	15114
2026-01-24 09:45:12.55	241.35	63.16	-17.2	-17.0	17.9	0.00e+00	0	57	0	33529266176	4	15424
2026-01-24 09:45:15.57	238.59	61.45	-17.4	-17.3	18.0	0.00e+00	0	57	0	33881587712	5	15057
2026-01-24 09:45:18.60	236.18	59.73	-54.3	-56.5	6.2	0.00e+00	0	56	104	33973862400	79	19341
2026-01-24 09:45:21.62	234.08	58.02	-54.4	-56.5	6.2	0.00e+00	0	56	104	33973862400	79	19356
2026-01-24 09:45:24.65	232.23	56.33	-54.3	-56.5	6.2	0.00e+00	0	56	104	33973862400	79	19268
2026-01-24 09:45:27.67	230.60	54.68	-54.3	-56.4	6.2	0.00e+00	0	56	104	33973862400	79	19162
2026-01-24 09:45:30.69	229.15	53.06	-54.2	-56.4	6.2	0.00e+00	0	56	104	33973862400	79	19043
2026-01-24 09:45:33.72	227.85	51.48	-54.2	-56.3	6.2	0.00e+00	0	55	104	33973862400	79	19022
2026-01-24 09:45:36.74	226.68	49.94	-54.2	-56.3	6.2	0.00e+00	0	55	104	33973862400	79	18988
2026-01-24 09:45:39.76	225.63	48.45	-54.1	-56.3	6.2	0.00e+00	0	55	104	33973862400	79	18903
2026-01-24 09:45:42.79	224.68	47.00	-54.1	-56.2	6.2	0.00e+00	0	55	104	33973862400	79	18810
2026-01-24 09:45:45.81	223.81	45.60	-54.2	-56.3	6.2	0.00e+00	0	55	104	33973862400	79	18946
2026-01-24 09:45:48.83	223.03	44.25	-54.1	-56.2	6.2	0.00e+00	0	55	104	33973862400	78	19911
2026-01-24 09:45:51.86	222.30	42.94	-54.1	-56.2	6.2	0.00e+00	0	55	104	33973862400	78	19801
2026-01-24 09:45:54.88	221.64	41.67	-54.0	-56.1	6.2	0.00e+00	0	55	104	33973862400	78	19690
2026-01-24 09:45:57.91	221.02	40.45	-54.0	-56.1	6.2	0.00e+00	0	55	104	33973862400	78	19640
2026-01-24 09:46:00.93	220.45	39.27	-54.0	-56.1	6.2	0.00e+00	0	55	104	33973862400	78	19531
2026-01-24 09:46:03.95	219.93	38.13	-53.9	-56.1	6.2	0.00e+00	0	54	104	33973862400	78	19528
2026-01-24 09:46:06.98	219.44	37.03	-53.9	-56.0	6.2	0.00e+00	0	54	104	33973862400	78	19477
2026-01-24 09:46:10.00	218.99	35.97	-53.9	-56.0	6.2	0.00e+00	0	54	104	33973862400	78	19418
2026-01-24 09:46:13.03	218.56	34.94	-53.9	-56.0	6.2	0.00e+00	0	54	104	33973862400	78	19420
2026-01-24 09:46:16.05	218.17	33.96	-53.8	-56.0	6.2	0.00e+00	0	54	104	33973862400	78	19279
2026-01-24 09:46:19.07	217.80	33.01	-53.8	-55.9	6.2	0.00e+00	0	54	104	33973862400	78	19233
2026-01-24 09:46:22.10	217.45	32.08	-53.8	-55.9	6.2	0.00e+00	0	54	104	33973862400	78	19202
2026-01-24 09:46:25.12	217.12	31.19	-53.8	-55.9	6.2	0.00e+00	0	54	104	33973862400	78	19159
2026-01-24 09:46:28.14	216.81	30.33	-53.7	-55.8	6.2	0.00e+00	0	54	104	33973862400	78	19033
2026-01-24 09:46:31.17	216.52	29.50	-53.7	-55.8	6.2	0.00e+00	0	54	104	33973862400	78	18930
2026-01-24 09:46:34.19	216.24	28.69	-53.7	-55.8	6.2	0.00e+00	0	54	104	33973862400	78	18900
2026-01-24 09:46:37.22	215.98	27.91	-53.6	-55.8	6.2	0.00e+00	0	54	104	33973862400	78	18850
2026-01-24 09:46:40.25	215.74	27.16	-53.6	-55.7	6.2	0.00e+00	0	54	104	33973862400	78	18726
2026-01-24 09:46:43.27	215.50	26.43	-53.6	-55.7	6.2	0.00e+00	0	54	104	33973862400	78	18637
2026-01-24 09:46:46.29	215.28	25.72	-53.5	-55.7	6.2	0.00e+00	0	54	104	33973862400	77	19747
2026-01-24 09:46:49.32	215.07	25.03	-53.5	-55.6	6.2	0.00e+00	0	54	104	33973862400	77	19666
2026-01-24 09:46:52.34	214.87	24.37	-53.5	-55.6	6.2	0.00e+00	0	54	104	33973862400	77	19564
2026-01-24 09:46:55.37	214.68	23.72	-53.5	-55.6	6.2	0.00e+00	0	54	104	33973862400	77	19544
2026-01-24 09:46:58.39	214.50	23.09	-53.4	-55.6	6.2	0.00e+00	0	54	104	33973862400	77	19568
2026-01-24 09:47:01.41	214.32	22.49	-53.4	-55.5	6.2	0.00e+00	0	54	104	33973862400	77	19436
2026-01-24 09:47:04.44	214.16	21.89	-53.4	-55.5	6.2	0.00e+00	0	54	104	33973862400	77	19365
2026-01-24 09:47:07.46	214.00	21.32	-53.4	-55.5	6.2	0.00e+00	0	54	104	33973862400	77	19408
2026-01-24 09:47:10.49	213.84	20.76	-53.4	-55.5	6.2	0.00e+00	0	54	104	33973862400	77	19302
2026-01-24 09:47:13.51	213.70	20.21	-53.4	-55.5	6.2	0.00e+00	0	54	104	33973862400	77	19323
2026-01-24 09:47:16.53	213.56	19.68	-53.3	-55.4	6.2	0.00e+00	0	54	104	33973862400	77	19235
2026-01-24 09:47:19.56	213.43	19.16	-53.3	-55.4	6.2	0.00e+00	0	54	104	33973862400	77	19211
2026-01-24 09:47:22.58	213.30	18.66	-53.3	-55.4	6.2	0.00e+00	0	54	104	33973862400	77	19215
2026-01-24 09:47:25.61	213.18	18.16	-53.3	-55.4	6.2	0.00e+00	0	54	104	33973862400	77	19187
2026-01-24 09:47:28.63	213.06	17.69	-53.3	-55.4	6.2	0.00e+00	0	54	104	33973862400	77	19193
2026-01-24 09:47:31.66	212.94	17.22	-53.3	-55.4	6.2	0.00e+00	0	54	104	33973862400	77	19076
2026-01-24 09:47:34.68	212.83	16.76	-53.3	-55.4	6.2	0.00e+00	0	54	104	33973862400	77	19128
2026-01-24 09:47:37.71	212.73	16.31	-53.3	-55.4	6.2	0.00e+00	0	54	104	33973862400	77	19150
2026-01-24 09:47:40.73	212.63	15.88	-53.3	-55.4	6.2	0.00e+00	0	54	104	33973862400	77	19102
2026-01-24 09:47:43.76	212.53	15.45	-53.2	-55.3	6.2	0.00e+00	0	54	104	33973862400	77	19012
2026-01-24 09:47:46.79	212.44	15.03	-53.2	-55.4	6.2	0.00e+00	0	54	104	33973862400	76	20187
2026-01-24 09:47:49.81	212.35	14.62	-53.2	-55.3	6.2	0.00e+00	0	53	104	33973862400	77	18910
2026-01-24 09:47:52.83	212.26	14.22	-53.1	-55.3	6.2	0.00e+00	0	54	104	33973862400	77	18903
2026-01-24 09:47:55.86	212.17	13.83	-53.1	-55.3	6.2	0.00e+00	0	54	104	33973862400	77	18866
2026-01-24 09:47:58.88	212.09	13.45	-53.2	-55.2	6.2	0.00e+00	0	54	104	33973862400	76	19929
2026-01-24 09:48:01.90	212.01	13.07	-53.1	-55.2	6.2	0.00e+00	0	54	104	33973862400	76	19861
2026-01-24 09:48:04.93	211.94	12.70	-53.1	-55.2	6.2	0.00e+00	0	54	104	33973862400	76	19825
2026-01-24 09:48:07.95	211.86	12.34	-53.1	-55.2	6.2	0.00e+00	0	54	104	33973862400	76	19779
2026-01-24 09:48:10.98	211.79	11.98	-53.1	-55.2	6.2	0.00e+00	0	53	104	33973862400	76	19800
2026-01-24 09:48:14.00	211.72	11.64	-53.0	-55.2	6.2	0.00e+00	0	54	104	33973862400	76	19706
2026-01-24 09:48:17.03	211.66	11.29	-53.0	-55.1	6.2	0.00e+00	0	53	104	33973862400	76	19704
2026-01-24 09:48:20.05	211.59	10.96	-53.0	-55.1	6.2	0.00e+00	0	54	104	33973862400	76	19648
2026-01-24 09:48:23.07	211.53	10.63	-53.0	-55.2	6.2	0.00e+00	0	53	104	33973862400	76	19721
2026-01-24 09:48:26.10	211.47	10.30	-52.9	-55.0	6.2	0.00e+00	0	53	104	33973862400	76	19478
2026-01-24 09:48:29.12	211.41	9.99	-52.9	-55.0	6.2	0.00e+00	0	53	104	33973862400	76	19421
2026-01-24 09:48:32.14	211.35	9.67	-52.9	-55.0	6.2	0.00e+00	0	53	104	33973862400	76	19432
2026-01-24 09:48:35.17	211.30	9.36	-52.9	-55.0	6.2	0.00e+00	0	54	104	33973862400	76	19474
2026-01-24 09:48:38.19	211.24	9.06	-52.8	-54.9	6.2	0.00e+00	0	54	104	33973862400	76	19174
2026-01-24 09:48:41.21	211.19	8.76	-52.8	-54.9	6.2	0.00e+00	0	53	104	33973862400	76	19171
2026-01-24 09:48:44.24	211.14	8.47	-52.8	-54.9	6.2	0.00e+00	0	54	104	33973862400	76	19090
2026-01-24 09:48:47.26	211.09	8.18	-52.8	-54.9	6.2	0.00e+00	0	53	104	33973862400	76	19150
2026-01-24 09:48:50.28	211.05	7.90	-52.7	-54.8	6.2	0.00e+00	0	53	104	33973862400	76	18930
2026-01-24 09:48:53.31	211.00	7.61	-52.7	-54.8	6.2	0.00e+00	0	53	104	33973862400	76	18931
2026-01-24 09:48:56.33	210.95	7.34	-52.6	-54.8	6.2	0.00e+00	0	53	104	33973862400	75	19965
2026-01-24 09:48:59.35	210.91	7.07	-52.6	-54.7	6.2	0.00e+00	0	53	104	33973862400	75	19924
2026-01-24 09:49:02.38	210.87	6.80	-52.5	-54.6	6.2	0.00e+00	0	53	104	33973862400	75	19632
2026-01-24 09:49:05.40	210.83	6.53	-52.4	-54.6	6.2	0.00e+00	0	53	104	33973862400	75	19565
2026-01-24 09:49:08.43	210.79	6.27	-52.4	-54.6	6.2	0.00e+00	0	53	104	33973862400	75	19523
2026-01-24 09:49:11.45	210.75	6.01	-52.5	-54.6	6.2	0.00e+00	0	53	104	33973862400	75	19568
2026-01-24 09:49:14.47	210.71	5.75	-52.4	-54.5	6.2	0.00e+00	0	53	104	33973862400	75	19343
2026-01-24 09:49:17.50	210.67	5.50	-52.2	-54.4	6.2	0.00e+00	0	53	104	33973862400	75	19082
2026-01-24 09:49:20.52	210.64	5.25	-52.2	-54.4	6.2	0.00e+00	0	53	104	33973862400	75	19112
2026-01-24 09:49:23.54	210.60	5.01	-52.4	-54.5	6.2	0.00e+00	0	54	104	33973862400	75	19414
2026-01-24 09:49:26.57	210.57	4.77	-53.4	-55.5	6.2	0.00e+00	0	53	104	33973862400	77	19370
2026-01-24 09:49:29.59	210.54	4.53	-53.8	-56.0	6.2	0.00e+00	0	54	104	33973862400	78	19269
2026-01-24 09:49:32.61	210.51	4.29	-54.2	-56.3	6.2	0.00e+00	0	53	104	33973862400	78	19958
2026-01-24 09:49:35.64	210.47	4.05	-54.4	-56.5	6.2	0.00e+00	0	53	104	33973862400	79	19303
2026-01-24 09:49:38.66	210.44	3.82	-54.5	-56.6	6.2	0.00e+00	0	54	104	33973862400	79	19574
2026-01-24 09:49:41.69	210.41	3.59	-54.5	-56.6	6.2	0.00e+00	0	54	104	33973862400	79	19608
2026-01-24 09:49:44.71	210.39	3.37	-54.5	-56.6	6.2	0.00e+00	0	54	104	33973862400	79	19666
2026-01-24 09:49:47.73	210.36	3.14	-54.3	-56.5	6.2	0.00e+00	0	53	104	33973862400	79	19273
2026-01-24 09:49:50.76	210.33	2.92	-54.2	-56.4	6.2	0.00e+00	0	53	104	33973862400	79	19078
2026-01-24 09:49:53.78	210.30	2.70	-54.2	-56.3	6.2	0.00e+00	0	53	104	33973862400	79	18899
2026-01-24 09:49:56.81	210.28	2.48	-54.3	-56.4	6.2	0.00e+00	0	53	104	33973862400	79	19241
2026-01-24 09:49:59.83	210.25	2.27	-54.1	-56.3	6.2	0.00e+00	0	53	104	33973862400	79	18841
2026-01-24 09:50:02.85	210.23	2.06	-54.4	-56.5	6.2	0.00e+00	0	53	104	33973862400	79	19388

#Closed at: 2026-01-24 09:50:05
#Recorded file [33973 MB]: D:/lorett/data/31041_260124_123924.dat