passes_logs/2026/01/24/R3.2S_Murmansk/R3.2S_Murmansk__20260124_055258_KANOPUS-V_5_rec.log

#Pass ID: 20260124_055258_KANOPUS-V 5
#Satellite: KANOPUS-V 5
#Configuration: KANOPUS-V_8320
#almurnet v.1.7.20251203
#Start time: 2026-01-24 05:52:59

#Version: 2.2.20231116
#Station: R3.2S_Murmansk
#Location: 33.079688 lon 68.888172 lat
#TLE: 1 43876U 18111A   26023.64356892  .00004816  00000+0  20464-3 0  9993
#TLE: 2 43876  97.3677 292.0017 0001813  88.2876 271.8569 15.23520012392780

#Time	Az	El	Level	Level2	SNR	BER	BlckErr	Temp	State	Recorded	gain1	gain2
2026-01-24 05:52:59.64	108.70	2.07	-52.8	-61.6	3.8	7.45e-01	0	41	0	0	77	9787
2026-01-24 05:53:02.65	108.48	2.27	-52.8	-61.6	3.8	7.45e-01	0	42	104	0	76	10321
2026-01-24 05:53:05.68	108.25	2.47	-52.7	-61.6	3.8	7.44e-01	0	42	104	0	76	10346
2026-01-24 05:53:08.71	108.02	2.67	-52.8	-61.5	3.8	7.47e-01	0	42	104	0	76	10288
2026-01-24 05:53:11.74	107.78	2.87	-52.7	-61.5	3.8	7.46e-01	0	42	104	0	76	10265
2026-01-24 05:53:14.76	107.54	3.07	-52.7	-61.6	3.8	7.44e-01	0	42	104	0	76	10297
2026-01-24 05:53:17.78	107.30	3.28	-52.7	-61.5	3.8	7.45e-01	0	42	104	0	76	10228
2026-01-24 05:53:20.81	107.05	3.48	-52.7	-61.5	3.8	7.45e-01	0	42	104	0	76	10256
2026-01-24 05:53:23.84	106.80	3.69	-52.7	-61.4	3.8	7.45e-01	0	42	104	0	76	10170
2026-01-24 05:53:26.86	106.54	3.90	-52.7	-61.5	3.8	7.44e-01	0	42	104	0	76	10190
2026-01-24 05:53:29.89	106.28	4.11	-52.7	-61.5	3.8	7.46e-01	0	43	104	0	76	10210
2026-01-24 05:53:32.91	106.01	4.32	-52.5	-60.9	3.8	7.44e-01	0	43	104	0	76	9559
2026-01-24 05:53:35.94	105.73	4.54	-52.5	-60.6	3.8	7.45e-01	0	43	104	0	76	9259
2026-01-24 05:53:38.96	105.46	4.76	-51.7	-58.3	3.9	7.42e-01	0	43	104	0	75	7507
2026-01-24 05:53:41.98	105.17	4.97	-48.0	-51.1	9.0	6.28e-01	0	43	0	31457280	68	4874
2026-01-24 05:53:45.01	104.88	5.19	-47.2	-49.8	10.7	6.16e-01	0	43	0	77594624	65	5038
2026-01-24 05:53:48.03	104.59	5.42	-45.2	-47.4	13.1	6.08e-01	0	43	0	104857600	61	4784
2026-01-24 05:53:51.06	104.28	5.64	-44.8	-46.9	13.5	6.04e-01	0	43	0	153092096	61	4539
2026-01-24 05:53:54.09	103.98	5.87	-44.7	-46.9	13.6	6.07e-01	0	43	0	199229440	60	4781
2026-01-24 05:53:57.11	103.66	6.09	-44.7	-46.9	13.5	6.06e-01	0	43	0	245366784	60	4777
2026-01-24 05:54:00.14	103.34	6.32	-44.3	-46.4	14.0	6.05e-01	0	43	0	291504128	60	4530
2026-01-24 05:54:03.16	103.01	6.56	-44.1	-46.1	14.3	6.06e-01	0	43	0	339738624	60	4378
2026-01-24 05:54:06.19	102.68	6.79	-44.4	-46.5	14.0	6.06e-01	0	43	0	385875968	60	4572
2026-01-24 05:54:09.21	102.34	7.03	-43.9	-46.0	14.5	6.05e-01	0	43	0	432013312	59	4582
2026-01-24 05:54:12.24	101.99	7.26	-43.9	-46.0	14.5	6.04e-01	0	43	0	478150656	59	4583
2026-01-24 05:54:15.27	101.63	7.50	-43.9	-46.0	14.5	6.04e-01	0	43	0	524288000	59	4580
2026-01-24 05:54:18.29	101.27	7.75	-43.7	-45.7	14.8	6.04e-01	0	43	0	570425344	59	4432
2026-01-24 05:54:21.32	100.90	7.99	-43.8	-45.8	14.7	6.03e-01	0	43	0	616562688	59	4489
2026-01-24 05:54:24.35	100.52	8.24	-43.7	-45.8	14.8	6.02e-01	0	43	0	664797184	59	4470
2026-01-24 05:54:27.37	100.13	8.49	-43.6	-45.6	14.9	6.04e-01	0	43	0	710934528	58	4616
2026-01-24 05:54:30.40	99.73	8.74	-43.5	-45.5	15.0	6.05e-01	0	44	0	757071872	58	4595
2026-01-24 05:54:33.43	99.33	8.99	-43.4	-45.4	15.1	6.04e-01	0	43	0	803209216	58	4508
2026-01-24 05:54:36.45	98.91	9.25	-43.2	-45.2	15.3	6.03e-01	0	43	0	851443712	58	4393
2026-01-24 05:54:39.48	98.49	9.51	-43.1	-45.1	15.4	6.04e-01	0	43	0	897581056	58	4388
2026-01-24 05:54:42.50	98.05	9.77	-43.0	-45.1	15.4	6.02e-01	0	43	0	943718400	58	4368
2026-01-24 05:54:45.52	97.61	10.03	-42.8	-45.0	15.5	6.00e-01	0	43	0	989855744	57	4551
2026-01-24 05:54:48.54	97.16	10.30	-42.8	-44.9	15.5	6.05e-01	0	43	0	1035993088	57	4513
2026-01-24 05:54:51.57	96.69	10.57	-42.8	-44.9	15.6	6.04e-01	0	43	0	1082130432	57	4516
2026-01-24 05:54:54.60	96.22	10.84	-42.7	-44.7	15.8	6.01e-01	0	43	0	1128267776	57	4407
2026-01-24 05:54:57.63	95.73	11.11	-42.6	-44.6	15.9	6.04e-01	0	43	0	1174405120	56	4602
2026-01-24 05:55:00.65	95.24	11.38	-42.2	-44.2	16.3	6.03e-01	0	44	0	1222639616	56	4397
2026-01-24 05:55:03.68	94.73	11.66	-42.2	-44.0	16.6	6.05e-01	0	44	0	1268776960	55	4587
2026-01-24 05:55:06.70	94.21	11.94	-42.3	-44.2	16.4	6.04e-01	0	44	0	1314914304	55	4662
2026-01-24 05:55:09.73	93.67	12.22	-41.9	-43.8	16.7	6.00e-01	0	43	0	1361051648	55	4491
2026-01-24 05:55:12.75	93.13	12.50	-41.9	-43.8	16.7	6.02e-01	0	44	0	1409286144	55	4467
2026-01-24 05:55:15.77	92.57	12.79	-41.6	-43.6	16.9	6.00e-01	0	44	0	1453326336	55	4361
2026-01-24 05:55:18.80	91.99	13.08	-41.8	-43.7	16.8	6.02e-01	0	43	0	1499463680	55	4423
2026-01-24 05:55:21.82	91.41	13.37	-41.7	-43.6	16.9	6.00e-01	0	44	0	1545601024	55	4376
2026-01-24 05:55:24.85	90.81	13.66	-41.4	-43.4	17.1	6.01e-01	0	44	0	1593835520	54	4496
2026-01-24 05:55:27.87	90.19	13.95	-41.4	-43.2	17.2	5.98e-01	0	44	0	1639972864	54	4436
2026-01-24 05:55:30.90	89.56	14.25	-41.1	-42.9	17.4	6.03e-01	0	44	0	1686110208	54	4285
2026-01-24 05:55:33.92	88.91	14.55	-41.2	-42.9	17.4	6.02e-01	0	43	0	1732247552	54	4289
2026-01-24 05:55:36.95	88.25	14.84	-40.9	-42.7	17.6	5.96e-01	0	44	0	1780482048	53	4432
2026-01-24 05:55:39.98	87.57	15.15	-40.8	-42.7	17.7	6.01e-01	0	44	0	1826619392	53	4410
2026-01-24 05:55:43.01	86.88	15.45	-40.6	-42.5	17.8	6.00e-01	0	44	0	1872756736	53	4296
2026-01-24 05:55:46.03	86.17	15.75	-40.8	-42.7	17.7	5.98e-01	0	44	0	1918894080	53	4395
2026-01-24 05:55:49.06	85.44	16.05	-40.9	-42.8	17.6	5.94e-01	0	44	0	1965031424	53	4475
2026-01-24 05:55:52.09	84.69	16.36	-40.4	-42.3	18.0	5.94e-01	0	44	0	2011168768	52	4465
2026-01-24 05:55:55.11	83.93	16.66	-40.2	-42.1	18.2	5.93e-01	0	44	0	2057306112	52	4351
2026-01-24 05:55:58.13	83.14	16.97	-40.1	-41.9	18.3	5.93e-01	0	44	0	2103443456	52	4269
2026-01-24 05:56:01.16	82.34	17.27	-39.9	-41.7	18.5	5.92e-01	0	44	0	2151677952	51	4420
2026-01-24 05:56:04.18	81.52	17.57	-39.9	-41.8	18.4	5.93e-01	0	44	0	2197815296	51	4452
2026-01-24 05:56:07.21	80.68	17.88	-40.1	-42.0	18.3	5.94e-01	0	44	0	2243952640	51	4581
2026-01-24 05:56:10.23	79.82	18.18	-40.1	-42.0	18.2	5.95e-01	0	44	0	2290089984	51	4573
2026-01-24 05:56:13.26	78.94	18.48	-40.1	-42.0	18.3	5.98e-01	0	44	0	2338324480	51	4570
2026-01-24 05:56:16.28	78.04	18.78	-39.9	-41.8	18.5	5.98e-01	0	44	0	2384461824	51	4442
2026-01-24 05:56:19.30	77.11	19.08	-39.9	-41.6	18.6	5.99e-01	0	44	0	2430599168	51	4373
2026-01-24 05:56:22.33	76.17	19.37	-39.8	-41.6	18.6	6.00e-01	0	44	0	2476736512	51	4351
2026-01-24 05:56:25.35	75.21	19.67	-39.8	-41.7	18.6	6.00e-01	0	44	0	2522873856	51	4406
2026-01-24 05:56:28.38	74.22	19.96	-39.7	-41.7	18.6	6.01e-01	0	44	0	2569011200	51	4403
2026-01-24 05:56:31.40	73.21	20.24	-39.5	-41.4	18.7	6.01e-01	0	44	0	2615148544	50	4524
2026-01-24 05:56:34.42	72.18	20.52	-39.4	-41.1	18.8	5.99e-01	0	44	0	2661285888	50	4387
2026-01-24 05:56:37.44	71.14	20.80	-39.6	-41.4	18.7	6.01e-01	0	44	0	2707423232	50	4509
2026-01-24 05:56:40.46	70.07	21.06	-39.7	-41.6	18.6	6.01e-01	0	44	0	2755657728	50	4614
2026-01-24 05:56:43.49	68.97	21.33	-39.9	-41.8	18.4	6.03e-01	0	44	0	2801795072	50	4713
2026-01-24 05:56:46.51	67.86	21.59	-39.4	-41.4	18.8	6.02e-01	0	44	0	2847932416	50	4504
2026-01-24 05:56:49.54	66.72	21.84	-39.2	-41.2	18.9	5.99e-01	0	44	0	2894069760	50	4413
2026-01-24 05:56:52.56	65.56	22.08	-39.3	-41.2	18.8	6.01e-01	0	44	0	2940207104	50	4434
2026-01-24 05:56:55.59	64.39	22.31	-39.5	-41.4	18.6	5.98e-01	0	44	0	2986344448	50	4539
2026-01-24 05:56:58.61	63.19	22.53	-39.4	-41.4	18.8	6.01e-01	0	44	0	3032481792	50	4537
2026-01-24 05:57:01.63	61.98	22.75	-39.6	-41.7	18.6	6.02e-01	0	44	0	3078619136	50	4670
2026-01-24 05:57:04.66	60.74	22.95	-39.6	-41.6	18.6	6.01e-01	0	44	0	3126853632	50	4636
2026-01-24 05:57:07.68	59.49	23.14	-39.5	-41.6	18.6	6.02e-01	0	44	0	3172990976	50	4645
2026-01-24 05:57:10.71	58.22	23.32	-39.4	-41.3	18.8	6.02e-01	0	44	0	3219128320	50	4490
2026-01-24 05:57:13.73	56.94	23.49	-39.6	-41.7	18.5	6.01e-01	0	44	0	3265265664	50	4682
2026-01-24 05:57:16.76	55.64	23.64	-39.6	-41.7	18.6	6.00e-01	0	44	0	3313500160	50	4670
2026-01-24 05:57:19.78	54.33	23.79	-39.9	-42.0	18.3	5.99e-01	0	44	0	3359637504	50	4839
2026-01-24 05:57:22.80	53.00	23.91	-39.8	-42.0	18.4	6.01e-01	0	44	0	3405774848	50	4820
2026-01-24 05:57:25.82	51.67	24.03	-39.8	-41.9	18.4	6.01e-01	0	44	0	3451912192	50	4791
2026-01-24 05:57:28.85	50.32	24.12	-40.1	-42.2	18.1	6.00e-01	0	44	0	3498049536	50	4966
2026-01-24 05:57:31.87	48.97	24.21	-40.2	-42.4	18.0	5.99e-01	0	44	0	3544186880	51	4806
2026-01-24 05:57:34.89	47.60	24.27	-40.3	-42.6	17.9	5.99e-01	0	44	0	3590324224	51	4919
2026-01-24 05:57:37.92	46.23	24.32	-40.3	-42.6	17.9	6.03e-01	0	44	0	3636461568	51	4883
2026-01-24 05:57:40.95	44.86	24.36	-40.3	-42.8	17.8	6.01e-01	0	44	0	3684696064	51	4988
2026-01-24 05:57:43.97	43.49	24.38	-40.3	-42.7	17.8	6.02e-01	0	44	0	3730833408	51	4970
2026-01-24 05:57:47.00	42.11	24.38	-40.6	-43.0	17.7	6.01e-01	0	44	0	3776970752	51	5119
2026-01-24 05:57:50.02	40.73	24.37	-40.4	-42.8	17.8	5.99e-01	0	44	0	3823108096	51	5008
2026-01-24 05:57:53.05	39.36	24.34	-40.4	-42.8	17.8	6.02e-01	0	44	0	3871342592	51	4993
2026-01-24 05:57:56.08	37.99	24.29	-40.5	-42.9	17.7	6.00e-01	0	44	0	3917479936	51	5047
2026-01-24 05:57:59.10	36.62	24.23	-40.4	-42.7	17.8	6.00e-01	0	44	0	3963617280	51	4975
2026-01-24 05:58:02.13	35.26	24.15	-40.5	-43.0	17.6	6.00e-01	0	44	0	4009754624	51	5120
2026-01-24 05:58:05.15	33.92	24.06	-40.4	-42.7	17.8	5.99e-01	0	44	0	4055891968	51	4957
2026-01-24 05:58:08.17	32.58	23.95	-40.6	-43.0	17.6	5.98e-01	0	44	0	4102029312	51	5107
2026-01-24 05:58:11.19	31.26	23.83	-40.6	-43.2	17.6	6.01e-01	0	44	0	4148166656	51	5219
2026-01-24 05:58:14.22	29.94	23.69	-40.4	-42.8	17.8	6.00e-01	0	44	0	4194304000	51	4992
2026-01-24 05:58:17.24	28.64	23.54	-40.6	-43.0	17.6	6.01e-01	0	44	0	4242538496	51	5157
2026-01-24 05:58:20.27	27.35	23.38	-40.7	-43.0	17.6	6.01e-01	0	44	0	4288675840	52	4861
2026-01-24 05:58:23.29	26.08	23.20	-40.8	-43.1	17.6	5.96e-01	0	44	0	4334813184	52	4914
2026-01-24 05:58:26.32	24.82	23.02	-40.5	-42.8	17.7	5.99e-01	0	44	0	4380950528	52	4726
2026-01-24 05:58:29.34	23.59	22.82	-40.4	-42.6	17.9	6.00e-01	0	44	0	4427087872	52	4637
2026-01-24 05:58:32.36	22.37	22.61	-40.4	-42.8	17.7	5.96e-01	0	44	0	4473225216	52	4754
2026-01-24 05:58:35.39	21.17	22.39	-40.4	-42.8	17.7	6.00e-01	0	44	0	4519362560	52	4744
2026-01-24 05:58:38.41	19.99	22.16	-40.5	-42.7	17.8	5.99e-01	0	44	0	4565499904	52	4655
2026-01-24 05:58:41.44	18.83	21.92	-40.5	-42.7	17.8	5.96e-01	0	44	0	4611637248	52	4663
2026-01-24 05:58:44.46	17.69	21.67	-40.6	-42.8	17.8	5.99e-01	0	44	0	4659871744	52	4732
2026-01-24 05:58:47.48	16.57	21.42	-40.4	-42.6	17.9	5.99e-01	0	44	0	4706009088	52	4622
2026-01-24 05:58:50.50	15.47	21.16	-40.5	-42.8	17.7	6.00e-01	0	44	0	4752146432	52	4732
2026-01-24 05:58:53.53	14.40	20.89	-40.4	-42.8	17.6	5.97e-01	0	44	0	4798283776	52	4756
2026-01-24 05:58:56.55	13.34	20.62	-40.6	-42.9	17.6	5.97e-01	0	44	0	4846518272	52	4777
2026-01-24 05:58:59.58	12.31	20.34	-40.5	-42.7	17.7	5.97e-01	0	44	0	4892655616	52	4704
2026-01-24 05:59:02.60	11.30	20.06	-40.7	-42.9	17.6	5.97e-01	0	44	0	4938792960	52	4796
2026-01-24 05:59:05.62	10.31	19.77	-41.0	-43.2	17.4	5.95e-01	0	44	0	4984930304	52	4955
2026-01-24 05:59:08.65	9.34	19.48	-40.6	-42.8	17.7	6.02e-01	0	44	0	5031067648	52	4746
2026-01-24 05:59:11.67	8.39	19.19	-40.8	-43.1	17.4	5.97e-01	0	44	0	5077204992	52	4909
2026-01-24 05:59:14.69	7.47	18.89	-40.9	-43.2	17.3	5.97e-01	0	44	0	5123342336	52	4974
2026-01-24 05:59:17.72	6.56	18.60	-40.8	-43.1	17.4	5.93e-01	0	44	0	5169479680	52	4885
2026-01-24 05:59:20.75	5.67	18.30	-41.1	-43.3	17.3	5.96e-01	0	44	0	5217714176	52	5027
2026-01-24 05:59:23.77	4.81	17.99	-41.0	-43.2	17.4	5.99e-01	0	44	0	5263851520	52	4962
2026-01-24 05:59:26.79	3.97	17.69	-41.3	-43.5	17.2	5.92e-01	0	44	0	5309988864	53	4830
2026-01-24 05:59:29.82	3.14	17.39	-41.1	-43.3	17.4	5.93e-01	0	44	0	5356126208	53	4729
2026-01-24 05:59:32.84	2.34	17.09	-41.1	-43.3	17.3	5.94e-01	0	44	0	5404360704	53	4750
2026-01-24 05:59:35.87	1.55	16.78	-54.2	-63.1	3.9	7.44e-01	0	44	0	5450498048	69	18411
2026-01-24 05:59:38.89	0.78	16.48	-53.9	-62.7	3.8	7.44e-01	0	44	104	5450498048	78	10431
2026-01-24 05:59:41.91	0.03	16.18	-53.8	-62.6	3.8	7.47e-01	0	44	104	5450498048	78	10387
2026-01-24 05:59:44.94	359.30	15.87	-53.8	-62.6	3.8	7.46e-01	0	44	104	5450498048	78	10385
2026-01-24 05:59:47.96	358.59	15.57	-53.8	-62.6	3.8	7.47e-01	0	44	104	5450498048	78	10330
2026-01-24 05:59:50.99	357.89	15.27	-53.7	-62.6	3.8	7.44e-01	0	44	104	5450498048	78	10316
2026-01-24 05:59:54.01	357.21	14.97	-53.7	-62.5	3.8	7.45e-01	0	44	104	5450498048	78	10264
2026-01-24 05:59:57.03	356.55	14.68	-53.7	-62.5	3.8	7.47e-01	0	44	104	5450498048	78	10268
2026-01-24 06:00:00.06	355.90	14.38	-53.7	-62.5	3.8	7.45e-01	0	44	104	5450498048	78	10213
2026-01-24 06:00:03.08	355.27	14.08	-53.6	-62.4	3.8	7.45e-01	0	44	104	5450498048	78	10173
2026-01-24 06:00:06.11	354.65	13.79	-53.6	-62.5	3.8	7.45e-01	0	44	104	5450498048	78	10209
2026-01-24 06:00:09.13	354.04	13.50	-53.7	-62.5	3.8	7.45e-01	0	44	104	5450498048	78	10192
2026-01-24 06:00:12.15	353.46	13.21	-53.7	-62.5	3.8	7.46e-01	0	44	104	5450498048	78	10198
2026-01-24 06:00:15.18	352.88	12.92	-53.6	-62.4	3.8	7.44e-01	0	44	104	5450498048	78	10128
2026-01-24 06:00:18.21	352.32	12.64	-53.6	-62.4	3.8	7.45e-01	0	44	104	5450498048	78	10166
2026-01-24 06:00:21.23	351.77	12.35	-53.6	-62.4	3.8	7.45e-01	0	44	104	5450498048	78	10171
2026-01-24 06:00:24.25	351.24	12.07	-53.6	-62.4	3.8	7.44e-01	0	44	104	5450498048	78	10120
2026-01-24 06:00:27.28	350.71	11.79	-53.5	-62.4	3.8	7.45e-01	0	44	104	5450498048	78	10072
2026-01-24 06:00:30.30	350.20	11.52	-53.5	-62.3	3.8	7.46e-01	0	44	104	5450498048	78	10024
2026-01-24 06:00:33.32	349.70	11.24	-53.5	-62.4	3.8	7.47e-01	0	44	104	5450498048	78	10078
2026-01-24 06:00:36.34	349.22	10.97	-53.5	-62.3	3.8	7.45e-01	0	44	104	5450498048	78	10039
2026-01-24 06:00:39.37	348.74	10.70	-53.5	-62.3	3.8	7.45e-01	0	44	104	5450498048	78	10001
2026-01-24 06:00:42.39	348.27	10.43	-53.4	-62.2	3.8	7.47e-01	0	44	104	5450498048	78	9935
2026-01-24 06:00:45.41	347.82	10.17	-53.4	-62.3	3.8	7.45e-01	0	44	104	5450498048	78	9961
2026-01-24 06:00:48.44	347.37	9.91	-53.4	-62.2	3.8	7.46e-01	0	44	104	5450498048	78	9904
2026-01-24 06:00:51.46	346.94	9.65	-53.4	-62.2	3.8	7.45e-01	0	44	104	5450498048	78	9860
2026-01-24 06:00:54.49	346.51	9.39	-53.3	-62.1	3.8	7.44e-01	0	44	104	5450498048	78	9781
2026-01-24 06:00:57.51	346.10	9.13	-53.3	-62.1	3.8	7.45e-01	0	44	104	5450498048	78	9799
2026-01-24 06:01:00.54	345.69	8.88	-53.3	-62.1	3.8	7.45e-01	0	44	104	5450498048	78	9814
2026-01-24 06:01:03.56	345.30	8.63	-53.3	-62.1	3.8	7.45e-01	0	44	104	5450498048	78	9799
2026-01-24 06:01:06.58	344.91	8.38	-53.2	-62.0	3.8	7.45e-01	0	44	104	5450498048	78	9664
2026-01-24 06:01:09.61	344.53	8.13	-53.2	-62.0	3.8	7.46e-01	0	44	104	5450498048	78	9608
2026-01-24 06:01:12.63	344.15	7.88	-53.2	-62.1	3.8	7.45e-01	0	44	104	5450498048	78	9741
2026-01-24 06:01:15.65	343.79	7.64	-53.2	-62.0	3.8	7.45e-01	0	44	104	5450498048	78	9655
2026-01-24 06:01:18.67	343.43	7.40	-53.1	-61.9	3.8	7.45e-01	0	44	104	5450498048	78	9499
2026-01-24 06:01:21.70	343.08	7.16	-53.0	-61.8	3.8	7.47e-01	0	44	104	5450498048	78	9493
2026-01-24 06:01:24.72	342.74	6.93	-53.1	-61.9	3.8	7.46e-01	0	44	104	5450498048	78	9572
2026-01-24 06:01:27.74	342.41	6.69	-53.0	-61.8	3.8	7.47e-01	0	44	104	5450498048	77	10024
2026-01-24 06:01:30.77	342.08	6.46	-52.9	-61.7	3.8	7.46e-01	0	44	104	5450498048	77	9901
2026-01-24 06:01:33.79	341.76	6.23	-52.8	-61.7	3.8	7.43e-01	0	44	104	5450498048	77	9873
2026-01-24 06:01:36.81	341.45	6.00	-53.0	-61.8	3.8	7.46e-01	0	44	104	5450498048	77	9998
2026-01-24 06:01:39.84	341.14	5.78	-52.9	-61.7	3.8	7.45e-01	0	44	104	5450498048	77	9881
2026-01-24 06:01:42.86	340.84	5.55	-52.7	-61.5	3.8	7.45e-01	0	44	104	5450498048	77	9700
2026-01-24 06:01:45.89	340.54	5.33	-52.6	-61.4	3.8	7.45e-01	0	44	104	5450498048	77	9592
2026-01-24 06:01:48.91	340.25	5.11	-52.8	-61.6	3.8	7.46e-01	0	44	104	5450498048	77	9761
2026-01-24 06:01:51.94	339.96	4.89	-53.4	-62.2	3.8	7.45e-01	0	44	104	5450498048	77	10477
2026-01-24 06:01:54.97	339.68	4.68	-54.1	-62.9	3.8	7.47e-01	0	44	104	5450498048	78	10738
2026-01-24 06:01:57.99	339.41	4.46	-54.5	-63.4	3.8	7.44e-01	0	44	104	5450498048	79	10667
2026-01-24 06:02:01.02	339.14	4.25	-54.7	-63.6	3.8	7.44e-01	0	44	104	5450498048	80	10296
2026-01-24 06:02:04.05	338.88	4.04	-54.8	-63.7	3.8	7.43e-01	0	44	104	5450498048	80	10429
2026-01-24 06:02:07.07	338.62	3.83	-54.9	-63.7	3.8	7.44e-01	0	44	104	5450498048	80	10495
2026-01-24 06:02:10.10	338.37	3.62	-54.9	-63.7	3.8	7.45e-01	0	44	104	5450498048	80	10462
2026-01-24 06:02:13.12	338.12	3.41	-54.8	-63.7	3.8	7.45e-01	0	44	104	5450498048	80	10434
2026-01-24 06:02:16.15	337.88	3.21	-54.7	-63.5	3.8	7.46e-01	0	44	104	5450498048	80	10238
2026-01-24 06:02:19.17	337.64	3.01	-54.7	-63.5	3.8	7.44e-01	0	44	104	5450498048	80	10215
2026-01-24 06:02:22.20	337.40	2.80	-54.7	-63.5	3.8	7.45e-01	0	44	104	5450498048	80	10204
2026-01-24 06:02:25.23	337.17	2.60	-54.6	-63.4	3.8	7.46e-01	0	44	104	5450498048	80	10156
2026-01-24 06:02:28.26	336.94	2.41	-54.6	-63.4	3.8	7.43e-01	0	44	104	5450498048	80	10132
2026-01-24 06:02:31.28	336.72	2.21	-54.6	-63.4	3.8	7.46e-01	0	44	104	5450498048	80	10132
2026-01-24 06:02:34.30	336.50	2.01	-54.6	-63.4	3.8	7.47e-01	0	44	104	5450498048	80	10093
2026-01-24 06:02:37.33	336.29	1.82	-54.5	-63.4	3.8	7.46e-01	0	44	104	5450498048	80	10081

#Closed at: 2026-01-24 06:02:37
#Recorded file [5450 MB]: D:/lorett/data/31041_260124_085259.dat