passes_logs/2026/01/24/R3.2S_Murmansk/R3.2S_Murmansk__20260124_011318_NOAA_21_JPSS-2_rec.log

#Pass ID: 20260124_011318_NOAA 21 (JPSS-2)
#Satellite: NOAA 21 (JPSS-2)
#Configuration: NOAA-21
#almurnet v.1.7.20251203
#Start time: 2026-01-24 01:13:18

#Version: 2.2.20231116
#Station: R3.2S_Murmansk
#Location: 33.079688 lon 68.888172 lat
#TLE: 1 54234U 22150A   26023.61190495  .00000215  00000+0  12293-3 0  9993
#TLE: 2 54234  98.7508 324.4078 0000700 226.6110 133.5008 14.19538339166032

#Time	Az	El	Level	Level2	SNR	BER	BlckErr	Temp	State	Recorded	gain1	gain2
2026-01-24 01:13:18.94	26.70	2.03	-52.2	-65.0	3.8	1.49e+00	0	41	0	0	76	15258
2026-01-24 01:13:22.83	26.66	2.28	-52.2	-64.9	3.8	1.49e+00	0	41	104	0	74	17062
2026-01-24 01:13:26.71	26.62	2.53	-52.2	-64.9	3.8	1.49e+00	0	42	104	0	74	16997
2026-01-24 01:13:30.59	26.58	2.79	-52.2	-64.9	3.8	1.49e+00	0	42	104	0	74	16985
2026-01-24 01:13:34.48	26.54	3.04	-52.2	-64.7	3.8	1.49e+00	0	42	104	0	74	16611
2026-01-24 01:13:38.36	26.49	3.30	-52.2	-64.6	3.8	1.49e+00	0	42	104	0	74	16371
2026-01-24 01:13:42.25	26.45	3.56	-52.2	-64.8	3.8	1.49e+00	0	42	104	0	74	16792
2026-01-24 01:13:46.13	26.40	3.82	-51.5	-59.1	5.1	8.64e-01	0	42	104	0	74	8724
2026-01-24 01:13:50.01	26.35	4.08	-49.0	-52.0	11.8	6.77e-04	0	42	0	11534336	70	4854
2026-01-24 01:13:53.89	26.31	4.35	-47.1	-49.0	14.8	0.00e+00	0	42	0	24117248	65	4590
2026-01-24 01:13:57.78	26.26	4.62	-46.2	-47.9	16.0	0.00e+00	0	42	0	35651584	63	4501
2026-01-24 01:14:01.66	26.21	4.89	-47.6	-49.7	14.1	0.00e+00	0	42	0	48234496	65	4978
2026-01-24 01:14:05.54	26.15	5.17	-47.9	-50.2	13.7	3.36e-04	0	43	0	59768832	68	4401
2026-01-24 01:14:09.42	26.10	5.45	-48.2	-50.6	13.3	2.39e-02	0	43	0	68157440	68	4610
2026-01-24 01:14:13.30	26.05	5.73	-44.7	-46.0	18.1	0.00e+00	0	42	0	80740352	61	4065
2026-01-24 01:14:17.18	25.99	6.01	-44.7	-45.9	18.1	0.00e+00	0	43	0	93323264	60	4286
2026-01-24 01:14:21.07	25.93	6.30	-44.4	-45.6	18.5	0.00e+00	0	43	0	104857600	60	4113
2026-01-24 01:14:24.96	25.87	6.59	-44.3	-45.4	18.7	0.00e+00	0	43	0	117440512	60	4051
2026-01-24 01:14:28.84	25.81	6.88	-44.3	-45.5	18.6	0.00e+00	0	43	0	128974848	60	4063
2026-01-24 01:14:32.74	25.75	7.18	-44.2	-45.3	18.8	0.00e+00	0	43	0	141557760	60	4000
2026-01-24 01:14:36.62	25.69	7.48	-44.1	-45.2	19.0	0.00e+00	0	43	0	153092096	60	3921
2026-01-24 01:14:40.51	25.62	7.79	-44.2	-45.3	19.2	0.00e+00	0	43	0	165675008	59	4220
2026-01-24 01:14:44.40	25.55	8.10	-44.2	-45.3	19.3	0.00e+00	0	43	0	178257920	59	4221
2026-01-24 01:14:48.28	25.49	8.41	-44.4	-45.5	19.1	0.00e+00	0	43	0	189792256	59	4312
2026-01-24 01:14:52.17	25.41	8.72	-44.0	-45.1	19.5	0.00e+00	0	43	0	202375168	59	4114
2026-01-24 01:14:56.05	25.34	9.04	-43.9	-45.0	19.6	0.00e+00	0	43	0	214958080	59	4065
2026-01-24 01:14:59.93	25.27	9.36	-43.8	-44.9	19.8	0.00e+00	0	43	0	226492416	59	4026
2026-01-24 01:15:03.82	25.19	9.69	-43.9	-45.0	19.7	0.00e+00	0	43	0	239075328	59	4057
2026-01-24 01:15:07.71	25.11	10.03	-43.7	-44.7	20.0	0.00e+00	0	43	0	250609664	59	3946
2026-01-24 01:15:11.59	25.03	10.36	-43.6	-44.6	20.1	0.00e+00	0	43	0	263192576	58	4125
2026-01-24 01:15:15.48	24.95	10.70	-43.4	-44.4	20.3	0.00e+00	0	43	0	274726912	58	4015
2026-01-24 01:15:19.36	24.86	11.05	-43.3	-44.2	20.5	0.00e+00	0	43	0	287309824	58	3951
2026-01-24 01:15:23.23	24.77	11.40	-43.2	-44.2	20.5	0.00e+00	0	43	0	298844160	58	3917
2026-01-24 01:15:27.11	24.68	11.75	-42.9	-43.8	20.9	0.00e+00	0	43	0	311427072	57	3981
2026-01-24 01:15:31.00	24.59	12.11	-42.9	-43.8	20.9	0.00e+00	0	43	0	324009984	57	3963
2026-01-24 01:15:34.88	24.49	12.48	-42.8	-43.7	21.0	0.00e+00	0	43	0	335544320	57	3925
2026-01-24 01:15:38.77	24.40	12.85	-42.7	-43.6	21.1	0.00e+00	0	43	0	348127232	57	3895
2026-01-24 01:15:42.66	24.29	13.23	-42.7	-43.6	21.2	0.00e+00	0	43	0	359661568	57	3869
2026-01-24 01:15:46.55	24.19	13.61	-42.8	-43.7	21.1	0.00e+00	0	43	0	372244480	57	3917
2026-01-24 01:15:50.43	24.08	14.00	-42.7	-43.6	21.2	0.00e+00	0	43	0	383778816	57	3873
2026-01-24 01:15:54.31	23.97	14.39	-42.7	-43.6	21.2	0.00e+00	0	43	0	396361728	57	3886
2026-01-24 01:15:58.19	23.85	14.79	-42.8	-43.7	21.1	0.00e+00	0	43	0	408944640	57	3935
2026-01-24 01:16:02.09	23.74	15.20	-42.8	-43.7	21.1	0.00e+00	0	43	0	420478976	57	3953
2026-01-24 01:16:05.97	23.61	15.62	-42.9	-43.8	21.1	0.00e+00	0	43	0	433061888	57	3963
2026-01-24 01:16:09.86	23.49	16.04	-42.8	-43.7	21.2	0.00e+00	0	43	0	445644800	57	3930
2026-01-24 01:16:13.73	23.36	16.47	-42.8	-43.7	21.2	0.00e+00	0	43	0	457179136	57	3914
2026-01-24 01:16:17.61	23.22	16.90	-42.8	-43.7	21.2	0.00e+00	0	43	0	468713472	57	3929
2026-01-24 01:16:21.50	23.08	17.35	-42.8	-43.7	21.3	0.00e+00	0	43	0	481296384	57	3937
2026-01-24 01:16:25.39	22.94	17.80	-42.9	-43.8	21.1	0.00e+00	0	43	0	493879296	57	3968
2026-01-24 01:16:29.27	22.79	18.26	-42.8	-43.6	21.3	0.00e+00	0	43	0	505413632	57	3906
2026-01-24 01:16:33.16	22.64	18.73	-42.8	-43.7	21.3	0.00e+00	0	43	0	517996544	57	3926
2026-01-24 01:16:37.05	22.48	19.21	-42.9	-43.7	21.2	0.00e+00	0	43	0	530579456	57	3958
2026-01-24 01:16:40.93	22.31	19.70	-42.7	-43.6	21.4	0.00e+00	0	43	0	542113792	57	3883
2026-01-24 01:16:44.81	22.14	20.19	-42.5	-43.4	21.5	0.00e+00	0	43	0	554696704	57	3789
2026-01-24 01:16:48.69	21.97	20.70	-42.6	-43.5	21.5	0.00e+00	0	43	0	566231040	56	4064
2026-01-24 01:16:52.57	21.79	21.21	-42.3	-43.1	21.8	0.00e+00	0	44	0	578813952	56	3887
2026-01-24 01:16:56.46	21.60	21.74	-42.0	-42.9	22.0	0.00e+00	0	43	0	590348288	56	3785
2026-01-24 01:17:00.34	21.40	22.28	-41.6	-42.4	22.4	0.00e+00	0	43	0	602931200	55	3806
2026-01-24 01:17:04.22	21.20	22.83	-41.4	-42.2	22.6	0.00e+00	0	43	0	614465536	54	3932
2026-01-24 01:17:08.11	20.98	23.39	-41.1	-41.9	22.8	0.00e+00	0	43	0	627048448	54	3798
2026-01-24 01:17:12.00	20.76	23.96	-41.1	-41.8	22.9	0.00e+00	0	44	0	639631360	54	3762
2026-01-24 01:17:15.87	20.53	24.54	-41.2	-42.0	22.8	0.00e+00	0	43	0	651165696	54	3850
2026-01-24 01:17:19.77	20.29	25.14	-41.4	-42.1	22.7	0.00e+00	0	43	0	663748608	54	3908
2026-01-24 01:17:23.66	20.04	25.75	-41.8	-42.6	22.3	0.00e+00	0	43	0	675282944	54	4132
2026-01-24 01:17:27.55	19.78	26.38	-42.2	-43.1	21.9	0.00e+00	0	43	0	687865856	55	4101
2026-01-24 01:17:31.43	19.51	27.02	-42.4	-43.3	21.7	0.00e+00	0	43	0	699400192	55	4210
2026-01-24 01:17:35.34	19.23	27.67	-42.7	-43.5	21.6	0.00e+00	0	43	0	711983104	56	4079
2026-01-24 01:17:39.25	18.93	28.34	-42.6	-43.4	21.6	0.00e+00	0	43	0	724566016	56	4024
2026-01-24 01:17:43.17	18.62	29.03	-42.8	-43.6	21.5	0.00e+00	0	44	0	737148928	56	4134
2026-01-24 01:17:47.10	18.30	29.74	-42.8	-43.7	21.5	0.00e+00	0	44	0	748683264	56	4148
2026-01-24 01:17:51.03	17.95	30.47	-42.8	-43.7	21.5	0.00e+00	0	43	0	761266176	56	4154
2026-01-24 01:17:55.07	17.58	31.23	-42.6	-43.5	21.7	0.00e+00	0	43	0	773849088	56	4057
2026-01-24 01:17:59.10	17.20	32.01	-42.8	-43.6	21.5	0.00e+00	0	43	0	786432000	56	4129
2026-01-24 01:18:03.13	16.79	32.81	-43.1	-44.0	21.2	0.00e+00	0	43	0	799014912	56	4318
2026-01-24 01:18:07.16	16.36	33.63	-43.3	-44.2	21.1	0.00e+00	0	43	0	811597824	57	4167
2026-01-24 01:18:11.19	15.91	34.47	-43.5	-44.5	20.8	0.00e+00	0	43	0	824180736	57	4295
2026-01-24 01:18:15.23	15.44	35.33	-44.0	-45.0	20.5	0.00e+00	0	44	0	836763648	58	4301
2026-01-24 01:18:19.26	14.93	36.21	-44.6	-45.7	19.8	0.00e+00	0	43	0	849346560	59	4402
2026-01-24 01:18:23.29	14.40	37.12	-44.3	-45.3	19.9	0.00e+00	0	43	0	861929472	60	3966
2026-01-24 01:18:27.33	13.83	38.05	-44.0	-45.0	20.2	0.00e+00	0	43	0	874512384	60	3850
2026-01-24 01:18:31.36	13.24	39.00	-44.4	-45.4	20.2	0.00e+00	0	43	0	887095296	59	4255
2026-01-24 01:18:35.40	12.60	39.97	-44.6	-45.6	20.0	0.00e+00	0	43	0	899678208	59	4367
2026-01-24 01:18:39.43	11.92	40.97	-44.4	-45.4	20.1	0.00e+00	0	44	0	912261120	59	4284
2026-01-24 01:18:43.46	11.20	41.99	-43.9	-44.8	20.8	0.00e+00	0	43	0	924844032	59	3991
2026-01-24 01:18:47.49	10.43	43.03	-44.5	-45.5	20.0	0.00e+00	0	43	0	937426944	59	4336
2026-01-24 01:18:51.52	9.61	44.09	-44.9	-46.0	19.4	0.00e+00	0	43	0	950009856	60	4318
2026-01-24 01:18:55.56	8.72	45.18	-44.7	-45.8	19.6	0.00e+00	0	43	0	962592768	60	4200
2026-01-24 01:18:59.59	7.78	46.29	-44.8	-45.9	19.6	0.00e+00	0	44	0	975175680	60	4250
2026-01-24 01:19:03.62	6.76	47.43	-44.6	-45.6	19.9	0.00e+00	0	43	0	987758592	60	4115
2026-01-24 01:19:07.65	5.67	48.58	-44.4	-45.3	20.4	0.00e+00	0	43	0	1000341504	59	4238
2026-01-24 01:19:11.69	4.48	49.75	-44.6	-45.5	20.2	0.00e+00	0	44	0	1012924416	59	4332
2026-01-24 01:19:15.72	3.20	50.94	-44.3	-45.3	20.4	0.00e+00	0	43	0	1025507328	59	4196
2026-01-24 01:19:19.75	1.82	52.14	-44.3	-45.3	20.2	0.00e+00	0	43	0	1038090240	59	4196
2026-01-24 01:19:23.78	0.31	53.35	-44.2	-45.2	20.4	0.00e+00	0	43	0	1050673152	59	4169
2026-01-24 01:19:27.81	358.68	54.56	-43.9	-44.9	20.8	0.00e+00	0	43	0	1063256064	59	4035
2026-01-24 01:19:31.84	356.89	55.79	-42.7	-43.5	22.1	0.00e+00	0	43	0	1075838976	57	3862
2026-01-24 01:19:35.88	354.94	57.01	-43.0	-43.8	21.7	0.00e+00	0	43	0	1088421888	57	3988
2026-01-24 01:19:39.91	352.81	58.22	-42.1	-42.9	22.2	0.00e+00	0	43	0	1101004800	55	4006
2026-01-24 01:19:43.94	350.48	59.41	-41.9	-42.7	22.4	0.00e+00	0	43	0	1113587712	55	3943
2026-01-24 01:19:47.97	347.92	60.58	-41.5	-42.3	22.8	0.00e+00	0	43	0	1127219200	54	3974
2026-01-24 01:19:52.00	345.12	61.71	-41.6	-42.3	22.9	0.00e+00	0	43	0	1138753536	54	3991
2026-01-24 01:19:56.04	342.05	62.80	-41.4	-42.2	23.0	0.00e+00	0	43	0	1151336448	54	3927
2026-01-24 01:20:00.07	338.70	63.83	-41.8	-42.5	22.6	0.00e+00	0	43	0	1164967936	54	4090
2026-01-24 01:20:04.11	335.04	64.78	-41.5	-42.2	22.9	0.00e+00	0	43	0	1177550848	54	3938
2026-01-24 01:20:08.14	331.09	65.65	-40.6	-41.3	23.6	0.00e+00	0	43	0	1189085184	53	3778
2026-01-24 01:20:12.18	326.82	66.41	-41.5	-42.2	23.0	0.00e+00	0	43	0	1202716672	53	4193
2026-01-24 01:20:16.21	322.27	67.04	-41.8	-42.5	22.8	0.00e+00	0	44	0	1215299584	54	4080
2026-01-24 01:20:20.24	317.47	67.54	-41.7	-42.4	22.9	0.00e+00	0	43	0	1226833920	54	4035
2026-01-24 01:20:24.27	312.46	67.89	-41.0	-41.7	23.4	0.00e+00	0	43	0	1240465408	54	3733
2026-01-24 01:20:28.30	307.32	68.08	-41.5	-42.2	23.0	0.00e+00	0	43	0	1253048320	54	3928
2026-01-24 01:20:32.34	302.11	68.11	-41.4	-42.1	23.0	0.00e+00	0	43	0	1265631232	54	3904
2026-01-24 01:20:36.37	296.95	67.97	-41.7	-42.5	22.9	0.00e+00	0	43	0	1278214144	54	4062
2026-01-24 01:20:40.40	291.90	67.66	-41.5	-42.3	23.0	0.00e+00	0	43	0	1290797056	54	3980
2026-01-24 01:20:44.44	287.01	67.20	-41.6	-42.4	23.0	0.00e+00	0	43	0	1303379968	54	4007
2026-01-24 01:20:48.47	282.39	66.61	-41.9	-42.6	22.7	0.00e+00	0	43	0	1315962880	55	3907
2026-01-24 01:20:52.51	278.03	65.88	-41.2	-41.9	23.3	0.00e+00	0	43	0	1328545792	54	3789
2026-01-24 01:20:56.54	273.98	65.04	-42.2	-43.0	22.2	0.00e+00	0	43	0	1341128704	55	4084
2026-01-24 01:21:00.57	270.24	64.11	-43.2	-44.1	21.6	0.00e+00	0	43	0	1353711616	57	4136
2026-01-24 01:21:04.60	266.80	63.10	-41.7	-42.4	22.9	0.00e+00	0	43	0	1366294528	55	3815
2026-01-24 01:21:08.64	263.64	62.03	-42.9	-43.8	21.7	0.00e+00	0	43	0	1378877440	56	4233
2026-01-24 01:21:12.68	260.75	60.90	-43.1	-44.0	21.7	0.00e+00	0	43	0	1391460352	56	4312
2026-01-24 01:21:16.71	258.13	59.74	-41.1	-41.8	23.3	0.00e+00	0	43	0	1404043264	54	3744
2026-01-24 01:21:20.74	255.73	58.55	-43.4	-44.3	21.4	0.00e+00	0	43	0	1416626176	57	4197
2026-01-24 01:21:24.78	253.53	57.34	-43.0	-43.8	21.6	0.00e+00	0	44	0	1429209088	57	3977
2026-01-24 01:21:28.81	251.53	56.12	-43.0	-43.9	21.6	0.00e+00	0	43	0	1441792000	57	4018
2026-01-24 01:21:32.84	249.70	54.90	-41.5	-42.2	22.8	0.00e+00	0	44	0	1454374912	54	3936
2026-01-24 01:21:36.87	248.02	53.67	-44.5	-45.5	20.0	0.00e+00	0	43	0	1466957824	60	4073
2026-01-24 01:21:40.91	246.47	52.46	-43.8	-44.8	20.7	0.00e+00	0	43	0	1479540736	59	3968
2026-01-24 01:21:44.94	245.05	51.25	-43.8	-44.7	19.5	0.00e+00	0	44	0	1492123648	58	4184
2026-01-24 01:21:48.97	243.74	50.05	-44.1	-44.9	20.1	0.00e+00	0	44	0	1504706560	60	3819
2026-01-24 01:21:53.00	242.53	48.88	-43.8	-44.6	20.3	0.00e+00	0	44	0	1517289472	59	3912
2026-01-24 01:21:57.03	241.41	47.72	-45.9	-47.2	18.4	0.00e+00	0	44	0	1529872384	62	4399
2026-01-24 01:22:01.06	240.37	46.58	-45.6	-46.8	18.7	0.00e+00	0	44	0	1542455296	63	3969
2026-01-24 01:22:05.09	239.41	45.46	-44.5	-45.5	19.9	0.00e+00	0	43	0	1555038208	61	3840
2026-01-24 01:22:09.13	238.50	44.36	-44.0	-44.9	20.4	0.00e+00	0	44	0	1567621120	60	3817
2026-01-24 01:22:13.16	237.66	43.28	-44.7	-45.7	19.5	0.00e+00	0	44	0	1580204032	60	4165
2026-01-24 01:22:17.20	236.87	42.23	-44.7	-45.7	19.6	0.00e+00	0	44	0	1592786944	60	4153
2026-01-24 01:22:21.23	236.14	41.20	-44.3	-45.3	19.8	0.00e+00	0	43	0	1605369856	60	3990
2026-01-24 01:22:25.27	235.45	40.19	-44.1	-45.0	20.2	0.00e+00	0	44	0	1617952768	60	3865
2026-01-24 01:22:29.30	234.80	39.21	-44.6	-45.6	19.6	0.00e+00	0	43	0	1630535680	60	4132
2026-01-24 01:22:33.33	234.19	38.25	-44.2	-45.2	20.3	0.00e+00	0	43	0	1643118592	59	4164
2026-01-24 01:22:37.37	233.61	37.31	-44.7	-45.8	19.5	0.00e+00	0	44	0	1655701504	60	4200
2026-01-24 01:22:41.40	233.07	36.40	-44.2	-45.2	19.8	0.00e+00	0	44	0	1668284416	60	3918
2026-01-24 01:22:45.43	232.56	35.51	-43.6	-44.5	20.7	0.00e+00	0	44	0	1680867328	59	3841
2026-01-24 01:22:49.47	232.07	34.64	-44.1	-45.1	20.4	0.00e+00	0	43	0	1693450240	59	4114
2026-01-24 01:22:53.50	231.61	33.79	-43.9	-44.9	20.6	0.00e+00	0	43	0	1706033152	59	4036
2026-01-24 01:22:57.53	231.17	32.96	-43.9	-44.9	20.4	0.00e+00	0	44	0	1718616064	59	4019
2026-01-24 01:23:01.56	230.76	32.15	-43.1	-44.0	21.0	0.00e+00	0	43	0	1731198976	58	3836
2026-01-24 01:23:05.59	230.37	31.37	-42.3	-43.2	21.7	0.00e+00	0	44	0	1743781888	56	3919
2026-01-24 01:23:09.62	229.99	30.60	-42.2	-43.0	21.9	0.00e+00	0	44	0	1756364800	56	3863
2026-01-24 01:23:13.66	229.64	29.85	-42.4	-43.2	21.9	0.00e+00	0	44	0	1769996288	56	3923
2026-01-24 01:23:17.69	229.30	29.11	-42.4	-43.2	21.9	0.00e+00	0	44	0	1781530624	56	3953
2026-01-24 01:23:21.72	228.97	28.40	-42.8	-43.6	21.6	0.00e+00	0	44	0	1794113536	56	4141
2026-01-24 01:23:25.75	228.66	27.70	-43.0	-44.0	21.2	0.00e+00	0	44	0	1807745024	56	4292
2026-01-24 01:23:29.78	228.36	27.02	-42.7	-43.6	21.4	0.00e+00	0	44	0	1820327936	56	4129
2026-01-24 01:23:33.82	228.08	26.35	-42.4	-43.2	21.8	0.00e+00	0	43	0	1831862272	56	3933
2026-01-24 01:23:37.86	227.81	25.70	-42.0	-42.8	22.2	0.00e+00	0	44	0	1845493760	56	3747
2026-01-24 01:23:41.89	227.55	25.07	-41.5	-42.2	22.5	0.00e+00	0	44	0	1858076672	54	3943
2026-01-24 01:23:45.91	227.30	24.45	-41.8	-42.6	22.2	0.00e+00	0	44	0	1870659584	54	4117
2026-01-24 01:23:49.94	227.06	23.84	-42.1	-42.9	22.0	0.00e+00	0	44	0	1883242496	54	4250
2026-01-24 01:23:53.97	226.83	23.24	-42.2	-43.1	21.8	0.00e+00	0	43	0	1895825408	55	4103
2026-01-24 01:23:58.01	226.61	22.66	-42.2	-43.0	21.9	0.00e+00	0	44	0	1908408320	55	4087
2026-01-24 01:24:02.04	226.39	22.09	-42.1	-42.9	21.9	0.00e+00	0	44	0	1919942656	55	4051
2026-01-24 01:24:06.07	226.19	21.54	-42.2	-43.0	21.9	0.00e+00	0	44	0	1933574144	55	4092
2026-01-24 01:24:10.10	225.99	20.99	-42.2	-43.1	21.8	0.00e+00	0	43	0	1946157056	55	4112
2026-01-24 01:24:14.13	225.80	20.46	-42.3	-43.2	21.7	0.00e+00	0	43	0	1958739968	55	4154
2026-01-24 01:24:18.17	225.62	19.93	-42.4	-43.3	21.6	0.00e+00	0	43	0	1971322880	55	4194
2026-01-24 01:24:22.20	225.44	19.42	-42.3	-43.2	21.6	0.00e+00	0	44	0	1983905792	55	4170
2026-01-24 01:24:26.23	225.27	18.92	-42.4	-43.2	21.6	0.00e+00	0	44	0	1996488704	55	4183
2026-01-24 01:24:30.26	225.11	18.42	-42.4	-43.3	21.5	0.00e+00	0	44	0	2009071616	55	4197
2026-01-24 01:24:34.30	224.95	17.94	-42.6	-43.5	21.4	0.00e+00	0	44	0	2021654528	55	4295
2026-01-24 01:24:38.33	224.80	17.46	-42.5	-43.4	21.4	0.00e+00	0	44	0	2034237440	55	4271
2026-01-24 01:24:42.36	224.65	17.00	-42.9	-43.9	21.1	0.00e+00	0	44	0	2046820352	56	4246
2026-01-24 01:24:46.39	224.51	16.54	-43.0	-43.9	21.0	0.00e+00	0	44	0	2059403264	56	4257
2026-01-24 01:24:50.42	224.37	16.09	-43.2	-44.1	20.8	0.00e+00	0	44	0	2071986176	56	4357
2026-01-24 01:24:54.45	224.23	15.65	-43.3	-44.2	20.7	0.00e+00	0	44	0	2084569088	57	4164
2026-01-24 01:24:58.49	224.10	15.21	-43.3	-44.2	20.6	0.00e+00	0	44	0	2097152000	57	4185
2026-01-24 01:25:02.52	223.98	14.79	-43.3	-44.2	20.6	0.00e+00	0	44	0	2109734912	57	4166
2026-01-24 01:25:06.55	223.85	14.37	-43.2	-44.2	20.6	0.00e+00	0	44	0	2122317824	57	4152
2026-01-24 01:25:10.58	223.74	13.96	-43.2	-44.2	20.5	0.00e+00	0	44	0	2134900736	57	4156
2026-01-24 01:25:14.61	223.62	13.55	-43.3	-44.3	20.4	0.00e+00	0	44	0	2147483648	57	4208
2026-01-24 01:25:18.65	223.51	13.15	-43.4	-44.3	20.3	0.00e+00	0	44	0	2160066560	57	4233
2026-01-24 01:25:22.68	223.40	12.76	-43.5	-44.5	20.2	0.00e+00	0	44	0	2172649472	57	4319
2026-01-24 01:25:26.71	223.30	12.37	-43.4	-44.4	20.3	0.00e+00	0	44	0	2185232384	57	4272
2026-01-24 01:25:30.74	223.19	11.99	-43.8	-44.8	19.9	0.00e+00	0	44	0	2197815296	58	4213
2026-01-24 01:25:34.77	223.10	11.62	-43.8	-44.9	19.8	0.00e+00	0	44	0	2210398208	58	4258
2026-01-24 01:25:38.81	223.00	11.25	-43.7	-44.7	19.9	0.00e+00	0	44	0	2222981120	58	4181
2026-01-24 01:25:42.84	222.91	10.88	-44.0	-45.0	19.7	0.00e+00	0	44	0	2235564032	58	4325
2026-01-24 01:25:46.87	222.81	10.53	-43.8	-44.9	19.8	0.00e+00	0	44	0	2248146944	58	4256
2026-01-24 01:25:50.91	222.73	10.17	-44.4	-45.5	19.2	0.00e+00	0	44	0	2260729856	59	4334
2026-01-24 01:25:54.94	222.64	9.82	-43.9	-44.9	19.7	0.00e+00	0	44	0	2273312768	59	4051
2026-01-24 01:25:58.97	222.56	9.48	-44.0	-45.0	19.6	0.00e+00	0	44	0	2285895680	59	4096
2026-01-24 01:26:03.00	222.48	9.14	-43.8	-44.8	19.7	0.00e+00	0	44	0	2298478592	59	3985
2026-01-24 01:26:07.03	222.40	8.80	-44.0	-45.0	19.5	0.00e+00	0	44	0	2311061504	59	4090
2026-01-24 01:26:11.07	222.32	8.47	-43.9	-45.0	19.4	0.00e+00	0	44	0	2323644416	59	4065
2026-01-24 01:26:15.10	222.24	8.15	-44.0	-45.1	19.3	0.00e+00	0	44	0	2336227328	59	4127
2026-01-24 01:26:19.14	222.17	7.82	-44.2	-45.3	19.1	0.00e+00	0	44	0	2348810240	59	4221
2026-01-24 01:26:23.17	222.10	7.51	-44.2	-45.3	19.1	0.00e+00	0	44	0	2361393152	59	4204
2026-01-24 01:26:27.20	222.03	7.19	-44.3	-45.4	19.0	0.00e+00	0	44	0	2373976064	59	4274
2026-01-24 01:26:31.24	221.96	6.88	-44.3	-45.4	18.9	0.00e+00	0	44	0	2386558976	59	4257
2026-01-24 01:26:35.27	221.90	6.57	-44.7	-45.9	18.5	0.00e+00	0	44	0	2399141888	59	4495
2026-01-24 01:26:39.31	221.83	6.27	-44.5	-45.8	18.2	0.00e+00	0	44	0	2411724800	60	4198
2026-01-24 01:26:43.34	221.77	5.97	-44.4	-45.6	18.6	0.00e+00	0	44	0	2424307712	59	4362
2026-01-24 01:26:47.37	221.71	5.67	-44.5	-45.7	18.1	0.00e+00	0	44	0	2436890624	60	4174
2026-01-24 01:26:51.40	221.65	5.38	-44.6	-45.9	17.8	0.00e+00	0	44	0	2449473536	60	4265
2026-01-24 01:26:55.43	221.59	5.09	-45.0	-46.4	17.3	0.00e+00	0	44	0	2462056448	60	4507
2026-01-24 01:26:59.46	221.53	4.80	-53.5	-66.2	3.8	1.49e+00	0	44	104	2466250752	77	16663
2026-01-24 01:27:03.49	221.48	4.52	-54.0	-66.7	3.8	1.49e+00	0	44	104	2466250752	78	16682
2026-01-24 01:27:07.53	221.42	4.24	-54.2	-66.9	3.8	1.49e+00	0	44	104	2466250752	78	17082
2026-01-24 01:27:11.56	221.37	3.96	-54.3	-67.1	3.8	1.49e+00	0	44	104	2466250752	79	16346
2026-01-24 01:27:15.60	221.32	3.69	-54.4	-67.1	3.8	1.49e+00	0	44	104	2466250752	79	16437
2026-01-24 01:27:19.64	221.27	3.41	-54.3	-67.1	3.8	1.49e+00	0	44	104	2466250752	79	16317
2026-01-24 01:27:23.67	221.22	3.14	-54.1	-66.8	3.8	1.49e+00	0	44	104	2466250752	79	15940
2026-01-24 01:27:27.70	221.17	2.88	-54.0	-66.8	3.8	1.49e+00	0	44	104	2466250752	79	15915
2026-01-24 01:27:31.74	221.12	2.61	-54.0	-66.8	3.8	1.49e+00	0	44	104	2466250752	79	15822
2026-01-24 01:27:35.77	221.07	2.35	-54.1	-66.9	3.8	1.49e+00	0	44	104	2466250752	79	16019
2026-01-24 01:27:39.80	221.03	2.09	-54.0	-66.8	3.8	1.49e+00	0	44	104	2466250752	79	15866

#Closed at: 2026-01-24 01:27:42
#Recorded file [2466 MB]: D:/lorett/data/31041_260124_041318.dat