passes_logs/2026/01/24/R3.2S_Murmansk/R3.2S_Murmansk__20260124_203306_TY-42_rec.log

#Pass ID: 20260124_203306_TY-42
#Satellite: TY-42
#Configuration: TY-42_900M
#almurnet v.1.7.20251203
#Start time: 2026-01-24 20:33:08

#Version: 2.2.20231116
#Station: R3.2S_Murmansk
#Location: 33.079688 lon 68.888172 lat
#TLE: 1 64048U 25103A   26024.51782867  .00000755  00000+0  39102-4 0  9996
#TLE: 2 64048  97.4121  99.7564 0001738  90.7706 269.3727 15.19168577 38261

#Time	Az	El	Level	Level2	SNR	BER	BlckErr	Temp	State	Recorded	gain1	gain2
2026-01-24 20:33:08.45	207.35	2.12	-52.7	-54.9	6.2	0.00e+00	0	50	0	0	77	17998
2026-01-24 20:33:11.36	207.61	2.30	-52.7	-54.9	6.2	0.00e+00	0	50	104	0	77	18038
2026-01-24 20:33:14.28	207.87	2.48	-52.7	-54.9	6.2	0.00e+00	0	50	104	0	77	18056
2026-01-24 20:33:17.19	208.14	2.67	-52.7	-54.8	6.2	0.00e+00	0	50	104	0	77	17954
2026-01-24 20:33:20.11	208.41	2.85	-52.7	-54.9	6.2	0.00e+00	0	50	104	0	77	18025
2026-01-24 20:33:23.02	208.69	3.03	-52.7	-54.8	6.2	0.00e+00	0	50	104	0	77	17957
2026-01-24 20:33:25.92	208.97	3.22	-52.7	-54.8	6.2	0.00e+00	0	50	104	0	77	17943
2026-01-24 20:33:28.84	209.25	3.41	-52.7	-54.8	6.2	0.00e+00	0	50	104	0	77	17963
2026-01-24 20:33:31.76	209.54	3.60	-52.7	-54.9	6.2	0.00e+00	0	50	104	0	77	17982
2026-01-24 20:33:34.67	209.84	3.79	-52.7	-54.8	6.2	0.00e+00	0	51	104	0	77	17949
2026-01-24 20:33:37.58	210.13	3.98	-52.7	-54.9	6.2	0.00e+00	0	51	104	0	77	17976
2026-01-24 20:33:40.49	210.44	4.17	-52.7	-54.8	6.2	0.00e+00	0	51	104	0	77	17957
2026-01-24 20:33:43.41	210.75	4.36	-52.7	-54.8	6.2	0.00e+00	0	51	104	0	77	17929
2026-01-24 20:33:46.32	211.06	4.56	-52.7	-54.8	6.2	0.00e+00	0	51	104	0	77	17928
2026-01-24 20:33:49.24	211.38	4.76	-52.7	-54.8	6.2	0.00e+00	0	51	104	0	77	17911
2026-01-24 20:33:52.16	211.70	4.95	-52.7	-54.8	6.2	0.00e+00	0	51	104	0	77	17947
2026-01-24 20:33:55.08	212.03	5.15	-52.8	-54.9	6.2	0.00e+00	0	51	104	0	77	18088
2026-01-24 20:33:58.00	212.37	5.35	-52.9	-55.0	6.2	0.00e+00	0	51	104	0	77	18305
2026-01-24 20:34:00.93	212.71	5.56	-46.7	-47.1	8.5	0.00e+00	9903	54	0	75497472	64	15553
2026-01-24 20:34:03.91	213.06	5.76	-35.6	-35.5	14.5	2.50e-02	0	53	0	276824064	43	13786
2026-01-24 20:34:06.93	213.43	5.97	-35.4	-35.3	14.6	1.48e-02	0	54	0	612368384	42	14253
2026-01-24 20:34:09.94	213.80	6.19	-35.4	-35.4	14.6	1.17e-02	0	54	0	956301312	42	14278
2026-01-24 20:34:12.94	214.17	6.40	-35.0	-34.9	14.8	1.17e-02	0	54	0	1291845632	41	14415
2026-01-24 20:34:15.93	214.55	6.61	-35.3	-35.2	14.7	9.20e-03	0	54	0	1627389952	41	14807
2026-01-24 20:34:18.93	214.94	6.83	-35.1	-35.1	14.6	9.20e-03	0	54	0	1962934272	41	14610
2026-01-24 20:34:21.92	215.34	7.05	-35.1	-35.0	14.7	9.76e-03	0	55	0	2306867200	41	14494
2026-01-24 20:34:24.94	215.74	7.27	-34.7	-34.6	14.9	9.37e-03	0	55	0	2642411520	41	13950
2026-01-24 20:34:27.96	216.16	7.49	-34.9	-34.8	14.8	8.97e-03	0	55	0	2986344448	41	14264
2026-01-24 20:34:30.99	216.58	7.71	-34.9	-34.8	14.8	8.32e-03	0	55	0	3330277376	41	14207
2026-01-24 20:34:34.01	217.01	7.94	-34.9	-34.8	14.8	8.32e-03	0	55	0	3665821696	41	14213
2026-01-24 20:34:37.03	217.45	8.17	-34.5	-34.4	15.0	7.85e-03	0	55	0	4001366016	40	14369
2026-01-24 20:34:40.06	217.89	8.40	-34.5	-34.4	15.0	6.78e-03	0	55	0	4353687552	40	14402
2026-01-24 20:34:43.08	218.35	8.62	-34.4	-34.3	15.1	6.27e-03	0	55	0	4689231872	40	14156
2026-01-24 20:34:46.10	218.81	8.86	-34.2	-34.1	15.2	6.12e-03	0	55	0	5024776192	40	13938
2026-01-24 20:34:49.13	219.28	9.09	-34.0	-34.0	15.3	4.09e-03	0	56	0	5360320512	39	14447
2026-01-24 20:34:52.15	219.76	9.32	-33.9	-33.8	15.4	2.95e-03	0	56	0	5704253440	39	14176
2026-01-24 20:34:55.17	220.25	9.56	-33.9	-33.8	15.4	2.80e-03	0	56	0	6048186368	39	14253
2026-01-24 20:34:58.19	220.75	9.79	-33.8	-33.7	15.4	2.44e-03	0	56	0	6383730688	39	13968
2026-01-24 20:35:01.21	221.26	10.03	-33.4	-33.3	15.6	1.87e-03	0	56	0	6727663616	38	14250
2026-01-24 20:35:04.24	221.78	10.27	-33.5	-33.5	15.5	2.24e-03	0	56	0	7063207936	38	14454
2026-01-24 20:35:07.26	222.31	10.51	-33.4	-33.3	15.6	1.88e-03	0	56	0	7407140864	38	14117
2026-01-24 20:35:10.28	222.84	10.75	-33.2	-33.1	15.7	1.65e-03	0	56	0	7751073792	38	13929
2026-01-24 20:35:13.30	223.39	11.00	-33.1	-33.0	15.7	1.36e-03	0	56	0	8086618112	38	13670
2026-01-24 20:35:16.32	223.95	11.24	-32.8	-32.7	15.8	1.03e-03	0	56	0	8422162432	37	14023
2026-01-24 20:35:19.35	224.53	11.49	-32.7	-32.6	15.9	8.87e-04	0	56	0	8757706752	37	13915
2026-01-24 20:35:22.37	225.11	11.73	-32.5	-32.4	16.0	8.30e-04	0	57	0	9110028288	37	13566
2026-01-24 20:35:25.39	225.71	11.98	-32.4	-32.3	16.0	6.15e-04	0	56	0	9445572608	36	14150
2026-01-24 20:35:28.42	226.31	12.23	-32.4	-32.2	16.0	6.15e-04	0	56	0	9781116928	36	14111
2026-01-24 20:35:31.44	226.93	12.48	-32.4	-32.3	16.0	5.86e-04	0	56	0	10125049856	36	14181
2026-01-24 20:35:34.47	227.57	12.73	-32.2	-32.1	16.1	3.72e-04	0	56	0	10468982784	36	13827
2026-01-24 20:35:37.49	228.21	12.98	-32.1	-32.0	16.1	3.62e-04	0	57	0	10804527104	36	13749
2026-01-24 20:35:40.51	228.86	13.23	-29.6	-29.5	15.7	2.81e-04	0	57	0	11148460032	31	13767
2026-01-24 20:35:43.54	229.54	13.48	-29.5	-29.4	15.7	1.25e-03	0	57	0	11484004352	31	13622
2026-01-24 20:35:46.56	230.22	13.73	-29.4	-29.3	15.8	1.22e-03	0	57	0	11836325888	30	14189
2026-01-24 20:35:49.58	230.91	13.98	-29.3	-29.2	15.8	1.19e-03	0	57	0	12171870208	30	14102
2026-01-24 20:35:52.60	231.62	14.23	-29.2	-29.1	15.8	9.82e-04	0	57	0	12507414528	30	13831
2026-01-24 20:35:55.63	232.35	14.48	-29.1	-29.1	15.9	9.82e-04	0	57	0	12842958848	30	13791
2026-01-24 20:35:58.65	233.09	14.73	-29.0	-28.9	15.9	1.04e-03	0	57	0	13178503168	30	13622
2026-01-24 20:36:01.67	233.84	14.98	-28.9	-28.8	15.9	8.25e-04	0	57	0	13530824704	29	14247
2026-01-24 20:36:04.69	234.61	15.22	-29.0	-28.9	15.9	6.91e-04	0	57	0	13866369024	29	14318
2026-01-24 20:36:07.72	235.39	15.47	-29.0	-28.9	15.9	8.39e-04	0	57	0	14201913344	29	14316
2026-01-24 20:36:10.74	236.19	15.72	-28.8	-28.7	15.9	7.20e-04	0	57	0	14545846272	29	13979
2026-01-24 20:36:13.76	237.00	15.96	-28.7	-28.6	16.0	5.15e-04	0	57	0	14889779200	29	13799
2026-01-24 20:36:16.78	237.83	16.20	-28.6	-28.5	16.0	6.15e-04	0	57	0	15233712128	29	13774
2026-01-24 20:36:19.81	238.67	16.44	-28.6	-28.5	15.9	5.63e-04	0	57	0	15569256448	29	13785
2026-01-24 20:36:22.83	239.53	16.68	-28.6	-28.5	15.9	5.29e-04	0	57	0	15904800768	29	13690
2026-01-24 20:36:25.86	240.41	16.92	-28.4	-28.3	16.0	6.63e-04	0	57	0	16257122304	28	14218
2026-01-24 20:36:28.88	241.29	17.15	-28.3	-28.2	16.0	5.72e-04	0	57	0	16592666624	28	14058
2026-01-24 20:36:31.90	242.20	17.38	-28.2	-28.1	16.1	4.77e-04	0	57	0	16928210944	28	13847
2026-01-24 20:36:34.93	243.12	17.60	-28.3	-28.2	16.0	4.29e-04	0	57	0	17263755264	28	13985
2026-01-24 20:36:37.95	244.06	17.82	-28.1	-28.0	16.1	4.29e-04	0	57	0	17607688192	28	13748
2026-01-24 20:36:40.98	245.01	18.04	-28.0	-27.9	16.1	4.05e-04	0	57	0	17951621120	27	14400
2026-01-24 20:36:44.00	245.98	18.25	-28.1	-28.0	16.1	3.19e-04	0	57	0	18287165440	27	14556
2026-01-24 20:36:47.02	246.96	18.46	-27.8	-27.7	16.2	4.00e-04	0	57	0	18631098368	27	14018
2026-01-24 20:36:50.05	247.96	18.66	-27.5	-27.4	16.3	1.38e-04	0	57	0	18966642688	26	14357
2026-01-24 20:36:53.07	248.97	18.86	-27.4	-27.3	16.3	1.57e-04	0	57	0	19310575616	26	14175
2026-01-24 20:36:56.10	250.00	19.05	-27.6	-27.5	16.3	1.14e-04	0	57	0	19654508544	26	14479
2026-01-24 20:36:59.11	251.03	19.23	-27.4	-27.3	16.3	1.62e-04	0	57	0	19990052864	26	14162
2026-01-24 20:37:02.14	252.09	19.41	-27.4	-27.3	16.3	1.38e-04	0	57	0	20325597184	26	14252
2026-01-24 20:37:05.16	253.16	19.58	-27.3	-27.2	16.4	1.19e-04	0	57	0	20677918720	26	14098
2026-01-24 20:37:08.19	254.24	19.74	-27.3	-27.2	16.4	1.10e-04	0	57	0	21013463040	26	13970
2026-01-24 20:37:11.21	255.33	19.90	-27.3	-27.2	16.4	8.10e-05	0	57	0	21349007360	26	14004
2026-01-24 20:37:14.23	256.44	20.04	-27.3	-27.2	16.3	1.05e-04	0	57	0	21684551680	26	14090
2026-01-24 20:37:17.26	257.56	20.18	-27.4	-27.3	16.3	1.38e-04	0	57	0	22036873216	26	14228
2026-01-24 20:37:20.28	258.68	20.31	-27.4	-27.3	16.3	1.62e-04	0	57	0	22372417536	26	14157
2026-01-24 20:37:23.30	259.82	20.43	-27.4	-27.3	16.3	1.38e-04	0	57	0	22707961856	26	14124
2026-01-24 20:37:26.32	260.97	20.54	-27.2	-27.1	16.3	1.76e-04	0	57	0	23051894784	26	13881
2026-01-24 20:37:29.35	262.13	20.64	-27.2	-27.1	16.3	1.48e-04	0	57	0	23387439104	26	13858
2026-01-24 20:37:32.37	263.29	20.72	-27.3	-27.2	16.3	1.67e-04	0	58	0	23731372032	26	14023
2026-01-24 20:37:35.39	264.46	20.80	-27.3	-27.2	16.3	1.19e-04	0	57	0	24075304960	26	14071
2026-01-24 20:37:38.41	265.63	20.87	-27.2	-27.1	16.3	1.29e-04	0	57	0	24410849280	26	13817
2026-01-24 20:37:41.44	266.82	20.93	-27.1	-27.0	16.3	1.67e-04	0	57	0	24746393600	26	13787
2026-01-24 20:37:44.46	268.00	20.97	-27.3	-27.2	16.2	9.05e-05	0	57	0	25098715136	26	13994
2026-01-24 20:37:47.49	269.20	21.01	-27.1	-27.0	16.2	9.53e-05	0	57	0	25434259456	26	13637
2026-01-24 20:37:50.51	270.39	21.03	-27.4	-27.3	16.1	1.00e-04	0	57	0	25769803776	26	14230
2026-01-24 20:37:53.53	271.58	21.04	-27.4	-27.3	16.1	2.05e-04	0	57	0	26105348096	26	14179
2026-01-24 20:37:56.56	272.78	21.04	-27.3	-27.2	16.2	1.38e-04	0	57	0	26457669632	26	13972
2026-01-24 20:37:59.58	273.97	21.03	-27.3	-27.2	16.2	1.24e-04	0	58	0	26793213952	26	13971
2026-01-24 20:38:02.60	275.16	21.01	-27.4	-27.3	16.1	1.91e-04	0	57	0	27128758272	26	14201
2026-01-24 20:38:05.63	276.35	20.98	-27.5	-27.4	16.1	1.48e-04	0	58	0	27472691200	26	14301
2026-01-24 20:38:08.65	277.53	20.94	-27.5	-27.4	16.1	2.00e-04	0	57	0	27808235520	26	14348
2026-01-24 20:38:11.68	278.72	20.88	-27.6	-27.5	16.2	2.43e-04	0	58	0	28152168448	26	14500
2026-01-24 20:38:14.70	279.89	20.81	-27.5	-27.4	16.3	1.67e-04	0	58	0	28496101376	26	14419
2026-01-24 20:38:17.72	281.06	20.74	-27.4	-27.3	16.3	1.48e-04	0	58	0	28831645696	26	14233
2026-01-24 20:38:20.75	282.23	20.65	-53.9	-56.0	6.2	1.48e-04	0	56	104	28907143168	78	19441
2026-01-24 20:38:23.77	283.38	20.55	-53.9	-56.1	6.2	1.48e-04	0	56	104	28907143168	78	19500
2026-01-24 20:38:26.79	284.53	20.45	-53.9	-56.0	6.2	7.62e-05	0	56	104	28907143168	78	19443
2026-01-24 20:38:29.81	285.66	20.33	-53.9	-56.1	6.2	7.62e-05	0	56	104	28907143168	78	19527
2026-01-24 20:38:32.84	286.79	20.20	-54.0	-56.0	6.2	7.62e-05	0	56	104	28907143168	78	19463
2026-01-24 20:38:35.86	287.91	20.07	-53.9	-56.0	6.2	0.00e+00	0	56	104	28907143168	78	19455
2026-01-24 20:38:38.88	289.01	19.92	-54.0	-56.1	6.2	0.00e+00	0	55	104	28907143168	78	19537
2026-01-24 20:38:41.91	290.11	19.77	-53.9	-56.1	6.2	0.00e+00	0	56	104	28907143168	78	19506
2026-01-24 20:38:44.93	291.18	19.61	-54.0	-56.1	6.2	0.00e+00	0	55	104	28907143168	78	19563
2026-01-24 20:38:47.95	292.25	19.44	-53.9	-56.0	6.2	0.00e+00	0	55	104	28907143168	78	19397
2026-01-24 20:38:50.98	293.31	19.27	-53.9	-56.0	6.2	0.00e+00	0	55	104	28907143168	78	19399
2026-01-24 20:38:54.00	294.35	19.09	-53.9	-56.0	6.2	0.00e+00	0	55	104	28907143168	78	19465
2026-01-24 20:38:57.03	295.37	18.90	-53.9	-56.1	6.2	0.00e+00	0	55	104	28907143168	78	19514
2026-01-24 20:39:00.05	296.38	18.70	-53.9	-56.0	6.2	0.00e+00	0	55	104	28907143168	78	19379
2026-01-24 20:39:03.07	297.38	18.50	-53.9	-56.0	6.2	0.00e+00	0	55	104	28907143168	78	19374
2026-01-24 20:39:06.09	298.36	18.30	-53.9	-56.0	6.2	0.00e+00	0	55	104	28907143168	78	19367
2026-01-24 20:39:09.11	299.32	18.09	-53.9	-56.0	6.2	0.00e+00	0	55	104	28907143168	78	19410
2026-01-24 20:39:12.14	300.27	17.87	-53.8	-55.9	6.2	0.00e+00	0	55	104	28907143168	78	19253
2026-01-24 20:39:15.17	301.21	17.65	-53.8	-55.9	6.2	0.00e+00	0	55	104	28907143168	78	19179
2026-01-24 20:39:18.19	302.13	17.43	-53.8	-56.0	6.2	0.00e+00	0	55	104	28907143168	78	19262
2026-01-24 20:39:21.21	303.03	17.20	-53.8	-55.9	6.2	0.00e+00	0	55	104	28907143168	78	19221
2026-01-24 20:39:24.23	303.92	16.97	-53.8	-55.9	6.2	0.00e+00	0	54	104	28907143168	78	19158
2026-01-24 20:39:27.26	304.80	16.74	-53.8	-55.9	6.2	0.00e+00	0	55	104	28907143168	78	19181
2026-01-24 20:39:30.28	305.65	16.50	-53.8	-55.9	6.2	0.00e+00	0	54	104	28907143168	78	19208
2026-01-24 20:39:33.30	306.49	16.27	-53.8	-55.9	6.2	0.00e+00	0	54	104	28907143168	78	19164
2026-01-24 20:39:36.32	307.32	16.03	-53.8	-55.9	6.2	0.00e+00	0	54	104	28907143168	78	19196
2026-01-24 20:39:39.35	308.13	15.78	-53.8	-55.9	6.2	0.00e+00	0	54	104	28907143168	78	19096
2026-01-24 20:39:42.37	308.93	15.54	-53.8	-55.9	6.2	0.00e+00	0	54	104	28907143168	78	19241
2026-01-24 20:39:45.39	309.71	15.29	-53.8	-55.9	6.2	0.00e+00	0	54	104	28907143168	78	19111
2026-01-24 20:39:48.41	310.48	15.05	-53.7	-55.9	6.2	0.00e+00	0	54	104	28907143168	78	19047
2026-01-24 20:39:51.43	311.23	14.80	-53.7	-55.8	6.2	0.00e+00	0	54	104	28907143168	78	18976
2026-01-24 20:39:54.45	311.96	14.55	-53.7	-55.8	6.2	0.00e+00	0	54	104	28907143168	78	18940
2026-01-24 20:39:57.47	312.69	14.31	-53.7	-55.8	6.2	0.00e+00	0	54	104	28907143168	78	18881
2026-01-24 20:40:00.50	313.40	14.06	-53.7	-55.8	6.2	0.00e+00	0	54	104	28907143168	78	18887
2026-01-24 20:40:03.52	314.09	13.81	-53.6	-55.7	6.2	0.00e+00	0	54	104	28907143168	78	18741
2026-01-24 20:40:06.54	314.78	13.56	-53.6	-55.7	6.2	0.00e+00	0	54	104	28907143168	78	18752
2026-01-24 20:40:09.56	315.45	13.31	-53.6	-55.7	6.2	0.00e+00	0	54	104	28907143168	78	18723
2026-01-24 20:40:12.59	316.10	13.06	-53.6	-55.7	6.2	0.00e+00	0	54	104	28907143168	78	18684
2026-01-24 20:40:15.61	316.75	12.81	-53.5	-55.6	6.2	0.00e+00	0	54	104	28907143168	78	18557
2026-01-24 20:40:18.63	317.38	12.57	-53.5	-55.6	6.2	0.00e+00	0	54	104	28907143168	78	18536
2026-01-24 20:40:21.65	317.99	12.32	-53.5	-55.6	6.2	0.00e+00	0	54	104	28907143168	78	18506
2026-01-24 20:40:24.67	318.60	12.07	-53.5	-55.6	6.2	0.00e+00	0	54	104	28907143168	78	18510
2026-01-24 20:40:27.69	319.20	11.83	-53.4	-55.6	6.2	0.00e+00	0	54	104	28907143168	78	18393
2026-01-24 20:40:30.72	319.78	11.58	-53.4	-55.5	6.2	0.00e+00	0	54	104	28907143168	78	18329
2026-01-24 20:40:33.74	320.35	11.34	-53.4	-55.5	6.2	0.00e+00	0	54	104	28907143168	78	18286
2026-01-24 20:40:36.76	320.91	11.10	-53.4	-55.5	6.2	0.00e+00	0	54	104	28907143168	78	18359
2026-01-24 20:40:39.79	321.46	10.86	-53.3	-55.5	6.2	0.00e+00	0	54	104	28907143168	78	18187
2026-01-24 20:40:42.81	322.00	10.62	-53.3	-55.4	6.2	0.00e+00	0	54	104	28907143168	78	18158
2026-01-24 20:40:45.82	322.53	10.38	-53.3	-55.4	6.2	0.00e+00	0	54	104	28907143168	78	18105
2026-01-24 20:40:48.84	323.05	10.14	-53.3	-55.4	6.2	0.00e+00	0	54	104	28907143168	78	18133
2026-01-24 20:40:51.86	323.56	9.90	-53.2	-55.3	6.2	0.00e+00	0	54	104	28907143168	78	17870
2026-01-24 20:40:54.89	324.06	9.67	-53.2	-55.3	6.2	0.00e+00	0	54	104	28907143168	78	17957
2026-01-24 20:40:57.91	324.55	9.43	-53.1	-55.3	6.2	0.00e+00	0	54	104	28907143168	78	17788
2026-01-24 20:41:00.92	325.03	9.20	-53.2	-55.3	6.2	0.00e+00	0	54	104	28907143168	78	17919
2026-01-24 20:41:03.94	325.50	8.97	-53.1	-55.2	6.2	0.00e+00	0	54	104	28907143168	78	17667
2026-01-24 20:41:06.97	325.96	8.74	-53.1	-55.2	6.2	0.00e+00	0	54	104	28907143168	78	17696
2026-01-24 20:41:09.99	326.42	8.51	-53.1	-55.2	6.2	0.00e+00	0	54	104	28907143168	78	17669
2026-01-24 20:41:13.02	326.86	8.29	-53.1	-55.2	6.2	0.00e+00	0	54	104	28907143168	78	17713
2026-01-24 20:41:16.04	327.30	8.06	-52.9	-55.1	6.2	0.00e+00	0	54	104	28907143168	77	18477
2026-01-24 20:41:19.07	327.73	7.84	-53.0	-55.1	6.2	0.00e+00	0	54	104	28907143168	77	18521
2026-01-24 20:41:22.09	328.15	7.61	-52.9	-55.0	6.2	0.00e+00	0	54	104	28907143168	77	18365
2026-01-24 20:41:25.11	328.57	7.39	-53.0	-55.1	6.2	0.00e+00	0	54	104	28907143168	77	18522
2026-01-24 20:41:28.13	328.97	7.17	-52.8	-54.9	6.2	0.00e+00	0	54	104	28907143168	77	18092
2026-01-24 20:41:31.15	329.37	6.95	-52.8	-55.0	6.2	0.00e+00	0	54	104	28907143168	77	18200
2026-01-24 20:41:34.18	329.77	6.74	-52.7	-54.9	6.2	0.00e+00	0	54	104	28907143168	77	17985
2026-01-24 20:41:37.20	330.15	6.52	-52.8	-54.9	6.2	0.00e+00	0	54	104	28907143168	77	18162
2026-01-24 20:41:40.23	330.53	6.31	-52.7	-54.8	6.2	0.00e+00	0	54	104	28907143168	76	18934
2026-01-24 20:41:43.25	330.90	6.10	-52.7	-54.8	6.2	0.00e+00	0	54	104	28907143168	76	18865
2026-01-24 20:41:46.27	331.27	5.89	-52.6	-54.8	6.2	0.00e+00	0	54	104	28907143168	76	18839
2026-01-24 20:41:49.30	331.63	5.68	-52.7	-54.8	6.2	0.00e+00	0	54	104	28907143168	76	18874
2026-01-24 20:41:52.32	331.98	5.47	-52.6	-54.7	6.2	0.00e+00	0	54	104	28907143168	76	18736
2026-01-24 20:41:55.34	332.33	5.26	-52.6	-54.7	6.2	0.00e+00	0	54	104	28907143168	76	18714
2026-01-24 20:41:58.37	332.67	5.06	-52.5	-54.7	6.2	0.00e+00	0	54	104	28907143168	76	18661
2026-01-24 20:42:01.39	333.01	4.85	-53.3	-55.5	6.2	0.00e+00	0	54	104	28907143168	77	19258
2026-01-24 20:42:04.42	333.34	4.65	-54.0	-56.1	6.2	0.00e+00	0	54	104	28907143168	78	19542
2026-01-24 20:42:07.44	333.66	4.45	-54.3	-56.4	6.2	0.00e+00	0	54	104	28907143168	79	19176
2026-01-24 20:42:10.46	333.98	4.25	-54.5	-56.6	6.2	0.00e+00	0	54	104	28907143168	79	19574
2026-01-24 20:42:13.49	334.30	4.05	-54.5	-56.6	6.2	0.00e+00	0	54	104	28907143168	79	19696
2026-01-24 20:42:16.51	334.60	3.85	-54.5	-56.6	6.2	0.00e+00	0	54	104	28907143168	79	19552
2026-01-24 20:42:19.54	334.91	3.66	-54.3	-56.4	6.2	0.00e+00	0	54	104	28907143168	79	19211
2026-01-24 20:42:22.56	335.21	3.46	-54.2	-56.3	6.2	0.00e+00	0	54	104	28907143168	79	18951
2026-01-24 20:42:25.58	335.50	3.27	-54.1	-56.3	6.2	0.00e+00	0	54	104	28907143168	79	18901
2026-01-24 20:42:28.61	335.79	3.08	-54.1	-56.2	6.2	0.00e+00	0	54	104	28907143168	79	18749
2026-01-24 20:42:31.63	336.08	2.89	-54.1	-56.2	6.2	0.00e+00	0	54	104	28907143168	79	18670
2026-01-24 20:42:34.65	336.36	2.70	-54.0	-56.2	6.2	0.00e+00	0	54	104	28907143168	79	18649
2026-01-24 20:42:37.68	336.64	2.51	-54.0	-56.1	6.2	0.00e+00	0	54	104	28907143168	79	18595
2026-01-24 20:42:40.70	336.91	2.33	-54.0	-56.1	6.2	0.00e+00	0	54	104	28907143168	79	18586
2026-01-24 20:42:43.72	337.18	2.14	-54.0	-56.1	6.2	0.00e+00	0	54	104	28907143168	79	18474

#Closed at: 2026-01-24 20:42:46
#Recorded file [28907 MB]: D:/lorett/data/31041_260124_233308.dat