passes_logs/2026/01/24/R3.2S_Murmansk/R3.2S_Murmansk__20260124_062411_AQUA_rec.log

#Pass ID: 20260124_062411_AQUA
#Satellite: AQUA
#Configuration: AQUA
#almurnet v.1.7.20251203
#Start time: 2026-01-24 06:24:57

#Version: 2.2.20231116
#Station: R3.2S_Murmansk
#Location: 33.079688 lon 68.888172 lat
#TLE: 1 27424U 02022A   26023.58972979  .00001888  00000+0  38753-3 0  9997
#TLE: 2 27424  98.4100 350.1620 0001948  68.5331  43.0280 14.61852003262140

#Time	Az	El	Level	Level2	SNR	BER	BlckErr	Temp	State	Recorded	gain1	gain2
2026-01-24 06:24:57.07	47.29	4.66	-53.7	-66.5	3.8	1.49e+00	0	43	0	0	78	16134
2026-01-24 06:25:00.09	46.99	4.84	-55.6	-73.4	3.8	7.43e-01	0	43	104	0	81	30114
2026-01-24 06:25:03.11	46.69	5.02	-55.6	-73.4	3.8	7.45e-01	0	43	104	0	81	30176
2026-01-24 06:25:06.14	46.38	5.21	-55.4	-73.2	3.8	7.44e-01	0	43	104	0	81	29626
2026-01-24 06:25:09.16	46.07	5.39	-55.2	-73.0	3.8	7.41e-01	0	43	104	0	81	28713
2026-01-24 06:25:12.19	45.75	5.58	-54.9	-72.6	3.8	7.43e-01	0	44	104	0	81	27451
2026-01-24 06:25:15.21	45.43	5.76	-54.1	-71.8	3.8	7.44e-01	0	43	104	0	80	26661
2026-01-24 06:25:18.24	45.11	5.95	-54.0	-71.8	3.8	7.43e-01	0	43	104	0	80	26666
2026-01-24 06:25:21.27	44.78	6.13	-54.0	-71.8	3.8	7.48e-01	0	44	104	0	80	26471
2026-01-24 06:25:24.29	44.44	6.32	-54.0	-71.7	3.8	7.46e-01	0	43	104	0	80	26306
2026-01-24 06:25:27.32	44.10	6.51	-54.0	-71.8	3.8	7.45e-01	0	44	104	0	79	28211
2026-01-24 06:25:30.35	43.76	6.70	-54.0	-71.8	3.8	7.46e-01	0	43	104	0	79	28298
2026-01-24 06:25:33.37	43.41	6.88	-54.0	-71.6	3.8	7.42e-01	0	43	104	0	79	27581
2026-01-24 06:25:36.40	43.06	7.07	-54.0	-71.8	3.8	7.45e-01	0	43	104	0	79	28165
2026-01-24 06:25:39.42	42.70	7.26	-54.0	-71.8	3.8	7.43e-01	0	43	104	0	79	28205
2026-01-24 06:25:42.45	42.33	7.45	-53.9	-71.3	3.8	7.43e-01	0	43	104	0	79	26519
2026-01-24 06:25:45.48	41.96	7.65	-53.6	-69.8	3.8	7.45e-01	0	44	104	0	79	22311
2026-01-24 06:25:48.50	41.59	7.84	-53.4	-69.1	3.8	7.45e-01	0	44	104	0	78	21823
2026-01-24 06:25:51.53	41.20	8.03	-50.4	-62.7	3.8	7.47e-01	0	43	104	0	72	14731
2026-01-24 06:25:54.55	40.82	8.22	-53.0	-68.1	3.9	7.42e-01	0	44	104	0	78	19546
2026-01-24 06:25:57.58	40.42	8.42	-45.4	-56.3	3.8	7.44e-01	0	43	104	0	62	12637
2026-01-24 06:26:00.60	40.03	8.61	-47.0	-58.1	3.8	7.44e-01	0	43	104	0	64	13840
2026-01-24 06:26:03.63	39.62	8.80	-51.9	-65.5	3.8	7.47e-01	0	43	104	0	74	18115
2026-01-24 06:26:06.66	39.21	9.00	-45.7	-56.7	3.8	7.43e-01	0	43	104	0	63	12422
2026-01-24 06:26:09.68	38.79	9.19	-53.6	-70.0	3.7	7.49e-01	0	44	104	0	77	25641
2026-01-24 06:26:12.70	38.37	9.39	-45.9	-56.8	3.8	7.42e-01	0	43	104	0	63	12563
2026-01-24 06:26:15.73	37.94	9.58	-46.5	-57.6	3.8	7.41e-01	0	43	104	0	63	13811
2026-01-24 06:26:18.75	37.51	9.78	-48.4	-59.7	3.9	7.44e-01	0	43	104	0	68	13230
2026-01-24 06:26:21.78	37.07	9.97	-46.6	-57.6	3.8	7.45e-01	0	44	104	0	65	12304
2026-01-24 06:26:24.80	36.62	10.17	-46.9	-58.0	3.8	7.41e-01	0	44	104	0	65	12896
2026-01-24 06:26:27.83	36.16	10.36	-45.4	-56.2	3.9	7.44e-01	0	43	104	0	62	12511
2026-01-24 06:26:30.86	35.70	10.56	-45.2	-56.0	3.8	7.43e-01	0	43	104	0	62	12199
2026-01-24 06:26:33.88	35.23	10.75	-53.4	-69.2	3.8	7.44e-01	0	44	104	0	77	23349
2026-01-24 06:26:36.90	34.76	10.95	-46.9	-57.7	3.8	7.42e-01	0	44	104	0	65	12460
2026-01-24 06:26:39.93	34.27	11.14	-50.1	-62.2	3.8	7.49e-01	0	44	104	0	70	15594
2026-01-24 06:26:42.95	33.78	11.34	-52.6	-66.7	3.8	7.43e-01	0	44	104	0	76	18606
2026-01-24 06:26:45.97	33.29	11.53	-45.2	-56.0	3.8	7.44e-01	0	43	104	0	61	12940
2026-01-24 06:26:49.00	32.78	11.73	-49.0	-60.7	3.8	7.45e-01	0	44	104	0	68	14842
2026-01-24 06:26:52.02	32.27	11.92	-54.0	-71.0	3.8	7.46e-01	0	43	104	0	78	27372
2026-01-24 06:26:55.05	31.75	12.12	-46.2	-57.2	3.8	7.42e-01	0	43	104	0	64	12439
2026-01-24 06:26:58.07	31.23	12.31	-54.0	-71.1	3.8	7.46e-01	0	44	104	0	78	27669
2026-01-24 06:27:01.10	30.69	12.50	-44.7	-55.5	3.8	7.46e-01	0	43	104	0	61	12206
2026-01-24 06:27:04.12	30.15	12.69	-46.5	-57.5	3.8	7.48e-01	0	43	104	0	63	13694
2026-01-24 06:27:07.15	29.60	12.89	-45.1	-56.0	3.8	7.46e-01	0	44	104	0	62	12098
2026-01-24 06:27:10.17	29.04	13.08	-45.2	-56.1	3.8	7.46e-01	0	43	104	0	62	12342
2026-01-24 06:27:13.19	28.48	13.27	-48.3	-59.8	3.9	7.46e-01	0	43	104	0	67	14072
2026-01-24 06:27:16.22	27.91	13.45	-53.9	-70.7	3.8	7.43e-01	0	44	104	0	78	26302
2026-01-24 06:27:19.24	27.33	13.64	-45.9	-56.8	3.8	7.45e-01	0	43	104	0	63	12653
2026-01-24 06:27:22.27	26.74	13.83	-53.1	-68.2	3.9	7.43e-01	0	43	104	0	77	20804
2026-01-24 06:27:25.29	26.14	14.01	-44.8	-55.6	3.8	7.42e-01	0	43	104	0	61	12245
2026-01-24 06:27:28.32	25.53	14.20	-50.9	-63.2	3.9	7.42e-01	0	43	104	0	73	14739
2026-01-24 06:27:31.34	24.92	14.38	-51.1	-63.8	3.9	7.45e-01	0	43	104	0	74	15022
2026-01-24 06:27:34.36	24.30	14.56	-44.8	-55.7	3.9	7.44e-01	0	43	104	0	61	12400
2026-01-24 06:27:37.38	23.67	14.74	-48.3	-59.9	3.8	7.46e-01	0	43	104	0	67	14218
2026-01-24 06:27:40.41	23.03	14.91	-51.9	-65.4	3.9	7.43e-01	0	44	104	0	76	16019
2026-01-24 06:27:43.43	22.39	15.09	-44.7	-55.4	3.8	7.46e-01	0	43	104	0	60	12734
2026-01-24 06:27:46.46	21.73	15.26	-50.4	-62.7	3.9	7.45e-01	0	43	104	0	73	14012
2026-01-24 06:27:49.48	21.07	15.43	-45.1	-55.9	3.8	7.43e-01	0	43	104	0	62	12009
2026-01-24 06:27:52.50	20.40	15.60	-44.5	-55.3	3.8	7.47e-01	0	43	104	0	61	11926
2026-01-24 06:27:55.53	19.73	15.76	-47.3	-58.3	3.8	7.45e-01	0	43	104	0	64	14097
2026-01-24 06:27:58.55	19.04	15.92	-44.3	-55.1	3.8	7.41e-01	0	43	104	0	60	12251
2026-01-24 06:28:01.57	18.35	16.08	-51.5	-64.3	3.8	7.46e-01	0	43	104	0	73	16813
2026-01-24 06:28:04.59	17.65	16.24	-48.1	-59.4	3.9	7.45e-01	0	43	104	0	68	12781
2026-01-24 06:28:07.62	16.93	16.39	-45.5	-56.3	3.8	7.41e-01	0	43	104	0	61	13409
2026-01-24 06:28:10.64	16.22	16.54	-46.7	-57.7	3.8	7.44e-01	0	44	104	0	65	12486
2026-01-24 06:28:13.66	15.49	16.69	-45.3	-56.1	3.8	7.43e-01	0	43	104	0	62	12310
2026-01-24 06:28:16.69	14.76	16.83	-48.3	-59.6	3.8	7.45e-01	0	43	104	0	68	13017
2026-01-24 06:28:19.72	14.02	16.97	-52.5	-66.1	3.8	7.47e-01	0	44	104	0	75	18419
2026-01-24 06:28:22.74	13.27	17.10	-45.1	-55.9	3.8	7.45e-01	0	43	104	0	61	12693
2026-01-24 06:28:25.77	12.52	17.24	-53.7	-69.2	3.8	7.44e-01	0	43	104	0	77	23495
2026-01-24 06:28:28.80	11.75	17.36	-45.5	-56.4	3.8	7.44e-01	0	43	104	0	63	11963
2026-01-24 06:28:31.83	10.98	17.49	-48.4	-59.8	3.8	7.45e-01	0	43	104	0	67	14119
2026-01-24 06:28:34.85	10.21	17.60	-45.1	-55.9	3.8	7.43e-01	0	43	104	0	62	12025
2026-01-24 06:28:37.87	9.43	17.72	-44.6	-55.3	3.8	7.42e-01	0	43	104	0	61	11900
2026-01-24 06:28:40.90	8.64	17.83	-46.5	-57.5	3.8	7.46e-01	0	43	104	0	63	13580
2026-01-24 06:28:43.92	7.85	17.93	-53.9	-69.7	3.7	7.44e-01	0	43	104	0	78	23429
2026-01-24 06:28:46.95	7.05	18.03	-44.6	-55.3	3.8	7.46e-01	0	43	104	0	61	11949
2026-01-24 06:28:49.97	6.24	18.12	-54.0	-70.2	3.8	7.46e-01	0	43	104	0	78	24793
2026-01-24 06:28:53.00	5.43	18.21	-44.8	-55.6	3.8	7.44e-01	0	43	104	0	61	12346
2026-01-24 06:28:56.02	4.62	18.30	-48.1	-59.5	3.8	7.43e-01	0	43	104	0	66	14450
2026-01-24 06:28:59.05	3.80	18.38	-45.9	-56.7	3.8	7.46e-01	0	43	104	0	63	12500
2026-01-24 06:29:02.08	2.97	18.45	-45.5	-56.3	3.8	7.41e-01	0	43	104	0	62	12615
2026-01-24 06:29:05.10	2.15	18.51	-46.5	-57.5	3.8	7.44e-01	0	44	104	0	63	13661
2026-01-24 06:29:08.13	1.31	18.58	-54.0	-70.2	3.8	7.42e-01	0	43	104	0	78	24727
2026-01-24 06:29:11.15	0.48	18.63	-44.9	-55.6	3.8	7.44e-01	0	43	104	0	61	12371
2026-01-24 06:29:14.17	359.64	18.68	-53.9	-69.8	3.8	7.41e-01	0	43	104	0	78	23644
2026-01-24 06:29:17.19	358.80	18.72	-44.9	-55.7	3.8	7.46e-01	0	43	104	0	61	12425
2026-01-24 06:29:20.22	357.96	18.76	-48.4	-59.9	3.9	7.48e-01	0	43	104	0	69	12671
2026-01-24 06:29:23.24	357.11	18.79	-45.0	-55.8	3.8	7.43e-01	0	43	104	0	62	11929
2026-01-24 06:29:26.27	356.27	18.82	-44.9	-55.7	3.8	7.43e-01	0	43	104	0	61	12413
2026-01-24 06:29:29.29	355.42	18.83	-46.7	-57.9	3.8	7.42e-01	0	43	104	0	64	13423
2026-01-24 06:29:32.32	354.57	18.85	-52.2	-65.6	3.9	7.42e-01	0	43	104	0	76	16388
2026-01-24 06:29:35.34	353.72	18.85	-44.8	-55.5	3.8	7.42e-01	0	44	104	0	61	12206
2026-01-24 06:29:38.36	352.87	18.85	-52.6	-66.4	3.9	7.45e-01	0	43	104	0	77	16945
2026-01-24 06:29:41.39	352.02	18.85	-44.8	-55.5	3.8	7.45e-01	0	43	104	0	61	12214
2026-01-24 06:29:44.42	351.17	18.83	-49.1	-60.7	3.8	7.45e-01	0	44	104	0	70	13129
2026-01-24 06:29:47.44	350.32	18.82	-45.5	-56.4	3.8	7.44e-01	0	43	104	0	62	12670
2026-01-24 06:29:50.47	349.47	18.79	-45.0	-55.7	3.8	7.46e-01	0	43	104	0	61	12515
2026-01-24 06:29:53.49	348.63	18.76	-50.0	-61.9	3.8	7.47e-01	0	43	104	0	70	15214
2026-01-24 06:29:56.52	347.79	18.72	-49.3	-60.7	3.9	7.44e-01	0	43	104	0	70	13219
2026-01-24 06:29:59.54	346.95	18.68	-45.6	-56.4	3.8	7.47e-01	0	43	104	0	62	12752
2026-01-24 06:30:02.56	346.11	18.63	-48.3	-59.4	3.9	7.43e-01	0	43	104	0	68	12790
2026-01-24 06:30:05.59	345.27	18.57	-44.9	-55.8	3.8	7.44e-01	0	44	104	0	61	12561
2026-01-24 06:30:08.61	344.44	18.51	-47.1	-58.3	3.9	7.46e-01	0	43	104	0	66	12586
2026-01-24 06:30:11.63	343.62	18.45	-48.7	-60.0	3.8	7.44e-01	0	43	104	0	67	14510
2026-01-24 06:30:14.66	342.79	18.37	-44.8	-55.6	3.8	7.48e-01	0	43	104	0	61	12264
2026-01-24 06:30:17.68	341.97	18.29	-53.6	-68.4	3.7	7.46e-01	0	43	104	0	77	21473
2026-01-24 06:30:20.71	341.16	18.21	-45.6	-56.5	3.8	7.43e-01	0	44	104	0	63	12201
2026-01-24 06:30:23.73	340.35	18.12	-49.1	-60.5	3.8	7.47e-01	0	43	104	0	68	14499
2026-01-24 06:30:26.76	339.54	18.03	-46.8	-57.8	3.9	7.46e-01	0	43	104	0	65	12650
2026-01-24 06:30:29.78	338.74	17.93	-45.6	-56.4	3.8	7.44e-01	0	44	104	0	63	12072
2026-01-24 06:30:32.81	337.95	17.82	-45.2	-55.9	3.8	7.44e-01	0	43	104	0	61	12791
2026-01-24 06:30:35.83	337.16	17.71	-52.2	-65.4	3.8	7.50e-01	0	44	104	0	74	18024
2026-01-24 06:30:38.86	336.38	17.60	-44.8	-55.7	3.8	7.44e-01	0	44	104	0	61	12392
2026-01-24 06:30:41.88	335.61	17.48	-53.9	-69.7	3.8	7.45e-01	0	43	104	0	78	23384
2026-01-24 06:30:44.91	334.84	17.36	-45.5	-56.5	3.8	7.47e-01	0	44	104	0	63	12170
2026-01-24 06:30:47.93	334.08	17.23	-45.3	-56.5	3.8	7.42e-01	0	43	104	0	61	13628
2026-01-24 06:30:50.96	333.32	17.10	-46.9	-58.6	3.8	7.44e-01	0	43	104	0	65	13744
2026-01-24 06:30:53.99	332.57	16.96	-45.2	-56.7	3.8	7.47e-01	0	44	104	0	62	13111
2026-01-24 06:30:57.01	331.83	16.82	-45.3	-57.0	3.8	7.48e-01	0	43	104	0	62	13716
2026-01-24 06:31:00.04	331.10	16.68	-52.9	-67.7	3.9	7.45e-01	0	43	104	0	76	20794
2026-01-24 06:31:03.06	330.38	16.53	-45.6	-56.5	3.8	7.45e-01	0	43	104	0	61	13669
2026-01-24 06:31:06.08	329.66	16.39	-53.7	-69.1	3.8	7.47e-01	0	43	104	0	78	21851
2026-01-24 06:31:09.11	328.95	16.23	-44.4	-45.5	15.4	5.97e-01	0	43	104	0	60	4094
2026-01-24 06:31:12.13	328.25	16.08	-44.4	-45.6	25.5	6.03e-01	0	43	0	4718592	60	4118
2026-01-24 06:31:15.16	327.55	15.92	-44.9	-46.2	25.1	6.02e-01	0	43	0	10485760	60	4416
2026-01-24 06:31:18.18	326.87	15.75	-45.1	-46.4	24.8	6.03e-01	0	43	0	16252928	61	4243
2026-01-24 06:31:21.21	326.19	15.59	-45.0	-46.3	24.8	6.00e-01	0	44	0	22020096	61	4205
2026-01-24 06:31:24.23	325.52	15.42	-44.5	-45.7	25.3	6.00e-01	0	43	0	27787264	60	4158
2026-01-24 06:31:27.25	324.86	15.25	-44.1	-45.2	25.8	6.02e-01	0	43	0	33030144	60	3943
2026-01-24 06:31:30.28	324.20	15.08	-44.0	-45.1	25.6	6.03e-01	0	43	0	38797312	60	3907
2026-01-24 06:31:33.30	323.56	14.90	-44.6	-45.8	25.1	6.03e-01	0	43	0	44564480	59	4467
2026-01-24 06:31:36.33	322.92	14.73	-44.7	-46.0	25.0	6.01e-01	0	43	0	50331648	60	4293
2026-01-24 06:31:39.36	322.29	14.55	-44.8	-46.0	25.0	6.04e-01	0	43	0	56098816	60	4325
2026-01-24 06:31:42.38	321.67	14.37	-44.6	-45.8	25.3	6.00e-01	0	43	0	61865984	61	3981
2026-01-24 06:31:45.40	321.06	14.19	-44.6	-45.8	25.1	6.01e-01	0	43	0	67108864	60	4232
2026-01-24 06:31:48.43	320.45	14.00	-44.8	-46.1	25.0	6.02e-01	0	43	0	72876032	60	4367
2026-01-24 06:31:51.45	319.85	13.82	-44.3	-45.5	25.5	6.01e-01	0	43	0	78643200	60	4080
2026-01-24 06:31:54.48	319.26	13.63	-44.8	-46.1	24.7	6.05e-01	0	43	0	84410368	60	4356
2026-01-24 06:31:57.50	318.68	13.45	-44.2	-45.3	25.7	6.02e-01	0	43	0	90177536	60	4002
2026-01-24 06:32:00.53	318.11	13.26	-44.6	-45.8	25.2	6.01e-01	0	43	0	95420416	60	4221
2026-01-24 06:32:03.55	317.55	13.07	-44.5	-45.8	25.2	6.01e-01	0	43	0	101187584	60	4216
2026-01-24 06:32:06.58	316.99	12.88	-44.7	-46.0	25.0	6.01e-01	0	43	0	106954752	60	4299
2026-01-24 06:32:09.61	316.44	12.69	-44.5	-45.8	25.3	6.02e-01	0	43	0	112721920	60	4207
2026-01-24 06:32:12.63	315.90	12.49	-44.9	-46.2	24.8	5.98e-01	0	43	0	118489088	60	4439
2026-01-24 06:32:15.66	315.36	12.30	-44.6	-45.9	24.8	6.03e-01	0	43	0	123731968	60	4264
2026-01-24 06:32:18.68	314.84	12.11	-44.4	-45.7	25.3	6.02e-01	0	43	0	129499136	60	4149
2026-01-24 06:32:21.70	314.32	11.91	-44.4	-45.6	25.3	6.03e-01	0	43	0	135266304	60	4125
2026-01-24 06:32:24.73	313.81	11.72	-44.6	-45.8	25.2	6.01e-01	0	43	0	141033472	60	4213
2026-01-24 06:32:27.75	313.30	11.52	-44.8	-46.1	24.9	6.01e-01	0	43	0	146800640	60	4370
2026-01-24 06:32:30.77	312.81	11.33	-44.6	-45.8	25.2	6.00e-01	0	43	0	152567808	60	4242
2026-01-24 06:32:33.80	312.32	11.13	-45.1	-46.5	24.6	6.00e-01	0	43	0	157810688	60	4549
2026-01-24 06:32:36.83	311.83	10.94	-45.1	-46.5	24.5	6.01e-01	0	43	0	163577856	60	4552
2026-01-24 06:32:39.85	311.36	10.74	-45.1	-46.4	24.5	6.01e-01	0	43	0	169345024	61	4268
2026-01-24 06:32:42.88	310.89	10.55	-44.8	-46.1	24.8	6.00e-01	0	43	0	175112192	61	4107
2026-01-24 06:32:45.90	310.43	10.35	-44.8	-46.0	24.9	6.02e-01	0	43	0	180879360	61	4094
2026-01-24 06:32:48.93	309.97	10.16	-45.0	-46.3	24.6	6.01e-01	0	43	0	186122240	61	4216
2026-01-24 06:32:51.96	309.52	9.96	-44.8	-46.1	24.8	5.99e-01	0	43	0	191889408	61	4132
2026-01-24 06:32:54.98	309.08	9.76	-45.1	-46.4	24.3	6.02e-01	0	43	0	197656576	61	4273
2026-01-24 06:32:58.01	308.65	9.57	-45.3	-46.7	24.1	5.98e-01	0	44	0	203423744	61	4435
2026-01-24 06:33:01.03	308.22	9.37	-45.9	-47.4	23.6	6.02e-01	0	43	0	209190912	62	4511
2026-01-24 06:33:04.06	307.80	9.18	-45.2	-46.6	24.3	6.01e-01	0	43	0	214433792	61	4356
2026-01-24 06:33:07.08	307.38	8.99	-44.8	-46.0	24.9	6.01e-01	0	43	0	220725248	61	4084
2026-01-24 06:33:10.11	306.97	8.79	-45.6	-47.1	23.6	6.02e-01	0	43	0	225968128	62	4344
2026-01-24 06:33:13.13	306.57	8.60	-46.0	-47.6	23.5	6.02e-01	0	43	0	231735296	62	4603
2026-01-24 06:33:16.15	306.17	8.40	-45.7	-47.1	23.8	6.03e-01	0	43	0	237502464	62	4353
2026-01-24 06:33:19.18	305.77	8.21	-45.4	-46.8	23.8	6.02e-01	0	43	0	243269632	62	4221
2026-01-24 06:33:22.20	305.39	8.02	-45.8	-47.2	23.7	6.00e-01	0	43	0	249036800	62	4440
2026-01-24 06:33:25.23	305.01	7.83	-45.1	-46.4	24.5	6.02e-01	0	43	0	254279680	62	4037
2026-01-24 06:33:28.25	304.63	7.64	-45.9	-47.4	23.4	6.00e-01	0	43	0	260046848	62	4543
2026-01-24 06:33:31.27	304.26	7.44	-45.3	-46.7	24.1	6.00e-01	0	43	0	265814016	62	4168
2026-01-24 06:33:34.30	303.90	7.25	-45.8	-47.3	23.6	6.01e-01	0	43	0	271581184	62	4454
2026-01-24 06:33:37.32	303.54	7.06	-45.6	-47.0	23.8	6.02e-01	0	43	0	277348352	62	4319
2026-01-24 06:33:40.35	303.18	6.87	-45.9	-47.5	23.3	6.03e-01	0	43	0	282591232	62	4563
2026-01-24 06:33:43.37	302.83	6.69	-45.7	-47.1	23.7	6.02e-01	0	43	0	288358400	62	4391
2026-01-24 06:33:46.39	302.49	6.50	-46.0	-47.5	23.2	6.01e-01	0	44	0	294125568	62	4591
2026-01-24 06:33:49.42	302.15	6.31	-45.6	-47.0	23.7	5.97e-01	0	44	0	299892736	62	4329
2026-01-24 06:33:52.45	301.81	6.12	-46.2	-47.8	23.1	6.01e-01	0	43	0	305659904	62	4712
2026-01-24 06:33:55.47	301.49	5.94	-46.0	-47.5	23.2	6.00e-01	0	43	0	310902784	63	4337
2026-01-24 06:33:58.50	301.16	5.75	-46.3	-47.9	22.9	5.99e-01	0	43	0	316669952	63	4504
2026-01-24 06:34:01.52	300.84	5.57	-46.4	-48.0	22.7	6.01e-01	0	43	0	322437120	63	4556
2026-01-24 06:34:04.55	300.52	5.38	-46.3	-47.9	22.8	5.99e-01	0	43	0	328204288	63	4500
2026-01-24 06:34:07.57	300.21	5.20	-46.3	-47.9	22.7	6.02e-01	0	43	0	333971456	63	4530
2026-01-24 06:34:10.59	299.91	5.02	-49.4	-52.2	19.3	6.00e-01	0	43	0	339738624	69	5219
2026-01-24 06:34:13.62	299.60	4.83	-54.6	-72.2	3.8	7.46e-01	0	44	104	340262912	79	29536
2026-01-24 06:34:16.64	299.30	4.65	-54.9	-72.7	3.8	7.45e-01	0	44	104	340262912	80	29658
2026-01-24 06:34:19.67	299.01	4.47	-55.3	-73.2	3.8	7.46e-01	0	44	104	340262912	81	29380
2026-01-24 06:34:22.69	298.72	4.29	-55.5	-73.3	3.8	7.45e-01	0	44	104	340262912	81	29949
2026-01-24 06:34:25.72	298.43	4.11	-55.7	-73.5	3.8	7.46e-01	0	44	104	340262912	81	30455
2026-01-24 06:34:28.74	298.15	3.93	-55.7	-73.5	3.8	7.45e-01	0	44	104	340262912	81	30634
2026-01-24 06:34:31.77	297.87	3.75	-55.7	-73.5	3.8	7.45e-01	0	44	104	340262912	82	28965
2026-01-24 06:34:34.79	297.60	3.58	-55.7	-73.5	3.8	7.42e-01	0	43	104	340262912	82	28756
2026-01-24 06:34:37.82	297.33	3.40	-55.6	-73.4	3.8	7.49e-01	0	44	104	340262912	82	28563
2026-01-24 06:34:40.84	297.06	3.22	-55.5	-73.3	3.8	7.44e-01	0	44	104	340262912	82	28133
2026-01-24 06:34:43.87	296.80	3.05	-55.4	-73.2	3.8	7.45e-01	0	43	104	340262912	82	27825
2026-01-24 06:34:46.90	296.53	2.87	-55.3	-73.1	3.8	7.43e-01	0	44	104	340262912	82	27630
2026-01-24 06:34:49.92	296.28	2.70	-55.3	-73.1	3.8	7.46e-01	0	44	104	340262912	82	27577
2026-01-24 06:34:52.95	296.02	2.52	-55.3	-73.1	3.8	7.49e-01	0	44	104	340262912	82	27458
2026-01-24 06:34:55.97	295.78	2.35	-55.2	-73.0	3.8	7.45e-01	0	44	104	340262912	82	27366
2026-01-24 06:34:59.00	295.53	2.18	-55.2	-73.0	3.8	7.48e-01	0	44	104	340262912	82	27303
2026-01-24 06:35:02.03	295.28	2.01	-55.2	-73.0	3.8	7.43e-01	0	44	104	340262912	82	27184

#Closed at: 2026-01-24 06:35:02
#Recorded file [340 MB]: D:/lorett/data/31041_260124_092456.dat