passes_logs/2026/01/24/R3.2S_Murmansk/R3.2S_Murmansk__20260124_034327_NOAA_20_JPSS-1_rec.log

#Pass ID: 20260124_034327_NOAA 20 (JPSS-1)
#Satellite: NOAA 20 (JPSS-1)
#Configuration: NOAA 20
#almurnet v.1.7.20251203
#Start time: 2026-01-24 03:43:28

#Version: 2.2.20231116
#Station: R3.2S_Murmansk
#Location: 33.079688 lon 68.888172 lat
#TLE: 1 43013U 17073A   26023.57676825  .00000205  00000+0  11821-3 0  9990
#TLE: 2 43013  98.7645 324.4259 0001147  27.0566 333.0670 14.19539368423954

#Time	Az	El	Level	Level2	SNR	BER	BlckErr	Temp	State	Recorded	gain1	gain2
2026-01-24 03:43:28.84	44.08	2.11	-53.3	-68.3	3.8	1.49e+00	0	41	0	0	77	21080
2026-01-24 03:43:31.86	43.91	2.29	-53.3	-68.3	3.8	1.49e+00	0	41	104	0	77	21164
2026-01-24 03:43:34.88	43.73	2.46	-53.3	-68.3	3.8	1.49e+00	0	41	104	0	77	21149
2026-01-24 03:43:37.91	43.56	2.64	-53.3	-68.3	3.8	1.49e+00	0	41	104	0	77	21065
2026-01-24 03:43:40.94	43.38	2.82	-53.3	-68.3	3.8	1.49e+00	0	41	104	0	77	21149
2026-01-24 03:43:43.96	43.20	3.00	-53.3	-68.3	3.8	1.49e+00	0	41	104	0	77	21056
2026-01-24 03:43:46.99	43.01	3.18	-53.3	-68.3	3.8	1.49e+00	0	41	104	0	77	21119
2026-01-24 03:43:50.01	42.83	3.37	-53.3	-68.3	3.8	1.49e+00	0	41	104	0	77	21131
2026-01-24 03:43:53.03	42.64	3.55	-53.3	-68.3	3.8	1.49e+00	0	41	104	0	77	21175
2026-01-24 03:43:56.06	42.45	3.73	-53.3	-68.3	3.8	1.49e+00	0	41	104	0	77	21159
2026-01-24 03:43:59.08	42.26	3.92	-53.3	-68.3	3.8	1.49e+00	0	42	104	0	77	21189
2026-01-24 03:44:02.11	42.06	4.10	-53.3	-68.3	3.8	1.49e+00	0	41	104	0	77	21185
2026-01-24 03:44:05.13	41.86	4.29	-53.3	-68.3	3.8	1.49e+00	0	42	104	0	77	21109
2026-01-24 03:44:08.16	41.66	4.48	-53.3	-68.3	3.8	1.49e+00	0	42	104	0	77	21083
2026-01-24 03:44:11.19	41.46	4.67	-53.3	-68.3	3.8	1.49e+00	0	42	104	0	77	21131
2026-01-24 03:44:14.21	41.25	4.86	-53.3	-68.3	3.8	1.49e+00	0	42	104	0	77	21152
2026-01-24 03:44:17.24	41.04	5.05	-53.3	-68.3	3.8	1.49e+00	0	42	104	0	77	21185
2026-01-24 03:44:20.26	40.83	5.24	-53.3	-68.3	3.8	1.49e+00	0	42	104	0	77	21139
2026-01-24 03:44:23.29	40.61	5.44	-53.3	-68.3	3.8	1.49e+00	0	42	104	0	77	21135
2026-01-24 03:44:26.31	40.39	5.63	-53.3	-68.3	3.8	1.49e+00	0	42	104	0	77	21137
2026-01-24 03:44:29.34	40.17	5.82	-53.3	-68.3	3.8	1.49e+00	0	42	104	0	77	21217
2026-01-24 03:44:32.36	39.95	6.02	-53.3	-68.3	3.8	1.49e+00	0	42	104	0	77	21146
2026-01-24 03:44:35.38	39.72	6.22	-53.3	-68.3	3.8	1.49e+00	0	42	104	0	77	21149
2026-01-24 03:44:38.41	39.49	6.42	-53.3	-68.3	3.8	1.49e+00	0	42	104	0	77	21194
2026-01-24 03:44:41.44	39.25	6.61	-53.3	-68.3	3.8	1.49e+00	0	42	104	0	77	21123
2026-01-24 03:44:44.46	39.01	6.81	-53.3	-68.3	3.8	1.49e+00	0	42	104	0	77	21160
2026-01-24 03:44:47.48	38.77	7.02	-53.3	-68.3	3.8	1.49e+00	0	42	104	0	77	21123
2026-01-24 03:44:50.51	38.53	7.22	-53.3	-68.3	3.8	1.49e+00	0	42	104	0	77	21211
2026-01-24 03:44:53.54	38.28	7.42	-53.3	-68.3	3.8	1.49e+00	0	42	104	0	77	21119
2026-01-24 03:44:56.56	38.03	7.63	-53.3	-68.3	3.8	1.49e+00	0	42	104	0	77	21142
2026-01-24 03:44:59.58	37.77	7.83	-53.3	-68.3	3.8	1.49e+00	0	42	104	0	77	21123
2026-01-24 03:45:02.61	37.51	8.04	-53.3	-68.3	3.8	1.49e+00	0	42	104	0	77	21170
2026-01-24 03:45:05.63	37.25	8.25	-53.3	-68.3	3.8	1.49e+00	0	42	104	0	77	21080
2026-01-24 03:45:08.66	36.98	8.46	-53.3	-68.3	3.8	1.49e+00	0	42	104	0	77	21177
2026-01-24 03:45:11.68	36.71	8.67	-53.3	-68.3	3.8	1.49e+00	0	42	104	0	77	21176
2026-01-24 03:45:14.71	36.43	8.88	-53.3	-68.3	3.8	1.49e+00	0	42	104	0	77	21162
2026-01-24 03:45:17.74	36.15	9.09	-53.3	-68.3	3.8	1.49e+00	0	42	104	0	77	21122
2026-01-24 03:45:20.76	35.87	9.30	-53.3	-68.3	3.8	1.49e+00	0	42	104	0	77	21201
2026-01-24 03:45:23.78	35.58	9.52	-53.3	-68.3	3.8	1.49e+00	0	42	104	0	77	21117
2026-01-24 03:45:26.81	35.29	9.73	-53.3	-68.3	3.8	1.49e+00	0	42	104	0	77	21160
2026-01-24 03:45:29.83	34.99	9.95	-53.3	-68.3	3.8	1.49e+00	0	42	104	0	77	21172
2026-01-24 03:45:32.86	34.69	10.17	-53.3	-68.3	3.8	1.49e+00	0	42	104	0	77	21176
2026-01-24 03:45:35.88	34.38	10.39	-53.3	-68.3	3.8	1.49e+00	0	42	104	0	77	21155
2026-01-24 03:45:38.90	34.07	10.61	-53.3	-68.3	3.8	1.49e+00	0	42	104	0	77	21102
2026-01-24 03:45:41.92	33.75	10.83	-53.3	-68.3	3.8	1.49e+00	0	42	104	0	77	21135
2026-01-24 03:45:44.95	33.43	11.05	-53.3	-68.3	3.8	1.49e+00	0	42	104	0	77	21127
2026-01-24 03:45:47.97	33.10	11.27	-53.3	-68.3	3.8	1.49e+00	0	42	104	0	77	21103
2026-01-24 03:45:51.00	32.77	11.50	-53.3	-68.3	3.8	1.49e+00	0	42	104	0	77	21167
2026-01-24 03:45:54.02	32.44	11.72	-53.3	-68.3	3.8	1.49e+00	0	43	104	0	77	21091
2026-01-24 03:45:57.05	32.09	11.95	-53.3	-68.3	3.8	1.49e+00	0	42	104	0	77	21109
2026-01-24 03:46:00.07	31.75	12.18	-53.3	-68.3	3.8	1.49e+00	0	42	104	0	77	21107
2026-01-24 03:46:03.10	31.39	12.41	-53.3	-68.3	3.8	1.49e+00	0	43	104	0	77	21175
2026-01-24 03:46:06.12	31.03	12.64	-53.3	-68.3	3.8	1.49e+00	0	43	104	0	77	21156
2026-01-24 03:46:09.15	30.67	12.87	-53.3	-68.3	3.8	1.49e+00	0	43	104	0	77	21117
2026-01-24 03:46:12.18	30.30	13.10	-53.3	-68.3	3.8	1.49e+00	0	43	104	0	77	21152
2026-01-24 03:46:15.20	29.92	13.33	-53.3	-68.3	3.8	1.49e+00	0	43	104	0	77	21104
2026-01-24 03:46:18.23	29.54	13.57	-53.3	-68.3	3.8	1.49e+00	0	42	104	0	77	21134
2026-01-24 03:46:21.25	29.15	13.80	-53.3	-68.3	3.8	1.49e+00	0	43	104	0	77	21145
2026-01-24 03:46:24.28	28.75	14.04	-53.3	-68.3	3.8	1.49e+00	0	43	104	0	77	21070
2026-01-24 03:46:27.30	28.35	14.28	-53.3	-68.3	3.8	1.49e+00	0	43	104	0	77	21151
2026-01-24 03:46:30.33	27.94	14.51	-53.3	-68.3	3.8	1.49e+00	0	43	104	0	77	21184
2026-01-24 03:46:33.36	27.52	14.75	-53.3	-68.3	3.8	1.49e+00	0	43	104	0	77	21200
2026-01-24 03:46:36.38	27.10	14.99	-53.3	-68.3	3.8	1.49e+00	0	43	104	0	77	21107
2026-01-24 03:46:39.41	26.67	15.23	-53.3	-68.3	3.8	1.49e+00	0	43	104	0	77	21174
2026-01-24 03:46:42.43	26.23	15.47	-53.3	-68.3	3.8	1.49e+00	0	43	104	0	77	21179
2026-01-24 03:46:45.46	25.79	15.71	-53.3	-68.3	3.8	1.49e+00	0	43	104	0	77	21233
2026-01-24 03:46:48.48	25.34	15.96	-53.3	-68.3	3.8	1.49e+00	0	43	104	0	77	21163
2026-01-24 03:46:51.51	24.88	16.20	-53.3	-68.3	3.8	1.49e+00	0	42	104	0	77	21162
2026-01-24 03:46:54.53	24.41	16.44	-53.3	-68.3	3.8	1.49e+00	0	43	104	0	77	21159
2026-01-24 03:46:57.56	23.94	16.68	-53.3	-68.3	3.8	1.49e+00	0	43	104	0	77	21187
2026-01-24 03:47:00.55	23.46	16.93	-53.3	-68.3	3.8	1.49e+00	0	43	104	0	77	21177
2026-01-24 03:47:03.57	22.97	17.17	-53.3	-68.3	3.8	1.49e+00	0	43	104	0	77	21228
2026-01-24 03:47:06.60	22.47	17.41	-53.3	-68.3	3.8	1.49e+00	0	43	104	0	77	21204
2026-01-24 03:47:09.63	21.97	17.66	-53.3	-68.3	3.8	1.49e+00	0	43	104	0	77	21143
2026-01-24 03:47:12.66	21.45	17.90	-53.3	-68.3	3.8	1.49e+00	0	43	104	0	77	21168
2026-01-24 03:47:15.68	20.93	18.15	-53.3	-68.3	3.8	1.49e+00	0	43	104	0	77	21183
2026-01-24 03:47:18.70	20.40	18.39	-53.3	-68.3	3.8	1.49e+00	0	43	104	0	77	21138
2026-01-24 03:47:21.73	19.85	18.64	-53.3	-68.3	3.8	1.49e+00	0	43	104	0	77	21242
2026-01-24 03:47:24.76	19.30	18.88	-53.3	-68.3	3.8	1.49e+00	0	43	104	0	77	21224
2026-01-24 03:47:27.78	18.75	19.12	-53.3	-68.3	3.8	1.49e+00	0	43	104	0	77	21223
2026-01-24 03:47:30.81	18.18	19.37	-53.3	-68.3	3.8	1.49e+00	0	43	104	0	77	21231
2026-01-24 03:47:33.83	17.60	19.61	-53.3	-68.3	3.8	1.49e+00	0	43	104	0	77	21169
2026-01-24 03:47:36.86	17.01	19.85	-53.3	-68.3	3.8	1.49e+00	0	42	104	0	77	21187
2026-01-24 03:47:39.88	16.42	20.09	-53.3	-68.3	3.8	1.49e+00	0	43	104	0	77	21184
2026-01-24 03:47:42.91	15.81	20.33	-53.3	-68.3	3.8	1.49e+00	0	43	104	0	77	21191
2026-01-24 03:47:45.93	15.20	20.57	-53.3	-68.4	3.8	1.49e+00	0	43	104	0	77	21271
2026-01-24 03:47:48.96	14.57	20.80	-53.3	-68.3	3.8	1.49e+00	0	43	104	0	77	21183
2026-01-24 03:47:51.98	13.94	21.04	-53.3	-68.3	3.8	1.49e+00	0	43	104	0	77	21244
2026-01-24 03:47:55.01	13.29	21.27	-53.3	-68.3	3.8	1.49e+00	0	43	104	0	77	21173
2026-01-24 03:47:58.03	12.64	21.50	-53.3	-68.3	3.8	1.49e+00	0	43	104	0	77	21180
2026-01-24 03:48:01.06	11.98	21.73	-53.3	-68.3	3.8	1.49e+00	0	43	104	0	77	21173
2026-01-24 03:48:04.08	11.30	21.96	-53.3	-68.3	3.8	1.49e+00	0	43	104	0	77	21196
2026-01-24 03:48:07.10	10.62	22.19	-53.3	-68.3	3.8	1.49e+00	0	43	104	0	77	21203
2026-01-24 03:48:10.13	9.92	22.41	-53.3	-68.3	3.8	1.49e+00	0	43	104	0	77	21169
2026-01-24 03:48:13.15	9.22	22.63	-53.3	-68.4	3.8	1.49e+00	0	43	104	0	77	21269
2026-01-24 03:48:16.18	8.51	22.85	-53.3	-68.3	3.8	1.49e+00	0	43	104	0	77	21215
2026-01-24 03:48:19.21	7.78	23.06	-53.3	-68.3	3.8	1.49e+00	0	43	104	0	77	21217
2026-01-24 03:48:22.24	7.04	23.27	-53.3	-68.3	3.8	1.49e+00	0	43	104	0	77	21180
2026-01-24 03:48:25.26	6.30	23.48	-53.3	-68.3	3.8	1.49e+00	0	43	104	0	77	21253
2026-01-24 03:48:28.28	5.55	23.69	-53.3	-68.3	3.8	1.49e+00	0	43	104	0	77	21240
2026-01-24 03:48:31.30	4.78	23.89	-53.3	-68.3	3.8	1.49e+00	0	43	104	0	77	21248
2026-01-24 03:48:34.33	4.01	24.08	-53.3	-68.3	3.8	1.49e+00	0	43	104	0	77	21217
2026-01-24 03:48:37.35	3.23	24.27	-53.3	-68.3	3.8	1.49e+00	0	43	104	0	77	21229
2026-01-24 03:48:40.37	2.43	24.46	-53.3	-68.3	3.8	1.49e+00	0	43	104	0	77	21182
2026-01-24 03:48:43.40	1.63	24.64	-53.3	-68.3	3.8	1.49e+00	0	43	104	0	77	21214
2026-01-24 03:48:46.42	0.82	24.82	-53.3	-68.3	3.8	1.49e+00	0	43	104	0	77	21219
2026-01-24 03:48:49.45	359.99	24.99	-53.3	-68.3	3.8	1.49e+00	0	43	104	0	77	21209
2026-01-24 03:48:52.47	359.17	25.16	-53.3	-68.3	3.8	1.49e+00	0	43	104	0	77	21236
2026-01-24 03:48:55.49	358.33	25.32	-53.3	-68.3	3.8	1.49e+00	0	43	104	0	77	21202
2026-01-24 03:48:58.52	357.48	25.48	-53.3	-68.3	3.8	1.49e+00	0	43	104	0	77	21243
2026-01-24 03:49:01.54	356.62	25.62	-53.3	-68.3	3.8	1.49e+00	0	43	104	0	77	21249
2026-01-24 03:49:04.56	355.76	25.77	-53.3	-68.3	3.8	1.49e+00	0	43	104	0	77	21203
2026-01-24 03:49:07.59	354.89	25.90	-53.3	-68.3	3.8	1.49e+00	0	43	104	0	77	21221
2026-01-24 03:49:10.61	354.01	26.03	-53.3	-68.4	3.8	1.49e+00	0	43	104	0	77	21271
2026-01-24 03:49:13.63	353.13	26.16	-53.3	-68.3	3.8	1.49e+00	0	43	104	0	77	21260
2026-01-24 03:49:16.66	352.23	26.27	-53.3	-68.3	3.8	1.49e+00	0	43	104	0	77	21225
2026-01-24 03:49:19.69	351.33	26.38	-53.3	-68.3	3.8	1.49e+00	0	43	104	0	77	21234
2026-01-24 03:49:22.71	350.43	26.48	-53.3	-68.3	3.8	1.49e+00	0	43	104	0	77	21197
2026-01-24 03:49:25.74	349.51	26.57	-53.3	-68.3	3.8	1.49e+00	0	43	104	0	77	21253
2026-01-24 03:49:28.76	348.60	26.66	-53.3	-68.3	3.8	1.49e+00	0	43	104	0	77	21203
2026-01-24 03:49:31.78	347.68	26.74	-53.3	-68.3	3.8	1.49e+00	0	43	104	0	77	21250
2026-01-24 03:49:34.81	346.75	26.81	-53.4	-68.3	3.8	1.49e+00	0	43	104	0	77	21206
2026-01-24 03:49:37.83	345.82	26.87	-53.4	-68.4	3.8	1.49e+00	0	43	104	0	77	21273
2026-01-24 03:49:40.86	344.89	26.92	-53.3	-68.3	3.8	1.49e+00	0	43	104	0	77	21212
2026-01-24 03:49:43.88	343.96	26.97	-53.3	-68.3	3.8	1.49e+00	0	43	104	0	77	21202
2026-01-24 03:49:46.90	343.02	27.00	-53.3	-68.3	3.8	1.49e+00	0	43	104	0	77	21191
2026-01-24 03:49:49.93	342.08	27.03	-53.4	-68.3	3.8	1.49e+00	0	43	104	0	77	21222
2026-01-24 03:49:52.95	341.14	27.05	-53.3	-68.4	3.8	1.49e+00	0	43	104	0	77	21265
2026-01-24 03:49:55.98	340.20	27.06	-53.4	-68.3	3.8	1.49e+00	0	43	104	0	77	21246
2026-01-24 03:49:59.00	339.25	27.07	-53.3	-68.3	3.8	1.49e+00	0	43	104	0	77	21232
2026-01-24 03:50:02.02	338.31	27.06	-53.3	-68.4	3.8	1.49e+00	0	43	104	0	77	21267
2026-01-24 03:50:05.05	337.37	27.04	-53.3	-68.3	3.8	1.49e+00	0	43	104	0	77	21192
2026-01-24 03:50:08.08	336.43	27.02	-53.3	-68.3	3.8	1.49e+00	0	43	104	0	77	21196
2026-01-24 03:50:11.10	335.49	26.99	-53.3	-68.3	3.8	1.49e+00	0	43	104	0	77	21203
2026-01-24 03:50:14.13	334.55	26.95	-53.3	-68.3	3.8	1.49e+00	0	43	104	0	77	21190
2026-01-24 03:50:17.15	333.62	26.90	-53.3	-68.3	3.8	1.49e+00	0	43	104	0	77	21244
2026-01-24 03:50:20.17	332.69	26.84	-53.3	-68.3	3.8	1.49e+00	0	43	104	0	77	21153
2026-01-24 03:50:23.20	331.76	26.78	-53.3	-68.3	3.8	1.49e+00	0	43	104	0	77	21250
2026-01-24 03:50:26.23	330.83	26.70	-53.3	-68.3	3.8	1.49e+00	0	43	104	0	77	21207
2026-01-24 03:50:29.25	329.92	26.62	-53.3	-68.3	3.8	1.49e+00	0	43	104	0	77	21193
2026-01-24 03:50:32.27	329.00	26.53	-53.3	-68.3	3.8	1.49e+00	0	43	104	0	77	21151
2026-01-24 03:50:35.30	328.09	26.44	-53.3	-68.3	3.8	1.49e+00	0	43	104	0	77	21142
2026-01-24 03:50:38.32	327.19	26.33	-53.3	-68.3	3.8	1.49e+00	0	43	104	0	77	21110
2026-01-24 03:50:41.34	326.30	26.22	-53.3	-68.3	3.8	1.49e+00	0	43	104	0	77	21139
2026-01-24 03:50:44.37	325.40	26.10	-53.3	-68.3	3.8	1.49e+00	0	43	104	0	77	21124
2026-01-24 03:50:47.40	324.52	25.98	-53.3	-68.3	3.8	1.49e+00	0	43	104	0	77	21138
2026-01-24 03:50:50.42	323.64	25.84	-53.3	-68.3	3.8	1.49e+00	0	43	104	0	77	21216
2026-01-24 03:50:53.44	322.78	25.71	-53.3	-68.3	3.8	1.49e+00	0	43	104	0	77	21143
2026-01-24 03:50:56.47	321.91	25.56	-53.3	-68.3	3.8	1.49e+00	0	43	104	0	77	21107
2026-01-24 03:50:59.49	321.06	25.41	-53.3	-68.3	3.8	1.49e+00	0	43	104	0	77	21204
2026-01-24 03:51:02.52	320.22	25.25	-53.3	-68.3	3.8	1.49e+00	0	43	104	0	77	21169
2026-01-24 03:51:05.54	319.38	25.09	-53.3	-68.3	3.8	1.49e+00	0	43	104	0	77	21131
2026-01-24 03:51:08.57	318.55	24.92	-53.3	-68.3	3.8	1.49e+00	0	43	104	0	77	21125
2026-01-24 03:51:11.59	317.74	24.74	-53.3	-68.3	3.8	1.49e+00	0	43	104	0	77	21138
2026-01-24 03:51:14.62	316.93	24.56	-53.3	-68.3	3.8	1.49e+00	0	43	104	0	77	21161
2026-01-24 03:51:17.64	316.13	24.38	-53.3	-68.3	3.8	1.49e+00	0	43	104	0	77	21120
2026-01-24 03:51:20.67	315.34	24.19	-53.3	-68.3	3.8	1.49e+00	0	43	104	0	77	21190
2026-01-24 03:51:23.69	314.56	23.99	-53.3	-68.3	3.8	1.49e+00	0	43	104	0	77	21180
2026-01-24 03:51:26.72	313.78	23.80	-53.3	-68.3	3.8	1.49e+00	0	43	104	0	77	21085
2026-01-24 03:51:29.74	313.03	23.59	-53.3	-68.3	3.8	1.49e+00	0	43	104	0	77	21184
2026-01-24 03:51:32.77	312.27	23.39	-53.3	-68.3	3.8	1.49e+00	0	43	104	0	77	21151
2026-01-24 03:51:35.79	311.53	23.18	-53.3	-68.3	3.8	1.49e+00	0	43	104	0	77	21187
2026-01-24 03:51:38.81	310.80	22.97	-53.3	-68.3	3.8	1.49e+00	0	43	104	0	77	21105
2026-01-24 03:51:41.83	310.08	22.75	-53.3	-68.3	3.8	1.49e+00	0	43	104	0	77	21186
2026-01-24 03:51:44.86	309.37	22.53	-53.3	-68.3	3.8	1.49e+00	0	43	104	0	77	21177
2026-01-24 03:51:47.88	308.67	22.31	-53.3	-68.3	3.8	1.49e+00	0	43	104	0	77	21167
2026-01-24 03:51:50.91	307.98	22.08	-53.3	-68.3	3.8	1.49e+00	0	43	104	0	77	21173
2026-01-24 03:51:53.93	307.30	21.86	-53.3	-68.3	3.8	1.49e+00	0	43	104	0	77	21157
2026-01-24 03:51:56.96	306.63	21.63	-53.3	-68.3	3.8	1.49e+00	0	43	104	0	77	21171
2026-01-24 03:51:59.98	305.97	21.40	-53.3	-68.3	3.8	1.49e+00	0	43	104	0	77	21166
2026-01-24 03:52:03.00	305.32	21.17	-53.3	-68.3	3.8	1.49e+00	0	43	104	0	77	21149
2026-01-24 03:52:06.03	304.68	20.93	-53.3	-68.3	3.8	1.49e+00	0	43	104	0	77	21182
2026-01-24 03:52:09.05	304.05	20.69	-53.3	-68.3	3.8	1.49e+00	0	43	104	0	77	21149
2026-01-24 03:52:12.08	303.43	20.46	-53.3	-68.3	3.8	1.49e+00	0	43	104	0	77	21191
2026-01-24 03:52:15.10	302.82	20.22	-53.3	-68.3	3.8	1.49e+00	0	43	104	0	77	21134
2026-01-24 03:52:18.13	302.21	19.98	-53.3	-68.3	3.8	1.49e+00	0	43	104	0	77	21161
2026-01-24 03:52:21.15	301.62	19.74	-53.3	-68.3	3.8	1.49e+00	0	43	104	0	77	21147
2026-01-24 03:52:24.18	301.04	19.49	-53.3	-68.3	3.8	1.49e+00	0	43	104	0	77	21141
2026-01-24 03:52:27.20	300.47	19.25	-53.3	-68.3	3.8	1.49e+00	0	43	104	0	77	21155
2026-01-24 03:52:30.23	299.90	19.01	-53.3	-68.3	3.8	1.49e+00	0	43	104	0	77	21163
2026-01-24 03:52:33.25	299.34	18.77	-53.3	-68.3	3.8	1.49e+00	0	43	104	0	77	21147
2026-01-24 03:52:36.27	298.80	18.52	-53.3	-68.3	3.8	1.49e+00	0	43	104	0	77	21117
2026-01-24 03:52:39.30	298.26	18.28	-53.3	-68.3	3.8	1.49e+00	0	43	104	0	77	21221
2026-01-24 03:52:42.32	297.73	18.03	-53.3	-68.3	3.8	1.49e+00	0	43	104	0	77	21150
2026-01-24 03:52:45.35	297.21	17.79	-53.3	-68.3	3.8	1.49e+00	0	43	104	0	77	21195
2026-01-24 03:52:48.37	296.70	17.54	-53.3	-68.3	3.8	1.49e+00	0	43	104	0	77	21227
2026-01-24 03:52:51.40	296.19	17.30	-53.3	-68.3	3.8	1.49e+00	0	43	104	0	77	21177
2026-01-24 03:52:54.43	295.70	17.05	-53.3	-68.3	3.8	1.49e+00	0	43	104	0	77	21150
2026-01-24 03:52:57.46	295.21	16.81	-53.3	-68.3	3.8	1.49e+00	0	43	104	0	77	21219
2026-01-24 03:53:00.48	294.73	16.57	-53.3	-68.3	3.8	1.49e+00	0	43	104	0	77	21206
2026-01-24 03:53:03.51	294.26	16.32	-53.3	-68.3	3.8	1.49e+00	0	43	104	0	77	21169
2026-01-24 03:53:06.53	293.80	16.08	-53.3	-68.3	3.8	1.49e+00	0	43	104	0	77	21175
2026-01-24 03:53:09.56	293.34	15.84	-53.3	-68.3	3.8	1.49e+00	0	43	104	0	77	21149
2026-01-24 03:53:12.58	292.89	15.60	-53.3	-68.3	3.8	1.49e+00	0	43	104	0	77	21168
2026-01-24 03:53:15.60	292.45	15.35	-53.3	-68.3	3.8	1.49e+00	0	43	104	0	77	21174
2026-01-24 03:53:18.63	292.02	15.11	-53.3	-68.3	3.8	1.49e+00	0	43	104	0	77	21231
2026-01-24 03:53:21.66	291.59	14.87	-53.3	-68.3	3.8	1.49e+00	0	43	104	0	77	21188
2026-01-24 03:53:24.68	291.17	14.63	-53.3	-68.3	3.8	1.49e+00	0	43	104	0	77	21171
2026-01-24 03:53:27.70	290.75	14.40	-53.3	-68.3	3.8	1.49e+00	0	43	104	0	77	21132
2026-01-24 03:53:30.73	290.35	14.16	-53.3	-68.3	3.8	1.49e+00	0	43	104	0	77	21130
2026-01-24 03:53:33.76	289.95	13.92	-53.3	-68.3	3.8	1.49e+00	0	43	104	0	77	21146
2026-01-24 03:53:36.78	289.55	13.69	-53.3	-68.3	3.8	1.49e+00	0	43	104	0	77	21130
2026-01-24 03:53:39.81	289.16	13.45	-53.3	-68.3	3.8	1.49e+00	0	43	104	0	77	21135
2026-01-24 03:53:42.83	288.78	13.22	-53.3	-68.3	3.8	1.49e+00	0	43	104	0	77	21151
2026-01-24 03:53:45.86	288.41	12.98	-53.3	-68.3	3.8	1.49e+00	0	43	104	0	77	21116
2026-01-24 03:53:48.88	288.04	12.75	-53.3	-68.3	3.8	1.49e+00	0	43	104	0	77	21102
2026-01-24 03:53:51.91	287.68	12.52	-53.3	-68.3	3.8	1.49e+00	0	43	104	0	77	21153
2026-01-24 03:53:54.93	287.32	12.29	-53.3	-68.3	3.8	1.49e+00	0	43	104	0	77	21158
2026-01-24 03:53:57.95	286.97	12.06	-53.3	-68.3	3.8	1.49e+00	0	43	104	0	77	21099
2026-01-24 03:54:00.98	286.62	11.84	-53.3	-68.3	3.8	1.49e+00	0	43	104	0	77	21147
2026-01-24 03:54:04.01	286.28	11.61	-53.3	-68.3	3.8	1.49e+00	0	43	104	0	77	21160
2026-01-24 03:54:07.03	285.94	11.38	-53.3	-68.3	3.8	1.49e+00	0	43	104	0	77	21153
2026-01-24 03:54:10.06	285.61	11.16	-53.3	-68.3	3.8	1.49e+00	0	43	104	0	77	21133
2026-01-24 03:54:13.08	285.29	10.94	-53.3	-68.3	3.8	1.49e+00	0	43	104	0	77	21110
2026-01-24 03:54:16.10	284.97	10.71	-53.3	-68.3	3.8	1.49e+00	0	43	104	0	77	21176
2026-01-24 03:54:19.13	284.65	10.49	-53.3	-68.3	3.8	1.49e+00	0	43	104	0	77	21198
2026-01-24 03:54:22.15	284.34	10.27	-53.3	-68.3	3.8	1.49e+00	0	43	104	0	77	21206
2026-01-24 03:54:25.18	284.04	10.05	-53.3	-68.3	3.8	1.49e+00	0	43	104	0	77	21179
2026-01-24 03:54:28.20	283.74	9.84	-53.3	-68.3	3.8	1.49e+00	0	43	104	0	77	21180
2026-01-24 03:54:31.22	283.44	9.62	-53.3	-68.3	3.8	1.49e+00	0	43	104	0	77	21171
2026-01-24 03:54:34.25	283.15	9.40	-53.3	-68.3	3.8	1.49e+00	0	43	104	0	77	21099
2026-01-24 03:54:37.27	282.86	9.19	-53.3	-68.3	3.8	1.49e+00	0	43	104	0	77	21120
2026-01-24 03:54:40.30	282.58	8.98	-53.3	-68.3	3.8	1.49e+00	0	43	104	0	77	21088
2026-01-24 03:54:43.32	282.30	8.77	-53.3	-68.3	3.8	1.49e+00	0	43	104	0	77	21174
2026-01-24 03:54:46.35	282.02	8.55	-53.3	-68.3	3.8	1.49e+00	0	43	104	0	77	21210
2026-01-24 03:54:49.37	281.75	8.34	-53.4	-68.4	3.8	1.49e+00	0	43	104	0	77	21394
2026-01-24 03:54:52.40	281.49	8.14	-53.3	-68.3	3.8	1.49e+00	0	43	104	0	77	21241
2026-01-24 03:54:55.43	281.22	7.93	-53.3	-68.3	3.8	1.49e+00	0	43	104	0	77	21197
2026-01-24 03:54:58.45	280.97	7.72	-53.4	-68.3	3.8	1.49e+00	0	43	104	0	77	21251
2026-01-24 03:55:01.48	280.71	7.52	-53.3	-68.3	3.8	1.49e+00	0	43	104	0	77	21249
2026-01-24 03:55:04.50	280.46	7.31	-53.3	-68.3	3.8	1.49e+00	0	43	104	0	77	21258
2026-01-24 03:55:07.52	280.21	7.11	-53.3	-68.3	3.8	1.49e+00	0	43	104	0	77	21172
2026-01-24 03:55:10.55	279.97	6.91	-53.3	-68.3	3.8	1.49e+00	0	43	104	0	77	21183
2026-01-24 03:55:13.58	279.73	6.71	-53.3	-68.3	3.8	1.49e+00	0	43	104	0	77	21229
2026-01-24 03:55:16.61	279.49	6.51	-53.3	-68.3	3.8	1.49e+00	0	43	104	0	77	21174
2026-01-24 03:55:19.63	279.25	6.31	-53.3	-68.3	3.8	1.49e+00	0	43	104	0	77	21224
2026-01-24 03:55:22.66	279.02	6.11	-53.3	-68.3	3.8	1.49e+00	0	44	104	0	77	21190
2026-01-24 03:55:25.68	278.80	5.91	-53.3	-68.3	3.8	1.49e+00	0	43	104	0	77	21229
2026-01-24 03:55:28.71	278.57	5.72	-53.3	-68.3	3.8	1.49e+00	0	43	104	0	77	21192
2026-01-24 03:55:31.73	278.35	5.52	-53.3	-68.3	3.8	1.49e+00	0	43	104	0	77	21155
2026-01-24 03:55:34.75	278.13	5.33	-53.3	-68.3	3.8	1.49e+00	0	43	104	0	77	21202
2026-01-24 03:55:37.78	277.92	5.14	-53.3	-68.3	3.8	1.49e+00	0	43	104	0	77	21173
2026-01-24 03:55:40.80	277.70	4.94	-53.3	-68.3	3.8	1.49e+00	0	43	104	0	77	21186
2026-01-24 03:55:43.83	277.49	4.75	-53.3	-68.3	3.8	1.49e+00	0	43	104	0	77	21167
2026-01-24 03:55:46.86	277.29	4.56	-53.3	-68.3	3.8	1.49e+00	0	43	104	0	77	21187
2026-01-24 03:55:49.88	277.08	4.37	-53.3	-68.3	3.8	1.49e+00	0	43	104	0	77	21119
2026-01-24 03:55:52.90	276.88	4.19	-53.3	-68.3	3.8	1.49e+00	0	43	104	0	77	21113
2026-01-24 03:55:55.93	276.69	4.00	-53.3	-68.3	3.8	1.49e+00	0	43	104	0	77	21131
2026-01-24 03:55:58.95	276.49	3.82	-53.3	-68.3	3.8	1.49e+00	0	43	104	0	77	21154
2026-01-24 03:56:01.97	276.30	3.63	-53.3	-68.3	3.8	1.49e+00	0	43	104	0	77	21191
2026-01-24 03:56:05.00	276.11	3.45	-53.3	-68.3	3.8	1.49e+00	0	43	104	0	77	21094
2026-01-24 03:56:08.03	275.92	3.26	-53.3	-68.3	3.8	1.49e+00	0	43	104	0	77	21146
2026-01-24 03:56:11.05	275.73	3.08	-53.3	-68.3	3.8	1.49e+00	0	43	104	0	77	21213
2026-01-24 03:56:14.08	275.55	2.90	-53.3	-68.3	3.8	1.49e+00	0	43	104	0	77	21158
2026-01-24 03:56:17.10	275.37	2.72	-53.3	-68.3	3.8	1.49e+00	0	43	104	0	77	21154
2026-01-24 03:56:20.13	275.19	2.54	-53.3	-68.3	3.8	1.49e+00	0	43	104	0	77	21216
2026-01-24 03:56:23.15	275.01	2.36	-53.3	-68.3	3.8	1.49e+00	0	43	104	0	77	21191
2026-01-24 03:56:26.18	274.84	2.18	-53.3	-68.3	3.8	1.49e+00	0	43	104	0	77	21163
2026-01-24 03:56:29.20	274.67	2.01	-53.3	-68.3	3.8	1.49e+00	0	43	104	0	77	21133

#Closed at: 2026-01-24 03:56:31
#Recorded file [0 MB]: D:/lorett/data/31041_260124_064328.dat