passes_logs/2026/01/24/R3.2S_Murmansk/R3.2S_Murmansk__20260124_080015_AQUA_rec.log

#Pass ID: 20260124_080015_AQUA
#Satellite: AQUA
#Configuration: AQUA
#almurnet v.1.7.20251203
#Start time: 2026-01-24 08:04:40

#Version: 2.2.20231116
#Station: R3.2S_Murmansk
#Location: 33.079688 lon 68.888172 lat
#TLE: 1 27424U 02022A   26023.58972979  .00001888  00000+0  38753-3 0  9997
#TLE: 2 27424  98.4100 350.1620 0001948  68.5331  43.0280 14.61852003262140

#Time	Az	El	Level	Level2	SNR	BER	BlckErr	Temp	State	Recorded	gain1	gain2
2026-01-24 08:04:40.43	36.54	19.01	-53.8	-66.6	3.8	1.49e+00	0	42	0	0	79	15479
2026-01-24 08:04:42.45	36.00	19.11	-55.7	-73.5	3.8	7.47e-01	0	43	104	0	81	30699
2026-01-24 08:04:44.46	35.46	19.20	-55.7	-73.5	3.8	7.44e-01	0	43	104	0	81	30416
2026-01-24 08:04:46.48	34.92	19.29	-55.7	-73.5	3.8	7.47e-01	0	43	104	0	82	28793
2026-01-24 08:04:48.49	34.37	19.38	-55.5	-73.3	3.8	7.46e-01	0	43	104	0	82	28269
2026-01-24 08:04:50.51	33.82	19.46	-55.4	-73.2	3.8	7.44e-01	0	43	104	0	82	27892
2026-01-24 08:04:52.53	33.26	19.55	-55.2	-73.0	3.8	7.44e-01	0	43	104	0	82	27091
2026-01-24 08:04:54.54	32.70	19.63	-54.9	-72.7	3.8	7.46e-01	0	43	104	0	81	27796
2026-01-24 08:04:56.56	32.14	19.70	-54.9	-72.7	3.8	7.44e-01	0	43	104	0	81	27754
2026-01-24 08:04:58.57	31.58	19.78	-54.8	-72.6	3.8	7.41e-01	0	43	104	0	81	27418
2026-01-24 08:05:00.59	31.01	19.85	-54.8	-72.5	3.8	7.45e-01	0	43	104	0	81	27211
2026-01-24 08:05:02.61	30.44	19.92	-54.8	-72.6	3.8	7.46e-01	0	43	104	0	81	27475
2026-01-24 08:05:04.62	29.87	19.99	-54.8	-72.6	3.8	7.45e-01	0	43	104	0	81	27421
2026-01-24 08:05:06.64	29.29	20.05	-54.8	-72.6	3.8	7.48e-01	0	43	104	0	81	27402
2026-01-24 08:05:08.66	28.71	20.12	-54.8	-72.6	3.8	7.44e-01	0	43	104	0	81	27454
2026-01-24 08:05:10.67	28.13	20.17	-54.8	-72.5	3.8	7.46e-01	0	43	104	0	81	27331
2026-01-24 08:05:12.69	27.55	20.23	-54.7	-72.5	3.8	7.45e-01	0	43	104	0	81	27254
2026-01-24 08:05:14.71	26.96	20.28	-54.7	-72.5	3.8	7.49e-01	0	43	104	0	81	27203
2026-01-24 08:05:16.72	26.38	20.33	-54.7	-72.5	3.8	7.45e-01	0	43	104	0	81	27216
2026-01-24 08:05:18.74	25.78	20.38	-54.7	-72.4	3.8	7.44e-01	0	43	104	0	81	27048
2026-01-24 08:05:20.76	25.19	20.43	-54.7	-72.3	3.8	7.43e-01	0	43	104	0	81	26731
2026-01-24 08:05:22.78	24.60	20.47	-54.7	-72.4	3.8	7.44e-01	0	43	104	0	81	26936
2026-01-24 08:05:24.79	24.01	20.51	-54.7	-72.4	3.8	7.46e-01	0	43	104	0	81	27004
2026-01-24 08:05:26.81	23.41	20.54	-54.7	-72.4	3.8	7.43e-01	0	43	104	0	81	26945
2026-01-24 08:05:28.82	22.81	20.57	-54.7	-72.4	3.8	7.45e-01	0	43	104	0	81	26811
2026-01-24 08:05:30.84	22.21	20.60	-54.3	-70.6	3.8	7.43e-01	0	43	104	0	80	23269
2026-01-24 08:05:32.85	21.62	20.63	-53.6	-68.2	3.8	7.43e-01	0	43	104	0	79	18652
2026-01-24 08:05:34.87	21.01	20.65	-54.2	-69.6	3.8	7.48e-01	0	43	104	0	78	23084
2026-01-24 08:05:36.88	20.41	20.67	-54.6	-71.4	3.8	7.46e-01	0	43	104	0	79	26982
2026-01-24 08:05:38.90	19.81	20.69	-45.0	-55.8	3.8	7.45e-01	0	43	104	0	62	11918
2026-01-24 08:05:40.91	19.21	20.70	-45.0	-55.8	3.8	7.43e-01	0	43	104	0	61	12549
2026-01-24 08:05:42.93	18.60	20.71	-46.2	-57.1	3.8	7.43e-01	0	43	104	0	62	13744
2026-01-24 08:05:44.94	18.00	20.72	-54.5	-71.3	3.8	7.46e-01	0	43	104	0	79	26619
2026-01-24 08:05:46.95	17.40	20.72	-54.3	-70.4	3.7	7.44e-01	0	43	104	0	79	23910
2026-01-24 08:05:48.97	16.80	20.72	-45.0	-55.8	3.8	7.44e-01	0	43	104	0	61	12556
2026-01-24 08:05:50.99	16.19	20.72	-51.2	-63.5	3.8	7.44e-01	0	43	104	0	72	16298
2026-01-24 08:05:53.00	15.59	20.72	-54.5	-71.4	3.8	7.45e-01	0	43	104	0	79	26772
2026-01-24 08:05:55.02	14.98	20.71	-54.2	-70.2	3.8	7.47e-01	0	43	104	0	78	24918
2026-01-24 08:05:57.03	14.38	20.69	-44.8	-55.5	3.8	7.46e-01	0	43	104	0	61	12186
2026-01-24 08:05:59.05	13.78	20.68	-51.7	-64.5	3.8	7.45e-01	0	43	104	0	73	17098
2026-01-24 08:06:01.06	13.18	20.66	-54.5	-71.5	3.8	7.44e-01	0	43	104	0	79	27183
2026-01-24 08:06:03.08	12.58	20.64	-54.3	-70.5	3.8	7.44e-01	0	43	104	0	79	24156
2026-01-24 08:06:05.10	11.98	20.61	-45.0	-55.7	3.8	7.43e-01	0	43	104	0	61	12500
2026-01-24 08:06:07.11	11.38	20.58	-50.5	-62.5	3.8	7.42e-01	0	43	104	0	71	15384
2026-01-24 08:06:09.13	10.78	20.55	-54.3	-70.7	3.8	7.43e-01	0	43	104	0	79	24857
2026-01-24 08:06:11.14	10.19	20.52	-54.1	-70.1	3.8	7.44e-01	0	43	104	0	79	23072
2026-01-24 08:06:13.16	9.59	20.48	-45.0	-55.8	3.9	7.45e-01	0	43	104	0	61	12659
2026-01-24 08:06:15.17	9.00	20.44	-50.7	-63.0	3.8	7.42e-01	0	43	104	0	73	14406
2026-01-24 08:06:17.19	8.41	20.40	-54.3	-70.6	3.8	7.45e-01	0	43	104	0	79	24598
2026-01-24 08:06:19.21	7.82	20.35	-54.1	-69.9	3.8	7.44e-01	0	43	104	0	79	22753
2026-01-24 08:06:21.22	7.23	20.30	-45.0	-55.8	3.8	7.45e-01	0	43	104	0	61	12556
2026-01-24 08:06:23.24	6.64	20.25	-49.6	-61.4	3.9	7.43e-01	0	43	104	0	71	13426
2026-01-24 08:06:25.25	6.06	20.19	-54.5	-71.4	3.8	7.44e-01	0	43	104	0	79	26960
2026-01-24 08:06:27.27	5.48	20.14	-45.1	-56.0	3.8	7.45e-01	0	43	104	0	61	12856
2026-01-24 08:06:29.29	4.90	20.07	-44.8	-55.5	3.8	7.44e-01	0	43	104	0	61	12233
2026-01-24 08:06:31.30	4.33	20.01	-45.6	-56.5	3.8	7.44e-01	0	43	104	0	62	12867
2026-01-24 08:06:33.31	3.75	19.95	-53.4	-67.7	3.9	7.40e-01	0	43	104	0	78	18603
2026-01-24 08:06:35.33	3.18	19.88	-52.6	-66.2	3.9	7.42e-01	0	43	104	0	77	16662
2026-01-24 08:06:37.35	2.61	19.80	-44.9	-55.7	3.8	7.45e-01	0	43	104	0	61	12498
2026-01-24 08:06:39.36	2.05	19.73	-50.2	-62.2	3.9	7.42e-01	0	43	104	0	72	13888
2026-01-24 08:06:41.38	1.49	19.65	-52.0	-65.2	3.9	7.43e-01	0	44	104	0	76	15650
2026-01-24 08:06:43.39	0.93	19.57	-52.4	-65.5	3.9	7.42e-01	0	43	104	0	76	16140
2026-01-24 08:06:45.41	0.37	19.49	-45.2	-56.1	3.8	7.45e-01	0	43	104	0	62	12301
2026-01-24 08:06:47.43	359.82	19.41	-45.0	-55.8	3.8	7.46e-01	0	44	104	0	62	11838
2026-01-24 08:06:49.44	359.27	19.32	-49.4	-61.2	3.9	7.42e-01	0	44	104	0	71	13148
2026-01-24 08:06:51.46	358.72	19.23	-50.2	-62.1	3.9	7.42e-01	0	43	104	0	72	13789
2026-01-24 08:06:53.47	358.18	19.14	-45.1	-55.9	3.8	7.46e-01	0	44	104	0	61	12786
2026-01-24 08:06:55.49	357.64	19.05	-45.2	-55.9	3.8	7.45e-01	0	43	104	0	62	12088
2026-01-24 08:06:57.51	357.10	18.95	-49.2	-60.7	3.9	7.43e-01	0	44	104	0	70	13111
2026-01-24 08:06:59.52	356.57	18.86	-50.0	-62.0	3.8	7.42e-01	0	44	104	0	72	13575
2026-01-24 08:07:01.54	356.04	18.76	-44.7	-55.5	3.8	7.44e-01	0	44	104	0	61	12191
2026-01-24 08:07:03.55	355.52	18.66	-44.8	-55.6	3.8	7.47e-01	0	44	104	0	61	12309
2026-01-24 08:07:05.57	355.00	18.55	-47.8	-58.9	3.9	7.42e-01	0	44	104	0	67	12745
2026-01-24 08:07:07.58	354.48	18.45	-48.1	-59.5	3.9	7.42e-01	0	43	104	0	68	12847
2026-01-24 08:07:09.60	353.97	18.34	-45.2	-56.0	3.8	7.46e-01	0	44	104	0	62	12129
2026-01-24 08:07:11.61	353.46	18.23	-48.0	-59.2	3.8	7.44e-01	0	43	104	0	67	13188
2026-01-24 08:07:13.63	352.95	18.12	-45.6	-56.4	3.8	7.45e-01	0	43	104	0	63	12085
2026-01-24 08:07:15.64	352.45	18.01	-46.1	-57.1	3.8	7.45e-01	0	44	104	0	64	12311
2026-01-24 08:07:17.66	351.96	17.90	-44.9	-55.7	3.8	7.42e-01	0	44	104	0	61	12453
2026-01-24 08:07:19.67	351.46	17.78	-47.3	-58.4	3.9	7.43e-01	0	44	104	0	66	12701
2026-01-24 08:07:21.69	350.97	17.67	-46.6	-57.7	3.8	7.46e-01	0	43	104	0	65	12463
2026-01-24 08:07:23.71	350.49	17.55	-46.4	-57.2	3.9	7.43e-01	0	43	104	0	64	12401
2026-01-24 08:07:25.72	350.01	17.43	-44.8	-55.8	3.8	7.44e-01	0	44	104	0	61	12536
2026-01-24 08:07:27.74	349.53	17.31	-45.1	-55.9	3.8	7.47e-01	0	44	104	0	61	12722
2026-01-24 08:07:29.75	349.06	17.19	-45.6	-56.5	3.8	7.43e-01	0	44	104	0	63	12157
2026-01-24 08:07:31.77	348.59	17.06	-45.2	-56.1	3.9	7.45e-01	0	44	104	0	62	12239
2026-01-24 08:07:33.79	348.12	16.94	-44.5	-55.2	3.8	7.46e-01	0	44	104	0	60	12477
2026-01-24 08:07:35.80	347.66	16.81	-46.2	-57.3	3.8	7.44e-01	0	44	104	0	64	12616
2026-01-24 08:07:37.82	347.20	16.69	-45.8	-56.6	3.8	7.42e-01	0	44	104	0	63	12316
2026-01-24 08:07:39.83	346.75	16.56	-44.8	-55.6	3.8	7.46e-01	0	44	104	0	61	12256
2026-01-24 08:07:41.85	346.30	16.43	-44.6	-55.6	3.8	7.43e-01	0	43	104	0	61	12254
2026-01-24 08:07:43.86	345.86	16.30	-45.2	-55.9	3.8	7.45e-01	0	44	104	0	61	12717
2026-01-24 08:07:45.88	345.42	16.17	-46.2	-56.9	3.8	7.44e-01	0	43	104	0	63	12745
2026-01-24 08:07:47.89	344.98	16.04	-44.8	-55.8	3.8	7.48e-01	0	44	104	0	61	12659
2026-01-24 08:07:49.91	344.55	15.91	-44.5	-55.3	3.8	7.45e-01	0	43	104	0	60	12659
2026-01-24 08:07:51.93	344.12	15.77	-45.7	-56.6	3.8	7.42e-01	0	43	104	0	63	12289
2026-01-24 08:07:53.94	343.70	15.64	-46.4	-57.6	3.8	7.44e-01	0	43	104	0	63	13811
2026-01-24 08:07:55.96	343.28	15.51	-44.9	-55.7	3.8	7.45e-01	0	43	104	0	61	12383
2026-01-24 08:07:57.97	342.86	15.37	-44.6	-55.2	3.8	7.44e-01	0	43	104	0	61	11764
2026-01-24 08:07:59.99	342.45	15.24	-45.7	-56.8	3.8	7.44e-01	0	43	104	0	63	12542
2026-01-24 08:08:02.00	342.04	15.10	-46.5	-57.7	3.8	7.45e-01	0	43	104	0	63	14022
2026-01-24 08:08:04.02	341.64	14.96	-44.7	-55.4	3.9	7.46e-01	0	43	104	0	61	11980
2026-01-24 08:08:06.03	341.24	14.83	-44.7	-55.0	3.8	7.45e-01	0	43	104	0	61	11455
2026-01-24 08:08:08.05	340.85	14.69	-45.3	-56.0	3.8	7.43e-01	0	43	104	0	62	12096
2026-01-24 08:08:10.07	340.45	14.55	-46.8	-57.9	3.9	7.43e-01	0	44	104	0	64	13511
2026-01-24 08:08:12.08	340.07	14.41	-44.7	-55.6	3.8	7.46e-01	0	44	104	0	61	12304
2026-01-24 08:08:14.10	339.68	14.28	-44.8	-55.5	3.8	7.43e-01	0	43	104	0	61	12135
2026-01-24 08:08:16.11	339.30	14.14	-45.5	-56.3	3.8	7.43e-01	0	43	104	0	63	11852
2026-01-24 08:08:18.13	338.93	14.00	-46.0	-56.7	3.9	7.44e-01	0	43	104	0	63	12384
2026-01-24 08:08:20.15	338.55	13.86	-44.8	-55.7	3.8	7.46e-01	0	43	104	0	61	12411
2026-01-24 08:08:22.16	338.19	13.72	-45.0	-56.1	3.8	7.45e-01	0	44	104	0	61	13080
2026-01-24 08:08:24.17	337.82	13.58	-45.4	-56.5	3.8	7.47e-01	0	43	104	0	61	13626
2026-01-24 08:08:26.19	337.46	13.44	-46.1	-57.2	3.8	7.43e-01	0	43	104	0	64	12427
2026-01-24 08:08:28.21	337.10	13.30	-44.9	-55.8	3.8	7.46e-01	0	43	104	0	61	12567
2026-01-24 08:08:30.23	336.75	13.16	-45.3	-56.3	3.8	7.47e-01	0	43	104	0	61	13288
2026-01-24 08:08:32.24	336.40	13.02	-45.7	-56.6	3.8	7.44e-01	0	43	104	0	62	13091
2026-01-24 08:08:34.26	336.05	12.87	-45.7	-56.6	3.9	7.45e-01	0	43	104	0	63	12278
2026-01-24 08:08:36.28	335.71	12.73	-45.2	-55.8	3.8	7.43e-01	0	44	104	0	62	11930
2026-01-24 08:08:38.29	335.37	12.59	-44.8	-55.3	3.8	7.42e-01	0	43	104	0	61	11822
2026-01-24 08:08:40.31	335.03	12.45	-45.6	-56.2	3.8	7.45e-01	0	43	104	0	62	12451
2026-01-24 08:08:42.32	334.70	12.31	-45.7	-56.7	3.8	7.46e-01	0	43	104	0	63	12387
2026-01-24 08:08:44.34	334.37	12.17	-45.3	-56.2	3.8	7.44e-01	0	43	104	0	62	12497
2026-01-24 08:08:46.35	334.05	12.03	-45.3	-56.4	3.8	7.45e-01	0	43	104	0	62	12668
2026-01-24 08:08:48.37	333.73	11.89	-46.4	-48.6	5.3	7.03e-01	0	43	104	0	63	4882
2026-01-24 08:08:50.39	333.41	11.75	-45.1	-46.4	24.4	6.04e-01	0	43	0	2097152	62	4049
2026-01-24 08:08:52.40	333.09	11.61	-44.8	-46.0	24.9	6.05e-01	0	43	0	5767168	60	4324
2026-01-24 08:08:54.42	332.78	11.47	-44.7	-45.9	25.1	6.04e-01	0	43	0	9437184	60	4286
2026-01-24 08:08:56.43	332.47	11.33	-44.6	-45.8	25.0	6.03e-01	0	43	0	13631488	61	3971
2026-01-24 08:08:58.45	332.17	11.18	-45.2	-46.5	24.3	6.02e-01	0	43	0	17301504	61	4316
2026-01-24 08:09:00.47	331.87	11.04	-45.4	-46.8	24.3	6.03e-01	0	43	0	20971520	61	4475
2026-01-24 08:09:02.48	331.57	10.90	-44.7	-46.0	24.9	6.03e-01	0	43	0	24641536	60	4307
2026-01-24 08:09:04.50	331.27	10.76	-44.9	-46.2	24.6	6.02e-01	0	43	0	28835840	61	4151
2026-01-24 08:09:06.52	330.98	10.62	-46.0	-47.5	23.3	6.05e-01	0	43	0	32505856	63	4304
2026-01-24 08:09:08.53	330.69	10.49	-45.5	-47.0	23.8	6.02e-01	0	43	0	36175872	61	4555
2026-01-24 08:09:10.55	330.40	10.35	-44.3	-45.4	25.4	6.03e-01	0	43	0	39845888	60	4049
2026-01-24 08:09:12.57	330.12	10.21	-45.0	-46.3	24.0	6.06e-01	0	43	0	43515904	61	4227
2026-01-24 08:09:14.58	329.84	10.07	-45.3	-46.7	24.2	6.04e-01	0	43	0	47710208	61	4439
2026-01-24 08:09:16.60	329.56	9.93	-44.9	-46.1	24.8	6.04e-01	0	43	0	51380224	61	4141
2026-01-24 08:09:18.61	329.28	9.79	-45.5	-46.9	23.9	6.02e-01	0	43	0	55050240	62	4291
2026-01-24 08:09:20.63	329.01	9.65	-45.8	-47.3	23.8	6.04e-01	0	43	0	58720256	62	4474
2026-01-24 08:09:22.65	328.74	9.51	-44.8	-46.1	24.9	6.03e-01	0	43	0	62914560	61	4113
2026-01-24 08:09:24.66	328.48	9.38	-45.3	-46.6	24.2	6.03e-01	0	43	0	66584576	61	4382
2026-01-24 08:09:26.68	328.21	9.24	-45.2	-46.6	24.4	6.03e-01	0	43	0	70254592	61	4356
2026-01-24 08:09:28.69	327.95	9.10	-45.0	-46.3	24.6	6.02e-01	0	43	0	73924608	61	4240
2026-01-24 08:09:30.71	327.69	8.97	-45.6	-47.0	24.0	6.03e-01	0	43	0	77594624	61	4577
2026-01-24 08:09:32.73	327.44	8.83	-45.1	-46.5	24.5	6.02e-01	0	43	0	81788928	61	4293
2026-01-24 08:09:34.74	327.19	8.69	-45.5	-46.9	23.8	6.01e-01	0	43	0	85458944	62	4279
2026-01-24 08:09:36.76	326.94	8.56	-45.3	-46.6	24.2	6.05e-01	0	43	0	89128960	62	4130
2026-01-24 08:09:38.77	326.69	8.42	-45.3	-46.7	24.0	6.04e-01	0	43	0	92798976	62	4180
2026-01-24 08:09:40.79	326.44	8.29	-45.7	-47.1	23.7	6.04e-01	0	43	0	96468992	62	4382
2026-01-24 08:09:42.80	326.20	8.15	-45.6	-47.1	23.7	6.02e-01	0	43	0	100139008	62	4357
2026-01-24 08:09:44.82	325.96	8.02	-46.0	-47.5	23.4	6.04e-01	0	43	0	104333312	62	4563
2026-01-24 08:09:46.83	325.72	7.88	-45.5	-46.9	24.0	6.04e-01	0	43	0	108003328	62	4253
2026-01-24 08:09:48.85	325.49	7.75	-45.5	-46.9	23.9	6.02e-01	0	43	0	111673344	62	4272
2026-01-24 08:09:50.87	325.25	7.62	-45.5	-46.9	23.9	6.03e-01	0	43	0	115343360	62	4268
2026-01-24 08:09:52.88	325.02	7.48	-45.6	-47.1	23.8	6.02e-01	0	43	0	119537664	62	4360
2026-01-24 08:09:54.90	324.80	7.35	-45.3	-46.7	24.0	6.04e-01	0	43	0	123207680	62	4178
2026-01-24 08:09:56.91	324.57	7.22	-46.0	-47.5	23.4	6.04e-01	0	43	0	126877696	62	4560
2026-01-24 08:09:58.93	324.35	7.09	-45.6	-47.1	23.8	6.03e-01	0	43	0	130547712	62	4343
2026-01-24 08:10:00.95	324.13	6.96	-45.8	-47.2	23.6	6.02e-01	0	43	0	134742016	62	4435
2026-01-24 08:10:02.96	323.91	6.82	-45.8	-47.2	23.5	6.04e-01	0	43	0	138412032	62	4428
2026-01-24 08:10:04.98	323.69	6.69	-45.5	-46.9	23.7	6.03e-01	0	43	0	142082048	62	4275
2026-01-24 08:10:06.99	323.48	6.56	-46.0	-47.5	23.2	6.04e-01	0	43	0	145752064	62	4571
2026-01-24 08:10:09.01	323.26	6.43	-46.1	-47.6	23.1	6.03e-01	0	43	0	149422080	63	4364
2026-01-24 08:10:11.02	323.05	6.30	-46.2	-47.8	23.0	6.04e-01	0	43	0	153092096	63	4474
2026-01-24 08:10:13.04	322.84	6.17	-46.2	-47.8	22.9	6.04e-01	0	43	0	157286400	63	4484
2026-01-24 08:10:15.05	322.64	6.05	-46.0	-47.5	23.2	6.03e-01	0	43	0	160956416	63	4303
2026-01-24 08:10:17.07	322.43	5.92	-46.5	-48.1	22.6	6.02e-01	0	43	0	164626432	63	4618
2026-01-24 08:10:19.09	322.23	5.79	-46.2	-47.8	22.9	6.04e-01	0	43	0	168296448	63	4475
2026-01-24 08:10:21.11	322.03	5.66	-46.1	-47.6	23.1	6.02e-01	0	43	0	171966464	63	4391
2026-01-24 08:10:23.12	321.83	5.53	-46.3	-47.9	22.8	6.03e-01	0	43	0	176160768	63	4504
2026-01-24 08:10:25.14	321.64	5.41	-46.3	-48.0	22.7	6.02e-01	0	43	0	179830784	63	4549
2026-01-24 08:10:27.15	321.44	5.28	-46.7	-48.4	22.1	6.02e-01	0	43	0	183500800	64	4516
2026-01-24 08:10:29.17	321.25	5.15	-46.1	-47.7	22.7	6.03e-01	0	43	0	187170816	64	4178
2026-01-24 08:10:31.19	321.06	5.03	-45.8	-47.2	23.3	6.01e-01	0	43	0	191365120	63	4193
2026-01-24 08:10:33.21	320.87	4.90	-54.2	-72.4	3.8	7.45e-01	0	43	104	192413696	79	30037
2026-01-24 08:10:35.22	320.68	4.78	-54.7	-72.5	3.8	7.44e-01	0	43	104	192413696	79	30612
2026-01-24 08:10:37.24	320.50	4.65	-55.0	-72.8	3.8	7.49e-01	0	43	104	192413696	80	29771
2026-01-24 08:10:39.25	320.32	4.53	-55.3	-73.1	3.8	7.48e-01	0	43	104	192413696	81	29115
2026-01-24 08:10:41.27	320.13	4.40	-55.5	-73.3	3.8	7.47e-01	0	43	104	192413696	81	29817
2026-01-24 08:10:43.29	319.95	4.28	-55.6	-73.4	3.8	7.45e-01	0	43	104	192413696	81	30293
2026-01-24 08:10:45.31	319.78	4.15	-55.8	-73.6	3.8	7.46e-01	0	43	104	192413696	82	29151
2026-01-24 08:10:47.32	319.60	4.03	-55.8	-73.6	3.8	7.44e-01	0	43	104	192413696	82	29336
2026-01-24 08:10:49.34	319.43	3.91	-55.8	-73.7	3.8	7.44e-01	0	43	104	192413696	82	29382
2026-01-24 08:10:51.36	319.25	3.79	-55.8	-73.6	3.8	7.44e-01	0	43	104	192413696	82	29058
2026-01-24 08:10:53.38	319.08	3.66	-55.7	-73.5	3.8	7.45e-01	0	43	104	192413696	82	28689
2026-01-24 08:10:55.40	318.91	3.54	-55.6	-73.4	3.8	7.45e-01	0	43	104	192413696	82	28425
2026-01-24 08:10:57.41	318.74	3.42	-55.5	-73.3	3.8	7.45e-01	0	43	104	192413696	82	28166
2026-01-24 08:10:59.43	318.58	3.30	-55.5	-73.3	3.8	7.47e-01	0	43	104	192413696	82	28158
2026-01-24 08:11:01.45	318.41	3.18	-55.4	-73.2	3.8	7.44e-01	0	43	104	192413696	82	28023
2026-01-24 08:11:03.47	318.25	3.06	-55.4	-73.2	3.8	7.44e-01	0	43	104	192413696	82	27846
2026-01-24 08:11:05.49	318.08	2.94	-55.3	-73.1	3.8	7.44e-01	0	43	104	192413696	82	27576
2026-01-24 08:11:07.50	317.92	2.82	-55.3	-73.1	3.8	7.44e-01	0	43	104	192413696	82	27596
2026-01-24 08:11:09.52	317.76	2.70	-55.3	-73.1	3.8	7.46e-01	0	43	104	192413696	82	27419
2026-01-24 08:11:11.53	317.61	2.58	-55.5	-73.4	3.8	7.46e-01	0	43	104	192413696	82	28380
2026-01-24 08:11:13.55	317.45	2.47	-55.4	-73.2	3.8	7.45e-01	0	43	104	192413696	82	27773
2026-01-24 08:11:15.57	317.30	2.35	-55.3	-73.1	3.8	7.49e-01	0	43	104	192413696	82	27670
2026-01-24 08:11:17.58	317.14	2.23	-55.2	-73.1	3.8	7.46e-01	0	43	104	192413696	82	27523
2026-01-24 08:11:19.60	316.99	2.11	-55.2	-73.1	3.8	7.44e-01	0	43	104	192413696	82	27441
2026-01-24 08:11:21.62	316.84	2.00	-55.2	-73.0	3.8	7.45e-01	0	43	104	192413696	82	27382
2026-01-24 08:11:23.64	316.69	1.88	-55.3	-73.1	3.8	7.45e-01	0	44	104	192413696	82	27563

#Closed at: 2026-01-24 08:11:24
#Recorded file [192 MB]: D:/lorett/data/31041_260124_110440.dat