passes_logs/2026/01/24/R3.2S_Murmansk/R3.2S_Murmansk__20260124_213327_NOAA_21_JPSS-2_rec.log

#Pass ID: 20260124_213327_NOAA 21 (JPSS-2)
#Satellite: NOAA 21 (JPSS-2)
#Configuration: NOAA-21
#almurnet v.1.7.20251203
#Start time: 2026-01-24 21:33:27

#Version: 2.2.20231116
#Station: R3.2S_Murmansk
#Location: 33.079688 lon 68.888172 lat
#TLE: 1 54234U 22150A   26024.45772595  .00000201  00000+0  11607-3 0  9996
#TLE: 2 54234  98.7508 325.2435 0000728 220.7365 139.3757 14.19538765166156

#Time	Az	El	Level	Level2	SNR	BER	BlckErr	Temp	State	Recorded	gain1	gain2
2026-01-24 21:33:27.48	18.25	1.98	-53.3	-66.0	3.8	1.49e+00	0	41	0	0	77	16254
2026-01-24 21:33:30.49	18.52	2.12	-53.3	-66.1	3.8	1.49e+00	0	41	104	0	77	16319
2026-01-24 21:33:33.52	18.80	2.27	-53.3	-66.1	3.8	1.49e+00	0	41	104	0	77	16323
2026-01-24 21:33:36.54	19.08	2.41	-53.3	-66.0	3.8	1.49e+00	0	41	104	0	77	16311
2026-01-24 21:33:39.56	19.36	2.56	-53.3	-66.1	3.8	1.49e+00	0	41	104	0	77	16325
2026-01-24 21:33:42.59	19.65	2.70	-53.3	-66.0	3.8	1.49e+00	0	42	104	0	77	16254
2026-01-24 21:33:45.61	19.93	2.85	-53.3	-66.0	3.8	1.49e+00	0	42	104	0	77	16259
2026-01-24 21:33:48.64	20.22	2.99	-53.3	-66.0	3.8	1.49e+00	0	42	104	0	77	16289
2026-01-24 21:33:51.66	20.52	3.14	-53.3	-66.1	3.8	1.49e+00	0	42	104	0	77	16326
2026-01-24 21:33:54.69	20.81	3.28	-53.3	-66.1	3.8	1.49e+00	0	42	104	0	77	16348
2026-01-24 21:33:57.71	21.11	3.43	-53.3	-66.0	3.8	1.49e+00	0	42	104	0	77	16306
2026-01-24 21:34:00.74	21.42	3.57	-53.3	-66.1	3.8	1.49e+00	0	42	104	0	77	16334
2026-01-24 21:34:03.76	21.72	3.72	-53.3	-66.0	3.8	1.49e+00	0	42	104	0	77	16300
2026-01-24 21:34:06.78	22.03	3.86	-53.3	-66.0	3.8	1.49e+00	0	42	104	0	77	16284
2026-01-24 21:34:09.81	22.34	4.01	-53.3	-66.0	3.8	1.49e+00	0	42	104	0	77	16314
2026-01-24 21:34:12.83	22.65	4.16	-53.3	-66.0	3.8	1.49e+00	0	42	104	0	77	16298
2026-01-24 21:34:15.86	22.97	4.30	-53.3	-66.0	3.8	1.49e+00	0	42	104	0	77	16300
2026-01-24 21:34:18.88	23.29	4.45	-53.3	-66.0	3.8	1.49e+00	0	42	104	0	77	16295
2026-01-24 21:34:21.90	23.61	4.59	-53.3	-66.1	3.8	1.49e+00	0	42	104	0	77	16365
2026-01-24 21:34:24.92	23.93	4.74	-53.3	-66.0	3.8	1.49e+00	0	42	104	0	77	16292
2026-01-24 21:34:27.94	24.26	4.89	-53.3	-66.0	3.8	1.49e+00	0	42	104	0	77	16277
2026-01-24 21:34:30.97	24.60	5.03	-53.3	-66.0	3.8	1.49e+00	0	42	104	0	77	16271
2026-01-24 21:34:33.99	24.93	5.18	-53.3	-66.0	3.8	1.49e+00	0	42	104	0	77	16302
2026-01-24 21:34:37.02	25.27	5.33	-53.3	-66.1	3.8	1.49e+00	0	42	104	0	77	16330
2026-01-24 21:34:40.04	25.61	5.47	-53.3	-66.1	3.8	1.49e+00	0	42	104	0	77	16328
2026-01-24 21:34:43.06	25.95	5.62	-53.3	-66.1	3.8	1.49e+00	0	43	104	0	77	16319
2026-01-24 21:34:46.09	26.30	5.77	-53.3	-66.0	3.8	1.49e+00	0	42	104	0	77	16293
2026-01-24 21:34:49.11	26.65	5.91	-53.3	-66.1	3.8	1.49e+00	0	42	104	0	77	16322
2026-01-24 21:34:52.14	27.01	6.06	-53.3	-66.0	3.8	1.49e+00	0	43	104	0	77	16288
2026-01-24 21:34:55.16	27.37	6.21	-53.3	-66.0	3.8	1.49e+00	0	43	104	0	77	16280
2026-01-24 21:34:58.18	27.73	6.35	-53.3	-66.0	3.8	1.49e+00	0	43	104	0	77	16261
2026-01-24 21:35:01.20	28.09	6.50	-53.3	-66.0	3.8	1.49e+00	0	43	104	0	77	16283
2026-01-24 21:35:04.22	28.46	6.64	-53.3	-66.0	3.8	1.49e+00	0	43	104	0	77	16282
2026-01-24 21:35:07.24	28.83	6.79	-53.3	-66.0	3.8	1.49e+00	0	43	104	0	77	16261
2026-01-24 21:35:10.27	29.21	6.94	-53.3	-66.0	3.8	1.49e+00	0	43	104	0	77	16251
2026-01-24 21:35:13.29	29.59	7.08	-53.3	-66.0	3.8	1.49e+00	0	43	104	0	77	16286
2026-01-24 21:35:16.31	29.97	7.23	-53.3	-66.1	3.8	1.49e+00	0	43	104	0	77	16319
2026-01-24 21:35:19.34	30.36	7.37	-53.3	-66.0	3.8	1.49e+00	0	43	104	0	77	16275
2026-01-24 21:35:22.36	30.75	7.52	-53.3	-66.0	3.8	1.49e+00	0	43	104	0	77	16272
2026-01-24 21:35:25.39	31.14	7.66	-53.3	-66.0	3.8	1.49e+00	0	43	104	0	77	16282
2026-01-24 21:35:28.41	31.54	7.80	-53.3	-66.0	3.8	1.49e+00	0	43	104	0	77	16274
2026-01-24 21:35:31.43	31.94	7.95	-53.3	-66.0	3.8	1.49e+00	0	43	104	0	77	16308
2026-01-24 21:35:34.46	32.35	8.09	-53.3	-66.0	3.8	1.49e+00	0	43	104	0	77	16303
2026-01-24 21:35:37.48	32.76	8.23	-53.3	-66.0	3.8	1.49e+00	0	43	104	0	77	16300
2026-01-24 21:35:40.50	33.17	8.38	-53.3	-66.0	3.8	1.49e+00	0	43	104	0	77	16255
2026-01-24 21:35:43.53	33.59	8.52	-53.3	-66.0	3.8	1.49e+00	0	43	104	0	77	16241
2026-01-24 21:35:46.55	34.01	8.66	-53.3	-66.0	3.8	1.49e+00	0	43	104	0	77	16283
2026-01-24 21:35:49.58	34.44	8.80	-53.3	-66.0	3.8	1.49e+00	0	43	104	0	77	16266
2026-01-24 21:35:52.60	34.87	8.94	-53.3	-66.0	3.8	1.49e+00	0	43	104	0	77	16271
2026-01-24 21:35:55.62	35.30	9.08	-53.3	-66.0	3.8	1.49e+00	0	43	104	0	77	16267
2026-01-24 21:35:58.64	35.73	9.22	-53.3	-66.0	3.8	1.49e+00	0	43	104	0	77	16230
2026-01-24 21:36:01.67	36.18	9.36	-53.3	-66.0	3.8	1.49e+00	0	43	104	0	77	16301
2026-01-24 21:36:04.69	36.62	9.50	-53.3	-66.0	3.8	1.49e+00	0	43	104	0	77	16264
2026-01-24 21:36:07.71	37.07	9.63	-53.3	-66.0	3.8	1.49e+00	0	43	104	0	77	16299
2026-01-24 21:36:10.74	37.52	9.77	-53.3	-66.0	3.8	1.49e+00	0	43	104	0	77	16247
2026-01-24 21:36:13.76	37.98	9.91	-53.3	-66.0	3.8	1.49e+00	0	43	104	0	77	16245
2026-01-24 21:36:16.79	38.44	10.04	-53.3	-66.0	3.8	1.49e+00	0	43	104	0	77	16277
2026-01-24 21:36:19.81	38.91	10.18	-53.3	-66.0	3.8	1.49e+00	0	43	104	0	77	16295
2026-01-24 21:36:22.83	39.38	10.31	-53.3	-66.0	3.8	1.49e+00	0	43	104	0	77	16292
2026-01-24 21:36:25.86	39.85	10.44	-53.3	-66.0	3.8	1.49e+00	0	43	104	0	77	16269
2026-01-24 21:36:28.88	40.33	10.57	-53.3	-66.0	3.8	1.49e+00	0	43	104	0	77	16284
2026-01-24 21:36:31.91	40.81	10.70	-53.3	-66.0	3.8	1.49e+00	0	43	104	0	77	16238
2026-01-24 21:36:34.93	41.30	10.83	-53.3	-66.1	3.8	1.49e+00	0	43	104	0	77	16321
2026-01-24 21:36:37.95	41.79	10.96	-53.3	-66.0	3.8	1.49e+00	0	43	104	0	77	16295
2026-01-24 21:36:40.98	42.28	11.08	-53.3	-66.0	3.8	1.49e+00	0	43	104	0	77	16276
2026-01-24 21:36:44.00	42.78	11.21	-53.3	-66.0	3.8	1.49e+00	0	43	104	0	77	16284
2026-01-24 21:36:47.03	43.29	11.33	-53.3	-66.0	3.8	1.49e+00	0	43	104	0	77	16291
2026-01-24 21:36:50.05	43.79	11.46	-53.3	-66.0	3.8	1.49e+00	0	43	104	0	77	16256
2026-01-24 21:36:53.07	44.30	11.58	-53.3	-66.0	3.8	1.49e+00	0	43	104	0	77	16294
2026-01-24 21:36:56.10	44.82	11.70	-53.3	-66.0	3.8	1.49e+00	0	43	104	0	77	16241
2026-01-24 21:36:59.12	45.34	11.81	-53.3	-66.0	3.8	1.49e+00	0	43	104	0	77	16261
2026-01-24 21:37:02.14	45.86	11.93	-53.3	-66.1	3.8	1.49e+00	0	43	104	0	77	16330
2026-01-24 21:37:05.17	46.39	12.05	-53.3	-66.0	3.8	1.49e+00	0	43	104	0	77	16302
2026-01-24 21:37:08.19	46.92	12.16	-53.3	-66.0	3.8	1.49e+00	0	43	104	0	77	16261
2026-01-24 21:37:11.21	47.46	12.27	-53.3	-66.0	3.8	1.49e+00	0	43	104	0	77	16270
2026-01-24 21:37:14.24	48.00	12.38	-53.3	-66.0	3.8	1.49e+00	0	43	104	0	77	16268
2026-01-24 21:37:17.26	48.54	12.49	-53.3	-66.0	3.8	1.49e+00	0	43	104	0	77	16262
2026-01-24 21:37:20.28	49.09	12.60	-53.3	-66.0	3.8	1.49e+00	0	43	104	0	77	16254
2026-01-24 21:37:23.31	49.64	12.70	-53.3	-66.0	3.8	1.49e+00	0	43	104	0	77	16244
2026-01-24 21:37:26.33	50.19	12.80	-53.3	-66.0	3.8	1.49e+00	0	43	104	0	77	16304
2026-01-24 21:37:29.36	50.75	12.90	-53.3	-66.0	3.8	1.49e+00	0	43	104	0	77	16304
2026-01-24 21:37:32.38	51.31	13.00	-53.3	-66.1	3.8	1.49e+00	0	43	104	0	77	16329
2026-01-24 21:37:35.40	51.88	13.10	-53.3	-66.0	3.8	1.49e+00	0	43	104	0	77	16304
2026-01-24 21:37:38.43	52.45	13.19	-53.3	-66.0	3.8	1.49e+00	0	43	104	0	77	16255
2026-01-24 21:37:41.45	53.02	13.28	-53.3	-66.0	3.8	1.49e+00	0	43	104	0	77	16301
2026-01-24 21:37:44.48	53.60	13.37	-53.3	-66.1	3.8	1.49e+00	0	43	104	0	77	16334
2026-01-24 21:37:47.50	54.18	13.46	-53.3	-66.0	3.8	1.49e+00	0	43	104	0	77	16262
2026-01-24 21:37:50.53	54.76	13.55	-53.3	-66.0	3.8	1.49e+00	0	43	104	0	77	16305
2026-01-24 21:37:53.55	55.35	13.63	-53.3	-66.0	3.8	1.49e+00	0	43	104	0	77	16263
2026-01-24 21:37:56.58	55.94	13.71	-53.3	-66.0	3.8	1.49e+00	0	43	104	0	77	16306
2026-01-24 21:37:59.59	56.53	13.79	-53.3	-66.1	3.8	1.49e+00	0	43	104	0	77	16323
2026-01-24 21:38:02.62	57.12	13.86	-53.3	-66.0	3.8	1.49e+00	0	43	104	0	77	16304
2026-01-24 21:38:05.64	57.72	13.93	-53.3	-66.0	3.8	1.49e+00	0	43	104	0	77	16288
2026-01-24 21:38:08.67	58.32	14.00	-53.3	-66.0	3.8	1.49e+00	0	43	104	0	77	16297
2026-01-24 21:38:11.69	58.93	14.07	-53.3	-66.1	3.8	1.49e+00	0	43	104	0	77	16317
2026-01-24 21:38:14.71	59.53	14.13	-53.3	-66.0	3.8	1.49e+00	0	43	104	0	77	16267
2026-01-24 21:38:17.74	60.14	14.20	-53.3	-66.1	3.8	1.49e+00	0	43	104	0	77	16322
2026-01-24 21:38:20.76	60.75	14.25	-53.3	-66.1	3.8	1.49e+00	0	43	104	0	77	16326
2026-01-24 21:38:23.78	61.37	14.31	-53.3	-66.0	3.8	1.49e+00	0	43	104	0	77	16296
2026-01-24 21:38:26.81	61.98	14.36	-53.3	-66.0	3.8	1.49e+00	0	43	104	0	77	16291
2026-01-24 21:38:29.84	62.60	14.41	-53.3	-66.0	3.8	1.49e+00	0	43	104	0	77	16272
2026-01-24 21:38:32.86	63.22	14.46	-53.3	-66.1	3.8	1.49e+00	0	43	104	0	77	16328
2026-01-24 21:38:35.88	63.84	14.50	-53.3	-66.1	3.8	1.49e+00	0	43	104	0	77	16319
2026-01-24 21:38:38.90	64.47	14.54	-53.3	-66.0	3.8	1.49e+00	0	43	104	0	77	16291
2026-01-24 21:38:41.93	65.09	14.58	-53.3	-66.1	3.8	1.49e+00	0	43	104	0	77	16330
2026-01-24 21:38:44.95	65.72	14.62	-53.3	-66.0	3.8	1.49e+00	0	43	104	0	77	16275
2026-01-24 21:38:47.97	66.35	14.65	-53.3	-66.1	3.8	1.49e+00	0	43	104	0	77	16326
2026-01-24 21:38:51.00	66.98	14.68	-53.3	-66.0	3.8	1.49e+00	0	43	104	0	77	16257
2026-01-24 21:38:54.02	67.61	14.70	-53.3	-66.0	3.8	1.49e+00	0	43	104	0	77	16302
2026-01-24 21:38:57.05	68.24	14.72	-53.3	-66.0	3.8	1.49e+00	0	43	104	0	77	16287
2026-01-24 21:39:00.07	68.87	14.74	-53.3	-66.1	3.8	1.49e+00	0	43	104	0	77	16381
2026-01-24 21:39:03.09	69.51	14.76	-53.3	-66.0	3.8	1.49e+00	0	43	104	0	77	16257
2026-01-24 21:39:06.12	70.14	14.77	-53.3	-66.0	3.8	1.49e+00	0	43	104	0	77	16286
2026-01-24 21:39:09.14	70.77	14.78	-53.3	-66.1	3.8	1.49e+00	0	43	104	0	77	16338
2026-01-24 21:39:12.16	71.41	14.78	-53.3	-66.0	3.8	1.49e+00	0	43	104	0	77	16312
2026-01-24 21:39:15.19	72.04	14.79	-53.3	-66.0	3.8	1.49e+00	0	43	104	0	77	16293
2026-01-24 21:39:18.21	72.68	14.79	-53.3	-66.0	3.8	1.49e+00	0	43	104	0	77	16306
2026-01-24 21:39:21.23	73.31	14.78	-53.3	-66.1	3.8	1.49e+00	0	43	104	0	77	16323
2026-01-24 21:39:24.26	73.95	14.77	-53.3	-66.0	3.8	1.49e+00	0	43	104	0	77	16293
2026-01-24 21:39:27.28	74.58	14.76	-53.3	-66.1	3.8	1.49e+00	0	43	104	0	77	16323
2026-01-24 21:39:30.31	75.22	14.75	-53.3	-66.1	3.8	1.49e+00	0	43	104	0	77	16349
2026-01-24 21:39:33.33	75.85	14.73	-53.3	-66.0	3.8	1.49e+00	0	44	104	0	77	16276
2026-01-24 21:39:36.35	76.48	14.71	-53.3	-66.0	3.8	1.49e+00	0	44	104	0	77	16277
2026-01-24 21:39:39.38	77.12	14.69	-53.3	-66.0	3.8	1.49e+00	0	44	104	0	77	16309
2026-01-24 21:39:42.40	77.75	14.66	-53.3	-66.0	3.8	1.49e+00	0	43	104	0	77	16274
2026-01-24 21:39:45.43	78.38	14.63	-53.3	-66.0	3.8	1.49e+00	0	43	104	0	77	16268
2026-01-24 21:39:48.45	79.00	14.60	-53.3	-66.1	3.8	1.49e+00	0	44	104	0	77	16335
2026-01-24 21:39:51.47	79.63	14.56	-53.3	-66.1	3.8	1.49e+00	0	43	104	0	77	16324
2026-01-24 21:39:54.50	80.26	14.52	-53.3	-66.1	3.8	1.49e+00	0	44	104	0	77	16336
2026-01-24 21:39:57.52	80.88	14.48	-53.3	-66.0	3.8	1.49e+00	0	43	104	0	77	16291
2026-01-24 21:40:00.54	81.50	14.44	-53.3	-66.1	3.8	1.49e+00	0	44	104	0	77	16331
2026-01-24 21:40:03.57	82.12	14.39	-53.3	-66.1	3.8	1.49e+00	0	43	104	0	77	16316
2026-01-24 21:40:06.59	82.74	14.34	-53.3	-66.0	3.8	1.49e+00	0	44	104	0	77	16262
2026-01-24 21:40:09.62	83.36	14.28	-53.3	-66.0	3.8	1.49e+00	0	44	104	0	77	16305
2026-01-24 21:40:12.64	83.97	14.23	-53.3	-66.0	3.8	1.49e+00	0	43	104	0	77	16297
2026-01-24 21:40:15.66	84.58	14.17	-53.3	-66.1	3.8	1.49e+00	0	44	104	0	77	16318
2026-01-24 21:40:18.68	85.19	14.10	-53.3	-66.1	3.8	1.49e+00	0	44	104	0	77	16315
2026-01-24 21:40:21.71	85.80	14.04	-53.3	-66.0	3.8	1.49e+00	0	44	104	0	77	16274
2026-01-24 21:40:24.73	86.40	13.97	-53.3	-66.0	3.8	1.49e+00	0	43	104	0	77	16311
2026-01-24 21:40:27.76	87.00	13.90	-53.3	-66.1	3.8	1.49e+00	0	43	104	0	77	16371
2026-01-24 21:40:30.78	87.60	13.82	-53.3	-66.1	3.8	1.49e+00	0	44	104	0	77	16358
2026-01-24 21:40:33.80	88.20	13.75	-53.3	-66.1	3.8	1.49e+00	0	44	104	0	77	16341
2026-01-24 21:40:36.83	88.79	13.67	-53.3	-66.0	3.8	1.49e+00	0	43	104	0	77	16271
2026-01-24 21:40:39.85	89.38	13.59	-53.3	-66.0	3.8	1.49e+00	0	43	104	0	77	16292
2026-01-24 21:40:42.88	89.97	13.50	-53.3	-66.1	3.8	1.49e+00	0	43	104	0	77	16358
2026-01-24 21:40:45.90	90.55	13.42	-53.3	-66.1	3.8	1.49e+00	0	43	104	0	77	16317
2026-01-24 21:40:48.92	91.13	13.33	-53.3	-66.1	3.8	1.49e+00	0	43	104	0	77	16336
2026-01-24 21:40:51.95	91.71	13.24	-53.3	-66.1	3.8	1.49e+00	0	43	104	0	77	16387
2026-01-24 21:40:54.97	92.28	13.14	-53.3	-66.1	3.8	1.49e+00	0	43	104	0	77	16372
2026-01-24 21:40:57.99	92.85	13.05	-53.3	-66.1	3.8	1.49e+00	0	43	104	0	77	16342
2026-01-24 21:41:01.02	93.41	12.95	-53.3	-66.1	3.8	1.49e+00	0	43	104	0	77	16330
2026-01-24 21:41:04.05	93.98	12.85	-53.3	-66.0	3.8	1.49e+00	0	43	104	0	77	16313
2026-01-24 21:41:07.07	94.53	12.75	-53.3	-66.1	3.8	1.49e+00	0	43	104	0	77	16319
2026-01-24 21:41:10.10	95.09	12.64	-53.3	-66.1	3.8	1.49e+00	0	44	104	0	77	16361
2026-01-24 21:41:13.12	95.64	12.54	-53.3	-66.1	3.8	1.49e+00	0	43	104	0	77	16374
2026-01-24 21:41:16.14	96.19	12.43	-53.3	-66.1	3.8	1.49e+00	0	43	104	0	77	16355
2026-01-24 21:41:19.17	96.73	12.32	-53.3	-66.1	3.8	1.49e+00	0	43	104	0	77	16352
2026-01-24 21:41:22.19	97.27	12.21	-53.3	-66.1	3.8	1.49e+00	0	43	104	0	77	16355
2026-01-24 21:41:25.22	97.81	12.09	-53.3	-66.1	3.8	1.49e+00	0	43	104	0	77	16326
2026-01-24 21:41:28.24	98.34	11.98	-53.3	-66.1	3.8	1.49e+00	0	44	104	0	77	16366
2026-01-24 21:41:31.26	98.86	11.86	-53.3	-66.1	3.8	1.49e+00	0	44	104	0	77	16395
2026-01-24 21:41:34.28	99.39	11.74	-53.3	-66.1	3.8	1.49e+00	0	43	104	0	77	16355
2026-01-24 21:41:37.31	99.91	11.62	-53.3	-66.1	3.8	1.49e+00	0	43	104	0	77	16318
2026-01-24 21:41:40.33	100.42	11.50	-53.3	-66.1	3.8	1.49e+00	0	43	104	0	77	16338
2026-01-24 21:41:43.36	100.93	11.38	-53.3	-66.1	3.8	1.49e+00	0	43	104	0	77	16383
2026-01-24 21:41:46.38	101.44	11.26	-53.3	-66.1	3.8	1.49e+00	0	43	104	0	77	16369
2026-01-24 21:41:49.40	101.94	11.13	-53.3	-66.1	3.8	1.49e+00	0	43	104	0	77	16329
2026-01-24 21:41:52.42	102.44	11.00	-53.3	-66.1	3.8	1.49e+00	0	43	104	0	77	16321
2026-01-24 21:41:55.45	102.94	10.88	-53.3	-66.1	3.8	1.49e+00	0	43	104	0	77	16364
2026-01-24 21:41:58.47	103.43	10.75	-53.3	-66.0	3.8	1.49e+00	0	43	104	0	77	16274
2026-01-24 21:42:01.50	103.91	10.62	-53.3	-66.1	3.8	1.49e+00	0	43	104	0	77	16328
2026-01-24 21:42:04.52	104.39	10.49	-53.3	-66.1	3.8	1.49e+00	0	43	104	0	77	16368
2026-01-24 21:42:07.54	104.87	10.35	-53.3	-66.1	3.8	1.49e+00	0	43	104	0	77	16331
2026-01-24 21:42:10.57	105.35	10.22	-53.3	-66.1	3.8	1.49e+00	0	43	104	0	77	16338
2026-01-24 21:42:13.59	105.82	10.08	-53.3	-66.1	3.8	1.49e+00	0	43	104	0	77	16361
2026-01-24 21:42:16.62	106.28	9.95	-53.3	-66.1	3.8	1.49e+00	0	43	104	0	77	16319
2026-01-24 21:42:19.64	106.74	9.81	-53.3	-66.1	3.8	1.49e+00	0	43	104	0	77	16359
2026-01-24 21:42:22.66	107.20	9.68	-53.3	-66.1	3.8	1.49e+00	0	43	104	0	77	16355
2026-01-24 21:42:25.68	107.65	9.54	-53.3	-66.1	3.8	1.49e+00	0	43	104	0	77	16404
2026-01-24 21:42:28.71	108.10	9.40	-53.3	-66.1	3.8	1.49e+00	0	43	104	0	77	16356
2026-01-24 21:42:31.73	108.55	9.26	-53.3	-66.1	3.8	1.49e+00	0	43	104	0	77	16358
2026-01-24 21:42:34.76	108.99	9.12	-53.3	-66.0	3.8	1.49e+00	0	43	104	0	77	16312
2026-01-24 21:42:37.78	109.42	8.98	-53.3	-66.0	3.8	1.49e+00	0	43	104	0	77	16293
2026-01-24 21:42:40.80	109.85	8.84	-53.3	-66.0	3.8	1.49e+00	0	43	104	0	77	16302
2026-01-24 21:42:43.82	110.28	8.70	-53.3	-66.1	3.8	1.49e+00	0	43	104	0	77	16339
2026-01-24 21:42:46.85	110.71	8.55	-53.3	-66.1	3.8	1.49e+00	0	43	104	0	77	16385
2026-01-24 21:42:49.87	111.13	8.41	-53.3	-66.1	3.8	1.49e+00	0	43	104	0	77	16338
2026-01-24 21:42:52.89	111.54	8.27	-53.3	-66.1	3.8	1.49e+00	0	43	104	0	77	16387
2026-01-24 21:42:55.92	111.96	8.12	-53.3	-66.1	3.8	1.49e+00	0	43	104	0	77	16386
2026-01-24 21:42:58.94	112.37	7.98	-53.3	-66.0	3.8	1.49e+00	0	43	104	0	77	16293
2026-01-24 21:43:01.96	112.77	7.83	-53.3	-66.1	3.8	1.49e+00	0	43	104	0	77	16331
2026-01-24 21:43:04.99	113.17	7.69	-53.3	-66.1	3.8	1.49e+00	0	43	104	0	77	16331
2026-01-24 21:43:08.01	113.57	7.54	-53.3	-66.1	3.8	1.49e+00	0	43	104	0	77	16340
2026-01-24 21:43:11.03	113.96	7.40	-53.3	-66.1	3.8	1.49e+00	0	43	104	0	77	16371
2026-01-24 21:43:14.06	114.35	7.25	-53.3	-66.1	3.8	1.49e+00	0	43	104	0	77	16389
2026-01-24 21:43:17.08	114.74	7.11	-53.3	-66.0	3.8	1.49e+00	0	43	104	0	77	16293
2026-01-24 21:43:20.10	115.12	6.96	-53.3	-66.1	3.8	1.49e+00	0	43	104	0	77	16378
2026-01-24 21:43:23.12	115.50	6.81	-53.3	-66.1	3.8	1.49e+00	0	43	104	0	77	16372
2026-01-24 21:43:26.15	115.88	6.66	-53.3	-66.1	3.8	1.49e+00	0	43	104	0	77	16382
2026-01-24 21:43:29.17	116.25	6.52	-53.3	-66.1	3.8	1.49e+00	0	43	104	0	77	16322
2026-01-24 21:43:32.20	116.61	6.37	-53.3	-66.0	3.8	1.49e+00	0	43	104	0	77	16313
2026-01-24 21:43:35.22	116.98	6.22	-53.3	-66.1	3.8	1.49e+00	0	43	104	0	77	16343
2026-01-24 21:43:38.24	117.34	6.08	-53.3	-66.1	3.8	1.49e+00	0	43	104	0	77	16354
2026-01-24 21:43:41.26	117.70	5.93	-53.3	-66.1	3.8	1.49e+00	0	43	104	0	77	16325
2026-01-24 21:43:44.29	118.05	5.78	-53.3	-66.1	3.8	1.49e+00	0	43	104	0	77	16334
2026-01-24 21:43:47.31	118.40	5.63	-53.3	-66.1	3.8	1.49e+00	0	43	104	0	77	16352
2026-01-24 21:43:50.33	118.75	5.48	-53.3	-66.0	3.8	1.49e+00	0	43	104	0	77	16309
2026-01-24 21:43:53.36	119.09	5.34	-53.3	-66.0	3.8	1.49e+00	0	43	104	0	77	16305
2026-01-24 21:43:56.38	119.43	5.19	-53.3	-66.1	3.8	1.49e+00	0	43	104	0	77	16337
2026-01-24 21:43:59.40	119.77	5.04	-53.3	-66.1	3.8	1.49e+00	0	43	104	0	77	16339
2026-01-24 21:44:02.43	120.10	4.89	-53.3	-66.1	3.8	1.49e+00	0	43	104	0	77	16363
2026-01-24 21:44:05.45	120.43	4.74	-53.3	-66.1	3.8	1.49e+00	0	43	104	0	77	16360
2026-01-24 21:44:08.47	120.76	4.60	-53.3	-66.0	3.8	1.49e+00	0	43	104	0	77	16286
2026-01-24 21:44:11.50	121.08	4.45	-53.3	-66.1	3.8	1.49e+00	0	43	104	0	77	16339
2026-01-24 21:44:14.52	121.41	4.30	-53.3	-66.1	3.8	1.49e+00	0	43	104	0	77	16349
2026-01-24 21:44:17.54	121.72	4.15	-53.3	-66.0	3.8	1.49e+00	0	43	104	0	77	16314
2026-01-24 21:44:20.57	122.04	4.01	-53.3	-66.0	3.8	1.49e+00	0	43	104	0	77	16286
2026-01-24 21:44:23.59	122.35	3.86	-53.3	-66.0	3.8	1.49e+00	0	43	104	0	77	16311
2026-01-24 21:44:26.62	122.66	3.71	-53.3	-66.1	3.8	1.49e+00	0	43	104	0	77	16344
2026-01-24 21:44:29.64	122.97	3.57	-53.3	-66.1	3.8	1.49e+00	0	43	104	0	77	16332
2026-01-24 21:44:32.66	123.27	3.42	-53.3	-66.1	3.8	1.49e+00	0	43	104	0	77	16354
2026-01-24 21:44:35.69	123.57	3.27	-53.3	-66.0	3.8	1.49e+00	0	43	104	0	77	16291
2026-01-24 21:44:38.71	123.87	3.12	-53.3	-66.1	3.8	1.49e+00	0	43	104	0	77	16329
2026-01-24 21:44:41.73	124.16	2.98	-53.3	-66.1	3.8	1.49e+00	0	43	104	0	77	16359
2026-01-24 21:44:44.76	124.45	2.83	-53.3	-66.0	3.8	1.49e+00	0	43	104	0	77	16278
2026-01-24 21:44:47.78	124.74	2.69	-53.3	-66.0	3.8	1.49e+00	0	43	104	0	77	16304
2026-01-24 21:44:50.81	125.03	2.54	-53.3	-66.1	3.8	1.49e+00	0	43	104	0	77	16329
2026-01-24 21:44:53.83	125.31	2.39	-53.3	-66.1	3.8	1.49e+00	0	43	104	0	77	16318
2026-01-24 21:44:56.85	125.59	2.25	-53.3	-66.1	3.8	1.49e+00	0	43	104	0	77	16325
2026-01-24 21:44:59.87	125.87	2.10	-53.3	-66.1	3.8	1.49e+00	0	43	104	0	77	16331

#Closed at: 2026-01-24 21:45:02
#Recorded file [0 MB]: D:/lorett/data/31041_260125_003327.dat