passes_logs/2026/01/24/R3.2S_Murmansk/R3.2S_Murmansk__20260124_214731_KANOPUS-V_5_rec.log

#Pass ID: 20260124_214731_KANOPUS-V 5
#Satellite: KANOPUS-V 5
#Configuration: KANOPUS-V_8320
#almurnet v.1.7.20251203
#Start time: 2026-01-24 21:47:31

#Version: 2.2.20231116
#Station: R3.2S_Murmansk
#Location: 33.079688 lon 68.888172 lat
#TLE: 1 43876U 18111A   26024.56308124  .00005576  00000+0  23637-3 0  9999
#TLE: 2 43876  97.3675 292.9046 0001836  88.4349 271.7099 15.23529556392926

#Time	Az	El	Level	Level2	SNR	BER	BlckErr	Temp	State	Recorded	gain1	gain2
2026-01-24 21:47:31.77	20.83	1.99	-54.1	-62.9	3.8	7.45e-01	0	42	0	0	78	10774
2026-01-24 21:47:34.79	20.91	2.20	-54.1	-63.0	3.8	7.46e-01	0	42	104	0	79	10181
2026-01-24 21:47:37.82	21.00	2.41	-54.1	-62.9	3.8	7.45e-01	0	42	104	0	79	10160
2026-01-24 21:47:40.84	21.08	2.63	-54.1	-63.0	3.8	7.44e-01	0	42	104	0	79	10193
2026-01-24 21:47:43.87	21.17	2.84	-54.1	-63.0	3.8	7.46e-01	0	42	104	0	79	10206
2026-01-24 21:47:46.89	21.26	3.06	-54.1	-62.9	3.8	7.45e-01	0	42	104	0	79	10162
2026-01-24 21:47:49.92	21.35	3.28	-54.1	-63.0	3.8	7.45e-01	0	42	104	0	79	10177
2026-01-24 21:47:52.94	21.44	3.50	-54.1	-63.0	3.8	7.45e-01	0	43	104	0	79	10182
2026-01-24 21:47:55.97	21.53	3.73	-54.1	-63.0	3.8	7.44e-01	0	42	104	0	79	10181
2026-01-24 21:47:58.99	21.63	3.95	-54.1	-63.0	3.8	7.45e-01	0	43	104	0	79	10182
2026-01-24 21:48:02.02	21.72	4.18	-54.1	-62.9	3.8	7.45e-01	0	42	104	0	79	10161
2026-01-24 21:48:05.04	21.82	4.42	-54.1	-62.9	3.8	7.45e-01	0	43	104	0	79	10173
2026-01-24 21:48:08.06	21.92	4.65	-54.1	-63.0	3.8	7.45e-01	0	43	104	0	79	10202
2026-01-24 21:48:11.09	22.02	4.89	-54.1	-62.9	3.8	7.45e-01	0	43	104	0	79	10167
2026-01-24 21:48:14.11	22.13	5.13	-54.1	-63.0	3.8	7.46e-01	0	43	104	0	79	10193
2026-01-24 21:48:17.13	22.23	5.37	-54.1	-63.0	3.8	7.46e-01	0	43	104	0	79	10183
2026-01-24 21:48:20.16	22.34	5.62	-54.1	-62.9	3.8	7.47e-01	0	43	104	0	79	10174
2026-01-24 21:48:23.18	22.45	5.87	-54.1	-63.0	3.8	7.45e-01	0	43	104	0	79	10194
2026-01-24 21:48:26.21	22.56	6.12	-54.1	-63.0	3.8	7.45e-01	0	43	104	0	79	10177
2026-01-24 21:48:29.23	22.67	6.38	-54.1	-62.9	3.8	7.46e-01	0	43	104	0	79	10149
2026-01-24 21:48:32.25	22.79	6.64	-54.1	-62.9	3.8	7.46e-01	0	43	104	0	79	10159
2026-01-24 21:48:35.28	22.90	6.90	-54.1	-63.0	3.8	7.45e-01	0	43	104	0	79	10195
2026-01-24 21:48:38.30	23.02	7.17	-54.1	-62.9	3.8	7.46e-01	0	43	104	0	79	10167
2026-01-24 21:48:41.32	23.15	7.44	-54.1	-63.0	3.8	7.45e-01	0	43	104	0	79	10188
2026-01-24 21:48:44.35	23.27	7.71	-54.1	-63.0	3.8	7.47e-01	0	43	104	0	79	10187
2026-01-24 21:48:47.37	23.40	7.99	-54.1	-63.0	3.8	7.46e-01	0	43	104	0	79	10180
2026-01-24 21:48:50.39	23.53	8.27	-54.1	-62.9	3.8	7.45e-01	0	43	104	0	79	10170
2026-01-24 21:48:53.41	23.66	8.56	-54.1	-62.9	3.8	7.44e-01	0	43	104	0	79	10152
2026-01-24 21:48:56.43	23.80	8.85	-54.1	-63.0	3.8	7.44e-01	0	43	104	0	79	10206
2026-01-24 21:48:59.46	23.94	9.15	-54.1	-63.0	3.8	7.47e-01	0	43	104	0	79	10185
2026-01-24 21:49:02.48	24.08	9.45	-54.1	-63.0	3.8	7.44e-01	0	43	104	0	79	10181
2026-01-24 21:49:05.50	24.23	9.75	-54.1	-62.9	3.8	7.45e-01	0	43	104	0	79	10171
2026-01-24 21:49:08.53	24.38	10.06	-54.1	-62.9	3.8	7.45e-01	0	43	104	0	79	10164
2026-01-24 21:49:11.55	24.53	10.38	-54.1	-63.0	3.8	7.45e-01	0	43	104	0	79	10199
2026-01-24 21:49:14.58	24.69	10.70	-54.1	-63.0	3.8	7.46e-01	0	43	104	0	79	10203
2026-01-24 21:49:17.60	24.85	11.02	-54.1	-63.0	3.8	7.44e-01	0	43	104	0	79	10210
2026-01-24 21:49:20.62	25.02	11.36	-54.1	-63.0	3.8	7.46e-01	0	43	104	0	79	10190
2026-01-24 21:49:23.64	25.19	11.69	-54.1	-63.0	3.8	7.46e-01	0	43	104	0	79	10190
2026-01-24 21:49:26.67	25.36	12.04	-54.1	-63.0	3.8	7.46e-01	0	43	104	0	79	10216
2026-01-24 21:49:29.69	25.54	12.39	-54.1	-62.9	3.8	7.45e-01	0	43	104	0	79	10168
2026-01-24 21:49:32.71	25.73	12.74	-54.1	-62.9	3.8	7.45e-01	0	43	104	0	79	10175
2026-01-24 21:49:35.74	25.92	13.11	-54.1	-63.0	3.8	7.45e-01	0	43	104	0	79	10189
2026-01-24 21:49:38.76	26.11	13.48	-54.1	-63.0	3.8	7.46e-01	0	43	104	0	79	10199
2026-01-24 21:49:41.79	26.31	13.86	-54.1	-63.0	3.8	7.45e-01	0	43	104	0	79	10196
2026-01-24 21:49:44.81	26.52	14.24	-54.1	-62.9	3.8	7.47e-01	0	43	104	0	79	10170
2026-01-24 21:49:47.83	26.73	14.64	-54.1	-62.9	3.8	7.44e-01	0	43	104	0	79	10163
2026-01-24 21:49:50.86	26.95	15.04	-54.1	-63.0	3.8	7.47e-01	0	43	104	0	79	10180
2026-01-24 21:49:53.88	27.17	15.45	-54.1	-63.0	3.8	7.46e-01	0	43	104	0	79	10202
2026-01-24 21:49:56.90	27.40	15.87	-54.1	-62.9	3.8	7.48e-01	0	43	104	0	79	10167
2026-01-24 21:49:59.93	27.64	16.30	-54.1	-62.9	3.8	7.45e-01	0	43	104	0	79	10170
2026-01-24 21:50:02.95	27.89	16.73	-54.1	-63.0	3.8	7.44e-01	0	43	104	0	79	10193
2026-01-24 21:50:05.97	28.15	17.18	-54.1	-63.0	3.8	7.44e-01	0	43	104	0	79	10191
2026-01-24 21:50:08.99	28.41	17.64	-54.1	-62.9	3.8	7.44e-01	0	44	104	0	79	10160
2026-01-24 21:50:12.01	28.68	18.11	-54.1	-62.9	3.8	7.46e-01	0	43	104	0	79	10127
2026-01-24 21:50:15.04	28.97	18.59	-54.1	-62.9	3.8	7.45e-01	0	44	104	0	79	10173
2026-01-24 21:50:18.06	29.26	19.08	-54.1	-62.9	3.8	7.45e-01	0	43	104	0	79	10170
2026-01-24 21:50:21.09	29.57	19.59	-54.1	-63.0	3.8	7.45e-01	0	43	104	0	79	10188
2026-01-24 21:50:24.11	29.88	20.10	-54.1	-63.0	3.8	7.45e-01	0	43	104	0	79	10184
2026-01-24 21:50:27.14	30.21	20.64	-54.1	-63.0	3.8	7.45e-01	0	44	104	0	79	10180
2026-01-24 21:50:30.16	30.55	21.18	-54.1	-62.9	3.8	7.46e-01	0	43	104	0	79	10148
2026-01-24 21:50:33.19	30.90	21.74	-54.1	-62.9	3.8	7.45e-01	0	43	104	0	79	10158
2026-01-24 21:50:36.22	31.27	22.31	-54.1	-63.0	3.8	7.47e-01	0	43	104	0	79	10210
2026-01-24 21:50:39.24	31.66	22.90	-54.1	-63.0	3.8	7.45e-01	0	43	104	0	79	10198
2026-01-24 21:50:42.26	32.06	23.50	-54.1	-63.0	3.8	7.45e-01	0	44	104	0	79	10184
2026-01-24 21:50:45.28	32.47	24.12	-54.1	-63.0	3.8	7.46e-01	0	44	104	0	79	10211
2026-01-24 21:50:48.31	32.91	24.76	-54.1	-63.0	3.8	7.46e-01	0	43	104	0	79	10184
2026-01-24 21:50:51.33	33.37	25.42	-54.2	-62.9	3.8	7.45e-01	0	43	104	0	79	10174
2026-01-24 21:50:54.36	33.84	26.10	-54.1	-63.0	3.8	7.44e-01	0	44	104	0	79	10191
2026-01-24 21:50:57.38	34.34	26.79	-54.1	-63.0	3.8	7.44e-01	0	43	104	0	79	10197
2026-01-24 21:51:00.40	34.87	27.50	-54.1	-63.0	3.8	7.46e-01	0	43	104	0	79	10202
2026-01-24 21:51:03.42	35.42	28.24	-54.1	-63.0	3.8	7.45e-01	0	44	104	0	79	10186
2026-01-24 21:51:06.45	36.00	29.00	-54.1	-63.0	3.8	7.45e-01	0	43	104	0	79	10217
2026-01-24 21:51:09.47	36.60	29.78	-54.1	-63.0	3.8	7.46e-01	0	44	104	0	79	10201
2026-01-24 21:51:12.49	37.24	30.58	-54.1	-63.0	3.8	7.45e-01	0	43	104	0	79	10181
2026-01-24 21:51:15.52	37.92	31.40	-54.1	-63.0	3.8	7.45e-01	0	43	104	0	79	10224
2026-01-24 21:51:18.54	38.63	32.25	-54.1	-63.0	3.8	7.46e-01	0	44	104	0	79	10189
2026-01-24 21:51:21.56	39.39	33.13	-54.1	-63.0	3.8	7.45e-01	0	43	104	0	79	10225
2026-01-24 21:51:24.59	40.19	34.03	-54.1	-62.9	3.8	7.45e-01	0	44	104	0	79	10160
2026-01-24 21:51:27.61	41.04	34.95	-54.1	-62.9	3.8	7.44e-01	0	44	104	0	79	10166
2026-01-24 21:51:30.63	41.94	35.90	-54.1	-63.0	3.8	7.44e-01	0	43	104	0	79	10195
2026-01-24 21:51:33.65	42.90	36.88	-54.1	-63.0	3.8	7.44e-01	0	44	104	0	79	10213
2026-01-24 21:51:36.68	43.92	37.88	-54.1	-62.9	3.8	7.45e-01	0	44	104	0	79	10175
2026-01-24 21:51:39.70	45.01	38.91	-54.1	-63.0	3.8	7.47e-01	0	43	104	0	79	10176
2026-01-24 21:51:42.73	46.18	39.96	-54.1	-63.0	3.8	7.44e-01	0	44	104	0	79	10176
2026-01-24 21:51:45.75	47.42	41.03	-54.1	-62.9	3.8	7.44e-01	0	44	104	0	79	10168
2026-01-24 21:51:48.78	48.76	42.13	-54.1	-63.0	3.8	7.45e-01	0	43	104	0	79	10214
2026-01-24 21:51:51.80	50.19	43.25	-54.1	-62.9	3.8	7.46e-01	0	43	104	0	79	10162
2026-01-24 21:51:54.82	51.73	44.38	-54.1	-63.0	3.8	7.45e-01	0	43	104	0	79	10180
2026-01-24 21:51:57.85	53.40	45.53	-54.1	-63.0	3.8	7.46e-01	0	44	104	0	79	10195
2026-01-24 21:52:00.87	55.19	46.69	-54.1	-63.0	3.8	7.44e-01	0	43	104	0	79	10176
2026-01-24 21:52:03.89	57.12	47.85	-54.1	-63.0	3.8	7.43e-01	0	43	104	0	79	10222
2026-01-24 21:52:06.92	59.21	49.02	-54.1	-63.0	3.8	7.46e-01	0	44	104	0	79	10201
2026-01-24 21:52:09.94	61.46	50.17	-54.1	-62.9	3.8	7.46e-01	0	43	104	0	79	10162
2026-01-24 21:52:12.97	63.90	51.31	-54.2	-63.0	3.8	7.46e-01	0	44	104	0	79	10219
2026-01-24 21:52:15.99	66.52	52.42	-54.1	-63.0	3.8	7.46e-01	0	43	104	0	79	10190
2026-01-24 21:52:19.01	69.35	53.49	-54.1	-62.9	3.8	7.46e-01	0	43	104	0	79	10148
2026-01-24 21:52:22.04	72.41	54.51	-54.1	-62.9	3.8	7.44e-01	0	44	104	0	79	10173
2026-01-24 21:52:25.06	75.68	55.47	-54.1	-63.0	3.8	7.45e-01	0	44	104	0	79	10221
2026-01-24 21:52:28.08	79.17	56.35	-54.1	-63.0	3.8	7.46e-01	0	43	104	0	79	10190
2026-01-24 21:52:31.10	82.88	57.13	-54.1	-62.9	3.8	7.45e-01	0	43	104	0	79	10155
2026-01-24 21:52:34.13	86.81	57.81	-54.1	-63.0	3.8	7.46e-01	0	44	104	0	79	10197
2026-01-24 21:52:37.15	90.92	58.37	-54.1	-62.9	3.8	7.46e-01	0	44	104	0	79	10161
2026-01-24 21:52:40.18	95.20	58.79	-54.1	-63.0	3.8	7.47e-01	0	43	104	0	79	10207
2026-01-24 21:52:43.20	99.57	59.07	-54.1	-63.0	3.8	7.43e-01	0	44	104	0	79	10206
2026-01-24 21:52:46.22	104.02	59.19	-54.1	-62.9	3.8	7.45e-01	0	43	104	0	79	10131
2026-01-24 21:52:49.25	108.50	59.16	-54.1	-63.0	3.8	7.46e-01	0	43	104	0	79	10181
2026-01-24 21:52:52.27	112.92	58.97	-54.1	-62.9	3.8	7.45e-01	0	44	104	0	79	10172
2026-01-24 21:52:55.30	117.28	58.63	-54.1	-62.9	3.8	7.44e-01	0	44	104	0	79	10166
2026-01-24 21:52:58.32	121.48	58.15	-54.1	-62.9	3.8	7.45e-01	0	43	104	0	79	10165
2026-01-24 21:53:01.34	125.52	57.54	-54.1	-62.9	3.8	7.45e-01	0	43	104	0	79	10175
2026-01-24 21:53:04.37	129.37	56.82	-54.1	-62.9	3.8	7.45e-01	0	43	104	0	79	10159
2026-01-24 21:53:07.39	132.99	55.99	-54.1	-63.0	3.8	7.44e-01	0	43	104	0	79	10177
2026-01-24 21:53:10.42	136.41	55.07	-54.1	-62.9	3.8	7.45e-01	0	44	104	0	79	10165
2026-01-24 21:53:13.44	139.59	54.08	-54.1	-63.0	3.8	7.47e-01	0	44	104	0	79	10176
2026-01-24 21:53:16.46	142.55	53.03	-54.1	-63.0	3.8	7.44e-01	0	43	104	0	79	10201
2026-01-24 21:53:19.49	145.30	51.94	-54.1	-62.9	3.8	7.45e-01	0	43	104	0	79	10168
2026-01-24 21:53:22.51	147.85	50.81	-54.1	-62.9	3.8	7.45e-01	0	43	104	0	79	10155
2026-01-24 21:53:25.53	150.20	49.67	-54.1	-63.0	3.8	7.45e-01	0	44	104	0	79	10208
2026-01-24 21:53:28.56	152.39	48.50	-54.1	-63.0	3.8	7.43e-01	0	43	104	0	79	10176
2026-01-24 21:53:31.58	154.41	47.34	-54.1	-63.0	3.8	7.43e-01	0	44	104	0	79	10209
2026-01-24 21:53:34.61	156.29	46.17	-54.1	-63.0	3.8	7.46e-01	0	43	104	0	79	10184
2026-01-24 21:53:37.63	158.03	45.01	-54.1	-62.9	3.8	7.46e-01	0	44	104	0	79	10157
2026-01-24 21:53:40.66	159.64	43.86	-54.1	-62.9	3.8	7.46e-01	0	43	104	0	79	10152
2026-01-24 21:53:43.68	161.14	42.73	-54.1	-63.0	3.8	7.47e-01	0	44	104	0	79	10176
2026-01-24 21:53:46.71	162.53	41.62	-54.1	-63.0	3.8	7.46e-01	0	44	104	0	79	10185
2026-01-24 21:53:49.73	163.83	40.53	-54.1	-62.9	3.8	7.44e-01	0	43	104	0	79	10175
2026-01-24 21:53:52.75	165.04	39.46	-54.1	-63.0	3.8	7.44e-01	0	44	104	0	79	10217
2026-01-24 21:53:55.78	166.18	38.41	-54.1	-63.0	3.8	7.45e-01	0	43	104	0	79	10186
2026-01-24 21:53:58.80	167.24	37.39	-54.1	-63.0	3.8	7.46e-01	0	43	104	0	79	10208
2026-01-24 21:54:01.83	168.24	36.40	-54.1	-63.0	3.8	7.45e-01	0	43	104	0	79	10202
2026-01-24 21:54:04.85	169.17	35.43	-54.1	-63.0	3.8	7.44e-01	0	43	104	0	79	10177
2026-01-24 21:54:07.88	170.05	34.48	-54.1	-63.0	3.8	7.44e-01	0	43	104	0	79	10180
2026-01-24 21:54:10.90	170.88	33.57	-54.1	-63.0	3.8	7.44e-01	0	43	104	0	79	10178
2026-01-24 21:54:13.93	171.66	32.67	-54.1	-63.0	3.8	7.45e-01	0	44	104	0	79	10181
2026-01-24 21:54:16.95	172.40	31.81	-54.1	-62.9	3.8	7.45e-01	0	43	104	0	79	10172
2026-01-24 21:54:19.98	173.10	30.96	-54.1	-63.0	3.8	7.45e-01	0	43	104	0	79	10204
2026-01-24 21:54:23.00	173.76	30.15	-54.1	-62.9	3.8	7.46e-01	0	44	104	0	79	10159
2026-01-24 21:54:26.03	174.39	29.35	-54.1	-63.0	3.8	7.45e-01	0	43	104	0	79	10183
2026-01-24 21:54:29.05	174.98	28.58	-54.1	-63.0	3.8	7.46e-01	0	44	104	0	79	10199
2026-01-24 21:54:32.07	175.55	27.83	-54.1	-63.0	3.8	7.46e-01	0	44	104	0	79	10186
2026-01-24 21:54:35.10	176.09	27.10	-54.1	-63.0	3.8	7.47e-01	0	43	104	0	79	10200
2026-01-24 21:54:38.12	176.60	26.39	-54.1	-62.9	3.8	7.44e-01	0	43	104	0	79	10165
2026-01-24 21:54:41.15	177.09	25.70	-54.1	-63.0	3.8	7.46e-01	0	43	104	0	79	10188
2026-01-24 21:54:44.17	177.56	25.03	-54.2	-63.0	3.8	7.46e-01	0	43	104	0	79	10213
2026-01-24 21:54:47.20	178.00	24.38	-54.1	-63.0	3.8	7.46e-01	0	43	104	0	79	10178
2026-01-24 21:54:50.22	178.43	23.75	-54.1	-62.9	3.8	7.45e-01	0	44	104	0	79	10151
2026-01-24 21:54:53.24	178.84	23.13	-54.1	-63.0	3.8	7.44e-01	0	43	104	0	79	10204
2026-01-24 21:54:56.26	179.23	22.54	-54.1	-62.9	3.8	7.44e-01	0	43	104	0	79	10159
2026-01-24 21:54:59.29	179.61	21.95	-54.1	-62.9	3.8	7.46e-01	0	43	104	0	79	10140
2026-01-24 21:55:02.31	179.97	21.38	-54.1	-62.9	3.8	7.45e-01	0	44	104	0	79	10167
2026-01-24 21:55:05.33	180.32	20.83	-54.1	-63.0	3.8	7.46e-01	0	43	104	0	79	10176
2026-01-24 21:55:08.36	180.65	20.29	-54.1	-63.0	3.8	7.46e-01	0	43	104	0	79	10177
2026-01-24 21:55:11.38	180.97	19.76	-54.1	-63.0	3.8	7.46e-01	0	43	104	0	79	10193
2026-01-24 21:55:14.40	181.28	19.25	-54.1	-62.9	3.8	7.44e-01	0	43	104	0	79	10158
2026-01-24 21:55:17.43	181.58	18.75	-54.1	-63.0	3.8	7.45e-01	0	44	104	0	79	10216
2026-01-24 21:55:20.45	181.87	18.26	-54.1	-63.0	3.8	7.44e-01	0	43	104	0	79	10180
2026-01-24 21:55:23.47	182.15	17.79	-54.1	-62.9	3.8	7.45e-01	0	43	104	0	79	10166
2026-01-24 21:55:26.50	182.42	17.32	-54.1	-62.9	3.8	7.45e-01	0	43	104	0	79	10147
2026-01-24 21:55:29.52	182.68	16.86	-54.1	-63.0	3.8	7.45e-01	0	43	104	0	79	10201
2026-01-24 21:55:32.54	182.93	16.42	-54.1	-63.0	3.8	7.45e-01	0	43	104	0	79	10192
2026-01-24 21:55:35.57	183.17	15.98	-54.1	-63.0	3.8	7.45e-01	0	43	104	0	79	10184
2026-01-24 21:55:38.59	183.41	15.56	-54.1	-63.0	3.8	7.46e-01	0	44	104	0	79	10253
2026-01-24 21:55:41.61	183.64	15.14	-54.1	-62.9	3.8	7.45e-01	0	43	104	0	79	10164
2026-01-24 21:55:44.64	183.86	14.73	-54.1	-63.0	3.8	7.45e-01	0	43	104	0	79	10189
2026-01-24 21:55:47.67	184.07	14.33	-54.1	-63.0	3.8	7.47e-01	0	44	104	0	79	10199
2026-01-24 21:55:50.69	184.28	13.94	-54.1	-63.0	3.8	7.45e-01	0	44	104	0	79	10193
2026-01-24 21:55:53.71	184.48	13.56	-54.1	-63.0	3.8	7.43e-01	0	44	104	0	79	10186
2026-01-24 21:55:56.74	184.68	13.18	-54.1	-63.0	3.8	7.46e-01	0	44	104	0	79	10185
2026-01-24 21:55:59.76	184.87	12.82	-54.1	-62.9	3.8	7.45e-01	0	44	104	0	79	10160
2026-01-24 21:56:02.78	185.06	12.45	-54.1	-63.0	3.8	7.45e-01	0	44	104	0	79	10192
2026-01-24 21:56:05.81	185.24	12.10	-54.1	-63.0	3.8	7.47e-01	0	43	104	0	79	10217
2026-01-24 21:56:08.83	185.41	11.75	-54.1	-63.0	3.8	7.46e-01	0	44	104	0	79	10183
2026-01-24 21:56:11.85	185.58	11.41	-54.1	-63.0	3.8	7.44e-01	0	43	104	0	79	10189
2026-01-24 21:56:14.88	185.75	11.07	-54.1	-62.9	3.8	7.44e-01	0	43	104	0	79	10158
2026-01-24 21:56:17.90	185.91	10.74	-54.1	-63.0	3.8	7.45e-01	0	44	104	0	79	10190
2026-01-24 21:56:20.92	186.07	10.42	-54.1	-62.9	3.8	7.45e-01	0	44	104	0	79	10169
2026-01-24 21:56:23.95	186.23	10.10	-54.1	-63.0	3.8	7.43e-01	0	44	104	0	79	10195
2026-01-24 21:56:26.97	186.38	9.79	-54.1	-62.9	3.8	7.44e-01	0	44	104	0	79	10165
2026-01-24 21:56:30.00	186.52	9.48	-54.1	-63.0	3.8	7.45e-01	0	44	104	0	79	10194
2026-01-24 21:56:33.02	186.67	9.17	-54.1	-62.9	3.8	7.46e-01	0	44	104	0	79	10145
2026-01-24 21:56:36.04	186.81	8.88	-54.1	-63.0	3.8	7.43e-01	0	43	104	0	79	10192
2026-01-24 21:56:39.07	186.94	8.58	-54.1	-63.0	3.8	7.46e-01	0	43	104	0	79	10215
2026-01-24 21:56:42.09	187.08	8.29	-54.1	-63.0	3.8	7.44e-01	0	43	104	0	79	10201
2026-01-24 21:56:45.12	187.21	8.01	-54.1	-63.0	3.8	7.46e-01	0	44	104	0	79	10181
2026-01-24 21:56:48.14	187.34	7.73	-54.1	-63.0	3.8	7.46e-01	0	43	104	0	79	10229
2026-01-24 21:56:51.16	187.46	7.45	-54.1	-63.0	3.8	7.45e-01	0	44	104	0	79	10177
2026-01-24 21:56:54.19	187.59	7.17	-54.1	-62.9	3.8	7.43e-01	0	43	104	0	79	10164
2026-01-24 21:56:57.21	187.71	6.91	-54.1	-62.9	3.8	7.44e-01	0	44	104	0	79	10160
2026-01-24 21:57:00.23	187.82	6.64	-54.1	-63.0	3.8	7.48e-01	0	43	104	0	79	10199
2026-01-24 21:57:03.26	187.94	6.38	-54.1	-63.0	3.8	7.45e-01	0	44	104	0	79	10198
2026-01-24 21:57:06.28	188.05	6.12	-54.1	-63.0	3.8	7.45e-01	0	44	104	0	79	10188
2026-01-24 21:57:09.31	188.16	5.86	-54.1	-63.0	3.8	7.45e-01	0	43	104	0	79	10196
2026-01-24 21:57:12.33	188.27	5.61	-54.1	-63.0	3.8	7.45e-01	0	44	104	0	79	10182
2026-01-24 21:57:15.36	188.38	5.36	-54.1	-63.0	3.8	7.46e-01	0	44	104	0	79	10185
2026-01-24 21:57:18.38	188.48	5.12	-54.1	-62.9	3.8	7.45e-01	0	43	104	0	79	10137
2026-01-24 21:57:21.40	188.58	4.87	-54.1	-63.0	3.8	7.45e-01	0	44	104	0	79	10200
2026-01-24 21:57:24.42	188.68	4.63	-54.1	-63.0	3.8	7.45e-01	0	43	104	0	79	10216
2026-01-24 21:57:27.45	188.78	4.40	-54.1	-62.9	3.8	7.45e-01	0	43	104	0	79	10158
2026-01-24 21:57:30.47	188.88	4.16	-54.1	-63.0	3.8	7.46e-01	0	43	104	0	79	10183
2026-01-24 21:57:33.49	188.97	3.93	-54.1	-63.0	3.8	7.45e-01	0	44	104	0	79	10189
2026-01-24 21:57:36.52	189.07	3.70	-54.1	-63.0	3.8	7.45e-01	0	43	104	0	79	10188
2026-01-24 21:57:39.54	189.16	3.47	-54.1	-63.0	3.8	7.47e-01	0	43	104	0	79	10205
2026-01-24 21:57:42.56	189.25	3.25	-54.1	-63.0	3.8	7.46e-01	0	43	104	0	79	10202
2026-01-24 21:57:45.59	189.34	3.03	-54.1	-62.9	3.8	7.45e-01	0	43	104	0	79	10155
2026-01-24 21:57:48.62	189.43	2.81	-54.1	-63.0	3.8	7.44e-01	0	43	104	0	79	10191
2026-01-24 21:57:51.64	189.51	2.59	-54.1	-63.0	3.8	7.45e-01	0	43	104	0	79	10176
2026-01-24 21:57:54.66	189.60	2.38	-54.1	-63.0	3.8	7.44e-01	0	44	104	0	79	10190
2026-01-24 21:57:57.69	189.68	2.16	-54.1	-63.0	3.8	7.47e-01	0	43	104	0	79	10202

#Closed at: 2026-01-24 21:58:00
#Recorded file [0 MB]: D:/lorett/data/31041_260125_004731.dat