passes_logs/2026/01/24/R3.2S_Murmansk/R3.2S_Murmansk__20260124_044728_AQUA_rec.log

#Pass ID: 20260124_044728_AQUA
#Satellite: AQUA
#Configuration: AQUA
#almurnet v.1.7.20251203
#Start time: 2026-01-24 04:47:27

#Version: 2.2.20231116
#Station: R3.2S_Murmansk
#Location: 33.079688 lon 68.888172 lat
#TLE: 1 27424U 02022A   26023.58972979  .00001888  00000+0  38753-3 0  9997
#TLE: 2 27424  98.4100 350.1620 0001948  68.5331  43.0280 14.61852003262140

#Time	Az	El	Level	Level2	SNR	BER	BlckErr	Temp	State	Recorded	gain1	gain2
2026-01-24 04:47:27.98	35.15	1.97	-54.7	-72.5	3.8	7.41e-01	0	41	0	0	80	28756
2026-01-24 04:47:31.00	34.97	2.16	-54.7	-72.5	3.8	7.45e-01	0	41	104	0	80	28704
2026-01-24 04:47:34.03	34.78	2.34	-54.7	-72.5	3.8	7.42e-01	0	41	104	0	80	28805
2026-01-24 04:47:37.05	34.59	2.53	-54.7	-72.5	3.8	7.44e-01	0	41	104	0	80	28818
2026-01-24 04:47:40.08	34.40	2.72	-54.7	-72.5	3.8	7.46e-01	0	41	104	0	80	28817
2026-01-24 04:47:43.10	34.20	2.90	-54.7	-72.5	3.8	7.40e-01	0	41	104	0	80	28785
2026-01-24 04:47:46.13	34.00	3.09	-54.7	-72.5	3.8	7.46e-01	0	41	104	0	80	28819
2026-01-24 04:47:49.15	33.80	3.28	-54.7	-72.5	3.8	7.48e-01	0	41	104	0	80	28797
2026-01-24 04:47:52.18	33.59	3.48	-54.7	-72.5	3.8	7.47e-01	0	41	104	0	80	28831
2026-01-24 04:47:55.20	33.38	3.67	-54.7	-72.5	3.8	7.49e-01	0	42	104	0	80	28814
2026-01-24 04:47:58.23	33.17	3.86	-54.7	-72.5	3.8	7.47e-01	0	42	104	0	80	28805
2026-01-24 04:48:01.24	32.96	4.06	-54.7	-72.5	3.8	7.48e-01	0	42	104	0	80	28706
2026-01-24 04:48:04.27	32.74	4.25	-54.7	-72.5	3.8	7.43e-01	0	42	104	0	80	28740
2026-01-24 04:48:07.29	32.52	4.45	-54.7	-72.5	3.8	7.47e-01	0	42	104	0	80	28839
2026-01-24 04:48:10.32	32.29	4.65	-54.7	-72.5	3.8	7.44e-01	0	42	104	0	80	28739
2026-01-24 04:48:13.34	32.06	4.85	-54.7	-72.5	3.8	7.47e-01	0	42	104	0	80	28824
2026-01-24 04:48:16.36	31.83	5.05	-54.7	-72.5	3.8	7.45e-01	0	42	104	0	80	28753
2026-01-24 04:48:19.39	31.59	5.25	-54.7	-72.5	3.8	7.48e-01	0	42	104	0	80	28850
2026-01-24 04:48:22.41	31.35	5.45	-54.7	-72.5	3.8	7.48e-01	0	42	104	0	80	28906
2026-01-24 04:48:25.43	31.11	5.66	-54.7	-72.5	3.8	7.45e-01	0	42	104	0	80	28908
2026-01-24 04:48:28.46	30.86	5.87	-54.7	-72.5	3.8	7.42e-01	0	42	104	0	80	28824
2026-01-24 04:48:31.48	30.61	6.07	-54.7	-72.5	3.8	7.45e-01	0	42	104	0	80	28855
2026-01-24 04:48:34.51	30.35	6.28	-54.7	-72.5	3.8	7.44e-01	0	42	104	0	80	28850
2026-01-24 04:48:37.53	30.09	6.49	-54.7	-72.5	3.8	7.46e-01	0	42	104	0	80	28862
2026-01-24 04:48:40.55	29.83	6.70	-54.7	-72.5	3.8	7.47e-01	0	42	104	0	80	28808
2026-01-24 04:48:43.58	29.56	6.92	-54.7	-72.5	3.8	7.48e-01	0	42	104	0	80	28922
2026-01-24 04:48:46.60	29.29	7.13	-54.7	-72.5	3.8	7.47e-01	0	42	104	0	80	28878
2026-01-24 04:48:49.63	29.01	7.35	-54.7	-72.5	3.8	7.46e-01	0	42	104	0	80	28894
2026-01-24 04:48:52.65	28.73	7.56	-54.7	-72.5	3.8	7.47e-01	0	42	104	0	80	28828
2026-01-24 04:48:55.67	28.44	7.78	-54.7	-72.5	3.8	7.45e-01	0	42	104	0	80	28865
2026-01-24 04:48:58.69	28.15	8.00	-54.7	-72.5	3.8	7.47e-01	0	42	104	0	80	28820
2026-01-24 04:49:01.72	27.85	8.22	-54.7	-72.5	3.8	7.46e-01	0	42	104	0	80	28827
2026-01-24 04:49:04.75	27.55	8.45	-54.7	-72.5	3.8	7.43e-01	0	42	104	0	80	28827
2026-01-24 04:49:07.77	27.24	8.67	-54.7	-72.5	3.8	7.46e-01	0	43	104	0	80	28821
2026-01-24 04:49:10.79	26.93	8.90	-54.7	-72.5	3.8	7.46e-01	0	42	104	0	80	28828
2026-01-24 04:49:13.82	26.61	9.13	-54.7	-72.5	3.8	7.44e-01	0	43	104	0	80	28843
2026-01-24 04:49:16.84	26.28	9.35	-54.7	-72.5	3.8	7.43e-01	0	43	104	0	80	28837
2026-01-24 04:49:19.87	25.95	9.58	-54.7	-72.5	3.8	7.43e-01	0	43	104	0	80	28892
2026-01-24 04:49:22.89	25.62	9.82	-54.7	-72.5	3.8	7.45e-01	0	42	104	0	80	28861
2026-01-24 04:49:25.91	25.28	10.05	-54.7	-72.5	3.8	7.46e-01	0	43	104	0	80	28865
2026-01-24 04:49:28.94	24.93	10.28	-54.7	-72.5	3.8	7.45e-01	0	43	104	0	80	28882
2026-01-24 04:49:31.97	24.57	10.52	-54.7	-72.5	3.8	7.46e-01	0	43	104	0	80	28894
2026-01-24 04:49:34.99	24.21	10.76	-54.7	-72.5	3.8	7.43e-01	0	43	104	0	80	28809
2026-01-24 04:49:38.02	23.84	11.00	-54.7	-72.5	3.8	7.46e-01	0	43	104	0	80	28845
2026-01-24 04:49:41.04	23.47	11.24	-54.7	-72.5	3.8	7.46e-01	0	43	104	0	80	28862
2026-01-24 04:49:44.07	23.09	11.48	-54.7	-72.5	3.8	7.43e-01	0	43	104	0	80	28874
2026-01-24 04:49:47.09	22.70	11.72	-54.7	-72.5	3.8	7.42e-01	0	43	104	0	80	28862
2026-01-24 04:49:50.12	22.30	11.97	-54.7	-72.5	3.8	7.46e-01	0	43	104	0	80	28859
2026-01-24 04:49:53.14	21.90	12.22	-54.7	-72.5	3.8	7.46e-01	0	43	104	0	80	28902
2026-01-24 04:49:56.16	21.49	12.46	-54.7	-72.5	3.8	7.48e-01	0	43	104	0	80	28900
2026-01-24 04:49:59.19	21.07	12.71	-54.7	-72.5	3.8	7.45e-01	0	43	104	0	80	28872
2026-01-24 04:50:02.20	20.65	12.96	-54.7	-72.5	3.8	7.47e-01	0	43	104	0	80	28913
2026-01-24 04:50:05.23	20.21	13.22	-54.7	-72.5	3.8	7.45e-01	0	43	104	0	80	28924
2026-01-24 04:50:08.25	19.77	13.47	-54.7	-72.5	3.8	7.46e-01	0	43	104	0	80	28881
2026-01-24 04:50:11.27	19.32	13.72	-54.7	-72.5	3.8	7.45e-01	0	43	104	0	80	28956
2026-01-24 04:50:14.30	18.86	13.98	-54.7	-72.5	3.8	7.44e-01	0	43	104	0	80	28884
2026-01-24 04:50:17.32	18.40	14.24	-54.7	-72.5	3.8	7.44e-01	0	43	104	0	80	28827
2026-01-24 04:50:20.35	17.92	14.50	-54.7	-72.5	3.8	7.48e-01	0	43	104	0	80	28850
2026-01-24 04:50:23.37	17.43	14.76	-54.7	-72.5	3.8	7.48e-01	0	43	104	0	80	28851
2026-01-24 04:50:26.39	16.94	15.02	-54.7	-72.5	3.8	7.46e-01	0	43	104	0	80	28841
2026-01-24 04:50:29.42	16.43	15.28	-54.7	-72.5	3.8	7.45e-01	0	43	104	0	80	28824
2026-01-24 04:50:32.44	15.92	15.54	-54.7	-72.5	3.8	7.45e-01	0	43	104	0	80	28871
2026-01-24 04:50:35.47	15.39	15.80	-54.7	-72.5	3.8	7.43e-01	0	43	104	0	80	28906
2026-01-24 04:50:38.49	14.86	16.07	-54.7	-72.5	3.8	7.45e-01	0	43	104	0	80	28872
2026-01-24 04:50:41.51	14.32	16.33	-54.7	-72.5	3.8	7.46e-01	0	43	104	0	80	28863
2026-01-24 04:50:44.54	13.76	16.60	-54.7	-72.5	3.8	7.45e-01	0	43	104	0	80	28846
2026-01-24 04:50:47.57	13.19	16.86	-54.7	-72.5	3.8	7.44e-01	0	43	104	0	80	28771
2026-01-24 04:50:50.59	12.62	17.13	-54.7	-72.5	3.8	7.44e-01	0	43	104	0	80	28836
2026-01-24 04:50:53.61	12.03	17.40	-54.7	-72.5	3.8	7.45e-01	0	43	104	0	80	28843
2026-01-24 04:50:56.64	11.43	17.66	-54.7	-72.5	3.8	7.46e-01	0	43	104	0	80	28792
2026-01-24 04:50:59.66	10.82	17.93	-54.7	-72.5	3.8	7.46e-01	0	43	104	0	80	28719
2026-01-24 04:51:02.68	10.20	18.20	-54.7	-72.5	3.8	7.45e-01	0	43	104	0	80	28745
2026-01-24 04:51:05.71	9.56	18.46	-54.7	-72.5	3.8	7.44e-01	0	43	104	0	80	28802
2026-01-24 04:51:08.73	8.92	18.73	-54.7	-72.5	3.8	7.46e-01	0	43	104	0	80	28889
2026-01-24 04:51:11.76	8.26	18.99	-54.7	-72.5	3.8	7.44e-01	0	43	104	0	80	28762
2026-01-24 04:51:14.78	7.59	19.26	-54.7	-72.5	3.8	7.46e-01	0	43	104	0	80	28818
2026-01-24 04:51:17.80	6.91	19.52	-54.7	-72.5	3.8	7.43e-01	0	43	104	0	80	28894
2026-01-24 04:51:20.83	6.21	19.78	-54.7	-72.5	3.8	7.43e-01	0	43	104	0	80	28860
2026-01-24 04:51:23.85	5.50	20.04	-54.7	-72.5	3.8	7.45e-01	0	43	104	0	80	28874
2026-01-24 04:51:26.88	4.78	20.30	-54.7	-72.5	3.8	7.45e-01	0	43	104	0	80	28828
2026-01-24 04:51:29.90	4.04	20.56	-54.7	-72.5	3.8	7.45e-01	0	43	104	0	80	28811
2026-01-24 04:51:32.93	3.29	20.82	-54.7	-72.5	3.8	7.44e-01	0	43	104	0	80	28821
2026-01-24 04:51:35.96	2.53	21.07	-54.7	-72.5	3.8	7.45e-01	0	43	104	0	80	28815
2026-01-24 04:51:38.98	1.76	21.32	-54.7	-72.5	3.8	7.47e-01	0	43	104	0	80	28812
2026-01-24 04:51:42.00	0.97	21.57	-54.7	-72.5	3.8	7.45e-01	0	43	104	0	80	28814
2026-01-24 04:51:45.03	0.17	21.82	-54.7	-72.5	3.8	7.44e-01	0	43	104	0	80	28865
2026-01-24 04:51:48.06	359.35	22.06	-54.7	-72.5	3.8	7.43e-01	0	43	104	0	80	28844
2026-01-24 04:51:51.08	358.52	22.30	-54.7	-72.5	3.8	7.47e-01	0	43	104	0	80	28811
2026-01-24 04:51:54.11	357.68	22.53	-54.7	-72.5	3.8	7.45e-01	0	43	104	0	80	28866
2026-01-24 04:51:57.13	356.82	22.76	-54.7	-72.5	3.8	7.41e-01	0	43	104	0	80	28797
2026-01-24 04:52:00.16	355.95	22.99	-54.7	-72.5	3.8	7.44e-01	0	43	104	0	80	28800
2026-01-24 04:52:03.18	355.07	23.21	-54.7	-72.5	3.8	7.45e-01	0	43	104	0	80	28827
2026-01-24 04:52:06.21	354.18	23.42	-54.7	-72.5	3.8	7.43e-01	0	43	104	0	80	28870
2026-01-24 04:52:09.23	353.27	23.63	-54.7	-72.5	3.8	7.43e-01	0	43	104	0	80	28813
2026-01-24 04:52:12.26	352.35	23.84	-54.7	-72.5	3.8	7.47e-01	0	43	104	0	80	28811
2026-01-24 04:52:15.28	351.41	24.04	-54.7	-72.5	3.8	7.44e-01	0	43	104	0	80	28802
2026-01-24 04:52:18.31	350.47	24.23	-54.7	-72.5	3.8	7.48e-01	0	43	104	0	80	28790
2026-01-24 04:52:21.34	349.51	24.42	-54.7	-72.5	3.8	7.45e-01	0	43	104	0	80	28864
2026-01-24 04:52:24.36	348.54	24.59	-54.7	-72.5	3.8	7.43e-01	0	43	104	0	80	28841
2026-01-24 04:52:27.39	347.56	24.76	-54.7	-72.5	3.8	7.46e-01	0	43	104	0	80	28844
2026-01-24 04:52:30.41	346.57	24.93	-54.7	-72.5	3.8	7.46e-01	0	43	104	0	80	28816
2026-01-24 04:52:33.44	345.56	25.08	-54.7	-72.5	3.8	7.46e-01	0	43	104	0	80	28797
2026-01-24 04:52:36.46	344.55	25.23	-54.7	-72.5	3.8	7.46e-01	0	43	104	0	80	28813
2026-01-24 04:52:39.48	343.53	25.36	-54.7	-72.5	3.8	7.46e-01	0	43	104	0	80	28770
2026-01-24 04:52:42.51	342.50	25.49	-54.7	-72.5	3.8	7.44e-01	0	43	104	0	80	28763
2026-01-24 04:52:45.53	341.46	25.61	-54.7	-72.5	3.8	7.42e-01	0	43	104	0	80	28817
2026-01-24 04:52:48.56	340.41	25.72	-54.7	-72.5	3.8	7.47e-01	0	43	104	0	80	28859
2026-01-24 04:52:51.58	339.35	25.82	-54.7	-72.5	3.8	7.47e-01	0	43	104	0	80	28772
2026-01-24 04:52:54.60	338.29	25.91	-54.7	-72.5	3.8	7.45e-01	0	43	104	0	80	28825
2026-01-24 04:52:57.63	337.22	25.99	-54.7	-72.5	3.8	7.47e-01	0	43	104	0	80	28925
2026-01-24 04:53:00.65	336.15	26.06	-54.7	-72.5	3.8	7.46e-01	0	43	104	0	80	28936
2026-01-24 04:53:03.67	335.08	26.12	-54.7	-72.5	3.8	7.45e-01	0	43	104	0	80	28922
2026-01-24 04:53:06.70	333.99	26.16	-54.7	-72.5	3.8	7.48e-01	0	43	104	0	80	28950
2026-01-24 04:53:09.72	332.91	26.20	-54.7	-72.5	3.8	7.45e-01	0	43	104	0	80	28908
2026-01-24 04:53:12.75	331.82	26.23	-54.7	-72.5	3.8	7.45e-01	0	43	104	0	80	28883
2026-01-24 04:53:15.77	330.74	26.24	-54.7	-72.5	3.8	7.43e-01	0	43	104	0	80	28802
2026-01-24 04:53:18.80	329.64	26.25	-54.7	-72.5	3.8	7.45e-01	0	43	104	0	80	28783
2026-01-24 04:53:21.82	328.56	26.24	-54.7	-72.5	3.8	7.46e-01	0	43	104	0	80	28846
2026-01-24 04:53:24.84	327.47	26.22	-54.7	-72.5	3.8	7.42e-01	0	43	104	0	80	28800
2026-01-24 04:53:27.87	326.38	26.19	-54.7	-72.5	3.8	7.49e-01	0	43	104	0	80	28901
2026-01-24 04:53:30.89	325.30	26.15	-54.7	-72.5	3.8	7.46e-01	0	43	104	0	80	28846
2026-01-24 04:53:33.91	324.22	26.10	-54.7	-72.5	3.8	7.44e-01	0	43	104	0	80	28898
2026-01-24 04:53:36.94	323.14	26.04	-54.7	-72.5	3.8	7.42e-01	0	43	104	0	80	28829
2026-01-24 04:53:39.96	322.07	25.97	-54.7	-72.5	3.8	7.44e-01	0	43	104	0	80	28852
2026-01-24 04:53:42.99	321.00	25.89	-54.7	-72.5	3.8	7.45e-01	0	43	104	0	80	28824
2026-01-24 04:53:46.01	319.94	25.79	-54.7	-72.5	3.8	7.46e-01	0	43	104	0	80	28846
2026-01-24 04:53:49.04	318.89	25.69	-54.7	-72.5	3.8	7.42e-01	0	43	104	0	80	28871
2026-01-24 04:53:52.06	317.84	25.58	-54.7	-72.5	3.8	7.45e-01	0	43	104	0	80	28832
2026-01-24 04:53:55.09	316.80	25.46	-54.7	-72.5	3.8	7.45e-01	0	43	104	0	80	28786
2026-01-24 04:53:58.11	315.78	25.33	-54.7	-72.5	3.8	7.46e-01	0	43	104	0	80	28806
2026-01-24 04:54:01.14	314.75	25.19	-54.7	-72.5	3.8	7.45e-01	0	43	104	0	80	28849
2026-01-24 04:54:04.17	313.74	25.04	-54.7	-72.5	3.8	7.44e-01	0	43	104	0	80	28879
2026-01-24 04:54:07.19	312.74	24.88	-54.7	-72.5	3.8	7.44e-01	0	43	104	0	80	28765
2026-01-24 04:54:10.22	311.75	24.72	-54.7	-72.5	3.8	7.43e-01	0	43	104	0	80	28880
2026-01-24 04:54:13.24	310.77	24.54	-54.7	-72.5	3.8	7.46e-01	0	43	104	0	80	28883
2026-01-24 04:54:16.27	309.80	24.36	-54.7	-72.5	3.8	7.45e-01	0	43	104	0	80	28881
2026-01-24 04:54:19.29	308.85	24.18	-54.7	-72.5	3.8	7.43e-01	0	43	104	0	80	28825
2026-01-24 04:54:22.32	307.90	23.98	-54.7	-72.5	3.8	7.46e-01	0	43	104	0	80	28867
2026-01-24 04:54:25.34	306.97	23.78	-54.7	-72.5	3.8	7.44e-01	0	43	104	0	80	28836
2026-01-24 04:54:28.36	306.05	23.58	-54.7	-72.4	3.8	7.47e-01	0	43	104	0	80	28545
2026-01-24 04:54:31.39	305.15	23.36	-54.7	-72.5	3.8	7.49e-01	0	43	104	0	80	28717
2026-01-24 04:54:34.41	304.25	23.15	-54.7	-72.5	3.8	7.46e-01	0	43	104	0	80	28733
2026-01-24 04:54:37.43	303.38	22.92	-54.7	-72.5	3.8	7.46e-01	0	43	104	0	80	28923
2026-01-24 04:54:40.46	302.51	22.70	-54.7	-72.5	3.8	7.46e-01	0	43	104	0	80	28791
2026-01-24 04:54:43.48	301.66	22.46	-54.7	-72.5	3.8	7.48e-01	0	43	104	0	80	28783
2026-01-24 04:54:46.50	300.82	22.23	-54.7	-72.5	3.8	7.45e-01	0	43	104	0	80	28796
2026-01-24 04:54:49.53	299.99	21.99	-54.7	-72.5	3.8	7.47e-01	0	43	104	0	80	28697
2026-01-24 04:54:52.55	299.18	21.75	-54.7	-72.4	3.8	7.45e-01	0	43	104	0	80	28439
2026-01-24 04:54:55.58	298.38	21.50	-54.6	-72.3	3.8	7.42e-01	0	43	104	0	80	28100
2026-01-24 04:54:58.60	297.59	21.25	-54.7	-72.4	3.8	7.45e-01	0	43	104	0	80	28465
2026-01-24 04:55:01.63	296.82	21.00	-54.7	-72.4	3.8	7.43e-01	0	43	104	0	80	28563
2026-01-24 04:55:04.65	296.06	20.74	-54.6	-72.2	3.8	7.43e-01	0	43	104	0	80	27849
2026-01-24 04:55:07.67	295.31	20.49	-54.6	-72.2	3.8	7.46e-01	0	43	104	0	80	27954
2026-01-24 04:55:10.70	294.58	20.23	-54.7	-72.5	3.8	7.44e-01	0	43	104	0	80	28790
2026-01-24 04:55:13.73	293.86	19.97	-54.6	-72.1	3.8	7.44e-01	0	43	104	0	80	27546
2026-01-24 04:55:16.75	293.15	19.70	-54.7	-72.5	3.8	7.48e-01	0	43	104	0	80	28789
2026-01-24 04:55:19.78	292.46	19.44	-54.7	-72.4	3.8	7.43e-01	0	43	104	0	80	28624
2026-01-24 04:55:22.81	291.77	19.18	-54.7	-72.5	3.8	7.45e-01	0	43	104	0	80	28929
2026-01-24 04:55:25.83	291.11	18.91	-54.7	-72.5	3.8	7.46e-01	0	43	104	0	80	28896
2026-01-24 04:55:28.85	290.45	18.65	-54.7	-72.5	3.8	7.47e-01	0	43	104	0	80	28871
2026-01-24 04:55:31.87	289.81	18.38	-54.7	-72.5	3.8	7.48e-01	0	43	104	0	80	28895
2026-01-24 04:55:34.89	289.18	18.11	-54.7	-72.5	3.8	7.43e-01	0	43	104	0	80	28772
2026-01-24 04:55:37.92	288.55	17.85	-54.7	-72.5	3.8	7.49e-01	0	43	104	0	80	28754
2026-01-24 04:55:40.94	287.95	17.58	-54.7	-72.5	3.8	7.47e-01	0	43	104	0	80	28806
2026-01-24 04:55:43.97	287.35	17.31	-54.7	-72.5	3.8	7.43e-01	0	43	104	0	80	28784
2026-01-24 04:55:46.99	286.76	17.04	-54.7	-72.5	3.8	7.46e-01	0	43	104	0	80	28789
2026-01-24 04:55:50.01	286.19	16.78	-54.7	-72.5	3.8	7.42e-01	0	43	104	0	80	28782
2026-01-24 04:55:53.04	285.62	16.51	-54.7	-72.5	3.8	7.46e-01	0	43	104	0	80	28727
2026-01-24 04:55:56.07	285.07	16.24	-54.7	-72.5	3.8	7.45e-01	0	43	104	0	80	28836
2026-01-24 04:55:59.09	284.52	15.98	-54.7	-72.5	3.8	7.45e-01	0	43	104	0	80	28797
2026-01-24 04:56:02.12	283.99	15.72	-54.7	-72.5	3.8	7.45e-01	0	43	104	0	80	28764
2026-01-24 04:56:05.14	283.47	15.45	-54.7	-72.5	3.8	7.45e-01	0	43	104	0	80	28788
2026-01-24 04:56:08.17	282.95	15.19	-54.7	-72.5	3.8	7.46e-01	0	43	104	0	80	28762
2026-01-24 04:56:11.19	282.45	14.93	-54.7	-72.5	3.8	7.45e-01	0	43	104	0	80	28780
2026-01-24 04:56:14.22	281.96	14.67	-54.7	-72.5	3.8	7.44e-01	0	43	104	0	80	28785
2026-01-24 04:56:17.24	281.47	14.41	-54.7	-72.5	3.8	7.45e-01	0	43	104	0	80	28929
2026-01-24 04:56:20.27	280.99	14.15	-54.7	-72.5	3.8	7.44e-01	0	43	104	0	80	28917
2026-01-24 04:56:23.29	280.53	13.89	-54.7	-72.5	3.8	7.48e-01	0	43	104	0	80	28945
2026-01-24 04:56:26.32	280.07	13.63	-54.7	-72.5	3.8	7.46e-01	0	43	104	0	80	28986
2026-01-24 04:56:29.34	279.62	13.38	-54.8	-72.6	3.8	7.45e-01	0	43	104	0	80	29061
2026-01-24 04:56:32.36	279.18	13.13	-54.7	-72.5	3.8	7.45e-01	0	43	104	0	80	28984
2026-01-24 04:56:35.39	278.75	12.87	-54.7	-72.5	3.8	7.45e-01	0	43	104	0	80	28912
2026-01-24 04:56:38.42	278.32	12.62	-54.7	-72.6	3.8	7.45e-01	0	43	104	0	80	29043
2026-01-24 04:56:41.44	277.90	12.37	-54.7	-72.5	3.8	7.43e-01	0	43	104	0	80	28993
2026-01-24 04:56:44.46	277.50	12.13	-54.7	-72.5	3.8	7.44e-01	0	43	104	0	80	28932
2026-01-24 04:56:47.49	277.09	11.88	-54.7	-72.5	3.8	7.44e-01	0	43	104	0	80	28983
2026-01-24 04:56:50.52	276.70	11.63	-54.7	-72.5	3.8	7.46e-01	0	43	104	0	80	28988
2026-01-24 04:56:53.54	276.31	11.39	-54.8	-72.6	3.8	7.45e-01	0	43	104	0	80	29092
2026-01-24 04:56:56.56	275.93	11.15	-54.7	-72.6	3.8	7.45e-01	0	43	104	0	80	29063
2026-01-24 04:56:59.59	275.56	10.91	-54.7	-72.5	3.8	7.44e-01	0	43	104	0	80	28946
2026-01-24 04:57:02.61	275.19	10.67	-54.7	-72.5	3.8	7.46e-01	0	43	104	0	80	28967
2026-01-24 04:57:05.63	274.83	10.43	-54.7	-72.5	3.8	7.44e-01	0	43	104	0	80	28938
2026-01-24 04:57:08.66	274.48	10.19	-54.7	-72.5	3.8	7.40e-01	0	43	104	0	80	28966
2026-01-24 04:57:11.68	274.13	9.96	-54.7	-72.5	3.8	7.47e-01	0	43	104	0	80	28985
2026-01-24 04:57:14.70	273.79	9.72	-54.7	-72.5	3.8	7.49e-01	0	43	104	0	80	28981
2026-01-24 04:57:17.73	273.45	9.49	-54.7	-72.5	3.8	7.46e-01	0	43	104	0	80	28922
2026-01-24 04:57:20.75	273.12	9.26	-54.7	-72.5	3.8	7.43e-01	0	43	104	0	80	28978
2026-01-24 04:57:23.78	272.80	9.03	-54.8	-72.6	3.8	7.50e-01	0	43	104	0	80	29104
2026-01-24 04:57:26.80	272.48	8.81	-54.7	-72.6	3.8	7.45e-01	0	43	104	0	80	29022
2026-01-24 04:57:29.83	272.16	8.58	-54.7	-72.6	3.8	7.42e-01	0	43	104	0	80	29030
2026-01-24 04:57:32.85	271.86	8.36	-54.7	-72.6	3.8	7.43e-01	0	44	104	0	80	29072
2026-01-24 04:57:35.88	271.55	8.13	-54.7	-72.5	3.8	7.41e-01	0	43	104	0	80	28938
2026-01-24 04:57:38.91	271.26	7.91	-54.7	-72.5	3.8	7.46e-01	0	43	104	0	80	28994
2026-01-24 04:57:41.93	270.96	7.69	-54.7	-72.5	3.8	7.44e-01	0	43	104	0	80	28953
2026-01-24 04:57:44.95	270.68	7.47	-54.7	-72.5	3.8	7.43e-01	0	43	104	0	80	28846
2026-01-24 04:57:47.98	270.39	7.26	-54.7	-72.5	3.8	7.44e-01	0	43	104	0	80	28928
2026-01-24 04:57:51.01	270.12	7.04	-54.7	-72.5	3.8	7.47e-01	0	44	104	0	80	28958
2026-01-24 04:57:54.03	269.84	6.83	-54.7	-72.5	3.8	7.43e-01	0	43	104	0	80	28926
2026-01-24 04:57:57.06	269.57	6.61	-54.7	-72.5	3.8	7.46e-01	0	43	104	0	80	28907
2026-01-24 04:58:00.08	269.31	6.40	-54.7	-72.5	3.8	7.43e-01	0	43	104	0	80	28871
2026-01-24 04:58:03.10	269.05	6.19	-54.7	-72.5	3.8	7.48e-01	0	43	104	0	80	28908
2026-01-24 04:58:06.13	268.79	5.98	-54.7	-72.5	3.8	7.46e-01	0	43	104	0	80	28866
2026-01-24 04:58:09.15	268.54	5.77	-54.7	-72.5	3.8	7.45e-01	0	43	104	0	80	28918
2026-01-24 04:58:12.18	268.29	5.57	-54.7	-72.5	3.8	7.45e-01	0	43	104	0	80	28879
2026-01-24 04:58:15.21	268.05	5.36	-54.7	-72.5	3.8	7.46e-01	0	43	104	0	80	28975
2026-01-24 04:58:18.24	267.81	5.16	-54.7	-72.5	3.8	7.47e-01	0	44	104	0	80	28877
2026-01-24 04:58:21.26	267.57	4.96	-54.7	-72.5	3.8	7.48e-01	0	43	104	0	80	28948
2026-01-24 04:58:24.28	267.34	4.76	-54.7	-72.5	3.8	7.49e-01	0	43	104	0	80	28815
2026-01-24 04:58:27.31	267.11	4.56	-54.7	-72.5	3.8	7.49e-01	0	43	104	0	80	28893
2026-01-24 04:58:30.33	266.88	4.36	-54.7	-72.5	3.8	7.44e-01	0	43	104	0	80	28922
2026-01-24 04:58:33.36	266.66	4.16	-54.7	-72.5	3.8	7.46e-01	0	43	104	0	80	28959
2026-01-24 04:58:36.38	266.44	3.96	-54.7	-72.6	3.8	7.42e-01	0	43	104	0	80	29012
2026-01-24 04:58:39.40	266.23	3.77	-54.7	-72.6	3.8	7.46e-01	0	43	104	0	80	29057
2026-01-24 04:58:42.43	266.01	3.58	-54.8	-72.6	3.8	7.49e-01	0	43	104	0	80	29066
2026-01-24 04:58:45.46	265.81	3.38	-54.8	-72.6	3.8	7.47e-01	0	43	104	0	80	29080
2026-01-24 04:58:48.49	265.60	3.19	-54.7	-72.5	3.8	7.42e-01	0	43	104	0	80	28985
2026-01-24 04:58:51.52	265.40	3.00	-54.7	-72.5	3.8	7.45e-01	0	43	104	0	80	28985
2026-01-24 04:58:54.54	265.20	2.81	-54.7	-72.5	3.8	7.44e-01	0	43	104	0	80	28921
2026-01-24 04:58:57.56	265.00	2.62	-54.7	-72.5	3.8	7.44e-01	0	43	104	0	80	28923
2026-01-24 04:59:00.59	264.80	2.44	-54.7	-72.5	3.8	7.47e-01	0	43	104	0	80	28960
2026-01-24 04:59:03.61	264.61	2.25	-54.7	-72.5	3.8	7.47e-01	0	43	104	0	80	28937
2026-01-24 04:59:06.64	264.42	2.07	-54.7	-72.5	3.8	7.43e-01	0	43	104	0	80	28893

#Closed at: 2026-01-24 04:59:09
#Recorded file [0 MB]: D:/lorett/data/31041_260124_074727.dat