passes_logs/2026/01/24/R3.2S_Murmansk/R3.2S_Murmansk__20260124_114143_SUOMI_NPP_rec.log

#Pass ID: 20260124_114143_SUOMI NPP
#Satellite: SUOMI NPP
#Configuration: NPP
#almurnet v.1.7.20251203
#Start time: 2026-01-24 11:41:44

#Version: 2.2.20231116
#Station: R3.2S_Murmansk
#Location: 33.079688 lon 68.888172 lat
#TLE: 1 37849U 11061A   26023.63275593  .00000212  00000+0  12133-3 0  9990
#TLE: 2 37849  98.7820 325.6074 0002234  48.9695 311.1673 14.19528901737937

#Time	Az	El	Level	Level2	SNR	BER	BlckErr	Temp	State	Recorded	gain1	gain2
2026-01-24 11:41:44.81	204.35	2.10	-52.2	-67.2	3.8	1.49e+00	0	41	0	0	75	20883
2026-01-24 11:41:48.85	204.61	2.33	-52.2	-67.2	3.8	1.49e+00	0	41	104	0	74	22126
2026-01-24 11:41:52.88	204.87	2.56	-52.2	-67.2	3.8	1.49e+00	0	41	104	0	74	22022
2026-01-24 11:41:56.91	205.13	2.80	-52.2	-67.2	3.8	1.49e+00	0	41	104	0	74	22044
2026-01-24 11:42:00.95	205.39	3.04	-52.2	-67.2	3.8	1.49e+00	0	42	104	0	74	22081
2026-01-24 11:42:04.99	205.66	3.28	-52.2	-67.1	3.8	1.49e+00	0	42	104	0	74	21862
2026-01-24 11:42:09.02	205.94	3.52	-52.2	-67.1	3.8	1.49e+00	0	42	104	0	74	21999
2026-01-24 11:42:13.05	206.22	3.76	-52.2	-67.1	3.8	1.49e+00	0	42	104	0	74	21960
2026-01-24 11:42:17.09	206.50	4.00	-52.2	-67.1	3.8	1.49e+00	0	42	104	0	74	21897
2026-01-24 11:42:21.13	206.79	4.25	-52.2	-66.5	3.8	1.49e+00	0	42	104	0	74	20373
2026-01-24 11:42:25.16	207.08	4.49	-52.2	-66.1	3.8	1.49e+00	0	42	104	0	74	19469
2026-01-24 11:42:29.19	207.38	4.74	-51.0	-57.1	8.7	3.85e-02	0	42	0	4194304	74	6938
2026-01-24 11:42:33.22	207.68	4.99	-48.3	-50.9	15.2	7.00e-07	0	42	0	11534336	68	4788
2026-01-24 11:42:37.25	207.98	5.24	-49.8	-53.9	12.3	0.00e+00	0	42	0	19922944	70	6003
2026-01-24 11:42:41.29	208.29	5.50	-47.5	-49.8	16.4	0.00e+00	0	42	0	27262976	66	4710
2026-01-24 11:42:45.32	208.61	5.75	-47.0	-49.0	17.1	0.00e+00	0	42	0	34603008	66	4306
2026-01-24 11:42:49.35	208.93	6.01	-47.1	-49.1	17.0	0.00e+00	0	42	0	41943040	65	4618
2026-01-24 11:42:53.38	209.26	6.27	-46.6	-48.5	17.7	0.00e+00	0	42	0	49283072	64	4554
2026-01-24 11:42:57.41	209.59	6.53	-46.8	-48.7	17.5	0.00e+00	0	42	0	57671680	64	4700
2026-01-24 11:43:01.44	209.93	6.79	-46.6	-48.4	17.8	0.00e+00	0	42	0	65011712	64	4514
2026-01-24 11:43:05.47	210.28	7.06	-46.3	-48.1	18.1	0.00e+00	0	43	0	72351744	64	4349
2026-01-24 11:43:09.51	210.63	7.32	-46.1	-47.7	18.6	0.00e+00	0	42	0	79691776	63	4430
2026-01-24 11:43:13.53	210.98	7.59	-46.1	-47.7	18.6	0.00e+00	0	43	0	87031808	63	4406
2026-01-24 11:43:17.57	211.35	7.86	-46.2	-47.8	18.6	0.00e+00	0	43	0	95420416	63	4467
2026-01-24 11:43:21.60	211.71	8.13	-46.3	-48.0	18.4	0.00e+00	0	42	0	102760448	63	4565
2026-01-24 11:43:25.63	212.09	8.41	-46.3	-48.1	18.4	0.00e+00	0	43	0	110100480	63	4599
2026-01-24 11:43:29.66	212.47	8.68	-46.2	-47.8	18.6	0.00e+00	0	43	0	117440512	63	4493
2026-01-24 11:43:33.69	212.86	8.96	-45.9	-47.5	19.0	0.00e+00	0	43	0	124780544	63	4300
2026-01-24 11:43:37.73	213.26	9.24	-45.9	-47.5	19.1	0.00e+00	0	43	0	133169152	63	4297
2026-01-24 11:43:41.76	213.67	9.52	-45.9	-47.4	19.0	0.00e+00	0	43	0	140509184	63	4279
2026-01-24 11:43:45.79	214.08	9.81	-45.9	-47.4	19.1	0.00e+00	0	43	0	147849216	63	4280
2026-01-24 11:43:49.82	214.50	10.09	-46.3	-48.0	18.6	0.00e+00	0	43	0	155189248	63	4558
2026-01-24 11:43:53.85	214.92	10.38	-45.9	-47.5	19.2	0.00e+00	0	43	0	163577856	63	4293
2026-01-24 11:43:57.89	215.36	10.67	-45.5	-47.0	19.6	0.00e+00	0	43	0	170917888	63	4055
2026-01-24 11:44:01.92	215.81	10.97	-45.5	-46.8	19.7	0.00e+00	0	43	0	178257920	62	4240
2026-01-24 11:44:05.95	216.26	11.26	-45.6	-47.0	19.5	0.00e+00	0	43	0	185597952	62	4335
2026-01-24 11:44:09.99	216.72	11.56	-45.9	-47.4	19.3	0.00e+00	0	43	0	192937984	62	4505
2026-01-24 11:44:14.02	217.19	11.85	-46.4	-48.0	18.7	0.00e+00	0	43	0	201326592	63	4581
2026-01-24 11:44:18.06	217.67	12.15	-46.2	-47.7	19.0	0.00e+00	0	43	0	208666624	63	4420
2026-01-24 11:44:22.10	218.16	12.46	-46.0	-47.5	19.2	0.00e+00	0	43	0	216006656	63	4333
2026-01-24 11:44:26.12	218.66	12.76	-45.9	-47.3	19.4	0.00e+00	0	43	0	223346688	63	4226
2026-01-24 11:44:30.15	219.17	13.06	-45.9	-47.4	19.3	0.00e+00	0	43	0	230686720	63	4271
2026-01-24 11:44:34.18	219.69	13.37	-45.7	-47.2	19.5	0.00e+00	0	43	0	239075328	63	4162
2026-01-24 11:44:38.22	220.22	13.68	-45.6	-47.0	19.6	0.00e+00	0	43	0	246415360	63	4083
2026-01-24 11:44:42.25	220.76	13.99	-45.5	-46.8	19.8	0.00e+00	0	43	0	253755392	62	4235
2026-01-24 11:44:46.28	221.32	14.30	-45.6	-47.0	19.7	0.00e+00	0	43	0	261095424	62	4298
2026-01-24 11:44:50.31	221.88	14.62	-45.9	-47.4	19.4	0.00e+00	0	43	0	269484032	62	4503
2026-01-24 11:44:54.35	222.45	14.93	-46.2	-47.7	19.1	0.00e+00	0	43	0	276824064	62	4666
2026-01-24 11:44:58.38	223.04	15.25	-46.1	-47.6	19.2	0.00e+00	0	43	0	284164096	63	4358
2026-01-24 11:45:02.41	223.64	15.57	-45.9	-47.3	19.5	0.00e+00	0	43	0	291504128	63	4213
2026-01-24 11:45:06.45	224.25	15.89	-45.3	-46.7	20.1	0.00e+00	0	43	0	298844160	62	4150
2026-01-24 11:45:10.48	224.88	16.21	-45.1	-46.4	20.4	0.00e+00	0	43	0	306184192	62	4005
2026-01-24 11:45:14.51	225.51	16.53	-44.8	-46.0	20.7	0.00e+00	0	43	0	314572800	61	4078
2026-01-24 11:45:18.54	226.17	16.85	-44.5	-45.7	21.0	0.00e+00	0	43	0	321912832	61	3949
2026-01-24 11:45:22.57	226.83	17.18	-44.9	-46.1	20.6	0.00e+00	0	43	0	329252864	60	4381
2026-01-24 11:45:26.61	227.51	17.50	-45.0	-46.3	20.5	0.00e+00	0	43	0	336592896	61	4232
2026-01-24 11:45:30.64	228.20	17.82	-45.0	-46.2	20.5	0.00e+00	0	43	0	344981504	61	4189
2026-01-24 11:45:34.67	228.91	18.15	-44.5	-45.7	21.0	0.00e+00	0	43	0	352321536	61	3926
2026-01-24 11:45:38.71	229.63	18.47	-44.4	-45.5	21.2	0.00e+00	0	43	0	359661568	60	4094
2026-01-24 11:45:42.73	230.37	18.79	-44.6	-45.7	21.3	0.00e+00	0	43	0	367001600	59	4435
2026-01-24 11:45:46.77	231.12	19.12	-44.5	-45.6	21.1	0.00e+00	0	43	0	374341632	60	4140
2026-01-24 11:45:50.80	231.89	19.44	-44.5	-45.7	21.1	0.00e+00	0	43	0	382730240	60	4165
2026-01-24 11:45:54.83	232.67	19.76	-44.4	-45.6	21.2	0.00e+00	0	43	0	390070272	60	4124
2026-01-24 11:45:58.87	233.47	20.08	-44.8	-46.0	20.8	0.00e+00	0	43	0	397410304	60	4310
2026-01-24 11:46:02.90	234.29	20.40	-44.3	-45.4	21.3	0.00e+00	0	43	0	404750336	60	4041
2026-01-24 11:46:06.93	235.12	20.72	-44.6	-45.8	21.1	0.00e+00	0	43	0	413138944	60	4211
2026-01-24 11:46:10.96	235.97	21.04	-44.2	-45.3	21.4	0.00e+00	0	43	0	420478976	60	3987
2026-01-24 11:46:15.00	236.84	21.35	-44.4	-45.6	21.3	0.00e+00	0	43	0	427819008	60	4101
2026-01-24 11:46:19.03	237.72	21.66	-44.5	-45.6	21.5	0.00e+00	0	43	0	435159040	59	4387
2026-01-24 11:46:23.06	238.63	21.97	-44.6	-45.7	21.4	0.00e+00	0	43	0	442499072	59	4426
2026-01-24 11:46:27.09	239.54	22.27	-44.4	-45.6	21.5	0.00e+00	0	43	0	449839104	59	4347
2026-01-24 11:46:31.12	240.48	22.57	-44.3	-45.4	21.8	0.00e+00	0	43	0	458227712	59	4265
2026-01-24 11:46:35.16	241.44	22.86	-44.1	-45.2	21.9	0.00e+00	0	43	0	465567744	59	4161
2026-01-24 11:46:39.19	242.41	23.15	-44.3	-45.5	21.4	0.00e+00	0	43	0	472907776	60	4064
2026-01-24 11:46:43.22	243.39	23.44	-44.5	-45.6	21.2	0.00e+00	0	43	0	480247808	60	4134
2026-01-24 11:46:47.25	244.40	23.72	-44.3	-45.4	21.4	0.00e+00	0	43	0	488636416	60	4034
2026-01-24 11:46:51.28	245.42	23.99	-44.7	-45.8	21.4	0.00e+00	0	43	0	495976448	59	4479
2026-01-24 11:46:55.31	246.46	24.25	-44.8	-46.1	20.9	0.00e+00	0	43	0	503316480	60	4355
2026-01-24 11:46:59.35	247.52	24.51	-44.6	-45.8	21.4	0.00e+00	0	43	0	510656512	59	4445
2026-01-24 11:47:03.38	248.60	24.76	-45.7	-47.1	19.9	0.00e+00	0	43	0	517996544	62	4365
2026-01-24 11:47:07.41	249.69	25.01	-46.1	-47.6	19.5	0.00e+00	0	43	0	526385152	62	4608
2026-01-24 11:47:11.44	250.80	25.24	-45.4	-46.7	20.3	0.00e+00	0	43	0	533725184	62	4166
2026-01-24 11:47:15.47	251.92	25.46	-46.2	-47.7	19.4	0.00e+00	0	43	0	541065216	63	4413
2026-01-24 11:47:19.50	253.06	25.68	-47.2	-48.9	18.2	0.00e+00	0	43	0	548405248	65	4519
2026-01-24 11:47:23.53	254.21	25.88	-46.6	-48.2	18.8	0.00e+00	0	43	0	555745280	65	4192
2026-01-24 11:47:27.56	255.38	26.08	-47.7	-49.7	17.5	0.00e+00	0	43	0	564133888	66	4668
2026-01-24 11:47:31.59	256.56	26.26	-46.3	-47.7	19.3	0.00e+00	0	43	0	571473920	64	4193
2026-01-24 11:47:35.62	257.75	26.43	-46.9	-48.6	18.5	0.00e+00	0	43	0	578813952	64	4628
2026-01-24 11:47:39.66	258.96	26.59	-47.6	-49.4	17.8	0.00e+00	0	43	0	586153984	65	4800
2026-01-24 11:47:43.69	260.18	26.73	-47.3	-49.0	18.1	0.00e+00	0	43	0	593494016	66	4302
2026-01-24 11:47:47.72	261.40	26.87	-48.6	-50.9	16.4	0.00e+00	0	43	0	601882624	67	5049
2026-01-24 11:47:51.75	262.64	26.99	-46.8	-48.4	18.7	0.00e+00	0	43	0	609222656	65	4262
2026-01-24 11:47:55.79	263.89	27.09	-47.1	-48.8	18.4	0.00e+00	0	43	0	616562688	65	4462
2026-01-24 11:47:59.82	265.14	27.19	-48.4	-50.6	16.6	0.00e+00	0	43	0	623902720	67	4886
2026-01-24 11:48:03.85	266.40	27.26	-47.6	-49.4	17.8	0.00e+00	0	43	0	632291328	67	4270
2026-01-24 11:48:07.88	267.67	27.33	-47.7	-49.6	17.7	0.00e+00	0	43	0	639631360	66	4599
2026-01-24 11:48:11.92	268.94	27.38	-47.4	-49.2	18.1	0.00e+00	0	43	0	646971392	66	4407
2026-01-24 11:48:15.95	270.21	27.41	-46.9	-48.5	18.7	0.00e+00	0	43	0	654311424	65	4309
2026-01-24 11:48:19.98	271.48	27.43	-46.8	-48.4	18.9	0.00e+00	0	43	0	661651456	65	4251
2026-01-24 11:48:24.01	272.76	27.43	-47.7	-49.5	17.7	0.00e+00	0	43	0	670040064	66	4584
2026-01-24 11:48:28.05	274.04	27.42	-48.3	-50.4	16.9	0.00e+00	0	43	0	677380096	67	4805
2026-01-24 11:48:32.08	275.31	27.40	-47.2	-48.8	18.4	0.00e+00	0	43	0	684720128	66	4240
2026-01-24 11:48:36.11	276.58	27.35	-46.0	-47.4	19.7	0.00e+00	0	43	0	692060160	64	4050
2026-01-24 11:48:40.15	277.85	27.30	-46.4	-47.8	19.5	0.00e+00	0	44	0	699400192	63	4470
2026-01-24 11:48:44.18	279.11	27.23	-47.3	-49.0	18.3	0.00e+00	0	43	0	707788800	65	4571
2026-01-24 11:48:48.21	280.36	27.14	-46.6	-48.0	19.2	0.00e+00	0	44	0	715128832	65	4084
2026-01-24 11:48:52.24	281.61	27.05	-46.5	-48.0	19.4	0.00e+00	0	43	0	722468864	64	4310
2026-01-24 11:48:56.27	282.85	26.93	-46.3	-47.7	19.5	0.00e+00	0	43	0	729808896	63	4411
2026-01-24 11:49:00.30	284.08	26.81	-46.4	-47.8	19.5	0.00e+00	0	43	0	737148928	63	4461
2026-01-24 11:49:04.34	285.31	26.67	-45.4	-46.6	20.6	0.00e+00	0	43	0	745537536	62	4134
2026-01-24 11:49:08.37	286.52	26.52	-46.8	-48.4	18.9	0.00e+00	0	43	0	752877568	64	4508
2026-01-24 11:49:12.40	287.71	26.35	-45.6	-46.9	20.3	0.00e+00	0	43	0	760217600	63	4045
2026-01-24 11:49:16.43	288.90	26.18	-44.4	-45.5	21.6	0.00e+00	0	43	0	767557632	60	4077
2026-01-24 11:49:20.46	290.07	25.99	-44.5	-45.6	21.5	0.00e+00	0	43	0	775946240	60	4121
2026-01-24 11:49:24.50	291.23	25.79	-44.9	-46.1	21.1	0.00e+00	0	43	0	783286272	61	4124
2026-01-24 11:49:28.53	292.37	25.59	-44.4	-45.5	21.8	0.00e+00	0	43	0	790626304	59	4321
2026-01-24 11:49:32.56	293.50	25.37	-43.8	-44.8	22.4	0.00e+00	0	43	0	797966336	59	3982
2026-01-24 11:49:36.59	294.61	25.14	-43.8	-44.8	22.4	0.00e+00	0	43	0	805306368	58	4231
2026-01-24 11:49:40.62	295.71	24.90	-44.4	-45.5	21.5	0.00e+00	0	43	0	813694976	60	4097
2026-01-24 11:49:44.65	296.79	24.66	-44.0	-45.1	22.2	0.00e+00	0	43	0	821035008	59	4099
2026-01-24 11:49:48.69	297.86	24.40	-43.9	-44.9	22.3	0.00e+00	0	43	0	828375040	59	4048
2026-01-24 11:49:52.72	298.90	24.14	-44.3	-45.4	21.9	0.00e+00	0	43	0	835715072	59	4260
2026-01-24 11:49:56.75	299.93	23.88	-44.1	-45.2	22.1	0.00e+00	0	44	0	843055104	59	4154
2026-01-24 11:50:00.79	300.95	23.60	-44.5	-45.6	21.7	0.00e+00	0	44	0	851443712	59	4373
2026-01-24 11:50:04.82	301.94	23.32	-44.4	-45.5	21.8	0.00e+00	0	43	0	858783744	59	4316
2026-01-24 11:50:08.85	302.92	23.04	-45.3	-46.6	20.5	0.00e+00	0	43	0	866123776	61	4366
2026-01-24 11:50:12.89	303.88	22.75	-44.4	-45.5	21.5	0.00e+00	0	44	0	873463808	60	4087
2026-01-24 11:50:16.92	304.82	22.45	-44.3	-45.4	21.6	0.00e+00	0	43	0	881852416	60	4025
2026-01-24 11:50:20.95	305.75	22.15	-44.0	-45.1	22.1	0.00e+00	0	43	0	889192448	59	4122
2026-01-24 11:50:24.98	306.66	21.85	-44.9	-46.1	20.9	0.00e+00	0	43	0	896532480	60	4347
2026-01-24 11:50:29.01	307.55	21.54	-44.7	-45.8	21.2	0.00e+00	0	43	0	903872512	60	4231
2026-01-24 11:50:33.05	308.42	21.23	-44.9	-46.1	20.9	0.00e+00	0	43	0	911212544	60	4365
2026-01-24 11:50:37.08	309.28	20.92	-44.7	-45.9	21.0	0.00e+00	0	43	0	918552576	60	4281
2026-01-24 11:50:41.11	310.12	20.61	-46.0	-47.4	19.7	0.00e+00	0	43	0	926941184	62	4543
2026-01-24 11:50:45.14	310.94	20.29	-44.7	-45.9	21.0	0.00e+00	0	43	0	934281216	61	4014
2026-01-24 11:50:49.17	311.74	19.97	-44.6	-45.7	21.4	0.00e+00	0	43	0	941621248	59	4434
2026-01-24 11:50:53.20	312.53	19.66	-45.3	-46.6	20.4	0.00e+00	0	43	0	948961280	61	4342
2026-01-24 11:50:57.23	313.31	19.34	-45.1	-46.3	20.7	0.00e+00	0	43	0	957349888	61	4214
2026-01-24 11:51:01.26	314.07	19.01	-44.8	-46.0	20.9	0.00e+00	0	43	0	964689920	61	4075
2026-01-24 11:51:05.30	314.81	18.69	-44.3	-45.4	21.6	0.00e+00	0	43	0	972029952	59	4286
2026-01-24 11:51:09.33	315.54	18.37	-45.0	-46.2	20.6	0.00e+00	0	43	0	979369984	60	4436
2026-01-24 11:51:13.36	316.25	18.05	-44.2	-45.3	21.4	0.00e+00	0	43	0	986710016	60	3985
2026-01-24 11:51:17.39	316.95	17.73	-44.4	-45.6	21.2	0.00e+00	0	43	0	995098624	60	4104
2026-01-24 11:51:21.42	317.63	17.41	-45.1	-46.4	20.4	0.00e+00	0	43	0	1002438656	60	4509
2026-01-24 11:51:25.45	318.30	17.09	-44.2	-45.3	21.4	0.00e+00	0	43	0	1009778688	60	3984
2026-01-24 11:51:29.49	318.96	16.76	-44.6	-45.8	20.9	0.00e+00	0	43	0	1017118720	60	4236
2026-01-24 11:51:33.52	319.60	16.45	-44.5	-45.7	21.0	0.00e+00	0	43	0	1025507328	60	4178
2026-01-24 11:51:37.56	320.24	16.13	-44.5	-45.7	21.0	0.00e+00	0	43	0	1032847360	60	4163
2026-01-24 11:51:41.59	320.85	15.81	-45.8	-47.2	19.6	0.00e+00	0	43	0	1040187392	62	4421
2026-01-24 11:51:45.63	321.46	15.49	-45.6	-47.0	19.7	0.00e+00	0	43	0	1047527424	62	4340
2026-01-24 11:51:49.66	322.05	15.18	-45.2	-46.5	20.2	0.00e+00	0	43	0	1054867456	62	4081
2026-01-24 11:51:53.70	322.63	14.86	-44.6	-45.8	20.8	0.00e+00	0	43	0	1062207488	61	3993
2026-01-24 11:51:57.73	323.20	14.55	-44.2	-45.4	21.2	0.00e+00	0	43	0	1070596096	60	4005
2026-01-24 11:52:01.76	323.76	14.24	-44.7	-45.9	20.7	0.00e+00	0	43	0	1077936128	60	4258
2026-01-24 11:52:05.80	324.31	13.93	-45.5	-47.0	19.7	0.00e+00	0	43	0	1085276160	61	4548
2026-01-24 11:52:09.83	324.84	13.62	-46.1	-47.7	19.0	0.00e+00	0	43	0	1092616192	62	4664
2026-01-24 11:52:13.87	325.37	13.31	-45.6	-47.1	19.5	0.00e+00	0	43	0	1101004800	62	4358
2026-01-24 11:52:17.90	325.88	13.01	-45.2	-46.6	20.0	0.00e+00	0	43	0	1108344832	62	4127
2026-01-24 11:52:21.93	326.39	12.71	-45.1	-46.5	20.1	0.00e+00	0	43	0	1115684864	62	4065
2026-01-24 11:52:25.96	326.88	12.41	-45.3	-46.7	19.9	0.00e+00	0	43	0	1123024896	62	4157
2026-01-24 11:52:29.99	327.37	12.11	-45.2	-46.6	19.9	0.00e+00	0	43	0	1130364928	62	4124
2026-01-24 11:52:34.03	327.84	11.81	-45.6	-47.1	19.5	0.00e+00	0	43	0	1138753536	62	4348
2026-01-24 11:52:38.06	328.31	11.52	-46.0	-47.6	19.0	0.00e+00	0	43	0	1146093568	62	4599
2026-01-24 11:52:42.09	328.77	11.22	-46.6	-48.3	18.2	0.00e+00	0	43	0	1153433600	63	4758
2026-01-24 11:52:46.12	329.22	10.93	-46.4	-48.1	18.4	0.00e+00	0	43	0	1160773632	64	4354
2026-01-24 11:52:50.15	329.66	10.64	-46.3	-47.9	18.6	0.00e+00	0	43	0	1168113664	63	4532
2026-01-24 11:52:54.19	330.09	10.36	-45.9	-47.4	19.0	0.00e+00	0	43	0	1176502272	63	4268
2026-01-24 11:52:58.22	330.51	10.07	-45.9	-47.5	19.0	0.00e+00	0	43	0	1183842304	63	4297
2026-01-24 11:53:02.23	330.93	9.79	-45.7	-47.2	19.2	0.00e+00	0	43	0	1191182336	63	4149
2026-01-24 11:53:06.27	331.34	9.51	-45.5	-47.0	19.3	0.00e+00	0	43	0	1198522368	62	4311
2026-01-24 11:53:10.30	331.74	9.23	-45.9	-47.4	18.9	0.00e+00	0	43	0	1205862400	62	4525
2026-01-24 11:53:14.33	332.14	8.95	-46.6	-48.3	17.9	0.00e+00	0	43	0	1214251008	64	4493
2026-01-24 11:53:18.36	332.52	8.67	-47.1	-49.0	17.3	0.00e+00	0	43	0	1221591040	64	4860
2026-01-24 11:53:22.40	332.90	8.40	-46.7	-48.5	17.7	0.00e+00	0	43	0	1228931072	64	4567
2026-01-24 11:53:26.43	333.28	8.13	-46.4	-48.1	18.1	0.00e+00	0	43	0	1236271104	64	4364
2026-01-24 11:53:30.46	333.65	7.86	-46.4	-48.1	18.0	0.00e+00	0	43	0	1244659712	64	4379
2026-01-24 11:53:34.50	334.01	7.59	-46.7	-48.5	17.6	0.00e+00	0	43	0	1251999744	64	4594
2026-01-24 11:53:38.53	334.36	7.33	-47.3	-49.4	16.7	0.00e+00	0	43	0	1259339776	65	4811
2026-01-24 11:53:42.56	334.71	7.06	-47.8	-50.2	16.0	0.00e+00	0	43	0	1266679808	66	4947
2026-01-24 11:53:46.60	335.05	6.80	-47.1	-49.2	16.9	0.00e+00	0	43	0	1274019840	66	4408
2026-01-24 11:53:50.63	335.39	6.54	-46.6	-48.5	17.5	0.00e+00	0	43	0	1282408448	65	4298
2026-01-24 11:53:54.66	335.72	6.28	-46.6	-48.5	17.5	0.00e+00	0	43	0	1289748480	64	4549
2026-01-24 11:53:58.70	336.05	6.03	-46.5	-48.4	17.5	0.00e+00	0	43	0	1297088512	64	4540
2026-01-24 11:54:02.73	336.37	5.77	-46.7	-48.7	17.2	0.00e+00	0	43	0	1304428544	64	4674
2026-01-24 11:54:06.77	336.69	5.52	-46.5	-48.5	17.4	0.00e+00	0	43	0	1311768576	64	4554
2026-01-24 11:54:10.81	337.00	5.27	-46.7	-48.7	17.1	0.00e+00	0	43	0	1320157184	64	4664
2026-01-24 11:54:14.84	337.30	5.02	-46.9	-49.0	16.7	0.00e+00	0	43	0	1327497216	64	4868
2026-01-24 11:54:18.87	337.61	4.77	-53.2	-68.1	3.8	1.49e+00	0	43	104	1328545792	76	21906
2026-01-24 11:54:22.90	337.90	4.52	-53.8	-68.8	3.8	1.49e+00	0	43	104	1328545792	78	21131
2026-01-24 11:54:26.93	338.19	4.28	-54.1	-69.1	3.8	1.49e+00	0	43	104	1328545792	78	21780
2026-01-24 11:54:30.97	338.48	4.04	-54.2	-69.3	3.8	1.49e+00	0	43	104	1328545792	79	21037
2026-01-24 11:54:35.00	338.76	3.79	-54.2	-69.2	3.8	1.49e+00	0	43	104	1328545792	79	20954
2026-01-24 11:54:39.03	339.04	3.55	-54.1	-69.1	3.8	1.49e+00	0	43	104	1328545792	79	20679
2026-01-24 11:54:43.07	339.32	3.32	-54.0	-69.0	3.8	1.49e+00	0	43	104	1328545792	79	20317
2026-01-24 11:54:47.10	339.59	3.08	-53.9	-68.9	3.8	1.49e+00	0	44	104	1328545792	79	20194
2026-01-24 11:54:51.13	339.85	2.85	-53.9	-68.9	3.8	1.49e+00	0	43	104	1328545792	79	20102
2026-01-24 11:54:55.17	340.12	2.61	-53.8	-68.8	3.8	1.49e+00	0	43	104	1328545792	79	20053
2026-01-24 11:54:59.20	340.37	2.38	-53.8	-68.8	3.8	1.49e+00	0	43	104	1328545792	79	20048
2026-01-24 11:55:03.22	340.63	2.15	-53.8	-68.8	3.8	1.49e+00	0	43	104	1328545792	79	20001
2026-01-24 11:55:07.26	340.88	1.92	-53.8	-68.8	3.8	1.49e+00	0	43	104	1328545792	79	19919

#Closed at: 2026-01-24 11:55:08
#Recorded file [1328 MB]: D:/lorett/data/31041_260124_144144.dat