passes_logs/2026/01/24/R3.2S_Murmansk/R3.2S_Murmansk__20260124_014301_SUOMI_NPP_rec.log

#Pass ID: 20260124_014301_SUOMI NPP
#Satellite: SUOMI NPP
#Configuration: NPP
#almurnet v.1.7.20251203
#Start time: 2026-01-24 01:43:02

#Version: 2.2.20231116
#Station: R3.2S_Murmansk
#Location: 33.079688 lon 68.888172 lat
#TLE: 1 37849U 11061A   26023.63275593  .00000212  00000+0  12133-3 0  9990
#TLE: 2 37849  98.7820 325.6074 0002234  48.9695 311.1673 14.19528901737937

#Time	Az	El	Level	Level2	SNR	BER	BlckErr	Temp	State	Recorded	gain1	gain2
2026-01-24 01:43:02.56	28.78	2.04	-53.7	-68.7	3.8	1.49e+00	0	41	0	0	78	20827
2026-01-24 01:43:06.59	28.70	2.30	-53.7	-68.7	3.8	1.49e+00	0	41	104	0	77	22009
2026-01-24 01:43:10.63	28.62	2.56	-53.7	-68.6	3.8	1.49e+00	0	41	104	0	77	22006
2026-01-24 01:43:14.66	28.53	2.82	-53.7	-68.7	3.8	1.49e+00	0	41	104	0	77	22043
2026-01-24 01:43:18.70	28.45	3.08	-53.7	-68.7	3.8	1.49e+00	0	42	104	0	77	22049
2026-01-24 01:43:22.73	28.36	3.35	-53.6	-68.6	3.8	1.49e+00	0	42	104	0	77	21945
2026-01-24 01:43:26.77	28.27	3.62	-53.6	-68.7	3.8	1.49e+00	0	41	104	0	77	22034
2026-01-24 01:43:30.80	28.17	3.89	-53.6	-68.6	3.8	1.49e+00	0	42	104	0	77	21962
2026-01-24 01:43:34.84	28.08	4.16	-53.6	-68.6	3.8	1.49e+00	0	42	104	0	77	21920
2026-01-24 01:43:38.87	27.98	4.43	-53.6	-68.6	3.8	1.49e+00	0	42	104	0	77	21926
2026-01-24 01:43:42.91	27.88	4.71	-53.6	-68.6	3.8	1.49e+00	0	42	104	0	77	21956
2026-01-24 01:43:46.94	27.78	5.00	-53.6	-68.6	3.8	1.49e+00	0	42	104	0	77	21914
2026-01-24 01:43:50.97	27.68	5.28	-53.6	-68.6	3.8	1.49e+00	0	42	104	0	77	21961
2026-01-24 01:43:55.00	27.57	5.57	-53.6	-68.6	3.8	1.49e+00	0	42	104	0	77	21928
2026-01-24 01:43:59.04	27.46	5.86	-53.6	-68.6	3.8	1.49e+00	0	42	104	0	77	21946
2026-01-24 01:44:03.08	27.35	6.15	-53.6	-68.6	3.8	1.49e+00	0	42	104	0	77	21967
2026-01-24 01:44:07.11	27.24	6.45	-53.6	-68.6	3.8	1.49e+00	0	42	104	0	77	21918
2026-01-24 01:44:11.14	27.12	6.75	-53.6	-68.6	3.8	1.49e+00	0	43	104	0	77	21945
2026-01-24 01:44:15.17	27.00	7.05	-53.6	-68.6	3.8	1.49e+00	0	43	104	0	77	21888
2026-01-24 01:44:19.21	26.88	7.36	-53.6	-68.6	3.8	1.49e+00	0	43	104	0	77	21874
2026-01-24 01:44:23.24	26.76	7.67	-53.6	-68.6	3.8	1.49e+00	0	43	104	0	77	21883
2026-01-24 01:44:27.28	26.63	7.98	-53.6	-68.6	3.8	1.49e+00	0	43	104	0	77	21902
2026-01-24 01:44:31.31	26.50	8.30	-53.6	-68.6	3.8	1.49e+00	0	43	104	0	77	21874
2026-01-24 01:44:35.34	26.36	8.62	-53.6	-68.6	3.8	1.49e+00	0	43	104	0	77	21881
2026-01-24 01:44:39.37	26.23	8.95	-53.6	-68.6	3.8	1.49e+00	0	43	104	0	77	21878
2026-01-24 01:44:43.41	26.08	9.28	-53.6	-68.6	3.8	1.49e+00	0	43	104	0	77	21855
2026-01-24 01:44:47.44	25.94	9.61	-53.6	-68.6	3.8	1.49e+00	0	43	104	0	77	21923
2026-01-24 01:44:51.48	25.79	9.95	-53.6	-68.6	3.8	1.49e+00	0	43	104	0	77	21855
2026-01-24 01:44:55.51	25.64	10.30	-53.6	-68.6	3.8	1.49e+00	0	43	104	0	77	21910
2026-01-24 01:44:59.55	25.48	10.65	-53.6	-68.6	3.8	1.49e+00	0	43	104	0	77	21854
2026-01-24 01:45:03.56	25.32	11.00	-53.6	-68.6	3.8	1.49e+00	0	43	104	0	77	21880
2026-01-24 01:45:07.59	25.16	11.35	-53.6	-68.6	3.8	1.49e+00	0	43	104	0	77	21829
2026-01-24 01:45:11.62	24.99	11.72	-53.6	-68.6	3.8	1.49e+00	0	43	104	0	77	21847
2026-01-24 01:45:15.66	24.81	12.08	-53.6	-68.6	3.8	1.49e+00	0	43	104	0	77	21818
2026-01-24 01:45:19.69	24.63	12.46	-53.6	-68.6	3.8	1.49e+00	0	43	104	0	77	21971
2026-01-24 01:45:23.72	24.45	12.83	-53.6	-68.6	3.8	1.49e+00	0	43	104	0	77	21788
2026-01-24 01:45:27.75	24.26	13.22	-53.6	-68.6	3.8	1.49e+00	0	43	104	0	77	21796
2026-01-24 01:45:31.79	24.06	13.61	-53.6	-68.6	3.8	1.49e+00	0	43	104	0	77	21760
2026-01-24 01:45:35.82	23.86	14.00	-53.6	-68.6	3.8	1.49e+00	0	43	104	0	77	21813
2026-01-24 01:45:39.85	23.66	14.41	-53.6	-68.6	3.8	1.49e+00	0	43	104	0	77	21769
2026-01-24 01:45:43.88	23.45	14.81	-53.6	-68.6	3.8	1.49e+00	0	43	104	0	77	21768
2026-01-24 01:45:47.92	23.23	15.23	-53.6	-68.6	3.8	1.49e+00	0	43	104	0	77	21798
2026-01-24 01:45:51.96	23.00	15.65	-53.6	-68.6	3.8	1.49e+00	0	43	104	0	77	21773
2026-01-24 01:45:55.99	22.77	16.08	-53.6	-68.5	3.8	1.49e+00	0	43	104	0	77	21744
2026-01-24 01:46:00.02	22.53	16.51	-53.6	-68.5	3.8	1.49e+00	0	43	104	0	77	21755
2026-01-24 01:46:04.06	22.28	16.96	-53.6	-68.5	3.8	1.49e+00	0	43	104	0	77	21744
2026-01-24 01:46:08.10	22.02	17.41	-53.6	-68.6	3.8	1.49e+00	0	43	104	0	77	21840
2026-01-24 01:46:12.13	21.76	17.87	-53.6	-68.6	3.8	1.49e+00	0	43	104	0	77	21763
2026-01-24 01:46:16.17	21.49	18.33	-53.6	-68.6	3.8	1.49e+00	0	43	104	0	77	21827
2026-01-24 01:46:20.20	21.21	18.81	-53.6	-68.6	3.8	1.49e+00	0	44	104	0	77	21835
2026-01-24 01:46:24.24	20.92	19.29	-53.6	-68.6	3.8	1.49e+00	0	43	104	0	77	21817
2026-01-24 01:46:28.27	20.62	19.78	-53.6	-68.6	3.8	1.49e+00	0	43	104	0	77	21810
2026-01-24 01:46:32.31	20.30	20.28	-53.6	-68.5	3.8	1.49e+00	0	43	104	0	77	21729
2026-01-24 01:46:36.34	19.98	20.79	-53.6	-68.6	3.8	1.49e+00	0	44	104	0	77	21799
2026-01-24 01:46:40.38	19.65	21.31	-53.6	-68.5	3.8	1.49e+00	0	43	104	0	77	21748
2026-01-24 01:46:44.41	19.30	21.84	-53.6	-68.6	3.8	1.49e+00	0	43	104	0	77	21789
2026-01-24 01:46:48.45	18.94	22.38	-53.6	-68.6	3.8	1.49e+00	0	43	104	0	77	21814
2026-01-24 01:46:52.48	18.57	22.93	-53.6	-68.6	3.8	1.49e+00	0	44	104	0	77	21804
2026-01-24 01:46:56.51	18.19	23.49	-53.6	-68.6	3.8	1.49e+00	0	44	104	0	77	21822
2026-01-24 01:47:00.54	17.79	24.06	-53.6	-68.6	3.8	1.49e+00	0	43	104	0	77	21799
2026-01-24 01:47:04.57	17.37	24.64	-53.6	-68.6	3.8	1.49e+00	0	44	104	0	77	21783
2026-01-24 01:47:08.61	16.94	25.24	-53.6	-68.6	3.8	1.49e+00	0	44	104	0	77	21777
2026-01-24 01:47:12.64	16.49	25.84	-53.6	-68.6	3.8	1.49e+00	0	43	104	0	77	21813
2026-01-24 01:47:16.67	16.03	26.46	-53.6	-68.5	3.8	1.49e+00	0	44	104	0	77	21748
2026-01-24 01:47:20.70	15.54	27.08	-53.6	-68.6	3.8	1.49e+00	0	43	104	0	77	21864
2026-01-24 01:47:24.74	15.03	27.73	-53.6	-68.6	3.8	1.49e+00	0	44	104	0	77	21822
2026-01-24 01:47:28.77	14.50	28.38	-53.6	-68.6	3.8	1.49e+00	0	43	104	0	77	21778
2026-01-24 01:47:32.81	13.95	29.05	-53.6	-68.6	3.8	1.49e+00	0	43	104	0	77	21771
2026-01-24 01:47:36.84	13.38	29.73	-53.6	-68.6	3.8	1.49e+00	0	44	104	0	77	21762
2026-01-24 01:47:40.87	12.78	30.42	-53.6	-68.5	3.8	1.49e+00	0	43	104	0	77	21741
2026-01-24 01:47:44.91	12.15	31.13	-53.6	-68.6	3.8	1.49e+00	0	43	104	0	77	21765
2026-01-24 01:47:48.94	11.49	31.84	-53.6	-68.6	3.8	1.49e+00	0	44	104	0	77	21768
2026-01-24 01:47:52.98	10.80	32.58	-53.6	-68.6	3.8	1.49e+00	0	44	104	0	77	21765
2026-01-24 01:47:57.02	10.08	33.32	-53.6	-68.5	3.8	1.49e+00	0	44	104	0	77	21744
2026-01-24 01:48:01.05	9.32	34.08	-53.6	-68.5	3.8	1.49e+00	0	44	104	0	77	21689
2026-01-24 01:48:05.08	8.53	34.85	-53.6	-68.5	3.8	1.49e+00	0	43	104	0	77	21724
2026-01-24 01:48:09.12	7.70	35.64	-53.6	-68.5	3.8	1.49e+00	0	43	104	0	77	21734
2026-01-24 01:48:13.14	6.83	36.43	-53.5	-68.5	3.8	1.49e+00	0	43	104	0	77	21745
2026-01-24 01:48:17.17	5.91	37.24	-53.5	-68.6	3.8	1.49e+00	0	43	104	0	77	21765
2026-01-24 01:48:21.21	4.94	38.06	-53.6	-68.5	3.8	1.49e+00	0	43	104	0	77	21725
2026-01-24 01:48:25.24	3.93	38.89	-53.5	-68.5	3.8	1.49e+00	0	43	104	0	77	21754
2026-01-24 01:48:29.27	2.85	39.73	-53.6	-68.6	3.8	1.49e+00	0	43	104	0	77	21756
2026-01-24 01:48:33.30	1.73	40.57	-53.6	-68.5	3.8	1.49e+00	0	43	104	0	77	21711
2026-01-24 01:48:37.33	0.54	41.43	-53.6	-68.6	3.8	1.49e+00	0	43	104	0	77	21761
2026-01-24 01:48:41.37	359.28	42.29	-53.6	-68.5	3.8	1.49e+00	0	43	104	0	77	21712
2026-01-24 01:48:45.40	357.95	43.15	-53.6	-68.5	3.8	1.49e+00	0	43	104	0	77	21734
2026-01-24 01:48:49.43	356.56	44.01	-53.6	-68.6	3.8	1.49e+00	0	43	104	0	77	21777
2026-01-24 01:48:53.46	355.08	44.87	-53.5	-68.5	3.8	1.49e+00	0	43	104	0	77	21719
2026-01-24 01:48:57.49	353.52	45.73	-53.5	-68.5	3.8	1.49e+00	0	43	104	0	77	21709
2026-01-24 01:49:01.53	351.87	46.58	-53.5	-68.5	3.8	1.49e+00	0	43	104	0	77	21661
2026-01-24 01:49:05.56	350.13	47.43	-53.5	-68.6	3.8	1.49e+00	0	43	104	0	77	21757
2026-01-24 01:49:09.59	348.29	48.25	-53.6	-68.5	3.8	1.49e+00	0	43	104	0	77	21732
2026-01-24 01:49:13.62	346.35	49.06	-53.6	-68.5	3.8	1.49e+00	0	43	104	0	77	21721
2026-01-24 01:49:17.65	344.31	49.85	-53.5	-68.5	3.8	1.49e+00	0	43	104	0	77	21633
2026-01-24 01:49:21.69	342.16	50.60	-53.5	-68.5	3.8	1.49e+00	0	43	104	0	77	21745
2026-01-24 01:49:25.72	339.90	51.33	-53.5	-68.5	3.8	1.49e+00	0	43	104	0	77	21692
2026-01-24 01:49:29.75	337.53	52.01	-53.5	-68.5	3.8	1.49e+00	0	43	104	0	77	21722
2026-01-24 01:49:33.79	335.05	52.66	-53.5	-68.6	3.8	1.49e+00	0	43	104	0	77	21778
2026-01-24 01:49:37.83	332.46	53.25	-53.5	-68.5	3.8	1.49e+00	0	43	104	0	77	21728
2026-01-24 01:49:41.86	329.78	53.79	-53.5	-68.6	3.8	1.49e+00	0	43	104	0	77	21762
2026-01-24 01:49:45.90	326.99	54.26	-53.6	-68.5	3.8	1.49e+00	0	43	104	0	77	21700
2026-01-24 01:49:49.93	324.12	54.67	-53.5	-68.5	3.8	1.49e+00	0	43	104	0	77	21701
2026-01-24 01:49:53.96	321.17	55.01	-53.5	-68.5	3.8	1.49e+00	0	43	104	0	77	21679
2026-01-24 01:49:58.00	318.15	55.27	-53.5	-68.5	3.8	1.49e+00	0	43	104	0	77	21719
2026-01-24 01:50:02.04	315.09	55.45	-53.5	-68.5	3.8	1.49e+00	0	43	104	0	77	21699
2026-01-24 01:50:06.07	312.00	55.55	-53.5	-68.5	3.8	1.49e+00	0	43	104	0	77	21633
2026-01-24 01:50:10.11	308.89	55.57	-53.5	-68.5	3.8	1.49e+00	0	43	104	0	77	21719
2026-01-24 01:50:14.14	305.80	55.50	-53.5	-68.5	3.8	1.49e+00	0	43	104	0	77	21675
2026-01-24 01:50:18.17	302.72	55.36	-53.5	-68.5	3.8	1.49e+00	0	43	104	0	77	21678
2026-01-24 01:50:22.21	299.68	55.13	-53.5	-68.5	3.8	1.49e+00	0	43	104	0	77	21674
2026-01-24 01:50:26.24	296.71	54.82	-53.5	-68.5	3.8	1.49e+00	0	43	104	0	77	21716
2026-01-24 01:50:30.28	293.79	54.45	-53.5	-68.5	3.8	1.49e+00	0	43	104	0	77	21699
2026-01-24 01:50:34.31	290.97	54.00	-53.5	-68.5	3.8	1.49e+00	0	43	104	0	77	21546
2026-01-24 01:50:38.34	288.24	53.49	-53.5	-68.5	3.8	1.49e+00	0	43	104	0	77	21699
2026-01-24 01:50:42.38	285.60	52.92	-53.5	-68.5	3.8	1.49e+00	0	43	104	0	77	21718
2026-01-24 01:50:46.41	283.08	52.30	-53.5	-68.5	3.8	1.49e+00	0	43	104	0	77	21703
2026-01-24 01:50:50.44	280.66	51.63	-53.5	-68.5	3.8	1.49e+00	0	43	104	0	77	21715
2026-01-24 01:50:54.48	278.35	50.92	-53.5	-68.5	3.8	1.49e+00	0	43	104	0	77	21735
2026-01-24 01:50:58.51	276.15	50.18	-53.5	-68.5	3.8	1.49e+00	0	43	104	0	77	21669
2026-01-24 01:51:02.54	274.06	49.40	-53.5	-68.5	3.8	1.49e+00	0	43	104	0	77	21612
2026-01-24 01:51:06.57	272.07	48.60	-53.5	-68.5	3.8	1.49e+00	0	43	104	0	77	21699
2026-01-24 01:51:10.61	270.19	47.78	-53.5	-68.5	3.8	1.49e+00	0	43	104	0	77	21694
2026-01-24 01:51:14.64	268.40	46.94	-53.5	-68.5	3.8	1.49e+00	0	43	104	0	77	21678
2026-01-24 01:51:18.68	266.71	46.09	-53.5	-68.5	3.8	1.49e+00	0	43	104	0	77	21752
2026-01-24 01:51:22.71	265.11	45.23	-53.5	-68.5	3.8	1.49e+00	0	43	104	0	77	21675
2026-01-24 01:51:26.74	263.59	44.37	-53.5	-68.5	3.8	1.49e+00	0	43	104	0	77	21661
2026-01-24 01:51:30.78	262.15	43.51	-53.5	-68.5	3.8	1.49e+00	0	43	104	0	77	21737
2026-01-24 01:51:34.81	260.79	42.64	-53.5	-68.5	3.8	1.49e+00	0	43	104	0	77	21700
2026-01-24 01:51:38.84	259.51	41.78	-53.5	-68.5	3.8	1.49e+00	0	43	104	0	77	21697
2026-01-24 01:51:42.88	258.29	40.92	-53.5	-68.5	3.8	1.49e+00	0	43	104	0	77	21753
2026-01-24 01:51:46.91	257.13	40.07	-53.5	-68.5	3.8	1.49e+00	0	43	104	0	77	21664
2026-01-24 01:51:50.94	256.03	39.22	-53.5	-68.5	3.8	1.49e+00	0	44	104	0	77	21662
2026-01-24 01:51:54.97	254.99	38.39	-53.5	-68.5	3.8	1.49e+00	0	43	104	0	77	21744
2026-01-24 01:51:59.00	254.00	37.56	-53.5	-68.5	3.8	1.49e+00	0	43	104	0	77	21738
2026-01-24 01:52:03.03	253.06	36.75	-53.5	-68.5	3.8	1.49e+00	0	43	104	0	77	21670
2026-01-24 01:52:07.06	252.17	35.95	-53.5	-68.5	3.8	1.49e+00	0	43	104	0	77	21683
2026-01-24 01:52:11.09	251.32	35.16	-53.5	-68.5	3.8	1.49e+00	0	43	104	0	77	21686
2026-01-24 01:52:15.13	250.51	34.38	-53.5	-68.5	3.8	1.49e+00	0	43	104	0	77	21688
2026-01-24 01:52:19.16	249.73	33.61	-53.5	-68.5	3.8	1.49e+00	0	44	104	0	77	21742
2026-01-24 01:52:23.20	248.99	32.86	-53.5	-68.5	3.8	1.49e+00	0	43	104	0	77	21671
2026-01-24 01:52:27.24	248.29	32.12	-53.5	-68.5	3.8	1.49e+00	0	43	104	0	77	21723
2026-01-24 01:52:31.27	247.62	31.39	-53.5	-68.5	3.8	1.49e+00	0	43	104	0	77	21682
2026-01-24 01:52:35.30	246.98	30.68	-53.5	-68.5	3.8	1.49e+00	0	43	104	0	77	21648
2026-01-24 01:52:39.34	246.36	29.98	-53.5	-68.5	3.8	1.49e+00	0	43	104	0	77	21679
2026-01-24 01:52:43.37	245.77	29.29	-53.5	-68.5	3.8	1.49e+00	0	43	104	0	77	21696
2026-01-24 01:52:47.40	245.21	28.62	-53.5	-68.5	3.8	1.49e+00	0	43	104	0	77	21691
2026-01-24 01:52:51.43	244.67	27.96	-53.5	-68.5	3.8	1.49e+00	0	43	104	0	77	21663
2026-01-24 01:52:55.47	244.15	27.31	-53.5	-68.5	3.8	1.49e+00	0	43	104	0	77	21691
2026-01-24 01:52:59.50	243.66	26.67	-53.5	-68.5	3.8	1.49e+00	0	43	104	0	77	21721
2026-01-24 01:53:03.53	243.18	26.05	-53.5	-68.5	3.8	1.49e+00	0	43	104	0	77	21671
2026-01-24 01:53:07.57	242.72	25.44	-53.5	-68.5	3.8	1.49e+00	0	43	104	0	77	21677
2026-01-24 01:53:11.60	242.28	24.84	-53.5	-68.5	3.8	1.49e+00	0	43	104	0	77	21747
2026-01-24 01:53:15.64	241.86	24.25	-53.5	-68.5	3.8	1.49e+00	0	43	104	0	77	21658
2026-01-24 01:53:19.67	241.45	23.67	-53.5	-68.5	3.8	1.49e+00	0	43	104	0	77	21650
2026-01-24 01:53:23.70	241.05	23.11	-53.5	-68.5	3.8	1.49e+00	0	43	104	0	77	21673
2026-01-24 01:53:27.74	240.68	22.55	-53.5	-68.5	3.8	1.49e+00	0	43	104	0	77	21729
2026-01-24 01:53:31.77	240.31	22.01	-53.5	-68.5	3.8	1.49e+00	0	43	104	0	77	21679
2026-01-24 01:53:35.80	239.96	21.48	-53.5	-68.5	3.8	1.49e+00	0	43	104	0	77	21709
2026-01-24 01:53:39.83	239.62	20.95	-53.5	-68.5	3.8	1.49e+00	0	43	104	0	77	21644
2026-01-24 01:53:43.87	239.29	20.44	-53.5	-68.5	3.8	1.49e+00	0	43	104	0	77	21646
2026-01-24 01:53:47.90	238.97	19.93	-53.5	-68.5	3.8	1.49e+00	0	43	104	0	77	21652
2026-01-24 01:53:51.93	238.67	19.43	-53.5	-68.5	3.8	1.49e+00	0	43	104	0	77	21670
2026-01-24 01:53:55.96	238.37	18.95	-53.5	-68.5	3.8	1.49e+00	0	43	104	0	77	21673
2026-01-24 01:53:59.99	238.08	18.47	-53.5	-68.5	3.8	1.49e+00	0	43	104	0	77	21699
2026-01-24 01:54:04.03	237.80	18.00	-53.5	-68.5	3.8	1.49e+00	0	43	104	0	77	21689
2026-01-24 01:54:08.06	237.54	17.54	-53.5	-68.5	3.8	1.49e+00	0	43	104	0	77	21636
2026-01-24 01:54:12.08	237.28	17.08	-53.5	-68.5	3.8	1.49e+00	0	43	104	0	77	21675
2026-01-24 01:54:16.12	237.02	16.64	-53.5	-68.5	3.8	1.49e+00	0	43	104	0	77	21604
2026-01-24 01:54:20.15	236.78	16.20	-53.5	-68.5	3.8	1.49e+00	0	43	104	0	77	21688
2026-01-24 01:54:24.19	236.54	15.76	-53.5	-68.5	3.8	1.49e+00	0	43	104	0	77	21652
2026-01-24 01:54:28.22	236.31	15.34	-53.5	-68.5	3.8	1.49e+00	0	43	104	0	77	21684
2026-01-24 01:54:32.26	236.09	14.92	-53.5	-68.5	3.8	1.49e+00	0	44	104	0	77	21665
2026-01-24 01:54:36.30	235.87	14.51	-53.5	-68.5	3.8	1.49e+00	0	43	104	0	77	21708
2026-01-24 01:54:40.33	235.66	14.10	-53.5	-68.5	3.8	1.49e+00	0	43	104	0	77	21688
2026-01-24 01:54:44.36	235.45	13.70	-53.5	-68.5	3.8	1.49e+00	0	43	104	0	77	21689
2026-01-24 01:54:48.39	235.25	13.31	-53.5	-68.5	3.8	1.49e+00	0	43	104	0	77	21680
2026-01-24 01:54:52.43	235.06	12.92	-53.5	-68.5	3.8	1.49e+00	0	43	104	0	77	21705
2026-01-24 01:54:56.46	234.87	12.54	-53.5	-68.5	3.8	1.49e+00	0	43	104	0	77	21684
2026-01-24 01:55:00.50	234.69	12.17	-53.5	-68.5	3.8	1.49e+00	0	43	104	0	77	21651
2026-01-24 01:55:04.53	234.51	11.80	-53.5	-68.5	3.8	1.49e+00	0	43	104	0	77	21699
2026-01-24 01:55:08.57	234.33	11.43	-53.5	-68.5	3.8	1.49e+00	0	43	104	0	77	21652
2026-01-24 01:55:12.60	234.17	11.07	-53.5	-68.5	3.8	1.49e+00	0	43	104	0	77	21649
2026-01-24 01:55:16.63	234.00	10.72	-53.5	-68.5	3.8	1.49e+00	0	43	104	0	77	21701
2026-01-24 01:55:20.66	233.84	10.37	-53.5	-68.5	3.8	1.49e+00	0	43	104	0	77	21692
2026-01-24 01:55:24.69	233.68	10.02	-53.5	-68.5	3.8	1.49e+00	0	43	104	0	77	21634
2026-01-24 01:55:28.73	233.53	9.68	-53.5	-68.5	3.8	1.49e+00	0	43	104	0	77	21608
2026-01-24 01:55:32.77	233.38	9.34	-53.5	-68.5	3.8	1.49e+00	0	43	104	0	77	21686
2026-01-24 01:55:36.80	233.24	9.01	-53.5	-68.5	3.8	1.49e+00	0	43	104	0	77	21682
2026-01-24 01:55:40.83	233.10	8.68	-53.5	-68.5	3.8	1.49e+00	0	44	104	0	77	21699
2026-01-24 01:55:44.86	232.96	8.36	-53.5	-68.5	3.8	1.49e+00	0	43	104	0	77	21660
2026-01-24 01:55:48.89	232.82	8.04	-53.5	-68.5	3.8	1.49e+00	0	44	104	0	77	21657
2026-01-24 01:55:52.93	232.69	7.72	-53.5	-68.5	3.8	1.49e+00	0	43	104	0	77	21614
2026-01-24 01:55:56.96	232.56	7.41	-53.5	-68.5	3.8	1.49e+00	0	43	104	0	77	21584
2026-01-24 01:56:00.99	232.44	7.10	-53.5	-68.5	3.8	1.49e+00	0	43	104	0	77	21662
2026-01-24 01:56:05.02	232.31	6.79	-53.5	-68.5	3.8	1.49e+00	0	44	104	0	77	21611
2026-01-24 01:56:09.05	232.19	6.49	-53.5	-68.5	3.8	1.49e+00	0	43	104	0	77	21707
2026-01-24 01:56:13.08	232.08	6.19	-53.5	-68.5	3.8	1.49e+00	0	43	104	0	77	21580
2026-01-24 01:56:17.12	231.96	5.90	-53.5	-68.5	3.8	1.49e+00	0	43	104	0	77	21713
2026-01-24 01:56:21.15	231.85	5.61	-53.5	-68.5	3.8	1.49e+00	0	43	104	0	77	21655
2026-01-24 01:56:25.18	231.74	5.32	-53.5	-68.5	3.8	1.49e+00	0	43	104	0	77	21649
2026-01-24 01:56:29.22	231.63	5.03	-53.5	-68.5	3.8	1.49e+00	0	44	104	0	77	21718
2026-01-24 01:56:33.26	231.53	4.75	-53.5	-68.5	3.8	1.49e+00	0	43	104	0	77	21681
2026-01-24 01:56:37.29	231.43	4.47	-53.5	-68.5	3.8	1.49e+00	0	43	104	0	77	21723
2026-01-24 01:56:41.32	231.33	4.19	-53.5	-68.5	3.8	1.49e+00	0	43	104	0	77	21666
2026-01-24 01:56:45.36	231.23	3.91	-53.5	-68.5	3.8	1.49e+00	0	43	104	0	77	21708
2026-01-24 01:56:49.39	231.13	3.64	-53.5	-68.5	3.8	1.49e+00	0	43	104	0	77	21651
2026-01-24 01:56:53.42	231.04	3.37	-53.5	-68.5	3.8	1.49e+00	0	44	104	0	77	21668
2026-01-24 01:56:57.46	230.95	3.11	-53.5	-68.5	3.8	1.49e+00	0	43	104	0	77	21631
2026-01-24 01:57:01.49	230.86	2.84	-53.5	-68.5	3.8	1.49e+00	0	43	104	0	77	21584
2026-01-24 01:57:05.52	230.77	2.58	-53.5	-68.5	3.8	1.49e+00	0	43	104	0	77	21662
2026-01-24 01:57:09.55	230.68	2.32	-53.5	-68.5	3.8	1.49e+00	0	43	104	0	77	21656
2026-01-24 01:57:13.58	230.59	2.06	-53.5	-68.5	3.8	1.49e+00	0	43	104	0	77	21676

#Closed at: 2026-01-24 01:57:17
#Recorded file [0 MB]: D:/lorett/data/31041_260124_044302.dat