passes_logs/2026/01/24/R3.2S_Murmansk/R3.2S_Murmansk__20260124_201629_TY-39_rec.log

#Pass ID: 20260124_201629_TY-39
#Satellite: TY-39
#Configuration: TY-39
#almurnet v.1.7.20251203
#Start time: 2026-01-24 20:16:30

#Version: 2.2.20231116
#Station: R3.2S_Murmansk
#Location: 33.079688 lon 68.888172 lat
#TLE: 1 51832U 22019J   26023.97945810  .00002735  00000-0  13114-3 0  9999
#TLE: 2 51832  97.3628  90.4494 0009158  24.5204 335.6465 15.19705812215892

#Time	Az	El	Level	Level2	SNR	BER	BlckErr	Temp	State	Recorded	gain1	gain2
2026-01-24 20:16:30.15	216.93	2.08	-52.6	-54.7	3.7	0.00e+00	0	46	0	0	75	19882
2026-01-24 20:16:33.18	217.24	2.25	-52.6	-54.7	3.7	0.00e+00	0	46	104	0	75	19813
2026-01-24 20:16:36.20	217.56	2.43	-52.6	-54.7	3.7	0.00e+00	0	46	104	0	75	19814
2026-01-24 20:16:39.22	217.89	2.61	-52.6	-54.7	3.7	0.00e+00	0	47	104	0	75	19833
2026-01-24 20:16:42.25	218.22	2.79	-52.6	-54.7	3.7	0.00e+00	0	47	104	0	75	19824
2026-01-24 20:16:45.27	218.56	2.97	-52.6	-54.7	3.7	0.00e+00	0	47	104	0	75	19788
2026-01-24 20:16:48.30	218.90	3.15	-52.6	-54.7	3.7	0.00e+00	0	47	104	0	75	19807
2026-01-24 20:16:51.32	219.24	3.34	-52.5	-54.7	3.7	0.00e+00	0	47	104	0	75	19725
2026-01-24 20:16:54.34	219.59	3.52	-52.6	-54.7	3.7	0.00e+00	0	47	104	0	75	19810
2026-01-24 20:16:57.36	219.95	3.70	-52.6	-54.7	3.7	0.00e+00	0	47	104	0	75	19768
2026-01-24 20:17:00.39	220.31	3.89	-52.6	-54.7	3.7	0.00e+00	0	47	104	0	75	19830
2026-01-24 20:17:03.41	220.68	4.07	-52.6	-54.7	3.7	0.00e+00	0	47	104	0	75	19761
2026-01-24 20:17:06.43	221.05	4.26	-52.6	-54.7	3.7	0.00e+00	0	47	104	0	75	19824
2026-01-24 20:17:09.46	221.43	4.45	-52.5	-54.7	3.7	0.00e+00	0	47	104	0	75	19808
2026-01-24 20:17:12.48	221.82	4.64	-52.5	-54.7	3.7	0.00e+00	0	47	104	0	75	19755
2026-01-24 20:17:15.50	222.21	4.83	-52.5	-54.7	3.7	0.00e+00	0	48	104	0	75	19763
2026-01-24 20:17:18.53	222.61	5.02	-52.6	-54.7	3.7	0.00e+00	0	48	104	0	75	19776
2026-01-24 20:17:21.55	223.01	5.21	-52.7	-54.8	3.7	0.00e+00	0	48	104	0	76	18907
2026-01-24 20:17:24.58	223.42	5.40	-52.5	-54.7	3.7	0.00e+00	0	48	104	0	75	19762
2026-01-24 20:17:27.60	223.84	5.60	-52.6	-54.8	3.7	0.00e+00	0	48	104	0	75	19955
2026-01-24 20:17:30.62	224.26	5.79	-52.8	-54.9	3.7	0.00e+00	0	48	104	0	76	19123
2026-01-24 20:17:33.65	224.69	5.98	-52.8	-54.9	3.7	0.00e+00	0	48	104	0	76	19090
2026-01-24 20:17:36.67	225.13	6.18	-52.6	-54.7	3.7	0.00e+00	0	48	104	0	75	19928
2026-01-24 20:17:39.70	225.58	6.38	-52.7	-54.9	3.7	0.00e+00	0	48	104	0	76	19095
2026-01-24 20:17:42.71	226.03	6.57	-43.8	-43.3	8.8	0.00e+00	62	48	104	0	57	15058
2026-01-24 20:17:45.73	226.49	6.77	-38.6	-38.5	13.4	6.90e-06	0	49	0	201326592	49	13758
2026-01-24 20:17:48.76	226.96	6.97	-36.8	-36.8	13.6	6.90e-06	0	49	0	436207616	45	14113
2026-01-24 20:17:51.78	227.43	7.17	-36.6	-36.5	13.7	6.90e-06	0	49	0	662700032	45	13776
2026-01-24 20:17:54.81	227.92	7.37	-36.7	-36.6	13.7	0.00e+00	0	49	0	880803840	44	14706
2026-01-24 20:17:57.83	228.41	7.57	-36.7	-36.7	13.7	0.00e+00	0	49	0	1107296256	44	14816
2026-01-24 20:18:00.85	228.91	7.77	-36.5	-36.4	13.8	0.00e+00	0	49	0	1342177280	44	14359
2026-01-24 20:18:03.88	229.42	7.97	-36.5	-36.4	13.8	0.00e+00	0	49	0	1568669696	44	14391
2026-01-24 20:18:06.90	229.93	8.17	-36.5	-36.4	13.8	0.00e+00	0	49	0	1795162112	44	14413
2026-01-24 20:18:09.92	230.46	8.37	-36.4	-36.3	13.9	0.00e+00	0	50	0	2013265920	44	14163
2026-01-24 20:18:12.95	230.99	8.57	-36.4	-36.4	13.9	0.00e+00	0	50	0	2248146944	44	14318
2026-01-24 20:18:15.97	231.53	8.78	-36.1	-36.0	14.1	0.00e+00	0	49	0	2474639360	44	13715
2026-01-24 20:18:18.99	232.09	8.98	-36.2	-36.1	14.1	0.00e+00	0	50	0	2701131776	44	13836
2026-01-24 20:18:22.02	232.65	9.18	-36.1	-36.1	14.1	0.00e+00	0	50	0	2927624192	44	13798
2026-01-24 20:18:25.04	233.22	9.39	-36.1	-36.0	14.2	0.00e+00	0	50	0	3145728000	43	14586
2026-01-24 20:18:28.06	233.80	9.59	-36.0	-35.9	14.3	0.00e+00	0	50	0	3380609024	43	14388
2026-01-24 20:18:31.09	234.39	9.79	-36.0	-35.9	14.3	0.00e+00	0	50	0	3607101440	43	14405
2026-01-24 20:18:34.11	234.99	10.00	-36.1	-36.0	14.3	0.00e+00	0	50	0	3833593856	43	14476
2026-01-24 20:18:37.14	235.60	10.20	-35.8	-35.7	14.4	0.00e+00	0	50	0	4060086272	43	14096
2026-01-24 20:18:40.16	236.22	10.40	-35.7	-35.6	14.4	0.00e+00	0	50	0	4286578688	43	13925
2026-01-24 20:18:43.18	236.85	10.60	-35.8	-35.7	14.4	0.00e+00	0	50	0	4513071104	43	13994
2026-01-24 20:18:46.20	237.49	10.81	-35.7	-35.6	14.4	0.00e+00	0	50	0	4739563520	43	13858
2026-01-24 20:18:49.23	238.14	11.01	-35.5	-35.4	14.5	0.00e+00	0	50	0	4966055936	42	14350
2026-01-24 20:18:52.25	238.80	11.21	-35.4	-35.3	14.6	0.00e+00	0	50	0	5192548352	42	14265
2026-01-24 20:18:55.27	239.48	11.41	-35.5	-35.4	14.6	0.00e+00	0	50	0	5419040768	42	14368
2026-01-24 20:18:58.29	240.16	11.60	-35.4	-35.3	14.6	0.00e+00	0	50	0	5645533184	42	14200
2026-01-24 20:19:01.32	240.85	11.80	-35.3	-35.2	14.6	0.00e+00	0	50	0	5872025600	42	14040
2026-01-24 20:19:04.34	241.56	12.00	-35.4	-35.3	14.7	0.00e+00	0	50	0	6098518016	42	14145
2026-01-24 20:19:07.37	242.28	12.19	-35.4	-35.3	14.6	0.00e+00	0	50	0	6325010432	42	14236
2026-01-24 20:19:10.39	243.00	12.39	-35.1	-35.0	14.7	0.00e+00	0	50	0	6551502848	42	13777
2026-01-24 20:19:13.42	243.75	12.58	-35.1	-35.0	14.8	0.00e+00	0	51	0	6777995264	41	14475
2026-01-24 20:19:16.44	244.49	12.77	-35.0	-34.9	14.4	1.38e-05	0	50	0	7004487680	41	14350
2026-01-24 20:19:19.46	245.26	12.96	-34.8	-34.7	14.6	1.38e-05	0	51	0	7239368704	41	14053
2026-01-24 20:19:22.48	246.03	13.14	-34.8	-34.7	14.7	0.00e+00	0	51	0	7457472512	41	14056
2026-01-24 20:19:25.51	246.81	13.32	-34.8	-34.7	14.7	0.00e+00	0	51	0	7683964928	41	13984
2026-01-24 20:19:28.53	247.61	13.50	-34.8	-34.7	14.8	0.00e+00	0	51	0	7910457344	41	13987
2026-01-24 20:19:31.56	248.42	13.68	-34.7	-34.6	15.0	0.00e+00	0	51	0	8145338368	41	13872
2026-01-24 20:19:34.58	249.23	13.86	-34.6	-34.5	15.0	0.00e+00	0	51	0	8371830784	41	13654
2026-01-24 20:19:37.60	250.06	14.03	-34.6	-34.5	15.0	0.00e+00	0	51	0	8589934592	41	13694
2026-01-24 20:19:40.63	250.90	14.20	-34.5	-34.4	15.1	0.00e+00	0	51	0	8816427008	40	14402
2026-01-24 20:19:43.66	251.76	14.36	-34.5	-34.4	15.1	0.00e+00	0	51	0	9051308032	40	14301
2026-01-24 20:19:46.68	252.62	14.52	-34.4	-34.3	15.1	0.00e+00	0	51	0	9277800448	40	14231
2026-01-24 20:19:49.70	253.49	14.68	-34.3	-34.2	15.2	0.00e+00	0	51	0	9504292864	40	14069
2026-01-24 20:19:52.73	254.37	14.83	-34.4	-34.3	15.1	0.00e+00	0	51	0	9722396672	40	14169
2026-01-24 20:19:55.75	255.27	14.98	-34.3	-34.2	15.2	0.00e+00	0	51	0	9957277696	40	14073
2026-01-24 20:19:58.77	256.17	15.12	-34.2	-34.1	15.3	0.00e+00	0	51	0	10183770112	40	13849
2026-01-24 20:20:01.79	257.08	15.26	-34.2	-34.1	15.2	0.00e+00	0	51	0	10410262528	40	13942
2026-01-24 20:20:04.82	258.00	15.39	-34.2	-34.1	15.2	0.00e+00	0	51	0	10636754944	40	13873
2026-01-24 20:20:07.84	258.94	15.52	-34.1	-34.0	15.2	0.00e+00	0	51	0	10854858752	40	13774
2026-01-24 20:20:10.86	259.87	15.64	-34.1	-34.0	14.9	0.00e+00	0	51	0	11089739776	40	13738
2026-01-24 20:20:13.89	260.83	15.76	-34.1	-34.0	14.7	2.08e-05	0	51	0	11316232192	40	13766
2026-01-24 20:20:16.91	261.78	15.87	-34.2	-34.1	14.8	0.00e+00	0	51	0	11542724608	40	13862
2026-01-24 20:20:19.94	262.75	15.97	-34.0	-33.9	15.0	0.00e+00	0	51	0	11769217024	40	13590
2026-01-24 20:20:22.96	263.72	16.07	-34.1	-34.0	15.3	0.00e+00	0	51	0	11995709440	39	14519
2026-01-24 20:20:25.98	264.70	16.16	-34.2	-34.1	15.3	0.00e+00	0	51	0	12222201856	39	14642
2026-01-24 20:20:29.00	265.68	16.24	-34.0	-33.9	15.4	0.00e+00	0	51	0	12448694272	39	14311
2026-01-24 20:20:32.03	266.68	16.32	-34.1	-34.0	15.3	0.00e+00	0	51	0	12675186688	39	14511
2026-01-24 20:20:35.05	267.68	16.39	-34.0	-33.9	15.4	0.00e+00	0	51	0	12910067712	39	14362
2026-01-24 20:20:38.07	268.68	16.46	-33.9	-33.8	15.4	0.00e+00	0	51	0	13128171520	39	14263
2026-01-24 20:20:41.10	269.69	16.51	-34.0	-33.9	15.4	0.00e+00	0	51	0	13354663936	39	14347
2026-01-24 20:20:44.12	270.70	16.56	-33.9	-33.8	15.4	0.00e+00	0	51	0	13581156352	39	14224
2026-01-24 20:20:47.14	271.71	16.60	-34.0	-33.9	15.4	0.00e+00	0	51	0	13807648768	39	14318
2026-01-24 20:20:50.16	272.73	16.64	-34.0	-33.9	15.4	0.00e+00	0	51	0	14042529792	39	14398
2026-01-24 20:20:53.18	273.74	16.66	-34.2	-34.2	15.3	0.00e+00	0	51	0	14260633600	39	14786
2026-01-24 20:20:56.21	274.77	16.68	-34.0	-33.9	15.4	0.00e+00	0	51	0	14487126016	39	14383
2026-01-24 20:20:59.23	275.79	16.69	-34.1	-34.0	15.4	0.00e+00	0	51	0	14713618432	39	14469
2026-01-24 20:21:02.25	276.81	16.69	-34.1	-34.0	15.4	0.00e+00	0	51	0	14948499456	39	14461
2026-01-24 20:21:05.28	277.83	16.69	-34.1	-34.0	15.3	0.00e+00	0	51	0	15174991872	39	14458
2026-01-24 20:21:08.30	278.85	16.68	-34.0	-33.9	15.4	0.00e+00	0	51	0	15393095680	39	14375
2026-01-24 20:21:11.33	279.87	16.66	-34.1	-34.0	15.4	0.00e+00	0	51	0	15619588096	39	14499
2026-01-24 20:21:14.35	280.89	16.63	-34.2	-34.1	15.3	0.00e+00	0	51	0	15854469120	39	14686
2026-01-24 20:21:17.37	281.90	16.59	-34.3	-34.2	15.3	0.00e+00	0	51	0	16080961536	39	14813
2026-01-24 20:21:20.39	282.92	16.55	-34.2	-34.1	15.3	0.00e+00	0	51	0	16307453952	39	14745
2026-01-24 20:21:23.42	283.93	16.50	-34.2	-34.1	15.4	0.00e+00	0	51	0	16525557760	39	14775
2026-01-24 20:21:26.45	284.93	16.44	-34.2	-34.1	15.4	0.00e+00	0	51	0	16760438784	39	14704
2026-01-24 20:21:29.47	285.93	16.38	-34.2	-34.1	15.4	0.00e+00	0	51	0	16986931200	39	14608
2026-01-24 20:21:32.49	286.92	16.30	-34.3	-34.2	15.3	0.00e+00	0	51	0	17213423616	39	14903
2026-01-24 20:21:35.52	287.91	16.22	-34.2	-34.1	15.2	0.00e+00	0	51	0	17439916032	39	14742
2026-01-24 20:21:38.54	288.89	16.14	-34.3	-34.2	15.3	0.00e+00	0	51	0	17658019840	39	14915
2026-01-24 20:21:41.57	289.87	16.05	-34.4	-34.3	15.2	0.00e+00	0	51	0	17892900864	39	15054
2026-01-24 20:21:44.59	290.83	15.95	-34.5	-34.4	15.1	0.00e+00	0	51	0	18119393280	39	15149
2026-01-24 20:21:47.61	291.79	15.84	-34.4	-34.3	15.2	0.00e+00	0	51	0	18345885696	39	15033
2026-01-24 20:21:50.63	292.74	15.73	-34.4	-34.3	15.2	0.00e+00	0	51	0	18572378112	39	15076
2026-01-24 20:21:53.66	293.69	15.61	-34.4	-34.3	15.2	0.00e+00	0	51	0	18798870528	39	15120
2026-01-24 20:21:56.68	294.62	15.49	-34.3	-34.2	15.2	0.00e+00	0	51	0	19025362944	39	14899
2026-01-24 20:21:59.70	295.54	15.36	-34.6	-34.4	15.1	0.00e+00	0	51	0	19251855360	39	15283
2026-01-24 20:22:02.73	296.46	15.23	-34.5	-34.5	15.2	0.00e+00	0	51	0	19478347776	39	15302
2026-01-24 20:22:05.75	297.37	15.09	-34.5	-34.4	15.2	0.00e+00	0	51	0	19704840192	39	15254
2026-01-24 20:22:08.78	298.26	14.95	-34.5	-34.4	15.2	0.00e+00	0	51	0	19931332608	40	14381
2026-01-24 20:22:11.80	299.15	14.80	-34.5	-34.4	15.1	0.00e+00	0	51	0	20157825024	40	14339
2026-01-24 20:22:14.82	300.02	14.65	-34.6	-34.5	15.1	0.00e+00	0	51	0	20384317440	40	14574
2026-01-24 20:22:17.84	300.88	14.49	-34.6	-34.5	15.1	0.00e+00	0	51	0	20610809856	40	14549
2026-01-24 20:22:20.86	301.74	14.33	-34.7	-34.7	15.0	0.00e+00	0	51	0	20837302272	40	14781
2026-01-24 20:22:23.89	302.58	14.17	-34.7	-34.6	15.1	0.00e+00	0	51	0	21063794688	40	14737
2026-01-24 20:22:26.91	303.41	14.00	-34.8	-34.7	15.0	0.00e+00	0	51	0	21290287104	40	14831
2026-01-24 20:22:29.93	304.23	13.83	-34.9	-34.8	15.0	0.00e+00	0	51	0	21516779520	40	15002
2026-01-24 20:22:32.96	305.04	13.66	-35.0	-34.9	14.9	0.00e+00	0	51	0	21751660544	40	15214
2026-01-24 20:22:35.98	305.84	13.48	-35.0	-35.0	14.9	0.00e+00	0	51	0	21969764352	40	15346
2026-01-24 20:22:39.01	306.63	13.30	-35.0	-35.0	14.9	0.00e+00	0	51	0	22196256768	41	14468
2026-01-24 20:22:42.03	307.40	13.12	-35.1	-35.0	14.9	0.00e+00	0	51	0	22422749184	41	14601
2026-01-24 20:22:45.06	308.17	12.93	-35.2	-35.1	14.8	0.00e+00	0	51	0	22657630208	41	14719
2026-01-24 20:22:48.08	308.92	12.75	-35.2	-35.1	14.8	0.00e+00	0	51	0	22884122624	41	14762
2026-01-24 20:22:51.10	309.66	12.56	-35.3	-35.2	14.8	0.00e+00	0	51	0	23102226432	41	14923
2026-01-24 20:22:54.12	310.39	12.37	-35.3	-35.2	14.8	0.00e+00	0	51	0	23328718848	41	14828
2026-01-24 20:22:57.15	311.11	12.18	-35.5	-35.4	14.6	0.00e+00	0	51	0	23563599872	41	15279
2026-01-24 20:23:00.17	311.82	11.98	-35.7	-35.7	14.5	0.00e+00	0	52	0	23790092288	42	14814
2026-01-24 20:23:03.19	312.52	11.79	-35.7	-35.7	14.5	0.00e+00	0	51	0	24016584704	42	14810
2026-01-24 20:23:06.21	313.20	11.60	-35.5	-35.5	14.6	0.00e+00	0	51	0	24234688512	42	14507
2026-01-24 20:23:09.24	313.88	11.40	-35.6	-35.6	14.6	0.00e+00	0	51	0	24461180928	42	14610
2026-01-24 20:23:12.26	314.55	11.20	-35.6	-35.6	14.5	0.00e+00	0	52	0	24696061952	42	14730
2026-01-24 20:23:15.28	315.20	11.00	-35.7	-35.7	14.5	0.00e+00	0	51	0	24922554368	42	14798
2026-01-24 20:23:18.31	315.84	10.80	-35.9	-35.8	14.4	0.00e+00	0	52	0	25149046784	42	15066
2026-01-24 20:23:21.33	316.48	10.60	-35.9	-35.9	14.4	0.00e+00	0	51	0	25375539200	42	15141
2026-01-24 20:23:24.36	317.10	10.40	-36.0	-35.9	14.3	0.00e+00	0	51	0	25602031616	42	15209
2026-01-24 20:23:27.38	317.71	10.20	-36.0	-36.0	14.3	0.00e+00	0	52	0	25828524032	42	15346
2026-01-24 20:23:30.40	318.32	10.00	-36.3	-36.2	14.2	0.00e+00	0	52	0	26055016448	43	14863
2026-01-24 20:23:33.43	318.91	9.80	-36.2	-36.1	14.2	0.00e+00	0	52	0	26281508864	43	14647
2026-01-24 20:23:36.45	319.49	9.60	-36.3	-36.3	14.1	0.00e+00	0	52	0	26508001280	43	14963
2026-01-24 20:23:39.47	320.07	9.40	-36.5	-36.4	14.0	0.00e+00	0	51	0	26734493696	43	15221
2026-01-24 20:23:42.50	320.63	9.20	-36.4	-36.3	14.1	0.00e+00	0	52	0	26960986112	43	15012
2026-01-24 20:23:45.52	321.19	9.00	-36.4	-36.3	14.1	0.00e+00	0	52	0	27187478528	43	15068
2026-01-24 20:23:48.54	321.73	8.80	-36.4	-36.3	14.0	0.00e+00	0	51	0	27413970944	44	14193
2026-01-24 20:23:51.57	322.27	8.60	-36.6	-36.6	13.9	0.00e+00	0	51	0	27640463360	44	14651
2026-01-24 20:23:54.59	322.80	8.40	-36.6	-36.5	13.9	0.00e+00	0	51	0	27866955776	44	14575
2026-01-24 20:23:57.62	323.32	8.20	-36.5	-36.4	13.9	2.08e-05	0	51	0	28093448192	44	14319
2026-01-24 20:24:00.64	323.83	8.00	-36.9	-36.8	13.7	0.00e+00	0	51	0	28319940608	44	15024
2026-01-24 20:24:03.66	324.33	7.80	-37.0	-36.9	13.6	6.90e-06	0	51	0	28554821632	44	15198
2026-01-24 20:24:06.69	324.82	7.60	-36.9	-36.8	13.6	6.90e-06	0	51	0	28772925440	44	15043
2026-01-24 20:24:09.71	325.31	7.40	-37.2	-37.1	13.4	6.90e-06	0	51	0	28999417856	44	15575
2026-01-24 20:24:12.73	325.79	7.20	-37.2	-37.1	13.4	0.00e+00	0	51	0	29225910272	45	14776
2026-01-24 20:24:15.76	326.26	7.01	-37.3	-37.2	13.3	0.00e+00	0	51	0	29460791296	45	14857
2026-01-24 20:24:18.78	326.72	6.81	-37.2	-37.2	13.4	6.90e-06	0	51	0	29687283712	45	14831
2026-01-24 20:24:21.80	327.18	6.62	-37.3	-37.2	13.3	0.00e+00	0	51	0	29905387520	45	14944
2026-01-24 20:24:24.83	327.63	6.42	-37.4	-37.4	13.2	6.90e-06	0	51	0	30131879936	45	15157
2026-01-24 20:24:27.85	328.07	6.23	-37.5	-37.4	13.2	1.38e-05	0	51	0	30366760960	46	14407
2026-01-24 20:24:30.88	328.50	6.03	-37.6	-37.6	13.0	6.90e-06	0	52	0	30593253376	46	14685
2026-01-24 20:24:33.90	328.93	5.84	-37.7	-37.6	13.0	2.08e-05	0	52	0	30819745792	46	14767
2026-01-24 20:24:36.93	329.35	5.65	-37.7	-37.6	13.0	2.08e-05	0	52	0	31037849600	46	14685
2026-01-24 20:24:39.95	329.76	5.46	-37.6	-37.6	13.0	4.16e-05	0	51	0	31272730624	46	14636
2026-01-24 20:24:42.97	330.17	5.27	-37.7	-37.7	12.9	0.00e+00	0	52	0	31499223040	46	14785
2026-01-24 20:24:46.00	330.57	5.08	-37.9	-37.9	12.7	4.16e-05	0	51	0	31725715456	46	15165
2026-01-24 20:24:49.02	330.96	4.89	-53.2	-55.4	3.7	9.78e-03	0	51	104	31859933184	77	19195
2026-01-24 20:24:52.05	331.35	4.71	-53.9	-56.1	3.7	9.78e-03	0	51	104	31859933184	78	19517
2026-01-24 20:24:55.07	331.73	4.52	-54.2	-56.3	3.7	9.78e-03	0	51	104	31859933184	78	20154
2026-01-24 20:24:58.09	332.11	4.33	-54.4	-56.5	3.7	9.78e-03	0	50	104	31859933184	79	19435
2026-01-24 20:25:01.11	332.48	4.15	-54.4	-56.5	3.7	9.78e-03	0	50	104	31859933184	79	19475
2026-01-24 20:25:04.14	332.84	3.96	-54.4	-56.5	3.7	9.78e-03	0	51	104	31859933184	79	19404
2026-01-24 20:25:07.16	333.20	3.78	-54.2	-56.4	3.7	9.78e-03	0	50	104	31859933184	79	19091
2026-01-24 20:25:10.18	333.56	3.60	-54.1	-56.2	3.7	9.78e-03	0	50	104	31859933184	79	18787
2026-01-24 20:25:13.21	333.91	3.42	-54.1	-56.2	3.7	9.78e-03	0	50	104	31859933184	79	18669
2026-01-24 20:25:16.24	334.25	3.24	-54.0	-56.1	3.7	9.78e-03	0	50	104	31859933184	79	18588
2026-01-24 20:25:19.26	334.59	3.06	-54.0	-56.1	3.7	9.78e-03	0	50	104	31859933184	79	18499
2026-01-24 20:25:22.28	334.92	2.88	-54.0	-56.1	3.7	9.78e-03	0	50	104	31859933184	79	18532
2026-01-24 20:25:25.31	335.25	2.70	-54.0	-56.1	3.7	0.00e+00	0	50	104	31859933184	79	18437
2026-01-24 20:25:28.33	335.57	2.52	-53.9	-56.1	3.7	0.00e+00	0	50	104	31859933184	79	18413
2026-01-24 20:25:31.35	335.89	2.35	-53.9	-56.1	3.7	0.00e+00	0	50	104	31859933184	79	18405
2026-01-24 20:25:34.38	336.21	2.17	-53.9	-56.0	3.7	0.00e+00	0	50	104	31859933184	79	18388
2026-01-24 20:25:37.40	336.52	2.00	-53.9	-56.0	3.7	0.00e+00	0	50	104	31859933184	79	18287

#Closed at: 2026-01-24 20:25:37
#Recorded file [31859 MB]: D:/lorett/data/31041_260124_231629.dat