passes_logs/2026/01/24/R3.2S_Murmansk/R3.2S_Murmansk__20260124_031010_AQUA_rec.log

#Pass ID: 20260124_031010_AQUA
#Satellite: AQUA
#Configuration: AQUA
#almurnet v.1.7.20251203
#Start time: 2026-01-24 03:10:11

#Version: 2.2.20231116
#Station: R3.2S_Murmansk
#Location: 33.079688 lon 68.888172 lat
#TLE: 1 27424U 02022A   26023.58972979  .00001888  00000+0  38753-3 0  9997
#TLE: 2 27424  98.4100 350.1620 0001948  68.5331  43.0280 14.61852003262140

#Time	Az	El	Level	Level2	SNR	BER	BlckErr	Temp	State	Recorded	gain1	gain2
2026-01-24 03:10:11.34	26.22	2.04	-54.8	-72.6	3.8	7.43e-01	0	41	0	0	80	29062
2026-01-24 03:10:14.36	26.16	2.24	-54.8	-72.6	3.8	7.48e-01	0	41	104	0	80	29109
2026-01-24 03:10:17.39	26.09	2.44	-54.7	-72.5	3.8	7.44e-01	0	41	104	0	80	29009
2026-01-24 03:10:20.41	26.02	2.64	-54.7	-72.5	3.8	7.50e-01	0	41	104	0	80	28980
2026-01-24 03:10:23.44	25.95	2.84	-54.7	-72.5	3.8	7.46e-01	0	41	104	0	80	29009
2026-01-24 03:10:26.46	25.88	3.05	-54.7	-72.6	3.8	7.46e-01	0	41	104	0	80	29014
2026-01-24 03:10:29.48	25.81	3.25	-54.8	-72.5	3.8	7.43e-01	0	41	104	0	80	29004
2026-01-24 03:10:32.51	25.73	3.46	-54.7	-72.5	3.8	7.43e-01	0	42	104	0	80	28985
2026-01-24 03:10:35.53	25.66	3.67	-54.7	-72.6	3.8	7.44e-01	0	41	104	0	80	29024
2026-01-24 03:10:38.55	25.58	3.88	-54.7	-72.6	3.8	7.45e-01	0	42	104	0	80	29059
2026-01-24 03:10:41.58	25.50	4.10	-54.8	-72.6	3.8	7.45e-01	0	42	104	0	80	29044
2026-01-24 03:10:44.60	25.42	4.31	-54.7	-72.6	3.8	7.46e-01	0	42	104	0	80	29044
2026-01-24 03:10:47.63	25.34	4.53	-54.7	-72.5	3.8	7.45e-01	0	42	104	0	80	29006
2026-01-24 03:10:50.65	25.26	4.75	-54.8	-72.5	3.8	7.43e-01	0	42	104	0	80	29004
2026-01-24 03:10:53.68	25.17	4.97	-54.7	-72.5	3.8	7.46e-01	0	42	104	0	80	29010
2026-01-24 03:10:56.71	25.09	5.20	-54.7	-72.5	3.8	7.45e-01	0	42	104	0	80	29002
2026-01-24 03:10:59.73	25.00	5.42	-54.7	-72.6	3.8	7.44e-01	0	42	104	0	80	29016
2026-01-24 03:11:02.76	24.91	5.65	-54.7	-72.5	3.8	7.45e-01	0	42	104	0	80	29011
2026-01-24 03:11:05.78	24.82	5.88	-54.8	-72.6	3.8	7.43e-01	0	42	104	0	80	29037
2026-01-24 03:11:08.81	24.72	6.11	-54.8	-72.6	3.8	7.46e-01	0	42	104	0	80	29108
2026-01-24 03:11:11.83	24.63	6.35	-54.8	-72.6	3.8	7.46e-01	0	42	104	0	80	29020
2026-01-24 03:11:14.85	24.53	6.58	-54.7	-72.6	3.8	7.45e-01	0	43	104	0	80	29087
2026-01-24 03:11:17.88	24.43	6.82	-54.8	-72.6	3.8	7.46e-01	0	42	104	0	80	29093
2026-01-24 03:11:20.91	24.33	7.06	-54.8	-72.6	3.8	7.50e-01	0	42	104	0	80	29096
2026-01-24 03:11:23.93	24.23	7.31	-54.8	-72.6	3.8	7.43e-01	0	42	104	0	80	29079
2026-01-24 03:11:26.95	24.13	7.55	-54.8	-72.6	3.8	7.45e-01	0	42	104	0	80	29037
2026-01-24 03:11:29.98	24.02	7.80	-54.8	-72.6	3.8	7.44e-01	0	42	104	0	80	29109
2026-01-24 03:11:33.00	23.91	8.05	-54.8	-72.6	3.8	7.45e-01	0	42	104	0	80	29049
2026-01-24 03:11:36.03	23.80	8.31	-54.8	-72.6	3.8	7.47e-01	0	42	104	0	80	29026
2026-01-24 03:11:39.06	23.68	8.56	-54.7	-72.6	3.8	7.46e-01	0	43	104	0	80	29108
2026-01-24 03:11:42.08	23.57	8.82	-54.8	-72.6	3.8	7.45e-01	0	43	104	0	80	29088
2026-01-24 03:11:45.10	23.45	9.08	-54.8	-72.6	3.8	7.44e-01	0	42	104	0	80	29080
2026-01-24 03:11:48.13	23.33	9.35	-54.8	-72.6	3.8	7.45e-01	0	43	104	0	80	29070
2026-01-24 03:11:51.15	23.20	9.62	-54.8	-72.6	3.8	7.46e-01	0	42	104	0	80	29040
2026-01-24 03:11:54.17	23.07	9.89	-54.8	-72.6	3.8	7.42e-01	0	42	104	0	80	29121
2026-01-24 03:11:57.20	22.94	10.17	-54.8	-72.6	3.8	7.47e-01	0	43	104	0	80	29157
2026-01-24 03:12:00.23	22.81	10.44	-54.8	-72.6	3.8	7.44e-01	0	42	104	0	80	29172
2026-01-24 03:12:03.26	22.67	10.73	-54.8	-72.6	3.8	7.44e-01	0	42	104	0	80	29168
2026-01-24 03:12:06.28	22.54	11.01	-54.8	-72.6	3.8	7.43e-01	0	43	104	0	80	29103
2026-01-24 03:12:09.31	22.39	11.30	-54.8	-72.6	3.8	7.45e-01	0	43	104	0	80	29085
2026-01-24 03:12:12.33	22.25	11.59	-54.8	-72.6	3.8	7.45e-01	0	43	104	0	80	29020
2026-01-24 03:12:15.35	22.10	11.89	-54.8	-72.6	3.8	7.47e-01	0	43	104	0	80	29051
2026-01-24 03:12:18.37	21.95	12.19	-54.8	-72.6	3.8	7.41e-01	0	43	104	0	80	29181
2026-01-24 03:12:21.40	21.79	12.49	-54.8	-72.6	3.8	7.45e-01	0	42	104	0	80	29080
2026-01-24 03:12:24.42	21.63	12.80	-54.8	-72.6	3.8	7.45e-01	0	42	104	0	80	29115
2026-01-24 03:12:27.45	21.47	13.11	-54.8	-72.6	3.8	7.46e-01	0	43	104	0	80	29067
2026-01-24 03:12:30.47	21.30	13.43	-54.8	-72.6	3.8	7.45e-01	0	43	104	0	80	29069
2026-01-24 03:12:33.49	21.13	13.75	-54.8	-72.6	3.8	7.46e-01	0	43	104	0	80	29126
2026-01-24 03:12:36.52	20.95	14.07	-54.9	-72.7	3.8	7.48e-01	0	43	104	0	80	29393
2026-01-24 03:12:39.54	20.77	14.40	-54.8	-72.7	3.8	7.42e-01	0	43	104	0	80	29394
2026-01-24 03:12:42.57	20.58	14.74	-54.8	-72.6	3.8	7.44e-01	0	43	104	0	80	29307
2026-01-24 03:12:45.60	20.39	15.08	-54.8	-72.6	3.8	7.47e-01	0	43	104	0	80	29236
2026-01-24 03:12:48.62	20.19	15.42	-54.8	-72.6	3.8	7.45e-01	0	43	104	0	80	29265
2026-01-24 03:12:51.65	19.99	15.77	-54.8	-72.6	3.8	7.46e-01	0	43	104	0	80	29188
2026-01-24 03:12:54.68	19.79	16.13	-54.8	-72.6	3.8	7.41e-01	0	43	104	0	80	29175
2026-01-24 03:12:57.70	19.58	16.48	-54.8	-72.6	3.8	7.43e-01	0	43	104	0	80	29219
2026-01-24 03:13:00.73	19.36	16.85	-54.8	-72.6	3.8	7.43e-01	0	43	104	0	80	29261
2026-01-24 03:13:03.75	19.13	17.22	-54.8	-72.6	3.8	7.44e-01	0	43	104	0	80	29235
2026-01-24 03:13:06.78	18.90	17.60	-54.8	-72.6	3.8	7.45e-01	0	43	104	0	80	29137
2026-01-24 03:13:09.81	18.67	17.98	-54.8	-72.6	3.8	7.46e-01	0	43	104	0	80	29168
2026-01-24 03:13:12.84	18.42	18.37	-54.8	-72.6	3.8	7.47e-01	0	43	104	0	80	29243
2026-01-24 03:13:15.86	18.17	18.77	-54.8	-72.6	3.8	7.44e-01	0	43	104	0	80	29135
2026-01-24 03:13:18.89	17.92	19.17	-54.8	-72.6	3.8	7.47e-01	0	43	104	0	80	29193
2026-01-24 03:13:21.91	17.65	19.58	-54.8	-72.6	3.8	7.46e-01	0	43	104	0	80	29172
2026-01-24 03:13:24.94	17.38	19.99	-54.8	-72.6	3.8	7.43e-01	0	43	104	0	80	29171
2026-01-24 03:13:27.96	17.10	20.42	-54.8	-72.6	3.8	7.46e-01	0	43	104	0	80	29191
2026-01-24 03:13:30.98	16.81	20.84	-54.8	-72.6	3.8	7.44e-01	0	43	104	0	80	29209
2026-01-24 03:13:34.01	16.51	21.28	-54.8	-72.6	3.8	7.43e-01	0	43	104	0	80	29246
2026-01-24 03:13:37.04	16.20	21.73	-54.8	-72.6	3.8	7.46e-01	0	43	104	0	80	29245
2026-01-24 03:13:40.06	15.88	22.18	-54.8	-72.6	3.8	7.44e-01	0	43	104	0	80	29228
2026-01-24 03:13:43.08	15.55	22.64	-54.8	-72.6	3.8	7.45e-01	0	43	104	0	80	29259
2026-01-24 03:13:46.11	15.21	23.11	-54.8	-72.6	3.8	7.42e-01	0	43	104	0	80	29314
2026-01-24 03:13:49.13	14.86	23.58	-54.8	-72.6	3.8	7.42e-01	0	43	104	0	80	29298
2026-01-24 03:13:52.16	14.50	24.07	-54.8	-72.6	3.8	7.45e-01	0	43	104	0	80	29190
2026-01-24 03:13:55.18	14.12	24.56	-54.8	-72.6	3.8	7.45e-01	0	43	104	0	80	29150
2026-01-24 03:13:58.21	13.73	25.07	-54.8	-72.6	3.8	7.41e-01	0	43	104	0	80	29232
2026-01-24 03:14:01.23	13.33	25.58	-54.8	-72.6	3.8	7.49e-01	0	43	104	0	80	29215
2026-01-24 03:14:04.26	12.91	26.10	-54.8	-72.6	3.8	7.45e-01	0	43	104	0	80	29203
2026-01-24 03:14:07.29	12.48	26.63	-54.8	-72.6	3.8	7.46e-01	0	43	104	0	80	29217
2026-01-24 03:14:10.31	12.04	27.17	-54.8	-72.6	3.8	7.46e-01	0	43	104	0	80	29219
2026-01-24 03:14:13.33	11.57	27.72	-54.8	-72.6	3.8	7.41e-01	0	43	104	0	80	29193
2026-01-24 03:14:16.36	11.09	28.28	-54.8	-72.6	3.8	7.45e-01	0	43	104	0	80	29174
2026-01-24 03:14:19.39	10.59	28.85	-54.8	-72.6	3.8	7.50e-01	0	43	104	0	80	29114
2026-01-24 03:14:22.41	10.08	29.43	-54.8	-72.6	3.8	7.45e-01	0	43	104	0	80	29120
2026-01-24 03:14:25.43	9.54	30.02	-54.8	-72.6	3.8	7.43e-01	0	43	104	0	80	29248
2026-01-24 03:14:28.46	8.98	30.62	-54.8	-72.6	3.8	7.42e-01	0	43	104	0	80	29234
2026-01-24 03:14:31.48	8.40	31.23	-54.8	-72.6	3.8	7.46e-01	0	43	104	0	80	29266
2026-01-24 03:14:34.51	7.79	31.85	-54.8	-72.6	3.8	7.46e-01	0	43	104	0	80	29171
2026-01-24 03:14:37.53	7.16	32.48	-54.8	-72.6	3.8	7.43e-01	0	43	104	0	80	29135
2026-01-24 03:14:40.55	6.50	33.12	-54.8	-72.6	3.8	7.46e-01	0	43	104	0	80	29168
2026-01-24 03:14:43.58	5.82	33.78	-54.8	-72.6	3.8	7.44e-01	0	43	104	0	80	29170
2026-01-24 03:14:46.60	5.10	34.44	-54.8	-72.6	3.8	7.44e-01	0	43	104	0	80	29196
2026-01-24 03:14:49.63	4.36	35.11	-54.8	-72.6	3.8	7.45e-01	0	43	104	0	80	29175
2026-01-24 03:14:52.65	3.58	35.79	-54.8	-72.6	3.8	7.47e-01	0	43	104	0	80	29178
2026-01-24 03:14:55.67	2.77	36.48	-54.8	-72.6	3.8	7.44e-01	0	43	104	0	80	29185
2026-01-24 03:14:58.70	1.92	37.18	-54.8	-72.6	3.8	7.46e-01	0	43	104	0	80	29203
2026-01-24 03:15:01.72	1.03	37.89	-54.8	-72.6	3.8	7.48e-01	0	43	104	0	80	29239
2026-01-24 03:15:04.75	0.10	38.61	-54.8	-72.6	3.8	7.47e-01	0	43	104	0	80	29117
2026-01-24 03:15:07.77	359.13	39.33	-54.8	-72.6	3.8	7.44e-01	0	43	104	0	80	29189
2026-01-24 03:15:10.80	358.11	40.07	-54.8	-72.6	3.8	7.46e-01	0	43	104	0	80	29215
2026-01-24 03:15:13.83	357.04	40.80	-54.8	-72.6	3.8	7.44e-01	0	43	104	0	80	29246
2026-01-24 03:15:16.85	355.92	41.54	-54.8	-72.6	3.8	7.46e-01	0	43	104	0	80	29260
2026-01-24 03:15:19.88	354.74	42.29	-54.8	-72.6	3.8	7.41e-01	0	43	104	0	80	29199
2026-01-24 03:15:22.90	353.51	43.03	-54.8	-72.6	3.8	7.44e-01	0	43	104	0	80	29240
2026-01-24 03:15:25.92	352.23	43.78	-54.8	-72.6	3.8	7.44e-01	0	43	104	0	80	29202
2026-01-24 03:15:28.95	350.87	44.52	-54.8	-72.6	3.8	7.44e-01	0	43	104	0	80	29227
2026-01-24 03:15:31.97	349.45	45.26	-54.8	-72.6	3.8	7.45e-01	0	43	104	0	80	29193
2026-01-24 03:15:35.00	347.96	45.99	-54.8	-72.6	3.8	7.44e-01	0	43	104	0	80	29162
2026-01-24 03:15:38.03	346.40	46.72	-54.8	-72.6	3.8	7.46e-01	0	43	104	0	80	29180
2026-01-24 03:15:41.05	344.77	47.43	-54.8	-72.6	3.8	7.46e-01	0	43	104	0	80	29186
2026-01-24 03:15:44.08	343.05	48.13	-54.8	-72.6	3.8	7.46e-01	0	43	104	0	80	29180
2026-01-24 03:15:47.10	341.26	48.82	-54.8	-72.6	3.8	7.48e-01	0	43	104	0	80	29160
2026-01-24 03:15:50.12	339.39	49.48	-54.8	-72.6	3.8	7.46e-01	0	43	104	0	80	29166
2026-01-24 03:15:53.14	337.44	50.11	-54.8	-72.6	3.8	7.45e-01	0	43	104	0	80	29207
2026-01-24 03:15:56.17	335.39	50.72	-54.8	-72.6	3.8	7.47e-01	0	43	104	0	80	29254
2026-01-24 03:15:59.19	333.27	51.30	-54.8	-72.6	3.8	7.48e-01	0	43	104	0	80	29235
2026-01-24 03:16:02.22	331.06	51.84	-54.8	-72.6	3.8	7.42e-01	0	43	104	0	80	29133
2026-01-24 03:16:05.24	328.78	52.35	-54.8	-72.6	3.8	7.44e-01	0	43	104	0	80	29216
2026-01-24 03:16:08.26	326.42	52.81	-54.8	-72.6	3.8	7.45e-01	0	43	104	0	80	29210
2026-01-24 03:16:11.29	323.98	53.22	-54.8	-72.6	3.8	7.45e-01	0	43	104	0	80	29197
2026-01-24 03:16:14.31	321.48	53.58	-54.8	-72.6	3.8	7.43e-01	0	43	104	0	80	29180
2026-01-24 03:16:17.34	318.92	53.89	-54.8	-72.6	3.8	7.43e-01	0	43	104	0	80	29173
2026-01-24 03:16:20.36	316.31	54.14	-54.8	-72.6	3.8	7.44e-01	0	43	104	0	80	29251
2026-01-24 03:16:23.39	313.66	54.33	-54.8	-72.6	3.8	7.45e-01	0	43	104	0	80	29233
2026-01-24 03:16:26.41	310.98	54.46	-54.8	-72.6	3.8	7.46e-01	0	43	104	0	80	29220
2026-01-24 03:16:29.44	308.27	54.52	-54.8	-72.6	3.8	7.42e-01	0	43	104	0	80	29275
2026-01-24 03:16:32.46	305.57	54.52	-54.8	-72.6	3.8	7.46e-01	0	43	104	0	80	29212
2026-01-24 03:16:35.48	302.87	54.46	-54.8	-72.6	3.8	7.44e-01	0	43	104	0	80	29203
2026-01-24 03:16:38.51	300.18	54.34	-54.8	-72.6	3.8	7.43e-01	0	43	104	0	80	29217
2026-01-24 03:16:41.54	297.52	54.15	-54.8	-72.6	3.8	7.45e-01	0	43	104	0	80	29194
2026-01-24 03:16:44.56	294.91	53.91	-54.8	-72.6	3.8	7.47e-01	0	43	104	0	80	29111
2026-01-24 03:16:47.59	292.34	53.60	-54.8	-72.6	3.8	7.45e-01	0	43	104	0	80	29202
2026-01-24 03:16:50.61	289.83	53.25	-54.8	-72.6	3.8	7.43e-01	0	43	104	0	80	29195
2026-01-24 03:16:53.63	287.39	52.84	-54.8	-72.6	3.8	7.46e-01	0	43	104	0	80	29191
2026-01-24 03:16:56.66	285.02	52.38	-54.8	-72.6	3.8	7.44e-01	0	43	104	0	80	29304
2026-01-24 03:16:59.68	282.73	51.88	-54.8	-72.6	3.8	7.45e-01	0	43	104	0	80	29265
2026-01-24 03:17:02.71	280.51	51.34	-54.9	-72.8	3.8	7.44e-01	0	43	104	0	80	29769
2026-01-24 03:17:05.73	278.38	50.76	-54.9	-72.7	3.8	7.42e-01	0	43	104	0	80	29548
2026-01-24 03:17:08.75	276.34	50.16	-54.9	-72.7	3.8	7.45e-01	0	43	104	0	80	29557
2026-01-24 03:17:11.77	274.37	49.52	-54.9	-72.7	3.8	7.43e-01	0	43	104	0	80	29423
2026-01-24 03:17:14.80	272.49	48.86	-54.9	-72.7	3.8	7.46e-01	0	43	104	0	80	29448
2026-01-24 03:17:17.83	270.68	48.17	-54.8	-72.6	3.8	7.44e-01	0	43	104	0	80	29329
2026-01-24 03:17:20.85	268.97	47.48	-54.9	-72.7	3.8	7.44e-01	0	43	104	0	80	29474
2026-01-24 03:17:23.87	267.33	46.76	-54.9	-72.7	3.8	7.45e-01	0	43	104	0	80	29385
2026-01-24 03:17:26.90	265.75	46.03	-54.8	-72.7	3.8	7.43e-01	0	43	104	0	80	29386
2026-01-24 03:17:29.92	264.26	45.30	-54.9	-72.7	3.8	7.47e-01	0	43	104	0	80	29393
2026-01-24 03:17:32.95	262.83	44.56	-54.8	-72.6	3.8	7.44e-01	0	43	104	0	80	29317
2026-01-24 03:17:35.97	261.47	43.82	-54.8	-72.7	3.8	7.48e-01	0	43	104	0	80	29392
2026-01-24 03:17:38.99	260.18	43.07	-54.8	-72.6	3.8	7.46e-01	0	43	104	0	80	29320
2026-01-24 03:17:42.02	258.94	42.32	-54.8	-72.7	3.8	7.46e-01	0	43	104	0	80	29371
2026-01-24 03:17:45.04	257.76	41.58	-54.8	-72.7	3.8	7.45e-01	0	43	104	0	80	29352
2026-01-24 03:17:48.07	256.63	40.83	-54.8	-72.6	3.8	7.42e-01	0	43	104	0	80	29256
2026-01-24 03:17:51.09	255.56	40.09	-54.8	-72.6	3.8	7.42e-01	0	43	104	0	80	29175
2026-01-24 03:17:54.11	254.54	39.36	-54.8	-72.6	3.8	7.46e-01	0	43	104	0	80	29281
2026-01-24 03:17:57.14	253.56	38.63	-54.8	-72.6	3.8	7.43e-01	0	43	104	0	80	29334
2026-01-24 03:18:00.16	252.63	37.92	-54.8	-72.6	3.8	7.43e-01	0	43	104	0	80	29284
2026-01-24 03:18:03.18	251.73	37.21	-54.8	-72.6	3.8	7.45e-01	0	43	104	0	80	29201
2026-01-24 03:18:06.21	250.88	36.50	-54.8	-72.6	3.8	7.48e-01	0	43	104	0	80	29290
2026-01-24 03:18:09.23	250.06	35.81	-54.8	-72.6	3.8	7.45e-01	0	43	104	0	80	29274
2026-01-24 03:18:12.26	249.28	35.12	-54.8	-72.6	3.8	7.46e-01	0	43	104	0	80	29322
2026-01-24 03:18:15.29	248.53	34.44	-54.8	-72.6	3.8	7.42e-01	0	43	104	0	80	29281
2026-01-24 03:18:18.32	247.81	33.78	-54.8	-72.7	3.8	7.45e-01	0	43	104	0	80	29363
2026-01-24 03:18:21.34	247.12	33.12	-54.8	-72.6	3.8	7.45e-01	0	43	104	0	80	29315
2026-01-24 03:18:24.37	246.46	32.48	-54.8	-72.6	3.8	7.44e-01	0	43	104	0	80	29321
2026-01-24 03:18:27.39	245.82	31.85	-54.8	-72.6	3.8	7.44e-01	0	43	104	0	80	29237
2026-01-24 03:18:30.42	245.22	31.22	-54.8	-72.6	3.8	7.48e-01	0	43	104	0	80	29298
2026-01-24 03:18:33.44	244.63	30.61	-54.8	-72.6	3.8	7.46e-01	0	43	104	0	80	29305
2026-01-24 03:18:36.47	244.07	30.01	-54.8	-72.6	3.8	7.46e-01	0	43	104	0	80	29223
2026-01-24 03:18:39.50	243.53	29.41	-54.8	-72.6	3.8	7.47e-01	0	43	104	0	80	29233
2026-01-24 03:18:42.52	243.01	28.83	-54.8	-72.6	3.8	7.46e-01	0	43	104	0	80	29232
2026-01-24 03:18:45.54	242.51	28.26	-54.8	-72.6	3.8	7.44e-01	0	43	104	0	80	29208
2026-01-24 03:18:48.57	242.02	27.70	-54.8	-72.6	3.8	7.45e-01	0	43	104	0	80	29281
2026-01-24 03:18:51.59	241.56	27.15	-54.8	-72.6	3.8	7.46e-01	0	43	104	0	80	29255
2026-01-24 03:18:54.62	241.11	26.60	-54.8	-72.6	3.8	7.44e-01	0	43	104	0	80	29260
2026-01-24 03:18:57.64	240.67	26.07	-54.8	-72.6	3.8	7.46e-01	0	43	104	0	80	29268
2026-01-24 03:19:00.67	240.26	25.55	-54.8	-72.6	3.8	7.44e-01	0	43	104	0	80	29265
2026-01-24 03:19:03.69	239.85	25.04	-54.8	-72.6	3.8	7.44e-01	0	43	104	0	80	29226
2026-01-24 03:19:06.72	239.46	24.53	-54.8	-72.6	3.8	7.47e-01	0	43	104	0	80	29274
2026-01-24 03:19:09.74	239.08	24.04	-54.8	-72.6	3.8	7.44e-01	0	43	104	0	80	29256
2026-01-24 03:19:12.77	238.72	23.55	-54.8	-72.6	3.8	7.45e-01	0	43	104	0	80	29206
2026-01-24 03:19:15.79	238.37	23.07	-54.8	-72.6	3.8	7.47e-01	0	43	104	0	80	29220
2026-01-24 03:19:18.81	238.03	22.60	-54.8	-72.6	3.8	7.45e-01	0	43	104	0	80	29233
2026-01-24 03:19:21.84	237.69	22.14	-54.8	-72.6	3.8	7.44e-01	0	43	104	0	80	29172
2026-01-24 03:19:24.86	237.37	21.69	-54.8	-72.6	3.8	7.44e-01	0	43	104	0	80	29217
2026-01-24 03:19:27.89	237.06	21.24	-54.8	-72.6	3.8	7.46e-01	0	43	104	0	80	29257
2026-01-24 03:19:30.91	236.76	20.80	-54.8	-72.6	3.8	7.44e-01	0	43	104	0	80	29343
2026-01-24 03:19:33.93	236.47	20.37	-54.8	-72.6	3.8	7.46e-01	0	43	104	0	80	29250
2026-01-24 03:19:36.95	236.19	19.95	-54.8	-72.6	3.8	7.48e-01	0	43	104	0	80	29285
2026-01-24 03:19:39.98	235.91	19.53	-54.8	-72.6	3.8	7.42e-01	0	43	104	0	80	29241
2026-01-24 03:19:43.00	235.64	19.12	-54.8	-72.6	3.8	7.47e-01	0	43	104	0	80	29267
2026-01-24 03:19:46.03	235.38	18.72	-54.8	-72.6	3.8	7.47e-01	0	43	104	0	80	29251
2026-01-24 03:19:49.06	235.13	18.32	-54.8	-72.6	3.8	7.43e-01	0	43	104	0	80	29221
2026-01-24 03:19:52.08	234.89	17.93	-54.8	-72.6	3.8	7.47e-01	0	43	104	0	80	29227
2026-01-24 03:19:55.11	234.65	17.54	-54.8	-72.6	3.8	7.45e-01	0	43	104	0	80	29211
2026-01-24 03:19:58.13	234.42	17.17	-54.8	-72.6	3.8	7.46e-01	0	43	104	0	80	29244
2026-01-24 03:20:01.16	234.19	16.79	-54.8	-72.6	3.8	7.46e-01	0	43	104	0	80	29229
2026-01-24 03:20:04.19	233.97	16.43	-54.8	-72.6	3.8	7.47e-01	0	43	104	0	80	29259
2026-01-24 03:20:07.21	233.76	16.07	-54.8	-72.6	3.8	7.47e-01	0	43	104	0	80	29254
2026-01-24 03:20:10.24	233.55	15.71	-54.8	-72.6	3.8	7.44e-01	0	43	104	0	80	29224
2026-01-24 03:20:13.27	233.35	15.36	-54.8	-72.6	3.8	7.47e-01	0	43	104	0	80	29231
2026-01-24 03:20:16.29	233.15	15.01	-54.8	-72.6	3.8	7.42e-01	0	43	104	0	80	29155
2026-01-24 03:20:19.32	232.96	14.67	-54.8	-72.6	3.8	7.46e-01	0	43	104	0	80	29207
2026-01-24 03:20:22.34	232.77	14.34	-54.8	-72.6	3.8	7.46e-01	0	43	104	0	80	29298
2026-01-24 03:20:25.37	232.59	14.01	-54.8	-72.6	3.8	7.43e-01	0	43	104	0	80	29266
2026-01-24 03:20:28.39	232.41	13.68	-54.8	-72.6	3.8	7.47e-01	0	43	104	0	80	29221
2026-01-24 03:20:31.41	232.24	13.36	-54.8	-72.6	3.8	7.45e-01	0	43	104	0	80	29197
2026-01-24 03:20:34.44	232.07	13.04	-54.8	-72.6	3.8	7.43e-01	0	43	104	0	80	29138
2026-01-24 03:20:37.47	231.90	12.73	-54.8	-72.6	3.8	7.47e-01	0	43	104	0	80	29185
2026-01-24 03:20:40.49	231.74	12.42	-54.8	-72.6	3.8	7.45e-01	0	43	104	0	80	29248
2026-01-24 03:20:43.51	231.58	12.12	-54.8	-72.6	3.8	7.46e-01	0	43	104	0	80	29224
2026-01-24 03:20:46.53	231.43	11.82	-54.8	-72.6	3.8	7.42e-01	0	43	104	0	80	29250
2026-01-24 03:20:49.56	231.27	11.52	-54.8	-72.6	3.8	7.42e-01	0	43	104	0	80	29208
2026-01-24 03:20:52.59	231.13	11.23	-54.8	-72.6	3.8	7.45e-01	0	43	104	0	80	29224
2026-01-24 03:20:55.61	230.98	10.94	-54.8	-72.6	3.8	7.49e-01	0	43	104	0	80	29183
2026-01-24 03:20:58.63	230.84	10.65	-54.8	-72.6	3.8	7.47e-01	0	43	104	0	80	29240
2026-01-24 03:21:01.65	230.70	10.37	-54.8	-72.6	3.8	7.46e-01	0	43	104	0	80	29138
2026-01-24 03:21:04.68	230.57	10.09	-54.8	-72.6	3.8	7.46e-01	0	43	104	0	80	29165
2026-01-24 03:21:07.70	230.44	9.82	-54.8	-72.6	3.8	7.44e-01	0	43	104	0	80	29238
2026-01-24 03:21:10.73	230.31	9.54	-54.8	-72.6	3.8	7.42e-01	0	43	104	0	80	29197
2026-01-24 03:21:13.75	230.18	9.27	-54.8	-72.6	3.8	7.48e-01	0	43	104	0	80	29243
2026-01-24 03:21:16.78	230.06	9.01	-54.8	-72.6	3.8	7.45e-01	0	43	104	0	80	29248
2026-01-24 03:21:19.80	229.94	8.74	-54.8	-72.6	3.8	7.45e-01	0	43	104	0	80	29198
2026-01-24 03:21:22.83	229.82	8.48	-54.8	-72.6	3.8	7.46e-01	0	43	104	0	80	29198
2026-01-24 03:21:25.85	229.70	8.23	-54.8	-72.6	3.8	7.41e-01	0	43	104	0	80	29268
2026-01-24 03:21:28.87	229.59	7.97	-54.8	-72.6	3.8	7.43e-01	0	43	104	0	80	29186
2026-01-24 03:21:31.90	229.48	7.72	-54.8	-72.6	3.8	7.45e-01	0	43	104	0	80	29261
2026-01-24 03:21:34.92	229.37	7.47	-54.8	-72.6	3.8	7.47e-01	0	43	104	0	80	29247
2026-01-24 03:21:37.95	229.26	7.22	-54.8	-72.6	3.8	7.47e-01	0	43	104	0	80	29216
2026-01-24 03:21:40.97	229.16	6.98	-54.8	-72.6	3.8	7.47e-01	0	43	104	0	80	29171
2026-01-24 03:21:43.99	229.06	6.74	-54.8	-72.6	3.8	7.44e-01	0	43	104	0	80	29258
2026-01-24 03:21:47.02	228.96	6.50	-54.8	-72.6	3.8	7.42e-01	0	43	104	0	80	29327
2026-01-24 03:21:50.05	228.86	6.26	-54.8	-72.6	3.8	7.47e-01	0	43	104	0	80	29252
2026-01-24 03:21:53.07	228.76	6.03	-54.8	-72.6	3.8	7.47e-01	0	43	104	0	80	29347
2026-01-24 03:21:56.09	228.66	5.80	-54.8	-72.6	3.8	7.47e-01	0	43	104	0	80	29233
2026-01-24 03:21:59.12	228.57	5.56	-54.8	-72.6	3.8	7.49e-01	0	43	104	0	80	29272
2026-01-24 03:22:02.15	228.48	5.34	-54.8	-72.6	3.8	7.44e-01	0	43	104	0	80	29291
2026-01-24 03:22:05.17	228.39	5.11	-54.8	-72.6	3.8	7.46e-01	0	43	104	0	80	29260
2026-01-24 03:22:08.19	228.30	4.89	-54.8	-72.6	3.8	7.48e-01	0	43	104	0	80	29230
2026-01-24 03:22:11.22	228.22	4.66	-54.8	-72.6	3.8	7.43e-01	0	43	104	0	80	29269
2026-01-24 03:22:14.24	228.13	4.45	-54.8	-72.6	3.8	7.43e-01	0	43	104	0	80	29249
2026-01-24 03:22:17.27	228.05	4.23	-54.8	-72.6	3.8	7.44e-01	0	43	104	0	80	29311
2026-01-24 03:22:20.29	227.97	4.01	-54.8	-72.6	3.8	7.45e-01	0	43	104	0	80	29299
2026-01-24 03:22:23.32	227.89	3.80	-54.8	-72.6	3.8	7.47e-01	0	43	104	0	80	29277
2026-01-24 03:22:26.34	227.81	3.58	-54.8	-72.6	3.8	7.43e-01	0	43	104	0	80	29266
2026-01-24 03:22:29.37	227.73	3.37	-54.8	-72.6	3.8	7.43e-01	0	43	104	0	80	29251
2026-01-24 03:22:32.39	227.65	3.16	-54.8	-72.6	3.8	7.43e-01	0	43	104	0	80	29222
2026-01-24 03:22:35.42	227.58	2.96	-54.8	-72.6	3.8	7.46e-01	0	43	104	0	80	29194
2026-01-24 03:22:38.44	227.50	2.75	-54.8	-72.6	3.8	7.46e-01	0	43	104	0	80	29242
2026-01-24 03:22:41.46	227.43	2.55	-54.8	-72.6	3.8	7.44e-01	0	43	104	0	80	29321
2026-01-24 03:22:44.49	227.36	2.35	-54.8	-72.6	3.8	7.44e-01	0	43	104	0	80	29258
2026-01-24 03:22:47.51	227.29	2.14	-54.8	-72.6	3.8	7.44e-01	0	43	104	0	80	29270
2026-01-24 03:22:50.54	227.22	1.95	-54.8	-72.6	3.8	7.48e-01	0	43	104	0	80	29248

#Closed at: 2026-01-24 03:22:52
#Recorded file [0 MB]: D:/lorett/data/31041_260124_061011.dat