passes_logs/2026/01/24/R3.2S_Murmansk/R3.2S_Murmansk__20260124_020334_NOAA_20_JPSS-1_rec.log

#Pass ID: 20260124_020334_NOAA 20 (JPSS-1)
#Satellite: NOAA 20 (JPSS-1)
#Configuration: NOAA 20
#almurnet v.1.7.20251203
#Start time: 2026-01-24 02:03:35

#Version: 2.2.20231116
#Station: R3.2S_Murmansk
#Location: 33.079688 lon 68.888172 lat
#TLE: 1 43013U 17073A   26023.57676825  .00000205  00000+0  11821-3 0  9990
#TLE: 2 43013  98.7645 324.4259 0001147  27.0566 333.0670 14.19539368423954

#Time	Az	El	Level	Level2	SNR	BER	BlckErr	Temp	State	Recorded	gain1	gain2
2026-01-24 02:03:35.73	31.06	2.05	-53.5	-68.5	3.8	1.49e+00	0	41	0	0	77	21656
2026-01-24 02:03:39.76	30.94	2.31	-53.5	-68.5	3.8	1.49e+00	0	41	104	0	77	21644
2026-01-24 02:03:43.79	30.82	2.56	-53.6	-68.6	3.8	1.49e+00	0	41	104	0	77	21775
2026-01-24 02:03:47.82	30.70	2.82	-53.5	-68.5	3.8	1.49e+00	0	42	104	0	77	21699
2026-01-24 02:03:51.85	30.57	3.08	-53.5	-68.5	3.8	1.49e+00	0	42	104	0	77	21750
2026-01-24 02:03:55.88	30.44	3.34	-53.5	-68.5	3.8	1.49e+00	0	42	104	0	77	21685
2026-01-24 02:03:59.92	30.31	3.60	-53.5	-68.5	3.8	1.49e+00	0	42	104	0	77	21646
2026-01-24 02:04:03.95	30.17	3.87	-53.5	-68.5	3.8	1.49e+00	0	42	104	0	77	21714
2026-01-24 02:04:07.99	30.04	4.14	-53.5	-68.5	3.8	1.49e+00	0	42	104	0	77	21717
2026-01-24 02:04:12.03	29.90	4.41	-53.5	-68.5	3.8	1.49e+00	0	42	104	0	77	21665
2026-01-24 02:04:16.06	29.75	4.69	-53.5	-68.5	3.8	1.49e+00	0	42	104	0	77	21637
2026-01-24 02:04:20.09	29.61	4.96	-53.5	-68.5	3.8	1.49e+00	0	42	104	0	77	21661
2026-01-24 02:04:24.12	29.46	5.24	-53.5	-68.5	3.8	1.49e+00	0	42	104	0	77	21677
2026-01-24 02:04:28.16	29.31	5.52	-53.5	-68.5	3.8	1.49e+00	0	42	104	0	77	21693
2026-01-24 02:04:32.19	29.15	5.81	-53.5	-68.5	3.8	1.49e+00	0	42	104	0	77	21694
2026-01-24 02:04:36.22	28.99	6.10	-53.5	-68.5	3.8	1.49e+00	0	42	104	0	77	21679
2026-01-24 02:04:40.25	28.83	6.39	-53.5	-68.5	3.8	1.49e+00	0	42	104	0	77	21661
2026-01-24 02:04:44.28	28.66	6.68	-53.5	-68.5	3.8	1.49e+00	0	43	104	0	77	21675
2026-01-24 02:04:48.32	28.49	6.98	-53.5	-68.5	3.8	1.49e+00	0	43	104	0	77	21685
2026-01-24 02:04:52.35	28.32	7.28	-53.5	-68.5	3.8	1.49e+00	0	43	104	0	77	21606
2026-01-24 02:04:56.38	28.14	7.58	-53.5	-68.5	3.8	1.49e+00	0	43	104	0	77	21671
2026-01-24 02:05:00.41	27.96	7.89	-53.5	-68.5	3.8	1.49e+00	0	43	104	0	77	21635
2026-01-24 02:05:04.44	27.77	8.20	-53.5	-68.5	3.8	1.49e+00	0	43	104	0	77	21698
2026-01-24 02:05:08.48	27.58	8.51	-53.5	-68.5	3.8	1.49e+00	0	43	104	0	77	21626
2026-01-24 02:05:12.51	27.39	8.83	-53.5	-68.5	3.8	1.49e+00	0	43	104	0	77	21647
2026-01-24 02:05:16.55	27.18	9.15	-53.5	-68.5	3.8	1.49e+00	0	43	104	0	77	21648
2026-01-24 02:05:20.58	26.98	9.48	-53.5	-68.5	3.8	1.49e+00	0	43	104	0	77	21606
2026-01-24 02:05:24.62	26.77	9.80	-53.5	-68.5	3.8	1.49e+00	0	43	104	0	77	21616
2026-01-24 02:05:28.65	26.56	10.14	-53.5	-68.5	3.8	1.49e+00	0	43	104	0	77	21671
2026-01-24 02:05:32.68	26.34	10.47	-53.5	-68.5	3.8	1.49e+00	0	43	104	0	77	21592
2026-01-24 02:05:36.72	26.11	10.82	-53.5	-68.5	3.8	1.49e+00	0	43	104	0	77	21601
2026-01-24 02:05:40.75	25.88	11.16	-53.5	-68.5	3.8	1.49e+00	0	43	104	0	77	21699
2026-01-24 02:05:44.78	25.64	11.51	-53.5	-68.5	3.8	1.49e+00	0	43	104	0	77	21609
2026-01-24 02:05:48.81	25.40	11.86	-53.5	-68.5	3.8	1.49e+00	0	43	104	0	77	21584
2026-01-24 02:05:52.84	25.15	12.22	-53.5	-68.5	3.8	1.49e+00	0	43	104	0	77	21649
2026-01-24 02:05:56.87	24.89	12.59	-53.5	-68.5	3.8	1.49e+00	0	43	104	0	77	21623
2026-01-24 02:06:00.91	24.63	12.96	-53.5	-68.5	3.8	1.49e+00	0	43	104	0	77	21577
2026-01-24 02:06:04.94	24.36	13.33	-53.5	-68.5	3.8	1.49e+00	0	43	104	0	77	21613
2026-01-24 02:06:08.98	24.08	13.71	-53.5	-68.5	3.8	1.49e+00	0	43	104	0	77	21609
2026-01-24 02:06:13.02	23.79	14.09	-53.5	-68.5	3.8	1.49e+00	0	43	104	0	77	21590
2026-01-24 02:06:17.05	23.50	14.48	-53.5	-68.5	3.8	1.49e+00	0	43	104	0	77	21593
2026-01-24 02:06:21.09	23.20	14.88	-53.5	-68.5	3.8	1.49e+00	0	43	104	0	77	21669
2026-01-24 02:06:25.13	22.89	15.28	-53.5	-68.5	3.8	1.49e+00	0	43	104	0	77	21600
2026-01-24 02:06:29.16	22.57	15.69	-53.5	-68.5	3.8	1.49e+00	0	43	104	0	77	21661
2026-01-24 02:06:33.19	22.24	16.10	-53.5	-68.5	3.8	1.49e+00	0	43	104	0	77	21673
2026-01-24 02:06:37.22	21.90	16.51	-53.5	-68.5	3.8	1.49e+00	0	43	104	0	77	21660
2026-01-24 02:06:41.26	21.55	16.94	-53.5	-68.5	3.8	1.49e+00	0	43	104	0	77	21617
2026-01-24 02:06:45.29	21.19	17.37	-53.5	-68.5	3.8	1.49e+00	0	43	104	0	77	21624
2026-01-24 02:06:49.32	20.83	17.81	-53.5	-68.5	3.8	1.49e+00	0	43	104	0	77	21605
2026-01-24 02:06:53.36	20.44	18.25	-53.5	-68.5	3.8	1.49e+00	0	43	104	0	77	21637
2026-01-24 02:06:57.39	20.05	18.70	-53.5	-68.5	3.8	1.49e+00	0	43	104	0	77	21598
2026-01-24 02:07:01.42	19.65	19.16	-53.5	-68.5	3.8	1.49e+00	0	43	104	0	77	21641
2026-01-24 02:07:05.46	19.23	19.62	-53.5	-68.5	3.8	1.49e+00	0	43	104	0	77	21592
2026-01-24 02:07:09.49	18.80	20.09	-53.5	-68.5	3.8	1.49e+00	0	43	104	0	77	21660
2026-01-24 02:07:13.53	18.35	20.57	-53.5	-68.5	3.8	1.49e+00	0	43	104	0	77	21634
2026-01-24 02:07:17.56	17.89	21.06	-53.5	-68.5	3.8	1.49e+00	0	43	104	0	77	21626
2026-01-24 02:07:21.60	17.42	21.55	-53.5	-68.5	3.8	1.49e+00	0	43	104	0	77	21543
2026-01-24 02:07:25.63	16.93	22.05	-53.5	-68.5	3.8	1.49e+00	0	43	104	0	77	21574
2026-01-24 02:07:29.67	16.42	22.56	-53.5	-68.5	3.8	1.49e+00	0	43	104	0	77	21627
2026-01-24 02:07:33.70	15.89	23.08	-53.5	-68.5	3.8	1.49e+00	0	43	104	0	77	21632
2026-01-24 02:07:37.73	15.35	23.60	-53.5	-68.5	3.8	1.49e+00	0	43	104	0	77	21624
2026-01-24 02:07:41.77	14.79	24.13	-53.5	-68.5	3.8	1.49e+00	0	43	104	0	77	21618
2026-01-24 02:07:45.80	14.21	24.67	-53.5	-68.5	3.8	1.49e+00	0	43	104	0	77	21577
2026-01-24 02:07:49.83	13.60	25.22	-53.5	-68.5	3.8	1.49e+00	0	43	104	0	77	21562
2026-01-24 02:07:53.86	12.98	25.77	-53.5	-68.5	3.8	1.49e+00	0	43	104	0	77	21584
2026-01-24 02:07:57.90	12.33	26.34	-53.5	-68.5	3.8	1.49e+00	0	43	104	0	77	21574
2026-01-24 02:08:01.93	11.66	26.91	-53.5	-68.5	3.8	1.49e+00	0	43	104	0	77	21651
2026-01-24 02:08:05.97	10.96	27.49	-53.5	-68.5	3.8	1.49e+00	0	43	104	0	77	21581
2026-01-24 02:08:10.00	10.24	28.07	-53.5	-68.5	3.8	1.49e+00	0	43	104	0	77	21563
2026-01-24 02:08:14.04	9.48	28.66	-53.5	-68.5	3.8	1.49e+00	0	43	104	0	77	21629
2026-01-24 02:08:18.07	8.70	29.26	-53.5	-68.5	3.8	1.49e+00	0	43	104	0	77	21668
2026-01-24 02:08:22.11	7.89	29.87	-53.5	-68.5	3.8	1.49e+00	0	43	104	0	77	21599
2026-01-24 02:08:26.14	7.05	30.48	-53.5	-68.5	3.8	1.49e+00	0	43	104	0	77	21655
2026-01-24 02:08:30.17	6.18	31.10	-53.5	-68.5	3.8	1.49e+00	0	43	104	0	77	21663
2026-01-24 02:08:34.20	5.27	31.72	-53.5	-68.5	3.8	1.49e+00	0	43	104	0	77	21626
2026-01-24 02:08:38.23	4.32	32.35	-53.5	-68.5	3.8	1.49e+00	0	43	104	0	77	21628
2026-01-24 02:08:42.26	3.34	32.98	-53.5	-68.5	3.8	1.49e+00	0	43	104	0	77	21596
2026-01-24 02:08:46.30	2.31	33.62	-53.5	-68.5	3.8	1.49e+00	0	43	104	0	77	21614
2026-01-24 02:08:50.32	1.25	34.25	-53.5	-68.5	3.8	1.49e+00	0	43	104	0	77	21579
2026-01-24 02:08:54.36	0.14	34.89	-53.5	-68.5	3.8	1.49e+00	0	43	104	0	77	21620
2026-01-24 02:08:58.39	358.99	35.53	-53.5	-68.5	3.8	1.49e+00	0	43	104	0	77	21617
2026-01-24 02:09:02.42	357.79	36.17	-53.5	-68.5	3.8	1.49e+00	0	43	104	0	77	21589
2026-01-24 02:09:06.46	356.54	36.80	-53.5	-68.5	3.8	1.49e+00	0	43	104	0	77	21579
2026-01-24 02:09:10.49	355.24	37.43	-53.5	-68.5	3.8	1.49e+00	0	43	104	0	77	21590
2026-01-24 02:09:14.52	353.89	38.06	-53.5	-68.5	3.8	1.49e+00	0	43	104	0	77	21625
2026-01-24 02:09:18.55	352.49	38.68	-53.5	-68.5	3.8	1.49e+00	0	43	104	0	77	21644
2026-01-24 02:09:22.59	351.03	39.29	-53.5	-68.5	3.8	1.49e+00	0	43	104	0	77	21596
2026-01-24 02:09:26.63	349.52	39.88	-53.5	-68.5	3.8	1.49e+00	0	43	104	0	77	21578
2026-01-24 02:09:30.66	347.95	40.47	-53.5	-68.5	3.8	1.49e+00	0	43	104	0	77	21611
2026-01-24 02:09:34.69	346.33	41.04	-53.5	-68.5	3.8	1.49e+00	0	43	104	0	77	21619
2026-01-24 02:09:38.73	344.64	41.59	-53.5	-68.5	3.8	1.49e+00	0	43	104	0	77	21650
2026-01-24 02:09:42.76	342.90	42.11	-53.5	-68.5	3.8	1.49e+00	0	43	104	0	77	21584
2026-01-24 02:09:46.80	341.10	42.62	-53.5	-68.5	3.8	1.49e+00	0	43	104	0	77	21580
2026-01-24 02:09:50.83	339.25	43.10	-53.5	-68.5	3.8	1.49e+00	0	43	104	0	77	21605
2026-01-24 02:09:54.87	337.33	43.54	-53.5	-68.5	3.8	1.49e+00	0	43	104	0	77	21625
2026-01-24 02:09:58.90	335.37	43.96	-53.5	-68.5	3.8	1.49e+00	0	43	104	0	77	21608
2026-01-24 02:10:02.94	333.36	44.34	-53.5	-68.5	3.8	1.49e+00	0	43	104	0	77	21590
2026-01-24 02:10:06.97	331.30	44.69	-53.5	-68.5	3.8	1.49e+00	0	43	104	0	77	21584
2026-01-24 02:10:11.00	329.20	44.99	-53.5	-68.5	3.8	1.49e+00	0	43	104	0	77	21601
2026-01-24 02:10:15.03	327.06	45.26	-53.5	-68.5	3.8	1.49e+00	0	43	104	0	77	21560
2026-01-24 02:10:19.06	324.89	45.48	-53.5	-68.5	3.8	1.49e+00	0	43	104	0	77	21671
2026-01-24 02:10:23.09	322.69	45.65	-53.5	-68.5	3.8	1.49e+00	0	44	104	0	77	21630
2026-01-24 02:10:27.13	320.46	45.78	-53.5	-68.5	3.8	1.49e+00	0	43	104	0	77	21576
2026-01-24 02:10:31.16	318.23	45.86	-53.5	-68.5	3.8	1.49e+00	0	43	104	0	77	21588
2026-01-24 02:10:35.19	315.98	45.89	-53.5	-68.5	3.8	1.49e+00	0	44	104	0	77	21595
2026-01-24 02:10:39.23	313.73	45.88	-53.5	-68.5	3.8	1.49e+00	0	43	104	0	77	21586
2026-01-24 02:10:43.26	311.49	45.81	-53.5	-68.5	3.8	1.49e+00	0	43	104	0	77	21545
2026-01-24 02:10:47.29	309.27	45.70	-53.5	-68.5	3.8	1.49e+00	0	43	104	0	77	21613
2026-01-24 02:10:51.32	307.06	45.54	-53.5	-68.5	3.8	1.49e+00	0	43	104	0	77	21617
2026-01-24 02:10:55.36	304.87	45.33	-53.5	-68.5	3.8	1.49e+00	0	43	104	0	77	21601
2026-01-24 02:10:59.39	302.72	45.08	-53.5	-68.5	3.8	1.49e+00	0	43	104	0	77	21626
2026-01-24 02:11:03.43	300.60	44.79	-53.5	-68.5	3.8	1.49e+00	0	43	104	0	77	21549
2026-01-24 02:11:07.47	298.52	44.45	-53.5	-68.5	3.8	1.49e+00	0	44	104	0	77	21589
2026-01-24 02:11:11.50	296.50	44.08	-53.5	-68.5	3.8	1.49e+00	0	43	104	0	77	21561
2026-01-24 02:11:15.54	294.51	43.67	-53.5	-68.5	3.8	1.49e+00	0	43	104	0	77	21591
2026-01-24 02:11:19.58	292.58	43.23	-53.5	-68.5	3.8	1.49e+00	0	43	104	0	77	21615
2026-01-24 02:11:23.61	290.71	42.76	-53.5	-68.5	3.8	1.49e+00	0	43	104	0	77	21587
2026-01-24 02:11:27.64	288.90	42.27	-53.5	-68.5	3.8	1.49e+00	0	43	104	0	77	21561
2026-01-24 02:11:31.67	287.14	41.74	-53.5	-68.5	3.8	1.49e+00	0	43	104	0	77	21624
2026-01-24 02:11:35.70	285.43	41.20	-53.5	-68.5	3.8	1.49e+00	0	43	104	0	77	21592
2026-01-24 02:11:39.74	283.78	40.64	-53.5	-68.5	3.8	1.49e+00	0	43	104	0	77	21596
2026-01-24 02:11:43.77	282.20	40.06	-53.5	-68.5	3.8	1.49e+00	0	43	104	0	77	21560
2026-01-24 02:11:47.81	280.66	39.46	-53.5	-68.5	3.8	1.49e+00	0	43	104	0	77	21594
2026-01-24 02:11:51.85	279.18	38.85	-53.5	-68.5	3.8	1.49e+00	0	43	104	0	77	21610
2026-01-24 02:11:55.88	277.77	38.24	-53.5	-68.5	3.8	1.49e+00	0	43	104	0	77	21580
2026-01-24 02:11:59.91	276.40	37.61	-53.5	-68.5	3.8	1.49e+00	0	43	104	0	77	21567
2026-01-24 02:12:03.95	275.08	36.98	-53.5	-68.5	3.8	1.49e+00	0	43	104	0	77	21557
2026-01-24 02:12:07.98	273.82	36.34	-53.5	-68.5	3.8	1.49e+00	0	43	104	0	77	21566
2026-01-24 02:12:12.01	272.60	35.71	-53.5	-68.5	3.8	1.49e+00	0	43	104	0	77	21541
2026-01-24 02:12:16.05	271.43	35.06	-53.5	-68.5	3.8	1.49e+00	0	43	104	0	77	21542
2026-01-24 02:12:20.08	270.31	34.43	-53.5	-68.5	3.8	1.49e+00	0	43	104	0	77	21532
2026-01-24 02:12:24.12	269.23	33.78	-53.5	-68.5	3.8	1.49e+00	0	43	104	0	77	21574
2026-01-24 02:12:28.15	268.19	33.15	-53.5	-68.5	3.8	1.49e+00	0	43	104	0	77	21529
2026-01-24 02:12:32.19	267.19	32.51	-53.5	-68.4	3.8	1.49e+00	0	43	104	0	77	21504
2026-01-24 02:12:36.22	266.23	31.88	-53.5	-68.5	3.8	1.49e+00	0	43	104	0	77	21544
2026-01-24 02:12:40.25	265.31	31.26	-53.5	-68.5	3.8	1.49e+00	0	43	104	0	77	21571
2026-01-24 02:12:44.28	264.42	30.64	-53.5	-68.5	3.8	1.49e+00	0	43	104	0	77	21518
2026-01-24 02:12:48.32	263.57	30.02	-53.5	-68.5	3.8	1.49e+00	0	43	104	0	77	21550
2026-01-24 02:12:52.35	262.74	29.41	-53.5	-68.4	3.8	1.49e+00	0	43	104	0	77	21499
2026-01-24 02:12:56.38	261.95	28.81	-53.5	-68.5	3.8	1.49e+00	0	43	104	0	77	21527
2026-01-24 02:13:00.42	261.19	28.21	-53.5	-68.5	3.8	1.49e+00	0	43	104	0	77	21528
2026-01-24 02:13:04.45	260.46	27.62	-53.5	-68.5	3.8	1.49e+00	0	43	104	0	77	21539
2026-01-24 02:13:08.49	259.75	27.04	-53.5	-68.4	3.8	1.49e+00	0	43	104	0	77	21497
2026-01-24 02:13:12.52	259.07	26.47	-53.5	-68.5	3.8	1.49e+00	0	43	104	0	77	21529
2026-01-24 02:13:16.55	258.41	25.90	-53.5	-68.4	3.8	1.49e+00	0	43	104	0	77	21504
2026-01-24 02:13:20.59	257.78	25.34	-53.5	-68.4	3.8	1.49e+00	0	43	104	0	77	21500
2026-01-24 02:13:24.62	257.17	24.79	-53.5	-68.5	3.8	1.49e+00	0	43	104	0	77	21593
2026-01-24 02:13:28.65	256.58	24.25	-53.5	-68.5	3.8	1.49e+00	0	43	104	0	77	21638
2026-01-24 02:13:32.68	256.01	23.71	-53.5	-68.5	3.8	1.49e+00	0	43	104	0	77	21560
2026-01-24 02:13:36.72	255.46	23.19	-53.5	-68.5	3.8	1.49e+00	0	43	104	0	77	21574
2026-01-24 02:13:40.75	254.92	22.67	-53.5	-68.5	3.8	1.49e+00	0	43	104	0	77	21513
2026-01-24 02:13:44.79	254.41	22.15	-53.5	-68.5	3.8	1.49e+00	0	43	104	0	77	21560
2026-01-24 02:13:48.82	253.91	21.65	-53.5	-68.5	3.8	1.49e+00	0	43	104	0	77	21643
2026-01-24 02:13:52.86	253.43	21.15	-53.5	-68.5	3.8	1.49e+00	0	43	104	0	77	21626
2026-01-24 02:13:56.89	252.96	20.67	-53.5	-68.5	3.8	1.49e+00	0	43	104	0	77	21596
2026-01-24 02:14:00.93	252.51	20.18	-53.5	-68.5	3.8	1.49e+00	0	43	104	0	77	21571
2026-01-24 02:14:04.96	252.08	19.71	-53.5	-68.5	3.8	1.49e+00	0	43	104	0	77	21600
2026-01-24 02:14:09.00	251.65	19.24	-53.5	-68.5	3.8	1.49e+00	0	43	104	0	77	21570
2026-01-24 02:14:13.03	251.24	18.78	-53.5	-68.5	3.8	1.49e+00	0	43	104	0	77	21539
2026-01-24 02:14:17.06	250.84	18.33	-53.5	-68.5	3.8	1.49e+00	0	43	104	0	77	21559
2026-01-24 02:14:21.09	250.46	17.88	-53.5	-68.5	3.8	1.49e+00	0	43	104	0	77	21587
2026-01-24 02:14:25.13	250.08	17.44	-53.5	-68.5	3.8	1.49e+00	0	43	104	0	77	21541
2026-01-24 02:14:29.16	249.72	17.01	-53.5	-68.5	3.8	1.49e+00	0	43	104	0	77	21535
2026-01-24 02:14:33.19	249.37	16.58	-53.5	-68.5	3.8	1.49e+00	0	43	104	0	77	21552
2026-01-24 02:14:37.23	249.02	16.16	-53.5	-68.5	3.8	1.49e+00	0	43	104	0	77	21549
2026-01-24 02:14:41.26	248.69	15.75	-53.5	-68.5	3.8	1.49e+00	0	43	104	0	77	21543
2026-01-24 02:14:45.30	248.37	15.34	-53.5	-68.5	3.8	1.49e+00	0	43	104	0	77	21528
2026-01-24 02:14:49.33	248.05	14.93	-53.5	-68.5	3.8	1.49e+00	0	43	104	0	77	21555
2026-01-24 02:14:53.36	247.75	14.54	-53.5	-68.5	3.8	1.49e+00	0	43	104	0	77	21533
2026-01-24 02:14:57.39	247.45	14.14	-53.5	-68.4	3.8	1.49e+00	0	44	104	0	77	21490
2026-01-24 02:15:01.43	247.16	13.76	-53.5	-68.5	3.8	1.49e+00	0	43	104	0	77	21513
2026-01-24 02:15:05.46	246.88	13.38	-53.5	-68.4	3.8	1.49e+00	0	43	104	0	77	21505
2026-01-24 02:15:09.49	246.60	13.00	-53.5	-68.4	3.8	1.49e+00	0	43	104	0	77	21496
2026-01-24 02:15:13.53	246.34	12.63	-53.5	-68.5	3.8	1.49e+00	0	43	104	0	77	21531
2026-01-24 02:15:17.56	246.08	12.26	-53.5	-68.5	3.8	1.49e+00	0	44	104	0	77	21533
2026-01-24 02:15:21.59	245.82	11.90	-53.5	-68.5	3.8	1.49e+00	0	43	104	0	77	21543
2026-01-24 02:15:25.62	245.57	11.55	-53.5	-68.4	3.8	1.49e+00	0	44	104	0	77	21481
2026-01-24 02:15:29.66	245.33	11.20	-53.5	-68.5	3.8	1.49e+00	0	43	104	0	77	21587
2026-01-24 02:15:33.70	245.10	10.85	-53.5	-68.5	3.8	1.49e+00	0	43	104	0	77	21583
2026-01-24 02:15:37.73	244.87	10.51	-53.5	-68.5	3.8	1.49e+00	0	43	104	0	77	21586
2026-01-24 02:15:41.76	244.64	10.17	-53.5	-68.5	3.8	1.49e+00	0	43	104	0	77	21562
2026-01-24 02:15:45.80	244.43	9.83	-53.5	-68.5	3.8	1.49e+00	0	44	104	0	77	21540
2026-01-24 02:15:49.83	244.21	9.50	-53.5	-68.5	3.8	1.49e+00	0	43	104	0	77	21532
2026-01-24 02:15:53.86	244.00	9.17	-53.5	-68.5	3.8	1.49e+00	0	44	104	0	77	21556
2026-01-24 02:15:57.90	243.80	8.85	-53.5	-68.5	3.8	1.49e+00	0	44	104	0	77	21555
2026-01-24 02:16:01.93	243.60	8.53	-53.5	-68.5	3.8	1.49e+00	0	44	104	0	77	21520
2026-01-24 02:16:05.97	243.41	8.22	-53.5	-68.5	3.8	1.49e+00	0	44	104	0	77	21511
2026-01-24 02:16:10.00	243.22	7.91	-53.5	-68.5	3.8	1.49e+00	0	43	104	0	77	21548
2026-01-24 02:16:14.04	243.03	7.60	-53.5	-68.5	3.8	1.49e+00	0	43	104	0	77	21507
2026-01-24 02:16:18.07	242.85	7.29	-53.5	-68.4	3.8	1.49e+00	0	43	104	0	77	21485
2026-01-24 02:16:22.11	242.67	6.99	-53.5	-68.5	3.8	1.49e+00	0	43	104	0	77	21615
2026-01-24 02:16:26.14	242.50	6.69	-53.5	-68.5	3.8	1.49e+00	0	43	104	0	77	21617
2026-01-24 02:16:30.17	242.33	6.40	-53.5	-68.5	3.8	1.49e+00	0	43	104	0	77	21549
2026-01-24 02:16:34.20	242.16	6.11	-53.5	-68.5	3.8	1.49e+00	0	43	104	0	77	21527
2026-01-24 02:16:38.23	242.00	5.82	-53.5	-68.5	3.8	1.49e+00	0	43	104	0	77	21559
2026-01-24 02:16:42.27	241.84	5.53	-53.5	-68.5	3.8	1.49e+00	0	43	104	0	77	21562
2026-01-24 02:16:46.30	241.69	5.25	-53.5	-68.5	3.8	1.49e+00	0	43	104	0	77	21542
2026-01-24 02:16:50.33	241.53	4.97	-53.5	-68.5	3.8	1.49e+00	0	43	104	0	77	21508
2026-01-24 02:16:54.37	241.38	4.69	-53.5	-68.5	3.8	1.49e+00	0	43	104	0	77	21535
2026-01-24 02:16:58.40	241.24	4.41	-53.5	-68.4	3.8	1.49e+00	0	43	104	0	77	21494
2026-01-24 02:17:02.44	241.09	4.14	-53.5	-68.4	3.8	1.49e+00	0	44	104	0	77	21498
2026-01-24 02:17:06.47	240.95	3.87	-53.5	-68.4	3.8	1.49e+00	0	43	104	0	77	21476
2026-01-24 02:17:10.51	240.82	3.60	-53.5	-68.4	3.8	1.49e+00	0	43	104	0	77	21478
2026-01-24 02:17:14.54	240.68	3.34	-53.4	-68.4	3.8	1.49e+00	0	43	104	0	77	21456
2026-01-24 02:17:18.58	240.55	3.07	-53.4	-68.4	3.8	1.49e+00	0	43	104	0	77	21496
2026-01-24 02:17:22.61	240.42	2.81	-53.4	-68.4	3.8	1.49e+00	0	44	104	0	77	21498
2026-01-24 02:17:26.64	240.29	2.56	-53.4	-68.4	3.8	1.49e+00	0	43	104	0	77	21487
2026-01-24 02:17:30.68	240.17	2.30	-53.4	-68.4	3.8	1.49e+00	0	44	104	0	77	21444
2026-01-24 02:17:34.71	240.04	2.05	-53.4	-68.5	3.8	1.49e+00	0	43	104	0	77	21509

#Closed at: 2026-01-24 02:17:35
#Recorded file [0 MB]: D:/lorett/data/31041_260124_050335.dat