passes_logs/2026/01/24/R3.2S_Murmansk/R3.2S_Murmansk__20260124_052238_NOAA_20_JPSS-1_rec.log

#Pass ID: 20260124_052238_NOAA 20 (JPSS-1)
#Satellite: NOAA 20 (JPSS-1)
#Configuration: NOAA 20
#almurnet v.1.7.20251203
#Start time: 2026-01-24 05:22:39

#Version: 2.2.20231116
#Station: R3.2S_Murmansk
#Location: 33.079688 lon 68.888172 lat
#TLE: 1 43013U 17073A   26023.57676825  .00000205  00000+0  11821-3 0  9990
#TLE: 2 43013  98.7645 324.4259 0001147  27.0566 333.0670 14.19539368423954

#Time	Az	El	Level	Level2	SNR	BER	BlckErr	Temp	State	Recorded	gain1	gain2
2026-01-24 05:22:39.80	65.33	2.06	-51.9	-66.9	3.8	1.49e+00	0	41	0	0	75	20135
2026-01-24 05:22:42.82	65.13	2.23	-51.9	-66.9	3.8	1.49e+00	0	41	104	0	74	21423
2026-01-24 05:22:45.85	64.94	2.40	-51.9	-66.9	3.8	1.49e+00	0	41	104	0	74	21345
2026-01-24 05:22:48.87	64.74	2.57	-51.9	-66.9	3.8	1.49e+00	0	41	104	0	74	21348
2026-01-24 05:22:51.89	64.54	2.75	-51.9	-66.9	3.8	1.49e+00	0	41	104	0	74	21305
2026-01-24 05:22:54.92	64.33	2.92	-51.9	-66.9	3.8	1.49e+00	0	42	104	0	74	21330
2026-01-24 05:22:57.95	64.13	3.10	-51.9	-66.9	3.8	1.49e+00	0	41	104	0	74	21276
2026-01-24 05:23:00.97	63.92	3.28	-51.9	-66.8	3.8	1.49e+00	0	42	104	0	74	21197
2026-01-24 05:23:03.99	63.71	3.45	-51.9	-66.9	3.8	1.49e+00	0	42	104	0	74	21269
2026-01-24 05:23:07.02	63.49	3.63	-51.9	-66.8	3.8	1.49e+00	0	42	104	0	74	21205
2026-01-24 05:23:10.04	63.27	3.81	-51.9	-66.8	3.8	1.49e+00	0	42	104	0	74	21216
2026-01-24 05:23:13.07	63.05	3.99	-51.9	-66.2	3.8	1.49e+00	0	42	104	0	74	19764
2026-01-24 05:23:16.09	62.83	4.17	-51.8	-64.7	3.9	1.49e+00	0	42	104	0	74	16608
2026-01-24 05:23:19.12	62.60	4.35	-51.8	-64.7	3.8	1.48e+00	0	42	104	0	74	16679
2026-01-24 05:23:22.14	62.38	4.53	-51.5	-61.7	4.8	1.16e+00	0	42	0	0	74	11698
2026-01-24 05:23:25.16	62.14	4.71	-50.6	-56.6	8.9	3.90e-02	0	42	0	6291456	73	6922
2026-01-24 05:23:28.18	61.91	4.90	-49.9	-54.5	11.3	1.30e-03	0	42	0	11534336	71	6102
2026-01-24 05:23:31.21	61.67	5.08	-48.5	-51.5	14.4	1.50e-06	0	42	0	17825792	69	4817
2026-01-24 05:23:34.23	61.43	5.27	-49.5	-53.2	12.6	6.35e-04	0	42	0	19922944	71	5247
2026-01-24 05:23:37.25	61.19	5.45	-48.2	-50.9	15.1	0.00e+00	0	42	0	25165824	68	4788
2026-01-24 05:23:40.28	60.94	5.64	-47.9	-50.4	15.6	0.00e+00	0	42	0	31457280	67	4804
2026-01-24 05:23:43.30	60.69	5.82	-47.9	-50.4	15.6	0.00e+00	0	42	0	36700160	67	4795
2026-01-24 05:23:46.32	60.44	6.01	-47.9	-50.4	15.7	0.00e+00	0	42	0	42991616	67	4781
2026-01-24 05:23:49.34	60.18	6.20	-47.8	-50.2	15.9	0.00e+00	0	42	0	48234496	67	4691
2026-01-24 05:23:52.37	59.92	6.39	-47.8	-50.2	16.0	0.00e+00	0	43	0	53477376	67	4685
2026-01-24 05:23:55.39	59.65	6.58	-47.7	-50.0	16.2	0.00e+00	0	43	0	59768832	67	4583
2026-01-24 05:23:58.42	59.38	6.77	-47.8	-50.2	16.1	0.00e+00	0	43	0	65011712	67	4663
2026-01-24 05:24:01.44	59.11	6.97	-47.6	-49.8	16.4	0.00e+00	0	42	0	71303168	67	4475
2026-01-24 05:24:04.46	58.84	7.16	-47.7	-50.0	16.3	0.00e+00	0	43	0	76546048	67	4556
2026-01-24 05:24:07.48	58.56	7.35	-47.7	-49.9	16.4	0.00e+00	0	42	0	81788928	67	4528
2026-01-24 05:24:10.51	58.27	7.55	-47.7	-49.9	16.4	0.00e+00	0	43	0	88080384	67	4520
2026-01-24 05:24:13.53	57.99	7.74	-47.8	-50.1	16.2	0.00e+00	0	43	0	93323264	67	4650
2026-01-24 05:24:16.56	57.70	7.94	-47.7	-50.0	16.5	0.00e+00	0	43	0	99614720	67	4551
2026-01-24 05:24:19.58	57.40	8.13	-47.7	-50.0	16.4	0.00e+00	0	43	0	104857600	67	4550
2026-01-24 05:24:22.60	57.10	8.33	-47.2	-49.1	17.3	0.00e+00	0	43	0	110100480	66	4381
2026-01-24 05:24:25.63	56.80	8.53	-47.1	-49.1	17.3	0.00e+00	0	43	0	116391936	66	4361
2026-01-24 05:24:28.65	56.49	8.73	-47.3	-49.3	17.1	0.00e+00	0	43	0	121634816	66	4464
2026-01-24 05:24:31.68	56.18	8.93	-47.1	-49.1	17.4	0.00e+00	0	43	0	127926272	66	4369
2026-01-24 05:24:34.70	55.86	9.13	-47.3	-49.3	17.2	0.00e+00	0	43	0	133169152	66	4460
2026-01-24 05:24:37.73	55.54	9.33	-47.2	-49.2	17.3	0.00e+00	0	43	0	138412032	66	4416
2026-01-24 05:24:40.75	55.21	9.54	-47.3	-49.3	17.2	0.00e+00	0	43	0	144703488	66	4491
2026-01-24 05:24:43.78	54.88	9.74	-47.3	-49.3	17.3	0.00e+00	0	43	0	149946368	66	4458
2026-01-24 05:24:46.80	54.55	9.94	-47.3	-49.3	17.3	0.00e+00	0	43	0	156237824	66	4470
2026-01-24 05:24:49.83	54.20	10.15	-47.2	-49.1	17.4	0.00e+00	0	43	0	161480704	66	4391
2026-01-24 05:24:52.86	53.86	10.35	-47.4	-49.3	17.3	0.00e+00	0	43	0	166723584	66	4482
2026-01-24 05:24:55.89	53.51	10.56	-47.2	-49.1	17.6	0.00e+00	0	43	0	173015040	66	4359
2026-01-24 05:24:58.91	53.15	10.77	-47.1	-49.0	17.7	0.00e+00	0	43	0	178257920	66	4300
2026-01-24 05:25:01.94	52.79	10.97	-47.0	-48.8	17.8	0.00e+00	0	43	0	184549376	65	4489
2026-01-24 05:25:04.96	52.43	11.18	-47.0	-48.9	17.8	0.00e+00	0	43	0	189792256	65	4509
2026-01-24 05:25:07.99	52.05	11.39	-46.9	-48.7	17.9	0.00e+00	0	43	0	195035136	65	4433
2026-01-24 05:25:11.01	51.68	11.60	-46.8	-48.5	18.2	0.00e+00	0	43	0	201326592	65	4315
2026-01-24 05:25:14.04	51.29	11.81	-46.6	-48.3	18.4	0.00e+00	0	43	0	206569472	65	4206
2026-01-24 05:25:17.06	50.91	12.02	-46.7	-48.4	18.3	0.00e+00	0	43	0	212860928	65	4285
2026-01-24 05:25:20.09	50.51	12.23	-46.6	-48.3	18.4	0.00e+00	0	43	0	218103808	65	4215
2026-01-24 05:25:23.11	50.11	12.44	-46.7	-48.4	18.4	0.00e+00	0	43	0	224395264	65	4263
2026-01-24 05:25:26.13	49.71	12.65	-46.4	-48.1	18.7	0.00e+00	0	43	0	229638144	64	4362
2026-01-24 05:25:29.16	49.30	12.86	-46.4	-48.1	18.6	0.00e+00	0	43	0	234881024	64	4357
2026-01-24 05:25:32.19	48.88	13.07	-46.2	-47.8	19.0	0.00e+00	0	43	0	241172480	64	4206
2026-01-24 05:25:35.22	48.45	13.29	-46.2	-47.8	18.9	0.00e+00	0	43	0	246415360	64	4207
2026-01-24 05:25:38.24	48.03	13.50	-46.2	-47.7	19.1	0.00e+00	0	43	0	252706816	63	4436
2026-01-24 05:25:41.27	47.59	13.71	-46.2	-47.7	19.2	0.00e+00	0	43	0	257949696	63	4401
2026-01-24 05:25:44.29	47.15	13.92	-46.1	-47.7	19.2	0.00e+00	0	43	0	263192576	63	4400
2026-01-24 05:25:47.32	46.70	14.14	-46.3	-47.9	19.0	0.00e+00	0	43	0	269484032	63	4514
2026-01-24 05:25:50.33	46.24	14.35	-46.4	-48.0	18.9	0.00e+00	0	43	0	274726912	63	4574
2026-01-24 05:25:53.36	45.78	14.56	-46.6	-48.2	18.7	0.00e+00	0	43	0	281018368	63	4676
2026-01-24 05:25:56.38	45.31	14.78	-46.4	-48.0	18.7	0.00e+00	0	43	0	286261248	64	4328
2026-01-24 05:25:59.41	44.83	14.99	-46.5	-48.2	18.7	0.00e+00	0	43	0	292552704	64	4398
2026-01-24 05:26:02.43	44.35	15.20	-46.7	-48.4	18.5	0.00e+00	0	43	0	297795584	64	4496
2026-01-24 05:26:05.46	43.86	15.42	-46.8	-48.5	18.4	0.00e+00	0	43	0	303038464	64	4582
2026-01-24 05:26:08.48	43.37	15.63	-46.7	-48.3	18.6	0.00e+00	0	43	0	309329920	64	4475
2026-01-24 05:26:11.50	42.86	15.84	-46.6	-48.3	18.6	0.00e+00	0	43	0	314572800	64	4460
2026-01-24 05:26:14.52	42.35	16.05	-46.6	-48.2	18.6	0.00e+00	0	43	0	320864256	64	4439
2026-01-24 05:26:17.55	41.83	16.26	-46.9	-48.5	18.4	0.00e+00	0	43	0	326107136	64	4598
2026-01-24 05:26:20.58	41.30	16.47	-47.0	-48.7	18.3	0.00e+00	0	43	0	331350016	64	4676
2026-01-24 05:26:23.60	40.77	16.68	-46.8	-48.5	18.5	0.00e+00	0	43	0	337641472	64	4546
2026-01-24 05:26:26.62	40.23	16.89	-46.9	-48.5	18.4	0.00e+00	0	43	0	342884352	64	4595
2026-01-24 05:26:29.65	39.68	17.10	-46.7	-48.4	18.6	0.00e+00	0	43	0	349175808	64	4514
2026-01-24 05:26:32.67	39.12	17.30	-46.8	-48.5	18.5	0.00e+00	0	43	0	354418688	64	4574
2026-01-24 05:26:35.70	38.56	17.51	-46.5	-48.1	18.9	0.00e+00	0	43	0	359661568	64	4376
2026-01-24 05:26:38.72	37.99	17.71	-46.3	-47.8	19.1	0.00e+00	0	43	0	365953024	64	4227
2026-01-24 05:26:41.75	37.40	17.92	-45.9	-47.4	19.7	0.00e+00	0	43	0	371195904	63	4246
2026-01-24 05:26:44.76	36.82	18.12	-45.6	-46.9	20.1	0.00e+00	0	43	0	377487360	63	4038
2026-01-24 05:26:47.78	36.22	18.32	-45.4	-46.7	20.5	0.00e+00	0	43	0	382730240	62	4153
2026-01-24 05:26:50.81	35.62	18.52	-45.2	-46.4	20.6	0.00e+00	0	43	0	387973120	62	4045
2026-01-24 05:26:53.83	35.01	18.71	-44.9	-46.1	20.9	0.00e+00	0	43	0	394264576	61	4134
2026-01-24 05:26:56.86	34.39	18.91	-45.0	-46.2	20.8	0.00e+00	0	43	0	399507456	61	4179
2026-01-24 05:26:59.88	33.76	19.10	-44.6	-45.8	21.2	0.00e+00	0	43	0	405798912	61	3977
2026-01-24 05:27:02.91	33.12	19.29	-44.7	-45.9	21.2	0.00e+00	0	43	0	411041792	61	4009
2026-01-24 05:27:05.93	32.48	19.48	-44.6	-45.8	21.2	0.00e+00	0	43	0	416284672	61	3988
2026-01-24 05:27:08.96	31.82	19.67	-44.3	-45.4	21.6	0.00e+00	0	43	0	422576128	60	4040
2026-01-24 05:27:11.98	31.16	19.85	-44.4	-45.5	21.5	0.00e+00	0	43	0	427819008	60	4086
2026-01-24 05:27:15.01	30.50	20.03	-44.3	-45.4	21.6	0.00e+00	0	43	0	434110464	60	4048
2026-01-24 05:27:18.03	29.82	20.21	-44.4	-45.6	21.5	0.00e+00	0	43	0	439353344	60	4105
2026-01-24 05:27:21.05	29.14	20.38	-44.4	-45.6	21.5	0.00e+00	0	43	0	444596224	60	4116
2026-01-24 05:27:24.08	28.44	20.55	-44.6	-45.7	21.3	0.00e+00	0	43	0	450887680	60	4179
2026-01-24 05:27:27.10	27.75	20.72	-44.6	-45.8	21.3	0.00e+00	0	43	0	456130560	60	4203
2026-01-24 05:27:30.13	27.04	20.88	-44.6	-45.8	21.3	0.00e+00	0	43	0	462422016	60	4205
2026-01-24 05:27:33.15	26.32	21.04	-44.3	-45.4	21.6	0.00e+00	0	43	0	467664896	60	4043
2026-01-24 05:27:36.18	25.60	21.20	-44.1	-45.2	21.7	0.00e+00	0	43	0	472907776	60	3958
2026-01-24 05:27:39.20	24.87	21.36	-44.1	-45.1	22.2	0.00e+00	0	43	0	479199232	59	4139
2026-01-24 05:27:42.23	24.13	21.50	-44.2	-45.3	22.0	0.00e+00	0	43	0	484442112	59	4228
2026-01-24 05:27:45.26	23.39	21.65	-44.3	-45.5	21.9	0.00e+00	0	43	0	490733568	59	4296
2026-01-24 05:27:48.28	22.64	21.79	-44.0	-45.1	22.2	0.00e+00	0	43	0	495976448	59	4130
2026-01-24 05:27:51.30	21.88	21.93	-44.0	-45.1	22.2	0.00e+00	0	43	0	502267904	59	4126
2026-01-24 05:27:54.33	21.12	22.06	-44.4	-45.5	21.9	0.00e+00	0	43	0	507510784	59	4304
2026-01-24 05:27:57.35	20.35	22.18	-44.1	-45.2	22.2	0.00e+00	0	43	0	512753664	59	4180
2026-01-24 05:28:00.38	19.57	22.30	-44.6	-45.8	21.6	0.00e+00	0	43	0	519045120	59	4455
2026-01-24 05:28:03.40	18.79	22.42	-44.5	-45.6	21.8	0.00e+00	0	43	0	524288000	59	4374
2026-01-24 05:28:06.43	18.00	22.53	-44.4	-45.5	21.9	0.00e+00	0	43	0	530579456	59	4301
2026-01-24 05:28:09.46	17.20	22.64	-44.6	-45.8	21.7	0.00e+00	0	43	0	535822336	59	4453
2026-01-24 05:28:12.49	16.40	22.74	-45.1	-46.3	20.9	0.00e+00	0	43	0	541065216	60	4482
2026-01-24 05:28:15.51	15.60	22.83	-45.0	-46.2	21.0	0.00e+00	0	43	0	547356672	61	4162
2026-01-24 05:28:18.54	14.79	22.92	-45.3	-46.6	20.6	0.00e+00	0	43	0	552599552	61	4359
2026-01-24 05:28:21.56	13.97	23.00	-45.4	-46.7	20.5	0.00e+00	0	43	0	558891008	61	4427
2026-01-24 05:28:24.59	13.15	23.08	-45.6	-46.9	20.3	0.00e+00	0	43	0	564133888	61	4513
2026-01-24 05:28:27.61	12.33	23.15	-45.8	-47.2	20.0	0.00e+00	0	43	0	570425344	62	4426
2026-01-24 05:28:30.64	11.51	23.21	-46.1	-47.6	19.7	0.00e+00	0	43	0	575668224	62	4611
2026-01-24 05:28:33.66	10.68	23.27	-45.9	-47.3	19.9	0.00e+00	0	43	0	580911104	62	4467
2026-01-24 05:28:36.68	9.85	23.32	-46.0	-47.4	19.9	0.00e+00	0	43	0	587202560	62	4522
2026-01-24 05:28:39.71	9.01	23.37	-45.9	-47.2	20.0	0.00e+00	0	43	0	592445440	62	4440
2026-01-24 05:28:42.73	8.18	23.40	-45.7	-47.0	20.2	0.00e+00	0	43	0	598736896	62	4335
2026-01-24 05:28:45.76	7.34	23.44	-46.0	-47.4	19.8	0.00e+00	0	43	0	603979776	62	4529
2026-01-24 05:28:48.78	6.50	23.46	-45.7	-47.1	20.1	0.00e+00	0	43	0	609222656	62	4363
2026-01-24 05:28:51.81	5.66	23.48	-45.8	-47.1	20.1	0.00e+00	0	43	0	615514112	62	4389
2026-01-24 05:28:54.83	4.82	23.49	-45.5	-46.8	20.4	0.00e+00	0	43	0	620756992	62	4236
2026-01-24 05:28:57.85	3.98	23.50	-45.7	-47.0	20.2	0.00e+00	0	43	0	627048448	62	4320
2026-01-24 05:29:00.88	3.13	23.50	-45.4	-46.7	20.5	0.00e+00	0	43	0	632291328	62	4178
2026-01-24 05:29:03.90	2.29	23.49	-45.1	-46.4	20.9	0.00e+00	0	43	0	637534208	62	4005
2026-01-24 05:29:06.92	1.45	23.47	-45.0	-46.3	21.0	0.00e+00	0	43	0	643825664	61	4196
2026-01-24 05:29:09.95	0.61	23.45	-44.9	-46.1	21.1	0.00e+00	0	43	0	649068544	61	4128
2026-01-24 05:29:12.97	359.77	23.42	-44.5	-45.6	21.6	0.00e+00	0	43	0	655360000	60	4127
2026-01-24 05:29:15.99	358.93	23.39	-44.3	-45.5	21.7	0.00e+00	0	43	0	660602880	60	4054
2026-01-24 05:29:19.02	358.10	23.35	-44.4	-45.5	22.1	0.00e+00	0	43	0	665845760	59	4311
2026-01-24 05:29:22.04	357.27	23.30	-44.1	-45.2	22.2	0.00e+00	0	43	0	672137216	59	4183
2026-01-24 05:29:25.07	356.43	23.24	-44.0	-45.0	22.4	0.00e+00	0	43	0	677380096	59	4077
2026-01-24 05:29:28.09	355.61	23.18	-44.0	-45.1	22.3	0.00e+00	0	43	0	683671552	59	4114
2026-01-24 05:29:31.12	354.78	23.12	-43.7	-44.7	22.7	0.00e+00	0	43	0	688914432	59	3941
2026-01-24 05:29:34.14	353.96	23.04	-43.6	-44.7	22.7	0.00e+00	0	43	0	694157312	58	4150
2026-01-24 05:29:37.17	353.15	22.97	-44.1	-45.1	22.3	0.00e+00	0	43	0	700448768	58	4391
2026-01-24 05:29:40.19	352.34	22.88	-44.0	-45.0	22.3	0.00e+00	0	43	0	705691648	58	4332
2026-01-24 05:29:43.21	351.53	22.79	-43.9	-45.0	22.4	0.00e+00	0	43	0	711983104	58	4317
2026-01-24 05:29:46.24	350.73	22.69	-44.4	-45.5	21.9	0.00e+00	0	43	0	717225984	59	4328
2026-01-24 05:29:49.26	349.93	22.59	-44.6	-45.7	21.7	0.00e+00	0	43	0	722468864	59	4429
2026-01-24 05:29:52.28	349.14	22.48	-44.4	-45.5	21.6	0.00e+00	0	43	0	728760320	60	4076
2026-01-24 05:29:55.31	348.35	22.37	-44.6	-45.8	21.4	0.00e+00	0	43	0	734003200	60	4205
2026-01-24 05:29:58.33	347.57	22.25	-44.8	-45.9	21.2	0.00e+00	0	43	0	740294656	60	4289
2026-01-24 05:30:01.36	346.80	22.13	-45.0	-46.2	21.0	0.00e+00	0	43	0	745537536	60	4414
2026-01-24 05:30:04.38	346.03	22.00	-45.3	-46.6	20.7	0.00e+00	0	43	0	750780416	61	4351
2026-01-24 05:30:07.40	345.27	21.87	-45.0	-46.2	20.9	0.00e+00	0	43	0	757071872	61	4179
2026-01-24 05:30:10.42	344.52	21.73	-45.3	-46.6	20.6	0.00e+00	0	43	0	762314752	61	4355
2026-01-24 05:30:13.45	343.77	21.59	-45.5	-46.8	20.4	0.00e+00	0	43	0	768606208	61	4472
2026-01-24 05:30:16.47	343.03	21.44	-45.6	-46.9	20.3	0.00e+00	0	43	0	773849088	61	4509
2026-01-24 05:30:19.50	342.30	21.29	-45.8	-47.2	20.0	0.00e+00	0	43	0	780140544	62	4401
2026-01-24 05:30:22.52	341.57	21.14	-45.4	-46.7	20.5	0.00e+00	0	43	0	785383424	62	4146
2026-01-24 05:30:25.55	340.85	20.98	-45.7	-47.0	20.2	0.00e+00	0	43	0	790626304	62	4310
2026-01-24 05:30:28.57	340.14	20.81	-45.8	-47.2	20.0	0.00e+00	0	43	0	796917760	62	4408
2026-01-24 05:30:31.59	339.44	20.65	-45.4	-46.7	20.4	0.00e+00	0	43	0	802160640	62	4166
2026-01-24 05:30:34.62	338.74	20.48	-45.5	-46.9	20.3	0.00e+00	0	43	0	808452096	62	4248
2026-01-24 05:30:37.64	338.05	20.31	-45.5	-46.8	20.3	0.00e+00	0	43	0	813694976	62	4203
2026-01-24 05:30:40.66	337.37	20.13	-45.5	-46.8	20.3	0.00e+00	0	43	0	818937856	62	4218
2026-01-24 05:30:43.69	336.70	19.95	-45.2	-46.4	20.7	0.00e+00	0	43	0	825229312	62	4048
2026-01-24 05:30:46.71	336.04	19.77	-45.2	-46.5	20.6	0.00e+00	0	43	0	830472192	62	4083
2026-01-24 05:30:49.73	335.38	19.59	-45.1	-46.3	20.8	0.00e+00	0	43	0	836763648	62	3987
2026-01-24 05:30:52.76	334.73	19.40	-45.2	-46.5	20.5	0.00e+00	0	43	0	842006528	61	4320
2026-01-24 05:30:55.78	334.09	19.21	-45.3	-46.6	20.5	0.00e+00	0	43	0	847249408	61	4376
2026-01-24 05:30:58.81	333.46	19.02	-45.3	-46.6	20.5	3.00e-06	0	43	0	853540864	61	4349
2026-01-24 05:31:01.83	332.84	18.83	-45.2	-46.4	20.6	0.00e+00	0	43	0	858783744	61	4290
2026-01-24 05:31:04.85	332.22	18.63	-45.2	-46.5	20.5	0.00e+00	0	43	0	865075200	61	4311
2026-01-24 05:31:07.88	331.61	18.43	-45.3	-46.6	20.5	0.00e+00	0	43	0	870318080	61	4349
2026-01-24 05:31:10.91	331.01	18.23	-45.4	-46.7	20.4	0.00e+00	0	43	0	876609536	61	4398
2026-01-24 05:31:13.92	330.42	18.03	-45.4	-46.7	20.3	0.00e+00	0	43	0	881852416	61	4408
2026-01-24 05:31:16.95	329.83	17.83	-45.4	-46.7	20.3	0.00e+00	0	43	0	887095296	61	4422
2026-01-24 05:31:19.97	329.26	17.63	-45.3	-46.6	20.4	0.00e+00	0	43	0	893386752	61	4372
2026-01-24 05:31:23.00	328.69	17.42	-45.2	-46.5	20.5	0.00e+00	0	43	0	898629632	61	4300
2026-01-24 05:31:26.02	328.13	17.22	-45.2	-46.5	20.5	0.00e+00	0	43	0	904921088	61	4298
2026-01-24 05:31:29.05	327.57	17.01	-45.2	-46.5	20.4	0.00e+00	0	43	0	910163968	61	4325
2026-01-24 05:31:32.07	327.03	16.80	-45.1	-46.4	20.6	1.50e-06	0	43	0	915406848	61	4250
2026-01-24 05:31:35.10	326.49	16.59	-45.0	-46.2	20.7	0.00e+00	0	43	0	921698304	60	4424
2026-01-24 05:31:38.12	325.96	16.38	-44.7	-45.9	21.0	0.00e+00	0	43	0	926941184	60	4255
2026-01-24 05:31:41.14	325.44	16.17	-44.8	-46.1	20.8	0.00e+00	0	43	0	933232640	60	4351
2026-01-24 05:31:44.17	324.92	15.96	-44.8	-46.0	20.8	0.00e+00	0	43	0	938475520	60	4327
2026-01-24 05:31:47.19	324.42	15.75	-44.7	-46.0	20.9	0.00e+00	0	43	0	943718400	60	4302
2026-01-24 05:31:50.21	323.92	15.54	-44.5	-45.7	21.2	0.00e+00	0	43	0	950009856	60	4161
2026-01-24 05:31:53.24	323.42	15.33	-44.6	-45.8	21.0	0.00e+00	0	43	0	955252736	60	4228
2026-01-24 05:31:56.26	322.93	15.12	-44.6	-45.8	20.8	0.00e+00	0	43	0	961544192	60	4211
2026-01-24 05:31:59.28	322.46	14.90	-44.6	-45.8	21.1	0.00e+00	0	43	0	966787072	60	4198
2026-01-24 05:32:02.31	321.98	14.69	-44.5	-45.7	21.2	0.00e+00	0	43	0	973078528	60	4146
2026-01-24 05:32:05.33	321.52	14.48	-44.4	-45.6	21.2	0.00e+00	0	43	0	978321408	60	4117
2026-01-24 05:32:08.35	321.06	14.26	-44.5	-45.7	21.1	0.00e+00	0	43	0	983564288	60	4186
2026-01-24 05:32:11.38	320.61	14.05	-44.6	-45.8	21.0	0.00e+00	0	43	0	989855744	60	4239
2026-01-24 05:32:14.40	320.16	13.84	-44.6	-45.9	20.9	0.00e+00	0	43	0	995098624	60	4254
2026-01-24 05:32:17.42	319.72	13.63	-44.7	-46.0	20.8	0.00e+00	0	43	0	1000341504	60	4313
2026-01-24 05:32:20.45	319.29	13.41	-45.0	-46.3	20.5	0.00e+00	0	43	0	1006632960	60	4457
2026-01-24 05:32:23.47	318.86	13.20	-45.2	-46.5	20.3	0.00e+00	0	43	0	1011875840	61	4334
2026-01-24 05:32:26.50	318.44	12.99	-45.3	-46.6	20.2	0.00e+00	0	43	0	1018167296	61	4384
2026-01-24 05:32:29.52	318.03	12.78	-45.1	-46.4	20.3	0.00e+00	0	43	0	1023410176	61	4277
2026-01-24 05:32:32.55	317.62	12.57	-45.0	-46.3	20.3	0.00e+00	0	43	0	1029701632	61	4234
2026-01-24 05:32:35.57	317.22	12.35	-45.2	-46.6	20.1	0.00e+00	0	43	0	1034944512	61	4372
2026-01-24 05:32:38.59	316.82	12.14	-45.5	-46.9	19.8	0.00e+00	0	43	0	1040187392	61	4503
2026-01-24 05:32:41.62	316.43	11.93	-45.5	-46.9	19.8	0.00e+00	0	43	0	1046478848	62	4266
2026-01-24 05:32:44.65	316.04	11.72	-45.6	-47.0	19.7	0.00e+00	0	43	0	1051721728	62	4324
2026-01-24 05:32:47.67	315.66	11.52	-45.7	-47.1	19.6	0.00e+00	0	43	0	1058013184	61	4639
2026-01-24 05:32:50.70	315.29	11.31	-45.6	-47.0	19.7	0.00e+00	0	43	0	1063256064	62	4335
2026-01-24 05:32:53.72	314.92	11.10	-45.6	-47.0	19.6	0.00e+00	0	43	0	1068498944	61	4583
2026-01-24 05:32:56.75	314.56	10.89	-45.8	-47.2	19.4	0.00e+00	0	43	0	1074790400	62	4438
2026-01-24 05:32:59.77	314.20	10.68	-45.9	-47.4	19.2	0.00e+00	0	43	0	1080033280	62	4533
2026-01-24 05:33:02.79	313.85	10.48	-46.3	-47.9	18.8	0.00e+00	0	43	0	1086324736	63	4499
2026-01-24 05:33:05.82	313.50	10.27	-46.1	-47.7	18.9	0.00e+00	0	43	0	1091567616	63	4422
2026-01-24 05:33:08.84	313.15	10.07	-46.1	-47.7	18.9	0.00e+00	0	43	0	1096810496	62	4659
2026-01-24 05:33:11.87	312.82	9.86	-46.1	-47.7	18.9	0.00e+00	0	43	0	1103101952	62	4690
2026-01-24 05:33:14.89	312.48	9.66	-46.1	-47.7	18.9	0.00e+00	0	43	0	1108344832	62	4675
2026-01-24 05:33:17.92	312.15	9.46	-46.2	-47.8	18.8	0.00e+00	0	43	0	1114636288	63	4471
2026-01-24 05:33:20.94	311.83	9.26	-46.6	-48.3	18.3	0.00e+00	0	43	0	1119879168	63	4731
2026-01-24 05:33:23.97	311.51	9.05	-46.7	-48.4	18.2	0.00e+00	0	43	0	1125122048	63	4793
2026-01-24 05:33:26.99	311.20	8.85	-46.6	-48.4	18.1	0.00e+00	0	43	0	1131413504	64	4512
2026-01-24 05:33:30.01	310.89	8.65	-47.0	-48.9	17.5	0.00e+00	0	43	0	1136656384	64	4807
2026-01-24 05:33:33.03	310.58	8.46	-47.2	-49.2	17.3	0.00e+00	0	43	0	1142947840	65	4659
2026-01-24 05:33:36.06	310.28	8.26	-47.2	-49.2	17.2	0.00e+00	0	43	0	1148190720	65	4702
2026-01-24 05:33:39.08	309.98	8.06	-47.4	-49.5	16.9	0.00e+00	0	43	0	1153433600	65	4853
2026-01-24 05:33:42.11	309.69	7.86	-47.3	-49.3	17.1	0.00e+00	0	43	0	1159725056	65	4736
2026-01-24 05:33:45.13	309.40	7.67	-47.1	-49.0	17.3	0.00e+00	0	43	0	1164967936	65	4596
2026-01-24 05:33:48.16	309.11	7.47	-47.0	-49.0	17.4	0.00e+00	0	43	0	1171259392	65	4550
2026-01-24 05:33:51.18	308.83	7.28	-47.1	-49.1	17.3	0.00e+00	0	43	0	1176502272	64	4889
2026-01-24 05:33:54.20	308.55	7.09	-47.3	-49.4	17.0	0.00e+00	0	43	0	1182793728	65	4762
2026-01-24 05:33:57.23	308.28	6.89	-47.6	-49.8	16.5	0.00e+00	0	43	0	1188036608	65	5008
2026-01-24 05:34:00.25	308.01	6.70	-47.5	-49.7	16.6	0.00e+00	0	43	0	1193279488	65	4968
2026-01-24 05:34:03.28	307.74	6.51	-47.7	-49.9	16.4	0.00e+00	0	43	0	1199570944	65	5095
2026-01-24 05:34:06.31	307.48	6.32	-47.4	-49.5	16.7	0.00e+00	0	43	0	1204813824	66	4589
2026-01-24 05:34:09.33	307.22	6.13	-47.7	-49.9	16.3	0.00e+00	0	43	0	1211105280	65	5089
2026-01-24 05:34:12.35	306.97	5.94	-47.8	-50.2	16.1	0.00e+00	0	43	0	1216348160	66	4928
2026-01-24 05:34:15.38	306.71	5.75	-47.8	-50.2	16.0	0.00e+00	0	43	0	1221591040	66	4942
2026-01-24 05:34:18.40	306.46	5.57	-47.8	-50.2	15.9	0.00e+00	0	43	0	1227882496	66	4982
2026-01-24 05:34:21.43	306.22	5.38	-48.0	-50.5	15.6	0.00e+00	0	43	0	1233125376	66	5147
2026-01-24 05:34:24.45	305.98	5.20	-48.3	-51.1	15.0	0.00e+00	0	43	0	1239416832	67	5175
2026-01-24 05:34:27.47	305.74	5.01	-48.4	-51.2	15.0	0.00e+00	0	43	0	1244659712	67	5230
2026-01-24 05:34:30.49	305.50	4.83	-53.0	-68.0	3.8	1.49e+00	0	43	104	1245708288	76	21555
2026-01-24 05:34:33.52	305.27	4.65	-53.6	-68.6	3.8	1.49e+00	0	44	104	1245708288	77	21802
2026-01-24 05:34:36.54	305.04	4.46	-54.0	-69.0	3.8	1.49e+00	0	44	104	1245708288	78	21512
2026-01-24 05:34:39.57	304.81	4.28	-54.1	-69.1	3.8	1.49e+00	0	44	104	1245708288	78	21926
2026-01-24 05:34:42.59	304.59	4.10	-54.3	-69.3	3.8	1.49e+00	0	44	104	1245708288	79	21094
2026-01-24 05:34:45.61	304.37	3.92	-54.4	-69.4	3.8	1.49e+00	0	44	104	1245708288	79	21447
2026-01-24 05:34:48.63	304.15	3.74	-54.3	-69.3	3.8	1.49e+00	0	43	104	1245708288	79	21255
2026-01-24 05:34:51.66	303.93	3.57	-54.2	-69.2	3.8	1.49e+00	0	43	104	1245708288	79	20858
2026-01-24 05:34:54.68	303.72	3.39	-54.0	-69.0	3.8	1.49e+00	0	44	104	1245708288	79	20528
2026-01-24 05:34:57.71	303.51	3.21	-53.9	-69.0	3.8	1.49e+00	0	43	104	1245708288	79	20332
2026-01-24 05:35:00.73	303.30	3.04	-53.9	-68.9	3.8	1.49e+00	0	43	104	1245708288	79	20198
2026-01-24 05:35:03.76	303.09	2.86	-53.9	-68.9	3.8	1.49e+00	0	44	104	1245708288	79	20172
2026-01-24 05:35:06.78	302.89	2.69	-53.9	-68.9	3.8	1.49e+00	0	44	104	1245708288	79	20175
2026-01-24 05:35:09.81	302.69	2.51	-53.9	-68.9	3.8	1.49e+00	0	44	104	1245708288	79	20127
2026-01-24 05:35:12.83	302.49	2.34	-53.8	-68.8	3.8	1.49e+00	0	44	104	1245708288	79	20042
2026-01-24 05:35:15.85	302.30	2.17	-53.8	-68.8	3.8	1.49e+00	0	44	104	1245708288	79	20060
2026-01-24 05:35:18.88	302.11	2.00	-53.8	-68.8	3.8	1.49e+00	0	44	104	1245708288	79	19962

#Closed at: 2026-01-24 05:35:21
#Recorded file [1245 MB]: D:/lorett/data/31041_260124_082239.dat