passes_logs/2026/01/24/R3.2S_Murmansk/R3.2S_Murmansk__20260124_070124_NOAA_20_JPSS-1_rec.log

#Pass ID: 20260124_070124_NOAA 20 (JPSS-1)
#Satellite: NOAA 20 (JPSS-1)
#Configuration: NOAA 20
#almurnet v.1.7.20251203
#Start time: 2026-01-24 07:01:24

#Version: 2.2.20231116
#Station: R3.2S_Murmansk
#Location: 33.079688 lon 68.888172 lat
#TLE: 1 43013U 17073A   26023.57676825  .00000205  00000+0  11821-3 0  9990
#TLE: 2 43013  98.7645 324.4259 0001147  27.0566 333.0670 14.19539368423954

#Time	Az	El	Level	Level2	SNR	BER	BlckErr	Temp	State	Recorded	gain1	gain2
2026-01-24 07:01:24.29	95.37	2.01	-51.9	-66.9	3.8	1.49e+00	0	41	0	0	74	21398
2026-01-24 07:01:28.32	95.17	2.25	-51.9	-66.9	3.8	1.49e+00	0	41	104	0	74	21368
2026-01-24 07:01:32.35	94.96	2.49	-51.9	-66.9	3.8	1.49e+00	0	42	104	0	74	21318
2026-01-24 07:01:36.39	94.75	2.74	-51.9	-66.9	3.8	1.49e+00	0	42	104	0	74	21375
2026-01-24 07:01:40.42	94.53	2.99	-51.9	-66.8	3.8	1.49e+00	0	42	104	0	74	21245
2026-01-24 07:01:44.45	94.31	3.23	-52.0	-66.9	3.8	1.49e+00	0	42	104	0	74	21350
2026-01-24 07:01:48.49	94.09	3.49	-51.9	-66.8	3.8	1.49e+00	0	42	104	0	74	21194
2026-01-24 07:01:52.52	93.86	3.74	-51.9	-66.9	3.8	1.49e+00	0	42	104	0	74	21304
2026-01-24 07:01:56.55	93.63	3.99	-51.9	-65.9	3.8	1.49e+00	0	42	104	0	74	19137
2026-01-24 07:02:00.59	93.39	4.25	-51.8	-64.5	3.9	1.48e+00	0	42	104	0	74	16262
2026-01-24 07:02:04.62	93.15	4.50	-51.8	-64.0	3.8	1.49e+00	0	42	104	0	74	15306
2026-01-24 07:02:08.66	92.91	4.76	-50.9	-57.5	8.0	1.18e-01	0	42	0	5242880	73	7686
2026-01-24 07:02:12.69	92.66	5.03	-49.9	-54.2	11.5	1.03e-03	0	42	0	13631488	71	5922
2026-01-24 07:02:16.73	92.40	5.29	-48.2	-50.8	15.2	3.48e-02	0	42	0	20971520	68	4723
2026-01-24 07:02:20.76	92.14	5.56	-47.9	-50.3	15.7	7.00e-07	0	42	0	26214400	67	4759
2026-01-24 07:02:24.79	91.88	5.82	-47.6	-50.0	15.9	0.00e+00	0	43	0	33554432	66	4852
2026-01-24 07:02:28.82	91.61	6.09	-47.7	-50.2	15.8	0.00e+00	0	43	0	40894464	66	4949
2026-01-24 07:02:32.86	91.33	6.37	-47.5	-49.9	16.1	0.00e+00	0	43	0	48234496	66	4775
2026-01-24 07:02:36.89	91.05	6.64	-47.8	-50.3	15.7	0.00e+00	0	43	0	56623104	66	4985
2026-01-24 07:02:40.93	90.77	6.92	-47.5	-49.8	16.2	0.00e+00	0	43	0	63963136	66	4754
2026-01-24 07:02:44.96	90.48	7.20	-47.5	-49.7	16.4	0.00e+00	0	43	0	71303168	66	4692
2026-01-24 07:02:49.00	90.18	7.48	-47.3	-49.4	16.8	0.00e+00	0	43	0	78643200	66	4509
2026-01-24 07:02:53.03	89.87	7.76	-47.1	-49.2	17.1	0.00e+00	0	43	0	85983232	66	4396
2026-01-24 07:02:57.06	89.56	8.05	-47.3	-49.4	16.9	0.00e+00	0	43	0	94371840	66	4534
2026-01-24 07:03:01.09	89.25	8.34	-47.2	-49.2	17.2	0.00e+00	0	43	0	101711872	66	4422
2026-01-24 07:03:05.13	88.92	8.63	-47.1	-49.1	17.2	0.00e+00	0	43	0	109051904	65	4645
2026-01-24 07:03:09.16	88.59	8.92	-46.9	-48.9	17.5	0.00e+00	0	43	0	116391936	65	4495
2026-01-24 07:03:13.19	88.26	9.22	-46.9	-48.8	17.6	0.00e+00	0	43	0	123731968	65	4461
2026-01-24 07:03:17.22	87.91	9.52	-46.9	-48.7	17.6	0.00e+00	0	43	0	132120576	65	4438
2026-01-24 07:03:21.26	87.56	9.82	-46.7	-48.5	17.9	0.00e+00	0	43	0	139460608	65	4297
2026-01-24 07:03:25.29	87.20	10.12	-46.8	-48.6	17.8	0.00e+00	0	43	0	146800640	65	4373
2026-01-24 07:03:29.32	86.84	10.43	-46.6	-48.4	18.0	0.00e+00	0	43	0	154140672	65	4248
2026-01-24 07:03:33.36	86.46	10.74	-46.6	-48.3	18.1	0.00e+00	0	43	0	161480704	65	4226
2026-01-24 07:03:37.39	86.08	11.05	-46.6	-48.4	18.1	0.00e+00	0	43	0	169869312	65	4265
2026-01-24 07:03:41.43	85.69	11.37	-46.8	-48.6	18.0	0.00e+00	0	43	0	177209344	65	4347
2026-01-24 07:03:45.46	85.29	11.68	-46.6	-48.4	18.2	0.00e+00	0	43	0	184549376	65	4250
2026-01-24 07:03:49.49	84.88	12.00	-46.7	-48.4	18.3	0.00e+00	0	43	0	191889408	65	4263
2026-01-24 07:03:53.52	84.46	12.33	-46.8	-48.6	18.1	0.00e+00	0	43	0	200278016	65	4356
2026-01-24 07:03:57.56	84.03	12.65	-46.7	-48.4	18.3	0.00e+00	0	43	0	207618048	65	4273
2026-01-24 07:04:01.59	83.59	12.98	-46.6	-48.3	18.4	0.00e+00	0	43	0	214958080	64	4442
2026-01-24 07:04:05.62	83.14	13.31	-46.6	-48.3	18.5	0.00e+00	0	43	0	222298112	64	4465
2026-01-24 07:04:09.65	82.68	13.64	-46.6	-48.3	18.4	0.00e+00	0	43	0	229638144	64	4487
2026-01-24 07:04:13.68	82.22	13.98	-46.6	-48.3	18.5	0.00e+00	0	43	0	238026752	64	4447
2026-01-24 07:04:17.72	81.73	14.32	-46.4	-48.0	18.7	0.00e+00	0	43	0	245366784	64	4340
2026-01-24 07:04:21.75	81.24	14.66	-46.4	-47.9	18.8	0.00e+00	0	43	0	252706816	64	4289
2026-01-24 07:04:25.78	80.74	15.00	-46.3	-47.9	18.9	0.00e+00	0	43	0	260046848	64	4267
2026-01-24 07:04:29.81	80.22	15.35	-46.3	-47.8	19.0	0.00e+00	0	43	0	267386880	64	4233
2026-01-24 07:04:33.85	79.69	15.70	-46.5	-48.1	18.7	0.00e+00	0	43	0	275775488	64	4367
2026-01-24 07:04:37.88	79.15	16.05	-46.3	-47.9	18.9	0.00e+00	0	43	0	283115520	64	4281
2026-01-24 07:04:41.91	78.60	16.41	-46.1	-47.6	19.2	0.00e+00	0	43	0	290455552	64	4118
2026-01-24 07:04:45.94	78.03	16.76	-46.0	-47.5	19.4	0.00e+00	0	43	0	297795584	63	4310
2026-01-24 07:04:49.97	77.45	17.12	-46.0	-47.5	19.4	0.00e+00	0	43	0	305135616	63	4333
2026-01-24 07:04:54.00	76.86	17.48	-45.9	-47.3	19.5	0.00e+00	0	43	0	313524224	62	4478
2026-01-24 07:04:58.03	76.25	17.84	-45.8	-47.2	19.7	0.00e+00	0	43	0	320864256	62	4434
2026-01-24 07:05:02.07	75.62	18.21	-45.8	-47.2	19.8	0.00e+00	0	43	0	328204288	62	4407
2026-01-24 07:05:06.10	74.98	18.58	-45.7	-47.1	19.9	0.00e+00	0	43	0	335544320	62	4350
2026-01-24 07:05:10.12	74.32	18.94	-45.8	-47.2	19.7	0.00e+00	0	43	0	343932928	62	4439
2026-01-24 07:05:14.16	73.65	19.31	-45.8	-47.2	19.8	0.00e+00	0	43	0	351272960	62	4408
2026-01-24 07:05:18.19	72.96	19.68	-46.1	-47.6	19.4	0.00e+00	0	43	0	358612992	62	4607
2026-01-24 07:05:22.22	72.25	20.05	-46.2	-47.7	19.3	0.00e+00	0	43	0	365953024	63	4417
2026-01-24 07:05:26.25	71.53	20.43	-46.2	-47.7	19.3	0.00e+00	0	43	0	373293056	63	4437
2026-01-24 07:05:30.28	70.79	20.80	-46.2	-47.8	19.3	0.00e+00	0	43	0	381681664	63	4442
2026-01-24 07:05:34.31	70.03	21.17	-46.1	-47.5	19.6	0.00e+00	0	43	0	389021696	63	4335
2026-01-24 07:05:38.35	69.24	21.55	-45.9	-47.3	19.8	0.00e+00	0	43	0	396361728	63	4223
2026-01-24 07:05:42.38	68.45	21.92	-45.6	-47.0	20.1	0.00e+00	0	43	0	403701760	62	4319
2026-01-24 07:05:46.41	67.63	22.29	-45.7	-47.1	20.1	0.00e+00	0	43	0	411041792	62	4351
2026-01-24 07:05:50.45	66.79	22.66	-45.5	-46.8	20.3	0.00e+00	0	43	0	419430400	62	4225
2026-01-24 07:05:54.48	65.93	23.03	-45.3	-46.6	20.5	0.00e+00	0	43	0	426770432	61	4352
2026-01-24 07:05:58.51	65.05	23.40	-45.1	-46.5	20.6	0.00e+00	0	43	0	434110464	61	4321
2026-01-24 07:06:02.55	64.15	23.76	-44.9	-46.1	21.0	0.00e+00	0	43	0	441450496	60	4378
2026-01-24 07:06:06.59	63.22	24.13	-44.8	-46.0	21.1	0.00e+00	0	43	0	449839104	60	4324
2026-01-24 07:06:10.62	62.28	24.49	-44.9	-46.1	21.1	0.00e+00	0	43	0	457179136	60	4345
2026-01-24 07:06:14.65	61.31	24.84	-44.7	-45.8	21.2	0.00e+00	0	43	0	464519168	60	4239
2026-01-24 07:06:18.69	60.32	25.19	-44.9	-46.1	20.9	0.00e+00	0	43	0	471859200	60	4387
2026-01-24 07:06:22.72	59.31	25.54	-45.3	-46.6	20.6	0.00e+00	0	43	0	479199232	61	4351
2026-01-24 07:06:26.76	58.28	25.88	-45.5	-46.8	20.4	0.00e+00	0	43	0	487587840	61	4469
2026-01-24 07:06:30.79	57.22	26.21	-45.7	-47.0	20.2	0.00e+00	0	43	0	494927872	61	4580
2026-01-24 07:06:34.82	56.15	26.54	-45.6	-46.9	20.4	0.00e+00	0	43	0	502267904	62	4259
2026-01-24 07:06:38.86	55.05	26.86	-46.1	-47.5	19.8	0.00e+00	0	43	0	509607936	62	4574
2026-01-24 07:06:42.89	53.92	27.17	-45.7	-47.1	20.2	0.00e+00	0	43	0	516947968	62	4353
2026-01-24 07:06:46.92	52.78	27.47	-45.7	-47.1	20.2	0.00e+00	0	43	0	525336576	62	4357
2026-01-24 07:06:50.95	51.62	27.77	-45.5	-46.7	20.6	0.00e+00	0	43	0	532676608	62	4186
2026-01-24 07:06:54.98	50.43	28.05	-45.6	-47.0	20.3	0.00e+00	0	43	0	540016640	62	4300
2026-01-24 07:06:59.01	49.23	28.32	-45.4	-47.1	20.2	0.00e+00	0	43	0	547356672	62	4372
2026-01-24 07:07:03.04	48.00	28.58	-46.1	-47.5	19.8	0.00e+00	0	43	0	554696704	62	4581
2026-01-24 07:07:07.07	46.75	28.82	-46.1	-47.5	19.8	0.00e+00	0	44	0	563085312	62	4568
2026-01-24 07:07:11.10	45.49	29.06	-45.9	-47.3	20.0	0.00e+00	0	43	0	570425344	62	4478
2026-01-24 07:07:15.14	44.20	29.28	-46.5	-48.0	19.4	0.00e+00	0	43	0	577765376	63	4549
2026-01-24 07:07:19.17	42.90	29.48	-46.6	-48.1	19.2	0.00e+00	0	43	0	585105408	64	4371
2026-01-24 07:07:23.21	41.58	29.67	-46.6	-48.1	19.2	0.00e+00	0	43	0	593494016	64	4365
2026-01-24 07:07:27.24	40.25	29.84	-46.5	-48.0	19.3	0.00e+00	0	43	0	600834048	64	4307
2026-01-24 07:07:31.27	38.91	30.00	-46.4	-47.8	19.5	0.00e+00	0	43	0	608174080	63	4485
2026-01-24 07:07:35.30	37.55	30.14	-46.4	-47.8	19.5	0.00e+00	0	43	0	615514112	63	4488
2026-01-24 07:07:39.33	36.18	30.26	-46.7	-48.2	19.0	0.00e+00	0	43	0	622854144	64	4427
2026-01-24 07:07:43.36	34.80	30.36	-46.9	-48.5	18.8	0.00e+00	0	43	0	630194176	64	4585
2026-01-24 07:07:47.39	33.42	30.45	-47.2	-48.9	18.4	0.00e+00	0	43	0	638582784	64	4765
2026-01-24 07:07:51.42	32.03	30.51	-47.4	-49.1	18.2	0.00e+00	0	43	0	645922816	65	4623
2026-01-24 07:07:55.45	30.63	30.56	-47.4	-49.2	18.2	0.00e+00	0	43	0	653262848	65	4665
2026-01-24 07:07:59.49	29.23	30.59	-47.5	-49.3	17.9	0.00e+00	0	43	0	660602880	65	4758
2026-01-24 07:08:03.52	27.82	30.59	-47.2	-48.9	18.4	0.00e+00	0	43	0	668991488	65	4536
2026-01-24 07:08:07.55	26.42	30.58	-47.0	-48.6	18.7	0.00e+00	0	44	0	676331520	64	4639
2026-01-24 07:08:11.57	25.03	30.55	-46.5	-48.0	19.3	0.00e+00	0	44	0	683671552	64	4331
2026-01-24 07:08:15.61	23.63	30.50	-46.3	-47.8	19.5	0.00e+00	0	43	0	691011584	64	4215
2026-01-24 07:08:19.64	22.24	30.43	-46.7	-48.3	19.1	0.00e+00	0	43	0	698351616	64	4467
2026-01-24 07:08:23.67	20.85	30.35	-46.8	-48.4	18.9	0.00e+00	0	43	0	706740224	64	4496
2026-01-24 07:08:27.70	19.48	30.24	-46.4	-47.9	19.4	0.00e+00	0	43	0	714080256	64	4275
2026-01-24 07:08:31.73	18.11	30.12	-46.6	-48.1	19.3	0.00e+00	0	43	0	721420288	63	4628
2026-01-24 07:08:35.76	16.76	29.98	-46.6	-48.1	19.4	0.00e+00	0	44	0	728760320	63	4608
2026-01-24 07:08:39.79	15.42	29.82	-45.9	-48.0	19.4	0.00e+00	0	43	0	737148928	63	4574
2026-01-24 07:08:43.83	14.09	29.64	-46.6	-48.1	19.3	0.00e+00	0	43	0	744488960	64	4354
2026-01-24 07:08:47.86	12.77	29.45	-47.0	-48.6	18.7	0.00e+00	0	43	0	751828992	64	4644
2026-01-24 07:08:51.89	11.48	29.25	-47.1	-48.7	18.6	0.00e+00	0	43	0	759169024	64	4698
2026-01-24 07:08:55.93	10.19	29.03	-47.2	-48.8	18.5	0.00e+00	0	43	0	766509056	64	4750
2026-01-24 07:08:59.96	8.93	28.79	-47.1	-48.8	18.5	0.00e+00	0	43	0	773849088	64	4727
2026-01-24 07:09:04.00	7.69	28.54	-47.6	-49.4	17.9	0.00e+00	0	43	0	782237696	65	4778
2026-01-24 07:09:08.03	6.47	28.28	-47.3	-49.0	18.3	0.00e+00	0	43	0	789577728	65	4549
2026-01-24 07:09:12.07	5.26	28.01	-46.8	-48.4	18.9	0.00e+00	0	43	0	796917760	64	4511
2026-01-24 07:09:16.11	4.08	27.73	-46.7	-48.3	19.0	0.00e+00	0	43	0	804257792	64	4466
2026-01-24 07:09:20.14	2.92	27.43	-46.9	-48.5	18.8	0.00e+00	0	43	0	812646400	64	4552
2026-01-24 07:09:24.17	1.78	27.13	-46.3	-47.7	19.7	0.00e+00	0	43	0	819986432	63	4413
2026-01-24 07:09:28.20	0.67	26.82	-46.6	-48.2	19.1	0.00e+00	0	43	0	827326464	64	4394
2026-01-24 07:09:32.23	359.57	26.50	-46.2	-47.7	19.7	0.00e+00	0	43	0	834666496	63	4395
2026-01-24 07:09:36.27	358.50	26.17	-46.1	-47.5	19.8	0.00e+00	0	43	0	842006528	62	4551
2026-01-24 07:09:40.30	357.45	25.84	-46.0	-47.4	19.9	0.00e+00	0	43	0	850395136	62	4517
2026-01-24 07:09:44.33	356.42	25.50	-45.7	-47.1	20.2	0.00e+00	0	43	0	857735168	62	4356
2026-01-24 07:09:48.36	355.42	25.15	-45.4	-46.7	20.6	0.00e+00	0	43	0	865075200	61	4410
2026-01-24 07:09:52.39	354.44	24.80	-45.0	-46.2	21.1	0.00e+00	0	43	0	872415232	60	4399
2026-01-24 07:09:56.43	353.47	24.44	-44.6	-45.7	21.5	0.00e+00	0	43	0	879755264	60	4182
2026-01-24 07:10:00.46	352.53	24.08	-44.1	-45.2	22.0	0.00e+00	0	43	0	888143872	60	3914
2026-01-24 07:10:04.49	351.62	23.72	-44.4	-45.5	21.7	0.00e+00	0	43	0	895483904	60	4076
2026-01-24 07:10:08.52	350.72	23.36	-44.0	-45.0	22.4	0.00e+00	0	43	0	902823936	59	4081
2026-01-24 07:10:12.55	349.85	22.99	-43.8	-44.8	22.6	0.00e+00	0	43	0	910163968	58	4228
2026-01-24 07:10:16.59	348.99	22.62	-43.8	-44.8	22.5	0.00e+00	0	43	0	918552576	58	4230
2026-01-24 07:10:20.62	348.16	22.25	-43.3	-44.5	22.8	0.00e+00	0	43	0	925892608	57	4295
2026-01-24 07:10:24.65	347.35	21.88	-43.7	-44.7	22.6	0.00e+00	0	43	0	933232640	57	4421
2026-01-24 07:10:28.68	346.55	21.51	-43.9	-44.9	22.4	0.00e+00	0	43	0	940572672	58	4288
2026-01-24 07:10:32.71	345.78	21.14	-44.1	-45.2	22.2	0.00e+00	0	43	0	947912704	58	4402
2026-01-24 07:10:36.75	345.02	20.76	-44.4	-45.5	21.8	0.00e+00	0	43	0	956301312	59	4327
2026-01-24 07:10:40.78	344.28	20.39	-44.3	-45.5	21.9	0.00e+00	0	43	0	963641344	59	4292
2026-01-24 07:10:44.81	343.56	20.02	-44.4	-45.6	21.5	0.00e+00	0	43	0	970981376	60	4126
2026-01-24 07:10:48.84	342.86	19.65	-44.6	-45.8	21.3	0.00e+00	0	43	0	978321408	60	4208
2026-01-24 07:10:52.87	342.17	19.28	-44.7	-45.9	21.2	0.00e+00	0	43	0	985661440	60	4250
2026-01-24 07:10:56.91	341.50	18.91	-44.9	-46.2	20.9	0.00e+00	0	43	0	994050048	60	4413
2026-01-24 07:11:00.94	340.85	18.55	-44.7	-46.2	20.9	0.00e+00	0	43	0	1001390080	60	4413
2026-01-24 07:11:04.97	340.21	18.18	-44.9	-46.2	20.9	0.00e+00	0	43	0	1008730112	60	4408
2026-01-24 07:11:09.00	339.59	17.82	-45.3	-46.5	20.5	0.00e+00	0	43	0	1016070144	61	4340
2026-01-24 07:11:13.03	338.99	17.46	-45.3	-46.6	20.4	0.00e+00	0	43	0	1023410176	61	4371
2026-01-24 07:11:17.07	338.39	17.10	-45.1	-46.6	20.3	0.00e+00	0	43	0	1031798784	60	4634
2026-01-24 07:11:21.10	337.82	16.74	-45.7	-47.1	19.8	0.00e+00	0	43	0	1039138816	61	4625
2026-01-24 07:11:25.13	337.25	16.38	-45.7	-47.0	20.0	0.00e+00	0	43	0	1046478848	62	4339
2026-01-24 07:11:29.16	336.70	16.03	-45.7	-47.1	19.9	0.00e+00	0	43	0	1053818880	62	4374
2026-01-24 07:11:33.19	336.17	15.68	-45.9	-47.4	19.7	0.00e+00	0	43	0	1062207488	62	4495
2026-01-24 07:11:37.22	335.64	15.33	-45.9	-47.4	19.6	0.00e+00	0	43	0	1069547520	62	4511
2026-01-24 07:11:41.25	335.13	14.99	-45.9	-47.4	19.6	0.00e+00	0	43	0	1076887552	62	4496
2026-01-24 07:11:45.29	334.63	14.64	-46.1	-47.6	19.4	0.00e+00	0	43	0	1084227584	62	4612
2026-01-24 07:11:49.32	334.14	14.30	-46.2	-47.7	19.3	0.00e+00	0	43	0	1091567616	63	4425
2026-01-24 07:11:53.35	333.66	13.97	-46.2	-47.7	19.3	0.00e+00	0	43	0	1099956224	62	4662
2026-01-24 07:11:57.38	333.20	13.63	-46.1	-47.6	19.3	0.00e+00	0	43	0	1107296256	62	4644
2026-01-24 07:12:01.41	332.74	13.30	-44.8	-47.9	19.0	0.00e+00	0	43	0	1114636288	63	4508
2026-01-24 07:12:05.44	332.30	12.97	-46.6	-48.2	18.7	0.00e+00	0	43	0	1121976320	63	4675
2026-01-24 07:12:09.48	331.86	12.64	-46.5	-48.1	18.7	0.00e+00	0	43	0	1129316352	63	4650
2026-01-24 07:12:13.51	331.44	12.32	-46.6	-48.3	18.6	0.00e+00	0	43	0	1137704960	63	4728
2026-01-24 07:12:17.55	331.02	12.00	-46.5	-48.1	18.7	0.00e+00	0	43	0	1145044992	63	4634
2026-01-24 07:12:21.58	330.61	11.68	-46.8	-48.5	18.2	0.00e+00	0	43	0	1152385024	64	4580
2026-01-24 07:12:25.61	330.22	11.36	-46.9	-48.7	18.0	0.00e+00	0	43	0	1159725056	64	4700
2026-01-24 07:12:29.65	329.83	11.05	-46.8	-48.6	18.1	0.00e+00	0	43	0	1167065088	64	4601
2026-01-24 07:12:33.68	329.45	10.74	-46.6	-48.3	18.5	0.00e+00	0	43	0	1175453696	63	4720
2026-01-24 07:12:37.71	329.07	10.43	-46.6	-48.3	18.4	0.00e+00	0	44	0	1182793728	64	4457
2026-01-24 07:12:41.75	328.71	10.12	-46.7	-48.5	18.2	0.00e+00	0	43	0	1190133760	64	4555
2026-01-24 07:12:45.78	328.35	9.82	-46.8	-48.6	18.0	0.00e+00	0	43	0	1197473792	64	4629
2026-01-24 07:12:49.81	328.01	9.52	-47.0	-48.9	17.7	0.00e+00	0	43	0	1205862400	64	4777
2026-01-24 07:12:53.84	327.66	9.22	-47.0	-48.9	17.6	0.00e+00	0	43	0	1213202432	64	4808
2026-01-24 07:12:57.87	327.33	8.93	-47.2	-49.1	17.4	0.00e+00	0	43	0	1220542464	65	4649
2026-01-24 07:13:01.91	327.00	8.63	-47.3	-49.3	17.2	0.00e+00	0	43	0	1227882496	65	4729
2026-01-24 07:13:05.94	326.68	8.34	-47.5	-49.6	16.9	0.00e+00	0	43	0	1235222528	65	4894
2026-01-24 07:13:09.97	326.37	8.05	-47.7	-49.9	16.6	0.00e+00	0	43	0	1242562560	66	4793
2026-01-24 07:13:14.00	326.06	7.77	-47.6	-49.8	16.7	0.00e+00	0	43	0	1250951168	65	4988
2026-01-24 07:13:18.03	325.76	7.49	-47.6	-49.7	16.7	0.00e+00	0	43	0	1258291200	66	4704
2026-01-24 07:13:22.07	325.47	7.21	-47.8	-50.1	16.2	0.00e+00	0	43	0	1265631232	66	4915
2026-01-24 07:13:26.10	325.18	6.93	-47.8	-50.1	16.2	0.00e+00	0	43	0	1272971264	66	4917
2026-01-24 07:13:30.13	324.89	6.65	-48.0	-50.5	15.8	0.00e+00	0	43	0	1281359872	66	5117
2026-01-24 07:13:34.16	324.62	6.38	-48.5	-51.2	15.1	0.00e+00	0	43	0	1288699904	67	5231
2026-01-24 07:13:38.20	324.34	6.11	-48.2	-50.8	15.4	0.00e+00	0	43	0	1296039936	67	5006
2026-01-24 07:13:42.23	324.08	5.84	-48.7	-51.7	14.5	0.00e+00	0	43	0	1303379968	67	5530
2026-01-24 07:13:46.27	323.81	5.57	-48.5	-51.4	14.7	0.00e+00	0	43	0	1310720000	67	5367
2026-01-24 07:13:50.30	323.56	5.30	-48.8	-51.8	14.4	3.00e-06	0	43	0	1319108608	68	5310
2026-01-24 07:13:54.33	323.30	5.04	-48.7	-51.7	14.3	1.52e-05	0	43	0	1326448640	69	4972
2026-01-24 07:13:58.36	323.06	4.78	-53.3	-68.2	3.8	1.49e+00	0	43	104	1327497216	77	21011
2026-01-24 07:14:02.39	322.81	4.52	-53.8	-68.8	3.9	1.49e+00	0	44	104	1327497216	78	21226
2026-01-24 07:14:06.43	322.58	4.26	-54.1	-69.1	3.8	1.49e+00	0	43	104	1327497216	78	21960
2026-01-24 07:14:10.46	322.34	4.01	-54.3	-69.3	3.8	1.49e+00	0	43	104	1327497216	79	21197
2026-01-24 07:14:14.49	322.11	3.75	-54.2	-69.2	3.8	1.49e+00	0	44	104	1327497216	79	20929
2026-01-24 07:14:18.53	321.89	3.50	-54.1	-69.2	3.8	1.49e+00	0	43	104	1327497216	79	20831
2026-01-24 07:14:22.56	321.67	3.25	-53.5	-68.9	3.8	1.49e+00	0	44	104	1327497216	79	20211
2026-01-24 07:14:26.60	321.45	3.00	-53.8	-68.8	3.8	1.49e+00	0	44	104	1327497216	79	20020
2026-01-24 07:14:30.63	321.23	2.76	-53.8	-68.8	3.8	1.49e+00	0	44	104	1327497216	78	21153
2026-01-24 07:14:34.66	321.03	2.51	-53.8	-68.8	3.8	1.49e+00	0	44	104	1327497216	78	21061
2026-01-24 07:14:38.69	320.82	2.27	-53.8	-68.7	3.8	1.49e+00	0	44	104	1327497216	78	20990
2026-01-24 07:14:42.73	320.62	2.03	-53.7	-68.7	3.8	1.49e+00	0	44	104	1327497216	78	21002

#Closed at: 2026-01-24 07:14:44
#Recorded file [1327 MB]: D:/lorett/data/31041_260124_100124.dat