passes_logs/2026/01/24/R3.2S_Murmansk/R3.2S_Murmansk__20260124_103626_KANOPUS-V_5_rec.log

#Pass ID: 20260124_103626_KANOPUS-V 5
#Satellite: KANOPUS-V 5
#Configuration: KANOPUS-V_8320
#almurnet v.1.7.20251203
#Start time: 2026-01-24 10:36:26

#Version: 2.2.20231116
#Station: R3.2S_Murmansk
#Location: 33.079688 lon 68.888172 lat
#TLE: 1 43876U 18111A   26023.64356892  .00004816  00000+0  20464-3 0  9993
#TLE: 2 43876  97.3677 292.0017 0001813  88.2876 271.8569 15.23520012392780

#Time	Az	El	Level	Level2	SNR	BER	BlckErr	Temp	State	Recorded	gain1	gain2
2026-01-24 10:36:26.27	246.41	1.99	-53.1	-61.9	3.8	7.45e-01	0	44	0	0	78	9591
2026-01-24 10:36:28.29	246.71	2.07	-53.1	-61.9	3.8	7.47e-01	0	44	104	0	77	10142
2026-01-24 10:36:30.30	247.00	2.16	-53.1	-61.9	3.8	7.44e-01	0	44	104	0	77	10154
2026-01-24 10:36:32.32	247.30	2.25	-53.1	-61.9	3.8	7.44e-01	0	43	104	0	77	10130
2026-01-24 10:36:34.33	247.60	2.34	-53.1	-61.9	3.8	7.46e-01	0	44	104	0	77	10126
2026-01-24 10:36:36.35	247.90	2.43	-53.1	-61.9	3.8	7.45e-01	0	44	104	0	77	10079
2026-01-24 10:36:38.37	248.20	2.52	-53.1	-61.9	3.8	7.44e-01	0	44	104	0	77	10084
2026-01-24 10:36:40.39	248.51	2.61	-53.1	-61.9	3.8	7.46e-01	0	44	104	0	77	10100
2026-01-24 10:36:42.40	248.81	2.69	-53.1	-61.9	3.8	7.45e-01	0	44	104	0	77	10107
2026-01-24 10:36:44.42	249.12	2.78	-53.1	-61.9	3.8	7.45e-01	0	44	104	0	77	10138
2026-01-24 10:36:46.43	249.44	2.87	-53.1	-61.9	3.8	7.44e-01	0	44	104	0	77	10143
2026-01-24 10:36:48.45	249.75	2.96	-53.1	-61.9	3.8	7.44e-01	0	44	104	0	77	10088
2026-01-24 10:36:50.47	250.07	3.04	-53.1	-61.9	3.8	7.44e-01	0	44	104	0	77	10109
2026-01-24 10:36:52.48	250.39	3.13	-53.0	-61.9	3.8	7.46e-01	0	44	104	0	77	10089
2026-01-24 10:36:54.50	250.71	3.22	-53.0	-61.9	3.8	7.45e-01	0	44	104	0	77	10101
2026-01-24 10:36:56.51	251.03	3.30	-53.0	-61.9	3.8	7.44e-01	0	44	104	0	77	10100
2026-01-24 10:36:58.53	251.36	3.39	-53.1	-61.9	3.8	7.46e-01	0	44	104	0	77	10097
2026-01-24 10:37:00.55	251.69	3.48	-53.0	-61.9	3.8	7.46e-01	0	44	104	0	77	10071
2026-01-24 10:37:02.56	252.02	3.56	-53.1	-61.9	3.8	7.46e-01	0	44	104	0	77	10105
2026-01-24 10:37:04.58	252.35	3.65	-53.0	-61.9	3.8	7.45e-01	0	44	104	0	77	10065
2026-01-24 10:37:06.60	252.69	3.73	-53.0	-61.9	3.8	7.46e-01	0	44	104	0	77	10074
2026-01-24 10:37:08.61	253.03	3.82	-53.0	-61.9	3.8	7.45e-01	0	44	104	0	77	10079
2026-01-24 10:37:10.63	253.37	3.90	-53.0	-61.8	3.8	7.44e-01	0	44	104	0	77	10019
2026-01-24 10:37:12.65	253.71	3.98	-53.0	-61.8	3.8	7.45e-01	0	44	104	0	77	10018
2026-01-24 10:37:14.66	254.06	4.07	-53.0	-61.8	3.8	7.46e-01	0	44	104	0	77	10020
2026-01-24 10:37:16.68	254.41	4.15	-53.0	-61.8	3.8	7.44e-01	0	44	104	0	77	9999
2026-01-24 10:37:18.70	254.76	4.23	-53.0	-61.8	3.8	7.46e-01	0	44	104	0	77	10057
2026-01-24 10:37:20.72	255.11	4.32	-53.0	-61.8	3.8	7.45e-01	0	44	104	0	77	10029
2026-01-24 10:37:22.73	255.47	4.40	-53.0	-61.8	3.8	7.46e-01	0	44	104	0	77	10022
2026-01-24 10:37:24.75	255.82	4.48	-53.0	-61.8	3.8	7.44e-01	0	44	104	0	77	9991
2026-01-24 10:37:26.76	256.18	4.56	-53.0	-61.8	3.8	7.44e-01	0	44	104	0	77	10006
2026-01-24 10:37:28.78	256.55	4.64	-53.0	-61.8	3.8	7.46e-01	0	44	104	0	77	10024
2026-01-24 10:37:30.80	256.91	4.72	-53.0	-61.8	3.8	7.44e-01	0	44	104	0	77	10018
2026-01-24 10:37:32.81	257.28	4.80	-53.0	-61.8	3.8	7.45e-01	0	44	104	0	77	10005
2026-01-24 10:37:34.83	257.65	4.88	-53.0	-61.8	3.8	7.45e-01	0	44	104	0	77	9979
2026-01-24 10:37:36.84	258.02	4.96	-53.0	-61.8	3.8	7.46e-01	0	44	104	0	77	10018
2026-01-24 10:37:38.86	258.40	5.04	-53.0	-61.9	3.8	7.43e-01	0	44	104	0	77	10087
2026-01-24 10:37:40.87	258.78	5.11	-53.3	-62.1	3.8	7.47e-01	0	44	104	0	77	10405
2026-01-24 10:37:42.89	259.16	5.19	-53.1	-61.9	3.8	7.46e-01	0	44	104	0	77	10144
2026-01-24 10:37:44.91	259.54	5.27	-53.3	-62.1	3.8	7.45e-01	0	44	104	0	77	10325
2026-01-24 10:37:46.93	259.93	5.34	-53.1	-61.9	3.8	7.44e-01	0	44	104	0	77	10146
2026-01-24 10:37:48.94	260.31	5.42	-53.3	-62.1	3.8	7.44e-01	0	44	104	0	77	10351
2026-01-24 10:37:50.95	260.70	5.49	-53.1	-61.9	3.8	7.44e-01	0	44	104	0	77	10127
2026-01-24 10:37:52.97	261.09	5.56	-53.3	-62.1	3.8	7.45e-01	0	44	104	0	77	10331
2026-01-24 10:37:54.99	261.49	5.64	-53.1	-62.0	3.8	7.45e-01	0	44	104	0	77	10177
2026-01-24 10:37:57.00	261.89	5.71	-53.3	-62.1	3.8	7.45e-01	0	44	104	0	77	10368
2026-01-24 10:37:59.02	262.29	5.78	-53.1	-61.9	3.8	7.44e-01	0	44	104	0	77	10122
2026-01-24 10:38:01.03	262.69	5.85	-53.3	-62.1	3.8	7.45e-01	0	44	104	0	77	10359
2026-01-24 10:38:03.05	263.09	5.92	-53.1	-62.0	3.8	7.45e-01	0	44	104	0	77	10193
2026-01-24 10:38:05.07	263.50	5.99	-53.3	-62.1	3.8	7.44e-01	0	44	104	0	77	10313
2026-01-24 10:38:07.09	263.91	6.06	-53.2	-62.0	3.8	7.45e-01	0	44	104	0	77	10219
2026-01-24 10:38:09.10	264.32	6.13	-53.3	-62.1	3.8	7.46e-01	0	44	104	0	77	10351
2026-01-24 10:38:11.12	264.74	6.19	-53.2	-62.0	3.8	7.46e-01	0	44	104	0	77	10255
2026-01-24 10:38:13.13	265.15	6.26	-53.3	-62.1	3.8	7.46e-01	0	44	104	0	77	10339
2026-01-24 10:38:15.15	265.57	6.32	-53.2	-62.0	3.8	7.47e-01	0	44	104	0	77	10244
2026-01-24 10:38:17.16	265.99	6.39	-53.3	-62.1	3.8	7.46e-01	0	44	104	0	77	10365
2026-01-24 10:38:19.18	266.41	6.45	-53.2	-62.0	3.8	7.45e-01	0	44	104	0	77	10255
2026-01-24 10:38:21.19	266.84	6.51	-53.3	-62.1	3.8	7.46e-01	0	44	104	0	77	10369
2026-01-24 10:38:23.21	267.27	6.58	-53.2	-62.0	3.8	7.46e-01	0	44	104	0	77	10205
2026-01-24 10:38:25.23	267.70	6.64	-52.9	-61.8	3.8	7.45e-01	0	44	104	0	77	9970
2026-01-24 10:38:27.24	268.13	6.70	-53.0	-61.8	3.8	7.46e-01	0	44	104	0	77	9994
2026-01-24 10:38:29.26	268.56	6.75	-52.4	-61.3	3.8	7.45e-01	0	44	104	0	76	9988
2026-01-24 10:38:31.28	269.00	6.81	-52.6	-61.5	3.8	7.45e-01	0	44	104	0	76	10222
2026-01-24 10:38:33.29	269.43	6.87	-52.6	-61.4	3.8	7.43e-01	0	44	104	0	76	10172
2026-01-24 10:38:35.31	269.88	6.92	-52.8	-61.6	3.8	7.46e-01	0	44	104	0	76	10412
2026-01-24 10:38:37.33	270.32	6.98	-52.9	-61.7	3.8	7.43e-01	0	44	104	0	76	10515
2026-01-24 10:38:39.34	270.76	7.03	-53.0	-61.8	3.8	7.46e-01	0	44	104	0	76	10624
2026-01-24 10:38:41.36	271.21	7.08	-53.3	-62.1	3.8	7.45e-01	0	44	104	0	77	10394
2026-01-24 10:38:43.37	271.66	7.13	-53.2	-62.0	3.8	7.45e-01	0	44	104	0	77	10283
2026-01-24 10:38:45.39	272.11	7.18	-53.3	-62.2	3.8	7.46e-01	0	44	104	0	77	10427
2026-01-24 10:38:47.40	272.56	7.23	-53.3	-62.1	3.8	7.44e-01	0	44	104	0	77	10340
2026-01-24 10:38:49.42	273.01	7.28	-53.4	-62.2	3.8	7.45e-01	0	44	104	0	77	10418
2026-01-24 10:38:51.43	273.47	7.33	-53.3	-62.1	3.8	7.45e-01	0	44	104	0	77	10371
2026-01-24 10:38:53.45	273.92	7.37	-53.4	-62.2	3.8	7.46e-01	0	44	104	0	77	10482
2026-01-24 10:38:55.47	274.38	7.42	-53.3	-62.1	3.8	7.44e-01	0	44	104	0	77	10331
2026-01-24 10:38:57.49	274.84	7.46	-53.4	-62.2	3.8	7.46e-01	0	44	104	0	77	10449
2026-01-24 10:38:59.50	275.31	7.50	-53.3	-62.1	3.8	7.46e-01	0	44	104	0	77	10338
2026-01-24 10:39:01.52	275.77	7.54	-53.4	-62.2	3.8	7.45e-01	0	44	104	0	77	10462
2026-01-24 10:39:03.54	276.24	7.58	-53.3	-62.1	3.8	7.46e-01	0	44	104	0	77	10368
2026-01-24 10:39:05.55	276.70	7.62	-53.4	-62.2	3.8	7.46e-01	0	44	104	0	77	10508
2026-01-24 10:39:07.57	277.17	7.65	-53.3	-62.1	3.8	7.46e-01	0	44	104	0	77	10390
2026-01-24 10:39:09.59	277.64	7.69	-53.4	-62.2	3.8	7.44e-01	0	44	104	0	77	10489
2026-01-24 10:39:11.60	278.11	7.72	-53.3	-62.1	3.8	7.44e-01	0	44	104	0	77	10369
2026-01-24 10:39:13.62	278.58	7.75	-53.4	-62.2	3.8	7.45e-01	0	44	104	0	77	10505
2026-01-24 10:39:15.64	279.06	7.78	-53.3	-62.1	3.8	7.45e-01	0	44	104	0	77	10380
2026-01-24 10:39:17.65	279.53	7.81	-53.4	-62.3	3.8	7.45e-01	0	44	104	0	77	10554
2026-01-24 10:39:19.67	280.01	7.84	-53.4	-62.2	3.8	7.45e-01	0	44	104	0	77	10460
2026-01-24 10:39:21.69	280.49	7.87	-53.5	-62.3	3.8	7.45e-01	0	44	104	0	77	10589
2026-01-24 10:39:23.70	280.96	7.89	-53.4	-62.2	3.8	7.46e-01	0	44	104	0	77	10436
2026-01-24 10:39:25.72	281.44	7.92	-53.5	-62.3	3.8	7.44e-01	0	44	104	0	77	10609
2026-01-24 10:39:27.73	281.92	7.94	-53.4	-62.2	3.8	7.46e-01	0	44	104	0	77	10484
2026-01-24 10:39:29.75	282.40	7.96	-53.5	-62.3	3.8	7.46e-01	0	44	104	0	77	10640
2026-01-24 10:39:31.76	282.88	7.98	-53.4	-62.2	3.8	7.44e-01	0	44	104	0	77	10515
2026-01-24 10:39:33.78	283.36	8.00	-53.5	-62.4	3.8	7.45e-01	0	44	104	0	77	10661
2026-01-24 10:39:35.80	283.85	8.01	-53.4	-62.3	3.8	7.46e-01	0	44	104	0	77	10534
2026-01-24 10:39:37.81	284.33	8.03	-53.6	-62.4	3.8	7.46e-01	0	44	104	0	77	10748
2026-01-24 10:39:39.83	284.81	8.04	-53.5	-62.3	3.8	7.45e-01	0	44	104	0	77	10577
2026-01-24 10:39:41.84	285.30	8.06	-53.7	-62.5	3.8	7.46e-01	0	44	104	0	77	10786
2026-01-24 10:39:43.86	285.78	8.07	-53.5	-62.4	3.8	7.44e-01	0	44	104	0	77	10673
2026-01-24 10:39:45.88	286.27	8.07	-53.7	-62.6	3.8	7.45e-01	0	44	104	0	78	10307
2026-01-24 10:39:47.90	286.75	8.08	-53.6	-62.4	3.8	7.44e-01	0	44	104	0	78	10128
2026-01-24 10:39:49.91	287.24	8.09	-53.8	-62.6	3.8	7.45e-01	0	44	104	0	78	10325
2026-01-24 10:39:51.93	287.72	8.09	-53.7	-62.5	3.8	7.47e-01	0	44	104	0	78	10235
2026-01-24 10:39:53.95	288.21	8.10	-53.8	-62.6	3.8	7.45e-01	0	44	104	0	78	10343
2026-01-24 10:39:55.96	288.70	8.10	-53.7	-62.5	3.8	7.44e-01	0	44	104	0	78	10269
2026-01-24 10:39:57.98	289.18	8.10	-53.8	-62.6	3.8	7.44e-01	0	44	104	0	78	10357
2026-01-24 10:39:59.99	289.67	8.10	-53.7	-62.6	3.8	7.45e-01	0	44	104	0	78	10307
2026-01-24 10:40:02.01	290.15	8.09	-53.8	-62.7	3.8	7.46e-01	0	44	104	0	78	10421
2026-01-24 10:40:04.02	290.64	8.09	-53.7	-62.6	3.8	7.46e-01	0	44	104	0	78	10336
2026-01-24 10:40:06.04	291.12	8.08	-53.8	-62.6	3.8	7.45e-01	0	44	104	0	78	10376
2026-01-24 10:40:08.05	291.61	8.07	-53.7	-62.5	3.8	7.46e-01	0	44	104	0	78	10284
2026-01-24 10:40:10.07	292.09	8.06	-53.8	-62.6	3.8	7.45e-01	0	44	104	0	78	10304
2026-01-24 10:40:12.09	292.58	8.05	-53.7	-62.5	3.8	7.45e-01	0	44	104	0	78	10278
2026-01-24 10:40:14.10	293.06	8.04	-53.8	-62.6	3.8	7.46e-01	0	44	104	0	78	10313
2026-01-24 10:40:16.12	293.55	8.03	-53.7	-62.5	3.8	7.45e-01	0	44	104	0	78	10243
2026-01-24 10:40:18.13	294.03	8.01	-53.7	-62.5	3.8	7.45e-01	0	44	104	0	78	10264
2026-01-24 10:40:20.15	294.51	8.00	-53.7	-62.4	3.8	7.45e-01	0	44	104	0	78	10173
2026-01-24 10:40:22.17	294.99	7.98	-53.7	-62.5	3.8	7.45e-01	0	44	104	0	78	10283
2026-01-24 10:40:24.19	295.47	7.96	-53.7	-62.5	3.8	7.45e-01	0	44	104	0	78	10193
2026-01-24 10:40:26.20	295.95	7.94	-53.7	-62.5	3.8	7.45e-01	0	44	104	0	78	10238
2026-01-24 10:40:28.21	296.43	7.91	-53.6	-62.4	3.8	7.45e-01	0	44	104	0	78	10118
2026-01-24 10:40:30.23	296.91	7.89	-53.7	-62.5	3.8	7.44e-01	0	44	104	0	78	10221
2026-01-24 10:40:32.25	297.38	7.87	-53.6	-62.4	3.8	7.46e-01	0	44	104	0	78	10093
2026-01-24 10:40:34.26	297.86	7.84	-53.6	-62.5	3.8	7.45e-01	0	44	104	0	78	10179
2026-01-24 10:40:36.28	298.33	7.81	-53.6	-62.4	3.8	7.46e-01	0	44	104	0	78	10149
2026-01-24 10:40:38.29	298.81	7.78	-53.6	-62.5	3.8	7.46e-01	0	44	104	0	78	10180
2026-01-24 10:40:40.31	299.28	7.75	-53.7	-62.5	3.8	7.45e-01	0	44	104	0	78	10230
2026-01-24 10:40:42.33	299.75	7.72	-53.7	-62.5	3.8	7.44e-01	0	44	104	0	78	10214
2026-01-24 10:40:44.34	300.22	7.68	-53.6	-62.5	3.8	7.46e-01	0	44	104	0	78	10181
2026-01-24 10:40:46.36	300.69	7.65	-53.6	-62.4	3.8	7.46e-01	0	44	104	0	78	10172
2026-01-24 10:40:48.38	301.16	7.61	-53.6	-62.5	3.8	7.45e-01	0	44	104	0	78	10179
2026-01-24 10:40:50.39	301.62	7.58	-53.6	-62.4	3.8	7.46e-01	0	44	104	0	78	10129
2026-01-24 10:40:52.41	302.08	7.54	-53.6	-62.4	3.8	7.46e-01	0	44	104	0	78	10092
2026-01-24 10:40:54.43	302.55	7.50	-53.6	-62.4	3.8	7.45e-01	0	44	104	0	78	10094
2026-01-24 10:40:56.44	303.01	7.46	-53.5	-62.4	3.8	7.46e-01	0	44	104	0	78	10075
2026-01-24 10:40:58.46	303.47	7.41	-53.5	-62.3	3.8	7.45e-01	0	44	104	0	78	10003
2026-01-24 10:41:00.48	303.93	7.37	-53.5	-62.4	3.8	7.44e-01	0	44	104	0	78	10098
2026-01-24 10:41:02.49	304.38	7.32	-53.5	-62.4	3.8	7.46e-01	0	44	104	0	78	10081
2026-01-24 10:41:04.51	304.83	7.28	-53.5	-62.3	3.8	7.44e-01	0	44	104	0	78	10010
2026-01-24 10:41:06.53	305.29	7.23	-53.4	-62.2	3.8	7.44e-01	0	44	104	0	78	9943
2026-01-24 10:41:08.54	305.74	7.18	-53.5	-62.3	3.8	7.45e-01	0	44	104	0	78	10025
2026-01-24 10:41:10.55	306.18	7.13	-53.4	-62.2	3.8	7.44e-01	0	44	104	0	78	9933
2026-01-24 10:41:12.57	306.63	7.08	-53.5	-62.3	3.8	7.46e-01	0	44	104	0	78	10004
2026-01-24 10:41:14.59	307.07	7.03	-53.4	-62.2	3.8	7.45e-01	0	44	104	0	78	9923
2026-01-24 10:41:16.60	307.52	6.97	-53.4	-62.3	3.8	7.43e-01	0	44	104	0	78	9956
2026-01-24 10:41:18.62	307.96	6.92	-53.4	-62.2	3.8	7.45e-01	0	44	104	0	78	9864
2026-01-24 10:41:20.64	308.40	6.87	-53.4	-62.3	3.8	7.46e-01	0	44	104	0	78	9972
2026-01-24 10:41:22.65	308.83	6.81	-53.3	-62.2	3.8	7.46e-01	0	44	104	0	78	9836
2026-01-24 10:41:24.67	309.27	6.75	-53.4	-62.2	3.8	7.45e-01	0	44	104	0	78	9920
2026-01-24 10:41:26.69	309.70	6.69	-53.3	-62.1	3.8	7.45e-01	0	44	104	0	78	9826
2026-01-24 10:41:28.70	310.13	6.63	-53.4	-62.2	3.8	7.45e-01	0	44	104	0	78	9925
2026-01-24 10:41:30.72	310.56	6.57	-53.3	-62.1	3.8	7.46e-01	0	44	104	0	78	9793
2026-01-24 10:41:32.73	310.98	6.51	-53.4	-62.2	3.8	7.46e-01	0	44	104	0	78	9901
2026-01-24 10:41:34.75	311.40	6.45	-53.3	-62.1	3.8	7.46e-01	0	44	104	0	78	9727
2026-01-24 10:41:36.76	311.82	6.39	-53.3	-62.1	3.8	7.43e-01	0	44	104	0	78	9827
2026-01-24 10:41:38.78	312.24	6.32	-53.2	-62.0	3.8	7.45e-01	0	44	104	0	78	9679
2026-01-24 10:41:40.80	312.66	6.26	-53.3	-62.1	3.8	7.45e-01	0	44	104	0	78	9808
2026-01-24 10:41:42.81	313.07	6.19	-53.2	-62.0	3.8	7.45e-01	0	44	104	0	78	9656
2026-01-24 10:41:44.83	313.49	6.13	-53.3	-62.1	3.8	7.45e-01	0	44	104	0	78	9792
2026-01-24 10:41:46.85	313.90	6.06	-53.2	-62.0	3.8	7.44e-01	0	44	104	0	78	9618
2026-01-24 10:41:48.86	314.30	5.99	-53.3	-62.1	3.8	7.46e-01	0	44	104	0	78	9745
2026-01-24 10:41:50.88	314.71	5.92	-53.1	-62.0	3.8	7.45e-01	0	44	104	0	78	9634
2026-01-24 10:41:52.89	315.11	5.85	-53.3	-62.1	3.8	7.45e-01	0	44	104	0	78	9781
2026-01-24 10:41:54.91	315.51	5.78	-53.1	-61.9	3.8	7.44e-01	0	44	104	0	78	9589
2026-01-24 10:41:56.93	315.91	5.71	-53.3	-62.1	3.8	7.44e-01	0	44	104	0	78	9762
2026-01-24 10:41:58.94	316.30	5.64	-53.1	-61.9	3.8	7.46e-01	0	44	104	0	78	9571
2026-01-24 10:42:00.96	316.69	5.57	-53.2	-62.0	3.8	7.45e-01	0	44	104	0	78	9710
2026-01-24 10:42:02.98	317.09	5.49	-53.1	-61.9	3.8	7.45e-01	0	44	104	0	78	9539
2026-01-24 10:42:05.00	317.47	5.42	-53.2	-62.0	3.8	7.45e-01	0	44	104	0	78	9651
2026-01-24 10:42:07.01	317.86	5.34	-53.0	-61.9	3.8	7.46e-01	0	44	104	0	78	9531
2026-01-24 10:42:09.03	318.24	5.27	-53.1	-61.9	3.8	7.45e-01	0	44	104	0	77	10168
2026-01-24 10:42:11.05	318.62	5.19	-53.0	-61.8	3.8	7.45e-01	0	44	104	0	77	10002
2026-01-24 10:42:13.06	319.00	5.12	-53.1	-62.0	3.8	7.46e-01	0	44	104	0	77	10182
2026-01-24 10:42:15.08	319.38	5.04	-53.0	-61.8	3.8	7.47e-01	0	44	104	0	77	10033
2026-01-24 10:42:17.09	319.75	4.96	-53.1	-61.9	3.8	7.45e-01	0	44	104	0	77	10169
2026-01-24 10:42:19.11	320.12	4.89	-53.8	-62.6	3.8	7.45e-01	0	44	104	0	78	10335
2026-01-24 10:42:21.13	320.49	4.81	-54.2	-63.1	3.8	7.44e-01	0	44	104	0	78	10931
2026-01-24 10:42:23.14	320.85	4.73	-54.5	-63.3	3.8	7.45e-01	0	44	104	0	79	10638
2026-01-24 10:42:25.16	321.22	4.65	-54.7	-63.5	3.8	7.43e-01	0	44	104	0	80	10252
2026-01-24 10:42:27.18	321.58	4.57	-54.9	-63.7	3.8	7.45e-01	0	44	104	0	80	10459
2026-01-24 10:42:29.20	321.94	4.49	-55.0	-63.8	3.8	7.44e-01	0	44	104	0	80	10639
2026-01-24 10:42:31.22	322.29	4.41	-55.1	-63.9	3.8	7.45e-01	0	44	104	0	80	10749
2026-01-24 10:42:33.24	322.65	4.33	-55.2	-64.0	3.8	7.47e-01	0	44	104	0	80	10826
2026-01-24 10:42:35.25	323.00	4.24	-55.2	-64.0	3.8	7.46e-01	0	44	104	0	81	10288
2026-01-24 10:42:37.27	323.35	4.16	-55.1	-63.9	3.8	7.46e-01	0	44	104	0	81	10135
2026-01-24 10:42:39.29	323.69	4.08	-54.9	-63.8	3.8	7.45e-01	0	44	104	0	81	9961
2026-01-24 10:42:41.30	324.04	4.00	-54.8	-63.6	3.8	7.45e-01	0	44	104	0	81	9822
2026-01-24 10:42:43.32	324.38	3.91	-54.8	-63.7	3.8	7.46e-01	0	44	104	0	81	9839
2026-01-24 10:42:45.33	324.72	3.83	-54.7	-63.5	3.8	7.44e-01	0	44	104	0	81	9706
2026-01-24 10:42:47.35	325.05	3.75	-54.7	-63.6	3.8	7.45e-01	0	44	104	0	81	9727
2026-01-24 10:42:49.37	325.39	3.66	-54.7	-63.5	3.8	7.45e-01	0	44	104	0	81	9681
2026-01-24 10:42:51.38	325.72	3.58	-54.7	-63.5	3.8	7.45e-01	0	44	104	0	81	9634
2026-01-24 10:42:53.40	326.05	3.49	-54.7	-63.5	3.8	7.46e-01	0	44	104	0	81	9661
2026-01-24 10:42:55.41	326.37	3.41	-54.7	-63.5	3.8	7.45e-01	0	44	104	0	81	9642
2026-01-24 10:42:57.43	326.70	3.32	-54.6	-63.5	3.8	7.44e-01	0	44	104	0	81	9635
2026-01-24 10:42:59.45	327.02	3.24	-54.6	-63.5	3.8	7.43e-01	0	44	104	0	81	9654
2026-01-24 10:43:01.47	327.34	3.15	-54.6	-63.5	3.8	7.44e-01	0	44	104	0	81	9666
2026-01-24 10:43:03.49	327.66	3.06	-54.6	-63.4	3.8	7.45e-01	0	44	104	0	81	9564
2026-01-24 10:43:05.50	327.98	2.98	-54.6	-63.4	3.8	7.45e-01	0	44	104	0	81	9555
2026-01-24 10:43:07.52	328.29	2.89	-54.6	-63.4	3.8	7.45e-01	0	44	104	0	81	9502
2026-01-24 10:43:09.53	328.60	2.80	-54.5	-63.4	3.8	7.46e-01	0	44	104	0	81	9511
2026-01-24 10:43:11.55	328.91	2.72	-54.6	-63.4	3.8	7.45e-01	0	44	104	0	81	9557
2026-01-24 10:43:13.57	329.21	2.63	-54.6	-63.4	3.8	7.46e-01	0	44	104	0	81	9518
2026-01-24 10:43:15.59	329.52	2.54	-54.6	-63.4	3.8	7.46e-01	0	44	104	0	81	9525
2026-01-24 10:43:17.60	329.82	2.45	-54.5	-63.4	3.8	7.44e-01	0	44	104	0	81	9511
2026-01-24 10:43:19.62	330.12	2.37	-54.5	-63.3	3.8	7.45e-01	0	44	104	0	81	9491
2026-01-24 10:43:21.64	330.42	2.28	-54.5	-63.4	3.8	7.45e-01	0	44	104	0	81	9500
2026-01-24 10:43:23.65	330.71	2.19	-54.5	-63.4	3.8	7.47e-01	0	44	104	0	81	9501
2026-01-24 10:43:25.67	331.00	2.10	-54.5	-63.3	3.8	7.46e-01	0	44	104	0	81	9475
2026-01-24 10:43:27.69	331.30	2.01	-54.5	-63.4	3.8	7.45e-01	0	44	104	0	81	9544
2026-01-24 10:43:29.71	331.58	1.92	-54.5	-63.3	3.8	7.44e-01	0	44	104	0	81	9471

#Closed at: 2026-01-24 10:43:30
#Recorded file [0 MB]: D:/lorett/data/31041_260124_133626.dat