passes_logs/2026/01/24/R3.2S_Murmansk/R3.2S_Murmansk__20260124_230038_FENGYUN_3D_rec.log

#Pass ID: 20260124_230038_FENGYUN 3D
#Satellite: FENGYUN 3D
#Configuration: FENGYUN 3D
#almurnet v.1.7.20251203
#Start time: 2026-01-24 23:00:40

#Version: 2.2.20231116
#Station: R3.2S_Murmansk
#Location: 33.079688 lon 68.888172 lat
#TLE: 1 43010U 17072A   26024.51794477  .00000040  00000+0  40682-4 0  9990
#TLE: 2 43010  98.9961 356.4820 0002494  91.2631 268.8830 14.19699550424601

#Time	Az	El	Level	Level2	SNR	BER	BlckErr	Temp	State	Recorded	gain1	gain2
2026-01-24 23:00:40.81	19.98	2.09	-53.2	-65.2	3.8	8.47e-01	0	42	0	0	77	14772
2026-01-24 23:00:43.82	20.30	2.21	-53.2	-65.2	3.8	8.46e-01	0	41	104	0	77	14793
2026-01-24 23:00:46.85	20.64	2.32	-53.2	-65.2	3.8	8.46e-01	0	42	104	0	77	14802
2026-01-24 23:00:49.87	20.97	2.44	-53.2	-65.2	3.8	8.46e-01	0	42	104	0	77	14792
2026-01-24 23:00:52.89	21.31	2.56	-53.2	-65.2	3.8	8.46e-01	0	42	104	0	77	14788
2026-01-24 23:00:55.92	21.65	2.67	-53.2	-65.2	3.8	8.48e-01	0	42	104	0	77	14755
2026-01-24 23:00:58.94	21.99	2.79	-53.2	-65.2	3.8	8.46e-01	0	42	104	0	77	14764
2026-01-24 23:01:01.93	22.33	2.90	-53.2	-65.2	3.8	8.45e-01	0	42	104	0	77	14755
2026-01-24 23:01:04.96	22.68	3.02	-53.3	-65.2	3.8	8.47e-01	0	42	104	0	77	14788
2026-01-24 23:01:07.98	23.02	3.14	-53.2	-65.2	3.8	8.46e-01	0	42	104	0	77	14803
2026-01-24 23:01:11.01	23.38	3.25	-53.2	-65.2	3.8	8.46e-01	0	42	104	0	77	14781
2026-01-24 23:01:14.03	23.73	3.37	-53.2	-65.2	3.8	8.46e-01	0	42	104	0	77	14835
2026-01-24 23:01:17.05	24.09	3.48	-53.3	-65.2	3.8	8.45e-01	0	42	104	0	77	14808
2026-01-24 23:01:20.07	24.45	3.59	-53.2	-65.2	3.8	8.45e-01	0	43	104	0	77	14801
2026-01-24 23:01:23.10	24.81	3.71	-53.2	-65.2	3.8	8.46e-01	0	42	104	0	77	14784
2026-01-24 23:01:26.12	25.18	3.82	-53.2	-65.2	3.8	8.46e-01	0	43	104	0	77	14803
2026-01-24 23:01:29.14	25.55	3.93	-53.3	-65.2	3.8	8.45e-01	0	43	104	0	77	14825
2026-01-24 23:01:32.16	25.92	4.04	-53.2	-65.2	3.8	8.45e-01	0	42	104	0	77	14769
2026-01-24 23:01:35.19	26.29	4.15	-53.2	-65.2	3.8	8.46e-01	0	43	104	0	77	14839
2026-01-24 23:01:38.21	26.67	4.27	-53.2	-65.2	3.8	8.46e-01	0	43	104	0	77	14787
2026-01-24 23:01:41.24	27.05	4.38	-53.3	-65.2	3.8	8.46e-01	0	43	104	0	77	14810
2026-01-24 23:01:44.26	27.43	4.49	-53.2	-65.2	3.8	8.47e-01	0	43	104	0	77	14771
2026-01-24 23:01:47.28	27.81	4.59	-53.2	-65.2	3.8	8.45e-01	0	43	104	0	77	14767
2026-01-24 23:01:50.31	28.20	4.70	-53.3	-65.2	3.8	8.45e-01	0	43	104	0	77	14812
2026-01-24 23:01:53.33	28.59	4.81	-53.3	-65.2	3.8	8.46e-01	0	43	104	0	77	14817
2026-01-24 23:01:56.35	28.98	4.92	-53.2	-65.2	3.8	8.46e-01	0	43	104	0	77	14811
2026-01-24 23:01:59.37	29.38	5.03	-53.2	-65.2	3.8	8.46e-01	0	43	104	0	77	14796
2026-01-24 23:02:02.40	29.78	5.13	-53.2	-65.2	3.8	8.48e-01	0	43	104	0	77	14754
2026-01-24 23:02:05.43	30.18	5.24	-53.2	-65.2	3.8	8.46e-01	0	43	104	0	77	14820
2026-01-24 23:02:08.45	30.58	5.34	-53.3	-65.2	3.8	8.47e-01	0	43	104	0	77	14803
2026-01-24 23:02:11.48	30.99	5.45	-53.2	-65.2	3.8	8.45e-01	0	43	104	0	77	14763
2026-01-24 23:02:14.50	31.40	5.55	-53.3	-65.2	3.8	8.46e-01	0	43	104	0	77	14763
2026-01-24 23:02:17.52	31.81	5.65	-53.3	-65.2	3.8	8.46e-01	0	43	104	0	77	14813
2026-01-24 23:02:20.55	32.23	5.75	-53.3	-65.2	3.8	8.47e-01	0	43	104	0	77	14839
2026-01-24 23:02:23.57	32.64	5.85	-53.3	-65.2	3.8	8.46e-01	0	43	104	0	77	14804
2026-01-24 23:02:26.59	33.06	5.95	-53.3	-65.2	3.8	8.46e-01	0	43	104	0	77	14821
2026-01-24 23:02:29.62	33.49	6.05	-53.3	-65.2	3.8	8.45e-01	0	43	104	0	77	14781
2026-01-24 23:02:32.65	33.91	6.15	-53.3	-65.2	3.8	8.46e-01	0	43	104	0	77	14819
2026-01-24 23:02:35.67	34.34	6.25	-53.3	-65.2	3.8	8.47e-01	0	43	104	0	77	14794
2026-01-24 23:02:38.70	34.78	6.34	-53.3	-65.2	3.8	8.46e-01	0	43	104	0	77	14817
2026-01-24 23:02:41.72	35.21	6.44	-53.3	-65.2	3.8	8.47e-01	0	43	104	0	77	14807
2026-01-24 23:02:44.74	35.65	6.53	-53.3	-65.2	3.8	8.45e-01	0	43	104	0	77	14820
2026-01-24 23:02:47.77	36.09	6.62	-53.3	-65.2	3.8	8.46e-01	0	43	104	0	77	14788
2026-01-24 23:02:50.79	36.53	6.71	-53.3	-65.2	3.8	8.46e-01	0	43	104	0	77	14828
2026-01-24 23:02:53.81	36.97	6.81	-53.3	-65.2	3.8	8.46e-01	0	43	104	0	77	14808
2026-01-24 23:02:56.84	37.42	6.90	-53.3	-65.2	3.8	8.46e-01	0	43	104	0	77	14819
2026-01-24 23:02:59.86	37.87	6.98	-53.3	-65.2	3.8	8.46e-01	0	43	104	0	77	14846
2026-01-24 23:03:02.88	38.33	7.07	-53.3	-65.2	3.8	8.47e-01	0	43	104	0	77	14806
2026-01-24 23:03:05.91	38.78	7.16	-53.3	-65.2	3.8	8.46e-01	0	43	104	0	77	14809
2026-01-24 23:03:08.93	39.24	7.24	-53.3	-65.2	3.8	8.47e-01	0	43	104	0	77	14781
2026-01-24 23:03:11.95	39.70	7.32	-53.3	-65.2	3.8	8.47e-01	0	43	104	0	77	14760
2026-01-24 23:03:14.98	40.16	7.41	-53.3	-65.2	3.8	8.45e-01	0	43	104	0	77	14769
2026-01-24 23:03:18.00	40.63	7.49	-53.3	-65.2	3.8	8.46e-01	0	43	104	0	77	14806
2026-01-24 23:03:21.02	41.10	7.57	-53.3	-65.2	3.8	8.46e-01	0	43	104	0	77	14787
2026-01-24 23:03:24.05	41.57	7.65	-53.3	-65.2	3.8	8.46e-01	0	43	104	0	77	14802
2026-01-24 23:03:27.07	42.04	7.72	-53.3	-65.2	3.8	8.46e-01	0	43	104	0	77	14793
2026-01-24 23:03:30.10	42.52	7.80	-53.2	-65.2	3.8	8.46e-01	0	44	104	0	77	14776
2026-01-24 23:03:33.12	43.00	7.87	-53.3	-65.2	3.8	8.46e-01	0	43	104	0	77	14845
2026-01-24 23:03:36.15	43.48	7.94	-53.3	-65.2	3.8	8.46e-01	0	43	104	0	77	14808
2026-01-24 23:03:39.17	43.96	8.01	-53.3	-65.2	3.8	8.47e-01	0	43	104	0	77	14830
2026-01-24 23:03:42.19	44.45	8.08	-53.3	-65.2	3.8	8.46e-01	0	43	104	0	77	14802
2026-01-24 23:03:45.22	44.93	8.15	-53.3	-65.2	3.8	8.46e-01	0	43	104	0	77	14797
2026-01-24 23:03:48.24	45.42	8.22	-53.3	-65.2	3.8	8.46e-01	0	43	104	0	77	14836
2026-01-24 23:03:51.26	45.91	8.28	-53.3	-65.2	3.8	8.46e-01	0	44	104	0	77	14818
2026-01-24 23:03:54.29	46.41	8.34	-53.3	-65.2	3.8	8.46e-01	0	43	104	0	77	14808
2026-01-24 23:03:57.31	46.90	8.41	-53.3	-65.2	3.8	8.45e-01	0	44	104	0	77	14828
2026-01-24 23:04:00.33	47.40	8.46	-53.3	-65.2	3.8	8.46e-01	0	43	104	0	77	14791
2026-01-24 23:04:03.35	47.90	8.52	-53.3	-65.2	3.8	8.46e-01	0	43	104	0	77	14787
2026-01-24 23:04:06.38	48.40	8.58	-53.2	-65.2	3.8	8.45e-01	0	44	104	0	77	14784
2026-01-24 23:04:09.40	48.91	8.63	-53.3	-65.2	3.8	8.46e-01	0	43	104	0	77	14781
2026-01-24 23:04:12.42	49.41	8.69	-53.2	-65.2	3.8	8.46e-01	0	44	104	0	77	14804
2026-01-24 23:04:15.44	49.92	8.74	-53.3	-65.2	3.8	8.47e-01	0	44	104	0	77	14779
2026-01-24 23:04:18.47	50.43	8.79	-53.2	-65.2	3.8	8.45e-01	0	43	104	0	77	14813
2026-01-24 23:04:21.49	50.94	8.83	-53.3	-65.2	3.8	8.46e-01	0	44	104	0	77	14810
2026-01-24 23:04:24.51	51.45	8.88	-53.3	-65.2	3.8	8.45e-01	0	43	104	0	77	14800
2026-01-24 23:04:27.53	51.96	8.92	-53.3	-65.2	3.8	8.47e-01	0	44	104	0	77	14824
2026-01-24 23:04:30.56	52.48	8.96	-53.3	-65.2	3.8	8.47e-01	0	44	104	0	77	14779
2026-01-24 23:04:33.58	52.99	9.00	-53.3	-65.2	3.8	8.47e-01	0	43	104	0	77	14775
2026-01-24 23:04:36.60	53.51	9.04	-53.3	-65.2	3.8	8.46e-01	0	43	104	0	77	14796
2026-01-24 23:04:39.63	54.03	9.07	-53.3	-65.2	3.8	8.46e-01	0	44	104	0	77	14833
2026-01-24 23:04:42.65	54.55	9.11	-53.3	-65.2	3.8	8.46e-01	0	44	104	0	77	14831
2026-01-24 23:04:45.67	55.07	9.14	-53.3	-65.2	3.8	8.45e-01	0	44	104	0	77	14828
2026-01-24 23:04:48.70	55.60	9.17	-53.3	-65.2	3.8	8.46e-01	0	44	104	0	77	14824
2026-01-24 23:04:51.72	56.12	9.20	-53.3	-65.2	3.8	8.47e-01	0	43	104	0	77	14848
2026-01-24 23:04:54.74	56.64	9.22	-53.3	-65.2	3.8	8.47e-01	0	43	104	0	77	14764
2026-01-24 23:04:57.77	57.17	9.24	-53.3	-65.2	3.8	8.46e-01	0	44	104	0	77	14836
2026-01-24 23:05:00.79	57.69	9.27	-53.3	-65.2	3.8	8.45e-01	0	44	104	0	77	14804
2026-01-24 23:05:03.81	58.22	9.29	-53.3	-65.2	3.8	8.46e-01	0	44	104	0	77	14801
2026-01-24 23:05:06.84	58.75	9.30	-53.3	-65.2	3.8	8.47e-01	0	44	104	0	77	14786
2026-01-24 23:05:09.86	59.28	9.32	-53.3	-65.2	3.8	8.47e-01	0	44	104	0	77	14824
2026-01-24 23:05:12.88	59.80	9.33	-53.2	-65.2	3.8	8.46e-01	0	44	104	0	77	14782
2026-01-24 23:05:15.91	60.33	9.34	-53.3	-65.2	3.8	8.47e-01	0	44	104	0	77	14831
2026-01-24 23:05:18.93	60.86	9.35	-53.2	-65.2	3.8	8.45e-01	0	44	104	0	77	14780
2026-01-24 23:05:21.95	61.39	9.36	-53.3	-65.2	3.8	8.47e-01	0	44	104	0	77	14793
2026-01-24 23:05:24.98	61.92	9.36	-53.3	-65.2	3.8	8.46e-01	0	44	104	0	77	14832
2026-01-24 23:05:28.00	62.45	9.36	-53.3	-65.2	3.8	8.46e-01	0	44	104	0	77	14785
2026-01-24 23:05:31.02	62.98	9.36	-53.3	-65.2	3.8	8.47e-01	0	44	104	0	77	14794
2026-01-24 23:05:34.05	63.51	9.36	-53.3	-65.2	3.8	8.46e-01	0	44	104	0	77	14817
2026-01-24 23:05:37.07	64.04	9.36	-53.3	-65.2	3.8	8.47e-01	0	44	104	0	77	14827
2026-01-24 23:05:40.09	64.57	9.35	-53.3	-65.2	3.8	8.46e-01	0	44	104	0	77	14782
2026-01-24 23:05:43.12	65.10	9.34	-53.3	-65.2	3.8	8.46e-01	0	44	104	0	77	14792
2026-01-24 23:05:46.15	65.63	9.33	-53.3	-65.2	3.8	8.46e-01	0	44	104	0	77	14797
2026-01-24 23:05:49.17	66.16	9.32	-53.3	-65.2	3.8	8.47e-01	0	44	104	0	77	14857
2026-01-24 23:05:52.20	66.69	9.31	-53.3	-65.2	3.8	8.46e-01	0	44	104	0	77	14806
2026-01-24 23:05:55.22	67.22	9.29	-53.3	-65.2	3.8	8.47e-01	0	44	104	0	77	14792
2026-01-24 23:05:58.24	67.74	9.27	-53.3	-65.2	3.8	8.46e-01	0	44	104	0	77	14820
2026-01-24 23:06:01.26	68.27	9.25	-53.3	-65.2	3.8	8.45e-01	0	44	104	0	77	14837
2026-01-24 23:06:04.29	68.80	9.23	-53.3	-65.2	3.8	8.46e-01	0	44	104	0	77	14795
2026-01-24 23:06:07.31	69.32	9.20	-53.3	-65.2	3.8	8.45e-01	0	44	104	0	77	14790
2026-01-24 23:06:10.34	69.85	9.18	-53.3	-65.2	3.8	8.45e-01	0	44	104	0	77	14816
2026-01-24 23:06:13.36	70.37	9.15	-53.3	-65.2	3.8	8.46e-01	0	44	104	0	77	14780
2026-01-24 23:06:16.38	70.89	9.12	-53.3	-65.2	3.8	8.46e-01	0	44	104	0	77	14805
2026-01-24 23:06:19.41	71.41	9.08	-53.3	-65.2	3.8	8.46e-01	0	44	104	0	77	14807
2026-01-24 23:06:22.43	71.93	9.05	-53.3	-65.2	3.8	8.46e-01	0	44	104	0	77	14772
2026-01-24 23:06:25.45	72.45	9.01	-53.3	-65.2	3.8	8.46e-01	0	44	104	0	77	14847
2026-01-24 23:06:28.48	72.97	8.97	-53.3	-65.2	3.8	8.45e-01	0	44	104	0	77	14819
2026-01-24 23:06:31.50	73.49	8.93	-53.3	-65.3	3.8	8.46e-01	0	44	104	0	77	14904
2026-01-24 23:06:34.52	74.00	8.89	-53.3	-65.2	3.8	8.46e-01	0	44	104	0	77	14850
2026-01-24 23:06:37.55	74.51	8.84	-53.3	-65.2	3.8	8.45e-01	0	44	104	0	77	14782
2026-01-24 23:06:40.57	75.03	8.80	-53.3	-65.2	3.8	8.46e-01	0	44	104	0	77	14824
2026-01-24 23:06:43.60	75.54	8.75	-53.3	-65.2	3.8	8.46e-01	0	44	104	0	77	14780
2026-01-24 23:06:46.62	76.05	8.70	-53.3	-65.2	3.8	8.47e-01	0	44	104	0	77	14828
2026-01-24 23:06:49.65	76.55	8.65	-53.3	-65.2	3.8	8.46e-01	0	44	104	0	77	14803
2026-01-24 23:06:52.67	77.06	8.59	-53.3	-65.2	3.8	8.47e-01	0	44	104	0	77	14788
2026-01-24 23:06:55.70	77.56	8.54	-53.3	-65.2	3.8	8.45e-01	0	44	104	0	77	14799
2026-01-24 23:06:58.72	78.06	8.48	-53.3	-65.2	3.8	8.46e-01	0	44	104	0	77	14812
2026-01-24 23:07:01.74	78.56	8.42	-53.3	-65.2	3.8	8.47e-01	0	44	104	0	77	14815
2026-01-24 23:07:04.77	79.06	8.36	-53.3	-65.2	3.8	8.46e-01	0	44	104	0	77	14792
2026-01-24 23:07:07.79	79.56	8.29	-53.3	-65.2	3.8	8.47e-01	0	44	104	0	77	14815
2026-01-24 23:07:10.81	80.05	8.23	-53.3	-65.2	3.8	8.48e-01	0	44	104	0	77	14816
2026-01-24 23:07:13.84	80.54	8.16	-53.3	-65.2	3.8	8.46e-01	0	44	104	0	77	14795
2026-01-24 23:07:16.86	81.03	8.10	-53.3	-65.2	3.8	8.45e-01	0	44	104	0	77	14774
2026-01-24 23:07:19.88	81.52	8.03	-53.3	-65.2	3.8	8.46e-01	0	44	104	0	77	14811
2026-01-24 23:07:22.90	82.00	7.96	-53.3	-65.2	3.8	8.46e-01	0	44	104	0	77	14780
2026-01-24 23:07:25.93	82.48	7.88	-53.3	-65.2	3.8	8.46e-01	0	44	104	0	77	14817
2026-01-24 23:07:28.95	82.96	7.81	-53.3	-65.2	3.8	8.46e-01	0	44	104	0	77	14831
2026-01-24 23:07:31.97	83.44	7.74	-53.3	-65.2	3.8	8.45e-01	0	44	104	0	77	14807
2026-01-24 23:07:35.00	83.92	7.66	-53.3	-65.2	3.8	8.45e-01	0	44	104	0	77	14829
2026-01-24 23:07:38.02	84.39	7.58	-53.3	-65.2	3.8	8.46e-01	0	44	104	0	77	14807
2026-01-24 23:07:41.04	84.86	7.50	-53.3	-65.2	3.8	8.46e-01	0	44	104	0	77	14807
2026-01-24 23:07:44.07	85.33	7.42	-53.3	-65.2	3.8	8.45e-01	0	44	104	0	77	14839
2026-01-24 23:07:47.09	85.79	7.34	-53.3	-65.2	3.8	8.45e-01	0	44	104	0	77	14797
2026-01-24 23:07:50.11	86.25	7.25	-53.3	-65.2	3.8	8.46e-01	0	44	104	0	77	14809
2026-01-24 23:07:53.14	86.72	7.17	-53.3	-65.2	3.8	8.47e-01	0	44	104	0	77	14764
2026-01-24 23:07:56.16	87.17	7.08	-53.3	-65.2	3.8	8.46e-01	0	44	104	0	77	14799
2026-01-24 23:07:59.18	87.63	7.00	-53.3	-65.2	3.8	8.45e-01	0	44	104	0	77	14807
2026-01-24 23:08:02.21	88.08	6.91	-53.3	-65.2	3.8	8.45e-01	0	44	104	0	77	14849
2026-01-24 23:08:05.23	88.53	6.82	-53.3	-65.2	3.8	8.46e-01	0	44	104	0	77	14833
2026-01-24 23:08:08.26	88.98	6.73	-53.3	-65.2	3.8	8.46e-01	0	44	104	0	77	14837
2026-01-24 23:08:11.28	89.42	6.63	-53.3	-65.2	3.8	8.46e-01	0	44	104	0	77	14793
2026-01-24 23:08:14.30	89.86	6.54	-53.3	-65.2	3.8	8.46e-01	0	44	104	0	77	14808
2026-01-24 23:08:17.33	90.30	6.45	-53.3	-65.2	3.8	8.46e-01	0	44	104	0	77	14787
2026-01-24 23:08:20.35	90.74	6.35	-53.3	-65.2	3.8	8.46e-01	0	44	104	0	77	14808
2026-01-24 23:08:23.38	91.18	6.26	-53.3	-65.2	3.8	8.46e-01	0	44	104	0	77	14803
2026-01-24 23:08:26.40	91.61	6.16	-53.3	-65.2	3.8	8.45e-01	0	44	104	0	77	14849
2026-01-24 23:08:29.42	92.03	6.06	-53.3	-65.2	3.8	8.45e-01	0	44	104	0	77	14780
2026-01-24 23:08:32.44	92.46	5.96	-53.3	-65.2	3.8	8.45e-01	0	44	104	0	77	14803
2026-01-24 23:08:35.46	92.88	5.86	-53.3	-65.2	3.8	8.46e-01	0	44	104	0	77	14815
2026-01-24 23:08:38.49	93.30	5.76	-53.3	-65.2	3.8	8.46e-01	0	44	104	0	77	14801
2026-01-24 23:08:41.51	93.72	5.66	-53.3	-65.2	3.8	8.46e-01	0	44	104	0	77	14879
2026-01-24 23:08:44.54	94.13	5.56	-53.3	-65.2	3.8	8.46e-01	0	44	104	0	77	14802
2026-01-24 23:08:47.56	94.54	5.45	-53.3	-65.2	3.8	8.46e-01	0	44	104	0	77	14849
2026-01-24 23:08:50.59	94.95	5.35	-53.3	-65.2	3.8	8.46e-01	0	44	104	0	77	14814
2026-01-24 23:08:53.61	95.36	5.24	-53.3	-65.2	3.8	8.47e-01	0	44	104	0	77	14820
2026-01-24 23:08:56.64	95.76	5.14	-53.3	-65.2	3.8	8.46e-01	0	44	104	0	77	14834
2026-01-24 23:08:59.66	96.16	5.03	-53.3	-65.2	3.8	8.46e-01	0	44	104	0	77	14815
2026-01-24 23:09:02.68	96.56	4.92	-53.3	-65.2	3.8	8.47e-01	0	44	104	0	77	14816
2026-01-24 23:09:05.71	96.95	4.81	-53.3	-65.2	3.8	8.46e-01	0	44	104	0	77	14872
2026-01-24 23:09:08.73	97.35	4.71	-53.3	-65.2	3.8	8.46e-01	0	44	104	0	77	14855
2026-01-24 23:09:11.76	97.74	4.60	-53.3	-65.2	3.8	8.46e-01	0	44	104	0	77	14798
2026-01-24 23:09:14.78	98.12	4.49	-53.3	-65.2	3.8	8.47e-01	0	44	104	0	77	14837
2026-01-24 23:09:17.80	98.51	4.38	-53.3	-65.2	3.8	8.46e-01	0	44	104	0	77	14800
2026-01-24 23:09:20.83	98.89	4.26	-53.3	-65.2	3.8	8.47e-01	0	44	104	0	77	14807
2026-01-24 23:09:23.85	99.26	4.15	-53.3	-65.2	3.8	8.46e-01	0	44	104	0	77	14820
2026-01-24 23:09:26.87	99.64	4.04	-53.3	-65.2	3.8	8.46e-01	0	44	104	0	77	14830
2026-01-24 23:09:29.90	100.01	3.93	-53.3	-65.2	3.8	8.46e-01	0	44	104	0	77	14786
2026-01-24 23:09:32.92	100.38	3.81	-53.3	-65.2	3.8	8.46e-01	0	44	104	0	77	14811
2026-01-24 23:09:35.94	100.75	3.70	-53.3	-65.2	3.8	8.47e-01	0	44	104	0	77	14830
2026-01-24 23:09:38.97	101.11	3.59	-53.3	-65.2	3.8	8.45e-01	0	44	104	0	77	14828
2026-01-24 23:09:41.99	101.47	3.47	-53.3	-65.2	3.8	8.47e-01	0	44	104	0	77	14807
2026-01-24 23:09:45.02	101.83	3.36	-53.3	-65.2	3.8	8.47e-01	0	44	104	0	77	14831
2026-01-24 23:09:48.04	102.19	3.24	-53.3	-65.2	3.8	8.48e-01	0	44	104	0	77	14849
2026-01-24 23:09:51.06	102.54	3.13	-53.3	-65.2	3.8	8.46e-01	0	44	104	0	77	14818
2026-01-24 23:09:54.09	102.89	3.01	-53.3	-65.2	3.8	8.46e-01	0	44	104	0	77	14853
2026-01-24 23:09:57.12	103.24	2.89	-53.3	-65.2	3.8	8.47e-01	0	44	104	0	77	14829
2026-01-24 23:10:00.14	103.59	2.78	-53.3	-65.2	3.8	8.46e-01	0	44	104	0	77	14801
2026-01-24 23:10:03.16	103.93	2.66	-53.3	-65.2	3.8	8.47e-01	0	44	104	0	77	14841
2026-01-24 23:10:06.19	104.27	2.54	-53.3	-65.2	3.8	8.46e-01	0	44	104	0	77	14819
2026-01-24 23:10:09.21	104.61	2.42	-53.3	-65.2	3.8	8.47e-01	0	44	104	0	77	14835
2026-01-24 23:10:12.24	104.95	2.30	-53.3	-65.2	3.8	8.46e-01	0	44	104	0	77	14783
2026-01-24 23:10:15.26	105.28	2.19	-53.3	-65.2	3.8	8.46e-01	0	44	104	0	77	14862
2026-01-24 23:10:18.28	105.61	2.07	-53.3	-65.2	3.8	8.46e-01	0	44	104	0	77	14805
2026-01-24 23:10:21.30	105.93	1.95	-53.3	-65.2	3.8	8.46e-01	0	44	104	0	77	14833

#Closed at: 2026-01-24 23:10:21
#Recorded file [0 MB]: D:/lorett/data/31041_260125_020040.dat