passes_logs/2026/01/24/R3.2S_Murmansk/R3.2S_Murmansk__20260124_123806_FENGYUN_3D_rec.log

#Pass ID: 20260124_123806_FENGYUN 3D
#Satellite: FENGYUN 3D
#Configuration: FENGYUN 3D
#almurnet v.1.7.20251203
#Start time: 2026-01-24 12:38:05

#Version: 2.2.20231116
#Station: R3.2S_Murmansk
#Location: 33.079688 lon 68.888172 lat
#TLE: 1 43010U 17072A   26023.60174628  .00000324  00000+0  17481-3 0  9994
#TLE: 2 43010  98.9958 355.5514 0002482  93.7422 266.4037 14.19699955424476

#Time	Az	El	Level	Level2	SNR	BER	BlckErr	Temp	State	Recorded	gain1	gain2
2026-01-24 12:38:05.91	177.35	1.99	-52.1	-64.0	3.8	8.46e-01	0	41	0	0	76	13603
2026-01-24 12:38:09.94	177.48	2.25	-52.0	-63.9	3.8	8.46e-01	0	41	104	0	74	15124
2026-01-24 12:38:13.98	177.61	2.50	-52.0	-63.8	3.8	8.46e-01	0	41	104	0	74	15024
2026-01-24 12:38:18.01	177.75	2.76	-52.0	-63.9	3.8	8.47e-01	0	41	104	0	74	15107
2026-01-24 12:38:22.05	177.89	3.02	-51.9	-63.7	3.8	8.46e-01	0	42	104	0	74	14814
2026-01-24 12:38:26.08	178.04	3.28	-51.9	-63.6	3.8	8.47e-01	0	42	104	0	74	14647
2026-01-24 12:38:30.11	178.18	3.54	-51.9	-63.9	3.8	8.46e-01	0	42	104	0	74	15081
2026-01-24 12:38:34.14	178.33	3.81	-51.9	-63.2	3.8	8.45e-01	0	42	104	0	74	14040
2026-01-24 12:38:38.18	178.48	4.08	-51.9	-63.1	3.8	8.46e-01	0	42	104	0	74	13774
2026-01-24 12:38:42.21	178.63	4.35	-50.0	-54.3	8.3	1.10e-01	0	42	0	8388608	71	5966
2026-01-24 12:38:46.25	178.78	4.63	-46.3	-48.2	14.6	2.20e-06	0	42	0	30408704	64	4395
2026-01-24 12:38:50.28	178.94	4.90	-43.6	-44.8	18.4	0.00e+00	0	42	0	52428800	59	4000
2026-01-24 12:38:54.31	179.10	5.18	-44.4	-45.7	17.2	0.00e+00	0	42	0	75497472	60	4161
2026-01-24 12:38:58.35	179.26	5.46	-42.8	-43.9	19.4	0.00e+00	0	42	0	98566144	57	4010
2026-01-24 12:39:02.38	179.43	5.75	-42.9	-44.0	19.2	0.00e+00	0	42	0	120586240	57	4093
2026-01-24 12:39:06.41	179.60	6.04	-42.9	-44.0	19.4	0.00e+00	0	42	0	143654912	56	4297
2026-01-24 12:39:10.45	179.77	6.33	-42.7	-43.8	19.6	0.00e+00	0	42	0	166723584	56	4222
2026-01-24 12:39:14.48	179.94	6.62	-42.4	-43.4	20.0	0.00e+00	0	42	0	188743680	56	4039
2026-01-24 12:39:18.51	180.12	6.92	-42.6	-43.7	19.9	0.00e+00	0	42	0	211812352	56	4152
2026-01-24 12:39:22.55	180.30	7.22	-42.7	-43.7	19.8	0.00e+00	0	43	0	234881024	56	4189
2026-01-24 12:39:26.58	180.49	7.53	-42.3	-43.3	20.4	0.00e+00	0	42	0	256901120	56	3970
2026-01-24 12:39:30.61	180.68	7.83	-41.7	-42.6	20.9	0.00e+00	0	43	0	279969792	55	3912
2026-01-24 12:39:34.64	180.87	8.15	-41.7	-42.6	20.9	0.00e+00	0	43	0	303038464	55	3905
2026-01-24 12:39:38.67	181.07	8.46	-41.5	-42.4	21.1	0.00e+00	0	43	0	325058560	54	4039
2026-01-24 12:39:42.71	181.27	8.78	-41.3	-42.2	21.4	0.00e+00	0	43	0	348127232	54	3941
2026-01-24 12:39:46.74	181.47	9.10	-41.3	-42.2	21.4	0.00e+00	0	43	0	371195904	54	3941
2026-01-24 12:39:50.77	181.68	9.43	-41.4	-42.3	21.3	0.00e+00	0	43	0	393216000	54	3983
2026-01-24 12:39:54.81	181.89	9.76	-41.4	-42.3	21.3	0.00e+00	0	43	0	416284672	54	4001
2026-01-24 12:39:58.84	182.11	10.09	-41.7	-42.6	21.1	0.00e+00	0	43	0	438304768	54	4126
2026-01-24 12:40:02.88	182.33	10.43	-41.4	-42.3	21.5	0.00e+00	0	43	0	461373440	54	3970
2026-01-24 12:40:06.91	182.56	10.78	-41.6	-42.5	21.2	0.00e+00	0	43	0	484442112	54	4085
2026-01-24 12:40:10.94	182.79	11.12	-41.4	-42.3	21.4	0.00e+00	0	43	0	506462208	54	3995
2026-01-24 12:40:14.98	183.03	11.48	-41.2	-42.1	21.6	0.00e+00	0	43	0	529530880	53	4111
2026-01-24 12:40:19.01	183.28	11.83	-40.9	-41.7	22.0	0.00e+00	0	43	0	552599552	53	3958
2026-01-24 12:40:23.04	183.52	12.20	-41.0	-41.9	21.8	0.00e+00	0	43	0	574619648	53	4023
2026-01-24 12:40:27.07	183.78	12.56	-41.0	-41.8	22.0	0.00e+00	0	43	0	597688320	53	3992
2026-01-24 12:40:31.11	184.04	12.94	-40.8	-41.7	22.2	0.00e+00	0	43	0	620756992	53	3918
2026-01-24 12:40:35.14	184.31	13.31	-40.8	-41.7	22.1	0.00e+00	0	43	0	642777088	53	3931
2026-01-24 12:40:39.17	184.58	13.70	-40.7	-41.5	22.3	0.00e+00	0	43	0	665845760	53	3858
2026-01-24 12:40:43.21	184.86	14.08	-40.7	-41.5	22.3	0.00e+00	0	43	0	687865856	53	3866
2026-01-24 12:40:47.24	185.15	14.48	-40.5	-41.3	22.5	0.00e+00	0	43	0	710934528	52	3997
2026-01-24 12:40:51.28	185.44	14.88	-40.3	-41.1	22.7	0.00e+00	0	43	0	734003200	52	3906
2026-01-24 12:40:55.31	185.74	15.28	-40.2	-41.0	22.8	0.00e+00	0	43	0	757071872	52	3856
2026-01-24 12:40:59.35	186.05	15.70	-40.1	-40.9	23.0	0.00e+00	0	43	0	779091968	51	4013
2026-01-24 12:41:03.38	186.37	16.12	-40.0	-40.8	23.0	0.00e+00	0	43	0	801112064	51	3977
2026-01-24 12:41:07.42	186.70	16.54	-39.9	-40.7	23.1	0.00e+00	0	43	0	824180736	51	3957
2026-01-24 12:41:11.46	187.04	16.97	-39.5	-40.3	23.5	0.00e+00	0	43	0	847249408	50	3975
2026-01-24 12:41:15.49	187.38	17.41	-39.0	-39.8	24.0	0.00e+00	0	43	0	869269504	50	3747
2026-01-24 12:41:19.53	187.74	17.86	-39.0	-39.8	23.9	0.00e+00	0	43	0	892338176	49	3982
2026-01-24 12:41:23.57	188.10	18.31	-39.3	-40.1	23.7	0.00e+00	0	43	0	915406848	49	4123
2026-01-24 12:41:27.61	188.48	18.77	-39.2	-40.0	23.7	0.00e+00	0	43	0	937426944	49	4085
2026-01-24 12:41:31.64	188.87	19.24	-39.2	-39.9	23.9	0.00e+00	0	44	0	960495616	49	4046
2026-01-24 12:41:35.67	189.27	19.71	-39.1	-39.9	23.9	0.00e+00	0	43	0	983564288	49	4040
2026-01-24 12:41:39.71	189.68	20.20	-38.8	-39.6	24.2	0.00e+00	0	44	0	1005584384	49	3882
2026-01-24 12:41:43.74	190.10	20.69	-38.6	-39.3	24.4	0.00e+00	0	43	0	1028653056	49	3777
2026-01-24 12:41:47.78	190.54	21.19	-38.6	-39.3	24.5	0.00e+00	0	43	0	1051721728	49	3763
2026-01-24 12:41:51.81	190.99	21.70	-38.5	-39.3	24.5	0.00e+00	0	43	0	1074790400	49	3739
2026-01-24 12:41:55.84	191.45	22.21	-38.4	-39.1	24.6	0.00e+00	0	43	0	1096810496	48	3908
2026-01-24 12:41:59.88	191.94	22.74	-38.4	-39.2	24.5	0.00e+00	0	44	0	1119879168	48	3934
2026-01-24 12:42:03.91	192.43	23.27	-38.3	-39.1	24.7	0.00e+00	0	43	0	1142947840	48	3875
2026-01-24 12:42:07.95	192.95	23.82	-38.1	-38.9	24.9	0.00e+00	0	43	0	1164967936	48	3787
2026-01-24 12:42:11.99	193.48	24.37	-37.8	-38.5	24.7	0.00e+00	0	43	0	1188036608	47	3866
2026-01-24 12:42:16.02	194.03	24.93	-37.8	-38.5	25.0	0.00e+00	0	43	0	1210056704	47	3850
2026-01-24 12:42:20.05	194.60	25.50	-38.0	-38.7	24.9	0.00e+00	0	43	0	1233125376	47	3927
2026-01-24 12:42:24.09	195.19	26.08	-37.8	-38.5	25.1	0.00e+00	0	43	0	1255145472	47	3839
2026-01-24 12:42:28.13	195.80	26.68	-37.7	-38.4	25.2	0.00e+00	0	43	0	1278214144	47	3798
2026-01-24 12:42:32.16	196.43	27.28	-37.7	-38.4	25.1	0.00e+00	0	43	0	1301282816	47	3809
2026-01-24 12:42:36.19	197.09	27.88	-37.6	-38.3	25.3	0.00e+00	0	43	0	1323302912	47	3740
2026-01-24 12:42:40.23	197.77	28.50	-37.6	-38.3	25.3	0.00e+00	0	43	0	1346371584	46	3972
2026-01-24 12:42:44.26	198.48	29.13	-37.6	-38.4	25.2	0.00e+00	0	43	0	1369440256	46	4014
2026-01-24 12:42:48.29	199.21	29.77	-37.6	-38.3	25.2	0.00e+00	0	43	0	1391460352	46	3992
2026-01-24 12:42:52.33	199.98	30.42	-37.4	-38.0	25.5	0.00e+00	0	43	0	1414529024	46	3867
2026-01-24 12:42:56.36	200.78	31.08	-37.4	-38.1	25.4	0.00e+00	0	43	0	1437597696	46	3905
2026-01-24 12:43:00.40	201.61	31.74	-37.5	-38.2	25.3	0.00e+00	0	43	0	1459617792	46	3958
2026-01-24 12:43:04.43	202.47	32.42	-37.2	-37.9	25.6	0.00e+00	0	43	0	1482686464	46	3821
2026-01-24 12:43:08.47	203.37	33.10	-37.3	-38.0	25.6	0.00e+00	0	44	0	1505755136	46	3831
2026-01-24 12:43:12.50	204.30	33.79	-37.6	-38.3	25.3	0.00e+00	0	43	0	1527775232	46	3964
2026-01-24 12:43:16.54	205.28	34.49	-37.0	-37.7	25.8	0.00e+00	0	43	0	1550843904	46	3714
2026-01-24 12:43:20.58	206.30	35.19	-37.1	-37.8	25.7	0.00e+00	0	43	0	1573912576	45	3995
2026-01-24 12:43:24.61	207.36	35.90	-37.4	-38.1	25.5	0.00e+00	0	43	0	1596981248	45	4099
2026-01-24 12:43:28.64	208.47	36.61	-37.0	-37.7	25.8	0.00e+00	0	43	0	1619001344	45	3957
2026-01-24 12:43:32.67	209.63	37.33	-36.7	-37.4	26.1	0.00e+00	0	43	0	1641021440	45	3799
2026-01-24 12:43:36.70	210.83	38.04	-36.7	-37.4	26.1	0.00e+00	0	43	0	1664090112	45	3803
2026-01-24 12:43:40.74	212.10	38.77	-36.9	-37.6	26.0	0.00e+00	0	43	0	1687158784	45	3901
2026-01-24 12:43:44.78	213.42	39.49	-36.9	-37.6	26.0	0.00e+00	0	43	0	1709178880	45	3873
2026-01-24 12:43:48.81	214.79	40.20	-37.2	-37.9	25.8	0.00e+00	0	43	0	1732247552	45	4010
2026-01-24 12:43:52.85	216.23	40.91	-37.0	-37.7	25.9	0.00e+00	0	43	0	1755316224	45	3943
2026-01-24 12:43:56.88	217.73	41.62	-37.3	-38.0	25.7	0.00e+00	0	43	0	1777336320	45	4066
2026-01-24 12:44:00.92	219.30	42.32	-37.2	-37.9	25.8	0.00e+00	0	43	0	1800404992	45	4025
2026-01-24 12:44:04.95	220.94	43.00	-37.4	-38.2	25.5	0.00e+00	0	43	0	1823473664	45	4152
2026-01-24 12:44:08.99	222.64	43.67	-37.3	-38.0	25.7	0.00e+00	0	43	0	1845493760	45	4090
2026-01-24 12:44:13.03	224.42	44.33	-37.4	-38.2	25.6	0.00e+00	0	43	0	1868562432	45	4146
2026-01-24 12:44:17.07	226.27	44.96	-37.7	-38.4	25.4	0.00e+00	0	43	0	1891631104	45	4261
2026-01-24 12:44:21.10	228.19	45.57	-37.7	-38.5	25.4	0.00e+00	0	43	0	1913651200	46	4055
2026-01-24 12:44:25.13	230.18	46.15	-37.7	-38.4	25.4	0.00e+00	0	43	0	1936719872	46	4014
2026-01-24 12:44:29.17	232.25	46.70	-37.7	-38.4	25.5	0.00e+00	0	43	0	1959788544	46	4005
2026-01-24 12:44:33.20	234.38	47.21	-37.8	-38.5	25.4	0.00e+00	0	44	0	1981808640	46	4064
2026-01-24 12:44:37.23	236.58	47.69	-37.7	-38.4	25.4	0.00e+00	0	43	0	2004877312	46	4047
2026-01-24 12:44:41.26	238.85	48.13	-37.6	-38.3	25.6	0.00e+00	0	43	0	2026897408	46	3961
2026-01-24 12:44:45.30	241.18	48.52	-37.6	-38.3	25.5	0.00e+00	0	43	0	2049966080	46	3984
2026-01-24 12:44:49.33	243.57	48.87	-37.7	-38.4	25.5	0.00e+00	0	43	0	2073034752	46	4014
2026-01-24 12:44:53.37	246.01	49.16	-37.7	-38.4	25.5	0.00e+00	0	43	0	2095054848	46	4018
2026-01-24 12:44:57.40	248.48	49.40	-37.7	-38.4	25.5	0.00e+00	0	43	0	2118123520	46	4031
2026-01-24 12:45:01.44	250.99	49.58	-37.6	-38.3	25.6	0.00e+00	0	43	0	2141192192	46	3981
2026-01-24 12:45:05.47	253.53	49.71	-37.8	-38.5	25.4	0.00e+00	0	43	0	2163212288	46	4085
2026-01-24 12:45:09.50	256.08	49.77	-38.0	-38.7	25.3	0.00e+00	0	43	0	2186280960	46	4156
2026-01-24 12:45:13.54	258.64	49.78	-38.4	-39.1	24.9	0.00e+00	0	43	0	2209349632	47	4131
2026-01-24 12:45:17.57	261.19	49.73	-38.0	-38.8	25.2	0.00e+00	0	43	0	2231369728	47	3970
2026-01-24 12:45:21.60	263.73	49.62	-37.9	-38.6	25.4	0.00e+00	0	43	0	2254438400	47	3892
2026-01-24 12:45:25.64	266.25	49.45	-38.0	-38.8	25.2	0.00e+00	0	43	0	2277507072	47	3965
2026-01-24 12:45:29.67	268.73	49.23	-37.8	-38.5	25.4	0.00e+00	0	43	0	2299527168	47	3828
2026-01-24 12:45:33.70	271.17	48.95	-38.0	-38.7	25.3	0.00e+00	0	43	0	2322595840	47	3950
2026-01-24 12:45:37.73	273.57	48.62	-37.6	-38.3	25.6	0.00e+00	0	43	0	2345664512	46	4001
2026-01-24 12:45:41.77	275.91	48.24	-37.8	-38.5	25.4	0.00e+00	0	43	0	2367684608	46	4067
2026-01-24 12:45:45.80	278.19	47.81	-38.1	-38.8	25.2	0.00e+00	0	43	0	2389704704	47	3973
2026-01-24 12:45:49.83	280.41	47.35	-38.0	-38.7	25.2	0.00e+00	0	43	0	2412773376	47	3929
2026-01-24 12:45:53.87	282.56	46.84	-37.7	-38.4	25.5	0.00e+00	0	43	0	2435842048	47	3810
2026-01-24 12:45:57.90	284.64	46.30	-38.0	-38.7	25.2	0.00e+00	0	43	0	2457862144	47	3945
2026-01-24 12:46:01.94	286.65	45.73	-38.0	-38.7	25.3	0.00e+00	0	43	0	2480930816	47	3934
2026-01-24 12:46:05.97	288.59	45.13	-37.8	-38.5	25.4	0.00e+00	0	43	0	2503999488	47	3862
2026-01-24 12:46:10.01	290.45	44.50	-38.3	-39.1	24.9	0.00e+00	0	43	0	2527068160	47	4105
2026-01-24 12:46:14.04	292.24	43.86	-37.8	-38.5	25.4	0.00e+00	0	43	0	2549088256	47	3851
2026-01-24 12:46:18.07	293.96	43.19	-38.1	-38.8	25.1	0.00e+00	0	43	0	2572156928	47	3993
2026-01-24 12:46:22.10	295.61	42.52	-37.8	-38.5	25.4	0.00e+00	0	43	0	2594177024	47	3851
2026-01-24 12:46:26.14	297.19	41.82	-37.6	-38.3	25.5	0.00e+00	0	43	0	2617245696	47	3778
2026-01-24 12:46:30.17	298.71	41.12	-37.5	-38.2	25.6	0.00e+00	0	43	0	2640314368	46	3941
2026-01-24 12:46:34.14	300.14	40.43	-37.6	-38.4	25.5	0.00e+00	0	43	0	2662334464	46	4006
2026-01-24 12:46:38.17	301.53	39.72	-37.4	-38.1	25.7	0.00e+00	0	43	0	2685403136	46	3895
2026-01-24 12:46:42.21	302.86	39.00	-37.2	-37.9	25.9	0.00e+00	0	43	0	2708471808	46	3801
2026-01-24 12:46:46.24	304.14	38.28	-37.0	-37.7	26.1	0.00e+00	0	43	0	2730491904	46	3706
2026-01-24 12:46:50.27	305.36	37.57	-37.5	-38.2	25.7	0.00e+00	0	43	0	2753560576	46	3930
2026-01-24 12:46:54.30	306.53	36.85	-37.3	-38.0	25.9	0.00e+00	0	43	0	2775580672	46	3845
2026-01-24 12:46:58.34	307.65	36.14	-37.3	-37.9	25.9	0.00e+00	0	43	0	2798649344	46	3821
2026-01-24 12:47:02.37	308.72	35.43	-37.4	-38.1	25.8	0.00e+00	0	43	0	2821718016	46	3876
2026-01-24 12:47:06.40	309.75	34.73	-37.5	-38.2	25.7	0.00e+00	0	43	0	2843738112	46	3929
2026-01-24 12:47:10.43	310.74	34.04	-37.4	-38.0	25.8	0.00e+00	0	43	0	2866806784	46	3868
2026-01-24 12:47:14.46	311.68	33.35	-37.3	-38.0	25.8	0.00e+00	0	44	0	2889875456	46	3861
2026-01-24 12:47:18.49	312.59	32.67	-37.5	-38.2	25.6	0.00e+00	0	43	0	2911895552	46	3944
2026-01-24 12:47:22.53	313.46	31.99	-37.5	-38.2	25.6	0.00e+00	0	43	0	2934964224	46	3922
2026-01-24 12:47:26.57	314.30	31.33	-37.5	-38.2	25.6	0.00e+00	0	43	0	2958032896	46	3949
2026-01-24 12:47:30.60	315.11	30.67	-37.6	-38.2	25.5	0.00e+00	0	43	0	2980052992	46	3956
2026-01-24 12:47:34.63	315.88	30.03	-37.5	-38.1	25.6	0.00e+00	0	43	0	3003121664	46	3911
2026-01-24 12:47:38.66	316.62	29.39	-37.8	-38.5	25.2	0.00e+00	0	43	0	3026190336	46	4092
2026-01-24 12:47:42.69	317.34	28.76	-37.7	-38.4	25.3	0.00e+00	0	43	0	3048210432	46	4039
2026-01-24 12:47:46.73	318.03	28.14	-37.6	-38.3	25.5	0.00e+00	0	43	0	3071279104	46	3962
2026-01-24 12:47:50.76	318.69	27.53	-37.4	-38.1	25.6	0.00e+00	0	43	0	3094347776	46	3901
2026-01-24 12:47:54.79	319.33	26.93	-37.6	-38.3	25.4	0.00e+00	0	43	0	3116367872	46	3984
2026-01-24 12:47:58.83	319.95	26.34	-37.8	-38.5	25.2	0.00e+00	0	43	0	3138387968	46	4082
2026-01-24 12:48:02.86	320.55	25.76	-37.8	-38.5	25.1	0.00e+00	0	43	0	3161456640	46	4097
2026-01-24 12:48:06.89	321.12	25.19	-37.8	-38.5	25.2	0.00e+00	0	43	0	3184525312	46	4070
2026-01-24 12:48:10.93	321.68	24.62	-37.9	-38.6	25.1	0.00e+00	0	43	0	3206545408	46	4107
2026-01-24 12:48:14.96	322.21	24.07	-38.0	-38.7	25.0	0.00e+00	0	44	0	3229614080	46	4156
2026-01-24 12:48:18.99	322.73	23.53	-38.1	-38.8	24.9	0.00e+00	0	43	0	3252682752	46	4230
2026-01-24 12:48:23.03	323.24	22.99	-38.3	-39.1	24.6	0.00e+00	0	44	0	3274702848	47	4100
2026-01-24 12:48:27.06	323.72	22.47	-38.4	-39.2	24.6	0.00e+00	0	43	0	3297771520	47	4149
2026-01-24 12:48:31.09	324.19	21.95	-38.6	-39.4	24.4	0.00e+00	0	43	0	3320840192	47	4244
2026-01-24 12:48:35.13	324.65	21.44	-38.9	-39.6	24.5	0.00e+00	0	43	0	3342860288	48	4141
2026-01-24 12:48:39.16	325.09	20.94	-38.9	-39.6	24.6	0.00e+00	0	43	0	3365928960	48	4141
2026-01-24 12:48:43.19	325.52	20.45	-39.2	-39.9	24.3	0.00e+00	0	43	0	3388997632	49	4037
2026-01-24 12:48:47.22	325.93	19.97	-39.1	-39.9	24.3	0.00e+00	0	43	0	3411017728	49	4010
2026-01-24 12:48:51.25	326.34	19.49	-39.4	-40.2	24.0	0.00e+00	0	43	0	3434086400	49	4156
2026-01-24 12:48:55.29	326.73	19.02	-39.4	-40.1	24.0	0.00e+00	0	43	0	3457155072	49	4142
2026-01-24 12:48:59.32	327.11	18.56	-39.4	-40.1	24.0	0.00e+00	0	43	0	3479175168	49	4137
2026-01-24 12:49:03.35	327.48	18.11	-39.7	-40.4	23.8	0.00e+00	0	43	0	3502243840	50	4027
2026-01-24 12:49:07.38	327.84	17.66	-39.8	-40.5	23.6	0.00e+00	0	44	0	3524263936	50	4097
2026-01-24 12:49:11.41	328.19	17.22	-40.0	-40.7	23.5	0.00e+00	0	44	0	3547332608	50	4179
2026-01-24 12:49:15.45	328.53	16.79	-40.1	-40.9	23.3	0.00e+00	0	44	0	3570401280	50	4265
2026-01-24 12:49:19.48	328.86	16.37	-40.2	-41.0	23.2	0.00e+00	0	44	0	3592421376	51	4072
2026-01-24 12:49:23.51	329.18	15.95	-40.2	-41.0	23.2	0.00e+00	0	44	0	3615490048	51	4070
2026-01-24 12:49:27.54	329.50	15.53	-40.3	-41.1	23.0	0.00e+00	0	43	0	3637510144	51	4136
2026-01-24 12:49:31.57	329.80	15.13	-40.5	-41.3	22.8	0.00e+00	0	43	0	3660578816	51	4214
2026-01-24 12:49:35.60	330.10	14.73	-40.6	-41.4	22.8	0.00e+00	0	44	0	3683647488	51	4250
2026-01-24 12:49:39.64	330.39	14.33	-40.5	-41.3	22.7	0.00e+00	0	44	0	3705667584	52	3977
2026-01-24 12:49:43.67	330.68	13.94	-40.5	-41.3	22.7	0.00e+00	0	44	0	3728736256	52	3978
2026-01-24 12:49:47.70	330.95	13.56	-40.6	-41.4	22.6	0.00e+00	0	44	0	3751804928	52	4031
2026-01-24 12:49:51.73	331.23	13.18	-40.7	-41.5	22.5	0.00e+00	0	44	0	3773825024	52	4085
2026-01-24 12:49:55.77	331.49	12.81	-40.9	-41.8	22.2	0.00e+00	0	44	0	3796893696	52	4194
2026-01-24 12:49:59.80	331.75	12.44	-41.0	-41.8	22.1	0.00e+00	0	44	0	3819962368	52	4242
2026-01-24 12:50:03.83	332.00	12.08	-41.1	-42.0	22.0	0.00e+00	0	44	0	3841982464	53	4052
2026-01-24 12:50:07.87	332.25	11.72	-41.0	-41.9	22.0	0.00e+00	0	44	0	3865051136	53	4027
2026-01-24 12:50:11.90	332.49	11.37	-41.1	-42.0	21.9	0.00e+00	0	44	0	3887071232	53	4062
2026-01-24 12:50:15.94	332.73	11.02	-41.1	-42.0	21.9	0.00e+00	0	44	0	3910139904	53	4058
2026-01-24 12:50:19.97	332.96	10.68	-41.2	-42.1	21.8	0.00e+00	0	44	0	3933208576	53	4108
2026-01-24 12:50:24.00	333.18	10.34	-41.4	-42.3	21.5	0.00e+00	0	44	0	3955228672	53	4221
2026-01-24 12:50:28.04	333.41	10.00	-41.6	-42.4	21.4	0.00e+00	0	44	0	3978297344	53	4285
2026-01-24 12:50:32.07	333.62	9.67	-41.4	-42.2	21.5	0.00e+00	0	44	0	4001366016	53	4184
2026-01-24 12:50:36.10	333.84	9.35	-41.6	-42.4	21.3	0.00e+00	0	44	0	4023386112	53	4282
2026-01-24 12:50:40.13	334.04	9.02	-41.7	-42.6	21.1	0.00e+00	0	44	0	4046454784	54	4108
2026-01-24 12:50:44.17	334.25	8.71	-41.8	-42.7	21.1	0.00e+00	0	43	0	4069523456	54	4152
2026-01-24 12:50:48.20	334.45	8.39	-41.8	-42.7	21.0	0.00e+00	0	44	0	4091543552	54	4159
2026-01-24 12:50:52.24	334.64	8.08	-41.8	-42.7	20.9	0.00e+00	0	44	0	4114612224	55	3956
2026-01-24 12:50:56.27	334.84	7.77	-42.0	-42.9	20.7	0.00e+00	0	44	0	4137680896	55	4047
2026-01-24 12:51:00.31	335.03	7.47	-42.1	-43.0	20.6	0.00e+00	0	44	0	4159700992	55	4094
2026-01-24 12:51:04.34	335.21	7.16	-42.4	-43.4	20.2	0.00e+00	0	43	0	4182769664	55	4261
2026-01-24 12:51:08.38	335.39	6.87	-42.9	-43.9	19.8	0.00e+00	0	44	0	4205838336	56	4259
2026-01-24 12:51:12.42	335.57	6.57	-43.1	-44.2	19.5	0.00e+00	0	43	0	4227858432	56	4403
2026-01-24 12:51:16.45	335.75	6.28	-42.9	-43.9	19.7	0.00e+00	0	44	0	4250927104	56	4285
2026-01-24 12:51:20.48	335.92	5.99	-42.4	-43.4	20.2	0.00e+00	0	44	0	4272947200	56	4039
2026-01-24 12:51:24.52	336.09	5.71	-43.1	-44.2	19.4	0.00e+00	0	43	0	4296015872	56	4392
2026-01-24 12:51:28.55	336.26	5.42	-42.7	-43.7	19.8	0.00e+00	0	44	0	4319084544	56	4165
2026-01-24 12:51:32.58	336.42	5.14	-43.1	-44.2	19.2	0.00e+00	0	44	0	4341104640	57	4175
2026-01-24 12:51:36.61	336.58	4.87	-53.0	-65.0	3.8	8.47e-01	0	44	104	4352638976	76	15314
2026-01-24 12:51:40.64	336.74	4.59	-53.7	-65.7	3.8	8.47e-01	0	44	104	4352638976	77	15613
2026-01-24 12:51:44.67	336.90	4.32	-54.2	-66.2	3.8	8.46e-01	0	44	104	4352638976	78	15588
2026-01-24 12:51:48.70	337.05	4.05	-54.3	-66.2	3.8	8.45e-01	0	44	104	4352638976	79	14873
2026-01-24 12:51:52.73	337.20	3.79	-54.3	-66.3	3.8	8.46e-01	0	43	104	4352638976	79	14974
2026-01-24 12:51:56.76	337.35	3.52	-54.1	-66.1	3.8	8.46e-01	0	44	104	4352638976	79	14665
2026-01-24 12:52:00.80	337.50	3.26	-53.9	-65.9	3.8	8.46e-01	0	44	104	4352638976	79	14286
2026-01-24 12:52:04.84	337.64	3.00	-53.8	-65.8	3.8	8.46e-01	0	44	104	4352638976	79	14174
2026-01-24 12:52:08.87	337.78	2.74	-53.8	-65.8	3.8	8.47e-01	0	44	104	4352638976	79	14076
2026-01-24 12:52:12.90	337.92	2.49	-53.7	-65.7	3.8	8.45e-01	0	43	104	4352638976	79	13986
2026-01-24 12:52:16.93	338.06	2.24	-53.7	-65.7	3.8	8.46e-01	0	44	104	4352638976	79	13963

#Closed at: 2026-01-24 12:52:20
#Recorded file [4352 MB]: D:/lorett/data/31041_260124_153805.dat