passes_logs/2026/01/24/R3.2S_Murmansk/R3.2S_Murmansk__20260124_000237_SUOMI_NPP_rec.log

#Pass ID: 20260124_000237_SUOMI NPP
#Satellite: SUOMI NPP
#Configuration: NPP
#almurnet v.1.7.20251203
#Start time: 2026-01-24 00:02:37

#Version: 2.2.20231116
#Station: R3.2S_Murmansk
#Location: 33.079688 lon 68.888172 lat
#TLE: 1 37849U 11061A   26023.63275593  .00000212  00000+0  12133-3 0  9990
#TLE: 2 37849  98.7820 325.6074 0002234  48.9695 311.1673 14.19528901737937

#Time	Az	El	Level	Level2	SNR	BER	BlckErr	Temp	State	Recorded	gain1	gain2
2026-01-24 00:02:37.23	22.14	1.99	-52.2	-67.1	3.8	1.49e+00	0	41	0	0	76	19578
2026-01-24 00:02:41.26	22.24	2.25	-52.2	-67.1	3.8	1.49e+00	0	41	104	0	74	21912
2026-01-24 00:02:45.30	22.34	2.50	-52.2	-67.0	3.8	1.49e+00	0	42	104	0	74	21525
2026-01-24 00:02:49.33	22.43	2.76	-52.2	-67.0	3.8	1.49e+00	0	42	104	0	74	21548
2026-01-24 00:02:53.37	22.54	3.02	-52.1	-67.1	3.8	1.49e+00	0	42	104	0	74	21942
2026-01-24 00:02:57.40	22.64	3.29	-52.1	-67.1	3.8	1.49e+00	0	42	104	0	74	21902
2026-01-24 00:03:01.43	22.74	3.55	-52.1	-65.3	3.8	1.49e+00	0	42	104	0	74	17686
2026-01-24 00:03:05.46	22.84	3.82	-51.2	-57.8	7.9	1.01e-01	0	42	0	4194304	74	7543
2026-01-24 00:03:09.50	22.95	4.09	-48.8	-51.8	14.3	5.30e-06	0	42	0	12582912	69	5009
2026-01-24 00:03:13.53	23.06	4.37	-47.4	-49.6	16.3	0.00e+00	0	42	0	19922944	66	4632
2026-01-24 00:03:17.56	23.17	4.65	-47.5	-49.8	16.2	0.00e+00	0	43	0	27262976	66	4726
2026-01-24 00:03:21.59	23.28	4.93	-49.6	-53.3	12.8	4.27e-05	0	42	0	34603008	69	5970
2026-01-24 00:03:25.62	23.39	5.21	-50.1	-54.5	11.1	6.35e-01	0	43	0	41943040	72	5775
2026-01-24 00:03:29.65	23.51	5.49	-48.5	-51.2	15.0	0.00e+00	0	42	0	47185920	68	4965
2026-01-24 00:03:33.68	23.62	5.78	-47.3	-49.4	16.8	0.00e+00	0	43	0	54525952	66	4521
2026-01-24 00:03:37.72	23.74	6.07	-47.1	-49.1	17.1	0.00e+00	0	43	0	61865984	66	4379
2026-01-24 00:03:41.75	23.86	6.37	-47.0	-48.9	17.3	0.00e+00	0	43	0	69206016	65	4540
2026-01-24 00:03:45.78	23.98	6.67	-46.8	-48.7	17.6	0.00e+00	0	43	0	77594624	65	4404
2026-01-24 00:03:49.81	24.11	6.97	-46.8	-48.6	17.6	0.00e+00	0	43	0	84934656	65	4382
2026-01-24 00:03:53.85	24.24	7.27	-46.9	-48.8	17.4	0.00e+00	0	43	0	92274688	65	4492
2026-01-24 00:03:57.88	24.37	7.58	-46.9	-48.8	17.5	0.00e+00	0	43	0	99614720	65	4464
2026-01-24 00:04:01.91	24.50	7.90	-46.8	-48.6	17.8	0.00e+00	0	43	0	106954752	65	4352
2026-01-24 00:04:05.95	24.63	8.21	-46.5	-48.2	18.1	0.00e+00	0	43	0	115343360	64	4439
2026-01-24 00:04:09.98	24.77	8.53	-46.1	-47.7	18.6	0.00e+00	0	43	0	122683392	64	4184
2026-01-24 00:04:14.01	24.91	8.86	-46.1	-47.7	18.7	0.00e+00	0	43	0	130023424	63	4426
2026-01-24 00:04:18.04	25.05	9.19	-46.1	-47.7	18.8	0.00e+00	0	43	0	137363456	63	4401
2026-01-24 00:04:22.07	25.19	9.52	-45.8	-47.3	19.1	0.00e+00	0	43	0	145752064	63	4232
2026-01-24 00:04:26.11	25.34	9.86	-45.8	-47.4	19.0	0.00e+00	0	43	0	153092096	63	4245
2026-01-24 00:04:30.14	25.49	10.20	-45.8	-47.3	19.1	0.00e+00	0	43	0	160432128	63	4209
2026-01-24 00:04:34.16	25.65	10.54	-45.9	-47.5	19.0	0.00e+00	0	43	0	167772160	63	4298
2026-01-24 00:04:38.19	25.81	10.89	-45.6	-47.1	19.3	0.00e+00	0	43	0	175112192	63	4138
2026-01-24 00:04:42.23	25.97	11.25	-45.4	-46.9	19.5	0.00e+00	0	43	0	182452224	62	4256
2026-01-24 00:04:46.26	26.13	11.61	-45.5	-46.9	19.6	0.00e+00	0	43	0	190840832	62	4275
2026-01-24 00:04:50.29	26.30	11.98	-45.2	-46.6	19.8	0.00e+00	0	43	0	198180864	62	4126
2026-01-24 00:04:54.32	26.47	12.35	-45.4	-46.8	19.7	0.00e+00	0	43	0	205520896	62	4220
2026-01-24 00:04:58.35	26.65	12.73	-45.4	-46.8	19.7	0.00e+00	0	43	0	212860928	62	4198
2026-01-24 00:05:02.38	26.83	13.11	-45.1	-46.4	20.0	0.00e+00	0	43	0	221249536	62	4046
2026-01-24 00:05:06.41	27.01	13.50	-45.2	-46.5	20.0	0.00e+00	0	43	0	228589568	62	4095
2026-01-24 00:05:10.45	27.20	13.89	-45.1	-46.5	20.0	0.00e+00	0	43	0	235929600	62	4073
2026-01-24 00:05:14.48	27.39	14.29	-45.0	-46.3	20.2	0.00e+00	0	43	0	243269632	62	3994
2026-01-24 00:05:18.51	27.59	14.70	-45.3	-46.7	20.0	0.00e+00	0	43	0	250609664	62	4151
2026-01-24 00:05:22.54	27.79	15.12	-45.4	-46.8	19.9	0.00e+00	0	43	0	258998272	62	4200
2026-01-24 00:05:26.57	28.00	15.54	-45.5	-46.8	19.8	0.00e+00	0	43	0	266338304	62	4240
2026-01-24 00:05:30.60	28.21	15.97	-45.5	-46.8	19.9	0.00e+00	0	43	0	273678336	62	4242
2026-01-24 00:05:34.63	28.43	16.40	-45.6	-47.0	19.8	0.00e+00	0	43	0	281018368	62	4294
2026-01-24 00:05:38.66	28.66	16.84	-45.4	-46.7	20.0	0.00e+00	0	44	0	288358400	62	4170
2026-01-24 00:05:42.70	28.89	17.30	-45.8	-47.2	19.5	0.00e+00	0	44	0	296747008	62	4435
2026-01-24 00:05:46.73	29.13	17.76	-45.7	-47.1	19.8	0.00e+00	0	44	0	304087040	62	4347
2026-01-24 00:05:50.76	29.37	18.22	-45.7	-47.1	19.8	0.00e+00	0	44	0	311427072	62	4348
2026-01-24 00:05:54.79	29.63	18.70	-45.8	-47.2	19.7	0.00e+00	0	43	0	318767104	62	4412
2026-01-24 00:05:58.83	29.89	19.19	-45.5	-46.9	20.1	0.00e+00	0	43	0	326107136	62	4246
2026-01-24 00:06:02.86	30.15	19.68	-45.6	-46.9	20.0	0.00e+00	0	43	0	334495744	62	4274
2026-01-24 00:06:06.89	30.43	20.18	-45.3	-46.6	20.3	0.00e+00	0	43	0	341835776	62	4116
2026-01-24 00:06:10.92	30.71	20.70	-44.9	-46.1	20.8	0.00e+00	0	44	0	349175808	61	4104
2026-01-24 00:06:14.95	31.01	21.22	-44.3	-45.4	21.4	0.00e+00	0	44	0	356515840	60	4030
2026-01-24 00:06:18.98	31.31	21.75	-44.3	-45.4	21.7	0.00e+00	0	43	0	364904448	59	4254
2026-01-24 00:06:23.01	31.62	22.30	-44.3	-45.4	21.7	0.00e+00	0	44	0	372244480	59	4262
2026-01-24 00:06:27.04	31.95	22.85	-43.9	-44.9	22.1	0.00e+00	0	44	0	379584512	59	4045
2026-01-24 00:06:31.07	32.28	23.42	-44.2	-45.3	21.8	0.00e+00	0	44	0	386924544	59	4235
2026-01-24 00:06:35.10	32.63	24.00	-44.3	-45.5	21.6	0.00e+00	0	43	0	394264576	59	4306
2026-01-24 00:06:39.14	32.99	24.59	-44.3	-45.4	21.8	0.00e+00	0	44	0	402653184	59	4250
2026-01-24 00:06:43.17	33.36	25.19	-44.4	-45.6	21.6	0.00e+00	0	43	0	409993216	59	4353
2026-01-24 00:06:47.20	33.75	25.81	-44.2	-45.3	21.9	0.00e+00	0	43	0	417333248	59	4229
2026-01-24 00:06:51.23	34.15	26.44	-43.8	-44.8	22.4	0.00e+00	0	43	0	424673280	59	3982
2026-01-24 00:06:55.26	34.56	27.08	-43.8	-44.8	22.3	0.00e+00	0	43	0	432013312	59	3998
2026-01-24 00:06:59.29	35.00	27.74	-44.1	-45.1	22.1	0.00e+00	0	44	0	440401920	59	4132
2026-01-24 00:07:03.33	35.45	28.41	-44.4	-45.5	21.7	0.00e+00	0	44	0	447741952	59	4314
2026-01-24 00:07:07.35	35.92	29.10	-44.6	-45.8	21.2	0.00e+00	0	44	0	455081984	60	4194
2026-01-24 00:07:11.39	36.41	29.80	-45.6	-46.9	20.3	0.00e+00	0	43	0	462422016	61	4506
2026-01-24 00:07:15.42	36.92	30.51	-46.3	-47.8	19.5	0.00e+00	0	43	0	469762048	63	4462
2026-01-24 00:07:19.45	37.45	31.25	-46.9	-48.5	18.7	0.00e+00	0	43	0	478150656	64	4565
2026-01-24 00:07:23.47	38.01	31.99	-47.3	-49.1	18.2	0.00e+00	0	44	0	485490688	65	4607
2026-01-24 00:07:27.50	38.59	32.76	-46.9	-48.5	18.7	0.00e+00	0	43	0	492830720	65	4337
2026-01-24 00:07:31.53	39.20	33.54	-46.9	-48.5	18.8	0.00e+00	0	43	0	500170752	65	4304
2026-01-24 00:07:35.56	39.84	34.34	-47.0	-48.6	18.7	0.00e+00	0	44	0	508559360	65	4390
2026-01-24 00:07:39.60	40.51	35.16	-47.3	-49.0	18.3	0.00e+00	0	44	0	515899392	65	4592
2026-01-24 00:07:43.63	41.22	35.99	-47.3	-49.0	18.5	0.00e+00	0	44	0	523239424	65	4562
2026-01-24 00:07:47.66	41.96	36.84	-46.6	-48.1	19.3	0.00e+00	0	44	0	530579456	64	4362
2026-01-24 00:07:51.69	42.74	37.70	-46.2	-47.6	19.7	0.00e+00	0	44	0	537919488	64	4119
2026-01-24 00:07:55.72	43.56	38.59	-47.1	-48.7	18.7	0.00e+00	0	44	0	545259520	65	4409
2026-01-24 00:07:59.76	44.43	39.49	-46.4	-47.8	19.6	0.00e+00	0	44	0	553648128	64	4209
2026-01-24 00:08:03.79	45.35	40.41	-45.6	-46.8	20.5	0.00e+00	0	44	0	560988160	62	4230
2026-01-24 00:08:07.81	46.32	41.34	-46.4	-47.8	19.6	0.00e+00	0	44	0	568328192	63	4471
2026-01-24 00:08:11.85	47.35	42.29	-46.5	-47.9	19.5	0.00e+00	0	43	0	575668224	64	4285
2026-01-24 00:08:15.88	48.44	43.25	-46.6	-48.0	19.5	0.00e+00	0	44	0	584056832	63	4575
2026-01-24 00:08:19.91	49.59	44.22	-47.0	-48.7	18.7	0.00e+00	0	44	0	591396864	64	4660
2026-01-24 00:08:23.95	50.82	45.21	-47.0	-48.6	18.8	0.00e+00	0	44	0	598736896	64	4638
2026-01-24 00:08:27.98	52.13	46.21	-46.2	-47.5	19.9	0.00e+00	0	44	0	606076928	63	4330
2026-01-24 00:08:32.01	53.52	47.21	-46.5	-48.0	19.4	0.00e+00	0	44	0	613416960	64	4300
2026-01-24 00:08:36.04	55.00	48.22	-46.3	-47.7	19.8	0.00e+00	0	44	0	621805568	63	4401
2026-01-24 00:08:40.07	56.58	49.23	-47.7	-49.4	18.1	0.00e+00	0	44	0	629145600	66	4542
2026-01-24 00:08:44.11	58.27	50.24	-46.6	-48.0	19.5	0.00e+00	0	43	0	636485632	64	4312
2026-01-24 00:08:48.14	60.07	51.25	-46.6	-48.1	19.3	0.00e+00	0	43	0	643825664	64	4363
2026-01-24 00:08:52.17	62.00	52.24	-47.3	-49.0	18.5	0.00e+00	0	44	0	652214272	66	4305
2026-01-24 00:08:56.21	64.06	53.22	-45.8	-47.1	20.3	0.00e+00	0	44	0	659554304	63	4141
2026-01-24 00:09:00.24	66.26	54.18	-46.0	-47.4	20.2	0.00e+00	0	44	0	666894336	63	4253
2026-01-24 00:09:04.27	68.60	55.11	-44.8	-45.9	21.5	0.00e+00	0	44	0	674234368	61	4037
2026-01-24 00:09:08.30	71.10	56.01	-45.4	-46.6	20.8	0.00e+00	0	44	0	681574400	61	4385
2026-01-24 00:09:12.34	73.77	56.87	-46.3	-47.6	19.7	0.00e+00	0	44	0	689963008	64	4144
2026-01-24 00:09:16.37	76.60	57.68	-44.9	-46.0	21.4	0.00e+00	0	44	0	697303040	61	4058
2026-01-24 00:09:20.40	79.60	58.43	-44.9	-46.0	21.4	0.00e+00	0	43	0	704643072	60	4328
2026-01-24 00:09:24.43	82.76	59.11	-45.9	-47.2	20.3	0.00e+00	0	44	0	711983104	63	4152
2026-01-24 00:09:28.47	86.08	59.72	-44.5	-45.6	22.0	0.00e+00	0	44	0	719323136	59	4363
2026-01-24 00:09:32.50	89.55	60.24	-46.7	-48.3	19.3	0.00e+00	0	44	0	727711744	64	4456
2026-01-24 00:09:36.53	93.14	60.66	-46.3	-47.7	20.0	0.00e+00	0	44	0	735051776	63	4396
2026-01-24 00:09:40.56	96.85	60.99	-46.4	-47.8	19.8	0.00e+00	0	44	0	742391808	64	4235
2026-01-24 00:09:44.60	100.65	61.22	-46.7	-48.2	19.5	0.00e+00	0	44	0	749731840	63	4688
2026-01-24 00:09:48.63	104.48	61.33	-44.5	-45.6	21.8	0.00e+00	0	44	0	758120448	60	4107
2026-01-24 00:09:52.66	108.34	61.34	-44.8	-46.0	21.5	0.00e+00	0	44	0	765460480	60	4319
2026-01-24 00:09:56.69	112.18	61.23	-44.8	-46.0	21.5	0.00e+00	0	44	0	772800512	61	4052
2026-01-24 00:10:00.72	115.98	61.01	-45.3	-46.5	21.0	0.00e+00	0	44	0	780140544	62	4071
2026-01-24 00:10:04.76	119.70	60.69	-47.3	-49.1	18.5	0.00e+00	0	43	0	787480576	65	4604
2026-01-24 00:10:08.79	123.30	60.26	-48.2	-50.1	17.6	0.00e+00	0	44	0	794820608	67	4617
2026-01-24 00:10:12.82	126.78	59.75	-48.8	-50.9	17.0	0.00e+00	0	44	0	803209216	68	4766
2026-01-24 00:10:16.86	130.12	59.14	-47.4	-49.0	18.6	0.00e+00	0	44	0	810549248	65	4558
2026-01-24 00:10:20.89	133.29	58.46	-47.8	-49.6	18.0	0.00e+00	0	44	0	817889280	66	4613
2026-01-24 00:10:24.92	136.30	57.72	-45.4	-46.6	20.7	0.00e+00	0	44	0	825229312	62	4143
2026-01-24 00:10:28.95	139.14	56.91	-45.2	-46.4	20.9	0.00e+00	0	44	0	833617920	61	4267
2026-01-24 00:10:32.98	141.81	56.06	-45.1	-46.3	20.9	0.00e+00	0	44	0	840957952	61	4234
2026-01-24 00:10:37.01	144.33	55.16	-42.6	-43.5	23.4	0.00e+00	0	44	0	848297984	57	3831
2026-01-24 00:10:41.05	146.69	54.22	-42.8	-43.8	23.3	0.00e+00	0	43	0	855638016	56	4203
2026-01-24 00:10:45.08	148.90	53.26	-43.8	-44.8	22.6	0.00e+00	0	44	0	862978048	59	3987
2026-01-24 00:10:49.11	150.96	52.28	-43.0	-44.0	23.2	0.00e+00	0	44	0	871366656	57	4055
2026-01-24 00:10:53.14	152.90	51.29	-44.4	-45.5	22.0	0.00e+00	0	44	0	878706688	59	4332
2026-01-24 00:10:57.17	154.71	50.28	-42.9	-43.8	23.4	0.00e+00	0	44	0	886046720	57	3999
2026-01-24 00:11:01.21	156.41	49.27	-46.5	-48.0	19.2	0.00e+00	0	44	0	893386752	64	4317
2026-01-24 00:11:05.24	158.00	48.25	-49.2	-51.7	16.0	0.00e+00	0	44	0	901775360	69	4927
2026-01-24 00:11:09.27	159.48	47.24	-48.1	-50.0	17.4	0.00e+00	0	44	0	909115392	67	4577
2026-01-24 00:11:13.31	160.88	46.23	-49.9	-52.8	14.7	0.00e+00	0	44	0	916455424	70	5299
2026-01-24 00:11:17.34	162.19	45.23	-46.8	-48.3	19.1	0.00e+00	0	44	0	923795456	64	4469
2026-01-24 00:11:21.37	163.43	44.24	-46.1	-47.5	19.8	0.00e+00	0	44	0	931135488	64	4053
2026-01-24 00:11:25.40	164.59	43.26	-46.5	-47.9	19.5	0.00e+00	0	44	0	938475520	63	4541
2026-01-24 00:11:29.43	165.68	42.30	-44.7	-45.8	21.3	0.00e+00	0	44	0	946864128	61	3999
2026-01-24 00:11:33.46	166.71	41.35	-47.5	-49.4	18.0	0.00e+00	0	44	0	954204160	65	4766
2026-01-24 00:11:37.50	167.69	40.41	-44.9	-46.1	21.1	0.00e+00	0	44	0	961544192	61	4117
2026-01-24 00:11:41.54	168.61	39.49	-47.3	-49.0	18.3	0.00e+00	0	44	0	968884224	65	4587
2026-01-24 00:11:45.57	169.48	38.58	-44.3	-45.3	22.0	0.00e+00	0	44	0	977272832	59	4237
2026-01-24 00:11:49.61	170.31	37.69	-44.7	-45.8	21.6	0.00e+00	0	44	0	984612864	59	4489
2026-01-24 00:11:53.64	171.09	36.82	-46.8	-48.4	18.9	0.00e+00	0	44	0	991952896	64	4505
2026-01-24 00:11:57.67	171.83	35.97	-45.4	-46.7	20.5	0.00e+00	0	44	0	999292928	62	4171
2026-01-24 00:12:01.71	172.54	35.13	-46.3	-47.7	19.6	0.00e+00	0	44	0	1006632960	63	4425
2026-01-24 00:12:05.74	173.21	34.31	-46.4	-47.9	19.4	0.00e+00	0	44	0	1015021568	63	4495
2026-01-24 00:12:09.76	173.85	33.51	-45.6	-46.9	20.3	0.00e+00	0	44	0	1022361600	62	4263
2026-01-24 00:12:13.80	174.46	32.73	-45.7	-47.0	20.2	0.00e+00	0	44	0	1029701632	62	4292
2026-01-24 00:12:17.83	175.05	31.96	-45.5	-46.7	20.4	0.00e+00	0	43	0	1037041664	61	4426
2026-01-24 00:12:21.86	175.61	31.21	-45.9	-47.3	19.9	0.00e+00	0	44	0	1044381696	62	4444
2026-01-24 00:12:25.90	176.14	30.47	-47.4	-49.3	17.9	0.00e+00	0	43	0	1052770304	65	4718
2026-01-24 00:12:29.93	176.65	29.75	-46.4	-47.9	19.2	0.00e+00	0	44	0	1060110336	64	4273
2026-01-24 00:12:33.97	177.14	29.04	-45.8	-47.2	19.9	0.00e+00	0	44	0	1067450368	63	4164
2026-01-24 00:12:38.00	177.61	28.35	-46.5	-48.0	19.2	0.00e+00	0	44	0	1074790400	63	4549
2026-01-24 00:12:42.03	178.06	27.68	-46.0	-47.5	19.6	0.00e+00	0	44	0	1083179008	63	4300
2026-01-24 00:12:46.06	178.50	27.02	-44.8	-45.9	21.0	0.00e+00	0	44	0	1090519040	61	4045
2026-01-24 00:12:50.10	178.91	26.37	-44.6	-45.7	21.1	0.00e+00	0	44	0	1097859072	60	4192
2026-01-24 00:12:54.13	179.31	25.74	-45.3	-46.6	20.4	0.00e+00	0	44	0	1105199104	61	4365
2026-01-24 00:12:58.16	179.70	25.12	-45.4	-46.7	20.3	0.00e+00	0	44	0	1112539136	61	4424
2026-01-24 00:13:02.19	180.07	24.52	-45.5	-46.8	20.1	0.00e+00	0	44	0	1120927744	61	4477
2026-01-24 00:13:06.23	180.43	23.92	-45.2	-46.5	20.5	0.00e+00	0	44	0	1128267776	61	4317
2026-01-24 00:13:10.26	180.78	23.34	-44.2	-45.3	21.7	0.00e+00	0	44	0	1135607808	59	4227
2026-01-24 00:13:14.29	181.11	22.78	-43.1	-44.1	22.8	0.00e+00	0	43	0	1142947840	57	4103
2026-01-24 00:13:18.33	181.43	22.22	-42.9	-43.9	22.9	0.00e+00	0	44	0	1150287872	57	4018
2026-01-24 00:13:22.35	181.74	21.67	-43.8	-44.8	22.1	0.00e+00	0	43	0	1158676480	58	4226
2026-01-24 00:13:26.39	182.05	21.13	-43.9	-45.0	21.9	0.00e+00	0	43	0	1166016512	59	4071
2026-01-24 00:13:30.42	182.34	20.61	-43.7	-44.8	22.1	0.00e+00	0	44	0	1173356544	59	3986
2026-01-24 00:13:34.46	182.62	20.09	-43.7	-44.7	22.1	0.00e+00	0	43	0	1180696576	59	3945
2026-01-24 00:13:38.49	182.90	19.59	-43.5	-44.5	22.3	0.00e+00	0	44	0	1188036608	58	4088
2026-01-24 00:13:42.52	183.16	19.09	-43.7	-44.8	22.1	0.00e+00	0	43	0	1196425216	58	4200
2026-01-24 00:13:46.55	183.42	18.61	-44.3	-45.4	21.5	0.00e+00	0	43	0	1203765248	59	4268
2026-01-24 00:13:50.58	183.67	18.13	-44.4	-45.6	20.9	0.00e+00	0	43	0	1211105280	60	4129
2026-01-24 00:13:54.61	183.92	17.66	-44.9	-46.2	20.5	0.00e+00	0	43	0	1218445312	60	4409
2026-01-24 00:13:58.65	184.15	17.20	-44.8	-46.1	20.6	0.00e+00	0	43	0	1226833920	60	4346
2026-01-24 00:14:02.68	184.38	16.75	-44.4	-45.6	21.0	0.00e+00	0	43	0	1234173952	60	4125
2026-01-24 00:14:06.71	184.61	16.30	-44.3	-45.5	21.4	0.00e+00	0	44	0	1241513984	59	4293
2026-01-24 00:14:10.74	184.82	15.86	-44.3	-45.4	21.4	0.00e+00	0	44	0	1248854016	59	4287
2026-01-24 00:14:14.78	185.04	15.43	-44.4	-45.6	21.3	0.00e+00	0	44	0	1256194048	59	4364
2026-01-24 00:14:18.81	185.24	15.01	-44.6	-45.9	20.7	0.00e+00	0	44	0	1264582656	60	4250
2026-01-24 00:14:22.84	185.44	14.60	-44.9	-46.1	20.4	0.00e+00	0	44	0	1271922688	60	4379
2026-01-24 00:14:26.87	185.64	14.19	-44.7	-46.0	20.6	0.00e+00	0	44	0	1279262720	60	4300
2026-01-24 00:14:30.90	185.83	13.78	-45.0	-46.3	20.3	0.00e+00	0	43	0	1286602752	60	4457
2026-01-24 00:14:34.93	186.02	13.39	-45.0	-46.3	20.3	0.00e+00	0	43	0	1293942784	60	4455
2026-01-24 00:14:38.96	186.20	13.00	-45.2	-46.5	20.0	0.00e+00	0	43	0	1302331392	61	4333
2026-01-24 00:14:42.99	186.38	12.61	-45.3	-46.6	19.9	0.00e+00	0	43	0	1309671424	61	4380
2026-01-24 00:14:47.03	186.55	12.24	-45.6	-47.1	19.5	0.00e+00	0	43	0	1317011456	61	4603
2026-01-24 00:14:51.06	186.72	11.86	-45.7	-47.1	19.4	0.00e+00	0	43	0	1324351488	62	4377
2026-01-24 00:14:55.09	186.89	11.50	-45.6	-47.0	19.4	0.00e+00	0	43	0	1331691520	62	4314
2026-01-24 00:14:59.12	187.05	11.13	-45.4	-46.8	19.6	0.00e+00	0	44	0	1340080128	62	4234
2026-01-24 00:15:03.15	187.21	10.78	-45.6	-47.0	19.4	0.00e+00	0	43	0	1347420160	62	4330
2026-01-24 00:15:07.19	187.36	10.42	-45.5	-47.0	19.4	0.00e+00	0	44	0	1354760192	62	4311
2026-01-24 00:15:11.22	187.51	10.08	-45.7	-47.2	19.2	0.00e+00	0	43	0	1362100224	62	4396
2026-01-24 00:15:15.25	187.66	9.73	-45.5	-46.9	19.4	0.00e+00	0	43	0	1370488832	62	4290
2026-01-24 00:15:19.28	187.81	9.40	-45.7	-47.3	19.1	0.00e+00	0	44	0	1377828864	62	4452
2026-01-24 00:15:23.31	187.95	9.06	-45.6	-47.2	19.2	0.00e+00	0	43	0	1385168896	62	4402
2026-01-24 00:15:27.34	188.09	8.73	-45.8	-47.4	19.0	0.00e+00	0	44	0	1392508928	62	4495
2026-01-24 00:15:31.37	188.23	8.41	-45.9	-47.5	18.8	0.00e+00	0	44	0	1399848960	62	4571
2026-01-24 00:15:35.40	188.36	8.09	-45.9	-47.5	18.8	0.00e+00	0	44	0	1407188992	62	4556
2026-01-24 00:15:39.43	188.49	7.77	-45.9	-47.5	18.8	0.00e+00	0	44	0	1415577600	62	4559
2026-01-24 00:15:43.47	188.62	7.46	-46.0	-47.7	18.5	0.00e+00	0	44	0	1422917632	63	4416
2026-01-24 00:15:47.50	188.75	7.15	-46.0	-47.7	18.5	0.00e+00	0	44	0	1430257664	63	4411
2026-01-24 00:15:51.53	188.87	6.84	-46.1	-47.8	18.3	0.00e+00	0	43	0	1437597696	63	4492
2026-01-24 00:15:55.57	188.99	6.54	-46.2	-48.0	18.1	0.00e+00	0	44	0	1445986304	63	4557
2026-01-24 00:15:59.60	189.11	6.24	-46.3	-48.2	17.8	0.00e+00	0	44	0	1453326336	63	4662
2026-01-24 00:16:03.63	189.23	5.94	-46.2	-48.0	17.8	0.00e+00	0	43	0	1460666368	64	4326
2026-01-24 00:16:07.67	189.35	5.65	-46.2	-48.0	17.8	0.00e+00	0	44	0	1468006400	63	4591
2026-01-24 00:16:11.70	189.46	5.36	-45.9	-47.7	18.0	0.00e+00	0	44	0	1475346432	63	4431
2026-01-24 00:16:15.73	189.57	5.07	-46.4	-48.4	17.2	0.00e+00	0	44	0	1483735040	64	4526
2026-01-24 00:16:19.77	189.68	4.79	-53.3	-68.2	3.8	1.49e+00	0	44	104	1484783616	77	20974
2026-01-24 00:16:23.80	189.79	4.51	-53.8	-68.8	3.8	1.49e+00	0	44	104	1484783616	78	21151
2026-01-24 00:16:27.83	189.90	4.23	-54.1	-69.0	3.8	1.49e+00	0	44	104	1484783616	78	21710
2026-01-24 00:16:31.87	190.00	3.96	-54.2	-69.2	3.8	1.49e+00	0	44	104	1484783616	78	22069
2026-01-24 00:16:35.90	190.10	3.68	-54.2	-69.2	3.8	1.49e+00	0	44	104	1484783616	79	20960
2026-01-24 00:16:39.94	190.21	3.41	-54.2	-69.2	3.8	1.49e+00	0	44	104	1484783616	79	20819
2026-01-24 00:16:43.97	190.31	3.15	-54.0	-69.0	3.8	1.49e+00	0	44	104	1484783616	79	20538
2026-01-24 00:16:48.00	190.40	2.88	-54.0	-69.0	3.8	1.49e+00	0	44	104	1484783616	79	20438
2026-01-24 00:16:52.04	190.50	2.62	-53.9	-68.9	3.8	1.49e+00	0	44	104	1484783616	79	20257
2026-01-24 00:16:56.07	190.60	2.36	-53.9	-68.9	3.8	1.49e+00	0	44	104	1484783616	79	20184
2026-01-24 00:17:00.09	190.69	2.10	-53.9	-68.8	3.8	1.49e+00	0	44	104	1484783616	79	20046

#Closed at: 2026-01-24 00:17:04
#Recorded file [1484 MB]: D:/lorett/data/31041_260124_030237.dat