passes_logs/2026/01/24/R3.2S_Murmansk/R3.2S_Murmansk__20260124_075042_NOAA_21_JPSS-2_rec.log

#Pass ID: 20260124_075042_NOAA 21 (JPSS-2)
#Satellite: NOAA 21 (JPSS-2)
#Configuration: NOAA-21
#almurnet v.1.7.20251203
#Start time: 2026-01-24 07:52:30

#Version: 2.2.20231116
#Station: R3.2S_Murmansk
#Location: 33.079688 lon 68.888172 lat
#TLE: 1 54234U 22150A   26023.61190495  .00000215  00000+0  12293-3 0  9993
#TLE: 2 54234  98.7508 324.4078 0000700 226.6110 133.5008 14.19538339166032

#Time	Az	El	Level	Level2	SNR	BER	BlckErr	Temp	State	Recorded	gain1	gain2
2026-01-24 07:52:30.06	107.73	9.55	-53.8	-65.7	3.8	8.46e-01	0	43	0	0	79	13992
2026-01-24 07:52:33.07	107.54	9.79	-54.3	-67.0	3.8	1.49e+00	0	43	104	0	79	16234
2026-01-24 07:52:36.10	107.34	10.04	-54.1	-66.9	3.8	1.49e+00	0	43	104	0	79	16051
2026-01-24 07:52:39.13	107.14	10.28	-54.0	-66.8	3.8	1.49e+00	0	43	104	0	79	15764
2026-01-24 07:52:42.16	106.94	10.53	-53.9	-66.6	3.8	1.49e+00	0	43	104	0	79	15562
2026-01-24 07:52:45.18	106.73	10.78	-53.7	-66.5	3.8	1.49e+00	0	44	104	0	79	15335
2026-01-24 07:52:48.21	106.52	11.03	-53.6	-66.3	3.8	1.49e+00	0	43	104	0	79	14966
2026-01-24 07:52:51.23	106.30	11.29	-53.3	-66.1	3.8	1.49e+00	0	43	104	0	78	15412
2026-01-24 07:52:54.26	106.09	11.55	-53.0	-65.7	3.8	1.49e+00	0	44	104	0	78	14821
2026-01-24 07:52:57.29	105.86	11.81	-53.0	-65.7	3.8	1.49e+00	0	43	104	0	78	14771
2026-01-24 07:53:00.31	105.64	12.07	-52.9	-65.4	3.8	1.49e+00	0	43	104	0	77	15078
2026-01-24 07:53:03.34	105.41	12.33	-52.5	-65.2	3.8	1.49e+00	0	44	104	0	77	14737
2026-01-24 07:53:06.36	105.17	12.60	-51.2	-65.3	3.8	1.49e+00	0	43	104	0	73	18900
2026-01-24 07:53:09.38	104.93	12.87	-52.9	-65.4	3.8	1.49e+00	0	44	104	0	76	16019
2026-01-24 07:53:12.41	104.69	13.14	-52.8	-64.3	3.8	1.49e+00	0	44	104	0	76	14154
2026-01-24 07:53:15.43	104.44	13.41	-52.7	-62.7	4.1	1.47e+00	0	43	104	0	76	11763
2026-01-24 07:53:18.45	104.18	13.69	-51.9	-58.2	6.2	4.72e-01	0	43	104	0	75	7410
2026-01-24 07:53:21.48	103.92	13.97	-46.0	-47.4	17.0	0.00e+00	0	43	0	9437184	64	4033
2026-01-24 07:53:24.50	103.66	14.25	-43.8	-44.8	19.9	0.00e+00	0	43	0	18874368	59	3978
2026-01-24 07:53:27.52	103.39	14.53	-43.2	-44.2	20.5	0.00e+00	0	43	0	28311552	58	3927
2026-01-24 07:53:30.55	103.12	14.82	-42.6	-43.5	21.2	0.00e+00	0	43	0	37748736	57	3847
2026-01-24 07:53:33.57	102.84	15.11	-42.6	-43.5	21.1	0.00e+00	0	43	0	47185920	57	3859
2026-01-24 07:53:36.60	102.55	15.40	-42.8	-43.7	21.0	0.00e+00	0	43	0	56623104	57	3933
2026-01-24 07:53:39.62	102.26	15.70	-42.8	-43.7	21.0	0.00e+00	0	44	0	66060288	57	3936
2026-01-24 07:53:42.65	101.96	16.00	-42.9	-43.8	20.9	0.00e+00	0	43	0	75497472	57	3990
2026-01-24 07:53:45.67	101.66	16.30	-42.9	-43.8	20.9	0.00e+00	0	43	0	84934656	57	4002
2026-01-24 07:53:48.69	101.35	16.60	-42.9	-43.8	20.9	0.00e+00	0	43	0	94371840	57	3983
2026-01-24 07:53:51.71	101.03	16.91	-43.0	-43.9	20.8	0.00e+00	0	44	0	103809024	57	4047
2026-01-24 07:53:54.74	100.71	17.22	-43.0	-43.9	20.9	0.00e+00	0	43	0	113246208	57	4036
2026-01-24 07:53:57.77	100.38	17.53	-43.0	-43.9	20.8	0.00e+00	0	43	0	122683392	57	4039
2026-01-24 07:54:00.79	100.04	17.85	-43.0	-44.0	20.8	0.00e+00	0	43	0	132120576	57	4054
2026-01-24 07:54:03.82	99.69	18.17	-43.1	-44.0	20.8	0.00e+00	0	43	0	141557760	57	4094
2026-01-24 07:54:06.84	99.34	18.49	-43.2	-44.1	20.7	0.00e+00	0	44	0	150994944	57	4133
2026-01-24 07:54:09.87	98.98	18.81	-43.0	-43.9	21.0	0.00e+00	0	43	0	160432128	57	4025
2026-01-24 07:54:12.90	98.61	19.14	-42.5	-43.4	21.4	0.00e+00	0	44	0	169869312	56	4011
2026-01-24 07:54:15.92	98.24	19.47	-42.4	-43.3	21.5	0.00e+00	0	43	0	179306496	56	3969
2026-01-24 07:54:18.95	97.85	19.81	-42.3	-43.1	21.5	0.00e+00	0	44	0	188743680	56	3912
2026-01-24 07:54:21.97	97.46	20.14	-42.4	-43.3	21.4	0.00e+00	0	43	0	198180864	56	3971
2026-01-24 07:54:25.00	97.06	20.48	-42.2	-43.1	21.6	0.00e+00	0	43	0	207618048	56	3886
2026-01-24 07:54:28.02	96.65	20.83	-42.1	-42.9	21.8	0.00e+00	0	44	0	217055232	56	3799
2026-01-24 07:54:31.04	96.22	21.17	-41.7	-42.5	22.0	0.00e+00	0	43	0	226492416	55	3858
2026-01-24 07:54:34.06	95.79	21.52	-41.6	-42.4	22.0	0.00e+00	0	44	0	235929600	55	3824
2026-01-24 07:54:37.09	95.35	21.88	-41.7	-42.5	22.0	0.00e+00	0	44	0	245366784	55	3831
2026-01-24 07:54:40.11	94.90	22.23	-41.5	-42.3	22.2	0.00e+00	0	43	0	254803968	55	3763
2026-01-24 07:54:43.13	94.44	22.59	-41.4	-42.2	22.3	0.00e+00	0	43	0	264241152	54	3928
2026-01-24 07:54:46.15	93.97	22.95	-41.4	-42.2	22.3	0.00e+00	0	43	0	273678336	54	3922
2026-01-24 07:54:49.18	93.48	23.31	-41.4	-42.2	22.3	0.00e+00	0	44	0	283115520	54	3943
2026-01-24 07:54:52.20	92.99	23.68	-41.7	-42.5	22.1	0.00e+00	0	44	0	292552704	54	4067
2026-01-24 07:54:55.23	92.48	24.05	-41.7	-42.5	22.1	0.00e+00	0	44	0	301989888	54	4068
2026-01-24 07:54:58.25	91.96	24.42	-41.7	-42.5	22.1	0.00e+00	0	44	0	311427072	54	4089
2026-01-24 07:55:01.28	91.43	24.80	-41.9	-42.7	22.0	0.00e+00	0	44	0	320864256	54	4184
2026-01-24 07:55:04.30	90.88	25.18	-42.0	-42.8	21.9	0.00e+00	0	44	0	330301440	54	4215
2026-01-24 07:55:07.32	90.32	25.56	-42.1	-42.9	21.8	0.00e+00	0	44	0	339738624	54	4279
2026-01-24 07:55:10.35	89.75	25.94	-42.7	-43.6	21.3	0.00e+00	0	44	0	349175808	55	4348
2026-01-24 07:55:13.37	89.16	26.33	-42.5	-43.4	21.5	0.00e+00	0	44	0	358612992	55	4257
2026-01-24 07:55:16.39	88.56	26.71	-42.2	-43.0	21.8	0.00e+00	0	43	0	368050176	55	4088
2026-01-24 07:55:19.42	87.94	27.10	-42.3	-43.1	21.7	0.00e+00	0	43	0	377487360	55	4133
2026-01-24 07:55:22.44	87.31	27.49	-42.6	-43.5	21.4	0.00e+00	0	44	0	386924544	55	4295
2026-01-24 07:55:25.47	86.66	27.89	-42.4	-43.2	21.6	0.00e+00	0	44	0	396361728	55	4172
2026-01-24 07:55:28.49	86.00	28.28	-42.4	-43.2	21.5	0.00e+00	0	43	0	405798912	55	4187
2026-01-24 07:55:31.51	85.32	28.67	-42.7	-43.5	21.3	0.00e+00	0	44	0	415236096	55	4338
2026-01-24 07:55:34.54	84.62	29.07	-42.7	-43.6	21.4	0.00e+00	0	44	0	424673280	56	4114
2026-01-24 07:55:37.56	83.90	29.47	-42.5	-43.3	21.5	0.00e+00	0	44	0	434110464	56	3996
2026-01-24 07:55:40.59	83.17	29.86	-42.6	-43.4	21.4	0.00e+00	0	44	0	443547648	56	4033
2026-01-24 07:55:43.61	82.41	30.26	-42.8	-43.6	21.4	0.00e+00	0	43	0	452984832	56	4132
2026-01-24 07:55:46.63	81.64	30.66	-42.8	-43.7	21.3	0.00e+00	0	44	0	462422016	56	4157
2026-01-24 07:55:49.66	80.85	31.05	-42.7	-43.6	21.4	0.00e+00	0	43	0	471859200	56	4121
2026-01-24 07:55:52.68	80.04	31.45	-42.7	-43.5	21.5	0.00e+00	0	44	0	481296384	56	4097
2026-01-24 07:55:55.71	79.21	31.84	-42.7	-43.6	21.4	0.00e+00	0	44	0	490733568	56	4123
2026-01-24 07:55:58.73	78.36	32.23	-43.0	-43.9	21.2	0.00e+00	0	43	0	500170752	56	4264
2026-01-24 07:56:01.75	77.49	32.62	-43.3	-44.2	20.9	0.00e+00	0	44	0	509607936	57	4163
2026-01-24 07:56:04.78	76.59	33.01	-43.3	-44.2	20.9	0.00e+00	0	43	0	520093696	57	4186
2026-01-24 07:56:07.80	75.68	33.39	-43.1	-44.0	21.1	0.00e+00	0	43	0	528482304	57	4075
2026-01-24 07:56:10.83	74.74	33.77	-43.1	-44.0	21.1	0.00e+00	0	44	0	537919488	57	4061
2026-01-24 07:56:13.85	73.79	34.15	-43.3	-44.2	20.9	0.00e+00	0	44	0	547356672	57	4184
2026-01-24 07:56:16.88	72.80	34.52	-43.6	-44.6	20.6	0.00e+00	0	44	0	557842432	57	4352
2026-01-24 07:56:19.90	71.80	34.89	-43.9	-44.8	20.4	0.00e+00	0	44	0	567279616	58	4226
2026-01-24 07:56:22.92	70.78	35.24	-43.9	-44.8	20.5	0.00e+00	0	44	0	575668224	58	4235
2026-01-24 07:56:25.95	69.72	35.60	-43.9	-44.8	20.5	0.00e+00	0	44	0	585105408	58	4223
2026-01-24 07:56:28.97	68.65	35.94	-43.7	-44.8	20.6	0.00e+00	0	44	0	595591168	58	4194
2026-01-24 07:56:32.00	67.56	36.28	-43.7	-44.7	20.4	0.00e+00	0	44	0	605028352	57	4392
2026-01-24 07:56:35.02	66.44	36.61	-43.5	-44.5	20.8	0.00e+00	0	44	0	614465536	58	4052
2026-01-24 07:56:38.05	65.30	36.92	-43.6	-44.5	20.7	0.00e+00	0	43	0	622854144	58	4097
2026-01-24 07:56:41.07	64.14	37.23	-44.2	-45.2	20.2	0.00e+00	0	43	0	633339904	59	4151
2026-01-24 07:56:44.09	62.96	37.53	-43.9	-44.8	20.5	0.00e+00	0	44	0	642777088	59	4002
2026-01-24 07:56:47.12	61.75	37.81	-43.6	-44.5	20.8	0.00e+00	0	43	0	652214272	59	3847
2026-01-24 07:56:50.15	60.52	38.09	-43.5	-44.4	20.8	0.00e+00	0	44	0	661651456	58	4027
2026-01-24 07:56:53.17	59.28	38.35	-44.6	-45.6	19.6	0.00e+00	0	44	0	671088640	59	4376
2026-01-24 07:56:56.20	58.01	38.59	-44.3	-45.3	19.9	0.00e+00	0	43	0	680525824	59	4217
2026-01-24 07:56:59.22	56.73	38.82	-44.7	-45.7	19.6	0.00e+00	0	44	0	689963008	59	4424
2026-01-24 07:57:02.24	55.43	39.04	-44.5	-45.6	19.5	0.00e+00	0	44	0	699400192	60	4116
2026-01-24 07:57:05.26	54.11	39.24	-44.4	-45.4	19.7	0.00e+00	0	44	0	708837376	60	4042
2026-01-24 07:57:08.29	52.77	39.42	-44.2	-45.2	19.9	0.00e+00	0	43	0	718274560	60	3946
2026-01-24 07:57:11.31	51.43	39.59	-44.5	-45.6	19.5	0.00e+00	0	43	0	727711744	60	4114
2026-01-24 07:57:14.33	50.06	39.74	-44.6	-45.6	19.4	0.00e+00	0	44	0	737148928	60	4136
2026-01-24 07:57:17.36	48.69	39.87	-44.4	-45.5	19.6	0.00e+00	0	44	0	746586112	60	4071
2026-01-24 07:57:20.38	47.30	39.98	-44.7	-45.8	19.3	0.00e+00	0	44	0	756023296	60	4221
2026-01-24 07:57:23.41	45.91	40.08	-44.2	-45.2	19.8	0.00e+00	0	44	0	765460480	60	3917
2026-01-24 07:57:26.43	44.51	40.15	-44.3	-45.3	20.1	0.00e+00	0	44	0	774897664	59	4210
2026-01-24 07:57:29.46	43.10	40.21	-44.6	-45.6	19.5	0.00e+00	0	43	0	784334848	60	4123
2026-01-24 07:57:32.48	41.69	40.24	-44.6	-45.6	19.5	0.00e+00	0	43	0	793772032	60	4139
2026-01-24 07:57:35.50	40.28	40.26	-44.8	-45.9	19.2	0.00e+00	0	43	0	803209216	60	4275
2026-01-24 07:57:38.53	38.87	40.26	-44.6	-45.6	19.5	0.00e+00	0	43	0	812646400	60	4136
2026-01-24 07:57:41.55	37.46	40.23	-44.5	-45.6	19.6	0.00e+00	0	44	0	822083584	60	4099
2026-01-24 07:57:44.57	36.05	40.19	-44.4	-45.4	19.6	0.00e+00	0	43	0	831520768	60	4048
2026-01-24 07:57:47.60	34.64	40.13	-44.3	-45.3	20.1	0.00e+00	0	43	0	840957952	59	4199
2026-01-24 07:57:50.62	33.25	40.04	-44.4	-45.4	20.0	0.00e+00	0	43	0	850395136	59	4281
2026-01-24 07:57:53.64	31.86	39.94	-44.3	-45.3	20.0	0.00e+00	0	43	0	859832320	59	4213
2026-01-24 07:57:56.67	30.48	39.82	-44.4	-45.4	20.0	0.00e+00	0	43	0	869269504	59	4254
2026-01-24 07:57:59.69	29.11	39.68	-44.6	-45.7	19.4	0.00e+00	0	43	0	878706688	60	4159
2026-01-24 07:58:02.72	27.75	39.53	-44.1	-45.1	19.7	0.00e+00	0	43	0	888143872	60	3888
2026-01-24 07:58:05.74	26.41	39.35	-44.5	-45.6	19.7	0.00e+00	0	44	0	897581056	59	4342
2026-01-24 07:58:08.77	25.08	39.16	-44.6	-45.7	19.7	0.00e+00	0	43	0	907018240	59	4395
2026-01-24 07:58:11.79	23.77	38.96	-44.3	-45.2	20.1	0.00e+00	0	43	0	916455424	59	4185
2026-01-24 07:58:14.82	22.47	38.74	-44.2	-45.2	20.1	0.00e+00	0	44	0	925892608	59	4183
2026-01-24 07:58:17.84	21.20	38.50	-44.3	-45.4	19.7	0.00e+00	0	44	0	935329792	60	4009
2026-01-24 07:58:20.87	19.94	38.25	-43.6	-44.5	20.6	0.00e+00	0	43	0	944766976	59	3841
2026-01-24 07:58:23.89	18.71	37.98	-44.1	-45.1	20.3	0.00e+00	0	43	0	954204160	59	4107
2026-01-24 07:58:26.91	17.49	37.71	-44.0	-45.0	20.4	0.00e+00	0	44	0	963641344	59	4059
2026-01-24 07:58:29.94	16.29	37.42	-44.3	-45.4	20.1	0.00e+00	0	43	0	973078528	59	4255
2026-01-24 07:58:32.96	15.12	37.12	-44.5	-45.6	19.4	0.00e+00	0	43	0	982515712	60	4126
2026-01-24 07:58:35.98	13.97	36.80	-43.0	-43.8	21.3	0.00e+00	0	43	0	991952896	58	3772
2026-01-24 07:58:39.00	12.84	36.48	-44.3	-45.3	20.0	0.00e+00	0	44	0	1001390080	59	4197
2026-01-24 07:58:42.03	11.74	36.15	-44.2	-45.2	19.9	0.00e+00	0	44	0	1010827264	60	3931
2026-01-24 07:58:45.05	10.65	35.81	-43.5	-44.4	20.9	0.00e+00	0	43	0	1020264448	59	3824
2026-01-24 07:58:48.08	9.59	35.47	-44.3	-45.3	19.9	0.00e+00	0	43	0	1029701632	59	4236
2026-01-24 07:58:51.10	8.55	35.11	-43.4	-44.3	20.9	0.00e+00	0	44	0	1039138816	58	3994
2026-01-24 07:58:54.13	7.54	34.75	-43.2	-44.2	21.1	0.00e+00	0	44	0	1048576000	58	3918
2026-01-24 07:58:57.15	6.54	34.38	-43.9	-44.9	20.1	0.00e+00	0	43	0	1058013184	58	4265
2026-01-24 07:59:00.18	5.57	34.01	-43.2	-44.1	20.9	0.00e+00	0	43	0	1067450368	58	3881
2026-01-24 07:59:03.21	4.62	33.64	-42.9	-43.8	21.4	0.00e+00	0	43	0	1076887552	57	3963
2026-01-24 07:59:06.23	3.70	33.26	-43.1	-44.0	21.1	0.00e+00	0	43	0	1086324736	57	4077
2026-01-24 07:59:09.26	2.79	32.87	-42.8	-43.6	21.5	0.00e+00	0	43	0	1095761920	57	3903
2026-01-24 07:59:12.28	1.91	32.48	-43.0	-43.8	21.2	0.00e+00	0	43	0	1105199104	57	3996
2026-01-24 07:59:15.31	1.05	32.09	-43.1	-44.0	21.2	0.00e+00	0	44	0	1114636288	57	4076
2026-01-24 07:59:18.33	0.21	31.70	-42.4	-43.2	21.7	0.00e+00	0	44	0	1124073472	56	3936
2026-01-24 07:59:21.35	359.39	31.31	-43.0	-43.9	21.2	0.00e+00	0	44	0	1133510656	56	4257
2026-01-24 07:59:24.38	358.58	30.91	-42.8	-43.6	21.4	0.00e+00	0	44	0	1142947840	56	4145
2026-01-24 07:59:27.41	357.80	30.52	-42.2	-43.0	21.9	0.00e+00	0	43	0	1152385024	56	3858
2026-01-24 07:59:30.43	357.04	30.12	-42.2	-43.0	21.9	0.00e+00	0	44	0	1161822208	56	3856
2026-01-24 07:59:33.45	356.30	29.73	-42.2	-43.0	21.9	0.00e+00	0	43	0	1171259392	56	3867
2026-01-24 07:59:36.47	355.57	29.33	-42.1	-42.9	21.9	0.00e+00	0	44	0	1180696576	56	3811
2026-01-24 07:59:39.50	354.86	28.94	-42.2	-43.0	21.9	0.00e+00	0	43	0	1190133760	56	3851
2026-01-24 07:59:42.52	354.17	28.54	-42.9	-43.8	21.2	0.00e+00	0	43	0	1199570944	56	4228
2026-01-24 07:59:45.55	353.50	28.15	-42.8	-43.7	21.2	0.00e+00	0	43	0	1209008128	56	4179
2026-01-24 07:59:48.57	352.84	27.76	-42.0	-42.9	21.9	0.00e+00	0	43	0	1219493888	56	3787
2026-01-24 07:59:51.59	352.20	27.37	-42.1	-42.9	21.8	0.00e+00	0	43	0	1227882496	55	4040
2026-01-24 07:59:54.62	351.58	26.98	-42.3	-43.2	21.6	0.00e+00	0	44	0	1237319680	55	4162
2026-01-24 07:59:57.64	350.97	26.59	-42.3	-43.1	21.6	0.00e+00	0	44	0	1246756864	55	4141
2026-01-24 08:00:00.66	350.38	26.20	-42.0	-42.9	21.8	0.00e+00	0	43	0	1257242624	55	4012
2026-01-24 08:00:03.69	349.79	25.82	-42.0	-42.8	21.9	0.00e+00	0	43	0	1266679808	55	3994
2026-01-24 08:00:06.71	349.23	25.44	-42.2	-43.1	21.6	0.00e+00	0	43	0	1275068416	55	4122
2026-01-24 08:00:09.73	348.68	25.06	-42.3	-43.2	21.5	0.00e+00	0	43	0	1284505600	55	4156
2026-01-24 08:00:12.76	348.14	24.68	-42.1	-43.0	21.7	0.00e+00	0	43	0	1293942784	55	4065
2026-01-24 08:00:15.78	347.61	24.31	-41.8	-42.7	22.0	0.00e+00	0	44	0	1304428544	55	3915
2026-01-24 08:00:18.80	347.10	23.94	-41.8	-42.6	22.1	0.00e+00	0	43	0	1313865728	55	3911
2026-01-24 08:00:21.83	346.60	23.57	-42.1	-42.9	21.9	0.00e+00	0	43	0	1322254336	55	4019
2026-01-24 08:00:24.85	346.11	23.21	-42.0	-42.8	21.8	0.00e+00	0	43	0	1331691520	55	3999
2026-01-24 08:00:27.88	345.63	22.84	-42.0	-42.8	21.9	0.00e+00	0	43	0	1342177280	55	3976
2026-01-24 08:00:30.90	345.16	22.49	-42.0	-42.9	21.8	0.00e+00	0	44	0	1351614464	55	4016
2026-01-24 08:00:33.92	344.71	22.13	-42.3	-43.1	21.6	0.00e+00	0	43	0	1361051648	55	4130
2026-01-24 08:00:36.95	344.26	21.78	-42.2	-43.0	21.7	0.00e+00	0	43	0	1369440256	55	4094
2026-01-24 08:00:39.97	343.82	21.43	-42.0	-42.8	21.8	0.00e+00	0	43	0	1379926016	55	4002
2026-01-24 08:00:43.00	343.40	21.08	-41.9	-42.7	21.9	0.00e+00	0	43	0	1389363200	55	3941
2026-01-24 08:00:46.02	342.98	20.73	-41.9	-42.7	21.9	0.00e+00	0	43	0	1398800384	55	3939
2026-01-24 08:00:49.05	342.57	20.39	-41.9	-42.7	21.8	0.00e+00	0	43	0	1408237568	55	3958
2026-01-24 08:00:52.07	342.18	20.05	-41.7	-42.5	22.0	0.00e+00	0	43	0	1417674752	55	3866
2026-01-24 08:00:55.09	341.79	19.72	-41.7	-42.5	22.0	0.00e+00	0	43	0	1427111936	55	3853
2026-01-24 08:00:58.12	341.41	19.39	-41.4	-42.2	22.2	0.00e+00	0	43	0	1436549120	54	3943
2026-01-24 08:01:01.14	341.04	19.06	-41.7	-42.5	22.0	0.00e+00	0	43	0	1445986304	54	4064
2026-01-24 08:01:04.17	340.67	18.73	-42.0	-42.8	21.7	0.00e+00	0	44	0	1455423488	54	4223
2026-01-24 08:01:07.19	340.32	18.41	-42.2	-43.0	21.5	0.00e+00	0	43	0	1464860672	54	4316
2026-01-24 08:01:10.22	339.97	18.09	-42.3	-43.2	21.4	0.00e+00	0	43	0	1474297856	55	4157
2026-01-24 08:01:13.25	339.63	17.77	-42.4	-43.3	21.1	0.00e+00	0	43	0	1483735040	55	4231
2026-01-24 08:01:16.27	339.30	17.46	-42.4	-43.2	21.1	0.00e+00	0	43	0	1493172224	55	4193
2026-01-24 08:01:19.30	338.97	17.15	-42.2	-43.1	21.3	0.00e+00	0	43	0	1502609408	55	4103
2026-01-24 08:01:22.32	338.65	16.84	-42.0	-42.9	21.5	0.00e+00	0	43	0	1512046592	55	4012
2026-01-24 08:01:25.35	338.34	16.53	-42.1	-42.9	21.4	0.00e+00	0	43	0	1521483776	55	4038
2026-01-24 08:01:28.37	338.03	16.23	-42.2	-43.0	21.4	0.00e+00	0	43	0	1530920960	55	4075
2026-01-24 08:01:31.40	337.73	15.93	-42.5	-43.4	21.1	0.00e+00	0	43	0	1540358144	55	4247
2026-01-24 08:01:34.42	337.44	15.64	-42.7	-43.6	20.9	0.00e+00	0	43	0	1549795328	55	4364
2026-01-24 08:01:37.44	337.15	15.34	-42.9	-43.8	20.8	0.00e+00	0	43	0	1559232512	56	4228
2026-01-24 08:01:40.47	336.87	15.05	-42.6	-43.5	21.0	0.00e+00	0	43	0	1568669696	56	4074
2026-01-24 08:01:43.49	336.59	14.76	-42.4	-43.3	21.2	0.00e+00	0	43	0	1578106880	56	3979
2026-01-24 08:01:46.52	336.32	14.48	-42.4	-43.3	21.2	0.00e+00	0	43	0	1587544064	56	3960
2026-01-24 08:01:49.54	336.05	14.20	-42.3	-43.2	21.3	0.00e+00	0	43	0	1596981248	56	3933
2026-01-24 08:01:52.57	335.79	13.92	-42.5	-43.3	21.1	0.00e+00	0	43	0	1606418432	56	4004
2026-01-24 08:01:55.59	335.54	13.64	-42.5	-43.4	21.1	0.00e+00	0	43	0	1615855616	56	4023
2026-01-24 08:01:58.62	335.29	13.36	-42.6	-43.5	21.0	0.00e+00	0	43	0	1625292800	56	4093
2026-01-24 08:02:01.64	335.04	13.09	-42.6	-43.5	20.9	0.00e+00	0	44	0	1634729984	56	4097
2026-01-24 08:02:04.67	334.80	12.82	-42.6	-43.6	20.9	7.00e-07	0	44	0	1644167168	56	4100
2026-01-24 08:02:07.69	334.56	12.55	-42.7	-43.6	20.8	0.00e+00	0	43	0	1653604352	56	4142
2026-01-24 08:02:10.71	334.33	12.29	-43.1	-44.1	20.4	0.00e+00	0	43	0	1663041536	56	4358
2026-01-24 08:02:13.74	334.10	12.02	-43.2	-44.2	20.3	0.00e+00	0	44	0	1672478720	57	4164
2026-01-24 08:02:16.77	333.88	11.76	-43.4	-44.4	20.1	0.00e+00	0	43	0	1681915904	57	4246
2026-01-24 08:02:19.79	333.66	11.51	-43.7	-44.8	19.8	0.00e+00	0	43	0	1691353088	57	4442
2026-01-24 08:02:22.82	333.44	11.25	-43.5	-44.5	20.1	0.00e+00	0	43	0	1700790272	58	4063
2026-01-24 08:02:25.85	333.23	11.00	-43.6	-44.6	20.0	0.00e+00	0	43	0	1710227456	58	4108
2026-01-24 08:02:28.87	333.02	10.74	-43.7	-44.8	19.8	0.00e+00	0	43	0	1719664640	58	4197
2026-01-24 08:02:31.90	332.82	10.49	-43.8	-44.9	19.7	0.00e+00	0	43	0	1729101824	58	4252
2026-01-24 08:02:34.93	332.62	10.25	-43.9	-44.9	19.6	0.00e+00	0	43	0	1738539008	58	4291
2026-01-24 08:02:37.95	332.42	10.00	-43.8	-44.8	19.7	0.00e+00	0	43	0	1747976192	58	4225
2026-01-24 08:02:40.97	332.23	9.76	-43.8	-44.9	19.6	0.00e+00	0	43	0	1757413376	58	4272
2026-01-24 08:02:44.00	332.04	9.52	-44.1	-45.2	19.3	0.00e+00	0	44	0	1766850560	58	4420
2026-01-24 08:02:47.02	331.85	9.28	-44.1	-45.3	19.2	0.00e+00	0	43	0	1776287744	59	4202
2026-01-24 08:02:50.05	331.67	9.04	-44.3	-45.4	19.0	0.00e+00	0	43	0	1785724928	59	4282
2026-01-24 08:02:53.07	331.49	8.81	-44.7	-45.8	18.6	0.00e+00	0	43	0	1795162112	59	4490
2026-01-24 08:02:56.10	331.31	8.57	-44.2	-45.3	18.8	0.00e+00	0	43	0	1804599296	60	3982
2026-01-24 08:02:59.12	331.14	8.34	-44.2	-45.3	18.8	0.00e+00	0	43	0	1814036480	60	3987
2026-01-24 08:03:02.14	330.97	8.11	-44.5	-45.6	18.8	0.00e+00	0	43	0	1823473664	59	4376
2026-01-24 08:03:05.17	330.80	7.88	-44.3	-45.5	18.6	0.00e+00	0	43	0	1832910848	60	4074
2026-01-24 08:03:08.19	330.63	7.66	-44.3	-45.5	18.6	0.00e+00	0	43	0	1842348032	60	4059
2026-01-24 08:03:11.21	330.47	7.44	-44.5	-45.7	18.3	0.00e+00	0	43	0	1851785216	60	4170
2026-01-24 08:03:14.24	330.31	7.21	-44.5	-45.7	18.3	0.00e+00	0	43	0	1861222400	60	4185
2026-01-24 08:03:17.26	330.15	6.99	-44.3	-45.4	18.5	0.00e+00	0	43	0	1870659584	60	4047
2026-01-24 08:03:20.29	329.99	6.77	-44.5	-45.7	18.3	0.00e+00	0	43	0	1880096768	60	4172
2026-01-24 08:03:23.31	329.84	6.56	-44.6	-45.8	18.1	0.00e+00	0	44	0	1889533952	60	4240
2026-01-24 08:03:26.33	329.69	6.34	-44.3	-45.5	18.5	0.00e+00	0	43	0	1898971136	60	4060
2026-01-24 08:03:29.36	329.54	6.13	-44.8	-46.1	17.8	0.00e+00	0	43	0	1908408320	60	4345
2026-01-24 08:03:32.38	329.40	5.91	-44.7	-46.0	17.9	0.00e+00	0	43	0	1917845504	60	4308
2026-01-24 08:03:35.41	329.25	5.70	-44.7	-46.0	17.8	0.00e+00	0	43	0	1927282688	60	4320
2026-01-24 08:03:38.43	329.11	5.49	-45.2	-46.6	17.3	0.00e+00	0	44	0	1936719872	61	4354
2026-01-24 08:03:41.46	328.97	5.28	-45.2	-46.6	17.2	0.00e+00	0	43	0	1946157056	61	4380
2026-01-24 08:03:44.48	328.84	5.08	-45.1	-46.4	17.3	0.00e+00	0	43	0	1956642816	61	4287
2026-01-24 08:03:47.51	328.70	4.87	-52.9	-65.7	3.8	1.49e+00	0	43	104	1959788544	76	16604
2026-01-24 08:03:50.53	328.57	4.67	-53.4	-66.1	3.8	1.49e+00	0	43	104	1959788544	77	16378
2026-01-24 08:03:53.55	328.44	4.46	-53.8	-66.6	3.8	1.49e+00	0	44	104	1959788544	78	16399
2026-01-24 08:03:56.58	328.31	4.26	-54.1	-66.8	3.8	1.49e+00	0	44	104	1959788544	78	16852
2026-01-24 08:03:59.60	328.18	4.06	-54.3	-67.1	3.8	1.49e+00	0	43	104	1959788544	79	16496
2026-01-24 08:04:02.63	328.06	3.86	-54.4	-67.2	3.8	1.49e+00	0	44	104	1959788544	79	16602
2026-01-24 08:04:05.65	327.94	3.67	-54.3	-67.1	3.8	1.49e+00	0	44	104	1959788544	79	16389
2026-01-24 08:04:08.68	327.81	3.47	-54.2	-66.9	3.8	1.49e+00	0	44	104	1959788544	79	16085
2026-01-24 08:04:11.70	327.69	3.28	-54.0	-66.8	3.8	1.49e+00	0	44	104	1959788544	79	15884
2026-01-24 08:04:14.73	327.58	3.08	-54.0	-66.8	3.8	1.49e+00	0	44	104	1959788544	79	15786
2026-01-24 08:04:17.75	327.46	2.89	-54.0	-66.8	3.8	1.49e+00	0	44	104	1959788544	79	15782
2026-01-24 08:04:20.78	327.35	2.70	-53.9	-66.7	3.8	1.49e+00	0	44	104	1959788544	79	15675
2026-01-24 08:04:23.80	327.23	2.51	-53.9	-66.7	3.8	1.49e+00	0	44	104	1959788544	79	15612
2026-01-24 08:04:26.83	327.12	2.32	-53.9	-66.6	3.8	1.49e+00	0	44	104	1959788544	79	15550
2026-01-24 08:04:29.85	327.01	2.13	-53.8	-66.6	3.8	1.49e+00	0	43	104	1959788544	79	15511
2026-01-24 08:04:32.88	326.90	1.95	-53.8	-66.6	3.8	1.49e+00	0	44	104	1959788544	79	15457

#Closed at: 2026-01-24 08:04:32
#Recorded file [1959 MB]: D:/lorett/data/31041_260124_105229.dat