passes_logs/2026/01/24/R3.2S_Murmansk/R3.2S_Murmansk__20260124_204329_NOAA_20_JPSS-1_rec.log

#Pass ID: 20260124_204329_NOAA 20 (JPSS-1)
#Satellite: NOAA 20 (JPSS-1)
#Configuration: NOAA 20
#almurnet v.1.7.20251203
#Start time: 2026-01-24 20:43:30

#Version: 2.2.20231116
#Station: R3.2S_Murmansk
#Location: 33.079688 lon 68.888172 lat
#TLE: 1 43013U 17073A   26024.42258823  .00000183  00000+0  10747-3 0  9990
#TLE: 2 43013  98.7646 325.2629 0001105  25.8644 334.2587 14.19539754424075

#Time	Az	El	Level	Level2	SNR	BER	BlckErr	Temp	State	Recorded	gain1	gain2
2026-01-24 20:43:30.47	19.35	2.05	-52.1	-67.1	3.8	1.49e+00	0	47	0	0	76	19419
2026-01-24 20:43:33.50	19.69	2.16	-52.1	-67.1	3.8	1.49e+00	0	46	104	0	74	21797
2026-01-24 20:43:36.53	20.03	2.27	-52.1	-67.0	3.8	1.49e+00	0	46	104	0	74	21742
2026-01-24 20:43:39.55	20.37	2.38	-52.1	-67.1	3.8	1.49e+00	0	46	104	0	74	21794
2026-01-24 20:43:42.57	20.72	2.49	-52.1	-67.0	3.8	1.49e+00	0	46	104	0	74	21750
2026-01-24 20:43:45.60	21.07	2.60	-52.1	-67.0	3.8	1.49e+00	0	45	104	0	74	21699
2026-01-24 20:43:48.62	21.42	2.71	-52.1	-67.0	3.8	1.49e+00	0	45	104	0	74	21734
2026-01-24 20:43:51.65	21.77	2.82	-52.1	-67.0	3.8	1.49e+00	0	45	104	0	74	21679
2026-01-24 20:43:54.67	22.13	2.93	-52.1	-67.0	3.8	1.49e+00	0	45	104	0	74	21594
2026-01-24 20:43:57.70	22.49	3.03	-52.1	-67.0	3.8	1.49e+00	0	45	104	0	74	21585
2026-01-24 20:44:00.72	22.85	3.14	-52.1	-66.9	3.8	1.49e+00	0	45	104	0	74	21414
2026-01-24 20:44:03.74	23.21	3.25	-52.1	-66.9	3.8	1.49e+00	0	45	104	0	74	21284
2026-01-24 20:44:06.77	23.58	3.35	-52.0	-66.9	3.8	1.49e+00	0	45	104	0	74	21350
2026-01-24 20:44:09.79	23.94	3.46	-52.1	-67.0	3.8	1.49e+00	0	45	104	0	74	21523
2026-01-24 20:44:12.81	24.32	3.56	-52.0	-67.0	3.8	1.49e+00	0	45	104	0	74	21531
2026-01-24 20:44:15.83	24.69	3.67	-52.0	-67.0	3.8	1.49e+00	0	45	104	0	74	21508
2026-01-24 20:44:18.86	25.07	3.77	-52.0	-67.0	3.8	1.49e+00	0	45	104	0	74	21572
2026-01-24 20:44:21.88	25.44	3.87	-52.1	-67.0	3.8	1.49e+00	0	45	104	0	74	21613
2026-01-24 20:44:24.90	25.82	3.98	-52.0	-67.0	3.8	1.49e+00	0	45	104	0	74	21551
2026-01-24 20:44:27.92	26.21	4.08	-52.0	-67.0	3.8	1.49e+00	0	45	104	0	74	21548
2026-01-24 20:44:30.94	26.59	4.18	-52.0	-67.0	3.8	1.49e+00	0	44	104	0	74	21666
2026-01-24 20:44:33.97	26.98	4.28	-52.0	-67.0	3.8	1.49e+00	0	44	104	0	74	21633
2026-01-24 20:44:36.99	27.37	4.38	-52.0	-67.0	3.8	1.49e+00	0	44	104	0	74	21548
2026-01-24 20:44:39.98	27.76	4.48	-52.0	-67.0	3.8	1.49e+00	0	44	104	0	74	21656
2026-01-24 20:44:42.94	28.15	4.57	-52.0	-67.0	3.8	1.49e+00	0	44	104	0	74	21554
2026-01-24 20:44:45.86	28.54	4.67	-52.0	-65.6	3.8	1.49e+00	0	44	104	0	74	18517
2026-01-24 20:44:48.77	28.92	4.76	-51.8	-62.4	4.6	1.36e+00	2	44	0	0	74	12756
2026-01-24 20:44:51.68	29.31	4.85	-50.5	-55.9	9.8	2.90e-02	0	44	0	5242880	73	6391
2026-01-24 20:44:54.60	29.70	4.94	-49.6	-53.4	12.6	1.07e-04	0	44	0	11534336	71	5377
2026-01-24 20:44:57.51	30.10	5.03	-48.6	-51.6	14.3	2.91e-03	0	44	0	16777216	69	4875
2026-01-24 20:45:00.43	30.50	5.12	-51.7	-62.4	4.6	8.87e-01	0	44	0	22020096	74	12697
2026-01-24 20:45:03.35	30.90	5.21	-47.4	-49.5	16.6	0.00e+00	0	44	0	24117248	66	4596
2026-01-24 20:45:06.26	31.30	5.30	-47.1	-49.2	16.9	0.00e+00	0	44	0	29360128	65	4655
2026-01-24 20:45:09.17	31.70	5.39	-47.3	-49.5	16.6	0.00e+00	0	44	0	35651584	65	4834
2026-01-24 20:45:12.08	32.10	5.48	-47.2	-49.3	16.9	0.00e+00	0	44	0	40894464	65	4721
2026-01-24 20:45:14.99	32.51	5.56	-47.4	-49.6	16.5	0.00e+00	0	44	0	46137344	65	4884
2026-01-24 20:45:17.90	32.92	5.65	-47.4	-49.6	16.6	0.00e+00	0	44	0	51380224	65	4875
2026-01-24 20:45:20.81	33.33	5.73	-47.4	-49.6	16.5	0.00e+00	0	44	0	57671680	65	4926
2026-01-24 20:45:23.71	33.75	5.81	-47.4	-49.6	16.6	0.00e+00	0	44	0	62914560	65	4887
2026-01-24 20:45:26.63	34.16	5.90	-47.6	-49.9	16.4	0.00e+00	0	44	0	68157440	65	5070
2026-01-24 20:45:29.54	34.58	5.98	-47.6	-49.9	16.4	0.00e+00	0	44	0	73400320	66	4785
2026-01-24 20:45:32.46	35.01	6.06	-47.6	-49.9	16.3	0.00e+00	0	44	0	78643200	66	4760
2026-01-24 20:45:35.37	35.43	6.14	-47.6	-49.9	16.4	0.00e+00	0	44	0	84934656	66	4775
2026-01-24 20:45:38.28	35.85	6.21	-47.5	-49.7	16.5	0.00e+00	0	44	0	90177536	66	4666
2026-01-24 20:45:41.19	36.28	6.29	-47.5	-49.7	16.5	0.00e+00	0	44	0	95420416	66	4705
2026-01-24 20:45:44.10	36.71	6.37	-47.4	-49.5	16.8	0.00e+00	0	44	0	100663296	66	4572
2026-01-24 20:45:47.01	37.14	6.44	-47.4	-49.6	16.7	0.00e+00	0	44	0	105906176	66	4624
2026-01-24 20:45:49.92	37.58	6.51	-47.5	-49.7	16.6	0.00e+00	0	44	0	112197632	66	4678
2026-01-24 20:45:52.84	38.02	6.59	-47.6	-49.8	16.4	0.00e+00	0	44	0	117440512	66	4707
2026-01-24 20:45:55.75	38.45	6.66	-47.5	-49.7	16.7	0.00e+00	0	44	0	122683392	66	4697
2026-01-24 20:45:58.67	38.90	6.73	-47.3	-49.4	16.9	0.00e+00	0	44	0	127926272	66	4522
2026-01-24 20:46:01.58	39.34	6.80	-47.5	-49.7	16.7	0.00e+00	0	44	0	134217728	66	4686
2026-01-24 20:46:04.48	39.78	6.86	-47.7	-50.0	16.4	0.00e+00	0	44	0	139460608	66	4816
2026-01-24 20:46:07.38	40.23	6.93	-47.7	-49.9	16.5	0.00e+00	0	44	0	144703488	66	4777
2026-01-24 20:46:10.30	40.68	6.99	-47.5	-49.6	16.7	0.00e+00	0	44	0	149946368	66	4621
2026-01-24 20:46:13.21	41.13	7.06	-47.4	-49.6	16.7	0.00e+00	0	44	0	155189248	66	4602
2026-01-24 20:46:16.13	41.58	7.12	-47.6	-49.8	16.5	0.00e+00	0	43	0	160432128	66	4715
2026-01-24 20:46:19.04	42.03	7.18	-47.6	-49.7	16.6	0.00e+00	0	44	0	166723584	66	4701
2026-01-24 20:46:21.96	42.49	7.24	-47.4	-49.5	16.8	0.00e+00	0	43	0	171966464	66	4589
2026-01-24 20:46:24.87	42.95	7.30	-47.6	-49.9	16.5	0.00e+00	0	44	0	177209344	66	4765
2026-01-24 20:46:27.79	43.41	7.35	-47.6	-49.8	16.6	0.00e+00	0	43	0	182452224	66	4745
2026-01-24 20:46:30.70	43.87	7.41	-47.6	-49.9	16.6	0.00e+00	0	44	0	188743680	66	4761
2026-01-24 20:46:33.61	44.33	7.46	-47.5	-49.6	16.7	0.00e+00	0	44	0	193986560	66	4626
2026-01-24 20:46:36.52	44.80	7.52	-47.4	-49.5	16.8	0.00e+00	0	44	0	199229440	66	4578
2026-01-24 20:46:39.43	45.26	7.57	-47.3	-49.4	16.9	0.00e+00	0	44	0	204472320	66	4518
2026-01-24 20:46:42.34	45.73	7.61	-47.4	-49.5	17.0	0.00e+00	0	43	0	209715200	66	4550
2026-01-24 20:46:45.25	46.20	7.66	-47.5	-49.6	16.8	0.00e+00	0	44	0	214958080	66	4649
2026-01-24 20:46:48.16	46.67	7.71	-47.5	-49.6	16.8	0.00e+00	0	44	0	221249536	66	4612
2026-01-24 20:46:51.08	47.14	7.75	-47.4	-49.5	16.8	0.00e+00	0	44	0	226492416	66	4564
2026-01-24 20:46:53.99	47.62	7.80	-47.3	-49.4	17.0	0.00e+00	0	44	0	231735296	66	4528
2026-01-24 20:46:56.90	48.09	7.84	-47.2	-49.2	17.2	0.00e+00	0	44	0	236978176	66	4432
2026-01-24 20:46:59.82	48.57	7.88	-47.4	-49.5	16.8	0.00e+00	0	43	0	243269632	66	4579
2026-01-24 20:47:02.73	49.05	7.92	-47.4	-49.5	16.8	0.00e+00	0	44	0	248512512	66	4593
2026-01-24 20:47:05.64	49.52	7.95	-47.6	-49.7	16.7	0.00e+00	0	44	0	253755392	66	4680
2026-01-24 20:47:08.55	50.00	7.99	-47.8	-50.1	16.4	0.00e+00	0	44	0	258998272	66	4872
2026-01-24 20:47:11.47	50.49	8.02	-47.9	-50.2	16.3	0.00e+00	0	44	0	265289728	66	4943
2026-01-24 20:47:14.37	50.97	8.05	-47.9	-50.2	16.2	0.00e+00	0	44	0	270532608	66	4973
2026-01-24 20:47:17.29	51.45	8.08	-47.6	-49.8	16.5	0.00e+00	0	44	0	275775488	66	4753
2026-01-24 20:47:20.21	51.94	8.11	-47.5	-49.7	16.8	0.00e+00	0	44	0	281018368	66	4663
2026-01-24 20:47:23.12	52.42	8.14	-47.7	-49.9	16.4	0.00e+00	0	44	0	286261248	66	4795
2026-01-24 20:47:26.03	52.91	8.16	-48.1	-50.5	15.9	0.00e+00	0	44	0	291504128	66	5118
2026-01-24 20:47:28.95	53.39	8.18	-48.2	-50.6	15.7	0.00e+00	0	44	0	297795584	67	4901
2026-01-24 20:47:31.85	53.88	8.21	-48.0	-50.3	16.0	0.00e+00	0	44	0	303038464	67	4747
2026-01-24 20:47:34.77	54.37	8.22	-47.9	-50.3	16.2	0.00e+00	0	44	0	308281344	67	4708
2026-01-24 20:47:37.68	54.86	8.24	-47.8	-50.1	16.4	0.00e+00	0	44	0	313524224	67	4605
2026-01-24 20:47:40.59	55.35	8.26	-47.5	-49.6	16.8	0.00e+00	0	44	0	319815680	67	4390
2026-01-24 20:47:43.51	55.84	8.27	-47.6	-49.8	16.6	0.00e+00	0	44	0	325058560	66	4748
2026-01-24 20:47:46.42	56.33	8.28	-47.5	-49.7	16.7	0.00e+00	0	44	0	330301440	66	4654
2026-01-24 20:47:49.33	56.82	8.30	-47.6	-49.8	16.6	0.00e+00	0	44	0	335544320	66	4747
2026-01-24 20:47:52.24	57.31	8.30	-47.4	-49.5	16.9	0.00e+00	0	44	0	340787200	66	4548
2026-01-24 20:47:55.15	57.80	8.31	-47.3	-49.3	17.1	0.00e+00	0	44	0	346030080	66	4461
2026-01-24 20:47:58.06	58.29	8.32	-46.9	-48.9	17.5	0.00e+00	0	44	0	352321536	65	4496
2026-01-24 20:48:00.97	58.78	8.32	-46.9	-48.8	17.6	0.00e+00	0	44	0	357564416	65	4442
2026-01-24 20:48:03.89	59.27	8.32	-47.1	-49.0	17.3	0.00e+00	0	44	0	362807296	65	4586
2026-01-24 20:48:06.80	59.76	8.32	-47.0	-49.0	17.4	0.00e+00	0	44	0	368050176	65	4558
2026-01-24 20:48:09.72	60.26	8.32	-46.6	-48.4	17.9	0.00e+00	0	44	0	374341632	65	4287
2026-01-24 20:48:12.63	60.75	8.32	-46.4	-48.1	18.1	0.00e+00	0	44	0	379584512	64	4372
2026-01-24 20:48:15.55	61.24	8.31	-46.3	-48.0	18.3	0.00e+00	0	44	0	384827392	64	4292
2026-01-24 20:48:18.47	61.73	8.30	-46.5	-48.2	18.2	0.00e+00	0	44	0	390070272	64	4434
2026-01-24 20:48:21.38	62.22	8.29	-46.7	-48.5	17.8	0.00e+00	0	44	0	395313152	64	4576
2026-01-24 20:48:24.29	62.71	8.28	-46.6	-48.4	18.0	0.00e+00	0	44	0	401604608	64	4505
2026-01-24 20:48:27.20	63.20	8.27	-46.5	-48.3	18.0	0.00e+00	0	44	0	406847488	64	4454
2026-01-24 20:48:30.11	63.69	8.25	-46.3	-48.0	18.3	0.00e+00	0	44	0	412090368	64	4297
2026-01-24 20:48:33.03	64.18	8.24	-46.4	-48.1	18.4	0.00e+00	0	44	0	417333248	64	4351
2026-01-24 20:48:35.94	64.67	8.22	-46.4	-48.2	18.3	0.00e+00	0	44	0	422576128	64	4392
2026-01-24 20:48:38.85	65.16	8.20	-46.4	-48.1	18.2	0.00e+00	0	44	0	428867584	64	4391
2026-01-24 20:48:41.76	65.65	8.18	-46.6	-48.3	18.1	0.00e+00	0	44	0	434110464	64	4482
2026-01-24 20:48:44.67	66.13	8.16	-46.3	-48.0	18.4	0.00e+00	0	44	0	439353344	64	4328
2026-01-24 20:48:47.58	66.62	8.13	-46.5	-48.2	18.1	0.00e+00	0	44	0	444596224	64	4419
2026-01-24 20:48:50.50	67.11	8.10	-46.7	-48.5	17.8	0.00e+00	0	44	0	450887680	64	4570
2026-01-24 20:48:53.41	67.59	8.07	-46.9	-48.8	17.5	0.00e+00	0	44	0	456130560	64	4754
2026-01-24 20:48:56.32	68.07	8.04	-46.5	-48.3	18.1	0.00e+00	0	44	0	461373440	64	4455
2026-01-24 20:48:59.24	68.56	8.01	-46.5	-48.3	18.1	0.00e+00	0	44	0	466616320	64	4477
2026-01-24 20:49:02.15	69.04	7.98	-46.6	-48.4	18.0	0.00e+00	0	44	0	471859200	64	4501
2026-01-24 20:49:05.06	69.52	7.94	-46.4	-48.2	18.1	0.00e+00	0	44	0	477102080	64	4407
2026-01-24 20:49:07.98	70.00	7.91	-46.3	-48.0	18.3	0.00e+00	0	44	0	483393536	64	4328
2026-01-24 20:49:10.89	70.48	7.87	-46.5	-48.2	18.2	0.00e+00	0	44	0	488636416	64	4404
2026-01-24 20:49:13.80	70.95	7.83	-46.8	-48.7	17.6	0.00e+00	0	44	0	493879296	64	4682
2026-01-24 20:49:16.71	71.43	7.79	-46.9	-48.8	17.5	0.00e+00	0	44	0	499122176	64	4742
2026-01-24 20:49:19.63	71.90	7.74	-46.9	-48.8	17.6	0.00e+00	0	44	0	505413632	64	4756
2026-01-24 20:49:22.53	72.37	7.70	-46.8	-48.6	17.8	0.00e+00	0	44	0	510656512	64	4630
2026-01-24 20:49:25.45	72.85	7.65	-46.7	-48.6	17.7	0.00e+00	0	44	0	515899392	64	4622
2026-01-24 20:49:28.36	73.32	7.60	-46.6	-48.4	17.9	0.00e+00	0	44	0	521142272	64	4516
2026-01-24 20:49:31.27	73.78	7.55	-46.2	-47.8	18.4	0.00e+00	0	44	0	526385152	64	4235
2026-01-24 20:49:34.18	74.25	7.50	-46.1	-47.7	18.5	0.00e+00	0	44	0	532676608	64	4190
2026-01-24 20:49:37.09	74.72	7.45	-46.0	-47.6	18.8	0.00e+00	0	44	0	537919488	63	4367
2026-01-24 20:49:40.01	75.18	7.39	-46.1	-47.7	18.6	0.00e+00	0	44	0	543162368	63	4431
2026-01-24 20:49:42.93	75.64	7.34	-46.2	-47.9	18.5	0.00e+00	0	44	0	548405248	63	4506
2026-01-24 20:49:45.84	76.10	7.28	-46.5	-48.3	18.0	0.00e+00	0	44	0	553648128	63	4744
2026-01-24 20:49:48.75	76.56	7.22	-46.4	-48.2	18.2	0.00e+00	0	44	0	559939584	63	4652
2026-01-24 20:49:51.66	77.02	7.16	-46.2	-47.9	18.4	0.00e+00	0	44	0	565182464	63	4521
2026-01-24 20:49:54.58	77.47	7.10	-46.5	-48.2	18.2	0.00e+00	0	44	0	570425344	63	4702
2026-01-24 20:49:57.49	77.93	7.04	-46.1	-47.8	18.5	0.00e+00	0	44	0	575668224	63	4452
2026-01-24 20:50:00.40	78.38	6.97	-46.2	-47.9	18.4	0.00e+00	0	44	0	581959680	63	4531
2026-01-24 20:50:03.32	78.83	6.91	-46.4	-48.1	18.2	0.00e+00	0	44	0	587202560	63	4617
2026-01-24 20:50:06.24	79.28	6.84	-46.8	-48.8	17.5	0.00e+00	0	44	0	592445440	64	4718
2026-01-24 20:50:09.15	79.72	6.77	-46.8	-48.8	17.4	0.00e+00	0	44	0	597688320	64	4708
2026-01-24 20:50:12.07	80.17	6.70	-46.8	-48.8	17.4	0.00e+00	0	44	0	602931200	64	4726
2026-01-24 20:50:14.97	80.61	6.63	-46.6	-48.5	17.7	0.00e+00	0	44	0	609222656	64	4548
2026-01-24 20:50:17.88	81.04	6.56	-46.5	-48.3	17.8	0.00e+00	0	44	0	614465536	64	4474
2026-01-24 20:50:20.80	81.48	6.49	-46.8	-48.7	17.4	0.00e+00	0	44	0	619708416	64	4701
2026-01-24 20:50:23.71	81.92	6.42	-46.8	-48.7	17.4	0.00e+00	0	44	0	624951296	64	4677
2026-01-24 20:50:26.62	82.35	6.34	-47.1	-49.2	17.0	0.00e+00	0	44	0	630194176	64	4945
2026-01-24 20:50:29.53	82.78	6.26	-47.5	-49.7	16.4	0.00e+00	0	44	0	636485632	65	4955
2026-01-24 20:50:32.45	83.21	6.19	-48.2	-50.8	15.2	0.00e+00	0	44	0	641728512	66	5330
2026-01-24 20:50:35.36	83.64	6.11	-48.3	-51.0	15.1	0.00e+00	0	44	0	646971392	67	5124
2026-01-24 20:50:38.27	84.06	6.03	-48.1	-50.7	15.4	0.00e+00	0	44	0	652214272	67	4954
2026-01-24 20:50:41.18	84.48	5.95	-48.0	-50.5	15.6	0.00e+00	0	44	0	657457152	67	4843
2026-01-24 20:50:44.10	84.90	5.87	-47.7	-50.1	15.9	0.00e+00	0	44	0	663748608	67	4645
2026-01-24 20:50:47.02	85.32	5.78	-47.5	-49.9	16.2	0.00e+00	0	44	0	668991488	67	4497
2026-01-24 20:50:49.94	85.74	5.70	-47.7	-50.1	15.9	0.00e+00	0	44	0	674234368	66	4903
2026-01-24 20:50:52.86	86.15	5.61	-48.0	-50.6	15.4	0.00e+00	0	44	0	679477248	66	5175
2026-01-24 20:50:55.77	86.56	5.53	-48.7	-51.8	14.2	0.00e+00	0	44	0	685768704	67	5617
2026-01-24 20:50:58.69	86.97	5.44	-49.2	-52.7	13.3	1.14e-05	0	44	0	691011584	69	5588
2026-01-24 20:51:01.60	87.38	5.35	-49.3	-52.8	13.1	2.13e-05	0	44	0	696254464	69	5636
2026-01-24 20:51:04.52	87.78	5.27	-49.3	-52.9	13.1	2.59e-05	0	44	0	701497344	69	5699
2026-01-24 20:51:07.43	88.18	5.18	-49.1	-52.4	13.6	1.52e-05	0	44	0	706740224	69	5362
2026-01-24 20:51:10.34	88.58	5.09	-49.0	-52.2	13.7	1.60e-05	0	44	0	713031680	69	5278
2026-01-24 20:51:13.25	88.98	5.00	-48.8	-52.0	13.9	7.00e-07	0	44	0	718274560	69	5113
2026-01-24 20:51:16.17	89.37	4.90	-52.9	-67.9	3.8	1.49e+00	0	44	104	719323136	76	21274
2026-01-24 20:51:19.08	89.77	4.81	-53.4	-68.4	3.8	1.49e+00	0	44	104	719323136	77	21306
2026-01-24 20:51:21.99	90.15	4.72	-53.7	-68.7	3.8	1.49e+00	0	44	104	719323136	77	22054
2026-01-24 20:51:24.89	90.54	4.62	-54.0	-68.9	3.8	1.49e+00	0	44	104	719323136	78	21427
2026-01-24 20:51:27.81	90.93	4.53	-54.0	-69.0	3.8	1.49e+00	0	44	104	719323136	78	21583
2026-01-24 20:51:30.72	91.31	4.43	-54.0	-69.0	3.8	1.49e+00	0	44	104	719323136	78	21642
2026-01-24 20:51:33.63	91.69	4.34	-54.1	-69.0	3.8	1.49e+00	0	44	104	719323136	78	21648
2026-01-24 20:51:36.53	92.06	4.24	-54.1	-69.0	3.8	1.49e+00	0	44	104	719323136	78	21715
2026-01-24 20:51:39.44	92.44	4.14	-54.0	-68.9	3.8	1.49e+00	0	44	104	719323136	78	21453
2026-01-24 20:51:42.36	92.81	4.05	-53.9	-68.9	3.8	1.49e+00	0	44	104	719323136	78	21385
2026-01-24 20:51:45.27	93.18	3.95	-53.9	-68.8	3.8	1.49e+00	0	44	104	719323136	78	21250
2026-01-24 20:51:48.18	93.55	3.85	-53.9	-68.8	3.8	1.49e+00	0	44	104	719323136	78	21220
2026-01-24 20:51:51.09	93.92	3.75	-53.8	-68.8	3.8	1.49e+00	0	44	104	719323136	78	21162
2026-01-24 20:51:54.01	94.28	3.65	-53.8	-68.8	3.8	1.49e+00	0	44	104	719323136	78	21060
2026-01-24 20:51:56.93	94.64	3.55	-53.8	-68.7	3.8	1.49e+00	0	44	104	719323136	78	20998
2026-01-24 20:51:59.85	95.00	3.44	-53.8	-68.7	3.8	1.49e+00	0	44	104	719323136	78	20996
2026-01-24 20:52:02.76	95.36	3.34	-53.8	-68.7	3.8	1.49e+00	0	44	104	719323136	78	20970
2026-01-24 20:52:05.68	95.71	3.24	-53.8	-68.7	3.8	1.49e+00	0	44	104	719323136	78	20989
2026-01-24 20:52:08.59	96.06	3.14	-53.8	-68.7	3.8	1.49e+00	0	44	104	719323136	78	20985
2026-01-24 20:52:11.50	96.41	3.03	-53.8	-68.7	3.8	1.49e+00	0	44	104	719323136	78	20954
2026-01-24 20:52:14.41	96.76	2.93	-53.7	-68.7	3.8	1.49e+00	0	44	104	719323136	78	20923
2026-01-24 20:52:17.32	97.10	2.82	-53.7	-68.7	3.8	1.49e+00	0	44	104	719323136	78	20892
2026-01-24 20:52:20.24	97.45	2.72	-53.7	-68.7	3.8	1.49e+00	0	44	104	719323136	78	20932
2026-01-24 20:52:23.16	97.79	2.61	-53.7	-68.7	3.8	1.49e+00	0	44	104	719323136	78	20940
2026-01-24 20:52:26.08	98.13	2.51	-53.7	-68.7	3.8	1.49e+00	0	44	104	719323136	78	20906
2026-01-24 20:52:28.99	98.46	2.40	-53.7	-68.7	3.8	1.49e+00	0	44	104	719323136	78	20919
2026-01-24 20:52:31.91	98.79	2.29	-53.7	-68.7	3.8	1.49e+00	0	44	104	719323136	78	20867
2026-01-24 20:52:34.83	99.13	2.19	-53.7	-68.7	3.8	1.49e+00	0	44	104	719323136	78	20872
2026-01-24 20:52:37.75	99.45	2.08	-53.7	-68.7	3.8	1.49e+00	0	44	104	719323136	78	20836
2026-01-24 20:52:40.67	99.78	1.97	-53.7	-68.7	3.8	1.49e+00	0	44	104	719323136	78	20861

#Closed at: 2026-01-24 20:52:41
#Recorded file [719 MB]: D:/lorett/data/31041_260124_234330.dat