passes_logs/2026/01/24/R3.2S_Murmansk/R3.2S_Murmansk__20260124_084030_NOAA_20_JPSS-1_rec.log

#Pass ID: 20260124_084030_NOAA 20 (JPSS-1)
#Satellite: NOAA 20 (JPSS-1)
#Configuration: NOAA 20
#almurnet v.1.7.20251203
#Start time: 2026-01-24 08:40:30

#Version: 2.2.20231116
#Station: R3.2S_Murmansk
#Location: 33.079688 lon 68.888172 lat
#TLE: 1 43013U 17073A   26023.57676825  .00000205  00000+0  11821-3 0  9990
#TLE: 2 43013  98.7645 324.4259 0001147  27.0566 333.0670 14.19539368423954

#Time	Az	El	Level	Level2	SNR	BER	BlckErr	Temp	State	Recorded	gain1	gain2
2026-01-24 08:40:30.84	131.60	2.03	-51.7	-66.7	3.8	1.49e+00	0	41	0	0	75	19704
2026-01-24 08:40:34.88	131.52	2.28	-51.7	-66.7	3.8	1.49e+00	0	41	104	0	73	22077
2026-01-24 08:40:38.91	131.44	2.54	-51.7	-66.7	3.8	1.49e+00	0	41	104	0	73	22022
2026-01-24 08:40:42.95	131.36	2.81	-51.7	-66.6	3.8	1.49e+00	0	41	104	0	73	21974
2026-01-24 08:40:46.98	131.28	3.07	-51.7	-66.6	3.8	1.49e+00	0	42	104	0	73	21872
2026-01-24 08:40:51.02	131.20	3.34	-51.6	-65.8	3.8	1.49e+00	0	42	104	0	73	19875
2026-01-24 08:40:55.05	131.12	3.61	-51.6	-64.5	3.8	1.49e+00	0	42	104	0	73	17246
2026-01-24 08:40:59.09	131.03	3.88	-51.5	-62.8	4.3	1.41e+00	0	42	0	0	73	14068
2026-01-24 08:41:03.12	130.94	4.16	-50.3	-56.1	9.3	2.34e-02	0	42	0	6291456	72	6897
2026-01-24 08:41:07.15	130.85	4.44	-47.6	-50.2	15.4	2.20e-06	0	42	0	14680064	67	4674
2026-01-24 08:41:11.18	130.76	4.72	-46.1	-48.0	17.6	0.00e+00	0	42	0	22020096	64	4318
2026-01-24 08:41:15.21	130.66	5.00	-46.7	-48.7	16.9	0.00e+00	0	42	0	29360128	63	4983
2026-01-24 08:41:19.24	130.57	5.29	-48.8	-52.3	13.0	4.27e-04	0	42	0	36700160	69	5308
2026-01-24 08:41:23.28	130.47	5.58	-46.0	-47.8	17.9	0.00e+00	0	42	0	45088768	64	4230
2026-01-24 08:41:27.31	130.37	5.87	-46.2	-48.0	17.8	0.00e+00	0	42	0	52428800	63	4576
2026-01-24 08:41:31.34	130.27	6.17	-46.3	-48.1	17.8	0.00e+00	0	43	0	59768832	63	4616
2026-01-24 08:41:35.38	130.16	6.47	-46.3	-48.2	17.8	0.00e+00	0	42	0	67108864	63	4657
2026-01-24 08:41:39.41	130.05	6.77	-46.2	-47.9	18.2	0.00e+00	0	42	0	74448896	63	4516
2026-01-24 08:41:43.44	129.94	7.08	-45.7	-47.3	18.9	0.00e+00	0	42	0	82837504	63	4206
2026-01-24 08:41:47.47	129.83	7.38	-46.0	-47.7	18.6	0.00e+00	0	43	0	90177536	63	4398
2026-01-24 08:41:51.50	129.71	7.70	-45.7	-47.3	19.0	0.00e+00	0	43	0	97517568	63	4213
2026-01-24 08:41:55.53	129.60	8.02	-45.7	-47.3	19.1	0.00e+00	0	43	0	104857600	63	4201
2026-01-24 08:41:59.57	129.47	8.34	-45.6	-47.1	19.2	0.00e+00	0	43	0	112197632	63	4123
2026-01-24 08:42:03.60	129.35	8.66	-45.5	-47.0	19.3	0.00e+00	0	43	0	120586240	62	4334
2026-01-24 08:42:07.63	129.22	8.99	-45.5	-47.0	19.4	0.00e+00	0	43	0	127926272	62	4296
2026-01-24 08:42:11.67	129.09	9.33	-45.3	-46.7	19.7	0.00e+00	0	43	0	135266304	62	4175
2026-01-24 08:42:15.70	128.96	9.66	-45.2	-46.6	19.8	0.00e+00	0	43	0	142606336	62	4133
2026-01-24 08:42:19.73	128.82	10.01	-45.2	-46.5	19.9	0.00e+00	0	43	0	149946368	62	4086
2026-01-24 08:42:23.76	128.68	10.35	-45.2	-46.5	20.0	0.00e+00	0	43	0	158334976	62	4091
2026-01-24 08:42:27.80	128.53	10.71	-45.0	-46.4	20.1	0.00e+00	0	43	0	165675008	61	4245
2026-01-24 08:42:31.83	128.38	11.06	-45.0	-46.3	20.1	0.00e+00	0	43	0	173015040	61	4241
2026-01-24 08:42:35.87	128.23	11.43	-45.1	-46.4	20.1	0.00e+00	0	43	0	180355072	61	4268
2026-01-24 08:42:39.90	128.07	11.79	-45.0	-46.3	20.2	0.00e+00	0	43	0	188743680	61	4232
2026-01-24 08:42:43.93	127.91	12.16	-44.9	-46.2	20.4	0.00e+00	0	43	0	196083712	61	4158
2026-01-24 08:42:47.97	127.75	12.54	-44.9	-46.2	20.4	0.00e+00	0	43	0	203423744	61	4193
2026-01-24 08:42:52.00	127.58	12.93	-44.8	-46.1	20.5	0.00e+00	0	43	0	210763776	61	4132
2026-01-24 08:42:56.03	127.40	13.32	-44.9	-46.2	20.5	0.00e+00	0	43	0	218103808	61	4175
2026-01-24 08:43:00.06	127.22	13.71	-44.7	-45.9	20.8	0.00e+00	0	43	0	226492416	61	4051
2026-01-24 08:43:04.10	127.03	14.11	-44.7	-46.0	20.8	0.00e+00	0	43	0	233832448	61	4070
2026-01-24 08:43:08.13	126.84	14.52	-44.6	-45.8	20.9	0.00e+00	0	43	0	241172480	61	3986
2026-01-24 08:43:12.16	126.65	14.94	-44.7	-45.9	20.9	0.00e+00	0	43	0	248512512	61	4021
2026-01-24 08:43:16.19	126.44	15.36	-44.7	-46.0	20.9	0.00e+00	0	43	0	255852544	61	4052
2026-01-24 08:43:20.22	126.23	15.79	-44.9	-46.1	20.8	0.00e+00	0	43	0	264241152	61	4121
2026-01-24 08:43:24.25	126.02	16.22	-44.6	-45.8	21.0	0.00e+00	0	43	0	271581184	60	4240
2026-01-24 08:43:28.28	125.80	16.66	-44.7	-45.9	21.0	0.00e+00	0	43	0	278921216	60	4258
2026-01-24 08:43:32.32	125.57	17.12	-44.7	-45.9	21.0	0.00e+00	0	43	0	286261248	60	4280
2026-01-24 08:43:36.35	125.33	17.58	-44.6	-45.8	21.1	0.00e+00	0	43	0	294649856	60	4237
2026-01-24 08:43:40.39	125.09	18.04	-44.7	-45.9	21.0	0.00e+00	0	43	0	301989888	60	4275
2026-01-24 08:43:44.42	124.83	18.52	-44.6	-45.8	21.2	0.00e+00	0	43	0	309329920	60	4195
2026-01-24 08:43:48.45	124.57	19.00	-44.4	-45.6	21.4	0.00e+00	0	43	0	316669952	60	4104
2026-01-24 08:43:52.48	124.30	19.49	-44.4	-45.6	21.4	0.00e+00	0	43	0	324009984	60	4099
2026-01-24 08:43:56.51	124.02	20.00	-44.5	-45.6	21.4	0.00e+00	0	43	0	332398592	60	4139
2026-01-24 08:44:00.55	123.73	20.51	-44.6	-45.7	21.3	0.00e+00	0	43	0	339738624	60	4182
2026-01-24 08:44:04.58	123.43	21.03	-44.5	-45.7	21.4	0.00e+00	0	43	0	347078656	60	4151
2026-01-24 08:44:08.61	123.12	21.56	-44.4	-45.5	21.5	0.00e+00	0	43	0	354418688	60	4082
2026-01-24 08:44:12.64	122.80	22.10	-44.5	-45.7	21.4	0.00e+00	0	43	0	361758720	60	4164
2026-01-24 08:44:16.67	122.47	22.66	-44.7	-45.8	21.3	0.00e+00	0	43	0	370147328	60	4234
2026-01-24 08:44:20.70	122.12	23.22	-44.8	-46.0	21.1	0.00e+00	0	43	0	377487360	60	4312
2026-01-24 08:44:24.73	121.76	23.80	-45.0	-46.3	20.9	0.00e+00	0	43	0	384827392	60	4452
2026-01-24 08:44:28.77	121.39	24.38	-45.5	-46.8	20.4	0.00e+00	0	43	0	392167424	61	4490
2026-01-24 08:44:32.80	121.00	24.98	-45.8	-47.1	20.2	0.00e+00	0	43	0	399507456	62	4379
2026-01-24 08:44:36.83	120.59	25.59	-46.2	-47.6	19.7	0.00e+00	0	43	0	407896064	62	4628
2026-01-24 08:44:40.86	120.17	26.22	-46.6	-48.1	19.2	0.00e+00	0	43	0	415236096	63	4614
2026-01-24 08:44:44.89	119.74	26.85	-46.8	-48.5	18.8	0.00e+00	0	43	0	422576128	64	4552
2026-01-24 08:44:48.93	119.28	27.50	-47.1	-48.8	18.5	0.00e+00	0	43	0	429916160	64	4746
2026-01-24 08:44:52.96	118.80	28.17	-47.4	-49.1	18.2	0.00e+00	0	43	0	438304768	65	4636
2026-01-24 08:44:56.99	118.31	28.84	-47.5	-49.3	18.0	0.00e+00	0	43	0	445644800	65	4757
2026-01-24 08:45:01.02	117.79	29.53	-47.5	-49.3	18.1	0.00e+00	0	43	0	452984832	65	4734
2026-01-24 08:45:05.05	117.24	30.24	-47.3	-49.0	18.3	0.00e+00	0	43	0	460324864	65	4578
2026-01-24 08:45:09.09	116.67	30.96	-47.2	-48.9	18.4	0.00e+00	0	43	0	467664896	65	4537
2026-01-24 08:45:13.12	116.08	31.69	-47.0	-48.7	18.6	0.00e+00	0	43	0	475004928	65	4406
2026-01-24 08:45:17.15	115.46	32.44	-47.2	-48.9	18.5	0.00e+00	0	43	0	483393536	65	4499
2026-01-24 08:45:21.18	114.80	33.21	-46.9	-48.5	18.9	0.00e+00	0	43	0	490733568	65	4292
2026-01-24 08:45:25.21	114.12	33.99	-47.1	-48.8	18.6	0.00e+00	0	43	0	498073600	65	4451
2026-01-24 08:45:29.24	113.40	34.78	-47.9	-49.8	17.6	0.00e+00	0	43	0	505413632	66	4726
2026-01-24 08:45:33.27	112.64	35.59	-48.1	-50.1	17.3	0.00e+00	0	43	0	513802240	67	4632
2026-01-24 08:45:37.31	111.85	36.42	-48.1	-50.1	17.4	0.00e+00	0	43	0	521142272	67	4625
2026-01-24 08:45:41.34	111.01	37.25	-48.6	-50.7	16.7	0.00e+00	0	43	0	528482304	67	4982
2026-01-24 08:45:45.37	110.12	38.11	-47.9	-49.8	17.6	0.00e+00	0	43	0	535822336	67	4467
2026-01-24 08:45:49.40	109.19	38.97	-48.3	-50.3	17.1	0.00e+00	0	43	0	543162368	67	4733
2026-01-24 08:45:53.43	108.21	39.85	-48.5	-50.6	16.8	0.00e+00	0	43	0	551550976	67	4909
2026-01-24 08:45:57.46	107.17	40.74	-48.9	-51.2	16.4	0.00e+00	0	43	0	558891008	68	4960
2026-01-24 08:46:01.49	106.07	41.64	-48.1	-50.0	17.5	0.00e+00	0	43	0	566231040	68	4339
2026-01-24 08:46:05.52	104.91	42.56	-47.1	-48.7	18.8	0.00e+00	0	43	0	573571072	66	4160
2026-01-24 08:46:09.55	103.68	43.48	-46.8	-48.3	19.2	0.00e+00	0	43	0	581959680	65	4224
2026-01-24 08:46:13.59	102.37	44.40	-46.6	-48.1	19.4	0.00e+00	0	43	0	589299712	65	4111
2026-01-24 08:46:17.62	100.98	45.33	-47.4	-49.0	18.5	0.00e+00	0	43	0	596639744	65	4592
2026-01-24 08:46:21.65	99.51	46.27	-47.5	-49.2	18.3	0.00e+00	0	43	0	603979776	66	4431
2026-01-24 08:46:25.68	97.95	47.20	-47.6	-49.4	18.1	0.00e+00	0	43	0	611319808	66	4538
2026-01-24 08:46:29.72	96.29	48.13	-48.4	-50.5	17.2	0.00e+00	0	43	0	618659840	67	4819
2026-01-24 08:46:33.75	94.53	49.04	-48.2	-50.2	17.4	0.00e+00	0	43	0	627048448	67	4671
2026-01-24 08:46:37.78	92.67	49.95	-46.9	-48.4	19.2	0.00e+00	0	43	0	634388480	65	4265
2026-01-24 08:46:41.81	90.69	50.84	-45.9	-47.2	20.4	0.00e+00	0	43	0	641728512	63	4151
2026-01-24 08:46:45.85	88.58	51.71	-45.1	-46.3	21.2	0.00e+00	0	43	0	649068544	62	3984
2026-01-24 08:46:49.88	86.36	52.55	-44.1	-45.2	22.3	0.00e+00	0	43	0	657457152	60	3929
2026-01-24 08:46:53.91	84.00	53.35	-44.6	-45.7	22.2	0.00e+00	0	43	0	664797184	59	4421
2026-01-24 08:46:57.94	81.52	54.12	-44.6	-45.7	22.2	0.00e+00	0	43	0	672137216	59	4405
2026-01-24 08:47:01.97	78.90	54.84	-45.0	-46.2	21.3	0.00e+00	0	43	0	679477248	60	4404
2026-01-24 08:47:06.00	76.16	55.50	-46.0	-47.2	20.6	0.00e+00	0	43	0	686817280	62	4434
2026-01-24 08:47:10.03	73.28	56.10	-46.2	-47.5	20.3	0.00e+00	0	43	0	695205888	62	4572
2026-01-24 08:47:14.06	70.29	56.64	-46.5	-48.0	19.8	0.00e+00	0	43	0	702545920	63	4557
2026-01-24 08:47:18.10	67.18	57.10	-45.7	-47.0	20.7	0.00e+00	0	43	0	709885952	63	4066
2026-01-24 08:47:22.13	63.97	57.49	-45.7	-46.9	20.8	0.00e+00	0	43	0	717225984	62	4276
2026-01-24 08:47:26.16	60.69	57.78	-45.3	-46.5	21.2	0.00e+00	0	43	0	724566016	62	4078
2026-01-24 08:47:30.19	57.34	57.99	-45.3	-46.5	21.1	0.00e+00	0	43	0	732954624	62	4088
2026-01-24 08:47:34.22	53.96	58.10	-44.4	-45.5	22.1	0.00e+00	0	43	0	740294656	60	4071
2026-01-24 08:47:38.25	50.55	58.12	-44.8	-45.9	21.7	0.00e+00	0	43	0	747634688	60	4283
2026-01-24 08:47:42.29	47.15	58.05	-44.2	-45.2	22.3	0.00e+00	0	43	0	754974720	60	3950
2026-01-24 08:47:46.32	43.79	57.88	-44.0	-45.0	22.8	0.00e+00	0	43	0	762314752	59	4083
2026-01-24 08:47:50.35	40.48	57.62	-43.8	-44.8	23.0	0.00e+00	0	43	0	770703360	59	3994
2026-01-24 08:47:54.39	37.23	57.27	-43.6	-44.5	23.3	0.00e+00	0	43	0	778043392	59	3859
2026-01-24 08:47:58.42	34.09	56.84	-44.6	-45.7	22.2	0.00e+00	0	43	0	785383424	59	4399
2026-01-24 08:48:02.45	31.05	56.33	-44.5	-45.6	22.0	0.00e+00	0	43	0	792723456	60	4131
2026-01-24 08:48:06.49	28.13	55.75	-44.5	-45.6	22.0	0.00e+00	0	43	0	801112064	60	4116
2026-01-24 08:48:10.52	25.33	55.11	-44.3	-45.3	22.5	0.00e+00	0	43	0	808452096	59	4214
2026-01-24 08:48:14.55	22.67	54.41	-43.9	-44.9	22.9	0.00e+00	0	43	0	815792128	59	4016
2026-01-24 08:48:18.58	20.13	53.66	-44.0	-45.0	22.8	0.00e+00	0	43	0	823132160	59	4060
2026-01-24 08:48:22.61	17.73	52.88	-44.7	-45.9	21.8	0.00e+00	0	43	0	830472192	60	4247
2026-01-24 08:48:26.65	15.45	52.05	-45.0	-46.1	21.5	0.00e+00	0	43	0	838860800	60	4386
2026-01-24 08:48:30.68	13.31	51.19	-46.6	-48.0	19.6	0.00e+00	0	43	0	846200832	64	4317
2026-01-24 08:48:34.71	11.28	50.32	-47.7	-49.4	18.2	0.00e+00	0	43	0	853540864	65	4804
2026-01-24 08:48:38.74	9.38	49.42	-47.7	-49.5	18.2	0.00e+00	0	43	0	860880896	67	4318
2026-01-24 08:48:42.77	7.58	48.51	-48.0	-49.8	17.8	0.00e+00	0	43	0	868220928	66	4744
2026-01-24 08:48:46.81	5.88	47.58	-47.6	-49.4	18.3	0.00e+00	0	43	0	876609536	66	4511
2026-01-24 08:48:50.84	4.29	46.66	-48.3	-50.2	17.4	0.00e+00	0	43	0	883949568	67	4686
2026-01-24 08:48:54.87	2.79	45.73	-47.2	-48.8	18.8	0.00e+00	0	43	0	891289600	66	4217
2026-01-24 08:48:58.91	1.37	44.80	-47.2	-48.8	18.8	0.00e+00	0	43	0	898629632	66	4239
2026-01-24 08:49:02.94	0.03	43.87	-46.8	-48.4	19.2	0.00e+00	0	43	0	905969664	65	4250
2026-01-24 08:49:06.97	358.78	42.95	-47.0	-48.6	18.9	0.00e+00	0	43	0	914358272	65	4364
2026-01-24 08:49:11.00	357.59	42.04	-47.1	-48.7	18.9	0.00e+00	0	43	0	921698304	65	4399
2026-01-24 08:49:15.03	356.47	41.14	-47.4	-49.1	18.5	0.00e+00	0	43	0	929038336	65	4637
2026-01-24 08:49:19.06	355.41	40.24	-47.8	-49.6	17.9	0.00e+00	0	43	0	936378368	66	4635
2026-01-24 08:49:23.09	354.40	39.36	-48.8	-51.0	16.7	0.00e+00	0	43	0	944766976	68	4820
2026-01-24 08:49:27.12	353.45	38.49	-48.2	-50.2	17.4	0.00e+00	0	43	0	952107008	68	4407
2026-01-24 08:49:31.15	352.55	37.64	-47.8	-49.6	17.9	0.00e+00	0	43	0	959447040	67	4347
2026-01-24 08:49:35.19	351.70	36.79	-48.0	-49.9	17.6	0.00e+00	0	43	0	966787072	66	4765
2026-01-24 08:49:39.22	350.89	35.97	-47.9	-49.8	17.7	0.00e+00	0	43	0	974127104	66	4745
2026-01-24 08:49:43.25	350.12	35.15	-47.8	-49.6	17.9	0.00e+00	0	43	0	982515712	66	4635
2026-01-24 08:49:47.28	349.38	34.36	-47.6	-49.4	18.1	0.00e+00	0	43	0	989855744	66	4495
2026-01-24 08:49:51.31	348.69	33.57	-48.2	-50.2	17.3	0.00e+00	0	43	0	997195776	66	4939
2026-01-24 08:49:55.35	348.02	32.80	-48.3	-50.4	17.0	0.00e+00	0	43	0	1004535808	67	4771
2026-01-24 08:49:59.39	347.39	32.05	-47.6	-49.4	18.0	0.00e+00	0	43	0	1011875840	67	4262
2026-01-24 08:50:03.40	346.79	31.32	-47.5	-49.2	18.2	0.00e+00	0	43	0	1020264448	66	4416
2026-01-24 08:50:07.43	346.21	30.59	-47.8	-49.7	17.8	0.00e+00	0	43	0	1027604480	66	4656
2026-01-24 08:50:11.47	345.66	29.88	-48.1	-50.1	17.3	0.00e+00	0	43	0	1034944512	66	4916
2026-01-24 08:50:15.50	345.13	29.19	-47.8	-49.7	17.7	0.00e+00	0	43	0	1042284544	66	4663
2026-01-24 08:50:19.54	344.63	28.51	-46.9	-48.5	18.8	0.00e+00	0	43	0	1049624576	65	4318
2026-01-24 08:50:23.57	344.14	27.84	-47.0	-48.6	18.6	0.00e+00	0	43	0	1058013184	65	4380
2026-01-24 08:50:27.60	343.68	27.19	-46.6	-48.1	19.1	0.00e+00	0	43	0	1065353216	65	4129
2026-01-24 08:50:31.64	343.24	26.54	-46.5	-48.0	19.2	0.00e+00	0	43	0	1072693248	65	4093
2026-01-24 08:50:35.67	342.81	25.92	-46.5	-48.0	19.2	0.00e+00	0	43	0	1080033280	64	4302
2026-01-24 08:50:39.70	342.40	25.30	-46.3	-47.8	19.4	0.00e+00	0	43	0	1087373312	64	4210
2026-01-24 08:50:43.73	342.01	24.70	-46.2	-47.7	19.5	0.00e+00	0	43	0	1095761920	64	4166
2026-01-24 08:50:47.77	341.63	24.11	-46.4	-47.9	19.3	0.00e+00	0	43	0	1103101952	64	4275
2026-01-24 08:50:51.80	341.27	23.53	-46.8	-48.4	18.8	0.00e+00	0	43	0	1110441984	64	4511
2026-01-24 08:50:55.83	340.92	22.97	-46.7	-48.3	18.9	0.00e+00	0	43	0	1117782016	64	4446
2026-01-24 08:50:59.87	340.58	22.41	-46.4	-47.9	19.2	0.00e+00	0	43	0	1126170624	64	4261
2026-01-24 08:51:03.90	340.26	21.87	-46.1	-47.6	19.5	0.00e+00	0	43	0	1133510656	64	4121
2026-01-24 08:51:07.93	339.94	21.33	-46.1	-47.5	19.6	0.00e+00	0	43	0	1140850688	63	4323
2026-01-24 08:51:11.97	339.64	20.81	-46.0	-47.4	19.7	0.00e+00	0	43	0	1148190720	63	4283
2026-01-24 08:51:15.99	339.35	20.29	-45.8	-47.2	19.9	0.00e+00	0	43	0	1155530752	63	4160
2026-01-24 08:51:20.03	339.07	19.79	-45.9	-47.3	19.8	0.00e+00	0	43	0	1163919360	63	4241
2026-01-24 08:51:24.06	338.80	19.29	-45.9	-47.3	19.8	0.00e+00	0	43	0	1171259392	63	4207
2026-01-24 08:51:28.09	338.53	18.81	-45.7	-47.0	20.0	0.00e+00	0	43	0	1178599424	63	4086
2026-01-24 08:51:32.13	338.28	18.33	-45.6	-46.9	20.1	0.00e+00	0	43	0	1185939456	63	4044
2026-01-24 08:51:36.16	338.03	17.86	-45.5	-46.9	20.1	0.00e+00	0	43	0	1194328064	63	4017
2026-01-24 08:51:40.19	337.79	17.40	-45.7	-47.0	20.0	0.00e+00	0	43	0	1201668096	63	4082
2026-01-24 08:51:44.22	337.56	16.95	-45.8	-47.2	19.8	0.00e+00	0	43	0	1209008128	63	4190
2026-01-24 08:51:48.25	337.34	16.50	-46.1	-47.5	19.5	1.50e-06	0	43	0	1216348160	63	4331
2026-01-24 08:51:52.29	337.12	16.06	-46.3	-47.8	19.2	3.00e-06	0	43	0	1223688192	63	4464
2026-01-24 08:51:56.32	336.91	15.63	-46.3	-47.9	19.1	0.00e+00	0	43	0	1231028224	63	4498
2026-01-24 08:52:00.36	336.71	15.21	-46.3	-47.9	19.1	0.00e+00	0	43	0	1239416832	63	4508
2026-01-24 08:52:04.39	336.51	14.79	-46.2	-47.7	19.2	8.30e-06	0	43	0	1246756864	63	4396
2026-01-24 08:52:08.42	336.32	14.38	-46.2	-47.7	19.2	0.00e+00	0	43	0	1254096896	63	4408
2026-01-24 08:52:12.45	336.14	13.98	-46.3	-47.8	19.1	0.00e+00	0	43	0	1261436928	63	4474
2026-01-24 08:52:16.49	335.95	13.58	-46.2	-47.7	19.1	0.00e+00	0	43	0	1269825536	63	4413
2026-01-24 08:52:20.51	335.78	13.19	-46.6	-48.3	18.6	0.00e+00	0	43	0	1277165568	63	4712
2026-01-24 08:52:24.55	335.61	12.80	-46.4	-48.1	18.6	0.00e+00	0	43	0	1284505600	64	4352
2026-01-24 08:52:28.58	335.44	12.43	-46.8	-48.5	18.2	0.00e+00	0	43	0	1291845632	64	4581
2026-01-24 08:52:32.61	335.28	12.05	-47.0	-48.9	17.8	0.00e+00	0	43	0	1299185664	64	4766
2026-01-24 08:52:36.64	335.13	11.68	-47.1	-49.0	17.7	1.50e-06	0	43	0	1307574272	64	4821
2026-01-24 08:52:40.67	334.97	11.32	-47.1	-48.9	17.6	0.00e+00	0	43	0	1314914304	64	4809
2026-01-24 08:52:44.71	334.83	10.96	-47.1	-49.0	17.6	7.60e-06	0	43	0	1322254336	65	4581
2026-01-24 08:52:48.74	334.68	10.61	-47.2	-49.2	17.4	0.00e+00	0	43	0	1329594368	65	4664
2026-01-24 08:52:52.77	334.54	10.26	-47.6	-49.7	16.8	0.00e+00	0	43	0	1336934400	65	4971
2026-01-24 08:52:56.80	334.40	9.92	-47.5	-49.6	16.9	0.00e+00	0	43	0	1345323008	65	4898
2026-01-24 08:53:00.83	334.27	9.58	-47.4	-49.5	17.0	0.00e+00	0	43	0	1352663040	65	4841
2026-01-24 08:53:04.87	334.14	9.24	-47.5	-49.6	16.8	0.00e+00	0	43	0	1360003072	66	4638
2026-01-24 08:53:08.90	334.01	8.91	-47.4	-49.5	16.9	0.00e+00	0	43	0	1367343104	66	4590
2026-01-24 08:53:12.93	333.89	8.59	-47.4	-49.5	16.8	0.00e+00	0	43	0	1374683136	65	4867
2026-01-24 08:53:16.96	333.77	8.26	-47.5	-49.6	16.8	0.00e+00	0	43	0	1383071744	65	4891
2026-01-24 08:53:21.00	333.65	7.94	-47.4	-49.4	16.9	0.00e+00	0	43	0	1390411776	65	4811
2026-01-24 08:53:25.02	333.54	7.63	-47.6	-49.8	16.6	0.00e+00	0	43	0	1397751808	65	4988
2026-01-24 08:53:29.05	333.43	7.32	-47.7	-49.9	16.4	0.00e+00	0	43	0	1405091840	66	4784
2026-01-24 08:53:33.09	333.32	7.01	-47.9	-50.2	16.1	0.00e+00	0	43	0	1413480448	66	4955
2026-01-24 08:53:37.12	333.21	6.71	-47.8	-50.1	16.2	0.00e+00	0	43	0	1420820480	67	4630
2026-01-24 08:53:41.15	333.11	6.41	-48.0	-50.4	15.8	0.00e+00	0	43	0	1428160512	66	5066
2026-01-24 08:53:45.19	333.01	6.11	-47.8	-50.1	16.0	0.00e+00	0	43	0	1435500544	66	4910
2026-01-24 08:53:49.22	332.91	5.82	-48.1	-50.6	15.5	0.00e+00	0	43	0	1442840576	66	5187
2026-01-24 08:53:53.25	332.81	5.53	-48.1	-50.6	15.4	0.00e+00	0	43	0	1451229184	66	5210
2026-01-24 08:53:57.28	332.72	5.24	-48.2	-50.9	15.1	0.00e+00	0	43	0	1458569216	67	5083
2026-01-24 08:54:01.31	332.62	4.95	-52.4	-67.5	3.8	1.07e+00	0	43	104	1464860672	75	21516
2026-01-24 08:54:05.35	332.53	4.67	-53.4	-68.4	3.8	1.49e+00	0	43	104	1464860672	77	21354
2026-01-24 08:54:09.38	332.45	4.39	-53.9	-68.9	3.8	1.49e+00	0	43	104	1464860672	78	21293
2026-01-24 08:54:13.41	332.36	4.12	-54.1	-69.1	3.8	1.49e+00	0	43	104	1464860672	78	21869
2026-01-24 08:54:17.45	332.27	3.84	-54.2	-69.5	3.8	1.49e+00	0	43	104	1464860672	79	21712
2026-01-24 08:54:21.48	332.19	3.57	-54.2	-69.2	3.8	1.49e+00	0	43	104	1464860672	79	20944
2026-01-24 08:54:25.51	332.11	3.31	-54.1	-69.1	3.8	1.49e+00	0	43	104	1464860672	79	20593
2026-01-24 08:54:29.54	332.03	3.04	-54.0	-69.0	3.8	1.49e+00	0	43	104	1464860672	79	20325
2026-01-24 08:54:33.58	331.96	2.78	-54.0	-69.0	3.8	1.49e+00	0	43	104	1464860672	79	20308
2026-01-24 08:54:37.61	331.88	2.52	-53.9	-68.9	3.8	1.49e+00	0	43	104	1464860672	79	20223
2026-01-24 08:54:41.65	331.81	2.26	-53.9	-68.9	3.8	1.49e+00	0	43	104	1464860672	79	20137
2026-01-24 08:54:45.68	331.73	2.00	-53.8	-68.8	3.8	1.49e+00	0	43	104	1464860672	79	20064

#Closed at: 2026-01-24 08:54:48
#Recorded file [1464 MB]: D:/lorett/data/31041_260124_114030.dat