passes_logs/2026/01/24/R3.2S_Murmansk/R3.2S_Murmansk__20260124_231359_NOAA_21_JPSS-2_rec.log

#Pass ID: 20260124_231359_NOAA 21 (JPSS-2)
#Satellite: NOAA 21 (JPSS-2)
#Configuration: NOAA-21
#almurnet v.1.7.20251203
#Start time: 2026-01-24 23:13:59

#Version: 2.2.20231116
#Station: R3.2S_Murmansk
#Location: 33.079688 lon 68.888172 lat
#TLE: 1 54234U 22150A   26024.45772595  .00000201  00000+0  11607-3 0  9996
#TLE: 2 54234  98.7508 325.2435 0000728 220.7365 139.3757 14.19538765166156

#Time	Az	El	Level	Level2	SNR	BER	BlckErr	Temp	State	Recorded	gain1	gain2
2026-01-24 23:13:59.85	20.23	2.02	-53.3	-66.0	3.8	1.49e+00	0	42	0	0	77	16202
2026-01-24 23:14:03.89	20.41	2.26	-53.3	-66.0	3.8	1.49e+00	0	42	104	0	77	16250
2026-01-24 23:14:07.92	20.59	2.51	-53.3	-66.0	3.8	1.49e+00	0	42	104	0	77	16220
2026-01-24 23:14:11.95	20.78	2.75	-53.2	-66.0	3.8	1.49e+00	0	42	104	0	77	16248
2026-01-24 23:14:15.98	20.96	3.00	-53.3	-66.0	3.8	1.49e+00	0	42	104	0	77	16229
2026-01-24 23:14:20.01	21.16	3.26	-53.3	-66.0	3.8	1.49e+00	0	43	104	0	77	16255
2026-01-24 23:14:24.04	21.35	3.51	-53.3	-66.0	3.8	1.49e+00	0	43	104	0	77	16224
2026-01-24 23:14:28.07	21.55	3.77	-53.3	-66.0	3.8	1.49e+00	0	43	104	0	77	16244
2026-01-24 23:14:32.11	21.75	4.03	-53.3	-66.0	3.8	1.49e+00	0	43	104	0	77	16284
2026-01-24 23:14:36.14	21.95	4.29	-53.3	-66.0	3.8	1.49e+00	0	43	104	0	77	16231
2026-01-24 23:14:40.17	22.16	4.55	-53.3	-66.0	3.8	1.49e+00	0	43	104	0	77	16264
2026-01-24 23:14:44.20	22.37	4.81	-53.3	-66.0	3.8	1.49e+00	0	43	104	0	77	16231
2026-01-24 23:14:48.23	22.58	5.08	-53.3	-66.0	3.8	1.49e+00	0	43	104	0	77	16256
2026-01-24 23:14:52.27	22.80	5.35	-53.3	-66.0	3.8	1.49e+00	0	43	104	0	77	16232
2026-01-24 23:14:56.30	23.02	5.62	-53.3	-66.0	3.8	1.49e+00	0	43	104	0	77	16285
2026-01-24 23:15:00.33	23.24	5.90	-53.3	-66.0	3.8	1.49e+00	0	43	104	0	77	16256
2026-01-24 23:15:04.36	23.47	6.18	-53.3	-66.0	3.8	1.49e+00	0	43	104	0	77	16287
2026-01-24 23:15:08.39	23.70	6.46	-53.3	-66.0	3.8	1.49e+00	0	43	104	0	77	16249
2026-01-24 23:15:12.42	23.94	6.74	-53.3	-66.0	3.8	1.49e+00	0	43	104	0	77	16265
2026-01-24 23:15:16.46	24.18	7.03	-53.3	-66.0	3.8	1.49e+00	0	43	104	0	77	16249
2026-01-24 23:15:20.49	24.43	7.31	-53.3	-66.0	3.8	1.49e+00	0	43	104	0	77	16245
2026-01-24 23:15:24.52	24.68	7.61	-53.3	-66.0	3.8	1.49e+00	0	43	104	0	77	16249
2026-01-24 23:15:28.55	24.93	7.90	-53.3	-66.0	3.8	1.49e+00	0	43	104	0	77	16250
2026-01-24 23:15:32.58	25.19	8.20	-53.3	-66.0	3.8	1.49e+00	0	43	104	0	77	16235
2026-01-24 23:15:36.61	25.45	8.50	-53.3	-66.0	3.8	1.49e+00	0	43	104	0	77	16266
2026-01-24 23:15:40.64	25.72	8.80	-53.3	-66.0	3.8	1.49e+00	0	43	104	0	77	16264
2026-01-24 23:15:44.68	26.00	9.11	-53.3	-66.0	3.8	1.49e+00	0	43	104	0	77	16276
2026-01-24 23:15:48.71	26.28	9.42	-53.3	-66.0	3.8	1.49e+00	0	43	104	0	77	16264
2026-01-24 23:15:52.74	26.56	9.73	-53.3	-66.0	3.8	1.49e+00	0	43	104	0	77	16273
2026-01-24 23:15:56.77	26.86	10.05	-53.3	-66.0	3.8	1.49e+00	0	43	104	0	77	16232
2026-01-24 23:16:00.80	27.15	10.37	-53.3	-66.0	3.8	1.49e+00	0	43	104	0	77	16285
2026-01-24 23:16:04.83	27.46	10.69	-53.3	-66.0	3.8	1.49e+00	0	43	104	0	77	16280
2026-01-24 23:16:08.86	27.77	11.02	-53.3	-66.0	3.8	1.49e+00	0	43	104	0	77	16244
2026-01-24 23:16:12.90	28.08	11.35	-53.3	-66.0	3.8	1.49e+00	0	43	104	0	77	16283
2026-01-24 23:16:16.93	28.41	11.69	-53.3	-66.0	3.8	1.49e+00	0	43	104	0	77	16262
2026-01-24 23:16:20.96	28.74	12.03	-53.3	-66.0	3.8	1.49e+00	0	43	104	0	77	16268
2026-01-24 23:16:24.99	29.08	12.37	-53.3	-66.0	3.8	1.49e+00	0	44	104	0	77	16234
2026-01-24 23:16:29.02	29.42	12.72	-53.3	-66.0	3.8	1.49e+00	0	43	104	0	77	16236
2026-01-24 23:16:33.05	29.77	13.07	-53.3	-66.0	3.8	1.49e+00	0	43	104	0	77	16303
2026-01-24 23:16:37.08	30.14	13.42	-53.3	-66.0	3.8	1.49e+00	0	43	104	0	77	16257
2026-01-24 23:16:41.12	30.51	13.78	-53.3	-66.0	3.8	1.49e+00	0	43	104	0	77	16239
2026-01-24 23:16:45.15	30.88	14.15	-53.3	-66.0	3.8	1.49e+00	0	43	104	0	77	16217
2026-01-24 23:16:49.18	31.27	14.52	-53.3	-66.0	3.8	1.49e+00	0	43	104	0	77	16231
2026-01-24 23:16:53.22	31.67	14.89	-53.3	-66.0	3.8	1.49e+00	0	43	104	0	77	16243
2026-01-24 23:16:57.25	32.08	15.27	-53.3	-66.0	3.8	1.49e+00	0	43	104	0	77	16299
2026-01-24 23:17:01.28	32.49	15.65	-53.3	-66.0	3.8	1.49e+00	0	44	104	0	77	16220
2026-01-24 23:17:05.31	32.92	16.03	-53.3	-66.0	3.8	1.49e+00	0	44	104	0	77	16301
2026-01-24 23:17:09.34	33.36	16.43	-53.3	-66.0	3.8	1.49e+00	0	43	104	0	77	16240
2026-01-24 23:17:13.37	33.80	16.82	-53.3	-66.0	3.8	1.49e+00	0	44	104	0	77	16265
2026-01-24 23:17:17.40	34.26	17.22	-53.3	-66.0	3.8	1.49e+00	0	43	104	0	77	16276
2026-01-24 23:17:21.44	34.74	17.63	-53.3	-66.0	3.8	1.49e+00	0	44	104	0	77	16281
2026-01-24 23:17:25.47	35.22	18.04	-53.3	-66.0	3.8	1.49e+00	0	44	104	0	77	16253
2026-01-24 23:17:29.49	35.72	18.46	-53.3	-66.1	3.8	1.49e+00	0	44	104	0	77	16325
2026-01-24 23:17:33.53	36.23	18.88	-53.3	-66.0	3.8	1.49e+00	0	44	104	0	77	16259
2026-01-24 23:17:37.56	36.75	19.30	-53.3	-66.0	3.8	1.49e+00	0	44	104	0	77	16261
2026-01-24 23:17:41.59	37.29	19.73	-53.3	-66.0	3.8	1.49e+00	0	44	104	0	77	16250
2026-01-24 23:17:45.62	37.84	20.17	-53.3	-66.0	3.8	1.49e+00	0	44	104	0	77	16260
2026-01-24 23:17:49.66	38.41	20.61	-53.3	-66.0	3.8	1.49e+00	0	44	104	0	77	16292
2026-01-24 23:17:53.68	39.00	21.06	-53.3	-66.0	3.8	1.49e+00	0	44	104	0	77	16256
2026-01-24 23:17:57.72	39.60	21.51	-53.3	-66.0	3.8	1.49e+00	0	43	104	0	77	16249
2026-01-24 23:18:01.75	40.22	21.97	-53.3	-66.0	3.8	1.49e+00	0	44	104	0	77	16247
2026-01-24 23:18:05.78	40.85	22.43	-53.3	-66.0	3.8	1.49e+00	0	43	104	0	77	16258
2026-01-24 23:18:09.80	41.51	22.89	-53.3	-66.0	3.8	1.49e+00	0	44	104	0	77	16270
2026-01-24 23:18:13.84	42.19	23.37	-53.3	-66.0	3.8	1.49e+00	0	44	104	0	77	16293
2026-01-24 23:18:17.87	42.88	23.84	-53.3	-66.0	3.8	1.49e+00	0	43	104	0	77	16275
2026-01-24 23:18:21.90	43.60	24.32	-53.3	-66.0	3.8	1.49e+00	0	43	104	0	77	16282
2026-01-24 23:18:25.93	44.33	24.80	-53.3	-66.0	3.8	1.49e+00	0	43	104	0	77	16284
2026-01-24 23:18:29.96	45.09	25.29	-53.3	-66.0	3.8	1.49e+00	0	43	104	0	77	16258
2026-01-24 23:18:34.00	45.88	25.79	-53.3	-66.1	3.8	1.49e+00	0	43	104	0	77	16316
2026-01-24 23:18:38.03	46.69	26.28	-53.3	-66.0	3.8	1.49e+00	0	43	104	0	77	16245
2026-01-24 23:18:42.06	47.52	26.78	-53.3	-66.0	3.8	1.49e+00	0	44	104	0	77	16288
2026-01-24 23:18:46.09	48.38	27.28	-53.3	-66.0	3.8	1.49e+00	0	44	104	0	77	16251
2026-01-24 23:18:50.12	49.26	27.79	-53.3	-66.0	3.8	1.49e+00	0	44	104	0	77	16287
2026-01-24 23:18:54.15	50.18	28.29	-53.3	-66.0	3.8	1.49e+00	0	44	104	0	77	16235
2026-01-24 23:18:58.19	51.12	28.80	-53.3	-66.0	3.8	1.49e+00	0	44	104	0	77	16260
2026-01-24 23:19:02.22	52.09	29.31	-53.3	-66.0	3.8	1.49e+00	0	44	104	0	77	16251
2026-01-24 23:19:06.25	53.09	29.82	-53.3	-66.0	3.8	1.49e+00	0	43	104	0	77	16257
2026-01-24 23:19:10.28	54.13	30.32	-53.3	-66.0	3.8	1.49e+00	0	43	104	0	77	16231
2026-01-24 23:19:14.31	55.19	30.83	-53.3	-66.0	3.8	1.49e+00	0	44	104	0	77	16247
2026-01-24 23:19:18.34	56.29	31.33	-53.3	-66.0	3.8	1.49e+00	0	44	104	0	77	16246
2026-01-24 23:19:22.37	57.43	31.84	-53.3	-66.0	3.8	1.49e+00	0	44	104	0	77	16220
2026-01-24 23:19:26.41	58.60	32.33	-53.3	-66.0	3.8	1.49e+00	0	43	104	0	77	16241
2026-01-24 23:19:30.44	59.80	32.83	-53.3	-66.0	3.8	1.49e+00	0	44	104	0	77	16246
2026-01-24 23:19:34.47	61.04	33.31	-53.3	-66.0	3.8	1.49e+00	0	44	104	0	77	16270
2026-01-24 23:19:38.50	62.32	33.79	-53.3	-66.0	3.8	1.49e+00	0	43	104	0	77	16242
2026-01-24 23:19:42.54	63.64	34.26	-53.3	-66.0	3.8	1.49e+00	0	44	104	0	77	16255
2026-01-24 23:19:46.58	64.99	34.72	-53.3	-66.0	3.8	1.49e+00	0	44	104	0	77	16240
2026-01-24 23:19:50.61	66.38	35.17	-53.3	-66.0	3.8	1.49e+00	0	44	104	0	77	16262
2026-01-24 23:19:54.64	67.81	35.61	-53.3	-66.0	3.8	1.49e+00	0	44	104	0	77	16246
2026-01-24 23:19:58.67	69.27	36.03	-53.3	-66.0	3.8	1.49e+00	0	43	104	0	77	16302
2026-01-24 23:20:02.70	70.78	36.44	-53.3	-66.0	3.8	1.49e+00	0	44	104	0	77	16241
2026-01-24 23:20:06.74	72.32	36.83	-53.3	-66.0	3.8	1.49e+00	0	44	104	0	77	16285
2026-01-24 23:20:10.77	73.89	37.20	-53.3	-66.0	3.8	1.49e+00	0	44	104	0	77	16268
2026-01-24 23:20:14.80	75.50	37.55	-53.3	-66.0	3.8	1.49e+00	0	44	104	0	77	16310
2026-01-24 23:20:18.83	77.15	37.88	-53.3	-66.0	3.8	1.49e+00	0	44	104	0	77	16239
2026-01-24 23:20:22.86	78.82	38.18	-53.3	-66.0	3.8	1.49e+00	0	43	104	0	77	16294
2026-01-24 23:20:26.89	80.53	38.46	-53.3	-66.0	3.8	1.49e+00	0	44	104	0	77	16292
2026-01-24 23:20:30.93	82.27	38.72	-53.3	-66.0	3.8	1.49e+00	0	44	104	0	77	16303
2026-01-24 23:20:34.96	84.03	38.95	-53.3	-66.0	3.8	1.49e+00	0	44	104	0	77	16249
2026-01-24 23:20:38.99	85.81	39.14	-53.3	-66.0	3.8	1.49e+00	0	44	104	0	77	16251
2026-01-24 23:20:43.02	87.61	39.31	-53.3	-66.0	3.8	1.49e+00	0	44	104	0	77	16272
2026-01-24 23:20:47.06	89.43	39.45	-53.3	-66.0	3.8	1.49e+00	0	44	104	0	77	16213
2026-01-24 23:20:51.09	91.27	39.55	-53.3	-66.0	3.8	1.49e+00	0	44	104	0	77	16296
2026-01-24 23:20:55.12	93.11	39.63	-53.3	-66.0	3.8	1.49e+00	0	44	104	0	77	16265
2026-01-24 23:20:59.15	94.96	39.67	-53.3	-66.0	3.8	1.49e+00	0	44	104	0	77	16257
2026-01-24 23:21:03.19	96.82	39.67	-53.3	-66.0	3.8	1.49e+00	0	44	104	0	77	16252
2026-01-24 23:21:07.22	98.67	39.65	-53.3	-66.0	3.8	1.49e+00	0	44	104	0	77	16229
2026-01-24 23:21:11.25	100.51	39.59	-53.3	-66.0	3.8	1.49e+00	0	44	104	0	77	16251
2026-01-24 23:21:15.28	102.35	39.50	-53.3	-66.0	3.8	1.49e+00	0	44	104	0	77	16259
2026-01-24 23:21:19.31	104.18	39.38	-53.3	-66.0	3.8	1.49e+00	0	44	104	0	77	16310
2026-01-24 23:21:23.34	105.99	39.22	-53.3	-66.0	3.8	1.49e+00	0	44	104	0	77	16276
2026-01-24 23:21:27.38	107.79	39.04	-53.3	-66.0	3.8	1.49e+00	0	44	104	0	77	16254
2026-01-24 23:21:31.41	109.56	38.82	-53.3	-66.0	3.8	1.49e+00	0	44	104	0	77	16216
2026-01-24 23:21:35.44	111.31	38.58	-53.3	-66.0	3.8	1.49e+00	0	44	104	0	77	16247
2026-01-24 23:21:39.47	113.03	38.31	-53.3	-66.0	3.8	1.49e+00	0	44	104	0	77	16256
2026-01-24 23:21:43.50	114.72	38.02	-53.3	-66.0	3.8	1.49e+00	0	44	104	0	77	16289
2026-01-24 23:21:47.54	116.39	37.70	-53.3	-66.0	3.8	1.49e+00	0	44	104	0	77	16312
2026-01-24 23:21:51.57	118.02	37.36	-53.3	-66.0	3.8	1.49e+00	0	44	104	0	77	16264
2026-01-24 23:21:55.60	119.61	36.99	-53.3	-66.0	3.8	1.49e+00	0	44	104	0	77	16233
2026-01-24 23:21:59.63	121.17	36.61	-53.3	-66.0	3.8	1.49e+00	0	44	104	0	77	16235
2026-01-24 23:22:03.66	122.69	36.21	-53.3	-66.0	3.8	1.49e+00	0	44	104	0	77	16282
2026-01-24 23:22:07.70	124.18	35.79	-53.3	-66.0	3.8	1.49e+00	0	44	104	0	77	16276
2026-01-24 23:22:11.73	125.63	35.36	-53.3	-66.0	3.8	1.49e+00	0	44	104	0	77	16285
2026-01-24 23:22:15.76	127.04	34.91	-53.3	-66.0	3.8	1.49e+00	0	44	104	0	77	16293
2026-01-24 23:22:19.79	128.41	34.46	-53.3	-66.0	3.8	1.49e+00	0	44	104	0	77	16284
2026-01-24 23:22:23.82	129.75	33.99	-53.3	-66.0	3.8	1.49e+00	0	44	104	0	77	16243
2026-01-24 23:22:27.85	131.04	33.51	-53.3	-66.0	3.8	1.49e+00	0	44	104	0	77	16258
2026-01-24 23:22:31.88	132.30	33.03	-53.3	-66.0	3.8	1.49e+00	0	44	104	0	77	16278
2026-01-24 23:22:35.91	133.53	32.53	-53.3	-66.0	3.8	1.49e+00	0	44	104	0	77	16236
2026-01-24 23:22:39.94	134.71	32.04	-53.3	-66.0	3.8	1.49e+00	0	44	104	0	77	16274
2026-01-24 23:22:43.98	135.87	31.53	-53.3	-66.0	3.8	1.49e+00	0	44	104	0	77	16267
2026-01-24 23:22:48.01	136.99	31.03	-53.3	-66.0	3.8	1.49e+00	0	44	104	0	77	16223
2026-01-24 23:22:52.04	138.07	30.52	-53.3	-66.0	3.8	1.49e+00	0	44	104	0	77	16278
2026-01-24 23:22:56.07	139.12	30.01	-53.3	-66.0	3.8	1.49e+00	0	44	104	0	77	16271
2026-01-24 23:23:00.10	140.14	29.50	-53.3	-66.0	3.8	1.49e+00	0	44	104	0	77	16264
2026-01-24 23:23:04.13	141.13	28.99	-53.3	-66.0	3.8	1.49e+00	0	44	104	0	77	16251
2026-01-24 23:23:08.16	142.09	28.48	-53.3	-66.0	3.8	1.49e+00	0	44	104	0	77	16230
2026-01-24 23:23:12.20	143.02	27.97	-53.3	-66.0	3.8	1.49e+00	0	44	104	0	77	16236
2026-01-24 23:23:16.23	143.92	27.46	-53.3	-66.0	3.8	1.49e+00	0	44	104	0	77	16313
2026-01-24 23:23:20.26	144.79	26.95	-53.3	-66.0	3.8	1.49e+00	0	44	104	0	77	16291
2026-01-24 23:23:24.29	145.63	26.45	-53.3	-66.0	3.8	1.49e+00	0	44	104	0	77	16302
2026-01-24 23:23:28.32	146.45	25.95	-53.3	-66.1	3.8	1.49e+00	0	44	104	0	77	16324
2026-01-24 23:23:32.35	147.25	25.45	-53.3	-66.0	3.8	1.49e+00	0	44	104	0	77	16293
2026-01-24 23:23:36.38	148.02	24.96	-53.3	-66.0	3.8	1.49e+00	0	44	104	0	77	16248
2026-01-24 23:23:40.41	148.77	24.47	-53.3	-66.0	3.8	1.49e+00	0	44	104	0	77	16231
2026-01-24 23:23:44.44	149.50	23.99	-53.3	-66.0	3.8	1.49e+00	0	44	104	0	77	16269
2026-01-24 23:23:48.47	150.20	23.51	-53.3	-66.0	3.8	1.49e+00	0	44	104	0	77	16261
2026-01-24 23:23:52.50	150.89	23.03	-53.3	-66.0	3.8	1.49e+00	0	44	104	0	77	16227
2026-01-24 23:23:56.53	151.55	22.56	-53.3	-66.0	3.8	1.49e+00	0	44	104	0	77	16260
2026-01-24 23:24:00.56	152.20	22.09	-53.3	-66.0	3.8	1.49e+00	0	44	104	0	77	16246
2026-01-24 23:24:04.60	152.83	21.63	-53.3	-66.0	3.8	1.49e+00	0	44	104	0	77	16236
2026-01-24 23:24:08.63	153.44	21.18	-53.3	-66.0	3.8	1.49e+00	0	44	104	0	77	16226
2026-01-24 23:24:12.66	154.03	20.72	-53.3	-66.0	3.8	1.49e+00	0	44	104	0	77	16217
2026-01-24 23:24:16.69	154.61	20.28	-53.3	-66.0	3.8	1.49e+00	0	44	104	0	77	16311
2026-01-24 23:24:20.72	155.17	19.84	-53.3	-66.0	3.8	1.49e+00	0	44	104	0	77	16301
2026-01-24 23:24:24.75	155.71	19.40	-53.3	-66.0	3.8	1.49e+00	0	44	104	0	77	16270
2026-01-24 23:24:28.78	156.24	18.97	-53.3	-66.0	3.8	1.49e+00	0	44	104	0	77	16231
2026-01-24 23:24:32.81	156.76	18.55	-53.3	-66.0	3.8	1.49e+00	0	44	104	0	77	16256
2026-01-24 23:24:36.85	157.26	18.12	-53.3	-66.0	3.8	1.49e+00	0	44	104	0	77	16290
2026-01-24 23:24:40.88	157.75	17.71	-53.3	-66.0	3.8	1.49e+00	0	44	104	0	77	16180
2026-01-24 23:24:44.90	158.23	17.30	-53.3	-66.0	3.8	1.49e+00	0	44	104	0	77	16289
2026-01-24 23:24:48.93	158.69	16.89	-53.3	-66.0	3.8	1.49e+00	0	44	104	0	77	16229
2026-01-24 23:24:52.97	159.14	16.49	-53.3	-66.0	3.8	1.49e+00	0	44	104	0	77	16246
2026-01-24 23:24:57.00	159.59	16.10	-53.3	-66.0	3.8	1.49e+00	0	44	104	0	77	16266
2026-01-24 23:25:01.03	160.02	15.71	-53.3	-66.0	3.8	1.49e+00	0	44	104	0	77	16282
2026-01-24 23:25:05.06	160.44	15.32	-53.3	-66.0	3.8	1.49e+00	0	44	104	0	77	16244
2026-01-24 23:25:09.09	160.85	14.94	-53.3	-66.0	3.8	1.49e+00	0	44	104	0	77	16236
2026-01-24 23:25:13.12	161.25	14.56	-53.3	-66.0	3.8	1.49e+00	0	44	104	0	77	16267
2026-01-24 23:25:17.15	161.64	14.19	-53.3	-66.0	3.8	1.49e+00	0	44	104	0	77	16272
2026-01-24 23:25:21.18	162.02	13.82	-53.3	-66.0	3.8	1.49e+00	0	44	104	0	77	16299
2026-01-24 23:25:25.21	162.39	13.46	-53.3	-66.0	3.8	1.49e+00	0	44	104	0	77	16274
2026-01-24 23:25:29.24	162.75	13.10	-53.3	-66.0	3.8	1.49e+00	0	44	104	0	77	16264
2026-01-24 23:25:33.28	163.11	12.75	-53.3	-66.0	3.8	1.49e+00	0	44	104	0	77	16238
2026-01-24 23:25:37.31	163.46	12.40	-53.3	-66.0	3.8	1.49e+00	0	44	104	0	77	16257
2026-01-24 23:25:41.34	163.80	12.05	-53.3	-66.0	3.8	1.49e+00	0	44	104	0	77	16273
2026-01-24 23:25:45.37	164.13	11.71	-53.3	-66.0	3.8	1.49e+00	0	44	104	0	77	16215
2026-01-24 23:25:49.40	164.45	11.37	-53.3	-66.0	3.8	1.49e+00	0	44	104	0	77	16298
2026-01-24 23:25:53.44	164.77	11.03	-53.3	-66.0	3.8	1.49e+00	0	44	104	0	77	16225
2026-01-24 23:25:57.47	165.08	10.70	-53.3	-66.0	3.8	1.49e+00	0	44	104	0	77	16242
2026-01-24 23:26:01.50	165.39	10.38	-53.3	-66.0	3.8	1.49e+00	0	44	104	0	77	16224
2026-01-24 23:26:05.53	165.69	10.05	-53.3	-66.1	3.8	1.49e+00	0	44	104	0	77	16323
2026-01-24 23:26:09.56	165.98	9.73	-53.3	-66.0	3.8	1.49e+00	0	44	104	0	77	16276
2026-01-24 23:26:13.59	166.27	9.42	-53.3	-66.0	3.8	1.49e+00	0	44	104	0	77	16290
2026-01-24 23:26:17.62	166.55	9.10	-53.3	-66.0	3.8	1.49e+00	0	43	104	0	77	16277
2026-01-24 23:26:21.66	166.82	8.79	-53.3	-66.0	3.8	1.49e+00	0	44	104	0	77	16261
2026-01-24 23:26:25.69	167.09	8.49	-53.3	-66.0	3.8	1.49e+00	0	44	104	0	77	16267
2026-01-24 23:26:29.72	167.36	8.18	-53.3	-66.0	3.8	1.49e+00	0	44	104	0	77	16289
2026-01-24 23:26:33.75	167.62	7.88	-53.3	-66.0	3.8	1.49e+00	0	44	104	0	77	16242
2026-01-24 23:26:37.79	167.87	7.58	-53.3	-66.0	3.8	1.49e+00	0	44	104	0	77	16273
2026-01-24 23:26:41.82	168.12	7.29	-53.3	-66.0	3.8	1.49e+00	0	44	104	0	77	16297
2026-01-24 23:26:45.85	168.37	7.00	-53.3	-66.0	3.8	1.49e+00	0	44	104	0	77	16294
2026-01-24 23:26:49.88	168.61	6.71	-53.3	-66.0	3.8	1.49e+00	0	43	104	0	77	16262
2026-01-24 23:26:53.92	168.84	6.43	-53.3	-66.0	3.8	1.49e+00	0	44	104	0	77	16307
2026-01-24 23:26:57.95	169.07	6.14	-53.3	-66.0	3.8	1.49e+00	0	44	104	0	77	16293
2026-01-24 23:27:01.98	169.30	5.86	-53.3	-66.0	3.8	1.49e+00	0	44	104	0	77	16259
2026-01-24 23:27:06.02	169.53	5.58	-53.3	-66.0	3.8	1.49e+00	0	44	104	0	77	16297
2026-01-24 23:27:10.04	169.74	5.31	-53.3	-66.0	3.8	1.49e+00	0	44	104	0	77	16281
2026-01-24 23:27:14.08	169.96	5.04	-53.3	-66.0	3.8	1.49e+00	0	44	104	0	77	16246
2026-01-24 23:27:18.11	170.17	4.77	-53.3	-66.0	3.8	1.49e+00	0	44	104	0	77	16265
2026-01-24 23:27:22.14	170.38	4.50	-53.3	-66.0	3.8	1.49e+00	0	44	104	0	77	16302
2026-01-24 23:27:26.17	170.59	4.24	-53.3	-66.0	3.8	1.49e+00	0	44	104	0	77	16304
2026-01-24 23:27:30.21	170.79	3.97	-53.3	-66.0	3.8	1.49e+00	0	44	104	0	77	16287
2026-01-24 23:27:34.24	170.99	3.71	-53.3	-66.0	3.8	1.49e+00	0	44	104	0	77	16238
2026-01-24 23:27:38.27	171.18	3.45	-53.3	-66.0	3.8	1.49e+00	0	44	104	0	77	16243
2026-01-24 23:27:42.30	171.38	3.20	-53.3	-66.0	3.8	1.49e+00	0	43	104	0	77	16264
2026-01-24 23:27:46.33	171.56	2.94	-53.3	-66.0	3.8	1.49e+00	0	44	104	0	77	16288
2026-01-24 23:27:50.36	171.75	2.69	-53.3	-66.0	3.8	1.49e+00	0	44	104	0	77	16240
2026-01-24 23:27:54.39	171.93	2.44	-53.3	-66.0	3.8	1.49e+00	0	44	104	0	77	16221
2026-01-24 23:27:58.42	172.11	2.19	-53.3	-66.0	3.8	1.49e+00	0	44	104	0	77	16283

#Closed at: 2026-01-24 23:28:02
#Recorded file [0 MB]: D:/lorett/data/31041_260125_021359.dat