passes_logs/2025/01/16/planumMaritime01/planumMaritime01__20250116_173056_NOAA_18_rec.log

#Pass ID: 20250116_173056_NOAA 18
#Satellite: NOAA 18
#Configuration: NOAA 18
#Start time: 2025-01-16 17:31:01.151440

#LorettStation: 1.0.0 05.05.2024
#Station: planumMaritime01
#Location: 37.49445 lon 55.92918 lat
#TLE: 1 28654U 05018A   25016.15379782  .00000321  00000+0  19399-3 0  9994
#TLE: 2 28654  98.8565  97.1968 0014416 175.9109 184.2183 14.13487365 13346

#Time	Az	El	Level	SNR
2025-01-16 17:31:03.310565	97.0	10.1	-80.9	0.0
2025-01-16 17:31:04.429522	96.9	10.2	-80.9	0.0
2025-01-16 17:31:05.552131	96.7	10.3	-81.1	0.0
2025-01-16 17:31:06.671386	96.6	10.4	-81.4	0.0
2025-01-16 17:31:07.791469	96.5	10.4	-81.3	0.0
2025-01-16 17:31:08.912787	96.3	10.5	-80.7	0.0
2025-01-16 17:31:10.034463	96.2	10.6	-81.2	0.0
2025-01-16 17:31:11.154672	96.1	10.6	-81.3	0.0
2025-01-16 17:31:12.275744	95.9	10.7	-81.5	0.0
2025-01-16 17:31:13.399835	95.8	10.8	-81.3	0.0
2025-01-16 17:31:14.521006	95.6	10.9	-80.7	0.0
2025-01-16 17:31:15.640817	95.5	10.9	-80.3	0.0
2025-01-16 17:31:16.761112	95.4	11.0	-81.0	0.0
2025-01-16 17:31:17.881984	95.2	11.1	-81.3	0.0
2025-01-16 17:31:19.002647	95.1	11.1	-81.2	0.0
2025-01-16 17:31:20.123098	94.9	11.2	-81.0	0.0
2025-01-16 17:31:21.245993	94.8	11.3	-80.9	0.0
2025-01-16 17:31:22.367885	94.7	11.4	-81.2	0.0
2025-01-16 17:31:23.487702	94.5	11.4	-81.0	0.0
2025-01-16 17:31:24.608642	94.4	11.5	-81.7	0.0
2025-01-16 17:31:25.730377	94.2	11.6	-81.5	0.0
2025-01-16 17:31:26.853630	94.1	11.7	-81.3	0.0
2025-01-16 17:31:27.974893	93.9	11.7	-81.4	0.0
2025-01-16 17:31:29.092985	93.8	11.8	-80.7	0.0
2025-01-16 17:31:30.214801	93.6	11.9	-81.3	0.0
2025-01-16 17:31:31.336994	93.5	11.9	-81.0	0.0
2025-01-16 17:31:32.456834	93.3	12.0	-81.3	0.0
2025-01-16 17:31:33.579812	93.2	12.1	-81.1	0.0
2025-01-16 17:31:34.700836	93.0	12.2	-81.0	0.0
2025-01-16 17:31:35.821990	92.9	12.2	-81.5	0.0
2025-01-16 17:31:36.942071	92.7	12.3	-81.2	0.0
2025-01-16 17:31:38.062106	92.6	12.4	-81.5	0.0
2025-01-16 17:31:39.185146	92.4	12.5	-81.3	0.0
2025-01-16 17:31:40.307488	92.3	12.5	-81.5	0.0
2025-01-16 17:31:41.427653	92.1	12.6	-81.2	0.0
2025-01-16 17:31:42.550167	91.9	12.7	-81.2	0.0
2025-01-16 17:31:43.669490	91.8	12.7	-81.4	0.0
2025-01-16 17:31:44.790095	91.6	12.8	-81.7	0.0
2025-01-16 17:31:45.912926	91.5	12.9	-81.5	0.0
2025-01-16 17:31:47.035336	91.3	13.0	-81.8	0.0
2025-01-16 17:31:48.158023	91.1	13.0	-81.7	0.0
2025-01-16 17:31:49.278648	91.0	13.1	-81.8	0.0
2025-01-16 17:31:50.397751	90.8	13.2	-81.5	0.0
2025-01-16 17:31:51.518929	90.7	13.3	-81.5	0.0
2025-01-16 17:31:52.640929	90.5	13.3	-81.5	0.0
2025-01-16 17:31:53.759537	90.3	13.4	-81.4	0.0
2025-01-16 17:31:54.882433	90.2	13.5	-80.9	0.0
2025-01-16 17:31:56.004681	90.0	13.5	-81.3	0.0
2025-01-16 17:31:57.125989	89.8	13.6	-81.2	0.0
2025-01-16 17:31:58.246413	89.7	13.7	-81.4	0.0
2025-01-16 17:31:59.368516	89.5	13.8	-80.8	0.0
2025-01-16 17:32:00.489810	89.3	13.8	-80.6	0.0
2025-01-16 17:32:01.610316	89.1	13.9	-80.9	0.0
2025-01-16 17:32:02.731525	89.0	14.0	-80.8	0.0
2025-01-16 17:32:03.852774	88.8	14.1	-80.7	0.0
2025-01-16 17:32:04.975356	88.6	14.1	-81.3	0.0
2025-01-16 17:32:06.097106	88.4	14.2	-81.0	0.0
2025-01-16 17:32:07.218462	88.3	14.3	-80.9	0.0
2025-01-16 17:32:08.342169	88.1	14.3	-81.4	0.0
2025-01-16 17:32:09.461028	87.9	14.4	-81.2	0.0
2025-01-16 17:32:10.581992	87.7	14.5	-81.3	0.0
2025-01-16 17:32:11.705569	87.6	14.6	-81.0	0.0
2025-01-16 17:32:12.825919	87.4	14.6	-80.9	0.0
2025-01-16 17:32:13.947413	87.2	14.7	-81.2	0.0
2025-01-16 17:32:15.070021	87.0	14.8	-81.6	0.0
2025-01-16 17:32:16.190774	86.8	14.8	-81.4	0.0
2025-01-16 17:32:17.312078	86.7	14.9	-81.7	0.0
2025-01-16 17:32:18.433850	86.5	15.0	-81.6	0.0
2025-01-16 17:32:19.553667	86.3	15.1	-81.5	0.0
2025-01-16 17:32:20.675344	86.1	15.1	-81.5	0.0
2025-01-16 17:32:21.799127	85.9	15.2	-80.8	0.0
2025-01-16 17:32:22.921185	85.7	15.3	-81.8	0.0
2025-01-16 17:32:24.044395	85.5	15.3	-81.5	0.0
2025-01-16 17:32:25.166421	85.3	15.4	-81.5	0.0
2025-01-16 17:32:26.288571	85.2	15.5	-81.4	0.0
2025-01-16 17:32:27.410395	85.0	15.6	-81.2	0.0
2025-01-16 17:32:28.532950	84.8	15.6	-81.3	0.0
2025-01-16 17:32:29.654577	84.6	15.7	-81.5	0.0
2025-01-16 17:32:30.775990	84.4	15.8	-81.5	0.0
2025-01-16 17:32:31.896512	84.2	15.8	-81.3	0.0
2025-01-16 17:32:33.019168	84.0	15.9	-81.7	0.0
2025-01-16 17:32:34.140404	83.8	16.0	-81.5	0.0
2025-01-16 17:32:35.261899	83.6	16.1	-81.4	0.0
2025-01-16 17:32:36.382898	83.4	16.1	-81.5	0.0
2025-01-16 17:32:37.504174	83.2	16.2	-81.2	0.0
2025-01-16 17:32:38.626273	83.0	16.3	-81.3	0.0
2025-01-16 17:32:39.747916	82.8	16.3	-81.5	0.0
2025-01-16 17:32:40.870168	82.6	16.4	-81.3	0.0
2025-01-16 17:32:41.992177	82.4	16.5	-80.0	0.0
2025-01-16 17:32:43.114896	82.2	16.5	-81.0	0.0
2025-01-16 17:32:44.237041	82.0	16.6	-81.6	0.0
2025-01-16 17:32:45.357867	81.8	16.7	-81.0	0.0
2025-01-16 17:32:46.477672	81.6	16.7	-80.9	0.0
2025-01-16 17:32:47.599470	81.4	16.8	-81.4	0.0
2025-01-16 17:32:48.720984	81.2	16.9	-81.3	0.0
2025-01-16 17:32:49.841990	80.9	16.9	-81.0	0.0
2025-01-16 17:32:50.963609	80.7	17.0	-81.3	0.0
2025-01-16 17:32:52.085901	80.5	17.1	-81.8	0.0
2025-01-16 17:32:53.206964	80.3	17.1	-81.9	0.0
2025-01-16 17:32:54.326830	80.1	17.2	-81.4	0.0
2025-01-16 17:32:55.447806	79.9	17.3	-80.2	0.0
2025-01-16 17:32:56.567886	79.7	17.3	-81.5	0.0
2025-01-16 17:32:57.689979	79.4	17.4	-81.5	0.0
2025-01-16 17:32:58.810907	79.2	17.5	-81.3	0.0
2025-01-16 17:32:59.930849	79.0	17.5	-81.7	0.0
2025-01-16 17:33:01.053258	78.8	17.6	-81.6	0.0
2025-01-16 17:33:02.174361	78.6	17.7	-81.2	0.0
2025-01-16 17:33:03.297797	78.4	17.7	-81.2	0.0
2025-01-16 17:33:04.418982	78.1	17.8	-80.7	0.0
2025-01-16 17:33:05.540596	77.9	17.9	-80.8	0.0
2025-01-16 17:33:06.659496	77.7	17.9	-81.0	0.0
2025-01-16 17:33:07.780827	77.5	18.0	-81.0	0.0
2025-01-16 17:33:08.900968	77.2	18.0	-81.4	0.0
2025-01-16 17:33:10.022557	77.0	18.1	-81.9	0.0
2025-01-16 17:33:11.142722	76.8	18.2	-81.6	0.0
2025-01-16 17:33:12.263355	76.6	18.2	-81.6	0.0
2025-01-16 17:33:13.384210	76.3	18.3	-81.6	0.0
2025-01-16 17:33:14.507158	76.1	18.4	-81.1	0.0
2025-01-16 17:33:15.628792	75.9	18.4	-81.0	0.0
2025-01-16 17:33:16.751197	75.6	18.5	-80.9	0.0
2025-01-16 17:33:17.870703	75.4	18.5	-81.0	0.0
2025-01-16 17:33:18.990917	75.2	18.6	-81.0	0.0
2025-01-16 17:33:20.114266	74.9	18.7	-81.0	0.0
2025-01-16 17:33:21.237407	74.7	18.7	-80.8	0.0
2025-01-16 17:33:22.356580	74.5	18.8	-81.3	0.0
2025-01-16 17:33:23.476621	74.2	18.8	-81.1	0.0
2025-01-16 17:33:24.597878	74.0	18.9	-81.4	0.0
2025-01-16 17:33:25.722715	73.7	19.0	-81.6	0.0
2025-01-16 17:33:26.845732	73.5	19.0	-81.3	0.0
2025-01-16 17:33:27.966779	73.3	19.1	-81.4	0.0
2025-01-16 17:33:29.088798	73.0	19.1	-81.7	0.0
2025-01-16 17:33:30.211652	72.8	19.2	-81.1	0.0
2025-01-16 17:33:31.330829	72.5	19.2	-81.3	0.0
2025-01-16 17:33:32.452166	72.3	19.3	-81.6	0.0
2025-01-16 17:33:33.572192	72.0	19.3	-81.6	0.0
2025-01-16 17:33:34.696620	71.8	19.4	-81.1	0.0
2025-01-16 17:33:35.817118	71.5	19.5	-81.4	0.0
2025-01-16 17:33:36.939615	71.3	19.5	-81.5	0.0
2025-01-16 17:33:38.060324	71.0	19.6	-81.6	0.0
2025-01-16 17:33:39.180622	70.8	19.6	-81.0	0.0
2025-01-16 17:33:40.301491	70.5	19.7	-81.5	0.0
2025-01-16 17:33:41.421446	70.3	19.7	-81.5	0.0
2025-01-16 17:33:42.544014	70.0	19.8	-81.2	0.0
2025-01-16 17:33:43.663075	69.8	19.8	-81.6	0.0
2025-01-16 17:33:44.783422	69.5	19.9	-81.5	0.0
2025-01-16 17:33:45.905702	69.3	19.9	-81.4	0.0
2025-01-16 17:33:47.027086	69.0	20.0	-81.6	0.0
2025-01-16 17:33:48.150453	68.8	20.0	-81.5	0.0
2025-01-16 17:33:49.271921	68.5	20.1	-81.6	0.0
2025-01-16 17:33:50.393474	68.2	20.1	-81.7	0.0
2025-01-16 17:33:51.513739	68.0	20.2	-81.5	0.0
2025-01-16 17:33:52.635861	67.7	20.2	-81.6	0.0
2025-01-16 17:33:53.756930	67.5	20.3	-81.0	0.0
2025-01-16 17:33:54.876797	67.2	20.3	-81.6	0.0
2025-01-16 17:33:55.997663	66.9	20.3	-81.3	0.0
2025-01-16 17:33:57.119047	66.7	20.4	-81.9	0.0
2025-01-16 17:33:58.239804	66.4	20.4	-81.7	0.0
2025-01-16 17:33:59.360604	66.1	20.5	-82.0	0.0
2025-01-16 17:34:00.482529	65.9	20.5	-81.7	0.0
2025-01-16 17:34:01.604535	65.6	20.6	-81.3	0.0
2025-01-16 17:34:02.724904	65.3	20.6	-81.4	0.0
2025-01-16 17:34:03.846651	65.1	20.6	-82.0	0.0
2025-01-16 17:34:04.965593	64.8	20.7	-81.8	0.0
2025-01-16 17:34:06.085798	64.5	20.7	-81.6	0.0
2025-01-16 17:34:07.207134	64.3	20.8	-82.0	0.0
2025-01-16 17:34:08.329208	64.0	20.8	-81.9	0.0
2025-01-16 17:34:09.450906	63.7	20.8	-82.0	0.0
2025-01-16 17:34:10.569602	63.5	20.9	-82.0	0.0
2025-01-16 17:34:11.692638	63.2	20.9	-81.9	0.0
2025-01-16 17:34:12.811952	62.9	20.9	-82.3	0.0
2025-01-16 17:34:13.933055	62.6	21.0	-82.1	0.0
2025-01-16 17:34:15.053297	62.4	21.0	-82.1	0.0
2025-01-16 17:34:16.174420	62.1	21.0	-82.2	0.0
2025-01-16 17:34:17.294650	61.8	21.1	-81.8	0.0
2025-01-16 17:34:18.415916	61.5	21.1	-81.9	0.0
2025-01-16 17:34:19.536907	61.3	21.1	-81.7	0.0
2025-01-16 17:34:20.658420	61.0	21.2	-81.7	0.0
2025-01-16 17:34:21.780154	60.7	21.2	-80.5	0.0
2025-01-16 17:34:22.900269	60.4	21.2	-81.5	0.0
2025-01-16 17:34:24.023055	60.1	21.3	-81.3	0.0
2025-01-16 17:34:25.145949	59.9	21.3	-81.0	0.0
2025-01-16 17:34:26.267292	59.6	21.3	-81.3	0.0
2025-01-16 17:34:27.389218	59.3	21.4	-81.5	0.0
2025-01-16 17:34:28.512977	59.0	21.4	-81.5	0.0
2025-01-16 17:34:29.633916	58.7	21.4	-81.5	0.0
2025-01-16 17:34:30.755439	58.5	21.4	-80.8	0.0
2025-01-16 17:34:31.875597	58.2	21.5	-81.9	0.0
2025-01-16 17:34:32.996938	57.9	21.5	-81.9	0.0
2025-01-16 17:34:34.117989	57.6	21.5	-81.8	0.0
2025-01-16 17:34:35.236833	57.3	21.5	-82.1	0.0
2025-01-16 17:34:36.357652	57.0	21.5	-82.1	0.0
2025-01-16 17:34:37.478399	56.8	21.6	-82.0	0.0
2025-01-16 17:34:38.601622	56.5	21.6	-81.9	0.0
2025-01-16 17:34:39.722542	56.2	21.6	-81.7	0.0
2025-01-16 17:34:40.841371	55.9	21.6	-81.9	0.0
2025-01-16 17:34:41.962953	55.6	21.6	-81.8	0.0
2025-01-16 17:34:43.085857	55.3	21.7	-81.7	0.0
2025-01-16 17:34:44.208508	55.0	21.7	-82.1	0.0
2025-01-16 17:34:45.326846	54.8	21.7	-80.7	0.0
2025-01-16 17:34:46.447916	54.5	21.7	-80.8	0.0
2025-01-16 17:34:47.571089	54.2	21.7	-82.0	0.0
2025-01-16 17:34:48.691304	53.9	21.7	-81.1	0.0
2025-01-16 17:34:49.813439	53.6	21.7	-82.1	0.0
2025-01-16 17:34:50.937336	53.3	21.8	-81.9	0.0
2025-01-16 17:34:52.056305	53.0	21.8	-82.0	0.0
2025-01-16 17:34:53.177844	52.7	21.8	-81.9	0.0
2025-01-16 17:34:54.299995	52.5	21.8	-82.0	0.0
2025-01-16 17:34:55.422372	52.2	21.8	-81.2	0.0
2025-01-16 17:34:56.544740	51.9	21.8	-80.2	0.0
2025-01-16 17:34:57.664022	51.6	21.8	-81.2	0.0
2025-01-16 17:34:58.784135	51.3	21.8	-81.0	0.0
2025-01-16 17:34:59.904945	51.0	21.8	-81.3	0.0
2025-01-16 17:35:01.024777	50.7	21.8	-80.8	0.0
2025-01-16 17:35:02.145402	50.4	21.8	-81.0	0.0
2025-01-16 17:35:03.268483	50.1	21.8	-80.9	0.0
2025-01-16 17:35:04.390547	49.9	21.8	-80.8	0.0
2025-01-16 17:35:05.509958	49.6	21.8	-81.1	0.0
2025-01-16 17:35:06.630824	49.3	21.8	-81.1	0.0
2025-01-16 17:35:07.752482	49.0	21.8	-80.7	0.0
2025-01-16 17:35:08.874870	48.7	21.8	-81.0	0.0
2025-01-16 17:35:09.995028	48.4	21.8	-81.4	0.0
2025-01-16 17:35:11.115791	48.1	21.8	-81.1	0.0
2025-01-16 17:35:12.238277	47.8	21.8	-80.7	0.0
2025-01-16 17:35:13.361604	47.5	21.8	-80.7	0.0
2025-01-16 17:35:14.483825	47.3	21.8	-81.3	0.0
2025-01-16 17:35:15.602649	47.0	21.8	-81.0	0.0
2025-01-16 17:35:16.724938	46.7	21.8	-80.8	0.0
2025-01-16 17:35:17.847816	46.4	21.8	-80.1	0.0
2025-01-16 17:35:18.966726	46.1	21.8	-81.5	0.0
2025-01-16 17:35:20.087715	45.8	21.8	-81.6	0.0
2025-01-16 17:35:21.208346	45.5	21.8	-81.2	0.0
2025-01-16 17:35:22.330052	45.2	21.8	-81.5	0.0
2025-01-16 17:35:23.452941	44.9	21.7	-80.9	0.0
2025-01-16 17:35:24.575368	44.7	21.7	-80.3	0.0
2025-01-16 17:35:25.694858	44.4	21.7	-81.1	0.0
2025-01-16 17:35:26.815225	44.1	21.7	-81.5	0.0
2025-01-16 17:35:27.936567	43.8	21.7	-80.2	0.0
2025-01-16 17:35:29.059904	43.5	21.7	-81.7	0.0
2025-01-16 17:35:30.181204	43.2	21.7	-81.6	0.0
2025-01-16 17:35:31.301971	42.9	21.7	-81.6	0.0
2025-01-16 17:35:32.422572	42.6	21.6	-81.5	0.0
2025-01-16 17:35:33.542923	42.4	21.6	-81.8	0.0
2025-01-16 17:35:34.660706	42.1	21.6	-81.8	0.0
2025-01-16 17:35:35.780092	41.8	21.6	-81.5	0.0
2025-01-16 17:35:36.899621	41.5	21.6	-81.9	0.0
2025-01-16 17:35:38.020686	41.2	21.5	-81.2	0.0
2025-01-16 17:35:39.141080	40.9	21.5	-80.7	0.0
2025-01-16 17:35:40.261365	40.7	21.5	-81.7	0.0
2025-01-16 17:35:41.382766	40.4	21.5	-81.4	0.0
2025-01-16 17:35:42.502692	40.1	21.4	-81.5	0.0
2025-01-16 17:35:43.623136	39.8	21.4	-81.6	0.0
2025-01-16 17:35:44.743381	39.5	21.4	-81.9	0.0
2025-01-16 17:35:45.866779	39.2	21.4	-81.6	0.0
2025-01-16 17:35:46.988007	39.0	21.3	-81.6	0.0
2025-01-16 17:35:48.109852	38.7	21.3	-81.9	0.0
2025-01-16 17:35:49.228861	38.4	21.3	-82.1	0.0
2025-01-16 17:35:50.350922	38.1	21.3	-82.1	0.0
2025-01-16 17:35:51.471283	37.8	21.2	-81.5	0.0
2025-01-16 17:35:52.592691	37.6	21.2	-82.1	0.0
2025-01-16 17:35:53.716619	37.3	21.2	-82.0	0.0
2025-01-16 17:35:54.839309	37.0	21.1	-82.0	0.0
2025-01-16 17:35:55.960611	36.7	21.1	-81.9	0.0
2025-01-16 17:35:57.082202	36.5	21.1	-81.9	0.0
2025-01-16 17:35:58.203538	36.2	21.0	-81.9	0.0
2025-01-16 17:35:59.328919	35.9	21.0	-81.9	0.0
2025-01-16 17:36:00.450045	35.6	21.0	-81.9	0.0
2025-01-16 17:36:01.572701	35.4	20.9	-81.7	0.0
2025-01-16 17:36:02.694876	35.1	20.9	-81.7	0.0
2025-01-16 17:36:03.815358	34.8	20.9	-81.9	0.0
2025-01-16 17:36:04.937136	34.5	20.8	-82.1	0.0
2025-01-16 17:36:06.057828	34.3	20.8	-81.3	0.0
2025-01-16 17:36:07.179257	34.0	20.7	-81.7	0.0
2025-01-16 17:36:08.301776	33.7	20.7	-81.5	0.0
2025-01-16 17:36:09.421134	33.5	20.7	-81.7	0.0
2025-01-16 17:36:10.544848	33.2	20.6	-81.7	0.0
2025-01-16 17:36:11.665885	32.9	20.6	-81.3	0.0
2025-01-16 17:36:12.786993	32.7	20.5	-81.8	0.0
2025-01-16 17:36:13.909774	32.4	20.5	-82.0	0.0
2025-01-16 17:36:15.031724	32.1	20.5	-81.7	0.0
2025-01-16 17:36:16.154352	31.9	20.4	-81.7	0.0
2025-01-16 17:36:17.275133	31.6	20.4	-81.5	0.0
2025-01-16 17:36:18.396958	31.3	20.3	-82.0	0.0
2025-01-16 17:36:19.517838	31.1	20.3	-81.5	0.0
2025-01-16 17:36:20.638275	30.8	20.2	-81.4	0.0
2025-01-16 17:36:21.758669	30.6	20.2	-81.9	0.0
2025-01-16 17:36:22.879043	30.3	20.1	-81.8	0.0
2025-01-16 17:36:24.002198	30.0	20.1	-81.9	0.0
2025-01-16 17:36:25.123505	29.8	20.1	-81.4	0.0
2025-01-16 17:36:26.246153	29.5	20.0	-81.9	0.0
2025-01-16 17:36:27.368198	29.3	20.0	-80.8	0.0
2025-01-16 17:36:28.486965	29.0	19.9	-81.8	0.0
2025-01-16 17:36:29.607534	28.8	19.9	-80.5	0.0
2025-01-16 17:36:30.728881	28.5	19.8	-81.7	0.0
2025-01-16 17:36:31.851724	28.2	19.8	-81.9	0.0
2025-01-16 17:36:32.973712	28.0	19.7	-81.7	0.0
2025-01-16 17:36:34.095789	27.7	19.6	-82.1	0.0
2025-01-16 17:36:35.218047	27.5	19.6	-81.3	0.0
2025-01-16 17:36:36.338983	27.2	19.5	-81.2	0.0
2025-01-16 17:36:37.458767	27.0	19.5	-81.2	0.0
2025-01-16 17:36:38.580430	26.7	19.4	-81.3	0.0
2025-01-16 17:36:39.700983	26.5	19.4	-81.1	0.0
2025-01-16 17:36:40.821799	26.2	19.3	-81.7	0.0
2025-01-16 17:36:41.944323	26.0	19.3	-81.9	0.0
2025-01-16 17:36:43.065246	25.8	19.2	-80.7	0.0
2025-01-16 17:36:44.185813	25.5	19.2	-81.7	0.0
2025-01-16 17:36:45.307489	25.3	19.1	-81.9	0.0
2025-01-16 17:36:46.430944	25.0	19.1	-81.6	0.0
2025-01-16 17:36:47.550769	24.8	19.0	-81.8	0.0
2025-01-16 17:36:48.671385	24.5	18.9	-81.6	0.0
2025-01-16 17:36:49.792704	24.3	18.9	-82.2	0.0
2025-01-16 17:36:50.914775	24.1	18.8	-81.5	0.0
2025-01-16 17:36:52.036771	23.8	18.8	-81.5	0.0
2025-01-16 17:36:53.158701	23.6	18.7	-81.5	0.0
2025-01-16 17:36:54.280120	23.4	18.6	-82.0	0.0
2025-01-16 17:36:55.398963	23.1	18.6	-81.0	0.0
2025-01-16 17:36:56.522341	22.9	18.5	-81.8	0.0
2025-01-16 17:36:57.644754	22.7	18.5	-81.8	0.0
2025-01-16 17:36:58.764778	22.4	18.4	-81.5	0.0
2025-01-16 17:36:59.884859	22.2	18.3	-81.1	0.0
2025-01-16 17:37:01.004527	22.0	18.3	-81.7	0.0
2025-01-16 17:37:02.126467	21.7	18.2	-82.2	0.0
2025-01-16 17:37:03.248001	21.5	18.2	-82.0	0.0
2025-01-16 17:37:04.370387	21.3	18.1	-81.8	0.0
2025-01-16 17:37:05.488839	21.1	18.0	-81.9	0.0
2025-01-16 17:37:06.609314	20.8	18.0	-81.9	0.0
2025-01-16 17:37:07.730123	20.6	17.9	-82.1	0.0
2025-01-16 17:37:08.850796	20.4	17.8	-82.0	0.0
2025-01-16 17:37:09.971591	20.2	17.8	-82.2	0.0
2025-01-16 17:37:11.092522	19.9	17.7	-81.7	0.0
2025-01-16 17:37:12.213625	19.7	17.6	-82.2	0.0
2025-01-16 17:37:13.335380	19.5	17.6	-81.5	0.0
2025-01-16 17:37:14.456326	19.3	17.5	-82.0	0.0
2025-01-16 17:37:15.578712	19.1	17.5	-82.3	0.0
2025-01-16 17:37:16.702288	18.8	17.4	-81.5	0.0
2025-01-16 17:37:17.823583	18.6	17.3	-80.8	0.0
2025-01-16 17:37:18.946095	18.4	17.3	-81.2	0.0
2025-01-16 17:37:20.069010	18.2	17.2	-81.2	0.0
2025-01-16 17:37:21.188306	18.0	17.1	-81.7	0.0
2025-01-16 17:37:22.309813	17.8	17.1	-81.3	0.0
2025-01-16 17:37:23.432153	17.6	17.0	-81.7	0.0
2025-01-16 17:37:24.555235	17.4	16.9	-82.0	0.0
2025-01-16 17:37:25.676695	17.1	16.9	-82.0	0.0
2025-01-16 17:37:26.798628	16.9	16.8	-81.7	0.0
2025-01-16 17:37:27.918824	16.7	16.7	-81.6	0.0
2025-01-16 17:37:29.041519	16.5	16.6	-81.6	0.0
2025-01-16 17:37:30.161638	16.3	16.6	-81.1	0.0
2025-01-16 17:37:31.283301	16.1	16.5	-81.6	0.0
2025-01-16 17:37:32.403128	15.9	16.4	-82.0	0.0
2025-01-16 17:37:33.525318	15.7	16.4	-80.9	0.0
2025-01-16 17:37:34.650721	15.5	16.3	-81.4	0.0
2025-01-16 17:37:35.771330	15.3	16.2	-81.0	0.0
2025-01-16 17:37:36.892518	15.1	16.2	-80.6	0.0
2025-01-16 17:37:38.015746	14.9	16.1	-81.8	0.0
2025-01-16 17:37:39.136903	14.7	16.0	-81.6	0.0
2025-01-16 17:37:40.258168	14.5	16.0	-81.7	0.0
2025-01-16 17:37:41.380851	14.3	15.9	-82.1	0.0
2025-01-16 17:37:42.502870	14.1	15.8	-82.3	0.0
2025-01-16 17:37:43.624783	13.9	15.7	-81.5	0.0
2025-01-16 17:37:44.746301	13.7	15.7	-82.0	0.0
2025-01-16 17:37:45.866426	13.5	15.6	-82.4	0.0
2025-01-16 17:37:46.991073	13.3	15.5	-82.3	0.0
2025-01-16 17:37:48.114479	13.1	15.5	-82.1	0.0
2025-01-16 17:37:49.236747	13.0	15.4	-81.4	0.0
2025-01-16 17:37:50.358348	12.8	15.3	-82.0	0.0
2025-01-16 17:37:51.480448	12.6	15.3	-82.1	0.0
2025-01-16 17:37:52.604071	12.4	15.2	-82.0	0.0
2025-01-16 17:37:53.724826	12.2	15.1	-82.0	0.0
2025-01-16 17:37:54.845899	12.0	15.0	-81.9	0.0
2025-01-16 17:37:55.965800	11.8	15.0	-81.8	0.0
2025-01-16 17:37:57.087785	11.7	14.9	-81.6	0.0
2025-01-16 17:37:58.209886	11.5	14.8	-81.3	0.0
2025-01-16 17:37:59.333488	11.3	14.8	-81.5	0.0
2025-01-16 17:38:00.455687	11.1	14.7	-81.5	0.0
2025-01-16 17:38:01.578159	10.9	14.6	-81.2	0.0
2025-01-16 17:38:02.701650	10.7	14.5	-81.1	0.0
2025-01-16 17:38:03.822564	10.6	14.5	-81.5	0.0
2025-01-16 17:38:04.944625	10.4	14.4	-81.6	0.0
2025-01-16 17:38:06.067968	10.2	14.3	-81.4	0.0
2025-01-16 17:38:07.187239	10.0	14.2	-81.8	0.0
2025-01-16 17:38:08.310751	9.9	14.2	-81.2	0.0
2025-01-16 17:38:09.431059	9.7	14.1	-81.6	0.0
2025-01-16 17:38:10.553032	9.5	14.0	-81.7	0.0
2025-01-16 17:38:11.673679	9.3	14.0	-82.0	0.0
2025-01-16 17:38:12.795460	9.2	13.9	-81.4	0.0
2025-01-16 17:38:13.918245	9.0	13.8	-82.1	0.0
2025-01-16 17:38:15.040664	8.8	13.7	-82.0	0.0
2025-01-16 17:38:16.160665	8.7	13.7	-82.3	0.0
2025-01-16 17:38:17.281220	8.5	13.6	-82.2	0.0
2025-01-16 17:38:18.402916	8.3	13.5	-81.9	0.0
2025-01-16 17:38:19.520262	8.2	13.4	-81.9	0.0
2025-01-16 17:38:20.640539	8.0	13.4	-82.3	0.0
2025-01-16 17:38:21.760582	7.8	13.3	-82.3	0.0
2025-01-16 17:38:22.883248	7.7	13.2	-82.2	0.0
2025-01-16 17:38:24.006401	7.5	13.2	-82.4	0.0
2025-01-16 17:38:25.125900	7.3	13.1	-82.0	0.0
2025-01-16 17:38:26.247625	7.2	13.0	-82.1	0.0
2025-01-16 17:38:27.369191	7.0	12.9	-82.2	0.0
2025-01-16 17:38:28.490415	6.9	12.9	-81.9	0.0
2025-01-16 17:38:29.609781	6.7	12.8	-82.0	0.0
2025-01-16 17:38:30.731424	6.5	12.7	-82.2	0.0
2025-01-16 17:38:31.853823	6.4	12.6	-82.0	0.0
2025-01-16 17:38:32.975229	6.2	12.6	-82.1	0.0
2025-01-16 17:38:34.097311	6.1	12.5	-82.4	0.0
2025-01-16 17:38:35.220169	5.9	12.4	-82.1	0.0
2025-01-16 17:38:36.340813	5.8	12.4	-82.0	0.0
2025-01-16 17:38:37.470231	5.6	12.3	-82.1	0.0
2025-01-16 17:38:38.591662	5.5	12.2	-81.7	0.0
2025-01-16 17:38:39.713332	5.3	12.1	-82.2	0.0
2025-01-16 17:38:40.834156	5.2	12.1	-81.8	0.0
2025-01-16 17:38:41.955244	5.0	12.0	-81.6	0.0
2025-01-16 17:38:43.077337	4.9	11.9	-81.6	0.0
2025-01-16 17:38:44.197709	4.7	11.8	-81.9	0.0
2025-01-16 17:38:45.320972	4.6	11.8	-82.0	0.0
2025-01-16 17:38:46.441500	4.4	11.7	-81.2	0.0
2025-01-16 17:38:47.561681	4.3	11.6	-81.9	0.0
2025-01-16 17:38:48.682044	4.1	11.6	-81.6	0.0
2025-01-16 17:38:49.802302	4.0	11.5	-81.8	0.0
2025-01-16 17:38:50.924097	3.8	11.4	-81.6	0.0
2025-01-16 17:38:52.046384	3.7	11.3	-82.0	0.0
2025-01-16 17:38:53.167210	3.5	11.3	-82.1	0.0
2025-01-16 17:38:54.288489	3.4	11.2	-81.8	0.0
2025-01-16 17:38:55.408615	3.3	11.1	-81.9	0.0
2025-01-16 17:38:56.530138	3.1	11.0	-82.2	0.0
2025-01-16 17:38:57.653236	3.0	11.0	-82.1	0.0
2025-01-16 17:38:58.774297	2.8	10.9	-81.6	0.0
2025-01-16 17:38:59.897212	2.7	10.8	-82.2	0.0
2025-01-16 17:39:01.018736	2.6	10.8	-82.0	0.0
2025-01-16 17:39:02.137849	2.4	10.7	-82.0	0.0
2025-01-16 17:39:03.259730	2.3	10.6	-81.9	0.0
2025-01-16 17:39:04.381945	2.1	10.5	-82.0	0.0
2025-01-16 17:39:05.502027	2.0	10.5	-82.0	0.0
2025-01-16 17:39:06.622997	1.9	10.4	-82.1	0.0
2025-01-16 17:39:07.743555	1.7	10.3	-82.0	0.0
2025-01-16 17:39:08.863178	1.6	10.2	-82.0	0.0
2025-01-16 17:39:09.985342	1.5	10.2	-81.6	0.0
2025-01-16 17:39:11.105506	1.3	10.1	-82.1	0.0
#Closed at: 2025-01-16 17:30:56.153577