passes_logs/2025/01/16/planumMaritime01/planumMaritime01__20250116_131301_METEOR-M2_2_rec.log

#Pass ID: 20250116_131301_METEOR-M2 2
#Satellite: METEOR-M2 2
#Configuration: METEOR-M2 2
#Start time: 2025-01-16 13:13:06.597601

#LorettStation: 1.0.0 05.05.2024
#Station: planumMaritime01
#Location: 37.49445 lon 55.92918 lat
#TLE: 1 44387U 19038A   25015.13828876  .00000204  00000+0  10838-3 0  9991
#TLE: 2 44387  98.8566 351.5379 0002288  78.7412 281.4023 14.24116933287553

#Time	Az	El	Level	SNR
2025-01-16 13:13:08.754161	194.3	10.2	-79.5	0.0
2025-01-16 13:13:11.003060	194.5	10.4	-79.7	0.0
2025-01-16 13:13:13.247930	194.7	10.5	-79.8	0.0
2025-01-16 13:13:15.497589	194.9	10.7	-80.2	0.0
2025-01-16 13:13:17.743841	195.0	10.9	-79.9	0.0
2025-01-16 13:13:19.993331	195.2	11.1	-79.7	0.0
2025-01-16 13:13:22.238758	195.4	11.3	-80.1	0.0
2025-01-16 13:13:24.485634	195.6	11.5	-80.0	0.0
2025-01-16 13:13:26.734326	195.8	11.7	-80.2	0.0
2025-01-16 13:13:28.980604	196.0	11.9	-80.2	0.0
2025-01-16 13:13:31.227227	196.2	12.1	-79.8	0.0
2025-01-16 13:13:33.475446	196.3	12.2	-80.3	0.0
2025-01-16 13:13:35.721278	196.5	12.4	-80.3	0.0
2025-01-16 13:13:37.968516	196.7	12.6	-80.0	0.0
2025-01-16 13:13:40.217308	196.9	12.8	-80.3	0.0
2025-01-16 13:13:42.461316	197.1	13.0	-80.2	0.0
2025-01-16 13:13:44.706551	197.4	13.2	-80.3	0.0
2025-01-16 13:13:46.950183	197.6	13.4	-80.7	0.0
2025-01-16 13:13:49.194873	197.8	13.6	-80.3	0.0
2025-01-16 13:13:51.441404	198.0	13.9	-80.3	0.0
2025-01-16 13:13:53.682232	198.2	14.1	-79.8	0.0
2025-01-16 13:13:55.928170	198.4	14.3	-80.3	0.0
2025-01-16 13:13:58.172409	198.7	14.5	-80.5	0.0
2025-01-16 13:14:00.417234	198.9	14.7	-79.9	0.0
2025-01-16 13:14:02.660878	199.1	14.9	-80.3	0.0
2025-01-16 13:14:04.909338	199.3	15.1	-80.8	0.0
2025-01-16 13:14:07.154508	199.6	15.3	-80.7	0.0
2025-01-16 13:14:09.396447	199.8	15.5	-80.5	0.0
2025-01-16 13:14:11.642284	200.1	15.8	-80.4	0.0
2025-01-16 13:14:13.890121	200.3	16.0	-80.8	0.0
2025-01-16 13:14:16.136608	200.6	16.2	-80.9	0.0
2025-01-16 13:14:18.382920	200.8	16.4	-80.9	0.0
2025-01-16 13:14:20.624909	201.1	16.6	-80.9	0.0
2025-01-16 13:14:22.873419	201.3	16.9	-80.8	0.0
2025-01-16 13:14:25.119174	201.6	17.1	-80.5	0.0
2025-01-16 13:14:27.364300	201.9	17.3	-80.7	0.0
2025-01-16 13:14:29.608792	202.1	17.6	-80.7	0.0
2025-01-16 13:14:31.856807	202.4	17.8	-81.0	0.0
2025-01-16 13:14:34.106155	202.7	18.0	-80.8	0.0
2025-01-16 13:14:36.352051	203.0	18.3	-80.5	0.0
2025-01-16 13:14:38.598794	203.3	18.5	-81.0	0.0
2025-01-16 13:14:40.847942	203.6	18.7	-81.0	0.0
2025-01-16 13:14:43.097653	203.9	19.0	-81.0	0.0
2025-01-16 13:14:45.343531	204.2	19.2	-81.2	0.0
2025-01-16 13:14:47.591434	204.5	19.5	-81.0	0.0
2025-01-16 13:14:49.839036	204.8	19.7	-80.9	0.0
2025-01-16 13:14:52.084233	205.1	20.0	-80.7	0.0
2025-01-16 13:14:54.329388	205.4	20.2	-81.0	0.0
2025-01-16 13:14:56.575009	205.8	20.5	-80.8	0.0
2025-01-16 13:14:58.822147	206.1	20.7	-80.8	0.0
2025-01-16 13:15:01.068750	206.5	21.0	-80.8	0.0
2025-01-16 13:15:03.318422	206.8	21.2	-80.9	0.0
2025-01-16 13:15:05.562900	207.1	21.5	-81.1	0.0
2025-01-16 13:15:07.808325	207.5	21.7	-81.0	0.0
2025-01-16 13:15:10.053862	207.9	22.0	-81.3	0.0
2025-01-16 13:15:12.298542	208.2	22.3	-81.1	0.0
2025-01-16 13:15:14.546183	208.6	22.5	-81.0	0.0
2025-01-16 13:15:16.793008	209.0	22.8	-81.3	0.0
2025-01-16 13:15:19.038278	209.4	23.0	-81.1	0.0
2025-01-16 13:15:21.282497	209.8	23.3	-81.4	0.0
2025-01-16 13:15:23.528581	210.2	23.6	-80.6	0.0
2025-01-16 13:15:25.775455	210.6	23.8	-80.9	0.0
2025-01-16 13:15:28.019543	211.0	24.1	-80.9	0.0
2025-01-16 13:15:30.263566	211.4	24.4	-81.0	0.0
2025-01-16 13:15:32.509433	211.8	24.7	-81.0	0.0
2025-01-16 13:15:34.756063	212.3	24.9	-80.8	0.0
2025-01-16 13:15:37.004126	212.7	25.2	-81.1	0.0
2025-01-16 13:15:39.249111	213.2	25.5	-80.9	0.0
2025-01-16 13:15:41.492681	213.6	25.8	-81.1	0.0
2025-01-16 13:15:43.736726	214.1	26.0	-81.0	0.0
2025-01-16 13:15:45.983649	214.6	26.3	-81.2	0.0
2025-01-16 13:15:48.229324	215.1	26.6	-81.0	0.0
2025-01-16 13:15:50.478658	215.6	26.9	-81.3	0.0
2025-01-16 13:15:52.723216	216.1	27.2	-81.2	0.0
2025-01-16 13:15:54.970298	216.6	27.5	-81.2	0.0
2025-01-16 13:15:57.215287	217.1	27.7	-81.1	0.0
2025-01-16 13:15:59.465643	217.6	28.0	-81.3	0.0
2025-01-16 13:16:01.715333	218.2	28.3	-81.4	0.0
2025-01-16 13:16:03.959337	218.7	28.6	-81.6	0.0
2025-01-16 13:16:06.203090	219.3	28.9	-81.1	0.0
2025-01-16 13:16:08.446924	219.8	29.2	-80.9	0.0
2025-01-16 13:16:10.691964	220.4	29.4	-80.9	0.0
2025-01-16 13:16:12.936036	221.0	29.7	-81.2	0.0
2025-01-16 13:16:15.180735	221.6	30.0	-81.2	0.0
2025-01-16 13:16:17.424133	222.2	30.3	-81.0	0.0
2025-01-16 13:16:19.671466	222.8	30.6	-81.2	0.0
2025-01-16 13:16:21.916571	223.4	30.9	-81.1	0.0
2025-01-16 13:16:24.164895	224.1	31.1	-81.0	0.0
2025-01-16 13:16:26.412433	224.7	31.4	-80.7	0.0
2025-01-16 13:16:28.656739	225.4	31.7	-81.0	0.0
2025-01-16 13:16:30.903199	226.0	32.0	-81.0	0.0
2025-01-16 13:16:33.147965	226.7	32.3	-81.3	0.0
2025-01-16 13:16:35.393447	227.4	32.5	-81.4	0.0
2025-01-16 13:16:37.640055	228.1	32.8	-81.2	0.0
2025-01-16 13:16:39.884978	228.8	33.1	-81.4	0.0
2025-01-16 13:16:42.133707	229.6	33.3	-80.9	0.0
2025-01-16 13:16:44.384669	230.3	33.6	-81.3	0.0
2025-01-16 13:16:46.631315	231.1	33.9	-80.8	0.0
2025-01-16 13:16:48.876433	231.8	34.1	-81.1	0.0
2025-01-16 13:16:51.125331	232.6	34.4	-81.2	0.0
2025-01-16 13:16:53.371061	233.4	34.6	-81.2	0.0
2025-01-16 13:16:55.617662	234.2	34.9	-81.2	0.0
2025-01-16 13:16:57.866266	235.0	35.1	-81.4	0.0
2025-01-16 13:17:00.112270	235.8	35.3	-80.7	0.0
2025-01-16 13:17:02.356775	236.7	35.6	-80.7	0.0
2025-01-16 13:17:04.603980	237.5	35.8	-81.0	0.0
2025-01-16 13:17:06.852780	238.4	36.0	-81.4	0.0
2025-01-16 13:17:09.096785	239.3	36.2	-81.5	0.0
2025-01-16 13:17:11.342192	240.1	36.4	-81.4	0.0
2025-01-16 13:17:13.588298	241.0	36.6	-81.3	0.0
2025-01-16 13:17:15.835024	241.9	36.8	-81.2	0.0
2025-01-16 13:17:18.082180	242.8	37.0	-81.2	0.0
2025-01-16 13:17:20.327018	243.8	37.2	-80.6	0.0
2025-01-16 13:17:22.573438	244.7	37.4	-80.8	0.0
2025-01-16 13:17:24.822742	245.7	37.6	-81.2	0.0
2025-01-16 13:17:27.068494	246.6	37.7	-81.2	0.0
2025-01-16 13:17:29.313853	247.6	37.9	-81.5	0.0
2025-01-16 13:17:31.560170	248.5	38.0	-81.3	0.0
2025-01-16 13:17:33.803363	249.5	38.1	-81.2	0.0
2025-01-16 13:17:36.049961	250.5	38.3	-81.5	0.0
2025-01-16 13:17:38.296252	251.5	38.4	-81.0	0.0
2025-01-16 13:17:40.543062	252.5	38.5	-81.3	0.0
2025-01-16 13:17:42.788910	253.5	38.6	-81.2	0.0
2025-01-16 13:17:45.035630	254.5	38.7	-81.2	0.0
2025-01-16 13:17:47.281719	255.5	38.8	-81.4	0.0
2025-01-16 13:17:49.530113	256.6	38.8	-81.3	0.0
2025-01-16 13:17:51.778516	257.6	38.9	-81.0	0.0
2025-01-16 13:17:54.027833	258.6	38.9	-81.2	0.0
2025-01-16 13:17:56.276163	259.7	39.0	-80.8	0.0
2025-01-16 13:17:58.522461	260.7	39.0	-81.0	0.0
2025-01-16 13:18:00.769192	261.7	39.0	-80.6	0.0
2025-01-16 13:18:03.015669	262.8	39.0	-81.0	0.0
2025-01-16 13:18:05.264317	263.8	39.0	-81.0	0.0
2025-01-16 13:18:07.511175	264.8	39.0	-81.2	0.0
2025-01-16 13:18:09.758381	265.9	39.0	-81.2	0.0
2025-01-16 13:18:12.004102	266.9	39.0	-81.2	0.0
2025-01-16 13:18:14.248733	267.9	38.9	-81.3	0.0
2025-01-16 13:18:16.493459	269.0	38.9	-81.1	0.0
2025-01-16 13:18:18.740354	270.0	38.8	-81.1	0.0
2025-01-16 13:18:20.984040	271.0	38.7	-81.2	0.0
2025-01-16 13:18:23.228425	272.0	38.6	-81.2	0.0
2025-01-16 13:18:25.472797	273.0	38.6	-81.0	0.0
2025-01-16 13:18:27.717018	274.0	38.4	-81.1	0.0
2025-01-16 13:18:29.962090	275.0	38.3	-81.4	0.0
2025-01-16 13:18:32.210808	276.0	38.2	-80.9	0.0
2025-01-16 13:18:34.455241	277.0	38.1	-81.2	0.0
2025-01-16 13:18:36.700550	278.0	37.9	-81.4	0.0
2025-01-16 13:18:38.944460	279.0	37.8	-81.4	0.0
2025-01-16 13:18:41.192306	279.9	37.6	-81.3	0.0
2025-01-16 13:18:43.438606	280.9	37.5	-81.5	0.0
2025-01-16 13:18:45.684479	281.8	37.3	-81.3	0.0
2025-01-16 13:18:47.930227	282.7	37.1	-81.7	0.0
2025-01-16 13:18:50.176362	283.6	37.0	-81.7	0.0
2025-01-16 13:18:52.422277	284.6	36.8	-81.5	0.0
2025-01-16 13:18:54.666963	285.5	36.6	-81.2	0.0
2025-01-16 13:18:56.912711	286.3	36.4	-81.5	0.0
2025-01-16 13:18:59.160080	287.2	36.1	-81.2	0.0
2025-01-16 13:19:01.405170	288.1	35.9	-81.4	0.0
2025-01-16 13:19:03.650840	288.9	35.7	-81.4	0.0
2025-01-16 13:19:05.894523	289.8	35.5	-81.6	0.0
2025-01-16 13:19:08.141503	290.6	35.2	-81.6	0.0
2025-01-16 13:19:10.388571	291.4	35.0	-81.2	0.0
2025-01-16 13:19:12.635172	292.2	34.8	-81.2	0.0
2025-01-16 13:19:14.881141	293.0	34.5	-81.3	0.0
2025-01-16 13:19:17.123583	293.8	34.3	-81.4	0.0
2025-01-16 13:19:19.369549	294.6	34.0	-81.6	0.0
2025-01-16 13:19:21.616432	295.3	33.8	-81.1	0.0
2025-01-16 13:19:23.861198	296.1	33.5	-81.3	0.0
2025-01-16 13:19:26.107790	296.8	33.2	-81.5	0.0
2025-01-16 13:19:28.352024	297.5	33.0	-81.6	0.0
2025-01-16 13:19:30.601388	298.2	32.7	-81.3	0.0
2025-01-16 13:19:32.848462	298.9	32.4	-81.1	0.0
2025-01-16 13:19:35.093009	299.6	32.2	-81.0	0.0
2025-01-16 13:19:37.338332	300.3	31.9	-81.2	0.0
2025-01-16 13:19:39.585275	301.0	31.6	-81.2	0.0
2025-01-16 13:19:41.832630	301.6	31.3	-81.1	0.0
2025-01-16 13:19:44.077984	302.3	31.1	-80.8	0.0
2025-01-16 13:19:46.325792	302.9	30.8	-81.1	0.0
2025-01-16 13:19:48.570139	303.5	30.5	-81.1	0.0
2025-01-16 13:19:50.815967	304.1	30.2	-81.5	0.0
2025-01-16 13:19:53.059054	304.7	29.9	-80.2	0.0
2025-01-16 13:19:55.306657	305.3	29.7	-81.6	0.0
2025-01-16 13:19:57.551611	305.9	29.4	-81.2	0.0
2025-01-16 13:19:59.796437	306.5	29.1	-81.3	0.0
2025-01-16 13:20:02.044202	307.0	28.8	-81.4	0.0
2025-01-16 13:20:04.290965	307.6	28.5	-80.5	0.0
2025-01-16 13:20:06.537086	308.1	28.2	-81.3	0.0
2025-01-16 13:20:08.781506	308.6	28.0	-81.1	0.0
2025-01-16 13:20:11.030276	309.2	27.7	-81.3	0.0
2025-01-16 13:20:13.275937	309.7	27.4	-81.2	0.0
2025-01-16 13:20:15.518941	310.2	27.1	-81.3	0.0
2025-01-16 13:20:17.765578	310.7	26.8	-81.1	0.0
2025-01-16 13:20:20.011727	311.2	26.6	-80.7	0.0
2025-01-16 13:20:22.259156	311.7	26.3	-81.1	0.0
2025-01-16 13:20:24.505683	312.1	26.0	-81.1	0.0
2025-01-16 13:20:26.748939	312.6	25.7	-81.0	0.0
2025-01-16 13:20:28.993048	313.0	25.5	-81.3	0.0
2025-01-16 13:20:31.240342	313.5	25.2	-81.7	0.0
2025-01-16 13:20:33.483952	313.9	24.9	-81.5	0.0
2025-01-16 13:20:35.729096	314.4	24.6	-81.4	0.0
2025-01-16 13:20:37.974129	314.8	24.4	-81.1	0.0
2025-01-16 13:20:40.220882	315.2	24.1	-81.1	0.0
2025-01-16 13:20:42.467675	315.6	23.8	-81.4	0.0
2025-01-16 13:20:44.714440	316.0	23.6	-81.3	0.0
2025-01-16 13:20:46.957154	316.4	23.3	-81.5	0.0
2025-01-16 13:20:49.201562	316.8	23.0	-81.2	0.0
2025-01-16 13:20:51.445656	317.2	22.8	-81.0	0.0
2025-01-16 13:20:53.690654	317.6	22.5	-81.2	0.0
2025-01-16 13:20:55.936426	317.9	22.2	-81.2	0.0
2025-01-16 13:20:58.181315	318.3	22.0	-81.2	0.0
2025-01-16 13:21:00.430502	318.7	21.7	-81.3	0.0
2025-01-16 13:21:02.676261	319.0	21.5	-81.2	0.0
2025-01-16 13:21:04.921827	319.4	21.2	-81.1	0.0
2025-01-16 13:21:07.170901	319.7	21.0	-81.4	0.0
2025-01-16 13:21:09.413630	320.0	20.7	-81.0	0.0
2025-01-16 13:21:11.658010	320.4	20.5	-81.1	0.0
2025-01-16 13:21:13.905999	320.7	20.2	-81.1	0.0
2025-01-16 13:21:16.149878	321.0	20.0	-81.1	0.0
2025-01-16 13:21:18.394341	321.3	19.7	-81.3	0.0
2025-01-16 13:21:20.640217	321.7	19.5	-81.6	0.0
2025-01-16 13:21:22.889889	322.0	19.2	-81.3	0.0
2025-01-16 13:21:25.136423	322.3	19.0	-81.5	0.0
2025-01-16 13:21:27.383022	322.6	18.8	-81.8	0.0
2025-01-16 13:21:29.629454	322.9	18.5	-81.2	0.0
2025-01-16 13:21:31.876555	323.2	18.3	-81.8	0.0
2025-01-16 13:21:34.122484	323.4	18.1	-80.9	0.0
2025-01-16 13:21:36.370103	323.7	17.8	-80.6	0.0
2025-01-16 13:21:38.614186	324.0	17.6	-81.2	0.0
2025-01-16 13:21:40.862159	324.3	17.4	-81.3	0.0
2025-01-16 13:21:43.108182	324.5	17.1	-81.7	0.0
2025-01-16 13:21:45.358347	324.8	16.9	-81.3	0.0
2025-01-16 13:21:47.603960	325.1	16.7	-81.6	0.0
2025-01-16 13:21:49.848528	325.3	16.5	-81.5	0.0
2025-01-16 13:21:52.092644	325.6	16.3	-81.6	0.0
2025-01-16 13:21:54.338653	325.8	16.0	-81.2	0.0
2025-01-16 13:21:56.584383	326.1	15.8	-81.5	0.0
2025-01-16 13:21:58.829160	326.3	15.6	-81.4	0.0
2025-01-16 13:22:01.077775	326.6	15.4	-81.2	0.0
2025-01-16 13:22:03.321869	326.8	15.2	-81.3	0.0
2025-01-16 13:22:05.568497	327.0	15.0	-81.2	0.0
2025-01-16 13:22:07.817362	327.3	14.7	-81.4	0.0
2025-01-16 13:22:10.062748	327.5	14.5	-81.3	0.0
2025-01-16 13:22:12.309670	327.7	14.3	-81.8	0.0
2025-01-16 13:22:14.553271	327.9	14.1	-81.7	0.0
2025-01-16 13:22:16.800086	328.1	13.9	-81.7	0.0
2025-01-16 13:22:19.046177	328.4	13.7	-81.6	0.0
2025-01-16 13:22:21.291971	328.6	13.5	-81.7	0.0
2025-01-16 13:22:23.538558	328.8	13.3	-81.6	0.0
2025-01-16 13:22:25.784907	329.0	13.1	-81.6	0.0
2025-01-16 13:22:28.031999	329.2	12.9	-81.6	0.0
2025-01-16 13:22:30.275207	329.4	12.7	-81.4	0.0
2025-01-16 13:22:32.520434	329.6	12.5	-81.5	0.0
2025-01-16 13:22:34.765653	329.8	12.3	-81.4	0.0
2025-01-16 13:22:37.009162	330.0	12.1	-81.5	0.0
2025-01-16 13:22:39.255440	330.2	11.9	-81.5	0.0
2025-01-16 13:22:41.503290	330.4	11.8	-81.1	0.0
2025-01-16 13:22:43.746808	330.6	11.6	-81.1	0.0
2025-01-16 13:22:45.990635	330.7	11.4	-81.3	0.0
2025-01-16 13:22:48.236491	330.9	11.2	-81.6	0.0
2025-01-16 13:22:50.480060	331.1	11.0	-81.3	0.0
2025-01-16 13:22:52.729602	331.3	10.8	-81.3	0.0
2025-01-16 13:22:54.973803	331.5	10.6	-81.2	0.0
2025-01-16 13:22:57.222376	331.6	10.5	-81.6	0.0
2025-01-16 13:22:59.466050	331.8	10.3	-81.5	0.0
2025-01-16 13:23:01.710821	332.0	10.1	-81.7	0.0
#Closed at: 2025-01-16 13:13:01.600390