passes_logs/2025/01/16/planumMaritime01/planumMaritime01__20250116_103748_METEOR-M2_4_rec.log

#Pass ID: 20250116_103748_METEOR-M2 4
#Satellite: METEOR-M2 4
#Configuration: METEOR-M2 4
#Start time: 2025-01-16 10:37:53.095577

#LorettStation: 1.0.0 05.05.2024
#Station: planumMaritime01
#Location: 37.49445 lon 55.92918 lat
#TLE: 1 59051U 24039A   25015.09829084  .00000075  00000+0  53338-4 0  9998
#TLE: 2 59051  98.6293 338.1069 0006191 224.4882 135.5799 14.22325142 45617

#Time	Az	El	Level	SNR
2025-01-16 10:37:55.250415	132.5	10.2	-80.1	0.0
2025-01-16 10:37:57.496665	132.4	10.4	-79.9	0.0
2025-01-16 10:37:59.742420	132.3	10.6	-80.2	0.0
2025-01-16 10:38:01.989881	132.1	10.7	-80.2	0.0
2025-01-16 10:38:04.238846	132.0	10.9	-80.2	0.0
2025-01-16 10:38:06.484300	131.8	11.1	-80.1	0.0
2025-01-16 10:38:08.718029	131.7	11.3	-80.4	0.0
2025-01-16 10:38:10.964215	131.6	11.5	-79.9	0.0
2025-01-16 10:38:13.211217	131.4	11.7	-80.4	0.0
2025-01-16 10:38:15.457409	131.3	11.9	-80.0	0.0
2025-01-16 10:38:17.704063	131.1	12.1	-80.3	0.0
2025-01-16 10:38:19.949544	131.0	12.3	-80.1	0.0
2025-01-16 10:38:22.197297	130.8	12.5	-80.3	0.0
2025-01-16 10:38:24.443606	130.6	12.7	-80.5	0.0
2025-01-16 10:38:26.691716	130.5	12.9	-80.5	0.0
2025-01-16 10:38:28.936346	130.3	13.1	-80.7	0.0
2025-01-16 10:38:31.179515	130.2	13.4	-80.3	0.0
2025-01-16 10:38:33.427263	130.0	13.6	-80.1	0.0
2025-01-16 10:38:35.673616	129.8	13.8	-80.3	0.0
2025-01-16 10:38:37.917635	129.7	14.0	-80.3	0.0
2025-01-16 10:38:40.161763	129.5	14.2	-80.5	0.0
2025-01-16 10:38:42.408529	129.3	14.4	-80.4	0.0
2025-01-16 10:38:44.657464	129.1	14.6	-80.3	0.0
2025-01-16 10:38:46.901173	128.9	14.9	-80.3	0.0
2025-01-16 10:38:49.146859	128.8	15.1	-80.6	0.0
2025-01-16 10:38:51.394024	128.6	15.3	-80.7	0.0
2025-01-16 10:38:53.639626	128.4	15.5	-80.7	0.0
2025-01-16 10:38:55.883995	128.2	15.8	-80.7	0.0
2025-01-16 10:38:58.127919	128.0	16.0	-80.7	0.0
2025-01-16 10:39:00.372041	127.8	16.2	-80.7	0.0
2025-01-16 10:39:02.620565	127.6	16.5	-80.7	0.0
2025-01-16 10:39:04.865141	127.4	16.7	-80.8	0.0
2025-01-16 10:39:07.109594	127.2	16.9	-80.8	0.0
2025-01-16 10:39:09.357038	127.0	17.2	-81.0	0.0
2025-01-16 10:39:11.602839	126.7	17.4	-80.7	0.0
2025-01-16 10:39:13.848557	126.5	17.7	-81.0	0.0
2025-01-16 10:39:16.096125	126.3	17.9	-80.9	0.0
2025-01-16 10:39:18.340351	126.1	18.1	-80.6	0.0
2025-01-16 10:39:20.586340	125.8	18.4	-80.8	0.0
2025-01-16 10:39:22.832441	125.6	18.6	-80.5	0.0
2025-01-16 10:39:25.079472	125.4	18.9	-80.9	0.0
2025-01-16 10:39:27.324915	125.1	19.2	-80.7	0.0
2025-01-16 10:39:29.570919	124.9	19.4	-80.9	0.0
2025-01-16 10:39:31.816775	124.6	19.7	-80.6	0.0
2025-01-16 10:39:34.062554	124.4	19.9	-80.9	0.0
2025-01-16 10:39:36.311026	124.1	20.2	-80.9	0.0
2025-01-16 10:39:38.555066	123.8	20.5	-81.0	0.0
2025-01-16 10:39:40.798417	123.6	20.7	-81.0	0.0
2025-01-16 10:39:43.045567	123.3	21.0	-80.9	0.0
2025-01-16 10:39:45.294899	123.0	21.3	-81.0	0.0
2025-01-16 10:39:47.541188	122.7	21.5	-80.7	0.0
2025-01-16 10:39:49.786977	122.4	21.8	-80.9	0.0
2025-01-16 10:39:52.033910	122.1	22.1	-80.8	0.0
2025-01-16 10:39:54.281518	121.8	22.4	-80.9	0.0
2025-01-16 10:39:56.528838	121.5	22.7	-80.6	0.0
2025-01-16 10:39:58.774507	121.2	23.0	-80.8	0.0
2025-01-16 10:40:01.022361	120.9	23.2	-80.8	0.0
2025-01-16 10:40:03.268066	120.6	23.5	-80.9	0.0
2025-01-16 10:40:05.513462	120.3	23.8	-81.0	0.0
2025-01-16 10:40:07.759406	119.9	24.1	-80.9	0.0
2025-01-16 10:40:10.007337	119.6	24.4	-80.8	0.0
2025-01-16 10:40:12.254484	119.2	24.7	-80.9	0.0
2025-01-16 10:40:14.500471	118.9	25.0	-80.9	0.0
2025-01-16 10:40:16.742831	118.5	25.3	-80.9	0.0
2025-01-16 10:40:18.988179	118.1	25.6	-80.7	0.0
2025-01-16 10:40:21.236177	117.8	25.9	-80.8	0.0
2025-01-16 10:40:23.481055	117.4	26.3	-80.8	0.0
2025-01-16 10:40:25.727194	117.0	26.6	-80.3	0.0
2025-01-16 10:40:27.974185	116.6	26.9	-80.5	0.0
2025-01-16 10:40:30.223097	116.2	27.2	-80.7	0.0
2025-01-16 10:40:32.470465	115.7	27.5	-80.6	0.0
2025-01-16 10:40:34.715309	115.3	27.8	-80.6	0.0
2025-01-16 10:40:36.963548	114.9	28.2	-80.7	0.0
2025-01-16 10:40:39.208361	114.4	28.5	-80.9	0.0
2025-01-16 10:40:41.452809	114.0	28.8	-80.8	0.0
2025-01-16 10:40:43.701946	113.5	29.1	-81.1	0.0
2025-01-16 10:40:45.949975	113.0	29.5	-80.7	0.0
2025-01-16 10:40:48.197947	112.6	29.8	-80.7	0.0
2025-01-16 10:40:50.442457	112.1	30.1	-80.8	0.0
2025-01-16 10:40:52.689515	111.6	30.5	-80.7	0.0
2025-01-16 10:40:54.937275	111.0	30.8	-80.9	0.0
2025-01-16 10:40:57.181754	110.5	31.1	-80.4	0.0
2025-01-16 10:40:59.430608	110.0	31.5	-80.8	0.0
2025-01-16 10:41:01.677571	109.4	31.8	-81.0	0.0
2025-01-16 10:41:03.922206	108.9	32.2	-80.8	0.0
2025-01-16 10:41:06.166580	108.3	32.5	-80.6	0.0
2025-01-16 10:41:08.413115	107.7	32.8	-80.9	0.0
2025-01-16 10:41:10.657200	107.1	33.2	-80.9	0.0
2025-01-16 10:41:12.903127	106.5	33.5	-80.9	0.0
2025-01-16 10:41:15.147274	105.9	33.9	-80.9	0.0
2025-01-16 10:41:17.393790	105.3	34.2	-81.1	0.0
2025-01-16 10:41:19.639900	104.6	34.6	-81.0	0.0
2025-01-16 10:41:21.887869	104.0	34.9	-81.3	0.0
2025-01-16 10:41:24.134680	103.3	35.2	-81.0	0.0
2025-01-16 10:41:26.385351	102.6	35.6	-81.3	0.0
2025-01-16 10:41:28.634417	101.9	35.9	-80.9	0.0
2025-01-16 10:41:30.882810	101.2	36.3	-80.9	0.0
2025-01-16 10:41:33.127739	100.4	36.6	-80.8	0.0
2025-01-16 10:41:35.372746	99.7	36.9	-80.8	0.0
2025-01-16 10:41:37.617326	98.9	37.3	-80.7	0.0
2025-01-16 10:41:39.863301	98.1	37.6	-80.8	0.0
2025-01-16 10:41:42.109446	97.3	37.9	-81.1	0.0
2025-01-16 10:41:44.359790	96.5	38.2	-80.7	0.0
2025-01-16 10:41:46.608655	95.7	38.5	-81.0	0.0
2025-01-16 10:41:48.853568	94.8	38.9	-81.1	0.0
2025-01-16 10:41:51.099860	94.0	39.2	-80.8	0.0
2025-01-16 10:41:53.346041	93.1	39.5	-80.6	0.0
2025-01-16 10:41:55.593672	92.2	39.8	-80.6	0.0
2025-01-16 10:41:57.842618	91.3	40.1	-80.9	0.0
2025-01-16 10:42:00.085061	90.4	40.4	-81.2	0.0
2025-01-16 10:42:02.329403	89.4	40.6	-81.0	0.0
2025-01-16 10:42:04.576982	88.5	40.9	-81.0	0.0
2025-01-16 10:42:06.823922	87.5	41.2	-80.9	0.0
2025-01-16 10:42:09.071137	86.5	41.4	-81.0	0.0
2025-01-16 10:42:11.317735	85.5	41.7	-81.0	0.0
2025-01-16 10:42:13.563949	84.4	41.9	-80.9	0.0
2025-01-16 10:42:15.809032	83.4	42.2	-81.0	0.0
2025-01-16 10:42:18.054662	82.3	42.4	-80.8	0.0
2025-01-16 10:42:20.301408	81.3	42.6	-81.0	0.0
2025-01-16 10:42:22.546902	80.2	42.8	-80.9	0.0
2025-01-16 10:42:24.796450	79.1	43.0	-80.9	0.0
2025-01-16 10:42:27.040396	78.0	43.2	-80.8	0.0
2025-01-16 10:42:29.285897	76.9	43.4	-80.9	0.0
2025-01-16 10:42:31.533760	75.7	43.5	-80.9	0.0
2025-01-16 10:42:33.779510	74.6	43.7	-81.2	0.0
2025-01-16 10:42:36.026268	73.4	43.8	-81.1	0.0
2025-01-16 10:42:38.273434	72.3	43.9	-81.1	0.0
2025-01-16 10:42:40.516344	71.1	44.0	-81.1	0.0
2025-01-16 10:42:42.760057	69.9	44.1	-81.2	0.0
2025-01-16 10:42:45.006764	68.7	44.2	-81.0	0.0
2025-01-16 10:42:47.251904	67.5	44.3	-81.1	0.0
2025-01-16 10:42:49.498142	66.3	44.3	-81.1	0.0
2025-01-16 10:42:51.744445	65.1	44.4	-81.3	0.0
2025-01-16 10:42:53.988769	63.9	44.4	-81.0	0.0
2025-01-16 10:42:56.235424	62.7	44.4	-81.1	0.0
2025-01-16 10:42:58.481233	61.5	44.4	-81.2	0.0
2025-01-16 10:43:00.726519	60.3	44.4	-81.3	0.0
2025-01-16 10:43:02.975593	59.1	44.4	-81.1	0.0
2025-01-16 10:43:05.220917	57.9	44.3	-81.2	0.0
2025-01-16 10:43:07.464279	56.7	44.3	-81.0	0.0
2025-01-16 10:43:09.709427	55.5	44.2	-81.2	0.0
2025-01-16 10:43:11.951182	54.3	44.1	-81.1	0.0
2025-01-16 10:43:14.197253	53.1	44.0	-81.0	0.0
2025-01-16 10:43:16.440557	52.0	43.9	-81.2	0.0
2025-01-16 10:43:18.687632	50.8	43.8	-81.3	0.0
2025-01-16 10:43:20.933234	49.7	43.6	-81.3	0.0
2025-01-16 10:43:23.182736	48.5	43.5	-81.2	0.0
2025-01-16 10:43:25.428643	47.4	43.3	-81.4	0.0
2025-01-16 10:43:27.672613	46.3	43.2	-81.2	0.0
2025-01-16 10:43:29.918290	45.2	43.0	-81.6	0.0
2025-01-16 10:43:32.164512	44.1	42.8	-81.4	0.0
2025-01-16 10:43:34.408842	43.0	42.6	-81.2	0.0
2025-01-16 10:43:36.652388	41.9	42.4	-81.4	0.0
2025-01-16 10:43:38.897207	40.9	42.1	-81.5	0.0
2025-01-16 10:43:41.140168	39.8	41.9	-81.5	0.0
2025-01-16 10:43:43.384822	38.8	41.7	-81.6	0.0
2025-01-16 10:43:45.631755	37.8	41.4	-81.0	0.0
2025-01-16 10:43:47.874662	36.8	41.1	-81.6	0.0
2025-01-16 10:43:50.118566	35.8	40.9	-81.7	0.0
2025-01-16 10:43:52.366908	34.9	40.6	-81.4	0.0
2025-01-16 10:43:54.614216	33.9	40.3	-81.3	0.0
2025-01-16 10:43:56.862117	33.0	40.0	-81.5	0.0
2025-01-16 10:43:59.105645	32.1	39.7	-81.2	0.0
2025-01-16 10:44:01.348132	31.2	39.4	-81.5	0.0
2025-01-16 10:44:03.593461	30.4	39.1	-81.4	0.0
2025-01-16 10:44:05.839042	29.5	38.8	-81.1	0.0
2025-01-16 10:44:08.083777	28.7	38.5	-81.6	0.0
2025-01-16 10:44:10.333686	27.8	38.2	-81.4	0.0
2025-01-16 10:44:12.579584	27.0	37.9	-80.9	0.0
2025-01-16 10:44:14.828150	26.2	37.5	-81.2	0.0
2025-01-16 10:44:17.073082	25.4	37.2	-81.5	0.0
2025-01-16 10:44:19.318113	24.7	36.9	-81.4	0.0
2025-01-16 10:44:21.564612	23.9	36.6	-81.7	0.0
2025-01-16 10:44:23.812791	23.2	36.2	-81.4	0.0
2025-01-16 10:44:26.056006	22.5	35.9	-81.4	0.0
2025-01-16 10:44:28.300747	21.8	35.6	-81.5	0.0
2025-01-16 10:44:30.545120	21.1	35.2	-81.5	0.0
2025-01-16 10:44:32.793321	20.4	34.9	-81.5	0.0
2025-01-16 10:44:35.042692	19.8	34.5	-81.2	0.0
2025-01-16 10:44:37.288474	19.1	34.2	-80.9	0.0
2025-01-16 10:44:39.532549	18.5	33.9	-81.0	0.0
2025-01-16 10:44:41.777928	17.9	33.5	-80.8	0.0
2025-01-16 10:44:44.023880	17.3	33.2	-81.3	0.0
2025-01-16 10:44:46.271722	16.7	32.8	-81.1	0.0
2025-01-16 10:44:48.515366	16.1	32.5	-81.1	0.0
2025-01-16 10:44:50.760986	15.5	32.1	-81.3	0.0
2025-01-16 10:44:53.007735	15.0	31.8	-81.5	0.0
2025-01-16 10:44:55.251329	14.4	31.5	-81.4	0.0
2025-01-16 10:44:57.496327	13.9	31.1	-81.6	0.0
2025-01-16 10:44:59.740566	13.4	30.8	-81.2	0.0
2025-01-16 10:45:01.987011	12.9	30.5	-81.2	0.0
2025-01-16 10:45:04.230703	12.4	30.1	-81.2	0.0
2025-01-16 10:45:06.474501	11.9	29.8	-81.2	0.0
2025-01-16 10:45:08.719297	11.4	29.5	-81.5	0.0
2025-01-16 10:45:10.968255	10.9	29.1	-81.2	0.0
2025-01-16 10:45:13.210577	10.5	28.8	-81.4	0.0
2025-01-16 10:45:15.453597	10.0	28.5	-81.2	0.0
2025-01-16 10:45:17.697014	9.6	28.2	-81.2	0.0
2025-01-16 10:45:19.941838	9.2	27.8	-81.6	0.0
2025-01-16 10:45:22.186997	8.7	27.5	-81.3	0.0
2025-01-16 10:45:24.432064	8.3	27.2	-81.0	0.0
2025-01-16 10:45:26.677742	7.9	26.9	-81.0	0.0
2025-01-16 10:45:28.922317	7.5	26.6	-81.1	0.0
2025-01-16 10:45:31.169306	7.1	26.3	-81.5	0.0
2025-01-16 10:45:33.415984	6.7	26.0	-81.4	0.0
2025-01-16 10:45:35.660038	6.4	25.7	-81.6	0.0
2025-01-16 10:45:37.907419	6.0	25.3	-81.5	0.0
2025-01-16 10:45:40.154066	5.6	25.0	-81.4	0.0
2025-01-16 10:45:42.399579	5.3	24.7	-81.6	0.0
2025-01-16 10:45:44.647646	4.9	24.4	-81.5	0.0
2025-01-16 10:45:46.892987	4.6	24.2	-81.5	0.0
2025-01-16 10:45:49.136827	4.3	23.9	-81.5	0.0
2025-01-16 10:45:51.378139	3.9	23.6	-81.4	0.0
2025-01-16 10:45:53.622515	3.6	23.3	-81.2	0.0
2025-01-16 10:45:55.866847	3.3	23.0	-81.4	0.0
2025-01-16 10:45:58.111717	3.0	22.7	-81.2	0.0
2025-01-16 10:46:00.355669	2.7	22.4	-81.4	0.0
2025-01-16 10:46:02.602692	2.4	22.1	-81.4	0.0
2025-01-16 10:46:04.846938	2.1	21.9	-81.0	0.0
2025-01-16 10:46:07.093181	1.8	21.6	-81.5	0.0
2025-01-16 10:46:09.337083	1.5	21.3	-81.6	0.0
2025-01-16 10:46:11.581350	1.2	21.0	-81.7	0.0
2025-01-16 10:46:13.826309	1.0	20.8	-81.4	0.0
2025-01-16 10:46:16.071006	0.7	20.5	-81.4	0.0
2025-01-16 10:46:18.315182	0.4	20.2	-81.5	0.0
2025-01-16 10:46:20.557698	0.2	20.0	-81.3	0.0
2025-01-16 10:46:22.800507	359.9	19.7	-81.1	0.0
2025-01-16 10:46:25.044764	359.7	19.5	-81.3	0.0
2025-01-16 10:46:27.290542	359.4	19.2	-81.2	0.0
2025-01-16 10:46:29.535790	359.2	19.0	-81.5	0.0
2025-01-16 10:46:31.780886	359.0	18.7	-81.1	0.0
2025-01-16 10:46:34.028305	358.7	18.5	-81.5	0.0
2025-01-16 10:46:36.275222	358.5	18.2	-81.3	0.0
2025-01-16 10:46:38.522670	358.3	18.0	-81.7	0.0
2025-01-16 10:46:40.768758	358.1	17.7	-81.6	0.0
2025-01-16 10:46:43.011758	357.8	17.5	-81.5	0.0
2025-01-16 10:46:45.254733	357.6	17.2	-81.6	0.0
2025-01-16 10:46:47.501787	357.4	17.0	-81.6	0.0
2025-01-16 10:46:49.747355	357.2	16.8	-81.4	0.0
2025-01-16 10:46:51.991737	357.0	16.5	-81.4	0.0
2025-01-16 10:46:54.238304	356.8	16.3	-81.5	0.0
2025-01-16 10:46:56.482987	356.6	16.1	-81.5	0.0
2025-01-16 10:46:58.726036	356.4	15.8	-81.6	0.0
2025-01-16 10:47:00.970368	356.2	15.6	-81.2	0.0
2025-01-16 10:47:03.219637	356.0	15.4	-81.7	0.0
2025-01-16 10:47:05.465154	355.8	15.2	-81.3	0.0
2025-01-16 10:47:07.711359	355.7	14.9	-81.7	0.0
2025-01-16 10:47:09.957336	355.5	14.7	-81.7	0.0
2025-01-16 10:47:12.206043	355.3	14.5	-81.7	0.0
2025-01-16 10:47:14.450728	355.1	14.3	-81.4	0.0
2025-01-16 10:47:16.696955	355.0	14.1	-81.8	0.0
2025-01-16 10:47:18.941783	354.8	13.9	-81.5	0.0
2025-01-16 10:47:21.189726	354.6	13.6	-81.6	0.0
2025-01-16 10:47:23.436829	354.5	13.4	-81.8	0.0
2025-01-16 10:47:25.682710	354.3	13.2	-81.6	0.0
2025-01-16 10:47:27.930787	354.1	13.0	-81.5	0.0
2025-01-16 10:47:30.180257	354.0	12.8	-81.6	0.0
2025-01-16 10:47:32.423759	353.8	12.6	-81.4	0.0
2025-01-16 10:47:34.670389	353.7	12.4	-81.6	0.0
2025-01-16 10:47:36.917076	353.5	12.2	-81.4	0.0
2025-01-16 10:47:39.163683	353.4	12.0	-81.2	0.0
2025-01-16 10:47:41.411597	353.2	11.8	-81.5	0.0
2025-01-16 10:47:43.659239	353.1	11.6	-81.6	0.0
2025-01-16 10:47:45.901786	352.9	11.4	-81.6	0.0
2025-01-16 10:47:48.148877	352.8	11.2	-81.5	0.0
2025-01-16 10:47:50.394489	352.7	11.0	-81.7	0.0
2025-01-16 10:47:52.638125	352.5	10.8	-81.4	0.0
2025-01-16 10:47:54.882900	352.4	10.6	-81.4	0.0
2025-01-16 10:47:57.127725	352.3	10.5	-81.6	0.0
2025-01-16 10:47:59.371688	352.1	10.3	-81.7	0.0
2025-01-16 10:48:01.619405	352.0	10.1	-81.7	0.0
#Closed at: 2025-01-16 10:37:48.098073