passes_logs/2025/01/16/planumMaritime01/planumMaritime01__20250116_113255_METEOR-M2_2_rec.log

#Pass ID: 20250116_113255_METEOR-M2 2
#Satellite: METEOR-M2 2
#Configuration: METEOR-M2 2
#Start time: 2025-01-16 11:33:00.818601

#LorettStation: 1.0.0 05.05.2024
#Station: planumMaritime01
#Location: 37.49445 lon 55.92918 lat
#TLE: 1 44387U 19038A   25015.13828876  .00000204  00000+0  10838-3 0  9991
#TLE: 2 44387  98.8566 351.5379 0002288  78.7412 281.4023 14.24116933287553

#Time	Az	El	Level	SNR
2025-01-16 11:33:02.969988	133.7	10.2	-78.6	0.0
2025-01-16 11:33:05.215591	133.5	10.4	-79.0	0.0
2025-01-16 11:33:07.464591	133.4	10.6	-79.2	0.0
2025-01-16 11:33:09.708391	133.3	10.8	-79.1	0.0
2025-01-16 11:33:11.955716	133.1	11.0	-80.3	0.0
2025-01-16 11:33:14.204693	133.0	11.1	-79.5	0.0
2025-01-16 11:33:16.452087	132.9	11.3	-80.2	0.0
2025-01-16 11:33:18.698053	132.7	11.5	-80.3	0.0
2025-01-16 11:33:20.941592	132.6	11.7	-79.8	0.0
2025-01-16 11:33:23.187929	132.5	11.9	-79.9	0.0
2025-01-16 11:33:25.433685	132.3	12.1	-80.1	0.0
2025-01-16 11:33:27.681641	132.2	12.4	-79.6	0.0
2025-01-16 11:33:29.930854	132.0	12.6	-78.9	0.0
2025-01-16 11:33:32.174131	131.9	12.8	-79.5	0.0
2025-01-16 11:33:34.422065	131.7	13.0	-80.3	0.0
2025-01-16 11:33:36.667870	131.6	13.2	-80.3	0.0
2025-01-16 11:33:38.914147	131.4	13.4	-80.5	0.0
2025-01-16 11:33:41.157484	131.2	13.6	-79.6	0.0
2025-01-16 11:33:43.405769	131.1	13.8	-80.0	0.0
2025-01-16 11:33:45.658612	130.9	14.1	-79.4	0.0
2025-01-16 11:33:47.903797	130.7	14.3	-80.0	0.0
2025-01-16 11:33:50.149097	130.6	14.5	-80.4	0.0
2025-01-16 11:33:52.394989	130.4	14.7	-80.3	0.0
2025-01-16 11:33:54.641888	130.2	14.9	-80.1	0.0
2025-01-16 11:33:56.889096	130.0	15.2	-80.3	0.0
2025-01-16 11:33:59.133392	129.9	15.4	-80.5	0.0
2025-01-16 11:34:01.379331	129.7	15.6	-80.8	0.0
2025-01-16 11:34:03.625886	129.5	15.9	-79.3	0.0
2025-01-16 11:34:05.871001	129.3	16.1	-79.4	0.0
2025-01-16 11:34:08.118351	129.1	16.3	-79.7	0.0
2025-01-16 11:34:10.363279	128.9	16.6	-79.8	0.0
2025-01-16 11:34:12.609341	128.7	16.8	-79.4	0.0
2025-01-16 11:34:14.853345	128.5	17.1	-79.6	0.0
2025-01-16 11:34:17.100122	128.3	17.3	-79.8	0.0
2025-01-16 11:34:19.342866	128.1	17.5	-80.3	0.0
2025-01-16 11:34:21.587897	127.9	17.8	-79.1	0.0
2025-01-16 11:34:23.829548	127.7	18.0	-80.1	0.0
2025-01-16 11:34:26.076604	127.4	18.3	-80.2	0.0
2025-01-16 11:34:28.324007	127.2	18.6	-79.6	0.0
2025-01-16 11:34:30.568977	127.0	18.8	-80.3	0.0
2025-01-16 11:34:32.816514	126.7	19.1	-80.4	0.0
2025-01-16 11:34:35.063420	126.5	19.3	-80.3	0.0
2025-01-16 11:34:37.309815	126.3	19.6	-80.6	0.0
2025-01-16 11:34:39.553601	126.0	19.9	-80.3	0.0
2025-01-16 11:34:41.802355	125.8	20.1	-80.2	0.0
2025-01-16 11:34:44.049582	125.5	20.4	-80.2	0.0
2025-01-16 11:34:46.296698	125.3	20.7	-80.2	0.0
2025-01-16 11:34:48.542963	125.0	21.0	-79.7	0.0
2025-01-16 11:34:50.787039	124.7	21.2	-80.2	0.0
2025-01-16 11:34:53.032264	124.5	21.5	-79.5	0.0
2025-01-16 11:34:55.281463	124.2	21.8	-80.5	0.0
2025-01-16 11:34:57.524507	123.9	22.1	-79.7	0.0
2025-01-16 11:34:59.767235	123.6	22.4	-80.5	0.0
2025-01-16 11:35:02.012849	123.3	22.7	-80.4	0.0
2025-01-16 11:35:04.254906	123.0	23.0	-80.0	0.0
2025-01-16 11:35:06.499926	122.7	23.2	-80.4	0.0
2025-01-16 11:35:08.745073	122.4	23.5	-80.5	0.0
2025-01-16 11:35:10.994900	122.1	23.8	-80.1	0.0
2025-01-16 11:35:13.240651	121.7	24.2	-80.3	0.0
2025-01-16 11:35:15.485841	121.4	24.5	-80.2	0.0
2025-01-16 11:35:17.730152	121.1	24.8	-80.2	0.0
2025-01-16 11:35:19.975796	120.7	25.1	-80.0	0.0
2025-01-16 11:35:22.220173	120.4	25.4	-80.2	0.0
2025-01-16 11:35:24.464988	120.0	25.7	-80.4	0.0
2025-01-16 11:35:26.710312	119.6	26.0	-80.6	0.0
2025-01-16 11:35:28.955337	119.3	26.3	-80.0	0.0
2025-01-16 11:35:31.198583	118.9	26.7	-80.7	0.0
2025-01-16 11:35:33.446229	118.5	27.0	-80.1	0.0
2025-01-16 11:35:35.694549	118.1	27.3	-80.2	0.0
2025-01-16 11:35:37.938854	117.7	27.7	-79.4	0.0
2025-01-16 11:35:40.189260	117.3	28.0	-80.8	0.0
2025-01-16 11:35:42.432747	116.8	28.3	-80.4	0.0
2025-01-16 11:35:44.679854	116.4	28.7	-80.5	0.0
2025-01-16 11:35:46.927495	116.0	29.0	-80.6	0.0
2025-01-16 11:35:49.173283	115.5	29.4	-80.4	0.0
2025-01-16 11:35:51.419267	115.0	29.7	-80.0	0.0
2025-01-16 11:35:53.666572	114.6	30.0	-79.8	0.0
2025-01-16 11:35:55.913792	114.1	30.4	-79.6	0.0
2025-01-16 11:35:58.161366	113.6	30.7	-80.0	0.0
2025-01-16 11:36:00.403968	113.1	31.1	-80.4	0.0
2025-01-16 11:36:02.648173	112.6	31.5	-80.2	0.0
2025-01-16 11:36:04.893943	112.0	31.8	-80.2	0.0
2025-01-16 11:36:07.138947	111.5	32.2	-80.3	0.0
2025-01-16 11:36:09.390072	111.0	32.5	-80.6	0.0
2025-01-16 11:36:11.638647	110.4	32.9	-80.0	0.0
2025-01-16 11:36:13.888618	109.8	33.3	-80.7	0.0
2025-01-16 11:36:16.135954	109.2	33.6	-80.2	0.0
2025-01-16 11:36:18.380777	108.6	34.0	-80.4	0.0
2025-01-16 11:36:20.628966	108.0	34.3	-80.2	0.0
2025-01-16 11:36:22.876918	107.4	34.7	-80.5	0.0
2025-01-16 11:36:25.121616	106.7	35.1	-80.6	0.0
2025-01-16 11:36:27.369111	106.0	35.4	-80.4	0.0
2025-01-16 11:36:29.617583	105.4	35.8	-81.0	0.0
2025-01-16 11:36:31.860974	104.7	36.2	-80.4	0.0
2025-01-16 11:36:34.107933	104.0	36.5	-80.9	0.0
2025-01-16 11:36:36.351052	103.2	36.9	-80.4	0.0
2025-01-16 11:36:38.600846	102.5	37.3	-80.7	0.0
2025-01-16 11:36:40.845423	101.7	37.6	-80.1	0.0
2025-01-16 11:36:43.092621	101.0	38.0	-79.8	0.0
2025-01-16 11:36:45.340055	100.2	38.3	-79.9	0.0
2025-01-16 11:36:47.586725	99.4	38.7	-80.7	0.0
2025-01-16 11:36:49.834102	98.5	39.0	-81.2	0.0
2025-01-16 11:36:52.080622	97.7	39.4	-80.1	0.0
2025-01-16 11:36:54.324642	96.8	39.7	-80.2	0.0
2025-01-16 11:36:56.570941	96.0	40.0	-80.5	0.0
2025-01-16 11:36:58.818296	95.1	40.4	-80.9	0.0
2025-01-16 11:37:01.065076	94.1	40.7	-80.5	0.0
2025-01-16 11:37:03.309916	93.2	41.0	-80.9	0.0
2025-01-16 11:37:05.559931	92.2	41.3	-80.3	0.0
2025-01-16 11:37:07.806373	91.3	41.7	-80.3	0.0
2025-01-16 11:37:10.051885	90.3	42.0	-80.3	0.0
2025-01-16 11:37:12.296556	89.3	42.3	-80.5	0.0
2025-01-16 11:37:14.543528	88.2	42.5	-80.9	0.0
2025-01-16 11:37:16.787684	87.2	42.8	-80.8	0.0
2025-01-16 11:37:19.031250	86.1	43.1	-80.7	0.0
2025-01-16 11:37:21.275765	85.0	43.4	-80.4	0.0
2025-01-16 11:37:23.522304	83.9	43.6	-81.1	0.0
2025-01-16 11:37:25.768429	82.8	43.8	-80.5	0.0
2025-01-16 11:37:28.017640	81.7	44.1	-80.7	0.0
2025-01-16 11:37:30.263426	80.5	44.3	-80.4	0.0
2025-01-16 11:37:32.509059	79.4	44.5	-80.8	0.0
2025-01-16 11:37:34.752777	78.2	44.7	-80.5	0.0
2025-01-16 11:37:36.996519	77.0	44.9	-80.6	0.0
2025-01-16 11:37:39.241079	75.8	45.0	-80.8	0.0
2025-01-16 11:37:41.487725	74.6	45.2	-80.7	0.0
2025-01-16 11:37:43.731441	73.3	45.3	-80.4	0.0
2025-01-16 11:37:45.978159	72.1	45.5	-80.7	0.0
2025-01-16 11:37:48.225013	70.8	45.6	-80.7	0.0
2025-01-16 11:37:50.469841	69.6	45.7	-80.9	0.0
2025-01-16 11:37:52.717527	68.3	45.7	-80.9	0.0
2025-01-16 11:37:54.965572	67.0	45.8	-80.9	0.0
2025-01-16 11:37:57.212498	65.8	45.9	-80.7	0.0
2025-01-16 11:37:59.454615	64.5	45.9	-80.4	0.0
2025-01-16 11:38:01.701093	63.2	45.9	-80.6	0.0
2025-01-16 11:38:03.945825	61.9	45.9	-80.9	0.0
2025-01-16 11:38:06.192458	60.6	45.9	-80.4	0.0
2025-01-16 11:38:08.437475	59.3	45.9	-80.5	0.0
2025-01-16 11:38:10.682644	58.1	45.8	-81.2	0.0
2025-01-16 11:38:12.933043	56.8	45.8	-80.7	0.0
2025-01-16 11:38:15.176388	55.5	45.7	-81.2	0.0
2025-01-16 11:38:17.422532	54.3	45.6	-81.0	0.0
2025-01-16 11:38:19.668388	53.0	45.5	-80.6	0.0
2025-01-16 11:38:21.911422	51.8	45.4	-80.9	0.0
2025-01-16 11:38:24.157924	50.5	45.2	-81.0	0.0
2025-01-16 11:38:26.402716	49.3	45.1	-81.0	0.0
2025-01-16 11:38:28.652313	48.1	44.9	-81.4	0.0
2025-01-16 11:38:30.896463	46.9	44.7	-80.5	0.0
2025-01-16 11:38:33.142132	45.7	44.6	-80.7	0.0
2025-01-16 11:38:35.385103	44.6	44.3	-81.4	0.0
2025-01-16 11:38:37.628987	43.4	44.1	-81.1	0.0
2025-01-16 11:38:39.873943	42.3	43.9	-81.0	0.0
2025-01-16 11:38:42.120685	41.1	43.7	-81.4	0.0
2025-01-16 11:38:44.363159	40.0	43.4	-81.3	0.0
2025-01-16 11:38:46.609817	39.0	43.2	-81.1	0.0
2025-01-16 11:38:48.856631	37.9	42.9	-81.1	0.0
2025-01-16 11:38:51.102484	36.8	42.6	-80.8	0.0
2025-01-16 11:38:53.349808	35.8	42.3	-81.4	0.0
2025-01-16 11:38:55.598054	34.8	42.0	-81.3	0.0
2025-01-16 11:38:57.843826	33.8	41.7	-81.1	0.0
2025-01-16 11:39:00.088016	32.8	41.4	-81.0	0.0
2025-01-16 11:39:02.334710	31.9	41.1	-81.4	0.0
2025-01-16 11:39:04.584363	30.9	40.8	-80.7	0.0
2025-01-16 11:39:06.834850	30.0	40.5	-81.1	0.0
2025-01-16 11:39:09.078966	29.1	40.2	-81.4	0.0
2025-01-16 11:39:11.326799	28.2	39.8	-81.5	0.0
2025-01-16 11:39:13.571196	27.3	39.5	-81.1	0.0
2025-01-16 11:39:15.816753	26.5	39.1	-81.4	0.0
2025-01-16 11:39:18.065805	25.7	38.8	-81.5	0.0
2025-01-16 11:39:20.313600	24.9	38.4	-81.5	0.0
2025-01-16 11:39:22.562142	24.1	38.1	-81.2	0.0
2025-01-16 11:39:24.807058	23.3	37.7	-81.5	0.0
2025-01-16 11:39:27.052768	22.5	37.4	-81.2	0.0
2025-01-16 11:39:29.300186	21.8	37.0	-81.2	0.0
2025-01-16 11:39:31.546026	21.1	36.7	-81.4	0.0
2025-01-16 11:39:33.793298	20.4	36.3	-81.2	0.0
2025-01-16 11:39:36.039002	19.7	35.9	-81.6	0.0
2025-01-16 11:39:38.282721	19.0	35.6	-81.5	0.0
2025-01-16 11:39:40.528482	18.3	35.2	-81.6	0.0
2025-01-16 11:39:42.774919	17.7	34.8	-81.4	0.0
2025-01-16 11:39:45.021736	17.0	34.5	-81.2	0.0
2025-01-16 11:39:47.267097	16.4	34.1	-81.3	0.0
2025-01-16 11:39:49.513831	15.8	33.8	-81.2	0.0
2025-01-16 11:39:51.761542	15.2	33.4	-81.3	0.0
2025-01-16 11:39:54.007073	14.6	33.0	-81.2	0.0
2025-01-16 11:39:56.253746	14.1	32.7	-81.2	0.0
2025-01-16 11:39:58.498492	13.5	32.3	-81.5	0.0
2025-01-16 11:40:00.747374	13.0	32.0	-81.0	0.0
2025-01-16 11:40:02.995836	12.4	31.6	-81.4	0.0
2025-01-16 11:40:05.242531	11.9	31.2	-81.1	0.0
2025-01-16 11:40:07.489466	11.4	30.9	-81.2	0.0
2025-01-16 11:40:09.737862	10.9	30.5	-80.8	0.0
2025-01-16 11:40:11.985293	10.4	30.2	-81.2	0.0
2025-01-16 11:40:14.228144	10.0	29.8	-81.2	0.0
2025-01-16 11:40:16.473646	9.5	29.5	-81.1	0.0
2025-01-16 11:40:18.723202	9.0	29.2	-81.4	0.0
2025-01-16 11:40:20.969003	8.6	28.8	-81.2	0.0
2025-01-16 11:40:23.215902	8.2	28.5	-81.5	0.0
2025-01-16 11:40:25.459914	7.7	28.1	-81.4	0.0
2025-01-16 11:40:27.706513	7.3	27.8	-81.8	0.0
2025-01-16 11:40:29.953547	6.9	27.5	-81.5	0.0
2025-01-16 11:40:32.199055	6.5	27.2	-81.3	0.0
2025-01-16 11:40:34.446665	6.1	26.8	-81.4	0.0
2025-01-16 11:40:36.693355	5.7	26.5	-81.5	0.0
2025-01-16 11:40:38.938346	5.4	26.2	-81.3	0.0
2025-01-16 11:40:41.180883	5.0	25.9	-81.3	0.0
2025-01-16 11:40:43.424693	4.6	25.6	-81.7	0.0
2025-01-16 11:40:45.668655	4.3	25.2	-81.0	0.0
2025-01-16 11:40:47.911228	3.9	24.9	-81.2	0.0
2025-01-16 11:40:50.155964	3.6	24.6	-81.4	0.0
2025-01-16 11:40:52.399553	3.3	24.3	-81.5	0.0
2025-01-16 11:40:54.644030	2.9	24.0	-81.4	0.0
2025-01-16 11:40:56.889406	2.6	23.7	-81.7	0.0
2025-01-16 11:40:59.137564	2.3	23.4	-81.4	0.0
2025-01-16 11:41:01.381038	2.0	23.1	-81.4	0.0
2025-01-16 11:41:03.627797	1.7	22.8	-81.5	0.0
2025-01-16 11:41:05.875454	1.4	22.5	-81.4	0.0
2025-01-16 11:41:08.123812	1.1	22.2	-81.7	0.0
2025-01-16 11:41:10.371452	0.8	22.0	-81.0	0.0
2025-01-16 11:41:12.618801	0.6	21.7	-81.2	0.0
2025-01-16 11:41:14.863584	0.3	21.4	-81.2	0.0
2025-01-16 11:41:17.110187	0.0	21.1	-81.2	0.0
2025-01-16 11:41:19.356382	359.8	20.8	-81.3	0.0
2025-01-16 11:41:21.606699	359.5	20.6	-81.2	0.0
2025-01-16 11:41:23.852731	359.2	20.3	-81.4	0.0
2025-01-16 11:41:26.098700	359.0	20.0	-81.5	0.0
2025-01-16 11:41:28.344080	358.7	19.8	-81.5	0.0
2025-01-16 11:41:30.590172	358.5	19.5	-81.6	0.0
2025-01-16 11:41:32.835245	358.3	19.2	-81.6	0.0
2025-01-16 11:41:35.082889	358.0	19.0	-81.3	0.0
2025-01-16 11:41:37.329940	357.8	18.7	-81.6	0.0
2025-01-16 11:41:39.574843	357.6	18.5	-81.7	0.0
2025-01-16 11:41:41.821558	357.4	18.2	-81.1	0.0
2025-01-16 11:41:44.067830	357.1	18.0	-81.7	0.0
2025-01-16 11:41:46.315535	356.9	17.7	-81.5	0.0
2025-01-16 11:41:48.562905	356.7	17.5	-81.6	0.0
2025-01-16 11:41:50.808293	356.5	17.2	-80.8	0.0
2025-01-16 11:41:53.053979	356.3	17.0	-81.3	0.0
2025-01-16 11:41:55.302465	356.1	16.7	-81.4	0.0
2025-01-16 11:41:57.546019	355.9	16.5	-81.2	0.0
2025-01-16 11:41:59.792193	355.7	16.3	-81.1	0.0
2025-01-16 11:42:02.036996	355.5	16.0	-80.8	0.0
2025-01-16 11:42:04.283398	355.4	15.8	-81.1	0.0
2025-01-16 11:42:06.527670	355.2	15.6	-81.2	0.0
2025-01-16 11:42:08.771415	355.0	15.3	-81.7	0.0
2025-01-16 11:42:11.017817	354.8	15.1	-81.8	0.0
2025-01-16 11:42:13.261567	354.6	14.9	-81.7	0.0
2025-01-16 11:42:15.508211	354.5	14.7	-81.6	0.0
2025-01-16 11:42:17.756286	354.3	14.4	-81.5	0.0
2025-01-16 11:42:20.001225	354.1	14.2	-81.6	0.0
2025-01-16 11:42:22.245964	354.0	14.0	-81.5	0.0
2025-01-16 11:42:24.488858	353.8	13.8	-81.1	0.0
2025-01-16 11:42:26.732097	353.7	13.6	-81.6	0.0
2025-01-16 11:42:28.975625	353.5	13.4	-81.5	0.0
2025-01-16 11:42:31.221555	353.3	13.2	-81.2	0.0
2025-01-16 11:42:33.466486	353.2	12.9	-81.6	0.0
2025-01-16 11:42:35.714878	353.0	12.7	-81.4	0.0
2025-01-16 11:42:37.960759	352.9	12.5	-81.3	0.0
2025-01-16 11:42:40.207049	352.7	12.3	-81.4	0.0
2025-01-16 11:42:42.453009	352.6	12.1	-81.3	0.0
2025-01-16 11:42:44.697177	352.5	11.9	-81.5	0.0
2025-01-16 11:42:46.940796	352.3	11.7	-81.0	0.0
2025-01-16 11:42:49.189545	352.2	11.5	-81.3	0.0
2025-01-16 11:42:51.435658	352.1	11.3	-81.4	0.0
2025-01-16 11:42:53.678850	351.9	11.1	-81.2	0.0
2025-01-16 11:42:55.924862	351.8	10.9	-80.9	0.0
2025-01-16 11:42:58.171824	351.7	10.7	-80.8	0.0
2025-01-16 11:43:00.418295	351.5	10.6	-81.1	0.0
2025-01-16 11:43:02.664523	351.4	10.4	-80.7	0.0
2025-01-16 11:43:04.910453	351.3	10.2	-80.8	0.0
#Closed at: 2025-01-16 11:32:55.820467