passes_logs/2025/01/16/planumMaritime01/planumMaritime01__20250116_205159_NOAA_18_rec.log

#Pass ID: 20250116_205159_NOAA 18
#Satellite: NOAA 18
#Configuration: NOAA 18
#Start time: 2025-01-16 20:52:04.850346

#LorettStation: 1.0.0 05.05.2024
#Station: planumMaritime01
#Location: 37.49445 lon 55.92918 lat
#TLE: 1 28654U 05018A   25016.15379782  .00000321  00000+0  19399-3 0  9994
#TLE: 2 28654  98.8565  97.1968 0014416 175.9109 184.2183 14.13487365 13346

#Time	Az	El	Level	SNR
2025-01-16 20:52:07.011007	220.6	10.1	-81.1	0.0
2025-01-16 20:52:09.254508	220.9	10.3	-81.3	0.0
2025-01-16 20:52:11.499395	221.1	10.4	-80.4	0.0
2025-01-16 20:52:13.745297	221.4	10.6	-80.5	0.0
2025-01-16 20:52:15.988388	221.7	10.7	-81.3	0.0
2025-01-16 20:52:18.230236	222.0	10.9	-81.2	0.0
2025-01-16 20:52:20.472393	222.3	11.0	-81.6	0.0
2025-01-16 20:52:22.716630	222.5	11.1	-81.5	0.0
2025-01-16 20:52:24.954845	222.8	11.3	-81.6	0.0
2025-01-16 20:52:27.197353	223.1	11.4	-81.3	0.0
2025-01-16 20:52:29.437922	223.4	11.6	-81.1	0.0
2025-01-16 20:52:31.679778	223.7	11.7	-81.1	0.0
2025-01-16 20:52:33.923088	224.0	11.9	-81.2	0.0
2025-01-16 20:52:36.166066	224.3	12.0	-81.4	0.0
2025-01-16 20:52:38.409228	224.6	12.2	-81.3	0.0
2025-01-16 20:52:40.653109	224.9	12.3	-81.4	0.0
2025-01-16 20:52:42.890695	225.2	12.4	-81.0	0.0
2025-01-16 20:52:45.133743	225.6	12.6	-81.5	0.0
2025-01-16 20:52:47.377003	225.9	12.7	-81.2	0.0
2025-01-16 20:52:49.619154	226.2	12.9	-81.3	0.0
2025-01-16 20:52:51.860889	226.5	13.0	-80.6	0.0
2025-01-16 20:52:54.105094	226.8	13.2	-81.4	0.0
2025-01-16 20:52:56.347203	227.2	13.3	-81.6	0.0
2025-01-16 20:52:58.589085	227.5	13.5	-81.7	0.0
2025-01-16 20:53:00.832697	227.8	13.6	-80.3	0.0
2025-01-16 20:53:03.074570	228.2	13.8	-81.4	0.0
2025-01-16 20:53:05.317877	228.5	13.9	-81.7	0.0
2025-01-16 20:53:07.558501	228.9	14.0	-81.8	0.0
2025-01-16 20:53:09.804882	229.2	14.2	-81.7	0.0
2025-01-16 20:53:12.047360	229.6	14.3	-81.6	0.0
2025-01-16 20:53:14.290507	229.9	14.5	-81.7	0.0
2025-01-16 20:53:16.531964	230.3	14.6	-82.0	0.0
2025-01-16 20:53:18.772026	230.6	14.8	-81.6	0.0
2025-01-16 20:53:21.018844	231.0	14.9	-81.9	0.0
2025-01-16 20:53:23.257986	231.4	15.1	-81.5	0.0
2025-01-16 20:53:25.499654	231.7	15.2	-80.9	0.0
2025-01-16 20:53:27.742689	232.1	15.3	-81.6	0.0
2025-01-16 20:53:29.985636	232.5	15.5	-81.6	0.0
2025-01-16 20:53:32.231695	232.9	15.6	-82.0	0.0
2025-01-16 20:53:34.478056	233.3	15.8	-81.9	0.0
2025-01-16 20:53:36.719747	233.7	15.9	-82.0	0.0
2025-01-16 20:53:38.961252	234.0	16.1	-81.8	0.0
2025-01-16 20:53:41.205868	234.4	16.2	-81.9	0.0
2025-01-16 20:53:43.450137	234.8	16.3	-81.9	0.0
2025-01-16 20:53:45.693069	235.2	16.5	-81.5	0.0
2025-01-16 20:53:47.938736	235.7	16.6	-81.7	0.0
2025-01-16 20:53:50.180111	236.1	16.8	-81.9	0.0
2025-01-16 20:53:52.423668	236.5	16.9	-81.7	0.0
2025-01-16 20:53:54.669339	236.9	17.0	-81.7	0.0
2025-01-16 20:53:56.912936	237.3	17.2	-81.7	0.0
2025-01-16 20:53:59.156901	237.7	17.3	-81.8	0.0
2025-01-16 20:54:01.398156	238.2	17.4	-81.7	0.0
2025-01-16 20:54:03.641973	238.6	17.6	-81.4	0.0
2025-01-16 20:54:05.883861	239.0	17.7	-81.3	0.0
2025-01-16 20:54:08.125801	239.5	17.8	-81.5	0.0
2025-01-16 20:54:10.366206	239.9	18.0	-81.6	0.0
2025-01-16 20:54:12.609250	240.4	18.1	-81.7	0.0
2025-01-16 20:54:14.852558	240.8	18.2	-81.9	0.0
2025-01-16 20:54:17.094008	241.3	18.4	-81.9	0.0
2025-01-16 20:54:19.339418	241.7	18.5	-81.7	0.0
2025-01-16 20:54:21.586866	242.2	18.6	-81.9	0.0
2025-01-16 20:54:23.831838	242.7	18.7	-81.3	0.0
2025-01-16 20:54:26.074441	243.1	18.9	-81.7	0.0
2025-01-16 20:54:28.313844	243.6	19.0	-80.8	0.0
2025-01-16 20:54:30.552454	244.1	19.1	-81.3	0.0
2025-01-16 20:54:32.796031	244.6	19.2	-81.5	0.0
2025-01-16 20:54:35.040968	245.1	19.3	-81.8	0.0
2025-01-16 20:54:37.283228	245.5	19.5	-81.5	0.0
2025-01-16 20:54:39.523400	246.0	19.6	-82.3	0.0
2025-01-16 20:54:41.767898	246.5	19.7	-82.0	0.0
2025-01-16 20:54:44.009670	247.0	19.8	-82.0	0.0
2025-01-16 20:54:46.253986	247.5	19.9	-82.1	0.0
2025-01-16 20:54:48.496890	248.0	20.0	-82.0	0.0
2025-01-16 20:54:50.740022	248.6	20.1	-82.1	0.0
2025-01-16 20:54:52.982106	249.1	20.2	-81.5	0.0
2025-01-16 20:54:55.223137	249.6	20.3	-82.1	0.0
2025-01-16 20:54:57.470126	250.1	20.4	-82.0	0.0
2025-01-16 20:54:59.715971	250.6	20.5	-82.0	0.0
2025-01-16 20:55:01.957423	251.2	20.6	-82.1	0.0
2025-01-16 20:55:04.199941	251.7	20.7	-81.6	0.0
2025-01-16 20:55:06.441549	252.2	20.8	-81.7	0.0
2025-01-16 20:55:08.685322	252.7	20.9	-81.9	0.0
2025-01-16 20:55:10.927804	253.3	21.0	-81.5	0.0
2025-01-16 20:55:13.169976	253.8	21.1	-81.8	0.0
2025-01-16 20:55:15.412034	254.4	21.2	-81.7	0.0
2025-01-16 20:55:17.658158	254.9	21.3	-81.9	0.0
2025-01-16 20:55:19.900317	255.5	21.3	-82.4	0.0
2025-01-16 20:55:22.141771	256.0	21.4	-82.3	0.0
2025-01-16 20:55:24.384874	256.6	21.5	-82.2	0.0
2025-01-16 20:55:26.625408	257.1	21.6	-82.4	0.0
2025-01-16 20:55:28.868083	257.7	21.6	-82.2	0.0
2025-01-16 20:55:31.114206	258.3	21.7	-81.5	0.0
2025-01-16 20:55:33.356913	258.8	21.8	-81.8	0.0
2025-01-16 20:55:35.601332	259.4	21.8	-82.1	0.0
2025-01-16 20:55:37.845285	260.0	21.9	-82.2	0.0
2025-01-16 20:55:40.087001	260.5	21.9	-82.3	0.0
2025-01-16 20:55:42.329014	261.1	22.0	-82.1	0.0
2025-01-16 20:55:44.572171	261.7	22.0	-81.8	0.0
2025-01-16 20:55:46.815783	262.3	22.1	-82.1	0.0
2025-01-16 20:55:49.056652	262.8	22.1	-82.4	0.0
2025-01-16 20:55:51.296659	263.4	22.2	-82.2	0.0
2025-01-16 20:55:53.540070	264.0	22.2	-82.3	0.0
2025-01-16 20:55:55.782883	264.6	22.2	-81.9	0.0
2025-01-16 20:55:58.024177	265.2	22.3	-82.1	0.0
2025-01-16 20:56:00.271933	265.8	22.3	-81.7	0.0
2025-01-16 20:56:02.515120	266.3	22.3	-82.5	0.0
2025-01-16 20:56:04.760926	266.9	22.4	-82.1	0.0
2025-01-16 20:56:07.004939	267.5	22.4	-82.0	0.0
2025-01-16 20:56:09.249320	268.1	22.4	-81.5	0.0
2025-01-16 20:56:11.493165	268.7	22.4	-82.0	0.0
2025-01-16 20:56:13.735522	269.3	22.4	-82.0	0.0
2025-01-16 20:56:15.979113	269.9	22.4	-81.8	0.0
2025-01-16 20:56:18.222490	270.5	22.4	-81.9	0.0
2025-01-16 20:56:20.466166	271.1	22.4	-81.9	0.0
2025-01-16 20:56:22.709256	271.7	22.4	-81.9	0.0
2025-01-16 20:56:24.950444	272.2	22.4	-81.8	0.0
2025-01-16 20:56:27.194580	272.8	22.4	-81.0	0.0
2025-01-16 20:56:29.436791	273.4	22.4	-82.2	0.0
2025-01-16 20:56:31.681044	274.0	22.4	-82.3	0.0
2025-01-16 20:56:33.922463	274.6	22.4	-82.2	0.0
2025-01-16 20:56:36.163967	275.2	22.4	-82.4	0.0
2025-01-16 20:56:38.403661	275.8	22.3	-82.2	0.0
2025-01-16 20:56:40.644362	276.4	22.3	-82.3	0.0
2025-01-16 20:56:42.886849	276.9	22.3	-82.1	0.0
2025-01-16 20:56:45.130295	277.5	22.3	-82.3	0.0
2025-01-16 20:56:47.376247	278.1	22.2	-81.9	0.0
2025-01-16 20:56:49.619013	278.7	22.2	-82.3	0.0
2025-01-16 20:56:51.860902	279.3	22.1	-81.9	0.0
2025-01-16 20:56:54.104593	279.9	22.1	-82.2	0.0
2025-01-16 20:56:56.345889	280.4	22.1	-81.9	0.0
2025-01-16 20:56:58.591093	281.0	22.0	-81.9	0.0
2025-01-16 20:57:00.832282	281.6	22.0	-82.0	0.0
2025-01-16 20:57:03.075637	282.2	21.9	-81.8	0.0
2025-01-16 20:57:05.319727	282.7	21.8	-82.0	0.0
2025-01-16 20:57:07.564033	283.3	21.8	-81.9	0.0
2025-01-16 20:57:09.809954	283.9	21.7	-82.2	0.0
2025-01-16 20:57:12.053663	284.4	21.7	-82.1	0.0
2025-01-16 20:57:14.298518	285.0	21.6	-82.4	0.0
2025-01-16 20:57:16.538992	285.5	21.5	-82.2	0.0
2025-01-16 20:57:18.783204	286.1	21.4	-82.3	0.0
2025-01-16 20:57:21.027671	286.7	21.4	-82.4	0.0
2025-01-16 20:57:23.272756	287.2	21.3	-82.2	0.0
2025-01-16 20:57:25.515340	287.8	21.2	-82.7	0.0
2025-01-16 20:57:27.761477	288.3	21.1	-82.6	0.0
2025-01-16 20:57:30.004129	288.8	21.0	-82.3	0.0
2025-01-16 20:57:32.245911	289.4	21.0	-82.5	0.0
2025-01-16 20:57:34.485997	289.9	20.9	-82.3	0.0
2025-01-16 20:57:36.730902	290.5	20.8	-82.0	0.0
2025-01-16 20:57:38.972188	291.0	20.7	-82.5	0.0
2025-01-16 20:57:41.213725	291.5	20.6	-82.5	0.0
2025-01-16 20:57:43.455005	292.0	20.5	-82.3	0.0
2025-01-16 20:57:45.698174	292.6	20.4	-82.4	0.0
2025-01-16 20:57:47.941156	293.1	20.3	-82.7	0.0
2025-01-16 20:57:50.179384	293.6	20.2	-82.4	0.0
2025-01-16 20:57:52.423972	294.1	20.1	-82.5	0.0
2025-01-16 20:57:54.666815	294.6	20.0	-82.5	0.0
2025-01-16 20:57:56.910833	295.1	19.9	-82.4	0.0
2025-01-16 20:57:59.154983	295.6	19.7	-82.5	0.0
2025-01-16 20:58:01.397437	296.1	19.6	-82.3	0.0
2025-01-16 20:58:03.641633	296.6	19.5	-82.1	0.0
2025-01-16 20:58:05.882746	297.1	19.4	-82.0	0.0
2025-01-16 20:58:08.123588	297.6	19.3	-82.6	0.0
2025-01-16 20:58:10.366793	298.1	19.2	-82.7	0.0
2025-01-16 20:58:12.607355	298.5	19.0	-82.3	0.0
2025-01-16 20:58:14.848113	299.0	18.9	-82.4	0.0
2025-01-16 20:58:17.091673	299.5	18.8	-81.8	0.0
2025-01-16 20:58:19.333020	299.9	18.7	-82.1	0.0
2025-01-16 20:58:21.573884	300.4	18.6	-82.3	0.0
2025-01-16 20:58:23.816476	300.9	18.4	-82.3	0.0
2025-01-16 20:58:26.057679	301.3	18.3	-82.5	0.0
2025-01-16 20:58:28.300263	301.8	18.2	-82.5	0.0
2025-01-16 20:58:30.542700	302.2	18.0	-82.7	0.0
2025-01-16 20:58:32.782999	302.7	17.9	-82.8	0.0
2025-01-16 20:58:35.026281	303.1	17.8	-82.3	0.0
2025-01-16 20:58:37.270097	303.5	17.6	-82.2	0.0
2025-01-16 20:58:39.516797	304.0	17.5	-82.7	0.0
2025-01-16 20:58:41.758476	304.4	17.4	-82.5	0.0
2025-01-16 20:58:44.000209	304.8	17.2	-82.5	0.0
2025-01-16 20:58:46.241084	305.3	17.1	-82.3	0.0
2025-01-16 20:58:48.482974	305.7	17.0	-82.2	0.0
2025-01-16 20:58:50.725949	306.1	16.8	-82.3	0.0
2025-01-16 20:58:52.965744	306.5	16.7	-82.1	0.0
2025-01-16 20:58:55.206302	306.9	16.6	-82.6	0.0
2025-01-16 20:58:57.450846	307.3	16.4	-82.7	0.0
2025-01-16 20:58:59.695617	307.7	16.3	-82.7	0.0
2025-01-16 20:59:01.936448	308.1	16.1	-82.4	0.0
2025-01-16 20:59:04.178186	308.5	16.0	-82.3	0.0
2025-01-16 20:59:06.423131	308.9	15.9	-82.4	0.0
2025-01-16 20:59:08.667663	309.3	15.7	-82.5	0.0
2025-01-16 20:59:10.906842	309.7	15.6	-82.4	0.0
2025-01-16 20:59:13.147219	310.1	15.4	-82.6	0.0
2025-01-16 20:59:15.390761	310.4	15.3	-82.2	0.0
2025-01-16 20:59:17.634826	310.8	15.1	-82.4	0.0
2025-01-16 20:59:19.880345	311.2	15.0	-82.2	0.0
2025-01-16 20:59:22.125056	311.5	14.9	-82.4	0.0
2025-01-16 20:59:24.367577	311.9	14.7	-81.7	0.0
2025-01-16 20:59:26.609611	312.3	14.6	-82.3	0.0
2025-01-16 20:59:28.850278	312.6	14.4	-82.5	0.0
2025-01-16 20:59:31.093887	313.0	14.3	-82.2	0.0
2025-01-16 20:59:33.334995	313.3	14.1	-82.3	0.0
2025-01-16 20:59:35.576060	313.7	14.0	-82.5	0.0
2025-01-16 20:59:37.819430	314.0	13.8	-82.5	0.0
2025-01-16 20:59:40.060368	314.4	13.7	-82.5	0.0
2025-01-16 20:59:42.303289	314.7	13.6	-82.5	0.0
2025-01-16 20:59:44.541863	315.0	13.4	-82.2	0.0
2025-01-16 20:59:46.783448	315.4	13.3	-82.4	0.0
2025-01-16 20:59:49.024080	315.7	13.1	-82.6	0.0
2025-01-16 20:59:51.263891	316.0	13.0	-81.8	0.0
2025-01-16 20:59:53.503871	316.3	12.8	-81.8	0.0
2025-01-16 20:59:55.750349	316.6	12.7	-82.2	0.0
2025-01-16 20:59:57.994692	317.0	12.5	-81.6	0.0
2025-01-16 21:00:00.240392	317.3	12.4	-82.4	0.0
2025-01-16 21:00:02.481457	317.6	12.3	-81.8	0.0
2025-01-16 21:00:04.722826	317.9	12.1	-82.1	0.0
2025-01-16 21:00:06.965903	318.2	12.0	-82.4	0.0
2025-01-16 21:00:09.209105	318.5	11.8	-82.7	0.0
2025-01-16 21:00:11.451813	318.8	11.7	-82.6	0.0
2025-01-16 21:00:13.694600	319.1	11.5	-82.6	0.0
2025-01-16 21:00:15.936533	319.4	11.4	-82.4	0.0
2025-01-16 21:00:18.176412	319.7	11.2	-82.6	0.0
2025-01-16 21:00:20.418130	320.0	11.1	-82.9	0.0
2025-01-16 21:00:22.660887	320.2	11.0	-82.3	0.0
2025-01-16 21:00:24.905603	320.5	10.8	-82.4	0.0
2025-01-16 21:00:27.149027	320.8	10.7	-82.6	0.0
2025-01-16 21:00:29.390908	321.1	10.5	-82.5	0.0
2025-01-16 21:00:31.632882	321.4	10.4	-82.2	0.0
2025-01-16 21:00:33.875173	321.6	10.2	-82.7	0.0
2025-01-16 21:00:36.120022	321.9	10.1	-82.6	0.0
#Closed at: 2025-01-16 20:51:59.853017