passes_logs/2025/01/16/planumMaritime01/planumMaritime01__20250116_022822_METEOR-M2_4_rec.log

#Pass ID: 20250116_022822_METEOR-M2 4
#Satellite: METEOR-M2 4
#Configuration: METEOR-M2 4
#Start time: 2025-01-16 02:28:27.439305

#LorettStation: 1.0.0 05.05.2024
#Station: planumMaritime01
#Location: 37.49445 lon 55.92918 lat
#TLE: 1 59051U 24039A   25015.09829084  .00000075  00000+0  53338-4 0  9998
#TLE: 2 59051  98.6293 338.1069 0006191 224.4882 135.5799 14.22325142 45617

#Time	Az	El	Level	SNR
2025-01-16 02:28:29.602724	2.7	10.2	-80.5	0.0
2025-01-16 02:28:31.848422	2.5	10.3	-80.8	0.0
2025-01-16 02:28:34.094894	2.2	10.5	-80.9	0.0
2025-01-16 02:28:36.337068	2.0	10.7	-80.8	0.0
2025-01-16 02:28:38.580839	1.8	10.8	-80.9	0.0
2025-01-16 02:28:40.825747	1.6	11.0	-80.9	0.0
2025-01-16 02:28:43.070955	1.4	11.2	-81.1	0.0
2025-01-16 02:28:45.315994	1.1	11.4	-80.9	0.0
2025-01-16 02:28:47.565613	0.9	11.5	-81.1	0.0
2025-01-16 02:28:49.812323	0.7	11.7	-81.0	0.0
2025-01-16 02:28:52.060746	0.5	11.9	-81.0	0.0
2025-01-16 02:28:54.303802	0.2	12.1	-81.0	0.0
2025-01-16 02:28:56.553387	360.0	12.2	-81.0	0.0
2025-01-16 02:28:58.798587	359.7	12.4	-81.0	0.0
2025-01-16 02:29:01.047129	359.5	12.6	-81.1	0.0
2025-01-16 02:29:03.292545	359.2	12.8	-81.1	0.0
2025-01-16 02:29:05.541745	359.0	13.0	-81.1	0.0
2025-01-16 02:29:07.785051	358.7	13.1	-81.0	0.0
2025-01-16 02:29:10.033097	358.5	13.3	-81.0	0.0
2025-01-16 02:29:12.280867	358.2	13.5	-81.2	0.0
2025-01-16 02:29:14.526569	358.0	13.7	-81.2	0.0
2025-01-16 02:29:16.770439	357.7	13.9	-80.7	0.0
2025-01-16 02:29:19.016065	357.4	14.1	-80.7	0.0
2025-01-16 02:29:21.261494	357.1	14.2	-80.9	0.0
2025-01-16 02:29:23.507528	356.9	14.4	-81.1	0.0
2025-01-16 02:29:25.754544	356.6	14.6	-81.1	0.0
2025-01-16 02:29:28.000326	356.3	14.8	-81.3	0.0
2025-01-16 02:29:30.248324	356.0	15.0	-81.3	0.0
2025-01-16 02:29:32.494242	355.7	15.2	-81.3	0.0
2025-01-16 02:29:34.739605	355.4	15.4	-81.3	0.0
2025-01-16 02:29:36.985355	355.1	15.6	-81.3	0.0
2025-01-16 02:29:39.232365	354.8	15.8	-81.3	0.0
2025-01-16 02:29:41.479859	354.5	16.0	-81.4	0.0
2025-01-16 02:29:43.727642	354.2	16.2	-81.2	0.0
2025-01-16 02:29:45.975458	353.9	16.3	-81.4	0.0
2025-01-16 02:29:48.221854	353.6	16.5	-81.2	0.0
2025-01-16 02:29:50.468687	353.2	16.7	-81.4	0.0
2025-01-16 02:29:52.713835	352.9	16.9	-81.4	0.0
2025-01-16 02:29:54.955783	352.6	17.1	-81.3	0.0
2025-01-16 02:29:57.202984	352.2	17.3	-81.4	0.0
2025-01-16 02:29:59.446877	351.9	17.5	-81.5	0.0
2025-01-16 02:30:01.693449	351.5	17.7	-81.6	0.0
2025-01-16 02:30:03.939307	351.2	17.9	-81.5	0.0
2025-01-16 02:30:06.184215	350.8	18.1	-81.4	0.0
2025-01-16 02:30:08.430624	350.5	18.3	-81.3	0.0
2025-01-16 02:30:10.679360	350.1	18.5	-81.4	0.0
2025-01-16 02:30:12.925675	349.7	18.7	-81.4	0.0
2025-01-16 02:30:15.172657	349.3	18.9	-81.4	0.0
2025-01-16 02:30:17.419761	349.0	19.1	-81.5	0.0
2025-01-16 02:30:19.667599	348.6	19.3	-81.5	0.0
2025-01-16 02:30:21.915470	348.2	19.5	-81.4	0.0
2025-01-16 02:30:24.165190	347.8	19.7	-81.3	0.0
2025-01-16 02:30:26.412093	347.4	19.9	-81.5	0.0
2025-01-16 02:30:28.656697	347.0	20.1	-81.4	0.0
2025-01-16 02:30:30.901538	346.5	20.3	-81.2	0.0
2025-01-16 02:30:33.148696	346.1	20.5	-81.4	0.0
2025-01-16 02:30:35.392665	345.7	20.7	-81.5	0.0
2025-01-16 02:30:37.638000	345.3	20.9	-81.4	0.0
2025-01-16 02:30:39.886973	344.8	21.1	-81.3	0.0
2025-01-16 02:30:42.131199	344.4	21.4	-81.7	0.0
2025-01-16 02:30:44.376615	343.9	21.6	-81.5	0.0
2025-01-16 02:30:46.623335	343.5	21.8	-81.5	0.0
2025-01-16 02:30:48.870490	343.0	22.0	-81.6	0.0
2025-01-16 02:30:51.118113	342.5	22.2	-81.5	0.0
2025-01-16 02:30:53.363958	342.1	22.4	-81.5	0.0
2025-01-16 02:30:55.608766	341.6	22.6	-81.5	0.0
2025-01-16 02:30:57.853781	341.1	22.8	-81.5	0.0
2025-01-16 02:31:00.096186	340.6	23.0	-81.6	0.0
2025-01-16 02:31:02.341327	340.1	23.2	-81.5	0.0
2025-01-16 02:31:04.587702	339.6	23.3	-81.4	0.0
2025-01-16 02:31:06.834939	339.1	23.5	-81.7	0.0
2025-01-16 02:31:09.079735	338.6	23.7	-81.5	0.0
2025-01-16 02:31:11.327586	338.0	23.9	-81.6	0.0
2025-01-16 02:31:13.573638	337.5	24.1	-81.5	0.0
2025-01-16 02:31:15.818011	337.0	24.3	-81.6	0.0
2025-01-16 02:31:18.062867	336.4	24.5	-81.4	0.0
2025-01-16 02:31:20.309956	335.9	24.7	-81.6	0.0
2025-01-16 02:31:22.557079	335.3	24.9	-81.4	0.0
2025-01-16 02:31:24.804052	334.7	25.1	-81.6	0.0
2025-01-16 02:31:27.049061	334.2	25.3	-81.2	0.0
2025-01-16 02:31:29.295005	333.6	25.4	-81.4	0.0
2025-01-16 02:31:31.543763	333.0	25.6	-81.6	0.0
2025-01-16 02:31:33.788906	332.4	25.8	-81.5	0.0
2025-01-16 02:31:36.035307	331.8	26.0	-81.2	0.0
2025-01-16 02:31:38.280206	331.2	26.1	-81.6	0.0
2025-01-16 02:31:40.524756	330.6	26.3	-81.8	0.0
2025-01-16 02:31:42.773465	330.0	26.5	-81.6	0.0
2025-01-16 02:31:45.020529	329.3	26.6	-81.4	0.0
2025-01-16 02:31:47.266614	328.7	26.8	-81.7	0.0
2025-01-16 02:31:49.514979	328.1	27.0	-81.5	0.0
2025-01-16 02:31:51.760362	327.4	27.1	-81.2	0.0
2025-01-16 02:31:54.004192	326.8	27.3	-81.5	0.0
2025-01-16 02:31:56.252762	326.1	27.4	-81.5	0.0
2025-01-16 02:31:58.499992	325.4	27.6	-81.5	0.0
2025-01-16 02:32:00.745840	324.8	27.7	-81.5	0.0
2025-01-16 02:32:02.992569	324.1	27.8	-81.4	0.0
2025-01-16 02:32:05.239928	323.4	28.0	-81.5	0.0
2025-01-16 02:32:07.484461	322.7	28.1	-81.5	0.0
2025-01-16 02:32:09.730012	322.0	28.2	-81.4	0.0
2025-01-16 02:32:11.976742	321.3	28.4	-81.6	0.0
2025-01-16 02:32:14.220919	320.6	28.5	-81.6	0.0
2025-01-16 02:32:16.470945	319.9	28.6	-81.5	0.0
2025-01-16 02:32:18.716094	319.2	28.7	-81.2	0.0
2025-01-16 02:32:20.961444	318.5	28.8	-81.5	0.0
2025-01-16 02:32:23.205860	317.7	28.9	-81.9	0.0
2025-01-16 02:32:25.453314	317.0	29.0	-81.7	0.0
2025-01-16 02:32:27.698425	316.3	29.1	-81.5	0.0
2025-01-16 02:32:29.944358	315.5	29.2	-81.7	0.0
2025-01-16 02:32:32.187885	314.8	29.3	-81.4	0.0
2025-01-16 02:32:34.430592	314.0	29.3	-81.6	0.0
2025-01-16 02:32:36.673975	313.3	29.4	-81.6	0.0
2025-01-16 02:32:38.918732	312.5	29.5	-81.7	0.0
2025-01-16 02:32:41.165401	311.8	29.5	-81.4	0.0
2025-01-16 02:32:43.409858	311.0	29.6	-81.6	0.0
2025-01-16 02:32:45.653060	310.3	29.6	-81.5	0.0
2025-01-16 02:32:47.899019	309.5	29.7	-81.7	0.0
2025-01-16 02:32:50.145376	308.7	29.7	-81.7	0.0
2025-01-16 02:32:52.393215	308.0	29.7	-81.7	0.0
2025-01-16 02:32:54.636915	307.2	29.8	-81.9	0.0
2025-01-16 02:32:56.885612	306.4	29.8	-81.8	0.0
2025-01-16 02:32:59.130920	305.6	29.8	-81.6	0.0
2025-01-16 02:33:01.375801	304.9	29.8	-81.7	0.0
2025-01-16 02:33:03.621499	304.1	29.8	-81.8	0.0
2025-01-16 02:33:05.870569	303.3	29.8	-81.7	0.0
2025-01-16 02:33:08.115641	302.6	29.8	-81.6	0.0
2025-01-16 02:33:10.359431	301.8	29.8	-81.6	0.0
2025-01-16 02:33:12.606610	301.0	29.8	-81.9	0.0
2025-01-16 02:33:14.850995	300.3	29.7	-81.6	0.0
2025-01-16 02:33:17.100985	299.5	29.7	-81.7	0.0
2025-01-16 02:33:19.346351	298.7	29.7	-81.7	0.0
2025-01-16 02:33:21.593665	298.0	29.6	-81.5	0.0
2025-01-16 02:33:23.837627	297.2	29.6	-81.7	0.0
2025-01-16 02:33:26.083900	296.4	29.5	-81.6	0.0
2025-01-16 02:33:28.332653	295.7	29.5	-81.6	0.0
2025-01-16 02:33:30.580128	294.9	29.4	-81.9	0.0
2025-01-16 02:33:32.822659	294.2	29.3	-81.9	0.0
2025-01-16 02:33:35.066543	293.4	29.2	-81.9	0.0
2025-01-16 02:33:37.315929	292.7	29.2	-81.9	0.0
2025-01-16 02:33:39.560527	291.9	29.1	-82.1	0.0
2025-01-16 02:33:41.802502	291.2	29.0	-81.7	0.0
2025-01-16 02:33:44.049268	290.5	28.9	-81.8	0.0
2025-01-16 02:33:46.293883	289.7	28.8	-81.5	0.0
2025-01-16 02:33:48.538168	289.0	28.7	-81.8	0.0
2025-01-16 02:33:50.780582	288.3	28.6	-81.7	0.0
2025-01-16 02:33:53.025728	287.6	28.5	-81.9	0.0
2025-01-16 02:33:55.274508	286.9	28.3	-82.0	0.0
2025-01-16 02:33:57.522469	286.2	28.2	-81.8	0.0
2025-01-16 02:33:59.766404	285.5	28.1	-81.9	0.0
2025-01-16 02:34:02.011725	284.8	28.0	-82.0	0.0
2025-01-16 02:34:04.257979	284.1	27.8	-81.9	0.0
2025-01-16 02:34:06.502102	283.4	27.7	-82.0	0.0
2025-01-16 02:34:08.748884	282.7	27.5	-81.8	0.0
2025-01-16 02:34:10.995509	282.1	27.4	-81.9	0.0
2025-01-16 02:34:13.242332	281.4	27.2	-81.9	0.0
2025-01-16 02:34:15.489614	280.8	27.1	-82.0	0.0
2025-01-16 02:34:17.732972	280.1	26.9	-81.7	0.0
2025-01-16 02:34:19.984834	279.5	26.8	-81.7	0.0
2025-01-16 02:34:22.230851	278.8	26.6	-82.1	0.0
2025-01-16 02:34:24.476763	278.2	26.4	-82.0	0.0
2025-01-16 02:34:26.722658	277.6	26.3	-81.9	0.0
2025-01-16 02:34:28.970920	277.0	26.1	-81.8	0.0
2025-01-16 02:34:31.214808	276.4	25.9	-82.0	0.0
2025-01-16 02:34:33.456203	275.8	25.7	-81.9	0.0
2025-01-16 02:34:35.702625	275.2	25.6	-81.8	0.0
2025-01-16 02:34:37.954174	274.6	25.4	-81.8	0.0
2025-01-16 02:34:40.198072	274.0	25.2	-81.9	0.0
2025-01-16 02:34:42.444451	273.4	25.0	-81.8	0.0
2025-01-16 02:34:44.691320	272.8	24.8	-81.8	0.0
2025-01-16 02:34:46.938313	272.3	24.6	-81.9	0.0
2025-01-16 02:34:49.183397	271.7	24.5	-81.8	0.0
2025-01-16 02:34:51.426513	271.2	24.3	-81.7	0.0
2025-01-16 02:34:53.675263	270.6	24.1	-81.7	0.0
2025-01-16 02:34:55.921663	270.1	23.9	-81.8	0.0
2025-01-16 02:34:58.166614	269.6	23.7	-81.8	0.0
2025-01-16 02:35:00.414174	269.0	23.5	-82.1	0.0
2025-01-16 02:35:02.657273	268.5	23.3	-81.8	0.0
2025-01-16 02:35:04.899644	268.0	23.1	-81.9	0.0
2025-01-16 02:35:07.144934	267.5	22.9	-81.8	0.0
2025-01-16 02:35:09.389435	267.0	22.7	-81.8	0.0
2025-01-16 02:35:11.634615	266.5	22.5	-81.8	0.0
2025-01-16 02:35:13.880846	266.1	22.3	-81.9	0.0
2025-01-16 02:35:16.125160	265.6	22.1	-81.9	0.0
2025-01-16 02:35:18.371574	265.1	21.9	-81.7	0.0
2025-01-16 02:35:20.616044	264.6	21.7	-81.9	0.0
2025-01-16 02:35:22.861571	264.2	21.5	-82.0	0.0
2025-01-16 02:35:25.107670	263.7	21.3	-82.0	0.0
2025-01-16 02:35:27.352498	263.3	21.1	-81.9	0.0
2025-01-16 02:35:29.601725	262.8	20.9	-81.9	0.0
2025-01-16 02:35:31.849675	262.4	20.7	-81.8	0.0
2025-01-16 02:35:34.095231	262.0	20.5	-82.1	0.0
2025-01-16 02:35:36.341715	261.6	20.3	-82.2	0.0
2025-01-16 02:35:38.586793	261.1	20.1	-81.9	0.0
2025-01-16 02:35:40.832521	260.7	19.9	-81.9	0.0
2025-01-16 02:35:43.078575	260.3	19.6	-81.9	0.0
2025-01-16 02:35:45.322806	259.9	19.4	-81.8	0.0
2025-01-16 02:35:47.570735	259.5	19.2	-82.1	0.0
2025-01-16 02:35:49.817475	259.1	19.0	-82.0	0.0
2025-01-16 02:35:52.059735	258.7	18.8	-81.9	0.0
2025-01-16 02:35:54.306740	258.4	18.6	-82.1	0.0
2025-01-16 02:35:56.546695	258.0	18.4	-81.9	0.0
2025-01-16 02:35:58.793957	257.6	18.2	-81.8	0.0
2025-01-16 02:36:01.040867	257.3	18.0	-82.1	0.0
2025-01-16 02:36:03.283128	256.9	17.8	-82.0	0.0
2025-01-16 02:36:05.526740	256.5	17.6	-82.1	0.0
2025-01-16 02:36:07.770083	256.2	17.4	-82.0	0.0
2025-01-16 02:36:10.016414	255.8	17.2	-81.8	0.0
2025-01-16 02:36:12.261182	255.5	17.0	-82.1	0.0
2025-01-16 02:36:14.509843	255.2	16.8	-81.9	0.0
2025-01-16 02:36:16.754543	254.8	16.6	-82.0	0.0
2025-01-16 02:36:19.000492	254.5	16.4	-82.1	0.0
2025-01-16 02:36:21.248233	254.2	16.2	-82.0	0.0
2025-01-16 02:36:23.494621	253.9	16.0	-81.9	0.0
2025-01-16 02:36:25.742262	253.5	15.9	-82.0	0.0
2025-01-16 02:36:27.986318	253.2	15.7	-81.9	0.0
2025-01-16 02:36:30.235393	252.9	15.5	-82.1	0.0
2025-01-16 02:36:32.484981	252.6	15.3	-81.9	0.0
2025-01-16 02:36:34.732177	252.3	15.1	-82.0	0.0
2025-01-16 02:36:36.977215	252.0	14.9	-81.9	0.0
2025-01-16 02:36:39.221460	251.7	14.7	-81.8	0.0
2025-01-16 02:36:41.464770	251.4	14.5	-81.8	0.0
2025-01-16 02:36:43.707483	251.2	14.3	-82.0	0.0
2025-01-16 02:36:45.954084	250.9	14.1	-82.0	0.0
2025-01-16 02:36:48.199005	250.6	13.9	-82.0	0.0
2025-01-16 02:36:50.444832	250.3	13.8	-82.2	0.0
2025-01-16 02:36:52.691588	250.1	13.6	-82.0	0.0
2025-01-16 02:36:54.940251	249.8	13.4	-81.9	0.0
2025-01-16 02:36:57.185566	249.5	13.2	-81.8	0.0
2025-01-16 02:36:59.431298	249.3	13.0	-82.2	0.0
2025-01-16 02:37:01.678442	249.0	12.8	-81.8	0.0
2025-01-16 02:37:03.924056	248.8	12.7	-82.1	0.0
2025-01-16 02:37:06.168154	248.5	12.5	-82.0	0.0
2025-01-16 02:37:08.415440	248.3	12.3	-82.1	0.0
2025-01-16 02:37:10.659138	248.0	12.1	-81.9	0.0
2025-01-16 02:37:12.907014	247.8	11.9	-82.1	0.0
2025-01-16 02:37:15.150241	247.5	11.8	-81.9	0.0
2025-01-16 02:37:17.396475	247.3	11.6	-82.0	0.0
2025-01-16 02:37:19.642112	247.1	11.4	-81.9	0.0
2025-01-16 02:37:21.889228	246.9	11.2	-82.1	0.0
2025-01-16 02:37:24.136423	246.6	11.1	-82.0	0.0
2025-01-16 02:37:26.382647	246.4	10.9	-81.8	0.0
2025-01-16 02:37:28.627824	246.2	10.7	-82.1	0.0
2025-01-16 02:37:30.873970	246.0	10.5	-81.8	0.0
2025-01-16 02:37:33.116767	245.7	10.4	-82.1	0.0
2025-01-16 02:37:35.361794	245.5	10.2	-82.3	0.0
#Closed at: 2025-01-16 02:28:22.441695