passes_logs/2025/01/16/planumMaritime01/planumMaritime01__20250116_071001_METOP-C_rec.log

#Pass ID: 20250116_071001_METOP-C
#Satellite: METOP-C
#Configuration: METOP-C
#Start time: 2025-01-16 07:10:06.268943

#LorettStation: 1.0.0 05.05.2024
#Station: planumMaritime01
#Location: 37.49445 lon 55.92918 lat
#TLE: 1 43689U 18087A   25015.08140397  .00000206  00000+0  11426-3 0  9993
#TLE: 2 43689  98.6965  77.5724 0001426 164.6010 195.5211 14.21480919321221

#Time	Az	El	Level	SNR
2025-01-16 07:10:08.434641	24.0	10.2	-80.2	0.0
2025-01-16 07:10:10.682260	24.1	10.4	-80.3	0.0
2025-01-16 07:10:12.929654	24.2	10.6	-80.5	0.0
2025-01-16 07:10:15.181295	24.3	10.7	-80.6	0.0
2025-01-16 07:10:17.426468	24.5	10.9	-80.2	0.0
2025-01-16 07:10:19.672377	24.6	11.1	-80.4	0.0
2025-01-16 07:10:21.920593	24.7	11.3	-80.4	0.0
2025-01-16 07:10:24.164830	24.9	11.5	-80.2	0.0
2025-01-16 07:10:26.411614	25.0	11.7	-80.5	0.0
2025-01-16 07:10:28.656895	25.1	11.9	-80.6	0.0
2025-01-16 07:10:30.906832	25.3	12.1	-80.5	0.0
2025-01-16 07:10:33.154741	25.4	12.3	-80.7	0.0
2025-01-16 07:10:35.402595	25.5	12.5	-80.8	0.0
2025-01-16 07:10:37.647012	25.7	12.7	-80.7	0.0
2025-01-16 07:10:39.893349	25.8	12.9	-80.8	0.0
2025-01-16 07:10:42.141484	25.9	13.2	-80.5	0.0
2025-01-16 07:10:44.391845	26.1	13.4	-80.8	0.0
2025-01-16 07:10:46.637902	26.2	13.6	-80.6	0.0
2025-01-16 07:10:48.883939	26.4	13.8	-80.6	0.0
2025-01-16 07:10:51.131292	26.5	14.0	-80.8	0.0
2025-01-16 07:10:53.378741	26.7	14.2	-80.6	0.0
2025-01-16 07:10:55.624769	26.9	14.5	-80.5	0.0
2025-01-16 07:10:57.869940	27.0	14.7	-80.5	0.0
2025-01-16 07:11:00.116651	27.2	14.9	-81.0	0.0
2025-01-16 07:11:02.362220	27.3	15.1	-80.5	0.0
2025-01-16 07:11:04.612974	27.5	15.3	-80.5	0.0
2025-01-16 07:11:06.859650	27.7	15.6	-80.8	0.0
2025-01-16 07:11:09.105133	27.8	15.8	-80.9	0.0
2025-01-16 07:11:11.350848	28.0	16.0	-80.6	0.0
2025-01-16 07:11:13.598867	28.2	16.3	-80.9	0.0
2025-01-16 07:11:15.843394	28.4	16.5	-80.7	0.0
2025-01-16 07:11:18.088919	28.5	16.8	-80.9	0.0
2025-01-16 07:11:20.335919	28.7	17.0	-80.7	0.0
2025-01-16 07:11:22.583188	28.9	17.2	-81.0	0.0
2025-01-16 07:11:24.827459	29.1	17.5	-80.6	0.0
2025-01-16 07:11:27.074764	29.3	17.7	-80.8	0.0
2025-01-16 07:11:29.321913	29.5	18.0	-80.9	0.0
2025-01-16 07:11:31.568554	29.7	18.2	-80.9	0.0
2025-01-16 07:11:33.814945	29.9	18.5	-80.9	0.0
2025-01-16 07:11:36.062420	30.1	18.7	-80.9	0.0
2025-01-16 07:11:38.308658	30.3	19.0	-80.7	0.0
2025-01-16 07:11:40.557762	30.5	19.3	-80.9	0.0
2025-01-16 07:11:42.803647	30.7	19.5	-80.6	0.0
2025-01-16 07:11:45.051059	30.9	19.8	-80.6	0.0
2025-01-16 07:11:47.296633	31.2	20.1	-80.6	0.0
2025-01-16 07:11:49.546444	31.4	20.3	-81.1	0.0
2025-01-16 07:11:51.794229	31.6	20.6	-81.1	0.0
2025-01-16 07:11:54.038842	31.8	20.9	-81.1	0.0
2025-01-16 07:11:56.284251	32.1	21.2	-81.1	0.0
2025-01-16 07:11:58.533179	32.3	21.5	-81.2	0.0
2025-01-16 07:12:00.781578	32.6	21.7	-81.1	0.0
2025-01-16 07:12:03.029829	32.8	22.0	-80.4	0.0
2025-01-16 07:12:05.275482	33.1	22.3	-80.5	0.0
2025-01-16 07:12:07.519400	33.3	22.6	-80.9	0.0
2025-01-16 07:12:09.765496	33.6	22.9	-80.9	0.0
2025-01-16 07:12:12.012526	33.9	23.2	-80.5	0.0
2025-01-16 07:12:14.261908	34.1	23.5	-80.9	0.0
2025-01-16 07:12:16.507679	34.4	23.8	-80.7	0.0
2025-01-16 07:12:18.754140	34.7	24.1	-80.8	0.0
2025-01-16 07:12:20.999287	35.0	24.4	-81.0	0.0
2025-01-16 07:12:23.245570	35.3	24.8	-81.0	0.0
2025-01-16 07:12:25.490932	35.6	25.1	-81.0	0.0
2025-01-16 07:12:27.736445	35.9	25.4	-80.5	0.0
2025-01-16 07:12:29.984800	36.2	25.7	-80.7	0.0
2025-01-16 07:12:32.231198	36.5	26.1	-80.7	0.0
2025-01-16 07:12:34.479198	36.9	26.4	-80.8	0.0
2025-01-16 07:12:36.725120	37.2	26.7	-80.7	0.0
2025-01-16 07:12:38.972836	37.5	27.1	-80.9	0.0
2025-01-16 07:12:41.221097	37.9	27.4	-81.1	0.0
2025-01-16 07:12:43.471401	38.2	27.7	-80.8	0.0
2025-01-16 07:12:45.717573	38.6	28.1	-80.8	0.0
2025-01-16 07:12:47.966310	39.0	28.4	-80.8	0.0
2025-01-16 07:12:50.215220	39.4	28.8	-80.8	0.0
2025-01-16 07:12:52.463575	39.7	29.1	-80.6	0.0
2025-01-16 07:12:54.713454	40.1	29.5	-81.0	0.0
2025-01-16 07:12:56.957306	40.5	29.9	-80.8	0.0
2025-01-16 07:12:59.204046	41.0	30.2	-80.6	0.0
2025-01-16 07:13:01.451012	41.4	30.6	-80.4	0.0
2025-01-16 07:13:03.699817	41.8	31.0	-80.8	0.0
2025-01-16 07:13:05.944509	42.2	31.3	-80.6	0.0
2025-01-16 07:13:08.191371	42.7	31.7	-80.8	0.0
2025-01-16 07:13:10.439833	43.2	32.1	-81.2	0.0
2025-01-16 07:13:12.686284	43.6	32.5	-81.3	0.0
2025-01-16 07:13:14.935205	44.1	32.9	-81.0	0.0
2025-01-16 07:13:17.182722	44.6	33.3	-81.4	0.0
2025-01-16 07:13:19.428831	45.1	33.7	-80.9	0.0
2025-01-16 07:13:21.674537	45.6	34.0	-81.3	0.0
2025-01-16 07:13:23.921855	46.2	34.4	-81.0	0.0
2025-01-16 07:13:26.170992	46.7	34.8	-81.2	0.0
2025-01-16 07:13:28.416830	47.3	35.2	-80.7	0.0
2025-01-16 07:13:30.667102	47.8	35.6	-81.2	0.0
2025-01-16 07:13:32.912666	48.4	36.1	-81.3	0.0
2025-01-16 07:13:35.157821	49.0	36.5	-80.5	0.0
2025-01-16 07:13:37.405209	49.7	36.9	-80.9	0.0
2025-01-16 07:13:39.653758	50.3	37.3	-80.0	0.0
2025-01-16 07:13:41.898080	50.9	37.7	-80.6	0.0
2025-01-16 07:13:44.143919	51.6	38.1	-80.9	0.0
2025-01-16 07:13:46.391308	52.3	38.5	-81.1	0.0
2025-01-16 07:13:48.635160	53.0	38.9	-81.0	0.0
2025-01-16 07:13:50.881607	53.7	39.3	-81.1	0.0
2025-01-16 07:13:53.127009	54.4	39.8	-81.2	0.0
2025-01-16 07:13:55.373670	55.2	40.2	-81.2	0.0
2025-01-16 07:13:57.621310	55.9	40.6	-81.1	0.0
2025-01-16 07:13:59.867494	56.7	41.0	-80.7	0.0
2025-01-16 07:14:02.114972	57.6	41.4	-80.8	0.0
2025-01-16 07:14:04.361622	58.4	41.8	-80.9	0.0
2025-01-16 07:14:06.610652	59.2	42.2	-80.5	0.0
2025-01-16 07:14:08.854359	60.1	42.6	-81.0	0.0
2025-01-16 07:14:11.099284	61.0	43.0	-80.9	0.0
2025-01-16 07:14:13.343894	61.9	43.4	-81.1	0.0
2025-01-16 07:14:15.594680	62.9	43.8	-81.0	0.0
2025-01-16 07:14:17.840687	63.8	44.2	-80.9	0.0
2025-01-16 07:14:20.087746	64.8	44.6	-80.9	0.0
2025-01-16 07:14:22.335528	65.8	45.0	-80.7	0.0
2025-01-16 07:14:24.582999	66.9	45.4	-80.5	0.0
2025-01-16 07:14:26.831088	67.9	45.7	-80.5	0.0
2025-01-16 07:14:29.078272	69.0	46.1	-80.3	0.0
2025-01-16 07:14:31.324617	70.1	46.4	-79.9	0.0
2025-01-16 07:14:33.573430	71.3	46.8	-80.0	0.0
2025-01-16 07:14:35.821827	72.4	47.1	-80.3	0.0
2025-01-16 07:14:38.069773	73.6	47.4	-80.5	0.0
2025-01-16 07:14:40.315193	74.8	47.7	-80.4	0.0
2025-01-16 07:14:42.561635	76.1	48.0	-80.7	0.0
2025-01-16 07:14:44.809568	77.3	48.3	-80.4	0.0
2025-01-16 07:14:47.055883	78.6	48.6	-80.3	0.0
2025-01-16 07:14:49.305148	79.9	48.8	-80.4	0.0
2025-01-16 07:14:51.552354	81.2	49.1	-80.5	0.0
2025-01-16 07:14:53.801817	82.6	49.3	-80.4	0.0
2025-01-16 07:14:56.048385	83.9	49.5	-80.1	0.0
2025-01-16 07:14:58.294476	85.3	49.7	-80.3	0.0
2025-01-16 07:15:00.542520	86.7	49.9	-80.2	0.0
2025-01-16 07:15:02.787652	88.1	50.1	-80.5	0.0
2025-01-16 07:15:05.033185	89.6	50.2	-80.5	0.0
2025-01-16 07:15:07.281441	91.0	50.4	-80.3	0.0
2025-01-16 07:15:09.525238	92.4	50.5	-80.4	0.0
2025-01-16 07:15:11.770626	93.9	50.6	-80.9	0.0
2025-01-16 07:15:14.016743	95.4	50.6	-81.0	0.0
2025-01-16 07:15:16.259238	96.9	50.7	-80.8	0.0
2025-01-16 07:15:18.506008	98.3	50.7	-81.1	0.0
2025-01-16 07:15:20.752023	99.8	50.7	-81.4	0.0
2025-01-16 07:15:22.996412	101.3	50.7	-81.2	0.0
2025-01-16 07:15:25.244023	102.8	50.7	-81.3	0.0
2025-01-16 07:15:27.490124	104.3	50.6	-81.2	0.0
2025-01-16 07:15:29.737371	105.7	50.6	-81.4	0.0
2025-01-16 07:15:31.983704	107.2	50.5	-81.0	0.0
2025-01-16 07:15:34.232155	108.7	50.4	-80.8	0.0
2025-01-16 07:15:36.480130	110.1	50.3	-80.4	0.0
2025-01-16 07:15:38.727236	111.5	50.1	-80.5	0.0
2025-01-16 07:15:40.972187	113.0	50.0	-80.1	0.0
2025-01-16 07:15:43.215432	114.4	49.8	-80.4	0.0
2025-01-16 07:15:45.461099	115.7	49.6	-79.8	0.0
2025-01-16 07:15:47.706906	117.1	49.4	-80.0	0.0
2025-01-16 07:15:49.955162	118.5	49.1	-79.9	0.0
2025-01-16 07:15:52.203443	119.8	48.9	-80.0	0.0
2025-01-16 07:15:54.449496	121.1	48.6	-80.1	0.0
2025-01-16 07:15:56.697561	122.4	48.4	-80.2	0.0
2025-01-16 07:15:58.942436	123.6	48.1	-79.9	0.0
2025-01-16 07:16:01.190639	124.9	47.8	-80.3	0.0
2025-01-16 07:16:03.436464	126.1	47.5	-80.0	0.0
2025-01-16 07:16:05.679820	127.3	47.2	-80.4	0.0
2025-01-16 07:16:07.925637	128.5	46.8	-80.2	0.0
2025-01-16 07:16:10.172789	129.6	46.5	-80.3	0.0
2025-01-16 07:16:12.420717	130.7	46.1	-80.2	0.0
2025-01-16 07:16:14.668217	131.8	45.8	-80.3	0.0
2025-01-16 07:16:16.916285	132.9	45.4	-80.3	0.0
2025-01-16 07:16:19.161335	133.9	45.0	-80.3	0.0
2025-01-16 07:16:21.407678	135.0	44.7	-80.0	0.0
2025-01-16 07:16:23.650371	136.0	44.3	-79.9	0.0
2025-01-16 07:16:25.898416	136.9	43.9	-79.6	1.1
2025-01-16 07:16:28.144891	137.9	43.5	-79.7	1.6
2025-01-16 07:16:30.390040	138.8	43.1	-79.7	0.0
2025-01-16 07:16:32.636762	139.7	42.7	-80.1	0.3
2025-01-16 07:16:34.883549	140.6	42.3	-79.8	0.0
2025-01-16 07:16:37.129800	141.5	41.9	-79.6	0.0
2025-01-16 07:16:39.376117	142.3	41.5	-80.1	0.0
2025-01-16 07:16:41.621234	143.1	41.1	-80.1	0.0
2025-01-16 07:16:43.862711	143.9	40.6	-79.9	0.0
2025-01-16 07:16:46.111387	144.7	40.2	-80.4	0.0
2025-01-16 07:16:48.357433	145.4	39.8	-80.3	0.0
2025-01-16 07:16:50.604946	146.2	39.4	-80.4	0.0
2025-01-16 07:16:52.850772	146.9	39.0	-80.5	0.0
2025-01-16 07:16:55.097162	147.6	38.6	-80.6	0.0
2025-01-16 07:16:57.342997	148.3	38.1	-80.7	0.0
2025-01-16 07:16:59.589221	149.0	37.7	-80.5	0.0
2025-01-16 07:17:01.834642	149.6	37.3	-80.5	0.0
2025-01-16 07:17:04.083208	150.2	36.9	-80.7	0.0
2025-01-16 07:17:06.329479	150.9	36.5	-80.7	0.0
2025-01-16 07:17:08.576371	151.5	36.1	-80.9	0.0
2025-01-16 07:17:10.820815	152.1	35.7	-80.8	0.0
2025-01-16 07:17:13.071249	152.6	35.3	-80.7	0.0
2025-01-16 07:17:15.317151	153.2	34.9	-80.8	0.0
2025-01-16 07:17:17.564699	153.8	34.5	-81.0	0.0
2025-01-16 07:17:19.812025	154.3	34.1	-81.0	0.0
2025-01-16 07:17:22.059730	154.8	33.7	-81.3	0.0
2025-01-16 07:17:24.306244	155.3	33.3	-81.2	0.0
2025-01-16 07:17:26.555445	155.8	32.9	-81.3	0.0
2025-01-16 07:17:28.801346	156.3	32.5	-80.6	0.0
2025-01-16 07:17:31.045488	156.8	32.1	-81.0	0.0
2025-01-16 07:17:33.292732	157.2	31.7	-81.3	0.0
2025-01-16 07:17:35.539283	157.7	31.3	-81.3	0.0
2025-01-16 07:17:37.784186	158.1	30.9	-81.3	0.0
2025-01-16 07:17:40.028732	158.6	30.6	-81.0	0.0
2025-01-16 07:17:42.276321	159.0	30.2	-81.4	0.0
2025-01-16 07:17:44.523064	159.4	29.8	-81.4	0.0
2025-01-16 07:17:46.768985	159.8	29.5	-81.2	0.0
2025-01-16 07:17:49.014179	160.2	29.1	-81.5	0.0
2025-01-16 07:17:51.259330	160.6	28.7	-81.1	0.0
2025-01-16 07:17:53.507027	161.0	28.4	-81.5	0.0
2025-01-16 07:17:55.754035	161.4	28.0	-81.7	0.0
2025-01-16 07:17:57.998202	161.7	27.7	-81.5	0.0
2025-01-16 07:18:00.244048	162.1	27.3	-81.4	0.0
2025-01-16 07:18:02.484502	162.4	27.0	-80.9	0.0
2025-01-16 07:18:04.727592	162.8	26.7	-81.0	0.0
2025-01-16 07:18:06.971630	163.1	26.3	-81.2	0.0
2025-01-16 07:18:09.218409	163.4	26.0	-81.3	0.0
2025-01-16 07:18:11.462594	163.8	25.7	-80.9	0.0
2025-01-16 07:18:13.711527	164.1	25.3	-81.1	0.0
2025-01-16 07:18:15.957780	164.4	25.0	-81.4	0.0
2025-01-16 07:18:18.205035	164.7	24.7	-81.1	0.0
2025-01-16 07:18:20.450564	165.0	24.4	-81.7	0.0
2025-01-16 07:18:22.697170	165.3	24.1	-81.6	0.0
2025-01-16 07:18:24.944879	165.6	23.8	-81.6	0.0
2025-01-16 07:18:27.189197	165.8	23.4	-81.5	0.0
2025-01-16 07:18:29.435347	166.1	23.1	-81.7	0.0
2025-01-16 07:18:31.681290	166.4	22.8	-81.4	0.0
2025-01-16 07:18:33.923222	166.6	22.5	-81.5	0.0
2025-01-16 07:18:36.167862	166.9	22.2	-81.2	0.0
2025-01-16 07:18:38.413460	167.2	22.0	-81.4	0.0
2025-01-16 07:18:40.658812	167.4	21.7	-81.3	0.0
2025-01-16 07:18:42.901473	167.7	21.4	-81.5	0.0
2025-01-16 07:18:45.147260	167.9	21.1	-81.3	0.0
2025-01-16 07:18:47.394320	168.1	20.8	-81.2	0.0
2025-01-16 07:18:49.640848	168.4	20.5	-81.1	0.0
2025-01-16 07:18:51.887491	168.6	20.2	-81.4	0.0
2025-01-16 07:18:54.131801	168.8	20.0	-81.1	0.0
2025-01-16 07:18:56.379074	169.0	19.7	-81.4	0.0
2025-01-16 07:18:58.623637	169.3	19.4	-81.4	0.0
2025-01-16 07:19:00.867153	169.5	19.2	-81.2	0.0
2025-01-16 07:19:03.114739	169.7	18.9	-81.5	0.0
2025-01-16 07:19:05.361676	169.9	18.6	-81.4	0.0
2025-01-16 07:19:07.611518	170.1	18.4	-81.5	0.0
2025-01-16 07:19:09.856196	170.3	18.1	-81.6	0.0
2025-01-16 07:19:12.101572	170.5	17.9	-81.5	0.0
2025-01-16 07:19:14.350706	170.7	17.6	-81.5	0.0
2025-01-16 07:19:16.595209	170.9	17.4	-81.5	0.0
2025-01-16 07:19:18.843260	171.1	17.1	-81.4	0.0
2025-01-16 07:19:21.090718	171.3	16.9	-81.3	0.0
2025-01-16 07:19:23.333684	171.4	16.6	-81.3	0.0
2025-01-16 07:19:25.580684	171.6	16.4	-81.2	0.0
2025-01-16 07:19:27.825428	171.8	16.2	-81.5	0.0
2025-01-16 07:19:30.071718	172.0	15.9	-81.7	0.0
2025-01-16 07:19:32.317367	172.1	15.7	-81.7	0.0
2025-01-16 07:19:34.562787	172.3	15.4	-81.9	0.0
2025-01-16 07:19:36.808580	172.5	15.2	-81.7	0.0
2025-01-16 07:19:39.052411	172.6	15.0	-81.7	0.0
2025-01-16 07:19:41.297208	172.8	14.8	-81.6	0.0
2025-01-16 07:19:43.543197	173.0	14.5	-81.8	0.0
2025-01-16 07:19:45.790919	173.1	14.3	-81.7	0.0
2025-01-16 07:19:48.035604	173.3	14.1	-81.8	0.0
2025-01-16 07:19:50.282943	173.4	13.9	-81.5	0.0
2025-01-16 07:19:52.528394	173.6	13.7	-81.4	0.0
2025-01-16 07:19:54.773537	173.7	13.4	-81.3	0.0
2025-01-16 07:19:57.021791	173.9	13.2	-81.2	0.0
2025-01-16 07:19:59.272021	174.0	13.0	-81.0	0.0
2025-01-16 07:20:01.517121	174.1	12.8	-81.2	0.0
2025-01-16 07:20:03.764265	174.3	12.6	-81.2	0.0
2025-01-16 07:20:06.011426	174.4	12.4	-81.7	0.0
2025-01-16 07:20:08.257354	174.6	12.2	-81.0	0.0
2025-01-16 07:20:10.505305	174.7	12.0	-81.4	0.0
2025-01-16 07:20:12.752546	174.8	11.8	-81.7	0.0
2025-01-16 07:20:14.998379	175.0	11.6	-81.7	0.0
2025-01-16 07:20:17.245181	175.1	11.4	-81.7	0.0
2025-01-16 07:20:19.496570	175.2	11.2	-81.5	0.0
2025-01-16 07:20:21.743340	175.3	11.0	-81.5	0.0
2025-01-16 07:20:23.991405	175.5	10.8	-81.5	0.0
2025-01-16 07:20:26.238964	175.6	10.6	-81.6	0.0
2025-01-16 07:20:28.485752	175.7	10.4	-81.3	0.0
2025-01-16 07:20:30.730073	175.8	10.2	-81.4	0.0
#Closed at: 2025-01-16 07:10:01.271834