passes_logs/2025/01/16/planumMaritime01/planumMaritime01__20250116_190926_NOAA_18_rec.log

#Pass ID: 20250116_190926_NOAA 18
#Satellite: NOAA 18
#Configuration: NOAA 18
#Start time: 2025-01-16 19:09:31.580673

#LorettStation: 1.0.0 05.05.2024
#Station: planumMaritime01
#Location: 37.49445 lon 55.92918 lat
#TLE: 1 28654U 05018A   25016.15379782  .00000321  00000+0  19399-3 0  9994
#TLE: 2 28654  98.8565  97.1968 0014416 175.9109 184.2183 14.13487365 13346

#Time	Az	El	Level	SNR
2025-01-16 19:09:33.737670	156.6	10.2	-80.8	0.0
2025-01-16 19:09:35.983177	156.5	10.4	-81.0	0.0
2025-01-16 19:09:38.225620	156.5	10.6	-81.1	0.0
2025-01-16 19:09:40.468551	156.5	10.8	-81.2	0.0
2025-01-16 19:09:42.710665	156.5	11.0	-81.1	0.0
2025-01-16 19:09:44.957281	156.5	11.2	-81.1	0.0
2025-01-16 19:09:47.200308	156.5	11.4	-81.2	0.0
2025-01-16 19:09:49.445099	156.5	11.6	-80.8	0.0
2025-01-16 19:09:51.684135	156.4	11.8	-81.2	0.0
2025-01-16 19:09:53.925814	156.4	12.0	-80.7	0.0
2025-01-16 19:09:56.167874	156.4	12.2	-81.3	0.0
2025-01-16 19:09:58.409603	156.4	12.4	-81.1	0.0
2025-01-16 19:10:00.654412	156.4	12.6	-80.8	0.0
2025-01-16 19:10:02.896846	156.4	12.9	-80.9	0.0
2025-01-16 19:10:05.140124	156.3	13.1	-81.0	0.0
2025-01-16 19:10:07.383801	156.3	13.3	-80.9	0.0
2025-01-16 19:10:09.623560	156.3	13.5	-81.4	0.0
2025-01-16 19:10:11.865772	156.3	13.7	-81.6	0.0
2025-01-16 19:10:14.107495	156.3	14.0	-81.1	0.0
2025-01-16 19:10:16.349328	156.2	14.2	-81.3	0.0
2025-01-16 19:10:18.591264	156.2	14.4	-81.4	0.0
2025-01-16 19:10:20.832987	156.2	14.6	-81.5	0.0
2025-01-16 19:10:23.076782	156.2	14.9	-81.6	0.0
2025-01-16 19:10:25.319481	156.2	15.1	-81.6	0.0
2025-01-16 19:10:27.563370	156.1	15.4	-81.3	0.0
2025-01-16 19:10:29.805276	156.1	15.6	-81.4	0.0
2025-01-16 19:10:32.047328	156.1	15.8	-81.2	0.0
2025-01-16 19:10:34.289585	156.1	16.1	-81.4	0.0
2025-01-16 19:10:36.534364	156.0	16.3	-81.5	0.0
2025-01-16 19:10:38.775950	156.0	16.6	-81.4	0.0
2025-01-16 19:10:41.020228	156.0	16.8	-81.1	0.0
2025-01-16 19:10:43.262997	156.0	17.1	-80.0	0.0
2025-01-16 19:10:45.506610	155.9	17.3	-81.4	0.0
2025-01-16 19:10:47.749582	155.9	17.6	-81.4	0.0
2025-01-16 19:10:49.992322	155.9	17.9	-80.8	0.0
2025-01-16 19:10:52.236524	155.9	18.1	-80.8	0.0
2025-01-16 19:10:54.481172	155.8	18.4	-81.4	0.0
2025-01-16 19:10:56.722576	155.8	18.7	-81.5	0.0
2025-01-16 19:10:58.964464	155.8	19.0	-81.5	0.0
2025-01-16 19:11:01.205608	155.7	19.2	-80.9	0.0
2025-01-16 19:11:03.445351	155.7	19.5	-81.4	0.0
2025-01-16 19:11:05.683540	155.7	19.8	-80.5	0.0
2025-01-16 19:11:07.928211	155.7	20.1	-81.2	0.0
2025-01-16 19:11:10.170837	155.6	20.4	-81.5	0.0
2025-01-16 19:11:12.413432	155.6	20.7	-81.4	0.0
2025-01-16 19:11:14.652870	155.6	21.0	-81.5	0.0
2025-01-16 19:11:16.894687	155.5	21.3	-81.2	0.0
2025-01-16 19:11:19.138620	155.5	21.6	-81.3	0.0
2025-01-16 19:11:21.380397	155.4	21.9	-80.7	0.0
2025-01-16 19:11:23.624616	155.4	22.2	-80.7	0.0
2025-01-16 19:11:25.868140	155.4	22.5	-81.1	0.0
2025-01-16 19:11:28.113263	155.3	22.8	-80.4	0.0
2025-01-16 19:11:30.355792	155.3	23.1	-81.4	0.0
2025-01-16 19:11:32.598572	155.2	23.5	-81.5	0.0
2025-01-16 19:11:34.842009	155.2	23.8	-81.2	0.0
2025-01-16 19:11:37.084588	155.2	24.1	-81.5	0.0
2025-01-16 19:11:39.326506	155.1	24.5	-80.7	0.0
2025-01-16 19:11:41.566961	155.1	24.8	-81.1	0.0
2025-01-16 19:11:43.811613	155.0	25.2	-80.3	0.0
2025-01-16 19:11:46.052882	155.0	25.5	-80.8	0.0
2025-01-16 19:11:48.295105	154.9	25.9	-80.6	0.0
2025-01-16 19:11:50.537745	154.9	26.3	-80.8	0.0
2025-01-16 19:11:52.779769	154.8	26.6	-80.5	0.0
2025-01-16 19:11:55.019929	154.8	27.0	-80.8	0.0
2025-01-16 19:11:57.266826	154.7	27.4	-80.9	0.0
2025-01-16 19:11:59.505699	154.7	27.8	-80.7	0.0
2025-01-16 19:12:01.745299	154.6	28.1	-80.0	0.0
2025-01-16 19:12:03.992921	154.5	28.5	-80.2	0.0
2025-01-16 19:12:06.235703	154.5	28.9	-81.0	0.0
2025-01-16 19:12:08.477669	154.4	29.3	-80.6	0.0
2025-01-16 19:12:10.721502	154.4	29.8	-80.8	0.0
2025-01-16 19:12:12.962637	154.3	30.2	-80.9	0.0
2025-01-16 19:12:15.203829	154.2	30.6	-81.2	0.0
2025-01-16 19:12:17.446416	154.2	31.0	-81.4	0.0
2025-01-16 19:12:19.685565	154.1	31.5	-81.5	0.0
2025-01-16 19:12:21.926146	154.0	31.9	-80.5	0.0
2025-01-16 19:12:24.168716	153.9	32.4	-79.7	0.0
2025-01-16 19:12:26.407448	153.9	32.8	-79.3	0.0
2025-01-16 19:12:28.648700	153.8	33.3	-78.8	0.0
2025-01-16 19:12:30.893847	153.7	33.7	-78.2	0.0
2025-01-16 19:12:33.135357	153.6	34.2	-78.1	0.8
2025-01-16 19:12:35.375781	153.5	34.7	-77.9	1.3
2025-01-16 19:12:37.618488	153.4	35.2	-77.9	1.1
2025-01-16 19:12:39.864692	153.3	35.7	-77.8	1.5
2025-01-16 19:12:42.104426	153.2	36.2	-77.7	1.5
2025-01-16 19:12:44.344603	153.1	36.7	-76.9	2.0
2025-01-16 19:12:46.587319	153.0	37.2	-77.1	2.1
2025-01-16 19:12:48.828300	152.9	37.8	-77.3	1.5
2025-01-16 19:12:51.066883	152.8	38.3	-77.1	1.7
2025-01-16 19:12:53.310402	152.7	38.8	-77.4	1.3
2025-01-16 19:12:55.550447	152.6	39.4	-77.4	1.2
2025-01-16 19:12:57.793155	152.4	40.0	-77.8	0.7
2025-01-16 19:13:00.037498	152.3	40.5	-78.4	0.6
2025-01-16 19:13:02.279124	152.2	41.1	-79.1	0.0
2025-01-16 19:13:04.519794	152.0	41.7	-79.2	0.0
2025-01-16 19:13:06.764778	151.9	42.3	-79.6	0.0
2025-01-16 19:13:09.005927	151.7	42.9	-80.2	0.0
2025-01-16 19:13:11.249392	151.6	43.5	-80.5	0.0
2025-01-16 19:13:13.495002	151.4	44.2	-80.9	0.0
2025-01-16 19:13:15.734717	151.3	44.8	-80.7	0.0
2025-01-16 19:13:17.974999	151.1	45.5	-80.0	0.0
2025-01-16 19:13:20.215525	150.9	46.1	-80.6	0.0
2025-01-16 19:13:22.459948	150.7	46.8	-80.1	0.0
2025-01-16 19:13:24.704474	150.5	47.5	-80.1	0.0
2025-01-16 19:13:26.951171	150.3	48.2	-79.9	0.0
2025-01-16 19:13:29.192917	150.1	48.9	-80.3	0.0
2025-01-16 19:13:31.435121	149.8	49.6	-80.4	0.0
2025-01-16 19:13:33.679651	149.6	50.3	-80.6	0.0
2025-01-16 19:13:35.924987	149.3	51.0	-80.8	0.0
2025-01-16 19:13:38.165407	149.1	51.8	-80.7	0.0
2025-01-16 19:13:40.405526	148.8	52.5	-80.9	0.0
2025-01-16 19:13:42.647949	148.5	53.3	-80.9	0.0
2025-01-16 19:13:44.890113	148.2	54.1	-80.8	0.0
2025-01-16 19:13:47.132589	147.8	54.9	-81.5	0.0
2025-01-16 19:13:49.376279	147.5	55.7	-81.3	0.0
2025-01-16 19:13:51.617475	147.1	56.5	-81.5	0.0
2025-01-16 19:13:53.858893	146.7	57.3	-81.0	0.0
2025-01-16 19:13:56.102100	146.3	58.1	-80.7	1.2
2025-01-16 19:13:58.345922	145.8	59.0	-80.9	1.3
2025-01-16 19:14:00.592006	145.3	59.8	-80.9	1.2
2025-01-16 19:14:02.834945	144.8	60.7	-81.0	1.1
2025-01-16 19:14:05.080504	144.3	61.6	-81.2	0.5
2025-01-16 19:14:07.322162	143.7	62.5	-81.6	0.0
2025-01-16 19:14:09.566191	143.0	63.3	-81.4	0.0
2025-01-16 19:14:11.807346	142.3	64.2	-81.7	0.0
2025-01-16 19:14:14.048296	141.6	65.1	-81.2	0.0
2025-01-16 19:14:16.291820	140.8	66.1	-81.7	0.0
2025-01-16 19:14:18.533588	139.9	67.0	-82.1	0.0
2025-01-16 19:14:20.777758	138.9	67.9	-82.0	0.0
2025-01-16 19:14:23.020267	137.9	68.8	-81.9	0.0
2025-01-16 19:14:25.262434	136.7	69.7	-81.7	0.0
2025-01-16 19:14:27.505432	135.4	70.7	-81.9	0.0
2025-01-16 19:14:29.748127	134.0	71.6	-81.6	0.0
2025-01-16 19:14:31.989790	132.4	72.5	-81.4	0.2
2025-01-16 19:14:34.231910	130.7	73.4	-81.2	1.6
2025-01-16 19:14:36.476371	128.7	74.3	-80.8	4.5
2025-01-16 19:14:38.720396	126.5	75.2	-80.6	4.8
2025-01-16 19:14:40.962520	123.9	76.1	-80.5	1.7
2025-01-16 19:14:43.204538	121.1	76.9	-80.1	7.0
2025-01-16 19:14:45.444819	117.8	77.8	-79.6	7.8
2025-01-16 19:14:47.686152	114.1	78.5	-79.8	9.0
2025-01-16 19:14:49.930816	109.8	79.2	-79.6	8.8
2025-01-16 19:14:52.172618	104.9	79.9	-79.3	9.7
2025-01-16 19:14:54.412589	99.4	80.5	-79.3	10.0
2025-01-16 19:14:56.656118	93.2	81.0	-79.4	10.7
2025-01-16 19:14:58.897681	86.4	81.3	-79.3	11.0
2025-01-16 19:15:01.140455	79.1	81.6	-79.5	10.9
2025-01-16 19:15:03.384691	71.5	81.7	-79.0	9.6
2025-01-16 19:15:05.628059	63.9	81.6	-80.0	8.3
2025-01-16 19:15:07.871474	56.5	81.4	-80.7	7.6
2025-01-16 19:15:10.110763	49.6	81.1	-80.9	5.2
2025-01-16 19:15:12.352293	43.2	80.6	-80.7	5.6
2025-01-16 19:15:14.597348	37.5	80.1	-80.6	5.9
2025-01-16 19:15:16.839267	32.4	79.4	-80.8	5.5
2025-01-16 19:15:19.079942	28.0	78.7	-80.8	5.6
2025-01-16 19:15:21.319984	24.1	78.0	-80.9	3.1
2025-01-16 19:15:23.561000	20.7	77.2	-81.0	1.1
2025-01-16 19:15:25.800611	17.7	76.3	-81.1	1.8
2025-01-16 19:15:28.042409	15.1	75.5	-81.1	1.5
2025-01-16 19:15:30.284241	12.8	74.6	-81.4	0.0
2025-01-16 19:15:32.526361	10.7	73.7	-81.5	0.0
2025-01-16 19:15:34.767615	8.9	72.8	-81.7	0.0
2025-01-16 19:15:37.009347	7.3	71.9	-81.0	0.0
2025-01-16 19:15:39.250956	5.8	71.0	-81.5	0.0
2025-01-16 19:15:41.493105	4.5	70.0	-81.4	0.0
2025-01-16 19:15:43.735408	3.3	69.1	-81.5	0.0
2025-01-16 19:15:45.974867	2.2	68.2	-81.1	0.0
2025-01-16 19:15:48.219229	1.2	67.3	-81.4	0.0
2025-01-16 19:15:50.463995	0.3	66.3	-82.0	0.0
2025-01-16 19:15:52.706715	359.5	65.4	-81.4	0.0
2025-01-16 19:15:54.949415	358.7	64.5	-81.7	0.0
2025-01-16 19:15:57.191937	358.0	63.6	-81.3	0.0
2025-01-16 19:15:59.433225	357.3	62.7	-81.3	0.0
2025-01-16 19:16:01.672494	356.7	61.9	-81.4	0.0
2025-01-16 19:16:03.913193	356.2	61.0	-81.6	0.0
2025-01-16 19:16:06.155302	355.7	60.1	-81.3	0.0
2025-01-16 19:16:08.398574	355.2	59.3	-81.6	0.0
2025-01-16 19:16:10.640487	354.7	58.4	-82.0	0.0
2025-01-16 19:16:12.882741	354.3	57.6	-82.0	0.0
2025-01-16 19:16:15.125455	353.9	56.8	-82.0	0.0
2025-01-16 19:16:17.368525	353.5	55.9	-81.6	0.0
2025-01-16 19:16:19.609320	353.1	55.1	-81.7	0.0
2025-01-16 19:16:21.851280	352.8	54.3	-81.6	0.0
2025-01-16 19:16:24.095036	352.5	53.6	-81.6	0.0
2025-01-16 19:16:26.336410	352.2	52.8	-81.7	0.0
2025-01-16 19:16:28.577894	351.9	52.0	-81.8	0.0
2025-01-16 19:16:30.818601	351.6	51.3	-81.7	0.0
2025-01-16 19:16:33.061893	351.3	50.5	-82.0	0.0
2025-01-16 19:16:35.302396	351.1	49.8	-82.1	0.0
2025-01-16 19:16:37.544751	350.9	49.1	-82.3	0.0
2025-01-16 19:16:39.787009	350.6	48.4	-82.1	0.0
2025-01-16 19:16:42.031972	350.4	47.7	-82.1	0.0
2025-01-16 19:16:44.278166	350.2	47.0	-82.3	0.0
2025-01-16 19:16:46.518318	350.0	46.3	-82.2	0.0
2025-01-16 19:16:48.757816	349.8	45.7	-82.6	0.0
2025-01-16 19:16:51.000338	349.6	45.0	-82.3	0.0
2025-01-16 19:16:53.241497	349.5	44.4	-82.2	0.0
2025-01-16 19:16:55.485564	349.3	43.8	-82.0	0.0
2025-01-16 19:16:57.730786	349.2	43.1	-81.9	0.0
2025-01-16 19:16:59.971938	349.0	42.5	-82.1	0.0
2025-01-16 19:17:02.218288	348.9	41.9	-82.6	0.0
2025-01-16 19:17:04.460601	348.7	41.3	-82.1	0.0
2025-01-16 19:17:06.705311	348.6	40.7	-82.3	0.0
2025-01-16 19:17:08.947990	348.4	40.2	-81.7	0.0
2025-01-16 19:17:11.190514	348.3	39.6	-82.1	0.0
2025-01-16 19:17:13.432354	348.2	39.0	-82.4	0.0
2025-01-16 19:17:15.677058	348.1	38.5	-82.0	0.0
2025-01-16 19:17:17.920330	348.0	37.9	-81.8	0.0
2025-01-16 19:17:20.161524	347.9	37.4	-82.3	0.0
2025-01-16 19:17:22.403216	347.8	36.9	-81.9	0.0
2025-01-16 19:17:24.645454	347.7	36.4	-82.1	0.0
2025-01-16 19:17:26.884031	347.6	35.9	-81.9	0.0
2025-01-16 19:17:29.126621	347.5	35.4	-82.3	0.0
2025-01-16 19:17:31.367018	347.4	34.9	-81.9	0.0
2025-01-16 19:17:33.607800	347.3	34.4	-82.3	0.0
2025-01-16 19:17:35.850891	347.2	33.9	-82.0	0.0
2025-01-16 19:17:38.092139	347.1	33.4	-82.2	0.0
2025-01-16 19:17:40.333653	347.0	33.0	-81.5	0.0
2025-01-16 19:17:42.577545	347.0	32.5	-82.0	0.0
2025-01-16 19:17:44.819708	346.9	32.1	-82.4	0.0
2025-01-16 19:17:47.061148	346.8	31.6	-81.9	0.0
2025-01-16 19:17:49.303703	346.7	31.2	-81.6	0.0
2025-01-16 19:17:51.547164	346.7	30.8	-82.1	0.0
2025-01-16 19:17:53.791805	346.6	30.3	-81.6	0.0
2025-01-16 19:17:56.032171	346.5	29.9	-81.6	0.0
2025-01-16 19:17:58.273786	346.5	29.5	-81.3	0.0
2025-01-16 19:18:00.513476	346.4	29.1	-81.8	0.0
2025-01-16 19:18:02.756417	346.4	28.7	-82.0	0.0
2025-01-16 19:18:04.999096	346.3	28.3	-82.0	0.0
2025-01-16 19:18:07.241930	346.2	27.9	-81.7	0.0
2025-01-16 19:18:09.483744	346.2	27.5	-81.9	0.0
2025-01-16 19:18:11.724297	346.1	27.1	-81.7	0.0
2025-01-16 19:18:13.968654	346.1	26.8	-82.1	0.0
2025-01-16 19:18:16.206756	346.0	26.4	-81.2	0.0
2025-01-16 19:18:18.449835	346.0	26.0	-81.7	0.0
2025-01-16 19:18:20.691050	345.9	25.7	-81.8	0.0
2025-01-16 19:18:22.935622	345.9	25.3	-81.4	0.0
2025-01-16 19:18:25.177658	345.8	25.0	-80.6	0.0
2025-01-16 19:18:27.420622	345.8	24.6	-82.0	0.0
2025-01-16 19:18:29.663570	345.7	24.3	-82.0	0.0
2025-01-16 19:18:31.905876	345.7	24.0	-81.8	0.0
2025-01-16 19:18:34.147679	345.7	23.6	-82.1	0.0
2025-01-16 19:18:36.389467	345.6	23.3	-81.7	0.0
2025-01-16 19:18:38.631681	345.6	23.0	-82.2	0.0
2025-01-16 19:18:40.873328	345.5	22.6	-82.3	0.0
2025-01-16 19:18:43.117692	345.5	22.3	-82.5	0.0
2025-01-16 19:18:45.357361	345.5	22.0	-82.3	0.0
2025-01-16 19:18:47.600517	345.4	21.7	-82.3	0.0
2025-01-16 19:18:49.840190	345.4	21.4	-82.1	0.0
2025-01-16 19:18:52.082448	345.4	21.1	-82.0	0.0
2025-01-16 19:18:54.323617	345.3	20.8	-81.7	0.0
2025-01-16 19:18:56.564873	345.3	20.5	-81.4	0.0
2025-01-16 19:18:58.806539	345.3	20.2	-81.5	0.0
2025-01-16 19:19:01.048844	345.2	19.9	-81.3	0.0
2025-01-16 19:19:03.293035	345.2	19.6	-81.5	0.0
2025-01-16 19:19:05.533688	345.2	19.4	-81.5	0.0
2025-01-16 19:19:07.776029	345.2	19.1	-81.3	0.0
2025-01-16 19:19:10.018462	345.1	18.8	-81.9	0.0
2025-01-16 19:19:12.262807	345.1	18.5	-81.8	0.0
2025-01-16 19:19:14.505810	345.1	18.3	-82.0	0.0
2025-01-16 19:19:16.744786	345.0	18.0	-82.3	0.0
2025-01-16 19:19:18.987664	345.0	17.7	-82.1	0.0
2025-01-16 19:19:21.229843	345.0	17.5	-82.0	0.0
2025-01-16 19:19:23.471229	345.0	17.2	-82.5	0.0
2025-01-16 19:19:25.712194	345.0	17.0	-82.3	0.0
2025-01-16 19:19:27.955738	344.9	16.7	-82.2	0.0
2025-01-16 19:19:30.196768	344.9	16.5	-82.4	0.0
2025-01-16 19:19:32.436506	344.9	16.2	-82.5	0.0
2025-01-16 19:19:34.679811	344.9	16.0	-82.6	0.0
2025-01-16 19:19:36.919840	344.8	15.7	-82.2	0.0
2025-01-16 19:19:39.162993	344.8	15.5	-81.6	0.0
2025-01-16 19:19:41.405512	344.8	15.2	-81.3	0.0
2025-01-16 19:19:43.649228	344.8	15.0	-82.1	0.0
2025-01-16 19:19:45.890001	344.8	14.8	-82.1	0.0
2025-01-16 19:19:48.133336	344.7	14.5	-81.9	0.0
2025-01-16 19:19:50.374009	344.7	14.3	-82.4	0.0
2025-01-16 19:19:52.615018	344.7	14.1	-82.5	0.0
2025-01-16 19:19:54.858777	344.7	13.9	-82.5	0.0
2025-01-16 19:19:57.100522	344.7	13.6	-82.2	0.0
2025-01-16 19:19:59.340215	344.7	13.4	-82.2	0.0
2025-01-16 19:20:01.578867	344.6	13.2	-82.4	0.0
2025-01-16 19:20:03.820233	344.6	13.0	-81.9	0.0
2025-01-16 19:20:06.060546	344.6	12.8	-81.6	0.0
2025-01-16 19:20:08.303737	344.6	12.5	-81.5	0.0
2025-01-16 19:20:10.547721	344.6	12.3	-82.1	0.0
2025-01-16 19:20:12.789479	344.6	12.1	-82.2	0.0
2025-01-16 19:20:15.032028	344.5	11.9	-82.0	0.0
2025-01-16 19:20:17.272685	344.5	11.7	-81.7	0.0
2025-01-16 19:20:19.516522	344.5	11.5	-81.6	0.0
2025-01-16 19:20:21.757707	344.5	11.3	-82.4	0.0
2025-01-16 19:20:24.001324	344.5	11.1	-82.2	0.0
2025-01-16 19:20:26.241187	344.5	10.9	-82.3	0.0
2025-01-16 19:20:28.483057	344.5	10.7	-81.6	0.0
2025-01-16 19:20:30.723255	344.5	10.5	-81.9	0.0
2025-01-16 19:20:32.969033	344.4	10.3	-82.0	0.0
2025-01-16 19:20:35.210502	344.4	10.1	-82.4	0.0
#Closed at: 2025-01-16 19:09:26.583291