passes_logs/2025/01/16/planumMaritime01/planumMaritime01__20250116_085135_NOAA_19_rec.log

#Pass ID: 20250116_085135_NOAA 19
#Satellite: NOAA 19
#Configuration: NOAA 19
#Start time: 2025-01-16 08:51:40.726780

#LorettStation: 1.0.0 05.05.2024
#Station: planumMaritime01
#Location: 37.49445 lon 55.92918 lat
#TLE: 1 33591U 09005A   25015.14570653  .00000261  00000+0  16322-3 0  9994
#TLE: 2 33591  99.0196  78.9093 0014467  57.1425 303.1137 14.13259366821569

#Time	Az	El	Level	SNR
2025-01-16 08:51:42.890794	7.7	10.2	-79.8	0.0
2025-01-16 08:51:45.137748	7.6	10.4	-80.0	0.0
2025-01-16 08:51:47.382841	7.5	10.5	-80.2	0.0
2025-01-16 08:51:49.629201	7.3	10.7	-80.4	0.0
2025-01-16 08:51:51.874043	7.2	10.9	-80.6	0.0
2025-01-16 08:51:54.120086	7.0	11.1	-80.6	0.0
2025-01-16 08:51:56.365981	6.9	11.3	-80.3	0.0
2025-01-16 08:51:58.613778	6.7	11.5	-80.3	0.0
2025-01-16 08:52:00.860168	6.5	11.7	-80.2	0.0
2025-01-16 08:52:03.109726	6.4	11.9	-80.1	0.0
2025-01-16 08:52:05.358454	6.2	12.1	-80.5	0.0
2025-01-16 08:52:07.606174	6.0	12.2	-80.4	0.0
2025-01-16 08:52:09.852753	5.9	12.4	-80.5	0.0
2025-01-16 08:52:12.097500	5.7	12.6	-80.3	0.0
2025-01-16 08:52:14.345276	5.5	12.8	-80.2	0.0
2025-01-16 08:52:16.591039	5.4	13.0	-80.8	0.0
2025-01-16 08:52:18.842339	5.2	13.2	-80.1	0.0
2025-01-16 08:52:21.088750	5.0	13.4	-80.6	0.0
2025-01-16 08:52:23.332910	4.8	13.6	-80.6	0.0
2025-01-16 08:52:25.579358	4.6	13.9	-80.6	0.0
2025-01-16 08:52:27.825704	4.4	14.1	-80.3	0.0
2025-01-16 08:52:30.071826	4.3	14.3	-80.8	0.0
2025-01-16 08:52:32.317640	4.1	14.5	-80.7	0.0
2025-01-16 08:52:34.566278	3.9	14.7	-80.7	0.0
2025-01-16 08:52:36.814756	3.7	14.9	-80.6	0.0
2025-01-16 08:52:39.058459	3.5	15.1	-80.8	0.0
2025-01-16 08:52:41.303379	3.3	15.3	-80.8	0.0
2025-01-16 08:52:43.551510	3.0	15.5	-80.7	0.0
2025-01-16 08:52:45.797793	2.8	15.8	-80.5	0.0
2025-01-16 08:52:48.045705	2.6	16.0	-80.7	0.0
2025-01-16 08:52:50.289386	2.4	16.2	-80.8	0.0
2025-01-16 08:52:52.535427	2.2	16.4	-80.6	0.0
2025-01-16 08:52:54.781553	2.0	16.7	-80.2	0.0
2025-01-16 08:52:57.027743	1.7	16.9	-80.5	0.0
2025-01-16 08:52:59.273184	1.5	17.1	-80.5	0.0
2025-01-16 08:53:01.516681	1.3	17.3	-80.4	0.0
2025-01-16 08:53:03.764836	1.0	17.6	-80.7	0.0
2025-01-16 08:53:06.012383	0.8	17.8	-80.7	0.0
2025-01-16 08:53:08.257902	0.5	18.0	-80.7	0.0
2025-01-16 08:53:10.502395	0.3	18.3	-80.9	0.0
2025-01-16 08:53:12.749525	0.0	18.5	-80.8	0.0
2025-01-16 08:53:14.997488	359.8	18.7	-80.6	0.0
2025-01-16 08:53:17.242323	359.5	19.0	-80.9	0.0
2025-01-16 08:53:19.488778	359.2	19.2	-80.9	0.0
2025-01-16 08:53:21.734606	359.0	19.5	-80.8	0.0
2025-01-16 08:53:23.981850	358.7	19.7	-80.6	0.0
2025-01-16 08:53:26.227952	358.4	20.0	-80.8	0.0
2025-01-16 08:53:28.475167	358.1	20.2	-80.7	0.0
2025-01-16 08:53:30.722735	357.8	20.5	-80.8	0.0
2025-01-16 08:53:32.970897	357.5	20.7	-80.6	0.0
2025-01-16 08:53:35.215386	357.2	21.0	-80.8	0.0
2025-01-16 08:53:37.460361	356.9	21.2	-80.5	0.0
2025-01-16 08:53:39.708878	356.6	21.5	-80.7	0.0
2025-01-16 08:53:41.955830	356.3	21.8	-81.0	0.0
2025-01-16 08:53:44.200592	356.0	22.0	-80.6	0.0
2025-01-16 08:53:46.448668	355.7	22.3	-80.8	0.0
2025-01-16 08:53:48.696319	355.3	22.5	-81.0	0.0
2025-01-16 08:53:50.940852	355.0	22.8	-80.7	0.0
2025-01-16 08:53:53.185819	354.6	23.1	-80.9	0.0
2025-01-16 08:53:55.434227	354.3	23.3	-80.8	0.0
2025-01-16 08:53:57.679637	353.9	23.6	-80.3	0.0
2025-01-16 08:53:59.926711	353.6	23.9	-80.3	0.0
2025-01-16 08:54:02.173766	353.2	24.2	-80.5	0.0
2025-01-16 08:54:04.420878	352.8	24.4	-80.2	0.0
2025-01-16 08:54:06.667984	352.4	24.7	-80.7	0.0
2025-01-16 08:54:08.915404	352.1	25.0	-80.5	0.0
2025-01-16 08:54:11.159493	351.7	25.3	-80.7	0.0
2025-01-16 08:54:13.406614	351.3	25.6	-80.6	0.0
2025-01-16 08:54:15.653253	350.8	25.8	-80.7	0.0
2025-01-16 08:54:17.899936	350.4	26.1	-80.9	0.0
2025-01-16 08:54:20.142591	350.0	26.4	-80.5	0.0
2025-01-16 08:54:22.386476	349.6	26.7	-80.5	0.0
2025-01-16 08:54:24.631440	349.1	27.0	-80.5	0.0
2025-01-16 08:54:26.876119	348.7	27.3	-80.8	0.0
2025-01-16 08:54:29.120628	348.2	27.6	-80.3	0.0
2025-01-16 08:54:31.365268	347.8	27.9	-80.6	0.0
2025-01-16 08:54:33.610633	347.3	28.1	-80.3	0.0
2025-01-16 08:54:35.860494	346.8	28.4	-80.5	0.0
2025-01-16 08:54:38.106266	346.3	28.7	-80.3	0.0
2025-01-16 08:54:40.353404	345.8	29.0	-80.5	0.0
2025-01-16 08:54:42.598228	345.3	29.3	-80.5	0.0
2025-01-16 08:54:44.844530	344.8	29.6	-80.6	0.0
2025-01-16 08:54:47.089120	344.2	29.9	-80.6	0.0
2025-01-16 08:54:49.334735	343.7	30.2	-80.8	0.0
2025-01-16 08:54:51.582264	343.1	30.5	-80.4	0.0
2025-01-16 08:54:53.829822	342.6	30.8	-80.7	0.0
2025-01-16 08:54:56.074865	342.0	31.1	-80.9	0.0
2025-01-16 08:54:58.319584	341.4	31.4	-81.2	0.0
2025-01-16 08:55:00.563484	340.8	31.7	-81.0	0.0
2025-01-16 08:55:02.810609	340.2	32.0	-80.9	0.0
2025-01-16 08:55:05.056006	339.6	32.3	-81.0	0.0
2025-01-16 08:55:07.301452	339.0	32.6	-81.1	0.0
2025-01-16 08:55:09.550415	338.3	32.9	-80.9	0.0
2025-01-16 08:55:11.795990	337.7	33.1	-80.9	0.0
2025-01-16 08:55:14.039421	337.0	33.4	-80.9	0.0
2025-01-16 08:55:16.283341	336.4	33.7	-81.0	0.0
2025-01-16 08:55:18.529084	335.7	34.0	-80.8	0.0
2025-01-16 08:55:20.775815	335.0	34.3	-80.7	0.0
2025-01-16 08:55:23.020002	334.3	34.6	-80.8	0.0
2025-01-16 08:55:25.271209	333.5	34.8	-80.7	0.0
2025-01-16 08:55:27.517397	332.8	35.1	-80.7	0.0
2025-01-16 08:55:29.766314	332.1	35.4	-80.6	0.0
2025-01-16 08:55:32.009331	331.3	35.7	-80.8	0.0
2025-01-16 08:55:34.256242	330.5	35.9	-80.8	0.0
2025-01-16 08:55:36.501420	329.7	36.2	-80.6	0.0
2025-01-16 08:55:38.747125	329.0	36.4	-80.6	0.0
2025-01-16 08:55:40.996176	328.1	36.7	-80.8	0.0
2025-01-16 08:55:43.241335	327.3	36.9	-80.5	0.0
2025-01-16 08:55:45.485259	326.5	37.2	-80.1	0.0
2025-01-16 08:55:47.734114	325.6	37.4	-80.6	0.0
2025-01-16 08:55:49.981649	324.8	37.6	-80.5	0.0
2025-01-16 08:55:52.230684	323.9	37.9	-80.1	0.0
2025-01-16 08:55:54.477870	323.0	38.1	-80.2	0.0
2025-01-16 08:55:56.725745	322.1	38.3	-80.3	0.0
2025-01-16 08:55:58.975458	321.2	38.5	-80.6	0.0
2025-01-16 08:56:01.218537	320.3	38.7	-80.2	0.0
2025-01-16 08:56:03.465926	319.4	38.9	-80.4	0.0
2025-01-16 08:56:05.709830	318.4	39.1	-80.2	0.0
2025-01-16 08:56:07.955432	317.5	39.2	-80.9	0.0
2025-01-16 08:56:10.199618	316.5	39.4	-80.7	0.0
2025-01-16 08:56:12.445808	315.6	39.6	-80.6	0.0
2025-01-16 08:56:14.696514	314.6	39.7	-80.6	0.0
2025-01-16 08:56:16.942581	313.6	39.9	-80.7	0.0
2025-01-16 08:56:19.190304	312.6	40.0	-80.8	0.0
2025-01-16 08:56:21.431838	311.6	40.1	-80.9	0.0
2025-01-16 08:56:23.680868	310.6	40.2	-80.7	0.0
2025-01-16 08:56:25.923811	309.6	40.3	-80.9	0.0
2025-01-16 08:56:28.170414	308.5	40.4	-80.8	0.0
2025-01-16 08:56:30.415432	307.5	40.5	-80.9	0.0
2025-01-16 08:56:32.662639	306.5	40.6	-81.1	0.0
2025-01-16 08:56:34.908217	305.4	40.6	-81.0	0.0
2025-01-16 08:56:37.152686	304.4	40.7	-81.2	0.0
2025-01-16 08:56:39.398821	303.3	40.7	-81.1	0.0
2025-01-16 08:56:41.645237	302.3	40.8	-81.2	0.0
2025-01-16 08:56:43.892134	301.2	40.8	-81.3	0.0
2025-01-16 08:56:46.139115	300.2	40.8	-81.3	0.0
2025-01-16 08:56:48.390606	299.1	40.8	-81.0	0.0
2025-01-16 08:56:50.636682	298.1	40.8	-81.3	0.0
2025-01-16 08:56:52.885358	297.0	40.7	-81.2	0.0
2025-01-16 08:56:55.131888	296.0	40.7	-81.2	0.0
2025-01-16 08:56:57.379872	295.0	40.6	-81.2	0.0
2025-01-16 08:56:59.626338	293.9	40.6	-80.8	0.0
2025-01-16 08:57:01.875002	292.9	40.5	-81.2	0.0
2025-01-16 08:57:04.122621	291.8	40.4	-81.4	0.0
2025-01-16 08:57:06.368224	290.8	40.4	-81.0	0.0
2025-01-16 08:57:08.615563	289.8	40.3	-80.7	0.0
2025-01-16 08:57:10.865786	288.8	40.1	-81.0	0.0
2025-01-16 08:57:13.111002	287.8	40.0	-81.3	0.0
2025-01-16 08:57:15.354289	286.8	39.9	-80.9	0.0
2025-01-16 08:57:17.603467	285.8	39.8	-81.1	0.0
2025-01-16 08:57:19.849442	284.8	39.6	-80.8	0.0
2025-01-16 08:57:22.097705	283.8	39.5	-81.1	0.0
2025-01-16 08:57:24.345531	282.9	39.3	-80.8	0.0
2025-01-16 08:57:26.590268	281.9	39.1	-80.9	0.0
2025-01-16 08:57:28.837455	281.0	38.9	-80.8	0.0
2025-01-16 08:57:31.082972	280.0	38.7	-81.0	0.0
2025-01-16 08:57:33.325767	279.1	38.5	-81.2	0.0
2025-01-16 08:57:35.573596	278.2	38.3	-81.1	0.0
2025-01-16 08:57:37.816366	277.3	38.1	-81.0	0.0
2025-01-16 08:57:40.064262	276.4	37.9	-81.3	0.0
2025-01-16 08:57:42.308830	275.6	37.7	-81.1	0.0
2025-01-16 08:57:44.555158	274.7	37.5	-81.1	0.0
2025-01-16 08:57:46.802937	273.8	37.2	-81.2	0.0
2025-01-16 08:57:49.049812	273.0	37.0	-80.9	0.0
2025-01-16 08:57:51.297796	272.2	36.7	-81.1	0.0
2025-01-16 08:57:53.541607	271.4	36.5	-81.3	0.0
2025-01-16 08:57:55.791484	270.6	36.2	-81.2	0.0
2025-01-16 08:57:58.043234	269.8	36.0	-81.0	0.0
2025-01-16 08:58:00.289083	269.0	35.7	-81.3	0.0
2025-01-16 08:58:02.535994	268.2	35.4	-81.3	0.0
2025-01-16 08:58:04.779123	267.5	35.2	-80.8	0.0
2025-01-16 08:58:07.024112	266.7	34.9	-81.3	0.0
2025-01-16 08:58:09.268503	266.0	34.6	-81.1	0.0
2025-01-16 08:58:11.513902	265.3	34.3	-81.1	0.0
2025-01-16 08:58:13.760215	264.6	34.1	-80.9	0.0
2025-01-16 08:58:16.010657	263.9	33.8	-81.3	0.0
2025-01-16 08:58:18.254849	263.2	33.5	-81.2	0.0
2025-01-16 08:58:20.502278	262.6	33.2	-80.7	0.0
2025-01-16 08:58:22.747935	261.9	32.9	-80.8	0.0
2025-01-16 08:58:24.995632	261.3	32.6	-81.2	0.0
2025-01-16 08:58:27.238574	260.7	32.3	-81.2	0.0
2025-01-16 08:58:29.488768	260.0	32.0	-81.2	0.0
2025-01-16 08:58:31.733324	259.4	31.8	-81.3	0.0
2025-01-16 08:58:33.979493	258.8	31.5	-81.3	0.0
2025-01-16 08:58:36.228265	258.2	31.2	-80.9	0.0
2025-01-16 08:58:38.475873	257.7	30.9	-81.0	0.0
2025-01-16 08:58:40.723013	257.1	30.6	-81.3	0.0
2025-01-16 08:58:42.966462	256.5	30.3	-81.3	0.0
2025-01-16 08:58:45.212916	256.0	30.0	-80.9	0.0
2025-01-16 08:58:47.461235	255.5	29.7	-81.4	0.0
2025-01-16 08:58:49.707176	254.9	29.4	-81.1	0.0
2025-01-16 08:58:51.954679	254.4	29.1	-80.8	0.0
2025-01-16 08:58:54.201453	253.9	28.8	-81.2	0.0
2025-01-16 08:58:56.447793	253.4	28.5	-81.0	0.0
2025-01-16 08:58:58.697621	252.9	28.2	-80.9	0.0
2025-01-16 08:59:00.945093	252.5	27.9	-81.2	0.0
2025-01-16 08:59:03.188165	252.0	27.6	-81.1	0.0
2025-01-16 08:59:05.432671	251.5	27.3	-81.2	0.0
2025-01-16 08:59:07.678755	251.1	27.0	-81.1	0.0
2025-01-16 08:59:09.925933	250.6	26.8	-81.3	0.0
2025-01-16 08:59:12.171511	250.2	26.5	-81.1	0.0
2025-01-16 08:59:14.413586	249.8	26.2	-81.1	0.0
2025-01-16 08:59:16.658911	249.3	25.9	-80.9	0.0
2025-01-16 08:59:18.901880	248.9	25.6	-81.2	0.0
2025-01-16 08:59:21.145320	248.5	25.3	-81.3	0.0
2025-01-16 08:59:23.390005	248.1	25.1	-81.2	0.0
2025-01-16 08:59:25.636148	247.7	24.8	-81.0	0.0
2025-01-16 08:59:27.885819	247.3	24.5	-81.1	0.0
2025-01-16 08:59:30.129755	247.0	24.2	-80.9	0.0
2025-01-16 08:59:32.374409	246.6	23.9	-81.2	0.0
2025-01-16 08:59:34.621922	246.2	23.7	-80.8	0.0
2025-01-16 08:59:36.868048	245.9	23.4	-81.5	0.0
2025-01-16 08:59:39.110617	245.5	23.1	-81.4	0.0
2025-01-16 08:59:41.353026	245.2	22.9	-81.1	0.0
2025-01-16 08:59:43.599317	244.8	22.6	-81.0	0.0
2025-01-16 08:59:45.844515	244.5	22.3	-81.0	0.0
2025-01-16 08:59:48.089788	244.2	22.1	-81.2	0.0
2025-01-16 08:59:50.336384	243.8	21.8	-81.1	0.0
2025-01-16 08:59:52.584451	243.5	21.5	-81.0	0.0
2025-01-16 08:59:54.832017	243.2	21.3	-81.2	0.0
2025-01-16 08:59:57.078597	242.9	21.0	-81.1	0.0
2025-01-16 08:59:59.325995	242.6	20.8	-81.2	0.0
2025-01-16 09:00:01.570715	242.3	20.5	-81.0	0.0
2025-01-16 09:00:03.813992	242.0	20.3	-81.1	0.0
2025-01-16 09:00:06.061705	241.7	20.0	-81.3	0.0
2025-01-16 09:00:08.309940	241.4	19.8	-81.5	0.0
2025-01-16 09:00:10.553444	241.2	19.5	-81.4	0.0
2025-01-16 09:00:12.802394	240.9	19.3	-81.5	0.0
2025-01-16 09:00:15.049938	240.6	19.0	-81.1	0.0
2025-01-16 09:00:17.296490	240.4	18.8	-81.5	0.0
2025-01-16 09:00:19.542007	240.1	18.6	-81.4	0.0
2025-01-16 09:00:21.790216	239.8	18.3	-81.5	0.0
2025-01-16 09:00:24.034355	239.6	18.1	-81.3	0.0
2025-01-16 09:00:26.279860	239.3	17.8	-81.2	0.0
2025-01-16 09:00:28.524460	239.1	17.6	-81.3	0.0
2025-01-16 09:00:30.768364	238.9	17.4	-80.6	0.0
2025-01-16 09:00:33.013984	238.6	17.2	-81.2	0.0
2025-01-16 09:00:35.263785	238.4	16.9	-81.2	0.0
2025-01-16 09:00:37.508362	238.1	16.7	-81.1	0.0
2025-01-16 09:00:39.753233	237.9	16.5	-81.6	0.0
2025-01-16 09:00:41.999352	237.7	16.3	-81.2	0.0
2025-01-16 09:00:44.243538	237.5	16.0	-81.0	0.0
2025-01-16 09:00:46.488643	237.3	15.8	-81.2	0.0
2025-01-16 09:00:48.736554	237.0	15.6	-81.5	0.0
2025-01-16 09:00:50.984879	236.8	15.4	-81.2	0.0
2025-01-16 09:00:53.230952	236.6	15.2	-81.6	0.0
2025-01-16 09:00:55.476830	236.4	14.9	-81.4	0.0
2025-01-16 09:00:57.726358	236.2	14.7	-81.3	0.0
2025-01-16 09:00:59.972920	236.0	14.5	-81.5	0.0
2025-01-16 09:01:02.217810	235.8	14.3	-81.4	0.0
2025-01-16 09:01:04.464151	235.6	14.1	-81.4	0.0
2025-01-16 09:01:06.711293	235.4	13.9	-81.4	0.0
2025-01-16 09:01:08.958659	235.3	13.7	-81.6	0.0
2025-01-16 09:01:11.201097	235.1	13.5	-81.3	0.0
2025-01-16 09:01:13.445968	234.9	13.3	-81.3	0.0
2025-01-16 09:01:15.694940	234.7	13.1	-81.2	0.0
2025-01-16 09:01:17.940535	234.5	12.9	-81.4	0.0
2025-01-16 09:01:20.184312	234.4	12.7	-80.9	0.0
2025-01-16 09:01:22.431157	234.2	12.5	-81.2	0.0
2025-01-16 09:01:24.678148	234.0	12.3	-81.3	0.0
2025-01-16 09:01:26.924948	233.8	12.1	-81.6	0.0
2025-01-16 09:01:29.175734	233.7	11.9	-81.1	0.0
2025-01-16 09:01:31.425761	233.5	11.7	-81.5	0.0
2025-01-16 09:01:33.670639	233.4	11.5	-81.2	0.0
2025-01-16 09:01:35.915682	233.2	11.3	-81.0	0.0
2025-01-16 09:01:38.162744	233.0	11.1	-81.4	0.0
2025-01-16 09:01:40.410615	232.9	10.9	-81.3	0.0
2025-01-16 09:01:42.660707	232.7	10.8	-81.4	0.0
2025-01-16 09:01:44.907820	232.6	10.6	-81.1	0.0
2025-01-16 09:01:47.153214	232.4	10.4	-81.2	0.0
2025-01-16 09:01:49.402210	232.3	10.2	-80.8	0.0
2025-01-16 09:01:51.646682	232.1	10.0	-81.3	0.0
#Closed at: 2025-01-16 08:51:35.728475