passes_logs/2025/01/16/planumMaritime01/planumMaritime01__20250116_121756_METEOR-M2_4_rec.log

#Pass ID: 20250116_121756_METEOR-M2 4
#Satellite: METEOR-M2 4
#Configuration: METEOR-M2 4
#Start time: 2025-01-16 12:18:01.160716

#LorettStation: 1.0.0 05.05.2024
#Station: planumMaritime01
#Location: 37.49445 lon 55.92918 lat
#TLE: 1 59051U 24039A   25015.09829084  .00000075  00000+0  53338-4 0  9998
#TLE: 2 59051  98.6293 338.1069 0006191 224.4882 135.5799 14.22325142 45617

#Time	Az	El	Level	SNR
2025-01-16 12:18:03.323151	192.8	10.2	-79.5	0.0
2025-01-16 12:18:05.568604	193.0	10.4	-79.6	0.0
2025-01-16 12:18:07.814991	193.2	10.5	-79.7	0.0
2025-01-16 12:18:10.062047	193.3	10.7	-79.9	0.0
2025-01-16 12:18:12.310401	193.5	10.9	-79.6	0.0
2025-01-16 12:18:14.561498	193.7	11.1	-79.8	0.0
2025-01-16 12:18:16.805250	193.8	11.3	-79.7	0.0
2025-01-16 12:18:19.047602	194.0	11.5	-79.5	0.0
2025-01-16 12:18:21.291837	194.2	11.7	-79.5	0.0
2025-01-16 12:18:23.541821	194.3	11.9	-79.8	0.0
2025-01-16 12:18:25.787478	194.5	12.1	-80.1	0.0
2025-01-16 12:18:28.031961	194.7	12.3	-80.0	0.0
2025-01-16 12:18:30.275226	194.9	12.5	-80.3	0.0
2025-01-16 12:18:32.523595	195.1	12.7	-80.2	0.0
2025-01-16 12:18:34.768627	195.3	12.9	-80.3	0.0
2025-01-16 12:18:37.014223	195.5	13.1	-80.4	0.0
2025-01-16 12:18:39.260234	195.6	13.3	-80.3	0.0
2025-01-16 12:18:41.506772	195.8	13.5	-79.6	0.0
2025-01-16 12:18:43.751411	196.0	13.7	-79.6	0.0
2025-01-16 12:18:45.998256	196.2	13.9	-79.7	0.0
2025-01-16 12:18:48.245455	196.4	14.1	-80.2	0.0
2025-01-16 12:18:50.493068	196.7	14.3	-80.1	0.0
2025-01-16 12:18:52.738503	196.9	14.5	-80.1	0.0
2025-01-16 12:18:54.984141	197.1	14.7	-80.0	0.0
2025-01-16 12:18:57.228483	197.3	14.9	-80.2	0.0
2025-01-16 12:18:59.474573	197.5	15.1	-79.8	0.0
2025-01-16 12:19:01.720242	197.7	15.4	-80.2	0.0
2025-01-16 12:19:03.965202	198.0	15.6	-80.0	0.0
2025-01-16 12:19:06.209571	198.2	15.8	-80.3	0.0
2025-01-16 12:19:08.453525	198.4	16.0	-80.3	0.0
2025-01-16 12:19:10.698982	198.6	16.2	-80.5	0.0
2025-01-16 12:19:12.943762	198.9	16.5	-80.4	0.0
2025-01-16 12:19:15.192791	199.1	16.7	-80.2	0.0
2025-01-16 12:19:17.442931	199.4	16.9	-80.2	0.0
2025-01-16 12:19:19.689423	199.6	17.2	-80.4	0.0
2025-01-16 12:19:21.937826	199.9	17.4	-80.5	0.0
2025-01-16 12:19:24.183307	200.1	17.6	-79.4	0.0
2025-01-16 12:19:26.430481	200.4	17.9	-80.2	0.0
2025-01-16 12:19:28.674807	200.7	18.1	-80.3	0.0
2025-01-16 12:19:30.922868	200.9	18.3	-80.3	0.0
2025-01-16 12:19:33.171555	201.2	18.6	-80.3	0.0
2025-01-16 12:19:35.420999	201.5	18.8	-80.5	0.0
2025-01-16 12:19:37.665843	201.8	19.1	-80.3	0.0
2025-01-16 12:19:39.911552	202.0	19.3	-80.7	0.0
2025-01-16 12:19:42.161612	202.3	19.6	-80.6	0.0
2025-01-16 12:19:44.408779	202.6	19.8	-79.6	0.0
2025-01-16 12:19:46.656608	202.9	20.1	-80.6	0.0
2025-01-16 12:19:48.903613	203.2	20.3	-80.6	0.0
2025-01-16 12:19:51.154333	203.5	20.6	-80.4	0.0
2025-01-16 12:19:53.399770	203.8	20.8	-80.5	0.0
2025-01-16 12:19:55.647433	204.2	21.1	-80.6	0.0
2025-01-16 12:19:57.891962	204.5	21.3	-80.4	0.0
2025-01-16 12:20:00.137897	204.8	21.6	-80.3	0.0
2025-01-16 12:20:02.384521	205.2	21.9	-80.2	0.0
2025-01-16 12:20:04.632037	205.5	22.1	-79.5	0.0
2025-01-16 12:20:06.880039	205.8	22.4	-80.5	0.0
2025-01-16 12:20:09.126696	206.2	22.7	-80.5	0.0
2025-01-16 12:20:11.372875	206.6	22.9	-80.6	0.0
2025-01-16 12:20:13.619219	206.9	23.2	-80.6	0.0
2025-01-16 12:20:15.863423	207.3	23.5	-80.4	0.0
2025-01-16 12:20:18.111250	207.7	23.8	-80.5	0.0
2025-01-16 12:20:20.358792	208.1	24.0	-80.6	0.0
2025-01-16 12:20:22.605178	208.4	24.3	-80.4	0.0
2025-01-16 12:20:24.848504	208.8	24.6	-79.8	0.0
2025-01-16 12:20:27.095942	209.2	24.9	-80.5	0.0
2025-01-16 12:20:29.343013	209.7	25.2	-80.7	0.0
2025-01-16 12:20:31.589893	210.1	25.4	-80.6	0.0
2025-01-16 12:20:33.837185	210.5	25.7	-80.6	0.0
2025-01-16 12:20:36.082840	210.9	26.0	-80.6	0.0
2025-01-16 12:20:38.326656	211.4	26.3	-80.4	0.0
2025-01-16 12:20:40.574358	211.8	26.6	-80.5	0.0
2025-01-16 12:20:42.819990	212.3	26.9	-80.6	0.0
2025-01-16 12:20:45.066139	212.7	27.2	-80.3	0.0
2025-01-16 12:20:47.314059	213.2	27.5	-80.3	0.0
2025-01-16 12:20:49.558843	213.7	27.8	-80.4	0.0
2025-01-16 12:20:51.804839	214.2	28.1	-80.6	0.0
2025-01-16 12:20:54.052945	214.7	28.4	-80.9	0.0
2025-01-16 12:20:56.297826	215.2	28.7	-80.9	0.0
2025-01-16 12:20:58.546507	215.7	29.0	-80.7	0.0
2025-01-16 12:21:00.795294	216.3	29.3	-80.8	0.0
2025-01-16 12:21:03.041094	216.8	29.6	-81.2	0.0
2025-01-16 12:21:05.288874	217.3	29.9	-80.9	0.0
2025-01-16 12:21:07.535984	217.9	30.2	-80.5	0.0
2025-01-16 12:21:09.786037	218.5	30.5	-81.1	0.0
2025-01-16 12:21:12.034668	219.1	30.8	-80.9	0.0
2025-01-16 12:21:14.282252	219.6	31.1	-80.5	0.0
2025-01-16 12:21:16.529500	220.2	31.4	-80.8	0.0
2025-01-16 12:21:18.774823	220.9	31.7	-80.5	0.0
2025-01-16 12:21:21.021048	221.5	32.0	-80.7	0.0
2025-01-16 12:21:23.265915	222.1	32.3	-80.5	0.0
2025-01-16 12:21:25.511461	222.8	32.6	-80.8	0.0
2025-01-16 12:21:27.758561	223.4	32.9	-79.8	0.0
2025-01-16 12:21:30.002313	224.1	33.2	-81.1	0.0
2025-01-16 12:21:32.248339	224.8	33.5	-80.8	0.0
2025-01-16 12:21:34.494376	225.5	33.8	-80.7	0.0
2025-01-16 12:21:36.740710	226.2	34.1	-80.7	0.0
2025-01-16 12:21:38.986524	226.9	34.3	-80.8	0.0
2025-01-16 12:21:41.234642	227.6	34.6	-80.7	0.0
2025-01-16 12:21:43.478930	228.4	34.9	-80.7	0.0
2025-01-16 12:21:45.726915	229.1	35.2	-80.9	0.0
2025-01-16 12:21:47.969449	229.9	35.5	-79.8	0.0
2025-01-16 12:21:50.218032	230.7	35.8	-80.7	0.0
2025-01-16 12:21:52.466421	231.5	36.0	-80.6	0.0
2025-01-16 12:21:54.714649	232.3	36.3	-80.9	0.0
2025-01-16 12:21:56.960614	233.1	36.6	-80.7	0.0
2025-01-16 12:21:59.205332	233.9	36.8	-80.5	0.0
2025-01-16 12:22:01.450488	234.8	37.1	-80.7	0.0
2025-01-16 12:22:03.694280	235.7	37.3	-80.7	0.0
2025-01-16 12:22:05.938213	236.5	37.6	-80.7	0.0
2025-01-16 12:22:08.186408	237.4	37.8	-79.7	0.0
2025-01-16 12:22:10.432187	238.3	38.0	-80.9	0.0
2025-01-16 12:22:12.677144	239.2	38.3	-81.0	0.0
2025-01-16 12:22:14.924322	240.2	38.5	-81.2	0.0
2025-01-16 12:22:17.175382	241.1	38.7	-80.9	0.0
2025-01-16 12:22:19.422355	242.0	38.9	-80.8	0.0
2025-01-16 12:22:21.668769	243.0	39.1	-81.0	0.0
2025-01-16 12:22:23.915123	244.0	39.3	-81.2	0.0
2025-01-16 12:22:26.159088	245.0	39.5	-81.0	0.0
2025-01-16 12:22:28.409709	246.0	39.6	-80.1	0.0
2025-01-16 12:22:30.655904	247.0	39.8	-80.8	0.0
2025-01-16 12:22:32.902272	248.0	39.9	-80.5	0.0
2025-01-16 12:22:35.151766	249.0	40.1	-80.7	0.0
2025-01-16 12:22:37.396363	250.0	40.2	-81.0	0.0
2025-01-16 12:22:39.641767	251.1	40.4	-81.0	0.0
2025-01-16 12:22:41.889838	252.1	40.5	-81.2	0.0
2025-01-16 12:22:44.135371	253.2	40.6	-81.1	0.0
2025-01-16 12:22:46.380384	254.2	40.7	-80.9	0.0
2025-01-16 12:22:48.625324	255.3	40.8	-80.7	0.0
2025-01-16 12:22:50.871509	256.4	40.8	-80.8	0.0
2025-01-16 12:22:53.119138	257.4	40.9	-80.6	0.0
2025-01-16 12:22:55.365291	258.5	40.9	-80.6	0.0
2025-01-16 12:22:57.610951	259.6	41.0	-81.1	0.0
2025-01-16 12:22:59.857691	260.7	41.0	-80.6	0.0
2025-01-16 12:23:02.103065	261.8	41.0	-80.6	0.0
2025-01-16 12:23:04.353479	262.9	41.0	-81.0	0.0
2025-01-16 12:23:06.600259	264.0	41.0	-81.2	0.0
2025-01-16 12:23:08.844590	265.0	41.0	-80.7	0.0
2025-01-16 12:23:11.091371	266.1	41.0	-80.6	0.0
2025-01-16 12:23:13.340302	267.2	40.9	-80.9	0.0
2025-01-16 12:23:15.584898	268.3	40.9	-80.7	0.0
2025-01-16 12:23:17.833297	269.4	40.8	-80.8	0.0
2025-01-16 12:23:20.079159	270.4	40.8	-80.9	0.0
2025-01-16 12:23:22.326741	271.5	40.7	-80.6	0.0
2025-01-16 12:23:24.572544	272.6	40.6	-81.2	0.0
2025-01-16 12:23:26.818350	273.6	40.5	-80.9	0.0
2025-01-16 12:23:29.063323	274.7	40.4	-81.0	0.0
2025-01-16 12:23:31.307362	275.7	40.2	-79.8	0.0
2025-01-16 12:23:33.554801	276.7	40.1	-80.9	0.0
2025-01-16 12:23:35.802306	277.7	40.0	-80.7	0.0
2025-01-16 12:23:38.048319	278.8	39.8	-80.5	0.0
2025-01-16 12:23:40.292639	279.8	39.6	-80.7	0.0
2025-01-16 12:23:42.539947	280.8	39.5	-81.0	0.0
2025-01-16 12:23:44.789042	281.7	39.3	-80.7	0.0
2025-01-16 12:23:47.034607	282.7	39.1	-80.7	0.0
2025-01-16 12:23:49.279461	283.7	38.9	-80.5	0.0
2025-01-16 12:23:51.524482	284.6	38.7	-80.2	0.0
2025-01-16 12:23:53.769507	285.6	38.5	-80.8	0.0
2025-01-16 12:23:56.018436	286.5	38.3	-80.8	0.0
2025-01-16 12:23:58.263958	287.4	38.1	-80.9	0.0
2025-01-16 12:24:00.508595	288.3	37.8	-81.5	0.0
2025-01-16 12:24:02.755645	289.2	37.6	-81.0	0.0
2025-01-16 12:24:05.003442	290.1	37.4	-80.8	0.0
2025-01-16 12:24:07.249397	290.9	37.1	-80.9	0.0
2025-01-16 12:24:09.492269	291.8	36.9	-80.8	0.0
2025-01-16 12:24:11.738511	292.6	36.6	-79.6	0.0
2025-01-16 12:24:13.983560	293.4	36.3	-80.9	0.0
2025-01-16 12:24:16.228888	294.2	36.1	-80.8	0.0
2025-01-16 12:24:18.475503	295.0	35.8	-80.7	0.0
2025-01-16 12:24:20.721661	295.8	35.5	-81.1	0.0
2025-01-16 12:24:22.968005	296.6	35.3	-81.1	0.0
2025-01-16 12:24:25.211783	297.3	35.0	-81.0	0.0
2025-01-16 12:24:27.457282	298.1	34.7	-80.8	0.0
2025-01-16 12:24:29.702989	298.8	34.4	-81.1	0.0
2025-01-16 12:24:31.951579	299.5	34.1	-80.2	0.0
2025-01-16 12:24:34.197487	300.2	33.8	-81.1	0.0
2025-01-16 12:24:36.442876	300.9	33.5	-80.9	0.0
2025-01-16 12:24:38.689734	301.6	33.2	-81.0	0.0
2025-01-16 12:24:40.935738	302.3	33.0	-81.0	0.0
2025-01-16 12:24:43.186627	302.9	32.7	-81.2	0.0
2025-01-16 12:24:45.432909	303.6	32.4	-81.1	0.0
2025-01-16 12:24:47.682069	304.2	32.1	-80.9	0.0
2025-01-16 12:24:49.929536	304.8	31.8	-81.0	0.0
2025-01-16 12:24:52.176669	305.5	31.5	-80.1	0.0
2025-01-16 12:24:54.425357	306.1	31.2	-80.6	0.0
2025-01-16 12:24:56.668505	306.6	30.9	-80.4	0.0
2025-01-16 12:24:58.911681	307.2	30.6	-80.8	0.0
2025-01-16 12:25:01.157892	307.8	30.3	-80.8	0.0
2025-01-16 12:25:03.403668	308.4	30.0	-81.1	0.0
2025-01-16 12:25:05.648348	308.9	29.7	-80.9	0.0
2025-01-16 12:25:07.895735	309.4	29.4	-81.0	0.0
2025-01-16 12:25:10.143072	310.0	29.1	-80.8	0.0
2025-01-16 12:25:12.391762	310.5	28.8	-80.2	0.0
2025-01-16 12:25:14.677843	311.0	28.5	-80.3	0.0
2025-01-16 12:25:16.927347	311.5	28.2	-80.9	0.0
2025-01-16 12:25:19.171780	312.0	27.9	-80.7	0.0
2025-01-16 12:25:21.420641	312.5	27.6	-81.1	0.0
2025-01-16 12:25:23.667435	313.0	27.3	-80.7	0.0
2025-01-16 12:25:25.912190	313.4	27.0	-80.8	0.0
2025-01-16 12:25:28.158657	313.9	26.7	-80.9	0.0
2025-01-16 12:25:30.408793	314.3	26.4	-80.8	0.0
2025-01-16 12:25:32.653739	314.8	26.1	-80.7	0.0
2025-01-16 12:25:34.900428	315.2	25.8	-80.0	0.0
2025-01-16 12:25:37.149589	315.6	25.6	-81.1	0.0
2025-01-16 12:25:39.396215	316.1	25.3	-81.1	0.0
2025-01-16 12:25:41.643905	316.5	25.0	-81.3	0.0
2025-01-16 12:25:43.889016	316.9	24.7	-81.1	0.0
2025-01-16 12:25:46.135354	317.3	24.4	-80.9	0.0
2025-01-16 12:25:48.381636	317.7	24.2	-81.3	0.0
2025-01-16 12:25:50.622966	318.0	23.9	-81.0	0.0
2025-01-16 12:25:52.871043	318.4	23.6	-80.6	0.0
2025-01-16 12:25:55.116900	318.8	23.3	-80.0	0.0
2025-01-16 12:25:57.361985	319.2	23.1	-81.0	0.0
2025-01-16 12:25:59.610170	319.5	22.8	-81.0	0.0
2025-01-16 12:26:01.855392	319.9	22.5	-81.0	0.0
2025-01-16 12:26:04.098641	320.2	22.3	-80.8	0.0
2025-01-16 12:26:06.348396	320.6	22.0	-80.7	0.0
2025-01-16 12:26:08.592798	320.9	21.7	-81.1	0.0
2025-01-16 12:26:10.835884	321.2	21.5	-81.1	0.0
2025-01-16 12:26:13.081736	321.5	21.2	-81.2	0.0
2025-01-16 12:26:15.325511	321.9	21.0	-79.3	0.0
2025-01-16 12:26:17.567501	322.2	20.7	-81.0	0.0
2025-01-16 12:26:19.813749	322.5	20.5	-81.3	0.0
2025-01-16 12:26:22.060461	322.8	20.2	-80.9	0.0
2025-01-16 12:26:24.309833	323.1	20.0	-81.0	0.0
2025-01-16 12:26:26.559040	323.4	19.7	-81.1	0.0
2025-01-16 12:26:28.803179	323.7	19.5	-81.1	0.0
2025-01-16 12:26:31.049502	324.0	19.2	-81.0	0.0
2025-01-16 12:26:33.295375	324.2	19.0	-80.6	0.0
2025-01-16 12:26:35.541037	324.5	18.7	-79.6	0.0
2025-01-16 12:26:37.786543	324.8	18.5	-80.8	0.0
2025-01-16 12:26:40.031383	325.1	18.3	-81.3	0.0
2025-01-16 12:26:42.278144	325.3	18.0	-81.5	0.0
2025-01-16 12:26:44.523949	325.6	17.8	-81.1	0.0
2025-01-16 12:26:46.767702	325.9	17.6	-81.1	0.0
2025-01-16 12:26:49.014848	326.1	17.3	-81.1	0.0
2025-01-16 12:26:51.258674	326.4	17.1	-81.3	0.0
2025-01-16 12:26:53.503919	326.6	16.9	-81.0	0.0
2025-01-16 12:26:55.751601	326.8	16.6	-80.3	0.0
2025-01-16 12:26:57.998974	327.1	16.4	-80.8	0.0
2025-01-16 12:27:00.246907	327.3	16.2	-81.0	0.0
2025-01-16 12:27:02.495747	327.6	16.0	-81.2	0.0
2025-01-16 12:27:04.741605	327.8	15.8	-81.0	0.0
2025-01-16 12:27:06.988883	328.0	15.5	-81.3	0.0
2025-01-16 12:27:09.235468	328.2	15.3	-81.6	0.0
2025-01-16 12:27:11.479718	328.5	15.1	-81.3	0.0
2025-01-16 12:27:13.724304	328.7	14.9	-80.8	0.0
2025-01-16 12:27:15.968427	328.9	14.7	-80.6	0.0
2025-01-16 12:27:18.214564	329.1	14.5	-80.9	0.0
2025-01-16 12:27:20.460955	329.3	14.3	-81.1	0.0
2025-01-16 12:27:22.710104	329.5	14.1	-81.4	0.0
2025-01-16 12:27:24.956513	329.7	13.8	-81.3	0.0
2025-01-16 12:27:27.201825	329.9	13.6	-80.9	0.0
2025-01-16 12:27:29.450408	330.1	13.4	-81.3	0.0
2025-01-16 12:27:31.697939	330.3	13.2	-81.6	0.0
2025-01-16 12:27:33.941684	330.5	13.0	-81.4	0.0
2025-01-16 12:27:36.189686	330.7	12.8	-80.6	0.0
2025-01-16 12:27:38.433813	330.9	12.6	-80.9	0.0
2025-01-16 12:27:40.679867	331.1	12.4	-81.2	0.0
2025-01-16 12:27:42.925791	331.2	12.2	-81.4	0.0
2025-01-16 12:27:45.170921	331.4	12.1	-81.5	0.0
2025-01-16 12:27:47.418450	331.6	11.9	-80.6	0.0
2025-01-16 12:27:49.664556	331.8	11.7	-81.0	0.0
2025-01-16 12:27:51.909676	332.0	11.5	-81.4	0.0
2025-01-16 12:27:54.157697	332.1	11.3	-81.1	0.0
2025-01-16 12:27:56.401823	332.3	11.1	-81.0	0.0
2025-01-16 12:27:58.647296	332.5	10.9	-80.6	0.0
2025-01-16 12:28:00.894057	332.6	10.7	-81.3	0.0
2025-01-16 12:28:03.140330	332.8	10.6	-81.4	0.0
2025-01-16 12:28:05.387259	333.0	10.4	-81.3	0.0
2025-01-16 12:28:07.633886	333.1	10.2	-81.3	0.0
#Closed at: 2025-01-16 12:17:56.165329