passes_logs/2025/01/16/planumMaritime01/planumMaritime01__20250116_004752_METEOR-M2_4_rec.log

#Pass ID: 20250116_004752_METEOR-M2 4
#Satellite: METEOR-M2 4
#Configuration: METEOR-M2 4
#Start time: 2025-01-16 00:47:57.943898

#LorettStation: 1.0.0 05.05.2024
#Station: planumMaritime01
#Location: 37.49445 lon 55.92918 lat
#TLE: 1 59051U 24039A   25015.09829084  .00000075  00000+0  53338-4 0  9998
#TLE: 2 59051  98.6293 338.1069 0006191 224.4882 135.5799 14.22325142 45617

#Time	Az	El	Level	SNR
2025-01-16 00:48:00.099543	20.5	10.2	-80.6	0.0
2025-01-16 00:48:02.346803	20.6	10.4	-80.6	0.0
2025-01-16 00:48:04.591246	20.7	10.6	-80.8	0.0
2025-01-16 00:48:06.842331	20.7	10.8	-80.7	0.0
2025-01-16 00:48:09.087484	20.8	11.0	-80.7	0.0
2025-01-16 00:48:11.333881	20.9	11.2	-80.7	0.0
2025-01-16 00:48:13.579645	21.0	11.4	-80.8	0.0
2025-01-16 00:48:15.826833	21.0	11.6	-80.9	0.0
2025-01-16 00:48:18.070193	21.1	11.8	-80.9	0.0
2025-01-16 00:48:20.316306	21.2	12.0	-80.9	0.0
2025-01-16 00:48:22.563708	21.3	12.2	-81.0	0.0
2025-01-16 00:48:24.811360	21.4	12.4	-80.9	0.0
2025-01-16 00:48:27.054848	21.4	12.6	-81.0	0.0
2025-01-16 00:48:29.302771	21.5	12.8	-80.9	0.0
2025-01-16 00:48:31.548157	21.6	13.0	-81.2	0.0
2025-01-16 00:48:33.793235	21.7	13.3	-81.0	0.0
2025-01-16 00:48:36.039015	21.8	13.5	-81.1	0.0
2025-01-16 00:48:38.286368	21.9	13.7	-81.1	0.0
2025-01-16 00:48:40.533279	22.0	13.9	-80.9	0.0
2025-01-16 00:48:42.779759	22.0	14.2	-81.0	0.0
2025-01-16 00:48:45.027035	22.1	14.4	-80.9	0.0
2025-01-16 00:48:47.274075	22.2	14.6	-81.0	0.0
2025-01-16 00:48:49.518824	22.3	14.8	-80.9	0.0
2025-01-16 00:48:51.763998	22.4	15.1	-81.1	0.0
2025-01-16 00:48:54.010389	22.5	15.3	-80.9	0.0
2025-01-16 00:48:56.256436	22.6	15.6	-81.1	0.0
2025-01-16 00:48:58.502145	22.7	15.8	-81.1	0.0
2025-01-16 00:49:00.745177	22.8	16.0	-81.3	0.0
2025-01-16 00:49:02.995052	22.9	16.3	-81.0	0.0
2025-01-16 00:49:05.242700	23.0	16.5	-81.0	0.0
2025-01-16 00:49:07.485558	23.1	16.8	-81.2	0.0
2025-01-16 00:49:09.731326	23.2	17.0	-81.2	0.0
2025-01-16 00:49:11.978635	23.3	17.3	-81.3	0.0
2025-01-16 00:49:14.224540	23.5	17.5	-81.1	0.0
2025-01-16 00:49:16.468184	23.6	17.8	-81.2	0.0
2025-01-16 00:49:18.709854	23.7	18.1	-81.4	0.0
2025-01-16 00:49:20.957750	23.8	18.3	-81.4	0.0
2025-01-16 00:49:23.203991	23.9	18.6	-81.4	0.0
2025-01-16 00:49:25.451067	24.0	18.9	-81.4	0.0
2025-01-16 00:49:27.696807	24.2	19.2	-81.5	0.0
2025-01-16 00:49:29.940424	24.3	19.4	-81.3	0.0
2025-01-16 00:49:32.186414	24.4	19.7	-81.4	0.0
2025-01-16 00:49:34.430523	24.5	20.0	-81.4	0.0
2025-01-16 00:49:36.678751	24.7	20.3	-81.4	0.0
2025-01-16 00:49:38.923191	24.8	20.6	-81.7	0.0
2025-01-16 00:49:41.168046	24.9	20.9	-81.7	0.0
2025-01-16 00:49:43.415085	25.1	21.2	-81.3	0.0
2025-01-16 00:49:45.661339	25.2	21.5	-81.4	0.0
2025-01-16 00:49:47.908305	25.4	21.8	-81.5	0.0
2025-01-16 00:49:50.152728	25.5	22.1	-81.6	0.0
2025-01-16 00:49:52.397204	25.7	22.4	-81.3	0.0
2025-01-16 00:49:54.644996	25.8	22.7	-81.6	0.0
2025-01-16 00:49:56.889055	26.0	23.0	-81.3	0.0
2025-01-16 00:49:59.136820	26.1	23.4	-81.6	0.0
2025-01-16 00:50:01.382217	26.3	23.7	-81.4	0.0
2025-01-16 00:50:03.626974	26.4	24.0	-81.3	0.0
2025-01-16 00:50:05.873560	26.6	24.3	-81.3	0.0
2025-01-16 00:50:08.120446	26.8	24.7	-81.5	0.0
2025-01-16 00:50:10.367213	27.0	25.0	-81.4	0.0
2025-01-16 00:50:12.612449	27.1	25.4	-81.5	0.0
2025-01-16 00:50:14.856012	27.3	25.7	-81.4	0.0
2025-01-16 00:50:17.103229	27.5	26.1	-81.3	0.0
2025-01-16 00:50:19.348991	27.7	26.4	-81.4	0.0
2025-01-16 00:50:21.598418	27.9	26.8	-81.7	0.0
2025-01-16 00:50:23.843351	28.1	27.2	-81.4	0.0
2025-01-16 00:50:26.091062	28.3	27.6	-81.6	0.0
2025-01-16 00:50:28.334089	28.5	27.9	-81.4	0.0
2025-01-16 00:50:30.576573	28.7	28.3	-81.6	0.0
2025-01-16 00:50:32.822460	28.9	28.7	-81.5	0.0
2025-01-16 00:50:35.069302	29.1	29.1	-81.6	0.0
2025-01-16 00:50:37.316605	29.4	29.5	-81.5	0.0
2025-01-16 00:50:39.563101	29.6	29.9	-81.3	0.0
2025-01-16 00:50:41.811778	29.8	30.3	-81.4	0.0
2025-01-16 00:50:44.060493	30.1	30.7	-81.5	0.0
2025-01-16 00:50:46.308253	30.3	31.2	-81.6	0.0
2025-01-16 00:50:48.556311	30.6	31.6	-81.6	0.0
2025-01-16 00:50:50.802776	30.9	32.0	-81.6	0.0
2025-01-16 00:50:53.048054	31.1	32.5	-81.6	0.0
2025-01-16 00:50:55.297502	31.4	32.9	-81.7	0.0
2025-01-16 00:50:57.545298	31.7	33.4	-81.4	0.0
2025-01-16 00:50:59.792285	32.0	33.8	-81.7	0.0
2025-01-16 00:51:02.041596	32.3	34.3	-81.6	0.0
2025-01-16 00:51:04.289897	32.6	34.8	-81.5	0.0
2025-01-16 00:51:06.534810	32.9	35.2	-81.7	0.0
2025-01-16 00:51:08.778267	33.3	35.7	-81.7	0.0
2025-01-16 00:51:11.022357	33.6	36.2	-81.6	0.0
2025-01-16 00:51:13.271730	33.9	36.7	-81.6	0.0
2025-01-16 00:51:15.518399	34.3	37.2	-81.5	0.0
2025-01-16 00:51:17.764277	34.7	37.7	-81.7	0.0
2025-01-16 00:51:20.010559	35.1	38.2	-81.7	0.0
2025-01-16 00:51:22.255192	35.4	38.8	-81.6	0.0
2025-01-16 00:51:24.503350	35.9	39.3	-81.7	0.0
2025-01-16 00:51:26.749308	36.3	39.8	-81.7	0.0
2025-01-16 00:51:28.993969	36.7	40.4	-81.2	0.0
2025-01-16 00:51:31.237447	37.2	40.9	-81.7	0.0
2025-01-16 00:51:33.484687	37.6	41.5	-81.6	0.0
2025-01-16 00:51:35.730722	38.1	42.0	-81.5	0.0
2025-01-16 00:51:37.973269	38.6	42.6	-81.5	0.0
2025-01-16 00:51:40.223365	39.1	43.2	-81.5	0.0
2025-01-16 00:51:42.470604	39.6	43.8	-81.6	0.0
2025-01-16 00:51:44.718113	40.2	44.3	-81.6	0.0
2025-01-16 00:51:46.965606	40.8	44.9	-81.7	0.0
2025-01-16 00:51:49.212147	41.4	45.5	-81.5	0.0
2025-01-16 00:51:51.460980	42.0	46.1	-81.5	0.0
2025-01-16 00:51:53.705250	42.6	46.7	-81.7	0.0
2025-01-16 00:51:55.952875	43.3	47.4	-81.8	0.0
2025-01-16 00:51:58.199370	44.0	48.0	-81.5	0.0
2025-01-16 00:52:00.443631	44.7	48.6	-81.4	0.0
2025-01-16 00:52:02.688395	45.5	49.2	-81.5	0.0
2025-01-16 00:52:04.935974	46.2	49.9	-81.6	0.0
2025-01-16 00:52:07.182075	47.1	50.5	-81.8	0.0
2025-01-16 00:52:09.424343	47.9	51.1	-81.8	0.0
2025-01-16 00:52:11.670449	48.8	51.8	-81.9	0.0
2025-01-16 00:52:13.912635	49.7	52.4	-81.6	0.0
2025-01-16 00:52:16.157898	50.7	53.1	-81.6	0.0
2025-01-16 00:52:18.404039	51.7	53.7	-81.8	0.0
2025-01-16 00:52:20.648413	52.7	54.4	-81.4	0.0
2025-01-16 00:52:22.895601	53.8	55.0	-81.7	0.0
2025-01-16 00:52:25.141932	55.0	55.6	-81.5	0.0
2025-01-16 00:52:27.389638	56.2	56.3	-81.5	0.0
2025-01-16 00:52:29.634588	57.5	56.9	-81.6	0.0
2025-01-16 00:52:31.880299	58.8	57.5	-81.4	0.0
2025-01-16 00:52:34.126289	60.2	58.1	-81.4	0.0
2025-01-16 00:52:36.368331	61.6	58.7	-81.1	0.0
2025-01-16 00:52:38.616659	63.1	59.3	-81.1	0.2
2025-01-16 00:52:40.865398	64.7	59.9	-81.2	1.2
2025-01-16 00:52:43.109309	66.4	60.5	-80.9	0.9
2025-01-16 00:52:45.354666	68.1	61.0	-81.0	1.9
2025-01-16 00:52:47.601192	69.9	61.5	-80.9	2.5
2025-01-16 00:52:49.845228	71.8	62.0	-80.8	2.6
2025-01-16 00:52:52.089312	73.7	62.5	-80.8	3.4
2025-01-16 00:52:54.337912	75.7	63.0	-80.9	2.6
2025-01-16 00:52:56.585895	77.8	63.4	-80.9	1.3
2025-01-16 00:52:58.832553	80.0	63.8	-81.1	1.8
2025-01-16 00:53:01.080467	82.3	64.2	-81.0	0.0
2025-01-16 00:53:03.327439	84.6	64.5	-81.2	1.2
2025-01-16 00:53:05.576427	87.0	64.8	-81.3	0.0
2025-01-16 00:53:07.821049	89.5	65.0	-81.2	0.0
2025-01-16 00:53:10.069705	92.0	65.3	-81.4	0.0
2025-01-16 00:53:12.315484	94.5	65.4	-81.6	0.0
2025-01-16 00:53:14.562585	97.1	65.6	-81.7	0.0
2025-01-16 00:53:16.811597	99.7	65.6	-81.9	0.0
2025-01-16 00:53:19.055730	102.3	65.7	-81.9	0.0
2025-01-16 00:53:21.302249	104.9	65.7	-81.8	0.0
2025-01-16 00:53:23.547223	107.5	65.6	-81.8	0.0
2025-01-16 00:53:25.793174	110.1	65.5	-81.9	0.0
2025-01-16 00:53:28.043051	112.7	65.4	-81.8	0.0
2025-01-16 00:53:30.287444	115.2	65.2	-81.4	0.0
2025-01-16 00:53:32.533517	117.7	65.0	-81.4	0.0
2025-01-16 00:53:34.778579	120.2	64.7	-81.5	0.0
2025-01-16 00:53:37.027969	122.5	64.4	-81.6	0.0
2025-01-16 00:53:39.276864	124.9	64.1	-81.4	0.0
2025-01-16 00:53:41.525918	127.1	63.7	-81.4	0.0
2025-01-16 00:53:43.776226	129.3	63.3	-81.5	0.0
2025-01-16 00:53:46.019553	131.3	62.8	-81.8	0.0
2025-01-16 00:53:48.266437	133.4	62.4	-81.5	0.0
2025-01-16 00:53:50.511967	135.3	61.9	-81.6	0.0
2025-01-16 00:53:52.758889	137.1	61.3	-81.7	0.0
2025-01-16 00:53:55.008039	138.9	60.8	-81.9	0.0
2025-01-16 00:53:57.256387	140.6	60.3	-81.7	0.0
2025-01-16 00:53:59.504511	142.3	59.7	-81.9	0.0
2025-01-16 00:54:01.752900	143.8	59.1	-81.8	0.0
2025-01-16 00:54:03.998611	145.3	58.5	-81.8	0.0
2025-01-16 00:54:06.245838	146.7	57.9	-82.0	0.0
2025-01-16 00:54:08.494594	148.1	57.3	-81.6	0.0
2025-01-16 00:54:10.741251	149.4	56.7	-81.5	0.0
2025-01-16 00:54:12.987994	150.7	56.0	-81.6	0.0
2025-01-16 00:54:15.234589	151.9	55.4	-81.5	0.0
2025-01-16 00:54:17.478994	153.0	54.7	-81.6	0.0
2025-01-16 00:54:19.725066	154.1	54.1	-81.5	0.0
2025-01-16 00:54:21.967942	155.1	53.5	-81.3	0.0
2025-01-16 00:54:24.215293	156.1	52.8	-81.3	0.1
2025-01-16 00:54:26.460825	157.1	52.2	-81.1	1.4
2025-01-16 00:54:28.710623	158.0	51.5	-81.3	0.0
2025-01-16 00:54:30.955163	158.9	50.9	-81.3	0.6
2025-01-16 00:54:33.201070	159.7	50.2	-81.1	0.1
2025-01-16 00:54:35.445620	160.5	49.6	-81.2	1.3
2025-01-16 00:54:37.691782	161.3	49.0	-81.2	1.5
2025-01-16 00:54:39.935672	162.0	48.3	-80.9	1.3
2025-01-16 00:54:42.181612	162.7	47.7	-81.1	1.3
2025-01-16 00:54:44.429432	163.4	47.1	-81.1	0.0
2025-01-16 00:54:46.674396	164.1	46.5	-81.3	0.0
2025-01-16 00:54:48.922050	164.7	45.8	-81.3	0.0
2025-01-16 00:54:51.169898	165.3	45.2	-81.5	0.0
2025-01-16 00:54:53.415080	165.9	44.6	-81.4	0.0
2025-01-16 00:54:55.662161	166.5	44.0	-81.4	0.0
2025-01-16 00:54:57.909055	167.0	43.5	-81.4	0.0
2025-01-16 00:55:00.158360	167.5	42.9	-81.5	0.0
2025-01-16 00:55:02.406451	168.1	42.3	-81.7	0.0
2025-01-16 00:55:04.648639	168.5	41.7	-81.7	0.0
2025-01-16 00:55:06.894929	169.0	41.2	-81.8	0.0
2025-01-16 00:55:09.140407	169.5	40.6	-81.6	0.0
2025-01-16 00:55:11.385674	169.9	40.1	-81.6	0.0
2025-01-16 00:55:13.633194	170.3	39.5	-81.5	0.0
2025-01-16 00:55:15.879778	170.8	39.0	-81.5	0.0
2025-01-16 00:55:18.125788	171.2	38.4	-81.7	0.0
2025-01-16 00:55:20.370547	171.6	37.9	-81.6	0.0
2025-01-16 00:55:22.618227	171.9	37.4	-81.5	0.0
2025-01-16 00:55:24.866730	172.3	36.9	-81.6	0.0
2025-01-16 00:55:27.114908	172.7	36.4	-81.7	0.0
2025-01-16 00:55:29.359951	173.0	35.9	-81.7	0.0
2025-01-16 00:55:31.605242	173.3	35.4	-81.8	0.0
2025-01-16 00:55:33.848596	173.7	34.9	-81.8	0.0
2025-01-16 00:55:36.093307	174.0	34.4	-81.8	0.0
2025-01-16 00:55:38.337227	174.3	34.0	-81.6	0.0
2025-01-16 00:55:40.584196	174.6	33.5	-81.7	0.0
2025-01-16 00:55:42.829829	174.9	33.1	-81.7	0.0
2025-01-16 00:55:45.075938	175.2	32.6	-81.6	0.0
2025-01-16 00:55:47.318869	175.4	32.2	-81.7	0.0
2025-01-16 00:55:49.564640	175.7	31.7	-81.8	0.0
2025-01-16 00:55:51.812936	176.0	31.3	-81.7	0.0
2025-01-16 00:55:54.059296	176.2	30.8	-81.5	0.0
2025-01-16 00:55:56.305930	176.5	30.4	-81.7	0.0
2025-01-16 00:55:58.551761	176.7	30.0	-81.7	0.0
2025-01-16 00:56:00.796238	176.9	29.6	-81.6	0.0
2025-01-16 00:56:03.042874	177.2	29.2	-81.8	0.0
2025-01-16 00:56:05.289947	177.4	28.8	-81.9	0.0
2025-01-16 00:56:07.536867	177.6	28.4	-81.8	0.0
2025-01-16 00:56:09.782672	177.8	28.0	-81.7	0.0
2025-01-16 00:56:12.028857	178.0	27.6	-81.8	0.0
2025-01-16 00:56:14.274848	178.2	27.2	-81.9	0.0
2025-01-16 00:56:16.521406	178.4	26.9	-81.9	0.0
2025-01-16 00:56:18.765268	178.6	26.5	-81.9	0.0
2025-01-16 00:56:21.011170	178.8	26.1	-82.0	0.0
2025-01-16 00:56:23.256050	179.0	25.8	-81.7	0.0
2025-01-16 00:56:25.502999	179.2	25.4	-82.1	0.0
2025-01-16 00:56:27.747590	179.4	25.1	-81.8	0.0
2025-01-16 00:56:29.993629	179.6	24.7	-81.4	0.0
2025-01-16 00:56:32.239140	179.7	24.4	-81.7	0.0
2025-01-16 00:56:34.484910	179.9	24.0	-81.9	0.0
2025-01-16 00:56:36.734705	180.1	23.7	-82.0	0.0
2025-01-16 00:56:38.983589	180.2	23.4	-82.0	0.0
2025-01-16 00:56:41.226052	180.4	23.0	-81.8	0.0
2025-01-16 00:56:43.473604	180.5	22.7	-81.7	0.0
2025-01-16 00:56:45.718429	180.7	22.4	-82.0	0.0
2025-01-16 00:56:47.966327	180.8	22.1	-82.1	0.0
2025-01-16 00:56:50.211804	181.0	21.8	-82.0	0.0
2025-01-16 00:56:52.458896	181.1	21.4	-82.2	0.0
2025-01-16 00:56:54.702192	181.3	21.1	-82.1	0.0
2025-01-16 00:56:56.946163	181.4	20.8	-82.1	0.0
2025-01-16 00:56:59.192135	181.5	20.5	-82.1	0.0
2025-01-16 00:57:01.439137	181.7	20.2	-82.0	0.0
2025-01-16 00:57:03.686414	181.8	20.0	-82.1	0.0
2025-01-16 00:57:05.930211	181.9	19.7	-82.1	0.0
2025-01-16 00:57:08.177332	182.1	19.4	-82.1	0.0
2025-01-16 00:57:10.424248	182.2	19.1	-82.2	0.0
2025-01-16 00:57:12.670811	182.3	18.8	-82.0	0.0
2025-01-16 00:57:14.918880	182.4	18.5	-82.0	0.0
2025-01-16 00:57:17.168371	182.5	18.3	-82.1	0.0
2025-01-16 00:57:19.412690	182.7	18.0	-82.0	0.0
2025-01-16 00:57:21.658936	182.8	17.7	-82.3	0.0
2025-01-16 00:57:23.904567	182.9	17.5	-82.2	0.0
2025-01-16 00:57:26.151176	183.0	17.2	-82.1	0.0
2025-01-16 00:57:28.400475	183.1	17.0	-82.0	0.0
2025-01-16 00:57:30.648669	183.2	16.7	-82.2	0.0
2025-01-16 00:57:32.893388	183.3	16.4	-82.2	0.0
2025-01-16 00:57:35.138725	183.4	16.2	-82.1	0.0
2025-01-16 00:57:37.383957	183.5	15.9	-82.1	0.0
2025-01-16 00:57:39.629513	183.6	15.7	-82.0	0.0
2025-01-16 00:57:41.875294	183.7	15.5	-82.0	0.0
2025-01-16 00:57:44.122979	183.8	15.2	-81.9	0.0
2025-01-16 00:57:46.368187	183.9	15.0	-81.9	0.0
2025-01-16 00:57:48.614891	184.0	14.7	-81.9	0.0
2025-01-16 00:57:50.863222	184.1	14.5	-82.2	0.0
2025-01-16 00:57:53.108933	184.2	14.3	-82.0	0.0
2025-01-16 00:57:55.354587	184.3	14.0	-82.1	0.0
2025-01-16 00:57:57.601594	184.4	13.8	-82.0	0.0
2025-01-16 00:57:59.847127	184.5	13.6	-82.1	0.0
2025-01-16 00:58:02.091837	184.6	13.4	-82.0	0.0
2025-01-16 00:58:04.338421	184.6	13.1	-82.1	0.0
2025-01-16 00:58:06.585676	184.7	12.9	-82.1	0.0
2025-01-16 00:58:08.832697	184.8	12.7	-82.0	0.0
2025-01-16 00:58:11.078303	184.9	12.5	-82.2	0.0
2025-01-16 00:58:13.328593	185.0	12.3	-81.9	0.0
2025-01-16 00:58:15.574229	185.1	12.1	-82.0	0.0
2025-01-16 00:58:17.821055	185.1	11.8	-82.0	0.0
2025-01-16 00:58:20.067777	185.2	11.6	-82.1	0.0
2025-01-16 00:58:22.313054	185.3	11.4	-82.0	0.0
2025-01-16 00:58:24.562455	185.4	11.2	-82.1	0.0
2025-01-16 00:58:26.809266	185.4	11.0	-82.2	0.0
2025-01-16 00:58:29.055939	185.5	10.8	-82.2	0.0
2025-01-16 00:58:31.300642	185.6	10.6	-82.1	0.0
2025-01-16 00:58:33.546757	185.7	10.4	-82.0	0.0
2025-01-16 00:58:35.791158	185.7	10.2	-82.2	0.0
2025-01-16 00:58:38.038304	185.8	10.0	-82.2	0.0
#Closed at: 2025-01-16 00:47:52.945363