passes_logs/2025/01/16/planumMaritime01/planumMaritime01__20250116_174339_METOP-B_rec.log

#Pass ID: 20250116_174339_METOP-B
#Satellite: METOP-B
#Configuration: METOP-B
#Start time: 2025-01-16 17:43:44.374836

#LorettStation: 1.0.0 05.05.2024
#Station: planumMaritime01
#Location: 37.49445 lon 55.92918 lat
#TLE: 1 38771U 12049A   25016.09779386  .00000225  00000+0  12252-3 0  9998
#TLE: 2 38771  98.6008  74.2277 0001751  80.7495 279.3880 14.21410751639792

#Time	Az	El	Level	SNR
2025-01-16 17:43:46.522593	159.5	10.2	-80.8	0.0
2025-01-16 17:43:48.764329	159.4	10.4	-80.6	0.0
2025-01-16 17:43:51.010138	159.4	10.6	-80.9	0.0
2025-01-16 17:43:53.251152	159.4	10.8	-81.0	0.0
2025-01-16 17:43:55.495170	159.4	11.0	-81.0	0.0
2025-01-16 17:43:57.735028	159.4	11.2	-81.2	0.0
2025-01-16 17:43:59.976251	159.4	11.4	-80.9	0.0
2025-01-16 17:44:02.218735	159.4	11.6	-81.1	0.0
2025-01-16 17:44:04.461656	159.4	11.8	-81.0	0.0
2025-01-16 17:44:06.704414	159.4	12.0	-81.3	0.0
2025-01-16 17:44:08.945997	159.4	12.3	-81.0	0.0
2025-01-16 17:44:11.186286	159.4	12.5	-81.3	0.0
2025-01-16 17:44:13.426325	159.4	12.7	-80.1	0.0
2025-01-16 17:44:15.667850	159.4	12.9	-80.3	0.0
2025-01-16 17:44:17.909985	159.4	13.1	-80.9	0.0
2025-01-16 17:44:20.149822	159.4	13.4	-80.1	0.0
2025-01-16 17:44:22.389371	159.4	13.6	-81.2	0.0
2025-01-16 17:44:24.630119	159.4	13.8	-81.4	0.0
2025-01-16 17:44:26.870118	159.4	14.0	-81.3	0.0
2025-01-16 17:44:29.110796	159.4	14.3	-81.3	0.0
2025-01-16 17:44:31.355824	159.4	14.5	-81.9	0.0
2025-01-16 17:44:33.598000	159.4	14.8	-81.8	0.0
2025-01-16 17:44:35.839137	159.4	15.0	-81.8	0.0
2025-01-16 17:44:38.079730	159.3	15.2	-80.2	0.0
2025-01-16 17:44:40.321605	159.3	15.5	-80.3	0.0
2025-01-16 17:44:42.566851	159.3	15.7	-80.8	0.0
2025-01-16 17:44:44.809529	159.3	16.0	-80.3	0.0
2025-01-16 17:44:47.050339	159.3	16.2	-80.4	0.0
2025-01-16 17:44:49.292502	159.3	16.5	-80.9	0.0
2025-01-16 17:44:51.534088	159.3	16.7	-81.0	0.0
2025-01-16 17:44:53.777557	159.3	17.0	-80.5	0.0
2025-01-16 17:44:56.018253	159.3	17.3	-80.3	0.0
2025-01-16 17:44:58.259867	159.3	17.5	-80.2	0.0
2025-01-16 17:45:00.500086	159.3	17.8	-80.3	0.0
2025-01-16 17:45:02.743183	159.3	18.1	-80.4	0.0
2025-01-16 17:45:04.987310	159.2	18.4	-80.3	0.0
2025-01-16 17:45:07.228970	159.2	18.6	-80.5	0.0
2025-01-16 17:45:09.473623	159.2	18.9	-80.2	0.0
2025-01-16 17:45:11.717137	159.2	19.2	-80.3	0.0
2025-01-16 17:45:13.958271	159.2	19.5	-80.9	0.0
2025-01-16 17:45:16.200302	159.2	19.8	-80.7	0.0
2025-01-16 17:45:18.442260	159.2	20.1	-80.8	0.0
2025-01-16 17:45:20.682453	159.2	20.4	-81.3	0.0
2025-01-16 17:45:22.925303	159.2	20.7	-80.7	0.0
2025-01-16 17:45:25.170193	159.1	21.0	-80.7	0.0
2025-01-16 17:45:27.415959	159.1	21.3	-80.9	0.0
2025-01-16 17:45:29.656883	159.1	21.6	-81.1	0.0
2025-01-16 17:45:31.900345	159.1	21.9	-80.4	0.0
2025-01-16 17:45:34.142099	159.1	22.3	-81.0	0.0
2025-01-16 17:45:36.382490	159.1	22.6	-81.2	0.0
2025-01-16 17:45:38.622467	159.1	22.9	-81.3	0.0
2025-01-16 17:45:40.865389	159.0	23.2	-81.5	0.0
2025-01-16 17:45:43.107611	159.0	23.6	-81.7	0.0
2025-01-16 17:45:45.351645	159.0	23.9	-81.4	0.0
2025-01-16 17:45:47.593274	159.0	24.3	-81.8	0.0
2025-01-16 17:45:49.836314	159.0	24.6	-81.8	0.0
2025-01-16 17:45:52.077927	159.0	25.0	-81.9	0.0
2025-01-16 17:45:54.320944	158.9	25.3	-81.2	0.0
2025-01-16 17:45:56.559870	158.9	25.7	-81.2	0.0
2025-01-16 17:45:58.801822	158.9	26.1	-80.5	0.0
2025-01-16 17:46:01.042145	158.9	26.5	-80.5	0.0
2025-01-16 17:46:03.283263	158.9	26.9	-79.2	0.0
2025-01-16 17:46:05.524280	158.8	27.2	-79.1	0.0
2025-01-16 17:46:07.765522	158.8	27.6	-79.1	0.0
2025-01-16 17:46:10.004285	158.8	28.0	-79.0	0.0
2025-01-16 17:46:12.245371	158.8	28.4	-78.9	0.0
2025-01-16 17:46:14.486134	158.7	28.9	-78.5	0.0
2025-01-16 17:46:16.726869	158.7	29.3	-78.9	0.2
2025-01-16 17:46:18.968059	158.7	29.7	-78.7	0.0
2025-01-16 17:46:21.206803	158.7	30.1	-78.7	0.8
2025-01-16 17:46:23.448934	158.6	30.6	-78.3	1.1
2025-01-16 17:46:25.690242	158.6	31.0	-78.1	1.9
2025-01-16 17:46:27.930524	158.6	31.5	-78.1	1.5
2025-01-16 17:46:30.170467	158.6	31.9	-78.1	1.2
2025-01-16 17:46:32.413005	158.5	32.4	-78.2	1.3
2025-01-16 17:46:34.655174	158.5	32.9	-78.2	0.0
2025-01-16 17:46:36.897350	158.5	33.3	-77.9	0.8
2025-01-16 17:46:39.137135	158.4	33.8	-78.8	0.0
2025-01-16 17:46:41.382115	158.4	34.3	-79.1	0.0
2025-01-16 17:46:43.624150	158.3	34.8	-79.2	0.0
2025-01-16 17:46:45.865232	158.3	35.3	-79.7	0.0
2025-01-16 17:46:48.104895	158.3	35.9	-79.9	0.0
2025-01-16 17:46:50.344374	158.2	36.4	-80.1	0.0
2025-01-16 17:46:52.584419	158.2	36.9	-80.3	0.0
2025-01-16 17:46:54.823616	158.1	37.5	-80.6	0.0
2025-01-16 17:46:57.064105	158.1	38.0	-80.9	0.0
2025-01-16 17:46:59.305725	158.0	38.6	-81.0	0.0
2025-01-16 17:47:01.549223	158.0	39.2	-81.4	0.0
2025-01-16 17:47:03.789945	157.9	39.8	-81.5	0.0
2025-01-16 17:47:06.031392	157.9	40.4	-81.5	0.0
2025-01-16 17:47:08.272965	157.8	41.0	-80.7	0.0
2025-01-16 17:47:10.515317	157.7	41.6	-81.0	0.0
2025-01-16 17:47:12.755464	157.7	42.2	-81.4	0.0
2025-01-16 17:47:14.996115	157.6	42.9	-81.5	0.0
2025-01-16 17:47:17.235987	157.5	43.5	-81.3	0.0
2025-01-16 17:47:19.479852	157.5	44.2	-81.1	0.0
2025-01-16 17:47:21.718352	157.4	44.8	-81.0	0.0
2025-01-16 17:47:23.956892	157.3	45.5	-81.2	0.0
2025-01-16 17:47:26.197228	157.2	46.2	-81.3	0.0
2025-01-16 17:47:28.441887	157.1	46.9	-81.1	0.0
2025-01-16 17:47:30.681874	157.0	47.6	-80.9	0.0
2025-01-16 17:47:32.923203	156.9	48.4	-81.3	0.0
2025-01-16 17:47:35.164531	156.8	49.1	-80.9	0.0
2025-01-16 17:47:37.405204	156.7	49.9	-81.4	0.0
2025-01-16 17:47:39.647138	156.6	50.6	-81.5	0.0
2025-01-16 17:47:41.888637	156.5	51.4	-80.8	0.0
2025-01-16 17:47:44.129327	156.4	52.2	-80.7	0.0
2025-01-16 17:47:46.370726	156.2	53.0	-80.3	0.0
2025-01-16 17:47:48.613528	156.1	53.8	-79.8	0.0
2025-01-16 17:47:50.858010	155.9	54.7	-79.9	0.0
2025-01-16 17:47:53.099321	155.8	55.5	-79.4	0.0
2025-01-16 17:47:55.343945	155.6	56.4	-80.2	0.0
2025-01-16 17:47:57.587428	155.4	57.2	-79.7	0.0
2025-01-16 17:47:59.828865	155.2	58.1	-79.6	0.7
2025-01-16 17:48:02.072717	155.0	59.0	-79.9	2.2
2025-01-16 17:48:04.312034	154.8	59.9	-79.9	0.6
2025-01-16 17:48:06.552372	154.5	60.9	-80.3	0.0
2025-01-16 17:48:08.795692	154.3	61.8	-80.3	0.7
2025-01-16 17:48:11.036893	154.0	62.7	-80.0	0.0
2025-01-16 17:48:13.279998	153.7	63.7	-80.3	0.0
2025-01-16 17:48:15.520852	153.3	64.7	-80.3	0.0
2025-01-16 17:48:17.760559	153.0	65.7	-80.9	0.0
2025-01-16 17:48:20.002481	152.6	66.7	-81.2	0.0
2025-01-16 17:48:22.244864	152.1	67.7	-81.5	0.0
2025-01-16 17:48:24.488228	151.6	68.7	-81.8	0.0
2025-01-16 17:48:26.729198	151.1	69.7	-81.6	0.0
2025-01-16 17:48:28.967405	150.5	70.8	-81.5	0.0
2025-01-16 17:48:31.207456	149.8	71.8	-81.1	0.0
2025-01-16 17:48:33.451316	149.0	72.9	-80.5	0.1
2025-01-16 17:48:35.694409	148.2	73.9	-79.7	2.9
2025-01-16 17:48:37.933717	147.1	75.0	-78.8	5.0
2025-01-16 17:48:40.174371	146.0	76.1	-78.2	7.2
2025-01-16 17:48:42.420054	144.6	77.1	-77.7	8.7
2025-01-16 17:48:44.659722	143.0	78.2	-77.1	9.7
2025-01-16 17:48:46.902022	141.0	79.3	-76.4	9.9
2025-01-16 17:48:49.145115	138.6	80.3	-75.8	12.1
2025-01-16 17:48:51.388096	135.5	81.4	-75.2	12.9
2025-01-16 17:48:53.630707	131.7	82.4	-75.1	12.7
2025-01-16 17:48:55.874823	126.7	83.3	-75.1	13.4
2025-01-16 17:48:58.117911	120.0	84.3	-74.9	13.7
2025-01-16 17:49:00.361108	111.0	85.1	-74.5	14.4
2025-01-16 17:49:02.601354	98.9	85.7	-74.5	14.1
2025-01-16 17:49:04.842577	83.5	86.1	-74.4	13.8
2025-01-16 17:49:07.083114	66.2	86.2	-74.6	13.7
2025-01-16 17:49:09.323936	49.9	85.9	-74.4	13.9
2025-01-16 17:49:11.565319	36.6	85.3	-74.3	14.0
2025-01-16 17:49:13.805729	26.5	84.6	-74.5	14.1
2025-01-16 17:49:16.047296	19.0	83.7	-75.2	11.7
2025-01-16 17:49:18.289160	13.5	82.7	-75.6	12.9
2025-01-16 17:49:20.531538	9.3	81.7	-76.1	12.2
2025-01-16 17:49:22.773669	6.0	80.7	-76.4	11.5
2025-01-16 17:49:25.013699	3.4	79.7	-76.8	10.7
2025-01-16 17:49:27.253957	1.2	78.6	-77.8	8.5
2025-01-16 17:49:29.497572	359.5	77.5	-78.6	7.8
2025-01-16 17:49:31.737722	358.0	76.5	-78.9	5.4
2025-01-16 17:49:33.981905	356.8	75.4	-79.6	3.2
2025-01-16 17:49:36.222161	355.7	74.3	-80.1	1.7
2025-01-16 17:49:38.465515	354.8	73.3	-80.5	0.0
2025-01-16 17:49:40.704909	354.0	72.2	-80.6	0.0
2025-01-16 17:49:42.945107	353.2	71.2	-81.4	0.0
2025-01-16 17:49:45.186141	352.6	70.1	-81.7	0.0
2025-01-16 17:49:47.430346	352.0	69.1	-81.0	0.0
2025-01-16 17:49:49.672504	351.5	68.1	-81.0	0.0
2025-01-16 17:49:51.914064	351.1	67.1	-81.8	0.0
2025-01-16 17:49:54.158564	350.7	66.1	-81.8	0.0
2025-01-16 17:49:56.401303	350.3	65.1	-81.8	0.0
2025-01-16 17:49:58.649136	349.9	64.1	-81.5	0.0
2025-01-16 17:50:00.893450	349.6	63.1	-81.0	0.0
2025-01-16 17:50:03.136977	349.3	62.2	-81.0	0.0
2025-01-16 17:50:05.381400	349.1	61.2	-81.2	0.0
2025-01-16 17:50:07.625153	348.8	60.3	-81.4	0.0
2025-01-16 17:50:09.866564	348.6	59.4	-81.1	0.0
2025-01-16 17:50:12.111082	348.4	58.5	-80.6	0.0
2025-01-16 17:50:14.350779	348.2	57.6	-80.8	0.0
2025-01-16 17:50:16.595370	348.0	56.7	-81.2	0.0
2025-01-16 17:50:18.837925	347.8	55.9	-80.3	0.0
2025-01-16 17:50:21.079516	347.6	55.0	-80.7	0.0
2025-01-16 17:50:23.320648	347.5	54.2	-81.6	0.0
2025-01-16 17:50:25.562924	347.3	53.4	-81.5	0.0
2025-01-16 17:50:27.801130	347.2	52.6	-81.6	0.0
2025-01-16 17:50:30.046321	347.1	51.8	-81.8	0.0
2025-01-16 17:50:32.289807	346.9	51.0	-81.9	0.0
2025-01-16 17:50:34.530845	346.8	50.2	-82.0	0.0
2025-01-16 17:50:36.770137	346.7	49.5	-82.0	0.0
2025-01-16 17:50:39.015603	346.6	48.7	-81.6	0.0
2025-01-16 17:50:41.259138	346.5	48.0	-82.0	0.0
2025-01-16 17:50:43.501438	346.4	47.3	-82.1	0.0
2025-01-16 17:50:45.743144	346.3	46.5	-81.6	0.0
2025-01-16 17:50:47.981517	346.2	45.9	-81.8	0.0
2025-01-16 17:50:50.218987	346.2	45.2	-81.9	0.0
2025-01-16 17:50:52.461968	346.1	44.5	-81.7	0.0
2025-01-16 17:50:54.698616	346.0	43.8	-81.2	0.0
2025-01-16 17:50:56.942109	345.9	43.2	-80.9	0.0
2025-01-16 17:50:59.183731	345.9	42.5	-81.7	0.0
2025-01-16 17:51:01.423849	345.8	41.9	-81.5	0.0
2025-01-16 17:51:03.666802	345.7	41.3	-81.8	0.0
2025-01-16 17:51:05.910349	345.7	40.7	-82.0	0.0
2025-01-16 17:51:08.155604	345.6	40.1	-81.8	0.0
2025-01-16 17:51:10.399767	345.6	39.5	-82.1	0.0
2025-01-16 17:51:12.640121	345.5	38.9	-82.3	0.0
2025-01-16 17:51:14.887160	345.5	38.4	-82.3	0.0
2025-01-16 17:51:17.126796	345.4	37.8	-81.8	0.0
2025-01-16 17:51:19.367629	345.4	37.3	-82.1	0.0
2025-01-16 17:51:21.609198	345.3	36.7	-82.5	0.0
2025-01-16 17:51:23.852857	345.3	36.2	-82.5	0.0
2025-01-16 17:51:26.092452	345.2	35.7	-82.2	0.0
2025-01-16 17:51:28.334989	345.2	35.1	-80.9	0.0
2025-01-16 17:51:30.577783	345.2	34.6	-82.2	0.0
2025-01-16 17:51:32.820893	345.1	34.1	-81.6	0.0
2025-01-16 17:51:35.064839	345.1	33.6	-81.9	0.0
2025-01-16 17:51:37.309094	345.1	33.2	-82.1	0.0
2025-01-16 17:51:39.550981	345.0	32.7	-81.8	0.0
2025-01-16 17:51:41.792987	345.0	32.2	-82.4	0.0
2025-01-16 17:51:44.035066	345.0	31.8	-82.0	0.0
2025-01-16 17:51:46.277468	344.9	31.3	-82.1	0.0
2025-01-16 17:51:48.520883	344.9	30.9	-81.9	0.0
2025-01-16 17:51:50.764273	344.9	30.4	-82.0	0.0
2025-01-16 17:51:53.010671	344.8	30.0	-81.9	0.0
2025-01-16 17:51:55.249138	344.8	29.6	-81.9	0.0
2025-01-16 17:51:57.493237	344.8	29.1	-81.8	0.0
2025-01-16 17:51:59.733595	344.8	28.7	-81.5	0.0
2025-01-16 17:52:01.976236	344.7	28.3	-81.9	0.0
2025-01-16 17:52:04.215979	344.7	27.9	-81.9	0.0
2025-01-16 17:52:06.458266	344.7	27.5	-82.3	0.0
2025-01-16 17:52:08.696584	344.7	27.1	-81.7	0.0
2025-01-16 17:52:10.935883	344.7	26.8	-82.0	0.0
2025-01-16 17:52:13.176808	344.6	26.4	-81.7	0.0
2025-01-16 17:52:15.417075	344.6	26.0	-81.9	0.0
2025-01-16 17:52:17.658249	344.6	25.6	-81.7	0.0
2025-01-16 17:52:19.897705	344.6	25.3	-81.6	0.0
2025-01-16 17:52:22.143285	344.6	24.9	-82.1	0.0
2025-01-16 17:52:24.384181	344.6	24.6	-81.8	0.0
2025-01-16 17:52:26.624644	344.5	24.2	-82.0	0.0
2025-01-16 17:52:28.867260	344.5	23.9	-82.0	0.0
2025-01-16 17:52:31.112588	344.5	23.5	-82.0	0.0
2025-01-16 17:52:33.354587	344.5	23.2	-82.0	0.0
2025-01-16 17:52:35.595786	344.5	22.9	-81.9	0.0
2025-01-16 17:52:37.834677	344.5	22.5	-81.7	0.0
2025-01-16 17:52:40.078483	344.5	22.2	-81.8	0.0
2025-01-16 17:52:42.322001	344.4	21.9	-81.8	0.0
2025-01-16 17:52:44.563971	344.4	21.6	-81.6	0.0
2025-01-16 17:52:46.803470	344.4	21.3	-82.0	0.0
2025-01-16 17:52:49.044904	344.4	21.0	-82.0	0.0
2025-01-16 17:52:51.290546	344.4	20.7	-82.1	0.0
2025-01-16 17:52:53.534244	344.4	20.4	-82.2	0.0
2025-01-16 17:52:55.776644	344.4	20.1	-81.9	0.0
2025-01-16 17:52:58.020330	344.4	19.8	-81.7	0.0
2025-01-16 17:53:00.261996	344.4	19.5	-81.8	0.0
2025-01-16 17:53:02.502323	344.4	19.2	-82.3	0.0
2025-01-16 17:53:04.744605	344.3	18.9	-81.9	0.0
2025-01-16 17:53:06.987481	344.3	18.6	-82.2	0.0
2025-01-16 17:53:09.232063	344.3	18.3	-81.8	0.0
2025-01-16 17:53:11.476037	344.3	18.1	-81.6	0.0
2025-01-16 17:53:13.724277	344.3	17.8	-81.8	0.0
2025-01-16 17:53:15.966980	344.3	17.5	-81.6	0.0
2025-01-16 17:53:18.208292	344.3	17.3	-82.1	0.0
2025-01-16 17:53:20.453115	344.3	17.0	-80.6	0.0
2025-01-16 17:53:22.693236	344.3	16.8	-80.4	0.0
2025-01-16 17:53:24.935205	344.3	16.5	-81.6	0.0
2025-01-16 17:53:27.181632	344.3	16.2	-81.8	0.0
2025-01-16 17:53:29.424309	344.3	16.0	-81.9	0.0
2025-01-16 17:53:31.665140	344.3	15.7	-81.7	0.0
2025-01-16 17:53:33.905362	344.3	15.5	-82.2	0.0
2025-01-16 17:53:36.149258	344.3	15.3	-82.0	0.0
2025-01-16 17:53:38.389968	344.3	15.0	-81.8	0.0
2025-01-16 17:53:40.630477	344.2	14.8	-82.1	0.0
2025-01-16 17:53:42.870890	344.2	14.5	-82.0	0.0
2025-01-16 17:53:45.113373	344.2	14.3	-81.4	0.0
2025-01-16 17:53:47.355909	344.2	14.1	-81.9	0.0
2025-01-16 17:53:49.595868	344.2	13.9	-81.0	0.0
2025-01-16 17:53:51.837499	344.2	13.6	-81.8	0.0
2025-01-16 17:53:54.079555	344.2	13.4	-81.5	0.0
2025-01-16 17:53:56.320586	344.2	13.2	-81.3	0.0
2025-01-16 17:53:58.562103	344.2	13.0	-81.6	0.0
2025-01-16 17:54:00.804296	344.2	12.7	-81.8	0.0
2025-01-16 17:54:03.044042	344.2	12.5	-81.9	0.0
2025-01-16 17:54:05.286012	344.2	12.3	-81.8	0.0
2025-01-16 17:54:07.527703	344.2	12.1	-81.9	0.0
2025-01-16 17:54:09.767769	344.2	11.9	-81.9	0.0
2025-01-16 17:54:12.008093	344.2	11.7	-81.9	0.0
2025-01-16 17:54:14.249435	344.2	11.5	-81.7	0.0
2025-01-16 17:54:16.491925	344.2	11.3	-82.1	0.0
2025-01-16 17:54:18.732640	344.2	11.1	-82.2	0.0
2025-01-16 17:54:20.972560	344.2	10.9	-81.8	0.0
2025-01-16 17:54:23.211598	344.2	10.7	-81.6	0.0
2025-01-16 17:54:25.453287	344.2	10.5	-81.3	0.0
2025-01-16 17:54:27.696206	344.2	10.3	-81.5	0.0
2025-01-16 17:54:29.933869	344.2	10.1	-82.1	0.0
#Closed at: 2025-01-16 17:43:39.377024