passes_logs/2025/01/16/planumMaritime01/planumMaritime01__20250116_075217_METEOR-M2_3_rec.log

#Pass ID: 20250116_075217_METEOR-M2 3
#Satellite: METEOR-M2 3
#Configuration: METEOR-M2 3
#Start time: 2025-01-16 07:52:22.281569

#LorettStation: 1.0.0 05.05.2024
#Station: planumMaritime01
#Location: 37.49445 lon 55.92918 lat
#TLE: 1 57166U 23091A   25015.11335980  .00000040  00000+0  36643-4 0  9992
#TLE: 2 57166  98.6849  73.5750 0003221 223.8450 136.2474 14.23969247 80787

#Time	Az	El	Level	SNR
2025-01-16 07:52:24.436904	12.8	10.2	-80.7	0.0
2025-01-16 07:52:26.681160	12.8	10.4	-80.6	0.0
2025-01-16 07:52:28.925885	12.7	10.6	-80.5	0.0
2025-01-16 07:52:31.170497	12.7	10.8	-80.7	0.0
2025-01-16 07:52:33.417424	12.6	11.0	-80.5	0.0
2025-01-16 07:52:35.663839	12.6	11.2	-80.6	0.0
2025-01-16 07:52:37.910236	12.5	11.4	-80.5	0.0
2025-01-16 07:52:40.153160	12.5	11.6	-80.6	0.0
2025-01-16 07:52:42.398929	12.4	11.8	-80.6	0.0
2025-01-16 07:52:44.641858	12.3	12.0	-80.8	0.0
2025-01-16 07:52:46.888380	12.3	12.2	-80.6	0.0
2025-01-16 07:52:49.129775	12.2	12.4	-80.6	0.0
2025-01-16 07:52:51.375827	12.2	12.6	-80.7	0.0
2025-01-16 07:52:53.621195	12.1	12.9	-80.8	0.0
2025-01-16 07:52:55.870794	12.0	13.1	-80.5	0.0
2025-01-16 07:52:58.118467	12.0	13.3	-80.6	0.0
2025-01-16 07:53:00.361401	11.9	13.5	-80.7	0.0
2025-01-16 07:53:02.609478	11.8	13.8	-80.6	0.0
2025-01-16 07:53:04.854858	11.8	14.0	-80.7	0.0
2025-01-16 07:53:07.099246	11.7	14.2	-80.5	0.0
2025-01-16 07:53:09.345182	11.6	14.4	-80.7	0.0
2025-01-16 07:53:11.589099	11.5	14.7	-80.7	0.0
2025-01-16 07:53:13.833427	11.5	14.9	-80.6	0.0
2025-01-16 07:53:16.078674	11.4	15.1	-80.5	0.0
2025-01-16 07:53:18.326123	11.3	15.4	-80.7	0.0
2025-01-16 07:53:20.572470	11.2	15.6	-80.7	0.0
2025-01-16 07:53:22.822733	11.2	15.9	-80.6	0.0
2025-01-16 07:53:25.067809	11.1	16.1	-80.6	0.0
2025-01-16 07:53:27.313992	11.0	16.4	-81.0	0.0
2025-01-16 07:53:29.560233	10.9	16.6	-80.9	0.0
2025-01-16 07:53:31.808101	10.8	16.9	-80.6	0.0
2025-01-16 07:53:34.054716	10.7	17.1	-80.9	0.0
2025-01-16 07:53:36.301685	10.7	17.4	-80.8	0.0
2025-01-16 07:53:38.546541	10.6	17.7	-80.6	0.0
2025-01-16 07:53:40.792470	10.5	17.9	-80.5	0.0
2025-01-16 07:53:43.038748	10.4	18.2	-81.0	0.0
2025-01-16 07:53:45.286816	10.3	18.5	-81.1	0.0
2025-01-16 07:53:47.533476	10.2	18.7	-81.0	0.0
2025-01-16 07:53:49.778044	10.1	19.0	-80.9	0.0
2025-01-16 07:53:52.022653	10.0	19.3	-81.2	0.0
2025-01-16 07:53:54.266987	9.9	19.6	-80.7	0.0
2025-01-16 07:53:56.513435	9.8	19.9	-81.0	0.0
2025-01-16 07:53:58.758457	9.7	20.2	-80.8	0.0
2025-01-16 07:54:01.002654	9.6	20.5	-81.4	0.0
2025-01-16 07:54:03.245786	9.5	20.7	-81.3	0.0
2025-01-16 07:54:05.491865	9.3	21.0	-81.2	0.0
2025-01-16 07:54:07.738002	9.2	21.4	-81.0	0.0
2025-01-16 07:54:09.984571	9.1	21.7	-81.1	0.0
2025-01-16 07:54:12.227158	9.0	22.0	-80.7	0.0
2025-01-16 07:54:14.476522	8.9	22.3	-81.1	0.0
2025-01-16 07:54:16.721873	8.7	22.6	-81.1	0.0
2025-01-16 07:54:18.968529	8.6	22.9	-80.8	0.0
2025-01-16 07:54:21.217449	8.5	23.3	-80.9	0.0
2025-01-16 07:54:23.465936	8.3	23.6	-81.0	0.0
2025-01-16 07:54:25.715068	8.2	23.9	-81.2	0.0
2025-01-16 07:54:27.958600	8.0	24.3	-80.9	0.0
2025-01-16 07:54:30.204992	7.9	24.6	-81.2	0.0
2025-01-16 07:54:32.450446	7.8	25.0	-81.3	0.0
2025-01-16 07:54:34.697387	7.6	25.3	-80.9	0.0
2025-01-16 07:54:36.943880	7.4	25.7	-80.9	0.0
2025-01-16 07:54:39.190769	7.3	26.0	-80.6	0.0
2025-01-16 07:54:41.435348	7.1	26.4	-81.4	0.0
2025-01-16 07:54:43.681045	6.9	26.8	-81.1	0.0
2025-01-16 07:54:45.927352	6.8	27.1	-81.2	0.0
2025-01-16 07:54:48.174640	6.6	27.5	-81.5	0.0
2025-01-16 07:54:50.418880	6.4	27.9	-81.3	0.0
2025-01-16 07:54:52.665538	6.2	28.3	-81.3	0.0
2025-01-16 07:54:54.913374	6.0	28.7	-81.2	0.0
2025-01-16 07:54:57.161019	5.8	29.1	-81.4	0.0
2025-01-16 07:54:59.408833	5.6	29.5	-81.2	0.0
2025-01-16 07:55:01.655382	5.4	29.9	-81.0	0.0
2025-01-16 07:55:03.898920	5.2	30.3	-81.2	0.0
2025-01-16 07:55:06.147513	5.0	30.8	-81.1	0.0
2025-01-16 07:55:08.396819	4.8	31.2	-81.3	0.0
2025-01-16 07:55:10.640950	4.5	31.6	-80.9	0.0
2025-01-16 07:55:12.888380	4.3	32.1	-81.2	0.0
2025-01-16 07:55:15.133381	4.1	32.5	-81.1	0.0
2025-01-16 07:55:17.379515	3.8	33.0	-81.3	0.0
2025-01-16 07:55:19.626629	3.6	33.4	-81.1	0.0
2025-01-16 07:55:21.871933	3.3	33.9	-81.1	0.0
2025-01-16 07:55:24.120204	3.0	34.4	-81.2	0.0
2025-01-16 07:55:26.365929	2.7	34.9	-81.4	0.0
2025-01-16 07:55:28.613836	2.4	35.3	-81.5	0.0
2025-01-16 07:55:30.859743	2.1	35.8	-81.2	0.0
2025-01-16 07:55:33.105011	1.8	36.3	-81.1	0.0
2025-01-16 07:55:35.351082	1.5	36.8	-81.2	0.0
2025-01-16 07:55:37.595657	1.2	37.4	-81.1	0.0
2025-01-16 07:55:39.843049	0.8	37.9	-81.4	0.0
2025-01-16 07:55:42.090134	0.5	38.4	-81.4	0.0
2025-01-16 07:55:44.338887	0.1	38.9	-81.5	0.0
2025-01-16 07:55:46.584373	359.7	39.5	-81.3	0.0
2025-01-16 07:55:48.833429	359.3	40.0	-81.1	0.0
2025-01-16 07:55:51.078036	358.9	40.6	-81.4	0.0
2025-01-16 07:55:53.323982	358.5	41.2	-81.3	0.0
2025-01-16 07:55:55.569831	358.1	41.7	-81.2	0.0
2025-01-16 07:55:57.816439	357.6	42.3	-81.3	0.0
2025-01-16 07:56:00.062331	357.2	42.9	-81.1	0.0
2025-01-16 07:56:02.308991	356.7	43.5	-81.0	0.0
2025-01-16 07:56:04.555605	356.2	44.1	-80.9	0.0
2025-01-16 07:56:06.803211	355.6	44.7	-80.8	0.0
2025-01-16 07:56:09.046418	355.1	45.3	-81.2	0.0
2025-01-16 07:56:11.292171	354.5	45.9	-80.8	0.0
2025-01-16 07:56:13.535819	353.9	46.6	-81.1	0.0
2025-01-16 07:56:15.782367	353.3	47.2	-80.9	0.0
2025-01-16 07:56:18.029043	352.7	47.8	-81.4	0.0
2025-01-16 07:56:20.277424	352.0	48.5	-81.1	0.0
2025-01-16 07:56:22.521736	351.3	49.1	-81.2	0.0
2025-01-16 07:56:24.767696	350.6	49.8	-81.3	0.0
2025-01-16 07:56:27.015537	349.8	50.4	-81.4	0.0
2025-01-16 07:56:29.259720	349.0	51.1	-81.4	0.0
2025-01-16 07:56:31.504079	348.2	51.8	-81.2	0.0
2025-01-16 07:56:33.752712	347.3	52.4	-81.0	0.0
2025-01-16 07:56:35.996622	346.4	53.1	-81.0	0.0
2025-01-16 07:56:38.242145	345.5	53.8	-81.2	0.0
2025-01-16 07:56:40.490811	344.5	54.5	-81.2	0.0
2025-01-16 07:56:42.735745	343.4	55.1	-81.5	0.0
2025-01-16 07:56:44.983027	342.3	55.8	-81.2	0.0
2025-01-16 07:56:47.231430	341.2	56.5	-81.5	0.0
2025-01-16 07:56:49.475038	339.9	57.1	-81.3	0.0
2025-01-16 07:56:51.721968	338.7	57.8	-81.3	0.0
2025-01-16 07:56:53.965442	337.3	58.4	-81.0	0.0
2025-01-16 07:56:56.210174	335.9	59.1	-81.4	0.0
2025-01-16 07:56:58.455480	334.5	59.7	-81.5	0.0
2025-01-16 07:57:00.698925	332.9	60.3	-81.3	0.0
2025-01-16 07:57:02.946888	331.3	60.9	-81.2	0.0
2025-01-16 07:57:05.192588	329.6	61.5	-81.3	0.0
2025-01-16 07:57:07.436975	327.8	62.1	-81.1	0.0
2025-01-16 07:57:09.680569	325.9	62.7	-81.1	0.0
2025-01-16 07:57:11.928426	324.0	63.2	-81.2	0.0
2025-01-16 07:57:14.171591	321.9	63.7	-80.9	0.0
2025-01-16 07:57:16.417017	319.8	64.2	-81.1	0.0
2025-01-16 07:57:18.661716	317.6	64.6	-80.9	0.0
2025-01-16 07:57:20.904145	315.2	65.0	-80.9	0.0
2025-01-16 07:57:23.151479	312.8	65.4	-81.0	0.0
2025-01-16 07:57:25.400845	310.4	65.8	-81.0	0.0
2025-01-16 07:57:27.647107	307.8	66.1	-81.1	0.0
2025-01-16 07:57:29.893018	305.2	66.3	-81.4	0.0
2025-01-16 07:57:32.138224	302.5	66.5	-81.3	0.0
2025-01-16 07:57:34.383784	299.8	66.7	-81.1	0.0
2025-01-16 07:57:36.631371	297.1	66.8	-81.3	0.0
2025-01-16 07:57:38.876136	294.3	66.9	-81.2	0.0
2025-01-16 07:57:41.122948	291.5	66.9	-81.2	0.0
2025-01-16 07:57:43.372720	288.7	66.9	-81.7	0.0
2025-01-16 07:57:45.620423	285.9	66.8	-81.3	0.0
2025-01-16 07:57:47.866278	283.2	66.6	-81.3	0.0
2025-01-16 07:57:50.114080	280.5	66.5	-81.2	0.0
2025-01-16 07:57:52.357972	277.8	66.2	-80.9	0.0
2025-01-16 07:57:54.604096	275.2	66.0	-80.8	0.0
2025-01-16 07:57:56.855720	272.7	65.6	-81.0	0.0
2025-01-16 07:57:59.099700	270.2	65.3	-81.1	0.0
2025-01-16 07:58:01.349862	267.9	64.9	-80.9	0.0
2025-01-16 07:58:03.595063	265.6	64.5	-81.1	0.0
2025-01-16 07:58:05.842595	263.4	64.0	-81.5	0.0
2025-01-16 07:58:08.087250	261.3	63.5	-81.1	0.0
2025-01-16 07:58:10.331247	259.3	63.0	-80.9	0.0
2025-01-16 07:58:12.578825	257.3	62.4	-81.1	0.0
2025-01-16 07:58:14.823033	255.5	61.9	-81.1	0.0
2025-01-16 07:58:17.071824	253.7	61.3	-81.1	0.0
2025-01-16 07:58:19.316457	252.1	60.7	-81.2	0.0
2025-01-16 07:58:21.562078	250.5	60.1	-81.5	0.0
2025-01-16 07:58:23.808012	248.9	59.4	-81.5	0.0
2025-01-16 07:58:26.055151	247.5	58.8	-81.4	0.0
2025-01-16 07:58:28.304122	246.1	58.2	-81.2	0.0
2025-01-16 07:58:30.554393	244.8	57.5	-81.1	0.0
2025-01-16 07:58:32.799589	243.5	56.8	-81.2	0.0
2025-01-16 07:58:35.047140	242.4	56.2	-81.1	0.0
2025-01-16 07:58:37.295770	241.2	55.5	-80.9	0.0
2025-01-16 07:58:39.539436	240.1	54.8	-80.5	0.0
2025-01-16 07:58:41.788162	239.1	54.1	-80.7	0.0
2025-01-16 07:58:44.037680	238.1	53.5	-80.3	0.0
2025-01-16 07:58:46.283969	237.2	52.8	-80.4	0.0
2025-01-16 07:58:48.532322	236.3	52.1	-80.1	0.0
2025-01-16 07:58:50.775055	235.4	51.4	-80.0	0.0
2025-01-16 07:58:53.023768	234.6	50.8	-80.0	0.0
2025-01-16 07:58:55.269610	233.8	50.1	-79.6	0.0
2025-01-16 07:58:57.516025	233.1	49.5	-79.9	0.0
2025-01-16 07:58:59.765122	232.4	48.8	-80.0	0.0
2025-01-16 07:59:02.013735	231.7	48.1	-79.5	0.0
2025-01-16 07:59:04.259311	231.0	47.5	-79.7	0.0
2025-01-16 07:59:06.506037	230.4	46.9	-80.0	0.0
2025-01-16 07:59:08.751028	229.8	46.2	-79.9	0.0
2025-01-16 07:59:11.000539	229.2	45.6	-80.1	0.0
2025-01-16 07:59:13.246631	228.6	45.0	-80.4	0.0
2025-01-16 07:59:15.490936	228.1	44.4	-80.2	0.0
2025-01-16 07:59:17.735852	227.6	43.8	-80.6	0.0
2025-01-16 07:59:19.982880	227.1	43.2	-80.6	0.0
2025-01-16 07:59:22.228976	226.6	42.6	-80.8	0.0
2025-01-16 07:59:24.473223	226.1	42.0	-80.6	0.0
2025-01-16 07:59:26.720400	225.7	41.4	-81.1	0.0
2025-01-16 07:59:28.964980	225.3	40.8	-81.1	0.0
2025-01-16 07:59:31.209260	224.8	40.3	-80.8	0.0
2025-01-16 07:59:33.456558	224.4	39.7	-80.8	0.0
2025-01-16 07:59:35.701806	224.1	39.2	-80.8	0.0
2025-01-16 07:59:37.945847	223.7	38.6	-80.7	0.0
2025-01-16 07:59:40.190215	223.3	38.1	-80.8	0.0
2025-01-16 07:59:42.435592	223.0	37.6	-80.6	0.0
2025-01-16 07:59:44.683347	222.6	37.0	-81.1	0.0
2025-01-16 07:59:46.931440	222.3	36.5	-81.1	0.0
2025-01-16 07:59:49.179475	222.0	36.0	-81.1	0.0
2025-01-16 07:59:51.429247	221.7	35.5	-81.1	0.0
2025-01-16 07:59:53.676721	221.4	35.0	-81.4	0.0
2025-01-16 07:59:55.925262	221.1	34.5	-81.4	0.0
2025-01-16 07:59:58.171376	220.8	34.0	-81.5	0.0
2025-01-16 08:00:00.419372	220.5	33.6	-81.5	0.0
2025-01-16 08:00:02.662812	220.3	33.1	-81.6	0.0
2025-01-16 08:00:04.910790	220.0	32.6	-81.6	0.0
2025-01-16 08:00:07.158774	219.8	32.2	-81.5	0.0
2025-01-16 08:00:09.402841	219.5	31.7	-81.2	0.0
2025-01-16 08:00:11.648974	219.3	31.3	-80.9	0.0
2025-01-16 08:00:13.895286	219.1	30.9	-80.9	0.0
2025-01-16 08:00:16.139641	218.8	30.4	-81.1	0.0
2025-01-16 08:00:18.387894	218.6	30.0	-80.8	0.0
2025-01-16 08:00:20.636871	218.4	29.6	-80.6	0.0
2025-01-16 08:00:22.881330	218.2	29.2	-80.5	0.0
2025-01-16 08:00:25.129691	218.0	28.8	-80.3	0.0
2025-01-16 08:00:27.377818	217.8	28.4	-80.4	0.0
2025-01-16 08:00:29.624138	217.6	28.0	-80.4	0.0
2025-01-16 08:00:31.875789	217.4	27.6	-80.5	0.0
2025-01-16 08:00:34.119485	217.2	27.2	-80.5	0.0
2025-01-16 08:00:36.364658	217.1	26.8	-80.3	0.0
2025-01-16 08:00:38.612884	216.9	26.4	-80.7	0.0
2025-01-16 08:00:40.856051	216.7	26.1	-80.6	0.0
2025-01-16 08:00:43.101212	216.6	25.7	-80.9	0.0
2025-01-16 08:00:45.349845	216.4	25.3	-81.0	0.0
2025-01-16 08:00:47.598006	216.2	25.0	-80.9	0.0
2025-01-16 08:00:49.845541	216.1	24.6	-80.6	0.0
2025-01-16 08:00:52.090820	215.9	24.3	-81.1	0.0
2025-01-16 08:00:54.333261	215.8	23.9	-81.3	0.0
2025-01-16 08:00:56.579606	215.7	23.6	-81.2	0.0
2025-01-16 08:00:58.824856	215.5	23.3	-81.1	0.0
2025-01-16 08:01:01.072030	215.4	22.9	-81.6	0.0
2025-01-16 08:01:03.318061	215.2	22.6	-81.5	0.0
2025-01-16 08:01:05.563403	215.1	22.3	-81.4	0.0
2025-01-16 08:01:07.809570	215.0	22.0	-81.6	0.0
2025-01-16 08:01:10.055099	214.9	21.7	-81.7	0.0
2025-01-16 08:01:12.300788	214.7	21.4	-81.7	0.0
2025-01-16 08:01:14.547801	214.6	21.0	-81.5	0.0
2025-01-16 08:01:16.795480	214.5	20.7	-81.7	0.0
2025-01-16 08:01:19.043342	214.4	20.4	-81.7	0.0
2025-01-16 08:01:21.288065	214.3	20.1	-81.9	0.0
2025-01-16 08:01:23.531930	214.2	19.9	-81.8	0.0
2025-01-16 08:01:25.778492	214.1	19.6	-81.8	0.0
2025-01-16 08:01:28.022985	213.9	19.3	-81.6	0.0
2025-01-16 08:01:30.268987	213.8	19.0	-81.3	0.0
2025-01-16 08:01:32.516879	213.7	18.7	-81.6	0.0
2025-01-16 08:01:34.766323	213.6	18.4	-81.5	0.0
2025-01-16 08:01:37.011120	213.5	18.2	-81.6	0.0
2025-01-16 08:01:39.258116	213.4	17.9	-81.6	0.0
2025-01-16 08:01:41.502608	213.3	17.6	-81.3	0.0
2025-01-16 08:01:43.748585	213.3	17.4	-81.4	0.0
2025-01-16 08:01:45.995519	213.2	17.1	-81.6	0.0
2025-01-16 08:01:48.241892	213.1	16.8	-81.6	0.0
2025-01-16 08:01:50.487491	213.0	16.6	-81.7	0.0
2025-01-16 08:01:52.732553	212.9	16.3	-81.6	0.0
2025-01-16 08:01:54.979516	212.8	16.1	-81.6	0.0
2025-01-16 08:01:57.227040	212.7	15.8	-81.8	0.0
2025-01-16 08:01:59.472912	212.7	15.6	-81.5	0.0
2025-01-16 08:02:01.720154	212.6	15.3	-81.6	0.0
2025-01-16 08:02:03.967294	212.5	15.1	-81.2	0.0
2025-01-16 08:02:06.213853	212.4	14.8	-81.5	0.0
2025-01-16 08:02:08.459455	212.3	14.6	-81.6	0.0
2025-01-16 08:02:10.704348	212.3	14.4	-81.6	0.0
2025-01-16 08:02:12.954645	212.2	14.1	-81.4	0.0
2025-01-16 08:02:15.202014	212.1	13.9	-81.4	0.0
2025-01-16 08:02:17.448061	212.0	13.7	-81.6	0.0
2025-01-16 08:02:19.694924	212.0	13.5	-81.5	0.0
2025-01-16 08:02:21.942541	211.9	13.2	-81.6	0.0
2025-01-16 08:02:24.185643	211.8	13.0	-81.4	0.0
2025-01-16 08:02:26.427279	211.8	12.8	-81.5	0.0
2025-01-16 08:02:28.673252	211.7	12.6	-81.2	0.0
2025-01-16 08:02:30.919337	211.6	12.3	-81.5	0.0
2025-01-16 08:02:33.165801	211.6	12.1	-81.5	0.0
2025-01-16 08:02:35.411893	211.5	11.9	-81.5	0.0
2025-01-16 08:02:37.657590	211.5	11.7	-81.3	0.0
2025-01-16 08:02:39.901156	211.4	11.5	-81.2	0.0
2025-01-16 08:02:42.150799	211.3	11.3	-81.6	0.0
2025-01-16 08:02:44.396673	211.3	11.1	-81.9	0.0
2025-01-16 08:02:46.641499	211.2	10.9	-81.8	0.0
2025-01-16 08:02:48.889442	211.2	10.7	-81.8	0.0
2025-01-16 08:02:51.137211	211.1	10.5	-81.8	0.0
2025-01-16 08:02:53.380359	211.1	10.3	-81.8	0.0
2025-01-16 08:02:55.629465	211.0	10.1	-81.7	0.0
#Closed at: 2025-01-16 07:52:17.284316