passes_logs/2025/01/16/planumMaritime01/planumMaritime01__20250116_061401_METOP-B_rec.log

#Pass ID: 20250116_061401_METOP-B
#Satellite: METOP-B
#Configuration: METOP-B
#Start time: 2025-01-16 06:14:06.803811

#LorettStation: 1.0.0 05.05.2024
#Station: planumMaritime01
#Location: 37.49445 lon 55.92918 lat
#TLE: 1 38771U 12049A   25015.11229907  .00000209  00000+0  11529-3 0  9997
#TLE: 2 38771  98.6010  73.2676 0001769  81.8838 278.2540 14.21410121639656

#Time	Az	El	Level	SNR
2025-01-16 06:14:08.956185	33.3	10.2	-80.2	0.0
2025-01-16 06:14:11.202897	33.6	10.3	-80.4	0.0
2025-01-16 06:14:13.449503	33.8	10.5	-80.1	0.0
2025-01-16 06:14:15.695376	34.0	10.6	-79.8	0.0
2025-01-16 06:14:17.941201	34.3	10.8	-80.4	0.0
2025-01-16 06:14:20.186473	34.5	11.0	-80.5	0.0
2025-01-16 06:14:22.430022	34.8	11.1	-80.6	0.0
2025-01-16 06:14:24.677253	35.0	11.3	-80.4	0.0
2025-01-16 06:14:26.927334	35.3	11.5	-80.5	0.0
2025-01-16 06:14:29.174829	35.5	11.6	-80.5	0.0
2025-01-16 06:14:31.422155	35.8	11.8	-80.7	0.0
2025-01-16 06:14:33.665244	36.1	12.0	-80.6	0.0
2025-01-16 06:14:35.914334	36.3	12.1	-80.6	0.0
2025-01-16 06:14:38.162881	36.6	12.3	-80.6	0.0
2025-01-16 06:14:40.412278	36.9	12.5	-80.7	0.0
2025-01-16 06:14:42.661031	37.1	12.6	-80.7	0.0
2025-01-16 06:14:44.906459	37.4	12.8	-80.7	0.0
2025-01-16 06:14:47.152440	37.7	13.0	-80.8	0.0
2025-01-16 06:14:49.398912	38.0	13.2	-80.8	0.0
2025-01-16 06:14:51.642170	38.2	13.3	-80.8	0.0
2025-01-16 06:14:53.888596	38.5	13.5	-80.8	0.0
2025-01-16 06:14:56.135707	38.8	13.7	-80.8	0.0
2025-01-16 06:14:58.384734	39.1	13.8	-81.0	0.0
2025-01-16 06:15:00.633176	39.4	14.0	-80.9	0.0
2025-01-16 06:15:02.881148	39.7	14.2	-80.7	0.0
2025-01-16 06:15:05.126519	40.0	14.4	-80.7	0.0
2025-01-16 06:15:07.372750	40.3	14.6	-80.8	0.0
2025-01-16 06:15:09.617125	40.6	14.7	-80.8	0.0
2025-01-16 06:15:11.862585	41.0	14.9	-80.6	0.0
2025-01-16 06:15:14.112665	41.3	15.1	-80.8	0.0
2025-01-16 06:15:16.362550	41.6	15.3	-81.1	0.0
2025-01-16 06:15:18.608124	41.9	15.4	-81.0	0.0
2025-01-16 06:15:20.854467	42.3	15.6	-80.8	0.0
2025-01-16 06:15:23.100259	42.6	15.8	-80.9	0.0
2025-01-16 06:15:25.347132	42.9	16.0	-80.8	0.0
2025-01-16 06:15:27.593311	43.3	16.2	-80.9	0.0
2025-01-16 06:15:29.841228	43.6	16.4	-81.1	0.0
2025-01-16 06:15:32.089541	44.0	16.5	-81.1	0.0
2025-01-16 06:15:34.334826	44.3	16.7	-81.1	0.0
2025-01-16 06:15:36.582289	44.7	16.9	-80.7	0.0
2025-01-16 06:15:38.829355	45.1	17.1	-81.0	0.0
2025-01-16 06:15:41.073655	45.4	17.3	-81.2	0.0
2025-01-16 06:15:43.319304	45.8	17.4	-80.7	0.0
2025-01-16 06:15:45.566086	46.2	17.6	-80.7	0.0
2025-01-16 06:15:47.810791	46.6	17.8	-80.8	0.0
2025-01-16 06:15:50.057089	46.9	18.0	-81.0	0.0
2025-01-16 06:15:52.305717	47.3	18.2	-81.2	0.0
2025-01-16 06:15:54.553339	47.7	18.4	-81.0	0.0
2025-01-16 06:15:56.801471	48.1	18.6	-81.1	0.0
2025-01-16 06:15:59.045747	48.5	18.7	-80.9	0.0
2025-01-16 06:16:01.294245	48.9	18.9	-81.0	0.0
2025-01-16 06:16:03.539209	49.4	19.1	-80.7	0.0
2025-01-16 06:16:05.784614	49.8	19.3	-81.1	0.0
2025-01-16 06:16:08.030406	50.2	19.5	-80.8	0.0
2025-01-16 06:16:10.278304	50.6	19.7	-80.4	0.0
2025-01-16 06:16:12.521882	51.1	19.8	-80.5	0.0
2025-01-16 06:16:14.773364	51.5	20.0	-80.8	0.0
2025-01-16 06:16:17.020997	51.9	20.2	-80.6	0.0
2025-01-16 06:16:19.269438	52.4	20.4	-80.5	0.0
2025-01-16 06:16:21.516413	52.9	20.6	-80.7	0.0
2025-01-16 06:16:23.763128	53.3	20.8	-81.0	0.0
2025-01-16 06:16:26.012458	53.8	20.9	-81.1	0.0
2025-01-16 06:16:28.261666	54.3	21.1	-80.8	0.0
2025-01-16 06:16:30.507782	54.7	21.3	-80.6	0.0
2025-01-16 06:16:32.752117	55.2	21.5	-80.9	0.0
2025-01-16 06:16:35.000363	55.7	21.7	-80.5	0.0
2025-01-16 06:16:37.245987	56.2	21.8	-80.3	0.0
2025-01-16 06:16:39.491097	56.7	22.0	-80.5	0.0
2025-01-16 06:16:41.736706	57.2	22.2	-80.6	0.0
2025-01-16 06:16:43.979897	57.7	22.4	-80.8	0.0
2025-01-16 06:16:46.227071	58.2	22.5	-80.7	0.0
2025-01-16 06:16:48.475095	58.7	22.7	-81.1	0.0
2025-01-16 06:16:50.722082	59.3	22.9	-81.1	0.0
2025-01-16 06:16:52.969869	59.8	23.1	-81.1	0.0
2025-01-16 06:16:55.217103	60.3	23.2	-81.2	0.0
2025-01-16 06:16:57.465497	60.9	23.4	-80.5	0.0
2025-01-16 06:16:59.715054	61.4	23.6	-81.0	0.0
2025-01-16 06:17:01.961360	62.0	23.7	-80.6	0.0
2025-01-16 06:17:04.208893	62.6	23.9	-81.1	0.0
2025-01-16 06:17:06.453754	63.1	24.1	-81.2	0.0
2025-01-16 06:17:08.698646	63.7	24.2	-81.2	0.0
2025-01-16 06:17:10.946542	64.3	24.4	-81.1	0.0
2025-01-16 06:17:13.192491	64.9	24.5	-81.1	0.0
2025-01-16 06:17:15.441983	65.5	24.7	-80.8	0.0
2025-01-16 06:17:17.684810	66.1	24.8	-81.2	0.0
2025-01-16 06:17:19.928103	66.7	25.0	-81.1	0.0
2025-01-16 06:17:22.174901	67.3	25.1	-81.1	0.0
2025-01-16 06:17:24.419999	67.9	25.3	-81.1	0.0
2025-01-16 06:17:26.669981	68.5	25.4	-81.0	0.0
2025-01-16 06:17:28.915053	69.1	25.5	-81.0	0.0
2025-01-16 06:17:31.162076	69.7	25.7	-81.0	0.0
2025-01-16 06:17:33.407904	70.4	25.8	-81.0	0.0
2025-01-16 06:17:35.652771	71.0	25.9	-80.9	0.0
2025-01-16 06:17:37.900656	71.7	26.1	-80.8	0.0
2025-01-16 06:17:40.144025	72.3	26.2	-80.9	0.0
2025-01-16 06:17:42.391845	73.0	26.3	-81.0	0.0
2025-01-16 06:17:44.639687	73.6	26.4	-81.2	0.0
2025-01-16 06:17:46.886797	74.3	26.5	-81.1	0.0
2025-01-16 06:17:49.133335	75.0	26.6	-81.3	0.0
2025-01-16 06:17:51.380129	75.6	26.7	-81.1	0.0
2025-01-16 06:17:53.625997	76.3	26.8	-81.3	0.0
2025-01-16 06:17:55.870846	77.0	26.9	-81.1	0.0
2025-01-16 06:17:58.116594	77.7	27.0	-81.3	0.0
2025-01-16 06:18:00.361701	78.4	27.1	-81.2	0.0
2025-01-16 06:18:02.606542	79.1	27.2	-81.1	0.0
2025-01-16 06:18:04.851172	79.8	27.3	-80.9	0.0
2025-01-16 06:18:07.096866	80.5	27.4	-81.2	0.0
2025-01-16 06:18:09.341082	81.2	27.4	-80.9	0.0
2025-01-16 06:18:11.592202	81.9	27.5	-81.0	0.0
2025-01-16 06:18:13.842067	82.6	27.6	-81.2	0.0
2025-01-16 06:18:16.084986	83.3	27.6	-80.9	0.0
2025-01-16 06:18:18.330365	84.0	27.7	-81.4	0.0
2025-01-16 06:18:20.577436	84.7	27.7	-81.2	0.0
2025-01-16 06:18:22.822880	85.4	27.8	-81.1	0.0
2025-01-16 06:18:25.071456	86.2	27.8	-81.4	0.0
2025-01-16 06:18:27.318203	86.9	27.9	-81.1	0.0
2025-01-16 06:18:29.564004	87.6	27.9	-81.1	0.0
2025-01-16 06:18:31.810420	88.3	27.9	-81.3	0.0
2025-01-16 06:18:34.055372	89.1	27.9	-81.2	0.0
2025-01-16 06:18:36.301168	89.8	28.0	-81.3	0.0
2025-01-16 06:18:38.549197	90.5	28.0	-81.1	0.0
2025-01-16 06:18:40.795246	91.3	28.0	-81.4	0.0
2025-01-16 06:18:43.039018	92.0	28.0	-80.7	0.0
2025-01-16 06:18:45.283817	92.7	28.0	-80.8	0.0
2025-01-16 06:18:47.532150	93.4	28.0	-81.2	0.0
2025-01-16 06:18:49.777177	94.2	27.9	-81.1	0.0
2025-01-16 06:18:52.023166	94.9	27.9	-81.5	0.0
2025-01-16 06:18:54.270992	95.6	27.9	-81.6	0.0
2025-01-16 06:18:56.516424	96.4	27.9	-81.7	0.0
2025-01-16 06:18:58.761897	97.1	27.8	-81.5	0.0
2025-01-16 06:19:01.009694	97.8	27.8	-81.5	0.0
2025-01-16 06:19:03.255019	98.5	27.8	-81.5	0.0
2025-01-16 06:19:05.502548	99.2	27.7	-81.5	0.0
2025-01-16 06:19:07.744401	100.0	27.7	-81.2	0.0
2025-01-16 06:19:09.992890	100.7	27.6	-81.3	0.0
2025-01-16 06:19:12.238297	101.4	27.6	-81.1	0.0
2025-01-16 06:19:14.482040	102.1	27.5	-80.8	0.0
2025-01-16 06:19:16.727235	102.8	27.4	-81.4	0.0
2025-01-16 06:19:18.973331	103.5	27.3	-81.2	0.0
2025-01-16 06:19:21.219565	104.2	27.3	-81.3	0.0
2025-01-16 06:19:23.464312	104.9	27.2	-81.1	0.0
2025-01-16 06:19:25.711209	105.6	27.1	-81.6	0.0
2025-01-16 06:19:27.958239	106.3	27.0	-81.4	0.0
2025-01-16 06:19:30.204051	107.0	26.9	-81.3	0.0
2025-01-16 06:19:32.449129	107.7	26.8	-81.1	0.0
2025-01-16 06:19:34.695295	108.3	26.7	-81.3	0.0
2025-01-16 06:19:36.943314	109.0	26.6	-81.1	0.0
2025-01-16 06:19:39.188864	109.7	26.5	-81.3	0.0
2025-01-16 06:19:41.435000	110.3	26.4	-81.2	0.0
2025-01-16 06:19:43.679332	111.0	26.3	-80.7	0.0
2025-01-16 06:19:45.926166	111.7	26.1	-81.1	0.0
2025-01-16 06:19:48.173786	112.3	26.0	-80.8	0.0
2025-01-16 06:19:50.417123	113.0	25.9	-80.8	0.0
2025-01-16 06:19:52.664974	113.6	25.8	-81.0	0.0
2025-01-16 06:19:54.909635	114.2	25.6	-81.3	0.0
2025-01-16 06:19:57.152622	114.9	25.5	-80.9	0.0
2025-01-16 06:19:59.399054	115.5	25.3	-80.8	0.0
2025-01-16 06:20:01.643818	116.1	25.2	-81.4	0.0
2025-01-16 06:20:03.891474	116.7	25.1	-81.6	0.0
2025-01-16 06:20:06.136502	117.3	24.9	-81.2	0.0
2025-01-16 06:20:08.384387	117.9	24.8	-81.5	0.0
2025-01-16 06:20:10.633143	118.5	24.6	-81.3	0.0
2025-01-16 06:20:12.878146	119.1	24.4	-81.4	0.0
2025-01-16 06:20:15.121203	119.7	24.3	-81.3	0.0
2025-01-16 06:20:17.368457	120.3	24.1	-81.4	0.0
2025-01-16 06:20:19.618257	120.8	24.0	-81.6	0.0
2025-01-16 06:20:21.862252	121.4	23.8	-81.3	0.0
2025-01-16 06:20:24.111914	122.0	23.6	-81.4	0.0
2025-01-16 06:20:26.357086	122.5	23.5	-81.7	0.0
2025-01-16 06:20:28.603028	123.1	23.3	-81.5	0.0
2025-01-16 06:20:30.849588	123.6	23.1	-81.5	0.0
2025-01-16 06:20:33.092731	124.2	23.0	-81.7	0.0
2025-01-16 06:20:35.339128	124.7	22.8	-81.8	0.0
2025-01-16 06:20:37.582879	125.2	22.6	-81.8	0.0
2025-01-16 06:20:39.829200	125.7	22.5	-81.6	0.0
2025-01-16 06:20:42.073093	126.3	22.3	-81.6	0.0
2025-01-16 06:20:44.317493	126.8	22.1	-81.7	0.0
2025-01-16 06:20:46.561632	127.3	21.9	-81.6	0.0
2025-01-16 06:20:48.808875	127.8	21.7	-81.5	0.0
2025-01-16 06:20:51.055444	128.3	21.6	-81.5	0.0
2025-01-16 06:20:53.302029	128.8	21.4	-81.6	0.0
2025-01-16 06:20:55.547721	129.2	21.2	-81.7	0.0
2025-01-16 06:20:57.795204	129.7	21.0	-81.7	0.0
2025-01-16 06:21:00.040901	130.2	20.8	-81.7	0.0
2025-01-16 06:21:02.286299	130.6	20.6	-81.8	0.0
2025-01-16 06:21:04.531232	131.1	20.5	-81.4	0.0
2025-01-16 06:21:06.775849	131.6	20.3	-81.6	0.0
2025-01-16 06:21:09.020456	132.0	20.1	-81.4	0.0
2025-01-16 06:21:11.265008	132.5	19.9	-81.1	0.0
2025-01-16 06:21:13.511042	132.9	19.7	-81.4	0.0
2025-01-16 06:21:15.757790	133.3	19.5	-81.6	0.0
2025-01-16 06:21:18.001126	133.8	19.4	-81.7	0.0
2025-01-16 06:21:20.249654	134.2	19.2	-81.6	0.0
2025-01-16 06:21:22.497458	134.6	19.0	-81.5	0.0
2025-01-16 06:21:24.743037	135.0	18.8	-81.5	0.0
2025-01-16 06:21:26.988320	135.4	18.6	-81.7	0.0
2025-01-16 06:21:29.233764	135.8	18.4	-81.4	0.0
2025-01-16 06:21:31.477215	136.2	18.2	-81.5	0.0
2025-01-16 06:21:33.721641	136.6	18.1	-81.8	0.0
2025-01-16 06:21:35.968858	137.0	17.9	-81.5	0.0
2025-01-16 06:21:38.217039	137.4	17.7	-81.2	0.0
2025-01-16 06:21:40.463099	137.8	17.5	-81.6	0.0
2025-01-16 06:21:42.708444	138.2	17.3	-81.4	0.0
2025-01-16 06:21:44.954941	138.5	17.1	-81.6	0.0
2025-01-16 06:21:47.200573	138.9	16.9	-81.6	0.0
2025-01-16 06:21:49.445007	139.3	16.8	-81.5	0.0
2025-01-16 06:21:51.691134	139.6	16.6	-81.5	0.0
2025-01-16 06:21:53.939043	140.0	16.4	-81.6	0.0
2025-01-16 06:21:56.188191	140.3	16.2	-81.6	0.0
2025-01-16 06:21:58.435955	140.7	16.0	-81.7	0.0
2025-01-16 06:22:00.682882	141.0	15.8	-81.6	0.0
2025-01-16 06:22:02.930035	141.3	15.7	-81.5	0.0
2025-01-16 06:22:05.177338	141.7	15.5	-81.5	0.0
2025-01-16 06:22:07.423377	142.0	15.3	-81.4	0.0
2025-01-16 06:22:09.668451	142.3	15.1	-81.7	0.0
2025-01-16 06:22:11.911482	142.7	14.9	-81.5	0.0
2025-01-16 06:22:14.158013	143.0	14.8	-81.5	0.0
2025-01-16 06:22:16.402969	143.3	14.6	-81.3	0.0
2025-01-16 06:22:18.646061	143.6	14.4	-81.3	0.0
2025-01-16 06:22:20.894192	143.9	14.2	-81.5	0.0
2025-01-16 06:22:23.142262	144.2	14.0	-81.3	0.0
2025-01-16 06:22:25.390860	144.5	13.9	-81.3	0.0
2025-01-16 06:22:27.636067	144.8	13.7	-81.4	0.0
2025-01-16 06:22:29.882334	145.1	13.5	-81.5	0.0
2025-01-16 06:22:32.129027	145.4	13.3	-81.8	0.0
2025-01-16 06:22:34.375570	145.7	13.2	-81.6	0.0
2025-01-16 06:22:36.620953	146.0	13.0	-81.5	0.0
2025-01-16 06:22:38.866931	146.2	12.8	-81.3	0.0
2025-01-16 06:22:41.114948	146.5	12.6	-81.8	0.0
2025-01-16 06:22:43.360361	146.8	12.5	-81.3	0.0
2025-01-16 06:22:45.608945	147.1	12.3	-81.6	0.0
2025-01-16 06:22:47.854757	147.3	12.1	-81.5	0.0
2025-01-16 06:22:50.100799	147.6	12.0	-81.5	0.0
2025-01-16 06:22:52.348307	147.9	11.8	-81.7	0.0
2025-01-16 06:22:54.596063	148.1	11.6	-81.6	0.0
2025-01-16 06:22:56.846864	148.4	11.4	-81.7	0.0
2025-01-16 06:22:59.091634	148.6	11.3	-81.6	0.0
2025-01-16 06:23:01.337805	148.9	11.1	-81.5	0.0
2025-01-16 06:23:03.583433	149.1	10.9	-81.6	0.0
2025-01-16 06:23:05.828224	149.4	10.8	-81.5	0.0
2025-01-16 06:23:08.075113	149.6	10.6	-81.7	0.0
2025-01-16 06:23:10.318964	149.9	10.5	-81.8	0.0
2025-01-16 06:23:12.561619	150.1	10.3	-81.8	0.0
2025-01-16 06:23:14.805608	150.3	10.1	-81.7	0.0
#Closed at: 2025-01-16 06:14:01.806491