passes_logs/2025/01/16/planumMaritime01/planumMaritime01__20250116_105750_NOAA_18_rec.log

#Pass ID: 20250116_105750_NOAA 18
#Satellite: NOAA 18
#Configuration: NOAA 18
#Start time: 2025-01-16 10:57:55.945392

#LorettStation: 1.0.0 05.05.2024
#Station: planumMaritime01
#Location: 37.49445 lon 55.92918 lat
#TLE: 1 28654U 05018A   25015.16278545  .00000300  00000+0  18295-3 0  9990
#TLE: 2 28654  98.8567  96.2156 0014367 178.7074 181.4138 14.13486503 13201

#Time	Az	El	Level	SNR
2025-01-16 10:57:58.104578	357.2	10.1	-80.3	0.0
2025-01-16 10:57:59.227861	357.1	10.2	-80.2	0.0
2025-01-16 10:58:00.351603	356.9	10.3	-80.5	0.0
2025-01-16 10:58:01.474929	356.8	10.3	-80.4	0.0
2025-01-16 10:58:02.597444	356.7	10.4	-80.5	0.0
2025-01-16 10:58:03.720799	356.5	10.5	-80.2	0.0
2025-01-16 10:58:04.845355	356.4	10.5	-80.5	0.0
2025-01-16 10:58:05.968406	356.2	10.6	-80.4	0.0
2025-01-16 10:58:07.090563	356.1	10.7	-80.4	0.0
2025-01-16 10:58:08.213725	355.9	10.7	-80.3	0.0
2025-01-16 10:58:09.334944	355.8	10.8	-80.5	0.0
2025-01-16 10:58:10.459469	355.6	10.9	-80.5	0.0
2025-01-16 10:58:11.582385	355.5	11.0	-80.5	0.0
2025-01-16 10:58:12.704245	355.3	11.0	-80.6	0.0
2025-01-16 10:58:13.826809	355.2	11.1	-80.4	0.0
2025-01-16 10:58:14.948264	355.0	11.2	-80.4	0.0
2025-01-16 10:58:16.072978	354.9	11.2	-80.3	0.0
2025-01-16 10:58:17.198692	354.7	11.3	-80.8	0.0
2025-01-16 10:58:18.322639	354.6	11.4	-80.9	0.0
2025-01-16 10:58:19.446697	354.4	11.4	-80.5	0.0
2025-01-16 10:58:20.569820	354.3	11.5	-80.7	0.0
2025-01-16 10:58:21.696326	354.1	11.6	-80.3	0.0
2025-01-16 10:58:22.818753	354.0	11.6	-80.4	0.0
2025-01-16 10:58:23.940880	353.8	11.7	-80.2	0.0
2025-01-16 10:58:25.063821	353.7	11.8	-80.5	0.0
2025-01-16 10:58:26.186408	353.5	11.8	-80.6	0.0
2025-01-16 10:58:27.311835	353.3	11.9	-80.4	0.0
2025-01-16 10:58:28.435879	353.2	12.0	-80.4	0.0
2025-01-16 10:58:29.557817	353.0	12.1	-80.2	0.0
2025-01-16 10:58:30.679831	352.9	12.1	-80.5	0.0
2025-01-16 10:58:31.804051	352.7	12.2	-80.1	0.0
2025-01-16 10:58:32.927347	352.5	12.3	-80.3	0.0
2025-01-16 10:58:34.049498	352.4	12.3	-80.2	0.0
2025-01-16 10:58:35.171791	352.2	12.4	-80.5	0.0
2025-01-16 10:58:36.294629	352.1	12.5	-80.2	0.0
2025-01-16 10:58:37.416811	351.9	12.5	-80.5	0.0
2025-01-16 10:58:38.538112	351.7	12.6	-80.7	0.0
2025-01-16 10:58:39.661649	351.6	12.7	-80.5	0.0
2025-01-16 10:58:40.784539	351.4	12.7	-80.2	0.0
2025-01-16 10:58:41.906371	351.2	12.8	-80.6	0.0
2025-01-16 10:58:43.030681	351.1	12.9	-80.5	0.0
2025-01-16 10:58:44.155217	350.9	12.9	-80.6	0.0
2025-01-16 10:58:45.277491	350.7	13.0	-80.5	0.0
2025-01-16 10:58:46.402532	350.5	13.1	-80.4	0.0
2025-01-16 10:58:47.523864	350.4	13.1	-80.6	0.0
2025-01-16 10:58:48.647526	350.2	13.2	-80.6	0.0
2025-01-16 10:58:49.771315	350.0	13.3	-80.9	0.0
2025-01-16 10:58:50.893725	349.9	13.3	-80.5	0.0
2025-01-16 10:58:52.016474	349.7	13.4	-80.7	0.0
2025-01-16 10:58:53.141029	349.5	13.5	-80.6	0.0
2025-01-16 10:58:54.265721	349.3	13.5	-80.8	0.0
2025-01-16 10:58:55.388524	349.1	13.6	-80.8	0.0
2025-01-16 10:58:56.510926	349.0	13.7	-80.5	0.0
2025-01-16 10:58:57.634015	348.8	13.7	-80.8	0.0
2025-01-16 10:58:58.757283	348.6	13.8	-80.8	0.0
2025-01-16 10:58:59.880502	348.4	13.9	-80.7	0.0
2025-01-16 10:59:01.003327	348.2	13.9	-80.2	0.0
2025-01-16 10:59:02.127454	348.1	14.0	-80.6	0.0
2025-01-16 10:59:03.251718	347.9	14.1	-80.4	0.0
2025-01-16 10:59:04.375678	347.7	14.1	-80.4	0.0
2025-01-16 10:59:05.499062	347.5	14.2	-80.3	0.0
2025-01-16 10:59:06.623568	347.3	14.3	-80.1	0.0
2025-01-16 10:59:07.747669	347.1	14.3	-80.5	0.0
2025-01-16 10:59:08.870483	346.9	14.4	-80.7	0.0
2025-01-16 10:59:09.994678	346.8	14.5	-80.6	0.0
2025-01-16 10:59:11.118330	346.6	14.5	-80.8	0.0
2025-01-16 10:59:12.241530	346.4	14.6	-80.4	0.0
2025-01-16 10:59:13.365094	346.2	14.7	-80.5	0.0
2025-01-16 10:59:14.488470	346.0	14.7	-79.9	0.0
2025-01-16 10:59:15.609988	345.8	14.8	-80.8	0.0
2025-01-16 10:59:16.730742	345.6	14.9	-80.5	0.0
2025-01-16 10:59:17.854384	345.4	14.9	-80.8	0.0
2025-01-16 10:59:18.978418	345.2	15.0	-80.6	0.0
2025-01-16 10:59:20.101506	345.0	15.1	-81.0	0.0
2025-01-16 10:59:21.222019	344.8	15.1	-80.5	0.0
2025-01-16 10:59:22.343497	344.6	15.2	-80.8	0.0
2025-01-16 10:59:23.466567	344.4	15.2	-80.4	0.0
2025-01-16 10:59:24.590095	344.2	15.3	-80.5	0.0
2025-01-16 10:59:25.712178	344.0	15.4	-80.8	0.0
2025-01-16 10:59:26.835382	343.8	15.4	-80.9	0.0
2025-01-16 10:59:27.957511	343.6	15.5	-81.0	0.0
2025-01-16 10:59:29.083203	343.4	15.6	-80.8	0.0
2025-01-16 10:59:30.206359	343.2	15.6	-80.7	0.0
2025-01-16 10:59:31.330269	343.0	15.7	-80.8	0.0
2025-01-16 10:59:32.454362	342.8	15.7	-80.9	0.0
2025-01-16 10:59:33.577581	342.6	15.8	-80.9	0.0
2025-01-16 10:59:34.700581	342.4	15.9	-81.0	0.0
2025-01-16 10:59:35.824949	342.2	15.9	-80.7	0.0
2025-01-16 10:59:36.948375	342.0	16.0	-81.0	0.0
2025-01-16 10:59:38.070867	341.8	16.1	-80.6	0.0
2025-01-16 10:59:39.195798	341.6	16.1	-80.9	0.0
2025-01-16 10:59:40.318642	341.3	16.2	-80.6	0.0
2025-01-16 10:59:41.443607	341.1	16.2	-80.9	0.0
2025-01-16 10:59:42.568659	340.9	16.3	-80.7	0.0
2025-01-16 10:59:43.690456	340.7	16.4	-81.0	0.0
2025-01-16 10:59:44.814584	340.5	16.4	-80.8	0.0
2025-01-16 10:59:45.937268	340.3	16.5	-80.9	0.0
2025-01-16 10:59:47.060606	340.1	16.5	-80.9	0.0
2025-01-16 10:59:48.184118	339.8	16.6	-80.6	0.0
2025-01-16 10:59:49.307305	339.6	16.6	-80.6	0.0
2025-01-16 10:59:50.432085	339.4	16.7	-80.5	0.0
2025-01-16 10:59:51.554151	339.2	16.8	-80.4	0.0
2025-01-16 10:59:52.676357	339.0	16.8	-80.7	0.0
2025-01-16 10:59:53.800180	338.7	16.9	-80.3	0.0
2025-01-16 10:59:54.924991	338.5	16.9	-80.3	0.0
2025-01-16 10:59:56.051426	338.3	17.0	-80.5	0.0
2025-01-16 10:59:57.175572	338.1	17.0	-81.0	0.0
2025-01-16 10:59:58.299553	337.8	17.1	-80.6	0.0
2025-01-16 10:59:59.422543	337.6	17.2	-80.8	0.0
2025-01-16 11:00:00.546161	337.4	17.2	-80.8	0.0
2025-01-16 11:00:01.667308	337.2	17.3	-80.9	0.0
2025-01-16 11:00:02.789091	336.9	17.3	-81.0	0.0
2025-01-16 11:00:03.909965	336.7	17.4	-80.8	0.0
2025-01-16 11:00:05.034607	336.5	17.4	-80.7	0.0
2025-01-16 11:00:06.159298	336.2	17.5	-80.6	0.0
2025-01-16 11:00:07.283349	336.0	17.5	-81.0	0.0
2025-01-16 11:00:08.406440	335.8	17.6	-80.8	0.0
2025-01-16 11:00:09.529187	335.5	17.6	-80.9	0.0
2025-01-16 11:00:10.654320	335.3	17.7	-80.6	0.0
2025-01-16 11:00:11.779012	335.1	17.7	-81.0	0.0
2025-01-16 11:00:12.903420	334.8	17.8	-80.9	0.0
2025-01-16 11:00:14.027427	334.6	17.8	-80.9	0.0
2025-01-16 11:00:15.148514	334.4	17.9	-80.5	0.0
2025-01-16 11:00:16.269720	334.1	17.9	-81.0	0.0
2025-01-16 11:00:17.392507	333.9	18.0	-81.0	0.0
2025-01-16 11:00:18.513915	333.6	18.0	-80.5	0.0
2025-01-16 11:00:19.640239	333.4	18.1	-80.6	0.0
2025-01-16 11:00:20.762304	333.2	18.1	-80.8	0.0
2025-01-16 11:00:21.884952	332.9	18.2	-80.4	0.0
2025-01-16 11:00:23.010680	332.7	18.2	-81.0	0.0
2025-01-16 11:00:24.133216	332.4	18.3	-80.7	0.0
2025-01-16 11:00:25.257694	332.2	18.3	-80.9	0.0
2025-01-16 11:00:26.379691	331.9	18.4	-80.5	0.0
2025-01-16 11:00:27.504207	331.7	18.4	-80.7	0.0
2025-01-16 11:00:28.625837	331.4	18.5	-80.6	0.0
2025-01-16 11:00:29.747433	331.2	18.5	-80.6	0.0
2025-01-16 11:00:30.872589	330.9	18.5	-80.7	0.0
2025-01-16 11:00:31.995685	330.7	18.6	-80.9	0.0
2025-01-16 11:00:33.119443	330.4	18.6	-81.0	0.0
2025-01-16 11:00:34.243204	330.2	18.7	-80.7	0.0
2025-01-16 11:00:35.365459	329.9	18.7	-80.9	0.0
2025-01-16 11:00:36.490331	329.7	18.8	-81.0	0.0
2025-01-16 11:00:37.612579	329.4	18.8	-81.1	0.0
2025-01-16 11:00:38.734544	329.2	18.8	-80.7	0.0
2025-01-16 11:00:39.858151	328.9	18.9	-81.0	0.0
2025-01-16 11:00:40.981793	328.7	18.9	-80.9	0.0
2025-01-16 11:00:42.104357	328.4	19.0	-81.0	0.0
2025-01-16 11:00:43.227367	328.2	19.0	-80.8	0.0
2025-01-16 11:00:44.349745	327.9	19.0	-81.2	0.0
2025-01-16 11:00:45.474651	327.6	19.1	-81.0	0.0
2025-01-16 11:00:46.597971	327.4	19.1	-81.0	0.0
2025-01-16 11:00:47.721977	327.1	19.1	-80.8	0.0
2025-01-16 11:00:48.847086	326.9	19.2	-81.2	0.0
2025-01-16 11:00:49.969729	326.6	19.2	-81.1	0.0
2025-01-16 11:00:51.092291	326.3	19.2	-80.9	0.0
2025-01-16 11:00:52.215881	326.1	19.3	-80.8	0.0
2025-01-16 11:00:53.339835	325.8	19.3	-80.8	0.0
2025-01-16 11:00:54.462028	325.6	19.3	-80.7	0.0
2025-01-16 11:00:55.586700	325.3	19.4	-80.8	0.0
2025-01-16 11:00:56.707838	325.0	19.4	-80.7	0.0
2025-01-16 11:00:57.831414	324.8	19.4	-80.6	0.0
2025-01-16 11:00:58.954027	324.5	19.5	-80.9	0.0
2025-01-16 11:01:00.076661	324.2	19.5	-80.7	0.0
2025-01-16 11:01:01.201453	324.0	19.5	-80.6	0.0
2025-01-16 11:01:02.324285	323.7	19.6	-80.7	0.0
2025-01-16 11:01:03.446092	323.4	19.6	-80.8	0.0
2025-01-16 11:01:04.570700	323.2	19.6	-80.5	0.0
2025-01-16 11:01:05.692483	322.9	19.6	-80.6	0.0
2025-01-16 11:01:06.814769	322.6	19.7	-80.5	0.0
2025-01-16 11:01:07.936195	322.4	19.7	-80.9	0.0
2025-01-16 11:01:09.060805	322.1	19.7	-80.7	0.0
2025-01-16 11:01:10.183226	321.8	19.7	-80.7	0.0
2025-01-16 11:01:11.308335	321.6	19.8	-81.0	0.0
2025-01-16 11:01:12.431421	321.3	19.8	-81.0	0.0
2025-01-16 11:01:13.552934	321.0	19.8	-81.1	0.0
2025-01-16 11:01:14.675287	320.8	19.8	-81.1	0.0
2025-01-16 11:01:15.800789	320.5	19.8	-80.9	0.0
2025-01-16 11:01:16.926302	320.2	19.9	-81.3	0.0
2025-01-16 11:01:18.047542	319.9	19.9	-81.2	0.0
2025-01-16 11:01:19.170448	319.7	19.9	-80.7	0.0
2025-01-16 11:01:20.293483	319.4	19.9	-80.8	0.0
2025-01-16 11:01:21.416120	319.1	19.9	-80.9	0.0
2025-01-16 11:01:22.539762	318.8	20.0	-80.7	0.0
2025-01-16 11:01:23.662327	318.6	20.0	-80.7	0.0
2025-01-16 11:01:24.785605	318.3	20.0	-80.6	0.0
2025-01-16 11:01:25.907929	318.0	20.0	-80.9	0.0
2025-01-16 11:01:27.032873	317.7	20.0	-80.9	0.0
2025-01-16 11:01:28.158297	317.5	20.0	-80.4	0.0
2025-01-16 11:01:29.279310	317.2	20.0	-80.7	0.0
2025-01-16 11:01:30.402333	316.9	20.1	-80.7	0.0
2025-01-16 11:01:31.525376	316.6	20.1	-80.4	0.0
2025-01-16 11:01:32.650238	316.4	20.1	-80.7	0.0
2025-01-16 11:01:33.775524	316.1	20.1	-80.3	0.0
2025-01-16 11:01:34.898999	315.8	20.1	-80.6	0.0
2025-01-16 11:01:36.023641	315.5	20.1	-80.5	0.0
2025-01-16 11:01:37.149443	315.3	20.1	-80.5	0.0
2025-01-16 11:01:38.271766	315.0	20.1	-80.3	0.0
2025-01-16 11:01:39.393471	314.7	20.1	-80.8	0.0
2025-01-16 11:01:40.516842	314.4	20.1	-80.8	0.0
2025-01-16 11:01:41.643252	314.2	20.1	-80.8	0.0
2025-01-16 11:01:42.767608	313.9	20.1	-80.7	0.0
2025-01-16 11:01:43.889480	313.6	20.1	-80.5	0.0
2025-01-16 11:01:45.011439	313.3	20.1	-80.5	0.0
2025-01-16 11:01:46.134548	313.0	20.1	-80.7	0.0
2025-01-16 11:01:47.258245	312.8	20.2	-80.8	0.0
2025-01-16 11:01:48.379363	312.5	20.2	-80.9	0.0
2025-01-16 11:01:49.503940	312.2	20.2	-81.0	0.0
2025-01-16 11:01:50.626452	311.9	20.2	-81.2	0.0
2025-01-16 11:01:51.747577	311.7	20.1	-81.2	0.0
2025-01-16 11:01:52.870138	311.4	20.1	-81.1	0.0
2025-01-16 11:01:53.994833	311.1	20.1	-81.2	0.0
2025-01-16 11:01:55.117876	310.8	20.1	-81.2	0.0
2025-01-16 11:01:56.241067	310.5	20.1	-80.9	0.0
2025-01-16 11:01:57.366727	310.3	20.1	-80.9	0.0
2025-01-16 11:01:58.488441	310.0	20.1	-80.9	0.0
2025-01-16 11:01:59.612606	309.7	20.1	-80.9	0.0
2025-01-16 11:02:00.736071	309.4	20.1	-80.9	0.0
2025-01-16 11:02:01.858503	309.2	20.1	-81.0	0.0
2025-01-16 11:02:02.982790	308.9	20.1	-80.8	0.0
2025-01-16 11:02:04.103413	308.6	20.1	-80.8	0.0
2025-01-16 11:02:05.224961	308.3	20.1	-80.7	0.0
2025-01-16 11:02:06.347621	308.1	20.1	-80.7	0.0
2025-01-16 11:02:07.471592	307.8	20.1	-80.7	0.0
2025-01-16 11:02:08.595249	307.5	20.0	-80.8	0.0
2025-01-16 11:02:09.719300	307.2	20.0	-80.6	0.0
2025-01-16 11:02:10.843067	307.0	20.0	-80.8	0.0
2025-01-16 11:02:11.968136	306.7	20.0	-81.1	0.0
2025-01-16 11:02:13.093160	306.4	20.0	-81.1	0.0
2025-01-16 11:02:14.214385	306.1	20.0	-80.8	0.0
2025-01-16 11:02:15.336549	305.9	20.0	-81.0	0.0
2025-01-16 11:02:16.461474	305.6	19.9	-81.1	0.0
2025-01-16 11:02:17.584229	305.3	19.9	-81.1	0.0
2025-01-16 11:02:18.707344	305.0	19.9	-81.1	0.0
2025-01-16 11:02:19.830526	304.8	19.9	-81.0	0.0
2025-01-16 11:02:20.953663	304.5	19.9	-81.3	0.0
2025-01-16 11:02:22.075764	304.2	19.8	-80.9	0.0
2025-01-16 11:02:23.199887	303.9	19.8	-81.4	0.0
2025-01-16 11:02:24.324861	303.7	19.8	-80.6	0.0
2025-01-16 11:02:25.447305	303.4	19.8	-81.2	0.0
2025-01-16 11:02:26.569569	303.1	19.8	-81.2	0.0
2025-01-16 11:02:27.691728	302.9	19.7	-81.0	0.0
2025-01-16 11:02:28.814659	302.6	19.7	-81.2	0.0
2025-01-16 11:02:29.939020	302.3	19.7	-81.4	0.0
2025-01-16 11:02:31.062185	302.0	19.7	-81.0	0.0
2025-01-16 11:02:32.186445	301.8	19.6	-80.8	0.0
2025-01-16 11:02:33.309544	301.5	19.6	-80.9	0.0
2025-01-16 11:02:34.432755	301.2	19.6	-81.2	0.0
2025-01-16 11:02:35.556324	301.0	19.6	-81.0	0.0
2025-01-16 11:02:36.680242	300.7	19.5	-81.2	0.0
2025-01-16 11:02:37.803934	300.4	19.5	-80.9	0.0
2025-01-16 11:02:38.929123	300.2	19.5	-80.9	0.0
2025-01-16 11:02:40.049555	299.9	19.4	-80.6	0.0
2025-01-16 11:02:41.172461	299.6	19.4	-81.1	0.0
2025-01-16 11:02:42.294472	299.4	19.4	-81.2	0.0
2025-01-16 11:02:43.416816	299.1	19.3	-81.4	0.0
2025-01-16 11:02:44.540626	298.9	19.3	-81.1	0.0
2025-01-16 11:02:45.663651	298.6	19.3	-81.3	0.0
2025-01-16 11:02:46.785435	298.3	19.2	-81.1	0.0
2025-01-16 11:02:47.907115	298.1	19.2	-80.8	0.0
2025-01-16 11:02:49.028361	297.8	19.2	-81.1	0.0
2025-01-16 11:02:50.149831	297.5	19.1	-80.8	0.0
2025-01-16 11:02:51.274535	297.3	19.1	-80.9	0.0
2025-01-16 11:02:52.399187	297.0	19.1	-80.5	0.0
2025-01-16 11:02:53.522658	296.8	19.0	-81.0	0.0
2025-01-16 11:02:54.646372	296.5	19.0	-80.7	0.0
2025-01-16 11:02:55.769434	296.3	18.9	-80.7	0.0
2025-01-16 11:02:56.891541	296.0	18.9	-80.8	0.0
2025-01-16 11:02:58.016431	295.7	18.9	-80.4	0.0
2025-01-16 11:02:59.138071	295.5	18.8	-80.7	0.0
2025-01-16 11:03:00.261332	295.2	18.8	-81.0	0.0
2025-01-16 11:03:01.384192	295.0	18.7	-81.1	0.0
2025-01-16 11:03:02.508110	294.7	18.7	-81.4	0.0
2025-01-16 11:03:03.631740	294.5	18.7	-81.2	0.0
2025-01-16 11:03:04.755435	294.2	18.6	-81.4	0.0
2025-01-16 11:03:05.876926	294.0	18.6	-81.2	0.0
2025-01-16 11:03:06.999670	293.7	18.5	-81.1	0.0
2025-01-16 11:03:08.120564	293.5	18.5	-81.1	0.0
2025-01-16 11:03:09.243723	293.2	18.4	-81.0	0.0
2025-01-16 11:03:10.368103	293.0	18.4	-81.1	0.0
2025-01-16 11:03:11.491311	292.7	18.4	-80.9	0.0
2025-01-16 11:03:12.610682	292.5	18.3	-81.1	0.0
2025-01-16 11:03:13.732926	292.2	18.3	-81.4	0.0
2025-01-16 11:03:14.853955	292.0	18.2	-81.2	0.0
2025-01-16 11:03:15.977107	291.7	18.2	-80.8	0.0
2025-01-16 11:03:17.101788	291.5	18.1	-81.0	0.0
2025-01-16 11:03:18.224963	291.3	18.1	-80.9	0.0
2025-01-16 11:03:19.345925	291.0	18.0	-81.1	0.0
2025-01-16 11:03:20.472243	290.8	18.0	-81.1	0.0
2025-01-16 11:03:21.593659	290.5	17.9	-81.2	0.0
2025-01-16 11:03:22.716766	290.3	17.9	-81.1	0.0
2025-01-16 11:03:23.839912	290.0	17.8	-81.6	0.0
2025-01-16 11:03:24.962031	289.8	17.8	-81.4	0.0
2025-01-16 11:03:26.084617	289.6	17.7	-81.4	0.0
2025-01-16 11:03:27.207148	289.3	17.7	-81.5	0.0
2025-01-16 11:03:28.328753	289.1	17.6	-81.0	0.0
2025-01-16 11:03:29.453862	288.9	17.6	-81.3	0.0
2025-01-16 11:03:30.577433	288.6	17.5	-81.8	0.0
2025-01-16 11:03:31.701752	288.4	17.5	-81.3	0.0
2025-01-16 11:03:32.826603	288.2	17.4	-81.5	0.0
2025-01-16 11:03:33.949899	287.9	17.3	-81.4	0.0
2025-01-16 11:03:35.073233	287.7	17.3	-81.2	0.0
2025-01-16 11:03:36.200957	287.5	17.2	-81.8	0.0
2025-01-16 11:03:37.325193	287.2	17.2	-81.2	0.0
2025-01-16 11:03:38.448281	287.0	17.1	-81.6	0.0
2025-01-16 11:03:39.572137	286.8	17.1	-81.6	0.0
2025-01-16 11:03:40.696657	286.6	17.0	-81.5	0.0
2025-01-16 11:03:41.820619	286.3	17.0	-81.4	0.0
2025-01-16 11:03:42.943859	286.1	16.9	-81.5	0.0
2025-01-16 11:03:44.065737	285.9	16.8	-81.1	0.0
2025-01-16 11:03:45.189519	285.7	16.8	-81.4	0.0
2025-01-16 11:03:46.314482	285.4	16.7	-81.5	0.0
2025-01-16 11:03:47.436726	285.2	16.7	-81.1	0.0
2025-01-16 11:03:48.560394	285.0	16.6	-81.1	0.0
2025-01-16 11:03:49.684073	284.8	16.6	-81.0	0.0
2025-01-16 11:03:50.806521	284.5	16.5	-81.2	0.0
2025-01-16 11:03:51.930998	284.3	16.4	-81.1	0.0
2025-01-16 11:03:53.054290	284.1	16.4	-81.5	0.0
2025-01-16 11:03:54.175256	283.9	16.3	-81.1	0.0
2025-01-16 11:03:55.299728	283.7	16.3	-81.6	0.0
2025-01-16 11:03:56.422086	283.5	16.2	-81.1	0.0
2025-01-16 11:03:57.543374	283.3	16.1	-81.0	0.0
2025-01-16 11:03:58.665792	283.0	16.1	-81.3	0.0
2025-01-16 11:03:59.789470	282.8	16.0	-81.4	0.0
2025-01-16 11:04:00.911574	282.6	16.0	-81.4	0.0
2025-01-16 11:04:02.036341	282.4	15.9	-81.2	0.0
2025-01-16 11:04:03.156677	282.2	15.8	-81.4	0.0
2025-01-16 11:04:04.278832	282.0	15.8	-81.3	0.0
2025-01-16 11:04:05.401103	281.8	15.7	-81.4	0.0
2025-01-16 11:04:06.522663	281.6	15.6	-81.5	0.0
2025-01-16 11:04:07.645496	281.4	15.6	-81.2	0.0
2025-01-16 11:04:08.769074	281.2	15.5	-81.1	0.0
2025-01-16 11:04:09.888867	281.0	15.5	-81.6	0.0
2025-01-16 11:04:11.011376	280.8	15.4	-81.5	0.0
2025-01-16 11:04:12.133476	280.5	15.3	-81.6	0.0
2025-01-16 11:04:13.256124	280.3	15.3	-81.4	0.0
2025-01-16 11:04:14.379149	280.1	15.2	-81.5	0.0
2025-01-16 11:04:15.501800	279.9	15.1	-81.5	0.0
2025-01-16 11:04:16.624314	279.7	15.1	-81.6	0.0
2025-01-16 11:04:17.746534	279.5	15.0	-81.6	0.0
2025-01-16 11:04:18.871017	279.3	14.9	-81.6	0.0
2025-01-16 11:04:19.994582	279.2	14.9	-81.3	0.0
2025-01-16 11:04:21.114651	279.0	14.8	-81.3	0.0
2025-01-16 11:04:22.236614	278.8	14.8	-81.1	0.0
2025-01-16 11:04:23.358539	278.6	14.7	-81.5	0.0
2025-01-16 11:04:24.482370	278.4	14.6	-81.0	0.0
2025-01-16 11:04:25.604628	278.2	14.6	-81.1	0.0
2025-01-16 11:04:26.728254	278.0	14.5	-81.1	0.0
2025-01-16 11:04:27.852283	277.8	14.4	-81.1	0.0
2025-01-16 11:04:28.975639	277.6	14.4	-81.1	0.0
2025-01-16 11:04:30.098602	277.4	14.3	-81.3	0.0
2025-01-16 11:04:31.219159	277.2	14.2	-81.5	0.0
2025-01-16 11:04:32.343261	277.0	14.2	-81.1	0.0
2025-01-16 11:04:33.466740	276.9	14.1	-81.0	0.0
2025-01-16 11:04:34.589928	276.7	14.0	-81.3	0.0
2025-01-16 11:04:35.716514	276.5	14.0	-81.0	0.0
2025-01-16 11:04:36.842304	276.3	13.9	-81.4	0.0
2025-01-16 11:04:37.966740	276.1	13.8	-80.8	0.0
2025-01-16 11:04:39.087780	275.9	13.8	-80.9	0.0
2025-01-16 11:04:40.210088	275.8	13.7	-81.2	0.0
2025-01-16 11:04:41.331815	275.6	13.6	-80.8	0.0
2025-01-16 11:04:42.456389	275.4	13.6	-81.1	0.0
2025-01-16 11:04:43.578573	275.2	13.5	-81.7	0.0
2025-01-16 11:04:44.700016	275.0	13.4	-81.4	0.0
2025-01-16 11:04:45.823633	274.9	13.4	-81.5	0.0
2025-01-16 11:04:46.946318	274.7	13.3	-81.2	0.0
2025-01-16 11:04:48.071348	274.5	13.2	-81.3	0.0
2025-01-16 11:04:49.193445	274.3	13.1	-81.4	0.0
2025-01-16 11:04:50.316629	274.2	13.1	-81.4	0.0
2025-01-16 11:04:51.443097	274.0	13.0	-81.3	0.0
2025-01-16 11:04:52.564532	273.8	12.9	-81.3	0.0
2025-01-16 11:04:53.686599	273.6	12.9	-81.4	0.0
2025-01-16 11:04:54.810354	273.5	12.8	-81.4	0.0
2025-01-16 11:04:55.935258	273.3	12.7	-81.3	0.0
2025-01-16 11:04:57.059255	273.1	12.7	-81.5	0.0
2025-01-16 11:04:58.181484	273.0	12.6	-81.1	0.0
2025-01-16 11:04:59.303192	272.8	12.5	-81.4	0.0
2025-01-16 11:05:00.426639	272.6	12.5	-81.3	0.0
2025-01-16 11:05:01.547855	272.5	12.4	-80.9	0.0
2025-01-16 11:05:02.672111	272.3	12.3	-81.1	0.0
2025-01-16 11:05:03.795472	272.1	12.3	-81.0	0.0
2025-01-16 11:05:04.918629	272.0	12.2	-81.0	0.0
2025-01-16 11:05:06.041386	271.8	12.1	-80.8	0.0
2025-01-16 11:05:07.166595	271.6	12.1	-80.9	0.0
2025-01-16 11:05:08.288671	271.5	12.0	-81.0	0.0
2025-01-16 11:05:09.411012	271.3	11.9	-80.7	0.0
2025-01-16 11:05:10.535185	271.1	11.8	-81.0	0.0
2025-01-16 11:05:11.657345	271.0	11.8	-81.3	0.0
2025-01-16 11:05:12.780247	270.8	11.7	-81.3	0.0
2025-01-16 11:05:13.904650	270.7	11.6	-81.4	0.0
2025-01-16 11:05:15.028833	270.5	11.6	-81.1	0.0
2025-01-16 11:05:16.153517	270.4	11.5	-81.2	0.0
2025-01-16 11:05:17.278617	270.2	11.4	-81.3	0.0
2025-01-16 11:05:18.400876	270.0	11.4	-81.1	0.0
2025-01-16 11:05:19.524155	269.9	11.3	-81.3	0.0
2025-01-16 11:05:20.650610	269.7	11.2	-81.0	0.0
2025-01-16 11:05:21.776902	269.6	11.2	-81.3	0.0
2025-01-16 11:05:22.899253	269.4	11.1	-81.1	0.0
2025-01-16 11:05:24.021031	269.3	11.0	-81.6	0.0
2025-01-16 11:05:25.144693	269.1	10.9	-81.1	0.0
2025-01-16 11:05:26.266894	269.0	10.9	-81.2	0.0
2025-01-16 11:05:27.393633	268.8	10.8	-81.1	0.0
2025-01-16 11:05:28.518622	268.7	10.7	-81.1	0.0
2025-01-16 11:05:29.642543	268.5	10.7	-81.3	0.0
2025-01-16 11:05:30.765823	268.4	10.6	-80.8	0.0
2025-01-16 11:05:31.889439	268.2	10.5	-80.9	0.0
2025-01-16 11:05:33.012985	268.1	10.5	-80.8	0.0
2025-01-16 11:05:34.138262	267.9	10.4	-81.3	0.0
2025-01-16 11:05:35.261572	267.8	10.3	-81.1	0.0
2025-01-16 11:05:36.387171	267.7	10.3	-80.9	0.0
2025-01-16 11:05:37.509348	267.5	10.2	-81.2	0.0
2025-01-16 11:05:38.631098	267.4	10.1	-80.8	0.0
2025-01-16 11:05:39.754701	267.2	10.0	-81.0	0.0
#Closed at: 2025-01-16 10:57:50.948318