passes_logs/2026/01/17/R2M6_AANII_01/R2M6_AANII_01__20260117_003732_SUOMI_NPP_rec.log

#Pass ID: 20260117_003732_SUOMI NPP
#Satellite: SUOMI NPP
#Configuration: NPP
#almurnet v.1.7.20240730
#Start time: 2026-01-17 00:37:32

#Version: 2.2.20231116
#Station: R2M6_AANII_01
#Location: 30.233357 lon 59.946436 lat
#TLE: 1 37849U 11061A   26016.23176763  .00000061  00000+0  49926-4 0  9990
#TLE: 2 37849  98.7812 318.2698 0002434  61.5135 298.6286 14.19525545736883

#Time	Az	El	Level	Level2	SNR	BER	BlckErr	Temp	State	Recorded	gain1	gain2
2026-01-17 00:37:32.43	17.13	7.01	-31.9	-38.7	4.4	1.41e+00	0	41	0	0	23	7872
2026-01-17 00:37:35.43	17.11	7.24	-32.2	-39.5	5.1	5.98e-01	0	42	0	1048576	24	8415
2026-01-17 00:37:38.45	17.09	7.47	-32.0	-38.2	5.8	5.35e-01	0	42	0	7340032	24	7356
2026-01-17 00:37:41.44	17.07	7.71	-32.1	-38.4	5.7	3.07e-01	0	42	0	12582912	24	7459
2026-01-17 00:37:44.45	17.04	7.94	-32.0	-38.0	6.0	3.83e-01	0	42	0	17825792	24	7193
2026-01-17 00:37:47.45	17.02	8.18	-32.0	-37.8	6.2	2.47e-01	0	42	0	24117248	24	7003
2026-01-17 00:37:50.46	16.99	8.43	-32.0	-37.5	6.4	2.96e-01	0	42	0	29360128	24	6822
2026-01-17 00:37:53.47	16.97	8.67	-32.0	-37.5	6.5	2.45e-01	0	42	0	35651584	24	6781
2026-01-17 00:37:56.48	16.94	8.92	-31.8	-37.0	7.2	1.54e-01	0	42	0	40894464	23	6560
2026-01-17 00:37:59.48	16.92	9.17	-31.4	-35.2	8.7	4.06e-02	0	42	0	46137344	23	5574
2026-01-17 00:38:02.48	16.89	9.42	-31.6	-36.1	8.0	5.47e-02	0	42	0	52428800	23	6038
2026-01-17 00:38:05.49	16.86	9.68	-30.7	-34.7	8.5	4.56e-02	0	42	0	57671680	23	5712
2026-01-17 00:38:08.50	16.83	9.94	-31.6	-35.7	8.2	3.71e-02	0	42	0	62914560	23	5809
2026-01-17 00:38:11.50	16.80	10.20	-31.2	-34.6	9.5	1.29e-02	0	42	0	69206016	22	5340
2026-01-17 00:38:14.51	16.77	10.46	-31.0	-34.2	9.9	8.35e-03	0	42	0	74448896	22	5157
2026-01-17 00:38:17.51	16.74	10.73	-31.0	-34.1	10.0	8.61e-03	0	43	0	80740352	22	5123
2026-01-17 00:38:20.51	16.71	10.99	-30.8	-33.9	10.5	4.38e-03	0	43	0	85983232	21	5151
2026-01-17 00:38:23.51	16.67	11.27	-31.1	-34.2	10.1	7.16e-03	0	43	0	91226112	22	5149
2026-01-17 00:38:26.52	16.64	11.54	-30.7	-33.4	10.9	1.85e-03	0	43	0	97517568	21	4926
2026-01-17 00:38:29.53	16.61	11.82	-30.5	-32.9	11.3	1.27e-03	0	43	0	102760448	21	4745
2026-01-17 00:38:32.54	16.57	12.10	-30.3	-32.7	11.9	7.80e-04	0	43	0	108003328	20	4730
2026-01-17 00:38:35.54	16.53	12.39	-30.3	-32.7	11.9	4.75e-04	0	43	0	114294784	20	4737
2026-01-17 00:38:38.54	16.50	12.67	-30.3	-32.7	11.9	8.68e-04	0	43	0	119537664	20	4719
2026-01-17 00:38:41.55	16.46	12.96	-30.1	-32.2	12.3	6.94e-04	0	43	0	125829120	20	4559
2026-01-17 00:38:44.55	16.42	13.26	-30.0	-31.8	12.5	6.20e-04	0	43	0	131072000	20	4432
2026-01-17 00:38:47.56	16.38	13.56	-30.0	-31.8	12.6	5.13e-04	0	43	0	136314880	20	4413
2026-01-17 00:38:50.57	16.34	13.86	-30.0	-31.7	12.7	5.14e-04	0	43	0	142606336	20	4384
2026-01-17 00:38:53.58	16.29	14.17	-29.9	-31.5	12.8	4.65e-05	0	43	0	147849216	20	4313
2026-01-17 00:38:56.58	16.25	14.48	-29.9	-31.9	13.0	4.36e-04	0	43	0	153092096	19	4521
2026-01-17 00:38:59.57	16.21	14.79	-29.9	-31.5	12.9	5.13e-04	0	43	0	159383552	20	4295
2026-01-17 00:39:02.58	16.16	15.11	-29.9	-31.4	13.0	4.41e-04	0	43	0	164626432	20	4288
2026-01-17 00:39:05.59	16.11	15.43	-29.9	-31.7	13.1	4.10e-04	0	43	0	170917888	19	4461
2026-01-17 00:39:08.58	16.06	15.75	-29.7	-31.2	13.5	4.12e-04	0	43	0	176160768	19	4292
2026-01-17 00:39:11.60	16.01	16.09	-29.7	-31.2	13.5	3.90e-04	0	43	0	181403648	19	4293
2026-01-17 00:39:14.61	15.96	16.42	-29.8	-31.5	13.4	1.52e-05	0	43	0	187695104	19	4384
2026-01-17 00:39:17.61	15.91	16.76	-29.7	-31.3	13.5	3.39e-04	0	43	0	192937984	19	4319
2026-01-17 00:39:20.63	15.85	17.11	-29.8	-31.4	13.4	3.62e-04	0	43	0	198180864	19	4350
2026-01-17 00:39:23.62	15.80	17.46	-29.6	-30.8	13.9	3.20e-04	0	43	0	204472320	19	4167
2026-01-17 00:39:26.63	15.74	17.81	-29.7	-31.2	13.7	3.63e-04	0	43	0	209715200	19	4264
2026-01-17 00:39:29.63	15.68	18.17	-29.6	-31.0	13.8	3.13e-04	0	43	0	214958080	19	4218
2026-01-17 00:39:32.63	15.62	18.53	-29.6	-31.0	13.7	9.90e-06	0	43	0	221249536	19	4228
2026-01-17 00:39:35.64	15.56	18.91	-29.5	-30.8	14.0	1.50e-06	0	43	0	226492416	19	4140
2026-01-17 00:39:38.65	15.49	19.28	-29.7	-31.1	13.7	6.10e-06	0	43	0	232783872	19	4254
2026-01-17 00:39:41.65	15.43	19.66	-29.7	-31.1	13.7	2.95e-04	0	43	0	238026752	19	4245
2026-01-17 00:39:44.65	15.36	20.05	-29.7	-30.8	13.5	3.19e-04	0	43	0	243269632	20	4080
2026-01-17 00:39:47.65	15.29	20.44	-29.9	-31.7	13.4	8.01e-05	0	43	0	249561088	19	4428
2026-01-17 00:39:50.67	15.21	20.85	-29.8	-31.4	13.6	7.60e-06	0	43	0	254803968	19	4338
2026-01-17 00:39:53.66	15.14	21.25	-29.8	-31.3	13.7	8.30e-06	0	43	0	261095424	19	4298
2026-01-17 00:39:56.67	15.06	21.66	-29.7	-31.2	13.8	6.80e-06	0	43	0	266338304	19	4256
2026-01-17 00:39:59.67	14.98	22.08	-29.7	-31.0	13.9	8.30e-06	0	43	0	271581184	19	4217
2026-01-17 00:40:02.65	14.90	22.51	-29.7	-31.2	13.7	8.30e-06	0	43	0	277872640	19	4280
2026-01-17 00:40:05.65	14.81	22.94	-29.6	-30.8	14.0	1.49e-04	0	43	0	283115520	19	4162
2026-01-17 00:40:08.65	14.73	23.38	-29.4	-30.5	14.3	7.00e-07	0	43	0	288358400	19	4050
2026-01-17 00:40:11.65	14.64	23.83	-29.3	-30.6	14.5	1.50e-06	0	44	0	294649856	18	4178
2026-01-17 00:40:14.65	14.54	24.29	-29.7	-31.0	14.0	7.00e-07	0	43	0	299892736	19	4192
2026-01-17 00:40:17.65	14.45	24.75	-29.8	-31.2	13.8	3.80e-06	0	43	0	305135616	19	4276
2026-01-17 00:40:20.65	14.35	25.22	-29.8	-31.2	13.8	2.20e-06	0	43	0	311427072	19	4270
2026-01-17 00:40:23.66	14.24	25.71	-29.5	-30.6	14.2	1.50e-06	0	43	0	316669952	19	4088
2026-01-17 00:40:26.66	14.14	26.19	-30.0	-31.8	13.5	2.20e-06	0	43	0	322961408	19	4455
2026-01-17 00:40:29.67	14.02	26.70	-29.7	-31.1	14.0	2.20e-06	0	43	0	328204288	19	4209
2026-01-17 00:40:32.68	13.91	27.20	-30.0	-31.5	13.3	2.51e-05	0	43	0	333447168	20	4260
2026-01-17 00:40:35.69	13.79	27.72	-30.2	-31.9	12.5	1.60e-05	0	43	0	339738624	20	4392
2026-01-17 00:40:38.69	13.67	28.25	-30.0	-31.3	13.4	1.44e-05	0	43	0	344981504	20	4194
2026-01-17 00:40:41.70	13.54	28.79	-29.8	-31.4	13.8	4.50e-06	0	44	0	350224384	19	4315
2026-01-17 00:40:44.71	13.41	29.34	-30.2	-32.0	13.0	2.21e-05	0	44	0	356515840	20	4427
2026-01-17 00:40:47.72	13.27	29.90	-30.8	-33.0	12.0	1.93e-03	0	43	0	361758720	21	4679
2026-01-17 00:40:50.73	13.13	30.47	-30.8	-33.1	11.9	1.92e-03	0	44	0	368050176	21	4716
2026-01-17 00:40:53.74	12.98	31.05	-30.9	-33.4	11.8	5.30e-04	0	43	0	373293056	21	4817
2026-01-17 00:40:56.74	12.82	31.65	-31.5	-34.7	10.5	2.55e-03	0	43	0	378535936	22	5234
2026-01-17 00:40:59.76	12.66	32.26	-32.2	-36.5	8.4	3.85e-02	0	44	0	384827392	24	5905
2026-01-17 00:41:02.78	12.49	32.88	-32.1	-36.0	8.8	3.80e-02	0	43	0	390070272	24	5623
2026-01-17 00:41:05.79	12.32	33.51	-31.8	-35.0	9.5	1.96e-02	0	44	0	396361728	24	5181
2026-01-17 00:41:08.78	12.14	34.15	-31.4	-34.1	10.4	6.28e-03	0	43	0	401604608	23	4882
2026-01-17 00:41:11.78	11.95	34.80	-30.7	-32.8	12.2	7.13e-04	0	44	0	406847488	21	4594
2026-01-17 00:41:14.79	11.75	35.47	-29.8	-30.8	13.9	3.60e-04	0	44	0	413138944	20	4056
2026-01-17 00:41:17.79	11.54	36.16	-29.5	-30.7	14.3	5.28e-04	0	44	0	418381824	19	4093
2026-01-17 00:41:20.79	11.33	36.86	-29.1	-30.0	15.0	0.00e+00	0	44	0	423624704	18	4015
2026-01-17 00:41:23.79	11.10	37.57	-28.4	-28.8	16.0	9.68e-05	0	44	0	429916160	17	3781
2026-01-17 00:41:26.79	10.86	38.29	-29.1	-30.1	15.0	4.34e-05	0	44	0	435159040	18	4021
2026-01-17 00:41:29.81	10.61	39.04	-30.0	-31.4	13.5	4.50e-06	0	44	0	440401920	20	4253
2026-01-17 00:41:32.82	10.35	39.80	-30.4	-32.7	12.7	3.58e-05	0	43	0	446693376	20	4666
2026-01-17 00:41:35.83	10.08	40.58	-31.0	-33.5	11.4	1.83e-03	0	44	0	451936256	22	4783
2026-01-17 00:41:38.84	9.79	41.37	-31.0	-33.5	11.4	1.91e-03	0	43	0	458227712	22	4773
2026-01-17 00:41:41.84	9.49	42.18	-30.5	-32.4	12.5	5.39e-04	0	44	0	463470592	21	4462
2026-01-17 00:41:44.85	9.17	43.01	-31.2	-33.9	11.1	1.47e-03	0	43	0	468713472	22	4935
2026-01-17 00:41:47.86	8.83	43.86	-31.6	-34.7	10.3	3.96e-03	0	44	0	475004928	23	5142
2026-01-17 00:41:50.87	8.47	44.72	-31.8	-35.6	9.6	8.33e-03	0	44	0	480247808	23	5537
2026-01-17 00:41:53.87	8.09	45.60	-31.3	-33.5	11.1	2.93e-03	0	44	0	485490688	23	4681
2026-01-17 00:41:56.87	7.69	46.49	-31.3	-34.2	11.0	1.84e-03	0	44	0	491782144	22	5023
2026-01-17 00:41:59.88	7.27	47.41	-30.4	-32.0	12.8	5.75e-04	0	44	0	497025024	21	4333
2026-01-17 00:42:02.89	6.82	48.34	-30.0	-31.2	13.7	2.92e-04	0	44	0	503316480	20	4165
2026-01-17 00:42:05.90	6.34	49.30	-29.7	-31.1	14.3	2.46e-04	0	44	0	508559360	19	4200
2026-01-17 00:42:08.90	5.82	50.27	-29.3	-30.5	14.9	4.92e-04	0	44	0	513802240	18	4128
2026-01-17 00:42:11.91	5.28	51.26	-29.1	-29.9	15.2	1.22e-03	0	44	0	520093696	18	3969
2026-01-17 00:42:14.90	4.69	52.26	-29.5	-30.9	14.6	1.71e-03	0	44	0	525336576	18	4254
2026-01-17 00:42:17.91	4.07	53.29	-29.4	-30.3	14.7	3.00e-06	0	44	0	530579456	19	3966
2026-01-17 00:42:20.93	3.39	54.34	-29.4	-30.2	14.8	0.00e+00	0	44	0	536870912	19	3960
2026-01-17 00:42:23.93	2.66	55.39	-29.3	-30.1	14.9	7.00e-07	0	44	0	542113792	19	3921
2026-01-17 00:42:26.93	1.88	56.47	-29.4	-30.2	14.6	0.00e+00	0	44	0	548405248	19	3948
2026-01-17 00:42:29.94	1.03	57.56	-30.0	-31.4	13.6	1.50e-06	0	43	0	553648128	20	4231
2026-01-17 00:42:32.94	0.10	58.67	-29.8	-31.3	14.1	1.50e-06	0	44	0	558891008	19	4282
2026-01-17 00:42:35.95	359.10	59.79	-28.8	-29.3	15.6	3.80e-06	0	44	0	565182464	18	3798
2026-01-17 00:42:38.96	358.00	60.92	-28.8	-29.9	15.5	0.00e+00	0	44	0	570425344	17	4057
2026-01-17 00:42:41.97	356.79	62.06	-28.9	-29.6	15.4	0.00e+00	0	44	0	575668224	18	3893
2026-01-17 00:42:44.98	355.47	63.21	-29.9	-31.3	13.7	8.30e-06	0	44	0	581959680	20	4197
2026-01-17 00:42:47.98	354.01	64.36	-29.3	-30.2	14.5	3.80e-06	0	44	0	587202560	19	3954
2026-01-17 00:42:50.97	352.41	65.51	-28.3	-28.6	16.3	0.00e+00	0	44	0	593494016	17	3710
2026-01-17 00:42:53.98	350.62	66.66	-29.7	-30.9	13.9	7.00e-07	0	44	0	598736896	19	4179
2026-01-17 00:42:56.99	348.62	67.81	-29.8	-31.4	14.0	1.21e-03	0	44	0	603979776	19	4318
2026-01-17 00:42:59.99	346.39	68.94	-29.9	-31.7	13.8	5.87e-05	0	44	0	610271232	19	4420
2026-01-17 00:43:03.00	343.88	70.05	-30.3	-32.2	13.1	2.61e-04	0	44	0	615514112	20	4488
2026-01-17 00:43:06.01	341.05	71.13	-30.1	-31.6	13.5	1.60e-05	0	43	0	620756992	20	4298
2026-01-17 00:43:09.02	337.86	72.18	-30.3	-32.4	12.9	9.90e-06	0	44	0	627048448	20	4560
2026-01-17 00:43:12.03	334.26	73.18	-31.1	-33.1	11.4	4.49e-03	0	44	0	632291328	23	4543
2026-01-17 00:43:15.03	330.21	74.11	-30.3	-32.3	13.1	3.04e-04	0	44	0	638582784	20	4510
2026-01-17 00:43:18.03	325.65	74.96	-31.4	-33.9	11.0	3.40e-03	0	44	0	643825664	23	4792
2026-01-17 00:43:21.05	320.53	75.72	-31.2	-33.6	11.6	8.28e-04	0	44	0	649068544	22	4746
2026-01-17 00:43:24.04	314.92	76.35	-31.2	-33.6	11.7	8.44e-04	0	43	0	655360000	22	4759
2026-01-17 00:43:27.05	308.76	76.85	-31.7	-34.5	10.7	2.72e-03	0	43	0	660602880	23	4997
2026-01-17 00:43:30.05	302.21	77.19	-32.1	-35.5	9.5	6.17e-03	0	44	0	665845760	24	5333
2026-01-17 00:43:33.05	295.38	77.35	-31.3	-33.9	11.3	1.72e-03	0	44	0	672137216	22	4871
2026-01-17 00:43:36.05	288.47	77.35	-32.1	-36.0	9.0	2.43e-02	0	44	0	677380096	24	5616
2026-01-17 00:43:39.06	281.64	77.16	-32.1	-35.8	9.1	2.54e-02	0	44	0	683671552	24	5526
2026-01-17 00:43:42.06	275.13	76.80	-32.2	-36.0	9.2	1.64e-02	0	44	0	688914432	24	5586
2026-01-17 00:43:45.07	269.02	76.29	-32.1	-35.7	9.3	2.34e-02	0	44	0	694157312	24	5440
2026-01-17 00:43:48.08	263.42	75.63	-30.7	-32.7	12.5	9.10e-06	0	44	0	700448768	21	4534
2026-01-17 00:43:51.08	258.39	74.87	-32.0	-35.7	9.7	5.20e-03	0	44	0	705691648	23	5534
2026-01-17 00:43:54.09	253.87	74.01	-31.5	-34.3	10.6	4.44e-03	0	44	0	710934528	23	4978
2026-01-17 00:43:57.10	249.86	73.06	-32.4	-37.2	7.9	6.34e-02	0	44	0	717225984	24	6258
2026-01-17 00:44:00.11	246.31	72.06	-32.5	-37.0	7.7	7.95e-02	0	44	0	722468864	25	6085
2026-01-17 00:44:03.12	243.16	71.01	-32.8	-38.3	6.8	1.81e-01	0	44	0	728760320	25	6823
2026-01-17 00:44:06.12	240.38	69.92	-33.1	-39.7	5.7	3.68e-01	0	44	0	734003200	26	7657
2026-01-17 00:44:09.11	237.91	68.81	-32.9	-39.1	6.2	2.72e-01	0	44	0	739246080	25	7355
2026-01-17 00:44:12.11	235.71	67.68	-32.5	-37.2	7.7	8.40e-02	0	44	0	745537536	25	6174
2026-01-17 00:44:15.12	233.73	66.53	-32.2	-36.1	8.8	2.52e-02	0	44	0	750780416	24	5700
2026-01-17 00:44:18.12	231.96	65.38	-30.0	-31.3	13.6	2.01e-03	0	44	0	756023296	20	4182
2026-01-17 00:44:21.11	230.37	64.23	-28.1	-28.0	16.5	1.99e-03	0	44	0	762314752	17	3565
2026-01-17 00:44:24.11	228.93	63.07	-29.3	-30.5	14.8	1.71e-03	0	44	0	767557632	18	4143
2026-01-17 00:44:27.11	227.62	61.92	-28.5	-29.2	15.8	1.01e-04	0	44	0	772800512	17	3877
2026-01-17 00:44:30.11	226.43	60.78	-30.3	-32.2	13.0	2.17e-04	0	44	0	779091968	20	4501
2026-01-17 00:44:33.11	225.34	59.65	-31.1	-33.8	11.2	8.50e-04	0	44	0	784334848	22	4912
2026-01-17 00:44:36.13	224.34	58.53	-29.9	-30.7	13.6	5.64e-05	0	44	0	790626304	21	3930
2026-01-17 00:44:39.12	223.42	57.43	-29.4	-30.7	14.6	1.49e-03	0	44	0	795869184	18	4204
2026-01-17 00:44:42.12	222.58	56.33	-29.8	-31.5	13.9	7.40e-05	0	44	0	801112064	19	4360
2026-01-17 00:44:45.11	221.80	55.26	-29.8	-31.3	13.9	0.00e+00	0	44	0	807403520	19	4300
2026-01-17 00:44:48.10	221.08	54.21	-29.0	-29.8	15.1	0.00e+00	0	44	0	812646400	18	3966
2026-01-17 00:44:51.11	220.41	53.16	-28.7	-29.0	15.5	1.14e-05	0	43	0	817889280	18	3753
2026-01-17 00:44:54.12	219.78	52.13	-29.3	-30.2	14.5	1.38e-04	0	44	0	824180736	19	3982
2026-01-17 00:44:57.13	219.20	51.12	-30.5	-32.5	12.4	5.78e-04	0	44	0	829423616	21	4526
2026-01-17 00:45:00.14	218.66	50.13	-30.9	-33.6	11.5	1.84e-03	0	44	0	835715072	21	4938
2026-01-17 00:45:03.14	218.15	49.16	-30.1	-31.9	13.1	3.00e-04	0	44	0	840957952	20	4419
2026-01-17 00:45:06.16	217.66	48.20	-30.2	-32.1	13.3	3.34e-04	0	44	0	846200832	20	4477
2026-01-17 00:45:09.17	217.21	47.26	-30.0	-31.7	13.2	5.32e-04	0	44	0	852492288	20	4363
2026-01-17 00:45:12.18	216.79	46.35	-30.5	-32.9	12.4	5.25e-04	0	44	0	857735168	20	4771
2026-01-17 00:45:15.17	216.39	45.45	-31.0	-33.5	11.3	3.02e-03	0	44	0	862978048	22	4790
2026-01-17 00:45:18.18	216.02	44.57	-29.6	-31.0	14.0	1.50e-06	0	44	0	869269504	19	4223
2026-01-17 00:45:21.18	215.66	43.71	-31.0	-33.3	11.3	1.62e-03	0	44	0	874512384	22	4736
2026-01-17 00:45:24.18	215.32	42.87	-30.8	-33.3	11.7	4.00e-04	0	44	0	880803840	21	4822
2026-01-17 00:45:27.19	215.00	42.04	-30.4	-32.6	12.6	1.24e-04	0	44	0	886046720	20	4650
2026-01-17 00:45:30.19	214.70	41.23	-31.9	-35.5	8.3	1.55e-02	0	44	0	891289600	24	5473
2026-01-17 00:45:33.20	214.41	40.43	-31.9	-35.6	8.9	6.06e-02	0	43	0	897581056	24	5508
2026-01-17 00:45:36.19	214.14	39.66	-31.4	-34.2	10.4	5.20e-03	0	44	0	902823936	23	4970
2026-01-17 00:45:39.20	213.88	38.90	-31.0	-32.9	11.4	1.92e-03	0	44	0	908066816	23	4476
2026-01-17 00:45:42.20	213.63	38.15	-30.3	-32.1	12.5	7.32e-05	0	44	0	914358272	21	4394
2026-01-17 00:45:45.21	213.39	37.42	-31.2	-34.3	10.6	2.53e-03	0	44	0	919601152	22	5139
2026-01-17 00:45:48.21	213.17	36.71	-30.7	-32.8	11.7	1.65e-03	0	44	0	924844032	22	4546
2026-01-17 00:45:51.22	212.95	36.01	-30.6	-32.9	11.9	1.85e-04	0	44	0	931135488	21	4698
2026-01-17 00:45:54.23	212.74	35.32	-31.0	-33.8	10.7	3.18e-03	0	44	0	936378368	22	4967
2026-01-17 00:45:57.24	212.54	34.65	-31.1	-34.4	10.3	4.82e-03	0	44	0	942669824	22	5254
2026-01-17 00:46:00.27	212.35	33.99	-30.3	-32.3	12.3	3.55e-04	0	44	0	947912704	21	4497
2026-01-17 00:46:03.27	212.17	33.35	-29.7	-31.5	13.5	2.21e-05	0	44	0	953155584	19	4441
2026-01-17 00:46:06.27	211.99	32.72	-30.1	-32.2	12.7	4.80e-05	0	44	0	959447040	20	4556
2026-01-17 00:46:09.28	211.83	32.10	-30.7	-33.7	11.2	1.09e-03	0	44	0	964689920	21	5058
2026-01-17 00:46:12.28	211.66	31.49	-31.6	-35.8	8.8	1.85e-02	0	44	0	969932800	23	5830
2026-01-17 00:46:15.30	211.51	30.89	-31.1	-34.2	10.3	7.61e-03	0	44	0	976224256	22	5185
2026-01-17 00:46:18.31	211.36	30.31	-31.0	-34.3	10.8	1.51e-03	0	43	0	981467136	21	5261
2026-01-17 00:46:21.32	211.21	29.74	-31.1	-34.0	10.7	1.99e-03	0	44	0	987758592	22	5053
2026-01-17 00:46:24.32	211.08	29.18	-30.5	-32.9	11.8	1.38e-03	0	44	0	993001472	21	4719
2026-01-17 00:46:27.33	210.94	28.63	-30.3	-32.9	12.1	5.94e-04	0	44	0	998244352	20	4844
2026-01-17 00:46:30.33	210.81	28.09	-29.4	-30.7	13.9	3.92e-04	0	44	0	1004535808	19	4194
2026-01-17 00:46:33.34	210.69	27.56	-29.5	-31.2	13.5	4.38e-04	0	44	0	1009778688	19	4381
2026-01-17 00:46:36.35	210.57	27.04	-30.4	-33.6	11.4	1.23e-03	0	44	0	1016070144	20	5205
2026-01-17 00:46:39.34	210.45	26.54	-30.8	-34.5	10.4	6.87e-03	0	44	0	1021313024	21	5475
2026-01-17 00:46:42.34	210.34	26.04	-30.1	-32.6	12.0	6.19e-04	0	44	0	1026555904	20	4800
2026-01-17 00:46:45.34	210.23	25.55	-29.7	-31.9	13.0	2.46e-04	0	44	0	1032847360	19	4621
2026-01-17 00:46:48.35	210.13	25.06	-29.5	-31.0	13.7	1.40e-04	0	44	0	1038090240	19	4297
2026-01-17 00:46:51.35	210.03	24.59	-29.7	-31.5	13.3	5.72e-05	0	44	0	1043333120	19	4471
2026-01-17 00:46:54.35	209.93	24.12	-29.7	-31.6	13.2	1.22e-05	0	44	0	1049624576	19	4479
2026-01-17 00:46:57.33	209.83	23.67	-29.6	-31.3	13.4	1.29e-05	0	44	0	1054867456	19	4400
2026-01-17 00:47:00.33	209.74	23.22	-29.8	-31.9	13.0	2.67e-05	0	44	0	1060110336	19	4576
2026-01-17 00:47:03.34	209.65	22.78	-29.6	-31.5	13.2	4.88e-05	0	44	0	1066401792	19	4489
2026-01-17 00:47:06.35	209.57	22.34	-29.7	-31.7	13.0	2.21e-05	0	44	0	1071644672	19	4552
2026-01-17 00:47:09.35	209.48	21.92	-29.8	-32.2	12.7	4.42e-05	0	44	0	1077936128	19	4738
2026-01-17 00:47:12.35	209.40	21.50	-30.1	-32.7	11.9	3.92e-04	0	44	0	1083179008	20	4856
2026-01-17 00:47:15.35	209.32	21.08	-30.3	-33.3	11.4	1.12e-03	0	44	0	1088421888	20	5082
2026-01-17 00:47:18.35	209.25	20.68	-30.5	-33.4	10.9	2.99e-03	0	44	0	1094713344	21	5044
2026-01-17 00:47:21.36	209.17	20.28	-30.6	-33.7	10.7	2.44e-03	0	44	0	1099956224	21	5166
2026-01-17 00:47:24.37	209.10	19.88	-30.7	-34.0	10.3	5.85e-03	0	44	0	1105199104	21	5302
2026-01-17 00:47:27.37	209.03	19.49	-30.6	-33.8	10.6	5.03e-03	0	44	0	1111490560	21	5200
2026-01-17 00:47:30.38	208.96	19.11	-30.5	-33.4	10.9	2.74e-03	0	44	0	1116733440	21	5056
2026-01-17 00:47:33.39	208.89	18.73	-30.7	-33.8	10.6	4.74e-03	0	44	0	1123024896	21	5189
2026-01-17 00:47:36.40	208.83	18.36	-30.5	-33.3	11.0	1.19e-03	0	44	0	1128267776	21	4988
2026-01-17 00:47:39.41	208.76	18.00	-30.3	-32.9	11.3	1.19e-03	0	44	0	1133510656	21	4815
2026-01-17 00:47:42.42	208.70	17.64	-30.4	-33.6	11.1	1.53e-03	0	44	0	1139802112	20	5180
2026-01-17 00:47:45.42	208.64	17.28	-30.3	-33.4	11.2	1.18e-03	0	44	0	1145044992	20	5145
2026-01-17 00:47:48.41	208.59	16.93	-30.2	-33.1	11.4	1.17e-03	0	44	0	1150287872	20	4992
2026-01-17 00:47:51.42	208.53	16.59	-30.1	-32.3	12.1	2.08e-04	0	44	0	1156579328	20	4659
2026-01-17 00:47:54.44	208.47	16.25	-30.4	-33.4	11.3	7.77e-04	0	44	0	1161822208	20	5070
2026-01-17 00:47:57.45	208.42	15.91	-30.4	-32.8	11.3	1.26e-03	0	44	0	1168113664	21	4739
2026-01-17 00:48:00.45	208.37	15.58	-30.6	-33.4	10.9	2.53e-03	0	44	0	1173356544	21	4980
2026-01-17 00:48:03.45	208.32	15.25	-30.4	-33.1	11.0	4.16e-03	0	44	0	1178599424	21	4905
2026-01-17 00:48:06.44	208.27	14.93	-30.6	-33.7	10.6	2.64e-03	0	44	0	1184890880	21	5109
2026-01-17 00:48:09.45	208.22	14.61	-29.3	-32.2	11.4	1.19e-03	0	44	0	1190133760	20	4997
2026-01-17 00:48:12.46	208.17	14.30	-30.5	-33.3	10.4	1.73e-03	0	44	0	1195376640	21	4946
2026-01-17 00:48:15.45	208.13	13.99	-30.3	-33.1	11.1	9.85e-04	0	44	0	1201668096	20	4995
2026-01-17 00:48:18.45	208.08	13.68	-30.1	-32.7	11.5	1.27e-03	0	44	0	1206910976	20	4828
2026-01-17 00:48:21.45	208.04	13.38	-30.1	-32.5	11.6	9.02e-04	0	44	0	1213202432	20	4781
2026-01-17 00:48:24.44	208.00	13.09	-30.0	-32.3	11.8	7.53e-04	0	44	0	1218445312	20	4696
2026-01-17 00:48:27.44	207.95	12.79	-30.4	-33.5	10.9	1.06e-03	0	44	0	1223688192	20	5183
2026-01-17 00:48:30.44	207.91	12.50	-30.4	-33.9	10.6	2.82e-03	0	44	0	1229979648	20	5358
2026-01-17 00:48:33.44	207.87	12.21	-30.5	-33.4	10.6	4.88e-03	0	44	0	1235222528	21	5022
2026-01-17 00:48:36.45	207.83	11.93	-30.7	-34.0	10.1	8.85e-03	0	44	0	1240465408	21	5311
2026-01-17 00:48:39.45	207.80	11.65	-30.8	-34.6	9.7	5.30e-03	0	44	0	1246756864	21	5546
2026-01-17 00:48:42.46	207.76	11.37	-30.7	-34.5	9.5	1.06e-02	0	44	0	1251999744	21	5619
2026-01-17 00:48:45.47	207.72	11.09	-30.7	-34.2	9.9	1.36e-02	0	44	0	1257242624	21	5390
2026-01-17 00:48:48.47	207.69	10.82	-30.1	-33.5	10.5	4.18e-03	0	44	0	1263534080	20	5295
2026-01-17 00:48:51.48	207.65	10.55	-30.4	-33.9	10.4	8.34e-03	0	44	0	1268776960	20	5392
2026-01-17 00:48:54.49	207.62	10.28	-30.6	-34.1	10.0	1.51e-02	0	44	0	1275068416	21	5329
2026-01-17 00:48:57.49	207.59	10.02	-30.7	-34.5	9.6	1.49e-02	0	44	0	1280311296	21	5531
2026-01-17 00:49:00.49	207.55	9.76	-30.8	-34.3	9.8	1.26e-02	0	44	0	1285554176	21	5386
2026-01-17 00:49:03.50	207.52	9.50	-30.8	-34.2	10.0	9.95e-03	0	44	0	1291845632	21	5316
2026-01-17 00:49:06.49	207.49	9.25	-30.7	-33.8	10.2	5.08e-03	0	44	0	1297088512	21	5147
2026-01-17 00:49:09.50	207.46	8.99	-30.7	-33.9	10.0	1.18e-02	0	44	0	1302331392	21	5214
2026-01-17 00:49:12.51	207.43	8.74	-30.7	-33.8	10.1	1.11e-02	0	44	0	1308622848	21	5186
2026-01-17 00:49:15.52	207.40	8.50	-30.8	-34.3	9.7	1.11e-02	0	44	0	1313865728	21	5388
2026-01-17 00:49:18.52	207.38	8.25	-30.8	-34.4	9.6	1.67e-02	0	44	0	1320157184	21	5464
2026-01-17 00:49:21.53	207.35	8.01	-30.9	-34.6	9.4	2.09e-02	0	44	0	1325400064	21	5530
2026-01-17 00:49:24.53	207.32	7.77	-30.8	-34.4	9.5	1.83e-02	0	44	0	1330642944	21	5481
2026-01-17 00:49:27.54	207.29	7.53	-30.8	-34.6	9.3	2.05e-02	0	44	0	1336934400	21	5578
2026-01-17 00:49:30.54	207.27	7.29	-30.8	-34.5	9.4	2.12e-02	0	44	0	1342177280	21	5533
2026-01-17 00:49:33.55	207.24	7.06	-32.6	-44.8	3.7	1.39e-02	0	44	104	1347420160	25	14649
2026-01-17 00:49:36.56	207.22	6.83	-33.4	-46.1	3.8	1.49e+00	0	44	104	1347420160	26	15432

#Closed at: 2026-01-17 00:49:37
#Recorded file [1347 MB]: D:/data/31010_260117_033734.dat