passes_logs/2026/01/17/R2M6_AANII_01/R2M6_AANII_01__20260117_020219_AQUA_rec.log

#Pass ID: 20260117_020219_AQUA
#Satellite: AQUA
#Configuration: AQUA
#almurnet v.1.7.20240730
#Start time: 2026-01-17 02:02:19

#Version: 2.2.20231116
#Station: R2M6_AANII_01
#Location: 30.233357 lon 59.946436 lat
#TLE: 1 27424U 02022A   26016.26443506  .00000711  00000+0  15228-3 0  9999
#TLE: 2 27424  98.4083 342.7130 0002022  76.7284  27.4473 14.61823291261073

#Time	Az	El	Level	Level2	SNR	BER	BlckErr	Temp	State	Recorded	gain1	gain2
2026-01-17 02:02:19.89	17.36	7.06	-31.5	-39.0	5.1	7.13e-01	0	42	0	0	23	8509
2026-01-17 02:02:22.90	17.37	7.30	-31.9	-39.8	11.5	6.08e-01	0	42	0	1572864	24	8880
2026-01-17 02:02:25.90	17.38	7.55	-31.9	-39.4	11.9	6.08e-01	0	42	0	7340032	24	8554
2026-01-17 02:02:28.90	17.38	7.80	-31.6	-37.8	13.2	6.04e-01	0	42	0	13107200	24	7333
2026-01-17 02:02:31.90	17.39	8.06	-32.0	-39.7	11.7	6.11e-01	0	42	0	18350080	24	8800
2026-01-17 02:02:34.89	17.40	8.31	-31.7	-38.0	13.4	6.02e-01	0	42	0	24117248	24	7486
2026-01-17 02:02:37.90	17.40	8.57	-31.4	-37.5	14.0	6.05e-01	0	42	0	29884416	23	7226
2026-01-17 02:02:40.90	17.41	8.84	-30.8	-35.7	15.7	6.00e-01	0	42	0	35651584	22	6301
2026-01-17 02:02:43.90	17.41	9.10	-30.8	-35.4	16.1	5.99e-01	0	42	0	40894464	22	6126
2026-01-17 02:02:46.89	17.42	9.37	-30.7	-35.0	16.3	6.01e-01	0	42	0	46661632	22	5960
2026-01-17 02:02:49.90	17.43	9.64	-30.3	-34.5	17.1	6.02e-01	0	42	0	52428800	21	5805
2026-01-17 02:02:52.90	17.43	9.92	-30.7	-35.2	16.3	6.03e-01	0	42	0	58195968	22	6030
2026-01-17 02:02:55.90	17.44	10.20	-30.6	-34.7	16.5	6.00e-01	0	42	0	63438848	22	5783
2026-01-17 02:02:58.91	17.44	10.48	-29.9	-33.7	18.0	5.99e-01	0	42	0	69206016	20	5557
2026-01-17 02:03:01.92	17.45	10.77	-29.8	-33.5	18.1	6.02e-01	0	43	0	74973184	20	5472
2026-01-17 02:03:04.92	17.45	11.06	-29.7	-33.2	18.4	5.98e-01	0	43	0	80216064	20	5352
2026-01-17 02:03:07.92	17.46	11.35	-30.0	-33.9	17.9	6.02e-01	0	43	0	85983232	20	5648
2026-01-17 02:03:10.93	17.46	11.65	-29.7	-33.1	18.4	6.02e-01	0	43	0	91750400	20	5298
2026-01-17 02:03:13.94	17.46	11.95	-30.1	-33.6	17.8	6.03e-01	0	43	0	97517568	21	5404
2026-01-17 02:03:16.95	17.47	12.26	-29.7	-32.9	18.6	6.02e-01	0	43	0	103284736	20	5226
2026-01-17 02:03:19.96	17.47	12.57	-29.6	-32.7	18.7	6.00e-01	0	43	0	108527616	20	5160
2026-01-17 02:03:22.97	17.48	12.89	-29.3	-32.4	19.4	6.01e-01	0	43	0	114294784	19	5132
2026-01-17 02:03:25.98	17.48	13.21	-29.4	-32.5	19.2	6.01e-01	0	43	0	120061952	19	5187
2026-01-17 02:03:28.99	17.48	13.54	-29.5	-32.8	19.1	6.02e-01	0	43	0	125829120	19	5300
2026-01-17 02:03:31.99	17.49	13.87	-29.6	-32.7	18.8	5.99e-01	0	43	0	131072000	20	5131
2026-01-17 02:03:34.99	17.49	14.20	-29.4	-32.6	19.2	5.99e-01	0	43	0	136839168	19	5206
2026-01-17 02:03:37.98	17.49	14.54	-29.7	-33.0	18.6	5.99e-01	0	43	0	142606336	20	5260
2026-01-17 02:03:40.99	17.50	14.89	-29.7	-32.9	18.7	5.98e-01	0	43	0	148373504	20	5204
2026-01-17 02:03:44.00	17.50	15.24	-29.5	-32.4	19.1	6.00e-01	0	43	0	153616384	20	5036
2026-01-17 02:03:47.01	17.50	15.60	-29.5	-32.5	18.9	6.00e-01	0	43	0	159383552	20	5071
2026-01-17 02:03:50.01	17.50	15.96	-29.2	-32.2	19.4	6.03e-01	0	43	0	165150720	19	5046
2026-01-17 02:03:53.02	17.50	16.33	-29.2	-32.2	19.5	6.02e-01	0	43	0	170393600	19	5032
2026-01-17 02:03:56.03	17.50	16.70	-29.2	-32.0	19.4	6.03e-01	0	43	0	176160768	19	4968
2026-01-17 02:03:59.04	17.50	17.09	-29.1	-32.2	19.8	6.02e-01	0	43	0	181927936	18	5165
2026-01-17 02:04:02.05	17.50	17.47	-29.2	-32.0	19.8	5.99e-01	0	43	0	187695104	19	4957
2026-01-17 02:04:05.04	17.51	17.87	-29.4	-32.6	19.3	6.02e-01	0	43	0	193462272	19	5201
2026-01-17 02:04:08.05	17.51	18.27	-29.2	-32.1	19.8	6.01e-01	0	43	0	198705152	19	4995
2026-01-17 02:04:11.05	17.50	18.68	-29.5	-32.8	19.3	6.01e-01	0	43	0	204472320	19	5256
2026-01-17 02:04:14.06	17.50	19.10	-29.4	-32.5	19.5	6.01e-01	0	43	0	210239488	19	5158
2026-01-17 02:04:17.07	17.50	19.52	-29.5	-32.6	19.5	6.01e-01	0	43	0	215482368	19	5193
2026-01-17 02:04:20.07	17.50	19.96	-29.5	-32.2	19.4	5.98e-01	0	43	0	221249536	20	4915
2026-01-17 02:04:23.06	17.50	20.40	-29.4	-32.6	19.5	6.03e-01	0	43	0	227016704	19	5170
2026-01-17 02:04:26.07	17.50	20.85	-29.4	-32.5	19.6	6.01e-01	0	43	0	232783872	19	5126
2026-01-17 02:04:29.08	17.49	21.31	-29.5	-32.6	19.6	6.01e-01	0	43	0	238026752	19	5169
2026-01-17 02:04:32.08	17.49	21.78	-29.4	-32.4	19.7	6.00e-01	0	43	0	243793920	19	5090
2026-01-17 02:04:35.08	17.49	22.26	-30.0	-33.5	18.7	6.03e-01	0	43	0	249561088	20	5393
2026-01-17 02:04:38.07	17.48	22.74	-29.4	-31.9	19.6	6.02e-01	0	43	0	255328256	20	4825
2026-01-17 02:04:41.07	17.48	23.24	-29.9	-33.3	18.7	6.02e-01	0	43	0	260571136	20	5310
2026-01-17 02:04:44.09	17.47	23.75	-30.0	-33.4	18.7	5.99e-01	0	43	0	266338304	20	5353
2026-01-17 02:04:47.10	17.46	24.27	-29.6	-32.5	19.3	6.01e-01	0	44	0	272105472	20	5033
2026-01-17 02:04:50.11	17.46	24.81	-29.5	-32.1	19.7	6.04e-01	0	43	0	277872640	20	4860
2026-01-17 02:04:53.12	17.45	25.35	-29.5	-32.2	19.6	6.00e-01	0	43	0	283115520	20	4894
2026-01-17 02:04:56.12	17.44	25.91	-29.6	-32.5	19.4	6.03e-01	0	43	0	288882688	20	5003
2026-01-17 02:04:59.12	17.43	26.48	-29.2	-31.5	20.0	6.02e-01	0	43	0	294649856	20	4667
2026-01-17 02:05:02.12	17.42	27.06	-29.1	-31.6	20.3	6.02e-01	0	43	0	300417024	19	4809
2026-01-17 02:05:05.13	17.41	27.66	-29.0	-31.9	20.5	6.03e-01	0	43	0	305659904	18	5004
2026-01-17 02:05:08.12	17.40	28.27	-29.4	-32.3	19.9	6.03e-01	0	43	0	311427072	19	5041
2026-01-17 02:05:11.11	17.39	28.89	-29.3	-32.0	20.1	6.00e-01	0	43	0	317194240	19	4948
2026-01-17 02:05:14.11	17.37	29.53	-29.3	-31.6	20.0	6.04e-01	0	43	0	322961408	20	4701
2026-01-17 02:05:17.13	17.36	30.19	-29.6	-32.4	19.5	6.00e-01	0	43	0	328204288	20	4986
2026-01-17 02:05:20.13	17.34	30.86	-30.0	-33.3	19.1	5.99e-01	0	43	0	333971456	20	5303
2026-01-17 02:05:23.13	17.33	31.55	-30.2	-33.4	18.6	6.01e-01	0	43	0	339738624	21	5228
2026-01-17 02:05:26.14	17.31	32.26	-29.6	-32.3	19.9	5.99e-01	0	43	0	345505792	20	4915
2026-01-17 02:05:29.14	17.29	32.99	-29.2	-31.3	20.3	6.03e-01	0	43	0	350748672	20	4590
2026-01-17 02:05:32.14	17.27	33.74	-29.1	-31.6	20.5	6.00e-01	0	43	0	356515840	19	4792
2026-01-17 02:05:35.14	17.25	34.50	-29.5	-32.5	20.0	6.00e-01	0	43	0	362283008	19	5102
2026-01-17 02:05:38.16	17.22	35.29	-29.9	-33.0	19.3	6.01e-01	0	43	0	368050176	20	5171
2026-01-17 02:05:41.17	17.20	36.10	-30.1	-33.2	19.0	6.01e-01	0	44	0	373293056	21	5121
2026-01-17 02:05:44.16	17.17	36.93	-30.6	-34.1	18.0	5.99e-01	0	43	0	379060224	22	5374
2026-01-17 02:05:47.17	17.14	37.79	-30.7	-34.2	18.0	6.02e-01	0	43	0	384827392	22	5419
2026-01-17 02:05:50.18	17.10	38.67	-30.6	-34.0	18.1	6.01e-01	0	43	0	390594560	22	5312
2026-01-17 02:05:53.18	17.07	39.57	-29.8	-33.4	18.3	6.02e-01	0	43	0	395837440	21	5480
2026-01-17 02:05:56.18	17.03	40.49	-30.3	-33.6	18.4	6.03e-01	0	43	0	401604608	21	5284
2026-01-17 02:05:59.20	16.99	41.45	-30.0	-33.2	18.9	5.99e-01	0	43	0	407371776	20	5247
2026-01-17 02:06:02.19	16.94	42.43	-30.2	-33.3	18.8	6.00e-01	0	43	0	413138944	21	5175
2026-01-17 02:06:05.20	16.90	43.44	-29.5	-32.0	19.9	6.01e-01	0	43	0	418381824	20	4812
2026-01-17 02:06:08.20	16.84	44.48	-29.6	-32.4	19.7	6.01e-01	0	43	0	424148992	20	4959
2026-01-17 02:06:11.21	16.79	45.55	-29.5	-32.6	20.0	6.02e-01	0	43	0	429916160	19	5116
2026-01-17 02:06:14.22	16.73	46.65	-29.7	-32.6	19.7	6.00e-01	0	43	0	435159040	20	5002
2026-01-17 02:06:17.22	16.66	47.77	-29.6	-32.7	19.9	6.00e-01	0	43	0	440926208	19	5157
2026-01-17 02:06:20.21	16.59	48.93	-29.7	-32.5	19.8	6.02e-01	0	43	0	446693376	20	4966
2026-01-17 02:06:23.19	16.51	50.11	-29.4	-32.2	20.2	6.00e-01	0	44	0	452460544	19	5002
2026-01-17 02:06:26.19	16.42	51.34	-29.5	-31.9	20.0	6.01e-01	0	43	0	457703424	20	4790
2026-01-17 02:06:29.21	16.33	52.61	-29.0	-31.3	20.8	6.01e-01	0	43	0	463470592	19	4690
2026-01-17 02:06:32.22	16.22	53.91	-29.1	-31.4	20.7	6.00e-01	0	43	0	469237760	19	4721
2026-01-17 02:06:35.23	16.10	55.24	-28.9	-30.9	21.0	6.00e-01	0	43	0	475004928	19	4573
2026-01-17 02:06:38.22	15.97	56.60	-29.3	-32.1	20.3	5.98e-01	0	44	0	480247808	19	4955
2026-01-17 02:06:41.22	15.83	58.00	-29.5	-32.5	20.1	6.01e-01	0	43	0	486014976	19	5077
2026-01-17 02:06:44.22	15.67	59.44	-30.2	-33.3	19.0	6.01e-01	0	44	0	491782144	21	5144
2026-01-17 02:06:47.22	15.48	60.91	-30.1	-33.2	19.1	6.00e-01	0	43	0	497025024	21	5108
2026-01-17 02:06:50.22	15.28	62.42	-30.4	-33.9	18.6	6.01e-01	0	44	0	502792192	21	5403
2026-01-17 02:06:53.22	15.04	63.96	-31.3	-35.4	17.0	6.02e-01	0	43	0	508559360	23	5769
2026-01-17 02:06:56.23	14.77	65.54	-31.9	-36.3	15.7	6.01e-01	0	43	0	514326528	25	6007
2026-01-17 02:06:59.23	14.45	67.15	-31.8	-36.1	15.9	6.03e-01	0	44	0	519569408	25	5890
2026-01-17 02:07:02.24	14.08	68.79	-31.9	-37.0	15.6	5.99e-01	0	44	0	525336576	24	6454
2026-01-17 02:07:05.25	13.63	70.47	-32.1	-37.0	15.2	6.01e-01	0	44	0	531103744	25	6383
2026-01-17 02:07:08.24	13.10	72.17	-31.7	-36.2	16.2	6.02e-01	0	44	0	536870912	24	6030
2026-01-17 02:07:11.25	12.44	73.90	-31.4	-35.8	16.9	6.00e-01	0	44	0	542113792	23	5955
2026-01-17 02:07:14.26	11.61	75.65	-31.3	-35.4	17.1	6.01e-01	0	44	0	547880960	23	5752
2026-01-17 02:07:17.27	10.53	77.43	-31.0	-34.9	17.8	6.03e-01	0	44	0	553648128	22	5673
2026-01-17 02:07:20.29	9.07	79.22	-30.6	-33.8	18.5	6.02e-01	0	44	0	559415296	22	5219
2026-01-17 02:07:23.28	7.03	81.01	-30.2	-33.3	19.2	6.01e-01	0	44	0	564658176	21	5134
2026-01-17 02:07:26.29	3.93	82.81	-29.7	-32.5	19.9	5.99e-01	0	44	0	570425344	20	4974
2026-01-17 02:07:29.29	358.79	84.57	-30.6	-34.2	18.5	6.00e-01	0	43	0	576192512	21	5485
2026-01-17 02:07:32.29	348.79	86.27	-31.6	-35.6	16.7	5.99e-01	0	43	0	581959680	24	5759
2026-01-17 02:07:35.30	324.65	87.68	-31.0	-33.8	18.0	6.02e-01	0	43	0	587726848	24	4998
2026-01-17 02:07:38.28	273.88	88.05	-30.2	-32.5	19.4	6.02e-01	0	43	0	592969728	22	4738
2026-01-17 02:07:41.28	237.43	86.96	-29.8	-32.7	19.9	6.02e-01	0	44	0	598736896	20	5021
2026-01-17 02:07:44.29	222.97	85.34	-30.5	-34.1	18.6	6.01e-01	0	44	0	604504064	21	5431
2026-01-17 02:07:47.29	216.21	83.60	-30.3	-33.6	18.9	6.01e-01	0	44	0	609746944	21	5261
2026-01-17 02:07:50.30	212.38	81.80	-29.8	-32.2	19.7	6.01e-01	0	43	0	615514112	21	4745
2026-01-17 02:07:53.30	209.95	80.01	-29.6	-31.8	20.0	6.00e-01	0	44	0	621281280	21	4620
2026-01-17 02:07:56.30	208.28	78.22	-30.4	-34.0	18.6	6.00e-01	0	43	0	627048448	21	5398
2026-01-17 02:07:59.30	207.05	76.44	-31.6	-36.3	16.4	6.02e-01	0	44	0	632291328	23	6188
2026-01-17 02:08:02.31	206.12	74.67	-32.0	-37.4	15.2	6.03e-01	0	43	0	638058496	24	6710
2026-01-17 02:08:05.31	205.39	72.93	-31.1	-34.8	17.4	6.01e-01	0	43	0	643825664	23	5540
2026-01-17 02:08:08.32	204.80	71.21	-31.4	-35.7	16.8	6.01e-01	0	43	0	649592832	23	5950
2026-01-17 02:08:11.32	204.32	69.53	-31.7	-36.3	16.0	5.99e-01	0	44	0	654835712	24	6135
2026-01-17 02:08:14.32	203.92	67.87	-32.0	-36.8	15.3	6.01e-01	0	43	0	660602880	25	6288
2026-01-17 02:08:17.33	203.58	66.24	-31.4	-35.3	16.7	6.02e-01	0	44	0	666370048	24	5649
2026-01-17 02:08:20.34	203.28	64.64	-31.0	-35.1	17.4	6.02e-01	0	44	0	672137216	22	5782
2026-01-17 02:08:23.33	203.03	63.08	-30.5	-33.8	18.3	6.01e-01	0	44	0	677380096	22	5229
2026-01-17 02:08:26.35	202.81	61.54	-30.1	-33.1	18.9	6.01e-01	0	44	0	683147264	21	5084
2026-01-17 02:08:29.35	202.62	60.05	-30.1	-33.0	19.0	6.01e-01	0	43	0	688914432	21	5075
2026-01-17 02:08:32.35	202.45	58.60	-29.8	-33.0	19.3	6.02e-01	0	43	0	694681600	20	5180
2026-01-17 02:08:35.35	202.29	57.18	-29.4	-31.9	20.0	5.98e-01	0	43	0	699924480	20	4790
2026-01-17 02:08:38.36	202.16	55.79	-28.9	-31.5	21.0	6.02e-01	0	44	0	705691648	18	4865
2026-01-17 02:08:41.37	202.03	54.43	-28.4	-31.0	21.4	5.99e-01	0	44	0	711458816	17	4816
2026-01-17 02:08:44.38	201.92	53.11	-28.5	-31.0	21.5	6.00e-01	0	43	0	716701696	17	4823
2026-01-17 02:08:47.38	201.82	51.84	-28.9	-31.6	20.9	6.01e-01	0	44	0	722468864	18	4906
2026-01-17 02:08:50.38	201.73	50.59	-29.2	-31.8	20.4	5.97e-01	0	44	0	728236032	19	4846
2026-01-17 02:08:53.39	201.65	49.38	-29.5	-32.5	20.0	6.02e-01	0	44	0	734003200	19	5101
2026-01-17 02:08:56.40	201.57	48.19	-30.1	-33.6	19.0	6.02e-01	0	44	0	739770368	20	5408
2026-01-17 02:08:59.40	201.50	47.05	-29.4	-32.4	20.1	6.03e-01	0	44	0	745013248	19	5050
2026-01-17 02:09:02.41	201.44	45.93	-29.2	-31.8	20.4	6.00e-01	0	43	0	750780416	19	4844
2026-01-17 02:09:05.42	201.38	44.85	-29.4	-32.3	20.1	6.00e-01	0	44	0	756547584	19	5029
2026-01-17 02:09:08.41	201.32	43.80	-29.3	-32.2	20.2	6.03e-01	0	43	0	761790464	19	4977
2026-01-17 02:09:11.41	201.27	42.77	-29.3	-32.1	20.2	6.02e-01	0	44	0	767557632	19	4959
2026-01-17 02:09:14.42	201.22	41.78	-29.4	-32.4	20.0	6.02e-01	0	43	0	773324800	19	5068
2026-01-17 02:09:17.43	201.18	40.81	-29.7	-32.9	19.2	5.98e-01	0	43	0	779091968	20	5220
2026-01-17 02:09:20.43	201.14	39.86	-30.2	-33.5	18.6	6.03e-01	0	43	0	784334848	21	5263
2026-01-17 02:09:23.43	201.10	38.95	-30.2	-33.4	18.4	6.01e-01	0	43	0	790102016	21	5220
2026-01-17 02:09:26.45	201.07	38.05	-30.0	-33.0	18.9	6.01e-01	0	44	0	795869184	21	5078
2026-01-17 02:09:29.44	201.04	37.19	-29.8	-33.0	19.3	6.01e-01	0	43	0	801636352	20	5187
2026-01-17 02:09:32.44	201.01	36.35	-29.7	-32.7	19.4	6.01e-01	0	44	0	806879232	20	5060
2026-01-17 02:09:35.45	200.98	35.53	-29.7	-32.7	19.4	6.01e-01	0	44	0	812646400	20	5075
2026-01-17 02:09:38.46	200.95	34.73	-29.3	-32.2	20.0	6.03e-01	0	44	0	818413568	19	5005
2026-01-17 02:09:41.47	200.93	33.95	-29.0	-31.9	20.6	6.00e-01	0	43	0	824180736	18	5006
2026-01-17 02:09:44.48	200.90	33.19	-28.9	-31.7	20.6	6.00e-01	0	44	0	829423616	18	4960
2026-01-17 02:09:47.48	200.88	32.45	-28.8	-31.3	20.8	6.00e-01	0	43	0	835190784	18	4832
2026-01-17 02:09:50.50	200.86	31.73	-28.4	-31.0	21.3	6.02e-01	0	43	0	840957952	17	4837
2026-01-17 02:09:53.51	200.84	31.03	-28.4	-30.9	21.3	6.03e-01	0	43	0	846725120	17	4799
2026-01-17 02:09:56.51	200.83	30.35	-28.8	-31.5	20.7	6.00e-01	0	43	0	851968000	18	4883
2026-01-17 02:09:59.52	200.81	29.68	-28.6	-30.9	21.0	6.00e-01	0	43	0	857735168	18	4709
2026-01-17 02:10:02.53	200.80	29.03	-28.8	-31.5	20.7	6.02e-01	0	43	0	863502336	18	4881
2026-01-17 02:10:05.53	200.78	28.39	-28.9	-31.6	20.6	6.01e-01	0	43	0	869269504	18	4930
2026-01-17 02:10:08.54	200.77	27.77	-28.8	-31.4	20.7	6.01e-01	0	43	0	875036672	18	4857
2026-01-17 02:10:11.55	200.76	27.17	-28.8	-31.5	20.7	6.00e-01	0	44	0	880279552	18	4896
2026-01-17 02:10:14.56	200.74	26.58	-28.8	-31.5	20.6	5.99e-01	0	44	0	886046720	18	4917
2026-01-17 02:10:17.57	200.73	26.00	-28.8	-31.6	20.5	6.02e-01	0	43	0	891813888	18	4940
2026-01-17 02:10:20.58	200.72	25.43	-29.0	-32.0	20.3	6.01e-01	0	44	0	897056768	18	5104
2026-01-17 02:10:23.59	200.71	24.88	-29.3	-32.2	19.9	6.00e-01	0	44	0	902823936	19	5045
2026-01-17 02:10:26.61	200.71	24.34	-29.5	-32.8	19.6	6.03e-01	0	44	0	908591104	19	5244
2026-01-17 02:10:29.61	200.70	23.82	-30.0	-33.7	18.6	6.00e-01	0	43	0	914358272	20	5514
2026-01-17 02:10:32.61	200.69	23.30	-30.0	-33.8	18.5	6.02e-01	0	43	0	920125440	20	5551
2026-01-17 02:10:35.62	200.68	22.80	-30.2	-33.8	18.2	6.01e-01	0	44	0	925368320	21	5417
2026-01-17 02:10:38.64	200.68	22.30	-30.0	-33.2	18.6	6.02e-01	0	44	0	931135488	21	5168
2026-01-17 02:10:41.62	200.67	21.82	-29.7	-32.8	19.1	6.03e-01	0	43	0	936902656	20	5136
2026-01-17 02:10:44.63	200.67	21.34	-29.8	-33.0	19.0	6.01e-01	0	43	0	942145536	20	5222
2026-01-17 02:10:47.63	200.66	20.88	-29.3	-32.2	19.7	6.01e-01	0	44	0	947912704	19	5039
2026-01-17 02:10:50.63	200.66	20.43	-29.2	-32.0	19.9	6.00e-01	0	44	0	953679872	19	4974
2026-01-17 02:10:53.65	200.65	19.98	-29.2	-32.1	19.8	6.00e-01	0	43	0	959447040	19	4997
2026-01-17 02:10:56.66	200.65	19.54	-29.4	-32.4	19.6	6.01e-01	0	43	0	965214208	19	5103
2026-01-17 02:10:59.66	200.65	19.11	-29.4	-32.7	19.4	6.00e-01	0	44	0	970457088	19	5205
2026-01-17 02:11:02.67	200.64	18.69	-29.8	-33.1	18.8	6.00e-01	0	43	0	976224256	20	5267
2026-01-17 02:11:05.67	200.64	18.27	-29.5	-32.4	19.2	6.02e-01	0	44	0	981991424	20	5022
2026-01-17 02:11:08.67	200.64	17.87	-29.6	-32.6	19.1	6.02e-01	0	44	0	987234304	20	5095
2026-01-17 02:11:11.68	200.64	17.47	-29.7	-33.0	18.8	6.04e-01	0	43	0	993001472	20	5254
2026-01-17 02:11:14.69	200.64	17.08	-29.4	-32.1	19.3	6.01e-01	0	44	0	998768640	20	4932
2026-01-17 02:11:17.69	200.64	16.69	-29.4	-32.6	19.4	6.02e-01	0	43	0	1004535808	19	5194
2026-01-17 02:11:20.71	200.64	16.31	-29.4	-32.6	19.4	6.02e-01	0	44	0	1010302976	19	5184
2026-01-17 02:11:23.71	200.63	15.94	-29.3	-32.5	19.4	6.00e-01	0	44	0	1015545856	19	5155
2026-01-17 02:11:26.72	200.63	15.57	-29.6	-33.0	19.0	6.01e-01	0	44	0	1021313024	19	5379
2026-01-17 02:11:29.73	200.63	15.21	-29.7	-32.9	18.7	6.00e-01	0	44	0	1027080192	20	5218
2026-01-17 02:11:32.74	200.63	14.86	-29.8	-33.3	18.3	6.00e-01	0	43	0	1032847360	20	5367
2026-01-17 02:11:35.74	200.63	14.51	-29.9	-33.4	18.2	6.02e-01	0	43	0	1038090240	20	5439
2026-01-17 02:11:38.73	200.64	14.17	-29.5	-33.0	18.9	6.01e-01	0	44	0	1043857408	19	5412
2026-01-17 02:11:41.74	200.64	13.83	-29.1	-32.3	19.6	6.02e-01	0	43	0	1049624576	18	5214
2026-01-17 02:11:44.75	200.64	13.50	-29.4	-32.5	19.2	6.03e-01	0	44	0	1055391744	19	5198
2026-01-17 02:11:47.76	200.64	13.17	-29.1	-32.0	19.5	6.01e-01	0	44	0	1060634624	19	5004
2026-01-17 02:11:50.77	200.64	12.84	-29.3	-32.4	19.3	6.01e-01	0	44	0	1066401792	19	5143
2026-01-17 02:11:53.78	200.64	12.53	-29.4	-32.6	19.1	5.99e-01	0	44	0	1072168960	19	5242
2026-01-17 02:11:56.79	200.64	12.21	-29.6	-33.1	18.7	5.99e-01	0	43	0	1077936128	19	5434
2026-01-17 02:11:59.79	200.64	11.90	-29.6	-32.7	18.5	6.02e-01	0	44	0	1083179008	20	5172
2026-01-17 02:12:02.80	200.65	11.60	-29.5	-32.4	18.7	5.99e-01	0	44	0	1088946176	20	5066
2026-01-17 02:12:05.81	200.65	11.30	-29.5	-32.9	18.8	6.01e-01	0	44	0	1094713344	19	5356
2026-01-17 02:12:08.81	200.65	11.00	-29.3	-32.4	19.1	6.03e-01	0	44	0	1100480512	19	5169
2026-01-17 02:12:11.81	200.65	10.71	-29.3	-32.6	19.0	6.00e-01	0	43	0	1105723392	19	5231
2026-01-17 02:12:14.81	200.66	10.42	-29.3	-32.1	18.8	6.00e-01	0	44	0	1111490560	20	4951
2026-01-17 02:12:17.82	200.66	10.13	-29.4	-32.6	18.9	6.00e-01	0	44	0	1117257728	19	5261
2026-01-17 02:12:20.82	200.66	9.85	-29.3	-32.6	18.9	5.99e-01	0	43	0	1123024896	19	5247
2026-01-17 02:12:23.83	200.67	9.57	-29.4	-32.8	18.7	6.01e-01	0	43	0	1128267776	19	5324
2026-01-17 02:12:26.83	200.67	9.30	-29.3	-32.5	18.9	6.03e-01	0	44	0	1134034944	19	5228
2026-01-17 02:12:29.83	200.67	9.03	-29.3	-32.6	18.8	6.01e-01	0	44	0	1139802112	19	5268
2026-01-17 02:12:32.83	200.68	8.76	-29.4	-32.9	18.6	5.99e-01	0	44	0	1145569280	19	5386
2026-01-17 02:12:35.85	200.68	8.50	-29.4	-32.9	18.6	5.99e-01	0	43	0	1150812160	19	5395
2026-01-17 02:12:38.86	200.68	8.23	-29.7	-33.3	17.9	5.99e-01	0	44	0	1156579328	20	5468
2026-01-17 02:12:41.87	200.69	7.97	-29.5	-32.7	18.2	6.03e-01	0	44	0	1162346496	20	5225
2026-01-17 02:12:44.88	200.69	7.72	-29.4	-32.5	18.4	6.02e-01	0	43	0	1168113664	20	5145
2026-01-17 02:12:47.88	200.69	7.47	-29.5	-32.8	18.2	5.98e-01	0	44	0	1173356544	20	5238
2026-01-17 02:12:50.90	200.70	7.21	-29.6	-33.1	17.9	6.01e-01	0	44	0	1179123712	20	5397
2026-01-17 02:12:53.91	200.70	6.97	-33.4	-52.8	3.8	7.43e-01	0	43	104	1182269440	27	33689

#Closed at: 2026-01-17 02:12:54
#Recorded file [1182 MB]: D:/data/31010_260117_050221.dat