passes_logs/2026/01/17/R2M6_AANII_01/R2M6_AANII_01__20260117_091117_NOAA_20_JPSS-1_rec.log

#Pass ID: 20260117_091117_NOAA 20 (JPSS-1)
#Satellite: NOAA 20 (JPSS-1)
#Configuration: NOAA 20
#almurnet v.1.7.20240730
#Start time: 2026-01-17 09:11:17

#Version: 2.2.20231116
#Station: R2M6_AANII_01
#Location: 30.233357 lon 59.946436 lat
#TLE: 1 43013U 17073A   26016.24631778  .00000038  00000+0  39093-4 0  9990
#TLE: 2 43013  98.7637 317.1726 0001455  37.6755 322.4523 14.19536243422915

#Time	Az	El	Level	Level2	SNR	BER	BlckErr	Temp	State	Recorded	gain1	gain2
2026-01-17 09:11:17.80	125.17	7.04	-31.8	-38.2	4.8	1.35e+00	0	41	0	0	25	7576
2026-01-17 09:11:20.81	125.00	7.26	-31.8	-38.5	6.9	1.65e-01	0	41	0	1048576	24	7799
2026-01-17 09:11:23.80	124.84	7.48	-31.6	-37.4	7.8	9.75e-02	0	41	0	7340032	24	7022
2026-01-17 09:11:26.81	124.66	7.70	-31.5	-36.8	8.4	8.53e-02	0	41	0	12582912	24	6630
2026-01-17 09:11:29.82	124.49	7.93	-31.0	-35.3	10.0	1.82e-02	0	41	0	17825792	23	5892
2026-01-17 09:11:32.81	124.31	8.15	-30.4	-33.7	11.6	1.78e-03	0	41	0	24117248	22	5260
2026-01-17 09:11:35.81	124.13	8.38	-30.4	-33.7	11.6	6.03e-04	0	41	0	29360128	22	5255
2026-01-17 09:11:38.81	123.94	8.61	-30.4	-33.6	11.8	7.15e-04	0	41	0	35651584	22	5175
2026-01-17 09:11:41.81	123.76	8.84	-30.8	-34.9	10.8	2.80e-03	0	41	0	40894464	22	5762
2026-01-17 09:11:44.81	123.57	9.08	-30.7	-34.5	11.2	1.36e-03	0	41	0	46137344	22	5577
2026-01-17 09:11:47.82	123.37	9.31	-30.7	-34.3	11.3	1.06e-03	0	41	0	52428800	22	5482
2026-01-17 09:11:50.82	123.17	9.55	-30.7	-34.5	11.2	8.41e-04	0	42	0	57671680	22	5549
2026-01-17 09:11:53.83	122.97	9.79	-30.5	-33.7	11.9	8.92e-04	0	42	0	62914560	22	5202
2026-01-17 09:11:56.84	122.77	10.04	-30.7	-34.5	11.3	1.32e-03	0	42	0	69206016	22	5547
2026-01-17 09:11:59.84	122.56	10.28	-30.9	-34.9	11.0	2.50e-03	0	42	0	74448896	22	5735
2026-01-17 09:12:02.85	122.35	10.53	-31.0	-35.4	10.6	3.32e-03	0	42	0	79691776	22	5957
2026-01-17 09:12:05.84	122.14	10.77	-30.9	-35.0	11.0	1.32e-03	0	42	0	85983232	22	5735
2026-01-17 09:12:08.85	121.92	11.02	-31.3	-36.2	10.2	4.06e-03	0	42	0	91226112	22	6299
2026-01-17 09:12:11.84	121.70	11.27	-30.7	-34.2	11.6	1.13e-03	0	42	0	97517568	22	5405
2026-01-17 09:12:14.84	121.47	11.53	-30.4	-33.4	12.3	1.83e-04	0	42	0	102760448	22	5039
2026-01-17 09:12:17.85	121.24	11.79	-30.4	-33.3	12.3	1.20e-04	0	42	0	108003328	22	5015
2026-01-17 09:12:20.86	121.00	12.04	-30.5	-33.7	12.1	2.80e-04	0	42	0	114294784	22	5152
2026-01-17 09:12:23.86	120.76	12.31	-30.2	-33.3	12.7	8.16e-05	0	42	0	119537664	21	5113
2026-01-17 09:12:26.86	120.52	12.57	-30.3	-33.6	12.4	1.27e-04	0	42	0	124780544	21	5259
2026-01-17 09:12:29.87	120.27	12.83	-30.4	-33.9	12.2	2.14e-04	0	42	0	131072000	21	5391
2026-01-17 09:12:32.89	120.02	13.10	-30.3	-33.6	12.5	1.81e-04	0	42	0	136314880	21	5233
2026-01-17 09:12:35.90	119.76	13.38	-30.3	-33.6	12.5	5.49e-05	0	42	0	142606336	21	5241
2026-01-17 09:12:38.89	119.50	13.65	-30.4	-33.9	12.3	2.19e-04	0	42	0	147849216	21	5363
2026-01-17 09:12:41.90	119.23	13.92	-30.4	-33.6	12.5	8.39e-05	0	42	0	153092096	21	5239
2026-01-17 09:12:44.91	118.96	14.20	-30.2	-33.1	12.9	5.26e-05	0	42	0	159383552	21	5034
2026-01-17 09:12:47.92	118.68	14.48	-30.3	-33.6	12.6	3.96e-05	0	42	0	164626432	21	5216
2026-01-17 09:12:50.91	118.39	14.77	-30.0	-32.6	13.3	2.67e-05	0	42	0	169869312	21	4860
2026-01-17 09:12:53.91	118.11	15.05	-30.1	-32.8	13.2	2.21e-05	0	43	0	176160768	21	4916
2026-01-17 09:12:56.91	117.81	15.34	-30.2	-33.2	12.9	5.56e-05	0	42	0	181403648	21	5070
2026-01-17 09:12:59.92	117.51	15.63	-30.1	-32.9	13.2	2.97e-05	0	42	0	187695104	21	4941
2026-01-17 09:13:02.93	117.20	15.92	-30.0	-32.6	13.4	1.44e-05	0	42	0	192937984	21	4844
2026-01-17 09:13:05.94	116.89	16.22	-30.1	-32.9	13.2	2.51e-05	0	43	0	198180864	21	4939
2026-01-17 09:13:08.95	116.57	16.52	-30.2	-33.2	13.0	2.74e-05	0	43	0	204472320	21	5082
2026-01-17 09:13:11.95	116.24	16.82	-30.2	-33.1	13.1	4.11e-05	0	43	0	209715200	21	5044
2026-01-17 09:13:14.96	115.91	17.13	-30.3	-33.2	13.1	2.36e-05	0	43	0	216006656	21	5063
2026-01-17 09:13:17.96	115.57	17.43	-30.3	-33.2	13.1	2.05e-05	0	43	0	221249536	21	5050
2026-01-17 09:13:20.98	115.22	17.75	-30.4	-33.5	12.9	5.34e-05	0	43	0	226492416	21	5163
2026-01-17 09:13:23.98	114.87	18.06	-30.2	-33.0	13.3	1.75e-05	0	43	0	232783872	21	4957
2026-01-17 09:13:26.98	114.50	18.37	-30.1	-32.7	13.4	1.52e-05	0	42	0	238026752	21	4879
2026-01-17 09:13:29.99	114.13	18.69	-30.0	-32.6	13.5	1.22e-05	0	43	0	243269632	21	4818
2026-01-17 09:13:33.00	113.75	19.02	-30.1	-32.6	13.5	1.37e-05	0	43	0	249561088	21	4852
2026-01-17 09:13:35.99	113.37	19.34	-30.1	-32.7	13.5	7.60e-06	0	43	0	254803968	21	4886
2026-01-17 09:13:39.00	112.97	19.67	-30.2	-32.9	13.4	2.13e-05	0	43	0	260046848	21	4950
2026-01-17 09:13:42.01	112.57	20.00	-30.3	-33.3	13.2	2.13e-05	0	43	0	266338304	21	5050
2026-01-17 09:13:45.02	112.16	20.33	-30.3	-33.3	13.1	3.89e-05	0	43	0	271581184	21	5085
2026-01-17 09:13:48.03	111.73	20.67	-30.4	-33.5	13.0	2.82e-05	0	43	0	277872640	21	5149
2026-01-17 09:13:51.03	111.30	21.01	-30.7	-34.3	12.5	6.40e-05	0	42	0	283115520	21	5456
2026-01-17 09:13:54.04	110.86	21.35	-30.4	-33.4	13.1	2.82e-05	0	43	0	288358400	21	5120
2026-01-17 09:13:57.04	110.41	21.69	-30.5	-33.8	12.9	2.74e-05	0	43	0	294649856	21	5286
2026-01-17 09:14:00.06	109.95	22.04	-30.4	-33.4	13.2	1.98e-05	0	43	0	299892736	21	5104
2026-01-17 09:14:03.06	109.48	22.39	-30.4	-33.5	13.1	3.50e-05	0	43	0	306184192	21	5150
2026-01-17 09:14:06.07	108.99	22.75	-30.2	-32.9	13.5	1.67e-05	0	43	0	311427072	21	4921
2026-01-17 09:14:09.07	108.50	23.10	-30.3	-33.1	13.4	1.83e-05	0	43	0	316669952	21	4989
2026-01-17 09:14:12.08	107.99	23.46	-30.2	-32.8	13.5	9.10e-06	0	43	0	322961408	21	4886
2026-01-17 09:14:15.09	107.47	23.82	-30.3	-33.1	13.4	1.60e-05	0	43	0	328204288	21	4971
2026-01-17 09:14:18.08	106.95	24.18	-30.5	-33.8	12.9	3.43e-05	0	43	0	333447168	21	5269
2026-01-17 09:14:21.09	106.40	24.55	-30.5	-33.7	13.0	3.28e-05	0	43	0	339738624	21	5212
2026-01-17 09:14:24.10	105.85	24.91	-30.4	-33.4	13.2	2.28e-05	0	43	0	344981504	21	5113
2026-01-17 09:14:27.09	105.28	25.28	-30.4	-33.4	13.3	1.60e-05	0	43	0	350224384	21	5091
2026-01-17 09:14:30.10	104.70	25.65	-30.6	-33.9	12.9	2.59e-05	0	43	0	356515840	21	5297
2026-01-17 09:14:33.11	104.10	26.03	-31.0	-35.0	12.1	2.82e-04	0	43	0	361758720	21	5765
2026-01-17 09:14:36.10	103.49	26.40	-31.3	-35.5	11.6	6.87e-04	0	43	0	368050176	22	5876
2026-01-17 09:14:39.11	102.87	26.78	-31.3	-35.6	11.5	7.61e-04	0	43	0	373293056	22	5889
2026-01-17 09:14:42.11	102.23	27.15	-31.4	-35.7	11.4	9.07e-04	0	43	0	378535936	22	5963
2026-01-17 09:14:45.12	101.57	27.53	-31.4	-35.9	11.3	1.02e-03	0	43	0	384827392	22	6025
2026-01-17 09:14:48.13	100.90	27.91	-31.5	-35.7	11.1	1.39e-03	0	43	0	390070272	23	5839
2026-01-17 09:14:51.14	100.21	28.30	-31.5	-35.6	11.1	1.48e-03	0	43	0	395313152	23	5811
2026-01-17 09:14:54.14	99.51	28.68	-31.7	-36.3	10.6	3.02e-03	0	43	0	401604608	23	6132
2026-01-17 09:14:57.14	98.78	29.06	-31.7	-36.5	10.5	4.03e-03	0	43	0	406847488	23	6239
2026-01-17 09:15:00.14	98.05	29.44	-31.8	-36.5	10.6	3.48e-03	0	43	0	413138944	23	6185
2026-01-17 09:15:03.15	97.29	29.82	-31.7	-36.2	10.7	3.05e-03	0	43	0	418381824	23	6067
2026-01-17 09:15:06.16	96.51	30.20	-31.8	-36.6	10.5	3.67e-03	0	43	0	423624704	23	6252
2026-01-17 09:15:09.15	95.72	30.58	-31.5	-35.7	11.2	1.70e-03	0	43	0	429916160	23	5791
2026-01-17 09:15:12.15	94.91	30.95	-31.6	-36.0	10.9	1.76e-03	0	43	0	435159040	23	5951
2026-01-17 09:15:15.16	94.08	31.33	-31.2	-34.6	12.0	3.27e-04	0	43	0	440401920	23	5321
2026-01-17 09:15:18.16	93.23	31.70	-31.5	-35.6	11.3	8.58e-04	0	43	0	446693376	23	5784
2026-01-17 09:15:21.17	92.36	32.07	-31.8	-36.6	10.6	3.41e-03	0	43	0	451936256	23	6233
2026-01-17 09:15:24.18	91.46	32.44	-32.0	-37.1	10.3	4.88e-03	0	43	0	458227712	23	6459
2026-01-17 09:15:27.18	90.55	32.81	-32.1	-37.1	9.8	9.25e-03	0	43	0	463470592	24	6357
2026-01-17 09:15:30.19	89.62	33.17	-32.5	-38.4	8.9	2.05e-02	0	43	0	468713472	24	7111
2026-01-17 09:15:33.20	88.66	33.52	-32.5	-37.7	8.9	2.79e-02	0	43	0	475004928	25	6625
2026-01-17 09:15:36.20	87.69	33.87	-32.8	-39.2	7.9	6.88e-02	0	43	0	480247808	25	7546
2026-01-17 09:15:39.21	86.69	34.22	-32.7	-38.9	8.1	6.76e-02	0	43	0	485490688	25	7323
2026-01-17 09:15:42.21	85.68	34.56	-32.8	-39.1	7.9	7.76e-02	0	43	0	491782144	25	7477
2026-01-17 09:15:45.22	84.64	34.89	-32.6	-38.1	8.8	3.59e-02	0	43	0	497025024	25	6800
2026-01-17 09:15:48.21	83.59	35.21	-32.4	-37.3	9.3	2.27e-02	0	43	0	503316480	25	6349
2026-01-17 09:15:51.22	82.50	35.53	-32.0	-36.1	10.3	4.57e-03	0	43	0	508559360	25	5753
2026-01-17 09:15:54.23	81.40	35.83	-32.0	-36.1	10.3	5.04e-03	0	43	0	513802240	25	5767
2026-01-17 09:15:57.23	80.28	36.13	-31.5	-34.9	11.5	1.78e-03	0	43	0	520093696	24	5319
2026-01-17 09:16:00.22	79.15	36.42	-31.2	-34.5	12.2	2.31e-04	0	43	0	525336576	23	5259
2026-01-17 09:16:03.21	77.99	36.69	-31.0	-33.9	12.6	9.00e-05	0	43	0	530579456	23	5022
2026-01-17 09:16:06.23	76.80	36.96	-30.8	-33.9	13.0	4.11e-05	0	43	0	536870912	22	5094
2026-01-17 09:16:09.23	75.61	37.21	-30.4	-32.8	13.7	9.10e-06	0	43	0	542113792	22	4710
2026-01-17 09:16:12.23	74.39	37.45	-30.2	-32.6	14.0	1.50e-06	0	43	0	547356672	21	4772
2026-01-17 09:16:15.24	73.15	37.68	-30.5	-33.4	13.7	9.90e-06	0	43	0	553648128	21	5023
2026-01-17 09:16:18.25	71.90	37.89	-30.5	-33.4	13.6	6.10e-06	0	43	0	558891008	21	5028
2026-01-17 09:16:21.25	70.63	38.09	-30.0	-32.1	14.4	7.00e-07	0	43	0	565182464	21	4589
2026-01-17 09:16:24.26	69.35	38.27	-30.1	-32.4	14.2	7.00e-07	0	43	0	570425344	21	4676
2026-01-17 09:16:27.26	68.05	38.44	-30.0	-32.1	14.4	0.00e+00	0	43	0	575668224	21	4594
2026-01-17 09:16:30.26	66.74	38.59	-30.0	-32.2	14.4	3.00e-06	0	43	0	581959680	21	4613
2026-01-17 09:16:33.26	65.42	38.73	-29.9	-31.8	14.7	7.00e-07	0	43	0	587202560	21	4483
2026-01-17 09:16:36.27	64.09	38.85	-29.5	-31.3	15.3	0.00e+00	0	43	0	592445440	20	4430
2026-01-17 09:16:39.27	62.75	38.95	-29.7	-32.2	15.1	0.00e+00	0	43	0	598736896	19	4832
2026-01-17 09:16:42.27	61.41	39.03	-29.6	-32.1	15.1	0.00e+00	0	43	0	603979776	19	4794
2026-01-17 09:16:45.28	60.05	39.09	-30.0	-32.5	14.5	7.00e-07	0	43	0	610271232	20	4816
2026-01-17 09:16:48.29	58.69	39.14	-30.2	-33.1	14.2	3.00e-06	0	43	0	615514112	20	5037
2026-01-17 09:16:51.30	57.32	39.17	-30.8	-34.2	13.2	1.60e-05	0	43	0	620756992	21	5318
2026-01-17 09:16:54.29	55.97	39.18	-30.8	-33.6	13.2	1.90e-05	0	43	0	627048448	22	4996
2026-01-17 09:16:57.29	54.61	39.17	-30.7	-33.4	13.4	1.83e-05	0	43	0	632291328	22	4928
2026-01-17 09:17:00.30	53.24	39.14	-31.1	-34.7	12.4	1.82e-04	0	43	0	637534208	22	5441
2026-01-17 09:17:03.31	51.88	39.10	-31.3	-35.2	12.0	2.75e-04	0	43	0	643825664	22	5665
2026-01-17 09:17:06.31	50.53	39.04	-31.6	-35.6	11.4	1.27e-03	0	43	0	649068544	23	5729
2026-01-17 09:17:09.31	49.18	38.95	-31.9	-36.6	10.7	2.66e-03	0	43	0	655360000	23	6173
2026-01-17 09:17:12.31	47.85	38.86	-32.1	-36.8	10.2	6.00e-03	0	43	0	660602880	24	6184
2026-01-17 09:17:15.30	46.52	38.74	-32.2	-37.1	10.0	9.62e-03	0	43	0	665845760	24	6322
2026-01-17 09:17:18.30	45.20	38.61	-32.4	-37.3	9.4	1.82e-02	0	43	0	672137216	25	6369
2026-01-17 09:17:21.30	43.89	38.46	-32.2	-36.8	9.8	1.32e-02	0	43	0	677380096	25	6079
2026-01-17 09:17:24.30	42.60	38.29	-32.1	-36.3	10.1	7.86e-03	0	43	0	682622976	25	5872
2026-01-17 09:17:27.30	41.32	38.11	-31.6	-35.2	11.4	7.35e-04	0	43	0	688914432	24	5422
2026-01-17 09:17:30.29	40.06	37.91	-30.7	-33.4	13.2	2.36e-05	0	43	0	694157312	22	4935
2026-01-17 09:17:33.29	38.81	37.70	-30.3	-32.8	13.9	7.00e-07	0	43	0	699400192	21	4840
2026-01-17 09:17:36.29	37.58	37.48	-29.7	-31.9	14.8	7.00e-07	0	43	0	705691648	20	4630
2026-01-17 09:17:39.29	36.36	37.24	-29.4	-31.2	15.2	0.00e+00	0	43	0	710934528	20	4411
2026-01-17 09:17:42.28	35.17	36.99	-29.4	-31.5	15.4	0.00e+00	0	43	0	716177408	19	4604
2026-01-17 09:17:45.28	33.99	36.73	-29.8	-32.1	14.6	7.00e-07	0	43	0	722468864	20	4704
2026-01-17 09:17:48.29	32.83	36.45	-29.5	-31.4	15.1	0.00e+00	0	43	0	727711744	20	4458
2026-01-17 09:17:51.29	31.69	36.17	-29.9	-32.3	14.5	1.50e-06	0	43	0	734003200	20	4773
2026-01-17 09:17:54.30	30.56	35.87	-29.9	-32.3	14.5	7.00e-07	0	43	0	739246080	20	4745
2026-01-17 09:17:57.31	29.46	35.57	-30.3	-33.5	13.7	2.20e-06	0	43	0	744488960	20	5191
2026-01-17 09:18:00.31	28.39	35.25	-30.5	-33.5	13.4	1.60e-05	0	43	0	750780416	21	5082
2026-01-17 09:18:03.32	27.33	34.93	-30.5	-33.6	13.3	1.60e-05	0	43	0	756023296	21	5126
2026-01-17 09:18:06.32	26.29	34.60	-30.3	-32.9	13.8	6.80e-06	0	43	0	761266176	21	4864
2026-01-17 09:18:09.32	25.28	34.27	-30.2	-32.6	14.0	2.20e-06	0	43	0	767557632	21	4744
2026-01-17 09:18:12.32	24.28	33.92	-30.4	-33.3	13.6	5.30e-06	0	43	0	772800512	21	4993
2026-01-17 09:18:15.33	23.31	33.58	-30.7	-34.0	13.0	2.74e-05	0	43	0	779091968	21	5269
2026-01-17 09:18:18.34	22.35	33.22	-30.8	-34.4	12.7	4.34e-05	0	43	0	784334848	21	5437
2026-01-17 09:18:21.34	21.43	32.86	-31.3	-35.4	11.7	3.48e-04	0	43	0	789577728	22	5764
2026-01-17 09:18:24.35	20.51	32.50	-31.3	-35.2	11.8	4.90e-04	0	43	0	795869184	22	5678
2026-01-17 09:18:27.35	19.62	32.13	-31.6	-35.7	11.2	1.04e-03	0	43	0	801112064	23	5801
2026-01-17 09:18:30.34	18.76	31.77	-31.5	-35.6	11.1	1.41e-03	0	43	0	806354944	23	5750
2026-01-17 09:18:33.33	17.91	31.40	-31.6	-35.8	11.0	1.82e-03	0	43	0	812646400	23	5842
2026-01-17 09:18:36.33	17.08	31.02	-32.1	-37.0	9.8	9.17e-03	0	43	0	817889280	24	6336
2026-01-17 09:18:39.33	16.27	30.65	-31.9	-36.2	10.3	4.61e-03	0	43	0	823132160	24	5956
2026-01-17 09:18:42.33	15.48	30.27	-31.9	-36.5	10.1	6.33e-03	0	43	0	829423616	24	6100
2026-01-17 09:18:45.33	14.71	29.90	-31.5	-34.9	11.2	1.66e-03	0	43	0	834666496	24	5354
2026-01-17 09:18:48.33	13.95	29.52	-31.2	-34.7	11.7	6.15e-04	0	43	0	840957952	23	5384
2026-01-17 09:18:51.33	13.21	29.14	-30.7	-33.8	12.7	1.01e-04	0	43	0	846200832	22	5124
2026-01-17 09:18:54.33	12.50	28.76	-30.8	-33.9	12.5	1.16e-04	0	43	0	851443712	22	5178
2026-01-17 09:18:57.33	11.79	28.38	-30.5	-33.2	13.0	4.57e-05	0	43	0	857735168	22	4904
2026-01-17 09:19:00.34	11.10	28.00	-30.5	-33.4	12.9	4.73e-05	0	43	0	862978048	22	4982
2026-01-17 09:19:03.34	10.43	27.62	-30.3	-33.0	13.1	4.65e-05	0	43	0	868220928	22	4875
2026-01-17 09:19:06.36	9.78	27.24	-30.3	-33.0	13.4	1.90e-05	0	43	0	874512384	21	4944
2026-01-17 09:19:09.35	9.14	26.87	-30.2	-33.1	12.9	3.35e-05	0	43	0	879755264	21	4997
2026-01-17 09:19:12.35	8.52	26.50	-30.3	-33.0	13.2	3.73e-05	0	43	0	886046720	21	4962
2026-01-17 09:19:15.36	7.91	26.12	-30.2	-32.7	13.5	1.44e-05	0	43	0	891289600	21	4825
2026-01-17 09:19:18.36	7.31	25.75	-30.0	-32.4	13.5	1.37e-05	0	43	0	896532480	21	4728
2026-01-17 09:19:21.37	6.73	25.38	-30.1	-32.6	12.0	1.89e-04	0	43	0	902823936	21	4843
2026-01-17 09:19:24.37	6.16	25.01	-30.3	-33.2	11.9	3.08e-04	0	43	0	908066816	21	5049
2026-01-17 09:19:27.37	5.61	24.65	-30.3	-33.4	12.0	2.33e-04	0	43	0	913309696	21	5107
2026-01-17 09:19:30.37	5.07	24.28	-30.5	-33.7	12.2	2.39e-04	0	43	0	919601152	21	5225
2026-01-17 09:19:33.37	4.54	23.92	-30.7	-34.3	12.3	1.39e-04	0	43	0	924844032	21	5446
2026-01-17 09:19:36.37	4.03	23.56	-30.8	-34.7	11.9	4.63e-04	0	43	0	931135488	21	5627
2026-01-17 09:19:39.37	3.52	23.21	-31.2	-35.4	11.2	7.39e-04	0	43	0	936378368	22	5795
2026-01-17 09:19:42.38	3.03	22.85	-31.1	-34.9	11.6	8.28e-04	0	43	0	941621248	22	5589
2026-01-17 09:19:45.40	2.54	22.50	-31.1	-34.9	11.7	6.88e-04	0	43	0	947912704	22	5583
2026-01-17 09:19:48.41	2.07	22.15	-30.9	-34.3	12.1	2.32e-04	0	43	0	953155584	22	5336
2026-01-17 09:19:51.41	1.61	21.81	-30.3	-32.7	12.8	5.72e-05	0	43	0	958398464	22	4746
2026-01-17 09:19:54.41	1.16	21.46	-30.4	-33.1	12.8	3.81e-05	0	43	0	964689920	22	4870
2026-01-17 09:19:57.41	0.72	21.12	-30.6	-33.6	12.5	1.13e-04	0	43	0	969932800	22	5094
2026-01-17 09:20:00.40	0.30	20.79	-30.9	-34.3	12.0	3.05e-04	0	43	0	975175680	22	5374
2026-01-17 09:20:03.41	359.87	20.45	-30.7	-34.0	12.3	2.10e-04	0	43	0	981467136	22	5222
2026-01-17 09:20:06.42	359.46	20.12	-30.7	-33.9	12.3	2.14e-04	0	43	0	986710016	22	5216
2026-01-17 09:20:09.42	359.06	19.79	-30.4	-33.1	12.9	5.56e-05	0	43	0	993001472	22	4898
2026-01-17 09:20:12.43	358.67	19.46	-30.4	-33.1	12.8	3.12e-05	0	43	0	998244352	22	4899
2026-01-17 09:20:15.44	358.28	19.14	-30.4	-33.0	12.9	3.96e-05	0	43	0	1003487232	22	4854
2026-01-17 09:20:18.45	357.90	18.82	-30.5	-33.4	12.6	8.39e-05	0	43	0	1009778688	22	5015
2026-01-17 09:20:21.46	357.53	18.50	-30.7	-33.9	12.2	2.58e-04	0	43	0	1015021568	22	5229
2026-01-17 09:20:24.46	357.17	18.18	-30.4	-33.1	12.8	7.32e-05	0	43	0	1021313024	22	4909
2026-01-17 09:20:27.46	356.82	17.87	-30.4	-33.0	12.9	5.56e-05	0	43	0	1026555904	22	4882
2026-01-17 09:20:30.46	356.48	17.56	-30.3	-33.2	13.0	4.11e-05	0	43	0	1031798784	21	5049
2026-01-17 09:20:33.47	356.14	17.26	-30.1	-32.8	13.2	1.90e-05	0	43	0	1038090240	21	4914
2026-01-17 09:20:36.47	355.81	16.95	-30.1	-32.8	13.2	2.28e-05	0	43	0	1043333120	21	4914
2026-01-17 09:20:39.48	355.48	16.65	-30.3	-33.2	12.9	4.11e-05	0	43	0	1048576000	21	5066
2026-01-17 09:20:42.47	355.16	16.35	-30.3	-33.5	12.8	7.55e-05	0	43	0	1054867456	21	5153
2026-01-17 09:20:45.48	354.85	16.06	-30.6	-34.3	12.2	1.80e-04	0	43	0	1060110336	21	5476
2026-01-17 09:20:48.48	354.55	15.77	-30.5	-34.0	12.4	1.51e-04	0	43	0	1065353216	21	5388
2026-01-17 09:20:51.47	354.25	15.48	-30.6	-34.3	12.1	3.21e-04	0	43	0	1071644672	21	5506
2026-01-17 09:20:54.50	353.95	15.19	-30.5	-33.9	12.4	1.72e-04	0	43	0	1076887552	21	5336
2026-01-17 09:20:57.50	353.66	14.90	-30.6	-34.1	12.2	2.56e-04	0	43	0	1083179008	21	5440
2026-01-17 09:21:00.50	353.38	14.62	-30.7	-34.6	12.0	3.20e-04	0	43	0	1088421888	21	5613
2026-01-17 09:21:03.50	353.11	14.34	-30.9	-35.1	11.6	9.11e-04	0	43	0	1093664768	21	5831
2026-01-17 09:21:06.49	352.84	14.06	-30.8	-34.9	11.7	5.40e-04	0	43	0	1099956224	21	5786
2026-01-17 09:21:09.50	352.57	13.79	-31.0	-35.5	11.2	9.39e-04	0	43	0	1105199104	21	6039
2026-01-17 09:21:12.51	352.31	13.52	-31.2	-35.6	10.9	2.58e-03	0	43	0	1110441984	22	5958
2026-01-17 09:21:15.52	352.05	13.25	-31.1	-35.4	11.0	1.75e-03	0	43	0	1116733440	22	5896
2026-01-17 09:21:18.53	351.80	12.98	-31.0	-34.9	11.3	1.38e-03	0	43	0	1121976320	22	5682
2026-01-17 09:21:21.53	351.55	12.71	-31.1	-35.3	10.9	2.24e-03	0	43	0	1128267776	22	5865
2026-01-17 09:21:24.54	351.31	12.45	-31.1	-35.4	10.9	2.15e-03	0	43	0	1133510656	22	5928
2026-01-17 09:21:27.54	351.07	12.19	-31.1	-35.3	11.0	2.73e-03	0	43	0	1138753536	22	5836
2026-01-17 09:21:30.55	350.84	11.93	-31.1	-35.3	11.0	2.10e-03	0	43	0	1145044992	22	5849
2026-01-17 09:21:33.55	350.61	11.67	-31.0	-35.1	11.0	2.68e-03	0	43	0	1150287872	22	5794
2026-01-17 09:21:36.56	350.39	11.42	-31.3	-36.1	10.3	3.80e-03	0	43	0	1155530752	22	6251
2026-01-17 09:21:39.57	350.17	11.17	-31.1	-35.7	10.6	3.03e-03	0	43	0	1161822208	22	6060
2026-01-17 09:21:42.57	349.95	10.92	-31.1	-35.5	10.6	3.36e-03	0	43	0	1167065088	22	6000
2026-01-17 09:21:45.56	349.74	10.67	-31.0	-35.4	10.7	3.73e-03	0	43	0	1173356544	22	5950
2026-01-17 09:21:48.57	349.53	10.43	-31.0	-35.3	10.8	2.96e-03	0	43	0	1178599424	22	5912
2026-01-17 09:21:51.57	349.32	10.18	-31.1	-35.6	10.5	3.27e-03	0	43	0	1183842304	22	6047
2026-01-17 09:21:54.57	349.12	9.94	-31.1	-35.7	10.4	3.63e-03	0	43	0	1190133760	22	6081
2026-01-17 09:21:57.57	348.92	9.70	-31.1	-35.7	10.4	6.06e-03	0	43	0	1195376640	22	6109
2026-01-17 09:22:00.57	348.73	9.46	-31.1	-35.7	10.3	7.76e-03	0	43	0	1200619520	22	6117
2026-01-17 09:22:03.58	348.54	9.23	-31.2	-36.2	10.0	7.63e-03	0	43	0	1206910976	22	6366
2026-01-17 09:22:06.58	348.35	9.00	-31.3	-36.6	9.6	1.07e-02	0	43	0	1212153856	22	6583
2026-01-17 09:22:09.59	348.16	8.76	-31.3	-36.4	9.7	1.02e-02	0	43	0	1217396736	22	6494
2026-01-17 09:22:12.58	347.98	8.53	-31.0	-35.5	10.4	6.57e-03	0	43	0	1223688192	22	6047
2026-01-17 09:22:15.59	347.80	8.31	-31.1	-35.7	10.1	5.39e-03	0	43	0	1228931072	22	6159
2026-01-17 09:22:18.60	347.63	8.08	-31.0	-35.6	10.2	1.12e-02	0	43	0	1235222528	22	6087
2026-01-17 09:22:21.60	347.45	7.85	-31.2	-36.3	9.7	1.27e-02	0	43	0	1240465408	22	6449
2026-01-17 09:22:24.60	347.28	7.63	-31.4	-36.9	9.2	1.14e-02	0	43	0	1245708288	22	6838
2026-01-17 09:22:27.60	347.11	7.41	-31.2	-36.2	9.6	1.40e-02	0	43	0	1251999744	22	6448
2026-01-17 09:22:30.59	346.95	7.19	-31.2	-36.3	9.5	1.14e-02	0	43	0	1257242624	22	6512
2026-01-17 09:22:33.60	346.79	6.97	-33.2	-47.4	3.8	1.49e+00	0	43	104	1260388352	26	18310

#Closed at: 2026-01-17 09:22:34
#Recorded file [1260 MB]: D:/data/31010_260117_121119.dat