passes_logs/2026/01/17/R2M6_AANII_01/R2M6_AANII_01__20260117_163625_FENGYUN_3E_rec.log

#Pass ID: 20260117_163625_FENGYUN 3E
#Satellite: FENGYUN 3E
#Configuration: FENGYUN 3E
#almurnet v.1.7.20240730
#Start time: 2026-01-17 16:36:26

#Version: 2.2.20231116
#Station: R2M6_AANII_01
#Location: 30.233357 lon 59.946436 lat
#TLE: 1 49008U 21062A   26016.55599566  .00000255  00000+0  14071-3 0  9994
#TLE: 2 49008  98.7485  21.6664 0002094 134.5344 225.6004 14.19886148235063

#Time	Az	El	Level	Level2	SNR	BER	BlckErr	Temp	State	Recorded	gain1	gain2
2026-01-17 16:36:26.89	227.97	7.06	-28.2	-29.3	5.6	7.33e-01	0	41	0	0	17	4075
2026-01-17 16:36:29.91	228.32	7.23	-28.4	-29.3	11.5	1.16e-03	0	41	0	7340032	18	3963
2026-01-17 16:36:32.90	228.67	7.39	-28.2	-29.3	11.8	5.97e-04	0	41	0	28311552	17	4056
2026-01-17 16:36:35.90	229.03	7.55	-27.2	-27.8	13.1	3.89e-05	0	42	0	50331648	15	3886
2026-01-17 16:36:38.90	229.39	7.72	-26.9	-27.7	13.5	1.02e-05	0	42	0	72351744	14	3951
2026-01-17 16:36:41.91	229.76	7.88	-26.9	-27.8	13.5	1.48e-05	0	42	0	93323264	14	3970
2026-01-17 16:36:44.91	230.13	8.05	-26.8	-27.6	13.6	3.40e-06	0	42	0	115343360	14	3911
2026-01-17 16:36:47.92	230.50	8.21	-26.7	-27.8	13.8	1.71e-05	0	42	0	137363456	13	4069
2026-01-17 16:36:50.91	230.88	8.38	-26.5	-27.4	14.0	2.20e-06	0	42	0	158334976	13	3968
2026-01-17 16:36:53.92	231.26	8.54	-26.6	-27.6	14.0	2.20e-06	0	42	0	180355072	13	4022
2026-01-17 16:36:56.92	231.65	8.71	-26.4	-27.0	14.3	0.00e+00	0	42	0	202375168	13	3866
2026-01-17 16:36:59.93	232.04	8.87	-26.7	-27.7	13.9	0.00e+00	0	42	0	223346688	13	4049
2026-01-17 16:37:02.94	232.43	9.03	-26.5	-27.3	14.2	0.00e+00	0	42	0	245366784	13	3929
2026-01-17 16:37:05.94	232.83	9.20	-26.7	-27.8	13.9	2.20e-06	0	42	0	267386880	13	4067
2026-01-17 16:37:08.93	233.24	9.36	-27.0	-28.4	13.5	1.14e-05	0	42	0	288358400	13	4225
2026-01-17 16:37:11.93	233.64	9.53	-27.0	-28.4	13.5	1.60e-05	0	42	0	310378496	13	4244
2026-01-17 16:37:14.95	234.06	9.69	-26.4	-27.0	14.3	2.20e-06	0	43	0	332398592	13	3871
2026-01-17 16:37:17.95	234.47	9.85	-26.7	-27.7	14.0	5.70e-06	0	42	0	354418688	13	4036
2026-01-17 16:37:20.96	234.90	10.02	-26.4	-27.0	14.4	0.00e+00	0	43	0	375390208	13	3861
2026-01-17 16:37:23.96	235.32	10.18	-26.5	-27.3	14.2	0.00e+00	0	43	0	397410304	13	3925
2026-01-17 16:37:26.96	235.75	10.34	-26.4	-27.1	14.3	2.20e-06	0	43	0	418381824	13	3891
2026-01-17 16:37:29.96	236.19	10.51	-26.6	-27.4	14.2	1.10e-06	0	43	0	440401920	13	3953
2026-01-17 16:37:32.96	236.63	10.67	-26.0	-26.0	15.0	0.00e+00	0	43	0	462422016	13	3629
2026-01-17 16:37:35.98	237.07	10.83	-25.9	-26.4	15.0	1.10e-06	0	43	0	483393536	12	3809
2026-01-17 16:37:38.98	237.52	10.99	-25.9	-26.4	15.1	0.00e+00	0	43	0	505413632	12	3812
2026-01-17 16:37:41.99	237.98	11.15	-25.9	-26.4	15.1	0.00e+00	0	43	0	527433728	12	3801
2026-01-17 16:37:44.99	238.44	11.31	-26.0	-26.6	15.0	0.00e+00	0	43	0	548405248	12	3872
2026-01-17 16:37:47.98	238.90	11.47	-26.1	-26.8	14.9	0.00e+00	0	43	0	570425344	12	3904
2026-01-17 16:37:50.98	239.37	11.63	-26.1	-26.8	14.8	1.10e-06	0	43	0	592445440	12	3921
2026-01-17 16:37:53.99	239.84	11.79	-25.9	-26.3	15.1	0.00e+00	0	43	0	613416960	12	3802
2026-01-17 16:37:57.00	240.32	11.95	-25.9	-26.3	15.2	0.00e+00	0	43	0	635437056	12	3789
2026-01-17 16:38:00.00	240.80	12.10	-25.8	-26.1	15.3	0.00e+00	0	43	0	657457152	12	3738
2026-01-17 16:38:02.99	241.29	12.26	-25.9	-26.5	15.1	0.00e+00	0	43	0	678428672	12	3828
2026-01-17 16:38:06.01	241.79	12.41	-25.9	-26.4	15.2	0.00e+00	0	43	0	700448768	12	3815
2026-01-17 16:38:09.01	242.29	12.57	-25.7	-26.0	15.4	0.00e+00	0	44	0	722468864	12	3728
2026-01-17 16:38:12.01	242.79	12.72	-25.5	-25.5	15.6	0.00e+00	0	43	0	744488960	12	3612
2026-01-17 16:38:15.02	243.30	12.87	-25.5	-25.6	15.6	0.00e+00	0	43	0	765460480	12	3624
2026-01-17 16:38:18.03	243.81	13.02	-25.6	-25.8	15.5	0.00e+00	0	43	0	787480576	12	3675
2026-01-17 16:38:21.04	244.33	13.17	-25.6	-25.8	15.5	0.00e+00	0	43	0	809500672	12	3678
2026-01-17 16:38:24.05	244.86	13.32	-25.5	-25.5	15.7	0.00e+00	0	43	0	831520768	12	3603
2026-01-17 16:38:27.06	245.39	13.47	-25.4	-25.8	15.9	0.00e+00	0	43	0	852492288	11	3776
2026-01-17 16:38:30.07	245.93	13.61	-25.6	-26.3	15.6	0.00e+00	0	44	0	874512384	11	3886
2026-01-17 16:38:33.07	246.46	13.76	-25.5	-26.0	15.8	0.00e+00	0	43	0	896532480	11	3813
2026-01-17 16:38:36.07	247.01	13.90	-25.3	-25.7	16.0	0.00e+00	0	43	0	917504000	11	3733
2026-01-17 16:38:39.09	247.56	14.04	-25.2	-25.4	16.1	0.00e+00	0	43	0	939524096	11	3676
2026-01-17 16:38:42.09	248.11	14.18	-25.3	-25.7	16.0	0.00e+00	0	44	0	960495616	11	3735
2026-01-17 16:38:45.10	248.68	14.32	-25.2	-25.3	16.2	0.00e+00	0	43	0	982515712	11	3641
2026-01-17 16:38:48.09	249.24	14.45	-25.4	-25.8	15.9	0.00e+00	0	44	0	1004535808	11	3777
2026-01-17 16:38:51.10	249.81	14.59	-25.5	-25.9	15.9	0.00e+00	0	44	0	1026555904	11	3797
2026-01-17 16:38:54.10	250.38	14.72	-25.4	-25.8	16.0	0.00e+00	0	43	0	1047527424	11	3764
2026-01-17 16:38:57.10	250.96	14.85	-25.4	-25.7	16.0	0.00e+00	0	44	0	1069547520	11	3750
2026-01-17 16:39:00.11	251.55	14.98	-25.3	-25.5	16.2	0.00e+00	0	44	0	1091567616	11	3690
2026-01-17 16:39:03.12	252.14	15.10	-25.3	-25.6	16.1	0.00e+00	0	44	0	1112539136	11	3718
2026-01-17 16:39:06.13	252.73	15.23	-25.4	-25.9	16.0	0.00e+00	0	44	0	1134559232	11	3777
2026-01-17 16:39:09.12	253.33	15.35	-25.2	-25.3	16.3	0.00e+00	0	44	0	1156579328	11	3653
2026-01-17 16:39:12.13	253.93	15.47	-25.3	-25.5	16.2	3.40e-06	0	44	0	1177550848	11	3693
2026-01-17 16:39:15.13	254.54	15.58	-25.2	-25.4	16.2	0.00e+00	0	44	0	1199570944	11	3673
2026-01-17 16:39:18.13	255.15	15.70	-25.2	-25.5	16.2	1.10e-06	0	44	0	1221591040	11	3688
2026-01-17 16:39:21.13	255.77	15.81	-25.2	-25.3	16.3	5.70e-06	0	44	0	1242562560	11	3654
2026-01-17 16:39:24.12	256.39	15.92	-25.9	-26.8	15.5	0.00e+00	0	44	0	1264582656	11	4006
2026-01-17 16:39:27.12	257.01	16.02	-25.5	-26.0	15.9	0.00e+00	0	44	0	1286602752	11	3821
2026-01-17 16:39:30.13	257.65	16.13	-25.6	-26.3	15.7	1.10e-06	0	44	0	1307574272	11	3871
2026-01-17 16:39:33.12	258.28	16.23	-25.1	-25.2	16.4	5.70e-06	0	44	0	1329594368	11	3618
2026-01-17 16:39:36.13	258.92	16.32	-24.9	-25.1	16.6	4.50e-06	0	44	0	1351614464	10	3714
2026-01-17 16:39:39.13	259.56	16.42	-24.8	-25.0	16.7	0.00e+00	0	44	0	1372585984	10	3679
2026-01-17 16:39:42.14	260.21	16.51	-24.8	-24.9	16.7	0.00e+00	0	44	0	1394606080	10	3666
2026-01-17 16:39:45.16	260.86	16.60	-24.8	-25.0	16.7	0.00e+00	0	44	0	1416626176	10	3694
2026-01-17 16:39:48.16	261.51	16.68	-25.0	-25.5	16.5	0.00e+00	0	44	0	1438646272	10	3784
2026-01-17 16:39:51.17	262.17	16.76	-24.7	-24.7	16.9	0.00e+00	0	44	0	1459617792	10	3604
2026-01-17 16:39:54.17	262.83	16.84	-24.5	-24.4	17.1	0.00e+00	0	44	0	1481637888	10	3536
2026-01-17 16:39:57.17	263.49	16.92	-24.7	-24.7	16.9	0.00e+00	0	44	0	1503657984	10	3619
2026-01-17 16:40:00.17	264.16	16.99	-24.9	-25.2	16.6	0.00e+00	0	44	0	1524629504	10	3721
2026-01-17 16:40:03.18	264.83	17.06	-24.7	-24.7	16.9	0.00e+00	0	44	0	1546649600	10	3610
2026-01-17 16:40:06.20	265.51	17.12	-24.8	-25.0	16.7	0.00e+00	0	44	0	1568669696	10	3680
2026-01-17 16:40:09.20	266.18	17.18	-25.0	-25.5	16.4	0.00e+00	0	44	0	1589641216	10	3799
2026-01-17 16:40:12.20	266.86	17.24	-25.1	-25.6	16.4	0.00e+00	0	44	0	1611661312	10	3825
2026-01-17 16:40:15.21	267.54	17.29	-24.8	-24.9	16.8	0.00e+00	0	44	0	1633681408	10	3662
2026-01-17 16:40:18.21	268.22	17.34	-24.6	-24.5	17.0	0.00e+00	0	44	0	1654652928	10	3566
2026-01-17 16:40:21.22	268.91	17.39	-24.7	-24.7	16.9	0.00e+00	0	44	0	1676673024	10	3617
2026-01-17 16:40:24.24	269.60	17.43	-24.8	-25.0	16.7	0.00e+00	0	44	0	1698693120	10	3677
2026-01-17 16:40:27.26	270.29	17.47	-24.9	-25.1	16.7	0.00e+00	0	44	0	1720713216	10	3716
2026-01-17 16:40:30.27	270.98	17.50	-24.8	-24.9	16.8	0.00e+00	0	44	0	1741684736	10	3650
2026-01-17 16:40:33.26	271.67	17.53	-24.9	-25.1	16.7	0.00e+00	0	44	0	1763704832	10	3708
2026-01-17 16:40:36.27	272.36	17.56	-24.7	-24.7	16.9	0.00e+00	0	44	0	1785724928	10	3610
2026-01-17 16:40:39.27	273.06	17.58	-24.7	-24.8	16.8	0.00e+00	0	44	0	1806696448	10	3633
2026-01-17 16:40:42.26	273.75	17.60	-24.7	-24.7	16.9	0.00e+00	0	44	0	1828716544	10	3613
2026-01-17 16:40:45.27	274.44	17.61	-24.8	-25.0	16.7	0.00e+00	0	44	0	1850736640	10	3678
2026-01-17 16:40:48.27	275.14	17.62	-24.8	-25.1	16.7	0.00e+00	0	44	0	1871708160	10	3701
2026-01-17 16:40:51.28	275.84	17.63	-24.8	-25.0	16.7	0.00e+00	0	44	0	1893728256	10	3676
2026-01-17 16:40:54.28	276.53	17.63	-24.5	-24.4	17.0	0.00e+00	0	44	0	1915748352	10	3553
2026-01-17 16:40:57.29	277.23	17.63	-24.7	-24.8	16.8	0.00e+00	0	44	0	1936719872	10	3628
2026-01-17 16:41:00.27	277.92	17.62	-24.8	-25.0	16.7	0.00e+00	0	44	0	1958739968	10	3685
2026-01-17 16:41:03.26	278.61	17.61	-24.5	-24.2	17.1	0.00e+00	0	44	0	1980760064	10	3506
2026-01-17 16:41:06.26	279.31	17.60	-24.7	-24.8	16.8	0.00e+00	0	44	0	2001731584	10	3638
2026-01-17 16:41:09.27	280.00	17.58	-25.0	-25.5	16.5	0.00e+00	0	44	0	2023751680	10	3799
2026-01-17 16:41:12.28	280.69	17.56	-24.9	-25.2	16.6	0.00e+00	0	44	0	2045771776	10	3733
2026-01-17 16:41:15.28	281.39	17.53	-24.8	-25.0	16.7	0.00e+00	0	44	0	2066743296	10	3690
2026-01-17 16:41:18.29	282.08	17.50	-24.7	-24.9	16.8	0.00e+00	0	44	0	2088763392	10	3649
2026-01-17 16:41:21.29	282.77	17.47	-24.8	-25.1	16.7	0.00e+00	0	44	0	2109734912	10	3703
2026-01-17 16:41:24.29	283.45	17.43	-24.8	-25.1	16.7	0.00e+00	0	44	0	2131755008	10	3698
2026-01-17 16:41:27.30	284.14	17.39	-24.8	-25.0	16.7	0.00e+00	0	44	0	2153775104	10	3690
2026-01-17 16:41:30.31	284.82	17.34	-24.8	-25.0	16.7	0.00e+00	0	44	0	2175795200	10	3674
2026-01-17 16:41:33.31	285.51	17.29	-24.7	-24.8	16.8	0.00e+00	0	44	0	2196766720	10	3626
2026-01-17 16:41:36.31	286.18	17.24	-24.7	-24.7	16.9	0.00e+00	0	44	0	2218786816	10	3615
2026-01-17 16:41:39.31	286.86	17.18	-24.9	-25.2	16.6	0.00e+00	0	44	0	2240806912	10	3720
2026-01-17 16:41:42.31	287.53	17.12	-25.0	-25.4	16.5	0.00e+00	0	44	0	2261778432	10	3776
2026-01-17 16:41:45.32	288.20	17.06	-25.0	-25.4	16.5	0.00e+00	0	44	0	2283798528	10	3771
2026-01-17 16:41:48.31	288.87	16.99	-24.9	-25.3	16.6	0.00e+00	0	44	0	2305818624	10	3743
2026-01-17 16:41:51.32	289.54	16.92	-24.9	-25.2	16.6	0.00e+00	0	44	0	2326790144	10	3725
2026-01-17 16:41:54.31	290.20	16.84	-25.0	-25.5	16.4	0.00e+00	0	44	0	2348810240	10	3800
2026-01-17 16:41:57.32	290.86	16.76	-25.2	-25.8	16.2	0.00e+00	0	44	0	2370830336	10	3874
2026-01-17 16:42:00.33	291.51	16.68	-25.1	-25.6	16.4	0.00e+00	0	44	0	2391801856	10	3822
2026-01-17 16:42:03.33	292.16	16.60	-25.3	-26.1	16.1	0.00e+00	0	44	0	2413821952	10	3941
2026-01-17 16:42:06.33	292.81	16.51	-25.1	-25.6	16.3	0.00e+00	0	44	0	2435842048	10	3829
2026-01-17 16:42:09.32	293.45	16.42	-24.9	-25.3	16.5	0.00e+00	0	44	0	2456813568	10	3741
2026-01-17 16:42:12.33	294.09	16.33	-25.1	-25.7	16.3	0.00e+00	0	44	0	2478833664	10	3834
2026-01-17 16:42:15.32	294.73	16.23	-25.3	-26.0	16.1	0.00e+00	0	44	0	2500853760	10	3915
2026-01-17 16:42:18.32	295.36	16.13	-25.2	-25.7	16.3	0.00e+00	0	44	0	2521825280	10	3851
2026-01-17 16:42:21.33	295.99	16.03	-25.2	-25.8	16.3	0.00e+00	0	44	0	2543845376	10	3859
2026-01-17 16:42:24.33	296.61	15.92	-25.1	-25.7	16.2	0.00e+00	0	44	0	2565865472	10	3846
2026-01-17 16:42:27.33	297.23	15.81	-25.0	-25.4	16.4	0.00e+00	0	44	0	2586836992	10	3782
2026-01-17 16:42:30.33	297.85	15.70	-25.1	-25.7	16.3	0.00e+00	0	44	0	2608857088	10	3846
2026-01-17 16:42:33.34	298.46	15.59	-25.3	-26.0	16.1	0.00e+00	0	44	0	2629828608	10	3921
2026-01-17 16:42:36.35	299.06	15.47	-25.3	-26.0	16.1	0.00e+00	0	44	0	2651848704	10	3917
2026-01-17 16:42:39.35	299.66	15.35	-25.4	-26.3	16.0	0.00e+00	0	44	0	2673868800	10	3986
2026-01-17 16:42:42.34	300.26	15.23	-25.6	-26.2	15.7	0.00e+00	0	44	0	2694840320	11	3870
2026-01-17 16:42:45.35	300.85	15.11	-25.9	-26.8	15.4	0.00e+00	0	44	0	2716860416	11	4004
2026-01-17 16:42:48.36	301.44	14.99	-25.8	-26.6	15.5	0.00e+00	0	44	0	2738880512	11	3957
2026-01-17 16:42:51.37	302.02	14.86	-25.6	-26.2	15.7	0.00e+00	0	44	0	2760900608	11	3870
2026-01-17 16:42:54.38	302.60	14.73	-25.5	-26.0	15.8	0.00e+00	0	44	0	2781872128	11	3817
2026-01-17 16:42:57.38	303.17	14.60	-25.6	-26.1	15.7	0.00e+00	0	44	0	2803892224	11	3845
2026-01-17 16:43:00.37	303.74	14.47	-25.5	-26.1	15.8	0.00e+00	0	44	0	2825912320	11	3831
2026-01-17 16:43:03.36	304.30	14.33	-25.6	-26.2	15.7	0.00e+00	0	44	0	2846883840	11	3852
2026-01-17 16:43:06.36	304.86	14.20	-25.4	-25.9	15.9	0.00e+00	0	44	0	2868903936	11	3785
2026-01-17 16:43:09.36	305.41	14.06	-25.6	-26.2	15.7	1.10e-06	0	44	0	2890924032	11	3866
2026-01-17 16:43:12.37	305.96	13.92	-25.7	-26.4	15.5	0.00e+00	0	44	0	2911895552	11	3912
2026-01-17 16:43:15.37	306.50	13.78	-25.8	-26.6	15.5	0.00e+00	0	44	0	2933915648	11	3949
2026-01-17 16:43:18.36	307.03	13.63	-25.7	-26.3	15.6	0.00e+00	0	44	0	2955935744	11	3897
2026-01-17 16:43:21.35	307.56	13.49	-25.8	-26.7	15.4	0.00e+00	0	44	0	2976907264	11	3984
2026-01-17 16:43:24.36	308.09	13.34	-25.6	-26.3	15.6	0.00e+00	0	44	0	2998927360	11	3884
2026-01-17 16:43:27.36	308.61	13.20	-25.7	-26.3	15.6	0.00e+00	0	44	0	3020947456	11	3896
2026-01-17 16:43:30.37	309.13	13.05	-25.9	-26.9	15.3	0.00e+00	0	44	0	3041918976	11	4027
2026-01-17 16:43:33.37	309.64	12.90	-26.0	-27.0	15.2	1.10e-06	0	44	0	3063939072	11	4062
2026-01-17 16:43:36.37	310.15	12.75	-26.0	-26.5	15.1	0.00e+00	0	44	0	3085959168	12	3834
2026-01-17 16:43:39.38	310.65	12.60	-25.9	-26.5	15.1	0.00e+00	0	44	0	3106930688	12	3830
2026-01-17 16:43:42.39	311.15	12.45	-26.0	-26.6	15.1	0.00e+00	0	44	0	3128950784	12	3856
2026-01-17 16:43:45.39	311.64	12.29	-26.1	-26.9	14.9	0.00e+00	0	44	0	3149922304	12	3937
2026-01-17 16:43:48.40	312.13	12.14	-26.1	-26.9	14.9	0.00e+00	0	44	0	3171942400	12	3922
2026-01-17 16:43:51.40	312.61	11.98	-26.1	-26.8	14.9	0.00e+00	0	44	0	3193962496	12	3907
2026-01-17 16:43:54.40	313.09	11.83	-26.1	-26.8	14.9	0.00e+00	0	44	0	3215982592	12	3908
2026-01-17 16:43:57.41	313.56	11.67	-26.1	-26.9	14.8	0.00e+00	0	44	0	3236954112	12	3936
2026-01-17 16:44:00.43	314.03	11.51	-26.2	-27.1	14.7	1.10e-06	0	44	0	3258974208	12	3991
2026-01-17 16:44:03.43	314.49	11.35	-26.2	-27.2	14.7	0.00e+00	0	44	0	3280994304	12	4000
2026-01-17 16:44:06.43	314.95	11.20	-26.5	-27.3	14.3	1.10e-06	0	44	0	3301965824	13	3931
2026-01-17 16:44:09.42	315.40	11.04	-26.4	-26.9	14.5	1.10e-06	0	44	0	3323985920	13	3839
2026-01-17 16:44:12.42	315.85	10.88	-26.2	-26.5	14.7	1.10e-06	0	44	0	3346006016	13	3741
2026-01-17 16:44:15.43	316.29	10.72	-26.2	-26.5	14.7	0.00e+00	0	44	0	3366977536	13	3736
2026-01-17 16:44:18.43	316.73	10.56	-26.0	-26.7	14.9	0.00e+00	0	44	0	3388997632	12	3891
2026-01-17 16:44:21.42	317.16	10.40	-26.1	-26.9	14.8	0.00e+00	0	44	0	3411017728	12	3935
2026-01-17 16:44:24.43	317.59	10.24	-26.5	-27.8	14.2	2.20e-06	0	44	0	3431989248	12	4177
2026-01-17 16:44:27.43	318.02	10.07	-26.8	-28.0	13.8	3.40e-06	0	44	0	3454009344	13	4116
2026-01-17 16:44:30.43	318.44	9.91	-26.7	-27.7	14.0	4.50e-06	0	44	0	3476029440	13	4033
2026-01-17 16:44:33.44	318.86	9.75	-26.9	-28.3	13.7	1.02e-05	0	44	0	3497000960	13	4189
2026-01-17 16:44:36.43	319.27	9.59	-27.1	-28.1	13.5	1.48e-05	0	44	0	3519021056	14	4046
2026-01-17 16:44:39.44	319.67	9.43	-26.9	-27.6	13.8	6.80e-06	0	44	0	3541041152	14	3906
2026-01-17 16:44:42.44	320.08	9.26	-27.0	-28.0	13.5	1.71e-05	0	44	0	3562012672	14	4010
2026-01-17 16:44:45.44	320.47	9.10	-26.8	-27.5	13.8	1.83e-05	0	44	0	3584032768	14	3891
2026-01-17 16:44:48.44	320.87	8.94	-27.1	-28.2	13.4	1.94e-05	0	44	0	3606052864	14	4057
2026-01-17 16:44:51.44	321.26	8.78	-26.8	-27.5	13.8	5.70e-06	0	44	0	3627024384	14	3882
2026-01-17 16:44:54.44	321.64	8.61	-27.1	-28.1	13.4	2.74e-05	0	44	0	3649044480	14	4034
2026-01-17 16:44:57.44	322.02	8.45	-26.9	-27.7	13.6	1.37e-05	0	44	0	3670016000	14	3951
2026-01-17 16:45:00.45	322.40	8.29	-27.1	-28.2	13.3	1.33e-03	0	44	0	3692036096	14	4076
2026-01-17 16:45:03.46	322.78	8.12	-27.2	-28.4	13.2	2.74e-05	0	44	0	3714056192	14	4122
2026-01-17 16:45:06.46	323.15	7.96	-26.9	-28.2	13.5	1.76e-03	0	44	0	3736076288	13	4180
2026-01-17 16:45:09.46	323.51	7.80	-27.1	-28.1	13.3	1.91e-03	0	44	0	3757047808	14	4032
2026-01-17 16:45:12.48	323.87	7.63	-27.2	-28.3	13.2	1.60e-03	0	44	0	3779067904	14	4093
2026-01-17 16:45:15.48	324.23	7.47	-27.5	-29.0	12.8	5.95e-05	0	44	0	3801088000	14	4292
2026-01-17 16:45:18.49	324.59	7.31	-27.6	-29.3	12.6	8.92e-05	0	44	0	3822059520	14	4378
2026-01-17 16:45:21.50	324.94	7.15	-27.2	-28.4	13.0	4.92e-05	0	44	0	3844079616	14	4142
2026-01-17 16:45:24.51	325.28	6.98	-33.6	-43.5	3.8	8.45e-01	0	44	104	3854565376	26	11353

#Closed at: 2026-01-17 16:45:25
#Recorded file [3854 MB]: D:/data/31010_260117_193628.dat