passes_logs/2026/01/17/R2M6_AANII_01/R2M6_AANII_01__20260117_130935_FENGYUN_3D_rec.log

#Pass ID: 20260117_130935_FENGYUN 3D
#Satellite: FENGYUN 3D
#Configuration: FENGYUN 3D
#almurnet v.1.7.20240730
#Start time: 2026-01-17 13:09:35

#Version: 2.2.20231116
#Station: R2M6_AANII_01
#Location: 30.233357 lon 59.946436 lat
#TLE: 1 43010U 17072A   26016.62453405 -.00000112  00000+0 -31355-4 0  9995
#TLE: 2 43010  98.9932 348.4654 0002369 105.3910 254.7528 14.19694900423480

#Time	Az	El	Level	Level2	SNR	BER	BlckErr	Temp	State	Recorded	gain1	gain2
2026-01-17 13:09:35.72	185.08	7.03	-26.7	-28.3	5.9	7.66e-01	0	41	0	0	14	4280
2026-01-17 13:09:38.72	185.23	7.26	-28.1	-30.4	12.5	9.38e-05	0	41	0	5242880	16	4690
2026-01-17 13:09:41.73	185.38	7.48	-27.9	-30.3	12.7	9.10e-06	0	41	0	22020096	15	4781
2026-01-17 13:09:44.73	185.54	7.71	-27.4	-29.3	13.4	6.80e-06	0	41	0	38797312	15	4463
2026-01-17 13:09:47.73	185.69	7.94	-27.4	-29.2	13.4	9.10e-06	0	41	0	55574528	15	4450
2026-01-17 13:09:50.73	185.85	8.17	-27.4	-29.2	13.5	9.10e-06	0	42	0	73400320	15	4441
2026-01-17 13:09:53.74	186.01	8.40	-26.9	-28.5	14.2	0.00e+00	0	41	0	90177536	14	4328
2026-01-17 13:09:56.75	186.18	8.63	-26.8	-28.2	14.4	0.00e+00	0	41	0	106954752	14	4253
2026-01-17 13:09:59.76	186.35	8.87	-26.4	-27.4	14.8	1.10e-06	0	41	0	123731968	14	4035
2026-01-17 13:10:02.77	186.52	9.11	-26.6	-27.7	14.7	0.00e+00	0	42	0	140509184	14	4124
2026-01-17 13:10:05.77	186.69	9.35	-26.2	-27.3	15.2	0.00e+00	0	42	0	157286400	13	4120
2026-01-17 13:10:08.78	186.87	9.59	-26.2	-27.3	15.2	0.00e+00	0	42	0	174063616	13	4121
2026-01-17 13:10:11.80	187.04	9.84	-26.0	-26.9	15.5	0.00e+00	0	42	0	190840832	13	4017
2026-01-17 13:10:14.81	187.23	10.09	-25.8	-26.6	15.6	0.00e+00	0	42	0	208666624	13	3946
2026-01-17 13:10:17.81	187.41	10.34	-26.3	-27.7	15.1	0.00e+00	0	42	0	225443840	13	4216
2026-01-17 13:10:20.81	187.60	10.59	-26.2	-27.4	15.3	0.00e+00	0	42	0	242221056	13	4128
2026-01-17 13:10:23.82	187.79	10.84	-26.3	-27.7	15.1	0.00e+00	0	42	0	258998272	13	4228
2026-01-17 13:10:26.81	187.98	11.10	-26.1	-27.3	15.3	0.00e+00	0	42	0	275775488	13	4111
2026-01-17 13:10:29.83	188.17	11.36	-26.0	-27.1	15.4	0.00e+00	0	42	0	292552704	13	4054
2026-01-17 13:10:32.84	188.37	11.62	-25.8	-27.1	15.7	0.00e+00	0	42	0	309329920	12	4165
2026-01-17 13:10:35.85	188.58	11.88	-25.7	-26.8	15.9	0.00e+00	0	42	0	326107136	12	4087
2026-01-17 13:10:38.84	188.78	12.15	-25.4	-26.1	16.3	0.00e+00	0	42	0	343932928	12	3911
2026-01-17 13:10:41.85	188.99	12.42	-25.6	-26.7	16.0	0.00e+00	0	42	0	360710144	12	4056
2026-01-17 13:10:44.86	189.21	12.69	-25.6	-26.6	16.1	0.00e+00	0	43	0	377487360	12	4030
2026-01-17 13:10:47.87	189.43	12.97	-25.6	-26.5	16.1	0.00e+00	0	42	0	394264576	12	4009
2026-01-17 13:10:50.88	189.65	13.24	-25.6	-26.7	16.0	0.00e+00	0	43	0	411041792	12	4063
2026-01-17 13:10:53.88	189.87	13.52	-25.5	-26.8	16.4	0.00e+00	0	42	0	427819008	11	4184
2026-01-17 13:10:56.89	190.10	13.81	-25.6	-27.0	16.2	0.00e+00	0	43	0	444596224	11	4241
2026-01-17 13:10:59.89	190.34	14.09	-25.5	-26.9	16.3	0.00e+00	0	43	0	461373440	11	4228
2026-01-17 13:11:02.90	190.58	14.38	-25.6	-27.0	16.3	0.00e+00	0	43	0	479199232	11	4235
2026-01-17 13:11:05.91	190.82	14.67	-25.7	-27.2	16.2	0.00e+00	0	43	0	495976448	11	4294
2026-01-17 13:11:08.92	191.07	14.97	-25.6	-27.0	16.3	0.00e+00	0	43	0	512753664	11	4252
2026-01-17 13:11:11.93	191.32	15.27	-25.1	-26.0	16.9	0.00e+00	0	43	0	529530880	11	3974
2026-01-17 13:11:14.94	191.58	15.57	-24.8	-25.8	17.3	0.00e+00	0	43	0	546308096	10	4036
2026-01-17 13:11:17.95	191.84	15.88	-25.0	-26.2	17.1	0.00e+00	0	43	0	563085312	10	4143
2026-01-17 13:11:20.96	192.11	16.18	-25.1	-26.4	17.0	0.00e+00	0	43	0	579862528	10	4194
2026-01-17 13:11:23.97	192.38	16.50	-24.9	-26.0	17.2	0.00e+00	0	43	0	596639744	10	4081
2026-01-17 13:11:26.97	192.66	16.81	-25.1	-26.5	16.9	0.00e+00	0	43	0	614465536	10	4226
2026-01-17 13:11:29.98	192.94	17.13	-24.5	-25.2	17.6	0.00e+00	0	43	0	631242752	10	3884
2026-01-17 13:11:32.99	193.23	17.45	-24.6	-25.5	17.5	0.00e+00	0	43	0	648019968	10	3961
2026-01-17 13:11:36.02	193.53	17.78	-24.6	-25.3	17.6	0.00e+00	0	43	0	664797184	10	3918
2026-01-17 13:11:39.03	193.83	18.11	-24.3	-24.8	17.9	0.00e+00	0	43	0	681574400	10	3803
2026-01-17 13:11:42.04	194.14	18.44	-24.2	-25.0	18.0	0.00e+00	0	43	0	699400192	9	3949
2026-01-17 13:11:45.04	194.46	18.78	-24.3	-25.2	17.9	0.00e+00	0	43	0	716177408	9	4009
2026-01-17 13:11:48.04	194.78	19.12	-24.2	-25.1	17.9	0.00e+00	0	43	0	732954624	9	3989
2026-01-17 13:11:51.06	195.11	19.46	-24.2	-25.1	18.0	0.00e+00	0	43	0	749731840	9	3980
2026-01-17 13:11:54.07	195.45	19.81	-23.9	-24.5	18.3	0.00e+00	0	43	0	766509056	9	3833
2026-01-17 13:11:57.07	195.79	20.16	-24.0	-24.6	18.2	0.00e+00	0	43	0	783286272	9	3862
2026-01-17 13:12:00.08	196.14	20.52	-24.0	-24.7	18.2	0.00e+00	0	43	0	800063488	9	3872
2026-01-17 13:12:03.08	196.50	20.88	-24.0	-24.7	18.2	0.00e+00	0	43	0	817889280	9	3878
2026-01-17 13:12:06.08	196.87	21.24	-24.0	-24.6	18.2	0.00e+00	0	43	0	834666496	9	3870
2026-01-17 13:12:09.10	197.25	21.61	-23.8	-24.7	18.5	0.00e+00	0	43	0	851443712	8	3980
2026-01-17 13:12:12.12	197.63	21.99	-23.7	-24.5	18.6	0.00e+00	0	43	0	868220928	8	3933
2026-01-17 13:12:15.12	198.03	22.36	-23.7	-24.6	18.6	0.00e+00	0	43	0	884998144	8	3956
2026-01-17 13:12:18.11	198.43	22.74	-23.9	-25.0	18.4	0.00e+00	0	43	0	901775360	8	4050
2026-01-17 13:12:21.12	198.84	23.13	-23.4	-24.0	18.9	5.70e-06	0	43	0	918552576	8	3820
2026-01-17 13:12:24.13	199.26	23.52	-23.6	-24.3	18.8	0.00e+00	0	43	0	935329792	8	3881
2026-01-17 13:12:27.14	199.70	23.91	-23.3	-23.6	19.1	0.00e+00	0	43	0	953155584	8	3745
2026-01-17 13:12:30.14	200.14	24.31	-23.2	-23.9	19.2	5.70e-06	0	43	0	969932800	7	3906
2026-01-17 13:12:33.14	200.60	24.71	-23.2	-24.0	19.1	4.50e-06	0	43	0	986710016	7	3934
2026-01-17 13:12:36.15	201.07	25.12	-23.1	-23.6	19.3	5.70e-06	0	43	0	1003487232	7	3845
2026-01-17 13:12:39.16	201.55	25.53	-23.1	-23.7	19.3	8.00e-06	0	43	0	1020264448	7	3870
2026-01-17 13:12:42.17	202.04	25.95	-23.1	-23.7	19.3	3.40e-06	0	43	0	1037041664	7	3863
2026-01-17 13:12:45.19	202.54	26.37	-23.0	-23.5	19.4	2.20e-06	0	43	0	1053818880	7	3817
2026-01-17 13:12:48.19	203.06	26.80	-23.0	-23.5	19.4	3.40e-06	0	43	0	1070596096	7	3815
2026-01-17 13:12:51.19	203.59	27.22	-23.0	-23.6	19.4	0.00e+00	0	43	0	1088421888	7	3836
2026-01-17 13:12:54.20	204.14	27.66	-23.1	-23.7	19.3	0.00e+00	0	43	0	1105199104	7	3856
2026-01-17 13:12:57.20	204.70	28.09	-22.8	-23.1	19.6	0.00e+00	0	43	0	1121976320	7	3719
2026-01-17 13:13:00.20	205.27	28.53	-23.0	-23.5	19.5	0.00e+00	0	43	0	1138753536	7	3811
2026-01-17 13:13:03.21	205.86	28.98	-23.1	-23.6	19.3	0.00e+00	0	43	0	1155530752	7	3845
2026-01-17 13:13:06.21	206.47	29.43	-23.0	-23.5	19.4	0.00e+00	0	43	0	1172307968	7	3817
2026-01-17 13:13:09.21	207.09	29.88	-22.9	-23.2	19.6	0.00e+00	0	43	0	1189085184	7	3757
2026-01-17 13:13:12.21	207.73	30.33	-22.9	-23.3	19.5	0.00e+00	0	43	0	1205862400	7	3772
2026-01-17 13:13:15.21	208.39	30.79	-22.9	-23.2	19.6	0.00e+00	0	43	0	1222639616	7	3752
2026-01-17 13:13:18.23	209.07	31.25	-23.0	-23.6	19.5	0.00e+00	0	43	0	1240465408	7	3827
2026-01-17 13:13:21.24	209.77	31.72	-22.7	-23.4	19.8	0.00e+00	0	43	0	1257242624	6	3897
2026-01-17 13:13:24.25	210.49	32.19	-22.8	-23.6	19.7	0.00e+00	0	43	0	1274019840	6	3950
2026-01-17 13:13:27.26	211.23	32.66	-23.0	-24.0	19.5	0.00e+00	0	43	0	1290797056	6	4049
2026-01-17 13:13:30.27	211.99	33.13	-23.4	-24.8	19.1	0.00e+00	0	43	0	1307574272	6	4230
2026-01-17 13:13:33.28	212.77	33.61	-23.1	-23.7	19.6	0.00e+00	0	43	0	1324351488	7	3847
2026-01-17 13:13:36.29	213.57	34.08	-23.2	-23.9	19.5	0.00e+00	0	43	0	1341128704	7	3889
2026-01-17 13:13:39.28	214.40	34.56	-22.8	-23.1	19.9	0.00e+00	0	43	0	1358954496	7	3709
2026-01-17 13:13:42.29	215.25	35.04	-22.6	-23.2	20.2	0.00e+00	0	43	0	1375731712	6	3823
2026-01-17 13:13:45.30	216.13	35.51	-22.7	-23.4	20.0	0.00e+00	0	43	0	1392508928	6	3877
2026-01-17 13:13:48.30	217.03	35.99	-22.9	-23.6	19.9	0.00e+00	0	43	0	1409286144	6	3928
2026-01-17 13:13:51.32	217.96	36.47	-22.6	-23.0	20.3	0.00e+00	0	43	0	1426063360	6	3776
2026-01-17 13:13:54.33	218.92	36.94	-22.5	-22.9	20.3	0.00e+00	0	43	0	1442840576	6	3772
2026-01-17 13:13:57.33	219.90	37.41	-22.7	-23.3	20.1	0.00e+00	0	43	0	1459617792	6	3864
2026-01-17 13:14:00.33	220.91	37.88	-22.6	-23.0	20.3	0.00e+00	0	43	0	1476395008	6	3783
2026-01-17 13:14:03.34	221.95	38.35	-22.9	-23.7	19.9	0.00e+00	0	43	0	1494220800	6	3961
2026-01-17 13:14:06.35	223.02	38.81	-23.0	-23.9	19.8	0.00e+00	0	43	0	1510998016	6	3995
2026-01-17 13:14:09.35	224.12	39.26	-22.7	-23.3	20.1	0.00e+00	0	43	0	1527775232	6	3860
2026-01-17 13:14:12.36	225.25	39.72	-23.1	-24.1	19.7	0.00e+00	0	43	0	1544552448	6	4038
2026-01-17 13:14:15.36	226.41	40.16	-22.7	-23.2	20.2	0.00e+00	0	43	0	1561329664	6	3840
2026-01-17 13:14:18.36	227.60	40.59	-22.4	-22.7	20.4	0.00e+00	0	43	0	1578106880	6	3722
2026-01-17 13:14:21.38	228.83	41.02	-22.3	-22.5	20.5	0.00e+00	0	43	0	1594884096	6	3667
2026-01-17 13:14:24.38	230.08	41.44	-22.3	-22.5	20.6	0.00e+00	0	43	0	1612709888	6	3669
2026-01-17 13:14:27.37	231.36	41.84	-22.5	-22.8	20.4	0.00e+00	0	43	0	1629487104	6	3736
2026-01-17 13:14:30.38	232.68	42.24	-22.4	-22.7	20.4	0.00e+00	0	43	0	1646264320	6	3730
2026-01-17 13:14:33.39	234.04	42.62	-22.8	-23.6	20.0	0.00e+00	0	43	0	1663041536	6	3915
2026-01-17 13:14:36.39	235.42	42.98	-22.9	-23.7	19.9	0.00e+00	0	43	0	1679818752	6	3960
2026-01-17 13:14:39.40	236.83	43.34	-22.8	-23.5	20.1	0.00e+00	0	43	0	1696595968	6	3892
2026-01-17 13:14:42.41	238.28	43.67	-23.4	-24.7	19.5	0.00e+00	0	43	0	1713373184	6	4197
2026-01-17 13:14:45.42	239.76	43.99	-23.5	-24.4	19.4	0.00e+00	0	43	0	1730150400	7	4006
2026-01-17 13:14:48.42	241.26	44.29	-22.9	-23.2	20.0	0.00e+00	0	43	0	1747976192	7	3723
2026-01-17 13:14:51.41	242.78	44.57	-23.3	-24.1	19.6	0.00e+00	0	43	0	1763704832	7	3918
2026-01-17 13:14:54.41	244.33	44.83	-22.9	-23.3	19.9	0.00e+00	0	43	0	1780482048	7	3754
2026-01-17 13:14:57.42	245.91	45.06	-22.8	-23.5	20.1	0.00e+00	0	43	0	1798307840	6	3900
2026-01-17 13:15:00.44	247.52	45.28	-22.9	-23.8	20.0	0.00e+00	0	43	0	1815085056	6	3969
2026-01-17 13:15:03.44	249.14	45.47	-22.8	-23.4	20.1	0.00e+00	0	43	0	1831862272	6	3876
2026-01-17 13:15:06.44	250.77	45.64	-22.7	-23.3	20.2	0.00e+00	0	43	0	1848639488	6	3856
2026-01-17 13:15:09.44	252.43	45.78	-23.0	-23.8	19.9	0.00e+00	0	43	0	1865416704	6	3978
2026-01-17 13:15:12.46	254.10	45.90	-22.8	-23.6	20.1	0.00e+00	0	43	0	1882193920	6	3914
2026-01-17 13:15:15.47	255.79	45.99	-22.9	-23.8	20.0	0.00e+00	0	43	0	1900019712	6	3965
2026-01-17 13:15:18.48	257.48	46.05	-22.7	-23.3	20.2	0.00e+00	0	43	0	1916796928	6	3858
2026-01-17 13:15:21.47	259.16	46.09	-22.9	-23.8	20.0	0.00e+00	0	43	0	1933574144	6	3963
2026-01-17 13:15:24.47	260.85	46.10	-23.0	-23.9	19.9	0.00e+00	0	43	0	1950351360	6	3991
2026-01-17 13:15:27.49	262.56	46.08	-22.8	-23.4	20.2	0.00e+00	0	43	0	1967128576	6	3871
2026-01-17 13:15:30.49	264.24	46.04	-23.4	-24.1	19.5	0.00e+00	0	43	0	1983905792	7	3943
2026-01-17 13:15:33.50	265.93	45.97	-23.0	-23.4	19.9	0.00e+00	0	43	0	2000683008	7	3777
2026-01-17 13:15:36.52	267.62	45.87	-22.9	-23.2	20.0	0.00e+00	0	43	0	2017460224	7	3723
2026-01-17 13:15:39.51	269.27	45.75	-23.4	-24.2	19.5	0.00e+00	0	43	0	2034237440	7	3968
2026-01-17 13:15:42.51	270.92	45.60	-23.1	-23.6	19.8	0.00e+00	0	43	0	2051014656	7	3809
2026-01-17 13:15:45.51	272.55	45.43	-23.0	-23.5	19.9	0.00e+00	0	43	0	2068840448	7	3792
2026-01-17 13:15:48.53	274.17	45.23	-23.1	-23.7	19.8	0.00e+00	0	43	0	2085617664	7	3828
2026-01-17 13:15:51.53	275.76	45.01	-23.2	-23.9	19.7	0.00e+00	0	43	0	2102394880	7	3884
2026-01-17 13:15:54.54	277.34	44.77	-23.1	-23.7	19.8	0.00e+00	0	43	0	2119172096	7	3836
2026-01-17 13:15:57.54	278.88	44.50	-23.1	-23.6	19.8	0.00e+00	0	43	0	2135949312	7	3821
2026-01-17 13:16:00.55	280.40	44.22	-22.9	-23.2	20.0	0.00e+00	0	43	0	2152726528	7	3736
2026-01-17 13:16:03.56	281.90	43.91	-22.9	-23.1	20.0	0.00e+00	0	43	0	2169503744	7	3713
2026-01-17 13:16:06.56	283.36	43.59	-23.1	-23.7	19.8	0.00e+00	0	43	0	2186280960	7	3830
2026-01-17 13:16:09.56	284.79	43.26	-23.3	-24.1	19.6	0.00e+00	0	43	0	2204106752	7	3929
2026-01-17 13:16:12.56	286.19	42.90	-23.0	-23.5	19.9	0.00e+00	0	43	0	2220883968	7	3786
2026-01-17 13:16:15.56	287.56	42.53	-23.3	-24.0	19.6	0.00e+00	0	43	0	2237661184	7	3905
2026-01-17 13:16:18.58	288.91	42.15	-22.8	-23.0	20.1	0.00e+00	0	43	0	2254438400	7	3686
2026-01-17 13:16:21.58	290.21	41.75	-22.7	-23.3	20.2	0.00e+00	0	43	0	2271215616	6	3857
2026-01-17 13:16:24.58	291.49	41.35	-23.0	-23.9	19.9	0.00e+00	0	43	0	2287992832	6	3992
2026-01-17 13:16:27.57	292.73	40.93	-22.5	-22.8	20.5	0.00e+00	0	43	0	2304770048	6	3743
2026-01-17 13:16:30.57	293.94	40.51	-23.3	-24.5	19.6	0.00e+00	0	43	0	2322595840	6	4139
2026-01-17 13:16:33.58	295.12	40.07	-22.8	-23.4	20.1	0.00e+00	0	43	0	2339373056	6	3871
2026-01-17 13:16:36.58	296.27	39.63	-22.6	-23.0	20.4	0.00e+00	0	43	0	2356150272	6	3779
2026-01-17 13:16:39.58	297.39	39.18	-22.5	-22.9	20.4	0.00e+00	0	43	0	2372927488	6	3773
2026-01-17 13:16:42.59	298.48	38.72	-22.6	-23.0	20.4	0.00e+00	0	43	0	2389704704	6	3779
2026-01-17 13:16:45.60	299.54	38.26	-22.5	-22.9	20.4	0.00e+00	0	43	0	2406481920	6	3766
2026-01-17 13:16:48.59	300.57	37.80	-22.5	-23.0	20.4	0.00e+00	0	44	0	2423259136	6	3776
2026-01-17 13:16:51.60	301.57	37.33	-22.7	-23.4	20.2	0.00e+00	0	43	0	2440036352	6	3867
2026-01-17 13:16:54.61	302.55	36.86	-23.1	-24.2	19.7	0.00e+00	0	43	0	2456813568	6	4078
2026-01-17 13:16:57.61	303.49	36.39	-22.9	-23.7	20.0	0.00e+00	0	44	0	2473590784	6	3934
2026-01-17 13:17:00.61	304.41	35.92	-23.5	-24.5	19.3	0.00e+00	0	43	0	2490368000	7	4038
2026-01-17 13:17:03.63	305.31	35.44	-22.9	-23.3	20.0	0.00e+00	0	43	0	2508193792	7	3741
2026-01-17 13:17:06.63	306.17	34.97	-22.6	-23.1	20.2	0.00e+00	0	43	0	2524971008	6	3815
2026-01-17 13:17:09.63	307.02	34.49	-22.9	-23.8	19.9	0.00e+00	0	43	0	2541748224	6	3962
2026-01-17 13:17:12.64	307.84	34.02	-22.8	-23.5	20.1	0.00e+00	0	43	0	2558525440	6	3895
2026-01-17 13:17:15.65	308.64	33.55	-23.0	-23.9	19.8	0.00e+00	0	43	0	2575302656	6	4009
2026-01-17 13:17:18.66	309.41	33.07	-23.0	-24.0	19.8	0.00e+00	0	43	0	2592079872	6	4023
2026-01-17 13:17:21.66	310.16	32.61	-22.9	-23.6	20.0	0.00e+00	0	43	0	2608857088	6	3921
2026-01-17 13:17:24.67	310.90	32.14	-23.1	-24.1	19.7	0.00e+00	0	43	0	2625634304	6	4055
2026-01-17 13:17:27.67	311.61	31.67	-23.4	-24.3	19.4	0.00e+00	0	43	0	2643460096	7	3984
2026-01-17 13:17:30.68	312.30	31.21	-23.1	-23.5	19.8	0.00e+00	0	44	0	2660237312	7	3800
2026-01-17 13:17:33.68	312.97	30.75	-23.1	-23.7	19.7	0.00e+00	0	43	0	2677014528	7	3836
2026-01-17 13:17:36.69	313.63	30.30	-23.3	-24.0	19.5	0.00e+00	0	43	0	2693791744	7	3924
2026-01-17 13:17:39.69	314.26	29.85	-23.1	-23.7	19.7	0.00e+00	0	43	0	2710568960	7	3838
2026-01-17 13:17:42.71	314.88	29.40	-23.2	-23.7	19.6	0.00e+00	0	44	0	2727346176	7	3847
2026-01-17 13:17:45.70	315.48	28.95	-22.8	-23.4	20.0	0.00e+00	0	43	0	2744123392	6	3884
2026-01-17 13:17:48.72	316.07	28.51	-23.0	-23.9	19.8	0.00e+00	0	44	0	2760900608	6	4007
2026-01-17 13:17:51.72	316.64	28.07	-23.3	-24.6	19.4	0.00e+00	0	43	0	2778726400	6	4168
2026-01-17 13:17:54.73	317.20	27.64	-23.4	-24.8	19.3	0.00e+00	0	43	0	2795503616	6	4229
2026-01-17 13:17:57.74	317.74	27.21	-23.7	-24.9	19.0	0.00e+00	0	43	0	2812280832	7	4132
2026-01-17 13:18:00.74	318.27	26.78	-23.6	-24.2	19.1	0.00e+00	0	43	0	2829058048	8	3852
2026-01-17 13:18:03.75	318.78	26.36	-23.6	-24.1	19.2	0.00e+00	0	43	0	2845835264	8	3842
2026-01-17 13:18:06.76	319.29	25.95	-23.5	-24.0	19.3	0.00e+00	0	43	0	2862612480	8	3797
2026-01-17 13:18:09.76	319.77	25.53	-23.3	-23.6	19.4	0.00e+00	0	43	0	2879389696	8	3709
2026-01-17 13:18:12.77	320.25	25.12	-23.3	-23.6	19.4	0.00e+00	0	43	0	2897215488	8	3714
2026-01-17 13:18:15.78	320.72	24.72	-23.7	-24.4	19.0	0.00e+00	0	43	0	2913992704	8	3897
2026-01-17 13:18:18.79	321.17	24.32	-23.9	-24.9	18.7	0.00e+00	0	43	0	2930769920	8	4025
2026-01-17 13:18:21.79	321.61	23.93	-23.9	-24.8	18.8	0.00e+00	0	43	0	2947547136	8	4001
2026-01-17 13:18:24.79	322.04	23.54	-23.7	-24.4	19.0	0.00e+00	0	43	0	2964324352	8	3892
2026-01-17 13:18:27.79	322.46	23.15	-23.6	-24.2	19.1	0.00e+00	0	43	0	2981101568	8	3843
2026-01-17 13:18:30.79	322.87	22.77	-23.9	-24.9	18.7	0.00e+00	0	43	0	2997878784	8	4013
2026-01-17 13:18:33.80	323.28	22.39	-24.2	-25.4	18.5	0.00e+00	0	43	0	3014656000	8	4132
2026-01-17 13:18:36.81	323.67	22.02	-24.3	-25.6	18.3	0.00e+00	0	43	0	3031433216	8	4186
2026-01-17 13:18:39.81	324.05	21.65	-24.3	-25.6	18.3	0.00e+00	0	43	0	3049259008	8	4202
2026-01-17 13:18:42.81	324.43	21.28	-24.3	-25.7	18.3	0.00e+00	0	43	0	3066036224	8	4209
2026-01-17 13:18:45.82	324.80	20.92	-24.7	-26.0	17.9	0.00e+00	0	43	0	3082813440	9	4180
2026-01-17 13:18:48.83	325.15	20.56	-24.8	-26.3	17.7	0.00e+00	0	43	0	3099590656	9	4257
2026-01-17 13:18:51.85	325.51	20.21	-25.0	-26.6	17.5	0.00e+00	0	43	0	3116367872	9	4328
2026-01-17 13:18:54.86	325.85	19.86	-24.6	-25.8	17.9	0.00e+00	0	43	0	3133145088	9	4119
2026-01-17 13:18:57.86	326.18	19.51	-24.5	-25.6	18.0	0.00e+00	0	43	0	3149922304	9	4088
2026-01-17 13:19:00.86	326.51	19.17	-24.5	-25.7	18.0	0.00e+00	0	43	0	3166699520	9	4091
2026-01-17 13:19:03.85	326.83	18.83	-24.8	-26.1	17.7	0.00e+00	0	43	0	3184525312	9	4222
2026-01-17 13:19:06.85	327.15	18.50	-25.0	-26.1	17.5	0.00e+00	0	43	0	3201302528	10	4090
2026-01-17 13:19:09.84	327.45	18.17	-25.1	-26.4	17.3	0.00e+00	0	43	0	3218079744	10	4179
2026-01-17 13:19:12.85	327.76	17.85	-25.0	-26.2	17.4	0.00e+00	0	43	0	3234856960	10	4127
2026-01-17 13:19:15.86	328.05	17.52	-25.2	-26.5	17.3	0.00e+00	0	43	0	3251634176	10	4190
2026-01-17 13:19:18.86	328.34	17.20	-25.1	-26.4	17.3	0.00e+00	0	43	0	3268411392	10	4167
2026-01-17 13:19:21.86	328.63	16.89	-25.4	-27.0	17.0	0.00e+00	0	43	0	3285188608	10	4321
2026-01-17 13:19:24.88	328.91	16.57	-25.5	-27.2	16.9	0.00e+00	0	43	0	3303014400	10	4383
2026-01-17 13:19:27.88	329.18	16.26	-25.6	-27.0	16.6	0.00e+00	0	43	0	3319791616	11	4225
2026-01-17 13:19:30.88	329.45	15.96	-25.8	-27.3	16.5	0.00e+00	0	43	0	3336568832	11	4305
2026-01-17 13:19:33.88	329.71	15.66	-25.7	-27.2	16.6	0.00e+00	0	43	0	3353346048	11	4266
2026-01-17 13:19:36.89	329.97	15.36	-25.7	-27.2	16.5	1.10e-06	0	43	0	3370123264	11	4281
2026-01-17 13:19:39.91	330.22	15.06	-26.0	-27.3	16.1	0.00e+00	0	43	0	3386900480	12	4198
2026-01-17 13:19:42.91	330.47	14.77	-25.5	-26.3	16.7	0.00e+00	0	43	0	3403677696	12	3921
2026-01-17 13:19:45.91	330.71	14.48	-25.7	-26.6	16.5	0.00e+00	0	43	0	3420454912	12	4005
2026-01-17 13:19:48.91	330.95	14.19	-25.9	-27.1	16.2	0.00e+00	0	43	0	3437232128	12	4143
2026-01-17 13:19:51.92	331.19	13.91	-26.1	-27.5	15.9	0.00e+00	0	43	0	3455057920	12	4250
2026-01-17 13:19:54.92	331.42	13.63	-26.3	-28.1	15.6	6.80e-06	0	43	0	3471835136	12	4416
2026-01-17 13:19:57.93	331.64	13.35	-26.4	-27.7	15.5	1.10e-06	0	43	0	3488612352	13	4182
2026-01-17 13:20:00.93	331.87	13.07	-26.5	-28.0	15.4	0.00e+00	0	43	0	3505389568	13	4267
2026-01-17 13:20:03.93	332.08	12.80	-26.4	-27.7	15.5	1.10e-06	0	43	0	3522166784	13	4189
2026-01-17 13:20:06.93	332.30	12.53	-26.2	-27.2	15.7	0.00e+00	0	43	0	3538944000	13	4070
2026-01-17 13:20:09.94	332.51	12.26	-26.2	-27.3	15.7	0.00e+00	0	43	0	3555721216	13	4080
2026-01-17 13:20:12.94	332.72	12.00	-26.2	-27.3	15.7	0.00e+00	0	43	0	3572498432	13	4081
2026-01-17 13:20:15.95	332.92	11.74	-26.4	-27.8	15.4	0.00e+00	0	43	0	3589275648	13	4221
2026-01-17 13:20:18.95	333.12	11.48	-26.7	-28.4	15.0	0.00e+00	0	43	0	3606052864	13	4398
2026-01-17 13:20:21.95	333.32	11.22	-26.7	-28.4	15.0	0.00e+00	0	43	0	3623878656	13	4379
2026-01-17 13:20:24.95	333.52	10.96	-26.7	-28.5	14.9	0.00e+00	0	43	0	3640655872	13	4407
2026-01-17 13:20:27.96	333.71	10.71	-26.7	-28.4	15.0	0.00e+00	0	43	0	3657433088	13	4390
2026-01-17 13:20:30.97	333.90	10.46	-26.5	-28.1	15.1	0.00e+00	0	43	0	3674210304	13	4307
2026-01-17 13:20:33.97	334.08	10.21	-26.6	-28.3	15.0	0.00e+00	0	43	0	3690987520	13	4352
2026-01-17 13:20:36.97	334.26	9.97	-26.6	-28.3	15.0	0.00e+00	0	43	0	3707764736	13	4372
2026-01-17 13:20:39.97	334.44	9.72	-26.8	-28.6	14.8	0.00e+00	0	43	0	3724541952	13	4456
2026-01-17 13:20:42.98	334.62	9.48	-26.7	-28.5	14.8	0.00e+00	0	43	0	3741319168	13	4431
2026-01-17 13:20:46.01	334.80	9.24	-26.8	-28.8	14.7	0.00e+00	0	43	0	3759144960	13	4498
2026-01-17 13:20:49.01	334.97	9.01	-27.0	-28.7	14.4	0.00e+00	0	44	0	3775922176	14	4370
2026-01-17 13:20:52.01	335.14	8.77	-27.3	-29.4	14.0	0.00e+00	0	43	0	3792699392	14	4582
2026-01-17 13:20:55.02	335.31	8.54	-27.2	-29.1	14.2	0.00e+00	0	43	0	3809476608	14	4475
2026-01-17 13:20:58.03	335.47	8.31	-27.3	-29.3	14.0	2.20e-06	0	43	0	3826253824	14	4537
2026-01-17 13:21:01.04	335.63	8.08	-27.3	-29.4	13.9	1.10e-06	0	43	0	3843031040	14	4582
2026-01-17 13:21:04.05	335.79	7.85	-27.3	-29.4	13.9	3.40e-06	0	43	0	3859808256	14	4590
2026-01-17 13:21:07.05	335.95	7.62	-27.2	-29.0	14.1	2.20e-06	0	44	0	3876585472	14	4474
2026-01-17 13:21:10.04	336.10	7.40	-27.1	-28.8	14.2	1.10e-06	0	43	0	3894411264	14	4409
2026-01-17 13:21:13.05	336.26	7.18	-27.3	-29.3	13.9	2.20e-06	0	43	0	3911188480	14	4558
2026-01-17 13:21:16.06	336.41	6.96	-33.6	-44.7	3.8	8.47e-01	0	43	104	3918528512	27	12921

#Closed at: 2026-01-17 13:21:16
#Recorded file [3918 MB]: D:/data/31010_260117_160937.dat