passes_logs/2026/01/17/R2M6_AANII_01/R2M6_AANII_01__20260117_145342_FENGYUN_3E_rec.log

#Pass ID: 20260117_145342_FENGYUN 3E
#Satellite: FENGYUN 3E
#Configuration: FENGYUN 3E
#almurnet v.1.7.20240730
#Start time: 2026-01-17 14:53:43

#Version: 2.2.20231116
#Station: R2M6_AANII_01
#Location: 30.233357 lon 59.946436 lat
#TLE: 1 49008U 21062A   26016.55599566  .00000255  00000+0  14071-3 0  9994
#TLE: 2 49008  98.7485  21.6664 0002094 134.5344 225.6004 14.19886148235063

#Time	Az	El	Level	Level2	SNR	BER	BlckErr	Temp	State	Recorded	gain1	gain2
2026-01-17 14:53:43.85	169.34	7.09	-28.4	-31.0	5.4	7.71e-01	0	41	0	0	16	4906
2026-01-17 14:53:46.86	169.40	7.32	-28.7	-30.9	9.9	1.09e-02	0	41	0	7340032	18	4601
2026-01-17 14:53:49.86	169.47	7.56	-27.1	-28.5	12.0	3.34e-04	0	41	0	28311552	15	4226
2026-01-17 14:53:52.87	169.53	7.80	-26.0	-26.9	13.5	1.25e-05	0	42	0	50331648	13	4016
2026-01-17 14:53:55.88	169.60	8.04	-26.1	-27.1	13.5	6.80e-06	0	42	0	72351744	13	4048
2026-01-17 14:53:58.88	169.67	8.28	-25.9	-26.8	13.7	1.02e-05	0	42	0	93323264	13	3965
2026-01-17 14:54:01.89	169.74	8.52	-25.9	-27.2	13.8	9.10e-06	0	42	0	115343360	12	4172
2026-01-17 14:54:04.91	169.81	8.77	-26.1	-27.6	13.6	6.80e-06	0	42	0	137363456	12	4284
2026-01-17 14:54:07.91	169.88	9.02	-26.3	-27.5	13.3	2.28e-05	0	42	0	159383552	13	4148
2026-01-17 14:54:10.91	169.95	9.27	-26.6	-28.2	13.0	1.25e-05	0	42	0	180355072	13	4324
2026-01-17 14:54:13.90	170.02	9.52	-26.2	-27.3	13.5	6.80e-06	0	42	0	202375168	13	4083
2026-01-17 14:54:16.91	170.09	9.78	-26.1	-27.6	13.7	4.50e-06	0	42	0	224395264	12	4257
2026-01-17 14:54:19.91	170.17	10.04	-26.0	-27.2	14.0	0.00e+00	0	42	0	245366784	12	4157
2026-01-17 14:54:22.92	170.25	10.30	-25.5	-26.1	14.6	0.00e+00	0	42	0	267386880	12	3866
2026-01-17 14:54:25.91	170.32	10.56	-25.7	-26.5	14.3	0.00e+00	0	42	0	289406976	12	3973
2026-01-17 14:54:28.90	170.40	10.83	-25.7	-27.0	14.4	1.10e-06	0	43	0	310378496	11	4218
2026-01-17 14:54:31.91	170.48	11.10	-25.9	-27.6	14.2	3.40e-06	0	43	0	332398592	11	4357
2026-01-17 14:54:34.91	170.56	11.37	-25.4	-25.9	14.7	0.00e+00	0	42	0	354418688	12	3828
2026-01-17 14:54:37.91	170.65	11.65	-25.6	-26.8	14.6	1.10e-06	0	43	0	375390208	11	4131
2026-01-17 14:54:40.92	170.73	11.93	-25.4	-26.5	14.8	0.00e+00	0	43	0	397410304	11	4052
2026-01-17 14:54:43.93	170.82	12.21	-25.3	-26.1	15.1	0.00e+00	0	43	0	418381824	11	3949
2026-01-17 14:54:46.93	170.90	12.50	-25.3	-26.2	15.0	0.00e+00	0	43	0	440401920	11	3981
2026-01-17 14:54:49.93	170.99	12.78	-25.0	-25.6	15.3	0.00e+00	0	43	0	462422016	11	3829
2026-01-17 14:54:52.94	171.08	13.08	-24.7	-25.2	15.8	0.00e+00	0	43	0	483393536	10	3845
2026-01-17 14:54:55.96	171.18	13.38	-24.8	-25.5	15.6	0.00e+00	0	43	0	505413632	10	3927
2026-01-17 14:54:58.97	171.27	13.68	-24.7	-25.3	15.8	0.00e+00	0	43	0	527433728	10	3868
2026-01-17 14:55:01.98	171.36	13.98	-24.6	-25.1	15.9	0.00e+00	0	43	0	549453824	10	3827
2026-01-17 14:55:04.99	171.46	14.29	-24.7	-25.3	15.8	0.00e+00	0	43	0	570425344	10	3871
2026-01-17 14:55:08.00	171.56	14.60	-24.3	-25.0	16.2	0.00e+00	0	43	0	592445440	9	3907
2026-01-17 14:55:11.01	171.66	14.91	-24.5	-25.3	16.1	0.00e+00	0	43	0	614465536	9	3971
2026-01-17 14:55:14.02	171.77	15.23	-24.1	-24.5	16.6	0.00e+00	0	43	0	636485632	9	3764
2026-01-17 14:55:17.02	171.87	15.56	-24.4	-25.2	16.2	0.00e+00	0	43	0	657457152	9	3942
2026-01-17 14:55:20.03	171.98	15.88	-23.9	-24.6	16.7	0.00e+00	0	43	0	679477248	8	3905
2026-01-17 14:55:23.04	172.09	16.22	-23.9	-24.5	16.8	4.50e-06	0	43	0	701497344	8	3880
2026-01-17 14:55:26.04	172.20	16.55	-23.7	-24.3	16.9	0.00e+00	0	43	0	722468864	8	3817
2026-01-17 14:55:29.05	172.31	16.90	-23.8	-24.4	16.9	2.20e-06	0	44	0	744488960	8	3865
2026-01-17 14:55:32.06	172.43	17.24	-23.7	-24.2	17.0	1.10e-06	0	43	0	766509056	8	3812
2026-01-17 14:55:35.07	172.55	17.59	-23.7	-24.3	16.9	0.00e+00	0	43	0	788529152	8	3831
2026-01-17 14:55:38.08	172.67	17.95	-23.7	-24.3	16.9	0.00e+00	0	43	0	809500672	8	3848
2026-01-17 14:55:41.08	172.79	18.31	-23.8	-24.4	16.8	0.00e+00	0	43	0	831520768	8	3876
2026-01-17 14:55:44.09	172.92	18.68	-23.9	-24.8	16.6	0.00e+00	0	43	0	853540864	8	3988
2026-01-17 14:55:47.09	173.05	19.05	-23.6	-24.2	16.8	0.00e+00	0	43	0	874512384	8	3856
2026-01-17 14:55:50.10	173.18	19.42	-23.5	-24.0	16.9	0.00e+00	0	43	0	896532480	8	3817
2026-01-17 14:55:53.11	173.32	19.81	-23.6	-24.1	16.9	0.00e+00	0	43	0	918552576	8	3845
2026-01-17 14:55:56.12	173.45	20.20	-23.8	-24.7	16.6	0.00e+00	0	44	0	940572672	8	3966
2026-01-17 14:55:59.12	173.60	20.59	-23.3	-24.1	17.1	0.00e+00	0	44	0	961544192	7	3939
2026-01-17 14:56:02.14	173.74	20.99	-23.4	-24.3	17.0	0.00e+00	0	43	0	983564288	7	4006
2026-01-17 14:56:05.13	173.89	21.40	-23.5	-24.4	17.0	0.00e+00	0	43	0	1004535808	7	4013
2026-01-17 14:56:08.14	174.04	21.81	-23.1	-23.6	17.4	0.00e+00	0	43	0	1026555904	7	3828
2026-01-17 14:56:11.14	174.20	22.23	-23.1	-23.6	17.4	0.00e+00	0	43	0	1048576000	7	3810
2026-01-17 14:56:14.15	174.36	22.66	-23.0	-23.5	17.5	0.00e+00	0	44	0	1070596096	7	3790
2026-01-17 14:56:17.16	174.52	23.10	-23.1	-24.2	17.4	0.00e+00	0	44	0	1091567616	6	4072
2026-01-17 14:56:20.16	174.69	23.54	-23.0	-24.0	17.5	0.00e+00	0	44	0	1113587712	6	4032
2026-01-17 14:56:23.17	174.87	23.99	-23.2	-24.5	17.3	0.00e+00	0	43	0	1135607808	6	4147
2026-01-17 14:56:26.17	175.05	24.44	-23.1	-24.2	17.4	0.00e+00	0	44	0	1156579328	6	4089
2026-01-17 14:56:29.18	175.23	24.91	-23.1	-24.3	17.4	0.00e+00	0	44	0	1178599424	6	4108
2026-01-17 14:56:32.19	175.42	25.38	-23.1	-24.1	17.5	0.00e+00	0	44	0	1200619520	6	4053
2026-01-17 14:56:35.20	175.61	25.86	-23.2	-23.7	17.5	0.00e+00	0	44	0	1222639616	7	3840
2026-01-17 14:56:38.21	175.81	26.35	-22.7	-23.1	18.1	0.00e+00	0	44	0	1243611136	6	3790
2026-01-17 14:56:41.21	176.02	26.85	-22.7	-23.2	18.1	0.00e+00	0	43	0	1265631232	6	3801
2026-01-17 14:56:44.22	176.23	27.36	-22.6	-22.9	18.2	0.00e+00	0	44	0	1287651328	6	3749
2026-01-17 14:56:47.23	176.45	27.87	-22.5	-22.9	18.2	0.00e+00	0	44	0	1308622848	6	3754
2026-01-17 14:56:50.25	176.68	28.40	-22.5	-23.3	18.1	0.00e+00	0	44	0	1330642944	5	3963
2026-01-17 14:56:53.26	176.91	28.94	-22.5	-23.3	18.1	0.00e+00	0	44	0	1352663040	5	3967
2026-01-17 14:56:56.27	177.15	29.48	-22.4	-23.2	18.2	0.00e+00	0	44	0	1374683136	5	3932
2026-01-17 14:56:59.27	177.40	30.04	-22.4	-23.1	18.2	0.00e+00	0	44	0	1395654656	5	3912
2026-01-17 14:57:02.27	177.65	30.60	-22.1	-22.6	18.5	0.00e+00	0	44	0	1417674752	5	3793
2026-01-17 14:57:05.26	177.92	31.17	-22.3	-22.9	18.3	0.00e+00	0	44	0	1439694848	5	3872
2026-01-17 14:57:08.26	178.19	31.76	-22.4	-23.1	18.2	0.00e+00	0	44	0	1460666368	5	3908
2026-01-17 14:57:11.26	178.48	32.36	-22.6	-23.5	18.1	0.00e+00	0	44	0	1482686464	5	4006
2026-01-17 14:57:14.27	178.77	32.97	-22.5	-23.2	18.3	0.00e+00	0	44	0	1504706560	5	3928
2026-01-17 14:57:17.28	179.08	33.59	-22.4	-23.2	18.3	0.00e+00	0	44	0	1525678080	5	3909
2026-01-17 14:57:20.27	179.39	34.22	-23.2	-23.7	18.6	0.00e+00	0	43	0	1547698176	6	3785
2026-01-17 14:57:23.28	179.72	34.87	-23.0	-23.3	18.8	0.00e+00	0	44	0	1569718272	6	3697
2026-01-17 14:57:26.29	180.07	35.52	-22.9	-23.0	18.9	0.00e+00	0	44	0	1590689792	6	3651
2026-01-17 14:57:29.28	180.42	36.19	-23.0	-23.2	18.8	0.00e+00	0	44	0	1612709888	6	3675
2026-01-17 14:57:32.29	180.79	36.88	-23.2	-23.6	18.6	0.00e+00	0	44	0	1633681408	6	3780
2026-01-17 14:57:35.29	181.18	37.57	-23.2	-23.7	18.6	0.00e+00	0	44	0	1655701504	6	3786
2026-01-17 14:57:38.31	181.58	38.29	-23.1	-23.3	18.8	0.00e+00	0	44	0	1677721600	6	3712
2026-01-17 14:57:41.31	182.00	39.01	-22.8	-22.8	19.1	0.00e+00	0	44	0	1699741696	6	3589
2026-01-17 14:57:44.32	182.44	39.75	-23.4	-24.1	18.4	0.00e+00	0	44	0	1720713216	6	3903
2026-01-17 14:57:47.31	182.90	40.49	-23.6	-23.9	18.3	0.00e+00	0	44	0	1742733312	7	3736
2026-01-17 14:57:50.32	183.38	41.26	-23.4	-23.6	18.5	0.00e+00	0	44	0	1764753408	7	3661
2026-01-17 14:57:53.33	183.89	42.04	-23.5	-23.8	18.3	0.00e+00	0	44	0	1785724928	7	3722
2026-01-17 14:57:56.35	184.42	42.84	-23.4	-23.5	18.5	0.00e+00	0	44	0	1807745024	7	3651
2026-01-17 14:57:59.36	184.97	43.65	-23.9	-24.5	18.0	0.00e+00	0	44	0	1829765120	7	3875
2026-01-17 14:58:02.37	185.56	44.47	-23.7	-23.6	18.3	0.00e+00	0	44	0	1851785216	8	3557
2026-01-17 14:58:05.37	186.17	45.31	-24.1	-24.5	17.7	0.00e+00	0	44	0	1872756736	8	3780
2026-01-17 14:58:08.38	186.82	46.16	-24.2	-24.6	17.8	0.00e+00	0	44	0	1894776832	8	3791
2026-01-17 14:58:11.39	187.50	47.03	-24.0	-24.4	17.9	0.00e+00	0	44	0	1916796928	8	3735
2026-01-17 14:58:14.39	188.22	47.91	-24.5	-25.4	17.4	0.00e+00	0	44	0	1937768448	8	3968
2026-01-17 14:58:17.40	188.98	48.80	-24.8	-24.9	17.2	0.00e+00	0	44	0	1959788544	10	3653
2026-01-17 14:58:20.41	189.79	49.70	-24.5	-24.7	17.5	0.00e+00	0	44	0	1981808640	9	3716
2026-01-17 14:58:23.41	190.65	50.62	-24.5	-24.7	17.5	0.00e+00	0	44	0	2003828736	9	3706
2026-01-17 14:58:26.42	191.56	51.55	-24.4	-24.2	17.5	0.00e+00	0	44	0	2024800256	10	3497
2026-01-17 14:58:29.41	192.52	52.48	-24.8	-25.5	17.1	0.00e+00	0	44	0	2046820352	9	3892
2026-01-17 14:58:32.41	193.55	53.43	-24.9	-25.6	17.0	0.00e+00	0	44	0	2068840448	9	3918
2026-01-17 14:58:35.42	194.65	54.39	-24.8	-25.5	17.1	0.00e+00	0	44	0	2089811968	9	3901
2026-01-17 14:58:38.41	195.82	55.34	-24.8	-25.6	17.1	0.00e+00	0	44	0	2111832064	9	3917
2026-01-17 14:58:41.42	197.08	56.31	-24.4	-24.6	17.6	0.00e+00	0	44	0	2133852160	9	3675
2026-01-17 14:58:44.42	198.42	57.28	-24.7	-25.3	17.0	0.00e+00	0	44	0	2154823680	9	3841
2026-01-17 14:58:47.42	199.86	58.25	-24.5	-24.7	17.6	0.00e+00	0	44	0	2176843776	9	3713
2026-01-17 14:58:50.43	201.42	59.22	-24.4	-24.5	17.7	0.00e+00	0	44	0	2197815296	9	3672
2026-01-17 14:58:53.43	203.08	60.18	-24.3	-24.5	17.7	0.00e+00	0	44	0	2219835392	9	3651
2026-01-17 14:58:56.44	204.89	61.14	-24.8	-25.4	17.2	0.00e+00	0	44	0	2241855488	9	3870
2026-01-17 14:58:59.44	206.82	62.08	-24.0	-23.8	18.1	0.00e+00	0	44	0	2262827008	9	3520
2026-01-17 14:59:02.45	208.92	63.01	-24.0	-24.3	18.1	0.00e+00	0	44	0	2284847104	8	3714
2026-01-17 14:59:05.46	211.18	63.91	-23.2	-23.1	18.9	0.00e+00	0	44	0	2306867200	7	3555
2026-01-17 14:59:08.47	213.62	64.79	-23.3	-23.3	18.7	0.00e+00	0	44	0	2328887296	7	3604
2026-01-17 14:59:11.48	216.25	65.63	-23.2	-23.0	19.0	0.00e+00	0	44	0	2349858816	7	3525
2026-01-17 14:59:14.49	219.09	66.43	-23.1	-22.8	19.1	0.00e+00	0	44	0	2371878912	7	3491
2026-01-17 14:59:17.50	222.14	67.19	-23.0	-23.1	19.1	0.00e+00	0	44	0	2393899008	6	3668
2026-01-17 14:59:20.52	225.42	67.89	-23.2	-23.7	18.9	0.00e+00	0	44	0	2415919104	6	3777
2026-01-17 14:59:23.53	228.90	68.52	-23.1	-23.4	19.0	0.00e+00	0	44	0	2436890624	6	3722
2026-01-17 14:59:26.53	232.59	69.07	-23.8	-24.3	18.3	0.00e+00	0	44	0	2458910720	7	3813
2026-01-17 14:59:29.53	236.48	69.55	-23.5	-23.8	18.6	0.00e+00	0	44	0	2480930816	7	3704
2026-01-17 14:59:32.54	240.56	69.93	-23.8	-24.4	18.3	0.00e+00	0	44	0	2501902336	7	3844
2026-01-17 14:59:35.55	244.79	70.22	-23.4	-23.6	18.7	0.00e+00	0	44	0	2523922432	7	3655
2026-01-17 14:59:38.55	249.11	70.41	-23.4	-23.5	18.7	0.00e+00	0	44	0	2545942528	7	3647
2026-01-17 14:59:41.56	253.51	70.49	-23.2	-23.1	18.9	0.00e+00	0	44	0	2567962624	7	3545
2026-01-17 14:59:44.57	257.93	70.46	-23.5	-23.8	18.6	0.00e+00	0	44	0	2588934144	7	3698
2026-01-17 14:59:47.57	262.29	70.33	-23.1	-22.8	19.1	0.00e+00	0	44	0	2610954240	7	3500
2026-01-17 14:59:50.58	266.57	70.09	-23.4	-23.6	18.7	0.00e+00	0	44	0	2632974336	7	3659
2026-01-17 14:59:53.59	270.73	69.75	-23.4	-23.6	18.7	0.00e+00	0	44	0	2653945856	7	3654
2026-01-17 14:59:56.60	274.72	69.32	-23.3	-23.3	18.8	0.00e+00	0	44	0	2675965952	7	3595
2026-01-17 14:59:59.61	278.52	68.80	-23.0	-22.7	19.2	0.00e+00	0	44	0	2697986048	7	3460
2026-01-17 15:00:02.61	282.10	68.21	-23.6	-23.9	18.6	0.00e+00	0	44	0	2720006144	7	3718
2026-01-17 15:00:05.62	285.48	67.55	-22.7	-22.6	19.4	0.00e+00	0	44	0	2740977664	6	3549
2026-01-17 15:00:08.63	288.63	66.82	-23.2	-23.5	18.9	0.00e+00	0	44	0	2762997760	6	3754
2026-01-17 15:00:11.63	291.56	66.05	-22.8	-22.8	19.4	0.00e+00	0	44	0	2783969280	6	3586
2026-01-17 15:00:14.63	294.28	65.23	-23.2	-23.5	19.0	0.00e+00	0	44	0	2805989376	6	3743
2026-01-17 15:00:17.63	296.81	64.37	-23.3	-23.9	18.8	0.00e+00	0	44	0	2828009472	6	3828
2026-01-17 15:00:20.62	299.15	63.49	-23.8	-24.4	18.3	0.00e+00	0	44	0	2848980992	7	3836
2026-01-17 15:00:23.63	301.32	62.58	-24.0	-24.3	18.1	0.00e+00	0	44	0	2871001088	8	3714
2026-01-17 15:00:26.64	303.34	61.64	-24.4	-25.1	17.7	0.00e+00	0	44	0	2893021184	8	3908
2026-01-17 15:00:29.64	305.21	60.70	-24.5	-25.2	17.7	0.00e+00	0	44	0	2913992704	8	3930
2026-01-17 15:00:32.64	306.94	59.74	-25.4	-26.2	16.7	0.00e+00	0	44	0	2936012800	10	3944
2026-01-17 15:00:35.65	308.55	58.78	-25.2	-25.8	16.9	0.00e+00	0	44	0	2958032896	10	3841
2026-01-17 15:00:38.66	310.05	57.81	-24.8	-24.9	17.3	0.00e+00	0	44	0	2980052992	10	3644
2026-01-17 15:00:41.67	311.45	56.84	-24.9	-25.2	17.2	0.00e+00	0	44	0	3001024512	10	3712
2026-01-17 15:00:44.68	312.75	55.87	-24.6	-24.6	17.5	0.00e+00	0	44	0	3023044608	10	3566
2026-01-17 15:00:47.69	313.97	54.91	-24.7	-24.7	17.4	0.00e+00	0	44	0	3045064704	10	3597
2026-01-17 15:00:50.70	315.11	53.95	-24.7	-24.7	17.3	0.00e+00	0	44	0	3067084800	10	3596
2026-01-17 15:00:53.70	316.17	53.00	-25.0	-25.5	17.0	0.00e+00	0	44	0	3088056320	10	3774
2026-01-17 15:00:56.71	317.17	52.06	-24.9	-25.1	17.2	0.00e+00	0	44	0	3110076416	10	3684
2026-01-17 15:00:59.72	318.11	51.13	-25.2	-25.8	16.8	0.00e+00	0	44	0	3132096512	10	3849
2026-01-17 15:01:02.73	318.99	50.21	-24.7	-24.7	17.4	0.00e+00	0	44	0	3153068032	10	3609
2026-01-17 15:01:05.74	319.82	49.30	-25.2	-25.8	16.8	0.00e+00	0	44	0	3175088128	10	3846
2026-01-17 15:01:08.74	320.61	48.41	-24.7	-24.7	17.3	0.00e+00	0	44	0	3197108224	10	3610
2026-01-17 15:01:11.75	321.35	47.52	-24.6	-24.4	17.6	0.00e+00	0	44	0	3219128320	10	3544
2026-01-17 15:01:14.76	322.05	46.65	-24.3	-24.4	17.8	0.00e+00	0	44	0	3240099840	9	3627
2026-01-17 15:01:17.77	322.72	45.80	-23.8	-23.9	18.2	0.00e+00	0	44	0	3262119936	8	3627
2026-01-17 15:01:20.76	323.34	44.96	-23.6	-23.4	18.5	0.00e+00	0	44	0	3284140032	8	3515
2026-01-17 15:01:23.76	323.94	44.14	-23.5	-23.2	18.7	0.00e+00	0	44	0	3305111552	8	3474
2026-01-17 15:01:26.76	324.51	43.32	-23.4	-23.0	18.5	0.00e+00	0	44	0	3327131648	8	3445
2026-01-17 15:01:29.76	325.05	42.53	-23.5	-23.7	18.5	0.00e+00	0	44	0	3348103168	7	3693
2026-01-17 15:01:32.77	325.57	41.74	-23.6	-24.0	18.4	0.00e+00	0	44	0	3370123264	7	3748
2026-01-17 15:01:35.76	326.06	40.98	-23.5	-23.7	18.6	0.00e+00	0	44	0	3392143360	7	3679
2026-01-17 15:01:38.76	326.53	40.22	-23.4	-23.4	18.7	0.00e+00	0	44	0	3413114880	7	3629
2026-01-17 15:01:41.76	326.98	39.48	-23.4	-23.6	18.6	0.00e+00	0	44	0	3435134976	7	3656
2026-01-17 15:01:44.76	327.41	38.75	-23.5	-23.7	18.6	0.00e+00	0	44	0	3457155072	7	3677
2026-01-17 15:01:47.77	327.82	38.04	-23.3	-23.2	18.6	0.00e+00	0	44	0	3478126592	7	3585
2026-01-17 15:01:50.79	328.22	37.33	-23.3	-23.2	18.8	0.00e+00	0	44	0	3500146688	7	3582
2026-01-17 15:01:53.78	328.60	36.65	-23.1	-22.9	18.9	0.00e+00	0	44	0	3522166784	7	3516
2026-01-17 15:01:56.79	328.96	35.97	-23.3	-23.2	18.8	0.00e+00	0	44	0	3543138304	7	3576
2026-01-17 15:01:59.79	329.31	35.31	-23.3	-23.3	18.7	0.00e+00	0	44	0	3565158400	7	3590
2026-01-17 15:02:02.80	329.65	34.66	-23.4	-23.4	18.7	0.00e+00	0	44	0	3587178496	7	3628
2026-01-17 15:02:05.80	329.97	34.02	-23.5	-23.8	18.5	0.00e+00	0	44	0	3609198592	7	3700
2026-01-17 15:02:08.79	330.29	33.40	-23.6	-23.9	18.3	0.00e+00	0	44	0	3630170112	7	3739
2026-01-17 15:02:11.80	330.59	32.79	-23.6	-23.8	18.4	0.00e+00	0	44	0	3652190208	7	3716
2026-01-17 15:02:14.81	330.88	32.18	-23.3	-23.2	18.8	0.00e+00	0	44	0	3674210304	7	3578
2026-01-17 15:02:17.81	331.16	31.59	-23.0	-22.7	19.0	0.00e+00	0	44	0	3695181824	7	3473
2026-01-17 15:02:20.82	331.43	31.01	-23.2	-23.1	18.8	0.00e+00	0	44	0	3717201920	7	3555
2026-01-17 15:02:23.83	331.69	30.44	-23.1	-23.0	18.9	0.00e+00	0	44	0	3739222016	7	3523
2026-01-17 15:02:26.84	331.95	29.88	-23.4	-23.6	18.5	0.00e+00	0	44	0	3760193536	7	3655
2026-01-17 15:02:29.84	332.19	29.34	-23.5	-23.7	18.4	0.00e+00	0	44	0	3782213632	7	3693
2026-01-17 15:02:32.83	332.43	28.80	-23.9	-24.5	18.1	0.00e+00	0	44	0	3804233728	7	3859
2026-01-17 15:02:35.84	332.66	28.27	-23.9	-24.5	18.1	0.00e+00	0	44	0	3825205248	7	3873
2026-01-17 15:02:38.85	332.88	27.75	-23.8	-24.4	18.1	0.00e+00	0	44	0	3847225344	7	3852
2026-01-17 15:02:41.85	333.10	27.24	-23.9	-24.6	18.0	0.00e+00	0	44	0	3869245440	7	3887
2026-01-17 15:02:44.85	333.31	26.74	-24.2	-24.7	17.7	0.00e+00	0	44	0	3890216960	8	3810
2026-01-17 15:02:47.84	333.51	26.25	-24.2	-24.6	17.8	0.00e+00	0	44	0	3912237056	8	3788
2026-01-17 15:02:50.83	333.71	25.77	-24.0	-24.2	17.9	0.00e+00	0	44	0	3933208576	8	3709
2026-01-17 15:02:53.82	333.90	25.30	-24.0	-24.2	17.9	0.00e+00	0	44	0	3955228672	8	3698
2026-01-17 15:02:56.83	334.09	24.83	-23.7	-23.7	18.2	0.00e+00	0	44	0	3977248768	8	3598
2026-01-17 15:02:59.83	334.27	24.37	-23.7	-23.6	18.2	0.00e+00	0	44	0	3998220288	8	3555
2026-01-17 15:03:02.82	334.45	23.92	-23.6	-23.4	18.3	0.00e+00	0	44	0	4020240384	8	3524
2026-01-17 15:03:05.83	334.63	23.48	-23.4	-23.1	18.4	0.00e+00	0	44	0	4042260480	8	3464
2026-01-17 15:03:08.84	334.79	23.04	-23.7	-23.7	18.1	0.00e+00	0	44	0	4063232000	8	3583
2026-01-17 15:03:11.86	334.96	22.61	-23.7	-23.6	18.1	0.00e+00	0	44	0	4085252096	8	3559
2026-01-17 15:03:14.88	335.12	22.19	-23.8	-23.8	18.1	0.00e+00	0	44	0	4107272192	8	3600
2026-01-17 15:03:17.88	335.28	21.77	-23.8	-23.9	18.0	0.00e+00	0	44	0	4129292288	8	3633
2026-01-17 15:03:20.88	335.43	21.36	-24.0	-24.3	17.8	0.00e+00	0	44	0	4150263808	8	3724
2026-01-17 15:03:23.88	335.58	20.96	-24.3	-24.9	17.5	0.00e+00	0	44	0	4172283904	8	3853
2026-01-17 15:03:26.88	335.72	20.56	-24.3	-24.9	17.4	0.00e+00	0	44	0	4194304000	8	3869
2026-01-17 15:03:29.90	335.87	20.17	-24.5	-25.3	17.2	0.00e+00	0	44	0	4216324096	8	3948
2026-01-17 15:03:32.90	336.01	19.79	-24.6	-25.1	17.0	0.00e+00	0	44	0	4237295616	9	3809
2026-01-17 15:03:35.90	336.14	19.41	-24.8	-25.5	16.8	0.00e+00	0	44	0	4259315712	9	3895
2026-01-17 15:03:38.90	336.27	19.04	-24.7	-25.2	17.0	0.00e+00	0	44	0	4281335808	9	3821
2026-01-17 15:03:41.90	336.40	18.67	-24.7	-25.2	16.9	0.00e+00	0	44	0	4302307328	9	3836
2026-01-17 15:03:44.91	336.53	18.30	-24.5	-24.8	17.2	0.00e+00	0	44	0	4324327424	9	3725
2026-01-17 15:03:47.92	336.66	17.95	-24.5	-24.9	17.1	0.00e+00	0	44	0	4346347520	9	3756
2026-01-17 15:03:50.93	336.78	17.59	-24.6	-25.0	17.0	0.00e+00	0	44	0	4367319040	9	3787
2026-01-17 15:03:53.94	336.90	17.25	-24.7	-25.3	16.8	0.00e+00	0	44	0	4389339136	9	3858
2026-01-17 15:03:56.94	337.01	16.90	-24.7	-25.2	16.9	0.00e+00	0	44	0	4410310656	9	3828
2026-01-17 15:03:59.95	337.13	16.56	-24.9	-25.7	16.7	0.00e+00	0	44	0	4432330752	9	3937
2026-01-17 15:04:02.94	337.24	16.23	-25.3	-26.0	16.2	0.00e+00	0	44	0	4454350848	10	3914
2026-01-17 15:04:05.94	337.35	15.90	-25.3	-26.1	16.2	0.00e+00	0	44	0	4475322368	10	3931
2026-01-17 15:04:08.94	337.46	15.58	-25.4	-26.2	16.1	0.00e+00	0	44	0	4497342464	10	3964
2026-01-17 15:04:11.94	337.57	15.26	-25.3	-25.5	16.1	0.00e+00	0	44	0	4519362560	11	3701
2026-01-17 15:04:14.94	337.67	14.94	-25.2	-25.4	16.2	0.00e+00	0	44	0	4540334080	11	3671
2026-01-17 15:04:17.95	337.77	14.63	-25.5	-26.0	15.9	0.00e+00	0	44	0	4562354176	11	3801
2026-01-17 15:04:20.96	337.87	14.32	-25.5	-26.0	15.9	0.00e+00	0	44	0	4584374272	11	3801
2026-01-17 15:04:23.96	337.97	14.02	-25.6	-26.2	15.7	0.00e+00	0	44	0	4606394368	11	3857
2026-01-17 15:04:26.95	338.07	13.72	-25.6	-26.2	15.7	0.00e+00	0	44	0	4627365888	11	3862
2026-01-17 15:04:29.96	338.16	13.42	-25.7	-26.5	15.5	0.00e+00	0	44	0	4649385984	11	3936
2026-01-17 15:04:32.96	338.26	13.13	-25.7	-26.5	15.5	0.00e+00	0	44	0	4671406080	11	3939
2026-01-17 15:04:35.97	338.35	12.84	-25.7	-26.4	15.6	0.00e+00	0	44	0	4692377600	11	3917
2026-01-17 15:04:38.97	338.44	12.55	-25.9	-26.8	15.3	0.00e+00	0	44	0	4714397696	11	4006
2026-01-17 15:04:41.97	338.53	12.27	-25.8	-26.6	15.4	0.00e+00	0	44	0	4736417792	11	3961
2026-01-17 15:04:44.97	338.62	11.99	-25.9	-26.4	15.1	0.00e+00	0	44	0	4757389312	12	3820
2026-01-17 15:04:47.98	338.70	11.71	-26.0	-26.6	15.1	0.00e+00	0	44	0	4779409408	12	3858
2026-01-17 15:04:50.99	338.79	11.43	-25.8	-26.2	15.3	0.00e+00	0	44	0	4801429504	12	3766
2026-01-17 15:04:54.00	338.87	11.16	-25.9	-26.5	15.0	0.00e+00	0	44	0	4823449600	12	3841
2026-01-17 15:04:57.00	338.95	10.89	-26.0	-26.7	15.0	0.00e+00	0	44	0	4844421120	12	3873
2026-01-17 15:05:00.01	339.03	10.63	-26.2	-27.1	14.7	0.00e+00	0	44	0	4866441216	12	3985
2026-01-17 15:05:03.01	339.11	10.37	-26.1	-26.8	14.8	0.00e+00	0	44	0	4888461312	12	3923
2026-01-17 15:05:06.02	339.19	10.11	-26.3	-27.2	14.6	1.10e-06	0	44	0	4909432832	12	4029
2026-01-17 15:05:09.02	339.27	9.85	-26.5	-27.7	14.3	2.20e-06	0	44	0	4931452928	12	4142
2026-01-17 15:05:12.02	339.35	9.59	-26.5	-27.7	14.3	0.00e+00	0	44	0	4952424448	12	4152
2026-01-17 15:05:15.02	339.42	9.34	-26.6	-27.6	14.0	3.40e-06	0	44	0	4974444544	13	4010
2026-01-17 15:05:18.03	339.50	9.09	-27.2	-28.2	13.4	1.02e-05	0	44	0	4996464640	14	4070
2026-01-17 15:05:21.04	339.57	8.84	-27.1	-28.1	13.4	1.14e-05	0	44	0	5017436160	14	4040
2026-01-17 15:05:24.05	339.64	8.60	-27.4	-28.7	13.1	2.86e-05	0	44	0	5039456256	14	4214
2026-01-17 15:05:27.06	339.71	8.36	-27.0	-27.9	13.5	1.02e-05	0	44	0	5061476352	14	3981
2026-01-17 15:05:30.06	339.78	8.12	-27.0	-27.8	13.5	6.80e-06	0	44	0	5083496448	14	3966
2026-01-17 15:05:33.07	339.85	7.88	-27.1	-28.2	13.3	5.70e-06	0	44	0	5104467968	14	4059
2026-01-17 15:05:36.05	339.92	7.65	-27.2	-28.3	13.2	2.17e-05	0	44	0	5126488064	14	4086
2026-01-17 15:05:39.05	339.99	7.41	-27.1	-28.1	13.3	1.02e-05	0	44	0	5148508160	14	4035
2026-01-17 15:05:42.06	340.05	7.18	-27.0	-27.9	13.4	1.71e-05	0	44	0	5169479680	14	4007
2026-01-17 15:05:45.06	340.12	6.95	-33.6	-43.5	3.8	8.47e-01	0	44	104	5179965440	26	11262

#Closed at: 2026-01-17 15:05:45
#Recorded file [5179 MB]: D:/data/31010_260117_175345.dat