passes_logs/2026/01/17/R2M6_AANII_01/R2M6_AANII_01__20260117_034009_AQUA_rec.log

#Pass ID: 20260117_034009_AQUA
#Satellite: AQUA
#Configuration: AQUA
#almurnet v.1.7.20240730
#Start time: 2026-01-17 03:40:11

#Version: 2.2.20231116
#Station: R2M6_AANII_01
#Location: 30.233357 lon 59.946436 lat
#TLE: 1 27424U 02022A   26016.26443506  .00000711  00000+0  15228-3 0  9999
#TLE: 2 27424  98.4083 342.7130 0002022  76.7284  27.4473 14.61823291261073

#Time	Az	El	Level	Level2	SNR	BER	BlckErr	Temp	State	Recorded	gain1	gain2
2026-01-17 03:40:11.15	6.48	7.09	-32.0	-48.5	3.8	7.42e-01	0	41	0	0	24	24164
2026-01-17 03:40:14.16	6.17	7.29	-32.1	-48.1	3.8	7.45e-01	0	41	104	0	25	22751
2026-01-17 03:40:17.16	5.86	7.50	-32.0	-47.7	3.8	7.45e-01	0	41	104	0	25	21960
2026-01-17 03:40:20.18	5.54	7.71	-31.4	-46.3	3.8	7.43e-01	0	42	104	0	23	19903
2026-01-17 03:40:23.19	5.22	7.92	-31.5	-46.5	3.8	7.43e-01	0	42	104	0	23	20279
2026-01-17 03:40:26.20	4.89	8.13	-30.7	-44.3	3.8	7.45e-01	0	42	104	0	22	17282
2026-01-17 03:40:29.22	4.56	8.34	-30.6	-44.5	3.8	7.42e-01	0	42	104	0	21	17939
2026-01-17 03:40:32.22	4.22	8.55	-31.4	-46.3	3.8	7.45e-01	0	42	104	0	23	20024
2026-01-17 03:40:35.24	3.88	8.76	-31.9	-47.6	3.8	7.47e-01	0	42	104	0	24	21913
2026-01-17 03:40:38.25	3.53	8.98	-32.0	-48.1	3.8	7.46e-01	0	42	104	0	24	23004
2026-01-17 03:40:41.26	3.17	9.19	-32.4	-49.2	3.8	7.46e-01	0	42	104	0	25	24942
2026-01-17 03:40:44.26	2.81	9.41	-32.7	-50.3	3.8	7.44e-01	0	42	104	0	26	27239
2026-01-17 03:40:47.27	2.45	9.63	-32.8	-51.3	3.8	7.42e-01	0	42	104	0	26	30133
2026-01-17 03:40:50.28	2.07	9.84	-32.8	-50.6	3.8	7.44e-01	0	42	104	0	26	27987
2026-01-17 03:40:53.28	1.70	10.06	-32.6	-49.7	3.8	7.44e-01	0	42	104	0	26	25677
2026-01-17 03:40:56.29	1.31	10.28	-32.4	-49.2	3.8	7.44e-01	0	42	104	0	25	24705
2026-01-17 03:40:59.30	0.92	10.51	-31.9	-47.4	3.8	7.46e-01	0	42	104	0	24	21371
2026-01-17 03:41:02.28	0.52	10.73	-32.3	-48.1	3.8	7.43e-01	0	43	104	0	25	22429
2026-01-17 03:41:05.28	0.12	10.95	-32.4	-48.6	3.8	7.43e-01	0	42	104	0	25	23300
2026-01-17 03:41:08.29	359.71	11.17	-32.0	-47.6	3.8	7.46e-01	0	43	104	0	24	21560
2026-01-17 03:41:11.31	359.28	11.40	-30.8	-44.4	3.8	7.45e-01	0	43	104	0	22	17293
2026-01-17 03:41:14.31	358.86	11.62	-30.2	-43.1	3.8	7.42e-01	0	43	104	0	21	15945
2026-01-17 03:41:17.33	358.42	11.85	-30.6	-43.6	3.8	7.44e-01	0	43	104	0	22	16218
2026-01-17 03:41:20.33	357.98	12.08	-31.1	-44.8	3.8	7.44e-01	0	43	104	0	23	17347
2026-01-17 03:41:23.34	357.53	12.31	-31.8	-46.8	3.8	7.43e-01	0	43	104	0	24	20130
2026-01-17 03:41:26.34	357.08	12.54	-32.1	-47.3	3.9	7.46e-01	0	43	104	0	25	20660
2026-01-17 03:41:29.35	356.61	12.77	-32.4	-48.5	3.8	7.48e-01	0	43	104	0	25	22853
2026-01-17 03:41:32.35	356.14	13.00	-32.4	-48.5	3.8	7.42e-01	0	43	104	0	25	22962
2026-01-17 03:41:35.36	355.66	13.23	-32.8	-50.0	3.8	7.44e-01	0	43	104	0	26	25955
2026-01-17 03:41:38.37	355.17	13.46	-32.9	-50.3	3.8	7.45e-01	0	43	104	0	26	26724
2026-01-17 03:41:41.37	354.68	13.69	-32.7	-49.3	3.8	7.47e-01	0	43	104	0	26	24418
2026-01-17 03:41:44.38	354.17	13.92	-32.6	-49.2	3.8	7.47e-01	0	43	104	0	25	24419
2026-01-17 03:41:47.38	353.66	14.15	-32.3	-47.8	3.8	7.45e-01	0	43	104	0	25	21559
2026-01-17 03:41:50.40	353.13	14.39	-32.0	-47.4	3.8	7.42e-01	0	43	104	0	24	21062
2026-01-17 03:41:53.40	352.60	14.62	-32.6	-48.8	3.8	7.45e-01	0	43	104	0	26	23125
2026-01-17 03:41:56.42	352.06	14.85	-32.3	-47.9	3.8	7.46e-01	0	43	104	0	25	21598
2026-01-17 03:41:59.43	351.50	15.09	-31.3	-45.2	3.8	7.43e-01	0	43	104	0	23	17877
2026-01-17 03:42:02.44	350.94	15.32	-30.2	-43.0	3.8	7.45e-01	0	43	104	0	21	15636
2026-01-17 03:42:05.44	350.37	15.55	-30.4	-43.4	3.8	7.45e-01	0	43	104	0	21	16129
2026-01-17 03:42:08.45	349.79	15.78	-30.3	-43.2	3.8	7.45e-01	0	43	104	0	21	15930
2026-01-17 03:42:11.45	349.21	16.02	-31.2	-44.9	3.8	7.44e-01	0	43	104	0	23	17407
2026-01-17 03:42:14.47	348.60	16.25	-32.1	-47.0	3.8	7.44e-01	0	43	104	0	25	19941
2026-01-17 03:42:17.49	347.99	16.48	-32.3	-47.6	3.8	7.44e-01	0	43	104	0	25	21104
2026-01-17 03:42:20.49	347.37	16.71	-32.0	-46.9	3.8	7.47e-01	0	43	104	0	24	20062
2026-01-17 03:42:23.50	346.74	16.94	-32.6	-48.8	3.8	7.47e-01	0	43	104	0	25	23234
2026-01-17 03:42:26.49	346.11	17.16	-33.0	-50.1	3.8	7.43e-01	0	43	104	0	26	25827
2026-01-17 03:42:29.49	345.46	17.39	-32.9	-42.2	4.7	7.20e-01	0	43	104	0	26	10492
2026-01-17 03:42:32.50	344.80	17.61	-32.8	-41.2	10.5	6.17e-01	0	43	0	3670016	26	9467
2026-01-17 03:42:35.51	344.12	17.84	-32.8	-41.3	10.4	6.15e-01	0	43	0	9437184	26	9582
2026-01-17 03:42:38.50	343.44	18.06	-32.7	-40.9	10.8	6.15e-01	0	43	0	15204352	26	9207
2026-01-17 03:42:41.50	342.75	18.28	-32.5	-39.9	12.0	6.07e-01	0	43	0	20971520	25	8470
2026-01-17 03:42:44.51	342.05	18.50	-31.8	-37.0	14.4	6.05e-01	0	43	0	26214400	25	6501
2026-01-17 03:42:47.50	341.34	18.71	-30.9	-34.9	16.5	6.03e-01	0	44	0	31981568	23	5690
2026-01-17 03:42:50.49	340.62	18.92	-30.1	-33.3	18.3	6.02e-01	0	43	0	37748736	21	5226
2026-01-17 03:42:53.50	339.88	19.13	-30.3	-34.0	18.0	6.02e-01	0	43	0	42991616	21	5491
2026-01-17 03:42:56.51	339.13	19.34	-31.1	-35.5	16.2	6.00e-01	0	43	0	48758784	23	5951
2026-01-17 03:42:59.53	338.37	19.55	-29.8	-32.6	18.7	6.02e-01	0	43	0	54525952	21	4976
2026-01-17 03:43:02.51	337.61	19.74	-29.1	-32.4	18.3	6.03e-01	0	43	0	60293120	21	5291
2026-01-17 03:43:05.52	336.82	19.94	-29.9	-33.3	18.7	6.03e-01	0	43	0	65536000	20	5319
2026-01-17 03:43:08.52	336.04	20.14	-29.7	-32.8	18.9	6.04e-01	0	44	0	71303168	20	5136
2026-01-17 03:43:11.53	335.23	20.33	-29.4	-32.5	18.5	6.03e-01	0	43	0	77070336	19	5154
2026-01-17 03:43:14.54	334.42	20.51	-29.7	-32.7	18.7	6.03e-01	0	43	0	82837504	20	5125
2026-01-17 03:43:17.55	333.60	20.69	-29.5	-32.8	19.3	6.01e-01	0	43	0	88080384	19	5231
2026-01-17 03:43:20.56	332.76	20.87	-29.5	-32.8	19.4	6.02e-01	0	44	0	93847552	19	5258
2026-01-17 03:43:23.58	331.92	21.04	-29.5	-32.8	19.4	6.03e-01	0	43	0	99614720	19	5242
2026-01-17 03:43:26.57	331.07	21.21	-29.5	-32.7	19.5	5.98e-01	0	44	0	105381888	19	5204
2026-01-17 03:43:29.57	330.21	21.37	-29.7	-32.9	18.9	6.03e-01	0	43	0	110624768	20	5192
2026-01-17 03:43:32.56	329.34	21.52	-29.6	-32.6	19.1	6.04e-01	0	44	0	116391936	20	5081
2026-01-17 03:43:35.57	328.46	21.68	-29.9	-33.4	18.7	6.04e-01	0	43	0	122159104	20	5385
2026-01-17 03:43:38.59	327.57	21.82	-29.8	-33.1	18.8	6.02e-01	0	43	0	127926272	20	5250
2026-01-17 03:43:41.59	326.67	21.96	-29.6	-32.5	19.3	6.03e-01	0	43	0	133169152	20	5023
2026-01-17 03:43:44.59	325.77	22.09	-29.6	-32.6	19.1	6.04e-01	0	43	0	138936320	20	5079
2026-01-17 03:43:47.58	324.86	22.21	-29.6	-32.5	19.2	6.00e-01	0	43	0	144703488	20	5043
2026-01-17 03:43:50.58	323.94	22.33	-29.5	-32.3	19.3	6.02e-01	0	43	0	149946368	20	4961
2026-01-17 03:43:53.59	323.01	22.44	-29.7	-32.8	19.0	6.03e-01	0	43	0	155713536	20	5155
2026-01-17 03:43:56.60	322.07	22.54	-30.1	-33.8	18.4	6.01e-01	0	44	0	161480704	20	5527
2026-01-17 03:43:59.59	321.13	22.64	-29.6	-32.5	19.2	6.02e-01	0	43	0	167247872	20	5037
2026-01-17 03:44:02.58	320.19	22.72	-29.6	-32.5	19.2	6.03e-01	0	43	0	172490752	20	5029
2026-01-17 03:44:05.57	319.24	22.80	-29.6	-32.6	19.2	6.05e-01	0	44	0	178257920	20	5064
2026-01-17 03:44:08.58	318.28	22.88	-29.7	-32.7	19.0	6.00e-01	0	43	0	184025088	20	5102
2026-01-17 03:44:11.59	317.32	22.94	-29.7	-32.8	19.1	6.02e-01	0	43	0	189792256	20	5140
2026-01-17 03:44:14.59	316.35	23.00	-29.8	-33.0	18.9	6.03e-01	0	43	0	195035136	20	5203
2026-01-17 03:44:17.60	315.38	23.04	-29.7	-32.8	19.0	6.03e-01	0	43	0	200802304	20	5145
2026-01-17 03:44:20.60	314.41	23.08	-29.5	-32.8	19.5	6.04e-01	0	44	0	206569472	19	5232
2026-01-17 03:44:23.62	313.43	23.11	-29.6	-32.6	19.1	6.03e-01	0	44	0	212336640	20	5084
2026-01-17 03:44:26.64	312.44	23.14	-29.9	-33.4	18.7	6.06e-01	0	43	0	217579520	20	5385
2026-01-17 03:44:29.64	311.47	23.15	-30.1	-33.2	18.5	6.02e-01	0	44	0	223346688	21	5194
2026-01-17 03:44:32.65	310.49	23.15	-30.1	-33.5	18.3	6.04e-01	0	44	0	229113856	21	5286
2026-01-17 03:44:35.64	309.51	23.15	-30.3	-33.8	18.1	6.01e-01	0	43	0	234881024	21	5408
2026-01-17 03:44:38.65	308.53	23.14	-30.6	-34.3	17.4	6.02e-01	0	43	0	240648192	22	5521
2026-01-17 03:44:41.67	307.55	23.11	-30.5	-33.9	17.7	6.02e-01	0	44	0	245891072	22	5321
2026-01-17 03:44:44.67	306.57	23.08	-30.7	-34.5	17.4	6.03e-01	0	43	0	251658240	22	5596
2026-01-17 03:44:47.68	305.60	23.05	-30.7	-34.5	17.3	6.01e-01	0	43	0	257425408	22	5597
2026-01-17 03:44:50.68	304.63	23.00	-30.2	-33.5	18.3	6.03e-01	0	44	0	262668288	21	5300
2026-01-17 03:44:53.68	303.66	22.94	-29.6	-32.5	19.1	6.02e-01	0	44	0	268435456	20	5025
2026-01-17 03:44:56.69	302.70	22.88	-30.2	-33.7	18.0	6.03e-01	0	43	0	274202624	21	5387
2026-01-17 03:44:59.70	301.74	22.81	-29.6	-32.6	19.1	6.02e-01	0	44	0	279969792	20	5069
2026-01-17 03:45:02.70	300.78	22.73	-28.9	-30.6	20.2	6.02e-01	0	44	0	285736960	20	4406
2026-01-17 03:45:05.70	299.83	22.64	-29.7	-32.7	18.9	6.03e-01	0	44	0	290979840	20	5119
2026-01-17 03:45:08.71	298.89	22.55	-29.0	-31.1	20.0	6.04e-01	0	44	0	296747008	20	4542
2026-01-17 03:45:11.71	297.95	22.44	-29.0	-31.0	19.9	6.03e-01	0	44	0	302514176	20	4529
2026-01-17 03:45:14.72	297.02	22.33	-29.6	-33.0	19.3	6.04e-01	0	43	0	307757056	19	5324
2026-01-17 03:45:17.72	296.10	22.22	-29.1	-31.3	19.7	6.03e-01	0	44	0	313524224	20	4638
2026-01-17 03:45:20.73	295.18	22.09	-29.4	-32.4	19.6	6.03e-01	0	44	0	319291392	19	5101
2026-01-17 03:45:23.74	294.27	21.96	-29.7	-32.9	18.8	6.02e-01	0	43	0	325058560	20	5202
2026-01-17 03:45:26.75	293.37	21.82	-29.4	-32.0	19.4	6.02e-01	0	43	0	330301440	20	4857
2026-01-17 03:45:29.74	292.48	21.68	-29.6	-32.7	19.0	6.03e-01	0	44	0	336068608	20	5117
2026-01-17 03:45:32.74	291.60	21.53	-29.1	-32.5	18.6	6.04e-01	0	44	0	341835776	19	5335
2026-01-17 03:45:35.74	290.73	21.37	-29.3	-32.3	19.4	6.05e-01	0	43	0	347602944	19	5081
2026-01-17 03:45:38.74	289.86	21.21	-29.4	-32.6	18.5	6.05e-01	0	44	0	352845824	19	5167
2026-01-17 03:45:41.74	289.01	21.05	-29.5	-32.3	19.1	6.04e-01	0	43	0	358612992	20	4973
2026-01-17 03:45:44.74	288.17	20.87	-29.2	-31.9	19.8	6.02e-01	0	44	0	364380160	19	4912
2026-01-17 03:45:47.76	287.33	20.70	-30.1	-33.5	18.2	6.03e-01	0	43	0	370147328	21	5339
2026-01-17 03:45:50.77	286.50	20.51	-29.8	-33.0	18.7	6.01e-01	0	44	0	375390208	20	5236
2026-01-17 03:45:53.77	285.69	20.33	-29.3	-31.7	19.5	6.03e-01	0	44	0	381157376	20	4758
2026-01-17 03:45:56.78	284.88	20.14	-29.9	-33.4	18.6	6.05e-01	0	44	0	386924544	20	5380
2026-01-17 03:45:59.79	284.09	19.94	-29.6	-32.6	19.1	6.02e-01	0	43	0	392691712	20	5075
2026-01-17 03:46:02.78	283.31	19.75	-29.7	-33.0	18.8	6.00e-01	0	43	0	397934592	20	5230
2026-01-17 03:46:05.79	282.54	19.54	-29.7	-32.9	18.8	6.02e-01	0	43	0	403701760	20	5195
2026-01-17 03:46:08.80	281.78	19.34	-29.6	-32.5	19.0	6.01e-01	0	43	0	409468928	20	5074
2026-01-17 03:46:11.80	281.03	19.13	-29.5	-32.3	19.1	6.00e-01	0	44	0	415236096	20	4997
2026-01-17 03:46:14.79	280.29	18.92	-29.4	-32.5	19.4	6.01e-01	0	44	0	420478976	19	5164
2026-01-17 03:46:17.79	279.56	18.71	-29.3	-32.2	19.5	6.03e-01	0	44	0	426246144	19	5050
2026-01-17 03:46:20.80	278.84	18.49	-29.6	-32.7	18.8	6.03e-01	0	44	0	432013312	20	5153
2026-01-17 03:46:23.80	278.14	18.27	-29.6	-32.6	18.9	6.00e-01	0	43	0	437780480	20	5101
2026-01-17 03:46:26.80	277.44	18.05	-29.4	-32.6	19.3	6.04e-01	0	44	0	443023360	19	5185
2026-01-17 03:46:29.80	276.76	17.83	-29.7	-32.8	18.7	6.04e-01	0	44	0	448790528	20	5190
2026-01-17 03:46:32.79	276.09	17.61	-29.4	-32.5	19.3	6.03e-01	0	44	0	454557696	19	5177
2026-01-17 03:46:35.79	275.42	17.38	-29.7	-33.0	18.7	6.04e-01	0	43	0	459800576	20	5252
2026-01-17 03:46:38.79	274.77	17.16	-29.4	-32.5	19.4	6.01e-01	0	44	0	465567744	19	5149
2026-01-17 03:46:41.80	274.13	16.93	-29.6	-32.5	19.0	6.04e-01	0	44	0	471334912	20	5076
2026-01-17 03:46:44.80	273.50	16.70	-29.6	-32.6	18.8	6.02e-01	0	43	0	477102080	20	5088
2026-01-17 03:46:47.79	272.88	16.47	-29.1	-31.8	19.7	6.01e-01	0	44	0	482344960	19	4918
2026-01-17 03:46:50.79	272.26	16.24	-29.2	-32.0	19.6	6.02e-01	0	44	0	488112128	19	4998
2026-01-17 03:46:53.80	271.66	16.01	-29.1	-31.8	19.8	6.05e-01	0	43	0	493879296	19	4908
2026-01-17 03:46:56.80	271.07	15.77	-29.1	-32.3	19.7	6.02e-01	0	44	0	499646464	18	5226
2026-01-17 03:46:59.79	270.49	15.54	-29.1	-32.3	19.7	6.03e-01	0	44	0	504889344	18	5205
2026-01-17 03:47:02.80	269.92	15.31	-29.1	-32.3	17.7	6.07e-01	0	43	0	510656512	18	5204
2026-01-17 03:47:05.80	269.35	15.08	-29.2	-32.2	18.1	6.03e-01	0	44	0	516423680	19	5050
2026-01-17 03:47:08.81	268.80	14.84	-29.1	-31.9	19.5	6.02e-01	0	44	0	521666560	19	4965
2026-01-17 03:47:11.83	268.25	14.61	-29.5	-33.0	18.9	6.03e-01	0	43	0	527433728	19	5381
2026-01-17 03:47:14.84	267.71	14.37	-29.5	-33.0	18.8	6.03e-01	0	44	0	533200896	19	5383
2026-01-17 03:47:17.84	267.19	14.14	-30.2	-33.9	17.6	6.04e-01	0	44	0	538968064	21	5516
2026-01-17 03:47:20.83	266.67	13.91	-30.5	-34.9	16.9	6.01e-01	0	44	0	544210944	21	5994
2026-01-17 03:47:23.84	266.16	13.68	-29.8	-33.3	18.2	6.01e-01	0	43	0	549978112	20	5414
2026-01-17 03:47:26.85	265.66	13.44	-29.6	-32.8	18.5	6.02e-01	0	44	0	555745280	20	5199
2026-01-17 03:47:29.86	265.17	13.21	-29.5	-32.6	18.7	6.04e-01	0	44	0	561512448	20	5125
2026-01-17 03:47:32.86	264.69	12.98	-29.4	-32.8	18.9	6.03e-01	0	44	0	566755328	19	5321
2026-01-17 03:47:35.86	264.21	12.75	-29.6	-32.9	18.5	6.03e-01	0	43	0	572522496	20	5242
2026-01-17 03:47:38.87	263.74	12.52	-29.8	-33.3	18.2	6.02e-01	0	44	0	578289664	20	5403
2026-01-17 03:47:41.87	263.29	12.29	-29.5	-33.0	18.7	6.02e-01	0	44	0	584056832	19	5401
2026-01-17 03:47:44.87	262.83	12.06	-30.1	-33.9	17.4	6.00e-01	0	44	0	589299712	21	5567
2026-01-17 03:47:47.87	262.39	11.83	-30.3	-34.6	16.9	6.04e-01	0	44	0	595066880	21	5855
2026-01-17 03:47:50.88	261.95	11.60	-30.1	-34.0	17.3	6.02e-01	0	44	0	600834048	21	5591
2026-01-17 03:47:53.88	261.52	11.38	-30.0	-34.0	17.7	6.00e-01	0	44	0	606601216	20	5742
2026-01-17 03:47:56.88	261.10	11.15	-29.5	-33.1	18.5	5.99e-01	0	44	0	611844096	19	5467
2026-01-17 03:47:59.87	260.69	10.93	-29.9	-33.9	17.7	6.01e-01	0	44	0	617611264	20	5695
2026-01-17 03:48:02.87	260.28	10.70	-30.0	-34.2	17.4	6.01e-01	0	43	0	623378432	20	5811
2026-01-17 03:48:05.87	259.88	10.48	-30.0	-33.7	17.4	6.03e-01	0	44	0	629145600	21	5498
2026-01-17 03:48:08.86	259.49	10.26	-29.9	-33.8	17.6	6.03e-01	0	44	0	634388480	20	5655
2026-01-17 03:48:11.85	259.10	10.04	-29.7	-33.4	17.9	6.01e-01	0	44	0	640155648	20	5496
2026-01-17 03:48:14.86	258.72	9.82	-29.5	-32.7	18.3	6.02e-01	0	43	0	645922816	20	5213
2026-01-17 03:48:17.86	258.34	9.60	-29.7	-33.4	17.8	6.02e-01	0	43	0	651165696	20	5501
2026-01-17 03:48:20.87	257.97	9.38	-29.4	-33.1	18.3	6.01e-01	0	44	0	656932864	19	5524
2026-01-17 03:48:23.89	257.61	9.16	-28.5	-31.8	18.1	6.05e-01	0	44	0	662700032	19	5291
2026-01-17 03:48:26.89	257.25	8.95	-29.7	-34.2	15.1	6.15e-01	0	44	0	668467200	18	6104
2026-01-17 03:48:29.89	256.90	8.73	-29.5	-33.5	15.1	6.17e-01	0	44	0	673710080	19	5711
2026-01-17 03:48:32.90	256.55	8.52	-29.6	-33.1	17.8	6.01e-01	0	44	0	679477248	20	5414
2026-01-17 03:48:35.91	256.21	8.31	-29.8	-33.7	17.5	6.01e-01	0	44	0	685244416	20	5652
2026-01-17 03:48:38.92	255.88	8.09	-29.8	-33.8	17.5	6.02e-01	0	43	0	691011584	20	5658
2026-01-17 03:48:41.92	255.55	7.88	-29.9	-34.0	17.2	6.04e-01	0	44	0	696254464	20	5770
2026-01-17 03:48:44.92	255.22	7.68	-30.2	-34.3	16.7	6.02e-01	0	44	0	702021632	21	5821
2026-01-17 03:48:47.92	254.90	7.47	-30.2	-34.5	16.5	6.04e-01	0	44	0	707788800	21	5897
2026-01-17 03:48:50.92	254.59	7.26	-30.1	-34.3	16.6	6.04e-01	0	44	0	713555968	21	5793
2026-01-17 03:48:53.94	254.28	7.05	-32.9	-50.2	4.0	7.46e-01	0	44	104	718274560	26	26262
2026-01-17 03:48:56.96	253.97	6.85	-33.7	-52.9	3.8	7.44e-01	0	44	104	718274560	28	32945

#Closed at: 2026-01-17 03:48:57
#Recorded file [718 MB]: D:/data/31010_260117_064230.dat