passes_logs/2026/01/17/R2M6_AANII_01/R2M6_AANII_01__20260117_023854_NOAA_20_JPSS-1_rec.log

#Pass ID: 20260117_023854_NOAA 20 (JPSS-1)
#Satellite: NOAA 20 (JPSS-1)
#Configuration: NOAA 20
#almurnet v.1.7.20240730
#Start time: 2026-01-17 02:38:54

#Version: 2.2.20231116
#Station: R2M6_AANII_01
#Location: 30.233357 lon 59.946436 lat
#TLE: 1 43013U 17073A   26016.24631778  .00000038  00000+0  39093-4 0  9990
#TLE: 2 43013  98.7637 317.1726 0001455  37.6755 322.4523 14.19536243422915

#Time	Az	El	Level	Level2	SNR	BER	BlckErr	Temp	State	Recorded	gain1	gain2
2026-01-17 02:38:54.77	9.20	7.02	-32.2	-43.0	4.0	1.47e+00	0	41	0	0	24	12489
2026-01-17 02:38:57.78	8.88	7.19	-32.0	-40.9	5.1	6.88e-01	0	41	0	1048576	24	9983
2026-01-17 02:39:00.79	8.56	7.37	-32.0	-40.7	5.2	6.09e-01	0	41	0	7340032	24	9761
2026-01-17 02:39:03.79	8.23	7.54	-32.2	-41.6	4.8	9.16e-01	0	41	0	12582912	24	10711
2026-01-17 02:39:06.80	7.90	7.72	-31.8	-39.1	6.7	2.98e-01	0	41	0	17825792	23	8334
2026-01-17 02:39:09.80	7.57	7.90	-31.3	-37.0	8.7	4.54e-02	0	42	0	24117248	22	6989
2026-01-17 02:39:12.81	7.23	8.07	-31.0	-36.4	9.6	1.17e-02	0	42	0	29360128	21	6711
2026-01-17 02:39:15.81	6.89	8.25	-31.0	-36.4	9.6	1.39e-02	0	42	0	35651584	21	6727
2026-01-17 02:39:18.82	6.54	8.43	-31.0	-36.3	9.7	1.30e-02	0	42	0	40894464	21	6648
2026-01-17 02:39:21.82	6.19	8.61	-31.2	-36.6	9.1	2.81e-02	0	42	0	46137344	22	6727
2026-01-17 02:39:24.83	5.83	8.78	-31.0	-36.4	9.7	1.48e-02	0	42	0	52428800	21	6700
2026-01-17 02:39:27.83	5.47	8.96	-30.9	-36.1	9.9	9.43e-03	0	42	0	57671680	21	6532
2026-01-17 02:39:30.84	5.11	9.14	-30.8	-35.7	10.2	7.02e-03	0	42	0	62914560	21	6332
2026-01-17 02:39:33.86	4.74	9.32	-30.7	-35.4	10.4	9.15e-03	0	42	0	69206016	21	6170
2026-01-17 02:39:36.86	4.36	9.50	-30.6	-35.0	10.8	6.38e-03	0	42	0	74448896	21	5947
2026-01-17 02:39:39.86	3.98	9.68	-30.5	-34.9	11.2	4.25e-03	0	42	0	80740352	20	6034
2026-01-17 02:39:42.85	3.60	9.85	-30.5	-34.6	11.1	4.15e-03	0	42	0	85983232	21	5785
2026-01-17 02:39:45.86	3.21	10.03	-30.7	-35.2	10.6	5.70e-03	0	42	0	91226112	21	6062
2026-01-17 02:39:48.88	2.82	10.21	-30.8	-35.7	10.3	6.99e-03	0	42	0	97517568	21	6320
2026-01-17 02:39:51.89	2.42	10.39	-30.5	-34.6	11.1	4.26e-03	0	43	0	102760448	21	5776
2026-01-17 02:39:54.89	2.02	10.57	-30.5	-34.5	11.2	4.27e-03	0	43	0	108003328	21	5714
2026-01-17 02:39:57.90	1.61	10.75	-30.4	-34.6	11.5	3.66e-03	0	43	0	114294784	20	5848
2026-01-17 02:40:00.90	1.20	10.93	-30.5	-34.6	11.2	3.71e-03	0	43	0	119537664	21	5759
2026-01-17 02:40:03.92	0.77	11.11	-30.8	-35.5	10.5	6.76e-03	0	43	0	125829120	21	6206
2026-01-17 02:40:06.92	0.35	11.28	-30.8	-35.4	10.6	8.38e-03	0	43	0	131072000	21	6128
2026-01-17 02:40:09.92	359.92	11.46	-30.4	-34.8	11.4	8.54e-04	0	43	0	136314880	20	5947
2026-01-17 02:40:12.93	359.49	11.64	-30.5	-34.9	11.4	7.84e-04	0	43	0	142606336	20	5987
2026-01-17 02:40:15.93	359.05	11.81	-30.4	-34.1	11.6	8.13e-04	0	43	0	147849216	21	5523
2026-01-17 02:40:18.94	358.60	11.99	-30.5	-34.8	11.5	3.27e-03	0	43	0	153092096	20	5927
2026-01-17 02:40:21.95	358.15	12.17	-30.4	-34.6	11.7	3.69e-03	0	43	0	159383552	20	5848
2026-01-17 02:40:24.95	357.69	12.34	-30.4	-34.6	11.7	3.50e-03	0	43	0	164626432	20	5825
2026-01-17 02:40:27.94	357.23	12.52	-30.5	-34.5	11.4	9.54e-04	0	43	0	170917888	21	5685
2026-01-17 02:40:30.93	356.77	12.69	-30.7	-35.0	11.0	1.51e-03	0	43	0	176160768	21	5910
2026-01-17 02:40:33.95	356.29	12.87	-30.8	-35.3	10.8	2.71e-03	0	43	0	181403648	21	6049
2026-01-17 02:40:36.96	355.81	13.04	-30.7	-34.9	11.1	1.54e-03	0	43	0	187695104	21	5878
2026-01-17 02:40:39.96	355.33	13.21	-30.6	-34.7	11.3	4.40e-03	0	43	0	192937984	21	5777
2026-01-17 02:40:42.97	354.84	13.38	-30.6	-34.6	11.4	3.69e-03	0	43	0	198180864	21	5704
2026-01-17 02:40:45.96	354.35	13.55	-30.7	-35.0	11.1	1.34e-03	0	43	0	204472320	21	5886
2026-01-17 02:40:48.96	353.84	13.72	-30.6	-34.8	11.2	1.34e-03	0	43	0	209715200	21	5827
2026-01-17 02:40:51.96	353.34	13.89	-30.6	-34.6	11.4	1.00e-03	0	43	0	214958080	21	5730
2026-01-17 02:40:54.96	352.82	14.06	-30.4	-34.6	11.8	4.50e-04	0	43	0	221249536	20	5811
2026-01-17 02:40:57.97	352.30	14.22	-30.3	-34.2	12.1	2.81e-04	0	43	0	226492416	20	5627
2026-01-17 02:41:00.95	351.78	14.39	-30.2	-33.8	12.3	2.28e-04	0	43	0	232783872	20	5492
2026-01-17 02:41:03.95	351.25	14.55	-30.1	-33.8	12.4	1.17e-04	0	43	0	238026752	20	5479
2026-01-17 02:41:06.97	350.71	14.71	-30.1	-33.8	12.4	1.36e-04	0	43	0	243269632	20	5484
2026-01-17 02:41:09.97	350.17	14.87	-29.9	-33.7	12.8	4.80e-05	0	43	0	249561088	19	5579
2026-01-17 02:41:12.97	349.62	15.03	-29.7	-33.0	13.3	2.28e-05	0	43	0	254803968	19	5251
2026-01-17 02:41:15.96	349.07	15.19	-29.7	-33.0	13.4	1.67e-05	0	43	0	260046848	19	5247
2026-01-17 02:41:18.97	348.50	15.34	-29.5	-32.6	13.5	1.22e-05	0	43	0	266338304	19	5148
2026-01-17 02:41:21.98	347.94	15.50	-29.5	-32.3	13.8	6.10e-06	0	43	0	271581184	19	4973
2026-01-17 02:41:24.99	347.36	15.65	-29.4	-31.9	14.1	1.50e-06	0	43	0	277872640	19	4839
2026-01-17 02:41:27.99	346.78	15.80	-29.4	-32.1	14.0	7.00e-07	0	43	0	283115520	19	4899
2026-01-17 02:41:31.00	346.20	15.95	-29.3	-32.4	14.1	7.00e-07	0	43	0	288358400	18	5151
2026-01-17 02:41:34.01	345.61	16.09	-29.3	-32.4	14.1	4.50e-06	0	43	0	294649856	18	5130
2026-01-17 02:41:37.01	345.01	16.23	-29.3	-32.3	14.2	5.30e-06	0	43	0	299892736	18	5086
2026-01-17 02:41:40.03	344.40	16.38	-29.8	-33.1	13.4	9.90e-06	0	43	0	306184192	19	5257
2026-01-17 02:41:43.03	343.80	16.51	-29.7	-32.7	13.7	8.30e-06	0	43	0	311427072	19	5128
2026-01-17 02:41:46.04	343.18	16.65	-29.8	-33.1	13.4	1.90e-05	0	43	0	316669952	19	5265
2026-01-17 02:41:49.04	342.56	16.78	-29.7	-32.8	13.6	7.47e-05	0	43	0	322961408	19	5168
2026-01-17 02:41:52.04	341.94	16.91	-30.3	-34.0	12.4	4.11e-05	0	43	0	328204288	20	5511
2026-01-17 02:41:55.04	341.31	17.04	-29.9	-33.3	13.3	1.98e-05	0	43	0	333447168	19	5337
2026-01-17 02:41:58.05	340.67	17.17	-30.1	-33.4	12.9	3.20e-05	0	43	0	339738624	20	5273
2026-01-17 02:42:01.06	340.03	17.29	-29.9	-32.7	13.3	2.02e-04	0	43	0	344981504	20	5019
2026-01-17 02:42:04.07	339.38	17.41	-29.6	-32.6	13.7	2.39e-04	0	43	0	351272960	19	5084
2026-01-17 02:42:07.06	338.73	17.52	-29.2	-32.1	14.5	2.61e-04	0	43	0	356515840	18	4984
2026-01-17 02:42:10.07	338.08	17.63	-29.1	-31.7	14.7	2.18e-04	0	43	0	361758720	18	4860
2026-01-17 02:42:13.06	337.42	17.74	-29.1	-31.6	14.7	2.08e-04	0	44	0	368050176	18	4819
2026-01-17 02:42:16.06	336.75	17.85	-29.1	-31.8	14.6	0.00e+00	0	43	0	373293056	18	4898
2026-01-17 02:42:19.06	336.08	17.95	-28.8	-31.5	14.0	5.30e-06	0	43	0	378535936	19	4947
2026-01-17 02:42:22.06	335.41	18.05	-28.9	-31.2	14.1	3.80e-06	0	44	0	384827392	18	4690
2026-01-17 02:42:25.06	334.73	18.14	-28.9	-31.7	14.9	0.00e+00	0	43	0	390070272	17	4980
2026-01-17 02:42:28.06	334.05	18.23	-29.1	-31.8	14.7	7.00e-07	0	44	0	395313152	18	4883
2026-01-17 02:42:31.06	333.36	18.32	-28.9	-31.3	15.0	0.00e+00	0	44	0	401604608	18	4730
2026-01-17 02:42:34.07	332.67	18.40	-29.1	-31.6	14.8	6.06e-04	0	44	0	406847488	18	4821
2026-01-17 02:42:37.07	331.97	18.48	-29.1	-31.8	14.6	3.68e-04	0	44	0	413138944	18	4888
2026-01-17 02:42:40.08	331.27	18.55	-29.1	-31.8	14.6	0.00e+00	0	43	0	418381824	18	4896
2026-01-17 02:42:43.08	330.57	18.62	-29.3	-32.4	14.3	3.80e-06	0	43	0	423624704	18	5090
2026-01-17 02:42:46.08	329.87	18.68	-29.6	-32.6	13.8	0.00e+00	0	43	0	429916160	19	5081
2026-01-17 02:42:49.08	329.16	18.75	-29.7	-32.7	13.7	6.80e-06	0	44	0	435159040	19	5126
2026-01-17 02:42:52.09	328.45	18.80	-29.9	-33.4	13.3	8.15e-04	0	44	0	440401920	19	5356
2026-01-17 02:42:55.10	327.73	18.85	-29.8	-33.2	13.4	6.74e-04	0	44	0	446693376	19	5293
2026-01-17 02:42:58.09	327.02	18.90	-29.9	-33.3	13.3	4.96e-04	0	43	0	451936256	19	5333
2026-01-17 02:43:01.09	326.30	18.95	-29.8	-33.2	13.4	4.90e-04	0	44	0	457179136	19	5287
2026-01-17 02:43:04.10	325.58	18.98	-30.0	-33.0	13.1	6.17e-05	0	43	0	463470592	20	5141
2026-01-17 02:43:07.09	324.86	19.02	-29.9	-32.9	13.1	1.84e-04	0	44	0	468713472	20	5106
2026-01-17 02:43:10.09	324.14	19.05	-30.0	-33.3	12.9	4.63e-04	0	44	0	475004928	20	5248
2026-01-17 02:43:13.08	323.42	19.07	-30.1	-33.5	12.8	8.47e-04	0	44	0	480247808	20	5327
2026-01-17 02:43:16.08	322.69	19.09	-30.2	-33.8	12.6	5.55e-04	0	44	0	485490688	20	5429
2026-01-17 02:43:19.08	321.97	19.11	-30.2	-33.7	12.7	1.57e-04	0	44	0	491782144	20	5392
2026-01-17 02:43:22.08	321.24	19.12	-29.9	-33.0	13.1	5.34e-05	0	43	0	497025024	20	5136
2026-01-17 02:43:25.08	320.51	19.12	-29.9	-33.4	13.3	2.38e-04	0	43	0	502267904	19	5377
2026-01-17 02:43:28.08	319.79	19.12	-29.9	-32.8	13.3	9.71e-04	0	43	0	508559360	20	5041
2026-01-17 02:43:31.09	319.06	19.12	-29.9	-33.4	13.2	1.31e-03	0	44	0	513802240	19	5358
2026-01-17 02:43:34.08	318.33	19.11	-30.4	-34.3	12.2	4.58e-04	0	44	0	519045120	20	5662
2026-01-17 02:43:37.09	317.60	19.09	-30.5	-34.1	12.0	7.32e-04	0	44	0	525336576	21	5470
2026-01-17 02:43:40.09	316.88	19.07	-30.3	-34.1	12.4	7.63e-04	0	44	0	530579456	20	5555
2026-01-17 02:43:43.11	316.15	19.05	-29.9	-33.0	13.1	9.54e-04	0	44	0	536870912	20	5122
2026-01-17 02:43:46.12	315.42	19.02	-30.1	-33.4	12.8	2.36e-05	0	43	0	542113792	20	5276
2026-01-17 02:43:49.13	314.70	18.99	-29.5	-32.4	13.9	4.50e-06	0	43	0	547356672	19	4991
2026-01-17 02:43:52.12	313.98	18.95	-29.2	-32.0	14.5	7.53e-04	0	44	0	553648128	18	4972
2026-01-17 02:43:55.14	313.26	18.91	-29.3	-32.2	14.3	1.57e-03	0	44	0	558891008	18	5031
2026-01-17 02:43:58.15	312.54	18.86	-29.5	-32.2	14.0	1.60e-03	0	43	0	564133888	19	4931
2026-01-17 02:44:01.15	311.82	18.81	-29.1	-31.8	14.6	1.42e-03	0	44	0	570425344	18	4884
2026-01-17 02:44:04.15	311.11	18.75	-28.9	-31.7	14.9	0.00e+00	0	44	0	575668224	17	4978
2026-01-17 02:44:07.16	310.40	18.69	-28.7	-31.1	15.3	0.00e+00	0	44	0	581959680	17	4779
2026-01-17 02:44:10.17	309.69	18.63	-28.6	-30.9	15.4	0.00e+00	0	44	0	587202560	17	4709
2026-01-17 02:44:13.18	308.99	18.56	-28.8	-31.6	15.0	0.00e+00	0	44	0	592445440	17	4928
2026-01-17 02:44:16.19	308.29	18.49	-28.9	-31.7	15.0	3.96e-04	0	44	0	598736896	17	4965
2026-01-17 02:44:19.20	307.59	18.41	-29.0	-31.9	14.8	3.21e-04	0	43	0	603979776	17	5061
2026-01-17 02:44:22.20	306.90	18.33	-27.9	-30.7	14.1	0.00e+00	0	44	0	609222656	17	5001
2026-01-17 02:44:25.21	306.21	18.24	-29.3	-32.3	13.1	0.00e+00	0	44	0	615514112	18	5064
2026-01-17 02:44:28.21	305.52	18.15	-29.4	-32.4	13.9	3.00e-06	0	43	0	620756992	18	5122
2026-01-17 02:44:31.21	304.84	18.06	-29.2	-32.0	14.4	7.00e-07	0	44	0	627048448	18	4959
2026-01-17 02:44:34.21	304.16	17.96	-29.1	-31.7	14.6	2.34e-03	0	43	0	632291328	18	4869
2026-01-17 02:44:37.21	303.49	17.86	-29.4	-32.6	14.1	1.11e-03	0	43	0	637534208	18	5170
2026-01-17 02:44:40.21	302.83	17.76	-29.6	-32.6	13.7	3.00e-06	0	44	0	643825664	19	5092
2026-01-17 02:44:43.21	302.16	17.65	-29.8	-33.0	13.5	8.30e-06	0	44	0	649068544	19	5221
2026-01-17 02:44:46.21	301.51	17.54	-29.8	-33.0	13.4	1.67e-05	0	44	0	654311424	19	5233
2026-01-17 02:44:49.21	300.85	17.42	-29.6	-32.7	13.6	1.37e-05	0	44	0	660602880	19	5112
2026-01-17 02:44:52.22	300.20	17.30	-29.5	-32.3	13.9	1.16e-04	0	44	0	665845760	19	4954
2026-01-17 02:44:55.23	299.56	17.18	-29.7	-32.7	13.7	1.59e-03	0	44	0	672137216	19	5114
2026-01-17 02:44:58.24	298.92	17.06	-29.4	-32.1	14.0	1.90e-03	0	44	0	677380096	19	4910
2026-01-17 02:45:01.25	298.29	16.93	-29.4	-32.5	13.7	2.44e-03	0	44	0	682622976	18	5153
2026-01-17 02:45:04.26	297.66	16.80	-29.6	-32.6	13.6	5.30e-06	0	44	0	688914432	19	5079
2026-01-17 02:45:07.26	297.04	16.66	-29.7	-32.7	13.6	7.60e-06	0	44	0	694157312	19	5117
2026-01-17 02:45:10.26	296.42	16.53	-29.6	-32.7	13.6	1.93e-03	0	44	0	699400192	19	5119
2026-01-17 02:45:13.26	295.81	16.39	-29.5	-32.2	13.9	2.24e-03	0	43	0	705691648	19	4955
2026-01-17 02:45:16.27	295.20	16.25	-29.8	-33.1	13.3	2.27e-03	0	44	0	710934528	19	5276
2026-01-17 02:45:19.28	294.60	16.11	-29.9	-33.5	13.0	4.11e-03	0	44	0	717225984	19	5419
2026-01-17 02:45:22.28	294.01	15.96	-29.9	-33.3	13.2	3.62e-03	0	44	0	722468864	19	5358
2026-01-17 02:45:25.29	293.42	15.81	-29.8	-33.1	13.2	4.30e-03	0	44	0	727711744	19	5283
2026-01-17 02:45:28.30	292.84	15.66	-29.9	-32.9	13.0	2.82e-03	0	44	0	734003200	20	5112
2026-01-17 02:45:31.31	292.26	15.51	-29.9	-33.6	12.9	2.51e-03	0	44	0	739246080	19	5473
2026-01-17 02:45:34.32	291.69	15.36	-30.0	-33.4	12.6	2.60e-03	0	43	0	744488960	20	5310
2026-01-17 02:45:37.33	291.13	15.20	-30.2	-33.8	12.3	5.16e-03	0	44	0	750780416	20	5467
2026-01-17 02:45:40.33	290.57	15.04	-30.1	-33.7	12.4	4.56e-03	0	44	0	756023296	20	5433
2026-01-17 02:45:43.33	290.02	14.89	-30.3	-34.1	12.0	4.90e-03	0	43	0	762314752	20	5626
2026-01-17 02:45:46.34	289.47	14.72	-30.6	-34.6	11.4	3.17e-03	0	44	0	767557632	21	5721
2026-01-17 02:45:49.34	288.93	14.56	-30.8	-35.3	10.8	3.54e-03	0	44	0	772800512	21	6046
2026-01-17 02:45:52.35	288.40	14.40	-30.3	-34.4	11.8	2.87e-03	0	44	0	779091968	20	5748
2026-01-17 02:45:55.36	287.87	14.23	-30.2	-33.8	12.2	3.76e-03	0	44	0	784334848	20	5507
2026-01-17 02:45:58.37	287.34	14.07	-30.3	-34.4	11.8	4.83e-03	0	44	0	789577728	20	5757
2026-01-17 02:46:01.36	286.83	13.90	-30.6	-34.8	11.1	6.48e-03	0	44	0	795869184	21	5857
2026-01-17 02:46:04.37	286.32	13.73	-30.6	-34.9	10.9	3.53e-03	0	44	0	801112064	21	5911
2026-01-17 02:46:07.37	285.81	13.56	-30.4	-34.1	11.6	3.57e-03	0	44	0	807403520	21	5514
2026-01-17 02:46:10.38	285.31	13.39	-30.7	-35.1	10.8	4.34e-03	0	44	0	812646400	21	6001
2026-01-17 02:46:13.38	284.82	13.22	-30.8	-35.4	10.6	3.71e-03	0	44	0	817889280	21	6139
2026-01-17 02:46:16.38	284.33	13.05	-30.6	-34.8	11.1	1.80e-03	0	43	0	824180736	21	5827
2026-01-17 02:46:19.38	283.85	12.87	-30.7	-35.1	10.8	5.77e-03	0	44	0	829423616	21	5969
2026-01-17 02:46:22.38	283.38	12.70	-30.7	-35.3	10.6	5.84e-03	0	44	0	834666496	21	6081
2026-01-17 02:46:25.38	282.91	12.53	-30.5	-34.7	11.1	2.58e-03	0	44	0	840957952	21	5792
2026-01-17 02:46:28.40	282.44	12.35	-30.4	-34.6	11.5	1.93e-03	0	44	0	846200832	20	5862
2026-01-17 02:46:31.40	281.98	12.17	-30.4	-34.9	11.3	9.38e-04	0	44	0	851443712	20	6015
2026-01-17 02:46:34.41	281.53	12.00	-30.5	-34.5	11.2	1.53e-03	0	44	0	857735168	21	5733
2026-01-17 02:46:37.42	281.08	11.82	-30.3	-34.3	11.8	7.56e-04	0	44	0	862978048	20	5720
2026-01-17 02:46:40.43	280.64	11.64	-30.2	-34.0	12.0	2.97e-04	0	43	0	869269504	20	5578
2026-01-17 02:46:43.44	280.20	11.46	-30.1	-33.7	12.2	2.00e-03	0	44	0	874512384	20	5457
2026-01-17 02:46:46.45	279.77	11.29	-29.9	-33.7	12.6	2.60e-03	0	44	0	879755264	19	5546
2026-01-17 02:46:49.45	279.34	11.11	-30.1	-33.8	12.0	4.88e-04	0	44	0	886046720	20	5534
2026-01-17 02:46:52.47	278.92	10.93	-29.9	-33.3	12.3	2.08e-04	0	44	0	891289600	20	5323
2026-01-17 02:46:55.48	278.50	10.75	-30.0	-34.0	12.3	7.47e-05	0	44	0	897581056	19	5703
2026-01-17 02:46:58.50	278.09	10.57	-30.0	-34.3	11.9	4.96e-04	0	44	0	902823936	19	5888
2026-01-17 02:47:01.50	277.68	10.39	-29.9	-33.8	11.2	1.78e-04	0	44	0	908066816	19	5614
2026-01-17 02:47:04.50	277.28	10.21	-29.8	-33.5	12.3	7.24e-05	0	44	0	914358272	19	5475
2026-01-17 02:47:07.50	276.89	10.03	-29.8	-33.4	12.6	1.09e-04	0	44	0	919601152	19	5447
2026-01-17 02:47:10.50	276.49	9.86	-29.4	-32.8	13.3	1.52e-05	0	44	0	924844032	18	5341
2026-01-17 02:47:13.51	276.11	9.68	-29.4	-32.8	13.3	1.75e-05	0	44	0	931135488	18	5316
2026-01-17 02:47:16.52	275.73	9.50	-29.6	-32.8	13.0	4.65e-05	0	44	0	936378368	19	5214
2026-01-17 02:47:19.52	275.35	9.32	-29.6	-32.9	12.9	4.34e-05	0	44	0	941621248	19	5275
2026-01-17 02:47:22.52	274.98	9.14	-29.6	-33.0	12.9	4.88e-05	0	44	0	947912704	19	5292
2026-01-17 02:47:25.53	274.61	8.96	-29.7	-33.3	12.6	2.47e-03	0	44	0	953155584	19	5438
2026-01-17 02:47:28.54	274.25	8.78	-29.7	-33.2	12.7	2.27e-03	0	44	0	959447040	19	5385
2026-01-17 02:47:31.53	273.89	8.60	-29.7	-33.1	12.6	2.53e-03	0	44	0	964689920	19	5381
2026-01-17 02:47:34.54	273.54	8.43	-29.6	-33.1	12.6	1.38e-04	0	44	0	969932800	19	5378
2026-01-17 02:47:37.54	273.19	8.25	-29.6	-32.9	12.8	4.27e-05	0	44	0	976224256	19	5295
2026-01-17 02:47:40.55	272.84	8.07	-29.6	-33.0	12.6	6.02e-05	0	44	0	981467136	19	5327
2026-01-17 02:47:43.55	272.50	7.89	-29.5	-32.7	12.8	3.44e-03	0	44	0	987758592	19	5224
2026-01-17 02:47:46.54	272.16	7.72	-29.6	-33.2	12.5	3.68e-03	0	44	0	993001472	19	5397
2026-01-17 02:47:49.53	271.83	7.54	-29.8	-33.6	12.3	4.27e-03	0	44	0	998244352	19	5571
2026-01-17 02:47:52.53	271.51	7.36	-29.8	-33.7	12.1	4.15e-03	0	43	0	1004535808	19	5629
2026-01-17 02:47:55.53	271.18	7.19	-29.9	-33.9	11.9	6.01e-04	0	44	0	1009778688	19	5727
2026-01-17 02:47:58.54	270.86	7.01	-32.8	-47.2	3.8	1.49e+00	0	44	104	1012924416	25	18807

#Closed at: 2026-01-17 02:47:59
#Recorded file [1012 MB]: D:/data/31010_260117_053856.dat