passes_logs/2026/01/17/R2M6_AANII_01/R2M6_AANII_01__20260117_112921_FENGYUN_3D_rec.log

#Pass ID: 20260117_112921_FENGYUN 3D
#Satellite: FENGYUN 3D
#Configuration: FENGYUN 3D
#almurnet v.1.7.20240730
#Start time: 2026-01-17 11:29:23

#Version: 2.2.20231116
#Station: R2M6_AANII_01
#Location: 30.233357 lon 59.946436 lat
#TLE: 1 43010U 17072A   26016.27214855  .00000192  00000+0  11235-3 0  9990
#TLE: 2 43010  98.9932 348.1078 0002365 105.5031 254.6406 14.19695933423435

#Time	Az	El	Level	Level2	SNR	BER	BlckErr	Temp	State	Recorded	gain1	gain2
2026-01-17 11:29:23.10	132.91	7.15	-29.8	-32.7	5.4	7.84e-01	0	41	0	0	20	5023
2026-01-17 11:29:26.10	132.78	7.37	-29.7	-32.4	10.2	4.84e-03	0	41	0	5242880	20	4890
2026-01-17 11:29:29.11	132.65	7.60	-29.3	-31.8	11.1	2.06e-03	0	41	0	22020096	19	4776
2026-01-17 11:29:32.11	132.52	7.83	-28.3	-29.7	12.7	5.83e-05	0	41	0	38797312	18	4255
2026-01-17 11:29:35.11	132.39	8.06	-27.9	-29.9	13.2	6.80e-06	0	42	0	55574528	16	4501
2026-01-17 11:29:38.12	132.25	8.30	-27.8	-29.7	13.3	1.60e-05	0	42	0	73400320	16	4444
2026-01-17 11:29:41.12	132.11	8.54	-28.0	-30.1	13.1	1.60e-05	0	42	0	90177536	16	4569
2026-01-17 11:29:44.15	131.97	8.78	-27.9	-29.9	13.2	1.83e-05	0	42	0	106954752	16	4507
2026-01-17 11:29:47.16	131.83	9.02	-27.3	-28.4	14.1	1.10e-06	0	42	0	123731968	16	4088
2026-01-17 11:29:50.16	131.68	9.26	-27.5	-28.9	13.9	1.10e-06	0	42	0	140509184	16	4215
2026-01-17 11:29:53.17	131.53	9.51	-27.6	-29.0	13.9	0.00e+00	0	42	0	157286400	16	4232
2026-01-17 11:29:56.18	131.38	9.76	-27.2	-28.6	14.2	2.20e-06	0	42	0	174063616	15	4249
2026-01-17 11:29:59.18	131.23	10.01	-27.4	-29.2	13.9	1.10e-06	0	42	0	190840832	15	4409
2026-01-17 11:30:02.19	131.07	10.26	-27.2	-28.7	14.2	0.00e+00	0	42	0	208666624	15	4272
2026-01-17 11:30:05.19	130.91	10.51	-27.1	-28.5	14.3	2.20e-06	0	42	0	225443840	15	4209
2026-01-17 11:30:08.18	130.75	10.77	-26.9	-27.9	14.7	0.00e+00	0	42	0	242221056	15	4044
2026-01-17 11:30:11.19	130.58	11.03	-27.0	-28.6	14.6	0.00e+00	0	42	0	258998272	14	4360
2026-01-17 11:30:14.20	130.41	11.29	-26.8	-28.2	14.9	0.00e+00	0	42	0	275775488	14	4235
2026-01-17 11:30:17.21	130.24	11.56	-26.8	-28.1	14.9	0.00e+00	0	43	0	292552704	14	4217
2026-01-17 11:30:20.22	130.06	11.83	-26.8	-28.2	14.9	0.00e+00	0	42	0	309329920	14	4223
2026-01-17 11:30:23.22	129.89	12.10	-26.7	-27.9	15.1	0.00e+00	0	42	0	326107136	14	4149
2026-01-17 11:30:26.23	129.70	12.37	-26.7	-27.9	15.1	0.00e+00	0	42	0	343932928	14	4157
2026-01-17 11:30:29.24	129.52	12.65	-26.5	-27.5	15.3	1.10e-06	0	42	0	360710144	14	4056
2026-01-17 11:30:32.24	129.33	12.93	-26.4	-27.4	15.4	0.00e+00	0	43	0	377487360	14	4023
2026-01-17 11:30:35.25	129.13	13.21	-26.3	-27.2	15.5	0.00e+00	0	43	0	394264576	14	3969
2026-01-17 11:30:38.24	128.94	13.49	-26.3	-27.6	15.6	0.00e+00	0	43	0	411041792	13	4169
2026-01-17 11:30:41.24	128.74	13.78	-26.3	-27.7	15.5	0.00e+00	0	43	0	427819008	13	4196
2026-01-17 11:30:44.25	128.53	14.07	-26.1	-27.2	15.8	0.00e+00	0	43	0	444596224	13	4073
2026-01-17 11:30:47.25	128.32	14.36	-26.0	-26.9	16.0	0.00e+00	0	43	0	461373440	13	4005
2026-01-17 11:30:50.25	128.11	14.66	-25.9	-27.2	16.1	0.00e+00	0	43	0	478150656	12	4197
2026-01-17 11:30:53.24	127.89	14.96	-25.8	-27.1	16.2	0.00e+00	0	43	0	494927872	12	4160
2026-01-17 11:30:56.24	127.67	15.26	-25.9	-27.3	16.1	0.00e+00	0	43	0	511705088	12	4226
2026-01-17 11:30:59.24	127.44	15.57	-25.9	-27.3	16.1	0.00e+00	0	43	0	529530880	12	4220
2026-01-17 11:31:02.25	127.21	15.88	-25.8	-26.9	16.4	0.00e+00	0	43	0	546308096	12	4117
2026-01-17 11:31:05.25	126.97	16.19	-25.4	-26.1	16.8	0.00e+00	0	43	0	563085312	12	3907
2026-01-17 11:31:08.26	126.73	16.51	-25.4	-26.6	16.9	0.00e+00	0	43	0	579862528	11	4126
2026-01-17 11:31:11.26	126.48	16.83	-25.2	-26.1	17.2	0.00e+00	0	43	0	596639744	11	4007
2026-01-17 11:31:14.26	126.23	17.15	-25.2	-26.1	17.2	0.00e+00	0	43	0	613416960	11	4017
2026-01-17 11:31:17.27	125.97	17.48	-25.3	-26.3	17.1	0.00e+00	0	43	0	630194176	11	4053
2026-01-17 11:31:20.28	125.70	17.82	-25.6	-27.0	16.7	0.00e+00	0	43	0	646971392	11	4235
2026-01-17 11:31:23.28	125.43	18.15	-25.5	-26.7	16.9	0.00e+00	0	43	0	664797184	11	4173
2026-01-17 11:31:26.28	125.15	18.49	-25.4	-26.7	17.0	0.00e+00	0	43	0	681574400	11	4153
2026-01-17 11:31:29.29	124.87	18.84	-25.5	-26.7	17.0	0.00e+00	0	43	0	698351616	11	4157
2026-01-17 11:31:32.28	124.58	19.18	-25.1	-25.8	17.5	0.00e+00	0	43	0	715128832	11	3926
2026-01-17 11:31:35.30	124.28	19.54	-24.8	-25.7	17.8	0.00e+00	0	43	0	731906048	10	3996
2026-01-17 11:31:38.30	123.97	19.89	-24.9	-26.0	17.6	0.00e+00	0	43	0	748683264	10	4087
2026-01-17 11:31:41.32	123.66	20.25	-24.9	-26.0	17.6	0.00e+00	0	43	0	765460480	10	4087
2026-01-17 11:31:44.32	123.34	20.62	-24.9	-26.0	17.7	0.00e+00	0	43	0	783286272	10	4084
2026-01-17 11:31:47.32	123.01	20.99	-24.7	-25.6	17.9	0.00e+00	0	43	0	800063488	10	3970
2026-01-17 11:31:50.32	122.67	21.36	-24.4	-25.0	18.2	0.00e+00	0	43	0	816840704	10	3836
2026-01-17 11:31:53.31	122.33	21.74	-24.6	-25.3	18.1	0.00e+00	0	43	0	833617920	10	3903
2026-01-17 11:31:56.31	121.98	22.12	-24.7	-25.6	17.9	0.00e+00	0	43	0	850395136	10	3982
2026-01-17 11:31:59.31	121.62	22.51	-24.5	-25.2	18.1	0.00e+00	0	43	0	867172352	10	3900
2026-01-17 11:32:02.32	121.24	22.90	-24.6	-25.4	18.1	0.00e+00	0	43	0	883949568	10	3942
2026-01-17 11:32:05.32	120.86	23.30	-24.4	-24.8	18.4	0.00e+00	0	43	0	900726784	10	3801
2026-01-17 11:32:08.30	120.47	23.69	-24.4	-24.9	18.3	0.00e+00	0	43	0	917504000	10	3813
2026-01-17 11:32:11.30	120.07	24.10	-24.6	-25.3	18.2	0.00e+00	0	43	0	934281216	10	3904
2026-01-17 11:32:14.32	119.66	24.51	-24.6	-25.3	18.1	0.00e+00	0	43	0	951058432	10	3912
2026-01-17 11:32:17.33	119.23	24.93	-24.5	-25.1	18.3	0.00e+00	0	43	0	968884224	10	3852
2026-01-17 11:32:20.34	118.80	25.35	-24.0	-24.5	18.8	0.00e+00	0	44	0	985661440	9	3832
2026-01-17 11:32:23.35	118.35	25.78	-23.9	-24.9	18.9	4.50e-06	0	43	0	1002438656	8	4020
2026-01-17 11:32:26.35	117.89	26.21	-23.8	-24.7	19.0	4.50e-06	0	43	0	1019215872	8	3980
2026-01-17 11:32:29.34	117.42	26.64	-23.9	-24.8	18.9	4.50e-06	0	43	0	1035993088	8	4017
2026-01-17 11:32:32.34	116.93	27.08	-23.8	-24.7	19.0	0.00e+00	0	43	0	1052770304	8	3973
2026-01-17 11:32:35.35	116.43	27.53	-23.6	-24.3	19.2	0.00e+00	0	43	0	1069547520	8	3891
2026-01-17 11:32:38.35	115.92	27.97	-23.8	-24.5	19.1	0.00e+00	0	43	0	1086324736	8	3944
2026-01-17 11:32:41.36	115.39	28.43	-23.8	-24.7	19.0	2.20e-06	0	43	0	1104150528	8	3986
2026-01-17 11:32:44.36	114.84	28.89	-24.0	-25.0	18.9	0.00e+00	0	43	0	1120927744	8	4046
2026-01-17 11:32:47.37	114.28	29.35	-23.9	-24.8	19.0	0.00e+00	0	43	0	1137704960	8	4015
2026-01-17 11:32:50.38	113.70	29.82	-23.7	-24.5	19.1	0.00e+00	0	44	0	1154482176	8	3931
2026-01-17 11:32:53.39	113.10	30.29	-23.7	-24.4	19.2	0.00e+00	0	43	0	1171259392	8	3901
2026-01-17 11:32:56.41	112.49	30.77	-23.4	-23.8	19.5	0.00e+00	0	43	0	1188036608	8	3759
2026-01-17 11:32:59.42	111.85	31.26	-23.5	-24.1	19.4	0.00e+00	0	43	0	1204813824	8	3836
2026-01-17 11:33:02.43	111.20	31.74	-23.8	-24.6	19.1	0.00e+00	0	44	0	1221591040	8	3946
2026-01-17 11:33:05.44	110.53	32.23	-23.5	-23.9	19.5	0.00e+00	0	43	0	1239416832	8	3799
2026-01-17 11:33:08.44	109.84	32.72	-23.4	-23.8	19.5	0.00e+00	0	43	0	1256194048	8	3779
2026-01-17 11:33:11.44	109.13	33.22	-23.6	-24.2	19.3	0.00e+00	0	44	0	1272971264	8	3868
2026-01-17 11:33:14.44	108.39	33.71	-23.5	-24.0	19.5	0.00e+00	0	43	0	1289748480	8	3812
2026-01-17 11:33:17.45	107.63	34.21	-23.5	-24.0	19.4	0.00e+00	0	43	0	1306525696	8	3824
2026-01-17 11:33:20.45	106.85	34.72	-23.3	-24.0	19.7	0.00e+00	0	43	0	1323302912	7	3918
2026-01-17 11:33:23.44	106.05	35.22	-23.1	-23.6	19.9	0.00e+00	0	43	0	1340080128	7	3821
2026-01-17 11:33:26.43	105.22	35.72	-23.5	-24.5	19.4	0.00e+00	0	43	0	1356857344	7	4041
2026-01-17 11:33:29.44	104.36	36.23	-23.3	-24.1	19.6	0.00e+00	0	44	0	1373634560	7	3947
2026-01-17 11:33:32.44	103.47	36.73	-23.3	-24.0	19.7	0.00e+00	0	43	0	1390411776	7	3921
2026-01-17 11:33:35.44	102.56	37.24	-23.4	-24.2	19.6	0.00e+00	0	43	0	1408237568	7	3971
2026-01-17 11:33:38.44	101.62	37.74	-23.5	-24.5	19.5	0.00e+00	0	43	0	1425014784	7	4049
2026-01-17 11:33:41.44	100.64	38.25	-23.5	-24.6	19.4	0.00e+00	0	43	0	1441792000	7	4062
2026-01-17 11:33:44.44	99.64	38.75	-23.4	-24.2	19.6	0.00e+00	0	43	0	1458569216	7	3967
2026-01-17 11:33:47.44	98.61	39.25	-23.4	-24.2	19.7	0.00e+00	0	44	0	1475346432	7	3967
2026-01-17 11:33:50.45	97.54	39.74	-23.7	-24.8	19.4	0.00e+00	0	43	0	1492123648	7	4116
2026-01-17 11:33:53.46	96.44	40.23	-23.5	-24.5	19.5	0.00e+00	0	43	0	1508900864	7	4045
2026-01-17 11:33:56.47	95.30	40.72	-23.4	-24.2	19.6	0.00e+00	0	43	0	1525678080	7	3969
2026-01-17 11:33:59.48	94.13	41.19	-23.0	-23.5	20.0	0.00e+00	0	43	0	1543503872	7	3802
2026-01-17 11:34:02.47	92.93	41.66	-23.3	-24.1	19.7	0.00e+00	0	43	0	1560281088	7	3941
2026-01-17 11:34:05.47	91.69	42.12	-23.5	-24.4	19.6	0.00e+00	0	44	0	1577058304	7	4009
2026-01-17 11:34:08.48	90.42	42.57	-23.4	-24.4	19.6	0.00e+00	0	44	0	1593835520	7	4002
2026-01-17 11:34:11.48	89.11	43.01	-23.1	-23.7	20.0	0.00e+00	0	43	0	1610612736	7	3837
2026-01-17 11:34:14.47	87.77	43.44	-23.2	-24.0	19.8	0.00e+00	0	43	0	1627389952	7	3909
2026-01-17 11:34:17.48	86.38	43.85	-23.0	-23.5	20.0	0.00e+00	0	43	0	1644167168	7	3803
2026-01-17 11:34:20.47	84.97	44.25	-23.5	-24.4	19.6	0.00e+00	0	44	0	1660944384	7	4020
2026-01-17 11:34:23.48	83.52	44.63	-23.5	-24.4	19.6	0.00e+00	0	43	0	1677721600	7	4010
2026-01-17 11:34:26.50	82.02	45.00	-23.5	-24.4	19.6	0.00e+00	0	44	0	1694498816	7	4013
2026-01-17 11:34:29.50	80.50	45.34	-23.8	-25.0	19.3	0.00e+00	0	43	0	1711276032	7	4166
2026-01-17 11:34:32.51	78.94	45.67	-23.4	-24.4	19.7	0.00e+00	0	43	0	1729101824	7	3998
2026-01-17 11:34:35.51	77.36	45.98	-23.3	-24.1	19.8	0.00e+00	0	43	0	1745879040	7	3929
2026-01-17 11:34:38.52	75.74	46.26	-23.4	-24.3	19.7	0.00e+00	0	43	0	1762656256	7	3993
2026-01-17 11:34:41.53	74.09	46.52	-23.5	-24.5	19.6	0.00e+00	0	43	0	1779433472	7	4037
2026-01-17 11:34:44.54	72.42	46.75	-23.5	-24.6	19.5	0.00e+00	0	44	0	1796210688	7	4050
2026-01-17 11:34:47.55	70.73	46.96	-23.5	-24.4	19.6	0.00e+00	0	44	0	1812987904	7	4019
2026-01-17 11:34:50.57	69.00	47.14	-23.3	-24.1	19.8	0.00e+00	0	43	0	1830813696	7	3934
2026-01-17 11:34:53.57	67.27	47.29	-23.6	-24.6	19.5	0.00e+00	0	43	0	1847590912	7	4067
2026-01-17 11:34:56.57	65.53	47.41	-23.5	-23.8	19.9	0.00e+00	0	43	0	1864368128	8	3747
2026-01-17 11:34:59.58	63.76	47.51	-23.2	-23.8	20.1	0.00e+00	0	43	0	1881145344	7	3858
2026-01-17 11:35:02.59	61.99	47.57	-23.0	-23.4	20.3	0.00e+00	0	43	0	1897922560	7	3767
2026-01-17 11:35:05.59	60.22	47.61	-23.2	-23.8	20.1	0.00e+00	0	44	0	1914699776	7	3855
2026-01-17 11:35:08.58	58.45	47.61	-23.5	-24.5	19.8	0.00e+00	0	43	0	1931476992	7	4016
2026-01-17 11:35:11.59	56.67	47.59	-23.4	-24.2	19.9	0.00e+00	0	43	0	1948254208	7	3942
2026-01-17 11:35:14.60	54.90	47.54	-23.4	-24.3	19.8	0.00e+00	0	44	0	1965031424	7	3975
2026-01-17 11:35:17.61	53.13	47.45	-23.3	-23.9	20.0	0.00e+00	0	43	0	1982857216	7	3886
2026-01-17 11:35:20.61	51.38	47.34	-24.0	-25.4	19.3	0.00e+00	0	43	0	1999634432	7	4246
2026-01-17 11:35:23.61	49.65	47.20	-23.3	-23.4	20.1	0.00e+00	0	44	0	2016411648	8	3659
2026-01-17 11:35:26.60	47.93	47.03	-23.4	-24.2	19.9	0.00e+00	0	43	0	2033188864	7	3953
2026-01-17 11:35:29.62	46.23	46.83	-23.4	-24.3	19.8	0.00e+00	0	44	0	2049966080	7	3970
2026-01-17 11:35:32.62	44.55	46.61	-23.5	-24.4	19.8	0.00e+00	0	43	0	2066743296	7	3991
2026-01-17 11:35:35.63	42.90	46.36	-23.4	-24.2	19.9	0.00e+00	0	44	0	2083520512	7	3942
2026-01-17 11:35:38.63	41.27	46.08	-23.3	-24.1	19.9	0.00e+00	0	43	0	2100297728	7	3923
2026-01-17 11:35:41.64	39.68	45.79	-23.4	-24.1	19.9	0.00e+00	0	44	0	2118123520	7	3937
2026-01-17 11:35:44.64	38.12	45.47	-23.2	-23.9	20.0	0.00e+00	0	43	0	2134900736	7	3875
2026-01-17 11:35:47.64	36.59	45.13	-23.0	-23.3	20.3	0.00e+00	0	43	0	2151677952	7	3741
2026-01-17 11:35:50.65	35.09	44.77	-22.9	-23.1	20.4	0.00e+00	0	44	0	2168455168	7	3706
2026-01-17 11:35:53.66	33.62	44.40	-23.0	-23.5	20.2	0.00e+00	0	43	0	2185232384	7	3781
2026-01-17 11:35:56.67	32.19	44.01	-23.1	-23.5	20.2	0.00e+00	0	43	0	2202009600	7	3790
2026-01-17 11:35:59.68	30.79	43.60	-23.1	-23.7	20.1	0.00e+00	0	43	0	2218786816	7	3821
2026-01-17 11:36:02.69	29.43	43.18	-23.1	-23.5	20.2	0.00e+00	0	44	0	2235564032	7	3780
2026-01-17 11:36:05.70	28.11	42.74	-23.3	-24.0	19.9	0.00e+00	0	44	0	2253389824	7	3913
2026-01-17 11:36:08.71	26.82	42.29	-22.8	-22.9	20.5	0.00e+00	0	44	0	2270167040	7	3649
2026-01-17 11:36:11.72	25.57	41.84	-22.6	-23.1	20.6	0.00e+00	0	43	0	2286944256	6	3810
2026-01-17 11:36:14.72	24.36	41.37	-23.0	-23.8	20.3	0.00e+00	0	43	0	2303721472	6	3965
2026-01-17 11:36:17.73	23.18	40.90	-23.4	-24.8	19.8	0.00e+00	0	44	0	2320498688	6	4210
2026-01-17 11:36:20.75	22.03	40.42	-23.2	-24.3	20.1	0.00e+00	0	44	0	2338324480	6	4075
2026-01-17 11:36:23.75	20.92	39.93	-23.3	-24.4	20.0	0.00e+00	0	44	0	2355101696	6	4113
2026-01-17 11:36:26.76	19.85	39.44	-23.2	-24.2	20.1	0.00e+00	0	43	0	2371878912	6	4056
2026-01-17 11:36:29.77	18.80	38.94	-23.2	-24.3	20.0	0.00e+00	0	44	0	2388656128	6	4077
2026-01-17 11:36:32.79	17.78	38.44	-23.2	-24.2	20.1	0.00e+00	0	43	0	2405433344	6	4063
2026-01-17 11:36:35.79	16.80	37.94	-22.8	-23.4	20.5	0.00e+00	0	44	0	2422210560	6	3864
2026-01-17 11:36:38.80	15.85	37.44	-23.0	-23.8	20.2	0.00e+00	0	44	0	2438987776	6	3972
2026-01-17 11:36:41.81	14.93	36.93	-22.9	-23.7	20.3	0.00e+00	0	43	0	2455764992	6	3952
2026-01-17 11:36:44.82	14.03	36.42	-22.9	-23.7	20.3	0.00e+00	0	43	0	2473590784	6	3942
2026-01-17 11:36:47.83	13.16	35.92	-22.8	-23.6	20.3	0.00e+00	0	44	0	2490368000	6	3915
2026-01-17 11:36:50.83	12.33	35.42	-22.8	-23.4	20.4	0.00e+00	0	44	0	2507145216	6	3867
2026-01-17 11:36:53.84	11.51	34.91	-22.8	-23.5	20.4	0.00e+00	0	43	0	2523922432	6	3894
2026-01-17 11:36:56.85	10.72	34.41	-22.9	-23.7	20.3	0.00e+00	0	43	0	2540699648	6	3933
2026-01-17 11:36:59.86	9.96	33.91	-23.0	-23.8	20.2	0.00e+00	0	44	0	2557476864	6	3971
2026-01-17 11:37:02.88	9.21	33.41	-23.1	-24.1	20.0	0.00e+00	0	44	0	2574254080	6	4053
2026-01-17 11:37:05.88	8.50	32.92	-23.3	-24.5	19.8	0.00e+00	0	43	0	2591031296	6	4139
2026-01-17 11:37:08.90	7.80	32.42	-23.3	-24.4	19.8	0.00e+00	0	44	0	2608857088	6	4117
2026-01-17 11:37:11.91	7.12	31.94	-23.7	-24.8	19.4	0.00e+00	0	43	0	2625634304	7	4111
2026-01-17 11:37:14.92	6.46	31.45	-23.4	-24.2	19.7	0.00e+00	0	44	0	2642411520	7	3944
2026-01-17 11:37:17.92	5.83	30.97	-23.5	-24.4	19.6	0.00e+00	0	43	0	2659188736	7	4002
2026-01-17 11:37:20.93	5.21	30.49	-23.5	-24.4	19.6	0.00e+00	0	43	0	2675965952	7	3995
2026-01-17 11:37:23.94	4.61	30.02	-23.3	-24.0	19.7	0.00e+00	0	43	0	2692743168	7	3916
2026-01-17 11:37:26.95	4.03	29.55	-23.5	-24.4	19.6	0.00e+00	0	43	0	2710568960	7	3995
2026-01-17 11:37:29.96	3.47	29.09	-23.4	-24.3	19.6	0.00e+00	0	43	0	2727346176	7	3965
2026-01-17 11:37:32.97	2.92	28.63	-23.5	-24.4	19.6	0.00e+00	0	43	0	2744123392	7	3990
2026-01-17 11:37:35.98	2.38	28.17	-23.7	-24.8	19.3	0.00e+00	0	43	0	2760900608	7	4104
2026-01-17 11:37:38.98	1.87	27.73	-23.9	-25.3	19.1	0.00e+00	0	43	0	2777677824	7	4214
2026-01-17 11:37:41.99	1.36	27.28	-23.7	-24.8	19.3	0.00e+00	0	43	0	2794455040	7	4101
2026-01-17 11:37:45.01	0.87	26.84	-23.8	-25.1	19.1	0.00e+00	0	43	0	2811232256	7	4183
2026-01-17 11:37:48.02	0.40	26.40	-23.6	-24.6	19.4	0.00e+00	0	44	0	2829058048	7	4050
2026-01-17 11:37:51.02	359.94	25.97	-23.7	-24.9	19.2	0.00e+00	0	43	0	2845835264	7	4122
2026-01-17 11:37:54.02	359.49	25.55	-23.5	-24.5	19.4	0.00e+00	0	44	0	2862612480	7	4031
2026-01-17 11:37:57.02	359.05	25.13	-23.6	-24.7	19.3	0.00e+00	0	43	0	2879389696	7	4073
2026-01-17 11:38:00.03	358.62	24.71	-23.5	-24.5	19.4	0.00e+00	0	44	0	2896166912	7	4031
2026-01-17 11:38:03.03	358.21	24.30	-23.6	-24.7	19.3	0.00e+00	0	43	0	2912944128	7	4069
2026-01-17 11:38:06.04	357.81	23.89	-23.7	-25.0	19.2	0.00e+00	0	44	0	2929721344	7	4137
2026-01-17 11:38:09.04	357.41	23.49	-23.9	-25.3	19.0	0.00e+00	0	43	0	2946498560	7	4221
2026-01-17 11:38:12.05	357.03	23.09	-24.0	-24.9	18.9	0.00e+00	0	44	0	2964324352	8	4022
2026-01-17 11:38:15.05	356.66	22.70	-23.9	-24.8	19.0	0.00e+00	0	43	0	2981101568	8	3996
2026-01-17 11:38:18.06	356.30	22.31	-23.9	-24.8	18.9	0.00e+00	0	43	0	2997878784	8	3995
2026-01-17 11:38:21.07	355.94	21.93	-24.1	-25.2	18.7	0.00e+00	0	43	0	3014656000	8	4093
2026-01-17 11:38:24.08	355.59	21.55	-23.9	-24.9	18.9	0.00e+00	0	43	0	3031433216	8	4004
2026-01-17 11:38:27.08	355.26	21.18	-24.3	-25.7	18.4	0.00e+00	0	43	0	3048210432	8	4201
2026-01-17 11:38:30.09	354.93	20.81	-24.3	-25.6	18.5	0.00e+00	0	43	0	3064987648	8	4189
2026-01-17 11:38:33.09	354.61	20.44	-24.6	-25.7	18.2	0.00e+00	0	44	0	3081764864	9	4097
2026-01-17 11:38:36.11	354.30	20.08	-24.8	-26.2	17.9	0.00e+00	0	43	0	3099590656	9	4241
2026-01-17 11:38:39.12	353.99	19.72	-24.7	-26.1	18.0	0.00e+00	0	43	0	3116367872	9	4208
2026-01-17 11:38:42.12	353.69	19.37	-24.7	-25.9	18.0	0.00e+00	0	43	0	3133145088	9	4161
2026-01-17 11:38:45.13	353.40	19.02	-24.7	-25.9	18.0	0.00e+00	0	43	0	3149922304	9	4160
2026-01-17 11:38:48.15	353.11	18.68	-25.1	-26.4	17.6	0.00e+00	0	43	0	3166699520	10	4160
2026-01-17 11:38:51.15	352.84	18.34	-25.2	-26.6	17.4	0.00e+00	0	44	0	3183476736	10	4226
2026-01-17 11:38:54.15	352.57	18.00	-25.5	-26.8	17.0	0.00e+00	0	43	0	3200253952	11	4145
2026-01-17 11:38:57.16	352.30	17.67	-25.3	-26.2	17.4	0.00e+00	0	43	0	3218079744	11	3994
2026-01-17 11:39:00.18	352.04	17.34	-25.2	-25.9	17.5	0.00e+00	0	43	0	3234856960	11	3941
2026-01-17 11:39:03.18	351.79	17.02	-25.3	-26.2	17.4	0.00e+00	0	43	0	3251634176	11	3994
2026-01-17 11:39:06.18	351.54	16.70	-25.3	-26.4	17.2	0.00e+00	0	43	0	3268411392	11	4049
2026-01-17 11:39:09.17	351.30	16.38	-25.6	-26.9	16.9	0.00e+00	0	43	0	3285188608	11	4181
2026-01-17 11:39:12.19	351.06	16.06	-25.7	-27.2	16.8	0.00e+00	0	44	0	3301965824	11	4263
2026-01-17 11:39:15.19	350.83	15.75	-25.7	-27.1	16.8	0.00e+00	0	43	0	3318743040	11	4233
2026-01-17 11:39:18.19	350.60	15.45	-25.6	-26.9	16.9	0.00e+00	0	43	0	3335520256	11	4181
2026-01-17 11:39:21.19	350.38	15.14	-25.5	-26.8	17.0	0.00e+00	0	43	0	3352297472	11	4154
2026-01-17 11:39:24.20	350.16	14.84	-25.7	-27.0	16.8	0.00e+00	0	44	0	3370123264	11	4221
2026-01-17 11:39:27.23	349.95	14.54	-25.7	-27.1	16.8	0.00e+00	0	44	0	3386900480	11	4224
2026-01-17 11:39:30.24	349.74	14.25	-25.9	-27.5	16.5	0.00e+00	0	43	0	3403677696	11	4357
2026-01-17 11:39:33.24	349.54	13.96	-25.9	-27.7	16.4	1.10e-06	0	43	0	3420454912	11	4396
2026-01-17 11:39:36.25	349.34	13.67	-26.0	-27.3	16.3	2.20e-06	0	44	0	3437232128	12	4175
2026-01-17 11:39:39.26	349.14	13.39	-26.0	-27.3	16.3	0.00e+00	0	43	0	3454009344	12	4179
2026-01-17 11:39:42.27	348.95	13.10	-26.3	-27.9	15.9	0.00e+00	0	44	0	3470786560	12	4334
2026-01-17 11:39:45.28	348.76	12.83	-26.1	-27.6	16.1	0.00e+00	0	43	0	3488612352	12	4260
2026-01-17 11:39:48.28	348.57	12.55	-26.3	-28.0	15.8	0.00e+00	0	43	0	3505389568	12	4375
2026-01-17 11:39:51.29	348.39	12.28	-26.5	-27.9	15.6	0.00e+00	0	44	0	3522166784	13	4243
2026-01-17 11:39:54.29	348.22	12.01	-26.3	-27.6	15.7	0.00e+00	0	43	0	3538944000	13	4145
2026-01-17 11:39:57.29	348.04	11.74	-26.6	-28.3	15.3	0.00e+00	0	43	0	3555721216	13	4337
2026-01-17 11:40:00.31	347.87	11.47	-26.1	-27.0	16.0	0.00e+00	0	44	0	3572498432	13	4007
2026-01-17 11:40:03.31	347.70	11.21	-26.3	-27.5	15.7	1.10e-06	0	43	0	3589275648	13	4141
2026-01-17 11:40:06.32	347.54	10.95	-26.6	-28.2	15.3	0.00e+00	0	43	0	3606052864	13	4325
2026-01-17 11:40:09.32	347.38	10.69	-26.6	-28.2	15.3	0.00e+00	0	44	0	3623878656	13	4332
2026-01-17 11:40:12.34	347.22	10.44	-26.8	-28.6	15.1	0.00e+00	0	43	0	3640655872	13	4442
2026-01-17 11:40:15.34	347.07	10.18	-26.9	-28.4	14.8	0.00e+00	0	44	0	3657433088	14	4279
2026-01-17 11:40:18.35	346.91	9.93	-27.0	-28.5	14.8	0.00e+00	0	43	0	3674210304	14	4298
2026-01-17 11:40:21.35	346.76	9.69	-26.9	-28.5	14.8	0.00e+00	0	44	0	3690987520	14	4287
2026-01-17 11:40:24.35	346.62	9.44	-26.8	-28.1	15.0	0.00e+00	0	43	0	3707764736	14	4201
2026-01-17 11:40:27.36	346.47	9.20	-26.8	-28.2	14.9	0.00e+00	0	43	0	3724541952	14	4204
2026-01-17 11:40:30.37	346.33	8.96	-26.9	-28.4	14.8	0.00e+00	0	43	0	3741319168	14	4269
2026-01-17 11:40:33.37	346.19	8.72	-26.9	-28.5	14.7	2.20e-06	0	44	0	3759144960	14	4297
2026-01-17 11:40:36.38	346.06	8.48	-27.0	-28.6	14.7	1.10e-06	0	43	0	3775922176	14	4326
2026-01-17 11:40:39.37	345.92	8.25	-27.1	-28.8	14.5	0.00e+00	0	44	0	3792699392	14	4402
2026-01-17 11:40:42.38	345.79	8.01	-27.4	-29.1	14.0	2.20e-06	0	44	0	3809476608	15	4360
2026-01-17 11:40:45.39	345.66	7.78	-27.8	-29.5	13.6	1.02e-05	0	43	0	3826253824	16	4346
2026-01-17 11:40:48.41	345.53	7.55	-27.8	-29.5	13.6	3.40e-06	0	44	0	3843031040	16	4365
2026-01-17 11:40:51.43	345.41	7.32	-27.3	-28.4	14.3	3.40e-06	0	43	0	3859808256	16	4052
2026-01-17 11:40:54.44	345.28	7.10	-31.3	-35.7	7.8	6.80e-06	0	44	0	3876585472	22	5990
2026-01-17 11:40:57.44	345.16	6.87	-33.9	-44.9	3.8	8.46e-01	0	44	104	3877634048	28	12806

#Closed at: 2026-01-17 11:40:57
#Recorded file [3877 MB]: D:/data/31010_260117_142924.dat