passes_logs/2026/01/17/R2M6_AANII_01/R2M6_AANII_01__20260117_082212_NOAA_21_JPSS-2_rec.log

#Pass ID: 20260117_082212_NOAA 21 (JPSS-2)
#Satellite: NOAA 21 (JPSS-2)
#Configuration: NOAA 21
#almurnet v.1.7.20240730
#Start time: 2026-01-17 08:22:14

#Version: 2.2.20231116
#Station: R2M6_AANII_01
#Location: 30.233357 lon 59.946436 lat
#TLE: 1 54234U 22150A   26016.21096038  .00000027  00000+0  33607-4 0  9993
#TLE: 2 54234  98.7500 317.0960 0000625 282.3388  77.7718 14.19534911164985

#Time	Az	El	Level	Level2	SNR	BER	BlckErr	Temp	State	Recorded	gain1	gain2
2026-01-17 08:22:14.34	99.66	7.12	-31.3	-42.8	3.8	1.49e+00	0	41	0	0	23	13508
2026-01-17 08:22:17.34	99.38	7.31	-31.1	-42.4	3.8	1.49e+00	0	41	104	0	23	13186
2026-01-17 08:22:20.36	99.09	7.50	-30.8	-41.6	3.8	1.49e+00	0	41	104	0	23	12433
2026-01-17 08:22:23.38	98.80	7.70	-30.5	-39.2	3.9	1.49e+00	0	41	104	0	22	9795
2026-01-17 08:22:26.38	98.51	7.89	-30.4	-37.6	4.6	9.60e-01	0	41	104	0	22	8197
2026-01-17 08:22:29.37	98.21	8.08	-30.8	-40.9	3.8	1.49e+00	0	41	104	0	22	11488
2026-01-17 08:22:32.39	97.91	8.28	-30.9	-41.6	3.8	1.49e+00	0	41	104	0	22	12415
2026-01-17 08:22:35.39	97.60	8.48	-30.9	-42.5	3.8	1.49e+00	0	41	104	0	22	13630
2026-01-17 08:22:38.41	97.29	8.67	-30.8	-42.3	3.8	1.49e+00	0	41	104	0	22	13502
2026-01-17 08:22:41.41	96.98	8.87	-30.8	-42.2	3.8	1.49e+00	0	41	104	0	22	13450
2026-01-17 08:22:44.41	96.66	9.07	-30.8	-42.4	3.8	1.49e+00	0	42	104	0	22	13669
2026-01-17 08:22:47.42	96.33	9.27	-30.7	-42.0	3.8	1.49e+00	0	42	104	0	22	13266
2026-01-17 08:22:50.43	96.01	9.47	-30.6	-41.8	3.8	1.49e+00	0	41	104	0	22	13058
2026-01-17 08:22:53.43	95.67	9.67	-30.6	-41.4	3.8	1.49e+00	0	42	104	0	22	12517
2026-01-17 08:22:56.44	95.34	9.87	-30.7	-40.3	3.8	1.49e+00	0	42	104	0	22	10807
2026-01-17 08:22:59.45	94.99	10.07	-30.7	-37.4	5.0	7.73e-01	0	42	104	0	22	7792
2026-01-17 08:23:02.45	94.65	10.28	-31.0	-36.9	5.9	3.34e-01	0	42	0	7340032	22	7146
2026-01-17 08:23:05.45	94.29	10.48	-31.6	-38.6	5.2	5.37e-01	0	42	0	16777216	23	8027
2026-01-17 08:23:08.46	93.94	10.68	-31.6	-38.0	5.7	4.26e-01	0	42	0	18874368	23	7469
2026-01-17 08:23:11.46	93.58	10.89	-31.8	-38.7	5.5	5.14e-01	0	42	0	9437184	23	7916
2026-01-17 08:23:14.46	93.21	11.09	-31.8	-38.2	5.7	4.14e-01	0	42	0	18874368	23	7581
2026-01-17 08:23:17.47	92.84	11.30	-31.8	-38.3	5.7	4.33e-01	0	42	0	28311552	23	7610
2026-01-17 08:23:20.47	92.46	11.50	-31.7	-37.4	6.3	2.75e-01	0	42	0	37748736	23	7002
2026-01-17 08:23:23.47	92.08	11.71	-31.0	-34.6	8.4	4.64e-02	0	42	0	47185920	23	5495
2026-01-17 08:23:26.47	91.69	11.92	-29.5	-31.8	11.4	1.11e-03	0	42	0	56623104	20	4690
2026-01-17 08:23:29.49	91.29	12.13	-28.7	-30.6	12.9	9.68e-05	0	42	0	66060288	18	4503
2026-01-17 08:23:32.48	90.89	12.33	-28.4	-29.8	13.5	1.44e-05	0	42	0	75497472	18	4254
2026-01-17 08:23:35.49	90.49	12.54	-27.9	-29.3	14.1	5.30e-06	0	42	0	84934656	17	4212
2026-01-17 08:23:38.50	90.07	12.75	-27.5	-28.9	14.6	1.50e-06	0	42	0	94371840	16	4192
2026-01-17 08:23:41.50	89.66	12.96	-27.7	-29.2	14.5	0.00e+00	0	42	0	103809024	16	4271
2026-01-17 08:23:44.50	89.23	13.17	-27.4	-28.4	14.9	7.00e-07	0	43	0	113246208	16	4074
2026-01-17 08:23:47.51	88.80	13.38	-27.5	-28.7	14.8	7.00e-07	0	43	0	121634816	16	4150
2026-01-17 08:23:50.51	88.37	13.59	-27.2	-28.7	14.9	0.00e+00	0	43	0	131072000	15	4243
2026-01-17 08:23:53.52	87.93	13.80	-27.3	-28.9	14.8	7.00e-07	0	42	0	140509184	15	4294
2026-01-17 08:23:56.53	87.48	14.01	-27.6	-29.6	14.5	7.00e-07	0	43	0	149946368	15	4497
2026-01-17 08:23:59.53	87.02	14.22	-27.7	-29.7	14.4	2.20e-06	0	43	0	159383552	15	4551
2026-01-17 08:24:02.54	86.56	14.43	-28.2	-30.4	13.9	3.80e-06	0	43	0	168820736	16	4626
2026-01-17 08:24:05.53	86.09	14.63	-28.0	-29.8	14.3	1.50e-06	0	43	0	178257920	16	4433
2026-01-17 08:24:08.53	85.62	14.84	-28.2	-30.3	13.9	7.00e-07	0	42	0	187695104	16	4605
2026-01-17 08:24:11.54	85.14	15.05	-27.7	-29.2	14.7	7.00e-07	0	42	0	197132288	16	4268
2026-01-17 08:24:14.55	84.65	15.26	-27.6	-28.9	14.8	0.00e+00	0	42	0	206569472	16	4174
2026-01-17 08:24:17.57	84.15	15.47	-27.6	-28.9	14.9	7.00e-07	0	43	0	216006656	16	4175
2026-01-17 08:24:20.58	83.64	15.68	-27.5	-28.8	14.9	0.00e+00	0	43	0	225443840	16	4160
2026-01-17 08:24:23.58	83.14	15.89	-27.4	-28.5	15.1	0.00e+00	0	43	0	234881024	16	4075
2026-01-17 08:24:26.59	82.62	16.10	-27.1	-28.3	15.3	0.00e+00	0	43	0	244318208	15	4136
2026-01-17 08:24:29.59	82.09	16.30	-27.3	-28.7	15.1	0.00e+00	0	43	0	253755392	15	4254
2026-01-17 08:24:32.60	81.56	16.51	-27.3	-28.7	15.1	0.00e+00	0	43	0	263192576	15	4251
2026-01-17 08:24:35.61	81.02	16.71	-27.1	-28.2	15.4	7.00e-07	0	43	0	272629760	15	4099
2026-01-17 08:24:38.62	80.47	16.92	-27.2	-28.6	15.1	0.00e+00	0	42	0	282066944	15	4227
2026-01-17 08:24:41.63	79.92	17.12	-27.6	-29.4	14.7	0.00e+00	0	43	0	291504128	15	4437
2026-01-17 08:24:44.64	79.36	17.32	-27.6	-29.5	14.7	7.00e-07	0	43	0	300941312	15	4469
2026-01-17 08:24:47.65	78.79	17.52	-27.5	-29.1	14.9	0.00e+00	0	43	0	310378496	15	4356
2026-01-17 08:24:50.66	78.21	17.72	-27.8	-29.9	14.5	2.20e-06	0	43	0	319815680	15	4591
2026-01-17 08:24:53.67	77.62	17.92	-27.4	-29.0	15.0	0.00e+00	0	43	0	329252864	15	4312
2026-01-17 08:24:56.69	77.03	18.12	-27.6	-29.5	14.7	7.00e-07	0	43	0	338690048	15	4471
2026-01-17 08:24:59.69	76.43	18.31	-27.5	-29.1	15.0	0.00e+00	0	43	0	348127232	15	4365
2026-01-17 08:25:02.69	75.82	18.51	-27.7	-29.7	14.7	0.00e+00	0	43	0	357564416	15	4517
2026-01-17 08:25:05.71	75.20	18.70	-27.6	-29.5	14.8	7.00e-07	0	43	0	367001600	15	4470
2026-01-17 08:25:08.72	74.58	18.89	-27.7	-29.7	14.6	0.00e+00	0	43	0	375390208	15	4514
2026-01-17 08:25:11.73	73.95	19.07	-27.4	-28.9	15.1	0.00e+00	0	43	0	384827392	15	4279
2026-01-17 08:25:14.72	73.31	19.26	-27.2	-28.6	15.3	7.00e-07	0	43	0	394264576	15	4208
2026-01-17 08:25:17.73	72.66	19.44	-27.1	-28.3	15.4	0.00e+00	0	43	0	403701760	15	4127
2026-01-17 08:25:20.72	72.01	19.62	-27.1	-28.3	15.4	0.00e+00	0	43	0	413138944	15	4138
2026-01-17 08:25:23.74	71.35	19.80	-27.3	-28.7	15.3	0.00e+00	0	43	0	422576128	15	4224
2026-01-17 08:25:26.74	70.68	19.97	-27.1	-28.3	15.5	0.00e+00	0	43	0	432013312	15	4117
2026-01-17 08:25:29.76	70.00	20.14	-26.9	-27.8	15.8	0.00e+00	0	43	0	441450496	15	3990
2026-01-17 08:25:32.76	69.31	20.31	-26.8	-27.7	15.8	0.00e+00	0	43	0	450887680	15	3973
2026-01-17 08:25:35.77	68.62	20.47	-26.9	-27.8	15.8	0.00e+00	0	43	0	460324864	15	4000
2026-01-17 08:25:38.77	67.92	20.63	-27.1	-28.8	15.5	0.00e+00	0	43	0	469762048	14	4363
2026-01-17 08:25:41.77	67.21	20.79	-27.0	-28.5	15.7	0.00e+00	0	43	0	479199232	14	4294
2026-01-17 08:25:44.77	66.50	20.94	-27.1	-28.7	15.6	0.00e+00	0	43	0	488636416	14	4332
2026-01-17 08:25:47.78	65.78	21.10	-26.7	-27.9	16.0	0.00e+00	0	43	0	498073600	14	4131
2026-01-17 08:25:50.77	65.05	21.24	-26.5	-27.4	16.2	0.00e+00	0	43	0	507510784	14	3998
2026-01-17 08:25:53.78	64.32	21.38	-26.4	-27.2	16.4	0.00e+00	0	43	0	516947968	14	3943
2026-01-17 08:25:56.79	63.57	21.52	-26.7	-27.8	16.1	0.00e+00	0	43	0	526385152	14	4087
2026-01-17 08:25:59.79	62.83	21.65	-26.7	-27.8	16.1	0.00e+00	0	43	0	535822336	14	4095
2026-01-17 08:26:02.80	62.07	21.78	-26.8	-28.1	15.9	0.00e+00	0	43	0	545259520	14	4171
2026-01-17 08:26:05.80	61.31	21.91	-26.7	-27.9	16.0	0.00e+00	0	43	0	554696704	14	4128
2026-01-17 08:26:08.81	60.54	22.03	-26.9	-28.2	15.8	0.00e+00	0	43	0	564133888	14	4215
2026-01-17 08:26:11.81	59.77	22.14	-26.9	-28.2	15.9	0.00e+00	0	43	0	573571072	14	4208
2026-01-17 08:26:14.84	58.99	22.25	-26.9	-28.3	15.8	0.00e+00	0	43	0	581959680	14	4224
2026-01-17 08:26:17.84	58.20	22.35	-26.8	-28.1	15.9	0.00e+00	0	43	0	592445440	14	4182
2026-01-17 08:26:20.85	57.41	22.45	-26.7	-27.8	16.1	0.00e+00	0	43	0	600834048	14	4096
2026-01-17 08:26:23.84	56.62	22.54	-26.7	-27.8	16.1	7.00e-07	0	43	0	610271232	14	4084
2026-01-17 08:26:26.84	55.83	22.63	-26.8	-28.0	16.0	0.00e+00	0	43	0	619708416	14	4146
2026-01-17 08:26:29.84	55.03	22.71	-26.6	-27.6	16.2	0.00e+00	0	43	0	629145600	14	4053
2026-01-17 08:26:32.85	54.22	22.79	-26.7	-27.9	16.1	0.00e+00	0	43	0	638582784	14	4117
2026-01-17 08:26:35.86	53.41	22.86	-26.9	-28.3	15.8	0.00e+00	0	43	0	648019968	14	4240
2026-01-17 08:26:38.87	52.59	22.92	-26.9	-28.4	15.8	0.00e+00	0	43	0	657457152	14	4253
2026-01-17 08:26:41.87	51.77	22.98	-26.7	-27.9	16.1	0.00e+00	0	43	0	666894336	14	4120
2026-01-17 08:26:44.88	50.95	23.03	-26.8	-28.1	15.9	0.00e+00	0	43	0	676331520	14	4184
2026-01-17 08:26:47.89	50.13	23.07	-26.7	-28.0	16.0	0.00e+00	0	43	0	685768704	14	4138
2026-01-17 08:26:50.89	49.31	23.11	-26.9	-28.2	15.9	0.00e+00	0	43	0	695205888	14	4196
2026-01-17 08:26:53.90	48.48	23.15	-26.9	-28.3	15.8	0.00e+00	0	43	0	704643072	14	4225
2026-01-17 08:26:56.90	47.65	23.17	-26.7	-27.8	16.1	0.00e+00	0	43	0	714080256	14	4099
2026-01-17 08:26:59.91	46.82	23.19	-26.7	-27.8	16.1	0.00e+00	0	43	0	723517440	14	4099
2026-01-17 08:27:02.93	45.99	23.21	-26.8	-28.1	16.0	0.00e+00	0	43	0	732954624	14	4167
2026-01-17 08:27:05.93	45.16	23.21	-27.1	-28.6	15.7	0.00e+00	0	43	0	742391808	14	4309
2026-01-17 08:27:08.94	44.33	23.21	-27.3	-29.2	15.3	0.00e+00	0	43	0	751828992	14	4491
2026-01-17 08:27:11.95	43.50	23.21	-27.9	-30.1	14.6	0.00e+00	0	43	0	761266176	15	4631
2026-01-17 08:27:14.95	42.67	23.19	-26.9	-28.3	15.9	0.00e+00	0	43	0	770703360	14	4223
2026-01-17 08:27:17.95	41.84	23.17	-26.8	-28.0	16.0	0.00e+00	0	43	0	780140544	14	4143
2026-01-17 08:27:20.96	41.01	23.15	-26.8	-28.2	15.9	0.00e+00	0	43	0	789577728	14	4188
2026-01-17 08:27:23.96	40.19	23.12	-26.6	-27.6	16.2	0.00e+00	0	43	0	799014912	14	4053
2026-01-17 08:27:26.98	39.36	23.08	-26.7	-27.8	16.1	0.00e+00	0	43	0	807403520	14	4096
2026-01-17 08:27:29.97	38.54	23.03	-26.4	-27.1	16.5	0.00e+00	0	43	0	816840704	14	3923
2026-01-17 08:27:32.96	37.73	22.98	-26.5	-27.4	16.3	0.00e+00	0	43	0	826277888	14	4006
2026-01-17 08:27:35.97	36.91	22.93	-26.5	-27.4	16.3	0.00e+00	0	43	0	835715072	14	3999
2026-01-17 08:27:38.97	36.10	22.86	-26.6	-27.6	16.2	0.00e+00	0	43	0	845152256	14	4049
2026-01-17 08:27:41.98	35.28	22.79	-26.9	-28.2	15.9	0.00e+00	0	43	0	854589440	14	4213
2026-01-17 08:27:44.98	34.48	22.72	-26.5	-27.3	16.4	0.00e+00	0	43	0	864026624	14	3971
2026-01-17 08:27:47.99	33.68	22.64	-26.6	-27.6	16.2	0.00e+00	0	43	0	873463808	14	4045
2026-01-17 08:27:51.00	32.88	22.55	-26.4	-27.2	16.4	0.00e+00	0	43	0	882900992	14	3940
2026-01-17 08:27:54.01	32.08	22.46	-26.8	-28.0	15.9	0.00e+00	0	43	0	892338176	14	4157
2026-01-17 08:27:57.00	31.30	22.36	-26.6	-27.6	16.2	0.00e+00	0	43	0	901775360	14	4031
2026-01-17 08:28:00.01	30.52	22.26	-26.9	-28.2	15.8	0.00e+00	0	43	0	911212544	14	4210
2026-01-17 08:28:03.01	29.74	22.15	-27.1	-28.7	15.6	0.00e+00	0	43	0	920649728	14	4332
2026-01-17 08:28:06.02	28.97	22.04	-27.4	-29.5	15.1	0.00e+00	0	43	0	930086912	14	4557
2026-01-17 08:28:09.02	28.20	21.92	-27.8	-29.8	14.7	7.00e-07	0	43	0	939524096	15	4543
2026-01-17 08:28:12.01	27.45	21.80	-28.2	-29.7	14.3	1.50e-06	0	43	0	948961280	17	4291
2026-01-17 08:28:15.01	26.69	21.67	-28.0	-29.3	14.5	7.00e-07	0	43	0	958398464	17	4179
2026-01-17 08:28:18.02	25.95	21.54	-27.8	-29.3	14.8	0.00e+00	0	43	0	967835648	16	4270
2026-01-17 08:28:21.02	25.21	21.40	-29.1	-31.4	13.0	2.51e-05	0	43	0	977272832	18	4710
2026-01-17 08:28:24.04	24.47	21.26	-27.3	-28.2	15.4	0.00e+00	0	43	0	986710016	16	3975
2026-01-17 08:28:27.04	23.74	21.11	-26.5	-27.3	16.3	0.00e+00	0	43	0	996147200	14	3976
2026-01-17 08:28:30.05	23.02	20.96	-26.8	-28.2	15.8	0.00e+00	0	43	0	1005584384	14	4196
2026-01-17 08:28:33.06	22.31	20.81	-27.1	-28.8	15.5	0.00e+00	0	43	0	1013972992	14	4368
2026-01-17 08:28:36.05	21.61	20.65	-27.0	-28.6	15.6	0.00e+00	0	43	0	1023410176	14	4308
2026-01-17 08:28:39.06	20.91	20.49	-26.8	-28.1	15.8	0.00e+00	0	43	0	1032847360	14	4184
2026-01-17 08:28:42.07	20.21	20.33	-26.9	-28.3	15.7	0.00e+00	0	43	0	1042284544	14	4240
2026-01-17 08:28:45.08	19.53	20.16	-27.0	-28.5	15.6	0.00e+00	0	43	0	1051721728	14	4301
2026-01-17 08:28:48.09	18.85	19.99	-26.9	-28.2	15.8	0.00e+00	0	43	0	1061158912	14	4206
2026-01-17 08:28:51.08	18.19	19.82	-27.2	-29.0	15.3	0.00e+00	0	43	0	1070596096	14	4419
2026-01-17 08:28:54.09	17.53	19.64	-26.8	-28.2	15.8	0.00e+00	0	43	0	1080033280	14	4205
2026-01-17 08:28:57.10	16.87	19.46	-26.6	-27.7	16.0	0.00e+00	0	43	0	1089470464	14	4079
2026-01-17 08:29:00.10	16.23	19.28	-26.9	-28.3	15.7	0.00e+00	0	43	0	1098907648	14	4233
2026-01-17 08:29:03.11	15.59	19.10	-27.0	-28.6	15.5	0.00e+00	0	43	0	1108344832	14	4323
2026-01-17 08:29:06.12	14.96	18.91	-27.0	-28.7	15.5	0.00e+00	0	43	0	1117782016	14	4334
2026-01-17 08:29:09.11	14.34	18.73	-27.0	-28.6	15.5	0.00e+00	0	43	0	1127219200	14	4319
2026-01-17 08:29:12.11	13.73	18.54	-26.9	-28.3	15.6	0.00e+00	0	43	0	1136656384	14	4247
2026-01-17 08:29:15.13	13.12	18.34	-26.9	-28.3	15.6	0.00e+00	0	43	0	1146093568	14	4231
2026-01-17 08:29:18.13	12.52	18.15	-26.8	-28.2	15.7	0.00e+00	0	43	0	1155530752	14	4207
2026-01-17 08:29:21.14	11.93	17.95	-27.1	-28.7	15.4	0.00e+00	0	43	0	1164967936	14	4354
2026-01-17 08:29:24.15	11.35	17.76	-27.4	-29.6	14.9	0.00e+00	0	43	0	1174405120	14	4615
2026-01-17 08:29:27.15	10.77	17.56	-27.3	-28.8	15.0	0.00e+00	0	43	0	1183842304	15	4278
2026-01-17 08:29:30.16	10.20	17.36	-27.0	-28.1	15.4	0.00e+00	0	43	0	1193279488	15	4080
2026-01-17 08:29:33.16	9.65	17.16	-27.0	-28.1	15.4	0.00e+00	0	43	0	1202716672	15	4080
2026-01-17 08:29:36.16	9.09	16.96	-27.0	-28.0	15.5	0.00e+00	0	43	0	1212153856	15	4057
2026-01-17 08:29:39.16	8.55	16.75	-26.6	-27.7	15.9	0.00e+00	0	43	0	1220542464	14	4088
2026-01-17 08:29:42.15	8.02	16.55	-26.6	-27.6	15.9	0.00e+00	0	43	0	1229979648	14	4055
2026-01-17 08:29:45.16	7.48	16.35	-27.0	-28.5	15.4	0.00e+00	0	43	0	1239416832	14	4291
2026-01-17 08:29:48.16	6.96	16.14	-27.4	-29.5	14.9	0.00e+00	0	43	0	1248854016	14	4573
2026-01-17 08:29:51.16	6.45	15.93	-27.3	-29.3	15.0	0.00e+00	0	43	0	1258291200	14	4519
2026-01-17 08:29:54.17	5.94	15.73	-27.2	-29.1	15.0	7.00e-07	0	43	0	1267728384	14	4466
2026-01-17 08:29:57.17	5.44	15.52	-27.4	-29.0	14.8	1.50e-06	0	43	0	1277165568	15	4334
2026-01-17 08:30:00.17	4.95	15.31	-27.5	-29.3	14.7	0.00e+00	0	43	0	1286602752	15	4410
2026-01-17 08:30:03.16	4.46	15.11	-27.5	-29.2	14.6	0.00e+00	0	43	0	1296039936	15	4400
2026-01-17 08:30:06.17	3.98	14.90	-27.4	-29.1	14.7	1.50e-06	0	43	0	1305477120	15	4351
2026-01-17 08:30:09.19	3.50	14.69	-27.5	-29.2	14.6	1.50e-06	0	43	0	1314914304	15	4387
2026-01-17 08:30:12.19	3.04	14.48	-27.4	-28.9	14.8	0.00e+00	0	43	0	1324351488	15	4303
2026-01-17 08:30:15.20	2.58	14.27	-27.3	-28.7	14.9	0.00e+00	0	43	0	1333788672	15	4256
2026-01-17 08:30:18.20	2.12	14.06	-27.3	-28.9	14.8	7.00e-07	0	43	0	1343225856	15	4306
2026-01-17 08:30:21.21	1.68	13.85	-27.6	-29.5	14.5	7.00e-07	0	43	0	1352663040	15	4477
2026-01-17 08:30:24.22	1.24	13.64	-27.8	-29.9	14.2	7.00e-07	0	43	0	1362100224	15	4594
2026-01-17 08:30:27.23	0.80	13.43	-27.7	-29.8	14.2	2.20e-06	0	43	0	1371537408	15	4565
2026-01-17 08:30:30.24	0.37	13.22	-27.6	-29.6	14.3	2.20e-06	0	43	0	1380974592	15	4503
2026-01-17 08:30:33.24	359.95	13.02	-27.6	-29.6	14.4	3.00e-06	0	43	0	1390411776	15	4501
2026-01-17 08:30:36.25	359.53	12.81	-27.9	-30.3	13.9	3.00e-06	0	43	0	1399848960	15	4750
2026-01-17 08:30:39.25	359.13	12.60	-28.2	-30.5	13.7	8.30e-06	0	43	0	1409286144	16	4662
2026-01-17 08:30:42.25	358.72	12.39	-28.1	-30.3	13.7	9.10e-06	0	43	0	1418723328	16	4607
2026-01-17 08:30:45.24	358.33	12.19	-28.0	-29.9	14.0	3.00e-06	0	43	0	1427111936	16	4489
2026-01-17 08:30:48.25	357.93	11.98	-27.9	-29.8	14.0	2.20e-06	0	43	0	1436549120	16	4459
2026-01-17 08:30:51.26	357.54	11.77	-27.9	-29.6	14.2	2.20e-06	0	43	0	1445986304	16	4403
2026-01-17 08:30:54.26	357.16	11.57	-28.1	-30.3	13.8	5.30e-06	0	43	0	1455423488	16	4604
2026-01-17 08:30:57.27	356.79	11.36	-28.2	-30.3	13.7	9.10e-06	0	43	0	1464860672	16	4607
2026-01-17 08:31:00.28	356.42	11.16	-28.4	-30.9	13.3	1.22e-05	0	43	0	1474297856	16	4814
2026-01-17 08:31:03.28	356.05	10.95	-28.6	-30.9	13.0	1.98e-05	0	43	0	1483735040	17	4702
2026-01-17 08:31:06.28	355.69	10.75	-28.0	-29.4	13.9	2.20e-06	0	43	0	1493172224	17	4242
2026-01-17 08:31:09.29	355.34	10.55	-28.4	-30.4	13.3	9.10e-06	0	43	0	1502609408	17	4532
2026-01-17 08:31:12.30	354.99	10.34	-28.5	-30.6	13.1	3.05e-05	0	43	0	1512046592	17	4612
2026-01-17 08:31:15.32	354.64	10.14	-28.7	-31.1	12.8	5.03e-05	0	43	0	1521483776	17	4750
2026-01-17 08:31:18.32	354.30	9.94	-28.2	-29.9	13.5	1.44e-05	0	43	0	1530920960	17	4378
2026-01-17 08:31:21.33	353.96	9.74	-28.3	-30.1	13.3	1.90e-05	0	43	0	1540358144	17	4449
2026-01-17 08:31:24.33	353.63	9.54	-28.1	-29.7	13.6	1.29e-05	0	43	0	1549795328	17	4326
2026-01-17 08:31:27.35	353.31	9.34	-28.7	-31.2	12.6	4.95e-05	0	43	0	1559232512	17	4813
2026-01-17 08:31:30.37	352.98	9.14	-28.6	-30.9	12.8	4.57e-05	0	43	0	1568669696	17	4711
2026-01-17 08:31:33.38	352.67	8.94	-28.7	-31.3	12.6	7.40e-05	0	43	0	1578106880	17	4855
2026-01-17 08:31:36.39	352.35	8.74	-28.8	-31.4	12.5	1.04e-04	0	43	0	1587544064	17	4877
2026-01-17 08:31:39.40	352.05	8.54	-28.6	-31.0	12.7	6.48e-05	0	43	0	1596981248	17	4751
2026-01-17 08:31:42.41	351.74	8.35	-28.4	-30.5	13.0	3.58e-05	0	43	0	1606418432	17	4570
2026-01-17 08:31:45.41	351.44	8.15	-28.2	-30.0	13.3	1.90e-05	0	43	0	1615855616	17	4443
2026-01-17 08:31:48.42	351.15	7.96	-28.1	-29.8	13.4	1.90e-05	0	43	0	1625292800	17	4366
2026-01-17 08:31:51.43	350.85	7.77	-28.5	-30.8	12.8	4.34e-05	0	43	0	1634729984	17	4679
2026-01-17 08:31:54.45	350.57	7.57	-28.7	-31.2	12.5	8.16e-05	0	43	0	1644167168	17	4820
2026-01-17 08:31:57.45	350.28	7.38	-29.0	-31.7	11.9	5.25e-04	0	43	0	1653604352	18	4868
2026-01-17 08:32:00.46	350.00	7.19	-29.0	-31.6	11.9	4.34e-04	0	43	0	1663041536	18	4853
2026-01-17 08:32:03.47	349.73	7.00	-33.1	-44.7	3.8	1.49e+00	0	43	104	1669332992	26	13684

#Closed at: 2026-01-17 08:32:03
#Recorded file [1669 MB]: D:/data/31010_260117_112308.dat