passes_logs/2026/01/17/R2M6_AANII_01/R2M6_AANII_01__20260117_105105_NOAA_20_JPSS-1_rec.log

#Pass ID: 20260117_105105_NOAA 20 (JPSS-1)
#Satellite: NOAA 20 (JPSS-1)
#Configuration: NOAA 20
#almurnet v.1.7.20240730
#Start time: 2026-01-17 10:51:04

#Version: 2.2.20231116
#Station: R2M6_AANII_01
#Location: 30.233357 lon 59.946436 lat
#TLE: 1 43013U 17073A   26016.24631778  .00000038  00000+0  39093-4 0  9990
#TLE: 2 43013  98.7637 317.1726 0001455  37.6755 322.4523 14.19536243422915

#Time	Az	El	Level	Level2	SNR	BER	BlckErr	Temp	State	Recorded	gain1	gain2
2026-01-17 10:51:04.17	176.74	6.93	-30.8	-35.4	5.5	1.19e+00	0	41	0	0	21	6120
2026-01-17 10:51:07.18	176.85	7.16	-31.4	-37.1	8.9	2.83e-02	0	41	0	1048576	22	6949
2026-01-17 10:51:10.19	176.95	7.39	-31.3	-36.0	9.5	4.11e-02	0	41	0	7340032	23	6235
2026-01-17 10:51:13.20	177.06	7.63	-30.7	-34.7	11.0	2.03e-03	0	41	0	12582912	22	5656
2026-01-17 10:51:16.19	177.17	7.86	-30.7	-34.4	11.1	3.50e-03	0	41	0	17825792	22	5558
2026-01-17 10:51:19.19	177.28	8.10	-30.6	-34.3	11.2	1.42e-03	0	41	0	24117248	22	5491
2026-01-17 10:51:22.21	177.39	8.34	-30.9	-35.2	10.6	3.69e-03	0	42	0	29360128	22	5885
2026-01-17 10:51:25.20	177.50	8.58	-30.5	-33.8	11.7	6.55e-04	0	42	0	35651584	22	5256
2026-01-17 10:51:28.20	177.62	8.82	-30.7	-34.3	11.3	2.05e-03	0	42	0	40894464	22	5491
2026-01-17 10:51:31.20	177.73	9.06	-30.6	-34.1	11.5	1.40e-03	0	42	0	46137344	22	5361
2026-01-17 10:51:34.20	177.85	9.31	-30.7	-34.4	11.4	1.57e-03	0	42	0	52428800	22	5493
2026-01-17 10:51:37.21	177.97	9.56	-30.6	-34.0	11.7	9.06e-04	0	42	0	57671680	22	5304
2026-01-17 10:51:40.21	178.09	9.81	-30.4	-33.4	12.1	2.33e-04	0	42	0	62914560	22	5088
2026-01-17 10:51:43.21	178.22	10.07	-30.5	-33.6	12.0	3.40e-04	0	42	0	69206016	22	5162
2026-01-17 10:51:46.21	178.34	10.32	-30.6	-33.9	11.8	3.17e-04	0	42	0	74448896	22	5285
2026-01-17 10:51:49.21	178.47	10.58	-30.8	-34.5	11.5	1.26e-03	0	42	0	79691776	22	5501
2026-01-17 10:51:52.21	178.60	10.85	-31.1	-35.3	10.8	2.15e-03	0	42	0	85983232	22	5884
2026-01-17 10:51:55.21	178.73	11.11	-30.8	-34.5	11.4	2.05e-03	0	43	0	91226112	22	5517
2026-01-17 10:51:58.21	178.87	11.38	-30.3	-33.0	12.6	1.33e-04	0	42	0	97517568	22	4899
2026-01-17 10:52:01.20	179.01	11.65	-30.4	-33.8	12.3	1.58e-04	0	42	0	102760448	21	5322
2026-01-17 10:52:04.20	179.15	11.92	-30.0	-32.5	13.2	4.11e-05	0	43	0	108003328	21	4810
2026-01-17 10:52:07.20	179.29	12.20	-30.1	-32.7	13.1	3.28e-05	0	43	0	114294784	21	4906
2026-01-17 10:52:10.20	179.43	12.48	-30.0	-32.6	13.2	3.96e-05	0	42	0	119537664	21	4868
2026-01-17 10:52:13.21	179.58	12.76	-30.0	-32.5	13.3	9.10e-06	0	43	0	124780544	21	4823
2026-01-17 10:52:16.22	179.73	13.05	-30.0	-32.5	13.3	1.90e-05	0	43	0	131072000	21	4811
2026-01-17 10:52:19.22	179.88	13.34	-30.1	-32.8	13.1	3.81e-05	0	43	0	136314880	21	4919
2026-01-17 10:52:22.22	180.04	13.63	-30.2	-33.0	13.0	4.65e-05	0	43	0	141557760	21	4984
2026-01-17 10:52:25.22	180.20	13.93	-30.0	-32.6	13.3	1.90e-05	0	43	0	147849216	21	4841
2026-01-17 10:52:28.22	180.36	14.23	-30.2	-33.1	13.0	4.88e-05	0	43	0	153092096	21	5029
2026-01-17 10:52:31.22	180.52	14.53	-29.8	-32.0	13.7	6.10e-06	0	43	0	159383552	21	4644
2026-01-17 10:52:34.21	180.69	14.83	-29.9	-32.1	13.7	8.30e-06	0	43	0	164626432	21	4675
2026-01-17 10:52:37.23	180.86	15.15	-30.0	-32.5	13.4	1.14e-05	0	43	0	169869312	21	4793
2026-01-17 10:52:40.23	181.03	15.46	-30.2	-33.1	13.1	2.67e-05	0	43	0	176160768	21	5022
2026-01-17 10:52:43.23	181.21	15.78	-30.3	-33.2	13.0	2.97e-05	0	43	0	181403648	21	5066
2026-01-17 10:52:46.22	181.39	16.10	-30.1	-32.7	13.4	2.67e-05	0	43	0	186646528	21	4864
2026-01-17 10:52:49.23	181.58	16.43	-30.0	-32.4	13.5	8.30e-06	0	43	0	192937984	21	4771
2026-01-17 10:52:52.23	181.77	16.76	-29.9	-32.7	13.7	6.80e-06	0	43	0	198180864	20	4983
2026-01-17 10:52:55.22	181.96	17.09	-30.0	-33.0	13.5	7.60e-06	0	43	0	204472320	20	5067
2026-01-17 10:52:58.23	182.16	17.43	-29.8	-32.6	13.8	5.30e-06	0	43	0	209715200	20	4938
2026-01-17 10:53:01.23	182.36	17.77	-30.0	-33.0	13.5	9.90e-06	0	43	0	214958080	20	5101
2026-01-17 10:53:04.25	182.56	18.12	-29.9	-32.7	13.8	6.80e-06	0	43	0	221249536	20	4992
2026-01-17 10:53:07.25	182.77	18.47	-30.1	-33.3	13.4	2.67e-05	0	43	0	226492416	20	5200
2026-01-17 10:53:10.25	182.99	18.83	-30.1	-33.4	13.3	1.06e-05	0	43	0	231735296	20	5259
2026-01-17 10:53:13.25	183.21	19.19	-30.3	-33.8	13.1	2.28e-05	0	43	0	238026752	20	5383
2026-01-17 10:53:16.24	183.43	19.56	-29.9	-32.6	13.9	6.10e-06	0	43	0	243269632	20	4949
2026-01-17 10:53:19.25	183.66	19.93	-29.8	-32.6	13.9	3.00e-06	0	43	0	249561088	20	4921
2026-01-17 10:53:22.26	183.90	20.31	-29.8	-32.5	14.0	3.80e-06	0	43	0	254803968	20	4889
2026-01-17 10:53:25.26	184.14	20.69	-29.9	-32.6	14.0	3.80e-06	0	43	0	260046848	20	4935
2026-01-17 10:53:28.26	184.39	21.08	-29.9	-32.6	14.0	3.00e-06	0	43	0	266338304	20	4918
2026-01-17 10:53:31.25	184.64	21.47	-29.7	-32.1	14.2	0.00e+00	0	43	0	271581184	20	4768
2026-01-17 10:53:34.22	184.89	21.87	-29.4	-31.3	14.8	0.00e+00	0	43	0	276824064	20	4477
2026-01-17 10:53:37.23	185.16	22.27	-29.2	-31.3	15.2	0.00e+00	0	43	0	283115520	19	4561
2026-01-17 10:53:40.23	185.43	22.68	-29.1	-31.0	15.4	0.00e+00	0	43	0	288358400	19	4483
2026-01-17 10:53:43.24	185.71	23.10	-28.9	-30.6	15.7	0.00e+00	0	43	0	293601280	19	4347
2026-01-17 10:53:46.25	186.00	23.53	-29.1	-30.9	15.5	0.00e+00	0	43	0	299892736	19	4445
2026-01-17 10:53:49.25	186.30	23.95	-28.9	-30.9	15.8	0.00e+00	0	43	0	305135616	18	4549
2026-01-17 10:53:52.25	186.60	24.39	-29.0	-31.3	15.6	0.00e+00	0	43	0	311427072	18	4663
2026-01-17 10:53:55.26	186.91	24.83	-29.1	-31.4	15.6	0.00e+00	0	43	0	316669952	18	4707
2026-01-17 10:53:58.26	187.23	25.28	-29.1	-31.5	15.6	0.00e+00	0	43	0	321912832	18	4716
2026-01-17 10:54:01.26	187.55	25.74	-28.7	-30.5	16.1	0.00e+00	0	43	0	328204288	18	4423
2026-01-17 10:54:04.26	187.89	26.20	-28.7	-30.5	16.2	1.50e-06	0	43	0	333447168	18	4413
2026-01-17 10:54:07.27	188.24	26.67	-29.0	-31.1	15.8	7.00e-07	0	43	0	338690048	18	4589
2026-01-17 10:54:10.26	188.60	27.15	-29.1	-31.4	15.7	0.00e+00	0	43	0	344981504	18	4679
2026-01-17 10:54:13.27	188.96	27.63	-29.2	-31.7	15.5	0.00e+00	0	43	0	350224384	18	4781
2026-01-17 10:54:16.27	189.34	28.12	-29.3	-32.0	15.4	0.00e+00	0	43	0	355467264	18	4867
2026-01-17 10:54:19.28	189.73	28.62	-29.8	-32.6	14.7	2.20e-06	0	43	0	361758720	19	4984
2026-01-17 10:54:22.28	190.14	29.13	-30.4	-33.8	13.5	8.30e-06	0	43	0	367001600	20	5325
2026-01-17 10:54:25.28	190.55	29.64	-30.9	-34.7	12.6	6.33e-05	0	44	0	373293056	21	5588
2026-01-17 10:54:28.29	190.98	30.17	-31.1	-34.6	12.3	2.17e-04	0	43	0	378535936	22	5423
2026-01-17 10:54:31.28	191.42	30.70	-31.3	-35.3	11.9	3.73e-04	0	43	0	383778816	22	5710
2026-01-17 10:54:34.27	191.87	31.23	-31.6	-35.8	11.2	1.39e-03	0	44	0	390070272	23	5832
2026-01-17 10:54:37.28	192.35	31.78	-31.8	-36.3	10.8	2.59e-03	0	43	0	395313152	23	6055
2026-01-17 10:54:40.29	192.83	32.34	-31.7	-36.0	11.0	1.96e-03	0	43	0	400556032	23	5924
2026-01-17 10:54:43.29	193.34	32.90	-31.5	-35.6	11.4	8.70e-04	0	43	0	406847488	23	5716
2026-01-17 10:54:46.29	193.86	33.47	-31.5	-35.3	11.5	8.94e-04	0	44	0	412090368	23	5602
2026-01-17 10:54:49.30	194.40	34.05	-31.3	-34.8	12.0	3.17e-04	0	43	0	418381824	23	5359
2026-01-17 10:54:52.30	194.96	34.64	-31.1	-34.2	12.4	1.44e-04	0	43	0	423624704	23	5147
2026-01-17 10:54:55.31	195.54	35.23	-31.2	-34.3	12.3	1.59e-04	0	43	0	428867584	23	5169
2026-01-17 10:54:58.32	196.14	35.84	-31.0	-33.8	12.7	8.54e-05	0	43	0	435159040	23	4964
2026-01-17 10:55:01.33	196.76	36.45	-30.6	-33.3	13.4	1.90e-05	0	44	0	440401920	22	4877
2026-01-17 10:55:04.33	197.41	37.07	-30.4	-32.6	13.8	1.06e-05	0	43	0	445644800	22	4655
2026-01-17 10:55:07.33	198.08	37.70	-30.6	-33.1	13.5	1.29e-05	0	43	0	451936256	22	4802
2026-01-17 10:55:10.34	198.77	38.33	-30.5	-32.8	13.7	3.00e-06	0	43	0	457179136	22	4711
2026-01-17 10:55:13.35	199.50	38.98	-30.6	-33.1	13.5	1.22e-05	0	43	0	463470592	22	4802
2026-01-17 10:55:16.35	200.25	39.63	-30.2	-32.5	14.2	5.30e-06	0	43	0	468713472	21	4712
2026-01-17 10:55:19.37	201.04	40.29	-29.8	-31.7	14.7	0.00e+00	0	44	0	473956352	21	4458
2026-01-17 10:55:22.38	201.86	40.95	-29.9	-32.3	14.7	0.00e+00	0	43	0	480247808	20	4739
2026-01-17 10:55:25.38	202.70	41.62	-30.2	-33.1	14.2	1.50e-06	0	43	0	485490688	20	5022
2026-01-17 10:55:28.38	203.59	42.29	-29.9	-32.4	14.6	1.50e-06	0	43	0	490733568	20	4768
2026-01-17 10:55:31.40	204.51	42.97	-30.2	-33.2	14.2	0.00e+00	0	43	0	497025024	20	5047
2026-01-17 10:55:34.40	205.47	43.65	-30.6	-33.6	13.6	6.80e-06	0	43	0	502267904	21	5109
2026-01-17 10:55:37.41	206.48	44.33	-30.4	-33.1	13.8	0.00e+00	0	43	0	508559360	21	4928
2026-01-17 10:55:40.41	207.52	45.02	-30.9	-34.4	13.0	4.11e-05	0	43	0	513802240	21	5421
2026-01-17 10:55:43.43	208.62	45.71	-31.2	-34.8	12.5	1.11e-04	0	43	0	519045120	22	5470
2026-01-17 10:55:46.42	209.75	46.39	-31.3	-35.1	12.2	2.30e-04	0	43	0	525336576	22	5606
2026-01-17 10:55:49.43	210.94	47.08	-31.9	-36.7	10.9	1.61e-03	0	43	0	530579456	23	6197
2026-01-17 10:55:52.44	212.18	47.77	-32.5	-37.7	9.3	1.91e-02	0	44	0	535822336	25	6564
2026-01-17 10:55:55.43	213.47	48.44	-32.3	-37.1	9.7	1.24e-02	0	44	0	542113792	25	6200
2026-01-17 10:55:58.44	214.83	49.12	-32.8	-38.9	8.3	5.45e-02	0	43	0	547356672	25	7284
2026-01-17 10:56:01.44	216.24	49.78	-32.1	-36.3	10.4	6.53e-03	0	44	0	553648128	25	5788
2026-01-17 10:56:04.44	217.72	50.44	-32.0	-35.9	10.7	3.29e-03	0	43	0	558891008	25	5632
2026-01-17 10:56:07.44	219.25	51.08	-31.2	-34.3	12.5	2.37e-04	0	44	0	564133888	23	5139
2026-01-17 10:56:10.45	220.86	51.72	-30.8	-33.8	13.2	1.83e-05	0	44	0	570425344	22	5041
2026-01-17 10:56:13.45	222.53	52.33	-30.9	-33.9	13.2	2.44e-05	0	44	0	575668224	22	5072
2026-01-17 10:56:16.46	224.28	52.93	-30.3	-32.3	14.1	2.20e-06	0	44	0	580911104	22	4533
2026-01-17 10:56:19.46	226.09	53.51	-30.5	-33.4	13.8	1.06e-05	0	44	0	587202560	21	5002
2026-01-17 10:56:22.47	227.98	54.06	-29.6	-31.5	15.3	0.00e+00	0	43	0	592445440	20	4487
2026-01-17 10:56:25.48	229.95	54.59	-30.0	-32.6	14.6	0.00e+00	0	44	0	598736896	20	4856
2026-01-17 10:56:28.48	231.97	55.09	-29.5	-31.4	15.3	7.00e-07	0	44	0	603979776	20	4446
2026-01-17 10:56:31.48	234.07	55.55	-30.1	-32.7	14.5	0.00e+00	0	43	0	609222656	20	4886
2026-01-17 10:56:34.48	236.23	55.99	-29.7	-31.8	15.2	0.00e+00	0	43	0	615514112	20	4569
2026-01-17 10:56:37.48	238.46	56.38	-29.8	-32.1	15.0	0.00e+00	0	44	0	620756992	20	4665
2026-01-17 10:56:40.49	240.75	56.73	-30.1	-32.6	14.6	0.00e+00	0	43	0	625999872	20	4843
2026-01-17 10:56:43.49	243.09	57.05	-30.3	-33.2	14.3	0.00e+00	0	44	0	632291328	20	5041
2026-01-17 10:56:46.50	245.49	57.31	-30.9	-34.4	13.2	3.00e-06	0	44	0	637534208	21	5397
2026-01-17 10:56:49.50	247.93	57.53	-31.2	-34.7	12.7	2.44e-05	0	44	0	642777088	22	5383
2026-01-17 10:56:52.50	250.40	57.71	-32.0	-36.2	10.9	3.78e-03	0	44	0	649068544	24	5820
2026-01-17 10:56:55.51	252.90	57.83	-31.7	-35.3	11.7	5.32e-04	0	43	0	654311424	24	5410
2026-01-17 10:56:58.51	255.42	57.90	-32.0	-36.1	11.1	2.26e-03	0	44	0	660602880	24	5777
2026-01-17 10:57:01.53	257.96	57.92	-32.2	-36.8	10.5	6.48e-03	0	44	0	665845760	24	6102
2026-01-17 10:57:04.53	260.48	57.89	-32.3	-37.1	10.4	4.35e-03	0	44	0	671088640	24	6276
2026-01-17 10:57:07.54	263.00	57.80	-31.8	-35.5	11.5	7.74e-04	0	43	0	677380096	24	5525
2026-01-17 10:57:10.54	265.49	57.67	-30.9	-33.4	13.2	1.67e-05	0	44	0	682622976	23	4786
2026-01-17 10:57:13.55	267.96	57.48	-31.3	-34.3	12.6	2.07e-04	0	44	0	687865856	23	5126
2026-01-17 10:57:16.55	270.38	57.25	-32.1	-36.5	10.8	1.76e-03	0	44	0	694157312	24	5976
2026-01-17 10:57:19.55	272.76	56.97	-32.6	-37.8	9.3	2.68e-02	0	44	0	699400192	25	6539
2026-01-17 10:57:22.56	275.09	56.65	-32.2	-36.3	10.4	9.41e-03	0	44	0	705691648	25	5787
2026-01-17 10:57:25.56	277.36	56.29	-31.5	-35.0	12.2	1.67e-04	0	44	0	710934528	23	5416
2026-01-17 10:57:28.55	279.56	55.89	-30.9	-33.5	13.2	1.28e-04	0	44	0	716177408	23	4833
2026-01-17 10:57:31.56	281.71	55.45	-30.4	-32.7	14.0	5.30e-06	0	44	0	722468864	22	4646
2026-01-17 10:57:34.55	283.78	54.97	-28.8	-30.1	16.6	0.00e+00	0	44	0	727711744	19	4156
2026-01-17 10:57:37.54	285.78	54.47	-28.3	-29.5	17.2	0.00e+00	0	43	0	732954624	18	4093
2026-01-17 10:57:40.54	287.71	53.94	-27.6	-28.7	18.1	0.00e+00	0	44	0	739246080	16	4099
2026-01-17 10:57:43.56	289.59	53.38	-28.1	-30.0	17.5	0.00e+00	0	44	0	744488960	16	4449
2026-01-17 10:57:46.57	291.39	52.80	-27.9	-29.4	17.8	0.00e+00	0	43	0	749731840	16	4300
2026-01-17 10:57:49.58	293.11	52.20	-29.3	-31.8	15.9	0.00e+00	0	43	0	756023296	18	4768
2026-01-17 10:57:52.60	294.78	51.58	-29.7	-32.2	15.3	0.00e+00	0	44	0	761266176	19	4792
2026-01-17 10:57:55.60	296.36	50.94	-31.9	-36.4	11.2	9.96e-04	0	43	0	767557632	23	6046
2026-01-17 10:57:58.61	297.88	50.30	-31.8	-35.9	11.6	2.92e-04	0	44	0	772800512	23	5788
2026-01-17 10:58:01.61	299.34	49.64	-33.0	-38.8	8.1	1.31e-01	0	44	0	778043392	26	7042
2026-01-17 10:58:04.61	300.73	48.98	-32.5	-37.0	9.6	8.45e-03	0	43	0	784334848	26	6026
2026-01-17 10:58:07.62	302.07	48.30	-32.8	-37.9	8.9	3.97e-02	0	43	0	789577728	26	6487
2026-01-17 10:58:10.63	303.35	47.62	-31.9	-35.3	11.1	1.08e-03	0	44	0	795869184	25	5345
2026-01-17 10:58:13.64	304.58	46.94	-32.9	-38.5	8.4	6.72e-02	0	44	0	801112064	26	6853
2026-01-17 10:58:16.64	305.75	46.26	-31.5	-34.7	12.0	2.01e-04	0	43	0	806354944	24	5186
2026-01-17 10:58:19.65	306.88	45.57	-32.4	-37.6	9.9	9.02e-03	0	44	0	812646400	24	6548
2026-01-17 10:58:22.66	307.96	44.89	-31.2	-34.1	12.7	1.40e-04	0	44	0	817889280	23	5066
2026-01-17 10:58:25.67	308.99	44.20	-31.6	-35.4	11.9	2.29e-04	0	44	0	823132160	23	5558
2026-01-17 10:58:28.67	309.98	43.53	-31.5	-35.1	12.0	3.47e-04	0	44	0	829423616	23	5444
2026-01-17 10:58:31.68	310.93	42.85	-32.2	-36.8	10.4	3.58e-03	0	44	0	834666496	24	6111
2026-01-17 10:58:34.69	311.84	42.17	-32.1	-36.5	10.7	2.06e-03	0	43	0	840957952	24	5992
2026-01-17 10:58:37.70	312.72	41.50	-32.3	-36.6	10.2	9.58e-03	0	44	0	846200832	25	5948
2026-01-17 10:58:40.71	313.56	40.84	-31.7	-35.3	11.5	8.46e-04	0	44	0	851443712	24	5454
2026-01-17 10:58:43.72	314.37	40.18	-31.9	-36.0	11.0	2.75e-03	0	44	0	857735168	24	5765
2026-01-17 10:58:46.73	315.14	39.53	-32.3	-36.9	9.9	1.33e-02	0	44	0	862978048	25	6081
2026-01-17 10:58:49.74	315.89	38.88	-31.0	-33.7	12.9	5.64e-05	0	44	0	868220928	23	4909
2026-01-17 10:58:52.75	316.61	38.25	-32.6	-38.2	8.9	7.32e-03	0	44	0	874512384	25	6813
2026-01-17 10:58:55.77	317.30	37.61	-31.0	-33.9	12.8	3.08e-04	0	44	0	879755264	23	4971
2026-01-17 10:58:58.78	317.96	36.99	-31.0	-34.2	12.9	3.20e-05	0	44	0	886046720	22	5223
2026-01-17 10:59:01.78	318.60	36.38	-32.5	-38.1	9.3	1.62e-02	0	44	0	891289600	24	6851
2026-01-17 10:59:04.79	319.22	35.77	-32.1	-36.8	10.3	6.24e-03	0	44	0	896532480	24	6156
2026-01-17 10:59:07.80	319.82	35.17	-31.5	-34.8	11.8	3.96e-04	0	43	0	902823936	24	5236
2026-01-17 10:59:10.81	320.39	34.58	-32.3	-37.4	9.8	6.15e-03	0	44	0	908066816	24	6492
2026-01-17 10:59:13.83	320.95	33.99	-33.1	-39.6	7.4	8.33e-02	0	44	0	914358272	26	7607
2026-01-17 10:59:16.84	321.48	33.42	-31.5	-34.8	11.7	2.48e-03	0	43	0	919601152	24	5266
2026-01-17 10:59:19.85	322.00	32.85	-31.0	-33.6	12.9	5.95e-05	0	44	0	924844032	23	4888
2026-01-17 10:59:22.85	322.50	32.29	-31.5	-35.3	11.7	3.87e-04	0	44	0	931135488	23	5578
2026-01-17 10:59:25.85	322.98	31.74	-31.9	-36.6	10.7	2.88e-03	0	44	0	936378368	23	6186
2026-01-17 10:59:28.86	323.45	31.20	-32.0	-36.3	10.6	3.85e-03	0	44	0	941621248	24	5942
2026-01-17 10:59:31.88	323.91	30.66	-31.7	-35.4	11.2	1.54e-03	0	44	0	947912704	24	5500
2026-01-17 10:59:34.89	324.34	30.14	-31.5	-34.9	11.6	5.16e-04	0	44	0	953155584	24	5292
2026-01-17 10:59:37.90	324.77	29.62	-31.2	-34.5	12.2	2.70e-04	0	44	0	959447040	23	5226
2026-01-17 10:59:40.91	325.18	29.11	-31.3	-34.5	12.2	2.45e-04	0	44	0	964689920	23	5259
2026-01-17 10:59:43.92	325.58	28.60	-31.3	-34.7	12.0	3.94e-04	0	43	0	969932800	23	5335
2026-01-17 10:59:46.92	325.97	28.11	-31.2	-34.5	12.2	1.60e-04	0	44	0	976224256	23	5237
2026-01-17 10:59:49.92	326.35	27.62	-31.0	-33.7	12.8	6.10e-05	0	44	0	981467136	23	4916
2026-01-17 10:59:52.93	326.71	27.14	-30.9	-33.5	12.9	3.89e-05	0	44	0	987758592	23	4855
2026-01-17 10:59:55.94	327.07	26.67	-31.4	-35.2	11.8	3.75e-04	0	44	0	993001472	23	5518
2026-01-17 10:59:58.95	327.41	26.20	-31.7	-35.9	11.2	1.34e-03	0	44	0	998244352	23	5861
2026-01-17 11:00:01.96	327.75	25.74	-31.7	-35.9	11.2	1.42e-03	0	44	0	1004535808	23	5876
2026-01-17 11:00:04.96	328.08	25.29	-31.3	-34.6	12.1	3.53e-04	0	44	0	1009778688	23	5288
2026-01-17 11:00:07.98	328.40	24.84	-31.1	-34.1	12.5	2.64e-04	0	44	0	1015021568	23	5087
2026-01-17 11:00:10.99	328.71	24.40	-30.7	-33.6	13.1	3.50e-05	0	44	0	1021313024	22	4992
2026-01-17 11:00:13.99	329.01	23.97	-30.4	-32.5	13.8	4.50e-06	0	44	0	1026555904	22	4626
2026-01-17 11:00:17.00	329.30	23.54	-30.4	-32.7	13.7	4.50e-06	0	44	0	1032847360	22	4686
2026-01-17 11:00:20.00	329.59	23.12	-30.7	-33.5	13.1	1.52e-05	0	44	0	1038090240	22	4978
2026-01-17 11:00:22.99	329.86	22.71	-31.3	-35.2	12.0	2.06e-04	0	44	0	1043333120	22	5652
2026-01-17 11:00:26.00	330.14	22.30	-30.8	-33.8	12.9	6.40e-05	0	44	0	1049624576	22	5073
2026-01-17 11:00:29.01	330.40	21.90	-30.5	-33.0	13.1	2.82e-05	0	44	0	1054867456	22	4798
2026-01-17 11:00:32.01	330.66	21.51	-30.4	-32.8	13.1	2.82e-05	0	44	0	1060110336	22	4735
2026-01-17 11:00:35.01	330.91	21.12	-30.3	-33.1	13.3	1.06e-05	0	43	0	1066401792	21	4948
2026-01-17 11:00:38.02	331.16	20.73	-30.5	-33.6	12.1	1.21e-04	0	44	0	1071644672	21	5158
2026-01-17 11:00:41.03	331.40	20.35	-30.7	-34.1	12.3	2.14e-04	0	44	0	1077936128	21	5359
2026-01-17 11:00:44.04	331.64	19.98	-30.5	-33.5	13.2	2.59e-05	0	44	0	1083179008	21	5118
2026-01-17 11:00:47.05	331.87	19.61	-30.4	-33.3	13.1	1.14e-05	0	44	0	1088421888	21	5044
2026-01-17 11:00:50.05	332.09	19.24	-30.5	-33.6	12.2	8.39e-05	0	44	0	1094713344	21	5174
2026-01-17 11:00:53.06	332.31	18.88	-30.4	-33.6	11.8	5.00e-04	0	43	0	1099956224	21	5156
2026-01-17 11:00:56.06	332.53	18.53	-29.9	-32.0	13.6	9.90e-06	0	44	0	1105199104	21	4596
2026-01-17 11:00:59.06	332.74	18.18	-29.8	-32.2	12.9	3.96e-05	0	44	0	1111490560	20	4762
2026-01-17 11:01:02.07	332.94	17.83	-29.5	-31.4	14.0	4.50e-06	0	44	0	1116733440	20	4514
2026-01-17 11:01:05.08	333.15	17.49	-29.5	-31.6	14.5	1.50e-06	0	43	0	1123024896	20	4556
2026-01-17 11:01:08.10	333.35	17.16	-29.8	-32.3	14.2	0.00e+00	0	44	0	1128267776	20	4782
2026-01-17 11:01:11.11	333.54	16.82	-29.9	-32.5	13.9	3.00e-06	0	44	0	1133510656	20	4880
2026-01-17 11:01:14.11	333.73	16.50	-30.3	-33.6	13.2	1.14e-05	0	44	0	1139802112	20	5289
2026-01-17 11:01:17.13	333.92	16.17	-30.6	-33.9	12.8	3.50e-05	0	44	0	1145044992	21	5292
2026-01-17 11:01:20.13	334.10	15.85	-30.5	-33.7	12.9	4.95e-05	0	44	0	1150287872	21	5217
2026-01-17 11:01:23.14	334.28	15.54	-30.5	-33.8	12.9	4.80e-05	0	44	0	1156579328	21	5227
2026-01-17 11:01:26.15	334.45	15.22	-30.5	-33.7	12.9	2.36e-05	0	44	0	1161822208	21	5210
2026-01-17 11:01:29.15	334.62	14.92	-30.3	-33.0	13.3	1.44e-05	0	43	0	1168113664	21	4957
2026-01-17 11:01:32.15	334.79	14.61	-30.1	-32.5	13.6	6.80e-06	0	44	0	1173356544	21	4770
2026-01-17 11:01:35.16	334.96	14.31	-30.5	-33.6	12.9	3.28e-05	0	43	0	1178599424	21	5182
2026-01-17 11:01:38.16	335.12	14.01	-30.0	-32.4	13.7	6.10e-06	0	44	0	1184890880	21	4730
2026-01-17 11:01:41.17	335.28	13.72	-30.0	-32.5	13.6	3.80e-06	0	44	0	1190133760	21	4760
2026-01-17 11:01:44.19	335.44	13.43	-30.1	-32.7	13.4	1.06e-05	0	44	0	1195376640	21	4857
2026-01-17 11:01:47.20	335.59	13.14	-30.3	-33.3	13.0	2.74e-05	0	44	0	1201668096	21	5078
2026-01-17 11:01:50.19	335.74	12.86	-30.3	-33.4	13.0	3.73e-05	0	44	0	1206910976	21	5096
2026-01-17 11:01:53.20	335.89	12.57	-30.5	-33.9	12.7	8.85e-05	0	44	0	1213202432	21	5289
2026-01-17 11:01:56.22	336.04	12.30	-30.6	-34.2	12.4	2.03e-04	0	44	0	1218445312	21	5430
2026-01-17 11:01:59.22	336.18	12.02	-30.8	-34.7	12.0	2.32e-04	0	44	0	1223688192	21	5636
2026-01-17 11:02:02.24	336.32	11.75	-30.8	-34.7	12.0	4.49e-04	0	44	0	1229979648	21	5644
2026-01-17 11:02:05.25	336.46	11.48	-30.8	-34.7	12.0	2.75e-04	0	44	0	1235222528	21	5640
2026-01-17 11:02:08.26	336.60	11.21	-30.9	-34.6	11.7	7.62e-04	0	44	0	1240465408	22	5497
2026-01-17 11:02:11.27	336.73	10.95	-30.6	-33.6	12.4	1.75e-04	0	44	0	1246756864	22	5097
2026-01-17 11:02:14.28	336.87	10.69	-30.5	-33.3	12.6	8.62e-05	0	44	0	1251999744	22	4977
2026-01-17 11:02:17.29	337.00	10.43	-30.4	-33.2	12.6	1.13e-04	0	43	0	1258291200	22	4967
2026-01-17 11:02:20.28	337.12	10.17	-30.4	-33.1	12.7	2.00e-04	0	44	0	1263534080	22	4924
2026-01-17 11:02:23.29	337.25	9.92	-30.4	-33.3	12.5	1.36e-04	0	44	0	1268776960	22	4987
2026-01-17 11:02:26.29	337.37	9.67	-30.5	-33.3	12.5	1.58e-04	0	44	0	1275068416	22	4992
2026-01-17 11:02:29.28	337.50	9.42	-30.5	-33.4	12.4	9.46e-05	0	44	0	1280311296	22	5028
2026-01-17 11:02:32.29	337.62	9.18	-30.4	-33.3	12.5	1.14e-04	0	44	0	1285554176	22	4993
2026-01-17 11:02:35.30	337.74	8.93	-30.6	-33.7	12.1	1.78e-04	0	44	0	1291845632	22	5175
2026-01-17 11:02:38.31	337.85	8.69	-30.6	-33.7	12.2	1.38e-04	0	44	0	1297088512	22	5169
2026-01-17 11:02:41.32	337.97	8.45	-30.5	-33.5	12.2	3.79e-04	0	44	0	1303379968	22	5095
2026-01-17 11:02:44.32	338.08	8.21	-30.7	-34.1	11.8	9.17e-04	0	44	0	1308622848	22	5319
2026-01-17 11:02:47.34	338.19	7.98	-30.7	-34.2	11.6	4.54e-04	0	44	0	1313865728	22	5403
2026-01-17 11:02:50.34	338.30	7.75	-30.7	-34.3	11.6	7.32e-04	0	44	0	1320157184	22	5436
2026-01-17 11:02:53.34	338.41	7.52	-30.9	-34.7	11.2	1.49e-03	0	44	0	1325400064	22	5616
2026-01-17 11:02:56.35	338.52	7.29	-30.9	-34.9	11.1	1.20e-03	0	44	0	1330642944	22	5704
2026-01-17 11:02:59.35	338.63	7.06	-32.0	-38.4	8.5	4.56e-03	0	44	0	1336934400	23	7574
2026-01-17 11:03:02.35	338.73	6.84	-33.9	-48.4	3.8	1.49e+00	0	44	104	1336934400	27	19047

#Closed at: 2026-01-17 11:03:02
#Recorded file [1336 MB]: D:/data/31010_260117_135106.dat