passes_logs/2026/01/17/R2M6_AANII_01/R2M6_AANII_01__20260117_013618_FENGYUN_3D_rec.log

#Pass ID: 20260117_013618_FENGYUN 3D
#Satellite: FENGYUN 3D
#Configuration: FENGYUN 3D
#almurnet v.1.7.20240730
#Start time: 2026-01-17 01:36:19

#Version: 2.2.20231116
#Station: R2M6_AANII_01
#Location: 30.233357 lon 59.946436 lat
#TLE: 1 43010U 17072A   26016.27214855  .00000192  00000+0  11235-3 0  9990
#TLE: 2 43010  98.9932 348.1078 0002365 105.5031 254.6406 14.19695933423435

#Time	Az	El	Level	Level2	SNR	BER	BlckErr	Temp	State	Recorded	gain1	gain2
2026-01-17 01:36:19.44	23.64	7.04	-28.3	-31.0	5.6	7.76e-01	0	41	0	0	16	4941
2026-01-17 01:36:22.44	23.79	7.26	-29.5	-32.7	9.5	1.06e-02	0	41	0	5242880	19	5201
2026-01-17 01:36:25.44	23.95	7.48	-29.3	-32.3	9.8	1.07e-02	0	41	0	22020096	19	5073
2026-01-17 01:36:28.45	24.10	7.70	-29.1	-32.1	10.3	3.62e-03	0	41	0	38797312	18	5087
2026-01-17 01:36:31.45	24.26	7.93	-28.4	-30.8	11.5	6.77e-04	0	41	0	55574528	17	4730
2026-01-17 01:36:34.45	24.42	8.16	-28.1	-30.5	12.0	1.04e-04	0	42	0	73400320	16	4758
2026-01-17 01:36:37.45	24.58	8.39	-27.8	-29.7	12.5	9.26e-05	0	42	0	90177536	16	4493
2026-01-17 01:36:40.45	24.75	8.62	-26.9	-28.6	13.7	8.00e-06	0	42	0	106954752	14	4381
2026-01-17 01:36:43.46	24.92	8.85	-26.5	-27.7	14.2	1.10e-06	0	42	0	123731968	14	4145
2026-01-17 01:36:46.46	25.08	9.09	-26.5	-27.7	14.2	2.20e-06	0	42	0	140509184	14	4139
2026-01-17 01:36:49.46	25.26	9.32	-26.7	-28.7	13.9	2.20e-06	0	42	0	157286400	13	4520
2026-01-17 01:36:52.47	25.43	9.56	-26.7	-28.1	13.9	4.50e-06	0	42	0	174063616	14	4250
2026-01-17 01:36:55.47	25.61	9.81	-26.3	-27.8	14.4	2.20e-06	0	42	0	190840832	13	4272
2026-01-17 01:36:58.49	25.79	10.05	-26.3	-28.2	14.5	0.00e+00	0	42	0	208666624	12	4475
2026-01-17 01:37:01.52	25.98	10.30	-26.0	-27.0	14.9	0.00e+00	0	42	0	225443840	13	4055
2026-01-17 01:37:04.52	26.16	10.55	-26.2	-28.0	14.6	0.00e+00	0	42	0	242221056	12	4436
2026-01-17 01:37:07.52	26.35	10.80	-26.8	-28.9	13.8	6.40e-05	0	42	0	258998272	13	4592
2026-01-17 01:37:10.52	26.55	11.05	-27.2	-29.3	13.3	8.00e-06	0	42	0	275775488	14	4597
2026-01-17 01:37:13.54	26.74	11.31	-26.7	-28.1	14.0	8.00e-06	0	43	0	292552704	14	4236
2026-01-17 01:37:16.54	26.94	11.57	-26.7	-28.6	14.0	1.68e-04	0	42	0	309329920	13	4496
2026-01-17 01:37:19.56	27.14	11.83	-25.7	-26.9	15.3	1.90e-04	0	42	0	326107136	12	4133
2026-01-17 01:37:22.56	27.35	12.09	-25.9	-27.3	15.1	0.00e+00	0	43	0	343932928	12	4219
2026-01-17 01:37:25.56	27.56	12.36	-26.1	-27.8	14.8	1.64e-04	0	43	0	360710144	12	4376
2026-01-17 01:37:28.56	27.77	12.62	-26.0	-27.5	15.1	1.61e-04	0	43	0	377487360	12	4291
2026-01-17 01:37:31.57	27.99	12.90	-26.4	-28.5	14.5	1.44e-04	0	43	0	394264576	12	4563
2026-01-17 01:37:34.58	28.21	13.17	-25.9	-27.8	15.3	2.63e-05	0	43	0	411041792	11	4470
2026-01-17 01:37:37.58	28.43	13.45	-25.6	-26.7	15.6	3.89e-05	0	43	0	427819008	12	4061
2026-01-17 01:37:40.59	28.66	13.73	-25.8	-27.6	15.4	1.72e-04	0	43	0	444596224	11	4416
2026-01-17 01:37:43.59	28.89	14.01	-25.1	-26.5	16.2	3.90e-04	0	43	0	461373440	10	4241
2026-01-17 01:37:46.59	29.13	14.29	-25.0	-26.4	16.4	3.88e-04	0	43	0	479199232	10	4195
2026-01-17 01:37:49.59	29.37	14.58	-24.9	-26.2	16.5	3.87e-04	0	43	0	495976448	10	4149
2026-01-17 01:37:52.60	29.61	14.87	-25.1	-26.5	16.3	0.00e+00	0	43	0	512753664	10	4242
2026-01-17 01:37:55.61	29.86	15.17	-25.0	-26.3	16.4	3.86e-04	0	43	0	529530880	10	4189
2026-01-17 01:37:58.61	30.12	15.46	-25.2	-26.8	16.2	3.50e-04	0	43	0	546308096	10	4316
2026-01-17 01:38:01.61	30.38	15.76	-25.1	-26.4	16.4	2.61e-04	0	43	0	563085312	10	4220
2026-01-17 01:38:04.61	30.64	16.07	-24.7	-26.2	16.8	0.00e+00	0	43	0	579862528	9	4261
2026-01-17 01:38:07.61	30.91	16.37	-25.1	-26.6	16.3	1.66e-04	0	43	0	596639744	10	4258
2026-01-17 01:38:10.62	31.18	16.68	-24.2	-25.0	17.4	3.35e-04	0	43	0	613416960	9	3955
2026-01-17 01:38:13.62	31.46	17.00	-24.1	-25.4	17.5	0.00e+00	0	43	0	630194176	8	4171
2026-01-17 01:38:16.64	31.75	17.32	-24.1	-25.4	17.5	0.00e+00	0	43	0	646971392	8	4165
2026-01-17 01:38:19.64	32.04	17.64	-24.2	-25.5	17.5	6.06e-04	0	43	0	664797184	8	4193
2026-01-17 01:38:22.65	32.34	17.96	-24.1	-25.3	17.5	2.20e-06	0	43	0	681574400	8	4154
2026-01-17 01:38:25.66	32.65	18.29	-24.0	-25.0	17.7	1.10e-06	0	43	0	698351616	8	4078
2026-01-17 01:38:28.67	32.96	18.62	-24.1	-25.3	17.6	0.00e+00	0	43	0	715128832	8	4145
2026-01-17 01:38:31.67	33.27	18.96	-23.9	-24.9	17.8	0.00e+00	0	43	0	731906048	8	4031
2026-01-17 01:38:34.68	33.60	19.30	-23.7	-24.5	18.0	0.00e+00	0	43	0	748683264	8	3941
2026-01-17 01:38:37.69	33.93	19.64	-23.7	-24.9	18.0	0.00e+00	0	43	0	765460480	7	4160
2026-01-17 01:38:40.69	34.27	19.99	-23.6	-24.7	18.2	0.00e+00	0	43	0	783286272	7	4107
2026-01-17 01:38:43.69	34.61	20.34	-23.7	-24.9	18.1	0.00e+00	0	43	0	800063488	7	4158
2026-01-17 01:38:46.69	34.96	20.69	-23.9	-25.4	17.8	0.00e+00	0	43	0	816840704	7	4277
2026-01-17 01:38:49.70	35.33	21.05	-23.8	-25.3	17.9	0.00e+00	0	43	0	833617920	7	4253
2026-01-17 01:38:52.70	35.70	21.41	-23.2	-24.6	17.6	0.00e+00	0	43	0	850395136	7	4197
2026-01-17 01:38:55.70	36.07	21.78	-23.7	-25.0	17.3	0.00e+00	0	43	0	867172352	7	4172
2026-01-17 01:38:58.71	36.46	22.15	-23.6	-24.7	18.2	0.00e+00	0	43	0	883949568	7	4090
2026-01-17 01:39:01.71	36.86	22.53	-23.5	-24.5	18.4	0.00e+00	0	43	0	900726784	7	4043
2026-01-17 01:39:04.72	37.26	22.91	-23.6	-24.8	18.2	0.00e+00	0	44	0	918552576	7	4130
2026-01-17 01:39:07.72	37.68	23.29	-23.3	-24.2	18.5	0.00e+00	0	43	0	935329792	7	3984
2026-01-17 01:39:10.72	38.10	23.68	-22.9	-23.9	19.0	1.25e-04	0	43	0	952107008	6	4005
2026-01-17 01:39:13.73	38.54	24.07	-23.0	-24.0	18.9	0.00e+00	0	43	0	968884224	6	4033
2026-01-17 01:39:16.74	38.98	24.47	-22.8	-23.6	19.1	0.00e+00	0	44	0	985661440	6	3937
2026-01-17 01:39:19.75	39.44	24.87	-22.6	-23.2	19.4	4.92e-05	0	44	0	1002438656	6	3843
2026-01-17 01:39:22.74	39.91	25.27	-22.6	-23.2	19.3	8.00e-06	0	43	0	1019215872	6	3845
2026-01-17 01:39:25.75	40.39	25.68	-22.6	-23.2	19.3	0.00e+00	0	43	0	1035993088	6	3840
2026-01-17 01:39:28.76	40.88	26.10	-22.5	-23.0	19.5	3.66e-05	0	43	0	1053818880	6	3790
2026-01-17 01:39:31.75	41.39	26.51	-22.6	-23.0	19.4	6.29e-05	0	43	0	1070596096	6	3810
2026-01-17 01:39:34.76	41.90	26.94	-22.3	-23.0	19.3	1.10e-06	0	43	0	1087373312	5	3901
2026-01-17 01:39:37.78	42.44	27.37	-22.5	-23.5	19.4	2.06e-04	0	43	0	1104150528	5	4023
2026-01-17 01:39:40.79	42.99	27.80	-22.5	-23.4	19.6	0.00e+00	0	43	0	1120927744	5	3999
2026-01-17 01:39:43.80	43.55	28.23	-22.4	-23.3	19.6	0.00e+00	0	44	0	1137704960	5	3976
2026-01-17 01:39:46.81	44.13	28.67	-22.3	-22.9	19.8	9.15e-05	0	43	0	1154482176	5	3887
2026-01-17 01:39:49.82	44.72	29.12	-22.1	-22.7	19.9	0.00e+00	0	43	0	1171259392	5	3839
2026-01-17 01:39:52.83	45.33	29.56	-22.7	-23.8	19.4	0.00e+00	0	43	0	1189085184	5	4106
2026-01-17 01:39:55.84	45.96	30.01	-22.4	-23.2	19.7	1.74e-04	0	44	0	1205862400	5	3949
2026-01-17 01:39:58.85	46.60	30.47	-22.5	-23.5	19.5	1.30e-04	0	43	0	1222639616	5	4030
2026-01-17 01:40:01.86	47.26	30.93	-22.3	-22.9	19.8	0.00e+00	0	44	0	1239416832	5	3888
2026-01-17 01:40:04.86	47.94	31.39	-22.1	-22.7	20.0	8.12e-05	0	44	0	1256194048	5	3827
2026-01-17 01:40:07.88	48.64	31.85	-22.3	-23.0	19.8	1.96e-04	0	43	0	1272971264	5	3900
2026-01-17 01:40:10.89	49.36	32.32	-22.1	-22.7	20.0	1.66e-04	0	43	0	1290797056	5	3825
2026-01-17 01:40:13.89	50.10	32.79	-22.1	-22.6	20.0	0.00e+00	0	44	0	1306525696	5	3814
2026-01-17 01:40:16.89	50.86	33.25	-22.3	-22.9	19.9	2.27e-04	0	43	0	1324351488	5	3885
2026-01-17 01:40:19.90	51.65	33.73	-22.4	-23.1	19.8	3.19e-04	0	44	0	1341128704	5	3929
2026-01-17 01:40:22.90	52.45	34.20	-22.6	-23.7	19.5	0.00e+00	0	43	0	1357905920	5	4077
2026-01-17 01:40:25.91	53.28	34.67	-22.6	-23.6	19.6	2.71e-04	0	43	0	1374683136	5	4054
2026-01-17 01:40:28.91	54.13	35.15	-22.4	-23.3	19.8	2.88e-04	0	43	0	1391460352	5	3970
2026-01-17 01:40:31.91	55.01	35.62	-21.8	-22.0	20.4	1.73e-04	0	44	0	1408237568	5	3685
2026-01-17 01:40:34.91	55.91	36.10	-22.3	-23.0	19.9	0.00e+00	0	44	0	1425014784	5	3916
2026-01-17 01:40:37.92	56.84	36.57	-21.9	-22.2	20.3	2.84e-04	0	43	0	1442840576	5	3720
2026-01-17 01:40:40.93	57.80	37.04	-21.8	-21.9	20.4	2.77e-04	0	44	0	1459617792	5	3661
2026-01-17 01:40:43.94	58.78	37.51	-22.0	-22.9	20.2	0.00e+00	0	44	0	1476395008	4	3988
2026-01-17 01:40:46.93	59.79	37.98	-22.0	-23.0	20.2	0.00e+00	0	44	0	1493172224	4	4010
2026-01-17 01:40:49.93	60.83	38.44	-21.8	-22.4	20.5	1.74e-04	0	44	0	1509949440	4	3882
2026-01-17 01:40:52.93	61.90	38.90	-22.0	-23.0	20.2	0.00e+00	0	44	0	1526726656	4	4002
2026-01-17 01:40:55.94	63.00	39.35	-22.2	-23.2	20.1	0.00e+00	0	44	0	1543503872	4	4060
2026-01-17 01:40:58.94	64.13	39.80	-22.1	-23.1	20.1	0.00e+00	0	43	0	1560281088	4	4028
2026-01-17 01:41:01.93	65.29	40.24	-22.1	-23.0	20.2	5.49e-05	0	43	0	1577058304	4	4018
2026-01-17 01:41:04.94	66.49	40.67	-22.1	-23.0	20.2	0.00e+00	0	44	0	1593835520	4	4009
2026-01-17 01:41:07.93	67.71	41.09	-22.2	-23.3	20.1	0.00e+00	0	44	0	1610612736	4	4085
2026-01-17 01:41:10.95	68.97	41.51	-22.2	-23.3	20.1	0.00e+00	0	44	0	1628438528	4	4093
2026-01-17 01:41:13.96	70.26	41.91	-21.9	-22.7	20.1	0.00e+00	0	44	0	1645215744	4	3958
2026-01-17 01:41:16.96	71.58	42.30	-22.2	-23.5	19.8	0.00e+00	0	43	0	1661992960	4	4138
2026-01-17 01:41:19.97	72.94	42.68	-22.1	-23.2	19.9	0.00e+00	0	44	0	1678770176	4	4079
2026-01-17 01:41:22.98	74.32	43.05	-22.2	-23.4	19.8	0.00e+00	0	44	0	1695547392	4	4134
2026-01-17 01:41:25.98	75.74	43.40	-21.9	-22.6	20.2	0.00e+00	0	44	0	1712324608	4	3936
2026-01-17 01:41:28.98	77.18	43.73	-22.1	-23.3	19.9	0.00e+00	0	44	0	1729101824	4	4098
2026-01-17 01:41:31.98	78.65	44.04	-22.2	-23.4	19.9	0.00e+00	0	44	0	1745879040	4	4118
2026-01-17 01:41:34.99	80.16	44.34	-22.1	-23.1	20.0	0.00e+00	0	44	0	1763704832	4	4059
2026-01-17 01:41:37.99	81.69	44.62	-22.3	-23.5	19.8	0.00e+00	0	44	0	1780482048	4	4150
2026-01-17 01:41:41.00	83.25	44.87	-22.2	-23.3	19.9	0.00e+00	0	44	0	1797259264	4	4103
2026-01-17 01:41:44.00	84.83	45.11	-22.1	-23.2	20.0	0.00e+00	0	44	0	1814036480	4	4083
2026-01-17 01:41:47.02	86.44	45.32	-22.5	-23.9	19.6	0.00e+00	0	44	0	1830813696	4	4251
2026-01-17 01:41:50.02	88.06	45.51	-22.4	-23.3	19.7	0.00e+00	0	44	0	1847590912	5	3986
2026-01-17 01:41:53.04	89.71	45.67	-22.2	-22.9	19.9	0.00e+00	0	44	0	1864368128	5	3895
2026-01-17 01:41:56.05	91.37	45.81	-22.7	-23.9	19.4	0.00e+00	0	44	0	1882193920	5	4141
2026-01-17 01:41:59.06	93.04	45.92	-22.5	-23.5	19.6	0.00e+00	0	44	0	1898971136	5	4034
2026-01-17 01:42:02.07	94.72	46.01	-22.9	-24.2	19.3	0.00e+00	0	44	0	1915748352	5	4208
2026-01-17 01:42:05.07	96.41	46.07	-22.3	-23.1	19.9	0.00e+00	0	44	0	1932525568	5	3935
2026-01-17 01:42:08.08	98.11	46.10	-22.1	-22.7	20.1	0.00e+00	0	44	0	1949302784	5	3839
2026-01-17 01:42:11.08	99.80	46.11	-22.4	-23.2	19.8	0.00e+00	0	44	0	1966080000	5	3964
2026-01-17 01:42:14.09	101.50	46.09	-22.2	-22.9	19.9	0.00e+00	0	44	0	1983905792	5	3889
2026-01-17 01:42:17.11	103.20	46.04	-22.4	-23.3	19.8	0.00e+00	0	44	0	2000683008	5	3976
2026-01-17 01:42:20.11	104.89	45.97	-22.5	-23.6	19.6	0.00e+00	0	44	0	2017460224	5	4063
2026-01-17 01:42:23.11	106.56	45.87	-22.4	-23.3	19.7	0.00e+00	0	44	0	2034237440	5	3992
2026-01-17 01:42:26.11	108.22	45.74	-22.2	-22.8	20.0	0.00e+00	0	43	0	2051014656	5	3858
2026-01-17 01:42:29.12	109.88	45.59	-22.3	-23.1	19.8	0.00e+00	0	44	0	2067791872	5	3938
2026-01-17 01:42:32.11	111.50	45.41	-22.5	-23.5	19.6	0.00e+00	0	44	0	2084569088	5	4024
2026-01-17 01:42:35.13	113.13	45.21	-22.2	-22.9	19.9	0.00e+00	0	44	0	2101346304	5	3880
2026-01-17 01:42:38.13	114.72	44.99	-22.5	-23.6	19.6	0.00e+00	0	43	0	2118123520	5	4058
2026-01-17 01:42:41.13	116.29	44.74	-22.3	-23.1	19.8	0.00e+00	0	43	0	2134900736	5	3950
2026-01-17 01:42:44.13	117.83	44.48	-22.2	-23.0	19.8	0.00e+00	0	44	0	2151677952	5	3909
2026-01-17 01:42:47.14	119.35	44.19	-22.4	-23.3	19.7	0.00e+00	0	44	0	2169503744	5	3992
2026-01-17 01:42:50.15	120.85	43.88	-22.4	-23.3	19.7	0.00e+00	0	44	0	2186280960	5	3986
2026-01-17 01:42:53.15	122.31	43.55	-22.8	-24.2	19.3	0.00e+00	0	44	0	2203058176	5	4207
2026-01-17 01:42:56.15	123.74	43.21	-22.9	-23.7	19.2	0.00e+00	0	44	0	2219835392	6	3989
2026-01-17 01:42:59.16	125.14	42.85	-22.4	-22.7	19.7	0.00e+00	0	44	0	2236612608	6	3750
2026-01-17 01:43:02.15	126.51	42.48	-22.3	-22.7	19.7	0.00e+00	0	44	0	2253389824	6	3739
2026-01-17 01:43:05.16	127.85	42.10	-22.3	-23.0	19.8	0.00e+00	0	44	0	2270167040	5	3919
2026-01-17 01:43:08.16	129.16	41.70	-22.4	-23.3	19.7	0.00e+00	0	44	0	2287992832	5	3994
2026-01-17 01:43:11.17	130.43	41.29	-22.0	-22.5	20.0	0.00e+00	0	44	0	2304770048	5	3804
2026-01-17 01:43:14.18	131.68	40.86	-21.9	-22.3	20.1	0.00e+00	0	44	0	2321547264	5	3769
2026-01-17 01:43:17.19	132.90	40.43	-21.8	-22.6	20.2	0.00e+00	0	44	0	2338324480	4	3935
2026-01-17 01:43:20.20	134.08	39.99	-22.2	-23.3	19.8	0.00e+00	0	44	0	2355101696	4	4106
2026-01-17 01:43:23.22	135.23	39.54	-22.1	-23.2	19.9	0.00e+00	0	44	0	2371878912	4	4083
2026-01-17 01:43:26.22	136.35	39.09	-22.0	-22.9	20.1	0.00e+00	0	44	0	2388656128	4	4001
2026-01-17 01:43:29.23	137.44	38.63	-21.9	-22.7	20.1	0.00e+00	0	44	0	2405433344	4	3967
2026-01-17 01:43:32.23	138.50	38.17	-22.0	-23.1	20.0	0.00e+00	0	44	0	2423259136	4	4048
2026-01-17 01:43:35.23	139.52	37.70	-21.9	-22.8	20.1	0.00e+00	0	44	0	2440036352	4	3979
2026-01-17 01:43:38.24	140.52	37.23	-22.1	-23.2	19.9	0.00e+00	0	44	0	2456813568	4	4068
2026-01-17 01:43:41.25	141.50	36.76	-22.1	-23.1	19.9	0.00e+00	0	43	0	2473590784	4	4067
2026-01-17 01:43:44.26	142.44	36.28	-22.1	-23.2	19.8	0.00e+00	0	44	0	2490368000	4	4095
2026-01-17 01:43:47.26	143.36	35.80	-22.2	-23.4	19.7	0.00e+00	0	44	0	2507145216	4	4134
2026-01-17 01:43:50.26	144.25	35.33	-22.2	-23.4	19.8	0.00e+00	0	44	0	2523922432	4	4131
2026-01-17 01:43:53.26	145.11	34.85	-22.3	-23.5	19.7	0.00e+00	0	44	0	2540699648	4	4155
2026-01-17 01:43:56.26	145.96	34.37	-22.3	-23.6	19.6	0.00e+00	0	44	0	2558525440	4	4192
2026-01-17 01:43:59.27	146.77	33.90	-22.2	-23.4	19.7	0.00e+00	0	44	0	2575302656	4	4127
2026-01-17 01:44:02.28	147.57	33.42	-22.1	-23.2	19.8	0.00e+00	0	44	0	2592079872	4	4077
2026-01-17 01:44:05.27	148.34	32.95	-22.3	-23.5	19.7	0.00e+00	0	44	0	2608857088	4	4163
2026-01-17 01:44:08.28	149.09	32.48	-22.2	-23.5	19.7	0.00e+00	0	44	0	2625634304	4	4144
2026-01-17 01:44:11.28	149.82	32.01	-22.4	-23.8	19.5	0.00e+00	0	43	0	2642411520	4	4223
2026-01-17 01:44:14.29	150.53	31.54	-22.7	-23.9	19.2	0.00e+00	0	43	0	2659188736	5	4134
2026-01-17 01:44:17.30	151.22	31.08	-22.4	-23.3	19.5	0.00e+00	0	44	0	2675965952	5	4001
2026-01-17 01:44:20.31	151.89	30.61	-22.4	-23.3	19.5	0.00e+00	0	44	0	2693791744	5	4008
2026-01-17 01:44:23.32	152.55	30.15	-22.4	-23.2	19.6	0.00e+00	0	44	0	2710568960	5	3978
2026-01-17 01:44:26.31	153.18	29.70	-22.4	-23.4	19.5	0.00e+00	0	44	0	2727346176	5	4014
2026-01-17 01:44:29.31	153.79	29.25	-22.6	-23.7	19.3	0.00e+00	0	44	0	2744123392	5	4090
2026-01-17 01:44:32.32	154.40	28.80	-23.0	-24.1	18.8	0.00e+00	0	44	0	2760900608	6	4092
2026-01-17 01:44:35.31	154.98	28.36	-22.9	-23.9	19.0	0.00e+00	0	44	0	2777677824	6	4032
2026-01-17 01:44:38.31	155.55	27.92	-22.9	-23.9	19.0	0.00e+00	0	44	0	2794455040	6	4028
2026-01-17 01:44:41.30	156.10	27.49	-22.5	-23.1	19.4	0.00e+00	0	44	0	2811232256	6	3828
2026-01-17 01:44:44.29	156.63	27.06	-22.5	-23.4	19.5	0.00e+00	0	44	0	2828009472	5	4016
2026-01-17 01:44:47.30	157.16	26.63	-22.4	-23.3	19.4	0.00e+00	0	44	0	2844786688	5	3995
2026-01-17 01:44:50.30	157.67	26.21	-22.6	-23.7	14.4	0.00e+00	0	44	0	2861563904	5	4084
2026-01-17 01:44:53.29	158.17	25.79	-22.7	-24.0	18.9	0.00e+00	0	44	0	2879389696	5	4172
2026-01-17 01:44:56.29	158.66	25.38	-22.9	-24.3	19.0	0.00e+00	0	44	0	2896166912	5	4242
2026-01-17 01:44:59.30	159.13	24.97	-22.7	-23.8	19.2	0.00e+00	0	44	0	2912944128	5	4121
2026-01-17 01:45:02.30	159.59	24.57	-22.8	-24.1	19.1	0.00e+00	0	44	0	2929721344	5	4179
2026-01-17 01:45:05.32	160.05	24.16	-23.0	-24.4	18.9	0.00e+00	0	44	0	2946498560	5	4277
2026-01-17 01:45:08.31	160.49	23.77	-23.0	-24.0	18.8	0.00e+00	0	44	0	2963275776	6	4059
2026-01-17 01:45:11.31	160.92	23.38	-23.1	-24.3	18.7	1.07e-03	0	44	0	2980052992	6	4138
2026-01-17 01:45:14.30	161.33	22.99	-23.2	-24.5	18.6	0.00e+00	0	44	0	2996830208	6	4175
2026-01-17 01:45:17.30	161.74	22.61	-23.3	-24.7	18.5	0.00e+00	0	44	0	3013607424	6	4228
2026-01-17 01:45:20.31	162.14	22.22	-23.4	-24.9	18.4	1.19e-03	0	44	0	3030384640	6	4280
2026-01-17 01:45:23.32	162.53	21.85	-23.4	-25.0	18.3	1.25e-03	0	44	0	3048210432	6	4300
2026-01-17 01:45:26.32	162.92	21.48	-23.6	-24.8	18.2	0.00e+00	0	44	0	3064987648	7	4139
2026-01-17 01:45:29.33	163.29	21.11	-23.5	-24.7	18.2	0.00e+00	0	44	0	3081764864	7	4124
2026-01-17 01:45:32.33	163.65	20.75	-23.5	-24.7	18.2	1.25e-03	0	44	0	3098542080	7	4116
2026-01-17 01:45:35.34	164.01	20.39	-23.6	-24.8	18.1	1.25e-03	0	44	0	3115319296	7	4142
2026-01-17 01:45:38.35	164.36	20.03	-23.7	-25.1	18.0	1.19e-03	0	44	0	3132096512	7	4218
2026-01-17 01:45:41.36	164.70	19.68	-23.7	-25.1	17.9	1.06e-03	0	44	0	3148873728	7	4230
2026-01-17 01:45:44.37	165.03	19.33	-23.8	-25.3	17.8	1.13e-03	0	44	0	3165650944	7	4274
2026-01-17 01:45:47.37	165.36	18.99	-23.8	-25.3	17.8	1.04e-03	0	44	0	3183476736	7	4277
2026-01-17 01:45:50.36	165.68	18.65	-23.9	-25.0	17.8	1.06e-03	0	44	0	3200253952	8	4066
2026-01-17 01:45:53.35	165.99	18.32	-24.2	-25.7	17.4	1.22e-03	0	44	0	3217031168	8	4260
2026-01-17 01:45:56.35	166.29	17.99	-24.5	-25.8	17.1	1.20e-03	0	44	0	3233808384	9	4164
2026-01-17 01:45:59.35	166.59	17.66	-24.4	-26.0	17.2	0.00e+00	0	44	0	3250585600	8	4353
2026-01-17 01:46:02.35	166.89	17.34	-24.5	-25.7	17.1	1.15e-03	0	44	0	3267362816	9	4153
2026-01-17 01:46:05.35	167.17	17.02	-24.2	-25.6	15.9	1.09e-03	0	44	0	3284140032	9	4256
2026-01-17 01:46:08.34	167.45	16.70	-24.5	-25.8	17.1	1.02e-03	0	44	0	3300917248	9	4172
2026-01-17 01:46:11.34	167.73	16.39	-24.6	-26.0	17.0	0.00e+00	0	44	0	3317694464	9	4223
2026-01-17 01:46:14.34	168.00	16.08	-24.7	-26.2	14.7	1.15e-03	0	44	0	3334471680	9	4276
2026-01-17 01:46:17.35	168.27	15.77	-24.8	-26.5	16.7	1.08e-03	0	44	0	3351248896	9	4351
2026-01-17 01:46:20.35	168.53	15.47	-25.1	-26.6	16.4	3.27e-04	0	44	0	3369074688	10	4262
2026-01-17 01:46:23.36	168.78	15.17	-25.1	-26.6	16.3	0.00e+00	0	44	0	3385851904	10	4276
2026-01-17 01:46:26.37	169.03	14.87	-25.2	-26.8	16.2	1.14e-03	0	44	0	3402629120	10	4341
2026-01-17 01:46:29.37	169.28	14.58	-25.3	-27.1	16.0	4.37e-04	0	44	0	3419406336	10	4419
2026-01-17 01:46:32.37	169.52	14.29	-25.3	-27.1	16.0	4.50e-04	0	44	0	3436183552	10	4421
2026-01-17 01:46:35.36	169.76	14.00	-25.6	-27.2	15.7	0.00e+00	0	44	0	3452960768	11	4335
2026-01-17 01:46:38.37	169.99	13.71	-25.4	-27.2	15.9	3.31e-04	0	44	0	3469737984	10	4461
2026-01-17 01:46:41.37	170.22	13.43	-25.4	-27.3	15.9	3.33e-04	0	44	0	3486515200	10	4471
2026-01-17 01:46:44.38	170.44	13.15	-25.6	-27.1	15.7	3.59e-04	0	44	0	3503292416	11	4314
2026-01-17 01:46:47.39	170.66	12.87	-25.6	-27.2	15.6	4.08e-04	0	44	0	3521118208	11	4332
2026-01-17 01:46:50.39	170.88	12.60	-25.6	-27.2	15.7	5.60e-04	0	43	0	3537895424	11	4316
2026-01-17 01:46:53.40	171.09	12.33	-25.8	-27.6	15.4	4.52e-04	0	44	0	3554672640	11	4440
2026-01-17 01:46:56.40	171.30	12.06	-25.5	-26.9	15.8	0.00e+00	0	44	0	3571449856	11	4253
2026-01-17 01:46:59.41	171.51	11.80	-25.6	-27.2	15.6	3.18e-04	0	44	0	3588227072	11	4312
2026-01-17 01:47:02.44	171.71	11.53	-25.7	-27.4	15.5	3.03e-04	0	44	0	3605004288	11	4368
2026-01-17 01:47:05.44	171.91	11.27	-25.6	-27.2	15.6	0.00e+00	0	44	0	3621781504	11	4324
2026-01-17 01:47:08.45	172.10	11.01	-25.5	-27.0	15.7	0.00e+00	0	44	0	3639607296	11	4257
2026-01-17 01:47:11.45	172.30	10.76	-25.7	-27.4	15.5	6.48e-04	0	44	0	3656384512	11	4380
2026-01-17 01:47:14.44	172.48	10.50	-25.6	-27.2	15.6	3.31e-04	0	44	0	3673161728	11	4313
2026-01-17 01:47:17.44	172.67	10.25	-25.6	-27.1	15.6	0.00e+00	0	43	0	3689938944	11	4298
2026-01-17 01:47:20.46	172.85	10.00	-25.8	-27.6	15.3	0.00e+00	0	44	0	3706716160	11	4434
2026-01-17 01:47:23.46	173.03	9.76	-26.1	-27.7	14.8	0.00e+00	0	43	0	3723493376	12	4359
2026-01-17 01:47:26.46	173.21	9.51	-25.8	-27.7	15.2	0.00e+00	0	44	0	3740270592	11	4472
2026-01-17 01:47:29.45	173.38	9.27	-26.0	-27.6	14.9	0.00e+00	0	44	0	3757047808	12	4318
2026-01-17 01:47:32.45	173.55	9.03	-26.0	-27.6	14.9	0.00e+00	0	44	0	3773825024	12	4327
2026-01-17 01:47:35.46	173.72	8.79	-26.0	-27.6	14.9	0.00e+00	0	44	0	3790602240	12	4327
2026-01-17 01:47:38.46	173.89	8.56	-26.1	-27.9	14.6	0.00e+00	0	44	0	3807379456	12	4415
2026-01-17 01:47:41.46	174.05	8.32	-26.1	-27.9	13.3	0.00e+00	0	44	0	3825205248	12	4432
2026-01-17 01:47:44.47	174.21	8.09	-26.3	-28.3	14.4	0.00e+00	0	44	0	3841982464	12	4527
2026-01-17 01:47:47.48	174.37	7.86	-26.2	-28.0	14.5	1.10e-06	0	44	0	3858759680	12	4462
2026-01-17 01:47:50.49	174.53	7.63	-26.2	-28.1	14.5	1.10e-06	0	44	0	3875536896	12	4492
2026-01-17 01:47:53.49	174.69	7.41	-26.3	-28.3	14.4	9.01e-04	0	44	0	3892314112	12	4531
2026-01-17 01:47:56.49	174.84	7.18	-26.8	-29.0	13.6	7.61e-04	0	44	0	3909091328	13	4631
2026-01-17 01:47:59.48	174.99	6.96	-32.9	-44.4	3.8	8.46e-01	0	44	104	3914334208	25	13527

#Closed at: 2026-01-17 01:48:00
#Recorded file [3914 MB]: D:/data/31010_260117_043621.dat