passes_logs/2026/01/17/R2M6_AANII_01/R2M6_AANII_01__20260117_050105_FENGYUN_3E_rec.log

#Pass ID: 20260117_050105_FENGYUN 3E
#Satellite: FENGYUN 3E
#Configuration: FENGYUN 3E
#almurnet v.1.7.20240730
#Start time: 2026-01-17 05:05:58

#Version: 2.2.20231116
#Station: R2M6_AANII_01
#Location: 30.233357 lon 59.946436 lat
#TLE: 1 49008U 21062A   26016.27412410  .00000434  00000+0  22502-3 0  9992
#TLE: 2 49008  98.7486  21.3880 0002096 134.9721 225.1626 14.19886506235025

#Time	Az	El	Level	Level2	SNR	BER	BlckErr	Temp	State	Recorded	gain1	gain2
2026-01-17 05:05:58.38	349.04	52.93	-32.9	-44.4	3.8	8.47e-01	0	43	0	0	25	13493
2026-01-17 05:06:00.38	348.21	53.51	-33.7	-43.0	3.8	8.43e-01	0	43	104	0	27	10456
2026-01-17 05:06:02.38	347.35	54.10	-33.7	-42.8	3.8	8.43e-01	0	43	104	0	27	10224
2026-01-17 05:06:04.38	346.45	54.69	-33.8	-43.5	3.8	8.47e-01	0	43	104	0	27	11004
2026-01-17 05:06:06.39	345.50	55.28	-33.8	-43.6	3.8	8.45e-01	0	43	104	0	27	11035
2026-01-17 05:06:08.39	344.52	55.86	-33.8	-43.5	3.8	8.47e-01	0	43	104	0	27	10982
2026-01-17 05:06:10.38	343.51	56.44	-33.8	-43.5	3.8	8.45e-01	0	43	104	0	27	10977
2026-01-17 05:06:12.37	342.45	57.02	-33.8	-43.4	3.8	8.46e-01	0	43	104	0	27	10928
2026-01-17 05:06:14.36	341.34	57.59	-33.8	-43.4	3.8	8.46e-01	0	43	104	0	27	10927
2026-01-17 05:06:16.35	340.19	58.16	-33.8	-43.5	3.8	8.46e-01	0	43	104	0	27	10999
2026-01-17 05:06:18.35	338.98	58.73	-33.8	-43.5	3.8	8.45e-01	0	43	104	0	27	10952
2026-01-17 05:06:20.35	337.72	59.28	-33.8	-43.4	3.8	8.46e-01	0	44	104	0	27	10863
2026-01-17 05:06:22.34	336.41	59.83	-33.7	-43.3	3.8	8.47e-01	0	43	104	0	27	10835
2026-01-17 05:06:24.34	335.03	60.37	-33.7	-43.3	3.8	8.46e-01	0	43	104	0	27	10822
2026-01-17 05:06:26.35	333.59	60.90	-33.7	-43.3	3.8	8.46e-01	0	44	104	0	27	10777
2026-01-17 05:06:28.34	332.10	61.41	-33.7	-43.3	3.8	8.46e-01	0	44	104	0	27	10794
2026-01-17 05:06:30.35	330.54	61.92	-33.7	-43.0	3.8	8.47e-01	0	44	104	0	27	10533
2026-01-17 05:06:32.36	328.91	62.41	-33.7	-43.0	3.8	8.46e-01	0	44	104	0	27	10526
2026-01-17 05:06:34.36	327.22	62.88	-33.7	-42.8	3.8	8.46e-01	0	44	104	0	27	10340
2026-01-17 05:06:36.36	325.46	63.33	-33.6	-42.1	3.8	8.46e-01	0	44	104	0	27	9656
2026-01-17 05:06:38.36	323.64	63.76	-33.5	-42.0	3.8	8.46e-01	0	44	104	0	27	9583
2026-01-17 05:06:40.36	321.75	64.17	-33.6	-42.3	3.8	8.47e-01	0	44	104	0	27	9791
2026-01-17 05:06:42.36	319.80	64.56	-33.2	-39.7	3.9	8.44e-01	0	44	104	0	27	7658
2026-01-17 05:06:44.37	317.77	64.92	-33.5	-41.6	3.8	8.44e-01	0	44	104	0	27	9149
2026-01-17 05:06:46.37	315.68	65.25	-33.7	-43.1	3.8	8.46e-01	0	44	104	0	27	10618
2026-01-17 05:06:48.38	313.52	65.55	-33.6	-42.3	3.8	8.47e-01	0	44	104	0	27	9833
2026-01-17 05:06:50.38	311.32	65.82	-33.0	-38.5	4.0	8.44e-01	0	44	104	0	27	6773
2026-01-17 05:06:52.40	309.05	66.06	-25.2	-25.4	16.3	0.00e+00	0	43	104	0	11	3663
2026-01-17 05:06:54.40	306.74	66.27	-25.4	-25.7	16.1	0.00e+00	0	44	0	10485760	11	3744
2026-01-17 05:06:56.40	304.40	66.44	-25.7	-26.4	15.7	0.00e+00	0	44	0	25165824	11	3895
2026-01-17 05:06:58.40	302.03	66.57	-25.2	-25.4	16.3	0.00e+00	0	44	0	39845888	11	3674
2026-01-17 05:07:00.40	299.63	66.67	-24.8	-24.9	16.8	0.00e+00	0	44	0	53477376	10	3665
2026-01-17 05:07:02.40	297.21	66.73	-23.6	-23.5	18.0	0.00e+00	0	44	0	68157440	8	3557
2026-01-17 05:07:04.39	294.79	66.75	-22.3	-22.2	19.4	0.00e+00	0	44	0	82837504	5	3564
2026-01-17 05:07:06.39	292.36	66.73	-21.9	-21.9	19.7	0.00e+00	0	44	0	97517568	4	3597
2026-01-17 05:07:08.39	289.94	66.67	-22.4	-22.9	19.3	0.00e+00	0	44	0	112197632	4	3835
2026-01-17 05:07:10.40	287.53	66.58	-23.0	-23.6	18.7	0.00e+00	0	44	0	125829120	5	3881
2026-01-17 05:07:12.41	285.13	66.45	-23.1	-23.3	18.6	0.00e+00	0	44	0	140509184	6	3711
2026-01-17 05:07:14.41	282.79	66.28	-22.5	-22.3	19.2	0.00e+00	0	44	0	155189248	6	3478
2026-01-17 05:07:16.42	280.47	66.08	-22.3	-22.3	19.2	0.00e+00	0	44	0	169869312	5	3581
2026-01-17 05:07:18.42	278.21	65.84	-22.4	-22.5	19.3	0.00e+00	0	44	0	183500800	5	3630
2026-01-17 05:07:20.43	276.00	65.57	-22.6	-22.8	19.0	0.00e+00	0	44	0	198180864	5	3700
2026-01-17 05:07:22.44	273.83	65.27	-22.5	-22.7	19.2	0.00e+00	0	44	0	212860928	5	3679
2026-01-17 05:07:24.45	271.73	64.93	-22.6	-23.0	19.0	0.00e+00	0	44	0	227540992	5	3740
2026-01-17 05:07:26.45	269.71	64.58	-22.5	-22.6	19.2	0.00e+00	0	44	0	242221056	5	3657
2026-01-17 05:07:28.46	267.73	64.19	-22.7	-23.1	19.0	0.00e+00	0	44	0	256901120	5	3754
2026-01-17 05:07:30.46	265.84	63.78	-22.3	-22.2	19.4	0.00e+00	0	44	0	270532608	5	3569
2026-01-17 05:07:32.46	264.01	63.35	-23.3	-23.7	18.4	0.00e+00	0	44	0	285212672	6	3802
2026-01-17 05:07:34.46	262.25	62.90	-23.1	-23.5	18.4	0.00e+00	0	44	0	299892736	6	3746
2026-01-17 05:07:36.47	260.55	62.43	-23.0	-23.2	18.7	0.00e+00	0	44	0	314572800	6	3680
2026-01-17 05:07:38.47	258.92	61.94	-23.7	-24.2	17.9	0.00e+00	0	44	0	328204288	7	3816
2026-01-17 05:07:40.48	257.35	61.43	-23.9	-24.6	17.7	0.00e+00	0	44	0	342884352	7	3907
2026-01-17 05:07:42.48	255.85	60.92	-23.5	-23.2	18.2	0.00e+00	0	44	0	357564416	8	3492
2026-01-17 05:07:44.49	254.40	60.39	-23.7	-24.3	17.9	0.00e+00	0	44	0	372244480	7	3822
2026-01-17 05:07:46.50	253.02	59.84	-24.6	-25.0	17.0	0.00e+00	0	44	0	386924544	9	3787
2026-01-17 05:07:48.51	251.69	59.29	-23.6	-23.5	18.0	0.00e+00	0	44	0	401604608	8	3546
2026-01-17 05:07:50.51	250.42	58.73	-23.5	-23.3	18.1	0.00e+00	0	44	0	415236096	8	3501
2026-01-17 05:07:52.52	249.20	58.16	-24.1	-24.6	17.4	0.00e+00	0	44	0	429916160	8	3788
2026-01-17 05:07:54.52	248.04	57.59	-23.9	-24.1	17.6	0.00e+00	0	44	0	444596224	8	3692
2026-01-17 05:07:56.53	246.92	57.01	-23.7	-23.8	17.8	0.00e+00	0	44	0	459276288	8	3609
2026-01-17 05:07:58.53	245.85	56.43	-23.1	-22.8	18.5	0.00e+00	0	44	0	472907776	7	3503
2026-01-17 05:08:00.53	244.83	55.84	-23.5	-23.7	18.1	0.00e+00	0	44	0	488636416	7	3693
2026-01-17 05:08:02.54	243.84	55.25	-23.6	-24.0	17.9	0.00e+00	0	44	0	502267904	7	3768
2026-01-17 05:08:04.53	242.91	54.67	-23.7	-24.1	17.9	0.00e+00	0	44	0	516947968	7	3780
2026-01-17 05:08:06.54	242.00	54.08	-24.2	-24.7	17.3	0.00e+00	0	44	0	531628032	8	3815
2026-01-17 05:08:08.54	241.13	53.49	-24.4	-25.1	17.1	0.00e+00	0	44	0	546308096	8	3913
2026-01-17 05:08:10.54	240.30	52.90	-24.5	-25.4	17.0	0.00e+00	0	44	0	559939584	8	3978
2026-01-17 05:08:12.55	239.50	52.31	-24.8	-25.5	16.7	0.00e+00	0	44	0	574619648	9	3893
2026-01-17 05:08:14.55	238.73	51.72	-24.9	-25.8	16.5	0.00e+00	0	44	0	589299712	9	3968
2026-01-17 05:08:16.55	237.99	51.13	-24.7	-25.2	16.7	0.00e+00	0	44	0	603979776	9	3841
2026-01-17 05:08:18.58	237.27	50.54	-25.2	-25.9	16.2	0.00e+00	0	44	0	617611264	10	3904
2026-01-17 05:08:20.57	236.60	49.97	-24.9	-25.3	16.5	0.00e+00	0	44	0	632291328	10	3747
2026-01-17 05:08:22.58	235.94	49.39	-24.4	-24.2	17.0	0.00e+00	0	44	0	646971392	10	3507
2026-01-17 05:08:24.58	235.30	48.81	-24.4	-24.7	17.0	0.00e+00	0	44	0	661651456	9	3732
2026-01-17 05:08:26.59	234.69	48.24	-24.2	-24.2	17.3	0.00e+00	0	44	0	676331520	9	3600
2026-01-17 05:08:28.59	234.11	47.68	-23.8	-24.0	17.6	0.00e+00	0	44	0	691011584	8	3663
2026-01-17 05:08:30.60	233.54	47.11	-23.4	-23.1	18.0	0.00e+00	0	43	0	704643072	8	3473
2026-01-17 05:08:32.60	232.99	46.56	-23.4	-23.1	18.1	0.00e+00	0	44	0	719323136	8	3461
2026-01-17 05:08:34.61	232.46	46.00	-23.3	-23.3	18.2	0.00e+00	0	43	0	734003200	7	3604
2026-01-17 05:08:36.62	231.95	45.45	-22.9	-22.6	18.6	0.00e+00	0	44	0	748683264	7	3459
2026-01-17 05:08:38.62	231.46	44.91	-23.0	-22.6	17.7	0.00e+00	0	44	0	762314752	7	3466
2026-01-17 05:08:40.62	230.99	44.37	-22.9	-23.0	18.5	0.00e+00	0	44	0	776994816	6	3645
2026-01-17 05:08:42.62	230.53	43.84	-22.7	-22.5	18.8	0.00e+00	0	44	0	791674880	6	3547
2026-01-17 05:08:44.62	230.09	43.31	-22.7	-22.6	18.8	0.00e+00	0	44	0	806354944	6	3560
2026-01-17 05:08:46.63	229.66	42.79	-23.1	-23.4	18.4	0.00e+00	0	44	0	821035008	6	3724
2026-01-17 05:08:48.64	229.24	42.27	-23.4	-24.1	17.9	0.00e+00	0	44	0	835715072	6	3887
2026-01-17 05:08:50.64	228.84	41.76	-23.1	-23.0	18.3	0.00e+00	0	44	0	849346560	7	3549
2026-01-17 05:08:52.65	228.45	41.25	-23.1	-22.8	18.4	0.00e+00	0	44	0	864026624	7	3512
2026-01-17 05:08:54.65	228.07	40.75	-22.9	-22.9	18.6	0.00e+00	0	44	0	878706688	6	3634
2026-01-17 05:08:56.65	227.71	40.26	-23.0	-23.2	18.4	0.00e+00	0	44	0	893386752	6	3688
2026-01-17 05:08:58.65	227.36	39.77	-23.2	-23.6	18.2	0.00e+00	0	44	0	908066816	6	3771
2026-01-17 05:09:00.65	227.01	39.29	-23.3	-23.8	18.1	0.00e+00	0	44	0	921698304	6	3825
2026-01-17 05:09:02.65	226.68	38.81	-23.3	-23.9	18.0	0.00e+00	0	44	0	936378368	6	3840
2026-01-17 05:09:04.65	226.35	38.34	-22.8	-22.7	18.7	0.00e+00	0	44	0	951058432	6	3581
2026-01-17 05:09:06.65	226.04	37.87	-22.6	-22.4	18.9	0.00e+00	0	44	0	965738496	6	3506
2026-01-17 05:09:08.66	225.73	37.41	-22.6	-22.5	18.8	0.00e+00	0	44	0	979369984	6	3528
2026-01-17 05:09:10.66	225.44	36.95	-22.7	-22.6	18.6	0.00e+00	0	44	0	994050048	6	3562
2026-01-17 05:09:12.67	225.15	36.50	-22.7	-22.7	18.7	0.00e+00	0	44	0	1008730112	6	3574
2026-01-17 05:09:14.67	224.87	36.05	-22.5	-22.2	18.9	0.00e+00	0	43	0	1023410176	6	3481
2026-01-17 05:09:16.67	224.59	35.61	-22.5	-22.2	18.9	0.00e+00	0	44	0	1037041664	6	3471
2026-01-17 05:09:18.68	224.33	35.18	-22.5	-22.7	18.9	0.00e+00	0	43	0	1052770304	5	3676
2026-01-17 05:09:20.69	224.07	34.75	-22.6	-22.9	18.8	0.00e+00	0	44	0	1066401792	5	3737
2026-01-17 05:09:22.69	223.82	34.32	-22.6	-22.9	18.7	0.00e+00	0	44	0	1081081856	5	3731
2026-01-17 05:09:24.69	223.57	33.90	-22.7	-23.1	18.6	0.00e+00	0	44	0	1095761920	5	3780
2026-01-17 05:09:26.69	223.33	33.49	-22.3	-22.2	19.1	0.00e+00	0	44	0	1110441984	5	3575
2026-01-17 05:09:28.69	223.10	33.08	-22.3	-22.3	19.1	0.00e+00	0	44	0	1124073472	5	3599
2026-01-17 05:09:30.69	222.87	32.67	-22.4	-22.6	18.9	0.00e+00	0	44	0	1138753536	5	3650
2026-01-17 05:09:32.69	222.65	32.28	-22.6	-22.9	18.7	0.00e+00	0	44	0	1153433600	5	3740
2026-01-17 05:09:34.70	222.44	31.88	-22.8	-23.3	18.5	0.00e+00	0	44	0	1168113664	5	3822
2026-01-17 05:09:36.70	222.23	31.49	-22.7	-23.2	18.6	0.00e+00	0	44	0	1181745152	5	3793
2026-01-17 05:09:38.70	222.02	31.10	-22.8	-23.3	18.5	0.00e+00	0	44	0	1196425216	5	3825
2026-01-17 05:09:40.70	221.82	30.72	-22.6	-22.9	18.6	0.00e+00	0	44	0	1211105280	5	3718
2026-01-17 05:09:42.71	221.63	30.35	-22.6	-22.8	18.8	0.00e+00	0	44	0	1225785344	5	3709
2026-01-17 05:09:44.72	221.43	29.97	-22.6	-22.9	18.7	0.00e+00	0	44	0	1240465408	5	3735
2026-01-17 05:09:46.74	221.25	29.60	-22.7	-23.0	18.6	0.00e+00	0	44	0	1255145472	5	3758
2026-01-17 05:09:48.73	221.07	29.24	-22.5	-22.6	18.8	0.00e+00	0	44	0	1268776960	5	3668
2026-01-17 05:09:50.74	220.89	28.88	-22.5	-22.7	18.8	0.00e+00	0	44	0	1283457024	5	3686
2026-01-17 05:09:52.75	220.71	28.52	-22.5	-22.8	18.7	0.00e+00	0	44	0	1298137088	5	3699
2026-01-17 05:09:54.75	220.54	28.17	-22.6	-22.8	18.7	0.00e+00	0	44	0	1312817152	5	3713
2026-01-17 05:09:56.76	220.38	27.83	-22.7	-23.1	18.6	0.00e+00	0	44	0	1326448640	5	3769
2026-01-17 05:09:58.77	220.21	27.48	-22.7	-23.0	18.6	0.00e+00	0	44	0	1341128704	5	3757
2026-01-17 05:10:00.77	220.05	27.15	-22.6	-22.9	18.7	0.00e+00	0	44	0	1355808768	5	3717
2026-01-17 05:10:02.78	219.90	26.81	-22.6	-22.8	18.7	0.00e+00	0	44	0	1370488832	5	3712
2026-01-17 05:10:04.79	219.74	26.48	-22.6	-23.0	18.6	0.00e+00	0	44	0	1385168896	5	3742
2026-01-17 05:10:06.79	219.60	26.15	-22.5	-22.8	18.7	0.00e+00	0	44	0	1399848960	5	3705
2026-01-17 05:10:08.80	219.45	25.83	-22.7	-23.1	18.6	0.00e+00	0	44	0	1413480448	5	3764
2026-01-17 05:10:10.80	219.31	25.51	-22.8	-23.2	18.4	0.00e+00	0	44	0	1428160512	5	3799
2026-01-17 05:10:12.81	219.17	25.19	-22.8	-23.4	18.4	0.00e+00	0	44	0	1442840576	5	3847
2026-01-17 05:10:14.81	219.03	24.88	-22.8	-22.9	18.4	0.00e+00	0	44	0	1457520640	6	3628
2026-01-17 05:10:16.81	218.89	24.57	-22.9	-23.1	18.2	0.00e+00	0	44	0	1472200704	6	3680
2026-01-17 05:10:18.81	218.76	24.27	-23.0	-23.3	18.2	0.00e+00	0	44	0	1485832192	6	3714
2026-01-17 05:10:20.81	218.63	23.96	-23.1	-23.4	18.1	0.00e+00	0	44	0	1500512256	6	3745
2026-01-17 05:10:22.82	218.51	23.66	-23.1	-23.4	18.1	0.00e+00	0	44	0	1515192320	6	3733
2026-01-17 05:10:24.81	218.38	23.37	-23.1	-23.4	18.1	0.00e+00	0	44	0	1529872384	6	3735
2026-01-17 05:10:26.82	218.26	23.08	-23.1	-23.6	18.0	0.00e+00	0	44	0	1543503872	6	3776
2026-01-17 05:10:28.82	218.14	22.79	-23.0	-23.2	18.2	0.00e+00	0	44	0	1558183936	6	3700
2026-01-17 05:10:30.84	218.03	22.50	-23.2	-23.7	17.9	0.00e+00	0	44	0	1572864000	6	3801
2026-01-17 05:10:32.85	217.91	22.22	-23.0	-23.2	18.1	0.00e+00	0	44	0	1587544064	6	3702
2026-01-17 05:10:34.85	217.80	21.94	-23.0	-23.3	18.1	0.00e+00	0	44	0	1602224128	6	3727
2026-01-17 05:10:36.86	217.69	21.66	-23.1	-23.4	18.0	0.00e+00	0	44	0	1616904192	6	3726
2026-01-17 05:10:38.86	217.58	21.38	-23.4	-24.0	17.7	0.00e+00	0	44	0	1630535680	6	3873
2026-01-17 05:10:40.87	217.47	21.11	-23.2	-23.7	17.8	0.00e+00	0	44	0	1645215744	6	3817
2026-01-17 05:10:42.88	217.37	20.84	-23.2	-23.6	17.9	0.00e+00	0	44	0	1659895808	6	3791
2026-01-17 05:10:44.89	217.26	20.58	-23.3	-23.9	17.7	0.00e+00	0	44	0	1674575872	6	3854
2026-01-17 05:10:46.90	217.16	20.31	-23.4	-23.6	17.6	0.00e+00	0	44	0	1689255936	7	3685
2026-01-17 05:10:48.90	217.06	20.05	-23.4	-23.7	17.6	0.00e+00	0	44	0	1702887424	7	3699
2026-01-17 05:10:50.91	216.97	19.79	-23.5	-23.8	17.5	0.00e+00	0	44	0	1717567488	7	3734
2026-01-17 05:10:52.91	216.87	19.54	-23.7	-24.3	17.2	0.00e+00	0	44	0	1732247552	7	3847
2026-01-17 05:10:54.91	216.78	19.29	-24.1	-25.1	16.8	0.00e+00	0	44	0	1746927616	7	4029
2026-01-17 05:10:56.93	216.69	19.03	-23.7	-23.8	17.2	0.00e+00	0	44	0	1761607680	8	3639
2026-01-17 05:10:58.93	216.60	18.79	-23.8	-23.9	17.2	0.00e+00	0	44	0	1775239168	8	3649
2026-01-17 05:11:00.93	216.51	18.54	-23.9	-24.1	17.1	0.00e+00	0	44	0	1789919232	8	3696
2026-01-17 05:11:02.94	216.42	18.30	-24.0	-24.4	16.9	0.00e+00	0	44	0	1804599296	8	3756
2026-01-17 05:11:04.95	216.33	18.05	-24.0	-24.4	16.9	0.00e+00	0	44	0	1819279360	8	3761
2026-01-17 05:11:06.95	216.25	17.82	-24.1	-24.7	16.8	0.00e+00	0	44	0	1833959424	8	3827
2026-01-17 05:11:08.95	216.16	17.58	-24.3	-25.0	16.6	0.00e+00	0	44	0	1848639488	8	3903
2026-01-17 05:11:10.95	216.08	17.35	-24.4	-25.3	16.4	0.00e+00	0	44	0	1862270976	8	3973
2026-01-17 05:11:12.94	216.00	17.12	-24.3	-24.9	16.6	0.00e+00	0	44	0	1876951040	8	3891
2026-01-17 05:11:14.95	215.92	16.89	-24.3	-25.1	16.5	0.00e+00	0	44	0	1891631104	8	3918
2026-01-17 05:11:16.95	215.85	16.66	-24.2	-24.8	16.6	0.00e+00	0	44	0	1906311168	8	3866
2026-01-17 05:11:18.95	215.77	16.43	-24.3	-25.1	16.4	0.00e+00	0	44	0	1919942656	8	3938
2026-01-17 05:11:20.95	215.69	16.21	-24.4	-25.2	16.4	0.00e+00	0	44	0	1934622720	8	3956
2026-01-17 05:11:22.96	215.62	15.99	-24.4	-25.3	16.3	0.00e+00	0	44	0	1949302784	8	3974
2026-01-17 05:11:24.96	215.55	15.77	-24.5	-25.4	16.2	0.00e+00	0	44	0	1963982848	8	4001
2026-01-17 05:11:26.95	215.48	15.55	-24.5	-25.5	16.2	0.00e+00	0	44	0	1977614336	8	4037
2026-01-17 05:11:28.95	215.40	15.33	-24.7	-25.3	16.0	0.00e+00	0	44	0	1992294400	9	3880
2026-01-17 05:11:30.95	215.33	15.12	-24.5	-24.9	16.3	0.00e+00	0	44	0	2006974464	9	3790
2026-01-17 05:11:32.96	215.27	14.91	-24.4	-24.8	16.3	0.00e+00	0	44	0	2021654528	9	3756
2026-01-17 05:11:34.96	215.20	14.70	-24.5	-25.0	16.2	0.00e+00	0	44	0	2036334592	9	3806
2026-01-17 05:11:36.97	215.13	14.49	-24.8	-25.5	15.9	0.00e+00	0	44	0	2049966080	9	3925
2026-01-17 05:11:38.97	215.07	14.28	-24.6	-25.1	16.1	0.00e+00	0	44	0	2064646144	9	3828
2026-01-17 05:11:40.99	215.00	14.07	-24.8	-25.7	15.8	0.00e+00	0	44	0	2079326208	9	3966
2026-01-17 05:11:42.99	214.94	13.87	-24.6	-25.1	16.0	0.00e+00	0	44	0	2094006272	9	3830
2026-01-17 05:11:45.00	214.87	13.67	-24.6	-25.1	16.1	0.00e+00	0	44	0	2108686336	9	3818
2026-01-17 05:11:47.00	214.81	13.47	-24.7	-25.4	15.8	0.00e+00	0	44	0	2122317824	9	3911
2026-01-17 05:11:49.01	214.75	13.27	-24.6	-25.3	16.0	0.00e+00	0	44	0	2136997888	9	3868
2026-01-17 05:11:51.02	214.69	13.07	-24.8	-25.5	15.8	1.10e-06	0	44	0	2151677952	9	3921
2026-01-17 05:11:53.03	214.63	12.87	-24.8	-25.6	15.7	0.00e+00	0	44	0	2166358016	9	3956
2026-01-17 05:11:55.04	214.57	12.68	-24.9	-25.8	15.6	0.00e+00	0	44	0	2181038080	9	4003
2026-01-17 05:11:57.04	214.52	12.49	-25.0	-26.0	15.5	0.00e+00	0	44	0	2195718144	9	4038
2026-01-17 05:11:59.04	214.46	12.30	-25.3	-26.3	15.1	0.00e+00	0	44	0	2209349632	10	4017
2026-01-17 05:12:01.05	214.40	12.11	-25.0	-25.6	15.4	0.00e+00	0	44	0	2224029696	10	3842
2026-01-17 05:12:03.05	214.35	11.92	-25.1	-25.9	15.3	1.10e-06	0	44	0	2238709760	10	3912
2026-01-17 05:12:05.05	214.30	11.73	-25.2	-26.0	15.2	0.00e+00	0	44	0	2253389824	10	3948
2026-01-17 05:12:07.06	214.24	11.55	-25.4	-26.4	15.0	0.00e+00	0	44	0	2267021312	10	4054
2026-01-17 05:12:09.06	214.19	11.36	-25.6	-26.3	14.8	0.00e+00	0	44	0	2281701376	11	3917
2026-01-17 05:12:11.07	214.14	11.18	-25.7	-26.7	14.5	0.00e+00	0	44	0	2296381440	11	4014
2026-01-17 05:12:13.07	214.09	11.00	-25.6	-26.4	14.6	1.10e-06	0	44	0	2311061504	11	3950
2026-01-17 05:12:15.08	214.04	10.82	-25.7	-26.6	14.5	0.00e+00	0	44	0	2325741568	11	3998
2026-01-17 05:12:17.09	213.98	10.64	-25.9	-26.6	14.2	2.20e-06	0	44	0	2340421632	12	3894
2026-01-17 05:12:19.09	213.94	10.46	-25.6	-25.8	14.6	0.00e+00	0	44	0	2354053120	12	3714
2026-01-17 05:12:21.10	213.89	10.28	-25.6	-26.0	14.5	0.00e+00	0	44	0	2368733184	12	3759
2026-01-17 05:12:23.10	213.84	10.11	-25.8	-26.3	14.3	1.10e-06	0	44	0	2383413248	12	3821
2026-01-17 05:12:25.12	213.79	9.93	-25.9	-26.7	14.1	0.00e+00	0	44	0	2398093312	12	3915
2026-01-17 05:12:27.13	213.74	9.76	-25.7	-26.2	14.3	1.10e-06	0	44	0	2412773376	12	3811
2026-01-17 05:12:29.12	213.70	9.59	-26.0	-26.9	13.9	0.00e+00	0	44	0	2426404864	12	3983
2026-01-17 05:12:31.12	213.65	9.42	-25.7	-26.2	14.3	0.00e+00	0	44	0	2441084928	12	3810
2026-01-17 05:12:33.12	213.61	9.25	-25.8	-26.3	14.2	1.10e-06	0	44	0	2455764992	12	3837
2026-01-17 05:12:35.12	213.56	9.08	-25.9	-26.6	14.1	0.00e+00	0	44	0	2470445056	12	3898
2026-01-17 05:12:37.12	213.52	8.92	-26.1	-27.0	13.9	3.40e-06	0	44	0	2484076544	12	3992
2026-01-17 05:12:39.14	213.48	8.75	-25.8	-26.3	14.2	1.10e-06	0	44	0	2498756608	12	3841
2026-01-17 05:12:41.14	213.43	8.59	-26.2	-27.2	13.6	1.02e-05	0	44	0	2513436672	12	4069
2026-01-17 05:12:43.14	213.39	8.42	-26.3	-27.4	13.5	3.40e-06	0	44	0	2528116736	12	4117
2026-01-17 05:12:45.14	213.35	8.26	-26.0	-26.8	13.8	8.00e-06	0	44	0	2542796800	12	3960
2026-01-17 05:12:47.15	213.31	8.10	-26.1	-27.1	13.7	1.10e-06	0	44	0	2557476864	12	4035
2026-01-17 05:12:49.14	213.27	7.94	-26.3	-27.5	13.5	9.10e-06	0	44	0	2571108352	12	4130
2026-01-17 05:12:51.14	213.23	7.78	-25.9	-26.5	13.9	0.00e+00	0	44	0	2585788416	12	3895
2026-01-17 05:12:53.14	213.19	7.62	-25.9	-26.7	13.8	3.40e-06	0	44	0	2600468480	12	3945
2026-01-17 05:12:55.13	213.15	7.46	-26.1	-27.0	13.6	1.25e-05	0	44	0	2614099968	12	4023
2026-01-17 05:12:57.14	213.11	7.31	-26.1	-27.2	13.6	1.02e-05	0	44	0	2628780032	12	4052
2026-01-17 05:12:59.14	213.07	7.15	-26.1	-27.0	13.6	1.02e-05	0	44	0	2643460096	12	4014
2026-01-17 05:13:01.13	213.04	7.00	-32.6	-42.6	3.8	8.45e-01	0	44	104	2652897280	24	11390

#Closed at: 2026-01-17 05:13:02
#Recorded file [2652 MB]: D:/data/31010_260117_080652.dat