passes_logs/2026/01/17/R2M6_AANII_01/R2M6_AANII_01__20260117_014823_NOAA_21_JPSS-2_rec.log

#Pass ID: 20260117_014823_NOAA 21 (JPSS-2)
#Satellite: NOAA 21 (JPSS-2)
#Configuration: NOAA 21
#almurnet v.1.7.20240730
#Start time: 2026-01-17 01:48:25

#Version: 2.2.20231116
#Station: R2M6_AANII_01
#Location: 30.233357 lon 59.946436 lat
#TLE: 1 54234U 22150A   26016.21096038  .00000027  00000+0  33607-4 0  9993
#TLE: 2 54234  98.7500 317.0960 0000625 282.3388  77.7718 14.19534911164985

#Time	Az	El	Level	Level2	SNR	BER	BlckErr	Temp	State	Recorded	gain1	gain2
2026-01-17 01:48:25.35	11.75	7.13	-33.8	-45.8	3.8	1.49e+00	0	44	0	0	27	14453
2026-01-17 01:48:28.36	11.53	7.34	-33.9	-46.2	3.8	1.49e+00	0	43	104	0	27	14765
2026-01-17 01:48:31.36	11.32	7.55	-33.8	-46.1	3.8	1.49e+00	0	44	104	0	27	14704
2026-01-17 01:48:34.36	11.10	7.77	-33.8	-45.9	3.8	1.49e+00	0	44	104	0	27	14565
2026-01-17 01:48:37.36	10.87	7.98	-33.7	-45.6	3.8	1.49e+00	0	43	104	0	27	14298
2026-01-17 01:48:40.37	10.64	8.19	-33.4	-45.6	3.8	1.49e+00	0	44	104	0	26	14740
2026-01-17 01:48:43.38	10.41	8.41	-32.8	-43.9	3.8	1.49e+00	0	44	104	0	25	12990
2026-01-17 01:48:46.38	10.18	8.63	-32.8	-44.3	3.8	1.49e+00	0	44	104	0	25	13563
2026-01-17 01:48:49.38	9.94	8.84	-32.9	-45.1	3.8	1.49e+00	0	44	104	0	25	14671
2026-01-17 01:48:52.39	9.69	9.06	-32.7	-43.3	3.8	1.49e+00	0	44	104	0	25	12261
2026-01-17 01:48:55.39	9.45	9.29	-31.9	-38.7	5.5	5.44e-01	0	43	0	0	23	7874
2026-01-17 01:48:58.39	9.20	9.51	-31.5	-36.3	7.7	1.12e-01	0	44	0	9437184	22	6218
2026-01-17 01:49:01.39	8.94	9.73	-30.8	-35.4	8.3	6.03e-02	0	44	0	18874368	21	6081
2026-01-17 01:49:04.39	8.69	9.96	-30.7	-34.9	8.7	4.46e-02	0	43	0	27262976	21	5829
2026-01-17 01:49:07.40	8.42	10.19	-30.5	-34.3	9.1	3.71e-02	0	44	0	37748736	21	5576
2026-01-17 01:49:10.40	8.16	10.41	-29.1	-31.6	12.0	5.23e-03	0	44	0	47185920	18	4847
2026-01-17 01:49:13.42	7.88	10.65	-28.1	-30.3	13.5	2.24e-04	0	44	0	55574528	16	4627
2026-01-17 01:49:16.43	7.61	10.88	-27.5	-29.4	14.2	4.00e-03	0	44	0	65011712	15	4465
2026-01-17 01:49:19.44	7.32	11.11	-27.6	-29.6	14.1	1.16e-04	0	44	0	74448896	15	4541
2026-01-17 01:49:22.44	7.04	11.35	-27.6	-29.6	14.1	3.04e-03	0	44	0	83886080	15	4533
2026-01-17 01:49:25.45	6.75	11.58	-27.5	-29.8	14.3	1.36e-04	0	44	0	93323264	14	4716
2026-01-17 01:49:28.46	6.45	11.82	-27.4	-29.7	14.3	3.43e-05	0	44	0	102760448	14	4673
2026-01-17 01:49:31.47	6.15	12.06	-27.3	-29.4	14.5	2.52e-04	0	44	0	112197632	14	4594
2026-01-17 01:49:34.49	5.85	12.30	-27.2	-29.1	14.7	3.71e-04	0	43	0	121634816	14	4496
2026-01-17 01:49:37.49	5.54	12.54	-27.4	-29.6	14.5	1.50e-06	0	43	0	131072000	14	4633
2026-01-17 01:49:40.49	5.22	12.79	-27.7	-29.7	14.1	2.56e-04	0	44	0	140509184	15	4555
2026-01-17 01:49:43.50	4.90	13.03	-27.6	-29.5	14.3	7.00e-07	0	44	0	149946368	15	4491
2026-01-17 01:49:46.50	4.57	13.28	-27.5	-29.4	14.3	7.00e-07	0	44	0	159383552	15	4472
2026-01-17 01:49:49.52	4.24	13.53	-27.2	-29.1	14.8	0.00e+00	0	44	0	168820736	14	4485
2026-01-17 01:49:52.53	3.90	13.78	-27.2	-29.1	14.8	0.00e+00	0	44	0	178257920	14	4482
2026-01-17 01:49:55.53	3.55	14.03	-27.3	-29.4	14.6	0.00e+00	0	43	0	187695104	14	4569
2026-01-17 01:49:58.53	3.20	14.29	-27.1	-29.0	14.9	0.00e+00	0	44	0	197132288	14	4443
2026-01-17 01:50:01.54	2.85	14.54	-27.2	-29.0	14.9	0.00e+00	0	44	0	206569472	14	4458
2026-01-17 01:50:04.54	2.48	14.80	-27.1	-28.8	15.0	0.00e+00	0	44	0	216006656	14	4390
2026-01-17 01:50:07.55	2.11	15.06	-27.1	-29.0	14.9	7.00e-07	0	44	0	225443840	14	4434
2026-01-17 01:50:10.54	1.74	15.31	-27.4	-29.5	14.7	0.00e+00	0	44	0	234881024	14	4588
2026-01-17 01:50:13.54	1.36	15.58	-27.4	-29.5	14.7	0.00e+00	0	44	0	244318208	14	4592
2026-01-17 01:50:16.54	0.97	15.84	-27.7	-29.8	14.3	2.20e-06	0	44	0	252706816	15	4564
2026-01-17 01:50:19.54	0.57	16.10	-27.6	-29.6	14.4	0.00e+00	0	44	0	262144000	15	4521
2026-01-17 01:50:22.55	0.17	16.37	-27.4	-29.1	14.7	0.00e+00	0	44	0	272629760	15	4363
2026-01-17 01:50:25.55	359.75	16.63	-27.8	-30.0	14.1	7.00e-07	0	44	0	281018368	15	4644
2026-01-17 01:50:28.55	359.34	16.90	-27.5	-29.2	14.6	2.20e-06	0	44	0	290455552	15	4384
2026-01-17 01:50:31.54	358.91	17.17	-27.5	-29.3	14.5	7.00e-07	0	44	0	299892736	15	4434
2026-01-17 01:50:34.55	358.48	17.44	-27.3	-29.2	14.9	0.00e+00	0	44	0	309329920	14	4515
2026-01-17 01:50:37.57	358.03	17.71	-27.2	-29.0	15.0	0.00e+00	0	44	0	318767104	14	4457
2026-01-17 01:50:40.58	357.58	17.99	-27.1	-28.9	15.1	0.00e+00	0	44	0	328204288	14	4420
2026-01-17 01:50:43.59	357.12	18.26	-27.4	-29.4	14.8	0.00e+00	0	44	0	337641472	14	4567
2026-01-17 01:50:46.58	356.65	18.54	-27.0	-28.6	15.3	0.00e+00	0	44	0	347078656	14	4337
2026-01-17 01:50:49.58	356.17	18.81	-27.0	-28.6	15.3	0.00e+00	0	44	0	356515840	14	4337
2026-01-17 01:50:52.59	355.69	19.09	-25.9	-27.5	15.3	0.00e+00	0	44	0	365953024	13	4336
2026-01-17 01:50:55.60	355.19	19.37	-26.4	-28.2	16.0	3.90e-03	0	44	0	375390208	12	4438
2026-01-17 01:50:58.61	354.69	19.65	-26.5	-28.1	15.9	0.00e+00	0	44	0	384827392	13	4299
2026-01-17 01:51:01.61	354.17	19.93	-26.4	-28.2	16.1	3.35e-03	0	44	0	394264576	12	4433
2026-01-17 01:51:04.62	353.65	20.21	-26.3	-28.0	16.2	0.00e+00	0	44	0	403701760	12	4377
2026-01-17 01:51:07.63	353.11	20.49	-26.3	-28.0	16.2	0.00e+00	0	44	0	413138944	12	4388
2026-01-17 01:51:10.62	352.57	20.77	-26.3	-28.0	16.2	2.82e-03	0	44	0	422576128	12	4379
2026-01-17 01:51:13.63	352.02	21.05	-26.4	-28.2	16.1	0.00e+00	0	44	0	432013312	12	4445
2026-01-17 01:51:16.62	351.46	21.33	-26.5	-28.1	15.9	2.23e-03	0	44	0	441450496	13	4286
2026-01-17 01:51:19.62	350.88	21.62	-26.2	-27.9	16.3	0.00e+00	0	44	0	450887680	12	4342
2026-01-17 01:51:22.62	350.30	21.90	-26.3	-27.9	16.3	3.76e-03	0	44	0	459276288	12	4351
2026-01-17 01:51:25.62	349.70	22.18	-26.2	-27.7	16.4	3.56e-03	0	44	0	468713472	12	4307
2026-01-17 01:51:28.63	349.10	22.46	-26.2	-27.8	16.3	3.10e-03	0	44	0	478150656	12	4328
2026-01-17 01:51:31.62	348.48	22.74	-26.2	-27.7	16.4	2.24e-03	0	44	0	487587840	12	4299
2026-01-17 01:51:34.62	347.85	23.02	-26.6	-28.2	15.9	0.00e+00	0	43	0	497025024	13	4317
2026-01-17 01:51:37.62	347.21	23.30	-26.4	-27.8	16.1	4.42e-05	0	44	0	506462208	13	4207
2026-01-17 01:51:40.63	346.56	23.58	-26.3	-27.5	16.3	0.00e+00	0	44	0	515899392	13	4142
2026-01-17 01:51:43.62	345.89	23.86	-26.4	-28.3	16.1	2.06e-03	0	44	0	525336576	12	4477
2026-01-17 01:51:46.62	345.22	24.14	-26.5	-27.8	16.1	3.34e-03	0	44	0	534773760	13	4227
2026-01-17 01:51:49.63	344.53	24.41	-26.3	-27.9	16.3	3.82e-03	0	44	0	544210944	12	4354
2026-01-17 01:51:52.64	343.82	24.68	-26.2	-27.8	16.4	3.70e-03	0	44	0	553648128	12	4318
2026-01-17 01:51:55.65	343.11	24.96	-26.4	-28.2	16.3	5.71e-04	0	44	0	563085312	12	4422
2026-01-17 01:51:58.65	342.38	25.23	-26.4	-28.3	16.2	4.29e-03	0	44	0	572522496	12	4462
2026-01-17 01:52:01.65	341.65	25.49	-26.7	-28.4	15.8	3.89e-04	0	44	0	581959680	13	4387
2026-01-17 01:52:04.68	340.89	25.76	-26.9	-28.8	15.6	9.37e-04	0	44	0	591396864	13	4490
2026-01-17 01:52:07.68	340.12	26.02	-26.8	-28.7	15.7	1.31e-03	0	44	0	600834048	13	4448
2026-01-17 01:52:10.68	339.35	26.28	-26.7	-28.3	15.9	2.37e-03	0	44	0	610271232	13	4342
2026-01-17 01:52:13.70	338.55	26.53	-26.7	-28.4	15.9	0.00e+00	0	44	0	619708416	13	4383
2026-01-17 01:52:16.70	337.75	26.78	-26.9	-28.9	15.6	2.86e-03	0	44	0	629145600	13	4515
2026-01-17 01:52:19.71	336.93	27.03	-26.8	-28.7	15.7	0.00e+00	0	44	0	638582784	13	4450
2026-01-17 01:52:22.71	336.11	27.27	-26.8	-28.6	15.8	3.00e-04	0	44	0	648019968	13	4421
2026-01-17 01:52:25.70	335.27	27.51	-26.8	-28.7	15.7	2.97e-03	0	44	0	657457152	13	4460
2026-01-17 01:52:28.71	334.41	27.74	-26.7	-28.3	15.9	0.00e+00	0	44	0	665845760	13	4350
2026-01-17 01:52:31.72	333.54	27.97	-26.7	-28.4	15.9	8.89e-04	0	44	0	675282944	13	4377
2026-01-17 01:52:34.74	332.66	28.19	-26.8	-28.7	15.7	0.00e+00	0	44	0	684720128	13	4448
2026-01-17 01:52:37.75	331.77	28.41	-27.0	-28.6	15.5	0.00e+00	0	44	0	694157312	14	4329
2026-01-17 01:52:40.75	330.87	28.62	-27.0	-28.5	15.6	0.00e+00	0	44	0	703594496	14	4299
2026-01-17 01:52:43.76	329.95	28.82	-26.6	-28.1	16.1	0.00e+00	0	44	0	713031680	13	4272
2026-01-17 01:52:46.76	329.02	29.02	-26.6	-28.2	16.0	0.00e+00	0	44	0	722468864	13	4325
2026-01-17 01:52:49.77	328.08	29.21	-26.8	-28.6	15.8	0.00e+00	0	44	0	731906048	13	4432
2026-01-17 01:52:52.78	327.13	29.39	-26.9	-28.9	15.6	0.00e+00	0	44	0	741343232	13	4500
2026-01-17 01:52:55.78	326.17	29.57	-27.2	-28.9	15.4	0.00e+00	0	44	0	750780416	14	4392
2026-01-17 01:52:58.78	325.20	29.73	-27.1	-28.7	15.5	0.00e+00	0	44	0	760217600	14	4351
2026-01-17 01:53:01.78	324.23	29.89	-27.2	-28.9	15.4	0.00e+00	0	44	0	769654784	14	4396
2026-01-17 01:53:04.78	323.24	30.04	-27.0	-28.6	15.5	0.00e+00	0	44	0	779091968	14	4308
2026-01-17 01:53:07.79	322.24	30.18	-27.1	-28.9	15.4	0.00e+00	0	44	0	788529152	14	4390
2026-01-17 01:53:10.80	321.23	30.31	-27.1	-28.8	15.4	0.00e+00	0	44	0	797966336	14	4366
2026-01-17 01:53:13.80	320.21	30.43	-27.5	-29.3	14.9	7.00e-07	0	44	0	807403520	15	4387
2026-01-17 01:53:16.81	319.19	30.54	-27.6	-29.5	14.8	0.00e+00	0	44	0	816840704	15	4466
2026-01-17 01:53:19.82	318.16	30.64	-27.8	-29.8	14.6	0.00e+00	0	44	0	826277888	15	4556
2026-01-17 01:53:22.83	317.12	30.73	-27.1	-28.3	15.4	0.00e+00	0	44	0	835715072	15	4112
2026-01-17 01:53:25.85	316.07	30.82	-27.2	-29.0	14.8	0.00e+00	0	44	0	845152256	14	4431
2026-01-17 01:53:28.84	315.03	30.89	-27.2	-29.0	15.3	0.00e+00	0	44	0	854589440	14	4419
2026-01-17 01:53:31.85	313.98	30.95	-27.2	-29.1	15.3	0.00e+00	0	44	0	864026624	14	4443
2026-01-17 01:53:34.86	312.92	31.00	-27.0	-29.0	15.6	0.00e+00	0	44	0	873463808	13	4536
2026-01-17 01:53:37.86	311.87	31.03	-27.3	-29.2	15.2	2.81e-04	0	44	0	882900992	14	4495
2026-01-17 01:53:40.88	310.80	31.06	-27.3	-29.1	15.2	0.00e+00	0	44	0	892338176	14	4465
2026-01-17 01:53:43.88	309.74	31.08	-27.3	-29.2	15.2	4.12e-04	0	44	0	900726784	14	4477
2026-01-17 01:53:46.88	308.68	31.08	-27.6	-29.3	14.9	0.00e+00	0	44	0	910163968	15	4397
2026-01-17 01:53:49.88	307.62	31.08	-27.0	-28.5	15.6	0.00e+00	0	44	0	919601152	14	4289
2026-01-17 01:53:52.89	306.56	31.06	-27.4	-29.5	15.0	6.18e-04	0	44	0	929038336	14	4579
2026-01-17 01:53:55.90	305.50	31.03	-28.2	-30.1	14.3	0.00e+00	0	44	0	938475520	16	4526
2026-01-17 01:53:58.90	304.44	30.99	-27.3	-29.3	15.1	3.55e-04	0	44	0	947912704	14	4519
2026-01-17 01:54:01.89	303.39	30.94	-27.2	-29.0	15.3	0.00e+00	0	44	0	957349888	14	4424
2026-01-17 01:54:04.90	302.34	30.88	-27.0	-28.5	15.6	1.25e-04	0	44	0	966787072	14	4289
2026-01-17 01:54:07.90	301.29	30.81	-27.3	-29.2	15.2	2.97e-05	0	44	0	976224256	14	4489
2026-01-17 01:54:10.89	300.26	30.73	-27.3	-28.8	15.2	2.70e-04	0	44	0	985661440	15	4270
2026-01-17 01:54:13.90	299.22	30.63	-27.0	-28.6	15.5	3.85e-04	0	44	0	995098624	14	4325
2026-01-17 01:54:16.91	298.18	30.53	-27.2	-29.1	15.3	4.72e-04	0	44	0	1004535808	14	4446
2026-01-17 01:54:19.90	297.17	30.42	-27.2	-29.0	15.3	4.23e-04	0	44	0	1013972992	14	4426
2026-01-17 01:54:22.89	296.15	30.30	-27.1	-28.7	15.6	1.94e-04	0	44	0	1023410176	14	4328
2026-01-17 01:54:25.90	295.14	30.17	-27.3	-29.1	15.3	6.34e-04	0	44	0	1032847360	14	4455
2026-01-17 01:54:28.90	294.15	30.03	-27.8	-29.8	14.6	2.52e-04	0	44	0	1042284544	15	4554
2026-01-17 01:54:31.90	293.16	29.88	-27.2	-29.0	15.3	0.00e+00	0	44	0	1051721728	14	4438
2026-01-17 01:54:34.90	292.18	29.72	-27.7	-29.7	14.6	2.41e-04	0	44	0	1061158912	15	4521
2026-01-17 01:54:37.91	291.20	29.55	-27.5	-29.2	14.9	7.00e-07	0	44	0	1070596096	15	4367
2026-01-17 01:54:40.92	290.24	29.37	-27.3	-29.3	15.1	1.46e-04	0	44	0	1078984704	14	4511
2026-01-17 01:54:43.93	289.29	29.19	-27.4	-29.4	15.0	0.00e+00	0	44	0	1088421888	14	4545
2026-01-17 01:54:46.93	288.35	29.00	-27.2	-29.0	15.2	0.00e+00	0	44	0	1097859072	14	4441
2026-01-17 01:54:49.93	287.42	28.80	-26.5	-27.9	16.2	0.00e+00	0	44	0	1107296256	13	4221
2026-01-17 01:54:52.94	286.50	28.60	-26.8	-28.6	15.7	0.00e+00	0	43	0	1116733440	13	4438
2026-01-17 01:54:55.94	285.60	28.39	-26.8	-28.1	15.7	0.00e+00	0	44	0	1126170624	14	4178
2026-01-17 01:54:58.95	284.71	28.17	-26.5	-27.9	16.1	0.00e+00	0	44	0	1135607808	13	4238
2026-01-17 01:55:01.97	283.82	27.95	-26.6	-28.1	16.1	0.00e+00	0	44	0	1145044992	13	4278
2026-01-17 01:55:04.97	282.95	27.72	-26.9	-28.7	15.7	0.00e+00	0	44	0	1154482176	13	4472
2026-01-17 01:55:07.99	282.09	27.48	-26.5	-28.0	16.0	0.00e+00	0	44	0	1163919360	13	4254
2026-01-17 01:55:11.00	281.25	27.24	-26.7	-28.5	15.8	0.00e+00	0	44	0	1173356544	13	4404
2026-01-17 01:55:14.00	280.42	27.00	-26.6	-28.2	15.9	0.00e+00	0	44	0	1182793728	13	4315
2026-01-17 01:55:16.99	279.61	26.75	-26.2	-27.3	16.4	0.00e+00	0	43	0	1192230912	13	4084
2026-01-17 01:55:20.00	278.80	26.50	-26.4	-28.1	16.2	0.00e+00	0	44	0	1201668096	12	4414
2026-01-17 01:55:23.01	278.01	26.24	-26.8	-28.7	15.6	0.00e+00	0	44	0	1211105280	13	4478
2026-01-17 01:55:26.02	277.23	25.98	-26.2	-27.2	16.4	0.00e+00	0	44	0	1220542464	13	4067
2026-01-17 01:55:29.03	276.46	25.72	-26.0	-27.8	16.7	0.00e+00	0	44	0	1229979648	11	4424
2026-01-17 01:55:32.04	275.70	25.46	-26.5	-28.1	15.9	0.00e+00	0	43	0	1239416832	13	4288
2026-01-17 01:55:35.04	274.96	25.19	-26.6	-28.3	15.8	0.00e+00	0	44	0	1248854016	13	4353
2026-01-17 01:55:38.05	274.23	24.92	-26.7	-28.4	15.7	0.00e+00	0	43	0	1258291200	13	4382
2026-01-17 01:55:41.05	273.52	24.64	-26.8	-28.3	15.6	0.00e+00	0	44	0	1267728384	14	4233
2026-01-17 01:55:44.06	272.81	24.37	-27.1	-28.9	15.2	0.00e+00	0	44	0	1277165568	14	4413
2026-01-17 01:55:47.06	272.12	24.09	-26.5	-27.9	16.0	0.00e+00	0	44	0	1286602752	13	4255
2026-01-17 01:55:50.07	271.44	23.81	-27.1	-28.7	15.3	0.00e+00	0	44	0	1296039936	14	4360
2026-01-17 01:55:53.09	270.77	23.53	-26.9	-29.0	15.4	0.00e+00	0	44	0	1304428544	13	4549
2026-01-17 01:55:56.09	270.12	23.25	-27.5	-29.7	14.7	0.00e+00	0	43	0	1313865728	14	4643
2026-01-17 01:55:59.10	269.47	22.97	-27.1	-28.7	15.3	0.00e+00	0	44	0	1324351488	14	4362
2026-01-17 01:56:02.11	268.84	22.69	-27.2	-29.0	15.1	0.00e+00	0	44	0	1332740096	14	4443
2026-01-17 01:56:05.10	268.22	22.41	-25.4	-26.9	14.6	0.00e+00	0	44	0	1342177280	12	4286
2026-01-17 01:56:08.11	267.61	22.12	-26.4	-28.1	15.3	0.00e+00	0	44	0	1351614464	12	4424
2026-01-17 01:56:11.11	267.02	21.84	-26.5	-28.0	15.8	0.00e+00	0	44	0	1361051648	13	4279
2026-01-17 01:56:14.13	266.43	21.56	-26.5	-28.0	15.9	1.92e-03	0	44	0	1370488832	13	4285
2026-01-17 01:56:17.12	265.85	21.27	-25.8	-27.3	15.9	0.00e+00	0	44	0	1379926016	13	4271
2026-01-17 01:56:20.13	265.29	20.99	-26.4	-28.3	15.7	8.78e-03	0	43	0	1389363200	12	4466
2026-01-17 01:56:23.14	264.73	20.71	-26.6	-28.2	15.7	0.00e+00	0	44	0	1398800384	13	4332
2026-01-17 01:56:26.15	264.18	20.42	-26.4	-28.4	15.9	4.86e-03	0	44	0	1408237568	12	4490
2026-01-17 01:56:29.17	263.65	20.14	-26.5	-28.1	15.8	1.45e-03	0	44	0	1417674752	13	4299
2026-01-17 01:56:32.18	263.12	19.86	-26.7	-28.4	15.6	3.63e-03	0	44	0	1427111936	13	4389
2026-01-17 01:56:35.18	262.61	19.58	-26.8	-28.6	15.5	3.77e-03	0	44	0	1436549120	13	4439
2026-01-17 01:56:38.19	262.10	19.30	-26.2	-27.9	16.1	0.00e+00	0	44	0	1445986304	12	4362
2026-01-17 01:56:41.20	261.60	19.02	-26.1	-27.6	16.3	3.43e-03	0	44	0	1455423488	12	4279
2026-01-17 01:56:44.21	261.11	18.74	-26.3	-28.0	16.0	4.89e-04	0	44	0	1464860672	12	4391
2026-01-17 01:56:47.22	260.63	18.46	-27.0	-29.0	15.2	3.85e-03	0	44	0	1474297856	13	4579
2026-01-17 01:56:50.22	260.16	18.18	-27.2	-29.2	14.8	4.11e-03	0	44	0	1483735040	14	4511
2026-01-17 01:56:53.23	259.70	17.91	-27.2	-29.0	14.9	3.59e-03	0	44	0	1493172224	14	4459
2026-01-17 01:56:56.23	259.25	17.63	-26.6	-28.3	15.6	2.96e-03	0	44	0	1502609408	13	4362
2026-01-17 01:56:59.23	258.80	17.36	-26.8	-28.7	15.4	9.10e-06	0	44	0	1512046592	13	4477
2026-01-17 01:57:02.26	258.36	17.09	-27.5	-29.2	14.5	6.25e-03	0	44	0	1521483776	15	4409
2026-01-17 01:57:05.25	257.94	16.82	-27.5	-29.7	14.5	0.00e+00	0	44	0	1530920960	14	4673
2026-01-17 01:57:08.26	257.52	16.55	-27.3	-29.4	14.6	3.81e-04	0	44	0	1540358144	14	4582
2026-01-17 01:57:11.26	257.10	16.28	-27.3	-29.2	14.7	0.00e+00	0	44	0	1549795328	14	4525
2026-01-17 01:57:14.26	256.70	16.02	-27.4	-29.5	14.5	0.00e+00	0	44	0	1558183936	14	4616
2026-01-17 01:57:17.27	256.30	15.75	-27.7	-29.7	14.1	7.00e-07	0	44	0	1567621120	15	4558
2026-01-17 01:57:20.28	255.90	15.49	-27.6	-29.6	14.2	1.50e-06	0	44	0	1577058304	15	4532
2026-01-17 01:57:23.29	255.52	15.22	-27.6	-29.5	14.2	3.23e-03	0	44	0	1586495488	15	4483
2026-01-17 01:57:26.30	255.14	14.96	-27.6	-29.6	14.2	7.00e-07	0	44	0	1595932672	15	4517
2026-01-17 01:57:29.30	254.77	14.70	-27.2	-29.0	14.7	7.00e-07	0	44	0	1605369856	14	4463
2026-01-17 01:57:32.32	254.40	14.45	-27.2	-29.1	14.7	7.00e-07	0	44	0	1614807040	14	4487
2026-01-17 01:57:35.33	254.04	14.19	-27.3	-29.3	14.6	7.00e-07	0	44	0	1624244224	14	4549
2026-01-17 01:57:38.33	253.69	13.94	-27.6	-29.6	14.1	2.20e-06	0	44	0	1633681408	15	4542
2026-01-17 01:57:41.34	253.35	13.68	-27.2	-29.2	14.6	7.00e-07	0	44	0	1643118592	14	4534
2026-01-17 01:57:44.35	253.00	13.43	-27.0	-28.8	14.8	0.00e+00	0	44	0	1652555776	14	4396
2026-01-17 01:57:47.35	252.67	13.18	-26.9	-28.9	15.0	0.00e+00	0	44	0	1661992960	13	4561
2026-01-17 01:57:50.36	252.34	12.93	-26.8	-28.8	15.0	0.00e+00	0	44	0	1671430144	13	4525
2026-01-17 01:57:53.38	252.02	12.69	-27.1	-28.9	14.7	7.00e-07	0	44	0	1680867328	14	4443
2026-01-17 01:57:56.39	251.70	12.44	-27.3	-29.4	14.4	0.00e+00	0	44	0	1690304512	14	4603
2026-01-17 01:57:59.39	251.39	12.20	-27.8	-30.1	13.7	8.30e-06	0	44	0	1699741696	15	4682
2026-01-17 01:58:02.40	251.08	11.96	-27.9	-30.4	13.5	1.52e-05	0	44	0	1709178880	15	4797
2026-01-17 01:58:05.41	250.78	11.72	-27.7	-29.9	13.8	6.10e-06	0	44	0	1718616064	15	4614
2026-01-17 01:58:08.42	250.48	11.48	-27.8	-30.1	13.7	7.60e-06	0	44	0	1728053248	15	4676
2026-01-17 01:58:11.43	250.19	11.24	-27.5	-29.3	14.1	1.50e-06	0	44	0	1737490432	15	4459
2026-01-17 01:58:14.43	249.90	11.00	-27.7	-30.0	13.7	5.30e-06	0	44	0	1746927616	15	4651
2026-01-17 01:58:17.42	249.62	10.77	-27.8	-30.1	13.6	5.30e-06	0	44	0	1756364800	15	4698
2026-01-17 01:58:20.43	249.34	10.54	-28.0	-30.6	13.3	1.06e-05	0	44	0	1765801984	15	4870
2026-01-17 01:58:23.44	249.06	10.31	-28.2	-30.6	13.2	3.81e-05	0	44	0	1775239168	16	4722
2026-01-17 01:58:26.45	248.79	10.08	-27.5	-30.2	12.4	8.09e-04	0	44	0	1784676352	16	4936
2026-01-17 01:58:29.45	248.53	9.85	-28.3	-30.9	11.9	4.27e-05	0	44	0	1794113536	16	4834
2026-01-17 01:58:32.47	248.27	9.62	-28.4	-31.0	12.8	6.71e-05	0	44	0	1803550720	16	4867
2026-01-17 01:58:35.48	248.01	9.40	-28.3	-30.8	12.9	6.10e-05	0	44	0	1811939328	16	4823
2026-01-17 01:58:38.50	247.76	9.17	-28.3	-30.8	12.8	6.50e-03	0	44	0	1822425088	16	4825
2026-01-17 01:58:41.52	247.51	8.95	-28.5	-31.3	12.5	6.28e-03	0	44	0	1831862272	16	4998
2026-01-17 01:58:44.54	247.26	8.73	-28.8	-31.6	12.0	1.91e-04	0	44	0	1840250880	17	4983
2026-01-17 01:58:47.53	247.02	8.51	-28.7	-31.4	12.1	4.77e-03	0	44	0	1849688064	17	4904
2026-01-17 01:58:50.52	246.78	8.29	-28.8	-31.7	11.9	1.48e-03	0	44	0	1859125248	17	5015
2026-01-17 01:58:53.54	246.55	8.08	-29.0	-32.2	11.6	5.42e-03	0	44	0	1868562432	17	5194
2026-01-17 01:58:56.56	246.32	7.86	-28.8	-31.6	11.9	5.22e-03	0	44	0	1877999616	17	4987
2026-01-17 01:58:59.57	246.09	7.65	-29.0	-32.2	11.5	5.00e-03	0	44	0	1887436800	17	5200
2026-01-17 01:59:02.58	245.87	7.44	-28.8	-31.8	11.7	2.55e-03	0	44	0	1896873984	17	5078
2026-01-17 01:59:05.58	245.65	7.23	-28.6	-31.3	12.1	8.86e-04	0	44	0	1906311168	17	4883
2026-01-17 01:59:08.58	245.43	7.02	-32.9	-45.2	3.8	1.49e+00	0	44	104	1912602624	25	14809

#Closed at: 2026-01-17 01:59:09
#Recorded file [1912 MB]: D:/data/31010_260117_044855.dat