passes_logs/2026/01/17/R2M6_AANII_01/R2M6_AANII_01__20260117_085111_SUOMI_NPP_rec.log

#Pass ID: 20260117_085111_SUOMI NPP
#Satellite: SUOMI NPP
#Configuration: NPP
#almurnet v.1.7.20240730
#Start time: 2026-01-17 08:51:10

#Version: 2.2.20231116
#Station: R2M6_AANII_01
#Location: 30.233357 lon 59.946436 lat
#TLE: 1 37849U 11061A   26016.23176763  .00000061  00000+0  49926-4 0  9990
#TLE: 2 37849  98.7812 318.2698 0002434  61.5135 298.6286 14.19525545736883

#Time	Az	El	Level	Level2	SNR	BER	BlckErr	Temp	State	Recorded	gain1	gain2
2026-01-17 08:51:10.63	112.61	6.94	-32.3	-39.6	4.0	1.46e+00	0	40	0	0	26	8398
2026-01-17 08:51:13.64	112.39	7.15	-32.0	-37.6	5.9	3.81e-01	0	41	0	1048576	25	6893
2026-01-17 08:51:16.64	112.16	7.36	-32.2	-38.6	5.3	3.82e-01	0	41	0	7340032	25	7528
2026-01-17 08:51:19.65	111.93	7.57	-31.8	-36.7	6.9	1.62e-01	0	41	0	12582912	24	6326
2026-01-17 08:51:22.66	111.69	7.78	-30.9	-33.5	9.9	1.08e-02	0	41	0	17825792	23	4814
2026-01-17 08:51:25.66	111.45	7.99	-30.7	-33.2	10.5	5.07e-03	0	41	0	24117248	22	4793
2026-01-17 08:51:28.65	111.21	8.20	-31.1	-34.4	9.7	1.19e-02	0	41	0	29360128	22	5278
2026-01-17 08:51:31.65	110.96	8.42	-30.9	-33.7	10.2	1.10e-02	0	41	0	35651584	22	4992
2026-01-17 08:51:34.66	110.71	8.63	-30.5	-32.6	11.2	1.70e-03	0	41	0	40894464	22	4534
2026-01-17 08:51:37.65	110.46	8.85	-30.7	-32.9	10.9	1.59e-03	0	41	0	46137344	22	4656
2026-01-17 08:51:40.65	110.20	9.07	-30.8	-33.5	10.5	4.07e-03	0	41	0	52428800	22	4881
2026-01-17 08:51:43.66	109.94	9.29	-30.8	-33.2	10.8	9.89e-04	0	41	0	57671680	22	4753
2026-01-17 08:51:46.67	109.68	9.51	-30.4	-32.6	11.6	6.03e-04	0	41	0	62914560	21	4616
2026-01-17 08:51:49.67	109.41	9.73	-30.8	-33.8	10.7	2.83e-03	0	42	0	69206016	21	5079
2026-01-17 08:51:52.69	109.13	9.96	-30.8	-33.0	11.0	3.88e-03	0	42	0	74448896	22	4674
2026-01-17 08:51:55.69	108.85	10.18	-30.5	-32.1	11.7	6.97e-04	0	42	0	80740352	22	4354
2026-01-17 08:51:58.71	108.57	10.41	-30.6	-32.6	11.4	7.48e-04	0	42	0	85983232	22	4511
2026-01-17 08:52:01.71	108.28	10.64	-30.8	-33.2	10.9	2.25e-03	0	42	0	91226112	22	4728
2026-01-17 08:52:04.72	107.99	10.87	-30.8	-33.0	11.1	1.23e-03	0	42	0	97517568	22	4658
2026-01-17 08:52:07.74	107.69	11.10	-30.7	-32.6	11.4	1.43e-03	0	42	0	102760448	22	4515
2026-01-17 08:52:10.74	107.39	11.33	-30.8	-33.0	11.1	8.08e-04	0	42	0	108003328	22	4670
2026-01-17 08:52:13.74	107.08	11.57	-30.6	-32.4	11.6	7.42e-04	0	42	0	114294784	22	4451
2026-01-17 08:52:16.74	106.77	11.80	-30.7	-32.8	11.3	1.08e-03	0	42	0	119537664	22	4596
2026-01-17 08:52:19.76	106.45	12.04	-30.6	-32.6	11.5	7.69e-04	0	42	0	125829120	22	4506
2026-01-17 08:52:22.76	106.13	12.28	-30.7	-32.8	11.3	1.20e-03	0	42	0	131072000	22	4565
2026-01-17 08:52:25.77	105.80	12.52	-30.6	-32.5	11.5	8.61e-04	0	42	0	136314880	22	4464
2026-01-17 08:52:28.78	105.47	12.76	-30.5	-32.3	11.8	4.96e-04	0	42	0	142606336	22	4400
2026-01-17 08:52:31.79	105.13	13.00	-30.3	-31.7	12.1	9.26e-04	0	42	0	147849216	22	4205
2026-01-17 08:52:34.80	104.78	13.25	-30.3	-32.1	12.2	1.86e-04	0	42	0	153092096	21	4420
2026-01-17 08:52:37.81	104.43	13.49	-30.1	-31.3	12.7	8.69e-05	0	42	0	159383552	21	4174
2026-01-17 08:52:40.81	104.08	13.74	-30.5	-32.7	11.8	4.82e-04	0	42	0	164626432	21	4638
2026-01-17 08:52:43.82	103.71	13.99	-30.6	-33.0	11.6	5.55e-04	0	42	0	170917888	21	4722
2026-01-17 08:52:46.82	103.35	14.24	-30.5	-32.6	11.9	3.15e-04	0	42	0	176160768	21	4580
2026-01-17 08:52:49.83	102.97	14.49	-30.9	-33.9	11.0	1.45e-03	0	43	0	181403648	21	5075
2026-01-17 08:52:52.84	102.59	14.74	-30.6	-32.9	11.7	6.83e-04	0	42	0	187695104	21	4687
2026-01-17 08:52:55.85	102.20	15.00	-30.5	-32.7	11.9	4.57e-04	0	42	0	192937984	21	4614
2026-01-17 08:52:58.85	101.80	15.25	-30.3	-32.0	12.4	2.23e-04	0	42	0	198180864	21	4359
2026-01-17 08:53:01.85	101.40	15.51	-30.4	-32.2	12.2	1.49e-04	0	42	0	204472320	21	4449
2026-01-17 08:53:04.86	100.99	15.76	-30.2	-31.6	12.7	1.94e-04	0	42	0	209715200	21	4222
2026-01-17 08:53:07.87	100.57	16.02	-30.1	-31.5	12.6	1.70e-03	0	43	0	216006656	21	4226
2026-01-17 08:53:10.88	100.15	16.28	-30.4	-32.2	12.2	6.10e-03	0	42	0	221249536	21	4432
2026-01-17 08:53:13.89	99.72	16.54	-30.3	-31.8	12.6	9.76e-05	0	43	0	226492416	21	4293
2026-01-17 08:53:16.89	99.28	16.81	-30.4	-32.1	12.3	5.93e-04	0	43	0	232783872	21	4402
2026-01-17 08:53:19.88	98.83	17.07	-29.9	-31.2	13.4	1.80e-04	0	43	0	238026752	20	4179
2026-01-17 08:53:22.88	98.38	17.33	-30.0	-31.4	13.2	5.95e-05	0	42	0	243269632	20	4265
2026-01-17 08:53:25.89	97.92	17.60	-30.0	-31.6	13.1	2.51e-05	0	43	0	249561088	20	4349
2026-01-17 08:53:28.89	97.45	17.86	-29.9	-31.5	13.2	1.83e-05	0	43	0	254803968	20	4306
2026-01-17 08:53:31.90	96.96	18.13	-30.0	-31.8	13.0	2.89e-05	0	43	0	261095424	20	4416
2026-01-17 08:53:34.91	96.48	18.40	-30.1	-31.9	12.9	7.70e-05	0	43	0	266338304	20	4437
2026-01-17 08:53:37.91	95.98	18.67	-30.2	-32.2	12.7	8.23e-05	0	43	0	271581184	20	4528
2026-01-17 08:53:40.92	95.47	18.94	-30.4	-32.3	12.2	1.57e-04	0	43	0	277872640	21	4483
2026-01-17 08:53:43.93	94.96	19.21	-30.7	-33.1	11.8	4.33e-04	0	43	0	283115520	21	4768
2026-01-17 08:53:46.94	94.43	19.48	-30.4	-32.4	12.3	2.12e-04	0	43	0	289406976	21	4512
2026-01-17 08:53:49.94	93.90	19.75	-30.7	-33.1	11.9	5.91e-04	0	43	0	294649856	21	4733
2026-01-17 08:53:52.95	93.35	20.02	-30.5	-32.4	12.3	1.77e-04	0	43	0	299892736	21	4523
2026-01-17 08:53:55.95	92.80	20.29	-30.6	-32.9	11.9	2.61e-04	0	43	0	306184192	21	4694
2026-01-17 08:53:58.95	92.24	20.56	-30.4	-32.4	12.2	2.48e-04	0	43	0	311427072	21	4531
2026-01-17 08:54:01.95	91.66	20.83	-30.5	-32.5	12.3	2.66e-04	0	43	0	316669952	21	4543
2026-01-17 08:54:04.94	91.08	21.10	-30.7	-33.2	11.9	5.93e-04	0	43	0	322961408	21	4773
2026-01-17 08:54:07.95	90.49	21.37	-30.3	-32.0	12.7	8.62e-05	0	43	0	328204288	21	4354
2026-01-17 08:54:10.96	89.88	21.64	-30.0	-31.0	13.4	2.74e-05	0	43	0	333447168	21	4043
2026-01-17 08:54:13.97	89.26	21.91	-30.1	-31.2	13.2	1.14e-05	0	43	0	339738624	21	4096
2026-01-17 08:54:16.97	88.64	22.17	-30.1	-31.4	13.2	3.35e-05	0	43	0	344981504	21	4147
2026-01-17 08:54:19.99	88.00	22.44	-30.1	-31.1	13.3	3.89e-05	0	43	0	351272960	21	4083
2026-01-17 08:54:22.99	87.35	22.71	-29.8	-30.6	13.6	5.30e-06	0	43	0	356515840	21	3920
2026-01-17 08:54:26.00	86.69	22.98	-29.4	-29.8	14.5	0.00e+00	0	43	0	361758720	20	3792
2026-01-17 08:54:29.00	86.02	23.24	-28.9	-29.2	15.1	7.00e-07	0	43	0	368050176	19	3724
2026-01-17 08:54:32.02	85.33	23.50	-29.5	-30.8	14.2	3.00e-06	0	43	0	373293056	19	4165
2026-01-17 08:54:35.03	84.64	23.76	-29.9	-31.8	13.6	5.30e-06	0	43	0	378535936	19	4461
2026-01-17 08:54:38.04	83.93	24.02	-29.7	-31.1	14.1	1.50e-06	0	43	0	384827392	19	4249
2026-01-17 08:54:41.04	83.22	24.28	-29.6	-30.9	14.2	2.20e-06	0	43	0	390070272	19	4184
2026-01-17 08:54:44.05	82.49	24.53	-29.6	-30.9	14.2	4.50e-06	0	43	0	396361728	19	4176
2026-01-17 08:54:47.05	81.75	24.78	-29.6	-30.8	14.3	1.50e-06	0	43	0	401604608	19	4155
2026-01-17 08:54:50.06	80.99	25.03	-29.6	-30.9	14.2	0.00e+00	0	43	0	406847488	19	4193
2026-01-17 08:54:53.08	80.22	25.27	-29.9	-31.7	13.7	3.80e-06	0	43	0	413138944	19	4419
2026-01-17 08:54:56.08	79.45	25.51	-29.4	-30.4	14.6	1.50e-06	0	43	0	418381824	19	4020
2026-01-17 08:54:59.08	78.66	25.75	-29.7	-30.7	13.9	3.00e-06	0	43	0	423624704	20	4035
2026-01-17 08:55:02.08	77.86	25.98	-30.0	-31.6	13.5	1.50e-06	0	43	0	429916160	20	4284
2026-01-17 08:55:05.10	77.04	26.21	-29.8	-30.9	13.9	1.14e-05	0	43	0	435159040	20	4088
2026-01-17 08:55:08.10	76.22	26.44	-29.6	-30.4	14.2	0.00e+00	0	42	0	441450496	20	3932
2026-01-17 08:55:11.12	75.38	26.66	-29.9	-31.2	13.7	0.00e+00	0	43	0	446693376	20	4178
2026-01-17 08:55:14.12	74.54	26.87	-30.0	-31.5	13.4	1.44e-05	0	43	0	451936256	20	4266
2026-01-17 08:55:17.12	73.68	27.08	-29.7	-30.5	14.2	7.00e-07	0	43	0	458227712	20	3986
2026-01-17 08:55:20.15	72.80	27.29	-29.7	-30.7	14.0	1.50e-06	0	43	0	463470592	20	4028
2026-01-17 08:55:23.16	71.92	27.48	-30.1	-31.6	13.4	7.60e-06	0	43	0	469762048	20	4316
2026-01-17 08:55:26.18	71.02	27.68	-30.0	-31.4	13.6	7.60e-06	0	43	0	475004928	20	4217
2026-01-17 08:55:29.17	70.13	27.86	-29.7	-30.6	14.1	2.20e-06	0	43	0	480247808	20	3993
2026-01-17 08:55:32.18	69.21	28.04	-29.4	-29.9	14.6	7.00e-07	0	43	0	486539264	20	3804
2026-01-17 08:55:35.19	68.29	28.21	-29.7	-30.5	14.2	5.30e-06	0	43	0	491782144	20	3969
2026-01-17 08:55:38.19	67.36	28.37	-30.0	-31.4	13.6	4.50e-06	0	43	0	497025024	20	4248
2026-01-17 08:55:41.21	66.41	28.53	-29.4	-30.3	14.7	1.50e-06	0	43	0	503316480	19	3994
2026-01-17 08:55:44.22	65.46	28.68	-29.8	-31.4	14.0	2.20e-06	0	43	0	508559360	19	4315
2026-01-17 08:55:47.23	64.50	28.82	-29.8	-30.7	14.1	0.00e+00	0	43	0	514850816	20	4037
2026-01-17 08:55:50.23	63.53	28.95	-30.7	-32.8	12.4	9.99e-05	0	43	0	520093696	21	4596
2026-01-17 08:55:53.23	62.56	29.07	-31.0	-33.5	11.5	5.52e-04	0	43	0	525336576	22	4758
2026-01-17 08:55:56.23	61.58	29.18	-30.9	-33.0	11.9	4.29e-04	0	43	0	531628032	22	4576
2026-01-17 08:55:59.24	60.59	29.29	-31.1	-33.5	11.5	1.10e-03	0	43	0	536870912	22	4770
2026-01-17 08:56:02.23	59.60	29.38	-30.9	-32.8	12.1	2.69e-04	0	43	0	542113792	22	4511
2026-01-17 08:56:05.24	58.59	29.47	-30.8	-32.7	12.1	1.52e-04	0	43	0	548405248	22	4474
2026-01-17 08:56:08.25	57.59	29.55	-31.3	-34.1	11.1	1.22e-03	0	43	0	553648128	22	5014
2026-01-17 08:56:11.25	56.58	29.61	-31.6	-34.8	10.2	4.64e-03	0	43	0	559939584	23	5183
2026-01-17 08:56:14.27	55.56	29.67	-31.6	-34.8	10.2	4.10e-03	0	43	0	565182464	23	5215
2026-01-17 08:56:17.26	54.55	29.72	-31.2	-33.5	11.2	1.68e-03	0	43	0	570425344	23	4675
2026-01-17 08:56:20.26	53.53	29.76	-30.7	-32.4	12.4	3.91e-04	0	43	0	576716800	22	4347
2026-01-17 08:56:23.27	52.51	29.78	-30.3	-31.8	13.0	3.28e-05	0	43	0	581959680	21	4279
2026-01-17 08:56:26.29	51.48	29.80	-31.2	-33.9	11.2	5.89e-04	0	43	0	587202560	22	4912
2026-01-17 08:56:29.29	50.46	29.80	-31.4	-34.4	11.1	1.70e-03	0	43	0	593494016	22	5091
2026-01-17 08:56:32.30	49.43	29.80	-30.7	-32.3	12.4	4.95e-04	0	43	0	598736896	22	4321
2026-01-17 08:56:35.31	48.41	29.79	-30.8	-33.0	12.3	7.62e-05	0	43	0	605028352	21	4662
2026-01-17 08:56:38.31	47.39	29.76	-30.7	-32.3	12.4	2.75e-04	0	43	0	610271232	22	4323
2026-01-17 08:56:41.32	46.36	29.73	-30.0	-30.9	13.7	5.30e-06	0	43	0	615514112	21	4004
2026-01-17 08:56:44.34	45.34	29.68	-30.5	-32.3	12.7	5.41e-05	0	43	0	621805568	21	4436
2026-01-17 08:56:47.35	44.33	29.63	-30.4	-31.9	13.0	8.54e-05	0	43	0	627048448	21	4308
2026-01-17 08:56:50.35	43.32	29.56	-30.4	-32.1	12.8	3.81e-05	0	43	0	632291328	21	4349
2026-01-17 08:56:53.35	42.31	29.49	-30.7	-32.8	12.3	2.16e-04	0	43	0	638582784	21	4596
2026-01-17 08:56:56.35	41.31	29.41	-29.6	-30.3	14.3	0.00e+00	0	43	0	643825664	20	3899
2026-01-17 08:56:59.35	40.32	29.31	-29.9	-31.0	13.8	3.80e-06	0	43	0	650117120	20	4115
2026-01-17 08:57:02.36	39.33	29.21	-29.7	-30.6	14.0	1.50e-06	0	43	0	655360000	20	4010
2026-01-17 08:57:05.37	38.35	29.10	-30.1	-31.6	13.4	1.37e-05	0	43	0	660602880	20	4298
2026-01-17 08:57:08.37	37.37	28.98	-29.8	-30.9	13.9	1.44e-05	0	43	0	666894336	20	4078
2026-01-17 08:57:11.37	36.41	28.85	-30.1	-31.6	13.5	2.20e-06	0	43	0	672137216	20	4272
2026-01-17 08:57:14.38	35.45	28.71	-30.5	-32.2	12.8	1.42e-04	0	43	0	677380096	21	4377
2026-01-17 08:57:17.38	34.50	28.56	-30.5	-32.1	12.8	3.66e-05	0	43	0	683671552	21	4358
2026-01-17 08:57:20.37	33.56	28.41	-30.8	-32.6	12.2	3.78e-04	0	43	0	688914432	22	4406
2026-01-17 08:57:23.39	32.62	28.25	-30.4	-31.4	13.0	3.58e-05	0	43	0	695205888	22	4044
2026-01-17 08:57:26.39	31.70	28.08	-30.7	-32.7	12.4	1.06e-04	0	43	0	700448768	21	4575
2026-01-17 08:57:29.39	30.79	27.91	-31.3	-34.2	11.0	1.45e-03	0	43	0	705691648	22	5037
2026-01-17 08:57:32.40	29.89	27.72	-31.7	-35.1	9.9	1.00e-02	0	43	0	711983104	23	5315
2026-01-17 08:57:35.41	28.99	27.53	-31.6	-34.7	10.3	3.93e-03	0	43	0	717225984	23	5164
2026-01-17 08:57:38.40	28.12	27.34	-30.9	-32.6	11.6	1.72e-03	0	43	0	722468864	23	4382
2026-01-17 08:57:41.41	27.24	27.14	-30.1	-31.2	13.3	2.97e-05	0	43	0	728760320	21	4087
2026-01-17 08:57:44.41	26.39	26.93	-29.5	-30.2	14.3	1.50e-06	0	43	0	734003200	20	3879
2026-01-17 08:57:47.42	25.54	26.72	-29.8	-30.8	13.9	2.20e-06	0	43	0	739246080	20	4059
2026-01-17 08:57:50.43	24.70	26.50	-29.9	-31.0	13.7	7.00e-07	0	43	0	745537536	20	4130
2026-01-17 08:57:53.43	23.88	26.28	-30.7	-32.8	12.2	2.28e-04	0	43	0	750780416	21	4626
2026-01-17 08:57:56.45	23.06	26.05	-30.8	-33.3	11.8	3.83e-04	0	43	0	757071872	21	4806
2026-01-17 08:57:59.46	22.26	25.82	-31.4	-34.8	10.3	2.67e-03	0	43	0	762314752	22	5292
2026-01-17 08:58:02.46	21.47	25.58	-31.6	-34.7	10.1	8.37e-03	0	43	0	767557632	23	5154
2026-01-17 08:58:05.46	20.70	25.34	-30.0	-31.0	13.4	4.95e-05	0	43	0	773849088	21	4024
2026-01-17 08:58:08.46	19.93	25.10	-29.4	-30.0	14.4	0.00e+00	0	43	0	779091968	20	3822
2026-01-17 08:58:11.47	19.18	24.85	-29.3	-29.6	14.5	7.00e-07	0	43	0	784334848	20	3740
2026-01-17 08:58:14.46	18.44	24.61	-29.2	-29.8	14.8	0.00e+00	0	43	0	790626304	19	3857
2026-01-17 08:58:17.46	17.71	24.36	-29.0	-29.5	15.0	0.00e+00	0	43	0	795869184	19	3774
2026-01-17 08:58:20.47	16.99	24.10	-28.5	-28.6	15.8	0.00e+00	0	43	0	802160640	18	3635
2026-01-17 08:58:23.47	16.29	23.85	-28.7	-29.1	15.4	0.00e+00	0	43	0	807403520	18	3785
2026-01-17 08:58:26.47	15.60	23.59	-29.3	-30.6	14.6	0.00e+00	0	43	0	812646400	18	4179
2026-01-17 08:58:29.48	14.91	23.33	-29.2	-30.5	14.6	7.00e-07	0	43	0	818937856	18	4143
2026-01-17 08:58:32.49	14.24	23.06	-29.3	-30.6	14.6	7.00e-07	0	43	0	824180736	18	4169
2026-01-17 08:58:35.49	13.58	22.80	-28.9	-29.6	15.2	0.00e+00	0	43	0	829423616	18	3902
2026-01-17 08:58:38.48	12.93	22.54	-28.6	-28.9	15.6	0.00e+00	0	43	0	835715072	18	3707
2026-01-17 08:58:41.48	12.30	22.27	-28.2	-28.4	16.1	0.00e+00	0	43	0	840957952	17	3669
2026-01-17 08:58:44.50	11.67	22.00	-28.7	-29.5	15.5	0.00e+00	0	43	0	847249408	17	3970
2026-01-17 08:58:47.50	11.05	21.74	-29.6	-30.9	14.2	7.00e-07	0	43	0	852492288	19	4164
2026-01-17 08:58:50.51	10.45	21.47	-29.5	-30.5	14.4	4.50e-06	0	43	0	857735168	19	4064
2026-01-17 08:58:53.52	9.85	21.20	-29.4	-29.9	14.3	7.00e-07	0	43	0	864026624	20	3813
2026-01-17 08:58:56.52	9.27	20.93	-29.5	-30.3	14.1	3.80e-06	0	43	0	869269504	20	3912
2026-01-17 08:58:59.53	8.70	20.66	-29.7	-31.2	13.9	3.80e-06	0	43	0	874512384	19	4261
2026-01-17 08:59:02.54	8.13	20.39	-28.9	-29.1	15.2	0.00e+00	0	43	0	880803840	19	3677
2026-01-17 08:59:05.54	7.58	20.12	-28.7	-29.0	15.5	0.00e+00	0	43	0	886046720	18	3738
2026-01-17 08:59:08.54	7.04	19.85	-29.0	-29.9	14.9	0.00e+00	0	43	0	892338176	18	3983
2026-01-17 08:59:11.54	6.50	19.58	-29.7	-31.2	13.9	4.50e-06	0	43	0	897581056	19	4264
2026-01-17 08:59:14.53	5.98	19.31	-29.6	-30.8	14.0	8.30e-06	0	43	0	902823936	19	4158
2026-01-17 08:59:17.52	5.47	19.05	-29.0	-29.4	14.9	7.00e-07	0	43	0	909115392	19	3767
2026-01-17 08:59:20.52	4.96	18.78	-29.1	-29.7	14.7	0.00e+00	0	43	0	914358272	19	3836
2026-01-17 08:59:23.51	4.47	18.51	-29.3	-30.3	14.3	1.50e-06	0	43	0	919601152	19	4010
2026-01-17 08:59:26.51	3.98	18.25	-30.1	-32.0	12.8	3.96e-05	0	43	0	925892608	20	4443
2026-01-17 08:59:29.51	3.50	17.98	-30.0	-31.6	13.0	3.81e-05	0	43	0	931135488	20	4341
2026-01-17 08:59:32.51	3.03	17.72	-29.7	-30.8	13.6	1.37e-05	0	43	0	936378368	20	4092
2026-01-17 08:59:35.52	2.57	17.45	-29.5	-30.2	13.9	5.30e-06	0	43	0	942669824	20	3904
2026-01-17 08:59:38.52	2.11	17.19	-30.0	-31.6	13.0	2.74e-05	0	43	0	947912704	20	4349
2026-01-17 08:59:41.53	1.67	16.93	-30.0	-31.7	12.9	4.80e-05	0	43	0	953155584	20	4384
2026-01-17 08:59:44.53	1.23	16.67	-29.8	-31.2	13.3	1.60e-05	0	43	0	959447040	20	4205
2026-01-17 08:59:47.53	0.80	16.41	-29.3	-30.3	14.2	3.80e-06	0	43	0	964689920	19	4032
2026-01-17 08:59:50.53	0.38	16.15	-29.4	-30.4	14.1	0.00e+00	0	43	0	970981376	19	4045
2026-01-17 08:59:53.53	359.96	15.89	-29.6	-31.1	13.7	4.50e-06	0	43	0	976224256	19	4247
2026-01-17 08:59:56.53	359.55	15.63	-29.8	-31.6	13.3	1.75e-05	0	43	0	981467136	19	4405
2026-01-17 08:59:59.53	359.15	15.38	-30.2	-32.3	12.4	8.46e-05	0	43	0	987758592	20	4586
2026-01-17 09:00:02.53	358.76	15.13	-30.1	-32.0	12.6	8.39e-05	0	43	0	993001472	20	4476
2026-01-17 09:00:05.54	358.37	14.87	-30.1	-32.0	12.6	5.64e-05	0	43	0	998244352	20	4465
2026-01-17 09:00:08.54	357.99	14.62	-30.4	-32.8	12.0	2.53e-04	0	43	0	1004535808	20	4766
2026-01-17 09:00:11.55	357.61	14.37	-31.0	-33.6	10.8	3.04e-03	0	43	0	1009778688	22	4873
2026-01-17 09:00:14.54	357.25	14.12	-30.9	-33.4	10.9	2.58e-03	0	43	0	1016070144	22	4793
2026-01-17 09:00:17.54	356.89	13.87	-30.4	-31.8	12.1	3.29e-04	0	43	0	1021313024	22	4227
2026-01-17 09:00:20.54	356.53	13.63	-29.8	-31.3	13.0	5.64e-05	0	43	0	1026555904	20	4264
2026-01-17 09:00:23.55	356.18	13.38	-30.0	-31.8	12.6	5.49e-05	0	43	0	1032847360	20	4435
2026-01-17 09:00:26.55	355.84	13.14	-30.5	-32.9	11.5	6.42e-04	0	43	0	1038090240	21	4710
2026-01-17 09:00:29.56	355.50	12.90	-30.9	-33.5	10.7	3.83e-03	0	43	0	1043333120	22	4855
2026-01-17 09:00:32.55	355.17	12.66	-30.9	-33.5	10.7	2.70e-03	0	43	0	1049624576	22	4848
2026-01-17 09:00:35.56	354.84	12.42	-30.8	-33.4	10.8	2.80e-03	0	43	0	1054867456	22	4806
2026-01-17 09:00:38.56	354.52	12.18	-30.7	-32.8	11.2	1.18e-03	0	43	0	1060110336	22	4616
2026-01-17 09:00:41.58	354.20	11.94	-30.6	-32.7	11.2	1.12e-03	0	43	0	1066401792	22	4558
2026-01-17 09:00:44.58	353.89	11.71	-30.5	-32.4	11.4	9.63e-04	0	43	0	1071644672	22	4470
2026-01-17 09:00:47.59	353.59	11.47	-30.8	-33.1	10.9	1.90e-03	0	43	0	1077936128	22	4722
2026-01-17 09:00:50.60	353.28	11.24	-30.9	-33.6	10.5	3.45e-03	0	43	0	1083179008	22	4921
2026-01-17 09:00:53.61	352.99	11.01	-30.9	-33.5	10.6	2.67e-03	0	43	0	1088421888	22	4881
2026-01-17 09:00:56.62	352.70	10.78	-30.7	-32.9	11.0	2.84e-03	0	43	0	1094713344	22	4654
2026-01-17 09:00:59.62	352.41	10.55	-30.2	-32.0	11.9	4.51e-04	0	43	0	1099956224	21	4431
2026-01-17 09:01:02.63	352.13	10.33	-30.3	-32.3	11.7	4.17e-04	0	43	0	1105199104	21	4527
2026-01-17 09:01:05.62	351.85	10.10	-30.1	-31.6	12.1	1.79e-04	0	43	0	1111490560	21	4293
2026-01-17 09:01:08.63	351.58	9.88	-30.2	-32.0	11.9	3.78e-04	0	43	0	1116733440	21	4405
2026-01-17 09:01:11.63	351.31	9.66	-30.7	-33.4	10.8	1.73e-03	0	43	0	1123024896	21	4948
2026-01-17 09:01:14.64	351.05	9.43	-30.9	-34.4	10.1	5.81e-03	0	43	0	1128267776	21	5384
2026-01-17 09:01:17.64	350.79	9.21	-31.1	-34.4	9.7	1.15e-02	0	43	0	1133510656	22	5284
2026-01-17 09:01:20.64	350.53	9.00	-31.1	-34.4	9.7	1.38e-02	0	43	0	1139802112	22	5301
2026-01-17 09:01:23.63	350.28	8.78	-31.2	-34.7	9.5	1.41e-02	0	43	0	1145044992	22	5409
2026-01-17 09:01:26.65	350.03	8.56	-31.0	-34.1	9.8	1.30e-02	0	43	0	1150287872	22	5177
2026-01-17 09:01:29.66	349.78	8.35	-31.0	-34.4	9.6	1.42e-02	0	43	0	1156579328	22	5283
2026-01-17 09:01:32.66	349.54	8.14	-30.7	-33.2	10.5	4.66e-03	0	43	0	1161822208	22	4803
2026-01-17 09:01:35.67	349.31	7.92	-30.6	-33.0	10.6	2.97e-03	0	43	0	1168113664	22	4727
2026-01-17 09:01:38.66	349.07	7.71	-30.7	-33.2	10.5	2.25e-03	0	43	0	1173356544	22	4780
2026-01-17 09:01:41.67	348.84	7.50	-30.6	-32.8	10.7	2.89e-03	0	43	0	1178599424	22	4670
2026-01-17 09:01:44.67	348.62	7.30	-30.7	-33.4	10.2	5.26e-03	0	43	0	1184890880	22	4895
2026-01-17 09:01:47.67	348.39	7.09	-32.9	-44.9	3.7	3.01e-01	0	43	104	1190133760	25	14347
2026-01-17 09:01:50.68	348.17	6.88	-33.6	-46.0	3.8	1.49e+00	0	43	104	1190133760	27	14912

#Closed at: 2026-01-17 09:01:51
#Recorded file [1190 MB]: D:/data/31010_260117_115112.dat