passes_logs/2026/01/17/R2M6_AANII_01/R2M6_AANII_01__20260117_223851_SUOMI_NPP_rec.log

#Pass ID: 20260117_223851_SUOMI NPP
#Satellite: SUOMI NPP
#Configuration: NPP
#almurnet v.1.7.20240730
#Start time: 2026-01-17 22:38:51

#Version: 2.2.20231116
#Station: R2M6_AANII_01
#Location: 30.233357 lon 59.946436 lat
#TLE: 1 37849U 11061A   26017.28905266  .00000074  00000+0  55894-4 0  9999
#TLE: 2 37849  98.7814 319.3179 0002408  59.7048 300.4366 14.19525847737038

#Time	Az	El	Level	Level2	SNR	BER	BlckErr	Temp	State	Recorded	gain1	gain2
2026-01-17 22:38:51.64	31.93	7.00	-31.4	-35.1	5.2	1.20e+00	0	41	0	0	23	5533
2026-01-17 22:38:54.65	32.24	7.18	-31.9	-37.0	7.5	1.07e-01	0	41	0	1048576	23	6501
2026-01-17 22:38:57.66	32.55	7.36	-31.7	-36.2	8.1	8.31e-02	0	41	0	7340032	23	6048
2026-01-17 22:39:00.67	32.87	7.54	-31.5	-35.4	8.8	2.65e-02	0	41	0	12582912	23	5610
2026-01-17 22:39:03.68	33.19	7.72	-31.2	-34.4	10.0	9.99e-03	0	41	0	17825792	22	5232
2026-01-17 22:39:06.68	33.52	7.90	-31.0	-33.9	10.4	4.82e-03	0	42	0	24117248	22	5005
2026-01-17 22:39:09.70	33.85	8.08	-31.2	-34.3	10.2	6.36e-03	0	42	0	29360128	22	5146
2026-01-17 22:39:12.70	34.19	8.26	-31.2	-33.9	10.1	6.28e-03	0	42	0	35651584	23	4901
2026-01-17 22:39:15.72	34.53	8.44	-31.1	-33.9	10.5	3.71e-03	0	42	0	40894464	22	4997
2026-01-17 22:39:18.73	34.87	8.62	-30.8	-33.1	11.1	2.66e-03	0	42	0	46137344	22	4663
2026-01-17 22:39:21.74	35.22	8.81	-30.8	-33.5	11.2	1.35e-03	0	42	0	52428800	21	4931
2026-01-17 22:39:24.75	35.57	8.99	-30.3	-33.3	10.9	9.62e-04	0	42	0	57671680	21	5089
2026-01-17 22:39:27.76	35.92	9.17	-30.6	-32.9	11.6	8.46e-04	0	42	0	63963136	21	4684
2026-01-17 22:39:30.78	36.28	9.36	-30.7	-33.0	11.7	6.94e-04	0	42	0	69206016	21	4731
2026-01-17 22:39:33.78	36.65	9.54	-30.6	-32.7	11.9	4.68e-04	0	42	0	74448896	21	4614
2026-01-17 22:39:36.79	37.02	9.73	-30.6	-32.8	11.9	2.63e-04	0	43	0	80740352	21	4639
2026-01-17 22:39:39.79	37.39	9.91	-30.5	-32.4	12.2	2.63e-04	0	42	0	85983232	21	4495
2026-01-17 22:39:42.79	37.76	10.10	-30.5	-32.6	12.0	4.10e-04	0	43	0	91226112	21	4562
2026-01-17 22:39:45.81	38.15	10.28	-30.8	-33.6	11.3	7.63e-04	0	43	0	97517568	21	4930
2026-01-17 22:39:48.81	38.53	10.47	-30.5	-32.5	12.1	2.52e-04	0	43	0	102760448	21	4533
2026-01-17 22:39:51.82	38.92	10.66	-30.7	-33.1	11.7	5.26e-04	0	43	0	109051904	21	4752
2026-01-17 22:39:54.83	39.32	10.84	-30.8	-33.3	11.6	9.20e-04	0	43	0	114294784	21	4811
2026-01-17 22:39:57.83	39.72	11.03	-30.8	-33.2	11.7	5.58e-04	0	43	0	119537664	21	4777
2026-01-17 22:40:00.83	40.13	11.22	-30.6	-32.8	11.9	4.88e-04	0	43	0	125829120	21	4635
2026-01-17 22:40:03.84	40.54	11.40	-30.6	-32.8	12.0	3.00e-04	0	43	0	131072000	21	4613
2026-01-17 22:40:06.86	40.96	11.59	-30.5	-32.5	12.2	3.29e-04	0	43	0	136314880	21	4518
2026-01-17 22:40:09.87	41.38	11.78	-30.4	-32.1	12.5	1.38e-04	0	43	0	142606336	21	4388
2026-01-17 22:40:12.88	41.81	11.97	-30.4	-32.2	12.5	1.52e-04	0	43	0	147849216	21	4423
2026-01-17 22:40:15.90	42.24	12.15	-30.4	-32.0	12.6	1.65e-04	0	43	0	154140672	21	4347
2026-01-17 22:40:18.91	42.68	12.34	-30.5	-32.4	12.4	1.52e-04	0	43	0	159383552	21	4465
2026-01-17 22:40:21.91	43.12	12.53	-30.8	-33.2	11.8	1.97e-04	0	43	0	164626432	21	4767
2026-01-17 22:40:24.93	43.57	12.72	-30.3	-31.8	12.8	8.16e-05	0	43	0	170917888	21	4271
2026-01-17 22:40:27.94	44.02	12.90	-30.5	-32.5	12.4	8.62e-05	0	43	0	176160768	21	4493
2026-01-17 22:40:30.95	44.48	13.09	-30.4	-32.0	12.7	9.46e-05	0	43	0	182452224	21	4347
2026-01-17 22:40:33.96	44.95	13.28	-30.5	-32.2	12.6	1.46e-04	0	43	0	187695104	21	4406
2026-01-17 22:40:36.96	45.42	13.46	-30.7	-33.1	12.0	1.94e-04	0	43	0	192937984	21	4697
2026-01-17 22:40:39.97	45.90	13.65	-30.8	-33.3	11.8	3.55e-04	0	43	0	199229440	21	4777
2026-01-17 22:40:42.98	46.38	13.84	-30.6	-32.5	12.4	1.10e-04	0	43	0	204472320	21	4487
2026-01-17 22:40:45.99	46.87	14.02	-30.4	-32.1	12.7	1.44e-04	0	43	0	209715200	21	4347
2026-01-17 22:40:49.00	47.36	14.21	-30.5	-32.3	12.6	4.73e-05	0	43	0	216006656	21	4402
2026-01-17 22:40:52.00	47.86	14.39	-30.5	-32.4	12.5	1.19e-04	0	43	0	221249536	21	4452
2026-01-17 22:40:55.00	48.37	14.57	-30.4	-31.9	12.8	6.17e-05	0	43	0	227540992	21	4295
2026-01-17 22:40:58.00	48.88	14.76	-30.1	-31.5	13.5	1.75e-05	0	43	0	232783872	20	4250
2026-01-17 22:41:01.01	49.40	14.94	-30.2	-31.9	13.3	2.21e-05	0	43	0	238026752	20	4379
2026-01-17 22:41:04.00	49.92	15.12	-30.2	-31.9	13.2	1.29e-05	0	43	0	244318208	20	4367
2026-01-17 22:41:07.02	50.45	15.30	-30.3	-32.1	13.1	4.11e-05	0	43	0	249561088	20	4429
2026-01-17 22:41:10.03	50.99	15.48	-30.5	-32.6	12.8	3.96e-05	0	43	0	254803968	20	4599
2026-01-17 22:41:13.04	51.54	15.66	-30.3	-31.8	13.0	7.55e-05	0	44	0	261095424	21	4241
2026-01-17 22:41:16.05	52.09	15.84	-29.8	-31.6	13.2	2.13e-05	0	43	0	266338304	20	4405
2026-01-17 22:41:19.06	52.64	16.01	-30.4	-32.5	12.6	4.73e-05	0	43	0	272629760	20	4570
2026-01-17 22:41:22.06	53.21	16.19	-30.9	-33.3	12.0	2.25e-04	0	44	0	277872640	21	4738
2026-01-17 22:41:25.07	53.78	16.36	-31.1	-33.4	11.6	6.91e-04	0	43	0	283115520	22	4674
2026-01-17 22:41:28.09	54.35	16.53	-30.7	-32.8	12.3	1.91e-04	0	43	0	289406976	21	4586
2026-01-17 22:41:31.10	54.94	16.71	-30.8	-32.9	12.3	7.96e-04	0	43	0	294649856	21	4616
2026-01-17 22:41:34.10	55.52	16.87	-30.7	-32.8	12.4	3.36e-04	0	44	0	299892736	21	4566
2026-01-17 22:41:37.10	56.12	17.04	-30.8	-32.9	12.3	2.39e-04	0	43	0	306184192	21	4601
2026-01-17 22:41:40.10	56.72	17.21	-30.9	-33.3	12.1	2.82e-04	0	44	0	311427072	21	4742
2026-01-17 22:41:43.11	57.33	17.37	-31.2	-33.6	11.5	3.27e-04	0	44	0	317718528	22	4755
2026-01-17 22:41:46.11	57.94	17.53	-31.1	-33.3	11.7	1.15e-03	0	44	0	322961408	22	4661
2026-01-17 22:41:49.13	58.56	17.69	-31.2	-33.6	11.6	9.12e-04	0	43	0	328204288	22	4756
2026-01-17 22:41:52.13	59.19	17.85	-31.2	-33.7	11.5	1.55e-03	0	43	0	334495744	22	4802
2026-01-17 22:41:55.14	59.82	18.00	-31.3	-33.9	11.4	1.49e-03	0	44	0	339738624	22	4861
2026-01-17 22:41:58.15	60.46	18.15	-31.3	-34.0	11.3	1.39e-03	0	44	0	346030080	22	4895
2026-01-17 22:42:01.16	61.11	18.30	-31.1	-33.3	11.8	5.79e-04	0	43	0	351272960	22	4638
2026-01-17 22:42:04.16	61.76	18.45	-31.1	-33.2	11.9	4.71e-04	0	44	0	356515840	22	4614
2026-01-17 22:42:07.16	62.42	18.60	-31.2	-33.6	11.7	9.40e-04	0	44	0	362807296	22	4735
2026-01-17 22:42:10.15	63.08	18.74	-30.7	-32.6	12.7	8.13e-04	0	44	0	368050176	21	4465
2026-01-17 22:42:13.16	63.75	18.87	-30.7	-32.7	12.6	1.30e-03	0	44	0	373293056	21	4530
2026-01-17 22:42:16.16	64.43	19.01	-30.8	-32.9	12.4	1.33e-03	0	44	0	379584512	21	4602
2026-01-17 22:42:19.16	65.11	19.14	-30.1	-31.4	13.8	1.28e-03	0	44	0	384827392	20	4176
2026-01-17 22:42:22.16	65.79	19.27	-30.4	-32.4	13.2	1.44e-05	0	44	0	390070272	20	4508
2026-01-17 22:42:25.17	66.49	19.40	-30.5	-31.9	13.1	6.26e-04	0	44	0	396361728	21	4272
2026-01-17 22:42:28.17	67.19	19.52	-30.2	-31.3	13.6	4.75e-04	0	44	0	401604608	21	4076
2026-01-17 22:42:31.17	67.89	19.64	-30.3	-32.1	13.4	4.50e-04	0	44	0	407896064	20	4425
2026-01-17 22:42:34.18	68.60	19.75	-30.0	-31.2	13.9	4.39e-04	0	44	0	413138944	20	4128
2026-01-17 22:42:37.19	69.32	19.86	-30.4	-32.2	13.3	1.44e-05	0	44	0	418381824	20	4424
2026-01-17 22:42:40.20	70.04	19.97	-30.8	-32.9	12.5	1.20e-04	0	44	0	424673280	21	4601
2026-01-17 22:42:43.21	70.77	20.07	-29.9	-30.5	14.1	1.50e-06	0	44	0	429916160	21	3850
2026-01-17 22:42:46.22	71.50	20.17	-30.1	-30.9	13.9	7.00e-07	0	44	0	435159040	21	3950
2026-01-17 22:42:49.22	72.23	20.27	-29.9	-30.8	14.2	2.20e-06	0	44	0	441450496	20	4026
2026-01-17 22:42:52.23	72.97	20.36	-30.0	-31.2	14.0	3.00e-06	0	44	0	446693376	20	4132
2026-01-17 22:42:55.24	73.71	20.44	-29.9	-30.9	14.2	1.50e-06	0	44	0	452984832	20	4046
2026-01-17 22:42:58.25	74.46	20.52	-30.4	-32.3	13.3	9.10e-06	0	44	0	458227712	20	4460
2026-01-17 22:43:01.27	75.22	20.60	-30.7	-32.5	12.8	5.95e-05	0	44	0	463470592	21	4434
2026-01-17 22:43:04.26	75.97	20.67	-30.6	-32.4	12.9	4.50e-05	0	44	0	469762048	21	4407
2026-01-17 22:43:07.28	76.73	20.74	-30.6	-32.4	12.9	3.81e-05	0	44	0	475004928	21	4406
2026-01-17 22:43:10.29	77.49	20.80	-30.3	-31.1	13.5	1.22e-05	0	44	0	481296384	22	3911
2026-01-17 22:43:13.30	78.25	20.86	-30.0	-30.8	14.0	6.80e-06	0	44	0	486539264	21	3925
2026-01-17 22:43:16.31	79.02	20.91	-30.2	-31.1	13.7	1.14e-05	0	44	0	491782144	21	4011
2026-01-17 22:43:19.33	79.80	20.96	-30.2	-31.2	13.7	3.00e-06	0	44	0	498073600	21	4032
2026-01-17 22:43:22.34	80.57	21.00	-30.6	-32.3	12.9	2.97e-05	0	44	0	503316480	21	4380
2026-01-17 22:43:25.34	81.34	21.04	-30.6	-32.4	12.9	6.33e-05	0	44	0	508559360	21	4415
2026-01-17 22:43:28.35	82.12	21.07	-30.7	-32.5	12.8	6.79e-05	0	44	0	514850816	21	4442
2026-01-17 22:43:31.36	82.89	21.10	-31.0	-32.8	12.3	2.27e-04	0	44	0	520093696	22	4454
2026-01-17 22:43:34.36	83.67	21.12	-30.8	-32.3	12.7	5.79e-05	0	44	0	526385152	22	4295
2026-01-17 22:43:37.37	84.45	21.14	-30.8	-32.2	12.7	1.04e-04	0	44	0	531628032	22	4243
2026-01-17 22:43:40.38	85.23	21.15	-30.7	-32.1	12.9	5.79e-05	0	44	0	536870912	22	4207
2026-01-17 22:43:43.39	86.01	21.15	-30.5	-31.5	13.2	2.36e-05	0	44	0	543162368	22	4036
2026-01-17 22:43:46.39	86.79	21.15	-30.9	-32.7	12.4	1.45e-04	0	44	0	548405248	22	4413
2026-01-17 22:43:49.40	87.57	21.15	-30.7	-32.1	12.8	1.10e-04	0	44	0	553648128	22	4215
2026-01-17 22:43:52.40	88.35	21.14	-30.5	-31.4	13.3	2.21e-05	0	44	0	559939584	22	4013
2026-01-17 22:43:55.40	89.13	21.12	-30.2	-31.3	13.7	1.11e-04	0	44	0	565182464	21	4063
2026-01-17 22:43:58.42	89.91	21.10	-30.1	-31.0	13.8	8.16e-05	0	44	0	571473920	21	3977
2026-01-17 22:44:01.41	90.69	21.08	-30.5	-31.9	13.2	2.10e-04	0	44	0	576716800	21	4254
2026-01-17 22:44:04.42	91.46	21.04	-30.4	-31.6	13.4	1.98e-05	0	44	0	581959680	21	4171
2026-01-17 22:44:07.42	92.24	21.01	-30.4	-31.7	13.3	1.75e-05	0	44	0	588251136	21	4198
2026-01-17 22:44:10.43	93.01	20.97	-30.3	-31.4	13.5	1.83e-05	0	44	0	593494016	21	4100
2026-01-17 22:44:13.45	93.78	20.92	-30.3	-31.5	13.5	1.52e-05	0	44	0	598736896	21	4136
2026-01-17 22:44:16.45	94.55	20.87	-30.2	-31.3	13.6	1.14e-05	0	44	0	605028352	21	4083
2026-01-17 22:44:19.46	95.32	20.81	-30.2	-31.2	13.7	6.10e-06	0	44	0	610271232	21	4038
2026-01-17 22:44:22.47	96.08	20.75	-30.2	-31.1	13.7	4.50e-06	0	44	0	616562688	21	4021
2026-01-17 22:44:25.48	96.84	20.68	-30.4	-31.7	13.3	2.05e-05	0	44	0	621805568	21	4204
2026-01-17 22:44:28.49	97.60	20.61	-30.3	-31.5	13.4	2.59e-05	0	44	0	627048448	21	4142
2026-01-17 22:44:31.49	98.35	20.53	-30.2	-31.6	13.7	7.60e-06	0	44	0	633339904	20	4265
2026-01-17 22:44:34.50	99.10	20.45	-30.0	-31.3	14.0	1.63e-04	0	44	0	638582784	20	4147
2026-01-17 22:44:37.51	99.85	20.37	-29.9	-30.8	14.3	1.14e-05	0	44	0	643825664	20	4011
2026-01-17 22:44:40.51	100.59	20.28	-29.9	-30.8	14.2	1.60e-05	0	44	0	650117120	20	4017
2026-01-17 22:44:43.51	101.32	20.19	-30.4	-31.9	13.2	1.72e-04	0	44	0	655360000	21	4248
2026-01-17 22:44:46.50	102.05	20.09	-30.3	-31.6	13.4	6.94e-05	0	44	0	661651456	21	4168
2026-01-17 22:44:49.51	102.78	19.98	-29.9	-31.0	14.1	2.20e-06	0	44	0	666894336	20	4075
2026-01-17 22:44:52.52	103.50	19.88	-29.6	-30.2	14.6	1.50e-06	0	44	0	672137216	20	3863
2026-01-17 22:44:55.53	104.22	19.77	-29.9	-31.0	14.1	4.50e-06	0	44	0	678428672	20	4074
2026-01-17 22:44:58.54	104.94	19.65	-29.9	-30.9	14.1	7.32e-05	0	44	0	683671552	20	4048
2026-01-17 22:45:01.54	105.64	19.53	-30.0	-31.1	14.0	7.40e-05	0	44	0	688914432	20	4106
2026-01-17 22:45:04.55	106.35	19.41	-30.2	-31.6	13.6	8.16e-05	0	44	0	695205888	20	4268
2026-01-17 22:45:07.54	107.04	19.29	-30.1	-31.6	13.7	1.67e-05	0	44	0	700448768	20	4246
2026-01-17 22:45:10.54	107.73	19.16	-30.1	-31.5	13.7	4.50e-06	0	44	0	706740224	20	4230
2026-01-17 22:45:13.54	108.41	19.03	-30.2	-31.8	13.5	6.80e-06	0	44	0	711983104	20	4305
2026-01-17 22:45:16.55	109.09	18.89	-30.4	-31.9	13.0	3.35e-05	0	44	0	717225984	21	4257
2026-01-17 22:45:19.56	109.77	18.75	-31.0	-33.1	12.0	4.30e-04	0	44	0	723517440	22	4565
2026-01-17 22:45:22.58	110.44	18.61	-31.2	-33.7	11.6	8.86e-04	0	44	0	728760320	22	4794
2026-01-17 22:45:25.59	111.10	18.46	-30.7	-32.7	12.5	2.18e-04	0	44	0	734003200	21	4546
2026-01-17 22:45:28.61	111.76	18.31	-30.8	-33.0	12.4	1.65e-04	0	44	0	740294656	21	4627
2026-01-17 22:45:31.62	112.41	18.16	-31.3	-33.9	11.4	6.83e-04	0	44	0	745537536	22	4875
2026-01-17 22:45:34.63	113.06	18.01	-30.7	-32.1	12.6	1.57e-04	0	44	0	751828992	22	4265
2026-01-17 22:45:37.64	113.69	17.86	-30.5	-31.7	12.8	8.39e-05	0	44	0	757071872	22	4142
2026-01-17 22:45:40.64	114.32	17.70	-30.7	-32.2	12.5	8.46e-05	0	44	0	762314752	22	4297
2026-01-17 22:45:43.65	114.95	17.54	-31.1	-33.3	11.7	5.93e-04	0	44	0	768606208	22	4658
2026-01-17 22:45:46.67	115.57	17.38	-31.5	-34.5	10.9	1.72e-03	0	44	0	773849088	22	5131
2026-01-17 22:45:49.67	116.18	17.21	-31.2	-33.8	11.4	1.45e-03	0	44	0	779091968	22	4845
2026-01-17 22:45:52.67	116.78	17.05	-31.1	-33.5	11.5	8.68e-04	0	44	0	785383424	22	4754
2026-01-17 22:45:55.68	117.38	16.88	-31.3	-34.2	11.0	1.39e-03	0	44	0	790626304	22	5012
2026-01-17 22:45:58.70	117.97	16.71	-31.3	-33.4	11.2	2.22e-03	0	44	0	796917760	23	4623
2026-01-17 22:46:01.69	118.56	16.54	-30.7	-32.1	12.5	2.02e-04	0	44	0	802160640	22	4251
2026-01-17 22:46:04.71	119.14	16.36	-30.7	-32.1	12.5	1.33e-04	0	44	0	807403520	22	4265
2026-01-17 22:46:07.72	119.71	16.19	-30.6	-32.4	12.5	9.53e-05	0	44	0	813694976	21	4451
2026-01-17 22:46:10.71	120.27	16.01	-30.5	-32.3	12.6	1.14e-04	0	44	0	818937856	21	4431
2026-01-17 22:46:13.72	120.83	15.83	-30.8	-33.2	12.0	2.20e-04	0	44	0	824180736	21	4735
2026-01-17 22:46:16.72	121.38	15.66	-30.8	-32.6	12.1	4.39e-04	0	44	0	830472192	22	4415
2026-01-17 22:46:19.73	121.93	15.48	-30.7	-32.3	12.3	9.53e-05	0	44	0	835715072	22	4307
2026-01-17 22:46:22.75	122.47	15.29	-30.8	-32.5	12.2	1.25e-04	0	44	0	842006528	22	4385
2026-01-17 22:46:25.76	123.01	15.11	-31.0	-33.1	11.7	5.74e-04	0	44	0	847249408	22	4623
2026-01-17 22:46:28.76	123.53	14.93	-30.6	-32.2	12.3	2.43e-04	0	44	0	852492288	22	4300
2026-01-17 22:46:31.78	124.06	14.75	-30.8	-33.2	11.9	1.73e-04	0	44	0	858783744	21	4727
2026-01-17 22:46:34.79	124.57	14.56	-31.1	-33.5	11.3	1.07e-03	0	44	0	864026624	22	4768
2026-01-17 22:46:37.81	125.09	14.37	-31.1	-33.6	11.3	1.46e-03	0	44	0	870318080	22	4781
2026-01-17 22:46:40.80	125.59	14.19	-30.7	-32.9	12.0	3.04e-04	0	44	0	875560960	21	4651
2026-01-17 22:46:43.81	126.08	14.00	-30.7	-33.0	11.9	4.38e-04	0	44	0	880803840	21	4697
2026-01-17 22:46:46.83	126.58	13.82	-30.6	-32.5	12.3	2.55e-04	0	44	0	887095296	21	4511
2026-01-17 22:46:49.84	127.06	13.63	-30.3	-31.8	12.7	8.16e-05	0	44	0	892338176	21	4284
2026-01-17 22:46:52.85	127.54	13.44	-29.9	-30.7	13.5	7.60e-06	0	44	0	897581056	21	3946
2026-01-17 22:46:55.85	128.01	13.25	-30.3	-31.8	12.7	7.32e-05	0	44	0	903872512	21	4302
2026-01-17 22:46:58.86	128.48	13.06	-30.5	-32.5	12.2	1.56e-04	0	44	0	909115392	21	4527
2026-01-17 22:47:01.85	128.94	12.88	-30.6	-32.8	12.0	2.84e-04	0	44	0	915406848	21	4640
2026-01-17 22:47:04.87	129.40	12.69	-30.8	-33.4	11.6	4.97e-04	0	44	0	920649728	21	4842
2026-01-17 22:47:07.88	129.85	12.50	-31.0	-33.8	11.2	1.08e-03	0	44	0	925892608	21	5018
2026-01-17 22:47:10.88	130.29	12.31	-30.7	-32.7	11.7	8.33e-04	0	44	0	932184064	22	4516
2026-01-17 22:47:13.88	130.73	12.12	-30.2	-31.7	12.6	1.23e-04	0	44	0	937426944	21	4272
2026-01-17 22:47:16.88	131.16	11.93	-30.2	-32.1	12.8	3.43e-05	0	44	0	942669824	20	4472
2026-01-17 22:47:19.88	131.59	11.74	-30.2	-32.2	12.6	6.94e-05	0	44	0	948961280	20	4517
2026-01-17 22:47:22.90	132.01	11.55	-30.3	-32.6	12.3	9.23e-05	0	44	0	954204160	20	4673
2026-01-17 22:47:25.90	132.43	11.36	-30.5	-32.7	11.9	2.73e-04	0	44	0	960495616	21	4637
2026-01-17 22:47:28.91	132.84	11.18	-30.8	-33.4	11.4	1.01e-03	0	44	0	965738496	21	4868
2026-01-17 22:47:31.91	133.25	10.99	-31.1	-33.8	10.7	3.24e-03	0	44	0	970981376	22	4940
2026-01-17 22:47:34.91	133.65	10.80	-31.0	-33.8	10.7	2.43e-03	0	44	0	977272832	22	4951
2026-01-17 22:47:37.92	134.05	10.61	-30.4	-32.1	11.8	1.18e-03	0	44	0	982515712	22	4378
2026-01-17 22:47:40.93	134.44	10.42	-29.5	-30.9	12.6	1.23e-04	0	44	0	987758592	21	4236
2026-01-17 22:47:43.92	134.83	10.24	-30.3	-32.5	12.0	1.52e-04	0	44	0	994050048	20	4650
2026-01-17 22:47:46.93	135.21	10.05	-30.5	-33.1	11.8	2.85e-04	0	44	0	999292928	20	4853
2026-01-17 22:47:49.94	135.59	9.86	-30.6	-32.9	11.6	5.88e-04	0	44	0	1004535808	21	4698
2026-01-17 22:47:52.95	135.96	9.67	-30.6	-33.0	11.5	8.10e-04	0	44	0	1010827264	21	4748
2026-01-17 22:47:55.96	136.33	9.49	-30.8	-33.6	11.0	2.09e-03	0	44	0	1016070144	21	5007
2026-01-17 22:47:58.96	136.70	9.30	-31.0	-33.9	10.3	4.57e-03	0	44	0	1022361600	22	5046
2026-01-17 22:48:01.96	137.06	9.12	-31.1	-34.6	9.8	8.66e-03	0	44	0	1027604480	22	5354
2026-01-17 22:48:04.95	137.41	8.93	-31.1	-34.5	9.8	1.08e-02	0	44	0	1032847360	22	5316
2026-01-17 22:48:07.96	137.76	8.75	-31.1	-34.5	9.8	8.45e-03	0	44	0	1039138816	22	5330
2026-01-17 22:48:10.98	138.11	8.56	-31.0	-34.2	9.9	1.03e-02	0	44	0	1044381696	22	5192
2026-01-17 22:48:13.99	138.45	8.38	-31.2	-35.0	9.3	1.67e-02	0	44	0	1050673152	22	5535
2026-01-17 22:48:17.00	138.79	8.19	-31.3	-35.4	8.9	2.91e-02	0	44	0	1055916032	22	5770
2026-01-17 22:48:20.01	139.13	8.01	-31.4	-35.4	8.6	4.98e-02	0	44	0	1061158912	23	5647
2026-01-17 22:48:23.01	139.46	7.83	-30.8	-33.4	10.4	7.46e-03	0	44	0	1067450368	22	4872
2026-01-17 22:48:26.00	139.78	7.65	-30.8	-34.0	10.3	5.68e-03	0	44	0	1072693248	21	5202
2026-01-17 22:48:29.02	140.11	7.47	-30.7	-34.1	10.1	8.26e-03	0	44	0	1077936128	21	5290
2026-01-17 22:48:32.03	140.43	7.28	-31.0	-35.1	9.3	1.16e-02	0	44	0	1084227584	21	5808
2026-01-17 22:48:35.04	140.74	7.10	-31.1	-35.2	8.8	2.94e-02	0	44	0	1089470464	22	5814
2026-01-17 22:48:38.04	141.05	6.92	-33.9	-46.6	3.8	1.49e+00	0	44	104	1090519040	27	15507

#Closed at: 2026-01-17 22:48:38
#Recorded file [1090 MB]: D:/data/31010_260118_013853.dat