passes_logs/2026/01/17/R2M6_AANII_01/R2M6_AANII_01__20260117_121235_SUOMI_NPP_rec.log

#Pass ID: 20260117_121235_SUOMI NPP
#Satellite: SUOMI NPP
#Configuration: NPP
#almurnet v.1.7.20240730
#Start time: 2026-01-17 12:12:35

#Version: 2.2.20231116
#Station: R2M6_AANII_01
#Location: 30.233357 lon 59.946436 lat
#TLE: 1 37849U 11061A   26016.23176763  .00000061  00000+0  49926-4 0  9990
#TLE: 2 37849  98.7812 318.2698 0002434  61.5135 298.6286 14.19525545736883

#Time	Az	El	Level	Level2	SNR	BER	BlckErr	Temp	State	Recorded	gain1	gain2
2026-01-17 12:12:35.62	220.56	7.03	-31.0	-33.7	5.4	1.15e+00	0	41	0	0	23	4876
2026-01-17 12:12:38.62	220.88	7.21	-31.7	-36.2	8.0	5.86e-02	0	41	0	1048576	23	6054
2026-01-17 12:12:41.64	221.21	7.38	-31.4	-35.1	8.9	2.53e-02	0	41	0	7340032	23	5484
2026-01-17 12:12:44.64	221.53	7.56	-31.2	-34.2	9.7	2.17e-02	0	41	0	12582912	23	5053
2026-01-17 12:12:47.65	221.87	7.74	-31.4	-34.6	9.4	1.12e-02	0	42	0	17825792	23	5245
2026-01-17 12:12:50.64	222.20	7.92	-31.3	-34.2	9.8	1.28e-02	0	42	0	24117248	23	5061
2026-01-17 12:12:53.65	222.54	8.10	-31.6	-35.3	8.9	2.33e-02	0	41	0	29360128	23	5550
2026-01-17 12:12:56.65	222.88	8.28	-31.0	-33.2	10.5	6.67e-03	0	42	0	35651584	23	4660
2026-01-17 12:12:59.66	223.23	8.46	-31.1	-33.5	10.4	5.58e-03	0	42	0	40894464	23	4743
2026-01-17 12:13:02.66	223.58	8.64	-30.9	-33.4	10.8	2.28e-03	0	42	0	46137344	22	4804
2026-01-17 12:13:05.67	223.94	8.82	-30.9	-33.5	10.8	1.69e-03	0	42	0	52428800	22	4822
2026-01-17 12:13:08.66	224.30	9.01	-30.1	-31.4	12.6	1.01e-04	0	42	0	57671680	21	4204
2026-01-17 12:13:11.67	224.66	9.19	-30.3	-32.0	12.2	1.27e-04	0	42	0	62914560	21	4390
2026-01-17 12:13:14.68	225.03	9.37	-30.2	-31.7	12.3	2.27e-04	0	42	0	69206016	21	4299
2026-01-17 12:13:17.69	225.41	9.55	-30.3	-32.2	12.1	3.37e-04	0	42	0	74448896	21	4434
2026-01-17 12:13:20.70	225.79	9.74	-30.6	-33.0	11.5	6.84e-04	0	42	0	80740352	21	4732
2026-01-17 12:13:23.70	226.17	9.92	-30.7	-33.3	11.4	8.12e-04	0	42	0	85983232	21	4841
2026-01-17 12:13:26.69	226.56	10.10	-30.9	-33.8	11.1	1.43e-03	0	42	0	91226112	21	5012
2026-01-17 12:13:29.70	226.95	10.29	-30.3	-31.9	12.4	1.95e-04	0	42	0	97517568	21	4347
2026-01-17 12:13:32.70	227.34	10.47	-30.4	-32.1	12.2	1.07e-04	0	42	0	102760448	21	4422
2026-01-17 12:13:35.72	227.75	10.66	-30.3	-31.8	12.5	1.06e-04	0	42	0	108003328	21	4320
2026-01-17 12:13:38.72	228.15	10.84	-30.4	-32.1	12.2	2.44e-04	0	42	0	114294784	21	4420
2026-01-17 12:13:41.72	228.57	11.03	-30.3	-31.8	12.5	2.96e-04	0	42	0	119537664	21	4299
2026-01-17 12:13:44.73	228.98	11.21	-30.1	-31.4	12.7	7.55e-05	0	42	0	125829120	21	4188
2026-01-17 12:13:47.74	229.41	11.39	-29.9	-30.7	13.3	1.44e-05	0	42	0	131072000	21	3963
2026-01-17 12:13:50.75	229.83	11.58	-29.8	-30.9	13.5	1.44e-05	0	42	0	136314880	20	4107
2026-01-17 12:13:53.76	230.27	11.76	-30.0	-31.6	13.0	4.04e-05	0	43	0	142606336	20	4330
2026-01-17 12:13:56.76	230.70	11.95	-30.4	-32.7	12.2	1.15e-04	0	42	0	147849216	20	4702
2026-01-17 12:13:59.77	231.15	12.13	-30.6	-32.8	11.9	2.33e-04	0	43	0	153092096	21	4631
2026-01-17 12:14:02.78	231.60	12.32	-30.6	-32.8	11.9	5.97e-04	0	43	0	159383552	21	4642
2026-01-17 12:14:05.77	232.05	12.50	-30.5	-32.5	12.2	2.11e-04	0	43	0	164626432	21	4506
2026-01-17 12:14:08.77	232.51	12.68	-30.7	-33.0	11.8	5.78e-04	0	43	0	169869312	21	4694
2026-01-17 12:14:11.78	232.97	12.87	-30.5	-32.4	12.3	2.75e-04	0	43	0	176160768	21	4477
2026-01-17 12:14:14.79	233.45	13.05	-30.3	-31.8	12.7	8.46e-05	0	43	0	181403648	21	4266
2026-01-17 12:14:17.79	233.92	13.23	-30.3	-31.8	12.6	1.18e-04	0	42	0	187695104	21	4289
2026-01-17 12:14:20.79	234.40	13.42	-30.1	-31.2	13.1	2.28e-05	0	43	0	192937984	21	4086
2026-01-17 12:14:23.80	234.89	13.60	-30.3	-31.8	12.8	5.49e-05	0	43	0	198180864	21	4262
2026-01-17 12:14:26.81	235.38	13.78	-30.3	-31.6	12.8	8.46e-05	0	43	0	204472320	21	4224
2026-01-17 12:14:29.83	235.89	13.96	-30.0	-31.0	13.2	1.52e-05	0	43	0	209715200	21	4036
2026-01-17 12:14:32.82	236.39	14.14	-30.1	-31.3	13.1	3.12e-05	0	43	0	214958080	21	4106
2026-01-17 12:14:35.82	236.90	14.32	-30.5	-32.2	12.5	1.03e-04	0	43	0	221249536	21	4413
2026-01-17 12:14:38.83	237.42	14.50	-30.7	-32.9	12.0	2.25e-04	0	43	0	226492416	21	4651
2026-01-17 12:14:41.86	237.95	14.68	-30.6	-32.6	12.3	2.49e-04	0	43	0	232783872	21	4525
2026-01-17 12:14:44.87	238.48	14.85	-30.4	-31.8	12.8	5.34e-05	0	43	0	238026752	21	4271
2026-01-17 12:14:47.88	239.01	15.03	-30.3	-31.6	13.0	5.79e-05	0	43	0	243269632	21	4191
2026-01-17 12:14:50.89	239.56	15.20	-30.3	-31.7	12.9	3.58e-05	0	43	0	249561088	21	4237
2026-01-17 12:14:53.89	240.10	15.37	-29.9	-30.6	13.6	1.52e-05	0	43	0	254803968	21	3918
2026-01-17 12:14:56.90	240.66	15.55	-30.0	-30.7	13.6	1.83e-05	0	43	0	261095424	21	3945
2026-01-17 12:14:59.91	241.22	15.72	-29.8	-30.4	13.8	5.30e-06	0	43	0	266338304	21	3840
2026-01-17 12:15:02.93	241.79	15.89	-29.9	-30.6	13.7	6.10e-06	0	43	0	271581184	21	3888
2026-01-17 12:15:05.93	242.36	16.06	-29.9	-30.6	13.7	6.80e-06	0	43	0	277872640	21	3899
2026-01-17 12:15:08.94	242.94	16.22	-29.9	-31.1	13.7	7.60e-06	0	43	0	283115520	20	4145
2026-01-17 12:15:11.94	243.53	16.39	-29.9	-31.0	13.8	8.30e-06	0	43	0	289406976	20	4103
2026-01-17 12:15:14.94	244.12	16.55	-29.9	-31.1	13.8	1.50e-06	0	43	0	294649856	20	4114
2026-01-17 12:15:17.95	244.71	16.71	-30.0	-31.3	13.6	8.30e-06	0	43	0	299892736	20	4179
2026-01-17 12:15:20.96	245.32	16.87	-30.3	-32.0	13.1	2.89e-05	0	43	0	306184192	20	4425
2026-01-17 12:15:23.96	245.93	17.02	-30.1	-31.6	13.4	1.37e-05	0	43	0	311427072	20	4275
2026-01-17 12:15:26.97	246.55	17.18	-30.2	-31.8	13.3	9.10e-06	0	43	0	316669952	20	4323
2026-01-17 12:15:29.99	247.17	17.33	-30.5	-32.1	12.8	5.95e-05	0	43	0	322961408	21	4353
2026-01-17 12:15:32.99	247.80	17.48	-30.3	-31.6	13.1	3.43e-05	0	43	0	328204288	21	4190
2026-01-17 12:15:35.99	248.43	17.63	-30.5	-32.3	12.7	4.88e-05	0	43	0	334495744	21	4396
2026-01-17 12:15:38.99	249.07	17.77	-30.6	-32.5	12.5	7.62e-05	0	43	0	339738624	21	4471
2026-01-17 12:15:41.99	249.72	17.92	-30.9	-33.3	12.0	2.25e-04	0	43	0	344981504	21	4746
2026-01-17 12:15:44.98	250.36	18.06	-31.1	-33.3	11.7	5.35e-04	0	43	0	351272960	22	4646
2026-01-17 12:15:47.98	251.02	18.19	-31.3	-34.0	11.3	8.04e-04	0	43	0	356515840	22	4907
2026-01-17 12:15:50.98	251.68	18.33	-31.3	-34.0	11.2	1.46e-03	0	43	0	361758720	22	4902
2026-01-17 12:15:53.99	252.35	18.46	-31.1	-33.5	11.6	7.06e-04	0	43	0	368050176	22	4711
2026-01-17 12:15:57.00	253.03	18.58	-30.9	-32.6	12.2	1.82e-04	0	43	0	373293056	22	4423
2026-01-17 12:16:00.00	253.71	18.71	-30.9	-32.9	12.0	3.66e-04	0	43	0	378535936	22	4497
2026-01-17 12:16:03.01	254.40	18.83	-30.5	-31.7	12.8	9.99e-05	0	43	0	384827392	22	4125
2026-01-17 12:16:06.02	255.09	18.95	-30.6	-31.8	12.8	4.73e-05	0	43	0	390070272	22	4154
2026-01-17 12:16:09.02	255.78	19.06	-30.7	-32.1	12.5	1.46e-04	0	43	0	396361728	22	4251
2026-01-17 12:16:12.02	256.48	19.17	-30.8	-32.3	12.5	1.14e-04	0	43	0	401604608	22	4319
2026-01-17 12:16:15.03	257.19	19.28	-30.6	-31.8	12.9	3.81e-05	0	43	0	406847488	22	4138
2026-01-17 12:16:18.04	257.90	19.38	-30.6	-31.9	12.7	1.11e-04	0	43	0	413138944	22	4175
2026-01-17 12:16:21.05	258.62	19.48	-30.3	-31.2	13.2	1.52e-05	0	43	0	418381824	22	3964
2026-01-17 12:16:24.06	259.34	19.58	-30.3	-31.4	13.4	3.43e-05	0	43	0	423624704	21	4129
2026-01-17 12:16:27.06	260.06	19.67	-29.5	-29.9	14.6	0.00e+00	0	43	0	429916160	20	3793
2026-01-17 12:16:30.07	260.79	19.75	-29.7	-30.6	14.2	7.00e-07	0	43	0	435159040	20	3957
2026-01-17 12:16:33.08	261.52	19.84	-30.0	-31.2	13.8	6.10e-06	0	43	0	441450496	20	4150
2026-01-17 12:16:36.08	262.26	19.91	-29.6	-30.2	14.5	0.00e+00	0	43	0	446693376	20	3865
2026-01-17 12:16:39.08	263.00	19.99	-29.9	-31.0	14.0	3.80e-06	0	43	0	451936256	20	4089
2026-01-17 12:16:42.09	263.74	20.06	-29.7	-30.4	14.4	6.10e-06	0	43	0	458227712	20	3906
2026-01-17 12:16:45.09	264.48	20.12	-30.0	-31.2	13.9	4.50e-06	0	43	0	463470592	20	4131
2026-01-17 12:16:48.10	265.23	20.18	-30.0	-31.1	13.9	7.60e-06	0	43	0	468713472	20	4123
2026-01-17 12:16:51.11	265.98	20.24	-29.8	-30.6	14.3	7.00e-07	0	43	0	475004928	20	3968
2026-01-17 12:16:54.10	266.73	20.29	-30.3	-32.0	13.4	1.14e-05	0	43	0	480247808	20	4374
2026-01-17 12:16:57.12	267.49	20.33	-30.1	-31.4	13.7	1.37e-05	0	43	0	486539264	20	4205
2026-01-17 12:17:00.12	268.25	20.37	-30.3	-32.1	13.4	1.83e-05	0	43	0	491782144	20	4407
2026-01-17 12:17:03.12	269.01	20.41	-30.3	-32.0	13.3	1.60e-05	0	43	0	497025024	20	4384
2026-01-17 12:17:06.13	269.77	20.44	-30.3	-31.4	13.4	1.67e-05	0	43	0	503316480	21	4107
2026-01-17 12:17:09.13	270.53	20.46	-30.3	-31.5	13.4	9.10e-06	0	43	0	508559360	21	4126
2026-01-17 12:17:12.14	271.30	20.48	-30.1	-31.0	13.7	4.50e-06	0	43	0	513802240	21	3977
2026-01-17 12:17:15.13	272.06	20.50	-30.8	-33.0	12.4	6.86e-05	0	43	0	520093696	21	4607
2026-01-17 12:17:18.13	272.82	20.51	-30.5	-32.1	13.0	3.96e-05	0	43	0	525336576	21	4320
2026-01-17 12:17:21.13	273.58	20.52	-30.6	-32.5	12.7	3.28e-05	0	43	0	531628032	21	4441
2026-01-17 12:17:24.14	274.35	20.52	-30.6	-32.4	12.8	6.02e-05	0	43	0	536870912	21	4403
2026-01-17 12:17:27.15	275.12	20.51	-30.4	-31.7	13.2	1.75e-05	0	43	0	542113792	21	4200
2026-01-17 12:17:30.17	275.88	20.50	-30.6	-32.3	12.9	7.01e-05	0	43	0	548405248	21	4373
2026-01-17 12:17:33.17	276.65	20.49	-30.4	-31.6	13.3	1.22e-05	0	43	0	553648128	21	4177
2026-01-17 12:17:36.18	277.41	20.47	-30.6	-32.3	12.9	6.71e-05	0	43	0	558891008	21	4377
2026-01-17 12:17:39.17	278.17	20.44	-30.6	-32.3	12.9	6.71e-05	0	43	0	565182464	21	4385
2026-01-17 12:17:42.19	278.93	20.41	-30.6	-32.3	12.9	3.28e-05	0	43	0	570425344	21	4394
2026-01-17 12:17:45.20	279.69	20.38	-30.7	-32.6	12.6	9.76e-05	0	43	0	576716800	21	4495
2026-01-17 12:17:48.21	280.45	20.34	-30.5	-32.1	13.0	4.50e-05	0	43	0	581959680	21	4327
2026-01-17 12:17:51.23	281.21	20.29	-30.5	-31.9	13.1	2.74e-05	0	43	0	587202560	21	4264
2026-01-17 12:17:54.23	281.96	20.24	-30.6	-32.4	12.8	3.58e-05	0	43	0	593494016	21	4411
2026-01-17 12:17:57.23	282.71	20.19	-30.7	-32.6	12.7	6.10e-05	0	43	0	598736896	21	4467
2026-01-17 12:18:00.25	283.46	20.13	-30.5	-32.0	13.0	3.81e-05	0	43	0	603979776	21	4289
2026-01-17 12:18:03.26	284.21	20.07	-30.3	-31.6	13.3	1.60e-05	0	43	0	610271232	21	4159
2026-01-17 12:18:06.27	284.95	20.00	-30.5	-32.2	13.0	4.04e-05	0	43	0	615514112	21	4338
2026-01-17 12:18:09.27	285.69	19.93	-30.5	-32.0	13.0	4.11e-05	0	43	0	621805568	21	4304
2026-01-17 12:18:12.28	286.42	19.85	-30.4	-31.7	13.3	1.83e-05	0	43	0	627048448	21	4188
2026-01-17 12:18:15.27	287.15	19.77	-30.4	-31.7	13.2	2.82e-05	0	43	0	632291328	21	4205
2026-01-17 12:18:18.27	287.87	19.68	-30.3	-31.6	13.3	1.44e-05	0	43	0	638582784	21	4178
2026-01-17 12:18:21.28	288.60	19.59	-30.6	-32.2	12.9	3.50e-05	0	43	0	643825664	21	4355
2026-01-17 12:18:24.28	289.31	19.50	-30.9	-33.1	12.3	1.72e-04	0	43	0	649068544	21	4658
2026-01-17 12:18:27.27	290.02	19.40	-30.5	-32.1	12.9	3.50e-05	0	43	0	655360000	21	4337
2026-01-17 12:18:30.27	290.73	19.30	-30.2	-31.3	13.5	6.80e-06	0	43	0	660602880	21	4068
2026-01-17 12:18:33.28	291.44	19.19	-30.5	-32.1	13.0	4.42e-05	0	43	0	666894336	21	4319
2026-01-17 12:18:36.29	292.14	19.09	-30.3	-31.5	13.4	1.60e-05	0	43	0	672137216	21	4131
2026-01-17 12:18:39.30	292.83	18.97	-30.2	-31.2	13.5	3.80e-06	0	43	0	677380096	21	4056
2026-01-17 12:18:42.30	293.52	18.86	-30.2	-31.2	13.6	1.29e-05	0	43	0	683671552	21	4060
2026-01-17 12:18:45.30	294.21	18.74	-30.2	-31.3	13.5	6.80e-06	0	43	0	688914432	21	4074
2026-01-17 12:18:48.31	294.89	18.61	-29.9	-31.0	14.0	7.00e-07	0	43	0	694157312	20	4084
2026-01-17 12:18:51.31	295.56	18.49	-29.9	-30.9	14.0	7.00e-07	0	43	0	700448768	20	4058
2026-01-17 12:18:54.33	296.23	18.36	-29.9	-31.0	14.0	2.20e-06	0	43	0	705691648	20	4079
2026-01-17 12:18:57.32	296.89	18.22	-30.1	-31.6	13.5	7.60e-06	0	43	0	711983104	20	4267
2026-01-17 12:19:00.32	297.54	18.09	-30.3	-31.9	13.4	1.52e-05	0	43	0	717225984	20	4374
2026-01-17 12:19:03.33	298.19	17.95	-30.4	-32.2	13.2	1.52e-05	0	43	0	722468864	20	4449
2026-01-17 12:19:06.34	298.84	17.81	-30.3	-31.5	13.2	2.44e-05	0	43	0	728760320	21	4157
2026-01-17 12:19:09.35	299.48	17.67	-30.2	-31.4	13.3	1.67e-05	0	43	0	734003200	21	4120
2026-01-17 12:19:12.36	300.11	17.52	-30.7	-32.6	12.5	8.92e-05	0	43	0	739246080	21	4507
2026-01-17 12:19:15.37	300.74	17.37	-31.2	-33.6	11.6	6.78e-04	0	43	0	745537536	22	4763
2026-01-17 12:19:18.37	301.36	17.22	-30.6	-31.9	12.7	1.36e-04	0	43	0	750780416	22	4178
2026-01-17 12:19:21.37	301.97	17.07	-30.6	-32.0	12.6	8.08e-05	0	43	0	757071872	22	4218
2026-01-17 12:19:24.38	302.58	16.91	-30.5	-31.6	12.9	6.40e-05	0	43	0	762314752	22	4085
2026-01-17 12:19:27.39	303.19	16.75	-30.4	-31.8	13.0	2.05e-05	0	43	0	767557632	21	4248
2026-01-17 12:19:30.39	303.78	16.60	-30.9	-33.3	12.0	1.67e-04	0	43	0	773849088	21	4754
2026-01-17 12:19:33.40	304.37	16.43	-31.5	-34.3	10.6	3.44e-03	0	43	0	779091968	23	4948
2026-01-17 12:19:36.39	304.95	16.27	-31.6	-34.5	10.5	5.54e-03	0	43	0	784334848	23	5037
2026-01-17 12:19:39.39	305.53	16.11	-31.6	-34.6	10.3	4.02e-03	0	43	0	790626304	23	5089
2026-01-17 12:19:42.39	306.10	15.94	-31.4	-33.9	10.8	3.04e-03	0	43	0	795869184	23	4786
2026-01-17 12:19:45.41	306.67	15.78	-30.7	-32.1	12.5	1.38e-04	0	43	0	801112064	22	4252
2026-01-17 12:19:48.42	307.23	15.61	-30.7	-32.2	12.4	9.99e-05	0	43	0	807403520	22	4306
2026-01-17 12:19:51.42	307.78	15.44	-31.5	-34.6	10.8	2.22e-03	0	43	0	812646400	22	5144
2026-01-17 12:19:54.42	308.33	15.27	-31.2	-33.4	11.2	1.47e-03	0	43	0	818937856	23	4595
2026-01-17 12:19:57.42	308.87	15.09	-31.1	-32.8	11.6	6.38e-04	0	43	0	824180736	23	4407
2026-01-17 12:20:00.44	309.40	14.92	-30.9	-32.4	11.9	4.06e-04	0	43	0	829423616	23	4266
2026-01-17 12:20:03.44	309.93	14.74	-30.9	-32.2	12.0	6.06e-04	0	43	0	835715072	23	4217
2026-01-17 12:20:06.43	310.45	14.57	-30.5	-31.7	12.7	8.54e-05	0	43	0	840957952	22	4139
2026-01-17 12:20:09.43	310.97	14.39	-30.8	-32.5	12.2	1.17e-04	0	43	0	846200832	22	4395
2026-01-17 12:20:12.42	311.47	14.22	-30.9	-32.9	11.8	5.29e-04	0	43	0	852492288	22	4531
2026-01-17 12:20:15.44	311.98	14.04	-30.9	-32.7	11.9	7.90e-04	0	43	0	857735168	22	4472
2026-01-17 12:20:18.44	312.48	13.86	-30.5	-31.8	12.7	9.30e-05	0	43	0	864026624	22	4158
2026-01-17 12:20:21.45	312.97	13.68	-30.8	-32.5	12.1	2.42e-04	0	43	0	869269504	22	4400
2026-01-17 12:20:24.45	313.46	13.50	-30.8	-32.5	12.1	2.40e-04	0	43	0	874512384	22	4395
2026-01-17 12:20:27.46	313.94	13.32	-30.9	-33.0	11.8	5.77e-04	0	43	0	880803840	22	4556
2026-01-17 12:20:30.47	314.42	13.14	-30.8	-32.7	11.9	4.84e-04	0	43	0	886046720	22	4470
2026-01-17 12:20:33.47	314.89	12.96	-30.7	-32.2	12.3	2.75e-04	0	43	0	891289600	22	4294
2026-01-17 12:20:36.48	315.35	12.78	-30.3	-31.2	13.0	1.34e-04	0	43	0	897581056	22	3990
2026-01-17 12:20:39.48	315.81	12.59	-29.8	-30.4	13.8	9.10e-06	0	43	0	902823936	21	3839
2026-01-17 12:20:42.47	316.26	12.41	-30.1	-31.1	13.3	1.29e-05	0	43	0	908066816	21	4032
2026-01-17 12:20:45.48	316.71	12.23	-30.5	-32.1	12.6	9.38e-05	0	43	0	914358272	21	4376
2026-01-17 12:20:48.48	317.15	12.05	-30.4	-32.1	12.6	1.23e-04	0	43	0	919601152	21	4370
2026-01-17 12:20:51.48	317.59	11.87	-30.3	-31.7	12.9	5.11e-05	0	43	0	925892608	21	4226
2026-01-17 12:20:54.50	318.02	11.68	-30.3	-31.7	12.9	6.40e-05	0	43	0	931135488	21	4226
2026-01-17 12:20:57.50	318.45	11.50	-30.5	-32.4	12.4	9.84e-05	0	43	0	936378368	21	4454
2026-01-17 12:21:00.50	318.87	11.32	-30.5	-32.3	12.4	1.58e-04	0	43	0	942669824	21	4436
2026-01-17 12:21:03.50	319.29	11.14	-30.2	-31.6	12.9	6.10e-05	0	43	0	947912704	21	4206
2026-01-17 12:21:06.51	319.70	10.95	-30.6	-32.5	12.3	1.12e-04	0	43	0	953155584	21	4503
2026-01-17 12:21:09.51	320.11	10.77	-31.2	-33.9	10.9	1.50e-03	0	43	0	959447040	22	4931
2026-01-17 12:21:12.51	320.51	10.59	-31.2	-34.1	10.7	3.69e-03	0	43	0	964689920	22	5030
2026-01-17 12:21:15.50	320.90	10.41	-31.4	-34.3	10.2	6.89e-03	0	44	0	970981376	23	4999
2026-01-17 12:21:18.51	321.30	10.22	-30.9	-32.7	11.4	9.03e-04	0	43	0	976224256	23	4399
2026-01-17 12:21:21.51	321.68	10.04	-31.0	-32.7	11.4	1.30e-03	0	43	0	981467136	23	4402
2026-01-17 12:21:24.53	322.07	9.86	-31.0	-33.0	11.1	1.53e-03	0	43	0	987758592	23	4526
2026-01-17 12:21:27.51	322.44	9.68	-31.0	-32.9	11.2	1.81e-03	0	43	0	993001472	23	4481
2026-01-17 12:21:30.52	322.82	9.50	-30.7	-32.5	11.8	4.05e-04	0	43	0	998244352	22	4435
2026-01-17 12:21:33.52	323.19	9.32	-30.9	-33.3	11.2	1.22e-03	0	43	0	1004535808	22	4699
2026-01-17 12:21:36.54	323.56	9.14	-31.1	-33.9	10.8	2.50e-03	0	43	0	1009778688	22	4925
2026-01-17 12:21:39.54	323.92	8.96	-30.8	-32.7	11.6	1.14e-03	0	43	0	1016070144	22	4519
2026-01-17 12:21:42.54	324.27	8.78	-30.7	-32.6	11.6	5.52e-04	0	43	0	1021313024	22	4482
2026-01-17 12:21:45.54	324.62	8.60	-30.8	-32.8	11.4	5.74e-04	0	43	0	1026555904	22	4557
2026-01-17 12:21:48.55	324.97	8.42	-30.9	-33.2	11.2	1.21e-03	0	43	0	1032847360	22	4675
2026-01-17 12:21:51.56	325.32	8.24	-31.2	-34.2	10.4	5.50e-03	0	43	0	1038090240	22	5088
2026-01-17 12:21:54.56	325.66	8.06	-31.3	-34.5	10.2	5.02e-03	0	43	0	1043333120	22	5207
2026-01-17 12:21:57.57	326.00	7.89	-30.9	-33.1	11.2	1.82e-03	0	43	0	1049624576	22	4647
2026-01-17 12:22:00.58	326.33	7.71	-30.4	-31.7	12.2	1.91e-04	0	43	0	1054867456	22	4190
2026-01-17 12:22:03.57	326.66	7.53	-30.5	-32.0	12.0	3.81e-04	0	43	0	1060110336	22	4295
2026-01-17 12:22:06.56	326.98	7.36	-30.9	-33.1	11.2	7.38e-04	0	43	0	1066401792	22	4658
2026-01-17 12:22:09.56	327.30	7.18	-31.2	-34.2	10.4	4.30e-03	0	43	0	1071644672	22	5091
2026-01-17 12:22:12.56	327.62	7.01	-33.6	-46.0	3.8	1.49e+00	0	43	104	1075838976	27	14878

#Closed at: 2026-01-17 12:22:12
#Recorded file [1075 MB]: D:/data/31010_260117_151237.dat