passes_logs/2026/01/17/R2M6_AANII_01/R2M6_AANII_01__20260117_064142_FENGYUN_3E_rec.log

#Pass ID: 20260117_064142_FENGYUN 3E
#Satellite: FENGYUN 3E
#Configuration: FENGYUN 3E
#almurnet v.1.7.20240730
#Start time: 2026-01-17 06:41:43

#Version: 2.2.20231116
#Station: R2M6_AANII_01
#Location: 30.233357 lon 59.946436 lat
#TLE: 1 49008U 21062A   26016.27412410  .00000434  00000+0  22502-3 0  9992
#TLE: 2 49008  98.7486  21.3880 0002096 134.9721 225.1626 14.19886506235025

#Time	Az	El	Level	Level2	SNR	BER	BlckErr	Temp	State	Recorded	gain1	gain2
2026-01-17 06:41:43.53	9.74	7.05	-31.3	-36.1	4.2	8.34e-01	0	41	0	0	23	6253
2026-01-17 06:41:46.54	9.45	7.23	-30.8	-34.5	6.1	3.04e-01	0	41	0	7340032	22	5493
2026-01-17 06:41:49.55	9.15	7.42	-30.8	-34.4	6.2	2.90e-01	0	41	0	28311552	22	5450
2026-01-17 06:41:52.56	8.85	7.60	-29.8	-32.0	8.4	5.14e-02	0	41	0	50331648	20	4680
2026-01-17 06:41:55.56	8.55	7.79	-28.2	-29.3	11.3	1.52e-03	0	41	0	72351744	17	4096
2026-01-17 06:41:58.56	8.24	7.98	-27.0	-27.6	12.8	7.20e-05	0	41	0	93323264	15	3858
2026-01-17 06:42:01.56	7.93	8.17	-26.7	-27.2	13.3	4.57e-05	0	42	0	115343360	14	3852
2026-01-17 06:42:04.56	7.61	8.36	-26.9	-27.7	13.1	1.02e-05	0	42	0	137363456	14	3973
2026-01-17 06:42:07.57	7.29	8.55	-26.4	-26.8	13.6	1.37e-05	0	42	0	158334976	14	3736
2026-01-17 06:42:10.57	6.97	8.74	-26.5	-26.9	13.6	9.10e-06	0	42	0	180355072	14	3767
2026-01-17 06:42:13.58	6.63	8.93	-26.5	-27.4	13.6	1.60e-05	0	42	0	202375168	13	3989
2026-01-17 06:42:16.59	6.30	9.12	-26.6	-27.5	13.5	1.48e-05	0	42	0	224395264	13	4022
2026-01-17 06:42:19.59	5.96	9.31	-26.3	-26.9	13.9	4.50e-06	0	42	0	245366784	13	3857
2026-01-17 06:42:22.59	5.62	9.50	-26.6	-27.5	13.6	1.71e-05	0	42	0	267386880	13	4018
2026-01-17 06:42:25.59	5.27	9.70	-26.6	-27.5	13.6	1.14e-05	0	42	0	289406976	13	4025
2026-01-17 06:42:28.60	4.92	9.89	-26.4	-27.1	13.8	3.40e-06	0	42	0	310378496	13	3899
2026-01-17 06:42:31.59	4.56	10.08	-26.2	-26.6	14.2	5.70e-06	0	42	0	332398592	13	3782
2026-01-17 06:42:34.59	4.20	10.28	-26.1	-26.6	14.2	2.20e-06	0	42	0	354418688	13	3779
2026-01-17 06:42:37.59	3.83	10.47	-26.4	-27.1	13.9	5.70e-06	0	42	0	375390208	13	3899
2026-01-17 06:42:40.60	3.46	10.67	-26.1	-26.5	14.3	2.20e-06	0	42	0	397410304	13	3753
2026-01-17 06:42:43.60	3.08	10.86	-26.2	-26.8	14.1	3.40e-06	0	42	0	418381824	13	3828
2026-01-17 06:42:46.61	2.69	11.06	-26.1	-26.4	14.3	0.00e+00	0	42	0	440401920	13	3730
2026-01-17 06:42:49.62	2.30	11.25	-26.1	-26.4	14.3	1.10e-06	0	43	0	462422016	13	3737
2026-01-17 06:42:52.63	1.91	11.45	-26.0	-26.8	14.4	1.10e-06	0	43	0	483393536	12	3924
2026-01-17 06:42:55.63	1.51	11.65	-26.0	-26.7	14.5	1.10e-06	0	42	0	505413632	12	3909
2026-01-17 06:42:58.64	1.10	11.84	-26.5	-27.8	13.8	3.40e-06	0	43	0	527433728	12	4197
2026-01-17 06:43:01.63	0.70	12.04	-26.6	-27.6	13.7	3.40e-06	0	43	0	548405248	13	4021
2026-01-17 06:43:04.62	0.28	12.23	-26.4	-27.1	14.0	2.20e-06	0	43	0	570425344	13	3895
2026-01-17 06:43:07.63	359.86	12.43	-26.3	-26.9	14.1	0.00e+00	0	43	0	592445440	13	3845
2026-01-17 06:43:10.63	359.43	12.63	-25.7	-26.1	14.9	0.00e+00	0	43	0	613416960	12	3762
2026-01-17 06:43:13.63	359.00	12.83	-26.0	-26.7	14.6	0.00e+00	0	43	0	635437056	12	3898
2026-01-17 06:43:16.64	358.56	13.02	-25.9	-26.4	14.7	0.00e+00	0	43	0	657457152	12	3833
2026-01-17 06:43:19.65	358.11	13.22	-25.9	-26.4	14.7	0.00e+00	0	43	0	679477248	12	3819
2026-01-17 06:43:22.66	357.66	13.42	-26.1	-26.8	14.5	0.00e+00	0	43	0	700448768	12	3932
2026-01-17 06:43:25.66	357.20	13.61	-25.9	-26.5	14.7	0.00e+00	0	43	0	722468864	12	3859
2026-01-17 06:43:28.67	356.73	13.81	-25.8	-26.2	14.9	0.00e+00	0	43	0	744488960	12	3784
2026-01-17 06:43:31.69	356.26	14.01	-25.9	-26.4	14.7	0.00e+00	0	43	0	766509056	12	3831
2026-01-17 06:43:34.69	355.78	14.20	-25.4	-25.9	15.4	0.00e+00	0	43	0	787480576	11	3806
2026-01-17 06:43:37.69	355.30	14.39	-25.5	-26.1	15.3	0.00e+00	0	43	0	809500672	11	3856
2026-01-17 06:43:40.69	354.81	14.59	-25.6	-26.3	15.2	0.00e+00	0	43	0	831520768	11	3900
2026-01-17 06:43:43.71	354.31	14.78	-25.6	-26.3	15.2	0.00e+00	0	43	0	852492288	11	3902
2026-01-17 06:43:46.70	353.81	14.98	-25.3	-25.7	15.5	0.00e+00	0	43	0	874512384	11	3752
2026-01-17 06:43:49.72	353.30	15.17	-25.2	-25.4	15.7	0.00e+00	0	43	0	896532480	11	3697
2026-01-17 06:43:52.72	352.78	15.36	-25.4	-25.9	15.4	0.00e+00	0	43	0	917504000	11	3812
2026-01-17 06:43:55.72	352.26	15.55	-25.1	-25.3	15.8	0.00e+00	0	43	0	939524096	11	3652
2026-01-17 06:43:58.72	351.73	15.74	-25.3	-25.6	15.6	0.00e+00	0	43	0	961544192	11	3740
2026-01-17 06:44:01.73	351.19	15.93	-25.3	-25.6	15.7	0.00e+00	0	43	0	982515712	11	3733
2026-01-17 06:44:04.72	350.65	16.12	-25.5	-26.1	15.4	0.00e+00	0	43	0	1004535808	11	3860
2026-01-17 06:44:07.74	350.10	16.30	-25.0	-25.0	16.0	0.00e+00	0	43	0	1026555904	11	3597
2026-01-17 06:44:10.74	349.54	16.49	-24.8	-25.1	16.2	0.00e+00	0	43	0	1047527424	10	3708
2026-01-17 06:44:13.74	348.97	16.67	-24.4	-24.3	16.7	0.00e+00	0	43	0	1069547520	10	3529
2026-01-17 06:44:16.75	348.40	16.85	-24.5	-25.0	16.5	0.00e+00	0	43	0	1091567616	9	3785
2026-01-17 06:44:19.76	347.82	17.03	-24.7	-25.4	16.4	0.00e+00	0	43	0	1112539136	9	3883
2026-01-17 06:44:22.77	347.23	17.21	-24.7	-25.3	16.4	0.00e+00	0	43	0	1134559232	9	3874
2026-01-17 06:44:25.77	346.64	17.39	-24.8	-25.5	16.3	0.00e+00	0	43	0	1156579328	9	3911
2026-01-17 06:44:28.75	346.05	17.56	-25.4	-26.2	15.7	0.00e+00	0	43	0	1177550848	10	3976
2026-01-17 06:44:31.77	345.43	17.74	-24.9	-25.3	16.2	0.00e+00	0	43	0	1199570944	10	3761
2026-01-17 06:44:34.78	344.82	17.91	-24.8	-25.0	16.3	0.00e+00	0	43	0	1221591040	10	3687
2026-01-17 06:44:37.79	344.20	18.07	-24.3	-24.4	16.9	0.00e+00	0	43	0	1243611136	9	3652
2026-01-17 06:44:40.78	343.57	18.24	-24.5	-24.8	16.7	0.00e+00	0	43	0	1264582656	9	3755
2026-01-17 06:44:43.78	342.94	18.40	-24.5	-25.0	16.6	0.00e+00	0	43	0	1286602752	9	3792
2026-01-17 06:44:46.79	342.29	18.56	-24.7	-25.2	16.5	0.00e+00	0	43	0	1308622848	9	3850
2026-01-17 06:44:49.80	341.64	18.72	-24.6	-25.1	16.5	0.00e+00	0	43	0	1329594368	9	3816
2026-01-17 06:44:52.80	340.99	18.88	-24.5	-24.8	16.7	0.00e+00	0	43	0	1351614464	9	3744
2026-01-17 06:44:55.81	340.32	19.03	-24.7	-25.3	16.4	0.00e+00	0	43	0	1373634560	9	3855
2026-01-17 06:44:58.82	339.65	19.18	-24.2	-24.3	17.0	0.00e+00	0	43	0	1394606080	9	3640
2026-01-17 06:45:01.82	338.97	19.32	-24.2	-24.3	17.0	0.00e+00	0	43	0	1416626176	9	3634
2026-01-17 06:45:04.82	338.29	19.47	-24.2	-24.2	17.0	0.00e+00	0	43	0	1438646272	9	3620
2026-01-17 06:45:07.83	337.60	19.61	-24.6	-25.0	16.6	0.00e+00	0	43	0	1459617792	9	3797
2026-01-17 06:45:10.83	336.91	19.74	-24.3	-24.4	16.9	0.00e+00	0	43	0	1481637888	9	3660
2026-01-17 06:45:13.85	336.20	19.87	-24.0	-23.8	17.2	0.00e+00	0	43	0	1503657984	9	3525
2026-01-17 06:45:16.85	335.50	20.00	-23.7	-23.8	17.5	0.00e+00	0	43	0	1525678080	8	3615
2026-01-17 06:45:19.85	334.78	20.12	-23.7	-23.7	17.5	0.00e+00	0	44	0	1546649600	8	3597
2026-01-17 06:45:22.86	334.06	20.24	-23.9	-24.2	17.3	0.00e+00	0	43	0	1568669696	8	3714
2026-01-17 06:45:25.87	333.33	20.36	-23.6	-23.6	17.6	0.00e+00	0	43	0	1589641216	8	3569
2026-01-17 06:45:28.88	332.60	20.47	-23.6	-23.5	17.6	0.00e+00	0	43	0	1611661312	8	3556
2026-01-17 06:45:31.89	331.87	20.58	-23.5	-23.4	17.7	0.00e+00	0	44	0	1633681408	8	3523
2026-01-17 06:45:34.90	331.12	20.68	-23.4	-23.1	17.9	0.00e+00	0	43	0	1655701504	8	3469
2026-01-17 06:45:37.91	330.38	20.78	-23.3	-23.4	18.0	0.00e+00	0	43	0	1676673024	7	3621
2026-01-17 06:45:40.90	329.63	20.87	-23.4	-23.6	17.9	0.00e+00	0	43	0	1698693120	7	3680
2026-01-17 06:45:43.90	328.87	20.96	-23.3	-23.4	18.0	0.00e+00	0	43	0	1720713216	7	3629
2026-01-17 06:45:46.90	328.12	21.04	-23.4	-23.6	17.8	0.00e+00	0	44	0	1741684736	7	3679
2026-01-17 06:45:49.91	327.35	21.12	-23.4	-23.6	17.9	0.00e+00	0	43	0	1763704832	7	3673
2026-01-17 06:45:52.92	326.58	21.19	-23.5	-23.7	17.8	0.00e+00	0	43	0	1785724928	7	3702
2026-01-17 06:45:55.93	325.81	21.25	-23.6	-23.9	17.7	0.00e+00	0	43	0	1806696448	7	3756
2026-01-17 06:45:58.93	325.04	21.32	-23.5	-23.9	17.7	0.00e+00	0	43	0	1828716544	7	3734
2026-01-17 06:46:01.93	324.26	21.37	-23.6	-24.0	17.7	0.00e+00	0	43	0	1850736640	7	3757
2026-01-17 06:46:04.93	323.48	21.42	-23.5	-23.7	17.8	0.00e+00	0	43	0	1872756736	7	3698
2026-01-17 06:46:07.94	322.70	21.47	-23.5	-23.8	17.8	0.00e+00	0	43	0	1893728256	7	3711
2026-01-17 06:46:10.94	321.92	21.51	-23.6	-24.0	17.7	0.00e+00	0	43	0	1915748352	7	3757
2026-01-17 06:46:13.95	321.13	21.54	-23.8	-24.3	17.5	0.00e+00	0	43	0	1937768448	7	3842
2026-01-17 06:46:16.96	320.34	21.57	-23.4	-23.5	17.9	0.00e+00	0	43	0	1958739968	7	3655
2026-01-17 06:46:19.97	319.55	21.59	-23.3	-23.3	18.0	0.00e+00	0	43	0	1980760064	7	3612
2026-01-17 06:46:22.97	318.76	21.61	-23.4	-23.6	17.9	0.00e+00	0	43	0	2002780160	7	3671
2026-01-17 06:46:25.98	317.97	21.62	-23.4	-23.5	17.9	0.00e+00	0	44	0	2023751680	7	3647
2026-01-17 06:46:28.98	317.18	21.62	-23.5	-23.7	17.8	0.00e+00	0	44	0	2045771776	7	3691
2026-01-17 06:46:31.98	316.39	21.62	-23.5	-23.8	17.8	0.00e+00	0	44	0	2067791872	7	3713
2026-01-17 06:46:34.98	315.60	21.61	-23.4	-23.5	17.9	0.00e+00	0	43	0	2089811968	7	3647
2026-01-17 06:46:38.00	314.80	21.60	-23.5	-23.7	17.8	0.00e+00	0	43	0	2110783488	7	3706
2026-01-17 06:46:41.01	314.01	21.58	-23.6	-24.0	17.6	0.00e+00	0	44	0	2132803584	7	3771
2026-01-17 06:46:44.01	313.22	21.56	-23.4	-23.6	17.9	0.00e+00	0	44	0	2153775104	7	3687
2026-01-17 06:46:47.01	312.43	21.53	-23.3	-23.3	18.0	0.00e+00	0	44	0	2175795200	7	3607
2026-01-17 06:46:50.02	311.65	21.49	-23.6	-24.0	17.7	0.00e+00	0	44	0	2197815296	7	3769
2026-01-17 06:46:53.03	310.86	21.45	-24.0	-24.7	17.3	0.00e+00	0	44	0	2218786816	7	3930
2026-01-17 06:46:56.03	310.08	21.41	-23.3	-23.4	17.9	0.00e+00	0	44	0	2240806912	7	3643
2026-01-17 06:46:59.04	309.30	21.35	-23.6	-24.0	17.7	0.00e+00	0	43	0	2262827008	7	3760
2026-01-17 06:47:02.04	308.52	21.30	-23.6	-24.0	17.7	0.00e+00	0	43	0	2284847104	7	3760
2026-01-17 06:47:05.04	307.75	21.23	-23.9	-24.6	17.3	0.00e+00	0	43	0	2305818624	7	3907
2026-01-17 06:47:08.06	306.97	21.16	-23.8	-24.3	17.5	0.00e+00	0	44	0	2327838720	7	3840
2026-01-17 06:47:11.06	306.21	21.09	-23.7	-24.3	17.5	0.00e+00	0	43	0	2349858816	7	3831
2026-01-17 06:47:14.05	305.45	21.01	-23.6	-23.9	17.7	0.00e+00	0	44	0	2370830336	7	3738
2026-01-17 06:47:17.05	304.69	20.93	-23.6	-24.0	17.6	0.00e+00	0	44	0	2392850432	7	3772
2026-01-17 06:47:20.06	303.93	20.84	-23.5	-23.8	17.8	0.00e+00	0	44	0	2414870528	7	3721
2026-01-17 06:47:23.08	303.18	20.74	-23.6	-24.1	17.6	0.00e+00	0	44	0	2435842048	7	3788
2026-01-17 06:47:26.09	302.43	20.64	-23.3	-23.4	17.9	0.00e+00	0	43	0	2457862144	7	3624
2026-01-17 06:47:29.09	301.69	20.54	-23.3	-23.4	17.9	0.00e+00	0	43	0	2479882240	7	3634
2026-01-17 06:47:32.08	300.96	20.43	-23.7	-24.2	17.5	0.00e+00	0	44	0	2501902336	7	3804
2026-01-17 06:47:35.07	300.23	20.32	-23.9	-24.6	17.3	0.00e+00	0	44	0	2522873856	7	3910
2026-01-17 06:47:38.08	299.51	20.20	-23.9	-24.6	17.3	0.00e+00	0	44	0	2544893952	7	3903
2026-01-17 06:47:41.09	298.78	20.08	-23.4	-23.6	17.8	0.00e+00	0	43	0	2566914048	7	3673
2026-01-17 06:47:44.10	298.07	19.96	-23.4	-23.5	17.9	0.00e+00	0	44	0	2587885568	7	3662
2026-01-17 06:47:47.11	297.36	19.83	-23.4	-23.5	17.8	0.00e+00	0	44	0	2609905664	7	3651
2026-01-17 06:47:50.12	296.66	19.69	-23.3	-23.4	17.9	0.00e+00	0	44	0	2631925760	7	3640
2026-01-17 06:47:53.12	295.96	19.56	-23.4	-23.5	17.8	0.00e+00	0	44	0	2652897280	7	3662
2026-01-17 06:47:56.13	295.27	19.42	-23.6	-23.9	17.6	0.00e+00	0	44	0	2674917376	7	3743
2026-01-17 06:47:59.15	294.59	19.27	-23.7	-24.2	17.4	0.00e+00	0	43	0	2696937472	7	3805
2026-01-17 06:48:02.14	293.91	19.13	-23.6	-24.0	17.5	0.00e+00	0	43	0	2717908992	7	3761
2026-01-17 06:48:05.14	293.24	18.98	-23.8	-24.4	17.4	0.00e+00	0	44	0	2739929088	7	3857
2026-01-17 06:48:08.15	292.58	18.82	-23.5	-23.8	17.7	0.00e+00	0	43	0	2761949184	7	3713
2026-01-17 06:48:11.16	291.92	18.67	-23.6	-24.0	17.5	0.00e+00	0	44	0	2782920704	7	3772
2026-01-17 06:48:14.16	291.27	18.51	-23.8	-24.4	17.3	0.00e+00	0	44	0	2804940800	7	3852
2026-01-17 06:48:17.18	290.63	18.34	-24.0	-24.7	17.1	0.00e+00	0	44	0	2826960896	7	3942
2026-01-17 06:48:20.18	289.99	18.18	-23.8	-24.3	17.3	0.00e+00	0	43	0	2848980992	7	3846
2026-01-17 06:48:23.19	289.36	18.01	-23.8	-24.4	17.3	0.00e+00	0	43	0	2869952512	7	3859
2026-01-17 06:48:26.20	288.74	17.84	-24.1	-24.5	17.0	0.00e+00	0	43	0	2891972608	8	3794
2026-01-17 06:48:29.22	288.12	17.67	-24.4	-25.3	16.5	0.00e+00	0	44	0	2913992704	8	3968
2026-01-17 06:48:32.23	287.51	17.49	-24.5	-25.4	16.5	0.00e+00	0	44	0	2934964224	8	3985
2026-01-17 06:48:35.24	286.91	17.32	-24.3	-24.9	16.7	0.00e+00	0	44	0	2956984320	8	3885
2026-01-17 06:48:38.23	286.32	17.14	-24.3	-24.9	16.8	0.00e+00	0	43	0	2979004416	8	3869
2026-01-17 06:48:41.23	285.73	16.96	-24.2	-24.8	16.8	0.00e+00	0	43	0	2999975936	8	3842
2026-01-17 06:48:44.24	285.15	16.78	-24.2	-24.8	16.8	0.00e+00	0	43	0	3021996032	8	3855
2026-01-17 06:48:47.24	284.58	16.60	-24.4	-25.1	16.6	0.00e+00	0	44	0	3044016128	8	3928
2026-01-17 06:48:50.26	284.01	16.41	-24.5	-25.4	16.4	0.00e+00	0	43	0	3066036224	8	3998
2026-01-17 06:48:53.25	283.46	16.23	-24.4	-25.1	16.6	0.00e+00	0	43	0	3087007744	8	3932
2026-01-17 06:48:56.24	282.91	16.04	-24.4	-25.3	16.4	0.00e+00	0	44	0	3109027840	8	3979
2026-01-17 06:48:59.26	282.36	15.85	-24.5	-24.9	16.4	0.00e+00	0	44	0	3131047936	9	3787
2026-01-17 06:49:02.27	281.82	15.66	-24.6	-25.2	16.2	0.00e+00	0	44	0	3152019456	9	3851
2026-01-17 06:49:05.28	281.29	15.47	-24.6	-25.1	16.3	0.00e+00	0	44	0	3174039552	9	3828
2026-01-17 06:49:08.29	280.77	15.28	-24.9	-25.4	15.9	0.00e+00	0	44	0	3196059648	10	3778
2026-01-17 06:49:11.29	280.25	15.08	-24.9	-25.3	15.9	0.00e+00	0	44	0	3218079744	10	3764
2026-01-17 06:49:14.30	279.74	14.89	-25.3	-26.1	15.5	0.00e+00	0	44	0	3239051264	10	3950
2026-01-17 06:49:17.31	279.23	14.70	-25.5	-26.2	15.1	0.00e+00	0	44	0	3261071360	11	3872
2026-01-17 06:49:20.32	278.74	14.50	-25.3	-25.6	15.4	0.00e+00	0	44	0	3282042880	11	3737
2026-01-17 06:49:23.34	278.24	14.31	-25.4	-25.9	15.3	0.00e+00	0	43	0	3304062976	11	3816
2026-01-17 06:49:26.34	277.76	14.11	-25.2	-25.5	15.5	0.00e+00	0	44	0	3326083072	11	3713
2026-01-17 06:49:29.35	277.28	13.91	-25.2	-25.5	15.5	0.00e+00	0	44	0	3348103168	11	3707
2026-01-17 06:49:32.35	276.81	13.72	-25.0	-25.1	15.7	0.00e+00	0	44	0	3369074688	11	3616
2026-01-17 06:49:35.36	276.35	13.52	-25.3	-25.7	15.4	0.00e+00	0	43	0	3391094784	11	3760
2026-01-17 06:49:38.37	275.89	13.32	-25.4	-25.9	15.2	0.00e+00	0	44	0	3413114880	11	3818
2026-01-17 06:49:41.38	275.43	13.13	-25.5	-26.2	15.0	0.00e+00	0	44	0	3435134976	11	3888
2026-01-17 06:49:44.38	274.99	12.93	-25.5	-25.6	15.0	0.00e+00	0	43	0	3456106496	12	3650
2026-01-17 06:49:47.38	274.55	12.73	-25.5	-26.2	15.0	0.00e+00	0	44	0	3478126592	11	3875
2026-01-17 06:49:50.39	274.11	12.53	-25.6	-26.3	14.9	0.00e+00	0	44	0	3500146688	11	3915
2026-01-17 06:49:53.41	273.68	12.33	-25.3	-25.7	15.2	1.10e-06	0	44	0	3521118208	11	3774
2026-01-17 06:49:56.41	273.26	12.14	-25.1	-25.3	15.5	0.00e+00	0	44	0	3543138304	11	3662
2026-01-17 06:49:59.41	272.84	11.94	-25.2	-25.5	15.4	0.00e+00	0	44	0	3565158400	11	3705
2026-01-17 06:50:02.42	272.43	11.74	-25.4	-25.9	15.2	0.00e+00	0	43	0	3586129920	11	3811
2026-01-17 06:50:05.43	272.02	11.54	-25.6	-26.5	14.8	1.10e-06	0	43	0	3608150016	11	3949
2026-01-17 06:50:08.45	271.62	11.35	-25.8	-26.8	14.6	0.00e+00	0	44	0	3630170112	11	4026
2026-01-17 06:50:11.46	271.23	11.15	-25.8	-26.7	14.7	0.00e+00	0	44	0	3652190208	11	4014
2026-01-17 06:50:14.46	270.84	10.95	-26.2	-27.3	14.0	2.20e-06	0	43	0	3673161728	12	4067
2026-01-17 06:50:17.46	270.45	10.76	-25.5	-25.7	14.8	1.10e-06	0	44	0	3695181824	12	3682
2026-01-17 06:50:20.46	270.07	10.56	-25.5	-26.2	14.9	0.00e+00	0	44	0	3717201920	11	3885
2026-01-17 06:50:23.47	269.70	10.37	-25.8	-26.8	14.6	0.00e+00	0	44	0	3738173440	11	4040
2026-01-17 06:50:26.47	269.33	10.17	-25.9	-26.5	14.4	0.00e+00	0	44	0	3760193536	12	3862
2026-01-17 06:50:29.49	268.97	9.98	-25.8	-26.3	14.5	0.00e+00	0	44	0	3782213632	12	3802
2026-01-17 06:50:32.48	268.61	9.78	-25.9	-26.5	14.4	0.00e+00	0	44	0	3804233728	12	3863
2026-01-17 06:50:35.49	268.25	9.59	-26.1	-26.9	14.0	2.20e-06	0	44	0	3825205248	12	3975
2026-01-17 06:50:38.50	267.90	9.39	-25.8	-26.4	14.4	0.00e+00	0	44	0	3847225344	12	3839
2026-01-17 06:50:41.52	267.56	9.20	-25.8	-26.3	14.4	0.00e+00	0	44	0	3868196864	12	3813
2026-01-17 06:50:44.54	267.22	9.01	-26.0	-26.8	14.1	4.50e-06	0	44	0	3890216960	12	3941
2026-01-17 06:50:47.54	266.88	8.82	-26.0	-26.7	14.1	1.10e-06	0	44	0	3912237056	12	3928
2026-01-17 06:50:50.55	266.55	8.62	-26.3	-27.5	13.6	5.70e-06	0	44	0	3934257152	12	4136
2026-01-17 06:50:53.56	266.22	8.43	-26.5	-27.9	13.4	1.02e-05	0	44	0	3955228672	12	4243
2026-01-17 06:50:56.56	265.90	8.24	-26.9	-28.3	12.9	4.34e-05	0	44	0	3977248768	13	4235
2026-01-17 06:50:59.57	265.58	8.05	-26.5	-27.5	13.3	2.97e-05	0	44	0	3999268864	13	4013
2026-01-17 06:51:02.57	265.27	7.86	-26.8	-28.1	13.0	3.08e-05	0	43	0	4020240384	13	4177
2026-01-17 06:51:05.57	264.96	7.68	-26.7	-27.3	13.1	6.98e-05	0	44	0	4042260480	14	3874
2026-01-17 06:51:08.57	264.65	7.49	-26.9	-28.4	12.7	5.72e-05	0	43	0	4064280576	13	4264
2026-01-17 06:51:11.57	264.35	7.30	-26.8	-27.7	12.8	5.49e-05	0	44	0	4085252096	14	3971
2026-01-17 06:51:14.57	264.06	7.11	-26.9	-27.9	12.7	7.32e-05	0	44	0	4107272192	14	4031
2026-01-17 06:51:17.57	263.76	6.93	-33.2	-42.7	3.8	8.47e-01	0	44	104	4113563648	26	10780

#Closed at: 2026-01-17 06:51:17
#Recorded file [4113 MB]: D:/data/31010_260117_094145.dat