passes_logs/2026/01/17/R2M6_AANII_01/R2M6_AANII_01__20260117_103017_SUOMI_NPP_rec.log

#Pass ID: 20260117_103017_SUOMI NPP
#Satellite: SUOMI NPP
#Configuration: NPP
#almurnet v.1.7.20240730
#Start time: 2026-01-17 10:30:18

#Version: 2.2.20231116
#Station: R2M6_AANII_01
#Location: 30.233357 lon 59.946436 lat
#TLE: 1 37849U 11061A   26016.23176763  .00000061  00000+0  49926-4 0  9990
#TLE: 2 37849  98.7812 318.2698 0002434  61.5135 298.6286 14.19525545736883

#Time	Az	El	Level	Level2	SNR	BER	BlckErr	Temp	State	Recorded	gain1	gain2
2026-01-17 10:30:18.04	163.57	7.01	-32.0	-38.3	4.3	1.43e+00	0	41	0	0	25	7403
2026-01-17 10:30:21.05	163.61	7.25	-31.9	-37.5	6.3	2.61e-01	0	41	0	1048576	24	6858
2026-01-17 10:30:24.06	163.64	7.48	-32.0	-38.0	6.0	2.96e-01	0	41	0	7340032	24	7168
2026-01-17 10:30:27.07	163.67	7.72	-31.6	-35.8	7.6	1.59e-01	0	41	0	12582912	24	5859
2026-01-17 10:30:30.07	163.71	7.96	-31.3	-35.3	8.4	5.71e-02	0	41	0	17825792	23	5669
2026-01-17 10:30:33.06	163.74	8.20	-31.2	-34.9	8.7	3.80e-02	0	41	0	24117248	23	5489
2026-01-17 10:30:36.07	163.78	8.45	-31.1	-34.4	9.1	3.29e-02	0	41	0	29360128	23	5272
2026-01-17 10:30:39.07	163.81	8.70	-31.4	-35.5	8.3	2.65e-02	0	41	0	35651584	23	5744
2026-01-17 10:30:42.07	163.85	8.95	-31.5	-35.7	8.1	5.99e-02	0	41	0	40894464	23	5875
2026-01-17 10:30:45.08	163.89	9.20	-31.4	-35.5	8.4	3.43e-02	0	41	0	46137344	23	5764
2026-01-17 10:30:48.08	163.92	9.45	-31.3	-35.2	8.7	3.20e-02	0	42	0	52428800	23	5607
2026-01-17 10:30:51.09	163.96	9.71	-31.3	-34.9	8.8	3.82e-02	0	42	0	57671680	23	5459
2026-01-17 10:30:54.11	164.00	9.97	-31.2	-34.5	9.2	3.67e-02	0	42	0	62914560	23	5267
2026-01-17 10:30:57.11	164.04	10.24	-30.8	-33.7	10.2	5.00e-03	0	42	0	69206016	22	5035
2026-01-17 10:31:00.12	164.08	10.50	-30.6	-33.2	10.5	3.91e-03	0	42	0	74448896	22	4832
2026-01-17 10:31:03.12	164.12	10.77	-30.7	-33.5	10.4	4.20e-03	0	42	0	80740352	22	4941
2026-01-17 10:31:06.13	164.16	11.04	-30.9	-33.8	10.2	4.18e-03	0	42	0	85983232	22	5043
2026-01-17 10:31:09.14	164.20	11.32	-30.7	-33.2	10.7	2.87e-03	0	42	0	91226112	22	4810
2026-01-17 10:31:12.14	164.24	11.60	-30.8	-33.4	10.5	3.18e-03	0	42	0	97517568	22	4886
2026-01-17 10:31:15.15	164.28	11.88	-30.6	-32.9	11.0	1.58e-03	0	42	0	102760448	22	4660
2026-01-17 10:31:18.16	164.32	12.16	-30.4	-32.3	11.3	8.93e-04	0	42	0	108003328	22	4476
2026-01-17 10:31:21.17	164.37	12.45	-30.2	-32.0	11.9	3.27e-04	0	42	0	114294784	21	4445
2026-01-17 10:31:24.16	164.41	12.74	-30.0	-31.4	12.4	3.24e-04	0	42	0	119537664	21	4227
2026-01-17 10:31:27.17	164.45	13.04	-29.9	-31.6	12.5	9.30e-05	0	42	0	125829120	20	4397
2026-01-17 10:31:30.17	164.50	13.33	-29.9	-31.7	12.6	1.08e-04	0	42	0	131072000	20	4404
2026-01-17 10:31:33.17	164.55	13.63	-29.7	-30.9	13.1	3.96e-05	0	42	0	136314880	20	4149
2026-01-17 10:31:36.18	164.59	13.94	-29.6	-30.6	13.4	1.37e-05	0	43	0	142606336	20	4055
2026-01-17 10:31:39.17	164.64	14.25	-29.8	-31.1	13.0	2.59e-05	0	42	0	147849216	20	4207
2026-01-17 10:31:42.17	164.69	14.56	-29.7	-30.9	13.2	6.80e-06	0	42	0	153092096	20	4137
2026-01-17 10:31:45.19	164.74	14.88	-29.6	-30.7	13.4	1.37e-05	0	43	0	159383552	20	4061
2026-01-17 10:31:48.19	164.79	15.20	-29.6	-30.6	13.5	8.30e-06	0	42	0	164626432	20	4035
2026-01-17 10:31:51.19	164.84	15.53	-29.7	-30.9	13.3	1.83e-05	0	43	0	170917888	20	4136
2026-01-17 10:31:54.21	164.89	15.86	-29.6	-30.7	13.5	2.59e-05	0	43	0	176160768	20	4071
2026-01-17 10:31:57.22	164.94	16.20	-29.7	-30.8	13.4	7.60e-06	0	42	0	181403648	20	4102
2026-01-17 10:32:00.22	165.00	16.54	-29.5	-30.2	13.8	6.80e-06	0	43	0	187695104	20	3915
2026-01-17 10:32:03.21	165.05	16.88	-29.4	-30.3	14.2	2.20e-06	0	43	0	192937984	19	4036
2026-01-17 10:32:06.21	165.11	17.23	-29.4	-30.4	14.1	7.00e-07	0	43	0	198180864	19	4057
2026-01-17 10:32:09.21	165.17	17.58	-29.3	-30.1	14.4	1.50e-06	0	43	0	204472320	19	3954
2026-01-17 10:32:12.23	165.22	17.95	-29.2	-29.9	14.5	7.00e-07	0	43	0	209715200	19	3904
2026-01-17 10:32:15.22	165.28	18.31	-29.4	-30.3	14.2	0.00e+00	0	43	0	214958080	19	4018
2026-01-17 10:32:18.22	165.34	18.68	-29.5	-30.6	14.1	2.20e-06	0	43	0	221249536	19	4093
2026-01-17 10:32:21.22	165.41	19.06	-29.4	-30.4	14.2	7.00e-07	0	43	0	226492416	19	4030
2026-01-17 10:32:24.21	165.47	19.44	-29.4	-30.5	14.2	7.00e-07	0	43	0	232783872	19	4056
2026-01-17 10:32:27.22	165.53	19.82	-29.3	-30.2	14.4	7.00e-07	0	43	0	238026752	19	3976
2026-01-17 10:32:30.22	165.60	20.22	-29.4	-30.5	14.3	3.00e-06	0	43	0	243269632	19	4053
2026-01-17 10:32:33.23	165.67	20.62	-29.6	-31.0	13.9	2.20e-06	0	43	0	249561088	19	4207
2026-01-17 10:32:36.25	165.74	21.03	-29.9	-31.6	13.5	5.30e-06	0	43	0	254803968	19	4408
2026-01-17 10:32:39.25	165.81	21.44	-30.0	-31.8	13.0	3.89e-05	0	43	0	261095424	20	4400
2026-01-17 10:32:42.26	165.88	21.86	-30.3	-32.5	12.4	1.31e-04	0	43	0	266338304	20	4662
2026-01-17 10:32:45.27	165.95	22.29	-30.2	-32.2	12.6	9.99e-05	0	43	0	271581184	20	4544
2026-01-17 10:32:48.27	166.03	22.73	-29.9	-31.3	13.3	2.51e-05	0	43	0	277872640	20	4247
2026-01-17 10:32:51.27	166.11	23.17	-30.1	-31.7	13.1	4.80e-05	0	43	0	283115520	20	4359
2026-01-17 10:32:54.28	166.19	23.62	-30.4	-32.6	12.6	7.85e-05	0	43	0	288358400	20	4638
2026-01-17 10:32:57.27	166.27	24.07	-30.4	-32.1	12.6	8.92e-05	0	43	0	294649856	21	4361
2026-01-17 10:33:00.28	166.35	24.54	-30.3	-31.8	12.8	6.25e-05	0	43	0	299892736	21	4284
2026-01-17 10:33:03.28	166.44	25.02	-30.2	-31.6	12.9	3.81e-05	0	43	0	305135616	21	4223
2026-01-17 10:33:06.28	166.52	25.50	-30.3	-31.9	12.7	7.62e-05	0	43	0	311427072	21	4315
2026-01-17 10:33:09.29	166.62	25.99	-30.4	-32.1	12.6	1.44e-04	0	43	0	316669952	21	4364
2026-01-17 10:33:12.29	166.71	26.49	-30.3	-31.8	12.8	6.40e-05	0	43	0	322961408	21	4287
2026-01-17 10:33:15.29	166.80	27.00	-30.4	-31.9	12.7	5.34e-05	0	43	0	328204288	21	4312
2026-01-17 10:33:18.29	166.90	27.52	-30.2	-31.5	13.1	3.58e-05	0	43	0	333447168	21	4165
2026-01-17 10:33:21.31	167.01	28.05	-30.5	-32.4	12.4	6.63e-05	0	43	0	339738624	21	4475
2026-01-17 10:33:24.32	167.11	28.60	-30.5	-32.2	12.6	9.30e-05	0	43	0	344981504	21	4400
2026-01-17 10:33:27.33	167.22	29.15	-30.1	-31.1	13.3	3.28e-05	0	43	0	350224384	21	4061
2026-01-17 10:33:30.33	167.33	29.71	-30.5	-32.2	12.7	3.50e-05	0	43	0	356515840	21	4376
2026-01-17 10:33:33.33	167.45	30.28	-30.8	-33.2	11.9	3.42e-04	0	43	0	361758720	21	4746
2026-01-17 10:33:36.35	167.57	30.87	-31.2	-33.9	11.2	7.69e-04	0	43	0	368050176	22	4892
2026-01-17 10:33:39.36	167.69	31.47	-31.0	-33.1	11.7	9.44e-04	0	43	0	373293056	22	4614
2026-01-17 10:33:42.37	167.82	32.08	-31.2	-34.0	11.1	8.35e-04	0	43	0	378535936	22	4939
2026-01-17 10:33:45.37	167.95	32.70	-31.5	-34.3	10.5	3.66e-03	0	43	0	384827392	23	4981
2026-01-17 10:33:48.37	168.08	33.33	-31.4	-33.9	11.1	2.80e-03	0	43	0	390070272	23	4796
2026-01-17 10:33:51.36	168.23	33.98	-31.0	-32.7	11.7	5.67e-04	0	43	0	395313152	23	4381
2026-01-17 10:33:54.36	168.37	34.64	-30.7	-32.3	12.3	2.65e-04	0	43	0	401604608	22	4342
2026-01-17 10:33:57.37	168.53	35.31	-30.0	-30.7	13.7	6.10e-06	0	43	0	406847488	21	3936
2026-01-17 10:34:00.36	168.68	36.00	-29.5	-29.9	14.4	7.00e-07	0	43	0	413138944	20	3793
2026-01-17 10:34:03.36	168.85	36.71	-29.6	-30.3	14.3	5.30e-06	0	43	0	418381824	20	3900
2026-01-17 10:34:06.36	169.02	37.42	-29.5	-29.9	14.6	0.00e+00	0	43	0	423624704	20	3784
2026-01-17 10:34:09.37	169.20	38.16	-29.1	-29.5	15.2	0.00e+00	0	43	0	429916160	19	3775
2026-01-17 10:34:12.38	169.39	38.92	-29.6	-30.8	14.4	7.00e-07	0	43	0	435159040	19	4120
2026-01-17 10:34:15.38	169.59	39.68	-29.4	-30.1	14.8	7.00e-07	0	43	0	440401920	19	3923
2026-01-17 10:34:18.39	169.79	40.47	-29.9	-31.0	13.9	5.30e-06	0	43	0	446693376	20	4088
2026-01-17 10:34:21.40	170.01	41.27	-30.4	-32.3	13.2	1.22e-05	0	43	0	451936256	20	4474
2026-01-17 10:34:24.41	170.23	42.10	-30.4	-31.9	13.0	7.55e-05	0	43	0	458227712	21	4282
2026-01-17 10:34:27.43	170.47	42.94	-30.4	-32.0	13.0	7.01e-05	0	43	0	463470592	21	4283
2026-01-17 10:34:30.43	170.72	43.80	-30.4	-31.7	13.2	5.11e-05	0	43	0	468713472	21	4198
2026-01-17 10:34:33.44	170.98	44.67	-30.3	-31.4	13.4	1.29e-05	0	43	0	475004928	21	4116
2026-01-17 10:34:36.44	171.26	45.57	-31.3	-33.8	11.5	2.04e-04	0	43	0	480247808	22	4827
2026-01-17 10:34:39.44	171.55	46.48	-31.9	-35.0	9.7	2.88e-03	0	43	0	485490688	24	5118
2026-01-17 10:34:42.44	171.86	47.42	-31.6	-33.9	10.7	4.19e-03	0	43	0	491782144	24	4688
2026-01-17 10:34:45.45	172.19	48.37	-31.7	-34.0	10.5	2.71e-03	0	43	0	497025024	24	4738
2026-01-17 10:34:48.46	172.54	49.35	-30.2	-31.3	13.5	2.59e-05	0	43	0	503316480	21	4069
2026-01-17 10:34:51.46	172.91	50.34	-29.1	-29.3	15.5	0.00e+00	0	43	0	508559360	19	3703
2026-01-17 10:34:54.47	173.30	51.36	-29.3	-29.9	15.1	0.00e+00	0	43	0	513802240	19	3844
2026-01-17 10:34:57.48	173.73	52.40	-30.0	-31.3	13.9	2.20e-06	0	43	0	520093696	20	4148
2026-01-17 10:35:00.48	174.18	53.46	-29.6	-30.2	14.6	7.00e-07	0	43	0	525336576	20	3842
2026-01-17 10:35:03.49	174.67	54.54	-29.1	-29.3	15.5	0.00e+00	0	43	0	530579456	19	3684
2026-01-17 10:35:06.50	175.19	55.64	-27.7	-27.5	17.4	0.00e+00	0	43	0	536870912	16	3532
2026-01-17 10:35:09.49	175.76	56.76	-27.2	-26.9	17.8	0.00e+00	0	43	0	542113792	15	3482
2026-01-17 10:35:12.49	176.37	57.89	-28.4	-29.2	16.5	0.00e+00	0	43	0	548405248	16	3932
2026-01-17 10:35:15.49	177.04	59.05	-27.7	-27.5	17.5	0.00e+00	0	43	0	553648128	16	3511
2026-01-17 10:35:18.50	177.77	60.23	-28.8	-29.6	16.0	0.00e+00	0	43	0	558891008	17	3943
2026-01-17 10:35:21.52	178.57	61.43	-27.9	-27.5	17.1	0.00e+00	0	43	0	565182464	17	3441
2026-01-17 10:35:24.52	179.45	62.64	-27.8	-27.7	17.4	0.00e+00	0	43	0	570425344	16	3568
2026-01-17 10:35:27.51	180.42	63.86	-28.7	-29.3	16.3	0.00e+00	0	43	0	575668224	17	3864
2026-01-17 10:35:30.51	181.50	65.10	-29.8	-30.6	14.4	0.00e+00	0	43	0	581959680	20	3959
2026-01-17 10:35:33.52	182.70	66.36	-29.1	-29.8	15.7	0.00e+00	0	43	0	587202560	18	3899
2026-01-17 10:35:36.53	184.06	67.62	-30.5	-32.3	13.6	2.20e-06	0	43	0	593494016	20	4450
2026-01-17 10:35:39.53	185.59	68.89	-30.6	-31.6	13.3	4.73e-05	0	43	0	598736896	22	4038
2026-01-17 10:35:42.54	187.33	70.16	-30.9	-32.9	12.8	3.81e-05	0	43	0	603979776	21	4549
2026-01-17 10:35:45.54	189.32	71.42	-31.4	-33.5	11.6	1.41e-03	0	43	0	610271232	23	4561
2026-01-17 10:35:48.54	191.61	72.68	-30.3	-31.0	13.7	2.21e-05	0	43	0	615514112	22	3862
2026-01-17 10:35:51.55	194.29	73.92	-32.0	-35.0	10.5	1.35e-03	0	43	0	620756992	24	5053
2026-01-17 10:35:54.57	197.44	75.14	-31.4	-32.8	12.0	5.68e-04	0	43	0	627048448	24	4237
2026-01-17 10:35:57.59	201.17	76.32	-32.0	-34.7	10.5	7.04e-03	0	43	0	632291328	24	4916
2026-01-17 10:36:00.58	205.56	77.43	-31.9	-34.4	10.8	5.49e-03	0	43	0	638582784	24	4796
2026-01-17 10:36:03.58	210.80	78.46	-31.8	-34.1	11.1	3.89e-03	0	43	0	643825664	24	4686
2026-01-17 10:36:06.59	217.06	79.40	-32.0	-34.8	10.6	1.54e-03	0	43	0	649068544	24	4954
2026-01-17 10:36:09.60	224.45	80.19	-31.1	-32.6	12.6	1.14e-04	0	43	0	655360000	23	4231
2026-01-17 10:36:12.60	232.95	80.79	-31.7	-33.7	11.4	4.84e-03	0	43	0	660602880	24	4550
2026-01-17 10:36:15.60	242.42	81.17	-31.0	-32.5	12.9	1.54e-04	0	43	0	665845760	22	4305
2026-01-17 10:36:18.60	252.46	81.30	-30.7	-31.8	13.4	7.85e-05	0	43	0	672137216	22	4088
2026-01-17 10:36:21.61	262.52	81.16	-32.1	-35.2	10.4	1.05e-03	0	43	0	677380096	24	5110
2026-01-17 10:36:24.62	271.98	80.77	-32.3	-35.4	9.7	7.92e-03	0	43	0	682622976	25	5088
2026-01-17 10:36:27.62	280.42	80.15	-31.3	-33.1	12.0	1.54e-04	0	43	0	688914432	23	4426
2026-01-17 10:36:30.61	287.70	79.36	-32.3	-35.6	10.1	1.77e-03	0	43	0	694157312	24	5263
2026-01-17 10:36:33.62	293.91	78.42	-31.3	-33.0	12.2	2.29e-04	0	43	0	700448768	23	4368
2026-01-17 10:36:36.61	299.09	77.38	-32.1	-35.0	10.5	3.02e-03	0	43	0	705691648	24	5007
2026-01-17 10:36:39.62	303.47	76.26	-30.7	-32.2	13.4	7.00e-07	0	43	0	710934528	21	4311
2026-01-17 10:36:42.62	307.14	75.09	-32.0	-34.9	10.5	1.62e-03	0	43	0	717225984	24	5013
2026-01-17 10:36:45.63	310.26	73.88	-32.2	-35.1	9.8	1.52e-02	0	43	0	722468864	25	5010
2026-01-17 10:36:48.64	312.92	72.64	-30.1	-31.2	14.3	0.00e+00	0	43	0	727711744	20	4096
2026-01-17 10:36:51.64	315.20	71.38	-32.8	-37.1	8.4	3.64e-02	0	43	0	734003200	25	5945
2026-01-17 10:36:54.65	317.18	70.12	-32.9	-37.0	8.1	6.39e-02	0	43	0	739246080	26	5782
2026-01-17 10:36:57.65	318.91	68.85	-32.4	-35.6	9.5	1.01e-02	0	43	0	745537536	25	5242
2026-01-17 10:37:00.65	320.43	67.59	-30.3	-30.9	13.7	3.94e-03	0	43	0	750780416	22	3831
2026-01-17 10:37:03.66	321.78	66.33	-29.1	-29.9	15.7	7.00e-07	0	43	0	756023296	18	3916
2026-01-17 10:37:06.67	322.98	65.08	-30.0	-31.0	14.4	0.00e+00	0	43	0	762314752	20	4059
2026-01-17 10:37:09.67	324.05	63.85	-30.0	-31.1	14.3	0.00e+00	0	43	0	767557632	20	4068
2026-01-17 10:37:12.67	325.02	62.62	-28.2	-28.1	17.0	0.00e+00	0	43	0	772800512	17	3576
2026-01-17 10:37:15.68	325.89	61.41	-29.0	-29.1	15.7	0.00e+00	0	44	0	779091968	19	3636
2026-01-17 10:37:18.69	326.69	60.22	-29.2	-29.5	15.5	0.00e+00	0	43	0	784334848	19	3735
2026-01-17 10:37:21.70	327.42	59.05	-31.3	-33.8	11.8	2.13e-05	0	43	0	790626304	22	4776
2026-01-17 10:37:24.71	328.09	57.89	-30.4	-31.2	13.4	2.67e-05	0	43	0	795869184	22	3942
2026-01-17 10:37:27.72	328.70	56.75	-30.2	-31.1	13.9	7.60e-06	0	43	0	801112064	21	3986
2026-01-17 10:37:30.72	329.27	55.64	-30.1	-31.5	13.9	3.00e-06	0	43	0	807403520	20	4202
2026-01-17 10:37:33.72	329.79	54.55	-30.0	-31.2	14.1	2.20e-06	0	43	0	812646400	20	4104
2026-01-17 10:37:36.74	330.28	53.47	-30.2	-31.1	13.9	9.10e-06	0	43	0	817889280	21	3991
2026-01-17 10:37:39.73	330.73	52.42	-30.3	-31.8	13.6	3.80e-06	0	43	0	824180736	20	4310
2026-01-17 10:37:42.73	331.15	51.39	-30.9	-32.9	12.6	3.58e-05	0	43	0	829423616	21	4572
2026-01-17 10:37:45.75	331.55	50.37	-31.5	-33.4	11.2	2.90e-03	0	43	0	835715072	24	4467
2026-01-17 10:37:48.76	331.92	49.37	-31.5	-33.9	11.3	8.62e-04	0	43	0	840957952	23	4728
2026-01-17 10:37:51.77	332.27	48.40	-32.0	-35.5	10.2	4.33e-03	0	43	0	846200832	23	5365
2026-01-17 10:37:54.78	332.59	47.45	-31.6	-33.7	10.9	1.71e-03	0	43	0	852492288	24	4606
2026-01-17 10:37:57.78	332.90	46.52	-32.5	-36.3	8.6	6.46e-02	0	43	0	857735168	25	5609
2026-01-17 10:38:00.79	333.20	45.61	-31.9	-34.3	10.1	1.37e-02	0	43	0	862978048	25	4724
2026-01-17 10:38:03.78	333.47	44.72	-31.2	-33.0	11.9	2.80e-04	0	43	0	869269504	23	4412
2026-01-17 10:38:06.79	333.73	43.85	-31.1	-33.1	12.1	1.36e-04	0	43	0	874512384	22	4557
2026-01-17 10:38:09.80	333.98	42.99	-32.1	-35.5	9.6	1.14e-02	0	43	0	880803840	24	5338
2026-01-17 10:38:12.81	334.22	42.16	-30.1	-30.8	13.9	1.34e-04	0	43	0	886046720	21	3927
2026-01-17 10:38:15.82	334.45	41.34	-28.7	-28.9	16.0	0.00e+00	0	43	0	891289600	18	3691
2026-01-17 10:38:18.82	334.66	40.54	-29.8	-31.2	14.3	0.00e+00	0	43	0	897581056	19	4214
2026-01-17 10:38:21.83	334.87	39.76	-29.8	-30.6	14.3	4.50e-06	0	43	0	902823936	20	3949
2026-01-17 10:38:24.84	335.07	38.99	-30.0	-31.1	14.0	7.00e-07	0	43	0	908066816	20	4099
2026-01-17 10:38:27.84	335.25	38.24	-30.9	-33.1	12.3	8.46e-05	0	43	0	914358272	21	4656
2026-01-17 10:38:30.85	335.43	37.51	-30.9	-33.1	12.5	5.95e-05	0	43	0	919601152	21	4649
2026-01-17 10:38:33.86	335.61	36.79	-31.4	-33.6	11.3	1.55e-03	0	43	0	925892608	23	4646
2026-01-17 10:38:36.86	335.77	36.09	-31.7	-34.5	10.7	4.89e-03	0	43	0	931135488	23	5016
2026-01-17 10:38:39.87	335.93	35.40	-30.6	-31.8	12.9	6.25e-05	0	43	0	936378368	22	4120
2026-01-17 10:38:42.86	336.09	34.73	-30.0	-31.1	14.0	7.00e-07	0	43	0	942669824	20	4109
2026-01-17 10:38:45.87	336.23	34.07	-31.4	-34.1	11.3	5.36e-04	0	43	0	947912704	22	4929
2026-01-17 10:38:48.87	336.38	33.43	-32.7	-37.3	7.7	5.69e-02	0	43	0	953155584	25	6167
2026-01-17 10:38:51.87	336.51	32.80	-32.8	-38.0	7.3	1.19e-01	0	43	0	959447040	25	6576
2026-01-17 10:38:54.88	336.65	32.18	-32.0	-34.7	9.8	1.62e-02	0	43	0	964689920	25	4907
2026-01-17 10:38:57.88	336.78	31.57	-30.7	-32.0	12.7	1.76e-04	0	43	0	970981376	22	4190
2026-01-17 10:39:00.88	336.90	30.98	-30.5	-31.5	13.1	2.21e-05	0	43	0	976224256	22	4045
2026-01-17 10:39:03.88	337.02	30.40	-30.0	-30.8	13.8	2.20e-06	0	43	0	981467136	21	3935
2026-01-17 10:39:06.89	337.14	29.82	-30.1	-31.5	13.6	3.80e-06	0	43	0	987758592	20	4229
2026-01-17 10:39:09.89	337.25	29.27	-29.9	-31.0	13.9	3.00e-06	0	43	0	993001472	20	4083
2026-01-17 10:39:12.91	337.36	28.71	-30.9	-33.2	12.2	1.56e-04	0	43	0	998244352	21	4699
2026-01-17 10:39:15.91	337.47	28.18	-31.4	-33.9	11.0	2.16e-03	0	43	0	1004535808	23	4788
2026-01-17 10:39:18.91	337.57	27.65	-31.5	-34.0	10.8	2.85e-03	0	43	0	1009778688	23	4839
2026-01-17 10:39:21.90	337.67	27.13	-30.8	-32.0	12.3	2.14e-04	0	43	0	1015021568	23	4119
2026-01-17 10:39:24.91	337.77	26.62	-30.3	-31.5	13.2	1.52e-05	0	43	0	1021313024	21	4144
2026-01-17 10:39:27.91	337.86	26.13	-29.5	-29.9	14.5	7.00e-07	0	43	0	1026555904	20	3795
2026-01-17 10:39:30.93	337.95	25.63	-29.2	-29.7	15.0	0.00e+00	0	43	0	1032847360	19	3817
2026-01-17 10:39:33.93	338.04	25.15	-29.1	-29.6	15.1	7.00e-07	0	43	0	1038090240	19	3785
2026-01-17 10:39:36.94	338.13	24.68	-29.0	-29.2	15.4	0.00e+00	0	43	0	1043333120	19	3677
2026-01-17 10:39:39.95	338.22	24.21	-29.1	-29.9	15.2	0.00e+00	0	43	0	1049624576	18	3967
2026-01-17 10:39:42.95	338.30	23.76	-28.5	-28.5	15.9	0.00e+00	0	44	0	1054867456	18	3614
2026-01-17 10:39:45.96	338.38	23.31	-28.5	-28.5	16.0	0.00e+00	0	43	0	1060110336	18	3596
2026-01-17 10:39:48.98	338.46	22.87	-28.9	-29.6	15.3	0.00e+00	0	43	0	1066401792	18	3874
2026-01-17 10:39:51.99	338.54	22.43	-29.2	-30.2	14.9	0.00e+00	0	43	0	1071644672	18	4058
2026-01-17 10:39:54.99	338.61	22.01	-29.2	-30.3	14.9	0.00e+00	0	43	0	1077936128	18	4078
2026-01-17 10:39:57.99	338.69	21.59	-28.9	-29.5	15.3	0.00e+00	0	44	0	1083179008	18	3864
2026-01-17 10:40:00.99	338.76	21.18	-29.0	-29.9	15.2	0.00e+00	0	43	0	1088421888	18	3959
2026-01-17 10:40:03.99	338.83	20.77	-28.6	-28.8	15.8	0.00e+00	0	43	0	1094713344	18	3674
2026-01-17 10:40:07.00	338.90	20.37	-28.7	-29.1	15.5	0.00e+00	0	43	0	1099956224	18	3756
2026-01-17 10:40:10.00	338.97	19.98	-29.1	-30.1	14.9	0.00e+00	0	43	0	1106247680	18	4021
2026-01-17 10:40:13.01	339.03	19.59	-28.9	-29.6	15.2	7.00e-07	0	43	0	1111490560	18	3890
2026-01-17 10:40:16.01	339.10	19.21	-29.0	-29.9	15.0	0.00e+00	0	43	0	1116733440	18	3970
2026-01-17 10:40:19.02	339.16	18.84	-28.9	-29.5	15.2	0.00e+00	0	43	0	1123024896	18	3867
2026-01-17 10:40:22.03	339.23	18.47	-28.9	-29.5	15.2	0.00e+00	0	43	0	1128267776	18	3862
2026-01-17 10:40:25.04	339.29	18.10	-28.7	-29.1	15.5	0.00e+00	0	43	0	1133510656	18	3759
2026-01-17 10:40:28.05	339.35	17.74	-28.9	-29.5	15.2	0.00e+00	0	43	0	1139802112	18	3873
2026-01-17 10:40:31.06	339.41	17.39	-29.1	-30.0	14.9	0.00e+00	0	43	0	1145044992	18	3994
2026-01-17 10:40:34.06	339.46	17.04	-29.3	-30.6	14.5	4.50e-06	0	43	0	1151336448	18	4175
2026-01-17 10:40:37.07	339.52	16.70	-29.6	-30.9	14.0	3.80e-06	0	43	0	1156579328	19	4163
2026-01-17 10:40:40.07	339.58	16.36	-29.9	-31.2	13.4	1.37e-05	0	43	0	1161822208	20	4194
2026-01-17 10:40:43.07	339.63	16.02	-30.2	-32.0	12.9	3.66e-05	0	44	0	1168113664	20	4431
2026-01-17 10:40:46.09	339.69	15.69	-30.3	-32.5	12.5	7.32e-05	0	43	0	1173356544	20	4596
2026-01-17 10:40:49.09	339.74	15.37	-30.6	-32.6	12.1	2.60e-04	0	43	0	1178599424	21	4566
2026-01-17 10:40:52.10	339.79	15.05	-30.8	-33.3	11.6	6.26e-04	0	43	0	1184890880	21	4819
2026-01-17 10:40:55.10	339.84	14.73	-30.9	-33.8	11.3	1.11e-03	0	43	0	1190133760	21	4981
2026-01-17 10:40:58.10	339.89	14.42	-31.2	-34.0	10.7	2.68e-03	0	43	0	1196425216	22	4984
2026-01-17 10:41:01.09	339.94	14.11	-31.1	-33.8	10.8	2.63e-03	0	43	0	1201668096	22	4923
2026-01-17 10:41:04.10	339.99	13.80	-31.1	-33.8	10.8	2.45e-03	0	43	0	1206910976	22	4904
2026-01-17 10:41:07.11	340.04	13.50	-30.6	-32.2	11.9	3.39e-04	0	43	0	1213202432	22	4339
2026-01-17 10:41:10.13	340.09	13.20	-30.3	-32.0	12.3	2.26e-04	0	43	0	1218445312	21	4373
2026-01-17 10:41:13.14	340.14	12.91	-30.4	-32.1	12.3	1.68e-04	0	43	0	1223688192	21	4414
2026-01-17 10:41:16.15	340.18	12.62	-30.4	-32.3	12.1	2.75e-04	0	43	0	1229979648	21	4487
2026-01-17 10:41:19.15	340.23	12.33	-30.6	-32.7	11.8	5.75e-04	0	43	0	1235222528	21	4620
2026-01-17 10:41:22.16	340.27	12.05	-30.5	-32.5	12.0	2.85e-04	0	43	0	1241513984	21	4552
2026-01-17 10:41:25.16	340.32	11.77	-30.6	-32.8	11.7	3.60e-04	0	43	0	1246756864	21	4667
2026-01-17 10:41:28.18	340.36	11.49	-30.6	-32.8	11.7	2.81e-04	0	43	0	1251999744	21	4644
2026-01-17 10:41:31.17	340.41	11.22	-30.6	-33.0	11.6	8.18e-04	0	43	0	1258291200	21	4716
2026-01-17 10:41:34.18	340.45	10.95	-30.5	-32.7	11.7	2.16e-04	0	43	0	1263534080	21	4623
2026-01-17 10:41:37.19	340.49	10.68	-30.5	-32.5	11.8	5.13e-04	0	44	0	1268776960	21	4555
2026-01-17 10:41:40.20	340.53	10.41	-30.4	-32.5	11.8	5.78e-04	0	44	0	1275068416	21	4570
2026-01-17 10:41:43.21	340.57	10.15	-30.5	-32.7	11.7	4.63e-04	0	43	0	1280311296	21	4619
2026-01-17 10:41:46.21	340.61	9.89	-30.5	-32.6	11.7	4.76e-04	0	44	0	1286602752	21	4614
2026-01-17 10:41:49.23	340.65	9.63	-30.2	-31.9	12.2	2.94e-04	0	43	0	1291845632	21	4376
2026-01-17 10:41:52.24	340.69	9.38	-30.2	-31.9	12.1	2.20e-04	0	43	0	1297088512	21	4360
2026-01-17 10:41:55.24	340.73	9.13	-30.3	-32.1	12.0	2.65e-04	0	43	0	1303379968	21	4426
2026-01-17 10:41:58.25	340.77	8.88	-29.9	-31.1	12.6	1.72e-04	0	44	0	1308622848	21	4118
2026-01-17 10:42:01.26	340.81	8.63	-30.3	-32.1	11.9	4.07e-04	0	44	0	1313865728	21	4445
2026-01-17 10:42:04.27	340.85	8.39	-30.1	-31.5	12.3	1.98e-04	0	44	0	1320157184	21	4253
2026-01-17 10:42:07.27	340.89	8.14	-30.0	-31.4	12.4	1.19e-04	0	43	0	1325400064	21	4223
2026-01-17 10:42:10.28	340.92	7.90	-30.2	-32.0	12.0	5.17e-04	0	44	0	1331691520	21	4426
2026-01-17 10:42:13.28	340.96	7.67	-30.0	-31.4	12.4	1.58e-04	0	43	0	1336934400	21	4211
2026-01-17 10:42:16.30	341.00	7.43	-30.3	-32.1	11.8	2.32e-04	0	43	0	1342177280	21	4463
2026-01-17 10:42:19.30	341.03	7.20	-30.0	-31.4	12.2	2.50e-04	0	43	0	1348468736	21	4238
2026-01-17 10:42:22.30	341.07	6.97	-33.5	-45.7	3.8	1.49e+00	0	43	104	1350565888	27	14711

#Closed at: 2026-01-17 10:42:22
#Recorded file [1350 MB]: D:/data/31010_260117_133019.dat