passes_logs/2026/01/17/R2M6_AANII_01/R2M6_AANII_01__20260117_234904_NOAA_21_JPSS-2_rec.log

#Pass ID: 20260117_234904_NOAA 21 (JPSS-2)
#Satellite: NOAA 21 (JPSS-2)
#Configuration: NOAA 21
#almurnet v.1.7.20240730
#Start time: 2026-01-17 23:49:04

#Version: 2.2.20231116
#Station: R2M6_AANII_01
#Location: 30.233357 lon 59.946436 lat
#TLE: 1 54234U 22150A   26017.26823908  .00000042  00000+0  40962-4 0  9992
#TLE: 2 54234  98.7501 318.1405 0000613 274.2947  85.8159 14.19535194165131

#Time	Az	El	Level	Level2	SNR	BER	BlckErr	Temp	State	Recorded	gain1	gain2
2026-01-17 23:49:04.16	21.07	7.01	-29.9	-34.0	4.8	1.36e+00	0	41	0	0	20	5722
2026-01-17 23:49:07.17	21.17	7.23	-30.3	-34.2	9.4	1.25e-02	0	41	0	3145728	20	5670
2026-01-17 23:49:10.16	21.27	7.46	-30.8	-35.3	8.3	3.19e-02	0	42	0	11534336	21	6039
2026-01-17 23:49:13.17	21.37	7.69	-30.4	-34.6	9.2	2.35e-02	0	42	0	22020096	20	5828
2026-01-17 23:49:16.20	21.47	7.93	-29.7	-32.4	10.7	4.13e-03	0	42	0	30408704	20	4945
2026-01-17 23:49:19.22	21.58	8.16	-29.6	-32.7	11.0	1.80e-03	0	42	0	40894464	19	5118
2026-01-17 23:49:22.22	21.69	8.40	-29.7	-32.9	10.9	2.96e-03	0	42	0	49283072	19	5208
2026-01-17 23:49:25.23	21.79	8.64	-29.3	-32.3	11.6	5.24e-04	0	42	0	58720256	18	5070
2026-01-17 23:49:28.24	21.90	8.88	-29.0	-31.6	12.1	3.87e-04	0	42	0	68157440	18	4836
2026-01-17 23:49:31.25	22.01	9.12	-28.8	-31.4	12.5	1.21e-04	0	42	0	77594624	17	4879
2026-01-17 23:49:34.26	22.13	9.37	-28.7	-31.3	12.6	1.34e-04	0	42	0	87031808	17	4841
2026-01-17 23:49:37.26	22.24	9.62	-28.3	-30.7	13.4	1.60e-05	0	42	0	96468992	16	4739
2026-01-17 23:49:40.27	22.36	9.87	-28.2	-30.4	13.5	6.80e-06	0	42	0	105906176	16	4661
2026-01-17 23:49:43.27	22.47	10.12	-28.1	-30.2	13.7	5.30e-06	0	42	0	115343360	16	4579
2026-01-17 23:49:46.29	22.59	10.38	-28.0	-30.4	13.7	2.20e-06	0	42	0	124780544	15	4771
2026-01-17 23:49:49.29	22.71	10.64	-27.9	-29.8	13.9	2.20e-06	0	42	0	134217728	16	4467
2026-01-17 23:49:52.31	22.84	10.90	-27.9	-30.2	13.6	2.20e-06	0	43	0	143654912	15	4702
2026-01-17 23:49:55.32	22.96	11.17	-27.8	-30.1	13.9	4.65e-04	0	43	0	153092096	15	4667
2026-01-17 23:49:58.32	23.09	11.43	-27.6	-29.5	14.3	1.50e-06	0	43	0	162529280	15	4490
2026-01-17 23:50:01.33	23.22	11.70	-27.7	-29.7	14.2	7.00e-07	0	43	0	171966464	15	4539
2026-01-17 23:50:04.35	23.35	11.98	-27.5	-29.2	14.5	1.50e-06	0	43	0	181403648	15	4397
2026-01-17 23:50:07.35	23.49	12.25	-27.4	-29.6	14.5	0.00e+00	0	43	0	190840832	14	4644
2026-01-17 23:50:10.36	23.62	12.53	-27.5	-29.4	14.4	6.22e-04	0	43	0	200278016	15	4447
2026-01-17 23:50:13.37	23.76	12.81	-27.5	-29.7	14.5	7.00e-07	0	43	0	209715200	14	4665
2026-01-17 23:50:16.37	23.90	13.10	-27.5	-29.3	14.5	5.80e-04	0	43	0	219152384	15	4438
2026-01-17 23:50:19.38	24.05	13.38	-27.5	-29.4	13.3	3.80e-06	0	43	0	228589568	15	4446
2026-01-17 23:50:22.40	24.19	13.68	-27.7	-29.7	14.0	6.98e-04	0	43	0	238026752	15	4530
2026-01-17 23:50:25.41	24.34	13.97	-28.0	-30.3	13.9	7.29e-04	0	43	0	247463936	15	4731
2026-01-17 23:50:28.42	24.49	14.27	-27.8	-29.9	14.2	2.78e-03	0	43	0	256901120	15	4612
2026-01-17 23:50:31.43	24.65	14.57	-27.7	-29.8	14.3	4.88e-04	0	43	0	266338304	15	4574
2026-01-17 23:50:34.44	24.81	14.88	-27.7	-29.6	14.4	2.29e-03	0	43	0	275775488	15	4508
2026-01-17 23:50:37.45	24.97	15.19	-27.2	-29.1	15.0	4.68e-04	0	43	0	285212672	14	4465
2026-01-17 23:50:40.47	25.13	15.50	-27.2	-29.0	15.1	5.29e-04	0	43	0	294649856	14	4436
2026-01-17 23:50:43.47	25.30	15.82	-27.9	-29.6	14.3	9.04e-04	0	43	0	304087040	16	4398
2026-01-17 23:50:46.48	25.47	16.14	-27.2	-28.4	15.2	1.57e-04	0	43	0	313524224	15	4170
2026-01-17 23:50:49.49	25.64	16.47	-27.4	-29.5	14.9	3.35e-04	0	43	0	322961408	14	4579
2026-01-17 23:50:52.50	25.82	16.79	-27.3	-29.3	15.0	4.94e-04	0	43	0	331350016	14	4521
2026-01-17 23:50:55.52	26.00	17.13	-27.1	-28.8	15.3	1.73e-03	0	43	0	341835776	14	4378
2026-01-17 23:50:58.52	26.18	17.47	-27.1	-28.9	15.3	0.00e+00	0	43	0	350224384	14	4397
2026-01-17 23:51:01.52	26.37	17.81	-27.3	-29.3	15.0	2.07e-03	0	43	0	359661568	14	4532
2026-01-17 23:51:04.52	26.56	18.15	-27.5	-29.3	14.8	0.00e+00	0	43	0	369098752	15	4417
2026-01-17 23:51:07.53	26.76	18.51	-27.5	-29.6	14.8	7.00e-07	0	43	0	378535936	14	4621
2026-01-17 23:51:10.53	26.96	18.86	-27.4	-29.0	15.0	1.15e-03	0	43	0	387973120	15	4330
2026-01-17 23:51:13.55	27.16	19.22	-27.4	-29.5	14.9	0.00e+00	0	43	0	397410304	14	4590
2026-01-17 23:51:16.55	27.37	19.59	-27.5	-29.3	14.8	7.40e-05	0	43	0	406847488	15	4407
2026-01-17 23:51:19.55	27.59	19.96	-27.6	-29.5	14.7	7.00e-07	0	43	0	416284672	15	4451
2026-01-17 23:51:22.56	27.81	20.34	-27.4	-29.4	15.1	0.00e+00	0	43	0	425721856	14	4546
2026-01-17 23:51:25.56	28.03	20.72	-27.0	-28.6	15.5	0.00e+00	0	43	0	435159040	14	4317
2026-01-17 23:51:28.57	28.26	21.11	-26.9	-28.4	15.6	0.00e+00	0	43	0	444596224	14	4276
2026-01-17 23:51:31.59	28.50	21.50	-26.8	-28.6	15.8	0.00e+00	0	43	0	454033408	13	4426
2026-01-17 23:51:34.59	28.74	21.90	-26.7	-28.3	15.9	0.00e+00	0	43	0	463470592	13	4338
2026-01-17 23:51:37.60	28.98	22.30	-26.3	-27.9	16.5	0.00e+00	0	43	0	472907776	12	4338
2026-01-17 23:51:40.61	29.24	22.72	-26.3	-28.0	16.4	0.00e+00	0	44	0	482344960	12	4377
2026-01-17 23:51:43.62	29.50	23.13	-26.2	-27.8	16.5	0.00e+00	0	44	0	491782144	12	4332
2026-01-17 23:51:46.63	29.76	23.56	-26.2	-27.6	16.6	0.00e+00	0	44	0	501219328	12	4272
2026-01-17 23:51:49.64	30.04	23.99	-26.3	-27.9	16.5	0.00e+00	0	43	0	510656512	12	4345
2026-01-17 23:51:52.64	30.32	24.42	-26.2	-27.8	16.5	0.00e+00	0	43	0	520093696	12	4330
2026-01-17 23:51:55.65	30.61	24.87	-26.4	-28.1	16.4	0.00e+00	0	44	0	529530880	12	4403
2026-01-17 23:51:58.66	30.90	25.32	-26.8	-28.6	15.9	0.00e+00	0	44	0	538968064	13	4418
2026-01-17 23:52:01.67	31.21	25.77	-26.9	-28.4	15.8	0.00e+00	0	44	0	548405248	14	4242
2026-01-17 23:52:04.68	31.52	26.24	-27.1	-28.7	15.6	0.00e+00	0	44	0	557842432	14	4350
2026-01-17 23:52:07.68	31.84	26.71	-27.2	-29.1	15.4	0.00e+00	0	44	0	567279616	14	4440
2026-01-17 23:52:10.68	32.17	27.19	-27.1	-28.6	15.7	0.00e+00	0	43	0	576716800	14	4314
2026-01-17 23:52:13.69	32.52	27.67	-27.3	-29.1	15.4	0.00e+00	0	44	0	585105408	14	4439
2026-01-17 23:52:16.70	32.87	28.17	-27.5	-29.1	15.1	0.00e+00	0	44	0	594542592	15	4343
2026-01-17 23:52:19.72	33.23	28.67	-27.6	-29.4	15.0	0.00e+00	0	44	0	603979776	15	4416
2026-01-17 23:52:22.73	33.61	29.18	-27.7	-29.5	14.9	7.00e-07	0	44	0	613416960	15	4461
2026-01-17 23:52:25.73	33.99	29.70	-27.8	-29.8	14.8	1.50e-06	0	44	0	622854144	15	4548
2026-01-17 23:52:28.73	34.39	30.22	-27.7	-29.5	15.0	0.00e+00	0	44	0	632291328	15	4444
2026-01-17 23:52:31.74	34.80	30.76	-27.3	-28.8	15.4	7.00e-07	0	44	0	641728512	15	4241
2026-01-17 23:52:34.76	35.22	31.30	-27.5	-29.2	15.2	1.22e-05	0	44	0	651165696	15	4353
2026-01-17 23:52:37.77	35.66	31.86	-27.3	-29.1	15.5	1.04e-04	0	44	0	660602880	14	4449
2026-01-17 23:52:40.76	36.11	32.41	-27.2	-28.9	15.6	1.93e-04	0	44	0	670040064	14	4387
2026-01-17 23:52:43.77	36.58	32.98	-27.3	-29.1	15.5	2.89e-04	0	44	0	679477248	14	4443
2026-01-17 23:52:46.77	37.06	33.56	-27.3	-29.2	15.5	3.06e-04	0	44	0	688914432	14	4472
2026-01-17 23:52:49.79	37.57	34.15	-27.9	-30.1	14.7	2.27e-04	0	44	0	698351616	15	4626
2026-01-17 23:52:52.80	38.09	34.75	-28.6	-30.7	14.0	3.80e-06	0	44	0	707788800	17	4556
2026-01-17 23:52:55.80	38.63	35.35	-28.7	-30.9	13.9	3.00e-06	0	44	0	717225984	17	4620
2026-01-17 23:52:58.82	39.19	35.96	-28.8	-31.0	13.8	7.00e-07	0	44	0	726663168	17	4661
2026-01-17 23:53:01.83	39.77	36.59	-28.3	-29.9	14.5	2.20e-06	0	44	0	736100352	17	4326
2026-01-17 23:53:04.84	40.37	37.22	-28.5	-30.5	14.2	7.00e-07	0	44	0	745537536	17	4489
2026-01-17 23:53:07.86	41.00	37.86	-28.6	-30.5	14.1	1.50e-06	0	44	0	754974720	17	4498
2026-01-17 23:53:10.86	41.65	38.51	-28.6	-30.6	14.1	3.80e-06	0	44	0	764411904	17	4530
2026-01-17 23:53:13.87	42.33	39.17	-29.0	-31.1	13.6	9.90e-06	0	44	0	773849088	18	4554
2026-01-17 23:53:16.88	43.03	39.83	-29.1	-31.2	13.5	7.60e-06	0	44	0	783286272	18	4606
2026-01-17 23:53:19.89	43.77	40.51	-29.1	-31.3	13.4	2.13e-05	0	44	0	792723456	18	4638
2026-01-17 23:53:22.90	44.53	41.19	-29.1	-31.2	13.5	1.06e-05	0	44	0	802160640	18	4586
2026-01-17 23:53:25.90	45.33	41.88	-29.2	-31.5	13.4	1.37e-05	0	44	0	811597824	18	4689
2026-01-17 23:53:28.92	46.16	42.58	-29.2	-31.4	13.4	1.67e-05	0	44	0	821035008	18	4669
2026-01-17 23:53:31.93	47.03	43.28	-29.4	-31.9	13.1	3.12e-05	0	44	0	830472192	18	4827
2026-01-17 23:53:34.94	47.94	43.99	-29.6	-32.0	12.8	8.16e-05	0	44	0	839909376	19	4743
2026-01-17 23:53:37.94	48.88	44.70	-29.5	-31.7	12.9	4.11e-05	0	44	0	849346560	19	4644
2026-01-17 23:53:40.95	49.87	45.41	-29.5	-31.8	12.9	7.09e-05	0	44	0	857735168	19	4657
2026-01-17 23:53:43.94	50.90	46.13	-29.2	-31.0	13.4	1.83e-05	0	44	0	867172352	19	4435
2026-01-17 23:53:46.95	51.99	46.85	-29.3	-31.2	13.3	1.52e-05	0	44	0	876609536	19	4470
2026-01-17 23:53:49.96	53.12	47.57	-29.4	-31.6	13.1	2.51e-05	0	44	0	886046720	19	4595
2026-01-17 23:53:52.97	54.31	48.30	-29.1	-30.7	13.6	8.30e-06	0	44	0	895483904	19	4335
2026-01-17 23:53:55.99	55.56	49.02	-29.0	-31.1	13.7	9.10e-06	0	44	0	904921088	18	4562
2026-01-17 23:53:59.00	56.86	49.74	-29.0	-31.0	13.7	3.00e-06	0	44	0	914358272	18	4535
2026-01-17 23:54:02.02	58.23	50.46	-28.8	-30.6	14.1	7.00e-07	0	44	0	923795456	18	4395
2026-01-17 23:54:05.02	59.66	51.17	-28.7	-30.2	14.3	1.50e-06	0	44	0	933232640	18	4280
2026-01-17 23:54:08.02	61.15	51.86	-28.4	-29.5	14.6	0.00e+00	0	44	0	942669824	18	4109
2026-01-17 23:54:11.03	62.72	52.55	-28.3	-29.8	14.7	0.00e+00	0	44	0	952107008	17	4298
2026-01-17 23:54:14.03	64.36	53.22	-28.3	-29.8	14.7	0.00e+00	0	44	0	961544192	17	4301
2026-01-17 23:54:17.05	66.09	53.89	-28.8	-31.1	14.1	3.80e-06	0	44	0	970981376	17	4669
2026-01-17 23:54:20.07	67.90	54.53	-28.7	-30.7	14.3	1.50e-06	0	44	0	980418560	17	4535
2026-01-17 23:54:23.06	69.77	55.15	-28.3	-29.9	14.7	0.00e+00	0	44	0	989855744	17	4328
2026-01-17 23:54:26.08	71.74	55.74	-28.5	-30.3	14.6	0.00e+00	0	44	0	999292928	17	4426
2026-01-17 23:54:29.08	73.78	56.31	-28.4	-30.1	14.6	7.00e-07	0	44	0	1008730112	17	4379
2026-01-17 23:54:32.09	75.90	56.85	-28.3	-29.8	14.8	7.00e-07	0	44	0	1018167296	17	4267
2026-01-17 23:54:35.11	78.12	57.35	-28.7	-30.7	14.3	1.50e-06	0	44	0	1027604480	17	4547
2026-01-17 23:54:38.11	80.41	57.82	-27.0	-27.9	16.2	0.00e+00	0	44	0	1037041664	15	3978
2026-01-17 23:54:41.11	82.76	58.24	-27.0	-27.8	16.3	0.00e+00	0	44	0	1046478848	15	3967
2026-01-17 23:54:44.12	85.20	58.62	-27.1	-28.6	16.1	0.00e+00	0	44	0	1055916032	14	4289
2026-01-17 23:54:47.13	87.71	58.96	-27.1	-28.6	16.2	0.00e+00	0	44	0	1065353216	14	4281
2026-01-17 23:54:50.15	90.29	59.25	-27.1	-28.6	16.2	0.00e+00	0	44	0	1074790400	14	4279
2026-01-17 23:54:53.15	92.90	59.48	-27.3	-29.0	16.0	0.00e+00	0	44	0	1084227584	14	4395
2026-01-17 23:54:56.16	95.56	59.66	-27.0	-28.4	16.4	0.00e+00	0	44	0	1093664768	14	4226
2026-01-17 23:54:59.18	98.26	59.79	-26.7	-27.7	16.7	0.00e+00	0	44	0	1103101952	14	4052
2026-01-17 23:55:02.20	100.98	59.85	-27.3	-29.2	15.8	0.00e+00	0	44	0	1112539136	14	4457
2026-01-17 23:55:05.21	103.70	59.86	-26.9	-28.2	16.4	0.00e+00	0	44	0	1121976320	14	4163
2026-01-17 23:55:08.22	106.41	59.82	-26.4	-27.7	16.9	0.00e+00	0	44	0	1131413504	13	4141
2026-01-17 23:55:11.23	109.12	59.71	-26.9	-28.1	16.5	0.00e+00	0	44	0	1140850688	14	4146
2026-01-17 23:55:14.24	111.79	59.55	-27.4	-29.2	15.9	0.00e+00	0	44	0	1150287872	14	4449
2026-01-17 23:55:17.24	114.42	59.34	-27.3	-28.7	16.0	0.00e+00	0	44	0	1158676480	15	4187
2026-01-17 23:55:20.24	117.00	59.07	-27.0	-28.0	16.3	0.00e+00	0	44	0	1168113664	15	4010
2026-01-17 23:55:23.26	119.54	58.75	-27.4	-28.7	16.0	0.00e+00	0	44	0	1177550848	15	4200
2026-01-17 23:55:26.27	122.01	58.39	-27.5	-29.0	15.7	0.00e+00	0	44	0	1186988032	15	4281
2026-01-17 23:55:29.27	124.40	57.98	-28.0	-29.6	15.3	0.00e+00	0	44	0	1196425216	16	4342
2026-01-17 23:55:32.27	126.71	57.53	-27.2	-28.9	16.1	0.00e+00	0	44	0	1205862400	14	4367
2026-01-17 23:55:35.28	128.96	57.04	-27.7	-29.5	15.4	0.00e+00	0	44	0	1215299584	15	4432
2026-01-17 23:55:38.30	131.13	56.51	-27.8	-29.3	15.5	0.00e+00	0	44	0	1224736768	16	4247
2026-01-17 23:55:41.32	133.22	55.95	-28.2	-30.1	15.0	0.00e+00	0	44	0	1234173952	16	4494
2026-01-17 23:55:44.32	135.21	55.36	-27.7	-29.4	15.4	0.00e+00	0	44	0	1243611136	15	4405
2026-01-17 23:55:47.32	137.11	54.75	-27.3	-29.0	16.1	0.00e+00	0	44	0	1253048320	14	4374
2026-01-17 23:55:50.33	138.95	54.12	-27.8	-29.6	15.4	0.00e+00	0	44	0	1262485504	15	4440
2026-01-17 23:55:53.34	140.70	53.46	-28.5	-30.4	14.6	1.50e-06	0	44	0	1271922688	17	4443
2026-01-17 23:55:56.34	142.37	52.79	-28.4	-30.6	14.7	0.00e+00	0	44	0	1281359872	16	4638
2026-01-17 23:55:59.35	143.98	52.10	-28.3	-30.3	14.9	0.00e+00	0	44	0	1290797056	16	4531
2026-01-17 23:56:02.36	145.50	51.41	-28.4	-29.9	14.8	0.00e+00	0	44	0	1300234240	17	4318
2026-01-17 23:56:05.37	146.96	50.70	-28.6	-30.6	14.4	0.00e+00	0	44	0	1309671424	17	4511
2026-01-17 23:56:08.38	148.36	49.98	-29.1	-31.3	13.7	4.50e-06	0	44	0	1319108608	18	4600
2026-01-17 23:56:11.39	149.69	49.26	-30.0	-32.9	12.4	1.23e-04	0	44	0	1328545792	19	5022
2026-01-17 23:56:14.40	150.95	48.54	-29.3	-31.2	13.5	3.49e-04	0	44	0	1337982976	19	4472
2026-01-17 23:56:17.41	152.17	47.81	-29.8	-32.5	12.7	4.65e-05	0	44	0	1347420160	19	4918
2026-01-17 23:56:20.41	153.32	47.09	-29.8	-32.0	12.6	3.65e-04	0	44	0	1356857344	20	4647
2026-01-17 23:56:23.43	154.43	46.36	-29.1	-30.7	13.8	3.00e-06	0	44	0	1366294528	19	4339
2026-01-17 23:56:26.44	155.48	45.63	-29.9	-32.7	12.5	1.22e-04	0	44	0	1375731712	19	4972
2026-01-17 23:56:29.46	156.49	44.91	-30.2	-33.0	11.9	5.05e-04	0	44	0	1385168896	20	4980
2026-01-17 23:56:32.46	157.45	44.19	-30.0	-32.6	12.2	3.38e-04	0	44	0	1394606080	20	4813
2026-01-17 23:56:35.47	158.38	43.48	-29.7	-32.3	12.6	6.01e-04	0	44	0	1404043264	19	4834
2026-01-17 23:56:38.47	159.26	42.77	-29.3	-31.8	13.4	2.44e-05	0	44	0	1413480448	18	4773
2026-01-17 23:56:41.48	160.10	42.07	-29.8	-32.4	12.6	1.44e-03	0	44	0	1422917632	19	4887
2026-01-17 23:56:44.49	160.92	41.38	-29.3	-31.6	13.4	1.20e-03	0	44	0	1432354816	18	4699
2026-01-17 23:56:47.50	161.69	40.69	-29.5	-31.7	13.0	2.10e-03	0	44	0	1440743424	19	4650
2026-01-17 23:56:50.50	162.44	40.01	-30.1	-32.9	12.0	1.76e-03	0	44	0	1450180608	20	4923
2026-01-17 23:56:53.51	163.15	39.34	-29.9	-32.2	12.3	1.76e-04	0	44	0	1459617792	20	4709
2026-01-17 23:56:56.52	163.84	38.67	-29.2	-31.4	13.5	8.19e-04	0	44	0	1469054976	18	4653
2026-01-17 23:56:59.54	164.50	38.02	-28.6	-30.5	14.3	1.50e-06	0	44	0	1478492160	17	4477
2026-01-17 23:57:02.54	165.14	37.37	-28.8	-31.1	14.0	4.23e-04	0	44	0	1487929344	17	4680
2026-01-17 23:57:05.55	165.75	36.73	-29.3	-31.8	13.3	1.64e-04	0	44	0	1497366528	18	4790
2026-01-17 23:57:08.56	166.34	36.10	-29.0	-31.4	13.8	2.20e-06	0	44	0	1506803712	17	4772
2026-01-17 23:57:11.57	166.91	35.48	-28.6	-30.7	14.2	7.00e-07	0	44	0	1516240896	17	4540
2026-01-17 23:57:14.59	167.45	34.87	-29.1	-31.2	13.6	6.80e-06	0	44	0	1525678080	18	4615
2026-01-17 23:57:17.59	167.98	34.27	-29.0	-31.2	13.6	9.90e-06	0	44	0	1535115264	18	4601
2026-01-17 23:57:20.61	168.49	33.67	-28.4	-30.1	14.5	3.73e-05	0	44	0	1544552448	17	4389
2026-01-17 23:57:23.61	168.98	33.09	-27.7	-29.4	15.3	7.24e-05	0	44	0	1553989632	15	4419
2026-01-17 23:57:26.62	169.45	32.51	-27.4	-28.7	15.6	3.00e-06	0	44	0	1563426816	15	4216
2026-01-17 23:57:29.63	169.91	31.95	-27.0	-28.4	16.1	0.00e+00	0	44	0	1572864000	14	4235
2026-01-17 23:57:32.63	170.35	31.39	-27.0	-28.6	16.0	0.00e+00	0	44	0	1582301184	14	4279
2026-01-17 23:57:35.65	170.78	30.84	-27.3	-29.1	15.7	0.00e+00	0	44	0	1591738368	14	4424
2026-01-17 23:57:38.65	171.20	30.30	-27.8	-29.7	15.0	5.79e-05	0	44	0	1601175552	15	4498
2026-01-17 23:57:41.65	171.60	29.77	-27.8	-29.9	14.9	2.02e-04	0	44	0	1610612736	15	4547
2026-01-17 23:57:44.65	171.99	29.25	-27.7	-29.5	15.2	0.00e+00	0	44	0	1620049920	15	4447
2026-01-17 23:57:47.64	172.36	28.73	-27.3	-28.7	15.6	1.45e-04	0	44	0	1629487104	15	4211
2026-01-17 23:57:50.64	172.73	28.23	-27.0	-28.5	16.0	0.00e+00	0	44	0	1638924288	14	4263
2026-01-17 23:57:53.65	173.08	27.73	-27.1	-28.8	15.8	2.04e-04	0	44	0	1648361472	14	4350
2026-01-17 23:57:56.66	173.43	27.24	-27.3	-29.2	15.6	0.00e+00	0	44	0	1657798656	14	4455
2026-01-17 23:57:59.67	173.76	26.75	-26.6	-28.1	16.4	0.00e+00	0	44	0	1667235840	13	4263
2026-01-17 23:58:02.68	174.09	26.28	-26.8	-28.4	16.2	0.00e+00	0	44	0	1676673024	13	4354
2026-01-17 23:58:05.69	174.40	25.81	-27.0	-28.6	15.9	0.00e+00	0	44	0	1685061632	14	4296
2026-01-17 23:58:08.71	174.71	25.34	-27.3	-29.1	15.6	0.00e+00	0	44	0	1694498816	14	4449
2026-01-17 23:58:11.72	175.01	24.89	-27.2	-29.0	15.6	0.00e+00	0	44	0	1704984576	14	4408
2026-01-17 23:58:14.72	175.30	24.44	-27.5	-29.5	15.3	5.45e-04	0	44	0	1713373184	14	4572
2026-01-17 23:58:17.72	175.58	24.00	-27.2	-29.0	15.6	0.00e+00	0	44	0	1722810368	14	4402
2026-01-17 23:58:20.73	175.85	23.57	-27.3	-29.1	15.5	2.46e-04	0	44	0	1732247552	14	4452
2026-01-17 23:58:23.75	176.12	23.14	-27.3	-29.3	15.4	0.00e+00	0	44	0	1741684736	14	4494
2026-01-17 23:58:26.76	176.38	22.72	-27.3	-29.3	15.4	2.78e-04	0	44	0	1751121920	14	4487
2026-01-17 23:58:29.78	176.64	22.30	-27.3	-28.6	15.4	2.82e-04	0	44	0	1760559104	15	4210
2026-01-17 23:58:32.78	176.89	21.89	-26.8	-28.1	16.0	3.12e-04	0	44	0	1769996288	14	4176
2026-01-17 23:58:35.79	177.13	21.49	-26.9	-28.8	15.9	3.05e-04	0	44	0	1779433472	13	4478
2026-01-17 23:58:38.80	177.37	21.09	-27.2	-29.0	15.4	3.04e-04	0	44	0	1788870656	14	4430
2026-01-17 23:58:41.81	177.60	20.70	-27.3	-29.3	15.3	3.04e-04	0	44	0	1798307840	14	4515
2026-01-17 23:58:44.81	177.82	20.32	-27.5	-29.6	15.1	3.85e-04	0	44	0	1807745024	14	4603
2026-01-17 23:58:47.83	178.04	19.93	-27.3	-29.2	15.4	6.50e-04	0	44	0	1817182208	14	4477
2026-01-17 23:58:50.84	178.26	19.56	-27.2	-28.9	15.5	1.50e-03	0	44	0	1826619392	14	4416
2026-01-17 23:58:53.86	178.47	19.19	-27.2	-29.0	15.4	0.00e+00	0	44	0	1836056576	14	4432
2026-01-17 23:58:56.86	178.67	18.82	-27.2	-29.0	15.4	3.07e-03	0	44	0	1845493760	14	4420
2026-01-17 23:58:59.88	178.87	18.46	-27.3	-29.4	15.2	0.00e+00	0	44	0	1854930944	14	4540
2026-01-17 23:59:02.88	179.07	18.11	-27.5	-29.6	15.0	0.00e+00	0	44	0	1864368128	14	4625
2026-01-17 23:59:05.89	179.26	17.76	-27.7	-29.6	14.8	0.00e+00	0	44	0	1873805312	15	4500
2026-01-17 23:59:08.90	179.45	17.41	-27.5	-29.3	14.9	0.00e+00	0	44	0	1883242496	15	4413
2026-01-17 23:59:11.91	179.63	17.07	-27.6	-29.5	14.8	7.00e-07	0	44	0	1892679680	15	4474
2026-01-17 23:59:14.92	179.81	16.74	-27.6	-29.5	14.8	0.00e+00	0	44	0	1902116864	15	4479
2026-01-17 23:59:17.93	179.99	16.40	-27.6	-29.4	14.8	0.00e+00	0	44	0	1911554048	15	4441
2026-01-17 23:59:20.93	180.16	16.08	-27.8	-29.9	14.5	0.00e+00	0	44	0	1920991232	15	4596
2026-01-17 23:59:23.94	180.33	15.75	-27.7	-29.8	14.6	7.00e-07	0	44	0	1930428416	15	4544
2026-01-17 23:59:26.95	180.49	15.43	-27.9	-30.1	14.4	0.00e+00	0	44	0	1939865600	15	4637
2026-01-17 23:59:29.95	180.66	15.12	-27.8	-29.9	14.5	7.00e-07	0	44	0	1949302784	15	4589
2026-01-17 23:59:32.95	180.81	14.81	-27.7	-29.7	14.6	1.50e-06	0	44	0	1958739968	15	4536
2026-01-17 23:59:35.97	180.97	14.50	-28.4	-30.8	13.8	3.00e-06	0	44	0	1968177152	16	4731
2026-01-17 23:59:38.98	181.12	14.19	-28.0	-29.9	14.3	1.50e-06	0	44	0	1977614336	16	4466
2026-01-17 23:59:41.99	181.28	13.89	-28.2	-30.3	14.1	7.00e-07	0	44	0	1986002944	16	4592
2026-01-17 23:59:45.02	181.42	13.59	-28.4	-30.9	13.7	6.80e-06	0	44	0	1996488704	16	4759
2026-01-17 23:59:48.02	181.57	13.30	-28.2	-30.3	14.1	1.22e-05	0	44	0	2005925888	16	4598
2026-01-17 23:59:51.04	181.71	13.01	-28.2	-30.4	14.0	3.80e-06	0	44	0	2014314496	16	4623
2026-01-17 23:59:54.05	181.85	12.72	-28.3	-30.4	14.0	5.30e-06	0	44	0	2023751680	16	4627
2026-01-17 23:59:57.05	181.99	12.44	-28.0	-29.9	14.3	1.67e-05	0	44	0	2033188864	16	4465
2026-01-18 00:00:00.06	182.12	12.16	-28.2	-30.3	14.0	1.83e-05	0	44	0	2042626048	16	4580
2026-01-18 00:00:03.06	182.25	11.88	-28.1	-30.1	14.1	2.05e-05	0	44	0	2052063232	16	4513
2026-01-18 00:00:06.08	182.38	11.60	-27.8	-29.9	14.3	1.75e-05	0	44	0	2061500416	15	4581
2026-01-18 00:00:09.09	182.51	11.33	-28.0	-30.3	14.1	2.20e-06	0	44	0	2070937600	15	4726
2026-01-18 00:00:12.10	182.64	11.06	-28.3	-30.6	13.7	2.28e-05	0	44	0	2080374784	16	4682
2026-01-18 00:00:15.11	182.76	10.80	-28.2	-30.4	13.8	6.10e-06	0	44	0	2089811968	16	4638
2026-01-18 00:00:18.11	182.88	10.53	-28.4	-30.3	13.6	1.37e-05	0	44	0	2099249152	17	4491
2026-01-18 00:00:21.12	183.00	10.27	-28.7	-31.1	13.1	2.28e-05	0	44	0	2108686336	17	4744
2026-01-18 00:00:24.13	183.12	10.01	-28.5	-30.7	13.4	1.98e-05	0	44	0	2118123520	17	4605
2026-01-18 00:00:27.13	183.24	9.76	-28.6	-30.7	13.3	1.98e-05	0	44	0	2127560704	17	4632
2026-01-18 00:00:30.14	183.35	9.51	-28.8	-31.4	12.9	3.81e-05	0	44	0	2136997888	17	4828
2026-01-18 00:00:33.14	183.46	9.26	-28.9	-31.0	12.8	6.86e-05	0	44	0	2146435072	18	4619
2026-01-18 00:00:36.15	183.57	9.01	-28.9	-31.1	12.7	9.53e-05	0	44	0	2155872256	18	4628
2026-01-18 00:00:39.18	183.68	8.76	-28.9	-31.1	12.7	6.48e-05	0	44	0	2165309440	18	4638
2026-01-18 00:00:42.18	183.79	8.52	-28.9	-31.2	12.6	9.38e-05	0	44	0	2174746624	18	4675
2026-01-18 00:00:45.16	183.89	8.28	-28.9	-31.1	12.7	8.46e-05	0	44	0	2184183808	18	4636
2026-01-18 00:00:48.17	184.00	8.04	-29.0	-31.4	12.4	1.01e-04	0	44	0	2193620992	18	4755
2026-01-18 00:00:51.18	184.10	7.80	-29.0	-31.4	12.4	1.28e-04	0	44	0	2203058176	18	4748
2026-01-18 00:00:54.19	184.20	7.57	-28.9	-31.6	12.5	1.36e-04	0	44	0	2212495360	17	4932
2026-01-18 00:00:57.20	184.30	7.34	-29.0	-31.5	12.3	2.11e-04	0	44	0	2221932544	18	4781
2026-01-18 00:01:00.21	184.40	7.10	-29.9	-33.4	10.9	8.32e-04	0	44	0	2231369728	19	5374

#Closed at: 2026-01-18 00:01:02
#Recorded file [2231 MB]: D:/data/31010_260118_024906.dat