passes_logs/2026/01/17/R2M6_AANII_01/R2M6_AANII_01__20260117_005814_NOAA_20_JPSS-1_rec.log

#Pass ID: 20260117_005814_NOAA 20 (JPSS-1)
#Satellite: NOAA 20 (JPSS-1)
#Configuration: NOAA 20
#almurnet v.1.7.20240730
#Start time: 2026-01-17 00:58:15

#Version: 2.2.20231116
#Station: R2M6_AANII_01
#Location: 30.233357 lon 59.946436 lat
#TLE: 1 43013U 17073A   26016.24631778  .00000038  00000+0  39093-4 0  9990
#TLE: 2 43013  98.7637 317.1726 0001455  37.6755 322.4523 14.19536243422915

#Time	Az	El	Level	Level2	SNR	BER	BlckErr	Temp	State	Recorded	gain1	gain2
2026-01-17 00:58:15.78	15.12	7.12	-31.7	-38.8	4.8	1.32e+00	0	41	0	0	23	8168
2026-01-17 00:58:18.79	15.03	7.35	-31.5	-37.8	7.7	1.01e-01	0	41	0	1048576	23	7403
2026-01-17 00:58:21.80	14.94	7.58	-31.3	-37.0	8.7	4.08e-02	0	41	0	7340032	22	6990
2026-01-17 00:58:24.80	14.85	7.82	-31.3	-37.0	8.7	4.76e-02	0	41	0	12582912	22	6961
2026-01-17 00:58:27.82	14.75	8.05	-31.1	-36.3	9.3	2.42e-02	0	41	0	17825792	22	6543
2026-01-17 00:58:30.82	14.66	8.29	-30.3	-34.7	11.4	4.47e-03	0	42	0	24117248	20	5908
2026-01-17 00:58:33.82	14.56	8.53	-30.6	-34.9	10.8	5.89e-03	0	42	0	29360128	21	5900
2026-01-17 00:58:36.82	14.46	8.77	-30.5	-34.8	11.0	4.24e-03	0	42	0	35651584	21	5841
2026-01-17 00:58:39.83	14.35	9.01	-30.2	-34.1	11.8	3.41e-03	0	42	0	40894464	20	5662
2026-01-17 00:58:42.84	14.25	9.26	-30.3	-34.3	11.7	3.58e-03	0	42	0	46137344	20	5720
2026-01-17 00:58:45.85	14.14	9.51	-30.3	-34.6	11.6	8.19e-04	0	42	0	52428800	20	5847
2026-01-17 00:58:48.87	14.04	9.76	-30.2	-33.9	12.0	3.22e-03	0	42	0	57671680	20	5548
2026-01-17 00:58:51.88	13.92	10.01	-30.1	-33.6	12.3	3.19e-03	0	42	0	62914560	20	5417
2026-01-17 00:58:54.88	13.81	10.27	-29.9	-33.1	12.2	3.21e-03	0	42	0	69206016	20	5208
2026-01-17 00:58:57.89	13.70	10.53	-29.4	-32.7	13.6	2.57e-03	0	42	0	74448896	18	5269
2026-01-17 00:59:00.90	13.58	10.79	-29.4	-32.7	13.8	2.80e-03	0	42	0	80740352	18	5233
2026-01-17 00:59:03.90	13.46	11.05	-29.4	-32.7	13.7	3.00e-06	0	42	0	85983232	18	5249
2026-01-17 00:59:06.90	13.34	11.32	-29.5	-32.4	13.6	1.44e-05	0	42	0	91226112	19	5045
2026-01-17 00:59:09.90	13.22	11.59	-29.6	-32.7	13.4	5.03e-04	0	42	0	97517568	19	5148
2026-01-17 00:59:12.88	13.09	11.86	-29.5	-32.4	13.6	2.71e-03	0	43	0	102760448	19	5023
2026-01-17 00:59:15.89	12.96	12.13	-29.6	-32.7	13.5	2.48e-03	0	43	0	108003328	19	5136
2026-01-17 00:59:18.89	12.83	12.41	-29.5	-32.8	13.7	2.76e-03	0	43	0	114294784	18	5286
2026-01-17 00:59:21.89	12.70	12.69	-29.2	-32.1	14.2	2.20e-06	0	42	0	119537664	18	5018
2026-01-17 00:59:24.90	12.56	12.97	-29.2	-32.1	14.2	1.19e-04	0	43	0	125829120	18	5009
2026-01-17 00:59:27.91	12.42	13.26	-29.4	-32.5	14.0	5.56e-04	0	43	0	131072000	18	5166
2026-01-17 00:59:30.92	12.27	13.55	-29.2	-32.1	14.2	5.06e-04	0	43	0	136314880	18	5021
2026-01-17 00:59:33.92	12.13	13.85	-29.2	-32.0	14.4	4.58e-04	0	42	0	142606336	18	4975
2026-01-17 00:59:36.92	11.98	14.14	-29.5	-32.3	13.8	2.58e-03	0	43	0	147849216	19	4985
2026-01-17 00:59:39.92	11.83	14.44	-29.4	-32.0	14.1	3.00e-06	0	42	0	153092096	19	4865
2026-01-17 00:59:42.92	11.67	14.74	-29.3	-32.2	14.3	4.26e-04	0	43	0	159383552	18	5041
2026-01-17 00:59:45.93	11.51	15.05	-29.3	-32.3	14.2	4.11e-04	0	43	0	164626432	18	5094
2026-01-17 00:59:48.93	11.35	15.36	-29.3	-31.8	14.3	3.72e-04	0	43	0	170917888	19	4785
2026-01-17 00:59:51.95	11.18	15.68	-29.3	-32.3	14.2	4.04e-04	0	43	0	176160768	18	5062
2026-01-17 00:59:54.95	11.01	16.00	-29.5	-32.3	14.0	3.68e-04	0	43	0	181403648	19	4951
2026-01-17 00:59:57.96	10.83	16.32	-29.5	-32.7	14.1	3.43e-04	0	43	0	187695104	18	5198
2026-01-17 01:00:00.97	10.65	16.65	-29.4	-32.5	14.2	4.17e-04	0	43	0	192937984	18	5155
2026-01-17 01:00:03.97	10.47	16.98	-28.4	-31.5	14.3	5.70e-04	0	43	0	198180864	18	5105
2026-01-17 01:00:06.99	10.28	17.32	-29.2	-31.9	14.6	7.83e-04	0	43	0	204472320	18	4943
2026-01-17 01:00:10.00	10.09	17.66	-29.5	-32.6	14.2	3.75e-04	0	43	0	209715200	18	5185
2026-01-17 01:00:13.00	9.89	18.00	-29.3	-32.2	14.4	3.66e-04	0	43	0	216006656	18	5028
2026-01-17 01:00:16.00	9.69	18.35	-29.3	-32.2	14.4	4.32e-04	0	43	0	221249536	18	5029
2026-01-17 01:00:19.01	9.49	18.70	-29.3	-32.3	14.4	2.45e-03	0	43	0	226492416	18	5047
2026-01-17 01:00:22.03	9.27	19.06	-29.5	-32.3	14.1	2.35e-03	0	43	0	232783872	19	4947
2026-01-17 01:00:25.04	9.06	19.42	-29.7	-32.8	13.8	2.16e-03	0	43	0	238026752	19	5115
2026-01-17 01:00:28.04	8.83	19.79	-29.7	-32.7	13.9	2.82e-04	0	43	0	244318208	19	5071
2026-01-17 01:00:31.05	8.60	20.16	-29.6	-32.4	14.1	3.80e-04	0	43	0	249561088	19	4981
2026-01-17 01:00:34.04	8.37	20.54	-28.9	-31.6	15.1	4.23e-04	0	43	0	254803968	17	4918
2026-01-17 01:00:37.05	8.13	20.92	-29.1	-31.6	14.9	2.35e-03	0	43	0	261095424	18	4817
2026-01-17 01:00:40.06	7.88	21.31	-29.0	-31.4	15.1	2.26e-03	0	43	0	266338304	18	4750
2026-01-17 01:00:43.07	7.63	21.71	-29.1	-31.6	15.0	2.10e-03	0	43	0	271581184	18	4791
2026-01-17 01:00:46.07	7.37	22.10	-28.9	-31.7	15.2	2.29e-03	0	43	0	277872640	17	4961
2026-01-17 01:00:49.07	7.10	22.51	-29.1	-31.7	14.9	2.19e-03	0	43	0	283115520	18	4843
2026-01-17 01:00:52.08	6.83	22.92	-29.1	-31.7	14.9	1.80e-04	0	43	0	288358400	18	4838
2026-01-17 01:00:55.08	6.55	23.34	-29.1	-31.7	14.9	2.30e-03	0	43	0	294649856	18	4836
2026-01-17 01:00:58.09	6.26	23.76	-29.2	-31.8	14.9	2.14e-03	0	43	0	299892736	18	4850
2026-01-17 01:01:01.09	5.96	24.19	-29.2	-31.9	14.9	2.02e-03	0	43	0	306184192	18	4885
2026-01-17 01:01:04.10	5.65	24.62	-29.5	-32.5	14.4	2.30e-03	0	43	0	311427072	18	5116
2026-01-17 01:01:07.11	5.34	25.07	-29.5	-32.2	14.4	2.35e-03	0	43	0	316669952	19	4884
2026-01-17 01:01:10.11	5.01	25.51	-29.8	-33.0	13.8	2.21e-03	0	43	0	322961408	19	5172
2026-01-17 01:01:13.11	4.68	25.97	-30.2	-33.5	13.1	2.13e-05	0	43	0	328204288	20	5269
2026-01-17 01:01:16.13	4.33	26.43	-30.3	-33.7	13.0	2.58e-03	0	43	0	333447168	20	5349
2026-01-17 01:01:19.13	3.97	26.90	-30.5	-34.3	12.5	2.34e-03	0	43	0	339738624	20	5582
2026-01-17 01:01:22.14	3.61	27.37	-30.9	-35.0	11.8	2.87e-03	0	43	0	344981504	21	5769
2026-01-17 01:01:25.14	3.23	27.85	-31.0	-34.7	11.7	3.34e-03	0	43	0	351272960	22	5546
2026-01-17 01:01:28.15	2.84	28.34	-31.3	-35.7	10.9	4.19e-03	0	43	0	356515840	22	6014
2026-01-17 01:01:31.16	2.43	28.84	-31.1	-35.0	11.5	1.35e-03	0	43	0	361758720	22	5675
2026-01-17 01:01:34.17	2.02	29.34	-31.1	-35.2	11.4	5.89e-04	0	43	0	368050176	22	5733
2026-01-17 01:01:37.18	1.59	29.86	-31.1	-35.1	11.4	1.07e-03	0	43	0	373293056	22	5722
2026-01-17 01:01:40.18	1.15	30.37	-31.0	-35.2	11.8	3.05e-03	0	43	0	378535936	21	5842
2026-01-17 01:01:43.18	0.69	30.90	-31.3	-35.6	11.1	4.21e-03	0	43	0	384827392	22	5948
2026-01-17 01:01:46.19	0.21	31.43	-31.2	-35.4	11.3	3.08e-03	0	43	0	390070272	22	5813
2026-01-17 01:01:49.19	359.72	31.97	-31.0	-34.8	11.7	5.91e-04	0	43	0	396361728	22	5572
2026-01-17 01:01:52.20	359.21	32.52	-31.3	-35.8	11.0	1.26e-03	0	43	0	401604608	22	6023
2026-01-17 01:01:55.20	358.69	33.07	-30.7	-34.4	12.3	3.25e-04	0	43	0	406847488	21	5487
2026-01-17 01:01:58.20	358.15	33.64	-30.9	-35.0	12.0	4.23e-04	0	43	0	413138944	21	5738
2026-01-17 01:02:01.20	357.58	34.20	-31.1	-34.9	11.7	6.61e-04	0	43	0	418381824	22	5615
2026-01-17 01:02:04.21	357.00	34.78	-31.4	-35.9	11.0	2.26e-03	0	43	0	423624704	22	6029
2026-01-17 01:02:07.21	356.39	35.37	-31.2	-35.4	11.4	1.06e-03	0	43	0	429916160	22	5794
2026-01-17 01:02:10.21	355.77	35.96	-31.6	-36.2	10.5	2.90e-03	0	43	0	435159040	23	6077
2026-01-17 01:02:13.21	355.11	36.56	-31.5	-35.9	10.7	2.34e-03	0	43	0	441450496	23	5946
2026-01-17 01:02:16.20	354.44	37.16	-31.6	-36.0	10.6	4.14e-03	0	43	0	446693376	23	5978
2026-01-17 01:02:19.22	353.73	37.77	-31.6	-36.2	10.5	4.95e-03	0	43	0	451936256	23	6069
2026-01-17 01:02:22.22	353.00	38.39	-31.4	-35.9	11.1	1.66e-03	0	43	0	458227712	22	6034
2026-01-17 01:02:25.22	352.25	39.01	-31.7	-36.3	10.4	4.52e-03	0	43	0	463470592	23	6153
2026-01-17 01:02:28.22	351.46	39.64	-31.6	-36.1	10.5	3.33e-03	0	43	0	468713472	23	6076
2026-01-17 01:02:31.22	350.64	40.27	-32.0	-37.1	9.4	1.01e-02	0	43	0	475004928	24	6448
2026-01-17 01:02:34.23	349.78	40.91	-31.7	-36.5	10.2	4.96e-03	0	43	0	480247808	23	6259
2026-01-17 01:02:37.23	348.89	41.56	-31.3	-35.6	11.3	2.88e-03	0	44	0	486539264	22	5900
2026-01-17 01:02:40.24	347.97	42.20	-31.0	-34.6	12.0	3.42e-04	0	43	0	491782144	22	5461
2026-01-17 01:02:43.26	347.00	42.85	-30.8	-34.4	12.5	2.25e-04	0	43	0	497025024	21	5507
2026-01-17 01:02:46.27	345.99	43.51	-30.7	-34.1	12.7	7.70e-05	0	43	0	503316480	21	5361
2026-01-17 01:02:49.27	344.94	44.16	-30.6	-33.8	12.8	5.72e-05	0	43	0	508559360	21	5243
2026-01-17 01:02:52.28	343.85	44.81	-30.8	-34.7	12.3	1.56e-04	0	44	0	513802240	21	5588
2026-01-17 01:02:55.29	342.71	45.46	-31.1	-35.0	11.7	5.02e-04	0	43	0	520093696	22	5633
2026-01-17 01:02:58.30	341.52	46.10	-31.0	-34.7	12.0	3.66e-04	0	44	0	525336576	22	5486
2026-01-17 01:03:01.30	340.29	46.74	-31.0	-34.5	12.1	3.57e-04	0	43	0	531628032	22	5390
2026-01-17 01:03:04.30	339.01	47.38	-31.2	-35.1	11.7	4.52e-04	0	44	0	536870912	22	5643
2026-01-17 01:03:07.30	337.67	48.01	-31.2	-35.2	11.7	7.51e-04	0	43	0	542113792	22	5712
2026-01-17 01:03:10.31	336.27	48.63	-31.3	-35.7	11.3	1.42e-03	0	43	0	548405248	22	5918
2026-01-17 01:03:13.31	334.82	49.24	-30.9	-34.4	12.2	3.86e-04	0	44	0	553648128	22	5372
2026-01-17 01:03:16.32	333.30	49.84	-30.5	-33.6	13.0	2.67e-05	0	44	0	558891008	21	5171
2026-01-17 01:03:19.33	331.73	50.42	-30.2	-32.9	13.5	2.44e-05	0	43	0	565182464	21	4913
2026-01-17 01:03:22.33	330.09	50.99	-29.8	-32.2	14.2	7.00e-07	0	43	0	570425344	20	4769
2026-01-17 01:03:25.33	328.40	51.54	-29.3	-32.0	15.1	0.00e+00	0	44	0	575668224	18	4890
2026-01-17 01:03:28.34	326.64	52.06	-29.1	-31.5	15.4	6.80e-06	0	43	0	581959680	18	4727
2026-01-17 01:03:31.34	324.82	52.57	-28.8	-31.2	15.9	1.83e-05	0	43	0	587202560	17	4750
2026-01-17 01:03:34.34	322.94	53.04	-29.0	-31.1	15.7	0.00e+00	0	43	0	593494016	18	4596
2026-01-17 01:03:37.33	321.00	53.49	-29.3	-31.9	15.2	0.00e+00	0	43	0	598736896	18	4877
2026-01-17 01:03:40.34	318.99	53.91	-29.9	-32.9	14.3	0.00e+00	0	43	0	603979776	19	5098
2026-01-17 01:03:43.33	316.94	54.29	-29.8	-32.2	14.3	1.50e-06	0	43	0	610271232	20	4754
2026-01-17 01:03:46.34	314.82	54.64	-29.6	-32.1	14.8	7.00e-07	0	43	0	615514112	19	4814
2026-01-17 01:03:49.34	312.66	54.95	-29.3	-31.8	15.2	0.00e+00	0	43	0	620756992	18	4836
2026-01-17 01:03:52.35	310.45	55.22	-29.2	-31.2	15.4	7.00e-07	0	43	0	627048448	19	4520
2026-01-17 01:03:55.35	308.20	55.45	-29.3	-31.9	15.2	0.00e+00	0	43	0	632291328	18	4863
2026-01-17 01:03:58.35	305.93	55.64	-28.4	-30.2	16.5	0.00e+00	0	44	0	638582784	17	4437
2026-01-17 01:04:01.35	303.62	55.78	-28.3	-30.1	16.6	0.00e+00	0	43	0	643825664	17	4415
2026-01-17 01:04:04.36	301.29	55.87	-28.0	-29.8	17.0	0.00e+00	0	43	0	649068544	16	4423
2026-01-17 01:04:07.35	298.96	55.92	-28.2	-30.2	16.8	0.00e+00	0	44	0	655360000	16	4547
2026-01-17 01:04:10.37	296.60	55.92	-28.0	-29.9	17.0	0.00e+00	0	43	0	660602880	16	4458
2026-01-17 01:04:13.37	294.26	55.88	-28.3	-30.6	16.6	0.00e+00	0	43	0	665845760	16	4679
2026-01-17 01:04:16.38	291.92	55.78	-28.7	-30.9	16.1	0.00e+00	0	43	0	672137216	17	4658
2026-01-17 01:04:19.39	289.61	55.64	-27.9	-29.5	17.2	7.00e-07	0	44	0	677380096	16	4354
2026-01-17 01:04:22.39	287.33	55.46	-27.2	-28.5	17.9	2.20e-06	0	44	0	683671552	15	4193
2026-01-17 01:04:25.40	285.07	55.23	-26.7	-27.8	18.5	2.20e-06	0	43	0	688914432	14	4104
2026-01-17 01:04:28.41	282.85	54.96	-26.7	-28.4	18.4	0.00e+00	0	43	0	694157312	13	4391
2026-01-17 01:04:31.41	280.69	54.66	-26.7	-28.3	18.5	0.00e+00	0	43	0	700448768	13	4350
2026-01-17 01:04:34.43	278.56	54.31	-27.2	-29.0	17.8	0.00e+00	0	43	0	705691648	14	4439
2026-01-17 01:04:37.42	276.50	53.92	-27.6	-29.4	17.4	7.00e-07	0	44	0	710934528	15	4452
2026-01-17 01:04:40.42	274.49	53.51	-28.4	-30.7	16.6	1.50e-06	0	43	0	717225984	16	4699
2026-01-17 01:04:43.42	272.55	53.06	-29.0	-31.1	15.7	7.00e-07	0	43	0	722468864	18	4599
2026-01-17 01:04:46.41	270.67	52.59	-28.7	-30.9	16.2	0.00e+00	0	44	0	727711744	17	4642
2026-01-17 01:04:49.41	268.84	52.08	-29.2	-31.7	15.3	0.00e+00	0	43	0	734003200	18	4797
2026-01-17 01:04:52.42	267.07	51.56	-29.6	-32.1	14.8	0.00e+00	0	43	0	739246080	19	4810
2026-01-17 01:04:55.43	265.37	51.01	-29.8	-32.9	14.3	6.80e-06	0	43	0	745537536	19	5089
2026-01-17 01:04:58.43	263.73	50.44	-30.8	-34.4	12.5	7.24e-05	0	43	0	750780416	21	5479
2026-01-17 01:05:01.43	262.15	49.86	-30.5	-34.2	12.1	3.66e-05	0	43	0	756023296	20	5484
2026-01-17 01:05:04.45	260.63	49.26	-30.9	-35.0	11.9	1.03e-04	0	43	0	762314752	21	5710
2026-01-17 01:05:07.45	259.17	48.64	-31.7	-36.4	10.3	6.50e-03	0	44	0	767557632	23	6197
2026-01-17 01:05:10.49	257.75	48.02	-31.6	-36.2	10.6	4.92e-03	0	44	0	772800512	23	6067
2026-01-17 01:05:13.66	256.33	47.35	-32.0	-37.4	9.3	1.27e-02	0	44	0	779091968	23	6701
2026-01-17 01:05:16.52	255.11	46.74	-32.2	-37.7	9.0	1.94e-02	0	43	0	784334848	24	6801
2026-01-17 01:05:19.68	253.80	46.06	-31.4	-36.0	11.0	2.44e-03	0	44	0	789577728	22	6084
2026-01-17 01:05:22.54	252.67	45.45	-31.5	-35.8	10.8	1.63e-03	0	43	0	795869184	23	5901
2026-01-17 01:05:25.69	251.48	44.76	-31.0	-34.8	11.8	8.46e-04	0	43	0	801112064	22	5533
2026-01-17 01:05:28.55	250.44	44.14	-30.3	-33.8	12.1	1.04e-04	0	44	0	806354944	21	5407
2026-01-17 01:05:31.70	249.34	43.46	-30.8	-34.8	12.1	2.31e-04	0	44	0	812646400	21	5664
2026-01-17 01:05:34.56	248.38	42.84	-30.9	-35.0	11.3	2.81e-04	0	44	0	817889280	21	5738
2026-01-17 01:05:37.72	247.36	42.15	-30.8	-34.7	12.2	3.36e-03	0	44	0	824180736	21	5631
2026-01-17 01:05:40.58	246.48	41.54	-31.4	-36.1	10.9	2.21e-03	0	43	0	829423616	22	6179
2026-01-17 01:05:43.74	245.54	40.86	-31.7	-36.4	10.2	5.26e-03	0	43	0	835715072	23	6228
2026-01-17 01:05:46.60	244.73	40.25	-31.7	-36.4	10.2	5.67e-03	0	44	0	840957952	23	6214
2026-01-17 01:05:49.75	243.86	39.58	-31.7	-36.5	10.2	7.34e-03	0	43	0	846200832	23	6267
2026-01-17 01:05:52.61	243.11	38.98	-31.9	-37.1	9.8	1.52e-02	0	44	0	851443712	23	6574
2026-01-17 01:05:55.75	242.31	38.33	-31.3	-35.7	11.2	3.39e-03	0	43	0	857735168	22	5967
2026-01-17 01:05:58.62	241.61	37.73	-31.3	-35.6	11.2	9.11e-04	0	43	0	862978048	22	5935
2026-01-17 01:06:01.76	240.88	37.09	-31.4	-36.1	10.8	3.22e-03	0	43	0	869269504	22	6167
2026-01-17 01:06:04.62	240.23	36.51	-31.2	-35.4	11.2	1.58e-03	0	43	0	874512384	22	5856
2026-01-17 01:06:07.77	239.54	35.88	-30.6	-34.2	12.5	7.50e-04	0	43	0	879755264	21	5410
2026-01-17 01:06:10.62	238.95	35.32	-30.5	-33.9	12.7	2.41e-03	0	43	0	886046720	21	5299
2026-01-17 01:06:13.77	238.31	34.70	-30.7	-34.5	12.3	1.35e-03	0	43	0	891289600	21	5565
2026-01-17 01:06:16.64	237.75	34.15	-31.0	-34.8	11.7	1.08e-03	0	44	0	896532480	22	5562
2026-01-17 01:06:19.79	237.16	33.55	-30.8	-34.7	12.1	1.03e-03	0	44	0	902823936	21	5658
2026-01-17 01:06:22.65	236.64	33.01	-30.6	-34.2	12.4	9.05e-04	0	44	0	908066816	21	5447
2026-01-17 01:06:25.80	236.08	32.43	-30.6	-34.0	12.5	1.50e-04	0	44	0	914358272	21	5336
2026-01-17 01:06:28.65	235.60	31.91	-30.7	-34.4	12.3	5.24e-04	0	44	0	919601152	21	5517
2026-01-17 01:06:31.81	235.08	31.34	-30.9	-35.0	11.9	4.46e-04	0	43	0	924844032	21	5759
2026-01-17 01:06:34.67	234.63	30.83	-31.0	-35.2	11.6	1.38e-03	0	44	0	931135488	21	5903
2026-01-17 01:06:37.83	234.15	30.27	-30.9	-35.2	11.7	1.23e-03	0	44	0	936378368	21	5886
2026-01-17 01:06:40.68	233.72	29.78	-30.7	-34.6	12.0	1.04e-03	0	44	0	941621248	21	5638
2026-01-17 01:06:43.83	233.27	29.24	-30.3	-33.2	13.0	2.97e-05	0	43	0	947912704	21	5069
2026-01-17 01:06:46.70	232.87	28.76	-30.4	-34.1	12.7	5.56e-05	0	44	0	953155584	20	5509
2026-01-17 01:06:49.86	232.45	28.24	-30.5	-33.9	12.4	4.07e-04	0	43	0	959447040	21	5359
2026-01-17 01:06:52.72	232.08	27.77	-30.4	-34.3	12.5	1.46e-03	0	44	0	964689920	20	5610
2026-01-17 01:06:55.88	231.68	27.26	-30.4	-34.2	12.6	1.11e-04	0	43	0	970981376	20	5559
2026-01-17 01:06:58.74	231.33	26.81	-30.7	-34.4	12.0	1.47e-03	0	44	0	976224256	21	5572
2026-01-17 01:07:01.90	230.95	26.32	-30.3	-34.0	12.7	1.21e-03	0	43	0	981467136	20	5507
2026-01-17 01:07:04.75	230.62	25.88	-30.3	-33.9	12.8	1.49e-03	0	44	0	986710016	20	5459
2026-01-17 01:07:07.89	230.27	25.40	-30.3	-34.1	12.6	1.63e-03	0	44	0	993001472	20	5530
2026-01-17 01:07:10.75	229.96	24.97	-30.1	-33.3	13.1	1.29e-03	0	43	0	998244352	20	5236
2026-01-17 01:07:13.90	229.63	24.51	-30.0	-33.2	13.1	4.57e-05	0	44	0	1004535808	20	5186
2026-01-17 01:07:16.76	229.33	24.10	-29.7	-32.8	13.8	2.81e-03	0	44	0	1009778688	19	5139
2026-01-17 01:07:19.91	229.02	23.64	-29.7	-32.9	13.7	6.80e-06	0	44	0	1016070144	19	5180
2026-01-17 01:07:22.79	228.74	23.24	-29.7	-32.7	13.8	2.08e-04	0	44	0	1021313024	19	5108
2026-01-17 01:07:25.94	228.44	22.80	-29.8	-33.1	13.6	1.14e-05	0	44	0	1026555904	19	5239
2026-01-17 01:07:28.79	228.18	22.41	-29.9	-33.2	13.5	1.60e-05	0	44	0	1031798784	19	5303
2026-01-17 01:07:31.94	227.90	21.98	-29.8	-33.1	13.5	9.90e-06	0	44	0	1038090240	19	5267
2026-01-17 01:07:34.80	227.65	21.60	-29.8	-33.2	13.5	1.29e-05	0	44	0	1043333120	19	5287
2026-01-17 01:07:37.95	227.38	21.19	-30.0	-33.5	12.3	1.44e-05	0	43	0	1049624576	19	5435
2026-01-17 01:07:40.80	227.14	20.82	-29.9	-33.0	13.2	1.23e-04	0	43	0	1054867456	20	5121
2026-01-17 01:07:43.94	226.89	20.42	-30.4	-34.3	12.3	1.40e-04	0	43	0	1061158912	20	5662
2026-01-17 01:07:46.80	226.67	20.06	-30.6	-34.6	11.7	8.04e-04	0	43	0	1066401792	21	5669
2026-01-17 01:07:49.95	226.42	19.67	-30.4	-34.4	12.2	1.73e-04	0	43	0	1071644672	20	5702
2026-01-17 01:07:52.81	226.21	19.32	-29.8	-33.2	13.4	2.67e-05	0	44	0	1076887552	19	5308
2026-01-17 01:07:55.96	225.98	18.94	-29.7	-32.7	13.7	5.30e-06	0	44	0	1083179008	19	5112
2026-01-17 01:07:58.83	225.78	18.59	-29.6	-32.5	13.9	2.20e-06	0	44	0	1088421888	19	5025
2026-01-17 01:08:01.98	225.56	18.22	-29.6	-32.7	13.7	2.40e-03	0	44	0	1094713344	19	5111
2026-01-17 01:08:04.85	225.37	17.89	-29.6	-32.7	13.7	6.10e-06	0	43	0	1099956224	19	5105
2026-01-17 01:08:08.00	225.16	17.53	-29.7	-32.8	13.6	2.54e-03	0	44	0	1106247680	19	5154
2026-01-17 01:08:10.87	224.97	17.20	-29.9	-33.3	13.2	1.98e-05	0	43	0	1111490560	19	5353
2026-01-17 01:08:14.02	224.77	16.85	-30.0	-33.2	12.9	3.05e-05	0	44	0	1116733440	20	5213
2026-01-17 01:08:16.89	224.60	16.53	-30.0	-33.3	12.8	6.40e-05	0	44	0	1121976320	20	5265
2026-01-17 01:08:20.02	224.41	16.19	-30.2	-33.8	12.4	2.17e-03	0	43	0	1128267776	20	5466
2026-01-17 01:08:22.90	224.24	15.88	-30.1	-33.6	12.6	2.15e-03	0	44	0	1133510656	20	5368
2026-01-17 01:08:26.05	224.06	15.55	-30.0	-33.3	12.7	2.43e-03	0	44	0	1139802112	20	5282
2026-01-17 01:08:28.92	223.89	15.25	-30.1	-33.5	12.5	1.07e-04	0	44	0	1145044992	20	5367
2026-01-17 01:08:32.08	223.72	14.92	-30.2	-33.8	12.3	2.94e-03	0	44	0	1151336448	20	5476
2026-01-17 01:08:34.94	223.57	14.62	-30.2	-33.9	12.2	2.13e-04	0	44	0	1156579328	20	5531
2026-01-17 01:08:38.07	223.40	14.31	-30.3	-34.2	12.0	2.71e-03	0	44	0	1161822208	20	5654
2026-01-17 01:08:40.93	223.25	14.02	-30.2	-34.0	12.1	2.95e-03	0	44	0	1167065088	20	5581
2026-01-17 01:08:44.09	223.09	13.71	-30.3	-34.4	11.8	3.12e-03	0	44	0	1173356544	20	5746
2026-01-17 01:08:46.95	222.95	13.43	-30.0	-33.3	12.6	2.69e-03	0	43	0	1178599424	20	5280
2026-01-17 01:08:50.09	222.80	13.12	-29.9	-33.2	12.6	2.60e-03	0	44	0	1184890880	20	5261
2026-01-17 01:08:52.95	222.66	12.85	-30.0	-33.8	12.7	2.68e-03	0	43	0	1190133760	19	5575
2026-01-17 01:08:56.09	222.52	12.55	-30.0	-33.8	12.6	4.53e-04	0	44	0	1196425216	19	5591
2026-01-17 01:08:58.94	222.39	12.28	-30.0	-33.5	12.4	2.67e-03	0	44	0	1201668096	20	5373
2026-01-17 01:09:02.10	222.25	11.99	-30.1	-33.9	12.1	2.91e-03	0	44	0	1206910976	20	5529
2026-01-17 01:09:04.97	222.12	11.73	-30.3	-34.3	11.8	2.91e-03	0	44	0	1212153856	20	5718
2026-01-17 01:09:08.11	221.99	11.44	-30.4	-34.1	11.5	4.07e-03	0	44	0	1218445312	21	5540
2026-01-17 01:09:10.97	221.87	11.19	-30.5	-34.4	11.3	4.10e-03	0	44	0	1223688192	21	5662
2026-01-17 01:09:14.11	221.74	10.91	-30.4	-34.4	11.3	2.07e-03	0	44	0	1229979648	21	5651
2026-01-17 01:09:16.98	221.62	10.66	-30.4	-34.9	11.2	9.99e-04	0	44	0	1235222528	20	6007
2026-01-17 01:09:20.13	221.50	10.38	-30.4	-34.8	11.3	1.24e-03	0	44	0	1240465408	20	5979
2026-01-17 01:09:23.00	221.38	10.14	-30.5	-35.1	11.1	3.69e-03	0	43	0	1246756864	20	6102
2026-01-17 01:09:26.15	221.26	9.87	-30.4	-34.2	11.4	1.14e-03	0	44	0	1251999744	21	5608
2026-01-17 01:09:29.02	221.16	9.62	-30.3	-34.6	11.3	3.46e-03	0	44	0	1257242624	20	5901
2026-01-17 01:09:32.16	221.04	9.36	-30.4	-34.3	11.2	4.33e-03	0	43	0	1263534080	21	5641
2026-01-17 01:09:35.02	220.94	9.13	-30.2	-34.3	11.5	1.22e-03	0	44	0	1268776960	20	5767
2026-01-17 01:09:38.16	220.83	8.87	-30.3	-34.7	11.2	1.30e-03	0	44	0	1275068416	20	5962
2026-01-17 01:09:41.02	220.73	8.64	-30.3	-34.6	11.2	1.36e-03	0	44	0	1280311296	20	5925
2026-01-17 01:09:44.18	220.62	8.38	-30.5	-34.8	10.7	3.36e-03	0	44	0	1285554176	21	5921
2026-01-17 01:09:47.04	220.52	8.15	-30.5	-34.9	10.7	5.70e-03	0	44	0	1291845632	21	5937
2026-01-17 01:09:50.19	220.42	7.90	-30.7	-35.4	10.2	4.80e-03	0	43	0	1297088512	21	6222
2026-01-17 01:09:53.06	220.32	7.68	-30.7	-35.4	10.1	4.93e-03	0	44	0	1302331392	21	6243
2026-01-17 01:09:56.20	220.22	7.43	-30.7	-35.5	10.0	6.48e-03	0	43	0	1308622848	21	6302
2026-01-17 01:09:59.07	220.13	7.21	-30.7	-35.6	9.9	6.79e-03	0	43	0	1313865728	21	6328
2026-01-17 01:10:02.21	220.04	6.97	-33.1	-47.2	3.8	1.49e+00	0	44	104	1317011456	26	18374

#Closed at: 2026-01-17 01:10:02
#Recorded file [1317 MB]: D:/data/31010_260117_035817.dat