passes_logs/2026/01/17/R2M6_AANII_01/R2M6_AANII_01__20260117_002517_AQUA_rec.log

#Pass ID: 20260117_002517_AQUA
#Satellite: AQUA
#Configuration: AQUA
#almurnet v.1.7.20240730
#Start time: 2026-01-17 00:25:17

#Version: 2.2.20231116
#Station: R2M6_AANII_01
#Location: 30.233357 lon 59.946436 lat
#TLE: 1 27424U 02022A   26016.26443506  .00000711  00000+0  15228-3 0  9999
#TLE: 2 27424  98.4083 342.7130 0002022  76.7284  27.4473 14.61823291261073

#Time	Az	El	Level	Level2	SNR	BER	BlckErr	Temp	State	Recorded	gain1	gain2
2026-01-17 00:25:17.22	33.78	7.01	-30.9	-37.5	5.1	7.09e-01	0	41	0	0	22	7612
2026-01-17 00:25:20.23	34.13	7.19	-32.0	-40.5	10.8	6.14e-01	0	41	0	1572864	24	9624
2026-01-17 00:25:23.24	34.49	7.39	-31.8	-39.0	12.1	6.07e-01	0	41	0	7340032	24	8301
2026-01-17 00:25:26.24	34.85	7.58	-31.4	-37.4	13.9	6.04e-01	0	42	0	13107200	23	7224
2026-01-17 00:25:29.24	35.21	7.77	-31.1	-36.5	14.6	6.03e-01	0	42	0	18350080	23	6674
2026-01-17 00:25:32.25	35.59	7.96	-30.5	-35.3	16.2	6.03e-01	0	42	0	24117248	21	6255
2026-01-17 00:25:35.25	35.96	8.15	-30.5	-34.9	16.0	6.04e-01	0	42	0	29884416	22	5982
2026-01-17 00:25:38.26	36.35	8.34	-30.0	-33.8	17.4	6.03e-01	0	42	0	35651584	21	5553
2026-01-17 00:25:41.27	36.73	8.54	-30.2	-34.2	17.2	6.03e-01	0	42	0	40894464	21	5702
2026-01-17 00:25:44.27	37.13	8.73	-30.1	-33.7	17.4	6.03e-01	0	42	0	46661632	21	5508
2026-01-17 00:25:47.28	37.52	8.93	-30.3	-34.5	16.8	6.03e-01	0	42	0	52428800	21	5855
2026-01-17 00:25:50.29	37.93	9.13	-29.6	-33.1	17.6	6.03e-01	0	42	0	58195968	20	5397
2026-01-17 00:25:53.29	38.34	9.32	-29.7	-33.3	17.8	6.01e-01	0	42	0	63438848	20	5467
2026-01-17 00:25:56.29	38.75	9.52	-29.6	-33.1	17.9	6.02e-01	0	42	0	69206016	20	5371
2026-01-17 00:25:59.31	39.18	9.72	-29.5	-32.9	18.1	6.03e-01	0	42	0	74973184	20	5284
2026-01-17 00:26:02.31	39.60	9.91	-29.7	-33.3	17.9	6.02e-01	0	42	0	80740352	20	5463
2026-01-17 00:26:05.32	40.04	10.11	-29.3	-32.9	17.9	6.04e-01	0	42	0	85983232	19	5447
2026-01-17 00:26:08.32	40.48	10.31	-28.5	-32.6	14.9	6.06e-01	0	42	0	91750400	19	5812
2026-01-17 00:26:11.32	40.92	10.51	-28.7	-32.8	16.6	6.03e-01	0	42	0	97517568	18	5742
2026-01-17 00:26:14.32	41.37	10.71	-29.0	-33.4	16.5	6.06e-01	0	42	0	103284736	18	6025
2026-01-17 00:26:17.32	41.83	10.91	-29.3	-33.0	17.6	6.02e-01	0	42	0	108527616	19	5520
2026-01-17 00:26:20.33	42.30	11.11	-29.7	-32.9	18.6	6.04e-01	0	42	0	114294784	20	5251
2026-01-17 00:26:23.32	42.77	11.31	-29.5	-32.7	18.5	6.01e-01	0	43	0	120061952	20	5166
2026-01-17 00:26:26.32	43.24	11.51	-29.7	-33.0	18.5	6.05e-01	0	42	0	125304832	20	5286
2026-01-17 00:26:29.32	43.73	11.71	-29.5	-32.5	18.7	6.01e-01	0	43	0	131072000	20	5105
2026-01-17 00:26:32.33	44.22	11.91	-29.6	-32.8	18.5	6.04e-01	0	43	0	136839168	20	5184
2026-01-17 00:26:35.33	44.72	12.11	-29.6	-32.7	18.8	6.02e-01	0	43	0	142606336	20	5155
2026-01-17 00:26:38.32	45.23	12.31	-29.7	-33.0	18.2	6.01e-01	0	43	0	147849216	20	5282
2026-01-17 00:26:41.33	45.74	12.51	-29.5	-32.8	19.1	6.04e-01	0	43	0	153616384	19	5304
2026-01-17 00:26:44.33	46.26	12.71	-30.0	-33.4	18.0	6.03e-01	0	43	0	159383552	21	5316
2026-01-17 00:26:47.34	46.79	12.91	-29.9	-33.0	18.4	6.04e-01	0	43	0	165150720	21	5148
2026-01-17 00:26:50.34	47.33	13.11	-29.8	-32.7	18.6	6.01e-01	0	43	0	170393600	21	5035
2026-01-17 00:26:53.36	47.88	13.31	-29.8	-32.6	18.6	6.04e-01	0	43	0	176160768	21	5012
2026-01-17 00:26:56.36	48.43	13.51	-29.5	-32.9	19.2	6.02e-01	0	43	0	181927936	19	5307
2026-01-17 00:26:59.37	48.99	13.71	-29.5	-32.5	19.0	6.02e-01	0	43	0	187695104	20	5057
2026-01-17 00:27:02.38	49.56	13.91	-29.5	-32.8	19.3	6.04e-01	0	43	0	193462272	19	5281
2026-01-17 00:27:05.39	50.13	14.11	-29.9	-33.3	18.5	6.04e-01	0	43	0	198705152	20	5380
2026-01-17 00:27:08.40	50.72	14.30	-29.4	-32.7	19.3	6.01e-01	0	43	0	204472320	19	5215
2026-01-17 00:27:11.39	51.31	14.50	-29.3	-32.4	19.5	6.03e-01	0	43	0	210239488	19	5126
2026-01-17 00:27:14.39	51.91	14.69	-29.4	-32.5	19.5	6.03e-01	0	43	0	215482368	19	5152
2026-01-17 00:27:17.39	52.51	14.88	-29.3	-32.4	19.6	6.03e-01	0	43	0	221249536	19	5108
2026-01-17 00:27:20.40	53.13	15.08	-29.4	-32.5	19.5	6.04e-01	0	43	0	227016704	19	5146
2026-01-17 00:27:23.41	53.76	15.27	-29.3	-32.2	19.7	6.02e-01	0	43	0	232783872	19	5042
2026-01-17 00:27:26.42	54.39	15.46	-29.3	-32.2	19.7	6.01e-01	0	43	0	238026752	19	5041
2026-01-17 00:27:29.41	55.03	15.65	-29.2	-32.0	19.8	6.04e-01	0	43	0	243793920	19	4960
2026-01-17 00:27:32.41	55.68	15.83	-29.4	-32.5	19.5	6.01e-01	0	43	0	249561088	19	5142
2026-01-17 00:27:35.41	56.34	16.02	-29.3	-32.2	19.7	6.01e-01	0	43	0	255328256	19	5053
2026-01-17 00:27:38.42	57.01	16.20	-29.4	-32.6	19.5	6.03e-01	0	43	0	260571136	19	5183
2026-01-17 00:27:41.42	57.68	16.38	-29.2	-31.9	20.0	6.02e-01	0	43	0	266338304	19	4938
2026-01-17 00:27:44.43	58.37	16.56	-29.2	-31.9	19.9	6.02e-01	0	43	0	272105472	19	4939
2026-01-17 00:27:47.43	59.06	16.74	-29.3	-32.3	19.7	6.01e-01	0	43	0	277872640	19	5080
2026-01-17 00:27:50.44	59.76	16.91	-29.4	-32.5	19.5	6.03e-01	0	43	0	283115520	19	5150
2026-01-17 00:27:53.44	60.47	17.08	-29.6	-32.9	19.3	6.02e-01	0	43	0	288882688	19	5298
2026-01-17 00:27:56.44	61.19	17.25	-29.6	-32.5	19.2	6.03e-01	0	43	0	294649856	20	5054
2026-01-17 00:27:59.44	61.91	17.41	-29.4	-32.5	19.5	6.03e-01	0	43	0	300417024	19	5133
2026-01-17 00:28:02.45	62.65	17.58	-29.3	-32.2	19.8	6.02e-01	0	43	0	305659904	19	5017
2026-01-17 00:28:05.45	63.39	17.74	-29.6	-32.9	19.4	6.02e-01	0	43	0	311427072	19	5301
2026-01-17 00:28:08.45	64.14	17.89	-29.5	-32.2	19.4	6.05e-01	0	43	0	317194240	20	4918
2026-01-17 00:28:11.45	64.90	18.04	-29.4	-32.4	19.6	6.02e-01	0	43	0	322961408	19	5104
2026-01-17 00:28:14.46	65.67	18.19	-29.4	-32.5	19.6	6.04e-01	0	43	0	328204288	19	5141
2026-01-17 00:28:17.47	66.44	18.34	-29.9	-33.3	18.7	6.02e-01	0	43	0	333971456	20	5348
2026-01-17 00:28:20.47	67.23	18.48	-29.8	-33.1	18.8	6.01e-01	0	43	0	339738624	20	5277
2026-01-17 00:28:23.48	68.02	18.62	-29.5	-32.8	19.5	6.02e-01	0	43	0	345505792	19	5258
2026-01-17 00:28:26.50	68.82	18.75	-29.5	-32.2	19.5	6.02e-01	0	43	0	350748672	20	4927
2026-01-17 00:28:29.51	69.62	18.88	-29.5	-32.7	19.5	6.04e-01	0	43	0	356515840	19	5206
2026-01-17 00:28:32.51	70.43	19.00	-29.2	-32.0	20.0	6.03e-01	0	43	0	362283008	19	4943
2026-01-17 00:28:35.51	71.25	19.12	-29.4	-32.4	19.8	6.02e-01	0	43	0	368050176	19	5099
2026-01-17 00:28:38.52	72.08	19.23	-29.3	-32.3	19.8	6.02e-01	0	43	0	373293056	19	5057
2026-01-17 00:28:41.54	72.91	19.34	-29.2	-32.1	19.9	6.04e-01	0	43	0	379060224	19	4980
2026-01-17 00:28:44.54	73.75	19.44	-29.4	-32.5	19.7	6.03e-01	0	43	0	384827392	19	5120
2026-01-17 00:28:47.56	74.60	19.54	-29.5	-32.6	19.6	6.03e-01	0	43	0	390594560	19	5176
2026-01-17 00:28:50.56	75.44	19.63	-29.3	-32.3	19.8	6.04e-01	0	43	0	395837440	19	5046
2026-01-17 00:28:53.57	76.30	19.72	-29.4	-32.6	19.7	6.07e-01	0	43	0	401604608	19	5165
2026-01-17 00:28:56.58	77.16	19.80	-29.4	-32.6	19.6	6.04e-01	0	43	0	407371776	19	5154
2026-01-17 00:28:59.58	78.02	19.88	-29.6	-32.9	19.5	6.02e-01	0	43	0	413138944	19	5281
2026-01-17 00:29:02.57	78.88	19.95	-29.7	-32.8	19.2	6.01e-01	0	43	0	418381824	20	5134
2026-01-17 00:29:05.58	79.76	20.01	-29.7	-32.9	19.1	6.03e-01	0	43	0	424148992	20	5164
2026-01-17 00:29:08.57	80.63	20.07	-29.6	-32.5	19.3	6.03e-01	0	43	0	429916160	20	5032
2026-01-17 00:29:11.57	81.51	20.12	-29.5	-32.2	19.5	6.03e-01	0	43	0	435159040	20	4935
2026-01-17 00:29:14.58	82.39	20.16	-29.5	-32.8	19.5	6.03e-01	0	43	0	440926208	19	5230
2026-01-17 00:29:17.58	83.27	20.20	-29.4	-32.4	19.7	6.04e-01	0	43	0	446693376	19	5120
2026-01-17 00:29:20.58	84.16	20.23	-29.4	-32.4	19.7	6.04e-01	0	43	0	452460544	19	5095
2026-01-17 00:29:23.59	85.04	20.25	-29.6	-32.9	19.4	6.03e-01	0	43	0	458227712	19	5270
2026-01-17 00:29:26.59	85.93	20.27	-29.5	-32.3	19.5	6.02e-01	0	43	0	463470592	20	4955
2026-01-17 00:29:29.59	86.82	20.28	-29.4	-32.0	19.7	6.04e-01	0	43	0	469237760	20	4838
2026-01-17 00:29:32.59	87.71	20.29	-29.3	-31.8	19.7	6.04e-01	0	43	0	475004928	20	4782
2026-01-17 00:29:35.60	88.60	20.29	-29.4	-32.0	19.6	6.03e-01	0	43	0	480247808	20	4848
2026-01-17 00:29:38.61	89.49	20.28	-29.5	-32.2	19.5	6.01e-01	0	43	0	486014976	20	4921
2026-01-17 00:29:41.62	90.39	20.26	-29.7	-32.7	19.2	6.04e-01	0	43	0	491782144	20	5101
2026-01-17 00:29:44.63	91.28	20.24	-29.7	-32.7	19.2	6.03e-01	0	43	0	497549312	20	5117
2026-01-17 00:29:47.64	92.17	20.22	-29.4	-32.2	19.6	6.02e-01	0	43	0	503316480	20	4919
2026-01-17 00:29:50.64	93.05	20.18	-29.5	-32.3	19.4	6.01e-01	0	43	0	508559360	20	4959
2026-01-17 00:29:53.64	93.93	20.14	-29.4	-32.4	19.7	6.04e-01	0	43	0	514326528	19	5110
2026-01-17 00:29:56.65	94.82	20.09	-30.0	-33.6	18.6	6.02e-01	0	43	0	520093696	20	5457
2026-01-17 00:29:59.65	95.69	20.04	-30.2	-33.6	18.3	6.01e-01	0	43	0	525336576	21	5346
2026-01-17 00:30:02.66	96.57	19.98	-29.9	-32.8	18.8	6.03e-01	0	43	0	531103744	21	5025
2026-01-17 00:30:05.67	97.44	19.91	-30.3	-33.8	18.2	6.03e-01	0	43	0	536870912	21	5444
2026-01-17 00:30:08.67	98.31	19.84	-29.5	-31.8	19.4	6.02e-01	0	43	0	542638080	21	4681
2026-01-17 00:30:11.68	99.17	19.76	-29.5	-32.2	19.5	6.02e-01	0	43	0	548405248	20	4946
2026-01-17 00:30:14.69	100.03	19.68	-29.6	-32.5	19.2	6.02e-01	0	43	0	553648128	20	5050
2026-01-17 00:30:17.68	100.88	19.59	-29.6	-33.0	19.4	6.04e-01	0	43	0	559415296	19	5323
2026-01-17 00:30:20.70	101.73	19.49	-29.6	-32.6	19.2	6.03e-01	0	44	0	565182464	20	5074
2026-01-17 00:30:23.70	102.57	19.39	-29.5	-32.7	19.5	6.01e-01	0	43	0	570425344	19	5219
2026-01-17 00:30:26.72	103.41	19.29	-29.4	-32.6	19.6	6.04e-01	0	44	0	576192512	19	5188
2026-01-17 00:30:29.72	104.24	19.18	-29.5	-32.7	19.5	6.02e-01	0	43	0	581959680	19	5215
2026-01-17 00:30:32.72	105.07	19.06	-29.5	-32.6	19.5	6.03e-01	0	43	0	587726848	19	5187
2026-01-17 00:30:35.71	105.88	18.94	-29.5	-32.3	19.4	6.03e-01	0	43	0	592969728	20	4965
2026-01-17 00:30:38.71	106.69	18.81	-29.4	-32.1	19.5	6.02e-01	0	43	0	598736896	20	4889
2026-01-17 00:30:41.73	107.50	18.68	-29.6	-32.5	19.3	6.02e-01	0	43	0	604504064	20	5029
2026-01-17 00:30:44.73	108.29	18.55	-29.4	-32.4	19.7	6.02e-01	0	43	0	610271232	19	5087
2026-01-17 00:30:47.74	109.08	18.41	-29.3	-31.8	19.7	6.05e-01	0	43	0	615514112	20	4802
2026-01-17 00:30:50.74	109.87	18.26	-29.3	-32.2	19.8	6.03e-01	0	43	0	621281280	19	5037
2026-01-17 00:30:53.75	110.64	18.12	-29.3	-32.2	19.7	6.02e-01	0	43	0	627048448	19	5024
2026-01-17 00:30:56.76	111.41	17.96	-29.3	-32.4	19.7	6.05e-01	0	43	0	632815616	19	5104
2026-01-17 00:30:59.76	112.17	17.81	-29.4	-32.4	19.7	6.01e-01	0	43	0	638058496	19	5116
2026-01-17 00:31:02.77	112.92	17.65	-29.3	-32.3	19.6	6.02e-01	0	43	0	643825664	19	5083
2026-01-17 00:31:05.77	113.66	17.49	-29.2	-32.2	19.7	6.02e-01	0	43	0	649592832	19	5048
2026-01-17 00:31:08.78	114.39	17.32	-29.2	-32.1	19.8	6.04e-01	0	43	0	655360000	19	5008
2026-01-17 00:31:11.79	115.12	17.15	-29.3	-32.2	19.6	6.02e-01	0	43	0	661127168	19	5055
2026-01-17 00:31:14.80	115.84	16.98	-29.3	-32.4	19.5	6.03e-01	0	43	0	666370048	19	5132
2026-01-17 00:31:17.81	116.55	16.81	-29.6	-33.1	19.1	6.03e-01	0	44	0	672137216	19	5388
2026-01-17 00:31:20.82	117.25	16.63	-29.4	-32.6	19.4	6.01e-01	0	44	0	677904384	19	5183
2026-01-17 00:31:23.84	117.95	16.45	-29.7	-32.9	18.9	6.00e-01	0	43	0	683671552	20	5184
2026-01-17 00:31:26.84	118.63	16.27	-29.5	-32.3	19.2	6.03e-01	0	43	0	688914432	20	4971
2026-01-17 00:31:29.85	119.30	16.09	-29.3	-32.3	19.6	6.03e-01	0	43	0	694681600	19	5094
2026-01-17 00:31:32.86	119.97	15.90	-29.3	-32.3	19.6	6.04e-01	0	43	0	700448768	19	5084
2026-01-17 00:31:35.86	120.63	15.72	-29.3	-32.4	19.5	6.01e-01	0	43	0	706215936	19	5124
2026-01-17 00:31:38.87	121.28	15.53	-29.4	-32.5	19.4	6.04e-01	0	43	0	711458816	19	5164
2026-01-17 00:31:41.86	121.92	15.34	-29.3	-31.9	19.4	6.06e-01	0	43	0	717225984	20	4862
2026-01-17 00:31:44.86	122.55	15.15	-29.3	-32.3	19.5	6.01e-01	0	43	0	722993152	19	5105
2026-01-17 00:31:47.87	123.17	14.95	-29.3	-32.3	19.5	6.02e-01	0	43	0	728236032	19	5111
2026-01-17 00:31:50.87	123.79	14.76	-29.3	-32.4	19.5	6.05e-01	0	43	0	734003200	19	5131
2026-01-17 00:31:53.87	124.39	14.56	-29.2	-32.2	19.5	6.03e-01	0	43	0	739770368	19	5051
2026-01-17 00:31:56.87	124.99	14.37	-29.3	-32.3	19.5	6.01e-01	0	43	0	745537536	19	5092
2026-01-17 00:31:59.87	125.58	14.17	-29.2	-32.1	19.6	6.04e-01	0	43	0	750780416	19	5042
2026-01-17 00:32:02.88	126.16	13.97	-29.3	-32.4	19.4	6.04e-01	0	43	0	756547584	19	5158
2026-01-17 00:32:05.89	126.74	13.77	-29.2	-32.2	19.5	6.02e-01	0	43	0	762314752	19	5083
2026-01-17 00:32:08.89	127.30	13.57	-29.4	-32.6	19.2	6.02e-01	0	43	0	768081920	19	5209
2026-01-17 00:32:11.88	127.86	13.37	-29.4	-32.7	19.1	6.02e-01	0	43	0	773324800	19	5290
2026-01-17 00:32:14.89	128.41	13.17	-29.5	-33.1	18.9	6.02e-01	0	43	0	779091968	19	5440
2026-01-17 00:32:17.89	128.95	12.97	-29.5	-32.4	18.9	6.03e-01	0	43	0	784859136	20	5069
2026-01-17 00:32:20.89	129.49	12.77	-29.4	-32.4	18.9	6.03e-01	0	44	0	790626304	20	5041
2026-01-17 00:32:23.89	130.01	12.56	-29.4	-32.3	18.9	6.02e-01	0	43	0	795869184	20	5055
2026-01-17 00:32:26.90	130.53	12.36	-29.3	-32.2	18.9	6.04e-01	0	43	0	801636352	20	5026
2026-01-17 00:32:29.90	131.05	12.16	-29.4	-32.9	18.9	6.04e-01	0	43	0	807403520	19	5365
2026-01-17 00:32:32.90	131.55	11.96	-29.5	-32.6	18.6	6.04e-01	0	43	0	813170688	20	5151
2026-01-17 00:32:35.91	132.05	11.75	-29.4	-33.0	18.7	6.03e-01	0	43	0	818413568	19	5454
2026-01-17 00:32:38.92	132.54	11.55	-29.4	-32.9	18.9	6.02e-01	0	43	0	824180736	19	5374
2026-01-17 00:32:41.93	133.03	11.35	-29.5	-33.2	18.6	6.05e-01	0	44	0	829947904	19	5473
2026-01-17 00:32:44.94	133.50	11.15	-29.6	-32.9	18.4	6.02e-01	0	43	0	835715072	20	5322
2026-01-17 00:32:47.95	133.98	10.94	-29.4	-33.2	18.5	6.02e-01	0	43	0	840957952	19	5555
2026-01-17 00:32:50.96	134.44	10.74	-29.4	-32.5	18.5	6.03e-01	0	44	0	846725120	20	5177
2026-01-17 00:32:53.96	134.90	10.54	-29.7	-33.3	18.1	6.03e-01	0	43	0	852492288	20	5455
2026-01-17 00:32:56.97	135.35	10.34	-29.7	-33.2	18.1	6.02e-01	0	43	0	858259456	20	5429
2026-01-17 00:32:59.98	135.79	10.14	-29.8	-33.6	17.8	6.02e-01	0	43	0	863502336	20	5577
2026-01-17 00:33:02.98	136.23	9.94	-29.8	-33.6	17.8	6.02e-01	0	44	0	869269504	20	5576
2026-01-17 00:33:05.98	136.66	9.74	-29.6	-33.3	17.9	6.04e-01	0	44	0	875036672	20	5496
2026-01-17 00:33:08.97	137.08	9.54	-29.8	-34.2	17.2	6.02e-01	0	43	0	880279552	20	5938
2026-01-17 00:33:11.98	137.50	9.34	-29.8	-33.9	17.5	6.02e-01	0	43	0	886046720	20	5758
2026-01-17 00:33:14.99	137.92	9.14	-30.1	-34.0	17.1	6.04e-01	0	43	0	891813888	21	5678
2026-01-17 00:33:17.99	138.32	8.94	-29.9	-34.1	17.3	6.02e-01	0	43	0	897581056	20	5817
2026-01-17 00:33:21.01	138.73	8.75	-30.0	-34.6	16.9	6.03e-01	0	43	0	903348224	20	6084
2026-01-17 00:33:24.00	139.12	8.55	-30.0	-34.0	16.8	6.03e-01	0	43	0	908591104	21	5745
2026-01-17 00:33:27.00	139.51	8.35	-30.1	-34.7	16.7	6.03e-01	0	44	0	914358272	20	6151
2026-01-17 00:33:30.01	139.90	8.16	-29.7	-33.3	17.2	6.03e-01	0	43	0	920125440	21	5476
2026-01-17 00:33:33.02	140.28	7.96	-29.6	-34.1	16.8	6.03e-01	0	44	0	925368320	20	6072
2026-01-17 00:33:36.02	140.65	7.77	-29.4	-34.8	16.5	6.09e-01	0	43	0	931135488	18	6679
2026-01-17 00:33:39.02	141.02	7.58	-29.8	-35.5	15.1	6.07e-01	0	43	0	936902656	20	6908
2026-01-17 00:33:42.02	141.38	7.38	-29.9	-35.9	15.0	6.02e-01	0	43	0	942669824	20	7116
2026-01-17 00:33:45.02	141.74	7.19	-30.1	-36.4	14.8	6.04e-01	0	43	0	947912704	20	7401
2026-01-17 00:33:48.02	142.09	7.00	-32.8	-51.1	3.8	7.39e-01	0	44	104	952631296	26	29549

#Closed at: 2026-01-17 00:33:48
#Recorded file [952 MB]: D:/data/31010_260117_032519.dat