passes_logs/2026/01/17/R2M6_AANII_01/R2M6_AANII_01__20260117_225915_NOAA_20_JPSS-1_rec.log

#Pass ID: 20260117_225915_NOAA 20 (JPSS-1)
#Satellite: NOAA 20 (JPSS-1)
#Configuration: NOAA 20
#almurnet v.1.7.20240730
#Start time: 2026-01-17 22:59:16

#Version: 2.2.20231116
#Station: R2M6_AANII_01
#Location: 30.233357 lon 59.946436 lat
#TLE: 1 43013U 17073A   26017.30359522  .00000067  00000+0  52526-4 0  9990
#TLE: 2 43013  98.7639 318.2187 0001419  36.2087 323.9184 14.19536557423067

#Time	Az	El	Level	Level2	SNR	BER	BlckErr	Temp	State	Recorded	gain1	gain2
2026-01-17 22:59:16.86	27.54	7.10	-31.8	-37.7	5.2	1.22e+00	0	41	0	0	23	7095
2026-01-17 22:59:19.87	27.78	7.30	-32.5	-40.5	6.1	2.35e-01	0	41	0	1048576	24	9057
2026-01-17 22:59:22.88	28.03	7.50	-32.1	-38.3	7.8	1.37e-01	0	41	0	7340032	24	7330
2026-01-17 22:59:25.88	28.28	7.71	-32.0	-38.1	8.4	4.25e-02	0	42	0	12582912	23	7290
2026-01-17 22:59:28.90	28.53	7.91	-31.6	-36.8	9.5	1.50e-02	0	42	0	17825792	23	6498
2026-01-17 22:59:31.90	28.79	8.12	-31.4	-36.0	10.2	8.39e-03	0	42	0	24117248	23	6080
2026-01-17 22:59:34.91	29.05	8.33	-31.4	-35.7	10.4	4.92e-03	0	42	0	29360128	23	5911
2026-01-17 22:59:37.93	29.31	8.54	-31.0	-34.9	11.4	1.19e-03	0	42	0	35651584	22	5645
2026-01-17 22:59:40.94	29.58	8.75	-31.1	-35.3	11.2	1.38e-03	0	42	0	40894464	22	5814
2026-01-17 22:59:43.94	29.85	8.96	-31.2	-35.7	10.8	2.14e-03	0	42	0	46137344	22	6031
2026-01-17 22:59:46.95	30.12	9.17	-31.0	-34.7	11.6	7.64e-04	0	42	0	52428800	22	5559
2026-01-17 22:59:49.95	30.40	9.38	-30.8	-34.6	12.0	3.94e-04	0	42	0	57671680	21	5625
2026-01-17 22:59:52.95	30.68	9.60	-30.7	-34.5	12.2	2.10e-04	0	42	0	62914560	21	5567
2026-01-17 22:59:55.96	30.97	9.82	-30.8	-34.7	12.1	4.51e-04	0	42	0	69206016	21	5628
2026-01-17 22:59:58.97	31.26	10.04	-30.7	-34.3	12.4	1.19e-04	0	42	0	74448896	21	5472
2026-01-17 23:00:01.98	31.55	10.25	-30.7	-34.5	12.2	1.73e-04	0	43	0	80740352	21	5545
2026-01-17 23:00:04.98	31.85	10.48	-30.7	-34.3	12.3	5.74e-04	0	43	0	85983232	21	5486
2026-01-17 23:00:07.99	32.15	10.70	-30.9	-35.0	11.9	7.21e-04	0	43	0	91226112	21	5767
2026-01-17 23:00:11.00	32.46	10.92	-30.9	-35.1	11.9	6.23e-04	0	42	0	97517568	21	5798
2026-01-17 23:00:14.02	32.77	11.15	-30.9	-34.6	11.9	4.33e-04	0	43	0	102760448	22	5456
2026-01-17 23:00:17.03	33.09	11.37	-30.9	-34.9	12.1	3.08e-04	0	43	0	109051904	21	5702
2026-01-17 23:00:20.03	33.41	11.60	-31.1	-34.9	11.7	5.67e-04	0	43	0	114294784	22	5615
2026-01-17 23:00:23.03	33.73	11.83	-30.9	-34.4	12.1	2.04e-04	0	43	0	119537664	22	5398
2026-01-17 23:00:26.05	34.06	12.06	-30.6	-34.2	12.5	9.38e-05	0	43	0	125829120	21	5415
2026-01-17 23:00:29.06	34.40	12.29	-30.8	-34.6	12.3	1.74e-04	0	43	0	131072000	21	5587
2026-01-17 23:00:32.06	34.74	12.52	-30.6	-34.0	12.7	6.10e-05	0	43	0	136314880	21	5314
2026-01-17 23:00:35.06	35.08	12.76	-30.6	-34.0	12.7	6.71e-05	0	43	0	142606336	21	5327
2026-01-17 23:00:38.07	35.43	12.99	-30.5	-33.7	13.0	4.50e-05	0	43	0	147849216	21	5206
2026-01-17 23:00:41.09	35.79	13.23	-30.7	-34.2	12.6	7.17e-05	0	43	0	154140672	21	5417
2026-01-17 23:00:44.09	36.15	13.47	-30.6	-34.1	12.7	5.95e-05	0	43	0	159383552	21	5365
2026-01-17 23:00:47.10	36.52	13.71	-30.8	-34.7	12.3	1.37e-04	0	43	0	164626432	21	5603
2026-01-17 23:00:50.10	36.89	13.95	-30.8	-34.5	12.5	1.43e-04	0	43	0	170917888	21	5514
2026-01-17 23:00:53.12	37.27	14.19	-30.6	-33.9	12.9	3.66e-05	0	43	0	176160768	21	5278
2026-01-17 23:00:56.13	37.66	14.44	-30.8	-34.7	12.4	1.25e-04	0	43	0	181403648	21	5591
2026-01-17 23:00:59.14	38.05	14.68	-31.1	-35.0	11.8	2.78e-04	0	43	0	187695104	22	5633
2026-01-17 23:01:02.15	38.45	14.93	-31.2	-35.1	11.8	4.65e-04	0	43	0	192937984	22	5641
2026-01-17 23:01:05.16	38.85	15.18	-30.7	-33.8	12.7	7.85e-05	0	43	0	199229440	22	5108
2026-01-17 23:01:08.17	39.26	15.42	-30.7	-33.7	12.8	6.56e-05	0	43	0	204472320	22	5074
2026-01-17 23:01:11.17	39.68	15.67	-30.4	-33.4	13.3	3.75e-04	0	43	0	209715200	21	5067
2026-01-17 23:01:14.18	40.11	15.92	-30.4	-33.7	13.5	4.43e-04	0	43	0	216006656	20	5286
2026-01-17 23:01:17.20	40.54	16.18	-30.4	-33.7	13.5	6.10e-06	0	43	0	221249536	20	5274
2026-01-17 23:01:20.21	40.98	16.43	-30.4	-33.9	13.4	1.67e-05	0	43	0	227540992	20	5346
2026-01-17 23:01:23.22	41.42	16.69	-30.5	-33.6	13.2	2.67e-05	0	43	0	232783872	21	5153
2026-01-17 23:01:26.23	41.88	16.94	-30.0	-32.2	14.2	7.00e-07	0	43	0	238026752	21	4625
2026-01-17 23:01:29.24	42.34	17.20	-30.0	-32.1	14.2	0.00e+00	0	43	0	244318208	21	4605
2026-01-17 23:01:32.26	42.81	17.46	-30.1	-32.4	14.1	1.50e-06	0	43	0	249561088	21	4687
2026-01-17 23:01:35.27	43.28	17.71	-30.1	-32.5	14.1	6.10e-06	0	43	0	254803968	21	4716
2026-01-17 23:01:38.27	43.77	17.97	-30.1	-32.4	14.1	1.50e-06	0	43	0	261095424	21	4706
2026-01-17 23:01:41.28	44.26	18.23	-30.1	-32.4	14.2	7.00e-07	0	43	0	266338304	21	4690
2026-01-17 23:01:44.29	44.76	18.49	-29.9	-32.0	14.4	7.00e-07	0	43	0	272629760	21	4569
2026-01-17 23:01:47.30	45.27	18.75	-29.8	-31.6	14.6	1.50e-06	0	43	0	277872640	21	4453
2026-01-17 23:01:50.31	45.79	19.02	-29.6	-31.7	14.9	0.00e+00	0	43	0	283115520	20	4574
2026-01-17 23:01:53.32	46.31	19.28	-29.7	-31.8	14.9	0.00e+00	0	43	0	289406976	20	4594
2026-01-17 23:01:56.32	46.85	19.54	-29.9	-32.3	14.6	7.00e-07	0	43	0	294649856	20	4751
2026-01-17 23:01:59.33	47.39	19.80	-29.6	-32.2	15.1	0.00e+00	0	43	0	300941312	19	4808
2026-01-17 23:02:02.35	47.95	20.07	-29.6	-32.2	15.1	0.00e+00	0	44	0	306184192	19	4814
2026-01-17 23:02:05.36	48.51	20.33	-29.8	-32.5	14.9	0.00e+00	0	44	0	311427072	19	4926
2026-01-17 23:02:08.37	49.08	20.60	-29.8	-32.5	14.9	0.00e+00	0	43	0	317718528	19	4912
2026-01-17 23:02:11.39	49.67	20.86	-29.3	-31.9	15.6	0.00e+00	0	43	0	322961408	18	4831
2026-01-17 23:02:14.39	50.26	21.12	-29.3	-31.7	15.7	0.00e+00	0	44	0	328204288	18	4782
2026-01-17 23:02:17.40	50.86	21.39	-29.6	-31.9	15.3	0.00e+00	0	43	0	334495744	19	4738
2026-01-17 23:02:20.41	51.47	21.65	-29.9	-32.8	14.8	0.00e+00	0	43	0	339738624	19	5016
2026-01-17 23:02:23.42	52.09	21.91	-29.8	-32.0	14.9	7.00e-07	0	44	0	346030080	20	4648
2026-01-17 23:02:26.42	52.72	22.17	-29.7	-31.9	14.9	0.00e+00	0	43	0	351272960	20	4624
2026-01-17 23:02:29.43	53.36	22.43	-29.9	-32.7	14.8	0.00e+00	0	43	0	356515840	19	4992
2026-01-17 23:02:32.44	54.02	22.69	-29.8	-32.4	15.0	0.00e+00	0	43	0	362807296	19	4881
2026-01-17 23:02:35.44	54.68	22.95	-29.7	-32.3	15.1	0.00e+00	0	43	0	368050176	19	4840
2026-01-17 23:02:38.45	55.36	23.20	-29.6	-31.9	15.3	0.00e+00	0	43	0	373293056	19	4723
2026-01-17 23:02:41.47	56.04	23.46	-29.9	-32.6	14.9	0.00e+00	0	44	0	379584512	19	4960
2026-01-17 23:02:44.47	56.74	23.71	-30.0	-32.6	14.6	7.00e-07	0	44	0	384827392	20	4829
2026-01-17 23:02:47.47	57.44	23.96	-30.0	-32.4	14.7	0.00e+00	0	44	0	391118848	20	4778
2026-01-17 23:02:50.47	58.16	24.21	-30.2	-33.0	14.3	0.00e+00	0	44	0	396361728	20	4984
2026-01-17 23:02:53.48	58.89	24.46	-30.2	-33.1	14.3	0.00e+00	0	44	0	401604608	20	5026
2026-01-17 23:02:56.49	59.63	24.71	-30.2	-33.1	14.3	1.50e-06	0	43	0	407896064	20	5027
2026-01-17 23:02:59.49	60.39	24.95	-30.2	-33.1	14.3	0.00e+00	0	43	0	413138944	20	5029
2026-01-17 23:03:02.49	61.15	25.19	-30.6	-33.6	13.7	6.10e-06	0	44	0	418381824	21	5072
2026-01-17 23:03:05.50	61.92	25.42	-31.0	-34.1	13.0	2.59e-05	0	44	0	424673280	22	5170
2026-01-17 23:03:08.52	62.71	25.65	-31.1	-34.3	12.9	4.95e-05	0	44	0	429916160	22	5245
2026-01-17 23:03:11.52	63.51	25.88	-31.5	-35.5	12.2	1.84e-04	0	44	0	436207616	22	5724
2026-01-17 23:03:14.53	64.32	26.11	-31.4	-34.7	12.3	1.66e-04	0	44	0	441450496	23	5301
2026-01-17 23:03:17.54	65.14	26.33	-31.5	-35.0	12.1	2.09e-04	0	44	0	446693376	23	5420
2026-01-17 23:03:20.54	65.97	26.54	-31.5	-35.1	12.1	2.26e-04	0	44	0	452984832	23	5456
2026-01-17 23:03:23.54	66.81	26.75	-31.6	-35.4	11.8	4.11e-04	0	43	0	458227712	23	5578
2026-01-17 23:03:26.56	67.67	26.96	-31.5	-35.2	12.0	3.34e-04	0	44	0	464519168	23	5478
2026-01-17 23:03:29.55	68.53	27.16	-31.4	-34.8	12.3	2.01e-04	0	44	0	469762048	23	5319
2026-01-17 23:03:32.56	69.41	27.36	-31.4	-34.7	12.4	1.20e-04	0	44	0	475004928	23	5277
2026-01-17 23:03:35.56	70.29	27.55	-31.4	-34.7	12.2	1.45e-04	0	44	0	481296384	23	5280
2026-01-17 23:03:38.57	71.19	27.73	-31.4	-35.4	12.3	1.74e-04	0	44	0	486539264	22	5660
2026-01-17 23:03:41.57	72.09	27.91	-31.3	-34.4	12.6	9.84e-05	0	44	0	491782144	23	5153
2026-01-17 23:03:44.58	73.01	28.08	-31.4	-34.9	12.2	1.32e-04	0	44	0	498073600	23	5343
2026-01-17 23:03:47.59	73.93	28.25	-32.2	-36.7	10.6	2.57e-03	0	44	0	503316480	24	6079
2026-01-17 23:03:50.59	74.87	28.40	-32.2	-36.7	10.6	5.00e-03	0	44	0	508559360	24	6083
2026-01-17 23:03:53.59	75.81	28.55	-31.9	-36.0	11.2	1.33e-03	0	44	0	514850816	24	5712
2026-01-17 23:03:56.59	76.76	28.69	-31.9	-35.7	11.3	1.22e-03	0	43	0	520093696	24	5608
2026-01-17 23:03:59.59	77.72	28.83	-31.8	-35.6	11.4	8.48e-04	0	44	0	526385152	24	5544
2026-01-17 23:04:02.59	78.68	28.95	-32.0	-36.1	11.0	1.78e-03	0	43	0	531628032	24	5781
2026-01-17 23:04:05.60	79.66	29.07	-31.9	-35.9	11.2	1.33e-03	0	44	0	536870912	24	5697
2026-01-17 23:04:08.61	80.64	29.18	-32.0	-36.2	11.0	1.78e-03	0	44	0	543162368	24	5831
2026-01-17 23:04:11.61	81.63	29.28	-32.0	-36.3	10.9	1.82e-03	0	43	0	548405248	24	5880
2026-01-17 23:04:14.62	82.62	29.38	-31.7	-35.3	11.6	1.03e-03	0	44	0	553648128	24	5418
2026-01-17 23:04:17.62	83.62	29.46	-31.7	-35.2	11.7	8.28e-04	0	44	0	559939584	24	5374
2026-01-17 23:04:20.62	84.63	29.53	-31.6	-35.0	11.9	5.31e-04	0	44	0	565182464	24	5283
2026-01-17 23:04:23.62	85.63	29.60	-31.7	-35.1	11.8	5.77e-04	0	44	0	571473920	24	5339
2026-01-17 23:04:26.62	86.64	29.65	-31.4	-34.3	12.3	2.07e-04	0	44	0	576716800	24	5028
2026-01-17 23:04:29.63	87.66	29.70	-31.5	-34.6	12.2	1.98e-04	0	44	0	581959680	24	5132
2026-01-17 23:04:32.64	88.68	29.74	-31.9	-35.6	11.4	1.03e-03	0	44	0	588251136	24	5567
2026-01-17 23:04:35.65	89.70	29.76	-31.4	-34.4	12.3	2.22e-04	0	44	0	593494016	24	5042
2026-01-17 23:04:38.66	90.73	29.78	-31.1	-33.8	13.1	1.83e-04	0	44	0	598736896	23	4932
2026-01-17 23:04:41.67	91.75	29.79	-31.2	-34.6	12.9	5.00e-04	0	44	0	605028352	22	5329
2026-01-17 23:04:44.68	92.78	29.79	-31.5	-35.5	12.2	3.59e-04	0	44	0	610271232	22	5746
2026-01-17 23:04:47.69	93.80	29.77	-31.3	-34.5	12.6	2.10e-04	0	44	0	616562688	23	5190
2026-01-17 23:04:50.70	94.82	29.75	-31.4	-34.8	12.4	1.04e-04	0	44	0	621805568	23	5332
2026-01-17 23:04:53.71	95.85	29.72	-32.1	-36.5	10.7	2.36e-03	0	43	0	627048448	24	6015
2026-01-17 23:04:56.72	96.87	29.68	-31.9	-35.9	11.2	1.41e-03	0	44	0	633339904	24	5707
2026-01-17 23:04:59.72	97.88	29.63	-31.7	-35.2	11.8	4.07e-04	0	44	0	638582784	24	5380
2026-01-17 23:05:02.73	98.89	29.56	-32.1	-36.6	10.7	1.35e-03	0	44	0	643825664	24	6024
2026-01-17 23:05:05.73	99.90	29.49	-32.4	-37.4	10.2	7.38e-03	0	44	0	650117120	24	6397
2026-01-17 23:05:08.75	100.91	29.41	-32.1	-36.3	11.0	2.30e-03	0	44	0	655360000	24	5875
2026-01-17 23:05:11.77	101.91	29.33	-31.9	-35.7	11.3	1.26e-03	0	44	0	661651456	24	5582
2026-01-17 23:05:14.78	102.90	29.23	-31.9	-35.6	11.4	1.03e-03	0	44	0	666894336	24	5572
2026-01-17 23:05:17.79	103.89	29.12	-32.3	-37.1	10.3	5.55e-03	0	44	0	672137216	24	6260
2026-01-17 23:05:20.81	104.88	29.01	-31.9	-35.8	11.2	1.59e-03	0	44	0	678428672	24	5659
2026-01-17 23:05:23.82	105.85	28.88	-32.0	-36.1	11.0	1.44e-03	0	44	0	683671552	24	5771
2026-01-17 23:05:26.84	106.82	28.75	-31.8	-35.5	11.5	9.89e-04	0	43	0	689963008	24	5513
2026-01-17 23:05:29.84	107.78	28.61	-31.8	-35.4	11.6	8.83e-04	0	43	0	695205888	24	5451
2026-01-17 23:05:32.86	108.73	28.46	-31.8	-35.4	11.6	1.08e-03	0	44	0	700448768	24	5464
2026-01-17 23:05:35.88	109.68	28.31	-31.1	-33.8	13.0	7.40e-05	0	44	0	706740224	23	4934
2026-01-17 23:05:38.89	110.61	28.14	-30.6	-33.0	13.9	7.60e-06	0	44	0	711983104	22	4734
2026-01-17 23:05:41.90	111.53	27.97	-30.8	-33.6	13.5	3.00e-06	0	44	0	718274560	22	4953
2026-01-17 23:05:44.90	112.44	27.80	-31.4	-35.3	12.3	1.31e-04	0	44	0	723517440	22	5659
2026-01-17 23:05:47.90	113.34	27.62	-31.6	-35.5	11.8	3.97e-04	0	44	0	728760320	23	5617
2026-01-17 23:05:50.91	114.24	27.43	-31.7	-35.9	11.5	8.41e-04	0	44	0	735051776	23	5799
2026-01-17 23:05:53.92	115.12	27.23	-31.7	-35.9	11.5	6.48e-04	0	44	0	740294656	23	5791
2026-01-17 23:05:56.93	115.99	27.03	-31.3	-34.6	12.3	1.87e-04	0	44	0	745537536	23	5277
2026-01-17 23:05:59.94	116.85	26.83	-31.6	-35.4	11.8	4.16e-04	0	44	0	751828992	23	5579
2026-01-17 23:06:02.95	117.70	26.62	-31.6	-35.5	11.8	5.23e-04	0	44	0	757071872	23	5628
2026-01-17 23:06:05.96	118.54	26.40	-31.6	-35.4	11.8	8.86e-04	0	44	0	763363328	23	5592
2026-01-17 23:06:08.97	119.37	26.18	-31.3	-34.6	12.3	2.25e-04	0	44	0	768606208	23	5258
2026-01-17 23:06:11.98	120.19	25.96	-30.9	-33.4	13.1	5.95e-05	0	44	0	773849088	23	4815
2026-01-17 23:06:14.99	120.99	25.73	-30.6	-33.6	13.7	4.22e-04	0	44	0	780140544	21	5076
2026-01-17 23:06:18.00	121.79	25.50	-30.8	-34.3	13.2	3.86e-04	0	44	0	785383424	21	5355
2026-01-17 23:06:21.01	122.57	25.26	-31.3	-35.2	12.2	2.17e-04	0	44	0	790626304	22	5632
2026-01-17 23:06:24.02	123.34	25.02	-31.7	-36.0	11.3	4.71e-04	0	44	0	796917760	23	5873
2026-01-17 23:06:27.02	124.10	24.78	-31.5	-35.2	11.8	1.01e-03	0	44	0	802160640	23	5537
2026-01-17 23:06:30.04	124.85	24.53	-31.4	-34.9	12.0	9.70e-04	0	44	0	808452096	23	5379
2026-01-17 23:06:33.04	125.59	24.28	-31.5	-35.5	11.6	4.96e-04	0	44	0	813694976	23	5669
2026-01-17 23:06:36.05	126.31	24.03	-31.1	-34.2	12.5	3.11e-04	0	44	0	818937856	23	5130
2026-01-17 23:06:39.05	127.03	23.78	-31.2	-34.9	12.4	2.30e-04	0	44	0	825229312	22	5494
2026-01-17 23:06:42.07	127.73	23.53	-31.8	-36.2	11.0	1.68e-03	0	44	0	830472192	23	6003
2026-01-17 23:06:45.08	128.43	23.27	-30.7	-33.5	13.3	2.36e-05	0	44	0	835715072	22	4956
2026-01-17 23:06:48.09	129.11	23.01	-31.2	-34.9	12.3	8.01e-05	0	44	0	842006528	22	5531
2026-01-17 23:06:51.11	129.78	22.75	-30.6	-33.2	13.4	1.20e-04	0	44	0	847249408	22	4860
2026-01-17 23:06:54.12	130.44	22.49	-30.1	-33.0	14.2	2.27e-04	0	44	0	853540864	20	4992
2026-01-17 23:06:57.13	131.09	22.23	-30.9	-34.5	12.8	9.00e-05	0	44	0	858783744	21	5474
2026-01-17 23:07:00.13	131.73	21.97	-30.8	-34.2	13.0	4.88e-05	0	44	0	864026624	21	5356
2026-01-17 23:07:03.13	132.35	21.70	-30.8	-34.3	12.9	2.44e-05	0	44	0	870318080	21	5411
2026-01-17 23:07:06.14	132.97	21.44	-31.3	-35.3	11.8	4.94e-04	0	44	0	875560960	22	5738
2026-01-17 23:07:09.16	133.58	21.17	-30.7	-33.5	13.1	3.05e-05	0	44	0	881852416	22	4975
2026-01-17 23:07:12.16	134.17	20.91	-30.2	-32.8	13.8	5.30e-06	0	44	0	887095296	21	4841
2026-01-17 23:07:15.17	134.76	20.64	-30.5	-33.5	13.3	1.75e-05	0	44	0	892338176	21	5115
2026-01-17 23:07:18.16	135.33	20.38	-30.0	-32.3	14.1	4.50e-06	0	44	0	898629632	21	4663
2026-01-17 23:07:21.17	135.90	20.11	-30.1	-33.1	13.9	1.50e-06	0	44	0	903872512	20	5059
2026-01-17 23:07:24.19	136.46	19.85	-30.3	-33.6	13.5	1.44e-05	0	44	0	909115392	20	5263
2026-01-17 23:07:27.19	137.01	19.58	-30.2	-33.3	13.6	8.30e-06	0	44	0	915406848	20	5175
2026-01-17 23:07:30.20	137.55	19.32	-30.2	-33.3	13.6	1.37e-05	0	44	0	920649728	20	5172
2026-01-17 23:07:33.22	138.08	19.05	-30.1	-33.0	13.8	3.00e-06	0	44	0	926941184	20	5070
2026-01-17 23:07:36.23	138.61	18.79	-29.8	-32.4	14.2	3.80e-06	0	44	0	932184064	20	4843
2026-01-17 23:07:39.25	139.12	18.52	-29.6	-32.5	14.4	0.00e+00	0	44	0	937426944	19	5014
2026-01-17 23:07:42.25	139.62	18.26	-29.9	-33.2	14.0	3.80e-06	0	44	0	943718400	19	5286
2026-01-17 23:07:45.25	140.12	18.00	-30.2	-33.5	13.4	3.50e-05	0	44	0	948961280	20	5280
2026-01-17 23:07:48.26	140.61	17.74	-30.1	-33.2	13.5	7.60e-06	0	44	0	954204160	20	5150
2026-01-17 23:07:51.27	141.09	17.48	-30.1	-33.1	13.6	9.90e-06	0	44	0	960495616	20	5107
2026-01-17 23:07:54.27	141.56	17.22	-29.9	-33.1	14.0	7.00e-07	0	44	0	965738496	19	5217
2026-01-17 23:07:57.28	142.02	16.96	-30.0	-33.0	13.6	3.00e-06	0	44	0	972029952	20	5079
2026-01-17 23:08:00.29	142.48	16.70	-30.3	-33.7	13.1	2.89e-05	0	44	0	977272832	20	5345
2026-01-17 23:08:03.30	142.93	16.45	-30.4	-34.2	12.7	8.01e-05	0	44	0	982515712	20	5535
2026-01-17 23:08:06.32	143.37	16.19	-30.3	-34.0	12.8	7.40e-05	0	44	0	988807168	20	5462
2026-01-17 23:08:09.31	143.80	15.94	-30.6	-34.2	12.2	1.70e-04	0	44	0	994050048	21	5473
2026-01-17 23:08:12.32	144.23	15.68	-30.6	-34.3	12.1	2.33e-04	0	44	0	999292928	21	5525
2026-01-17 23:08:15.32	144.65	15.43	-30.6	-34.3	12.1	4.99e-04	0	44	0	1005584384	21	5514
2026-01-17 23:08:18.33	145.06	15.18	-30.4	-34.4	12.4	1.19e-04	0	44	0	1010827264	20	5663
2026-01-17 23:08:21.33	145.47	14.93	-30.6	-34.4	12.1	3.16e-04	0	44	0	1017118720	21	5564
2026-01-17 23:08:24.35	145.87	14.68	-30.8	-35.1	11.6	7.96e-04	0	44	0	1022361600	21	5907
2026-01-17 23:08:27.35	146.27	14.43	-30.6	-34.7	11.7	6.83e-04	0	44	0	1027604480	21	5788
2026-01-17 23:08:30.37	146.66	14.19	-30.7	-35.0	11.5	1.02e-03	0	44	0	1033895936	21	5883
2026-01-17 23:08:33.37	147.04	13.94	-30.7	-34.6	11.9	5.45e-04	0	44	0	1039138816	21	5641
2026-01-17 23:08:36.38	147.41	13.70	-30.5	-34.4	12.0	5.44e-04	0	44	0	1044381696	21	5596
2026-01-17 23:08:39.38	147.78	13.46	-30.7	-34.7	11.7	8.38e-04	0	44	0	1050673152	21	5748
2026-01-17 23:08:42.39	148.14	13.22	-30.8	-35.2	11.4	1.32e-03	0	44	0	1055916032	21	5930
2026-01-17 23:08:45.41	148.50	12.98	-31.2	-35.8	10.6	2.82e-03	0	44	0	1062207488	22	6122
2026-01-17 23:08:48.42	148.86	12.74	-31.2	-35.3	10.5	5.52e-03	0	44	0	1067450368	23	5795
2026-01-17 23:08:51.42	149.20	12.50	-31.2	-35.9	10.4	3.73e-03	0	44	0	1072693248	22	6218
2026-01-17 23:08:54.43	149.55	12.27	-30.8	-34.8	11.1	1.49e-03	0	44	0	1078984704	22	5714
2026-01-17 23:08:57.44	149.88	12.03	-30.8	-35.3	11.1	1.73e-03	0	44	0	1084227584	21	6030
2026-01-17 23:09:00.46	150.22	11.80	-30.8	-35.0	11.4	8.54e-04	0	44	0	1090519040	21	5863
2026-01-17 23:09:03.47	150.54	11.57	-30.7	-35.2	11.1	2.35e-03	0	44	0	1095761920	21	6018
2026-01-17 23:09:06.47	150.86	11.34	-30.3	-34.8	11.6	1.01e-03	0	44	0	1101004800	20	6056
2026-01-17 23:09:09.49	151.18	11.11	-30.4	-35.2	11.3	1.13e-03	0	44	0	1107296256	20	6238
2026-01-17 23:09:12.49	151.49	10.88	-30.7	-35.4	10.6	5.19e-03	0	44	0	1112539136	21	6241
2026-01-17 23:09:15.51	151.80	10.66	-30.3	-34.4	11.9	4.68e-04	0	44	0	1117782016	20	5809
2026-01-17 23:09:18.52	152.10	10.43	-30.4	-34.8	11.6	6.09e-04	0	44	0	1124073472	20	5973
2026-01-17 23:09:21.51	152.40	10.21	-30.5	-34.9	11.1	1.40e-03	0	44	0	1129316352	21	5950
2026-01-17 23:09:24.51	152.70	9.99	-30.3	-34.9	11.3	1.34e-03	0	44	0	1135607808	20	6129
2026-01-17 23:09:27.52	152.99	9.77	-30.4	-35.2	11.1	1.65e-03	0	44	0	1140850688	20	6260
2026-01-17 23:09:30.53	153.27	9.55	-30.6	-35.1	10.9	1.75e-03	0	44	0	1146093568	21	6024
2026-01-17 23:09:33.53	153.55	9.33	-30.4	-35.1	11.2	1.27e-03	0	44	0	1152385024	20	6165
2026-01-17 23:09:36.55	153.83	9.12	-30.2	-34.6	11.5	6.72e-04	0	44	0	1157627904	20	5958
2026-01-17 23:09:39.55	154.11	8.90	-30.6	-35.1	10.8	3.28e-03	0	44	0	1162870784	21	6020
2026-01-17 23:09:42.55	154.37	8.69	-30.6	-35.0	11.0	1.76e-03	0	44	0	1169162240	21	5964
2026-01-17 23:09:45.56	154.64	8.47	-30.6	-35.2	10.8	4.75e-03	0	44	0	1174405120	21	6083
2026-01-17 23:09:48.57	154.90	8.26	-30.3	-35.4	10.8	4.62e-03	0	44	0	1180696576	20	6430
2026-01-17 23:09:51.58	155.16	8.05	-30.4	-35.8	10.5	3.48e-03	0	44	0	1185939456	20	6655
2026-01-17 23:09:54.57	155.42	7.85	-30.7	-35.8	10.2	8.86e-03	0	44	0	1191182336	21	6447
2026-01-17 23:09:57.58	155.67	7.64	-30.7	-35.3	10.7	1.71e-03	0	44	0	1197473792	21	6115
2026-01-17 23:10:00.58	155.92	7.43	-30.6	-34.9	11.0	1.96e-03	0	44	0	1202716672	21	5930
2026-01-17 23:10:03.59	156.16	7.23	-30.7	-35.6	10.4	6.90e-03	0	44	0	1207959552	21	6337
2026-01-17 23:10:06.60	156.41	7.02	-33.1	-47.4	3.8	1.49e+00	0	44	104	1212153856	26	18529

#Closed at: 2026-01-17 23:10:09
#Recorded file [1212 MB]: D:/data/31010_260118_015918.dat