passes_logs/2026/01/17/R2M6_AANII_01/R2M6_AANII_01__20260117_031638_FENGYUN_3D_rec.log

#Pass ID: 20260117_031638_FENGYUN 3D
#Satellite: FENGYUN 3D
#Configuration: FENGYUN 3D
#almurnet v.1.7.20240730
#Start time: 2026-01-17 03:16:40

#Version: 2.2.20231116
#Station: R2M6_AANII_01
#Location: 30.233357 lon 59.946436 lat
#TLE: 1 43010U 17072A   26016.27214855  .00000192  00000+0  11235-3 0  9990
#TLE: 2 43010  98.9932 348.1078 0002365 105.5031 254.6406 14.19695933423435

#Time	Az	El	Level	Level2	SNR	BER	BlckErr	Temp	State	Recorded	gain1	gain2
2026-01-17 03:16:40.58	14.68	7.15	-30.4	-35.1	4.9	8.05e-01	0	41	0	0	20	6172
2026-01-17 03:16:43.60	14.56	7.38	-30.1	-34.1	8.3	7.53e-02	0	41	0	5242880	20	5651
2026-01-17 03:16:46.60	14.43	7.60	-29.8	-33.4	9.2	2.99e-02	0	42	0	22020096	19	5457
2026-01-17 03:16:49.62	14.31	7.83	-29.0	-31.8	10.7	3.86e-03	0	42	0	38797312	18	4952
2026-01-17 03:16:52.62	14.18	8.07	-28.9	-31.3	10.6	3.13e-03	0	42	0	55574528	18	4784
2026-01-17 03:16:55.63	14.04	8.30	-27.6	-29.7	12.8	1.46e-04	0	42	0	73400320	15	4603
2026-01-17 03:16:58.63	13.91	8.53	-26.9	-29.0	13.9	4.51e-04	0	42	0	90177536	13	4612
2026-01-17 03:17:01.64	13.77	8.77	-27.3	-29.4	13.4	2.97e-05	0	42	0	106954752	14	4621
2026-01-17 03:17:04.64	13.63	9.01	-27.2	-29.4	13.4	2.63e-05	0	42	0	123731968	14	4603
2026-01-17 03:17:07.65	13.49	9.25	-27.3	-29.6	13.3	8.03e-04	0	42	0	140509184	14	4662
2026-01-17 03:17:10.66	13.34	9.50	-26.8	-28.7	14.1	6.36e-04	0	42	0	157286400	13	4519
2026-01-17 03:17:13.66	13.20	9.74	-26.6	-28.3	14.4	7.46e-04	0	42	0	174063616	13	4408
2026-01-17 03:17:16.68	13.05	9.99	-26.5	-28.1	14.5	1.10e-06	0	42	0	190840832	13	4330
2026-01-17 03:17:19.69	12.89	10.25	-26.5	-28.5	14.5	4.97e-04	0	42	0	208666624	12	4572
2026-01-17 03:17:22.69	12.74	10.50	-26.4	-28.3	14.6	6.25e-04	0	42	0	225443840	12	4521
2026-01-17 03:17:25.70	12.58	10.75	-26.2	-28.0	14.8	0.00e+00	0	42	0	242221056	12	4425
2026-01-17 03:17:28.70	12.42	11.01	-26.4	-28.3	14.7	4.95e-04	0	42	0	258998272	12	4500
2026-01-17 03:17:31.71	12.25	11.27	-26.3	-28.2	14.8	4.98e-04	0	42	0	275775488	12	4465
2026-01-17 03:17:34.71	12.08	11.53	-26.5	-28.2	14.3	3.75e-04	0	43	0	292552704	13	4347
2026-01-17 03:17:37.71	11.91	11.80	-26.9	-29.0	11.6	2.20e-06	0	43	0	309329920	13	4606
2026-01-17 03:17:40.70	11.74	12.07	-25.7	-27.4	14.8	0.00e+00	0	43	0	326107136	11	4360
2026-01-17 03:17:43.69	11.56	12.34	-25.7	-27.3	15.7	3.36e-04	0	43	0	343932928	11	4342
2026-01-17 03:17:46.71	11.38	12.61	-26.2	-27.9	15.0	1.28e-04	0	43	0	360710144	12	4378
2026-01-17 03:17:49.71	11.19	12.89	-25.8	-27.6	15.6	0.00e+00	0	43	0	377487360	11	4406
2026-01-17 03:17:52.72	11.00	13.17	-26.0	-27.9	15.4	0.00e+00	0	43	0	394264576	11	4508
2026-01-17 03:17:55.73	10.81	13.45	-25.5	-26.8	16.0	1.89e-03	0	43	0	411041792	11	4199
2026-01-17 03:17:58.73	10.61	13.73	-25.7	-27.2	15.8	0.00e+00	0	43	0	427819008	11	4309
2026-01-17 03:18:01.74	10.41	14.02	-25.5	-27.3	16.1	0.00e+00	0	43	0	444596224	10	4438
2026-01-17 03:18:04.74	10.21	14.31	-25.7	-27.3	15.8	1.78e-03	0	43	0	461373440	11	4320
2026-01-17 03:18:07.74	10.00	14.61	-25.6	-27.1	15.9	1.55e-03	0	43	0	479199232	11	4280
2026-01-17 03:18:10.75	9.78	14.91	-25.6	-27.1	16.0	0.00e+00	0	43	0	495976448	11	4266
2026-01-17 03:18:13.75	9.56	15.21	-25.2	-26.8	16.4	1.69e-03	0	43	0	512753664	10	4296
2026-01-17 03:18:16.76	9.34	15.51	-25.2	-26.6	16.5	1.58e-03	0	43	0	529530880	10	4253
2026-01-17 03:18:19.75	9.11	15.82	-25.3	-26.8	16.5	1.69e-03	0	43	0	546308096	10	4296
2026-01-17 03:18:22.77	8.88	16.13	-25.2	-26.6	16.6	0.00e+00	0	43	0	563085312	10	4244
2026-01-17 03:18:25.77	8.64	16.44	-25.2	-26.7	16.5	1.46e-03	0	43	0	579862528	10	4279
2026-01-17 03:18:28.78	8.40	16.76	-25.0	-26.2	16.8	1.55e-03	0	43	0	596639744	10	4133
2026-01-17 03:18:31.78	8.15	17.08	-24.9	-26.5	16.9	1.52e-03	0	43	0	613416960	9	4326
2026-01-17 03:18:34.79	7.89	17.41	-24.5	-25.7	17.4	1.47e-03	0	43	0	631242752	9	4116
2026-01-17 03:18:37.80	7.63	17.74	-24.5	-25.7	17.4	1.49e-03	0	43	0	648019968	9	4123
2026-01-17 03:18:40.80	7.37	18.07	-24.5	-25.7	17.4	1.46e-03	0	43	0	664797184	9	4116
2026-01-17 03:18:43.81	7.09	18.41	-24.4	-25.5	17.5	1.30e-03	0	43	0	681574400	9	4074
2026-01-17 03:18:46.82	6.81	18.75	-24.4	-26.0	17.5	1.45e-03	0	43	0	698351616	8	4310
2026-01-17 03:18:49.82	6.53	19.10	-24.5	-25.6	17.4	1.50e-03	0	43	0	715128832	9	4091
2026-01-17 03:18:52.83	6.23	19.44	-24.4	-25.4	17.6	0.00e+00	0	43	0	731906048	9	4049
2026-01-17 03:18:55.84	5.93	19.80	-24.3	-25.8	17.6	1.43e-03	0	43	0	749731840	8	4254
2026-01-17 03:18:58.85	5.63	20.16	-24.4	-25.4	17.6	1.58e-03	0	43	0	766509056	9	4050
2026-01-17 03:19:01.85	5.31	20.52	-24.2	-25.0	17.8	0.00e+00	0	43	0	783286272	9	3955
2026-01-17 03:19:04.84	4.99	20.88	-24.1	-25.4	17.9	0.00e+00	0	43	0	800063488	8	4154
2026-01-17 03:19:07.84	4.66	21.25	-24.5	-25.7	17.4	1.39e-03	0	43	0	816840704	9	4132
2026-01-17 03:19:10.83	4.32	21.62	-23.6	-24.7	18.5	0.00e+00	0	43	0	833617920	7	4094
2026-01-17 03:19:13.86	3.97	22.01	-23.5	-24.5	18.6	0.00e+00	0	43	0	850395136	7	4054
2026-01-17 03:19:16.85	3.62	22.39	-23.6	-24.8	18.5	0.00e+00	0	44	0	867172352	7	4111
2026-01-17 03:19:19.85	3.25	22.78	-23.6	-24.7	18.5	1.36e-03	0	43	0	883949568	7	4090
2026-01-17 03:19:22.85	2.88	23.17	-23.6	-24.7	18.6	0.00e+00	0	44	0	900726784	7	4086
2026-01-17 03:19:25.85	2.49	23.57	-23.8	-25.1	18.3	0.00e+00	0	43	0	918552576	7	4202
2026-01-17 03:19:28.87	2.10	23.97	-23.2	-23.8	19.0	0.00e+00	0	44	0	935329792	7	3874
2026-01-17 03:19:31.86	1.69	24.37	-23.1	-24.3	19.0	0.00e+00	0	43	0	952107008	6	4099
2026-01-17 03:19:34.87	1.28	24.79	-23.4	-24.8	18.8	0.00e+00	0	43	0	968884224	6	4223
2026-01-17 03:19:37.88	0.85	25.20	-23.4	-24.4	18.8	0.00e+00	0	43	0	985661440	7	4009
2026-01-17 03:19:40.89	0.41	25.63	-23.2	-24.4	19.0	0.00e+00	0	44	0	1002438656	6	4145
2026-01-17 03:19:43.90	359.95	26.05	-23.3	-24.7	18.8	0.00e+00	0	44	0	1019215872	6	4199
2026-01-17 03:19:46.91	359.49	26.49	-22.6	-23.6	19.7	0.00e+00	0	44	0	1035993088	5	4035
2026-01-17 03:19:49.92	359.01	26.92	-22.9	-23.7	19.4	0.00e+00	0	43	0	1053818880	6	3954
2026-01-17 03:19:52.93	358.52	27.36	-22.8	-23.5	19.5	0.00e+00	0	44	0	1070596096	6	3900
2026-01-17 03:19:55.94	358.01	27.81	-22.8	-24.2	19.4	0.00e+00	0	43	0	1087373312	5	4186
2026-01-17 03:19:58.95	357.49	28.26	-22.9	-24.3	19.4	0.00e+00	0	44	0	1104150528	5	4222
2026-01-17 03:20:01.96	356.95	28.72	-22.6	-23.7	19.6	0.00e+00	0	44	0	1120927744	5	4073
2026-01-17 03:20:04.96	356.40	29.18	-23.1	-24.1	19.2	0.00e+00	0	44	0	1137704960	6	4063
2026-01-17 03:20:07.96	355.83	29.64	-23.4	-24.7	18.9	0.00e+00	0	43	0	1154482176	6	4216
2026-01-17 03:20:10.97	355.25	30.11	-23.5	-24.5	18.9	0.00e+00	0	43	0	1171259392	7	4043
2026-01-17 03:20:13.97	354.65	30.58	-23.3	-24.5	19.1	0.00e+00	0	44	0	1189085184	6	4150
2026-01-17 03:20:16.97	354.03	31.06	-23.9	-25.4	18.4	0.00e+00	0	44	0	1205862400	7	4254
2026-01-17 03:20:19.99	353.38	31.54	-24.0	-25.0	18.4	0.00e+00	0	43	0	1222639616	8	4045
2026-01-17 03:20:22.98	352.73	32.02	-23.8	-24.6	18.6	0.00e+00	0	43	0	1239416832	8	3943
2026-01-17 03:20:25.99	352.05	32.51	-24.6	-25.7	17.7	0.00e+00	0	43	0	1256194048	9	4123
2026-01-17 03:20:28.99	351.35	33.00	-23.2	-23.9	17.1	0.00e+00	0	44	0	1272971264	7	3891
2026-01-17 03:20:32.00	350.62	33.50	-22.9	-23.6	19.1	0.00e+00	0	44	0	1289748480	6	3893
2026-01-17 03:20:35.00	349.88	33.99	-22.7	-23.9	14.4	0.00e+00	0	43	0	1306525696	5	4110
2026-01-17 03:20:38.00	349.11	34.49	-23.2	-24.3	19.1	0.00e+00	0	44	0	1324351488	6	4108
2026-01-17 03:20:40.99	348.32	34.99	-22.6	-23.2	19.8	0.00e+00	0	43	0	1341128704	6	3840
2026-01-17 03:20:44.01	347.50	35.50	-22.5	-23.3	19.9	0.00e+00	0	43	0	1357905920	5	3981
2026-01-17 03:20:47.00	346.66	36.00	-22.5	-23.5	19.9	4.53e-04	0	44	0	1374683136	5	4016
2026-01-17 03:20:50.00	345.79	36.50	-22.6	-23.6	19.8	0.00e+00	0	44	0	1391460352	5	4039
2026-01-17 03:20:53.00	344.89	37.00	-22.7	-23.9	19.7	0.00e+00	0	44	0	1408237568	5	4113
2026-01-17 03:20:56.00	343.97	37.51	-22.5	-23.4	19.9	1.14e-03	0	43	0	1425014784	5	3993
2026-01-17 03:20:59.00	343.01	38.01	-22.5	-23.4	19.9	8.75e-04	0	44	0	1441792000	5	4003
2026-01-17 03:21:02.00	342.03	38.51	-22.3	-23.0	20.1	1.94e-04	0	44	0	1458569216	5	3904
2026-01-17 03:21:05.01	341.01	39.01	-22.6	-23.6	19.8	0.00e+00	0	44	0	1475346432	5	4032
2026-01-17 03:21:08.01	339.96	39.50	-23.2	-24.3	19.3	1.22e-03	0	44	0	1493172224	6	4097
2026-01-17 03:21:11.04	338.87	39.99	-22.4	-23.2	20.0	5.96e-04	0	44	0	1509949440	5	3959
2026-01-17 03:21:14.03	337.76	40.48	-22.6	-23.6	19.8	7.35e-04	0	44	0	1526726656	5	4050
2026-01-17 03:21:17.03	336.61	40.96	-22.7	-23.8	19.7	7.20e-04	0	44	0	1543503872	5	4101
2026-01-17 03:21:20.03	335.43	41.43	-22.6	-23.5	19.9	6.72e-04	0	44	0	1560281088	5	4028
2026-01-17 03:21:23.04	334.21	41.89	-22.3	-23.0	20.1	1.43e-04	0	44	0	1577058304	5	3906
2026-01-17 03:21:26.06	332.95	42.35	-22.4	-23.2	20.0	2.94e-04	0	44	0	1593835520	5	3945
2026-01-17 03:21:29.07	331.65	42.79	-22.5	-23.5	19.9	2.97e-04	0	44	0	1610612736	5	4015
2026-01-17 03:21:32.07	330.33	43.22	-22.6	-23.5	19.9	6.73e-04	0	44	0	1628438528	5	4030
2026-01-17 03:21:35.08	328.96	43.64	-22.5	-23.4	19.9	8.15e-04	0	43	0	1645215744	5	4002
2026-01-17 03:21:38.09	327.56	44.05	-22.6	-23.5	19.9	1.04e-03	0	44	0	1661992960	5	4024
2026-01-17 03:21:41.10	326.13	44.44	-23.2	-24.3	19.3	1.02e-03	0	44	0	1678770176	6	4089
2026-01-17 03:21:44.12	324.65	44.81	-22.9	-23.8	19.5	0.00e+00	0	44	0	1695547392	6	3979
2026-01-17 03:21:47.13	323.14	45.16	-22.8	-23.5	19.7	8.17e-04	0	44	0	1712324608	6	3918
2026-01-17 03:21:50.12	321.61	45.50	-22.4	-23.1	20.1	6.87e-04	0	44	0	1729101824	5	3930
2026-01-17 03:21:53.12	320.05	45.81	-22.3	-22.9	20.3	0.00e+00	0	44	0	1745879040	5	3866
2026-01-17 03:21:56.12	318.45	46.10	-22.7	-23.8	19.8	0.00e+00	0	44	0	1763704832	5	4088
2026-01-17 03:21:59.13	316.82	46.37	-22.7	-23.8	19.8	1.32e-04	0	44	0	1780482048	5	4094
2026-01-17 03:22:02.13	315.17	46.61	-22.6	-23.6	19.9	0.00e+00	0	44	0	1797259264	5	4032
2026-01-17 03:22:05.14	313.49	46.83	-22.8	-24.0	19.7	0.00e+00	0	44	0	1814036480	5	4135
2026-01-17 03:22:08.13	311.79	47.02	-22.9	-24.1	19.6	0.00e+00	0	44	0	1830813696	5	4174
2026-01-17 03:22:11.13	310.07	47.19	-23.0	-24.0	19.5	8.98e-04	0	44	0	1847590912	6	4014
2026-01-17 03:22:14.13	308.34	47.33	-23.3	-24.6	19.2	0.00e+00	0	44	0	1864368128	6	4170
2026-01-17 03:22:17.14	306.58	47.43	-22.9	-23.7	19.6	0.00e+00	0	44	0	1881145344	6	3944
2026-01-17 03:22:20.15	304.81	47.51	-23.0	-24.0	19.5	0.00e+00	0	44	0	1898971136	6	4032
2026-01-17 03:22:23.16	303.04	47.56	-22.5	-22.8	20.1	0.00e+00	0	44	0	1915748352	6	3746
2026-01-17 03:22:26.17	301.26	47.58	-22.2	-22.9	20.3	0.00e+00	0	44	0	1932525568	5	3869
2026-01-17 03:22:29.17	299.49	47.57	-22.3	-23.0	20.2	0.00e+00	0	44	0	1949302784	5	3887
2026-01-17 03:22:32.18	297.71	47.53	-22.5	-23.4	20.1	0.00e+00	0	44	0	1966080000	5	3978
2026-01-17 03:22:35.20	295.93	47.46	-22.6	-23.5	20.0	0.00e+00	0	44	0	1982857216	5	4026
2026-01-17 03:22:38.20	294.18	47.36	-22.2	-22.8	20.3	0.00e+00	0	44	0	1999634432	5	3860
2026-01-17 03:22:41.20	292.44	47.23	-22.0	-22.4	20.5	0.00e+00	0	44	0	2016411648	5	3763
2026-01-17 03:22:44.20	290.71	47.08	-22.4	-23.2	20.2	0.00e+00	0	44	0	2034237440	5	3935
2026-01-17 03:22:47.22	288.99	46.89	-22.6	-23.7	19.9	0.00e+00	0	44	0	2051014656	5	4057
2026-01-17 03:22:50.23	287.30	46.68	-22.5	-23.4	20.0	0.00e+00	0	44	0	2067791872	5	3987
2026-01-17 03:22:53.23	285.64	46.44	-22.3	-23.0	20.3	0.00e+00	0	44	0	2084569088	5	3891
2026-01-17 03:22:56.23	284.00	46.18	-22.2	-22.7	20.4	5.49e-05	0	44	0	2101346304	5	3825
2026-01-17 03:22:59.22	282.40	45.90	-22.2	-22.8	20.3	7.43e-05	0	44	0	2118123520	5	3860
2026-01-17 03:23:02.23	280.82	45.59	-22.3	-23.1	20.2	1.58e-04	0	44	0	2134900736	5	3917
2026-01-17 03:23:05.24	279.27	45.26	-22.6	-23.5	19.9	1.79e-04	0	44	0	2151677952	5	4026
2026-01-17 03:23:08.24	277.75	44.91	-22.7	-23.7	19.8	0.00e+00	0	44	0	2169503744	5	4078
2026-01-17 03:23:11.24	276.27	44.54	-22.4	-23.2	20.1	5.03e-05	0	44	0	2186280960	5	3940
2026-01-17 03:23:14.24	274.83	44.16	-22.1	-22.6	20.4	9.61e-05	0	44	0	2203058176	5	3802
2026-01-17 03:23:17.25	273.42	43.76	-22.1	-23.0	20.5	0.00e+00	0	44	0	2219835392	4	4001
2026-01-17 03:23:20.24	272.05	43.34	-22.0	-22.9	20.5	0.00e+00	0	44	0	2236612608	4	3990
2026-01-17 03:23:23.25	270.70	42.91	-22.1	-23.0	20.4	9.84e-05	0	44	0	2253389824	4	4011
2026-01-17 03:23:26.25	269.40	42.47	-21.7	-22.3	20.7	2.02e-04	0	44	0	2270167040	4	3852
2026-01-17 03:23:29.25	268.13	42.02	-22.0	-23.3	20.6	0.00e+00	0	44	0	2286944256	3	4193
2026-01-17 03:23:32.25	266.90	41.56	-22.0	-22.9	20.4	0.00e+00	0	44	0	2303721472	4	3983
2026-01-17 03:23:35.26	265.70	41.09	-22.2	-23.2	20.3	0.00e+00	0	44	0	2320498688	4	4062
2026-01-17 03:23:38.27	264.54	40.61	-22.2	-23.2	20.3	1.02e-05	0	43	0	2338324480	4	4067
2026-01-17 03:23:41.28	263.41	40.12	-22.0	-22.9	20.4	0.00e+00	0	44	0	2355101696	4	3982
2026-01-17 03:23:44.28	262.31	39.63	-22.1	-23.2	20.3	0.00e+00	0	44	0	2371878912	4	4050
2026-01-17 03:23:47.29	261.25	39.14	-22.1	-23.2	20.3	0.00e+00	0	43	0	2388656128	4	4049
2026-01-17 03:23:50.29	260.22	38.64	-22.1	-23.2	20.2	0.00e+00	0	44	0	2405433344	4	4047
2026-01-17 03:23:53.31	259.22	38.14	-22.0	-22.9	20.4	0.00e+00	0	44	0	2422210560	4	3979
2026-01-17 03:23:56.31	258.25	37.63	-21.9	-22.6	20.5	0.00e+00	0	44	0	2438987776	4	3906
2026-01-17 03:23:59.32	257.31	37.13	-21.8	-22.5	20.6	0.00e+00	0	44	0	2455764992	4	3894
2026-01-17 03:24:02.32	256.40	36.62	-21.8	-22.4	20.6	0.00e+00	0	44	0	2473590784	4	3870
2026-01-17 03:24:05.32	255.52	36.11	-21.9	-22.6	20.5	0.00e+00	0	44	0	2490368000	4	3917
2026-01-17 03:24:08.32	254.67	35.61	-22.0	-22.8	20.4	0.00e+00	0	44	0	2507145216	4	3971
2026-01-17 03:24:11.35	253.83	35.10	-21.9	-22.6	20.5	0.00e+00	0	44	0	2523922432	4	3911
2026-01-17 03:24:14.36	253.03	34.60	-21.8	-23.0	20.6	0.00e+00	0	44	0	2540699648	3	4122
2026-01-17 03:24:17.36	252.25	34.09	-22.0	-22.8	20.4	0.00e+00	0	44	0	2557476864	4	3963
2026-01-17 03:24:20.36	251.50	33.60	-21.8	-22.5	20.6	0.00e+00	0	44	0	2574254080	4	3881
2026-01-17 03:24:23.36	250.77	33.10	-21.9	-22.7	20.4	0.00e+00	0	44	0	2591031296	4	3941
2026-01-17 03:24:26.36	250.06	32.61	-22.3	-23.5	20.0	0.00e+00	0	44	0	2608857088	4	4134
2026-01-17 03:24:29.37	249.37	32.11	-22.6	-23.7	19.7	1.59e-04	0	44	0	2625634304	5	4080
2026-01-17 03:24:32.38	248.70	31.63	-22.5	-23.4	19.8	2.89e-04	0	44	0	2642411520	5	3993
2026-01-17 03:24:35.39	248.05	31.14	-22.8	-24.0	19.5	0.00e+00	0	44	0	2659188736	5	4148
2026-01-17 03:24:38.39	247.42	30.66	-22.3	-23.5	20.0	6.02e-04	0	44	0	2675965952	4	4145
2026-01-17 03:24:41.39	246.81	30.19	-22.3	-23.6	20.0	5.90e-04	0	44	0	2692743168	4	4149
2026-01-17 03:24:44.40	246.22	29.72	-22.3	-23.6	19.9	0.00e+00	0	44	0	2709520384	4	4161
2026-01-17 03:24:47.40	245.65	29.25	-22.5	-23.4	19.8	0.00e+00	0	44	0	2726297600	5	3991
2026-01-17 03:24:50.40	245.09	28.79	-22.3	-23.1	19.9	1.20e-04	0	44	0	2744123392	5	3918
2026-01-17 03:24:53.41	244.55	28.33	-22.6	-23.6	19.7	0.00e+00	0	44	0	2760900608	5	4054
2026-01-17 03:24:56.42	244.02	27.87	-22.7	-23.8	19.5	0.00e+00	0	44	0	2777677824	5	4094
2026-01-17 03:24:59.43	243.50	27.42	-23.4	-24.8	18.8	0.00e+00	0	44	0	2794455040	6	4235
2026-01-17 03:25:02.44	243.01	26.98	-23.3	-24.1	18.9	4.50e-06	0	44	0	2811232256	7	3949
2026-01-17 03:25:05.45	242.52	26.54	-23.2	-24.4	19.0	8.00e-06	0	44	0	2828009472	6	4130
2026-01-17 03:25:08.44	242.05	26.11	-23.4	-24.2	18.8	0.00e+00	0	44	0	2844786688	7	3973
2026-01-17 03:25:11.45	241.59	25.68	-22.9	-23.7	19.4	1.25e-05	0	44	0	2861563904	6	3947
2026-01-17 03:25:14.46	241.15	25.25	-22.9	-23.8	19.3	8.00e-06	0	44	0	2879389696	6	3977
2026-01-17 03:25:17.47	240.71	24.83	-22.7	-23.9	19.4	6.80e-06	0	44	0	2896166912	5	4114
2026-01-17 03:25:20.48	240.29	24.42	-23.2	-24.3	19.0	8.00e-06	0	43	0	2912944128	6	4110
2026-01-17 03:25:23.48	239.88	24.01	-22.8	-23.6	19.3	4.50e-06	0	44	0	2929721344	6	3934
2026-01-17 03:25:26.47	239.48	23.60	-22.9	-23.7	19.3	8.00e-06	0	44	0	2946498560	6	3970
2026-01-17 03:25:29.48	239.09	23.20	-22.7	-23.4	19.4	4.50e-06	0	44	0	2963275776	6	3895
2026-01-17 03:25:32.48	238.71	22.81	-22.8	-24.0	19.3	8.00e-06	0	44	0	2980052992	5	4150
2026-01-17 03:25:35.50	238.34	22.41	-22.8	-24.1	19.2	5.70e-06	0	44	0	2996830208	5	4176
2026-01-17 03:25:38.51	237.98	22.03	-23.1	-24.1	19.0	3.40e-06	0	44	0	3014656000	6	4072
2026-01-17 03:25:41.51	237.63	21.65	-23.2	-24.4	18.8	0.00e+00	0	44	0	3031433216	6	4141
2026-01-17 03:25:44.52	237.28	21.27	-23.3	-24.6	18.7	4.50e-06	0	44	0	3048210432	6	4191
2026-01-17 03:25:47.53	236.95	20.89	-23.3	-24.5	18.8	1.10e-06	0	44	0	3064987648	6	4168
2026-01-17 03:25:50.54	236.62	20.52	-23.3	-24.7	18.6	0.00e+00	0	44	0	3081764864	6	4213
2026-01-17 03:25:53.54	236.30	20.16	-22.9	-24.2	16.2	0.00e+00	0	44	0	3098542080	6	4181
2026-01-17 03:25:56.55	235.99	19.80	-23.7	-24.9	17.1	6.80e-06	0	44	0	3115319296	7	4142
2026-01-17 03:25:59.56	235.68	19.44	-23.6	-24.8	18.3	0.00e+00	0	44	0	3132096512	7	4124
2026-01-17 03:26:02.56	235.39	19.09	-23.7	-25.0	18.2	0.00e+00	0	44	0	3149922304	7	4166
2026-01-17 03:26:05.56	235.10	18.75	-23.7	-25.0	18.2	0.00e+00	0	44	0	3166699520	7	4169
2026-01-17 03:26:08.56	234.82	18.40	-23.8	-25.1	18.1	1.58e-03	0	44	0	3183476736	7	4197
2026-01-17 03:26:11.55	234.54	18.07	-24.0	-25.0	17.9	0.00e+00	0	44	0	3200253952	8	4062
2026-01-17 03:26:14.55	234.27	17.73	-24.2	-25.4	17.7	0.00e+00	0	44	0	3217031168	8	4170
2026-01-17 03:26:17.56	234.00	17.40	-24.2	-25.5	17.7	9.86e-04	0	44	0	3233808384	8	4178
2026-01-17 03:26:20.56	233.75	17.07	-24.3	-25.3	17.5	6.58e-04	0	44	0	3250585600	9	4023
2026-01-17 03:26:23.57	233.49	16.75	-24.4	-25.9	17.4	0.00e+00	0	44	0	3267362816	8	4285
2026-01-17 03:26:26.58	233.24	16.43	-24.4	-25.6	17.3	0.00e+00	0	44	0	3284140032	9	4097
2026-01-17 03:26:29.59	233.00	16.11	-24.5	-25.8	17.2	9.49e-04	0	44	0	3301965824	9	4146
2026-01-17 03:26:32.59	232.77	15.80	-24.7	-26.2	16.4	1.17e-03	0	44	0	3318743040	9	4263
2026-01-17 03:26:35.60	232.53	15.49	-24.7	-26.2	16.9	1.35e-03	0	44	0	3335520256	9	4248
2026-01-17 03:26:38.61	232.31	15.18	-24.5	-25.7	17.1	1.17e-03	0	44	0	3352297472	9	4134
2026-01-17 03:26:41.63	232.08	14.88	-24.6	-26.0	17.0	1.43e-03	0	44	0	3369074688	9	4200
2026-01-17 03:26:44.63	231.87	14.58	-24.9	-26.5	16.7	1.50e-03	0	44	0	3385851904	9	4330
2026-01-17 03:26:47.64	231.65	14.28	-25.4	-27.1	16.1	1.54e-03	0	44	0	3403677696	10	4380
2026-01-17 03:26:50.63	231.44	13.99	-25.4	-27.1	16.1	1.64e-03	0	44	0	3419406336	10	4378
2026-01-17 03:26:53.64	231.24	13.70	-25.7	-27.2	15.7	1.62e-03	0	44	0	3437232128	11	4314
2026-01-17 03:26:56.66	231.04	13.41	-25.2	-26.7	16.3	5.95e-05	0	44	0	3454009344	10	4275
2026-01-17 03:26:59.67	230.84	13.13	-25.1	-26.5	16.4	1.57e-03	0	44	0	3470786560	10	4224
2026-01-17 03:27:02.68	230.65	12.85	-25.1	-26.5	16.4	1.64e-03	0	44	0	3487563776	10	4217
2026-01-17 03:27:05.69	230.46	12.57	-25.1	-26.5	16.4	8.12e-05	0	44	0	3504340992	10	4222
2026-01-17 03:27:08.69	230.27	12.29	-25.4	-27.2	16.0	1.66e-03	0	44	0	3521118208	10	4423
2026-01-17 03:27:11.69	230.09	12.02	-25.4	-26.7	16.0	1.70e-03	0	44	0	3538944000	11	4186
2026-01-17 03:27:14.69	229.91	11.75	-25.4	-26.8	15.9	2.44e-04	0	44	0	3555721216	11	4198
2026-01-17 03:27:17.70	229.74	11.49	-25.6	-27.2	15.6	2.47e-04	0	44	0	3572498432	11	4310
2026-01-17 03:27:20.71	229.57	11.22	-25.8	-27.6	15.4	1.18e-03	0	44	0	3589275648	11	4413
2026-01-17 03:27:23.70	229.40	10.96	-25.7	-27.4	15.5	0.00e+00	0	44	0	3606052864	11	4354
2026-01-17 03:27:26.71	229.23	10.70	-25.7	-26.9	15.4	2.00e-04	0	44	0	3622830080	12	4127
2026-01-17 03:27:29.71	229.07	10.44	-25.7	-27.3	15.5	1.69e-04	0	44	0	3639607296	11	4334
2026-01-17 03:27:32.71	228.91	10.19	-25.8	-27.6	15.3	0.00e+00	0	44	0	3656384512	11	4407
2026-01-17 03:27:35.70	228.76	9.94	-26.1	-27.7	14.8	0.00e+00	0	44	0	3673161728	12	4354
2026-01-17 03:27:38.70	228.60	9.69	-25.9	-27.4	15.0	1.67e-04	0	44	0	3689938944	12	4249
2026-01-17 03:27:41.71	228.45	9.44	-26.0	-27.5	15.0	1.84e-04	0	44	0	3706716160	12	4275
2026-01-17 03:27:44.72	228.31	9.20	-26.0	-27.7	14.8	0.00e+00	0	44	0	3724541952	12	4335
2026-01-17 03:27:47.73	228.16	8.95	-25.7	-27.4	15.3	0.00e+00	0	44	0	3741319168	11	4361
2026-01-17 03:27:50.74	228.02	8.71	-26.0	-28.0	15.0	0.00e+00	0	44	0	3758096384	11	4556
2026-01-17 03:27:53.74	227.88	8.47	-25.8	-27.6	15.1	0.00e+00	0	44	0	3774873600	11	4435
2026-01-17 03:27:56.74	227.74	8.24	-25.9	-27.4	14.9	0.00e+00	0	44	0	3791650816	12	4272
2026-01-17 03:27:59.75	227.60	8.00	-26.0	-27.5	14.8	1.10e-06	0	44	0	3808428032	12	4310
2026-01-17 03:28:02.75	227.47	7.77	-26.0	-27.5	14.8	1.10e-06	0	44	0	3825205248	12	4296
2026-01-17 03:28:05.77	227.34	7.54	-26.2	-28.0	14.5	1.10e-06	0	44	0	3841982464	12	4430
2026-01-17 03:28:08.78	227.21	7.31	-26.1	-27.8	14.5	1.10e-06	0	44	0	3859808256	12	4398
2026-01-17 03:28:11.78	227.08	7.08	-32.4	-43.4	3.8	8.46e-01	0	44	104	3874488320	24	12683
2026-01-17 03:28:14.79	226.95	6.86	-33.3	-44.7	3.8	8.45e-01	0	44	104	3874488320	26	13365

#Closed at: 2026-01-17 03:28:15
#Recorded file [3874 MB]: D:/data/31010_260117_061642.dat