passes_logs/2026/01/17/R2M6_AANII_01/R2M6_AANII_01__20260117_095142_FENGYUN_3D_rec.log

#Pass ID: 20260117_095142_FENGYUN 3D
#Satellite: FENGYUN 3D
#Configuration: FENGYUN 3D
#almurnet v.1.7.20240730
#Start time: 2026-01-17 09:51:42

#Version: 2.2.20231116
#Station: R2M6_AANII_01
#Location: 30.233357 lon 59.946436 lat
#TLE: 1 43010U 17072A   26016.27214855  .00000192  00000+0  11235-3 0  9990
#TLE: 2 43010  98.9932 348.1078 0002365 105.5031 254.6406 14.19695933423435

#Time	Az	El	Level	Level2	SNR	BER	BlckErr	Temp	State	Recorded	gain1	gain2
2026-01-17 09:51:42.85	82.35	7.01	-31.6	-36.9	4.4	8.22e-01	0	41	0	0	24	6689
2026-01-17 09:51:45.86	82.01	7.17	-30.5	-33.9	8.2	7.27e-02	0	41	0	5242880	22	5337
2026-01-17 09:51:48.87	81.66	7.34	-30.7	-34.6	7.7	1.00e-01	0	41	0	22020096	22	5604
2026-01-17 09:51:51.87	81.31	7.51	-30.4	-33.4	8.6	5.38e-02	0	41	0	38797312	22	5105
2026-01-17 09:51:54.88	80.96	7.67	-28.5	-30.3	12.0	8.27e-04	0	41	0	55574528	18	4448
2026-01-17 09:51:57.88	80.60	7.84	-27.4	-28.6	13.7	1.25e-05	0	41	0	73400320	16	4152
2026-01-17 09:52:00.89	80.24	8.01	-26.9	-28.5	14.2	3.40e-06	0	41	0	90177536	14	4341
2026-01-17 09:52:03.89	79.87	8.17	-26.6	-27.9	14.5	1.10e-06	0	41	0	106954752	14	4179
2026-01-17 09:52:06.88	79.50	8.34	-26.8	-28.4	14.3	1.10e-06	0	41	0	123731968	14	4303
2026-01-17 09:52:09.89	79.12	8.50	-27.0	-28.7	14.2	0.00e+00	0	41	0	140509184	14	4388
2026-01-17 09:52:12.88	78.75	8.67	-27.0	-28.9	14.1	1.10e-06	0	41	0	157286400	14	4440
2026-01-17 09:52:15.90	78.36	8.84	-27.1	-29.0	14.0	4.50e-06	0	41	0	174063616	14	4477
2026-01-17 09:52:18.92	77.97	9.00	-27.6	-29.8	13.3	3.08e-05	0	42	0	190840832	15	4598
2026-01-17 09:52:21.93	77.57	9.17	-27.1	-28.5	14.1	1.10e-06	0	42	0	208666624	15	4212
2026-01-17 09:52:24.93	77.18	9.34	-26.9	-28.0	14.3	1.10e-06	0	42	0	225443840	15	4085
2026-01-17 09:52:27.93	76.77	9.50	-26.9	-28.5	14.4	1.10e-06	0	42	0	242221056	14	4323
2026-01-17 09:52:30.94	76.37	9.67	-26.7	-28.1	14.6	3.40e-06	0	42	0	258998272	14	4216
2026-01-17 09:52:33.95	75.95	9.83	-27.1	-28.9	14.2	5.70e-06	0	42	0	275775488	14	4458
2026-01-17 09:52:36.96	75.53	10.00	-27.1	-29.0	14.1	1.10e-06	0	42	0	292552704	14	4475
2026-01-17 09:52:39.96	75.11	10.16	-27.2	-29.3	14.0	9.10e-06	0	42	0	309329920	14	4552
2026-01-17 09:52:42.97	74.69	10.33	-26.9	-28.6	14.4	2.20e-06	0	42	0	326107136	14	4351
2026-01-17 09:52:45.98	74.25	10.49	-26.9	-28.6	14.4	1.10e-06	0	42	0	343932928	14	4350
2026-01-17 09:52:48.98	73.82	10.65	-26.6	-27.8	14.9	0.00e+00	0	42	0	360710144	14	4143
2026-01-17 09:52:51.98	73.38	10.81	-26.6	-27.8	14.8	0.00e+00	0	42	0	377487360	14	4152
2026-01-17 09:52:54.98	72.93	10.98	-26.5	-27.5	15.1	0.00e+00	0	42	0	394264576	14	4072
2026-01-17 09:52:57.99	72.48	11.14	-26.5	-27.5	15.1	0.00e+00	0	42	0	411041792	14	4061
2026-01-17 09:53:00.98	72.02	11.30	-26.4	-27.4	15.2	0.00e+00	0	42	0	427819008	14	4022
2026-01-17 09:53:03.99	71.56	11.46	-26.2	-27.4	15.4	0.00e+00	0	42	0	444596224	13	4130
2026-01-17 09:53:06.99	71.09	11.61	-26.3	-27.6	15.3	0.00e+00	0	42	0	461373440	13	4200
2026-01-17 09:53:10.00	70.62	11.77	-26.1	-27.3	15.5	0.00e+00	0	42	0	479199232	13	4105
2026-01-17 09:53:13.01	70.14	11.93	-25.9	-26.9	15.7	0.00e+00	0	42	0	495976448	13	4000
2026-01-17 09:53:16.00	69.66	12.09	-25.9	-26.7	15.8	0.00e+00	0	42	0	512753664	13	3954
2026-01-17 09:53:19.00	69.18	12.24	-26.0	-26.9	15.7	0.00e+00	0	42	0	529530880	13	4017
2026-01-17 09:53:22.01	68.68	12.39	-25.9	-26.7	15.9	0.00e+00	0	43	0	546308096	13	3955
2026-01-17 09:53:25.01	68.19	12.55	-26.1	-27.2	15.6	0.00e+00	0	42	0	563085312	13	4074
2026-01-17 09:53:28.02	67.68	12.70	-26.1	-27.3	15.5	1.10e-06	0	42	0	579862528	13	4109
2026-01-17 09:53:31.01	67.18	12.85	-26.1	-27.1	15.8	0.00e+00	0	43	0	596639744	13	4032
2026-01-17 09:53:34.02	66.66	13.00	-25.9	-27.2	16.0	0.00e+00	0	42	0	613416960	12	4166
2026-01-17 09:53:37.01	66.15	13.15	-26.2	-27.8	15.7	0.00e+00	0	43	0	630194176	12	4324
2026-01-17 09:53:40.02	65.62	13.29	-26.2	-27.8	15.6	0.00e+00	0	42	0	646971392	12	4343
2026-01-17 09:53:43.03	65.09	13.44	-26.0	-27.3	16.0	0.00e+00	0	43	0	664797184	12	4192
2026-01-17 09:53:46.04	64.56	13.58	-26.1	-27.6	15.8	0.00e+00	0	43	0	681574400	12	4290
2026-01-17 09:53:49.04	64.02	13.72	-26.2	-27.7	15.8	0.00e+00	0	43	0	698351616	12	4316
2026-01-17 09:53:52.05	63.47	13.86	-26.1	-27.7	15.8	0.00e+00	0	42	0	715128832	12	4302
2026-01-17 09:53:55.06	62.92	14.00	-26.1	-27.7	15.8	0.00e+00	0	43	0	731906048	12	4298
2026-01-17 09:53:58.07	62.36	14.14	-26.0	-27.4	16.0	0.00e+00	0	43	0	748683264	12	4212
2026-01-17 09:54:01.07	61.80	14.27	-25.9	-27.1	16.1	0.00e+00	0	43	0	765460480	12	4144
2026-01-17 09:54:04.07	61.24	14.40	-25.6	-26.6	16.4	0.00e+00	0	42	0	783286272	12	4011
2026-01-17 09:54:07.07	60.67	14.53	-25.5	-26.3	16.6	0.00e+00	0	43	0	800063488	12	3933
2026-01-17 09:54:10.08	60.09	14.66	-25.4	-25.9	16.8	0.00e+00	0	43	0	816840704	12	3848
2026-01-17 09:54:13.09	59.51	14.78	-25.3	-26.2	17.0	0.00e+00	0	43	0	833617920	11	4020
2026-01-17 09:54:16.10	58.93	14.91	-25.3	-26.2	17.0	0.00e+00	0	43	0	850395136	11	4022
2026-01-17 09:54:19.11	58.33	15.03	-25.2	-26.0	17.1	0.00e+00	0	43	0	867172352	11	3967
2026-01-17 09:54:22.12	57.74	15.15	-25.0	-25.7	17.3	0.00e+00	0	43	0	883949568	11	3882
2026-01-17 09:54:25.12	57.14	15.26	-25.3	-26.2	17.0	0.00e+00	0	43	0	900726784	11	4022
2026-01-17 09:54:28.12	56.54	15.38	-25.0	-25.7	17.3	0.00e+00	0	43	0	918552576	11	3892
2026-01-17 09:54:31.12	55.93	15.49	-24.8	-25.2	17.6	0.00e+00	0	43	0	935329792	11	3766
2026-01-17 09:54:34.12	55.32	15.59	-24.9	-25.9	17.5	0.00e+00	0	43	0	952107008	10	4051
2026-01-17 09:54:37.13	54.70	15.70	-25.0	-26.3	17.3	0.00e+00	0	43	0	968884224	10	4141
2026-01-17 09:54:40.11	54.08	15.80	-25.5	-27.2	16.8	0.00e+00	0	43	0	985661440	10	4377
2026-01-17 09:54:43.12	53.45	15.90	-25.5	-26.7	16.8	0.00e+00	0	43	0	1002438656	11	4138
2026-01-17 09:54:46.13	52.82	15.99	-25.4	-26.6	16.8	0.00e+00	0	43	0	1019215872	11	4124
2026-01-17 09:54:49.13	52.19	16.08	-25.3	-26.3	16.9	0.00e+00	0	43	0	1035993088	11	4049
2026-01-17 09:54:52.13	51.55	16.17	-25.2	-26.1	17.1	0.00e+00	0	43	0	1052770304	11	3996
2026-01-17 09:54:55.13	50.91	16.26	-25.1	-25.9	17.2	0.00e+00	0	43	0	1069547520	11	3940
2026-01-17 09:54:58.12	50.27	16.34	-25.2	-26.1	17.1	0.00e+00	0	43	0	1086324736	11	3978
2026-01-17 09:55:01.13	49.62	16.42	-25.2	-26.1	17.1	0.00e+00	0	43	0	1104150528	11	4002
2026-01-17 09:55:04.14	48.96	16.50	-25.5	-26.6	16.8	0.00e+00	0	43	0	1120927744	11	4120
2026-01-17 09:55:07.15	48.31	16.57	-25.4	-26.6	16.9	0.00e+00	0	43	0	1137704960	11	4109
2026-01-17 09:55:10.15	47.65	16.64	-25.2	-26.0	17.2	0.00e+00	0	43	0	1154482176	11	3967
2026-01-17 09:55:13.16	46.98	16.70	-24.6	-25.4	17.8	0.00e+00	0	43	0	1171259392	10	3920
2026-01-17 09:55:16.16	46.32	16.76	-25.0	-26.1	17.4	0.00e+00	0	43	0	1188036608	10	4095
2026-01-17 09:55:19.15	45.66	16.82	-25.0	-26.1	17.4	0.00e+00	0	43	0	1204813824	10	4109
2026-01-17 09:55:22.16	44.99	16.87	-24.6	-25.3	17.8	0.00e+00	0	43	0	1221591040	10	3913
2026-01-17 09:55:25.16	44.32	16.92	-24.9	-25.9	17.5	0.00e+00	0	43	0	1239416832	10	4059
2026-01-17 09:55:28.15	43.65	16.97	-25.1	-26.3	17.3	0.00e+00	0	43	0	1256194048	10	4143
2026-01-17 09:55:31.17	42.97	17.01	-25.2	-26.5	17.2	0.00e+00	0	43	0	1272971264	10	4201
2026-01-17 09:55:34.17	42.29	17.05	-25.3	-26.8	17.0	0.00e+00	0	43	0	1289748480	10	4291
2026-01-17 09:55:37.17	41.61	17.08	-24.6	-25.3	17.8	0.00e+00	0	43	0	1306525696	10	3904
2026-01-17 09:55:40.17	40.93	17.11	-24.6	-25.4	17.8	0.00e+00	0	43	0	1323302912	10	3929
2026-01-17 09:55:43.17	40.25	17.13	-24.5	-25.2	17.9	0.00e+00	0	43	0	1340080128	10	3871
2026-01-17 09:55:46.18	39.57	17.15	-24.7	-25.5	17.7	0.00e+00	0	43	0	1356857344	10	3944
2026-01-17 09:55:49.19	38.88	17.17	-24.4	-24.9	18.0	0.00e+00	0	43	0	1373634560	10	3804
2026-01-17 09:55:52.19	38.20	17.18	-24.6	-25.3	17.8	0.00e+00	0	43	0	1390411776	10	3916
2026-01-17 09:55:55.21	37.51	17.19	-24.8	-25.7	17.6	0.00e+00	0	43	0	1408237568	10	3990
2026-01-17 09:55:58.21	36.83	17.20	-24.9	-25.8	17.5	0.00e+00	0	43	0	1425014784	10	4033
2026-01-17 09:56:01.21	36.14	17.20	-24.8	-25.8	17.6	0.00e+00	0	43	0	1441792000	10	4017
2026-01-17 09:56:04.21	35.46	17.19	-24.8	-25.8	17.5	0.00e+00	0	43	0	1458569216	10	4028
2026-01-17 09:56:07.22	34.77	17.18	-24.7	-25.6	17.7	0.00e+00	0	43	0	1475346432	10	3975
2026-01-17 09:56:10.24	34.09	17.17	-24.2	-25.0	18.2	0.00e+00	0	43	0	1492123648	9	3948
2026-01-17 09:56:13.24	33.40	17.15	-24.4	-25.4	18.0	0.00e+00	0	43	0	1508900864	9	4044
2026-01-17 09:56:16.24	32.72	17.13	-24.4	-25.3	18.0	0.00e+00	0	43	0	1525678080	9	4012
2026-01-17 09:56:19.24	32.04	17.11	-24.4	-25.3	18.1	0.00e+00	0	43	0	1543503872	9	4003
2026-01-17 09:56:22.26	31.36	17.08	-24.5	-25.6	17.9	0.00e+00	0	43	0	1560281088	9	4089
2026-01-17 09:56:25.27	30.68	17.05	-24.8	-26.3	17.5	0.00e+00	0	43	0	1577058304	9	4255
2026-01-17 09:56:28.27	30.00	17.01	-24.6	-25.8	17.8	0.00e+00	0	43	0	1593835520	9	4144
2026-01-17 09:56:31.28	29.32	16.97	-24.6	-25.9	17.7	0.00e+00	0	43	0	1610612736	9	4164
2026-01-17 09:56:34.28	28.65	16.92	-24.6	-25.9	17.7	0.00e+00	0	43	0	1627389952	9	4159
2026-01-17 09:56:37.30	27.98	16.87	-24.7	-26.0	17.6	0.00e+00	0	43	0	1644167168	9	4196
2026-01-17 09:56:40.30	27.31	16.82	-24.7	-26.0	17.7	0.00e+00	0	43	0	1661992960	9	4190
2026-01-17 09:56:43.33	26.64	16.76	-24.6	-25.9	17.7	0.00e+00	0	43	0	1678770176	9	4152
2026-01-17 09:56:46.34	25.97	16.70	-24.6	-25.8	17.7	0.00e+00	0	43	0	1695547392	9	4145
2026-01-17 09:56:49.33	25.32	16.64	-24.8	-26.2	17.6	0.00e+00	0	43	0	1712324608	9	4239
2026-01-17 09:56:52.33	24.66	16.57	-24.9	-26.4	17.4	0.00e+00	0	43	0	1729101824	9	4296
2026-01-17 09:56:55.32	24.01	16.50	-24.9	-26.0	17.4	0.00e+00	0	43	0	1745879040	10	4074
2026-01-17 09:56:58.32	23.36	16.42	-24.8	-25.7	17.6	0.00e+00	0	43	0	1762656256	10	3986
2026-01-17 09:57:01.33	22.71	16.35	-24.9	-26.0	17.4	0.00e+00	0	43	0	1779433472	10	4070
2026-01-17 09:57:04.32	22.06	16.26	-24.7	-25.6	17.6	0.00e+00	0	43	0	1796210688	10	3976
2026-01-17 09:57:07.32	21.42	16.18	-25.1	-26.5	17.2	0.00e+00	0	43	0	1814036480	10	4199
2026-01-17 09:57:10.33	20.79	16.09	-24.9	-26.0	17.4	0.00e+00	0	43	0	1830813696	10	4061
2026-01-17 09:57:13.32	20.16	16.00	-25.1	-26.3	17.2	0.00e+00	0	43	0	1847590912	10	4159
2026-01-17 09:57:16.33	19.53	15.90	-25.0	-26.2	17.3	0.00e+00	0	43	0	1864368128	10	4130
2026-01-17 09:57:19.33	18.90	15.80	-24.8	-25.8	17.4	0.00e+00	0	43	0	1881145344	10	4037
2026-01-17 09:57:22.33	18.28	15.70	-25.0	-26.1	17.3	0.00e+00	0	43	0	1897922560	10	4099
2026-01-17 09:57:25.34	17.66	15.60	-25.1	-26.3	17.2	0.00e+00	0	43	0	1914699776	10	4162
2026-01-17 09:57:28.34	17.05	15.49	-25.1	-26.4	17.1	0.00e+00	0	43	0	1931476992	10	4174
2026-01-17 09:57:31.33	16.45	15.38	-25.1	-26.5	17.1	0.00e+00	0	43	0	1948254208	10	4193
2026-01-17 09:57:34.35	15.84	15.27	-25.1	-26.4	17.1	0.00e+00	0	43	0	1965031424	10	4184
2026-01-17 09:57:37.35	15.24	15.15	-25.0	-26.2	17.2	0.00e+00	0	43	0	1982857216	10	4113
2026-01-17 09:57:40.35	14.65	15.04	-25.2	-26.7	16.9	0.00e+00	0	43	0	1999634432	10	4257
2026-01-17 09:57:43.36	14.06	14.91	-25.3	-26.9	16.8	0.00e+00	0	43	0	2016411648	10	4304
2026-01-17 09:57:46.36	13.48	14.79	-25.1	-26.3	17.1	0.00e+00	0	43	0	2033188864	10	4163
2026-01-17 09:57:49.37	12.90	14.67	-25.2	-26.5	17.0	0.00e+00	0	43	0	2049966080	10	4212
2026-01-17 09:57:52.38	12.32	14.54	-25.3	-26.9	16.8	0.00e+00	0	43	0	2066743296	10	4313
2026-01-17 09:57:55.37	11.76	14.41	-25.4	-27.0	16.8	0.00e+00	0	43	0	2083520512	10	4325
2026-01-17 09:57:58.38	11.19	14.28	-25.6	-26.9	16.5	0.00e+00	0	43	0	2100297728	11	4198
2026-01-17 09:58:01.38	10.63	14.14	-25.8	-27.4	16.3	0.00e+00	0	43	0	2117074944	11	4326
2026-01-17 09:58:04.39	10.08	14.01	-25.5	-26.8	16.5	0.00e+00	0	43	0	2134900736	11	4189
2026-01-17 09:58:07.41	9.53	13.87	-25.3	-26.4	16.8	0.00e+00	0	43	0	2151677952	11	4068
2026-01-17 09:58:10.41	8.98	13.73	-25.6	-27.0	16.4	0.00e+00	0	43	0	2168455168	11	4238
2026-01-17 09:58:13.41	8.45	13.59	-25.6	-27.0	16.4	0.00e+00	0	43	0	2185232384	11	4221
2026-01-17 09:58:16.41	7.91	13.45	-25.7	-27.2	16.3	0.00e+00	0	43	0	2202009600	11	4294
2026-01-17 09:58:19.40	7.39	13.30	-25.7	-26.7	16.2	0.00e+00	0	43	0	2218786816	12	4047
2026-01-17 09:58:22.40	6.87	13.16	-25.7	-26.6	16.3	0.00e+00	0	43	0	2235564032	12	4021
2026-01-17 09:58:25.40	6.35	13.01	-25.9	-27.2	15.9	0.00e+00	0	43	0	2253389824	12	4180
2026-01-17 09:58:28.39	5.84	12.86	-25.5	-26.3	16.4	0.00e+00	0	43	0	2269118464	12	3956
2026-01-17 09:58:31.40	5.33	12.71	-25.5	-26.2	16.4	0.00e+00	0	43	0	2286944256	12	3929
2026-01-17 09:58:34.39	4.84	12.56	-25.7	-26.7	16.2	0.00e+00	0	43	0	2303721472	12	4043
2026-01-17 09:58:37.41	4.34	12.41	-26.4	-27.7	15.3	1.10e-06	0	43	0	2320498688	13	4208
2026-01-17 09:58:40.42	3.84	12.26	-26.5	-27.9	15.2	0.00e+00	0	43	0	2337275904	13	4258
2026-01-17 09:58:43.42	3.36	12.10	-26.3	-27.6	15.3	0.00e+00	0	43	0	2354053120	13	4179
2026-01-17 09:58:46.42	2.88	11.95	-26.1	-27.2	15.5	0.00e+00	0	43	0	2370830336	13	4070
2026-01-17 09:58:49.42	2.41	11.79	-26.0	-27.3	15.8	0.00e+00	0	43	0	2387607552	12	4204
2026-01-17 09:58:52.42	1.94	11.63	-26.2	-27.8	15.5	0.00e+00	0	43	0	2404384768	12	4351
2026-01-17 09:58:55.43	1.47	11.47	-26.2	-27.8	15.5	1.10e-06	0	43	0	2421161984	12	4343
2026-01-17 09:58:58.44	1.01	11.31	-26.3	-28.0	15.4	0.00e+00	0	43	0	2438987776	12	4391
2026-01-17 09:59:01.44	0.55	11.15	-26.5	-28.5	15.1	0.00e+00	0	43	0	2455764992	12	4537
2026-01-17 09:59:04.45	0.10	10.99	-27.0	-29.1	14.5	0.00e+00	0	43	0	2472542208	13	4581
2026-01-17 09:59:07.46	359.66	10.83	-26.8	-28.2	14.7	1.10e-06	0	43	0	2489319424	14	4224
2026-01-17 09:59:10.47	359.22	10.67	-27.0	-28.7	14.3	2.20e-06	0	43	0	2506096640	14	4377
2026-01-17 09:59:13.48	358.78	10.51	-26.7	-28.1	14.7	0.00e+00	0	43	0	2522873856	14	4202
2026-01-17 09:59:16.48	358.35	10.34	-26.7	-28.1	14.7	1.10e-06	0	43	0	2539651072	14	4197
2026-01-17 09:59:19.48	357.93	10.18	-27.1	-28.8	14.3	1.10e-06	0	43	0	2556428288	14	4404
2026-01-17 09:59:22.49	357.51	10.02	-26.2	-27.4	15.3	0.00e+00	0	43	0	2574254080	13	4115
2026-01-17 09:59:25.49	357.09	9.85	-26.4	-27.9	15.1	0.00e+00	0	43	0	2591031296	13	4247
2026-01-17 09:59:28.50	356.68	9.69	-26.8	-28.6	14.6	1.10e-06	0	43	0	2607808512	13	4458
2026-01-17 09:59:31.51	356.28	9.52	-26.6	-28.3	14.8	0.00e+00	0	43	0	2624585728	13	4383
2026-01-17 09:59:34.51	355.87	9.36	-26.5	-28.0	14.9	0.00e+00	0	43	0	2641362944	13	4282
2026-01-17 09:59:37.52	355.48	9.19	-26.7	-28.5	14.6	0.00e+00	0	43	0	2658140160	13	4438
2026-01-17 09:59:40.53	355.09	9.03	-27.0	-28.7	14.2	2.20e-06	0	43	0	2674917376	14	4385
2026-01-17 09:59:43.54	354.70	8.86	-26.8	-28.2	14.5	1.10e-06	0	43	0	2691694592	14	4240
2026-01-17 09:59:46.55	354.31	8.69	-26.8	-28.1	14.6	2.20e-06	0	43	0	2709520384	14	4212
2026-01-17 09:59:49.56	353.93	8.53	-27.0	-28.7	14.2	1.10e-06	0	43	0	2726297600	14	4388
2026-01-17 09:59:52.56	353.56	8.36	-27.0	-28.7	14.2	1.10e-06	0	43	0	2743074816	14	4378
2026-01-17 09:59:55.57	353.19	8.19	-26.9	-28.4	14.3	6.80e-06	0	43	0	2759852032	14	4308
2026-01-17 09:59:58.58	352.82	8.03	-27.2	-29.2	13.8	8.00e-06	0	43	0	2776629248	14	4545
2026-01-17 10:00:01.59	352.46	7.86	-26.8	-27.9	14.3	5.70e-06	0	43	0	2793406464	15	4046
2026-01-17 10:00:04.59	352.11	7.70	-26.9	-28.4	14.3	8.00e-06	0	43	0	2810183680	14	4292
2026-01-17 10:00:07.60	351.75	7.53	-27.0	-28.7	14.1	3.40e-06	0	43	0	2828009472	14	4387
2026-01-17 10:00:10.60	351.41	7.36	-26.8	-28.3	14.3	1.10e-06	0	43	0	2844786688	14	4265
2026-01-17 10:00:13.61	351.06	7.20	-27.1	-29.0	13.9	6.80e-06	0	43	0	2861563904	14	4483
2026-01-17 10:00:16.61	350.72	7.03	-32.9	-43.4	3.8	3.42e-01	0	43	0	2877292544	25	12038
2026-01-17 10:00:19.62	350.38	6.86	-33.7	-44.9	3.8	8.46e-01	0	43	104	2877292544	27	13074

#Closed at: 2026-01-17 10:00:20
#Recorded file [2877 MB]: D:/data/31010_260117_125144.dat