passes_logs/2026/01/17/R2M6_AANII_01/R2M6_AANII_01__20260117_045717_FENGYUN_3D_rec.log

#Pass ID: 20260117_045717_FENGYUN 3D
#Satellite: FENGYUN 3D
#Configuration: FENGYUN 3D
#almurnet v.1.7.20240730
#Start time: 2026-01-17 04:57:17

#Version: 2.2.20231116
#Station: R2M6_AANII_01
#Location: 30.233357 lon 59.946436 lat
#TLE: 1 43010U 17072A   26016.27214855  .00000192  00000+0  11235-3 0  9990
#TLE: 2 43010  98.9932 348.1078 0002365 105.5031 254.6406 14.19695933423435

#Time	Az	El	Level	Level2	SNR	BER	BlckErr	Temp	State	Recorded	gain1	gain2
2026-01-17 04:57:17.42	9.31	7.02	-31.3	-36.3	4.4	8.30e-01	0	41	0	0	24	6401
2026-01-17 04:57:20.43	8.97	7.18	-30.4	-33.7	7.9	7.76e-02	0	41	0	5242880	22	5301
2026-01-17 04:57:23.43	8.62	7.35	-30.5	-34.6	7.6	6.94e-02	0	41	0	22020096	21	5781
2026-01-17 04:57:26.45	8.27	7.51	-30.5	-34.7	7.6	8.14e-02	0	41	0	38797312	21	5822
2026-01-17 04:57:29.45	7.92	7.68	-30.6	-34.9	7.5	1.34e-01	0	41	0	55574528	21	5915
2026-01-17 04:57:32.46	7.56	7.85	-29.0	-31.2	10.8	3.24e-03	0	41	0	73400320	19	4632
2026-01-17 04:57:35.46	7.20	8.01	-28.3	-30.3	12.0	2.24e-04	0	41	0	90177536	17	4562
2026-01-17 04:57:38.45	6.84	8.18	-28.2	-30.2	12.1	1.94e-04	0	42	0	106954752	17	4514
2026-01-17 04:57:41.45	6.47	8.34	-28.2	-30.2	12.1	2.52e-04	0	42	0	123731968	17	4528
2026-01-17 04:57:44.46	6.10	8.51	-27.8	-29.6	12.8	1.03e-04	0	42	0	140509184	16	4436
2026-01-17 04:57:47.46	5.72	8.68	-27.0	-28.3	13.7	3.40e-06	0	41	0	157286400	15	4181
2026-01-17 04:57:50.46	5.34	8.84	-27.3	-28.9	13.3	8.00e-06	0	42	0	174063616	15	4351
2026-01-17 04:57:53.46	4.95	9.01	-27.1	-28.6	13.5	6.80e-06	0	42	0	190840832	15	4261
2026-01-17 04:57:56.47	4.56	9.17	-26.9	-28.1	13.9	1.10e-06	0	42	0	207618048	15	4121
2026-01-17 04:57:59.46	4.16	9.34	-27.2	-28.9	13.4	5.70e-06	0	42	0	224395264	15	4334
2026-01-17 04:58:02.47	3.76	9.50	-26.3	-27.2	14.7	0.00e+00	0	42	0	241172480	14	3995
2026-01-17 04:58:05.49	3.36	9.67	-26.6	-27.8	14.4	0.00e+00	0	42	0	258998272	14	4140
2026-01-17 04:58:08.50	2.94	9.83	-26.5	-28.0	14.5	0.00e+00	0	42	0	275775488	13	4318
2026-01-17 04:58:11.51	2.53	10.00	-26.4	-28.0	14.6	0.00e+00	0	42	0	292552704	13	4299
2026-01-17 04:58:14.50	2.11	10.16	-26.3	-27.7	14.7	0.00e+00	0	42	0	309329920	13	4217
2026-01-17 04:58:17.50	1.69	10.32	-26.2	-27.5	14.9	0.00e+00	0	42	0	326107136	13	4181
2026-01-17 04:58:20.52	1.26	10.49	-26.2	-27.5	14.9	0.00e+00	0	42	0	343932928	13	4175
2026-01-17 04:58:23.52	0.82	10.65	-26.3	-27.6	14.8	0.00e+00	0	42	0	359661568	13	4195
2026-01-17 04:58:26.53	0.38	10.81	-26.5	-28.1	14.6	1.10e-06	0	42	0	377487360	13	4323
2026-01-17 04:58:29.53	359.94	10.97	-26.2	-27.4	15.0	0.00e+00	0	42	0	394264576	13	4150
2026-01-17 04:58:32.54	359.49	11.13	-26.1	-27.3	15.1	0.00e+00	0	43	0	411041792	13	4104
2026-01-17 04:58:35.55	359.03	11.30	-26.2	-27.5	15.0	0.00e+00	0	43	0	427819008	13	4172
2026-01-17 04:58:38.55	358.57	11.45	-25.8	-27.0	15.6	0.00e+00	0	42	0	444596224	12	4141
2026-01-17 04:58:41.56	358.11	11.61	-25.9	-27.2	15.4	0.00e+00	0	42	0	461373440	12	4197
2026-01-17 04:58:44.57	357.64	11.77	-25.8	-27.0	15.6	0.00e+00	0	43	0	478150656	12	4137
2026-01-17 04:58:47.58	357.16	11.93	-26.2	-28.0	15.0	0.00e+00	0	42	0	495976448	12	4402
2026-01-17 04:58:50.59	356.68	12.08	-25.7	-26.8	15.7	0.00e+00	0	42	0	512753664	12	4077
2026-01-17 04:58:53.59	356.20	12.24	-25.7	-26.9	15.6	0.00e+00	0	43	0	529530880	12	4117
2026-01-17 04:58:56.59	355.71	12.39	-25.8	-27.1	15.5	0.00e+00	0	43	0	546308096	12	4175
2026-01-17 04:58:59.60	355.21	12.54	-25.7	-26.8	15.7	0.00e+00	0	43	0	563085312	12	4103
2026-01-17 04:59:02.60	354.71	12.69	-25.3	-26.0	16.1	0.00e+00	0	43	0	579862528	12	3890
2026-01-17 04:59:05.61	354.20	12.85	-25.4	-26.2	16.0	0.00e+00	0	43	0	596639744	12	3933
2026-01-17 04:59:08.62	353.69	12.99	-25.8	-26.9	15.6	0.00e+00	0	43	0	613416960	12	4122
2026-01-17 04:59:11.62	353.17	13.14	-25.4	-26.5	16.2	0.00e+00	0	43	0	630194176	11	4130
2026-01-17 04:59:14.62	352.65	13.29	-26.1	-27.7	15.2	0.00e+00	0	43	0	646971392	12	4326
2026-01-17 04:59:17.63	352.12	13.43	-26.5	-28.1	14.8	0.00e+00	0	43	0	664797184	13	4322
2026-01-17 04:59:20.64	351.59	13.57	-26.4	-28.0	14.8	0.00e+00	0	43	0	681574400	13	4290
2026-01-17 04:59:23.64	351.05	13.72	-26.3	-28.0	15.1	0.00e+00	0	43	0	698351616	12	4407
2026-01-17 04:59:26.65	350.51	13.85	-26.0	-27.0	15.4	0.00e+00	0	43	0	715128832	13	4041
2026-01-17 04:59:29.66	349.96	13.99	-25.5	-26.4	16.0	0.00e+00	0	43	0	731906048	12	3986
2026-01-17 04:59:32.66	349.41	14.13	-25.2	-26.1	16.5	0.00e+00	0	43	0	748683264	11	4000
2026-01-17 04:59:35.66	348.85	14.26	-25.2	-26.3	16.4	0.00e+00	0	43	0	765460480	11	4051
2026-01-17 04:59:38.66	348.29	14.39	-25.3	-26.3	16.4	0.00e+00	0	43	0	783286272	11	4062
2026-01-17 04:59:41.66	347.72	14.52	-25.4	-26.5	16.3	0.00e+00	0	43	0	800063488	11	4126
2026-01-17 04:59:44.66	347.15	14.65	-25.3	-26.4	16.4	0.00e+00	0	43	0	816840704	11	4094
2026-01-17 04:59:47.67	346.57	14.78	-25.1	-25.9	16.6	0.00e+00	0	43	0	833617920	11	3967
2026-01-17 04:59:50.69	345.98	14.90	-25.1	-26.0	16.6	0.00e+00	0	43	0	850395136	11	3983
2026-01-17 04:59:53.69	345.39	15.02	-25.0	-25.7	16.7	0.00e+00	0	43	0	867172352	11	3913
2026-01-17 04:59:56.71	344.80	15.14	-25.2	-26.1	16.5	0.00e+00	0	43	0	883949568	11	4011
2026-01-17 04:59:59.72	344.20	15.25	-25.0	-26.2	16.8	0.00e+00	0	43	0	900726784	10	4144
2026-01-17 05:00:02.72	343.60	15.37	-24.8	-25.8	17.0	0.00e+00	0	43	0	918552576	10	4041
2026-01-17 05:00:05.74	342.99	15.48	-24.6	-25.4	17.2	0.00e+00	0	43	0	935329792	10	3943
2026-01-17 05:00:08.74	342.37	15.58	-24.6	-25.3	17.2	0.00e+00	0	43	0	952107008	10	3916
2026-01-17 05:00:11.74	341.76	15.69	-24.3	-24.8	17.5	0.00e+00	0	43	0	968884224	10	3791
2026-01-17 05:00:14.75	341.14	15.79	-24.6	-25.9	17.2	0.00e+00	0	43	0	985661440	9	4178
2026-01-17 05:00:17.76	340.51	15.89	-24.4	-25.5	17.4	0.00e+00	0	43	0	1002438656	9	4073
2026-01-17 05:00:20.77	339.88	15.98	-24.2	-25.0	17.7	0.00e+00	0	43	0	1019215872	9	3954
2026-01-17 05:00:23.77	339.25	16.08	-24.4	-25.6	17.4	0.00e+00	0	43	0	1035993088	9	4092
2026-01-17 05:00:26.79	338.61	16.16	-24.4	-25.5	17.4	0.00e+00	0	43	0	1053818880	9	4087
2026-01-17 05:00:29.80	337.97	16.25	-24.8	-26.3	17.0	0.00e+00	0	43	0	1070596096	9	4282
2026-01-17 05:00:32.81	337.32	16.33	-24.7	-26.1	17.1	0.00e+00	0	43	0	1087373312	9	4216
2026-01-17 05:00:35.81	336.67	16.41	-24.5	-25.7	17.3	0.00e+00	0	43	0	1104150528	9	4114
2026-01-17 05:00:38.81	336.02	16.49	-24.6	-25.9	17.2	0.00e+00	0	43	0	1120927744	9	4171
2026-01-17 05:00:41.80	335.37	16.56	-24.7	-26.0	17.2	0.00e+00	0	43	0	1137704960	9	4207
2026-01-17 05:00:44.80	334.71	16.63	-24.5	-25.6	17.4	0.00e+00	0	43	0	1154482176	9	4095
2026-01-17 05:00:47.81	334.05	16.69	-24.4	-25.5	17.4	0.00e+00	0	43	0	1171259392	9	4080
2026-01-17 05:00:50.82	333.39	16.75	-24.2	-25.1	17.6	0.00e+00	0	43	0	1189085184	9	3971
2026-01-17 05:00:53.83	332.72	16.81	-24.3	-25.1	17.6	0.00e+00	0	43	0	1205862400	9	3987
2026-01-17 05:00:56.84	332.05	16.86	-24.4	-25.5	17.4	0.00e+00	0	43	0	1222639616	9	4065
2026-01-17 05:00:59.84	331.38	16.91	-24.5	-25.6	17.4	0.00e+00	0	43	0	1239416832	9	4092
2026-01-17 05:01:02.86	330.70	16.96	-24.3	-25.2	17.6	0.00e+00	0	43	0	1256194048	9	4006
2026-01-17 05:01:05.87	330.03	17.00	-24.3	-25.2	17.6	0.00e+00	0	43	0	1272971264	9	4003
2026-01-17 05:01:08.87	329.35	17.03	-24.0	-24.6	17.9	0.00e+00	0	43	0	1290797056	9	3849
2026-01-17 05:01:11.88	328.67	17.07	-24.2	-25.0	17.7	0.00e+00	0	43	0	1307574272	9	3943
2026-01-17 05:01:14.89	327.99	17.10	-24.2	-25.0	17.7	0.00e+00	0	43	0	1324351488	9	3954
2026-01-17 05:01:17.90	327.31	17.12	-24.2	-25.1	17.7	0.00e+00	0	43	0	1341128704	9	3965
2026-01-17 05:01:20.91	326.62	17.14	-24.3	-25.2	17.6	0.00e+00	0	43	0	1357905920	9	3991
2026-01-17 05:01:23.92	325.94	17.16	-24.1	-24.9	17.8	0.00e+00	0	43	0	1374683136	9	3921
2026-01-17 05:01:26.92	325.26	17.17	-24.1	-24.9	17.8	0.00e+00	0	43	0	1391460352	9	3916
2026-01-17 05:01:29.91	324.58	17.18	-24.1	-24.7	17.8	0.00e+00	0	43	0	1408237568	9	3888
2026-01-17 05:01:32.91	323.89	17.18	-23.8	-24.2	18.1	0.00e+00	0	43	0	1425014784	9	3768
2026-01-17 05:01:35.91	323.21	17.18	-23.8	-24.7	18.1	0.00e+00	0	43	0	1441792000	8	3980
2026-01-17 05:01:38.92	322.52	17.18	-24.0	-25.1	17.9	0.00e+00	0	43	0	1459617792	8	4079
2026-01-17 05:01:41.93	321.84	17.17	-24.2	-25.4	17.7	0.00e+00	0	43	0	1476395008	8	4164
2026-01-17 05:01:44.94	321.15	17.16	-24.2	-25.5	17.7	0.00e+00	0	43	0	1493172224	8	4181
2026-01-17 05:01:47.94	320.47	17.14	-24.2	-25.5	17.7	0.00e+00	0	43	0	1509949440	8	4194
2026-01-17 05:01:50.94	319.79	17.12	-24.2	-25.5	17.7	0.00e+00	0	43	0	1526726656	8	4180
2026-01-17 05:01:53.96	319.10	17.10	-24.1	-25.4	17.8	0.00e+00	0	43	0	1543503872	8	4153
2026-01-17 05:01:56.97	318.42	17.07	-24.0	-25.1	17.9	0.00e+00	0	43	0	1560281088	8	4088
2026-01-17 05:01:59.97	317.74	17.03	-24.3	-25.7	17.6	0.00e+00	0	43	0	1578106880	8	4231
2026-01-17 05:02:02.96	317.07	17.00	-24.0	-25.1	17.9	0.00e+00	0	43	0	1594884096	8	4089
2026-01-17 05:02:05.94	316.40	16.96	-24.1	-25.2	17.8	0.00e+00	0	43	0	1611661312	8	4109
2026-01-17 05:02:08.93	315.73	16.91	-24.0	-25.1	17.9	0.00e+00	0	43	0	1628438528	8	4091
2026-01-17 05:02:11.93	315.05	16.86	-24.2	-25.5	17.7	0.00e+00	0	43	0	1645215744	8	4194
2026-01-17 05:02:14.94	314.38	16.81	-24.3	-25.7	17.6	0.00e+00	0	43	0	1661992960	8	4248
2026-01-17 05:02:17.94	313.72	16.75	-24.3	-25.7	17.6	0.00e+00	0	43	0	1678770176	8	4236
2026-01-17 05:02:20.93	313.06	16.69	-24.1	-25.3	17.7	0.00e+00	0	43	0	1695547392	8	4132
2026-01-17 05:02:23.93	312.40	16.63	-24.1	-25.3	17.7	0.00e+00	0	43	0	1712324608	8	4143
2026-01-17 05:02:26.94	311.74	16.56	-24.2	-25.6	17.6	0.00e+00	0	43	0	1729101824	8	4216
2026-01-17 05:02:29.94	311.08	16.49	-24.2	-25.4	17.7	0.00e+00	0	43	0	1745879040	8	4162
2026-01-17 05:02:32.95	310.43	16.41	-24.1	-25.3	17.8	0.00e+00	0	43	0	1763704832	8	4140
2026-01-17 05:02:35.96	309.78	16.33	-24.1	-25.3	17.7	0.00e+00	0	43	0	1780482048	8	4136
2026-01-17 05:02:38.95	309.13	16.25	-24.6	-25.9	17.2	0.00e+00	0	43	0	1797259264	9	4167
2026-01-17 05:02:41.96	308.49	16.17	-24.5	-25.7	17.3	0.00e+00	0	43	0	1814036480	9	4136
2026-01-17 05:02:44.95	307.86	16.08	-24.8	-26.2	17.0	0.00e+00	0	43	0	1830813696	9	4258
2026-01-17 05:02:47.97	307.22	15.98	-24.5	-25.8	17.3	0.00e+00	0	43	0	1847590912	9	4146
2026-01-17 05:02:50.97	306.59	15.89	-24.4	-25.5	17.4	0.00e+00	0	43	0	1864368128	9	4074
2026-01-17 05:02:53.96	305.97	15.79	-24.8	-26.4	16.9	0.00e+00	0	43	0	1881145344	9	4314
2026-01-17 05:02:56.97	305.34	15.69	-24.7	-26.0	17.0	0.00e+00	0	43	0	1897922560	9	4217
2026-01-17 05:02:59.98	304.72	15.59	-24.7	-26.1	17.0	1.10e-06	0	43	0	1915748352	9	4238
2026-01-17 05:03:02.99	304.11	15.48	-24.6	-25.9	17.1	0.00e+00	0	43	0	1932525568	9	4188
2026-01-17 05:03:05.99	303.50	15.37	-24.3	-25.3	17.5	0.00e+00	0	43	0	1949302784	9	4021
2026-01-17 05:03:08.98	302.90	15.26	-24.6	-25.9	17.1	2.20e-06	0	43	0	1966080000	9	4174
2026-01-17 05:03:11.99	302.30	15.14	-24.6	-25.9	17.1	2.20e-06	0	43	0	1982857216	9	4178
2026-01-17 05:03:15.00	301.70	15.02	-24.8	-26.4	16.8	0.00e+00	0	43	0	1999634432	9	4315
2026-01-17 05:03:18.01	301.11	14.90	-24.7	-26.2	16.9	1.10e-06	0	43	0	2016411648	9	4261
2026-01-17 05:03:21.01	300.52	14.78	-25.0	-26.3	16.6	3.40e-06	0	43	0	2033188864	10	4169
2026-01-17 05:03:24.00	299.95	14.65	-24.7	-25.7	17.0	3.40e-06	0	43	0	2049966080	10	4009
2026-01-17 05:03:26.99	299.37	14.53	-24.7	-25.6	17.0	0.00e+00	0	43	0	2066743296	10	3997
2026-01-17 05:03:29.99	298.80	14.40	-24.9	-26.0	16.8	3.40e-06	0	43	0	2084569088	10	4103
2026-01-17 05:03:33.00	298.24	14.26	-24.7	-25.6	17.0	2.20e-06	0	43	0	2101346304	10	3998
2026-01-17 05:03:36.00	297.68	14.13	-24.8	-25.9	16.8	1.10e-06	0	43	0	2118123520	10	4077
2026-01-17 05:03:39.00	297.12	13.99	-24.7	-25.7	16.9	2.20e-06	0	43	0	2134900736	10	4032
2026-01-17 05:03:41.99	296.58	13.86	-24.8	-25.9	16.8	1.10e-06	0	43	0	2151677952	10	4074
2026-01-17 05:03:44.98	296.03	13.72	-24.9	-26.0	16.7	2.20e-06	0	43	0	2168455168	10	4099
2026-01-17 05:03:47.98	295.49	13.58	-25.0	-26.3	16.6	0.00e+00	0	43	0	2185232384	10	4164
2026-01-17 05:03:50.98	294.96	13.44	-25.2	-26.6	16.3	1.10e-06	0	43	0	2202009600	10	4264
2026-01-17 05:03:54.00	294.43	13.29	-25.2	-26.7	16.3	0.00e+00	0	43	0	2218786816	10	4273
2026-01-17 05:03:56.99	293.91	13.14	-25.0	-26.2	16.6	0.00e+00	0	43	0	2235564032	10	4152
2026-01-17 05:04:00.00	293.39	13.00	-25.1	-26.6	16.3	0.00e+00	0	43	0	2253389824	10	4254
2026-01-17 05:04:03.01	292.87	12.85	-25.5	-26.8	15.9	0.00e+00	0	43	0	2270167040	11	4205
2026-01-17 05:04:06.02	292.36	12.70	-25.6	-27.0	15.8	0.00e+00	0	43	0	2286944256	11	4266
2026-01-17 05:04:09.03	291.86	12.54	-25.6	-27.1	15.7	0.00e+00	0	43	0	2303721472	11	4290
2026-01-17 05:04:12.03	291.36	12.39	-25.4	-26.7	16.0	0.00e+00	0	43	0	2320498688	11	4167
2026-01-17 05:04:15.04	290.87	12.24	-25.7	-27.3	15.6	0.00e+00	0	43	0	2337275904	11	4342
2026-01-17 05:04:18.04	290.38	12.08	-25.3	-26.4	16.1	0.00e+00	0	43	0	2354053120	11	4097
2026-01-17 05:04:21.05	289.90	11.93	-25.4	-26.6	16.0	0.00e+00	0	43	0	2370830336	11	4155
2026-01-17 05:04:24.06	289.42	11.77	-25.4	-26.7	16.0	0.00e+00	0	43	0	2388656128	11	4170
2026-01-17 05:04:27.07	288.94	11.61	-25.5	-26.9	15.8	0.00e+00	0	43	0	2405433344	11	4240
2026-01-17 05:04:30.08	288.48	11.45	-25.1	-26.1	16.2	0.00e+00	0	43	0	2422210560	11	4010
2026-01-17 05:04:33.08	288.01	11.29	-25.7	-27.2	15.6	0.00e+00	0	43	0	2438987776	11	4321
2026-01-17 05:04:36.08	287.56	11.13	-25.9	-27.8	15.3	0.00e+00	0	43	0	2455764992	11	4474
2026-01-17 05:04:39.07	287.11	10.97	-25.8	-27.0	15.3	0.00e+00	0	43	0	2472542208	12	4148
2026-01-17 05:04:42.09	286.66	10.81	-26.0	-27.4	15.1	0.00e+00	0	43	0	2489319424	12	4268
2026-01-17 05:04:45.09	286.22	10.65	-26.0	-27.6	15.0	0.00e+00	0	43	0	2506096640	12	4314
2026-01-17 05:04:48.10	285.78	10.49	-26.0	-27.6	14.9	1.10e-06	0	43	0	2523922432	12	4314
2026-01-17 05:04:51.10	285.35	10.32	-26.0	-27.7	14.9	0.00e+00	0	43	0	2540699648	12	4332
2026-01-17 05:04:54.10	284.92	10.16	-26.9	-29.0	13.8	4.50e-06	0	43	0	2557476864	13	4621
2026-01-17 05:04:57.11	284.50	9.99	-26.5	-28.1	14.3	1.10e-06	0	43	0	2574254080	13	4361
2026-01-17 05:05:00.11	284.08	9.83	-26.3	-27.8	14.5	0.00e+00	0	43	0	2591031296	13	4262
2026-01-17 05:05:03.13	283.67	9.66	-26.1	-27.4	14.7	0.00e+00	0	43	0	2607808512	13	4150
2026-01-17 05:05:06.13	283.26	9.50	-26.1	-27.3	14.8	0.00e+00	0	43	0	2624585728	13	4127
2026-01-17 05:05:09.13	282.86	9.33	-26.0	-27.1	14.9	0.00e+00	0	43	0	2641362944	13	4073
2026-01-17 05:05:12.13	282.46	9.17	-25.9	-26.9	15.0	0.00e+00	0	43	0	2659188736	13	4025
2026-01-17 05:05:15.13	282.07	9.00	-26.1	-27.3	14.7	0.00e+00	0	43	0	2675965952	13	4127
2026-01-17 05:05:18.13	281.68	8.84	-26.3	-27.7	14.5	0.00e+00	0	43	0	2692743168	13	4230
2026-01-17 05:05:21.14	281.29	8.67	-26.2	-27.5	14.6	0.00e+00	0	43	0	2709520384	13	4175
2026-01-17 05:05:24.14	280.91	8.50	-26.3	-27.8	14.4	0.00e+00	0	43	0	2726297600	13	4256
2026-01-17 05:05:27.13	280.54	8.34	-26.5	-28.1	14.2	0.00e+00	0	43	0	2743074816	13	4355
2026-01-17 05:05:30.13	280.17	8.17	-26.5	-28.2	14.1	0.00e+00	0	43	0	2759852032	13	4384
2026-01-17 05:05:33.15	279.80	8.00	-26.4	-28.1	14.2	0.00e+00	0	44	0	2776629248	13	4347
2026-01-17 05:05:36.14	279.44	7.84	-26.7	-28.7	13.8	2.20e-06	0	43	0	2793406464	13	4542
2026-01-17 05:05:39.14	279.08	7.67	-26.9	-28.6	13.6	6.80e-06	0	43	0	2810183680	14	4383
2026-01-17 05:05:42.14	278.72	7.51	-26.4	-28.0	14.2	1.10e-06	0	43	0	2826960896	13	4316
2026-01-17 05:05:45.15	278.37	7.34	-26.5	-28.2	14.1	4.50e-06	0	43	0	2844786688	13	4382
2026-01-17 05:05:48.16	278.02	7.17	-27.0	-28.8	13.4	5.70e-06	0	43	0	2861563904	14	4465
2026-01-17 05:05:51.17	277.68	7.01	-32.5	-43.7	3.8	8.47e-01	0	43	104	2874146816	25	12965

#Closed at: 2026-01-17 05:05:51
#Recorded file [2874 MB]: D:/data/31010_260117_075719.dat