passes_logs/2026/01/17/R2M6_AANII_01/R2M6_AANII_01__20260117_100039_NOAA_21_JPSS-2_rec.log

#Pass ID: 20260117_100039_NOAA 21 (JPSS-2)
#Satellite: NOAA 21 (JPSS-2)
#Configuration: NOAA 21
#almurnet v.1.7.20240730
#Start time: 2026-01-17 10:00:39

#Version: 2.2.20231116
#Station: R2M6_AANII_01
#Location: 30.233357 lon 59.946436 lat
#TLE: 1 54234U 22150A   26016.21096038  .00000027  00000+0  33607-4 0  9993
#TLE: 2 54234  98.7500 317.0960 0000625 282.3388  77.7718 14.19534911164985

#Time	Az	El	Level	Level2	SNR	BER	BlckErr	Temp	State	Recorded	gain1	gain2
2026-01-17 10:00:39.38	150.62	6.96	-34.1	-45.6	3.8	1.49e+00	0	43	0	0	29	13478
2026-01-17 10:00:42.37	150.58	7.19	-34.1	-45.5	3.8	1.49e+00	0	43	104	0	29	13421
2026-01-17 10:00:45.39	150.55	7.43	-34.2	-45.8	3.8	1.49e+00	0	43	104	0	29	13667
2026-01-17 10:00:48.39	150.51	7.66	-34.3	-45.9	3.8	1.49e+00	0	43	104	0	29	13746
2026-01-17 10:00:51.39	150.47	7.90	-34.2	-45.7	3.8	1.49e+00	0	43	104	0	29	13614
2026-01-17 10:00:54.40	150.43	8.15	-34.0	-45.3	3.8	1.49e+00	0	43	104	0	29	13266
2026-01-17 10:00:57.41	150.39	8.39	-33.8	-45.0	3.8	1.49e+00	0	43	104	0	29	13038
2026-01-17 10:01:00.42	150.35	8.64	-33.2	-44.7	3.8	1.49e+00	0	43	104	0	27	13644
2026-01-17 10:01:03.43	150.30	8.89	-32.2	-39.6	4.6	1.47e+00	0	43	104	0	25	8433
2026-01-17 10:01:06.45	150.26	9.14	-31.4	-36.0	6.8	1.87e-01	0	43	0	7340032	24	6109
2026-01-17 10:01:09.46	150.22	9.39	-30.8	-34.5	8.2	7.17e-02	0	43	0	15728640	23	5499
2026-01-17 10:01:12.46	150.17	9.65	-30.0	-33.5	10.0	6.90e-03	0	43	0	25165824	20	5346
2026-01-17 10:01:15.47	150.12	9.91	-29.4	-32.3	11.2	9.09e-04	0	43	0	34603008	19	4985
2026-01-17 10:01:18.47	150.08	10.17	-29.9	-33.3	10.1	7.50e-03	0	43	0	44040192	20	5272
2026-01-17 10:01:21.46	150.03	10.43	-30.6	-34.7	8.7	3.45e-02	0	43	0	53477376	21	5786
2026-01-17 10:01:24.46	149.98	10.70	-30.5	-34.3	9.0	2.92e-02	0	43	0	62914560	21	5626
2026-01-17 10:01:27.48	149.93	10.97	-29.7	-32.5	10.7	1.96e-03	0	43	0	72351744	20	4959
2026-01-17 10:01:30.47	149.88	11.24	-29.6	-32.2	11.0	2.17e-03	0	43	0	81788928	20	4833
2026-01-17 10:01:33.48	149.83	11.52	-29.2	-31.5	11.9	2.14e-04	0	43	0	91226112	19	4713
2026-01-17 10:01:36.49	149.77	11.80	-28.2	-30.0	13.4	1.37e-05	0	43	0	100663296	17	4435
2026-01-17 10:01:39.49	149.72	12.08	-27.8	-29.6	13.9	1.75e-05	0	43	0	110100480	16	4426
2026-01-17 10:01:42.50	149.66	12.37	-28.0	-30.1	13.7	1.52e-05	0	43	0	119537664	16	4582
2026-01-17 10:01:45.50	149.61	12.66	-27.8	-29.5	14.1	1.37e-05	0	43	0	128974848	16	4378
2026-01-17 10:01:48.52	149.55	12.95	-27.9	-29.9	13.9	1.22e-05	0	43	0	138412032	16	4505
2026-01-17 10:01:51.53	149.49	13.25	-28.0	-29.9	13.9	1.50e-06	0	43	0	147849216	16	4504
2026-01-17 10:01:54.53	149.43	13.55	-27.7	-29.2	14.3	1.60e-05	0	43	0	157286400	16	4300
2026-01-17 10:01:57.54	149.36	13.85	-27.5	-28.9	14.5	1.50e-06	0	43	0	166723584	16	4219
2026-01-17 10:02:00.55	149.30	14.16	-27.6	-29.0	14.4	7.00e-07	0	43	0	176160768	16	4246
2026-01-17 10:02:03.55	149.23	14.47	-27.6	-29.1	14.4	0.00e+00	0	43	0	185597952	16	4258
2026-01-17 10:02:06.55	149.16	14.79	-27.5	-28.8	14.7	0.00e+00	0	43	0	195035136	16	4159
2026-01-17 10:02:09.55	149.10	15.10	-27.5	-28.7	14.7	1.50e-06	0	43	0	204472320	16	4154
2026-01-17 10:02:12.57	149.02	15.43	-27.6	-28.9	14.6	7.00e-07	0	43	0	212860928	16	4208
2026-01-17 10:02:15.58	148.95	15.76	-27.5	-28.9	14.7	0.00e+00	0	43	0	223346688	16	4196
2026-01-17 10:02:18.59	148.88	16.09	-27.5	-28.7	14.8	0.00e+00	0	43	0	232783872	16	4146
2026-01-17 10:02:21.59	148.80	16.43	-27.4	-28.5	14.9	0.00e+00	0	43	0	241172480	16	4097
2026-01-17 10:02:24.60	148.72	16.77	-27.6	-28.9	14.8	0.00e+00	0	43	0	250609664	16	4184
2026-01-17 10:02:27.60	148.64	17.11	-27.6	-28.8	14.8	0.00e+00	0	43	0	260046848	16	4176
2026-01-17 10:02:30.61	148.56	17.47	-27.5	-28.7	14.9	0.00e+00	0	43	0	269484032	16	4132
2026-01-17 10:02:33.62	148.48	17.82	-27.7	-29.2	14.7	0.00e+00	0	43	0	278921216	16	4271
2026-01-17 10:02:36.63	148.39	18.19	-27.8	-29.4	14.6	0.00e+00	0	43	0	288358400	16	4315
2026-01-17 10:02:39.63	148.30	18.55	-27.8	-29.4	14.6	7.00e-07	0	43	0	297795584	16	4325
2026-01-17 10:02:42.64	148.21	18.92	-27.6	-29.0	14.8	0.00e+00	0	43	0	307232768	16	4228
2026-01-17 10:02:45.65	148.12	19.30	-27.6	-28.9	14.9	0.00e+00	0	43	0	316669952	16	4199
2026-01-17 10:02:48.64	148.02	19.68	-27.5	-28.7	15.1	0.00e+00	0	43	0	326107136	16	4123
2026-01-17 10:02:51.65	147.92	20.07	-27.5	-28.6	15.1	0.00e+00	0	43	0	335544320	16	4101
2026-01-17 10:02:54.66	147.82	20.47	-27.2	-28.4	15.4	0.00e+00	0	43	0	344981504	15	4160
2026-01-17 10:02:57.67	147.71	20.87	-27.3	-28.7	15.2	0.00e+00	0	43	0	354418688	15	4251
2026-01-17 10:03:00.68	147.61	21.28	-26.9	-27.7	15.8	0.00e+00	0	43	0	363855872	15	3983
2026-01-17 10:03:03.68	147.50	21.70	-26.8	-28.1	15.9	0.00e+00	0	43	0	373293056	14	4179
2026-01-17 10:03:06.70	147.38	22.12	-26.7	-27.9	16.0	0.00e+00	0	43	0	382730240	14	4131
2026-01-17 10:03:09.71	147.26	22.55	-26.5	-27.5	16.2	0.00e+00	0	43	0	392167424	14	4031
2026-01-17 10:03:12.71	147.14	22.98	-26.2	-27.2	16.7	0.00e+00	0	43	0	401604608	13	4055
2026-01-17 10:03:15.71	147.02	23.43	-26.2	-27.2	16.6	0.00e+00	0	43	0	411041792	13	4065
2026-01-17 10:03:18.71	146.89	23.88	-26.3	-27.5	16.5	0.00e+00	0	43	0	420478976	13	4115
2026-01-17 10:03:21.72	146.76	24.33	-26.5	-27.8	16.4	0.00e+00	0	43	0	429916160	13	4219
2026-01-17 10:03:24.72	146.62	24.80	-26.5	-28.0	16.3	0.00e+00	0	43	0	439353344	13	4255
2026-01-17 10:03:27.72	146.48	25.27	-26.7	-28.4	16.1	0.00e+00	0	43	0	447741952	13	4359
2026-01-17 10:03:30.73	146.33	25.76	-26.6	-28.1	16.3	0.00e+00	0	43	0	458227712	13	4272
2026-01-17 10:03:33.73	146.18	26.25	-26.7	-28.3	16.2	0.00e+00	0	43	0	466616320	13	4342
2026-01-17 10:03:36.73	146.03	26.75	-26.8	-28.5	16.1	0.00e+00	0	43	0	476053504	13	4400
2026-01-17 10:03:39.73	145.87	27.26	-27.3	-29.1	15.5	0.00e+00	0	43	0	485490688	14	4448
2026-01-17 10:03:42.75	145.70	27.78	-27.2	-28.9	15.6	0.00e+00	0	43	0	494927872	14	4394
2026-01-17 10:03:45.75	145.53	28.31	-27.0	-28.5	15.9	0.00e+00	0	43	0	504365056	14	4261
2026-01-17 10:03:48.75	145.35	28.84	-27.0	-28.5	16.0	0.00e+00	0	43	0	513802240	14	4256
2026-01-17 10:03:51.75	145.16	29.39	-26.9	-28.3	16.1	0.00e+00	0	43	0	523239424	14	4208
2026-01-17 10:03:54.76	144.97	29.95	-27.0	-28.5	15.9	0.00e+00	0	43	0	532676608	14	4282
2026-01-17 10:03:57.76	144.77	30.52	-27.0	-28.4	16.0	0.00e+00	0	43	0	542113792	14	4248
2026-01-17 10:04:00.76	144.57	31.10	-26.9	-28.3	16.1	0.00e+00	0	43	0	551550976	14	4226
2026-01-17 10:04:03.77	144.35	31.69	-27.0	-28.4	16.0	0.00e+00	0	43	0	560988160	14	4255
2026-01-17 10:04:06.78	144.13	32.30	-27.2	-29.0	15.7	0.00e+00	0	43	0	570425344	14	4403
2026-01-17 10:04:09.78	143.90	32.91	-27.1	-28.6	16.0	0.00e+00	0	43	0	579862528	14	4289
2026-01-17 10:04:12.79	143.66	33.54	-27.4	-29.4	15.5	0.00e+00	0	43	0	589299712	14	4530
2026-01-17 10:04:15.79	143.41	34.18	-27.6	-29.4	15.3	0.00e+00	0	43	0	598736896	15	4399
2026-01-17 10:04:18.80	143.14	34.83	-27.8	-29.8	15.0	0.00e+00	0	43	0	608174080	15	4532
2026-01-17 10:04:21.80	142.87	35.50	-28.4	-30.7	14.4	0.00e+00	0	43	0	617611264	16	4669
2026-01-17 10:04:24.81	142.59	36.18	-28.7	-30.8	14.1	7.00e-07	0	43	0	627048448	17	4592
2026-01-17 10:04:27.82	142.29	36.87	-28.8	-30.6	13.9	2.20e-06	0	43	0	636485632	18	4417
2026-01-17 10:04:30.83	141.98	37.58	-28.9	-30.9	13.8	3.00e-06	0	43	0	645922816	18	4496
2026-01-17 10:04:33.83	141.66	38.30	-29.2	-31.5	13.4	9.10e-06	0	43	0	655360000	18	4703
2026-01-17 10:04:36.85	141.31	39.04	-29.4	-31.6	13.1	3.28e-05	0	43	0	664797184	19	4614
2026-01-17 10:04:39.86	140.96	39.79	-29.6	-32.0	12.8	5.72e-05	0	43	0	673185792	19	4754
2026-01-17 10:04:42.86	140.58	40.56	-29.1	-30.7	13.6	5.30e-06	0	43	0	682622976	19	4350
2026-01-17 10:04:45.86	140.19	41.34	-29.1	-30.7	13.7	4.50e-06	0	43	0	692060160	19	4327
2026-01-17 10:04:48.88	139.78	42.14	-29.4	-31.4	13.2	1.75e-05	0	43	0	701497344	19	4543
2026-01-17 10:04:51.88	139.34	42.95	-29.5	-31.7	13.0	4.95e-05	0	43	0	710934528	19	4635
2026-01-17 10:04:54.88	138.89	43.78	-29.4	-31.4	13.2	2.97e-05	0	43	0	720371712	19	4549
2026-01-17 10:04:57.89	138.41	44.62	-29.4	-31.5	13.2	2.21e-05	0	43	0	729808896	19	4564
2026-01-17 10:05:00.90	137.90	45.48	-29.5	-31.7	13.1	3.43e-05	0	43	0	739246080	19	4636
2026-01-17 10:05:03.91	137.36	46.36	-29.0	-30.3	13.9	2.20e-06	0	43	0	748683264	19	4221
2026-01-17 10:05:06.91	136.79	47.25	-29.1	-30.6	13.7	6.80e-06	0	43	0	758120448	19	4304
2026-01-17 10:05:09.91	136.18	48.15	-29.0	-30.6	13.8	3.00e-06	0	43	0	767557632	19	4288
2026-01-17 10:05:12.92	135.54	49.08	-28.8	-30.1	14.1	3.80e-06	0	43	0	776994816	19	4145
2026-01-17 10:05:15.93	134.86	50.02	-29.0	-31.0	13.8	4.50e-06	0	43	0	786432000	18	4546
2026-01-17 10:05:18.93	134.13	50.97	-28.6	-30.2	14.3	0.00e+00	0	43	0	795869184	18	4290
2026-01-17 10:05:21.94	133.36	51.94	-29.4	-32.0	13.2	1.52e-05	0	43	0	805306368	18	4850
2026-01-17 10:05:24.94	132.53	52.92	-29.2	-31.4	13.6	8.30e-06	0	43	0	814743552	18	4652
2026-01-17 10:05:27.95	131.64	53.91	-29.2	-31.4	13.6	7.60e-06	0	43	0	824180736	18	4639
2026-01-17 10:05:30.95	130.69	54.92	-28.5	-29.7	14.6	0.00e+00	0	43	0	833617920	18	4144
2026-01-17 10:05:33.96	129.67	55.94	-27.9	-28.9	15.4	0.00e+00	0	43	0	843055104	17	4042
2026-01-17 10:05:36.95	128.58	56.96	-27.1	-28.2	16.1	0.00e+00	0	43	0	852492288	15	4080
2026-01-17 10:05:39.97	127.39	57.99	-27.4	-28.7	15.9	0.00e+00	0	43	0	861929472	15	4209
2026-01-17 10:05:42.98	126.10	59.04	-26.9	-27.6	16.4	3.80e-06	0	43	0	871366656	15	3920
2026-01-17 10:05:45.97	124.72	60.07	-26.8	-27.5	16.5	0.00e+00	0	43	0	879755264	15	3900
2026-01-17 10:05:48.99	123.21	61.12	-26.8	-27.4	16.6	3.80e-06	0	43	0	890241024	15	3882
2026-01-17 10:05:52.00	121.57	62.16	-26.5	-27.7	16.9	7.00e-07	0	43	0	899678208	13	4162
2026-01-17 10:05:55.01	119.78	63.20	-26.3	-27.4	17.2	7.00e-07	0	43	0	908066816	13	4075
2026-01-17 10:05:58.02	117.83	64.23	-26.0	-26.8	17.5	0.00e+00	0	43	0	917504000	13	3917
2026-01-17 10:06:01.02	115.71	65.23	-26.0	-26.6	17.5	0.00e+00	0	43	0	926941184	13	3894
2026-01-17 10:06:04.03	113.37	66.22	-25.7	-26.6	17.9	0.00e+00	0	43	0	936378368	12	3969
2026-01-17 10:06:07.04	110.82	67.18	-26.1	-27.4	17.4	0.00e+00	0	43	0	945815552	12	4183
2026-01-17 10:06:10.04	108.04	68.11	-25.7	-26.6	17.9	7.00e-07	0	43	0	955252736	12	3969
2026-01-17 10:06:13.06	104.97	68.99	-25.9	-26.9	17.7	0.00e+00	0	43	0	964689920	12	4059
2026-01-17 10:06:16.06	101.64	69.82	-26.0	-27.2	17.5	0.00e+00	0	43	0	974127104	12	4132
2026-01-17 10:06:19.06	98.02	70.58	-26.4	-28.1	17.1	0.00e+00	0	43	0	983564288	12	4364
2026-01-17 10:06:22.06	94.10	71.27	-26.4	-27.5	17.1	0.00e+00	0	43	0	993001472	13	4119
2026-01-17 10:06:25.06	89.88	71.88	-27.0	-28.5	16.4	0.00e+00	0	43	0	1002438656	14	4255
2026-01-17 10:06:28.08	85.34	72.39	-26.9	-27.7	16.5	0.00e+00	0	43	0	1011875840	15	3947
2026-01-17 10:06:31.08	80.58	72.79	-26.5	-27.3	17.0	0.00e+00	0	43	0	1021313024	14	3948
2026-01-17 10:06:34.10	75.59	73.07	-25.7	-26.6	17.9	0.00e+00	0	43	0	1030750208	12	3969
2026-01-17 10:06:37.09	70.51	73.22	-26.6	-28.0	16.8	0.00e+00	0	43	0	1040187392	13	4228
2026-01-17 10:06:40.10	65.34	73.25	-26.2	-27.2	17.3	0.00e+00	0	43	0	1049624576	13	4013
2026-01-17 10:06:43.11	60.20	73.15	-26.1	-26.8	17.5	0.00e+00	0	43	0	1059061760	13	3922
2026-01-17 10:06:46.13	55.14	72.92	-26.0	-27.1	17.6	0.00e+00	0	43	0	1068498944	12	4106
2026-01-17 10:06:49.14	50.28	72.56	-26.1	-27.4	17.5	0.00e+00	0	43	0	1077936128	12	4192
2026-01-17 10:06:52.13	45.68	72.10	-26.0	-27.1	17.6	0.00e+00	0	43	0	1087373312	12	4096
2026-01-17 10:06:55.15	41.32	71.54	-26.4	-27.6	17.1	0.00e+00	0	43	0	1096810496	13	4116
2026-01-17 10:06:58.16	37.26	70.88	-26.5	-27.8	16.9	0.00e+00	0	43	0	1106247680	13	4191
2026-01-17 10:07:01.15	33.53	70.15	-26.9	-28.7	16.5	0.00e+00	0	43	0	1115684864	13	4413
2026-01-17 10:07:04.15	30.08	69.35	-25.4	-26.4	18.3	0.00e+00	0	43	0	1125122048	11	4023
2026-01-17 10:07:07.17	26.91	68.48	-26.3	-27.3	17.2	0.00e+00	0	43	0	1133510656	13	4054
2026-01-17 10:07:10.17	24.02	67.58	-25.9	-26.5	17.6	0.00e+00	0	43	0	1142947840	13	3847
2026-01-17 10:07:13.18	21.37	66.63	-26.5	-27.9	16.9	0.00e+00	0	43	0	1153433600	13	4194
2026-01-17 10:07:16.18	18.96	65.66	-26.1	-27.4	17.4	0.00e+00	0	43	0	1161822208	12	4183
2026-01-17 10:07:19.19	16.75	64.66	-27.7	-29.5	15.4	0.00e+00	0	43	0	1171259392	15	4416
2026-01-17 10:07:22.20	14.73	63.64	-26.9	-27.8	16.3	0.00e+00	0	43	0	1180696576	15	3968
2026-01-17 10:07:25.20	12.89	62.62	-27.4	-29.4	15.7	0.00e+00	0	43	0	1190133760	14	4504
2026-01-17 10:07:28.21	11.19	61.58	-26.8	-27.4	16.5	0.00e+00	0	43	0	1199570944	15	3858
2026-01-17 10:07:31.21	9.63	60.54	-26.1	-26.9	17.3	0.00e+00	0	43	0	1209008128	13	3944
2026-01-17 10:07:34.22	8.20	59.50	-27.6	-29.2	15.5	0.00e+00	0	43	0	1218445312	15	4347
2026-01-17 10:07:37.22	6.87	58.46	-26.4	-27.1	17.0	0.00e+00	0	43	0	1227882496	14	3881
2026-01-17 10:07:40.23	5.65	57.43	-26.6	-28.1	16.7	0.00e+00	0	43	0	1237319680	13	4267
2026-01-17 10:07:43.24	4.51	56.40	-27.6	-29.4	15.3	0.00e+00	0	43	0	1246756864	15	4390
2026-01-17 10:07:46.24	3.46	55.39	-26.7	-27.7	16.5	0.00e+00	0	43	0	1256194048	14	4041
2026-01-17 10:07:49.25	2.48	54.38	-27.9	-30.0	15.0	0.00e+00	0	43	0	1265631232	15	4566
2026-01-17 10:07:52.26	1.57	53.38	-28.8	-30.4	14.2	1.50e-06	0	43	0	1275068416	18	4357
2026-01-17 10:07:55.25	0.73	52.40	-28.5	-29.8	14.5	7.00e-07	0	43	0	1284505600	18	4164
2026-01-17 10:07:58.27	359.93	51.43	-27.8	-29.0	15.5	0.00e+00	0	43	0	1293942784	16	4168
2026-01-17 10:08:01.28	359.18	50.47	-30.0	-32.4	12.3	3.50e-05	0	43	0	1303379968	20	4762
2026-01-17 10:08:04.29	358.48	49.53	-30.2	-32.5	11.8	5.26e-04	0	43	0	1312817152	21	4701
2026-01-17 10:08:07.30	357.82	48.60	-30.2	-32.4	11.9	2.65e-04	0	43	0	1322254336	21	4667
2026-01-17 10:08:10.30	357.21	47.69	-30.3	-32.9	11.6	6.93e-04	0	43	0	1331691520	21	4807
2026-01-17 10:08:13.31	356.62	46.79	-30.4	-33.0	11.5	5.45e-04	0	43	0	1341128704	21	4858
2026-01-17 10:08:16.31	356.07	45.92	-31.3	-34.6	9.8	1.04e-02	0	43	0	1350565888	23	5246
2026-01-17 10:08:19.32	355.55	45.05	-29.5	-31.3	12.8	9.84e-05	0	43	0	1360003072	20	4401
2026-01-17 10:08:22.32	355.06	44.21	-29.1	-30.7	13.6	3.00e-06	0	43	0	1369440256	19	4341
2026-01-17 10:08:25.33	354.59	43.37	-29.6	-31.9	12.9	7.24e-05	0	43	0	1378877440	19	4702
2026-01-17 10:08:28.34	354.15	42.56	-29.0	-30.5	13.7	5.30e-06	0	43	0	1387266048	19	4272
2026-01-17 10:08:31.34	353.73	41.76	-29.5	-31.8	12.9	2.51e-05	0	43	0	1396703232	19	4681
2026-01-17 10:08:34.35	353.33	40.97	-29.8	-32.4	12.5	1.11e-04	0	43	0	1406140416	19	4887
2026-01-17 10:08:37.35	352.95	40.20	-29.3	-31.3	13.2	3.50e-05	0	43	0	1415577600	19	4525
2026-01-17 10:08:40.36	352.59	39.45	-29.1	-30.8	13.5	9.10e-06	0	43	0	1425014784	19	4363
2026-01-17 10:08:43.38	352.24	38.70	-29.5	-31.8	12.8	4.65e-05	0	43	0	1434451968	19	4685
2026-01-17 10:08:46.37	351.91	37.98	-29.3	-31.2	13.3	1.90e-05	0	43	0	1443889152	19	4490
2026-01-17 10:08:49.38	351.60	37.27	-29.0	-30.6	13.6	1.83e-05	0	43	0	1453326336	19	4321
2026-01-17 10:08:52.39	351.30	36.57	-28.7	-30.4	14.0	2.20e-06	0	43	0	1462763520	18	4362
2026-01-17 10:08:55.39	351.01	35.89	-28.3	-29.8	14.7	0.00e+00	0	43	0	1472200704	17	4286
2026-01-17 10:08:58.40	350.73	35.22	-28.2	-29.6	14.7	0.00e+00	0	43	0	1481637888	17	4242
2026-01-17 10:09:01.40	350.47	34.57	-28.7	-30.7	14.1	0.00e+00	0	43	0	1491075072	17	4563
2026-01-17 10:09:04.40	350.22	33.92	-28.3	-30.0	14.5	0.00e+00	0	43	0	1500512256	17	4349
2026-01-17 10:09:07.39	349.97	33.30	-28.4	-30.2	14.4	0.00e+00	0	43	0	1509949440	17	4421
2026-01-17 10:09:10.40	349.74	32.68	-28.5	-30.3	14.3	1.50e-06	0	43	0	1519386624	17	4435
2026-01-17 10:09:13.41	349.51	32.07	-28.3	-29.9	14.5	0.00e+00	0	43	0	1528823808	17	4316
2026-01-17 10:09:16.43	349.30	31.47	-27.9	-28.9	15.1	7.00e-07	0	43	0	1538260992	17	4047
2026-01-17 10:09:19.44	349.09	30.89	-27.3	-28.1	15.8	0.00e+00	0	43	0	1547698176	16	3959
2026-01-17 10:09:22.43	348.89	30.32	-27.1	-28.2	15.8	7.00e-07	0	43	0	1557135360	15	4084
2026-01-17 10:09:25.44	348.69	29.75	-26.9	-27.7	16.1	0.00e+00	0	43	0	1566572544	15	3938
2026-01-17 10:09:28.45	348.51	29.20	-26.8	-27.9	16.3	0.00e+00	0	43	0	1576009728	14	4119
2026-01-17 10:09:31.46	348.33	28.66	-26.5	-27.3	16.6	0.00e+00	0	43	0	1585446912	14	3951
2026-01-17 10:09:34.47	348.15	28.13	-26.7	-27.9	16.3	0.00e+00	0	43	0	1593835520	14	4102
2026-01-17 10:09:37.47	347.99	27.61	-26.9	-28.3	16.0	0.00e+00	0	43	0	1604321280	14	4222
2026-01-17 10:09:40.48	347.82	27.10	-27.1	-28.8	15.7	0.00e+00	0	43	0	1612709888	14	4349
2026-01-17 10:09:43.47	347.67	26.60	-27.1	-28.7	15.8	0.00e+00	0	43	0	1622147072	14	4315
2026-01-17 10:09:46.48	347.52	26.10	-27.2	-28.9	15.6	0.00e+00	0	43	0	1631584256	14	4390
2026-01-17 10:09:49.49	347.37	25.62	-27.1	-28.6	15.7	0.00e+00	0	43	0	1641021440	14	4312
2026-01-17 10:09:52.49	347.23	25.14	-27.0	-28.4	15.9	0.00e+00	0	43	0	1650458624	14	4248
2026-01-17 10:09:55.50	347.09	24.67	-27.1	-28.8	15.6	0.00e+00	0	43	0	1659895808	14	4370
2026-01-17 10:09:58.51	346.96	24.21	-27.0	-28.6	15.7	0.00e+00	0	43	0	1669332992	14	4308
2026-01-17 10:10:01.51	346.83	23.76	-27.0	-28.6	15.7	0.00e+00	0	43	0	1678770176	14	4304
2026-01-17 10:10:04.52	346.71	23.31	-27.0	-28.6	15.7	0.00e+00	0	43	0	1688207360	14	4298
2026-01-17 10:10:07.53	346.58	22.88	-27.1	-28.8	15.6	0.00e+00	0	43	0	1697644544	14	4350
2026-01-17 10:10:10.54	346.47	22.44	-26.9	-28.3	15.9	0.00e+00	0	43	0	1707081728	14	4229
2026-01-17 10:10:13.54	346.35	22.02	-27.0	-28.5	15.7	0.00e+00	0	43	0	1716518912	14	4276
2026-01-17 10:10:16.54	346.24	21.61	-26.8	-28.1	16.0	0.00e+00	0	43	0	1725956096	14	4159
2026-01-17 10:10:19.55	346.14	21.20	-26.8	-28.0	16.0	0.00e+00	0	43	0	1735393280	14	4153
2026-01-17 10:10:22.56	346.03	20.79	-26.6	-27.5	16.3	0.00e+00	0	43	0	1744830464	14	4013
2026-01-17 10:10:25.56	345.93	20.40	-26.6	-27.6	16.2	0.00e+00	0	43	0	1754267648	14	4045
2026-01-17 10:10:28.57	345.83	20.00	-26.7	-27.8	16.1	0.00e+00	0	44	0	1763704832	14	4091
2026-01-17 10:10:31.57	345.74	19.62	-26.9	-28.2	15.9	0.00e+00	0	43	0	1773142016	14	4199
2026-01-17 10:10:34.59	345.64	19.24	-26.9	-28.3	15.8	0.00e+00	0	43	0	1782579200	14	4220
2026-01-17 10:10:37.59	345.55	18.87	-26.9	-28.4	15.7	0.00e+00	0	43	0	1792016384	14	4258
2026-01-17 10:10:40.59	345.47	18.50	-27.2	-29.0	15.4	0.00e+00	0	43	0	1801453568	14	4424
2026-01-17 10:10:43.60	345.38	18.14	-27.2	-28.9	15.4	0.00e+00	0	43	0	1810890752	14	4404
2026-01-17 10:10:46.58	345.30	17.78	-27.3	-29.2	15.2	0.00e+00	0	43	0	1819279360	14	4487
2026-01-17 10:10:49.59	345.22	17.43	-27.2	-29.1	15.3	0.00e+00	0	43	0	1828716544	14	4445
2026-01-17 10:10:52.60	345.14	17.08	-27.3	-29.3	15.1	0.00e+00	0	43	0	1838153728	14	4528
2026-01-17 10:10:55.62	345.06	16.74	-27.6	-29.4	14.8	7.00e-07	0	43	0	1847590912	15	4423
2026-01-17 10:10:58.60	344.99	16.40	-27.5	-29.3	14.9	0.00e+00	0	43	0	1857028096	15	4398
2026-01-17 10:11:01.60	344.91	16.07	-27.7	-29.6	14.6	7.00e-07	0	43	0	1866465280	15	4487
2026-01-17 10:11:04.60	344.84	15.74	-27.7	-29.6	14.6	0.00e+00	0	43	0	1875902464	15	4499
2026-01-17 10:11:07.61	344.77	15.41	-27.7	-29.7	14.6	7.00e-07	0	43	0	1885339648	15	4517
2026-01-17 10:11:10.62	344.70	15.09	-27.7	-29.7	14.5	7.00e-07	0	43	0	1894776832	15	4522
2026-01-17 10:11:13.64	344.64	14.77	-27.7	-29.6	14.6	0.00e+00	0	43	0	1904214016	15	4504
2026-01-17 10:11:16.64	344.57	14.46	-27.6	-29.6	14.6	3.00e-06	0	43	0	1913651200	15	4490
2026-01-17 10:11:19.64	344.51	14.16	-27.7	-29.6	14.5	7.00e-07	0	43	0	1923088384	15	4512
2026-01-17 10:11:22.64	344.45	13.85	-27.7	-29.8	14.4	7.00e-07	0	43	0	1932525568	15	4562
2026-01-17 10:11:25.66	344.39	13.55	-27.8	-29.9	14.3	2.20e-06	0	43	0	1941962752	15	4579
2026-01-17 10:11:28.66	344.33	13.25	-27.8	-29.9	14.2	2.20e-06	0	43	0	1951399936	15	4606
2026-01-17 10:11:31.67	344.28	12.96	-27.8	-30.1	14.2	7.00e-07	0	43	0	1960837120	15	4653
2026-01-17 10:11:34.66	344.22	12.67	-28.0	-30.0	14.1	1.50e-06	0	43	0	1970274304	16	4497
2026-01-17 10:11:37.66	344.17	12.38	-28.1	-30.0	14.1	2.20e-06	0	43	0	1979711488	16	4516
2026-01-17 10:11:40.67	344.11	12.10	-28.1	-30.2	13.9	2.20e-06	0	43	0	1989148672	16	4574
2026-01-17 10:11:43.67	344.06	11.82	-28.1	-30.2	13.9	1.50e-06	0	43	0	1998585856	16	4559
2026-01-17 10:11:46.68	344.01	11.54	-28.1	-30.2	14.0	3.80e-06	0	43	0	2008023040	16	4560
2026-01-17 10:11:49.68	343.96	11.27	-28.1	-30.2	13.9	1.50e-06	0	43	0	2017460224	16	4582
2026-01-17 10:11:52.68	343.91	11.00	-28.1	-30.1	13.9	4.50e-06	0	43	0	2025848832	16	4551
2026-01-17 10:11:55.69	343.87	10.73	-28.0	-30.0	14.0	3.80e-06	0	43	0	2035286016	16	4499
2026-01-17 10:11:58.70	343.82	10.46	-28.1	-30.3	13.8	6.80e-06	0	43	0	2044723200	16	4588
2026-01-17 10:12:01.70	343.78	10.20	-28.2	-30.5	13.6	7.60e-06	0	43	0	2054160384	16	4662
2026-01-17 10:12:04.70	343.73	9.94	-28.5	-30.7	13.1	2.21e-05	0	43	0	2063597568	17	4637
2026-01-17 10:12:07.69	343.69	9.69	-28.6	-31.0	13.0	3.96e-05	0	43	0	2073034752	17	4713
2026-01-17 10:12:10.69	343.65	9.43	-28.6	-30.8	13.1	3.96e-05	0	43	0	2082471936	17	4648
2026-01-17 10:12:13.70	343.61	9.18	-28.6	-31.0	12.9	2.74e-05	0	43	0	2091909120	17	4734
2026-01-17 10:12:16.71	343.57	8.93	-28.4	-30.5	13.2	2.51e-05	0	43	0	2101346304	17	4563
2026-01-17 10:12:19.72	343.53	8.68	-28.7	-31.2	12.8	7.62e-05	0	43	0	2110783488	17	4786
2026-01-17 10:12:22.70	343.49	8.44	-28.9	-31.8	12.3	1.11e-04	0	43	0	2120220672	17	5009
2026-01-17 10:12:25.70	343.45	8.20	-28.9	-31.7	12.4	1.21e-04	0	43	0	2129657856	17	4974
2026-01-17 10:12:28.70	343.42	7.96	-29.0	-31.4	12.2	1.37e-04	0	43	0	2139095040	18	4779
2026-01-17 10:12:31.70	343.38	7.72	-28.8	-31.1	12.4	2.91e-04	0	43	0	2148532224	18	4650
2026-01-17 10:12:34.71	343.34	7.49	-29.2	-32.1	11.7	5.58e-04	0	43	0	2157969408	18	5011
2026-01-17 10:12:37.71	343.31	7.25	-29.2	-32.1	11.7	5.32e-04	0	43	0	2167406592	18	5020
2026-01-17 10:12:40.72	343.28	7.02	-32.7	-42.5	3.9	6.92e-01	0	43	104	2175795200	25	11117

#Closed at: 2026-01-17 10:12:41
#Recorded file [2175 MB]: D:/data/31010_260117_130104.dat