passes_logs/2026/01/17/R2M6_AANII_01/R2M6_AANII_01__20260117_114201_NOAA_21_JPSS-2_rec.log

#Pass ID: 20260117_114201_NOAA 21 (JPSS-2)
#Satellite: NOAA 21 (JPSS-2)
#Configuration: NOAA 21
#almurnet v.1.7.20240730
#Start time: 2026-01-17 11:48:48

#Version: 2.2.20231116
#Station: R2M6_AANII_01
#Location: 30.233357 lon 59.946436 lat
#TLE: 1 54234U 22150A   26016.21096038  .00000027  00000+0  33607-4 0  9993
#TLE: 2 54234  98.7500 317.0960 0000625 282.3388  77.7718 14.19534911164985

#Time	Az	El	Level	Level2	SNR	BER	BlckErr	Temp	State	Recorded	gain1	gain2
2026-01-17 11:48:48.77	294.83	25.66	-34.4	-53.8	3.8	7.48e-01	0	43	0	0	29	33754
2026-01-17 11:48:49.77	295.10	25.59	-34.5	-45.8	3.8	1.49e+00	0	44	104	0	30	13253
2026-01-17 11:48:50.77	295.37	25.52	-34.5	-45.9	3.8	1.49e+00	0	44	104	0	30	13351
2026-01-17 11:48:51.76	295.64	25.45	-34.5	-45.8	3.8	1.49e+00	0	44	104	0	30	13236
2026-01-17 11:48:52.76	295.90	25.38	-34.5	-45.8	3.8	1.49e+00	0	44	104	0	30	13258
2026-01-17 11:48:53.76	296.17	25.31	-34.5	-45.9	3.8	1.49e+00	0	43	104	0	30	13306
2026-01-17 11:48:54.76	296.43	25.24	-34.5	-45.8	3.8	1.49e+00	0	44	104	0	30	13243
2026-01-17 11:48:55.76	296.69	25.17	-34.5	-45.8	3.8	1.49e+00	0	44	104	0	30	13245
2026-01-17 11:48:56.76	296.95	25.09	-34.5	-45.8	3.8	1.49e+00	0	44	104	0	30	13272
2026-01-17 11:48:57.76	297.21	25.02	-34.5	-45.9	3.8	1.49e+00	0	44	104	0	30	13269
2026-01-17 11:48:58.76	297.47	24.95	-34.5	-45.8	3.8	1.49e+00	0	44	104	0	30	13236
2026-01-17 11:48:59.75	297.73	24.87	-34.5	-45.9	3.8	1.49e+00	0	44	104	0	30	13313
2026-01-17 11:49:00.75	297.98	24.80	-34.5	-45.8	3.8	1.49e+00	0	44	104	0	30	13231
2026-01-17 11:49:01.74	298.24	24.73	-34.5	-45.8	3.8	1.49e+00	0	44	104	0	30	13238
2026-01-17 11:49:02.74	298.49	24.65	-34.5	-45.9	3.8	1.49e+00	0	44	104	0	30	13314
2026-01-17 11:49:03.73	298.74	24.58	-34.5	-45.8	3.8	1.49e+00	0	44	104	0	30	13263
2026-01-17 11:49:04.72	298.99	24.50	-34.4	-45.7	3.8	1.49e+00	0	44	104	0	30	13201
2026-01-17 11:49:05.72	299.24	24.43	-34.5	-45.8	3.8	1.49e+00	0	44	104	0	30	13222
2026-01-17 11:49:06.72	299.49	24.35	-34.4	-45.7	3.8	1.49e+00	0	44	104	0	30	13173
2026-01-17 11:49:07.71	299.74	24.27	-34.4	-45.7	3.8	1.49e+00	0	44	104	0	30	13190
2026-01-17 11:49:08.71	299.98	24.20	-34.3	-46.1	3.8	1.49e+00	0	44	104	0	29	13908
2026-01-17 11:49:09.70	300.23	24.12	-34.4	-46.2	3.8	1.49e+00	0	44	104	0	29	13937
2026-01-17 11:49:10.70	300.47	24.04	-34.4	-46.1	3.8	1.49e+00	0	44	104	0	29	13873
2026-01-17 11:49:11.70	300.72	23.96	-34.4	-46.0	3.8	1.49e+00	0	44	104	0	29	13830
2026-01-17 11:49:12.69	300.96	23.89	-34.3	-46.0	3.8	1.49e+00	0	44	104	0	29	13778
2026-01-17 11:49:13.69	301.20	23.81	-34.3	-46.0	3.8	1.49e+00	0	44	104	0	29	13764
2026-01-17 11:49:14.68	301.43	23.73	-34.3	-45.8	3.8	1.49e+00	0	44	104	0	29	13594
2026-01-17 11:49:15.68	301.67	23.65	-34.2	-45.7	3.8	1.49e+00	0	44	104	0	29	13494
2026-01-17 11:49:16.68	301.91	23.57	-34.1	-45.5	3.8	1.49e+00	0	44	104	0	29	13270
2026-01-17 11:49:17.67	302.14	23.49	-34.0	-45.0	3.8	1.49e+00	0	44	104	0	29	12795
2026-01-17 11:49:18.67	302.38	23.41	-33.9	-44.6	3.8	1.49e+00	0	44	104	0	29	12363
2026-01-17 11:49:19.66	302.61	23.33	-33.9	-44.5	3.8	1.49e+00	0	44	104	0	29	12242
2026-01-17 11:49:20.66	302.84	23.25	-33.9	-44.4	3.8	1.49e+00	0	44	104	0	29	12131
2026-01-17 11:49:21.66	303.08	23.17	-33.9	-44.6	3.8	1.49e+00	0	44	104	0	29	12326
2026-01-17 11:49:22.65	303.30	23.09	-33.9	-44.8	3.8	1.49e+00	0	44	104	0	29	12602
2026-01-17 11:49:23.65	303.53	23.01	-33.9	-45.1	3.8	1.49e+00	0	44	104	0	29	12938
2026-01-17 11:49:24.64	303.76	22.93	-34.0	-45.2	3.8	1.49e+00	0	44	104	0	29	13089
2026-01-17 11:49:25.64	303.99	22.85	-33.9	-45.0	3.8	1.49e+00	0	44	104	0	29	12881
2026-01-17 11:49:26.63	304.21	22.77	-33.9	-44.7	3.8	1.49e+00	0	44	104	0	29	12538
2026-01-17 11:49:27.63	304.44	22.69	-33.8	-44.2	3.8	1.49e+00	0	44	104	0	29	11809
2026-01-17 11:49:28.63	304.66	22.60	-33.8	-43.7	3.8	1.49e+00	0	44	104	0	29	11272
2026-01-17 11:49:29.62	304.88	22.52	-33.7	-43.5	3.9	1.49e+00	0	44	104	0	28	11083
2026-01-17 11:49:30.61	305.10	22.44	-33.6	-42.1	4.1	1.47e+00	0	44	104	0	28	9616
2026-01-17 11:49:31.62	305.32	22.36	-33.5	-41.8	3.9	1.48e+00	0	44	104	0	28	9363
2026-01-17 11:49:32.61	305.54	22.28	-33.4	-40.5	4.5	1.07e+00	0	44	104	0	28	8213
2026-01-17 11:49:33.61	305.76	22.19	-33.4	-41.3	4.0	1.47e+00	0	44	104	0	27	8947
2026-01-17 11:49:34.60	305.97	22.11	-33.3	-40.4	4.8	8.32e-01	0	44	0	0	27	8114
2026-01-17 11:49:35.60	306.19	22.03	-33.3	-40.4	4.8	7.92e-01	0	44	0	3145728	27	8168
2026-01-17 11:49:36.59	306.40	21.95	-33.3	-41.2	4.0	1.47e+00	0	44	104	4194304	27	8884
2026-01-17 11:49:37.59	306.61	21.86	-33.2	-39.7	5.1	6.90e-01	0	44	104	4194304	27	7634
2026-01-17 11:49:38.59	306.82	21.78	-32.8	-37.7	6.3	4.39e-01	0	44	0	2097152	27	6317
2026-01-17 11:49:39.57	307.03	21.70	-32.0	-35.9	8.1	1.03e-01	0	44	0	5242880	25	5602
2026-01-17 11:49:40.56	307.24	21.62	-31.0	-33.6	10.4	8.24e-03	0	44	0	8388608	23	4865
2026-01-17 11:49:41.55	307.45	21.53	-29.7	-31.8	12.6	2.08e-04	0	44	0	11534336	20	4567
2026-01-17 11:49:42.55	307.65	21.45	-29.3	-30.8	13.2	1.75e-05	0	44	0	14680064	20	4264
2026-01-17 11:49:43.56	307.86	21.36	-29.3	-31.3	13.3	1.83e-05	0	44	0	17825792	19	4509
2026-01-17 11:49:44.55	308.07	21.28	-29.1	-30.8	13.5	6.80e-06	0	44	0	20971520	19	4367
2026-01-17 11:49:45.55	308.27	21.20	-29.2	-31.0	13.4	1.67e-05	0	44	0	24117248	19	4435
2026-01-17 11:49:46.54	308.47	21.11	-29.3	-31.3	13.2	2.82e-05	0	44	0	27262976	19	4518
2026-01-17 11:49:47.54	308.67	21.03	-29.3	-31.1	13.3	1.90e-05	0	44	0	30408704	19	4455
2026-01-17 11:49:48.54	308.88	20.95	-29.2	-31.0	13.4	1.98e-05	0	44	0	33554432	19	4423
2026-01-17 11:49:49.53	309.07	20.86	-29.7	-32.3	12.6	4.11e-05	0	44	0	36700160	19	4845
2026-01-17 11:49:50.52	309.27	20.78	-29.6	-31.5	12.8	1.30e-04	0	44	0	38797312	20	4467
2026-01-17 11:49:51.52	309.47	20.69	-29.3	-31.2	13.3	1.83e-05	0	44	0	41943040	19	4490
2026-01-17 11:49:52.52	309.67	20.61	-28.6	-30.1	14.2	1.50e-06	0	44	0	45088768	18	4271
2026-01-17 11:49:53.51	309.86	20.53	-28.1	-29.3	15.0	7.00e-07	0	44	0	48234496	17	4147
2026-01-17 11:49:54.51	310.06	20.44	-27.8	-28.7	15.3	0.00e+00	0	44	0	51380224	17	3993
2026-01-17 11:49:55.50	310.25	20.36	-27.8	-29.2	15.3	0.00e+00	0	44	0	54525952	16	4237
2026-01-17 11:49:56.50	310.44	20.27	-28.1	-29.9	14.9	0.00e+00	0	44	0	57671680	16	4414
2026-01-17 11:49:57.50	310.63	20.19	-28.1	-29.8	14.9	0.00e+00	0	44	0	60817408	16	4396
2026-01-17 11:49:58.51	310.83	20.10	-28.2	-30.0	14.8	0.00e+00	0	44	0	63963136	16	4473
2026-01-17 11:49:59.50	311.01	20.02	-28.1	-29.9	14.9	0.00e+00	0	44	0	67108864	16	4415
2026-01-17 11:50:00.50	311.20	19.93	-28.2	-30.0	14.8	0.00e+00	0	44	0	70254592	16	4460
2026-01-17 11:50:01.51	311.39	19.85	-28.4	-30.6	14.5	0.00e+00	0	44	0	73400320	16	4626
2026-01-17 11:50:02.51	311.58	19.76	-28.1	-29.8	14.9	0.00e+00	0	44	0	76546048	16	4412
2026-01-17 11:50:03.51	311.76	19.68	-27.8	-29.1	15.3	7.00e-07	0	44	0	79691776	16	4214
2026-01-17 11:50:04.51	311.95	19.59	-27.6	-28.7	15.6	0.00e+00	0	44	0	82837504	16	4081
2026-01-17 11:50:05.51	312.13	19.51	-27.6	-28.6	15.6	0.00e+00	0	44	0	85983232	16	4080
2026-01-17 11:50:06.51	312.32	19.42	-27.5	-28.5	15.7	0.00e+00	0	44	0	89128960	16	4035
2026-01-17 11:50:07.51	312.50	19.34	-27.6	-28.7	15.5	0.00e+00	0	44	0	92274688	16	4106
2026-01-17 11:50:08.52	312.68	19.25	-27.6	-28.7	15.5	0.00e+00	0	44	0	95420416	16	4101
2026-01-17 11:50:09.52	312.86	19.17	-27.4	-28.3	15.7	0.00e+00	0	44	0	98566144	16	4001
2026-01-17 11:50:10.51	313.04	19.09	-27.4	-28.4	15.7	0.00e+00	0	44	0	101711872	16	4018
2026-01-17 11:50:11.52	313.22	19.00	-27.5	-28.5	15.6	0.00e+00	0	44	0	104857600	16	4055
2026-01-17 11:50:12.52	313.39	18.91	-27.6	-28.8	15.5	0.00e+00	0	44	0	108003328	16	4116
2026-01-17 11:50:13.52	313.57	18.83	-27.7	-28.9	15.4	0.00e+00	0	44	0	111149056	16	4148
2026-01-17 11:50:14.52	313.75	18.75	-27.7	-29.1	15.3	0.00e+00	0	44	0	114294784	16	4196
2026-01-17 11:50:15.52	313.92	18.66	-27.7	-29.1	15.3	0.00e+00	0	44	0	117440512	16	4200
2026-01-17 11:50:16.53	314.09	18.58	-27.7	-28.9	15.4	0.00e+00	0	44	0	120586240	16	4148
2026-01-17 11:50:17.52	314.26	18.49	-27.6	-28.8	15.5	0.00e+00	0	44	0	123731968	16	4128
2026-01-17 11:50:18.53	314.44	18.41	-27.6	-28.8	15.4	0.00e+00	0	44	0	126877696	16	4130
2026-01-17 11:50:19.53	314.61	18.32	-27.5	-28.5	15.7	0.00e+00	0	44	0	130023424	16	4042
2026-01-17 11:50:20.54	314.78	18.24	-27.6	-28.7	15.5	0.00e+00	0	44	0	133169152	16	4100
2026-01-17 11:50:21.54	314.95	18.15	-27.6	-28.7	15.5	0.00e+00	0	44	0	136314880	16	4102
2026-01-17 11:50:22.55	315.12	18.07	-27.6	-28.8	15.5	0.00e+00	0	44	0	139460608	16	4118
2026-01-17 11:50:23.55	315.28	17.98	-27.7	-29.0	15.3	0.00e+00	0	44	0	142606336	16	4188
2026-01-17 11:50:24.55	315.45	17.90	-27.8	-29.2	15.2	0.00e+00	0	44	0	145752064	16	4243
2026-01-17 11:50:25.55	315.61	17.82	-27.7	-29.1	15.3	0.00e+00	0	44	0	148897792	16	4201
2026-01-17 11:50:26.56	315.78	17.73	-27.9	-29.4	15.1	0.00e+00	0	44	0	152043520	16	4291
2026-01-17 11:50:27.56	315.94	17.65	-27.8	-29.2	15.2	0.00e+00	0	44	0	155189248	16	4229
2026-01-17 11:50:28.56	316.11	17.56	-27.7	-29.0	15.3	0.00e+00	0	44	0	158334976	16	4188
2026-01-17 11:50:29.56	316.27	17.48	-27.9	-29.4	15.1	0.00e+00	0	44	0	161480704	16	4282
2026-01-17 11:50:30.56	316.43	17.40	-27.9	-29.4	15.1	0.00e+00	0	44	0	164626432	16	4293
2026-01-17 11:50:31.57	316.59	17.31	-27.9	-29.5	15.0	0.00e+00	0	44	0	167772160	16	4324
2026-01-17 11:50:32.57	316.75	17.23	-27.9	-29.5	15.0	0.00e+00	0	44	0	170917888	16	4321
2026-01-17 11:50:33.58	316.91	17.14	-27.9	-29.4	15.0	7.00e-07	0	44	0	174063616	16	4294
2026-01-17 11:50:34.57	317.06	17.06	-28.0	-29.7	14.9	0.00e+00	0	44	0	177209344	16	4366
2026-01-17 11:50:35.57	317.22	16.98	-28.2	-30.2	14.6	7.00e-07	0	44	0	180355072	16	4526
2026-01-17 11:50:36.58	317.38	16.89	-28.2	-30.2	14.6	0.00e+00	0	44	0	183500800	16	4535
2026-01-17 11:50:37.58	317.53	16.81	-28.3	-30.5	14.4	1.50e-06	0	44	0	186646528	16	4624
2026-01-17 11:50:38.58	317.68	16.73	-28.4	-30.6	14.4	1.50e-06	0	44	0	189792256	16	4650
2026-01-17 11:50:39.59	317.84	16.64	-28.3	-30.3	14.5	7.00e-07	0	44	0	192937984	16	4563
2026-01-17 11:50:40.59	317.99	16.56	-28.3	-30.5	14.4	7.00e-07	0	44	0	196083712	16	4618
2026-01-17 11:50:41.58	318.14	16.48	-28.3	-30.5	14.4	7.00e-07	0	44	0	199229440	16	4623
2026-01-17 11:50:42.58	318.29	16.40	-28.4	-30.7	14.3	7.00e-07	0	44	0	202375168	16	4688
2026-01-17 11:50:43.58	318.44	16.31	-28.7	-30.9	13.9	3.80e-06	0	44	0	205520896	17	4632
2026-01-17 11:50:44.58	318.59	16.23	-28.6	-30.7	14.0	6.10e-06	0	44	0	208666624	17	4555
2026-01-17 11:50:45.59	318.74	16.15	-28.3	-29.9	14.4	2.20e-06	0	44	0	211812352	17	4327
2026-01-17 11:50:46.59	318.89	16.07	-28.0	-29.1	14.8	0.00e+00	0	44	0	214958080	17	4122
2026-01-17 11:50:47.59	319.03	15.98	-27.7	-29.1	15.2	7.00e-07	0	44	0	218103808	16	4201
2026-01-17 11:50:48.60	319.18	15.90	-27.7	-28.9	15.3	7.00e-07	0	44	0	220200960	16	4162
2026-01-17 11:50:49.59	319.32	15.82	-27.7	-28.9	15.3	0.00e+00	0	44	0	223346688	16	4148
2026-01-17 11:50:50.59	319.47	15.74	-27.8	-29.1	15.1	0.00e+00	0	44	0	226492416	16	4212
2026-01-17 11:50:51.58	319.61	15.66	-27.9	-29.4	15.0	0.00e+00	0	44	0	229638144	16	4291
2026-01-17 11:50:52.59	319.75	15.57	-27.9	-29.6	14.9	0.00e+00	0	44	0	232783872	16	4343
2026-01-17 11:50:53.58	319.90	15.49	-27.9	-29.4	15.0	0.00e+00	0	44	0	235929600	16	4283
2026-01-17 11:50:54.59	320.04	15.41	-27.8	-29.3	15.0	0.00e+00	0	44	0	239075328	16	4268
2026-01-17 11:50:55.59	320.18	15.33	-27.8	-29.3	15.0	0.00e+00	0	44	0	242221056	16	4273
2026-01-17 11:50:56.60	320.32	15.25	-27.9	-29.4	15.0	0.00e+00	0	44	0	245366784	16	4302
2026-01-17 11:50:57.60	320.46	15.17	-28.0	-29.8	14.7	7.00e-07	0	44	0	248512512	16	4394
2026-01-17 11:50:58.60	320.60	15.09	-28.1	-30.0	14.6	7.00e-07	0	44	0	251658240	16	4473
2026-01-17 11:50:59.60	320.73	15.01	-28.2	-30.3	14.4	7.00e-07	0	44	0	254803968	16	4553
2026-01-17 11:51:00.60	320.87	14.93	-28.3	-30.3	14.4	0.00e+00	0	44	0	257949696	16	4570
2026-01-17 11:51:01.61	321.01	14.84	-28.3	-30.5	14.3	7.00e-07	0	44	0	261095424	16	4608
2026-01-17 11:51:02.61	321.14	14.76	-28.4	-30.3	14.2	3.00e-06	0	44	0	264241152	17	4442
2026-01-17 11:51:03.61	321.28	14.68	-28.3	-30.0	14.3	7.00e-07	0	44	0	267386880	17	4360
2026-01-17 11:51:04.62	321.41	14.60	-28.5	-30.4	14.1	1.50e-06	0	44	0	270532608	17	4468
2026-01-17 11:51:05.62	321.55	14.52	-28.4	-30.2	14.1	4.50e-06	0	44	0	273678336	17	4434
2026-01-17 11:51:06.62	321.68	14.44	-28.3	-29.9	14.3	1.50e-06	0	44	0	276824064	17	4340
2026-01-17 11:51:07.62	321.81	14.36	-28.4	-30.2	14.2	7.00e-07	0	44	0	279969792	17	4416
2026-01-17 11:51:08.62	321.94	14.28	-28.4	-30.1	14.2	2.20e-06	0	44	0	283115520	17	4397
2026-01-17 11:51:09.63	322.08	14.20	-28.3	-29.8	14.4	7.00e-07	0	44	0	286261248	17	4312
2026-01-17 11:51:10.62	322.20	14.12	-28.3	-29.9	14.4	7.00e-07	0	44	0	289406976	17	4326
2026-01-17 11:51:11.63	322.33	14.04	-28.3	-29.8	14.4	0.00e+00	0	44	0	292552704	17	4316
2026-01-17 11:51:12.62	322.46	13.97	-28.4	-30.2	14.2	1.50e-06	0	44	0	295698432	17	4415
2026-01-17 11:51:13.62	322.59	13.89	-28.3	-30.0	14.3	7.00e-07	0	44	0	298844160	17	4349
2026-01-17 11:51:14.62	322.72	13.81	-28.2	-29.6	14.5	7.00e-07	0	44	0	301989888	17	4249
2026-01-17 11:51:15.63	322.84	13.73	-28.1	-29.6	14.5	1.50e-06	0	44	0	305135616	17	4237
2026-01-17 11:51:16.63	322.97	13.65	-28.2	-29.6	14.4	0.00e+00	0	44	0	308281344	17	4265
2026-01-17 11:51:17.63	323.10	13.57	-28.2	-29.8	14.3	2.20e-06	0	44	0	311427072	17	4318
2026-01-17 11:51:18.64	323.22	13.49	-28.3	-29.9	14.3	0.00e+00	0	44	0	314572800	17	4341
2026-01-17 11:51:19.64	323.35	13.41	-28.3	-29.9	14.3	1.50e-06	0	44	0	317718528	17	4330
2026-01-17 11:51:20.63	323.47	13.34	-28.4	-30.1	14.1	2.20e-06	0	44	0	320864256	17	4404
2026-01-17 11:51:21.64	323.59	13.26	-28.4	-30.1	14.1	7.00e-07	0	44	0	324009984	17	4401
2026-01-17 11:51:22.63	323.71	13.18	-28.4	-30.1	14.1	7.00e-07	0	44	0	327155712	17	4411
2026-01-17 11:51:23.64	323.84	13.10	-28.3	-29.9	14.2	7.00e-07	0	44	0	330301440	17	4348
2026-01-17 11:51:24.64	323.96	13.02	-28.4	-30.1	14.1	3.80e-06	0	44	0	333447168	17	4400
2026-01-17 11:51:25.64	324.08	12.95	-28.3	-30.0	14.2	7.00e-07	0	44	0	336592896	17	4369
2026-01-17 11:51:26.64	324.20	12.87	-28.4	-30.2	14.0	7.00e-07	0	44	0	339738624	17	4420
2026-01-17 11:51:27.64	324.32	12.79	-28.5	-30.5	13.9	3.80e-06	0	44	0	342884352	17	4518
2026-01-17 11:51:28.65	324.44	12.71	-28.6	-30.6	13.8	4.50e-06	0	44	0	346030080	17	4559
2026-01-17 11:51:29.64	324.55	12.64	-28.7	-30.8	13.7	4.50e-06	0	44	0	349175808	17	4620
2026-01-17 11:51:30.64	324.67	12.56	-28.6	-30.8	13.7	9.10e-06	0	44	0	352321536	17	4594
2026-01-17 11:51:31.63	324.79	12.49	-28.6	-30.8	13.7	9.10e-06	0	44	0	355467264	17	4606
2026-01-17 11:51:32.64	324.90	12.41	-28.7	-31.0	13.6	7.60e-06	0	44	0	358612992	17	4685
2026-01-17 11:51:33.63	325.02	12.33	-28.8	-31.3	13.4	1.52e-05	0	44	0	361758720	17	4783
2026-01-17 11:51:34.63	325.13	12.26	-28.8	-31.3	13.4	1.52e-05	0	44	0	364904448	17	4765
2026-01-17 11:51:35.64	325.25	12.18	-28.7	-30.9	13.6	1.14e-05	0	44	0	368050176	17	4657
2026-01-17 11:51:36.63	325.36	12.11	-28.7	-30.9	13.6	1.14e-05	0	44	0	371195904	17	4641
2026-01-17 11:51:37.64	325.47	12.03	-28.6	-30.7	13.7	5.30e-06	0	44	0	374341632	17	4590
2026-01-17 11:51:38.64	325.59	11.95	-28.7	-30.9	13.6	9.90e-06	0	44	0	377487360	17	4636
2026-01-17 11:51:39.64	325.70	11.88	-28.5	-30.6	13.8	2.20e-06	0	44	0	380633088	17	4543
2026-01-17 11:51:40.65	325.81	11.80	-28.6	-30.8	13.7	2.20e-06	0	44	0	383778816	17	4618
2026-01-17 11:51:41.65	325.92	11.73	-28.5	-30.5	13.8	5.30e-06	0	44	0	386924544	17	4506
2026-01-17 11:51:42.65	326.03	11.65	-28.5	-30.5	13.8	3.80e-06	0	44	0	390070272	17	4519
2026-01-17 11:51:43.65	326.14	11.58	-28.5	-30.5	13.8	3.00e-06	0	44	0	393216000	17	4511
2026-01-17 11:51:44.65	326.25	11.50	-28.7	-30.9	13.6	6.10e-06	0	44	0	396361728	17	4631
2026-01-17 11:51:45.65	326.36	11.43	-28.7	-30.8	13.6	9.10e-06	0	44	0	399507456	17	4624
2026-01-17 11:51:46.65	326.47	11.35	-28.8	-31.2	13.4	1.14e-05	0	44	0	401604608	17	4749
2026-01-17 11:51:47.65	326.58	11.28	-28.9	-31.4	13.2	2.44e-05	0	44	0	404750336	17	4817
2026-01-17 11:51:48.66	326.69	11.20	-28.9	-31.5	13.2	2.05e-05	0	44	0	407896064	17	4833
2026-01-17 11:51:49.66	326.79	11.13	-28.9	-31.4	13.2	2.05e-05	0	44	0	411041792	17	4806
2026-01-17 11:51:50.66	326.90	11.05	-28.8	-31.3	13.3	1.60e-05	0	44	0	414187520	17	4767
2026-01-17 11:51:51.66	327.01	10.98	-28.9	-31.4	13.2	1.29e-05	0	44	0	417333248	17	4812
2026-01-17 11:51:52.66	327.11	10.91	-28.9	-31.5	13.2	2.13e-05	0	44	0	420478976	17	4834
2026-01-17 11:51:53.66	327.22	10.83	-29.0	-31.2	13.0	3.43e-05	0	44	0	423624704	18	4644
2026-01-17 11:51:54.66	327.32	10.76	-29.2	-31.6	12.8	6.17e-05	0	44	0	426770432	18	4761
2026-01-17 11:51:55.66	327.43	10.69	-29.4	-32.3	12.4	1.57e-04	0	44	0	429916160	18	4991
2026-01-17 11:51:56.67	327.53	10.61	-29.2	-31.6	12.8	5.64e-05	0	44	0	433061888	18	4754
2026-01-17 11:51:57.67	327.63	10.54	-29.6	-32.3	12.1	1.93e-04	0	44	0	436207616	19	4892
2026-01-17 11:51:58.67	327.73	10.47	-29.6	-32.1	12.1	3.17e-04	0	44	0	439353344	19	4834
2026-01-17 11:51:59.66	327.84	10.40	-29.3	-31.5	12.5	1.38e-04	0	44	0	442499072	19	4629
2026-01-17 11:52:00.67	327.94	10.32	-29.4	-31.7	12.4	9.76e-05	0	44	0	445644800	19	4676
2026-01-17 11:52:01.66	328.04	10.25	-29.3	-31.5	12.5	1.18e-04	0	44	0	448790528	19	4625
2026-01-17 11:52:02.67	328.14	10.18	-29.4	-31.6	12.4	1.37e-04	0	44	0	451936256	19	4669
2026-01-17 11:52:03.66	328.24	10.11	-29.4	-31.7	12.4	1.82e-04	0	44	0	455081984	19	4679
2026-01-17 11:52:04.67	328.34	10.03	-29.4	-31.6	12.4	1.62e-04	0	44	0	458227712	19	4646
2026-01-17 11:52:05.67	328.44	9.96	-29.5	-32.0	12.2	1.26e-04	0	44	0	461373440	19	4783
2026-01-17 11:52:06.67	328.54	9.89	-29.5	-32.0	12.2	1.80e-04	0	44	0	464519168	19	4783
2026-01-17 11:52:07.67	328.63	9.82	-29.6	-32.3	12.0	2.92e-04	0	44	0	467664896	19	4907
2026-01-17 11:52:08.68	328.73	9.75	-29.6	-32.1	12.1	3.96e-04	0	44	0	470810624	19	4834
2026-01-17 11:52:09.68	328.83	9.67	-29.3	-31.4	12.5	1.24e-04	0	44	0	473956352	19	4581
2026-01-17 11:52:10.68	328.93	9.60	-29.3	-31.4	12.5	1.09e-04	0	44	0	477102080	19	4610
2026-01-17 11:52:11.69	329.02	9.53	-29.0	-30.7	13.0	5.18e-05	0	44	0	480247808	19	4366
2026-01-17 11:52:12.70	329.12	9.46	-28.9	-30.4	13.2	2.74e-05	0	44	0	483393536	19	4287
2026-01-17 11:52:13.70	329.22	9.39	-28.9	-30.5	13.1	3.05e-05	0	44	0	486539264	19	4308
2026-01-17 11:52:14.70	329.31	9.32	-29.0	-30.6	13.0	3.20e-05	0	44	0	489684992	19	4348
2026-01-17 11:52:15.70	329.41	9.25	-29.1	-31.0	12.8	5.72e-05	0	44	0	492830720	19	4458
2026-01-17 11:52:16.70	329.50	9.18	-29.2	-31.2	12.6	7.40e-05	0	44	0	495976448	19	4541
2026-01-17 11:52:17.71	329.59	9.11	-29.1	-30.9	12.8	6.79e-05	0	44	0	499122176	19	4443
2026-01-17 11:52:18.71	329.69	9.04	-29.2	-31.2	12.7	6.63e-05	0	44	0	502267904	19	4523
2026-01-17 11:52:19.71	329.78	8.97	-29.4	-31.7	12.3	1.78e-04	0	44	0	505413632	19	4682
2026-01-17 11:52:20.72	329.87	8.90	-29.3	-31.5	12.4	1.18e-04	0	44	0	508559360	19	4640
2026-01-17 11:52:21.72	329.97	8.83	-29.5	-32.0	12.1	1.69e-04	0	44	0	511705088	19	4803
2026-01-17 11:52:22.72	330.06	8.76	-29.4	-31.8	12.3	2.04e-04	0	44	0	514850816	19	4718
2026-01-17 11:52:23.73	330.15	8.69	-29.5	-32.0	12.1	1.32e-04	0	44	0	517996544	19	4787
2026-01-17 11:52:24.73	330.24	8.62	-29.5	-32.0	12.1	3.00e-04	0	44	0	521142272	19	4810
2026-01-17 11:52:25.74	330.33	8.55	-29.5	-32.1	12.0	3.63e-04	0	44	0	524288000	19	4837
2026-01-17 11:52:26.74	330.42	8.48	-29.7	-32.4	11.8	4.26e-04	0	44	0	527433728	19	4957
2026-01-17 11:52:27.74	330.51	8.41	-29.4	-31.9	12.1	2.82e-04	0	44	0	530579456	19	4756
2026-01-17 11:52:28.74	330.60	8.34	-29.3	-31.4	12.4	1.55e-04	0	44	0	533725184	19	4602
2026-01-17 11:52:29.74	330.69	8.27	-29.4	-31.7	12.2	1.25e-04	0	44	0	536870912	19	4716
2026-01-17 11:52:30.75	330.78	8.20	-29.5	-32.0	12.0	3.49e-04	0	44	0	540016640	19	4797
2026-01-17 11:52:31.75	330.87	8.13	-29.5	-32.0	12.1	2.71e-04	0	44	0	543162368	19	4794
2026-01-17 11:52:32.75	330.95	8.07	-29.4	-31.9	12.1	2.72e-04	0	44	0	546308096	19	4763
2026-01-17 11:52:33.75	331.04	8.00	-29.5	-32.1	11.9	3.21e-04	0	44	0	549453824	19	4857
2026-01-17 11:52:34.75	331.13	7.93	-29.4	-31.8	12.1	3.64e-04	0	44	0	552599552	19	4734
2026-01-17 11:52:35.76	331.21	7.86	-29.2	-31.2	12.5	1.26e-04	0	44	0	555745280	19	4556
2026-01-17 11:52:36.76	331.30	7.79	-29.3	-31.5	12.3	1.40e-04	0	44	0	558891008	19	4637
2026-01-17 11:52:37.77	331.39	7.73	-29.3	-31.6	12.2	2.21e-04	0	44	0	562036736	19	4664
2026-01-17 11:52:38.77	331.47	7.66	-29.4	-31.7	12.1	2.00e-04	0	44	0	565182464	19	4723
2026-01-17 11:52:39.78	331.56	7.59	-29.3	-31.7	12.2	2.54e-04	0	44	0	568328192	19	4701
2026-01-17 11:52:40.78	331.64	7.52	-29.3	-31.6	12.2	2.13e-04	0	44	0	571473920	19	4693
2026-01-17 11:52:41.78	331.73	7.46	-29.5	-31.9	12.0	2.70e-04	0	44	0	574619648	19	4791
2026-01-17 11:52:42.78	331.81	7.39	-29.5	-32.1	11.8	4.81e-04	0	44	0	577765376	19	4865
2026-01-17 11:52:43.79	331.90	7.32	-29.5	-32.1	11.9	3.89e-04	0	44	0	580911104	19	4837
2026-01-17 11:52:44.79	331.98	7.25	-29.4	-31.9	12.0	2.65e-04	0	44	0	584056832	19	4770
2026-01-17 11:52:45.79	332.06	7.19	-29.5	-32.2	11.8	4.00e-04	0	44	0	587202560	19	4869
2026-01-17 11:52:46.80	332.14	7.12	-29.7	-32.6	11.5	6.21e-04	0	44	0	590348288	19	5032
2026-01-17 11:52:47.80	332.23	7.05	-33.4	-45.3	3.8	9.67e-01	0	44	104	592445440	26	14223
2026-01-17 11:52:48.80	332.31	6.99	-33.8	-45.9	3.8	1.49e+00	0	44	104	592445440	27	14506

#Closed at: 2026-01-17 11:52:49
#Recorded file [592 MB]: D:/data/31010_260117_144937.dat