passes_logs/2026/01/17/R2M6_AANII_01/R2M6_AANII_01__20260117_000751_NOAA_21_JPSS-2_rec.log

#Pass ID: 20260117_000751_NOAA 21 (JPSS-2)
#Satellite: NOAA 21 (JPSS-2)
#Configuration: NOAA 21
#almurnet v.1.7.20240730
#Start time: 2026-01-17 00:07:52

#Version: 2.2.20231116
#Station: R2M6_AANII_01
#Location: 30.233357 lon 59.946436 lat
#TLE: 1 54234U 22150A   26016.21096038  .00000027  00000+0  33607-4 0  9993
#TLE: 2 54234  98.7500 317.0960 0000625 282.3388  77.7718 14.19534911164985

#Time	Az	El	Level	Level2	SNR	BER	BlckErr	Temp	State	Recorded	gain1	gain2
2026-01-17 00:07:52.29	19.24	7.08	-31.0	-37.1	4.3	1.44e+00	0	41	0	0	22	7284
2026-01-17 00:07:55.29	19.29	7.32	-31.0	-36.4	6.6	1.58e-01	0	41	0	3145728	22	6714
2026-01-17 00:07:58.30	19.33	7.55	-30.7	-35.8	7.4	1.46e-01	0	41	0	12582912	21	6418
2026-01-17 00:08:01.31	19.38	7.79	-31.1	-36.5	6.5	2.49e-01	0	41	0	20971520	22	6752
2026-01-17 00:08:04.31	19.43	8.02	-29.8	-33.1	9.5	2.12e-02	0	42	0	30408704	20	5289
2026-01-17 00:08:07.32	19.48	8.26	-29.1	-32.2	11.1	1.37e-03	0	42	0	39845888	18	5113
2026-01-17 00:08:10.33	19.53	8.51	-29.1	-32.1	11.1	2.34e-03	0	42	0	49283072	18	5075
2026-01-17 00:08:13.35	19.58	8.75	-28.7	-31.6	11.8	3.84e-04	0	42	0	58720256	17	4987
2026-01-17 00:08:16.36	19.63	9.00	-28.9	-32.1	11.5	8.71e-04	0	42	0	68157440	17	5179
2026-01-17 00:08:19.36	19.68	9.25	-28.1	-30.4	12.9	4.50e-05	0	42	0	77594624	16	4706
2026-01-17 00:08:22.38	19.73	9.50	-27.6	-29.8	13.4	1.75e-05	0	42	0	87031808	15	4631
2026-01-17 00:08:25.38	19.78	9.76	-26.6	-29.1	13.0	5.56e-05	0	42	0	96468992	15	4792
2026-01-17 00:08:28.39	19.84	10.01	-27.8	-30.2	13.0	1.22e-05	0	42	0	105906176	15	4760
2026-01-17 00:08:31.39	19.89	10.27	-27.9	-30.4	13.1	3.50e-05	0	42	0	115343360	15	4816
2026-01-17 00:08:34.38	19.95	10.53	-27.6	-29.6	13.6	1.44e-05	0	42	0	124780544	15	4575
2026-01-17 00:08:37.39	20.00	10.80	-27.4	-29.7	13.8	7.43e-04	0	42	0	134217728	14	4716
2026-01-17 00:08:40.39	20.06	11.07	-27.1	-29.1	14.2	3.80e-06	0	42	0	143654912	14	4524
2026-01-17 00:08:43.39	20.11	11.34	-27.1	-29.1	14.2	0.00e+00	0	42	0	153092096	14	4532
2026-01-17 00:08:46.39	20.17	11.61	-27.1	-28.9	14.4	8.36e-04	0	42	0	162529280	14	4472
2026-01-17 00:08:49.39	20.23	11.89	-27.1	-29.0	14.4	1.50e-06	0	42	0	171966464	14	4476
2026-01-17 00:08:52.40	20.29	12.17	-27.0	-28.8	14.5	1.06e-03	0	42	0	181403648	14	4434
2026-01-17 00:08:55.41	20.35	12.46	-27.0	-28.7	14.6	1.22e-03	0	42	0	190840832	14	4388
2026-01-17 00:08:58.41	20.41	12.74	-26.9	-29.1	14.6	1.26e-03	0	43	0	200278016	13	4618
2026-01-17 00:09:01.42	20.47	13.03	-26.9	-29.0	14.7	1.32e-03	0	43	0	209715200	13	4595
2026-01-17 00:09:04.43	20.54	13.33	-26.8	-28.8	14.8	1.39e-03	0	42	0	219152384	13	4531
2026-01-17 00:09:07.44	20.60	13.63	-26.9	-29.1	14.6	1.39e-03	0	43	0	228589568	13	4633
2026-01-17 00:09:10.45	20.67	13.93	-27.0	-28.8	14.6	0.00e+00	0	43	0	238026752	14	4417
2026-01-17 00:09:13.45	20.73	14.23	-27.0	-29.2	14.7	1.89e-03	0	42	0	246415360	13	4641
2026-01-17 00:09:16.46	20.80	14.54	-26.9	-29.1	14.8	0.00e+00	0	43	0	255852544	13	4608
2026-01-17 00:09:19.47	20.87	14.86	-26.6	-28.4	15.1	0.00e+00	0	43	0	265289728	13	4412
2026-01-17 00:09:22.48	20.94	15.17	-26.7	-28.6	13.2	1.67e-03	0	43	0	274726912	13	4469
2026-01-17 00:09:25.48	21.01	15.50	-26.7	-28.5	15.0	0.00e+00	0	43	0	284164096	13	4452
2026-01-17 00:09:28.49	21.09	15.82	-26.6	-28.3	15.2	3.77e-03	0	43	0	293601280	13	4370
2026-01-17 00:09:31.50	21.16	16.15	-26.5	-28.5	15.4	0.00e+00	0	43	0	303038464	12	4556
2026-01-17 00:09:34.50	21.23	16.49	-26.5	-28.0	15.4	0.00e+00	0	43	0	312475648	13	4307
2026-01-17 00:09:37.52	21.31	16.83	-26.4	-28.4	15.5	3.84e-03	0	43	0	321912832	12	4530
2026-01-17 00:09:40.53	21.39	17.17	-26.5	-28.1	15.4	7.00e-07	0	43	0	331350016	13	4309
2026-01-17 00:09:43.51	21.47	17.52	-26.5	-28.2	15.4	3.36e-03	0	43	0	340787200	13	4338
2026-01-17 00:09:46.52	21.55	17.87	-26.8	-28.8	15.0	3.81e-03	0	43	0	350224384	13	4515
2026-01-17 00:09:49.52	21.63	18.23	-26.8	-28.8	15.0	3.72e-03	0	43	0	359661568	13	4529
2026-01-17 00:09:52.52	21.72	18.59	-26.8	-28.8	15.0	3.29e-03	0	43	0	369098752	13	4533
2026-01-17 00:09:55.52	21.80	18.96	-26.7	-28.6	15.2	3.79e-03	0	43	0	378535936	13	4454
2026-01-17 00:09:58.54	21.89	19.34	-26.7	-28.5	15.2	3.62e-03	0	43	0	387973120	13	4435
2026-01-17 00:10:01.56	21.98	19.72	-26.7	-28.4	15.3	0.00e+00	0	43	0	397410304	13	4409
2026-01-17 00:10:04.55	22.07	20.11	-26.6	-28.2	15.4	3.33e-03	0	43	0	406847488	13	4353
2026-01-17 00:10:07.55	22.17	20.50	-26.5	-28.0	15.6	3.11e-03	0	43	0	416284672	13	4274
2026-01-17 00:10:10.55	22.26	20.90	-26.3	-28.1	15.8	0.00e+00	0	43	0	425721856	12	4421
2026-01-17 00:10:13.57	22.36	21.30	-26.1	-27.7	16.0	3.54e-03	0	43	0	435159040	12	4319
2026-01-17 00:10:16.58	22.46	21.72	-26.0	-27.5	16.1	0.00e+00	0	43	0	444596224	12	4264
2026-01-17 00:10:19.59	22.57	22.14	-25.8	-27.1	16.4	3.34e-03	0	43	0	454033408	12	4149
2026-01-17 00:10:22.60	22.67	22.56	-26.0	-27.4	16.2	0.00e+00	0	43	0	463470592	12	4234
2026-01-17 00:10:25.61	22.78	23.00	-26.5	-28.5	15.7	0.00e+00	0	43	0	472907776	12	4533
2026-01-17 00:10:28.63	22.89	23.44	-27.1	-28.8	14.9	0.00e+00	0	43	0	481296384	14	4405
2026-01-17 00:10:31.64	23.01	23.89	-26.8	-28.6	15.3	0.00e+00	0	43	0	491782144	13	4466
2026-01-17 00:10:34.64	23.12	24.34	-27.1	-28.8	15.0	0.00e+00	0	43	0	500170752	14	4404
2026-01-17 00:10:37.64	23.24	24.81	-26.4	-27.7	15.8	0.00e+00	0	43	0	509607936	13	4208
2026-01-17 00:10:40.65	23.36	25.28	-26.0	-27.5	16.2	0.00e+00	0	44	0	519045120	12	4258
2026-01-17 00:10:43.66	23.49	25.76	-26.0	-27.4	16.3	0.00e+00	0	43	0	528482304	12	4229
2026-01-17 00:10:46.67	23.62	26.25	-26.2	-27.9	16.0	0.00e+00	0	43	0	537919488	12	4373
2026-01-17 00:10:49.67	23.75	26.75	-26.3	-27.6	15.9	0.00e+00	0	43	0	547356672	13	4183
2026-01-17 00:10:52.68	23.89	27.25	-26.7	-28.4	15.5	0.00e+00	0	43	0	556793856	13	4392
2026-01-17 00:10:55.68	24.03	27.77	-26.9	-28.9	15.2	0.00e+00	0	43	0	566231040	13	4543
2026-01-17 00:10:58.69	24.18	28.30	-27.2	-29.2	14.8	7.00e-07	0	43	0	575668224	14	4506
2026-01-17 00:11:01.70	24.33	28.83	-26.7	-28.5	15.5	0.00e+00	0	43	0	585105408	13	4418
2026-01-17 00:11:04.70	24.48	29.38	-26.7	-28.5	15.5	0.00e+00	0	43	0	594542592	13	4412
2026-01-17 00:11:07.71	24.65	29.94	-26.4	-27.8	15.9	0.00e+00	0	43	0	603979776	13	4212
2026-01-17 00:11:10.72	24.81	30.51	-26.6	-28.2	15.7	0.00e+00	0	43	0	613416960	13	4341
2026-01-17 00:11:13.73	24.98	31.09	-26.4	-28.4	15.9	0.00e+00	0	43	0	622854144	12	4489
2026-01-17 00:11:16.75	25.16	31.68	-25.8	-27.5	15.2	0.00e+00	0	43	0	632291328	13	4369
2026-01-17 00:11:19.76	25.34	32.29	-26.7	-28.4	15.4	0.00e+00	0	43	0	641728512	13	4385
2026-01-17 00:11:22.76	25.53	32.90	-26.9	-28.8	15.4	0.00e+00	0	43	0	651165696	13	4507
2026-01-17 00:11:25.78	25.73	33.53	-26.9	-29.0	15.3	0.00e+00	0	43	0	660602880	13	4555
2026-01-17 00:11:28.78	25.93	34.17	-27.1	-28.8	15.2	0.00e+00	0	43	0	670040064	14	4386
2026-01-17 00:11:31.80	26.14	34.83	-27.7	-29.7	14.3	2.73e-04	0	43	0	679477248	15	4551
2026-01-17 00:11:34.79	26.36	35.49	-28.0	-29.9	14.2	0.00e+00	0	43	0	688914432	16	4484
2026-01-17 00:11:37.79	26.59	36.17	-28.5	-30.6	13.5	6.17e-05	0	43	0	698351616	17	4584
2026-01-17 00:11:40.79	26.83	36.87	-29.2	-31.8	12.4	1.38e-04	0	43	0	707788800	18	4856
2026-01-17 00:11:43.80	27.08	37.58	-29.2	-31.9	12.4	1.84e-04	0	43	0	717225984	18	4892
2026-01-17 00:11:46.81	27.34	38.30	-28.9	-31.0	12.9	5.95e-05	0	43	0	726663168	18	4608
2026-01-17 00:11:49.82	27.61	39.05	-28.7	-30.6	13.2	2.34e-04	0	43	0	735051776	18	4462
2026-01-17 00:11:52.83	27.89	39.80	-28.7	-30.6	13.3	2.43e-04	0	44	0	744488960	18	4450
2026-01-17 00:11:55.83	28.18	40.57	-28.6	-30.4	13.4	3.54e-04	0	43	0	753926144	18	4394
2026-01-17 00:11:58.83	28.49	41.36	-28.5	-30.6	13.6	4.82e-04	0	43	0	763363328	17	4556
2026-01-17 00:12:01.84	28.81	42.17	-28.7	-31.0	13.3	1.52e-05	0	43	0	772800512	17	4686
2026-01-17 00:12:04.85	29.15	42.99	-28.7	-31.0	13.3	1.22e-05	0	43	0	782237696	17	4686
2026-01-17 00:12:07.86	29.51	43.83	-28.7	-31.1	13.3	1.02e-03	0	43	0	791674880	17	4719
2026-01-17 00:12:10.87	29.89	44.69	-28.9	-31.5	13.1	3.35e-05	0	43	0	801112064	17	4846
2026-01-17 00:12:13.88	30.29	45.56	-28.7	-31.0	13.4	1.06e-03	0	43	0	810549248	17	4700
2026-01-17 00:12:16.87	30.70	46.45	-28.7	-31.0	13.4	7.60e-06	0	43	0	819986432	17	4697
2026-01-17 00:12:19.88	31.15	47.36	-28.6	-30.6	13.6	9.10e-06	0	43	0	829423616	17	4561
2026-01-17 00:12:22.88	31.61	48.29	-28.3	-30.5	14.0	2.20e-06	0	43	0	838860800	16	4652
2026-01-17 00:12:25.89	32.11	49.24	-28.2	-30.3	14.1	5.30e-06	0	43	0	848297984	16	4590
2026-01-17 00:12:28.90	32.64	50.21	-27.9	-30.2	14.3	7.00e-07	0	43	0	857735168	15	4685
2026-01-17 00:12:31.90	33.20	51.19	-28.8	-31.2	13.2	1.14e-05	0	43	0	867172352	17	4759
2026-01-17 00:12:34.91	33.80	52.19	-28.8	-31.4	13.2	2.28e-05	0	43	0	876609536	17	4826
2026-01-17 00:12:37.90	34.44	53.20	-28.2	-30.2	14.2	1.50e-06	0	43	0	886046720	16	4559
2026-01-17 00:12:40.89	35.13	54.24	-27.2	-28.6	15.2	0.00e+00	0	43	0	895483904	15	4203
2026-01-17 00:12:43.89	35.87	55.29	-27.6	-29.4	14.7	0.00e+00	0	43	0	904921088	15	4437
2026-01-17 00:12:46.90	36.66	56.36	-27.3	-29.3	15.1	0.00e+00	0	43	0	914358272	14	4529
2026-01-17 00:12:49.90	37.52	57.44	-26.8	-28.5	15.8	7.00e-07	0	43	0	923795456	13	4405
2026-01-17 00:12:52.89	38.45	58.54	-26.2	-27.8	16.5	7.00e-07	0	43	0	933232640	12	4321
2026-01-17 00:12:55.90	39.46	59.65	-26.5	-27.8	16.3	0.00e+00	0	43	0	941621248	13	4211
2026-01-17 00:12:58.90	40.56	60.77	-26.1	-27.5	16.7	1.50e-06	0	43	0	951058432	12	4237
2026-01-17 00:13:01.91	41.76	61.91	-25.5	-26.6	17.5	0.00e+00	0	43	0	960495616	11	4118
2026-01-17 00:13:04.93	43.08	63.06	-24.9	-25.9	18.2	0.00e+00	0	43	0	969932800	10	4041
2026-01-17 00:13:07.93	44.53	64.20	-25.1	-26.3	18.0	5.30e-06	0	43	0	979369984	10	4134
2026-01-17 00:13:10.95	46.14	65.35	-25.4	-26.9	17.7	0.00e+00	0	43	0	988807168	10	4309
2026-01-17 00:13:13.95	47.91	66.50	-25.3	-26.7	17.8	1.16e-04	0	43	0	998244352	10	4237
2026-01-17 00:13:16.95	49.88	67.64	-25.3	-26.2	17.8	0.00e+00	0	43	0	1007681536	11	3997
2026-01-17 00:13:19.96	52.09	68.77	-25.4	-26.9	17.7	0.00e+00	0	44	0	1017118720	10	4285
2026-01-17 00:13:22.96	54.55	69.88	-25.9	-27.6	17.2	0.00e+00	0	43	0	1026555904	11	4359
2026-01-17 00:13:25.97	57.33	70.96	-25.0	-26.0	18.1	0.00e+00	0	43	0	1035993088	10	4052
2026-01-17 00:13:28.98	60.46	72.01	-25.0	-26.0	17.5	2.75e-04	0	44	0	1045430272	10	4058
2026-01-17 00:13:31.99	63.99	73.02	-25.6	-26.9	17.5	0.00e+00	0	43	0	1054867456	11	4181
2026-01-17 00:13:35.01	67.98	73.96	-25.6	-26.8	17.6	0.00e+00	0	44	0	1064304640	11	4162
2026-01-17 00:13:38.01	72.44	74.83	-25.3	-26.8	17.8	0.00e+00	0	44	0	1073741824	10	4256
2026-01-17 00:13:40.99	77.40	75.59	-24.9	-25.8	18.3	3.23e-04	0	44	0	1083179008	10	4018
2026-01-17 00:13:44.00	82.94	76.25	-25.8	-27.3	17.3	0.00e+00	0	44	0	1092616192	11	4282
2026-01-17 00:13:47.00	88.98	76.78	-26.1	-27.6	16.8	0.00e+00	0	44	0	1102053376	12	4261
2026-01-17 00:13:50.00	95.46	77.15	-25.8	-26.9	17.2	2.21e-05	0	44	0	1111490560	12	4070
2026-01-17 00:13:53.01	102.27	77.36	-25.5	-26.7	17.7	0.00e+00	0	44	0	1120927744	11	4117
2026-01-17 00:13:56.01	109.18	77.39	-26.2	-27.7	16.8	0.00e+00	0	43	0	1130364928	12	4273
2026-01-17 00:13:59.01	116.03	77.24	-25.3	-26.2	17.9	0.00e+00	0	44	0	1139802112	11	3993
2026-01-17 00:14:02.03	122.68	76.92	-25.5	-26.7	17.6	0.00e+00	0	44	0	1148190720	11	4113
2026-01-17 00:14:05.03	128.88	76.44	-26.7	-28.3	16.2	0.00e+00	0	44	0	1157627904	13	4338
2026-01-17 00:14:08.02	134.56	75.83	-27.0	-28.5	15.9	0.00e+00	0	43	0	1167065088	14	4271
2026-01-17 00:14:11.03	139.75	75.09	-25.6	-26.5	17.5	0.00e+00	0	43	0	1176502272	12	3956
2026-01-17 00:14:14.03	144.39	74.25	-26.3	-27.9	16.7	0.00e+00	0	44	0	1185939456	12	4351
2026-01-17 00:14:17.03	148.52	73.34	-25.5	-26.7	17.7	0.00e+00	0	44	0	1195376640	11	4118
2026-01-17 00:14:20.04	152.19	72.35	-25.5	-26.7	17.7	0.00e+00	0	44	0	1204813824	11	4128
2026-01-17 00:14:23.05	155.45	71.31	-25.2	-26.5	17.9	0.00e+00	0	44	0	1214251008	10	4192
2026-01-17 00:14:26.04	158.33	70.24	-25.3	-26.2	17.8	0.00e+00	0	44	0	1223688192	11	4008
2026-01-17 00:14:29.05	160.90	69.13	-25.1	-26.2	18.0	0.00e+00	0	43	0	1233125376	10	4121
2026-01-17 00:14:32.07	163.20	68.00	-25.3	-26.7	17.8	0.00e+00	0	44	0	1242562560	10	4223
2026-01-17 00:14:35.09	165.26	66.86	-25.3	-26.1	17.8	0.00e+00	0	44	0	1251999744	11	3990
2026-01-17 00:14:38.08	167.08	65.71	-25.9	-27.5	17.1	0.00e+00	0	44	0	1261436928	11	4340
2026-01-17 00:14:41.09	168.74	64.56	-25.4	-26.1	17.6	0.00e+00	0	44	0	1270874112	12	3873
2026-01-17 00:14:44.10	170.25	63.41	-25.3	-26.2	17.8	0.00e+00	0	44	0	1280311296	11	4000
2026-01-17 00:14:47.11	171.61	62.26	-25.9	-27.0	17.1	0.00e+00	0	44	0	1289748480	12	4108
2026-01-17 00:14:50.12	172.85	61.12	-25.5	-26.2	17.5	0.00e+00	0	44	0	1299185664	12	3897
2026-01-17 00:14:53.14	173.99	59.98	-26.5	-28.3	16.4	0.00e+00	0	44	0	1308622848	12	4459
2026-01-17 00:14:56.14	175.02	58.86	-25.8	-26.4	17.0	0.00e+00	0	44	0	1318060032	13	3842
2026-01-17 00:14:59.15	175.98	57.75	-25.8	-27.3	17.2	0.00e+00	0	44	0	1327497216	11	4274
2026-01-17 00:15:02.15	176.86	56.66	-27.8	-29.9	14.6	0.00e+00	0	43	0	1336934400	15	4569
2026-01-17 00:15:05.16	177.68	55.58	-27.7	-29.0	14.8	7.00e-07	0	44	0	1346371584	16	4192
2026-01-17 00:15:08.16	178.43	54.52	-26.7	-27.9	15.9	0.00e+00	0	43	0	1355808768	14	4128
2026-01-17 00:15:11.17	179.14	53.47	-27.9	-30.2	14.2	1.50e-06	0	44	0	1365245952	15	4662
2026-01-17 00:15:14.18	179.79	52.44	-28.6	-30.6	13.8	2.20e-06	0	44	0	1373634560	17	4548
2026-01-17 00:15:17.18	180.40	51.43	-28.7	-31.1	13.5	1.44e-05	0	44	0	1383071744	17	4700
2026-01-17 00:15:20.18	180.98	50.44	-27.1	-28.2	15.5	0.00e+00	0	44	0	1392508928	15	4082
2026-01-17 00:15:23.17	181.51	49.47	-28.2	-30.2	14.2	7.00e-07	0	44	0	1401946112	16	4550
2026-01-17 00:15:26.18	182.02	48.52	-28.3	-30.4	14.1	2.20e-06	0	44	0	1411383296	16	4604
2026-01-17 00:15:29.17	182.50	47.58	-28.6	-30.7	13.7	7.60e-06	0	44	0	1420820480	17	4585
2026-01-17 00:15:32.17	182.95	46.67	-28.2	-29.8	14.2	2.20e-06	0	44	0	1430257664	17	4316
2026-01-17 00:15:35.17	183.37	45.77	-28.9	-31.5	13.2	1.06e-05	0	44	0	1439694848	17	4840
2026-01-17 00:15:38.17	183.77	44.88	-30.1	-33.1	10.8	1.62e-03	0	44	0	1449132032	20	5111
2026-01-17 00:15:41.17	184.15	44.02	-29.9	-32.9	11.6	7.64e-04	0	44	0	1458569216	19	5112
2026-01-17 00:15:44.19	184.52	43.17	-29.7	-32.5	11.9	1.64e-03	0	44	0	1468006400	19	4945
2026-01-17 00:15:47.20	184.86	42.33	-29.7	-32.4	12.0	2.97e-04	0	44	0	1477443584	19	4915
2026-01-17 00:15:50.21	185.19	41.52	-28.8	-30.8	13.2	1.48e-03	0	44	0	1486880768	18	4497
2026-01-17 00:15:53.22	185.50	40.72	-29.2	-31.8	12.6	1.46e-03	0	44	0	1496317952	18	4827
2026-01-17 00:15:56.24	185.80	39.94	-29.4	-32.3	12.3	1.95e-03	0	44	0	1505755136	18	5011
2026-01-17 00:15:59.25	186.09	39.17	-28.5	-30.5	13.7	1.45e-03	0	44	0	1515192320	17	4533
2026-01-17 00:16:02.26	186.36	38.42	-28.2	-30.3	14.1	1.33e-03	0	44	0	1524629504	16	4580
2026-01-17 00:16:05.27	186.62	37.69	-27.9	-30.2	14.3	1.68e-03	0	44	0	1534066688	15	4670
2026-01-17 00:16:08.27	186.87	36.97	-28.3	-30.5	14.0	1.43e-03	0	44	0	1543503872	16	4650
2026-01-17 00:16:11.28	187.11	36.27	-27.6	-29.6	14.6	1.33e-03	0	44	0	1552941056	15	4494
2026-01-17 00:16:14.29	187.34	35.58	-27.8	-29.9	14.4	0.00e+00	0	44	0	1562378240	15	4578
2026-01-17 00:16:17.29	187.56	34.91	-27.6	-29.5	14.6	7.26e-04	0	44	0	1571815424	15	4482
2026-01-17 00:16:20.30	187.78	34.25	-27.8	-30.1	14.3	9.39e-04	0	44	0	1581252608	15	4648
2026-01-17 00:16:23.31	187.98	33.60	-27.7	-29.8	14.4	7.25e-04	0	44	0	1590689792	15	4585
2026-01-17 00:16:26.31	188.18	32.96	-27.4	-29.0	14.9	1.49e-03	0	44	0	1600126976	15	4338
2026-01-17 00:16:29.32	188.37	32.34	-26.4	-27.7	16.2	0.00e+00	0	44	0	1608515584	13	4189
2026-01-17 00:16:32.34	188.55	31.73	-26.1	-27.5	16.6	7.25e-04	0	44	0	1617952768	12	4236
2026-01-17 00:16:35.34	188.73	31.13	-26.3	-28.0	16.3	0.00e+00	0	44	0	1627389952	12	4375
2026-01-17 00:16:38.35	188.90	30.55	-26.3	-27.9	16.3	1.98e-04	0	44	0	1636827136	12	4359
2026-01-17 00:16:41.35	189.07	29.98	-26.7	-28.4	15.8	0.00e+00	0	44	0	1646264320	13	4378
2026-01-17 00:16:44.35	189.23	29.41	-27.0	-28.7	15.3	0.00e+00	0	44	0	1655701504	14	4348
2026-01-17 00:16:47.35	189.38	28.86	-27.1	-28.9	15.2	0.00e+00	0	44	0	1665138688	14	4418
2026-01-17 00:16:50.36	189.53	28.32	-27.3	-29.3	14.9	0.00e+00	0	44	0	1674575872	14	4543
2026-01-17 00:16:53.37	189.68	27.79	-27.3	-29.3	15.0	0.00e+00	0	44	0	1684013056	14	4525
2026-01-17 00:16:56.38	189.82	27.27	-27.5	-29.3	14.7	7.00e-07	0	44	0	1693450240	15	4414
2026-01-17 00:16:59.38	189.96	26.75	-27.9	-30.2	14.1	1.50e-06	0	44	0	1702887424	15	4712
2026-01-17 00:17:02.39	190.09	26.25	-27.6	-29.4	14.5	0.00e+00	0	44	0	1712324608	15	4465
2026-01-17 00:17:05.40	190.22	25.76	-27.8	-30.0	14.2	0.00e+00	0	44	0	1721761792	15	4631
2026-01-17 00:17:08.41	190.35	25.27	-27.5	-29.3	14.6	1.14e-05	0	44	0	1731198976	15	4431
2026-01-17 00:17:11.41	190.47	24.80	-27.6	-29.4	14.6	0.00e+00	0	44	0	1740636160	15	4452
2026-01-17 00:17:14.41	190.59	24.33	-27.0	-28.6	15.3	6.10e-06	0	44	0	1750073344	14	4320
2026-01-17 00:17:17.42	190.71	23.87	-26.6	-28.2	15.7	1.50e-06	0	44	0	1759510528	13	4337
2026-01-17 00:17:20.44	190.82	23.41	-26.8	-28.7	15.4	2.20e-06	0	44	0	1768947712	13	4480
2026-01-17 00:17:23.44	190.93	22.97	-26.9	-28.9	15.3	0.00e+00	0	44	0	1778384896	13	4536
2026-01-17 00:17:26.45	191.04	22.53	-27.0	-28.6	15.2	0.00e+00	0	44	0	1787822080	14	4326
2026-01-17 00:17:29.46	191.14	22.10	-26.4	-28.2	15.9	3.00e-06	0	44	0	1797259264	12	4442
2026-01-17 00:17:32.47	191.24	21.68	-26.5	-28.1	14.3	0.00e+00	0	44	0	1806696448	13	4308
2026-01-17 00:17:35.47	191.34	21.27	-26.5	-28.5	15.8	0.00e+00	0	44	0	1816133632	12	4522
2026-01-17 00:17:38.48	191.44	20.86	-26.9	-28.8	15.3	1.26e-03	0	44	0	1825570816	13	4514
2026-01-17 00:17:41.48	191.53	20.46	-26.6	-28.3	15.6	0.00e+00	0	44	0	1833959424	13	4369
2026-01-17 00:17:44.49	191.63	20.06	-26.8	-28.8	15.3	5.51e-04	0	43	0	1844445184	13	4499
2026-01-17 00:17:47.50	191.72	19.67	-26.7	-28.6	15.4	1.26e-04	0	44	0	1852833792	13	4444
2026-01-17 00:17:50.51	191.81	19.28	-26.9	-29.0	15.2	0.00e+00	0	44	0	1862270976	13	4555
2026-01-17 00:17:53.51	191.89	18.91	-27.4	-29.0	14.6	3.69e-04	0	44	0	1871708160	15	4346
2026-01-17 00:17:56.52	191.98	18.53	-27.1	-28.8	15.0	0.00e+00	0	44	0	1881145344	14	4400
2026-01-17 00:17:59.52	192.06	18.17	-27.0	-28.5	15.1	8.34e-04	0	44	0	1890582528	14	4323
2026-01-17 00:18:02.51	192.14	17.81	-26.8	-28.7	15.3	1.72e-03	0	44	0	1900019712	13	4469
2026-01-17 00:18:05.52	192.22	17.45	-26.8	-28.6	15.3	1.84e-03	0	44	0	1909456896	13	4460
2026-01-17 00:18:08.52	192.30	17.10	-26.8	-28.7	15.3	1.87e-03	0	44	0	1918894080	13	4469
2026-01-17 00:18:11.49	192.38	16.76	-26.8	-28.7	15.3	0.00e+00	0	44	0	1928331264	13	4468
2026-01-17 00:18:14.50	192.45	16.41	-26.8	-28.8	15.2	1.75e-03	0	44	0	1937768448	13	4514
2026-01-17 00:18:17.51	192.52	16.08	-27.2	-29.2	14.7	2.48e-03	0	44	0	1947205632	14	4507
2026-01-17 00:18:20.50	192.60	15.75	-27.2	-29.2	14.7	2.59e-03	0	44	0	1956642816	14	4516
2026-01-17 00:18:23.51	192.67	15.42	-27.4	-29.7	14.4	2.68e-03	0	44	0	1966080000	14	4672
2026-01-17 00:18:26.52	192.74	15.09	-27.4	-29.6	14.5	7.00e-07	0	44	0	1975517184	14	4627
2026-01-17 00:18:29.53	192.81	14.77	-27.3	-29.5	14.5	2.30e-03	0	44	0	1984954368	14	4604
2026-01-17 00:18:32.54	192.87	14.46	-27.5	-29.8	14.3	1.50e-06	0	44	0	1994391552	14	4698
2026-01-17 00:18:35.54	192.94	14.15	-27.6	-29.6	14.1	2.32e-03	0	44	0	2003828736	15	4530
2026-01-17 00:18:38.53	193.00	13.84	-27.5	-29.5	14.1	2.20e-06	0	44	0	2012217344	15	4489
2026-01-17 00:18:41.54	193.07	13.54	-27.8	-30.0	13.8	3.80e-06	0	44	0	2021654528	15	4671
2026-01-17 00:18:44.55	193.13	13.24	-28.1	-30.3	13.5	9.90e-06	0	44	0	2032140288	16	4639
2026-01-17 00:18:47.55	193.19	12.94	-28.3	-30.7	13.3	2.36e-05	0	44	0	2040528896	16	4747
2026-01-17 00:18:50.55	193.25	12.65	-28.3	-30.4	13.2	3.73e-05	0	44	0	2049966080	17	4537
2026-01-17 00:18:53.56	193.31	12.36	-28.2	-30.4	13.4	1.83e-05	0	44	0	2059403264	16	4667
2026-01-17 00:18:56.56	193.37	12.07	-27.5	-29.5	14.1	4.50e-06	0	44	0	2068840448	15	4504
2026-01-17 00:18:59.57	193.42	11.79	-27.4	-29.2	14.2	2.20e-06	0	44	0	2078277632	15	4412
2026-01-17 00:19:02.58	193.48	11.51	-27.3	-29.4	14.3	2.20e-06	0	44	0	2087714816	14	4599
2026-01-17 00:19:05.57	193.54	11.24	-27.3	-29.5	14.3	0.00e+00	0	43	0	2097152000	14	4628
2026-01-17 00:19:08.58	193.59	10.96	-27.3	-29.5	14.3	7.00e-07	0	44	0	2106589184	14	4625
2026-01-17 00:19:11.59	193.65	10.69	-27.4	-29.7	14.1	2.20e-06	0	44	0	2116026368	14	4700
2026-01-17 00:19:14.60	193.70	10.42	-27.4	-29.7	14.1	7.00e-07	0	44	0	2125463552	14	4696
2026-01-17 00:19:17.60	193.75	10.16	-27.3	-29.5	14.2	0.00e+00	0	44	0	2134900736	14	4639
2026-01-17 00:19:20.61	193.80	9.90	-27.5	-29.5	13.9	2.20e-06	0	44	0	2144337920	15	4524
2026-01-17 00:19:23.60	193.85	9.64	-27.5	-29.4	14.0	4.50e-06	0	44	0	2153775104	15	4489
2026-01-17 00:19:26.60	193.90	9.39	-27.4	-29.3	14.0	2.20e-06	0	44	0	2163212288	15	4445
2026-01-17 00:19:29.61	193.95	9.13	-27.5	-29.4	13.9	5.30e-06	0	44	0	2172649472	15	4495
2026-01-17 00:19:32.62	194.00	8.88	-27.5	-29.5	13.8	7.60e-06	0	44	0	2182086656	15	4525
2026-01-17 00:19:35.63	194.05	8.63	-27.6	-29.7	13.7	4.50e-06	0	44	0	2191523840	15	4568
2026-01-17 00:19:38.63	194.10	8.39	-27.6	-29.7	13.7	5.30e-06	0	44	0	2200961024	15	4592
2026-01-17 00:19:41.64	194.14	8.14	-27.8	-30.2	13.3	1.83e-05	0	44	0	2210398208	15	4756
2026-01-17 00:19:44.65	194.19	7.90	-28.2	-30.6	12.9	4.73e-05	0	44	0	2219835392	16	4762
2026-01-17 00:19:47.67	194.23	7.66	-28.2	-30.7	12.9	2.82e-05	0	44	0	2229272576	16	4826
2026-01-17 00:19:50.68	194.28	7.42	-28.4	-31.1	12.5	6.94e-05	0	44	0	2238709760	16	4928
2026-01-17 00:19:53.68	194.32	7.19	-28.6	-31.1	12.3	9.99e-05	0	44	0	2247098368	17	4817
2026-01-17 00:19:56.69	194.37	6.95	-32.9	-45.2	3.8	1.49e+00	0	44	104	2253389824	25	14813

#Closed at: 2026-01-17 00:19:57
#Recorded file [2253 MB]: D:/data/31010_260117_030754.dat