passes_logs/2026/01/17/R2M6_AANII_01/R2M6_AANII_01__20260117_021809_SUOMI_NPP_rec.log

#Pass ID: 20260117_021809_SUOMI NPP
#Satellite: SUOMI NPP
#Configuration: NPP
#almurnet v.1.7.20240730
#Start time: 2026-01-17 02:18:08

#Version: 2.2.20231116
#Station: R2M6_AANII_01
#Location: 30.233357 lon 59.946436 lat
#TLE: 1 37849U 11061A   26016.23176763  .00000061  00000+0  49926-4 0  9990
#TLE: 2 37849  98.7812 318.2698 0002434  61.5135 298.6286 14.19525545736883

#Time	Az	El	Level	Level2	SNR	BER	BlckErr	Temp	State	Recorded	gain1	gain2
2026-01-17 02:18:08.63	10.58	6.97	-32.2	-40.7	4.0	1.47e+00	0	41	0	0	24	9603
2026-01-17 02:18:11.64	10.32	7.16	-31.9	-38.7	5.6	4.50e-01	0	41	0	1048576	23	7889
2026-01-17 02:18:14.63	10.05	7.35	-31.9	-38.6	5.7	4.71e-01	0	41	0	7340032	23	7785
2026-01-17 02:18:17.63	9.77	7.55	-32.0	-38.5	5.5	5.90e-01	0	42	0	12582912	24	7644
2026-01-17 02:18:20.65	9.49	7.75	-31.5	-36.1	7.6	1.29e-01	0	41	0	17825792	23	6112
2026-01-17 02:18:23.66	9.21	7.94	-30.7	-34.2	9.8	1.87e-02	0	42	0	24117248	21	5342
2026-01-17 02:18:26.68	8.92	8.14	-31.0	-35.1	9.2	1.61e-02	0	42	0	29360128	21	5748
2026-01-17 02:18:29.69	8.63	8.34	-30.9	-34.2	9.5	2.14e-02	0	42	0	35651584	22	5243
2026-01-17 02:18:32.68	8.34	8.54	-31.0	-34.4	9.3	1.91e-02	0	42	0	40894464	22	5354
2026-01-17 02:18:35.68	8.04	8.74	-31.1	-34.9	9.0	3.37e-02	0	42	0	46137344	22	5564
2026-01-17 02:18:38.70	7.74	8.94	-30.7	-33.9	10.2	5.20e-03	0	42	0	52428800	21	5198
2026-01-17 02:18:41.71	7.43	9.14	-30.8	-34.4	9.8	7.76e-03	0	42	0	57671680	21	5437
2026-01-17 02:18:44.71	7.12	9.35	-30.7	-33.8	10.2	7.02e-03	0	42	0	62914560	21	5167
2026-01-17 02:18:47.70	6.80	9.55	-30.0	-33.6	9.6	1.28e-02	0	42	0	69206016	21	5456
2026-01-17 02:18:50.70	6.48	9.75	-30.5	-33.2	10.0	4.34e-03	0	42	0	74448896	21	4916
2026-01-17 02:18:53.71	6.16	9.96	-31.2	-35.0	8.9	1.50e-02	0	43	0	80740352	22	5572
2026-01-17 02:18:56.72	5.83	10.16	-30.5	-33.3	10.7	3.70e-03	0	42	0	85983232	21	4917
2026-01-17 02:18:59.73	5.49	10.37	-30.4	-33.3	11.1	4.66e-03	0	43	0	91226112	20	5024
2026-01-17 02:19:02.74	5.15	10.58	-30.5	-33.5	11.0	5.47e-03	0	42	0	97517568	20	5086
2026-01-17 02:19:05.74	4.80	10.79	-30.3	-33.0	11.4	9.76e-04	0	42	0	102760448	20	4898
2026-01-17 02:19:08.74	4.45	11.00	-30.5	-33.1	11.0	1.38e-03	0	43	0	108003328	21	4848
2026-01-17 02:19:11.75	4.10	11.21	-30.3	-33.0	11.4	8.84e-04	0	43	0	114294784	20	4905
2026-01-17 02:19:14.76	3.74	11.42	-30.3	-33.1	11.4	8.92e-04	0	43	0	119537664	20	4916
2026-01-17 02:19:17.76	3.37	11.63	-30.4	-33.3	11.2	4.00e-03	0	43	0	125829120	20	5007
2026-01-17 02:19:20.77	3.00	11.84	-30.5	-33.0	11.0	5.39e-03	0	43	0	131072000	21	4801
2026-01-17 02:19:23.78	2.62	12.05	-30.5	-33.0	11.0	4.72e-03	0	43	0	136314880	21	4822
2026-01-17 02:19:26.79	2.24	12.26	-30.3	-32.8	11.6	3.95e-03	0	43	0	142606336	20	4820
2026-01-17 02:19:29.79	1.85	12.48	-30.2	-32.5	11.8	6.79e-04	0	43	0	147849216	20	4718
2026-01-17 02:19:32.79	1.46	12.69	-30.1	-32.4	12.0	4.42e-04	0	43	0	153092096	20	4666
2026-01-17 02:19:35.80	1.06	12.91	-30.0	-32.1	12.1	3.60e-04	0	43	0	159383552	20	4550
2026-01-17 02:19:38.79	0.65	13.12	-29.8	-31.9	12.6	3.05e-03	0	43	0	164626432	19	4586
2026-01-17 02:19:41.79	0.24	13.33	-30.1	-32.3	12.0	3.02e-03	0	43	0	170917888	20	4642
2026-01-17 02:19:44.79	359.82	13.55	-30.2	-32.5	11.9	3.23e-03	0	43	0	176160768	20	4691
2026-01-17 02:19:47.81	359.40	13.77	-30.0	-31.8	12.4	2.96e-03	0	43	0	181403648	20	4466
2026-01-17 02:19:50.82	358.96	13.98	-29.9	-31.7	12.5	2.77e-03	0	43	0	187695104	20	4408
2026-01-17 02:19:53.81	358.53	14.20	-29.9	-32.1	12.6	4.62e-04	0	43	0	192937984	19	4647
2026-01-17 02:19:56.81	358.08	14.42	-29.9	-31.5	12.6	3.20e-03	0	43	0	198180864	20	4366
2026-01-17 02:19:59.81	357.63	14.63	-29.8	-31.9	12.7	3.01e-03	0	43	0	204472320	19	4555
2026-01-17 02:20:02.82	357.18	14.85	-29.8	-31.9	12.8	2.59e-03	0	43	0	209715200	19	4555
2026-01-17 02:20:05.83	356.71	15.07	-30.4	-33.1	11.6	2.73e-03	0	43	0	216006656	20	4902
2026-01-17 02:20:08.83	356.24	15.28	-30.3	-32.8	11.7	2.71e-03	0	43	0	221249536	20	4809
2026-01-17 02:20:11.84	355.76	15.50	-30.3	-32.8	11.8	2.96e-03	0	43	0	226492416	20	4816
2026-01-17 02:20:14.84	355.27	15.72	-30.3	-32.8	11.8	3.36e-04	0	43	0	232783872	20	4795
2026-01-17 02:20:17.83	354.78	15.93	-30.5	-33.3	11.5	3.82e-03	0	43	0	238026752	20	4963
2026-01-17 02:20:20.83	354.28	16.15	-30.5	-32.9	11.5	3.25e-03	0	43	0	243269632	21	4729
2026-01-17 02:20:23.83	353.78	16.37	-30.2	-32.5	12.0	2.33e-03	0	43	0	249561088	20	4685
2026-01-17 02:20:26.84	353.26	16.58	-30.7	-33.5	11.0	2.62e-03	0	43	0	254803968	21	4951
2026-01-17 02:20:29.84	352.74	16.80	-30.5	-32.7	11.4	3.70e-03	0	43	0	261095424	21	4689
2026-01-17 02:20:32.84	352.21	17.01	-30.1	-32.2	12.3	1.51e-04	0	43	0	266338304	20	4578
2026-01-17 02:20:35.84	351.67	17.23	-30.2	-32.6	12.0	2.42e-04	0	43	0	271581184	20	4716
2026-01-17 02:20:38.83	351.13	17.44	-30.4	-33.1	11.6	1.79e-03	0	43	0	277872640	20	4915
2026-01-17 02:20:41.83	350.58	17.65	-30.1	-32.1	12.3	2.12e-03	0	43	0	283115520	20	4551
2026-01-17 02:20:44.82	350.02	17.86	-30.0	-31.8	12.5	2.18e-03	0	43	0	288358400	20	4433
2026-01-17 02:20:47.83	349.45	18.07	-30.3	-32.8	11.9	2.58e-03	0	43	0	294649856	20	4803
2026-01-17 02:20:50.84	348.87	18.28	-30.4	-33.1	11.7	5.61e-04	0	43	0	299892736	20	4900
2026-01-17 02:20:53.85	348.28	18.49	-30.0	-31.8	12.6	1.17e-04	0	43	0	305135616	20	4449
2026-01-17 02:20:56.85	347.69	18.69	-30.1	-32.1	12.4	1.75e-04	0	44	0	311427072	20	4525
2026-01-17 02:20:59.86	347.08	18.90	-30.0	-31.9	12.6	6.40e-05	0	43	0	316669952	20	4454
2026-01-17 02:21:02.87	346.47	19.10	-29.8	-31.6	13.1	4.06e-04	0	43	0	322961408	19	4462
2026-01-17 02:21:05.88	345.85	19.30	-29.8	-31.8	13.0	1.91e-03	0	43	0	328204288	19	4513
2026-01-17 02:21:08.88	345.23	19.50	-29.3	-30.3	14.0	1.50e-04	0	43	0	333447168	19	4068
2026-01-17 02:21:11.89	344.59	19.70	-28.8	-29.7	14.7	7.00e-07	0	43	0	339738624	18	3959
2026-01-17 02:21:14.90	343.94	19.90	-29.3	-30.8	14.0	1.50e-06	0	43	0	344981504	18	4276
2026-01-17 02:21:17.90	343.29	20.09	-29.4	-31.0	13.9	2.20e-06	0	43	0	350224384	18	4349
2026-01-17 02:21:20.90	342.63	20.28	-28.9	-29.9	14.6	7.00e-07	0	44	0	356515840	18	4020
2026-01-17 02:21:23.91	341.96	20.47	-29.1	-30.4	14.2	1.50e-06	0	43	0	361758720	18	4183
2026-01-17 02:21:26.92	341.28	20.65	-29.1	-30.4	14.2	1.50e-06	0	44	0	368050176	18	4189
2026-01-17 02:21:29.92	340.60	20.83	-29.0	-30.0	14.4	7.00e-07	0	43	0	373293056	18	4054
2026-01-17 02:21:32.91	339.91	21.01	-29.2	-30.5	14.3	7.00e-07	0	43	0	378535936	18	4202
2026-01-17 02:21:35.90	339.21	21.19	-28.9	-29.9	14.6	0.00e+00	0	43	0	384827392	18	4015
2026-01-17 02:21:38.91	338.50	21.36	-28.6	-29.6	15.1	0.00e+00	0	44	0	390070272	17	4034
2026-01-17 02:21:41.91	337.78	21.53	-28.9	-30.3	14.7	7.00e-07	0	44	0	395313152	17	4230
2026-01-17 02:21:44.90	337.06	21.69	-28.5	-29.3	15.3	0.00e+00	0	44	0	401604608	17	3954
2026-01-17 02:21:47.89	336.33	21.85	-28.4	-29.0	15.5	0.00e+00	0	44	0	406847488	17	3849
2026-01-17 02:21:50.89	335.59	22.01	-28.7	-29.8	15.0	0.00e+00	0	43	0	412090368	17	4084
2026-01-17 02:21:53.89	334.85	22.16	-28.7	-29.7	15.1	7.00e-07	0	44	0	418381824	17	4040
2026-01-17 02:21:56.88	334.09	22.31	-29.2	-30.3	14.4	0.00e+00	0	44	0	423624704	18	4126
2026-01-17 02:21:59.89	333.33	22.45	-29.4	-30.5	14.1	2.20e-06	0	44	0	429916160	19	4096
2026-01-17 02:22:02.90	332.56	22.59	-28.5	-29.3	15.3	7.00e-07	0	44	0	435159040	17	3941
2026-01-17 02:22:05.91	331.78	22.73	-28.7	-29.8	15.1	0.00e+00	0	44	0	440401920	17	4070
2026-01-17 02:22:08.92	331.00	22.85	-28.6	-29.4	15.3	1.75e-05	0	44	0	446693376	17	3960
2026-01-17 02:22:11.92	330.21	22.98	-28.1	-28.7	16.0	1.52e-04	0	44	0	451936256	16	3868
2026-01-17 02:22:14.94	329.41	23.10	-28.4	-29.4	15.5	0.00e+00	0	44	0	457179136	16	4067
2026-01-17 02:22:17.95	328.60	23.21	-28.4	-29.5	15.5	0.00e+00	0	44	0	463470592	16	4086
2026-01-17 02:22:20.95	327.80	23.32	-28.2	-29.1	15.8	0.00e+00	0	44	0	468713472	16	3975
2026-01-17 02:22:23.94	326.99	23.42	-29.0	-30.0	14.7	0.00e+00	0	43	0	475004928	18	4028
2026-01-17 02:22:26.94	326.17	23.51	-29.6	-31.0	13.7	3.25e-04	0	44	0	480247808	19	4234
2026-01-17 02:22:29.95	325.34	23.60	-29.8	-31.6	13.3	6.73e-04	0	43	0	485490688	19	4440
2026-01-17 02:22:32.95	324.52	23.69	-29.9	-31.5	13.0	7.14e-04	0	44	0	491782144	20	4321
2026-01-17 02:22:35.96	323.68	23.77	-29.7	-31.4	13.5	9.11e-04	0	43	0	497025024	19	4355
2026-01-17 02:22:38.97	322.84	23.84	-29.6	-31.1	13.7	1.44e-05	0	44	0	502267904	19	4262
2026-01-17 02:22:41.97	322.00	23.90	-29.7	-31.4	13.4	8.30e-06	0	44	0	508559360	19	4360
2026-01-17 02:22:44.98	321.16	23.96	-29.7	-31.5	13.4	2.21e-05	0	44	0	513802240	19	4390
2026-01-17 02:22:47.99	320.31	24.01	-29.8	-31.6	13.3	1.47e-03	0	44	0	520093696	19	4437
2026-01-17 02:22:51.00	319.46	24.06	-30.5	-33.1	12.0	1.43e-03	0	44	0	525336576	20	4862
2026-01-17 02:22:54.00	318.61	24.09	-30.4	-33.0	11.9	1.86e-03	0	44	0	530579456	20	4860
2026-01-17 02:22:57.00	317.76	24.12	-30.4	-33.0	12.0	1.53e-03	0	44	0	536870912	20	4811
2026-01-17 02:22:59.98	316.91	24.15	-30.9	-33.9	11.0	2.50e-03	0	44	0	542113792	21	5080
2026-01-17 02:23:02.98	316.05	24.17	-31.4	-35.2	9.8	1.02e-02	0	44	0	547356672	22	5533
2026-01-17 02:23:05.99	315.19	24.18	-31.0	-33.7	10.8	4.33e-03	0	44	0	553648128	22	4886
2026-01-17 02:23:08.99	314.34	24.18	-30.6	-32.9	11.7	1.38e-03	0	43	0	558891008	21	4670
2026-01-17 02:23:11.99	313.48	24.18	-30.2	-31.7	12.5	4.32e-04	0	44	0	564133888	21	4288
2026-01-17 02:23:15.00	312.62	24.16	-30.5	-32.7	11.8	8.52e-04	0	44	0	570425344	21	4636
2026-01-17 02:23:18.00	311.77	24.15	-30.3	-32.6	12.1	2.39e-04	0	44	0	575668224	20	4698
2026-01-17 02:23:21.00	310.91	24.12	-30.1	-31.9	12.7	8.16e-05	0	44	0	581959680	20	4449
2026-01-17 02:23:24.01	310.06	24.09	-30.0	-32.0	13.0	4.19e-05	0	44	0	587202560	19	4574
2026-01-17 02:23:27.01	309.21	24.05	-29.4	-30.6	13.9	1.26e-04	0	44	0	592445440	19	4121
2026-01-17 02:23:30.02	308.36	24.01	-29.1	-30.3	14.5	3.29e-04	0	44	0	598736896	18	4115
2026-01-17 02:23:33.02	307.51	23.96	-29.1	-30.3	14.5	1.11e-03	0	44	0	603979776	18	4120
2026-01-17 02:23:36.02	306.67	23.90	-28.6	-29.4	15.3	1.36e-03	0	44	0	609222656	17	3957
2026-01-17 02:23:39.03	305.82	23.83	-28.5	-29.3	15.4	1.12e-03	0	44	0	615514112	17	3929
2026-01-17 02:23:42.04	304.98	23.76	-28.5	-29.1	15.5	0.00e+00	0	44	0	620756992	17	3886
2026-01-17 02:23:45.05	304.15	23.68	-27.7	-28.3	16.4	0.00e+00	0	44	0	627048448	15	3875
2026-01-17 02:23:48.06	303.32	23.60	-27.7	-28.3	16.4	0.00e+00	0	44	0	632291328	15	3853
2026-01-17 02:23:51.06	302.50	23.51	-28.2	-29.0	15.8	1.46e-03	0	44	0	637534208	16	3940
2026-01-17 02:23:54.07	301.67	23.41	-28.3	-29.3	15.7	4.88e-04	0	44	0	643825664	16	4007
2026-01-17 02:23:57.08	300.86	23.31	-28.4	-28.9	15.6	2.41e-04	0	44	0	649068544	17	3830
2026-01-17 02:24:00.09	300.05	23.20	-28.7	-29.7	15.2	0.00e+00	0	44	0	654311424	17	4035
2026-01-17 02:24:03.09	299.25	23.09	-29.2	-30.6	14.3	0.00e+00	0	44	0	660602880	18	4197
2026-01-17 02:24:06.09	298.45	22.97	-29.1	-30.1	14.6	0.00e+00	0	44	0	665845760	18	4047
2026-01-17 02:24:09.09	297.66	22.85	-28.9	-29.7	14.9	0.00e+00	0	44	0	672137216	18	3957
2026-01-17 02:24:12.10	296.87	22.72	-29.5	-31.2	13.9	1.50e-06	0	44	0	677380096	18	4380
2026-01-17 02:24:15.11	296.09	22.58	-29.7	-31.3	13.5	7.60e-06	0	44	0	682622976	19	4342
2026-01-17 02:24:18.11	295.32	22.44	-30.5	-33.0	11.9	1.03e-04	0	44	0	688914432	20	4838
2026-01-17 02:24:21.11	294.56	22.30	-30.1	-32.0	12.6	1.75e-04	0	44	0	694157312	20	4479
2026-01-17 02:24:24.11	293.80	22.15	-30.1	-32.2	12.4	1.55e-04	0	44	0	699400192	20	4554
2026-01-17 02:24:27.13	293.05	22.00	-29.9	-31.9	13.0	3.28e-05	0	44	0	705691648	19	4543
2026-01-17 02:24:30.12	292.31	21.84	-30.2	-32.3	12.3	1.78e-03	0	44	0	710934528	20	4604
2026-01-17 02:24:33.13	291.58	21.68	-29.9	-31.5	12.8	1.03e-03	0	43	0	716177408	20	4347
2026-01-17 02:24:36.14	290.85	21.51	-29.3	-30.9	13.9	5.80e-04	0	44	0	722468864	18	4335
2026-01-17 02:24:39.14	290.13	21.34	-29.5	-31.3	13.7	3.84e-04	0	44	0	727711744	18	4452
2026-01-17 02:24:42.15	289.42	21.17	-29.9	-31.9	12.9	1.75e-05	0	44	0	734003200	19	4555
2026-01-17 02:24:45.15	288.72	21.00	-30.0	-31.7	12.7	1.46e-04	0	44	0	739246080	20	4405
2026-01-17 02:24:48.17	288.02	20.81	-29.9	-32.1	12.6	3.86e-04	0	44	0	744488960	19	4611
2026-01-17 02:24:51.17	287.33	20.63	-30.0	-31.9	12.0	7.09e-05	0	44	0	750780416	20	4492
2026-01-17 02:24:54.18	286.65	20.45	-30.6	-33.1	11.3	9.33e-04	0	44	0	756023296	21	4827
2026-01-17 02:24:57.18	285.98	20.26	-30.3	-32.8	11.9	8.93e-04	0	44	0	762314752	20	4805
2026-01-17 02:25:00.19	285.32	20.07	-29.9	-31.9	12.9	1.40e-03	0	43	0	767557632	19	4556
2026-01-17 02:25:03.20	284.66	19.87	-29.5	-30.8	13.7	2.32e-03	0	44	0	772800512	19	4196
2026-01-17 02:25:06.21	284.02	19.68	-29.4	-30.7	13.6	1.21e-03	0	44	0	779091968	19	4157
2026-01-17 02:25:09.21	283.38	19.48	-28.8	-30.0	14.7	2.07e-03	0	44	0	784334848	17	4156
2026-01-17 02:25:12.20	282.76	19.28	-28.8	-30.1	14.7	2.14e-03	0	44	0	789577728	17	4159
2026-01-17 02:25:15.21	282.13	19.08	-28.8	-30.0	14.7	1.82e-03	0	44	0	795869184	17	4148
2026-01-17 02:25:18.21	281.52	18.88	-29.4	-31.3	13.7	2.24e-04	0	44	0	801112064	18	4450
2026-01-17 02:25:21.21	280.92	18.67	-30.0	-31.8	12.5	2.30e-03	0	44	0	806354944	20	4448
2026-01-17 02:25:24.23	280.32	18.46	-30.2	-32.5	11.9	2.49e-03	0	44	0	812646400	20	4705
2026-01-17 02:25:27.22	279.74	18.25	-30.0	-31.9	12.3	5.33e-04	0	44	0	817889280	20	4480
2026-01-17 02:25:30.22	279.16	18.05	-29.4	-30.7	13.7	1.05e-03	0	44	0	824180736	19	4179
2026-01-17 02:25:33.21	278.59	17.84	-28.9	-30.4	14.4	1.05e-03	0	44	0	829423616	17	4285
2026-01-17 02:25:36.23	278.02	17.62	-28.7	-29.8	14.7	3.11e-04	0	44	0	834666496	17	4116
2026-01-17 02:25:39.24	277.47	17.41	-29.4	-31.2	13.6	2.73e-03	0	44	0	840957952	18	4435
2026-01-17 02:25:42.23	276.92	17.20	-29.4	-30.7	13.6	2.75e-03	0	43	0	846200832	19	4176
2026-01-17 02:25:45.23	276.38	16.98	-29.2	-30.8	13.8	2.88e-03	0	44	0	851443712	18	4327
2026-01-17 02:25:48.23	275.85	16.77	-29.5	-31.2	13.2	2.50e-03	0	44	0	857735168	19	4330
2026-01-17 02:25:51.24	275.32	16.55	-29.7	-31.6	13.0	2.36e-03	0	44	0	862978048	19	4461
2026-01-17 02:25:54.25	274.81	16.33	-29.5	-31.0	13.3	7.53e-04	0	44	0	869269504	19	4282
2026-01-17 02:25:57.26	274.30	16.12	-29.3	-31.0	13.7	1.96e-03	0	44	0	874512384	18	4365
2026-01-17 02:26:00.26	273.79	15.90	-29.4	-31.1	13.7	2.75e-03	0	44	0	879755264	18	4374
2026-01-17 02:26:03.27	273.30	15.68	-29.6	-31.3	13.2	2.49e-03	0	43	0	886046720	19	4368
2026-01-17 02:26:06.28	272.81	15.46	-28.8	-30.3	14.4	2.41e-03	0	44	0	891289600	17	4238
2026-01-17 02:26:09.28	272.33	15.25	-28.3	-29.4	15.3	2.24e-03	0	44	0	896532480	16	4076
2026-01-17 02:26:12.29	271.86	15.03	-28.5	-29.8	15.1	2.52e-03	0	44	0	902823936	16	4181
2026-01-17 02:26:15.30	271.39	14.81	-28.8	-30.1	14.5	7.00e-07	0	43	0	908066816	17	4197
2026-01-17 02:26:18.31	270.93	14.59	-29.1	-30.3	14.0	5.23e-03	0	44	0	914358272	18	4173
2026-01-17 02:26:21.30	270.48	14.37	-29.2	-30.8	13.7	4.04e-03	0	44	0	919601152	18	4309
2026-01-17 02:26:24.32	270.03	14.16	-28.9	-29.8	14.4	4.15e-03	0	44	0	924844032	18	3997
2026-01-17 02:26:27.32	269.59	13.94	-28.7	-29.8	14.6	3.33e-03	0	44	0	931135488	17	4097
2026-01-17 02:26:30.33	269.16	13.72	-29.0	-30.2	14.1	3.19e-03	0	44	0	936378368	18	4116
2026-01-17 02:26:33.34	268.73	13.50	-29.6	-31.4	13.0	4.57e-05	0	44	0	941621248	19	4399
2026-01-17 02:26:36.34	268.31	13.29	-29.8	-31.8	12.7	5.72e-05	0	43	0	947912704	19	4552
2026-01-17 02:26:39.35	267.90	13.07	-29.8	-32.0	12.5	1.06e-04	0	44	0	953155584	19	4611
2026-01-17 02:26:42.36	267.49	12.86	-29.7	-31.4	12.9	3.96e-05	0	44	0	959447040	19	4426
2026-01-17 02:26:45.37	267.08	12.64	-29.4	-30.9	13.2	2.03e-03	0	44	0	964689920	19	4248
2026-01-17 02:26:48.37	266.69	12.43	-27.9	-29.0	14.5	2.44e-03	0	44	0	969932800	17	4101
2026-01-17 02:26:51.39	266.30	12.21	-29.3	-31.1	13.4	2.81e-03	0	44	0	976224256	18	4408
2026-01-17 02:26:54.38	265.91	12.00	-29.8	-31.9	12.6	1.26e-04	0	44	0	981467136	19	4569
2026-01-17 02:26:57.40	265.53	11.79	-29.8	-31.8	12.5	1.05e-04	0	44	0	986710016	19	4549
2026-01-17 02:27:00.40	265.16	11.57	-29.5	-31.1	13.0	5.26e-05	0	44	0	993001472	19	4340
2026-01-17 02:27:03.41	264.79	11.36	-29.2	-30.8	13.5	2.22e-03	0	44	0	998244352	18	4324
2026-01-17 02:27:06.40	264.43	11.15	-29.2	-30.9	13.4	2.31e-03	0	44	0	1004535808	18	4357
2026-01-17 02:27:09.39	264.08	10.94	-29.4	-31.4	13.0	6.96e-03	0	44	0	1009778688	18	4544
2026-01-17 02:27:12.40	263.72	10.73	-29.5	-31.2	12.8	5.87e-05	0	44	0	1015021568	19	4376
2026-01-17 02:27:15.40	263.38	10.53	-29.8	-32.0	12.2	2.95e-04	0	44	0	1021313024	19	4662
2026-01-17 02:27:18.41	263.03	10.32	-30.2	-33.0	11.1	8.39e-04	0	44	0	1026555904	20	4951
2026-01-17 02:27:21.41	262.70	10.11	-30.1	-32.5	11.5	3.19e-03	0	44	0	1031798784	20	4726
2026-01-17 02:27:24.42	262.36	9.90	-30.2	-32.7	11.3	4.13e-03	0	44	0	1038090240	20	4819
2026-01-17 02:27:27.42	262.04	9.70	-30.2	-32.6	11.4	1.84e-03	0	44	0	1043333120	20	4789
2026-01-17 02:27:30.41	261.72	9.49	-30.4	-33.5	10.7	2.14e-03	0	44	0	1048576000	20	5120
2026-01-17 02:27:33.42	261.40	9.29	-30.8	-34.4	9.7	8.43e-03	0	44	0	1054867456	21	5440
2026-01-17 02:27:36.44	261.08	9.09	-30.4	-33.1	10.6	4.34e-03	0	44	0	1060110336	21	4895
2026-01-17 02:27:39.45	260.77	8.88	-29.2	-31.6	11.4	1.40e-03	0	44	0	1066401792	20	4740
2026-01-17 02:27:42.45	260.47	8.68	-28.8	-31.5	10.8	7.18e-04	0	44	0	1071644672	18	4903
2026-01-17 02:27:45.47	260.16	8.48	-29.5	-32.0	10.3	4.07e-04	0	44	0	1076887552	18	4835
2026-01-17 02:27:48.48	259.87	8.28	-29.9	-32.4	11.8	4.69e-04	0	44	0	1083179008	19	4793
2026-01-17 02:27:51.49	259.57	8.08	-29.9	-32.2	11.4	1.23e-03	0	44	0	1088421888	20	4653
2026-01-17 02:27:54.49	259.29	7.88	-30.1	-32.8	10.9	9.15e-03	0	44	0	1094713344	20	4934
2026-01-17 02:27:57.49	259.00	7.69	-29.9	-32.7	11.4	8.10e-03	0	44	0	1099956224	19	4978
2026-01-17 02:28:00.49	258.72	7.49	-29.9	-32.6	11.5	1.61e-03	0	44	0	1105199104	19	4938
2026-01-17 02:28:03.50	258.45	7.30	-30.1	-32.9	10.8	2.32e-03	0	44	0	1111490560	20	4999
2026-01-17 02:28:06.51	258.17	7.10	-30.1	-32.9	10.7	4.20e-03	0	44	0	1116733440	20	4991
2026-01-17 02:28:09.51	257.90	6.91	-33.1	-45.6	3.8	1.49e+00	0	44	104	1118830592	26	15051

#Closed at: 2026-01-17 02:28:10
#Recorded file [1118 MB]: D:/data/31010_260117_051810.dat