passes_logs/2026/01/05/R2M6_AANII_01/R2M6_AANII_01__20260105_034336_FENGYUN_3D_rec.log

#Pass ID: 20260105_034336_FENGYUN 3D
#Satellite: FENGYUN 3D
#Configuration: FENGYUN 3D
#almurnet v.1.7.20240730
#Start time: 2026-01-05 03:43:36

#Version: 2.2.20231116
#Station: R2M6_AANII_01
#Location: 30.233357 lon 59.946436 lat
#TLE: 1 43010U 17072A   26004.50247883 -.00000063  00000+0 -78815-5 0  9998
#TLE: 2 43010  98.9915 336.1565 0001968 126.3752 233.7605 14.19691805421760

#Time	Az	El	Level	Level2	SNR	BER	BlckErr	Temp	State	Recorded	gain1	gain2
2026-01-05 03:43:36.89	12.96	7.02	-29.7	-34.5	4.8	8.08e-01	0	41	0	0	20	6244
2026-01-05 03:43:39.91	12.77	7.24	-30.2	-34.5	7.7	7.48e-02	0	41	102	1048576	20	5922
2026-01-05 03:43:42.93	12.57	7.45	-30.2	-34.4	7.8	7.82e-02	0	41	102	1048576	20	5857
2026-01-05 03:43:45.96	12.37	7.67	-29.2	-32.4	10.0	8.09e-03	0	41	102	1048576	18	5214
2026-01-05 03:43:48.98	12.17	7.89	-28.0	-30.3	12.0	7.43e-04	0	41	102	1048576	16	4687
2026-01-05 03:43:52.00	11.97	8.11	-27.3	-29.6	13.0	4.52e-04	0	41	102	1048576	14	4686
2026-01-05 03:43:55.03	11.76	8.33	-27.2	-29.3	13.2	4.15e-04	0	42	102	1048576	14	4582
2026-01-05 03:43:58.05	11.55	8.56	-27.1	-29.2	13.3	3.35e-04	0	42	102	1048576	14	4560
2026-01-05 03:44:01.06	11.33	8.78	-27.1	-29.1	13.3	1.74e-03	0	42	102	1048576	14	4532
2026-01-05 03:44:04.09	11.11	9.01	-26.9	-29.1	13.6	2.83e-04	0	42	102	1048576	13	4629
2026-01-05 03:44:07.11	10.89	9.24	-27.0	-29.3	13.5	2.57e-04	0	42	102	1048576	13	4710
2026-01-05 03:44:10.13	10.66	9.47	-26.8	-28.8	13.8	1.86e-03	0	42	102	1048576	13	4553
2026-01-05 03:44:13.15	10.43	9.70	-26.8	-28.8	13.9	1.20e-03	0	42	102	1048576	13	4540
2026-01-05 03:44:16.17	10.20	9.93	-26.7	-28.7	13.9	2.35e-04	0	42	102	1048576	13	4516
2026-01-05 03:44:19.19	9.96	10.17	-26.8	-28.8	13.9	1.58e-03	0	42	102	1048576	13	4563
2026-01-05 03:44:22.22	9.72	10.41	-26.8	-29.0	13.8	1.39e-03	0	42	102	1048576	13	4601
2026-01-05 03:44:25.24	9.47	10.65	-26.9	-29.0	13.8	6.05e-04	0	42	102	1048576	13	4621
2026-01-05 03:44:28.26	9.22	10.89	-27.4	-29.7	13.1	1.73e-03	0	43	102	1048576	14	4721
2026-01-05 03:44:31.29	8.96	11.13	-26.8	-28.8	13.9	0.00e+00	0	42	102	1048576	13	4557
2026-01-05 03:44:34.31	8.70	11.37	-26.8	-28.8	14.0	0.00e+00	0	43	102	1048576	13	4532
2026-01-05 03:44:37.34	8.44	11.62	-26.8	-28.9	13.9	1.72e-03	0	43	102	1048576	13	4579
2026-01-05 03:44:40.36	8.17	11.87	-26.5	-28.2	14.4	0.00e+00	0	43	102	1048576	13	4359
2026-01-05 03:44:43.38	7.90	12.12	-26.5	-28.2	14.4	0.00e+00	0	43	102	1048576	13	4363
2026-01-05 03:44:46.39	7.62	12.37	-26.4	-28.3	14.6	0.00e+00	0	43	102	1048576	12	4518
2026-01-05 03:44:49.41	7.34	12.62	-27.0	-28.9	13.7	2.20e-06	0	43	102	1048576	14	4457
2026-01-05 03:44:52.42	7.05	12.88	-27.7	-29.9	12.9	4.00e-05	0	43	102	1048576	15	4641
2026-01-05 03:44:55.44	6.76	13.14	-27.6	-29.6	13.1	1.83e-05	0	43	102	1048576	15	4550
2026-01-05 03:44:58.45	6.46	13.39	-27.0	-28.8	13.9	0.00e+00	0	43	102	1048576	14	4422
2026-01-05 03:45:01.46	6.15	13.65	-27.1	-29.0	13.7	4.50e-06	0	43	102	1048576	14	4469
2026-01-05 03:45:04.48	5.84	13.92	-26.6	-28.3	14.4	0.00e+00	0	43	102	1048576	13	4399
2026-01-05 03:45:07.50	5.53	14.18	-26.4	-28.4	14.7	1.10e-06	0	43	102	1048576	12	4523
2026-01-05 03:45:10.52	5.21	14.45	-26.7	-28.7	14.2	0.00e+00	0	43	102	1048576	13	4506
2026-01-05 03:45:13.54	4.88	14.72	-26.0	-27.6	15.2	0.00e+00	0	43	102	1048576	12	4294
2026-01-05 03:45:16.56	4.54	14.99	-25.9	-27.3	15.4	0.00e+00	0	43	102	1048576	12	4217
2026-01-05 03:45:19.57	4.20	15.26	-25.9	-27.6	15.5	0.00e+00	0	43	102	1048576	11	4420
2026-01-05 03:45:22.58	3.86	15.54	-25.7	-27.3	15.7	0.00e+00	0	43	102	1048576	11	4325
2026-01-05 03:45:25.60	3.50	15.82	-25.7	-27.3	15.7	0.00e+00	0	43	102	1048576	11	4310
2026-01-05 03:45:28.63	3.14	16.10	-25.5	-26.8	16.0	0.00e+00	0	43	102	1048576	11	4197
2026-01-05 03:45:31.64	2.78	16.38	-24.1	-25.9	15.8	0.00e+00	0	43	102	1048576	10	4389
2026-01-05 03:45:34.66	2.40	16.66	-25.3	-26.9	15.5	0.00e+00	0	43	102	1048576	10	4338
2026-01-05 03:45:37.68	2.02	16.95	-25.3	-27.0	16.2	0.00e+00	0	43	102	1048576	10	4353
2026-01-05 03:45:40.70	1.63	17.24	-25.8	-27.4	15.7	1.82e-04	0	43	102	1048576	11	4353
2026-01-05 03:45:43.72	1.23	17.53	-25.6	-27.0	16.0	0.00e+00	0	43	102	1048576	11	4256
2026-01-05 03:45:46.73	0.83	17.82	-25.5	-27.3	16.1	0.00e+00	0	43	102	1048576	10	4427
2026-01-05 03:45:49.75	0.41	18.11	-25.2	-26.7	16.4	2.33e-04	0	43	102	1048576	10	4283
2026-01-05 03:45:52.77	359.99	18.41	-25.1	-26.4	16.6	2.18e-04	0	43	102	1048576	10	4189
2026-01-05 03:45:55.79	359.56	18.70	-25.1	-26.5	16.6	1.98e-04	0	43	102	1048576	10	4220
2026-01-05 03:45:58.81	359.12	19.00	-25.0	-26.3	16.7	1.86e-04	0	43	102	1048576	10	4171
2026-01-05 03:46:01.83	358.68	19.30	-24.8	-25.8	16.9	1.92e-04	0	43	102	1048576	10	4049
2026-01-05 03:46:04.85	358.22	19.61	-24.8	-26.3	17.0	2.48e-04	0	43	102	1048576	9	4272
2026-01-05 03:46:07.87	357.75	19.91	-24.9	-26.5	16.9	2.44e-04	0	43	102	1048576	9	4330
2026-01-05 03:46:10.89	357.28	20.22	-24.9	-26.6	16.8	2.61e-04	0	43	102	1048576	9	4358
2026-01-05 03:46:13.91	356.79	20.53	-24.7	-26.2	17.1	0.00e+00	0	43	102	1048576	9	4248
2026-01-05 03:46:16.92	356.30	20.84	-24.5	-25.8	17.3	1.96e-04	0	43	102	1048576	9	4146
2026-01-05 03:46:19.94	355.79	21.15	-24.4	-25.9	17.5	1.85e-04	0	43	102	1048576	8	4284
2026-01-05 03:46:22.96	355.27	21.46	-24.4	-25.9	17.5	0.00e+00	0	43	102	1048576	8	4289
2026-01-05 03:46:25.97	354.75	21.77	-24.5	-25.8	17.3	0.00e+00	0	43	102	1048576	9	4139
2026-01-05 03:46:28.99	354.21	22.09	-24.5	-25.6	17.3	0.00e+00	0	43	102	1048576	9	4106
2026-01-05 03:46:32.02	353.66	22.40	-24.4	-25.8	17.5	0.00e+00	0	43	102	1048576	8	4273
2026-01-05 03:46:35.03	353.10	22.72	-24.9	-26.5	16.9	0.00e+00	0	43	102	1048576	9	4325
2026-01-05 03:46:38.06	352.52	23.04	-24.4	-25.5	17.5	2.67e-04	0	43	102	1048576	9	4063
2026-01-05 03:46:41.07	351.94	23.36	-24.4	-26.0	17.5	0.00e+00	0	43	102	1048576	8	4303
2026-01-05 03:46:44.09	351.34	23.68	-24.0	-25.1	18.0	0.00e+00	0	43	102	1048576	8	4090
2026-01-05 03:46:47.11	350.73	24.00	-24.1	-25.4	17.8	0.00e+00	0	43	102	1048576	8	4151
2026-01-05 03:46:50.12	350.11	24.32	-24.1	-25.3	17.8	0.00e+00	0	43	102	1048576	8	4141
2026-01-05 03:46:53.14	349.47	24.64	-23.8	-24.7	18.2	0.00e+00	0	43	102	1048576	8	3980
2026-01-05 03:46:56.16	348.82	24.96	-23.9	-25.3	18.1	0.00e+00	0	43	102	1048576	7	4247
2026-01-05 03:46:59.18	348.16	25.28	-23.9	-25.4	18.0	4.11e-05	0	43	102	1048576	7	4285
2026-01-05 03:47:02.20	347.48	25.60	-23.5	-24.6	18.5	0.00e+00	0	43	102	1048576	7	4064
2026-01-05 03:47:05.22	346.79	25.92	-23.5	-24.6	18.5	0.00e+00	0	43	102	1048576	7	4072
2026-01-05 03:47:08.24	346.09	26.24	-23.5	-24.4	18.6	1.48e-04	0	43	102	1048576	7	4020
2026-01-05 03:47:11.27	345.37	26.55	-23.3	-24.6	18.8	6.68e-04	0	43	102	1048576	6	4172
2026-01-05 03:47:14.29	344.63	26.87	-23.4	-24.8	18.7	0.00e+00	0	43	102	1048576	6	4231
2026-01-05 03:47:17.31	343.88	27.18	-23.4	-24.3	18.7	0.00e+00	0	43	102	1048576	7	3994
2026-01-05 03:47:20.32	343.12	27.50	-23.3	-24.6	18.8	1.17e-03	0	44	102	1048576	6	4174
2026-01-05 03:47:23.35	342.34	27.81	-23.3	-24.6	18.8	9.99e-04	0	43	102	1048576	6	4183
2026-01-05 03:47:26.36	341.55	28.11	-23.4	-24.7	18.7	1.03e-03	0	43	102	1048576	6	4215
2026-01-05 03:47:29.38	340.74	28.42	-23.4	-24.2	18.7	1.02e-03	0	43	102	1048576	7	3977
2026-01-05 03:47:32.40	339.91	28.72	-23.3	-24.2	18.8	9.75e-04	0	43	102	1048576	7	3960
2026-01-05 03:47:35.41	339.07	29.02	-23.4	-24.7	18.7	0.00e+00	0	43	102	1048576	6	4211
2026-01-05 03:47:38.44	338.21	29.31	-23.4	-24.8	18.6	8.43e-04	0	43	102	1048576	6	4242
2026-01-05 03:47:41.46	337.34	29.60	-23.3	-24.5	18.8	6.46e-04	0	44	102	1048576	6	4161
2026-01-05 03:47:44.48	336.45	29.89	-23.1	-24.2	19.0	0.00e+00	0	43	102	1048576	6	4090
2026-01-05 03:47:47.51	335.54	30.17	-23.1	-24.2	19.0	0.00e+00	0	44	102	1048576	6	4068
2026-01-05 03:47:50.52	334.63	30.44	-23.2	-24.5	18.8	2.16e-04	0	44	102	1048576	6	4143
2026-01-05 03:47:53.53	333.69	30.71	-23.3	-24.7	18.7	0.00e+00	0	44	102	1048576	6	4211
2026-01-05 03:47:56.55	332.74	30.97	-23.1	-24.1	19.0	0.00e+00	0	43	102	1048576	6	4050
2026-01-05 03:47:59.58	331.77	31.23	-23.0	-24.4	19.1	0.00e+00	0	43	102	1048576	5	4247
2026-01-05 03:48:02.60	330.79	31.47	-23.1	-24.2	19.0	0.00e+00	0	44	102	1048576	6	4083
2026-01-05 03:48:05.62	329.79	31.71	-22.8	-23.6	19.3	0.00e+00	0	43	102	1048576	6	3937
2026-01-05 03:48:08.64	328.77	31.95	-22.7	-23.3	19.5	1.23e-04	0	44	102	1048576	6	3864
2026-01-05 03:48:11.66	327.75	32.17	-22.6	-23.6	19.5	0.00e+00	0	43	102	1048576	5	4050
2026-01-05 03:48:14.68	326.71	32.39	-22.8	-24.0	19.3	0.00e+00	0	43	102	1048576	5	4150
2026-01-05 03:48:17.70	325.65	32.59	-22.8	-24.1	19.3	5.19e-04	0	43	102	1048576	5	4160
2026-01-05 03:48:20.73	324.58	32.79	-22.9	-24.2	19.2	3.31e-04	0	44	102	1048576	5	4201
2026-01-05 03:48:23.75	323.50	32.97	-23.1	-24.2	19.0	0.00e+00	0	43	102	1048576	6	4089
2026-01-05 03:48:26.77	322.40	33.15	-23.0	-24.1	19.1	4.81e-04	0	44	102	1048576	6	4049
2026-01-05 03:48:29.79	321.30	33.31	-23.0	-24.0	19.1	2.85e-04	0	43	102	1048576	6	4030
2026-01-05 03:48:32.82	320.18	33.46	-22.8	-23.5	19.4	9.49e-04	0	43	102	1048576	6	3922
2026-01-05 03:48:35.83	319.05	33.60	-22.8	-23.5	19.4	0.00e+00	0	43	102	1048576	6	3904
2026-01-05 03:48:38.85	317.92	33.73	-22.4	-23.3	19.7	2.74e-05	0	43	102	1048576	5	3970
2026-01-05 03:48:41.87	316.77	33.85	-22.7	-23.7	19.5	2.95e-04	0	43	102	1048576	5	4083
2026-01-05 03:48:44.89	315.62	33.95	-22.4	-23.2	19.8	8.50e-04	0	43	102	1048576	5	3956
2026-01-05 03:48:47.91	314.46	34.04	-22.5	-23.5	19.7	0.00e+00	0	43	102	1048576	5	4015
2026-01-05 03:48:50.93	313.30	34.12	-22.8	-24.0	19.4	6.34e-04	0	43	102	1048576	5	4145
2026-01-05 03:48:53.95	312.12	34.18	-22.7	-23.9	19.4	6.18e-04	0	44	102	1048576	5	4124
2026-01-05 03:48:56.97	310.95	34.23	-23.0	-24.0	19.2	0.00e+00	0	44	102	1048576	6	4024
2026-01-05 03:48:59.98	309.78	34.27	-22.7	-23.8	19.5	1.02e-03	0	44	102	1048576	5	4087
2026-01-05 03:49:03.00	308.59	34.29	-22.8	-24.0	19.4	1.44e-03	0	44	102	1048576	5	4152
2026-01-05 03:49:06.01	307.42	34.30	-22.8	-24.0	19.4	0.00e+00	0	44	102	1048576	5	4137
2026-01-05 03:49:09.03	306.23	34.30	-23.1	-24.2	19.0	0.00e+00	0	44	102	1048576	6	4077
2026-01-05 03:49:12.05	305.05	34.28	-22.6	-23.6	19.6	1.31e-03	0	44	102	1048576	5	4034
2026-01-05 03:49:15.07	303.87	34.25	-22.5	-23.8	19.7	0.00e+00	0	43	102	1048576	4	4223
2026-01-05 03:49:18.09	302.70	34.20	-22.3	-23.0	19.9	0.00e+00	0	44	102	1048576	5	3895
2026-01-05 03:49:21.11	301.52	34.14	-22.8	-24.1	19.3	0.00e+00	0	44	102	1048576	5	4180
2026-01-05 03:49:24.13	300.36	34.07	-23.1	-24.1	19.1	0.00e+00	0	44	102	1048576	6	4067
2026-01-05 03:49:27.16	299.19	33.98	-22.5	-23.4	19.7	0.00e+00	0	44	102	1048576	5	3990
2026-01-05 03:49:30.17	298.04	33.88	-22.3	-23.0	19.9	0.00e+00	0	44	102	1048576	5	3900
2026-01-05 03:49:33.19	296.89	33.77	-22.4	-23.1	19.8	0.00e+00	0	44	102	1048576	5	3938
2026-01-05 03:49:36.22	295.74	33.64	-22.4	-23.2	19.8	0.00e+00	0	44	102	1048576	5	3954
2026-01-05 03:49:39.24	294.61	33.51	-22.9	-24.3	19.2	0.00e+00	0	44	102	1048576	5	4215
2026-01-05 03:49:42.26	293.49	33.36	-22.6	-23.7	19.5	0.00e+00	0	44	102	1048576	5	4063
2026-01-05 03:49:45.27	292.39	33.20	-22.7	-23.8	19.5	0.00e+00	0	44	102	1048576	5	4090
2026-01-05 03:49:48.29	291.29	33.03	-22.6	-23.6	19.5	0.00e+00	0	44	102	1048576	5	4059
2026-01-05 03:49:51.30	290.20	32.84	-22.4	-23.2	19.7	0.00e+00	0	44	102	1048576	5	3944
2026-01-05 03:49:54.33	289.12	32.65	-22.3	-23.5	19.8	0.00e+00	0	43	102	1048576	4	4139
2026-01-05 03:49:57.36	288.06	32.45	-22.7	-23.8	19.4	0.00e+00	0	44	102	1048576	5	4105
2026-01-05 03:50:00.37	287.01	32.24	-22.7	-23.8	19.4	0.00e+00	0	44	102	1048576	5	4095
2026-01-05 03:50:03.39	285.98	32.01	-22.6	-23.6	19.5	0.00e+00	0	44	102	1048576	5	4059
2026-01-05 03:50:06.40	284.96	31.78	-22.6	-23.6	19.5	0.00e+00	0	44	102	1048576	5	4055
2026-01-05 03:50:09.43	283.95	31.54	-22.4	-23.3	19.7	0.00e+00	0	44	102	1048576	5	3967
2026-01-05 03:50:12.45	282.96	31.30	-22.5	-23.4	19.6	0.00e+00	0	43	102	1048576	5	4005
2026-01-05 03:50:15.46	281.99	31.05	-22.6	-23.7	19.4	0.00e+00	0	44	102	1048576	5	4071
2026-01-05 03:50:18.48	281.03	30.78	-23.1	-24.1	19.0	0.00e+00	0	44	102	1048576	6	4066
2026-01-05 03:50:21.49	280.09	30.52	-23.0	-23.9	19.1	1.71e-05	0	44	102	1048576	6	4011
2026-01-05 03:50:24.51	279.16	30.24	-22.7	-23.9	19.3	3.31e-05	0	44	102	1048576	5	4129
2026-01-05 03:50:27.53	278.25	29.97	-22.8	-24.1	19.2	0.00e+00	0	44	102	1048576	5	4179
2026-01-05 03:50:30.55	277.35	29.68	-23.3	-24.6	18.7	0.00e+00	0	44	102	1048576	6	4177
2026-01-05 03:50:33.56	276.47	29.39	-22.9	-23.4	19.1	0.00e+00	0	44	102	1048576	7	3778
2026-01-05 03:50:36.58	275.61	29.10	-22.9	-23.9	19.1	0.00e+00	0	44	102	1048576	6	4003
2026-01-05 03:50:39.59	274.76	28.80	-22.7	-23.4	19.3	0.00e+00	0	44	102	1048576	6	3893
2026-01-05 03:50:42.62	273.92	28.50	-22.7	-23.9	19.3	0.00e+00	0	44	102	1048576	5	4120
2026-01-05 03:50:45.63	273.11	28.20	-22.7	-23.9	19.3	0.00e+00	0	43	102	1048576	5	4119
2026-01-05 03:50:48.66	272.30	27.89	-22.8	-24.0	19.2	0.00e+00	0	44	102	1048576	5	4142
2026-01-05 03:50:51.67	271.52	27.58	-23.0	-24.5	18.9	0.00e+00	0	44	102	1048576	5	4264
2026-01-05 03:50:54.69	270.75	27.26	-23.1	-24.2	18.8	0.00e+00	0	44	102	1048576	6	4096
2026-01-05 03:50:57.72	269.99	26.95	-23.1	-24.1	18.8	0.00e+00	0	44	102	1048576	6	4069
2026-01-05 03:51:00.74	269.25	26.63	-23.0	-24.0	18.9	6.86e-05	0	44	102	1048576	6	4023
2026-01-05 03:51:03.77	268.52	26.31	-23.0	-24.0	19.0	0.00e+00	0	44	102	1048576	6	4023
2026-01-05 03:51:06.79	267.80	25.99	-23.4	-24.9	18.4	0.00e+00	0	44	102	1048576	6	4275
2026-01-05 03:51:09.81	267.11	25.67	-23.6	-24.7	18.3	2.09e-04	0	44	102	1048576	7	4106
2026-01-05 03:51:12.83	266.42	25.35	-23.5	-24.6	18.4	0.00e+00	0	44	102	1048576	7	4070
2026-01-05 03:51:15.85	265.75	25.03	-23.4	-24.4	18.5	0.00e+00	0	44	102	1048576	7	4016
2026-01-05 03:51:18.86	265.10	24.71	-23.7	-25.0	17.6	6.61e-04	0	44	102	1048576	7	4174
2026-01-05 03:51:21.88	264.45	24.39	-23.6	-24.7	18.3	9.90e-04	0	44	102	1048576	7	4089
2026-01-05 03:51:24.90	263.82	24.07	-23.6	-24.7	18.3	1.11e-03	0	44	102	1048576	7	4087
2026-01-05 03:51:27.92	263.21	23.74	-23.5	-24.6	18.3	2.35e-03	0	44	102	1048576	7	4068
2026-01-05 03:51:30.95	262.60	23.42	-23.7	-25.0	18.1	9.46e-04	0	44	102	1048576	7	4176
2026-01-05 03:51:33.97	262.01	23.10	-23.7	-25.0	18.1	1.36e-03	0	44	102	1048576	7	4169
2026-01-05 03:51:36.98	261.43	22.78	-23.6	-24.7	18.2	1.54e-03	0	44	102	1048576	7	4101
2026-01-05 03:51:40.00	260.86	22.46	-23.7	-24.9	18.1	1.52e-03	0	44	102	1048576	7	4145
2026-01-05 03:51:43.02	260.31	22.15	-23.7	-25.0	18.0	1.26e-03	0	44	102	1048576	7	4174
2026-01-05 03:51:46.03	259.76	21.83	-23.6	-24.8	18.1	1.04e-03	0	44	102	1048576	7	4114
2026-01-05 03:51:49.05	259.23	21.51	-23.6	-24.8	18.2	8.48e-04	0	44	102	1048576	7	4114
2026-01-05 03:51:52.06	258.71	21.20	-23.6	-24.8	18.1	3.40e-06	0	44	102	1048576	7	4128
2026-01-05 03:51:55.07	258.20	20.89	-23.6	-24.7	18.2	1.49e-03	0	44	102	1048576	7	4097
2026-01-05 03:51:58.10	257.69	20.58	-23.9	-25.3	17.8	1.41e-03	0	44	102	1048576	7	4260
2026-01-05 03:52:01.12	257.20	20.27	-24.3	-25.7	17.4	6.80e-06	0	44	102	1048576	8	4249
2026-01-05 03:52:04.14	256.72	19.96	-24.1	-25.4	17.5	6.80e-06	0	44	102	1048576	8	4160
2026-01-05 03:52:07.15	256.25	19.65	-24.1	-25.4	17.6	5.70e-06	0	44	102	1048576	8	4156
2026-01-05 03:52:10.18	255.78	19.35	-24.1	-25.2	17.6	4.50e-06	0	44	102	1048576	8	4125
2026-01-05 03:52:13.21	255.33	19.04	-24.2	-25.6	17.4	5.70e-06	0	44	102	1048576	8	4220
2026-01-05 03:52:16.23	254.88	18.74	-24.1	-25.4	17.5	0.00e+00	0	44	102	1048576	8	4165
2026-01-05 03:52:19.24	254.45	18.44	-24.2	-25.5	17.4	0.00e+00	0	44	102	1048576	8	4200
2026-01-05 03:52:22.26	254.02	18.14	-24.5	-26.1	17.1	5.70e-06	0	43	102	1048576	8	4360
2026-01-05 03:52:25.28	253.60	17.85	-24.7	-26.2	16.8	0.00e+00	0	44	102	1048576	9	4257
2026-01-05 03:52:28.30	253.19	17.56	-24.9	-26.5	14.1	0.00e+00	0	43	102	1048576	9	4328
2026-01-05 03:52:31.32	252.79	17.26	-25.0	-26.8	15.9	0.00e+00	0	44	102	1048576	9	4426
2026-01-05 03:52:34.34	252.40	16.97	-25.1	-26.5	16.3	0.00e+00	0	44	102	1048576	10	4234
2026-01-05 03:52:37.36	252.01	16.69	-24.9	-26.7	16.4	0.00e+00	0	44	102	1048576	9	4389
2026-01-05 03:52:40.38	251.63	16.40	-25.1	-26.4	16.3	3.19e-04	0	43	102	1048576	10	4208
2026-01-05 03:52:43.40	251.26	16.12	-25.1	-26.6	16.2	3.63e-04	0	44	102	1048576	10	4255
2026-01-05 03:52:46.42	250.89	15.84	-25.4	-27.2	15.8	0.00e+00	0	44	102	1048576	10	4423
2026-01-05 03:52:49.45	250.53	15.56	-25.2	-26.6	16.1	5.83e-05	0	44	102	1048576	10	4268
2026-01-05 03:52:52.46	250.18	15.28	-25.4	-27.2	15.8	0.00e+00	0	44	102	1048576	10	4412
2026-01-05 03:52:55.48	249.84	15.00	-25.4	-27.2	15.8	0.00e+00	0	44	102	1048576	10	4423
2026-01-05 03:52:58.51	249.50	14.73	-25.6	-27.2	15.5	2.44e-03	0	44	102	1048576	11	4301
2026-01-05 03:53:01.53	249.16	14.46	-25.8	-27.5	15.4	2.06e-04	0	44	102	1048576	11	4383
2026-01-05 03:53:04.55	248.84	14.19	-25.6	-27.0	15.6	2.02e-03	0	44	102	1048576	11	4261
2026-01-05 03:53:07.56	248.52	13.92	-25.7	-27.3	15.4	1.90e-03	0	44	102	1048576	11	4338
2026-01-05 03:53:10.59	248.20	13.66	-25.6	-27.2	15.5	1.91e-03	0	44	102	1048576	11	4316
2026-01-05 03:53:13.61	247.89	13.39	-25.7	-27.3	15.4	1.66e-03	0	44	102	1048576	11	4330
2026-01-05 03:53:16.63	247.59	13.13	-25.7	-27.4	15.4	1.71e-03	0	44	102	1048576	11	4358
2026-01-05 03:53:19.65	247.29	12.87	-25.7	-27.4	15.3	1.41e-03	0	44	102	1048576	11	4377
2026-01-05 03:53:22.68	247.00	12.62	-25.7	-27.4	15.3	0.00e+00	0	44	102	1048576	11	4382
2026-01-05 03:53:25.71	246.71	12.36	-25.8	-27.6	15.2	1.75e-03	0	44	102	1048576	11	4427
2026-01-05 03:53:28.73	246.43	12.11	-25.9	-27.8	15.1	0.00e+00	0	44	102	1048576	11	4487
2026-01-05 03:53:31.75	246.15	11.86	-26.0	-27.6	14.8	0.00e+00	0	44	102	1048576	12	4332
2026-01-05 03:53:34.77	245.88	11.61	-26.1	-27.9	14.6	1.10e-06	0	44	102	1048576	12	4403
2026-01-05 03:53:37.79	245.61	11.36	-26.2	-28.1	14.5	0.00e+00	0	44	102	1048576	12	4460
2026-01-05 03:53:40.82	245.35	11.11	-26.1	-27.8	14.6	0.00e+00	0	44	102	1048576	12	4375
2026-01-05 03:53:43.84	245.09	10.87	-26.2	-28.1	14.5	0.00e+00	0	44	102	1048576	12	4460
2026-01-05 03:53:46.86	244.83	10.63	-26.2	-28.1	14.4	0.00e+00	0	44	102	1048576	12	4456
2026-01-05 03:53:49.89	244.58	10.39	-26.2	-28.0	14.5	0.00e+00	0	44	102	1048576	12	4433
2026-01-05 03:53:52.90	244.34	10.15	-26.3	-28.2	14.3	1.10e-06	0	44	102	1048576	12	4499
2026-01-05 03:53:55.93	244.09	9.91	-26.2	-28.1	14.4	0.00e+00	0	44	102	1048576	12	4460
2026-01-05 03:53:58.95	243.86	9.68	-26.3	-28.2	14.3	2.20e-06	0	44	102	1048576	12	4493
2026-01-05 03:54:01.97	243.62	9.44	-26.4	-28.4	14.2	1.10e-06	0	44	102	1048576	12	4567
2026-01-05 03:54:05.00	243.39	9.21	-26.5	-28.7	14.0	0.00e+00	0	44	102	1048576	12	4643
2026-01-05 03:54:08.01	243.17	8.98	-26.7	-28.8	13.6	2.20e-06	0	44	102	1048576	13	4586
2026-01-05 03:54:11.04	242.94	8.75	-26.7	-28.6	13.6	4.50e-06	0	44	102	1048576	13	4515
2026-01-05 03:54:14.05	242.72	8.53	-26.5	-28.3	13.9	2.20e-06	0	44	102	1048576	13	4428
2026-01-05 03:54:17.07	242.51	8.30	-26.7	-28.8	13.5	6.80e-06	0	44	102	1048576	13	4562
2026-01-05 03:54:20.09	242.30	8.08	-26.6	-28.5	13.7	3.40e-06	0	44	102	1048576	13	4492
2026-01-05 03:54:23.12	242.09	7.86	-26.6	-28.6	13.6	3.40e-06	0	44	102	1048576	13	4514
2026-01-05 03:54:26.13	241.88	7.64	-26.7	-28.7	13.5	3.40e-06	0	44	102	1048576	13	4544
2026-01-05 03:54:29.16	241.68	7.42	-26.7	-28.8	13.4	9.10e-06	0	44	102	1048576	13	4570
2026-01-05 03:54:32.18	241.48	7.20	-26.8	-29.0	13.2	1.02e-05	0	44	102	1048576	13	4650
2026-01-05 03:54:35.20	241.28	6.99	-32.5	-43.9	3.8	8.47e-01	0	44	104	1048576	24	13401

#Closed at: 2026-01-05 03:54:35
#Recorded file [1 MB]: D:/data/31010_260105_064338.dat