passes_logs/2026/01/05/R2M6_AANII_01/R2M6_AANII_01__20260105_012313_NOAA_20_JPSS-1_rec.log

#Pass ID: 20260105_012313_NOAA 20 (JPSS-1)
#Satellite: NOAA 20 (JPSS-1)
#Configuration: NOAA 20
#almurnet v.1.7.20240730
#Start time: 2026-01-05 01:23:13

#Version: 2.2.20231116
#Station: R2M6_AANII_01
#Location: 30.233357 lon 59.946436 lat
#TLE: 1 43013U 17073A   26004.47528369  .00000132  00000+0  83671-4 0  9999
#TLE: 2 43013  98.7626 305.5264 0001854  54.5883 305.5466 14.19533142421242

#Time	Az	El	Level	Level2	SNR	BER	BlckErr	Temp	State	Recorded	gain1	gain2
2026-01-05 01:23:13.25	13.46	6.98	-32.0	-41.7	4.1	1.46e+00	0	41	0	0	24	11003
2026-01-05 01:23:16.26	13.31	7.20	-32.0	-41.4	5.0	6.74e-01	0	41	102	1048576	23	10634
2026-01-05 01:23:19.28	13.15	7.42	-31.9	-41.0	5.2	6.26e-01	0	41	102	1048576	23	10240
2026-01-05 01:23:22.30	12.99	7.65	-31.7	-39.3	6.2	3.59e-01	0	41	102	1048576	23	8647
2026-01-05 01:23:25.33	12.83	7.87	-31.2	-37.2	8.3	7.16e-02	0	41	102	1048576	22	7181
2026-01-05 01:23:28.35	12.67	8.10	-30.7	-35.7	9.9	1.10e-02	0	41	102	1048576	21	6358
2026-01-05 01:23:31.37	12.50	8.33	-30.5	-34.9	10.6	4.66e-03	0	41	102	1048576	21	5955
2026-01-05 01:23:34.39	12.33	8.56	-30.5	-34.8	10.7	3.81e-03	0	41	102	1048576	21	5918
2026-01-05 01:23:37.40	12.16	8.79	-30.5	-34.7	10.8	3.48e-03	0	42	102	1048576	21	5868
2026-01-05 01:23:40.42	11.98	9.03	-30.5	-35.2	10.6	2.32e-03	0	42	102	1048576	20	6190
2026-01-05 01:23:43.44	11.81	9.27	-30.5	-34.7	10.8	2.11e-03	0	42	102	1048576	21	5830
2026-01-05 01:23:46.47	11.62	9.51	-30.4	-34.8	11.2	1.43e-03	0	42	102	1048576	20	5967
2026-01-05 01:23:49.49	11.44	9.75	-30.4	-34.7	11.2	4.08e-03	0	42	102	1048576	20	5953
2026-01-05 01:23:52.50	11.25	9.99	-30.3	-34.4	11.5	4.06e-03	0	42	102	1048576	20	5785
2026-01-05 01:23:55.53	11.06	10.24	-30.3	-34.5	11.4	9.41e-04	0	42	102	1048576	20	5830
2026-01-05 01:23:58.54	10.86	10.49	-30.3	-34.6	11.4	9.97e-04	0	42	102	1048576	20	5875
2026-01-05 01:24:01.57	10.67	10.74	-30.3	-34.4	11.6	6.77e-04	0	42	102	1048576	20	5776
2026-01-05 01:24:04.59	10.46	10.99	-30.3	-34.3	11.6	8.35e-04	0	42	102	1048576	20	5745
2026-01-05 01:24:07.61	10.26	11.24	-30.3	-34.4	11.6	8.47e-04	0	42	102	1048576	20	5772
2026-01-05 01:24:10.62	10.05	11.50	-30.4	-34.9	11.3	4.14e-03	0	42	102	1048576	20	5979
2026-01-05 01:24:13.64	9.83	11.76	-30.3	-34.3	11.7	3.55e-03	0	42	102	1048576	20	5712
2026-01-05 01:24:16.66	9.62	12.02	-30.3	-34.5	11.7	3.39e-03	0	42	102	1048576	20	5790
2026-01-05 01:24:19.69	9.39	12.28	-30.2	-33.9	12.0	3.07e-03	0	42	102	1048576	20	5558
2026-01-05 01:24:22.71	9.17	12.55	-30.2	-33.9	12.1	3.04e-03	0	42	102	1048576	20	5541
2026-01-05 01:24:25.74	8.94	12.82	-30.2	-34.2	11.9	2.78e-03	0	42	102	1048576	20	5647
2026-01-05 01:24:28.75	8.70	13.09	-30.2	-33.9	12.1	3.09e-04	0	43	102	1048576	20	5537
2026-01-05 01:24:31.77	8.46	13.36	-30.2	-34.0	12.1	3.15e-03	0	42	102	1048576	20	5559
2026-01-05 01:24:34.79	8.22	13.64	-30.3	-34.1	12.0	3.08e-03	0	42	102	1048576	20	5630
2026-01-05 01:24:37.82	7.97	13.92	-30.2	-33.9	12.2	3.32e-03	0	42	102	1048576	20	5510
2026-01-05 01:24:40.83	7.72	14.20	-30.2	-33.8	12.3	2.83e-03	0	43	102	1048576	20	5475
2026-01-05 01:24:43.85	7.46	14.48	-30.2	-34.1	12.1	2.55e-03	0	43	102	1048576	20	5586
2026-01-05 01:24:46.87	7.19	14.77	-30.2	-34.0	12.2	2.33e-04	0	43	102	1048576	20	5553
2026-01-05 01:24:49.89	6.92	15.06	-30.2	-34.0	12.2	1.98e-04	0	43	102	1048576	20	5555
2026-01-05 01:24:52.92	6.65	15.35	-30.4	-34.6	11.8	3.97e-04	0	43	102	1048576	20	5803
2026-01-05 01:24:55.92	6.37	15.65	-30.3	-34.2	12.1	2.46e-04	0	43	102	1048576	20	5648
2026-01-05 01:24:58.95	6.08	15.95	-30.3	-34.1	12.2	2.17e-04	0	43	102	1048576	20	5576
2026-01-05 01:25:01.97	5.79	16.25	-30.2	-33.8	12.4	1.65e-04	0	43	102	1048576	20	5474
2026-01-05 01:25:04.99	5.49	16.55	-30.2	-34.0	12.2	3.06e-04	0	43	102	1048576	20	5520
2026-01-05 01:25:08.00	5.18	16.86	-30.2	-33.9	12.4	1.87e-04	0	43	102	1048576	20	5502
2026-01-05 01:25:11.02	4.87	17.17	-30.3	-34.1	12.3	1.53e-04	0	43	102	1048576	20	5590
2026-01-05 01:25:14.05	4.55	17.48	-30.3	-34.0	11.5	1.79e-04	0	43	102	1048576	20	5517
2026-01-05 01:25:17.08	4.23	17.80	-30.3	-34.2	12.1	2.52e-04	0	43	102	1048576	20	5623
2026-01-05 01:25:20.10	3.89	18.12	-30.3	-34.1	12.3	1.91e-04	0	43	102	1048576	20	5585
2026-01-05 01:25:23.12	3.55	18.44	-30.3	-34.1	12.4	2.27e-04	0	43	102	1048576	20	5572
2026-01-05 01:25:26.14	3.21	18.77	-30.4	-34.3	12.2	2.61e-04	0	43	102	1048576	20	5671
2026-01-05 01:25:29.16	2.85	19.09	-30.3	-34.1	12.3	3.06e-03	0	43	102	1048576	20	5576
2026-01-05 01:25:32.17	2.49	19.43	-30.4	-34.3	12.3	2.93e-03	0	43	102	1048576	20	5642
2026-01-05 01:25:35.19	2.12	19.76	-30.5	-34.5	12.1	2.75e-03	0	43	102	1048576	20	5729
2026-01-05 01:25:38.21	1.74	20.10	-30.5	-34.2	12.0	3.27e-03	0	43	102	1048576	21	5499
2026-01-05 01:25:41.24	1.35	20.44	-30.4	-34.2	12.4	1.79e-04	0	43	102	1048576	20	5593
2026-01-05 01:25:44.26	0.95	20.79	-30.4	-34.2	12.4	1.20e-04	0	43	102	1048576	20	5594
2026-01-05 01:25:47.28	0.54	21.14	-30.3	-34.1	12.5	2.94e-03	0	43	102	1048576	20	5530
2026-01-05 01:25:50.31	0.12	21.49	-30.4	-34.3	12.3	2.84e-03	0	43	102	1048576	20	5641
2026-01-05 01:25:53.32	359.70	21.84	-30.4	-34.4	12.3	2.89e-03	0	43	102	1048576	20	5649
2026-01-05 01:25:56.34	359.26	22.20	-30.4	-34.2	12.5	2.89e-03	0	43	102	1048576	20	5575
2026-01-05 01:25:59.37	358.81	22.56	-30.4	-34.2	12.5	2.72e-03	0	43	102	1048576	20	5584
2026-01-05 01:26:02.38	358.36	22.93	-30.4	-34.1	12.5	1.88e-03	0	43	102	1048576	20	5539
2026-01-05 01:26:05.40	357.89	23.29	-30.4	-34.1	12.6	9.00e-05	0	43	102	1048576	20	5547
2026-01-05 01:26:08.42	357.41	23.66	-30.3	-34.0	12.7	9.61e-05	0	43	102	1048576	20	5499
2026-01-05 01:26:11.44	356.91	24.04	-30.3	-34.0	12.7	7.85e-05	0	43	102	1048576	20	5476
2026-01-05 01:26:14.46	356.41	24.41	-30.3	-34.0	12.6	2.52e-03	0	43	102	1048576	20	5495
2026-01-05 01:26:17.48	355.89	24.79	-30.4	-34.1	12.6	2.46e-03	0	43	102	1048576	20	5542
2026-01-05 01:26:20.51	355.36	25.18	-30.4	-34.2	12.6	1.07e-04	0	43	102	1048576	20	5578
2026-01-05 01:26:23.52	354.82	25.56	-30.7	-34.5	12.0	3.26e-04	0	43	102	1048576	21	5600
2026-01-05 01:26:26.54	354.26	25.95	-30.6	-34.2	12.2	2.50e-04	0	43	102	1048576	21	5444
2026-01-05 01:26:29.57	353.69	26.34	-30.6	-34.1	12.3	1.69e-04	0	43	102	1048576	21	5418
2026-01-05 01:26:32.58	353.11	26.73	-30.6	-34.3	12.2	3.36e-04	0	43	102	1048576	21	5493
2026-01-05 01:26:35.60	352.51	27.13	-30.1	-34.1	11.9	3.45e-04	0	43	102	1048576	21	5703
2026-01-05 01:26:38.62	351.89	27.53	-31.0	-35.3	11.4	6.81e-04	0	43	102	1048576	21	5921
2026-01-05 01:26:41.62	351.26	27.93	-31.1	-35.2	11.3	9.54e-04	0	43	102	1048576	22	5753
2026-01-05 01:26:44.64	350.61	28.33	-31.2	-35.6	11.0	1.85e-03	0	43	102	1048576	22	5949
2026-01-05 01:26:47.66	349.95	28.73	-31.6	-36.2	10.1	4.92e-03	0	43	102	1048576	23	6172
2026-01-05 01:26:50.68	349.27	29.13	-31.9	-37.5	9.2	1.75e-02	0	43	102	1048576	23	6848
2026-01-05 01:26:53.70	348.57	29.54	-32.1	-37.6	8.7	2.85e-02	0	43	102	1048576	24	6823
2026-01-05 01:26:56.72	347.85	29.95	-31.9	-37.6	9.1	2.04e-02	0	43	102	1048576	23	6911
2026-01-05 01:26:59.72	347.12	30.35	-31.9	-37.4	9.3	2.40e-02	0	43	102	1048576	23	6789
2026-01-05 01:27:02.74	346.36	30.76	-31.8	-36.9	9.7	1.04e-02	0	43	102	1048576	23	6497
2026-01-05 01:27:05.75	345.59	31.16	-31.8	-37.2	9.5	1.29e-02	0	43	102	1048576	23	6655
2026-01-05 01:27:08.77	344.80	31.57	-31.8	-37.2	9.5	1.49e-02	0	43	102	1048576	23	6664
2026-01-05 01:27:11.79	343.98	31.98	-31.9	-37.4	9.4	1.73e-02	0	43	102	1048576	23	6764
2026-01-05 01:27:14.82	343.14	32.38	-31.9	-37.4	9.3	1.65e-02	0	43	102	1048576	23	6810
2026-01-05 01:27:17.83	342.29	32.79	-31.9	-37.0	9.3	2.12e-02	0	43	102	1048576	24	6450
2026-01-05 01:27:20.84	341.41	33.19	-31.6	-36.1	10.3	5.51e-03	0	43	102	1048576	23	6101
2026-01-05 01:27:23.85	340.52	33.58	-31.3	-35.8	11.0	1.42e-03	0	43	102	1048576	22	6018
2026-01-05 01:27:26.87	339.59	33.98	-31.2	-35.2	11.4	1.33e-03	0	43	102	1048576	22	5761
2026-01-05 01:27:29.88	338.65	34.37	-31.2	-35.3	11.4	1.00e-03	0	43	102	1048576	22	5785
2026-01-05 01:27:32.90	337.68	34.76	-31.5	-35.9	10.6	3.36e-03	0	43	102	1048576	23	5968
2026-01-05 01:27:35.92	336.69	35.14	-31.5	-35.9	10.5	4.40e-03	0	43	102	1048576	23	5954
2026-01-05 01:27:38.94	335.67	35.52	-31.4	-36.2	10.8	2.65e-03	0	43	102	1048576	22	6197
2026-01-05 01:27:41.95	334.63	35.89	-31.7	-36.5	10.1	9.23e-03	0	43	102	1048576	23	6299
2026-01-05 01:27:44.96	333.57	36.25	-31.6	-36.3	10.2	5.58e-03	0	43	102	1048576	23	6166
2026-01-05 01:27:47.99	332.48	36.61	-31.8	-36.9	9.8	9.89e-03	0	43	102	1048576	23	6488
2026-01-05 01:27:51.01	331.37	36.96	-31.7	-36.7	10.0	7.42e-03	0	43	102	1048576	23	6369
2026-01-05 01:27:54.03	330.23	37.30	-31.7	-36.6	10.0	6.67e-03	0	43	102	1048576	23	6331
2026-01-05 01:27:57.06	329.07	37.63	-31.5	-36.0	10.5	4.04e-03	0	43	102	1048576	23	5996
2026-01-05 01:28:00.07	327.89	37.95	-30.7	-35.0	10.6	3.11e-03	0	43	102	1048576	23	5905
2026-01-05 01:28:03.09	326.68	38.26	-31.5	-35.9	10.5	4.45e-03	0	43	102	1048576	23	5953
2026-01-05 01:28:06.11	325.45	38.55	-31.1	-34.9	11.7	6.54e-04	0	43	102	1048576	22	5615
2026-01-05 01:28:09.13	324.20	38.83	-31.1	-35.2	11.5	9.41e-04	0	44	102	1048576	22	5726
2026-01-05 01:28:12.15	322.93	39.10	-31.0	-34.8	11.7	1.11e-03	0	43	102	1048576	22	5549
2026-01-05 01:28:15.17	321.64	39.36	-30.8	-34.6	12.2	7.12e-04	0	43	102	1048576	21	5589
2026-01-05 01:28:18.19	320.32	39.60	-30.7	-34.2	12.5	2.55e-03	0	43	102	1048576	21	5410
2026-01-05 01:28:21.21	318.99	39.82	-30.4	-34.0	12.9	2.21e-03	0	43	102	1048576	20	5445
2026-01-05 01:28:24.23	317.64	40.03	-30.2	-33.4	13.3	1.22e-05	0	43	102	1048576	20	5186
2026-01-05 01:28:27.26	316.26	40.22	-30.8	-34.6	12.2	1.15e-04	0	43	102	1048576	21	5583
2026-01-05 01:28:30.28	314.88	40.40	-30.7	-34.4	12.3	5.12e-04	0	43	102	1048576	21	5497
2026-01-05 01:28:33.30	313.48	40.55	-30.7	-34.3	12.4	3.45e-04	0	43	102	1048576	21	5464
2026-01-05 01:28:36.32	312.07	40.69	-30.0	-32.8	13.7	2.15e-03	0	43	102	1048576	20	4994
2026-01-05 01:28:39.35	310.64	40.80	-30.1	-33.0	13.6	2.70e-03	0	43	102	1048576	20	5064
2026-01-05 01:28:42.36	309.22	40.90	-29.9	-33.0	14.0	2.58e-03	0	43	102	1048576	19	5166
2026-01-05 01:28:45.39	307.77	40.97	-30.1	-33.1	13.5	2.41e-03	0	43	102	1048576	20	5109
2026-01-05 01:28:48.40	306.33	41.03	-30.2	-33.5	13.3	2.36e-03	0	43	102	1048576	20	5230
2026-01-05 01:28:51.41	304.89	41.06	-30.3	-33.7	13.1	2.26e-03	0	43	102	1048576	20	5339
2026-01-05 01:28:54.43	303.43	41.08	-30.7	-34.4	12.3	9.38e-05	0	43	102	1048576	21	5504
2026-01-05 01:28:57.45	301.98	41.07	-30.8	-34.7	12.2	2.17e-04	0	43	102	1048576	21	5605
2026-01-05 01:29:00.47	300.53	41.04	-31.0	-34.6	11.9	3.81e-04	0	43	102	1048576	22	5449
2026-01-05 01:29:03.50	299.08	40.99	-31.0	-34.8	11.7	2.23e-03	0	43	102	1048576	22	5546
2026-01-05 01:29:06.51	297.64	40.93	-31.6	-36.1	10.4	5.92e-03	0	43	102	1048576	23	6038
2026-01-05 01:29:09.53	296.21	40.84	-31.5	-35.7	10.7	7.83e-03	0	43	102	1048576	23	5886
2026-01-05 01:29:12.54	294.78	40.73	-31.5	-35.7	10.7	2.57e-03	0	43	102	1048576	23	5851
2026-01-05 01:29:15.57	293.36	40.60	-32.2	-38.0	8.6	2.60e-02	0	43	102	1048576	24	6995
2026-01-05 01:29:18.59	291.96	40.45	-32.4	-38.8	8.0	6.62e-02	0	43	102	1048576	24	7500
2026-01-05 01:29:21.60	290.57	40.28	-32.3	-38.5	8.2	6.14e-02	0	43	102	1048576	24	7352
2026-01-05 01:29:24.62	289.20	40.10	-32.1	-37.6	8.9	3.38e-02	0	43	102	1048576	24	6802
2026-01-05 01:29:27.64	287.84	39.90	-32.0	-37.2	9.2	2.05e-02	0	43	102	1048576	24	6525
2026-01-05 01:29:30.66	286.50	39.68	-31.5	-35.8	10.7	4.36e-03	0	44	102	1048576	23	5894
2026-01-05 01:29:33.66	285.18	39.44	-30.9	-34.6	11.8	7.94e-04	0	43	102	1048576	22	5489
2026-01-05 01:29:36.68	283.88	39.19	-30.2	-33.3	13.3	1.75e-05	0	43	102	1048576	20	5183
2026-01-05 01:29:39.70	282.60	38.93	-30.1	-33.3	13.2	2.74e-05	0	43	102	1048576	20	5186
2026-01-05 01:29:42.72	281.33	38.65	-29.6	-32.3	14.4	1.50e-06	0	43	102	1048576	19	4904
2026-01-05 01:29:45.74	280.09	38.36	-29.5	-32.5	14.5	7.00e-07	0	43	102	1048576	18	5120
2026-01-05 01:29:48.76	278.88	38.05	-29.9	-33.1	13.9	4.87e-04	0	44	102	1048576	19	5214
2026-01-05 01:29:51.77	277.69	37.74	-29.7	-32.6	14.1	1.92e-04	0	43	102	1048576	19	5043
2026-01-05 01:29:54.79	276.52	37.41	-29.9	-33.1	13.8	1.81e-03	0	44	102	1048576	19	5220
2026-01-05 01:29:57.80	275.37	37.07	-30.2	-33.4	13.2	2.50e-03	0	43	102	1048576	20	5220
2026-01-05 01:30:00.83	274.24	36.73	-30.1	-33.3	13.2	2.48e-03	0	43	102	1048576	20	5194
2026-01-05 01:30:03.84	273.15	36.37	-29.9	-32.8	13.6	1.33e-03	0	43	102	1048576	20	5019
2026-01-05 01:30:06.86	272.07	36.01	-30.2	-33.5	13.1	1.99e-04	0	43	102	1048576	20	5273
2026-01-05 01:30:09.88	271.02	35.64	-30.0	-33.0	13.4	5.07e-04	0	43	102	1048576	20	5100
2026-01-05 01:30:12.89	270.00	35.26	-29.9	-33.0	13.8	2.48e-03	0	44	102	1048576	19	5197
2026-01-05 01:30:15.92	268.99	34.88	-30.1	-33.3	13.2	3.32e-03	0	43	102	1048576	20	5222
2026-01-05 01:30:18.95	268.01	34.49	-30.1	-33.3	13.2	2.96e-03	0	43	102	1048576	20	5212
2026-01-05 01:30:21.97	267.05	34.10	-30.3	-33.8	12.8	3.03e-03	0	43	102	1048576	20	5396
2026-01-05 01:30:24.98	266.12	33.71	-30.8	-34.8	11.8	3.24e-03	0	43	102	1048576	21	5723
2026-01-05 01:30:28.00	265.21	33.31	-31.1	-35.3	11.1	4.24e-03	0	43	102	1048576	22	5837
2026-01-05 01:30:31.03	264.32	32.90	-31.0	-34.9	11.4	9.35e-04	0	43	102	1048576	22	5657
2026-01-05 01:30:34.05	263.45	32.50	-31.3	-35.9	10.7	2.35e-03	0	43	102	1048576	22	6101
2026-01-05 01:30:37.07	262.60	32.09	-31.7	-36.9	9.5	1.18e-02	0	43	102	1048576	23	6541
2026-01-05 01:30:40.09	261.78	31.69	-31.4	-36.1	10.5	3.71e-03	0	43	102	1048576	22	6231
2026-01-05 01:30:43.10	260.98	31.28	-31.5	-36.5	10.2	7.47e-03	0	43	102	1048576	22	6411
2026-01-05 01:30:46.13	260.19	30.87	-31.5	-36.0	10.2	8.70e-03	0	43	102	1048576	23	6081
2026-01-05 01:30:49.15	259.43	30.46	-31.3	-35.5	10.5	4.71e-03	0	43	102	1048576	23	5845
2026-01-05 01:30:52.16	258.68	30.05	-31.2	-35.5	10.9	2.30e-03	0	43	102	1048576	22	5922
2026-01-05 01:30:55.18	257.96	29.64	-31.1	-35.3	11.0	2.09e-03	0	43	102	1048576	22	5847
2026-01-05 01:30:58.21	257.25	29.23	-30.8	-34.7	11.8	6.66e-04	0	43	102	1048576	21	5691
2026-01-05 01:31:01.23	256.56	28.83	-30.8	-34.9	11.6	7.22e-04	0	43	102	1048576	21	5778
2026-01-05 01:31:04.25	255.88	28.42	-30.6	-34.3	12.0	3.92e-04	0	43	102	1048576	21	5517
2026-01-05 01:31:07.26	255.23	28.02	-30.6	-34.4	12.0	3.51e-04	0	43	102	1048576	21	5539
2026-01-05 01:31:10.28	254.59	27.62	-30.4	-34.1	12.6	9.46e-05	0	44	102	1048576	20	5555
2026-01-05 01:31:13.31	253.97	27.22	-30.7	-34.6	11.8	5.52e-04	0	43	102	1048576	21	5635
2026-01-05 01:31:16.33	253.36	26.82	-30.7	-34.6	11.8	5.47e-04	0	43	102	1048576	21	5648
2026-01-05 01:31:19.34	252.77	26.43	-30.4	-34.1	12.5	1.41e-04	0	43	102	1048576	20	5544
2026-01-05 01:31:22.34	252.19	26.04	-30.5	-34.5	12.2	1.57e-04	0	43	102	1048576	20	5726
2026-01-05 01:31:25.37	251.63	25.64	-30.5	-34.2	12.1	4.12e-04	0	43	102	1048576	21	5475
2026-01-05 01:31:28.38	251.08	25.26	-30.5	-34.5	12.2	1.52e-04	0	43	102	1048576	20	5727
2026-01-05 01:31:31.40	250.54	24.87	-30.2	-33.7	12.7	2.90e-04	0	43	102	1048576	20	5392
2026-01-05 01:31:34.42	250.02	24.49	-30.5	-34.1	12.1	9.58e-04	0	43	102	1048576	21	5439
2026-01-05 01:31:37.43	249.51	24.11	-30.6	-34.5	11.8	1.90e-03	0	43	102	1048576	21	5603
2026-01-05 01:31:40.46	249.01	23.73	-30.4	-34.3	12.2	1.88e-03	0	43	102	1048576	20	5659
2026-01-05 01:31:43.48	248.52	23.36	-30.7	-34.7	11.6	2.31e-03	0	43	102	1048576	21	5698
2026-01-05 01:31:46.48	248.05	22.99	-30.6	-34.4	11.8	6.07e-04	0	43	102	1048576	21	5585
2026-01-05 01:31:49.50	247.58	22.63	-30.7	-34.8	11.5	1.08e-03	0	43	102	1048576	21	5771
2026-01-05 01:31:52.52	247.13	22.26	-30.7	-34.8	11.5	7.35e-04	0	43	102	1048576	21	5775
2026-01-05 01:31:55.54	246.69	21.90	-30.5	-34.3	11.8	4.31e-04	0	43	102	1048576	21	5531
2026-01-05 01:31:58.56	246.26	21.55	-30.7	-34.7	11.5	1.38e-03	0	43	102	1048576	21	5722
2026-01-05 01:32:01.58	245.83	21.19	-30.7	-35.0	11.3	1.42e-03	0	43	102	1048576	21	5863
2026-01-05 01:32:04.60	245.42	20.84	-30.7	-34.8	11.4	1.02e-03	0	43	102	1048576	21	5779
2026-01-05 01:32:07.62	245.02	20.49	-30.6	-34.6	11.5	7.88e-04	0	43	102	1048576	21	5706
2026-01-05 01:32:10.64	244.62	20.15	-30.6	-34.6	11.5	9.05e-04	0	43	102	1048576	21	5701
2026-01-05 01:32:13.65	244.24	19.81	-30.6	-34.7	11.4	8.14e-04	0	43	102	1048576	21	5732
2026-01-05 01:32:16.67	243.86	19.47	-30.7	-34.9	11.3	1.08e-03	0	43	102	1048576	21	5834
2026-01-05 01:32:19.69	243.49	19.14	-30.7	-35.0	11.2	1.41e-03	0	43	102	1048576	21	5876
2026-01-05 01:32:22.71	243.13	18.81	-30.6	-34.7	11.3	1.27e-03	0	43	102	1048576	21	5754
2026-01-05 01:32:25.72	242.78	18.48	-30.5	-34.7	11.4	7.25e-04	0	43	102	1048576	20	5836
2026-01-05 01:32:28.73	242.44	18.16	-30.7	-34.9	11.1	1.95e-03	0	43	102	1048576	21	5851
2026-01-05 01:32:31.76	242.10	17.83	-30.7	-35.0	11.1	1.74e-03	0	43	102	1048576	21	5886
2026-01-05 01:32:34.78	241.77	17.52	-30.7	-35.0	11.1	1.62e-03	0	44	102	1048576	21	5897
2026-01-05 01:32:37.79	241.45	17.20	-30.3	-34.3	11.7	4.92e-04	0	43	102	1048576	20	5690
2026-01-05 01:32:40.81	241.13	16.89	-30.4	-34.5	11.8	9.89e-04	0	43	102	1048576	20	5771
2026-01-05 01:32:43.82	240.82	16.58	-30.6	-34.7	11.3	4.70e-03	0	43	102	1048576	21	5771
2026-01-05 01:32:46.84	240.52	16.28	-30.4	-34.6	11.6	4.58e-03	0	43	102	1048576	20	5860
2026-01-05 01:32:49.86	240.22	15.97	-30.4	-34.7	11.4	1.30e-03	0	43	102	1048576	20	5907
2026-01-05 01:32:52.88	239.93	15.67	-30.1	-33.8	12.1	2.60e-04	0	43	102	1048576	20	5506
2026-01-05 01:32:55.90	239.65	15.37	-30.2	-33.9	12.1	2.83e-04	0	43	102	1048576	20	5547
2026-01-05 01:32:58.92	239.37	15.08	-30.4	-34.6	11.5	1.03e-03	0	43	102	1048576	20	5858
2026-01-05 01:33:01.94	239.09	14.79	-30.5	-34.9	11.3	1.48e-03	0	44	102	1048576	20	5998
2026-01-05 01:33:04.96	238.82	14.50	-30.5	-34.6	11.1	3.06e-03	0	43	102	1048576	21	5768
2026-01-05 01:33:07.98	238.56	14.21	-30.4	-34.8	11.4	2.94e-03	0	44	102	1048576	20	5936
2026-01-05 01:33:11.01	238.30	13.93	-30.4	-34.8	11.4	3.40e-03	0	44	102	1048576	20	5938
2026-01-05 01:33:14.03	238.05	13.65	-30.4	-34.7	11.4	3.35e-03	0	43	102	1048576	20	5916
2026-01-05 01:33:17.05	237.80	13.37	-30.4	-34.7	11.3	4.02e-03	0	43	102	1048576	20	5919
2026-01-05 01:33:20.07	237.56	13.10	-30.6	-34.9	10.8	2.74e-03	0	44	102	1048576	21	5921
2026-01-05 01:33:23.08	237.32	12.82	-30.6	-35.0	10.7	5.31e-03	0	43	102	1048576	21	5949
2026-01-05 01:33:26.10	237.08	12.55	-30.7	-35.3	10.5	7.08e-03	0	44	102	1048576	21	6116
2026-01-05 01:33:29.13	236.85	12.29	-30.7	-35.2	10.5	7.71e-03	0	43	102	1048576	21	6082
2026-01-05 01:33:32.16	236.63	12.02	-30.8	-35.7	10.1	7.88e-03	0	43	102	1048576	21	6358
2026-01-05 01:33:35.18	236.40	11.76	-30.8	-35.6	10.2	9.46e-03	0	43	102	1048576	21	6271
2026-01-05 01:33:38.20	236.19	11.50	-30.8	-35.7	10.1	6.20e-03	0	44	102	1048576	21	6345
2026-01-05 01:33:41.22	235.97	11.24	-30.8	-35.7	10.0	7.38e-03	0	44	102	1048576	21	6357
2026-01-05 01:33:44.23	235.76	10.98	-30.9	-36.2	9.7	9.18e-03	0	44	102	1048576	21	6597
2026-01-05 01:33:47.25	235.56	10.73	-30.8	-36.3	9.3	1.59e-02	0	44	102	1048576	21	6805
2026-01-05 01:33:50.26	235.36	10.48	-31.0	-36.1	9.2	1.91e-02	0	43	102	1048576	22	6477
2026-01-05 01:33:53.29	235.16	10.23	-31.1	-36.4	9.0	2.27e-02	0	44	102	1048576	22	6653
2026-01-05 01:33:56.31	234.96	9.98	-31.2	-36.9	8.6	3.70e-02	0	44	102	1048576	22	6974
2026-01-05 01:33:59.33	234.77	9.74	-29.9	-35.4	9.3	1.45e-02	0	44	102	1048576	21	6757
2026-01-05 01:34:02.35	234.58	9.49	-30.9	-36.2	9.5	1.52e-02	0	43	102	1048576	21	6675
2026-01-05 01:34:05.37	234.40	9.25	-31.0	-36.6	9.2	1.60e-02	0	43	102	1048576	21	6880
2026-01-05 01:34:08.40	234.21	9.01	-30.9	-36.4	9.3	1.82e-02	0	44	102	1048576	21	6765
2026-01-05 01:34:11.42	234.03	8.78	-31.1	-36.7	8.6	3.86e-02	0	44	102	1048576	22	6858
2026-01-05 01:34:14.44	233.86	8.54	-31.0	-36.7	9.0	2.25e-02	0	44	102	1048576	21	6984
2026-01-05 01:34:17.46	233.68	8.31	-30.9	-36.3	9.2	3.05e-02	0	44	102	1048576	21	6774
2026-01-05 01:34:20.47	233.52	8.08	-30.9	-36.7	8.9	3.30e-02	0	44	102	1048576	21	6994
2026-01-05 01:34:23.49	233.35	7.85	-31.1	-37.1	8.1	6.60e-02	0	44	102	1048576	22	7159
2026-01-05 01:34:26.51	233.18	7.62	-31.1	-37.2	8.1	6.87e-02	0	44	102	1048576	22	7231
2026-01-05 01:34:29.53	233.02	7.40	-31.0	-36.8	8.3	5.55e-02	0	43	102	1048576	22	6974
2026-01-05 01:34:32.55	232.86	7.17	-31.1	-37.0	8.2	5.55e-02	0	44	102	1048576	22	7089
2026-01-05 01:34:35.57	232.70	6.95	-33.1	-47.2	3.8	1.49e+00	0	44	104	1048576	26	18291

#Closed at: 2026-01-05 01:34:35
#Recorded file [1 MB]: D:/data/31010_260105_042315.dat