passes_logs/2026/01/05/R2M6_AANII_01/R2M6_AANII_01__20260105_152306_FENGYUN_3E_rec.log

#Pass ID: 20260105_152306_FENGYUN 3E
#Satellite: FENGYUN 3E
#Configuration: FENGYUN 3E
#almurnet v.1.7.20240730
#Start time: 2026-01-05 15:23:06

#Version: 2.2.20231116
#Station: R2M6_AANII_01
#Location: 30.233357 lon 59.946436 lat
#TLE: 1 49008U 21062A   26004.99925679  .00000018  00000+0  29282-4 0  9995
#TLE: 2 49008  98.7472  10.2448 0001540 159.6420 200.4818 14.19883565233423

#Time	Az	El	Level	Level2	SNR	BER	BlckErr	Temp	State	Recorded	gain1	gain2
2026-01-05 15:23:06.66	184.97	6.99	-26.4	-28.2	5.7	7.54e-01	0	41	0	0	12	4430
2026-01-05 15:23:09.68	185.12	7.21	-27.7	-29.9	10.8	1.76e-03	0	42	102	1048576	15	4597
2026-01-05 15:23:12.68	185.27	7.44	-26.7	-27.8	12.4	2.08e-04	0	42	102	1048576	14	4104
2026-01-05 15:23:15.70	185.42	7.67	-26.0	-27.2	13.3	1.37e-05	0	42	102	1048576	12	4161
2026-01-05 15:23:18.72	185.58	7.90	-26.1	-27.5	13.2	1.60e-05	0	42	102	1048576	12	4237
2026-01-05 15:23:21.74	185.74	8.13	-26.1	-27.4	13.2	4.23e-05	0	42	102	1048576	12	4215
2026-01-05 15:23:24.76	185.90	8.36	-25.8	-26.9	13.5	8.00e-06	0	42	102	1048576	12	4072
2026-01-05 15:23:27.79	186.06	8.60	-25.7	-26.5	13.7	2.20e-06	0	42	102	1048576	12	3990
2026-01-05 15:23:30.80	186.22	8.84	-25.6	-26.3	13.9	4.50e-06	0	42	102	1048576	12	3932
2026-01-05 15:23:33.83	186.39	9.08	-25.6	-27.0	13.8	0.00e+00	0	42	102	1048576	11	4210
2026-01-05 15:23:36.84	186.56	9.32	-25.6	-26.9	13.9	3.40e-06	0	43	102	1048576	11	4195
2026-01-05 15:23:39.87	186.73	9.56	-25.6	-26.9	13.9	3.40e-06	0	43	102	1048576	11	4191
2026-01-05 15:23:42.89	186.90	9.81	-25.7	-27.1	13.8	2.20e-06	0	43	102	1048576	11	4246
2026-01-05 15:23:45.91	187.08	10.06	-25.4	-26.4	14.3	1.10e-06	0	43	102	1048576	11	4048
2026-01-05 15:23:48.93	187.26	10.31	-25.1	-25.8	14.6	0.00e+00	0	43	102	1048576	11	3894
2026-01-05 15:23:51.96	187.45	10.56	-25.3	-26.2	14.4	1.10e-06	0	43	102	1048576	11	4000
2026-01-05 15:23:54.98	187.63	10.82	-25.1	-26.4	14.5	0.00e+00	0	43	102	1048576	10	4164
2026-01-05 15:23:58.00	187.82	11.08	-25.2	-26.6	14.5	0.00e+00	0	43	102	1048576	10	4211
2026-01-05 15:24:01.03	188.02	11.34	-25.2	-26.6	14.5	0.00e+00	0	43	102	1048576	10	4214
2026-01-05 15:24:04.05	188.21	11.60	-24.8	-25.8	14.9	0.00e+00	0	43	102	1048576	10	4005
2026-01-05 15:24:07.07	188.41	11.87	-25.2	-26.6	14.5	0.00e+00	0	43	102	1048576	10	4209
2026-01-05 15:24:10.07	188.61	12.13	-24.8	-25.6	15.0	1.10e-06	0	43	102	1048576	10	3974
2026-01-05 15:24:13.10	188.82	12.41	-24.7	-25.4	15.1	0.00e+00	0	43	102	1048576	10	3930
2026-01-05 15:24:16.11	189.03	12.68	-24.7	-25.6	15.0	0.00e+00	0	43	102	1048576	10	3977
2026-01-05 15:24:19.14	189.25	12.96	-24.8	-25.7	15.0	0.00e+00	0	43	102	1048576	10	4009
2026-01-05 15:24:22.15	189.46	13.23	-24.7	-25.6	15.0	0.00e+00	0	43	102	1048576	10	3987
2026-01-05 15:24:25.17	189.69	13.52	-24.6	-25.9	15.2	0.00e+00	0	43	102	1048576	9	4160
2026-01-05 15:24:28.19	189.91	13.80	-24.6	-25.8	15.2	0.00e+00	0	43	102	1048576	9	4146
2026-01-05 15:24:31.21	190.14	14.09	-24.4	-25.4	15.4	0.00e+00	0	43	102	1048576	9	4042
2026-01-05 15:24:34.23	190.38	14.38	-24.3	-25.2	15.6	0.00e+00	0	43	102	1048576	9	3985
2026-01-05 15:24:37.25	190.61	14.67	-24.2	-25.0	15.7	0.00e+00	0	44	102	1048576	9	3928
2026-01-05 15:24:40.27	190.86	14.97	-24.4	-25.4	15.5	0.00e+00	0	44	102	1048576	9	4044
2026-01-05 15:24:43.30	191.11	15.27	-24.3	-25.2	15.6	0.00e+00	0	44	102	1048576	9	3988
2026-01-05 15:24:46.32	191.36	15.58	-24.3	-25.2	15.6	0.00e+00	0	44	102	1048576	9	3974
2026-01-05 15:24:49.35	191.62	15.89	-24.5	-25.6	15.4	0.00e+00	0	44	102	1048576	9	4073
2026-01-05 15:24:52.37	191.88	16.20	-23.9	-24.7	16.1	0.00e+00	0	44	102	1048576	8	3971
2026-01-05 15:24:55.39	192.15	16.51	-23.8	-24.7	16.2	0.00e+00	0	44	102	1048576	8	3954
2026-01-05 15:24:58.41	192.42	16.83	-23.6	-24.7	16.4	0.00e+00	0	44	102	1048576	7	4069
2026-01-05 15:25:01.43	192.70	17.15	-23.5	-24.5	16.5	0.00e+00	0	44	102	1048576	7	4020
2026-01-05 15:25:04.45	192.99	17.47	-23.5	-24.4	16.6	2.20e-06	0	44	102	1048576	7	3985
2026-01-05 15:25:07.47	193.28	17.80	-23.5	-24.4	16.6	2.20e-06	0	44	102	1048576	7	3991
2026-01-05 15:25:10.49	193.58	18.13	-23.4	-24.1	16.8	0.00e+00	0	44	102	1048576	7	3899
2026-01-05 15:25:13.51	193.88	18.47	-23.3	-23.9	16.8	0.00e+00	0	44	102	1048576	7	3866
2026-01-05 15:25:16.53	194.19	18.81	-23.1	-23.6	17.0	0.00e+00	0	44	102	1048576	7	3798
2026-01-05 15:25:19.55	194.51	19.15	-23.1	-23.5	17.1	0.00e+00	0	44	102	1048576	7	3766
2026-01-05 15:25:22.56	194.83	19.50	-23.5	-24.4	16.6	0.00e+00	0	44	102	1048576	7	4003
2026-01-05 15:25:25.58	195.16	19.85	-23.1	-23.6	17.0	0.00e+00	0	44	102	1048576	7	3822
2026-01-05 15:25:28.60	195.50	20.21	-23.2	-24.4	16.8	0.00e+00	0	44	102	1048576	6	4127
2026-01-05 15:25:31.62	195.85	20.57	-23.3	-24.7	16.7	0.00e+00	0	44	102	1048576	6	4196
2026-01-05 15:25:34.64	196.20	20.93	-23.3	-24.1	16.7	0.00e+00	0	44	102	1048576	7	3951
2026-01-05 15:25:37.64	196.56	21.30	-23.2	-23.9	16.9	0.00e+00	0	44	102	1048576	7	3878
2026-01-05 15:25:40.66	196.94	21.67	-23.1	-24.1	17.0	0.00e+00	0	44	102	1048576	6	4039
2026-01-05 15:25:43.67	197.31	22.05	-23.0	-24.6	16.9	0.00e+00	0	44	102	1048576	5	4304
2026-01-05 15:25:46.69	197.70	22.43	-22.7	-23.8	17.4	0.00e+00	0	44	102	1048576	5	4089
2026-01-05 15:25:49.71	198.10	22.81	-22.7	-23.8	17.4	0.00e+00	0	44	102	1048576	5	4098
2026-01-05 15:25:52.73	198.51	23.21	-22.7	-23.8	17.4	0.00e+00	0	44	102	1048576	5	4083
2026-01-05 15:25:55.76	198.93	23.60	-22.8	-23.5	17.4	0.00e+00	0	44	102	1048576	6	3899
2026-01-05 15:25:58.79	199.36	24.00	-22.8	-23.4	17.5	0.00e+00	0	44	102	1048576	6	3870
2026-01-05 15:26:01.81	199.80	24.41	-22.8	-23.4	17.4	0.00e+00	0	44	102	1048576	6	3861
2026-01-05 15:26:04.83	200.25	24.81	-22.6	-23.5	17.6	0.00e+00	0	44	102	1048576	5	4011
2026-01-05 15:26:07.85	200.71	25.23	-22.4	-23.2	17.8	0.00e+00	0	44	102	1048576	5	3924
2026-01-05 15:26:10.87	201.19	25.64	-22.4	-23.0	17.8	0.00e+00	0	44	102	1048576	5	3891
2026-01-05 15:26:13.89	201.67	26.07	-22.4	-23.1	17.8	0.00e+00	0	44	102	1048576	5	3912
2026-01-05 15:26:16.91	202.17	26.49	-22.4	-23.0	17.8	0.00e+00	0	44	102	1048576	5	3887
2026-01-05 15:26:19.94	202.69	26.93	-22.5	-23.4	17.7	0.00e+00	0	44	102	1048576	5	3964
2026-01-05 15:26:22.96	203.21	27.36	-22.1	-22.5	18.2	0.00e+00	0	44	102	1048576	5	3757
2026-01-05 15:26:25.99	203.75	27.80	-22.2	-22.6	18.2	0.00e+00	0	44	102	1048576	5	3768
2026-01-05 15:26:29.01	204.31	28.25	-22.2	-22.6	18.2	0.00e+00	0	44	102	1048576	5	3772
2026-01-05 15:26:32.03	204.88	28.70	-22.1	-22.4	18.4	0.00e+00	0	44	102	1048576	5	3722
2026-01-05 15:26:35.05	205.47	29.15	-22.1	-22.4	18.3	0.00e+00	0	44	102	1048576	5	3742
2026-01-05 15:26:38.07	206.07	29.61	-22.2	-22.6	18.2	0.00e+00	0	44	102	1048576	5	3780
2026-01-05 15:26:41.08	206.69	30.07	-22.1	-22.5	18.3	0.00e+00	0	44	102	1048576	5	3757
2026-01-05 15:26:44.09	207.32	30.53	-22.2	-22.7	18.1	0.00e+00	0	44	102	1048576	5	3833
2026-01-05 15:26:47.11	207.98	31.00	-22.2	-22.8	18.0	0.00e+00	0	44	102	1048576	5	3862
2026-01-05 15:26:50.14	208.66	31.47	-22.0	-22.4	18.2	0.00e+00	0	44	102	1048576	5	3745
2026-01-05 15:26:53.15	209.35	31.94	-22.2	-22.6	18.1	0.00e+00	0	44	102	1048576	5	3793
2026-01-05 15:26:56.16	210.06	32.42	-22.1	-22.4	18.3	0.00e+00	0	44	102	1048576	5	3732
2026-01-05 15:26:59.18	210.80	32.90	-22.3	-22.7	18.2	0.00e+00	0	44	102	1048576	5	3810
2026-01-05 15:27:02.20	211.55	33.38	-22.0	-22.1	18.5	0.00e+00	0	44	102	1048576	5	3662
2026-01-05 15:27:05.21	212.33	33.87	-22.4	-22.5	19.0	0.00e+00	0	44	102	1048576	5	3634
2026-01-05 15:27:08.23	213.13	34.35	-22.8	-23.3	18.6	0.00e+00	0	44	102	1048576	5	3811
2026-01-05 15:27:11.26	213.96	34.84	-22.7	-23.1	18.7	0.00e+00	0	44	102	1048576	5	3773
2026-01-05 15:27:14.28	214.81	35.33	-23.2	-23.7	18.2	0.00e+00	0	44	102	1048576	6	3796
2026-01-05 15:27:17.30	215.69	35.82	-22.8	-22.8	18.7	0.00e+00	0	44	102	1048576	6	3590
2026-01-05 15:27:20.32	216.59	36.31	-22.8	-22.8	18.7	0.00e+00	0	44	102	1048576	6	3587
2026-01-05 15:27:23.35	217.53	36.80	-22.8	-22.8	18.7	0.00e+00	0	44	102	1048576	6	3593
2026-01-05 15:27:26.37	218.48	37.29	-22.9	-23.1	18.6	0.00e+00	0	44	102	1048576	6	3659
2026-01-05 15:27:29.38	219.47	37.78	-23.1	-23.5	18.3	0.00e+00	0	44	102	1048576	6	3747
2026-01-05 15:27:32.40	220.48	38.26	-23.0	-23.2	18.5	0.00e+00	0	44	102	1048576	6	3699
2026-01-05 15:27:35.42	221.53	38.74	-23.0	-23.2	18.5	0.00e+00	0	44	102	1048576	6	3683
2026-01-05 15:27:38.44	222.60	39.21	-23.1	-23.3	18.4	0.00e+00	0	44	102	1048576	6	3711
2026-01-05 15:27:41.46	223.71	39.68	-23.1	-23.4	18.4	0.00e+00	0	44	102	1048576	6	3723
2026-01-05 15:27:44.48	224.85	40.15	-23.1	-23.3	18.4	0.00e+00	0	44	102	1048576	6	3710
2026-01-05 15:27:47.50	226.02	40.61	-22.9	-23.1	18.6	2.20e-06	0	44	102	1048576	6	3657
2026-01-05 15:27:50.53	227.23	41.06	-23.0	-23.2	18.5	0.00e+00	0	44	102	1048576	6	3691
2026-01-05 15:27:53.54	228.47	41.50	-23.2	-23.5	18.3	0.00e+00	0	44	102	1048576	6	3763
2026-01-05 15:27:56.57	229.74	41.93	-23.2	-23.6	18.3	0.00e+00	0	44	102	1048576	6	3783
2026-01-05 15:27:59.59	231.05	42.35	-22.7	-22.5	18.9	0.00e+00	0	44	102	1048576	6	3531
2026-01-05 15:28:02.61	232.39	42.76	-23.1	-23.5	18.4	0.00e+00	0	44	102	1048576	6	3759
2026-01-05 15:28:05.62	233.75	43.16	-23.2	-23.6	18.4	0.00e+00	0	44	102	1048576	6	3780
2026-01-05 15:28:08.64	235.16	43.54	-23.2	-23.6	18.3	0.00e+00	0	44	102	1048576	6	3782
2026-01-05 15:28:11.65	236.59	43.90	-23.1	-23.4	18.5	0.00e+00	0	44	102	1048576	6	3723
2026-01-05 15:28:14.67	238.06	44.25	-23.1	-23.3	18.5	0.00e+00	0	44	102	1048576	6	3704
2026-01-05 15:28:17.69	239.56	44.58	-23.2	-23.7	18.3	0.00e+00	0	44	102	1048576	6	3798
2026-01-05 15:28:20.71	241.09	44.89	-23.2	-23.6	18.3	0.00e+00	0	44	102	1048576	6	3778
2026-01-05 15:28:23.73	242.65	45.18	-23.1	-23.4	18.5	0.00e+00	0	44	102	1048576	6	3730
2026-01-05 15:28:26.75	244.24	45.45	-24.3	-25.0	17.2	0.00e+00	0	44	102	1048576	8	3906
2026-01-05 15:28:29.77	245.86	45.70	-24.1	-24.6	17.4	0.00e+00	0	44	102	1048576	8	3804
2026-01-05 15:28:32.80	247.50	45.93	-24.0	-24.3	17.6	0.00e+00	0	44	102	1048576	8	3721
2026-01-05 15:28:35.81	249.15	46.12	-23.5	-23.1	18.2	0.00e+00	0	44	102	1048576	8	3472
2026-01-05 15:28:38.84	250.84	46.30	-23.3	-23.3	18.3	0.00e+00	0	44	102	1048576	7	3603
2026-01-05 15:28:41.86	252.53	46.45	-23.6	-23.9	17.9	0.00e+00	0	44	102	1048576	7	3742
2026-01-05 15:28:44.89	254.25	46.57	-23.4	-23.6	18.2	0.00e+00	0	44	102	1048576	7	3667
2026-01-05 15:28:47.91	255.97	46.66	-23.2	-23.2	18.4	0.00e+00	0	44	102	1048576	7	3572
2026-01-05 15:28:50.94	257.71	46.73	-23.6	-23.9	18.0	0.00e+00	0	44	102	1048576	7	3740
2026-01-05 15:28:53.95	259.44	46.77	-23.6	-24.0	18.0	0.00e+00	0	44	102	1048576	7	3771
2026-01-05 15:28:56.97	261.17	46.78	-23.2	-23.2	18.4	0.00e+00	0	44	102	1048576	7	3578
2026-01-05 15:28:59.99	262.91	46.76	-23.5	-23.7	18.1	0.00e+00	0	44	102	1048576	7	3683
2026-01-05 15:29:03.00	264.64	46.71	-23.4	-23.4	18.2	0.00e+00	0	44	102	1048576	7	3627
2026-01-05 15:29:06.03	266.37	46.64	-23.9	-24.5	17.7	0.00e+00	0	44	102	1048576	7	3874
2026-01-05 15:29:09.05	268.09	46.54	-23.4	-23.5	18.2	0.00e+00	0	44	102	1048576	7	3638
2026-01-05 15:29:12.07	269.80	46.41	-23.7	-24.1	17.9	0.00e+00	0	44	102	1048576	7	3791
2026-01-05 15:29:15.09	271.49	46.25	-23.6	-24.0	18.0	0.00e+00	0	44	102	1048576	7	3749
2026-01-05 15:29:18.11	273.16	46.07	-23.6	-23.9	18.0	0.00e+00	0	44	102	1048576	7	3732
2026-01-05 15:29:21.13	274.81	45.86	-23.9	-24.5	17.7	0.00e+00	0	44	102	1048576	7	3883
2026-01-05 15:29:24.15	276.44	45.63	-23.7	-24.1	17.8	0.00e+00	0	44	102	1048576	7	3784
2026-01-05 15:29:27.18	278.05	45.38	-24.1	-24.5	17.5	0.00e+00	0	44	102	1048576	8	3770
2026-01-05 15:29:30.20	279.62	45.10	-24.1	-24.5	17.5	0.00e+00	0	44	102	1048576	8	3763
2026-01-05 15:29:33.22	281.17	44.81	-23.8	-23.8	17.8	0.00e+00	0	44	102	1048576	8	3620
2026-01-05 15:29:36.24	282.69	44.49	-23.8	-23.8	17.8	0.00e+00	0	44	102	1048576	8	3619
2026-01-05 15:29:39.26	284.18	44.16	-23.4	-23.1	18.2	0.00e+00	0	44	102	1048576	8	3460
2026-01-05 15:29:42.27	285.63	43.80	-23.7	-24.1	17.9	0.00e+00	0	44	102	1048576	7	3779
2026-01-05 15:29:45.29	287.06	43.44	-23.1	-22.8	18.5	0.00e+00	0	44	102	1048576	7	3504
2026-01-05 15:29:48.31	288.45	43.05	-23.3	-23.2	18.4	0.00e+00	0	44	102	1048576	7	3591
2026-01-05 15:29:51.33	289.81	42.65	-23.4	-23.6	18.2	0.00e+00	0	44	102	1048576	7	3661
2026-01-05 15:29:54.35	291.14	42.24	-23.2	-23.2	18.4	0.00e+00	0	44	102	1048576	7	3583
2026-01-05 15:29:57.37	292.43	41.82	-23.3	-23.2	18.3	0.00e+00	0	44	102	1048576	7	3596
2026-01-05 15:30:00.39	293.69	41.39	-23.3	-23.3	18.2	0.00e+00	0	44	102	1048576	7	3603
2026-01-05 15:30:03.41	294.91	40.95	-23.3	-23.2	18.3	0.00e+00	0	44	102	1048576	7	3592
2026-01-05 15:30:06.44	296.11	40.49	-23.2	-23.0	18.4	0.00e+00	0	44	102	1048576	7	3548
2026-01-05 15:30:09.45	297.27	40.04	-23.1	-22.9	18.5	0.00e+00	0	44	102	1048576	7	3511
2026-01-05 15:30:12.47	298.39	39.57	-22.8	-22.8	18.8	0.00e+00	0	44	102	1048576	6	3596
2026-01-05 15:30:15.49	299.49	39.10	-23.0	-23.1	18.6	0.00e+00	0	44	102	1048576	6	3662
2026-01-05 15:30:18.51	300.56	38.63	-23.3	-23.9	18.2	0.00e+00	0	44	102	1048576	6	3836
2026-01-05 15:30:21.54	301.59	38.15	-23.0	-23.2	18.5	0.00e+00	0	44	102	1048576	6	3689
2026-01-05 15:30:24.55	302.59	37.67	-23.0	-23.2	18.6	0.00e+00	0	44	102	1048576	6	3678
2026-01-05 15:30:27.56	303.57	37.18	-23.0	-23.3	18.5	0.00e+00	0	44	102	1048576	6	3709
2026-01-05 15:30:30.59	304.52	36.70	-23.0	-23.3	18.5	0.00e+00	0	44	102	1048576	6	3712
2026-01-05 15:30:33.61	305.44	36.21	-22.9	-22.9	18.7	0.00e+00	0	44	102	1048576	6	3628
2026-01-05 15:30:36.63	306.33	35.72	-22.6	-22.3	19.0	0.00e+00	0	44	102	1048576	6	3492
2026-01-05 15:30:39.65	307.20	35.24	-22.7	-22.6	18.8	0.00e+00	0	44	102	1048576	6	3558
2026-01-05 15:30:42.67	308.04	34.75	-23.0	-23.3	18.5	0.00e+00	0	44	102	1048576	6	3706
2026-01-05 15:30:45.68	308.86	34.27	-23.4	-23.9	18.2	0.00e+00	0	44	102	1048576	6	3856
2026-01-05 15:30:48.70	309.65	33.78	-23.0	-23.3	18.5	0.00e+00	0	44	102	1048576	6	3704
2026-01-05 15:30:51.72	310.42	33.30	-22.9	-23.1	18.6	0.00e+00	0	44	102	1048576	6	3663
2026-01-05 15:30:54.74	311.17	32.82	-22.8	-22.8	18.7	0.00e+00	0	44	102	1048576	6	3590
2026-01-05 15:30:57.77	311.90	32.34	-22.8	-22.9	18.7	0.00e+00	0	44	102	1048576	6	3609
2026-01-05 15:31:00.79	312.61	31.87	-23.0	-23.2	18.5	0.00e+00	0	44	102	1048576	6	3679
2026-01-05 15:31:03.81	313.30	31.40	-23.2	-23.5	18.3	0.00e+00	0	44	102	1048576	6	3755
2026-01-05 15:31:06.84	313.97	30.93	-23.4	-24.0	18.1	0.00e+00	0	44	102	1048576	6	3871
2026-01-05 15:31:09.86	314.62	30.46	-23.4	-24.0	18.1	0.00e+00	0	44	102	1048576	6	3872
2026-01-05 15:31:12.88	315.25	30.00	-23.2	-23.6	18.2	0.00e+00	0	44	102	1048576	6	3780
2026-01-05 15:31:15.91	315.87	29.54	-23.2	-23.6	18.3	0.00e+00	0	44	102	1048576	6	3780
2026-01-05 15:31:18.92	316.46	29.09	-23.5	-24.3	17.9	0.00e+00	0	44	102	1048576	6	3930
2026-01-05 15:31:21.95	317.05	28.64	-23.4	-24.2	18.0	0.00e+00	0	44	102	1048576	6	3907
2026-01-05 15:31:24.97	317.61	28.20	-23.7	-24.1	17.7	0.00e+00	0	44	102	1048576	7	3789
2026-01-05 15:31:27.99	318.16	27.75	-23.3	-23.3	18.1	0.00e+00	0	44	102	1048576	7	3605
2026-01-05 15:31:31.02	318.70	27.32	-23.1	-22.9	18.3	0.00e+00	0	44	102	1048576	7	3519
2026-01-05 15:31:34.04	319.22	26.89	-22.9	-22.6	18.5	0.00e+00	0	44	102	1048576	7	3457
2026-01-05 15:31:37.07	319.73	26.46	-23.0	-22.6	18.4	0.00e+00	0	44	102	1048576	7	3464
2026-01-05 15:31:40.08	320.23	26.03	-23.1	-22.9	18.3	0.00e+00	0	44	102	1048576	7	3513
2026-01-05 15:31:43.10	320.71	25.62	-23.3	-23.3	18.1	0.00e+00	0	44	102	1048576	7	3606
2026-01-05 15:31:46.12	321.18	25.20	-23.3	-23.4	18.0	0.00e+00	0	44	102	1048576	7	3622
2026-01-05 15:31:49.14	321.64	24.79	-23.3	-23.3	18.1	0.00e+00	0	44	102	1048576	7	3612
2026-01-05 15:31:52.17	322.09	24.39	-23.4	-23.6	17.9	0.00e+00	0	44	102	1048576	7	3684
2026-01-05 15:31:55.18	322.52	23.99	-23.4	-23.6	17.9	0.00e+00	0	44	102	1048576	7	3675
2026-01-05 15:31:58.21	322.95	23.59	-23.5	-23.8	17.8	0.00e+00	0	44	102	1048576	7	3713
2026-01-05 15:32:01.22	323.36	23.20	-23.5	-23.8	17.7	0.00e+00	0	44	102	1048576	7	3727
2026-01-05 15:32:04.25	323.77	22.81	-23.6	-23.9	17.7	0.00e+00	0	44	102	1048576	7	3749
2026-01-05 15:32:07.26	324.17	22.43	-23.6	-24.1	17.6	0.00e+00	0	44	102	1048576	7	3783
2026-01-05 15:32:10.27	324.55	22.05	-23.6	-23.9	17.6	0.00e+00	0	44	102	1048576	7	3747
2026-01-05 15:32:13.30	324.93	21.68	-23.4	-23.6	17.8	0.00e+00	0	45	102	1048576	7	3686
2026-01-05 15:32:16.32	325.30	21.31	-23.6	-24.0	17.6	0.00e+00	0	44	102	1048576	7	3774
2026-01-05 15:32:19.34	325.66	20.94	-23.9	-24.5	17.3	0.00e+00	0	44	102	1048576	7	3892
2026-01-05 15:32:22.37	326.02	20.58	-23.9	-24.7	17.2	0.00e+00	0	44	102	1048576	7	3926
2026-01-05 15:32:25.39	326.36	20.23	-24.0	-24.4	17.1	0.00e+00	0	44	102	1048576	8	3758
2026-01-05 15:32:28.42	326.70	19.87	-24.1	-24.5	17.1	0.00e+00	0	44	102	1048576	8	3770
2026-01-05 15:32:31.44	327.03	19.52	-24.0	-24.4	17.1	0.00e+00	0	44	102	1048576	8	3748
2026-01-05 15:32:34.47	327.35	19.18	-24.2	-24.7	17.0	0.00e+00	0	44	102	1048576	8	3824
2026-01-05 15:32:37.49	327.67	18.84	-24.1	-24.6	17.0	0.00e+00	0	44	102	1048576	8	3790
2026-01-05 15:32:40.51	327.98	18.50	-24.1	-24.5	17.0	0.00e+00	0	44	102	1048576	8	3787
2026-01-05 15:32:43.53	328.28	18.17	-24.0	-24.4	17.1	0.00e+00	0	45	102	1048576	8	3746
2026-01-05 15:32:46.54	328.58	17.84	-24.2	-24.7	16.9	0.00e+00	0	44	102	1048576	8	3820
2026-01-05 15:32:49.56	328.87	17.51	-24.2	-24.9	16.8	0.00e+00	0	44	102	1048576	8	3863
2026-01-05 15:32:52.58	329.15	17.19	-24.4	-25.2	16.6	0.00e+00	0	44	102	1048576	8	3935
2026-01-05 15:32:55.61	329.43	16.87	-24.6	-25.1	16.4	0.00e+00	0	44	102	1048576	9	3826
2026-01-05 15:32:58.62	329.71	16.56	-24.7	-25.3	16.3	0.00e+00	0	44	102	1048576	9	3856
2026-01-05 15:33:01.65	329.98	16.24	-24.7	-25.4	16.2	0.00e+00	0	44	102	1048576	9	3901
2026-01-05 15:33:04.67	330.24	15.94	-24.9	-25.7	16.0	0.00e+00	0	44	102	1048576	9	3965
2026-01-05 15:33:07.69	330.50	15.63	-25.0	-25.9	15.9	0.00e+00	0	44	102	1048576	9	4009
2026-01-05 15:33:10.71	330.75	15.33	-25.0	-25.6	15.8	0.00e+00	0	44	102	1048576	10	3833
2026-01-05 15:33:13.71	331.00	15.03	-25.1	-25.8	15.7	0.00e+00	0	44	102	1048576	10	3878
2026-01-05 15:33:16.73	331.24	14.74	-25.0	-25.5	15.8	0.00e+00	0	44	102	1048576	10	3812
2026-01-05 15:33:19.75	331.48	14.45	-25.0	-25.5	15.8	0.00e+00	0	44	102	1048576	10	3814
2026-01-05 15:33:22.78	331.72	14.16	-25.1	-25.7	15.7	0.00e+00	0	44	102	1048576	10	3848
2026-01-05 15:33:25.80	331.95	13.87	-25.3	-26.2	15.4	0.00e+00	0	44	102	1048576	10	3985
2026-01-05 15:33:28.82	332.17	13.59	-25.5	-26.5	15.3	0.00e+00	0	44	102	1048576	10	4057
2026-01-05 15:33:31.84	332.40	13.31	-25.5	-26.1	15.1	0.00e+00	0	44	102	1048576	11	3864
2026-01-05 15:33:34.86	332.61	13.03	-25.5	-26.2	15.1	0.00e+00	0	44	102	1048576	11	3869
2026-01-05 15:33:37.89	332.83	12.76	-25.7	-26.4	15.0	0.00e+00	0	45	102	1048576	11	3931
2026-01-05 15:33:40.90	333.04	12.49	-25.6	-26.4	15.0	5.70e-06	0	44	102	1048576	11	3931
2026-01-05 15:33:43.92	333.25	12.22	-25.7	-26.5	14.9	0.00e+00	0	45	102	1048576	11	3950
2026-01-05 15:33:46.94	333.45	11.95	-25.8	-26.7	14.8	0.00e+00	0	44	102	1048576	11	4006
2026-01-05 15:33:49.95	333.65	11.69	-25.9	-27.0	14.6	0.00e+00	0	44	102	1048576	11	4080
2026-01-05 15:33:52.97	333.85	11.43	-26.0	-27.2	14.5	0.00e+00	0	44	102	1048576	11	4137
2026-01-05 15:33:56.00	334.04	11.17	-25.7	-26.6	14.8	1.10e-06	0	44	102	1048576	11	3990
2026-01-05 15:33:59.02	334.24	10.91	-25.8	-26.8	14.7	1.10e-06	0	44	102	1048576	11	4031
2026-01-05 15:34:02.04	334.42	10.66	-25.9	-26.9	14.6	0.00e+00	0	44	102	1048576	11	4057
2026-01-05 15:34:05.05	334.61	10.41	-26.0	-27.1	14.5	3.40e-06	0	44	102	1048576	11	4121
2026-01-05 15:34:08.07	334.79	10.16	-26.1	-27.0	14.2	2.20e-06	0	44	102	1048576	12	3979
2026-01-05 15:34:11.09	334.97	9.91	-26.1	-27.0	14.2	1.10e-06	0	44	102	1048576	12	3977
2026-01-05 15:34:14.11	335.15	9.66	-26.3	-27.4	13.9	0.00e+00	0	44	102	1048576	12	4079
2026-01-05 15:34:17.12	335.32	9.42	-26.2	-27.3	13.9	1.10e-06	0	45	102	1048576	12	4058
2026-01-05 15:34:20.14	335.49	9.18	-26.5	-27.8	13.6	8.00e-06	0	44	102	1048576	12	4210
2026-01-05 15:34:23.16	335.66	8.94	-26.8	-27.4	13.2	3.54e-05	0	44	102	1048576	14	3898
2026-01-05 15:34:26.18	335.82	8.71	-26.5	-26.9	13.6	6.80e-06	0	44	102	1048576	14	3759
2026-01-05 15:34:29.20	335.99	8.47	-26.7	-27.4	13.2	1.14e-05	0	44	102	1048576	14	3884
2026-01-05 15:34:32.22	336.15	8.24	-26.7	-27.4	13.2	2.05e-05	0	45	102	1048576	14	3905
2026-01-05 15:34:35.24	336.31	8.01	-26.9	-27.8	13.0	3.20e-05	0	44	102	1048576	14	3985
2026-01-05 15:34:38.27	336.47	7.78	-27.0	-28.0	12.8	5.83e-05	0	44	102	1048576	14	4060
2026-01-05 15:34:41.29	336.62	7.56	-26.8	-27.7	12.9	4.23e-05	0	44	102	1048576	14	3967
2026-01-05 15:34:44.31	336.77	7.33	-26.9	-27.9	12.8	4.69e-05	0	45	102	1048576	14	4028
2026-01-05 15:34:47.32	336.92	7.11	-28.7	-31.1	10.7	6.06e-05	0	44	102	1048576	16	4763

#Closed at: 2026-01-05 15:34:50
#Recorded file [1 MB]: D:/data/31010_260105_182308.dat