passes_logs/2026/01/05/R2M6_AANII_01/R2M6_AANII_01__20260105_084625_NOAA_21_JPSS-2_rec.log

#Pass ID: 20260105_084625_NOAA 21 (JPSS-2)
#Satellite: NOAA 21 (JPSS-2)
#Configuration: NOAA 21
#almurnet v.1.7.20240730
#Start time: 2026-01-05 08:46:25

#Version: 2.2.20231116
#Station: R2M6_AANII_01
#Location: 30.233357 lon 59.946436 lat
#TLE: 1 54234U 22150A   26004.22845673  .00000174  00000+0  10347-3 0  9996
#TLE: 2 54234  98.7489 305.2591 0001115 345.0884  15.0259 14.19531906163281

#Time	Az	El	Level	Level2	SNR	BER	BlckErr	Temp	State	Recorded	gain1	gain2
2026-01-05 08:46:25.01	112.49	6.99	-31.7	-40.9	3.8	1.49e+00	0	41	0	0	24	10364
2026-01-05 08:46:28.03	112.27	7.20	-30.9	-36.2	5.9	3.36e-01	0	41	102	1048576	23	6637
2026-01-05 08:46:31.05	112.04	7.41	-30.8	-36.1	6.3	2.31e-01	0	41	102	1048576	22	6641
2026-01-05 08:46:34.07	111.80	7.62	-30.9	-36.5	6.1	3.33e-01	0	41	102	1048576	22	6864
2026-01-05 08:46:37.08	111.57	7.83	-30.1	-33.7	8.4	5.88e-02	0	41	102	1048576	21	5504
2026-01-05 08:46:40.10	111.32	8.04	-29.3	-32.2	10.3	6.03e-03	0	41	102	1048576	19	5055
2026-01-05 08:46:43.12	111.08	8.26	-29.1	-31.7	10.7	3.04e-03	0	41	102	1048576	19	4864
2026-01-05 08:46:46.14	110.83	8.47	-28.8	-30.9	11.2	1.34e-03	0	42	102	1048576	19	4600
2026-01-05 08:46:49.17	110.58	8.69	-29.0	-31.9	11.0	2.20e-03	0	41	102	1048576	18	5022
2026-01-05 08:46:52.19	110.32	8.91	-28.4	-30.4	12.0	3.46e-04	0	42	102	1048576	18	4516
2026-01-05 08:46:55.21	110.06	9.13	-28.4	-30.2	12.2	2.38e-04	0	42	102	1048576	18	4433
2026-01-05 08:46:58.23	109.80	9.35	-28.4	-30.4	12.1	2.78e-04	0	42	102	1048576	18	4496
2026-01-05 08:47:01.25	109.53	9.58	-28.5	-30.5	12.1	2.88e-04	0	42	102	1048576	18	4548
2026-01-05 08:47:04.27	109.26	9.80	-28.5	-30.4	12.1	2.96e-04	0	42	102	1048576	18	4516
2026-01-05 08:47:07.30	108.98	10.03	-28.4	-30.2	12.3	1.61e-04	0	42	102	1048576	18	4442
2026-01-05 08:47:10.32	108.70	10.25	-28.4	-30.3	12.2	1.96e-04	0	42	102	1048576	18	4485
2026-01-05 08:47:13.34	108.41	10.48	-28.4	-30.1	12.4	1.46e-04	0	42	102	1048576	18	4419
2026-01-05 08:47:16.36	108.12	10.71	-28.4	-30.3	12.3	1.87e-04	0	42	102	1048576	18	4462
2026-01-05 08:47:19.39	107.82	10.94	-28.0	-29.6	13.1	3.73e-05	0	42	102	1048576	17	4336
2026-01-05 08:47:22.42	107.52	11.18	-28.0	-29.6	13.1	3.12e-05	0	42	102	1048576	17	4341
2026-01-05 08:47:25.43	107.22	11.41	-27.9	-29.3	13.3	1.75e-05	0	42	102	1048576	17	4253
2026-01-05 08:47:28.45	106.91	11.64	-27.9	-29.4	13.2	2.28e-05	0	42	102	1048576	17	4292
2026-01-05 08:47:31.47	106.59	11.88	-27.9	-29.4	13.3	2.13e-05	0	42	102	1048576	17	4278
2026-01-05 08:47:34.50	106.27	12.12	-27.7	-29.5	13.5	1.22e-05	0	42	102	1048576	16	4424
2026-01-05 08:47:37.51	105.95	12.36	-27.7	-29.4	13.6	6.80e-06	0	43	102	1048576	16	4371
2026-01-05 08:47:40.54	105.61	12.60	-27.6	-29.2	13.7	5.30e-06	0	42	102	1048576	16	4327
2026-01-05 08:47:43.56	105.28	12.84	-27.6	-29.2	13.8	2.20e-06	0	42	102	1048576	16	4328
2026-01-05 08:47:46.59	104.93	13.09	-27.7	-29.4	13.6	5.30e-06	0	43	102	1048576	16	4392
2026-01-05 08:47:49.61	104.58	13.33	-27.5	-28.8	14.0	2.20e-06	0	43	102	1048576	16	4220
2026-01-05 08:47:52.64	104.23	13.58	-27.5	-28.9	14.0	4.50e-06	0	43	102	1048576	16	4226
2026-01-05 08:47:55.65	103.87	13.83	-27.5	-28.8	14.0	7.00e-07	0	43	102	1048576	16	4217
2026-01-05 08:47:58.67	103.50	14.08	-27.4	-28.6	14.2	0.00e+00	0	43	102	1048576	16	4160
2026-01-05 08:48:01.69	103.13	14.33	-27.5	-29.0	14.0	5.30e-06	0	43	102	1048576	16	4267
2026-01-05 08:48:04.71	102.75	14.58	-27.5	-29.0	14.0	7.00e-07	0	43	102	1048576	16	4258
2026-01-05 08:48:07.74	102.36	14.83	-27.6	-29.0	14.0	3.80e-06	0	42	102	1048576	16	4265
2026-01-05 08:48:10.76	101.97	15.09	-27.6	-29.2	13.9	3.80e-06	0	43	102	1048576	16	4306
2026-01-05 08:48:13.79	101.57	15.35	-27.6	-29.1	14.0	0.00e+00	0	43	102	1048576	16	4274
2026-01-05 08:48:16.81	101.16	15.60	-27.7	-29.3	13.9	1.50e-06	0	43	102	1048576	16	4341
2026-01-05 08:48:19.83	100.74	15.86	-27.6	-29.2	14.0	3.80e-06	0	43	102	1048576	16	4296
2026-01-05 08:48:22.85	100.32	16.12	-27.6	-29.2	14.0	0.00e+00	0	43	102	1048576	16	4303
2026-01-05 08:48:25.86	99.90	16.38	-27.6	-29.1	14.1	2.20e-06	0	43	102	1048576	16	4272
2026-01-05 08:48:28.89	99.46	16.64	-27.6	-29.2	14.0	2.20e-06	0	43	102	1048576	16	4296
2026-01-05 08:48:31.90	99.01	16.91	-27.8	-29.5	13.8	3.80e-06	0	43	102	1048576	16	4399
2026-01-05 08:48:34.92	98.56	17.17	-27.7	-29.3	14.0	1.50e-06	0	43	102	1048576	16	4335
2026-01-05 08:48:37.94	98.10	17.44	-27.7	-29.4	14.0	1.50e-06	0	43	102	1048576	16	4353
2026-01-05 08:48:40.95	97.63	17.70	-27.8	-29.5	13.9	6.80e-06	0	43	102	1048576	16	4377
2026-01-05 08:48:43.98	97.15	17.97	-27.7	-29.4	14.0	3.80e-06	0	43	102	1048576	16	4357
2026-01-05 08:48:47.00	96.67	18.24	-27.8	-29.5	13.9	2.20e-06	0	43	102	1048576	16	4396
2026-01-05 08:48:50.02	96.17	18.51	-27.6	-29.1	14.2	3.80e-06	0	43	102	1048576	16	4265
2026-01-05 08:48:53.04	95.67	18.77	-27.7	-29.2	14.2	4.50e-06	0	43	102	1048576	16	4299
2026-01-05 08:48:56.05	95.16	19.04	-27.5	-28.9	14.3	0.00e+00	0	43	102	1048576	16	4203
2026-01-05 08:48:59.07	94.64	19.31	-27.5	-28.7	14.5	7.00e-07	0	43	102	1048576	16	4167
2026-01-05 08:49:02.09	94.11	19.58	-27.5	-28.7	14.5	0.00e+00	0	43	102	1048576	16	4151
2026-01-05 08:49:05.11	93.57	19.86	-27.7	-29.3	14.2	0.00e+00	0	43	102	1048576	16	4312
2026-01-05 08:49:08.12	93.02	20.13	-27.6	-29.0	14.3	7.00e-07	0	43	102	1048576	16	4242
2026-01-05 08:49:11.13	92.46	20.40	-27.6	-29.0	14.3	0.00e+00	0	43	102	1048576	16	4252
2026-01-05 08:49:14.14	91.89	20.67	-27.3	-28.4	14.7	0.00e+00	0	43	102	1048576	16	4067
2026-01-05 08:49:17.16	91.31	20.94	-27.1	-28.4	14.8	0.00e+00	0	43	102	1048576	15	4179
2026-01-05 08:49:20.17	90.72	21.21	-27.0	-28.3	14.9	0.00e+00	0	43	102	1048576	15	4150
2026-01-05 08:49:23.20	90.12	21.48	-27.2	-28.6	14.7	7.00e-07	0	43	102	1048576	15	4241
2026-01-05 08:49:26.21	89.51	21.75	-27.2	-28.7	14.7	7.00e-07	0	43	102	1048576	15	4263
2026-01-05 08:49:29.24	88.88	22.02	-27.1	-28.4	14.8	0.00e+00	0	43	102	1048576	15	4184
2026-01-05 08:49:32.26	88.25	22.29	-27.0	-28.2	15.0	0.00e+00	0	43	102	1048576	15	4138
2026-01-05 08:49:35.29	87.60	22.55	-27.0	-28.1	15.1	7.00e-07	0	43	102	1048576	15	4084
2026-01-05 08:49:38.30	86.94	22.82	-26.9	-27.9	15.2	0.00e+00	0	43	102	1048576	15	4050
2026-01-05 08:49:41.31	86.28	23.08	-26.9	-28.4	15.2	0.00e+00	0	43	102	1048576	14	4280
2026-01-05 08:49:44.33	85.60	23.35	-26.8	-28.2	15.3	0.00e+00	0	43	102	1048576	14	4220
2026-01-05 08:49:47.36	84.91	23.61	-27.0	-28.6	15.1	0.00e+00	0	43	102	1048576	14	4334
2026-01-05 08:49:50.37	84.21	23.87	-26.9	-28.4	15.2	7.00e-07	0	43	102	1048576	14	4285
2026-01-05 08:49:53.40	83.49	24.12	-27.2	-29.1	14.8	7.00e-07	0	43	102	1048576	14	4493
2026-01-05 08:49:56.42	82.76	24.38	-27.2	-29.0	14.9	0.00e+00	0	43	102	1048576	14	4461
2026-01-05 08:49:59.44	82.03	24.63	-27.2	-29.1	14.8	0.00e+00	0	43	102	1048576	14	4496
2026-01-05 08:50:02.46	81.28	24.88	-27.4	-29.2	14.5	0.00e+00	0	43	102	1048576	15	4386
2026-01-05 08:50:05.49	80.51	25.13	-27.3	-28.7	14.8	0.00e+00	0	43	102	1048576	15	4264
2026-01-05 08:50:08.51	79.74	25.37	-27.3	-28.8	14.8	1.50e-06	0	43	102	1048576	15	4273
2026-01-05 08:50:11.53	78.95	25.61	-27.3	-28.8	14.7	0.00e+00	0	43	102	1048576	15	4290
2026-01-05 08:50:14.56	78.15	25.84	-27.3	-28.8	14.8	0.00e+00	0	43	102	1048576	15	4275
2026-01-05 08:50:17.57	77.35	26.07	-27.4	-29.1	14.6	2.20e-06	0	43	102	1048576	15	4356
2026-01-05 08:50:20.59	76.53	26.30	-27.5	-29.2	14.6	7.00e-07	0	43	102	1048576	15	4399
2026-01-05 08:50:23.61	75.69	26.52	-27.5	-29.2	14.6	0.00e+00	0	43	102	1048576	15	4395
2026-01-05 08:50:26.63	74.85	26.74	-27.4	-29.1	14.6	7.00e-07	0	43	102	1048576	15	4354
2026-01-05 08:50:29.64	74.00	26.95	-27.1	-28.3	15.1	0.00e+00	0	43	102	1048576	15	4125
2026-01-05 08:50:32.67	73.13	27.16	-27.2	-28.6	14.9	0.00e+00	0	43	102	1048576	15	4220
2026-01-05 08:50:35.68	72.25	27.35	-27.3	-28.7	14.8	0.00e+00	0	43	102	1048576	15	4249
2026-01-05 08:50:38.69	71.37	27.55	-27.1	-28.4	15.0	7.00e-07	0	43	102	1048576	15	4168
2026-01-05 08:50:41.72	70.46	27.74	-27.3	-28.8	14.8	0.00e+00	0	43	102	1048576	15	4274
2026-01-05 08:50:44.74	69.55	27.92	-27.2	-28.5	15.0	0.00e+00	0	43	102	1048576	15	4190
2026-01-05 08:50:47.75	68.64	28.09	-27.0	-28.2	15.1	0.00e+00	0	43	102	1048576	15	4122
2026-01-05 08:50:50.77	67.71	28.26	-27.1	-28.4	15.0	0.00e+00	0	43	102	1048576	15	4160
2026-01-05 08:50:53.79	66.77	28.42	-27.3	-28.8	14.8	0.00e+00	0	43	102	1048576	15	4288
2026-01-05 08:50:56.82	65.82	28.57	-27.6	-29.5	14.4	1.50e-06	0	43	102	1048576	15	4492
2026-01-05 08:50:59.83	64.86	28.71	-27.6	-29.4	14.4	7.00e-07	0	43	102	1048576	15	4465
2026-01-05 08:51:02.85	63.90	28.84	-27.5	-29.3	14.5	1.50e-06	0	43	102	1048576	15	4415
2026-01-05 08:51:05.86	62.93	28.97	-27.5	-29.3	14.5	0.00e+00	0	43	102	1048576	15	4408
2026-01-05 08:51:08.89	61.94	29.09	-27.6	-29.4	14.5	0.00e+00	0	43	102	1048576	15	4453
2026-01-05 08:51:11.92	60.95	29.20	-27.9	-30.1	14.1	7.00e-07	0	43	102	1048576	15	4650
2026-01-05 08:51:14.94	59.96	29.30	-28.1	-30.0	14.0	4.50e-06	0	43	102	1048576	16	4523
2026-01-05 08:51:17.95	58.96	29.39	-27.8	-29.4	14.4	1.50e-06	0	43	102	1048576	16	4334
2026-01-05 08:51:20.97	57.96	29.47	-27.8	-29.4	14.3	7.00e-07	0	43	102	1048576	16	4341
2026-01-05 08:51:23.99	56.95	29.54	-27.7	-29.3	14.4	1.50e-06	0	43	102	1048576	16	4300
2026-01-05 08:51:27.01	55.93	29.60	-27.6	-28.9	14.7	0.00e+00	0	43	102	1048576	16	4193
2026-01-05 08:51:30.03	54.91	29.65	-28.0	-29.9	14.1	1.50e-06	0	43	102	1048576	16	4476
2026-01-05 08:51:33.05	53.89	29.69	-27.7	-29.2	14.5	7.00e-07	0	43	102	1048576	16	4277
2026-01-05 08:51:36.05	52.88	29.72	-27.7	-29.2	14.5	0.00e+00	0	43	102	1048576	16	4269
2026-01-05 08:51:39.07	51.85	29.74	-27.4	-28.5	14.9	0.00e+00	0	43	102	1048576	16	4096
2026-01-05 08:51:42.09	50.83	29.75	-27.1	-28.2	15.1	0.00e+00	0	43	102	1048576	15	4122
2026-01-05 08:51:45.11	49.80	29.75	-27.5	-29.2	14.6	0.00e+00	0	43	102	1048576	15	4391
2026-01-05 08:51:48.12	48.78	29.74	-27.5	-29.3	14.5	0.00e+00	0	43	102	1048576	15	4410
2026-01-05 08:51:51.14	47.76	29.72	-27.9	-30.3	14.0	1.50e-06	0	43	102	1048576	15	4722
2026-01-05 08:51:54.16	46.74	29.69	-27.9	-29.6	14.2	7.00e-07	0	43	102	1048576	16	4383
2026-01-05 08:51:57.17	45.72	29.65	-27.8	-29.4	14.3	1.50e-06	0	43	102	1048576	16	4325
2026-01-05 08:52:00.19	44.70	29.59	-27.7	-29.1	14.5	7.00e-07	0	43	102	1048576	16	4252
2026-01-05 08:52:03.21	43.69	29.53	-27.4	-28.5	14.8	0.00e+00	0	43	102	1048576	16	4071
2026-01-05 08:52:06.22	42.69	29.46	-27.5	-28.8	14.6	0.00e+00	0	43	102	1048576	16	4178
2026-01-05 08:52:09.24	41.68	29.38	-27.6	-29.0	14.5	7.00e-07	0	43	102	1048576	16	4230
2026-01-05 08:52:12.26	40.68	29.29	-27.5	-28.7	14.7	0.00e+00	0	43	102	1048576	16	4149
2026-01-05 08:52:15.29	39.69	29.19	-27.5	-28.7	14.7	0.00e+00	0	43	102	1048576	16	4148
2026-01-05 08:52:18.30	38.71	29.08	-27.5	-28.8	14.7	0.00e+00	0	43	102	1048576	16	4177
2026-01-05 08:52:21.32	37.73	28.97	-27.8	-29.4	14.3	1.50e-06	0	44	102	1048576	16	4336
2026-01-05 08:52:24.34	36.76	28.84	-28.0	-29.9	14.0	3.80e-06	0	43	102	1048576	16	4492
2026-01-05 08:52:27.37	35.79	28.71	-28.0	-29.9	14.0	7.00e-07	0	43	102	1048576	16	4486
2026-01-05 08:52:30.38	34.84	28.56	-27.7	-29.3	14.3	7.00e-07	0	43	102	1048576	16	4315
2026-01-05 08:52:33.40	33.89	28.41	-28.0	-29.9	14.0	2.20e-06	0	43	102	1048576	16	4474
2026-01-05 08:52:36.41	32.96	28.25	-27.8	-29.3	14.3	0.00e+00	0	43	102	1048576	16	4320
2026-01-05 08:52:39.43	32.03	28.09	-27.5	-28.8	14.7	7.00e-07	0	43	102	1048576	16	4165
2026-01-05 08:52:42.45	31.11	27.91	-27.7	-29.3	14.4	1.50e-06	0	43	102	1048576	16	4308
2026-01-05 08:52:45.47	30.20	27.73	-27.4	-28.5	14.8	0.00e+00	0	43	102	1048576	16	4103
2026-01-05 08:52:48.49	29.31	27.55	-27.0	-28.1	15.1	0.00e+00	0	43	102	1048576	15	4097
2026-01-05 08:52:51.52	28.42	27.35	-27.4	-29.1	14.6	0.00e+00	0	43	102	1048576	15	4369
2026-01-05 08:52:54.54	27.54	27.15	-27.9	-30.3	13.8	2.20e-06	0	43	102	1048576	15	4727
2026-01-05 08:52:57.56	26.68	26.95	-28.1	-30.2	13.8	5.30e-06	0	43	102	1048576	16	4584
2026-01-05 08:53:00.58	25.83	26.74	-27.6	-29.1	14.4	7.00e-07	0	43	102	1048576	16	4250
2026-01-05 08:53:03.61	24.98	26.52	-27.4	-28.5	14.7	0.00e+00	0	43	102	1048576	16	4095
2026-01-05 08:53:06.63	24.15	26.30	-26.9	-27.9	15.1	0.00e+00	0	43	102	1048576	15	4054
2026-01-05 08:53:09.65	23.34	26.07	-27.3	-28.8	14.7	0.00e+00	0	44	102	1048576	15	4276
2026-01-05 08:53:12.66	22.53	25.84	-27.3	-28.8	14.6	0.00e+00	0	43	102	1048576	15	4290
2026-01-05 08:53:15.69	21.74	25.61	-26.9	-27.9	15.2	0.00e+00	0	43	102	1048576	15	4036
2026-01-05 08:53:18.70	20.96	25.37	-27.1	-28.9	14.9	0.00e+00	0	43	102	1048576	14	4414
2026-01-05 08:53:21.72	20.19	25.13	-27.6	-29.6	14.2	7.00e-07	0	43	102	1048576	15	4511
2026-01-05 08:53:24.74	19.43	24.88	-27.2	-28.7	14.7	0.00e+00	0	43	102	1048576	15	4255
2026-01-05 08:53:27.75	18.69	24.64	-27.2	-28.5	14.8	0.00e+00	0	43	102	1048576	15	4210
2026-01-05 08:53:30.78	17.95	24.38	-27.4	-29.2	14.4	2.20e-06	0	43	102	1048576	15	4408
2026-01-05 08:53:33.79	17.23	24.13	-26.9	-27.8	15.1	0.00e+00	0	43	102	1048576	15	4030
2026-01-05 08:53:36.81	16.52	23.87	-26.7	-28.1	15.3	0.00e+00	0	43	102	1048576	14	4199
2026-01-05 08:53:39.83	15.82	23.62	-27.2	-29.2	14.6	0.00e+00	0	43	102	1048576	14	4522
2026-01-05 08:53:42.85	15.13	23.36	-27.3	-29.5	14.5	7.00e-07	0	43	102	1048576	14	4596
2026-01-05 08:53:45.86	14.46	23.10	-27.1	-29.0	14.7	0.00e+00	0	43	102	1048576	14	4446
2026-01-05 08:53:48.89	13.79	22.83	-27.1	-28.8	14.7	7.00e-07	0	43	102	1048576	14	4409
2026-01-05 08:53:51.91	13.14	22.57	-26.9	-28.5	15.0	7.00e-07	0	43	102	1048576	14	4315
2026-01-05 08:53:54.92	12.50	22.30	-26.9	-28.5	15.0	0.00e+00	0	43	102	1048576	14	4315
2026-01-05 08:53:57.95	11.87	22.03	-27.0	-28.7	14.9	1.50e-06	0	43	102	1048576	14	4366
2026-01-05 08:54:00.97	11.25	21.77	-27.2	-29.2	14.6	0.00e+00	0	43	102	1048576	14	4530
2026-01-05 08:54:03.98	10.64	21.50	-27.1	-29.0	14.7	0.00e+00	0	43	102	1048576	14	4459
2026-01-05 08:54:07.00	10.04	21.23	-27.2	-29.1	14.6	0.00e+00	0	43	102	1048576	14	4488
2026-01-05 08:54:10.03	9.45	20.96	-27.1	-29.0	14.7	7.00e-07	0	43	102	1048576	14	4448
2026-01-05 08:54:13.04	8.88	20.69	-27.4	-29.5	14.4	0.00e+00	0	43	102	1048576	14	4617
2026-01-05 08:54:16.06	8.31	20.42	-27.3	-29.4	14.5	0.00e+00	0	43	102	1048576	14	4578
2026-01-05 08:54:19.08	7.75	20.15	-27.2	-29.2	14.6	0.00e+00	0	43	102	1048576	14	4510
2026-01-05 08:54:22.09	7.21	19.88	-26.9	-28.4	15.0	0.00e+00	0	43	102	1048576	14	4302
2026-01-05 08:54:25.11	6.67	19.61	-26.8	-28.2	15.1	0.00e+00	0	43	102	1048576	14	4222
2026-01-05 08:54:28.12	6.14	19.34	-26.7	-28.1	15.2	0.00e+00	0	43	102	1048576	14	4202
2026-01-05 08:54:31.14	5.62	19.07	-27.1	-28.9	14.7	0.00e+00	0	43	102	1048576	14	4451
2026-01-05 08:54:34.16	5.11	18.80	-27.4	-29.2	14.3	7.00e-07	0	43	102	1048576	15	4428
2026-01-05 08:54:37.19	4.61	18.54	-27.3	-28.9	14.4	7.00e-07	0	43	102	1048576	15	4320
2026-01-05 08:54:40.21	4.12	18.27	-27.4	-29.2	14.2	7.00e-07	0	43	102	1048576	15	4407
2026-01-05 08:54:43.23	3.64	18.00	-27.6	-29.6	14.0	2.20e-06	0	43	102	1048576	15	4543
2026-01-05 08:54:46.26	3.16	17.74	-27.8	-30.1	13.7	6.80e-06	0	43	102	1048576	15	4702
2026-01-05 08:54:49.28	2.70	17.47	-27.7	-30.0	13.7	3.80e-06	0	43	102	1048576	15	4652
2026-01-05 08:54:52.29	2.24	17.21	-27.6	-29.5	14.0	4.50e-06	0	43	102	1048576	15	4526
2026-01-05 08:54:55.31	1.79	16.94	-27.7	-29.8	13.8	5.30e-06	0	43	102	1048576	15	4607
2026-01-05 08:54:58.32	1.35	16.68	-27.7	-29.8	13.8	6.10e-06	0	43	102	1048576	15	4609
2026-01-05 08:55:01.34	0.92	16.42	-27.8	-30.2	13.5	9.10e-06	0	43	102	1048576	15	4745
2026-01-05 08:55:04.36	0.49	16.16	-27.8	-30.1	13.6	7.60e-06	0	43	102	1048576	15	4691
2026-01-05 08:55:07.38	0.07	15.90	-27.8	-30.1	13.6	9.10e-06	0	43	102	1048576	15	4690
2026-01-05 08:55:10.41	359.66	15.65	-27.7	-29.8	13.7	9.10e-06	0	43	102	1048576	15	4620
2026-01-05 08:55:13.43	359.26	15.39	-27.7	-29.9	13.7	8.30e-06	0	43	102	1048576	15	4648
2026-01-05 08:55:16.45	358.86	15.13	-27.9	-30.3	13.4	1.22e-05	0	43	102	1048576	15	4780
2026-01-05 08:55:19.47	358.47	14.88	-27.9	-30.4	13.3	1.44e-05	0	43	102	1048576	15	4815
2026-01-05 08:55:22.49	358.09	14.63	-28.1	-30.4	13.3	2.51e-05	0	43	102	1048576	16	4664
2026-01-05 08:55:25.52	357.71	14.38	-27.6	-29.2	13.9	5.30e-06	0	43	102	1048576	16	4325
2026-01-05 08:55:28.54	357.34	14.13	-27.6	-29.1	13.9	4.50e-06	0	43	102	1048576	16	4292
2026-01-05 08:55:31.56	356.97	13.88	-27.7	-29.5	13.7	3.00e-06	0	43	102	1048576	16	4389
2026-01-05 08:55:34.58	356.62	13.63	-28.0	-30.1	13.3	1.75e-05	0	43	102	1048576	16	4592
2026-01-05 08:55:37.60	356.27	13.39	-28.2	-30.6	13.0	2.82e-05	0	43	102	1048576	16	4752
2026-01-05 08:55:40.62	355.92	13.14	-28.3	-30.8	12.9	6.71e-05	0	43	102	1048576	16	4804
2026-01-05 08:55:43.64	355.58	12.90	-28.4	-31.1	12.6	8.62e-05	0	43	102	1048576	16	4916
2026-01-05 08:55:46.66	355.25	12.66	-28.0	-30.2	13.1	2.51e-05	0	43	102	1048576	16	4630
2026-01-05 08:55:49.68	354.92	12.42	-28.1	-30.3	13.1	4.42e-05	0	43	102	1048576	16	4656
2026-01-05 08:55:52.71	354.59	12.18	-28.2	-30.8	12.8	7.09e-05	0	43	102	1048576	16	4813
2026-01-05 08:55:55.72	354.28	11.94	-28.4	-31.2	12.5	1.38e-04	0	43	102	1048576	16	4977
2026-01-05 08:55:58.74	353.96	11.71	-28.6	-31.2	12.1	2.45e-04	0	43	102	1048576	17	4859
2026-01-05 08:56:01.77	353.66	11.47	-28.7	-31.4	11.9	3.84e-04	0	43	102	1048576	17	4936
2026-01-05 08:56:04.79	353.35	11.24	-28.8	-31.8	11.7	5.07e-04	0	43	102	1048576	17	5085
2026-01-05 08:56:07.81	353.06	11.01	-28.6	-30.8	12.0	3.35e-04	0	43	102	1048576	18	4608
2026-01-05 08:56:10.84	352.76	10.78	-28.5	-30.3	12.3	1.53e-04	0	44	102	1048576	18	4476
2026-01-05 08:56:13.86	352.47	10.55	-28.4	-30.1	12.4	1.39e-04	0	43	102	1048576	18	4403
2026-01-05 08:56:16.88	352.19	10.32	-28.4	-30.1	12.4	1.42e-04	0	43	102	1048576	18	4408
2026-01-05 08:56:19.89	351.91	10.09	-28.6	-30.6	12.1	2.50e-04	0	43	102	1048576	18	4561
2026-01-05 08:56:22.90	351.64	9.87	-28.8	-31.3	11.6	6.30e-04	0	44	102	1048576	18	4790
2026-01-05 08:56:25.93	351.37	9.65	-29.0	-31.8	11.3	1.25e-03	0	44	102	1048576	18	4970
2026-01-05 08:56:28.94	351.11	9.43	-29.1	-32.0	11.1	1.54e-03	0	43	102	1048576	18	5049
2026-01-05 08:56:31.95	350.84	9.21	-29.0	-31.8	11.2	1.39e-03	0	44	102	1048576	18	4993
2026-01-05 08:56:34.97	350.59	8.99	-28.8	-31.5	11.4	9.54e-04	0	44	102	1048576	18	4863
2026-01-05 08:56:37.99	350.33	8.77	-28.3	-30.0	12.3	2.22e-04	0	44	102	1048576	18	4382
2026-01-05 08:56:41.01	350.08	8.55	-28.3	-30.6	12.1	2.38e-04	0	43	102	1048576	17	4698
2026-01-05 08:56:44.02	349.84	8.34	-28.0	-29.9	12.6	8.77e-05	0	44	102	1048576	17	4460
2026-01-05 08:56:46.90	349.61	8.13	-28.0	-29.8	12.6	7.78e-05	0	43	102	1048576	17	4439
2026-01-05 08:56:50.07	349.36	7.91	-28.2	-30.3	12.3	1.58e-04	0	44	102	1048576	17	4594
2026-01-05 08:56:52.94	349.13	7.71	-28.3	-30.5	12.1	2.49e-04	0	44	102	1048576	17	4677
2026-01-05 08:56:56.11	348.89	7.49	-28.4	-30.8	11.9	3.69e-04	0	44	102	1048576	17	4778
2026-01-05 08:56:58.98	348.68	7.29	-28.5	-31.2	11.6	5.87e-04	0	44	102	1048576	17	4912
2026-01-05 08:57:02.15	348.44	7.07	-29.4	-33.2	10.2	4.87e-04	0	44	102	1048576	18	5552
2026-01-05 08:57:05.03	348.23	6.88	-32.9	-45.1	3.8	1.49e+00	0	43	104	1048576	25	14696

#Closed at: 2026-01-05 08:57:05
#Recorded file [1 MB]: D:/data/31010_260105_114626.dat