passes_logs/2026/01/05/R2M6_AANII_01/R2M6_AANII_01__20260105_230325_SUOMI_NPP_rec.log

#Pass ID: 20260105_230325_SUOMI NPP
#Satellite: SUOMI NPP
#Configuration: NPP
#almurnet v.1.7.20240730
#Start time: 2026-01-05 23:03:24

#Version: 2.2.20231116
#Station: R2M6_AANII_01
#Location: 30.233357 lon 59.946436 lat
#TLE: 1 37849U 11061A   26004.95404768  .00000136  00000+0  85334-4 0  9991
#TLE: 2 37849  98.7801 307.0898 0002575  80.6707 279.4760 14.19522289735281

#Time	Az	El	Level	Level2	SNR	BER	BlckErr	Temp	State	Recorded	gain1	gain2
2026-01-05 23:03:24.77	27.47	6.97	-30.7	-34.6	5.3	1.20e+00	0	41	0	0	21	5602
2026-01-05 23:03:27.78	27.72	7.17	-31.7	-37.7	6.3	2.82e-01	0	41	102	1048576	23	7174
2026-01-05 23:03:30.81	27.96	7.38	-31.6	-36.8	7.0	1.53e-01	0	41	102	1048576	23	6532
2026-01-05 23:03:33.83	28.21	7.58	-31.1	-35.1	8.7	3.62e-02	0	41	102	1048576	22	5701
2026-01-05 23:03:36.86	28.46	7.79	-30.9	-34.6	9.5	9.98e-03	0	41	102	1048576	21	5525
2026-01-05 23:03:39.88	28.72	7.99	-30.3	-33.1	10.8	2.61e-03	0	41	102	1048576	20	4966
2026-01-05 23:03:42.89	28.98	8.20	-30.2	-32.8	10.9	1.37e-03	0	41	102	1048576	20	4865
2026-01-05 23:03:45.92	29.24	8.41	-30.3	-33.0	11.1	1.08e-03	0	42	102	1048576	20	4935
2026-01-05 23:03:48.94	29.51	8.62	-30.1	-32.5	11.5	4.98e-04	0	42	102	1048576	20	4735
2026-01-05 23:03:51.97	29.78	8.83	-30.1	-32.6	11.5	6.08e-04	0	42	102	1048576	20	4768
2026-01-05 23:03:54.99	30.05	9.05	-30.1	-32.3	11.7	7.16e-04	0	42	102	1048576	20	4661
2026-01-05 23:03:58.01	30.33	9.26	-30.1	-32.3	11.8	2.27e-03	0	42	102	1048576	20	4655
2026-01-05 23:04:01.03	30.61	9.48	-30.0	-32.0	12.0	1.82e-03	0	42	102	1048576	20	4550
2026-01-05 23:04:04.05	30.90	9.69	-30.0	-32.5	12.1	1.45e-03	0	42	102	1048576	19	4792
2026-01-05 23:04:07.07	31.19	9.91	-30.0	-32.3	12.3	1.83e-04	0	42	102	1048576	19	4737
2026-01-05 23:04:10.09	31.48	10.13	-29.9	-32.3	12.3	1.39e-04	0	42	102	1048576	19	4726
2026-01-05 23:04:13.12	31.78	10.35	-29.8	-31.8	12.6	8.31e-05	0	42	102	1048576	19	4546
2026-01-05 23:04:16.14	32.08	10.58	-29.9	-32.1	12.4	1.85e-04	0	42	102	1048576	19	4663
2026-01-05 23:04:19.16	32.39	10.80	-30.2	-32.5	11.8	1.78e-03	0	43	102	1048576	20	4716
2026-01-05 23:04:22.17	32.70	11.02	-30.2	-32.6	11.7	2.08e-03	0	42	102	1048576	20	4754
2026-01-05 23:04:25.19	33.02	11.25	-30.3	-32.9	11.5	2.04e-03	0	42	102	1048576	20	4852
2026-01-05 23:04:28.21	33.34	11.48	-30.2	-32.6	11.8	1.23e-03	0	42	102	1048576	20	4726
2026-01-05 23:04:31.22	33.66	11.71	-30.3	-32.9	11.6	1.40e-03	0	43	102	1048576	20	4853
2026-01-05 23:04:34.24	33.99	11.94	-30.0	-32.1	12.2	8.70e-04	0	42	102	1048576	20	4575
2026-01-05 23:04:37.26	34.33	12.17	-29.9	-31.8	12.3	6.16e-04	0	43	102	1048576	20	4458
2026-01-05 23:04:40.29	34.67	12.40	-29.8	-31.5	12.6	1.11e-04	0	42	102	1048576	20	4355
2026-01-05 23:04:43.30	35.01	12.63	-30.1	-32.2	12.1	7.57e-04	0	43	102	1048576	20	4609
2026-01-05 23:04:46.32	35.36	12.87	-30.1	-32.3	12.1	9.56e-04	0	43	102	1048576	20	4619
2026-01-05 23:04:49.34	35.72	13.11	-29.9	-31.7	12.5	4.94e-04	0	43	102	1048576	20	4402
2026-01-05 23:04:52.36	36.08	13.35	-30.1	-32.2	12.2	4.32e-04	0	43	102	1048576	20	4565
2026-01-05 23:04:55.39	36.45	13.59	-29.8	-31.2	12.7	2.87e-04	0	43	102	1048576	20	4260
2026-01-05 23:04:58.40	36.82	13.83	-29.7	-31.4	13.1	2.03e-04	0	43	102	1048576	19	4413
2026-01-05 23:05:01.43	37.20	14.07	-29.5	-31.0	13.4	1.06e-05	0	43	102	1048576	19	4267
2026-01-05 23:05:04.45	37.59	14.31	-29.8	-31.8	12.9	3.28e-05	0	43	102	1048576	19	4540
2026-01-05 23:05:07.48	37.98	14.56	-29.9	-31.9	12.8	1.09e-04	0	43	102	1048576	19	4562
2026-01-05 23:05:10.51	38.38	14.81	-29.9	-31.6	12.7	7.70e-05	0	43	102	1048576	20	4369
2026-01-05 23:05:13.52	38.78	15.05	-29.9	-31.6	12.7	1.07e-04	0	43	102	1048576	20	4382
2026-01-05 23:05:16.54	39.19	15.30	-29.8	-31.3	12.9	5.41e-05	0	43	102	1048576	20	4281
2026-01-05 23:05:19.55	39.61	15.55	-29.9	-31.4	12.9	1.58e-04	0	43	102	1048576	20	4307
2026-01-05 23:05:22.57	40.04	15.80	-29.8	-31.7	13.1	2.51e-05	0	43	102	1048576	19	4469
2026-01-05 23:05:25.60	40.47	16.06	-29.7	-31.5	13.3	2.59e-05	0	43	102	1048576	19	4395
2026-01-05 23:05:28.61	40.91	16.31	-29.5	-30.9	13.7	3.80e-06	0	43	102	1048576	19	4209
2026-01-05 23:05:31.63	41.35	16.56	-29.6	-31.0	13.7	4.50e-06	0	43	102	1048576	19	4230
2026-01-05 23:05:34.65	41.80	16.82	-29.3	-30.3	14.1	7.00e-07	0	43	102	1048576	19	4027
2026-01-05 23:05:37.66	42.26	17.07	-29.3	-30.2	14.1	0.00e+00	0	43	102	1048576	19	4018
2026-01-05 23:05:40.67	42.73	17.33	-29.4	-30.5	14.0	1.52e-05	0	43	102	1048576	19	4086
2026-01-05 23:05:43.70	43.21	17.59	-29.0	-29.6	14.6	0.00e+00	0	43	102	1048576	19	3832
2026-01-05 23:05:46.72	43.69	17.85	-29.2	-30.0	14.3	1.50e-06	0	43	102	1048576	19	3938
2026-01-05 23:05:49.75	44.19	18.11	-29.1	-29.6	14.5	8.16e-05	0	43	102	1048576	19	3842
2026-01-05 23:05:52.77	44.69	18.37	-29.1	-29.9	14.4	7.00e-07	0	43	102	1048576	19	3911
2026-01-05 23:05:55.78	45.19	18.63	-29.0	-29.6	14.6	0.00e+00	0	43	102	1048576	19	3830
2026-01-05 23:05:58.80	45.71	18.89	-29.0	-29.5	14.6	8.08e-05	0	43	102	1048576	19	3816
2026-01-05 23:06:01.83	46.24	19.16	-28.9	-29.8	14.8	0.00e+00	0	43	102	1048576	18	3986
2026-01-05 23:06:04.85	46.77	19.42	-29.0	-29.9	14.7	0.00e+00	0	43	102	1048576	18	4000
2026-01-05 23:06:07.87	47.32	19.68	-28.9	-29.8	14.8	3.00e-06	0	43	102	1048576	18	3980
2026-01-05 23:06:10.89	47.87	19.95	-29.2	-30.4	14.4	0.00e+00	0	43	102	1048576	18	4156
2026-01-05 23:06:13.91	48.43	20.21	-29.0	-30.1	14.6	7.00e-07	0	43	102	1048576	18	4060
2026-01-05 23:06:16.93	49.01	20.47	-28.6	-29.6	15.2	0.00e+00	0	43	102	1048576	17	4014
2026-01-05 23:06:19.95	49.59	20.74	-28.6	-29.4	15.3	0.00e+00	0	43	102	1048576	17	3961
2026-01-05 23:06:22.97	50.18	21.00	-28.6	-29.5	15.3	7.00e-07	0	43	102	1048576	17	3989
2026-01-05 23:06:25.99	50.78	21.27	-28.6	-29.5	15.3	0.00e+00	0	43	102	1048576	17	3998
2026-01-05 23:06:29.01	51.39	21.53	-29.0	-30.3	14.8	9.10e-06	0	43	102	1048576	17	4227
2026-01-05 23:06:32.04	52.02	21.79	-29.3	-30.6	14.3	0.00e+00	0	43	102	1048576	18	4214
2026-01-05 23:06:35.06	52.65	22.05	-29.0	-30.0	14.7	7.00e-07	0	43	102	1048576	18	4030
2026-01-05 23:06:38.07	53.29	22.31	-29.0	-30.0	14.7	0.00e+00	0	43	102	1048576	18	4042
2026-01-05 23:06:41.10	53.95	22.57	-29.2	-30.3	14.5	0.00e+00	0	43	102	1048576	18	4120
2026-01-05 23:06:44.12	54.61	22.83	-29.2	-30.4	14.5	0.00e+00	0	43	102	1048576	18	4154
2026-01-05 23:06:47.15	55.29	23.09	-29.3	-30.6	14.3	7.00e-07	0	43	102	1048576	18	4212
2026-01-05 23:06:50.17	55.98	23.35	-29.5	-30.8	14.0	2.20e-06	0	43	102	1048576	19	4153
2026-01-05 23:06:53.20	56.68	23.60	-29.7	-31.1	13.8	7.00e-07	0	43	102	1048576	19	4258
2026-01-05 23:06:56.22	57.39	23.85	-29.4	-30.3	14.2	0.00e+00	0	43	102	1048576	19	4024
2026-01-05 23:06:59.24	58.11	24.10	-29.5	-30.7	14.0	7.00e-07	0	43	102	1048576	19	4136
2026-01-05 23:07:02.26	58.84	24.35	-29.9	-31.7	13.4	7.60e-06	0	43	102	1048576	19	4441
2026-01-05 23:07:05.28	59.58	24.60	-29.9	-31.2	13.4	1.60e-05	0	43	102	1048576	20	4199
2026-01-05 23:07:08.30	60.33	24.84	-29.7	-30.7	13.7	3.00e-06	0	43	102	1048576	20	4049
2026-01-05 23:07:11.32	61.10	25.08	-29.6	-30.8	14.0	4.50e-06	0	43	102	1048576	19	4165
2026-01-05 23:07:14.33	61.87	25.31	-29.6	-30.9	14.0	4.50e-06	0	43	102	1048576	19	4179
2026-01-05 23:07:17.35	62.66	25.55	-29.9	-31.6	13.5	1.06e-05	0	43	102	1048576	19	4408
2026-01-05 23:07:20.37	63.46	25.78	-29.1	-29.5	14.8	0.00e+00	0	43	102	1048576	19	3795
2026-01-05 23:07:23.39	64.27	26.00	-29.6	-31.0	14.0	7.00e-07	0	44	102	1048576	19	4214
2026-01-05 23:07:26.41	65.09	26.22	-29.9	-31.3	13.3	1.90e-05	0	43	102	1048576	20	4227
2026-01-05 23:07:29.43	65.93	26.44	-29.2	-29.8	14.7	0.00e+00	0	43	102	1048576	19	3869
2026-01-05 23:07:32.45	66.77	26.65	-29.6	-31.0	14.0	7.00e-07	0	43	102	1048576	19	4208
2026-01-05 23:07:35.47	67.63	26.86	-30.0	-31.6	13.2	9.10e-06	0	43	102	1048576	20	4307
2026-01-05 23:07:38.49	68.49	27.06	-29.9	-31.2	13.4	7.60e-06	0	43	102	1048576	20	4194
2026-01-05 23:07:41.51	69.37	27.26	-29.9	-31.2	13.5	2.74e-05	0	43	102	1048576	20	4171
2026-01-05 23:07:44.53	70.26	27.45	-29.8	-30.8	13.7	5.30e-06	0	43	102	1048576	20	4061
2026-01-05 23:07:47.55	71.16	27.63	-30.2	-31.9	13.2	1.90e-05	0	43	102	1048576	20	4386
2026-01-05 23:07:50.58	72.07	27.81	-30.3	-32.2	12.9	5.11e-05	0	43	102	1048576	20	4490
2026-01-05 23:07:53.60	72.99	27.98	-30.0	-31.4	13.4	9.10e-06	0	43	102	1048576	20	4230
2026-01-05 23:07:56.62	73.92	28.15	-31.1	-33.8	11.1	1.93e-03	0	43	102	1048576	22	4874
2026-01-05 23:07:59.64	74.85	28.31	-31.3	-34.2	10.8	1.38e-03	0	43	102	1048576	22	5037
2026-01-05 23:08:02.65	75.80	28.46	-31.6	-34.8	10.0	6.57e-03	0	43	102	1048576	23	5225
2026-01-05 23:08:05.67	76.75	28.60	-31.4	-34.3	10.3	4.71e-03	0	43	102	1048576	23	5012
2026-01-05 23:08:08.69	77.72	28.73	-31.6	-34.9	9.9	7.84e-03	0	43	102	1048576	23	5258
2026-01-05 23:08:11.71	78.69	28.86	-30.7	-32.6	11.9	1.05e-03	0	44	102	1048576	22	4465
2026-01-05 23:08:14.74	79.67	28.98	-30.5	-32.4	12.4	9.76e-05	0	44	102	1048576	21	4473
2026-01-05 23:08:17.76	80.65	29.09	-30.0	-31.1	13.1	1.14e-04	0	43	102	1048576	21	4072
2026-01-05 23:08:20.78	81.65	29.19	-30.0	-31.7	13.1	6.10e-06	0	43	102	1048576	20	4356
2026-01-05 23:08:23.80	82.64	29.28	-30.0	-31.5	13.2	7.09e-05	0	43	102	1048576	20	4298
2026-01-05 23:08:26.80	83.64	29.37	-29.6	-30.5	13.9	2.44e-05	0	43	102	1048576	20	3983
2026-01-05 23:08:29.83	84.65	29.44	-29.5	-30.2	14.0	2.97e-05	0	43	102	1048576	20	3908
2026-01-05 23:08:32.85	85.66	29.51	-29.3	-30.3	14.4	0.00e+00	0	43	102	1048576	19	4005
2026-01-05 23:08:35.86	86.68	29.56	-30.0	-31.6	13.2	2.28e-05	0	43	102	1048576	20	4322
2026-01-05 23:08:38.88	87.70	29.61	-30.3	-32.4	12.7	5.49e-05	0	44	102	1048576	20	4569
2026-01-05 23:08:41.90	88.72	29.64	-30.3	-32.4	12.7	4.95e-05	0	43	102	1048576	20	4572
2026-01-05 23:08:44.91	89.74	29.67	-29.6	-30.3	14.1	9.10e-06	0	43	102	1048576	20	3924
2026-01-05 23:08:47.93	90.77	29.69	-29.7	-31.0	14.0	3.89e-05	0	43	102	1048576	19	4215
2026-01-05 23:08:50.95	91.79	29.69	-30.3	-32.2	12.8	6.63e-05	0	43	102	1048576	20	4509
2026-01-05 23:08:53.97	92.82	29.69	-30.2	-32.1	12.9	5.49e-05	0	43	102	1048576	20	4486
2026-01-05 23:08:56.99	93.85	29.68	-30.1	-31.8	13.1	4.11e-05	0	43	102	1048576	20	4368
2026-01-05 23:09:00.01	94.87	29.65	-30.1	-31.9	13.0	2.82e-05	0	43	102	1048576	20	4420
2026-01-05 23:09:03.03	95.90	29.62	-31.0	-33.5	11.3	1.03e-03	0	43	102	1048576	22	4789
2026-01-05 23:09:06.05	96.92	29.58	-30.9	-33.0	11.6	6.47e-04	0	43	102	1048576	22	4599
2026-01-05 23:09:09.07	97.93	29.53	-30.7	-32.6	11.9	4.74e-04	0	43	102	1048576	22	4448
2026-01-05 23:09:12.08	98.95	29.47	-30.8	-32.8	11.7	4.32e-04	0	43	102	1048576	22	4547
2026-01-05 23:09:15.10	99.96	29.40	-31.1	-33.8	10.9	2.06e-03	0	44	102	1048576	22	4923
2026-01-05 23:09:18.11	100.96	29.32	-30.8	-33.0	11.5	1.03e-03	0	44	102	1048576	22	4642
2026-01-05 23:09:21.13	101.96	29.23	-31.1	-33.9	10.9	2.70e-03	0	44	102	1048576	22	4963
2026-01-05 23:09:24.14	102.95	29.13	-31.0	-33.5	11.2	8.61e-04	0	43	102	1048576	22	4797
2026-01-05 23:09:27.16	103.94	29.02	-32.2	-36.8	8.2	4.91e-02	0	43	102	1048576	24	6118
2026-01-05 23:09:30.18	104.93	28.91	-31.6	-34.5	9.8	1.48e-02	0	43	102	1048576	24	5010
2026-01-05 23:09:33.19	105.90	28.78	-31.1	-33.3	10.9	1.72e-03	0	44	102	1048576	23	4648
2026-01-05 23:09:36.22	106.87	28.65	-30.7	-32.4	12.0	5.68e-04	0	43	102	1048576	22	4402
2026-01-05 23:09:39.24	107.83	28.51	-30.8	-32.7	11.8	2.08e-04	0	43	102	1048576	22	4506
2026-01-05 23:09:42.25	108.78	28.36	-30.7	-32.6	11.8	6.12e-04	0	43	102	1048576	22	4466
2026-01-05 23:09:45.26	109.72	28.21	-30.5	-31.9	12.4	1.56e-04	0	43	102	1048576	22	4221
2026-01-05 23:09:48.28	110.65	28.04	-30.6	-32.6	12.3	1.69e-04	0	44	102	1048576	21	4560
2026-01-05 23:09:51.30	111.58	27.87	-30.4	-32.1	12.5	7.70e-05	0	44	102	1048576	21	4377
2026-01-05 23:09:54.32	112.49	27.70	-31.1	-33.8	11.0	1.35e-03	0	44	102	1048576	22	4913
2026-01-05 23:09:57.34	113.40	27.51	-31.1	-34.0	10.8	3.42e-03	0	43	102	1048576	22	4976
2026-01-05 23:10:00.37	114.30	27.32	-31.5	-34.5	10.2	3.66e-03	0	44	102	1048576	23	5091
2026-01-05 23:10:03.37	115.17	27.13	-31.6	-34.9	9.9	1.48e-02	0	43	102	1048576	23	5232
2026-01-05 23:10:06.39	116.05	26.93	-31.5	-34.5	10.2	3.06e-03	0	43	102	1048576	23	5076
2026-01-05 23:10:09.41	116.91	26.72	-31.7	-35.3	9.6	1.40e-02	0	43	102	1048576	23	5410
2026-01-05 23:10:12.43	117.76	26.51	-31.4	-34.0	10.7	3.51e-03	0	43	102	1048576	23	4878
2026-01-05 23:10:15.45	118.60	26.30	-31.2	-33.3	11.1	1.99e-03	0	43	102	1048576	23	4610
2026-01-05 23:10:18.48	119.43	26.07	-30.9	-32.5	11.6	6.15e-04	0	44	102	1048576	23	4338
2026-01-05 23:10:21.49	120.25	25.85	-31.2	-33.5	10.8	2.43e-03	0	43	102	1048576	23	4692
2026-01-05 23:10:24.51	121.06	25.62	-31.1	-33.6	11.1	1.59e-03	0	43	102	1048576	22	4826
2026-01-05 23:10:27.54	121.85	25.39	-30.7	-32.4	12.0	5.25e-04	0	43	102	1048576	22	4385
2026-01-05 23:10:30.55	122.63	25.15	-30.7	-32.5	11.9	7.39e-04	0	43	102	1048576	22	4405
2026-01-05 23:10:33.57	123.41	24.91	-30.0	-31.1	13.1	2.28e-05	0	43	102	1048576	21	4064
2026-01-05 23:10:36.58	124.17	24.67	-30.4	-32.0	12.6	1.62e-04	0	43	102	1048576	21	4331
2026-01-05 23:10:39.60	124.91	24.42	-29.8	-30.9	13.5	9.10e-06	0	43	102	1048576	20	4096
2026-01-05 23:10:42.62	125.65	24.17	-30.3	-32.3	12.7	7.93e-05	0	43	102	1048576	20	4528
2026-01-05 23:10:45.63	126.38	23.92	-30.5	-32.4	12.2	2.43e-04	0	43	102	1048576	21	4494
2026-01-05 23:10:48.65	127.09	23.67	-30.0	-31.4	13.2	6.80e-06	0	44	102	1048576	20	4262
2026-01-05 23:10:51.67	127.80	23.42	-30.7	-33.0	11.8	8.00e-04	0	44	102	1048576	21	4693
2026-01-05 23:10:54.69	128.49	23.16	-29.8	-30.9	13.6	1.22e-05	0	43	102	1048576	20	4091
2026-01-05 23:10:57.72	129.17	22.90	-29.7	-30.7	13.6	8.30e-06	0	44	102	1048576	20	4046
2026-01-05 23:11:00.73	129.84	22.64	-29.3	-29.6	14.3	5.30e-06	0	44	102	1048576	20	3741
2026-01-05 23:11:03.75	130.50	22.38	-29.3	-30.1	14.4	6.80e-06	0	43	102	1048576	19	3958
2026-01-05 23:11:06.77	131.15	22.12	-31.1	-33.9	10.8	1.28e-03	0	44	102	1048576	22	4967
2026-01-05 23:11:09.80	131.79	21.85	-31.1	-33.9	10.7	3.70e-03	0	44	102	1048576	22	4978
2026-01-05 23:11:12.81	132.42	21.59	-30.5	-31.9	12.1	2.88e-04	0	44	102	1048576	22	4260
2026-01-05 23:11:15.83	133.04	21.32	-30.8	-32.9	11.4	9.57e-04	0	43	102	1048576	22	4605
2026-01-05 23:11:18.85	133.64	21.06	-29.9	-30.8	13.0	6.40e-05	0	44	102	1048576	21	4009
2026-01-05 23:11:21.88	134.24	20.79	-29.2	-30.0	14.4	1.50e-06	0	43	102	1048576	19	3926
2026-01-05 23:11:24.89	134.83	20.53	-29.5	-30.8	13.9	3.80e-06	0	43	102	1048576	19	4150
2026-01-05 23:11:27.92	135.41	20.26	-29.5	-30.7	13.9	3.00e-06	0	43	102	1048576	19	4152
2026-01-05 23:11:30.94	135.98	20.00	-29.9	-31.7	13.1	6.10e-06	0	44	102	1048576	19	4467
2026-01-05 23:11:33.96	136.53	19.73	-29.9	-31.4	12.9	5.72e-05	0	44	102	1048576	20	4292
2026-01-05 23:11:36.99	137.09	19.46	-29.5	-30.4	13.6	6.80e-06	0	43	102	1048576	20	3984
2026-01-05 23:11:40.02	137.63	19.20	-29.2	-29.9	14.2	7.00e-07	0	44	102	1048576	19	3925
2026-01-05 23:11:43.05	138.16	18.93	-29.8	-31.5	13.2	6.10e-06	0	44	102	1048576	19	4397
2026-01-05 23:11:46.06	138.68	18.67	-29.5	-30.9	13.5	3.80e-06	0	44	102	1048576	19	4240
2026-01-05 23:11:49.08	139.19	18.41	-29.0	-29.6	14.3	2.20e-06	0	44	102	1048576	19	3851
2026-01-05 23:11:52.10	139.70	18.14	-29.3	-30.9	13.8	3.00e-06	0	44	102	1048576	18	4328
2026-01-05 23:11:55.12	140.19	17.88	-29.3	-30.8	13.9	2.20e-06	0	43	102	1048576	18	4279
2026-01-05 23:11:58.14	140.68	17.62	-29.2	-30.7	13.9	2.21e-05	0	43	102	1048576	18	4244
2026-01-05 23:12:01.16	141.16	17.36	-28.8	-30.0	14.6	6.32e-04	0	43	102	1048576	17	4151
2026-01-05 23:12:04.18	141.63	17.10	-28.8	-30.2	14.1	3.54e-03	0	44	102	1048576	17	4230
2026-01-05 23:12:07.20	142.10	16.84	-29.0	-30.2	13.9	9.34e-04	0	44	102	1048576	18	4160
2026-01-05 23:12:10.21	142.55	16.58	-29.2	-30.8	13.5	2.82e-05	0	43	102	1048576	18	4323
2026-01-05 23:12:13.23	143.00	16.32	-28.9	-30.5	13.9	7.55e-05	0	43	102	1048576	17	4342
2026-01-05 23:12:16.25	143.44	16.07	-29.2	-30.7	13.4	2.21e-03	0	44	102	1048576	18	4316
2026-01-05 23:12:19.27	143.88	15.81	-29.6	-31.5	12.5	4.86e-03	0	44	102	1048576	19	4479
2026-01-05 23:12:22.29	144.31	15.56	-30.0	-32.1	11.7	4.23e-03	0	44	102	1048576	20	4625
2026-01-05 23:12:25.31	144.73	15.31	-29.9	-31.9	12.1	2.40e-03	0	44	102	1048576	20	4500
2026-01-05 23:12:28.33	145.14	15.06	-29.4	-31.4	12.3	8.83e-03	0	44	102	1048576	19	4573
2026-01-05 23:12:31.34	145.55	14.81	-29.2	-31.3	12.8	4.01e-03	0	44	102	1048576	18	4566
2026-01-05 23:12:34.36	145.95	14.56	-29.8	-32.5	11.7	1.67e-02	0	44	102	1048576	19	4891
2026-01-05 23:12:37.38	146.34	14.31	-30.1	-32.8	11.1	4.19e-03	0	44	102	1048576	20	4920
2026-01-05 23:12:40.40	146.73	14.07	-30.5	-33.6	10.7	3.54e-03	0	44	102	1048576	20	5193
2026-01-05 23:12:43.41	147.11	13.82	-30.4	-33.3	11.0	4.13e-03	0	44	102	1048576	20	5033
2026-01-05 23:12:46.43	147.48	13.58	-30.3	-33.2	11.0	5.03e-03	0	44	102	1048576	20	5008
2026-01-05 23:12:49.45	147.85	13.34	-30.1	-32.6	11.5	4.03e-03	0	43	102	1048576	20	4769
2026-01-05 23:12:52.48	148.22	13.09	-30.1	-32.5	11.5	3.48e-03	0	44	102	1048576	20	4732
2026-01-05 23:12:55.50	148.58	12.85	-30.0	-32.1	11.7	4.81e-04	0	44	102	1048576	20	4609
2026-01-05 23:12:58.51	148.93	12.62	-29.8	-32.0	12.2	2.19e-04	0	44	102	1048576	19	4645
2026-01-05 23:13:01.53	149.27	12.38	-30.0	-32.3	11.6	6.37e-04	0	44	102	1048576	20	4666
2026-01-05 23:13:04.55	149.62	12.15	-29.9	-31.9	11.9	4.63e-04	0	44	102	1048576	20	4538
2026-01-05 23:13:07.58	149.95	11.91	-30.1	-32.5	11.4	1.30e-03	0	44	102	1048576	20	4751
2026-01-05 23:13:10.59	150.28	11.68	-30.0	-32.3	11.5	8.15e-04	0	44	102	1048576	20	4696
2026-01-05 23:13:13.61	150.61	11.45	-30.2	-33.1	10.9	2.30e-03	0	44	102	1048576	20	5010
2026-01-05 23:13:16.62	150.93	11.22	-30.2	-32.9	10.9	2.41e-03	0	44	102	1048576	20	4969
2026-01-05 23:13:19.65	151.25	10.99	-30.1	-32.6	11.1	1.84e-03	0	44	102	1048576	20	4835
2026-01-05 23:13:22.67	151.56	10.76	-30.4	-33.7	10.3	3.26e-03	0	44	102	1048576	20	5294
2026-01-05 23:13:25.69	151.87	10.54	-30.7	-34.2	9.6	6.11e-03	0	44	102	1048576	21	5425
2026-01-05 23:13:28.70	152.17	10.31	-30.5	-33.7	9.9	9.84e-03	0	44	102	1048576	21	5190
2026-01-05 23:13:31.71	152.47	10.09	-30.5	-34.1	9.9	1.05e-02	0	44	102	1048576	20	5489
2026-01-05 23:13:34.73	152.76	9.87	-30.0	-32.6	11.0	1.91e-03	0	44	102	1048576	20	4863
2026-01-05 23:13:37.75	153.05	9.65	-29.9	-32.7	11.4	3.74e-03	0	44	102	1048576	19	4979
2026-01-05 23:13:40.77	153.34	9.43	-29.6	-32.1	11.7	3.19e-03	0	44	102	1048576	19	4784
2026-01-05 23:13:43.79	153.62	9.21	-29.5	-31.8	11.9	2.84e-03	0	44	102	1048576	19	4666
2026-01-05 23:13:46.81	153.90	8.99	-29.7	-32.2	11.6	3.46e-04	0	44	102	1048576	19	4835
2026-01-05 23:13:49.83	154.17	8.78	-29.7	-32.1	11.8	4.08e-04	0	44	102	1048576	19	4752
2026-01-05 23:13:52.85	154.44	8.57	-29.8	-32.4	11.6	6.86e-04	0	44	102	1048576	19	4833
2026-01-05 23:13:55.87	154.71	8.35	-29.9	-32.6	11.3	3.39e-03	0	44	102	1048576	19	4933
2026-01-05 23:13:58.89	154.97	8.14	-29.8	-32.4	11.6	3.32e-03	0	44	102	1048576	19	4848
2026-01-05 23:14:01.91	155.23	7.93	-29.9	-32.8	11.2	3.22e-03	0	44	102	1048576	19	5030
2026-01-05 23:14:04.94	155.49	7.72	-30.2	-33.1	10.6	4.52e-03	0	44	102	1048576	20	5074
2026-01-05 23:14:07.96	155.74	7.52	-30.1	-32.9	10.8	4.49e-03	0	44	102	1048576	20	4959
2026-01-05 23:14:10.98	155.99	7.31	-30.1	-32.8	10.8	2.08e-03	0	44	102	1048576	20	4945
2026-01-05 23:14:14.00	156.23	7.10	-30.3	-33.7	10.1	5.39e-03	0	44	102	1048576	20	5319
2026-01-05 23:14:17.02	156.47	6.90	-33.3	-45.9	3.8	1.49e+00	0	44	104	1048576	26	15306

#Closed at: 2026-01-05 23:14:17
#Recorded file [1 MB]: D:/data/31010_260106_020326.dat