passes_logs/2026/01/05/R2M6_AANII_01/R2M6_AANII_01__20260105_030356_NOAA_20_JPSS-1_rec.log

#Pass ID: 20260105_030356_NOAA 20 (JPSS-1)
#Satellite: NOAA 20 (JPSS-1)
#Configuration: NOAA 20
#almurnet v.1.7.20240730
#Start time: 2026-01-05 03:03:57

#Version: 2.2.20231116
#Station: R2M6_AANII_01
#Location: 30.233357 lon 59.946436 lat
#TLE: 1 43013U 17073A   26004.47528369  .00000132  00000+0  83671-4 0  9999
#TLE: 2 43013  98.7626 305.5264 0001854  54.5883 305.5466 14.19533142421242

#Time	Az	El	Level	Level2	SNR	BER	BlckErr	Temp	State	Recorded	gain1	gain2
2026-01-05 03:03:57.96	7.86	7.08	-32.3	-44.3	3.8	1.49e+00	0	41	0	0	24	14397
2026-01-05 03:03:59.96	7.62	7.18	-32.1	-41.6	4.7	9.48e-01	0	41	0	0	24	10803
2026-01-05 03:04:01.97	7.37	7.29	-32.0	-40.8	5.1	7.06e-01	0	41	102	1048576	24	9976
2026-01-05 03:04:03.98	7.13	7.39	-31.9	-40.8	5.4	5.66e-01	0	41	102	1048576	23	9987
2026-01-05 03:04:05.99	6.88	7.49	-32.0	-41.0	5.0	6.34e-01	0	41	102	1048576	24	10105
2026-01-05 03:04:08.00	6.63	7.60	-32.1	-41.1	5.0	7.37e-01	0	41	102	1048576	24	10199
2026-01-05 03:04:10.02	6.37	7.70	-31.9	-40.4	5.6	5.17e-01	0	41	102	1048576	23	9584
2026-01-05 03:04:12.03	6.12	7.80	-31.7	-38.9	6.7	2.39e-01	0	41	102	1048576	23	8272
2026-01-05 03:04:14.05	5.86	7.91	-31.4	-37.7	8.0	9.68e-02	0	41	102	1048576	22	7450
2026-01-05 03:04:16.06	5.61	8.01	-31.0	-36.2	9.2	2.90e-02	0	41	102	1048576	22	6533
2026-01-05 03:04:18.06	5.35	8.11	-30.9	-36.2	9.7	1.34e-02	0	41	102	1048576	21	6620
2026-01-05 03:04:20.08	5.09	8.21	-31.1	-36.2	9.3	1.76e-02	0	41	102	1048576	22	6498
2026-01-05 03:04:22.09	4.82	8.32	-30.9	-36.2	9.7	1.49e-02	0	42	102	1048576	21	6610
2026-01-05 03:04:24.11	4.56	8.42	-31.1	-36.2	9.3	1.64e-02	0	42	102	1048576	22	6512
2026-01-05 03:04:26.12	4.29	8.52	-31.1	-36.4	9.2	2.50e-02	0	42	102	1048576	22	6609
2026-01-05 03:04:28.12	4.02	8.62	-31.3	-37.2	8.5	3.71e-02	0	42	102	1048576	22	7088
2026-01-05 03:04:30.14	3.75	8.72	-31.1	-36.3	9.3	2.24e-02	0	42	102	1048576	22	6557
2026-01-05 03:04:32.15	3.48	8.82	-31.1	-36.1	9.5	1.76e-02	0	42	102	1048576	22	6430
2026-01-05 03:04:34.16	3.20	8.93	-31.1	-36.1	9.5	1.47e-02	0	42	102	1048576	22	6427
2026-01-05 03:04:36.17	2.93	9.03	-30.9	-35.5	10.0	9.49e-03	0	42	102	1048576	22	6104
2026-01-05 03:04:38.18	2.65	9.13	-30.9	-36.0	9.9	8.14e-03	0	42	102	1048576	21	6498
2026-01-05 03:04:40.19	2.37	9.23	-30.9	-36.1	9.9	1.22e-02	0	42	102	1048576	21	6528
2026-01-05 03:04:42.21	2.08	9.33	-30.9	-36.0	10.0	8.31e-03	0	42	102	1048576	21	6464
2026-01-05 03:04:44.22	1.80	9.43	-30.9	-36.0	10.0	8.28e-03	0	42	102	1048576	21	6474
2026-01-05 03:04:46.23	1.51	9.53	-31.0	-35.9	9.7	9.37e-03	0	42	102	1048576	22	6302
2026-01-05 03:04:48.24	1.23	9.63	-31.1	-36.2	9.5	1.46e-02	0	42	102	1048576	22	6467
2026-01-05 03:04:50.24	0.94	9.72	-31.0	-36.3	9.8	1.28e-02	0	42	102	1048576	21	6626
2026-01-05 03:04:52.26	0.64	9.82	-31.2	-36.5	9.3	1.72e-02	0	42	102	1048576	22	6604
2026-01-05 03:04:54.27	0.35	9.92	-31.2	-36.5	9.3	1.81e-02	0	42	102	1048576	22	6602
2026-01-05 03:04:56.29	0.05	10.02	-31.1	-36.1	9.6	1.33e-02	0	42	102	1048576	22	6417
2026-01-05 03:04:58.30	359.75	10.12	-31.1	-36.1	9.6	1.19e-02	0	42	102	1048576	22	6383
2026-01-05 03:05:00.31	359.45	10.22	-31.1	-36.0	9.7	1.20e-02	0	42	102	1048576	22	6317
2026-01-05 03:05:02.33	359.15	10.31	-30.9	-35.9	10.1	7.22e-03	0	42	102	1048576	21	6431
2026-01-05 03:05:04.34	358.84	10.41	-31.0	-35.7	10.0	8.91e-03	0	42	102	1048576	22	6186
2026-01-05 03:05:06.35	358.54	10.50	-30.9	-35.8	10.3	5.92e-03	0	42	102	1048576	21	6342
2026-01-05 03:05:08.37	358.23	10.60	-30.8	-35.4	10.6	3.79e-03	0	43	102	1048576	21	6127
2026-01-05 03:05:10.39	357.91	10.70	-29.7	-34.3	10.6	3.20e-03	0	43	102	1048576	21	6129
2026-01-05 03:05:12.40	357.60	10.79	-30.7	-35.3	10.3	3.37e-03	0	43	102	1048576	21	6065
2026-01-05 03:05:14.42	357.28	10.89	-30.7	-35.0	10.8	2.45e-03	0	43	102	1048576	21	5947
2026-01-05 03:05:16.42	356.97	10.98	-30.7	-35.1	10.8	2.29e-03	0	43	102	1048576	21	5993
2026-01-05 03:05:18.43	356.65	11.07	-30.6	-34.7	11.1	1.97e-03	0	43	102	1048576	21	5796
2026-01-05 03:05:20.45	356.33	11.16	-30.5	-34.8	11.4	1.05e-03	0	43	102	1048576	20	5965
2026-01-05 03:05:22.46	356.00	11.26	-30.4	-34.8	11.4	9.72e-04	0	43	102	1048576	20	5933
2026-01-05 03:05:24.48	355.68	11.35	-30.5	-34.9	11.4	3.18e-03	0	43	102	1048576	20	5972
2026-01-05 03:05:26.49	355.35	11.44	-29.9	-34.1	11.6	8.26e-04	0	43	102	1048576	20	5851
2026-01-05 03:05:28.50	355.02	11.53	-30.4	-34.6	11.4	2.58e-03	0	43	102	1048576	20	5844
2026-01-05 03:05:30.51	354.69	11.62	-30.4	-34.7	11.5	2.62e-03	0	43	102	1048576	20	5912
2026-01-05 03:05:32.53	354.35	11.71	-30.6	-34.6	11.2	9.96e-04	0	43	102	1048576	21	5744
2026-01-05 03:05:34.54	354.02	11.80	-30.7	-35.0	11.0	3.80e-03	0	43	102	1048576	21	5901
2026-01-05 03:05:36.55	353.68	11.89	-30.5	-34.5	11.3	1.09e-03	0	43	102	1048576	21	5714
2026-01-05 03:05:38.57	353.34	11.97	-30.5	-34.8	11.5	1.03e-03	0	43	102	1048576	20	5922
2026-01-05 03:05:40.59	352.99	12.06	-30.5	-34.4	11.4	2.82e-03	0	43	102	1048576	21	5633
2026-01-05 03:05:42.61	352.65	12.15	-30.4	-34.6	11.6	2.00e-03	0	43	102	1048576	20	5833
2026-01-05 03:05:44.62	352.30	12.23	-30.7	-35.0	11.0	1.87e-03	0	43	102	1048576	21	5905
2026-01-05 03:05:46.63	351.95	12.32	-30.3	-34.3	11.8	1.92e-03	0	43	102	1048576	20	5704
2026-01-05 03:05:48.64	351.60	12.40	-30.0	-33.4	12.5	8.77e-04	0	43	102	1048576	20	5315
2026-01-05 03:05:50.65	351.25	12.48	-30.0	-33.7	12.7	4.93e-04	0	43	102	1048576	19	5556
2026-01-05 03:05:52.67	350.90	12.56	-30.0	-33.3	12.6	7.58e-04	0	43	102	1048576	20	5266
2026-01-05 03:05:54.68	350.54	12.65	-30.0	-33.5	12.5	6.62e-04	0	43	102	1048576	20	5339
2026-01-05 03:05:56.70	350.18	12.73	-30.1	-33.7	12.3	1.91e-04	0	43	102	1048576	20	5428
2026-01-05 03:05:58.71	349.82	12.81	-30.1	-33.8	12.3	1.94e-03	0	43	102	1048576	20	5477
2026-01-05 03:06:00.71	349.46	12.88	-30.3	-34.2	12.0	3.39e-04	0	43	102	1048576	20	5646
2026-01-05 03:06:02.72	349.10	12.96	-30.3	-34.4	11.8	7.90e-04	0	43	102	1048576	20	5739
2026-01-05 03:06:04.74	348.73	13.04	-30.2	-33.9	12.2	4.99e-04	0	43	102	1048576	20	5517
2026-01-05 03:06:06.74	348.36	13.11	-30.2	-34.0	12.1	1.96e-03	0	43	102	1048576	20	5564
2026-01-05 03:06:08.76	347.99	13.19	-30.3	-34.2	11.9	6.02e-04	0	43	102	1048576	20	5677
2026-01-05 03:06:10.78	347.62	13.26	-30.4	-34.7	11.7	5.55e-04	0	43	102	1048576	20	5861
2026-01-05 03:06:12.80	347.24	13.34	-30.2	-33.8	12.3	8.50e-04	0	43	102	1048576	20	5480
2026-01-05 03:06:14.81	346.87	13.41	-30.1	-33.6	12.4	2.91e-04	0	43	102	1048576	20	5413
2026-01-05 03:06:16.82	346.49	13.48	-30.1	-33.6	12.4	1.24e-04	0	43	102	1048576	20	5383
2026-01-05 03:06:18.82	346.11	13.55	-30.1	-33.6	12.4	1.38e-04	0	43	102	1048576	20	5396
2026-01-05 03:06:20.83	345.73	13.62	-30.1	-33.7	12.4	1.63e-04	0	43	102	1048576	20	5424
2026-01-05 03:06:22.84	345.35	13.69	-30.0	-33.3	12.6	3.11e-04	0	43	102	1048576	20	5283
2026-01-05 03:06:24.85	344.96	13.75	-30.0	-33.3	12.6	1.22e-04	0	43	102	1048576	20	5260
2026-01-05 03:06:26.86	344.58	13.82	-29.9	-33.1	12.8	6.48e-05	0	43	102	1048576	20	5198
2026-01-05 03:06:28.87	344.19	13.88	-29.9	-33.1	12.7	7.55e-05	0	43	102	1048576	20	5205
2026-01-05 03:06:30.89	343.80	13.95	-30.1	-33.7	12.4	9.76e-05	0	43	102	1048576	20	5430
2026-01-05 03:06:32.90	343.40	14.01	-29.9	-32.9	12.8	7.17e-05	0	43	102	1048576	20	5132
2026-01-05 03:06:34.90	343.01	14.07	-29.9	-33.5	12.9	5.11e-05	0	43	102	1048576	19	5451
2026-01-05 03:06:36.92	342.62	14.13	-30.1	-33.7	11.8	8.54e-05	0	43	102	1048576	20	5445
2026-01-05 03:06:38.94	342.22	14.19	-29.8	-33.4	12.1	5.11e-05	0	43	102	1048576	19	5395
2026-01-05 03:06:40.96	341.82	14.25	-29.7	-33.0	13.2	1.29e-05	0	43	102	1048576	19	5261
2026-01-05 03:06:42.98	341.42	14.30	-29.8	-33.3	13.1	2.89e-05	0	43	102	1048576	19	5363
2026-01-05 03:06:44.99	341.02	14.36	-29.9	-33.4	13.0	2.59e-05	0	43	102	1048576	19	5431
2026-01-05 03:06:47.01	340.61	14.41	-29.9	-33.4	12.9	1.05e-04	0	43	102	1048576	19	5425
2026-01-05 03:06:49.02	340.21	14.46	-30.0	-33.7	12.8	4.57e-05	0	43	102	1048576	19	5535
2026-01-05 03:06:51.03	339.80	14.51	-29.7	-33.0	13.3	2.43e-03	0	43	102	1048576	19	5232
2026-01-05 03:06:53.05	339.39	14.56	-29.8	-33.1	13.2	2.36e-05	0	43	102	1048576	19	5286
2026-01-05 03:06:55.06	338.99	14.61	-29.9	-33.5	13.0	3.05e-05	0	43	102	1048576	19	5439
2026-01-05 03:06:57.08	338.57	14.66	-30.0	-33.7	12.8	2.32e-03	0	43	102	1048576	19	5508
2026-01-05 03:06:59.08	338.17	14.70	-30.0	-33.3	12.7	7.24e-05	0	43	102	1048576	20	5259
2026-01-05 03:07:01.10	337.75	14.75	-29.8	-33.3	13.1	2.39e-03	0	43	102	1048576	19	5344
2026-01-05 03:07:03.12	337.34	14.79	-29.9	-33.5	13.0	2.50e-03	0	43	102	1048576	19	5455
2026-01-05 03:07:05.13	336.92	14.83	-30.1	-33.7	12.4	1.86e-04	0	43	102	1048576	20	5408
2026-01-05 03:07:07.15	336.50	14.87	-30.2	-33.8	12.3	3.08e-03	0	43	102	1048576	20	5464
2026-01-05 03:07:09.16	336.09	14.91	-30.2	-33.9	12.3	2.94e-03	0	43	102	1048576	20	5518
2026-01-05 03:07:11.17	335.67	14.95	-30.2	-33.7	12.4	1.07e-03	0	43	102	1048576	20	5444
2026-01-05 03:07:13.18	335.25	14.98	-30.2	-33.8	12.3	3.19e-03	0	43	102	1048576	20	5474
2026-01-05 03:07:15.19	334.83	15.02	-30.3	-34.2	12.1	2.60e-03	0	43	102	1048576	20	5640
2026-01-05 03:07:17.21	334.41	15.05	-30.2	-33.8	12.3	3.52e-04	0	43	102	1048576	20	5488
2026-01-05 03:07:19.22	333.99	15.08	-30.1	-33.5	12.6	2.58e-03	0	43	102	1048576	20	5341
2026-01-05 03:07:21.24	333.56	15.11	-30.0	-33.4	12.7	2.59e-03	0	43	102	1048576	20	5292
2026-01-05 03:07:23.25	333.14	15.14	-29.9	-33.1	12.8	2.25e-04	0	43	102	1048576	20	5190
2026-01-05 03:07:25.27	332.71	15.16	-30.0	-33.3	12.7	3.05e-03	0	43	102	1048576	20	5256
2026-01-05 03:07:27.28	332.29	15.19	-30.3	-34.1	12.1	2.25e-04	0	43	102	1048576	20	5590
2026-01-05 03:07:29.30	331.86	15.21	-30.3	-34.2	12.1	7.82e-04	0	43	102	1048576	20	5627
2026-01-05 03:07:31.31	331.43	15.23	-30.2	-33.9	12.3	6.04e-04	0	43	102	1048576	20	5513
2026-01-05 03:07:33.32	331.01	15.25	-30.2	-33.8	12.3	1.52e-04	0	43	102	1048576	20	5461
2026-01-05 03:07:35.34	330.58	15.27	-30.1	-33.6	12.5	2.77e-04	0	43	102	1048576	20	5371
2026-01-05 03:07:37.36	330.15	15.29	-30.1	-33.6	12.5	5.52e-04	0	43	102	1048576	20	5394
2026-01-05 03:07:39.37	329.72	15.30	-30.0	-33.4	12.6	2.75e-03	0	43	102	1048576	20	5292
2026-01-05 03:07:41.38	329.29	15.32	-30.1	-33.6	12.5	1.36e-03	0	43	102	1048576	20	5365
2026-01-05 03:07:43.39	328.86	15.33	-30.2	-34.0	12.3	2.43e-04	0	43	102	1048576	20	5536
2026-01-05 03:07:45.41	328.43	15.34	-30.0	-33.3	12.7	9.30e-05	0	43	102	1048576	20	5265
2026-01-05 03:07:47.41	328.00	15.35	-30.1	-33.4	12.6	8.16e-05	0	43	102	1048576	20	5299
2026-01-05 03:07:49.42	327.57	15.36	-30.0	-33.4	12.7	5.16e-04	0	43	102	1048576	20	5292
2026-01-05 03:07:51.43	327.14	15.36	-30.1	-33.7	12.4	1.64e-04	0	43	102	1048576	20	5411
2026-01-05 03:07:53.44	326.71	15.37	-30.1	-33.5	12.6	9.61e-05	0	43	102	1048576	20	5338
2026-01-05 03:07:55.45	326.28	15.37	-30.1	-33.6	12.5	1.36e-04	0	43	102	1048576	20	5377
2026-01-05 03:07:57.47	325.85	15.37	-30.1	-33.5	12.6	9.38e-05	0	43	102	1048576	20	5337
2026-01-05 03:07:59.47	325.42	15.37	-30.1	-33.5	12.6	8.69e-05	0	43	102	1048576	20	5357
2026-01-05 03:08:01.48	324.99	15.36	-30.2	-33.8	12.3	1.27e-04	0	43	102	1048576	20	5479
2026-01-05 03:08:03.50	324.55	15.36	-30.2	-33.9	11.3	1.86e-04	0	43	102	1048576	20	5526
2026-01-05 03:08:05.51	324.12	15.35	-30.2	-34.0	11.2	2.78e-04	0	43	102	1048576	20	5540
2026-01-05 03:08:07.52	323.69	15.35	-30.0	-33.3	12.7	8.85e-05	0	43	102	1048576	20	5260
2026-01-05 03:08:09.54	323.26	15.34	-30.0	-33.1	12.8	2.88e-03	0	43	102	1048576	20	5189
2026-01-05 03:08:11.55	322.83	15.33	-30.0	-33.7	12.9	7.24e-05	0	43	102	1048576	19	5503
2026-01-05 03:08:13.55	322.40	15.31	-29.9	-33.1	12.8	1.86e-04	0	43	102	1048576	20	5165
2026-01-05 03:08:15.56	321.98	15.30	-30.1	-33.5	12.5	9.61e-05	0	43	102	1048576	20	5348
2026-01-05 03:08:17.57	321.55	15.28	-30.2	-33.9	12.3	2.60e-03	0	43	102	1048576	20	5507
2026-01-05 03:08:19.58	321.12	15.27	-30.3	-34.0	12.2	2.53e-04	0	43	102	1048576	20	5558
2026-01-05 03:08:21.59	320.69	15.25	-29.3	-33.1	12.0	3.72e-04	0	43	102	1048576	20	5607
2026-01-05 03:08:23.61	320.26	15.23	-30.4	-34.5	11.9	3.32e-03	0	43	102	1048576	20	5748
2026-01-05 03:08:25.63	319.83	15.21	-30.2	-33.9	12.3	2.88e-04	0	43	102	1048576	20	5518
2026-01-05 03:08:27.64	319.41	15.18	-30.1	-33.6	12.5	2.66e-03	0	43	102	1048576	20	5366
2026-01-05 03:08:29.65	318.98	15.16	-30.2	-33.8	12.3	2.55e-03	0	43	102	1048576	20	5468
2026-01-05 03:08:31.67	318.56	15.13	-30.3	-34.1	12.2	4.44e-04	0	43	102	1048576	20	5587
2026-01-05 03:08:33.68	318.13	15.10	-30.2	-34.0	12.2	2.29e-03	0	43	102	1048576	20	5554
2026-01-05 03:08:35.69	317.71	15.07	-30.3	-34.1	12.1	2.56e-03	0	44	102	1048576	20	5603
2026-01-05 03:08:37.70	317.29	15.04	-30.2	-33.8	12.3	2.92e-04	0	43	102	1048576	20	5467
2026-01-05 03:08:39.71	316.87	15.01	-30.2	-33.8	12.3	2.63e-03	0	43	102	1048576	20	5465
2026-01-05 03:08:41.73	316.45	14.97	-30.0	-33.3	12.6	2.48e-03	0	43	102	1048576	20	5285
2026-01-05 03:08:43.74	316.03	14.94	-30.1	-33.6	12.5	5.28e-04	0	43	102	1048576	20	5376
2026-01-05 03:08:45.75	315.61	14.90	-30.1	-33.5	12.5	1.94e-03	0	43	102	1048576	20	5358
2026-01-05 03:08:47.77	315.19	14.86	-29.9	-33.4	13.0	1.95e-03	0	43	102	1048576	19	5401
2026-01-05 03:08:49.78	314.77	14.82	-29.9	-33.4	13.0	4.04e-05	0	43	102	1048576	19	5395
2026-01-05 03:08:51.79	314.36	14.78	-29.8	-33.2	13.1	2.21e-03	0	43	102	1048576	19	5317
2026-01-05 03:08:53.81	313.94	14.74	-29.9	-33.1	12.7	6.79e-05	0	43	102	1048576	20	5198
2026-01-05 03:08:55.83	313.53	14.69	-30.0	-33.2	12.7	3.23e-04	0	43	102	1048576	20	5242
2026-01-05 03:08:57.84	313.12	14.64	-30.0	-33.2	12.6	2.52e-03	0	43	102	1048576	20	5243
2026-01-05 03:08:59.85	312.71	14.60	-29.9	-33.6	12.8	5.87e-05	0	43	102	1048576	19	5494
2026-01-05 03:09:01.87	312.30	14.55	-29.9	-33.6	12.8	3.84e-04	0	43	102	1048576	19	5512
2026-01-05 03:09:03.88	311.89	14.50	-29.9	-33.6	12.8	1.59e-04	0	43	102	1048576	19	5496
2026-01-05 03:09:05.88	311.49	14.45	-30.0	-33.3	12.6	1.93e-03	0	43	102	1048576	20	5265
2026-01-05 03:09:07.89	311.08	14.39	-30.1	-33.6	12.4	5.74e-04	0	43	102	1048576	20	5384
2026-01-05 03:09:09.90	310.68	14.34	-30.1	-33.7	12.3	1.91e-04	0	43	102	1048576	20	5443
2026-01-05 03:09:11.92	310.28	14.29	-30.2	-33.8	12.2	2.47e-04	0	44	102	1048576	20	5482
2026-01-05 03:09:13.93	309.88	14.23	-30.1	-33.7	12.3	1.43e-03	0	43	102	1048576	20	5437
2026-01-05 03:09:15.94	309.48	14.17	-30.2	-34.1	12.0	1.37e-03	0	43	102	1048576	20	5597
2026-01-05 03:09:17.95	309.08	14.11	-30.2	-34.1	12.0	2.34e-04	0	43	102	1048576	20	5609
2026-01-05 03:09:19.97	308.69	14.05	-30.1	-33.6	12.4	1.46e-04	0	44	102	1048576	20	5390
2026-01-05 03:09:21.98	308.29	13.99	-30.1	-33.8	12.2	1.15e-03	0	43	102	1048576	20	5487
2026-01-05 03:09:24.00	307.90	13.93	-30.3	-34.4	11.8	3.62e-04	0	43	102	1048576	20	5734
2026-01-05 03:09:26.01	307.51	13.86	-30.3	-34.4	11.7	4.36e-04	0	44	102	1048576	20	5751
2026-01-05 03:09:28.02	307.12	13.80	-30.1	-33.8	12.2	2.49e-04	0	43	102	1048576	20	5503
2026-01-05 03:09:30.04	306.73	13.73	-30.0	-33.4	12.5	1.39e-04	0	43	102	1048576	20	5322
2026-01-05 03:09:32.05	306.35	13.66	-30.0	-33.8	12.6	1.26e-03	0	43	102	1048576	19	5587
2026-01-05 03:09:34.07	305.96	13.60	-29.9	-33.5	12.8	4.95e-05	0	43	102	1048576	19	5461
2026-01-05 03:09:36.07	305.58	13.53	-29.9	-33.7	12.7	2.28e-03	0	43	102	1048576	19	5529
2026-01-05 03:09:38.09	305.20	13.46	-30.1	-33.8	12.2	1.83e-04	0	43	102	1048576	20	5502
2026-01-05 03:09:40.09	304.83	13.39	-30.0	-33.5	12.3	1.69e-04	0	43	102	1048576	20	5377
2026-01-05 03:09:42.11	304.45	13.31	-30.1	-33.8	12.1	2.28e-04	0	43	102	1048576	20	5493
2026-01-05 03:09:44.12	304.07	13.24	-29.9	-33.6	12.7	1.27e-03	0	43	102	1048576	19	5496
2026-01-05 03:09:46.12	303.70	13.17	-29.8	-33.5	12.7	6.71e-05	0	43	102	1048576	19	5459
2026-01-05 03:09:48.14	303.33	13.09	-29.8	-33.4	12.8	7.17e-05	0	43	102	1048576	19	5418
2026-01-05 03:09:50.15	302.96	13.01	-29.8	-33.3	12.9	1.88e-03	0	43	102	1048576	19	5387
2026-01-05 03:09:52.17	302.60	12.94	-29.9	-33.5	12.6	5.18e-05	0	43	102	1048576	19	5473
2026-01-05 03:09:54.18	302.23	12.86	-29.8	-33.5	12.7	2.24e-03	0	44	102	1048576	19	5465
2026-01-05 03:09:56.19	301.87	12.78	-30.0	-33.5	12.3	2.32e-03	0	43	102	1048576	20	5383
2026-01-05 03:09:58.20	301.51	12.70	-30.3	-34.4	11.7	5.59e-04	0	43	102	1048576	20	5755
2026-01-05 03:10:00.21	301.15	12.62	-30.2	-34.2	11.8	1.39e-03	0	43	102	1048576	20	5690
2026-01-05 03:10:02.23	300.79	12.54	-30.2	-34.0	11.9	1.25e-03	0	43	102	1048576	20	5603
2026-01-05 03:10:04.24	300.44	12.45	-30.0	-33.6	12.2	1.80e-04	0	43	102	1048576	20	5413
2026-01-05 03:10:06.25	300.09	12.37	-30.1	-33.9	12.0	3.76e-03	0	43	102	1048576	20	5572
2026-01-05 03:10:08.26	299.74	12.29	-30.2	-34.2	11.8	1.47e-03	0	43	102	1048576	20	5665
2026-01-05 03:10:10.28	299.39	12.20	-30.0	-33.7	12.1	2.23e-03	0	43	102	1048576	20	5453
2026-01-05 03:10:12.30	299.04	12.12	-30.0	-33.4	12.3	7.84e-04	0	44	102	1048576	20	5357
2026-01-05 03:10:14.32	298.69	12.03	-30.1	-33.8	12.0	1.64e-03	0	43	102	1048576	20	5533
2026-01-05 03:10:16.33	298.35	11.94	-30.1	-33.9	11.9	2.04e-03	0	44	102	1048576	20	5552
2026-01-05 03:10:18.35	298.01	11.85	-30.2	-34.3	11.6	2.44e-03	0	43	102	1048576	20	5730
2026-01-05 03:10:20.36	297.67	11.77	-30.4	-34.7	11.3	1.08e-03	0	43	102	1048576	20	5943
2026-01-05 03:10:22.37	297.33	11.68	-30.4	-34.9	11.2	2.98e-03	0	44	102	1048576	20	6003
2026-01-05 03:10:24.39	297.00	11.59	-30.5	-34.6	11.0	4.06e-03	0	43	102	1048576	21	5790
2026-01-05 03:10:26.40	296.66	11.50	-30.5	-34.7	10.9	2.09e-03	0	43	102	1048576	21	5834
2026-01-05 03:10:28.40	296.34	11.41	-30.6	-35.0	10.7	4.67e-03	0	44	102	1048576	21	5961
2026-01-05 03:10:30.42	296.01	11.32	-30.6	-35.1	10.6	5.40e-03	0	44	102	1048576	21	6034
2026-01-05 03:10:32.43	295.68	11.22	-30.9	-36.1	9.8	8.57e-03	0	43	102	1048576	21	6549
2026-01-05 03:10:34.45	295.36	11.13	-31.0	-36.3	9.7	1.20e-02	0	43	102	1048576	21	6653
2026-01-05 03:10:36.46	295.03	11.04	-31.1	-36.5	9.2	2.50e-02	0	43	102	1048576	22	6656
2026-01-05 03:10:38.47	294.71	10.95	-31.0	-35.9	9.6	1.47e-02	0	44	102	1048576	22	6311
2026-01-05 03:10:40.49	294.40	10.85	-31.0	-36.1	9.5	1.48e-02	0	43	102	1048576	22	6428
2026-01-05 03:10:42.51	294.08	10.76	-31.2	-36.8	8.8	3.25e-02	0	43	102	1048576	22	6869
2026-01-05 03:10:44.52	293.76	10.66	-31.1	-36.2	9.4	1.88e-02	0	43	102	1048576	22	6484
2026-01-05 03:10:46.53	293.45	10.57	-31.1	-36.2	9.4	1.56e-02	0	43	102	1048576	22	6478
2026-01-05 03:10:48.55	293.14	10.47	-31.1	-36.3	9.2	2.07e-02	0	43	102	1048576	22	6585
2026-01-05 03:10:50.56	292.84	10.37	-31.0	-36.1	9.4	1.77e-02	0	43	102	1048576	22	6470
2026-01-05 03:10:52.57	292.53	10.28	-31.0	-36.0	9.5	1.49e-02	0	43	102	1048576	22	6391
2026-01-05 03:10:54.59	292.23	10.18	-31.0	-36.0	9.4	1.74e-02	0	43	102	1048576	22	6425
2026-01-05 03:10:56.60	291.92	10.08	-31.0	-36.5	9.4	1.58e-02	0	43	102	1048576	21	6784
2026-01-05 03:10:58.61	291.63	9.98	-31.0	-36.3	9.2	2.02e-02	0	43	102	1048576	22	6583
2026-01-05 03:11:00.62	291.33	9.89	-31.2	-36.7	8.8	3.33e-02	0	43	102	1048576	22	6855
2026-01-05 03:11:02.63	291.03	9.79	-31.0	-36.1	9.3	2.26e-02	0	44	102	1048576	22	6475
2026-01-05 03:11:04.65	290.74	9.69	-31.0	-36.1	9.3	2.07e-02	0	43	102	1048576	22	6503
2026-01-05 03:11:06.66	290.45	9.59	-31.0	-36.1	9.3	2.01e-02	0	43	102	1048576	22	6483
2026-01-05 03:11:08.68	290.16	9.49	-30.9	-36.5	9.3	1.95e-02	0	44	102	1048576	21	6822
2026-01-05 03:11:10.69	289.87	9.39	-31.0	-36.7	9.1	1.97e-02	0	43	102	1048576	21	6957
2026-01-05 03:11:12.71	289.58	9.29	-31.0	-36.4	8.9	2.63e-02	0	43	102	1048576	22	6662
2026-01-05 03:11:14.73	289.30	9.19	-31.0	-36.5	8.9	2.76e-02	0	43	102	1048576	22	6728
2026-01-05 03:11:16.74	289.02	9.09	-31.0	-36.6	8.7	3.37e-02	0	44	102	1048576	22	6867
2026-01-05 03:11:18.75	288.74	8.99	-30.9	-36.5	9.1	2.69e-02	0	44	102	1048576	21	6901
2026-01-05 03:11:20.77	288.46	8.88	-30.9	-36.8	8.9	2.66e-02	0	44	102	1048576	21	7053
2026-01-05 03:11:22.77	288.19	8.78	-30.7	-36.1	9.4	2.17e-02	0	43	102	1048576	21	6645
2026-01-05 03:11:24.78	287.91	8.68	-30.7	-36.0	9.4	1.58e-02	0	43	102	1048576	21	6622
2026-01-05 03:11:26.79	287.64	8.58	-30.8	-36.2	9.2	2.35e-02	0	43	102	1048576	21	6765
2026-01-05 03:11:28.81	287.37	8.48	-30.7	-36.1	9.3	2.05e-02	0	44	102	1048576	21	6715
2026-01-05 03:11:30.83	287.10	8.38	-30.7	-36.0	9.3	1.61e-02	0	43	102	1048576	21	6652
2026-01-05 03:11:32.85	286.84	8.27	-30.8	-36.5	8.9	3.07e-02	0	43	102	1048576	21	6926
2026-01-05 03:11:34.86	286.57	8.17	-30.8	-36.6	8.8	3.00e-02	0	44	102	1048576	21	7011
2026-01-05 03:11:36.88	286.31	8.07	-30.7	-36.4	8.9	3.37e-02	0	44	102	1048576	21	6921
2026-01-05 03:11:38.89	286.05	7.96	-30.5	-35.6	9.5	1.49e-02	0	44	102	1048576	21	6446
2026-01-05 03:11:40.91	285.79	7.86	-30.5	-35.9	9.7	1.39e-02	0	43	102	1048576	20	6734
2026-01-05 03:11:42.91	285.54	7.76	-30.5	-35.7	9.4	1.26e-02	0	43	102	1048576	21	6542
2026-01-05 03:11:44.92	285.28	7.66	-30.5	-35.7	9.4	1.87e-02	0	43	102	1048576	21	6535
2026-01-05 03:11:46.93	285.03	7.55	-30.3	-35.3	10.1	8.95e-03	0	43	102	1048576	20	6418
2026-01-05 03:11:48.95	284.78	7.45	-30.4	-35.5	9.9	1.02e-02	0	44	102	1048576	20	6534
2026-01-05 03:11:50.96	284.53	7.35	-30.3	-35.5	10.0	1.32e-02	0	43	102	1048576	20	6498
2026-01-05 03:11:52.97	284.28	7.24	-30.4	-35.7	9.7	1.12e-02	0	43	102	1048576	20	6641
2026-01-05 03:11:54.98	284.04	7.14	-30.4	-35.8	9.6	1.14e-02	0	44	102	1048576	20	6731
2026-01-05 03:11:56.99	283.79	7.03	-32.4	-46.8	3.8	1.31e+00	0	43	104	1048576	24	18959

#Closed at: 2026-01-05 03:11:59
#Recorded file [1 MB]: D:/data/31010_260105_060359.dat