passes_logs/2026/01/05/R2M6_AANII_01/R2M6_AANII_01__20260105_005534_AQUA_rec.log

#Pass ID: 20260105_005534_AQUA
#Satellite: AQUA
#Configuration: AQUA
#almurnet v.1.7.20240730
#Start time: 2026-01-05 00:55:34

#Version: 2.2.20231116
#Station: R2M6_AANII_01
#Location: 30.233357 lon 59.946436 lat
#TLE: 1 27424U 02022A   26003.93831470  .00001925  00000+0  39553-3 0  9995
#TLE: 2 27424  98.4067 330.1809 0002003  92.1713 343.8415 14.61796291259276

#Time	Az	El	Level	Level2	SNR	BER	BlckErr	Temp	State	Recorded	gain1	gain2
2026-01-05 00:55:34.83	26.99	7.01	-31.4	-39.0	5.0	7.13e-01	0	41	0	0	23	8658
2026-01-05 00:55:37.84	27.23	7.24	-32.1	-41.5	9.8	6.24e-01	0	41	102	524288	24	10631
2026-01-05 00:55:40.86	27.47	7.46	-31.8	-39.0	12.0	6.11e-01	0	41	102	524288	24	8320
2026-01-05 00:55:43.88	27.72	7.69	-31.2	-36.5	14.1	6.05e-01	0	41	102	524288	24	6613
2026-01-05 00:55:46.90	27.97	7.91	-30.8	-35.8	14.9	5.99e-01	0	41	102	524288	22	6432
2026-01-05 00:55:49.91	28.22	8.14	-30.7	-35.5	15.7	6.02e-01	0	41	102	524288	22	6242
2026-01-05 00:55:52.92	28.48	8.37	-30.5	-35.4	16.2	6.03e-01	0	41	102	524288	21	6300
2026-01-05 00:55:55.95	28.75	8.61	-30.4	-34.9	16.5	6.02e-01	0	41	102	524288	21	6062
2026-01-05 00:55:58.97	29.02	8.84	-30.5	-35.0	16.6	6.04e-01	0	41	102	524288	21	6061
2026-01-05 00:56:01.99	29.29	9.08	-30.3	-34.6	16.9	6.06e-01	0	41	102	524288	21	5895
2026-01-05 00:56:05.01	29.57	9.32	-30.4	-34.8	16.7	6.02e-01	0	42	102	524288	21	5989
2026-01-05 00:56:08.03	29.85	9.56	-30.4	-34.9	16.7	6.04e-01	0	42	102	524288	21	6003
2026-01-05 00:56:11.05	30.14	9.81	-30.5	-35.0	16.6	6.01e-01	0	42	102	524288	21	6072
2026-01-05 00:56:14.07	30.43	10.05	-30.4	-34.8	16.7	6.03e-01	0	42	102	524288	21	5973
2026-01-05 00:56:17.09	30.73	10.30	-30.3	-34.4	17.0	6.03e-01	0	42	102	524288	21	5780
2026-01-05 00:56:20.11	31.03	10.55	-30.3	-34.4	17.2	6.04e-01	0	42	102	524288	21	5730
2026-01-05 00:56:23.14	31.34	10.81	-30.3	-34.2	17.4	6.03e-01	0	42	102	524288	21	5660
2026-01-05 00:56:26.15	31.65	11.06	-30.3	-34.2	17.4	6.05e-01	0	42	102	524288	21	5664
2026-01-05 00:56:29.18	31.97	11.32	-30.3	-34.3	17.4	6.04e-01	0	42	102	524288	21	5695
2026-01-05 00:56:32.19	32.29	11.58	-30.2	-34.1	17.5	6.04e-01	0	42	102	524288	21	5592
2026-01-05 00:56:35.21	32.63	11.84	-30.2	-33.9	17.7	6.02e-01	0	42	102	524288	21	5514
2026-01-05 00:56:38.22	32.96	12.10	-30.3	-34.2	17.4	6.02e-01	0	42	102	524288	21	5660
2026-01-05 00:56:41.24	33.31	12.37	-30.3	-34.2	17.5	6.03e-01	0	42	102	524288	21	5656
2026-01-05 00:56:44.26	33.66	12.64	-30.2	-33.9	17.7	6.05e-01	0	42	102	524288	21	5525
2026-01-05 00:56:47.28	34.01	12.91	-30.1	-33.7	17.8	6.02e-01	0	42	102	524288	21	5422
2026-01-05 00:56:50.31	34.38	13.18	-29.9	-33.6	18.3	6.04e-01	0	42	102	524288	20	5498
2026-01-05 00:56:53.32	34.75	13.46	-30.0	-33.9	18.1	6.06e-01	0	42	102	524288	20	5635
2026-01-05 00:56:56.34	35.13	13.74	-30.1	-33.7	17.9	6.03e-01	0	43	102	524288	21	5431
2026-01-05 00:56:59.35	35.51	14.02	-30.2	-33.8	17.8	6.03e-01	0	42	102	524288	21	5475
2026-01-05 00:57:02.38	35.90	14.30	-30.0	-33.4	18.2	6.07e-01	0	42	102	524288	21	5285
2026-01-05 00:57:05.40	36.31	14.59	-30.0	-33.8	18.1	6.04e-01	0	42	102	524288	20	5579
2026-01-05 00:57:08.42	36.71	14.88	-30.1	-34.0	17.9	6.05e-01	0	42	102	524288	20	5662
2026-01-05 00:57:11.43	37.13	15.17	-30.2	-33.8	17.9	6.02e-01	0	43	102	524288	21	5443
2026-01-05 00:57:14.47	37.56	15.46	-30.1	-33.5	18.1	6.05e-01	0	43	102	524288	21	5326
2026-01-05 00:57:17.48	37.99	15.76	-30.3	-34.0	17.9	6.02e-01	0	43	102	524288	21	5532
2026-01-05 00:57:20.50	38.44	16.06	-30.1	-33.5	18.2	6.01e-01	0	43	102	524288	21	5313
2026-01-05 00:57:23.52	38.89	16.36	-30.1	-33.6	18.2	6.03e-01	0	42	102	524288	21	5348
2026-01-05 00:57:26.53	39.35	16.66	-30.1	-33.4	18.3	6.05e-01	0	43	102	524288	21	5284
2026-01-05 00:57:29.54	39.82	16.97	-30.1	-33.4	18.3	6.05e-01	0	43	102	524288	21	5272
2026-01-05 00:57:32.56	40.30	17.28	-30.0	-33.6	18.5	6.04e-01	0	43	102	524288	20	5467
2026-01-05 00:57:35.58	40.80	17.59	-29.8	-33.2	18.7	6.05e-01	0	43	102	524288	20	5285
2026-01-05 00:57:38.60	41.30	17.90	-29.9	-33.3	18.7	6.03e-01	0	43	102	524288	20	5336
2026-01-05 00:57:41.62	41.82	18.22	-29.8	-33.2	18.8	6.05e-01	0	43	102	524288	20	5278
2026-01-05 00:57:44.64	42.34	18.54	-29.9	-33.3	18.8	6.03e-01	0	43	102	524288	20	5336
2026-01-05 00:57:47.66	42.88	18.86	-30.0	-33.0	18.7	6.03e-01	0	43	102	524288	21	5104
2026-01-05 00:57:50.68	43.43	19.18	-30.1	-33.2	18.5	6.04e-01	0	43	102	524288	21	5187
2026-01-05 00:57:53.70	43.99	19.51	-30.0	-32.9	18.7	6.04e-01	0	43	102	524288	21	5065
2026-01-05 00:57:56.70	44.56	19.84	-30.1	-33.3	18.6	6.03e-01	0	43	102	524288	21	5211
2026-01-05 00:57:59.73	45.15	20.17	-29.9	-32.7	18.9	6.04e-01	0	43	102	524288	21	4983
2026-01-05 00:58:02.75	45.75	20.50	-30.0	-33.0	18.8	6.06e-01	0	43	102	524288	21	5082
2026-01-05 00:58:05.76	46.36	20.83	-29.9	-32.8	18.9	6.03e-01	0	43	102	524288	21	5028
2026-01-05 00:58:08.77	46.98	21.17	-29.9	-32.8	18.8	6.05e-01	0	43	102	524288	21	5025
2026-01-05 00:58:11.79	47.62	21.50	-30.1	-33.2	18.7	6.04e-01	0	43	102	524288	21	5159
2026-01-05 00:58:14.81	48.28	21.84	-30.2	-33.6	18.5	6.03e-01	0	43	102	524288	21	5320
2026-01-05 00:58:17.83	48.95	22.18	-30.3	-33.8	18.3	6.03e-01	0	43	102	524288	21	5379
2026-01-05 00:58:20.84	49.63	22.52	-30.6	-34.5	17.9	6.03e-01	0	43	102	524288	21	5678
2026-01-05 00:58:23.85	50.33	22.86	-30.3	-33.8	18.4	6.03e-01	0	43	102	524288	21	5371
2026-01-05 00:58:26.87	51.05	23.20	-30.1	-33.1	18.8	6.06e-01	0	43	102	524288	21	5097
2026-01-05 00:58:29.89	51.78	23.55	-30.1	-33.3	18.7	6.04e-01	0	43	102	524288	21	5172
2026-01-05 00:58:32.90	52.53	23.89	-30.4	-34.0	18.3	6.03e-01	0	43	102	524288	21	5447
2026-01-05 00:58:35.92	53.30	24.23	-30.1	-33.3	18.8	6.06e-01	0	43	102	524288	21	5175
2026-01-05 00:58:38.94	54.09	24.57	-30.3	-33.6	18.6	6.03e-01	0	43	102	524288	21	5289
2026-01-05 00:58:41.96	54.89	24.92	-30.5	-34.4	18.1	6.03e-01	0	43	102	524288	21	5610
2026-01-05 00:58:44.98	55.71	25.26	-31.1	-35.0	17.0	6.05e-01	0	43	102	524288	23	5620
2026-01-05 00:58:48.01	56.55	25.60	-31.2	-35.1	17.0	6.02e-01	0	43	102	524288	23	5692
2026-01-05 00:58:51.03	57.41	25.94	-31.6	-36.4	16.1	6.03e-01	0	43	102	524288	23	6286
2026-01-05 00:58:54.06	58.29	26.27	-30.7	-33.7	18.0	6.02e-01	0	43	102	524288	23	5089
2026-01-05 00:58:57.07	59.18	26.61	-30.3	-33.2	18.6	6.02e-01	0	43	102	524288	22	5008
2026-01-05 00:59:00.09	60.10	26.94	-30.3	-33.7	18.6	6.04e-01	0	43	102	524288	21	5304
2026-01-05 00:59:03.11	61.03	27.26	-30.4	-33.8	18.5	6.04e-01	0	43	102	524288	21	5361
2026-01-05 00:59:06.14	61.99	27.59	-30.4	-34.1	18.2	6.03e-01	0	43	102	524288	21	5477
2026-01-05 00:59:09.17	62.97	27.91	-30.6	-33.9	18.1	6.04e-01	0	43	102	524288	22	5266
2026-01-05 00:59:12.18	63.96	28.22	-30.5	-34.2	18.3	6.01e-01	0	43	102	524288	21	5512
2026-01-05 00:59:15.20	64.97	28.53	-30.2	-33.0	18.7	6.05e-01	0	43	102	524288	22	4940
2026-01-05 00:59:18.22	66.01	28.84	-30.4	-33.4	18.5	6.04e-01	0	43	102	524288	22	5103
2026-01-05 00:59:21.24	67.06	29.14	-30.4	-33.5	18.4	6.05e-01	0	43	102	524288	22	5121
2026-01-05 00:59:24.26	68.14	29.43	-30.5	-33.5	18.4	6.01e-01	0	43	102	524288	22	5140
2026-01-05 00:59:27.28	69.23	29.71	-30.3	-33.0	18.7	6.04e-01	0	43	102	524288	22	4955
2026-01-05 00:59:30.31	70.35	29.98	-30.2	-32.8	18.9	6.04e-01	0	43	102	524288	22	4861
2026-01-05 00:59:33.32	71.48	30.25	-30.3	-33.2	18.6	6.05e-01	0	43	102	524288	22	5008
2026-01-05 00:59:36.34	72.63	30.51	-30.3	-33.7	18.6	6.05e-01	0	43	102	524288	21	5298
2026-01-05 00:59:39.36	73.80	30.75	-30.4	-33.8	18.6	6.04e-01	0	43	102	524288	21	5352
2026-01-05 00:59:42.38	74.99	30.99	-30.0	-32.8	19.3	6.04e-01	0	43	102	524288	21	4956
2026-01-05 00:59:45.40	76.20	31.21	-30.1	-33.1	19.0	6.03e-01	0	43	102	524288	21	5079
2026-01-05 00:59:48.42	77.42	31.43	-30.0	-32.7	19.3	6.06e-01	0	43	102	524288	21	4955
2026-01-05 00:59:51.45	78.66	31.63	-30.0	-32.7	19.1	6.03e-01	0	43	102	524288	21	4953
2026-01-05 00:59:54.47	79.92	31.81	-29.9	-32.6	19.3	6.03e-01	0	43	102	524288	21	4893
2026-01-05 00:59:57.48	81.18	31.99	-29.8	-32.8	19.5	6.03e-01	0	43	102	524288	20	5071
2026-01-05 01:00:00.50	82.47	32.15	-29.9	-33.1	19.4	6.04e-01	0	43	102	524288	20	5175
2026-01-05 01:00:03.52	83.76	32.29	-30.1	-33.1	19.0	6.04e-01	0	43	102	524288	21	5081
2026-01-05 01:00:06.54	85.07	32.42	-30.0	-32.7	19.3	6.05e-01	0	43	102	524288	21	4942
2026-01-05 01:00:09.55	86.38	32.53	-30.0	-32.7	19.3	6.04e-01	0	43	102	524288	21	4938
2026-01-05 01:00:12.56	87.70	32.63	-30.3	-33.6	18.9	6.05e-01	0	43	102	524288	21	5247
2026-01-05 01:00:15.58	89.03	32.72	-30.1	-33.2	19.0	6.04e-01	0	43	102	524288	21	5097
2026-01-05 01:00:18.61	90.38	32.78	-30.5	-34.1	18.5	6.06e-01	0	43	102	524288	21	5439
2026-01-05 01:00:21.62	91.72	32.83	-30.0	-32.2	19.3	6.02e-01	0	43	102	524288	22	4660
2026-01-05 01:00:24.65	93.07	32.86	-30.1	-33.2	19.0	6.02e-01	0	43	102	524288	21	5110
2026-01-05 01:00:27.67	94.42	32.88	-29.7	-32.1	19.7	6.03e-01	0	43	102	524288	21	4732
2026-01-05 01:00:30.68	95.76	32.88	-29.6	-32.4	19.8	6.01e-01	0	43	102	524288	20	4934
2026-01-05 01:00:33.69	97.11	32.86	-29.8	-32.9	19.5	6.05e-01	0	43	102	524288	20	5128
2026-01-05 01:00:36.71	98.46	32.83	-29.5	-32.1	20.0	6.02e-01	0	43	102	524288	20	4824
2026-01-05 01:00:39.73	99.80	32.77	-29.8	-32.8	19.5	6.00e-01	0	43	102	524288	20	5086
2026-01-05 01:00:42.74	101.14	32.70	-29.6	-32.2	19.9	6.03e-01	0	43	102	524288	20	4878
2026-01-05 01:00:45.76	102.47	32.62	-29.7	-32.6	19.7	6.04e-01	0	43	102	524288	20	5004
2026-01-05 01:00:48.78	103.79	32.52	-29.6	-32.3	19.8	6.03e-01	0	43	102	524288	20	4930
2026-01-05 01:00:51.79	105.11	32.40	-29.6	-32.4	19.7	6.02e-01	0	43	102	524288	20	4952
2026-01-05 01:00:54.82	106.42	32.27	-29.5	-32.1	19.9	6.05e-01	0	43	102	524288	20	4828
2026-01-05 01:00:57.84	107.71	32.12	-29.5	-32.1	19.9	6.04e-01	0	43	102	524288	20	4856
2026-01-05 01:01:00.85	108.99	31.96	-29.6	-32.4	19.7	6.04e-01	0	43	102	524288	20	4953
2026-01-05 01:01:03.88	110.26	31.78	-29.7	-32.5	19.7	6.03e-01	0	43	102	524288	20	4969
2026-01-05 01:01:06.90	111.52	31.59	-29.4	-31.9	20.0	6.03e-01	0	43	102	524288	20	4787
2026-01-05 01:01:09.92	112.76	31.39	-29.5	-32.1	19.8	6.04e-01	0	43	102	524288	20	4857
2026-01-05 01:01:12.94	113.98	31.17	-29.5	-32.1	19.9	6.04e-01	0	43	102	524288	20	4833
2026-01-05 01:01:15.96	115.19	30.95	-29.5	-32.1	19.8	6.05e-01	0	43	102	524288	20	4857
2026-01-05 01:01:18.99	116.38	30.71	-29.6	-32.7	19.8	6.02e-01	0	43	102	524288	19	5166
2026-01-05 01:01:22.02	117.56	30.46	-29.6	-32.5	19.6	6.02e-01	0	43	102	524288	20	4981
2026-01-05 01:01:25.04	118.71	30.20	-29.6	-32.5	19.6	6.04e-01	0	43	102	524288	20	4982
2026-01-05 01:01:28.06	119.84	29.93	-29.8	-32.9	19.3	6.02e-01	0	43	102	524288	20	5120
2026-01-05 01:01:31.09	120.96	29.65	-29.4	-31.8	20.0	6.02e-01	0	43	102	524288	20	4753
2026-01-05 01:01:34.11	122.06	29.37	-29.5	-32.1	19.8	6.06e-01	0	43	102	524288	20	4851
2026-01-05 01:01:37.13	123.13	29.07	-29.7	-32.6	19.5	6.04e-01	0	43	102	524288	20	5031
2026-01-05 01:01:40.16	124.19	28.77	-29.6	-32.3	19.7	6.03e-01	0	43	102	524288	20	4911
2026-01-05 01:01:43.17	125.22	28.47	-29.9	-33.2	19.1	6.07e-01	0	43	102	524288	20	5249
2026-01-05 01:01:46.20	126.24	28.15	-30.0	-33.0	18.9	6.03e-01	0	43	102	524288	21	5073
2026-01-05 01:01:49.22	127.23	27.83	-30.0	-32.9	19.0	6.02e-01	0	43	102	524288	21	5047
2026-01-05 01:01:52.23	128.21	27.51	-29.7	-32.1	19.4	6.03e-01	0	43	102	524288	21	4761
2026-01-05 01:01:55.25	129.16	27.19	-29.8	-32.5	19.2	6.02e-01	0	43	102	524288	21	4886
2026-01-05 01:01:58.27	130.10	26.86	-29.8	-32.4	19.2	6.03e-01	0	43	102	524288	21	4875
2026-01-05 01:02:01.28	131.01	26.52	-29.8	-32.9	19.2	6.03e-01	0	43	102	524288	20	5160
2026-01-05 01:02:04.31	131.91	26.19	-29.9	-33.2	18.9	6.02e-01	0	43	102	524288	20	5289
2026-01-05 01:02:07.33	132.78	25.85	-29.9	-33.2	19.0	6.04e-01	0	43	102	524288	20	5258
2026-01-05 01:02:10.34	133.64	25.51	-29.9	-33.4	18.8	6.04e-01	0	43	102	524288	20	5349
2026-01-05 01:02:13.37	134.48	25.16	-30.0	-33.4	18.8	6.03e-01	0	43	102	524288	20	5378
2026-01-05 01:02:16.39	135.30	24.82	-29.9	-33.5	18.7	6.03e-01	0	43	102	524288	20	5397
2026-01-05 01:02:19.41	136.10	24.47	-30.1	-33.4	18.4	6.01e-01	0	43	102	524288	21	5268
2026-01-05 01:02:22.43	136.89	24.13	-30.1	-33.5	18.3	6.04e-01	0	43	102	524288	21	5298
2026-01-05 01:02:25.44	137.65	23.79	-30.1	-33.4	18.4	6.04e-01	0	43	102	524288	21	5264
2026-01-05 01:02:28.47	138.41	23.44	-30.0	-33.6	18.6	6.02e-01	0	43	102	524288	20	5452
2026-01-05 01:02:31.48	139.14	23.09	-30.0	-33.6	18.6	6.05e-01	0	43	102	524288	20	5430
2026-01-05 01:02:34.49	139.85	22.75	-29.8	-33.1	18.9	6.05e-01	0	43	102	524288	20	5251
2026-01-05 01:02:37.52	140.55	22.41	-29.8	-33.1	18.9	6.05e-01	0	43	102	524288	20	5250
2026-01-05 01:02:40.55	141.24	22.06	-29.9	-33.4	18.7	6.02e-01	0	43	102	524288	20	5376
2026-01-05 01:02:43.56	141.91	21.72	-30.1	-33.9	18.3	6.00e-01	0	43	102	524288	20	5581
2026-01-05 01:02:46.57	142.56	21.38	-30.2	-33.6	18.1	6.03e-01	0	43	102	524288	21	5363
2026-01-05 01:02:49.59	143.20	21.04	-30.1	-33.5	18.2	6.02e-01	0	43	102	524288	21	5324
2026-01-05 01:02:52.62	143.83	20.70	-30.2	-33.9	17.9	6.04e-01	0	43	102	524288	21	5490
2026-01-05 01:02:55.64	144.44	20.37	-30.1	-33.4	18.1	6.02e-01	0	43	102	524288	21	5302
2026-01-05 01:02:58.66	145.04	20.03	-30.1	-33.5	18.1	6.06e-01	0	43	102	524288	21	5319
2026-01-05 01:03:01.68	145.63	19.70	-30.1	-33.6	18.0	6.06e-01	0	43	102	524288	21	5357
2026-01-05 01:03:04.70	146.20	19.37	-30.1	-33.6	18.0	6.04e-01	0	43	102	524288	21	5394
2026-01-05 01:03:07.70	146.76	19.05	-29.7	-33.0	18.6	6.03e-01	0	43	102	524288	20	5252
2026-01-05 01:03:10.73	147.31	18.72	-29.6	-32.8	18.8	6.04e-01	0	43	102	524288	20	5183
2026-01-05 01:03:13.74	147.84	18.40	-29.8	-33.2	18.5	6.04e-01	0	43	102	524288	20	5341
2026-01-05 01:03:16.77	148.37	18.08	-29.8	-33.3	18.4	6.04e-01	0	43	102	524288	20	5372
2026-01-05 01:03:19.79	148.88	17.76	-29.9	-33.6	18.2	6.05e-01	0	43	102	524288	20	5505
2026-01-05 01:03:22.81	149.38	17.44	-29.9	-33.6	18.1	6.04e-01	0	43	102	524288	20	5509
2026-01-05 01:03:25.83	149.88	17.13	-29.8	-33.4	18.3	6.02e-01	0	43	102	524288	20	5401
2026-01-05 01:03:28.84	150.36	16.82	-29.8	-33.2	18.4	6.03e-01	0	43	102	524288	20	5367
2026-01-05 01:03:31.85	150.83	16.51	-29.8	-33.5	18.1	6.02e-01	0	43	102	524288	20	5471
2026-01-05 01:03:34.86	151.28	16.21	-29.7	-33.2	18.2	6.05e-01	0	43	102	524288	20	5374
2026-01-05 01:03:37.89	151.74	15.90	-29.6	-32.9	18.4	6.03e-01	0	43	102	524288	20	5260
2026-01-05 01:03:40.91	152.18	15.60	-29.6	-33.0	18.3	6.04e-01	0	43	102	524288	20	5313
2026-01-05 01:03:43.93	152.61	15.30	-29.7	-33.3	18.1	6.03e-01	0	43	102	524288	20	5423
2026-01-05 01:03:46.94	153.04	15.01	-29.7	-33.3	18.0	6.04e-01	0	43	102	524288	20	5435
2026-01-05 01:03:49.96	153.45	14.71	-29.8	-33.6	17.8	6.03e-01	0	43	102	524288	20	5596
2026-01-05 01:03:52.98	153.86	14.42	-29.6	-33.1	18.1	6.05e-01	0	43	102	524288	20	5395
2026-01-05 01:03:56.01	154.26	14.14	-29.6	-33.1	18.1	6.03e-01	0	43	102	524288	20	5368
2026-01-05 01:03:59.02	154.65	13.85	-29.6	-32.9	16.3	6.05e-01	0	43	102	524288	20	5293
2026-01-05 01:04:02.03	155.03	13.57	-29.7	-33.2	17.4	6.04e-01	0	43	102	524288	20	5400
2026-01-05 01:04:05.05	155.41	13.29	-29.5	-32.8	18.2	6.04e-01	0	43	102	524288	20	5257
2026-01-05 01:04:08.07	155.78	13.01	-29.7	-33.2	18.0	6.04e-01	0	43	102	524288	20	5412
2026-01-05 01:04:11.09	156.14	12.74	-29.7	-33.3	18.0	6.03e-01	0	43	102	524288	20	5448
2026-01-05 01:04:14.12	156.50	12.46	-29.7	-33.4	17.8	6.05e-01	0	43	102	524288	20	5530
2026-01-05 01:04:17.13	156.85	12.19	-29.8	-33.7	17.6	6.04e-01	0	43	102	524288	20	5654
2026-01-05 01:04:20.15	157.19	11.93	-29.8	-33.6	17.7	6.05e-01	0	43	102	524288	20	5607
2026-01-05 01:04:23.18	157.52	11.66	-29.8	-33.6	17.7	6.07e-01	0	43	102	524288	20	5602
2026-01-05 01:04:26.19	157.85	11.40	-29.8	-33.6	17.6	6.02e-01	0	43	102	524288	20	5609
2026-01-05 01:04:29.21	158.18	11.14	-29.8	-33.7	17.6	6.03e-01	0	43	102	524288	20	5638
2026-01-05 01:04:32.23	158.49	10.88	-29.8	-33.7	17.5	6.04e-01	0	43	102	524288	20	5650
2026-01-05 01:04:35.25	158.81	10.62	-30.0	-34.2	17.2	6.02e-01	0	43	102	524288	20	5851
2026-01-05 01:04:38.27	159.11	10.37	-29.9	-34.0	17.2	6.04e-01	0	43	102	524288	20	5784
2026-01-05 01:04:41.28	159.41	10.12	-30.0	-34.4	17.0	6.03e-01	0	43	102	524288	20	5961
2026-01-05 01:04:44.31	159.71	9.87	-29.9	-34.1	17.1	6.03e-01	0	43	102	524288	20	5841
2026-01-05 01:04:47.33	160.00	9.62	-30.0	-34.3	16.8	6.03e-01	0	43	102	524288	20	5947
2026-01-05 01:04:50.34	160.28	9.37	-29.9	-34.2	16.8	6.03e-01	0	43	102	524288	20	5929
2026-01-05 01:04:53.37	160.56	9.13	-29.7	-33.9	17.0	6.02e-01	0	43	102	524288	20	5835
2026-01-05 01:04:56.39	160.84	8.89	-29.8	-34.2	16.8	6.03e-01	0	43	102	524288	20	6006
2026-01-05 01:04:59.41	161.11	8.65	-29.9	-34.5	16.7	6.05e-01	0	43	102	524288	20	6105
2026-01-05 01:05:02.42	161.37	8.42	-30.0	-34.7	16.5	6.03e-01	0	43	102	524288	20	6166
2026-01-05 01:05:05.45	161.64	8.18	-30.1	-34.8	16.5	6.04e-01	0	43	102	524288	20	6194
2026-01-05 01:05:08.46	161.89	7.95	-30.2	-34.6	16.2	6.05e-01	0	43	102	524288	21	5998
2026-01-05 01:05:11.47	162.15	7.72	-30.3	-35.1	15.8	6.04e-01	0	43	102	524288	21	6285
2026-01-05 01:05:14.49	162.39	7.49	-30.2	-35.0	15.9	6.02e-01	0	43	102	524288	21	6220
2026-01-05 01:05:17.51	162.64	7.26	-30.3	-35.4	15.6	6.04e-01	0	43	102	524288	21	6441
2026-01-05 01:05:20.53	162.88	7.04	-32.4	-49.2	4.1	7.46e-01	0	43	104	524288	25	24720

#Closed at: 2026-01-05 01:05:21
#Recorded file [0 MB]: D:/data/31010_260105_035536.dat