passes_logs/2026/01/05/R2M6_AANII_01/R2M6_AANII_01__20260105_024303_SUOMI_NPP_rec.log

#Pass ID: 20260105_024303_SUOMI NPP
#Satellite: SUOMI NPP
#Configuration: NPP
#almurnet v.1.7.20240730
#Start time: 2026-01-05 02:43:27

#Version: 2.2.20231116
#Station: R2M6_AANII_01
#Location: 30.233357 lon 59.946436 lat
#TLE: 1 37849U 11061A   26003.96724563  .00000164  00000+0  98899-4 0  9990
#TLE: 2 37849  98.7800 306.1116 0002573  82.3190 277.8279 14.19522066735141

#Time	Az	El	Level	Level2	SNR	BER	BlckErr	Temp	State	Recorded	gain1	gain2
2026-01-05 02:43:27.14	6.61	8.40	-33.6	-52.8	3.8	7.45e-01	0	43	0	0	28	32583
2026-01-05 02:43:30.15	6.26	8.58	-33.9	-46.6	3.8	1.49e+00	0	43	104	0	27	15432
2026-01-05 02:43:33.18	5.90	8.76	-34.0	-46.6	3.8	1.49e+00	0	43	104	0	27	15446
2026-01-05 02:43:36.19	5.54	8.94	-33.9	-46.5	3.8	1.49e+00	0	43	104	0	27	15343
2026-01-05 02:43:39.21	5.17	9.12	-33.9	-46.5	3.8	1.49e+00	0	43	104	0	27	15312
2026-01-05 02:43:42.23	4.80	9.30	-33.9	-46.4	3.8	1.49e+00	0	43	104	0	27	15276
2026-01-05 02:43:45.25	4.42	9.48	-33.9	-46.6	3.8	1.49e+00	0	43	104	0	27	15460
2026-01-05 02:43:48.28	4.04	9.66	-33.9	-46.5	3.8	1.49e+00	0	43	104	0	27	15394
2026-01-05 02:43:51.30	3.66	9.84	-33.9	-46.4	3.8	1.49e+00	0	43	104	0	27	15296
2026-01-05 02:43:54.32	3.27	10.02	-33.8	-46.2	3.8	1.49e+00	0	43	104	0	27	15126
2026-01-05 02:43:57.34	2.87	10.20	-33.6	-45.8	3.8	1.49e+00	0	43	104	0	27	14782
2026-01-05 02:44:00.36	2.47	10.38	-33.2	-45.3	3.8	1.49e+00	0	44	104	0	26	14517
2026-01-05 02:44:03.39	2.06	10.56	-32.9	-45.3	3.8	1.49e+00	0	43	104	0	25	14985
2026-01-05 02:44:06.41	1.65	10.74	-32.9	-44.9	3.8	1.49e+00	0	43	104	0	25	14283
2026-01-05 02:44:09.43	1.24	10.92	-32.8	-43.8	3.8	1.49e+00	0	43	104	0	25	12789
2026-01-05 02:44:12.45	0.82	11.10	-32.8	-43.3	3.9	1.49e+00	0	43	104	0	25	12051
2026-01-05 02:44:15.47	0.39	11.28	-32.9	-45.2	3.8	1.49e+00	0	43	104	0	25	14814
2026-01-05 02:44:18.49	359.96	11.45	-32.7	-43.0	3.8	1.49e+00	0	44	104	0	25	11739
2026-01-05 02:44:21.52	359.52	11.63	-32.3	-39.3	5.3	8.50e-01	0	44	104	0	24	8065
2026-01-05 02:44:24.54	359.08	11.81	-32.3	-39.1	5.5	4.95e-01	0	44	102	1048576	24	7919
2026-01-05 02:44:27.55	358.63	11.99	-32.0	-37.5	6.5	2.58e-01	0	43	102	1048576	24	6776
2026-01-05 02:44:30.57	358.18	12.17	-31.9	-37.6	6.8	2.17e-01	0	44	102	1048576	23	6936
2026-01-05 02:44:33.60	357.72	12.34	-31.9	-37.5	6.8	1.99e-01	0	44	102	1048576	23	6859
2026-01-05 02:44:36.62	357.25	12.52	-31.3	-35.4	8.9	3.94e-02	0	44	102	1048576	22	5737
2026-01-05 02:44:39.63	356.79	12.69	-31.0	-34.4	9.7	1.16e-02	0	44	102	1048576	22	5310
2026-01-05 02:44:42.65	356.31	12.87	-31.2	-34.8	9.4	2.24e-02	0	43	102	1048576	22	5461
2026-01-05 02:44:45.67	355.83	13.04	-31.2	-34.8	9.3	2.19e-02	0	44	102	1048576	22	5491
2026-01-05 02:44:48.69	355.34	13.22	-31.2	-34.7	9.4	1.28e-02	0	43	102	1048576	22	5438
2026-01-05 02:44:51.72	354.84	13.39	-31.0	-34.7	9.8	8.94e-03	0	43	102	1048576	21	5504
2026-01-05 02:44:54.74	354.34	13.56	-31.1	-34.6	9.5	1.90e-02	0	43	102	1048576	22	5360
2026-01-05 02:44:57.76	353.84	13.73	-30.9	-34.4	10.0	1.01e-02	0	44	102	1048576	21	5390
2026-01-05 02:45:00.78	353.33	13.90	-31.2	-34.9	9.4	1.77e-02	0	44	102	1048576	22	5504
2026-01-05 02:45:03.80	352.81	14.07	-31.2	-35.0	9.3	1.60e-02	0	43	102	1048576	22	5532
2026-01-05 02:45:06.82	352.29	14.23	-31.1	-34.5	9.7	1.80e-02	0	43	102	1048576	22	5320
2026-01-05 02:45:09.84	351.76	14.40	-30.5	-32.9	11.2	1.70e-03	0	44	102	1048576	21	4751
2026-01-05 02:45:12.86	351.22	14.56	-30.5	-33.0	11.1	1.40e-03	0	44	102	1048576	21	4817
2026-01-05 02:45:15.88	350.68	14.73	-30.3	-32.8	11.6	7.59e-04	0	44	102	1048576	20	4831
2026-01-05 02:45:18.90	350.13	14.89	-30.0	-31.9	12.3	2.04e-04	0	44	102	1048576	20	4512
2026-01-05 02:45:21.92	349.58	15.05	-30.2	-32.4	11.9	3.98e-04	0	44	102	1048576	20	4681
2026-01-05 02:45:24.94	349.02	15.21	-30.0	-31.9	12.3	3.79e-04	0	43	102	1048576	20	4495
2026-01-05 02:45:27.96	348.45	15.36	-29.8	-31.9	12.8	4.80e-05	0	44	102	1048576	19	4558
2026-01-05 02:45:30.99	347.88	15.52	-30.2	-32.7	11.7	3.56e-04	0	44	102	1048576	20	4782
2026-01-05 02:45:34.02	347.30	15.67	-30.1	-32.2	12.0	4.97e-04	0	43	102	1048576	20	4622
2026-01-05 02:45:37.03	346.72	15.82	-30.3	-32.9	11.6	4.23e-04	0	44	102	1048576	20	4841
2026-01-05 02:45:40.05	346.13	15.97	-29.8	-32.0	12.6	9.76e-05	0	44	102	1048576	19	4602
2026-01-05 02:45:43.06	345.54	16.12	-29.6	-31.4	13.1	3.35e-05	0	44	102	1048576	19	4391
2026-01-05 02:45:46.09	344.93	16.26	-29.6	-31.2	13.2	2.32e-03	0	44	102	1048576	19	4328
2026-01-05 02:45:49.11	344.33	16.40	-30.0	-32.4	12.5	2.42e-03	0	44	102	1048576	19	4740
2026-01-05 02:45:52.12	343.71	16.54	-29.9	-32.1	12.6	2.39e-03	0	43	102	1048576	19	4650
2026-01-05 02:45:55.14	343.10	16.68	-29.8	-31.8	12.9	6.02e-05	0	44	102	1048576	19	4515
2026-01-05 02:45:58.14	342.48	16.81	-29.8	-31.6	12.9	4.34e-05	0	44	102	1048576	19	4476
2026-01-05 02:46:01.17	341.84	16.94	-29.5	-30.9	13.5	6.53e-04	0	43	102	1048576	19	4220
2026-01-05 02:46:04.18	341.21	17.07	-29.7	-31.3	13.3	2.76e-03	0	44	102	1048576	19	4355
2026-01-05 02:46:07.20	340.57	17.19	-29.9	-31.6	12.7	2.84e-03	0	44	102	1048576	20	4374
2026-01-05 02:46:10.23	339.92	17.31	-30.3	-32.6	12.0	2.84e-03	0	44	102	1048576	20	4699
2026-01-05 02:46:13.26	339.27	17.43	-29.9	-31.6	12.7	2.81e-03	0	43	102	1048576	20	4356
2026-01-05 02:46:16.28	338.61	17.55	-30.3	-32.8	11.8	3.17e-03	0	44	102	1048576	20	4792
2026-01-05 02:46:19.31	337.95	17.66	-30.1	-32.2	12.3	2.51e-04	0	44	102	1048576	20	4574
2026-01-05 02:46:22.32	337.28	17.77	-29.6	-31.1	13.4	2.21e-05	0	44	102	1048576	19	4298
2026-01-05 02:46:25.35	336.61	17.88	-29.7	-31.5	13.2	3.05e-05	0	44	102	1048576	19	4408
2026-01-05 02:46:28.37	335.93	17.98	-29.1	-30.4	14.2	2.31e-03	0	44	102	1048576	18	4158
2026-01-05 02:46:31.38	335.25	18.07	-28.9	-30.2	14.6	2.53e-03	0	44	102	1048576	17	4184
2026-01-05 02:46:34.39	334.57	18.17	-28.8	-30.0	14.8	2.39e-03	0	44	102	1048576	17	4132
2026-01-05 02:46:37.41	333.88	18.26	-29.3	-30.7	14.0	2.38e-03	0	44	102	1048576	18	4263
2026-01-05 02:46:40.42	333.19	18.34	-29.4	-31.1	13.7	3.80e-06	0	44	102	1048576	18	4377
2026-01-05 02:46:43.44	332.49	18.42	-29.8	-31.6	13.1	2.51e-05	0	44	102	1048576	19	4445
2026-01-05 02:46:46.45	331.79	18.50	-30.0	-31.8	12.6	1.66e-03	0	44	102	1048576	20	4413
2026-01-05 02:46:49.47	331.09	18.58	-30.3	-32.6	12.0	1.25e-03	0	43	102	1048576	20	4695
2026-01-05 02:46:52.49	330.38	18.64	-30.5	-33.2	11.6	9.65e-04	0	44	102	1048576	20	4925
2026-01-05 02:46:55.51	329.67	18.71	-30.3	-32.6	12.0	1.07e-03	0	44	102	1048576	20	4720
2026-01-05 02:46:58.52	328.96	18.77	-29.9	-31.6	12.7	1.06e-03	0	44	102	1048576	20	4351
2026-01-05 02:47:01.53	328.24	18.82	-29.9	-32.0	12.9	6.31e-04	0	44	102	1048576	19	4569
2026-01-05 02:47:04.54	327.53	18.88	-30.3	-32.6	12.0	1.02e-03	0	44	102	1048576	20	4685
2026-01-05 02:47:07.56	326.80	18.92	-29.9	-32.1	12.7	7.83e-04	0	44	102	1048576	19	4632
2026-01-05 02:47:10.58	326.08	18.96	-30.4	-32.9	11.8	1.04e-03	0	44	102	1048576	20	4831
2026-01-05 02:47:13.60	325.35	19.00	-30.6	-33.2	11.1	1.61e-03	0	44	102	1048576	21	4865
2026-01-05 02:47:16.62	324.63	19.03	-30.6	-33.1	11.3	1.71e-03	0	44	102	1048576	21	4820
2026-01-05 02:47:19.64	323.90	19.06	-30.4	-32.4	11.7	8.33e-04	0	44	102	1048576	21	4557
2026-01-05 02:47:22.67	323.16	19.08	-30.4	-33.0	11.7	4.59e-04	0	44	102	1048576	20	4856
2026-01-05 02:47:25.69	322.43	19.10	-30.3	-32.8	11.8	6.76e-04	0	44	102	1048576	20	4782
2026-01-05 02:47:28.70	321.70	19.12	-29.9	-31.6	12.7	3.17e-04	0	44	102	1048576	20	4377
2026-01-05 02:47:31.73	320.97	19.12	-29.7	-31.4	13.2	4.42e-05	0	44	102	1048576	19	4382
2026-01-05 02:47:34.75	320.23	19.13	-29.8	-31.9	12.8	4.80e-05	0	44	102	1048576	19	4545
2026-01-05 02:47:37.76	319.50	19.13	-30.1	-32.1	12.3	4.90e-04	0	44	102	1048576	20	4527
2026-01-05 02:47:40.77	318.77	19.12	-30.2	-32.5	12.0	8.20e-04	0	43	102	1048576	20	4683
2026-01-05 02:47:43.79	318.04	19.11	-30.1	-32.3	12.2	6.25e-04	0	44	102	1048576	20	4596
2026-01-05 02:47:46.81	317.31	19.09	-30.2	-32.5	12.0	5.12e-04	0	44	102	1048576	20	4692
2026-01-05 02:47:49.84	316.57	19.07	-30.3	-32.8	11.8	6.97e-04	0	44	102	1048576	20	4789
2026-01-05 02:47:52.85	315.85	19.05	-30.9	-34.1	10.6	3.23e-03	0	44	102	1048576	21	5207
2026-01-05 02:47:55.87	315.12	19.02	-29.4	-32.6	10.9	2.50e-03	0	44	102	1048576	20	5198
2026-01-05 02:47:58.88	314.39	18.98	-30.3	-32.9	11.3	1.03e-03	0	44	102	1048576	20	4805
2026-01-05 02:48:01.90	313.67	18.94	-29.9	-32.0	12.8	1.64e-03	0	43	102	1048576	19	4574
2026-01-05 02:48:04.92	312.94	18.90	-29.8	-31.8	13.0	4.42e-04	0	43	102	1048576	19	4517
2026-01-05 02:48:07.94	312.22	18.85	-29.5	-31.0	13.5	2.83e-04	0	44	102	1048576	19	4267
2026-01-05 02:48:10.95	311.51	18.79	-29.5	-31.0	13.4	1.83e-04	0	44	102	1048576	19	4264
2026-01-05 02:48:13.96	310.79	18.74	-29.7	-31.4	13.2	2.44e-05	0	44	102	1048576	19	4393
2026-01-05 02:48:16.99	310.08	18.67	-29.6	-31.0	13.5	1.44e-05	0	44	102	1048576	19	4268
2026-01-05 02:48:20.01	309.37	18.60	-29.7	-31.2	13.3	1.66e-03	0	44	102	1048576	19	4321
2026-01-05 02:48:23.03	308.66	18.53	-29.7	-31.4	13.2	1.17e-03	0	43	102	1048576	19	4385
2026-01-05 02:48:26.06	307.95	18.46	-29.7	-31.4	13.3	4.07e-04	0	44	102	1048576	19	4368
2026-01-05 02:48:29.07	307.26	18.38	-29.8	-31.8	13.0	4.35e-04	0	44	102	1048576	19	4497
2026-01-05 02:48:32.10	306.56	18.29	-29.4	-31.0	13.4	1.24e-03	0	44	102	1048576	18	4358
2026-01-05 02:48:35.12	305.87	18.20	-29.6	-31.1	12.7	1.59e-03	0	43	102	1048576	19	4293
2026-01-05 02:48:38.14	305.18	18.11	-30.1	-32.0	12.3	1.37e-03	0	44	102	1048576	20	4511
2026-01-05 02:48:41.16	304.49	18.02	-30.4	-33.0	11.7	1.90e-03	0	44	102	1048576	20	4873
2026-01-05 02:48:44.17	303.82	17.92	-30.4	-32.9	11.8	1.66e-03	0	44	102	1048576	20	4815
2026-01-05 02:48:47.19	303.14	17.81	-30.2	-32.3	12.1	1.92e-03	0	44	102	1048576	20	4625
2026-01-05 02:48:50.21	302.47	17.71	-30.3	-32.6	11.8	9.47e-04	0	43	102	1048576	20	4739
2026-01-05 02:48:53.23	301.81	17.59	-30.4	-33.1	11.6	6.05e-04	0	43	102	1048576	20	4917
2026-01-05 02:48:56.25	301.15	17.48	-30.4	-33.0	11.7	5.07e-04	0	44	102	1048576	20	4851
2026-01-05 02:48:59.27	300.49	17.36	-30.0	-31.8	12.5	1.38e-03	0	44	102	1048576	20	4439
2026-01-05 02:49:02.29	299.84	17.24	-30.0	-32.3	12.5	1.95e-03	0	44	102	1048576	19	4678
2026-01-05 02:49:05.31	299.20	17.12	-29.9	-32.0	12.7	1.97e-03	0	44	102	1048576	19	4593
2026-01-05 02:49:08.33	298.56	16.99	-29.9	-32.0	12.7	1.95e-03	0	44	102	1048576	19	4603
2026-01-05 02:49:11.35	297.92	16.86	-30.1	-32.0	12.4	2.12e-03	0	43	102	1048576	20	4467
2026-01-05 02:49:14.37	297.29	16.73	-29.7	-31.4	13.2	1.69e-03	0	44	102	1048576	19	4356
2026-01-05 02:49:17.39	296.67	16.59	-29.5	-31.2	13.6	1.77e-03	0	44	102	1048576	18	4401
2026-01-05 02:49:20.41	296.05	16.46	-29.7	-31.4	13.2	2.19e-03	0	43	102	1048576	19	4363
2026-01-05 02:49:23.43	295.44	16.31	-30.2	-32.4	12.0	2.84e-03	0	44	102	1048576	20	4638
2026-01-05 02:49:26.45	294.84	16.17	-30.8	-33.9	10.7	5.39e-03	0	44	102	1048576	21	5096
2026-01-05 02:49:29.47	294.24	16.03	-30.6	-33.2	11.2	4.19e-03	0	44	102	1048576	21	4817
2026-01-05 02:49:32.49	293.64	15.88	-30.7	-33.3	11.0	1.87e-03	0	44	102	1048576	21	4889
2026-01-05 02:49:35.51	293.06	15.73	-30.8	-33.7	10.8	2.17e-03	0	44	102	1048576	21	5023
2026-01-05 02:49:38.52	292.48	15.58	-30.5	-32.9	11.3	1.20e-03	0	43	102	1048576	21	4734
2026-01-05 02:49:41.55	291.90	15.42	-30.1	-32.2	12.2	2.35e-04	0	44	102	1048576	20	4548
2026-01-05 02:49:44.56	291.33	15.27	-30.1	-32.0	12.3	2.23e-04	0	43	102	1048576	20	4495
2026-01-05 02:49:47.58	290.76	15.11	-30.1	-32.0	12.2	3.13e-04	0	44	102	1048576	20	4489
2026-01-05 02:49:50.59	290.21	14.95	-30.1	-32.1	12.1	3.76e-04	0	44	102	1048576	20	4552
2026-01-05 02:49:53.61	289.66	14.79	-30.4	-32.9	11.6	5.73e-04	0	44	102	1048576	20	4837
2026-01-05 02:49:56.63	289.11	14.63	-30.2	-32.4	11.9	4.29e-04	0	44	102	1048576	20	4660
2026-01-05 02:49:59.65	288.57	14.46	-30.0	-31.8	11.2	1.25e-04	0	43	102	1048576	20	4432
2026-01-05 02:50:02.68	288.04	14.30	-30.1	-32.3	11.9	4.04e-04	0	44	102	1048576	20	4614
2026-01-05 02:50:05.69	287.51	14.13	-30.6	-33.3	10.9	1.21e-03	0	44	102	1048576	21	4901
2026-01-05 02:50:08.71	286.99	13.96	-31.3	-35.0	9.3	1.43e-02	0	44	102	1048576	22	5542
2026-01-05 02:50:11.73	286.47	13.79	-31.5	-35.8	8.6	3.27e-02	0	44	102	1048576	22	5919
2026-01-05 02:50:14.75	285.96	13.62	-31.3	-35.1	9.1	2.86e-02	0	44	102	1048576	22	5566
2026-01-05 02:50:17.77	285.46	13.45	-31.0	-34.0	10.1	1.18e-02	0	43	102	1048576	22	5087
2026-01-05 02:50:20.79	284.96	13.28	-30.7	-33.7	10.5	4.81e-03	0	44	102	1048576	21	5052
2026-01-05 02:50:23.82	284.46	13.10	-30.7	-33.6	10.7	2.39e-03	0	44	102	1048576	21	5013
2026-01-05 02:50:26.84	283.98	12.93	-30.7	-33.6	10.6	2.57e-03	0	44	102	1048576	21	5020
2026-01-05 02:50:29.86	283.50	12.75	-30.8	-33.8	10.4	8.33e-03	0	44	102	1048576	21	5123
2026-01-05 02:50:32.88	283.02	12.58	-30.3	-32.9	11.4	4.46e-03	0	44	102	1048576	20	4853
2026-01-05 02:50:35.90	282.55	12.40	-30.3	-32.8	11.5	3.27e-03	0	44	102	1048576	20	4814
2026-01-05 02:50:38.91	282.09	12.23	-30.4	-33.1	11.3	3.29e-03	0	44	102	1048576	20	4933
2026-01-05 02:50:41.93	281.63	12.05	-30.2	-32.6	11.6	3.24e-03	0	44	102	1048576	20	4749
2026-01-05 02:50:44.95	281.18	11.87	-30.5	-32.8	11.1	4.44e-03	0	44	102	1048576	21	4739
2026-01-05 02:50:47.97	280.73	11.69	-30.5	-33.0	10.9	2.26e-03	0	44	102	1048576	21	4811
2026-01-05 02:50:50.99	280.29	11.51	-30.4	-32.8	11.1	1.68e-03	0	44	102	1048576	21	4719
2026-01-05 02:50:53.99	279.86	11.34	-30.2	-32.6	11.4	3.44e-03	0	44	102	1048576	20	4751
2026-01-05 02:50:57.02	279.43	11.16	-30.0	-32.4	12.0	2.89e-03	0	44	102	1048576	19	4753
2026-01-05 02:51:00.03	279.00	10.98	-29.7	-31.5	12.7	2.87e-03	0	44	102	1048576	19	4450
2026-01-05 02:51:03.05	278.58	10.80	-29.6	-31.4	12.8	2.89e-03	0	44	102	1048576	19	4396
2026-01-05 02:51:06.07	278.17	10.62	-29.7	-31.5	12.7	6.71e-05	0	44	102	1048576	19	4443
2026-01-05 02:51:09.08	277.76	10.44	-30.0	-32.4	12.1	3.03e-04	0	44	102	1048576	19	4776
2026-01-05 02:51:12.11	277.35	10.26	-29.9	-32.2	12.2	9.58e-04	0	44	102	1048576	19	4708
2026-01-05 02:51:15.13	276.95	10.08	-29.8	-31.8	12.4	1.81e-03	0	44	102	1048576	19	4569
2026-01-05 02:51:18.15	276.56	9.90	-29.6	-31.5	12.6	4.58e-04	0	44	102	1048576	19	4455
2026-01-05 02:51:21.17	276.17	9.72	-29.8	-32.0	12.2	1.82e-03	0	44	102	1048576	19	4644
2026-01-05 02:51:24.19	275.78	9.54	-29.9	-32.3	12.0	2.52e-03	0	44	102	1048576	19	4744
2026-01-05 02:51:27.21	275.40	9.36	-30.0	-32.2	11.7	4.32e-04	0	44	102	1048576	20	4623
2026-01-05 02:51:30.23	275.03	9.18	-30.2	-32.8	11.1	3.96e-03	0	44	102	1048576	20	4837
2026-01-05 02:51:33.25	274.66	9.00	-30.3	-33.1	10.9	4.23e-03	0	44	102	1048576	20	4983
2026-01-05 02:51:36.27	274.29	8.82	-30.3	-33.3	10.8	4.38e-03	0	44	102	1048576	20	5052
2026-01-05 02:51:39.29	273.93	8.64	-30.1	-32.5	11.3	4.00e-03	0	44	102	1048576	20	4756
2026-01-05 02:51:42.31	273.57	8.46	-29.9	-32.0	11.6	2.37e-03	0	44	102	1048576	20	4579
2026-01-05 02:51:45.33	273.22	8.28	-29.7	-31.8	12.2	4.17e-03	0	44	102	1048576	19	4597
2026-01-05 02:51:48.35	272.87	8.10	-29.9	-32.5	11.7	2.54e-03	0	44	102	1048576	19	4833
2026-01-05 02:51:51.37	272.53	7.92	-30.1	-32.8	11.0	3.59e-03	0	44	102	1048576	20	4875
2026-01-05 02:51:54.39	272.19	7.74	-30.3	-33.2	10.6	6.06e-03	0	44	102	1048576	20	5071
2026-01-05 02:51:57.41	271.86	7.57	-30.3	-33.2	10.7	4.99e-03	0	44	102	1048576	20	5041
2026-01-05 02:52:00.43	271.52	7.39	-30.1	-32.6	11.1	2.37e-03	0	44	102	1048576	20	4803
2026-01-05 02:52:03.45	271.20	7.21	-29.8	-32.3	11.7	1.94e-03	0	44	102	1048576	19	4773
2026-01-05 02:52:06.46	270.88	7.04	-32.5	-44.7	3.7	2.22e-03	0	44	102	1048576	24	14760

#Closed at: 2026-01-05 02:52:07
#Recorded file [1 MB]: D:/data/31010_260105_054423.dat