passes_logs/2026/01/05/R2M6_AANII_01/R2M6_AANII_01__20260105_111621_NOAA_20_JPSS-1_rec.log

#Pass ID: 20260105_111621_NOAA 20 (JPSS-1)
#Satellite: NOAA 20 (JPSS-1)
#Configuration: NOAA 20
#almurnet v.1.7.20240730
#Start time: 2026-01-05 11:16:21

#Version: 2.2.20231116
#Station: R2M6_AANII_01
#Location: 30.233357 lon 59.946436 lat
#TLE: 1 43013U 17073A   26004.47528369  .00000132  00000+0  83671-4 0  9999
#TLE: 2 43013  98.7626 305.5264 0001854  54.5883 305.5466 14.19533142421242

#Time	Az	El	Level	Level2	SNR	BER	BlckErr	Temp	State	Recorded	gain1	gain2
2026-01-05 11:16:21.23	190.46	6.97	-30.5	-35.5	5.3	1.20e+00	0	41	0	0	21	6416
2026-01-05 11:16:24.24	190.63	7.19	-31.2	-37.7	7.5	9.93e-02	0	41	102	1048576	22	7643
2026-01-05 11:16:27.25	190.81	7.41	-30.9	-36.5	8.5	6.71e-02	0	41	102	1048576	22	6832
2026-01-05 11:16:30.28	190.99	7.63	-30.4	-34.5	10.1	9.12e-03	0	41	102	1048576	22	5758
2026-01-05 11:16:33.30	191.18	7.86	-30.3	-34.4	10.5	4.24e-03	0	41	102	1048576	21	5817
2026-01-05 11:16:36.32	191.37	8.08	-30.2	-34.1	10.9	2.40e-03	0	41	102	1048576	21	5627
2026-01-05 11:16:39.34	191.56	8.31	-30.2	-34.1	10.9	2.73e-03	0	41	102	1048576	21	5622
2026-01-05 11:16:42.35	191.75	8.54	-30.1	-33.7	11.2	1.69e-03	0	41	102	1048576	21	5474
2026-01-05 11:16:45.38	191.95	8.77	-30.0	-33.4	11.4	8.19e-04	0	42	102	1048576	21	5342
2026-01-05 11:16:48.40	192.14	9.01	-30.0	-33.5	11.3	1.18e-03	0	42	102	1048576	21	5380
2026-01-05 11:16:51.43	192.35	9.24	-30.0	-33.5	11.2	1.45e-03	0	42	102	1048576	21	5374
2026-01-05 11:16:54.44	192.55	9.48	-29.8	-32.9	11.7	5.13e-04	0	42	102	1048576	21	5115
2026-01-05 11:16:57.45	192.76	9.72	-29.9	-33.5	11.6	6.34e-04	0	42	102	1048576	20	5503
2026-01-05 11:17:00.47	192.97	9.96	-29.6	-32.9	12.0	3.45e-04	0	42	102	1048576	20	5253
2026-01-05 11:17:03.48	193.19	10.20	-29.6	-32.8	12.1	2.84e-04	0	42	102	1048576	20	5192
2026-01-05 11:17:06.50	193.40	10.45	-29.6	-32.6	12.2	2.35e-04	0	42	102	1048576	20	5125
2026-01-05 11:17:09.52	193.63	10.69	-29.6	-32.5	12.4	1.79e-04	0	42	102	1048576	20	5063
2026-01-05 11:17:12.54	193.85	10.94	-29.6	-32.6	12.3	2.33e-04	0	42	102	1048576	20	5109
2026-01-05 11:17:15.56	194.08	11.20	-29.6	-32.5	12.5	1.18e-04	0	42	102	1048576	20	5050
2026-01-05 11:17:18.58	194.31	11.45	-29.5	-32.4	12.5	1.20e-04	0	42	102	1048576	20	5018
2026-01-05 11:17:21.60	194.55	11.71	-29.5	-32.4	12.5	1.03e-04	0	42	102	1048576	20	4997
2026-01-05 11:17:24.62	194.79	11.97	-29.5	-32.2	12.6	9.84e-05	0	43	102	1048576	20	4937
2026-01-05 11:17:27.64	195.04	12.23	-29.5	-32.2	12.8	6.56e-05	0	42	102	1048576	20	4928
2026-01-05 11:17:30.66	195.29	12.49	-29.6	-32.4	12.8	5.41e-05	0	42	102	1048576	20	4986
2026-01-05 11:17:33.69	195.54	12.76	-29.5	-32.2	13.0	3.96e-05	0	42	102	1048576	20	4902
2026-01-05 11:17:36.71	195.80	13.03	-29.5	-32.2	13.0	3.28e-05	0	43	102	1048576	20	4903
2026-01-05 11:17:39.72	196.06	13.30	-29.6	-32.4	12.8	4.73e-05	0	43	102	1048576	20	4996
2026-01-05 11:17:42.74	196.33	13.57	-29.4	-31.9	13.3	1.98e-05	0	43	102	1048576	20	4786
2026-01-05 11:17:45.75	196.60	13.84	-29.4	-31.9	13.3	2.97e-05	0	43	102	1048576	20	4783
2026-01-05 11:17:48.77	196.88	14.12	-29.3	-31.9	13.6	7.60e-06	0	43	102	1048576	19	4896
2026-01-05 11:17:51.80	197.16	14.40	-29.4	-32.3	13.4	1.06e-05	0	43	102	1048576	19	5016
2026-01-05 11:17:54.81	197.45	14.69	-29.6	-32.8	13.1	2.21e-05	0	43	102	1048576	19	5210
2026-01-05 11:17:57.83	197.74	14.97	-29.5	-32.6	13.2	2.13e-05	0	43	102	1048576	19	5126
2026-01-05 11:18:00.84	198.03	15.26	-29.6	-32.9	13.0	3.20e-05	0	43	102	1048576	19	5247
2026-01-05 11:18:03.86	198.34	15.55	-29.6	-32.7	13.2	1.90e-05	0	43	102	1048576	19	5169
2026-01-05 11:18:06.88	198.65	15.85	-29.5	-32.5	13.4	8.30e-06	0	43	102	1048576	19	5084
2026-01-05 11:18:09.90	198.96	16.15	-29.6	-32.8	13.1	2.67e-05	0	43	102	1048576	19	5220
2026-01-05 11:18:12.92	199.28	16.45	-29.7	-33.0	13.1	2.36e-05	0	43	102	1048576	19	5258
2026-01-05 11:18:15.94	199.61	16.75	-29.6	-32.6	13.3	2.28e-05	0	43	102	1048576	19	5140
2026-01-05 11:18:18.97	199.95	17.06	-29.6	-32.8	13.2	9.10e-06	0	43	102	1048576	19	5178
2026-01-05 11:18:21.99	200.29	17.37	-29.3	-31.9	13.8	3.00e-06	0	43	102	1048576	19	4871
2026-01-05 11:18:25.00	200.63	17.68	-29.3	-31.8	13.9	3.00e-06	0	43	102	1048576	19	4825
2026-01-05 11:18:28.03	200.99	17.99	-29.4	-32.2	13.7	5.30e-06	0	43	102	1048576	19	4979
2026-01-05 11:18:31.05	201.35	18.31	-29.3	-32.0	13.8	5.30e-06	0	43	102	1048576	19	4902
2026-01-05 11:18:34.06	201.72	18.63	-29.3	-31.9	13.9	3.00e-06	0	43	102	1048576	19	4861
2026-01-05 11:18:37.08	202.10	18.96	-29.3	-32.0	13.8	9.90e-06	0	43	102	1048576	19	4887
2026-01-05 11:18:40.10	202.48	19.28	-29.4	-32.2	13.8	1.22e-05	0	43	102	1048576	19	4943
2026-01-05 11:18:43.12	202.88	19.61	-29.5	-32.5	13.6	6.10e-06	0	43	102	1048576	19	5059
2026-01-05 11:18:46.15	203.28	19.95	-29.6	-32.8	13.4	1.75e-05	0	43	102	1048576	19	5169
2026-01-05 11:18:49.16	203.69	20.28	-29.9	-33.4	13.0	2.59e-05	0	43	102	1048576	19	5418
2026-01-05 11:18:52.18	204.11	20.62	-29.7	-33.0	13.3	2.05e-05	0	43	102	1048576	19	5237
2026-01-05 11:18:55.20	204.53	20.97	-29.9	-33.5	12.9	4.27e-05	0	43	102	1048576	19	5464
2026-01-05 11:18:58.22	204.97	21.31	-29.8	-33.1	13.2	3.66e-05	0	43	102	1048576	19	5295
2026-01-05 11:19:01.24	205.42	21.66	-29.7	-33.0	13.3	2.59e-05	0	43	102	1048576	19	5256
2026-01-05 11:19:04.26	205.87	22.01	-29.7	-32.8	13.5	1.90e-05	0	43	102	1048576	19	5154
2026-01-05 11:19:07.28	206.34	22.37	-29.7	-32.8	13.5	1.22e-05	0	43	102	1048576	19	5174
2026-01-05 11:19:10.30	206.82	22.73	-29.6	-32.7	13.6	5.30e-06	0	43	102	1048576	19	5133
2026-01-05 11:19:13.32	207.31	23.09	-29.7	-32.8	13.6	5.30e-06	0	43	102	1048576	19	5144
2026-01-05 11:19:16.33	207.80	23.45	-29.8	-33.0	13.4	1.29e-05	0	43	102	1048576	19	5238
2026-01-05 11:19:19.35	208.31	23.82	-29.9	-33.4	13.1	1.60e-05	0	43	102	1048576	19	5406
2026-01-05 11:19:22.37	208.84	24.19	-29.8	-32.5	13.4	1.06e-05	0	43	102	1048576	20	4965
2026-01-05 11:19:25.38	209.37	24.56	-29.9	-32.9	13.1	1.52e-05	0	43	102	1048576	20	5087
2026-01-05 11:19:28.40	209.92	24.93	-29.9	-32.9	13.1	2.97e-05	0	43	102	1048576	20	5098
2026-01-05 11:19:31.41	210.48	25.31	-30.0	-33.3	12.9	5.18e-05	0	43	102	1048576	20	5253
2026-01-05 11:19:34.43	211.05	25.69	-30.0	-33.1	13.0	4.73e-05	0	43	102	1048576	20	5144
2026-01-05 11:19:37.44	211.63	26.07	-29.9	-32.9	13.2	2.05e-05	0	43	102	1048576	20	5108
2026-01-05 11:19:40.47	212.24	26.46	-29.9	-33.0	13.2	2.51e-05	0	43	102	1048576	20	5113
2026-01-05 11:19:43.47	212.85	26.85	-30.0	-33.2	13.0	3.58e-05	0	43	102	1048576	20	5206
2026-01-05 11:19:46.49	213.48	27.23	-30.1	-33.5	12.8	3.66e-05	0	43	102	1048576	20	5317
2026-01-05 11:19:49.51	214.12	27.63	-30.1	-33.3	12.9	4.50e-05	0	43	102	1048576	20	5258
2026-01-05 11:19:52.52	214.78	28.02	-30.2	-33.8	12.6	1.14e-04	0	43	102	1048576	20	5446
2026-01-05 11:19:55.54	215.46	28.41	-30.3	-34.2	12.4	1.85e-04	0	43	102	1048576	20	5584
2026-01-05 11:19:58.57	216.16	28.81	-30.4	-34.2	12.4	1.63e-04	0	43	102	1048576	20	5603
2026-01-05 11:20:01.58	216.86	29.21	-30.6	-34.3	11.9	4.87e-04	0	43	102	1048576	21	5533
2026-01-05 11:20:04.61	217.60	29.60	-30.4	-33.7	12.4	1.61e-04	0	43	102	1048576	21	5279
2026-01-05 11:20:07.63	218.34	30.00	-30.4	-33.7	12.4	1.56e-04	0	43	102	1048576	21	5287
2026-01-05 11:20:10.65	219.11	30.40	-30.6	-34.3	12.0	2.75e-04	0	43	102	1048576	21	5509
2026-01-05 11:20:13.67	219.89	30.80	-30.6	-34.5	11.9	3.20e-04	0	43	102	1048576	21	5595
2026-01-05 11:20:16.69	220.69	31.20	-30.5	-34.2	12.0	3.94e-04	0	43	102	1048576	21	5492
2026-01-05 11:20:19.71	221.51	31.60	-30.6	-34.4	11.9	2.61e-04	0	43	102	1048576	21	5571
2026-01-05 11:20:22.74	222.36	31.99	-30.7	-34.6	11.8	4.88e-04	0	43	102	1048576	21	5643
2026-01-05 11:20:25.76	223.22	32.39	-30.7	-34.8	11.7	4.80e-04	0	43	102	1048576	21	5728
2026-01-05 11:20:28.78	224.10	32.78	-31.0	-35.2	11.0	2.13e-03	0	43	102	1048576	22	5824
2026-01-05 11:20:31.80	225.00	33.17	-31.1	-35.5	10.8	2.35e-03	0	43	102	1048576	22	5959
2026-01-05 11:20:34.82	225.93	33.56	-31.1	-35.5	10.9	2.48e-03	0	43	102	1048576	22	5963
2026-01-05 11:20:37.83	226.87	33.94	-31.3	-36.1	10.4	4.52e-03	0	43	102	1048576	22	6259
2026-01-05 11:20:40.85	227.84	34.32	-31.4	-36.5	10.1	5.88e-03	0	43	102	1048576	22	6480
2026-01-05 11:20:43.87	228.83	34.69	-31.6	-36.9	9.4	1.89e-02	0	43	102	1048576	23	6565
2026-01-05 11:20:46.89	229.85	35.06	-31.6	-36.8	9.5	1.59e-02	0	44	102	1048576	23	6539
2026-01-05 11:20:49.91	230.88	35.43	-31.7	-37.1	9.2	1.94e-02	0	43	102	1048576	23	6710
2026-01-05 11:20:52.93	231.94	35.78	-31.9	-38.0	8.6	3.47e-02	0	43	102	1048576	23	7248
2026-01-05 11:20:55.95	233.02	36.14	-31.3	-35.6	10.4	5.47e-03	0	43	102	1048576	23	5888
2026-01-05 11:20:58.97	234.13	36.48	-31.0	-34.7	11.1	1.35e-03	0	43	102	1048576	23	5465
2026-01-05 11:21:01.99	235.26	36.81	-31.2	-35.3	10.7	2.85e-03	0	43	102	1048576	23	5746
2026-01-05 11:21:05.02	236.41	37.14	-31.2	-35.1	10.9	3.15e-03	0	44	102	1048576	23	5636
2026-01-05 11:21:08.03	237.58	37.45	-30.8	-34.0	11.7	6.36e-04	0	43	102	1048576	23	5177
2026-01-05 11:21:11.05	238.77	37.76	-31.1	-34.7	11.1	1.48e-03	0	43	102	1048576	23	5481
2026-01-05 11:21:14.07	239.99	38.05	-31.0	-34.5	11.3	1.34e-03	0	43	102	1048576	23	5380
2026-01-05 11:21:17.09	241.23	38.33	-31.0	-34.6	11.2	1.29e-03	0	43	102	1048576	23	5429
2026-01-05 11:21:20.11	242.49	38.60	-31.2	-35.0	10.8	2.00e-03	0	43	102	1048576	23	5617
2026-01-05 11:21:23.12	243.76	38.85	-31.1	-34.9	11.1	1.26e-03	0	43	102	1048576	23	5551
2026-01-05 11:21:26.14	245.06	39.10	-30.9	-34.1	11.5	9.65e-04	0	44	102	1048576	23	5232
2026-01-05 11:21:29.16	246.38	39.32	-30.9	-34.6	11.5	6.64e-04	0	43	102	1048576	22	5544
2026-01-05 11:21:32.18	247.71	39.53	-30.8	-34.5	11.6	7.32e-04	0	43	102	1048576	22	5469
2026-01-05 11:21:35.20	249.06	39.73	-30.7	-34.0	11.9	5.00e-04	0	43	102	1048576	22	5284
2026-01-05 11:21:38.23	250.43	39.91	-30.2	-33.1	12.9	4.27e-05	0	43	102	1048576	21	5032
2026-01-05 11:21:41.24	251.80	40.07	-31.1	-35.2	11.1	7.10e-04	0	43	102	1048576	22	5796
2026-01-05 11:21:44.27	253.20	40.21	-30.7	-34.1	11.9	6.12e-04	0	44	102	1048576	22	5297
2026-01-05 11:21:47.29	254.60	40.33	-30.6	-33.8	12.1	2.04e-04	0	43	102	1048576	22	5208
2026-01-05 11:21:50.32	256.02	40.44	-31.5	-36.6	10.1	4.31e-03	0	43	102	1048576	22	6477
2026-01-05 11:21:53.35	257.45	40.53	-31.1	-34.8	11.1	1.91e-03	0	43	102	1048576	23	5519
2026-01-05 11:21:56.36	258.87	40.59	-31.5	-36.2	10.0	4.55e-03	0	43	102	1048576	23	6191
2026-01-05 11:21:59.38	260.30	40.64	-32.2	-38.5	7.9	7.55e-02	0	43	102	1048576	24	7435
2026-01-05 11:22:02.40	261.74	40.67	-31.5	-35.6	10.1	8.89e-03	0	43	102	1048576	24	5802
2026-01-05 11:22:05.42	263.18	40.68	-30.9	-34.2	11.5	1.21e-03	0	43	102	1048576	23	5261
2026-01-05 11:22:08.44	264.62	40.66	-31.1	-34.9	11.1	1.57e-03	0	43	102	1048576	23	5534
2026-01-05 11:22:11.46	266.05	40.63	-30.8	-33.9	11.8	5.50e-04	0	43	102	1048576	23	5129
2026-01-05 11:22:14.48	267.48	40.58	-30.8	-33.9	11.7	7.34e-04	0	43	102	1048576	23	5146
2026-01-05 11:22:17.50	268.91	40.51	-30.9	-34.7	11.4	5.10e-04	0	43	102	1048576	22	5588
2026-01-05 11:22:20.52	270.33	40.42	-30.6	-33.7	12.2	2.76e-04	0	43	102	1048576	22	5157
2026-01-05 11:22:23.54	271.74	40.31	-30.6	-33.7	12.2	2.62e-04	0	43	102	1048576	22	5168
2026-01-05 11:22:26.55	273.13	40.19	-31.2	-35.8	10.7	1.71e-03	0	43	102	1048576	22	6057
2026-01-05 11:22:29.57	274.52	40.04	-31.2	-35.6	10.9	2.97e-03	0	43	102	1048576	22	5967
2026-01-05 11:22:32.59	275.90	39.88	-31.6	-36.5	9.8	8.92e-03	0	43	102	1048576	23	6328
2026-01-05 11:22:35.61	277.26	39.70	-31.5	-36.1	10.1	8.71e-03	0	43	102	1048576	23	6145
2026-01-05 11:22:38.64	278.61	39.50	-31.3	-35.6	10.5	4.35e-03	0	43	102	1048576	23	5883
2026-01-05 11:22:41.67	279.94	39.29	-30.9	-34.2	11.5	5.60e-04	0	43	102	1048576	23	5259
2026-01-05 11:22:44.68	281.25	39.06	-31.6	-36.5	9.8	1.59e-02	0	43	102	1048576	23	6318
2026-01-05 11:22:47.70	282.54	38.82	-30.2	-33.2	12.9	7.85e-05	0	43	102	1048576	21	5054
2026-01-05 11:22:50.71	283.81	38.56	-30.5	-33.9	12.4	1.41e-04	0	43	102	1048576	21	5348
2026-01-05 11:22:53.74	285.06	38.29	-30.2	-33.0	13.0	2.89e-05	0	43	102	1048576	21	5008
2026-01-05 11:22:56.75	286.29	38.01	-29.8	-32.0	13.6	2.36e-05	0	43	102	1048576	21	4642
2026-01-05 11:22:59.76	287.50	37.72	-29.5	-32.2	14.2	0.00e+00	0	43	102	1048576	19	4919
2026-01-05 11:23:02.78	288.68	37.41	-30.4	-34.1	12.6	8.77e-05	0	43	102	1048576	20	5525
2026-01-05 11:23:05.81	289.85	37.09	-29.6	-32.0	14.0	3.00e-06	0	43	102	1048576	20	4737
2026-01-05 11:23:08.83	291.00	36.77	-29.7	-32.2	13.8	2.20e-06	0	43	102	1048576	20	4810
2026-01-05 11:23:11.84	292.11	36.44	-28.7	-30.7	15.5	0.00e+00	0	43	102	1048576	18	4508
2026-01-05 11:23:14.86	293.21	36.09	-29.7	-32.6	14.0	3.00e-06	0	43	102	1048576	19	5055
2026-01-05 11:23:17.88	294.29	35.74	-29.4	-32.0	14.4	7.00e-07	0	43	102	1048576	19	4839
2026-01-05 11:23:20.90	295.34	35.39	-30.5	-34.0	12.3	1.85e-04	0	43	102	1048576	21	5396
2026-01-05 11:23:23.93	296.37	35.02	-30.7	-34.7	11.8	2.29e-04	0	43	102	1048576	21	5707
2026-01-05 11:23:26.95	297.38	34.66	-30.9	-34.6	11.5	2.13e-03	0	43	102	1048576	22	5537
2026-01-05 11:23:29.97	298.36	34.28	-30.3	-33.4	12.7	5.64e-05	0	44	102	1048576	21	5136
2026-01-05 11:23:32.99	299.33	33.90	-31.2	-35.6	10.8	2.28e-03	0	43	102	1048576	22	5999
2026-01-05 11:23:36.02	300.27	33.52	-30.4	-33.2	12.4	2.64e-04	0	43	102	1048576	22	4987
2026-01-05 11:23:39.04	301.19	33.14	-31.2	-35.6	10.7	1.08e-03	0	43	102	1048576	22	5998
2026-01-05 11:23:42.07	302.09	32.75	-30.7	-34.1	11.8	5.79e-04	0	43	102	1048576	22	5340
2026-01-05 11:23:45.08	302.96	32.36	-31.4	-36.5	9.9	5.57e-03	0	44	102	1048576	22	6498
2026-01-05 11:23:48.11	303.82	31.96	-31.0	-34.7	10.9	3.55e-03	0	43	102	1048576	23	5505
2026-01-05 11:23:51.12	304.65	31.57	-30.5	-34.0	12.1	1.27e-04	0	44	102	1048576	21	5403
2026-01-05 11:23:54.15	305.47	31.18	-31.7	-37.1	9.1	2.40e-02	0	43	102	1048576	23	6694
2026-01-05 11:23:57.17	306.27	30.78	-30.6	-34.0	11.8	1.15e-03	0	43	102	1048576	22	5284
2026-01-05 11:24:00.19	307.05	30.38	-31.0	-35.2	11.0	7.97e-04	0	43	102	1048576	22	5817
2026-01-05 11:24:03.21	307.80	29.99	-30.6	-33.9	11.9	1.10e-03	0	44	102	1048576	22	5234
2026-01-05 11:24:06.23	308.55	29.59	-30.2	-33.3	12.6	7.70e-05	0	43	102	1048576	21	5104
2026-01-05 11:24:09.25	309.27	29.20	-30.9	-35.5	11.1	1.26e-03	0	43	102	1048576	21	6063
2026-01-05 11:24:12.27	309.97	28.80	-30.1	-32.9	12.9	5.95e-05	0	44	102	1048576	21	4962
2026-01-05 11:24:15.29	310.66	28.41	-30.0	-32.8	13.0	2.59e-05	0	43	102	1048576	21	4943
2026-01-05 11:24:18.32	311.34	28.02	-30.6	-34.3	11.9	5.39e-04	0	43	102	1048576	21	5540
2026-01-05 11:24:21.33	311.99	27.63	-29.0	-30.9	14.8	3.80e-06	0	43	102	1048576	19	4489
2026-01-05 11:24:24.36	312.64	27.24	-29.2	-31.6	14.4	7.00e-07	0	43	102	1048576	19	4708
2026-01-05 11:24:27.38	313.26	26.85	-29.5	-32.3	13.9	6.80e-06	0	43	102	1048576	19	4987
2026-01-05 11:24:30.40	313.88	26.47	-27.9	-29.2	16.4	0.00e+00	0	43	102	1048576	17	4195
2026-01-05 11:24:33.42	314.47	26.08	-27.9	-29.7	16.3	0.00e+00	0	44	102	1048576	16	4462
2026-01-05 11:24:36.43	315.05	25.71	-29.1	-31.9	14.5	0.00e+00	0	43	102	1048576	18	4931
2026-01-05 11:24:39.46	315.63	25.33	-28.8	-30.9	15.0	0.00e+00	0	43	102	1048576	18	4599
2026-01-05 11:24:42.48	316.18	24.95	-28.3	-29.8	15.7	0.00e+00	0	43	102	1048576	18	4278
2026-01-05 11:24:45.50	316.73	24.58	-29.0	-31.5	14.7	7.00e-07	0	43	102	1048576	18	4808
2026-01-05 11:24:48.52	317.26	24.21	-29.4	-32.7	13.9	1.50e-06	0	44	102	1048576	18	5245
2026-01-05 11:24:51.54	317.78	23.84	-28.7	-30.7	15.1	0.00e+00	0	43	102	1048576	18	4535
2026-01-05 11:24:54.56	318.29	23.48	-28.0	-29.6	16.1	0.00e+00	0	43	102	1048576	17	4306
2026-01-05 11:24:57.57	318.78	23.12	-28.7	-31.3	15.1	0.00e+00	0	43	102	1048576	17	4845
2026-01-05 11:25:00.59	319.27	22.76	-28.8	-31.6	14.8	0.00e+00	0	43	102	1048576	17	4965
2026-01-05 11:25:03.62	319.74	22.40	-28.9	-31.8	14.7	0.00e+00	0	43	102	1048576	17	5018
2026-01-05 11:25:06.64	320.21	22.05	-29.2	-32.0	14.3	7.00e-07	0	43	102	1048576	18	4993
2026-01-05 11:25:09.66	320.66	21.70	-29.3	-32.2	14.1	5.30e-06	0	43	102	1048576	18	5076
2026-01-05 11:25:12.67	321.11	21.36	-28.8	-31.1	14.8	0.00e+00	0	43	102	1048576	18	4693
2026-01-05 11:25:15.70	321.54	21.01	-28.6	-30.6	15.1	0.00e+00	0	43	102	1048576	18	4533
2026-01-05 11:25:18.72	321.97	20.67	-29.0	-31.7	14.5	0.00e+00	0	43	102	1048576	18	4871
2026-01-05 11:25:21.74	322.39	20.34	-29.4	-32.7	13.8	4.50e-06	0	43	102	1048576	18	5247
2026-01-05 11:25:24.77	322.80	20.00	-29.2	-32.2	14.1	1.50e-06	0	43	102	1048576	18	5071
2026-01-05 11:25:27.79	323.20	19.67	-29.4	-32.8	13.7	2.20e-06	0	43	102	1048576	18	5274
2026-01-05 11:25:30.81	323.59	19.34	-29.8	-33.3	13.1	2.44e-05	0	44	102	1048576	19	5379
2026-01-05 11:25:33.84	323.97	19.02	-30.1	-33.8	12.3	1.43e-04	0	43	102	1048576	20	5470
2026-01-05 11:25:36.86	324.35	18.70	-29.7	-32.6	13.1	3.43e-05	0	43	102	1048576	20	4992
2026-01-05 11:25:39.88	324.72	18.38	-29.4	-31.8	13.6	1.60e-05	0	43	102	1048576	20	4715
2026-01-05 11:25:42.90	325.08	18.06	-29.4	-32.2	13.7	1.29e-05	0	43	102	1048576	19	4957
2026-01-05 11:25:45.93	325.44	17.75	-29.6	-32.6	13.5	6.80e-06	0	44	102	1048576	19	5113
2026-01-05 11:25:48.95	325.78	17.44	-29.7	-33.0	13.2	1.98e-05	0	43	102	1048576	19	5245
2026-01-05 11:25:51.97	326.12	17.13	-29.8	-33.1	13.1	3.35e-05	0	43	102	1048576	19	5320
2026-01-05 11:25:54.99	326.46	16.83	-29.6	-32.8	13.3	1.52e-05	0	44	102	1048576	19	5200
2026-01-05 11:25:58.00	326.78	16.53	-29.7	-33.0	13.1	2.59e-05	0	43	102	1048576	19	5266
2026-01-05 11:26:01.02	327.10	16.23	-29.7	-33.1	13.0	3.35e-05	0	43	102	1048576	19	5317
2026-01-05 11:26:04.04	327.42	15.94	-29.8	-33.3	12.8	5.49e-05	0	44	102	1048576	19	5405
2026-01-05 11:26:07.06	327.73	15.64	-29.8	-33.3	12.8	4.34e-05	0	43	102	1048576	19	5408
2026-01-05 11:26:10.08	328.03	15.36	-29.9	-33.3	12.4	7.47e-05	0	44	102	1048576	20	5288
2026-01-05 11:26:13.10	328.33	15.07	-30.0	-33.5	12.2	1.54e-04	0	44	102	1048576	20	5374
2026-01-05 11:26:16.11	328.62	14.79	-29.6	-32.3	13.1	4.04e-05	0	44	102	1048576	20	4931
2026-01-05 11:26:19.13	328.91	14.50	-29.6	-32.2	13.1	2.89e-05	0	44	102	1048576	20	4880
2026-01-05 11:26:22.15	329.19	14.22	-29.7	-32.6	12.9	5.87e-05	0	43	102	1048576	20	5035
2026-01-05 11:26:25.18	329.47	13.95	-29.8	-32.9	12.7	7.17e-05	0	44	102	1048576	20	5148
2026-01-05 11:26:28.20	329.74	13.67	-30.0	-33.7	12.1	2.17e-04	0	44	102	1048576	20	5464
2026-01-05 11:26:31.22	330.01	13.40	-30.1	-33.9	11.9	4.04e-04	0	43	102	1048576	20	5585
2026-01-05 11:26:34.24	330.27	13.13	-29.9	-33.3	12.3	1.91e-04	0	43	102	1048576	20	5332
2026-01-05 11:26:37.26	330.53	12.87	-29.9	-33.1	12.5	1.30e-04	0	44	102	1048576	20	5240
2026-01-05 11:26:40.28	330.79	12.60	-29.8	-33.1	12.4	1.20e-04	0	43	102	1048576	20	5220
2026-01-05 11:26:43.31	331.04	12.34	-29.8	-33.1	12.5	1.12e-04	0	44	102	1048576	20	5224
2026-01-05 11:26:46.33	331.28	12.08	-29.7	-32.8	12.6	7.93e-05	0	43	102	1048576	20	5133
2026-01-05 11:26:49.35	331.53	11.83	-29.8	-33.1	12.4	1.27e-04	0	44	102	1048576	20	5253
2026-01-05 11:26:52.37	331.76	11.57	-29.9	-33.4	12.1	1.67e-04	0	43	102	1048576	20	5366
2026-01-05 11:26:55.38	332.00	11.32	-30.0	-33.8	11.9	3.43e-04	0	43	102	1048576	20	5521
2026-01-05 11:26:58.40	332.23	11.07	-30.2	-34.2	11.5	6.89e-04	0	44	102	1048576	20	5709
2026-01-05 11:27:01.42	332.45	10.82	-30.1	-34.0	11.7	6.11e-04	0	43	102	1048576	20	5632
2026-01-05 11:27:04.44	332.68	10.58	-30.2	-34.2	11.5	6.45e-04	0	44	102	1048576	20	5721
2026-01-05 11:27:07.47	332.90	10.33	-30.1	-33.9	11.7	5.42e-04	0	44	102	1048576	20	5611
2026-01-05 11:27:10.49	333.11	10.09	-30.2	-34.4	11.4	8.91e-04	0	43	102	1048576	20	5802
2026-01-05 11:27:13.51	333.33	9.85	-30.3	-34.6	11.2	1.24e-03	0	44	102	1048576	20	5913
2026-01-05 11:27:16.53	333.54	9.61	-30.2	-34.5	11.2	1.41e-03	0	44	102	1048576	20	5881
2026-01-05 11:27:19.55	333.74	9.38	-30.3	-34.6	11.1	1.33e-03	0	44	102	1048576	20	5940
2026-01-05 11:27:22.57	333.95	9.14	-30.4	-35.2	10.7	2.32e-03	0	44	102	1048576	20	6200
2026-01-05 11:27:25.59	334.15	8.91	-30.3	-34.7	11.0	1.90e-03	0	43	102	1048576	20	6001
2026-01-05 11:27:28.59	334.35	8.68	-30.4	-35.0	10.7	2.74e-03	0	44	102	1048576	20	6146
2026-01-05 11:27:31.61	334.54	8.45	-30.5	-35.3	10.5	3.60e-03	0	44	102	1048576	20	6303
2026-01-05 11:27:34.64	334.73	8.23	-30.6	-35.4	10.0	6.84e-03	0	44	102	1048576	21	6238
2026-01-05 11:27:37.67	334.92	8.00	-30.5	-35.1	10.2	6.13e-03	0	43	102	1048576	21	6108
2026-01-05 11:27:40.69	335.11	7.78	-30.5	-35.0	10.2	6.46e-03	0	44	102	1048576	21	6074
2026-01-05 11:27:43.72	335.29	7.56	-30.6	-35.3	10.0	7.28e-03	0	43	102	1048576	21	6231
2026-01-05 11:27:46.72	335.47	7.34	-30.6	-35.5	9.8	9.74e-03	0	44	102	1048576	21	6301
2026-01-05 11:27:49.75	335.65	7.12	-30.6	-35.6	9.7	1.14e-02	0	44	102	1048576	21	6383

#Closed at: 2026-01-05 11:27:52
#Recorded file [1 MB]: D:/data/31010_260105_141623.dat