passes_logs/2026/01/05/R2M6_AANII_01/R2M6_AANII_01__20260105_115555_FENGYUN_3D_rec.log

#Pass ID: 20260105_115555_FENGYUN 3D
#Satellite: FENGYUN 3D
#Configuration: FENGYUN 3D
#almurnet v.1.7.20240730
#Start time: 2026-01-05 11:55:54

#Version: 2.2.20231116
#Station: R2M6_AANII_01
#Location: 30.233357 lon 59.946436 lat
#TLE: 1 43010U 17072A   26004.50247883 -.00000063  00000+0 -78815-5 0  9998
#TLE: 2 43010  98.9915 336.1565 0001968 126.3752 233.7605 14.19691805421760

#Time	Az	El	Level	Level2	SNR	BER	BlckErr	Temp	State	Recorded	gain1	gain2
2026-01-05 11:55:54.52	147.33	6.93	-28.0	-30.9	5.4	7.87e-01	0	41	0	0	17	5017
2026-01-05 11:55:57.54	147.28	7.17	-28.8	-33.0	8.6	5.28e-02	0	41	102	1048576	17	5869
2026-01-05 11:56:00.56	147.23	7.40	-28.3	-31.5	9.8	1.73e-02	0	41	102	1048576	17	5189
2026-01-05 11:56:03.58	147.18	7.64	-27.5	-29.8	11.4	1.76e-03	0	41	102	1048576	16	4650
2026-01-05 11:56:06.60	147.12	7.88	-27.4	-29.3	11.7	8.85e-04	0	41	102	1048576	16	4501
2026-01-05 11:56:09.62	147.07	8.12	-26.7	-28.7	12.6	2.30e-04	0	42	102	1048576	14	4508
2026-01-05 11:56:12.63	147.01	8.36	-26.2	-27.9	13.4	2.97e-05	0	42	102	1048576	13	4367
2026-01-05 11:56:15.65	146.95	8.61	-26.2	-27.8	13.5	2.05e-05	0	42	102	1048576	13	4329
2026-01-05 11:56:18.67	146.89	8.86	-26.1	-27.7	13.6	2.17e-05	0	42	102	1048576	13	4313
2026-01-05 11:56:21.69	146.83	9.11	-26.1	-27.5	13.7	1.71e-05	0	42	102	1048576	13	4241
2026-01-05 11:56:24.71	146.77	9.37	-25.7	-27.3	14.2	1.10e-06	0	42	102	1048576	12	4289
2026-01-05 11:56:27.73	146.71	9.62	-25.8	-27.5	14.1	6.80e-06	0	42	102	1048576	12	4336
2026-01-05 11:56:30.75	146.64	9.88	-25.6	-27.0	14.4	1.48e-05	0	42	102	1048576	12	4215
2026-01-05 11:56:33.78	146.58	10.14	-25.6	-27.0	14.4	9.10e-06	0	42	102	1048576	12	4205
2026-01-05 11:56:36.80	146.51	10.41	-25.5	-26.7	14.6	1.10e-06	0	42	102	1048576	12	4126
2026-01-05 11:56:39.81	146.44	10.68	-25.7	-27.0	14.4	6.80e-06	0	42	102	1048576	12	4222
2026-01-05 11:56:42.83	146.37	10.95	-25.4	-26.3	14.8	0.00e+00	0	42	102	1048576	12	4033
2026-01-05 11:56:45.85	146.30	11.22	-25.3	-26.8	15.0	1.10e-06	0	42	102	1048576	11	4241
2026-01-05 11:56:48.87	146.23	11.50	-25.4	-26.9	14.9	0.00e+00	0	42	102	1048576	11	4274
2026-01-05 11:56:51.89	146.15	11.78	-25.3	-26.7	15.1	1.10e-06	0	42	102	1048576	11	4226
2026-01-05 11:56:54.89	146.08	12.06	-25.3	-26.6	15.1	0.00e+00	0	42	102	1048576	11	4205
2026-01-05 11:56:57.91	146.00	12.34	-25.3	-26.7	15.1	0.00e+00	0	42	102	1048576	11	4219
2026-01-05 11:57:00.93	145.92	12.63	-25.3	-26.6	15.2	0.00e+00	0	42	102	1048576	11	4192
2026-01-05 11:57:03.95	145.84	12.93	-25.3	-26.6	15.2	0.00e+00	0	43	102	1048576	11	4210
2026-01-05 11:57:06.98	145.76	13.22	-25.4	-27.0	15.0	0.00e+00	0	43	102	1048576	11	4307
2026-01-05 11:57:10.00	145.67	13.52	-25.5	-27.1	15.0	0.00e+00	0	43	102	1048576	11	4325
2026-01-05 11:57:13.02	145.59	13.83	-25.3	-26.7	15.2	0.00e+00	0	43	102	1048576	11	4219
2026-01-05 11:57:16.04	145.50	14.13	-25.0	-26.0	15.6	0.00e+00	0	43	102	1048576	11	4041
2026-01-05 11:57:19.07	145.41	14.45	-24.9	-25.7	15.7	0.00e+00	0	43	102	1048576	11	3971
2026-01-05 11:57:22.09	145.32	14.76	-25.0	-26.1	15.5	0.00e+00	0	43	102	1048576	11	4062
2026-01-05 11:57:25.10	145.22	15.08	-25.0	-26.0	15.6	0.00e+00	0	43	102	1048576	11	4045
2026-01-05 11:57:28.13	145.13	15.40	-24.8	-26.1	15.8	0.00e+00	0	43	102	1048576	10	4170
2026-01-05 11:57:31.15	145.03	15.73	-24.4	-25.2	16.3	0.00e+00	0	43	102	1048576	10	3940
2026-01-05 11:57:34.16	144.92	16.06	-24.4	-25.1	16.4	0.00e+00	0	43	102	1048576	10	3923
2026-01-05 11:57:37.19	144.82	16.40	-24.5	-25.3	16.3	0.00e+00	0	43	102	1048576	10	3961
2026-01-05 11:57:40.21	144.71	16.74	-24.3	-25.0	16.5	0.00e+00	0	43	102	1048576	10	3888
2026-01-05 11:57:43.23	144.60	17.09	-24.1	-25.1	16.8	0.00e+00	0	43	102	1048576	9	4007
2026-01-05 11:57:46.26	144.49	17.44	-24.0	-24.8	16.9	0.00e+00	0	43	102	1048576	9	3938
2026-01-05 11:57:49.28	144.38	17.79	-24.0	-24.8	16.9	0.00e+00	0	43	102	1048576	9	3925
2026-01-05 11:57:52.29	144.26	18.15	-23.9	-24.6	17.1	0.00e+00	0	43	102	1048576	9	3890
2026-01-05 11:57:55.31	144.14	18.52	-23.9	-24.6	17.1	0.00e+00	0	43	102	1048576	9	3898
2026-01-05 11:57:58.34	144.01	18.89	-23.9	-24.6	17.1	0.00e+00	0	43	102	1048576	9	3893
2026-01-05 11:58:01.35	143.89	19.27	-23.7	-24.6	17.4	0.00e+00	0	43	102	1048576	8	3997
2026-01-05 11:58:04.36	143.76	19.65	-23.9	-25.0	17.3	0.00e+00	0	43	102	1048576	8	4081
2026-01-05 11:58:07.39	143.62	20.04	-23.5	-24.2	17.7	0.00e+00	0	43	102	1048576	8	3906
2026-01-05 11:58:10.41	143.48	20.43	-23.6	-24.4	17.6	0.00e+00	0	43	102	1048576	8	3954
2026-01-05 11:58:13.43	143.34	20.83	-23.4	-23.9	17.9	0.00e+00	0	43	102	1048576	8	3815
2026-01-05 11:58:16.45	143.20	21.24	-23.5	-24.1	17.8	0.00e+00	0	43	102	1048576	8	3869
2026-01-05 11:58:19.48	143.04	21.65	-23.2	-24.0	18.1	0.00e+00	0	43	102	1048576	7	3961
2026-01-05 11:58:22.50	142.89	22.07	-23.2	-24.0	18.2	0.00e+00	0	43	102	1048576	7	3945
2026-01-05 11:58:25.51	142.73	22.50	-23.2	-24.0	18.2	0.00e+00	0	43	102	1048576	7	3952
2026-01-05 11:58:28.54	142.57	22.93	-23.2	-24.0	18.2	0.00e+00	0	43	102	1048576	7	3961
2026-01-05 11:58:31.57	142.40	23.38	-23.2	-24.0	18.2	0.00e+00	0	43	102	1048576	7	3954
2026-01-05 11:58:34.58	142.23	23.82	-23.2	-24.0	18.2	0.00e+00	0	43	102	1048576	7	3966
2026-01-05 11:58:37.60	142.05	24.28	-23.2	-24.0	18.2	0.00e+00	0	43	102	1048576	7	3946
2026-01-05 11:58:40.62	141.86	24.74	-23.1	-23.8	18.4	0.00e+00	0	43	102	1048576	7	3904
2026-01-05 11:58:43.64	141.67	25.21	-22.9	-23.4	18.6	0.00e+00	0	43	102	1048576	7	3798
2026-01-05 11:58:46.67	141.48	25.69	-23.0	-23.6	18.5	0.00e+00	0	43	102	1048576	7	3844
2026-01-05 11:58:49.69	141.27	26.18	-22.7	-23.5	18.7	0.00e+00	0	43	102	1048576	6	3942
2026-01-05 11:58:52.71	141.06	26.68	-22.7	-23.5	18.8	0.00e+00	0	43	102	1048576	6	3928
2026-01-05 11:58:55.74	140.85	27.18	-22.9	-23.8	18.6	0.00e+00	0	43	102	1048576	6	4019
2026-01-05 11:58:58.76	140.62	27.70	-22.7	-23.4	18.9	0.00e+00	0	43	102	1048576	6	3915
2026-01-05 11:59:01.78	140.39	28.22	-22.4	-22.8	19.2	0.00e+00	0	43	102	1048576	6	3784
2026-01-05 11:59:04.81	140.15	28.75	-22.3	-22.6	19.3	0.00e+00	0	43	102	1048576	6	3724
2026-01-05 11:59:07.82	139.90	29.30	-22.2	-22.9	19.4	0.00e+00	0	43	102	1048576	5	3904
2026-01-05 11:59:10.83	139.65	29.85	-22.3	-23.2	19.3	0.00e+00	0	43	102	1048576	5	3962
2026-01-05 11:59:13.85	139.38	30.41	-22.5	-23.6	19.1	0.00e+00	0	43	102	1048576	5	4079
2026-01-05 11:59:16.87	139.11	30.98	-22.5	-23.6	19.1	0.00e+00	0	43	102	1048576	5	4075
2026-01-05 11:59:19.90	138.82	31.57	-22.1	-22.7	19.6	0.00e+00	0	43	102	1048576	5	3855
2026-01-05 11:59:22.92	138.52	32.16	-22.2	-22.8	19.5	0.00e+00	0	43	102	1048576	5	3875
2026-01-05 11:59:25.94	138.21	32.77	-22.2	-22.9	19.4	0.00e+00	0	43	102	1048576	5	3908
2026-01-05 11:59:28.96	137.89	33.38	-22.1	-22.7	19.5	0.00e+00	0	43	102	1048576	5	3868
2026-01-05 11:59:31.98	137.56	34.01	-22.1	-22.6	19.6	3.40e-06	0	43	102	1048576	5	3844
2026-01-05 11:59:35.01	137.21	34.66	-22.2	-22.8	19.6	4.50e-06	0	44	102	1048576	5	3887
2026-01-05 11:59:38.02	136.85	35.31	-22.1	-22.8	19.6	2.20e-06	0	43	102	1048576	5	3870
2026-01-05 11:59:41.04	136.48	35.97	-22.2	-23.0	19.5	1.10e-06	0	43	102	1048576	5	3923
2026-01-05 11:59:44.05	136.08	36.65	-22.2	-22.8	19.6	0.00e+00	0	43	102	1048576	5	3877
2026-01-05 11:59:47.07	135.67	37.34	-22.1	-22.7	19.6	0.00e+00	0	43	102	1048576	5	3869
2026-01-05 11:59:50.09	135.25	38.04	-22.1	-22.7	19.7	3.40e-06	0	43	102	1048576	5	3849
2026-01-05 11:59:53.11	134.80	38.76	-22.1	-22.6	19.7	0.00e+00	0	43	102	1048576	5	3836
2026-01-05 11:59:56.12	134.33	39.48	-22.1	-22.7	19.7	0.00e+00	0	43	102	1048576	5	3847
2026-01-05 11:59:59.15	133.84	40.23	-22.4	-23.4	19.3	0.00e+00	0	43	102	1048576	5	4014
2026-01-05 12:00:02.16	133.33	40.98	-22.6	-23.8	19.1	0.00e+00	0	44	102	1048576	5	4122
2026-01-05 12:00:05.18	132.79	41.75	-22.4	-23.2	19.5	0.00e+00	0	43	102	1048576	5	3973
2026-01-05 12:00:08.20	132.22	42.53	-22.3	-23.0	19.6	0.00e+00	0	44	102	1048576	5	3928
2026-01-05 12:00:11.23	131.63	43.33	-22.5	-23.6	19.3	0.00e+00	0	43	102	1048576	5	4058
2026-01-05 12:00:14.24	131.00	44.14	-22.5	-23.5	19.4	0.00e+00	0	43	102	1048576	5	4029
2026-01-05 12:00:17.25	130.35	44.96	-22.6	-23.8	19.2	0.00e+00	0	44	102	1048576	5	4114
2026-01-05 12:00:20.27	129.65	45.79	-22.7	-23.9	19.2	0.00e+00	0	43	102	1048576	5	4148
2026-01-05 12:00:23.29	128.92	46.64	-22.6	-23.7	19.3	0.00e+00	0	44	102	1048576	5	4086
2026-01-05 12:00:26.31	128.14	47.49	-22.8	-23.6	19.1	0.00e+00	0	44	102	1048576	6	3957
2026-01-05 12:00:29.33	127.33	48.36	-22.6	-23.2	19.4	0.00e+00	0	43	102	1048576	6	3857
2026-01-05 12:00:32.35	126.46	49.25	-23.1	-24.3	18.8	0.00e+00	0	43	102	1048576	6	4130
2026-01-05 12:00:35.37	125.54	50.14	-23.1	-24.3	18.8	0.00e+00	0	43	102	1048576	6	4128
2026-01-05 12:00:38.39	124.56	51.04	-23.5	-24.7	18.4	0.00e+00	0	44	102	1048576	7	4106
2026-01-05 12:00:41.41	123.53	51.94	-23.3	-24.1	18.7	0.00e+00	0	44	102	1048576	7	3954
2026-01-05 12:00:44.43	122.42	52.86	-23.2	-23.9	18.8	0.00e+00	0	43	102	1048576	7	3900
2026-01-05 12:00:47.45	121.25	53.78	-23.5	-24.6	18.5	0.00e+00	0	44	102	1048576	7	4093
2026-01-05 12:00:50.48	119.99	54.70	-23.4	-24.3	18.6	0.00e+00	0	44	102	1048576	7	4004
2026-01-05 12:00:53.50	118.66	55.63	-23.1	-23.8	18.9	0.00e+00	0	43	102	1048576	7	3900
2026-01-05 12:00:56.52	117.23	56.55	-22.8	-23.5	19.2	0.00e+00	0	44	102	1048576	6	3931
2026-01-05 12:00:59.54	115.70	57.47	-22.5	-23.1	19.5	0.00e+00	0	44	102	1048576	6	3823
2026-01-05 12:01:02.57	114.06	58.39	-22.9	-23.7	19.2	0.00e+00	0	44	102	1048576	6	3977
2026-01-05 12:01:05.59	112.31	59.29	-23.2	-24.4	18.9	0.00e+00	0	44	102	1048576	6	4139
2026-01-05 12:01:08.61	110.43	60.19	-22.7	-23.4	19.4	0.00e+00	0	44	102	1048576	6	3913
2026-01-05 12:01:11.63	108.42	61.06	-22.4	-22.7	19.8	0.00e+00	0	44	102	1048576	6	3730
2026-01-05 12:01:14.65	106.27	61.91	-22.4	-23.2	19.7	0.00e+00	0	43	102	1048576	5	3946
2026-01-05 12:01:17.67	103.96	62.74	-22.1	-22.6	20.0	0.00e+00	0	43	102	1048576	5	3832
2026-01-05 12:01:20.69	101.49	63.53	-22.0	-23.0	20.1	0.00e+00	0	44	102	1048576	4	4030
2026-01-05 12:01:23.70	98.86	64.28	-21.7	-22.4	20.4	0.00e+00	0	44	102	1048576	4	3873
2026-01-05 12:01:26.72	96.05	64.99	-21.3	-21.4	20.8	0.00e+00	0	44	102	1048576	4	3662
2026-01-05 12:01:29.74	93.06	65.65	-21.0	-21.5	21.1	0.00e+00	0	43	102	1048576	3	3773
2026-01-05 12:01:32.76	89.90	66.25	-21.4	-22.2	20.7	0.00e+00	0	44	102	1048576	3	3946
2026-01-05 12:01:35.79	86.56	66.78	-21.3	-22.0	20.9	0.00e+00	0	44	102	1048576	3	3901
2026-01-05 12:01:38.81	83.06	67.24	-20.8	-21.5	21.3	0.00e+00	0	44	102	1048576	2	3882
2026-01-05 12:01:41.83	79.43	67.62	-21.0	-21.8	21.2	0.00e+00	0	44	102	1048576	2	3958
2026-01-05 12:01:44.86	75.66	67.92	-21.2	-22.2	21.0	0.00e+00	0	43	102	1048576	2	4060
2026-01-05 12:01:47.88	71.80	68.12	-21.2	-22.3	21.2	0.00e+00	0	44	102	1048576	2	4059
2026-01-05 12:01:50.90	67.89	68.24	-21.2	-22.2	21.2	0.00e+00	0	43	102	1048576	2	4036
2026-01-05 12:01:53.92	63.95	68.25	-21.6	-22.5	20.8	0.00e+00	0	44	102	1048576	3	4002
2026-01-05 12:01:56.95	60.01	68.18	-21.6	-22.5	20.8	0.00e+00	0	44	102	1048576	3	3996
2026-01-05 12:01:59.97	56.13	68.01	-21.4	-22.0	21.0	0.00e+00	0	44	102	1048576	3	3895
2026-01-05 12:02:02.99	52.33	67.74	-21.1	-21.4	21.3	0.00e+00	0	43	102	1048576	3	3757
2026-01-05 12:02:06.01	48.65	67.40	-21.3	-22.0	21.0	0.00e+00	0	44	102	1048576	3	3890
2026-01-05 12:02:09.02	45.11	66.97	-21.4	-22.1	21.0	0.00e+00	0	44	102	1048576	3	3904
2026-01-05 12:02:12.05	41.71	66.46	-21.5	-22.3	20.9	0.00e+00	0	44	102	1048576	3	3952
2026-01-05 12:02:15.06	38.49	65.89	-21.8	-22.9	20.6	0.00e+00	0	44	102	1048576	3	4091
2026-01-05 12:02:18.08	35.44	65.26	-21.8	-22.5	20.5	0.00e+00	0	43	102	1048576	4	3889
2026-01-05 12:02:21.10	32.56	64.57	-21.7	-22.3	20.6	0.00e+00	0	43	102	1048576	4	3844
2026-01-05 12:02:24.12	29.86	63.83	-21.7	-22.2	20.7	0.00e+00	0	44	102	1048576	4	3824
2026-01-05 12:02:27.13	27.34	63.06	-21.6	-22.1	20.7	0.00e+00	0	44	102	1048576	4	3795
2026-01-05 12:02:30.16	24.96	62.24	-22.1	-23.1	20.2	0.00e+00	0	44	102	1048576	4	4043
2026-01-05 12:02:33.18	22.75	61.40	-22.5	-23.5	19.8	0.00e+00	0	44	102	1048576	5	4026
2026-01-05 12:02:36.20	20.69	60.54	-22.4	-23.2	19.9	0.00e+00	0	44	102	1048576	5	3943
2026-01-05 12:02:39.22	18.76	59.66	-22.6	-23.6	19.7	0.00e+00	0	44	102	1048576	5	4048
2026-01-05 12:02:42.24	16.97	58.76	-22.7	-23.8	19.6	0.00e+00	0	44	102	1048576	5	4102
2026-01-05 12:02:45.26	15.29	57.85	-22.8	-24.0	19.5	0.00e+00	0	44	102	1048576	5	4132
2026-01-05 12:02:48.29	13.72	56.93	-23.3	-24.5	19.0	0.00e+00	0	44	102	1048576	6	4144
2026-01-05 12:02:51.31	12.25	56.01	-23.3	-24.6	18.9	0.00e+00	0	44	102	1048576	6	4185
2026-01-05 12:02:54.34	10.88	55.09	-23.1	-24.1	19.1	0.00e+00	0	44	102	1048576	6	4055
2026-01-05 12:02:57.35	9.60	54.17	-23.6	-24.7	18.6	0.00e+00	0	44	102	1048576	7	4087
2026-01-05 12:03:00.36	8.40	53.25	-22.5	-22.8	19.8	0.00e+00	0	44	102	1048576	6	3750
2026-01-05 12:03:03.37	7.28	52.34	-22.8	-23.6	19.4	0.00e+00	0	43	102	1048576	6	3935
2026-01-05 12:03:06.39	6.22	51.43	-22.8	-23.4	19.5	0.00e+00	0	44	102	1048576	6	3893
2026-01-05 12:03:09.41	5.22	50.53	-23.2	-24.5	19.0	0.00e+00	0	44	102	1048576	6	4157
2026-01-05 12:03:12.43	4.28	49.64	-22.8	-23.6	19.4	0.00e+00	0	44	102	1048576	6	3933
2026-01-05 12:03:15.45	3.39	48.76	-22.3	-22.6	19.9	0.00e+00	0	44	102	1048576	6	3702
2026-01-05 12:03:18.47	2.56	47.89	-22.5	-23.4	19.7	0.00e+00	0	43	102	1048576	5	4004
2026-01-05 12:03:21.49	1.77	47.03	-22.4	-23.1	19.8	0.00e+00	0	44	102	1048576	5	3933
2026-01-05 12:03:24.51	1.02	46.18	-22.5	-23.4	19.7	0.00e+00	0	44	102	1048576	5	4004
2026-01-05 12:03:27.53	0.31	45.34	-21.8	-21.9	20.4	0.00e+00	0	43	102	1048576	5	3660
2026-01-05 12:03:30.55	359.64	44.52	-22.3	-22.9	19.9	0.00e+00	0	44	102	1048576	5	3896
2026-01-05 12:03:33.57	359.00	43.71	-22.4	-23.1	19.8	0.00e+00	0	44	102	1048576	5	3934
2026-01-05 12:03:36.60	358.40	42.91	-22.2	-22.8	20.0	0.00e+00	0	44	102	1048576	5	3852
2026-01-05 12:03:39.61	357.82	42.12	-22.4	-23.2	19.8	0.00e+00	0	44	102	1048576	5	3951
2026-01-05 12:03:42.63	357.27	41.35	-22.2	-22.8	19.9	0.00e+00	0	44	102	1048576	5	3869
2026-01-05 12:03:45.65	356.75	40.59	-22.0	-22.3	20.2	0.00e+00	0	44	102	1048576	5	3743
2026-01-05 12:03:48.67	356.25	39.85	-21.7	-22.2	20.5	0.00e+00	0	44	102	1048576	4	3828
2026-01-05 12:03:51.69	355.78	39.12	-21.8	-22.6	20.3	0.00e+00	0	44	102	1048576	4	3908
2026-01-05 12:03:54.71	355.32	38.40	-22.0	-22.8	20.2	0.00e+00	0	44	102	1048576	4	3981
2026-01-05 12:03:57.73	354.89	37.69	-21.8	-22.4	20.3	0.00e+00	0	44	102	1048576	4	3879
2026-01-05 12:04:00.75	354.47	37.00	-21.9	-22.6	20.3	0.00e+00	0	44	102	1048576	4	3918
2026-01-05 12:04:03.77	354.08	36.32	-22.0	-22.8	20.2	0.00e+00	0	44	102	1048576	4	3972
2026-01-05 12:04:06.80	353.69	35.65	-22.1	-23.1	20.0	0.00e+00	0	43	102	1048576	4	4041
2026-01-05 12:04:09.81	353.33	35.00	-22.2	-23.3	19.9	0.00e+00	0	43	102	1048576	4	4096
2026-01-05 12:04:12.83	352.98	34.35	-22.4	-23.7	19.7	0.00e+00	0	44	102	1048576	4	4177
2026-01-05 12:04:15.85	352.64	33.72	-22.4	-23.7	19.7	0.00e+00	0	44	102	1048576	4	4186
2026-01-05 12:04:18.88	352.32	33.10	-22.8	-24.1	19.2	0.00e+00	0	44	102	1048576	5	4170
2026-01-05 12:04:21.91	352.00	32.49	-22.5	-23.5	19.5	0.00e+00	0	44	102	1048576	5	4014
2026-01-05 12:04:24.92	351.70	31.89	-22.4	-23.3	19.6	0.00e+00	0	44	102	1048576	5	3978
2026-01-05 12:04:27.94	351.42	31.31	-22.7	-23.8	19.4	0.00e+00	0	44	102	1048576	5	4090
2026-01-05 12:04:30.97	351.14	30.73	-22.3	-23.0	19.8	0.00e+00	0	43	102	1048576	5	3909
2026-01-05 12:04:33.99	350.87	30.16	-22.3	-23.0	19.8	0.00e+00	0	44	102	1048576	5	3904
2026-01-05 12:04:37.01	350.61	29.61	-22.2	-22.9	19.8	0.00e+00	0	44	102	1048576	5	3877
2026-01-05 12:04:40.03	350.36	29.06	-22.4	-23.2	19.7	0.00e+00	0	44	102	1048576	5	3946
2026-01-05 12:04:43.04	350.12	28.53	-22.4	-23.2	19.7	0.00e+00	0	44	102	1048576	5	3950
2026-01-05 12:04:46.07	349.89	28.00	-22.3	-23.0	19.7	0.00e+00	0	44	102	1048576	5	3918
2026-01-05 12:04:49.09	349.66	27.49	-22.3	-23.0	19.7	0.00e+00	0	44	102	1048576	5	3915
2026-01-05 12:04:52.11	349.44	26.98	-22.3	-23.0	19.7	0.00e+00	0	44	102	1048576	5	3897
2026-01-05 12:04:55.13	349.23	26.48	-22.5	-23.5	19.4	0.00e+00	0	44	102	1048576	5	4023
2026-01-05 12:04:58.16	349.03	25.99	-22.7	-23.8	19.2	0.00e+00	0	44	102	1048576	5	4111
2026-01-05 12:05:01.17	348.83	25.51	-22.7	-23.8	19.2	0.00e+00	0	43	102	1048576	5	4109
2026-01-05 12:05:04.19	348.64	25.04	-22.7	-23.9	19.2	0.00e+00	0	44	102	1048576	5	4132
2026-01-05 12:05:07.22	348.46	24.57	-22.9	-24.3	19.0	0.00e+00	0	44	102	1048576	5	4220
2026-01-05 12:05:10.25	348.28	24.11	-22.9	-24.3	18.9	0.00e+00	0	44	102	1048576	5	4224
2026-01-05 12:05:13.26	348.10	23.67	-23.5	-24.5	18.4	0.00e+00	0	44	102	1048576	7	4046
2026-01-05 12:05:16.28	347.93	23.22	-22.9	-23.3	19.0	0.00e+00	0	44	102	1048576	7	3762
2026-01-05 12:05:19.31	347.77	22.79	-23.0	-23.4	18.9	0.00e+00	0	44	102	1048576	7	3796
2026-01-05 12:05:22.33	347.61	22.36	-23.0	-23.6	18.8	0.00e+00	0	44	102	1048576	7	3829
2026-01-05 12:05:25.33	347.46	21.94	-23.3	-24.1	18.5	0.00e+00	0	44	102	1048576	7	3947
2026-01-05 12:05:28.35	347.31	21.53	-23.3	-24.1	18.5	0.00e+00	0	44	102	1048576	7	3954
2026-01-05 12:05:31.37	347.16	21.12	-23.5	-24.5	18.3	0.00e+00	0	44	102	1048576	7	4064
2026-01-05 12:05:34.40	347.02	20.72	-23.5	-24.5	18.3	0.00e+00	0	44	102	1048576	7	4046
2026-01-05 12:05:37.42	346.88	20.32	-23.5	-24.6	18.2	0.00e+00	0	43	102	1048576	7	4067
2026-01-05 12:05:40.44	346.75	19.93	-23.5	-24.6	18.2	0.00e+00	0	44	102	1048576	7	4081
2026-01-05 12:05:43.45	346.62	19.55	-23.5	-24.6	18.2	0.00e+00	0	44	102	1048576	7	4072
2026-01-05 12:05:46.46	346.49	19.17	-23.6	-24.7	18.1	0.00e+00	0	44	102	1048576	7	4101
2026-01-05 12:05:49.49	346.37	18.80	-23.6	-24.8	18.1	0.00e+00	0	44	102	1048576	7	4117
2026-01-05 12:05:52.52	346.25	18.43	-23.9	-25.3	17.7	0.00e+00	0	44	102	1048576	7	4269
2026-01-05 12:05:55.54	346.13	18.07	-24.0	-25.6	17.6	0.00e+00	0	44	102	1048576	7	4348
2026-01-05 12:05:58.56	346.02	17.71	-24.2	-25.6	17.4	0.00e+00	0	44	102	1048576	8	4215
2026-01-05 12:06:01.58	345.90	17.36	-24.1	-25.3	17.5	0.00e+00	0	43	102	1048576	8	4150
2026-01-05 12:06:04.61	345.80	17.01	-24.2	-25.6	17.4	0.00e+00	0	43	102	1048576	8	4219
2026-01-05 12:06:07.63	345.69	16.67	-24.2	-25.7	17.3	0.00e+00	0	44	102	1048576	8	4247
2026-01-05 12:06:10.64	345.59	16.33	-24.3	-25.3	17.2	0.00e+00	0	44	102	1048576	9	4027
2026-01-05 12:06:13.66	345.49	16.00	-24.4	-25.5	17.0	0.00e+00	0	44	102	1048576	9	4093
2026-01-05 12:06:16.69	345.39	15.67	-24.4	-25.5	17.1	0.00e+00	0	44	102	1048576	9	4079
2026-01-05 12:06:19.71	345.29	15.35	-24.5	-25.8	16.9	0.00e+00	0	44	102	1048576	9	4161
2026-01-05 12:06:22.74	345.20	15.02	-24.6	-25.9	16.8	0.00e+00	0	43	102	1048576	9	4202
2026-01-05 12:06:25.76	345.11	14.71	-24.7	-26.2	16.6	0.00e+00	0	44	102	1048576	9	4258
2026-01-05 12:06:28.78	345.02	14.40	-24.8	-26.3	16.6	0.00e+00	0	44	102	1048576	9	4293
2026-01-05 12:06:31.81	344.93	14.09	-24.8	-26.4	16.5	0.00e+00	0	44	102	1048576	9	4311
2026-01-05 12:06:34.83	344.85	13.78	-24.9	-26.6	16.4	0.00e+00	0	44	102	1048576	9	4375
2026-01-05 12:06:37.85	344.76	13.48	-25.1	-26.5	16.1	0.00e+00	0	44	102	1048576	10	4251
2026-01-05 12:06:40.87	344.68	13.18	-25.1	-26.6	16.1	0.00e+00	0	44	102	1048576	10	4253
2026-01-05 12:06:43.87	344.60	12.89	-25.2	-26.8	16.0	0.00e+00	0	44	102	1048576	10	4313
2026-01-05 12:06:46.90	344.53	12.60	-25.2	-26.7	16.0	0.00e+00	0	44	102	1048576	10	4284
2026-01-05 12:06:49.92	344.45	12.32	-25.3	-27.0	15.8	0.00e+00	0	44	102	1048576	10	4378
2026-01-05 12:06:52.94	344.38	12.03	-25.3	-27.0	15.8	0.00e+00	0	44	102	1048576	10	4372
2026-01-05 12:06:55.96	344.31	11.75	-25.4	-27.1	15.7	0.00e+00	0	44	102	1048576	10	4409
2026-01-05 12:06:58.97	344.23	11.48	-25.8	-27.6	15.1	0.00e+00	0	44	102	1048576	11	4440
2026-01-05 12:07:02.00	344.17	11.20	-25.4	-26.7	15.6	0.00e+00	0	44	102	1048576	11	4192
2026-01-05 12:07:05.02	344.10	10.93	-25.6	-27.0	15.4	0.00e+00	0	44	102	1048576	11	4274
2026-01-05 12:07:08.04	344.03	10.66	-25.6	-27.2	15.3	0.00e+00	0	44	102	1048576	11	4309
2026-01-05 12:07:11.05	343.97	10.40	-25.6	-27.2	15.3	0.00e+00	0	44	102	1048576	11	4312
2026-01-05 12:07:14.07	343.90	10.13	-25.7	-27.4	15.2	0.00e+00	0	44	102	1048576	11	4362
2026-01-05 12:07:17.09	343.84	9.87	-25.7	-27.4	15.1	0.00e+00	0	44	102	1048576	11	4387
2026-01-05 12:07:20.12	343.78	9.62	-25.8	-27.6	15.0	0.00e+00	0	44	102	1048576	11	4445
2026-01-05 12:07:23.13	343.72	9.36	-25.9	-27.5	14.7	0.00e+00	0	44	102	1048576	12	4299
2026-01-05 12:07:26.15	343.66	9.11	-25.9	-27.4	14.7	0.00e+00	0	44	102	1048576	12	4271
2026-01-05 12:07:29.16	343.61	8.86	-26.0	-27.5	14.7	0.00e+00	0	44	102	1048576	12	4307
2026-01-05 12:07:32.19	343.55	8.61	-26.0	-27.6	14.5	1.10e-06	0	44	102	1048576	12	4343
2026-01-05 12:07:35.21	343.50	8.37	-26.2	-28.0	14.3	0.00e+00	0	44	102	1048576	12	4461
2026-01-05 12:07:38.24	343.44	8.13	-26.2	-28.1	14.2	4.50e-06	0	44	102	1048576	12	4480
2026-01-05 12:07:41.26	343.39	7.89	-26.3	-28.3	14.1	0.00e+00	0	44	102	1048576	12	4525
2026-01-05 12:07:44.26	343.34	7.65	-26.3	-28.5	14.0	5.70e-06	0	44	102	1048576	12	4586
2026-01-05 12:07:47.29	343.29	7.41	-26.5	-28.2	13.7	1.25e-05	0	44	102	1048576	13	4412
2026-01-05 12:07:50.31	343.24	7.18	-26.6	-28.5	13.6	1.14e-05	0	44	102	1048576	13	4488

#Closed at: 2026-01-05 12:07:53
#Recorded file [1 MB]: D:/data/31010_260105_145556.dat