passes_logs/2026/01/05/R2M6_AANII_01/R2M6_AANII_01__20260105_002332_FENGYUN_3D_rec.log

#Pass ID: 20260105_002332_FENGYUN 3D
#Satellite: FENGYUN 3D
#Configuration: FENGYUN 3D
#almurnet v.1.7.20240730
#Start time: 2026-01-05 00:23:31

#Version: 2.2.20231116
#Station: R2M6_AANII_01
#Location: 30.233357 lon 59.946436 lat
#TLE: 1 43010U 17072A   26004.50247883 -.00000063  00000+0 -78815-5 0  9998
#TLE: 2 43010  98.9915 336.1565 0001968 126.3752 233.7605 14.19691805421760

#Time	Az	El	Level	Level2	SNR	BER	BlckErr	Temp	State	Recorded	gain1	gain2
2026-01-05 00:23:31.82	35.68	6.99	-28.7	-31.7	5.5	7.54e-01	0	41	0	0	17	5050
2026-01-05 00:23:34.83	36.03	7.15	-30.6	-35.2	7.2	1.52e-01	0	41	102	1048576	21	6088
2026-01-05 00:23:37.85	36.39	7.31	-30.4	-34.8	7.8	8.95e-02	0	41	102	1048576	20	5979
2026-01-05 00:23:40.87	36.75	7.47	-29.4	-32.3	10.0	7.48e-03	0	41	102	1048576	19	5038
2026-01-05 00:23:43.89	37.11	7.63	-28.8	-31.1	11.2	1.31e-03	0	41	102	1048576	18	4705
2026-01-05 00:23:46.92	37.48	7.79	-28.4	-30.2	11.9	3.54e-04	0	41	102	1048576	18	4414
2026-01-05 00:23:49.93	37.85	7.95	-27.5	-29.0	13.2	5.49e-05	0	42	102	1048576	16	4262
2026-01-05 00:23:52.94	38.23	8.11	-27.6	-29.1	13.2	6.17e-05	0	42	102	1048576	16	4282
2026-01-05 00:23:55.96	38.61	8.27	-27.1	-28.6	13.7	2.20e-06	0	42	102	1048576	15	4265
2026-01-05 00:23:58.97	38.99	8.43	-27.2	-28.8	13.6	3.40e-06	0	42	102	1048576	15	4315
2026-01-05 00:24:02.00	39.38	8.59	-27.2	-28.8	13.6	5.70e-06	0	42	102	1048576	15	4321
2026-01-05 00:24:05.02	39.78	8.75	-27.1	-28.5	13.8	3.40e-06	0	42	102	1048576	15	4238
2026-01-05 00:24:08.03	40.17	8.91	-27.1	-28.6	13.7	4.50e-06	0	42	102	1048576	15	4249
2026-01-05 00:24:11.05	40.57	9.08	-27.1	-28.5	13.8	5.70e-06	0	42	102	1048576	15	4226
2026-01-05 00:24:14.07	40.98	9.24	-27.1	-28.5	13.8	3.40e-06	0	42	102	1048576	15	4227
2026-01-05 00:24:17.10	41.39	9.40	-26.9	-28.0	14.1	3.40e-06	0	42	102	1048576	15	4083
2026-01-05 00:24:20.11	41.81	9.56	-26.9	-28.4	14.2	0.00e+00	0	42	102	1048576	14	4309
2026-01-05 00:24:23.12	42.22	9.71	-26.9	-28.6	14.1	0.00e+00	0	42	102	1048576	14	4368
2026-01-05 00:24:26.15	42.65	9.87	-26.9	-28.4	14.3	0.00e+00	0	42	102	1048576	14	4305
2026-01-05 00:24:29.15	43.07	10.03	-26.7	-28.1	14.4	0.00e+00	0	42	102	1048576	14	4225
2026-01-05 00:24:32.16	43.50	10.19	-26.8	-28.2	14.4	0.00e+00	0	42	102	1048576	14	4255
2026-01-05 00:24:35.18	43.94	10.35	-26.7	-28.2	14.4	2.20e-06	0	43	102	1048576	14	4234
2026-01-05 00:24:38.20	44.38	10.51	-26.7	-28.6	14.4	0.00e+00	0	42	102	1048576	13	4478
2026-01-05 00:24:41.22	44.83	10.66	-26.8	-28.9	14.3	0.00e+00	0	42	102	1048576	13	4549
2026-01-05 00:24:44.24	45.28	10.82	-26.9	-28.9	14.3	0.00e+00	0	43	102	1048576	13	4569
2026-01-05 00:24:47.25	45.73	10.98	-26.9	-28.6	14.1	1.10e-06	0	43	102	1048576	14	4364
2026-01-05 00:24:50.28	46.20	11.13	-26.9	-28.7	14.1	0.00e+00	0	43	102	1048576	14	4416
2026-01-05 00:24:53.29	46.66	11.29	-26.4	-28.0	14.2	0.00e+00	0	43	102	1048576	14	4314
2026-01-05 00:24:56.32	47.13	11.44	-26.7	-28.1	14.5	0.00e+00	0	43	102	1048576	14	4215
2026-01-05 00:24:59.33	47.60	11.59	-26.4	-27.3	15.0	0.00e+00	0	43	102	1048576	14	4006
2026-01-05 00:25:02.35	48.08	11.75	-26.4	-27.8	14.9	0.00e+00	0	43	102	1048576	13	4247
2026-01-05 00:25:05.36	48.57	11.90	-26.4	-27.8	15.0	0.00e+00	0	43	102	1048576	13	4250
2026-01-05 00:25:08.37	49.05	12.05	-26.3	-28.2	15.1	0.00e+00	0	43	102	1048576	12	4453
2026-01-05 00:25:11.39	49.55	12.20	-26.3	-28.1	15.1	0.00e+00	0	43	102	1048576	12	4426
2026-01-05 00:25:14.42	50.05	12.35	-26.2	-27.9	15.2	0.00e+00	0	43	102	1048576	12	4369
2026-01-05 00:25:17.44	50.55	12.50	-26.3	-28.0	15.2	0.00e+00	0	43	102	1048576	12	4413
2026-01-05 00:25:20.47	51.06	12.64	-26.1	-27.7	15.4	0.00e+00	0	43	102	1048576	12	4318
2026-01-05 00:25:23.49	51.58	12.79	-26.2	-27.8	15.3	0.00e+00	0	43	102	1048576	12	4335
2026-01-05 00:25:26.52	52.10	12.93	-26.3	-28.2	15.1	0.00e+00	0	43	102	1048576	12	4452
2026-01-05 00:25:29.53	52.62	13.08	-26.1	-27.7	15.4	0.00e+00	0	43	102	1048576	12	4321
2026-01-05 00:25:32.55	53.15	13.22	-26.0	-27.4	15.6	0.00e+00	0	43	102	1048576	12	4228
2026-01-05 00:25:35.57	53.68	13.36	-25.9	-27.1	15.7	0.00e+00	0	43	102	1048576	12	4159
2026-01-05 00:25:38.58	54.22	13.50	-26.1	-27.7	15.4	0.00e+00	0	43	102	1048576	12	4319
2026-01-05 00:25:41.59	54.76	13.63	-26.3	-28.1	15.2	0.00e+00	0	43	102	1048576	12	4438
2026-01-05 00:25:44.62	55.31	13.77	-26.4	-28.3	15.0	0.00e+00	0	43	102	1048576	12	4484
2026-01-05 00:25:47.63	55.86	13.90	-26.3	-28.0	15.2	0.00e+00	0	43	102	1048576	12	4402
2026-01-05 00:25:50.64	56.42	14.04	-25.8	-27.5	15.9	0.00e+00	0	43	102	1048576	11	4367
2026-01-05 00:25:53.66	56.98	14.17	-26.4	-28.3	15.1	5.68e-04	0	43	102	1048576	12	4476
2026-01-05 00:25:56.68	57.55	14.30	-26.0	-27.3	15.6	0.00e+00	0	43	102	1048576	12	4212
2026-01-05 00:25:59.70	58.12	14.42	-25.8	-27.5	15.9	0.00e+00	0	43	102	1048576	11	4380
2026-01-05 00:26:02.72	58.70	14.55	-25.6	-27.1	16.1	5.83e-04	0	43	102	1048576	11	4261
2026-01-05 00:26:05.74	59.28	14.67	-25.9	-27.6	15.9	3.68e-04	0	43	102	1048576	11	4386
2026-01-05 00:26:08.76	59.87	14.79	-25.7	-27.3	16.0	0.00e+00	0	43	102	1048576	11	4325
2026-01-05 00:26:11.78	60.46	14.91	-25.7	-27.2	16.0	1.48e-04	0	43	102	1048576	11	4285
2026-01-05 00:26:14.80	61.06	15.03	-25.6	-27.1	16.1	4.11e-04	0	43	102	1048576	11	4252
2026-01-05 00:26:17.81	61.66	15.14	-25.6	-26.9	16.2	2.71e-04	0	43	102	1048576	11	4209
2026-01-05 00:26:20.83	62.26	15.25	-25.5	-26.7	16.3	9.43e-04	0	43	102	1048576	11	4164
2026-01-05 00:26:23.86	62.87	15.36	-25.5	-26.8	16.3	1.12e-03	0	43	102	1048576	11	4188
2026-01-05 00:26:26.88	63.49	15.47	-25.5	-26.8	16.3	0.00e+00	0	43	102	1048576	11	4168
2026-01-05 00:26:29.91	64.11	15.57	-25.3	-27.0	16.5	0.00e+00	0	43	102	1048576	10	4343
2026-01-05 00:26:32.93	64.73	15.67	-25.5	-26.8	16.3	8.60e-04	0	43	102	1048576	11	4194
2026-01-05 00:26:35.95	65.36	15.77	-25.5	-26.7	16.3	0.00e+00	0	43	102	1048576	11	4166
2026-01-05 00:26:38.97	65.99	15.87	-25.4	-26.6	16.4	0.00e+00	0	43	102	1048576	11	4131
2026-01-05 00:26:41.99	66.62	15.96	-25.3	-26.4	16.5	0.00e+00	0	43	102	1048576	11	4085
2026-01-05 00:26:45.01	67.26	16.05	-25.5	-26.8	16.3	0.00e+00	0	43	102	1048576	11	4180
2026-01-05 00:26:48.03	67.90	16.14	-25.5	-26.8	16.3	0.00e+00	0	43	102	1048576	11	4194
2026-01-05 00:26:51.05	68.55	16.22	-25.4	-26.6	16.4	0.00e+00	0	43	102	1048576	11	4126
2026-01-05 00:26:54.06	69.20	16.30	-25.4	-26.6	16.4	0.00e+00	0	43	102	1048576	11	4142
2026-01-05 00:26:57.09	69.85	16.38	-25.4	-26.5	16.4	0.00e+00	0	43	102	1048576	11	4112
2026-01-05 00:27:00.10	70.50	16.45	-25.6	-27.0	16.2	0.00e+00	0	43	102	1048576	11	4249
2026-01-05 00:27:03.13	71.17	16.52	-25.5	-26.9	16.3	0.00e+00	0	44	102	1048576	11	4200
2026-01-05 00:27:06.14	71.83	16.59	-25.3	-26.3	16.6	0.00e+00	0	43	102	1048576	11	4055
2026-01-05 00:27:09.16	72.49	16.65	-25.2	-26.1	16.2	2.20e-06	0	43	102	1048576	11	3992
2026-01-05 00:27:12.18	73.16	16.71	-25.2	-26.1	16.6	2.20e-06	0	43	102	1048576	11	4007
2026-01-05 00:27:15.21	73.83	16.77	-25.1	-26.0	16.7	1.70e-04	0	43	102	1048576	11	3983
2026-01-05 00:27:18.23	74.50	16.82	-25.1	-26.0	16.6	4.50e-06	0	43	102	1048576	11	4003
2026-01-05 00:27:21.24	75.18	16.87	-25.2	-26.2	16.5	1.10e-06	0	43	102	1048576	11	4046
2026-01-05 00:27:24.26	75.85	16.92	-25.0	-25.8	16.7	1.27e-04	0	44	102	1048576	11	3954
2026-01-05 00:27:27.28	76.53	16.96	-25.0	-25.7	16.8	1.54e-04	0	43	102	1048576	11	3925
2026-01-05 00:27:30.30	77.21	17.00	-25.1	-26.0	16.6	0.00e+00	0	43	102	1048576	11	4003
2026-01-05 00:27:33.32	77.89	17.03	-25.1	-26.5	16.6	3.89e-04	0	43	102	1048576	10	4227
2026-01-05 00:27:36.33	78.58	17.06	-25.2	-26.6	16.5	2.05e-04	0	44	102	1048576	10	4262
2026-01-05 00:27:39.34	79.26	17.09	-25.1	-26.5	16.6	1.77e-04	0	44	102	1048576	10	4218
2026-01-05 00:27:42.36	79.94	17.11	-25.1	-26.5	16.6	2.16e-04	0	43	102	1048576	10	4225
2026-01-05 00:27:45.38	80.63	17.13	-25.1	-26.4	16.7	3.88e-04	0	43	102	1048576	10	4205
2026-01-05 00:27:48.40	81.32	17.14	-25.1	-26.5	16.6	0.00e+00	0	44	102	1048576	10	4221
2026-01-05 00:27:51.43	82.01	17.15	-25.1	-26.4	16.6	0.00e+00	0	44	102	1048576	10	4215
2026-01-05 00:27:54.44	82.70	17.16	-25.3	-27.0	16.3	1.15e-04	0	43	102	1048576	10	4361
2026-01-05 00:27:57.46	83.39	17.16	-25.3	-27.0	16.3	0.00e+00	0	44	102	1048576	10	4373
2026-01-05 00:28:00.47	84.07	17.16	-25.2	-26.8	16.4	0.00e+00	0	43	102	1048576	10	4315
2026-01-05 00:28:03.50	84.77	17.16	-25.2	-26.8	16.4	0.00e+00	0	43	102	1048576	10	4315
2026-01-05 00:28:06.52	85.46	17.15	-25.1	-26.5	16.6	0.00e+00	0	43	102	1048576	10	4234
2026-01-05 00:28:09.54	86.14	17.13	-24.9	-26.1	16.8	0.00e+00	0	43	102	1048576	10	4121
2026-01-05 00:28:12.56	86.83	17.12	-25.1	-26.5	16.5	0.00e+00	0	44	102	1048576	10	4239
2026-01-05 00:28:15.59	87.52	17.10	-25.2	-26.7	16.4	0.00e+00	0	44	102	1048576	10	4293
2026-01-05 00:28:18.61	88.21	17.07	-25.1	-26.5	16.5	0.00e+00	0	44	102	1048576	10	4244
2026-01-05 00:28:21.64	88.90	17.04	-25.2	-26.8	16.4	0.00e+00	0	44	102	1048576	10	4313
2026-01-05 00:28:24.66	89.58	17.01	-25.2	-26.7	16.4	0.00e+00	0	43	102	1048576	10	4295
2026-01-05 00:28:27.69	90.26	16.97	-25.3	-27.0	16.3	0.00e+00	0	43	102	1048576	10	4365
2026-01-05 00:28:30.71	90.94	16.93	-25.4	-27.2	16.1	0.00e+00	0	43	102	1048576	10	4430
2026-01-05 00:28:33.73	91.62	16.89	-25.5	-26.9	16.0	0.00e+00	0	43	102	1048576	11	4251
2026-01-05 00:28:36.75	92.30	16.84	-25.3	-26.4	16.3	0.00e+00	0	43	102	1048576	11	4106
2026-01-05 00:28:39.77	92.98	16.79	-25.3	-26.4	16.3	0.00e+00	0	44	102	1048576	11	4094
2026-01-05 00:28:42.79	93.65	16.74	-25.4	-26.6	16.2	0.00e+00	0	44	102	1048576	11	4163
2026-01-05 00:28:45.81	94.32	16.68	-25.5	-27.0	16.0	0.00e+00	0	43	102	1048576	11	4248
2026-01-05 00:28:48.84	94.99	16.62	-25.8	-27.5	15.6	0.00e+00	0	44	102	1048576	11	4400
2026-01-05 00:28:51.85	95.65	16.55	-25.5	-27.0	15.9	0.00e+00	0	44	102	1048576	11	4266
2026-01-05 00:28:54.88	96.32	16.48	-25.6	-27.1	15.9	0.00e+00	0	43	102	1048576	11	4276
2026-01-05 00:28:57.90	96.97	16.41	-25.5	-26.9	16.0	0.00e+00	0	43	102	1048576	11	4228
2026-01-05 00:29:00.92	97.63	16.33	-25.4	-26.7	16.1	0.00e+00	0	43	102	1048576	11	4180
2026-01-05 00:29:03.94	98.28	16.25	-25.4	-26.7	16.1	0.00e+00	0	43	102	1048576	11	4169
2026-01-05 00:29:06.96	98.93	16.17	-25.5	-27.0	15.9	0.00e+00	0	43	102	1048576	11	4258
2026-01-05 00:29:09.98	99.58	16.09	-25.4	-26.6	16.1	0.00e+00	0	44	102	1048576	11	4157
2026-01-05 00:29:12.99	100.22	16.00	-25.4	-26.8	16.0	0.00e+00	0	43	102	1048576	11	4196
2026-01-05 00:29:16.01	100.86	15.91	-25.5	-27.0	15.9	0.00e+00	0	43	102	1048576	11	4265
2026-01-05 00:29:19.03	101.49	15.81	-25.6	-27.1	15.8	0.00e+00	0	43	102	1048576	11	4294
2026-01-05 00:29:22.05	102.12	15.71	-26.1	-27.7	15.1	0.00e+00	0	44	102	1048576	12	4348
2026-01-05 00:29:25.06	102.75	15.61	-26.0	-27.7	15.1	0.00e+00	0	44	102	1048576	12	4334
2026-01-05 00:29:28.08	103.37	15.51	-25.9	-27.4	15.3	0.00e+00	0	44	102	1048576	12	4255
2026-01-05 00:29:31.11	103.99	15.40	-25.7	-27.0	15.5	0.00e+00	0	43	102	1048576	12	4140
2026-01-05 00:29:34.12	104.60	15.29	-25.7	-27.0	15.5	0.00e+00	0	44	102	1048576	12	4151
2026-01-05 00:29:37.15	105.21	15.18	-25.7	-27.0	15.5	0.00e+00	0	44	102	1048576	12	4150
2026-01-05 00:29:40.17	105.82	15.07	-25.7	-27.4	15.6	0.00e+00	0	44	102	1048576	11	4369
2026-01-05 00:29:43.19	106.42	14.95	-25.8	-27.6	15.5	8.00e-06	0	43	102	1048576	11	4438
2026-01-05 00:29:46.21	107.02	14.84	-25.8	-27.5	15.5	2.17e-05	0	43	102	1048576	11	4412
2026-01-05 00:29:49.23	107.61	14.71	-25.8	-27.6	15.5	0.00e+00	0	44	102	1048576	11	4411
2026-01-05 00:29:52.24	108.19	14.59	-25.7	-27.4	15.6	1.37e-05	0	44	102	1048576	11	4363
2026-01-05 00:29:55.26	108.77	14.47	-25.8	-27.7	15.4	5.95e-05	0	43	102	1048576	11	4451
2026-01-05 00:29:58.27	109.35	14.34	-25.9	-27.8	15.3	2.51e-05	0	44	102	1048576	11	4490
2026-01-05 00:30:01.28	109.92	14.21	-26.0	-27.6	15.1	2.20e-06	0	44	102	1048576	12	4328
2026-01-05 00:30:04.30	110.49	14.08	-26.2	-28.0	14.8	3.40e-06	0	43	102	1048576	12	4442
2026-01-05 00:30:07.32	111.05	13.95	-26.2	-28.1	14.8	3.10e-04	0	44	102	1048576	12	4462
2026-01-05 00:30:10.34	111.61	13.81	-26.0	-27.5	15.1	0.00e+00	0	44	102	1048576	12	4307
2026-01-05 00:30:13.35	112.16	13.68	-25.9	-27.4	15.2	0.00e+00	0	43	102	1048576	12	4258
2026-01-05 00:30:16.37	112.71	13.54	-26.0	-27.5	15.1	1.33e-04	0	44	102	1048576	12	4293
2026-01-05 00:30:19.40	113.25	13.40	-26.0	-27.5	15.1	1.40e-04	0	43	102	1048576	12	4295
2026-01-05 00:30:22.42	113.79	13.26	-26.2	-28.0	14.8	0.00e+00	0	44	102	1048576	12	4433
2026-01-05 00:30:25.44	114.33	13.12	-26.2	-28.1	14.8	2.27e-04	0	43	102	1048576	12	4462
2026-01-05 00:30:28.46	114.85	12.97	-26.3	-28.2	14.7	1.09e-04	0	43	102	1048576	12	4475
2026-01-05 00:30:31.49	115.38	12.83	-26.4	-28.4	14.6	2.18e-04	0	44	102	1048576	12	4559
2026-01-05 00:30:34.51	115.90	12.68	-26.6	-28.4	14.3	3.84e-04	0	44	102	1048576	13	4444
2026-01-05 00:30:37.52	116.41	12.53	-26.4	-28.5	14.5	3.67e-04	0	43	102	1048576	12	4579
2026-01-05 00:30:40.54	116.92	12.38	-26.2	-28.0	14.7	0.00e+00	0	44	102	1048576	12	4445
2026-01-05 00:30:43.56	117.42	12.23	-26.3	-28.3	14.6	1.10e-06	0	44	102	1048576	12	4531
2026-01-05 00:30:46.59	117.92	12.08	-26.4	-28.5	14.4	1.01e-04	0	44	102	1048576	12	4596
2026-01-05 00:30:49.61	118.42	11.93	-26.6	-28.4	14.2	5.49e-05	0	44	102	1048576	13	4452
2026-01-05 00:30:52.63	118.90	11.78	-26.5	-28.3	14.3	0.00e+00	0	44	102	1048576	13	4411
2026-01-05 00:30:55.64	119.39	11.62	-26.5	-28.3	14.2	1.10e-06	0	44	102	1048576	13	4408
2026-01-05 00:30:58.67	119.87	11.47	-26.6	-28.3	14.2	0.00e+00	0	43	102	1048576	13	4424
2026-01-05 00:31:01.69	120.34	11.31	-26.8	-29.0	13.8	3.40e-06	0	44	102	1048576	13	4608
2026-01-05 00:31:04.69	120.81	11.16	-27.0	-29.3	13.6	5.70e-06	0	44	102	1048576	13	4711
2026-01-05 00:31:07.71	121.27	11.00	-27.0	-29.0	13.5	5.70e-06	0	44	102	1048576	14	4506
2026-01-05 00:31:10.74	121.73	10.84	-26.9	-28.6	13.7	4.50e-06	0	44	102	1048576	14	4381
2026-01-05 00:31:13.76	122.19	10.68	-26.8	-28.4	13.8	4.50e-06	0	44	102	1048576	14	4334
2026-01-05 00:31:16.77	122.64	10.53	-26.9	-28.6	13.7	2.20e-06	0	43	102	1048576	14	4383
2026-01-05 00:31:19.79	123.08	10.37	-26.8	-28.5	13.8	3.40e-06	0	44	102	1048576	14	4355
2026-01-05 00:31:22.79	123.52	10.21	-26.7	-28.3	13.8	3.40e-06	0	44	102	1048576	14	4305
2026-01-05 00:31:25.80	123.95	10.05	-26.6	-28.0	14.0	3.40e-06	0	44	102	1048576	14	4223
2026-01-05 00:31:28.81	124.38	9.89	-26.9	-28.6	13.7	3.40e-06	0	44	102	1048576	14	4390
2026-01-05 00:31:31.81	124.81	9.73	-26.9	-28.7	13.6	4.50e-06	0	43	102	1048576	14	4411
2026-01-05 00:31:34.84	125.23	9.57	-27.0	-29.0	13.3	1.25e-05	0	44	102	1048576	14	4523
2026-01-05 00:31:37.86	125.65	9.41	-27.1	-29.1	13.3	1.37e-05	0	43	102	1048576	14	4559
2026-01-05 00:31:40.87	126.06	9.25	-27.1	-29.3	13.1	3.28e-04	0	44	102	1048576	14	4608
2026-01-05 00:31:43.89	126.47	9.08	-27.2	-29.4	13.1	2.74e-05	0	44	102	1048576	14	4633
2026-01-05 00:31:46.91	126.87	8.92	-27.3	-29.6	12.9	4.02e-04	0	44	102	1048576	14	4720
2026-01-05 00:31:49.92	127.27	8.76	-27.3	-29.7	12.8	2.88e-04	0	44	102	1048576	14	4742
2026-01-05 00:31:52.94	127.67	8.60	-27.3	-29.8	12.7	3.91e-04	0	44	102	1048576	14	4772
2026-01-05 00:31:55.95	128.06	8.44	-27.3	-29.8	12.7	2.40e-05	0	44	102	1048576	14	4768
2026-01-05 00:31:58.94	128.44	8.27	-27.6	-29.8	12.3	3.66e-04	0	44	102	1048576	15	4680
2026-01-05 00:32:01.96	128.83	8.11	-27.5	-29.7	12.4	2.86e-04	0	44	102	1048576	15	4631
2026-01-05 00:32:04.98	129.21	7.95	-27.5	-29.8	12.3	3.09e-04	0	43	102	1048576	15	4680
2026-01-05 00:32:08.00	129.58	7.79	-27.7	-30.1	12.1	4.27e-04	0	44	102	1048576	15	4788
2026-01-05 00:32:11.01	129.95	7.62	-27.4	-29.5	12.4	3.70e-04	0	44	102	1048576	15	4602
2026-01-05 00:32:14.03	130.32	7.46	-27.5	-29.9	12.1	1.94e-04	0	44	102	1048576	15	4720
2026-01-05 00:32:17.04	130.68	7.30	-27.5	-29.7	12.3	1.15e-04	0	44	102	1048576	15	4647
2026-01-05 00:32:20.06	131.04	7.14	-27.5	-29.8	12.1	3.31e-04	0	44	102	1048576	15	4692
2026-01-05 00:32:23.07	131.40	6.98	-32.9	-44.3	3.8	8.45e-01	0	44	104	1048576	25	13460

#Closed at: 2026-01-05 00:32:23
#Recorded file [1 MB]: D:/data/31010_260105_032333.dat