passes_logs/2026/01/05/R2M6_AANII_01/R2M6_AANII_01__20260105_223404_NOAA_21_JPSS-2_rec.log

#Pass ID: 20260105_223404_NOAA 21 (JPSS-2)
#Satellite: NOAA 21 (JPSS-2)
#Configuration: NOAA 21
#almurnet v.1.7.20240730
#Start time: 2026-01-05 22:34:04

#Version: 2.2.20231116
#Station: R2M6_AANII_01
#Location: 30.233357 lon 59.946436 lat
#TLE: 1 54234U 22150A   26005.21525222  .00000150  00000+0  91957-4 0  9992
#TLE: 2 54234  98.7490 306.2339 0001053 341.6032  18.5106 14.19532220163427

#Time	Az	El	Level	Level2	SNR	BER	BlckErr	Temp	State	Recorded	gain1	gain2
2026-01-05 22:34:04.95	31.79	7.02	-30.1	-35.3	4.6	1.39e+00	0	41	0	0	21	6518
2026-01-05 22:34:07.96	32.10	7.19	-31.2	-36.8	6.5	2.38e-01	0	41	102	1048576	22	6913
2026-01-05 22:34:10.99	32.42	7.37	-30.6	-35.2	8.0	8.44e-02	0	41	102	1048576	21	6086
2026-01-05 22:34:13.99	32.74	7.55	-30.5	-34.6	8.5	4.53e-02	0	41	102	1048576	21	5779
2026-01-05 22:34:17.01	33.06	7.73	-30.2	-33.9	9.0	2.68e-02	0	41	102	1048576	21	5456
2026-01-05 22:34:20.04	33.39	7.92	-29.4	-32.3	10.9	2.81e-03	0	41	102	1048576	19	5011
2026-01-05 22:34:23.06	33.72	8.10	-28.7	-31.0	12.1	3.00e-04	0	42	102	1048576	18	4675
2026-01-05 22:34:26.08	34.05	8.28	-28.9	-31.9	12.0	4.69e-04	0	42	102	1048576	17	5075
2026-01-05 22:34:29.10	34.39	8.46	-28.7	-31.5	12.2	4.96e-04	0	42	102	1048576	17	4939
2026-01-05 22:34:32.12	34.74	8.65	-29.0	-31.7	11.8	6.48e-04	0	42	102	1048576	18	4903
2026-01-05 22:34:35.14	35.08	8.83	-28.8	-31.6	12.2	1.87e-04	0	42	102	1048576	17	4968
2026-01-05 22:34:38.15	35.43	9.01	-28.6	-30.6	12.7	8.23e-05	0	42	102	1048576	18	4509
2026-01-05 22:34:41.16	35.79	9.20	-28.5	-30.4	12.9	5.64e-05	0	42	102	1048576	18	4434
2026-01-05 22:34:44.18	36.15	9.38	-28.5	-30.8	12.8	4.65e-05	0	42	102	1048576	17	4671
2026-01-05 22:34:47.21	36.51	9.57	-28.6	-30.9	12.7	6.10e-05	0	42	102	1048576	17	4730
2026-01-05 22:34:50.24	36.88	9.75	-28.2	-29.9	13.3	3.43e-05	0	42	102	1048576	17	4416
2026-01-05 22:34:53.25	37.26	9.94	-28.0	-29.9	13.6	9.90e-06	0	42	102	1048576	16	4528
2026-01-05 22:34:56.27	37.63	10.13	-28.1	-30.3	13.4	1.14e-05	0	42	102	1048576	16	4645
2026-01-05 22:34:59.28	38.02	10.31	-28.1	-30.4	13.4	1.75e-05	0	42	102	1048576	16	4666
2026-01-05 22:35:02.30	38.40	10.50	-28.2	-30.5	13.4	9.90e-06	0	42	102	1048576	16	4694
2026-01-05 22:35:05.33	38.80	10.69	-28.0	-30.0	13.6	5.30e-06	0	43	102	1048576	16	4529
2026-01-05 22:35:08.34	39.19	10.88	-28.0	-30.1	13.6	7.60e-06	0	42	102	1048576	16	4576
2026-01-05 22:35:11.36	39.59	11.06	-28.2	-30.5	13.4	1.60e-05	0	42	102	1048576	16	4697
2026-01-05 22:35:14.38	40.00	11.25	-28.2	-30.6	13.3	1.75e-05	0	43	102	1048576	16	4738
2026-01-05 22:35:17.40	40.41	11.44	-28.1	-30.2	13.6	1.29e-05	0	43	102	1048576	16	4592
2026-01-05 22:35:20.41	40.83	11.63	-28.1	-30.1	13.6	1.29e-05	0	43	102	1048576	16	4574
2026-01-05 22:35:23.43	41.25	11.82	-28.1	-30.3	13.5	6.10e-06	0	43	102	1048576	16	4623
2026-01-05 22:35:26.46	41.68	12.01	-28.1	-30.3	13.6	7.60e-06	0	43	102	1048576	16	4624
2026-01-05 22:35:29.48	42.11	12.19	-28.1	-30.2	13.6	1.14e-05	0	43	102	1048576	16	4605
2026-01-05 22:35:32.50	42.55	12.38	-27.9	-29.9	13.8	4.50e-06	0	43	102	1048576	16	4488
2026-01-05 22:35:35.52	43.00	12.57	-27.9	-29.8	13.9	4.50e-06	0	43	102	1048576	16	4468
2026-01-05 22:35:38.55	43.45	12.76	-28.0	-29.9	13.8	4.50e-06	0	43	102	1048576	16	4509
2026-01-05 22:35:41.57	43.90	12.95	-28.0	-30.1	13.8	5.30e-06	0	43	102	1048576	16	4548
2026-01-05 22:35:44.59	44.36	13.14	-28.2	-30.5	13.5	1.75e-05	0	43	102	1048576	16	4692
2026-01-05 22:35:47.61	44.83	13.33	-27.7	-29.3	14.2	1.67e-05	0	43	102	1048576	16	4327
2026-01-05 22:35:50.64	45.30	13.51	-27.9	-29.7	14.0	1.50e-06	0	43	102	1048576	16	4450
2026-01-05 22:35:53.66	45.78	13.70	-27.9	-29.7	14.0	3.80e-06	0	43	102	1048576	16	4435
2026-01-05 22:35:56.68	46.27	13.89	-27.9	-29.7	14.0	1.50e-06	0	43	102	1048576	16	4432
2026-01-05 22:35:59.69	46.75	14.08	-28.0	-30.0	13.9	9.10e-06	0	43	102	1048576	16	4522
2026-01-05 22:36:02.71	47.25	14.26	-27.9	-29.6	14.1	2.20e-06	0	43	102	1048576	16	4401
2026-01-05 22:36:05.74	47.75	14.45	-27.7	-29.9	14.1	1.50e-06	0	43	102	1048576	15	4619
2026-01-05 22:36:08.76	48.26	14.63	-27.7	-29.7	14.2	1.50e-06	0	43	102	1048576	15	4537
2026-01-05 22:36:11.78	48.78	14.82	-27.5	-29.4	14.4	2.20e-06	0	43	102	1048576	15	4447
2026-01-05 22:36:14.79	49.30	15.00	-27.8	-30.0	14.1	1.50e-06	0	43	102	1048576	15	4639
2026-01-05 22:36:17.82	49.82	15.18	-27.7	-29.8	14.2	2.20e-06	0	43	102	1048576	15	4563
2026-01-05 22:36:20.85	50.36	15.37	-27.7	-29.9	14.2	2.20e-06	0	43	102	1048576	15	4593
2026-01-05 22:36:23.87	50.90	15.55	-27.8	-30.0	14.1	1.50e-06	0	43	102	1048576	15	4623
2026-01-05 22:36:26.89	51.44	15.73	-27.7	-29.8	14.2	2.20e-06	0	43	102	1048576	15	4581
2026-01-05 22:36:29.92	52.00	15.91	-27.6	-29.4	14.5	1.50e-06	0	43	102	1048576	15	4462
2026-01-05 22:36:32.94	52.56	16.08	-27.7	-29.7	14.3	1.50e-06	0	43	102	1048576	15	4527
2026-01-05 22:36:35.96	53.12	16.26	-27.8	-30.0	14.1	5.30e-06	0	43	102	1048576	15	4638
2026-01-05 22:36:38.98	53.69	16.43	-28.4	-30.8	13.6	4.50e-06	0	43	102	1048576	16	4753
2026-01-05 22:36:42.00	54.27	16.61	-27.8	-29.4	14.4	1.50e-06	0	43	102	1048576	16	4328
2026-01-05 22:36:45.02	54.86	16.78	-27.5	-29.3	14.6	0.00e+00	0	43	102	1048576	15	4418
2026-01-05 22:36:48.04	55.45	16.95	-27.7	-29.8	14.2	1.50e-06	0	43	102	1048576	15	4581
2026-01-05 22:36:51.07	56.05	17.12	-27.4	-29.1	14.7	3.80e-06	0	43	102	1048576	15	4368
2026-01-05 22:36:54.08	56.65	17.29	-28.3	-30.6	13.8	1.24e-03	0	43	102	1048576	16	4700
2026-01-05 22:36:57.11	57.27	17.45	-27.6	-29.4	14.6	0.00e+00	0	43	102	1048576	15	4457
2026-01-05 22:37:00.13	57.88	17.61	-27.2	-28.6	15.1	2.67e-04	0	43	102	1048576	15	4207
2026-01-05 22:37:03.15	58.51	17.77	-27.2	-29.1	15.1	0.00e+00	0	43	102	1048576	14	4474
2026-01-05 22:37:06.17	59.14	17.93	-27.3	-28.9	14.9	3.33e-04	0	43	102	1048576	15	4294
2026-01-05 22:37:09.19	59.77	18.09	-27.6	-29.5	14.5	2.27e-04	0	43	102	1048576	15	4471
2026-01-05 22:37:12.21	60.42	18.24	-27.2	-28.6	15.0	2.86e-04	0	43	102	1048576	15	4220
2026-01-05 22:37:15.23	61.07	18.39	-27.2	-28.5	15.1	3.96e-05	0	43	102	1048576	15	4195
2026-01-05 22:37:18.25	61.72	18.54	-27.2	-28.4	15.2	1.81e-04	0	43	102	1048576	15	4175
2026-01-05 22:37:21.26	62.38	18.68	-27.0	-28.7	15.3	5.64e-04	0	43	102	1048576	14	4353
2026-01-05 22:37:24.28	63.05	18.83	-26.9	-28.3	15.5	0.00e+00	0	43	102	1048576	14	4242
2026-01-05 22:37:27.30	63.73	18.97	-26.9	-28.8	15.5	1.13e-03	0	43	102	1048576	13	4480
2026-01-05 22:37:30.32	64.41	19.10	-26.9	-28.8	15.5	0.00e+00	0	43	102	1048576	13	4493
2026-01-05 22:37:33.34	65.09	19.24	-26.8	-28.7	15.6	2.54e-03	0	44	102	1048576	13	4459
2026-01-05 22:37:36.36	65.79	19.37	-26.8	-28.6	15.5	0.00e+00	0	43	102	1048576	13	4448
2026-01-05 22:37:39.39	66.49	19.49	-26.6	-28.2	15.8	0.00e+00	0	43	102	1048576	13	4335
2026-01-05 22:37:42.41	67.19	19.62	-26.5	-28.0	16.0	0.00e+00	0	43	102	1048576	13	4257
2026-01-05 22:37:45.43	67.90	19.73	-26.7	-28.4	15.8	6.10e-06	0	43	102	1048576	13	4368
2026-01-05 22:37:48.45	68.61	19.85	-26.8	-28.6	15.6	0.00e+00	0	43	102	1048576	13	4442
2026-01-05 22:37:51.47	69.33	19.96	-26.8	-28.7	15.6	1.30e-04	0	43	102	1048576	13	4461
2026-01-05 22:37:54.48	70.06	20.07	-26.7	-27.9	15.8	2.20e-06	0	43	102	1048576	14	4137
2026-01-05 22:37:57.51	70.79	20.17	-26.9	-28.5	15.5	1.14e-05	0	43	102	1048576	14	4291
2026-01-05 22:38:00.53	71.52	20.27	-26.6	-27.8	15.9	0.00e+00	0	43	102	1048576	14	4094
2026-01-05 22:38:03.53	72.26	20.37	-27.0	-28.5	15.4	0.00e+00	0	43	102	1048576	14	4303
2026-01-05 22:38:06.55	73.00	20.46	-27.1	-28.7	15.3	0.00e+00	0	43	102	1048576	14	4363
2026-01-05 22:38:09.58	73.75	20.54	-26.7	-27.9	15.8	0.00e+00	0	43	102	1048576	14	4140
2026-01-05 22:38:12.60	74.50	20.62	-26.9	-28.2	15.6	0.00e+00	0	43	102	1048576	14	4224
2026-01-05 22:38:15.62	75.26	20.70	-26.7	-27.8	15.8	0.00e+00	0	44	102	1048576	14	4109
2026-01-05 22:38:18.65	76.02	20.77	-27.0	-28.5	15.5	0.00e+00	0	44	102	1048576	14	4303
2026-01-05 22:38:21.67	76.78	20.84	-27.1	-28.8	15.3	0.00e+00	0	43	102	1048576	14	4369
2026-01-05 22:38:24.70	77.55	20.90	-27.2	-29.1	15.1	0.00e+00	0	44	102	1048576	14	4467
2026-01-05 22:38:27.71	78.32	20.96	-26.9	-28.4	15.5	4.42e-05	0	43	102	1048576	14	4255
2026-01-05 22:38:30.73	79.09	21.01	-26.7	-27.8	15.8	0.00e+00	0	44	102	1048576	14	4109
2026-01-05 22:38:33.74	79.86	21.06	-26.6	-28.2	15.8	1.09e-03	0	43	102	1048576	13	4340
2026-01-05 22:38:36.76	80.64	21.10	-26.8	-28.6	15.6	0.00e+00	0	43	102	1048576	13	4436
2026-01-05 22:38:39.77	81.42	21.14	-26.6	-28.1	15.9	8.29e-04	0	44	102	1048576	13	4302
2026-01-05 22:38:42.79	82.20	21.17	-26.6	-28.2	15.9	3.72e-04	0	43	102	1048576	13	4318
2026-01-05 22:38:45.80	82.98	21.19	-26.6	-28.3	15.8	6.10e-06	0	44	102	1048576	13	4345
2026-01-05 22:38:48.83	83.76	21.22	-26.4	-27.8	16.1	2.74e-05	0	44	102	1048576	13	4209
2026-01-05 22:38:51.85	84.54	21.23	-26.6	-28.2	15.9	3.50e-05	0	44	102	1048576	13	4319
2026-01-05 22:38:54.87	85.33	21.24	-26.5	-28.0	16.0	0.00e+00	0	44	102	1048576	13	4267
2026-01-05 22:38:57.89	86.11	21.25	-26.6	-28.3	15.8	0.00e+00	0	44	102	1048576	13	4348
2026-01-05 22:39:00.91	86.90	21.25	-26.7	-28.4	15.7	0.00e+00	0	44	102	1048576	13	4392
2026-01-05 22:39:03.93	87.68	21.24	-26.7	-28.3	15.8	0.00e+00	0	44	102	1048576	13	4359
2026-01-05 22:39:06.95	88.47	21.23	-26.8	-28.8	15.5	0.00e+00	0	43	102	1048576	13	4484
2026-01-05 22:39:09.96	89.25	21.21	-27.0	-28.7	15.4	0.00e+00	0	44	102	1048576	14	4337
2026-01-05 22:39:12.99	90.04	21.19	-26.6	-27.7	15.9	0.00e+00	0	43	102	1048576	14	4094
2026-01-05 22:39:16.00	90.82	21.16	-26.6	-27.8	15.9	0.00e+00	0	43	102	1048576	14	4104
2026-01-05 22:39:19.04	91.60	21.13	-26.6	-27.7	15.9	0.00e+00	0	44	102	1048576	14	4094
2026-01-05 22:39:22.06	92.38	21.09	-26.6	-27.7	15.9	0.00e+00	0	43	102	1048576	14	4084
2026-01-05 22:39:25.08	93.16	21.05	-26.9	-28.3	15.5	0.00e+00	0	43	102	1048576	14	4248
2026-01-05 22:39:28.10	93.93	21.00	-27.0	-28.6	15.4	0.00e+00	0	44	102	1048576	14	4338
2026-01-05 22:39:31.12	94.70	20.95	-27.0	-28.7	15.3	0.00e+00	0	44	102	1048576	14	4349
2026-01-05 22:39:34.14	95.47	20.89	-27.0	-28.6	15.4	0.00e+00	0	43	102	1048576	14	4318
2026-01-05 22:39:37.16	96.24	20.83	-26.7	-27.9	15.8	0.00e+00	0	43	102	1048576	14	4122
2026-01-05 22:39:40.19	97.01	20.76	-26.4	-27.3	16.1	0.00e+00	0	43	102	1048576	14	3993
2026-01-05 22:39:43.20	97.77	20.68	-26.4	-27.3	16.1	0.00e+00	0	44	102	1048576	14	3972
2026-01-05 22:39:46.22	98.52	20.61	-26.7	-27.9	15.7	0.00e+00	0	44	102	1048576	14	4148
2026-01-05 22:39:49.23	99.27	20.52	-26.9	-28.3	15.5	0.00e+00	0	44	102	1048576	14	4246
2026-01-05 22:39:52.24	100.02	20.44	-26.8	-28.2	15.6	0.00e+00	0	44	102	1048576	14	4219
2026-01-05 22:39:55.26	100.76	20.34	-26.6	-27.7	15.9	0.00e+00	0	44	102	1048576	14	4084
2026-01-05 22:39:58.28	101.50	20.25	-26.4	-27.3	16.1	0.00e+00	0	44	102	1048576	14	3978
2026-01-05 22:40:01.27	102.23	20.15	-26.6	-27.6	15.9	0.00e+00	0	44	102	1048576	14	4054
2026-01-05 22:40:04.29	102.96	20.04	-26.5	-27.5	16.0	0.00e+00	0	44	102	1048576	14	4019
2026-01-05 22:40:07.32	103.69	19.94	-26.4	-27.3	16.1	0.00e+00	0	44	102	1048576	14	3974
2026-01-05 22:40:10.33	104.41	19.82	-26.5	-27.4	16.0	0.00e+00	0	44	102	1048576	14	3992
2026-01-05 22:40:13.35	105.13	19.71	-26.5	-27.5	15.9	0.00e+00	0	44	102	1048576	14	4030
2026-01-05 22:40:16.37	105.84	19.59	-26.5	-27.4	16.0	0.00e+00	0	44	102	1048576	14	3997
2026-01-05 22:40:19.39	106.54	19.46	-26.5	-27.4	16.0	6.10e-06	0	44	102	1048576	14	4010
2026-01-05 22:40:22.42	107.24	19.33	-26.6	-27.7	15.8	0.00e+00	0	44	102	1048576	14	4089
2026-01-05 22:40:25.43	107.93	19.20	-26.7	-27.9	15.7	6.10e-06	0	43	102	1048576	14	4143
2026-01-05 22:40:28.46	108.62	19.07	-26.7	-27.8	15.7	8.30e-06	0	44	102	1048576	14	4116
2026-01-05 22:40:31.47	109.30	18.93	-26.6	-27.8	15.8	5.30e-06	0	43	102	1048576	14	4104
2026-01-05 22:40:34.48	109.98	18.79	-26.9	-28.3	15.5	6.80e-06	0	44	102	1048576	14	4257
2026-01-05 22:40:37.50	110.65	18.65	-26.9	-28.3	15.5	0.00e+00	0	44	102	1048576	14	4248
2026-01-05 22:40:40.53	111.31	18.50	-26.8	-28.0	15.5	7.60e-06	0	44	102	1048576	14	4179
2026-01-05 22:40:43.56	111.97	18.35	-26.7	-27.8	15.7	0.00e+00	0	44	102	1048576	14	4122
2026-01-05 22:40:46.57	112.62	18.20	-26.5	-27.6	15.8	0.00e+00	0	44	102	1048576	14	4051
2026-01-05 22:40:49.59	113.27	18.04	-26.9	-28.4	15.4	0.00e+00	0	44	102	1048576	14	4283
2026-01-05 22:40:52.61	113.90	17.88	-27.1	-28.9	15.1	0.00e+00	0	44	102	1048576	14	4413
2026-01-05 22:40:55.63	114.54	17.72	-27.1	-28.8	15.2	0.00e+00	0	44	102	1048576	14	4385
2026-01-05 22:40:58.65	115.16	17.56	-27.1	-28.9	15.1	0.00e+00	0	44	102	1048576	14	4424
2026-01-05 22:41:01.66	115.78	17.40	-27.1	-28.9	15.0	7.00e-07	0	44	102	1048576	14	4428
2026-01-05 22:41:04.69	116.39	17.23	-27.3	-29.3	14.8	7.00e-07	0	44	102	1048576	14	4525
2026-01-05 22:41:07.71	117.00	17.06	-27.7	-29.8	14.2	7.00e-07	0	44	102	1048576	15	4590
2026-01-05 22:41:10.73	117.60	16.89	-27.2	-28.6	14.9	0.00e+00	0	44	102	1048576	15	4221
2026-01-05 22:41:13.74	118.19	16.72	-27.0	-28.2	15.2	0.00e+00	0	44	102	1048576	15	4114
2026-01-05 22:41:16.75	118.77	16.55	-27.3	-28.8	14.8	0.00e+00	0	44	102	1048576	15	4275
2026-01-05 22:41:19.78	119.35	16.37	-27.3	-28.9	14.7	0.00e+00	0	44	102	1048576	15	4317
2026-01-05 22:41:22.79	119.92	16.20	-27.4	-29.0	14.7	2.89e-05	0	43	102	1048576	15	4335
2026-01-05 22:41:25.81	120.49	16.02	-27.5	-29.3	14.5	7.00e-07	0	44	102	1048576	15	4423
2026-01-05 22:41:28.83	121.05	15.84	-27.4	-29.0	14.6	3.00e-06	0	44	102	1048576	15	4361
2026-01-05 22:41:31.86	121.61	15.66	-27.4	-29.0	14.6	4.04e-05	0	44	102	1048576	15	4361
2026-01-05 22:41:34.88	122.15	15.48	-27.2	-28.6	14.8	0.00e+00	0	44	102	1048576	15	4235
2026-01-05 22:41:37.90	122.69	15.29	-27.3	-28.8	14.7	0.00e+00	0	44	102	1048576	15	4284
2026-01-05 22:41:40.92	123.23	15.11	-27.3	-28.7	14.7	5.95e-05	0	44	102	1048576	15	4276
2026-01-05 22:41:43.95	123.76	14.92	-27.2	-28.7	14.7	6.56e-04	0	44	102	1048576	15	4273
2026-01-05 22:41:46.97	124.28	14.74	-27.1	-28.9	14.9	0.00e+00	0	44	102	1048576	14	4435
2026-01-05 22:41:49.99	124.79	14.55	-27.2	-29.2	14.7	1.80e-04	0	44	102	1048576	14	4506
2026-01-05 22:41:53.01	125.30	14.37	-27.1	-28.5	14.8	0.00e+00	0	43	102	1048576	15	4211
2026-01-05 22:41:56.03	125.80	14.18	-27.1	-28.4	14.9	4.73e-05	0	44	102	1048576	15	4179
2026-01-05 22:41:59.05	126.30	13.99	-27.1	-28.3	14.9	0.00e+00	0	44	102	1048576	15	4165
2026-01-05 22:42:02.07	126.79	13.80	-27.2	-28.7	14.7	0.00e+00	0	44	102	1048576	15	4266
2026-01-05 22:42:05.09	127.28	13.61	-27.6	-29.6	14.1	2.20e-06	0	44	102	1048576	15	4531
2026-01-05 22:42:08.11	127.76	13.42	-27.5	-29.5	14.2	1.26e-04	0	44	102	1048576	15	4491
2026-01-05 22:42:11.12	128.23	13.24	-27.6	-29.5	14.1	1.50e-06	0	44	102	1048576	15	4513
2026-01-05 22:42:14.15	128.69	13.04	-27.8	-30.1	13.7	1.17e-04	0	44	102	1048576	15	4702
2026-01-05 22:42:17.17	129.16	12.85	-27.8	-30.0	13.8	3.00e-06	0	44	102	1048576	15	4648
2026-01-05 22:42:20.19	129.61	12.66	-27.8	-30.1	13.7	3.80e-06	0	44	102	1048576	15	4703
2026-01-05 22:42:23.21	130.06	12.47	-27.7	-30.0	13.8	6.80e-06	0	44	102	1048576	15	4651
2026-01-05 22:42:26.23	130.50	12.28	-27.6	-29.6	14.0	1.50e-06	0	44	102	1048576	15	4525
2026-01-05 22:42:29.25	130.94	12.09	-27.7	-29.8	13.9	1.50e-06	0	44	102	1048576	15	4588
2026-01-05 22:42:32.26	131.38	11.90	-27.7	-29.9	13.8	1.50e-06	0	44	102	1048576	15	4628
2026-01-05 22:42:35.27	131.80	11.71	-27.8	-30.1	13.6	3.00e-06	0	44	102	1048576	15	4698
2026-01-05 22:42:38.29	132.22	11.52	-27.9	-30.4	13.4	8.30e-06	0	44	102	1048576	15	4804
2026-01-05 22:42:41.31	132.64	11.33	-28.1	-30.2	13.4	2.21e-05	0	44	102	1048576	16	4614
2026-01-05 22:42:44.33	133.05	11.14	-28.2	-30.7	13.1	9.69e-04	0	44	102	1048576	16	4752
2026-01-05 22:42:47.35	133.46	10.95	-28.2	-30.5	13.2	2.89e-05	0	44	102	1048576	16	4692
2026-01-05 22:42:50.38	133.86	10.76	-28.4	-31.2	12.7	6.00e-04	0	44	102	1048576	16	4939
2026-01-05 22:42:53.40	134.26	10.57	-28.6	-31.0	12.5	1.19e-04	0	44	102	1048576	17	4780
2026-01-05 22:42:56.42	134.65	10.38	-28.6	-31.1	12.4	2.31e-04	0	44	102	1048576	17	4807
2026-01-05 22:42:59.44	135.04	10.19	-28.3	-30.4	12.8	1.99e-04	0	44	102	1048576	17	4587
2026-01-05 22:43:02.46	135.42	10.01	-28.4	-30.5	12.8	3.04e-04	0	44	102	1048576	17	4614
2026-01-05 22:43:05.48	135.80	9.82	-28.3	-30.4	12.8	3.37e-04	0	44	102	1048576	17	4585
2026-01-05 22:43:08.50	136.17	9.63	-28.2	-30.1	13.0	2.58e-04	0	44	102	1048576	17	4491
2026-01-05 22:43:11.52	136.54	9.44	-28.4	-30.7	12.6	6.43e-04	0	44	102	1048576	17	4679
2026-01-05 22:43:14.55	136.91	9.25	-28.4	-31.1	12.6	1.18e-04	0	44	102	1048576	16	4925
2026-01-05 22:43:17.56	137.26	9.07	-28.5	-30.9	12.4	1.27e-04	0	44	102	1048576	17	4747
2026-01-05 22:43:20.58	137.62	8.88	-28.4	-30.8	12.4	1.07e-04	0	44	102	1048576	17	4719
2026-01-05 22:43:23.60	137.97	8.70	-28.6	-31.1	12.1	3.19e-04	0	44	102	1048576	17	4838
2026-01-05 22:43:26.61	138.31	8.51	-28.6	-31.2	12.1	2.12e-04	0	44	102	1048576	17	4852
2026-01-05 22:43:29.64	138.66	8.32	-28.6	-31.2	12.0	3.17e-04	0	44	102	1048576	17	4881
2026-01-05 22:43:32.65	138.99	8.14	-28.3	-30.6	12.4	1.20e-04	0	44	102	1048576	17	4678
2026-01-05 22:43:35.67	139.33	7.96	-28.4	-30.9	12.2	1.87e-04	0	43	102	1048576	17	4766
2026-01-05 22:43:38.68	139.66	7.77	-28.5	-31.2	11.9	3.34e-04	0	44	102	1048576	17	4877
2026-01-05 22:43:41.69	139.98	7.59	-28.2	-30.4	12.3	1.67e-04	0	44	102	1048576	17	4641
2026-01-05 22:43:44.72	140.30	7.41	-28.3	-31.1	12.2	1.99e-04	0	44	102	1048576	16	5001
2026-01-05 22:43:47.74	140.62	7.23	-28.4	-30.9	12.0	3.62e-04	0	44	102	1048576	17	4825
2026-01-05 22:43:50.76	140.94	7.05	-32.4	-44.3	3.8	1.49e+00	0	44	104	1048576	24	14190
2026-01-05 22:43:53.78	141.25	6.87	-33.5	-45.4	3.8	1.49e+00	0	44	104	1048576	27	14133

#Closed at: 2026-01-05 22:43:54
#Recorded file [1 MB]: D:/data/31010_260106_013406.dat