passes_logs/2026/01/05/R2M6_AANII_01/R2M6_AANII_01__20260105_091526_SUOMI_NPP_rec.log

#Pass ID: 20260105_091526_SUOMI NPP
#Satellite: SUOMI NPP
#Configuration: NPP
#almurnet v.1.7.20240730
#Start time: 2026-01-05 09:15:26

#Version: 2.2.20231116
#Station: R2M6_AANII_01
#Location: 30.233357 lon 59.946436 lat
#TLE: 1 37849U 11061A   26003.96724563  .00000164  00000+0  98899-4 0  9990
#TLE: 2 37849  98.7800 306.1116 0002573  82.3190 277.8279 14.19522066735141

#Time	Az	El	Level	Level2	SNR	BER	BlckErr	Temp	State	Recorded	gain1	gain2
2026-01-05 09:15:26.95	125.18	7.04	-30.7	-35.0	5.0	1.30e+00	0	41	0	0	22	5869
2026-01-05 09:15:29.96	125.01	7.26	-31.2	-36.7	6.3	2.70e-01	0	41	102	1048576	23	6751
2026-01-05 09:15:32.98	124.84	7.48	-31.0	-35.2	7.3	1.55e-01	0	41	102	1048576	23	5895
2026-01-05 09:15:36.01	124.67	7.71	-30.7	-34.6	8.3	5.34e-02	0	41	102	1048576	22	5607
2026-01-05 09:15:39.02	124.49	7.93	-30.1	-32.6	10.2	8.60e-03	0	41	102	1048576	21	4812
2026-01-05 09:15:42.04	124.31	8.16	-30.2	-33.0	9.9	6.21e-03	0	41	102	1048576	21	4977
2026-01-05 09:15:45.06	124.13	8.39	-30.3	-33.3	9.7	1.33e-02	0	41	102	1048576	21	5079
2026-01-05 09:15:48.08	123.95	8.62	-30.0	-32.1	10.7	3.13e-03	0	41	102	1048576	21	4602
2026-01-05 09:15:51.10	123.76	8.86	-30.0	-32.2	10.6	3.75e-03	0	42	102	1048576	21	4639
2026-01-05 09:15:54.12	123.57	9.09	-30.1	-32.6	10.4	4.71e-03	0	42	102	1048576	21	4787
2026-01-05 09:15:57.14	123.37	9.33	-29.9	-31.8	10.9	3.20e-03	0	42	102	1048576	21	4491
2026-01-05 09:16:00.15	123.17	9.57	-30.0	-32.0	10.9	1.69e-03	0	42	102	1048576	21	4552
2026-01-05 09:16:03.18	122.97	9.81	-29.8	-32.0	11.3	1.16e-03	0	42	102	1048576	20	4632
2026-01-05 09:16:06.20	122.76	10.06	-30.0	-32.7	10.8	1.86e-03	0	42	102	1048576	20	4882
2026-01-05 09:16:09.22	122.56	10.30	-30.0	-32.7	10.8	2.96e-03	0	42	102	1048576	20	4879
2026-01-05 09:16:12.23	122.34	10.55	-30.2	-33.3	10.4	4.09e-03	0	42	102	1048576	20	5116
2026-01-05 09:16:15.25	122.13	10.80	-29.9	-32.2	11.2	1.51e-03	0	42	102	1048576	20	4675
2026-01-05 09:16:18.27	121.91	11.05	-29.8	-31.9	11.4	1.50e-03	0	42	102	1048576	20	4562
2026-01-05 09:16:21.30	121.68	11.30	-29.7	-31.6	11.7	9.21e-04	0	42	102	1048576	20	4467
2026-01-05 09:16:24.32	121.45	11.56	-29.6	-31.1	12.1	1.44e-04	0	42	102	1048576	20	4290
2026-01-05 09:16:27.35	121.22	11.82	-29.7	-31.5	11.8	4.35e-04	0	42	102	1048576	20	4432
2026-01-05 09:16:30.37	120.99	12.08	-29.6	-31.1	12.1	4.20e-04	0	42	102	1048576	20	4302
2026-01-05 09:16:33.39	120.74	12.34	-29.7	-31.3	12.0	3.60e-04	0	42	102	1048576	20	4359
2026-01-05 09:16:36.41	120.50	12.61	-29.8	-31.6	11.8	4.05e-04	0	42	102	1048576	20	4452
2026-01-05 09:16:39.44	120.25	12.88	-29.7	-31.4	12.0	3.50e-04	0	42	102	1048576	20	4372
2026-01-05 09:16:42.46	119.99	13.15	-29.4	-30.7	12.5	1.69e-04	0	42	102	1048576	20	4163
2026-01-05 09:16:45.49	119.73	13.42	-29.5	-30.8	12.4	1.65e-04	0	42	102	1048576	20	4190
2026-01-05 09:16:48.52	119.47	13.70	-29.5	-31.1	12.6	6.02e-05	0	42	102	1048576	19	4367
2026-01-05 09:16:51.54	119.20	13.97	-29.5	-31.2	12.6	1.11e-04	0	42	102	1048576	19	4396
2026-01-05 09:16:54.56	118.92	14.25	-29.4	-30.8	12.9	4.11e-05	0	43	102	1048576	19	4259
2026-01-05 09:16:57.58	118.64	14.54	-29.6	-31.6	12.4	1.25e-04	0	43	102	1048576	19	4515
2026-01-05 09:17:00.60	118.35	14.82	-29.9	-32.4	11.9	2.44e-04	0	43	102	1048576	19	4801
2026-01-05 09:17:03.62	118.06	15.11	-29.9	-31.9	11.8	4.69e-04	0	43	102	1048576	20	4520
2026-01-05 09:17:06.64	117.76	15.40	-30.1	-32.4	11.5	7.57e-04	0	43	102	1048576	20	4723
2026-01-05 09:17:09.66	117.46	15.69	-30.2	-32.9	11.1	1.21e-03	0	43	102	1048576	20	4911
2026-01-05 09:17:12.68	117.15	15.99	-30.2	-32.7	11.3	9.00e-04	0	43	102	1048576	20	4819
2026-01-05 09:17:15.69	116.84	16.29	-29.8	-31.5	12.2	2.55e-04	0	43	102	1048576	20	4402
2026-01-05 09:17:18.71	116.51	16.59	-29.5	-30.8	12.6	9.15e-05	0	43	102	1048576	20	4163
2026-01-05 09:17:21.74	116.18	16.89	-29.2	-30.4	13.4	2.28e-05	0	43	102	1048576	19	4104
2026-01-05 09:17:24.75	115.85	17.20	-29.3	-30.4	13.4	1.83e-05	0	43	102	1048576	19	4120
2026-01-05 09:17:27.77	115.50	17.51	-29.2	-30.2	13.5	1.44e-05	0	43	102	1048576	19	4061
2026-01-05 09:17:30.79	115.15	17.82	-29.2	-30.1	13.6	1.22e-05	0	43	102	1048576	19	4027
2026-01-05 09:17:33.81	114.79	18.14	-29.8	-32.0	12.4	7.70e-05	0	43	102	1048576	19	4639
2026-01-05 09:17:36.82	114.43	18.46	-29.8	-32.0	12.4	1.07e-04	0	43	102	1048576	19	4608
2026-01-05 09:17:39.84	114.06	18.78	-30.0	-32.0	12.0	2.17e-04	0	43	102	1048576	20	4534
2026-01-05 09:17:42.87	113.67	19.10	-29.9	-31.7	12.2	2.06e-04	0	43	102	1048576	20	4431
2026-01-05 09:17:45.88	113.28	19.43	-29.9	-31.7	12.3	1.34e-04	0	43	102	1048576	20	4426
2026-01-05 09:17:48.90	112.88	19.76	-30.0	-31.9	12.1	2.57e-04	0	43	102	1048576	20	4499
2026-01-05 09:17:51.91	112.48	20.09	-30.2	-32.5	11.7	6.92e-04	0	43	102	1048576	20	4700
2026-01-05 09:17:54.93	112.06	20.43	-30.3	-32.5	11.4	2.39e-03	0	43	102	1048576	21	4622
2026-01-05 09:17:57.94	111.64	20.76	-29.9	-31.3	12.3	2.86e-04	0	43	102	1048576	21	4219
2026-01-05 09:18:00.96	111.20	21.11	-30.0	-31.3	12.3	1.88e-04	0	43	102	1048576	21	4216
2026-01-05 09:18:03.98	110.75	21.45	-30.2	-32.1	11.7	3.74e-04	0	43	102	1048576	21	4456
2026-01-05 09:18:07.00	110.30	21.80	-30.2	-32.0	11.8	3.53e-04	0	43	102	1048576	21	4448
2026-01-05 09:18:10.02	109.83	22.15	-30.3	-32.3	11.7	4.03e-04	0	43	102	1048576	21	4526
2026-01-05 09:18:13.04	109.35	22.50	-29.7	-30.9	13.0	3.66e-05	0	43	102	1048576	20	4171
2026-01-05 09:18:16.05	108.87	22.85	-29.6	-30.7	13.1	1.98e-05	0	43	102	1048576	20	4097
2026-01-05 09:18:19.08	108.36	23.21	-29.3	-30.6	13.5	1.22e-05	0	43	102	1048576	19	4169
2026-01-05 09:18:22.11	107.85	23.58	-29.5	-31.1	13.2	1.60e-05	0	43	102	1048576	19	4320
2026-01-05 09:18:25.13	107.33	23.94	-29.3	-30.4	13.6	5.30e-06	0	43	102	1048576	19	4115
2026-01-05 09:18:28.15	106.79	24.30	-29.6	-31.2	13.1	2.59e-05	0	43	102	1048576	19	4351
2026-01-05 09:18:31.18	106.24	24.67	-29.8	-31.8	12.7	4.57e-05	0	43	102	1048576	19	4527
2026-01-05 09:18:34.20	105.67	25.04	-30.0	-32.1	12.1	9.99e-05	0	43	102	1048576	20	4554
2026-01-05 09:18:37.22	105.10	25.42	-30.4	-32.6	11.5	6.03e-04	0	43	102	1048576	21	4660
2026-01-05 09:18:40.25	104.51	25.79	-30.6	-33.3	11.0	1.12e-03	0	43	102	1048576	21	4920
2026-01-05 09:18:43.27	103.90	26.17	-30.9	-34.2	10.3	4.58e-03	0	43	102	1048576	21	5320
2026-01-05 09:18:46.29	103.28	26.55	-31.1	-34.7	9.5	6.80e-03	0	43	102	1048576	22	5448
2026-01-05 09:18:49.32	102.65	26.93	-30.9	-34.1	10.0	9.43e-03	0	43	102	1048576	22	5200
2026-01-05 09:18:52.32	102.00	27.30	-30.4	-32.3	11.4	1.11e-03	0	43	102	1048576	22	4481
2026-01-05 09:18:55.35	101.33	27.69	-30.1	-31.7	12.1	3.56e-04	0	43	102	1048576	21	4364
2026-01-05 09:18:58.37	100.65	28.07	-29.6	-30.7	13.2	5.95e-05	0	43	102	1048576	20	4107
2026-01-05 09:19:01.37	99.96	28.45	-30.4	-33.2	11.5	3.68e-04	0	43	102	1048576	20	4976
2026-01-05 09:19:04.39	99.24	28.83	-30.2	-32.5	11.9	2.00e-04	0	43	102	1048576	20	4707
2026-01-05 09:19:07.42	98.51	29.22	-30.4	-32.7	11.5	1.02e-03	0	43	102	1048576	21	4695
2026-01-05 09:19:10.44	97.76	29.60	-30.6	-33.2	11.1	1.33e-03	0	43	102	1048576	21	4869
2026-01-05 09:19:13.46	96.99	29.99	-30.6	-33.4	11.1	2.27e-03	0	43	102	1048576	21	4941
2026-01-05 09:19:16.48	96.20	30.37	-30.4	-32.5	11.7	4.39e-04	0	43	102	1048576	21	4605
2026-01-05 09:19:19.50	95.39	30.75	-30.5	-32.8	11.5	8.45e-04	0	43	102	1048576	21	4724
2026-01-05 09:19:22.52	94.57	31.13	-30.4	-32.7	11.5	1.12e-03	0	43	102	1048576	21	4666
2026-01-05 09:19:25.53	93.73	31.50	-30.6	-33.1	11.3	1.02e-03	0	43	102	1048576	21	4838
2026-01-05 09:19:28.55	92.86	31.88	-30.8	-34.2	10.4	5.71e-03	0	43	102	1048576	21	5275
2026-01-05 09:19:31.56	91.98	32.25	-30.8	-33.6	10.5	3.78e-03	0	43	102	1048576	22	4971
2026-01-05 09:19:34.59	91.07	32.62	-31.1	-34.7	9.6	9.03e-03	0	43	102	1048576	22	5465
2026-01-05 09:19:37.60	90.15	32.98	-31.3	-35.5	9.0	2.11e-02	0	43	102	1048576	22	5855
2026-01-05 09:19:40.62	89.20	33.34	-31.6	-36.3	8.1	6.31e-02	0	43	102	1048576	23	6128
2026-01-05 09:19:43.64	88.23	33.70	-31.7	-36.5	8.0	4.61e-02	0	43	102	1048576	23	6250
2026-01-05 09:19:46.66	87.24	34.05	-31.9	-37.2	7.0	1.64e-01	0	43	102	1048576	24	6594
2026-01-05 09:19:49.69	86.22	34.40	-31.3	-34.3	9.3	2.56e-02	0	43	102	1048576	24	5104
2026-01-05 09:19:52.72	85.19	34.73	-31.4	-35.1	9.1	1.88e-02	0	43	102	1048576	23	5535
2026-01-05 09:19:55.74	84.13	35.06	-31.9	-37.2	7.4	1.03e-01	0	43	102	1048576	23	6663
2026-01-05 09:19:58.76	83.06	35.39	-31.9	-37.3	7.4	1.09e-01	0	43	102	1048576	23	6731
2026-01-05 09:20:01.77	81.96	35.70	-31.8	-36.3	7.8	1.04e-01	0	43	102	1048576	24	6046
2026-01-05 09:20:04.79	80.85	36.00	-31.4	-34.6	9.1	2.11e-02	0	43	102	1048576	24	5177
2026-01-05 09:20:07.81	79.71	36.30	-31.1	-33.9	10.0	5.63e-03	0	43	102	1048576	23	4968
2026-01-05 09:20:10.83	78.55	36.58	-30.2	-32.2	11.9	9.85e-04	0	43	102	1048576	21	4513
2026-01-05 09:20:13.85	77.37	36.85	-30.2	-32.3	11.9	4.23e-04	0	43	102	1048576	21	4560
2026-01-05 09:20:16.86	76.17	37.11	-30.2	-32.3	11.9	3.45e-04	0	43	102	1048576	21	4559
2026-01-05 09:20:19.88	74.96	37.36	-30.1	-31.6	12.5	6.48e-05	0	43	102	1048576	21	4312
2026-01-05 09:20:22.90	73.72	37.60	-30.1	-32.4	12.2	1.52e-04	0	43	102	1048576	20	4672
2026-01-05 09:20:25.92	72.47	37.82	-29.9	-31.6	12.7	6.33e-05	0	43	102	1048576	20	4409
2026-01-05 09:20:28.94	71.20	38.02	-30.0	-32.1	12.4	1.34e-04	0	43	102	1048576	20	4582
2026-01-05 09:20:31.96	69.91	38.22	-28.5	-28.9	15.2	4.50e-06	0	44	102	1048576	18	3774
2026-01-05 09:20:34.98	68.61	38.39	-28.8	-29.6	14.8	6.10e-06	0	43	102	1048576	18	3955
2026-01-05 09:20:37.99	67.30	38.55	-28.8	-29.7	14.8	3.80e-06	0	43	102	1048576	18	3955
2026-01-05 09:20:41.01	65.98	38.69	-29.5	-30.9	13.7	3.00e-06	0	43	102	1048576	19	4224
2026-01-05 09:20:44.03	64.64	38.82	-29.0	-29.6	14.6	1.14e-05	0	43	102	1048576	19	3837
2026-01-05 09:20:47.05	63.30	38.93	-28.7	-29.3	15.2	5.30e-06	0	43	102	1048576	18	3859
2026-01-05 09:20:50.07	61.94	39.02	-29.0	-30.0	14.6	5.30e-06	0	44	102	1048576	18	4047
2026-01-05 09:20:53.10	60.58	39.09	-28.7	-29.4	15.0	3.00e-06	0	43	102	1048576	18	3874
2026-01-05 09:20:56.12	59.21	39.15	-29.0	-30.0	14.6	0.00e+00	0	43	102	1048576	18	4044
2026-01-05 09:20:59.14	57.84	39.18	-29.9	-31.5	12.8	6.25e-05	0	44	102	1048576	20	4357
2026-01-05 09:21:02.16	56.47	39.20	-30.6	-33.2	11.3	8.48e-04	0	43	102	1048576	21	4863
2026-01-05 09:21:05.18	55.09	39.20	-29.8	-30.8	13.1	3.35e-05	0	43	102	1048576	21	4030
2026-01-05 09:21:08.18	53.73	39.18	-30.2	-32.0	12.2	2.35e-04	0	43	102	1048576	21	4433
2026-01-05 09:21:11.21	52.36	39.14	-30.1	-31.6	12.5	1.04e-04	0	43	102	1048576	21	4286
2026-01-05 09:21:14.23	50.99	39.08	-30.8	-34.0	10.9	1.65e-03	0	44	102	1048576	21	5181
2026-01-05 09:21:17.24	49.64	39.01	-30.5	-32.6	11.4	3.65e-03	0	43	102	1048576	22	4562
2026-01-05 09:21:20.26	48.29	38.91	-31.1	-34.7	9.8	5.19e-03	0	43	102	1048576	22	5449
2026-01-05 09:21:23.28	46.94	38.80	-31.0	-34.2	10.2	9.53e-03	0	43	102	1048576	22	5226
2026-01-05 09:21:26.30	45.61	38.67	-31.1	-34.5	9.9	1.58e-02	0	43	102	1048576	22	5350
2026-01-05 09:21:29.33	44.28	38.53	-30.7	-33.5	10.6	3.08e-03	0	43	102	1048576	22	4955
2026-01-05 09:21:32.34	42.98	38.36	-31.5	-36.7	8.2	4.79e-02	0	44	102	1048576	22	6523
2026-01-05 09:21:35.36	41.68	38.19	-31.1	-34.6	9.2	5.40e-02	0	44	102	1048576	23	5405
2026-01-05 09:21:38.39	40.40	37.99	-30.3	-32.7	11.6	2.62e-04	0	43	102	1048576	21	4728
2026-01-05 09:21:41.41	39.13	37.78	-30.5	-33.2	11.0	1.16e-03	0	43	102	1048576	21	4912
2026-01-05 09:21:44.43	37.88	37.56	-29.4	-30.3	13.5	1.75e-05	0	43	102	1048576	20	3984
2026-01-05 09:21:47.45	36.65	37.32	-29.0	-29.7	14.4	0.00e+00	0	43	102	1048576	19	3882
2026-01-05 09:21:50.47	35.44	37.07	-29.1	-29.8	14.2	1.50e-06	0	43	102	1048576	19	3933
2026-01-05 09:21:53.48	34.25	36.81	-29.4	-30.7	13.7	8.30e-06	0	43	102	1048576	19	4179
2026-01-05 09:21:56.50	33.08	36.54	-28.7	-29.5	14.8	7.00e-07	0	44	102	1048576	18	3923
2026-01-05 09:21:59.51	31.93	36.25	-30.2	-32.5	12.0	4.38e-04	0	43	102	1048576	20	4729
2026-01-05 09:22:02.53	30.80	35.96	-29.9	-31.5	12.7	4.04e-05	0	43	102	1048576	20	4357
2026-01-05 09:22:05.55	29.68	35.65	-29.4	-30.6	13.8	2.20e-06	0	43	102	1048576	19	4134
2026-01-05 09:22:08.56	28.60	35.34	-29.6	-31.1	13.4	8.30e-06	0	44	102	1048576	19	4308
2026-01-05 09:22:11.59	27.52	35.02	-29.9	-31.4	12.8	1.19e-04	0	43	102	1048576	20	4319
2026-01-05 09:22:14.61	26.48	34.69	-29.0	-29.4	14.6	7.00e-07	0	43	102	1048576	19	3808
2026-01-05 09:22:17.64	25.45	34.35	-30.2	-32.4	12.2	2.55e-04	0	43	102	1048576	20	4645
2026-01-05 09:22:20.65	24.44	34.00	-30.2	-32.3	12.3	1.75e-04	0	43	102	1048576	20	4602
2026-01-05 09:22:23.67	23.46	33.65	-30.2	-32.3	12.2	3.29e-04	0	43	102	1048576	20	4609
2026-01-05 09:22:26.69	22.50	33.30	-30.6	-33.2	11.2	1.31e-03	0	44	102	1048576	21	4856
2026-01-05 09:22:29.71	21.56	32.94	-30.9	-33.7	10.6	4.22e-03	0	43	102	1048576	22	4927
2026-01-05 09:22:32.73	20.64	32.58	-30.8	-33.2	11.0	1.83e-03	0	44	102	1048576	22	4768
2026-01-05 09:22:35.75	19.74	32.21	-31.2	-34.8	9.7	6.64e-03	0	44	102	1048576	22	5451
2026-01-05 09:22:38.78	18.86	31.83	-30.8	-33.3	10.9	2.18e-03	0	43	102	1048576	22	4786
2026-01-05 09:22:41.80	18.00	31.46	-30.5	-32.3	11.6	6.90e-04	0	43	102	1048576	22	4408
2026-01-05 09:22:44.82	17.16	31.08	-29.9	-30.9	12.8	6.56e-05	0	43	102	1048576	21	4049
2026-01-05 09:22:47.84	16.34	30.71	-30.3	-32.2	12.0	4.01e-04	0	43	102	1048576	21	4472
2026-01-05 09:22:50.86	15.54	30.33	-31.3	-35.0	9.6	1.20e-02	0	43	102	1048576	22	5514
2026-01-05 09:22:53.88	14.76	29.95	-31.3	-34.5	9.5	2.27e-02	0	43	102	1048576	23	5223
2026-01-05 09:22:56.90	14.00	29.56	-31.4	-34.9	9.3	1.44e-02	0	43	102	1048576	23	5400
2026-01-05 09:22:59.92	13.25	29.18	-30.4	-32.1	11.6	2.21e-03	0	43	102	1048576	22	4386
2026-01-05 09:23:02.93	12.53	28.80	-30.5	-33.0	11.3	7.26e-04	0	43	102	1048576	21	4783
2026-01-05 09:23:05.94	11.82	28.42	-30.0	-31.3	12.5	2.18e-04	0	43	102	1048576	21	4199
2026-01-05 09:23:08.95	11.13	28.04	-29.8	-31.4	12.9	2.67e-05	0	43	102	1048576	20	4305
2026-01-05 09:23:11.98	10.45	27.66	-29.9	-31.7	12.5	7.47e-05	0	44	102	1048576	20	4401
2026-01-05 09:23:14.99	9.79	27.28	-29.8	-31.4	12.7	4.95e-05	0	43	102	1048576	20	4325
2026-01-05 09:23:18.01	9.15	26.90	-29.6	-30.6	13.2	6.94e-05	0	43	102	1048576	20	4058
2026-01-05 09:23:21.03	8.52	26.52	-29.4	-30.2	13.6	8.30e-06	0	43	102	1048576	20	3944
2026-01-05 09:23:24.05	7.90	26.15	-29.7	-31.5	13.1	2.13e-05	0	44	102	1048576	19	4405
2026-01-05 09:23:27.06	7.31	25.77	-29.4	-30.6	13.5	1.29e-05	0	43	102	1048576	19	4160
2026-01-05 09:23:30.08	6.72	25.40	-29.9	-32.0	12.7	3.20e-05	0	44	102	1048576	19	4587
2026-01-05 09:23:33.10	6.15	25.03	-30.3	-32.9	11.6	6.45e-04	0	43	102	1048576	20	4872
2026-01-05 09:23:36.12	5.59	24.66	-30.4	-32.7	11.3	1.89e-03	0	43	102	1048576	21	4685
2026-01-05 09:23:39.15	5.05	24.30	-30.7	-33.6	10.8	2.51e-03	0	43	102	1048576	21	5030
2026-01-05 09:23:42.18	4.51	23.93	-30.0	-31.6	12.2	4.03e-04	0	44	102	1048576	21	4288
2026-01-05 09:23:45.20	3.99	23.57	-30.0	-31.4	12.3	1.62e-04	0	43	102	1048576	21	4240
2026-01-05 09:23:48.23	3.48	23.21	-30.4	-32.5	11.5	4.90e-04	0	44	102	1048576	21	4600
2026-01-05 09:23:51.25	2.99	22.85	-30.4	-32.6	11.5	8.52e-04	0	43	102	1048576	21	4648
2026-01-05 09:23:54.27	2.50	22.50	-29.9	-31.7	12.4	1.28e-04	0	43	102	1048576	20	4429
2026-01-05 09:23:57.29	2.03	22.15	-30.2	-32.6	11.7	4.61e-04	0	44	102	1048576	20	4746
2026-01-05 09:24:00.30	1.57	21.80	-30.7	-33.6	10.7	2.85e-03	0	43	102	1048576	21	5025
2026-01-05 09:24:03.32	1.12	21.46	-30.9	-33.8	10.2	6.05e-03	0	43	102	1048576	22	5035
2026-01-05 09:24:06.34	0.67	21.11	-30.7	-33.2	10.7	3.49e-03	0	43	102	1048576	22	4776
2026-01-05 09:24:09.35	0.24	20.77	-30.6	-32.7	10.9	3.66e-03	0	43	102	1048576	22	4605
2026-01-05 09:24:12.37	359.82	20.44	-30.3	-32.4	11.5	9.99e-04	0	44	102	1048576	21	4577
2026-01-05 09:24:15.39	359.41	20.10	-30.4	-32.6	11.4	1.21e-03	0	43	102	1048576	21	4650
2026-01-05 09:24:18.40	359.00	19.77	-30.3	-32.4	11.5	6.78e-04	0	43	102	1048576	21	4589
2026-01-05 09:24:21.43	358.61	19.44	-30.3	-32.4	11.5	7.02e-04	0	43	102	1048576	21	4601
2026-01-05 09:24:24.44	358.22	19.12	-29.7	-31.2	12.6	9.84e-05	0	43	102	1048576	20	4274
2026-01-05 09:24:27.47	357.84	18.80	-29.8	-31.6	12.3	1.57e-04	0	43	102	1048576	20	4397
2026-01-05 09:24:30.49	357.47	18.48	-30.3	-33.1	11.3	7.93e-04	0	43	102	1048576	20	4954
2026-01-05 09:24:33.51	357.11	18.16	-30.2	-32.2	11.6	6.79e-04	0	43	102	1048576	21	4516
2026-01-05 09:24:36.53	356.76	17.84	-29.9	-31.2	12.2	1.94e-04	0	44	102	1048576	21	4207
2026-01-05 09:24:39.54	356.41	17.53	-29.8	-31.4	12.4	1.65e-04	0	43	102	1048576	20	4338
2026-01-05 09:24:42.56	356.07	17.23	-30.0	-32.0	12.0	4.22e-04	0	44	102	1048576	20	4542
2026-01-05 09:24:45.60	355.73	16.92	-30.2	-32.7	11.5	6.88e-04	0	43	102	1048576	20	4799
2026-01-05 09:24:48.62	355.41	16.62	-30.5	-33.7	10.8	1.92e-03	0	43	102	1048576	20	5211
2026-01-05 09:24:51.64	355.09	16.32	-30.6	-33.6	10.3	4.28e-03	0	43	102	1048576	21	5092
2026-01-05 09:24:54.65	354.78	16.02	-30.5	-33.3	10.6	3.99e-03	0	43	102	1048576	21	4953
2026-01-05 09:24:57.66	354.47	15.73	-30.1	-32.1	11.4	1.08e-03	0	43	102	1048576	21	4532
2026-01-05 09:25:00.66	354.17	15.44	-29.7	-31.4	12.3	3.28e-04	0	43	102	1048576	20	4349
2026-01-05 09:25:03.68	353.88	15.15	-29.4	-30.6	12.8	3.58e-05	0	43	102	1048576	20	4100
2026-01-05 09:25:06.70	353.59	14.86	-29.5	-31.1	12.9	5.41e-05	0	43	102	1048576	19	4333
2026-01-05 09:25:09.72	353.31	14.58	-29.5	-31.3	12.7	6.56e-05	0	43	102	1048576	19	4405
2026-01-05 09:25:12.74	353.03	14.30	-29.6	-31.5	12.5	1.33e-04	0	43	102	1048576	19	4468
2026-01-05 09:25:15.77	352.76	14.02	-29.6	-31.6	12.4	1.25e-04	0	43	102	1048576	19	4525
2026-01-05 09:25:18.78	352.49	13.74	-29.7	-31.8	12.3	1.23e-04	0	44	102	1048576	19	4570
2026-01-05 09:25:21.80	352.23	13.47	-29.9	-32.3	11.9	3.12e-04	0	44	102	1048576	19	4774
2026-01-05 09:25:24.82	351.97	13.20	-30.1	-32.7	11.2	1.15e-03	0	44	102	1048576	20	4830
2026-01-05 09:25:27.84	351.72	12.93	-30.4	-33.6	10.5	2.90e-03	0	44	102	1048576	20	5205
2026-01-05 09:25:30.85	351.48	12.66	-30.5	-33.6	10.3	5.31e-03	0	44	102	1048576	21	5119
2026-01-05 09:25:33.87	351.23	12.40	-30.5	-33.4	10.3	6.50e-03	0	43	102	1048576	21	5029
2026-01-05 09:25:36.90	351.00	12.13	-30.5	-33.5	10.2	6.97e-03	0	44	102	1048576	21	5065
2026-01-05 09:25:39.91	350.76	11.88	-30.6	-33.8	9.9	7.80e-03	0	44	102	1048576	21	5218
2026-01-05 09:25:42.93	350.53	11.62	-30.6	-34.0	9.8	1.00e-02	0	44	102	1048576	21	5317
2026-01-05 09:25:45.95	350.31	11.36	-30.7	-34.3	9.5	1.26e-02	0	44	102	1048576	21	5432
2026-01-05 09:25:48.97	350.09	11.11	-30.6	-33.9	9.8	1.28e-02	0	44	102	1048576	21	5257
2026-01-05 09:25:51.99	349.87	10.86	-30.4	-33.4	10.1	6.70e-03	0	43	102	1048576	21	5065
2026-01-05 09:25:55.01	349.66	10.61	-30.3	-33.0	10.4	4.70e-03	0	44	102	1048576	21	4902
2026-01-05 09:25:58.03	349.45	10.36	-30.3	-32.9	10.4	4.94e-03	0	44	102	1048576	21	4871
2026-01-05 09:26:01.05	349.24	10.12	-30.3	-33.1	10.2	5.52e-03	0	44	102	1048576	21	4962
2026-01-05 09:26:04.07	349.04	9.88	-30.4	-33.2	10.1	6.04e-03	0	44	102	1048576	21	5017
2026-01-05 09:26:07.08	348.84	9.64	-30.5	-33.9	9.6	9.89e-03	0	44	102	1048576	21	5285
2026-01-05 09:26:10.11	348.65	9.40	-30.4	-33.3	10.0	7.27e-03	0	43	102	1048576	21	5046
2026-01-05 09:26:13.13	348.45	9.16	-30.4	-33.5	9.9	1.01e-02	0	43	102	1048576	21	5145
2026-01-05 09:26:16.15	348.27	8.93	-30.4	-33.6	9.8	1.19e-02	0	43	102	1048576	21	5159
2026-01-05 09:26:19.17	348.08	8.70	-30.5	-33.9	9.5	1.33e-02	0	43	102	1048576	21	5329
2026-01-05 09:26:22.20	347.90	8.46	-30.5	-33.8	9.5	1.52e-02	0	44	102	1048576	21	5282
2026-01-05 09:26:25.22	347.72	8.23	-30.7	-34.5	9.0	2.33e-02	0	43	102	1048576	21	5621
2026-01-05 09:26:28.24	347.54	8.01	-30.8	-35.0	8.6	3.46e-02	0	43	102	1048576	21	5841
2026-01-05 09:26:31.26	347.37	7.78	-30.8	-35.1	8.5	4.56e-02	0	43	102	1048576	21	5916
2026-01-05 09:26:34.29	347.20	7.56	-30.7	-34.8	8.6	4.04e-02	0	44	102	1048576	21	5764
2026-01-05 09:26:37.31	347.03	7.34	-30.8	-35.0	8.4	4.48e-02	0	44	102	1048576	21	5904
2026-01-05 09:26:40.32	346.86	7.12	-31.2	-36.3	7.4	4.08e-02	0	44	102	1048576	22	6529
2026-01-05 09:26:43.33	346.70	6.90	-33.0	-45.3	3.9	1.49e+00	0	43	104	1048576	26	14707

#Closed at: 2026-01-05 09:26:43
#Recorded file [1 MB]: D:/data/31010_260105_121528.dat