passes_logs/2026/01/05/R2M6_AANII_01/R2M6_AANII_01__20260105_120517_FENGYUN_3E_rec.log

#Pass ID: 20260105_120517_FENGYUN 3E
#Satellite: FENGYUN 3E
#Configuration: FENGYUN 3E
#almurnet v.1.7.20240730
#Start time: 2026-01-05 12:07:59

#Version: 2.2.20231116
#Station: R2M6_AANII_01
#Location: 30.233357 lon 59.946436 lat
#TLE: 1 49008U 21062A   26004.29457719  .00000106  00000+0  70678-4 0  9996
#TLE: 2 49008  98.7471   9.5487 0001503 159.9821 200.1414 14.19883545233329

#Time	Az	El	Level	Level2	SNR	BER	BlckErr	Temp	State	Recorded	gain1	gain2
2026-01-05 12:07:59.85	56.73	15.06	-32.8	-44.1	3.8	8.45e-01	0	43	0	0	25	13218
2026-01-05 12:08:01.86	56.33	15.13	-33.6	-43.0	3.8	8.47e-01	0	44	104	0	27	10636
2026-01-05 12:08:03.88	55.92	15.20	-33.6	-43.0	3.8	8.46e-01	0	44	104	0	27	10655
2026-01-05 12:08:05.90	55.51	15.27	-33.7	-43.2	3.8	8.46e-01	0	44	104	0	27	10744
2026-01-05 12:08:07.92	55.10	15.34	-33.7	-43.1	3.8	8.46e-01	0	44	104	0	27	10617
2026-01-05 12:08:09.93	54.69	15.41	-33.7	-43.2	3.8	8.47e-01	0	44	104	0	27	10765
2026-01-05 12:08:11.95	54.28	15.48	-33.7	-43.2	3.8	8.46e-01	0	44	104	0	27	10747
2026-01-05 12:08:13.97	53.86	15.54	-33.7	-43.1	3.8	8.46e-01	0	44	104	0	27	10689
2026-01-05 12:08:15.98	53.45	15.61	-33.7	-43.2	3.8	8.46e-01	0	44	104	0	27	10705
2026-01-05 12:08:17.99	53.03	15.67	-33.7	-43.4	3.8	8.47e-01	0	44	104	0	27	10890
2026-01-05 12:08:20.01	52.61	15.73	-33.7	-43.2	3.8	8.46e-01	0	44	104	0	27	10815
2026-01-05 12:08:22.02	52.19	15.79	-33.6	-43.1	3.8	8.46e-01	0	44	104	0	27	10702
2026-01-05 12:08:24.04	51.76	15.85	-33.5	-43.0	3.8	8.46e-01	0	44	104	0	27	10646
2026-01-05 12:08:26.05	51.34	15.90	-33.5	-42.8	3.8	8.46e-01	0	44	104	0	27	10494
2026-01-05 12:08:28.06	50.92	15.96	-33.4	-42.6	3.8	8.45e-01	0	44	104	0	27	10436
2026-01-05 12:08:30.08	50.49	16.01	-33.2	-42.3	3.8	8.47e-01	0	44	104	0	27	10225
2026-01-05 12:08:32.10	50.06	16.07	-32.7	-40.2	3.8	8.46e-01	0	44	104	0	26	8566
2026-01-05 12:08:34.11	49.62	16.12	-32.8	-41.3	3.8	8.47e-01	0	44	104	0	26	9626
2026-01-05 12:08:36.12	49.19	16.17	-32.8	-41.4	3.8	8.46e-01	0	44	104	0	26	9708
2026-01-05 12:08:38.14	48.76	16.22	-32.8	-41.5	3.8	8.45e-01	0	44	104	0	26	9801
2026-01-05 12:08:40.14	48.33	16.26	-32.8	-41.8	3.8	8.46e-01	0	44	104	0	26	10143
2026-01-05 12:08:42.16	47.89	16.31	-32.8	-41.8	3.8	8.46e-01	0	44	104	0	26	10094
2026-01-05 12:08:44.17	47.45	16.35	-32.8	-41.9	3.8	8.47e-01	0	44	104	0	26	10206
2026-01-05 12:08:46.19	47.01	16.39	-32.8	-41.9	3.8	8.47e-01	0	44	104	0	26	10264
2026-01-05 12:08:48.20	46.57	16.43	-32.6	-40.4	3.8	8.46e-01	0	44	104	0	26	8806
2026-01-05 12:08:50.21	46.13	16.47	-32.2	-38.0	4.3	8.35e-01	0	44	104	0	25	7018
2026-01-05 12:08:52.23	45.69	16.50	-30.2	-32.6	8.0	1.37e-01	0	44	102	1048576	21	4740
2026-01-05 12:08:54.24	45.24	16.54	-28.3	-29.5	11.5	1.68e-03	0	44	102	1048576	17	4134
2026-01-05 12:08:56.25	44.80	16.57	-28.3	-29.5	11.4	1.15e-03	0	44	102	1048576	17	4152
2026-01-05 12:08:58.27	44.35	16.60	-28.0	-29.2	11.8	3.99e-04	0	44	102	1048576	16	4166
2026-01-05 12:09:00.28	43.91	16.63	-27.7	-28.6	12.3	3.98e-04	0	44	102	1048576	16	4007
2026-01-05 12:09:02.30	43.46	16.66	-26.1	-26.4	14.2	1.10e-06	0	44	102	1048576	13	3732
2026-01-05 12:09:04.31	43.01	16.69	-25.0	-25.1	15.6	0.00e+00	0	44	102	1048576	11	3623
2026-01-05 12:09:06.32	42.56	16.71	-24.2	-24.4	16.5	0.00e+00	0	44	102	1048576	9	3654
2026-01-05 12:09:08.34	42.11	16.73	-24.0	-24.0	16.7	0.00e+00	0	44	102	1048576	9	3561
2026-01-05 12:09:10.36	41.66	16.76	-24.0	-24.0	16.7	0.00e+00	0	44	102	1048576	9	3565
2026-01-05 12:09:12.37	41.21	16.77	-24.1	-24.1	16.6	0.00e+00	0	44	102	1048576	9	3590
2026-01-05 12:09:14.39	40.76	16.79	-24.0	-23.8	16.8	0.00e+00	0	44	102	1048576	9	3537
2026-01-05 12:09:16.40	40.31	16.81	-24.1	-24.1	16.6	0.00e+00	0	44	102	1048576	9	3595
2026-01-05 12:09:18.41	39.86	16.82	-24.2	-24.3	16.5	0.00e+00	0	44	102	1048576	9	3635
2026-01-05 12:09:20.43	39.40	16.83	-24.2	-24.3	16.5	0.00e+00	0	44	102	1048576	9	3634
2026-01-05 12:09:22.45	38.95	16.84	-24.3	-24.5	16.4	0.00e+00	0	44	102	1048576	9	3681
2026-01-05 12:09:24.46	38.50	16.85	-24.3	-24.5	16.4	0.00e+00	0	44	102	1048576	9	3702
2026-01-05 12:09:26.48	38.04	16.86	-24.3	-24.6	16.3	0.00e+00	0	44	102	1048576	9	3712
2026-01-05 12:09:28.49	37.59	16.86	-24.3	-24.5	16.4	0.00e+00	0	44	102	1048576	9	3699
2026-01-05 12:09:30.50	37.14	16.86	-24.3	-24.6	16.4	0.00e+00	0	44	102	1048576	9	3715
2026-01-05 12:09:32.50	36.69	16.86	-24.0	-24.4	16.8	0.00e+00	0	44	102	1048576	8	3756
2026-01-05 12:09:34.51	36.23	16.86	-23.9	-24.2	16.8	0.00e+00	0	44	102	1048576	8	3719
2026-01-05 12:09:36.53	35.78	16.86	-24.0	-24.3	16.8	0.00e+00	0	44	102	1048576	8	3748
2026-01-05 12:09:38.55	35.32	16.86	-24.1	-24.6	16.7	0.00e+00	0	44	102	1048576	8	3808
2026-01-05 12:09:40.56	34.87	16.85	-24.2	-24.8	16.5	0.00e+00	0	44	102	1048576	8	3854
2026-01-05 12:09:42.57	34.42	16.84	-23.9	-24.2	16.8	0.00e+00	0	44	102	1048576	8	3722
2026-01-05 12:09:44.59	33.96	16.83	-24.0	-24.3	16.8	0.00e+00	0	44	102	1048576	8	3746
2026-01-05 12:09:46.60	33.51	16.82	-23.9	-24.1	16.9	0.00e+00	0	44	102	1048576	8	3696
2026-01-05 12:09:48.61	33.06	16.81	-23.9	-24.1	16.9	0.00e+00	0	44	102	1048576	8	3691
2026-01-05 12:09:50.62	32.61	16.79	-24.0	-24.3	16.7	0.00e+00	0	44	102	1048576	8	3744
2026-01-05 12:09:52.64	32.16	16.77	-24.0	-24.3	16.7	0.00e+00	0	44	102	1048576	8	3754
2026-01-05 12:09:54.65	31.71	16.75	-24.0	-24.4	16.7	0.00e+00	0	44	102	1048576	8	3773
2026-01-05 12:09:56.66	31.26	16.73	-24.1	-24.6	16.6	0.00e+00	0	44	102	1048576	8	3810
2026-01-05 12:09:58.67	30.81	16.71	-24.1	-24.7	16.5	0.00e+00	0	44	102	1048576	8	3825
2026-01-05 12:10:00.68	30.36	16.69	-24.2	-24.8	16.5	0.00e+00	0	44	102	1048576	8	3871
2026-01-05 12:10:02.70	29.91	16.66	-24.0	-24.5	16.7	0.00e+00	0	44	102	1048576	8	3782
2026-01-05 12:10:04.71	29.47	16.63	-24.3	-25.1	16.3	0.00e+00	0	44	102	1048576	8	3930
2026-01-05 12:10:06.73	29.02	16.60	-24.2	-24.9	16.5	0.00e+00	0	44	102	1048576	8	3872
2026-01-05 12:10:08.74	28.58	16.57	-24.3	-25.0	16.3	0.00e+00	0	44	102	1048576	8	3909
2026-01-05 12:10:10.76	28.13	16.54	-24.1	-24.6	16.6	0.00e+00	0	44	102	1048576	8	3819
2026-01-05 12:10:12.77	27.69	16.50	-24.4	-25.3	16.2	0.00e+00	0	44	102	1048576	8	3979
2026-01-05 12:10:14.79	27.25	16.46	-24.3	-25.0	16.4	0.00e+00	0	44	102	1048576	8	3904
2026-01-05 12:10:16.80	26.81	16.43	-24.5	-25.4	16.1	0.00e+00	0	44	102	1048576	8	4011
2026-01-05 12:10:18.81	26.37	16.39	-24.5	-25.5	16.1	0.00e+00	0	44	102	1048576	8	4022
2026-01-05 12:10:20.82	25.93	16.35	-24.3	-24.9	16.4	0.00e+00	0	44	102	1048576	8	3892
2026-01-05 12:10:22.83	25.49	16.30	-24.1	-24.7	16.5	0.00e+00	0	44	102	1048576	8	3842
2026-01-05 12:10:24.84	25.06	16.26	-24.3	-25.0	16.3	0.00e+00	0	44	102	1048576	8	3912
2026-01-05 12:10:26.86	24.62	16.21	-24.3	-25.0	16.3	0.00e+00	0	44	102	1048576	8	3912
2026-01-05 12:10:28.88	24.19	16.16	-24.3	-25.0	16.4	0.00e+00	0	44	102	1048576	8	3895
2026-01-05 12:10:30.89	23.76	16.11	-24.3	-24.9	16.4	0.00e+00	0	44	102	1048576	8	3889
2026-01-05 12:10:32.90	23.33	16.06	-24.4	-25.2	16.3	0.00e+00	0	44	102	1048576	8	3950
2026-01-05 12:10:34.92	22.90	16.01	-24.4	-25.3	16.2	0.00e+00	0	44	102	1048576	8	3980
2026-01-05 12:10:36.94	22.47	15.96	-24.6	-25.1	16.0	0.00e+00	0	44	102	1048576	9	3829
2026-01-05 12:10:38.95	22.04	15.90	-24.6	-25.2	16.0	0.00e+00	0	44	102	1048576	9	3840
2026-01-05 12:10:40.97	21.62	15.84	-24.5	-25.0	16.0	0.00e+00	0	44	102	1048576	9	3809
2026-01-05 12:10:42.98	21.20	15.78	-24.2	-24.2	16.5	0.00e+00	0	44	102	1048576	9	3628
2026-01-05 12:10:45.00	20.78	15.72	-24.2	-24.2	16.5	0.00e+00	0	44	102	1048576	9	3631
2026-01-05 12:10:47.01	20.36	15.66	-24.4	-24.8	16.2	0.00e+00	0	44	102	1048576	9	3764
2026-01-05 12:10:49.02	19.94	15.60	-24.6	-25.3	15.9	0.00e+00	0	44	102	1048576	9	3866
2026-01-05 12:10:51.04	19.52	15.54	-24.7	-25.4	15.9	0.00e+00	0	44	102	1048576	9	3891
2026-01-05 12:10:53.05	19.11	15.47	-24.7	-25.4	15.9	0.00e+00	0	44	102	1048576	9	3899
2026-01-05 12:10:55.07	18.70	15.40	-24.8	-25.5	15.8	0.00e+00	0	44	102	1048576	9	3928
2026-01-05 12:10:57.08	18.29	15.34	-24.7	-25.3	15.9	0.00e+00	0	44	102	1048576	9	3885
2026-01-05 12:10:59.09	17.88	15.27	-24.5	-24.9	16.1	0.00e+00	0	44	102	1048576	9	3786
2026-01-05 12:11:01.11	17.48	15.20	-24.4	-24.8	16.2	0.00e+00	0	44	102	1048576	9	3760
2026-01-05 12:11:03.12	17.07	15.12	-24.6	-25.1	16.0	0.00e+00	0	44	102	1048576	9	3840
2026-01-05 12:11:05.13	16.67	15.05	-24.6	-25.1	16.0	0.00e+00	0	44	102	1048576	9	3836
2026-01-05 12:11:07.15	16.27	14.98	-24.6	-25.2	15.9	0.00e+00	0	44	102	1048576	9	3860
2026-01-05 12:11:09.16	15.87	14.90	-24.7	-25.3	15.9	1.10e-06	0	44	102	1048576	9	3884
2026-01-05 12:11:11.18	15.48	14.83	-24.6	-25.2	15.9	0.00e+00	0	44	102	1048576	9	3865
2026-01-05 12:11:13.19	15.08	14.75	-24.6	-25.3	15.9	0.00e+00	0	44	102	1048576	9	3875
2026-01-05 12:11:15.21	14.69	14.67	-24.6	-25.1	15.9	0.00e+00	0	44	102	1048576	9	3842
2026-01-05 12:11:17.21	14.30	14.59	-24.7	-25.4	15.8	0.00e+00	0	44	102	1048576	9	3899
2026-01-05 12:11:19.22	13.92	14.51	-24.7	-25.3	15.8	0.00e+00	0	44	102	1048576	9	3888
2026-01-05 12:11:21.23	13.53	14.43	-24.7	-25.5	15.8	0.00e+00	0	44	102	1048576	9	3915
2026-01-05 12:11:23.25	13.15	14.34	-24.7	-25.5	15.8	0.00e+00	0	44	102	1048576	9	3919
2026-01-05 12:11:25.26	12.77	14.26	-24.8	-25.6	15.6	0.00e+00	0	44	102	1048576	9	3963
2026-01-05 12:11:27.28	12.39	14.18	-24.7	-25.4	15.7	0.00e+00	0	44	102	1048576	9	3908
2026-01-05 12:11:29.29	12.01	14.09	-24.7	-25.3	15.8	0.00e+00	0	44	102	1048576	9	3887
2026-01-05 12:11:31.31	11.64	14.00	-24.7	-25.4	15.8	0.00e+00	0	44	102	1048576	9	3893
2026-01-05 12:11:33.32	11.27	13.92	-24.7	-25.4	15.8	0.00e+00	0	44	102	1048576	9	3907
2026-01-05 12:11:35.34	10.90	13.83	-24.7	-25.4	15.8	0.00e+00	0	44	102	1048576	9	3893
2026-01-05 12:11:37.35	10.53	13.74	-24.7	-25.4	15.8	0.00e+00	0	44	102	1048576	9	3898
2026-01-05 12:11:39.36	10.16	13.65	-24.6	-25.2	15.8	0.00e+00	0	44	102	1048576	9	3847
2026-01-05 12:11:41.38	9.80	13.56	-24.6	-25.1	15.9	0.00e+00	0	44	102	1048576	9	3834
2026-01-05 12:11:43.39	9.44	13.46	-24.7	-25.4	15.7	0.00e+00	0	44	102	1048576	9	3904
2026-01-05 12:11:45.41	9.08	13.37	-24.7	-25.5	15.7	0.00e+00	0	44	102	1048576	9	3927
2026-01-05 12:11:47.41	8.73	13.28	-24.9	-25.9	15.5	0.00e+00	0	44	102	1048576	9	4020
2026-01-05 12:11:49.43	8.37	13.18	-25.0	-26.0	15.4	0.00e+00	0	44	102	1048576	9	4054
2026-01-05 12:11:51.44	8.02	13.09	-25.6	-26.3	15.2	0.00e+00	0	44	102	1048576	10	3924
2026-01-05 12:11:53.46	7.67	12.99	-25.4	-26.3	14.9	0.00e+00	0	44	102	1048576	10	4030
2026-01-05 12:11:55.47	7.32	12.90	-25.4	-26.3	14.9	0.00e+00	0	44	102	1048576	10	4037
2026-01-05 12:11:57.48	6.98	12.80	-25.4	-26.4	14.9	1.10e-06	0	44	102	1048576	10	4053
2026-01-05 12:11:59.50	6.64	12.70	-25.4	-26.3	14.9	1.10e-06	0	44	102	1048576	10	4034
2026-01-05 12:12:01.51	6.30	12.61	-25.1	-25.8	15.2	0.00e+00	0	44	102	1048576	10	3893
2026-01-05 12:12:03.52	5.96	12.51	-25.1	-25.7	15.2	0.00e+00	0	44	102	1048576	10	3873
2026-01-05 12:12:05.54	5.62	12.41	-25.1	-25.7	15.3	0.00e+00	0	44	102	1048576	10	3864
2026-01-05 12:12:07.56	5.29	12.31	-25.2	-25.9	15.1	0.00e+00	0	44	102	1048576	10	3926
2026-01-05 12:12:09.58	4.96	12.21	-25.3	-26.2	15.0	0.00e+00	0	44	102	1048576	10	3990
2026-01-05 12:12:11.58	4.63	12.11	-25.3	-26.2	15.0	1.10e-06	0	44	102	1048576	10	3998
2026-01-05 12:12:13.60	4.30	12.01	-25.4	-26.4	14.8	0.00e+00	0	44	102	1048576	10	4040
2026-01-05 12:12:15.62	3.98	11.90	-25.2	-26.0	15.1	1.10e-06	0	44	102	1048576	10	3951
2026-01-05 12:12:17.63	3.66	11.80	-25.2	-26.1	15.0	0.00e+00	0	44	102	1048576	10	3964
2026-01-05 12:12:19.65	3.34	11.70	-25.5	-26.7	14.6	0.00e+00	0	44	102	1048576	10	4136
2026-01-05 12:12:21.66	3.02	11.60	-25.6	-26.4	14.5	1.10e-06	0	44	102	1048576	11	3950
2026-01-05 12:12:23.68	2.71	11.49	-25.8	-26.8	14.3	1.10e-06	0	44	102	1048576	11	4042
2026-01-05 12:12:25.69	2.39	11.39	-25.6	-26.5	14.5	0.00e+00	0	44	102	1048576	11	3965
2026-01-05 12:12:27.70	2.08	11.28	-25.9	-27.0	14.2	3.40e-06	0	44	102	1048576	11	4092
2026-01-05 12:12:29.71	1.78	11.18	-25.5	-26.2	14.6	0.00e+00	0	44	102	1048576	11	3902
2026-01-05 12:12:31.72	1.47	11.07	-25.4	-25.9	14.8	0.00e+00	0	44	102	1048576	11	3817
2026-01-05 12:12:33.73	1.17	10.97	-25.3	-25.8	14.8	0.00e+00	0	44	102	1048576	11	3812
2026-01-05 12:12:35.75	0.87	10.86	-25.5	-26.2	14.6	0.00e+00	0	44	102	1048576	11	3889
2026-01-05 12:12:37.76	0.57	10.76	-25.6	-26.4	14.5	1.10e-06	0	44	102	1048576	11	3949
2026-01-05 12:12:39.78	0.27	10.65	-25.7	-26.6	14.4	3.40e-06	0	44	102	1048576	11	3994
2026-01-05 12:12:41.79	359.97	10.54	-25.7	-26.5	14.3	0.00e+00	0	44	102	1048576	11	3988
2026-01-05 12:12:43.80	359.68	10.44	-25.6	-26.4	14.4	1.10e-06	0	44	102	1048576	11	3960
2026-01-05 12:12:45.82	359.39	10.33	-25.4	-25.9	14.7	0.00e+00	0	44	102	1048576	11	3835
2026-01-05 12:12:47.83	359.10	10.22	-25.3	-25.7	14.8	0.00e+00	0	44	102	1048576	11	3786
2026-01-05 12:12:49.84	358.82	10.12	-25.3	-25.7	14.8	1.10e-06	0	44	102	1048576	11	3775
2026-01-05 12:12:51.86	358.53	10.01	-25.6	-26.3	14.5	2.20e-06	0	44	102	1048576	11	3926
2026-01-05 12:12:53.87	358.25	9.90	-25.7	-26.6	14.3	1.10e-06	0	44	102	1048576	11	3990
2026-01-05 12:12:55.88	357.97	9.79	-25.9	-27.0	14.1	2.20e-06	0	44	102	1048576	11	4094
2026-01-05 12:12:57.90	357.70	9.68	-26.0	-27.4	13.8	1.02e-05	0	44	102	1048576	11	4210
2026-01-05 12:12:59.91	357.42	9.57	-26.0	-26.8	13.8	5.70e-06	0	44	102	1048576	12	3954
2026-01-05 12:13:01.93	357.15	9.47	-26.1	-27.0	13.6	6.80e-06	0	44	102	1048576	12	4013
2026-01-05 12:13:03.93	356.88	9.36	-25.7	-26.2	14.1	6.80e-06	0	44	102	1048576	12	3816
2026-01-05 12:13:05.95	356.61	9.25	-25.7	-26.3	14.1	2.20e-06	0	44	102	1048576	12	3821
2026-01-05 12:13:07.97	356.34	9.14	-25.7	-26.3	14.0	2.20e-06	0	44	102	1048576	12	3833
2026-01-05 12:13:09.97	356.08	9.03	-25.6	-26.0	14.2	2.20e-06	0	44	102	1048576	12	3751
2026-01-05 12:13:11.99	355.81	8.92	-25.6	-26.0	14.2	0.00e+00	0	44	102	1048576	12	3761
2026-01-05 12:13:14.00	355.55	8.81	-25.7	-26.2	14.1	1.10e-06	0	44	102	1048576	12	3813
2026-01-05 12:13:16.02	355.29	8.70	-25.9	-26.6	13.8	5.70e-06	0	44	102	1048576	12	3902
2026-01-05 12:13:18.03	355.04	8.59	-25.9	-26.6	13.8	2.20e-06	0	44	102	1048576	12	3918
2026-01-05 12:13:20.04	354.78	8.48	-25.9	-26.6	13.8	2.20e-06	0	44	102	1048576	12	3909
2026-01-05 12:13:22.06	354.53	8.37	-25.9	-26.7	13.7	6.80e-06	0	44	102	1048576	12	3931
2026-01-05 12:13:24.08	354.28	8.26	-26.1	-27.0	13.5	1.14e-05	0	44	102	1048576	12	4010
2026-01-05 12:13:26.09	354.03	8.15	-26.1	-27.2	13.4	1.60e-05	0	44	102	1048576	12	4051
2026-01-05 12:13:28.11	353.78	8.04	-26.3	-27.5	13.2	2.86e-05	0	44	102	1048576	12	4142
2026-01-05 12:13:30.12	353.53	7.93	-26.0	-26.8	13.6	1.25e-05	0	44	102	1048576	12	3968
2026-01-05 12:13:32.13	353.29	7.82	-25.9	-26.8	13.7	8.00e-06	0	44	102	1048576	12	3954
2026-01-05 12:13:34.14	353.05	7.71	-26.0	-26.9	13.6	9.10e-06	0	44	102	1048576	12	3983
2026-01-05 12:13:36.16	352.81	7.60	-26.1	-27.2	13.4	1.37e-05	0	44	102	1048576	12	4067
2026-01-05 12:13:38.17	352.57	7.49	-26.1	-27.0	13.4	1.37e-05	0	44	102	1048576	12	4023
2026-01-05 12:13:40.19	352.34	7.38	-26.1	-27.1	13.4	1.71e-05	0	44	102	1048576	12	4035
2026-01-05 12:13:42.20	352.10	7.27	-26.1	-27.2	13.3	2.86e-05	0	44	102	1048576	12	4071
2026-01-05 12:13:44.22	351.87	7.16	-26.3	-27.5	13.1	3.54e-05	0	44	102	1048576	12	4150
2026-01-05 12:13:46.23	351.64	7.05	-27.1	-28.9	12.1	1.37e-05	0	44	102	1048576	13	4448
2026-01-05 12:13:48.24	351.41	6.94	-32.7	-42.3	3.8	8.48e-01	0	44	104	1048576	25	10867

#Closed at: 2026-01-05 12:13:48
#Recorded file [1 MB]: D:/data/31010_260105_150850.dat