passes_logs/2026/01/05/R2M6_AANII_01/R2M6_AANII_01__20260105_093549_NOAA_20_JPSS-1_rec.log

#Pass ID: 20260105_093549_NOAA 20 (JPSS-1)
#Satellite: NOAA 20 (JPSS-1)
#Configuration: NOAA 20
#almurnet v.1.7.20240730
#Start time: 2026-01-05 09:35:48

#Version: 2.2.20231116
#Station: R2M6_AANII_01
#Location: 30.233357 lon 59.946436 lat
#TLE: 1 43013U 17073A   26004.47528369  .00000132  00000+0  83671-4 0  9999
#TLE: 2 43013  98.7626 305.5264 0001854  54.5883 305.5466 14.19533142421242

#Time	Az	El	Level	Level2	SNR	BER	BlckErr	Temp	State	Recorded	gain1	gain2
2026-01-05 09:35:48.51	137.90	6.95	-31.0	-37.7	4.7	1.34e+00	0	41	0	0	23	7750
2026-01-05 09:35:51.53	137.80	7.18	-31.0	-37.4	6.9	1.76e-01	0	41	102	1048576	23	7518
2026-01-05 09:35:54.56	137.69	7.41	-31.0	-37.5	6.8	1.86e-01	0	41	102	1048576	23	7629
2026-01-05 09:35:57.58	137.59	7.65	-30.8	-36.8	7.8	9.86e-02	0	41	102	1048576	22	7180
2026-01-05 09:36:00.59	137.48	7.88	-30.6	-36.0	8.4	6.80e-02	0	41	102	1048576	22	6692
2026-01-05 09:36:03.62	137.37	8.12	-29.9	-33.7	10.6	5.26e-03	0	41	102	1048576	21	5572
2026-01-05 09:36:06.64	137.25	8.36	-29.7	-33.5	11.1	1.88e-03	0	41	102	1048576	20	5581
2026-01-05 09:36:09.65	137.14	8.60	-29.8	-33.7	11.0	2.17e-03	0	41	102	1048576	20	5656
2026-01-05 09:36:12.66	137.02	8.84	-29.7	-33.4	11.4	1.09e-03	0	42	102	1048576	20	5503
2026-01-05 09:36:15.68	136.90	9.09	-29.6	-33.1	11.6	7.77e-04	0	42	102	1048576	20	5351
2026-01-05 09:36:18.70	136.78	9.34	-29.4	-32.4	12.1	2.61e-04	0	41	102	1048576	20	5085
2026-01-05 09:36:21.72	136.66	9.59	-29.4	-32.4	12.1	1.96e-04	0	42	102	1048576	20	5094
2026-01-05 09:36:24.74	136.53	9.84	-29.5	-32.8	11.9	4.26e-04	0	42	102	1048576	20	5240
2026-01-05 09:36:27.76	136.40	10.10	-29.8	-33.4	11.5	7.81e-04	0	42	102	1048576	20	5506
2026-01-05 09:36:30.77	136.27	10.36	-29.8	-33.4	11.5	7.99e-04	0	42	102	1048576	20	5496
2026-01-05 09:36:33.79	136.14	10.62	-30.0	-34.0	11.1	1.11e-03	0	42	102	1048576	20	5753
2026-01-05 09:36:36.81	136.00	10.88	-29.6	-32.8	12.0	3.56e-04	0	42	102	1048576	20	5223
2026-01-05 09:36:39.82	135.86	11.15	-29.7	-33.2	11.8	5.13e-04	0	42	102	1048576	20	5362
2026-01-05 09:36:42.85	135.72	11.42	-30.0	-34.2	11.1	1.08e-03	0	42	102	1048576	20	5817
2026-01-05 09:36:45.87	135.58	11.69	-29.6	-32.8	12.1	2.83e-04	0	42	102	1048576	20	5202
2026-01-05 09:36:48.88	135.43	11.96	-29.3	-32.4	12.8	5.79e-05	0	42	102	1048576	19	5137
2026-01-05 09:36:51.91	135.28	12.24	-29.3	-32.4	12.8	6.17e-05	0	42	102	1048576	19	5149
2026-01-05 09:36:54.93	135.13	12.52	-29.5	-33.0	12.5	9.61e-05	0	42	102	1048576	19	5358
2026-01-05 09:36:57.95	134.97	12.81	-29.5	-32.9	12.5	9.38e-05	0	42	102	1048576	19	5327
2026-01-05 09:37:00.96	134.81	13.09	-29.3	-32.4	12.9	6.33e-05	0	42	102	1048576	19	5138
2026-01-05 09:37:03.98	134.65	13.38	-29.2	-32.0	13.2	4.95e-05	0	42	102	1048576	19	4968
2026-01-05 09:37:07.00	134.48	13.68	-29.4	-32.6	12.8	4.11e-05	0	43	102	1048576	19	5201
2026-01-05 09:37:10.02	134.31	13.97	-29.4	-32.5	12.8	5.79e-05	0	42	102	1048576	19	5175
2026-01-05 09:37:13.05	134.14	14.27	-29.4	-32.5	12.8	5.41e-05	0	43	102	1048576	19	5176
2026-01-05 09:37:16.08	133.96	14.58	-29.1	-31.8	13.3	1.37e-05	0	43	102	1048576	19	4917
2026-01-05 09:37:19.09	133.78	14.88	-29.1	-31.9	13.3	1.90e-05	0	43	102	1048576	19	4919
2026-01-05 09:37:22.11	133.60	15.19	-29.1	-31.8	13.4	1.37e-05	0	42	102	1048576	19	4913
2026-01-05 09:37:25.13	133.41	15.51	-29.1	-31.6	13.6	6.80e-06	0	43	102	1048576	19	4826
2026-01-05 09:37:28.15	133.22	15.83	-29.2	-31.7	13.6	1.14e-05	0	43	102	1048576	19	4850
2026-01-05 09:37:31.17	133.02	16.15	-29.2	-31.8	13.6	8.30e-06	0	43	102	1048576	19	4877
2026-01-05 09:37:34.19	132.82	16.48	-29.1	-31.7	13.6	9.90e-06	0	43	102	1048576	19	4840
2026-01-05 09:37:37.21	132.61	16.81	-29.1	-31.5	13.7	4.50e-06	0	43	102	1048576	19	4772
2026-01-05 09:37:40.23	132.40	17.14	-29.1	-31.6	13.7	6.10e-06	0	43	102	1048576	19	4789
2026-01-05 09:37:43.25	132.19	17.48	-29.2	-31.7	13.7	4.50e-06	0	43	102	1048576	19	4815
2026-01-05 09:37:46.27	131.96	17.82	-29.0	-31.3	14.0	6.10e-06	0	43	102	1048576	19	4687
2026-01-05 09:37:49.29	131.74	18.17	-29.0	-31.2	14.1	7.00e-07	0	43	102	1048576	19	4628
2026-01-05 09:37:52.31	131.51	18.52	-29.2	-31.7	13.9	6.80e-06	0	43	102	1048576	19	4799
2026-01-05 09:37:55.33	131.27	18.87	-29.2	-31.8	13.8	3.80e-06	0	43	102	1048576	19	4831
2026-01-05 09:37:58.34	131.03	19.23	-29.1	-31.6	13.9	1.50e-06	0	43	102	1048576	19	4782
2026-01-05 09:38:01.33	130.78	19.60	-29.3	-32.0	13.7	3.80e-06	0	43	102	1048576	19	4911
2026-01-05 09:38:04.35	130.52	19.97	-29.4	-32.3	13.6	7.60e-06	0	43	102	1048576	19	5015
2026-01-05 09:38:07.38	130.26	20.34	-29.5	-32.4	13.5	6.10e-06	0	43	102	1048576	19	5041
2026-01-05 09:38:10.41	129.99	20.72	-29.6	-32.7	13.3	1.06e-05	0	43	102	1048576	19	5167
2026-01-05 09:38:13.43	129.71	21.11	-29.8	-33.2	13.0	2.28e-05	0	43	102	1048576	19	5340
2026-01-05 09:38:16.45	129.43	21.50	-29.7	-33.1	13.2	3.43e-05	0	43	102	1048576	19	5280
2026-01-05 09:38:19.47	129.14	21.90	-29.9	-33.5	12.9	3.28e-05	0	43	102	1048576	19	5442
2026-01-05 09:38:22.49	128.84	22.30	-30.0	-33.4	12.6	7.70e-05	0	43	102	1048576	20	5314
2026-01-05 09:38:25.50	128.54	22.70	-30.0	-33.5	12.5	1.48e-04	0	43	102	1048576	20	5342
2026-01-05 09:38:28.52	128.22	23.11	-29.9	-33.0	12.9	3.35e-05	0	43	102	1048576	20	5160
2026-01-05 09:38:31.54	127.90	23.53	-30.1	-33.6	12.5	1.05e-04	0	43	102	1048576	20	5387
2026-01-05 09:38:34.56	127.57	23.96	-30.2	-34.0	12.3	2.07e-04	0	43	102	1048576	20	5534
2026-01-05 09:38:37.58	127.23	24.39	-30.1	-33.6	12.6	1.14e-04	0	43	102	1048576	20	5366
2026-01-05 09:38:40.60	126.87	24.82	-30.2	-33.9	12.4	1.81e-04	0	43	102	1048576	20	5511
2026-01-05 09:38:43.63	126.51	25.27	-30.3	-34.3	12.1	2.33e-04	0	43	102	1048576	20	5670
2026-01-05 09:38:46.65	126.14	25.71	-30.4	-34.1	11.9	3.17e-04	0	43	102	1048576	21	5481
2026-01-05 09:38:49.67	125.76	26.17	-30.6	-34.5	11.6	5.72e-04	0	43	102	1048576	21	5654
2026-01-05 09:38:52.70	125.36	26.63	-30.5	-34.2	11.8	4.42e-04	0	43	102	1048576	21	5530
2026-01-05 09:38:55.72	124.96	27.10	-30.5	-34.2	11.8	5.24e-04	0	43	102	1048576	21	5517
2026-01-05 09:38:58.73	124.54	27.57	-30.5	-34.1	11.9	3.57e-04	0	43	102	1048576	21	5449
2026-01-05 09:39:01.75	124.11	28.05	-30.6	-34.5	11.6	5.10e-04	0	43	102	1048576	21	5638
2026-01-05 09:39:04.76	123.66	28.53	-30.3	-33.6	12.3	2.03e-04	0	43	102	1048576	21	5261
2026-01-05 09:39:07.78	123.20	29.03	-30.4	-33.8	12.2	2.01e-04	0	43	102	1048576	21	5356
2026-01-05 09:39:10.80	122.73	29.53	-30.3	-33.4	12.5	1.15e-04	0	43	102	1048576	21	5184
2026-01-05 09:39:13.82	122.24	30.03	-30.3	-33.6	12.3	1.67e-04	0	43	102	1048576	21	5246
2026-01-05 09:39:16.84	121.74	30.54	-30.4	-33.9	12.2	2.38e-04	0	43	102	1048576	21	5368
2026-01-05 09:39:19.86	121.22	31.06	-30.5	-34.3	11.9	5.11e-04	0	43	102	1048576	21	5551
2026-01-05 09:39:22.88	120.68	31.59	-30.4	-33.8	12.2	1.69e-04	0	43	102	1048576	21	5330
2026-01-05 09:39:25.90	120.12	32.12	-30.7	-34.6	11.7	8.50e-04	0	43	102	1048576	21	5662
2026-01-05 09:39:28.93	119.54	32.66	-30.6	-34.4	11.9	4.92e-04	0	43	102	1048576	21	5564
2026-01-05 09:39:31.95	118.95	33.21	-30.9	-35.5	11.1	1.11e-03	0	43	102	1048576	21	6058
2026-01-05 09:39:34.96	118.33	33.76	-31.0	-35.1	11.0	1.59e-03	0	43	102	1048576	22	5797
2026-01-05 09:39:37.98	117.70	34.31	-30.7	-34.2	11.8	5.05e-04	0	43	102	1048576	22	5371
2026-01-05 09:39:40.99	117.04	34.88	-30.5	-33.6	12.2	2.75e-04	0	43	102	1048576	22	5131
2026-01-05 09:39:44.02	116.35	35.45	-30.5	-33.4	12.3	2.08e-04	0	43	102	1048576	22	5068
2026-01-05 09:39:47.03	115.65	36.02	-30.5	-33.6	12.2	2.10e-04	0	43	102	1048576	22	5148
2026-01-05 09:39:50.05	114.91	36.60	-30.6	-33.7	12.1	2.89e-04	0	43	102	1048576	22	5181
2026-01-05 09:39:53.07	114.15	37.18	-30.5	-33.5	12.3	1.58e-04	0	43	102	1048576	22	5083
2026-01-05 09:39:56.10	113.36	37.77	-30.5	-33.6	12.2	1.59e-04	0	43	102	1048576	22	5105
2026-01-05 09:39:59.11	112.55	38.36	-30.7	-33.9	12.1	2.39e-04	0	43	102	1048576	22	5221
2026-01-05 09:40:02.13	111.70	38.96	-30.8	-34.3	11.8	6.56e-04	0	43	102	1048576	22	5397
2026-01-05 09:40:05.15	110.82	39.56	-30.8	-34.4	11.7	5.39e-04	0	43	102	1048576	22	5453
2026-01-05 09:40:08.17	109.90	40.16	-30.8	-34.5	11.7	6.34e-04	0	43	102	1048576	22	5460
2026-01-05 09:40:11.20	108.95	40.76	-30.8	-34.3	11.8	4.36e-04	0	43	102	1048576	22	5396
2026-01-05 09:40:14.23	107.96	41.37	-30.8	-34.3	11.9	3.60e-04	0	43	102	1048576	22	5390
2026-01-05 09:40:17.24	106.94	41.97	-31.4	-36.2	10.4	3.28e-03	0	43	102	1048576	22	6259
2026-01-05 09:40:20.26	105.88	42.57	-31.6	-36.3	10.0	6.79e-03	0	43	102	1048576	23	6226
2026-01-05 09:40:23.27	104.78	43.17	-31.1	-34.8	11.2	1.67e-03	0	43	102	1048576	23	5495
2026-01-05 09:40:26.30	103.63	43.77	-31.0	-34.8	11.5	6.61e-04	0	43	102	1048576	22	5595
2026-01-05 09:40:29.32	102.44	44.36	-31.1	-35.2	11.3	9.74e-04	0	43	102	1048576	22	5759
2026-01-05 09:40:32.34	101.21	44.95	-31.3	-35.8	10.9	1.69e-03	0	43	102	1048576	22	6032
2026-01-05 09:40:35.37	99.93	45.53	-31.1	-35.3	11.1	2.01e-03	0	43	102	1048576	22	5824
2026-01-05 09:40:38.38	98.60	46.10	-30.8	-34.3	11.9	6.19e-04	0	43	102	1048576	22	5374
2026-01-05 09:40:41.40	97.23	46.67	-30.7	-33.8	12.2	1.99e-04	0	43	102	1048576	22	5179
2026-01-05 09:40:44.42	95.80	47.22	-30.9	-34.6	11.7	5.57e-04	0	43	102	1048576	22	5508
2026-01-05 09:40:47.45	94.32	47.76	-30.6	-33.7	12.3	3.11e-04	0	43	102	1048576	22	5148
2026-01-05 09:40:50.46	92.79	48.28	-30.4	-33.5	12.9	4.19e-05	0	43	102	1048576	21	5175
2026-01-05 09:40:53.48	91.21	48.79	-30.5	-33.8	12.6	1.04e-04	0	43	102	1048576	21	5284
2026-01-05 09:40:56.50	89.58	49.27	-31.2	-35.4	11.2	9.43e-04	0	43	102	1048576	22	5857
2026-01-05 09:40:59.52	87.89	49.74	-31.3	-35.8	10.9	2.31e-03	0	43	102	1048576	22	6063
2026-01-05 09:41:02.54	86.16	50.18	-31.0	-34.7	11.7	1.11e-03	0	43	102	1048576	22	5543
2026-01-05 09:41:05.56	84.37	50.60	-30.8	-34.3	12.0	2.09e-04	0	43	102	1048576	22	5373
2026-01-05 09:41:08.58	82.54	51.00	-31.2	-35.6	11.1	7.26e-04	0	43	102	1048576	22	5922
2026-01-05 09:41:11.60	80.66	51.36	-30.8	-34.3	11.9	5.77e-04	0	43	102	1048576	22	5367
2026-01-05 09:41:14.62	78.73	51.69	-30.5	-33.4	12.5	1.50e-04	0	43	102	1048576	22	5022
2026-01-05 09:41:17.64	76.76	51.99	-29.4	-31.4	14.5	4.50e-06	0	43	102	1048576	20	4532
2026-01-05 09:41:20.67	74.75	52.26	-28.5	-30.0	16.1	0.00e+00	0	43	102	1048576	18	4303
2026-01-05 09:41:23.69	72.71	52.49	-28.0	-29.4	16.7	0.00e+00	0	43	102	1048576	17	4215
2026-01-05 09:41:26.71	70.64	52.69	-27.9	-29.2	16.8	0.00e+00	0	43	102	1048576	17	4175
2026-01-05 09:41:29.73	68.55	52.84	-27.5	-28.8	17.3	0.00e+00	0	43	102	1048576	16	4158
2026-01-05 09:41:32.75	66.43	52.96	-27.5	-28.7	17.3	0.00e+00	0	43	102	1048576	16	4151
2026-01-05 09:41:35.76	64.31	53.03	-27.5	-28.8	17.2	0.00e+00	0	43	102	1048576	16	4173
2026-01-05 09:41:38.77	62.18	53.07	-27.8	-29.5	16.9	0.00e+00	0	43	102	1048576	16	4382
2026-01-05 09:41:41.79	60.05	53.06	-27.9	-29.7	16.8	0.00e+00	0	43	102	1048576	16	4434
2026-01-05 09:41:44.81	57.91	53.02	-27.8	-29.4	16.9	0.00e+00	0	43	102	1048576	16	4330
2026-01-05 09:41:47.83	55.79	52.93	-28.1	-30.1	16.5	0.00e+00	0	43	102	1048576	16	4546
2026-01-05 09:41:50.85	53.68	52.80	-27.9	-29.6	16.8	0.00e+00	0	43	102	1048576	16	4384
2026-01-05 09:41:53.86	51.60	52.64	-27.6	-28.9	17.2	0.00e+00	0	43	102	1048576	16	4202
2026-01-05 09:41:56.89	49.54	52.43	-27.7	-29.2	17.0	0.00e+00	0	43	102	1048576	16	4283
2026-01-05 09:41:59.91	47.51	52.19	-27.5	-28.6	17.4	0.00e+00	0	43	102	1048576	16	4124
2026-01-05 09:42:02.92	45.52	51.92	-28.4	-30.5	16.0	0.00e+00	0	43	102	1048576	17	4538
2026-01-05 09:42:05.94	43.57	51.61	-29.2	-31.8	14.9	7.00e-07	0	43	102	1048576	18	4872
2026-01-05 09:42:08.96	41.65	51.27	-29.7	-32.5	14.3	0.00e+00	0	43	102	1048576	19	4985
2026-01-05 09:42:11.98	39.79	50.90	-30.1	-33.4	13.3	9.90e-06	0	43	102	1048576	20	5207
2026-01-05 09:42:15.01	37.96	50.50	-30.5	-33.8	12.6	1.18e-04	0	43	102	1048576	21	5279
2026-01-05 09:42:18.02	36.20	50.07	-30.5	-34.0	12.6	6.48e-05	0	43	102	1048576	21	5341
2026-01-05 09:42:21.04	34.48	49.62	-30.8	-34.6	12.1	3.24e-04	0	43	102	1048576	21	5614
2026-01-05 09:42:24.04	32.82	49.15	-30.5	-33.8	12.6	1.07e-04	0	43	102	1048576	21	5274
2026-01-05 09:42:27.05	31.21	48.66	-30.7	-34.5	12.2	2.29e-04	0	43	102	1048576	21	5544
2026-01-05 09:42:30.07	29.65	48.15	-30.7	-34.5	12.1	2.25e-04	0	43	102	1048576	21	5567
2026-01-05 09:42:33.09	28.14	47.63	-31.2	-35.6	11.1	1.24e-03	0	43	102	1048576	22	5947
2026-01-05 09:42:36.11	26.67	47.09	-31.8	-37.0	9.6	1.06e-02	0	43	102	1048576	23	6584
2026-01-05 09:42:39.14	25.26	46.53	-31.6	-36.5	10.0	8.50e-03	0	43	102	1048576	23	6280
2026-01-05 09:42:42.15	23.90	45.97	-31.7	-36.9	9.7	9.79e-03	0	43	102	1048576	23	6495
2026-01-05 09:42:45.18	22.59	45.40	-31.8	-37.0	9.5	2.30e-02	0	43	102	1048576	23	6583
2026-01-05 09:42:48.18	21.33	44.82	-31.2	-35.2	10.9	1.94e-03	0	43	102	1048576	23	5673
2026-01-05 09:42:51.20	20.11	44.23	-31.4	-35.6	10.5	3.18e-03	0	43	102	1048576	23	5883
2026-01-05 09:42:54.23	18.94	43.64	-30.4	-32.9	12.8	1.29e-04	0	43	102	1048576	22	4842
2026-01-05 09:42:57.25	17.80	43.04	-30.7	-34.0	12.1	1.64e-04	0	43	102	1048576	22	5247
2026-01-05 09:43:00.27	16.72	42.44	-31.1	-35.1	11.3	1.48e-03	0	43	102	1048576	22	5743
2026-01-05 09:43:03.29	15.67	41.84	-31.0	-35.0	11.3	9.06e-04	0	43	102	1048576	22	5690
2026-01-05 09:43:06.32	14.65	41.24	-31.3	-36.0	10.6	2.93e-03	0	43	102	1048576	22	6157
2026-01-05 09:43:09.34	13.68	40.64	-31.5	-36.5	10.3	5.02e-03	0	43	102	1048576	22	6404
2026-01-05 09:43:12.36	12.74	40.04	-31.7	-36.9	9.5	1.46e-02	0	44	102	1048576	23	6516
2026-01-05 09:43:15.37	11.84	39.44	-31.8	-37.3	9.2	1.67e-02	0	43	102	1048576	23	6775
2026-01-05 09:43:18.39	10.97	38.85	-31.9	-37.5	9.1	2.39e-02	0	43	102	1048576	23	6906
2026-01-05 09:43:21.41	10.14	38.26	-31.8	-37.4	9.2	2.17e-02	0	43	102	1048576	23	6830
2026-01-05 09:43:24.44	9.33	37.67	-31.3	-35.4	10.5	5.44e-03	0	43	102	1048576	23	5802
2026-01-05 09:43:27.45	8.55	37.08	-30.8	-33.9	11.6	8.47e-04	0	43	102	1048576	23	5145
2026-01-05 09:43:30.48	7.80	36.50	-31.1	-35.2	11.1	9.65e-04	0	43	102	1048576	22	5784
2026-01-05 09:43:33.49	7.07	35.93	-30.7	-34.2	11.8	6.18e-04	0	43	102	1048576	22	5366
2026-01-05 09:43:36.51	6.37	35.36	-30.7	-34.2	11.8	3.89e-04	0	43	102	1048576	22	5347
2026-01-05 09:43:39.53	5.70	34.79	-31.0	-35.0	11.2	1.06e-03	0	43	102	1048576	22	5701
2026-01-05 09:43:42.55	5.05	34.23	-31.2	-35.7	10.6	3.73e-03	0	43	102	1048576	22	6060
2026-01-05 09:43:45.56	4.42	33.68	-31.1	-35.3	10.9	2.42e-03	0	44	102	1048576	22	5865
2026-01-05 09:43:48.58	3.81	33.13	-30.8	-34.3	11.7	6.83e-04	0	43	102	1048576	22	5423
2026-01-05 09:43:51.60	3.22	32.59	-30.7	-34.1	11.8	4.29e-04	0	43	102	1048576	22	5346
2026-01-05 09:43:54.62	2.65	32.06	-30.9	-34.9	11.3	1.20e-03	0	43	102	1048576	22	5687
2026-01-05 09:43:57.63	2.11	31.53	-31.1	-35.4	10.9	2.73e-03	0	43	102	1048576	22	5913
2026-01-05 09:44:00.65	1.57	31.01	-31.0	-35.2	11.1	1.63e-03	0	44	102	1048576	22	5805
2026-01-05 09:44:03.67	1.06	30.49	-31.2	-35.8	10.5	4.72e-03	0	43	102	1048576	22	6144
2026-01-05 09:44:06.70	0.56	29.98	-31.0	-35.3	10.9	2.54e-03	0	43	102	1048576	22	5905
2026-01-05 09:44:09.72	0.08	29.48	-30.9	-34.9	11.2	1.32e-03	0	43	102	1048576	22	5678
2026-01-05 09:44:12.74	359.61	28.98	-30.8	-34.6	11.4	9.47e-04	0	43	102	1048576	22	5547
2026-01-05 09:44:15.77	359.15	28.49	-30.8	-34.4	11.6	7.63e-04	0	44	102	1048576	22	5459
2026-01-05 09:44:18.79	358.71	28.01	-30.6	-33.9	11.8	5.92e-04	0	43	102	1048576	22	5269
2026-01-05 09:44:21.81	358.29	27.53	-30.4	-33.3	12.2	1.67e-04	0	43	102	1048576	22	5026
2026-01-05 09:44:24.83	357.87	27.06	-30.5	-34.1	12.0	1.79e-04	0	43	102	1048576	21	5452
2026-01-05 09:44:27.85	357.47	26.60	-30.5	-34.3	11.8	6.88e-04	0	43	102	1048576	21	5535
2026-01-05 09:44:30.87	357.08	26.14	-30.2	-33.2	12.5	1.17e-04	0	43	102	1048576	21	5102
2026-01-05 09:44:33.88	356.71	25.70	-29.8	-32.3	13.2	3.96e-05	0	43	102	1048576	21	4761
2026-01-05 09:44:36.91	356.34	25.25	-29.7	-32.4	13.4	1.22e-05	0	43	102	1048576	20	4890
2026-01-05 09:44:39.92	355.98	24.81	-29.5	-31.9	13.8	2.20e-06	0	43	102	1048576	20	4729
2026-01-05 09:44:42.95	355.63	24.38	-29.5	-31.8	13.8	9.10e-06	0	43	102	1048576	20	4689
2026-01-05 09:44:45.97	355.30	23.95	-29.5	-31.9	13.8	6.80e-06	0	43	102	1048576	20	4726
2026-01-05 09:44:48.99	354.97	23.53	-29.5	-31.8	13.8	4.50e-06	0	43	102	1048576	20	4691
2026-01-05 09:44:52.01	354.65	23.12	-29.6	-32.0	13.7	1.06e-05	0	43	102	1048576	20	4766
2026-01-05 09:44:55.03	354.34	22.71	-29.8	-32.6	13.2	2.28e-05	0	43	102	1048576	20	4999
2026-01-05 09:44:58.06	354.04	22.30	-29.9	-32.9	13.1	3.28e-05	0	43	102	1048576	20	5085
2026-01-05 09:45:01.07	353.74	21.90	-30.0	-33.3	12.7	5.64e-05	0	44	102	1048576	20	5255
2026-01-05 09:45:04.09	353.46	21.51	-29.9	-33.1	12.9	4.11e-05	0	43	102	1048576	20	5181
2026-01-05 09:45:07.11	353.18	21.12	-30.0	-33.4	12.6	6.79e-05	0	43	102	1048576	20	5289
2026-01-05 09:45:10.14	352.91	20.74	-30.0	-33.4	12.6	8.39e-05	0	43	102	1048576	20	5325
2026-01-05 09:45:13.16	352.64	20.36	-29.8	-32.8	13.0	5.18e-05	0	44	102	1048576	20	5069
2026-01-05 09:45:16.18	352.38	19.99	-29.7	-32.5	13.2	1.22e-05	0	44	102	1048576	20	4954
2026-01-05 09:45:19.20	352.13	19.62	-29.5	-32.1	13.5	1.37e-05	0	43	102	1048576	20	4807
2026-01-05 09:45:22.22	351.88	19.26	-29.5	-32.0	13.5	1.37e-05	0	43	102	1048576	20	4779
2026-01-05 09:45:25.23	351.65	18.90	-29.5	-31.9	13.5	1.60e-05	0	43	102	1048576	20	4760
2026-01-05 09:45:28.25	351.41	18.55	-29.6	-32.3	13.2	1.06e-05	0	43	102	1048576	20	4899
2026-01-05 09:45:31.27	351.18	18.20	-29.7	-32.5	13.1	2.28e-05	0	43	102	1048576	20	4979
2026-01-05 09:45:34.28	350.96	17.85	-29.8	-32.9	12.8	5.79e-05	0	43	102	1048576	20	5151
2026-01-05 09:45:37.31	350.74	17.51	-30.0	-33.3	12.5	1.75e-04	0	44	102	1048576	20	5300
2026-01-05 09:45:40.33	350.53	17.18	-29.9	-33.2	12.6	7.70e-05	0	43	102	1048576	20	5237
2026-01-05 09:45:43.35	350.32	16.85	-29.8	-33.0	12.7	7.47e-05	0	43	102	1048576	20	5165
2026-01-05 09:45:46.37	350.12	16.52	-29.7	-32.7	12.9	6.25e-05	0	43	102	1048576	20	5058
2026-01-05 09:45:49.38	349.92	16.19	-29.9	-33.1	12.6	9.46e-05	0	43	102	1048576	20	5216
2026-01-05 09:45:52.40	349.73	15.87	-29.9	-33.1	12.6	7.70e-05	0	44	102	1048576	20	5220
2026-01-05 09:45:55.42	349.54	15.56	-29.9	-33.3	12.4	1.40e-04	0	43	102	1048576	20	5292
2026-01-05 09:45:58.45	349.35	15.24	-29.9	-33.3	12.4	1.45e-04	0	43	102	1048576	20	5306
2026-01-05 09:46:01.48	349.17	14.93	-30.1	-33.9	12.0	3.04e-04	0	43	102	1048576	20	5545
2026-01-05 09:46:04.49	348.99	14.63	-30.1	-33.8	12.0	2.85e-04	0	43	102	1048576	20	5504
2026-01-05 09:46:07.51	348.82	14.33	-30.1	-34.0	11.8	4.82e-04	0	43	102	1048576	20	5615
2026-01-05 09:46:10.53	348.65	14.03	-30.1	-33.9	11.9	3.87e-04	0	43	102	1048576	20	5584
2026-01-05 09:46:13.55	348.48	13.74	-30.1	-34.0	11.8	5.02e-04	0	43	102	1048576	20	5631
2026-01-05 09:46:16.57	348.32	13.44	-30.1	-33.9	11.9	4.40e-04	0	43	102	1048576	20	5568
2026-01-05 09:46:19.60	348.16	13.15	-30.1	-33.9	11.8	4.83e-04	0	43	102	1048576	20	5564
2026-01-05 09:46:22.61	348.01	12.87	-30.1	-33.9	11.8	4.52e-04	0	43	102	1048576	20	5572
2026-01-05 09:46:25.64	347.85	12.59	-30.1	-34.0	11.8	5.65e-04	0	43	102	1048576	20	5624
2026-01-05 09:46:28.65	347.70	12.31	-30.1	-34.1	11.6	6.39e-04	0	43	102	1048576	20	5681
2026-01-05 09:46:31.68	347.56	12.03	-30.1	-34.0	11.7	5.11e-04	0	43	102	1048576	20	5657
2026-01-05 09:46:34.70	347.41	11.76	-30.2	-34.3	11.4	8.41e-04	0	43	102	1048576	20	5801
2026-01-05 09:46:37.72	347.27	11.49	-30.1	-34.2	11.5	8.22e-04	0	43	102	1048576	20	5718
2026-01-05 09:46:40.74	347.13	11.22	-30.2	-34.3	11.4	1.05e-03	0	44	102	1048576	20	5774
2026-01-05 09:46:43.75	347.00	10.96	-30.2	-34.3	11.4	9.98e-04	0	43	102	1048576	20	5810
2026-01-05 09:46:46.78	346.87	10.69	-30.3	-34.8	11.0	1.57e-03	0	43	102	1048576	20	6018
2026-01-05 09:46:49.79	346.74	10.43	-30.4	-35.2	10.6	2.78e-03	0	43	102	1048576	20	6252
2026-01-05 09:46:52.82	346.61	10.18	-30.4	-35.1	10.7	2.63e-03	0	44	102	1048576	20	6186
2026-01-05 09:46:55.84	346.48	9.92	-30.4	-35.1	10.7	2.80e-03	0	43	102	1048576	20	6177
2026-01-05 09:46:58.85	346.36	9.67	-30.4	-35.2	10.6	3.74e-03	0	43	102	1048576	20	6244
2026-01-05 09:47:01.87	346.24	9.42	-30.6	-35.3	10.1	6.02e-03	0	43	102	1048576	21	6202
2026-01-05 09:47:04.89	346.12	9.17	-30.6	-35.5	9.9	8.07e-03	0	44	102	1048576	21	6336
2026-01-05 09:47:07.91	346.00	8.93	-30.6	-35.3	10.0	7.70e-03	0	43	102	1048576	21	6202
2026-01-05 09:47:10.94	345.89	8.68	-30.6	-35.6	9.8	9.85e-03	0	43	102	1048576	21	6366
2026-01-05 09:47:13.96	345.78	8.44	-30.8	-36.2	9.3	1.88e-02	0	43	102	1048576	21	6697
2026-01-05 09:47:16.99	345.67	8.20	-30.9	-36.7	8.8	2.83e-02	0	43	102	1048576	21	7022
2026-01-05 09:47:20.01	345.56	7.97	-30.8	-36.4	8.9	2.78e-02	0	43	102	1048576	21	6886
2026-01-05 09:47:23.02	345.45	7.73	-30.7	-36.2	9.1	2.36e-02	0	43	102	1048576	21	6739
2026-01-05 09:47:26.04	345.35	7.50	-30.9	-36.7	8.7	2.73e-02	0	44	102	1048576	21	7090
2026-01-05 09:47:29.06	345.25	7.27	-30.6	-35.8	9.4	1.67e-02	0	43	102	1048576	21	6516
2026-01-05 09:47:32.09	345.15	7.04	-32.5	-46.8	3.8	1.44e+00	0	43	104	1048576	24	18757

#Closed at: 2026-01-05 09:47:35
#Recorded file [1 MB]: D:/data/31010_260105_123550.dat