passes_logs/2026/01/05/R2M6_AANII_01/R2M6_AANII_01__20260105_134253_FENGYUN_3E_rec.log

#Pass ID: 20260105_134253_FENGYUN 3E
#Satellite: FENGYUN 3E
#Configuration: FENGYUN 3E
#almurnet v.1.7.20240730
#Start time: 2026-01-05 13:48:07

#Version: 2.2.20231116
#Station: R2M6_AANII_01
#Location: 30.233357 lon 59.946436 lat
#TLE: 1 49008U 21062A   26004.99925679  .00000018  00000+0  29282-4 0  9995
#TLE: 2 49008  98.7472  10.2448 0001540 159.6420 200.4818 14.19883565233423

#Time	Az	El	Level	Level2	SNR	BER	BlckErr	Temp	State	Recorded	gain1	gain2
2026-01-05 13:48:07.65	77.35	45.27	-32.9	-44.4	3.8	8.46e-01	0	43	0	0	25	13464
2026-01-05 13:48:09.65	76.30	45.46	-33.6	-42.6	3.8	8.44e-01	0	44	104	0	28	10124
2026-01-05 13:48:11.67	75.23	45.63	-33.7	-42.7	3.8	8.47e-01	0	44	104	0	28	10124
2026-01-05 13:48:13.67	74.16	45.80	-33.7	-42.8	3.8	8.46e-01	0	44	104	0	28	10275
2026-01-05 13:48:15.68	73.07	45.95	-33.7	-42.8	3.8	8.47e-01	0	44	104	0	28	10210
2026-01-05 13:48:17.69	71.97	46.09	-33.7	-42.8	3.8	8.46e-01	0	44	104	0	28	10256
2026-01-05 13:48:19.71	70.85	46.22	-33.7	-42.7	3.8	8.46e-01	0	44	104	0	28	10171
2026-01-05 13:48:21.72	69.74	46.34	-33.7	-42.7	3.8	8.46e-01	0	44	104	0	28	10166
2026-01-05 13:48:23.73	68.61	46.45	-33.7	-42.8	3.8	8.46e-01	0	44	104	0	28	10218
2026-01-05 13:48:25.74	67.48	46.55	-33.7	-42.8	3.8	8.45e-01	0	44	104	0	28	10265
2026-01-05 13:48:27.75	66.34	46.63	-33.6	-42.5	3.8	8.46e-01	0	44	104	0	28	10020
2026-01-05 13:48:29.77	65.19	46.71	-33.7	-42.7	3.8	8.45e-01	0	44	104	0	28	10154
2026-01-05 13:48:31.78	64.04	46.76	-33.7	-42.6	3.8	8.45e-01	0	44	104	0	28	10126
2026-01-05 13:48:33.79	62.89	46.81	-33.6	-42.5	3.8	8.46e-01	0	44	104	0	28	10061
2026-01-05 13:48:35.79	61.74	46.84	-33.6	-42.4	3.8	8.46e-01	0	44	104	0	28	9998
2026-01-05 13:48:37.81	60.57	46.87	-33.6	-42.4	3.8	8.46e-01	0	44	104	0	28	10000
2026-01-05 13:48:39.82	59.41	46.87	-33.5	-42.3	3.8	8.46e-01	0	44	104	0	28	9851
2026-01-05 13:48:41.83	58.25	46.87	-33.5	-42.1	3.8	8.46e-01	0	44	104	0	28	9733
2026-01-05 13:48:43.84	57.09	46.85	-33.5	-42.3	3.8	8.46e-01	0	44	104	0	28	9850
2026-01-05 13:48:45.85	55.94	46.82	-33.5	-41.9	3.8	8.46e-01	0	44	104	0	28	9515
2026-01-05 13:48:47.86	54.78	46.78	-33.5	-42.1	3.8	8.47e-01	0	44	104	0	28	9721
2026-01-05 13:48:49.88	53.63	46.72	-33.5	-42.3	3.8	8.45e-01	0	44	104	0	28	9945
2026-01-05 13:48:51.89	52.48	46.65	-33.5	-41.9	3.8	8.46e-01	0	44	104	0	27	9510
2026-01-05 13:48:53.91	51.34	46.57	-33.5	-42.2	3.8	8.47e-01	0	44	104	0	27	9859
2026-01-05 13:48:55.92	50.20	46.48	-33.5	-42.4	3.8	8.46e-01	0	44	104	0	27	9990
2026-01-05 13:48:57.93	49.08	46.37	-33.2	-40.0	3.8	8.43e-01	0	44	104	0	27	7871
2026-01-05 13:48:59.94	47.96	46.26	-31.9	-35.2	6.0	6.28e-01	0	44	104	0	25	5254
2026-01-05 13:49:01.96	46.84	46.13	-26.7	-27.1	14.3	4.50e-06	0	44	102	1048576	14	3773
2026-01-05 13:49:03.97	45.74	45.99	-26.6	-27.5	14.4	1.10e-06	0	44	102	1048576	13	3968
2026-01-05 13:49:05.98	44.65	45.83	-25.8	-26.2	15.4	0.00e+00	0	44	102	1048576	12	3778
2026-01-05 13:49:08.00	43.57	45.67	-25.8	-26.1	15.4	0.00e+00	0	44	102	1048576	12	3737
2026-01-05 13:49:10.00	42.51	45.50	-24.9	-25.1	16.5	0.00e+00	0	44	102	1048576	10	3701
2026-01-05 13:49:12.01	41.45	45.32	-23.9	-23.6	17.6	0.00e+00	0	44	102	1048576	9	3484
2026-01-05 13:49:14.02	40.41	45.13	-24.0	-24.4	17.4	0.00e+00	0	44	102	1048576	8	3750
2026-01-05 13:49:16.03	39.38	44.92	-23.2	-23.1	18.3	0.00e+00	0	44	102	1048576	7	3561
2026-01-05 13:49:18.04	38.36	44.71	-23.3	-23.3	18.2	0.00e+00	0	44	102	1048576	7	3603
2026-01-05 13:49:20.06	37.35	44.49	-23.1	-23.0	18.4	0.00e+00	0	44	102	1048576	7	3544
2026-01-05 13:49:22.06	36.37	44.27	-23.2	-23.0	18.3	0.00e+00	0	44	102	1048576	7	3549
2026-01-05 13:49:24.08	35.39	44.03	-22.3	-22.2	19.2	0.00e+00	0	44	102	1048576	5	3578
2026-01-05 13:49:26.09	34.43	43.79	-22.4	-22.6	19.0	0.00e+00	0	44	102	1048576	5	3647
2026-01-05 13:49:28.10	33.49	43.53	-22.6	-22.8	18.9	0.00e+00	0	44	102	1048576	5	3706
2026-01-05 13:49:30.12	32.55	43.28	-22.5	-22.6	19.0	0.00e+00	0	44	102	1048576	5	3651
2026-01-05 13:49:32.13	31.64	43.01	-22.5	-22.6	19.0	0.00e+00	0	44	102	1048576	5	3668
2026-01-05 13:49:34.14	30.74	42.74	-22.5	-22.6	19.0	0.00e+00	0	44	102	1048576	5	3660
2026-01-05 13:49:36.15	29.86	42.46	-22.5	-22.6	19.0	0.00e+00	0	44	102	1048576	5	3654
2026-01-05 13:49:38.16	28.99	42.18	-22.4	-22.4	19.1	0.00e+00	0	44	102	1048576	5	3608
2026-01-05 13:49:40.17	28.13	41.90	-22.7	-23.1	18.8	0.00e+00	0	44	102	1048576	5	3762
2026-01-05 13:49:42.17	27.30	41.61	-22.7	-23.0	18.8	0.00e+00	0	44	102	1048576	5	3751
2026-01-05 13:49:44.18	26.48	41.31	-22.7	-23.0	18.8	0.00e+00	0	44	102	1048576	5	3755
2026-01-05 13:49:46.20	25.67	41.01	-22.5	-22.7	19.0	0.00e+00	0	44	102	1048576	5	3668
2026-01-05 13:49:48.22	24.87	40.70	-22.7	-23.0	18.7	0.00e+00	0	44	102	1048576	5	3747
2026-01-05 13:49:50.22	24.10	40.40	-22.6	-22.9	18.6	0.00e+00	0	44	102	1048576	5	3724
2026-01-05 13:49:52.24	23.33	40.08	-22.7	-23.0	18.7	0.00e+00	0	44	102	1048576	5	3757
2026-01-05 13:49:54.25	22.58	39.77	-22.7	-23.1	18.7	0.00e+00	0	44	102	1048576	5	3776
2026-01-05 13:49:56.27	21.84	39.45	-22.8	-23.2	18.6	0.00e+00	0	44	102	1048576	5	3793
2026-01-05 13:49:58.28	21.13	39.13	-23.1	-23.4	18.3	0.00e+00	0	44	102	1048576	6	3734
2026-01-05 13:50:00.29	20.42	38.81	-22.8	-22.8	18.6	0.00e+00	0	44	102	1048576	6	3608
2026-01-05 13:50:02.31	19.73	38.49	-22.9	-22.9	18.6	0.00e+00	0	44	102	1048576	6	3627
2026-01-05 13:50:04.32	19.05	38.16	-22.6	-22.3	18.8	0.00e+00	0	44	102	1048576	6	3498
2026-01-05 13:50:06.33	18.39	37.84	-22.6	-22.4	18.8	0.00e+00	0	44	102	1048576	6	3502
2026-01-05 13:50:08.35	17.73	37.51	-22.5	-22.1	18.9	0.00e+00	0	44	102	1048576	6	3449
2026-01-05 13:50:10.37	17.09	37.18	-22.7	-22.6	18.7	0.00e+00	0	44	102	1048576	6	3567
2026-01-05 13:50:12.37	16.47	36.85	-22.5	-22.2	18.9	0.00e+00	0	44	102	1048576	6	3468
2026-01-05 13:50:14.38	15.86	36.53	-22.3	-22.2	19.1	0.00e+00	0	44	102	1048576	5	3570
2026-01-05 13:50:16.40	15.26	36.20	-22.3	-22.2	19.0	0.00e+00	0	44	102	1048576	5	3581
2026-01-05 13:50:18.41	14.67	35.87	-22.4	-22.5	18.9	0.00e+00	0	44	102	1048576	5	3645
2026-01-05 13:50:20.43	14.09	35.54	-22.2	-22.1	19.1	0.00e+00	0	44	102	1048576	5	3553
2026-01-05 13:50:22.44	13.53	35.21	-22.4	-22.4	19.0	0.00e+00	0	44	102	1048576	5	3611
2026-01-05 13:50:24.46	12.97	34.88	-22.9	-23.5	18.4	0.00e+00	0	44	102	1048576	5	3852
2026-01-05 13:50:26.47	12.43	34.55	-22.9	-23.5	18.4	0.00e+00	0	44	102	1048576	5	3858
2026-01-05 13:50:28.48	11.90	34.22	-22.7	-23.0	18.7	0.00e+00	0	44	102	1048576	5	3759
2026-01-05 13:50:30.50	11.38	33.89	-22.8	-23.4	18.5	0.00e+00	0	44	102	1048576	5	3835
2026-01-05 13:50:32.51	10.87	33.56	-22.8	-23.2	18.5	0.00e+00	0	44	102	1048576	5	3799
2026-01-05 13:50:34.52	10.37	33.24	-22.9	-23.5	18.3	0.00e+00	0	44	102	1048576	5	3870
2026-01-05 13:50:36.53	9.88	32.91	-23.4	-24.1	17.8	0.00e+00	0	44	102	1048576	6	3900
2026-01-05 13:50:38.54	9.40	32.59	-23.0	-22.7	18.3	0.00e+00	0	44	102	1048576	7	3493
2026-01-05 13:50:40.56	8.93	32.27	-22.4	-22.4	18.9	0.00e+00	0	44	102	1048576	5	3615
2026-01-05 13:50:42.57	8.47	31.95	-22.4	-22.5	18.9	0.00e+00	0	44	102	1048576	5	3629
2026-01-05 13:50:44.59	8.02	31.63	-22.6	-22.9	18.6	0.00e+00	0	44	102	1048576	5	3726
2026-01-05 13:50:46.60	7.57	31.31	-22.6	-22.9	18.6	0.00e+00	0	44	102	1048576	5	3718
2026-01-05 13:50:48.61	7.14	30.99	-22.6	-22.9	18.7	0.00e+00	0	44	102	1048576	5	3722
2026-01-05 13:50:50.62	6.72	30.68	-22.6	-23.0	18.6	1.10e-06	0	44	102	1048576	5	3748
2026-01-05 13:50:52.62	6.30	30.37	-22.5	-22.8	18.7	0.00e+00	0	44	102	1048576	5	3699
2026-01-05 13:50:54.63	5.89	30.06	-22.6	-22.9	18.6	0.00e+00	0	44	102	1048576	5	3727
2026-01-05 13:50:56.64	5.49	29.75	-22.8	-23.3	18.4	0.00e+00	0	44	102	1048576	5	3820
2026-01-05 13:50:58.66	5.10	29.44	-22.9	-23.6	18.3	0.00e+00	0	44	102	1048576	5	3878
2026-01-05 13:51:00.68	4.71	29.13	-23.0	-23.6	18.2	0.00e+00	0	44	102	1048576	5	3899
2026-01-05 13:51:02.69	4.33	28.83	-22.8	-23.4	18.3	0.00e+00	0	44	102	1048576	5	3832
2026-01-05 13:51:04.70	3.96	28.52	-22.7	-23.1	18.5	0.00e+00	0	44	102	1048576	5	3767
2026-01-05 13:51:06.71	3.60	28.22	-22.9	-23.4	18.3	0.00e+00	0	44	102	1048576	5	3850
2026-01-05 13:51:08.73	3.24	27.92	-23.1	-23.5	18.1	0.00e+00	0	44	102	1048576	6	3749
2026-01-05 13:51:10.75	2.89	27.63	-23.1	-23.5	18.0	0.00e+00	0	44	102	1048576	6	3770
2026-01-05 13:51:12.76	2.54	27.33	-23.1	-23.5	18.0	0.00e+00	0	44	102	1048576	6	3752
2026-01-05 13:51:14.77	2.21	27.04	-23.0	-23.2	18.2	0.00e+00	0	44	102	1048576	6	3693
2026-01-05 13:51:16.79	1.87	26.75	-23.2	-23.6	18.0	0.00e+00	0	44	102	1048576	6	3784
2026-01-05 13:51:18.81	1.55	26.46	-22.8	-22.8	18.4	0.00e+00	0	44	102	1048576	6	3596
2026-01-05 13:51:20.81	1.23	26.17	-22.6	-22.5	18.5	0.00e+00	0	44	102	1048576	6	3540
2026-01-05 13:51:22.83	0.91	25.89	-22.7	-22.6	18.5	0.00e+00	0	44	102	1048576	6	3569
2026-01-05 13:51:24.85	0.61	25.61	-22.9	-23.0	18.3	0.00e+00	0	44	102	1048576	6	3651
2026-01-05 13:51:26.86	0.30	25.33	-22.9	-23.1	18.2	0.00e+00	0	44	102	1048576	6	3662
2026-01-05 13:51:28.88	0.01	25.05	-23.0	-23.3	18.1	0.00e+00	0	44	102	1048576	6	3724
2026-01-05 13:51:30.89	359.72	24.77	-23.0	-23.3	18.1	0.00e+00	0	44	102	1048576	6	3710
2026-01-05 13:51:32.90	359.43	24.50	-23.0	-23.4	18.1	0.00e+00	0	44	102	1048576	6	3730
2026-01-05 13:51:34.92	359.15	24.22	-23.0	-23.2	18.1	0.00e+00	0	44	102	1048576	6	3687
2026-01-05 13:51:36.93	358.87	23.95	-22.9	-23.1	18.2	0.00e+00	0	44	102	1048576	6	3661
2026-01-05 13:51:38.95	358.60	23.69	-22.9	-22.9	18.2	0.00e+00	0	44	102	1048576	6	3630
2026-01-05 13:51:40.96	358.33	23.42	-22.9	-22.9	18.2	0.00e+00	0	44	102	1048576	6	3637
2026-01-05 13:51:42.97	358.07	23.16	-22.8	-22.9	18.2	0.00e+00	0	44	102	1048576	6	3629
2026-01-05 13:51:44.99	357.81	22.89	-22.9	-23.0	18.2	0.00e+00	0	44	102	1048576	6	3642
2026-01-05 13:51:47.00	357.56	22.64	-22.9	-23.0	18.2	0.00e+00	0	44	102	1048576	6	3653
2026-01-05 13:51:49.02	357.31	22.38	-22.9	-23.0	18.2	0.00e+00	0	44	102	1048576	6	3656
2026-01-05 13:51:51.03	357.06	22.12	-23.0	-23.2	18.1	0.00e+00	0	44	102	1048576	6	3692
2026-01-05 13:51:53.04	356.82	21.87	-23.1	-23.4	17.9	0.00e+00	0	44	102	1048576	6	3745
2026-01-05 13:51:55.05	356.59	21.62	-23.3	-24.0	17.7	0.00e+00	0	44	102	1048576	6	3867
2026-01-05 13:51:57.07	356.35	21.37	-23.6	-24.4	17.4	0.00e+00	0	44	102	1048576	6	3983
2026-01-05 13:51:59.08	356.12	21.12	-23.8	-24.5	17.2	0.00e+00	0	44	102	1048576	7	3881
2026-01-05 13:52:01.08	355.90	20.87	-23.9	-24.7	17.0	0.00e+00	0	44	102	1048576	7	3951
2026-01-05 13:52:03.10	355.68	20.63	-23.9	-24.6	17.1	0.00e+00	0	44	102	1048576	7	3913
2026-01-05 13:52:05.11	355.46	20.39	-23.7	-24.3	17.1	0.00e+00	0	44	102	1048576	7	3851
2026-01-05 13:52:07.12	355.24	20.15	-23.7	-24.2	17.2	2.20e-06	0	44	102	1048576	7	3829
2026-01-05 13:52:09.14	355.03	19.91	-23.5	-23.9	17.4	0.00e+00	0	44	102	1048576	7	3743
2026-01-05 13:52:11.16	354.82	19.67	-23.6	-23.9	17.3	0.00e+00	0	44	102	1048576	7	3751
2026-01-05 13:52:13.16	354.62	19.44	-23.7	-24.2	17.2	0.00e+00	0	44	102	1048576	7	3811
2026-01-05 13:52:15.18	354.42	19.20	-23.8	-24.5	17.1	0.00e+00	0	44	102	1048576	7	3882
2026-01-05 13:52:17.19	354.22	18.97	-23.9	-24.7	17.0	0.00e+00	0	44	102	1048576	7	3930
2026-01-05 13:52:19.20	354.03	18.74	-24.0	-24.8	16.9	0.00e+00	0	44	102	1048576	7	3968
2026-01-05 13:52:21.21	353.83	18.52	-24.0	-24.9	16.8	1.10e-06	0	44	102	1048576	7	3986
2026-01-05 13:52:23.22	353.65	18.29	-24.2	-24.7	16.7	0.00e+00	0	44	102	1048576	8	3828
2026-01-05 13:52:25.22	353.46	18.07	-24.1	-24.5	16.8	0.00e+00	0	44	102	1048576	8	3795
2026-01-05 13:52:27.23	353.28	17.85	-24.2	-24.8	16.6	0.00e+00	0	44	102	1048576	8	3859
2026-01-05 13:52:29.24	353.10	17.63	-24.2	-24.9	16.6	0.00e+00	0	44	102	1048576	8	3879
2026-01-05 13:52:31.25	352.92	17.41	-24.2	-24.8	16.6	0.00e+00	0	44	102	1048576	8	3866
2026-01-05 13:52:33.27	352.74	17.19	-24.2	-24.9	16.6	0.00e+00	0	44	102	1048576	8	3869
2026-01-05 13:52:35.28	352.57	16.97	-24.2	-24.8	16.4	0.00e+00	0	44	102	1048576	8	3868
2026-01-05 13:52:37.29	352.40	16.76	-24.2	-24.9	16.5	0.00e+00	0	44	102	1048576	8	3873
2026-01-05 13:52:39.31	352.23	16.55	-24.3	-25.0	16.5	0.00e+00	0	44	102	1048576	8	3908
2026-01-05 13:52:41.32	352.07	16.34	-24.3	-25.0	16.4	1.10e-06	0	44	102	1048576	8	3910
2026-01-05 13:52:43.32	351.91	16.13	-24.3	-25.0	16.5	0.00e+00	0	44	102	1048576	8	3899
2026-01-05 13:52:45.33	351.75	15.92	-24.4	-25.2	16.3	0.00e+00	0	44	102	1048576	8	3964
2026-01-05 13:52:47.35	351.59	15.71	-24.4	-24.6	16.3	0.00e+00	0	44	102	1048576	9	3722
2026-01-05 13:52:49.36	351.43	15.51	-24.3	-24.6	16.4	0.00e+00	0	44	102	1048576	9	3714
2026-01-05 13:52:51.38	351.28	15.31	-24.4	-24.7	16.3	0.00e+00	0	44	102	1048576	9	3731
2026-01-05 13:52:53.40	351.13	15.10	-24.5	-25.0	16.1	0.00e+00	0	44	102	1048576	9	3804
2026-01-05 13:52:55.41	350.98	14.90	-24.6	-25.2	16.0	0.00e+00	0	44	102	1048576	9	3851
2026-01-05 13:52:57.42	350.83	14.70	-24.7	-25.3	15.9	0.00e+00	0	44	102	1048576	9	3883
2026-01-05 13:52:59.43	350.68	14.51	-24.8	-25.5	15.8	0.00e+00	0	44	102	1048576	9	3921
2026-01-05 13:53:01.44	350.54	14.31	-24.8	-25.6	15.8	0.00e+00	0	44	102	1048576	9	3953
2026-01-05 13:53:03.45	350.40	14.12	-24.8	-25.7	15.7	0.00e+00	0	44	102	1048576	9	3972
2026-01-05 13:53:05.46	350.26	13.92	-25.0	-25.9	15.6	0.00e+00	0	44	102	1048576	9	4037
2026-01-05 13:53:07.47	350.12	13.73	-25.0	-26.0	15.5	0.00e+00	0	44	102	1048576	9	4053
2026-01-05 13:53:09.49	349.99	13.54	-25.1	-25.7	15.4	1.10e-06	0	44	102	1048576	10	3880
2026-01-05 13:53:11.50	349.85	13.35	-25.2	-26.0	15.3	0.00e+00	0	44	102	1048576	10	3933
2026-01-05 13:53:13.51	349.72	13.16	-25.2	-26.0	15.2	0.00e+00	0	44	102	1048576	10	3933
2026-01-05 13:53:15.52	349.59	12.98	-25.3	-26.2	15.1	1.10e-06	0	44	102	1048576	10	4002
2026-01-05 13:53:17.54	349.46	12.79	-25.4	-26.4	15.0	1.10e-06	0	44	102	1048576	10	4057
2026-01-05 13:53:19.55	349.34	12.61	-25.5	-26.6	14.8	3.40e-06	0	44	102	1048576	10	4092
2026-01-05 13:53:21.56	349.21	12.42	-25.4	-26.5	14.9	0.00e+00	0	44	102	1048576	10	4068
2026-01-05 13:53:23.57	349.09	12.24	-25.5	-26.6	14.8	1.10e-06	0	44	102	1048576	10	4099
2026-01-05 13:53:25.57	348.97	12.06	-25.4	-26.5	14.8	0.00e+00	0	44	102	1048576	10	4085
2026-01-05 13:53:27.59	348.85	11.88	-25.5	-26.7	14.8	0.00e+00	0	44	102	1048576	10	4119
2026-01-05 13:53:29.60	348.73	11.71	-25.6	-26.4	14.6	0.00e+00	0	44	102	1048576	11	3945
2026-01-05 13:53:31.61	348.61	11.53	-25.6	-26.4	14.7	0.00e+00	0	44	102	1048576	11	3949
2026-01-05 13:53:33.62	348.50	11.35	-25.8	-26.8	14.4	0.00e+00	0	44	102	1048576	11	4048
2026-01-05 13:53:35.63	348.38	11.18	-26.0	-27.2	14.2	0.00e+00	0	44	102	1048576	11	4136
2026-01-05 13:53:37.65	348.27	11.00	-26.0	-26.7	14.1	1.10e-06	0	44	102	1048576	12	3914
2026-01-05 13:53:39.66	348.16	10.83	-26.0	-26.7	14.1	2.20e-06	0	44	102	1048576	12	3928
2026-01-05 13:53:41.67	348.05	10.66	-26.0	-26.8	14.0	5.70e-06	0	44	102	1048576	12	3956
2026-01-05 13:53:43.68	347.94	10.49	-26.2	-27.2	13.8	2.20e-06	0	44	102	1048576	12	4050
2026-01-05 13:53:45.68	347.83	10.32	-26.0	-26.9	14.0	3.40e-06	0	44	102	1048576	12	3973
2026-01-05 13:53:47.70	347.73	10.15	-26.1	-27.0	13.9	0.00e+00	0	44	102	1048576	12	3986
2026-01-05 13:53:49.72	347.62	9.99	-26.1	-27.1	13.8	3.40e-06	0	44	102	1048576	12	4014
2026-01-05 13:53:51.73	347.52	9.82	-25.9	-26.7	14.0	1.10e-06	0	44	102	1048576	12	3923
2026-01-05 13:53:53.73	347.42	9.66	-25.9	-26.5	14.1	2.20e-06	0	44	102	1048576	12	3880
2026-01-05 13:53:55.75	347.32	9.49	-25.9	-26.6	14.1	3.40e-06	0	44	102	1048576	12	3897
2026-01-05 13:53:57.76	347.22	9.33	-26.0	-26.8	13.9	5.70e-06	0	44	102	1048576	12	3952
2026-01-05 13:53:59.78	347.12	9.17	-26.1	-27.1	13.7	6.80e-06	0	44	102	1048576	12	4035
2026-01-05 13:54:01.79	347.02	9.00	-26.0	-26.9	13.8	4.50e-06	0	44	102	1048576	12	3971
2026-01-05 13:54:03.81	346.92	8.84	-26.1	-27.0	13.7	8.00e-06	0	44	102	1048576	12	4013
2026-01-05 13:54:05.82	346.83	8.68	-26.1	-27.0	13.7	2.20e-06	0	44	102	1048576	12	3991
2026-01-05 13:54:07.83	346.73	8.53	-26.2	-27.3	13.6	1.02e-05	0	44	102	1048576	12	4071
2026-01-05 13:54:09.85	346.64	8.37	-26.4	-27.9	13.2	2.28e-05	0	44	102	1048576	12	4238
2026-01-05 13:54:11.87	346.55	8.21	-26.4	-27.7	13.2	1.83e-05	0	44	102	1048576	12	4206
2026-01-05 13:54:13.88	346.46	8.06	-26.5	-27.9	13.1	1.94e-05	0	44	102	1048576	12	4257
2026-01-05 13:54:15.90	346.37	7.90	-26.5	-28.0	13.1	3.20e-05	0	44	102	1048576	12	4268
2026-01-05 13:54:17.91	346.28	7.75	-26.6	-28.1	13.0	3.77e-05	0	44	102	1048576	12	4318
2026-01-05 13:54:19.93	346.19	7.59	-27.0	-28.6	12.4	1.27e-04	0	44	102	1048576	13	4331
2026-01-05 13:54:21.94	346.11	7.44	-26.7	-27.9	12.8	4.00e-05	0	44	102	1048576	13	4152
2026-01-05 13:54:23.95	346.02	7.29	-26.6	-27.7	12.9	3.31e-05	0	44	102	1048576	13	4097
2026-01-05 13:54:25.96	345.94	7.14	-26.6	-27.6	12.9	3.43e-05	0	44	102	1048576	13	4081
2026-01-05 13:54:27.97	345.85	6.99	-32.7	-42.0	3.8	8.46e-01	0	44	104	1048576	25	10424

#Closed at: 2026-01-05 13:54:29
#Recorded file [1 MB]: D:/data/31010_260105_164900.dat