passes_logs/2026/01/05/R2M6_AANII_01/R2M6_AANII_01__20260105_053016_FENGYUN_3E_rec.log

#Pass ID: 20260105_053016_FENGYUN 3E
#Satellite: FENGYUN 3E
#Configuration: FENGYUN 3E
#almurnet v.1.7.20240730
#Start time: 2026-01-05 05:30:17

#Version: 2.2.20231116
#Station: R2M6_AANII_01
#Location: 30.233357 lon 59.946436 lat
#TLE: 1 49008U 21062A   26004.29457719  .00000106  00000+0  70678-4 0  9996
#TLE: 2 49008  98.7471   9.5487 0001503 159.9821 200.1414 14.19883545233329

#Time	Az	El	Level	Level2	SNR	BER	BlckErr	Temp	State	Recorded	gain1	gain2
2026-01-05 05:30:17.50	13.99	7.09	-29.0	-31.9	5.2	7.83e-01	0	41	0	0	17	4999
2026-01-05 05:30:20.51	13.86	7.31	-29.3	-32.0	8.6	4.44e-02	0	41	102	1048576	18	4924
2026-01-05 05:30:23.54	13.73	7.54	-29.0	-31.7	9.2	2.48e-02	0	41	102	1048576	17	4892
2026-01-05 05:30:26.56	13.59	7.77	-28.8	-31.1	9.6	1.50e-02	0	41	102	1048576	17	4707
2026-01-05 05:30:29.57	13.46	8.00	-27.4	-29.1	11.7	9.12e-04	0	41	102	1048576	14	4384
2026-01-05 05:30:32.60	13.32	8.23	-26.8	-28.2	12.6	9.38e-05	0	41	102	1048576	13	4234
2026-01-05 05:30:35.61	13.17	8.46	-26.7	-28.0	12.8	7.78e-05	0	41	102	1048576	13	4170
2026-01-05 05:30:38.62	13.03	8.70	-26.8	-28.2	12.6	9.88e-04	0	42	102	1048576	13	4234
2026-01-05 05:30:41.63	12.88	8.94	-26.9	-28.5	12.5	1.61e-04	0	42	102	1048576	13	4311
2026-01-05 05:30:44.64	12.73	9.18	-26.5	-27.9	13.1	2.28e-05	0	42	102	1048576	12	4246
2026-01-05 05:30:47.66	12.58	9.42	-26.6	-28.1	13.0	5.30e-04	0	42	102	1048576	12	4312
2026-01-05 05:30:50.68	12.42	9.67	-26.6	-27.8	13.0	5.77e-04	0	42	102	1048576	13	4115
2026-01-05 05:30:53.71	12.27	9.92	-26.4	-27.8	13.3	4.42e-04	0	42	102	1048576	12	4204
2026-01-05 05:30:56.72	12.10	10.16	-26.2	-27.3	13.6	4.70e-04	0	42	102	1048576	12	4083
2026-01-05 05:30:59.74	11.94	10.42	-26.0	-26.9	13.8	4.50e-06	0	42	102	1048576	12	3986
2026-01-05 05:31:02.76	11.77	10.67	-26.1	-27.0	13.8	4.27e-04	0	42	102	1048576	12	3992
2026-01-05 05:31:05.78	11.60	10.93	-26.1	-27.0	13.8	3.20e-04	0	42	102	1048576	12	4009
2026-01-05 05:31:08.79	11.43	11.19	-26.2	-27.2	13.7	5.70e-06	0	42	102	1048576	12	4053
2026-01-05 05:31:11.81	11.25	11.45	-26.2	-27.2	13.7	5.70e-06	0	42	102	1048576	12	4062
2026-01-05 05:31:14.83	11.07	11.71	-26.2	-27.3	13.7	1.14e-05	0	42	102	1048576	12	4065
2026-01-05 05:31:17.85	10.89	11.98	-26.0	-26.7	14.0	1.10e-06	0	42	102	1048576	12	3930
2026-01-05 05:31:20.87	10.70	12.25	-25.9	-27.1	14.2	1.10e-06	0	42	102	1048576	11	4124
2026-01-05 05:31:23.89	10.51	12.52	-25.9	-27.0	14.3	1.10e-06	0	42	102	1048576	11	4094
2026-01-05 05:31:26.92	10.31	12.80	-25.8	-26.9	14.3	2.07e-03	0	43	102	1048576	11	4082
2026-01-05 05:31:29.94	10.11	13.08	-25.7	-26.6	14.5	1.89e-03	0	43	102	1048576	11	3995
2026-01-05 05:31:32.96	9.91	13.36	-25.8	-26.7	14.4	0.00e+00	0	43	102	1048576	11	4026
2026-01-05 05:31:35.97	9.70	13.64	-25.6	-26.5	14.6	1.10e-06	0	43	102	1048576	11	3956
2026-01-05 05:31:39.00	9.49	13.93	-25.5	-26.2	14.8	1.76e-03	0	43	102	1048576	11	3899
2026-01-05 05:31:42.01	9.28	14.21	-25.9	-27.0	14.3	2.04e-03	0	43	102	1048576	11	4103
2026-01-05 05:31:45.03	9.06	14.51	-25.3	-26.2	15.1	1.91e-03	0	43	102	1048576	10	3993
2026-01-05 05:31:48.04	8.83	14.80	-25.4	-26.4	15.0	1.81e-03	0	43	102	1048576	10	4049
2026-01-05 05:31:51.07	8.60	15.10	-25.5	-26.6	14.9	0.00e+00	0	43	102	1048576	10	4091
2026-01-05 05:31:54.08	8.37	15.40	-25.6	-26.4	14.8	6.03e-04	0	43	102	1048576	11	3933
2026-01-05 05:31:57.11	8.13	15.71	-25.4	-26.4	15.1	0.00e+00	0	43	102	1048576	10	4037
2026-01-05 05:32:00.13	7.88	16.02	-25.3	-26.2	15.2	0.00e+00	0	43	102	1048576	10	3979
2026-01-05 05:32:03.15	7.63	16.33	-25.2	-26.0	15.3	0.00e+00	0	43	102	1048576	10	3946
2026-01-05 05:32:06.17	7.38	16.64	-25.1	-25.7	15.5	0.00e+00	0	43	102	1048576	10	3859
2026-01-05 05:32:09.19	7.12	16.96	-24.7	-25.4	15.9	0.00e+00	0	43	102	1048576	9	3903
2026-01-05 05:32:12.22	6.85	17.29	-24.5	-24.9	16.2	0.00e+00	0	43	102	1048576	9	3786
2026-01-05 05:32:15.24	6.57	17.61	-24.4	-24.7	16.3	0.00e+00	0	43	102	1048576	9	3728
2026-01-05 05:32:18.26	6.29	17.94	-24.5	-25.0	16.2	0.00e+00	0	43	102	1048576	9	3793
2026-01-05 05:32:21.29	6.01	18.28	-24.5	-25.0	16.1	0.00e+00	0	43	102	1048576	9	3810
2026-01-05 05:32:24.31	5.71	18.62	-24.5	-25.4	16.3	0.00e+00	0	43	102	1048576	8	3995
2026-01-05 05:32:27.33	5.41	18.96	-24.4	-25.3	16.3	0.00e+00	0	43	102	1048576	8	3976
2026-01-05 05:32:30.34	5.11	19.30	-24.4	-25.2	16.4	0.00e+00	0	43	102	1048576	8	3946
2026-01-05 05:32:33.35	4.80	19.65	-24.2	-24.8	16.6	0.00e+00	0	43	102	1048576	8	3862
2026-01-05 05:32:36.37	4.47	20.00	-24.2	-24.9	16.6	0.00e+00	0	43	102	1048576	8	3882
2026-01-05 05:32:39.38	4.15	20.36	-24.1	-24.5	16.8	0.00e+00	0	43	102	1048576	8	3794
2026-01-05 05:32:42.40	3.81	20.72	-24.2	-24.8	16.6	0.00e+00	0	43	102	1048576	8	3856
2026-01-05 05:32:45.42	3.46	21.08	-23.6	-24.1	17.2	2.20e-06	0	43	102	1048576	7	3800
2026-01-05 05:32:48.44	3.11	21.45	-23.6	-23.9	17.3	2.31e-04	0	43	102	1048576	7	3755
2026-01-05 05:32:51.46	2.75	21.83	-23.6	-24.0	17.3	2.41e-04	0	43	102	1048576	7	3776
2026-01-05 05:32:54.48	2.37	22.21	-23.8	-24.4	17.1	0.00e+00	0	43	102	1048576	7	3879
2026-01-05 05:32:57.50	1.99	22.59	-23.7	-24.2	17.2	0.00e+00	0	43	102	1048576	7	3831
2026-01-05 05:33:00.51	1.60	22.97	-23.7	-24.2	17.2	1.90e-04	0	43	102	1048576	7	3826
2026-01-05 05:33:03.53	1.20	23.36	-24.1	-24.6	16.8	1.91e-04	0	43	102	1048576	8	3800
2026-01-05 05:33:06.56	0.79	23.76	-23.8	-24.5	17.1	0.00e+00	0	43	102	1048576	7	3879
2026-01-05 05:33:09.58	0.36	24.16	-24.3	-25.0	16.6	0.00e+00	0	43	102	1048576	8	3889
2026-01-05 05:33:12.60	359.93	24.57	-24.3	-25.0	16.6	0.00e+00	0	43	102	1048576	8	3904
2026-01-05 05:33:15.62	359.48	24.98	-24.2	-24.8	16.7	1.89e-04	0	43	102	1048576	8	3851
2026-01-05 05:33:18.64	359.02	25.39	-24.3	-24.5	16.6	0.00e+00	0	43	102	1048576	9	3690
2026-01-05 05:33:21.66	358.55	25.81	-24.0	-24.4	16.9	0.00e+00	0	43	102	1048576	8	3753
2026-01-05 05:33:24.68	358.07	26.23	-23.8	-24.5	17.2	0.00e+00	0	43	102	1048576	7	3882
2026-01-05 05:33:27.70	357.57	26.66	-23.8	-24.4	17.2	0.00e+00	0	43	102	1048576	7	3854
2026-01-05 05:33:30.72	357.06	27.09	-23.4	-24.0	17.7	0.00e+00	0	43	102	1048576	6	3877
2026-01-05 05:33:33.75	356.54	27.52	-23.5	-24.2	17.6	0.00e+00	0	43	102	1048576	6	3931
2026-01-05 05:33:36.77	356.00	27.96	-23.1	-23.4	18.0	0.00e+00	0	43	102	1048576	6	3748
2026-01-05 05:33:39.79	355.44	28.41	-22.9	-23.6	18.2	0.00e+00	0	43	102	1048576	5	3888
2026-01-05 05:33:42.81	354.87	28.85	-22.7	-23.1	18.4	0.00e+00	0	43	102	1048576	5	3772
2026-01-05 05:33:45.82	354.28	29.30	-22.8	-23.3	18.3	0.00e+00	0	43	102	1048576	5	3812
2026-01-05 05:33:48.84	353.68	29.76	-23.0	-23.7	18.1	0.00e+00	0	43	102	1048576	5	3911
2026-01-05 05:33:51.86	353.06	30.22	-23.2	-23.8	17.9	0.00e+00	0	43	102	1048576	6	3821
2026-01-05 05:33:54.87	352.42	30.68	-23.4	-24.2	17.6	1.94e-05	0	43	102	1048576	6	3911
2026-01-05 05:33:57.89	351.76	31.14	-23.4	-24.1	17.7	0.00e+00	0	43	102	1048576	6	3908
2026-01-05 05:34:00.90	351.08	31.61	-24.0	-24.3	17.1	0.00e+00	0	43	102	1048576	8	3747
2026-01-05 05:34:03.91	350.38	32.08	-23.7	-24.2	17.3	0.00e+00	0	43	102	1048576	7	3824
2026-01-05 05:34:06.92	349.66	32.55	-23.6	-24.0	17.5	0.00e+00	0	43	102	1048576	7	3773
2026-01-05 05:34:09.95	348.92	33.03	-23.3	-23.9	17.8	1.21e-03	0	43	102	1048576	6	3852
2026-01-05 05:34:12.97	348.16	33.51	-23.3	-23.8	17.9	0.00e+00	0	43	102	1048576	6	3824
2026-01-05 05:34:15.98	347.37	33.99	-23.1	-23.5	18.1	0.00e+00	0	43	102	1048576	6	3753
2026-01-05 05:34:19.00	346.56	34.47	-23.3	-23.8	17.9	1.69e-04	0	43	102	1048576	6	3830
2026-01-05 05:34:22.03	345.72	34.95	-23.3	-23.9	17.8	2.56e-04	0	43	102	1048576	6	3847
2026-01-05 05:34:25.05	344.86	35.43	-23.2	-23.7	17.9	9.78e-04	0	44	102	1048576	6	3814
2026-01-05 05:34:28.07	343.97	35.91	-23.3	-23.9	17.8	0.00e+00	0	43	102	1048576	6	3857
2026-01-05 05:34:31.10	343.05	36.39	-23.7	-24.3	17.4	0.00e+00	0	43	102	1048576	7	3843
2026-01-05 05:34:34.11	342.11	36.87	-23.6	-24.1	17.5	0.00e+00	0	43	102	1048576	7	3782
2026-01-05 05:34:37.13	341.14	37.35	-23.5	-23.7	17.7	0.00e+00	0	43	102	1048576	7	3702
2026-01-05 05:34:40.15	340.14	37.82	-23.4	-24.1	17.7	0.00e+00	0	43	102	1048576	6	3890
2026-01-05 05:34:43.16	339.12	38.29	-23.5	-23.7	17.7	0.00e+00	0	43	102	1048576	7	3707
2026-01-05 05:34:46.18	338.06	38.76	-23.4	-24.1	17.8	0.00e+00	0	43	102	1048576	6	3893
2026-01-05 05:34:49.21	336.96	39.22	-23.1	-23.3	18.2	0.00e+00	0	44	102	1048576	6	3717
2026-01-05 05:34:52.24	335.84	39.67	-23.2	-23.6	17.8	0.00e+00	0	44	102	1048576	6	3782
2026-01-05 05:34:55.27	334.68	40.12	-23.9	-24.6	17.3	0.00e+00	0	43	102	1048576	7	3894
2026-01-05 05:34:58.28	333.49	40.56	-23.8	-24.3	17.4	0.00e+00	0	43	102	1048576	7	3835
2026-01-05 05:35:01.30	332.28	40.99	-24.0	-24.2	17.2	0.00e+00	0	43	102	1048576	8	3722
2026-01-05 05:35:04.31	331.03	41.41	-23.3	-23.3	17.9	0.00e+00	0	44	102	1048576	7	3615
2026-01-05 05:35:07.32	329.75	41.82	-23.0	-23.3	18.2	6.98e-05	0	43	102	1048576	6	3702
2026-01-05 05:35:10.35	328.43	42.22	-23.2	-23.6	18.0	2.15e-04	0	43	102	1048576	6	3773
2026-01-05 05:35:13.37	327.08	42.60	-23.5	-23.7	17.7	2.55e-04	0	43	102	1048576	7	3695
2026-01-05 05:35:16.39	325.69	42.97	-23.8	-24.3	17.4	2.84e-04	0	44	102	1048576	7	3851
2026-01-05 05:35:19.41	324.28	43.32	-23.6	-24.4	17.4	0.00e+00	0	43	102	1048576	6	3979
2026-01-05 05:35:22.43	322.83	43.66	-23.6	-23.9	17.6	0.00e+00	0	43	102	1048576	7	3744
2026-01-05 05:35:25.45	321.36	43.98	-24.0	-24.7	17.2	6.52e-05	0	43	102	1048576	7	3935
2026-01-05 05:35:28.47	319.86	44.28	-24.1	-24.4	17.1	1.26e-03	0	43	102	1048576	8	3768
2026-01-05 05:35:31.49	318.32	44.55	-23.4	-23.6	17.8	9.53e-04	0	43	102	1048576	7	3683
2026-01-05 05:35:34.51	316.77	44.81	-23.2	-23.7	18.0	0.00e+00	0	44	102	1048576	6	3796
2026-01-05 05:35:37.53	315.18	45.05	-23.3	-23.9	17.9	9.42e-04	0	43	102	1048576	6	3847
2026-01-05 05:35:40.56	313.57	45.26	-23.3	-23.9	18.0	8.19e-04	0	43	102	1048576	6	3838
2026-01-05 05:35:43.57	311.95	45.44	-23.5	-24.3	17.7	1.38e-03	0	44	102	1048576	6	3943
2026-01-05 05:35:46.57	310.32	45.61	-23.6	-23.9	17.7	0.00e+00	0	43	102	1048576	7	3740
2026-01-05 05:35:49.58	308.66	45.74	-23.8	-24.4	17.5	0.00e+00	0	43	102	1048576	7	3859
2026-01-05 05:35:52.61	306.98	45.85	-23.4	-24.0	17.9	0.00e+00	0	43	102	1048576	6	3871
2026-01-05 05:35:55.63	305.30	45.93	-23.8	-24.3	17.5	1.08e-03	0	43	102	1048576	7	3838
2026-01-05 05:35:58.65	303.61	45.99	-23.8	-24.5	17.4	0.00e+00	0	44	102	1048576	7	3880
2026-01-05 05:36:01.67	301.91	46.02	-23.5	-23.7	17.8	0.00e+00	0	44	102	1048576	7	3699
2026-01-05 05:36:04.69	300.22	46.02	-23.9	-24.7	17.3	0.00e+00	0	44	102	1048576	7	3930
2026-01-05 05:36:07.71	298.52	45.99	-23.9	-24.1	17.4	0.00e+00	0	44	102	1048576	8	3681
2026-01-05 05:36:10.74	296.82	45.93	-23.5	-23.9	17.7	0.00e+00	0	44	102	1048576	7	3737
2026-01-05 05:36:13.77	295.13	45.85	-23.7	-24.2	17.6	0.00e+00	0	44	102	1048576	7	3808
2026-01-05 05:36:16.80	293.45	45.74	-23.3	-23.8	18.0	0.00e+00	0	43	102	1048576	6	3832
2026-01-05 05:36:19.82	291.79	45.60	-23.4	-24.1	17.8	0.00e+00	0	44	102	1048576	6	3900
2026-01-05 05:36:22.84	290.15	45.44	-23.7	-24.1	17.5	0.00e+00	0	44	102	1048576	7	3800
2026-01-05 05:36:25.86	288.52	45.25	-23.4	-23.6	17.8	0.00e+00	0	44	102	1048576	7	3691
2026-01-05 05:36:28.87	286.92	45.04	-23.3	-23.8	17.9	0.00e+00	0	44	102	1048576	6	3832
2026-01-05 05:36:31.90	285.33	44.81	-23.3	-23.8	17.9	0.00e+00	0	44	102	1048576	6	3832
2026-01-05 05:36:34.91	283.77	44.55	-23.0	-23.7	18.2	0.00e+00	0	44	102	1048576	5	3910
2026-01-05 05:36:37.92	282.24	44.27	-23.2	-23.6	18.0	0.00e+00	0	44	102	1048576	6	3778
2026-01-05 05:36:40.95	280.73	43.97	-23.2	-23.7	18.0	0.00e+00	0	44	102	1048576	6	3811
2026-01-05 05:36:43.97	279.25	43.65	-23.1	-23.4	18.1	0.00e+00	0	44	102	1048576	6	3739
2026-01-05 05:36:46.98	277.81	43.32	-23.0	-23.8	18.1	0.00e+00	0	43	102	1048576	5	3930
2026-01-05 05:36:50.00	276.39	42.96	-22.7	-22.7	18.5	0.00e+00	0	44	102	1048576	6	3575
2026-01-05 05:36:53.02	275.01	42.59	-22.7	-23.0	18.5	0.00e+00	0	43	102	1048576	5	3752
2026-01-05 05:36:56.05	273.65	42.21	-22.8	-23.2	18.4	0.00e+00	0	43	102	1048576	5	3799
2026-01-05 05:36:59.07	272.33	41.81	-23.4	-24.0	17.7	0.00e+00	0	43	102	1048576	6	3869
2026-01-05 05:37:02.07	271.05	41.40	-23.3	-23.3	17.9	0.00e+00	0	44	102	1048576	7	3618
2026-01-05 05:37:05.09	269.79	40.98	-23.3	-24.0	17.8	0.00e+00	0	43	102	1048576	6	3867
2026-01-05 05:37:08.10	268.58	40.55	-23.6	-24.1	17.5	0.00e+00	0	44	102	1048576	7	3789
2026-01-05 05:37:11.12	267.39	40.11	-23.2	-23.7	17.9	1.22e-04	0	44	102	1048576	6	3794
2026-01-05 05:37:14.14	266.23	39.66	-23.1	-23.5	18.0	7.78e-05	0	44	102	1048576	6	3749
2026-01-05 05:37:17.17	265.10	39.20	-23.4	-24.1	17.7	0.00e+00	0	43	102	1048576	6	3887
2026-01-05 05:37:20.18	264.01	38.74	-23.5	-24.3	17.6	0.00e+00	0	43	102	1048576	6	3951
2026-01-05 05:37:23.20	262.95	38.27	-23.2	-23.6	17.9	0.00e+00	0	44	102	1048576	6	3783
2026-01-05 05:37:26.23	261.91	37.80	-23.3	-23.8	17.8	0.00e+00	0	43	102	1048576	6	3840
2026-01-05 05:37:29.24	260.91	37.32	-23.2	-23.6	18.0	0.00e+00	0	44	102	1048576	6	3780
2026-01-05 05:37:32.26	259.94	36.85	-23.3	-24.0	17.7	0.00e+00	0	44	102	1048576	6	3864
2026-01-05 05:37:35.26	259.00	36.37	-23.1	-23.5	18.0	0.00e+00	0	44	102	1048576	6	3763
2026-01-05 05:37:38.28	258.08	35.89	-23.4	-24.0	17.7	0.00e+00	0	44	102	1048576	6	3879
2026-01-05 05:37:41.31	257.18	35.40	-23.3	-23.9	17.7	0.00e+00	0	44	102	1048576	6	3844
2026-01-05 05:37:44.33	256.32	34.92	-22.8	-23.2	18.2	0.00e+00	0	44	102	1048576	5	3797
2026-01-05 05:37:47.35	255.48	34.43	-23.1	-23.4	18.0	0.00e+00	0	44	102	1048576	6	3732
2026-01-05 05:37:50.36	254.67	33.95	-22.8	-22.9	18.2	0.00e+00	0	44	102	1048576	6	3621
2026-01-05 05:37:53.38	253.88	33.47	-22.7	-23.1	18.3	0.00e+00	0	44	102	1048576	5	3783
2026-01-05 05:37:56.40	253.11	32.99	-22.9	-23.5	18.2	0.00e+00	0	44	102	1048576	5	3858
2026-01-05 05:37:59.42	252.36	32.51	-22.9	-23.5	18.1	0.00e+00	0	44	102	1048576	5	3874
2026-01-05 05:38:02.44	251.64	32.04	-23.1	-23.4	17.9	0.00e+00	0	44	102	1048576	6	3751
2026-01-05 05:38:05.45	250.94	31.56	-23.1	-23.5	17.9	0.00e+00	0	44	102	1048576	6	3759
2026-01-05 05:38:08.48	250.25	31.09	-23.2	-23.6	17.7	0.00e+00	0	44	102	1048576	6	3780
2026-01-05 05:38:11.49	249.59	30.63	-23.3	-23.8	17.7	1.73e-04	0	44	102	1048576	6	3821
2026-01-05 05:38:14.52	248.95	30.16	-23.2	-23.6	17.8	2.64e-04	0	44	102	1048576	6	3780
2026-01-05 05:38:17.54	248.32	29.70	-23.3	-23.9	17.6	1.40e-03	0	43	102	1048576	6	3850
2026-01-05 05:38:20.56	247.72	29.24	-23.2	-23.7	17.8	1.90e-03	0	44	102	1048576	6	3809
2026-01-05 05:38:23.58	247.12	28.79	-23.3	-23.9	17.6	2.02e-03	0	43	102	1048576	6	3860
2026-01-05 05:38:26.60	246.55	28.34	-23.6	-24.0	17.3	2.96e-03	0	44	102	1048576	7	3779
2026-01-05 05:38:29.63	245.99	27.89	-23.5	-24.3	17.4	2.42e-03	0	44	102	1048576	6	3953
2026-01-05 05:38:32.64	245.45	27.45	-23.4	-24.2	17.4	1.74e-03	0	44	102	1048576	6	3916
2026-01-05 05:38:35.66	244.92	27.01	-23.4	-24.1	17.5	0.00e+00	0	44	102	1048576	6	3894
2026-01-05 05:38:38.69	244.41	26.58	-23.4	-24.0	17.5	0.00e+00	0	44	102	1048576	6	3882
2026-01-05 05:38:41.71	243.91	26.15	-23.4	-24.2	17.4	0.00e+00	0	44	102	1048576	6	3919
2026-01-05 05:38:44.74	243.42	25.73	-23.3	-23.9	17.5	0.00e+00	0	44	102	1048576	6	3857
2026-01-05 05:38:47.76	242.95	25.31	-23.3	-23.9	17.5	0.00e+00	0	44	102	1048576	6	3847
2026-01-05 05:38:50.77	242.49	24.89	-23.1	-23.9	17.8	0.00e+00	0	44	102	1048576	5	3969
2026-01-05 05:38:53.79	242.04	24.48	-23.5	-24.3	17.3	0.00e+00	0	44	102	1048576	6	3955
2026-01-05 05:38:56.81	241.61	24.08	-23.7	-24.2	17.1	0.00e+00	0	44	102	1048576	7	3824
2026-01-05 05:38:59.83	241.18	23.67	-23.5	-23.8	17.3	0.00e+00	0	44	102	1048576	7	3722
2026-01-05 05:39:02.84	240.77	23.28	-23.8	-24.4	17.0	0.00e+00	0	44	102	1048576	7	3870
2026-01-05 05:39:05.85	240.36	22.89	-23.7	-24.2	17.1	0.00e+00	0	43	102	1048576	7	3825
2026-01-05 05:39:08.87	239.97	22.50	-23.5	-24.3	17.2	0.00e+00	0	44	102	1048576	6	3958
2026-01-05 05:39:11.89	239.59	22.11	-23.2	-23.6	17.6	0.00e+00	0	44	102	1048576	6	3786
2026-01-05 05:39:14.91	239.21	21.73	-23.5	-24.2	17.3	0.00e+00	0	44	102	1048576	6	3936
2026-01-05 05:39:17.91	238.85	21.36	-23.7	-24.4	16.9	0.00e+00	0	44	102	1048576	7	3863
2026-01-05 05:39:20.93	238.49	20.99	-23.9	-24.8	16.7	0.00e+00	0	43	102	1048576	7	3967
2026-01-05 05:39:23.95	238.14	20.62	-24.0	-25.0	16.6	0.00e+00	0	44	102	1048576	7	4010
2026-01-05 05:39:26.97	237.80	20.26	-24.2	-24.9	16.4	9.36e-04	0	44	102	1048576	8	3871
2026-01-05 05:39:30.00	237.47	19.90	-24.3	-25.0	16.3	9.52e-04	0	44	102	1048576	8	3919
2026-01-05 05:39:33.01	237.15	19.55	-24.3	-25.0	16.3	8.08e-04	0	44	102	1048576	8	3918
2026-01-05 05:39:36.02	236.83	19.20	-24.2	-24.9	16.3	3.08e-04	0	44	102	1048576	8	3885
2026-01-05 05:39:39.04	236.52	18.85	-24.3	-24.9	16.3	1.79e-03	0	44	102	1048576	8	3898
2026-01-05 05:39:42.06	236.22	18.51	-24.0	-25.0	16.5	1.93e-04	0	44	102	1048576	7	4004
2026-01-05 05:39:45.08	235.93	18.17	-24.1	-24.5	16.5	4.57e-05	0	44	102	1048576	8	3790
2026-01-05 05:39:48.10	235.64	17.84	-24.0	-24.5	16.5	1.53e-03	0	44	102	1048576	8	3784
2026-01-05 05:39:51.12	235.36	17.50	-24.2	-24.8	16.3	1.72e-03	0	44	102	1048576	8	3876
2026-01-05 05:39:54.12	235.08	17.18	-24.5	-25.4	16.0	1.83e-03	0	44	102	1048576	8	4017
2026-01-05 05:39:57.13	234.81	16.86	-24.5	-25.5	15.9	1.69e-03	0	44	102	1048576	8	4026
2026-01-05 05:40:00.15	234.55	16.54	-24.8	-25.7	15.5	0.00e+00	0	44	102	1048576	9	3993
2026-01-05 05:40:03.17	234.29	16.22	-24.5	-25.0	15.9	1.18e-03	0	44	102	1048576	9	3797
2026-01-05 05:40:06.19	234.04	15.91	-24.5	-25.0	15.9	1.10e-03	0	44	102	1048576	9	3819
2026-01-05 05:40:09.21	233.79	15.60	-24.7	-25.5	15.7	0.00e+00	0	44	102	1048576	9	3920
2026-01-05 05:40:12.23	233.55	15.29	-24.9	-25.9	15.4	0.00e+00	0	44	102	1048576	9	4019
2026-01-05 05:40:15.24	233.31	14.99	-25.1	-25.8	15.2	0.00e+00	0	44	102	1048576	10	3892
2026-01-05 05:40:18.27	233.08	14.69	-25.2	-26.0	15.0	0.00e+00	0	44	102	1048576	10	3953
2026-01-05 05:40:21.29	232.85	14.39	-25.4	-26.6	14.7	1.10e-06	0	44	102	1048576	10	4091
2026-01-05 05:40:24.31	232.63	14.10	-25.3	-26.1	14.9	0.00e+00	0	44	102	1048576	10	3986
2026-01-05 05:40:27.33	232.41	13.81	-25.4	-26.5	14.7	1.10e-06	0	44	102	1048576	10	4074
2026-01-05 05:40:30.35	232.20	13.52	-25.4	-26.5	14.7	0.00e+00	0	44	102	1048576	10	4092
2026-01-05 05:40:33.36	231.99	13.24	-25.5	-26.7	14.6	0.00e+00	0	44	102	1048576	10	4139
2026-01-05 05:40:36.37	231.78	12.95	-25.7	-26.6	14.4	1.10e-06	0	44	102	1048576	11	3988
2026-01-05 05:40:39.39	231.58	12.68	-25.8	-26.9	14.2	4.50e-06	0	44	102	1048576	11	4074
2026-01-05 05:40:42.42	231.38	12.40	-25.8	-27.0	14.1	0.00e+00	0	44	102	1048576	11	4105
2026-01-05 05:40:45.45	231.19	12.13	-25.9	-27.1	14.0	3.40e-06	0	44	102	1048576	11	4141
2026-01-05 05:40:48.46	231.00	11.86	-25.9	-27.2	13.9	4.50e-06	0	44	102	1048576	11	4160
2026-01-05 05:40:51.47	230.81	11.59	-26.1	-27.1	13.6	9.10e-06	0	44	102	1048576	12	4051
2026-01-05 05:40:54.50	230.63	11.32	-26.1	-27.0	13.6	6.80e-06	0	44	102	1048576	12	4019
2026-01-05 05:40:57.52	230.45	11.06	-26.1	-27.1	12.8	4.83e-04	0	44	102	1048576	12	4023
2026-01-05 05:41:00.53	230.28	10.80	-26.0	-27.4	13.7	6.80e-06	0	44	102	1048576	11	4222
2026-01-05 05:41:03.55	230.10	10.54	-26.0	-27.3	13.8	8.00e-06	0	44	102	1048576	11	4185
2026-01-05 05:41:06.56	229.93	10.29	-26.0	-27.4	13.7	4.50e-06	0	44	102	1048576	11	4226
2026-01-05 05:41:09.59	229.77	10.03	-26.1	-27.0	13.5	1.74e-04	0	44	102	1048576	12	4023
2026-01-05 05:41:12.61	229.60	9.78	-26.1	-27.1	13.5	4.92e-05	0	44	102	1048576	12	4028
2026-01-05 05:41:15.64	229.44	9.53	-26.1	-27.1	13.4	2.40e-05	0	44	102	1048576	12	4038
2026-01-05 05:41:18.65	229.28	9.29	-26.2	-27.4	13.2	2.17e-05	0	44	102	1048576	12	4127
2026-01-05 05:41:21.67	229.13	9.05	-26.2	-27.4	13.2	2.40e-05	0	44	102	1048576	12	4136
2026-01-05 05:41:24.69	228.97	8.80	-26.3	-27.7	13.0	4.11e-05	0	44	102	1048576	12	4193
2026-01-05 05:41:27.72	228.82	8.56	-26.3	-27.6	13.1	3.77e-05	0	44	102	1048576	12	4180
2026-01-05 05:41:30.74	228.68	8.33	-26.4	-27.8	12.9	4.92e-05	0	44	102	1048576	12	4228
2026-01-05 05:41:33.77	228.53	8.09	-26.4	-27.8	12.9	6.29e-05	0	44	102	1048576	12	4239
2026-01-05 05:41:36.78	228.39	7.86	-26.6	-28.2	12.6	9.95e-05	0	44	102	1048576	12	4356
2026-01-05 05:41:39.81	228.25	7.62	-26.8	-28.3	12.2	2.17e-04	0	44	102	1048576	13	4270
2026-01-05 05:41:42.82	228.11	7.40	-26.8	-28.3	12.2	2.62e-04	0	44	102	1048576	13	4277
2026-01-05 05:41:45.84	227.97	7.17	-26.7	-28.1	12.4	1.74e-04	0	44	102	1048576	13	4211
2026-01-05 05:41:48.85	227.84	6.94	-32.6	-42.6	3.8	8.47e-01	0	44	104	1048576	24	11338

#Closed at: 2026-01-05 05:41:48
#Recorded file [1 MB]: D:/data/31010_260105_083019.dat