passes_logs/2026/01/05/R2M6_AANII_01/R2M6_AANII_01__20260105_020308_FENGYUN_3D_rec.log

#Pass ID: 20260105_020308_FENGYUN 3D
#Satellite: FENGYUN 3D
#Configuration: FENGYUN 3D
#almurnet v.1.7.20240730
#Start time: 2026-01-05 02:03:10

#Version: 2.2.20231116
#Station: R2M6_AANII_01
#Location: 30.233357 lon 59.946436 lat
#TLE: 1 43010U 17072A   26004.50247883 -.00000063  00000+0 -78815-5 0  9998
#TLE: 2 43010  98.9915 336.1565 0001968 126.3752 233.7605 14.19691805421760

#Time	Az	El	Level	Level2	SNR	BER	BlckErr	Temp	State	Recorded	gain1	gain2
2026-01-05 02:03:10.49	20.60	7.12	-27.6	-30.1	5.7	7.76e-01	0	41	0	0	15	4754
2026-01-05 02:03:13.51	20.68	7.35	-28.3	-31.2	10.6	1.75e-03	0	41	102	1048576	16	5005
2026-01-05 02:03:16.53	20.75	7.59	-28.6	-31.3	10.9	3.32e-03	0	41	102	1048576	17	4919
2026-01-05 02:03:19.55	20.82	7.82	-27.7	-30.0	12.2	4.27e-04	0	41	102	1048576	15	4724
2026-01-05 02:03:22.58	20.90	8.06	-27.3	-29.6	12.8	1.32e-04	0	42	102	1048576	14	4708
2026-01-05 02:03:25.60	20.97	8.30	-26.7	-29.0	13.0	1.12e-03	0	42	102	1048576	13	4686
2026-01-05 02:03:28.62	21.05	8.54	-27.1	-29.1	13.0	1.10e-03	0	42	102	1048576	14	4556
2026-01-05 02:03:31.65	21.13	8.79	-27.1	-29.1	13.2	7.70e-04	0	42	102	1048576	14	4559
2026-01-05 02:03:34.67	21.21	9.04	-26.6	-28.4	13.9	1.46e-03	0	42	102	1048576	13	4448
2026-01-05 02:03:37.69	21.29	9.29	-26.7	-28.7	13.7	1.00e-03	0	42	102	1048576	13	4528
2026-01-05 02:03:40.71	21.37	9.54	-26.4	-28.6	14.1	4.02e-04	0	42	102	1048576	12	4596
2026-01-05 02:03:43.73	21.46	9.79	-26.4	-28.4	14.2	4.87e-04	0	42	102	1048576	12	4561
2026-01-05 02:03:46.75	21.54	10.05	-26.7	-28.6	13.9	1.49e-03	0	42	102	1048576	13	4513
2026-01-05 02:03:49.76	21.62	10.31	-26.4	-28.6	14.2	4.51e-04	0	42	102	1048576	12	4601
2026-01-05 02:03:52.79	21.71	10.57	-26.4	-28.5	14.3	6.24e-04	0	42	102	1048576	12	4577
2026-01-05 02:03:55.80	21.80	10.84	-26.4	-28.5	14.3	5.73e-04	0	42	102	1048576	12	4563
2026-01-05 02:03:58.82	21.89	11.11	-26.5	-28.6	14.2	1.10e-06	0	42	102	1048576	12	4622
2026-01-05 02:04:01.85	21.98	11.38	-26.3	-28.2	14.5	6.12e-04	0	42	102	1048576	12	4488
2026-01-05 02:04:04.86	22.07	11.65	-26.2	-28.1	14.6	5.07e-04	0	42	102	1048576	12	4450
2026-01-05 02:04:07.89	22.17	11.93	-26.1	-27.8	14.7	0.00e+00	0	42	102	1048576	12	4386
2026-01-05 02:04:10.91	22.26	12.21	-26.2	-28.0	14.6	0.00e+00	0	43	102	1048576	12	4427
2026-01-05 02:04:13.93	22.36	12.49	-26.2	-28.0	14.6	3.52e-04	0	42	102	1048576	12	4436
2026-01-05 02:04:16.95	22.46	12.78	-26.1	-27.7	14.8	0.00e+00	0	42	102	1048576	12	4343
2026-01-05 02:04:19.97	22.56	13.07	-26.4	-28.4	14.4	2.20e-06	0	43	102	1048576	12	4559
2026-01-05 02:04:22.99	22.66	13.37	-26.3	-28.1	14.6	0.00e+00	0	43	102	1048576	12	4469
2026-01-05 02:04:26.01	22.76	13.66	-26.2	-27.9	14.8	1.10e-06	0	43	102	1048576	12	4396
2026-01-05 02:04:29.03	22.87	13.96	-25.9	-27.4	15.1	0.00e+00	0	43	102	1048576	12	4255
2026-01-05 02:04:32.06	22.98	14.27	-25.8	-27.6	15.4	0.00e+00	0	43	102	1048576	11	4411
2026-01-05 02:04:35.07	23.09	14.58	-25.8	-27.7	13.7	0.00e+00	0	43	102	1048576	11	4440
2026-01-05 02:04:38.09	23.20	14.89	-25.6	-27.2	15.6	5.86e-04	0	43	102	1048576	11	4300
2026-01-05 02:04:41.11	23.31	15.21	-25.5	-27.0	15.7	0.00e+00	0	43	102	1048576	11	4256
2026-01-05 02:04:44.14	23.43	15.53	-25.5	-27.3	15.9	0.00e+00	0	43	102	1048576	10	4439
2026-01-05 02:04:47.16	23.55	15.85	-25.5	-26.9	15.8	8.23e-04	0	43	102	1048576	11	4217
2026-01-05 02:04:50.19	23.67	16.18	-25.3	-27.0	14.5	7.69e-04	0	43	102	1048576	10	4355
2026-01-05 02:04:53.21	23.79	16.52	-25.1	-26.6	16.3	0.00e+00	0	43	102	1048576	10	4253
2026-01-05 02:04:56.23	23.91	16.86	-25.0	-26.2	16.5	1.43e-03	0	43	102	1048576	10	4164
2026-01-05 02:04:59.25	24.04	17.20	-24.9	-26.6	16.5	8.40e-04	0	43	102	1048576	9	4371
2026-01-05 02:05:02.27	24.17	17.55	-24.8	-26.4	16.6	9.54e-04	0	43	102	1048576	9	4312
2026-01-05 02:05:05.29	24.31	17.90	-24.7	-26.1	16.8	1.40e-03	0	43	102	1048576	9	4249
2026-01-05 02:05:08.31	24.44	18.26	-24.7	-26.1	16.8	1.32e-03	0	43	102	1048576	9	4224
2026-01-05 02:05:11.33	24.58	18.62	-24.8	-26.3	16.7	3.35e-04	0	43	102	1048576	9	4288
2026-01-05 02:05:14.35	24.72	18.99	-24.6	-26.0	16.9	2.86e-04	0	43	102	1048576	9	4216
2026-01-05 02:05:17.38	24.87	19.36	-24.6	-25.9	17.0	1.10e-03	0	43	102	1048576	9	4185
2026-01-05 02:05:20.39	25.02	19.74	-24.5	-25.6	17.2	0.00e+00	0	43	102	1048576	9	4108
2026-01-05 02:05:23.41	25.17	20.12	-24.3	-25.8	17.3	2.49e-04	0	43	102	1048576	8	4276
2026-01-05 02:05:26.42	25.32	20.51	-24.3	-25.7	17.3	2.76e-04	0	43	102	1048576	8	4248
2026-01-05 02:05:29.43	25.48	20.91	-24.3	-25.7	17.4	0.00e+00	0	43	102	1048576	8	4243
2026-01-05 02:05:32.46	25.65	21.31	-24.2	-25.5	17.5	0.00e+00	0	43	102	1048576	8	4184
2026-01-05 02:05:35.48	25.81	21.72	-24.1	-25.3	17.6	2.45e-04	0	43	102	1048576	8	4142
2026-01-05 02:05:38.50	25.99	22.14	-24.1	-25.2	17.7	0.00e+00	0	43	102	1048576	8	4120
2026-01-05 02:05:41.51	26.16	22.56	-24.0	-25.1	17.7	0.00e+00	0	43	102	1048576	8	4094
2026-01-05 02:05:44.53	26.34	22.99	-24.0	-25.1	17.8	0.00e+00	0	43	102	1048576	8	4088
2026-01-05 02:05:47.55	26.53	23.42	-23.9	-24.9	17.9	0.00e+00	0	43	102	1048576	8	4039
2026-01-05 02:05:50.57	26.72	23.87	-23.9	-25.0	17.9	0.00e+00	0	43	102	1048576	8	4049
2026-01-05 02:05:53.59	26.91	24.32	-23.9	-25.4	17.9	0.00e+00	0	43	102	1048576	7	4273
2026-01-05 02:05:56.61	27.11	24.78	-23.7	-25.0	18.1	0.00e+00	0	43	102	1048576	7	4162
2026-01-05 02:05:59.62	27.32	25.24	-23.6	-24.7	18.3	0.00e+00	0	43	102	1048576	7	4090
2026-01-05 02:06:02.65	27.53	25.72	-23.5	-24.5	18.4	0.00e+00	0	43	102	1048576	7	4050
2026-01-05 02:06:05.66	27.75	26.20	-23.5	-24.5	18.4	0.00e+00	0	43	102	1048576	7	4044
2026-01-05 02:06:08.68	27.97	26.69	-23.4	-24.4	18.5	0.00e+00	0	43	102	1048576	7	4019
2026-01-05 02:06:11.69	28.20	27.19	-23.6	-24.7	18.3	0.00e+00	0	43	102	1048576	7	4097
2026-01-05 02:06:14.71	28.44	27.69	-23.7	-24.9	18.2	0.00e+00	0	43	102	1048576	7	4142
2026-01-05 02:06:17.72	28.68	28.21	-23.7	-24.9	18.3	0.00e+00	0	43	102	1048576	7	4143
2026-01-05 02:06:20.73	28.93	28.74	-23.4	-24.4	18.5	0.00e+00	0	43	102	1048576	7	4017
2026-01-05 02:06:23.75	29.20	29.27	-23.8	-25.1	18.2	0.00e+00	0	43	102	1048576	7	4194
2026-01-05 02:06:26.75	29.46	29.82	-24.0	-25.6	17.9	0.00e+00	0	43	102	1048576	7	4318
2026-01-05 02:06:29.77	29.74	30.37	-23.8	-24.7	18.2	0.00e+00	0	43	102	1048576	8	3982
2026-01-05 02:06:32.80	30.03	30.94	-23.5	-24.1	18.5	0.00e+00	0	43	102	1048576	8	3840
2026-01-05 02:06:35.82	30.33	31.52	-23.0	-23.5	19.1	0.00e+00	0	43	102	1048576	7	3803
2026-01-05 02:06:38.84	30.64	32.11	-23.2	-24.4	18.8	0.00e+00	0	43	102	1048576	6	4122
2026-01-05 02:06:41.85	30.95	32.70	-23.5	-25.0	18.5	0.00e+00	0	43	102	1048576	6	4283
2026-01-05 02:06:44.87	31.28	33.31	-23.4	-24.3	18.7	0.00e+00	0	43	102	1048576	7	3993
2026-01-05 02:06:47.88	31.63	33.93	-23.0	-23.9	19.1	0.00e+00	0	43	102	1048576	6	4017
2026-01-05 02:06:50.89	31.98	34.56	-23.0	-24.0	19.1	0.00e+00	0	43	102	1048576	6	4030
2026-01-05 02:06:53.91	32.35	35.21	-23.0	-24.1	19.1	0.00e+00	0	43	102	1048576	6	4049
2026-01-05 02:06:56.93	32.73	35.87	-23.2	-24.4	18.9	0.00e+00	0	43	102	1048576	6	4127
2026-01-05 02:06:59.96	33.14	36.54	-23.0	-24.0	19.1	0.00e+00	0	43	102	1048576	6	4026
2026-01-05 02:07:02.97	33.55	37.22	-22.9	-23.8	19.2	0.00e+00	0	43	102	1048576	6	3991
2026-01-05 02:07:05.99	33.98	37.91	-22.8	-23.5	19.4	0.00e+00	0	43	102	1048576	6	3918
2026-01-05 02:07:09.01	34.44	38.62	-22.7	-23.4	19.4	0.00e+00	0	43	102	1048576	6	3884
2026-01-05 02:07:12.03	34.91	39.34	-23.3	-24.6	18.8	0.00e+00	0	43	102	1048576	6	4188
2026-01-05 02:07:15.06	35.40	40.08	-23.2	-24.3	19.0	0.00e+00	0	43	102	1048576	6	4106
2026-01-05 02:07:18.08	35.92	40.83	-23.2	-24.3	19.0	0.00e+00	0	43	102	1048576	6	4092
2026-01-05 02:07:21.09	36.45	41.59	-23.2	-24.3	19.0	0.00e+00	0	43	102	1048576	6	4103
2026-01-05 02:07:24.10	37.02	42.36	-23.3	-24.6	18.8	0.00e+00	0	43	102	1048576	6	4190
2026-01-05 02:07:27.13	37.61	43.15	-23.0	-24.0	19.2	0.00e+00	0	43	102	1048576	6	4035
2026-01-05 02:07:30.15	38.23	43.95	-23.2	-24.5	19.0	0.00e+00	0	43	102	1048576	6	4140
2026-01-05 02:07:33.17	38.89	44.76	-23.6	-24.8	18.0	0.00e+00	0	43	102	1048576	7	4149
2026-01-05 02:07:36.19	39.57	45.59	-23.7	-24.4	18.6	0.00e+00	0	43	102	1048576	8	3898
2026-01-05 02:07:39.21	40.30	46.43	-23.4	-23.8	18.9	0.00e+00	0	43	102	1048576	8	3757
2026-01-05 02:07:42.24	41.06	47.29	-23.6	-24.1	18.7	2.35e-04	0	43	102	1048576	8	3843
2026-01-05 02:07:45.25	41.87	48.15	-23.5	-24.1	18.7	0.00e+00	0	44	102	1048576	8	3831
2026-01-05 02:07:48.27	42.72	49.02	-23.6	-24.7	18.6	0.00e+00	0	44	102	1048576	7	4091
2026-01-05 02:07:51.29	43.62	49.91	-23.6	-24.7	18.7	7.66e-05	0	43	102	1048576	7	4094
2026-01-05 02:07:54.31	44.58	50.81	-24.1	-25.2	18.2	2.06e-04	0	44	102	1048576	8	4107
2026-01-05 02:07:57.33	45.59	51.71	-23.8	-24.5	18.5	0.00e+00	0	43	102	1048576	8	3931
2026-01-05 02:08:00.34	46.66	52.62	-24.4	-25.8	17.9	3.00e-04	0	43	102	1048576	8	4260
2026-01-05 02:08:03.36	47.81	53.54	-24.4	-25.4	17.8	1.04e-04	0	43	102	1048576	9	4049
2026-01-05 02:08:06.37	49.02	54.46	-24.4	-25.3	17.9	1.14e-05	0	43	102	1048576	9	4014
2026-01-05 02:08:09.39	50.32	55.39	-24.3	-25.7	18.0	7.80e-04	0	43	102	1048576	8	4226
2026-01-05 02:08:12.40	51.71	56.31	-24.0	-25.0	18.4	7.93e-04	0	43	102	1048576	8	4058
2026-01-05 02:08:15.42	53.19	57.24	-24.1	-25.2	18.2	3.40e-06	0	43	102	1048576	8	4096
2026-01-05 02:08:18.44	54.77	58.16	-24.2	-25.4	18.1	1.25e-04	0	43	102	1048576	8	4151
2026-01-05 02:08:21.46	56.47	59.08	-23.9	-24.9	18.4	4.12e-04	0	44	102	1048576	8	4040
2026-01-05 02:08:24.48	58.29	59.98	-23.7	-24.4	18.7	1.06e-04	0	44	102	1048576	8	3910
2026-01-05 02:08:27.51	60.24	60.87	-23.2	-23.9	19.2	4.23e-05	0	43	102	1048576	7	3889
2026-01-05 02:08:30.52	62.33	61.74	-23.0	-23.4	19.4	9.95e-05	0	43	102	1048576	7	3770
2026-01-05 02:08:33.55	64.57	62.59	-23.3	-24.1	19.1	0.00e+00	0	43	102	1048576	7	3956
2026-01-05 02:08:36.57	66.97	63.41	-22.7	-23.4	19.7	3.20e-05	0	44	102	1048576	6	3874
2026-01-05 02:08:39.60	69.55	64.20	-23.4	-24.8	19.1	0.00e+00	0	43	102	1048576	6	4213
2026-01-05 02:08:42.61	72.29	64.94	-23.1	-24.1	19.4	0.00e+00	0	44	102	1048576	6	4054
2026-01-05 02:08:45.63	75.21	65.64	-23.1	-24.2	19.3	0.00e+00	0	44	102	1048576	6	4071
2026-01-05 02:08:48.65	78.32	66.28	-23.2	-24.3	19.3	0.00e+00	0	43	102	1048576	6	4103
2026-01-05 02:08:51.68	81.61	66.86	-22.8	-23.5	19.7	0.00e+00	0	43	102	1048576	6	3915
2026-01-05 02:08:54.70	85.08	67.37	-22.6	-23.3	19.6	0.00e+00	0	44	102	1048576	6	3871
2026-01-05 02:08:57.72	88.70	67.80	-22.6	-23.7	19.7	0.00e+00	0	43	102	1048576	5	4078
2026-01-05 02:09:00.74	92.46	68.15	-22.4	-23.3	19.9	0.00e+00	0	43	102	1048576	5	3972
2026-01-05 02:09:03.76	96.34	68.41	-22.2	-22.8	20.1	1.16e-03	0	44	102	1048576	5	3872
2026-01-05 02:09:06.78	100.31	68.59	-22.0	-22.9	20.3	0.00e+00	0	43	102	1048576	4	4004
2026-01-05 02:09:09.80	104.32	68.66	-22.4	-23.7	19.9	0.00e+00	0	43	102	1048576	4	4183
2026-01-05 02:09:12.82	108.35	68.64	-22.5	-23.4	19.8	8.26e-04	0	44	102	1048576	5	4011
2026-01-05 02:09:15.84	112.35	68.52	-22.6	-23.6	19.7	6.25e-04	0	44	102	1048576	5	4062
2026-01-05 02:09:18.86	116.28	68.31	-22.4	-23.2	19.9	0.00e+00	0	43	102	1048576	5	3968
2026-01-05 02:09:21.88	120.11	68.01	-22.0	-22.7	19.9	3.43e-05	0	44	102	1048576	5	3889
2026-01-05 02:09:24.89	123.81	67.62	-22.4	-23.3	19.9	6.53e-04	0	44	102	1048576	5	3976
2026-01-05 02:09:27.91	127.37	67.15	-22.4	-23.3	19.9	2.31e-04	0	44	102	1048576	5	3994
2026-01-05 02:09:30.94	130.77	66.61	-22.5	-23.6	19.8	1.08e-03	0	44	102	1048576	5	4043
2026-01-05 02:09:33.95	133.97	66.00	-22.6	-23.6	19.7	6.16e-04	0	44	102	1048576	5	4062
2026-01-05 02:09:36.96	136.99	65.34	-23.0	-24.4	19.3	0.00e+00	0	43	102	1048576	5	4269
2026-01-05 02:09:39.99	139.85	64.62	-22.8	-24.0	19.6	0.00e+00	0	43	102	1048576	5	4159
2026-01-05 02:09:43.01	142.52	63.85	-22.8	-24.2	19.5	1.10e-03	0	44	102	1048576	5	4189
2026-01-05 02:09:46.02	145.01	63.05	-22.8	-23.6	19.5	1.04e-04	0	43	102	1048576	6	3942
2026-01-05 02:09:49.04	147.34	62.22	-23.2	-24.4	19.2	1.52e-04	0	43	102	1048576	6	4139
2026-01-05 02:09:52.06	149.52	61.36	-23.1	-24.3	19.2	2.20e-06	0	44	102	1048576	6	4110
2026-01-05 02:09:55.08	151.55	60.48	-23.4	-24.9	18.9	0.00e+00	0	43	102	1048576	6	4274
2026-01-05 02:09:58.09	153.43	59.58	-23.8	-25.1	18.6	4.50e-06	0	43	102	1048576	7	4199
2026-01-05 02:10:01.10	155.20	58.67	-23.8	-24.6	18.6	0.00e+00	0	44	102	1048576	8	3952
2026-01-05 02:10:04.12	156.85	57.75	-24.6	-25.8	17.7	0.00e+00	0	44	102	1048576	9	4168
2026-01-05 02:10:07.14	158.39	56.82	-23.9	-24.4	18.4	0.00e+00	0	44	102	1048576	9	3825
2026-01-05 02:10:10.16	159.83	55.89	-24.1	-25.4	18.1	0.00e+00	0	43	102	1048576	8	4163
2026-01-05 02:10:13.17	161.18	54.96	-24.3	-25.8	17.9	0.00e+00	0	44	102	1048576	8	4268
2026-01-05 02:10:16.19	162.44	54.03	-24.1	-24.7	18.2	0.00e+00	0	43	102	1048576	9	3883
2026-01-05 02:10:19.22	163.64	53.10	-24.4	-25.9	17.8	0.00e+00	0	43	102	1048576	8	4310
2026-01-05 02:10:22.24	164.75	52.18	-23.9	-24.9	18.3	0.00e+00	0	44	102	1048576	8	4037
2026-01-05 02:10:25.26	165.80	51.27	-23.9	-24.9	18.3	0.00e+00	0	43	102	1048576	8	4032
2026-01-05 02:10:28.28	166.79	50.37	-23.9	-24.9	18.3	0.00e+00	0	44	102	1048576	8	4036
2026-01-05 02:10:31.31	167.72	49.47	-23.7	-24.4	18.5	0.00e+00	0	44	102	1048576	8	3916
2026-01-05 02:10:34.32	168.60	48.58	-23.2	-23.9	19.0	0.00e+00	0	43	102	1048576	7	3904
2026-01-05 02:10:37.34	169.43	47.71	-23.7	-25.1	18.4	0.00e+00	0	44	102	1048576	7	4200
2026-01-05 02:10:40.36	170.22	46.85	-23.4	-24.3	18.8	0.00e+00	0	43	102	1048576	7	4003
2026-01-05 02:10:43.38	170.97	46.00	-23.2	-24.1	18.8	0.00e+00	0	44	102	1048576	7	3950
2026-01-05 02:10:46.41	171.68	45.16	-23.2	-23.9	18.9	0.00e+00	0	44	102	1048576	7	3923
2026-01-05 02:10:49.42	172.35	44.33	-23.2	-24.0	18.8	0.00e+00	0	44	102	1048576	7	3932
2026-01-05 02:10:52.44	172.99	43.52	-23.1	-23.7	19.0	0.00e+00	0	44	102	1048576	7	3855
2026-01-05 02:10:55.46	173.59	42.72	-22.9	-23.3	19.2	1.10e-06	0	44	102	1048576	7	3762
2026-01-05 02:10:58.49	174.18	41.93	-22.8	-23.7	19.2	0.00e+00	0	44	102	1048576	6	3970
2026-01-05 02:11:01.51	174.73	41.16	-22.9	-23.8	19.2	0.00e+00	0	44	102	1048576	6	3985
2026-01-05 02:11:04.52	175.26	40.41	-22.7	-23.4	19.4	0.00e+00	0	44	102	1048576	6	3903
2026-01-05 02:11:07.53	175.76	39.66	-22.9	-23.8	19.1	0.00e+00	0	43	102	1048576	6	4011
2026-01-05 02:11:10.56	176.24	38.93	-22.9	-23.7	19.2	0.00e+00	0	44	102	1048576	6	3980
2026-01-05 02:11:13.57	176.70	38.21	-23.0	-24.0	19.0	0.00e+00	0	43	102	1048576	6	4061
2026-01-05 02:11:16.59	177.15	37.51	-23.1	-24.2	18.9	2.20e-06	0	43	102	1048576	6	4106
2026-01-05 02:11:19.60	177.57	36.82	-23.4	-25.0	18.5	0.00e+00	0	44	102	1048576	6	4299
2026-01-05 02:11:22.61	177.98	36.14	-22.9	-23.4	19.0	0.00e+00	0	44	102	1048576	7	3798
2026-01-05 02:11:25.64	178.37	35.47	-22.7	-23.5	19.2	0.00e+00	0	44	102	1048576	6	3924
2026-01-05 02:11:28.65	178.75	34.82	-22.9	-23.8	19.1	3.40e-06	0	44	102	1048576	6	4004
2026-01-05 02:11:31.66	179.11	34.18	-23.0	-24.1	19.0	0.00e+00	0	44	102	1048576	6	4071
2026-01-05 02:11:34.68	179.46	33.55	-23.0	-24.0	18.9	2.20e-06	0	43	102	1048576	6	4058
2026-01-05 02:11:37.69	179.79	32.93	-23.1	-24.2	18.9	1.10e-06	0	44	102	1048576	6	4093
2026-01-05 02:11:40.72	180.12	32.32	-23.2	-24.5	18.7	0.00e+00	0	44	102	1048576	6	4178
2026-01-05 02:11:43.74	180.43	31.72	-23.4	-24.8	18.5	0.00e+00	0	44	102	1048576	6	4273
2026-01-05 02:11:46.76	180.74	31.14	-23.1	-24.3	17.6	0.00e+00	0	44	102	1048576	7	4150
2026-01-05 02:11:49.78	181.03	30.56	-23.5	-24.7	18.1	6.48e-04	0	44	102	1048576	7	4105
2026-01-05 02:11:52.80	181.31	30.00	-23.4	-24.5	18.4	0.00e+00	0	44	102	1048576	7	4051
2026-01-05 02:11:55.82	181.58	29.44	-23.2	-24.0	18.7	0.00e+00	0	44	102	1048576	7	3943
2026-01-05 02:11:58.84	181.85	28.90	-23.2	-24.4	18.7	7.33e-04	0	44	102	1048576	6	4154
2026-01-05 02:12:01.85	182.10	28.37	-23.4	-24.3	18.5	6.79e-04	0	44	102	1048576	7	4019
2026-01-05 02:12:04.88	182.35	27.84	-23.3	-24.3	18.5	0.00e+00	0	44	102	1048576	7	4012
2026-01-05 02:12:07.90	182.59	27.32	-23.3	-24.7	18.5	7.61e-04	0	44	102	1048576	6	4235
2026-01-05 02:12:10.92	182.83	26.82	-23.7	-25.0	18.1	7.16e-04	0	43	102	1048576	7	4182
2026-01-05 02:12:13.95	183.05	26.32	-23.3	-24.2	18.5	0.00e+00	0	44	102	1048576	7	4000
2026-01-05 02:12:16.96	183.27	25.83	-23.5	-24.7	18.3	7.08e-04	0	44	102	1048576	7	4103
2026-01-05 02:12:19.98	183.49	25.35	-23.6	-24.9	18.1	6.67e-04	0	43	102	1048576	7	4161
2026-01-05 02:12:23.00	183.69	24.88	-23.8	-25.3	17.9	1.59e-04	0	44	102	1048576	7	4283
2026-01-05 02:12:26.00	183.89	24.42	-23.9	-25.6	17.8	0.00e+00	0	44	102	1048576	7	4346
2026-01-05 02:12:29.02	184.09	23.96	-24.3	-25.9	17.4	9.83e-04	0	44	102	1048576	8	4307
2026-01-05 02:12:32.04	184.28	23.51	-24.2	-25.6	17.5	2.01e-04	0	44	102	1048576	8	4234
2026-01-05 02:12:35.06	184.47	23.07	-24.3	-25.8	17.4	1.88e-04	0	44	102	1048576	8	4287
2026-01-05 02:12:38.07	184.65	22.64	-24.1	-25.4	17.6	0.00e+00	0	43	102	1048576	8	4168
2026-01-05 02:12:41.10	184.83	22.21	-24.2	-25.6	17.5	1.70e-04	0	44	102	1048576	8	4237
2026-01-05 02:12:44.11	185.00	21.79	-24.1	-25.5	17.5	1.35e-04	0	44	102	1048576	8	4190
2026-01-05 02:12:47.14	185.17	21.37	-24.2	-25.6	17.5	0.00e+00	0	44	102	1048576	8	4222
2026-01-05 02:12:50.17	185.33	20.96	-24.1	-25.5	17.5	1.34e-04	0	43	102	1048576	8	4204
2026-01-05 02:12:53.20	185.49	20.56	-24.2	-25.7	17.4	1.68e-04	0	44	102	1048576	8	4260
2026-01-05 02:12:56.22	185.65	20.17	-24.4	-26.1	17.2	0.00e+00	0	43	102	1048576	8	4375
2026-01-05 02:12:59.23	185.80	19.78	-24.6	-26.0	17.0	0.00e+00	0	44	102	1048576	9	4234
2026-01-05 02:13:02.24	185.95	19.40	-24.8	-26.5	16.7	2.14e-04	0	44	102	1048576	9	4358
2026-01-05 02:13:05.27	186.09	19.02	-24.7	-26.3	16.8	0.00e+00	0	44	102	1048576	9	4308
2026-01-05 02:13:08.29	186.23	18.64	-24.7	-26.3	14.5	0.00e+00	0	44	102	1048576	9	4306
2026-01-05 02:13:11.31	186.37	18.28	-24.9	-26.7	16.5	6.13e-04	0	44	102	1048576	9	4408
2026-01-05 02:13:14.33	186.51	17.92	-24.8	-26.3	16.8	0.00e+00	0	43	102	1048576	9	4306
2026-01-05 02:13:17.35	186.64	17.56	-24.9	-26.6	16.6	0.00e+00	0	44	102	1048576	9	4389
2026-01-05 02:13:20.36	186.77	17.21	-24.9	-26.2	16.6	4.03e-04	0	44	102	1048576	10	4153
2026-01-05 02:13:23.39	186.90	16.86	-25.1	-26.5	16.4	4.06e-04	0	44	102	1048576	10	4234
2026-01-05 02:13:26.40	187.02	16.52	-25.0	-26.3	16.5	0.00e+00	0	43	102	1048576	10	4194
2026-01-05 02:13:29.42	187.14	16.18	-25.2	-26.7	16.3	3.56e-04	0	44	102	1048576	10	4288
2026-01-05 02:13:32.44	187.26	15.85	-25.5	-27.3	15.9	3.22e-04	0	44	102	1048576	10	4463
2026-01-05 02:13:35.47	187.38	15.52	-25.6	-27.1	15.7	4.35e-04	0	43	102	1048576	11	4280
2026-01-05 02:13:38.49	187.50	15.20	-25.8	-27.6	15.5	5.05e-04	0	44	102	1048576	11	4424
2026-01-05 02:13:41.49	187.61	14.88	-25.6	-27.3	14.8	5.10e-04	0	44	102	1048576	12	4380
2026-01-05 02:13:44.51	187.72	14.56	-25.9	-27.3	15.2	5.73e-04	0	44	102	1048576	12	4239
2026-01-05 02:13:47.53	187.83	14.25	-25.7	-27.3	15.6	0.00e+00	0	44	102	1048576	11	4348
2026-01-05 02:13:50.55	187.93	13.94	-25.9	-27.8	15.3	8.01e-04	0	44	102	1048576	11	4486
2026-01-05 02:13:53.57	188.04	13.64	-25.8	-27.7	15.4	2.47e-04	0	44	102	1048576	11	4454
2026-01-05 02:13:56.59	188.14	13.34	-25.9	-27.9	15.2	2.55e-04	0	44	102	1048576	11	4527
2026-01-05 02:13:59.60	188.24	13.04	-26.1	-27.9	14.9	0.00e+00	0	44	102	1048576	12	4394
2026-01-05 02:14:02.63	188.34	12.75	-26.3	-28.2	14.7	3.10e-04	0	44	102	1048576	12	4502
2026-01-05 02:14:05.65	188.44	12.46	-26.1	-27.8	14.9	3.23e-04	0	44	102	1048576	12	4388
2026-01-05 02:14:08.67	188.53	12.17	-26.0	-27.6	15.0	3.11e-04	0	44	102	1048576	12	4308
2026-01-05 02:14:11.69	188.63	11.89	-26.0	-27.6	15.0	3.10e-04	0	44	102	1048576	12	4323
2026-01-05 02:14:14.71	188.72	11.61	-26.0	-27.6	15.0	3.38e-04	0	44	102	1048576	12	4324
2026-01-05 02:14:17.74	188.81	11.33	-26.1	-27.7	14.8	0.00e+00	0	44	102	1048576	12	4349
2026-01-05 02:14:20.75	188.90	11.06	-26.2	-28.0	14.7	1.10e-06	0	44	102	1048576	12	4423
2026-01-05 02:14:23.76	188.99	10.79	-26.3	-28.2	14.6	3.33e-04	0	44	102	1048576	12	4487
2026-01-05 02:14:26.78	189.07	10.52	-26.5	-28.2	14.3	9.10e-06	0	44	102	1048576	13	4390
2026-01-05 02:14:29.81	189.16	10.26	-26.9	-29.1	13.7	6.80e-06	0	44	102	1048576	13	4648
2026-01-05 02:14:32.83	189.24	9.99	-27.0	-29.0	13.5	1.83e-05	0	44	102	1048576	14	4493
2026-01-05 02:14:35.85	189.32	9.73	-27.4	-29.7	13.0	4.80e-05	0	44	102	1048576	14	4729
2026-01-05 02:14:38.86	189.40	9.48	-27.3	-29.2	13.1	1.01e-04	0	44	102	1048576	15	4447
2026-01-05 02:14:41.88	189.48	9.22	-27.1	-29.1	13.4	2.74e-05	0	44	102	1048576	14	4529
2026-01-05 02:14:44.89	189.56	8.97	-27.1	-29.0	13.4	3.66e-05	0	44	102	1048576	14	4514
2026-01-05 02:14:47.91	189.64	8.72	-27.1	-29.1	13.3	3.31e-05	0	43	102	1048576	14	4552
2026-01-05 02:14:50.93	189.71	8.48	-27.3	-29.6	13.0	5.49e-05	0	44	102	1048576	14	4707
2026-01-05 02:14:53.94	189.79	8.23	-27.3	-29.6	13.1	5.83e-05	0	44	102	1048576	14	4683
2026-01-05 02:14:56.97	189.86	7.99	-27.0	-29.0	13.4	2.97e-05	0	44	102	1048576	14	4505
2026-01-05 02:14:59.99	189.94	7.75	-27.1	-29.2	13.3	3.31e-05	0	44	102	1048576	14	4557
2026-01-05 02:15:03.00	190.01	7.51	-26.9	-29.3	13.4	2.17e-05	0	44	102	1048576	13	4721
2026-01-05 02:15:06.01	190.08	7.28	-26.7	-28.8	13.7	1.14e-05	0	44	102	1048576	13	4574
2026-01-05 02:15:09.03	190.15	7.04	-32.6	-43.7	3.8	8.45e-01	0	44	104	1048576	25	12861

#Closed at: 2026-01-05 02:15:12
#Recorded file [1 MB]: D:/data/31010_260105_050312.dat