passes_logs/2026/01/05/R2M6_AANII_01/R2M6_AANII_01__20260105_102531_NOAA_21_JPSS-2_rec.log

#Pass ID: 20260105_102531_NOAA 21 (JPSS-2)
#Satellite: NOAA 21 (JPSS-2)
#Configuration: NOAA 21
#almurnet v.1.7.20240730
#Start time: 2026-01-05 10:27:23

#Version: 2.2.20231116
#Station: R2M6_AANII_01
#Location: 30.233357 lon 59.946436 lat
#TLE: 1 54234U 22150A   26004.22845673  .00000174  00000+0  10347-3 0  9996
#TLE: 2 54234  98.7489 305.2591 0001115 345.0884  15.0259 14.19531906163281

#Time	Az	El	Level	Level2	SNR	BER	BlckErr	Temp	State	Recorded	gain1	gain2
2026-01-05 10:27:23.94	165.07	17.74	-32.5	-43.6	3.8	8.45e-01	0	43	0	0	24	12871
2026-01-05 10:27:26.95	165.13	18.10	-33.5	-44.9	3.8	1.49e+00	0	43	104	0	28	13333
2026-01-05 10:27:29.98	165.19	18.47	-33.6	-45.1	3.8	1.49e+00	0	44	104	0	28	13468
2026-01-05 10:27:33.00	165.25	18.85	-33.7	-45.2	3.8	1.49e+00	0	43	104	0	28	13530
2026-01-05 10:27:36.02	165.31	19.23	-33.6	-45.1	3.8	1.49e+00	0	43	104	0	28	13462
2026-01-05 10:27:39.04	165.37	19.62	-33.6	-45.0	3.8	1.49e+00	0	44	104	0	28	13419
2026-01-05 10:27:42.07	165.43	20.01	-33.6	-45.1	3.8	1.49e+00	0	43	104	0	28	13445
2026-01-05 10:27:45.09	165.50	20.41	-33.6	-45.1	3.8	1.49e+00	0	44	104	0	28	13465
2026-01-05 10:27:48.11	165.56	20.81	-33.5	-44.9	3.8	1.49e+00	0	43	104	0	28	13347
2026-01-05 10:27:51.12	165.63	21.23	-33.4	-44.6	3.8	1.49e+00	0	43	104	0	28	13162
2026-01-05 10:27:54.15	165.70	21.65	-33.3	-45.1	3.8	1.49e+00	0	43	104	0	27	13869
2026-01-05 10:27:57.17	165.77	22.07	-32.9	-42.5	3.8	1.49e+00	0	44	104	0	27	10786
2026-01-05 10:28:00.19	165.85	22.50	-33.0	-43.4	3.8	1.49e+00	0	44	104	0	27	11886
2026-01-05 10:28:03.21	165.92	22.95	-32.9	-42.8	3.8	1.49e+00	0	43	104	0	27	11247
2026-01-05 10:28:06.23	166.00	23.39	-33.0	-43.5	3.8	1.49e+00	0	43	104	0	27	12091
2026-01-05 10:28:09.25	166.08	23.85	-32.6	-40.4	4.4	1.44e+00	0	44	104	0	26	8783
2026-01-05 10:28:12.27	166.16	24.31	-32.0	-37.6	5.9	3.87e-01	0	44	102	1048576	25	6813
2026-01-05 10:28:15.29	166.24	24.79	-30.9	-34.4	8.7	5.51e-02	0	44	102	1048576	23	5351
2026-01-05 10:28:18.31	166.33	25.27	-29.3	-31.7	12.0	3.65e-04	0	44	102	1048576	19	4737
2026-01-05 10:28:21.33	166.41	25.76	-29.7	-32.2	11.2	1.65e-03	0	44	102	1048576	20	4826
2026-01-05 10:28:24.35	166.50	26.26	-29.5	-31.9	11.5	6.93e-04	0	44	102	1048576	20	4698
2026-01-05 10:28:27.37	166.59	26.76	-29.7	-32.2	11.3	1.86e-03	0	44	102	1048576	20	4801
2026-01-05 10:28:30.40	166.69	27.28	-28.1	-29.7	13.8	9.10e-06	0	43	102	1048576	17	4338
2026-01-05 10:28:33.42	166.79	27.81	-27.3	-28.4	14.8	0.00e+00	0	44	102	1048576	16	4063
2026-01-05 10:28:36.43	166.89	28.35	-26.9	-27.8	15.3	0.00e+00	0	44	102	1048576	15	4029
2026-01-05 10:28:39.45	166.99	28.90	-26.9	-27.8	15.3	0.00e+00	0	43	102	1048576	15	4018
2026-01-05 10:28:42.47	167.10	29.46	-26.7	-27.9	15.5	0.00e+00	0	44	102	1048576	14	4152
2026-01-05 10:28:45.49	167.21	30.03	-26.6	-27.8	15.6	0.00e+00	0	44	102	1048576	14	4115
2026-01-05 10:28:48.52	167.32	30.61	-26.5	-27.5	15.8	0.00e+00	0	44	102	1048576	14	4036
2026-01-05 10:28:51.53	167.44	31.20	-26.6	-27.6	15.7	7.00e-07	0	44	102	1048576	14	4074
2026-01-05 10:28:54.54	167.56	31.81	-26.6	-27.8	15.6	0.00e+00	0	44	102	1048576	14	4112
2026-01-05 10:28:57.56	167.69	32.43	-26.5	-27.6	15.8	0.00e+00	0	43	102	1048576	14	4061
2026-01-05 10:29:00.58	167.82	33.06	-26.6	-27.7	15.7	0.00e+00	0	43	102	1048576	14	4103
2026-01-05 10:29:03.60	167.96	33.70	-26.6	-27.7	15.7	0.00e+00	0	43	102	1048576	14	4102
2026-01-05 10:29:06.62	168.10	34.36	-27.0	-28.5	15.3	0.00e+00	0	43	102	1048576	14	4315
2026-01-05 10:29:09.64	168.24	35.03	-27.3	-29.3	14.9	0.00e+00	0	44	102	1048576	14	4527
2026-01-05 10:29:12.67	168.40	35.72	-27.5	-29.7	14.6	0.00e+00	0	43	102	1048576	14	4649
2026-01-05 10:29:15.69	168.56	36.43	-27.4	-29.4	14.8	0.00e+00	0	44	102	1048576	14	4573
2026-01-05 10:29:18.70	168.72	37.14	-27.9	-30.3	14.0	7.00e-07	0	44	102	1048576	15	4714
2026-01-05 10:29:21.73	168.89	37.88	-28.4	-30.8	13.6	1.14e-05	0	43	102	1048576	16	4769
2026-01-05 10:29:24.74	169.07	38.62	-28.3	-30.5	13.7	6.10e-06	0	43	102	1048576	16	4675
2026-01-05 10:29:27.77	169.26	39.39	-28.1	-30.1	13.9	5.30e-06	0	44	102	1048576	16	4553
2026-01-05 10:29:30.79	169.45	40.17	-27.9	-29.7	14.2	2.20e-06	0	43	102	1048576	16	4410
2026-01-05 10:29:33.81	169.66	40.97	-28.0	-29.8	14.2	0.00e+00	0	43	102	1048576	16	4454
2026-01-05 10:29:36.83	169.88	41.79	-28.3	-30.5	13.7	4.50e-06	0	44	102	1048576	16	4662
2026-01-05 10:29:39.86	170.10	42.63	-28.8	-31.2	13.0	2.28e-05	0	43	102	1048576	17	4785
2026-01-05 10:29:42.88	170.34	43.48	-29.2	-31.9	12.3	1.35e-04	0	44	102	1048576	18	4894
2026-01-05 10:29:45.90	170.59	44.36	-29.1	-31.6	12.6	8.23e-05	0	43	102	1048576	18	4783
2026-01-05 10:29:48.93	170.85	45.25	-29.1	-31.5	12.6	1.07e-04	0	44	102	1048576	18	4759
2026-01-05 10:29:51.95	171.13	46.16	-29.6	-32.3	11.8	4.76e-04	0	43	102	1048576	19	4926
2026-01-05 10:29:54.98	171.43	47.10	-29.5	-32.1	11.9	4.13e-04	0	44	102	1048576	19	4879
2026-01-05 10:29:58.00	171.74	48.05	-29.1	-31.0	12.7	6.86e-05	0	43	102	1048576	19	4490
2026-01-05 10:30:01.02	172.07	49.02	-28.8	-30.8	13.1	1.83e-05	0	44	102	1048576	18	4541
2026-01-05 10:30:04.04	172.43	50.02	-28.5	-30.0	13.6	9.10e-06	0	43	102	1048576	18	4282
2026-01-05 10:30:07.07	172.80	51.04	-28.2	-29.9	14.0	7.00e-07	0	43	102	1048576	17	4352
2026-01-05 10:30:10.09	173.20	52.07	-28.0	-29.4	14.2	3.80e-06	0	44	102	1048576	17	4222
2026-01-05 10:30:13.11	173.64	53.13	-27.4	-28.5	15.1	7.00e-07	0	43	102	1048576	16	4061
2026-01-05 10:30:16.13	174.10	54.21	-26.7	-28.0	15.7	0.00e+00	0	43	102	1048576	14	4153
2026-01-05 10:30:19.15	174.60	55.31	-26.5	-27.6	16.0	0.00e+00	0	43	102	1048576	14	4043
2026-01-05 10:30:22.18	175.13	56.43	-26.6	-27.6	15.9	0.00e+00	0	44	102	1048576	14	4064
2026-01-05 10:30:25.21	175.72	57.57	-26.7	-28.0	15.8	0.00e+00	0	44	102	1048576	14	4156
2026-01-05 10:30:28.23	176.35	58.73	-26.0	-26.9	16.6	0.00e+00	0	43	102	1048576	13	3976
2026-01-05 10:30:31.26	177.05	59.91	-26.1	-27.1	16.5	0.00e+00	0	43	102	1048576	13	4043
2026-01-05 10:30:34.28	177.80	61.11	-25.7	-26.6	17.0	0.00e+00	0	43	102	1048576	12	4006
2026-01-05 10:30:37.30	178.63	62.33	-25.5	-26.1	17.3	0.00e+00	0	43	102	1048576	12	3889
2026-01-05 10:30:40.32	179.55	63.56	-25.4	-26.5	17.5	0.00e+00	0	43	102	1048576	11	4071
2026-01-05 10:30:43.34	180.57	64.81	-25.1	-25.8	17.8	0.00e+00	0	43	102	1048576	11	3919
2026-01-05 10:30:46.37	181.72	66.07	-25.5	-26.6	17.4	7.00e-07	0	43	102	1048576	11	4118
2026-01-05 10:30:49.39	182.99	67.34	-25.6	-27.0	17.3	3.00e-06	0	43	102	1048576	11	4203
2026-01-05 10:30:52.41	184.44	68.62	-25.9	-27.5	16.9	3.80e-06	0	44	102	1048576	11	4354
2026-01-05 10:30:55.43	186.08	69.90	-25.5	-26.2	17.3	5.30e-06	0	44	102	1048576	12	3905
2026-01-05 10:30:58.45	187.96	71.18	-25.0	-25.7	17.9	0.00e+00	0	43	102	1048576	11	3880
2026-01-05 10:31:01.46	190.12	72.45	-25.4	-26.5	17.5	4.50e-06	0	43	102	1048576	11	4093
2026-01-05 10:31:04.48	192.64	73.71	-25.2	-26.0	17.8	0.00e+00	0	44	102	1048576	11	3950
2026-01-05 10:31:07.50	195.61	74.95	-25.4	-26.6	17.3	7.60e-06	0	43	102	1048576	11	4114
2026-01-05 10:31:10.51	199.10	76.15	-25.1	-25.8	17.9	0.00e+00	0	43	102	1048576	11	3901
2026-01-05 10:31:13.53	203.28	77.30	-25.5	-26.7	17.4	0.00e+00	0	43	102	1048576	11	4121
2026-01-05 10:31:16.54	208.26	78.39	-25.0	-25.6	18.0	0.00e+00	0	43	102	1048576	11	3847
2026-01-05 10:31:19.57	214.29	79.38	-25.4	-26.5	17.5	0.00e+00	0	43	102	1048576	11	4080
2026-01-05 10:31:22.59	221.46	80.23	-25.1	-25.9	17.7	0.00e+00	0	43	102	1048576	11	3934
2026-01-05 10:31:25.61	229.87	80.91	-25.4	-26.5	17.6	0.00e+00	0	43	102	1048576	11	4091
2026-01-05 10:31:28.63	239.41	81.38	-25.7	-27.2	17.2	0.00e+00	0	43	102	1048576	11	4266
2026-01-05 10:31:31.65	249.73	81.58	-25.8	-27.2	17.2	0.00e+00	0	43	102	1048576	11	4267
2026-01-05 10:31:34.67	260.21	81.51	-24.9	-25.4	18.1	0.00e+00	0	43	102	1048576	11	3811
2026-01-05 10:31:37.69	270.18	81.16	-25.4	-26.4	17.6	0.00e+00	0	43	102	1048576	11	4056
2026-01-05 10:31:40.70	279.13	80.58	-25.6	-26.4	17.2	0.00e+00	0	43	102	1048576	12	3958
2026-01-05 10:31:43.73	286.91	79.80	-25.9	-27.7	16.9	0.00e+00	0	43	102	1048576	11	4398
2026-01-05 10:31:46.75	293.45	78.88	-24.7	-25.4	18.3	0.00e+00	0	43	102	1048576	10	3916
2026-01-05 10:31:49.77	298.91	77.83	-24.7	-25.4	18.2	0.00e+00	0	43	102	1048576	10	3923
2026-01-05 10:31:52.79	303.46	76.71	-24.8	-25.6	18.1	0.00e+00	0	43	102	1048576	10	3980
2026-01-05 10:31:55.81	307.26	75.53	-25.6	-26.9	17.2	0.00e+00	0	43	102	1048576	11	4201
2026-01-05 10:31:58.83	310.46	74.31	-25.4	-26.6	17.3	0.00e+00	0	43	102	1048576	11	4121
2026-01-05 10:32:01.85	313.18	73.06	-25.3	-26.2	17.6	0.00e+00	0	43	102	1048576	11	4006
2026-01-05 10:32:04.87	315.51	71.79	-25.0	-26.1	17.9	0.00e+00	0	43	102	1048576	10	4081
2026-01-05 10:32:07.89	317.52	70.51	-25.6	-27.0	17.1	0.00e+00	0	44	102	1048576	11	4229
2026-01-05 10:32:10.91	319.26	69.24	-25.2	-26.2	17.4	0.00e+00	0	44	102	1048576	11	4005
2026-01-05 10:32:13.94	320.80	67.96	-26.4	-28.3	16.0	0.00e+00	0	43	102	1048576	12	4475
2026-01-05 10:32:16.95	322.15	66.69	-26.6	-28.2	15.7	0.00e+00	0	43	102	1048576	13	4331
2026-01-05 10:32:19.96	323.34	65.43	-26.5	-28.0	15.9	0.00e+00	0	44	102	1048576	13	4271
2026-01-05 10:32:22.97	324.42	64.19	-28.2	-30.4	13.8	3.00e-06	0	43	102	1048576	16	4652
2026-01-05 10:32:25.99	325.38	62.95	-25.6	-26.4	17.0	0.00e+00	0	44	102	1048576	12	3956
2026-01-05 10:32:28.99	326.25	61.74	-25.8	-27.4	16.8	0.00e+00	0	43	102	1048576	11	4313
2026-01-05 10:32:32.02	327.04	60.53	-27.5	-29.2	14.5	1.50e-06	0	43	102	1048576	15	4403
2026-01-05 10:32:35.04	327.76	59.35	-26.7	-28.0	15.6	0.00e+00	0	43	102	1048576	14	4153
2026-01-05 10:32:38.06	328.42	58.18	-27.3	-29.2	14.9	0.00e+00	0	43	102	1048576	14	4513
2026-01-05 10:32:41.08	329.03	57.04	-29.4	-32.3	12.0	1.88e-04	0	43	102	1048576	18	5066
2026-01-05 10:32:44.10	329.59	55.91	-27.4	-28.4	14.9	7.00e-07	0	43	102	1048576	16	4053
2026-01-05 10:32:47.12	330.11	54.81	-26.8	-28.6	15.3	0.00e+00	0	43	102	1048576	13	4436
2026-01-05 10:32:50.14	330.59	53.72	-28.2	-30.3	13.8	6.10e-06	0	43	102	1048576	16	4608
2026-01-05 10:32:53.16	331.04	52.66	-29.2	-31.8	12.3	1.27e-04	0	43	102	1048576	18	4875
2026-01-05 10:32:56.19	331.45	51.61	-28.0	-29.4	14.0	4.50e-06	0	43	102	1048576	17	4236
2026-01-05 10:32:59.21	331.84	50.59	-28.9	-31.6	12.7	7.85e-05	0	44	102	1048576	17	4904
2026-01-05 10:33:02.23	332.21	49.59	-29.3	-31.5	12.1	3.15e-04	0	43	102	1048576	19	4666
2026-01-05 10:33:05.25	332.55	48.61	-28.5	-30.0	13.4	3.05e-05	0	43	102	1048576	18	4306
2026-01-05 10:33:08.27	332.87	47.65	-28.6	-30.3	13.2	2.28e-05	0	43	102	1048576	18	4388
2026-01-05 10:33:11.29	333.18	46.72	-27.7	-29.3	14.4	3.00e-06	0	43	102	1048576	16	4297
2026-01-05 10:33:14.31	333.46	45.80	-28.9	-31.6	12.7	2.97e-05	0	44	102	1048576	17	4911
2026-01-05 10:33:17.34	333.74	44.89	-29.9	-33.4	10.9	1.87e-03	0	43	102	1048576	19	5378
2026-01-05 10:33:20.36	333.99	44.02	-29.5	-32.2	11.6	7.21e-04	0	43	102	1048576	19	4909
2026-01-05 10:33:23.37	334.24	43.16	-29.1	-31.0	12.4	1.68e-04	0	43	102	1048576	19	4504
2026-01-05 10:33:26.39	334.47	42.32	-28.4	-29.9	13.3	2.74e-05	0	44	102	1048576	18	4275
2026-01-05 10:33:29.41	334.69	41.49	-28.2	-29.8	13.5	4.50e-06	0	43	102	1048576	17	4348
2026-01-05 10:33:32.44	334.90	40.68	-28.8	-31.4	12.7	6.33e-05	0	44	102	1048576	17	4855
2026-01-05 10:33:35.46	335.10	39.90	-28.8	-31.5	12.6	7.47e-05	0	44	102	1048576	17	4877
2026-01-05 10:33:38.48	335.30	39.13	-28.4	-30.3	13.3	1.67e-05	0	44	102	1048576	17	4508
2026-01-05 10:33:41.50	335.48	38.37	-28.3	-30.1	13.6	7.60e-06	0	44	102	1048576	17	4429
2026-01-05 10:33:44.52	335.66	37.63	-28.0	-29.4	13.9	2.20e-06	0	43	102	1048576	17	4248
2026-01-05 10:33:47.54	335.83	36.91	-28.3	-30.3	13.3	2.67e-05	0	43	102	1048576	17	4507
2026-01-05 10:33:50.55	335.99	36.21	-27.5	-28.8	14.5	0.00e+00	0	43	102	1048576	16	4165
2026-01-05 10:33:53.58	336.15	35.51	-27.9	-29.6	14.0	7.00e-07	0	43	102	1048576	16	4412
2026-01-05 10:33:56.60	336.30	34.83	-27.9	-29.8	14.0	3.00e-06	0	43	102	1048576	16	4451
2026-01-05 10:33:59.61	336.44	34.17	-27.8	-29.5	14.2	7.00e-07	0	43	102	1048576	16	4372
2026-01-05 10:34:02.63	336.58	33.52	-27.5	-28.8	14.5	1.50e-06	0	43	102	1048576	16	4180
2026-01-05 10:34:05.66	336.71	32.88	-27.2	-28.7	14.7	0.00e+00	0	44	102	1048576	15	4255
2026-01-05 10:34:08.67	336.84	32.26	-27.3	-28.9	14.6	0.00e+00	0	43	102	1048576	15	4316
2026-01-05 10:34:11.69	336.97	31.65	-26.7	-27.9	15.4	0.00e+00	0	43	102	1048576	14	4155
2026-01-05 10:34:14.72	337.09	31.05	-26.6	-27.8	15.5	0.00e+00	0	43	102	1048576	14	4108
2026-01-05 10:34:17.73	337.21	30.47	-26.6	-27.8	15.5	0.00e+00	0	43	102	1048576	14	4113
2026-01-05 10:34:20.75	337.32	29.90	-26.3	-27.6	15.8	0.00e+00	0	43	102	1048576	13	4174
2026-01-05 10:34:23.77	337.43	29.33	-26.9	-29.0	15.0	0.00e+00	0	43	102	1048576	13	4566
2026-01-05 10:34:26.78	337.54	28.78	-27.2	-29.1	14.7	7.00e-07	0	43	102	1048576	14	4502
2026-01-05 10:34:29.80	337.64	28.24	-26.9	-28.6	14.9	7.00e-07	0	44	102	1048576	14	4344
2026-01-05 10:34:32.82	337.74	27.71	-26.9	-28.4	15.0	0.00e+00	0	43	102	1048576	14	4308
2026-01-05 10:34:35.84	337.84	27.19	-26.6	-27.8	15.3	0.00e+00	0	43	102	1048576	14	4131
2026-01-05 10:34:38.86	337.94	26.68	-26.8	-28.3	15.1	0.00e+00	0	44	102	1048576	14	4257
2026-01-05 10:34:41.88	338.03	26.17	-26.9	-28.6	14.9	0.00e+00	0	43	102	1048576	14	4344
2026-01-05 10:34:44.91	338.12	25.68	-27.0	-28.7	14.9	0.00e+00	0	44	102	1048576	14	4369
2026-01-05 10:34:47.93	338.21	25.20	-27.2	-29.3	14.4	0.00e+00	0	44	102	1048576	14	4559
2026-01-05 10:34:50.95	338.29	24.72	-27.5	-29.5	14.1	3.00e-06	0	43	102	1048576	15	4507
2026-01-05 10:34:53.97	338.38	24.25	-27.6	-29.5	14.0	2.20e-06	0	43	102	1048576	15	4522
2026-01-05 10:34:56.99	338.46	23.79	-27.4	-29.2	14.2	7.00e-07	0	44	102	1048576	15	4433
2026-01-05 10:35:00.01	338.54	23.34	-27.4	-29.1	14.2	1.50e-06	0	43	102	1048576	15	4396
2026-01-05 10:35:03.03	338.61	22.90	-26.9	-28.1	14.8	7.00e-07	0	44	102	1048576	15	4102
2026-01-05 10:35:06.05	338.69	22.47	-26.0	-27.0	15.9	0.00e+00	0	43	102	1048576	13	4031
2026-01-05 10:35:09.08	338.76	22.04	-25.9	-26.8	16.0	0.00e+00	0	44	102	1048576	13	3986
2026-01-05 10:35:12.10	338.84	21.62	-26.2	-27.3	15.7	0.00e+00	0	43	102	1048576	13	4121
2026-01-05 10:35:15.12	338.91	21.20	-26.3	-27.6	15.5	0.00e+00	0	44	102	1048576	13	4187
2026-01-05 10:35:18.14	338.98	20.79	-26.1	-27.2	15.7	0.00e+00	0	43	102	1048576	13	4096
2026-01-05 10:35:21.17	339.04	20.39	-26.2	-27.5	15.5	0.00e+00	0	44	102	1048576	13	4175
2026-01-05 10:35:24.18	339.11	20.00	-26.3	-27.6	15.4	0.00e+00	0	43	102	1048576	13	4200
2026-01-05 10:35:27.20	339.18	19.61	-26.5	-28.0	15.2	0.00e+00	0	44	102	1048576	13	4313
2026-01-05 10:35:30.23	339.24	19.23	-26.7	-28.7	14.8	0.00e+00	0	43	102	1048576	13	4509
2026-01-05 10:35:33.25	339.30	18.85	-27.0	-28.9	14.5	7.00e-07	0	43	102	1048576	14	4444
2026-01-05 10:35:36.27	339.36	18.48	-27.0	-28.7	14.5	7.00e-07	0	44	102	1048576	14	4404
2026-01-05 10:35:39.30	339.42	18.11	-27.1	-28.9	14.4	0.00e+00	0	44	102	1048576	14	4466
2026-01-05 10:35:42.31	339.48	17.75	-27.0	-28.9	14.4	2.20e-06	0	43	102	1048576	14	4458
2026-01-05 10:35:45.33	339.54	17.40	-27.2	-29.2	14.2	1.50e-06	0	43	102	1048576	14	4555
2026-01-05 10:35:48.35	339.60	17.05	-27.5	-29.9	13.8	1.50e-06	0	43	102	1048576	14	4759
2026-01-05 10:35:51.37	339.65	16.70	-27.8	-30.3	13.3	2.67e-05	0	44	102	1048576	15	4785
2026-01-05 10:35:54.39	339.71	16.36	-28.3	-30.8	12.8	7.32e-05	0	43	102	1048576	16	4833
2026-01-05 10:35:57.41	339.76	16.03	-28.1	-30.4	13.0	3.89e-05	0	44	102	1048576	16	4695
2026-01-05 10:36:00.43	339.81	15.70	-27.5	-28.9	14.0	6.80e-06	0	44	102	1048576	16	4228
2026-01-05 10:36:03.45	339.87	15.37	-27.1	-28.4	14.3	0.00e+00	0	43	102	1048576	15	4219
2026-01-05 10:36:06.48	339.92	15.05	-27.1	-28.4	14.3	7.00e-07	0	44	102	1048576	15	4226
2026-01-05 10:36:09.50	339.97	14.73	-27.1	-28.5	14.3	2.20e-06	0	43	102	1048576	15	4233
2026-01-05 10:36:12.52	340.02	14.41	-27.1	-28.5	14.2	2.20e-06	0	43	102	1048576	15	4243
2026-01-05 10:36:15.54	340.07	14.10	-27.1	-28.7	14.1	7.00e-07	0	44	102	1048576	15	4299
2026-01-05 10:36:18.56	340.11	13.80	-27.2	-28.8	14.0	3.00e-06	0	44	102	1048576	15	4329
2026-01-05 10:36:21.58	340.16	13.50	-27.2	-28.7	14.0	7.00e-07	0	43	102	1048576	15	4315
2026-01-05 10:36:24.60	340.21	13.20	-27.2	-28.9	14.0	7.00e-07	0	43	102	1048576	15	4358
2026-01-05 10:36:27.63	340.25	12.90	-27.4	-29.3	13.7	3.80e-06	0	44	102	1048576	15	4479
2026-01-05 10:36:30.65	340.30	12.61	-27.4	-29.4	13.6	1.29e-05	0	44	102	1048576	15	4500
2026-01-05 10:36:33.66	340.34	12.32	-27.4	-29.4	13.6	1.06e-05	0	44	102	1048576	15	4510
2026-01-05 10:36:36.68	340.39	12.04	-27.6	-29.8	13.4	1.90e-05	0	44	102	1048576	15	4633
2026-01-05 10:36:39.70	340.43	11.76	-27.7	-30.0	13.2	2.05e-05	0	43	102	1048576	15	4693
2026-01-05 10:36:42.73	340.47	11.48	-27.7	-30.1	13.1	2.28e-05	0	44	102	1048576	15	4738
2026-01-05 10:36:45.75	340.52	11.20	-27.9	-30.5	12.9	5.26e-05	0	43	102	1048576	15	4882
2026-01-05 10:36:48.77	340.56	10.93	-28.0	-30.8	12.7	6.94e-05	0	43	102	1048576	15	4958
2026-01-05 10:36:51.79	340.60	10.66	-28.5	-31.0	12.0	2.59e-04	0	43	102	1048576	17	4811
2026-01-05 10:36:54.81	340.64	10.40	-27.8	-29.2	13.1	3.20e-05	0	43	102	1048576	17	4250
2026-01-05 10:36:57.82	340.68	10.13	-27.7	-29.5	13.3	1.60e-05	0	44	102	1048576	16	4429
2026-01-05 10:37:00.84	340.72	9.87	-27.8	-29.8	13.1	3.12e-05	0	44	102	1048576	16	4531
2026-01-05 10:37:03.86	340.76	9.62	-27.9	-29.9	13.0	2.44e-05	0	44	102	1048576	16	4561
2026-01-05 10:37:06.88	340.80	9.36	-27.8	-29.7	13.1	2.59e-05	0	43	102	1048576	16	4486
2026-01-05 10:37:09.90	340.84	9.11	-27.7	-29.5	13.2	1.90e-05	0	43	102	1048576	16	4450
2026-01-05 10:37:12.92	340.88	8.86	-27.7	-29.6	13.1	4.42e-05	0	43	102	1048576	16	4484
2026-01-05 10:37:15.94	340.91	8.61	-27.9	-30.2	12.8	7.70e-05	0	43	102	1048576	16	4649
2026-01-05 10:37:18.97	340.95	8.37	-27.9	-30.1	12.8	6.56e-05	0	43	102	1048576	16	4629
2026-01-05 10:37:21.99	340.99	8.12	-27.9	-30.1	12.8	6.86e-05	0	44	102	1048576	16	4620
2026-01-05 10:37:25.01	341.02	7.88	-28.0	-30.2	12.6	8.31e-05	0	43	102	1048576	16	4684
2026-01-05 10:37:28.04	341.06	7.64	-28.1	-30.5	12.4	1.58e-04	0	43	102	1048576	16	4784
2026-01-05 10:37:31.06	341.10	7.41	-28.2	-30.8	12.2	1.82e-04	0	44	102	1048576	16	4894
2026-01-05 10:37:34.08	341.13	7.17	-28.3	-31.1	12.0	2.59e-04	0	44	102	1048576	16	4991
2026-01-05 10:37:37.10	341.17	6.94	-32.6	-44.5	3.8	1.49e+00	0	43	104	1048576	25	14212

#Closed at: 2026-01-05 10:37:37
#Recorded file [1 MB]: D:/data/31010_260105_132811.dat