passes_logs/2026/01/05/R2M6_AANII_01/R2M6_AANII_01__20260105_075757_NOAA_20_JPSS-1_rec.log

#Pass ID: 20260105_075757_NOAA 20 (JPSS-1)
#Satellite: NOAA 20 (JPSS-1)
#Configuration: NOAA 20
#almurnet v.1.7.20240730
#Start time: 2026-01-05 07:57:59

#Version: 2.2.20231116
#Station: R2M6_AANII_01
#Location: 30.233357 lon 59.946436 lat
#TLE: 1 43013U 17073A   26004.47528369  .00000132  00000+0  83671-4 0  9999
#TLE: 2 43013  98.7626 305.5264 0001854  54.5883 305.5466 14.19533142421242

#Time	Az	El	Level	Level2	SNR	BER	BlckErr	Temp	State	Recorded	gain1	gain2
2026-01-05 07:57:59.63	86.85	7.10	-31.4	-41.4	3.9	1.48e+00	0	41	0	0	24	11373
2026-01-05 07:58:02.63	86.52	7.27	-31.1	-39.2	5.4	5.57e-01	0	41	102	1048576	23	9063
2026-01-05 07:58:05.65	86.19	7.44	-31.1	-38.5	5.8	3.92e-01	0	41	102	1048576	23	8457
2026-01-05 07:58:08.68	85.85	7.62	-30.8	-37.1	6.8	2.52e-01	0	41	102	1048576	23	7407
2026-01-05 07:58:11.70	85.50	7.79	-30.4	-35.5	8.5	5.79e-02	0	41	102	1048576	22	6439
2026-01-05 07:58:14.72	85.15	7.97	-30.4	-35.8	8.6	3.77e-02	0	41	102	1048576	21	6703
2026-01-05 07:58:17.74	84.80	8.14	-30.5	-36.1	8.5	3.65e-02	0	41	102	1048576	21	6893
2026-01-05 07:58:20.77	84.44	8.32	-30.4	-35.8	8.6	3.65e-02	0	41	102	1048576	21	6733
2026-01-05 07:58:23.79	84.08	8.49	-30.3	-35.5	8.9	3.50e-02	0	41	102	1048576	21	6553
2026-01-05 07:58:26.81	83.71	8.67	-30.0	-34.3	9.9	9.90e-03	0	42	102	1048576	21	5901
2026-01-05 07:58:29.83	83.34	8.84	-30.0	-34.0	10.2	6.85e-03	0	41	102	1048576	21	5727
2026-01-05 07:58:32.86	82.96	9.02	-30.1	-34.5	9.9	9.42e-03	0	42	102	1048576	21	5983
2026-01-05 07:58:35.87	82.58	9.19	-30.1	-34.5	9.9	9.39e-03	0	42	102	1048576	21	5953
2026-01-05 07:58:38.90	82.20	9.37	-30.2	-34.7	9.7	1.10e-02	0	42	102	1048576	21	6054
2026-01-05 07:58:41.92	81.81	9.54	-30.2	-34.7	9.8	1.15e-02	0	42	102	1048576	21	6063
2026-01-05 07:58:44.94	81.41	9.72	-30.1	-34.5	9.9	9.91e-03	0	42	102	1048576	21	5930
2026-01-05 07:58:47.96	81.01	9.90	-30.1	-34.3	10.1	9.14e-03	0	42	102	1048576	21	5857
2026-01-05 07:58:50.98	80.61	10.07	-30.1	-34.4	10.0	6.26e-03	0	42	102	1048576	21	5879
2026-01-05 07:58:54.00	80.20	10.25	-30.1	-34.2	10.2	8.39e-03	0	42	102	1048576	21	5804
2026-01-05 07:58:57.02	79.79	10.42	-30.1	-34.1	10.3	5.34e-03	0	42	102	1048576	21	5752
2026-01-05 07:59:00.05	79.37	10.60	-30.2	-34.6	9.9	6.73e-03	0	42	102	1048576	21	5999
2026-01-05 07:59:03.07	78.94	10.77	-30.1	-34.3	10.2	5.29e-03	0	42	102	1048576	21	5807
2026-01-05 07:59:06.10	78.51	10.94	-30.2	-34.5	10.0	6.55e-03	0	42	102	1048576	21	5941
2026-01-05 07:59:09.11	78.08	11.12	-30.2	-34.7	10.0	7.38e-03	0	42	102	1048576	21	6014
2026-01-05 07:59:12.12	77.64	11.29	-30.3	-34.8	9.9	7.84e-03	0	43	102	1048576	21	6043
2026-01-05 07:59:15.15	77.19	11.46	-30.2	-34.4	10.2	7.00e-03	0	42	102	1048576	21	5862
2026-01-05 07:59:18.16	76.74	11.63	-30.2	-34.5	10.1	5.89e-03	0	43	102	1048576	21	5906
2026-01-05 07:59:21.17	76.29	11.81	-30.2	-34.4	10.3	6.55e-03	0	43	102	1048576	21	5843
2026-01-05 07:59:24.19	75.83	11.98	-30.2	-34.6	10.1	6.62e-03	0	42	102	1048576	21	5929
2026-01-05 07:59:27.21	75.36	12.15	-30.2	-34.4	10.3	5.47e-03	0	42	102	1048576	21	5840
2026-01-05 07:59:30.23	74.89	12.32	-30.4	-34.9	9.9	7.83e-03	0	42	102	1048576	21	6105
2026-01-05 07:59:33.25	74.41	12.49	-30.0	-33.6	10.9	2.70e-03	0	42	102	1048576	21	5472
2026-01-05 07:59:36.27	73.93	12.65	-30.0	-33.7	10.8	2.21e-03	0	42	102	1048576	21	5533
2026-01-05 07:59:39.29	73.44	12.82	-29.9	-33.2	11.2	1.41e-03	0	43	102	1048576	21	5309
2026-01-05 07:59:42.32	72.94	12.99	-29.8	-33.5	11.4	9.90e-04	0	43	102	1048576	20	5512
2026-01-05 07:59:45.34	72.44	13.15	-29.7	-33.2	11.6	6.16e-04	0	43	102	1048576	20	5375
2026-01-05 07:59:48.36	71.94	13.32	-29.8	-33.5	11.4	9.10e-04	0	43	102	1048576	20	5526
2026-01-05 07:59:51.39	71.42	13.48	-29.7	-33.3	11.6	6.51e-04	0	43	102	1048576	20	5405
2026-01-05 07:59:54.41	70.91	13.64	-29.8	-33.4	11.6	7.78e-04	0	43	102	1048576	20	5449
2026-01-05 07:59:57.43	70.38	13.80	-29.6	-33.0	11.9	6.73e-04	0	43	102	1048576	20	5286
2026-01-05 08:00:00.45	69.86	13.96	-29.5	-32.5	12.2	1.86e-04	0	43	102	1048576	20	5088
2026-01-05 08:00:03.47	69.32	14.12	-29.4	-32.4	12.3	1.88e-04	0	43	102	1048576	20	5057
2026-01-05 08:00:06.49	68.78	14.28	-29.5	-32.4	12.2	2.94e-04	0	43	102	1048576	20	5061
2026-01-05 08:00:09.52	68.23	14.43	-29.4	-32.6	12.6	9.46e-05	0	43	102	1048576	19	5203
2026-01-05 08:00:12.54	67.68	14.59	-29.4	-32.6	12.6	1.01e-04	0	43	102	1048576	19	5202
2026-01-05 08:00:15.55	67.13	14.74	-29.4	-32.7	12.5	1.38e-04	0	43	102	1048576	19	5273
2026-01-05 08:00:18.55	66.57	14.89	-29.5	-33.1	12.3	1.49e-04	0	43	102	1048576	19	5410
2026-01-05 08:00:21.57	66.00	15.03	-29.8	-33.7	11.9	3.16e-04	0	43	102	1048576	19	5650
2026-01-05 08:00:24.58	65.42	15.18	-29.7	-33.4	12.1	2.70e-04	0	43	102	1048576	19	5531
2026-01-05 08:00:27.61	64.84	15.32	-29.8	-33.7	11.9	2.80e-04	0	43	102	1048576	19	5671
2026-01-05 08:00:30.63	64.26	15.46	-29.5	-32.9	12.4	1.84e-04	0	43	102	1048576	19	5350
2026-01-05 08:00:33.65	63.67	15.60	-29.5	-32.9	12.5	1.56e-04	0	43	102	1048576	19	5317
2026-01-05 08:00:36.67	63.07	15.74	-29.4	-32.6	12.7	9.30e-05	0	43	102	1048576	19	5198
2026-01-05 08:00:39.70	62.46	15.87	-29.5	-32.8	12.5	1.29e-04	0	43	102	1048576	19	5276
2026-01-05 08:00:42.72	61.86	16.01	-29.2	-32.0	13.1	3.66e-05	0	43	102	1048576	19	4968
2026-01-05 08:00:45.73	61.25	16.14	-29.1	-31.7	13.3	2.89e-05	0	43	102	1048576	19	4858
2026-01-05 08:00:48.76	60.63	16.26	-29.0	-31.5	13.4	9.10e-06	0	43	102	1048576	19	4787
2026-01-05 08:00:51.78	60.00	16.39	-28.9	-31.3	13.5	1.37e-05	0	43	102	1048576	19	4728
2026-01-05 08:00:54.80	59.37	16.51	-28.9	-31.2	13.6	4.50e-06	0	43	102	1048576	19	4682
2026-01-05 08:00:57.82	58.74	16.63	-28.9	-31.2	13.6	9.90e-06	0	43	102	1048576	19	4697
2026-01-05 08:01:00.84	58.10	16.74	-28.8	-31.0	13.7	7.60e-06	0	43	102	1048576	19	4626
2026-01-05 08:01:03.86	57.46	16.85	-28.8	-30.9	13.8	9.10e-06	0	43	102	1048576	19	4576
2026-01-05 08:01:06.87	56.81	16.96	-28.8	-31.0	13.8	3.00e-06	0	43	102	1048576	19	4609
2026-01-05 08:01:09.90	56.16	17.07	-28.9	-31.3	13.6	6.80e-06	0	43	102	1048576	19	4725
2026-01-05 08:01:12.92	55.50	17.17	-29.1	-31.7	13.3	1.52e-05	0	43	102	1048576	19	4878
2026-01-05 08:01:15.94	54.84	17.27	-29.0	-31.3	13.6	1.06e-05	0	43	102	1048576	19	4725
2026-01-05 08:01:18.96	54.17	17.36	-28.9	-31.2	13.6	9.10e-06	0	43	102	1048576	19	4682
2026-01-05 08:01:21.97	53.50	17.45	-29.1	-31.7	13.3	1.06e-05	0	43	102	1048576	19	4844
2026-01-05 08:01:24.99	52.83	17.54	-29.1	-31.7	13.4	2.59e-05	0	43	102	1048576	19	4855
2026-01-05 08:01:28.01	52.15	17.62	-29.2	-31.9	13.2	1.90e-05	0	43	102	1048576	19	4940
2026-01-05 08:01:31.04	51.47	17.70	-29.5	-32.8	12.6	7.93e-05	0	43	102	1048576	19	5277
2026-01-05 08:01:34.06	50.78	17.78	-29.5	-32.9	12.6	1.21e-04	0	43	102	1048576	19	5313
2026-01-05 08:01:37.08	50.09	17.85	-29.6	-33.1	12.4	1.24e-04	0	43	102	1048576	19	5380
2026-01-05 08:01:40.09	49.40	17.92	-29.5	-33.0	12.5	1.88e-04	0	43	102	1048576	19	5331
2026-01-05 08:01:43.11	48.71	17.98	-29.6	-33.1	12.4	1.33e-04	0	43	102	1048576	19	5387
2026-01-05 08:01:46.13	48.01	18.04	-29.6	-33.0	12.6	8.92e-05	0	43	102	1048576	19	5335
2026-01-05 08:01:49.15	47.31	18.10	-29.6	-33.2	12.4	1.72e-04	0	43	102	1048576	19	5413
2026-01-05 08:01:52.17	46.61	18.15	-29.8	-33.6	12.1	2.59e-04	0	43	102	1048576	19	5587
2026-01-05 08:01:55.19	45.90	18.20	-29.7	-33.5	12.1	2.47e-04	0	43	102	1048576	19	5564
2026-01-05 08:01:58.20	45.20	18.24	-29.7	-33.5	12.1	2.62e-04	0	43	102	1048576	19	5587
2026-01-05 08:02:01.22	44.49	18.28	-29.8	-33.8	11.9	4.10e-04	0	43	102	1048576	19	5693
2026-01-05 08:02:04.24	43.78	18.31	-29.8	-33.6	12.1	2.68e-04	0	43	102	1048576	19	5591
2026-01-05 08:02:07.27	43.06	18.34	-29.9	-33.9	11.9	3.93e-04	0	43	102	1048576	19	5739
2026-01-05 08:02:10.29	42.35	18.36	-29.7	-33.3	12.3	1.77e-04	0	43	102	1048576	19	5463
2026-01-05 08:02:13.31	41.64	18.38	-29.7	-33.3	12.3	1.98e-04	0	43	102	1048576	19	5466
2026-01-05 08:02:16.32	40.92	18.40	-29.7	-33.3	12.3	1.67e-04	0	43	102	1048576	19	5478
2026-01-05 08:02:19.34	40.21	18.41	-29.8	-33.7	12.0	2.54e-04	0	43	102	1048576	19	5624
2026-01-05 08:02:22.37	39.49	18.41	-29.7	-33.3	12.3	2.19e-04	0	43	102	1048576	19	5473
2026-01-05 08:02:25.39	38.77	18.41	-29.8	-33.6	12.1	2.30e-04	0	43	102	1048576	19	5591
2026-01-05 08:02:28.41	38.06	18.41	-29.8	-33.6	12.1	2.17e-04	0	43	102	1048576	19	5598
2026-01-05 08:02:31.42	37.34	18.40	-29.6	-33.2	12.4	1.93e-04	0	43	102	1048576	19	5434
2026-01-05 08:02:34.44	36.63	18.39	-29.7	-33.3	12.2	2.56e-04	0	43	102	1048576	19	5477
2026-01-05 08:02:37.45	35.92	18.37	-29.3	-32.3	13.0	3.81e-05	0	43	102	1048576	19	5089
2026-01-05 08:02:40.47	35.20	18.35	-29.2	-32.0	13.2	2.74e-05	0	43	102	1048576	19	4954
2026-01-05 08:02:43.49	34.49	18.32	-29.1	-31.7	13.4	1.44e-05	0	43	102	1048576	19	4853
2026-01-05 08:02:46.51	33.78	18.29	-29.1	-31.7	13.4	1.60e-05	0	43	102	1048576	19	4869
2026-01-05 08:02:49.53	33.07	18.26	-28.9	-31.2	13.7	1.06e-05	0	43	102	1048576	19	4698
2026-01-05 08:02:52.55	32.36	18.22	-28.9	-31.1	13.7	4.50e-06	0	43	102	1048576	19	4667
2026-01-05 08:02:55.56	31.66	18.17	-28.8	-30.9	13.9	3.80e-06	0	43	102	1048576	19	4574
2026-01-05 08:02:58.58	30.96	18.12	-28.7	-31.1	14.1	2.20e-06	0	43	102	1048576	18	4740
2026-01-05 08:03:01.61	30.26	18.07	-28.8	-31.4	13.9	1.50e-06	0	43	102	1048576	18	4849
2026-01-05 08:03:04.64	29.56	18.01	-29.0	-31.9	13.6	6.10e-06	0	43	102	1048576	18	5032
2026-01-05 08:03:07.66	28.86	17.95	-28.9	-31.6	13.7	5.30e-06	0	43	102	1048576	18	4920
2026-01-05 08:03:10.67	28.17	17.89	-28.9	-31.8	13.7	3.00e-06	0	43	102	1048576	18	4989
2026-01-05 08:03:13.70	27.48	17.82	-29.1	-32.2	13.4	1.67e-05	0	43	102	1048576	18	5167
2026-01-05 08:03:16.73	26.79	17.74	-29.2	-32.4	13.3	2.21e-05	0	43	102	1048576	18	5211
2026-01-05 08:03:19.74	26.11	17.66	-29.2	-32.5	13.2	3.58e-05	0	43	102	1048576	18	5268
2026-01-05 08:03:22.76	25.43	17.58	-29.3	-32.9	12.9	5.56e-05	0	43	102	1048576	18	5405
2026-01-05 08:03:25.77	24.76	17.50	-29.6	-33.0	12.6	1.05e-04	0	43	102	1048576	19	5350
2026-01-05 08:03:28.80	24.09	17.41	-29.6	-33.0	12.5	1.23e-04	0	43	102	1048576	19	5344
2026-01-05 08:03:31.81	23.42	17.31	-29.6	-33.2	12.3	2.03e-04	0	43	102	1048576	19	5414
2026-01-05 08:03:34.84	22.76	17.22	-29.4	-32.5	12.8	5.34e-05	0	43	102	1048576	19	5164
2026-01-05 08:03:37.86	22.10	17.12	-29.4	-32.5	12.8	7.01e-05	0	43	102	1048576	19	5150
2026-01-05 08:03:40.88	21.45	17.01	-29.4	-32.5	12.7	9.15e-05	0	43	102	1048576	19	5169
2026-01-05 08:03:43.90	20.80	16.91	-29.4	-32.6	12.7	7.62e-05	0	43	102	1048576	19	5188
2026-01-05 08:03:46.93	20.15	16.80	-29.4	-32.5	12.8	6.33e-05	0	43	102	1048576	19	5157
2026-01-05 08:03:49.93	19.52	16.68	-29.6	-33.1	12.4	1.11e-04	0	43	102	1048576	19	5400
2026-01-05 08:03:52.95	18.88	16.57	-29.5	-32.9	12.5	1.56e-04	0	43	102	1048576	19	5311
2026-01-05 08:03:55.97	18.25	16.45	-29.3	-32.3	12.9	4.95e-05	0	43	102	1048576	19	5091
2026-01-05 08:03:58.98	17.63	16.33	-29.4	-32.6	12.7	7.62e-05	0	43	102	1048576	19	5204
2026-01-05 08:04:02.00	17.01	16.20	-29.5	-33.0	12.4	1.33e-04	0	43	102	1048576	19	5354
2026-01-05 08:04:05.02	16.40	16.07	-29.7	-33.6	12.0	3.88e-04	0	43	102	1048576	19	5610
2026-01-05 08:04:08.04	15.79	15.94	-29.8	-33.8	11.8	4.22e-04	0	43	102	1048576	19	5719
2026-01-05 08:04:11.07	15.18	15.81	-29.7	-33.4	12.1	2.74e-04	0	43	102	1048576	19	5541
2026-01-05 08:04:14.09	14.59	15.67	-29.8	-33.9	11.7	5.82e-04	0	43	102	1048576	19	5741
2026-01-05 08:04:17.12	13.99	15.54	-29.7	-33.5	12.0	4.16e-04	0	43	102	1048576	19	5562
2026-01-05 08:04:20.14	13.41	15.40	-29.7	-33.4	12.0	3.43e-04	0	43	102	1048576	19	5556
2026-01-05 08:04:23.16	12.82	15.25	-29.8	-33.8	11.7	5.24e-04	0	43	102	1048576	19	5705
2026-01-05 08:04:26.18	12.25	15.11	-29.9	-33.8	11.3	1.04e-03	0	43	102	1048576	20	5631
2026-01-05 08:04:29.21	11.68	14.96	-30.0	-34.0	11.2	1.23e-03	0	43	102	1048576	20	5720
2026-01-05 08:04:32.24	11.11	14.81	-30.0	-34.1	11.0	1.67e-03	0	43	102	1048576	20	5785
2026-01-05 08:04:35.25	10.56	14.66	-30.0	-34.1	11.1	2.19e-03	0	43	102	1048576	20	5775
2026-01-05 08:04:38.28	10.00	14.51	-29.8	-33.4	11.6	7.06e-04	0	43	102	1048576	20	5436
2026-01-05 08:04:41.30	9.46	14.36	-29.9	-33.9	11.2	1.10e-03	0	43	102	1048576	20	5682
2026-01-05 08:04:44.31	8.92	14.20	-30.1	-34.4	10.8	2.33e-03	0	43	102	1048576	20	5917
2026-01-05 08:04:47.34	8.38	14.05	-30.2	-34.6	10.6	3.69e-03	0	43	102	1048576	20	6015
2026-01-05 08:04:50.35	7.85	13.89	-30.2	-34.7	10.6	3.39e-03	0	43	102	1048576	20	6048
2026-01-05 08:04:53.37	7.33	13.73	-30.3	-35.2	10.2	6.47e-03	0	43	102	1048576	20	6302
2026-01-05 08:04:56.39	6.81	13.57	-30.1	-34.6	10.6	3.03e-03	0	43	102	1048576	20	6031
2026-01-05 08:04:59.41	6.30	13.41	-30.1	-34.4	10.7	3.02e-03	0	43	102	1048576	20	5904
2026-01-05 08:05:02.42	5.80	13.24	-30.0	-34.0	11.0	1.79e-03	0	43	102	1048576	20	5727
2026-01-05 08:05:05.44	5.30	13.08	-30.1	-34.6	10.5	3.10e-03	0	43	102	1048576	20	6022
2026-01-05 08:05:08.46	4.80	12.91	-30.2	-34.9	10.3	4.87e-03	0	43	102	1048576	20	6197
2026-01-05 08:05:11.48	4.31	12.75	-30.0	-34.2	10.9	2.80e-03	0	43	102	1048576	20	5857
2026-01-05 08:05:14.50	3.83	12.58	-30.0	-34.2	10.8	2.87e-03	0	43	102	1048576	20	5863
2026-01-05 08:05:17.53	3.35	12.41	-30.0	-34.3	10.7	4.19e-03	0	43	102	1048576	20	5907
2026-01-05 08:05:20.54	2.88	12.24	-29.7	-33.4	11.4	1.05e-03	0	43	102	1048576	20	5485
2026-01-05 08:05:23.57	2.41	12.07	-29.7	-33.2	11.5	8.38e-04	0	43	102	1048576	20	5418
2026-01-05 08:05:26.58	1.95	11.90	-29.7	-33.4	11.4	1.20e-03	0	43	102	1048576	20	5467
2026-01-05 08:05:29.60	1.49	11.73	-29.6	-33.1	11.6	6.13e-04	0	43	102	1048576	20	5368
2026-01-05 08:05:32.61	1.04	11.56	-29.6	-33.1	11.5	1.07e-03	0	43	102	1048576	20	5357
2026-01-05 08:05:35.63	0.60	11.39	-29.3	-32.2	12.1	2.81e-04	0	43	102	1048576	20	5005
2026-01-05 08:05:38.65	0.16	11.22	-29.4	-32.3	12.1	2.26e-04	0	43	102	1048576	20	5046
2026-01-05 08:05:41.67	359.72	11.04	-29.4	-32.8	12.2	1.98e-04	0	43	102	1048576	19	5355
2026-01-05 08:05:44.68	359.30	10.87	-29.5	-33.1	12.0	4.08e-04	0	44	102	1048576	19	5447
2026-01-05 08:05:47.70	358.87	10.70	-29.4	-32.9	12.0	4.00e-04	0	43	102	1048576	19	5386
2026-01-05 08:05:50.71	358.45	10.52	-29.4	-33.0	12.0	2.94e-04	0	43	102	1048576	19	5414
2026-01-05 08:05:53.73	358.04	10.35	-29.2	-32.3	12.4	1.65e-04	0	43	102	1048576	19	5163
2026-01-05 08:05:56.75	357.63	10.18	-29.2	-32.4	12.3	1.36e-04	0	43	102	1048576	19	5194
2026-01-05 08:05:59.77	357.23	10.00	-29.3	-32.7	12.2	2.51e-04	0	43	102	1048576	19	5299
2026-01-05 08:06:02.80	356.83	9.83	-29.3	-32.8	12.0	3.29e-04	0	43	102	1048576	19	5354
2026-01-05 08:06:05.82	356.43	9.65	-29.5	-33.2	11.7	4.64e-04	0	43	102	1048576	19	5522
2026-01-05 08:06:08.83	356.04	9.48	-29.5	-33.4	11.6	6.09e-04	0	43	102	1048576	19	5632
2026-01-05 08:06:11.86	355.66	9.30	-29.5	-33.4	11.6	1.00e-03	0	43	102	1048576	19	5609
2026-01-05 08:06:14.88	355.28	9.13	-29.4	-33.1	11.7	6.80e-04	0	43	102	1048576	19	5491
2026-01-05 08:06:17.91	354.90	8.95	-29.4	-33.1	11.7	7.50e-04	0	43	102	1048576	19	5483
2026-01-05 08:06:20.93	354.53	8.78	-29.3	-32.8	11.9	3.16e-04	0	43	102	1048576	19	5342
2026-01-05 08:06:23.94	354.16	8.60	-29.5	-33.2	11.6	6.09e-04	0	43	102	1048576	19	5541
2026-01-05 08:06:26.97	353.80	8.43	-29.6	-33.6	11.3	1.10e-03	0	43	102	1048576	19	5708
2026-01-05 08:06:29.98	353.45	8.25	-29.6	-33.7	11.2	1.25e-03	0	43	102	1048576	19	5768
2026-01-05 08:06:33.00	353.09	8.08	-29.7	-33.9	11.1	1.91e-03	0	43	102	1048576	19	5865
2026-01-05 08:06:36.02	352.74	7.91	-29.7	-34.2	10.8	2.55e-03	0	43	102	1048576	19	6007
2026-01-05 08:06:39.04	352.40	7.73	-29.8	-34.4	10.6	3.09e-03	0	43	102	1048576	19	6117
2026-01-05 08:06:42.06	352.06	7.56	-29.9	-34.9	10.2	4.92e-03	0	43	102	1048576	19	6387
2026-01-05 08:06:45.08	351.72	7.38	-29.9	-34.4	10.1	6.69e-03	0	43	102	1048576	20	6033
2026-01-05 08:06:48.10	351.39	7.21	-30.0	-34.8	9.7	7.80e-03	0	43	102	1048576	20	6238
2026-01-05 08:06:51.12	351.06	7.04	-32.0	-45.8	3.8	1.29e+00	0	43	104	1048576	23	17690
2026-01-05 08:06:54.14	350.74	6.87	-32.7	-46.9	3.8	1.49e+00	0	43	104	1048576	25	18516

#Closed at: 2026-01-05 08:06:54
#Recorded file [1 MB]: D:/data/31010_260105_105801.dat