passes_logs/2026/01/05/R2M6_AANII_01/R2M6_AANII_01__20260105_021323_NOAA_21_JPSS-2_rec.log

#Pass ID: 20260105_021323_NOAA 21 (JPSS-2)
#Satellite: NOAA 21 (JPSS-2)
#Configuration: NOAA 21
#almurnet v.1.7.20240730
#Start time: 2026-01-05 02:15:18

#Version: 2.2.20231116
#Station: R2M6_AANII_01
#Location: 30.233357 lon 59.946436 lat
#TLE: 1 54234U 22150A   26004.22845673  .00000174  00000+0  10347-3 0  9996
#TLE: 2 54234  98.7489 305.2591 0001115 345.0884  15.0259 14.19531906163281

#Time	Az	El	Level	Level2	SNR	BER	BlckErr	Temp	State	Recorded	gain1	gain2
2026-01-05 02:15:18.74	356.84	14.97	-33.2	-44.5	3.8	8.46e-01	0	43	0	0	26	13222
2026-01-05 02:15:20.75	356.53	15.12	-33.8	-45.8	3.8	1.49e+00	0	44	104	0	27	14475
2026-01-05 02:15:22.76	356.22	15.26	-33.8	-45.9	3.8	1.49e+00	0	44	104	0	27	14562
2026-01-05 02:15:24.78	355.90	15.41	-33.8	-46.0	3.8	1.49e+00	0	44	104	0	27	14550
2026-01-05 02:15:26.80	355.57	15.55	-33.9	-46.0	3.8	1.49e+00	0	44	104	0	27	14595
2026-01-05 02:15:28.81	355.25	15.70	-33.9	-46.0	3.8	1.49e+00	0	43	104	0	27	14611
2026-01-05 02:15:30.82	354.92	15.84	-33.9	-46.1	3.8	1.49e+00	0	43	104	0	27	14671
2026-01-05 02:15:32.83	354.59	15.99	-33.9	-46.0	3.8	1.49e+00	0	44	104	0	27	14620
2026-01-05 02:15:34.85	354.25	16.13	-33.9	-46.1	3.8	1.49e+00	0	44	104	0	27	14659
2026-01-05 02:15:36.86	353.91	16.28	-33.9	-46.0	3.8	1.49e+00	0	44	104	0	27	14602
2026-01-05 02:15:38.87	353.57	16.42	-33.9	-46.0	3.8	1.49e+00	0	44	104	0	27	14599
2026-01-05 02:15:40.88	353.23	16.56	-33.8	-46.0	3.8	1.49e+00	0	44	104	0	27	14563
2026-01-05 02:15:42.90	352.88	16.71	-33.8	-45.8	3.8	1.49e+00	0	44	104	0	27	14368
2026-01-05 02:15:44.91	352.53	16.85	-33.7	-45.6	3.8	1.49e+00	0	44	104	0	27	14291
2026-01-05 02:15:46.92	352.17	16.99	-33.6	-45.4	3.8	1.49e+00	0	44	104	0	27	14104
2026-01-05 02:15:48.93	351.81	17.14	-33.4	-44.8	3.8	1.49e+00	0	44	104	0	27	13507
2026-01-05 02:15:50.95	351.45	17.28	-33.1	-44.2	3.8	1.49e+00	0	44	104	0	26	12843
2026-01-05 02:15:52.95	351.09	17.42	-33.2	-44.3	3.8	1.49e+00	0	44	104	0	26	13008
2026-01-05 02:15:54.97	350.71	17.56	-33.2	-44.5	3.8	1.49e+00	0	44	104	0	26	13216
2026-01-05 02:15:56.98	350.34	17.71	-33.2	-44.7	3.8	1.49e+00	0	44	104	0	26	13591
2026-01-05 02:15:58.99	349.97	17.85	-33.2	-44.7	3.8	1.49e+00	0	44	104	0	26	13550
2026-01-05 02:16:01.01	349.58	17.99	-33.1	-44.1	3.8	1.49e+00	0	44	104	0	26	12713
2026-01-05 02:16:03.03	349.20	18.13	-33.0	-42.8	3.9	1.49e+00	0	44	104	0	26	11129
2026-01-05 02:16:05.04	348.81	18.27	-32.7	-41.5	4.0	1.48e+00	0	44	104	0	25	9892
2026-01-05 02:16:07.06	348.42	18.41	-32.8	-42.2	3.9	1.48e+00	0	44	104	0	25	10604
2026-01-05 02:16:09.07	348.03	18.55	-33.2	-45.3	3.8	1.49e+00	0	44	104	0	26	14383
2026-01-05 02:16:11.09	347.63	18.68	-32.4	-38.9	5.2	8.43e-01	0	44	104	0	25	7620
2026-01-05 02:16:13.10	347.23	18.82	-30.8	-34.2	9.3	2.54e-02	0	44	102	1048576	22	5352
2026-01-05 02:16:15.11	346.82	18.96	-30.8	-34.9	9.1	1.72e-02	0	44	102	1048576	21	5751
2026-01-05 02:16:17.14	346.41	19.09	-30.5	-33.9	9.9	8.92e-03	0	44	102	1048576	21	5320
2026-01-05 02:16:19.15	346.00	19.23	-30.6	-34.2	9.7	1.02e-02	0	44	102	1048576	21	5441
2026-01-05 02:16:21.16	345.58	19.36	-30.4	-33.7	10.0	9.31e-03	0	43	102	1048576	21	5251
2026-01-05 02:16:23.18	345.16	19.49	-29.6	-31.8	11.6	1.07e-03	0	44	102	1048576	20	4664
2026-01-05 02:16:25.19	344.73	19.63	-29.0	-31.8	11.5	6.71e-05	0	44	102	1048576	17	4965
2026-01-05 02:16:27.20	344.31	19.76	-29.1	-31.7	12.3	1.27e-04	0	44	102	1048576	18	4817
2026-01-05 02:16:29.21	343.88	19.89	-29.0	-31.3	12.7	7.62e-05	0	44	102	1048576	18	4709
2026-01-05 02:16:31.22	343.44	20.01	-28.9	-31.5	12.9	7.24e-05	0	44	102	1048576	17	4882
2026-01-05 02:16:33.24	343.00	20.14	-28.3	-30.5	13.8	4.44e-03	0	44	102	1048576	16	4643
2026-01-05 02:16:35.25	342.56	20.27	-27.4	-28.9	14.8	7.00e-07	0	44	102	1048576	15	4309
2026-01-05 02:16:37.26	342.11	20.40	-27.2	-29.0	15.0	3.86e-03	0	44	102	1048576	14	4452
2026-01-05 02:16:39.27	341.66	20.52	-27.2	-29.0	15.0	4.06e-03	0	44	102	1048576	14	4450
2026-01-05 02:16:41.28	341.21	20.64	-27.2	-29.0	15.1	0.00e+00	0	44	102	1048576	14	4437
2026-01-05 02:16:43.30	340.75	20.76	-27.2	-29.0	15.1	4.52e-03	0	44	102	1048576	14	4450
2026-01-05 02:16:45.31	340.29	20.88	-27.3	-29.3	14.9	4.60e-03	0	44	102	1048576	14	4522
2026-01-05 02:16:47.32	339.83	21.00	-27.2	-29.1	15.0	0.00e+00	0	44	102	1048576	14	4460
2026-01-05 02:16:49.33	339.36	21.12	-27.3	-29.3	14.9	4.75e-03	0	44	102	1048576	14	4518
2026-01-05 02:16:51.34	338.89	21.24	-27.4	-29.6	14.8	4.77e-03	0	44	102	1048576	14	4604
2026-01-05 02:16:53.35	338.41	21.35	-27.3	-29.2	15.0	0.00e+00	0	44	102	1048576	14	4496
2026-01-05 02:16:55.36	337.93	21.46	-27.1	-28.8	15.2	4.24e-03	0	44	102	1048576	14	4368
2026-01-05 02:16:57.38	337.45	21.57	-27.1	-28.8	15.2	0.00e+00	0	44	102	1048576	14	4381
2026-01-05 02:16:59.39	336.96	21.68	-26.9	-28.5	15.4	0.00e+00	0	44	102	1048576	14	4286
2026-01-05 02:17:01.39	336.48	21.79	-26.9	-28.9	15.4	4.52e-03	0	44	102	1048576	13	4510
2026-01-05 02:17:03.41	335.98	21.90	-27.1	-28.9	14.8	0.00e+00	0	44	102	1048576	14	4417
2026-01-05 02:17:05.43	335.48	22.00	-27.3	-29.2	15.0	0.00e+00	0	44	102	1048576	14	4489
2026-01-05 02:17:07.44	334.99	22.10	-27.5	-29.7	14.6	7.00e-07	0	44	102	1048576	14	4657
2026-01-05 02:17:09.45	334.48	22.20	-27.4	-29.5	14.8	1.37e-03	0	44	102	1048576	14	4575
2026-01-05 02:17:11.46	333.98	22.30	-27.4	-29.4	14.9	0.00e+00	0	44	102	1048576	14	4560
2026-01-05 02:17:13.46	333.47	22.40	-27.3	-29.2	15.0	0.00e+00	0	44	102	1048576	14	4494
2026-01-05 02:17:15.48	332.96	22.49	-27.3	-29.2	15.0	2.39e-03	0	44	102	1048576	14	4498
2026-01-05 02:17:17.50	332.44	22.58	-27.0	-28.7	15.3	0.00e+00	0	44	102	1048576	14	4343
2026-01-05 02:17:19.50	331.92	22.67	-27.1	-28.7	15.3	2.15e-03	0	44	102	1048576	14	4348
2026-01-05 02:17:21.52	331.40	22.76	-27.0	-28.6	15.3	1.96e-03	0	44	102	1048576	14	4331
2026-01-05 02:17:23.53	330.88	22.85	-27.1	-28.9	15.2	0.00e+00	0	44	102	1048576	14	4399
2026-01-05 02:17:25.54	330.35	22.93	-27.1	-28.9	15.2	2.06e-03	0	44	102	1048576	14	4417
2026-01-05 02:17:27.56	329.82	23.01	-27.2	-29.0	15.1	2.71e-03	0	44	102	1048576	14	4449
2026-01-05 02:17:29.58	329.28	23.09	-27.1	-28.9	15.2	0.00e+00	0	43	102	1048576	14	4396
2026-01-05 02:17:31.59	328.75	23.16	-27.2	-28.9	15.2	2.02e-03	0	44	102	1048576	14	4418
2026-01-05 02:17:33.60	328.21	23.24	-27.2	-29.0	15.1	1.15e-03	0	44	102	1048576	14	4443
2026-01-05 02:17:35.61	327.67	23.31	-27.2	-29.0	15.2	7.00e-07	0	44	102	1048576	14	4437
2026-01-05 02:17:37.62	327.13	23.37	-27.1	-28.8	15.3	8.31e-04	0	44	102	1048576	14	4393
2026-01-05 02:17:39.64	326.58	23.44	-27.3	-29.2	15.0	0.00e+00	0	44	102	1048576	14	4497
2026-01-05 02:17:41.66	326.03	23.50	-27.0	-28.6	15.4	0.00e+00	0	43	102	1048576	14	4324
2026-01-05 02:17:43.67	325.48	23.56	-27.0	-28.6	15.3	0.00e+00	0	44	102	1048576	14	4336
2026-01-05 02:17:45.68	324.93	23.62	-27.2	-29.1	15.1	0.00e+00	0	44	102	1048576	14	4471
2026-01-05 02:17:47.69	324.37	23.67	-27.2	-29.1	15.1	7.00e-07	0	44	102	1048576	14	4480
2026-01-05 02:17:49.70	323.82	23.73	-27.0	-28.7	15.3	0.00e+00	0	44	102	1048576	14	4354
2026-01-05 02:17:51.72	323.26	23.77	-27.0	-28.7	15.3	0.00e+00	0	44	102	1048576	14	4340
2026-01-05 02:17:53.72	322.70	23.82	-27.0	-28.6	15.4	0.00e+00	0	44	102	1048576	14	4327
2026-01-05 02:17:55.74	322.14	23.86	-27.0	-28.7	15.3	0.00e+00	0	43	102	1048576	14	4348
2026-01-05 02:17:57.76	321.57	23.90	-26.9	-28.8	15.5	0.00e+00	0	43	102	1048576	13	4488
2026-01-05 02:17:59.77	321.01	23.94	-26.8	-28.6	15.6	3.46e-03	0	43	102	1048576	13	4434
2026-01-05 02:18:01.77	320.45	23.98	-26.7	-28.3	15.8	0.00e+00	0	44	102	1048576	13	4357
2026-01-05 02:18:03.79	319.88	24.01	-26.7	-28.4	15.7	0.00e+00	0	44	102	1048576	13	4371
2026-01-05 02:18:05.80	319.31	24.04	-26.7	-28.3	15.7	4.10e-03	0	44	102	1048576	13	4356
2026-01-05 02:18:07.81	318.74	24.06	-26.8	-28.6	15.6	0.00e+00	0	44	102	1048576	13	4441
2026-01-05 02:18:09.83	318.17	24.08	-26.8	-28.6	15.6	4.44e-03	0	44	102	1048576	13	4445
2026-01-05 02:18:11.85	317.60	24.10	-26.9	-28.9	15.4	4.80e-03	0	43	102	1048576	13	4529
2026-01-05 02:18:13.86	317.03	24.12	-27.1	-28.7	15.2	0.00e+00	0	44	102	1048576	14	4353
2026-01-05 02:18:15.87	316.46	24.13	-27.0	-28.6	15.3	4.37e-03	0	44	102	1048576	14	4334
2026-01-05 02:18:17.88	315.88	24.14	-27.1	-28.9	15.2	4.07e-03	0	44	102	1048576	14	4410
2026-01-05 02:18:19.90	315.31	24.15	-27.1	-28.8	15.2	0.00e+00	0	43	102	1048576	14	4390
2026-01-05 02:18:21.91	314.74	24.15	-27.1	-28.9	15.2	4.53e-03	0	44	102	1048576	14	4408
2026-01-05 02:18:23.93	314.16	24.15	-27.2	-29.0	15.2	0.00e+00	0	44	102	1048576	14	4423
2026-01-05 02:18:25.94	313.59	24.15	-27.3	-29.2	15.0	0.00e+00	0	44	102	1048576	14	4485
2026-01-05 02:18:27.96	313.01	24.14	-27.0	-28.7	15.3	4.91e-03	0	44	102	1048576	14	4345
2026-01-05 02:18:29.97	312.44	24.13	-26.9	-28.7	15.0	0.00e+00	0	44	102	1048576	14	4426
2026-01-05 02:18:31.98	311.87	24.12	-27.2	-29.1	15.0	0.00e+00	0	44	102	1048576	14	4481
2026-01-05 02:18:34.00	311.30	24.11	-27.2	-29.0	15.1	0.00e+00	0	44	102	1048576	14	4434
2026-01-05 02:18:36.01	310.73	24.09	-27.1	-28.7	15.3	0.00e+00	0	44	102	1048576	14	4366
2026-01-05 02:18:38.03	310.15	24.07	-26.9	-28.9	15.4	0.00e+00	0	43	102	1048576	13	4513
2026-01-05 02:18:40.05	309.58	24.04	-27.3	-29.3	14.9	0.00e+00	0	44	102	1048576	14	4526
2026-01-05 02:18:42.05	309.02	24.02	-26.9	-28.2	15.5	1.28e-04	0	44	102	1048576	14	4223
2026-01-05 02:18:44.06	308.45	23.99	-26.8	-28.7	15.5	0.00e+00	0	44	102	1048576	13	4475
2026-01-05 02:18:46.07	307.88	23.95	-26.8	-28.6	15.6	0.00e+00	0	43	102	1048576	13	4437
2026-01-05 02:18:48.09	307.32	23.92	-26.8	-28.6	15.6	1.67e-04	0	44	102	1048576	13	4432
2026-01-05 02:18:50.10	306.75	23.88	-26.8	-28.5	15.6	0.00e+00	0	44	102	1048576	13	4420
2026-01-05 02:18:52.12	306.19	23.84	-26.8	-28.7	15.5	8.30e-06	0	44	102	1048576	13	4465
2026-01-05 02:18:54.14	305.63	23.79	-27.0	-28.6	15.3	3.43e-05	0	43	102	1048576	14	4335
2026-01-05 02:18:56.15	305.07	23.74	-27.0	-28.7	15.3	0.00e+00	0	43	102	1048576	14	4343
2026-01-05 02:18:58.17	304.51	23.69	-27.3	-29.2	15.0	1.76e-03	0	44	102	1048576	14	4495
2026-01-05 02:19:00.17	303.96	23.64	-26.8	-28.6	15.5	1.55e-03	0	43	102	1048576	13	4444
2026-01-05 02:19:02.19	303.40	23.58	-27.2	-29.1	15.0	0.00e+00	0	44	102	1048576	14	4459
2026-01-05 02:19:04.21	302.85	23.52	-27.3	-29.3	14.9	0.00e+00	0	44	102	1048576	14	4519
2026-01-05 02:19:06.22	302.30	23.46	-27.4	-29.4	14.8	0.00e+00	0	44	102	1048576	14	4548
2026-01-05 02:19:08.24	301.75	23.40	-27.5	-29.3	14.6	0.00e+00	0	44	102	1048576	15	4428
2026-01-05 02:19:10.25	301.20	23.33	-27.6	-29.4	14.5	0.00e+00	0	44	102	1048576	15	4456
2026-01-05 02:19:12.26	300.66	23.26	-27.5	-29.2	14.7	2.20e-06	0	44	102	1048576	15	4398
2026-01-05 02:19:14.28	300.12	23.19	-27.0	-28.5	15.3	0.00e+00	0	43	102	1048576	14	4308
2026-01-05 02:19:16.28	299.58	23.11	-26.7	-28.5	15.6	0.00e+00	0	44	102	1048576	13	4404
2026-01-05 02:19:18.30	299.05	23.04	-26.8	-28.6	15.5	7.00e-07	0	44	102	1048576	13	4438
2026-01-05 02:19:20.31	298.51	22.96	-27.2	-29.0	15.0	0.00e+00	0	44	102	1048576	14	4451
2026-01-05 02:19:22.32	297.99	22.87	-27.4	-29.4	14.8	0.00e+00	0	43	102	1048576	14	4567
2026-01-05 02:19:24.34	297.46	22.79	-27.2	-29.1	15.0	0.00e+00	0	43	102	1048576	14	4484
2026-01-05 02:19:26.34	296.94	22.70	-27.3	-29.2	14.9	0.00e+00	0	43	102	1048576	14	4514
2026-01-05 02:19:28.35	296.42	22.61	-27.1	-28.8	15.2	0.00e+00	0	44	102	1048576	14	4393
2026-01-05 02:19:30.36	295.90	22.52	-27.1	-28.8	15.2	0.00e+00	0	44	102	1048576	14	4378
2026-01-05 02:19:32.37	295.38	22.43	-27.2	-29.0	15.1	3.15e-03	0	43	102	1048576	14	4434
2026-01-05 02:19:34.39	294.87	22.33	-27.2	-29.1	15.0	5.56e-05	0	43	102	1048576	14	4475
2026-01-05 02:19:36.40	294.36	22.24	-27.3	-29.4	14.8	0.00e+00	0	44	102	1048576	14	4561
2026-01-05 02:19:38.41	293.86	22.14	-27.5	-29.7	14.6	0.00e+00	0	44	102	1048576	14	4664
2026-01-05 02:19:40.42	293.36	22.03	-27.7	-29.8	14.3	6.40e-05	0	43	102	1048576	15	4561
2026-01-05 02:19:42.44	292.86	21.93	-27.2	-29.0	15.0	2.51e-05	0	43	102	1048576	14	4454
2026-01-05 02:19:44.45	292.36	21.83	-27.3	-29.4	14.8	2.20e-06	0	44	102	1048576	14	4550
2026-01-05 02:19:46.47	291.87	21.72	-27.7	-29.8	14.2	7.00e-07	0	44	102	1048576	15	4579
2026-01-05 02:19:48.48	291.38	21.61	-27.6	-29.4	14.4	3.85e-03	0	44	102	1048576	15	4468
2026-01-05 02:19:50.49	290.89	21.50	-27.4	-29.5	14.7	3.79e-03	0	44	102	1048576	14	4603
2026-01-05 02:19:52.51	290.41	21.39	-27.1	-28.9	15.0	0.00e+00	0	44	102	1048576	14	4419
2026-01-05 02:19:54.52	289.93	21.27	-27.0	-28.6	15.2	2.82e-03	0	44	102	1048576	14	4337
2026-01-05 02:19:56.53	289.46	21.16	-27.3	-29.2	14.8	7.00e-07	0	44	102	1048576	14	4511
2026-01-05 02:19:58.54	288.99	21.04	-27.5	-29.7	14.6	7.00e-07	0	44	102	1048576	14	4660
2026-01-05 02:20:00.55	288.52	20.92	-27.4	-29.6	14.6	7.41e-04	0	44	102	1048576	14	4614
2026-01-05 02:20:02.56	288.06	20.80	-27.5	-29.7	14.5	1.50e-06	0	44	102	1048576	14	4660
2026-01-05 02:20:04.58	287.60	20.68	-27.6	-29.4	14.4	3.00e-06	0	43	102	1048576	15	4470
2026-01-05 02:20:06.59	287.14	20.56	-27.9	-30.3	13.9	1.50e-06	0	44	102	1048576	15	4716
2026-01-05 02:20:08.61	286.69	20.43	-27.8	-29.9	14.1	7.00e-07	0	44	102	1048576	15	4613
2026-01-05 02:20:10.62	286.24	20.31	-27.9	-30.2	13.9	1.50e-06	0	44	102	1048576	15	4700
2026-01-05 02:20:12.63	285.79	20.18	-28.3	-30.6	13.6	2.20e-06	0	44	102	1048576	16	4713
2026-01-05 02:20:14.64	285.35	20.05	-27.8	-29.5	14.2	4.34e-04	0	44	102	1048576	16	4369
2026-01-05 02:20:16.65	284.91	19.92	-27.4	-29.1	14.6	0.00e+00	0	44	102	1048576	15	4358
2026-01-05 02:20:18.67	284.48	19.79	-27.3	-29.3	14.7	8.41e-04	0	44	102	1048576	14	4553
2026-01-05 02:20:20.68	284.05	19.66	-27.1	-28.8	15.0	1.85e-03	0	44	102	1048576	14	4388
2026-01-05 02:20:22.69	283.62	19.53	-27.0	-28.7	15.0	7.00e-07	0	44	102	1048576	14	4378
2026-01-05 02:20:24.70	283.20	19.40	-26.9	-29.0	15.2	0.00e+00	0	44	102	1048576	13	4560
2026-01-05 02:20:26.72	282.78	19.26	-26.8	-28.7	15.3	3.42e-03	0	44	102	1048576	13	4473
2026-01-05 02:20:28.74	282.36	19.13	-26.9	-29.0	15.1	0.00e+00	0	44	102	1048576	13	4568
2026-01-05 02:20:30.74	281.95	18.99	-27.1	-29.0	14.9	0.00e+00	0	44	102	1048576	14	4442
2026-01-05 02:20:32.75	281.54	18.86	-27.1	-28.9	14.9	1.60e-03	0	44	102	1048576	14	4434
2026-01-05 02:20:34.76	281.14	18.72	-27.1	-28.9	14.9	7.00e-07	0	43	102	1048576	14	4428
2026-01-05 02:20:36.77	280.74	18.58	-27.1	-28.9	14.9	0.00e+00	0	43	102	1048576	14	4423
2026-01-05 02:20:38.78	280.34	18.44	-27.0	-28.7	15.0	0.00e+00	0	44	102	1048576	14	4379
2026-01-05 02:20:40.80	279.95	18.30	-27.2	-29.2	14.7	0.00e+00	0	44	102	1048576	14	4501
2026-01-05 02:20:42.80	279.56	18.17	-27.3	-29.4	14.6	7.00e-07	0	44	102	1048576	14	4564
2026-01-05 02:20:44.82	279.17	18.03	-27.1	-29.0	14.8	7.00e-07	0	44	102	1048576	14	4462
2026-01-05 02:20:46.84	278.79	17.88	-27.2	-29.1	14.5	0.00e+00	0	44	102	1048576	14	4479
2026-01-05 02:20:48.85	278.41	17.74	-27.3	-29.4	14.5	1.60e-04	0	44	102	1048576	14	4588
2026-01-05 02:20:50.87	278.03	17.60	-27.8	-30.2	13.8	1.50e-06	0	44	102	1048576	15	4697
2026-01-05 02:20:52.88	277.66	17.46	-28.2	-30.4	13.6	7.60e-06	0	44	102	1048576	16	4648
2026-01-05 02:20:54.89	277.29	17.32	-27.7	-29.9	13.9	1.72e-03	0	44	102	1048576	15	4617
2026-01-05 02:20:56.91	276.92	17.17	-27.7	-29.8	14.0	1.50e-06	0	44	102	1048576	15	4581
2026-01-05 02:20:58.92	276.56	17.03	-27.6	-29.5	14.1	4.26e-03	0	44	102	1048576	15	4512
2026-01-05 02:21:00.93	276.20	16.89	-27.6	-29.5	14.2	5.86e-04	0	44	102	1048576	15	4494
2026-01-05 02:21:02.95	275.85	16.74	-27.7	-29.8	14.0	4.20e-03	0	44	102	1048576	15	4579
2026-01-05 02:21:04.97	275.49	16.60	-27.6	-29.5	14.1	4.19e-03	0	44	102	1048576	15	4516
2026-01-05 02:21:06.98	275.15	16.45	-27.4	-29.6	14.4	1.50e-06	0	44	102	1048576	14	4648
2026-01-05 02:21:09.00	274.80	16.31	-27.3	-29.4	14.5	0.00e+00	0	44	102	1048576	14	4570
2026-01-05 02:21:11.02	274.46	16.16	-27.1	-29.0	14.8	3.77e-03	0	44	102	1048576	14	4453
2026-01-05 02:21:13.03	274.12	16.02	-27.2	-29.2	14.6	7.00e-07	0	44	102	1048576	14	4524
2026-01-05 02:21:15.04	273.79	15.87	-27.4	-29.6	14.4	0.00e+00	0	44	102	1048576	14	4639
2026-01-05 02:21:17.06	273.45	15.73	-27.4	-29.7	14.3	3.42e-03	0	44	102	1048576	14	4681
2026-01-05 02:21:19.07	273.13	15.58	-27.6	-29.6	14.1	1.50e-06	0	44	102	1048576	15	4531
2026-01-05 02:21:21.08	272.80	15.43	-27.8	-30.0	13.8	7.60e-06	0	44	102	1048576	15	4655
2026-01-05 02:21:23.09	272.48	15.29	-27.9	-30.4	13.4	3.63e-03	0	44	102	1048576	15	4772
2026-01-05 02:21:25.11	272.16	15.14	-27.9	-30.3	13.6	8.30e-06	0	44	102	1048576	15	4736
2026-01-05 02:21:27.13	271.84	15.00	-27.8	-30.0	13.8	5.30e-06	0	43	102	1048576	15	4639
2026-01-05 02:21:29.14	271.53	14.85	-27.7	-29.8	13.9	8.30e-06	0	44	102	1048576	15	4594
2026-01-05 02:21:31.15	271.22	14.71	-27.6	-29.6	14.0	2.20e-06	0	44	102	1048576	15	4532
2026-01-05 02:21:33.17	270.91	14.56	-27.4	-29.6	14.3	3.48e-03	0	44	102	1048576	14	4653
2026-01-05 02:21:35.19	270.61	14.41	-27.2	-29.2	14.5	3.37e-03	0	44	102	1048576	14	4515
2026-01-05 02:21:37.21	270.31	14.27	-27.3	-29.5	14.3	0.00e+00	0	44	102	1048576	14	4610
2026-01-05 02:21:39.22	270.01	14.12	-27.2	-29.1	14.6	1.99e-03	0	44	102	1048576	14	4488
2026-01-05 02:21:41.23	269.72	13.98	-27.3	-29.5	14.3	0.00e+00	0	44	102	1048576	14	4618
2026-01-05 02:21:43.25	269.43	13.83	-28.1	-30.3	13.4	9.90e-06	0	44	102	1048576	16	4618
2026-01-05 02:21:45.26	269.14	13.69	-28.4	-30.9	13.0	3.44e-03	0	44	102	1048576	16	4838
2026-01-05 02:21:47.27	268.85	13.54	-28.5	-30.9	12.7	6.40e-05	0	44	102	1048576	17	4715
2026-01-05 02:21:49.28	268.57	13.40	-28.4	-31.1	12.9	4.11e-05	0	44	102	1048576	16	4908
2026-01-05 02:21:51.30	268.29	13.25	-28.5	-30.8	12.7	3.69e-03	0	44	102	1048576	17	4701
2026-01-05 02:21:53.31	268.01	13.11	-28.5	-30.7	12.8	6.48e-05	0	44	102	1048576	17	4655
2026-01-05 02:21:55.32	267.74	12.96	-28.1	-30.3	13.3	2.28e-05	0	44	102	1048576	16	4651
2026-01-05 02:21:57.33	267.47	12.82	-27.9	-30.5	13.3	1.14e-05	0	44	102	1048576	15	4823
2026-01-05 02:21:59.34	267.20	12.68	-27.9	-30.5	13.3	3.58e-03	0	44	102	1048576	15	4812
2026-01-05 02:22:01.33	266.93	12.54	-28.1	-30.4	13.3	2.05e-05	0	44	102	1048576	16	4657
2026-01-05 02:22:03.35	266.67	12.39	-28.3	-30.8	13.0	3.35e-05	0	44	102	1048576	16	4806
2026-01-05 02:22:05.36	266.41	12.25	-28.3	-30.9	12.9	4.19e-05	0	44	102	1048576	16	4833
2026-01-05 02:22:07.38	266.15	12.11	-28.0	-30.6	11.6	3.66e-05	0	44	102	1048576	16	4824
2026-01-05 02:22:09.40	265.89	11.96	-28.3	-30.7	13.1	2.97e-05	0	44	102	1048576	16	4755
2026-01-05 02:22:11.40	265.64	11.82	-28.0	-30.6	13.2	4.35e-03	0	43	102	1048576	15	4857
2026-01-05 02:22:13.42	265.39	11.68	-28.2	-30.6	13.1	2.89e-05	0	44	102	1048576	16	4725
2026-01-05 02:22:15.43	265.14	11.54	-28.3	-30.8	13.0	3.28e-05	0	44	102	1048576	16	4795
2026-01-05 02:22:17.44	264.89	11.40	-28.2	-30.6	13.0	5.57e-03	0	44	102	1048576	16	4748
2026-01-05 02:22:19.45	264.65	11.25	-28.3	-30.8	12.8	6.17e-05	0	44	102	1048576	16	4828
2026-01-05 02:22:21.47	264.41	11.11	-28.3	-30.8	12.9	3.96e-03	0	44	102	1048576	16	4795
2026-01-05 02:22:23.48	264.17	10.97	-28.4	-31.2	12.6	1.02e-02	0	44	102	1048576	16	4960
2026-01-05 02:22:25.50	263.93	10.83	-28.7	-31.2	12.2	1.07e-02	0	44	102	1048576	17	4852
2026-01-05 02:22:27.51	263.69	10.69	-28.6	-31.1	12.3	4.43e-03	0	44	102	1048576	17	4801
2026-01-05 02:22:29.52	263.46	10.55	-28.6	-31.2	12.2	1.00e-02	0	44	102	1048576	17	4845
2026-01-05 02:22:31.54	263.23	10.41	-28.7	-31.5	12.1	8.37e-03	0	43	102	1048576	17	4931
2026-01-05 02:22:33.54	263.00	10.28	-28.4	-30.7	12.6	2.09e-03	0	44	102	1048576	17	4677
2026-01-05 02:22:35.56	262.78	10.14	-28.3	-31.0	12.7	7.24e-05	0	44	102	1048576	16	4877
2026-01-05 02:22:37.57	262.55	10.00	-28.3	-30.8	12.8	4.43e-03	0	44	102	1048576	16	4822
2026-01-05 02:22:39.58	262.33	9.86	-28.4	-31.1	12.6	3.29e-04	0	44	102	1048576	16	4931
2026-01-05 02:22:41.60	262.11	9.72	-28.5	-31.3	12.5	1.06e-04	0	44	102	1048576	16	4998
2026-01-05 02:22:43.61	261.90	9.59	-28.7	-31.4	12.1	6.24e-03	0	43	102	1048576	17	4913
2026-01-05 02:22:45.63	261.68	9.45	-28.8	-31.7	11.8	4.10e-04	0	44	102	1048576	17	5031
2026-01-05 02:22:47.64	261.47	9.31	-28.9	-31.9	11.7	5.53e-04	0	44	102	1048576	17	5107
2026-01-05 02:22:49.65	261.26	9.18	-28.9	-32.0	11.6	6.60e-04	0	44	102	1048576	17	5144
2026-01-05 02:22:51.66	261.05	9.04	-28.9	-32.1	11.6	6.93e-04	0	44	102	1048576	17	5163
2026-01-05 02:22:53.68	260.84	8.90	-28.8	-31.8	11.7	5.29e-04	0	44	102	1048576	17	5064
2026-01-05 02:22:55.69	260.64	8.77	-28.7	-31.5	11.9	1.96e-03	0	44	102	1048576	17	4976
2026-01-05 02:22:57.70	260.43	8.64	-28.8	-31.7	11.8	4.35e-04	0	44	102	1048576	17	5022
2026-01-05 02:22:59.71	260.23	8.50	-28.6	-31.3	11.9	1.14e-03	0	44	102	1048576	17	4907
2026-01-05 02:23:01.71	260.03	8.37	-28.7	-31.4	11.9	7.86e-04	0	44	102	1048576	17	4927
2026-01-05 02:23:03.73	259.84	8.23	-28.7	-31.5	11.8	4.36e-04	0	44	102	1048576	17	4963
2026-01-05 02:23:05.74	259.64	8.10	-28.7	-31.5	11.8	5.45e-04	0	44	102	1048576	17	4951
2026-01-05 02:23:07.75	259.45	7.97	-28.9	-32.0	11.5	1.11e-03	0	44	102	1048576	17	5143
2026-01-05 02:23:09.77	259.25	7.84	-29.0	-32.2	11.3	1.14e-03	0	44	102	1048576	17	5232
2026-01-05 02:23:11.78	259.06	7.70	-29.1	-32.1	11.1	3.17e-03	0	44	102	1048576	18	5078
2026-01-05 02:23:13.80	258.87	7.57	-29.2	-32.4	10.8	2.62e-03	0	44	102	1048576	18	5205
2026-01-05 02:23:15.82	258.69	7.44	-29.1	-32.0	11.1	1.60e-03	0	44	102	1048576	18	5045
2026-01-05 02:23:17.83	258.50	7.31	-29.0	-32.3	11.2	3.00e-03	0	44	102	1048576	17	5254
2026-01-05 02:23:19.84	258.32	7.18	-28.9	-32.0	11.4	1.00e-03	0	44	102	1048576	17	5163
2026-01-05 02:23:21.85	258.14	7.05	-32.5	-44.3	3.8	1.49e+00	0	44	104	1048576	24	13968

#Closed at: 2026-01-05 02:23:22
#Recorded file [1 MB]: D:/data/31010_260105_051611.dat