passes_logs/2026/01/05/R2M6_AANII_01/R2M6_AANII_01__20260105_071057_FENGYUN_3E_rec.log

#Pass ID: 20260105_071057_FENGYUN 3E
#Satellite: FENGYUN 3E
#Configuration: FENGYUN 3E
#almurnet v.1.7.20240730
#Start time: 2026-01-05 07:10:58

#Version: 2.2.20231116
#Station: R2M6_AANII_01
#Location: 30.233357 lon 59.946436 lat
#TLE: 1 49008U 21062A   26004.29457719  .00000106  00000+0  70678-4 0  9996
#TLE: 2 49008  98.7471   9.5487 0001503 159.9821 200.1414 14.19883545233329

#Time	Az	El	Level	Level2	SNR	BER	BlckErr	Temp	State	Recorded	gain1	gain2
2026-01-05 07:10:58.29	8.26	7.06	-30.4	-34.3	4.4	8.25e-01	0	41	0	0	22	5611
2026-01-05 07:11:00.30	8.03	7.17	-29.4	-31.8	7.5	1.10e-01	0	41	0	0	20	4730
2026-01-05 07:11:02.32	7.80	7.28	-29.4	-31.8	7.6	1.10e-01	0	41	102	1048576	20	4715
2026-01-05 07:11:04.34	7.56	7.39	-29.3	-31.8	8.1	7.90e-02	0	41	102	1048576	19	4777
2026-01-05 07:11:06.35	7.32	7.50	-28.4	-29.8	9.7	1.53e-02	0	41	102	1048576	18	4232
2026-01-05 07:11:08.37	7.08	7.61	-27.8	-29.1	10.9	3.23e-03	0	41	102	1048576	16	4195
2026-01-05 07:11:10.38	6.84	7.72	-27.1	-28.0	11.7	7.28e-04	0	42	102	1048576	15	3992
2026-01-05 07:11:12.39	6.60	7.83	-26.9	-28.0	12.1	3.49e-04	0	42	102	1048576	14	4092
2026-01-05 07:11:14.41	6.35	7.94	-26.9	-28.0	12.0	3.15e-04	0	42	102	1048576	14	4084
2026-01-05 07:11:16.42	6.10	8.05	-26.7	-27.6	12.3	2.52e-04	0	42	102	1048576	14	3996
2026-01-05 07:11:18.43	5.86	8.15	-26.8	-27.9	12.1	2.60e-04	0	42	102	1048576	14	4061
2026-01-05 07:11:20.45	5.60	8.26	-26.8	-27.9	12.1	2.63e-04	0	42	102	1048576	14	4065
2026-01-05 07:11:22.46	5.35	8.37	-26.8	-27.9	12.1	2.59e-04	0	42	102	1048576	14	4053
2026-01-05 07:11:24.47	5.10	8.48	-26.8	-27.9	12.2	2.99e-04	0	42	102	1048576	14	4060
2026-01-05 07:11:26.48	4.84	8.59	-26.5	-27.0	12.7	1.02e-04	0	42	102	1048576	14	3837
2026-01-05 07:11:28.49	4.58	8.70	-26.3	-27.2	12.9	8.92e-05	0	42	102	1048576	13	3983
2026-01-05 07:11:30.51	4.32	8.81	-26.3	-27.0	13.0	4.11e-05	0	42	102	1048576	13	3929
2026-01-05 07:11:32.52	4.06	8.91	-26.2	-26.8	13.1	5.14e-05	0	42	102	1048576	13	3879
2026-01-05 07:11:34.53	3.79	9.02	-26.1	-26.6	13.2	2.17e-05	0	42	102	1048576	13	3819
2026-01-05 07:11:36.55	3.53	9.13	-26.1	-26.6	13.2	2.40e-05	0	42	102	1048576	13	3816
2026-01-05 07:11:38.55	3.26	9.24	-26.2	-26.9	13.1	2.51e-05	0	42	102	1048576	13	3887
2026-01-05 07:11:40.57	2.99	9.35	-26.1	-26.7	13.2	3.31e-05	0	42	102	1048576	13	3854
2026-01-05 07:11:42.58	2.71	9.45	-26.3	-27.0	13.0	3.20e-05	0	42	102	1048576	13	3929
2026-01-05 07:11:44.58	2.44	9.56	-26.4	-27.4	12.9	6.86e-05	0	42	102	1048576	13	4022
2026-01-05 07:11:46.59	2.17	9.67	-26.3	-27.1	12.9	6.06e-05	0	42	102	1048576	13	3960
2026-01-05 07:11:48.60	1.89	9.77	-26.3	-27.2	12.9	5.03e-05	0	42	102	1048576	13	3977
2026-01-05 07:11:50.62	1.60	9.88	-26.4	-27.3	12.9	5.37e-05	0	42	102	1048576	13	3986
2026-01-05 07:11:52.63	1.32	9.99	-26.3	-27.1	13.0	3.77e-05	0	42	102	1048576	13	3947
2026-01-05 07:11:54.64	1.04	10.09	-26.4	-27.4	12.9	6.63e-05	0	42	102	1048576	13	4015
2026-01-05 07:11:56.66	0.75	10.20	-26.4	-27.3	12.9	6.29e-05	0	43	102	1048576	13	3998
2026-01-05 07:11:58.67	0.46	10.31	-26.4	-27.3	13.0	4.34e-05	0	43	102	1048576	13	3996
2026-01-05 07:12:00.68	0.17	10.41	-26.5	-27.4	12.9	8.46e-05	0	43	102	1048576	13	4031
2026-01-05 07:12:02.70	359.87	10.52	-26.5	-27.4	12.9	6.75e-05	0	43	102	1048576	13	4035
2026-01-05 07:12:04.71	359.58	10.62	-26.2	-26.8	13.3	2.40e-05	0	43	102	1048576	13	3853
2026-01-05 07:12:06.72	359.28	10.73	-26.2	-26.9	13.2	2.05e-05	0	43	102	1048576	13	3891
2026-01-05 07:12:08.73	358.98	10.83	-26.2	-26.9	13.2	2.63e-05	0	43	102	1048576	13	3902
2026-01-05 07:12:10.75	358.67	10.94	-26.1	-26.6	13.4	1.94e-05	0	43	102	1048576	13	3823
2026-01-05 07:12:12.76	358.37	11.04	-26.1	-26.7	13.4	1.48e-05	0	43	102	1048576	13	3840
2026-01-05 07:12:14.78	358.06	11.14	-26.1	-26.7	13.3	1.94e-05	0	43	102	1048576	13	3837
2026-01-05 07:12:16.79	357.75	11.25	-26.1	-26.7	13.4	1.02e-05	0	43	102	1048576	13	3853
2026-01-05 07:12:18.80	357.44	11.35	-26.2	-26.8	13.4	1.37e-05	0	43	102	1048576	13	3857
2026-01-05 07:12:20.82	357.12	11.45	-25.9	-26.6	13.7	5.70e-06	0	43	102	1048576	12	3920
2026-01-05 07:12:22.82	356.81	11.55	-25.9	-26.6	13.8	2.20e-06	0	43	102	1048576	12	3903
2026-01-05 07:12:24.83	356.49	11.65	-25.8	-26.5	13.8	5.70e-06	0	43	102	1048576	12	3882
2026-01-05 07:12:26.85	356.17	11.76	-25.8	-26.4	13.9	5.70e-06	0	43	102	1048576	12	3850
2026-01-05 07:12:28.86	355.85	11.86	-25.8	-26.5	13.8	6.80e-06	0	43	102	1048576	12	3876
2026-01-05 07:12:30.87	355.52	11.96	-25.8	-26.4	13.9	4.50e-06	0	43	102	1048576	12	3868
2026-01-05 07:12:32.89	355.19	12.06	-25.8	-26.3	13.9	5.70e-06	0	43	102	1048576	12	3845
2026-01-05 07:12:34.91	354.86	12.16	-25.7	-26.2	14.0	3.40e-06	0	43	102	1048576	12	3824
2026-01-05 07:12:36.92	354.53	12.25	-25.8	-26.3	13.9	2.20e-06	0	43	102	1048576	12	3847
2026-01-05 07:12:38.93	354.20	12.35	-25.5	-25.7	14.3	2.20e-06	0	43	102	1048576	12	3692
2026-01-05 07:12:40.95	353.86	12.45	-25.4	-25.5	14.4	1.10e-06	0	43	102	1048576	12	3652
2026-01-05 07:12:42.97	353.52	12.55	-25.5	-26.2	14.4	0.00e+00	0	43	102	1048576	11	3904
2026-01-05 07:12:44.98	353.18	12.64	-25.7	-26.7	14.1	2.20e-06	0	43	102	1048576	11	4025
2026-01-05 07:12:46.99	352.84	12.74	-25.5	-26.3	14.3	1.10e-06	0	43	102	1048576	11	3936
2026-01-05 07:12:49.00	352.49	12.83	-25.6	-26.4	14.2	1.10e-06	0	43	102	1048576	11	3971
2026-01-05 07:12:51.02	352.14	12.93	-25.6	-26.4	14.3	2.20e-06	0	43	102	1048576	11	3953
2026-01-05 07:12:53.03	351.79	13.02	-25.6	-26.5	14.2	2.20e-06	0	43	102	1048576	11	3990
2026-01-05 07:12:55.05	351.44	13.11	-25.6	-26.5	14.3	0.00e+00	0	43	102	1048576	11	3980
2026-01-05 07:12:57.06	351.09	13.21	-25.8	-26.8	14.0	5.70e-06	0	43	102	1048576	11	4073
2026-01-05 07:12:59.07	350.73	13.30	-25.6	-26.4	14.3	1.10e-06	0	43	102	1048576	11	3961
2026-01-05 07:13:01.09	350.37	13.39	-25.5	-26.2	14.4	0.00e+00	0	43	102	1048576	11	3908
2026-01-05 07:13:03.10	350.01	13.48	-25.5	-26.1	14.5	0.00e+00	0	43	102	1048576	11	3890
2026-01-05 07:13:05.11	349.64	13.57	-25.6	-26.3	14.4	0.00e+00	0	43	102	1048576	11	3938
2026-01-05 07:13:07.13	349.28	13.65	-25.3	-25.7	14.7	0.00e+00	0	43	102	1048576	11	3783
2026-01-05 07:13:09.15	348.91	13.74	-25.3	-25.7	14.7	0.00e+00	0	43	102	1048576	11	3777
2026-01-05 07:13:11.16	348.54	13.83	-25.2	-25.6	14.8	2.20e-06	0	43	102	1048576	11	3765
2026-01-05 07:13:13.18	348.16	13.91	-25.3	-25.7	14.7	1.10e-06	0	43	102	1048576	11	3776
2026-01-05 07:13:15.18	347.79	14.00	-25.3	-25.7	14.7	0.00e+00	0	43	102	1048576	11	3790
2026-01-05 07:13:17.19	347.42	14.08	-25.4	-25.9	14.6	0.00e+00	0	43	102	1048576	11	3833
2026-01-05 07:13:19.21	347.03	14.16	-25.3	-25.8	14.7	1.10e-06	0	43	102	1048576	11	3804
2026-01-05 07:13:21.22	346.65	14.25	-25.3	-25.7	14.7	0.00e+00	0	43	102	1048576	11	3792
2026-01-05 07:13:23.24	346.27	14.33	-25.5	-26.2	14.5	0.00e+00	0	43	102	1048576	11	3905
2026-01-05 07:13:25.25	345.88	14.41	-25.5	-26.2	14.5	1.10e-06	0	43	102	1048576	11	3912
2026-01-05 07:13:27.26	345.50	14.48	-25.6	-26.5	14.3	2.20e-06	0	44	102	1048576	11	3988
2026-01-05 07:13:29.28	345.11	14.56	-25.5	-26.3	14.4	1.10e-06	0	44	102	1048576	11	3924
2026-01-05 07:13:31.30	344.71	14.64	-25.7	-26.7	14.2	3.40e-06	0	43	102	1048576	11	4023
2026-01-05 07:13:33.31	344.32	14.71	-25.4	-25.9	14.7	0.00e+00	0	43	102	1048576	11	3826
2026-01-05 07:13:35.32	343.93	14.79	-25.2	-25.5	14.9	0.00e+00	0	43	102	1048576	11	3741
2026-01-05 07:13:37.33	343.53	14.86	-25.1	-25.3	15.0	0.00e+00	0	43	102	1048576	11	3685
2026-01-05 07:13:39.34	343.13	14.93	-25.0	-25.1	15.1	0.00e+00	0	43	102	1048576	11	3639
2026-01-05 07:13:41.36	342.73	15.00	-25.0	-25.2	15.1	0.00e+00	0	43	102	1048576	11	3656
2026-01-05 07:13:43.37	342.32	15.07	-25.1	-25.2	15.0	0.00e+00	0	44	102	1048576	11	3671
2026-01-05 07:13:45.39	341.92	15.14	-25.1	-25.3	15.0	0.00e+00	0	43	102	1048576	11	3684
2026-01-05 07:13:47.40	341.51	15.21	-25.2	-25.4	14.9	0.00e+00	0	43	102	1048576	11	3715
2026-01-05 07:13:49.42	341.10	15.27	-25.1	-25.4	14.9	0.00e+00	0	43	102	1048576	11	3703
2026-01-05 07:13:51.43	340.69	15.34	-25.0	-25.2	15.1	0.00e+00	0	43	102	1048576	11	3663
2026-01-05 07:13:53.44	340.28	15.40	-25.2	-25.4	14.9	0.00e+00	0	43	102	1048576	11	3718
2026-01-05 07:13:55.46	339.86	15.46	-25.0	-25.2	15.1	0.00e+00	0	43	102	1048576	11	3654
2026-01-05 07:13:57.47	339.44	15.52	-25.1	-25.3	15.0	0.00e+00	0	44	102	1048576	11	3685
2026-01-05 07:13:59.47	339.03	15.58	-25.0	-25.2	15.1	0.00e+00	0	43	102	1048576	11	3652
2026-01-05 07:14:01.49	338.61	15.64	-25.0	-25.1	15.1	0.00e+00	0	44	102	1048576	11	3642
2026-01-05 07:14:03.50	338.19	15.69	-25.1	-25.2	15.1	0.00e+00	0	43	102	1048576	11	3669
2026-01-05 07:14:05.52	337.76	15.75	-24.9	-25.0	15.2	0.00e+00	0	43	102	1048576	11	3608
2026-01-05 07:14:07.54	337.34	15.80	-24.9	-25.3	15.3	0.00e+00	0	43	102	1048576	10	3796
2026-01-05 07:14:09.55	336.91	15.85	-24.8	-25.1	15.4	0.00e+00	0	44	102	1048576	10	3731
2026-01-05 07:14:11.56	336.48	15.90	-24.7	-24.8	15.6	0.00e+00	0	44	102	1048576	10	3681
2026-01-05 07:14:13.57	336.06	15.95	-24.6	-24.7	15.7	0.00e+00	0	44	102	1048576	10	3635
2026-01-05 07:14:15.58	335.63	16.00	-24.6	-24.7	15.6	0.00e+00	0	44	102	1048576	10	3642
2026-01-05 07:14:17.60	335.19	16.05	-24.6	-24.6	15.7	0.00e+00	0	44	102	1048576	10	3632
2026-01-05 07:14:19.62	334.76	16.09	-24.6	-24.8	15.6	0.00e+00	0	44	102	1048576	10	3664
2026-01-05 07:14:21.64	334.32	16.13	-24.7	-24.9	15.5	0.00e+00	0	43	102	1048576	10	3702
2026-01-05 07:14:23.65	333.89	16.17	-24.6	-24.8	15.6	0.00e+00	0	43	102	1048576	10	3672
2026-01-05 07:14:25.67	333.45	16.21	-24.6	-24.7	15.6	0.00e+00	0	43	102	1048576	10	3653
2026-01-05 07:14:27.69	333.01	16.25	-24.7	-25.0	15.5	0.00e+00	0	44	102	1048576	10	3701
2026-01-05 07:14:29.71	332.57	16.29	-24.3	-24.5	16.0	0.00e+00	0	43	102	1048576	9	3695
2026-01-05 07:14:31.72	332.13	16.32	-24.2	-24.5	16.1	0.00e+00	0	43	102	1048576	9	3688
2026-01-05 07:14:33.74	331.69	16.35	-24.2	-24.3	16.1	0.00e+00	0	43	102	1048576	9	3654
2026-01-05 07:14:35.75	331.25	16.38	-24.3	-24.5	16.0	0.00e+00	0	43	102	1048576	9	3704
2026-01-05 07:14:37.76	330.80	16.41	-24.5	-24.9	15.8	0.00e+00	0	44	102	1048576	9	3805
2026-01-05 07:14:39.78	330.36	16.44	-24.5	-25.1	15.7	0.00e+00	0	44	102	1048576	9	3841
2026-01-05 07:14:41.79	329.91	16.47	-24.5	-25.0	15.8	0.00e+00	0	43	102	1048576	9	3809
2026-01-05 07:14:43.81	329.47	16.49	-24.7	-25.4	15.6	0.00e+00	0	44	102	1048576	9	3908
2026-01-05 07:14:45.82	329.02	16.51	-24.3	-24.5	16.0	0.00e+00	0	43	102	1048576	9	3700
2026-01-05 07:14:47.83	328.58	16.53	-24.2	-24.4	16.1	0.00e+00	0	44	102	1048576	9	3685
2026-01-05 07:14:49.83	328.13	16.55	-24.2	-24.3	16.1	0.00e+00	0	44	102	1048576	9	3647
2026-01-05 07:14:51.85	327.68	16.57	-24.3	-24.5	16.0	0.00e+00	0	44	102	1048576	9	3707
2026-01-05 07:14:53.87	327.23	16.58	-24.2	-24.3	16.1	0.00e+00	0	44	102	1048576	9	3657
2026-01-05 07:14:55.88	326.78	16.60	-24.2	-24.4	16.1	0.00e+00	0	44	102	1048576	9	3675
2026-01-05 07:14:57.90	326.33	16.61	-24.1	-24.1	16.2	0.00e+00	0	44	102	1048576	9	3602
2026-01-05 07:14:59.90	325.89	16.62	-24.2	-24.2	16.1	0.00e+00	0	44	102	1048576	9	3638
2026-01-05 07:15:01.92	325.44	16.63	-24.2	-24.4	16.1	0.00e+00	0	44	102	1048576	9	3674
2026-01-05 07:15:03.93	324.99	16.63	-24.3	-24.5	16.0	0.00e+00	0	44	102	1048576	9	3700
2026-01-05 07:15:05.96	324.53	16.64	-24.4	-24.8	15.9	0.00e+00	0	44	102	1048576	9	3760
2026-01-05 07:15:07.98	324.08	16.64	-24.5	-25.0	15.8	0.00e+00	0	44	102	1048576	9	3808
2026-01-05 07:15:09.99	323.63	16.64	-24.4	-24.8	15.9	0.00e+00	0	44	102	1048576	9	3776
2026-01-05 07:15:12.01	323.18	16.64	-24.6	-25.1	15.7	0.00e+00	0	44	102	1048576	9	3846
2026-01-05 07:15:14.02	322.73	16.64	-24.7	-25.4	15.6	0.00e+00	0	44	102	1048576	9	3904
2026-01-05 07:15:16.02	322.28	16.63	-24.7	-25.4	15.5	0.00e+00	0	44	102	1048576	9	3914
2026-01-05 07:15:18.04	321.83	16.63	-24.9	-25.9	15.3	0.00e+00	0	44	102	1048576	9	4035
2026-01-05 07:15:20.05	321.38	16.62	-24.5	-25.1	15.7	0.00e+00	0	44	102	1048576	9	3827
2026-01-05 07:15:22.06	320.93	16.61	-24.5	-25.0	15.8	0.00e+00	0	44	102	1048576	9	3802
2026-01-05 07:15:24.07	320.48	16.60	-24.4	-24.8	15.9	0.00e+00	0	44	102	1048576	9	3768
2026-01-05 07:15:26.09	320.03	16.58	-24.2	-24.4	16.1	0.00e+00	0	44	102	1048576	9	3686
2026-01-05 07:15:28.11	319.58	16.57	-24.3	-24.5	16.0	0.00e+00	0	44	102	1048576	9	3696
2026-01-05 07:15:30.11	319.14	16.55	-24.4	-24.7	15.9	0.00e+00	0	44	102	1048576	9	3744
2026-01-05 07:15:32.13	318.69	16.53	-24.3	-24.6	16.0	0.00e+00	0	44	102	1048576	9	3725
2026-01-05 07:15:34.15	318.24	16.51	-24.2	-24.3	16.1	0.00e+00	0	44	102	1048576	9	3653
2026-01-05 07:15:36.16	317.79	16.49	-24.1	-24.1	16.3	0.00e+00	0	44	102	1048576	9	3609
2026-01-05 07:15:38.18	317.35	16.46	-24.1	-24.2	16.2	0.00e+00	0	44	102	1048576	9	3623
2026-01-05 07:15:40.19	316.90	16.44	-24.1	-24.2	16.2	0.00e+00	0	44	102	1048576	9	3638
2026-01-05 07:15:42.20	316.46	16.41	-24.3	-24.6	16.0	0.00e+00	0	44	102	1048576	9	3714
2026-01-05 07:15:44.22	316.01	16.38	-24.3	-24.5	16.0	0.00e+00	0	44	102	1048576	9	3702
2026-01-05 07:15:46.23	315.57	16.35	-24.3	-24.6	15.9	1.10e-06	0	44	102	1048576	9	3731
2026-01-05 07:15:48.25	315.13	16.32	-24.5	-25.0	15.7	0.00e+00	0	44	102	1048576	9	3820
2026-01-05 07:15:50.27	314.69	16.28	-24.4	-24.8	15.8	0.00e+00	0	44	102	1048576	9	3769
2026-01-05 07:15:52.28	314.25	16.25	-24.6	-25.3	15.6	0.00e+00	0	44	102	1048576	9	3890
2026-01-05 07:15:54.29	313.81	16.21	-24.3	-24.7	15.9	0.00e+00	0	44	102	1048576	9	3738
2026-01-05 07:15:56.31	313.37	16.17	-24.4	-24.7	15.9	0.00e+00	0	44	102	1048576	9	3752
2026-01-05 07:15:58.32	312.94	16.13	-24.4	-24.8	15.8	0.00e+00	0	44	102	1048576	9	3777
2026-01-05 07:16:00.33	312.50	16.09	-24.5	-24.9	15.8	0.00e+00	0	44	102	1048576	9	3802
2026-01-05 07:16:02.35	312.07	16.04	-24.5	-25.0	15.7	0.00e+00	0	44	102	1048576	9	3815
2026-01-05 07:16:04.36	311.64	16.00	-24.6	-25.2	15.6	0.00e+00	0	44	102	1048576	9	3868
2026-01-05 07:16:06.38	311.20	15.95	-24.6	-25.2	15.6	0.00e+00	0	44	102	1048576	9	3864
2026-01-05 07:16:08.39	310.77	15.90	-24.7	-25.4	15.4	0.00e+00	0	44	102	1048576	9	3923
2026-01-05 07:16:10.40	310.35	15.85	-24.8	-25.6	15.3	0.00e+00	0	44	102	1048576	9	3968
2026-01-05 07:16:12.41	309.92	15.80	-24.5	-25.0	15.7	0.00e+00	0	44	102	1048576	9	3827
2026-01-05 07:16:14.43	309.49	15.74	-24.6	-25.2	15.6	0.00e+00	0	44	102	1048576	9	3863
2026-01-05 07:16:16.44	309.07	15.69	-24.6	-25.2	15.6	0.00e+00	0	44	102	1048576	9	3875
2026-01-05 07:16:18.44	308.65	15.63	-24.7	-25.5	15.4	0.00e+00	0	44	102	1048576	9	3946
2026-01-05 07:16:20.45	308.23	15.58	-24.5	-25.1	15.6	0.00e+00	0	44	102	1048576	9	3828
2026-01-05 07:16:22.47	307.81	15.52	-24.4	-24.8	15.8	0.00e+00	0	43	102	1048576	9	3756
2026-01-05 07:16:24.49	307.39	15.46	-24.4	-24.8	15.8	0.00e+00	0	44	102	1048576	9	3773
2026-01-05 07:16:26.50	306.98	15.39	-24.5	-25.1	15.6	0.00e+00	0	44	102	1048576	9	3844
2026-01-05 07:16:28.52	306.56	15.33	-24.7	-25.4	15.5	0.00e+00	0	44	102	1048576	9	3903
2026-01-05 07:16:30.54	306.15	15.27	-24.8	-25.7	15.3	0.00e+00	0	44	102	1048576	9	3985
2026-01-05 07:16:32.56	305.74	15.20	-24.7	-25.6	15.4	0.00e+00	0	44	102	1048576	9	3957
2026-01-05 07:16:34.58	305.33	15.13	-24.7	-25.4	15.4	0.00e+00	0	44	102	1048576	9	3908
2026-01-05 07:16:36.59	304.92	15.06	-24.5	-25.1	15.6	0.00e+00	0	44	102	1048576	9	3833
2026-01-05 07:16:38.59	304.52	14.99	-24.6	-25.3	15.5	0.00e+00	0	44	102	1048576	9	3880
2026-01-05 07:16:40.60	304.12	14.92	-24.7	-25.5	15.4	0.00e+00	0	43	102	1048576	9	3943
2026-01-05 07:16:42.61	303.72	14.85	-24.8	-25.8	15.2	0.00e+00	0	44	102	1048576	9	4011
2026-01-05 07:16:44.63	303.32	14.78	-24.8	-25.8	15.2	0.00e+00	0	44	102	1048576	9	4011
2026-01-05 07:16:46.64	302.92	14.70	-24.8	-25.8	15.2	0.00e+00	0	44	102	1048576	9	4011
2026-01-05 07:16:48.65	302.53	14.63	-24.6	-25.3	15.4	0.00e+00	0	44	102	1048576	9	3887
2026-01-05 07:16:50.67	302.13	14.55	-24.5	-25.1	15.5	0.00e+00	0	44	102	1048576	9	3843
2026-01-05 07:16:52.68	301.74	14.47	-24.6	-25.3	15.4	0.00e+00	0	44	102	1048576	9	3887
2026-01-05 07:16:54.69	301.36	14.40	-24.8	-25.6	15.3	0.00e+00	0	44	102	1048576	9	3970
2026-01-05 07:16:56.70	300.97	14.32	-24.8	-25.8	15.2	0.00e+00	0	44	102	1048576	9	4010
2026-01-05 07:16:58.72	300.58	14.23	-24.9	-26.0	15.0	0.00e+00	0	44	102	1048576	9	4069
2026-01-05 07:17:00.73	300.20	14.15	-25.0	-26.0	15.0	0.00e+00	0	44	102	1048576	9	4075
2026-01-05 07:17:02.74	299.82	14.07	-24.9	-26.0	15.1	0.00e+00	0	44	102	1048576	9	4063
2026-01-05 07:17:04.76	299.44	13.99	-25.0	-26.2	14.9	0.00e+00	0	44	102	1048576	9	4127
2026-01-05 07:17:06.77	299.07	13.90	-25.2	-26.1	14.7	0.00e+00	0	44	102	1048576	10	3987
2026-01-05 07:17:08.78	298.70	13.82	-25.2	-26.0	14.7	0.00e+00	0	44	102	1048576	10	3963
2026-01-05 07:17:10.80	298.32	13.73	-25.3	-26.2	14.6	0.00e+00	0	44	102	1048576	10	4024
2026-01-05 07:17:12.82	297.95	13.64	-25.4	-26.4	14.5	1.10e-06	0	44	102	1048576	10	4071
2026-01-05 07:17:14.83	297.59	13.55	-25.1	-25.8	14.8	0.00e+00	0	44	102	1048576	10	3914
2026-01-05 07:17:16.84	297.22	13.46	-25.3	-26.3	14.6	1.10e-06	0	44	102	1048576	10	4036
2026-01-05 07:17:18.86	296.86	13.37	-25.1	-25.9	14.8	0.00e+00	0	44	102	1048576	10	3941
2026-01-05 07:17:20.87	296.50	13.28	-25.2	-26.1	14.6	1.10e-06	0	44	102	1048576	10	3998
2026-01-05 07:17:22.89	296.14	13.19	-25.2	-26.1	14.7	0.00e+00	0	44	102	1048576	10	3991
2026-01-05 07:17:24.90	295.78	13.10	-25.4	-26.4	14.5	0.00e+00	0	44	102	1048576	10	4059
2026-01-05 07:17:26.91	295.43	13.01	-25.3	-26.4	14.5	1.10e-06	0	44	102	1048576	10	4069
2026-01-05 07:17:28.92	295.08	12.91	-25.1	-25.9	14.8	0.00e+00	0	44	102	1048576	10	3936
2026-01-05 07:17:30.93	294.73	12.82	-25.1	-25.9	14.8	0.00e+00	0	44	102	1048576	10	3931
2026-01-05 07:17:32.94	294.38	12.72	-25.0	-25.7	14.8	0.00e+00	0	44	102	1048576	10	3889
2026-01-05 07:17:34.95	294.04	12.63	-25.0	-25.6	14.9	0.00e+00	0	44	102	1048576	10	3871
2026-01-05 07:17:36.96	293.70	12.53	-25.0	-25.5	14.9	0.00e+00	0	44	102	1048576	10	3851
2026-01-05 07:17:38.98	293.36	12.43	-25.0	-25.7	14.9	0.00e+00	0	44	102	1048576	10	3885
2026-01-05 07:17:41.00	293.02	12.33	-25.1	-26.0	14.7	0.00e+00	0	44	102	1048576	10	3952
2026-01-05 07:17:43.02	292.68	12.24	-25.3	-26.3	14.5	0.00e+00	0	44	102	1048576	10	4038
2026-01-05 07:17:45.03	292.35	12.14	-25.4	-26.5	14.3	0.00e+00	0	44	102	1048576	10	4100
2026-01-05 07:17:47.04	292.02	12.04	-25.4	-26.6	14.3	1.10e-06	0	44	102	1048576	10	4121
2026-01-05 07:17:49.05	291.69	11.94	-25.7	-26.7	13.9	2.20e-06	0	44	102	1048576	11	4031
2026-01-05 07:17:51.06	291.36	11.84	-25.7	-26.8	13.9	5.70e-06	0	44	102	1048576	11	4070
2026-01-05 07:17:53.07	291.04	11.74	-25.7	-26.7	13.9	4.50e-06	0	44	102	1048576	11	4042
2026-01-05 07:17:55.09	290.72	11.64	-25.6	-26.6	13.9	2.20e-06	0	44	102	1048576	11	4014
2026-01-05 07:17:57.09	290.40	11.53	-25.6	-26.5	14.0	3.40e-06	0	44	102	1048576	11	3993
2026-01-05 07:17:59.10	290.08	11.43	-25.3	-25.8	14.4	0.00e+00	0	44	102	1048576	11	3821
2026-01-05 07:18:01.11	289.77	11.33	-25.4	-26.0	14.3	2.20e-06	0	44	102	1048576	11	3856
2026-01-05 07:18:03.13	289.45	11.23	-25.5	-26.2	14.2	2.20e-06	0	44	102	1048576	11	3901
2026-01-05 07:18:05.14	289.14	11.12	-25.5	-26.4	14.1	1.10e-06	0	44	102	1048576	11	3967
2026-01-05 07:18:07.16	288.83	11.02	-25.6	-26.5	14.0	1.10e-06	0	44	102	1048576	11	3995
2026-01-05 07:18:09.18	288.52	10.91	-25.7	-26.6	13.8	5.70e-06	0	44	102	1048576	11	4029
2026-01-05 07:18:11.19	288.22	10.81	-25.6	-26.6	13.8	5.70e-06	0	44	102	1048576	11	4016
2026-01-05 07:18:13.19	287.92	10.71	-25.7	-26.7	13.8	1.02e-05	0	44	102	1048576	11	4037
2026-01-05 07:18:15.21	287.62	10.60	-25.7	-26.7	13.8	5.70e-06	0	44	102	1048576	11	4044
2026-01-05 07:18:17.23	287.32	10.49	-25.7	-26.8	13.7	2.20e-06	0	44	102	1048576	11	4069
2026-01-05 07:18:19.24	287.03	10.39	-25.7	-26.7	13.8	1.14e-05	0	44	102	1048576	11	4051
2026-01-05 07:18:21.26	286.73	10.28	-25.7	-26.8	13.8	6.80e-06	0	44	102	1048576	11	4067
2026-01-05 07:18:23.27	286.44	10.18	-25.8	-26.9	13.7	6.80e-06	0	44	102	1048576	11	4093
2026-01-05 07:18:25.29	286.15	10.07	-25.8	-26.9	13.7	6.80e-06	0	44	102	1048576	11	4095
2026-01-05 07:18:27.30	285.86	9.96	-25.8	-27.0	13.6	1.48e-05	0	43	102	1048576	11	4131
2026-01-05 07:18:29.32	285.58	9.86	-25.8	-26.9	13.6	1.02e-05	0	44	102	1048576	11	4098
2026-01-05 07:18:31.32	285.30	9.75	-25.8	-26.9	13.6	5.70e-06	0	44	102	1048576	11	4105
2026-01-05 07:18:33.34	285.02	9.64	-25.8	-26.9	13.5	5.70e-06	0	44	102	1048576	11	4089
2026-01-05 07:18:35.35	284.74	9.53	-25.9	-27.2	13.4	1.25e-05	0	44	102	1048576	11	4185
2026-01-05 07:18:37.37	284.46	9.43	-26.0	-27.4	13.2	3.20e-05	0	44	102	1048576	11	4245
2026-01-05 07:18:39.38	284.19	9.32	-26.0	-27.5	13.1	4.00e-05	0	44	102	1048576	11	4267
2026-01-05 07:18:41.40	283.91	9.21	-26.2	-27.5	12.7	6.63e-05	0	44	102	1048576	12	4177
2026-01-05 07:18:43.41	283.64	9.10	-26.0	-27.0	13.0	5.95e-05	0	44	102	1048576	12	4041
2026-01-05 07:18:45.43	283.37	8.99	-25.9	-26.8	13.1	3.89e-05	0	44	102	1048576	12	3984
2026-01-05 07:18:47.44	283.11	8.88	-25.9	-26.7	13.2	2.05e-05	0	44	102	1048576	12	3962
2026-01-05 07:18:49.45	282.84	8.78	-25.8	-26.6	13.3	2.17e-05	0	44	102	1048576	12	3932
2026-01-05 07:18:51.47	282.58	8.67	-25.8	-26.5	13.4	1.37e-05	0	44	102	1048576	12	3917
2026-01-05 07:18:53.48	282.32	8.56	-25.9	-26.7	13.2	2.40e-05	0	44	102	1048576	12	3964
2026-01-05 07:18:55.50	282.06	8.45	-26.1	-27.2	13.0	3.77e-05	0	44	102	1048576	12	4080
2026-01-05 07:18:57.52	281.80	8.34	-26.2	-27.4	12.9	6.86e-05	0	44	102	1048576	12	4139
2026-01-05 07:18:59.53	281.55	8.23	-26.1	-27.3	12.9	5.60e-05	0	44	102	1048576	12	4128
2026-01-05 07:19:01.55	281.30	8.12	-26.1	-27.3	12.9	5.83e-05	0	44	102	1048576	12	4126
2026-01-05 07:19:03.56	281.05	8.01	-26.1	-27.3	12.8	7.32e-05	0	44	102	1048576	12	4120
2026-01-05 07:19:05.56	280.80	7.90	-26.2	-27.4	12.8	8.23e-05	0	44	102	1048576	12	4154
2026-01-05 07:19:07.58	280.55	7.79	-26.1	-27.2	12.9	6.17e-05	0	44	102	1048576	12	4092
2026-01-05 07:19:09.59	280.31	7.68	-26.1	-27.3	12.8	5.95e-05	0	44	102	1048576	12	4107
2026-01-05 07:19:11.61	280.07	7.57	-26.3	-27.6	12.6	1.42e-04	0	44	102	1048576	12	4214
2026-01-05 07:19:13.63	279.82	7.46	-26.1	-27.3	12.8	5.95e-05	0	44	102	1048576	12	4122
2026-01-05 07:19:15.64	279.58	7.36	-26.2	-27.6	12.6	1.19e-04	0	44	102	1048576	12	4206
2026-01-05 07:19:17.65	279.35	7.25	-26.2	-27.5	12.6	9.15e-05	0	44	102	1048576	12	4195
2026-01-05 07:19:19.67	279.11	7.14	-26.3	-27.7	12.5	1.03e-04	0	44	102	1048576	12	4236
2026-01-05 07:19:21.68	278.88	7.03	-31.7	-40.7	3.8	8.47e-01	0	44	104	1048576	23	10168

#Closed at: 2026-01-05 07:19:23
#Recorded file [1 MB]: D:/data/31010_260105_101100.dat