passes_logs/2026/01/05/R2M6_AANII_01/R2M6_AANII_01__20260105_133702_FENGYUN_3D_rec.log

#Pass ID: 20260105_133702_FENGYUN 3D
#Satellite: FENGYUN 3D
#Configuration: FENGYUN 3D
#almurnet v.1.7.20240730
#Start time: 2026-01-05 13:37:02

#Version: 2.2.20231116
#Station: R2M6_AANII_01
#Location: 30.233357 lon 59.946436 lat
#TLE: 1 43010U 17072A   26004.99581904 -.00000126  00000+0 -37613-4 0  9996
#TLE: 2 43010  98.9917 336.6574 0001994 126.4096 233.7264 14.19691690421839

#Time	Az	El	Level	Level2	SNR	BER	BlckErr	Temp	State	Recorded	gain1	gain2
2026-01-05 13:37:02.55	201.01	6.98	-27.2	-28.9	5.7	7.65e-01	0	41	0	0	15	4394
2026-01-05 13:37:05.57	201.24	7.18	-28.2	-30.8	11.4	9.58e-04	0	41	102	1048576	16	4870
2026-01-05 13:37:08.58	201.47	7.39	-27.4	-29.0	12.6	1.72e-04	0	41	102	1048576	16	4288
2026-01-05 13:37:11.60	201.71	7.60	-26.6	-28.1	13.6	1.71e-05	0	41	102	1048576	14	4254
2026-01-05 13:37:14.62	201.96	7.81	-26.4	-27.6	13.9	4.50e-06	0	41	102	1048576	14	4128
2026-01-05 13:37:17.65	202.20	8.03	-26.0	-27.1	14.5	1.10e-06	0	41	102	1048576	13	4097
2026-01-05 13:37:20.66	202.45	8.24	-26.1	-27.3	14.5	2.20e-06	0	42	102	1048576	13	4132
2026-01-05 13:37:23.68	202.70	8.45	-26.0	-27.1	14.6	0.00e+00	0	42	102	1048576	13	4076
2026-01-05 13:37:26.70	202.96	8.67	-26.0	-27.2	14.6	1.10e-06	0	42	102	1048576	13	4106
2026-01-05 13:37:29.72	203.22	8.89	-26.0	-27.2	14.6	0.00e+00	0	42	102	1048576	13	4108
2026-01-05 13:37:32.74	203.48	9.11	-25.9	-26.9	14.8	0.00e+00	0	42	102	1048576	13	4042
2026-01-05 13:37:35.76	203.75	9.33	-25.8	-27.1	15.0	0.00e+00	0	42	102	1048576	12	4179
2026-01-05 13:37:38.77	204.02	9.55	-25.8	-27.2	14.9	0.00e+00	0	42	102	1048576	12	4215
2026-01-05 13:37:41.79	204.30	9.77	-25.7	-26.8	15.2	0.00e+00	0	42	102	1048576	12	4115
2026-01-05 13:37:44.80	204.57	10.00	-25.6	-26.7	15.3	0.00e+00	0	42	102	1048576	12	4076
2026-01-05 13:37:47.83	204.86	10.23	-25.5	-26.5	15.4	0.00e+00	0	42	102	1048576	12	4033
2026-01-05 13:37:50.86	205.15	10.45	-25.4	-26.2	15.6	0.00e+00	0	42	102	1048576	12	3941
2026-01-05 13:37:53.88	205.44	10.68	-25.3	-26.0	15.7	0.00e+00	0	42	102	1048576	12	3908
2026-01-05 13:37:56.91	205.74	10.92	-25.4	-26.7	15.7	0.00e+00	0	42	102	1048576	11	4167
2026-01-05 13:37:59.93	206.04	11.15	-25.4	-26.7	15.7	0.00e+00	0	43	102	1048576	11	4179
2026-01-05 13:38:02.95	206.35	11.38	-25.6	-27.2	15.4	0.00e+00	0	43	102	1048576	11	4318
2026-01-05 13:38:05.97	206.66	11.62	-25.4	-26.7	15.7	0.00e+00	0	42	102	1048576	11	4176
2026-01-05 13:38:08.99	206.97	11.86	-25.3	-26.6	15.8	0.00e+00	0	42	102	1048576	11	4147
2026-01-05 13:38:12.01	207.29	12.09	-25.3	-26.5	15.9	0.00e+00	0	43	102	1048576	11	4128
2026-01-05 13:38:15.03	207.62	12.33	-25.2	-26.3	16.0	0.00e+00	0	43	102	1048576	11	4066
2026-01-05 13:38:18.05	207.95	12.58	-25.4	-26.8	15.7	0.00e+00	0	43	102	1048576	11	4199
2026-01-05 13:38:21.07	208.28	12.82	-25.0	-25.9	16.3	0.00e+00	0	43	102	1048576	11	3971
2026-01-05 13:38:24.08	208.63	13.06	-25.0	-25.8	16.3	0.00e+00	0	43	102	1048576	11	3954
2026-01-05 13:38:27.11	208.97	13.31	-25.0	-25.7	16.4	0.00e+00	0	43	102	1048576	11	3917
2026-01-05 13:38:30.12	209.32	13.56	-25.1	-26.0	16.2	0.00e+00	0	43	102	1048576	11	4005
2026-01-05 13:38:33.14	209.68	13.81	-25.0	-25.9	16.3	0.00e+00	0	43	102	1048576	11	3965
2026-01-05 13:38:36.16	210.05	14.06	-25.1	-25.9	16.3	0.00e+00	0	43	102	1048576	11	3979
2026-01-05 13:38:39.18	210.42	14.31	-24.9	-25.5	16.5	0.00e+00	0	43	102	1048576	11	3876
2026-01-05 13:38:42.19	210.79	14.57	-24.9	-25.6	16.5	0.00e+00	0	43	102	1048576	11	3892
2026-01-05 13:38:45.22	211.18	14.82	-24.8	-25.3	16.6	0.00e+00	0	43	102	1048576	11	3834
2026-01-05 13:38:48.24	211.57	15.08	-24.7	-25.7	16.7	0.00e+00	0	43	102	1048576	10	4025
2026-01-05 13:38:51.25	211.96	15.34	-24.8	-25.9	16.6	0.00e+00	0	43	102	1048576	10	4080
2026-01-05 13:38:54.27	212.36	15.60	-24.3	-24.8	17.3	0.00e+00	0	43	102	1048576	10	3794
2026-01-05 13:38:57.30	212.77	15.86	-24.3	-25.2	17.3	0.00e+00	0	43	102	1048576	9	4006
2026-01-05 13:39:00.32	213.19	16.12	-24.2	-25.1	17.4	0.00e+00	0	43	102	1048576	9	3989
2026-01-05 13:39:03.34	213.61	16.39	-24.4	-25.5	17.1	0.00e+00	0	43	102	1048576	9	4091
2026-01-05 13:39:06.36	214.04	16.65	-24.4	-25.5	17.2	0.00e+00	0	43	102	1048576	9	4081
2026-01-05 13:39:09.39	214.48	16.92	-24.5	-25.6	17.1	0.00e+00	0	43	102	1048576	9	4105
2026-01-05 13:39:12.41	214.93	17.19	-24.7	-26.1	16.9	0.00e+00	0	43	102	1048576	9	4242
2026-01-05 13:39:15.43	215.38	17.46	-24.3	-25.2	17.4	0.00e+00	0	43	102	1048576	9	4006
2026-01-05 13:39:18.45	215.85	17.73	-24.2	-25.0	17.5	0.00e+00	0	43	102	1048576	9	3956
2026-01-05 13:39:21.47	216.32	18.01	-24.0	-24.6	17.7	5.70e-06	0	43	102	1048576	9	3865
2026-01-05 13:39:24.49	216.79	18.28	-24.0	-24.6	17.8	1.48e-05	0	43	102	1048576	9	3852
2026-01-05 13:39:27.51	217.28	18.55	-23.7	-24.6	18.0	0.00e+00	0	43	102	1048576	8	3952
2026-01-05 13:39:30.54	217.78	18.83	-23.7	-24.4	18.1	6.80e-06	0	43	102	1048576	8	3903
2026-01-05 13:39:33.56	218.28	19.11	-23.8	-24.8	17.9	3.40e-06	0	43	102	1048576	8	4010
2026-01-05 13:39:36.59	218.80	19.39	-23.9	-24.9	17.9	6.80e-06	0	43	102	1048576	8	4051
2026-01-05 13:39:39.60	219.32	19.66	-23.9	-24.9	17.9	0.00e+00	0	43	102	1048576	8	4037
2026-01-05 13:39:42.62	219.85	19.94	-23.7	-24.5	18.1	6.80e-06	0	43	102	1048576	8	3947
2026-01-05 13:39:45.64	220.39	20.22	-23.6	-24.3	18.2	0.00e+00	0	43	102	1048576	8	3895
2026-01-05 13:39:48.66	220.94	20.50	-23.8	-24.7	18.0	0.00e+00	0	43	102	1048576	8	3984
2026-01-05 13:39:51.69	221.50	20.79	-23.8	-24.6	18.1	0.00e+00	0	43	102	1048576	8	3958
2026-01-05 13:39:54.70	222.07	21.07	-23.6	-24.3	18.3	0.00e+00	0	43	102	1048576	8	3889
2026-01-05 13:39:57.72	222.65	21.35	-23.3	-23.6	18.6	0.00e+00	0	43	102	1048576	8	3735
2026-01-05 13:40:00.74	223.24	21.63	-23.2	-23.9	18.7	0.00e+00	0	43	102	1048576	7	3912
2026-01-05 13:40:03.76	223.84	21.91	-23.3	-24.2	18.6	0.00e+00	0	43	102	1048576	7	3970
2026-01-05 13:40:06.78	224.46	22.19	-23.4	-24.3	18.6	0.00e+00	0	43	102	1048576	7	3984
2026-01-05 13:40:09.80	225.08	22.48	-23.5	-24.5	18.4	0.00e+00	0	43	102	1048576	7	4041
2026-01-05 13:40:12.81	225.71	22.76	-23.2	-24.0	18.7	0.00e+00	0	43	102	1048576	7	3931
2026-01-05 13:40:15.83	226.36	23.04	-23.2	-23.9	18.8	0.00e+00	0	43	102	1048576	7	3900
2026-01-05 13:40:18.86	227.02	23.32	-23.1	-23.7	18.9	0.00e+00	0	43	102	1048576	7	3848
2026-01-05 13:40:21.87	227.68	23.60	-23.1	-23.6	18.9	0.00e+00	0	43	102	1048576	7	3831
2026-01-05 13:40:24.90	228.37	23.88	-22.8	-23.2	19.1	0.00e+00	0	43	102	1048576	7	3735
2026-01-05 13:40:27.92	229.06	24.15	-23.0	-23.5	19.0	0.00e+00	0	43	102	1048576	7	3803
2026-01-05 13:40:30.94	229.76	24.43	-23.2	-23.9	18.8	0.00e+00	0	43	102	1048576	7	3910
2026-01-05 13:40:33.96	230.48	24.70	-23.1	-23.7	18.9	1.10e-06	0	43	102	1048576	7	3859
2026-01-05 13:40:36.98	231.21	24.97	-23.0	-23.4	19.1	0.00e+00	0	43	102	1048576	7	3784
2026-01-05 13:40:40.01	231.95	25.24	-23.3	-24.1	18.7	0.00e+00	0	43	102	1048576	7	3959
2026-01-05 13:40:43.02	232.70	25.51	-23.2	-23.9	18.8	0.00e+00	0	43	102	1048576	7	3901
2026-01-05 13:40:46.05	233.47	25.78	-22.2	-22.7	19.9	0.00e+00	0	43	102	1048576	5	3836
2026-01-05 13:40:49.07	234.25	26.04	-22.4	-23.2	19.6	0.00e+00	0	43	102	1048576	5	3959
2026-01-05 13:40:52.09	235.04	26.30	-22.4	-23.2	19.7	0.00e+00	0	43	102	1048576	5	3949
2026-01-05 13:40:55.11	235.85	26.55	-22.2	-22.9	19.8	0.00e+00	0	44	102	1048576	5	3872
2026-01-05 13:40:58.13	236.66	26.81	-22.6	-23.7	19.4	0.00e+00	0	44	102	1048576	5	4070
2026-01-05 13:41:01.16	237.49	27.05	-22.1	-22.6	20.0	0.00e+00	0	43	102	1048576	5	3808
2026-01-05 13:41:04.17	238.33	27.30	-22.0	-22.4	20.1	0.00e+00	0	44	102	1048576	5	3761
2026-01-05 13:41:07.20	239.19	27.54	-22.1	-22.6	20.0	0.00e+00	0	44	102	1048576	5	3821
2026-01-05 13:41:10.21	240.06	27.77	-22.2	-22.9	19.9	0.00e+00	0	43	102	1048576	5	3873
2026-01-05 13:41:13.24	240.94	28.00	-22.1	-22.5	20.0	0.00e+00	0	43	102	1048576	5	3791
2026-01-05 13:41:16.26	241.83	28.23	-22.1	-22.7	20.0	0.00e+00	0	43	102	1048576	5	3822
2026-01-05 13:41:19.27	242.73	28.44	-22.5	-23.3	19.7	0.00e+00	0	43	102	1048576	5	3988
2026-01-05 13:41:22.29	243.65	28.66	-22.2	-22.8	19.9	0.00e+00	0	44	102	1048576	5	3859
2026-01-05 13:41:25.32	244.58	28.86	-22.2	-22.8	19.9	0.00e+00	0	43	102	1048576	5	3852
2026-01-05 13:41:28.34	245.51	29.06	-22.3	-23.0	19.8	0.00e+00	0	43	102	1048576	5	3896
2026-01-05 13:41:31.36	246.46	29.26	-22.3	-23.0	19.9	0.00e+00	0	43	102	1048576	5	3897
2026-01-05 13:41:34.39	247.43	29.44	-22.2	-22.8	19.9	0.00e+00	0	43	102	1048576	5	3867
2026-01-05 13:41:37.41	248.40	29.62	-22.2	-22.7	20.0	0.00e+00	0	43	102	1048576	5	3836
2026-01-05 13:41:40.43	249.38	29.79	-22.2	-22.7	20.0	0.00e+00	0	43	102	1048576	5	3835
2026-01-05 13:41:43.44	250.37	29.95	-22.2	-22.8	20.0	0.00e+00	0	43	102	1048576	5	3862
2026-01-05 13:41:46.47	251.38	30.10	-22.5	-23.4	19.7	0.00e+00	0	44	102	1048576	5	3994
2026-01-05 13:41:49.49	252.39	30.25	-22.4	-23.1	19.8	0.00e+00	0	44	102	1048576	5	3935
2026-01-05 13:41:52.51	253.41	30.38	-22.1	-22.6	20.1	0.00e+00	0	43	102	1048576	5	3819
2026-01-05 13:41:55.51	254.43	30.51	-22.1	-22.5	20.1	0.00e+00	0	44	102	1048576	5	3796
2026-01-05 13:41:58.54	255.47	30.63	-21.9	-22.1	20.3	0.00e+00	0	44	102	1048576	5	3690
2026-01-05 13:42:01.56	256.51	30.73	-22.1	-22.7	20.0	0.00e+00	0	44	102	1048576	5	3837
2026-01-05 13:42:04.57	257.55	30.83	-22.2	-22.9	20.0	0.00e+00	0	44	102	1048576	5	3868
2026-01-05 13:42:07.59	258.61	30.92	-22.3	-23.1	19.9	0.00e+00	0	43	102	1048576	5	3916
2026-01-05 13:42:10.61	259.67	30.99	-22.5	-23.4	19.7	0.00e+00	0	43	102	1048576	5	4006
2026-01-05 13:42:13.63	260.73	31.06	-22.4	-23.2	19.8	0.00e+00	0	43	102	1048576	5	3947
2026-01-05 13:42:16.65	261.80	31.12	-22.4	-23.2	19.8	0.00e+00	0	44	102	1048576	5	3946
2026-01-05 13:42:19.68	262.87	31.16	-22.3	-23.0	19.9	0.00e+00	0	44	102	1048576	5	3909
2026-01-05 13:42:22.70	263.94	31.20	-22.2	-22.8	20.0	0.00e+00	0	43	102	1048576	5	3851
2026-01-05 13:42:25.72	265.02	31.22	-22.3	-23.0	19.9	0.00e+00	0	43	102	1048576	5	3904
2026-01-05 13:42:28.73	266.09	31.23	-22.4	-23.2	19.7	0.00e+00	0	44	102	1048576	5	3955
2026-01-05 13:42:31.75	267.17	31.23	-22.2	-22.9	20.0	0.00e+00	0	43	102	1048576	5	3870
2026-01-05 13:42:34.77	268.25	31.22	-22.2	-22.8	20.0	0.00e+00	0	43	102	1048576	5	3851
2026-01-05 13:42:37.79	269.32	31.20	-22.2	-22.8	20.0	2.20e-06	0	44	102	1048576	5	3861
2026-01-05 13:42:40.81	270.39	31.17	-22.4	-23.2	19.8	2.20e-06	0	43	102	1048576	5	3956
2026-01-05 13:42:43.83	271.47	31.13	-22.3	-23.1	19.8	1.10e-06	0	43	102	1048576	5	3926
2026-01-05 13:42:46.85	272.53	31.08	-22.5	-23.5	19.6	3.40e-06	0	44	102	1048576	5	4019
2026-01-05 13:42:49.87	273.60	31.01	-22.7	-23.8	19.5	6.80e-06	0	44	102	1048576	5	4108
2026-01-05 13:42:52.89	274.66	30.94	-22.5	-23.3	19.7	4.50e-06	0	43	102	1048576	5	3983
2026-01-05 13:42:55.91	275.71	30.86	-22.4	-23.1	19.8	0.00e+00	0	44	102	1048576	5	3933
2026-01-05 13:42:58.94	276.76	30.76	-22.3	-23.1	19.9	2.20e-06	0	44	102	1048576	5	3923
2026-01-05 13:43:01.95	277.80	30.66	-22.4	-23.2	19.8	0.00e+00	0	44	102	1048576	5	3941
2026-01-05 13:43:04.97	278.84	30.54	-22.3	-23.0	19.9	0.00e+00	0	44	102	1048576	5	3912
2026-01-05 13:43:08.00	279.87	30.42	-22.3	-23.1	19.9	0.00e+00	0	44	102	1048576	5	3926
2026-01-05 13:43:11.02	280.89	30.29	-22.3	-23.0	19.9	0.00e+00	0	44	102	1048576	5	3906
2026-01-05 13:43:14.04	281.90	30.15	-22.0	-22.3	20.3	0.00e+00	0	43	102	1048576	5	3732
2026-01-05 13:43:17.06	282.90	29.99	-22.2	-22.7	20.0	0.00e+00	0	44	102	1048576	5	3838
2026-01-05 13:43:20.08	283.89	29.84	-22.3	-23.1	19.8	0.00e+00	0	43	102	1048576	5	3924
2026-01-05 13:43:23.10	284.88	29.67	-22.4	-23.3	19.7	0.00e+00	0	43	102	1048576	5	3977
2026-01-05 13:43:26.11	285.85	29.49	-22.4	-23.2	19.7	0.00e+00	0	43	102	1048576	5	3959
2026-01-05 13:43:29.13	286.81	29.31	-23.0	-24.1	19.1	0.00e+00	0	43	102	1048576	6	4050
2026-01-05 13:43:32.14	287.75	29.12	-22.7	-23.3	19.4	0.00e+00	0	43	102	1048576	6	3871
2026-01-05 13:43:35.17	288.70	28.93	-22.8	-23.5	19.4	0.00e+00	0	44	102	1048576	6	3902
2026-01-05 13:43:38.18	289.62	28.72	-22.5	-22.9	19.7	0.00e+00	0	43	102	1048576	6	3774
2026-01-05 13:43:41.19	290.54	28.51	-22.4	-22.7	19.8	0.00e+00	0	43	102	1048576	6	3725
2026-01-05 13:43:44.20	291.44	28.30	-22.4	-22.8	19.7	0.00e+00	0	43	102	1048576	6	3744
2026-01-05 13:43:47.22	292.33	28.08	-22.6	-23.1	19.6	0.00e+00	0	44	102	1048576	6	3819
2026-01-05 13:43:50.24	293.21	27.85	-22.8	-23.6	19.3	0.00e+00	0	44	102	1048576	6	3927
2026-01-05 13:43:53.27	294.08	27.62	-22.7	-23.3	19.5	0.00e+00	0	43	102	1048576	6	3856
2026-01-05 13:43:56.29	294.94	27.38	-22.8	-23.6	19.3	0.00e+00	0	43	102	1048576	6	3935
2026-01-05 13:43:59.31	295.78	27.14	-23.0	-23.9	19.1	0.00e+00	0	44	102	1048576	6	4023
2026-01-05 13:44:02.33	296.61	26.89	-22.9	-23.7	19.2	0.00e+00	0	43	102	1048576	6	3965
2026-01-05 13:44:05.36	297.43	26.64	-22.8	-23.6	19.3	0.00e+00	0	44	102	1048576	6	3934
2026-01-05 13:44:08.37	298.23	26.39	-22.8	-23.6	19.3	0.00e+00	0	44	102	1048576	6	3929
2026-01-05 13:44:11.39	299.02	26.13	-22.6	-23.1	19.5	0.00e+00	0	44	102	1048576	6	3817
2026-01-05 13:44:14.41	299.80	25.87	-22.8	-23.5	19.3	0.00e+00	0	44	102	1048576	6	3915
2026-01-05 13:44:17.43	300.57	25.61	-22.9	-23.8	19.1	0.00e+00	0	44	102	1048576	6	3983
2026-01-05 13:44:20.45	301.32	25.35	-23.1	-24.2	18.9	0.00e+00	0	44	102	1048576	6	4091
2026-01-05 13:44:23.47	302.07	25.08	-23.2	-24.3	18.9	0.00e+00	0	43	102	1048576	6	4101
2026-01-05 13:44:26.49	302.80	24.81	-23.2	-24.3	18.9	0.00e+00	0	44	102	1048576	6	4109
2026-01-05 13:44:29.51	303.51	24.54	-23.1	-24.3	18.9	0.00e+00	0	44	102	1048576	6	4102
2026-01-05 13:44:32.53	304.22	24.27	-23.1	-24.2	18.9	0.00e+00	0	44	102	1048576	6	4094
2026-01-05 13:44:35.55	304.91	23.99	-23.0	-24.0	19.0	0.00e+00	0	44	102	1048576	6	4020
2026-01-05 13:44:38.57	305.60	23.72	-23.4	-24.7	18.6	0.00e+00	0	44	102	1048576	6	4216
2026-01-05 13:44:41.59	306.27	23.44	-23.3	-24.2	18.7	0.00e+00	0	44	102	1048576	7	3970
2026-01-05 13:44:44.59	306.92	23.16	-23.5	-24.6	18.4	0.00e+00	0	44	102	1048576	7	4081
2026-01-05 13:44:47.60	307.57	22.88	-23.4	-24.3	18.6	0.00e+00	0	43	102	1048576	7	3990
2026-01-05 13:44:50.62	308.20	22.61	-23.3	-24.0	18.7	0.00e+00	0	44	102	1048576	7	3931
2026-01-05 13:44:53.64	308.83	22.33	-23.4	-24.2	18.6	0.00e+00	0	43	102	1048576	7	3981
2026-01-05 13:44:56.66	309.44	22.05	-23.5	-24.6	18.4	0.00e+00	0	44	102	1048576	7	4083
2026-01-05 13:44:59.68	310.05	21.77	-23.5	-24.5	18.5	0.00e+00	0	44	102	1048576	7	4044
2026-01-05 13:45:02.70	310.64	21.49	-23.6	-24.8	18.3	0.00e+00	0	44	102	1048576	7	4111
2026-01-05 13:45:05.72	311.22	21.21	-23.7	-24.9	18.2	0.00e+00	0	44	102	1048576	7	4149
2026-01-05 13:45:08.73	311.79	20.93	-24.1	-25.2	17.8	0.00e+00	0	43	102	1048576	8	4115
2026-01-05 13:45:11.75	312.35	20.65	-24.1	-25.2	17.8	0.00e+00	0	43	102	1048576	8	4111
2026-01-05 13:45:14.77	312.91	20.37	-24.1	-25.4	17.7	0.00e+00	0	43	102	1048576	8	4162
2026-01-05 13:45:17.79	313.45	20.09	-24.1	-25.3	17.8	0.00e+00	0	44	102	1048576	8	4123
2026-01-05 13:45:20.82	313.98	19.81	-24.1	-25.4	17.7	0.00e+00	0	44	102	1048576	8	4156
2026-01-05 13:45:23.85	314.51	19.54	-24.4	-26.0	17.4	0.00e+00	0	44	102	1048576	8	4326
2026-01-05 13:45:26.88	315.03	19.26	-24.7	-26.2	17.0	0.00e+00	0	44	102	1048576	9	4260
2026-01-05 13:45:29.89	315.53	18.98	-24.4	-25.5	17.4	0.00e+00	0	43	102	1048576	9	4066
2026-01-05 13:45:32.91	316.03	18.71	-24.2	-25.0	17.6	0.00e+00	0	44	102	1048576	9	3952
2026-01-05 13:45:35.93	316.51	18.44	-24.4	-25.5	17.3	0.00e+00	0	44	102	1048576	9	4091
2026-01-05 13:45:38.95	316.99	18.17	-24.3	-25.3	17.5	0.00e+00	0	44	102	1048576	9	4018
2026-01-05 13:45:41.97	317.47	17.89	-24.2	-25.0	17.6	0.00e+00	0	44	102	1048576	9	3951
2026-01-05 13:45:44.98	317.93	17.63	-24.4	-25.5	17.3	0.00e+00	0	44	102	1048576	9	4076
2026-01-05 13:45:48.00	318.38	17.36	-24.6	-25.9	17.1	0.00e+00	0	44	102	1048576	9	4179
2026-01-05 13:45:51.01	318.83	17.09	-24.6	-26.0	17.0	0.00e+00	0	44	102	1048576	9	4206
2026-01-05 13:45:54.03	319.27	16.83	-24.8	-26.4	16.8	0.00e+00	0	44	102	1048576	9	4313
2026-01-05 13:45:57.05	319.70	16.56	-24.9	-25.9	16.8	0.00e+00	0	44	102	1048576	10	4078
2026-01-05 13:46:00.06	320.13	16.30	-25.0	-26.4	16.6	0.00e+00	0	44	102	1048576	10	4183
2026-01-05 13:46:03.08	320.55	16.04	-25.3	-27.0	16.2	0.00e+00	0	44	102	1048576	10	4366
2026-01-05 13:46:06.10	320.96	15.78	-25.2	-26.8	16.3	0.00e+00	0	44	102	1048576	10	4297
2026-01-05 13:46:09.12	321.36	15.52	-25.1	-26.5	16.5	0.00e+00	0	44	102	1048576	10	4215
2026-01-05 13:46:12.15	321.76	15.26	-25.0	-26.3	16.5	0.00e+00	0	44	102	1048576	10	4161
2026-01-05 13:46:15.16	322.15	15.00	-25.1	-26.6	16.4	0.00e+00	0	44	102	1048576	10	4246
2026-01-05 13:46:18.18	322.54	14.75	-25.2	-26.8	16.2	0.00e+00	0	44	102	1048576	10	4308
2026-01-05 13:46:21.20	322.92	14.50	-25.3	-27.0	16.2	0.00e+00	0	44	102	1048576	10	4352
2026-01-05 13:46:24.22	323.29	14.25	-25.1	-26.6	16.3	0.00e+00	0	44	102	1048576	10	4245
2026-01-05 13:46:27.24	323.66	14.00	-25.0	-26.3	16.5	0.00e+00	0	44	102	1048576	10	4176
2026-01-05 13:46:30.25	324.01	13.75	-25.2	-26.6	16.3	0.00e+00	0	44	102	1048576	10	4262
2026-01-05 13:46:33.27	324.37	13.50	-25.3	-26.9	16.1	0.00e+00	0	44	102	1048576	10	4336
2026-01-05 13:46:36.30	324.72	13.26	-25.7	-27.4	15.6	0.00e+00	0	44	102	1048576	11	4365
2026-01-05 13:46:39.32	325.06	13.01	-25.6	-27.1	15.7	1.10e-06	0	44	102	1048576	11	4284
2026-01-05 13:46:42.34	325.40	12.77	-25.5	-26.9	15.8	0.00e+00	0	44	102	1048576	11	4231
2026-01-05 13:46:45.36	325.74	12.53	-25.5	-26.9	15.8	0.00e+00	0	44	102	1048576	11	4212
2026-01-05 13:46:48.38	326.06	12.29	-25.7	-27.2	15.6	0.00e+00	0	44	102	1048576	11	4318
2026-01-05 13:46:51.40	326.39	12.05	-25.8	-27.5	15.4	0.00e+00	0	43	102	1048576	11	4389
2026-01-05 13:46:54.42	326.71	11.82	-25.9	-27.4	15.1	0.00e+00	0	44	102	1048576	12	4258
2026-01-05 13:46:57.44	327.02	11.58	-26.2	-27.4	14.8	0.00e+00	0	44	102	1048576	13	4162
2026-01-05 13:47:00.47	327.33	11.35	-25.9	-26.8	15.1	0.00e+00	0	44	102	1048576	13	3994
2026-01-05 13:47:03.48	327.63	11.12	-26.0	-27.0	15.0	1.10e-06	0	44	102	1048576	13	4052
2026-01-05 13:47:06.50	327.93	10.89	-26.0	-26.9	15.1	0.00e+00	0	44	102	1048576	13	4029
2026-01-05 13:47:09.53	328.23	10.66	-26.0	-27.0	15.0	0.00e+00	0	44	102	1048576	13	4037
2026-01-05 13:47:12.55	328.52	10.43	-26.1	-27.3	14.8	0.00e+00	0	44	102	1048576	13	4117
2026-01-05 13:47:15.57	328.80	10.21	-26.2	-27.6	14.6	1.10e-06	0	44	102	1048576	13	4208
2026-01-05 13:47:18.58	329.08	9.98	-26.3	-27.7	14.5	2.20e-06	0	44	102	1048576	13	4243
2026-01-05 13:47:21.60	329.36	9.76	-26.4	-27.9	14.4	0.00e+00	0	44	102	1048576	13	4295
2026-01-05 13:47:24.63	329.64	9.54	-26.2	-27.6	14.5	0.00e+00	0	43	102	1048576	13	4212
2026-01-05 13:47:27.65	329.91	9.32	-26.2	-27.6	14.5	1.10e-06	0	44	102	1048576	13	4199
2026-01-05 13:47:30.67	330.17	9.10	-26.2	-27.6	14.5	0.00e+00	0	44	102	1048576	13	4197
2026-01-05 13:47:33.69	330.44	8.88	-26.3	-27.7	14.4	2.20e-06	0	44	102	1048576	13	4229
2026-01-05 13:47:36.71	330.70	8.67	-26.5	-28.1	14.2	1.10e-06	0	44	102	1048576	13	4353
2026-01-05 13:47:39.73	330.95	8.45	-26.5	-28.3	14.0	0.00e+00	0	44	102	1048576	13	4413
2026-01-05 13:47:42.76	331.20	8.24	-26.5	-28.2	14.0	2.20e-06	0	44	102	1048576	13	4391
2026-01-05 13:47:45.77	331.45	8.03	-26.6	-28.4	13.9	4.50e-06	0	44	102	1048576	13	4438
2026-01-05 13:47:48.79	331.70	7.82	-26.6	-28.5	13.9	4.50e-06	0	44	102	1048576	13	4461
2026-01-05 13:47:51.81	331.94	7.61	-26.5	-28.3	14.0	1.02e-05	0	44	102	1048576	13	4406
2026-01-05 13:47:54.83	332.18	7.40	-26.6	-28.5	13.8	1.14e-05	0	44	102	1048576	13	4469
2026-01-05 13:47:57.85	332.41	7.20	-26.7	-28.7	13.7	2.63e-05	0	44	102	1048576	13	4540
2026-01-05 13:48:00.89	332.65	6.99	-32.9	-44.3	3.8	8.47e-01	0	44	104	1048576	25	13342

#Closed at: 2026-01-05 13:48:01
#Recorded file [1 MB]: D:/data/31010_260105_163704.dat