passes_logs/2026/01/05/R2M6_AANII_01/R2M6_AANII_01__20260105_003246_NOAA_21_JPSS-2_rec.log

#Pass ID: 20260105_003246_NOAA 21 (JPSS-2)
#Satellite: NOAA 21 (JPSS-2)
#Configuration: NOAA 21
#almurnet v.1.7.20240730
#Start time: 2026-01-05 00:32:46

#Version: 2.2.20231116
#Station: R2M6_AANII_01
#Location: 30.233357 lon 59.946436 lat
#TLE: 1 54234U 22150A   26004.22845673  .00000174  00000+0  10347-3 0  9996
#TLE: 2 54234  98.7489 305.2591 0001115 345.0884  15.0259 14.19531906163281

#Time	Az	El	Level	Level2	SNR	BER	BlckErr	Temp	State	Recorded	gain1	gain2
2026-01-05 00:32:46.04	17.06	6.99	-34.0	-46.3	3.8	1.49e+00	0	43	0	0	27	14816
2026-01-05 00:32:49.05	17.03	7.22	-33.9	-45.7	3.8	1.49e+00	0	44	104	0	28	13933
2026-01-05 00:32:52.07	17.01	7.45	-34.0	-45.8	3.8	1.49e+00	0	43	104	0	28	14028
2026-01-05 00:32:55.10	16.99	7.69	-33.9	-45.6	3.8	1.49e+00	0	44	104	0	28	13906
2026-01-05 00:32:58.12	16.96	7.93	-34.0	-46.2	3.8	1.49e+00	0	44	104	0	27	14791
2026-01-05 00:33:01.14	16.94	8.17	-33.8	-45.9	3.8	1.49e+00	0	44	104	0	27	14492
2026-01-05 00:33:04.17	16.91	8.41	-33.5	-45.3	3.8	1.49e+00	0	43	104	0	27	13973
2026-01-05 00:33:07.18	16.89	8.66	-32.3	-40.5	3.9	1.48e+00	0	44	104	0	25	9247
2026-01-05 00:33:10.20	16.86	8.91	-31.7	-37.7	6.0	3.52e-01	0	43	102	1048576	23	7202
2026-01-05 00:33:13.22	16.83	9.16	-31.2	-36.1	7.4	1.15e-01	0	43	102	1048576	22	6359
2026-01-05 00:33:16.23	16.80	9.41	-30.7	-35.0	8.5	4.13e-02	0	43	102	1048576	21	5911
2026-01-05 00:33:19.24	16.77	9.67	-30.7	-35.0	8.5	3.80e-02	0	43	102	1048576	21	5926
2026-01-05 00:33:22.26	16.74	9.93	-31.0	-36.0	7.7	7.76e-02	0	43	102	1048576	21	6406
2026-01-05 00:33:25.28	16.71	10.19	-31.3	-36.4	7.2	1.28e-01	0	44	102	1048576	22	6502
2026-01-05 00:33:28.29	16.68	10.45	-31.2	-36.1	7.5	1.07e-01	0	44	102	1048576	22	6357
2026-01-05 00:33:31.31	16.65	10.72	-30.9	-35.5	8.2	6.72e-02	0	44	102	1048576	21	6123
2026-01-05 00:33:34.32	16.62	10.99	-30.3	-34.1	9.6	1.79e-02	0	43	102	1048576	20	5595
2026-01-05 00:33:37.33	16.59	11.26	-30.6	-34.4	9.1	2.82e-02	0	43	102	1048576	21	5577
2026-01-05 00:33:40.35	16.55	11.53	-29.7	-32.9	10.9	6.57e-03	0	43	102	1048576	19	5202
2026-01-05 00:33:43.37	16.52	11.81	-29.5	-32.3	11.4	5.68e-03	0	44	102	1048576	19	4947
2026-01-05 00:33:46.38	16.48	12.09	-29.2	-32.1	11.9	4.74e-03	0	44	102	1048576	18	4987
2026-01-05 00:33:49.40	16.44	12.38	-29.1	-31.7	12.1	4.36e-03	0	43	102	1048576	18	4859
2026-01-05 00:33:52.42	16.40	12.67	-28.7	-31.3	12.7	9.23e-05	0	43	102	1048576	17	4837
2026-01-05 00:33:55.44	16.36	12.96	-28.2	-30.6	13.5	4.30e-03	0	43	102	1048576	16	4694
2026-01-05 00:33:58.45	16.32	13.26	-27.9	-30.2	13.8	1.50e-06	0	44	102	1048576	15	4726
2026-01-05 00:34:01.47	16.28	13.56	-28.1	-30.2	13.8	4.26e-03	0	43	102	1048576	16	4568
2026-01-05 00:34:04.50	16.24	13.86	-28.0	-30.5	13.7	3.80e-06	0	43	102	1048576	15	4800
2026-01-05 00:34:07.51	16.20	14.17	-27.9	-30.2	13.9	4.50e-06	0	44	102	1048576	15	4703
2026-01-05 00:34:10.53	16.15	14.48	-28.2	-30.4	13.7	3.80e-06	0	43	102	1048576	16	4629
2026-01-05 00:34:13.56	16.11	14.79	-28.2	-30.3	13.8	6.10e-06	0	44	102	1048576	16	4610
2026-01-05 00:34:16.58	16.06	15.11	-28.2	-30.4	13.7	6.80e-06	0	43	102	1048576	16	4651
2026-01-05 00:34:19.59	16.01	15.43	-27.9	-30.3	13.9	2.20e-06	0	44	102	1048576	15	4726
2026-01-05 00:34:22.61	15.96	15.76	-27.9	-30.4	13.9	3.80e-06	0	43	102	1048576	15	4750
2026-01-05 00:34:25.63	15.91	16.09	-27.9	-30.3	14.0	2.20e-06	0	43	102	1048576	15	4721
2026-01-05 00:34:28.65	15.86	16.43	-28.1	-30.1	13.9	2.20e-06	0	43	102	1048576	16	4530
2026-01-05 00:34:31.67	15.80	16.77	-28.1	-30.1	14.0	7.00e-07	0	44	102	1048576	16	4528
2026-01-05 00:34:34.69	15.75	17.12	-27.9	-30.2	14.0	2.20e-06	0	43	102	1048576	15	4698
2026-01-05 00:34:37.71	15.69	17.47	-28.3	-30.5	13.8	7.60e-06	0	44	102	1048576	16	4677
2026-01-05 00:34:40.72	15.63	17.82	-28.2	-30.4	13.9	5.30e-06	0	44	102	1048576	16	4612
2026-01-05 00:34:43.74	15.57	18.18	-28.2	-30.3	13.9	3.80e-06	0	43	102	1048576	16	4591
2026-01-05 00:34:46.76	15.51	18.55	-28.2	-30.4	13.9	4.50e-06	0	44	102	1048576	16	4606
2026-01-05 00:34:49.77	15.44	18.92	-28.2	-30.4	13.9	1.50e-06	0	43	102	1048576	16	4615
2026-01-05 00:34:52.79	15.38	19.30	-28.2	-30.3	14.0	7.00e-07	0	44	102	1048576	16	4580
2026-01-05 00:34:55.81	15.31	19.68	-28.2	-30.3	14.0	0.00e+00	0	44	102	1048576	16	4595
2026-01-05 00:34:58.82	15.24	20.07	-28.1	-30.0	14.2	9.04e-04	0	44	102	1048576	16	4514
2026-01-05 00:35:01.84	15.17	20.47	-27.7	-29.7	14.5	1.13e-03	0	44	102	1048576	15	4527
2026-01-05 00:35:04.86	15.09	20.87	-27.6	-29.5	14.6	1.16e-03	0	43	102	1048576	15	4464
2026-01-05 00:35:07.87	15.02	21.27	-27.6	-29.4	14.6	8.57e-04	0	43	102	1048576	15	4452
2026-01-05 00:35:10.88	14.94	21.69	-27.4	-29.4	14.9	1.20e-03	0	44	102	1048576	14	4562
2026-01-05 00:35:13.91	14.85	22.11	-27.6	-29.4	14.7	3.07e-04	0	43	102	1048576	15	4430
2026-01-05 00:35:16.93	14.77	22.54	-27.8	-29.8	14.5	3.03e-04	0	44	102	1048576	15	4561
2026-01-05 00:35:19.95	14.68	22.98	-27.5	-29.2	14.9	7.00e-07	0	44	102	1048576	15	4366
2026-01-05 00:35:22.97	14.59	23.42	-27.3	-29.1	15.2	2.07e-04	0	43	102	1048576	14	4465
2026-01-05 00:35:25.99	14.50	23.87	-26.9	-28.8	15.6	0.00e+00	0	44	102	1048576	13	4473
2026-01-05 00:35:29.00	14.40	24.33	-27.0	-28.6	15.5	0.00e+00	0	44	102	1048576	14	4329
2026-01-05 00:35:32.02	14.31	24.80	-27.4	-29.5	15.0	0.00e+00	0	43	102	1048576	14	4561
2026-01-05 00:35:35.04	14.20	25.27	-27.5	-29.2	14.9	0.00e+00	0	43	102	1048576	15	4386
2026-01-05 00:35:38.06	14.10	25.76	-27.7	-29.6	14.7	1.50e-06	0	44	102	1048576	15	4490
2026-01-05 00:35:41.08	13.99	26.25	-27.7	-29.6	14.7	0.00e+00	0	44	102	1048576	15	4500
2026-01-05 00:35:44.11	13.87	26.75	-27.7	-29.7	14.7	7.00e-07	0	43	102	1048576	15	4519
2026-01-05 00:35:47.11	13.76	27.26	-28.3	-30.5	14.1	7.00e-07	0	43	102	1048576	16	4629
2026-01-05 00:35:50.14	13.63	27.78	-28.5	-30.9	13.9	4.50e-06	0	44	102	1048576	16	4753
2026-01-05 00:35:53.16	13.51	28.31	-28.5	-30.5	13.8	8.30e-06	0	43	102	1048576	17	4525
2026-01-05 00:35:56.18	13.38	28.86	-28.2	-29.7	14.3	7.00e-07	0	43	102	1048576	17	4288
2026-01-05 00:35:59.20	13.24	29.41	-28.1	-30.0	14.2	0.00e+00	0	43	102	1048576	16	4467
2026-01-05 00:36:02.18	13.10	29.96	-27.7	-29.5	14.9	7.00e-07	0	43	102	1048576	15	4443
2026-01-05 00:36:05.20	12.96	30.53	-27.5	-29.2	15.0	0.00e+00	0	43	102	1048576	15	4360
2026-01-05 00:36:08.21	12.80	31.12	-27.4	-28.9	15.2	4.82e-04	0	43	102	1048576	15	4265
2026-01-05 00:36:11.22	12.65	31.71	-27.4	-29.4	15.2	0.00e+00	0	43	102	1048576	14	4533
2026-01-05 00:36:14.24	12.48	32.32	-27.6	-29.3	15.0	4.78e-04	0	43	102	1048576	15	4382
2026-01-05 00:36:17.26	12.31	32.94	-27.8	-29.7	14.7	3.84e-04	0	43	102	1048576	15	4524
2026-01-05 00:36:20.27	12.13	33.57	-28.2	-30.1	14.4	2.97e-04	0	43	102	1048576	16	4500
2026-01-05 00:36:23.29	11.95	34.22	-28.4	-30.6	14.2	3.85e-04	0	43	102	1048576	16	4639
2026-01-05 00:36:26.31	11.75	34.88	-28.8	-31.1	13.6	1.62e-03	0	43	102	1048576	17	4694
2026-01-05 00:36:29.33	11.55	35.55	-29.3	-31.8	12.9	4.19e-04	0	43	102	1048576	18	4828
2026-01-05 00:36:32.35	11.34	36.24	-28.8	-31.1	13.6	8.60e-04	0	43	102	1048576	17	4697
2026-01-05 00:36:35.37	11.12	36.94	-29.1	-31.2	13.2	3.13e-04	0	43	102	1048576	18	4630
2026-01-05 00:36:38.37	10.89	37.66	-29.1	-31.3	13.2	2.01e-04	0	43	102	1048576	18	4653
2026-01-05 00:36:41.39	10.64	38.39	-29.2	-31.5	13.1	3.28e-05	0	43	102	1048576	18	4711
2026-01-05 00:36:44.40	10.39	39.13	-29.1	-31.2	13.2	5.49e-05	0	43	102	1048576	18	4630
2026-01-05 00:36:47.42	10.12	39.90	-28.9	-30.8	13.4	1.15e-04	0	43	102	1048576	18	4499
2026-01-05 00:36:50.43	9.84	40.67	-28.8	-31.1	13.5	6.35e-04	0	43	102	1048576	17	4710
2026-01-05 00:36:53.44	9.55	41.47	-28.9	-30.9	13.4	6.87e-04	0	43	102	1048576	18	4523
2026-01-05 00:36:56.47	9.23	42.28	-28.9	-31.4	13.4	1.37e-05	0	43	102	1048576	17	4788
2026-01-05 00:36:59.49	8.91	43.11	-29.6	-32.0	12.4	8.28e-04	0	44	102	1048576	19	4767
2026-01-05 00:37:02.51	8.56	43.96	-29.7	-32.3	12.2	2.44e-04	0	44	102	1048576	19	4889
2026-01-05 00:37:05.52	8.20	44.82	-30.0	-32.8	11.5	6.35e-04	0	43	102	1048576	20	4946
2026-01-05 00:37:08.53	7.81	45.70	-30.1	-33.0	11.4	8.93e-04	0	44	102	1048576	20	5030
2026-01-05 00:37:11.56	7.40	46.61	-29.6	-32.2	12.4	1.69e-04	0	43	102	1048576	19	4826
2026-01-05 00:37:14.56	6.97	47.52	-29.6	-32.0	12.5	9.68e-05	0	43	102	1048576	19	4783
2026-01-05 00:37:17.58	6.50	48.46	-29.1	-31.4	13.2	2.28e-05	0	44	102	1048576	18	4681
2026-01-05 00:37:20.60	6.01	49.42	-29.0	-31.2	13.3	2.28e-05	0	43	102	1048576	18	4596
2026-01-05 00:37:23.62	5.48	50.39	-29.8	-32.5	12.2	2.53e-04	0	43	102	1048576	19	4945
2026-01-05 00:37:26.64	4.92	51.38	-29.6	-32.1	12.4	1.78e-04	0	43	102	1048576	19	4801
2026-01-05 00:37:29.67	4.32	52.40	-28.6	-30.7	13.9	6.80e-06	0	44	102	1048576	17	4578
2026-01-05 00:37:32.69	3.67	53.43	-28.7	-30.8	13.9	6.10e-06	0	44	102	1048576	17	4592
2026-01-05 00:37:35.71	2.98	54.47	-28.5	-30.5	14.1	3.80e-06	0	44	102	1048576	17	4503
2026-01-05 00:37:38.73	2.23	55.54	-28.0	-29.7	14.8	0.00e+00	0	44	102	1048576	16	4382
2026-01-05 00:37:41.75	1.42	56.62	-27.7	-29.7	14.9	0.00e+00	0	43	102	1048576	15	4488
2026-01-05 00:37:44.77	0.55	57.71	-27.4	-28.9	15.4	0.00e+00	0	43	102	1048576	15	4275
2026-01-05 00:37:47.79	359.60	58.82	-27.4	-29.4	15.2	0.00e+00	0	43	102	1048576	14	4530
2026-01-05 00:37:50.82	358.56	59.94	-27.2	-29.0	15.6	0.00e+00	0	43	102	1048576	14	4410
2026-01-05 00:37:53.82	357.43	61.07	-27.3	-29.1	15.6	2.64e-03	0	43	102	1048576	14	4445
2026-01-05 00:37:56.85	356.19	62.21	-26.5	-27.8	16.5	0.00e+00	0	43	102	1048576	13	4195
2026-01-05 00:37:59.85	354.84	63.35	-26.6	-28.2	16.3	8.89e-04	0	43	102	1048576	13	4301
2026-01-05 00:38:02.86	353.34	64.50	-26.6	-28.1	16.2	2.26e-03	0	43	102	1048576	13	4280
2026-01-05 00:38:05.88	351.68	65.65	-26.6	-28.2	16.3	0.00e+00	0	43	102	1048576	13	4294
2026-01-05 00:38:08.90	349.83	66.80	-26.7	-28.3	16.2	2.42e-03	0	43	102	1048576	13	4319
2026-01-05 00:38:11.93	347.76	67.94	-26.8	-28.4	16.2	1.98e-03	0	43	102	1048576	13	4364
2026-01-05 00:38:14.95	345.46	69.07	-26.8	-28.5	16.1	2.11e-03	0	44	102	1048576	13	4388
2026-01-05 00:38:17.97	342.87	70.17	-25.9	-27.1	17.1	0.00e+00	0	44	102	1048576	12	4120
2026-01-05 00:38:20.99	339.96	71.24	-26.1	-27.5	16.9	1.41e-03	0	43	102	1048576	12	4234
2026-01-05 00:38:24.02	336.67	72.27	-26.2	-27.8	16.8	0.00e+00	0	44	102	1048576	12	4297
2026-01-05 00:38:27.03	332.98	73.25	-26.0	-27.3	17.1	2.17e-04	0	43	102	1048576	12	4181
2026-01-05 00:38:30.06	328.81	74.16	-25.9	-27.0	17.2	0.00e+00	0	43	102	1048576	12	4077
2026-01-05 00:38:33.07	324.15	74.98	-26.2	-27.7	16.8	0.00e+00	0	43	102	1048576	12	4275
2026-01-05 00:38:36.09	318.96	75.70	-26.4	-28.2	16.6	0.00e+00	0	43	102	1048576	12	4408
2026-01-05 00:38:39.11	313.24	76.30	-26.2	-27.8	16.8	0.00e+00	0	44	102	1048576	12	4297
2026-01-05 00:38:42.12	307.07	76.76	-26.2	-27.3	16.8	0.00e+00	0	43	102	1048576	13	4051
2026-01-05 00:38:45.14	300.50	77.06	-26.6	-28.0	16.4	0.00e+00	0	43	102	1048576	13	4261
2026-01-05 00:38:48.16	293.70	77.18	-27.0	-28.5	15.8	0.00e+00	0	43	102	1048576	14	4280
2026-01-05 00:38:51.18	286.87	77.13	-26.9	-28.3	15.9	0.00e+00	0	43	102	1048576	14	4216
2026-01-05 00:38:54.20	280.18	76.90	-26.8	-28.6	16.0	2.30e-04	0	43	102	1048576	13	4418
2026-01-05 00:38:57.22	273.81	76.51	-26.7	-27.9	16.2	0.00e+00	0	44	102	1048576	14	4110
2026-01-05 00:39:00.23	267.90	75.97	-26.6	-28.2	16.3	2.00e-04	0	43	102	1048576	13	4293
2026-01-05 00:39:03.25	262.48	75.30	-26.4	-27.7	16.5	1.65e-04	0	43	102	1048576	13	4159
2026-01-05 00:39:06.27	257.59	74.51	-26.2	-27.8	16.8	1.52e-04	0	43	102	1048576	12	4297
2026-01-05 00:39:09.29	253.22	73.63	-26.4	-28.1	16.5	1.87e-04	0	43	102	1048576	12	4395
2026-01-05 00:39:12.30	249.34	72.69	-26.0	-27.3	17.0	7.00e-07	0	43	102	1048576	12	4162
2026-01-05 00:39:15.32	245.89	71.67	-26.6	-28.1	16.1	0.00e+00	0	43	102	1048576	13	4286
2026-01-05 00:39:18.35	242.82	70.61	-25.9	-27.1	17.0	0.00e+00	0	43	102	1048576	12	4134
2026-01-05 00:39:21.36	240.11	69.53	-26.5	-27.9	16.3	0.00e+00	0	43	102	1048576	13	4237
2026-01-05 00:39:24.38	237.68	68.41	-25.9	-27.0	17.0	0.00e+00	0	44	102	1048576	12	4094
2026-01-05 00:39:27.40	235.52	67.27	-26.8	-28.7	15.9	1.83e-05	0	43	102	1048576	13	4445
2026-01-05 00:39:30.43	233.58	66.12	-26.9	-28.3	15.7	0.00e+00	0	43	102	1048576	14	4231
2026-01-05 00:39:33.45	231.84	64.97	-26.2	-27.7	16.5	5.30e-06	0	43	102	1048576	12	4285
2026-01-05 00:39:36.47	230.27	63.81	-27.2	-28.5	15.4	0.00e+00	0	43	102	1048576	15	4175
2026-01-05 00:39:39.49	228.85	62.66	-25.5	-26.6	17.6	0.00e+00	0	43	102	1048576	11	4095
2026-01-05 00:39:42.51	227.56	61.51	-26.4	-28.3	16.2	0.00e+00	0	43	102	1048576	12	4439
2026-01-05 00:39:45.53	226.39	60.38	-27.2	-28.4	15.0	7.00e-07	0	44	102	1048576	15	4144
2026-01-05 00:39:48.55	225.31	59.25	-27.3	-29.1	15.3	7.00e-07	0	43	102	1048576	14	4438
2026-01-05 00:39:51.57	224.33	58.13	-29.2	-31.6	12.9	2.21e-05	0	43	102	1048576	18	4779
2026-01-05 00:39:54.59	223.42	57.03	-29.4	-31.6	12.5	2.10e-04	0	43	102	1048576	19	4659
2026-01-05 00:39:57.60	222.59	55.94	-28.7	-30.3	13.6	1.60e-05	0	43	102	1048576	18	4355
2026-01-05 00:40:00.62	221.81	54.87	-29.3	-31.9	12.6	4.11e-05	0	43	102	1048576	18	4840
2026-01-05 00:40:03.64	221.10	53.81	-30.2	-32.9	10.9	3.36e-03	0	43	102	1048576	21	4912
2026-01-05 00:40:06.66	220.43	52.77	-28.5	-29.9	13.9	6.10e-06	0	43	102	1048576	18	4246
2026-01-05 00:40:09.68	219.81	51.75	-28.7	-31.1	13.4	1.60e-04	0	44	102	1048576	17	4695
2026-01-05 00:40:12.70	219.23	50.75	-29.9	-33.0	11.5	4.68e-04	0	43	102	1048576	19	5150
2026-01-05 00:40:15.72	218.69	49.76	-28.7	-30.3	13.5	2.43e-04	0	43	102	1048576	18	4356
2026-01-05 00:40:18.74	218.18	48.79	-28.7	-31.0	13.5	2.78e-04	0	43	102	1048576	17	4673
2026-01-05 00:40:21.76	217.71	47.85	-28.6	-30.8	13.6	2.43e-04	0	43	102	1048576	17	4603
2026-01-05 00:40:24.79	217.26	46.91	-29.3	-31.8	12.6	8.46e-05	0	43	102	1048576	18	4839
2026-01-05 00:40:27.80	216.84	46.00	-29.5	-32.1	12.0	3.99e-04	0	44	102	1048576	19	4826
2026-01-05 00:40:30.81	216.44	45.11	-29.0	-31.2	13.0	5.11e-04	0	44	102	1048576	18	4636
2026-01-05 00:40:33.83	216.06	44.24	-29.3	-32.0	12.5	7.85e-05	0	43	102	1048576	18	4890
2026-01-05 00:40:36.85	215.71	43.38	-29.7	-32.5	11.9	3.89e-03	0	43	102	1048576	19	4961
2026-01-05 00:40:39.86	215.37	42.54	-29.6	-32.3	12.0	2.57e-04	0	43	102	1048576	19	4902
2026-01-05 00:40:42.89	215.05	41.72	-30.5	-33.8	10.2	7.18e-03	0	43	102	1048576	21	5241
2026-01-05 00:40:45.91	214.75	40.91	-30.1	-33.2	11.0	2.49e-03	0	44	102	1048576	20	5140
2026-01-05 00:40:48.93	214.46	40.12	-29.9	-33.0	11.5	9.41e-04	0	43	102	1048576	19	5141
2026-01-05 00:40:51.95	214.19	39.35	-30.0	-32.8	11.2	3.62e-03	0	43	102	1048576	20	4966
2026-01-05 00:40:54.97	213.93	38.59	-30.4	-34.1	10.4	7.11e-03	0	44	102	1048576	20	5469
2026-01-05 00:40:58.00	213.68	37.85	-30.1	-33.2	10.9	5.88e-03	0	44	102	1048576	20	5142
2026-01-05 00:41:01.01	213.44	37.13	-29.9	-33.0	11.4	9.84e-04	0	43	102	1048576	19	5171
2026-01-05 00:41:04.04	213.21	36.41	-28.8	-30.8	13.1	2.23e-03	0	44	102	1048576	18	4514
2026-01-05 00:41:07.06	213.00	35.72	-28.9	-31.6	12.9	3.81e-05	0	43	102	1048576	17	4899
2026-01-05 00:41:10.08	212.79	35.04	-29.4	-32.3	12.2	2.88e-03	0	43	102	1048576	18	5016
2026-01-05 00:41:13.10	212.59	34.37	-28.6	-30.7	13.4	1.37e-05	0	43	102	1048576	17	4606
2026-01-05 00:41:16.11	212.40	33.72	-28.5	-30.5	13.5	1.29e-05	0	44	102	1048576	17	4555
2026-01-05 00:41:19.13	212.22	33.08	-28.7	-31.0	13.3	2.67e-05	0	43	102	1048576	17	4685
2026-01-05 00:41:22.15	212.04	32.45	-28.9	-31.5	12.9	4.42e-05	0	43	102	1048576	17	4859
2026-01-05 00:41:25.17	211.87	31.83	-28.6	-30.9	13.3	1.75e-05	0	43	102	1048576	17	4666
2026-01-05 00:41:28.19	211.71	31.23	-28.2	-30.3	13.9	3.00e-06	0	43	102	1048576	16	4596
2026-01-05 00:41:31.21	211.56	30.64	-27.8	-29.5	14.4	0.00e+00	0	44	102	1048576	16	4340
2026-01-05 00:41:34.23	211.41	30.06	-27.0	-28.6	15.3	0.00e+00	0	43	102	1048576	14	4327
2026-01-05 00:41:37.24	211.26	29.49	-26.7	-28.5	15.6	0.00e+00	0	44	102	1048576	13	4398
2026-01-05 00:41:40.26	211.12	28.94	-26.9	-28.4	15.4	0.00e+00	0	43	102	1048576	14	4256
2026-01-05 00:41:43.27	210.99	28.39	-27.4	-29.5	14.8	0.00e+00	0	43	102	1048576	14	4577
2026-01-05 00:41:46.29	210.86	27.85	-27.8	-30.0	14.1	1.50e-06	0	43	102	1048576	15	4636
2026-01-05 00:41:49.31	210.74	27.33	-27.3	-29.4	14.7	0.00e+00	0	44	102	1048576	14	4549
2026-01-05 00:41:52.31	210.62	26.82	-27.2	-29.2	14.9	0.00e+00	0	43	102	1048576	14	4495
2026-01-05 00:41:55.34	210.50	26.31	-27.2	-29.0	14.9	0.00e+00	0	43	102	1048576	14	4456
2026-01-05 00:41:58.36	210.39	25.81	-27.2	-29.2	14.8	0.00e+00	0	44	102	1048576	14	4487
2026-01-05 00:42:01.39	210.28	25.32	-27.3	-29.3	14.4	7.00e-07	0	43	102	1048576	14	4526
2026-01-05 00:42:04.40	210.17	24.84	-27.4	-29.7	14.5	7.00e-07	0	43	102	1048576	14	4658
2026-01-05 00:42:07.41	210.07	24.37	-27.6	-29.5	14.3	0.00e+00	0	43	102	1048576	15	4481
2026-01-05 00:42:10.43	209.97	23.91	-27.5	-29.7	14.5	7.00e-07	0	43	102	1048576	14	4652
2026-01-05 00:42:13.44	209.88	23.45	-27.6	-29.4	14.4	1.91e-03	0	43	102	1048576	15	4468
2026-01-05 00:42:16.47	209.78	23.00	-27.2	-29.2	14.8	0.00e+00	0	44	102	1048576	14	4513
2026-01-05 00:42:19.48	209.69	22.56	-27.5	-29.7	14.4	2.89e-03	0	44	102	1048576	14	4672
2026-01-05 00:42:22.50	209.61	22.13	-27.1	-29.0	14.8	7.00e-07	0	44	102	1048576	14	4446
2026-01-05 00:42:25.51	209.52	21.71	-27.3	-29.3	14.6	3.64e-03	0	43	102	1048576	14	4552
2026-01-05 00:42:28.54	209.44	21.29	-26.8	-28.7	15.2	3.33e-03	0	44	102	1048576	13	4488
2026-01-05 00:42:31.55	209.36	20.88	-26.9	-28.9	15.1	3.58e-03	0	43	102	1048576	13	4537
2026-01-05 00:42:34.55	209.28	20.47	-26.8	-28.7	15.2	3.57e-03	0	44	102	1048576	13	4468
2026-01-05 00:42:37.57	209.21	20.08	-26.8	-28.8	15.2	7.17e-05	0	43	102	1048576	13	4502
2026-01-05 00:42:40.59	209.14	19.68	-26.9	-29.0	15.0	3.09e-03	0	43	102	1048576	13	4580
2026-01-05 00:42:43.60	209.07	19.30	-27.1	-29.0	14.8	2.21e-05	0	43	102	1048576	14	4452
2026-01-05 00:42:46.62	209.00	18.92	-27.1	-29.0	14.7	3.22e-03	0	44	102	1048576	14	4464
2026-01-05 00:42:49.65	208.93	18.54	-27.4	-29.6	14.4	2.05e-05	0	44	102	1048576	14	4645
2026-01-05 00:42:52.67	208.86	18.17	-27.2	-29.1	14.7	0.00e+00	0	44	102	1048576	14	4493
2026-01-05 00:42:55.68	208.80	17.81	-27.4	-29.6	14.4	7.00e-07	0	44	102	1048576	14	4627
2026-01-05 00:42:58.69	208.74	17.45	-27.7	-29.7	14.0	2.20e-06	0	43	102	1048576	15	4563
2026-01-05 00:43:01.71	208.68	17.10	-27.6	-29.6	14.0	3.00e-06	0	44	102	1048576	15	4519
2026-01-05 00:43:04.73	208.62	16.75	-27.7	-29.7	13.9	2.20e-06	0	44	102	1048576	15	4579
2026-01-05 00:43:07.75	208.56	16.40	-27.7	-29.9	13.8	6.10e-06	0	44	102	1048576	15	4616
2026-01-05 00:43:10.78	208.51	16.06	-27.6	-29.6	14.0	1.50e-06	0	44	102	1048576	15	4526
2026-01-05 00:43:13.79	208.45	15.73	-27.7	-29.9	13.8	7.00e-07	0	44	102	1048576	15	4641
2026-01-05 00:43:16.81	208.40	15.40	-27.9	-30.2	13.5	8.30e-06	0	43	102	1048576	15	4738
2026-01-05 00:43:19.84	208.35	15.07	-27.9	-30.4	13.4	1.22e-05	0	43	102	1048576	15	4783
2026-01-05 00:43:22.86	208.30	14.75	-28.0	-30.5	13.3	1.52e-05	0	44	102	1048576	15	4828
2026-01-05 00:43:25.89	208.25	14.43	-28.1	-30.3	13.3	1.29e-05	0	43	102	1048576	16	4645
2026-01-05 00:43:28.90	208.20	14.12	-28.2	-30.5	13.2	3.43e-05	0	44	102	1048576	16	4709
2026-01-05 00:43:31.92	208.16	13.81	-28.3	-30.8	12.9	3.73e-05	0	44	102	1048576	16	4815
2026-01-05 00:43:34.94	208.11	13.51	-28.5	-30.7	12.7	1.38e-04	0	44	102	1048576	17	4675
2026-01-05 00:43:37.96	208.07	13.20	-28.4	-31.0	12.8	6.02e-05	0	43	102	1048576	16	4865
2026-01-05 00:43:40.98	208.03	12.91	-28.3	-30.4	12.8	1.33e-04	0	44	102	1048576	17	4587
2026-01-05 00:43:44.00	207.98	12.61	-28.4	-31.0	12.7	6.48e-05	0	43	102	1048576	16	4882
2026-01-05 00:43:47.02	207.94	12.32	-28.2	-30.5	13.0	1.09e-04	0	44	102	1048576	16	4704
2026-01-05 00:43:50.04	207.90	12.03	-28.1	-30.3	13.1	3.96e-05	0	44	102	1048576	16	4651
2026-01-05 00:43:53.05	207.86	11.75	-28.2	-30.7	12.9	4.65e-05	0	44	102	1048576	16	4775
2026-01-05 00:43:56.08	207.82	11.47	-28.1	-30.5	13.0	8.46e-05	0	44	102	1048576	16	4709
2026-01-05 00:43:59.10	207.79	11.19	-28.3	-30.9	12.7	8.31e-05	0	44	102	1048576	16	4854
2026-01-05 00:44:02.11	207.75	10.92	-28.2	-30.6	12.9	7.09e-05	0	44	102	1048576	16	4746
2026-01-05 00:44:05.13	207.72	10.65	-28.3	-30.9	12.6	9.84e-05	0	44	102	1048576	16	4877
2026-01-05 00:44:08.15	207.68	10.38	-28.2	-30.8	12.7	8.31e-05	0	43	102	1048576	16	4814
2026-01-05 00:44:11.17	207.65	10.11	-28.2	-30.8	12.7	7.55e-05	0	43	102	1048576	16	4817
2026-01-05 00:44:14.19	207.61	9.85	-28.3	-31.0	12.5	1.23e-04	0	43	102	1048576	16	4913
2026-01-05 00:44:17.19	207.58	9.59	-28.3	-31.0	12.5	1.23e-04	0	43	102	1048576	16	4902
2026-01-05 00:44:20.22	207.55	9.33	-28.4	-31.2	12.4	1.52e-04	0	43	102	1048576	16	4958
2026-01-05 00:44:23.23	207.52	9.08	-28.5	-31.0	12.1	2.89e-04	0	43	102	1048576	17	4804
2026-01-05 00:44:26.25	207.49	8.83	-28.8	-31.6	11.6	7.08e-04	0	44	102	1048576	17	5021
2026-01-05 00:44:29.27	207.46	8.58	-28.9	-31.4	11.4	9.75e-04	0	43	102	1048576	18	4838
2026-01-05 00:44:32.29	207.43	8.33	-28.7	-31.5	11.7	5.85e-04	0	44	102	1048576	17	5001
2026-01-05 00:44:35.31	207.40	8.08	-28.9	-32.1	11.2	1.54e-03	0	44	102	1048576	17	5218
2026-01-05 00:44:38.33	207.37	7.84	-28.7	-31.6	11.6	7.03e-04	0	44	102	1048576	17	5030
2026-01-05 00:44:41.35	207.34	7.60	-28.7	-31.7	11.5	7.33e-04	0	43	102	1048576	17	5055
2026-01-05 00:44:44.37	207.32	7.36	-28.8	-31.7	11.4	1.06e-03	0	43	102	1048576	17	5078
2026-01-05 00:44:47.40	207.29	7.13	-28.8	-31.9	11.3	1.24e-03	0	44	102	1048576	17	5131
2026-01-05 00:44:50.42	207.27	6.89	-33.0	-45.2	3.8	1.49e+00	0	43	104	1048576	25	14801

#Closed at: 2026-01-05 00:44:50
#Recorded file [1 MB]: D:/data/31010_260105_033308.dat