passes_logs/2026/01/05/R2M6_AANII_01/R2M6_AANII_01__20260105_232403_NOAA_20_JPSS-1_rec.log

#Pass ID: 20260105_232403_NOAA 20 (JPSS-1)
#Satellite: NOAA 20 (JPSS-1)
#Configuration: NOAA 20
#almurnet v.1.7.20240730
#Start time: 2026-01-05 23:24:04

#Version: 2.2.20231116
#Station: R2M6_AANII_01
#Location: 30.233357 lon 59.946436 lat
#TLE: 1 43013U 17073A   26005.46207808  .00000128  00000+0  81791-4 0  9997
#TLE: 2 43013  98.7627 306.5027 0001826  53.0458 307.0885 14.19533487421381

#Time	Az	El	Level	Level2	SNR	BER	BlckErr	Temp	State	Recorded	gain1	gain2
2026-01-05 23:24:04.60	24.05	7.11	-31.0	-37.0	5.1	1.25e+00	0	41	0	0	22	7141
2026-01-05 23:24:07.60	24.22	7.33	-31.1	-37.2	8.0	7.15e-02	0	41	102	1048576	22	7262
2026-01-05 23:24:10.64	24.40	7.55	-30.9	-36.9	8.7	3.43e-02	0	41	102	1048576	21	7156
2026-01-05 23:24:13.66	24.58	7.78	-30.6	-35.7	9.6	1.67e-02	0	41	102	1048576	21	6432
2026-01-05 23:24:16.68	24.76	8.00	-30.6	-35.5	9.8	8.79e-03	0	42	102	1048576	21	6318
2026-01-05 23:24:19.70	24.94	8.23	-30.8	-36.2	9.3	1.23e-02	0	42	102	1048576	21	6711
2026-01-05 23:24:22.71	25.12	8.45	-30.4	-35.3	10.4	7.53e-03	0	42	102	1048576	20	6318
2026-01-05 23:24:25.73	25.31	8.68	-30.3	-35.1	10.5	3.83e-03	0	42	102	1048576	20	6232
2026-01-05 23:24:28.75	25.50	8.91	-30.3	-35.0	10.6	3.89e-03	0	42	102	1048576	20	6189
2026-01-05 23:24:31.78	25.70	9.15	-30.4	-35.3	10.4	4.14e-03	0	42	102	1048576	20	6330
2026-01-05 23:24:34.80	25.89	9.38	-30.7	-35.6	9.9	7.92e-03	0	42	102	1048576	21	6382
2026-01-05 23:24:37.83	26.09	9.62	-30.8	-36.3	9.3	1.47e-02	0	42	102	1048576	21	6789
2026-01-05 23:24:40.85	26.30	9.86	-30.9	-36.6	9.2	2.08e-02	0	42	102	1048576	21	6903
2026-01-05 23:24:43.87	26.50	10.10	-30.6	-35.4	10.1	8.62e-03	0	42	102	1048576	21	6260
2026-01-05 23:24:46.88	26.71	10.35	-30.7	-35.6	10.0	1.11e-02	0	42	102	1048576	21	6342
2026-01-05 23:24:49.90	26.92	10.59	-30.1	-34.1	11.5	1.12e-03	0	42	102	1048576	20	5717
2026-01-05 23:24:52.93	27.14	10.84	-30.0	-33.7	11.8	4.87e-04	0	42	102	1048576	20	5520
2026-01-05 23:24:55.95	27.36	11.09	-30.0	-33.6	11.9	6.09e-04	0	43	102	1048576	20	5487
2026-01-05 23:24:58.98	27.58	11.34	-30.2	-34.2	11.6	1.79e-03	0	43	102	1048576	20	5714
2026-01-05 23:25:02.00	27.80	11.60	-29.7	-33.4	12.5	1.40e-03	0	43	102	1048576	19	5458
2026-01-05 23:25:05.02	28.03	11.85	-29.8	-33.6	12.4	1.30e-03	0	42	102	1048576	19	5581
2026-01-05 23:25:08.03	28.27	12.11	-29.8	-33.5	12.5	1.29e-03	0	43	102	1048576	19	5532
2026-01-05 23:25:11.04	28.50	12.37	-29.9	-33.7	12.3	1.35e-03	0	43	102	1048576	19	5614
2026-01-05 23:25:14.06	28.74	12.64	-30.0	-34.1	12.1	1.20e-03	0	43	102	1048576	19	5752
2026-01-05 23:25:17.09	28.99	12.90	-30.0	-33.8	11.9	1.70e-03	0	43	102	1048576	20	5546
2026-01-05 23:25:20.11	29.24	13.17	-29.8	-33.6	12.5	2.55e-04	0	43	102	1048576	19	5552
2026-01-05 23:25:23.13	29.49	13.44	-29.6	-33.0	12.9	1.65e-03	0	43	102	1048576	19	5284
2026-01-05 23:25:26.15	29.75	13.72	-29.5	-32.7	13.1	1.51e-03	0	43	102	1048576	19	5198
2026-01-05 23:25:29.17	30.02	13.99	-29.7	-33.1	12.8	1.39e-03	0	43	102	1048576	19	5349
2026-01-05 23:25:32.20	30.28	14.27	-29.5	-32.7	13.1	1.48e-03	0	43	102	1048576	19	5195
2026-01-05 23:25:35.22	30.56	14.56	-29.9	-33.7	12.4	1.63e-03	0	43	102	1048576	19	5608
2026-01-05 23:25:38.24	30.83	14.84	-29.9	-33.6	12.5	1.68e-03	0	43	102	1048576	19	5553
2026-01-05 23:25:41.26	31.12	15.13	-29.6	-32.9	13.0	1.54e-03	0	43	102	1048576	19	5253
2026-01-05 23:25:44.28	31.41	15.42	-29.7	-33.2	12.9	5.72e-05	0	43	102	1048576	19	5363
2026-01-05 23:25:47.30	31.70	15.71	-29.4	-32.4	13.4	1.83e-05	0	43	102	1048576	19	5061
2026-01-05 23:25:50.31	32.00	16.01	-29.6	-32.7	13.2	2.89e-05	0	43	102	1048576	19	5192
2026-01-05 23:25:53.33	32.30	16.31	-29.6	-32.9	13.1	3.50e-05	0	43	102	1048576	19	5247
2026-01-05 23:25:56.36	32.61	16.61	-29.8	-33.3	12.8	4.95e-05	0	43	102	1048576	19	5396
2026-01-05 23:25:59.38	32.93	16.91	-29.7	-32.5	13.0	5.03e-04	0	43	102	1048576	20	4998
2026-01-05 23:26:02.40	33.25	17.22	-29.7	-33.2	12.9	5.13e-04	0	43	102	1048576	19	5351
2026-01-05 23:26:05.42	33.58	17.53	-29.7	-33.0	13.0	3.96e-05	0	43	102	1048576	19	5290
2026-01-05 23:26:08.43	33.92	17.85	-29.7	-33.0	13.0	4.42e-05	0	43	102	1048576	19	5297
2026-01-05 23:26:11.45	34.26	18.16	-29.7	-33.0	13.1	3.43e-05	0	43	102	1048576	19	5270
2026-01-05 23:26:14.47	34.61	18.48	-29.7	-33.2	13.0	3.43e-05	0	43	102	1048576	19	5351
2026-01-05 23:26:17.49	34.97	18.81	-29.9	-33.5	12.8	6.86e-05	0	43	102	1048576	19	5483
2026-01-05 23:26:20.51	35.33	19.13	-30.1	-33.7	12.2	3.20e-04	0	43	102	1048576	20	5483
2026-01-05 23:26:23.53	35.70	19.46	-30.5	-34.5	11.3	8.54e-04	0	43	102	1048576	21	5721
2026-01-05 23:26:26.54	36.08	19.80	-30.8	-35.5	10.6	4.10e-03	0	43	102	1048576	21	6160
2026-01-05 23:26:29.56	36.47	20.13	-30.1	-33.8	11.9	2.37e-04	0	43	102	1048576	20	5509
2026-01-05 23:26:32.58	36.86	20.47	-30.0	-33.5	12.0	1.23e-04	0	43	102	1048576	20	5355
2026-01-05 23:26:35.59	37.27	20.82	-30.1	-33.8	12.0	2.55e-04	0	43	102	1048576	20	5505
2026-01-05 23:26:38.61	37.68	21.16	-30.2	-34.0	12.1	2.54e-04	0	43	102	1048576	20	5570
2026-01-05 23:26:41.63	38.10	21.51	-30.2	-33.9	12.2	2.73e-04	0	43	102	1048576	20	5523
2026-01-05 23:26:44.63	38.53	21.86	-30.2	-33.8	12.3	1.93e-04	0	43	102	1048576	20	5490
2026-01-05 23:26:47.65	38.98	22.22	-30.1	-33.7	12.3	2.51e-04	0	43	102	1048576	20	5439
2026-01-05 23:26:50.66	39.43	22.58	-29.9	-33.6	12.8	5.24e-04	0	43	102	1048576	19	5510
2026-01-05 23:26:53.67	39.89	22.94	-29.8	-33.3	13.1	3.65e-04	0	43	102	1048576	19	5365
2026-01-05 23:26:56.70	40.36	23.31	-29.7	-32.9	13.3	1.24e-04	0	43	102	1048576	19	5225
2026-01-05 23:26:59.71	40.84	23.68	-29.6	-32.7	13.5	1.07e-04	0	43	102	1048576	19	5142
2026-01-05 23:27:02.72	41.33	24.05	-29.8	-33.1	13.2	8.30e-06	0	43	102	1048576	19	5281
2026-01-05 23:27:05.73	41.84	24.43	-29.7	-33.0	13.3	8.30e-06	0	43	102	1048576	19	5247
2026-01-05 23:27:08.75	42.36	24.81	-29.8	-33.3	13.1	1.37e-05	0	43	102	1048576	19	5353
2026-01-05 23:27:11.76	42.89	25.19	-30.2	-33.9	12.3	1.91e-04	0	43	102	1048576	20	5521
2026-01-05 23:27:14.77	43.43	25.57	-29.9	-32.9	13.0	5.49e-05	0	43	102	1048576	20	5126
2026-01-05 23:27:17.79	43.98	25.96	-29.9	-33.0	12.9	1.37e-04	0	43	102	1048576	20	5151
2026-01-05 23:27:20.81	44.55	26.35	-29.9	-33.0	13.0	1.20e-04	0	43	102	1048576	20	5139
2026-01-05 23:27:23.82	45.14	26.75	-30.1	-33.7	12.6	1.09e-04	0	43	102	1048576	20	5408
2026-01-05 23:27:26.84	45.73	27.14	-30.0	-33.1	12.9	3.73e-05	0	44	102	1048576	20	5194
2026-01-05 23:27:29.86	46.35	27.54	-30.0	-33.4	12.8	9.07e-05	0	43	102	1048576	20	5278
2026-01-05 23:27:32.88	46.98	27.94	-30.1	-33.5	12.7	1.20e-04	0	43	102	1048576	20	5324
2026-01-05 23:27:35.89	47.62	28.35	-30.3	-34.1	12.3	1.75e-04	0	43	102	1048576	20	5556
2026-01-05 23:27:38.91	48.28	28.75	-30.3	-33.6	12.3	1.75e-04	0	43	102	1048576	21	5254
2026-01-05 23:27:41.94	48.96	29.16	-30.7	-34.8	11.5	1.44e-03	0	44	102	1048576	21	5765
2026-01-05 23:27:44.95	49.65	29.57	-30.5	-34.2	11.9	4.26e-04	0	43	102	1048576	21	5538
2026-01-05 23:27:47.97	50.36	29.98	-30.5	-34.1	12.0	3.58e-04	0	43	102	1048576	21	5460
2026-01-05 23:27:50.99	51.09	30.40	-30.4	-33.9	12.1	2.40e-04	0	43	102	1048576	21	5391
2026-01-05 23:27:54.01	51.84	30.81	-30.8	-35.0	11.4	7.85e-04	0	43	102	1048576	21	5864
2026-01-05 23:27:57.03	52.60	31.22	-30.3	-33.5	12.4	1.56e-04	0	43	102	1048576	21	5200
2026-01-05 23:28:00.05	53.39	31.64	-30.5	-34.1	12.0	2.46e-04	0	43	102	1048576	21	5453
2026-01-05 23:28:03.07	54.20	32.05	-30.9	-35.5	11.0	1.55e-03	0	43	102	1048576	21	6110
2026-01-05 23:28:06.09	55.02	32.46	-31.0	-35.3	10.9	2.22e-03	0	43	102	1048576	22	5881
2026-01-05 23:28:09.12	55.87	32.88	-31.0	-35.1	11.0	2.12e-03	0	44	102	1048576	22	5800
2026-01-05 23:28:12.15	56.75	33.29	-31.4	-36.6	9.9	7.28e-03	0	44	102	1048576	22	6536
2026-01-05 23:28:15.18	57.64	33.70	-31.4	-36.2	9.8	1.18e-02	0	44	102	1048576	23	6244
2026-01-05 23:28:18.20	58.55	34.11	-31.7	-37.0	9.2	1.79e-02	0	44	102	1048576	23	6695
2026-01-05 23:28:21.22	59.49	34.51	-31.7	-37.3	9.0	2.91e-02	0	44	102	1048576	23	6833
2026-01-05 23:28:24.25	60.45	34.92	-31.6	-36.9	9.3	2.01e-02	0	43	102	1048576	23	6588
2026-01-05 23:28:27.26	61.43	35.31	-31.6	-36.9	9.3	1.54e-02	0	44	102	1048576	23	6611
2026-01-05 23:28:30.28	62.44	35.71	-31.6	-36.9	9.3	1.73e-02	0	44	102	1048576	23	6611
2026-01-05 23:28:33.30	63.47	36.09	-31.4	-35.8	10.1	8.15e-03	0	44	102	1048576	23	6020
2026-01-05 23:28:36.33	64.53	36.48	-31.2	-35.2	10.7	3.07e-03	0	43	102	1048576	23	5728
2026-01-05 23:28:39.34	65.61	36.85	-31.4	-35.9	10.1	6.68e-03	0	44	102	1048576	23	6080
2026-01-05 23:28:42.36	66.71	37.22	-31.4	-35.9	10.2	9.12e-03	0	43	102	1048576	23	6039
2026-01-05 23:28:45.38	67.84	37.58	-30.7	-34.0	11.9	7.11e-04	0	44	102	1048576	22	5300
2026-01-05 23:28:48.40	69.00	37.93	-30.6	-33.9	12.1	2.32e-04	0	43	102	1048576	22	5251
2026-01-05 23:28:51.43	70.18	38.28	-31.0	-35.2	11.0	1.51e-03	0	44	102	1048576	22	5815
2026-01-05 23:28:54.44	71.38	38.61	-30.7	-34.2	11.8	4.45e-04	0	44	102	1048576	22	5382
2026-01-05 23:28:57.46	72.60	38.93	-31.2	-35.6	10.8	1.99e-03	0	44	102	1048576	22	5981
2026-01-05 23:29:00.49	73.86	39.24	-31.2	-35.6	10.8	2.36e-03	0	44	102	1048576	22	6005
2026-01-05 23:29:03.50	75.13	39.53	-31.4	-36.4	10.2	7.33e-03	0	44	102	1048576	22	6424
2026-01-05 23:29:06.52	76.43	39.82	-31.2	-35.6	10.7	3.37e-03	0	44	102	1048576	22	6020
2026-01-05 23:29:09.54	77.75	40.09	-31.3	-35.9	10.6	2.86e-03	0	44	102	1048576	22	6130
2026-01-05 23:29:12.55	79.08	40.34	-31.3	-36.1	10.5	3.24e-03	0	44	102	1048576	22	6226
2026-01-05 23:29:15.56	80.44	40.58	-30.8	-34.4	11.7	1.07e-03	0	44	102	1048576	22	5438
2026-01-05 23:29:18.58	81.82	40.80	-31.2	-35.5	10.9	1.30e-03	0	44	102	1048576	22	5948
2026-01-05 23:29:21.59	83.21	41.00	-31.6	-36.4	9.9	1.23e-02	0	44	102	1048576	23	6310
2026-01-05 23:29:24.60	84.62	41.19	-30.9	-34.3	11.4	1.25e-03	0	44	102	1048576	23	5314
2026-01-05 23:29:27.61	86.05	41.36	-31.4	-35.7	10.4	3.21e-03	0	44	102	1048576	23	5925
2026-01-05 23:29:30.63	87.49	41.51	-31.7	-36.9	9.5	1.80e-02	0	44	102	1048576	23	6550
2026-01-05 23:29:33.66	88.96	41.64	-31.2	-35.0	10.9	2.50e-03	0	44	102	1048576	23	5601
2026-01-05 23:29:36.68	90.42	41.75	-31.5	-36.2	10.0	7.00e-03	0	44	102	1048576	23	6202
2026-01-05 23:29:39.70	91.90	41.84	-31.3	-35.6	10.5	7.59e-03	0	44	102	1048576	23	5866
2026-01-05 23:29:42.71	93.38	41.90	-31.1	-35.0	11.0	1.13e-03	0	44	102	1048576	23	5583
2026-01-05 23:29:45.73	94.87	41.95	-31.6	-36.6	9.7	5.31e-03	0	44	102	1048576	23	6377
2026-01-05 23:29:48.76	96.37	41.98	-30.6	-33.8	12.2	4.86e-04	0	44	102	1048576	22	5184
2026-01-05 23:29:51.78	97.87	41.98	-29.9	-32.3	13.5	1.60e-05	0	44	102	1048576	21	4729
2026-01-05 23:29:54.80	99.36	41.97	-29.5	-31.6	14.3	2.20e-06	0	44	102	1048576	20	4596
2026-01-05 23:29:57.82	100.85	41.93	-29.9	-32.7	13.6	1.22e-05	0	44	102	1048576	20	4976
2026-01-05 23:30:00.85	102.35	41.87	-30.4	-34.1	12.7	4.04e-05	0	44	102	1048576	20	5523
2026-01-05 23:30:03.86	103.82	41.79	-30.6	-34.3	12.1	3.91e-04	0	44	102	1048576	21	5525
2026-01-05 23:30:06.88	105.30	41.69	-30.9	-35.1	11.6	6.07e-04	0	44	102	1048576	21	5849
2026-01-05 23:30:09.90	106.76	41.57	-31.2	-35.6	10.9	1.42e-03	0	44	102	1048576	22	5962
2026-01-05 23:30:12.92	108.21	41.42	-31.8	-37.5	9.1	2.16e-02	0	44	102	1048576	23	6870
2026-01-05 23:30:15.94	109.65	41.26	-31.7	-36.3	9.6	1.80e-02	0	44	102	1048576	24	6145
2026-01-05 23:30:18.96	111.07	41.08	-31.9	-37.1	9.0	2.27e-02	0	44	102	1048576	24	6536
2026-01-05 23:30:21.97	112.48	40.89	-31.4	-35.4	10.3	3.74e-03	0	44	102	1048576	24	5697
2026-01-05 23:30:24.99	113.87	40.67	-31.1	-34.9	11.1	4.76e-03	0	44	102	1048576	23	5543
2026-01-05 23:30:28.00	115.23	40.44	-30.8	-34.3	11.9	1.75e-04	0	44	102	1048576	22	5396
2026-01-05 23:30:31.02	116.59	40.19	-30.5	-33.5	12.4	7.23e-04	0	44	102	1048576	22	5059
2026-01-05 23:30:34.03	117.91	39.93	-30.4	-33.6	12.7	5.64e-05	0	44	102	1048576	21	5202
2026-01-05 23:30:37.05	119.22	39.65	-29.3	-31.7	14.6	1.50e-06	0	44	102	1048576	19	4717
2026-01-05 23:30:40.06	120.51	39.36	-29.7	-32.7	14.0	3.00e-06	0	44	102	1048576	19	5094
2026-01-05 23:30:43.07	121.76	39.06	-29.2	-31.2	14.9	7.00e-07	0	44	102	1048576	19	4584
2026-01-05 23:30:46.09	123.01	38.74	-29.9	-32.9	13.4	9.10e-06	0	44	102	1048576	20	5069
2026-01-05 23:30:49.11	124.22	38.41	-28.7	-30.6	15.6	0.00e+00	0	44	102	1048576	18	4479
2026-01-05 23:30:52.13	125.41	38.07	-29.4	-32.4	14.5	7.00e-07	0	43	102	1048576	18	5087
2026-01-05 23:30:55.15	126.58	37.72	-28.7	-30.6	15.5	0.00e+00	0	43	102	1048576	18	4475
2026-01-05 23:30:58.16	127.72	37.36	-29.2	-31.8	14.7	0.00e+00	0	44	102	1048576	18	4876
2026-01-05 23:31:01.18	128.84	37.00	-28.9	-31.2	15.0	0.00e+00	0	44	102	1048576	18	4691
2026-01-05 23:31:04.19	129.93	36.62	-29.4	-32.4	14.5	1.50e-06	0	44	102	1048576	18	5089
2026-01-05 23:31:07.20	130.99	36.24	-29.7	-32.6	14.0	2.20e-06	0	44	102	1048576	19	5071
2026-01-05 23:31:10.22	132.04	35.86	-29.9	-33.3	13.5	5.30e-06	0	44	102	1048576	19	5330
2026-01-05 23:31:13.24	133.06	35.46	-29.5	-31.7	14.1	7.60e-06	0	44	102	1048576	20	4656
2026-01-05 23:31:16.25	134.05	35.07	-29.1	-31.1	14.9	0.00e+00	0	44	102	1048576	19	4555
2026-01-05 23:31:19.26	135.02	34.67	-29.7	-32.6	14.0	3.00e-06	0	43	102	1048576	19	5063
2026-01-05 23:31:22.28	135.97	34.26	-29.5	-31.8	14.0	8.30e-06	0	44	102	1048576	20	4681
2026-01-05 23:31:25.29	136.89	33.85	-30.2	-33.7	12.8	1.37e-05	0	44	102	1048576	20	5390
2026-01-05 23:31:28.30	137.79	33.45	-30.9	-34.9	11.2	2.81e-03	0	44	102	1048576	22	5690
2026-01-05 23:31:31.32	138.68	33.03	-29.8	-32.4	13.6	5.30e-06	0	44	102	1048576	20	4900
2026-01-05 23:31:34.35	139.54	32.62	-31.0	-35.2	11.1	9.88e-04	0	44	102	1048576	22	5826
2026-01-05 23:31:37.36	140.37	32.20	-29.5	-31.7	14.1	2.81e-04	0	44	102	1048576	20	4641
2026-01-05 23:31:40.37	141.19	31.79	-30.4	-34.4	12.3	5.48e-04	0	44	102	1048576	20	5696
2026-01-05 23:31:43.40	141.99	31.37	-30.8	-34.5	11.5	2.94e-03	0	44	102	1048576	22	5497
2026-01-05 23:31:46.42	142.77	30.95	-30.3	-34.1	12.6	8.41e-04	0	44	102	1048576	20	5534
2026-01-05 23:31:49.44	143.53	30.54	-31.5	-36.4	9.8	6.60e-03	0	44	102	1048576	23	6336
2026-01-05 23:31:52.46	144.26	30.12	-30.8	-34.6	11.4	1.85e-03	0	44	102	1048576	22	5561
2026-01-05 23:31:55.48	144.99	29.71	-30.1	-33.4	12.9	1.17e-03	0	44	102	1048576	20	5250
2026-01-05 23:31:58.50	145.69	29.29	-31.7	-37.1	9.1	1.07e-02	0	44	102	1048576	23	6747
2026-01-05 23:32:01.52	146.37	28.88	-29.5	-31.8	13.9	1.82e-03	0	44	102	1048576	20	4703
2026-01-05 23:32:04.54	147.04	28.47	-28.6	-31.0	15.4	1.52e-03	0	44	102	1048576	17	4720
2026-01-05 23:32:07.56	147.70	28.07	-30.3	-34.0	12.5	1.71e-03	0	44	102	1048576	20	5540
2026-01-05 23:32:10.57	148.33	27.66	-29.5	-31.8	13.9	1.29e-05	0	44	102	1048576	20	4679
2026-01-05 23:32:13.60	148.95	27.26	-29.0	-31.5	14.8	3.80e-06	0	43	102	1048576	18	4804
2026-01-05 23:32:16.62	149.56	26.86	-29.9	-33.4	13.3	1.90e-05	0	44	102	1048576	19	5376
2026-01-05 23:32:19.64	150.15	26.46	-30.0	-33.2	12.9	5.34e-05	0	44	102	1048576	20	5194
2026-01-05 23:32:22.66	150.73	26.06	-29.5	-32.4	13.9	5.30e-06	0	44	102	1048576	19	4994
2026-01-05 23:32:25.68	151.29	25.67	-29.5	-32.8	13.9	2.20e-06	0	44	102	1048576	18	5256
2026-01-05 23:32:28.70	151.84	25.28	-29.9	-33.5	13.1	2.13e-05	0	44	102	1048576	19	5418
2026-01-05 23:32:31.72	152.38	24.89	-29.8	-32.7	13.2	3.28e-05	0	44	102	1048576	20	5013
2026-01-05 23:32:34.74	152.90	24.51	-29.4	-32.6	13.9	3.00e-06	0	44	102	1048576	18	5211
2026-01-05 23:32:37.76	153.41	24.13	-29.1	-31.9	14.5	7.00e-07	0	44	102	1048576	18	4937
2026-01-05 23:32:40.79	153.91	23.75	-29.3	-32.2	14.2	0.00e+00	0	43	102	1048576	18	5048
2026-01-05 23:32:43.81	154.40	23.38	-29.7	-32.9	13.4	4.50e-06	0	44	102	1048576	19	5200
2026-01-05 23:32:46.83	154.88	23.01	-29.5	-32.7	13.9	1.50e-06	0	44	102	1048576	18	5244
2026-01-05 23:32:49.85	155.35	22.64	-29.6	-32.5	13.7	1.93e-03	0	44	102	1048576	19	5076
2026-01-05 23:32:52.86	155.80	22.28	-29.5	-32.3	13.8	1.91e-03	0	44	102	1048576	19	4983
2026-01-05 23:32:55.89	156.25	21.92	-29.7	-33.0	13.4	1.73e-03	0	44	102	1048576	19	5253
2026-01-05 23:32:58.91	156.68	21.56	-29.9	-33.5	13.0	1.64e-03	0	44	102	1048576	19	5443
2026-01-05 23:33:01.93	157.11	21.21	-30.0	-33.3	12.7	1.87e-03	0	44	102	1048576	20	5299
2026-01-05 23:33:04.95	157.53	20.86	-29.8	-33.2	13.1	2.29e-03	0	44	102	1048576	19	5342
2026-01-05 23:33:07.97	157.94	20.51	-29.7	-33.1	13.1	2.12e-03	0	43	102	1048576	19	5281
2026-01-05 23:33:10.99	158.33	20.17	-30.0	-33.3	12.7	1.87e-03	0	44	102	1048576	20	5262
2026-01-05 23:33:14.01	158.72	19.83	-30.0	-33.3	12.6	1.87e-03	0	44	102	1048576	20	5282
2026-01-05 23:33:17.03	159.11	19.49	-30.2	-33.9	12.2	1.94e-03	0	44	102	1048576	20	5546
2026-01-05 23:33:20.03	159.48	19.16	-29.9	-33.2	12.7	1.80e-03	0	44	102	1048576	20	5230
2026-01-05 23:33:23.05	159.85	18.83	-30.0	-33.3	12.6	2.09e-03	0	44	102	1048576	20	5284
2026-01-05 23:33:26.07	160.21	18.50	-29.7	-33.0	13.2	4.11e-04	0	44	102	1048576	19	5263
2026-01-05 23:33:29.09	160.56	18.18	-30.0	-33.5	12.4	4.52e-04	0	44	102	1048576	20	5367
2026-01-05 23:33:32.12	160.90	17.86	-30.1	-33.9	12.2	5.82e-04	0	44	102	1048576	20	5526
2026-01-05 23:33:35.14	161.24	17.54	-30.3	-34.4	11.8	9.48e-04	0	44	102	1048576	20	5754
2026-01-05 23:33:38.16	161.57	17.22	-30.1	-33.6	12.4	4.28e-04	0	44	102	1048576	20	5410
2026-01-05 23:33:41.17	161.89	16.91	-30.2	-33.9	12.1	2.69e-03	0	44	102	1048576	20	5550
2026-01-05 23:33:44.19	162.21	16.61	-29.9	-33.3	12.5	1.22e-04	0	44	102	1048576	20	5308
2026-01-05 23:33:47.21	162.52	16.30	-29.9	-33.8	12.5	1.09e-03	0	43	102	1048576	19	5637
2026-01-05 23:33:50.23	162.83	16.00	-29.9	-33.8	12.6	8.81e-04	0	44	102	1048576	19	5622
2026-01-05 23:33:53.25	163.13	15.70	-30.0	-33.7	12.2	9.73e-04	0	44	102	1048576	20	5484
2026-01-05 23:33:56.26	163.42	15.41	-30.1	-34.0	12.0	9.08e-04	0	44	102	1048576	20	5606
2026-01-05 23:33:59.29	163.71	15.11	-30.1	-33.8	12.1	8.34e-04	0	44	102	1048576	20	5556
2026-01-05 23:34:02.30	164.00	14.82	-30.0	-33.5	12.3	1.04e-03	0	44	102	1048576	20	5385
2026-01-05 23:34:05.32	164.28	14.53	-30.1	-33.8	12.0	3.37e-04	0	44	102	1048576	20	5531
2026-01-05 23:34:08.34	164.55	14.25	-30.0	-33.6	12.2	2.22e-04	0	44	102	1048576	20	5444
2026-01-05 23:34:11.37	164.82	13.97	-30.0	-33.6	12.3	2.84e-04	0	44	102	1048576	20	5413
2026-01-05 23:34:14.38	165.08	13.69	-30.1	-34.0	11.9	1.73e-03	0	44	102	1048576	20	5596
2026-01-05 23:34:17.40	165.34	13.41	-30.2	-34.3	11.7	1.61e-03	0	44	102	1048576	20	5743
2026-01-05 23:34:20.41	165.59	13.14	-30.3	-34.6	11.5	1.92e-03	0	44	102	1048576	20	5861
2026-01-05 23:34:23.43	165.84	12.87	-30.3	-34.4	11.5	2.07e-03	0	44	102	1048576	20	5827
2026-01-05 23:34:26.45	166.09	12.60	-30.1	-34.0	11.8	7.54e-04	0	44	102	1048576	20	5623
2026-01-05 23:34:29.46	166.33	12.33	-30.0	-33.9	12.3	3.23e-04	0	44	102	1048576	19	5696
2026-01-05 23:34:32.48	166.57	12.07	-30.0	-33.6	12.1	3.42e-04	0	44	102	1048576	20	5451
2026-01-05 23:34:35.50	166.80	11.81	-30.0	-33.5	12.1	4.89e-04	0	44	102	1048576	20	5427
2026-01-05 23:34:38.53	167.03	11.55	-30.0	-34.0	12.2	3.78e-04	0	44	102	1048576	19	5729
2026-01-05 23:34:41.54	167.25	11.29	-30.1	-33.8	11.9	3.62e-04	0	44	102	1048576	20	5562
2026-01-05 23:34:44.56	167.48	11.04	-30.2	-34.3	11.6	7.70e-04	0	44	102	1048576	20	5748
2026-01-05 23:34:47.59	167.69	10.79	-30.4	-35.1	11.0	1.51e-03	0	44	102	1048576	20	6127
2026-01-05 23:34:50.61	167.91	10.54	-30.6	-35.2	10.5	3.29e-03	0	44	102	1048576	21	6094
2026-01-05 23:34:53.63	168.12	10.29	-30.7	-35.6	10.1	5.61e-03	0	44	102	1048576	21	6332
2026-01-05 23:34:56.65	168.33	10.04	-30.7	-35.5	10.2	6.78e-03	0	44	102	1048576	21	6282
2026-01-05 23:34:59.67	168.53	9.80	-30.6	-35.1	10.4	5.18e-03	0	44	102	1048576	21	6083
2026-01-05 23:35:02.69	168.73	9.56	-30.4	-35.1	10.8	2.62e-03	0	44	102	1048576	20	6172
2026-01-05 23:35:05.72	168.93	9.32	-30.3	-34.6	11.2	1.61e-03	0	44	102	1048576	20	5942
2026-01-05 23:35:08.74	169.13	9.08	-30.2	-34.5	11.2	1.33e-03	0	44	102	1048576	20	5892
2026-01-05 23:35:11.76	169.32	8.84	-30.2	-34.5	11.1	1.31e-03	0	44	102	1048576	20	5929
2026-01-05 23:35:14.79	169.51	8.61	-30.2	-34.5	11.1	1.62e-03	0	44	102	1048576	20	5933
2026-01-05 23:35:17.81	169.70	8.38	-30.3	-34.8	10.9	2.06e-03	0	44	102	1048576	20	6049
2026-01-05 23:35:20.82	169.88	8.15	-30.4	-35.2	10.6	3.60e-03	0	44	102	1048576	20	6236
2026-01-05 23:35:23.84	170.06	7.92	-30.6	-35.6	9.9	1.22e-02	0	43	102	1048576	21	6379
2026-01-05 23:35:26.87	170.24	7.69	-30.7	-36.0	9.6	1.23e-02	0	44	102	1048576	21	6574
2026-01-05 23:35:29.89	170.41	7.47	-30.8	-36.4	9.2	2.28e-02	0	44	102	1048576	21	6797
2026-01-05 23:35:32.91	170.59	7.25	-30.7	-35.7	9.7	9.78e-03	0	44	102	1048576	21	6455
2026-01-05 23:35:35.93	170.76	7.03	-32.5	-46.0	3.8	1.34e+00	0	44	104	1048576	24	17166
2026-01-05 23:35:38.95	170.93	6.81	-33.1	-47.5	3.8	1.49e+00	0	44	104	1048576	26	18722

#Closed at: 2026-01-05 23:35:39
#Recorded file [1 MB]: D:/data/31010_260106_022406.dat