passes_logs/2026/01/05/R2M6_AANII_01/R2M6_AANII_01__20260105_101737_FENGYUN_3D_rec.log

#Pass ID: 20260105_101737_FENGYUN 3D
#Satellite: FENGYUN 3D
#Configuration: FENGYUN 3D
#almurnet v.1.7.20240730
#Start time: 2026-01-05 10:17:36

#Version: 2.2.20231116
#Station: R2M6_AANII_01
#Location: 30.233357 lon 59.946436 lat
#TLE: 1 43010U 17072A   26004.50247883 -.00000063  00000+0 -78815-5 0  9998
#TLE: 2 43010  98.9915 336.1565 0001968 126.3752 233.7605 14.19691805421760

#Time	Az	El	Level	Level2	SNR	BER	BlckErr	Temp	State	Recorded	gain1	gain2
2026-01-05 10:17:36.92	96.79	6.97	-30.3	-41.1	3.8	8.47e-01	0	41	0	0	21	12557
2026-01-05 10:17:39.94	96.50	7.15	-30.2	-40.9	3.8	8.46e-01	0	41	104	0	21	12391
2026-01-05 10:17:42.96	96.20	7.34	-30.0	-40.5	3.8	8.47e-01	0	41	104	0	21	12120
2026-01-05 10:17:45.98	95.91	7.53	-30.0	-40.6	3.8	8.46e-01	0	41	104	0	21	12195
2026-01-05 10:17:49.00	95.60	7.72	-30.1	-40.8	3.8	8.46e-01	0	41	104	0	21	12255
2026-01-05 10:17:52.02	95.30	7.92	-30.2	-41.0	3.8	8.45e-01	0	42	104	0	21	12486
2026-01-05 10:17:55.04	94.99	8.11	-30.3	-41.1	3.8	8.46e-01	0	41	104	0	21	12439
2026-01-05 10:17:58.06	94.67	8.30	-30.3	-41.0	3.8	8.46e-01	0	42	104	0	21	12293
2026-01-05 10:18:01.08	94.35	8.49	-30.4	-41.0	3.8	8.46e-01	0	42	104	0	21	12183
2026-01-05 10:18:04.10	94.03	8.69	-30.5	-40.5	3.8	8.47e-01	0	42	104	0	21	11409
2026-01-05 10:18:07.12	93.70	8.88	-30.6	-40.6	3.8	8.46e-01	0	42	104	0	21	11424
2026-01-05 10:18:10.14	93.37	9.08	-30.1	-36.3	4.9	7.98e-01	0	42	104	0	21	7344
2026-01-05 10:18:13.16	93.03	9.27	-30.4	-36.5	5.1	7.89e-01	0	42	0	0	21	7297
2026-01-05 10:18:16.17	92.69	9.47	-30.4	-36.4	5.3	4.30e-01	0	42	102	1048576	21	7138
2026-01-05 10:18:19.20	92.34	9.67	-30.4	-35.4	6.4	2.66e-01	0	42	102	1048576	21	6359
2026-01-05 10:18:22.22	91.99	9.86	-30.6	-35.8	6.3	2.89e-01	0	42	102	1048576	21	6542
2026-01-05 10:18:25.24	91.64	10.06	-30.5	-35.4	6.7	2.32e-01	0	42	102	1048576	21	6281
2026-01-05 10:18:28.26	91.27	10.26	-29.6	-32.6	9.0	3.78e-02	0	42	102	1048576	20	5112
2026-01-05 10:18:31.28	90.91	10.46	-28.2	-30.3	11.7	1.41e-03	0	42	102	1048576	17	4587
2026-01-05 10:18:34.31	90.54	10.66	-26.6	-28.0	13.8	9.10e-06	0	42	102	1048576	14	4241
2026-01-05 10:18:37.33	90.16	10.86	-26.4	-28.0	14.2	1.10e-06	0	42	102	1048576	13	4338
2026-01-05 10:18:40.35	89.78	11.06	-26.2	-27.6	14.5	0.00e+00	0	42	102	1048576	13	4229
2026-01-05 10:18:43.37	89.39	11.26	-26.1	-27.4	14.6	2.20e-06	0	43	102	1048576	13	4162
2026-01-05 10:18:46.40	89.00	11.46	-26.2	-27.5	14.5	1.10e-06	0	43	102	1048576	13	4187
2026-01-05 10:18:49.42	88.60	11.66	-25.9	-26.8	15.0	1.10e-06	0	42	102	1048576	13	4017
2026-01-05 10:18:52.44	88.20	11.87	-25.9	-26.9	15.0	0.00e+00	0	43	102	1048576	13	4031
2026-01-05 10:18:55.47	87.78	12.07	-25.9	-27.0	14.9	0.00e+00	0	43	102	1048576	13	4069
2026-01-05 10:18:58.48	87.37	12.27	-25.9	-26.8	15.0	0.00e+00	0	43	102	1048576	13	4022
2026-01-05 10:19:01.50	86.95	12.47	-25.8	-26.6	15.2	1.10e-06	0	43	102	1048576	13	3963
2026-01-05 10:19:04.52	86.52	12.68	-25.5	-26.6	15.5	0.00e+00	0	43	102	1048576	12	4057
2026-01-05 10:19:07.53	86.09	12.88	-25.4	-26.4	15.6	0.00e+00	0	43	102	1048576	12	3997
2026-01-05 10:19:10.54	85.65	13.08	-25.4	-26.2	15.7	0.00e+00	0	43	102	1048576	12	3961
2026-01-05 10:19:13.56	85.21	13.28	-25.4	-26.3	15.7	0.00e+00	0	43	102	1048576	12	3977
2026-01-05 10:19:16.58	84.76	13.48	-25.4	-26.3	15.7	0.00e+00	0	43	102	1048576	12	3992
2026-01-05 10:19:19.60	84.30	13.69	-25.4	-26.2	15.8	0.00e+00	0	43	102	1048576	12	3957
2026-01-05 10:19:22.62	83.84	13.89	-25.5	-26.4	15.7	0.00e+00	0	43	102	1048576	12	4004
2026-01-05 10:19:25.64	83.37	14.09	-25.3	-26.6	15.9	0.00e+00	0	43	102	1048576	11	4163
2026-01-05 10:19:28.66	82.89	14.29	-25.3	-26.6	15.9	0.00e+00	0	43	102	1048576	11	4163
2026-01-05 10:19:31.68	82.41	14.49	-25.5	-26.9	15.8	0.00e+00	0	43	102	1048576	11	4232
2026-01-05 10:19:34.70	81.92	14.69	-25.6	-27.1	15.6	0.00e+00	0	43	102	1048576	11	4304
2026-01-05 10:19:37.72	81.42	14.90	-25.3	-26.5	16.0	0.00e+00	0	43	102	1048576	11	4140
2026-01-05 10:19:40.74	80.92	15.09	-25.2	-26.2	16.2	0.00e+00	0	43	102	1048576	11	4066
2026-01-05 10:19:43.77	80.40	15.29	-25.0	-25.8	16.4	0.00e+00	0	43	102	1048576	11	3963
2026-01-05 10:19:46.78	79.89	15.49	-25.0	-25.9	16.4	0.00e+00	0	43	102	1048576	11	3972
2026-01-05 10:19:49.80	79.36	15.69	-25.0	-25.8	16.4	0.00e+00	0	43	102	1048576	11	3954
2026-01-05 10:19:52.83	78.83	15.89	-25.0	-25.9	16.4	0.00e+00	0	43	102	1048576	11	3968
2026-01-05 10:19:55.85	78.29	16.08	-25.0	-25.8	16.5	0.00e+00	0	43	102	1048576	11	3947
2026-01-05 10:19:58.87	77.75	16.28	-25.0	-25.7	16.5	0.00e+00	0	43	102	1048576	11	3939
2026-01-05 10:20:01.88	77.19	16.47	-24.8	-25.4	16.7	0.00e+00	0	43	102	1048576	11	3865
2026-01-05 10:20:04.89	76.64	16.66	-24.8	-25.8	16.8	0.00e+00	0	43	102	1048576	10	4059
2026-01-05 10:20:07.91	76.07	16.86	-24.9	-26.0	16.6	0.00e+00	0	43	102	1048576	10	4122
2026-01-05 10:20:10.93	75.49	17.05	-24.9	-26.1	16.6	0.00e+00	0	43	102	1048576	10	4139
2026-01-05 10:20:13.95	74.91	17.23	-24.7	-25.7	16.8	0.00e+00	0	43	102	1048576	10	4037
2026-01-05 10:20:16.97	74.32	17.42	-24.6	-25.5	17.0	0.00e+00	0	43	102	1048576	10	3980
2026-01-05 10:20:19.98	73.73	17.60	-24.8	-25.9	16.7	0.00e+00	0	43	102	1048576	10	4077
2026-01-05 10:20:22.99	73.13	17.79	-24.6	-25.5	17.0	0.00e+00	0	43	102	1048576	10	3984
2026-01-05 10:20:26.02	72.51	17.97	-24.6	-25.4	17.0	0.00e+00	0	43	102	1048576	10	3948
2026-01-05 10:20:29.04	71.89	18.15	-24.5	-25.3	17.1	0.00e+00	0	43	102	1048576	10	3936
2026-01-05 10:20:32.06	71.27	18.32	-24.4	-25.1	17.4	0.00e+00	0	43	102	1048576	10	3861
2026-01-05 10:20:35.09	70.63	18.50	-24.2	-25.1	17.6	0.00e+00	0	43	102	1048576	9	3985
2026-01-05 10:20:38.11	69.99	18.67	-24.4	-25.6	17.4	0.00e+00	0	43	102	1048576	9	4092
2026-01-05 10:20:41.13	69.34	18.84	-24.3	-25.3	17.5	0.00e+00	0	43	102	1048576	9	4016
2026-01-05 10:20:44.15	68.69	19.01	-24.2	-25.1	17.5	0.00e+00	0	43	102	1048576	9	3982
2026-01-05 10:20:47.15	68.03	19.17	-23.9	-24.4	18.0	0.00e+00	0	43	102	1048576	9	3799
2026-01-05 10:20:50.17	67.36	19.33	-23.8	-24.6	18.2	0.00e+00	0	43	102	1048576	8	3956
2026-01-05 10:20:53.17	66.69	19.49	-24.2	-25.4	17.7	0.00e+00	0	43	102	1048576	8	4173
2026-01-05 10:20:56.19	66.01	19.64	-24.0	-25.0	17.9	0.00e+00	0	43	102	1048576	8	4067
2026-01-05 10:20:59.21	65.32	19.79	-24.1	-25.3	17.8	0.00e+00	0	43	102	1048576	8	4145
2026-01-05 10:21:02.23	64.62	19.94	-23.9	-24.9	18.0	0.00e+00	0	43	102	1048576	8	4035
2026-01-05 10:21:05.24	63.92	20.08	-23.9	-24.8	18.1	0.00e+00	0	43	102	1048576	8	4013
2026-01-05 10:21:08.26	63.21	20.22	-24.0	-25.2	17.8	0.00e+00	0	43	102	1048576	8	4101
2026-01-05 10:21:11.28	62.49	20.36	-24.4	-25.9	17.5	0.00e+00	0	43	102	1048576	8	4277
2026-01-05 10:21:14.29	61.77	20.49	-24.2	-25.5	17.7	0.00e+00	0	43	102	1048576	8	4194
2026-01-05 10:21:17.32	61.04	20.62	-24.0	-25.0	17.9	0.00e+00	0	43	102	1048576	8	4069
2026-01-05 10:21:20.33	60.30	20.74	-23.4	-23.8	18.6	0.00e+00	0	43	102	1048576	8	3776
2026-01-05 10:21:23.36	59.56	20.86	-23.5	-24.1	18.5	0.00e+00	0	43	102	1048576	8	3851
2026-01-05 10:21:26.37	58.82	20.98	-23.8	-24.7	18.1	0.00e+00	0	43	102	1048576	8	3984
2026-01-05 10:21:29.40	58.06	21.09	-23.6	-24.3	18.3	0.00e+00	0	44	102	1048576	8	3895
2026-01-05 10:21:32.41	57.30	21.19	-24.0	-25.0	18.0	0.00e+00	0	43	102	1048576	8	4067
2026-01-05 10:21:35.42	56.54	21.29	-23.5	-24.0	18.5	0.00e+00	0	43	102	1048576	8	3814
2026-01-05 10:21:38.44	55.78	21.39	-23.6	-24.2	18.4	0.00e+00	0	43	102	1048576	8	3874
2026-01-05 10:21:41.45	55.01	21.48	-23.7	-24.5	18.3	0.00e+00	0	43	102	1048576	8	3946
2026-01-05 10:21:44.47	54.23	21.56	-23.7	-24.4	18.3	0.00e+00	0	43	102	1048576	8	3927
2026-01-05 10:21:47.49	53.45	21.64	-23.4	-23.9	18.6	0.00e+00	0	43	102	1048576	8	3783
2026-01-05 10:21:50.50	52.67	21.72	-23.5	-23.9	18.6	0.00e+00	0	44	102	1048576	8	3803
2026-01-05 10:21:53.53	51.88	21.79	-23.8	-24.6	18.2	0.00e+00	0	43	102	1048576	8	3965
2026-01-05 10:21:56.55	51.09	21.85	-23.6	-24.2	18.4	0.00e+00	0	43	102	1048576	8	3855
2026-01-05 10:21:59.56	50.29	21.91	-23.7	-24.5	18.3	0.00e+00	0	43	102	1048576	8	3946
2026-01-05 10:22:02.57	49.50	21.96	-23.2	-23.9	18.8	0.00e+00	0	43	102	1048576	7	3901
2026-01-05 10:22:05.60	48.70	22.00	-23.3	-24.1	18.6	0.00e+00	0	43	102	1048576	7	3959
2026-01-05 10:22:08.62	47.89	22.04	-23.5	-24.5	18.5	0.00e+00	0	43	102	1048576	7	4036
2026-01-05 10:22:11.64	47.09	22.08	-23.7	-24.9	18.3	0.00e+00	0	43	102	1048576	7	4134
2026-01-05 10:22:14.65	46.29	22.10	-23.5	-24.6	18.4	0.00e+00	0	43	102	1048576	7	4078
2026-01-05 10:22:17.68	45.48	22.13	-23.2	-23.8	18.8	0.00e+00	0	43	102	1048576	7	3878
2026-01-05 10:22:20.70	44.67	22.14	-23.1	-23.8	18.8	0.00e+00	0	43	102	1048576	7	3874
2026-01-05 10:22:23.73	43.86	22.15	-23.1	-23.8	18.8	0.00e+00	0	43	102	1048576	7	3872
2026-01-05 10:22:26.74	43.05	22.16	-23.4	-24.4	18.6	0.00e+00	0	43	102	1048576	7	4010
2026-01-05 10:22:29.76	42.24	22.15	-23.5	-24.6	18.5	0.00e+00	0	43	102	1048576	7	4059
2026-01-05 10:22:32.78	41.44	22.14	-23.4	-24.3	18.6	0.00e+00	0	43	102	1048576	7	3996
2026-01-05 10:22:35.78	40.63	22.13	-23.3	-24.1	18.7	0.00e+00	0	43	102	1048576	7	3952
2026-01-05 10:22:38.80	39.83	22.11	-23.2	-24.0	18.7	0.00e+00	0	43	102	1048576	7	3922
2026-01-05 10:22:41.81	39.02	22.08	-22.9	-23.3	19.1	0.00e+00	0	43	102	1048576	7	3762
2026-01-05 10:22:44.83	38.22	22.05	-23.1	-23.6	18.9	0.00e+00	0	43	102	1048576	7	3843
2026-01-05 10:22:47.84	37.42	22.01	-23.0	-23.6	18.9	0.00e+00	0	43	102	1048576	7	3824
2026-01-05 10:22:50.87	36.62	21.97	-23.2	-24.0	18.8	0.00e+00	0	43	102	1048576	7	3923
2026-01-05 10:22:53.90	35.82	21.92	-23.1	-23.7	18.8	0.00e+00	0	43	102	1048576	7	3850
2026-01-05 10:22:56.92	35.03	21.86	-23.3	-24.1	18.6	0.00e+00	0	43	102	1048576	7	3958
2026-01-05 10:22:59.93	34.24	21.80	-23.3	-24.1	18.6	0.00e+00	0	43	102	1048576	7	3957
2026-01-05 10:23:02.95	33.45	21.73	-23.1	-23.7	18.9	0.00e+00	0	43	102	1048576	7	3856
2026-01-05 10:23:05.97	32.66	21.66	-22.9	-23.8	19.1	0.00e+00	0	44	102	1048576	6	3976
2026-01-05 10:23:08.99	31.88	21.58	-22.8	-23.6	19.2	0.00e+00	0	44	102	1048576	6	3940
2026-01-05 10:23:12.01	31.11	21.49	-23.2	-24.5	18.6	0.00e+00	0	43	102	1048576	6	4158
2026-01-05 10:23:15.03	30.34	21.41	-23.3	-24.6	18.6	0.00e+00	0	43	102	1048576	6	4194
2026-01-05 10:23:18.05	29.57	21.31	-23.6	-24.8	18.3	0.00e+00	0	43	102	1048576	7	4123
2026-01-05 10:23:21.06	28.81	21.21	-23.7	-24.5	18.2	0.00e+00	0	43	102	1048576	8	3932
2026-01-05 10:23:24.07	28.05	21.11	-23.3	-24.2	18.6	0.00e+00	0	43	102	1048576	7	3985
2026-01-05 10:23:27.10	27.30	21.00	-23.6	-24.6	18.3	0.00e+00	0	43	102	1048576	7	4084
2026-01-05 10:23:30.13	26.55	20.88	-23.1	-23.6	18.9	0.00e+00	0	44	102	1048576	7	3836
2026-01-05 10:23:33.14	25.81	20.77	-23.1	-23.7	18.8	0.00e+00	0	43	102	1048576	7	3866
2026-01-05 10:23:36.16	25.08	20.64	-23.2	-23.9	18.7	0.00e+00	0	43	102	1048576	7	3914
2026-01-05 10:23:39.18	24.35	20.52	-23.4	-24.2	18.5	0.00e+00	0	43	102	1048576	7	3985
2026-01-05 10:23:42.20	23.63	20.38	-23.4	-24.4	18.5	0.00e+00	0	44	102	1048576	7	4016
2026-01-05 10:23:45.22	22.91	20.25	-23.3	-24.2	18.5	0.00e+00	0	43	102	1048576	7	3971
2026-01-05 10:23:48.24	22.20	20.11	-23.7	-25.0	18.1	0.00e+00	0	43	102	1048576	7	4176
2026-01-05 10:23:51.26	21.50	19.97	-23.6	-24.3	18.2	0.00e+00	0	44	102	1048576	8	3890
2026-01-05 10:23:54.29	20.80	19.82	-23.3	-24.2	18.5	0.00e+00	0	43	102	1048576	7	3974
2026-01-05 10:23:57.31	20.11	19.67	-23.6	-24.7	18.3	0.00e+00	0	43	102	1048576	7	4097
2026-01-05 10:24:00.33	19.42	19.52	-23.7	-24.9	18.2	0.00e+00	0	43	102	1048576	7	4152
2026-01-05 10:24:03.36	18.75	19.36	-23.8	-25.3	17.9	0.00e+00	0	43	102	1048576	7	4249
2026-01-05 10:24:06.38	18.08	19.20	-23.7	-24.8	18.1	0.00e+00	0	44	102	1048576	7	4128
2026-01-05 10:24:09.41	17.41	19.03	-23.9	-24.9	17.9	0.00e+00	0	43	102	1048576	8	4038
2026-01-05 10:24:12.42	16.76	18.87	-23.7	-24.6	18.1	0.00e+00	0	44	102	1048576	8	3955
2026-01-05 10:24:15.44	16.11	18.70	-23.8	-24.7	17.9	0.00e+00	0	43	102	1048576	8	3989
2026-01-05 10:24:18.45	15.48	18.53	-23.9	-24.8	17.8	0.00e+00	0	44	102	1048576	8	4025
2026-01-05 10:24:21.48	14.84	18.36	-23.9	-24.9	17.8	0.00e+00	0	44	102	1048576	8	4032
2026-01-05 10:24:24.49	14.22	18.18	-23.9	-24.9	17.9	0.00e+00	0	44	102	1048576	8	4026
2026-01-05 10:24:27.52	13.60	18.00	-24.3	-25.8	17.3	0.00e+00	0	44	102	1048576	8	4267
2026-01-05 10:24:30.54	12.99	17.82	-24.2	-25.6	17.4	0.00e+00	0	43	102	1048576	8	4211
2026-01-05 10:24:33.56	12.39	17.64	-24.3	-25.7	17.4	0.00e+00	0	43	102	1048576	8	4249
2026-01-05 10:24:36.58	11.79	17.46	-24.2	-25.5	17.5	0.00e+00	0	43	102	1048576	8	4194
2026-01-05 10:24:39.60	11.20	17.27	-23.9	-24.9	17.7	0.00e+00	0	43	102	1048576	8	4038
2026-01-05 10:24:42.62	10.62	17.08	-24.0	-25.1	17.7	0.00e+00	0	43	102	1048576	8	4096
2026-01-05 10:24:45.63	10.05	16.89	-24.0	-25.2	17.6	1.60e-05	0	43	102	1048576	8	4109
2026-01-05 10:24:48.65	9.48	16.70	-23.9	-24.9	17.8	0.00e+00	0	43	102	1048576	8	4030
2026-01-05 10:24:51.66	8.93	16.51	-24.1	-25.4	17.5	0.00e+00	0	43	102	1048576	8	4170
2026-01-05 10:24:54.68	8.37	16.32	-24.0	-25.2	17.6	0.00e+00	0	43	102	1048576	8	4114
2026-01-05 10:24:57.70	7.83	16.12	-24.1	-25.3	17.5	0.00e+00	0	43	102	1048576	8	4152
2026-01-05 10:25:00.71	7.29	15.93	-24.1	-25.3	17.5	0.00e+00	0	44	102	1048576	8	4139
2026-01-05 10:25:03.73	6.76	15.73	-24.1	-25.3	17.4	0.00e+00	0	43	102	1048576	8	4148
2026-01-05 10:25:06.75	6.24	15.54	-24.3	-25.2	17.2	0.00e+00	0	43	102	1048576	9	4009
2026-01-05 10:25:09.77	5.72	15.34	-24.3	-25.3	17.1	0.00e+00	0	44	102	1048576	9	4037
2026-01-05 10:25:12.78	5.22	15.14	-24.5	-25.8	16.9	0.00e+00	0	44	102	1048576	9	4167
2026-01-05 10:25:15.81	4.71	14.94	-24.6	-26.0	16.8	1.10e-06	0	43	102	1048576	9	4211
2026-01-05 10:25:18.83	4.22	14.74	-24.6	-25.8	16.9	0.00e+00	0	43	102	1048576	9	4169
2026-01-05 10:25:21.85	3.73	14.54	-24.7	-26.2	16.6	0.00e+00	0	44	102	1048576	9	4271
2026-01-05 10:25:24.87	3.25	14.34	-24.8	-26.3	16.5	0.00e+00	0	44	102	1048576	9	4302
2026-01-05 10:25:27.89	2.77	14.14	-24.6	-25.9	16.8	0.00e+00	0	43	102	1048576	9	4194
2026-01-05 10:25:30.91	2.30	13.94	-24.8	-26.3	16.6	0.00e+00	0	43	102	1048576	9	4304
2026-01-05 10:25:33.93	1.84	13.74	-24.7	-25.8	16.6	0.00e+00	0	44	102	1048576	10	4047
2026-01-05 10:25:36.95	1.38	13.53	-24.9	-26.1	16.4	0.00e+00	0	43	102	1048576	10	4127
2026-01-05 10:25:39.96	0.94	13.33	-24.9	-26.0	16.4	0.00e+00	0	44	102	1048576	10	4120
2026-01-05 10:25:42.97	0.49	13.13	-24.9	-26.1	16.4	0.00e+00	0	43	102	1048576	10	4129
2026-01-05 10:25:46.00	0.05	12.93	-25.0	-26.2	16.3	0.00e+00	0	43	102	1048576	10	4158
2026-01-05 10:25:49.02	359.62	12.73	-25.1	-26.6	16.1	0.00e+00	0	43	102	1048576	10	4256
2026-01-05 10:25:52.04	359.20	12.52	-25.2	-26.7	16.0	0.00e+00	0	44	102	1048576	10	4293
2026-01-05 10:25:55.06	358.78	12.32	-25.3	-26.9	15.9	1.10e-06	0	44	102	1048576	10	4351
2026-01-05 10:25:58.08	358.36	12.12	-25.4	-27.1	15.8	0.00e+00	0	44	102	1048576	10	4409
2026-01-05 10:26:01.10	357.96	11.92	-25.3	-27.0	15.9	0.00e+00	0	44	102	1048576	10	4363
2026-01-05 10:26:04.12	357.55	11.72	-25.4	-27.1	15.7	0.00e+00	0	44	102	1048576	10	4404
2026-01-05 10:26:07.14	357.16	11.52	-25.4	-26.8	15.6	0.00e+00	0	44	102	1048576	11	4211
2026-01-05 10:26:10.16	356.77	11.32	-25.7	-27.4	15.3	0.00e+00	0	44	102	1048576	11	4357
2026-01-05 10:26:13.18	356.38	11.12	-25.6	-27.1	15.4	0.00e+00	0	43	102	1048576	11	4286
2026-01-05 10:26:16.19	356.00	10.92	-25.6	-27.2	15.3	0.00e+00	0	44	102	1048576	11	4306
2026-01-05 10:26:19.21	355.63	10.72	-25.8	-27.5	15.1	0.00e+00	0	44	102	1048576	11	4405
2026-01-05 10:26:22.23	355.26	10.52	-25.5	-27.0	15.4	0.00e+00	0	44	102	1048576	11	4270
2026-01-05 10:26:25.25	354.89	10.32	-25.8	-27.5	15.1	1.10e-06	0	44	102	1048576	11	4417
2026-01-05 10:26:28.27	354.53	10.12	-25.8	-27.6	15.0	0.00e+00	0	43	102	1048576	11	4445
2026-01-05 10:26:31.29	354.18	9.92	-25.9	-27.8	14.9	2.20e-06	0	44	102	1048576	11	4490
2026-01-05 10:26:34.31	353.83	9.73	-25.9	-27.3	14.9	0.00e+00	0	44	102	1048576	12	4235
2026-01-05 10:26:37.33	353.48	9.53	-25.9	-27.5	14.8	0.00e+00	0	44	102	1048576	12	4286
2026-01-05 10:26:40.36	353.14	9.33	-26.1	-27.7	14.6	1.10e-06	0	44	102	1048576	12	4363
2026-01-05 10:26:43.38	352.81	9.14	-26.1	-27.9	14.4	1.10e-06	0	43	102	1048576	12	4416
2026-01-05 10:26:46.40	352.48	8.94	-26.4	-28.4	14.2	2.20e-06	0	44	102	1048576	12	4562
2026-01-05 10:26:49.37	352.16	8.75	-26.5	-28.2	14.0	4.50e-06	0	44	102	1048576	13	4397
2026-01-05 10:26:52.39	351.83	8.56	-26.5	-28.3	13.9	1.10e-06	0	44	102	1048576	13	4408
2026-01-05 10:26:55.41	351.52	8.37	-26.3	-27.8	14.2	1.10e-06	0	44	102	1048576	13	4282
2026-01-05 10:26:58.43	351.20	8.17	-26.2	-27.7	14.2	2.20e-06	0	44	102	1048576	13	4247
2026-01-05 10:27:01.46	350.89	7.98	-26.2	-27.6	14.2	2.20e-06	0	44	102	1048576	13	4223
2026-01-05 10:27:04.48	350.59	7.79	-26.2	-27.6	14.3	1.10e-06	0	44	102	1048576	13	4215
2026-01-05 10:27:07.50	350.29	7.60	-26.3	-27.9	14.1	4.50e-06	0	43	102	1048576	13	4305
2026-01-05 10:27:10.52	349.99	7.41	-26.3	-27.9	14.0	2.20e-06	0	43	102	1048576	13	4304
2026-01-05 10:27:13.54	349.70	7.22	-26.5	-28.2	13.8	4.50e-06	0	43	102	1048576	13	4401
2026-01-05 10:27:16.55	349.41	7.03	-31.9	-40.7	4.2	1.71e-01	0	44	102	1048576	23	9832

#Closed at: 2026-01-05 10:27:17
#Recorded file [1 MB]: D:/data/31010_260105_131810.dat