passes_logs/2026/01/05/R2M6_AANII_01/R2M6_AANII_01__20260105_034954_FENGYUN_3E_rec.log

#Pass ID: 20260105_034954_FENGYUN 3E
#Satellite: FENGYUN 3E
#Configuration: FENGYUN 3E
#almurnet v.1.7.20240730
#Start time: 2026-01-05 03:54:42

#Version: 2.2.20231116
#Station: R2M6_AANII_01
#Location: 30.233357 lon 59.946436 lat
#TLE: 1 49008U 21062A   26004.29457719  .00000106  00000+0  70678-4 0  9996
#TLE: 2 49008  98.7471   9.5487 0001503 159.9821 200.1414 14.19883545233329

#Time	Az	El	Level	Level2	SNR	BER	BlckErr	Temp	State	Recorded	gain1	gain2
2026-01-05 03:54:42.04	65.02	41.77	-32.6	-43.8	3.8	8.46e-01	0	43	0	0	25	12984
2026-01-05 03:54:44.04	65.84	42.07	-33.6	-43.1	3.8	8.45e-01	0	43	104	0	27	10752
2026-01-05 03:54:46.06	66.69	42.38	-33.7	-43.3	3.8	8.47e-01	0	44	104	0	27	10833
2026-01-05 03:54:48.07	67.56	42.67	-33.7	-43.3	3.8	8.47e-01	0	44	104	0	27	10883
2026-01-05 03:54:50.09	68.44	42.97	-33.8	-43.4	3.8	8.46e-01	0	44	104	0	27	10918
2026-01-05 03:54:52.10	69.33	43.25	-33.7	-43.3	3.8	8.46e-01	0	44	104	0	27	10882
2026-01-05 03:54:54.11	70.24	43.53	-33.7	-43.3	3.8	8.46e-01	0	44	104	0	27	10820
2026-01-05 03:54:56.12	71.16	43.81	-33.7	-43.2	3.8	8.45e-01	0	44	104	0	27	10748
2026-01-05 03:54:58.14	72.11	44.08	-33.7	-43.2	3.8	8.47e-01	0	44	104	0	27	10774
2026-01-05 03:55:00.15	73.07	44.34	-33.7	-43.3	3.8	8.46e-01	0	44	104	0	27	10853
2026-01-05 03:55:02.17	74.04	44.60	-33.7	-43.2	3.8	8.47e-01	0	44	104	0	27	10789
2026-01-05 03:55:04.18	75.03	44.85	-33.6	-43.1	3.8	8.46e-01	0	44	104	0	27	10723
2026-01-05 03:55:06.20	76.04	45.09	-33.5	-43.3	3.8	8.45e-01	0	44	104	0	26	11058
2026-01-05 03:55:08.21	77.06	45.32	-33.5	-43.2	3.8	8.46e-01	0	44	104	0	26	11104
2026-01-05 03:55:10.23	78.09	45.54	-33.4	-42.9	3.8	8.45e-01	0	44	104	0	26	10756
2026-01-05 03:55:12.24	79.14	45.76	-33.3	-42.7	3.8	8.46e-01	0	44	104	0	26	10561
2026-01-05 03:55:14.26	80.21	45.96	-33.3	-42.8	3.8	8.46e-01	0	44	104	0	26	10722
2026-01-05 03:55:16.27	81.28	46.16	-33.4	-43.1	3.8	8.47e-01	0	44	104	0	26	10990
2026-01-05 03:55:18.29	82.37	46.34	-33.3	-42.5	3.8	8.45e-01	0	44	104	0	26	10387
2026-01-05 03:55:20.29	83.47	46.52	-33.3	-42.4	3.8	8.47e-01	0	44	104	0	26	10322
2026-01-05 03:55:22.31	84.58	46.68	-33.4	-43.0	3.8	8.46e-01	0	44	104	0	26	10958
2026-01-05 03:55:24.32	85.71	46.83	-33.2	-41.5	3.8	8.46e-01	0	44	104	0	26	9397
2026-01-05 03:55:26.34	86.85	46.97	-33.2	-41.6	3.8	8.45e-01	0	44	104	0	26	9467
2026-01-05 03:55:28.35	87.99	47.10	-33.1	-41.3	3.8	8.46e-01	0	44	104	0	26	9216
2026-01-05 03:55:30.38	89.15	47.22	-32.3	-37.4	4.2	8.32e-01	0	44	104	0	25	6447
2026-01-05 03:55:32.39	90.31	47.33	-32.7	-39.1	4.0	8.46e-01	0	44	104	0	25	7518
2026-01-05 03:55:34.40	91.48	47.42	-24.8	-25.0	16.3	0.00e+00	0	44	102	1048576	10	3696
2026-01-05 03:55:36.42	92.66	47.50	-25.7	-26.5	15.2	0.00e+00	0	44	102	1048576	11	3941
2026-01-05 03:55:38.43	93.84	47.57	-25.5	-25.9	15.6	0.00e+00	0	44	102	1048576	11	3803
2026-01-05 03:55:40.45	95.03	47.62	-24.8	-25.1	16.3	0.00e+00	0	44	102	1048576	10	3710
2026-01-05 03:55:42.46	96.22	47.67	-24.1	-24.0	17.1	0.00e+00	0	44	102	1048576	9	3573
2026-01-05 03:55:44.47	97.41	47.69	-24.0	-23.9	17.2	0.00e+00	0	44	102	1048576	9	3547
2026-01-05 03:55:46.49	98.61	47.71	-24.0	-24.3	17.3	0.00e+00	0	44	102	1048576	8	3723
2026-01-05 03:55:48.50	99.81	47.71	-23.9	-24.2	17.1	1.10e-06	0	44	102	1048576	8	3698
2026-01-05 03:55:50.52	101.00	47.70	-23.9	-24.2	17.3	0.00e+00	0	44	102	1048576	8	3706
2026-01-05 03:55:52.53	102.20	47.67	-24.1	-24.5	17.1	0.00e+00	0	44	102	1048576	8	3776
2026-01-05 03:55:54.54	103.39	47.64	-24.0	-24.4	17.2	0.00e+00	0	44	102	1048576	8	3747
2026-01-05 03:55:56.54	104.57	47.59	-24.0	-24.3	17.2	0.00e+00	0	44	102	1048576	8	3732
2026-01-05 03:55:58.56	105.76	47.52	-24.1	-24.6	17.1	0.00e+00	0	44	102	1048576	8	3811
2026-01-05 03:56:00.58	106.94	47.45	-24.0	-24.3	17.2	0.00e+00	0	44	102	1048576	8	3740
2026-01-05 03:56:02.59	108.11	47.36	-23.9	-24.2	17.3	0.00e+00	0	44	102	1048576	8	3712
2026-01-05 03:56:04.61	109.28	47.25	-23.8	-24.0	17.4	0.00e+00	0	44	102	1048576	8	3659
2026-01-05 03:56:06.63	110.44	47.14	-24.2	-24.7	17.0	0.00e+00	0	44	102	1048576	8	3839
2026-01-05 03:56:08.64	111.59	47.01	-24.1	-24.5	17.1	0.00e+00	0	44	102	1048576	8	3785
2026-01-05 03:56:10.65	112.73	46.88	-24.3	-25.0	16.9	0.00e+00	0	44	102	1048576	8	3896
2026-01-05 03:56:12.66	113.85	46.73	-23.9	-24.2	17.2	0.00e+00	0	44	102	1048576	8	3703
2026-01-05 03:56:14.68	114.98	46.57	-23.9	-24.1	17.3	0.00e+00	0	44	102	1048576	8	3688
2026-01-05 03:56:16.69	116.08	46.39	-23.7	-23.7	17.5	0.00e+00	0	44	102	1048576	8	3590
2026-01-05 03:56:18.71	117.18	46.21	-23.6	-23.5	17.7	0.00e+00	0	44	102	1048576	8	3545
2026-01-05 03:56:20.72	118.26	46.02	-23.5	-23.7	17.8	0.00e+00	0	44	102	1048576	7	3694
2026-01-05 03:56:22.73	119.33	45.82	-23.6	-23.9	17.6	0.00e+00	0	44	102	1048576	7	3743
2026-01-05 03:56:24.74	120.38	45.60	-23.7	-24.3	17.4	0.00e+00	0	44	102	1048576	7	3827
2026-01-05 03:56:26.76	121.42	45.38	-23.7	-24.2	17.5	0.00e+00	0	44	102	1048576	7	3820
2026-01-05 03:56:28.77	122.45	45.15	-23.8	-24.5	17.3	0.00e+00	0	44	102	1048576	7	3880
2026-01-05 03:56:30.79	123.46	44.91	-24.2	-24.7	17.0	0.00e+00	0	44	102	1048576	8	3817
2026-01-05 03:56:32.79	124.45	44.67	-24.1	-24.6	17.1	0.00e+00	0	44	102	1048576	8	3806
2026-01-05 03:56:34.80	125.43	44.41	-24.0	-24.3	17.2	0.00e+00	0	44	102	1048576	8	3735
2026-01-05 03:56:36.82	126.40	44.15	-24.1	-24.5	17.1	0.00e+00	0	44	102	1048576	8	3774
2026-01-05 03:56:38.83	127.35	43.88	-24.2	-24.9	16.9	0.00e+00	0	44	102	1048576	8	3872
2026-01-05 03:56:40.83	128.28	43.61	-24.0	-24.5	17.1	0.00e+00	0	44	102	1048576	8	3773
2026-01-05 03:56:42.84	129.19	43.33	-23.9	-24.2	17.2	0.00e+00	0	44	102	1048576	8	3713
2026-01-05 03:56:44.85	130.09	43.04	-23.3	-23.4	17.9	0.00e+00	0	44	102	1048576	7	3622
2026-01-05 03:56:46.87	130.98	42.75	-23.5	-23.7	17.7	0.00e+00	0	44	102	1048576	7	3705
2026-01-05 03:56:48.89	131.85	42.45	-23.7	-24.1	17.5	0.00e+00	0	44	102	1048576	7	3796
2026-01-05 03:56:50.90	132.71	42.15	-24.1	-24.6	17.0	0.00e+00	0	44	102	1048576	8	3810
2026-01-05 03:56:52.91	133.55	41.85	-23.9	-24.1	17.3	0.00e+00	0	44	102	1048576	8	3690
2026-01-05 03:56:54.92	134.37	41.54	-23.6	-23.6	17.6	0.00e+00	0	44	102	1048576	8	3570
2026-01-05 03:56:56.93	135.17	41.22	-23.6	-23.4	17.7	0.00e+00	0	44	102	1048576	8	3538
2026-01-05 03:56:58.95	135.97	40.90	-23.6	-23.5	17.6	0.00e+00	0	44	102	1048576	8	3560
2026-01-05 03:57:00.96	136.74	40.58	-23.3	-23.2	17.9	0.00e+00	0	44	102	1048576	7	3597
2026-01-05 03:57:02.98	137.51	40.26	-23.2	-23.1	18.0	0.00e+00	0	44	102	1048576	7	3557
2026-01-05 03:57:04.99	138.25	39.94	-23.3	-23.8	17.9	0.00e+00	0	44	102	1048576	6	3825
2026-01-05 03:57:07.01	138.99	39.61	-23.6	-24.5	17.5	0.00e+00	0	44	102	1048576	6	3992
2026-01-05 03:57:09.02	139.71	39.28	-23.8	-24.3	17.4	0.00e+00	0	44	102	1048576	7	3848
2026-01-05 03:57:11.02	140.40	38.95	-23.3	-23.4	17.8	0.00e+00	0	44	102	1048576	7	3645
2026-01-05 03:57:13.03	141.09	38.62	-23.6	-24.0	17.6	0.00e+00	0	44	102	1048576	7	3760
2026-01-05 03:57:15.05	141.77	38.28	-23.4	-23.6	17.7	0.00e+00	0	44	102	1048576	7	3683
2026-01-05 03:57:17.06	142.43	37.95	-23.7	-24.1	17.5	8.02e-04	0	44	102	1048576	7	3800
2026-01-05 03:57:19.07	143.08	37.61	-23.7	-24.1	17.5	0.00e+00	0	44	102	1048576	7	3793
2026-01-05 03:57:21.08	143.72	37.27	-23.3	-23.5	17.8	0.00e+00	0	44	102	1048576	7	3648
2026-01-05 03:57:23.09	144.34	36.94	-23.2	-23.7	17.9	0.00e+00	0	44	102	1048576	6	3802
2026-01-05 03:57:25.10	144.95	36.60	-23.1	-23.5	18.0	0.00e+00	0	44	102	1048576	6	3750
2026-01-05 03:57:27.12	145.55	36.26	-23.0	-23.3	18.1	9.13e-04	0	44	102	1048576	6	3709
2026-01-05 03:57:29.14	146.14	35.92	-23.3	-23.9	17.8	9.33e-04	0	44	102	1048576	6	3844
2026-01-05 03:57:31.16	146.71	35.59	-23.5	-24.2	17.5	0.00e+00	0	44	102	1048576	6	3933
2026-01-05 03:57:33.17	147.28	35.25	-23.9	-24.7	17.1	0.00e+00	0	44	102	1048576	7	3932
2026-01-05 03:57:35.18	147.83	34.92	-23.7	-24.3	17.4	0.00e+00	0	44	102	1048576	7	3834
2026-01-05 03:57:37.19	148.37	34.58	-23.6	-24.0	17.5	0.00e+00	0	44	102	1048576	7	3771
2026-01-05 03:57:39.20	148.90	34.25	-23.4	-23.6	17.7	1.16e-03	0	44	102	1048576	7	3673
2026-01-05 03:57:41.21	149.41	33.92	-22.7	-22.5	18.4	1.00e-03	0	44	102	1048576	6	3544
2026-01-05 03:57:43.23	149.93	33.58	-22.6	-22.9	18.5	0.00e+00	0	44	102	1048576	5	3728
2026-01-05 03:57:45.24	150.42	33.25	-23.0	-23.7	18.1	0.00e+00	0	44	102	1048576	5	3903
2026-01-05 03:57:47.25	150.91	32.92	-23.4	-24.0	17.6	0.00e+00	0	44	102	1048576	6	3882
2026-01-05 03:57:49.27	151.39	32.60	-23.3	-23.8	17.7	0.00e+00	0	44	102	1048576	6	3838
2026-01-05 03:57:51.28	151.86	32.27	-23.6	-24.4	17.4	0.00e+00	0	44	102	1048576	6	3979
2026-01-05 03:57:53.30	152.33	31.94	-23.7	-24.2	17.3	0.00e+00	0	44	102	1048576	7	3816
2026-01-05 03:57:55.31	152.78	31.62	-23.7	-24.2	17.3	0.00e+00	0	44	102	1048576	7	3805
2026-01-05 03:57:57.32	153.22	31.30	-23.6	-24.0	17.4	0.00e+00	0	44	102	1048576	7	3771
2026-01-05 03:57:59.34	153.66	30.98	-23.4	-23.6	17.6	0.00e+00	0	44	102	1048576	7	3682
2026-01-05 03:58:01.35	154.08	30.66	-23.2	-23.6	17.8	0.00e+00	0	44	102	1048576	6	3779
2026-01-05 03:58:03.37	154.50	30.34	-23.4	-24.2	17.6	0.00e+00	0	44	102	1048576	6	3910
2026-01-05 03:58:05.38	154.91	30.03	-23.5	-23.8	17.5	0.00e+00	0	44	102	1048576	7	3722
2026-01-05 03:58:07.39	155.32	29.72	-23.5	-23.9	17.4	0.00e+00	0	44	102	1048576	7	3747
2026-01-05 03:58:09.40	155.71	29.40	-23.6	-24.1	17.3	0.00e+00	0	44	102	1048576	7	3790
2026-01-05 03:58:11.42	156.10	29.09	-23.7	-24.2	17.3	0.00e+00	0	44	102	1048576	7	3814
2026-01-05 03:58:13.44	156.48	28.79	-23.6	-24.0	17.4	0.00e+00	0	44	102	1048576	7	3772
2026-01-05 03:58:15.46	156.86	28.48	-23.6	-23.9	17.4	0.00e+00	0	44	102	1048576	7	3749
2026-01-05 03:58:17.46	157.22	28.18	-23.4	-23.6	17.6	0.00e+00	0	44	102	1048576	7	3672
2026-01-05 03:58:19.48	157.58	27.88	-23.4	-23.6	17.6	0.00e+00	0	44	102	1048576	7	3676
2026-01-05 03:58:21.50	157.94	27.58	-23.3	-23.9	17.6	0.00e+00	0	44	102	1048576	6	3859
2026-01-05 03:58:23.51	158.28	27.28	-23.3	-23.8	17.7	0.00e+00	0	44	102	1048576	6	3837
2026-01-05 03:58:25.52	158.63	26.99	-23.5	-24.3	17.4	0.00e+00	0	44	102	1048576	6	3953
2026-01-05 03:58:27.53	158.96	26.70	-23.9	-24.7	17.0	0.00e+00	0	44	102	1048576	7	3931
2026-01-05 03:58:29.55	159.29	26.41	-23.8	-24.5	17.1	0.00e+00	0	44	102	1048576	7	3888
2026-01-05 03:58:31.57	159.62	26.12	-23.8	-24.5	17.0	0.00e+00	0	44	102	1048576	7	3892
2026-01-05 03:58:33.58	159.93	25.83	-23.8	-24.5	17.0	0.00e+00	0	44	102	1048576	7	3902
2026-01-05 03:58:35.60	160.25	25.55	-23.1	-23.7	16.7	0.00e+00	0	44	102	1048576	7	3835
2026-01-05 03:58:37.61	160.55	25.27	-23.6	-24.1	16.0	1.54e-03	0	44	102	1048576	7	3790
2026-01-05 03:58:39.62	160.85	24.99	-23.6	-24.0	17.2	0.00e+00	0	44	102	1048576	7	3782
2026-01-05 03:58:41.63	161.15	24.71	-23.5	-23.8	17.4	0.00e+00	0	44	102	1048576	7	3727
2026-01-05 03:58:43.64	161.44	24.44	-23.5	-23.7	17.4	0.00e+00	0	44	102	1048576	7	3713
2026-01-05 03:58:45.66	161.73	24.16	-23.5	-24.3	17.4	0.00e+00	0	44	102	1048576	6	3960
2026-01-05 03:58:47.67	162.01	23.89	-23.4	-24.2	17.4	1.59e-03	0	44	102	1048576	6	3923
2026-01-05 03:58:49.68	162.29	23.62	-23.6	-24.1	17.2	1.62e-03	0	44	102	1048576	7	3803
2026-01-05 03:58:51.70	162.56	23.36	-23.8	-24.4	17.0	0.00e+00	0	44	102	1048576	7	3865
2026-01-05 03:58:53.71	162.83	23.09	-23.5	-24.4	17.3	3.51e-04	0	44	102	1048576	6	3967
2026-01-05 03:58:55.72	163.09	22.83	-23.6	-24.1	17.2	1.76e-03	0	44	102	1048576	7	3801
2026-01-05 03:58:57.74	163.35	22.57	-23.8	-24.4	17.0	6.63e-05	0	44	102	1048576	7	3877
2026-01-05 03:58:59.74	163.61	22.31	-23.9	-24.6	16.9	1.55e-03	0	44	102	1048576	7	3912
2026-01-05 03:59:01.75	163.86	22.06	-23.9	-24.6	16.9	1.54e-03	0	44	102	1048576	7	3927
2026-01-05 03:59:03.77	164.11	21.80	-23.9	-24.8	16.8	1.10e-06	0	44	102	1048576	7	3962
2026-01-05 03:59:05.78	164.35	21.55	-24.0	-24.9	16.8	0.00e+00	0	44	102	1048576	7	3993
2026-01-05 03:59:07.79	164.59	21.30	-24.2	-24.8	16.6	0.00e+00	0	44	102	1048576	8	3855
2026-01-05 03:59:09.81	164.83	21.05	-24.2	-24.8	16.6	0.00e+00	0	44	102	1048576	8	3855
2026-01-05 03:59:11.83	165.06	20.80	-24.1	-24.5	16.7	0.00e+00	0	44	102	1048576	8	3799
2026-01-05 03:59:13.85	165.29	20.56	-24.3	-24.9	16.5	0.00e+00	0	44	102	1048576	8	3898
2026-01-05 03:59:15.86	165.51	20.31	-24.3	-25.1	16.4	0.00e+00	0	44	102	1048576	8	3922
2026-01-05 03:59:17.88	165.74	20.07	-24.3	-25.1	16.4	0.00e+00	0	44	102	1048576	8	3921
2026-01-05 03:59:19.89	165.95	19.84	-24.4	-25.2	16.3	0.00e+00	0	44	102	1048576	8	3950
2026-01-05 03:59:21.90	166.17	19.60	-25.0	-26.1	15.5	0.00e+00	0	44	102	1048576	9	4070
2026-01-05 03:59:23.92	166.38	19.36	-24.5	-25.0	16.2	0.00e+00	0	44	102	1048576	9	3794
2026-01-05 03:59:25.93	166.59	19.13	-24.3	-25.1	16.3	0.00e+00	0	44	102	1048576	8	3932
2026-01-05 03:59:27.94	166.80	18.90	-24.3	-25.1	16.3	0.00e+00	0	44	102	1048576	8	3920
2026-01-05 03:59:29.96	167.00	18.67	-24.3	-25.1	16.4	0.00e+00	0	44	102	1048576	8	3921
2026-01-05 03:59:31.97	167.20	18.44	-24.3	-25.1	16.3	0.00e+00	0	44	102	1048576	8	3941
2026-01-05 03:59:33.99	167.40	18.22	-24.3	-25.1	16.3	0.00e+00	0	44	102	1048576	8	3922
2026-01-05 03:59:36.01	167.59	17.99	-24.3	-25.0	16.4	0.00e+00	0	44	102	1048576	8	3901
2026-01-05 03:59:38.02	167.79	17.77	-24.4	-25.2	16.2	0.00e+00	0	44	102	1048576	8	3962
2026-01-05 03:59:40.03	167.98	17.55	-24.4	-25.4	16.1	0.00e+00	0	44	102	1048576	8	3996
2026-01-05 03:59:42.05	168.16	17.33	-24.5	-25.4	16.1	0.00e+00	0	44	102	1048576	8	4014
2026-01-05 03:59:44.07	168.35	17.11	-24.5	-25.5	16.1	0.00e+00	0	44	102	1048576	8	4040
2026-01-05 03:59:46.08	168.53	16.90	-24.6	-25.1	16.0	0.00e+00	0	44	102	1048576	9	3838
2026-01-05 03:59:48.10	168.71	16.68	-24.6	-25.3	15.9	0.00e+00	0	44	102	1048576	9	3865
2026-01-05 03:59:50.11	168.88	16.47	-24.6	-25.2	15.9	0.00e+00	0	44	102	1048576	9	3854
2026-01-05 03:59:52.12	169.06	16.26	-24.8	-25.5	15.7	0.00e+00	0	44	102	1048576	9	3936
2026-01-05 03:59:54.14	169.23	16.05	-24.7	-25.4	15.8	0.00e+00	0	44	102	1048576	9	3907
2026-01-05 03:59:56.15	169.40	15.84	-24.9	-25.8	15.6	0.00e+00	0	44	102	1048576	9	3988
2026-01-05 03:59:58.17	169.57	15.63	-24.9	-25.9	15.5	0.00e+00	0	44	102	1048576	9	4039
2026-01-05 04:00:00.17	169.73	15.43	-25.0	-25.5	15.5	0.00e+00	0	44	102	1048576	10	3825
2026-01-05 04:00:02.20	169.90	15.23	-24.9	-25.9	15.5	0.00e+00	0	44	102	1048576	9	4038
2026-01-05 04:00:04.21	170.06	15.02	-25.1	-25.8	15.3	0.00e+00	0	44	102	1048576	10	3891
2026-01-05 04:00:06.22	170.22	14.82	-24.9	-25.9	15.5	0.00e+00	0	44	102	1048576	9	4017
2026-01-05 04:00:08.24	170.37	14.63	-25.1	-25.8	15.3	8.71e-04	0	44	102	1048576	10	3897
2026-01-05 04:00:10.25	170.53	14.43	-25.1	-26.2	15.3	1.52e-03	0	44	102	1048576	9	4110
2026-01-05 04:00:12.27	170.68	14.23	-25.1	-25.7	15.3	1.10e-06	0	44	102	1048576	10	3876
2026-01-05 04:00:14.28	170.83	14.04	-25.1	-25.8	15.3	1.67e-03	0	44	102	1048576	10	3893
2026-01-05 04:00:16.30	170.98	13.84	-25.2	-25.9	15.2	0.00e+00	0	44	102	1048576	10	3934
2026-01-05 04:00:18.31	171.13	13.65	-25.2	-26.0	15.1	7.20e-05	0	44	102	1048576	10	3946
2026-01-05 04:00:20.32	171.28	13.46	-25.3	-26.3	14.9	1.41e-03	0	44	102	1048576	10	4018
2026-01-05 04:00:22.34	171.42	13.27	-25.5	-26.6	14.8	1.43e-03	0	44	102	1048576	10	4105
2026-01-05 04:00:24.35	171.56	13.08	-25.6	-26.8	14.7	8.81e-05	0	44	102	1048576	10	4159
2026-01-05 04:00:26.36	171.70	12.90	-25.8	-26.8	14.4	3.62e-04	0	44	102	1048576	11	4056
2026-01-05 04:00:28.37	171.84	12.71	-25.9	-27.1	14.2	1.53e-03	0	44	102	1048576	11	4133
2026-01-05 04:00:30.38	171.98	12.53	-26.0	-27.2	14.1	1.10e-06	0	44	102	1048576	11	4159
2026-01-05 04:00:32.39	172.11	12.35	-26.3	-27.5	13.6	1.70e-03	0	44	102	1048576	12	4143
2026-01-05 04:00:34.41	172.25	12.17	-26.4	-27.7	13.5	6.18e-04	0	44	102	1048576	12	4192
2026-01-05 04:00:36.42	172.38	11.99	-26.6	-28.1	13.2	2.28e-05	0	44	102	1048576	12	4296
2026-01-05 04:00:38.43	172.51	11.81	-26.9	-28.3	12.8	6.86e-05	0	44	102	1048576	13	4245
2026-01-05 04:00:40.44	172.64	11.63	-27.1	-28.4	12.4	1.34e-04	0	44	102	1048576	14	4169
2026-01-05 04:00:42.46	172.77	11.45	-27.0	-28.1	12.6	1.23e-04	0	44	102	1048576	14	4086
2026-01-05 04:00:44.46	172.89	11.28	-26.8	-28.1	12.9	6.08e-04	0	44	102	1048576	13	4193
2026-01-05 04:00:46.47	173.02	11.10	-27.1	-28.3	12.5	1.66e-04	0	44	102	1048576	14	4150
2026-01-05 04:00:48.48	173.14	10.93	-27.2	-28.5	12.3	2.29e-04	0	44	102	1048576	14	4192
2026-01-05 04:00:50.50	173.26	10.76	-26.7	-27.9	13.0	4.23e-05	0	44	102	1048576	13	4122
2026-01-05 04:00:52.51	173.39	10.59	-26.4	-27.8	13.2	2.28e-05	0	44	102	1048576	12	4222
2026-01-05 04:00:54.53	173.51	10.42	-26.6	-27.7	13.0	3.54e-05	0	44	102	1048576	13	4090
2026-01-05 04:00:56.54	173.62	10.25	-27.0	-28.1	12.5	1.72e-04	0	44	102	1048576	14	4090
2026-01-05 04:00:58.55	173.74	10.08	-26.4	-27.8	13.2	2.28e-05	0	44	102	1048576	12	4225
2026-01-05 04:01:00.55	173.86	9.91	-26.6	-28.1	13.1	2.51e-05	0	44	102	1048576	12	4291
2026-01-05 04:01:02.57	173.97	9.75	-26.5	-27.9	13.1	2.86e-05	0	44	102	1048576	12	4244
2026-01-05 04:01:04.59	174.08	9.58	-26.5	-28.0	13.1	3.08e-05	0	44	102	1048576	12	4265
2026-01-05 04:01:06.61	174.20	9.42	-26.7	-28.0	12.8	4.11e-05	0	44	102	1048576	13	4157
2026-01-05 04:01:08.61	174.31	9.26	-26.6	-27.6	13.0	4.34e-05	0	44	102	1048576	13	4062
2026-01-05 04:01:10.63	174.42	9.09	-26.3	-27.5	13.4	1.83e-05	0	44	102	1048576	12	4128
2026-01-05 04:01:12.65	174.53	8.93	-26.4	-27.9	13.1	3.66e-05	0	44	102	1048576	12	4238
2026-01-05 04:01:14.65	174.63	8.77	-26.6	-27.7	12.9	4.69e-05	0	44	102	1048576	13	4094
2026-01-05 04:01:16.67	174.74	8.61	-26.7	-27.9	12.8	6.17e-05	0	44	102	1048576	13	4140
2026-01-05 04:01:18.68	174.85	8.46	-26.8	-28.2	12.6	1.02e-04	0	44	102	1048576	13	4219
2026-01-05 04:01:20.70	174.95	8.30	-26.6	-27.8	12.8	8.23e-05	0	44	102	1048576	13	4126
2026-01-05 04:01:22.70	175.05	8.14	-26.6	-27.8	12.8	5.95e-05	0	44	102	1048576	13	4117
2026-01-05 04:01:24.71	175.15	7.99	-26.8	-28.1	12.6	1.06e-04	0	44	102	1048576	13	4212
2026-01-05 04:01:26.71	175.26	7.83	-26.8	-28.1	12.6	1.35e-04	0	44	102	1048576	13	4205
2026-01-05 04:01:28.73	175.36	7.68	-26.8	-28.3	12.5	1.50e-04	0	44	102	1048576	13	4254
2026-01-05 04:01:30.73	175.45	7.53	-26.7	-28.0	12.6	1.18e-04	0	44	102	1048576	13	4189
2026-01-05 04:01:32.75	175.55	7.38	-26.9	-28.4	12.4	1.52e-04	0	44	102	1048576	13	4298
2026-01-05 04:01:34.76	175.65	7.22	-26.9	-28.4	12.4	1.82e-04	0	44	102	1048576	13	4294
2026-01-05 04:01:36.78	175.75	7.07	-32.3	-42.1	3.8	8.47e-01	0	44	104	1048576	24	11077
2026-01-05 04:01:38.79	175.84	6.92	-32.8	-42.4	3.8	8.47e-01	0	44	104	1048576	25	10895

#Closed at: 2026-01-05 04:01:40
#Recorded file [1 MB]: D:/data/31010_260105_065533.dat