passes_logs/2026/01/05/R2M6_AANII_01/R2M6_AANII_01__20260105_105514_SUOMI_NPP_rec.log

#Pass ID: 20260105_105514_SUOMI NPP
#Satellite: SUOMI NPP
#Configuration: NPP
#almurnet v.1.7.20240730
#Start time: 2026-01-05 10:55:14

#Version: 2.2.20231116
#Station: R2M6_AANII_01
#Location: 30.233357 lon 59.946436 lat
#TLE: 1 37849U 11061A   26003.96724563  .00000164  00000+0  98899-4 0  9990
#TLE: 2 37849  98.7800 306.1116 0002573  82.3190 277.8279 14.19522066735141

#Time	Az	El	Level	Level2	SNR	BER	BlckErr	Temp	State	Recorded	gain1	gain2
2026-01-05 10:55:14.56	176.80	7.02	-30.2	-33.4	5.4	1.22e+00	0	41	0	0	20	5232
2026-01-05 10:55:17.57	176.90	7.25	-30.9	-35.0	8.1	5.10e-02	0	41	102	1048576	22	5786
2026-01-05 10:55:20.59	177.01	7.49	-30.4	-32.9	9.8	1.72e-02	0	41	102	1048576	22	4810
2026-01-05 10:55:23.61	177.12	7.72	-30.0	-31.9	10.9	2.12e-03	0	41	102	1048576	21	4528
2026-01-05 10:55:26.63	177.23	7.96	-29.9	-31.9	11.0	2.06e-03	0	41	102	1048576	21	4502
2026-01-05 10:55:29.64	177.34	8.19	-30.0	-32.0	10.9	2.02e-03	0	41	102	1048576	21	4542
2026-01-05 10:55:32.64	177.45	8.43	-29.7	-31.7	11.6	1.18e-03	0	41	102	1048576	20	4496
2026-01-05 10:55:35.66	177.57	8.68	-29.3	-30.4	12.5	1.53e-04	0	41	102	1048576	20	4087
2026-01-05 10:55:38.67	177.68	8.92	-29.4	-30.6	12.4	1.63e-04	0	42	102	1048576	20	4132
2026-01-05 10:55:41.68	177.80	9.17	-29.3	-30.8	12.8	8.39e-05	0	42	102	1048576	19	4264
2026-01-05 10:55:44.70	177.92	9.42	-29.4	-31.0	12.6	6.63e-05	0	42	102	1048576	19	4335
2026-01-05 10:55:47.71	178.04	9.67	-29.3	-30.7	12.8	5.41e-05	0	42	102	1048576	19	4231
2026-01-05 10:55:50.73	178.17	9.92	-29.3	-30.8	12.8	9.76e-05	0	42	102	1048576	19	4268
2026-01-05 10:55:53.75	178.29	10.18	-29.3	-30.7	12.8	6.94e-05	0	42	102	1048576	19	4244
2026-01-05 10:55:56.78	178.42	10.44	-29.3	-30.8	12.8	6.02e-05	0	42	102	1048576	19	4256
2026-01-05 10:55:59.80	178.55	10.70	-29.3	-30.6	13.0	4.42e-05	0	42	102	1048576	19	4201
2026-01-05 10:56:02.82	178.68	10.97	-29.3	-30.6	13.1	4.57e-05	0	42	102	1048576	19	4184
2026-01-05 10:56:05.84	178.82	11.24	-29.3	-30.5	13.1	3.35e-05	0	42	102	1048576	19	4173
2026-01-05 10:56:08.86	178.96	11.51	-29.4	-30.9	12.8	3.35e-05	0	42	102	1048576	19	4290
2026-01-05 10:56:11.88	179.10	11.78	-29.2	-30.5	13.2	3.66e-05	0	42	102	1048576	19	4144
2026-01-05 10:56:14.89	179.24	12.06	-29.3	-30.7	13.0	4.42e-05	0	42	102	1048576	19	4230
2026-01-05 10:56:17.91	179.38	12.34	-29.3	-30.5	13.2	1.67e-05	0	43	102	1048576	19	4147
2026-01-05 10:56:20.92	179.53	12.62	-29.2	-30.2	13.4	2.28e-05	0	42	102	1048576	19	4061
2026-01-05 10:56:23.95	179.68	12.91	-29.3	-30.6	13.2	1.98e-05	0	42	102	1048576	19	4185
2026-01-05 10:56:26.98	179.83	13.20	-29.2	-30.2	13.4	1.22e-05	0	42	102	1048576	19	4069
2026-01-05 10:56:29.99	179.99	13.49	-29.2	-30.4	13.3	1.67e-05	0	43	102	1048576	19	4128
2026-01-05 10:56:33.01	180.14	13.79	-29.3	-30.7	13.2	2.89e-05	0	42	102	1048576	19	4193
2026-01-05 10:56:36.04	180.31	14.09	-29.4	-30.8	13.1	2.28e-05	0	43	102	1048576	19	4226
2026-01-05 10:56:39.06	180.47	14.39	-29.3	-30.6	13.3	2.28e-05	0	42	102	1048576	19	4169
2026-01-05 10:56:42.08	180.64	14.70	-29.2	-30.2	13.5	1.06e-05	0	43	102	1048576	19	4052
2026-01-05 10:56:45.10	180.81	15.01	-29.3	-30.6	13.3	2.36e-05	0	43	102	1048576	19	4174
2026-01-05 10:56:48.11	180.98	15.32	-28.9	-29.3	14.1	3.80e-06	0	42	102	1048576	19	3799
2026-01-05 10:56:51.13	181.16	15.64	-29.0	-29.8	13.8	2.20e-06	0	43	102	1048576	19	3927
2026-01-05 10:56:54.11	181.34	15.96	-29.3	-30.6	13.3	9.10e-06	0	43	102	1048576	19	4169
2026-01-05 10:56:57.13	181.53	16.28	-29.4	-30.7	13.3	1.29e-05	0	43	102	1048576	19	4196
2026-01-05 10:57:00.15	181.71	16.61	-29.5	-31.0	13.0	1.67e-05	0	43	102	1048576	19	4292
2026-01-05 10:57:03.15	181.91	16.94	-29.3	-30.6	13.4	1.29e-05	0	43	102	1048576	19	4157
2026-01-05 10:57:06.17	182.10	17.28	-29.1	-29.9	13.9	3.00e-06	0	43	102	1048576	19	3941
2026-01-05 10:57:09.20	182.30	17.63	-29.1	-30.0	13.8	3.80e-06	0	43	102	1048576	19	3981
2026-01-05 10:57:12.22	182.51	17.98	-29.3	-30.5	13.5	9.10e-06	0	43	102	1048576	19	4135
2026-01-05 10:57:15.24	182.72	18.33	-29.2	-30.2	13.6	7.60e-06	0	43	102	1048576	19	4051
2026-01-05 10:57:18.26	182.94	18.69	-29.5	-30.9	13.3	1.98e-05	0	43	102	1048576	19	4252
2026-01-05 10:57:21.27	183.15	19.05	-29.6	-31.2	13.1	2.74e-05	0	43	102	1048576	19	4347
2026-01-05 10:57:24.29	183.38	19.41	-29.6	-31.3	13.0	3.05e-05	0	43	102	1048576	19	4380
2026-01-05 10:57:27.31	183.61	19.79	-29.6	-31.3	13.0	3.73e-05	0	43	102	1048576	19	4381
2026-01-05 10:57:30.33	183.85	20.16	-29.7	-31.7	12.7	5.11e-05	0	43	102	1048576	19	4500
2026-01-05 10:57:33.34	184.09	20.55	-29.7	-31.5	12.9	4.34e-05	0	43	102	1048576	19	4438
2026-01-05 10:57:36.37	184.33	20.93	-29.4	-30.7	13.5	2.13e-05	0	43	102	1048576	19	4184
2026-01-05 10:57:39.40	184.59	21.33	-29.3	-30.4	13.7	1.75e-05	0	43	102	1048576	19	4076
2026-01-05 10:57:42.42	184.85	21.73	-28.9	-29.4	14.3	1.50e-06	0	43	102	1048576	19	3816
2026-01-05 10:57:45.43	185.11	22.13	-28.9	-29.2	14.5	7.00e-07	0	43	102	1048576	19	3753
2026-01-05 10:57:48.45	185.38	22.54	-28.7	-29.3	14.8	3.00e-06	0	43	102	1048576	18	3862
2026-01-05 10:57:51.48	185.67	22.96	-28.6	-29.0	15.0	3.80e-06	0	43	102	1048576	18	3789
2026-01-05 10:57:54.49	185.95	23.39	-28.3	-28.7	15.4	2.20e-06	0	43	102	1048576	17	3786
2026-01-05 10:57:57.51	186.25	23.81	-28.2	-28.5	15.6	7.00e-07	0	43	102	1048576	17	3726
2026-01-05 10:58:00.52	186.55	24.25	-28.3	-28.7	15.5	0.00e+00	0	43	102	1048576	17	3785
2026-01-05 10:58:03.55	186.86	24.69	-28.2	-28.5	15.6	0.00e+00	0	43	102	1048576	17	3725
2026-01-05 10:58:06.57	187.18	25.14	-28.2	-28.4	15.7	0.00e+00	0	43	102	1048576	17	3706
2026-01-05 10:58:09.59	187.51	25.60	-28.2	-28.5	15.6	7.00e-07	0	43	102	1048576	17	3721
2026-01-05 10:58:12.61	187.84	26.06	-28.2	-28.6	15.5	2.20e-06	0	43	102	1048576	17	3767
2026-01-05 10:58:15.63	188.19	26.53	-27.9	-27.9	16.0	0.00e+00	0	43	102	1048576	17	3582
2026-01-05 10:58:18.66	188.55	27.01	-27.7	-27.8	16.3	0.00e+00	0	43	102	1048576	16	3649
2026-01-05 10:58:21.68	188.92	27.50	-27.8	-27.9	16.3	0.00e+00	0	43	102	1048576	16	3669
2026-01-05 10:58:24.70	189.30	27.99	-28.0	-28.5	16.0	0.00e+00	0	43	102	1048576	16	3824
2026-01-05 10:58:27.72	189.69	28.49	-28.2	-28.9	15.7	0.00e+00	0	43	102	1048576	16	3925
2026-01-05 10:58:30.75	190.09	29.00	-28.7	-29.8	14.9	0.00e+00	0	43	102	1048576	17	4074
2026-01-05 10:58:33.77	190.51	29.52	-29.5	-31.2	13.8	2.20e-06	0	43	102	1048576	18	4378
2026-01-05 10:58:36.79	190.94	30.04	-29.6	-31.0	13.6	8.30e-06	0	43	102	1048576	19	4242
2026-01-05 10:58:39.80	191.38	30.57	-29.8	-31.1	13.1	4.65e-05	0	43	102	1048576	20	4183
2026-01-05 10:58:42.81	191.83	31.11	-30.4	-32.3	12.0	2.83e-04	0	43	102	1048576	21	4490
2026-01-05 10:58:45.83	192.31	31.66	-30.5	-32.7	11.7	7.55e-04	0	43	102	1048576	21	4633
2026-01-05 10:58:48.85	192.79	32.21	-30.6	-32.9	11.6	1.62e-03	0	43	102	1048576	21	4685
2026-01-05 10:58:51.88	193.30	32.78	-30.5	-32.6	11.8	4.13e-04	0	43	102	1048576	21	4577
2026-01-05 10:58:54.90	193.82	33.35	-30.4	-32.2	12.1	3.26e-04	0	43	102	1048576	21	4430
2026-01-05 10:58:57.92	194.36	33.93	-30.6	-32.8	11.7	3.81e-04	0	43	102	1048576	21	4649
2026-01-05 10:59:00.95	194.92	34.52	-30.4	-32.2	12.1	2.23e-04	0	43	102	1048576	21	4444
2026-01-05 10:59:03.96	195.50	35.12	-30.9	-33.9	10.9	1.56e-03	0	43	102	1048576	21	5080
2026-01-05 10:59:06.99	196.11	35.72	-30.8	-32.9	11.4	8.62e-04	0	43	102	1048576	22	4581
2026-01-05 10:59:10.01	196.73	36.34	-30.2	-31.6	12.5	9.30e-05	0	43	102	1048576	21	4243
2026-01-05 10:59:13.03	197.38	36.96	-30.2	-31.6	12.5	8.69e-05	0	43	102	1048576	21	4229
2026-01-05 10:59:16.05	198.05	37.59	-30.0	-31.0	13.0	3.96e-05	0	43	102	1048576	21	4060
2026-01-05 10:59:19.06	198.75	38.22	-30.1	-31.7	12.9	5.34e-05	0	43	102	1048576	20	4356
2026-01-05 10:59:22.09	199.47	38.87	-30.2	-32.3	12.6	1.35e-04	0	43	102	1048576	20	4544
2026-01-05 10:59:25.10	200.23	39.52	-30.0	-31.6	12.9	9.15e-05	0	43	102	1048576	20	4334
2026-01-05 10:59:28.12	201.01	40.17	-29.5	-30.4	13.8	8.30e-06	0	43	102	1048576	20	3949
2026-01-05 10:59:31.14	201.83	40.84	-29.5	-30.2	13.8	1.50e-06	0	43	102	1048576	20	3912
2026-01-05 10:59:34.16	202.68	41.51	-29.1	-29.7	14.5	0.00e+00	0	43	102	1048576	19	3844
2026-01-05 10:59:37.19	203.57	42.18	-29.3	-30.2	14.3	7.00e-07	0	43	102	1048576	19	3980
2026-01-05 10:59:40.21	204.49	42.86	-30.0	-31.5	13.0	2.82e-05	0	43	102	1048576	20	4287
2026-01-05 10:59:43.23	205.46	43.55	-29.6	-30.4	13.8	6.80e-06	0	43	102	1048576	20	3955
2026-01-05 10:59:46.25	206.46	44.23	-30.4	-32.5	12.4	9.07e-05	0	43	102	1048576	20	4630
2026-01-05 10:59:49.28	207.51	44.92	-30.2	-32.0	12.7	7.78e-05	0	43	102	1048576	20	4451
2026-01-05 10:59:52.30	208.61	45.61	-30.4	-32.3	12.3	1.97e-04	0	43	102	1048576	21	4459
2026-01-05 10:59:55.32	209.75	46.30	-30.5	-32.0	12.2	3.36e-04	0	44	102	1048576	22	4249
2026-01-05 10:59:58.34	210.94	46.99	-30.3	-32.0	12.5	1.59e-04	0	43	102	1048576	21	4353
2026-01-05 11:00:01.36	212.19	47.68	-31.2	-34.2	10.6	2.42e-03	0	43	102	1048576	22	5074
2026-01-05 11:00:04.37	213.49	48.36	-31.6	-34.9	9.6	1.72e-02	0	43	102	1048576	23	5296
2026-01-05 11:00:07.39	214.85	49.03	-31.0	-32.8	11.3	9.29e-04	0	43	102	1048576	23	4459
2026-01-05 11:00:10.40	216.26	49.70	-31.4	-34.6	10.3	3.47e-03	0	44	102	1048576	22	5220
2026-01-05 11:00:13.42	217.74	50.36	-30.8	-32.8	11.7	9.86e-04	0	43	102	1048576	22	4530
2026-01-05 11:00:16.43	219.28	51.01	-30.7	-32.6	11.8	3.11e-04	0	43	102	1048576	22	4451
2026-01-05 11:00:19.45	220.90	51.64	-30.1	-31.2	13.0	7.47e-05	0	43	102	1048576	21	4105
2026-01-05 11:00:22.47	222.58	52.26	-29.6	-30.3	14.0	3.80e-06	0	43	102	1048576	20	3925
2026-01-05 11:00:25.50	224.34	52.86	-29.3	-29.6	14.3	1.90e-05	0	43	102	1048576	20	3737
2026-01-05 11:00:28.52	226.16	53.44	-28.4	-28.4	15.7	0.00e+00	0	43	102	1048576	18	3589
2026-01-05 11:00:31.54	228.05	53.99	-28.3	-29.1	16.0	0.00e+00	0	43	102	1048576	16	3950
2026-01-05 11:00:34.56	230.02	54.52	-28.5	-29.0	15.7	0.00e+00	0	43	102	1048576	17	3833
2026-01-05 11:00:37.58	232.06	55.02	-29.2	-30.4	14.6	7.00e-07	0	43	102	1048576	18	4120
2026-01-05 11:00:40.60	234.17	55.49	-29.0	-29.9	15.0	0.00e+00	0	43	102	1048576	18	3972
2026-01-05 11:00:43.62	236.34	55.92	-28.0	-27.9	16.4	0.00e+00	0	43	102	1048576	17	3560
2026-01-05 11:00:46.65	238.59	56.31	-29.9	-31.6	13.6	6.10e-06	0	43	102	1048576	19	4372
2026-01-05 11:00:49.67	240.89	56.67	-28.7	-29.2	15.4	0.00e+00	0	43	102	1048576	18	3785
2026-01-05 11:00:52.68	243.24	56.98	-29.7	-31.1	13.9	5.30e-06	0	43	102	1048576	19	4242
2026-01-05 11:00:55.70	245.65	57.24	-31.0	-33.8	11.4	7.06e-04	0	43	102	1048576	21	4984
2026-01-05 11:00:58.71	248.09	57.46	-30.0	-31.4	13.5	7.00e-07	0	43	102	1048576	20	4243
2026-01-05 11:01:01.73	250.57	57.63	-30.6	-32.7	12.2	2.22e-04	0	44	102	1048576	21	4559
2026-01-05 11:01:04.76	253.09	57.75	-30.9	-32.4	11.6	2.32e-03	0	43	102	1048576	23	4297
2026-01-05 11:01:07.77	255.61	57.81	-31.1	-33.7	11.2	1.38e-03	0	43	102	1048576	22	4855
2026-01-05 11:01:10.80	258.15	57.83	-29.7	-30.6	13.9	6.10e-06	0	43	102	1048576	20	3991
2026-01-05 11:01:13.81	260.67	57.79	-29.8	-30.8	13.7	1.29e-05	0	44	102	1048576	20	4062
2026-01-05 11:01:16.83	263.19	57.70	-29.3	-30.0	14.7	4.50e-06	0	43	102	1048576	19	3919
2026-01-05 11:01:19.85	265.69	57.56	-28.4	-29.4	15.9	3.80e-06	0	43	102	1048576	16	4019
2026-01-05 11:01:22.87	268.16	57.38	-29.1	-30.1	14.9	4.50e-06	0	44	102	1048576	18	4019
2026-01-05 11:01:25.89	270.59	57.14	-28.9	-29.5	15.2	0.00e+00	0	43	102	1048576	18	3867
2026-01-05 11:01:28.91	272.97	56.85	-29.0	-29.2	15.1	0.00e+00	0	43	102	1048576	19	3699
2026-01-05 11:01:31.93	275.30	56.53	-29.6	-31.0	14.1	7.00e-07	0	44	102	1048576	19	4203
2026-01-05 11:01:34.96	277.58	56.15	-29.9	-31.7	13.6	7.60e-06	0	43	102	1048576	19	4419
2026-01-05 11:01:37.98	279.80	55.75	-28.3	-28.6	16.0	2.20e-06	0	44	102	1048576	17	3724
2026-01-05 11:01:41.00	281.94	55.30	-29.1	-30.2	14.8	0.00e+00	0	43	102	1048576	18	4046
2026-01-05 11:01:44.02	284.02	54.82	-28.4	-28.4	15.9	0.00e+00	0	43	102	1048576	18	3599
2026-01-05 11:01:47.04	286.02	54.31	-28.7	-29.6	15.5	0.00e+00	0	43	102	1048576	17	3998
2026-01-05 11:01:50.07	287.96	53.77	-28.7	-29.1	15.4	0.00e+00	0	43	102	1048576	18	3770
2026-01-05 11:01:53.08	289.82	53.21	-29.2	-30.3	14.8	0.00e+00	0	44	102	1048576	18	4080
2026-01-05 11:01:56.10	291.61	52.62	-29.3	-30.6	14.6	0.00e+00	0	43	102	1048576	18	4163
2026-01-05 11:01:59.11	293.32	52.02	-31.5	-34.4	10.2	3.28e-03	0	43	102	1048576	23	5025
2026-01-05 11:02:02.13	294.97	51.40	-30.4	-31.4	12.7	1.01e-04	0	43	102	1048576	22	4054
2026-01-05 11:02:05.15	296.55	50.76	-31.6	-34.9	9.8	1.02e-02	0	43	102	1048576	23	5249
2026-01-05 11:02:08.17	298.07	50.11	-32.0	-35.7	8.9	2.05e-02	0	43	102	1048576	24	5513
2026-01-05 11:02:11.20	299.53	49.44	-30.3	-31.3	12.8	3.07e-03	0	44	102	1048576	22	4044
2026-01-05 11:02:14.22	300.92	48.78	-30.2	-32.0	12.9	1.37e-05	0	43	102	1048576	20	4431
2026-01-05 11:02:17.24	302.25	48.10	-31.5	-34.4	10.2	1.25e-02	0	43	102	1048576	23	5042
2026-01-05 11:02:20.26	303.53	47.42	-28.7	-29.1	15.4	0.00e+00	0	44	102	1048576	18	3774
2026-01-05 11:02:23.28	304.75	46.73	-29.9	-31.1	13.5	1.67e-05	0	43	102	1048576	20	4151
2026-01-05 11:02:26.31	305.92	46.05	-29.7	-31.0	14.0	7.00e-07	0	44	102	1048576	19	4210
2026-01-05 11:02:29.32	307.04	45.36	-31.1	-33.7	11.0	1.11e-03	0	43	102	1048576	22	4855
2026-01-05 11:02:32.33	308.11	44.68	-30.9	-33.2	11.5	6.12e-04	0	43	102	1048576	22	4646
2026-01-05 11:02:35.35	309.14	43.99	-31.9	-35.9	9.1	2.13e-02	0	43	102	1048576	23	5728
2026-01-05 11:02:38.36	310.12	43.31	-32.2	-36.7	8.0	4.46e-02	0	43	102	1048576	24	6056
2026-01-05 11:02:41.38	311.06	42.63	-32.4	-37.2	7.3	2.05e-01	0	43	102	1048576	25	6238
2026-01-05 11:02:44.40	311.97	41.96	-32.8	-39.8	5.5	4.37e-01	0	43	102	1048576	25	7977
2026-01-05 11:02:47.42	312.84	41.29	-32.6	-38.2	6.5	3.06e-01	0	43	102	1048576	25	6858
2026-01-05 11:02:50.45	313.68	40.62	-32.3	-36.7	7.7	1.24e-01	0	43	102	1048576	25	5964
2026-01-05 11:02:53.46	314.48	39.97	-32.3	-36.6	7.6	8.22e-02	0	44	102	1048576	25	5903
2026-01-05 11:02:56.48	315.25	39.32	-32.0	-35.6	8.4	1.15e-01	0	43	102	1048576	25	5413
2026-01-05 11:02:59.50	315.99	38.67	-30.6	-32.2	12.0	1.72e-04	0	43	102	1048576	22	4319
2026-01-05 11:03:02.51	316.71	38.04	-32.1	-36.6	8.0	4.85e-02	0	44	102	1048576	24	6022
2026-01-05 11:03:05.53	317.39	37.41	-29.9	-30.8	13.3	5.18e-05	0	44	102	1048576	21	3992
2026-01-05 11:03:08.56	318.06	36.78	-29.8	-31.0	13.5	1.29e-05	0	43	102	1048576	20	4139
2026-01-05 11:03:11.58	318.69	36.17	-31.1	-33.9	10.5	2.61e-03	0	44	102	1048576	22	4934
2026-01-05 11:03:14.59	319.31	35.56	-29.6	-30.4	13.8	1.75e-05	0	43	102	1048576	20	3964
2026-01-05 11:03:17.61	319.90	34.96	-29.3	-30.0	14.5	0.00e+00	0	43	102	1048576	19	3919
2026-01-05 11:03:20.63	320.47	34.37	-30.8	-33.5	11.4	2.13e-04	0	44	102	1048576	21	4900
2026-01-05 11:03:23.64	321.02	33.79	-31.6	-34.9	9.5	1.65e-02	0	43	102	1048576	23	5273
2026-01-05 11:03:26.67	321.56	33.21	-29.6	-30.5	13.7	6.02e-05	0	43	102	1048576	20	3986
2026-01-05 11:03:29.69	322.07	32.65	-29.0	-29.3	14.9	0.00e+00	0	44	102	1048576	19	3726
2026-01-05 11:03:32.72	322.57	32.09	-30.4	-32.7	12.2	8.85e-05	0	44	102	1048576	20	4706
2026-01-05 11:03:35.74	323.05	31.54	-31.0	-33.4	11.0	2.19e-03	0	44	102	1048576	22	4766
2026-01-05 11:03:38.76	323.52	30.99	-30.4	-31.8	12.3	1.74e-04	0	44	102	1048576	22	4200
2026-01-05 11:03:41.78	323.97	30.46	-29.9	-30.9	13.2	2.21e-05	0	44	102	1048576	21	4012
2026-01-05 11:03:44.79	324.41	29.94	-31.3	-34.7	10.2	3.44e-03	0	43	102	1048576	22	5277
2026-01-05 11:03:47.82	324.83	29.42	-31.1	-33.3	10.8	5.66e-03	0	44	102	1048576	23	4648
2026-01-05 11:03:50.83	325.24	28.91	-29.5	-30.3	13.8	4.11e-05	0	43	102	1048576	20	3933
2026-01-05 11:03:53.85	325.64	28.41	-29.4	-30.4	14.1	3.00e-06	0	43	102	1048576	19	4056
2026-01-05 11:03:56.87	326.03	27.91	-29.3	-30.1	14.3	7.00e-07	0	43	102	1048576	19	3971
2026-01-05 11:03:59.89	326.40	27.42	-29.6	-31.0	13.7	2.20e-06	0	43	102	1048576	19	4226
2026-01-05 11:04:02.91	326.77	26.94	-30.0	-32.0	13.0	1.60e-05	0	43	102	1048576	19	4531
2026-01-05 11:04:05.93	327.12	26.47	-30.1	-32.0	12.6	2.17e-04	0	44	102	1048576	20	4471
2026-01-05 11:04:08.95	327.47	26.01	-30.5	-33.0	12.0	2.40e-04	0	43	102	1048576	20	4807
2026-01-05 11:04:11.97	327.80	25.55	-30.9	-33.7	11.0	1.62e-03	0	43	102	1048576	21	5009
2026-01-05 11:04:14.98	328.13	25.10	-31.3	-34.8	9.9	7.03e-03	0	43	102	1048576	22	5367
2026-01-05 11:04:18.00	328.44	24.65	-30.4	-31.8	12.1	4.67e-04	0	44	102	1048576	22	4220
2026-01-05 11:04:21.02	328.75	24.21	-29.5	-30.2	13.7	1.06e-05	0	44	102	1048576	20	3924
2026-01-05 11:04:24.05	329.05	23.78	-29.1	-29.7	14.4	9.10e-06	0	43	102	1048576	19	3871
2026-01-05 11:04:27.07	329.35	23.35	-29.6	-31.2	13.5	8.30e-06	0	43	102	1048576	19	4289
2026-01-05 11:04:30.09	329.63	22.94	-30.3	-32.5	12.1	7.32e-05	0	44	102	1048576	20	4672
2026-01-05 11:04:33.11	329.91	22.52	-30.3	-32.7	12.0	3.33e-04	0	44	102	1048576	20	4715
2026-01-05 11:04:36.13	330.18	22.12	-29.9	-31.6	12.8	1.11e-04	0	43	102	1048576	20	4359
2026-01-05 11:04:39.15	330.45	21.71	-29.4	-30.6	13.1	2.36e-05	0	43	102	1048576	20	4137
2026-01-05 11:04:42.17	330.70	21.32	-29.6	-30.6	13.4	1.60e-05	0	44	102	1048576	20	4061
2026-01-05 11:04:45.19	330.96	20.93	-29.8	-31.1	13.0	4.42e-05	0	44	102	1048576	20	4177
2026-01-05 11:04:48.21	331.20	20.54	-29.3	-30.2	14.0	2.20e-06	0	44	102	1048576	19	4006
2026-01-05 11:04:51.23	331.44	20.17	-29.2	-30.1	14.0	2.20e-06	0	44	102	1048576	19	3975
2026-01-05 11:04:54.25	331.68	19.79	-28.8	-29.1	14.6	0.00e+00	0	43	102	1048576	19	3719
2026-01-05 11:04:57.28	331.91	19.42	-28.9	-29.8	14.5	0.00e+00	0	44	102	1048576	18	3996
2026-01-05 11:05:00.29	332.13	19.06	-29.1	-30.3	14.1	7.00e-07	0	44	102	1048576	18	4147
2026-01-05 11:05:03.32	332.35	18.70	-29.1	-30.4	14.1	7.00e-07	0	44	102	1048576	18	4165
2026-01-05 11:05:06.32	332.57	18.35	-29.3	-30.7	13.9	3.00e-06	0	44	102	1048576	18	4257
2026-01-05 11:05:09.35	332.78	18.00	-29.5	-30.8	13.5	1.67e-05	0	44	102	1048576	19	4193
2026-01-05 11:05:12.37	332.98	17.65	-29.7	-31.5	13.0	4.34e-05	0	44	102	1048576	19	4412
2026-01-05 11:05:15.39	333.18	17.31	-29.8	-31.7	12.8	7.40e-05	0	44	102	1048576	19	4489
2026-01-05 11:05:18.42	333.38	16.98	-30.1	-32.1	12.1	3.76e-04	0	43	102	1048576	20	4565
2026-01-05 11:05:21.43	333.58	16.64	-30.0	-32.0	12.2	2.08e-04	0	43	102	1048576	20	4531
2026-01-05 11:05:24.44	333.76	16.32	-30.1	-32.3	12.0	2.69e-04	0	44	102	1048576	20	4630
2026-01-05 11:05:27.47	333.95	15.99	-29.9	-31.8	12.3	2.01e-04	0	43	102	1048576	20	4450
2026-01-05 11:05:30.49	334.13	15.67	-29.8	-31.4	12.5	1.86e-04	0	44	102	1048576	20	4331
2026-01-05 11:05:33.50	334.31	15.36	-29.7	-31.2	12.6	1.04e-04	0	43	102	1048576	20	4255
2026-01-05 11:05:36.52	334.48	15.05	-29.6	-30.8	12.8	5.18e-05	0	44	102	1048576	20	4147
2026-01-05 11:05:39.52	334.66	14.74	-29.5	-30.5	13.1	3.05e-05	0	43	102	1048576	20	4037
2026-01-05 11:05:42.54	334.82	14.44	-29.3	-30.0	13.3	3.20e-05	0	44	102	1048576	20	3902
2026-01-05 11:05:45.56	334.99	14.14	-29.3	-30.5	13.4	1.60e-05	0	44	102	1048576	19	4113
2026-01-05 11:05:48.59	335.15	13.84	-29.2	-30.2	13.6	8.30e-06	0	44	102	1048576	19	4030
2026-01-05 11:05:51.62	335.31	13.55	-29.1	-29.8	13.7	6.80e-06	0	43	102	1048576	19	3941
2026-01-05 11:05:54.63	335.47	13.26	-29.1	-29.9	13.7	9.90e-06	0	44	102	1048576	19	3964
2026-01-05 11:05:57.65	335.62	12.97	-29.3	-30.6	13.3	2.21e-05	0	43	102	1048576	19	4168
2026-01-05 11:06:00.66	335.77	12.69	-29.5	-31.1	12.9	5.34e-05	0	44	102	1048576	19	4337
2026-01-05 11:06:03.69	335.92	12.41	-29.8	-31.8	12.3	1.84e-04	0	43	102	1048576	19	4568
2026-01-05 11:06:06.71	336.07	12.13	-29.9	-32.2	12.1	2.55e-04	0	43	102	1048576	19	4706
2026-01-05 11:06:09.74	336.21	11.85	-29.9	-31.7	12.0	3.46e-04	0	44	102	1048576	20	4457
2026-01-05 11:06:12.76	336.35	11.58	-29.7	-31.3	12.3	1.55e-04	0	44	102	1048576	20	4327
2026-01-05 11:06:15.78	336.49	11.31	-29.6	-31.1	12.4	1.37e-04	0	44	102	1048576	20	4255
2026-01-05 11:06:18.80	336.63	11.05	-29.7	-31.2	12.3	1.85e-04	0	43	102	1048576	20	4306
2026-01-05 11:06:21.83	336.76	10.78	-29.3	-30.2	12.9	6.10e-05	0	44	102	1048576	20	3998
2026-01-05 11:06:24.85	336.89	10.52	-29.5	-30.6	12.6	9.46e-05	0	44	102	1048576	20	4120
2026-01-05 11:06:27.87	337.02	10.26	-29.5	-31.2	12.7	5.49e-05	0	43	102	1048576	19	4362
2026-01-05 11:06:30.89	337.15	10.01	-29.5	-31.2	12.6	5.79e-05	0	43	102	1048576	19	4391
2026-01-05 11:06:33.91	337.28	9.75	-29.3	-30.7	12.9	8.31e-05	0	44	102	1048576	19	4233
2026-01-05 11:06:36.93	337.40	9.50	-29.5	-31.3	12.5	1.17e-04	0	44	102	1048576	19	4413
2026-01-05 11:06:39.96	337.52	9.26	-29.4	-30.9	12.7	1.04e-04	0	43	102	1048576	19	4312
2026-01-05 11:06:42.98	337.64	9.01	-29.6	-31.6	12.2	1.80e-04	0	44	102	1048576	19	4544
2026-01-05 11:06:46.01	337.76	8.77	-29.7	-31.8	12.0	2.31e-04	0	43	102	1048576	19	4612
2026-01-05 11:06:49.03	337.88	8.52	-29.6	-31.5	12.2	2.33e-04	0	43	102	1048576	19	4520
2026-01-05 11:06:52.05	338.00	8.29	-29.7	-32.1	11.8	4.45e-04	0	44	102	1048576	19	4709
2026-01-05 11:06:55.07	338.11	8.05	-30.0	-32.9	11.2	1.01e-03	0	44	102	1048576	19	5007
2026-01-05 11:06:58.08	338.22	7.81	-30.1	-32.8	10.8	2.59e-03	0	43	102	1048576	20	4911
2026-01-05 11:07:01.10	338.33	7.58	-30.1	-32.8	10.7	2.93e-03	0	43	102	1048576	20	4913
2026-01-05 11:07:04.12	338.44	7.35	-30.1	-32.9	10.7	3.96e-03	0	43	102	1048576	20	4962
2026-01-05 11:07:07.15	338.55	7.12	-30.2	-33.4	10.4	3.78e-03	0	44	102	1048576	20	5152

#Closed at: 2026-01-05 11:07:10
#Recorded file [1 MB]: D:/data/31010_260105_135516.dat