passes_logs/2026/01/05/R2M6_AANII_01/R2M6_AANII_01__20260105_120748_NOAA_21_JPSS-2_rec.log

#Pass ID: 20260105_120748_NOAA 21 (JPSS-2)
#Satellite: NOAA 21 (JPSS-2)
#Configuration: NOAA 21
#almurnet v.1.7.20240730
#Start time: 2026-01-05 12:13:55

#Version: 2.2.20231116
#Station: R2M6_AANII_01
#Location: 30.233357 lon 59.946436 lat
#TLE: 1 54234U 22150A   26004.22845673  .00000174  00000+0  10347-3 0  9996
#TLE: 2 54234  98.7489 305.2591 0001115 345.0884  15.0259 14.19531906163281

#Time	Az	El	Level	Level2	SNR	BER	BlckErr	Temp	State	Recorded	gain1	gain2
2026-01-05 12:13:55.60	293.44	18.98	-32.9	-42.7	3.8	8.44e-01	0	44	0	0	25	11073
2026-01-05 12:13:56.60	293.67	18.94	-33.5	-44.9	3.8	1.49e+00	0	44	104	0	28	13289
2026-01-05 12:13:57.60	293.90	18.90	-33.5	-44.9	3.8	1.49e+00	0	44	104	0	28	13310
2026-01-05 12:13:58.61	294.13	18.86	-33.6	-45.0	3.8	1.49e+00	0	44	104	0	28	13372
2026-01-05 12:13:59.62	294.36	18.82	-33.6	-45.0	3.8	1.49e+00	0	44	104	0	28	13396
2026-01-05 12:14:00.62	294.59	18.78	-33.6	-45.1	3.8	1.49e+00	0	44	104	0	28	13494
2026-01-05 12:14:01.63	294.81	18.74	-33.6	-45.1	3.8	1.49e+00	0	44	104	0	28	13487
2026-01-05 12:14:02.63	295.04	18.70	-33.6	-45.1	3.8	1.49e+00	0	44	104	0	28	13482
2026-01-05 12:14:03.63	295.26	18.66	-33.6	-45.1	3.8	1.49e+00	0	44	104	0	28	13476
2026-01-05 12:14:04.64	295.49	18.61	-33.6	-45.1	3.8	1.49e+00	0	44	104	0	28	13486
2026-01-05 12:14:05.64	295.71	18.57	-33.6	-45.1	3.8	1.49e+00	0	44	104	0	28	13471
2026-01-05 12:14:06.66	295.94	18.53	-33.6	-45.1	3.8	1.49e+00	0	44	104	0	28	13488
2026-01-05 12:14:07.66	296.16	18.48	-33.6	-45.0	3.8	1.49e+00	0	44	104	0	28	13438
2026-01-05 12:14:08.67	296.39	18.44	-33.6	-45.0	3.8	1.49e+00	0	44	104	0	28	13441
2026-01-05 12:14:09.68	296.61	18.39	-33.6	-45.1	3.8	1.49e+00	0	44	104	0	28	13483
2026-01-05 12:14:10.69	296.83	18.35	-33.6	-45.1	3.8	1.49e+00	0	44	104	0	28	13462
2026-01-05 12:14:11.70	297.05	18.30	-33.6	-45.1	3.8	1.49e+00	0	44	104	0	28	13514
2026-01-05 12:14:12.71	297.27	18.26	-33.5	-45.0	3.8	1.49e+00	0	44	104	0	28	13390
2026-01-05 12:14:13.71	297.49	18.21	-33.5	-44.9	3.8	1.49e+00	0	44	104	0	28	13311
2026-01-05 12:14:14.72	297.71	18.17	-33.4	-44.8	3.8	1.49e+00	0	44	104	0	28	13280
2026-01-05 12:14:15.72	297.93	18.12	-33.4	-45.3	3.8	1.49e+00	0	43	104	0	27	14189
2026-01-05 12:14:16.73	298.15	18.07	-33.5	-45.4	3.8	1.49e+00	0	44	104	0	27	14088
2026-01-05 12:14:17.74	298.37	18.03	-33.5	-45.3	3.8	1.49e+00	0	44	104	0	27	14050
2026-01-05 12:14:18.74	298.58	17.98	-33.5	-45.3	3.8	1.49e+00	0	44	104	0	27	13997
2026-01-05 12:14:19.75	298.80	17.93	-33.4	-45.2	3.8	1.49e+00	0	44	104	0	27	13898
2026-01-05 12:14:20.75	299.01	17.88	-33.4	-45.1	3.8	1.49e+00	0	44	104	0	27	13869
2026-01-05 12:14:21.76	299.23	17.84	-33.4	-45.0	3.8	1.49e+00	0	44	104	0	27	13811
2026-01-05 12:14:22.77	299.44	17.79	-33.3	-44.8	3.8	1.49e+00	0	44	104	0	27	13562
2026-01-05 12:14:23.78	299.66	17.74	-33.2	-44.5	3.8	1.49e+00	0	44	104	0	27	13251
2026-01-05 12:14:24.79	299.87	17.69	-33.0	-43.9	3.8	1.49e+00	0	44	104	0	27	12595
2026-01-05 12:14:25.80	300.08	17.64	-32.8	-43.1	3.8	1.49e+00	0	44	104	0	27	11712
2026-01-05 12:14:26.80	300.29	17.59	-32.8	-43.8	3.8	1.49e+00	0	44	104	0	26	12886
2026-01-05 12:14:27.81	300.50	17.54	-32.8	-44.0	3.8	1.49e+00	0	44	104	0	26	13109
2026-01-05 12:14:28.82	300.71	17.49	-32.8	-44.2	3.8	1.49e+00	0	44	104	0	26	13456
2026-01-05 12:14:29.83	300.92	17.44	-32.8	-44.4	3.8	1.49e+00	0	44	104	0	26	13631
2026-01-05 12:14:30.83	301.13	17.39	-32.8	-44.4	3.8	1.49e+00	0	44	104	0	26	13709
2026-01-05 12:14:31.84	301.34	17.34	-32.8	-44.3	3.8	1.49e+00	0	44	104	0	26	13543
2026-01-05 12:14:32.85	301.55	17.29	-32.8	-44.1	3.8	1.49e+00	0	44	104	0	26	13229
2026-01-05 12:14:33.86	301.75	17.23	-32.7	-43.7	3.8	1.49e+00	0	44	104	0	26	12687
2026-01-05 12:14:34.86	301.96	17.18	-32.7	-43.2	3.8	1.49e+00	0	44	104	0	26	12096
2026-01-05 12:14:35.87	302.16	17.13	-32.6	-42.6	3.8	1.49e+00	0	44	104	0	26	11380
2026-01-05 12:14:36.88	302.37	17.08	-32.5	-42.0	3.8	1.49e+00	0	44	104	0	26	10706
2026-01-05 12:14:37.89	302.57	17.03	-32.5	-41.5	3.9	1.48e+00	0	44	104	0	26	10161
2026-01-05 12:14:38.89	302.77	16.97	-32.4	-40.6	4.2	1.48e+00	0	44	104	0	26	9225
2026-01-05 12:14:39.90	302.98	16.92	-32.3	-40.6	3.9	1.48e+00	0	44	104	0	26	9345
2026-01-05 12:14:40.91	303.18	16.87	-32.3	-39.8	4.4	1.43e+00	0	44	104	0	26	8505
2026-01-05 12:14:41.91	303.38	16.82	-32.2	-40.6	3.9	1.48e+00	0	44	104	0	25	9392
2026-01-05 12:14:42.91	303.58	16.76	-32.2	-39.7	4.5	1.07e+00	0	44	104	0	25	8562
2026-01-05 12:14:43.92	303.78	16.71	-32.1	-39.8	4.0	1.47e+00	0	44	104	0	25	8699
2026-01-05 12:14:44.93	303.98	16.65	-31.9	-37.7	5.4	5.81e-01	0	44	0	0	25	7076
2026-01-05 12:14:45.94	304.17	16.60	-31.4	-36.1	6.6	3.03e-01	0	44	102	1048576	24	6185
2026-01-05 12:14:46.95	304.37	16.55	-30.8	-34.3	8.2	8.19e-02	0	44	102	1048576	23	5396
2026-01-05 12:14:47.95	304.57	16.49	-30.2	-33.4	9.5	1.86e-02	0	44	102	1048576	21	5221
2026-01-05 12:14:48.96	304.76	16.44	-29.7	-32.7	10.4	5.30e-03	0	44	102	1048576	20	5037
2026-01-05 12:14:49.96	304.96	16.38	-29.7	-32.5	10.5	3.69e-03	0	44	102	1048576	20	4988
2026-01-05 12:14:50.96	305.15	16.33	-29.9	-33.0	10.2	5.87e-03	0	44	102	1048576	20	5179
2026-01-05 12:14:51.97	305.35	16.27	-29.9	-33.2	10.1	6.82e-03	0	44	102	1048576	20	5236
2026-01-05 12:14:52.97	305.54	16.22	-30.0	-33.4	9.9	8.20e-03	0	44	102	1048576	20	5313
2026-01-05 12:14:53.98	305.73	16.16	-29.9	-33.2	10.0	8.51e-03	0	44	102	1048576	20	5247
2026-01-05 12:14:54.98	305.92	16.11	-29.9	-33.1	10.0	7.75e-03	0	44	102	1048576	20	5220
2026-01-05 12:14:55.99	306.11	16.05	-29.9	-33.1	10.0	7.57e-03	0	44	102	1048576	20	5213
2026-01-05 12:14:57.00	306.30	15.99	-29.8	-32.9	10.2	6.08e-03	0	44	102	1048576	20	5128
2026-01-05 12:14:58.00	306.49	15.94	-30.2	-34.1	9.3	1.23e-02	0	44	102	1048576	20	5632
2026-01-05 12:14:59.01	306.68	15.88	-29.8	-32.8	10.2	8.82e-03	0	44	102	1048576	20	5080
2026-01-05 12:15:00.01	306.87	15.82	-29.3	-31.4	11.2	2.01e-03	0	44	102	1048576	20	4586
2026-01-05 12:15:01.02	307.06	15.77	-28.8	-31.0	12.2	3.78e-04	0	44	102	1048576	18	4660
2026-01-05 12:15:02.03	307.24	15.71	-28.2	-30.1	13.1	5.11e-05	0	44	102	1048576	17	4461
2026-01-05 12:15:03.04	307.43	15.65	-27.7	-29.4	13.8	3.80e-06	0	44	102	1048576	16	4379
2026-01-05 12:15:04.04	307.62	15.60	-27.3	-28.4	14.4	0.00e+00	0	44	102	1048576	16	4095
2026-01-05 12:15:05.05	307.80	15.54	-27.0	-28.2	14.6	1.50e-06	0	44	102	1048576	15	4145
2026-01-05 12:15:06.06	307.99	15.48	-26.8	-27.9	14.8	7.00e-07	0	44	102	1048576	15	4074
2026-01-05 12:15:07.06	308.17	15.42	-26.9	-28.0	14.7	0.00e+00	0	44	102	1048576	15	4087
2026-01-05 12:15:08.07	308.35	15.37	-27.0	-28.4	14.5	0.00e+00	0	44	102	1048576	15	4193
2026-01-05 12:15:09.08	308.53	15.31	-27.1	-28.6	14.3	0.00e+00	0	44	102	1048576	15	4261
2026-01-05 12:15:10.08	308.71	15.25	-27.0	-28.3	14.4	1.50e-06	0	44	102	1048576	15	4190
2026-01-05 12:15:11.09	308.89	15.19	-27.0	-28.3	14.4	0.00e+00	0	44	102	1048576	15	4173
2026-01-05 12:15:12.10	309.08	15.13	-27.0	-28.3	14.4	7.00e-07	0	44	102	1048576	15	4183
2026-01-05 12:15:13.11	309.26	15.08	-26.9	-28.0	14.7	7.00e-07	0	44	102	1048576	15	4095
2026-01-05 12:15:14.12	309.43	15.02	-26.9	-28.0	14.7	0.00e+00	0	44	102	1048576	15	4084
2026-01-05 12:15:15.13	309.61	14.96	-26.8	-27.9	14.6	0.00e+00	0	44	102	1048576	15	4063
2026-01-05 12:15:16.13	309.79	14.90	-26.8	-28.3	14.6	0.00e+00	0	44	102	1048576	14	4290
2026-01-05 12:15:17.14	309.97	14.84	-27.0	-28.7	14.4	0.00e+00	0	44	102	1048576	14	4390
2026-01-05 12:15:18.15	310.14	14.78	-26.8	-28.2	14.7	1.50e-06	0	44	102	1048576	14	4267
2026-01-05 12:15:19.15	310.32	14.72	-26.7	-28.2	14.8	0.00e+00	0	44	102	1048576	14	4245
2026-01-05 12:15:20.16	310.49	14.66	-26.8	-28.2	14.8	0.00e+00	0	44	102	1048576	14	4256
2026-01-05 12:15:21.16	310.66	14.60	-26.8	-28.4	14.7	0.00e+00	0	44	102	1048576	14	4302
2026-01-05 12:15:22.17	310.84	14.55	-26.9	-28.6	14.6	0.00e+00	0	43	102	1048576	14	4368
2026-01-05 12:15:23.18	311.01	14.49	-26.9	-28.5	14.6	0.00e+00	0	44	102	1048576	14	4345
2026-01-05 12:15:24.18	311.18	14.43	-26.8	-28.4	14.6	7.00e-07	0	44	102	1048576	14	4306
2026-01-05 12:15:25.19	311.35	14.37	-26.9	-28.7	14.4	7.00e-07	0	44	102	1048576	14	4384
2026-01-05 12:15:26.19	311.52	14.31	-26.9	-28.6	14.5	7.00e-07	0	44	102	1048576	14	4362
2026-01-05 12:15:27.20	311.69	14.25	-27.0	-28.7	14.5	0.00e+00	0	44	102	1048576	14	4408
2026-01-05 12:15:28.21	311.86	14.19	-27.0	-28.7	14.4	7.00e-07	0	44	102	1048576	14	4406
2026-01-05 12:15:29.21	312.03	14.13	-27.0	-28.8	14.3	0.00e+00	0	44	102	1048576	14	4441
2026-01-05 12:15:30.22	312.20	14.07	-27.1	-29.0	14.2	7.00e-07	0	44	102	1048576	14	4492
2026-01-05 12:15:31.22	312.36	14.01	-27.0	-28.8	14.4	0.00e+00	0	44	102	1048576	14	4421
2026-01-05 12:15:32.23	312.53	13.95	-26.9	-28.5	14.5	7.00e-07	0	44	102	1048576	14	4354
2026-01-05 12:15:33.23	312.70	13.89	-26.9	-28.6	14.5	1.50e-06	0	44	102	1048576	14	4361
2026-01-05 12:15:34.24	312.86	13.83	-26.8	-28.3	14.7	0.00e+00	0	44	102	1048576	14	4286
2026-01-05 12:15:35.24	313.03	13.77	-26.9	-28.5	14.5	0.00e+00	0	44	102	1048576	14	4340
2026-01-05 12:15:36.25	313.19	13.71	-27.0	-28.8	14.3	7.00e-07	0	44	102	1048576	14	4442
2026-01-05 12:15:37.26	313.35	13.65	-26.9	-28.7	14.4	0.00e+00	0	44	102	1048576	14	4393
2026-01-05 12:15:38.27	313.52	13.59	-27.1	-28.9	14.2	1.50e-06	0	43	102	1048576	14	4465
2026-01-05 12:15:39.28	313.68	13.52	-27.1	-29.2	14.1	5.30e-06	0	44	102	1048576	14	4536
2026-01-05 12:15:40.28	313.84	13.46	-27.0	-28.8	14.4	7.00e-07	0	43	102	1048576	14	4418
2026-01-05 12:15:41.29	314.00	13.40	-26.9	-28.6	14.5	1.50e-06	0	44	102	1048576	14	4358
2026-01-05 12:15:42.29	314.16	13.34	-26.9	-28.6	14.5	7.00e-07	0	44	102	1048576	14	4380
2026-01-05 12:15:43.30	314.32	13.28	-27.0	-28.9	14.4	4.50e-06	0	44	102	1048576	14	4446
2026-01-05 12:15:44.31	314.48	13.22	-27.1	-29.0	14.3	7.00e-07	0	44	102	1048576	14	4477
2026-01-05 12:15:45.31	314.64	13.16	-27.2	-29.2	14.1	1.50e-06	0	43	102	1048576	14	4564
2026-01-05 12:15:46.32	314.79	13.10	-27.1	-28.9	14.3	0.00e+00	0	44	102	1048576	14	4462
2026-01-05 12:15:47.32	314.95	13.04	-26.9	-28.6	14.5	1.50e-06	0	44	102	1048576	14	4366
2026-01-05 12:15:48.33	315.11	12.98	-26.9	-28.5	14.5	0.00e+00	0	44	102	1048576	14	4342
2026-01-05 12:15:49.34	315.26	12.92	-26.9	-28.5	14.5	0.00e+00	0	44	102	1048576	14	4351
2026-01-05 12:15:50.35	315.42	12.86	-26.8	-28.4	14.6	0.00e+00	0	44	102	1048576	14	4309
2026-01-05 12:15:51.35	315.57	12.80	-26.9	-28.6	14.5	0.00e+00	0	44	102	1048576	14	4359
2026-01-05 12:15:52.36	315.73	12.73	-27.0	-28.8	14.4	7.00e-07	0	44	102	1048576	14	4432
2026-01-05 12:15:53.36	315.88	12.67	-27.0	-28.8	14.4	0.00e+00	0	44	102	1048576	14	4433
2026-01-05 12:15:54.37	316.03	12.61	-26.9	-28.6	14.5	0.00e+00	0	43	102	1048576	14	4386
2026-01-05 12:15:55.38	316.18	12.55	-27.0	-28.9	14.3	1.50e-06	0	44	102	1048576	14	4448
2026-01-05 12:15:56.39	316.34	12.49	-27.0	-28.9	14.3	0.00e+00	0	44	102	1048576	14	4467
2026-01-05 12:15:57.39	316.49	12.43	-26.9	-28.7	14.4	1.50e-06	0	43	102	1048576	14	4393
2026-01-05 12:15:58.40	316.64	12.37	-27.0	-28.7	14.4	0.00e+00	0	44	102	1048576	14	4399
2026-01-05 12:15:59.40	316.78	12.31	-27.0	-28.8	14.3	1.50e-06	0	44	102	1048576	14	4441
2026-01-05 12:16:00.41	316.93	12.24	-27.0	-28.8	14.3	3.00e-06	0	44	102	1048576	14	4428
2026-01-05 12:16:01.41	317.08	12.18	-27.1	-29.1	14.1	2.20e-06	0	44	102	1048576	14	4520
2026-01-05 12:16:02.42	317.23	12.12	-27.0	-28.7	14.3	7.00e-07	0	44	102	1048576	14	4417
2026-01-05 12:16:03.43	317.38	12.06	-26.8	-28.4	14.6	7.00e-07	0	44	102	1048576	14	4321
2026-01-05 12:16:04.43	317.52	12.00	-26.8	-28.3	14.6	7.00e-07	0	44	102	1048576	14	4277
2026-01-05 12:16:05.44	317.67	11.94	-26.9	-28.7	14.4	7.00e-07	0	44	102	1048576	14	4390
2026-01-05 12:16:06.44	317.81	11.88	-27.0	-28.8	14.4	7.00e-07	0	44	102	1048576	14	4426
2026-01-05 12:16:07.45	317.96	11.82	-26.9	-28.5	14.5	1.50e-06	0	44	102	1048576	14	4358
2026-01-05 12:16:08.46	318.10	11.75	-27.0	-28.8	14.3	7.00e-07	0	44	102	1048576	14	4428
2026-01-05 12:16:09.46	318.25	11.69	-27.1	-29.0	14.2	7.00e-07	0	44	102	1048576	14	4479
2026-01-05 12:16:10.47	318.39	11.63	-27.0	-28.9	14.2	7.00e-07	0	44	102	1048576	14	4469
2026-01-05 12:16:11.48	318.53	11.57	-27.1	-29.0	14.2	1.50e-06	0	44	102	1048576	14	4504
2026-01-05 12:16:12.49	318.67	11.51	-27.1	-29.0	14.2	7.00e-07	0	43	102	1048576	14	4504
2026-01-05 12:16:13.50	318.82	11.45	-27.1	-29.2	14.1	0.00e+00	0	44	102	1048576	14	4544
2026-01-05 12:16:14.50	318.96	11.39	-27.2	-29.2	14.1	7.00e-07	0	44	102	1048576	14	4559
2026-01-05 12:16:15.51	319.10	11.32	-27.2	-29.2	14.1	3.00e-06	0	44	102	1048576	14	4560
2026-01-05 12:16:16.52	319.24	11.26	-27.1	-29.1	14.1	3.80e-06	0	44	102	1048576	14	4531
2026-01-05 12:16:17.52	319.37	11.20	-27.2	-29.3	14.0	2.20e-06	0	44	102	1048576	14	4572
2026-01-05 12:16:18.53	319.51	11.14	-27.4	-29.7	13.7	5.30e-06	0	44	102	1048576	14	4726
2026-01-05 12:16:19.53	319.65	11.08	-27.4	-29.8	13.6	7.60e-06	0	44	102	1048576	14	4749
2026-01-05 12:16:20.54	319.79	11.02	-27.5	-30.0	13.6	4.50e-06	0	44	102	1048576	14	4798
2026-01-05 12:16:21.54	319.92	10.96	-27.6	-29.9	13.3	1.29e-05	0	44	102	1048576	15	4651
2026-01-05 12:16:22.55	320.06	10.89	-27.7	-30.1	13.1	1.90e-05	0	44	102	1048576	15	4741
2026-01-05 12:16:23.55	320.20	10.83	-27.7	-30.1	13.2	2.89e-05	0	44	102	1048576	15	4718
2026-01-05 12:16:24.56	320.33	10.77	-27.9	-30.5	12.9	3.28e-05	0	44	102	1048576	15	4849
2026-01-05 12:16:25.57	320.47	10.71	-27.9	-30.5	12.9	6.48e-05	0	44	102	1048576	15	4866
2026-01-05 12:16:26.58	320.60	10.65	-28.1	-30.6	12.7	6.17e-05	0	44	102	1048576	16	4751
2026-01-05 12:16:27.58	320.73	10.59	-28.3	-31.1	12.4	1.26e-04	0	44	102	1048576	16	4944
2026-01-05 12:16:28.59	320.87	10.53	-28.4	-30.7	12.3	2.24e-04	0	44	102	1048576	17	4702
2026-01-05 12:16:29.58	321.00	10.47	-28.1	-30.1	12.7	1.04e-04	0	44	102	1048576	17	4503
2026-01-05 12:16:30.59	321.13	10.41	-28.1	-29.9	12.8	6.94e-05	0	44	102	1048576	17	4458
2026-01-05 12:16:31.60	321.26	10.34	-28.0	-29.7	12.9	6.71e-05	0	44	102	1048576	17	4400
2026-01-05 12:16:32.60	321.39	10.28	-28.2	-30.1	12.7	6.71e-05	0	44	102	1048576	17	4509
2026-01-05 12:16:33.61	321.52	10.22	-28.0	-29.7	13.0	5.87e-05	0	44	102	1048576	17	4379
2026-01-05 12:16:34.61	321.65	10.16	-28.1	-29.9	12.9	3.50e-05	0	44	102	1048576	17	4439
2026-01-05 12:16:35.62	321.78	10.10	-28.0	-29.6	13.1	4.11e-05	0	44	102	1048576	17	4340
2026-01-05 12:16:36.63	321.91	10.04	-27.8	-29.6	13.3	1.14e-05	0	43	102	1048576	16	4458
2026-01-05 12:16:37.64	322.04	9.98	-27.8	-29.8	13.2	1.83e-05	0	43	102	1048576	16	4509
2026-01-05 12:16:38.64	322.16	9.92	-27.8	-29.7	13.3	1.98e-05	0	44	102	1048576	16	4477
2026-01-05 12:16:39.64	322.29	9.86	-27.7	-29.4	13.5	1.14e-05	0	44	102	1048576	16	4383
2026-01-05 12:16:40.65	322.42	9.80	-27.6	-29.3	13.5	1.22e-05	0	44	102	1048576	16	4355
2026-01-05 12:16:41.66	322.54	9.73	-27.7	-29.4	13.4	1.14e-05	0	44	102	1048576	16	4390
2026-01-05 12:16:42.67	322.67	9.67	-27.6	-29.2	13.5	1.14e-05	0	44	102	1048576	16	4336
2026-01-05 12:16:43.68	322.80	9.61	-27.6	-29.2	13.5	8.30e-06	0	44	102	1048576	16	4344
2026-01-05 12:16:44.69	322.92	9.55	-27.6	-29.2	13.5	9.10e-06	0	44	102	1048576	16	4340
2026-01-05 12:16:45.70	323.05	9.49	-27.7	-29.5	13.4	1.22e-05	0	44	102	1048576	16	4416
2026-01-05 12:16:46.71	323.17	9.43	-27.7	-29.5	13.4	1.67e-05	0	44	102	1048576	16	4424
2026-01-05 12:16:47.71	323.29	9.37	-27.7	-29.4	13.4	1.37e-05	0	44	102	1048576	16	4410
2026-01-05 12:16:48.72	323.42	9.31	-27.8	-29.6	13.2	2.36e-05	0	44	102	1048576	16	4469
2026-01-05 12:16:49.73	323.54	9.25	-27.9	-29.9	13.1	2.51e-05	0	44	102	1048576	16	4541
2026-01-05 12:16:50.73	323.66	9.19	-27.9	-30.0	13.0	3.12e-05	0	44	102	1048576	16	4583
2026-01-05 12:16:51.74	323.78	9.13	-27.9	-30.0	13.0	2.44e-05	0	44	102	1048576	16	4598
2026-01-05 12:16:52.75	323.90	9.07	-27.9	-30.0	13.0	3.66e-05	0	44	102	1048576	16	4582
2026-01-05 12:16:53.75	324.02	9.01	-27.9	-30.0	13.0	3.12e-05	0	44	102	1048576	16	4600
2026-01-05 12:16:54.76	324.14	8.94	-27.9	-30.1	12.9	3.12e-05	0	44	102	1048576	16	4605
2026-01-05 12:16:55.77	324.26	8.88	-27.9	-30.0	13.0	3.28e-05	0	44	102	1048576	16	4579
2026-01-05 12:16:56.77	324.38	8.82	-27.9	-30.0	13.0	4.11e-05	0	44	102	1048576	16	4588
2026-01-05 12:16:57.78	324.50	8.76	-28.0	-30.2	12.8	4.95e-05	0	44	102	1048576	16	4652
2026-01-05 12:16:58.79	324.62	8.70	-27.9	-29.9	13.0	6.25e-05	0	43	102	1048576	16	4563
2026-01-05 12:16:59.79	324.73	8.64	-27.9	-29.9	13.0	3.81e-05	0	44	102	1048576	16	4564
2026-01-05 12:17:00.80	324.85	8.58	-28.0	-30.3	12.7	7.17e-05	0	44	102	1048576	16	4691
2026-01-05 12:17:01.81	324.97	8.52	-28.1	-30.4	12.7	8.31e-05	0	43	102	1048576	16	4731
2026-01-05 12:17:02.81	325.08	8.46	-28.1	-30.6	12.6	6.79e-05	0	44	102	1048576	16	4779
2026-01-05 12:17:03.82	325.20	8.40	-28.1	-30.4	12.7	7.09e-05	0	44	102	1048576	16	4732
2026-01-05 12:17:04.83	325.31	8.34	-28.1	-30.4	12.7	6.94e-05	0	44	102	1048576	16	4735
2026-01-05 12:17:05.83	325.43	8.28	-28.1	-30.6	12.5	9.84e-05	0	44	102	1048576	16	4790
2026-01-05 12:17:06.84	325.54	8.22	-28.1	-30.7	12.5	1.36e-04	0	44	102	1048576	16	4804
2026-01-05 12:17:07.85	325.66	8.16	-28.2	-30.7	12.5	1.27e-04	0	44	102	1048576	16	4819
2026-01-05 12:17:08.85	325.77	8.10	-28.2	-30.8	12.4	1.20e-04	0	44	102	1048576	16	4863
2026-01-05 12:17:09.86	325.88	8.04	-28.4	-31.3	12.1	1.98e-04	0	44	102	1048576	16	5026
2026-01-05 12:17:10.87	326.00	7.98	-28.2	-30.8	12.3	2.01e-04	0	44	102	1048576	16	4867
2026-01-05 12:17:11.87	326.11	7.92	-28.1	-30.5	12.6	1.05e-04	0	44	102	1048576	16	4765
2026-01-05 12:17:12.87	326.22	7.87	-28.1	-30.5	12.6	1.01e-04	0	44	102	1048576	16	4765
2026-01-05 12:17:13.88	326.33	7.81	-28.0	-30.4	12.6	9.46e-05	0	44	102	1048576	16	4709
2026-01-05 12:17:14.88	326.44	7.75	-27.9	-30.2	12.7	5.64e-05	0	44	102	1048576	16	4655
2026-01-05 12:17:15.90	326.55	7.69	-28.1	-30.4	12.6	1.26e-04	0	44	102	1048576	16	4735
2026-01-05 12:17:16.90	326.66	7.63	-28.1	-30.5	12.5	1.05e-04	0	44	102	1048576	16	4750
2026-01-05 12:17:17.90	326.77	7.57	-28.1	-30.5	12.5	9.76e-05	0	44	102	1048576	16	4754
2026-01-05 12:17:18.91	326.88	7.51	-28.1	-30.6	12.5	1.38e-04	0	44	102	1048576	16	4790
2026-01-05 12:17:19.92	326.99	7.45	-28.2	-30.8	12.3	1.37e-04	0	44	102	1048576	16	4850
2026-01-05 12:17:20.93	327.10	7.39	-28.2	-30.8	12.3	1.64e-04	0	44	102	1048576	16	4874
2026-01-05 12:17:21.93	327.20	7.33	-28.2	-30.9	12.3	1.65e-04	0	43	102	1048576	16	4899
2026-01-05 12:17:22.94	327.31	7.27	-28.2	-30.9	12.3	1.67e-04	0	43	102	1048576	16	4907
2026-01-05 12:17:23.95	327.42	7.21	-28.3	-31.0	12.1	2.27e-04	0	44	102	1048576	16	4947
2026-01-05 12:17:24.95	327.52	7.15	-28.3	-31.0	12.1	2.33e-04	0	43	102	1048576	16	4947
2026-01-05 12:17:25.96	327.63	7.10	-28.4	-31.4	11.9	3.33e-04	0	44	102	1048576	16	5069
2026-01-05 12:17:26.96	327.73	7.04	-32.4	-44.5	3.8	1.49e+00	0	44	104	1048576	24	14417
2026-01-05 12:17:27.97	327.84	6.98	-32.8	-44.9	3.8	1.49e+00	0	44	104	1048576	25	14549
2026-01-05 12:17:28.98	327.95	6.92	-33.1	-45.0	3.8	1.49e+00	0	44	104	1048576	26	14198

#Closed at: 2026-01-05 12:17:29
#Recorded file [1 MB]: D:/data/31010_260105_151444.dat