passes_logs/2026/01/05/R2M6_AANII_01/R2M6_AANII_01__20260105_010222_SUOMI_NPP_rec.log

#Pass ID: 20260105_010222_SUOMI NPP
#Satellite: SUOMI NPP
#Configuration: NPP
#almurnet v.1.7.20240730
#Start time: 2026-01-05 01:05:27

#Version: 2.2.20231116
#Station: R2M6_AANII_01
#Location: 30.233357 lon 59.946436 lat
#TLE: 1 37849U 11061A   26003.96724563  .00000164  00000+0  98899-4 0  9990
#TLE: 2 37849  98.7800 306.1116 0002573  82.3190 277.8279 14.19522066735141

#Time	Az	El	Level	Level2	SNR	BER	BlckErr	Temp	State	Recorded	gain1	gain2
2026-01-05 01:05:27.80	4.04	26.91	-32.4	-52.1	3.8	7.43e-01	0	43	0	0	25	34595
2026-01-05 01:05:30.81	3.67	27.39	-33.9	-46.0	3.8	1.49e+00	0	43	104	0	28	14522
2026-01-05 01:05:33.83	3.29	27.87	-34.0	-46.2	3.8	1.49e+00	0	43	104	0	28	14671
2026-01-05 01:05:36.84	2.90	28.36	-34.0	-46.2	3.8	1.49e+00	0	43	104	0	28	14726
2026-01-05 01:05:39.87	2.50	28.86	-34.0	-46.2	3.8	1.49e+00	0	43	104	0	28	14633
2026-01-05 01:05:42.89	2.08	29.37	-34.0	-46.2	3.8	1.49e+00	0	43	104	0	28	14640
2026-01-05 01:05:45.91	1.65	29.89	-34.0	-46.1	3.8	1.49e+00	0	43	104	0	28	14601
2026-01-05 01:05:48.94	1.20	30.41	-34.0	-46.2	3.7	1.49e+00	0	43	104	0	28	14683
2026-01-05 01:05:51.96	0.74	30.94	-34.0	-46.1	3.8	1.49e+00	0	43	104	0	28	14607
2026-01-05 01:05:54.98	0.26	31.48	-33.9	-46.0	3.8	1.49e+00	0	43	104	0	28	14486
2026-01-05 01:05:58.00	359.77	32.02	-33.9	-46.4	3.8	1.49e+00	0	43	104	0	27	15268
2026-01-05 01:06:01.01	359.26	32.57	-33.8	-46.2	3.8	1.49e+00	0	43	104	0	27	14975
2026-01-05 01:06:04.03	358.73	33.13	-33.8	-46.0	3.8	1.49e+00	0	43	104	0	27	14801
2026-01-05 01:06:07.05	358.18	33.70	-33.8	-46.1	3.8	1.49e+00	0	43	104	0	27	14882
2026-01-05 01:06:10.07	357.61	34.28	-33.7	-46.0	3.8	1.49e+00	0	43	104	0	27	14695
2026-01-05 01:06:13.10	357.02	34.86	-33.7	-45.3	3.8	1.49e+00	0	43	104	0	27	13744
2026-01-05 01:06:16.12	356.41	35.45	-33.6	-44.4	3.8	1.49e+00	0	43	104	0	27	12477
2026-01-05 01:06:19.14	355.77	36.05	-33.5	-43.1	3.9	1.49e+00	0	43	104	0	27	10878
2026-01-05 01:06:22.16	355.12	36.65	-32.5	-39.8	5.0	9.16e-01	0	43	104	0	26	8403
2026-01-05 01:06:25.17	354.43	37.26	-32.9	-39.7	4.5	1.34e+00	0	43	104	0	25	7825
2026-01-05 01:06:28.20	353.72	37.88	-32.6	-37.8	5.5	2.53e-01	0	43	104	0	25	6591
2026-01-05 01:06:31.20	352.99	38.50	-31.9	-35.9	9.2	2.40e-02	0	44	102	1048576	23	5699
2026-01-05 01:06:34.23	352.22	39.13	-32.2	-36.5	8.4	4.37e-02	0	43	102	1048576	24	5895
2026-01-05 01:06:37.24	351.42	39.77	-32.3	-37.0	8.0	3.83e-02	0	43	102	1048576	24	6162
2026-01-05 01:06:40.27	350.59	40.41	-32.6	-37.8	7.1	1.26e-01	0	43	102	1048576	25	6556
2026-01-05 01:06:43.29	349.72	41.05	-32.6	-38.1	6.7	1.62e-01	0	44	102	1048576	25	6755
2026-01-05 01:06:46.31	348.82	41.70	-32.9	-39.6	5.8	3.89e-01	0	43	102	1048576	25	7770
2026-01-05 01:06:49.34	347.88	42.36	-32.5	-37.3	7.4	1.79e-01	0	44	102	1048576	25	6297
2026-01-05 01:06:52.36	346.90	43.01	-32.0	-35.8	8.8	4.46e-02	0	43	102	1048576	24	5557
2026-01-05 01:06:55.38	345.88	43.67	-32.0	-35.6	9.2	1.73e-02	0	43	102	1048576	24	5436
2026-01-05 01:06:58.40	344.82	44.32	-32.2	-36.3	8.7	3.08e-02	0	44	102	1048576	24	5785
2026-01-05 01:07:01.42	343.72	44.98	-32.5	-37.2	7.7	6.62e-02	0	44	102	1048576	25	6165
2026-01-05 01:07:04.44	342.56	45.63	-31.7	-36.1	8.3	5.65e-02	0	44	102	1048576	24	5942
2026-01-05 01:07:07.44	341.37	46.28	-32.1	-35.9	8.9	2.72e-02	0	43	102	1048576	24	5597
2026-01-05 01:07:10.47	340.11	46.93	-31.7	-34.9	10.0	7.85e-03	0	44	102	1048576	23	5215
2026-01-05 01:07:13.49	338.80	47.57	-32.1	-36.4	8.3	3.56e-02	0	44	102	1048576	24	5896
2026-01-05 01:07:16.50	337.44	48.20	-30.7	-32.4	12.1	2.97e-04	0	43	102	1048576	22	4389
2026-01-05 01:07:19.53	336.02	48.83	-31.3	-34.5	10.8	5.13e-03	0	44	102	1048576	22	5164
2026-01-05 01:07:22.56	334.53	49.45	-31.7	-35.1	9.9	6.86e-03	0	43	102	1048576	23	5338
2026-01-05 01:07:25.58	332.99	50.05	-31.2	-34.1	10.9	2.28e-03	0	44	102	1048576	22	4998
2026-01-05 01:07:28.60	331.39	50.63	-31.0	-33.1	11.7	5.59e-04	0	43	102	1048576	22	4623
2026-01-05 01:07:31.62	329.73	51.20	-31.7	-34.9	10.1	8.33e-03	0	43	102	1048576	23	5216
2026-01-05 01:07:34.65	328.00	51.75	-31.4	-34.6	10.6	2.34e-03	0	44	102	1048576	22	5202
2026-01-05 01:07:37.68	326.20	52.28	-31.4	-34.0	10.7	5.19e-03	0	43	102	1048576	23	4871
2026-01-05 01:07:40.69	324.35	52.78	-31.0	-33.4	11.4	6.55e-04	0	44	102	1048576	22	4753
2026-01-05 01:07:43.70	322.44	53.25	-30.8	-33.3	11.4	5.53e-04	0	43	102	1048576	21	4812
2026-01-05 01:07:46.73	320.45	53.70	-30.4	-32.6	12.5	1.38e-04	0	43	102	1048576	20	4655
2026-01-05 01:07:49.75	318.41	54.11	-29.6	-30.9	14.1	3.45e-04	0	43	102	1048576	19	4205
2026-01-05 01:07:52.78	316.31	54.49	-30.2	-32.2	12.9	8.54e-04	0	43	102	1048576	20	4526
2026-01-05 01:07:55.80	314.16	54.83	-29.6	-30.9	14.0	6.10e-06	0	43	102	1048576	19	4207
2026-01-05 01:07:58.82	311.96	55.13	-29.9	-31.7	13.4	3.80e-06	0	43	102	1048576	19	4451
2026-01-05 01:08:01.84	309.71	55.39	-30.3	-32.5	12.6	9.91e-05	0	44	102	1048576	20	4639
2026-01-05 01:08:04.86	307.43	55.60	-29.3	-30.3	14.3	5.30e-06	0	43	102	1048576	19	4034
2026-01-05 01:08:07.87	305.12	55.77	-28.3	-28.8	15.8	5.93e-04	0	44	102	1048576	17	3815
2026-01-05 01:08:10.89	302.78	55.90	-28.4	-29.5	15.7	1.75e-03	0	44	102	1048576	16	4083
2026-01-05 01:08:13.91	300.42	55.98	-28.2	-29.0	16.0	2.59e-04	0	44	102	1048576	16	3952
2026-01-05 01:08:16.93	298.05	56.01	-29.1	-30.3	14.7	7.78e-04	0	43	102	1048576	18	4106
2026-01-05 01:08:19.94	295.69	55.99	-28.3	-28.8	15.8	9.03e-04	0	43	102	1048576	17	3808
2026-01-05 01:08:22.97	293.32	55.93	-28.8	-29.9	15.2	0.00e+00	0	44	102	1048576	17	4087
2026-01-05 01:08:25.99	290.98	55.82	-28.0	-28.5	16.3	1.87e-03	0	44	102	1048576	16	3817
2026-01-05 01:08:29.01	288.65	55.66	-28.2	-29.2	15.8	1.68e-03	0	44	102	1048576	16	4000
2026-01-05 01:08:32.03	286.36	55.45	-27.9	-28.2	16.4	1.71e-03	0	43	102	1048576	16	3754
2026-01-05 01:08:35.05	284.10	55.21	-27.1	-27.6	17.0	1.86e-03	0	44	102	1048576	14	3783
2026-01-05 01:08:38.08	281.88	54.92	-27.3	-28.1	16.9	1.49e-03	0	44	102	1048576	14	3909
2026-01-05 01:08:41.09	279.72	54.59	-27.5	-27.9	16.7	0.00e+00	0	43	102	1048576	15	3759
2026-01-05 01:08:44.11	277.60	54.22	-28.2	-28.9	16.0	0.00e+00	0	43	102	1048576	16	3919
2026-01-05 01:08:47.14	275.53	53.82	-28.7	-29.6	15.5	0.00e+00	0	44	102	1048576	17	3998
2026-01-05 01:08:50.17	273.53	53.38	-29.9	-31.1	13.4	9.10e-06	0	44	102	1048576	20	4170
2026-01-05 01:08:53.19	271.59	52.91	-29.8	-31.5	13.6	4.50e-06	0	43	102	1048576	19	4383
2026-01-05 01:08:56.21	269.71	52.42	-29.5	-30.6	14.1	0.00e+00	0	43	102	1048576	19	4091
2026-01-05 01:08:59.23	267.90	51.90	-30.2	-31.7	12.7	4.80e-05	0	43	102	1048576	21	4257
2026-01-05 01:09:02.24	266.15	51.36	-29.5	-30.8	14.0	1.50e-06	0	44	102	1048576	19	4175
2026-01-05 01:09:05.26	264.47	50.79	-30.3	-32.4	12.6	7.85e-05	0	44	102	1048576	20	4613
2026-01-05 01:09:08.28	262.85	50.21	-29.4	-30.5	14.2	3.00e-06	0	43	102	1048576	19	4093
2026-01-05 01:09:11.30	261.29	49.61	-29.8	-31.1	13.4	1.52e-05	0	43	102	1048576	20	4197
2026-01-05 01:09:14.32	259.79	49.00	-30.1	-31.8	13.0	6.02e-05	0	43	102	1048576	20	4394
2026-01-05 01:09:17.34	258.35	48.38	-30.4	-32.2	12.4	2.33e-04	0	43	102	1048576	21	4447
2026-01-05 01:09:20.36	256.96	47.74	-30.9	-33.3	11.8	3.26e-04	0	44	102	1048576	21	4793
2026-01-05 01:09:23.38	255.64	47.10	-33.0	-40.0	5.1	4.36e-01	0	44	102	1048576	26	8010
2026-01-05 01:09:26.39	254.37	46.46	-32.6	-38.0	6.8	1.54e-01	0	44	102	1048576	25	6683
2026-01-05 01:09:29.42	253.14	45.80	-31.1	-33.1	11.2	2.02e-03	0	44	102	1048576	23	4534
2026-01-05 01:09:32.43	251.98	45.15	-31.0	-32.8	11.5	1.59e-03	0	44	102	1048576	23	4413
2026-01-05 01:09:35.45	250.85	44.49	-29.4	-29.8	14.4	7.00e-07	0	44	102	1048576	20	3765
2026-01-05 01:09:38.47	249.78	43.83	-31.0	-33.4	11.3	2.78e-04	0	43	102	1048576	22	4728
2026-01-05 01:09:41.48	248.75	43.18	-30.9	-33.1	11.6	1.12e-03	0	43	102	1048576	22	4612
2026-01-05 01:09:44.50	247.75	42.52	-31.7	-34.8	9.5	2.84e-02	0	44	102	1048576	24	5121
2026-01-05 01:09:47.51	246.80	41.87	-31.4	-34.0	10.5	4.00e-03	0	44	102	1048576	23	4865
2026-01-05 01:09:50.53	245.89	41.21	-30.9	-33.0	11.5	5.80e-04	0	43	102	1048576	22	4590
2026-01-05 01:09:53.55	245.01	40.57	-31.7	-35.2	9.7	1.06e-02	0	43	102	1048576	23	5356
2026-01-05 01:09:56.56	244.17	39.92	-32.0	-36.0	8.7	2.62e-02	0	43	102	1048576	24	5666
2026-01-05 01:09:59.58	243.36	39.28	-31.4	-34.0	10.6	9.91e-03	0	43	102	1048576	23	4901
2026-01-05 01:10:02.60	242.58	38.65	-31.0	-33.3	11.4	1.30e-03	0	44	102	1048576	22	4699
2026-01-05 01:10:05.62	241.83	38.02	-31.2	-34.1	10.7	2.52e-03	0	43	102	1048576	22	5021
2026-01-05 01:10:08.63	241.11	37.40	-31.9	-35.8	9.1	2.29e-02	0	44	102	1048576	23	5677
2026-01-05 01:10:11.65	240.42	36.79	-31.8	-35.5	9.1	9.13e-03	0	44	102	1048576	23	5537
2026-01-05 01:10:14.67	239.75	36.18	-31.5	-34.4	10.0	1.12e-02	0	44	102	1048576	23	5057
2026-01-05 01:10:17.69	239.11	35.58	-31.1	-33.2	11.0	1.66e-03	0	43	102	1048576	23	4604
2026-01-05 01:10:20.70	238.49	34.98	-31.5	-35.0	10.0	4.56e-03	0	44	102	1048576	22	5409
2026-01-05 01:10:23.73	237.89	34.40	-31.4	-34.4	10.0	1.01e-02	0	44	102	1048576	23	5045
2026-01-05 01:10:26.75	237.31	33.82	-30.6	-32.3	11.9	1.85e-04	0	44	102	1048576	22	4344
2026-01-05 01:10:29.77	236.76	33.24	-30.7	-32.7	11.7	4.60e-04	0	44	102	1048576	22	4497
2026-01-05 01:10:32.79	236.22	32.68	-30.9	-33.7	11.0	1.16e-03	0	44	102	1048576	21	4957
2026-01-05 01:10:35.80	235.70	32.12	-31.2	-34.0	10.6	3.05e-03	0	44	102	1048576	22	5007
2026-01-05 01:10:38.82	235.20	31.57	-31.4	-34.8	10.1	5.03e-03	0	44	102	1048576	22	5311
2026-01-05 01:10:41.84	234.72	31.03	-31.8	-35.8	8.9	2.66e-02	0	44	102	1048576	23	5720
2026-01-05 01:10:44.85	234.25	30.50	-31.2	-34.1	10.3	6.44e-03	0	44	102	1048576	22	5054
2026-01-05 01:10:47.87	233.80	29.97	-30.8	-33.5	11.3	6.42e-04	0	44	102	1048576	21	4906
2026-01-05 01:10:50.90	233.36	29.45	-30.7	-33.2	11.5	9.26e-04	0	44	102	1048576	21	4796
2026-01-05 01:10:53.93	232.94	28.94	-31.3	-34.6	10.2	3.66e-03	0	43	102	1048576	22	5241
2026-01-05 01:10:56.94	232.53	28.44	-31.5	-34.8	9.5	2.00e-02	0	44	102	1048576	23	5284
2026-01-05 01:10:59.96	232.13	27.94	-30.7	-33.2	11.5	2.83e-03	0	44	102	1048576	21	4778
2026-01-05 01:11:02.98	231.74	27.45	-30.0	-31.7	12.8	2.14e-03	0	44	102	1048576	20	4366
2026-01-05 01:11:05.98	231.37	26.97	-30.0	-31.9	13.1	1.90e-03	0	44	102	1048576	19	4521
2026-01-05 01:11:09.00	231.01	26.50	-29.9	-31.4	13.0	1.42e-03	0	44	102	1048576	20	4260
2026-01-05 01:11:12.01	230.66	26.03	-30.0	-31.6	12.9	5.11e-05	0	44	102	1048576	20	4334
2026-01-05 01:11:15.04	230.32	25.57	-30.4	-32.7	12.1	1.86e-03	0	44	102	1048576	20	4717
2026-01-05 01:11:18.07	229.98	25.11	-30.0	-31.8	12.7	1.62e-03	0	43	102	1048576	20	4390
2026-01-05 01:11:21.09	229.66	24.67	-30.0	-32.0	13.0	1.35e-03	0	43	102	1048576	19	4535
2026-01-05 01:11:24.11	229.35	24.23	-29.9	-31.9	13.0	1.87e-03	0	44	102	1048576	19	4519
2026-01-05 01:11:27.14	229.04	23.79	-30.0	-31.6	12.8	1.72e-03	0	44	102	1048576	20	4353
2026-01-05 01:11:30.15	228.75	23.36	-30.1	-31.9	12.6	5.72e-05	0	44	102	1048576	20	4432
2026-01-05 01:11:33.17	228.46	22.94	-30.4	-32.8	12.0	2.45e-04	0	44	102	1048576	20	4746
2026-01-05 01:11:36.20	228.18	22.52	-31.1	-33.9	10.5	3.04e-03	0	43	102	1048576	22	4994
2026-01-05 01:11:39.22	227.91	22.11	-31.0	-33.6	10.7	2.84e-03	0	44	102	1048576	22	4869
2026-01-05 01:11:42.24	227.65	21.71	-30.4	-32.4	11.8	6.48e-04	0	43	102	1048576	21	4540
2026-01-05 01:11:45.26	227.39	21.31	-30.3	-32.5	12.1	4.07e-04	0	44	102	1048576	20	4666
2026-01-05 01:11:48.27	227.14	20.92	-30.7	-33.2	11.3	1.23e-03	0	43	102	1048576	21	4819
2026-01-05 01:11:51.28	226.90	20.53	-30.9	-33.8	10.8	2.10e-03	0	44	102	1048576	21	5069
2026-01-05 01:11:54.31	226.66	20.15	-30.5	-32.8	11.4	1.31e-03	0	44	102	1048576	21	4686
2026-01-05 01:11:57.34	226.42	19.77	-30.7	-33.4	11.0	2.17e-03	0	43	102	1048576	21	4919
2026-01-05 01:12:00.36	226.20	19.40	-30.6	-32.9	11.3	1.48e-03	0	44	102	1048576	21	4731
2026-01-05 01:12:03.38	225.98	19.03	-30.5	-32.8	11.5	1.24e-03	0	44	102	1048576	21	4673
2026-01-05 01:12:06.41	225.76	18.67	-30.5	-32.8	11.4	1.79e-03	0	43	102	1048576	21	4687
2026-01-05 01:12:09.42	225.55	18.31	-30.5	-32.8	11.4	3.78e-03	0	44	102	1048576	21	4698
2026-01-05 01:12:12.43	225.35	17.96	-30.6	-33.2	11.1	4.45e-03	0	44	102	1048576	21	4859
2026-01-05 01:12:15.45	225.15	17.61	-30.8	-33.6	10.7	6.13e-03	0	44	102	1048576	21	5018
2026-01-05 01:12:18.47	224.95	17.27	-31.0	-34.1	10.1	8.81e-03	0	44	102	1048576	22	5099
2026-01-05 01:12:21.49	224.76	16.93	-30.8	-33.9	10.5	6.72e-03	0	44	102	1048576	21	5144
2026-01-05 01:12:24.50	224.57	16.59	-30.9	-34.2	10.3	4.68e-03	0	43	102	1048576	21	5258
2026-01-05 01:12:27.53	224.39	16.26	-30.9	-34.1	10.3	8.52e-03	0	44	102	1048576	21	5223
2026-01-05 01:12:30.54	224.21	15.94	-30.8	-34.0	10.4	8.26e-03	0	44	102	1048576	21	5187
2026-01-05 01:12:33.56	224.04	15.62	-30.9	-34.2	10.2	9.48e-03	0	44	102	1048576	21	5263
2026-01-05 01:12:36.58	223.87	15.30	-30.8	-33.8	10.5	5.96e-03	0	43	102	1048576	21	5096
2026-01-05 01:12:39.60	223.70	14.98	-30.8	-33.6	10.2	1.20e-02	0	44	102	1048576	22	4921
2026-01-05 01:12:42.61	223.54	14.67	-30.7	-33.7	10.5	2.67e-03	0	43	102	1048576	21	5088
2026-01-05 01:12:45.64	223.38	14.36	-30.7	-33.8	10.4	5.17e-03	0	44	102	1048576	21	5116
2026-01-05 01:12:48.65	223.22	14.06	-31.0	-34.0	9.9	9.55e-03	0	44	102	1048576	22	5127
2026-01-05 01:12:51.67	223.07	13.76	-31.1	-34.6	9.4	1.70e-02	0	44	102	1048576	22	5372
2026-01-05 01:12:54.70	222.92	13.46	-31.1	-34.6	9.4	1.54e-02	0	43	102	1048576	22	5373
2026-01-05 01:12:57.72	222.77	13.17	-31.0	-34.4	9.4	2.69e-02	0	44	102	1048576	22	5331
2026-01-05 01:13:00.74	222.63	12.88	-30.7	-33.8	10.2	5.33e-03	0	44	102	1048576	21	5160
2026-01-05 01:13:03.76	222.49	12.60	-31.1	-34.8	9.1	1.24e-02	0	44	102	1048576	22	5502
2026-01-05 01:13:06.78	222.35	12.31	-31.3	-35.5	8.6	2.85e-02	0	44	102	1048576	22	5834
2026-01-05 01:13:09.80	222.22	12.03	-31.2	-35.3	8.7	3.35e-02	0	44	102	1048576	22	5747
2026-01-05 01:13:12.82	222.08	11.75	-31.4	-36.0	8.1	4.50e-02	0	44	102	1048576	22	6124
2026-01-05 01:13:15.84	221.96	11.48	-31.5	-36.6	7.6	7.73e-02	0	44	102	1048576	22	6463
2026-01-05 01:13:18.85	221.83	11.21	-31.5	-36.1	7.6	9.23e-02	0	44	102	1048576	23	6103
2026-01-05 01:13:21.87	221.70	10.94	-31.5	-36.1	7.5	9.44e-02	0	44	102	1048576	23	6127
2026-01-05 01:13:24.90	221.58	10.67	-31.3	-35.2	8.2	7.48e-02	0	44	102	1048576	23	5653
2026-01-05 01:13:27.91	221.46	10.41	-31.0	-34.6	9.0	2.43e-02	0	44	102	1048576	22	5455
2026-01-05 01:13:30.92	221.34	10.15	-31.0	-34.6	9.0	2.81e-02	0	44	102	1048576	22	5441
2026-01-05 01:13:33.93	221.23	9.89	-30.9	-34.5	9.1	2.64e-02	0	44	102	1048576	22	5411
2026-01-05 01:13:36.95	221.12	9.64	-30.9	-34.8	9.1	1.76e-02	0	44	102	1048576	21	5645
2026-01-05 01:13:39.97	221.01	9.39	-30.8	-34.2	9.2	2.30e-02	0	44	102	1048576	22	5280
2026-01-05 01:13:42.99	220.90	9.14	-30.7	-34.4	9.4	1.82e-02	0	44	102	1048576	21	5469
2026-01-05 01:13:46.00	220.79	8.89	-30.8	-34.7	9.1	2.28e-02	0	44	102	1048576	21	5642
2026-01-05 01:13:49.02	220.68	8.64	-30.9	-35.1	8.7	2.83e-02	0	44	102	1048576	21	5844
2026-01-05 01:13:52.03	220.58	8.40	-30.7	-34.2	9.4	1.48e-02	0	44	102	1048576	21	5402
2026-01-05 01:13:55.05	220.48	8.16	-30.6	-34.2	9.4	1.93e-02	0	44	102	1048576	21	5421
2026-01-05 01:13:58.07	220.38	7.92	-30.6	-34.2	9.4	1.63e-02	0	44	102	1048576	21	5405
2026-01-05 01:14:01.09	220.28	7.68	-30.6	-34.2	9.3	1.80e-02	0	44	102	1048576	21	5456
2026-01-05 01:14:04.10	220.19	7.45	-30.5	-33.8	9.6	1.68e-02	0	44	102	1048576	21	5271
2026-01-05 01:14:07.13	220.09	7.22	-30.6	-34.0	9.4	1.58e-02	0	44	102	1048576	21	5365
2026-01-05 01:14:10.15	220.00	6.99	-32.9	-45.6	3.8	1.49e+00	0	44	104	1048576	25	15410

#Closed at: 2026-01-05 01:14:11
#Recorded file [1 MB]: D:/data/31010_260105_040629.dat