passes_logs/2026/01/05/R2M6_AANII_01/R2M6_AANII_01__20260105_023258_AQUA_rec.log

#Pass ID: 20260105_023258_AQUA
#Satellite: AQUA
#Configuration: AQUA
#almurnet v.1.7.20240730
#Start time: 2026-01-05 02:32:57

#Version: 2.2.20231116
#Station: R2M6_AANII_01
#Location: 30.233357 lon 59.946436 lat
#TLE: 1 27424U 02022A   26003.93831470  .00001925  00000+0  39553-3 0  9995
#TLE: 2 27424  98.4067 330.1809 0002003  92.1713 343.8415 14.61796291259276

#Time	Az	El	Level	Level2	SNR	BER	BlckErr	Temp	State	Recorded	gain1	gain2
2026-01-05 02:32:57.96	13.63	6.94	-32.1	-42.4	4.6	7.20e-01	0	41	0	0	25	11781
2026-01-05 02:33:00.96	13.53	7.18	-32.0	-40.9	10.2	6.17e-01	0	41	102	524288	24	9984
2026-01-05 02:33:03.99	13.43	7.42	-32.0	-41.0	10.2	6.21e-01	0	41	102	524288	24	10100
2026-01-05 02:33:06.99	13.32	7.67	-32.0	-40.5	10.6	6.15e-01	0	41	102	524288	24	9627
2026-01-05 02:33:10.02	13.21	7.92	-31.7	-38.5	12.5	6.06e-01	0	41	102	524288	24	7895
2026-01-05 02:33:13.04	13.10	8.17	-31.3	-37.1	14.0	6.02e-01	0	41	102	524288	23	7065
2026-01-05 02:33:16.06	12.99	8.43	-31.1	-36.8	14.8	6.02e-01	0	41	102	524288	22	6931
2026-01-05 02:33:19.07	12.87	8.68	-31.2	-36.7	14.5	6.04e-01	0	41	102	524288	23	6764
2026-01-05 02:33:22.07	12.75	8.94	-30.5	-35.3	16.3	6.04e-01	0	41	102	524288	21	6232
2026-01-05 02:33:25.10	12.63	9.21	-30.2	-34.2	17.2	6.00e-01	0	41	102	524288	21	5678
2026-01-05 02:33:28.12	12.51	9.47	-30.2	-34.2	17.2	6.02e-01	0	42	102	524288	21	5687
2026-01-05 02:33:31.14	12.38	9.74	-30.2	-34.0	17.3	6.04e-01	0	42	102	524288	21	5591
2026-01-05 02:33:34.16	12.25	10.01	-30.2	-34.1	17.3	6.01e-01	0	42	102	524288	21	5627
2026-01-05 02:33:37.18	12.12	10.29	-30.2	-33.9	17.4	5.98e-01	0	42	102	524288	21	5564
2026-01-05 02:33:40.20	11.98	10.57	-30.1	-33.8	17.4	6.03e-01	0	42	102	524288	21	5515
2026-01-05 02:33:43.22	11.85	10.85	-30.0	-34.0	17.7	6.01e-01	0	42	102	524288	20	5682
2026-01-05 02:33:46.24	11.70	11.14	-30.2	-34.0	17.4	6.00e-01	0	42	102	524288	21	5573
2026-01-05 02:33:49.26	11.56	11.43	-30.1	-33.8	17.4	6.01e-01	0	42	102	524288	21	5497
2026-01-05 02:33:52.27	11.41	11.72	-29.2	-33.3	17.2	6.01e-01	0	42	102	524288	21	5729
2026-01-05 02:33:55.29	11.26	12.02	-30.0	-33.9	17.5	6.04e-01	0	42	102	524288	20	5638
2026-01-05 02:33:58.32	11.11	12.32	-30.3	-34.2	17.3	6.00e-01	0	42	102	524288	21	5661
2026-01-05 02:34:01.34	10.95	12.62	-30.0	-34.1	17.8	6.03e-01	0	42	102	524288	20	5715
2026-01-05 02:34:04.35	10.78	12.93	-30.2	-33.8	17.6	6.02e-01	0	42	102	524288	21	5493
2026-01-05 02:34:07.36	10.62	13.24	-30.0	-33.8	18.0	6.02e-01	0	42	102	524288	20	5583
2026-01-05 02:34:10.38	10.45	13.56	-29.8	-33.3	18.4	6.03e-01	0	42	102	524288	20	5366
2026-01-05 02:34:13.40	10.27	13.88	-29.9	-33.7	18.1	6.00e-01	0	42	102	524288	20	5536
2026-01-05 02:34:16.43	10.09	14.21	-29.8	-33.2	17.3	6.03e-01	0	42	102	524288	20	5317
2026-01-05 02:34:19.45	9.91	14.54	-29.9	-33.4	17.2	6.02e-01	0	42	102	524288	20	5407
2026-01-05 02:34:22.47	9.72	14.88	-29.7	-33.0	18.6	6.03e-01	0	42	102	524288	20	5260
2026-01-05 02:34:25.48	9.53	15.22	-29.7	-33.0	18.6	6.01e-01	0	42	102	524288	20	5254
2026-01-05 02:34:28.51	9.33	15.56	-29.8	-33.1	18.6	6.04e-01	0	43	102	524288	20	5284
2026-01-05 02:34:31.53	9.12	15.91	-29.6	-32.7	18.9	6.03e-01	0	42	102	524288	20	5145
2026-01-05 02:34:34.54	8.91	16.27	-29.5	-32.4	19.1	6.02e-01	0	43	102	524288	20	5032
2026-01-05 02:34:37.56	8.70	16.63	-29.5	-32.9	19.2	6.01e-01	0	43	102	524288	19	5309
2026-01-05 02:34:40.58	8.48	17.00	-29.6	-33.0	19.1	6.02e-01	0	43	102	524288	19	5320
2026-01-05 02:34:43.60	8.25	17.37	-29.7	-33.0	18.7	6.02e-01	0	43	102	524288	20	5231
2026-01-05 02:34:46.62	8.02	17.75	-29.7	-32.9	18.8	6.00e-01	0	43	102	524288	20	5196
2026-01-05 02:34:49.64	7.78	18.13	-29.8	-33.1	18.7	6.02e-01	0	43	102	524288	20	5261
2026-01-05 02:34:52.65	7.53	18.52	-30.0	-33.6	18.5	6.04e-01	0	43	102	524288	20	5443
2026-01-05 02:34:55.68	7.27	18.92	-29.8	-33.1	18.8	6.01e-01	0	43	102	524288	20	5247
2026-01-05 02:34:58.69	7.01	19.32	-29.8	-33.0	18.8	6.01e-01	0	43	102	524288	20	5224
2026-01-05 02:35:01.72	6.74	19.73	-29.7	-32.7	19.0	6.02e-01	0	43	102	524288	20	5112
2026-01-05 02:35:04.74	6.46	20.15	-29.6	-32.6	19.2	6.04e-01	0	43	102	524288	20	5053
2026-01-05 02:35:07.75	6.18	20.57	-29.7	-32.9	19.0	6.03e-01	0	43	102	524288	20	5182
2026-01-05 02:35:10.76	5.88	21.00	-29.9	-33.4	18.6	6.00e-01	0	43	102	524288	20	5385
2026-01-05 02:35:13.78	5.58	21.44	-30.1	-33.4	18.3	6.02e-01	0	43	102	524288	21	5271
2026-01-05 02:35:16.80	5.27	21.89	-30.1	-33.4	18.3	6.04e-01	0	43	102	524288	21	5261
2026-01-05 02:35:19.82	4.94	22.34	-30.1	-33.3	18.4	6.06e-01	0	43	102	524288	21	5217
2026-01-05 02:35:22.84	4.61	22.80	-30.1	-33.4	18.3	6.02e-01	0	43	102	524288	21	5263
2026-01-05 02:35:25.86	4.26	23.27	-30.4	-34.1	17.9	6.00e-01	0	43	102	524288	21	5544
2026-01-05 02:35:28.88	3.91	23.75	-29.2	-32.6	18.2	6.00e-01	0	43	102	524288	21	5310
2026-01-05 02:35:31.89	3.54	24.24	-30.2	-33.5	18.3	6.01e-01	0	43	102	524288	21	5297
2026-01-05 02:35:34.91	3.16	24.73	-30.1	-33.7	18.5	6.00e-01	0	43	102	524288	20	5466
2026-01-05 02:35:37.93	2.76	25.24	-30.0	-33.5	18.6	6.01e-01	0	43	102	524288	20	5404
2026-01-05 02:35:40.95	2.35	25.75	-29.9	-33.3	18.9	6.02e-01	0	43	102	524288	20	5312
2026-01-05 02:35:43.97	1.93	26.28	-29.9	-33.3	18.8	5.99e-01	0	43	102	524288	20	5319
2026-01-05 02:35:47.00	1.49	26.81	-29.7	-32.8	19.1	6.01e-01	0	43	102	524288	20	5110
2026-01-05 02:35:50.02	1.03	27.35	-29.8	-32.8	19.2	6.01e-01	0	43	102	524288	20	5131
2026-01-05 02:35:53.04	0.56	27.90	-29.9	-33.2	19.0	6.01e-01	0	43	102	524288	20	5273
2026-01-05 02:35:56.07	0.07	28.47	-29.5	-32.2	19.6	6.02e-01	0	43	102	524288	20	4909
2026-01-05 02:35:59.09	359.56	29.04	-29.4	-32.3	19.9	6.05e-01	0	43	102	524288	19	5038
2026-01-05 02:36:02.11	359.04	29.62	-29.6	-32.4	19.5	6.03e-01	0	43	102	524288	20	4957
2026-01-05 02:36:05.14	358.49	30.22	-29.5	-32.2	19.6	6.00e-01	0	43	102	524288	20	4901
2026-01-05 02:36:08.15	357.92	30.82	-29.4	-32.0	19.8	6.04e-01	0	43	102	524288	20	4820
2026-01-05 02:36:11.17	357.33	31.43	-29.6	-32.7	19.7	5.99e-01	0	43	102	524288	19	5184
2026-01-05 02:36:14.19	356.71	32.05	-29.6	-32.3	19.6	6.03e-01	0	43	102	524288	20	4927
2026-01-05 02:36:17.20	356.07	32.69	-29.6	-32.3	19.6	6.02e-01	0	43	102	524288	20	4940
2026-01-05 02:36:20.22	355.40	33.33	-29.7	-32.8	19.3	6.01e-01	0	43	102	524288	20	5095
2026-01-05 02:36:23.23	354.70	33.98	-30.1	-33.2	18.7	6.01e-01	0	43	102	524288	21	5157
2026-01-05 02:36:26.26	353.97	34.65	-29.9	-33.0	19.2	6.05e-01	0	43	102	524288	20	5183
2026-01-05 02:36:29.28	353.21	35.32	-30.4	-34.1	18.2	6.02e-01	0	43	102	524288	21	5490
2026-01-05 02:36:32.29	352.42	36.00	-30.4	-33.9	18.3	6.03e-01	0	43	102	524288	21	5416
2026-01-05 02:36:35.31	351.60	36.70	-30.6	-34.4	18.1	6.03e-01	0	43	102	524288	21	5615
2026-01-05 02:36:38.33	350.73	37.40	-30.6	-34.1	17.9	6.01e-01	0	43	102	524288	22	5379
2026-01-05 02:36:41.35	349.82	38.11	-31.0	-35.2	17.2	5.98e-01	0	43	102	524288	22	5851
2026-01-05 02:36:44.36	348.88	38.82	-31.1	-35.0	17.0	6.00e-01	0	43	102	524288	23	5630
2026-01-05 02:36:47.39	347.88	39.55	-31.2	-35.2	17.0	6.04e-01	0	43	102	524288	23	5705
2026-01-05 02:36:50.41	346.84	40.28	-31.1	-35.0	17.0	6.00e-01	0	43	102	524288	23	5646
2026-01-05 02:36:53.43	345.76	41.02	-31.0	-35.2	17.2	6.00e-01	0	43	102	524288	22	5844
2026-01-05 02:36:56.45	344.62	41.76	-30.9	-34.9	17.5	6.01e-01	0	43	102	524288	22	5687
2026-01-05 02:36:59.47	343.42	42.50	-30.9	-34.8	17.6	6.01e-01	0	43	102	524288	22	5655
2026-01-05 02:37:02.46	342.18	43.23	-31.0	-34.7	17.2	6.03e-01	0	43	102	524288	23	5497
2026-01-05 02:37:05.49	340.86	43.98	-30.8	-34.6	17.7	6.01e-01	0	43	102	524288	22	5557
2026-01-05 02:37:08.50	339.49	44.71	-30.5	-34.1	18.3	6.01e-01	0	43	102	524288	21	5439
2026-01-05 02:37:11.52	338.04	45.45	-30.6	-34.0	18.0	6.03e-01	0	43	102	524288	22	5342
2026-01-05 02:37:14.54	336.53	46.18	-30.6	-34.5	18.0	6.02e-01	0	43	102	524288	21	5627
2026-01-05 02:37:17.56	334.94	46.89	-30.7	-34.3	17.9	6.02e-01	0	43	102	524288	22	5433
2026-01-05 02:37:20.58	333.28	47.60	-30.5	-34.2	18.3	6.03e-01	0	43	102	524288	21	5518
2026-01-05 02:37:23.60	331.54	48.29	-31.0	-35.1	17.4	6.00e-01	0	43	102	524288	22	5768
2026-01-05 02:37:26.62	329.72	48.96	-31.0	-35.0	17.5	5.99e-01	0	43	102	524288	22	5738
2026-01-05 02:37:29.64	327.82	49.61	-30.6	-34.1	18.1	6.02e-01	0	43	102	524288	22	5333
2026-01-05 02:37:32.65	325.84	50.23	-30.6	-33.8	18.2	6.01e-01	0	43	102	524288	22	5250
2026-01-05 02:37:35.68	323.76	50.83	-30.6	-33.9	18.2	6.01e-01	0	43	102	524288	22	5289
2026-01-05 02:37:38.70	321.61	51.39	-30.5	-34.3	18.2	6.02e-01	0	43	102	524288	21	5547
2026-01-05 02:37:41.72	319.38	51.92	-30.3	-33.6	18.7	6.03e-01	0	43	102	524288	21	5272
2026-01-05 02:37:44.74	317.07	52.40	-30.2	-33.4	18.9	6.02e-01	0	43	102	524288	21	5182
2026-01-05 02:37:47.75	314.70	52.84	-30.2	-33.4	18.8	6.02e-01	0	43	102	524288	21	5175
2026-01-05 02:37:50.78	312.24	53.24	-30.5	-33.7	18.4	6.01e-01	0	43	102	524288	22	5186
2026-01-05 02:37:53.80	309.72	53.58	-30.4	-33.8	18.5	6.02e-01	0	43	102	524288	21	5349
2026-01-05 02:37:56.82	307.15	53.86	-30.5	-33.7	18.5	6.02e-01	0	43	102	524288	22	5179
2026-01-05 02:37:59.83	304.54	54.09	-30.5	-33.7	18.2	6.04e-01	0	43	102	524288	22	5197
2026-01-05 02:38:02.85	301.88	54.25	-30.7	-33.8	18.2	6.03e-01	0	43	102	524288	23	5104
2026-01-05 02:38:05.86	299.21	54.36	-31.1	-34.9	16.8	5.98e-01	0	43	102	524288	23	5598
2026-01-05 02:38:08.88	296.51	54.40	-30.3	-33.0	18.7	6.02e-01	0	43	102	524288	22	4916
2026-01-05 02:38:11.90	293.81	54.38	-30.4	-33.4	18.7	6.03e-01	0	43	102	524288	22	5087
2026-01-05 02:38:14.92	291.12	54.30	-30.7	-34.3	18.0	6.02e-01	0	43	102	524288	22	5455
2026-01-05 02:38:17.95	288.45	54.15	-29.9	-32.4	19.5	6.03e-01	0	43	102	524288	21	4844
2026-01-05 02:38:20.98	285.80	53.94	-29.8	-32.8	19.5	6.01e-01	0	43	102	524288	20	5084
2026-01-05 02:38:23.99	283.22	53.68	-30.2	-33.4	18.9	6.03e-01	0	43	102	524288	21	5188
2026-01-05 02:38:27.01	280.68	53.35	-30.1	-33.5	19.0	6.02e-01	0	43	102	524288	20	5369
2026-01-05 02:38:30.03	278.21	52.98	-30.4	-33.9	18.2	6.05e-01	0	43	102	524288	20	5372
2026-01-05 02:38:33.05	275.79	52.55	-29.9	-33.1	18.5	6.02e-01	0	43	102	524288	20	5200
2026-01-05 02:38:36.08	273.45	52.08	-29.8	-32.9	19.3	6.00e-01	0	43	102	524288	20	5143
2026-01-05 02:38:39.10	271.19	51.57	-30.2	-33.5	18.7	6.02e-01	0	43	102	524288	21	5255
2026-01-05 02:38:42.12	269.01	51.02	-30.5	-34.3	18.2	6.02e-01	0	43	102	524288	21	5568
2026-01-05 02:38:45.14	266.91	50.43	-30.3	-33.7	18.5	6.00e-01	0	43	102	524288	21	5328
2026-01-05 02:38:48.17	264.89	49.81	-30.5	-34.2	18.2	6.02e-01	0	43	102	524288	21	5519
2026-01-05 02:38:51.19	262.96	49.17	-30.2	-33.3	18.7	6.02e-01	0	43	102	524288	21	5190
2026-01-05 02:38:54.21	261.11	48.50	-30.4	-34.1	18.3	6.00e-01	0	43	102	524288	21	5484
2026-01-05 02:38:57.23	259.34	47.81	-30.5	-34.1	18.3	6.00e-01	0	43	102	524288	21	5495
2026-01-05 02:39:00.25	257.64	47.11	-30.7	-34.4	17.8	6.04e-01	0	43	102	524288	22	5491
2026-01-05 02:39:03.26	256.03	46.39	-30.6	-34.1	18.0	6.02e-01	0	43	102	524288	22	5383
2026-01-05 02:39:06.28	254.49	45.67	-29.6	-32.4	19.6	6.04e-01	0	43	102	524288	20	4974
2026-01-05 02:39:09.28	253.03	44.94	-29.6	-32.4	19.6	6.02e-01	0	43	102	524288	20	4959
2026-01-05 02:39:12.30	251.63	44.19	-29.4	-32.3	19.9	6.00e-01	0	43	102	524288	19	5045
2026-01-05 02:39:15.33	250.29	43.45	-29.6	-32.3	19.7	6.04e-01	0	43	102	524288	20	4916
2026-01-05 02:39:18.35	249.01	42.70	-29.8	-32.8	19.3	6.03e-01	0	43	102	524288	20	5102
2026-01-05 02:39:21.38	247.79	41.96	-29.9	-33.1	19.1	6.02e-01	0	43	102	524288	20	5206
2026-01-05 02:39:24.38	246.64	41.22	-30.0	-33.4	18.9	6.03e-01	0	43	102	524288	20	5323
2026-01-05 02:39:27.41	245.53	40.48	-30.4	-34.1	18.1	6.02e-01	0	43	102	524288	21	5486
2026-01-05 02:39:30.43	244.47	39.74	-30.6	-34.6	17.9	6.03e-01	0	43	102	524288	21	5710
2026-01-05 02:39:33.45	243.46	39.01	-31.0	-35.4	17.0	6.01e-01	0	43	102	524288	22	5939
2026-01-05 02:39:36.46	242.50	38.29	-30.8	-34.5	17.6	5.99e-01	0	43	102	524288	22	5564
2026-01-05 02:39:39.48	241.58	37.58	-30.8	-34.7	17.5	6.03e-01	0	43	102	524288	22	5609
2026-01-05 02:39:42.49	240.70	36.87	-31.4	-35.9	16.3	6.01e-01	0	43	102	524288	23	6050
2026-01-05 02:39:45.51	239.86	36.17	-31.2	-35.5	16.6	6.01e-01	0	43	102	524288	23	5892
2026-01-05 02:39:48.54	239.05	35.48	-30.5	-34.3	17.9	6.04e-01	0	43	102	524288	21	5583
2026-01-05 02:39:51.56	238.27	34.80	-30.7	-34.3	17.7	6.01e-01	0	43	102	524288	22	5466
2026-01-05 02:39:54.58	237.53	34.13	-30.9	-34.6	17.2	6.02e-01	0	43	102	524288	23	5480
2026-01-05 02:39:57.60	236.82	33.47	-29.7	-32.2	19.3	6.02e-01	0	43	102	524288	21	4778
2026-01-05 02:40:00.63	236.14	32.82	-29.7	-32.6	19.3	6.01e-01	0	43	102	524288	20	5036
2026-01-05 02:40:03.64	235.49	32.18	-29.7	-32.7	19.2	6.01e-01	0	43	102	524288	20	5093
2026-01-05 02:40:06.66	234.86	31.55	-29.6	-32.4	19.4	6.01e-01	0	43	102	524288	20	4973
2026-01-05 02:40:09.68	234.26	30.93	-29.8	-33.1	19.0	6.04e-01	0	43	102	524288	20	5260
2026-01-05 02:40:12.71	233.68	30.32	-29.4	-32.3	19.9	6.03e-01	0	43	102	524288	19	5056
2026-01-05 02:40:15.71	233.13	29.73	-29.5	-32.3	19.5	6.03e-01	0	43	102	524288	20	4936
2026-01-05 02:40:18.73	232.59	29.14	-29.4	-32.4	19.7	6.04e-01	0	43	102	524288	19	5099
2026-01-05 02:40:21.76	232.07	28.56	-29.5	-32.8	19.5	6.01e-01	0	43	102	524288	19	5225
2026-01-05 02:40:24.78	231.58	27.99	-29.5	-32.8	19.1	6.02e-01	0	43	102	524288	19	5239
2026-01-05 02:40:27.81	231.10	27.43	-30.0	-33.5	18.7	6.01e-01	0	43	102	524288	20	5423
2026-01-05 02:40:30.83	230.64	26.89	-29.9	-33.4	18.7	6.02e-01	0	43	102	524288	20	5354
2026-01-05 02:40:33.84	230.19	26.35	-29.9	-33.2	18.8	6.01e-01	0	43	102	524288	20	5312
2026-01-05 02:40:36.87	229.76	25.82	-29.8	-33.1	18.8	6.02e-01	0	43	102	524288	20	5271
2026-01-05 02:40:39.87	229.35	25.31	-29.8	-33.2	18.8	6.05e-01	0	43	102	524288	20	5289
2026-01-05 02:40:42.89	228.95	24.80	-29.9	-33.3	18.7	6.01e-01	0	43	102	524288	20	5327
2026-01-05 02:40:45.90	228.56	24.30	-29.6	-32.7	19.1	6.01e-01	0	43	102	524288	20	5100
2026-01-05 02:40:48.92	228.19	23.81	-29.9	-33.3	18.7	6.01e-01	0	43	102	524288	20	5330
2026-01-05 02:40:51.93	227.82	23.32	-30.0	-33.5	18.5	6.00e-01	0	43	102	524288	20	5445
2026-01-05 02:40:54.95	227.47	22.85	-29.9	-33.5	18.5	6.03e-01	0	43	102	524288	20	5426
2026-01-05 02:40:57.97	227.13	22.38	-29.9	-33.3	18.6	6.05e-01	0	43	102	524288	20	5354
2026-01-05 02:41:00.99	226.80	21.93	-29.8	-33.3	18.7	6.01e-01	0	43	102	524288	20	5333
2026-01-05 02:41:04.01	226.49	21.48	-29.9	-33.3	18.6	6.03e-01	0	43	102	524288	20	5356
2026-01-05 02:41:07.03	226.18	21.03	-29.9	-33.3	18.6	6.02e-01	0	43	102	524288	20	5372
2026-01-05 02:41:10.04	225.88	20.60	-29.8	-33.3	18.6	6.04e-01	0	43	102	524288	20	5356
2026-01-05 02:41:13.06	225.59	20.17	-29.8	-33.3	18.6	6.02e-01	0	43	102	524288	20	5352
2026-01-05 02:41:16.08	225.30	19.75	-29.8	-33.1	18.7	6.00e-01	0	43	102	524288	20	5290
2026-01-05 02:41:19.11	225.03	19.33	-29.8	-33.0	18.7	6.00e-01	0	43	102	524288	20	5261
2026-01-05 02:41:22.13	224.76	18.93	-29.7	-33.1	18.7	6.01e-01	0	43	102	524288	20	5267
2026-01-05 02:41:25.15	224.50	18.53	-29.7	-32.9	18.7	6.02e-01	0	43	102	524288	20	5197
2026-01-05 02:41:28.17	224.25	18.13	-29.8	-33.2	18.5	6.01e-01	0	43	102	524288	20	5349
2026-01-05 02:41:31.18	224.01	17.75	-29.4	-32.6	18.7	5.99e-01	0	43	102	524288	20	5234
2026-01-05 02:41:34.19	223.77	17.37	-29.7	-33.3	17.5	6.01e-01	0	43	102	524288	20	5426
2026-01-05 02:41:37.20	223.54	16.99	-29.8	-33.3	16.9	6.07e-01	0	43	102	524288	20	5394
2026-01-05 02:41:40.22	223.32	16.62	-29.8	-33.2	18.4	6.03e-01	0	43	102	524288	20	5356
2026-01-05 02:41:43.25	223.10	16.26	-29.8	-33.2	18.5	6.05e-01	0	43	102	524288	20	5330
2026-01-05 02:41:46.27	222.88	15.90	-29.7	-33.1	18.5	6.06e-01	0	43	102	524288	20	5308
2026-01-05 02:41:49.28	222.67	15.55	-29.7	-33.1	18.5	6.03e-01	0	43	102	524288	20	5313
2026-01-05 02:41:52.30	222.47	15.20	-29.7	-33.0	18.5	6.03e-01	0	43	102	524288	20	5268
2026-01-05 02:41:55.32	222.27	14.85	-29.7	-33.2	18.3	6.00e-01	0	43	102	524288	20	5350
2026-01-05 02:41:58.34	222.08	14.52	-29.7	-33.0	18.4	6.03e-01	0	43	102	524288	20	5285
2026-01-05 02:42:01.36	221.89	14.18	-29.8	-33.3	18.3	6.03e-01	0	43	102	524288	20	5382
2026-01-05 02:42:04.37	221.71	13.86	-29.7	-33.1	18.3	6.03e-01	0	43	102	524288	20	5303
2026-01-05 02:42:07.40	221.53	13.53	-29.7	-33.2	18.3	6.02e-01	0	43	102	524288	20	5347
2026-01-05 02:42:10.40	221.36	13.21	-29.9	-33.7	17.9	6.00e-01	0	43	102	524288	20	5556
2026-01-05 02:42:13.42	221.19	12.90	-29.9	-33.8	17.8	6.02e-01	0	43	102	524288	20	5641
2026-01-05 02:42:16.44	221.02	12.59	-29.9	-33.9	17.7	6.03e-01	0	43	102	524288	20	5659
2026-01-05 02:42:19.45	220.86	12.28	-30.0	-34.1	17.6	6.03e-01	0	43	102	524288	20	5736
2026-01-05 02:42:22.47	220.70	11.98	-29.8	-33.4	18.1	6.00e-01	0	43	102	524288	20	5457
2026-01-05 02:42:25.49	220.55	11.68	-29.8	-33.5	17.9	5.99e-01	0	43	102	524288	20	5522
2026-01-05 02:42:28.51	220.40	11.38	-29.8	-33.5	17.9	6.01e-01	0	44	102	524288	20	5503
2026-01-05 02:42:31.52	220.25	11.09	-29.9	-33.8	17.7	6.03e-01	0	43	102	524288	20	5645
2026-01-05 02:42:34.53	220.10	10.81	-29.8	-33.6	17.8	6.03e-01	0	43	102	524288	20	5574
2026-01-05 02:42:37.55	219.96	10.52	-30.1	-33.9	17.3	6.02e-01	0	43	102	524288	21	5594
2026-01-05 02:42:40.56	219.82	10.24	-30.0	-34.2	17.3	6.02e-01	0	43	102	524288	20	5851
2026-01-05 02:42:43.57	219.69	9.96	-30.0	-33.8	17.2	6.01e-01	0	43	102	524288	21	5589
2026-01-05 02:42:46.59	219.56	9.69	-30.0	-33.8	17.2	5.99e-01	0	43	102	524288	21	5557
2026-01-05 02:42:49.61	219.43	9.42	-30.2	-34.2	16.9	5.99e-01	0	43	102	524288	21	5744
2026-01-05 02:42:52.63	219.30	9.15	-30.1	-34.1	17.0	6.01e-01	0	43	102	524288	21	5676
2026-01-05 02:42:55.64	219.18	8.89	-30.1	-34.2	16.9	6.03e-01	0	43	102	524288	21	5737
2026-01-05 02:42:58.66	219.05	8.63	-30.1	-34.2	16.8	6.03e-01	0	43	102	524288	21	5754
2026-01-05 02:43:01.68	218.94	8.37	-30.2	-34.5	16.6	5.99e-01	0	43	102	524288	21	5917
2026-01-05 02:43:04.71	218.82	8.11	-30.2	-34.6	16.4	6.00e-01	0	43	102	524288	21	5969
2026-01-05 02:43:07.73	218.70	7.86	-30.3	-34.9	15.9	6.02e-01	0	43	102	524288	21	6105
2026-01-05 02:43:10.74	218.59	7.61	-30.2	-34.7	16.2	6.02e-01	0	43	102	524288	21	6015
2026-01-05 02:43:13.76	218.48	7.36	-30.3	-34.8	16.2	6.03e-01	0	43	102	524288	21	6047
2026-01-05 02:43:16.78	218.37	7.11	-30.4	-35.3	15.9	6.02e-01	0	43	102	524288	21	6317
2026-01-05 02:43:19.80	218.27	6.87	-33.5	-53.1	3.8	7.45e-01	0	43	104	524288	27	34180

#Closed at: 2026-01-05 02:43:20
#Recorded file [0 MB]: D:/data/31010_260105_053259.dat