passes_logs/2025/01/24/X_MFTI_02/X_MFTI_02__20250124_074838_TERRA_rec.log

#Pass ID: 20250124_074838_TERRA
#Satellite: TERRA
#Configuration: TERRA
#Start time: 2025-01-24 07:48:33

#Version: 1.5.20200625
#Station: X_MFTI_02
#Location: 37.5186 lon 55.9291 lat
#TLE: 1 25994U 99068A   23362.45014226  .00000817  00000+0  18168-3 0  9993
#TLE: 2 25994  98.0729  65.8244 0002317 146.5078 343.6211 14.59509299278111

#Time	Az	El	Level	Level2	SNR	BER	Gain	Gain2
2025-01-24 07:48:35.66	38.53	68.84	
2025-01-24 07:48:35.87	38.67	68.94	
2025-01-24 07:48:36.07	38.80	69.04	
2025-01-24 07:48:36.28	38.94	69.15	
2025-01-24 07:48:36.48	39.07	69.25	
2025-01-24 07:48:36.69	39.21	69.36	
2025-01-24 07:48:36.89	39.35	69.46	
2025-01-24 07:48:37.10	39.49	69.56	
2025-01-24 07:48:37.30	39.63	69.66	
2025-01-24 07:48:37.51	39.78	69.77	
2025-01-24 07:48:37.72	39.93	69.87	
2025-01-24 07:48:37.93	40.08	69.98	
2025-01-24 07:48:38.13	40.23	70.08	
2025-01-24 07:48:38.33	40.37	70.18	
2025-01-24 07:48:38.54	40.53	70.29	
2025-01-24 07:48:38.74	40.68	70.39	
2025-01-24 07:48:38.94	40.83	70.49	
2025-01-24 07:48:39.15	40.99	70.59	
2025-01-24 07:48:39.35	41.15	70.69	
2025-01-24 07:48:39.55	41.30	70.80	
2025-01-24 07:48:39.76	41.47	70.90	
2025-01-24 07:48:39.96	41.63	71.00	
2025-01-24 07:48:40.17	41.80	71.11	
2025-01-24 07:48:40.39	41.98	71.22	
2025-01-24 07:48:40.59	42.15	71.32	
2025-01-24 07:48:40.79	42.32	71.42	
2025-01-24 07:48:40.99	42.49	71.52	
2025-01-24 07:48:41.19	42.66	71.62	
2025-01-24 07:48:41.41	42.85	71.73	
2025-01-24 07:48:41.61	43.03	71.83	
2025-01-24 07:48:41.82	43.22	71.93	
2025-01-24 07:48:42.02	43.40	72.03	
2025-01-24 07:48:42.23	43.59	72.14	
2025-01-24 07:48:42.44	43.78	72.24	
2025-01-24 07:48:42.64	43.97	72.34	
2025-01-24 07:48:42.84	44.16	72.44	
2025-01-24 07:48:43.04	44.35	72.54	
2025-01-24 07:48:43.25	44.56	72.65	
2025-01-24 07:48:43.46	44.76	72.75	
2025-01-24 07:48:43.66	44.96	72.85	
2025-01-24 07:48:43.87	45.17	72.95	
2025-01-24 07:48:44.07	45.38	73.05	
2025-01-24 07:48:44.28	45.60	73.16	
2025-01-24 07:48:44.48	45.81	73.26	
2025-01-24 07:48:44.69	46.03	73.36	
2025-01-24 07:48:44.89	46.24	73.46	
2025-01-24 07:48:45.10	46.47	73.56	
2025-01-24 07:48:45.30	46.69	73.66	
2025-01-24 07:48:45.51	46.93	73.76	
2025-01-24 07:48:45.72	47.16	73.87	
2025-01-24 07:48:45.92	47.39	73.96	
2025-01-24 07:48:46.13	47.64	74.07	
2025-01-24 07:48:46.34	47.88	74.17	
2025-01-24 07:48:46.54	48.12	74.27	
2025-01-24 07:48:46.75	48.38	74.37	
2025-01-24 07:48:46.95	48.62	74.46	
2025-01-24 07:48:47.15	48.87	74.56	
2025-01-24 07:48:47.37	49.15	74.67	
2025-01-24 07:48:47.57	49.40	74.76	
2025-01-24 07:48:47.78	49.67	74.86	
2025-01-24 07:48:47.98	49.93	74.96	
2025-01-24 07:48:48.18	50.20	75.06	
2025-01-24 07:48:48.39	50.48	75.16	
2025-01-24 07:48:48.59	50.76	75.25	
2025-01-24 07:48:48.79	51.03	75.35	
2025-01-24 07:48:49.00	51.33	75.44	
2025-01-24 07:48:49.20	51.61	75.54	
2025-01-24 07:48:49.40	51.90	75.63	
2025-01-24 07:48:49.61	52.20	75.73	
2025-01-24 07:48:49.82	52.52	75.83	
2025-01-24 07:48:50.02	52.82	75.92	
2025-01-24 07:48:50.23	53.14	76.02	
2025-01-24 07:48:50.43	53.44	76.11	
2025-01-24 07:48:50.64	53.77	76.21	
2025-01-24 07:48:50.85	54.11	76.30	
2025-01-24 07:48:51.05	54.43	76.40	
2025-01-24 07:48:51.26	54.77	76.49	
2025-01-24 07:48:51.46	55.10	76.58	
2025-01-24 07:48:51.67	55.46	76.68	
2025-01-24 07:48:51.87	55.80	76.77	
2025-01-24 07:48:52.08	56.16	76.86	
2025-01-24 07:48:52.29	56.53	76.95	
2025-01-24 07:48:52.50	56.90	77.05	
2025-01-24 07:48:52.70	57.27	77.13	
2025-01-24 07:48:52.90	57.63	77.22	
2025-01-24 07:48:53.11	58.02	77.31	
2025-01-24 07:48:53.31	58.40	77.40	
2025-01-24 07:48:53.51	58.78	77.49	
2025-01-24 07:48:53.72	59.19	77.58	
2025-01-24 07:48:53.92	59.58	77.66	
2025-01-24 07:48:54.13	60.00	77.75	
2025-01-24 07:48:54.34	60.43	77.84	
2025-01-24 07:48:54.54	60.84	77.92	
2025-01-24 07:48:54.75	61.28	78.01	
2025-01-24 07:48:54.95	61.70	78.09	
2025-01-24 07:48:55.16	62.15	78.18	
2025-01-24 07:48:55.36	62.59	78.26	
2025-01-24 07:48:55.57	63.05	78.34	
2025-01-24 07:48:55.77	63.50	78.42	
2025-01-24 07:48:55.97	63.96	78.50	
2025-01-24 07:48:56.18	64.44	78.58	
2025-01-24 07:48:56.39	64.93	78.67	
2025-01-24 07:48:56.59	65.41	78.74	
2025-01-24 07:48:56.79	65.89	78.82	
2025-01-24 07:48:57.00	66.40	78.90	
2025-01-24 07:48:57.20	66.90	78.97	
2025-01-24 07:48:57.40	67.40	79.05	
2025-01-24 07:48:57.60	67.91	79.12	
2025-01-24 07:48:57.81	68.45	79.19	
2025-01-24 07:48:58.01	68.98	79.27	
2025-01-24 07:48:58.22	69.54	79.34	
2025-01-24 07:48:58.42	70.07	79.41	
2025-01-24 07:48:58.62	70.62	79.48	
2025-01-24 07:48:58.83	71.20	79.55	
2025-01-24 07:48:59.04	71.79	79.62	
2025-01-24 07:48:59.25	72.39	79.69	
2025-01-24 07:48:59.46	72.99	79.76	
2025-01-24 07:48:59.67	73.60	79.82	
2025-01-24 07:48:59.87	74.20	79.89	
2025-01-24 07:49:00.08	74.82	79.95	
2025-01-24 07:49:00.29	75.46	80.01	
2025-01-24 07:49:00.50	76.11	80.08	
2025-01-24 07:49:00.70	76.73	80.13	
2025-01-24 07:49:00.90	77.36	80.19	
2025-01-24 07:49:01.11	78.03	80.25	
2025-01-24 07:49:01.31	78.67	80.30	
2025-01-24 07:49:01.52	79.36	80.36	
2025-01-24 07:49:01.72	80.02	80.41	
2025-01-24 07:49:01.93	80.72	80.46	
2025-01-24 07:49:02.14	81.43	80.52	
2025-01-24 07:49:02.34	82.11	80.56	
2025-01-24 07:49:02.55	82.83	80.61	
2025-01-24 07:49:02.76	83.56	80.66	
2025-01-24 07:49:02.97	84.30	80.71	
2025-01-24 07:49:03.17	85.01	80.75	
2025-01-24 07:49:03.38	85.77	80.79	
2025-01-24 07:49:03.58	86.49	80.83	
2025-01-24 07:49:03.79	87.26	80.87	
2025-01-24 07:49:03.99	87.99	80.91	
2025-01-24 07:49:04.20	88.77	80.95	
2025-01-24 07:49:04.40	89.52	80.98	
2025-01-24 07:49:04.60	90.27	81.01	
2025-01-24 07:49:04.81	91.07	81.04	
2025-01-24 07:49:05.01	91.84	81.07	
2025-01-24 07:49:05.22	92.64	81.10	
2025-01-24 07:49:05.43	93.46	81.13	
2025-01-24 07:49:05.64	94.27	81.15	
2025-01-24 07:49:05.84	95.06	81.18	
2025-01-24 07:49:06.05	95.88	81.20	
2025-01-24 07:49:06.25	96.68	81.22	
2025-01-24 07:49:06.45	97.47	81.23	
2025-01-24 07:49:06.66	98.31	81.25	
2025-01-24 07:49:06.86	99.11	81.26	
2025-01-24 07:49:07.07	99.95	81.28	
2025-01-24 07:49:07.27	100.75	81.29	
2025-01-24 07:49:07.48	101.60	81.30	
2025-01-24 07:49:07.68	102.41	81.30	
2025-01-24 07:49:07.88	103.22	81.31	
2025-01-24 07:49:08.08	104.03	81.31	
2025-01-24 07:49:08.30	104.92	81.31	
2025-01-24 07:49:08.50	105.73	81.31	
2025-01-24 07:49:08.71	106.58	81.31	
2025-01-24 07:49:08.92	107.43	81.31	
2025-01-24 07:49:09.12	108.24	81.30	
2025-01-24 07:49:09.33	109.09	81.29	
2025-01-24 07:49:09.53	109.90	81.29	
2025-01-24 07:49:09.73	110.70	81.27	
2025-01-24 07:49:09.94	111.54	81.26	
2025-01-24 07:49:10.14	112.34	81.25	
2025-01-24 07:49:10.34	113.14	81.23	
2025-01-24 07:49:10.55	113.97	81.21	
2025-01-24 07:49:10.77	114.84	81.19	
2025-01-24 07:49:10.97	115.63	81.17	
2025-01-24 07:49:11.17	116.41	81.15	
2025-01-24 07:49:11.38	117.23	81.12	
2025-01-24 07:49:11.58	118.00	81.10	
2025-01-24 07:49:11.78	118.77	81.07	
2025-01-24 07:49:11.99	119.57	81.04	
2025-01-24 07:49:12.20	120.37	81.01	
2025-01-24 07:49:12.40	121.12	80.97	
2025-01-24 07:49:12.61	121.91	80.94	
2025-01-24 07:49:12.81	122.65	80.90	
2025-01-24 07:49:13.02	123.42	80.87	
2025-01-24 07:49:13.22	124.15	80.83	
2025-01-24 07:49:13.42	124.87	80.79	
2025-01-24 07:49:13.63	125.63	80.74	
2025-01-24 07:49:13.83	126.34	80.70	
2025-01-24 07:49:14.04	127.07	80.65	
2025-01-24 07:49:14.24	127.77	80.61	
2025-01-24 07:49:14.45	128.49	80.56	
2025-01-24 07:49:14.66	129.21	80.51	
2025-01-24 07:49:14.86	129.88	80.46	
2025-01-24 07:49:15.07	130.58	80.41	
2025-01-24 07:49:15.27	131.24	80.35	
2025-01-24 07:49:15.48	131.93	80.30	
2025-01-24 07:49:15.68	132.57	80.24	
2025-01-24 07:49:15.88	133.21	80.19	
2025-01-24 07:49:16.10	133.90	80.12	
2025-01-24 07:49:16.30	134.52	80.07	
2025-01-24 07:49:16.50	135.14	80.01	
2025-01-24 07:49:16.71	135.77	79.94	
2025-01-24 07:49:16.92	136.40	79.88	
2025-01-24 07:49:17.12	136.99	79.82	
2025-01-24 07:49:17.33	137.60	79.75	
2025-01-24 07:49:17.53	138.18	79.68	
2025-01-24 07:49:17.74	138.78	79.62	
2025-01-24 07:49:17.94	139.34	79.55	
2025-01-24 07:49:18.15	139.92	79.48	
2025-01-24 07:49:18.35	140.46	79.41	
2025-01-24 07:49:18.56	141.03	79.34	
2025-01-24 07:49:18.76	141.56	79.26	
2025-01-24 07:49:18.97	142.11	79.19	
2025-01-24 07:49:19.17	142.63	79.12	
2025-01-24 07:49:19.38	143.16	79.04	
2025-01-24 07:49:19.58	143.67	78.97	
2025-01-24 07:49:19.78	144.16	78.89	
2025-01-24 07:49:19.98	144.65	78.82	
2025-01-24 07:49:20.19	145.16	78.74	
2025-01-24 07:49:20.39	145.63	78.66	
2025-01-24 07:49:20.59	146.10	78.58	
2025-01-24 07:49:20.80	146.58	78.50	
2025-01-24 07:49:21.00	147.04	78.42	
2025-01-24 07:49:21.20	147.49	78.34	
2025-01-24 07:49:21.41	147.95	78.26	
2025-01-24 07:49:21.61	148.39	78.18	
2025-01-24 07:49:21.81	148.82	78.09	
2025-01-24 07:49:22.02	149.26	78.01	
2025-01-24 07:49:22.22	149.68	77.92	
2025-01-24 07:49:22.43	150.11	77.84	
2025-01-24 07:49:22.63	150.52	77.75	
2025-01-24 07:49:22.83	150.92	77.67	
2025-01-24 07:49:23.04	151.33	77.58	
2025-01-24 07:49:23.24	151.72	77.49	
2025-01-24 07:49:23.45	152.13	77.40	
2025-01-24 07:49:23.65	152.50	77.32	
2025-01-24 07:49:23.86	152.89	77.22	
2025-01-24 07:49:24.06	153.26	77.14	
2025-01-24 07:49:24.27	153.64	77.04	
2025-01-24 07:49:24.48	154.02	76.95	
2025-01-24 07:49:24.68	154.37	76.86	
2025-01-24 07:49:24.89	154.73	76.77	
2025-01-24 07:49:25.09	155.07	76.68	
2025-01-24 07:49:25.30	155.43	76.58	
2025-01-24 07:49:25.50	155.76	76.49	
2025-01-24 07:49:25.72	156.12	76.39	
2025-01-24 07:49:25.92	156.44	76.30	
2025-01-24 07:49:26.12	156.76	76.21	
2025-01-24 07:49:26.33	157.09	76.11	
2025-01-24 07:49:26.53	157.40	76.02	
2025-01-24 07:49:26.74	157.72	75.92	
2025-01-24 07:49:26.94	158.02	75.83	
2025-01-24 07:49:27.14	158.31	75.73	
2025-01-24 07:49:27.34	158.61	75.64	
2025-01-24 07:49:27.55	158.91	75.54	
2025-01-24 07:49:27.75	159.19	75.45	
2025-01-24 07:49:27.96	159.49	75.35	
2025-01-24 07:49:28.16	159.77	75.25	
2025-01-24 07:49:28.36	160.04	75.16	
2025-01-24 07:49:28.57	160.32	75.06	
2025-01-24 07:49:28.77	160.59	74.96	
2025-01-24 07:49:28.98	160.86	74.86	
2025-01-24 07:49:29.19	161.14	74.76	
2025-01-24 07:49:29.40	161.40	74.66	
2025-01-24 07:49:29.60	161.65	74.56	
2025-01-24 07:49:29.81	161.92	74.46	
2025-01-24 07:49:30.01	162.16	74.36	
2025-01-24 07:49:30.22	162.41	74.26	
2025-01-24 07:49:30.43	162.67	74.16	
2025-01-24 07:49:30.64	162.91	74.06	
2025-01-24 07:49:30.85	163.16	73.96	
2025-01-24 07:49:31.05	163.39	73.86	
2025-01-24 07:49:31.26	163.62	73.75	
2025-01-24 07:49:31.46	163.85	73.66	
2025-01-24 07:49:31.67	164.08	73.55	
2025-01-24 07:49:31.89	164.32	73.44	
2025-01-24 07:49:32.09	164.53	73.35	
2025-01-24 07:49:32.29	164.75	73.25	
2025-01-24 07:49:32.50	164.97	73.14	
2025-01-24 07:49:32.70	165.17	73.04	
2025-01-24 07:49:32.91	165.39	72.94	
2025-01-24 07:49:33.11	165.59	72.84	
2025-01-24 07:49:33.31	165.79	72.74	
2025-01-24 07:49:33.51	165.99	72.64	
2025-01-24 07:49:33.72	166.19	72.54	
2025-01-24 07:49:33.92	166.38	72.44	
2025-01-24 07:49:34.12	166.57	72.34	
2025-01-24 07:49:34.33	166.77	72.23	
2025-01-24 07:49:34.53	166.95	72.13	
2025-01-24 07:49:34.73	167.14	72.03	
2025-01-24 07:49:34.94	167.33	71.93	
2025-01-24 07:49:35.14	167.51	71.83	
2025-01-24 07:49:35.35	167.69	71.72	
2025-01-24 07:49:35.55	167.87	71.62	
2025-01-24 07:49:35.76	168.05	71.52	
2025-01-24 07:49:35.96	168.22	71.42	
2025-01-24 07:49:36.16	168.39	71.31	
2025-01-24 07:49:36.37	168.56	71.21	
2025-01-24 07:49:36.57	168.73	71.11	
2025-01-24 07:49:36.78	168.90	71.00	
2025-01-24 07:49:36.98	169.06	70.90	
2025-01-24 07:49:37.19	169.22	70.80	
2025-01-24 07:49:37.39	169.38	70.70	
2025-01-24 07:49:37.59	169.54	70.59	
2025-01-24 07:49:37.80	169.70	70.49	
2025-01-24 07:49:38.01	169.86	70.38	
2025-01-24 07:49:38.21	170.01	70.28	
2025-01-24 07:49:38.41	170.16	70.18	
2025-01-24 07:49:38.61	170.31	70.08	

#Closed at: 2025-01-24 07:49:38