passes_logs/2026/01/18/R3.2S_Murmansk/R3.2S_Murmansk__20260118_071341_NOAA_20_JPSS-1_rec.log

#Pass ID: 20260118_071341_NOAA 20 (JPSS-1)
#Satellite: NOAA 20 (JPSS-1)
#Configuration: NOAA 20
#almurnet v.1.7.20251203
#Start time: 2026-01-18 07:13:40

#Version: 2.2.20231116
#Station: R3.2S_Murmansk
#Location: 33.079688 lon 68.888172 lat
#TLE: 1 43013U 17073A   26017.58553584  .00000066  00000+0  52288-4 0  9998
#TLE: 2 43013  98.7639 318.4977 0001406  35.6039 324.5231 14.19536575423107

#Time	Az	El	Level	Level2	SNR	BER	BlckErr	Temp	State	Recorded	gain1	gain2
2026-01-18 07:13:40.92	99.67	1.97	-53.8	-68.8	3.8	1.49e+00	0	34	0	0	78	21204
2026-01-18 07:13:43.94	99.53	2.15	-53.8	-68.8	3.8	1.49e+00	0	34	104	0	78	21191
2026-01-18 07:13:46.96	99.38	2.33	-53.8	-68.8	3.8	1.49e+00	0	34	104	0	78	21213
2026-01-18 07:13:49.98	99.23	2.52	-53.8	-68.8	3.8	1.49e+00	0	34	104	0	78	21151
2026-01-18 07:13:53.01	99.08	2.70	-53.8	-68.8	3.8	1.49e+00	0	34	104	0	78	21177
2026-01-18 07:13:56.03	98.93	2.89	-53.8	-68.8	3.8	1.49e+00	0	35	104	0	78	21168
2026-01-18 07:13:59.05	98.78	3.07	-53.8	-68.8	3.8	1.49e+00	0	35	104	0	78	21074
2026-01-18 07:14:02.08	98.62	3.26	-53.8	-68.8	3.8	1.49e+00	0	34	104	0	78	21145
2026-01-18 07:14:05.10	98.47	3.45	-53.8	-68.8	3.8	1.49e+00	0	35	104	0	78	21128
2026-01-18 07:14:08.12	98.31	3.64	-53.8	-68.8	3.8	1.49e+00	0	35	104	0	78	21109
2026-01-18 07:14:11.15	98.15	3.84	-53.8	-68.8	3.8	1.49e+00	0	35	104	0	78	21040
2026-01-18 07:14:14.17	97.98	4.03	-53.8	-68.8	3.8	1.49e+00	0	35	104	0	78	21096
2026-01-18 07:14:17.20	97.81	4.22	-53.8	-68.8	3.8	1.49e+00	0	35	104	0	78	21025
2026-01-18 07:14:20.23	97.64	4.42	-53.8	-68.8	3.8	1.49e+00	0	35	104	0	78	21083
2026-01-18 07:14:23.25	97.47	4.61	-53.8	-68.8	3.8	1.49e+00	0	35	104	0	78	21090
2026-01-18 07:14:26.27	97.30	4.81	-53.8	-68.8	3.8	1.49e+00	0	35	104	0	78	21086
2026-01-18 07:14:29.30	97.12	5.01	-53.8	-68.8	3.8	1.49e+00	0	35	104	0	78	21041
2026-01-18 07:14:32.33	96.94	5.21	-53.8	-68.8	3.8	1.49e+00	0	35	104	0	78	21049
2026-01-18 07:14:35.35	96.76	5.41	-53.8	-68.8	3.8	1.49e+00	0	35	104	0	78	21147
2026-01-18 07:14:38.37	96.58	5.61	-53.8	-68.8	3.8	1.49e+00	0	35	104	0	78	21079
2026-01-18 07:14:41.40	96.39	5.82	-53.8	-68.8	3.8	1.49e+00	0	35	104	0	78	21069
2026-01-18 07:14:44.43	96.20	6.02	-53.8	-68.8	3.8	1.49e+00	0	35	104	0	78	21088
2026-01-18 07:14:47.45	96.01	6.23	-53.8	-68.8	3.8	1.49e+00	0	35	104	0	78	21102
2026-01-18 07:14:50.48	95.81	6.44	-53.8	-68.8	3.8	1.49e+00	0	35	104	0	78	21073
2026-01-18 07:14:53.50	95.62	6.65	-53.8	-68.8	3.8	1.49e+00	0	35	104	0	78	21095
2026-01-18 07:14:56.53	95.41	6.86	-53.8	-68.8	3.8	1.49e+00	0	35	104	0	78	21086
2026-01-18 07:14:59.55	95.21	7.07	-53.8	-68.8	3.8	1.49e+00	0	36	104	0	78	21048
2026-01-18 07:15:02.58	95.00	7.28	-53.8	-68.8	3.8	1.49e+00	0	35	104	0	78	21068
2026-01-18 07:15:05.60	94.79	7.50	-53.8	-68.8	3.8	1.49e+00	0	36	104	0	78	21095
2026-01-18 07:15:08.62	94.58	7.71	-53.7	-68.7	3.8	1.49e+00	0	36	104	0	78	21007
2026-01-18 07:15:11.65	94.36	7.93	-53.7	-68.8	3.8	1.49e+00	0	36	104	0	78	21049
2026-01-18 07:15:14.67	94.14	8.15	-53.7	-68.7	3.8	1.49e+00	0	35	104	0	78	20999
2026-01-18 07:15:17.70	93.91	8.37	-53.8	-68.8	3.8	1.49e+00	0	36	104	0	78	21077
2026-01-18 07:15:20.72	93.69	8.59	-53.7	-68.8	3.8	1.49e+00	0	36	104	0	78	21036
2026-01-18 07:15:23.75	93.45	8.82	-53.7	-68.8	3.8	1.49e+00	0	36	104	0	78	21045
2026-01-18 07:15:26.77	93.22	9.04	-53.7	-68.7	3.8	1.49e+00	0	36	104	0	78	20961
2026-01-18 07:15:29.79	92.98	9.27	-53.7	-68.8	3.8	1.49e+00	0	36	104	0	78	21032
2026-01-18 07:15:32.81	92.74	9.50	-53.7	-68.7	3.8	1.49e+00	0	36	104	0	78	20989
2026-01-18 07:15:35.84	92.49	9.73	-53.7	-68.8	3.8	1.49e+00	0	36	104	0	78	21020
2026-01-18 07:15:38.86	92.24	9.96	-53.7	-68.8	3.8	1.49e+00	0	36	104	0	78	21024
2026-01-18 07:15:41.89	91.98	10.19	-53.7	-68.8	3.8	1.49e+00	0	36	104	0	78	21049
2026-01-18 07:15:44.91	91.72	10.42	-53.7	-68.8	3.8	1.49e+00	0	36	104	0	78	21024
2026-01-18 07:15:47.94	91.46	10.66	-53.7	-68.8	3.8	1.49e+00	0	36	104	0	78	21021
2026-01-18 07:15:50.96	91.19	10.90	-53.7	-68.7	3.8	1.49e+00	0	36	104	0	78	20965
2026-01-18 07:15:53.99	90.92	11.14	-53.7	-68.8	3.8	1.49e+00	0	36	104	0	78	21024
2026-01-18 07:15:57.01	90.64	11.38	-53.7	-68.8	3.8	1.49e+00	0	36	104	0	78	21018
2026-01-18 07:16:00.03	90.36	11.62	-53.7	-68.7	3.8	1.49e+00	0	36	104	0	78	20979
2026-01-18 07:16:03.05	90.07	11.87	-53.7	-68.7	3.8	1.49e+00	0	36	104	0	78	20986
2026-01-18 07:16:06.08	89.78	12.11	-53.7	-68.7	3.8	1.49e+00	0	36	104	0	78	21012
2026-01-18 07:16:09.10	89.48	12.36	-53.7	-68.7	3.8	1.49e+00	0	36	104	0	78	21012
2026-01-18 07:16:12.13	89.18	12.61	-53.7	-68.7	3.8	1.49e+00	0	36	104	0	78	20980
2026-01-18 07:16:15.15	88.87	12.86	-53.7	-68.7	3.8	1.49e+00	0	36	104	0	78	20942
2026-01-18 07:16:18.17	88.56	13.12	-53.7	-68.7	3.8	1.49e+00	0	36	104	0	78	20961
2026-01-18 07:16:21.20	88.24	13.37	-53.7	-68.7	3.8	1.49e+00	0	36	104	0	78	20990
2026-01-18 07:16:24.22	87.92	13.63	-53.7	-68.8	3.8	1.49e+00	0	36	104	0	78	21030
2026-01-18 07:16:27.25	87.59	13.89	-53.7	-68.7	3.8	1.49e+00	0	36	104	0	78	20911
2026-01-18 07:16:30.27	87.25	14.15	-53.7	-68.7	3.8	1.49e+00	0	36	104	0	78	21009
2026-01-18 07:16:33.29	86.91	14.41	-53.7	-68.7	3.8	1.49e+00	0	36	104	0	78	20992
2026-01-18 07:16:36.32	86.56	14.67	-53.7	-68.7	3.8	1.49e+00	0	36	104	0	78	20994
2026-01-18 07:16:39.34	86.20	14.94	-53.7	-68.7	3.8	1.49e+00	0	36	104	0	78	20963
2026-01-18 07:16:42.36	85.84	15.21	-53.7	-68.7	3.8	1.49e+00	0	36	104	0	78	20998
2026-01-18 07:16:45.39	85.47	15.48	-53.7	-68.8	3.8	1.49e+00	0	36	104	0	78	21023
2026-01-18 07:16:48.41	85.10	15.75	-53.7	-68.8	3.8	1.49e+00	0	36	104	0	78	21039
2026-01-18 07:16:51.44	84.71	16.02	-53.8	-68.8	3.8	1.49e+00	0	36	104	0	78	21057
2026-01-18 07:16:54.46	84.33	16.29	-53.7	-68.8	3.8	1.49e+00	0	36	104	0	78	21057
2026-01-18 07:16:57.49	83.93	16.57	-53.7	-68.8	3.8	1.49e+00	0	36	104	0	78	21106
2026-01-18 07:17:00.51	83.52	16.85	-53.8	-68.8	3.8	1.49e+00	0	36	104	0	78	21073
2026-01-18 07:17:03.54	83.11	17.13	-53.7	-68.8	3.8	1.49e+00	0	36	104	0	78	21038
2026-01-18 07:17:06.56	82.69	17.41	-53.7	-68.8	3.8	1.49e+00	0	36	104	0	78	21034
2026-01-18 07:17:09.59	82.26	17.69	-53.7	-68.8	3.8	1.49e+00	0	36	104	0	78	21028
2026-01-18 07:17:12.61	81.83	17.98	-53.7	-68.8	3.8	1.49e+00	0	36	104	0	78	21020
2026-01-18 07:17:15.63	81.38	18.26	-53.7	-68.7	3.8	1.49e+00	0	36	104	0	78	20972
2026-01-18 07:17:18.65	80.93	18.55	-53.7	-68.7	3.8	1.49e+00	0	36	104	0	78	20999
2026-01-18 07:17:21.68	80.47	18.84	-53.7	-68.7	3.8	1.49e+00	0	36	104	0	78	20989
2026-01-18 07:17:24.70	80.00	19.13	-53.7	-68.7	3.8	1.49e+00	0	36	104	0	78	20979
2026-01-18 07:17:27.73	79.51	19.42	-53.7	-68.7	3.8	1.49e+00	0	36	104	0	78	20931
2026-01-18 07:17:30.75	79.02	19.71	-53.7	-68.7	3.8	1.49e+00	0	36	104	0	78	20977
2026-01-18 07:17:33.78	78.52	20.01	-53.7	-68.7	3.8	1.49e+00	0	36	104	0	78	21005
2026-01-18 07:17:36.80	78.02	20.30	-53.7	-68.7	3.8	1.49e+00	0	36	104	0	78	20947
2026-01-18 07:17:39.83	77.50	20.60	-53.7	-68.7	3.8	1.49e+00	0	36	104	0	78	20994
2026-01-18 07:17:42.85	76.97	20.90	-53.7	-68.7	3.8	1.49e+00	0	36	104	0	78	20977
2026-01-18 07:17:45.87	76.43	21.19	-53.7	-68.7	3.8	1.49e+00	0	36	104	0	78	20915
2026-01-18 07:17:48.90	75.87	21.49	-53.7	-68.7	3.8	1.49e+00	0	36	104	0	78	20987
2026-01-18 07:17:51.92	75.31	21.79	-53.7	-68.7	3.8	1.49e+00	0	36	104	0	78	20919
2026-01-18 07:17:54.95	74.74	22.09	-53.7	-68.7	3.8	1.49e+00	0	36	104	0	78	20933
2026-01-18 07:17:57.97	74.16	22.39	-53.7	-68.7	3.8	1.49e+00	0	36	104	0	78	20956
2026-01-18 07:18:00.99	73.56	22.69	-53.7	-68.7	3.8	1.49e+00	0	36	104	0	78	20946
2026-01-18 07:18:04.01	72.96	22.99	-53.7	-68.7	3.8	1.49e+00	0	36	104	0	78	20914
2026-01-18 07:18:07.04	72.34	23.29	-53.7	-68.7	3.8	1.49e+00	0	36	104	0	78	20955
2026-01-18 07:18:10.06	71.70	23.59	-53.7	-68.7	3.8	1.49e+00	0	36	104	0	78	20886
2026-01-18 07:18:13.09	71.06	23.89	-53.7	-68.7	3.8	1.49e+00	0	36	104	0	78	20823
2026-01-18 07:18:16.11	70.40	24.19	-53.7	-68.7	3.8	1.49e+00	0	36	104	0	78	20870
2026-01-18 07:18:19.13	69.74	24.49	-53.7	-68.7	3.8	1.49e+00	0	36	104	0	78	20915
2026-01-18 07:18:22.16	69.05	24.79	-53.7	-68.7	3.8	1.49e+00	0	36	104	0	78	20940
2026-01-18 07:18:25.18	68.36	25.08	-53.7	-68.7	3.8	1.49e+00	0	36	104	0	78	20900
2026-01-18 07:18:28.20	67.65	25.38	-53.7	-68.7	3.8	1.49e+00	0	36	104	0	78	20792
2026-01-18 07:18:31.23	66.93	25.67	-53.7	-68.7	3.8	1.49e+00	0	36	104	0	78	20884
2026-01-18 07:18:34.25	66.19	25.96	-53.7	-68.7	3.8	1.49e+00	0	36	104	0	78	20853
2026-01-18 07:18:37.28	65.44	26.25	-53.7	-68.7	3.8	1.49e+00	0	36	104	0	78	20803
2026-01-18 07:18:40.31	64.68	26.54	-53.7	-68.7	3.8	1.49e+00	0	36	104	0	78	20823
2026-01-18 07:18:43.33	63.90	26.82	-53.7	-68.7	3.8	1.49e+00	0	36	104	0	78	20804
2026-01-18 07:18:46.35	63.12	27.10	-53.7	-68.7	3.8	1.49e+00	0	36	104	0	78	20842
2026-01-18 07:18:49.38	62.31	27.38	-53.7	-68.7	3.8	1.49e+00	0	36	104	0	78	20848
2026-01-18 07:18:52.40	61.49	27.65	-53.7	-68.7	3.8	1.49e+00	0	36	104	0	78	20888
2026-01-18 07:18:55.43	60.66	27.93	-53.7	-68.7	3.8	1.49e+00	0	36	104	0	78	20870
2026-01-18 07:18:58.45	59.81	28.19	-53.7	-68.7	3.8	1.49e+00	0	36	104	0	78	20883
2026-01-18 07:19:01.48	58.95	28.45	-53.7	-68.7	3.8	1.49e+00	0	36	104	0	78	20861
2026-01-18 07:19:04.50	58.07	28.71	-53.7	-68.7	3.8	1.49e+00	0	36	104	0	78	20937
2026-01-18 07:19:07.53	57.18	28.96	-53.7	-68.7	3.8	1.49e+00	0	36	104	0	78	20874
2026-01-18 07:19:10.55	56.28	29.20	-53.7	-68.7	3.8	1.49e+00	0	36	104	0	78	20881
2026-01-18 07:19:13.57	55.37	29.44	-53.7	-68.7	3.8	1.49e+00	0	36	104	0	78	20857
2026-01-18 07:19:16.59	54.44	29.67	-53.7	-68.7	3.8	1.49e+00	0	36	104	0	78	20819
2026-01-18 07:19:19.62	53.49	29.90	-53.7	-68.7	3.8	1.49e+00	0	36	104	0	78	20859
2026-01-18 07:19:22.64	52.53	30.12	-53.7	-68.7	3.8	1.49e+00	0	36	104	0	78	20845
2026-01-18 07:19:25.66	51.57	30.33	-53.7	-68.7	3.8	1.49e+00	0	36	104	0	78	20822
2026-01-18 07:19:28.68	50.59	30.53	-53.7	-68.7	3.8	1.49e+00	0	36	104	0	78	20835
2026-01-18 07:19:31.71	49.59	30.73	-53.7	-68.7	3.8	1.49e+00	0	36	104	0	78	20839
2026-01-18 07:19:34.73	48.58	30.92	-53.7	-68.7	3.8	1.49e+00	0	36	104	0	78	20830
2026-01-18 07:19:37.75	47.57	31.09	-53.7	-68.7	3.8	1.49e+00	0	36	104	0	78	20810
2026-01-18 07:19:40.77	46.54	31.26	-53.7	-68.7	3.8	1.49e+00	0	36	104	0	78	20830
2026-01-18 07:19:43.79	45.50	31.42	-53.7	-68.7	3.8	1.49e+00	0	36	104	0	78	20800
2026-01-18 07:19:46.82	44.45	31.57	-53.7	-68.7	3.8	1.49e+00	0	36	104	0	78	20807
2026-01-18 07:19:49.85	43.39	31.71	-53.7	-68.7	3.8	1.49e+00	0	36	104	0	78	20789
2026-01-18 07:19:52.87	42.32	31.83	-53.7	-68.7	3.8	1.49e+00	0	36	104	0	78	20788
2026-01-18 07:19:55.89	41.25	31.95	-53.7	-68.7	3.8	1.49e+00	0	36	104	0	78	20803
2026-01-18 07:19:58.92	40.16	32.06	-53.7	-68.7	3.8	1.49e+00	0	36	104	0	78	20816
2026-01-18 07:20:01.94	39.08	32.15	-53.6	-68.7	3.8	1.49e+00	0	36	104	0	78	20831
2026-01-18 07:20:04.97	37.98	32.23	-53.7	-68.6	3.8	1.49e+00	0	36	104	0	78	20694
2026-01-18 07:20:07.99	36.88	32.31	-53.6	-68.6	3.8	1.49e+00	0	36	104	0	78	20759
2026-01-18 07:20:11.01	35.78	32.36	-53.6	-68.6	3.8	1.49e+00	0	36	104	0	78	20772
2026-01-18 07:20:14.04	34.66	32.41	-53.6	-68.7	3.8	1.49e+00	0	36	104	0	78	20826
2026-01-18 07:20:17.06	33.55	32.45	-53.6	-68.6	3.8	1.49e+00	0	36	104	0	78	20732
2026-01-18 07:20:20.09	32.44	32.47	-53.6	-68.7	3.8	1.49e+00	0	36	104	0	78	20785
2026-01-18 07:20:23.11	31.33	32.48	-53.6	-68.7	3.8	1.49e+00	0	36	104	0	78	20781
2026-01-18 07:20:26.13	30.21	32.48	-53.6	-68.6	3.8	1.49e+00	0	36	104	0	78	20756
2026-01-18 07:20:29.16	29.10	32.46	-53.6	-68.7	3.8	1.49e+00	0	36	104	0	78	20804
2026-01-18 07:20:32.19	27.98	32.44	-53.6	-68.6	3.8	1.49e+00	0	36	104	0	78	20750
2026-01-18 07:20:35.21	26.87	32.40	-53.6	-68.6	3.8	1.49e+00	0	36	104	0	78	20725
2026-01-18 07:20:38.24	25.76	32.35	-53.6	-68.7	3.8	1.49e+00	0	36	104	0	78	20784
2026-01-18 07:20:41.26	24.66	32.29	-53.6	-68.7	3.8	1.49e+00	0	36	104	0	78	20783
2026-01-18 07:20:44.28	23.56	32.21	-53.6	-68.7	3.8	1.49e+00	0	36	104	0	78	20811
2026-01-18 07:20:47.31	22.47	32.13	-53.6	-68.6	3.8	1.49e+00	0	36	104	0	78	20768
2026-01-18 07:20:50.33	21.38	32.03	-53.6	-68.7	3.8	1.49e+00	0	36	104	0	78	20802
2026-01-18 07:20:53.35	20.30	31.92	-53.6	-68.6	3.8	1.49e+00	0	36	104	0	78	20762
2026-01-18 07:20:56.38	19.23	31.80	-53.6	-68.6	3.8	1.49e+00	0	36	104	0	78	20776
2026-01-18 07:20:59.40	18.17	31.67	-53.6	-68.6	3.8	1.49e+00	0	36	104	0	78	20751
2026-01-18 07:21:02.42	17.11	31.53	-53.6	-68.6	3.8	1.49e+00	0	36	104	0	78	20755
2026-01-18 07:21:05.45	16.06	31.38	-53.6	-68.6	3.8	1.49e+00	0	36	104	0	78	20737
2026-01-18 07:21:08.47	15.03	31.22	-53.6	-68.6	3.8	1.49e+00	0	36	104	0	78	20774
2026-01-18 07:21:11.49	14.01	31.05	-53.6	-68.6	3.8	1.49e+00	0	36	104	0	78	20750
2026-01-18 07:21:14.52	12.99	30.87	-53.6	-68.6	3.8	1.49e+00	0	36	104	0	78	20682
2026-01-18 07:21:17.54	11.99	30.68	-53.6	-68.6	3.8	1.49e+00	0	36	104	0	78	20649
2026-01-18 07:21:20.57	11.00	30.48	-53.6	-68.6	3.8	1.49e+00	0	36	104	0	78	20692
2026-01-18 07:21:23.59	10.02	30.27	-53.6	-68.6	3.8	1.49e+00	0	36	104	0	78	20721
2026-01-18 07:21:26.62	9.06	30.06	-53.6	-68.6	3.8	1.49e+00	0	35	104	0	78	20684
2026-01-18 07:21:29.64	8.11	29.84	-53.6	-68.6	3.8	1.49e+00	0	36	104	0	78	20648
2026-01-18 07:21:32.66	7.17	29.61	-53.6	-68.6	3.8	1.49e+00	0	36	104	0	78	20740
2026-01-18 07:21:35.69	6.24	29.38	-53.6	-68.6	3.8	1.49e+00	0	36	104	0	78	20709
2026-01-18 07:21:38.71	5.33	29.14	-53.6	-68.6	3.8	1.49e+00	0	36	104	0	78	20720
2026-01-18 07:21:41.74	4.43	28.89	-53.6	-68.6	3.8	1.49e+00	0	36	104	0	78	20741
2026-01-18 07:21:44.76	3.55	28.64	-53.6	-68.6	3.8	1.49e+00	0	35	104	0	78	20758
2026-01-18 07:21:47.79	2.68	28.38	-53.6	-68.6	3.8	1.49e+00	0	36	104	0	78	20718
2026-01-18 07:21:50.81	1.82	28.12	-53.6	-68.6	3.8	1.49e+00	0	36	104	0	78	20696
2026-01-18 07:21:53.83	0.98	27.86	-53.6	-68.6	3.8	1.49e+00	0	36	104	0	78	20762
2026-01-18 07:21:56.86	0.15	27.59	-53.6	-68.6	3.8	1.49e+00	0	36	104	0	78	20643
2026-01-18 07:21:59.88	359.34	27.31	-53.6	-68.7	3.8	1.49e+00	0	36	104	0	78	20779
2026-01-18 07:22:02.91	358.54	27.03	-53.6	-68.7	3.8	1.49e+00	0	36	104	0	78	20795
2026-01-18 07:22:05.93	357.76	26.75	-53.6	-68.6	3.8	1.49e+00	0	36	104	0	78	20707
2026-01-18 07:22:08.95	356.99	26.47	-53.6	-68.6	3.8	1.49e+00	0	36	104	0	78	20629
2026-01-18 07:22:11.98	356.23	26.18	-53.6	-68.6	3.8	1.49e+00	0	36	104	0	78	20690
2026-01-18 07:22:15.00	355.49	25.89	-53.6	-68.6	3.8	1.49e+00	0	36	104	0	78	20594
2026-01-18 07:22:18.02	354.76	25.60	-53.6	-68.6	3.8	1.49e+00	0	36	104	0	78	20628
2026-01-18 07:22:21.05	354.04	25.31	-53.6	-68.6	3.8	1.49e+00	0	36	104	0	78	20640
2026-01-18 07:22:24.07	353.34	25.01	-53.6	-68.6	3.8	1.49e+00	0	36	104	0	78	20607
2026-01-18 07:22:27.09	352.65	24.72	-53.6	-68.6	3.8	1.49e+00	0	36	104	0	78	20600
2026-01-18 07:22:30.12	351.97	24.42	-53.6	-68.6	3.8	1.49e+00	0	36	104	0	78	20626
2026-01-18 07:22:33.14	351.31	24.12	-53.6	-68.6	3.8	1.49e+00	0	36	104	0	78	20655
2026-01-18 07:22:36.17	350.66	23.82	-53.6	-68.6	3.8	1.49e+00	0	36	104	0	78	20675
2026-01-18 07:22:39.19	350.02	23.53	-53.6	-68.6	3.8	1.49e+00	0	36	104	0	78	20659
2026-01-18 07:22:42.22	349.39	23.23	-53.6	-68.6	3.8	1.49e+00	0	36	104	0	78	20603
2026-01-18 07:22:45.25	348.78	22.93	-53.6	-68.6	3.8	1.49e+00	0	36	104	0	78	20731
2026-01-18 07:22:48.27	348.17	22.63	-53.6	-68.6	3.8	1.49e+00	0	36	104	0	78	20686
2026-01-18 07:22:51.29	347.58	22.33	-53.6	-68.6	3.8	1.49e+00	0	36	104	0	78	20701
2026-01-18 07:22:54.32	347.00	22.03	-53.6	-68.6	3.8	1.49e+00	0	36	104	0	78	20673
2026-01-18 07:22:57.34	346.44	21.73	-53.6	-68.6	3.8	1.49e+00	0	36	104	0	78	20659
2026-01-18 07:23:00.36	345.88	21.43	-53.6	-68.6	3.8	1.49e+00	0	36	104	0	78	20614
2026-01-18 07:23:03.39	345.33	21.13	-53.6	-68.6	3.8	1.49e+00	0	36	104	0	78	20667
2026-01-18 07:23:06.41	344.80	20.84	-53.6	-68.6	3.8	1.49e+00	0	36	104	0	78	20658
2026-01-18 07:23:09.43	344.27	20.54	-53.6	-68.6	3.8	1.49e+00	0	36	104	0	78	20637
2026-01-18 07:23:12.46	343.76	20.25	-53.6	-68.6	3.8	1.49e+00	0	36	104	0	78	20640
2026-01-18 07:23:15.49	343.25	19.95	-53.6	-68.6	3.8	1.49e+00	0	36	104	0	78	20650
2026-01-18 07:23:18.51	342.76	19.66	-53.6	-68.6	3.8	1.49e+00	0	36	104	0	78	20590
2026-01-18 07:23:21.53	342.27	19.37	-53.6	-68.6	3.8	1.49e+00	0	36	104	0	78	20644
2026-01-18 07:23:24.55	341.80	19.08	-53.6	-68.6	3.8	1.49e+00	0	36	104	0	78	20613
2026-01-18 07:23:27.58	341.33	18.79	-53.6	-68.6	3.8	1.49e+00	0	36	104	0	78	20625
2026-01-18 07:23:30.60	340.87	18.50	-53.6	-68.6	3.8	1.49e+00	0	36	104	0	78	20576
2026-01-18 07:23:33.63	340.42	18.21	-53.6	-68.6	3.8	1.49e+00	0	36	104	0	78	20618
2026-01-18 07:23:36.65	339.98	17.93	-53.6	-68.6	3.8	1.49e+00	0	36	104	0	78	20584
2026-01-18 07:23:39.67	339.55	17.65	-53.6	-68.6	3.8	1.49e+00	0	36	104	0	78	20647
2026-01-18 07:23:42.70	339.12	17.36	-53.6	-68.6	3.8	1.49e+00	0	36	104	0	78	20652
2026-01-18 07:23:45.72	338.71	17.08	-53.6	-68.6	3.8	1.49e+00	0	36	104	0	78	20581
2026-01-18 07:23:48.75	338.30	16.80	-53.6	-68.6	3.8	1.49e+00	0	36	104	0	78	20608
2026-01-18 07:23:51.77	337.90	16.53	-53.6	-68.6	3.8	1.49e+00	0	36	104	0	78	20579
2026-01-18 07:23:54.79	337.50	16.25	-53.6	-68.6	3.8	1.49e+00	0	36	104	0	78	20576
2026-01-18 07:23:57.82	337.12	15.98	-53.6	-68.6	3.8	1.49e+00	0	36	104	0	78	20595
2026-01-18 07:24:00.84	336.74	15.71	-53.6	-68.6	3.8	1.49e+00	0	36	104	0	78	20581
2026-01-18 07:24:03.87	336.37	15.44	-53.6	-68.6	3.8	1.49e+00	0	36	104	0	78	20602
2026-01-18 07:24:06.89	336.00	15.17	-53.6	-68.5	3.8	1.49e+00	0	35	104	0	78	20526
2026-01-18 07:24:09.92	335.64	14.90	-53.6	-68.6	3.8	1.49e+00	0	36	104	0	78	20601
2026-01-18 07:24:12.95	335.29	14.64	-53.6	-68.6	3.8	1.49e+00	0	36	104	0	78	20560
2026-01-18 07:24:15.98	334.94	14.37	-53.6	-68.6	3.8	1.49e+00	0	36	104	0	78	20573
2026-01-18 07:24:19.00	334.60	14.11	-53.6	-68.6	3.8	1.49e+00	0	36	104	0	78	20587
2026-01-18 07:24:22.03	334.27	13.85	-53.6	-68.6	3.8	1.49e+00	0	36	104	0	78	20540
2026-01-18 07:24:25.05	333.94	13.60	-53.6	-68.6	3.8	1.49e+00	0	36	104	0	78	20551
2026-01-18 07:24:28.07	333.62	13.34	-53.6	-68.5	3.8	1.49e+00	0	36	104	0	78	20516
2026-01-18 07:24:31.10	333.30	13.09	-53.6	-68.6	3.8	1.49e+00	0	36	104	0	78	20600
2026-01-18 07:24:34.12	332.99	12.83	-53.6	-68.6	3.8	1.49e+00	0	36	104	0	78	20552
2026-01-18 07:24:37.15	332.69	12.58	-53.6	-68.6	3.8	1.49e+00	0	36	104	0	78	20543
2026-01-18 07:24:40.17	332.39	12.33	-53.5	-68.6	3.8	1.49e+00	0	36	104	0	78	20545
2026-01-18 07:24:43.19	332.10	12.09	-53.5	-68.5	3.8	1.49e+00	0	36	104	0	78	20531
2026-01-18 07:24:46.22	331.81	11.84	-53.5	-68.6	3.8	1.49e+00	0	36	104	0	78	20542
2026-01-18 07:24:49.24	331.52	11.60	-53.5	-68.5	3.8	1.49e+00	0	36	104	0	78	20516
2026-01-18 07:24:52.26	331.24	11.36	-53.6	-68.6	3.8	1.49e+00	0	36	104	0	78	20609
2026-01-18 07:24:55.29	330.97	11.12	-53.6	-68.6	3.8	1.49e+00	0	36	104	0	78	20569
2026-01-18 07:24:58.31	330.70	10.88	-53.6	-68.6	3.8	1.49e+00	0	36	104	0	78	20560
2026-01-18 07:25:01.34	330.43	10.64	-53.6	-68.5	3.8	1.49e+00	0	36	104	0	78	20509
2026-01-18 07:25:04.36	330.17	10.41	-53.5	-68.6	3.8	1.49e+00	0	36	104	0	78	20588
2026-01-18 07:25:07.38	329.91	10.17	-53.5	-68.5	3.8	1.49e+00	0	36	104	0	78	20504
2026-01-18 07:25:10.41	329.66	9.94	-53.5	-68.6	3.8	1.49e+00	0	36	104	0	78	20571
2026-01-18 07:25:13.43	329.41	9.71	-53.5	-68.5	3.8	1.49e+00	0	36	104	0	78	20534
2026-01-18 07:25:16.46	329.17	9.48	-53.5	-68.5	3.8	1.49e+00	0	36	104	0	78	20519
2026-01-18 07:25:19.48	328.93	9.25	-53.5	-68.5	3.8	1.49e+00	0	36	104	0	78	20515
2026-01-18 07:25:22.50	328.69	9.03	-53.5	-68.5	3.8	1.49e+00	0	36	104	0	78	20467
2026-01-18 07:25:25.53	328.46	8.80	-53.5	-68.5	3.8	1.49e+00	0	36	104	0	78	20526
2026-01-18 07:25:28.55	328.23	8.58	-53.5	-68.5	3.8	1.49e+00	0	36	104	0	78	20491
2026-01-18 07:25:31.57	328.00	8.36	-53.5	-68.5	3.8	1.49e+00	0	36	104	0	78	20516
2026-01-18 07:25:34.59	327.78	8.14	-53.5	-68.5	3.8	1.49e+00	0	36	104	0	78	20486
2026-01-18 07:25:37.62	327.56	7.92	-53.5	-68.5	3.8	1.49e+00	0	36	104	0	78	20487
2026-01-18 07:25:40.64	327.35	7.71	-53.5	-68.5	3.8	1.49e+00	0	36	104	0	78	20465
2026-01-18 07:25:43.67	327.14	7.49	-53.5	-68.5	3.8	1.49e+00	0	36	104	0	78	20463
2026-01-18 07:25:46.69	326.93	7.28	-53.5	-68.5	3.8	1.49e+00	0	36	104	0	78	20487
2026-01-18 07:25:49.72	326.72	7.06	-53.5	-68.5	3.8	1.49e+00	0	36	104	0	78	20444
2026-01-18 07:25:52.74	326.52	6.85	-53.5	-68.5	3.8	1.49e+00	0	36	104	0	78	20457
2026-01-18 07:25:55.77	326.32	6.64	-53.5	-68.5	3.8	1.49e+00	0	36	104	0	78	20455
2026-01-18 07:25:58.79	326.12	6.44	-53.5	-68.5	3.8	1.49e+00	0	36	104	0	78	20501
2026-01-18 07:26:01.81	325.93	6.23	-53.5	-68.5	3.8	1.49e+00	0	36	104	0	78	20439
2026-01-18 07:26:04.83	325.74	6.02	-53.5	-68.5	3.8	1.49e+00	0	36	104	0	78	20491
2026-01-18 07:26:07.86	325.55	5.82	-53.5	-68.5	3.8	1.49e+00	0	36	104	0	78	20473
2026-01-18 07:26:10.88	325.37	5.62	-53.5	-68.5	3.8	1.49e+00	0	36	104	0	78	20444
2026-01-18 07:26:13.91	325.19	5.41	-53.5	-68.5	3.8	1.49e+00	0	36	104	0	78	20446
2026-01-18 07:26:16.93	325.01	5.21	-53.5	-68.5	3.8	1.49e+00	0	36	104	0	78	20436
2026-01-18 07:26:19.96	324.83	5.01	-53.5	-68.5	3.8	1.49e+00	0	36	104	0	78	20391
2026-01-18 07:26:22.98	324.66	4.82	-53.5	-68.5	3.8	1.49e+00	0	36	104	0	78	20441
2026-01-18 07:26:26.01	324.48	4.62	-53.5	-68.5	3.8	1.49e+00	0	36	104	0	78	20386
2026-01-18 07:26:29.03	324.31	4.42	-53.5	-68.5	3.8	1.49e+00	0	36	104	0	78	20468
2026-01-18 07:26:32.05	324.15	4.23	-53.5	-68.5	3.8	1.49e+00	0	36	104	0	78	20387
2026-01-18 07:26:35.08	323.98	4.03	-53.5	-68.5	3.8	1.49e+00	0	36	104	0	78	20430
2026-01-18 07:26:38.10	323.82	3.84	-53.5	-68.5	3.8	1.49e+00	0	36	104	0	78	20408
2026-01-18 07:26:41.12	323.66	3.65	-53.5	-68.5	3.8	1.49e+00	0	36	104	0	78	20462
2026-01-18 07:26:44.14	323.50	3.46	-53.5	-68.5	3.8	1.49e+00	0	36	104	0	78	20392
2026-01-18 07:26:47.17	323.35	3.27	-53.5	-68.5	3.8	1.49e+00	0	36	104	0	78	20416
2026-01-18 07:26:50.19	323.19	3.08	-53.5	-68.5	3.8	1.49e+00	0	36	104	0	78	20417
2026-01-18 07:26:53.22	323.04	2.90	-53.5	-68.5	3.8	1.49e+00	0	36	104	0	78	20424
2026-01-18 07:26:56.24	322.89	2.71	-53.5	-68.5	3.8	1.49e+00	0	36	104	0	78	20459
2026-01-18 07:26:59.26	322.75	2.53	-53.5	-68.5	3.8	1.49e+00	0	36	104	0	78	20459
2026-01-18 07:27:02.29	322.60	2.34	-53.5	-68.5	3.8	1.49e+00	0	36	104	0	78	20410
2026-01-18 07:27:05.31	322.46	2.16	-53.5	-68.5	3.8	1.49e+00	0	36	104	0	78	20418
2026-01-18 07:27:08.33	322.32	1.98	-53.5	-68.5	3.8	1.49e+00	0	36	104	0	78	20439

#Closed at: 2026-01-18 07:27:10
#Recorded file [0 MB]: D:/lorett/data/31041_260118_101340.dat