passes_logs/2026/01/18/R3.2S_Murmansk/R3.2S_Murmansk__20260118_015526_SUOMI_NPP_rec.log

#Pass ID: 20260118_015526_SUOMI NPP
#Satellite: SUOMI NPP
#Configuration: NPP
#almurnet v.1.7.20251203
#Start time: 2026-01-18 01:55:26

#Version: 2.2.20231116
#Station: R3.2S_Murmansk
#Location: 33.079688 lon 68.888172 lat
#TLE: 1 37849U 11061A   26017.57099531  .00000072  00000+0  54974-4 0  9996
#TLE: 2 37849  98.7814 319.5974 0002398  59.1749 300.9663 14.19525865737072

#Time	Az	El	Level	Level2	SNR	BER	BlckErr	Temp	State	Recorded	gain1	gain2
2026-01-18 01:55:26.80	29.91	2.03	-51.7	-66.7	3.8	1.49e+00	0	33	0	0	75	19641
2026-01-18 01:55:30.83	29.81	2.28	-51.7	-66.6	3.8	1.49e+00	0	33	104	0	73	21944
2026-01-18 01:55:34.86	29.70	2.54	-51.7	-66.6	3.8	1.49e+00	0	33	104	0	73	21938
2026-01-18 01:55:38.89	29.60	2.80	-51.7	-66.5	3.8	1.49e+00	0	33	104	0	73	21636
2026-01-18 01:55:42.93	29.49	3.06	-51.7	-66.5	3.8	1.49e+00	0	34	104	0	73	21573
2026-01-18 01:55:46.96	29.38	3.32	-51.7	-66.5	3.8	1.49e+00	0	34	104	0	73	21563
2026-01-18 01:55:50.99	29.27	3.59	-51.4	-62.1	4.5	1.31e+00	1	34	0	0	73	13010
2026-01-18 01:55:55.02	29.16	3.86	-49.8	-54.5	11.0	5.96e-03	0	34	0	8388608	71	6092
2026-01-18 01:55:59.05	29.04	4.13	-49.0	-52.7	12.9	1.27e-04	0	34	0	15728640	70	5248
2026-01-18 01:56:03.09	28.92	4.40	-48.8	-52.4	13.2	6.17e-05	0	34	0	23068672	69	5371
2026-01-18 01:56:07.12	28.80	4.68	-49.8	-54.5	11.0	3.50e-03	0	34	0	30408704	70	6423
2026-01-18 01:56:11.15	28.68	4.96	-50.9	-58.8	6.7	1.55e-01	0	34	0	37748736	72	9449
2026-01-18 01:56:15.18	28.55	5.24	-51.3	-64.5	3.8	1.31e+00	0	34	104	45088768	73	17099
2026-01-18 01:56:19.21	28.42	5.53	-47.1	-49.2	16.8	0.00e+00	0	34	0	51380224	66	4422
2026-01-18 01:56:23.25	28.29	5.81	-46.8	-48.8	17.3	0.00e+00	0	34	0	58720256	65	4451
2026-01-18 01:56:27.27	28.15	6.10	-46.8	-48.8	17.3	0.00e+00	0	34	0	66060288	65	4452
2026-01-18 01:56:31.31	28.01	6.40	-47.0	-49.1	17.1	0.00e+00	0	34	0	74448896	65	4616
2026-01-18 01:56:35.34	27.87	6.70	-46.7	-48.6	17.6	0.00e+00	0	34	0	81788928	65	4369
2026-01-18 01:56:39.37	27.73	7.00	-46.8	-48.7	17.6	0.00e+00	0	34	0	89128960	64	4670
2026-01-18 01:56:43.40	27.58	7.30	-46.6	-48.5	17.8	0.00e+00	0	34	0	96468992	64	4561
2026-01-18 01:56:47.43	27.43	7.61	-46.6	-48.4	17.9	0.00e+00	0	34	0	103809024	64	4543
2026-01-18 01:56:51.46	27.27	7.92	-46.5	-48.3	18.0	0.00e+00	0	35	0	112197632	64	4474
2026-01-18 01:56:55.49	27.11	8.23	-46.7	-48.5	17.8	0.00e+00	0	34	0	119537664	64	4592
2026-01-18 01:56:59.52	26.95	8.55	-46.5	-48.4	18.0	0.00e+00	0	34	0	126877696	64	4496
2026-01-18 01:57:03.56	26.78	8.87	-46.7	-48.5	17.9	0.00e+00	0	35	0	134217728	64	4582
2026-01-18 01:57:07.60	26.61	9.20	-46.5	-48.3	18.1	0.00e+00	0	35	0	142606336	64	4471
2026-01-18 01:57:11.63	26.43	9.53	-46.6	-48.4	18.1	0.00e+00	0	35	0	149946368	64	4522
2026-01-18 01:57:15.66	26.26	9.86	-46.4	-48.2	18.3	0.00e+00	0	35	0	157286400	64	4420
2026-01-18 01:57:19.69	26.07	10.20	-46.3	-48.0	18.4	0.00e+00	0	35	0	164626432	64	4332
2026-01-18 01:57:23.73	25.88	10.54	-46.6	-48.4	18.2	0.00e+00	0	35	0	171966464	64	4506
2026-01-18 01:57:27.76	25.69	10.89	-45.9	-47.5	19.1	0.00e+00	0	35	0	180355072	63	4318
2026-01-18 01:57:31.79	25.49	11.24	-46.1	-47.7	18.9	0.00e+00	0	35	0	187695104	63	4429
2026-01-18 01:57:35.82	25.28	11.59	-45.6	-47.1	19.5	0.00e+00	0	34	0	195035136	63	4122
2026-01-18 01:57:39.85	25.08	11.96	-45.8	-47.3	19.4	0.00e+00	0	35	0	202375168	63	4194
2026-01-18 01:57:43.88	24.86	12.32	-45.6	-47.1	19.5	0.00e+00	0	35	0	209715200	63	4128
2026-01-18 01:57:47.91	24.64	12.69	-45.6	-47.1	19.6	0.00e+00	0	35	0	218103808	63	4124
2026-01-18 01:57:51.94	24.41	13.07	-45.7	-47.2	19.5	0.00e+00	0	35	0	225443840	62	4395
2026-01-18 01:57:55.97	24.18	13.45	-45.8	-47.3	19.4	0.00e+00	0	35	0	232783872	62	4452
2026-01-18 01:58:00.00	23.94	13.84	-45.7	-47.2	19.5	0.00e+00	0	35	0	240123904	62	4428
2026-01-18 01:58:04.03	23.69	14.23	-45.7	-47.1	19.6	0.00e+00	0	35	0	247463936	62	4376
2026-01-18 01:58:08.07	23.44	14.63	-45.8	-47.3	19.4	0.00e+00	0	35	0	255852544	62	4449
2026-01-18 01:58:12.10	23.18	15.04	-45.7	-47.2	19.5	0.00e+00	0	35	0	263192576	62	4415
2026-01-18 01:58:16.13	22.91	15.45	-45.6	-47.1	19.7	0.00e+00	0	35	0	270532608	62	4344
2026-01-18 01:58:20.17	22.63	15.86	-45.6	-47.0	19.7	0.00e+00	0	35	0	277872640	62	4339
2026-01-18 01:58:24.20	22.34	16.29	-45.5	-46.9	19.9	0.00e+00	0	35	0	286261248	62	4250
2026-01-18 01:58:28.23	22.05	16.72	-45.8	-47.3	19.5	0.00e+00	0	35	0	293601280	62	4484
2026-01-18 01:58:32.27	21.75	17.16	-45.8	-47.3	19.5	0.00e+00	0	35	0	300941312	62	4478
2026-01-18 01:58:36.30	21.43	17.60	-45.9	-47.3	19.5	0.00e+00	0	35	0	308281344	63	4242
2026-01-18 01:58:40.33	21.11	18.05	-45.8	-47.2	19.6	0.00e+00	0	35	0	315621376	63	4184
2026-01-18 01:58:44.37	20.78	18.51	-45.5	-46.9	19.9	0.00e+00	0	35	0	322961408	63	4014
2026-01-18 01:58:48.41	20.43	18.98	-45.5	-46.9	19.9	0.00e+00	0	35	0	331350016	62	4283
2026-01-18 01:58:52.44	20.08	19.46	-45.8	-47.3	19.7	0.00e+00	0	35	0	338690048	62	4445
2026-01-18 01:58:56.47	19.71	19.94	-46.2	-47.8	19.1	0.00e+00	0	35	0	346030080	63	4465
2026-01-18 01:59:00.50	19.33	20.43	-46.6	-48.3	18.6	0.00e+00	0	35	0	353370112	63	4741
2026-01-18 01:59:04.53	18.94	20.93	-46.6	-48.3	18.5	0.00e+00	0	35	0	361758720	64	4480
2026-01-18 01:59:08.57	18.54	21.44	-46.4	-48.0	18.8	0.00e+00	0	35	0	369098752	64	4336
2026-01-18 01:59:12.60	18.12	21.95	-46.3	-47.9	18.9	0.00e+00	0	35	0	376438784	64	4263
2026-01-18 01:59:16.63	17.68	22.48	-46.5	-48.2	18.7	0.00e+00	0	35	0	383778816	64	4400
2026-01-18 01:59:20.66	17.23	23.01	-46.4	-48.0	18.9	0.00e+00	0	35	0	391118848	64	4300
2026-01-18 01:59:24.69	16.77	23.56	-46.8	-48.5	18.5	0.00e+00	0	35	0	399507456	64	4570
2026-01-18 01:59:28.72	16.28	24.11	-46.8	-48.4	18.6	0.00e+00	0	35	0	406847488	64	4534
2026-01-18 01:59:32.75	15.78	24.67	-46.8	-48.4	18.6	0.00e+00	0	35	0	414187520	64	4524
2026-01-18 01:59:36.79	15.26	25.25	-46.9	-48.7	18.3	0.00e+00	0	35	0	421527552	64	4656
2026-01-18 01:59:40.82	14.72	25.83	-47.6	-49.6	17.5	0.00e+00	0	35	0	429916160	65	4874
2026-01-18 01:59:44.85	14.16	26.42	-47.6	-49.6	17.5	0.00e+00	0	35	0	437256192	66	4624
2026-01-18 01:59:48.88	13.58	27.02	-47.0	-48.8	18.3	0.00e+00	0	35	0	444596224	65	4478
2026-01-18 01:59:52.91	12.97	27.63	-46.8	-48.5	18.6	0.00e+00	0	35	0	451936256	65	4301
2026-01-18 01:59:56.94	12.34	28.26	-46.7	-48.3	18.8	0.00e+00	0	35	0	459276288	65	4195
2026-01-18 02:00:00.97	11.69	28.89	-47.0	-48.7	18.4	0.00e+00	0	35	0	466616320	65	4436
2026-01-18 02:00:05.01	11.00	29.53	-46.9	-48.6	18.5	0.00e+00	0	35	0	475004928	65	4385
2026-01-18 02:00:09.03	10.29	30.18	-47.8	-49.8	17.4	0.00e+00	0	35	0	482344960	66	4737
2026-01-18 02:00:13.07	9.55	30.85	-47.4	-49.3	17.9	0.00e+00	0	35	0	489684992	66	4451
2026-01-18 02:00:17.10	8.78	31.52	-48.3	-50.5	16.7	0.00e+00	0	35	0	497025024	67	4851
2026-01-18 02:00:21.13	7.97	32.20	-48.1	-50.1	17.2	0.00e+00	0	35	0	505413632	67	4631
2026-01-18 02:00:25.16	7.13	32.89	-48.7	-51.0	16.3	0.00e+00	0	35	0	512753664	67	5150
2026-01-18 02:00:29.19	6.25	33.59	-48.5	-50.8	16.6	0.00e+00	0	35	0	520093696	68	4726
2026-01-18 02:00:33.22	5.33	34.30	-47.9	-49.9	17.4	0.00e+00	0	35	0	527433728	67	4524
2026-01-18 02:00:37.25	4.37	35.01	-48.9	-51.5	15.9	0.00e+00	0	35	0	534773760	68	5136
2026-01-18 02:00:41.28	3.36	35.73	-47.7	-49.6	17.6	0.00e+00	0	35	0	543162368	67	4359
2026-01-18 02:00:45.32	2.31	36.46	-48.8	-51.3	16.0	0.00e+00	0	35	0	550502400	68	5021
2026-01-18 02:00:49.35	1.21	37.19	-48.9	-51.4	15.9	0.00e+00	0	35	0	557842432	69	4799
2026-01-18 02:00:53.38	0.06	37.92	-48.6	-51.0	16.4	0.00e+00	0	35	0	565182464	68	4840
2026-01-18 02:00:57.41	358.86	38.66	-47.2	-49.0	18.1	0.00e+00	0	35	0	572522496	66	4329
2026-01-18 02:01:01.42	357.60	39.39	-47.1	-48.9	18.3	0.00e+00	0	35	0	580911104	64	4780
2026-01-18 02:01:05.45	356.28	40.13	-48.6	-51.1	16.3	0.00e+00	0	35	0	588251136	67	5168
2026-01-18 02:01:09.48	354.90	40.87	-47.6	-49.5	17.8	0.00e+00	0	35	0	595591168	67	4302
2026-01-18 02:01:13.51	353.45	41.59	-47.3	-49.2	18.0	0.00e+00	0	35	0	602931200	66	4417
2026-01-18 02:01:17.55	351.94	42.32	-48.3	-50.5	16.9	0.00e+00	0	35	0	610271232	67	4833
2026-01-18 02:01:21.58	350.35	43.03	-49.2	-52.0	15.4	0.00e+00	0	35	0	618659840	70	4820
2026-01-18 02:01:25.61	348.70	43.73	-48.0	-50.2	17.2	0.00e+00	0	35	0	625999872	67	4666
2026-01-18 02:01:29.64	346.97	44.41	-49.5	-52.5	14.9	7.00e-07	0	35	0	633339904	70	5130
2026-01-18 02:01:33.68	345.16	45.08	-47.8	-49.8	17.5	0.00e+00	0	35	0	640679936	67	4457
2026-01-18 02:01:37.71	343.28	45.72	-47.4	-49.2	18.1	0.00e+00	0	35	0	649068544	66	4428
2026-01-18 02:01:41.74	341.33	46.34	-46.6	-48.2	19.1	0.00e+00	0	35	0	656408576	63	4703
2026-01-18 02:01:45.77	339.29	46.92	-47.7	-49.7	17.7	0.00e+00	0	35	0	663748608	66	4671
2026-01-18 02:01:49.80	337.18	47.48	-49.0	-51.7	16.0	0.00e+00	0	35	0	671088640	68	5278
2026-01-18 02:01:53.83	335.00	47.99	-47.8	-49.9	17.5	0.00e+00	0	35	0	678428672	67	4497
2026-01-18 02:01:57.86	332.74	48.47	-47.0	-48.8	18.5	0.00e+00	0	35	0	685768704	65	4459
2026-01-18 02:02:01.90	330.41	48.90	-50.5	-54.8	12.7	9.90e-06	0	35	0	694157312	71	6325
2026-01-18 02:02:05.93	328.03	49.28	-48.8	-51.5	15.9	0.00e+00	0	35	0	701497344	69	4817
2026-01-18 02:02:09.96	325.58	49.61	-48.2	-50.6	16.8	0.00e+00	0	35	0	708837376	67	4880
2026-01-18 02:02:13.99	323.09	49.88	-48.3	-50.9	16.4	0.00e+00	0	35	0	716177408	68	4775
2026-01-18 02:02:18.03	320.55	50.10	-46.2	-47.8	19.3	0.00e+00	0	35	0	724566016	64	4226
2026-01-18 02:02:22.06	317.99	50.26	-45.9	-47.5	19.6	0.00e+00	0	35	0	731906048	62	4587
2026-01-18 02:02:26.09	315.40	50.35	-45.0	-46.3	20.7	0.00e+00	0	35	0	739246080	60	4486
2026-01-18 02:02:30.12	312.80	50.39	-45.8	-47.4	19.8	0.00e+00	0	35	0	746586112	62	4496
2026-01-18 02:02:34.15	310.21	50.36	-46.2	-47.9	19.3	0.00e+00	0	35	0	753926144	64	4249
2026-01-18 02:02:38.19	307.61	50.27	-46.3	-47.9	19.3	0.00e+00	0	35	0	762314752	64	4261
2026-01-18 02:02:42.21	305.05	50.11	-46.2	-47.9	19.4	0.00e+00	0	35	0	769654784	63	4506
2026-01-18 02:02:46.25	302.51	49.90	-46.3	-47.9	19.4	0.00e+00	0	35	0	776994816	63	4545
2026-01-18 02:02:50.28	300.01	49.63	-46.2	-47.9	19.3	0.00e+00	0	35	0	784334848	64	4276
2026-01-18 02:02:54.32	297.56	49.30	-47.1	-49.0	18.3	0.00e+00	0	35	0	792723456	65	4573
2026-01-18 02:02:58.35	295.17	48.93	-46.7	-48.5	18.8	0.00e+00	0	35	0	800063488	65	4299
2026-01-18 02:03:02.38	292.84	48.50	-48.1	-50.3	17.0	0.00e+00	0	35	0	807403520	67	4743
2026-01-18 02:03:06.40	290.58	48.03	-47.3	-49.2	18.1	0.00e+00	0	35	0	814743552	65	4653
2026-01-18 02:03:10.44	288.38	47.51	-47.7	-49.7	17.6	0.00e+00	0	35	0	822083584	67	4421
2026-01-18 02:03:14.47	286.26	46.96	-48.3	-50.6	16.9	0.00e+00	0	35	0	829423616	67	4889
2026-01-18 02:03:18.51	284.21	46.38	-48.3	-50.5	16.9	0.00e+00	0	35	0	837812224	68	4598
2026-01-18 02:03:22.53	282.25	45.76	-46.8	-48.6	18.7	0.00e+00	0	35	0	845152256	65	4358
2026-01-18 02:03:26.56	280.37	45.12	-48.0	-50.2	17.3	0.00e+00	0	35	0	852492288	66	4929
2026-01-18 02:03:30.60	278.55	44.46	-47.1	-48.8	18.4	0.00e+00	0	35	0	859832320	65	4484
2026-01-18 02:03:34.63	276.81	43.77	-48.1	-50.3	17.3	0.00e+00	0	35	0	868220928	68	4454
2026-01-18 02:03:38.66	275.15	43.07	-46.7	-48.3	19.0	0.00e+00	0	35	0	875560960	64	4474
2026-01-18 02:03:42.70	273.56	42.36	-46.1	-47.6	19.7	0.00e+00	0	35	0	882900992	62	4634
2026-01-18 02:03:46.73	272.04	41.64	-46.9	-48.6	18.7	0.00e+00	0	35	0	890241024	64	4628
2026-01-18 02:03:50.76	270.58	40.91	-48.9	-51.4	16.1	0.00e+00	0	35	0	897581056	68	5074
2026-01-18 02:03:54.79	269.19	40.17	-48.7	-51.1	16.4	0.00e+00	0	35	0	905969664	69	4625
2026-01-18 02:03:58.82	267.87	39.43	-47.7	-49.6	17.8	0.00e+00	0	35	0	913309696	66	4608
2026-01-18 02:04:02.85	266.60	38.69	-49.0	-51.5	16.0	0.00e+00	0	35	0	920649728	68	5136
2026-01-18 02:04:06.89	265.39	37.95	-47.9	-49.9	17.5	0.00e+00	0	35	0	927989760	67	4525
2026-01-18 02:04:10.91	264.23	37.22	-49.9	-53.1	14.3	0.00e+00	0	35	0	935329792	70	5491
2026-01-18 02:04:14.95	263.13	36.48	-50.9	-55.2	12.2	5.64e-05	0	35	0	943718400	72	6239
2026-01-18 02:04:18.98	262.07	35.76	-49.0	-51.3	16.1	0.00e+00	0	35	0	951058432	69	4746
2026-01-18 02:04:23.01	261.06	35.03	-47.6	-49.4	17.9	0.00e+00	0	35	0	958398464	66	4534
2026-01-18 02:04:27.04	260.09	34.32	-48.0	-49.9	17.4	0.00e+00	0	35	0	965738496	67	4528
2026-01-18 02:04:31.07	259.17	33.61	-48.6	-50.9	16.5	0.00e+00	0	35	0	973078528	67	5054
2026-01-18 02:04:35.10	258.29	32.91	-48.5	-50.6	16.8	0.00e+00	0	35	0	981467136	69	4389
2026-01-18 02:04:39.13	257.44	32.22	-48.1	-50.1	17.4	0.00e+00	0	35	0	988807168	68	4352
2026-01-18 02:04:43.16	256.63	31.53	-48.3	-50.4	16.9	0.00e+00	0	35	0	996147200	67	4804
2026-01-18 02:04:47.20	255.85	30.86	-49.8	-52.8	14.6	1.50e-06	0	35	0	1003487232	71	5004
2026-01-18 02:04:51.22	255.10	30.19	-47.6	-49.5	17.8	0.00e+00	0	35	0	1011875840	67	4295
2026-01-18 02:04:55.24	254.39	29.54	-47.5	-49.3	17.9	0.00e+00	0	35	0	1019215872	66	4491
2026-01-18 02:04:59.28	253.70	28.90	-49.4	-52.1	15.3	0.00e+00	0	35	0	1026555904	69	5196
2026-01-18 02:05:03.31	253.04	28.26	-47.3	-49.1	18.2	0.00e+00	0	35	0	1033895936	66	4341
2026-01-18 02:05:07.34	252.41	27.64	-47.2	-49.0	18.2	0.00e+00	0	35	0	1041235968	66	4312
2026-01-18 02:05:11.37	251.80	27.02	-47.3	-49.0	18.1	0.00e+00	0	35	0	1048576000	66	4334
2026-01-18 02:05:15.40	251.21	26.42	-46.7	-48.3	18.8	0.00e+00	0	35	0	1056964608	65	4199
2026-01-18 02:05:19.43	250.65	25.82	-48.2	-50.3	17.0	0.00e+00	0	35	0	1064304640	66	5003
2026-01-18 02:05:23.46	250.11	25.24	-48.7	-51.0	16.4	0.00e+00	0	35	0	1071644672	68	4833
2026-01-18 02:05:27.50	249.58	24.66	-48.3	-50.5	17.0	0.00e+00	0	35	0	1078984704	68	4551
2026-01-18 02:05:31.53	249.08	24.10	-47.4	-49.2	18.0	0.00e+00	0	35	0	1087373312	66	4430
2026-01-18 02:05:35.56	248.59	23.55	-47.0	-48.8	18.3	0.00e+00	0	35	0	1094713344	65	4445
2026-01-18 02:05:39.59	248.13	23.00	-47.7	-49.6	17.5	0.00e+00	0	35	0	1102053376	66	4649
2026-01-18 02:05:43.62	247.67	22.46	-47.2	-49.0	18.1	0.00e+00	0	35	0	1109393408	66	4292
2026-01-18 02:05:47.65	247.24	21.94	-48.2	-50.3	16.9	0.00e+00	0	35	0	1116733440	66	5023
2026-01-18 02:05:51.68	246.81	21.42	-48.6	-51.0	16.2	0.00e+00	0	35	0	1125122048	67	5119
2026-01-18 02:05:55.72	246.41	20.91	-47.7	-49.7	17.4	0.00e+00	0	35	0	1132462080	67	4438
2026-01-18 02:05:59.75	246.01	20.41	-47.7	-49.6	17.5	0.00e+00	0	35	0	1139802112	67	4389
2026-01-18 02:06:03.78	245.63	19.92	-47.7	-49.7	17.4	0.00e+00	0	35	0	1147142144	67	4408
2026-01-18 02:06:07.81	245.26	19.43	-47.4	-49.2	17.8	0.00e+00	0	35	0	1155530752	66	4438
2026-01-18 02:06:11.85	244.90	18.95	-47.4	-49.2	17.8	0.00e+00	0	35	0	1162870784	66	4419
2026-01-18 02:06:15.88	244.56	18.49	-47.4	-49.2	17.8	0.00e+00	0	35	0	1170210816	66	4440
2026-01-18 02:06:19.91	244.22	18.03	-47.5	-49.4	17.6	0.00e+00	0	35	0	1177550848	66	4519
2026-01-18 02:06:23.94	243.90	17.57	-47.6	-49.6	17.4	0.00e+00	0	35	0	1184890880	66	4611
2026-01-18 02:06:27.97	243.58	17.13	-47.3	-49.2	17.8	0.00e+00	0	35	0	1192230912	66	4392
2026-01-18 02:06:32.00	243.28	16.69	-46.3	-47.8	19.1	0.00e+00	0	35	0	1200619520	64	4212
2026-01-18 02:06:36.03	242.98	16.26	-46.2	-47.7	19.2	0.00e+00	0	35	0	1207959552	64	4164
2026-01-18 02:06:40.07	242.69	15.83	-46.6	-48.2	18.6	0.00e+00	0	35	0	1215299584	64	4436
2026-01-18 02:06:44.10	242.41	15.41	-47.2	-49.0	17.9	0.00e+00	0	35	0	1222639616	65	4575
2026-01-18 02:06:48.13	242.14	15.00	-48.0	-50.1	16.9	0.00e+00	0	35	0	1231028224	66	4906
2026-01-18 02:06:52.16	241.88	14.59	-48.2	-50.4	16.5	0.00e+00	0	35	0	1238368256	66	5076
2026-01-18 02:06:56.19	241.62	14.19	-48.0	-50.1	16.9	0.00e+00	0	35	0	1245708288	67	4618
2026-01-18 02:07:00.22	241.37	13.80	-47.9	-50.0	17.0	0.00e+00	0	35	0	1253048320	67	4552
2026-01-18 02:07:04.26	241.13	13.41	-47.9	-50.0	16.8	0.00e+00	0	35	0	1260388352	67	4591
2026-01-18 02:07:08.29	240.89	13.03	-48.0	-50.2	16.6	0.00e+00	0	35	0	1268776960	67	4699
2026-01-18 02:07:12.32	240.66	12.65	-48.4	-50.8	16.1	0.00e+00	0	35	0	1276116992	67	5022
2026-01-18 02:07:16.35	240.44	12.28	-48.5	-50.9	15.9	0.00e+00	0	35	0	1283457024	67	5099
2026-01-18 02:07:20.39	240.22	11.91	-48.4	-50.8	16.0	0.00e+00	0	35	0	1290797056	67	4997
2026-01-18 02:07:24.42	240.01	11.55	-48.1	-50.4	16.4	0.00e+00	0	35	0	1298137088	67	4790
2026-01-18 02:07:28.45	239.80	11.19	-47.9	-50.1	16.7	0.00e+00	0	35	0	1306525696	67	4599
2026-01-18 02:07:32.49	239.60	10.84	-47.7	-49.8	16.9	0.00e+00	0	35	0	1313865728	67	4489
2026-01-18 02:07:36.52	239.41	10.49	-47.8	-49.9	16.8	0.00e+00	0	35	0	1321205760	67	4543
2026-01-18 02:07:40.55	239.21	10.15	-48.1	-50.3	16.4	0.00e+00	0	35	0	1328545792	67	4758
2026-01-18 02:07:44.58	239.03	9.81	-48.3	-50.8	15.9	0.00e+00	0	35	0	1335885824	67	4990
2026-01-18 02:07:48.61	238.85	9.48	-48.5	-51.0	15.7	0.00e+00	0	35	0	1344274432	67	5115
2026-01-18 02:07:52.64	238.67	9.15	-48.7	-51.3	15.4	0.00e+00	0	35	0	1351614464	68	5034
2026-01-18 02:07:56.67	238.49	8.82	-48.9	-51.6	15.1	0.00e+00	0	35	0	1358954496	68	5194
2026-01-18 02:08:00.70	238.32	8.50	-49.1	-52.1	14.6	0.00e+00	0	35	0	1366294528	68	5473
2026-01-18 02:08:04.73	238.16	8.18	-48.9	-51.7	14.9	0.00e+00	0	35	0	1374683136	68	5249
2026-01-18 02:08:08.77	238.00	7.86	-48.8	-51.5	15.2	0.00e+00	0	35	0	1382023168	68	5117
2026-01-18 02:08:12.80	237.84	7.55	-48.8	-51.5	15.1	0.00e+00	0	35	0	1389363200	68	5139
2026-01-18 02:08:16.83	237.69	7.24	-48.9	-51.8	14.8	0.00e+00	0	35	0	1396703232	68	5284
2026-01-18 02:08:20.86	237.53	6.94	-49.0	-51.9	14.6	0.00e+00	0	35	0	1404043264	68	5364
2026-01-18 02:08:24.89	237.39	6.64	-49.1	-52.1	14.4	0.00e+00	0	35	0	1412431872	68	5482
2026-01-18 02:08:28.92	237.24	6.34	-49.1	-52.2	14.1	0.00e+00	0	35	0	1419771904	68	5561
2026-01-18 02:08:32.96	237.10	6.05	-48.8	-51.6	14.8	0.00e+00	0	35	0	1427111936	68	5192
2026-01-18 02:08:36.99	236.96	5.76	-48.9	-51.7	14.6	0.00e+00	0	35	0	1434451968	68	5265
2026-01-18 02:08:41.02	236.83	5.47	-48.8	-51.7	14.5	1.50e-06	0	35	0	1441792000	68	5278
2026-01-18 02:08:45.05	236.70	5.18	-48.8	-51.7	14.5	0.00e+00	0	35	0	1450180608	68	5279
2026-01-18 02:08:49.08	236.57	4.90	-53.0	-68.0	3.8	1.49e+00	0	35	104	1454374912	76	21624
2026-01-18 02:08:53.12	236.44	4.62	-53.6	-68.6	3.8	1.49e+00	0	35	104	1454374912	77	21998
2026-01-18 02:08:57.15	236.32	4.34	-53.8	-68.9	3.8	1.49e+00	0	35	104	1454374912	78	21301
2026-01-18 02:09:01.18	236.19	4.07	-54.0	-69.0	3.8	1.49e+00	0	35	104	1454374912	78	21566
2026-01-18 02:09:05.21	236.08	3.80	-54.0	-69.0	3.8	1.49e+00	0	35	104	1454374912	78	21701
2026-01-18 02:09:09.24	235.96	3.53	-54.0	-69.1	3.8	1.49e+00	0	35	104	1454374912	78	21759
2026-01-18 02:09:13.27	235.84	3.26	-54.0	-69.0	3.8	1.49e+00	0	35	104	1454374912	78	21634
2026-01-18 02:09:17.31	235.73	3.00	-53.7	-69.0	3.8	1.49e+00	0	35	104	1454374912	78	21559
2026-01-18 02:09:21.34	235.62	2.74	-52.9	-68.9	3.8	1.49e+00	0	35	104	1454374912	77	22695
2026-01-18 02:09:25.37	235.52	2.48	-40.1	-64.6	3.2	1.57e+00	0	35	104	1454374912	50	65535
2026-01-18 02:09:29.41	235.41	2.22	-53.6	-68.9	3.8	1.49e+00	0	36	104	1454374912	77	22544
2026-01-18 02:09:33.44	235.31	1.96	-53.8	-68.9	3.8	1.49e+00	0	35	104	1454374912	78	21471

#Closed at: 2026-01-18 02:09:35
#Recorded file [1454 MB]: D:/lorett/data/31041_260118_045526.dat