passes_logs/2026/01/18/R3.2S_Murmansk/R3.2S_Murmansk__20260118_032112_KANOPUS-V_5_rec.log

#Pass ID: 20260118_032112_KANOPUS-V 5
#Satellite: KANOPUS-V 5
#Configuration: KANOPUS-V_8320
#almurnet v.1.7.20251203
#Start time: 2026-01-18 03:21:12

#Version: 2.2.20231116
#Station: R3.2S_Murmansk
#Location: 33.079688 lon 68.888172 lat
#TLE: 1 43876U 18111A   26017.66658644  .00002803  00000+0  12058-3 0  9992
#TLE: 2 43876  97.3688 286.1324 0001777  87.2776 272.8665 15.23451717391876

#Time	Az	El	Level	Level2	SNR	BER	BlckErr	Temp	State	Recorded	gain1	gain2
2026-01-18 03:21:12.62	52.78	2.00	-52.6	-61.5	3.8	7.44e-01	0	34	0	0	76	10192
2026-01-18 03:21:14.64	52.53	2.10	-52.6	-61.5	3.8	7.46e-01	0	34	104	0	76	10206
2026-01-18 03:21:16.65	52.28	2.21	-52.6	-61.5	3.8	7.45e-01	0	34	104	0	76	10181
2026-01-18 03:21:18.67	52.02	2.31	-52.6	-61.5	3.8	7.46e-01	0	34	104	0	76	10190
2026-01-18 03:21:20.69	51.76	2.42	-52.6	-61.5	3.8	7.45e-01	0	34	104	0	76	10186
2026-01-18 03:21:22.70	51.50	2.52	-52.6	-61.5	3.8	7.45e-01	0	34	104	0	76	10203
2026-01-18 03:21:24.71	51.23	2.62	-52.6	-61.5	3.8	7.44e-01	0	34	104	0	76	10177
2026-01-18 03:21:26.73	50.97	2.73	-52.6	-61.4	3.8	7.44e-01	0	34	104	0	76	10168
2026-01-18 03:21:28.74	50.70	2.83	-52.6	-61.4	3.8	7.46e-01	0	34	104	0	76	10154
2026-01-18 03:21:30.76	50.42	2.94	-52.6	-61.4	3.8	7.44e-01	0	35	104	0	76	10175
2026-01-18 03:21:32.77	50.15	3.04	-52.6	-61.5	3.8	7.45e-01	0	35	104	0	76	10177
2026-01-18 03:21:34.79	49.87	3.15	-52.6	-61.5	3.8	7.46e-01	0	35	104	0	76	10187
2026-01-18 03:21:36.81	49.59	3.25	-52.6	-61.4	3.8	7.45e-01	0	35	104	0	76	10142
2026-01-18 03:21:38.82	49.31	3.36	-52.6	-61.4	3.8	7.45e-01	0	35	104	0	76	10163
2026-01-18 03:21:40.84	49.03	3.46	-52.6	-61.5	3.8	7.45e-01	0	35	104	0	76	10200
2026-01-18 03:21:42.85	48.74	3.57	-52.6	-61.5	3.8	7.43e-01	0	35	104	0	76	10191
2026-01-18 03:21:44.87	48.45	3.67	-52.6	-61.4	3.8	7.45e-01	0	35	104	0	76	10166
2026-01-18 03:21:46.89	48.15	3.78	-52.6	-61.4	3.8	7.44e-01	0	35	104	0	76	10163
2026-01-18 03:21:48.90	47.86	3.88	-52.6	-61.4	3.8	7.45e-01	0	35	104	0	76	10175
2026-01-18 03:21:50.92	47.56	3.99	-52.6	-61.5	3.8	7.45e-01	0	35	104	0	76	10184
2026-01-18 03:21:52.93	47.26	4.09	-52.6	-61.5	3.8	7.46e-01	0	35	104	0	76	10176
2026-01-18 03:21:54.95	46.95	4.19	-52.6	-61.5	3.8	7.44e-01	0	35	104	0	76	10185
2026-01-18 03:21:56.97	46.65	4.30	-52.6	-61.5	3.8	7.44e-01	0	35	104	0	76	10204
2026-01-18 03:21:58.98	46.34	4.40	-52.6	-61.5	3.8	7.45e-01	0	35	104	0	76	10192
2026-01-18 03:22:01.00	46.02	4.51	-52.6	-61.5	3.8	7.46e-01	0	35	104	0	76	10178
2026-01-18 03:22:03.02	45.71	4.61	-52.6	-61.5	3.8	7.43e-01	0	35	104	0	76	10218
2026-01-18 03:22:05.03	45.39	4.72	-52.6	-61.5	3.8	7.45e-01	0	35	104	0	76	10186
2026-01-18 03:22:07.05	45.07	4.82	-52.6	-61.4	3.8	7.44e-01	0	35	104	0	76	10160
2026-01-18 03:22:09.07	44.74	4.92	-52.6	-61.5	3.8	7.46e-01	0	35	104	0	76	10201
2026-01-18 03:22:11.08	44.41	5.03	-52.6	-61.4	3.8	7.45e-01	0	36	104	0	76	10165
2026-01-18 03:22:13.10	44.08	5.13	-52.7	-61.6	3.8	7.45e-01	0	35	104	0	76	10329
2026-01-18 03:22:15.11	43.75	5.23	-52.9	-61.8	3.8	7.45e-01	0	35	104	0	76	10546
2026-01-18 03:22:17.13	43.41	5.34	-52.8	-61.6	3.8	7.46e-01	0	35	104	0	76	10402
2026-01-18 03:22:19.15	43.07	5.44	-53.0	-61.8	3.8	7.47e-01	0	35	104	0	76	10564
2026-01-18 03:22:21.16	42.73	5.54	-52.9	-61.7	3.8	7.46e-01	0	35	104	0	76	10500
2026-01-18 03:22:23.18	42.38	5.64	-53.0	-61.8	3.8	7.45e-01	0	35	104	0	76	10621
2026-01-18 03:22:25.20	42.03	5.74	-52.9	-61.8	3.8	7.45e-01	0	35	104	0	76	10535
2026-01-18 03:22:27.21	41.68	5.85	-53.0	-61.9	3.8	7.46e-01	0	35	104	0	76	10728
2026-01-18 03:22:29.23	41.33	5.95	-52.9	-61.8	3.8	7.45e-01	0	36	104	0	76	10642
2026-01-18 03:22:31.24	40.97	6.05	-53.1	-61.9	3.8	7.45e-01	0	36	104	0	76	10701
2026-01-18 03:22:33.26	40.61	6.15	-53.0	-61.9	3.8	7.45e-01	0	36	104	0	76	10688
2026-01-18 03:22:35.28	40.24	6.25	-53.1	-61.9	3.8	7.44e-01	0	36	104	0	76	10733
2026-01-18 03:22:37.29	39.87	6.35	-53.0	-61.9	3.8	7.46e-01	0	35	104	0	76	10676
2026-01-18 03:22:39.31	39.50	6.45	-53.1	-62.0	3.8	7.46e-01	0	36	104	0	76	10804
2026-01-18 03:22:41.32	39.13	6.55	-53.1	-61.9	3.8	7.44e-01	0	36	104	0	76	10730
2026-01-18 03:22:43.34	38.75	6.64	-53.1	-62.0	3.8	7.42e-01	0	36	104	0	76	10792
2026-01-18 03:22:45.36	38.36	6.74	-53.1	-61.9	3.8	7.44e-01	0	36	104	0	76	10745
2026-01-18 03:22:47.37	37.98	6.84	-53.1	-62.0	3.8	7.45e-01	0	36	104	0	76	10799
2026-01-18 03:22:49.39	37.59	6.94	-53.1	-62.0	3.8	7.45e-01	0	36	104	0	76	10793
2026-01-18 03:22:51.41	37.20	7.03	-53.2	-62.0	3.8	7.47e-01	0	36	104	0	77	10235
2026-01-18 03:22:53.42	36.81	7.13	-53.2	-62.0	3.8	7.44e-01	0	36	104	0	77	10205
2026-01-18 03:22:55.43	36.41	7.22	-53.2	-62.0	3.8	7.47e-01	0	36	104	0	77	10283
2026-01-18 03:22:57.45	36.01	7.32	-53.2	-62.0	3.8	7.45e-01	0	36	104	0	77	10268
2026-01-18 03:22:59.47	35.60	7.41	-53.2	-62.1	3.8	7.46e-01	0	36	104	0	77	10305
2026-01-18 03:23:01.48	35.20	7.51	-53.2	-62.1	3.8	7.45e-01	0	36	104	0	77	10322
2026-01-18 03:23:03.50	34.78	7.60	-53.2	-62.1	3.8	7.45e-01	0	36	104	0	77	10344
2026-01-18 03:23:05.51	34.37	7.69	-53.2	-62.0	3.8	7.45e-01	0	36	104	0	77	10259
2026-01-18 03:23:07.52	33.95	7.78	-53.2	-62.1	3.8	7.46e-01	0	36	104	0	77	10322
2026-01-18 03:23:09.54	33.53	7.87	-53.2	-62.1	3.8	7.46e-01	0	36	104	0	77	10328
2026-01-18 03:23:11.55	33.11	7.96	-53.2	-62.1	3.8	7.45e-01	0	36	104	0	77	10343
2026-01-18 03:23:13.57	32.68	8.05	-53.2	-62.1	3.8	7.45e-01	0	36	104	0	77	10338
2026-01-18 03:23:15.59	32.25	8.14	-53.3	-62.1	3.8	7.45e-01	0	36	104	0	77	10366
2026-01-18 03:23:17.60	31.82	8.22	-53.3	-62.1	3.8	7.46e-01	0	36	104	0	77	10362
2026-01-18 03:23:19.62	31.38	8.31	-53.3	-62.1	3.8	7.45e-01	0	36	104	0	77	10353
2026-01-18 03:23:21.63	30.94	8.39	-53.3	-62.1	3.8	7.45e-01	0	36	104	0	77	10412
2026-01-18 03:23:23.65	30.49	8.48	-53.3	-62.1	3.8	7.46e-01	0	36	104	0	77	10360
2026-01-18 03:23:25.66	30.05	8.56	-53.3	-62.1	3.8	7.47e-01	0	36	104	0	77	10377
2026-01-18 03:23:27.68	29.60	8.64	-53.3	-62.1	3.8	7.44e-01	0	36	104	0	77	10374
2026-01-18 03:23:29.70	29.14	8.72	-53.3	-62.2	3.8	7.45e-01	0	36	104	0	77	10478
2026-01-18 03:23:31.71	28.69	8.80	-53.3	-62.2	3.8	7.45e-01	0	36	104	0	77	10460
2026-01-18 03:23:33.73	28.23	8.88	-53.3	-62.2	3.8	7.45e-01	0	36	104	0	77	10474
2026-01-18 03:23:35.75	27.76	8.96	-53.3	-62.2	3.8	7.46e-01	0	36	104	0	77	10453
2026-01-18 03:23:37.77	27.29	9.04	-53.4	-62.2	3.8	7.46e-01	0	36	104	0	77	10494
2026-01-18 03:23:39.78	26.83	9.11	-53.4	-62.2	3.8	7.46e-01	0	36	104	0	77	10482
2026-01-18 03:23:41.80	26.35	9.19	-53.4	-62.2	3.8	7.45e-01	0	36	104	0	77	10498
2026-01-18 03:23:43.82	25.88	9.26	-53.4	-62.2	3.8	7.46e-01	0	36	104	0	77	10493
2026-01-18 03:23:45.84	25.40	9.33	-53.4	-62.2	3.8	7.46e-01	0	36	104	0	77	10516
2026-01-18 03:23:47.85	24.92	9.40	-53.4	-62.2	3.8	7.45e-01	0	36	104	0	77	10493
2026-01-18 03:23:49.87	24.43	9.47	-53.4	-62.3	3.8	7.47e-01	0	36	104	0	77	10567
2026-01-18 03:23:51.89	23.95	9.54	-53.4	-62.2	3.8	7.45e-01	0	36	104	0	77	10486
2026-01-18 03:23:53.90	23.46	9.60	-53.4	-62.3	3.8	7.46e-01	0	36	104	0	77	10568
2026-01-18 03:23:55.91	22.97	9.66	-53.4	-62.2	3.8	7.46e-01	0	36	104	0	77	10530
2026-01-18 03:23:57.93	22.47	9.73	-53.5	-62.3	3.8	7.45e-01	0	36	104	0	77	10604
2026-01-18 03:23:59.95	21.97	9.79	-53.4	-62.3	3.8	7.44e-01	0	36	104	0	77	10551
2026-01-18 03:24:01.96	21.48	9.85	-53.5	-62.3	3.8	7.47e-01	0	36	104	0	77	10576
2026-01-18 03:24:03.98	20.97	9.91	-53.4	-62.3	3.8	7.43e-01	0	36	104	0	77	10600
2026-01-18 03:24:05.99	20.47	9.96	-53.5	-62.3	3.8	7.45e-01	0	36	104	0	77	10611
2026-01-18 03:24:08.01	19.96	10.02	-53.4	-62.3	3.8	7.46e-01	0	36	104	0	77	10575
2026-01-18 03:24:10.02	19.45	10.07	-53.5	-62.3	3.8	7.46e-01	0	36	104	0	77	10614
2026-01-18 03:24:12.04	18.94	10.12	-53.5	-62.3	3.8	7.45e-01	0	36	104	0	77	10541
2026-01-18 03:24:14.05	18.43	10.17	-53.5	-62.3	3.8	7.45e-01	0	36	104	0	77	10644
2026-01-18 03:24:16.07	17.91	10.22	-53.5	-62.3	3.8	7.45e-01	0	36	104	0	77	10581
2026-01-18 03:24:18.09	17.39	10.27	-53.5	-62.3	3.8	7.47e-01	0	36	104	0	77	10642
2026-01-18 03:24:20.10	16.87	10.31	-53.5	-62.3	3.8	7.45e-01	0	36	104	0	77	10623
2026-01-18 03:24:22.12	16.35	10.35	-53.5	-62.4	3.8	7.44e-01	0	36	104	0	77	10657
2026-01-18 03:24:24.13	15.82	10.39	-53.5	-62.3	3.8	7.44e-01	0	36	104	0	77	10633
2026-01-18 03:24:26.15	15.30	10.43	-53.5	-62.4	3.8	7.44e-01	0	36	104	0	77	10672
2026-01-18 03:24:28.17	14.77	10.47	-53.5	-62.4	3.8	7.45e-01	0	36	104	0	77	10690
2026-01-18 03:24:30.18	14.24	10.51	-53.5	-62.4	3.8	7.45e-01	0	36	104	0	77	10662
2026-01-18 03:24:32.20	13.71	10.54	-53.5	-62.4	3.8	7.43e-01	0	36	104	0	77	10670
2026-01-18 03:24:34.22	13.18	10.57	-53.5	-62.4	3.8	7.45e-01	0	36	104	0	77	10701
2026-01-18 03:24:36.23	12.64	10.60	-53.5	-62.4	3.8	7.46e-01	0	36	104	0	77	10694
2026-01-18 03:24:38.25	12.11	10.63	-53.6	-62.4	3.8	7.45e-01	0	36	104	0	77	10733
2026-01-18 03:24:40.27	11.57	10.65	-53.5	-62.3	3.8	7.46e-01	0	36	104	0	77	10647
2026-01-18 03:24:42.29	11.03	10.67	-53.6	-62.4	3.8	7.45e-01	0	36	104	0	77	10740
2026-01-18 03:24:44.30	10.50	10.70	-53.5	-62.4	3.8	7.46e-01	0	36	104	0	77	10683
2026-01-18 03:24:46.32	9.96	10.71	-53.6	-62.4	3.8	7.43e-01	0	36	104	0	77	10707
2026-01-18 03:24:48.33	9.42	10.73	-53.5	-62.4	3.8	7.44e-01	0	36	104	0	77	10684
2026-01-18 03:24:50.35	8.88	10.75	-53.6	-62.4	3.8	7.45e-01	0	36	104	0	77	10710
2026-01-18 03:24:52.37	8.33	10.76	-53.5	-62.4	3.8	7.46e-01	0	36	104	0	77	10706
2026-01-18 03:24:54.38	7.79	10.77	-53.6	-62.4	3.8	7.47e-01	0	36	104	0	77	10691
2026-01-18 03:24:56.40	7.25	10.78	-53.5	-62.4	3.8	7.46e-01	0	36	104	0	77	10658
2026-01-18 03:24:58.41	6.71	10.79	-53.6	-62.4	3.8	7.46e-01	0	36	104	0	77	10708
2026-01-18 03:25:00.43	6.17	10.79	-53.6	-62.4	3.8	7.45e-01	0	36	104	0	77	10692
2026-01-18 03:25:02.44	5.63	10.79	-53.6	-62.4	3.8	7.47e-01	0	36	104	0	77	10732
2026-01-18 03:25:04.46	5.08	10.79	-53.6	-62.4	3.8	7.43e-01	0	36	104	0	77	10702
2026-01-18 03:25:06.48	4.54	10.79	-53.6	-62.4	3.8	7.45e-01	0	36	104	0	77	10754
2026-01-18 03:25:08.49	4.00	10.79	-53.6	-62.4	3.8	7.46e-01	0	36	104	0	77	10714
2026-01-18 03:25:10.51	3.45	10.78	-53.6	-62.4	3.8	7.46e-01	0	36	104	0	77	10742
2026-01-18 03:25:12.52	2.91	10.77	-53.6	-62.4	3.8	7.45e-01	0	36	104	0	77	10706
2026-01-18 03:25:14.54	2.37	10.76	-53.6	-62.4	3.8	7.46e-01	0	36	104	0	77	10733
2026-01-18 03:25:16.55	1.83	10.75	-53.6	-62.4	3.8	7.46e-01	0	36	104	0	77	10737
2026-01-18 03:25:18.57	1.29	10.74	-53.6	-62.4	3.8	7.47e-01	0	36	104	0	77	10752
2026-01-18 03:25:20.58	0.75	10.72	-53.5	-62.4	3.8	7.46e-01	0	36	104	0	77	10702
2026-01-18 03:25:22.60	0.21	10.70	-53.6	-62.4	3.8	7.45e-01	0	36	104	0	77	10733
2026-01-18 03:25:24.62	359.67	10.68	-53.5	-62.4	3.8	7.46e-01	0	36	104	0	77	10704
2026-01-18 03:25:26.64	359.13	10.66	-53.6	-62.4	3.8	7.46e-01	0	36	104	0	77	10711
2026-01-18 03:25:28.65	358.60	10.63	-53.5	-62.4	3.8	7.46e-01	0	36	104	0	77	10702
2026-01-18 03:25:30.67	358.06	10.61	-53.6	-62.4	3.8	7.44e-01	0	36	104	0	77	10711
2026-01-18 03:25:32.68	357.53	10.58	-53.5	-62.4	3.8	7.45e-01	0	36	104	0	77	10665
2026-01-18 03:25:34.70	356.99	10.55	-53.6	-62.4	3.8	7.46e-01	0	36	104	0	77	10744
2026-01-18 03:25:36.71	356.46	10.52	-53.5	-62.4	3.8	7.45e-01	0	36	104	0	77	10664
2026-01-18 03:25:38.73	355.93	10.48	-53.6	-62.4	3.8	7.45e-01	0	36	104	0	77	10718
2026-01-18 03:25:40.74	355.41	10.45	-53.5	-62.4	3.8	7.45e-01	0	36	104	0	77	10656
2026-01-18 03:25:42.76	354.88	10.41	-53.6	-62.4	3.8	7.45e-01	0	36	104	0	77	10740
2026-01-18 03:25:44.77	354.36	10.37	-53.5	-62.3	3.8	7.46e-01	0	36	104	0	77	10634
2026-01-18 03:25:46.79	353.83	10.32	-53.6	-62.4	3.8	7.44e-01	0	36	104	0	77	10706
2026-01-18 03:25:48.80	353.31	10.28	-53.5	-62.4	3.8	7.44e-01	0	36	104	0	77	10660
2026-01-18 03:25:50.82	352.79	10.24	-53.6	-62.4	3.8	7.44e-01	0	36	104	0	77	10739
2026-01-18 03:25:52.83	352.28	10.19	-53.5	-62.4	3.8	7.46e-01	0	36	104	0	77	10710
2026-01-18 03:25:54.85	351.76	10.14	-53.6	-62.4	3.8	7.47e-01	0	36	104	0	77	10697
2026-01-18 03:25:56.86	351.25	10.09	-53.5	-62.4	3.8	7.44e-01	0	36	104	0	77	10661
2026-01-18 03:25:58.88	350.74	10.04	-53.6	-62.4	3.8	7.45e-01	0	36	104	0	77	10711
2026-01-18 03:26:00.89	350.23	9.98	-53.5	-62.3	3.8	7.46e-01	0	36	104	0	77	10631
2026-01-18 03:26:02.91	349.73	9.93	-53.5	-62.4	3.8	7.46e-01	0	36	104	0	77	10676
2026-01-18 03:26:04.92	349.23	9.87	-53.5	-62.3	3.8	7.45e-01	0	36	104	0	77	10615
2026-01-18 03:26:06.94	348.72	9.81	-53.5	-62.4	3.8	7.47e-01	0	36	104	0	77	10669
2026-01-18 03:26:08.95	348.23	9.75	-53.5	-62.3	3.8	7.44e-01	0	36	104	0	77	10624
2026-01-18 03:26:10.97	347.73	9.69	-53.5	-62.4	3.8	7.45e-01	0	36	104	0	77	10705
2026-01-18 03:26:12.98	347.24	9.62	-53.5	-62.3	3.8	7.44e-01	0	36	104	0	77	10607
2026-01-18 03:26:15.00	346.75	9.56	-53.5	-62.4	3.8	7.45e-01	0	36	104	0	77	10658
2026-01-18 03:26:17.02	346.26	9.49	-53.5	-62.3	3.8	7.45e-01	0	36	104	0	77	10600
2026-01-18 03:26:19.03	345.78	9.42	-53.5	-62.4	3.8	7.44e-01	0	36	104	0	77	10662
2026-01-18 03:26:21.05	345.29	9.35	-53.4	-62.3	3.8	7.46e-01	0	36	104	0	77	10599
2026-01-18 03:26:23.06	344.82	9.28	-53.5	-62.3	3.8	7.44e-01	0	36	104	0	77	10598
2026-01-18 03:26:25.08	344.34	9.21	-53.4	-62.3	3.8	7.46e-01	0	36	104	0	77	10552
2026-01-18 03:26:27.09	343.87	9.14	-53.5	-62.3	3.8	7.46e-01	0	36	104	0	77	10600
2026-01-18 03:26:29.11	343.40	9.06	-53.4	-62.3	3.8	7.45e-01	0	36	104	0	77	10566
2026-01-18 03:26:31.12	342.93	8.99	-53.5	-62.3	3.8	7.46e-01	0	36	104	0	77	10557
2026-01-18 03:26:33.14	342.47	8.91	-53.4	-62.3	3.8	7.43e-01	0	36	104	0	77	10547
2026-01-18 03:26:35.15	342.01	8.83	-53.5	-62.3	3.8	7.45e-01	0	36	104	0	77	10587
2026-01-18 03:26:37.17	341.55	8.75	-53.4	-62.2	3.8	7.45e-01	0	36	104	0	77	10506
2026-01-18 03:26:39.18	341.10	8.67	-53.4	-62.3	3.8	7.45e-01	0	36	104	0	77	10586
2026-01-18 03:26:41.20	340.64	8.59	-53.4	-62.2	3.8	7.45e-01	0	36	104	0	77	10510
2026-01-18 03:26:43.22	340.20	8.51	-53.4	-62.3	3.8	7.45e-01	0	36	104	0	77	10561
2026-01-18 03:26:45.23	339.75	8.42	-53.4	-62.2	3.8	7.44e-01	0	36	104	0	77	10474
2026-01-18 03:26:47.25	339.31	8.34	-53.4	-62.3	3.8	7.45e-01	0	36	104	0	77	10556
2026-01-18 03:26:49.27	338.87	8.25	-53.4	-62.2	3.8	7.45e-01	0	36	104	0	77	10486
2026-01-18 03:26:51.28	338.44	8.17	-53.4	-62.3	3.8	7.46e-01	0	36	104	0	77	10553
2026-01-18 03:26:53.29	338.01	8.08	-53.4	-62.2	3.8	7.45e-01	0	36	104	0	77	10479
2026-01-18 03:26:55.31	337.58	7.99	-53.4	-62.2	3.8	7.45e-01	0	36	104	0	77	10468
2026-01-18 03:26:57.32	337.15	7.90	-53.3	-62.2	3.8	7.48e-01	0	36	104	0	77	10428
2026-01-18 03:26:59.34	336.73	7.81	-53.4	-62.2	3.8	7.46e-01	0	36	104	0	77	10455
2026-01-18 03:27:01.36	336.31	7.72	-53.3	-62.2	3.8	7.45e-01	0	36	104	0	77	10436
2026-01-18 03:27:03.37	335.90	7.63	-53.3	-62.1	3.8	7.47e-01	0	36	104	0	77	10405
2026-01-18 03:27:05.38	335.49	7.54	-53.3	-62.2	3.8	7.44e-01	0	36	104	0	77	10417
2026-01-18 03:27:07.40	335.08	7.44	-53.3	-62.1	3.8	7.47e-01	0	36	104	0	77	10364
2026-01-18 03:27:09.42	334.67	7.35	-53.2	-62.1	3.8	7.44e-01	0	36	104	0	77	10314
2026-01-18 03:27:11.43	334.27	7.26	-53.3	-62.1	3.8	7.43e-01	0	36	104	0	77	10391
2026-01-18 03:27:13.45	333.87	7.16	-53.2	-62.1	3.8	7.45e-01	0	36	104	0	77	10340
2026-01-18 03:27:15.46	333.47	7.07	-53.3	-62.1	3.8	7.45e-01	0	36	104	0	77	10301
2026-01-18 03:27:17.48	333.08	6.97	-53.2	-62.0	3.8	7.45e-01	0	36	104	0	77	10290
2026-01-18 03:27:19.49	332.69	6.87	-53.2	-62.0	3.8	7.46e-01	0	36	104	0	77	10271
2026-01-18 03:27:21.51	332.31	6.78	-53.2	-62.0	3.8	7.45e-01	0	36	104	0	77	10290
2026-01-18 03:27:23.53	331.92	6.68	-53.2	-62.0	3.8	7.45e-01	0	36	104	0	77	10233
2026-01-18 03:27:25.54	331.55	6.58	-53.2	-62.0	3.8	7.46e-01	0	36	104	0	77	10235
2026-01-18 03:27:27.56	331.17	6.48	-53.1	-61.9	3.8	7.44e-01	0	36	104	0	77	10142
2026-01-18 03:27:29.58	330.80	6.38	-53.1	-62.0	3.8	7.46e-01	0	36	104	0	77	10194
2026-01-18 03:27:31.59	330.43	6.28	-53.1	-61.9	3.8	7.45e-01	0	36	104	0	77	10166
2026-01-18 03:27:33.61	330.06	6.18	-53.1	-61.9	3.8	7.46e-01	0	36	104	0	77	10153
2026-01-18 03:27:35.62	329.70	6.08	-53.0	-61.9	3.8	7.46e-01	0	36	104	0	77	10072
2026-01-18 03:27:37.64	329.34	5.98	-53.1	-61.9	3.8	7.45e-01	0	36	104	0	77	10141
2026-01-18 03:27:39.65	328.99	5.88	-53.0	-61.8	3.8	7.46e-01	0	36	104	0	77	10039
2026-01-18 03:27:41.67	328.63	5.78	-53.0	-61.9	3.8	7.45e-01	0	36	104	0	77	10083
2026-01-18 03:27:43.68	328.28	5.68	-52.9	-61.8	3.8	7.44e-01	0	36	104	0	77	10000
2026-01-18 03:27:45.70	327.93	5.58	-53.0	-61.8	3.8	7.46e-01	0	36	104	0	77	10037
2026-01-18 03:27:47.71	327.59	5.48	-52.9	-61.8	3.8	7.45e-01	0	36	104	0	77	9957
2026-01-18 03:27:49.73	327.25	5.37	-53.0	-61.8	3.8	7.44e-01	0	36	104	0	77	10033
2026-01-18 03:27:51.75	326.91	5.27	-52.8	-61.7	3.8	7.45e-01	0	36	104	0	77	9837
2026-01-18 03:27:53.77	326.58	5.17	-52.9	-61.8	3.8	7.44e-01	0	36	104	0	77	9979
2026-01-18 03:27:55.78	326.25	5.06	-52.8	-61.6	3.8	7.46e-01	0	36	104	0	77	9827
2026-01-18 03:27:57.79	325.92	4.96	-53.0	-61.8	3.8	7.45e-01	0	36	104	0	77	9987
2026-01-18 03:27:59.81	325.59	4.86	-53.6	-62.5	3.8	7.46e-01	0	36	104	0	77	10790
2026-01-18 03:28:01.82	325.27	4.75	-54.0	-62.9	3.8	7.43e-01	0	37	104	0	78	10697
2026-01-18 03:28:03.84	324.95	4.65	-54.3	-63.1	3.8	7.46e-01	0	36	104	0	79	10338
2026-01-18 03:28:05.86	324.63	4.55	-54.5	-63.3	3.8	7.46e-01	0	36	104	0	79	10591
2026-01-18 03:28:07.87	324.32	4.44	-54.6	-63.5	3.8	7.45e-01	0	37	104	0	79	10782
2026-01-18 03:28:09.89	324.01	4.34	-54.7	-63.6	3.8	7.46e-01	0	36	104	0	79	10909
2026-01-18 03:28:11.90	323.70	4.23	-54.7	-63.5	3.8	7.43e-01	0	36	104	0	80	10293
2026-01-18 03:28:13.92	323.40	4.13	-54.8	-63.6	3.8	7.45e-01	0	36	104	0	80	10352
2026-01-18 03:28:15.94	323.09	4.02	-54.8	-63.6	3.8	7.45e-01	0	36	104	0	80	10392
2026-01-18 03:28:17.95	322.80	3.92	-54.7	-63.6	3.8	7.46e-01	0	36	104	0	80	10372
2026-01-18 03:28:19.97	322.50	3.82	-54.7	-63.6	3.8	7.45e-01	0	36	104	0	80	10332
2026-01-18 03:28:21.99	322.20	3.71	-54.7	-63.6	3.8	7.45e-01	0	36	104	0	80	10310
2026-01-18 03:28:24.00	321.91	3.61	-54.7	-63.6	3.8	7.45e-01	0	36	104	0	80	10315
2026-01-18 03:28:26.02	321.62	3.50	-54.7	-63.5	3.8	7.45e-01	0	36	104	0	80	10293
2026-01-18 03:28:28.03	321.34	3.40	-54.7	-63.5	3.8	7.44e-01	0	36	104	0	80	10240
2026-01-18 03:28:30.05	321.06	3.29	-54.7	-63.5	3.8	7.44e-01	0	36	104	0	80	10261
2026-01-18 03:28:32.06	320.78	3.19	-54.7	-63.5	3.8	7.46e-01	0	36	104	0	80	10276
2026-01-18 03:28:34.08	320.50	3.08	-54.7	-63.5	3.8	7.44e-01	0	36	104	0	80	10276
2026-01-18 03:28:36.09	320.22	2.98	-54.6	-63.5	3.8	7.46e-01	0	36	104	0	80	10234
2026-01-18 03:28:38.11	319.95	2.87	-54.6	-63.5	3.8	7.46e-01	0	36	104	0	80	10272
2026-01-18 03:28:40.13	319.68	2.77	-54.6	-63.5	3.8	7.46e-01	0	37	104	0	80	10232
2026-01-18 03:28:42.14	319.41	2.66	-54.6	-63.5	3.8	7.46e-01	0	36	104	0	80	10220
2026-01-18 03:28:44.15	319.15	2.56	-54.6	-63.5	3.8	7.45e-01	0	36	104	0	80	10217
2026-01-18 03:28:46.17	318.89	2.46	-54.6	-63.5	3.8	7.45e-01	0	36	104	0	80	10217
2026-01-18 03:28:48.19	318.62	2.35	-54.6	-63.5	3.8	7.46e-01	0	36	104	0	80	10231
2026-01-18 03:28:50.20	318.37	2.25	-54.6	-63.5	3.8	7.46e-01	0	36	104	0	80	10204
2026-01-18 03:28:52.22	318.11	2.14	-54.6	-63.5	3.8	7.46e-01	0	36	104	0	80	10188
2026-01-18 03:28:54.23	317.86	2.04	-54.6	-63.5	3.8	7.45e-01	0	36	104	0	80	10192

#Closed at: 2026-01-18 03:28:56
#Recorded file [0 MB]: D:/lorett/data/31041_260118_062112.dat