passes_logs/2026/01/18/R3.2S_Murmansk/R3.2S_Murmansk__20260118_204156_TY-42_rec.log

#Pass ID: 20260118_204156_TY-42
#Satellite: TY-42
#Configuration: TY-42_900M
#almurnet v.1.7.20251203
#Start time: 2026-01-18 20:41:55

#Version: 2.2.20231116
#Station: R3.2S_Murmansk
#Location: 33.079688 lon 68.888172 lat
#TLE: 1 64048U 25103A   26018.72976852  .00008010  00000-0  38191-3 0 09990
#TLE: 2 64048 097.4122 094.0771 0001867 093.5651 311.8460 15.19169237 37386

#Time	Az	El	Level	Level2	SNR	BER	BlckErr	Temp	State	Recorded	gain1	gain2
2026-01-18 20:41:55.95	211.58	1.97	-52.7	-54.9	6.3	0.00e+00	0	42	0	0	77	18047
2026-01-18 20:41:58.97	211.87	2.15	-52.7	-54.9	6.2	0.00e+00	0	43	104	0	77	18034
2026-01-18 20:42:01.99	212.16	2.33	-52.7	-54.9	6.2	0.00e+00	0	43	104	0	77	18019
2026-01-18 20:42:05.02	212.45	2.51	-52.7	-54.9	6.2	0.00e+00	0	43	104	0	77	18020
2026-01-18 20:42:08.04	212.76	2.70	-52.7	-54.9	6.2	0.00e+00	0	43	104	0	77	17986
2026-01-18 20:42:11.06	213.06	2.89	-52.7	-54.9	6.2	0.00e+00	0	43	104	0	77	18058
2026-01-18 20:42:14.09	213.37	3.07	-52.7	-54.9	6.2	0.00e+00	0	43	104	0	77	17974
2026-01-18 20:42:17.11	213.69	3.26	-52.7	-54.9	6.2	0.00e+00	0	44	104	0	77	18024
2026-01-18 20:42:20.14	214.01	3.45	-52.7	-54.8	6.2	0.00e+00	0	44	104	0	77	17966
2026-01-18 20:42:23.16	214.33	3.64	-52.7	-54.9	6.2	0.00e+00	0	44	104	0	77	17978
2026-01-18 20:42:26.19	214.66	3.83	-52.7	-54.8	6.2	0.00e+00	0	44	104	0	77	17951
2026-01-18 20:42:29.21	215.00	4.02	-52.7	-54.9	6.2	0.00e+00	0	44	104	0	77	17986
2026-01-18 20:42:32.23	215.34	4.22	-52.7	-54.9	6.2	0.00e+00	0	44	104	0	77	18012
2026-01-18 20:42:35.26	215.68	4.41	-52.7	-54.9	6.2	0.00e+00	0	44	104	0	77	17979
2026-01-18 20:42:38.28	216.04	4.61	-52.7	-54.9	6.2	0.00e+00	0	44	104	0	77	18002
2026-01-18 20:42:41.30	216.39	4.81	-52.7	-54.9	6.2	0.00e+00	0	44	104	0	77	17984
2026-01-18 20:42:44.33	216.76	5.01	-52.7	-54.9	6.2	0.00e+00	0	44	104	0	77	17985
2026-01-18 20:42:47.35	217.13	5.20	-52.8	-54.9	6.2	0.00e+00	0	45	104	0	77	18121
2026-01-18 20:42:50.37	217.50	5.40	-52.9	-55.0	6.2	0.00e+00	0	45	104	0	77	18312
2026-01-18 20:42:53.40	217.89	5.61	-52.8	-54.9	6.2	0.00e+00	0	45	104	0	77	18083
2026-01-18 20:42:56.42	218.28	5.81	-52.8	-54.9	6.2	0.00e+00	0	45	104	0	77	18070
2026-01-18 20:42:59.44	218.67	6.01	-52.9	-55.0	6.2	0.00e+00	0	45	104	0	77	18254
2026-01-18 20:43:02.47	219.07	6.22	-52.9	-55.1	6.2	0.00e+00	0	45	104	0	77	18416
2026-01-18 20:43:05.50	219.48	6.43	-52.9	-55.0	6.2	0.00e+00	0	45	104	0	77	18267
2026-01-18 20:43:08.52	219.90	6.63	-52.8	-55.0	6.2	0.00e+00	0	45	104	0	77	18266
2026-01-18 20:43:11.55	220.32	6.84	-52.9	-55.0	6.2	0.00e+00	0	45	104	0	77	18358
2026-01-18 20:43:14.57	220.76	7.05	-53.0	-55.1	6.2	0.00e+00	0	45	104	0	77	18547
2026-01-18 20:43:17.59	221.19	7.26	-53.0	-55.1	6.2	0.00e+00	0	45	104	0	77	18566
2026-01-18 20:43:20.61	221.64	7.47	-52.9	-55.1	6.2	0.00e+00	0	45	104	0	77	18434
2026-01-18 20:43:23.64	222.09	7.69	-53.0	-55.1	6.2	0.00e+00	0	45	104	0	77	18598
2026-01-18 20:43:26.66	222.56	7.90	-53.1	-55.2	6.2	0.00e+00	0	45	104	0	77	18671
2026-01-18 20:43:29.69	223.03	8.12	-53.1	-55.2	6.2	0.00e+00	0	46	104	0	77	18675
2026-01-18 20:43:32.71	223.51	8.33	-53.0	-55.1	6.2	0.00e+00	0	45	104	0	77	18598
2026-01-18 20:43:35.73	223.99	8.55	-53.1	-55.2	6.2	0.00e+00	0	45	104	0	77	18719
2026-01-18 20:43:38.76	224.49	8.77	-53.1	-55.2	6.2	0.00e+00	0	46	104	0	77	18815
2026-01-18 20:43:41.78	224.99	8.99	-53.1	-55.3	6.2	0.00e+00	0	46	104	0	77	18873
2026-01-18 20:43:44.80	225.51	9.21	-53.1	-55.2	6.2	0.00e+00	0	46	104	0	77	18759
2026-01-18 20:43:47.83	226.03	9.43	-53.1	-55.2	6.2	0.00e+00	0	46	104	0	77	18806
2026-01-18 20:43:50.85	226.57	9.65	-53.2	-55.3	6.2	0.00e+00	0	45	104	0	77	18998
2026-01-18 20:43:53.88	227.11	9.87	-53.2	-55.3	6.2	0.00e+00	0	46	104	0	77	19027
2026-01-18 20:43:56.90	227.66	10.10	-53.1	-55.3	6.2	0.00e+00	0	46	104	0	77	18894
2026-01-18 20:43:59.93	228.23	10.32	-53.2	-55.3	6.2	0.00e+00	0	46	104	0	77	19001
2026-01-18 20:44:02.95	228.80	10.54	-53.2	-55.4	6.2	0.00e+00	0	46	104	0	77	19083
2026-01-18 20:44:05.97	229.38	10.77	-53.3	-55.4	6.2	0.00e+00	0	46	104	0	77	19142
2026-01-18 20:44:09.00	229.98	10.99	-53.2	-55.3	6.2	0.00e+00	0	46	104	0	77	18961
2026-01-18 20:44:12.03	230.58	11.22	-53.2	-55.4	6.2	0.00e+00	0	46	104	0	77	19078
2026-01-18 20:44:15.05	231.20	11.44	-53.3	-55.4	6.2	0.00e+00	0	46	104	0	77	19170
2026-01-18 20:44:18.07	231.83	11.67	-53.3	-55.4	6.2	0.00e+00	0	46	104	0	77	19235
2026-01-18 20:44:21.09	232.46	11.89	-53.3	-55.4	6.2	0.00e+00	0	46	104	0	77	19111
2026-01-18 20:44:24.12	233.12	12.12	-53.3	-55.4	6.2	0.00e+00	0	46	104	0	77	19195
2026-01-18 20:44:27.14	233.78	12.34	-53.3	-55.4	6.2	0.00e+00	0	46	104	0	77	19191
2026-01-18 20:44:30.17	234.45	12.57	-53.3	-55.5	6.2	0.00e+00	0	46	104	0	77	19353
2026-01-18 20:44:33.19	235.14	12.79	-53.3	-55.5	6.2	0.00e+00	0	46	104	0	77	19278
2026-01-18 20:44:36.21	235.84	13.02	-53.3	-55.5	6.2	0.00e+00	0	46	104	0	77	19276
2026-01-18 20:44:39.24	236.55	13.24	-53.3	-55.5	6.2	0.00e+00	0	46	104	0	77	19290
2026-01-18 20:44:42.26	237.27	13.46	-53.4	-55.5	6.2	0.00e+00	0	46	104	0	77	19406
2026-01-18 20:44:45.28	238.01	13.68	-53.3	-55.5	6.2	0.00e+00	0	46	104	0	77	19298
2026-01-18 20:44:48.31	238.76	13.90	-53.3	-55.5	6.2	0.00e+00	0	46	104	0	77	19303
2026-01-18 20:44:51.33	239.52	14.12	-53.4	-55.5	6.2	0.00e+00	0	46	104	0	77	19370
2026-01-18 20:44:54.35	240.29	14.33	-53.4	-55.5	6.2	0.00e+00	0	46	104	0	77	19379
2026-01-18 20:44:57.38	241.08	14.55	-53.4	-55.5	6.2	0.00e+00	0	46	104	0	77	19408
2026-01-18 20:45:00.40	241.88	14.76	-34.2	-34.1	15.2	0.00e+00	0	48	0	109051904	40	13815
2026-01-18 20:45:03.43	242.70	14.97	-32.9	-32.9	15.7	2.95e-02	0	48	0	452984832	37	14278
2026-01-18 20:45:06.45	243.53	15.18	-32.9	-32.8	15.7	8.42e-02	0	48	0	796917760	37	14172
2026-01-18 20:45:09.48	244.37	15.38	-32.9	-32.8	15.7	1.64e-03	0	48	0	1132462080	37	14143
2026-01-18 20:45:12.49	245.22	15.58	-32.7	-32.6	15.7	1.47e-03	0	48	0	1476395008	37	13835
2026-01-18 20:45:15.52	246.09	15.78	-32.7	-32.5	15.8	1.28e-03	0	49	0	1811939328	37	13784
2026-01-18 20:45:18.54	246.97	15.98	-32.7	-32.6	15.8	1.12e-03	0	49	0	2147483648	37	13841
2026-01-18 20:45:21.57	247.86	16.17	-32.9	-32.8	15.7	1.32e-03	0	49	0	2499805184	37	14191
2026-01-18 20:45:24.59	248.77	16.35	-32.4	-32.3	15.8	1.32e-03	0	49	0	2835349504	36	14204
2026-01-18 20:45:27.62	249.69	16.54	-32.1	-32.0	15.9	1.10e-03	0	49	0	3170893824	36	13698
2026-01-18 20:45:30.64	250.62	16.71	-32.2	-32.1	16.0	6.25e-04	0	49	0	3506438144	36	13791
2026-01-18 20:45:33.67	251.57	16.89	-32.2	-32.1	16.0	6.96e-04	0	49	0	3858759680	36	13843
2026-01-18 20:45:36.69	252.52	17.05	-32.2	-32.1	15.9	6.96e-04	0	49	0	4194304000	36	13831
2026-01-18 20:45:39.71	253.49	17.21	-32.3	-32.2	15.9	6.29e-04	0	49	0	4538236928	36	14019
2026-01-18 20:45:42.74	254.47	17.37	-32.0	-31.9	16.0	5.86e-04	0	49	0	4873781248	36	13554
2026-01-18 20:45:45.76	255.46	17.52	-29.6	-29.5	15.6	8.20e-04	0	49	0	5217714176	31	13738
2026-01-18 20:45:48.79	256.46	17.66	-29.8	-29.7	15.5	2.26e-03	0	49	0	5561647104	31	14079
2026-01-18 20:45:51.81	257.48	17.80	-29.7	-29.6	15.5	2.35e-03	0	49	0	5897191424	31	13916
2026-01-18 20:45:54.84	258.50	17.93	-29.5	-29.4	15.6	2.35e-03	0	49	0	6232735744	31	13612
2026-01-18 20:45:57.86	259.53	18.05	-29.6	-29.5	15.5	1.88e-03	0	49	0	6585057280	30	14528
2026-01-18 20:46:00.89	260.58	18.17	-29.5	-29.4	15.6	1.86e-03	0	49	0	6920601600	30	14391
2026-01-18 20:46:03.91	261.62	18.28	-29.5	-29.4	15.6	2.05e-03	0	49	0	7256145920	30	14316
2026-01-18 20:46:06.93	262.68	18.38	-29.5	-29.4	15.6	1.89e-03	0	50	0	7591690240	30	14325
2026-01-18 20:46:09.95	263.75	18.47	-29.5	-29.4	15.6	2.06e-03	0	50	0	7944011776	30	14424
2026-01-18 20:46:12.98	264.82	18.55	-29.4	-29.3	15.6	2.19e-03	0	50	0	8279556096	30	14256
2026-01-18 20:46:16.00	265.90	18.63	-29.5	-29.4	15.6	1.82e-03	0	50	0	8615100416	30	14296
2026-01-18 20:46:19.03	266.98	18.69	-29.5	-29.3	15.6	1.85e-03	0	50	0	8959033344	30	14268
2026-01-18 20:46:22.05	268.07	18.75	-29.4	-29.3	15.6	1.75e-03	0	50	0	9302966272	30	14257
2026-01-18 20:46:25.07	269.16	18.80	-29.4	-29.3	15.6	1.64e-03	0	50	0	9638510592	30	14161
2026-01-18 20:46:28.10	270.26	18.84	-29.5	-29.4	15.5	1.93e-03	0	50	0	9982443520	30	14379
2026-01-18 20:46:31.12	271.36	18.86	-29.7	-29.6	15.4	1.99e-03	0	50	0	10317987840	30	14685
2026-01-18 20:46:34.14	272.46	18.88	-29.5	-29.4	15.5	1.99e-03	0	50	0	10661920768	30	14417
2026-01-18 20:46:37.17	273.57	18.90	-29.5	-29.4	15.5	2.07e-03	0	50	0	11005853696	30	14374
2026-01-18 20:46:40.19	274.67	18.90	-29.4	-29.3	15.5	1.80e-03	0	50	0	11341398016	30	14182
2026-01-18 20:46:43.21	275.77	18.89	-29.5	-29.4	15.5	1.72e-03	0	50	0	11676942336	30	14398
2026-01-18 20:46:46.24	276.87	18.87	-29.6	-29.5	15.5	1.85e-03	0	50	0	12012486656	30	14512
2026-01-18 20:46:49.26	277.97	18.85	-29.8	-29.7	15.4	2.23e-03	0	50	0	12364808192	30	14825
2026-01-18 20:46:52.29	279.07	18.81	-29.8	-29.8	15.4	2.23e-03	0	50	0	12700352512	30	14948
2026-01-18 20:46:55.31	280.16	18.77	-30.0	-29.9	15.3	2.55e-03	0	50	0	13035896832	30	15164
2026-01-18 20:46:58.33	281.25	18.71	-30.0	-29.9	15.3	2.66e-03	0	50	0	13379829760	30	15135
2026-01-18 20:47:01.36	282.34	18.65	-29.9	-29.8	15.3	2.51e-03	0	51	0	13723762688	30	15030
2026-01-18 20:47:04.38	283.41	18.58	-29.9	-29.8	15.3	2.54e-03	0	50	0	14059307008	30	15119
2026-01-18 20:47:07.40	284.49	18.50	-29.9	-29.8	15.3	2.71e-03	0	50	0	14403239936	30	15112
2026-01-18 20:47:10.42	285.55	18.41	-30.0	-29.9	15.3	2.59e-03	0	51	0	14738784256	30	15163
2026-01-18 20:47:13.45	286.61	18.31	-30.0	-29.9	15.3	2.82e-03	0	50	0	15082717184	30	15233
2026-01-18 20:47:16.47	287.66	18.21	-30.1	-30.0	15.4	2.74e-03	0	50	0	15426650112	31	14477
2026-01-18 20:47:19.49	288.70	18.10	-30.1	-30.0	15.4	2.97e-03	0	51	0	15762194432	31	14449
2026-01-18 20:47:22.52	289.74	17.98	-30.1	-30.0	15.4	2.68e-03	0	51	0	16097738752	31	14551
2026-01-18 20:47:25.54	290.76	17.85	-30.1	-30.0	15.4	2.63e-03	0	51	0	16450060288	31	14571
2026-01-18 20:47:28.57	291.77	17.71	-30.3	-30.2	15.3	2.92e-03	0	51	0	16785604608	31	14908
2026-01-18 20:47:31.59	292.78	17.57	-30.3	-30.2	15.3	2.78e-03	0	50	0	17121148928	31	14947
2026-01-18 20:47:34.61	293.77	17.43	-30.4	-30.2	15.3	2.89e-03	0	51	0	17456693248	31	14945
2026-01-18 20:47:37.64	294.75	17.27	-30.4	-30.3	15.4	2.94e-03	0	50	0	17800626176	31	15024
2026-01-18 20:47:40.67	295.72	17.11	-30.5	-30.4	15.4	2.69e-03	0	50	0	18144559104	31	15288
2026-01-18 20:47:43.69	296.67	16.95	-30.6	-30.5	15.3	3.03e-03	0	51	0	18480103424	31	15423
2026-01-18 20:47:46.71	297.62	16.78	-30.4	-30.3	15.4	3.73e-03	0	51	0	18824036352	32	14195
2026-01-18 20:47:49.74	298.55	16.60	-30.6	-30.5	15.3	3.22e-03	0	51	0	19159580672	32	14581
2026-01-18 20:47:52.76	299.47	16.42	-30.6	-30.5	15.3	3.60e-03	0	51	0	19511902208	32	14474
2026-01-18 20:47:55.79	300.38	16.24	-30.4	-30.3	15.4	3.77e-03	0	51	0	19847446528	32	14256
2026-01-18 20:47:58.81	301.27	16.05	-30.5	-30.4	15.5	3.41e-03	0	50	0	20182990848	32	14358
2026-01-18 20:48:01.83	302.15	15.86	-30.7	-30.6	15.4	3.03e-03	0	50	0	20518535168	32	14637
2026-01-18 20:48:04.85	303.02	15.66	-30.6	-30.5	15.5	3.29e-03	0	51	0	20870856704	32	14550
2026-01-18 20:48:07.88	303.88	15.47	-30.7	-30.6	15.4	3.25e-03	0	50	0	21206401024	32	14656
2026-01-18 20:48:10.90	304.72	15.26	-30.7	-30.6	15.4	3.48e-03	0	51	0	21541945344	32	14757
2026-01-18 20:48:13.92	305.55	15.06	-30.9	-30.8	15.3	3.47e-03	0	51	0	21877489664	32	14962
2026-01-18 20:48:16.95	306.36	14.85	-31.2	-31.1	15.2	4.20e-03	0	51	0	22229811200	33	14724
2026-01-18 20:48:19.97	307.16	14.64	-31.1	-31.0	15.2	4.54e-03	0	51	0	22565355520	33	14539
2026-01-18 20:48:22.99	307.95	14.43	-31.0	-30.9	15.3	4.85e-03	0	51	0	22909288448	33	14320
2026-01-18 20:48:26.02	308.73	14.21	-31.2	-31.1	15.2	4.28e-03	0	51	0	23244832768	33	14615
2026-01-18 20:48:29.04	309.49	14.00	-31.3	-31.2	15.1	4.86e-03	0	51	0	23588765696	33	14939
2026-01-18 20:48:32.07	310.24	13.78	-31.4	-31.3	15.2	4.60e-03	0	51	0	23932698624	33	14977
2026-01-18 20:48:35.09	310.98	13.56	-31.4	-31.3	15.1	4.87e-03	0	51	0	24268242944	33	15084
2026-01-18 20:48:38.11	311.70	13.34	-31.6	-31.5	15.0	5.02e-03	0	51	0	24603787264	33	15386
2026-01-18 20:48:41.13	312.42	13.12	-31.5	-31.4	15.1	5.97e-03	0	51	0	24939331584	33	15245
2026-01-18 20:48:44.16	313.12	12.90	-31.8	-31.7	15.0	6.05e-03	0	51	0	25291653120	34	14787
2026-01-18 20:48:47.18	313.80	12.68	-31.7	-31.6	15.0	5.70e-03	0	51	0	25627197440	34	14692
2026-01-18 20:48:50.20	314.48	12.46	-31.6	-31.5	15.0	6.28e-03	0	51	0	25962741760	34	14568
2026-01-18 20:48:53.23	315.14	12.23	-31.8	-31.7	14.9	6.24e-03	0	51	0	26306674688	34	14903
2026-01-18 20:48:56.25	315.79	12.01	-31.7	-31.6	15.0	6.17e-03	0	51	0	26650607616	34	14656
2026-01-18 20:48:59.27	316.43	11.79	-31.6	-31.5	15.0	6.07e-03	0	51	0	26986151936	34	14585
2026-01-18 20:49:02.29	317.06	11.56	-31.8	-31.7	14.9	6.67e-03	0	51	0	27330084864	34	14831
2026-01-18 20:49:05.32	317.68	11.34	-31.8	-31.7	14.9	6.89e-03	0	51	0	27665629184	34	14831
2026-01-18 20:49:08.34	318.29	11.11	-32.0	-31.9	14.7	7.92e-03	0	51	0	28001173504	34	15287
2026-01-18 20:49:11.36	318.88	10.89	-32.2	-32.1	14.6	8.72e-03	0	51	0	28345106432	34	15490
2026-01-18 20:49:14.39	319.47	10.67	-32.1	-32.0	14.6	9.40e-03	0	51	0	28689039360	35	14604
2026-01-18 20:49:17.41	320.04	10.45	-32.2	-32.1	14.6	1.05e-02	0	51	0	29024583680	35	14642
2026-01-18 20:49:20.43	320.61	10.22	-32.2	-32.1	14.5	1.01e-02	0	51	0	29360128000	35	14759
2026-01-18 20:49:23.45	321.16	10.00	-32.4	-32.3	14.4	1.20e-02	0	51	0	29712449536	35	15004
2026-01-18 20:49:26.47	321.70	9.78	-32.5	-32.4	14.4	1.26e-02	0	51	0	30047993856	35	15165
2026-01-18 20:49:29.49	322.24	9.56	-32.5	-32.4	14.3	1.31e-02	0	51	0	30383538176	35	15224
2026-01-18 20:49:32.51	322.76	9.34	-32.5	-32.5	14.3	1.49e-02	0	51	0	30727471104	35	15312
2026-01-18 20:49:35.54	323.28	9.12	-35.1	-35.0	14.9	1.21e-02	0	51	0	31063015424	41	14501
2026-01-18 20:49:38.57	323.79	8.91	-35.2	-35.1	14.8	7.85e-03	0	51	0	31406948352	41	14705
2026-01-18 20:49:41.59	324.28	8.69	-35.5	-35.4	14.7	8.94e-03	0	51	0	31750881280	41	15157
2026-01-18 20:49:44.62	324.77	8.47	-35.4	-35.3	14.7	9.98e-03	0	51	0	32086425600	41	15035
2026-01-18 20:49:47.64	325.25	8.26	-35.8	-35.7	14.5	1.08e-02	0	51	0	32421969920	42	14793
2026-01-18 20:49:50.66	325.73	8.04	-35.6	-35.5	14.6	1.18e-02	0	51	0	32774291456	42	14462
2026-01-18 20:49:53.69	326.19	7.83	-35.4	-35.3	14.7	1.20e-02	0	51	0	33109835776	42	14223
2026-01-18 20:49:56.71	326.65	7.62	-35.4	-35.3	14.7	1.17e-02	0	51	0	33445380096	42	14206
2026-01-18 20:49:59.73	327.09	7.41	-35.6	-35.5	14.6	1.31e-02	0	51	0	33780924416	42	14507
2026-01-18 20:50:02.75	327.53	7.20	-35.4	-35.3	14.6	1.40e-02	0	51	0	34133245952	42	14270
2026-01-18 20:50:05.78	327.97	6.99	-35.7	-35.6	14.5	1.26e-02	0	51	0	34468790272	42	14702
2026-01-18 20:50:08.80	328.39	6.78	-35.6	-35.5	14.5	1.36e-02	0	51	0	34804334592	42	14493
2026-01-18 20:50:11.83	328.81	6.58	-35.3	-35.2	14.6	1.47e-02	0	51	0	35148267520	42	14018
2026-01-18 20:50:14.85	329.22	6.37	-35.7	-35.6	14.4	1.48e-02	0	51	0	35492200448	42	14643
2026-01-18 20:50:17.87	329.62	6.17	-35.4	-35.3	14.5	1.49e-02	0	51	0	35827744768	42	14180
2026-01-18 20:50:20.90	330.02	5.96	-35.6	-35.5	14.3	1.49e-02	0	51	0	36171677696	42	14602
2026-01-18 20:50:23.92	330.41	5.76	-35.7	-35.6	14.3	1.72e-02	0	51	0	36507222016	42	14767
2026-01-18 20:50:26.95	330.80	5.56	-35.9	-35.8	14.2	1.80e-02	0	51	0	36851154944	42	15048
2026-01-18 20:50:29.98	331.18	5.36	-35.8	-35.8	14.2	2.12e-02	0	51	0	37195087872	42	14979
2026-01-18 20:50:33.00	331.55	5.16	-36.6	-36.5	13.8	2.36e-02	0	51	0	37530632192	43	15390
2026-01-18 20:50:36.02	331.91	4.96	-47.2	-47.8	8.3	2.88e-02	9843	52	0	37866176512	64	16777
2026-01-18 20:50:39.05	332.27	4.77	-53.6	-55.8	6.2	1.92e-02	0	50	104	37866176512	77	20117
2026-01-18 20:50:42.07	332.63	4.57	-54.0	-56.2	6.2	1.92e-02	0	50	104	37866176512	78	19725
2026-01-18 20:50:45.10	332.98	4.38	-54.3	-56.4	6.2	1.92e-02	0	50	104	37866176512	79	19200
2026-01-18 20:50:48.12	333.32	4.19	-54.4	-56.5	6.2	1.92e-02	0	50	104	37866176512	79	19387
2026-01-18 20:50:51.15	333.66	3.99	-54.4	-56.5	6.2	0.00e+00	0	50	104	37866176512	79	19357
2026-01-18 20:50:54.17	333.99	3.80	-54.3	-56.4	6.2	0.00e+00	0	49	104	37866176512	79	19231
2026-01-18 20:50:57.20	334.32	3.61	-54.3	-56.4	6.2	0.00e+00	0	49	104	37866176512	79	19137
2026-01-18 20:51:00.22	334.64	3.42	-54.3	-56.4	6.2	0.00e+00	0	49	104	37866176512	79	19095
2026-01-18 20:51:03.25	334.95	3.24	-54.2	-56.3	6.2	0.00e+00	0	49	104	37866176512	79	19021
2026-01-18 20:51:06.27	335.27	3.05	-54.2	-56.3	6.2	0.00e+00	0	49	104	37866176512	79	18995
2026-01-18 20:51:09.30	335.57	2.87	-54.1	-56.3	6.2	0.00e+00	0	49	104	37866176512	79	18866
2026-01-18 20:51:12.32	335.88	2.68	-54.1	-56.3	6.2	0.00e+00	0	49	104	37866176512	79	18867
2026-01-18 20:51:15.34	336.17	2.50	-54.1	-56.3	6.2	0.00e+00	0	49	104	37866176512	79	18871
2026-01-18 20:51:18.37	336.47	2.32	-54.1	-56.2	6.2	0.00e+00	0	49	104	37866176512	79	18805
2026-01-18 20:51:21.39	336.76	2.14	-54.1	-56.2	6.2	0.00e+00	0	49	104	37866176512	79	18762
2026-01-18 20:51:24.41	337.04	1.96	-54.1	-56.2	6.2	0.00e+00	0	49	104	37866176512	79	18735

#Closed at: 2026-01-18 20:51:24
#Recorded file [37866 MB]: D:/lorett/data/31041_260118_234155.dat