passes_logs/2026/01/18/R3.2S_Murmansk/R3.2S_Murmansk__20260118_130746_NOAA_21_JPSS-2_rec.log

#Pass ID: 20260118_130746_NOAA 21 (JPSS-2)
#Satellite: NOAA 21 (JPSS-2)
#Configuration: NOAA-21
#almurnet v.1.7.20251203
#Start time: 2026-01-18 13:07:48

#Version: 2.2.20231116
#Station: R3.2S_Murmansk
#Location: 33.079688 lon 68.888172 lat
#TLE: 1 54234U 22150A   26017.62066529  .00000042  00000+0  40984-4 0  9994
#TLE: 2 54234  98.7502 318.4887 0000613 271.5460  88.5645 14.19535234165189

#Time	Az	El	Level	Level2	SNR	BER	BlckErr	Temp	State	Recorded	gain1	gain2
2026-01-18 13:07:48.35	246.69	2.08	-52.2	-65.0	3.8	1.49e+00	0	35	0	0	76	15340
2026-01-18 13:07:51.36	247.00	2.21	-52.2	-65.0	3.8	1.49e+00	0	35	104	0	75	16256
2026-01-18 13:07:54.38	247.31	2.34	-52.2	-65.0	3.8	1.49e+00	0	35	104	0	75	16175
2026-01-18 13:07:57.40	247.63	2.47	-52.2	-64.9	3.8	1.49e+00	0	35	104	0	75	16120
2026-01-18 13:08:00.43	247.94	2.60	-52.2	-64.9	3.8	1.49e+00	0	35	104	0	75	16055
2026-01-18 13:08:03.45	248.26	2.73	-52.2	-65.0	3.8	1.49e+00	0	35	104	0	75	16145
2026-01-18 13:08:06.48	248.59	2.86	-52.2	-65.0	3.8	1.49e+00	0	35	104	0	75	16200
2026-01-18 13:08:09.50	248.91	2.98	-52.2	-65.0	3.8	1.49e+00	0	35	104	0	75	16176
2026-01-18 13:08:12.53	249.24	3.11	-52.2	-64.9	3.8	1.49e+00	0	35	104	0	75	16017
2026-01-18 13:08:15.55	249.57	3.24	-52.2	-64.9	3.8	1.49e+00	0	35	104	0	75	16037
2026-01-18 13:08:18.58	249.91	3.37	-52.2	-64.9	3.8	1.49e+00	0	35	104	0	75	16030
2026-01-18 13:08:21.60	250.25	3.50	-52.2	-64.9	3.8	1.49e+00	0	35	104	0	75	16114
2026-01-18 13:08:24.63	250.59	3.63	-52.2	-64.9	3.8	1.49e+00	0	35	104	0	75	16097
2026-01-18 13:08:27.65	250.93	3.76	-52.2	-64.8	3.8	1.49e+00	0	35	104	0	75	15927
2026-01-18 13:08:30.67	251.27	3.89	-52.2	-64.9	3.8	1.49e+00	0	36	104	0	75	16101
2026-01-18 13:08:33.70	251.62	4.01	-52.2	-64.9	3.8	1.49e+00	0	36	104	0	75	16081
2026-01-18 13:08:36.72	251.97	4.14	-52.2	-64.7	3.8	1.49e+00	0	35	104	0	75	15620
2026-01-18 13:08:39.75	252.33	4.27	-52.2	-64.7	3.8	1.49e+00	0	35	104	0	75	15653
2026-01-18 13:08:42.77	252.69	4.40	-52.2	-64.6	3.8	1.49e+00	0	36	104	0	75	15420
2026-01-18 13:08:45.79	253.05	4.52	-52.2	-64.4	3.8	1.49e+00	0	35	104	0	75	15070
2026-01-18 13:08:48.82	253.41	4.65	-51.7	-59.8	4.8	8.74e-01	0	36	104	0	75	8894
2026-01-18 13:08:51.84	253.78	4.77	-50.9	-56.4	7.3	1.86e-01	0	35	0	6291456	73	6738
2026-01-18 13:08:54.87	254.15	4.90	-47.8	-50.1	13.7	3.58e-05	0	35	0	16777216	67	4624
2026-01-18 13:08:57.89	254.52	5.03	-46.1	-47.7	16.3	0.00e+00	0	36	0	26214400	63	4394
2026-01-18 13:09:00.89	254.89	5.15	-47.4	-49.6	14.4	0.00e+00	0	35	0	35651584	65	4879
2026-01-18 13:09:03.92	255.27	5.27	-46.0	-47.6	16.4	7.00e-07	0	36	0	45088768	63	4348
2026-01-18 13:09:06.94	255.65	5.40	-46.1	-47.7	16.2	0.00e+00	0	36	0	53477376	63	4439
2026-01-18 13:09:09.97	256.04	5.52	-45.9	-47.5	16.5	0.00e+00	0	35	0	63963136	63	4296
2026-01-18 13:09:12.99	256.42	5.64	-45.6	-47.0	17.0	0.00e+00	0	36	0	73400320	63	4084
2026-01-18 13:09:16.02	256.81	5.77	-45.9	-47.4	16.6	0.00e+00	0	36	0	82837504	63	4274
2026-01-18 13:09:19.04	257.21	5.89	-45.8	-47.2	16.8	0.00e+00	0	36	0	92274688	62	4429
2026-01-18 13:09:22.06	257.60	6.01	-45.7	-47.2	16.9	0.00e+00	0	36	0	101711872	62	4406
2026-01-18 13:09:25.08	258.00	6.13	-45.6	-47.0	17.0	0.00e+00	0	35	0	111149056	62	4326
2026-01-18 13:09:28.11	258.41	6.25	-45.6	-47.0	17.1	0.00e+00	0	36	0	120586240	62	4305
2026-01-18 13:09:31.13	258.81	6.37	-45.4	-46.8	17.3	0.00e+00	0	36	0	130023424	62	4205
2026-01-18 13:09:34.15	259.22	6.49	-45.4	-46.8	17.3	0.00e+00	0	35	0	139460608	62	4215
2026-01-18 13:09:37.17	259.64	6.61	-45.6	-47.1	17.0	0.00e+00	0	36	0	148897792	62	4349
2026-01-18 13:09:40.20	260.05	6.72	-45.5	-46.9	17.2	0.00e+00	0	36	0	158334976	62	4283
2026-01-18 13:09:43.22	260.47	6.84	-45.3	-46.6	17.5	0.00e+00	0	36	0	167772160	62	4125
2026-01-18 13:09:46.24	260.90	6.96	-45.0	-46.2	17.9	0.00e+00	0	35	0	177209344	61	4192
2026-01-18 13:09:49.27	261.32	7.07	-45.3	-46.6	17.5	0.00e+00	0	36	0	186646528	61	4385
2026-01-18 13:09:52.30	261.75	7.19	-45.4	-46.8	17.4	0.00e+00	0	36	0	196083712	61	4456
2026-01-18 13:09:55.32	262.18	7.30	-45.3	-46.6	17.6	0.00e+00	0	36	0	205520896	61	4365
2026-01-18 13:09:58.34	262.62	7.41	-45.4	-46.7	17.5	0.00e+00	0	36	0	214958080	61	4431
2026-01-18 13:10:01.37	263.06	7.52	-45.2	-46.5	17.7	0.00e+00	0	36	0	224395264	61	4324
2026-01-18 13:10:04.39	263.50	7.63	-45.2	-46.5	17.8	0.00e+00	0	35	0	233832448	61	4308
2026-01-18 13:10:07.41	263.95	7.74	-45.1	-46.4	17.9	0.00e+00	0	36	0	243269632	61	4243
2026-01-18 13:10:10.44	264.39	7.85	-45.0	-46.2	18.0	0.00e+00	0	35	0	252706816	61	4190
2026-01-18 13:10:13.46	264.85	7.96	-45.0	-46.2	18.0	0.00e+00	0	36	0	262144000	61	4190
2026-01-18 13:10:16.48	265.30	8.07	-44.9	-46.2	18.1	0.00e+00	0	36	0	271581184	61	4167
2026-01-18 13:10:19.51	265.76	8.17	-45.2	-46.5	17.8	0.00e+00	0	36	0	281018368	61	4302
2026-01-18 13:10:22.53	266.22	8.28	-44.7	-45.9	18.2	0.00e+00	0	36	0	290455552	61	4043
2026-01-18 13:10:25.56	266.69	8.38	-44.8	-46.1	17.9	0.00e+00	0	36	0	299892736	61	4129
2026-01-18 13:10:28.58	267.15	8.48	-45.9	-47.5	16.3	0.00e+00	0	36	0	309329920	62	4582
2026-01-18 13:10:31.60	267.62	8.58	-47.3	-49.6	13.7	5.30e-06	0	36	0	318767104	65	4908
2026-01-18 13:10:34.63	268.10	8.68	-47.9	-50.7	12.3	1.12e-04	0	36	0	328204288	66	5228
2026-01-18 13:10:37.65	268.57	8.78	-49.6	-54.5	8.2	3.44e-02	0	36	0	337641472	69	6868
2026-01-18 13:10:40.67	269.05	8.88	-49.8	-55.2	7.5	1.16e-01	0	36	0	347078656	70	6971
2026-01-18 13:10:43.70	269.54	8.97	-49.2	-52.9	10.2	7.69e-03	0	36	0	356515840	70	5369
2026-01-18 13:10:46.72	270.02	9.07	-48.8	-51.7	12.0	3.50e-04	0	36	0	365953024	69	4959
2026-01-18 13:10:49.74	270.51	9.16	-48.6	-51.1	13.2	2.74e-05	0	36	0	375390208	69	4600
2026-01-18 13:10:52.77	271.00	9.25	-46.8	-48.5	15.7	0.00e+00	0	36	0	384827392	65	4326
2026-01-18 13:10:55.79	271.50	9.34	-44.8	-46.0	18.3	0.00e+00	0	36	0	394264576	61	4057
2026-01-18 13:10:58.82	272.00	9.43	-44.9	-46.1	18.3	0.00e+00	0	36	0	403701760	61	4109
2026-01-18 13:11:01.83	272.50	9.51	-44.8	-46.0	18.3	0.00e+00	0	36	0	413138944	61	4083
2026-01-18 13:11:04.86	273.00	9.60	-45.0	-46.2	18.2	0.00e+00	0	36	0	422576128	61	4169
2026-01-18 13:11:07.88	273.51	9.68	-44.9	-46.1	18.3	0.00e+00	0	36	0	432013312	61	4122
2026-01-18 13:11:10.91	274.02	9.76	-44.8	-46.1	18.3	0.00e+00	0	36	0	441450496	61	4105
2026-01-18 13:11:13.93	274.53	9.84	-44.7	-45.9	18.5	0.00e+00	0	36	0	450887680	61	4005
2026-01-18 13:11:16.96	275.04	9.92	-44.8	-46.0	18.4	0.00e+00	0	36	0	460324864	61	4067
2026-01-18 13:11:19.98	275.56	10.00	-44.8	-46.0	18.4	0.00e+00	0	36	0	469762048	61	4082
2026-01-18 13:11:23.00	276.08	10.07	-44.7	-45.9	18.5	0.00e+00	0	36	0	479199232	61	4029
2026-01-18 13:11:26.02	276.60	10.15	-44.7	-45.9	18.5	0.00e+00	0	36	0	488636416	61	4033
2026-01-18 13:11:29.05	277.13	10.22	-44.8	-46.0	18.4	0.00e+00	0	36	0	498073600	61	4064
2026-01-18 13:11:32.07	277.65	10.28	-44.8	-46.0	18.3	0.00e+00	0	36	0	507510784	61	4098
2026-01-18 13:11:35.10	278.18	10.35	-44.9	-46.1	18.4	0.00e+00	0	36	0	516947968	61	4110
2026-01-18 13:11:38.12	278.71	10.42	-44.8	-46.0	18.5	0.00e+00	0	36	0	526385152	61	4078
2026-01-18 13:11:41.15	279.25	10.48	-44.8	-45.9	18.5	0.00e+00	0	36	0	535822336	61	4043
2026-01-18 13:11:44.18	279.79	10.54	-44.9	-46.1	18.4	0.00e+00	0	36	0	545259520	61	4129
2026-01-18 13:11:47.20	280.32	10.60	-44.8	-45.9	18.6	0.00e+00	0	36	0	554696704	61	4051
2026-01-18 13:11:50.23	280.87	10.66	-44.6	-45.8	18.7	0.00e+00	0	36	0	564133888	61	3978
2026-01-18 13:11:53.26	281.41	10.71	-44.7	-45.9	18.6	0.00e+00	0	36	0	573571072	61	4006
2026-01-18 13:11:56.28	281.95	10.76	-44.8	-46.0	18.5	0.00e+00	0	36	0	583008256	61	4088
2026-01-18 13:11:59.30	282.50	10.81	-44.9	-46.2	18.4	0.00e+00	0	36	0	592445440	61	4146
2026-01-18 13:12:02.33	283.05	10.86	-44.8	-46.0	18.6	0.00e+00	0	36	0	601882624	61	4055
2026-01-18 13:12:05.35	283.59	10.91	-44.8	-45.9	18.6	0.00e+00	0	36	0	611319808	61	4044
2026-01-18 13:12:08.37	284.14	10.95	-44.8	-46.0	18.5	0.00e+00	0	36	0	620756992	61	4087
2026-01-18 13:12:11.40	284.70	10.99	-44.9	-46.1	18.5	0.00e+00	0	36	0	630194176	61	4105
2026-01-18 13:12:14.42	285.25	11.03	-44.8	-46.0	18.6	0.00e+00	0	36	0	639631360	61	4065
2026-01-18 13:12:17.45	285.81	11.07	-44.6	-45.8	18.8	0.00e+00	0	36	0	649068544	61	3967
2026-01-18 13:12:20.47	286.36	11.10	-44.7	-45.9	18.7	0.00e+00	0	36	0	658505728	61	4038
2026-01-18 13:12:23.49	286.92	11.13	-44.8	-46.0	18.7	0.00e+00	0	36	0	667942912	61	4056
2026-01-18 13:12:26.50	287.48	11.16	-44.6	-45.8	18.8	0.00e+00	0	36	0	677380096	61	3965
2026-01-18 13:12:29.53	288.04	11.19	-44.8	-46.0	18.7	0.00e+00	0	36	0	686817280	61	4056
2026-01-18 13:12:32.55	288.60	11.21	-45.0	-46.2	18.5	0.00e+00	0	36	0	697303040	61	4172
2026-01-18 13:12:35.58	289.16	11.24	-44.9	-46.1	18.6	0.00e+00	0	36	0	705691648	61	4108
2026-01-18 13:12:38.60	289.72	11.26	-44.7	-45.9	18.8	0.00e+00	0	36	0	715128832	61	4008
2026-01-18 13:12:41.62	290.28	11.27	-44.5	-45.7	19.0	0.00e+00	0	36	0	724566016	60	4148
2026-01-18 13:12:44.65	290.85	11.29	-44.4	-45.5	19.1	0.00e+00	0	36	0	735051776	60	4092
2026-01-18 13:12:47.67	291.41	11.30	-44.4	-45.5	19.1	0.00e+00	0	36	0	744488960	60	4077
2026-01-18 13:12:50.69	291.98	11.31	-44.6	-45.7	19.0	0.00e+00	0	36	0	752877568	60	4155
2026-01-18 13:12:53.72	292.54	11.32	-44.5	-45.6	19.0	0.00e+00	0	36	0	762314752	60	4129
2026-01-18 13:12:56.74	293.11	11.32	-44.5	-45.6	19.0	0.00e+00	0	36	0	771751936	60	4131
2026-01-18 13:12:59.76	293.67	11.33	-44.5	-45.6	19.0	0.00e+00	0	36	0	782237696	60	4141
2026-01-18 13:13:02.79	294.24	11.33	-44.6	-45.7	18.9	0.00e+00	0	36	0	791674880	60	4167
2026-01-18 13:13:05.82	294.80	11.33	-44.6	-45.7	18.9	0.00e+00	0	36	0	800063488	60	4161
2026-01-18 13:13:08.84	295.37	11.32	-44.5	-45.6	19.0	0.00e+00	0	36	0	809500672	60	4107
2026-01-18 13:13:11.86	295.93	11.31	-44.6	-45.7	18.9	0.00e+00	0	36	0	819986432	60	4187
2026-01-18 13:13:14.89	296.50	11.30	-44.7	-45.8	18.8	0.00e+00	0	36	0	829423616	60	4227
2026-01-18 13:13:17.91	297.06	11.29	-44.8	-45.9	18.7	0.00e+00	0	36	0	838860800	60	4273
2026-01-18 13:13:20.94	297.62	11.28	-44.7	-45.8	18.8	0.00e+00	0	36	0	847249408	60	4227
2026-01-18 13:13:23.96	298.19	11.26	-44.5	-45.6	19.0	0.00e+00	0	36	0	857735168	60	4118
2026-01-18 13:13:26.98	298.75	11.24	-44.5	-45.6	19.0	0.00e+00	0	36	0	867172352	60	4126
2026-01-18 13:13:30.01	299.31	11.22	-44.7	-45.8	18.9	0.00e+00	0	36	0	876609536	60	4215
2026-01-18 13:13:33.03	299.87	11.19	-44.8	-46.0	18.7	0.00e+00	0	36	0	886046720	60	4306
2026-01-18 13:13:36.05	300.43	11.17	-44.6	-45.8	18.9	0.00e+00	0	36	0	895483904	60	4200
2026-01-18 13:13:39.08	300.99	11.14	-44.6	-45.7	19.0	0.00e+00	0	36	0	904921088	60	4161
2026-01-18 13:13:42.10	301.54	11.11	-44.6	-45.7	18.9	0.00e+00	0	36	0	914358272	60	4189
2026-01-18 13:13:45.12	302.10	11.07	-44.6	-45.7	18.9	0.00e+00	0	36	0	923795456	60	4172
2026-01-18 13:13:48.15	302.65	11.04	-44.6	-45.7	18.9	0.00e+00	0	36	0	933232640	60	4165
2026-01-18 13:13:51.17	303.21	11.00	-44.5	-45.7	19.0	0.00e+00	0	36	0	942669824	60	4146
2026-01-18 13:13:54.19	303.76	10.96	-44.4	-45.5	19.1	0.00e+00	0	36	0	952107008	60	4084
2026-01-18 13:13:57.22	304.31	10.91	-44.5	-45.6	19.0	0.00e+00	0	36	0	961544192	60	4123
2026-01-18 13:14:00.24	304.86	10.87	-44.6	-45.8	18.8	0.00e+00	0	36	0	970981376	60	4209
2026-01-18 13:14:03.27	305.41	10.82	-44.6	-45.8	18.8	0.00e+00	0	36	0	980418560	60	4207
2026-01-18 13:14:06.29	305.95	10.77	-44.6	-45.7	18.9	0.00e+00	0	36	0	989855744	60	4193
2026-01-18 13:14:09.32	306.49	10.72	-44.5	-45.6	18.9	0.00e+00	0	36	0	999292928	60	4137
2026-01-18 13:14:12.35	307.04	10.67	-44.6	-45.8	18.8	0.00e+00	0	36	0	1008730112	60	4204
2026-01-18 13:14:15.37	307.58	10.61	-44.6	-45.8	18.8	0.00e+00	0	36	0	1018167296	60	4213
2026-01-18 13:14:18.39	308.11	10.55	-44.6	-45.8	18.6	0.00e+00	0	36	0	1027604480	60	4238
2026-01-18 13:14:21.42	308.65	10.49	-44.7	-45.8	18.7	0.00e+00	0	36	0	1037041664	60	4239
2026-01-18 13:14:24.44	309.18	10.43	-44.5	-45.6	18.9	0.00e+00	0	36	0	1046478848	60	4124
2026-01-18 13:14:27.47	309.71	10.37	-44.5	-45.6	18.8	0.00e+00	0	36	0	1055916032	60	4127
2026-01-18 13:14:30.49	310.24	10.30	-44.4	-45.6	18.9	0.00e+00	0	36	0	1065353216	60	4105
2026-01-18 13:14:33.51	310.77	10.23	-44.4	-45.5	19.0	0.00e+00	0	36	0	1074790400	60	4063
2026-01-18 13:14:36.54	311.29	10.16	-44.2	-45.3	19.1	0.00e+00	0	36	0	1084227584	60	3971
2026-01-18 13:14:39.56	311.81	10.09	-44.4	-45.6	18.9	0.00e+00	0	36	0	1093664768	60	4103
2026-01-18 13:14:42.58	312.33	10.02	-44.5	-45.6	18.9	0.00e+00	0	36	0	1103101952	60	4113
2026-01-18 13:14:45.61	312.85	9.94	-44.5	-45.6	18.8	0.00e+00	0	36	0	1112539136	60	4136
2026-01-18 13:14:48.63	313.36	9.86	-44.5	-45.6	18.8	0.00e+00	0	36	0	1121976320	60	4134
2026-01-18 13:14:51.66	313.87	9.78	-44.6	-45.7	18.7	0.00e+00	0	36	0	1131413504	60	4189
2026-01-18 13:14:54.68	314.38	9.70	-44.5	-45.6	18.8	0.00e+00	0	36	0	1140850688	60	4131
2026-01-18 13:14:57.70	314.88	9.62	-44.4	-45.6	18.8	0.00e+00	0	36	0	1150287872	60	4113
2026-01-18 13:15:00.73	315.39	9.54	-44.6	-45.8	18.6	0.00e+00	0	36	0	1159725056	60	4212
2026-01-18 13:15:03.75	315.89	9.45	-44.6	-45.7	18.7	0.00e+00	0	36	0	1169162240	60	4188
2026-01-18 13:15:06.77	316.38	9.36	-44.5	-45.7	18.7	0.00e+00	0	36	0	1178599424	60	4146
2026-01-18 13:15:09.80	316.88	9.27	-44.5	-45.7	18.7	0.00e+00	0	36	0	1188036608	60	4161
2026-01-18 13:15:12.82	317.37	9.18	-44.5	-45.6	18.7	0.00e+00	0	36	0	1197473792	60	4138
2026-01-18 13:15:15.84	317.85	9.09	-44.6	-45.8	18.6	0.00e+00	0	36	0	1206910976	60	4214
2026-01-18 13:15:18.87	318.34	9.00	-44.6	-45.8	18.5	0.00e+00	0	36	0	1216348160	60	4223
2026-01-18 13:15:21.89	318.82	8.90	-44.7	-45.9	18.4	0.00e+00	0	36	0	1225785344	60	4285
2026-01-18 13:15:24.92	319.30	8.81	-44.6	-45.7	18.5	0.00e+00	0	36	0	1235222528	60	4193
2026-01-18 13:15:27.94	319.78	8.71	-44.6	-45.8	18.5	0.00e+00	0	36	0	1244659712	60	4225
2026-01-18 13:15:30.97	320.25	8.61	-44.5	-45.7	18.6	0.00e+00	0	36	0	1254096896	60	4175
2026-01-18 13:15:33.99	320.72	8.51	-44.7	-45.9	18.4	0.00e+00	0	36	0	1263534080	60	4248
2026-01-18 13:15:37.02	321.19	8.41	-44.9	-46.1	18.2	0.00e+00	0	36	0	1272971264	60	4377
2026-01-18 13:15:40.04	321.65	8.31	-44.9	-46.1	18.2	0.00e+00	0	36	0	1282408448	60	4381
2026-01-18 13:15:43.06	322.11	8.21	-44.9	-46.1	18.1	0.00e+00	0	36	0	1291845632	60	4388
2026-01-18 13:15:46.09	322.57	8.10	-45.0	-46.2	18.0	0.00e+00	0	36	0	1301282816	60	4439
2026-01-18 13:15:49.11	323.02	8.00	-44.8	-46.0	18.2	0.00e+00	0	36	0	1310720000	60	4335
2026-01-18 13:15:52.14	323.47	7.89	-44.9	-46.2	18.1	0.00e+00	0	36	0	1320157184	60	4395
2026-01-18 13:15:55.16	323.92	7.78	-44.9	-46.1	18.1	0.00e+00	0	36	0	1329594368	60	4379
2026-01-18 13:15:58.18	324.36	7.67	-45.1	-46.4	17.8	0.00e+00	0	36	0	1339031552	60	4526
2026-01-18 13:16:01.20	324.80	7.56	-45.2	-46.4	17.8	0.00e+00	0	36	0	1348468736	61	4284
2026-01-18 13:16:04.22	325.24	7.45	-45.2	-46.5	17.7	0.00e+00	0	36	0	1357905920	61	4302
2026-01-18 13:16:07.25	325.68	7.34	-44.9	-46.2	18.0	0.00e+00	0	36	0	1367343104	61	4158
2026-01-18 13:16:10.27	326.11	7.23	-45.1	-46.4	17.8	0.00e+00	0	36	0	1376780288	61	4245
2026-01-18 13:16:13.30	326.54	7.11	-45.1	-46.4	17.8	0.00e+00	0	36	0	1386217472	61	4274
2026-01-18 13:16:16.32	326.96	7.00	-45.3	-46.7	17.5	0.00e+00	0	36	0	1395654656	61	4399
2026-01-18 13:16:19.34	327.38	6.89	-45.5	-46.9	17.3	0.00e+00	0	36	0	1405091840	61	4498
2026-01-18 13:16:22.37	327.80	6.77	-45.6	-47.0	17.2	0.00e+00	0	36	0	1414529024	61	4567
2026-01-18 13:16:25.39	328.22	6.65	-45.4	-46.8	17.3	0.00e+00	0	36	0	1423966208	61	4454
2026-01-18 13:16:28.42	328.63	6.54	-45.5	-46.9	17.3	0.00e+00	0	36	0	1433403392	61	4497
2026-01-18 13:16:31.44	329.04	6.42	-45.8	-47.2	16.9	0.00e+00	0	36	0	1442840576	62	4427
2026-01-18 13:16:34.47	329.45	6.30	-45.6	-47.1	17.0	0.00e+00	0	36	0	1452277760	62	4347
2026-01-18 13:16:37.49	329.85	6.18	-45.5	-46.9	17.2	0.00e+00	0	36	0	1461714944	62	4255
2026-01-18 13:16:40.52	330.25	6.06	-45.7	-47.1	17.0	0.00e+00	0	36	0	1471152128	62	4375
2026-01-18 13:16:43.54	330.65	5.94	-45.5	-46.8	17.2	0.00e+00	0	36	0	1480589312	62	4241
2026-01-18 13:16:46.56	331.04	5.82	-45.4	-46.8	17.2	0.00e+00	0	36	0	1490026496	62	4238
2026-01-18 13:16:49.59	331.43	5.70	-45.6	-47.0	17.0	0.00e+00	0	36	0	1499463680	62	4321
2026-01-18 13:16:52.61	331.82	5.58	-45.6	-47.0	17.0	0.00e+00	0	36	0	1508900864	62	4322
2026-01-18 13:16:55.63	332.20	5.45	-45.5	-46.9	17.1	0.00e+00	0	36	0	1518338048	62	4280
2026-01-18 13:16:58.66	332.58	5.33	-45.4	-46.8	17.1	0.00e+00	0	36	0	1528823808	62	4241
2026-01-18 13:17:01.68	332.96	5.21	-45.8	-47.3	16.6	0.00e+00	0	36	0	1537212416	62	4485
2026-01-18 13:17:04.71	333.33	5.08	-45.8	-47.3	16.7	0.00e+00	0	36	0	1546649600	62	4450
2026-01-18 13:17:07.73	333.71	4.96	-52.7	-65.5	3.8	1.49e+00	0	36	104	1553989632	75	17124
2026-01-18 13:17:10.76	334.08	4.84	-53.3	-66.1	3.8	1.49e+00	0	37	104	1553989632	77	16391
2026-01-18 13:17:13.78	334.44	4.71	-53.6	-66.4	3.8	1.49e+00	0	37	104	1553989632	77	17037
2026-01-18 13:17:16.80	334.80	4.59	-53.8	-66.6	3.8	1.49e+00	0	37	104	1553989632	78	16432
2026-01-18 13:17:19.82	335.16	4.46	-53.9	-66.7	3.8	1.49e+00	0	36	104	1553989632	78	16649
2026-01-18 13:17:22.85	335.52	4.34	-53.9	-66.8	3.8	1.49e+00	0	37	104	1553989632	78	16719
2026-01-18 13:17:25.87	335.87	4.21	-53.9	-66.8	3.8	1.49e+00	0	37	104	1553989632	78	16695
2026-01-18 13:17:28.90	336.23	4.08	-53.9	-66.7	3.8	1.49e+00	0	37	104	1553989632	78	16616
2026-01-18 13:17:31.92	336.57	3.96	-53.9	-66.7	3.8	1.49e+00	0	37	104	1553989632	78	16536
2026-01-18 13:17:34.94	336.92	3.83	-53.9	-66.7	3.8	1.49e+00	0	37	104	1553989632	78	16541
2026-01-18 13:17:37.96	337.26	3.70	-53.8	-66.6	3.8	1.49e+00	0	37	104	1553989632	78	16469
2026-01-18 13:17:40.99	337.60	3.57	-53.8	-66.6	3.8	1.49e+00	0	37	104	1553989632	78	16359
2026-01-18 13:17:44.01	337.94	3.45	-53.9	-66.7	3.8	1.49e+00	0	37	104	1553989632	78	16545
2026-01-18 13:17:47.04	338.27	3.32	-53.8	-66.6	3.8	1.49e+00	0	37	104	1553989632	78	16413
2026-01-18 13:17:50.06	338.60	3.19	-53.8	-66.6	3.8	1.49e+00	0	37	104	1553989632	78	16352
2026-01-18 13:17:53.08	338.93	3.06	-53.8	-66.5	3.8	1.49e+00	0	37	104	1553989632	78	16265
2026-01-18 13:17:56.11	339.26	2.94	-53.8	-66.6	3.8	1.49e+00	0	37	104	1553989632	78	16325
2026-01-18 13:17:59.12	339.58	2.81	-53.7	-66.6	3.8	1.49e+00	0	37	104	1553989632	78	16324
2026-01-18 13:18:02.15	339.90	2.68	-53.7	-66.5	3.8	1.49e+00	0	37	104	1553989632	78	16296
2026-01-18 13:18:05.18	340.22	2.55	-53.7	-66.5	3.8	1.49e+00	0	37	104	1553989632	78	16262
2026-01-18 13:18:08.20	340.53	2.42	-53.7	-66.5	3.8	1.49e+00	0	37	104	1553989632	78	16282
2026-01-18 13:18:11.22	340.85	2.29	-53.7	-66.5	3.8	1.49e+00	0	37	104	1553989632	78	16215
2026-01-18 13:18:14.25	341.16	2.16	-53.7	-66.5	3.8	1.49e+00	0	37	104	1553989632	78	16296
2026-01-18 13:18:17.27	341.47	2.04	-53.7	-66.5	3.8	1.49e+00	0	37	104	1553989632	78	16250

#Closed at: 2026-01-18 13:18:20
#Recorded file [1553 MB]: D:/lorett/data/31041_260118_160748.dat