passes_logs/2026/01/18/R3.2S_Murmansk/R3.2S_Murmansk__20260118_094802_TY-42_rec.log

#Pass ID: 20260118_094802_TY-42
#Satellite: TY-42
#Configuration: TY-42_900M
#almurnet v.1.7.20251203
#Start time: 2026-01-18 09:48:04

#Version: 2.2.20231116
#Station: R3.2S_Murmansk
#Location: 33.079688 lon 68.888172 lat
#TLE: 1 64048U 25103A   26017.54141204  .00008008  00000-0  38191-3 0 09991
#TLE: 2 64048 097.4124 092.9111 0001919 092.8629 297.5859 15.19160543 37202

#Time	Az	El	Level	Level2	SNR	BER	BlckErr	Temp	State	Recorded	gain1	gain2
2026-01-18 09:48:04.86	21.05	2.15	-52.5	-54.6	6.2	0.00e+00	0	43	0	0	76	18523
2026-01-18 09:48:07.89	21.01	2.36	-52.5	-54.6	6.2	0.00e+00	0	43	104	0	76	18521
2026-01-18 09:48:10.91	20.97	2.57	-52.4	-54.6	6.2	0.00e+00	0	43	104	0	76	18435
2026-01-18 09:48:13.94	20.93	2.79	-52.4	-54.6	6.2	0.00e+00	0	43	104	0	76	18468
2026-01-18 09:48:16.96	20.88	3.01	-52.4	-54.6	6.2	0.00e+00	0	43	104	0	76	18428
2026-01-18 09:48:19.99	20.83	3.23	-52.4	-54.6	6.2	0.00e+00	0	44	104	0	76	18409
2026-01-18 09:48:23.01	20.79	3.45	-52.4	-54.6	6.2	0.00e+00	0	43	104	0	76	18421
2026-01-18 09:48:26.03	20.74	3.68	-52.4	-54.6	6.2	0.00e+00	0	44	104	0	76	18449
2026-01-18 09:48:29.05	20.69	3.90	-52.4	-54.6	6.2	0.00e+00	0	44	104	0	76	18483
2026-01-18 09:48:32.08	20.64	4.13	-52.4	-54.6	6.2	0.00e+00	0	44	104	0	76	18422
2026-01-18 09:48:35.11	20.58	4.37	-52.4	-54.6	6.2	0.00e+00	0	44	104	0	76	18435
2026-01-18 09:48:38.13	20.53	4.60	-52.4	-54.6	6.2	0.00e+00	0	44	104	0	76	18469
2026-01-18 09:48:41.15	20.48	4.84	-52.4	-54.6	6.2	0.00e+00	0	44	104	0	76	18395
2026-01-18 09:48:44.17	20.42	5.08	-52.5	-54.6	6.2	0.00e+00	0	44	104	0	76	18523
2026-01-18 09:48:47.20	20.36	5.33	-52.5	-54.6	6.2	0.00e+00	0	44	104	0	76	18498
2026-01-18 09:48:50.22	20.30	5.57	-52.6	-54.7	6.2	0.00e+00	0	45	104	0	76	18706
2026-01-18 09:48:53.24	20.24	5.82	-52.5	-54.6	6.2	0.00e+00	0	45	104	0	76	18484
2026-01-18 09:48:56.27	20.18	6.08	-52.7	-54.8	6.2	0.00e+00	0	45	104	0	76	18958
2026-01-18 09:48:59.29	20.11	6.33	-52.6	-54.7	6.2	0.00e+00	0	45	104	0	76	18788
2026-01-18 09:49:02.31	20.05	6.59	-52.7	-54.8	6.2	0.00e+00	0	45	104	0	76	18950
2026-01-18 09:49:05.34	19.98	6.85	-52.6	-54.8	6.2	0.00e+00	0	45	104	0	76	18821
2026-01-18 09:49:08.36	19.91	7.12	-52.8	-54.9	6.2	0.00e+00	0	45	104	0	76	19247
2026-01-18 09:49:11.38	19.84	7.39	-52.8	-54.9	6.2	0.00e+00	0	45	104	0	76	19155
2026-01-18 09:49:14.41	19.77	7.67	-52.8	-55.0	6.2	0.00e+00	0	45	104	0	76	19321
2026-01-18 09:49:17.43	19.69	7.94	-52.8	-54.9	6.2	0.00e+00	0	45	104	0	76	19117
2026-01-18 09:49:20.46	19.61	8.23	-52.9	-55.0	6.2	0.00e+00	0	45	104	0	76	19440
2026-01-18 09:49:23.48	19.53	8.51	-49.2	-49.9	7.2	0.00e+00	0	46	104	0	69	16135
2026-01-18 09:49:26.50	19.45	8.80	-47.7	-48.2	8.0	0.00e+00	0	45	104	0	67	14778
2026-01-18 09:49:29.53	19.37	9.10	-41.8	-41.8	11.6	0.00e+00	9357	49	0	251658240	55	14216
2026-01-18 09:49:32.55	19.28	9.40	-36.8	-36.8	13.6	1.68e-01	0	47	0	587202560	45	14155
2026-01-18 09:49:35.57	19.19	9.70	-36.1	-36.1	13.9	3.73e-02	0	47	0	931135488	44	13801
2026-01-18 09:49:38.59	19.10	10.01	-36.1	-36.0	14.0	2.85e-02	0	47	0	1275068416	44	13673
2026-01-18 09:49:41.62	19.00	10.33	-36.0	-36.0	14.0	2.45e-02	0	47	0	1610612736	43	14461
2026-01-18 09:49:44.64	18.91	10.65	-36.0	-35.9	14.1	2.32e-02	0	48	0	1946157056	43	14405
2026-01-18 09:49:47.67	18.80	10.97	-36.0	-35.9	14.1	2.02e-02	0	48	0	2298478592	43	14382
2026-01-18 09:49:50.69	18.70	11.30	-35.7	-35.6	14.2	1.99e-02	0	48	0	2634022912	43	13912
2026-01-18 09:49:53.72	18.59	11.64	-35.7	-35.6	14.3	1.99e-02	0	48	0	2969567232	43	13793
2026-01-18 09:49:56.74	18.48	11.99	-35.3	-35.2	14.5	1.66e-02	0	48	0	3305111552	42	14110
2026-01-18 09:49:59.77	18.37	12.34	-35.2	-35.1	14.5	1.17e-02	0	48	0	3657433088	42	13940
2026-01-18 09:50:02.79	18.25	12.69	-35.1	-35.0	14.6	1.10e-02	0	48	0	3992977408	42	13659
2026-01-18 09:50:05.81	18.13	13.05	-35.0	-34.9	14.6	1.02e-02	0	48	0	4328521728	41	14376
2026-01-18 09:50:08.84	18.00	13.43	-35.1	-35.0	14.6	1.00e-02	0	48	0	4672454656	41	14534
2026-01-18 09:50:11.87	17.87	13.80	-34.5	-34.4	14.9	8.23e-03	0	49	0	5016387584	41	13557
2026-01-18 09:50:14.89	17.74	14.19	-34.4	-34.3	14.9	6.47e-03	0	49	0	5351931904	40	14241
2026-01-18 09:50:17.91	17.60	14.58	-34.2	-34.1	15.0	5.20e-03	0	49	0	5695864832	40	13856
2026-01-18 09:50:20.93	17.46	14.98	-34.1	-34.0	15.0	4.65e-03	0	49	0	6031409152	40	13778
2026-01-18 09:50:23.96	17.31	15.39	-33.9	-33.8	15.2	4.32e-03	0	49	0	6366953472	39	14200
2026-01-18 09:50:26.98	17.15	15.81	-33.9	-33.8	15.2	3.66e-03	0	49	0	6719275008	39	14209
2026-01-18 09:50:30.01	16.99	16.24	-33.8	-33.7	15.2	3.50e-03	0	49	0	7054819328	39	14001
2026-01-18 09:50:33.03	16.83	16.68	-33.4	-33.3	15.4	2.99e-03	0	49	0	7390363648	38	14257
2026-01-18 09:50:36.06	16.66	17.13	-33.4	-33.3	15.4	2.16e-03	0	49	0	7725907968	38	14273
2026-01-18 09:50:39.08	16.48	17.58	-33.2	-33.1	15.5	1.94e-03	0	49	0	8078229504	38	13912
2026-01-18 09:50:42.10	16.29	18.05	-33.1	-33.0	15.5	1.63e-03	0	49	0	8413773824	38	13662
2026-01-18 09:50:45.12	16.10	18.53	-32.7	-32.6	15.7	1.24e-03	0	49	0	8749318144	37	13883
2026-01-18 09:50:48.15	15.90	19.02	-32.5	-32.4	15.7	9.87e-04	0	49	0	9093251072	37	13507
2026-01-18 09:50:51.18	15.69	19.53	-32.3	-32.2	15.8	9.87e-04	0	50	0	9437184000	36	14023
2026-01-18 09:50:54.21	15.47	20.05	-32.0	-31.9	15.9	6.58e-04	0	49	0	9772728320	36	13533
2026-01-18 09:50:57.23	15.25	20.58	-29.0	-28.9	15.6	4.43e-04	0	49	0	10116661248	30	13627
2026-01-18 09:51:00.26	15.01	21.12	-28.8	-28.8	15.6	1.23e-03	0	50	0	10452205568	29	14149
2026-01-18 09:51:03.28	14.77	21.68	-28.5	-28.4	15.8	1.22e-03	0	50	0	10804527104	29	13568
2026-01-18 09:51:06.30	14.51	22.25	-28.3	-28.2	15.8	7.58e-04	0	49	0	11140071424	28	14095
2026-01-18 09:51:09.33	14.24	22.85	-27.9	-27.8	15.9	7.72e-04	0	50	0	11475615744	27	14183
2026-01-18 09:51:12.35	13.96	23.45	-28.0	-27.9	16.0	5.34e-04	0	50	0	11811160064	27	14344
2026-01-18 09:51:15.38	13.67	24.08	-27.7	-27.6	16.1	3.15e-04	0	50	0	12163481600	27	13857
2026-01-18 09:51:18.40	13.36	24.72	-27.5	-27.4	16.2	1.67e-04	0	50	0	12499025920	27	13614
2026-01-18 09:51:21.43	13.04	25.38	-27.6	-27.5	16.2	1.67e-04	0	50	0	12834570240	27	13766
2026-01-18 09:51:24.46	12.70	26.06	-27.1	-27.0	16.4	1.00e-04	0	50	0	13170114560	26	13732
2026-01-18 09:51:27.48	12.34	26.76	-26.8	-26.7	16.4	8.10e-05	0	50	0	13522436096	25	14010
2026-01-18 09:51:30.50	11.97	27.48	-26.6	-26.5	16.5	3.81e-05	0	50	0	13857980416	25	13754
2026-01-18 09:51:33.53	11.57	28.22	-26.2	-26.1	16.6	1.90e-05	0	50	0	14201913344	24	13834
2026-01-18 09:51:36.55	11.16	28.99	-26.0	-25.9	16.7	1.43e-05	0	50	0	14537457664	23	14421
2026-01-18 09:51:39.57	10.72	29.78	-25.5	-25.4	16.8	1.90e-05	0	50	0	14881390592	23	13510
2026-01-18 09:51:42.60	10.26	30.60	-25.2	-25.1	16.8	4.70e-06	0	50	0	15216934912	22	13918
2026-01-18 09:51:45.62	9.77	31.44	-25.0	-24.9	16.9	9.50e-06	0	50	0	15560867840	22	13599
2026-01-18 09:51:48.65	9.25	32.31	-24.9	-24.8	16.9	0.00e+00	0	50	0	15896412160	21	14256
2026-01-18 09:51:51.67	8.70	33.20	-24.4	-24.3	17.1	9.50e-06	0	50	0	16248733696	20	14120
2026-01-18 09:51:54.69	8.11	34.12	-24.1	-24.0	17.1	4.70e-06	0	50	0	16584278016	20	13732
2026-01-18 09:51:57.72	7.49	35.08	-23.8	-23.7	17.1	0.00e+00	0	50	0	16919822336	19	14000
2026-01-18 09:52:00.74	6.82	36.06	-23.5	-23.4	17.2	0.00e+00	0	49	0	17255366656	19	13587
2026-01-18 09:52:03.77	6.11	37.08	-23.2	-23.1	17.3	0.00e+00	0	49	0	17607688192	18	13800
2026-01-18 09:52:06.79	5.35	38.13	-23.0	-22.9	17.3	4.70e-06	0	49	0	17943232512	18	13549
2026-01-18 09:52:09.81	4.54	39.21	-22.6	-22.5	17.3	0.00e+00	0	50	0	18278776832	17	13713
2026-01-18 09:52:12.84	3.66	40.32	-22.5	-22.4	17.3	0.00e+00	0	50	0	18614321152	17	13595
2026-01-18 09:52:15.86	2.72	41.47	-22.2	-22.1	17.4	0.00e+00	0	50	0	18958254080	16	13845
2026-01-18 09:52:18.88	1.70	42.64	-21.8	-21.7	17.4	0.00e+00	0	49	0	19302187008	15	14004
2026-01-18 09:52:21.91	0.60	43.86	-21.7	-21.6	17.4	0.00e+00	0	50	0	19646119936	15	13881
2026-01-18 09:52:24.93	359.41	45.10	-21.3	-21.1	17.5	0.00e+00	0	50	0	19981664256	14	13901
2026-01-18 09:52:27.95	358.11	46.37	-21.1	-21.0	17.5	0.00e+00	0	50	0	20317208576	14	13705
2026-01-18 09:52:30.98	356.70	47.67	-20.7	-20.6	17.5	0.00e+00	0	50	0	20669530112	13	13868
2026-01-18 09:52:34.00	355.16	48.99	-20.5	-20.4	17.6	0.00e+00	0	49	0	21005074432	13	13541
2026-01-18 09:52:37.03	353.48	50.34	-20.3	-20.2	17.6	0.00e+00	0	50	0	21340618752	12	13965
2026-01-18 09:52:40.05	351.63	51.70	-20.2	-20.1	17.6	0.00e+00	0	49	0	21676163072	11	14677
2026-01-18 09:52:43.07	349.60	53.07	-20.0	-19.8	17.6	0.00e+00	0	49	0	22028484608	11	14251
2026-01-18 09:52:46.10	347.36	54.44	-19.6	-19.5	17.6	0.00e+00	0	49	0	22364028928	11	13715
2026-01-18 09:52:49.13	344.89	55.81	-19.3	-19.2	17.7	0.00e+00	0	50	0	22699573248	10	13998
2026-01-18 09:52:52.15	342.18	57.15	-19.3	-19.1	17.7	0.00e+00	0	50	0	23043506176	10	13928
2026-01-18 09:52:55.17	339.17	58.46	-19.2	-19.0	17.6	0.00e+00	0	49	0	23387439104	10	13784
2026-01-18 09:52:58.20	335.85	59.72	-19.2	-19.0	17.8	0.00e+00	0	50	0	23722983424	10	13764
2026-01-18 09:53:01.23	332.19	60.91	-18.9	-18.7	17.8	0.00e+00	0	50	0	24066916352	9	14101
2026-01-18 09:53:04.25	328.19	62.02	-18.9	-18.8	17.8	0.00e+00	0	50	0	24402460672	9	14120
2026-01-18 09:53:07.27	323.82	63.00	-54.2	-56.4	6.2	0.00e+00	0	48	104	24427626496	79	19147
2026-01-18 09:53:10.30	319.09	63.86	-54.3	-56.4	6.2	0.00e+00	0	48	104	24427626496	79	19159
2026-01-18 09:53:13.32	314.04	64.55	-54.2	-56.4	6.2	0.00e+00	0	48	104	24427626496	79	19121
2026-01-18 09:53:16.35	308.69	65.07	-54.3	-56.4	6.2	0.00e+00	0	48	104	24427626496	79	19078
2026-01-18 09:53:19.37	303.16	65.38	-54.3	-56.5	6.2	0.00e+00	0	48	104	24427626496	79	19273
2026-01-18 09:53:22.39	297.53	65.48	-54.3	-56.4	6.2	0.00e+00	0	48	104	24427626496	79	19168
2026-01-18 09:53:25.42	291.87	65.37	-54.3	-56.4	6.2	0.00e+00	0	48	104	24427626496	79	19158
2026-01-18 09:53:28.44	286.35	65.05	-54.3	-56.4	6.2	0.00e+00	0	48	104	24427626496	79	19171
2026-01-18 09:53:31.46	281.03	64.53	-54.3	-56.4	6.2	0.00e+00	0	48	104	24427626496	79	19128
2026-01-18 09:53:34.49	275.97	63.82	-54.3	-56.4	6.2	0.00e+00	0	47	104	24427626496	79	19155
2026-01-18 09:53:37.51	271.26	62.96	-54.3	-56.4	6.2	0.00e+00	0	47	104	24427626496	79	19132
2026-01-18 09:53:40.54	266.90	61.96	-54.3	-56.4	6.2	0.00e+00	0	47	104	24427626496	79	19155
2026-01-18 09:53:43.56	262.90	60.86	-54.3	-56.4	6.2	0.00e+00	0	47	104	24427626496	79	19110
2026-01-18 09:53:46.58	259.27	59.66	-54.3	-56.4	6.2	0.00e+00	0	47	104	24427626496	79	19148
2026-01-18 09:53:49.61	255.95	58.39	-54.3	-56.4	6.2	0.00e+00	0	47	104	24427626496	79	19084
2026-01-18 09:53:52.63	252.96	57.08	-54.2	-56.4	6.2	0.00e+00	0	47	104	24427626496	79	19075
2026-01-18 09:53:55.65	250.25	55.73	-54.2	-56.4	6.2	0.00e+00	0	47	104	24427626496	79	19043
2026-01-18 09:53:58.68	247.79	54.36	-54.2	-56.4	6.2	0.00e+00	0	47	104	24427626496	79	19095
2026-01-18 09:54:01.70	245.56	52.99	-54.2	-56.4	6.2	0.00e+00	0	47	104	24427626496	79	19047
2026-01-18 09:54:04.73	243.53	51.61	-54.2	-56.3	6.2	0.00e+00	0	47	104	24427626496	79	18950
2026-01-18 09:54:07.75	241.69	50.25	-54.2	-56.3	6.2	0.00e+00	0	47	104	24427626496	79	18929
2026-01-18 09:54:10.77	240.02	48.91	-54.2	-56.3	6.2	0.00e+00	0	47	104	24427626496	79	18970
2026-01-18 09:54:13.80	238.48	47.58	-54.2	-56.3	6.2	0.00e+00	0	47	104	24427626496	79	18904
2026-01-18 09:54:16.82	237.07	46.28	-54.1	-56.3	6.2	0.00e+00	0	47	104	24427626496	79	18846
2026-01-18 09:54:19.85	235.78	45.00	-54.1	-56.3	6.2	0.00e+00	0	47	104	24427626496	79	18845
2026-01-18 09:54:22.87	234.59	43.76	-54.1	-56.2	6.2	0.00e+00	0	47	104	24427626496	79	18776
2026-01-18 09:54:25.89	233.49	42.55	-54.1	-56.2	6.2	0.00e+00	0	46	104	24427626496	79	18799
2026-01-18 09:54:28.92	232.47	41.36	-54.1	-56.2	6.2	0.00e+00	0	47	104	24427626496	79	18696
2026-01-18 09:54:31.94	231.53	40.22	-54.1	-56.2	6.2	0.00e+00	0	47	104	24427626496	79	18710
2026-01-18 09:54:34.97	230.66	39.10	-54.1	-56.2	6.2	0.00e+00	0	47	104	24427626496	79	18701
2026-01-18 09:54:37.99	229.85	38.02	-54.0	-56.1	6.2	0.00e+00	0	47	104	24427626496	79	18601
2026-01-18 09:54:41.01	229.09	36.97	-54.0	-56.1	6.2	0.00e+00	0	46	104	24427626496	79	18589
2026-01-18 09:54:44.04	228.38	35.95	-54.0	-56.2	6.2	0.00e+00	0	47	104	24427626496	79	18624
2026-01-18 09:54:47.07	227.71	34.96	-54.0	-56.1	6.2	0.00e+00	0	46	104	24427626496	79	18540
2026-01-18 09:54:50.09	227.09	34.01	-54.0	-56.1	6.2	0.00e+00	0	47	104	24427626496	79	18521
2026-01-18 09:54:53.11	226.50	33.08	-54.0	-56.1	6.2	0.00e+00	0	46	104	24427626496	79	18492
2026-01-18 09:54:56.14	225.95	32.19	-53.9	-56.1	6.2	0.00e+00	0	46	104	24427626496	79	18477
2026-01-18 09:54:59.16	225.43	31.32	-53.9	-56.1	6.2	0.00e+00	0	46	104	24427626496	79	18468
2026-01-18 09:55:02.19	224.94	30.47	-53.9	-56.0	6.2	0.00e+00	0	46	104	24427626496	79	18362
2026-01-18 09:55:05.21	224.48	29.66	-53.9	-56.0	6.2	0.00e+00	0	47	104	24427626496	79	18371
2026-01-18 09:55:08.23	224.04	28.87	-53.9	-56.0	6.2	0.00e+00	0	47	104	24427626496	79	18314
2026-01-18 09:55:11.26	223.62	28.10	-53.9	-56.0	6.2	0.00e+00	0	47	104	24427626496	79	18288
2026-01-18 09:55:14.29	223.23	27.35	-53.9	-56.0	6.2	0.00e+00	0	46	104	24427626496	79	18235
2026-01-18 09:55:17.31	222.86	26.63	-53.8	-56.0	6.2	0.00e+00	0	46	104	24427626496	79	18270
2026-01-18 09:55:20.34	222.50	25.93	-53.8	-55.9	6.2	0.00e+00	0	46	104	24427626496	79	18003
2026-01-18 09:55:23.36	222.16	25.25	-53.7	-55.9	6.2	0.00e+00	0	46	104	24427626496	79	18005
2026-01-18 09:55:26.39	221.84	24.59	-53.7	-55.9	6.2	0.00e+00	0	46	104	24427626496	79	18067
2026-01-18 09:55:29.41	221.53	23.95	-53.7	-55.9	6.2	0.00e+00	0	46	104	24427626496	79	18007
2026-01-18 09:55:32.43	221.24	23.32	-53.7	-55.9	6.2	0.00e+00	0	47	104	24427626496	79	18007
2026-01-18 09:55:35.46	220.96	22.71	-53.7	-55.9	6.2	0.00e+00	0	46	104	24427626496	79	18011
2026-01-18 09:55:38.48	220.69	22.12	-53.7	-55.9	6.2	0.00e+00	0	46	104	24427626496	79	18002
2026-01-18 09:55:41.50	220.43	21.55	-53.7	-55.8	6.2	0.00e+00	0	46	104	24427626496	79	17866
2026-01-18 09:55:44.53	220.18	20.99	-53.7	-55.8	6.2	0.00e+00	0	46	104	24427626496	79	17871
2026-01-18 09:55:47.55	219.95	20.45	-53.7	-55.8	6.2	0.00e+00	0	46	104	24427626496	79	17850
2026-01-18 09:55:50.57	219.72	19.92	-53.6	-55.8	6.2	0.00e+00	0	46	104	24427626496	79	17812
2026-01-18 09:55:53.60	219.50	19.40	-53.6	-55.8	6.2	0.00e+00	0	46	104	24427626496	79	17793
2026-01-18 09:55:56.62	219.29	18.89	-53.6	-55.7	6.2	0.00e+00	0	46	104	24427626496	79	17672
2026-01-18 09:55:59.65	219.09	18.40	-53.6	-55.7	6.2	0.00e+00	0	46	104	24427626496	79	17724
2026-01-18 09:56:02.67	218.90	17.92	-53.6	-55.7	6.2	0.00e+00	0	46	104	24427626496	79	17682
2026-01-18 09:56:05.69	218.71	17.45	-53.6	-55.7	6.2	0.00e+00	0	46	104	24427626496	79	17685
2026-01-18 09:56:08.72	218.54	16.99	-53.6	-55.7	6.2	0.00e+00	0	46	104	24427626496	79	17687
2026-01-18 09:56:11.74	218.36	16.54	-53.5	-55.7	6.2	0.00e+00	0	46	104	24427626496	79	17593
2026-01-18 09:56:14.76	218.20	16.11	-53.5	-55.7	6.2	0.00e+00	0	46	104	24427626496	79	17581
2026-01-18 09:56:17.79	218.04	15.68	-53.5	-55.6	6.2	0.00e+00	0	46	104	24427626496	79	17558
2026-01-18 09:56:20.81	217.88	15.26	-53.5	-55.6	6.2	0.00e+00	0	46	104	24427626496	78	18571
2026-01-18 09:56:23.83	217.73	14.85	-53.5	-55.6	6.2	0.00e+00	0	46	104	24427626496	78	18473
2026-01-18 09:56:26.86	217.59	14.45	-53.4	-55.6	6.2	0.00e+00	0	46	104	24427626496	78	18438
2026-01-18 09:56:29.88	217.45	14.05	-53.4	-55.6	6.2	0.00e+00	0	46	104	24427626496	78	18409
2026-01-18 09:56:32.90	217.31	13.67	-53.4	-55.6	6.2	0.00e+00	0	46	104	24427626496	78	18473
2026-01-18 09:56:35.93	217.18	13.29	-53.4	-55.5	6.2	0.00e+00	0	46	104	24427626496	78	18284
2026-01-18 09:56:38.95	217.05	12.92	-53.4	-55.5	6.2	0.00e+00	0	46	104	24427626496	78	18262
2026-01-18 09:56:41.97	216.93	12.56	-53.4	-55.5	6.2	0.00e+00	0	46	104	24427626496	78	18262
2026-01-18 09:56:44.99	216.81	12.20	-53.4	-55.5	6.2	0.00e+00	0	46	104	24427626496	78	18288
2026-01-18 09:56:48.02	216.70	11.85	-53.3	-55.4	6.2	0.00e+00	0	46	104	24427626496	78	18069
2026-01-18 09:56:51.04	216.59	11.51	-53.3	-55.4	6.2	0.00e+00	0	46	104	24427626496	78	18089
2026-01-18 09:56:54.07	216.48	11.17	-53.3	-55.4	6.2	0.00e+00	0	46	104	24427626496	78	18140
2026-01-18 09:56:57.09	216.37	10.84	-53.3	-55.4	6.2	0.00e+00	0	46	104	24427626496	78	18093
2026-01-18 09:57:00.11	216.27	10.51	-53.2	-55.3	6.2	0.00e+00	0	46	104	24427626496	78	17909
2026-01-18 09:57:03.14	216.17	10.19	-53.2	-55.3	6.2	0.00e+00	0	46	104	24427626496	78	17865
2026-01-18 09:57:06.16	216.07	9.87	-53.2	-55.4	6.2	0.00e+00	0	46	104	24427626496	78	18012
2026-01-18 09:57:09.19	215.98	9.56	-53.2	-55.3	6.2	0.00e+00	0	46	104	24427626496	78	17916
2026-01-18 09:57:12.21	215.89	9.26	-53.1	-55.2	6.2	0.00e+00	0	46	104	24427626496	78	17741
2026-01-18 09:57:15.24	215.80	8.96	-53.1	-55.2	6.2	0.00e+00	0	46	104	24427626496	78	17711
2026-01-18 09:57:18.27	215.72	8.66	-53.1	-55.2	6.2	0.00e+00	0	46	104	24427626496	78	17748
2026-01-18 09:57:21.29	215.63	8.37	-53.1	-55.2	6.2	0.00e+00	0	46	104	24427626496	78	17742
2026-01-18 09:57:24.31	215.55	8.09	-53.0	-55.2	6.2	0.00e+00	0	46	104	24427626496	78	17588
2026-01-18 09:57:27.34	215.47	7.80	-53.0	-55.1	6.2	0.00e+00	0	46	104	24427626496	78	17517
2026-01-18 09:57:30.36	215.40	7.52	-53.0	-55.1	6.2	0.00e+00	0	47	104	24427626496	77	18466
2026-01-18 09:57:33.39	215.32	7.25	-53.0	-55.1	6.2	0.00e+00	0	46	104	24427626496	77	18469
2026-01-18 09:57:36.41	215.25	6.98	-52.9	-55.0	6.2	0.00e+00	0	46	104	24427626496	77	18281
2026-01-18 09:57:39.43	215.18	6.71	-52.8	-55.0	6.2	0.00e+00	0	46	104	24427626496	77	18208
2026-01-18 09:57:42.46	215.11	6.45	-52.8	-54.9	6.2	0.00e+00	0	46	104	24427626496	77	18168
2026-01-18 09:57:45.48	215.04	6.19	-52.8	-54.9	6.2	0.00e+00	0	46	104	24427626496	77	18160
2026-01-18 09:57:48.51	214.97	5.93	-52.8	-54.9	6.2	0.00e+00	0	46	104	24427626496	77	18035
2026-01-18 09:57:51.53	214.91	5.68	-52.7	-54.8	6.2	0.00e+00	0	46	104	24427626496	77	17887
2026-01-18 09:57:54.55	214.85	5.43	-52.7	-54.8	6.2	0.00e+00	0	46	104	24427626496	77	17869
2026-01-18 09:57:57.58	214.79	5.18	-52.7	-54.8	6.2	0.00e+00	0	46	104	24427626496	77	17903
2026-01-18 09:58:00.60	214.73	4.94	-53.1	-55.2	6.2	0.00e+00	0	46	104	24427626496	77	18775
2026-01-18 09:58:03.63	214.67	4.70	-53.7	-55.9	6.2	0.00e+00	0	46	104	24427626496	77	20185
2026-01-18 09:58:06.65	214.61	4.46	-54.0	-56.1	6.2	0.00e+00	0	46	104	24427626496	78	19579
2026-01-18 09:58:09.67	214.56	4.22	-54.1	-56.2	6.2	0.00e+00	0	46	104	24427626496	78	19915
2026-01-18 09:58:12.69	214.50	3.99	-54.2	-56.3	6.2	0.00e+00	0	46	104	24427626496	78	20094
2026-01-18 09:58:15.72	214.45	3.76	-54.3	-56.4	6.2	0.00e+00	0	46	104	24427626496	79	19221
2026-01-18 09:58:18.74	214.40	3.53	-54.3	-56.5	6.2	0.00e+00	0	46	104	24427626496	79	19262
2026-01-18 09:58:21.77	214.35	3.30	-54.4	-56.5	6.2	0.00e+00	0	46	104	24427626496	79	19384
2026-01-18 09:58:24.79	214.30	3.08	-54.3	-56.5	6.2	0.00e+00	0	46	104	24427626496	79	19324
2026-01-18 09:58:27.81	214.25	2.86	-54.3	-56.4	6.2	0.00e+00	0	46	104	24427626496	79	19255
2026-01-18 09:58:30.84	214.20	2.64	-54.3	-56.4	6.2	0.00e+00	0	46	104	24427626496	79	19228
2026-01-18 09:58:33.86	214.16	2.43	-54.3	-56.4	6.2	0.00e+00	0	46	104	24427626496	79	19170
2026-01-18 09:58:36.88	214.11	2.21	-54.3	-56.4	6.2	0.00e+00	0	46	104	24427626496	79	19139
2026-01-18 09:58:39.91	214.07	2.00	-54.3	-56.4	6.2	0.00e+00	0	46	104	24427626496	79	19071

#Closed at: 2026-01-18 09:58:42
#Recorded file [24427 MB]: D:/lorett/data/31041_260118_124804.dat