passes_logs/2026/01/18/R3.2S_Murmansk/R3.2S_Murmansk__20260118_041418_AQUA_rec.log

#Pass ID: 20260118_041418_AQUA
#Satellite: AQUA
#Configuration: AQUA
#almurnet v.1.7.20251203
#Start time: 2026-01-18 04:14:17

#Version: 2.2.20231116
#Station: R3.2S_Murmansk
#Location: 33.079688 lon 68.888172 lat
#TLE: 1 27424U 02022A   26017.62394888  .00000781  00000+0  16630-3 0  9993
#TLE: 2 27424  98.4086 344.0954 0002010  75.0132 339.4723 14.61825944261279

#Time	Az	El	Level	Level2	SNR	BER	BlckErr	Temp	State	Recorded	gain1	gain2
2026-01-18 04:14:17.96	31.51	1.99	-52.9	-70.7	3.8	7.47e-01	0	33	0	0	77	27936
2026-01-18 04:14:20.98	31.36	2.18	-52.9	-70.7	3.8	7.46e-01	0	33	104	0	76	29506
2026-01-18 04:14:24.01	31.21	2.37	-52.9	-70.7	3.8	7.45e-01	0	33	104	0	76	29527
2026-01-18 04:14:27.03	31.05	2.57	-52.9	-70.7	3.8	7.45e-01	0	34	104	0	76	29591
2026-01-18 04:14:30.06	30.89	2.76	-52.8	-70.7	3.8	7.47e-01	0	34	104	0	76	29459
2026-01-18 04:14:33.08	30.73	2.95	-52.8	-70.7	3.8	7.44e-01	0	34	104	0	76	29373
2026-01-18 04:14:36.11	30.57	3.15	-52.4	-70.6	3.8	7.45e-01	0	34	104	0	76	29137
2026-01-18 04:14:39.14	30.40	3.35	-51.9	-70.5	3.8	7.45e-01	0	34	104	0	75	30464
2026-01-18 04:14:42.16	30.23	3.55	-49.4	-70.1	3.8	7.46e-01	0	34	104	0	70	38930
2026-01-18 04:14:45.18	30.06	3.75	-48.7	-69.2	3.8	7.44e-01	0	34	104	0	68	39421
2026-01-18 04:14:48.21	29.88	3.95	-49.3	-67.6	3.8	7.40e-01	0	34	104	0	69	30907
2026-01-18 04:14:51.23	29.70	4.15	-50.9	-66.1	3.8	7.47e-01	0	34	104	0	72	21861
2026-01-18 04:14:54.25	29.52	4.35	-51.1	-65.0	3.8	7.47e-01	0	34	104	0	73	18278
2026-01-18 04:14:57.27	29.34	4.56	-51.3	-65.4	3.8	7.45e-01	0	34	104	0	73	19042
2026-01-18 04:15:00.30	29.15	4.77	-52.0	-67.2	3.8	7.47e-01	0	34	104	0	74	22259
2026-01-18 04:15:03.32	28.96	4.97	-52.4	-68.4	3.8	7.42e-01	0	34	104	0	75	24123
2026-01-18 04:15:06.34	28.77	5.18	-52.2	-66.9	3.8	7.47e-01	0	34	104	0	75	20296
2026-01-18 04:15:09.37	28.58	5.40	-53.0	-70.1	3.8	7.42e-01	0	35	104	0	76	27473
2026-01-18 04:15:12.39	28.38	5.61	-46.9	-57.8	3.8	7.42e-01	0	35	104	0	65	12656
2026-01-18 04:15:15.42	28.17	5.82	-53.2	-70.4	3.8	7.47e-01	0	35	104	0	77	26941
2026-01-18 04:15:18.45	27.97	6.04	-50.0	-62.1	3.8	7.47e-01	0	34	104	0	71	14623
2026-01-18 04:15:21.47	27.76	6.26	-51.2	-64.1	3.9	7.45e-01	0	34	104	0	74	15487
2026-01-18 04:15:24.49	27.54	6.48	-52.0	-65.6	3.8	7.46e-01	0	35	104	0	74	18486
2026-01-18 04:15:27.52	27.33	6.70	-48.5	-60.0	3.8	7.43e-01	0	35	104	0	69	12920
2026-01-18 04:15:30.54	27.11	6.92	-53.1	-68.7	3.8	7.46e-01	0	35	104	0	76	23464
2026-01-18 04:15:33.56	26.88	7.15	-52.9	-68.0	3.8	7.47e-01	0	35	104	0	77	20527
2026-01-18 04:15:36.59	26.65	7.38	-52.2	-65.8	3.8	7.45e-01	0	35	104	0	74	18764
2026-01-18 04:15:39.61	26.42	7.61	-52.2	-66.1	3.8	7.45e-01	0	35	104	0	76	17334
2026-01-18 04:15:42.63	26.18	7.84	-49.4	-61.1	3.8	7.46e-01	0	35	104	0	70	13798
2026-01-18 04:15:45.66	25.94	8.07	-47.8	-59.4	3.8	7.43e-01	0	35	104	0	66	14335
2026-01-18 04:15:48.68	25.69	8.30	-53.3	-68.7	3.7	7.45e-01	0	35	104	0	77	22156
2026-01-18 04:15:51.71	25.44	8.54	-48.3	-59.7	3.8	7.46e-01	0	35	104	0	68	13163
2026-01-18 04:15:54.73	25.19	8.78	-53.8	-70.7	3.7	7.46e-01	0	35	104	0	78	26305
2026-01-18 04:15:57.76	24.93	9.02	-50.6	-62.8	3.9	7.47e-01	0	35	104	0	73	14148
2026-01-18 04:16:00.78	24.66	9.26	-50.8	-63.3	3.8	7.47e-01	0	35	104	0	72	15898
2026-01-18 04:16:03.80	24.39	9.51	-49.4	-61.4	3.9	7.43e-01	0	35	104	0	71	13427
2026-01-18 04:16:06.83	24.12	9.75	-48.8	-60.2	3.8	7.46e-01	0	35	104	0	69	13203
2026-01-18 04:16:09.85	23.84	10.00	-51.4	-64.0	3.8	7.46e-01	0	35	104	0	73	16227
2026-01-18 04:16:12.87	23.55	10.25	-54.1	-71.5	3.7	7.43e-01	0	35	104	0	78	28958
2026-01-18 04:16:15.89	23.26	10.50	-46.6	-57.6	3.8	7.41e-01	0	35	104	0	65	12358
2026-01-18 04:16:18.92	22.96	10.76	-54.2	-72.0	3.9	7.45e-01	0	35	104	0	79	28838
2026-01-18 04:16:21.94	22.66	11.02	-48.9	-60.2	3.9	7.47e-01	0	35	104	0	69	13133
2026-01-18 04:16:24.97	22.35	11.28	-52.0	-65.3	3.8	7.43e-01	0	35	104	0	74	17697
2026-01-18 04:16:27.99	22.03	11.54	-48.6	-60.0	3.8	7.45e-01	0	35	104	0	69	12864
2026-01-18 04:16:31.01	21.71	11.80	-48.4	-59.8	3.8	7.45e-01	0	35	104	0	68	13361
2026-01-18 04:16:34.04	21.38	12.07	-51.8	-64.8	3.8	7.45e-01	0	35	104	0	74	16793
2026-01-18 04:16:37.06	21.05	12.34	-54.3	-72.1	3.8	7.45e-01	0	35	104	0	79	29139
2026-01-18 04:16:40.09	20.71	12.61	-46.0	-57.0	3.8	7.46e-01	0	35	104	0	63	12843
2026-01-18 04:16:43.11	20.36	12.88	-54.4	-72.1	3.8	7.42e-01	0	35	104	0	79	29135
2026-01-18 04:16:46.14	20.00	13.16	-48.4	-59.7	3.8	7.44e-01	0	35	104	0	68	13228
2026-01-18 04:16:49.16	19.64	13.44	-53.0	-67.2	3.8	7.44e-01	0	35	104	0	77	18716
2026-01-18 04:16:52.18	19.27	13.72	-48.9	-60.2	3.8	7.42e-01	0	35	104	0	68	14025
2026-01-18 04:16:55.20	18.89	14.00	-46.7	-57.7	3.8	7.43e-01	0	35	104	0	65	12469
2026-01-18 04:16:58.23	18.50	14.29	-52.1	-65.1	3.8	7.45e-01	0	35	104	0	74	17282
2026-01-18 04:17:01.25	18.10	14.58	-53.7	-69.0	3.8	7.43e-01	0	35	104	0	78	21586
2026-01-18 04:17:04.28	17.70	14.87	-48.3	-59.5	3.8	7.46e-01	0	35	104	0	67	13692
2026-01-18 04:17:07.30	17.29	15.16	-53.9	-69.8	3.8	7.46e-01	0	35	104	0	79	22465
2026-01-18 04:17:10.33	16.86	15.46	-47.8	-58.9	3.8	7.42e-01	0	35	104	0	67	12783
2026-01-18 04:17:13.35	16.43	15.76	-51.8	-64.6	3.8	7.44e-01	0	35	104	0	74	16371
2026-01-18 04:17:16.37	15.99	16.06	-49.8	-61.7	3.8	7.42e-01	0	35	104	0	70	14831
2026-01-18 04:17:19.39	15.54	16.36	-47.9	-59.1	3.8	7.43e-01	0	35	104	0	67	12971
2026-01-18 04:17:22.42	15.08	16.66	-52.5	-65.7	3.8	7.45e-01	0	35	104	0	75	17659
2026-01-18 04:17:25.44	14.61	16.97	-53.0	-67.2	4.0	7.43e-01	0	35	104	0	78	17544
2026-01-18 04:17:28.46	14.13	17.28	-45.7	-56.5	3.8	7.46e-01	0	35	104	0	62	12852
2026-01-18 04:17:31.49	13.64	17.60	-52.4	-65.4	3.9	7.43e-01	0	35	104	0	76	15982
2026-01-18 04:17:34.51	13.14	17.91	-47.9	-59.0	3.8	7.45e-01	0	35	104	0	67	12913
2026-01-18 04:17:37.53	12.62	18.23	-47.3	-58.2	3.8	7.47e-01	0	35	104	0	66	12491
2026-01-18 04:17:40.56	12.09	18.55	-51.2	-63.5	3.8	7.44e-01	0	35	104	0	72	16149
2026-01-18 04:17:43.58	11.56	18.87	-48.0	-59.1	3.8	7.45e-01	0	35	104	0	67	13015
2026-01-18 04:17:46.61	11.00	19.19	-53.5	-68.1	3.8	7.50e-01	0	35	104	0	77	20668
2026-01-18 04:17:49.63	10.44	19.51	-50.5	-62.4	3.8	7.45e-01	0	35	104	0	73	13532
2026-01-18 04:17:52.65	9.86	19.84	-49.9	-61.9	3.8	7.48e-01	0	35	104	0	70	15134
2026-01-18 04:17:55.67	9.27	20.17	-49.9	-61.4	3.8	7.43e-01	0	35	104	0	71	13498
2026-01-18 04:17:58.70	8.67	20.50	-47.5	-58.5	3.8	7.45e-01	0	35	104	0	67	12225
2026-01-18 04:18:01.72	8.05	20.83	-47.9	-59.1	3.8	7.43e-01	0	35	104	0	66	13817
2026-01-18 04:18:04.75	7.42	21.16	-53.5	-67.9	3.8	7.48e-01	0	35	104	0	77	20239
2026-01-18 04:18:07.77	6.77	21.50	-46.6	-57.6	3.8	7.43e-01	0	35	104	0	65	12290
2026-01-18 04:18:10.79	6.11	21.83	-54.7	-72.0	3.7	7.49e-01	0	35	104	0	79	28959
2026-01-18 04:18:13.82	5.43	22.17	-48.0	-59.1	3.9	7.44e-01	0	35	104	0	68	12312
2026-01-18 04:18:16.84	4.74	22.50	-54.5	-70.9	3.8	7.45e-01	0	35	104	0	79	25520
2026-01-18 04:18:19.87	4.03	22.84	-48.1	-59.3	3.8	7.46e-01	0	35	104	0	68	12615
2026-01-18 04:18:22.89	3.30	23.18	-47.7	-58.8	3.8	7.45e-01	0	35	104	0	67	12641
2026-01-18 04:18:25.92	2.56	23.51	-49.7	-61.3	3.9	7.45e-01	0	35	104	0	69	14908
2026-01-18 04:18:28.94	1.80	23.85	-54.1	-69.5	3.8	7.48e-01	0	35	104	0	78	22980
2026-01-18 04:18:31.96	1.02	24.19	-47.0	-58.1	3.8	7.45e-01	0	35	104	0	65	13017
2026-01-18 04:18:34.99	0.23	24.52	-54.7	-72.5	3.8	7.45e-01	0	35	104	0	80	28790
2026-01-18 04:18:38.01	359.42	24.85	-47.4	-58.4	3.8	7.44e-01	0	35	104	0	66	12792
2026-01-18 04:18:41.03	358.59	25.18	-54.6	-71.4	3.8	7.43e-01	0	35	104	0	79	26928
2026-01-18 04:18:44.06	357.74	25.51	-47.2	-58.2	3.8	7.44e-01	0	35	104	0	66	12469
2026-01-18 04:18:47.09	356.86	25.84	-47.0	-58.0	3.8	7.43e-01	0	35	104	0	65	12854
2026-01-18 04:18:50.11	355.98	26.17	-50.5	-62.5	3.8	7.45e-01	0	35	104	0	71	15239
2026-01-18 04:18:53.13	355.07	26.49	-54.3	-70.0	3.8	7.43e-01	0	35	104	0	79	22841
2026-01-18 04:18:56.15	354.15	26.80	-46.9	-57.8	3.8	7.48e-01	0	35	104	0	65	12654
2026-01-18 04:18:59.18	353.20	27.12	-54.5	-71.2	3.9	7.39e-01	0	35	104	0	80	24874
2026-01-18 04:19:02.21	352.23	27.42	-47.0	-57.9	3.8	7.42e-01	0	35	104	0	65	12767
2026-01-18 04:19:05.23	351.25	27.73	-50.9	-62.7	3.9	7.47e-01	0	35	104	0	73	13951
2026-01-18 04:19:08.26	350.25	28.02	-46.6	-57.5	3.8	7.47e-01	0	35	104	0	65	12210
2026-01-18 04:19:11.28	349.22	28.31	-46.0	-56.9	3.8	7.44e-01	0	35	104	0	64	11982
2026-01-18 04:19:14.31	348.18	28.60	-50.8	-62.8	3.9	7.44e-01	0	35	104	0	72	14924
2026-01-18 04:19:17.33	347.12	28.87	-53.7	-68.2	3.8	7.44e-01	0	35	104	0	79	18722
2026-01-18 04:19:20.35	346.04	29.14	-46.0	-56.8	3.8	7.48e-01	0	35	104	0	63	12586
2026-01-18 04:19:23.38	344.94	29.40	-52.1	-64.9	3.9	7.44e-01	0	35	104	0	76	15142
2026-01-18 04:19:26.40	343.82	29.65	-46.2	-57.1	3.8	7.46e-01	0	35	104	0	64	12287
2026-01-18 04:19:29.43	342.68	29.89	-46.3	-57.2	3.8	7.46e-01	0	35	104	0	64	12377
2026-01-18 04:19:32.45	341.53	30.12	-47.1	-58.0	3.8	7.46e-01	0	35	104	0	64	13629
2026-01-18 04:19:35.48	340.36	30.34	-45.2	-56.0	3.8	7.39e-01	0	35	104	0	62	12168
2026-01-18 04:19:38.50	339.18	30.55	-51.7	-63.9	3.8	7.47e-01	0	35	104	0	73	16103
2026-01-18 04:19:41.53	337.97	30.75	-49.2	-60.6	3.9	7.44e-01	0	35	104	0	70	12982
2026-01-18 04:19:44.55	336.76	30.93	-48.5	-59.8	3.8	7.48e-01	0	35	104	0	67	14049
2026-01-18 04:19:47.58	335.53	31.10	-48.1	-59.3	3.8	7.46e-01	0	35	104	0	68	12527
2026-01-18 04:19:50.60	334.28	31.25	-45.6	-56.4	3.8	7.46e-01	0	35	104	0	63	12056
2026-01-18 04:19:53.62	333.03	31.39	-50.6	-62.6	3.8	7.44e-01	0	35	104	0	73	13765
2026-01-18 04:19:56.65	331.76	31.52	-51.3	-63.7	3.8	7.46e-01	0	35	104	0	73	15599
2026-01-18 04:19:59.67	330.49	31.63	-45.3	-56.2	3.8	7.42e-01	0	35	104	0	62	12384
2026-01-18 04:20:02.69	329.21	31.73	-52.8	-66.2	3.8	7.47e-01	0	35	104	0	76	17551
2026-01-18 04:20:05.72	327.91	31.81	-46.0	-56.8	3.8	7.43e-01	0	36	104	0	64	11923
2026-01-18 04:20:08.74	326.61	31.88	-52.0	-64.7	3.8	7.45e-01	0	35	104	0	74	16622
2026-01-18 04:20:11.77	325.31	31.93	-46.6	-57.6	3.8	7.45e-01	0	35	104	0	65	12305
2026-01-18 04:20:14.79	324.01	31.96	-45.5	-56.3	3.8	7.45e-01	0	35	104	0	63	11835
2026-01-18 04:20:17.81	322.70	31.97	-46.5	-57.4	3.8	7.46e-01	0	35	104	0	63	13483
2026-01-18 04:20:20.84	321.39	31.97	-53.9	-68.2	3.8	7.49e-01	0	35	104	0	78	19782
2026-01-18 04:20:23.87	320.08	31.96	-45.7	-56.6	3.8	7.44e-01	0	35	104	0	63	12254
2026-01-18 04:20:26.89	318.77	31.92	-53.4	-67.0	3.8	7.43e-01	0	35	104	0	77	18266
2026-01-18 04:20:29.92	317.47	31.88	-45.7	-56.6	3.8	7.45e-01	0	35	104	0	63	12312
2026-01-18 04:20:32.94	316.17	31.81	-51.1	-63.2	3.8	7.43e-01	0	35	104	0	72	15735
2026-01-18 04:20:35.96	314.88	31.73	-45.6	-46.8	23.7	6.02e-01	0	35	0	0	63	3986
2026-01-18 04:20:38.99	313.59	31.63	-45.7	-47.0	25.0	6.01e-01	0	35	0	5767168	62	4317
2026-01-18 04:20:42.01	312.32	31.52	-45.0	-46.1	25.8	6.02e-01	0	35	0	11534336	61	4139
2026-01-18 04:20:45.04	311.05	31.39	-45.5	-46.7	25.1	6.02e-01	0	35	0	17301504	62	4175
2026-01-18 04:20:48.06	309.80	31.25	-45.4	-46.7	25.4	6.04e-01	0	35	0	22544384	62	4163
2026-01-18 04:20:51.09	308.55	31.09	-44.9	-46.0	25.9	6.02e-01	0	35	0	28311552	61	4082
2026-01-18 04:20:54.11	307.32	30.92	-45.9	-47.2	22.7	6.03e-01	0	35	0	34078720	62	4418
2026-01-18 04:20:57.13	306.10	30.74	-45.2	-46.4	25.6	6.01e-01	0	35	0	39845888	62	4044
2026-01-18 04:21:00.16	304.90	30.54	-45.8	-47.1	24.9	6.02e-01	0	35	0	45613056	62	4387
2026-01-18 04:21:03.18	303.71	30.33	-45.3	-46.5	25.5	6.04e-01	0	35	0	51380224	62	4053
2026-01-18 04:21:06.20	302.55	30.11	-46.5	-47.9	24.1	5.98e-01	0	35	0	56623104	63	4528
2026-01-18 04:21:09.23	301.39	29.88	-45.9	-47.2	24.8	6.02e-01	0	35	0	62390272	62	4398
2026-01-18 04:21:12.25	300.25	29.64	-45.7	-47.0	24.7	6.02e-01	0	35	0	68157440	63	4071
2026-01-18 04:21:15.27	299.14	29.39	-46.7	-48.2	23.9	6.01e-01	0	35	0	73924608	63	4686
2026-01-18 04:21:18.30	298.03	29.13	-45.8	-47.1	24.7	6.01e-01	0	35	0	79691776	63	4109
2026-01-18 04:21:21.32	296.95	28.86	-46.3	-47.7	24.2	6.03e-01	0	35	0	84934656	63	4429
2026-01-18 04:21:24.34	295.89	28.59	-46.9	-48.4	23.5	6.02e-01	0	35	0	90701824	64	4497
2026-01-18 04:21:27.37	294.85	28.30	-46.5	-47.8	24.3	6.02e-01	0	35	0	96468992	63	4486
2026-01-18 04:21:30.39	293.82	28.01	-46.5	-47.9	24.1	6.03e-01	0	35	0	102236160	64	4248
2026-01-18 04:21:33.42	292.82	27.71	-46.2	-47.5	24.5	6.02e-01	0	35	0	108003328	64	4074
2026-01-18 04:21:36.44	291.83	27.41	-46.4	-47.8	24.2	6.01e-01	0	35	0	113246208	63	4467
2026-01-18 04:21:39.46	290.87	27.10	-45.9	-47.2	24.8	6.04e-01	0	35	0	119013376	63	4171
2026-01-18 04:21:42.48	289.92	26.79	-46.3	-47.7	24.3	6.02e-01	0	35	0	124780544	63	4395
2026-01-18 04:21:45.50	289.00	26.47	-46.4	-47.7	24.3	6.02e-01	0	35	0	130547712	63	4428
2026-01-18 04:21:48.53	288.09	26.15	-46.1	-47.4	24.6	6.01e-01	0	35	0	136314880	63	4274
2026-01-18 04:21:51.55	287.20	25.82	-47.1	-48.7	23.3	6.04e-01	0	35	0	141557760	64	4680
2026-01-18 04:21:54.57	286.33	25.50	-45.8	-47.0	24.9	6.02e-01	0	35	0	147324928	63	4078
2026-01-18 04:21:57.60	285.48	25.17	-47.2	-48.8	23.4	6.02e-01	0	35	0	153092096	64	4726
2026-01-18 04:22:00.62	284.65	24.83	-46.7	-48.1	23.3	6.02e-01	0	35	0	158859264	65	4144
2026-01-18 04:22:03.64	283.83	24.50	-45.8	-47.0	24.9	5.99e-01	0	35	0	164626432	63	4080
2026-01-18 04:22:06.66	283.04	24.16	-46.7	-48.1	23.5	6.02e-01	0	35	0	169869312	64	4388
2026-01-18 04:22:09.69	282.26	23.83	-47.0	-48.6	23.3	6.01e-01	0	35	0	175636480	64	4606
2026-01-18 04:22:12.71	281.50	23.49	-46.7	-48.3	23.4	6.00e-01	0	35	0	181403648	64	4442
2026-01-18 04:22:15.73	280.75	23.15	-47.1	-48.6	22.7	6.01e-01	0	35	0	187170816	65	4377
2026-01-18 04:22:18.76	280.02	22.82	-47.4	-49.0	22.5	6.03e-01	0	35	0	192937984	66	4304
2026-01-18 04:22:21.78	279.31	22.48	-47.2	-48.8	22.8	6.01e-01	0	35	0	198705152	66	4202
2026-01-18 04:22:24.80	278.62	22.14	-47.1	-48.6	23.2	6.01e-01	0	35	0	203948032	64	4646
2026-01-18 04:22:27.83	277.94	21.81	-47.4	-49.0	22.8	6.01e-01	0	35	0	209715200	65	4594
2026-01-18 04:22:30.84	277.28	21.47	-46.4	-47.8	24.1	6.01e-01	0	35	0	215482368	63	4451
2026-01-18 04:22:33.87	276.63	21.14	-46.0	-47.3	24.5	6.03e-01	0	35	0	221249536	64	4001
2026-01-18 04:22:36.89	276.00	20.80	-46.4	-47.8	23.9	5.99e-01	0	35	0	227016704	64	4221
2026-01-18 04:22:39.91	275.38	20.47	-46.2	-47.6	24.2	6.02e-01	0	35	0	232259584	64	4140
2026-01-18 04:22:42.93	274.77	20.14	-46.2	-47.5	24.3	6.01e-01	0	35	0	238026752	64	4074
2026-01-18 04:22:45.96	274.18	19.81	-46.3	-47.7	24.0	6.03e-01	0	35	0	243793920	64	4156
2026-01-18 04:22:48.98	273.60	19.48	-46.0	-47.4	24.4	6.01e-01	0	35	0	249561088	64	4010
2026-01-18 04:22:52.01	273.04	19.16	-46.0	-47.4	24.4	6.02e-01	0	35	0	255328256	64	4024
2026-01-18 04:22:55.03	272.49	18.83	-46.1	-47.4	24.3	6.03e-01	0	35	0	260571136	64	4032
2026-01-18 04:22:58.05	271.95	18.51	-46.3	-47.7	24.1	6.01e-01	0	35	0	266338304	64	4146
2026-01-18 04:23:01.08	271.42	18.19	-46.0	-47.3	24.5	6.02e-01	0	35	0	272105472	63	4225
2026-01-18 04:23:04.10	270.90	17.87	-46.3	-47.7	24.2	6.01e-01	0	35	0	277872640	63	4434
2026-01-18 04:23:07.12	270.40	17.56	-46.2	-47.6	24.3	6.01e-01	0	35	0	283639808	63	4369
2026-01-18 04:23:10.14	269.90	17.25	-46.0	-47.3	24.5	6.02e-01	0	35	0	288882688	63	4209
2026-01-18 04:23:13.17	269.42	16.93	-46.2	-47.5	24.2	6.00e-01	0	35	0	294649856	63	4330
2026-01-18 04:23:16.19	268.95	16.63	-46.2	-47.6	24.2	6.01e-01	0	35	0	300417024	63	4382
2026-01-18 04:23:19.21	268.49	16.32	-46.1	-47.4	24.3	6.04e-01	0	35	0	306184192	63	4290
2026-01-18 04:23:22.24	268.04	16.02	-45.8	-47.1	24.6	6.04e-01	0	35	0	311951360	63	4128
2026-01-18 04:23:25.26	267.59	15.72	-46.1	-47.5	24.3	5.99e-01	0	35	0	317194240	63	4312
2026-01-18 04:23:28.28	267.16	15.42	-46.1	-47.5	24.2	6.01e-01	0	35	0	323485696	63	4323
2026-01-18 04:23:31.30	266.74	15.12	-46.0	-47.3	24.3	6.04e-01	0	35	0	328728576	63	4235
2026-01-18 04:23:34.33	266.32	14.83	-46.0	-47.4	24.3	6.02e-01	0	35	0	334495744	63	4249
2026-01-18 04:23:37.35	265.92	14.54	-46.2	-47.5	24.2	6.02e-01	0	35	0	340262912	63	4332
2026-01-18 04:23:40.37	265.52	14.25	-46.1	-47.5	24.2	6.04e-01	0	35	0	346030080	63	4323
2026-01-18 04:23:43.40	265.13	13.96	-46.2	-47.6	24.1	6.05e-01	0	35	0	351797248	63	4371
2026-01-18 04:23:46.42	264.75	13.68	-46.1	-47.5	24.1	6.03e-01	0	35	0	357040128	63	4333
2026-01-18 04:23:49.45	264.38	13.39	-46.1	-47.5	24.1	6.00e-01	0	35	0	362807296	63	4294
2026-01-18 04:23:52.47	264.01	13.12	-46.2	-47.6	24.1	6.02e-01	0	35	0	368574464	63	4371
2026-01-18 04:23:55.50	263.66	12.84	-46.4	-47.8	23.9	6.02e-01	0	35	0	374341632	63	4468
2026-01-18 04:23:58.52	263.31	12.56	-46.4	-47.9	23.8	6.03e-01	0	35	0	380108800	63	4504
2026-01-18 04:24:01.54	262.96	12.29	-46.4	-47.8	23.7	6.03e-01	0	35	0	385351680	63	4467
2026-01-18 04:24:04.57	262.63	12.02	-46.2	-47.6	23.9	5.99e-01	0	35	0	391118848	63	4386
2026-01-18 04:24:07.59	262.30	11.76	-46.4	-47.8	23.8	6.00e-01	0	35	0	396886016	63	4484
2026-01-18 04:24:10.61	261.97	11.49	-46.6	-48.1	23.5	6.03e-01	0	35	0	402653184	63	4610
2026-01-18 04:24:13.64	261.66	11.23	-46.4	-47.9	23.7	5.99e-01	0	35	0	408420352	63	4505
2026-01-18 04:24:16.66	261.35	10.97	-46.5	-47.9	23.6	6.02e-01	0	35	0	413663232	63	4534
2026-01-18 04:24:19.69	261.04	10.71	-46.5	-48.0	23.6	6.01e-01	0	35	0	419430400	63	4557
2026-01-18 04:24:22.71	260.74	10.45	-46.5	-48.0	23.5	6.01e-01	0	35	0	425197568	63	4563
2026-01-18 04:24:25.74	260.45	10.20	-46.6	-48.1	23.4	6.01e-01	0	35	0	430964736	63	4609
2026-01-18 04:24:28.76	260.16	9.95	-46.7	-48.3	23.2	6.01e-01	0	35	0	436731904	64	4448
2026-01-18 04:24:31.79	259.88	9.70	-46.7	-48.2	23.2	6.01e-01	0	35	0	442499072	64	4431
2026-01-18 04:24:34.81	259.60	9.45	-46.7	-48.3	23.1	6.02e-01	0	35	0	447741952	64	4442
2026-01-18 04:24:37.83	259.33	9.21	-46.7	-48.3	23.1	6.02e-01	0	35	0	453509120	64	4450
2026-01-18 04:24:40.85	259.07	8.97	-46.9	-48.4	22.9	6.02e-01	0	35	0	459276288	64	4538
2026-01-18 04:24:43.88	258.81	8.72	-46.8	-48.3	23.0	6.01e-01	0	35	0	465043456	64	4490
2026-01-18 04:24:46.90	258.55	8.49	-46.9	-48.4	22.9	6.03e-01	0	35	0	470810624	64	4539
2026-01-18 04:24:49.92	258.30	8.25	-46.9	-48.5	22.9	6.02e-01	0	35	0	476053504	64	4546
2026-01-18 04:24:52.95	258.05	8.01	-46.8	-48.4	22.9	6.00e-01	0	35	0	481820672	64	4497
2026-01-18 04:24:55.98	257.81	7.78	-46.8	-48.4	22.8	6.01e-01	0	35	0	487587840	64	4521
2026-01-18 04:24:59.01	257.57	7.55	-47.0	-48.6	22.6	6.00e-01	0	35	0	493355008	64	4642
2026-01-18 04:25:02.03	257.33	7.32	-47.1	-48.7	22.4	6.03e-01	0	35	0	499122176	64	4696
2026-01-18 04:25:05.06	257.10	7.09	-47.1	-48.7	22.4	6.02e-01	0	35	0	504365056	64	4695
2026-01-18 04:25:08.08	256.87	6.87	-47.1	-48.8	22.3	6.01e-01	0	35	0	510132224	64	4717
2026-01-18 04:25:11.11	256.65	6.64	-47.2	-48.9	22.2	6.02e-01	0	35	0	515899392	65	4536
2026-01-18 04:25:14.13	256.43	6.42	-47.1	-48.8	22.3	6.03e-01	0	35	0	521666560	65	4479
2026-01-18 04:25:17.15	256.22	6.20	-47.4	-49.1	21.9	6.04e-01	0	35	0	527433728	65	4646
2026-01-18 04:25:20.18	256.01	5.98	-47.4	-49.1	21.9	6.01e-01	0	35	0	533200896	65	4645
2026-01-18 04:25:23.20	255.80	5.77	-47.4	-49.2	21.8	6.02e-01	0	35	0	538443776	65	4688
2026-01-18 04:25:26.22	255.60	5.55	-47.4	-49.1	21.8	6.04e-01	0	35	0	544210944	65	4642
2026-01-18 04:25:29.25	255.39	5.34	-47.7	-49.6	21.4	6.02e-01	0	35	0	549978112	66	4602
2026-01-18 04:25:32.26	255.20	5.13	-47.5	-49.4	21.5	6.01e-01	0	36	0	555745280	66	4503
2026-01-18 04:25:35.29	255.00	4.91	-54.3	-71.6	3.8	7.43e-01	0	35	104	560463872	79	27416
2026-01-18 04:25:38.31	254.81	4.71	-54.9	-72.7	3.8	7.46e-01	0	35	104	560463872	80	29595
2026-01-18 04:25:41.34	254.62	4.50	-55.2	-73.0	3.8	7.44e-01	0	35	104	560463872	80	30486
2026-01-18 04:25:44.36	254.44	4.29	-55.3	-73.2	3.8	7.45e-01	0	35	104	560463872	81	29452
2026-01-18 04:25:47.38	254.26	4.09	-55.4	-73.3	3.8	7.47e-01	0	35	104	560463872	81	29779
2026-01-18 04:25:50.40	254.08	3.89	-55.5	-73.3	3.8	7.44e-01	0	35	104	560463872	81	29919
2026-01-18 04:25:53.43	253.90	3.68	-55.5	-73.3	3.8	7.45e-01	0	35	104	560463872	81	29985
2026-01-18 04:25:56.45	253.73	3.48	-55.5	-73.3	3.8	7.44e-01	0	35	104	560463872	81	29967
2026-01-18 04:25:59.48	253.56	3.28	-55.4	-73.3	3.8	7.47e-01	0	35	104	560463872	81	29774
2026-01-18 04:26:02.50	253.39	3.09	-55.4	-73.2	3.8	7.43e-01	0	36	104	560463872	81	29687
2026-01-18 04:26:05.52	253.22	2.89	-55.4	-73.2	3.8	7.44e-01	0	36	104	560463872	81	29615
2026-01-18 04:26:08.55	253.06	2.70	-55.4	-73.2	3.8	7.46e-01	0	35	104	560463872	81	29539
2026-01-18 04:26:11.57	252.90	2.50	-55.4	-73.2	3.8	7.47e-01	0	35	104	560463872	81	29544
2026-01-18 04:26:14.60	252.74	2.31	-55.4	-73.2	3.8	7.44e-01	0	35	104	560463872	81	29436
2026-01-18 04:26:17.62	252.59	2.12	-55.3	-73.2	3.8	7.48e-01	0	36	104	560463872	81	29368

#Closed at: 2026-01-18 04:26:20
#Recorded file [560 MB]: D:/lorett/data/31041_260118_071417.dat