passes_logs/2026/01/18/R3.2S_Murmansk/R3.2S_Murmansk__20260118_135657_AQUA_rec.log

#Pass ID: 20260118_135657_AQUA
#Satellite: AQUA
#Configuration: AQUA
#almurnet v.1.7.20251203
#Start time: 2026-01-18 13:56:57

#Version: 2.2.20231116
#Station: R3.2S_Murmansk
#Location: 33.079688 lon 68.888172 lat
#TLE: 1 27424U 02022A   26017.62394888  .00000781  00000+0  16630-3 0  9993
#TLE: 2 27424  98.4086 344.0954 0002010  75.0132 339.4723 14.61825944261279

#Time	Az	El	Level	Level2	SNR	BER	BlckErr	Temp	State	Recorded	gain1	gain2
2026-01-18 13:56:57.21	223.83	1.98	-53.9	-71.5	3.8	7.44e-01	0	34	0	0	79	27356
2026-01-18 13:57:00.24	224.11	2.14	-53.9	-71.5	3.8	7.43e-01	0	34	104	0	78	28995
2026-01-18 13:57:03.26	224.40	2.31	-53.9	-71.6	3.8	7.43e-01	0	34	104	0	78	29190
2026-01-18 13:57:06.28	224.69	2.47	-53.9	-71.6	3.8	7.44e-01	0	34	104	0	78	29096
2026-01-18 13:57:09.30	224.98	2.63	-53.8	-71.3	3.8	7.45e-01	0	34	104	0	78	28332
2026-01-18 13:57:12.33	225.28	2.79	-53.9	-71.3	3.8	7.45e-01	0	34	104	0	78	28225
2026-01-18 13:57:15.35	225.58	2.95	-53.9	-71.4	3.8	7.45e-01	0	34	104	0	78	28622
2026-01-18 13:57:18.38	225.88	3.12	-53.9	-71.4	3.8	7.47e-01	0	34	104	0	78	28641
2026-01-18 13:57:21.40	226.19	3.28	-53.8	-71.1	3.8	7.47e-01	0	34	104	0	78	27569
2026-01-18 13:57:24.42	226.50	3.44	-53.8	-71.4	3.8	7.44e-01	0	34	104	0	78	28467
2026-01-18 13:57:27.44	226.81	3.61	-53.9	-71.6	3.8	7.47e-01	0	34	104	0	78	29177
2026-01-18 13:57:30.47	227.13	3.77	-53.8	-71.4	3.8	7.46e-01	0	35	104	0	78	28437
2026-01-18 13:57:33.49	227.45	3.94	-53.8	-71.0	3.8	7.43e-01	0	34	104	0	78	27344
2026-01-18 13:57:36.52	227.78	4.10	-53.8	-70.4	3.8	7.45e-01	0	35	104	0	78	25504
2026-01-18 13:57:39.54	228.11	4.27	-53.9	-71.6	3.8	7.43e-01	0	35	104	0	78	29051
2026-01-18 13:57:42.56	228.44	4.44	-53.4	-63.4	6.9	6.66e-01	184	35	0	524288	78	11370
2026-01-18 13:57:45.58	228.78	4.60	-52.5	-58.6	11.9	6.14e-01	0	35	0	6291456	77	6920
2026-01-18 13:57:48.61	229.12	4.77	-50.8	-54.4	16.2	6.06e-01	0	35	0	12058624	73	5377
2026-01-18 13:57:51.63	229.46	4.94	-48.4	-50.5	20.2	6.08e-01	0	35	0	17825792	68	4584
2026-01-18 13:57:54.66	229.81	5.11	-47.5	-49.3	21.5	6.06e-01	0	35	0	23068672	66	4444
2026-01-18 13:57:57.68	230.17	5.27	-47.7	-49.6	21.4	6.06e-01	0	35	0	28835840	66	4599
2026-01-18 13:58:00.70	230.52	5.44	-47.7	-49.6	21.2	6.07e-01	0	35	0	34603008	67	4368
2026-01-18 13:58:03.73	230.89	5.61	-47.4	-49.3	21.6	6.05e-01	0	35	0	40370176	66	4451
2026-01-18 13:58:06.75	231.25	5.78	-47.4	-49.3	21.5	6.05e-01	0	35	0	46137344	66	4446
2026-01-18 13:58:09.77	231.62	5.95	-47.8	-49.7	21.1	6.06e-01	0	35	0	51380224	66	4704
2026-01-18 13:58:12.79	232.00	6.12	-47.1	-48.8	22.1	6.06e-01	0	35	0	57147392	66	4210
2026-01-18 13:58:15.82	232.38	6.29	-47.4	-49.2	21.8	6.06e-01	0	35	0	62914560	66	4392
2026-01-18 13:58:18.84	232.77	6.46	-47.2	-48.9	22.0	6.07e-01	0	35	0	68681728	66	4290
2026-01-18 13:58:21.87	233.16	6.63	-47.2	-49.0	22.0	6.05e-01	0	35	0	74448896	66	4307
2026-01-18 13:58:24.89	233.55	6.80	-47.5	-49.4	21.6	6.08e-01	0	35	0	79691776	66	4503
2026-01-18 13:58:27.91	233.95	6.97	-47.2	-48.9	22.1	6.08e-01	0	35	0	85458944	66	4264
2026-01-18 13:58:30.94	234.36	7.15	-47.1	-48.8	22.2	6.07e-01	0	35	0	91226112	65	4444
2026-01-18 13:58:33.96	234.77	7.32	-47.3	-49.1	21.9	6.05e-01	0	35	0	96993280	65	4623
2026-01-18 13:58:36.98	235.18	7.49	-47.0	-48.7	22.3	6.08e-01	0	35	0	102760448	65	4410
2026-01-18 13:58:40.01	235.60	7.66	-46.9	-48.6	22.5	6.09e-01	0	35	0	108527616	65	4345
2026-01-18 13:58:43.03	236.03	7.83	-46.7	-48.3	22.8	6.07e-01	0	35	0	113770496	65	4210
2026-01-18 13:58:46.06	236.46	8.00	-46.6	-48.2	22.8	6.06e-01	0	35	0	119537664	65	4178
2026-01-18 13:58:49.08	236.89	8.18	-46.8	-48.5	22.6	6.08e-01	0	35	0	125304832	65	4302
2026-01-18 13:58:52.10	237.33	8.35	-46.6	-48.2	23.0	6.06e-01	0	35	0	131072000	65	4146
2026-01-18 13:58:55.12	237.78	8.52	-46.6	-48.2	22.9	6.06e-01	0	35	0	136839168	64	4402
2026-01-18 13:58:58.15	238.23	8.69	-46.7	-48.3	22.8	6.06e-01	0	35	0	142082048	64	4452
2026-01-18 13:59:01.17	238.69	8.86	-46.5	-48.0	23.1	6.07e-01	0	35	0	147849216	64	4333
2026-01-18 13:59:04.20	239.15	9.03	-46.6	-48.1	23.0	6.06e-01	0	35	0	153616384	64	4382
2026-01-18 13:59:07.22	239.62	9.20	-46.5	-48.0	23.2	6.06e-01	0	35	0	159383552	64	4308
2026-01-18 13:59:10.25	240.10	9.37	-46.4	-47.9	23.3	6.08e-01	0	35	0	165150720	64	4269
2026-01-18 13:59:13.27	240.58	9.54	-46.3	-47.8	23.4	6.06e-01	0	35	0	170393600	64	4231
2026-01-18 13:59:16.29	241.07	9.71	-46.4	-47.9	23.3	6.07e-01	0	35	0	176160768	64	4244
2026-01-18 13:59:19.32	241.56	9.88	-46.4	-47.9	23.3	6.07e-01	0	35	0	181927936	64	4245
2026-01-18 13:59:22.34	242.06	10.05	-46.1	-47.6	23.7	6.07e-01	0	35	0	187695104	64	4112
2026-01-18 13:59:25.37	242.56	10.22	-46.3	-47.8	23.4	6.06e-01	0	35	0	193462272	64	4208
2026-01-18 13:59:28.38	243.07	10.39	-46.1	-47.5	23.7	6.06e-01	0	35	0	198705152	64	4093
2026-01-18 13:59:31.41	243.59	10.56	-46.2	-47.6	23.6	6.06e-01	0	35	0	204996608	64	4143
2026-01-18 13:59:34.43	244.11	10.72	-46.1	-47.6	23.7	6.09e-01	0	35	0	210239488	64	4111
2026-01-18 13:59:37.46	244.64	10.89	-46.1	-47.5	23.8	6.07e-01	0	35	0	216006656	63	4339
2026-01-18 13:59:40.48	245.18	11.05	-46.2	-47.6	23.8	6.05e-01	0	35	0	221773824	63	4368
2026-01-18 13:59:43.51	245.72	11.22	-46.0	-47.4	23.9	6.07e-01	0	35	0	227016704	63	4257
2026-01-18 13:59:46.53	246.27	11.38	-45.9	-47.3	24.0	6.05e-01	0	35	0	233308160	63	4236
2026-01-18 13:59:49.55	246.82	11.54	-46.0	-47.4	24.0	6.07e-01	0	35	0	238551040	63	4265
2026-01-18 13:59:52.58	247.38	11.70	-45.9	-47.3	24.1	6.07e-01	0	35	0	244318208	63	4219
2026-01-18 13:59:55.60	247.95	11.86	-45.8	-47.2	24.1	6.06e-01	0	35	0	250085376	63	4179
2026-01-18 13:59:58.62	248.52	12.02	-45.8	-47.2	24.2	6.06e-01	0	35	0	255852544	63	4160
2026-01-18 14:00:01.65	249.11	12.18	-45.9	-47.3	24.1	6.08e-01	0	35	0	261619712	63	4201
2026-01-18 14:00:04.67	249.69	12.33	-45.8	-47.1	24.3	6.05e-01	0	35	0	266862592	63	4136
2026-01-18 14:00:07.69	250.28	12.49	-45.8	-47.1	24.2	6.05e-01	0	35	0	272629760	63	4143
2026-01-18 14:00:10.72	250.89	12.64	-45.8	-47.2	24.3	6.04e-01	0	35	0	278396928	63	4148
2026-01-18 14:00:13.74	251.49	12.79	-45.6	-46.9	24.5	6.06e-01	0	35	0	284164096	63	4024
2026-01-18 14:00:16.77	252.10	12.94	-45.7	-47.0	24.4	6.05e-01	0	35	0	289931264	63	4081
2026-01-18 14:00:19.79	252.72	13.08	-45.7	-47.0	24.4	6.06e-01	0	35	0	295174144	63	4083
2026-01-18 14:00:22.81	253.35	13.23	-45.7	-47.0	24.4	6.06e-01	0	35	0	300941312	63	4078
2026-01-18 14:00:25.84	253.98	13.37	-45.6	-46.9	24.5	6.06e-01	0	35	0	306708480	63	4031
2026-01-18 14:00:28.86	254.62	13.51	-45.7	-47.0	24.4	6.08e-01	0	35	0	312475648	63	4088
2026-01-18 14:00:31.88	255.26	13.65	-45.7	-47.0	24.4	6.09e-01	0	35	0	318242816	63	4093
2026-01-18 14:00:34.91	255.91	13.79	-45.7	-47.0	24.4	6.04e-01	0	36	0	324009984	63	4081
2026-01-18 14:00:37.92	256.57	13.92	-45.5	-46.8	24.6	6.08e-01	0	35	0	329252864	62	4231
2026-01-18 14:00:40.95	257.23	14.05	-45.5	-46.8	24.7	6.05e-01	0	35	0	335020032	62	4220
2026-01-18 14:00:43.97	257.90	14.18	-45.5	-46.9	24.6	6.06e-01	0	35	0	340787200	62	4252
2026-01-18 14:00:47.00	258.58	14.31	-45.4	-46.7	24.7	6.06e-01	0	35	0	346554368	62	4172
2026-01-18 14:00:50.02	259.26	14.43	-45.4	-46.7	24.8	6.05e-01	0	35	0	352321536	62	4155
2026-01-18 14:00:53.04	259.94	14.55	-45.5	-46.8	24.7	6.05e-01	0	35	0	357564416	62	4204
2026-01-18 14:00:56.06	260.63	14.67	-45.6	-46.9	24.6	6.05e-01	0	35	0	363331584	62	4265
2026-01-18 14:00:59.09	261.33	14.78	-45.4	-46.7	24.8	6.06e-01	0	35	0	369098752	62	4174
2026-01-18 14:01:02.11	262.03	14.89	-45.4	-46.7	24.8	6.05e-01	0	35	0	374865920	62	4180
2026-01-18 14:01:05.14	262.74	15.00	-45.4	-46.8	24.7	6.04e-01	0	35	0	380633088	62	4201
2026-01-18 14:01:08.16	263.46	15.10	-45.4	-46.7	24.8	6.07e-01	0	35	0	385875968	62	4157
2026-01-18 14:01:11.18	264.18	15.20	-45.4	-46.8	24.7	6.05e-01	0	35	0	391643136	62	4198
2026-01-18 14:01:14.21	264.90	15.30	-45.4	-46.7	24.8	6.08e-01	0	35	0	397410304	62	4167
2026-01-18 14:01:17.23	265.63	15.40	-45.4	-46.7	24.8	6.05e-01	0	36	0	403177472	62	4167
2026-01-18 14:01:20.25	266.36	15.48	-45.5	-46.8	24.7	6.08e-01	0	35	0	408944640	62	4218
2026-01-18 14:01:23.28	267.10	15.57	-45.4	-46.7	24.7	6.06e-01	0	35	0	414187520	62	4179
2026-01-18 14:01:26.30	267.84	15.65	-45.5	-46.8	24.7	6.04e-01	0	35	0	419954688	62	4221
2026-01-18 14:01:29.32	268.59	15.73	-45.5	-46.8	24.7	6.04e-01	0	35	0	425721856	62	4214
2026-01-18 14:01:32.35	269.34	15.80	-45.5	-46.8	24.7	6.06e-01	0	35	0	431489024	62	4204
2026-01-18 14:01:35.37	270.09	15.87	-45.3	-46.7	24.3	6.04e-01	0	36	0	437256192	62	4153
2026-01-18 14:01:38.40	270.85	15.94	-45.4	-46.8	23.7	6.08e-01	0	35	0	442499072	62	4207
2026-01-18 14:01:41.42	271.61	16.00	-45.5	-46.8	24.2	6.06e-01	0	35	0	448266240	62	4209
2026-01-18 14:01:44.44	272.37	16.05	-45.4	-46.7	24.7	6.06e-01	0	35	0	454033408	62	4168
2026-01-18 14:01:47.46	273.14	16.10	-45.5	-46.8	24.7	6.06e-01	0	35	0	459800576	62	4232
2026-01-18 14:01:50.49	273.91	16.15	-45.3	-46.6	24.9	6.05e-01	0	35	0	465567744	62	4133
2026-01-18 14:01:53.51	274.68	16.19	-45.4	-46.7	24.8	6.06e-01	0	36	0	471334912	62	4165
2026-01-18 14:01:56.54	275.45	16.23	-45.6	-46.9	24.7	6.04e-01	0	35	0	476577792	62	4274
2026-01-18 14:01:59.56	276.22	16.27	-45.5	-46.8	24.7	6.08e-01	0	35	0	482344960	62	4236
2026-01-18 14:02:02.59	277.00	16.29	-45.6	-46.9	24.6	6.06e-01	0	35	0	488112128	62	4278
2026-01-18 14:02:05.61	277.78	16.32	-45.6	-47.0	24.6	6.07e-01	0	35	0	493879296	62	4301
2026-01-18 14:02:08.63	278.56	16.34	-45.5	-46.8	24.8	6.06e-01	0	35	0	499646464	62	4200
2026-01-18 14:02:11.66	279.34	16.35	-45.6	-46.9	24.7	6.05e-01	0	35	0	504889344	62	4272
2026-01-18 14:02:14.68	280.12	16.36	-45.6	-46.9	24.7	6.05e-01	0	35	0	510656512	62	4268
2026-01-18 14:02:17.70	280.90	16.36	-45.4	-46.7	24.9	6.05e-01	0	35	0	516423680	62	4172
2026-01-18 14:02:20.73	281.68	16.36	-45.6	-46.9	24.7	6.06e-01	0	35	0	522190848	62	4265
2026-01-18 14:02:23.75	282.46	16.36	-45.7	-47.0	24.7	6.06e-01	0	35	0	527958016	62	4302
2026-01-18 14:02:26.77	283.24	16.35	-45.7	-47.0	24.7	6.05e-01	0	35	0	533200896	62	4298
2026-01-18 14:02:29.80	284.02	16.33	-45.7	-47.0	24.7	6.05e-01	0	36	0	538968064	62	4311
2026-01-18 14:02:32.82	284.80	16.31	-45.7	-46.9	24.7	6.08e-01	0	36	0	544735232	62	4291
2026-01-18 14:02:35.85	285.58	16.29	-45.7	-47.1	24.6	6.04e-01	0	35	0	550502400	62	4348
2026-01-18 14:02:38.86	286.35	16.26	-45.7	-47.0	24.7	6.05e-01	0	35	0	556269568	62	4304
2026-01-18 14:02:41.89	287.13	16.23	-45.8	-47.1	24.5	6.03e-01	0	36	0	561512448	62	4377
2026-01-18 14:02:44.91	287.90	16.19	-45.7	-47.0	24.7	6.00e-01	0	35	0	567803904	62	4318
2026-01-18 14:02:47.93	288.66	16.15	-45.7	-47.0	24.7	6.02e-01	0	36	0	573046784	62	4309
2026-01-18 14:02:50.96	289.43	16.10	-45.6	-46.9	24.7	6.04e-01	0	36	0	578813952	62	4288
2026-01-18 14:02:53.98	290.20	16.05	-45.6	-46.9	24.8	6.02e-01	0	36	0	584581120	62	4251
2026-01-18 14:02:57.01	290.96	15.99	-45.6	-47.0	24.7	6.01e-01	0	36	0	590348288	62	4293
2026-01-18 14:03:00.03	291.72	15.93	-45.7	-47.0	24.7	6.04e-01	0	36	0	596115456	62	4304
2026-01-18 14:03:03.06	292.47	15.86	-45.9	-47.2	24.5	6.03e-01	0	35	0	601358336	62	4403
2026-01-18 14:03:06.08	293.23	15.79	-45.9	-47.3	24.4	6.02e-01	0	36	0	607125504	62	4456
2026-01-18 14:03:09.10	293.97	15.72	-45.5	-46.8	24.9	6.05e-01	0	35	0	612892672	62	4219
2026-01-18 14:03:12.13	294.72	15.64	-45.7	-47.0	24.7	6.03e-01	0	36	0	618659840	62	4304
2026-01-18 14:03:15.15	295.46	15.56	-45.7	-47.0	24.7	6.03e-01	0	35	0	624427008	62	4332
2026-01-18 14:03:18.18	296.19	15.47	-45.6	-46.9	24.8	6.03e-01	0	35	0	629669888	62	4277
2026-01-18 14:03:21.20	296.92	15.38	-45.6	-46.9	24.8	6.04e-01	0	35	0	635437056	62	4261
2026-01-18 14:03:24.22	297.65	15.29	-45.7	-47.0	24.7	6.03e-01	0	35	0	641204224	62	4338
2026-01-18 14:03:27.24	298.37	15.19	-45.6	-46.9	24.8	6.03e-01	0	35	0	646971392	62	4266
2026-01-18 14:03:30.26	299.08	15.09	-45.7	-47.0	24.7	6.04e-01	0	36	0	652738560	62	4317
2026-01-18 14:03:33.29	299.80	14.99	-45.7	-47.0	24.7	6.06e-01	0	35	0	657981440	62	4327
2026-01-18 14:03:36.31	300.50	14.88	-45.7	-47.0	24.7	6.03e-01	0	36	0	663748608	62	4301
2026-01-18 14:03:39.33	301.20	14.77	-45.7	-47.0	24.7	6.05e-01	0	35	0	669515776	62	4312
2026-01-18 14:03:42.36	301.90	14.66	-45.7	-47.0	24.6	6.03e-01	0	36	0	675282944	62	4337
2026-01-18 14:03:45.38	302.59	14.54	-45.7	-47.0	24.6	6.02e-01	0	35	0	681050112	62	4303
2026-01-18 14:03:48.41	303.27	14.42	-45.6	-46.9	24.8	6.03e-01	0	35	0	686817280	62	4251
2026-01-18 14:03:51.43	303.95	14.30	-45.8	-47.1	24.6	6.04e-01	0	36	0	692060160	62	4359
2026-01-18 14:03:54.45	304.62	14.17	-45.8	-47.1	24.6	6.00e-01	0	36	0	697827328	62	4367
2026-01-18 14:03:57.48	305.28	14.04	-45.6	-46.9	24.7	6.04e-01	0	35	0	703594496	62	4249
2026-01-18 14:04:00.50	305.94	13.91	-45.7	-47.0	24.6	6.06e-01	0	35	0	709361664	62	4333
2026-01-18 14:04:03.52	306.60	13.78	-45.7	-47.0	24.7	6.01e-01	0	36	0	715128832	62	4300
2026-01-18 14:04:06.55	307.24	13.64	-45.7	-47.0	24.6	6.02e-01	0	35	0	720371712	62	4335
2026-01-18 14:04:09.57	307.88	13.50	-45.7	-47.1	24.5	6.03e-01	0	35	0	726138880	62	4341
2026-01-18 14:04:12.60	308.52	13.36	-45.7	-47.0	24.6	6.04e-01	0	36	0	731906048	62	4321
2026-01-18 14:04:15.62	309.15	13.22	-45.8	-47.2	24.4	6.04e-01	0	36	0	737673216	62	4406
2026-01-18 14:04:18.65	309.77	13.08	-45.6	-46.9	24.7	6.05e-01	0	36	0	743440384	62	4276
2026-01-18 14:04:21.67	310.39	12.93	-45.7	-47.0	24.5	6.02e-01	0	36	0	748683264	62	4334
2026-01-18 14:04:24.69	310.99	12.78	-45.6	-46.9	24.6	6.04e-01	0	35	0	754450432	62	4281
2026-01-18 14:04:27.71	311.60	12.63	-45.9	-47.2	24.3	6.04e-01	0	35	0	760217600	62	4437
2026-01-18 14:04:30.74	312.19	12.48	-45.8	-47.1	24.4	6.04e-01	0	35	0	765984768	62	4370
2026-01-18 14:04:33.76	312.78	12.33	-45.7	-47.0	24.4	6.04e-01	0	36	0	771751936	62	4336
2026-01-18 14:04:36.79	313.37	12.17	-45.8	-47.2	24.2	6.02e-01	0	35	0	776994816	62	4396
2026-01-18 14:04:39.81	313.94	12.02	-45.7	-47.0	24.2	6.03e-01	0	35	0	782761984	62	4339
2026-01-18 14:04:42.83	314.51	11.86	-45.8	-47.2	24.2	6.04e-01	0	35	0	788529152	62	4407
2026-01-18 14:04:45.86	315.08	11.70	-45.9	-47.3	24.1	6.07e-01	0	35	0	794296320	62	4442
2026-01-18 14:04:48.88	315.64	11.54	-45.6	-47.0	24.3	6.04e-01	0	35	0	800063488	62	4295
2026-01-18 14:04:51.90	316.19	11.38	-45.9	-47.3	24.0	6.06e-01	0	36	0	805306368	62	4464
2026-01-18 14:04:54.92	316.73	11.22	-46.1	-47.5	23.9	6.05e-01	0	36	0	811073536	62	4553
2026-01-18 14:04:57.94	317.27	11.06	-45.8	-47.2	24.1	6.04e-01	0	36	0	816840704	62	4405
2026-01-18 14:05:00.97	317.80	10.89	-45.8	-47.2	24.1	6.01e-01	0	36	0	822607872	62	4407
2026-01-18 14:05:03.99	318.33	10.73	-45.8	-47.2	24.0	6.03e-01	0	35	0	828375040	62	4440
2026-01-18 14:05:07.01	318.85	10.56	-46.0	-47.4	23.9	6.05e-01	0	36	0	834142208	62	4544
2026-01-18 14:05:10.04	319.37	10.40	-45.9	-47.3	24.0	6.04e-01	0	35	0	839385088	62	4444
2026-01-18 14:05:13.06	319.87	10.23	-45.9	-47.3	24.0	6.03e-01	0	36	0	845152256	62	4485
2026-01-18 14:05:16.09	320.38	10.06	-45.9	-47.4	24.0	6.02e-01	0	35	0	850919424	62	4495
2026-01-18 14:05:19.11	320.87	9.90	-46.2	-47.6	23.6	6.04e-01	0	35	0	856686592	62	4647
2026-01-18 14:05:22.13	321.36	9.73	-46.0	-47.4	23.9	6.03e-01	0	36	0	862453760	62	4529
2026-01-18 14:05:25.15	321.84	9.56	-46.0	-47.5	23.8	6.04e-01	0	36	0	867696640	62	4555
2026-01-18 14:05:28.18	322.32	9.39	-46.3	-47.8	23.5	6.02e-01	0	35	0	873463808	63	4462
2026-01-18 14:05:31.20	322.80	9.22	-46.5	-48.0	23.2	6.03e-01	0	35	0	879230976	63	4563
2026-01-18 14:05:34.22	323.26	9.05	-46.3	-47.8	23.5	6.01e-01	0	35	0	884998144	63	4449
2026-01-18 14:05:37.24	323.72	8.88	-46.1	-47.5	23.7	6.02e-01	0	36	0	890765312	63	4319
2026-01-18 14:05:40.26	324.18	8.71	-46.2	-47.7	23.5	6.05e-01	0	35	0	896008192	63	4430
2026-01-18 14:05:43.28	324.63	8.54	-46.5	-48.0	23.3	6.04e-01	0	36	0	901775360	63	4555
2026-01-18 14:05:46.30	325.07	8.37	-46.5	-48.0	23.2	6.02e-01	0	36	0	907542528	63	4562
2026-01-18 14:05:49.32	325.51	8.20	-46.1	-47.6	23.6	6.03e-01	0	36	0	913309696	63	4377
2026-01-18 14:05:52.35	325.94	8.03	-46.4	-47.9	23.2	6.03e-01	0	36	0	919076864	63	4541
2026-01-18 14:05:55.37	326.37	7.86	-46.5	-48.0	23.2	6.01e-01	0	36	0	924319744	63	4566
2026-01-18 14:05:58.40	326.80	7.69	-46.6	-48.2	21.6	6.04e-01	0	36	0	930086912	64	4397
2026-01-18 14:06:01.42	327.21	7.52	-46.6	-48.1	22.9	6.04e-01	0	36	0	935854080	64	4388
2026-01-18 14:06:04.44	327.63	7.35	-46.6	-48.2	22.9	6.03e-01	0	36	0	941621248	64	4416
2026-01-18 14:06:07.47	328.04	7.18	-46.7	-48.3	22.7	6.03e-01	0	36	0	947388416	64	4466
2026-01-18 14:06:10.49	328.44	7.01	-46.7	-48.3	22.6	6.05e-01	0	36	0	952631296	64	4470
2026-01-18 14:06:13.52	328.84	6.84	-46.9	-48.5	22.4	6.01e-01	0	36	0	958922752	64	4570
2026-01-18 14:06:16.54	329.23	6.67	-46.8	-48.4	22.5	6.03e-01	0	36	0	964165632	64	4529
2026-01-18 14:06:19.56	329.62	6.50	-46.9	-48.6	22.3	6.01e-01	0	36	0	969932800	64	4623
2026-01-18 14:06:22.58	330.00	6.33	-46.8	-48.4	22.5	6.04e-01	0	36	0	975699968	64	4519
2026-01-18 14:06:25.61	330.38	6.17	-47.1	-48.9	22.0	6.04e-01	0	36	0	980942848	64	4760
2026-01-18 14:06:28.63	330.76	6.00	-46.6	-48.3	22.6	6.04e-01	0	36	0	987234304	64	4454
2026-01-18 14:06:31.65	331.13	5.83	-46.9	-48.6	22.2	6.04e-01	0	36	0	992477184	64	4647
2026-01-18 14:06:34.68	331.49	5.66	-47.0	-48.8	22.0	6.04e-01	0	36	0	998244352	64	4706
2026-01-18 14:06:37.70	331.85	5.49	-47.0	-48.8	22.0	6.03e-01	0	36	0	1004011520	65	4446
2026-01-18 14:06:40.72	332.21	5.33	-47.0	-48.8	21.9	6.06e-01	0	36	0	1009778688	65	4454
2026-01-18 14:06:43.75	332.56	5.16	-47.5	-49.4	21.4	6.03e-01	0	35	0	1015545856	65	4761
2026-01-18 14:06:46.77	332.91	4.99	-51.1	-55.0	16.6	6.03e-01	0	35	0	1020788736	72	6095
2026-01-18 14:06:49.80	333.26	4.83	-54.7	-72.5	3.8	7.46e-01	0	36	104	1021837312	80	28896
2026-01-18 14:06:52.82	333.60	4.66	-55.1	-72.9	3.8	7.44e-01	0	36	104	1021837312	80	30196
2026-01-18 14:06:55.85	333.93	4.49	-55.4	-73.2	3.8	7.44e-01	0	36	104	1021837312	81	29405
2026-01-18 14:06:58.87	334.27	4.33	-55.4	-73.3	3.8	7.46e-01	0	36	104	1021837312	81	29767
2026-01-18 14:07:01.89	334.59	4.16	-55.5	-73.3	3.8	7.41e-01	0	36	104	1021837312	81	29934
2026-01-18 14:07:04.92	334.92	4.00	-55.5	-73.3	3.8	7.43e-01	0	36	104	1021837312	81	29883
2026-01-18 14:07:07.94	335.24	3.84	-55.5	-73.3	3.8	7.47e-01	0	36	104	1021837312	81	29789
2026-01-18 14:07:10.96	335.56	3.67	-55.4	-73.2	3.8	7.46e-01	0	36	104	1021837312	81	29532
2026-01-18 14:07:13.99	335.87	3.51	-55.4	-73.2	3.8	7.44e-01	0	36	104	1021837312	81	29511
2026-01-18 14:07:17.01	336.18	3.35	-55.3	-73.2	3.8	7.46e-01	0	36	104	1021837312	81	29401
2026-01-18 14:07:20.03	336.49	3.18	-55.3	-73.2	3.8	7.46e-01	0	36	104	1021837312	81	29380
2026-01-18 14:07:23.06	336.79	3.02	-55.3	-73.2	3.8	7.44e-01	0	36	104	1021837312	81	29383
2026-01-18 14:07:26.08	337.09	2.86	-55.3	-73.1	3.8	7.46e-01	0	36	104	1021837312	81	29309
2026-01-18 14:07:29.10	337.39	2.70	-55.3	-73.1	3.8	7.50e-01	0	36	104	1021837312	81	29198
2026-01-18 14:07:32.13	337.68	2.54	-55.3	-73.1	3.8	7.40e-01	0	36	104	1021837312	81	29236
2026-01-18 14:07:35.15	337.97	2.38	-55.3	-73.1	3.8	7.44e-01	0	36	104	1021837312	81	29139
2026-01-18 14:07:38.18	338.26	2.22	-55.3	-73.1	3.8	7.48e-01	0	36	104	1021837312	81	29253
2026-01-18 14:07:41.21	338.54	2.06	-55.3	-73.1	3.8	7.45e-01	0	36	104	1021837312	81	29113

#Closed at: 2026-01-18 14:07:44
#Recorded file [1021 MB]: D:/lorett/data/31041_260118_165657.dat