passes_logs/2026/01/18/R3.2S_Murmansk/R3.2S_Murmansk__20260118_133844_SUOMI_NPP_rec.log

#Pass ID: 20260118_133844_SUOMI NPP
#Satellite: SUOMI NPP
#Configuration: NPP
#almurnet v.1.7.20251203
#Start time: 2026-01-18 13:38:46

#Version: 2.2.20231116
#Station: R3.2S_Murmansk
#Location: 33.079688 lon 68.888172 lat
#TLE: 1 37849U 11061A   26017.57099531  .00000072  00000+0  54974-4 0  9996
#TLE: 2 37849  98.7814 319.5974 0002398  59.1749 300.9663 14.19525865737072

#Time	Az	El	Level	Level2	SNR	BER	BlckErr	Temp	State	Recorded	gain1	gain2
2026-01-18 13:38:46.43	260.38	2.06	-52.1	-67.1	3.8	1.49e+00	0	34	0	0	76	19446
2026-01-18 13:38:49.46	260.72	2.17	-52.1	-67.1	3.8	1.49e+00	0	34	104	0	74	21807
2026-01-18 13:38:52.48	261.06	2.28	-52.1	-67.1	3.8	1.49e+00	0	34	104	0	74	21769
2026-01-18 13:38:55.50	261.41	2.39	-52.1	-67.0	3.8	1.49e+00	0	34	104	0	74	21736
2026-01-18 13:38:58.53	261.76	2.50	-52.1	-67.1	3.8	1.49e+00	0	34	104	0	74	21815
2026-01-18 13:39:01.55	262.11	2.61	-52.1	-67.0	3.8	1.49e+00	0	34	104	0	74	21660
2026-01-18 13:39:04.57	262.46	2.72	-52.1	-67.1	3.8	1.49e+00	0	34	104	0	74	21806
2026-01-18 13:39:07.60	262.82	2.83	-52.1	-67.0	3.8	1.49e+00	0	34	104	0	74	21719
2026-01-18 13:39:10.62	263.17	2.94	-52.1	-67.1	3.8	1.49e+00	0	34	104	0	74	21783
2026-01-18 13:39:13.64	263.53	3.05	-52.1	-67.0	3.8	1.49e+00	0	34	104	0	74	21745
2026-01-18 13:39:16.67	263.90	3.16	-52.1	-67.0	3.8	1.49e+00	0	35	104	0	74	21714
2026-01-18 13:39:19.69	264.26	3.26	-52.1	-67.0	3.8	1.49e+00	0	35	104	0	74	21526
2026-01-18 13:39:22.72	264.63	3.37	-52.1	-66.9	3.8	1.49e+00	0	35	104	0	74	21430
2026-01-18 13:39:25.74	265.00	3.48	-52.1	-67.0	3.8	1.49e+00	0	35	104	0	74	21681
2026-01-18 13:39:28.77	265.38	3.58	-52.1	-66.9	3.8	1.49e+00	0	35	104	0	74	21505
2026-01-18 13:39:31.79	265.75	3.69	-52.1	-67.0	3.8	1.49e+00	0	35	104	0	74	21588
2026-01-18 13:39:34.82	266.13	3.79	-52.1	-66.8	3.8	1.49e+00	0	35	104	0	74	21087
2026-01-18 13:39:37.84	266.51	3.89	-52.1	-67.0	3.8	1.49e+00	0	35	104	0	74	21659
2026-01-18 13:39:40.86	266.90	4.00	-52.1	-67.0	3.8	1.49e+00	0	35	104	0	74	21676
2026-01-18 13:39:43.89	267.29	4.10	-52.1	-67.0	3.8	1.49e+00	0	35	104	0	74	21713
2026-01-18 13:39:46.91	267.67	4.20	-52.1	-67.0	3.8	1.49e+00	0	35	104	0	74	21518
2026-01-18 13:39:49.94	268.07	4.30	-52.0	-66.7	3.8	1.49e+00	0	35	104	0	74	20850
2026-01-18 13:39:52.96	268.46	4.40	-52.1	-66.9	3.8	1.49e+00	0	35	104	0	74	21362
2026-01-18 13:39:55.99	268.86	4.50	-52.1	-66.8	3.8	1.49e+00	0	35	104	0	74	21157
2026-01-18 13:39:59.01	269.26	4.60	-52.1	-67.0	3.8	1.49e+00	0	35	104	0	74	21618
2026-01-18 13:40:02.04	269.66	4.70	-52.0	-66.0	3.8	1.49e+00	0	35	104	0	74	19352
2026-01-18 13:40:05.06	270.06	4.79	-51.7	-61.6	5.0	7.79e-01	0	35	0	2097152	74	11577
2026-01-18 13:40:08.09	270.47	4.89	-50.7	-56.5	9.2	6.10e-02	0	35	0	7340032	73	6817
2026-01-18 13:40:11.11	270.88	4.99	-48.9	-52.0	13.9	3.80e-06	0	35	0	13631488	69	5136
2026-01-18 13:40:14.13	271.29	5.08	-49.9	-53.9	12.0	5.82e-04	0	35	0	18874368	70	6025
2026-01-18 13:40:17.15	271.71	5.17	-51.0	-56.9	8.9	1.88e-02	0	35	0	24117248	73	7133
2026-01-18 13:40:20.18	272.13	5.27	-48.4	-51.2	14.8	7.00e-07	0	36	0	30408704	67	5271
2026-01-18 13:40:23.20	272.55	5.36	-48.4	-51.1	15.0	7.00e-07	0	35	0	35651584	67	5192
2026-01-18 13:40:26.23	272.97	5.45	-48.4	-51.1	15.0	0.00e+00	0	35	0	41943040	67	5200
2026-01-18 13:40:29.25	273.39	5.54	-48.4	-51.2	15.0	0.00e+00	0	35	0	47185920	67	5225
2026-01-18 13:40:32.27	273.82	5.63	-48.6	-51.4	14.7	0.00e+00	0	35	0	52428800	67	5367
2026-01-18 13:40:35.29	274.25	5.72	-48.6	-51.5	14.6	0.00e+00	0	36	0	58720256	67	5438
2026-01-18 13:40:38.32	274.68	5.80	-48.9	-51.9	14.3	0.00e+00	0	35	0	63963136	68	5363
2026-01-18 13:40:41.33	275.12	5.89	-48.4	-51.1	15.2	0.00e+00	0	36	0	70254592	68	4892
2026-01-18 13:40:44.36	275.55	5.97	-48.3	-50.9	15.4	0.00e+00	0	35	0	75497472	68	4796
2026-01-18 13:40:47.38	275.99	6.06	-48.4	-51.1	15.2	0.00e+00	0	36	0	80740352	68	4898
2026-01-18 13:40:50.41	276.44	6.14	-48.5	-51.2	15.1	0.00e+00	0	36	0	87031808	68	4929
2026-01-18 13:40:53.43	276.88	6.22	-48.4	-51.0	15.3	0.00e+00	0	36	0	92274688	68	4852
2026-01-18 13:40:56.45	277.33	6.30	-48.7	-51.5	14.9	0.00e+00	0	35	0	98566144	68	5118
2026-01-18 13:40:59.48	277.78	6.38	-48.9	-51.8	14.6	0.00e+00	0	35	0	103809024	68	5281
2026-01-18 13:41:02.50	278.23	6.46	-48.6	-51.3	15.0	0.00e+00	0	36	0	109051904	68	5006
2026-01-18 13:41:05.53	278.68	6.53	-48.2	-50.7	15.7	0.00e+00	0	36	0	115343360	68	4681
2026-01-18 13:41:08.55	279.14	6.61	-48.7	-51.4	15.0	0.00e+00	0	36	0	120586240	68	5100
2026-01-18 13:41:11.58	279.60	6.68	-49.0	-52.0	14.4	7.00e-07	0	36	0	126877696	68	5411
2026-01-18 13:41:14.60	280.06	6.75	-49.0	-51.9	14.4	7.00e-07	0	36	0	132120576	68	5399
2026-01-18 13:41:17.62	280.52	6.82	-48.8	-51.6	14.8	0.00e+00	0	36	0	137363456	68	5215
2026-01-18 13:41:20.64	280.98	6.89	-48.9	-51.8	14.6	0.00e+00	0	36	0	143654912	68	5320
2026-01-18 13:41:23.66	281.45	6.96	-48.8	-51.6	14.8	0.00e+00	0	36	0	148897792	68	5213
2026-01-18 13:41:26.69	281.92	7.03	-48.6	-51.1	15.3	0.00e+00	0	35	0	155189248	68	4922
2026-01-18 13:41:29.71	282.39	7.09	-48.4	-50.8	15.6	0.00e+00	0	36	0	160432128	68	4755
2026-01-18 13:41:32.73	282.86	7.16	-49.0	-51.8	14.7	7.00e-07	0	35	0	166723584	68	5340
2026-01-18 13:41:35.76	283.34	7.22	-49.3	-52.4	14.2	1.50e-06	0	36	0	171966464	69	5351
2026-01-18 13:41:38.78	283.81	7.28	-49.5	-52.7	13.8	7.60e-06	0	36	0	177209344	69	5579
2026-01-18 13:41:41.81	284.29	7.34	-49.2	-52.2	14.4	7.00e-07	0	35	0	183500800	69	5258
2026-01-18 13:41:44.83	284.77	7.40	-48.9	-51.6	14.9	0.00e+00	0	36	0	188743680	69	4923
2026-01-18 13:41:47.86	285.26	7.45	-48.8	-51.5	15.1	7.00e-07	0	36	0	195035136	69	4857
2026-01-18 13:41:50.88	285.74	7.51	-48.9	-51.7	15.0	0.00e+00	0	36	0	200278016	69	4934
2026-01-18 13:41:53.91	286.23	7.56	-48.6	-51.1	15.6	0.00e+00	0	36	0	205520896	69	4616
2026-01-18 13:41:56.93	286.71	7.61	-49.0	-51.8	14.8	0.00e+00	0	36	0	211812352	69	5017
2026-01-18 13:41:59.95	287.20	7.66	-49.5	-52.6	14.1	7.00e-07	0	36	0	217055232	69	5477
2026-01-18 13:42:02.98	287.69	7.71	-49.5	-52.6	14.1	3.80e-06	0	36	0	223346688	69	5466
2026-01-18 13:42:06.00	288.19	7.76	-48.9	-51.5	15.2	0.00e+00	0	36	0	228589568	69	4841
2026-01-18 13:42:09.03	288.68	7.80	-48.6	-51.1	15.7	0.00e+00	0	36	0	234881024	68	4894
2026-01-18 13:42:12.05	289.18	7.84	-48.7	-51.2	15.6	0.00e+00	0	36	0	240123904	68	4938
2026-01-18 13:42:15.07	289.67	7.89	-48.6	-51.1	15.7	0.00e+00	0	36	0	245366784	68	4898
2026-01-18 13:42:18.09	290.17	7.92	-48.1	-50.3	16.5	0.00e+00	0	36	0	251658240	68	4456
2026-01-18 13:42:21.11	290.67	7.96	-48.6	-51.0	15.8	0.00e+00	0	36	0	256901120	68	4850
2026-01-18 13:42:24.13	291.17	8.00	-48.4	-50.7	16.1	0.00e+00	0	36	0	263192576	68	4683
2026-01-18 13:42:27.16	291.67	8.03	-48.2	-50.4	16.4	0.00e+00	0	36	0	268435456	68	4531
2026-01-18 13:42:30.18	292.17	8.06	-48.6	-51.1	15.7	0.00e+00	0	35	0	273678336	68	4903
2026-01-18 13:42:33.20	292.67	8.09	-49.1	-51.9	14.9	0.00e+00	0	36	0	279969792	68	5354
2026-01-18 13:42:36.23	293.18	8.12	-49.0	-51.7	15.0	0.00e+00	0	36	0	285212672	68	5248
2026-01-18 13:42:39.25	293.68	8.15	-49.1	-51.8	15.0	0.00e+00	0	36	0	291504128	68	5311
2026-01-18 13:42:42.27	294.19	8.17	-49.2	-52.0	14.8	0.00e+00	0	36	0	296747008	69	5135
2026-01-18 13:42:45.30	294.70	8.20	-49.0	-51.7	15.0	0.00e+00	0	36	0	301989888	69	4974
2026-01-18 13:42:48.32	295.20	8.22	-49.3	-52.2	14.6	0.00e+00	0	36	0	308281344	69	5247
2026-01-18 13:42:51.34	295.71	8.24	-49.6	-52.8	13.9	3.00e-06	0	36	0	313524224	69	5626
2026-01-18 13:42:54.37	296.22	8.25	-49.8	-53.1	13.7	4.50e-06	0	35	0	319815680	70	5494
2026-01-18 13:42:57.39	296.73	8.27	-49.6	-52.7	14.1	1.50e-06	0	35	0	325058560	70	5242
2026-01-18 13:43:00.41	297.24	8.28	-49.3	-52.3	14.4	1.50e-06	0	36	0	330301440	70	4994
2026-01-18 13:43:03.44	297.75	8.29	-49.6	-52.8	14.0	7.00e-07	0	36	0	336592896	70	5298
2026-01-18 13:43:06.46	298.26	8.30	-49.3	-52.2	14.6	0.00e+00	0	36	0	341835776	70	4956
2026-01-18 13:43:09.48	298.77	8.31	-49.2	-51.9	14.8	0.00e+00	0	36	0	348127232	70	4810
2026-01-18 13:43:12.51	299.28	8.31	-49.0	-51.7	15.1	0.00e+00	0	36	0	353370112	69	4962
2026-01-18 13:43:15.53	299.79	8.32	-49.2	-52.1	14.7	0.00e+00	0	36	0	358612992	69	5170
2026-01-18 13:43:18.55	300.30	8.32	-49.3	-52.1	14.6	0.00e+00	0	36	0	364904448	69	5208
2026-01-18 13:43:21.58	300.81	8.32	-48.7	-51.3	15.5	0.00e+00	0	36	0	370147328	69	4724
2026-01-18 13:43:24.60	301.33	8.32	-48.6	-51.1	15.5	0.00e+00	0	36	0	376438784	69	4640
2026-01-18 13:43:27.62	301.84	8.31	-48.7	-51.2	15.6	0.00e+00	0	36	0	381681664	69	4702
2026-01-18 13:43:30.65	302.35	8.30	-48.3	-50.7	16.0	0.00e+00	0	36	0	386924544	68	4671
2026-01-18 13:43:33.67	302.86	8.30	-47.8	-50.0	16.7	0.00e+00	0	36	0	393216000	67	4549
2026-01-18 13:43:36.69	303.37	8.29	-48.0	-50.2	16.4	0.00e+00	0	36	0	398458880	67	4684
2026-01-18 13:43:39.72	303.88	8.27	-48.4	-50.9	15.7	0.00e+00	0	36	0	404750336	67	5064
2026-01-18 13:43:42.74	304.39	8.26	-48.2	-50.6	16.1	0.00e+00	0	35	0	409993216	67	4873
2026-01-18 13:43:45.76	304.89	8.24	-48.0	-50.2	16.4	0.00e+00	0	36	0	415236096	67	4685
2026-01-18 13:43:48.78	305.40	8.23	-48.3	-50.7	15.9	0.00e+00	0	36	0	421527552	67	4955
2026-01-18 13:43:51.81	305.91	8.21	-48.3	-50.6	15.9	7.00e-07	0	36	0	426770432	67	4924
2026-01-18 13:43:54.83	306.42	8.18	-47.9	-50.1	16.4	0.00e+00	0	36	0	433061888	67	4641
2026-01-18 13:43:57.85	306.92	8.16	-47.8	-50.0	16.5	0.00e+00	0	36	0	438304768	67	4575
2026-01-18 13:44:00.88	307.43	8.14	-48.0	-50.3	16.3	0.00e+00	0	36	0	443547648	67	4726
2026-01-18 13:44:03.90	307.93	8.11	-47.9	-50.1	16.5	0.00e+00	0	36	0	449839104	67	4643
2026-01-18 13:44:06.92	308.43	8.08	-47.4	-49.4	17.1	0.00e+00	0	36	0	455081984	66	4541
2026-01-18 13:44:09.95	308.94	8.05	-47.0	-48.9	17.6	0.00e+00	0	36	0	461373440	65	4526
2026-01-18 13:44:12.97	309.44	8.02	-47.0	-48.9	17.5	0.00e+00	0	36	0	466616320	65	4519
2026-01-18 13:44:15.99	309.94	7.98	-47.3	-49.3	17.2	0.00e+00	0	36	0	471859200	65	4742
2026-01-18 13:44:19.02	310.44	7.94	-47.5	-49.5	16.9	0.00e+00	0	36	0	478150656	65	4863
2026-01-18 13:44:22.04	310.93	7.91	-47.4	-49.4	17.0	0.00e+00	0	36	0	483393536	65	4803
2026-01-18 13:44:25.07	311.43	7.87	-47.6	-49.7	16.8	0.00e+00	0	36	0	489684992	65	4941
2026-01-18 13:44:28.09	311.92	7.82	-47.8	-50.0	16.5	0.00e+00	0	36	0	494927872	66	4843
2026-01-18 13:44:31.11	312.42	7.78	-47.2	-49.2	17.2	0.00e+00	0	36	0	500170752	66	4413
2026-01-18 13:44:34.14	312.91	7.74	-47.2	-49.2	17.2	0.00e+00	0	36	0	506462208	66	4427
2026-01-18 13:44:37.16	313.40	7.69	-47.4	-49.4	17.1	0.00e+00	0	36	0	511705088	66	4511
2026-01-18 13:44:40.18	313.89	7.64	-47.6	-49.7	16.7	0.00e+00	0	36	0	517996544	66	4694
2026-01-18 13:44:43.21	314.38	7.59	-47.7	-49.9	16.5	0.00e+00	0	36	0	523239424	66	4775
2026-01-18 13:44:46.23	314.86	7.54	-47.9	-50.2	16.3	0.00e+00	0	36	0	529530880	66	4929
2026-01-18 13:44:49.25	315.35	7.49	-48.1	-50.4	16.1	0.00e+00	0	36	0	534773760	66	5074
2026-01-18 13:44:52.28	315.83	7.43	-47.6	-49.8	16.6	0.00e+00	0	36	0	540016640	66	4727
2026-01-18 13:44:55.30	316.31	7.37	-47.1	-49.0	17.4	0.00e+00	0	36	0	546308096	66	4317
2026-01-18 13:44:58.33	316.79	7.31	-46.7	-48.5	17.8	0.00e+00	0	36	0	551550976	65	4306
2026-01-18 13:45:01.35	317.26	7.26	-46.3	-48.0	18.3	0.00e+00	0	35	0	557842432	64	4306
2026-01-18 13:45:04.37	317.74	7.19	-47.2	-49.1	17.2	0.00e+00	0	36	0	563085312	65	4648
2026-01-18 13:45:07.40	318.21	7.13	-47.1	-49.1	17.2	0.00e+00	0	36	0	568328192	65	4635
2026-01-18 13:45:10.42	318.68	7.07	-47.1	-49.0	17.4	0.00e+00	0	36	0	574619648	65	4578
2026-01-18 13:45:13.45	319.15	7.00	-46.8	-48.7	17.7	0.00e+00	0	35	0	579862528	65	4402
2026-01-18 13:45:16.47	319.62	6.93	-47.0	-49.0	17.3	0.00e+00	0	36	0	586153984	65	4560
2026-01-18 13:45:19.50	320.08	6.87	-47.1	-49.1	17.2	0.00e+00	0	36	0	591396864	65	4635
2026-01-18 13:45:22.52	320.54	6.80	-47.5	-49.6	16.8	0.00e+00	0	36	0	596639744	65	4877
2026-01-18 13:45:25.55	321.01	6.72	-46.9	-48.8	17.5	0.00e+00	0	36	0	602931200	65	4483
2026-01-18 13:45:28.57	321.46	6.65	-46.7	-48.5	17.8	0.00e+00	0	36	0	608174080	64	4586
2026-01-18 13:45:31.60	321.92	6.58	-46.6	-48.4	17.8	0.00e+00	0	36	0	614465536	64	4537
2026-01-18 13:45:34.62	322.37	6.50	-47.1	-49.1	17.2	0.00e+00	0	36	0	619708416	65	4621
2026-01-18 13:45:37.64	322.82	6.43	-47.5	-49.7	16.6	0.00e+00	0	36	0	625999872	65	4949
2026-01-18 13:45:40.67	323.27	6.35	-47.4	-49.5	16.7	0.00e+00	0	36	0	631242752	65	4855
2026-01-18 13:45:43.69	323.72	6.27	-47.5	-49.6	16.6	0.00e+00	0	36	0	636485632	65	4923
2026-01-18 13:45:46.71	324.16	6.19	-47.6	-49.9	16.4	0.00e+00	0	36	0	642777088	66	4761
2026-01-18 13:45:49.74	324.61	6.11	-47.8	-50.1	16.2	0.00e+00	0	36	0	648019968	66	4876
2026-01-18 13:45:52.76	325.04	6.03	-48.2	-50.7	15.5	0.00e+00	0	36	0	654311424	66	5277
2026-01-18 13:45:55.79	325.48	5.94	-48.3	-50.8	15.5	0.00e+00	0	36	0	659554304	67	5007
2026-01-18 13:45:58.81	325.92	5.86	-48.1	-50.6	15.6	0.00e+00	0	36	0	664797184	67	4886
2026-01-18 13:46:01.83	326.35	5.77	-48.6	-51.4	14.8	0.00e+00	0	36	0	671088640	67	5370
2026-01-18 13:46:04.86	326.78	5.69	-49.0	-52.0	14.2	0.00e+00	0	36	0	676331520	68	5462
2026-01-18 13:46:07.88	327.21	5.60	-48.6	-51.4	14.8	0.00e+00	0	36	0	682622976	69	4806
2026-01-18 13:46:10.90	327.63	5.51	-48.5	-51.2	15.0	0.00e+00	0	36	0	687865856	68	4941
2026-01-18 13:46:13.92	328.05	5.42	-48.3	-50.9	15.4	0.00e+00	0	36	0	693108736	68	4803
2026-01-18 13:46:16.94	328.47	5.33	-48.6	-51.5	14.8	0.00e+00	0	36	0	699400192	68	5113
2026-01-18 13:46:19.97	328.89	5.24	-48.8	-51.7	14.6	7.00e-07	0	36	0	704643072	68	5239
2026-01-18 13:46:22.99	329.30	5.14	-49.1	-52.2	14.0	2.20e-06	0	36	0	710934528	68	5587
2026-01-18 13:46:26.02	329.72	5.05	-49.2	-52.5	13.6	4.50e-06	0	36	0	716177408	68	5782
2026-01-18 13:46:29.04	330.13	4.96	-52.8	-67.8	3.8	1.49e+00	0	36	104	720371712	76	21162
2026-01-18 13:46:32.07	330.53	4.86	-53.3	-68.4	3.8	1.49e+00	0	36	104	720371712	77	21270
2026-01-18 13:46:35.09	330.94	4.77	-53.7	-68.7	3.8	1.49e+00	0	36	104	720371712	77	22078
2026-01-18 13:46:38.11	331.34	4.67	-53.9	-68.9	3.8	1.49e+00	0	36	104	720371712	78	21333
2026-01-18 13:46:41.14	331.74	4.57	-54.0	-69.0	3.8	1.49e+00	0	36	104	720371712	78	21579
2026-01-18 13:46:44.16	332.14	4.47	-54.0	-69.0	3.8	1.49e+00	0	36	104	720371712	78	21638
2026-01-18 13:46:47.19	332.53	4.37	-54.0	-69.0	3.8	1.49e+00	0	36	104	720371712	78	21649
2026-01-18 13:46:50.21	332.92	4.27	-53.9	-68.9	3.8	1.49e+00	0	36	104	720371712	78	21462
2026-01-18 13:46:53.23	333.31	4.17	-53.9	-68.9	3.8	1.49e+00	0	36	104	720371712	78	21394
2026-01-18 13:46:56.26	333.70	4.07	-53.9	-68.9	3.8	1.49e+00	0	36	104	720371712	78	21333
2026-01-18 13:46:59.28	334.08	3.97	-53.8	-68.9	3.8	1.49e+00	0	36	104	720371712	78	21275
2026-01-18 13:47:02.31	334.46	3.87	-53.8	-68.9	3.8	1.49e+00	0	36	104	720371712	78	21278
2026-01-18 13:47:05.33	334.84	3.77	-53.8	-68.9	3.8	1.49e+00	0	36	104	720371712	78	21288
2026-01-18 13:47:08.35	335.22	3.66	-53.8	-68.8	3.8	1.49e+00	0	36	104	720371712	78	21223
2026-01-18 13:47:11.38	335.59	3.56	-53.8	-68.8	3.8	1.49e+00	0	36	104	720371712	78	21186
2026-01-18 13:47:14.40	335.96	3.45	-53.8	-68.8	3.8	1.49e+00	0	36	104	720371712	78	21245
2026-01-18 13:47:17.42	336.33	3.35	-53.8	-68.8	3.8	1.49e+00	0	36	104	720371712	78	21256
2026-01-18 13:47:20.45	336.70	3.24	-53.8	-68.8	3.8	1.49e+00	0	36	104	720371712	78	21183
2026-01-18 13:47:23.47	337.06	3.14	-53.8	-68.8	3.8	1.49e+00	0	36	104	720371712	78	21142
2026-01-18 13:47:26.50	337.42	3.03	-53.8	-68.8	3.8	1.49e+00	0	36	104	720371712	78	21122
2026-01-18 13:47:29.52	337.78	2.92	-53.7	-68.7	3.8	1.49e+00	0	36	104	720371712	78	20969
2026-01-18 13:47:32.54	338.14	2.81	-53.7	-68.8	3.8	1.49e+00	0	36	104	720371712	78	21059
2026-01-18 13:47:35.57	338.49	2.71	-53.7	-68.7	3.8	1.49e+00	0	36	104	720371712	78	21003
2026-01-18 13:47:38.59	338.84	2.60	-53.7	-68.8	3.8	1.49e+00	0	36	104	720371712	78	21093
2026-01-18 13:47:41.61	339.19	2.49	-53.7	-68.7	3.8	1.49e+00	0	36	104	720371712	78	20946
2026-01-18 13:47:44.64	339.54	2.38	-53.7	-68.7	3.8	1.49e+00	0	36	104	720371712	78	20941
2026-01-18 13:47:47.66	339.88	2.27	-53.7	-68.7	3.8	1.49e+00	0	36	104	720371712	78	20942
2026-01-18 13:47:50.68	340.22	2.16	-53.7	-68.7	3.8	1.49e+00	0	36	104	720371712	78	20954
2026-01-18 13:47:53.71	340.56	2.05	-53.7	-68.7	3.8	1.49e+00	0	36	104	720371712	78	20961
2026-01-18 13:47:56.73	340.90	1.94	-53.7	-68.7	3.8	1.49e+00	0	36	104	720371712	78	20969

#Closed at: 2026-01-18 13:47:57
#Recorded file [720 MB]: D:/lorett/data/31041_260118_163846.dat