passes_logs/2026/01/18/R3.2S_Murmansk/R3.2S_Murmansk__20260118_051439_SUOMI_NPP_rec.log

#Pass ID: 20260118_051439_SUOMI NPP
#Satellite: SUOMI NPP
#Configuration: NPP
#almurnet v.1.7.20251203
#Start time: 2026-01-18 05:14:39

#Version: 2.2.20231116
#Station: R3.2S_Murmansk
#Location: 33.079688 lon 68.888172 lat
#TLE: 1 37849U 11061A   26017.57099531  .00000072  00000+0  54974-4 0  9996
#TLE: 2 37849  98.7814 319.5974 0002398  59.1749 300.9663 14.19525865737072

#Time	Az	El	Level	Level2	SNR	BER	BlckErr	Temp	State	Recorded	gain1	gain2
2026-01-18 05:14:39.91	62.25	2.00	-51.9	-66.9	3.8	1.49e+00	0	34	0	0	75	20180
2026-01-18 05:14:42.92	62.06	2.18	-51.9	-66.8	3.8	1.49e+00	0	34	104	0	74	21257
2026-01-18 05:14:45.94	61.87	2.35	-51.9	-66.9	3.8	1.49e+00	0	34	104	0	74	21349
2026-01-18 05:14:48.97	61.67	2.52	-51.9	-66.9	3.8	1.49e+00	0	34	104	0	74	21343
2026-01-18 05:14:51.99	61.47	2.69	-51.9	-66.9	3.8	1.49e+00	0	34	104	0	74	21314
2026-01-18 05:14:55.02	61.26	2.87	-51.9	-66.9	3.8	1.49e+00	0	34	104	0	74	21332
2026-01-18 05:14:58.04	61.05	3.04	-51.9	-66.8	3.8	1.49e+00	0	34	104	0	74	21222
2026-01-18 05:15:01.07	60.85	3.22	-51.9	-66.9	3.8	1.49e+00	0	34	104	0	74	21278
2026-01-18 05:15:04.09	60.63	3.40	-51.9	-66.8	3.8	1.49e+00	0	34	104	0	74	21078
2026-01-18 05:15:07.12	60.42	3.57	-51.9	-66.8	3.8	1.49e+00	0	34	104	0	74	21093
2026-01-18 05:15:10.14	60.20	3.75	-51.9	-66.9	3.8	1.49e+00	0	34	104	0	74	21336
2026-01-18 05:15:13.16	59.98	3.93	-51.9	-66.1	3.8	1.49e+00	0	35	104	0	74	19591
2026-01-18 05:15:16.19	59.76	4.11	-51.8	-64.3	4.0	1.49e+00	0	35	104	0	74	15772
2026-01-18 05:15:19.21	59.53	4.29	-51.6	-62.2	4.6	9.98e-01	0	35	0	2097152	74	12381
2026-01-18 05:15:22.24	59.31	4.47	-51.4	-60.7	5.4	5.09e-01	0	35	0	7340032	74	10429
2026-01-18 05:15:25.26	59.07	4.65	-51.4	-60.2	5.7	3.75e-01	0	35	0	12582912	74	9843
2026-01-18 05:15:28.29	58.84	4.84	-51.5	-60.9	5.2	5.35e-01	0	35	0	18874368	74	10769
2026-01-18 05:15:31.31	58.60	5.02	-51.7	-62.7	4.4	1.35e+00	82	35	0	23068672	74	13202
2026-01-18 05:15:34.34	58.36	5.21	-51.8	-64.2	3.9	1.49e+00	0	35	104	27262976	74	15699
2026-01-18 05:15:37.36	58.12	5.39	-49.9	-54.2	11.9	7.18e-04	0	35	0	28311552	71	5869
2026-01-18 05:15:40.38	57.87	5.58	-49.9	-54.1	12.0	6.41e-04	0	35	0	34603008	71	5789
2026-01-18 05:15:43.41	57.62	5.76	-49.6	-53.4	12.7	2.01e-04	0	35	0	39845888	71	5366
2026-01-18 05:15:46.43	57.37	5.95	-49.1	-52.4	13.8	3.43e-05	0	35	0	46137344	70	5053
2026-01-18 05:15:49.45	57.11	6.14	-48.7	-51.7	14.6	0.00e+00	0	35	0	51380224	69	4943
2026-01-18 05:15:52.48	56.85	6.33	-48.7	-51.6	14.7	0.00e+00	0	35	0	56623104	69	4926
2026-01-18 05:15:55.50	56.58	6.52	-48.6	-51.5	14.9	0.00e+00	0	35	0	62914560	69	4815
2026-01-18 05:15:58.53	56.31	6.71	-48.8	-51.9	14.5	0.00e+00	0	35	0	68157440	69	5050
2026-01-18 05:16:01.55	56.04	6.90	-48.8	-51.8	14.6	7.00e-07	0	35	0	74448896	69	4992
2026-01-18 05:16:04.57	55.77	7.09	-48.7	-51.6	14.7	0.00e+00	0	35	0	79691776	69	4926
2026-01-18 05:16:07.60	55.49	7.29	-48.5	-51.4	15.1	0.00e+00	0	35	0	84934656	68	5055
2026-01-18 05:16:10.62	55.21	7.48	-48.4	-51.0	15.4	0.00e+00	0	35	0	91226112	68	4861
2026-01-18 05:16:13.65	54.92	7.68	-48.4	-51.0	15.4	0.00e+00	0	35	0	96468992	68	4862
2026-01-18 05:16:16.67	54.63	7.87	-48.2	-50.8	15.6	0.00e+00	0	35	0	102760448	68	4758
2026-01-18 05:16:19.69	54.33	8.07	-47.8	-50.2	16.1	0.00e+00	0	35	0	108003328	67	4699
2026-01-18 05:16:22.71	54.03	8.27	-47.8	-50.1	16.3	0.00e+00	0	35	0	113246208	67	4621
2026-01-18 05:16:25.74	53.73	8.46	-47.6	-49.8	16.6	0.00e+00	0	35	0	119537664	67	4461
2026-01-18 05:16:28.76	53.42	8.66	-47.6	-49.9	16.6	0.00e+00	0	35	0	124780544	67	4494
2026-01-18 05:16:31.78	53.11	8.86	-47.9	-50.3	16.2	0.00e+00	0	35	0	131072000	67	4707
2026-01-18 05:16:34.81	52.79	9.06	-47.8	-50.1	16.3	0.00e+00	0	35	0	136314880	67	4651
2026-01-18 05:16:37.83	52.47	9.26	-48.0	-50.5	16.1	0.00e+00	0	36	0	141557760	67	4816
2026-01-18 05:16:40.86	52.15	9.47	-48.1	-50.5	16.0	0.00e+00	0	35	0	147849216	67	4837
2026-01-18 05:16:43.88	51.82	9.67	-48.2	-50.6	15.9	0.00e+00	0	35	0	153092096	67	4910
2026-01-18 05:16:46.91	51.48	9.87	-48.1	-50.5	16.1	0.00e+00	0	36	0	159383552	67	4826
2026-01-18 05:16:49.93	51.14	10.08	-48.3	-50.8	15.8	0.00e+00	0	36	0	164626432	67	4987
2026-01-18 05:16:52.96	50.80	10.28	-48.0	-50.3	16.3	0.00e+00	0	36	0	169869312	67	4735
2026-01-18 05:16:55.98	50.45	10.49	-48.1	-50.4	16.1	0.00e+00	0	35	0	176160768	67	4812
2026-01-18 05:16:59.00	50.09	10.69	-48.0	-50.4	16.2	0.00e+00	0	36	0	181403648	67	4784
2026-01-18 05:17:02.03	49.73	10.90	-47.8	-50.0	16.5	0.00e+00	0	35	0	187695104	67	4595
2026-01-18 05:17:05.05	49.37	11.10	-47.7	-49.9	16.7	0.00e+00	0	36	0	192937984	67	4522
2026-01-18 05:17:08.08	49.00	11.31	-47.6	-49.7	16.9	0.00e+00	0	36	0	198180864	67	4411
2026-01-18 05:17:11.10	48.62	11.52	-47.2	-49.2	17.3	0.00e+00	0	36	0	204472320	66	4437
2026-01-18 05:17:14.13	48.24	11.73	-47.4	-49.4	17.2	0.00e+00	0	36	0	209715200	66	4538
2026-01-18 05:17:17.15	47.85	11.94	-47.4	-49.4	17.2	0.00e+00	0	35	0	216006656	66	4529
2026-01-18 05:17:20.17	47.46	12.15	-47.0	-49.0	17.7	0.00e+00	0	35	0	221249536	66	4295
2026-01-18 05:17:23.20	47.06	12.36	-47.1	-49.1	17.6	0.00e+00	0	36	0	226492416	66	4358
2026-01-18 05:17:26.23	46.65	12.57	-46.9	-48.8	17.8	0.00e+00	0	35	0	232783872	65	4469
2026-01-18 05:17:29.25	46.24	12.78	-47.0	-48.9	17.8	0.00e+00	0	35	0	238026752	65	4529
2026-01-18 05:17:32.28	45.83	12.99	-47.2	-49.2	17.5	0.00e+00	0	36	0	244318208	65	4662
2026-01-18 05:17:35.30	45.40	13.20	-47.2	-49.1	17.5	0.00e+00	0	35	0	249561088	65	4650
2026-01-18 05:17:38.33	44.97	13.42	-47.0	-49.0	17.7	0.00e+00	0	36	0	255852544	65	4570
2026-01-18 05:17:41.35	44.54	13.63	-47.0	-49.0	17.7	0.00e+00	0	36	0	261095424	65	4568
2026-01-18 05:17:44.38	44.10	13.84	-47.3	-49.4	17.3	0.00e+00	0	36	0	266338304	65	4779
2026-01-18 05:17:47.40	43.65	14.05	-47.3	-49.4	17.3	0.00e+00	0	36	0	272629760	65	4767
2026-01-18 05:17:50.42	43.19	14.27	-47.3	-49.3	17.4	0.00e+00	0	36	0	277872640	65	4725
2026-01-18 05:17:53.45	42.73	14.48	-47.2	-49.2	17.4	0.00e+00	0	36	0	284164096	65	4693
2026-01-18 05:17:56.47	42.26	14.69	-47.4	-49.4	17.3	0.00e+00	0	36	0	289406976	65	4804
2026-01-18 05:17:59.49	41.79	14.90	-47.3	-49.4	17.4	0.00e+00	0	36	0	294649856	65	4780
2026-01-18 05:18:02.52	41.31	15.11	-47.9	-50.2	16.6	0.00e+00	0	36	0	300941312	66	4931
2026-01-18 05:18:05.54	40.82	15.33	-47.8	-50.0	16.8	0.00e+00	0	36	0	306184192	66	4816
2026-01-18 05:18:08.57	40.32	15.54	-47.4	-49.5	17.2	0.00e+00	0	36	0	312475648	66	4560
2026-01-18 05:18:11.59	39.82	15.75	-47.6	-49.7	17.0	0.00e+00	0	36	0	317718528	66	4686
2026-01-18 05:18:14.61	39.31	15.96	-47.4	-49.5	17.3	0.00e+00	0	36	0	324009984	66	4546
2026-01-18 05:18:17.64	38.79	16.17	-47.6	-49.8	17.0	0.00e+00	0	36	0	329252864	66	4721
2026-01-18 05:18:20.67	38.26	16.38	-47.2	-49.1	17.6	0.00e+00	0	36	0	334495744	66	4363
2026-01-18 05:18:23.69	37.73	16.59	-47.3	-49.3	17.3	0.00e+00	0	36	0	340787200	66	4472
2026-01-18 05:18:26.71	37.19	16.80	-47.5	-49.6	17.2	0.00e+00	0	36	0	346030080	66	4617
2026-01-18 05:18:29.74	36.64	17.00	-47.8	-50.1	16.7	0.00e+00	0	36	0	352321536	66	4872
2026-01-18 05:18:32.76	36.09	17.21	-47.5	-49.6	17.2	0.00e+00	0	36	0	357564416	66	4622
2026-01-18 05:18:35.78	35.53	17.41	-47.0	-48.9	17.9	0.00e+00	0	35	0	362807296	66	4260
2026-01-18 05:18:38.80	34.96	17.62	-47.1	-49.0	17.8	0.00e+00	0	36	0	369098752	66	4316
2026-01-18 05:18:41.82	34.38	17.82	-46.8	-48.7	18.1	0.00e+00	0	36	0	374341632	65	4411
2026-01-18 05:18:44.85	33.79	18.02	-46.6	-48.5	18.3	0.00e+00	0	36	0	380633088	65	4294
2026-01-18 05:18:47.87	33.20	18.22	-46.3	-48.0	18.7	0.00e+00	0	36	0	385875968	64	4304
2026-01-18 05:18:50.89	32.59	18.42	-46.1	-47.7	19.1	0.00e+00	0	36	0	391118848	63	4418
2026-01-18 05:18:53.92	31.98	18.61	-46.1	-47.8	19.1	0.00e+00	0	36	0	397410304	63	4444
2026-01-18 05:18:56.94	31.36	18.81	-46.1	-47.8	19.0	0.00e+00	0	36	0	402653184	63	4456
2026-01-18 05:18:59.96	30.74	19.00	-45.7	-47.2	19.6	0.00e+00	0	36	0	408944640	63	4184
2026-01-18 05:19:02.99	30.10	19.19	-45.5	-46.9	19.8	0.00e+00	0	36	0	414187520	63	4047
2026-01-18 05:19:06.01	29.46	19.38	-45.6	-47.0	19.7	0.00e+00	0	36	0	419430400	62	4329
2026-01-18 05:19:09.03	28.81	19.56	-45.7	-47.2	19.6	0.00e+00	0	36	0	425721856	62	4410
2026-01-18 05:19:12.06	28.15	19.75	-45.9	-47.4	19.4	0.00e+00	0	36	0	430964736	62	4524
2026-01-18 05:19:15.08	27.49	19.93	-45.6	-47.2	19.7	0.00e+00	0	35	0	437256192	62	4392
2026-01-18 05:19:18.11	26.81	20.10	-45.4	-46.8	19.9	0.00e+00	0	35	0	442499072	62	4229
2026-01-18 05:19:21.13	26.13	20.28	-45.6	-47.1	19.8	0.00e+00	0	36	0	447741952	62	4342
2026-01-18 05:19:24.16	25.44	20.45	-45.5	-46.9	19.9	0.00e+00	0	35	0	454033408	62	4280
2026-01-18 05:19:27.18	24.74	20.62	-45.0	-46.4	20.4	0.00e+00	0	35	0	459276288	61	4251
2026-01-18 05:19:30.20	24.04	20.78	-45.2	-46.5	20.2	0.00e+00	0	35	0	465567744	61	4313
2026-01-18 05:19:33.23	23.32	20.94	-45.1	-46.5	20.3	0.00e+00	0	35	0	470810624	61	4296
2026-01-18 05:19:36.26	22.60	21.10	-45.2	-46.5	20.2	0.00e+00	0	36	0	476053504	61	4330
2026-01-18 05:19:39.28	21.87	21.25	-45.3	-46.6	20.1	0.00e+00	0	36	0	482344960	61	4382
2026-01-18 05:19:42.31	21.14	21.40	-45.3	-46.6	20.2	0.00e+00	0	36	0	487587840	61	4389
2026-01-18 05:19:45.33	20.40	21.54	-45.3	-46.7	20.1	0.00e+00	0	36	0	493879296	61	4409
2026-01-18 05:19:48.36	19.65	21.68	-51.5	-56.4	10.7	5.08e-03	0	35	0	499122176	74	6400
2026-01-18 05:19:51.38	18.89	21.82	-51.2	-55.6	11.5	9.99e-04	0	35	0	504365056	74	5818
2026-01-18 05:19:54.40	18.13	21.95	-49.8	-52.9	14.3	7.60e-06	0	36	0	510656512	71	5052
2026-01-18 05:19:57.42	17.36	22.08	-49.0	-51.6	15.7	0.00e+00	0	36	0	515899392	69	4873
2026-01-18 05:20:00.45	16.59	22.20	-49.2	-51.9	15.3	0.00e+00	0	35	0	522190848	69	5059
2026-01-18 05:20:03.47	15.81	22.31	-49.0	-51.4	15.8	0.00e+00	0	35	0	527433728	69	4812
2026-01-18 05:20:06.50	15.02	22.43	-49.6	-52.4	14.9	0.00e+00	0	36	0	532676608	70	5065
2026-01-18 05:20:09.52	14.23	22.53	-50.0	-53.2	14.0	2.20e-06	0	35	0	538968064	70	5586
2026-01-18 05:20:12.54	13.43	22.63	-50.4	-54.0	13.1	2.97e-05	0	36	0	544210944	71	5783
2026-01-18 05:20:15.57	12.63	22.72	-50.3	-53.7	13.4	5.30e-06	0	36	0	550502400	71	5577
2026-01-18 05:20:18.60	11.82	22.81	-49.9	-52.9	14.3	1.50e-06	0	35	0	555745280	71	5072
2026-01-18 05:20:21.62	11.01	22.90	-49.9	-52.9	14.3	1.50e-06	0	36	0	562036736	71	5098
2026-01-18 05:20:24.64	10.19	22.97	-49.7	-52.6	14.6	0.00e+00	0	36	0	567279616	71	4925
2026-01-18 05:20:27.66	9.37	23.04	-50.0	-53.3	14.0	3.00e-06	0	36	0	572522496	71	5280
2026-01-18 05:20:30.69	8.55	23.11	-49.8	-52.9	14.4	1.50e-06	0	35	0	578813952	71	5043
2026-01-18 05:20:33.71	7.72	23.17	-50.3	-53.7	13.6	6.80e-06	0	35	0	584056832	71	5553
2026-01-18 05:20:36.74	6.89	23.22	-50.4	-53.9	13.3	2.44e-05	0	35	0	590348288	71	5711
2026-01-18 05:20:39.76	6.06	23.26	-50.3	-53.8	13.4	1.75e-05	0	35	0	595591168	71	5654
2026-01-18 05:20:42.78	5.23	23.30	-50.1	-53.4	13.8	1.50e-06	0	36	0	600834048	71	5379
2026-01-18 05:20:45.80	4.39	23.34	-50.6	-54.5	12.7	1.22e-05	0	35	0	607125504	71	6091
2026-01-18 05:20:48.83	3.55	23.36	-50.5	-54.2	13.0	4.50e-05	0	35	0	612368384	71	5917
2026-01-18 05:20:51.85	2.72	23.38	-50.1	-53.4	13.8	2.20e-06	0	36	0	618659840	71	5374
2026-01-18 05:20:54.87	1.88	23.39	-49.3	-52.0	15.2	0.00e+00	0	35	0	623902720	70	4834
2026-01-18 05:20:57.89	1.04	23.40	-49.3	-52.1	15.1	0.00e+00	0	35	0	629145600	70	4903
2026-01-18 05:21:00.92	0.19	23.40	-49.4	-52.2	14.9	0.00e+00	0	36	0	635437056	70	4939
2026-01-18 05:21:03.94	359.36	23.39	-49.1	-51.7	15.5	0.00e+00	0	35	0	640679936	70	4676
2026-01-18 05:21:06.97	358.51	23.38	-48.9	-51.5	15.7	0.00e+00	0	35	0	646971392	69	4841
2026-01-18 05:21:09.99	357.68	23.36	-48.8	-51.3	15.9	0.00e+00	0	35	0	652214272	69	4708
2026-01-18 05:21:13.01	356.84	23.33	-48.4	-50.6	16.5	0.00e+00	0	35	0	658505728	68	4651
2026-01-18 05:21:16.03	356.00	23.30	-48.3	-50.5	16.7	0.00e+00	0	35	0	663748608	68	4581
2026-01-18 05:21:19.06	355.17	23.26	-48.5	-50.9	16.4	0.00e+00	0	35	0	668991488	68	4763
2026-01-18 05:21:22.08	354.34	23.21	-47.6	-49.5	17.6	0.00e+00	0	35	0	675282944	67	4311
2026-01-18 05:21:25.10	353.51	23.16	-47.7	-49.6	17.5	0.00e+00	0	36	0	680525824	66	4644
2026-01-18 05:21:28.13	352.68	23.10	-47.3	-49.1	17.9	0.00e+00	0	35	0	686817280	66	4372
2026-01-18 05:21:31.15	351.86	23.03	-47.1	-48.9	18.2	0.00e+00	0	35	0	692060160	65	4503
2026-01-18 05:21:34.17	351.04	22.96	-46.9	-48.6	18.5	0.00e+00	0	35	0	697303040	65	4357
2026-01-18 05:21:37.20	350.23	22.88	-47.3	-49.2	17.9	0.00e+00	0	35	0	703594496	65	4652
2026-01-18 05:21:40.22	349.42	22.80	-47.6	-49.5	17.6	0.00e+00	0	35	0	708837376	65	4830
2026-01-18 05:21:43.24	348.61	22.71	-47.2	-48.9	18.1	0.00e+00	0	35	0	715128832	66	4280
2026-01-18 05:21:46.27	347.81	22.61	-46.8	-48.4	18.7	0.00e+00	0	35	0	720371712	65	4272
2026-01-18 05:21:49.29	347.02	22.51	-47.5	-49.4	17.6	0.00e+00	0	35	0	725614592	65	4802
2026-01-18 05:21:52.32	346.22	22.40	-47.0	-48.7	18.3	0.00e+00	0	35	0	731906048	66	4160
2026-01-18 05:21:55.34	345.44	22.29	-46.7	-48.3	18.6	0.00e+00	0	35	0	737148928	65	4229
2026-01-18 05:21:58.36	344.66	22.18	-47.0	-48.8	18.2	0.00e+00	0	35	0	743440384	65	4459
2026-01-18 05:22:01.38	343.89	22.05	-47.6	-49.5	17.5	0.00e+00	0	35	0	748683264	65	4852
2026-01-18 05:22:04.41	343.12	21.93	-48.1	-50.3	16.8	0.00e+00	0	35	0	753926144	67	4740
2026-01-18 05:22:07.43	342.36	21.79	-47.6	-49.6	17.4	0.00e+00	0	35	0	760217600	67	4382
2026-01-18 05:22:10.45	341.61	21.66	-47.4	-49.3	17.7	0.00e+00	0	36	0	765460480	66	4471
2026-01-18 05:22:13.48	340.86	21.52	-47.3	-49.1	17.8	0.00e+00	0	36	0	771751936	66	4391
2026-01-18 05:22:16.50	340.12	21.37	-47.2	-49.1	17.9	0.00e+00	0	36	0	776994816	66	4362
2026-01-18 05:22:19.52	339.39	21.22	-47.1	-48.9	18.0	0.00e+00	0	35	0	782237696	65	4510
2026-01-18 05:22:22.55	338.66	21.07	-46.8	-48.5	18.4	0.00e+00	0	35	0	788529152	65	4336
2026-01-18 05:22:25.57	337.94	20.91	-46.5	-48.2	18.6	0.00e+00	0	35	0	793772032	65	4149
2026-01-18 05:22:28.59	337.23	20.75	-47.2	-49.0	17.9	0.00e+00	0	35	0	800063488	65	4597
2026-01-18 05:22:31.61	336.53	20.59	-47.2	-49.0	17.7	0.00e+00	0	35	0	805306368	65	4586
2026-01-18 05:22:34.64	335.83	20.42	-47.3	-49.2	17.7	0.00e+00	0	35	0	810549248	65	4690
2026-01-18 05:22:37.66	335.14	20.25	-48.1	-50.5	16.4	0.00e+00	0	35	0	816840704	66	5143
2026-01-18 05:22:40.69	334.46	20.07	-48.7	-51.4	15.7	0.00e+00	0	35	0	822083584	68	5066
2026-01-18 05:22:43.70	333.79	19.89	-47.6	-49.7	17.2	0.00e+00	0	35	0	828375040	66	4682
2026-01-18 05:22:46.73	333.13	19.71	-46.6	-48.4	18.5	0.00e+00	0	35	0	833617920	65	4274
2026-01-18 05:22:49.75	332.47	19.53	-46.1	-47.7	19.2	0.00e+00	0	35	0	838860800	63	4397
2026-01-18 05:22:52.77	331.82	19.34	-45.8	-47.3	19.6	0.00e+00	0	35	0	845152256	63	4227
2026-01-18 05:22:55.80	331.18	19.16	-45.7	-47.2	19.6	0.00e+00	0	35	0	850395136	63	4169
2026-01-18 05:22:58.82	330.55	18.97	-45.5	-46.9	19.9	0.00e+00	0	35	0	856686592	62	4266
2026-01-18 05:23:01.84	329.92	18.77	-45.6	-47.1	19.8	0.00e+00	0	35	0	861929472	62	4347
2026-01-18 05:23:04.86	329.31	18.58	-46.7	-48.5	18.4	0.00e+00	0	35	0	867172352	64	4546
2026-01-18 05:23:07.89	328.70	18.38	-47.5	-49.7	17.1	0.00e+00	0	35	0	873463808	65	4944
2026-01-18 05:23:10.91	328.10	18.19	-47.1	-49.1	17.7	0.00e+00	0	35	0	878706688	65	4635
2026-01-18 05:23:13.94	327.50	17.99	-46.3	-47.9	18.8	0.00e+00	0	35	0	884998144	64	4282
2026-01-18 05:23:16.96	326.92	17.78	-46.0	-47.6	19.2	0.00e+00	0	35	0	890241024	63	4366
2026-01-18 05:23:19.98	326.34	17.58	-45.8	-47.3	19.5	0.00e+00	0	35	0	895483904	63	4219
2026-01-18 05:23:23.01	325.77	17.38	-46.0	-47.6	19.2	0.00e+00	0	36	0	901775360	63	4361
2026-01-18 05:23:26.03	325.21	17.17	-46.9	-48.7	18.1	0.00e+00	0	35	0	907018240	64	4686
2026-01-18 05:23:29.06	324.66	16.97	-46.2	-47.8	18.9	0.00e+00	0	35	0	913309696	64	4216
2026-01-18 05:23:32.08	324.11	16.76	-46.3	-48.0	18.8	0.00e+00	0	35	0	918552576	64	4309
2026-01-18 05:23:35.10	323.57	16.55	-46.5	-48.2	18.5	0.00e+00	0	36	0	923795456	64	4425
2026-01-18 05:23:38.13	323.04	16.34	-46.3	-48.0	18.8	0.00e+00	0	35	0	930086912	64	4313
2026-01-18 05:23:41.15	322.52	16.13	-46.1	-47.7	19.1	0.00e+00	0	35	0	935329792	64	4150
2026-01-18 05:23:44.17	322.00	15.92	-45.7	-47.1	19.7	0.00e+00	0	35	0	941621248	63	4136
2026-01-18 05:23:47.20	321.49	15.71	-46.0	-47.5	19.3	0.00e+00	0	35	0	946864128	63	4324
2026-01-18 05:23:50.22	320.99	15.50	-45.9	-47.4	19.4	0.00e+00	0	35	0	953155584	63	4249
2026-01-18 05:23:53.24	320.50	15.29	-45.1	-46.4	20.3	0.00e+00	0	35	0	958398464	62	4047
2026-01-18 05:23:56.27	320.01	15.08	-45.0	-46.3	20.4	0.00e+00	0	35	0	963641344	61	4211
2026-01-18 05:23:59.30	319.53	14.87	-45.3	-46.7	20.1	0.00e+00	0	35	0	969932800	61	4399
2026-01-18 05:24:02.32	319.05	14.65	-45.8	-47.2	19.5	0.00e+00	0	35	0	975175680	62	4435
2026-01-18 05:24:05.35	318.59	14.44	-46.1	-47.6	19.2	0.00e+00	0	35	0	981467136	62	4632
2026-01-18 05:24:08.37	318.13	14.23	-45.7	-47.1	19.6	0.00e+00	0	35	0	986710016	62	4384
2026-01-18 05:24:11.39	317.67	14.02	-45.4	-46.8	19.9	0.00e+00	0	35	0	991952896	62	4218
2026-01-18 05:24:14.42	317.23	13.80	-45.7	-47.2	19.6	0.00e+00	0	35	0	998244352	62	4404
2026-01-18 05:24:17.44	316.79	13.59	-46.4	-48.1	18.7	0.00e+00	0	35	0	1003487232	63	4601
2026-01-18 05:24:20.46	316.35	13.38	-46.5	-48.2	18.6	0.00e+00	0	36	0	1009778688	63	4671
2026-01-18 05:24:23.48	315.93	13.17	-46.3	-47.9	18.9	0.00e+00	0	35	0	1015021568	63	4506
2026-01-18 05:24:26.51	315.50	12.96	-46.2	-47.8	18.9	0.00e+00	0	35	0	1021313024	63	4481
2026-01-18 05:24:29.53	315.09	12.75	-45.6	-47.0	19.7	0.00e+00	0	35	0	1026555904	63	4063
2026-01-18 05:24:32.55	314.68	12.54	-45.5	-46.9	19.8	0.00e+00	0	35	0	1031798784	62	4247
2026-01-18 05:24:35.58	314.28	12.33	-46.2	-47.9	18.9	0.00e+00	0	35	0	1038090240	63	4494
2026-01-18 05:24:38.60	313.88	12.12	-47.0	-48.9	17.8	0.00e+00	0	35	0	1043333120	64	4785
2026-01-18 05:24:41.63	313.49	11.91	-46.9	-48.7	18.0	0.00e+00	0	35	0	1049624576	65	4419
2026-01-18 05:24:44.65	313.10	11.70	-46.5	-48.2	18.5	0.00e+00	0	35	0	1054867456	64	4409
2026-01-18 05:24:47.68	312.72	11.49	-46.2	-47.8	18.8	0.00e+00	0	35	0	1060110336	64	4205
2026-01-18 05:24:50.70	312.35	11.28	-46.3	-47.9	18.7	0.00e+00	0	35	0	1066401792	64	4269
2026-01-18 05:24:53.72	311.98	11.07	-46.6	-48.4	18.3	0.00e+00	0	35	0	1071644672	64	4497
2026-01-18 05:24:56.75	311.61	10.87	-46.5	-48.2	18.4	0.00e+00	0	35	0	1077936128	64	4404
2026-01-18 05:24:59.77	311.25	10.66	-46.5	-48.2	18.3	0.00e+00	0	35	0	1083179008	64	4440
2026-01-18 05:25:02.79	310.90	10.45	-47.0	-48.9	17.7	0.00e+00	0	35	0	1088421888	64	4764
2026-01-18 05:25:05.82	310.55	10.25	-47.1	-49.1	17.5	0.00e+00	0	35	0	1094713344	64	4889
2026-01-18 05:25:08.84	310.21	10.04	-46.9	-48.8	17.7	0.00e+00	0	35	0	1099956224	64	4744
2026-01-18 05:25:11.86	309.87	9.84	-47.2	-49.2	17.4	0.00e+00	0	35	0	1106247680	65	4694
2026-01-18 05:25:14.89	309.53	9.64	-47.7	-50.0	16.6	0.00e+00	0	35	0	1111490560	66	4838
2026-01-18 05:25:17.91	309.21	9.44	-47.8	-50.0	16.5	0.00e+00	0	35	0	1116733440	66	4853
2026-01-18 05:25:20.94	308.88	9.23	-47.6	-49.8	16.8	0.00e+00	0	35	0	1123024896	66	4722
2026-01-18 05:25:23.96	308.56	9.03	-47.0	-48.9	17.6	0.00e+00	0	35	0	1128267776	66	4253
2026-01-18 05:25:26.99	308.24	8.83	-46.8	-48.6	17.9	0.00e+00	0	35	0	1134559232	65	4364
2026-01-18 05:25:30.01	307.93	8.63	-47.0	-49.0	17.5	0.00e+00	0	35	0	1139802112	65	4551
2026-01-18 05:25:33.03	307.63	8.44	-47.2	-49.2	17.3	0.00e+00	0	35	0	1145044992	65	4653
2026-01-18 05:25:36.06	307.32	8.24	-47.5	-49.6	16.9	0.00e+00	0	35	0	1151336448	65	4902
2026-01-18 05:25:39.08	307.03	8.04	-47.4	-49.4	17.0	0.00e+00	0	35	0	1156579328	65	4795
2026-01-18 05:25:42.10	306.73	7.84	-47.2	-49.2	17.2	0.00e+00	0	35	0	1162870784	65	4681
2026-01-18 05:25:45.13	306.44	7.65	-47.1	-49.0	17.4	0.00e+00	0	35	0	1168113664	65	4578
2026-01-18 05:25:48.15	306.16	7.45	-47.2	-49.2	17.2	0.00e+00	0	35	0	1173356544	65	4675
2026-01-18 05:25:51.17	305.87	7.26	-47.2	-49.3	17.0	0.00e+00	0	35	0	1179648000	65	4732
2026-01-18 05:25:54.20	305.59	7.07	-47.7	-50.0	16.4	0.00e+00	0	35	0	1184890880	65	5106
2026-01-18 05:25:57.22	305.32	6.88	-48.0	-50.4	16.0	0.00e+00	0	35	0	1191182336	66	5057
2026-01-18 05:26:00.24	305.05	6.68	-48.3	-50.9	15.4	0.00e+00	0	35	0	1196425216	67	5053
2026-01-18 05:26:03.27	304.78	6.49	-48.5	-51.3	15.0	0.00e+00	0	35	0	1201668096	67	5314
2026-01-18 05:26:06.29	304.52	6.30	-48.8	-51.7	14.7	7.00e-07	0	35	0	1207959552	68	5239
2026-01-18 05:26:09.31	304.26	6.11	-49.0	-52.1	14.2	7.00e-07	0	35	0	1213202432	68	5517
2026-01-18 05:26:12.34	304.00	5.93	-48.9	-51.9	14.4	0.00e+00	0	35	0	1219493888	68	5399
2026-01-18 05:26:15.36	303.75	5.74	-48.8	-51.7	14.6	7.00e-07	0	35	0	1224736768	68	5264
2026-01-18 05:26:18.39	303.50	5.55	-49.0	-52.1	14.3	7.00e-07	0	35	0	1229979648	68	5478
2026-01-18 05:26:21.41	303.25	5.37	-48.9	-51.9	14.3	1.50e-06	0	35	0	1236271104	68	5393
2026-01-18 05:26:24.43	303.01	5.18	-49.2	-52.6	13.7	4.50e-06	0	35	0	1241513984	69	5466
2026-01-18 05:26:27.46	302.77	5.00	-49.1	-52.4	13.9	2.20e-06	0	35	0	1247805440	69	5349
2026-01-18 05:26:30.48	302.53	4.81	-53.1	-68.1	3.8	1.49e+00	0	35	104	1248854016	76	21802
2026-01-18 05:26:33.50	302.30	4.63	-53.5	-68.5	3.8	1.49e+00	0	35	104	1248854016	77	21583
2026-01-18 05:26:36.53	302.07	4.45	-53.8	-68.8	3.8	1.49e+00	0	35	104	1248854016	78	21056
2026-01-18 05:26:39.55	301.84	4.27	-53.9	-69.0	3.8	1.49e+00	0	36	104	1248854016	78	21525
2026-01-18 05:26:42.58	301.61	4.09	-54.1	-69.1	3.8	1.49e+00	0	35	104	1248854016	78	21842
2026-01-18 05:26:45.60	301.39	3.91	-54.1	-69.2	3.8	1.49e+00	0	35	104	1248854016	78	22019
2026-01-18 05:26:48.62	301.17	3.73	-54.2	-69.2	3.8	1.49e+00	0	36	104	1248854016	78	22116
2026-01-18 05:26:51.65	300.96	3.55	-54.1	-69.2	3.8	1.49e+00	0	36	104	1248854016	78	22049
2026-01-18 05:26:54.67	300.74	3.37	-54.1	-69.1	3.8	1.49e+00	0	35	104	1248854016	78	21894
2026-01-18 05:26:57.69	300.53	3.20	-54.0	-69.0	3.8	1.49e+00	0	36	104	1248854016	78	21721
2026-01-18 05:27:00.72	300.32	3.02	-54.0	-69.0	3.8	1.49e+00	0	35	104	1248854016	78	21746
2026-01-18 05:27:03.74	300.12	2.85	-54.0	-69.0	3.8	1.49e+00	0	36	104	1248854016	78	21585
2026-01-18 05:27:06.77	299.91	2.67	-54.0	-69.0	3.8	1.49e+00	0	35	104	1248854016	78	21540
2026-01-18 05:27:09.79	299.71	2.50	-53.9	-69.0	3.8	1.49e+00	0	35	104	1248854016	78	21590
2026-01-18 05:27:12.82	299.52	2.33	-53.9	-69.0	3.8	1.49e+00	0	36	104	1248854016	78	21561
2026-01-18 05:27:15.84	299.32	2.15	-53.9	-69.0	3.8	1.49e+00	0	35	104	1248854016	78	21556
2026-01-18 05:27:18.86	299.13	1.98	-53.9	-69.0	3.8	1.49e+00	0	35	104	1248854016	78	21538

#Closed at: 2026-01-18 05:27:21
#Recorded file [1248 MB]: D:/lorett/data/31041_260118_081439.dat