passes_logs/2026/01/18/R3.2S_Murmansk/R3.2S_Murmansk__20260118_055114_AQUA_rec.log

#Pass ID: 20260118_055114_AQUA
#Satellite: AQUA
#Configuration: AQUA
#almurnet v.1.7.20251203
#Start time: 2026-01-18 05:51:16

#Version: 2.2.20231116
#Station: R3.2S_Murmansk
#Location: 33.079688 lon 68.888172 lat
#TLE: 1 27424U 02022A   26017.62394888  .00000781  00000+0  16630-3 0  9993
#TLE: 2 27424  98.4086 344.0954 0002010  75.0132 339.4723 14.61825944261279

#Time	Az	El	Level	Level2	SNR	BER	BlckErr	Temp	State	Recorded	gain1	gain2
2026-01-18 05:51:16.58	44.74	2.12	-53.3	-71.1	3.8	7.48e-01	0	34	0	0	78	27557
2026-01-18 05:51:19.61	44.51	2.30	-53.3	-71.0	3.8	7.46e-01	0	34	104	0	77	28797
2026-01-18 05:51:22.63	44.27	2.47	-53.3	-71.0	3.8	7.45e-01	0	34	104	0	77	28776
2026-01-18 05:51:25.66	44.03	2.65	-53.2	-70.8	3.8	7.44e-01	0	34	104	0	77	28245
2026-01-18 05:51:28.68	43.79	2.83	-53.3	-70.9	3.8	7.46e-01	0	34	104	0	77	28490
2026-01-18 05:51:31.70	43.54	3.00	-53.2	-70.9	3.8	7.43e-01	0	34	104	0	77	28625
2026-01-18 05:51:34.73	43.29	3.18	-53.3	-71.0	3.8	7.40e-01	0	34	104	0	77	28945
2026-01-18 05:51:37.75	43.04	3.36	-53.2	-71.0	3.8	7.46e-01	0	34	104	0	77	28962
2026-01-18 05:51:40.78	42.78	3.54	-53.3	-71.0	3.8	7.45e-01	0	34	104	0	77	28883
2026-01-18 05:51:43.80	42.52	3.72	-53.2	-70.9	3.8	7.43e-01	0	34	104	0	77	28559
2026-01-18 05:51:46.82	42.25	3.90	-53.2	-70.9	3.8	7.47e-01	0	34	104	0	77	28642
2026-01-18 05:51:49.85	41.99	4.09	-53.2	-71.0	3.8	7.46e-01	0	34	104	0	77	28838
2026-01-18 05:51:52.87	41.71	4.27	-53.0	-69.6	3.8	7.45e-01	0	34	104	0	77	24568
2026-01-18 05:51:55.90	41.44	4.45	-52.3	-67.2	3.9	7.43e-01	0	34	104	0	76	19766
2026-01-18 05:51:58.92	41.16	4.64	-51.8	-65.9	3.8	7.47e-01	0	35	104	0	75	18059
2026-01-18 05:52:01.95	40.87	4.82	-51.8	-65.9	3.8	7.42e-01	0	34	104	0	75	17922
2026-01-18 05:52:04.97	40.58	5.01	-52.4	-67.6	3.8	7.44e-01	0	35	104	0	75	21838
2026-01-18 05:52:08.00	40.29	5.20	-53.0	-69.9	3.8	7.43e-01	0	35	104	0	76	26893
2026-01-18 05:52:11.02	39.99	5.39	-49.5	-61.4	3.8	7.44e-01	0	35	104	0	71	13453
2026-01-18 05:52:14.04	39.69	5.57	-52.1	-66.4	3.8	7.48e-01	0	34	104	0	74	20191
2026-01-18 05:52:17.07	39.39	5.76	-49.1	-60.8	3.8	7.41e-01	0	35	104	0	70	13287
2026-01-18 05:52:20.09	39.08	5.95	-48.5	-60.1	3.8	7.44e-01	0	35	104	0	69	12960
2026-01-18 05:52:23.12	38.76	6.15	-50.6	-63.0	3.8	7.43e-01	0	35	104	0	71	16239
2026-01-18 05:52:26.14	38.44	6.34	-53.3	-69.5	3.8	7.45e-01	0	35	104	0	77	24224
2026-01-18 05:52:29.16	38.12	6.53	-48.8	-60.5	3.8	7.47e-01	0	35	104	0	69	13615
2026-01-18 05:52:32.18	37.79	6.72	-53.6	-71.2	3.8	7.44e-01	0	35	104	0	77	29642
2026-01-18 05:52:35.21	37.46	6.92	-49.4	-61.2	3.8	7.48e-01	0	35	104	0	70	14008
2026-01-18 05:52:38.24	37.12	7.11	-49.8	-61.9	3.8	7.41e-01	0	35	104	0	71	14250
2026-01-18 05:52:41.26	36.77	7.31	-48.8	-60.4	3.8	7.41e-01	0	35	104	0	69	13455
2026-01-18 05:52:44.28	36.42	7.51	-48.3	-59.7	3.8	7.44e-01	0	35	104	0	68	13256
2026-01-18 05:52:47.30	36.07	7.70	-51.5	-64.4	3.8	7.48e-01	0	35	104	0	73	17080
2026-01-18 05:52:50.33	35.71	7.90	-52.9	-67.7	3.9	7.43e-01	0	35	104	0	77	19746
2026-01-18 05:52:53.35	35.34	8.10	-48.7	-60.2	3.8	7.44e-01	0	35	104	0	67	14767
2026-01-18 05:52:56.38	34.97	8.30	-53.7	-70.6	3.8	7.45e-01	0	35	104	0	78	25921
2026-01-18 05:52:59.40	34.59	8.50	-49.2	-60.8	3.8	7.46e-01	0	35	104	0	70	13388
2026-01-18 05:53:02.42	34.21	8.70	-48.0	-59.4	3.8	7.44e-01	0	35	104	0	68	12697
2026-01-18 05:53:05.45	33.82	8.90	-49.0	-60.5	3.8	7.44e-01	0	35	104	0	69	13671
2026-01-18 05:53:08.47	33.43	9.10	-48.0	-59.3	3.8	7.47e-01	0	35	104	0	67	13272
2026-01-18 05:53:11.49	33.03	9.30	-52.5	-66.4	3.8	7.47e-01	0	35	104	0	75	19024
2026-01-18 05:53:14.52	32.62	9.51	-51.1	-63.8	3.9	7.46e-01	0	35	104	0	74	14944
2026-01-18 05:53:17.54	32.21	9.71	-48.4	-59.7	3.8	7.43e-01	0	35	104	0	68	13233
2026-01-18 05:53:20.56	31.79	9.91	-52.1	-65.6	3.9	7.46e-01	0	35	104	0	76	16443
2026-01-18 05:53:23.58	31.36	10.12	-48.5	-59.9	3.8	7.43e-01	0	35	104	0	69	12715
2026-01-18 05:53:26.61	30.93	10.32	-47.7	-58.9	3.8	7.46e-01	0	35	104	0	67	12689
2026-01-18 05:53:29.63	30.49	10.53	-50.7	-62.9	3.8	7.47e-01	0	35	104	0	71	15944
2026-01-18 05:53:32.66	30.04	10.73	-47.6	-58.7	3.8	7.43e-01	0	35	104	0	67	12507
2026-01-18 05:53:35.68	29.59	10.94	-53.8	-70.1	3.8	7.45e-01	0	35	104	0	78	24531
2026-01-18 05:53:38.70	29.13	11.14	-48.8	-60.3	3.8	7.45e-01	0	35	104	0	69	13303
2026-01-18 05:53:41.72	28.66	11.35	-48.8	-60.4	3.8	7.47e-01	0	35	104	0	68	14271
2026-01-18 05:53:44.75	28.18	11.56	-49.8	-61.6	3.8	7.42e-01	0	35	104	0	71	13831
2026-01-18 05:53:47.77	27.70	11.76	-48.1	-59.4	3.8	7.47e-01	0	35	104	0	68	12678
2026-01-18 05:53:50.80	27.21	11.97	-48.6	-60.1	3.8	7.46e-01	0	35	104	0	69	12998
2026-01-18 05:53:53.82	26.71	12.17	-52.4	-65.9	3.8	7.45e-01	0	35	104	0	75	17955
2026-01-18 05:53:56.84	26.21	12.38	-47.5	-58.7	3.8	7.43e-01	0	35	104	0	67	12488
2026-01-18 05:53:59.87	25.70	12.59	-54.2	-71.1	3.8	7.49e-01	0	35	104	0	78	27456
2026-01-18 05:54:02.89	25.18	12.79	-48.2	-59.5	3.9	7.43e-01	0	35	104	0	68	12890
2026-01-18 05:54:05.91	24.65	13.00	-50.8	-63.0	3.8	7.41e-01	0	35	104	0	72	15326
2026-01-18 05:54:08.94	24.11	13.20	-48.6	-60.0	3.8	7.47e-01	0	35	104	0	69	12826
2026-01-18 05:54:11.96	23.57	13.41	-47.5	-58.7	3.8	7.43e-01	0	35	104	0	67	12392
2026-01-18 05:54:14.98	23.01	13.61	-48.2	-59.5	3.8	7.47e-01	0	35	104	0	66	14427
2026-01-18 05:54:18.01	22.45	13.81	-53.2	-67.7	3.8	7.45e-01	0	35	104	0	76	20871
2026-01-18 05:54:21.03	21.88	14.01	-46.6	-57.6	3.9	7.43e-01	0	35	104	0	65	12270
2026-01-18 05:54:24.05	21.30	14.22	-54.4	-72.0	3.8	7.46e-01	0	35	104	0	79	28877
2026-01-18 05:54:27.07	20.72	14.42	-47.9	-59.0	3.8	7.46e-01	0	35	104	0	67	12931
2026-01-18 05:54:30.10	20.12	14.62	-50.2	-62.2	3.8	7.42e-01	0	35	104	0	72	13948
2026-01-18 05:54:33.13	19.51	14.81	-48.0	-59.2	3.8	7.43e-01	0	35	104	0	68	12396
2026-01-18 05:54:36.15	18.90	15.01	-47.5	-58.6	3.8	7.44e-01	0	35	104	0	66	13068
2026-01-18 05:54:39.17	18.28	15.21	-48.5	-59.8	3.8	7.44e-01	0	35	104	0	67	14116
2026-01-18 05:54:42.20	17.65	15.40	-52.9	-66.9	3.8	7.43e-01	0	35	104	0	76	19019
2026-01-18 05:54:45.22	17.01	15.59	-46.5	-57.5	3.8	7.45e-01	0	35	104	0	65	12163
2026-01-18 05:54:48.24	16.36	15.78	-54.2	-70.9	3.9	7.41e-01	0	35	104	0	79	25466
2026-01-18 05:54:51.27	15.70	15.97	-48.1	-59.3	3.8	7.44e-01	0	35	104	0	68	12540
2026-01-18 05:54:54.28	15.04	16.16	-47.9	-59.1	3.9	7.45e-01	0	35	104	0	67	12988
2026-01-18 05:54:57.31	14.36	16.34	-47.6	-58.7	3.8	7.44e-01	0	35	104	0	67	12450
2026-01-18 05:55:00.33	13.68	16.52	-47.2	-58.2	3.8	7.44e-01	0	35	104	0	66	12437
2026-01-18 05:55:03.36	12.99	16.70	-50.1	-61.8	3.8	7.45e-01	0	35	104	0	70	15010
2026-01-18 05:55:06.38	12.28	16.88	-51.2	-63.7	3.8	7.47e-01	0	35	104	0	74	14752
2026-01-18 05:55:09.41	11.57	17.05	-48.0	-59.1	3.8	7.45e-01	0	35	104	0	67	13033
2026-01-18 05:55:12.43	10.85	17.22	-52.6	-66.2	3.9	7.43e-01	0	35	104	0	77	16510
2026-01-18 05:55:15.46	10.12	17.39	-47.9	-59.1	3.8	7.44e-01	0	35	104	0	67	13063
2026-01-18 05:55:18.48	9.39	17.55	-46.5	-57.4	3.8	7.44e-01	0	35	104	0	65	12052
2026-01-18 05:55:21.51	8.64	17.71	-48.0	-59.2	3.8	7.44e-01	0	35	104	0	66	13951
2026-01-18 05:55:24.52	7.89	17.87	-47.6	-58.7	3.8	7.41e-01	0	35	104	0	67	12491
2026-01-18 05:55:27.54	7.13	18.02	-52.1	-64.9	3.8	7.42e-01	0	35	104	0	74	16897
2026-01-18 05:55:30.57	6.36	18.17	-49.4	-60.7	3.8	7.41e-01	0	35	104	0	70	13189
2026-01-18 05:55:33.60	5.58	18.31	-48.3	-59.8	3.8	7.44e-01	0	35	104	0	67	14100
2026-01-18 05:55:36.62	4.79	18.45	-50.1	-61.9	3.9	7.45e-01	0	35	104	0	72	13485
2026-01-18 05:55:39.64	4.00	18.59	-47.4	-58.1	3.8	7.45e-01	0	35	104	0	66	12347
2026-01-18 05:55:42.67	3.20	18.72	-47.1	-58.2	3.8	7.44e-01	0	35	104	0	66	12483
2026-01-18 05:55:45.69	2.39	18.84	-50.3	-61.7	3.8	7.47e-01	0	35	104	0	70	14876
2026-01-18 05:55:48.71	1.58	18.97	-47.3	-58.4	3.8	7.43e-01	0	35	104	0	66	12767
2026-01-18 05:55:51.74	0.75	19.08	-53.6	-68.3	3.8	7.45e-01	0	35	104	0	77	21143
2026-01-18 05:55:54.76	359.93	19.19	-47.8	-58.9	3.8	7.47e-01	0	35	104	0	67	12786
2026-01-18 05:55:57.78	359.09	19.30	-51.4	-63.9	3.8	7.45e-01	0	35	104	0	73	16055
2026-01-18 05:56:00.80	358.25	19.39	-49.1	-60.6	3.8	7.46e-01	0	35	104	0	70	12985
2026-01-18 05:56:03.82	357.41	19.49	-47.1	-58.1	3.8	7.41e-01	0	35	104	0	66	12365
2026-01-18 05:56:06.84	356.56	19.57	-46.9	-57.9	3.8	7.43e-01	0	35	104	0	65	12791
2026-01-18 05:56:09.87	355.70	19.66	-50.5	-62.5	3.8	7.45e-01	0	35	104	0	71	15245
2026-01-18 05:56:12.89	354.84	19.73	-46.6	-57.5	3.8	7.44e-01	0	35	104	0	65	12159
2026-01-18 05:56:15.91	353.97	19.80	-54.3	-70.7	3.7	7.46e-01	0	35	104	0	79	24762
2026-01-18 05:56:18.94	353.10	19.86	-47.2	-58.2	3.8	7.45e-01	0	35	104	0	66	12435
2026-01-18 05:56:21.96	352.23	19.92	-50.8	-63.0	3.8	7.43e-01	0	35	104	0	72	15242
2026-01-18 05:56:24.99	351.35	19.97	-48.9	-60.1	3.8	7.43e-01	0	35	104	0	69	13077
2026-01-18 05:56:28.01	350.47	20.01	-46.8	-57.8	3.8	7.41e-01	0	35	104	0	65	12651
2026-01-18 05:56:31.03	349.59	20.05	-46.8	-57.8	3.8	7.45e-01	0	35	104	0	65	12573
2026-01-18 05:56:34.06	348.71	20.07	-51.5	-64.0	3.8	7.46e-01	0	35	104	0	73	16306
2026-01-18 05:56:37.08	347.82	20.10	-47.0	-57.9	3.8	7.45e-01	0	35	104	0	65	12800
2026-01-18 05:56:40.11	346.94	20.11	-54.1	-69.9	3.8	7.42e-01	0	35	104	0	79	22733
2026-01-18 05:56:43.13	346.05	20.12	-46.9	-57.9	3.8	7.42e-01	0	35	104	0	65	12688
2026-01-18 05:56:46.15	345.16	20.12	-50.6	-62.7	3.8	7.45e-01	0	35	104	0	73	13915
2026-01-18 05:56:49.18	344.27	20.12	-48.5	-59.8	3.8	7.44e-01	0	35	104	0	69	12555
2026-01-18 05:56:52.20	343.39	20.10	-46.6	-57.6	3.8	7.43e-01	0	35	104	0	65	12250
2026-01-18 05:56:55.22	342.50	20.08	-47.7	-58.8	3.8	7.47e-01	0	36	104	0	65	14184
2026-01-18 05:56:58.25	341.62	20.06	-50.6	-62.6	3.8	7.40e-01	0	35	104	0	72	14697
2026-01-18 05:57:01.27	340.74	20.03	-46.4	-57.3	3.8	7.46e-01	0	35	104	0	64	12601
2026-01-18 05:57:04.29	339.86	19.99	-52.7	-66.2	3.9	7.43e-01	0	35	104	0	77	16627
2026-01-18 05:57:07.32	338.98	19.94	-46.9	-57.9	3.8	7.45e-01	0	35	104	0	65	12764
2026-01-18 05:57:10.34	338.10	19.89	-49.1	-60.6	3.9	7.43e-01	0	35	104	0	70	12994
2026-01-18 05:57:13.36	337.23	19.83	-47.1	-58.2	3.8	7.41e-01	0	35	104	0	66	12495
2026-01-18 05:57:16.39	336.36	19.76	-46.5	-57.5	3.8	7.45e-01	0	35	104	0	65	12201
2026-01-18 05:57:19.41	335.50	19.69	-50.3	-61.8	3.8	7.46e-01	0	35	104	0	70	15023
2026-01-18 05:57:22.43	334.64	19.61	-48.3	-59.6	3.8	7.42e-01	0	35	104	0	68	13045
2026-01-18 05:57:25.46	333.79	19.53	-46.4	-57.3	3.8	7.43e-01	0	35	104	0	64	12646
2026-01-18 05:57:28.49	332.94	19.43	-50.2	-62.2	3.9	7.40e-01	0	35	104	0	72	13889
2026-01-18 05:57:31.51	332.09	19.34	-46.3	-57.4	3.8	7.46e-01	0	35	104	0	64	12721
2026-01-18 05:57:34.54	331.26	19.24	-46.9	-57.7	3.8	7.43e-01	0	35	104	0	65	12507
2026-01-18 05:57:37.56	330.42	19.13	-46.5	-57.3	3.8	7.44e-01	0	35	104	0	64	12605
2026-01-18 05:57:40.59	329.60	19.01	-46.5	-57.3	3.8	7.39e-01	0	35	104	0	64	12522
2026-01-18 05:57:43.61	328.78	18.90	-51.9	-64.2	3.8	7.46e-01	0	35	104	0	74	15733
2026-01-18 05:57:46.64	327.97	18.77	-46.8	-57.3	3.8	7.48e-01	0	35	104	0	65	11834
2026-01-18 05:57:49.66	327.16	18.64	-48.4	-59.4	3.8	7.45e-01	0	35	104	0	67	13532
2026-01-18 05:57:52.69	326.36	18.51	-49.3	-60.1	3.8	7.45e-01	0	35	104	0	70	12350
2026-01-18 05:57:55.71	325.58	18.37	-46.3	-56.6	3.8	7.45e-01	0	35	104	0	64	11621
2026-01-18 05:57:58.73	324.80	18.23	-46.2	-57.5	3.8	7.46e-01	0	35	104	0	64	12926
2026-01-18 05:58:01.76	324.02	18.08	-48.0	-60.1	3.8	7.44e-01	0	35	104	0	66	15487
2026-01-18 05:58:04.78	323.25	17.93	-46.3	-57.5	3.8	7.45e-01	0	35	104	0	64	12869
2026-01-18 05:58:07.80	322.50	17.78	-53.0	-66.8	3.7	7.49e-01	0	35	104	0	76	18738
2026-01-18 05:58:10.83	321.75	17.62	-46.1	-47.5	24.0	6.04e-01	0	35	0	2621440	64	4067
2026-01-18 05:58:13.85	321.01	17.45	-46.1	-47.5	24.0	6.04e-01	0	35	0	7864320	62	4565
2026-01-18 05:58:16.87	320.28	17.29	-46.0	-47.4	24.2	6.04e-01	0	35	0	13631488	62	4513
2026-01-18 05:58:19.90	319.55	17.12	-45.9	-47.3	24.4	6.02e-01	0	35	0	19398656	63	4213
2026-01-18 05:58:22.92	318.84	16.95	-45.7	-47.0	24.7	6.05e-01	0	35	0	25165824	63	4072
2026-01-18 05:58:25.94	318.13	16.77	-45.6	-46.9	24.7	6.02e-01	0	35	0	30932992	62	4277
2026-01-18 05:58:28.97	317.43	16.59	-45.4	-46.6	24.9	6.02e-01	0	35	0	36175872	62	4145
2026-01-18 05:58:31.99	316.75	16.41	-45.7	-47.0	24.6	6.05e-01	0	35	0	41943040	62	4324
2026-01-18 05:58:35.02	316.06	16.23	-46.0	-47.4	24.1	6.03e-01	0	35	0	47710208	62	4510
2026-01-18 05:58:38.04	315.39	16.05	-45.7	-47.0	24.4	6.05e-01	0	35	0	53477376	62	4332
2026-01-18 05:58:41.07	314.73	15.86	-45.4	-46.6	24.7	6.00e-01	0	35	0	59244544	62	4119
2026-01-18 05:58:44.09	314.08	15.67	-45.9	-47.3	24.2	6.01e-01	0	35	0	65011712	62	4480
2026-01-18 05:58:47.11	313.44	15.48	-45.6	-46.9	24.6	6.04e-01	0	35	0	70254592	62	4283
2026-01-18 05:58:50.14	312.80	15.28	-45.9	-47.2	24.2	6.03e-01	0	35	0	76021760	63	4170
2026-01-18 05:58:53.16	312.17	15.09	-46.1	-47.5	24.0	6.02e-01	0	35	0	81788928	62	4579
2026-01-18 05:58:56.18	311.56	14.89	-46.0	-47.3	24.1	6.04e-01	0	35	0	87556096	62	4490
2026-01-18 05:58:59.20	310.95	14.70	-45.8	-47.2	24.4	6.01e-01	0	35	0	93323264	62	4395
2026-01-18 05:59:02.23	310.35	14.50	-45.6	-46.9	24.6	6.03e-01	0	35	0	98566144	62	4267
2026-01-18 05:59:05.25	309.76	14.30	-45.6	-46.9	24.6	6.00e-01	0	35	0	104333312	62	4267
2026-01-18 05:59:08.27	309.18	14.10	-46.0	-47.4	24.2	6.02e-01	0	35	0	110100480	62	4505
2026-01-18 05:59:11.30	308.60	13.89	-46.0	-47.4	24.1	6.03e-01	0	35	0	115867648	62	4527
2026-01-18 05:59:14.32	308.04	13.69	-45.8	-47.2	24.3	6.03e-01	0	35	0	121634816	63	4149
2026-01-18 05:59:17.35	307.48	13.49	-45.8	-47.2	24.3	6.04e-01	0	35	0	126877696	63	4155
2026-01-18 05:59:20.37	306.93	13.28	-45.8	-47.1	24.3	6.05e-01	0	35	0	132644864	63	4125
2026-01-18 05:59:23.39	306.39	13.08	-45.8	-47.1	24.3	6.02e-01	0	35	0	138412032	63	4142
2026-01-18 05:59:26.42	305.85	12.87	-45.6	-46.9	24.6	6.03e-01	0	35	0	144179200	63	4035
2026-01-18 05:59:29.44	305.33	12.67	-45.9	-47.3	24.1	6.02e-01	0	35	0	149946368	63	4195
2026-01-18 05:59:32.46	304.81	12.46	-46.0	-47.3	24.0	6.05e-01	0	35	0	155189248	63	4228
2026-01-18 05:59:35.49	304.30	12.25	-46.5	-48.0	23.5	6.03e-01	0	35	0	161480704	63	4549
2026-01-18 05:59:38.51	303.80	12.05	-46.8	-48.3	23.1	6.04e-01	0	35	0	166723584	64	4490
2026-01-18 05:59:41.53	303.31	11.84	-46.7	-48.2	23.4	6.01e-01	0	35	0	172490752	63	4672
2026-01-18 05:59:44.56	302.82	11.64	-46.3	-47.8	23.6	6.04e-01	0	35	0	178257920	63	4471
2026-01-18 05:59:47.58	302.34	11.43	-46.0	-47.3	24.1	6.05e-01	0	35	0	184025088	63	4218
2026-01-18 05:59:50.60	301.87	11.22	-46.2	-47.6	23.8	6.03e-01	0	35	0	189792256	63	4347
2026-01-18 05:59:53.62	301.41	11.02	-46.5	-48.0	23.2	6.07e-01	0	35	0	195035136	64	4295
2026-01-18 05:59:56.65	300.95	10.81	-46.6	-48.2	23.2	6.02e-01	0	35	0	200802304	64	4420
2026-01-18 05:59:59.67	300.50	10.61	-46.1	-47.5	23.8	6.05e-01	0	35	0	206569472	64	4085
2026-01-18 06:00:02.70	300.06	10.40	-46.6	-48.1	23.1	6.03e-01	0	35	0	212336640	64	4353
2026-01-18 06:00:05.72	299.62	10.20	-47.1	-48.7	22.6	6.03e-01	0	35	0	218103808	64	4675
2026-01-18 06:00:08.75	299.19	9.99	-46.3	-47.8	23.5	6.04e-01	0	35	0	223346688	64	4205
2026-01-18 06:00:11.77	298.77	9.79	-46.8	-48.4	22.8	6.03e-01	0	35	0	229113856	64	4532
2026-01-18 06:00:14.79	298.35	9.58	-46.4	-47.9	23.3	6.02e-01	0	35	0	234881024	64	4258
2026-01-18 06:00:17.82	297.94	9.38	-46.5	-48.1	23.0	6.01e-01	0	35	0	240648192	64	4343
2026-01-18 06:00:20.84	297.54	9.18	-46.6	-48.1	23.1	6.05e-01	0	35	0	246415360	64	4378
2026-01-18 06:00:23.87	297.14	8.98	-46.8	-48.4	22.8	6.02e-01	0	35	0	251658240	64	4521
2026-01-18 06:00:26.89	296.75	8.77	-46.7	-48.3	23.0	6.04e-01	0	35	0	257425408	64	4454
2026-01-18 06:00:29.91	296.36	8.57	-46.9	-48.6	22.6	6.02e-01	0	35	0	263192576	64	4600
2026-01-18 06:00:32.94	295.98	8.37	-46.5	-48.0	23.2	6.03e-01	0	35	0	268959744	64	4330
2026-01-18 06:00:35.96	295.61	8.17	-46.9	-48.5	22.7	6.02e-01	0	35	0	274726912	64	4591
2026-01-18 06:00:38.98	295.24	7.97	-46.9	-48.5	22.7	6.03e-01	0	35	0	280494080	64	4567
2026-01-18 06:00:42.00	294.88	7.78	-46.8	-48.4	22.8	6.04e-01	0	35	0	285736960	64	4537
2026-01-18 06:00:45.03	294.52	7.58	-46.9	-48.5	22.7	6.02e-01	0	35	0	291504128	64	4555
2026-01-18 06:00:48.05	294.16	7.38	-46.8	-48.3	22.8	6.03e-01	0	35	0	297271296	64	4482
2026-01-18 06:00:51.08	293.82	7.18	-47.0	-48.7	22.5	6.02e-01	0	35	0	303038464	64	4652
2026-01-18 06:00:54.10	293.48	6.99	-47.3	-49.0	22.2	6.04e-01	0	35	0	308805632	65	4582
2026-01-18 06:00:57.12	293.14	6.79	-47.1	-48.7	22.4	6.05e-01	0	35	0	314048512	65	4438
2026-01-18 06:01:00.15	292.81	6.60	-47.0	-48.7	22.5	6.05e-01	0	35	0	319815680	65	4398
2026-01-18 06:01:03.17	292.48	6.41	-47.1	-48.8	22.3	6.03e-01	0	35	0	325582848	65	4471
2026-01-18 06:01:06.19	292.16	6.22	-47.2	-48.8	22.3	6.03e-01	0	35	0	331350016	65	4491
2026-01-18 06:01:09.21	291.84	6.02	-47.4	-49.2	21.9	6.05e-01	0	35	0	337117184	65	4685
2026-01-18 06:01:12.24	291.53	5.83	-47.5	-49.2	21.9	6.05e-01	0	35	0	342360064	65	4690
2026-01-18 06:01:15.26	291.22	5.64	-47.5	-49.3	21.8	6.01e-01	0	35	0	348127232	66	4470
2026-01-18 06:01:18.29	290.92	5.45	-47.5	-49.2	21.9	6.05e-01	0	35	0	353894400	66	4424
2026-01-18 06:01:21.31	290.62	5.27	-47.8	-49.7	21.3	6.03e-01	0	35	0	359661568	66	4698
2026-01-18 06:01:24.33	290.32	5.08	-48.1	-50.0	21.1	6.05e-01	0	35	0	365428736	66	4849
2026-01-18 06:01:27.36	290.03	4.89	-54.7	-72.5	3.8	7.44e-01	0	35	104	368050176	79	30442
2026-01-18 06:01:30.38	289.74	4.70	-55.0	-72.7	3.8	7.47e-01	0	35	104	368050176	80	29352
2026-01-18 06:01:33.40	289.46	4.52	-55.2	-73.0	3.8	7.44e-01	0	35	104	368050176	80	30382
2026-01-18 06:01:36.42	289.18	4.34	-55.3	-73.1	3.8	7.44e-01	0	35	104	368050176	81	29213
2026-01-18 06:01:39.45	288.91	4.15	-55.4	-73.2	3.8	7.44e-01	0	35	104	368050176	81	29460
2026-01-18 06:01:42.48	288.64	3.97	-55.4	-73.3	3.8	7.46e-01	0	35	104	368050176	81	29715
2026-01-18 06:01:45.50	288.37	3.79	-55.5	-73.3	3.8	7.45e-01	0	35	104	368050176	81	29862
2026-01-18 06:01:48.53	288.11	3.60	-55.5	-73.3	3.8	7.43e-01	0	35	104	368050176	81	29987
2026-01-18 06:01:51.55	287.85	3.42	-55.5	-73.4	3.8	7.44e-01	0	36	104	368050176	81	30059
2026-01-18 06:01:54.57	287.59	3.25	-55.5	-73.3	3.8	7.43e-01	0	35	104	368050176	81	29944
2026-01-18 06:01:57.60	287.34	3.07	-55.5	-73.3	3.8	7.43e-01	0	35	104	368050176	81	29841
2026-01-18 06:02:00.62	287.09	2.89	-55.4	-73.2	3.8	7.43e-01	0	35	104	368050176	81	29601
2026-01-18 06:02:03.64	286.84	2.71	-55.4	-73.3	3.8	7.45e-01	0	36	104	368050176	81	29754
2026-01-18 06:02:06.67	286.60	2.53	-55.4	-73.3	3.8	7.48e-01	0	36	104	368050176	81	29709
2026-01-18 06:02:09.69	286.36	2.36	-55.4	-73.2	3.8	7.44e-01	0	35	104	368050176	81	29636
2026-01-18 06:02:12.71	286.13	2.18	-55.4	-73.2	3.8	7.44e-01	0	35	104	368050176	81	29581
2026-01-18 06:02:15.74	285.90	2.01	-55.4	-73.2	3.8	7.44e-01	0	35	104	368050176	81	29505

#Closed at: 2026-01-18 06:02:18
#Recorded file [368 MB]: D:/lorett/data/31041_260118_085116.dat