passes_logs/2026/01/18/R3.2S_Murmansk/R3.2S_Murmansk__20260118_125144_FENGYUN_3D_rec.log

#Pass ID: 20260118_125144_FENGYUN 3D
#Satellite: FENGYUN 3D
#Configuration: FENGYUN 3D
#almurnet v.1.7.20251203
#Start time: 2026-01-18 12:51:43

#Version: 2.2.20231116
#Station: R3.2S_Murmansk
#Location: 33.079688 lon 68.888172 lat
#TLE: 1 43010U 17072A   26017.61121112  .00000213  00000+0  12257-3 0  9991
#TLE: 2 43010  98.9934 349.4672 0002374 103.9362 256.2078 14.19696413423628

#Time	Az	El	Level	Level2	SNR	BER	BlckErr	Temp	State	Recorded	gain1	gain2
2026-01-18 12:51:43.73	183.35	1.98	-52.1	-63.7	3.8	8.46e-01	0	34	0	0	76	13161
2026-01-18 12:51:47.76	183.51	2.23	-52.1	-63.9	3.8	8.46e-01	0	34	104	0	74	15074
2026-01-18 12:51:51.79	183.68	2.48	-52.1	-63.6	3.8	8.46e-01	0	34	104	0	74	14695
2026-01-18 12:51:55.82	183.84	2.73	-52.0	-63.8	3.8	8.47e-01	0	34	104	0	74	14967
2026-01-18 12:51:59.85	184.01	2.98	-52.0	-63.6	3.8	8.46e-01	0	34	104	0	74	14596
2026-01-18 12:52:03.88	184.18	3.24	-52.1	-63.7	3.8	8.46e-01	0	35	104	0	74	14806
2026-01-18 12:52:07.91	184.36	3.50	-52.0	-62.8	3.8	8.47e-01	0	34	104	0	74	13307
2026-01-18 12:52:11.94	184.54	3.76	-51.1	-57.3	5.7	6.48e-01	0	35	0	1048576	74	7051
2026-01-18 12:52:15.97	184.72	4.03	-49.7	-53.5	9.3	2.16e-02	0	35	0	23068672	71	5403
2026-01-18 12:52:20.00	184.90	4.29	-47.4	-49.6	13.2	6.40e-05	0	35	0	46137344	66	4646
2026-01-18 12:52:24.03	185.09	4.56	-44.8	-46.2	16.9	0.00e+00	0	35	0	69206016	61	4156
2026-01-18 12:52:28.06	185.28	4.83	-44.3	-45.6	17.7	0.00e+00	0	35	0	91226112	59	4364
2026-01-18 12:52:32.10	185.47	5.11	-44.2	-45.5	17.9	0.00e+00	0	35	0	113246208	59	4293
2026-01-18 12:52:36.13	185.67	5.38	-46.4	-48.1	15.0	0.00e+00	0	35	0	136314880	63	4637
2026-01-18 12:52:40.16	185.86	5.66	-43.8	-45.0	18.4	0.00e+00	0	35	0	159383552	59	4069
2026-01-18 12:52:44.20	186.07	5.95	-43.7	-44.8	18.7	0.00e+00	0	35	0	181403648	59	3988
2026-01-18 12:52:48.23	186.28	6.23	-43.8	-45.0	18.6	0.00e+00	0	35	0	204472320	59	4070
2026-01-18 12:52:52.26	186.49	6.52	-43.8	-45.0	18.6	0.00e+00	0	35	0	227540992	59	4058
2026-01-18 12:52:56.30	186.70	6.81	-43.8	-45.0	18.6	0.00e+00	0	35	0	249561088	59	4066
2026-01-18 12:53:00.33	186.92	7.10	-43.5	-44.6	19.0	0.00e+00	0	35	0	272629760	59	3893
2026-01-18 12:53:04.36	187.14	7.40	-43.7	-44.8	18.9	0.00e+00	0	35	0	295698432	59	3983
2026-01-18 12:53:08.39	187.37	7.70	-43.5	-44.6	19.1	0.00e+00	0	35	0	317718528	58	4119
2026-01-18 12:53:12.42	187.60	8.00	-43.7	-44.8	18.9	0.00e+00	0	35	0	340787200	58	4242
2026-01-18 12:53:16.46	187.84	8.31	-43.2	-44.3	19.5	0.00e+00	0	35	0	363855872	58	3976
2026-01-18 12:53:20.49	188.08	8.62	-43.2	-44.2	19.6	0.00e+00	0	35	0	385875968	58	3949
2026-01-18 12:53:24.52	188.33	8.93	-42.8	-43.8	20.0	0.00e+00	0	36	0	408944640	57	3969
2026-01-18 12:53:28.55	188.58	9.25	-42.7	-43.7	20.1	0.00e+00	0	35	0	432013312	57	3937
2026-01-18 12:53:32.58	188.83	9.57	-42.7	-43.7	20.1	0.00e+00	0	36	0	454033408	57	3947
2026-01-18 12:53:36.61	189.09	9.89	-42.6	-43.6	20.2	0.00e+00	0	35	0	476053504	57	3906
2026-01-18 12:53:40.64	189.36	10.22	-42.7	-43.7	20.2	0.00e+00	0	36	0	499122176	57	3921
2026-01-18 12:53:44.68	189.64	10.55	-42.4	-43.4	20.5	0.00e+00	0	35	0	522190848	56	4011
2026-01-18 12:53:48.71	189.91	10.89	-42.4	-43.4	20.5	0.00e+00	0	36	0	544210944	56	4020
2026-01-18 12:53:52.74	190.20	11.23	-42.1	-43.1	20.8	0.00e+00	0	36	0	567279616	56	3885
2026-01-18 12:53:56.77	190.49	11.57	-42.2	-43.2	20.8	0.00e+00	0	35	0	590348288	56	3920
2026-01-18 12:54:00.80	190.79	11.92	-42.4	-43.4	20.6	0.00e+00	0	36	0	612368384	56	4005
2026-01-18 12:54:04.83	191.09	12.28	-42.4	-43.4	20.6	0.00e+00	0	36	0	635437056	56	4021
2026-01-18 12:54:08.86	191.40	12.63	-42.3	-43.3	20.7	0.00e+00	0	36	0	658505728	56	3968
2026-01-18 12:54:12.90	191.72	12.99	-41.9	-42.8	21.1	0.00e+00	0	36	0	680525824	55	3977
2026-01-18 12:54:16.93	192.05	13.36	-41.7	-42.6	21.3	0.00e+00	0	35	0	703594496	55	3904
2026-01-18 12:54:20.96	192.38	13.73	-41.6	-42.5	21.4	0.00e+00	0	36	0	726663168	55	3832
2026-01-18 12:54:24.99	192.73	14.11	-41.5	-42.4	21.5	0.00e+00	0	36	0	748683264	55	3813
2026-01-18 12:54:29.03	193.08	14.49	-41.4	-42.3	21.6	0.00e+00	0	36	0	771751936	54	3964
2026-01-18 12:54:33.06	193.44	14.88	-41.1	-42.0	21.9	0.00e+00	0	36	0	794820608	54	3853
2026-01-18 12:54:37.09	193.80	15.27	-41.2	-42.1	21.9	0.00e+00	0	36	0	816840704	54	3872
2026-01-18 12:54:41.12	194.18	15.66	-41.0	-41.9	22.0	0.00e+00	0	36	0	839909376	54	3799
2026-01-18 12:54:45.16	194.57	16.07	-41.0	-41.9	22.1	0.00e+00	0	36	0	862978048	53	4005
2026-01-18 12:54:49.19	194.97	16.47	-41.0	-41.8	22.1	0.00e+00	0	36	0	884998144	53	4001
2026-01-18 12:54:53.23	195.38	16.89	-40.7	-41.6	22.3	0.00e+00	0	36	0	908066816	53	3874
2026-01-18 12:54:57.26	195.80	17.31	-40.4	-41.2	22.7	0.00e+00	0	36	0	930086912	52	3922
2026-01-18 12:55:01.29	196.23	17.73	-40.3	-41.1	22.8	0.00e+00	0	36	0	953155584	52	3911
2026-01-18 12:55:05.32	196.67	18.16	-40.4	-41.2	22.7	0.00e+00	0	36	0	975175680	52	3941
2026-01-18 12:55:09.35	197.13	18.60	-40.3	-41.1	22.8	0.00e+00	0	36	0	998244352	52	3885
2026-01-18 12:55:13.38	197.59	19.04	-40.4	-41.2	22.7	0.00e+00	0	36	0	1021313024	52	3928
2026-01-18 12:55:17.41	198.07	19.49	-40.2	-41.0	22.9	0.00e+00	0	36	0	1043333120	52	3866
2026-01-18 12:55:21.45	198.57	19.95	-40.3	-41.1	23.0	0.00e+00	0	36	0	1066401792	52	3878
2026-01-18 12:55:25.48	199.08	20.41	-40.3	-41.1	23.1	0.00e+00	0	36	0	1089470464	52	3877
2026-01-18 12:55:29.51	199.60	20.87	-40.1	-40.9	23.3	0.00e+00	0	36	0	1111490560	52	3787
2026-01-18 12:55:33.54	200.14	21.35	-40.1	-40.8	23.3	0.00e+00	0	36	0	1134559232	52	3774
2026-01-18 12:55:37.57	200.70	21.83	-40.0	-40.7	23.5	0.00e+00	0	36	0	1157627904	51	3941
2026-01-18 12:55:41.60	201.27	22.32	-39.9	-40.7	23.5	0.00e+00	0	36	0	1179648000	51	3937
2026-01-18 12:55:45.64	201.87	22.81	-39.9	-40.7	23.5	0.00e+00	0	36	0	1202716672	51	3937
2026-01-18 12:55:49.67	202.48	23.31	-39.5	-40.3	23.9	0.00e+00	0	36	0	1225785344	51	3744
2026-01-18 12:55:53.70	203.10	23.82	-39.3	-40.1	24.1	0.00e+00	0	36	0	1247805440	50	3879
2026-01-18 12:55:57.73	203.75	24.33	-39.3	-40.0	24.2	0.00e+00	0	36	0	1270874112	50	3857
2026-01-18 12:56:01.77	204.43	24.85	-39.3	-40.0	24.2	0.00e+00	0	36	0	1292894208	50	3836
2026-01-18 12:56:05.80	205.12	25.38	-39.0	-39.7	24.5	0.00e+00	0	36	0	1315962880	50	3737
2026-01-18 12:56:09.83	205.83	25.91	-39.1	-39.8	24.4	0.00e+00	0	36	0	1339031552	49	3970
2026-01-18 12:56:13.86	206.57	26.45	-39.0	-39.7	24.6	0.00e+00	0	36	0	1361051648	49	3922
2026-01-18 12:56:17.89	207.34	26.99	-39.1	-39.8	24.4	0.00e+00	0	36	0	1384120320	49	3976
2026-01-18 12:56:21.92	208.13	27.54	-39.1	-39.8	24.4	0.00e+00	0	36	0	1407188992	49	3992
2026-01-18 12:56:25.96	208.94	28.09	-39.0	-39.7	24.6	0.00e+00	0	36	0	1429209088	49	3920
2026-01-18 12:56:29.98	209.79	28.65	-38.7	-39.4	24.8	0.00e+00	0	36	0	1452277760	49	3822
2026-01-18 12:56:34.02	210.66	29.22	-39.1	-39.8	24.4	0.00e+00	0	36	0	1474297856	49	3994
2026-01-18 12:56:38.05	211.57	29.78	-38.9	-39.6	24.6	0.00e+00	0	36	0	1497366528	49	3897
2026-01-18 12:56:42.08	212.51	30.35	-38.9	-39.6	24.6	0.00e+00	0	36	0	1520435200	49	3895
2026-01-18 12:56:46.11	213.47	30.93	-38.6	-39.3	24.9	0.00e+00	0	36	0	1542455296	49	3775
2026-01-18 12:56:50.15	214.48	31.51	-38.7	-39.4	24.8	0.00e+00	0	36	0	1565523968	49	3817
2026-01-18 12:56:54.18	215.52	32.08	-38.7	-39.4	24.9	0.00e+00	0	36	0	1588592640	49	3808
2026-01-18 12:56:58.21	216.60	32.66	-38.5	-39.2	25.0	0.00e+00	0	36	0	1610612736	49	3732
2026-01-18 12:57:02.24	217.71	33.24	-38.8	-39.5	24.8	0.00e+00	0	36	0	1633681408	49	3863
2026-01-18 12:57:06.27	218.87	33.82	-38.7	-39.4	24.9	0.00e+00	0	36	0	1655701504	49	3810
2026-01-18 12:57:10.31	220.06	34.39	-38.8	-39.5	24.8	0.00e+00	0	36	0	1678770176	49	3859
2026-01-18 12:57:14.34	221.30	34.97	-38.7	-39.4	24.9	0.00e+00	0	36	0	1701838848	49	3791
2026-01-18 12:57:18.37	222.58	35.53	-38.8	-39.5	24.8	0.00e+00	0	36	0	1723858944	49	3863
2026-01-18 12:57:22.40	223.91	36.09	-38.6	-39.3	25.0	0.00e+00	0	36	0	1746927616	49	3756
2026-01-18 12:57:26.43	225.28	36.64	-38.5	-39.2	25.1	0.00e+00	0	36	0	1769996288	48	3935
2026-01-18 12:57:30.46	226.69	37.19	-38.4	-39.1	25.2	0.00e+00	0	36	0	1792016384	48	3889
2026-01-18 12:57:34.49	228.15	37.72	-38.5	-39.2	25.2	0.00e+00	0	36	0	1815085056	48	3923
2026-01-18 12:57:38.52	229.66	38.24	-38.6	-39.3	25.0	0.00e+00	0	36	0	1837105152	48	3972
2026-01-18 12:57:42.56	231.22	38.74	-38.5	-39.2	25.1	0.00e+00	0	36	0	1860173824	48	3950
2026-01-18 12:57:46.59	232.83	39.23	-38.9	-39.6	24.7	0.00e+00	0	36	0	1883242496	48	4133
2026-01-18 12:57:50.62	234.48	39.70	-38.3	-39.0	25.2	0.00e+00	0	36	0	1905262592	48	3864
2026-01-18 12:57:54.65	236.18	40.15	-38.4	-39.1	25.2	0.00e+00	0	36	0	1928331264	48	3882
2026-01-18 12:57:58.68	237.92	40.57	-38.7	-39.4	24.9	0.00e+00	0	36	0	1951399936	48	4039
2026-01-18 12:58:02.71	239.71	40.97	-38.4	-39.1	25.2	0.00e+00	0	36	0	1973420032	48	3901
2026-01-18 12:58:06.74	241.54	41.35	-38.6	-39.3	25.0	0.00e+00	0	36	0	1996488704	48	3999
2026-01-18 12:58:10.77	243.41	41.69	-38.8	-39.5	24.9	0.00e+00	0	36	0	2018508800	48	4065
2026-01-18 12:58:14.80	245.32	42.00	-38.6	-39.3	25.0	0.00e+00	0	36	0	2041577472	48	3990
2026-01-18 12:58:18.83	247.26	42.28	-38.7	-39.4	25.0	0.00e+00	0	36	0	2064646144	48	4008
2026-01-18 12:58:22.86	249.24	42.52	-38.6	-39.3	25.1	0.00e+00	0	36	0	2086666240	48	3965
2026-01-18 12:58:26.89	251.24	42.73	-39.3	-40.0	24.4	0.00e+00	0	36	0	2109734912	49	4086
2026-01-18 12:58:30.93	253.27	42.90	-39.0	-39.7	24.7	0.00e+00	0	36	0	2132803584	49	3923
2026-01-18 12:58:34.95	255.31	43.03	-38.8	-39.5	24.9	0.00e+00	0	36	0	2154823680	49	3831
2026-01-18 12:58:38.98	257.37	43.12	-38.9	-39.7	24.8	0.00e+00	0	36	0	2177892352	49	3919
2026-01-18 12:58:43.02	259.44	43.18	-39.0	-39.7	24.7	0.00e+00	0	36	0	2199912448	49	3930
2026-01-18 12:58:47.05	261.51	43.19	-38.9	-39.6	24.8	0.00e+00	0	36	0	2222981120	49	3886
2026-01-18 12:58:51.08	263.58	43.15	-39.1	-39.9	24.6	0.00e+00	0	36	0	2246049792	49	4014
2026-01-18 12:58:55.11	265.64	43.08	-39.0	-39.7	24.8	0.00e+00	0	36	0	2268069888	49	3925
2026-01-18 12:58:59.14	267.69	42.97	-39.0	-39.7	24.8	0.00e+00	0	36	0	2291138560	49	3918
2026-01-18 12:59:03.17	269.72	42.82	-39.1	-39.8	24.6	0.00e+00	0	36	0	2314207232	49	3975
2026-01-18 12:59:07.20	271.74	42.63	-39.1	-39.9	24.6	0.00e+00	0	36	0	2336227328	49	4012
2026-01-18 12:59:11.23	273.72	42.41	-39.1	-39.8	24.7	0.00e+00	0	36	0	2359296000	49	3995
2026-01-18 12:59:15.26	275.68	42.15	-39.1	-39.8	24.6	0.00e+00	0	36	0	2381316096	49	3999
2026-01-18 12:59:19.30	277.61	41.85	-39.0	-39.7	24.8	0.00e+00	0	36	0	2404384768	49	3918
2026-01-18 12:59:23.34	279.50	41.52	-38.9	-39.6	24.9	0.00e+00	0	36	0	2427453440	49	3886
2026-01-18 12:59:27.37	281.35	41.17	-39.1	-39.8	24.7	0.00e+00	0	36	0	2449473536	49	3986
2026-01-18 12:59:31.40	283.16	40.78	-38.9	-39.6	24.9	0.00e+00	0	36	0	2472542208	49	3888
2026-01-18 12:59:35.43	284.92	40.37	-38.8	-39.5	24.9	0.00e+00	0	36	0	2495610880	49	3853
2026-01-18 12:59:39.46	286.64	39.93	-39.0	-39.7	24.8	0.00e+00	0	36	0	2517630976	49	3925
2026-01-18 12:59:43.50	288.31	39.47	-38.8	-39.5	24.9	0.00e+00	0	36	0	2540699648	49	3842
2026-01-18 12:59:47.53	289.94	39.00	-39.1	-39.8	24.7	0.00e+00	0	36	0	2563768320	49	3971
2026-01-18 12:59:51.56	291.52	38.50	-38.8	-39.5	24.9	0.00e+00	0	36	0	2585788416	49	3858
2026-01-18 12:59:55.59	293.05	37.99	-38.6	-39.3	25.1	0.00e+00	0	36	0	2608857088	49	3749
2026-01-18 12:59:59.62	294.53	37.47	-38.5	-39.2	25.2	0.00e+00	0	36	0	2630877184	49	3713
2026-01-18 13:00:03.65	295.96	36.93	-38.8	-39.5	24.9	0.00e+00	0	36	0	2653945856	49	3848
2026-01-18 13:00:07.69	297.36	36.39	-38.7	-39.4	25.1	0.00e+00	0	36	0	2677014528	49	3787
2026-01-18 13:00:11.72	298.70	35.83	-38.6	-39.3	25.1	0.00e+00	0	36	0	2699034624	49	3777
2026-01-18 13:00:15.75	300.00	35.27	-38.9	-39.6	24.9	0.00e+00	0	36	0	2722103296	49	3882
2026-01-18 13:00:19.79	301.26	34.70	-39.0	-39.7	24.8	0.00e+00	0	36	0	2744123392	49	3943
2026-01-18 13:00:23.82	302.47	34.13	-38.8	-39.5	25.0	0.00e+00	0	36	0	2767192064	49	3840
2026-01-18 13:00:27.85	303.65	33.56	-38.9	-39.6	24.8	0.00e+00	0	36	0	2790260736	49	3903
2026-01-18 13:00:31.88	304.78	32.98	-38.9	-39.6	24.8	0.00e+00	0	36	0	2812280832	49	3908
2026-01-18 13:00:35.91	305.87	32.41	-39.1	-39.9	24.6	0.00e+00	0	36	0	2835349504	49	4015
2026-01-18 13:00:39.94	306.93	31.83	-39.1	-39.8	24.7	0.00e+00	0	36	0	2858418176	49	3972
2026-01-18 13:00:43.98	307.95	31.26	-39.3	-40.0	24.5	0.00e+00	0	36	0	2880438272	49	4072
2026-01-18 13:00:48.01	308.93	30.68	-39.5	-40.2	24.3	0.00e+00	0	36	0	2903506944	49	4181
2026-01-18 13:00:52.04	309.89	30.11	-39.2	-40.0	24.5	0.00e+00	0	36	0	2926575616	49	4052
2026-01-18 13:00:56.07	310.80	29.55	-39.5	-40.2	24.3	0.00e+00	0	35	0	2948595712	49	4187
2026-01-18 13:01:00.11	311.69	28.98	-39.2	-40.0	24.5	0.00e+00	0	36	0	2971664384	49	4062
2026-01-18 13:01:04.14	312.55	28.42	-39.3	-40.0	24.5	0.00e+00	0	36	0	2994733056	49	4080
2026-01-18 13:01:08.16	313.38	27.87	-39.3	-40.0	24.4	0.00e+00	0	36	0	3016753152	49	4092
2026-01-18 13:01:12.20	314.18	27.32	-39.2	-39.9	24.5	0.00e+00	0	36	0	3039821824	49	4030
2026-01-18 13:01:16.23	314.96	26.78	-39.2	-39.9	24.5	0.00e+00	0	36	0	3062890496	49	4031
2026-01-18 13:01:20.27	315.71	26.24	-39.5	-40.2	24.2	0.00e+00	0	36	0	3084910592	49	4171
2026-01-18 13:01:24.31	316.44	25.70	-39.5	-40.2	24.2	0.00e+00	0	36	0	3106930688	49	4179
2026-01-18 13:01:28.34	317.14	25.18	-39.5	-40.3	24.1	0.00e+00	0	36	0	3129999360	49	4195
2026-01-18 13:01:32.37	317.82	24.66	-39.4	-40.1	24.2	0.00e+00	0	36	0	3153068032	49	4139
2026-01-18 13:01:36.40	318.48	24.14	-39.5	-40.3	24.1	0.00e+00	0	36	0	3175088128	49	4195
2026-01-18 13:01:40.44	319.12	23.64	-39.9	-40.7	23.7	0.00e+00	0	36	0	3198156800	50	4152
2026-01-18 13:01:44.47	319.74	23.13	-39.9	-40.6	23.8	0.00e+00	0	36	0	3221225472	50	4138
2026-01-18 13:01:48.50	320.34	22.64	-39.9	-40.7	23.7	0.00e+00	0	36	0	3243245568	50	4147
2026-01-18 13:01:52.53	320.93	22.15	-40.1	-40.8	23.5	0.00e+00	0	36	0	3266314240	50	4234
2026-01-18 13:01:56.56	321.49	21.67	-40.3	-41.0	23.4	0.00e+00	0	36	0	3289382912	51	4084
2026-01-18 13:02:00.59	322.04	21.20	-40.1	-40.8	23.5	0.00e+00	0	36	0	3311403008	51	4002
2026-01-18 13:02:04.63	322.57	20.73	-40.4	-41.2	23.2	0.00e+00	0	36	0	3334471680	51	4168
2026-01-18 13:02:08.66	323.09	20.26	-40.7	-41.5	22.8	0.00e+00	0	36	0	3357540352	52	4063
2026-01-18 13:02:12.69	323.59	19.81	-40.7	-41.5	22.8	0.00e+00	0	36	0	3379560448	52	4080
2026-01-18 13:02:16.72	324.08	19.36	-40.5	-41.3	22.9	0.00e+00	0	36	0	3402629120	52	3991
2026-01-18 13:02:20.75	324.56	18.91	-40.6	-41.4	22.8	0.00e+00	0	36	0	3425697792	52	4032
2026-01-18 13:02:24.78	325.02	18.48	-40.6	-41.4	22.8	0.00e+00	0	36	0	3447717888	52	4050
2026-01-18 13:02:28.82	325.47	18.04	-40.9	-41.7	22.5	0.00e+00	0	36	0	3469737984	52	4172
2026-01-18 13:02:32.85	325.91	17.62	-40.9	-41.7	22.5	0.00e+00	0	36	0	3492806656	52	4185
2026-01-18 13:02:36.88	326.33	17.20	-41.1	-41.9	22.3	0.00e+00	0	36	0	3515875328	52	4276
2026-01-18 13:02:40.91	326.75	16.78	-41.3	-42.2	22.1	0.00e+00	0	36	0	3537895424	53	4149
2026-01-18 13:02:44.94	327.15	16.37	-41.4	-42.3	21.9	0.00e+00	0	36	0	3560964096	53	4212
2026-01-18 13:02:48.97	327.54	15.97	-41.5	-42.3	21.8	0.00e+00	0	36	0	3584032768	53	4240
2026-01-18 13:02:53.00	327.93	15.57	-41.5	-42.3	21.8	0.00e+00	0	36	0	3606052864	53	4216
2026-01-18 13:02:57.04	328.30	15.18	-41.5	-42.3	21.8	0.00e+00	0	36	0	3629121536	53	4234
2026-01-18 13:03:01.07	328.67	14.79	-41.6	-42.4	21.7	0.00e+00	0	36	0	3652190208	53	4289
2026-01-18 13:03:05.10	329.03	14.41	-41.7	-42.6	21.6	0.00e+00	0	36	0	3674210304	53	4346
2026-01-18 13:03:09.13	329.37	14.04	-41.9	-42.8	21.4	0.00e+00	0	36	0	3697278976	54	4204
2026-01-18 13:03:13.16	329.71	13.66	-41.9	-42.7	21.4	0.00e+00	0	36	0	3720347648	54	4185
2026-01-18 13:03:17.19	330.04	13.30	-41.9	-42.8	21.3	0.00e+00	0	36	0	3742367744	54	4227
2026-01-18 13:03:21.22	330.37	12.93	-42.0	-43.0	21.1	0.00e+00	0	36	0	3765436416	54	4292
2026-01-18 13:03:25.25	330.69	12.58	-42.2	-43.1	20.9	0.00e+00	0	36	0	3788505088	55	4135
2026-01-18 13:03:29.29	331.00	12.22	-42.4	-43.4	20.7	0.00e+00	0	36	0	3810525184	55	4257
2026-01-18 13:03:33.32	331.30	11.87	-42.7	-43.7	20.3	0.00e+00	0	36	0	3832545280	55	4416
2026-01-18 13:03:37.35	331.60	11.53	-42.5	-43.5	20.6	0.00e+00	0	36	0	3855613952	55	4315
2026-01-18 13:03:41.39	331.89	11.19	-42.5	-43.4	20.6	0.00e+00	0	36	0	3878682624	55	4287
2026-01-18 13:03:45.42	332.17	10.85	-42.5	-43.4	20.5	0.00e+00	0	36	0	3900702720	55	4265
2026-01-18 13:03:49.45	332.45	10.52	-42.5	-43.4	20.5	0.00e+00	0	36	0	3923771392	55	4290
2026-01-18 13:03:53.48	332.72	10.19	-42.8	-43.8	20.2	0.00e+00	0	36	0	3946840064	56	4233
2026-01-18 13:03:57.51	332.99	9.86	-42.9	-43.9	20.1	0.00e+00	0	36	0	3968860160	56	4284
2026-01-18 13:04:01.55	333.25	9.54	-43.1	-44.1	19.9	0.00e+00	0	36	0	3991928832	56	4382
2026-01-18 13:04:05.58	333.50	9.22	-43.2	-44.2	19.8	0.00e+00	0	36	0	4014997504	56	4431
2026-01-18 13:04:09.61	333.75	8.91	-43.1	-44.1	19.8	0.00e+00	0	36	0	4037017600	56	4384
2026-01-18 13:04:13.64	334.00	8.60	-43.1	-44.1	19.8	0.00e+00	0	36	0	4060086272	56	4364
2026-01-18 13:04:17.67	334.24	8.29	-43.2	-44.2	19.7	0.00e+00	0	36	0	4083154944	57	4159
2026-01-18 13:04:21.71	334.48	7.99	-43.5	-44.5	19.3	0.00e+00	0	36	0	4105175040	57	4326
2026-01-18 13:04:25.73	334.71	7.69	-43.3	-44.4	19.5	0.00e+00	0	36	0	4128243712	57	4249
2026-01-18 13:04:29.77	334.94	7.39	-43.6	-44.7	19.0	0.00e+00	0	36	0	4151312384	58	4186
2026-01-18 13:04:33.80	335.16	7.10	-43.8	-44.9	18.9	0.00e+00	0	36	0	4173332480	58	4260
2026-01-18 13:04:37.83	335.38	6.81	-43.8	-44.9	18.8	0.00e+00	0	36	0	4196401152	58	4272
2026-01-18 13:04:41.86	335.60	6.52	-43.9	-45.1	18.6	9.10e-06	0	36	0	4218421248	58	4344
2026-01-18 13:04:45.90	335.81	6.23	-44.0	-45.1	18.5	0.00e+00	0	36	0	4241489920	58	4375
2026-01-18 13:04:49.93	336.02	5.95	-44.2	-45.4	18.2	0.00e+00	0	36	0	4264558592	58	4506
2026-01-18 13:04:53.96	336.22	5.67	-43.9	-45.1	18.5	0.00e+00	0	36	0	4286578688	58	4366
2026-01-18 13:04:57.99	336.42	5.39	-43.9	-45.1	18.5	0.00e+00	0	36	0	4309647360	58	4370
2026-01-18 13:05:02.02	336.62	5.12	-43.9	-45.0	18.5	0.00e+00	0	36	0	4332716032	58	4332
2026-01-18 13:05:06.06	336.81	4.85	-53.1	-65.0	3.8	8.47e-01	0	36	104	4343201792	76	15324
2026-01-18 13:05:10.08	337.00	4.58	-53.5	-65.5	3.8	8.47e-01	0	36	104	4343201792	77	15375
2026-01-18 13:05:14.12	337.19	4.31	-53.9	-65.9	3.8	8.46e-01	0	36	104	4343201792	78	15125
2026-01-18 13:05:18.15	337.38	4.05	-54.0	-66.0	3.8	8.46e-01	0	36	104	4343201792	78	15233
2026-01-18 13:05:22.19	337.56	3.79	-54.0	-66.0	3.8	8.47e-01	0	36	104	4343201792	78	15231
2026-01-18 13:05:26.22	337.74	3.53	-53.9	-65.9	3.8	8.47e-01	0	36	104	4343201792	78	15165
2026-01-18 13:05:30.25	337.91	3.27	-53.8	-65.8	3.8	8.46e-01	0	36	104	4343201792	78	15017
2026-01-18 13:05:34.28	338.09	3.01	-53.8	-65.8	3.8	8.46e-01	0	36	104	4343201792	78	14955
2026-01-18 13:05:38.31	338.26	2.76	-53.8	-65.8	3.8	8.46e-01	0	36	104	4343201792	78	14977
2026-01-18 13:05:42.34	338.43	2.51	-53.8	-65.8	3.8	8.45e-01	0	36	104	4343201792	78	14888
2026-01-18 13:05:46.38	338.59	2.26	-53.8	-65.8	3.8	8.45e-01	0	36	104	4343201792	78	15001
2026-01-18 13:05:50.41	338.76	2.01	-53.8	-65.8	3.8	8.46e-01	0	36	104	4343201792	78	14900

#Closed at: 2026-01-18 13:05:52
#Recorded file [4343 MB]: D:/lorett/data/31041_260118_155143.dat