passes_logs/2026/01/18/R3.2S_Murmansk/R3.2S_Murmansk__20260118_235614_SUOMI_NPP_rec.log

#Pass ID: 20260118_235614_SUOMI NPP
#Satellite: SUOMI NPP
#Configuration: NPP
#almurnet v.1.7.20251203
#Start time: 2026-01-18 23:56:14

#Version: 2.2.20231116
#Station: R3.2S_Murmansk
#Location: 33.079688 lon 68.888172 lat
#TLE: 1 37849U 11061A   26018.62828014  .00000065  00000+0  51921-4 0  9990
#TLE: 2 37849  98.7815 320.6456 0002372  57.2989 302.8415 14.19526102737226

#Time	Az	El	Level	Level2	SNR	BER	BlckErr	Temp	State	Recorded	gain1	gain2
2026-01-18 23:56:14.22	21.84	1.99	-52.1	-66.8	3.8	1.49e+00	0	34	0	0	74	21210
2026-01-18 23:56:18.25	21.95	2.24	-52.0	-65.3	3.8	1.49e+00	0	35	104	0	74	17724
2026-01-18 23:56:22.28	22.06	2.50	-52.0	-65.1	3.8	1.49e+00	0	35	104	0	74	17330
2026-01-18 23:56:26.31	22.17	2.76	-52.0	-64.5	3.8	1.47e+00	0	35	104	0	74	16246
2026-01-18 23:56:30.34	22.28	3.02	-51.8	-62.4	4.6	1.06e+00	0	35	0	1048576	74	12714
2026-01-18 23:56:34.37	22.40	3.28	-51.7	-61.2	5.1	5.92e-01	0	35	0	9437184	73	11804
2026-01-18 23:56:38.41	22.51	3.54	-51.6	-60.7	5.5	4.63e-01	0	35	0	16777216	73	11111
2026-01-18 23:56:42.43	22.63	3.81	-50.8	-56.8	8.9	4.57e-02	0	35	0	24117248	73	7105
2026-01-18 23:56:46.47	22.75	4.08	-49.9	-54.0	11.9	3.30e-04	0	35	0	31457280	70	6083
2026-01-18 23:56:50.50	22.87	4.35	-48.9	-52.1	13.9	0.00e+00	0	35	0	38797312	69	5161
2026-01-18 23:56:54.53	23.00	4.63	-48.8	-51.9	14.1	7.00e-07	0	35	0	47185920	68	5350
2026-01-18 23:56:58.56	23.12	4.91	-50.0	-54.4	11.5	5.61e-04	0	35	0	54525952	70	6415
2026-01-18 23:57:02.59	23.25	5.19	-50.7	-56.3	10.0	3.05e-05	0	36	0	61865984	71	7500
2026-01-18 23:57:06.63	23.38	5.47	-48.1	-50.6	15.6	0.00e+00	0	35	0	69206016	67	4909
2026-01-18 23:57:10.66	23.51	5.76	-47.9	-50.3	15.9	0.00e+00	0	36	0	77594624	66	4989
2026-01-18 23:57:14.69	23.64	6.05	-47.9	-50.3	15.9	0.00e+00	0	36	0	84934656	66	5002
2026-01-18 23:57:18.72	23.78	6.34	-47.8	-50.0	16.3	0.00e+00	0	36	0	92274688	66	4856
2026-01-18 23:57:22.75	23.92	6.64	-47.7	-49.9	16.4	0.00e+00	0	36	0	99614720	66	4812
2026-01-18 23:57:26.79	24.06	6.94	-47.8	-50.0	16.4	0.00e+00	0	36	0	106954752	66	4849
2026-01-18 23:57:30.82	24.20	7.24	-47.7	-49.9	16.6	0.00e+00	0	36	0	115343360	66	4779
2026-01-18 23:57:34.85	24.35	7.55	-47.8	-50.1	16.4	0.00e+00	0	36	0	122683392	66	4879
2026-01-18 23:57:38.88	24.50	7.86	-47.5	-49.6	16.9	0.00e+00	0	36	0	130023424	66	4632
2026-01-18 23:57:42.91	24.65	8.17	-47.7	-49.8	16.6	0.00e+00	0	36	0	137363456	66	4751
2026-01-18 23:57:46.94	24.81	8.49	-47.5	-49.5	17.0	0.00e+00	0	36	0	144703488	66	4588
2026-01-18 23:57:50.97	24.96	8.81	-47.4	-49.5	17.0	0.00e+00	0	36	0	153092096	66	4555
2026-01-18 23:57:55.01	25.12	9.14	-47.5	-49.5	17.0	0.00e+00	0	36	0	160432128	66	4588
2026-01-18 23:57:59.04	25.29	9.47	-47.4	-49.4	17.1	0.00e+00	0	36	0	167772160	66	4537
2026-01-18 23:58:03.07	25.46	9.80	-47.3	-49.2	17.4	0.00e+00	0	36	0	175112192	66	4411
2026-01-18 23:58:07.10	25.63	10.14	-47.2	-49.1	17.5	0.00e+00	0	36	0	182452224	66	4355
2026-01-18 23:58:11.14	25.80	10.49	-47.1	-49.0	17.7	0.00e+00	0	36	0	190840832	66	4296
2026-01-18 23:58:15.17	25.98	10.83	-47.1	-48.9	17.8	0.00e+00	0	36	0	198180864	65	4507
2026-01-18 23:58:19.20	26.16	11.19	-46.9	-48.7	18.0	0.00e+00	0	36	0	205520896	65	4409
2026-01-18 23:58:23.23	26.35	11.54	-46.8	-48.5	18.2	0.00e+00	0	36	0	212860928	65	4316
2026-01-18 23:58:27.27	26.54	11.91	-46.7	-48.4	18.3	0.00e+00	0	36	0	220200960	64	4494
2026-01-18 23:58:31.30	26.73	12.27	-46.4	-48.0	18.6	0.00e+00	0	36	0	228589568	64	4340
2026-01-18 23:58:35.33	26.93	12.65	-46.3	-47.9	18.7	0.00e+00	0	36	0	235929600	64	4277
2026-01-18 23:58:39.36	27.14	13.03	-46.5	-48.1	18.6	0.00e+00	0	36	0	243269632	64	4373
2026-01-18 23:58:43.39	27.34	13.41	-46.5	-48.1	18.7	0.00e+00	0	36	0	250609664	64	4350
2026-01-18 23:58:47.42	27.56	13.80	-46.3	-47.9	18.8	0.00e+00	0	36	0	258998272	64	4261
2026-01-18 23:58:51.45	27.78	14.20	-46.1	-47.6	19.2	0.00e+00	0	36	0	266338304	63	4352
2026-01-18 23:58:55.48	28.00	14.60	-46.0	-47.5	19.4	0.00e+00	0	36	0	273678336	63	4298
2026-01-18 23:58:59.51	28.23	15.01	-46.0	-47.5	19.4	0.00e+00	0	36	0	281018368	63	4318
2026-01-18 23:59:03.55	28.47	15.42	-45.9	-47.4	19.5	0.00e+00	0	36	0	288358400	63	4253
2026-01-18 23:59:07.58	28.71	15.85	-45.9	-47.3	19.6	0.00e+00	0	36	0	296747008	63	4209
2026-01-18 23:59:11.61	28.96	16.28	-46.1	-47.5	19.3	0.00e+00	0	36	0	304087040	63	4336
2026-01-18 23:59:15.64	29.21	16.71	-46.1	-47.6	19.3	0.00e+00	0	36	0	311427072	63	4369
2026-01-18 23:59:19.67	29.48	17.16	-46.2	-47.7	19.3	0.00e+00	0	36	0	318767104	63	4426
2026-01-18 23:59:23.71	29.75	17.61	-46.0	-47.4	19.5	0.00e+00	0	36	0	326107136	63	4270
2026-01-18 23:59:27.74	30.02	18.07	-45.8	-47.2	19.8	0.00e+00	0	36	0	334495744	63	4150
2026-01-18 23:59:31.77	30.31	18.54	-45.5	-46.8	20.1	0.00e+00	0	36	0	341835776	62	4196
2026-01-18 23:59:35.80	30.60	19.01	-45.2	-46.5	20.4	0.00e+00	0	36	0	349175808	62	4065
2026-01-18 23:59:39.83	30.90	19.50	-45.0	-46.2	20.6	0.00e+00	0	36	0	356515840	61	4175
2026-01-18 23:59:43.86	31.22	19.99	-45.1	-46.3	20.6	0.00e+00	0	36	0	363855872	61	4226
2026-01-18 23:59:47.89	31.54	20.49	-45.5	-46.8	20.2	0.00e+00	0	36	0	372244480	61	4457
2026-01-18 23:59:51.93	31.87	21.01	-45.5	-46.8	20.1	0.00e+00	0	36	0	379584512	61	4471
2026-01-18 23:59:55.96	32.21	21.53	-45.1	-46.4	20.6	0.00e+00	0	36	0	386924544	61	4256
2026-01-18 23:59:59.99	32.57	22.06	-45.1	-46.4	20.6	0.00e+00	0	36	0	394264576	61	4255
2026-01-19 00:00:04.02	32.93	22.60	-45.0	-46.3	20.6	0.00e+00	0	36	0	402653184	61	4199
2026-01-19 00:00:08.05	33.31	23.16	-44.8	-46.0	20.9	0.00e+00	0	36	0	409993216	61	4059
2026-01-19 00:00:12.08	33.70	23.72	-44.6	-45.8	21.1	0.00e+00	0	36	0	417333248	61	3976
2026-01-19 00:00:16.11	34.10	24.30	-44.4	-45.6	21.3	0.00e+00	0	36	0	424673280	60	4111
2026-01-19 00:00:20.14	34.52	24.88	-44.5	-45.6	21.3	0.00e+00	0	36	0	432013312	60	4120
2026-01-19 00:00:24.17	34.96	25.48	-44.5	-45.6	21.3	0.00e+00	0	36	0	440401920	60	4126
2026-01-19 00:00:28.20	35.41	26.09	-44.5	-45.7	21.3	0.00e+00	0	36	0	447741952	60	4153
2026-01-19 00:00:32.24	35.88	26.72	-44.7	-45.9	21.0	0.00e+00	0	36	0	455081984	60	4290
2026-01-19 00:00:36.27	36.36	27.35	-45.5	-46.8	20.3	0.00e+00	0	36	0	462422016	61	4451
2026-01-19 00:00:40.30	36.87	28.00	-45.8	-47.1	20.0	0.00e+00	0	36	0	469762048	62	4372
2026-01-19 00:00:44.33	37.39	28.66	-45.8	-47.2	20.0	0.00e+00	0	36	0	478150656	62	4397
2026-01-19 00:00:48.36	37.94	29.34	-46.4	-47.9	19.2	0.00e+00	0	36	0	485490688	64	4275
2026-01-19 00:00:52.39	38.51	30.03	-47.3	-49.1	18.1	0.00e+00	0	36	0	492830720	65	4605
2026-01-19 00:00:56.42	39.10	30.73	-48.0	-49.9	17.4	0.00e+00	0	36	0	500170752	66	4789
2026-01-19 00:01:00.46	39.73	31.45	-48.3	-50.3	17.0	0.00e+00	0	36	0	507510784	67	4744
2026-01-19 00:01:04.49	40.37	32.18	-48.0	-50.0	17.3	0.00e+00	0	36	0	515899392	67	4562
2026-01-19 00:01:08.51	41.05	32.92	-47.3	-49.0	18.2	0.00e+00	0	36	0	523239424	66	4334
2026-01-19 00:01:12.54	41.76	33.68	-47.9	-49.8	17.5	0.00e+00	0	36	0	530579456	66	4725
2026-01-19 00:01:16.57	42.50	34.46	-47.0	-48.6	18.5	0.00e+00	0	36	0	537919488	66	4142
2026-01-19 00:01:20.61	43.28	35.25	-47.0	-48.5	18.7	0.00e+00	0	36	0	545259520	65	4329
2026-01-19 00:01:24.64	44.09	36.05	-47.1	-48.8	18.5	0.00e+00	0	36	0	553648128	65	4445
2026-01-19 00:01:28.67	44.95	36.87	-47.3	-49.0	18.4	0.00e+00	0	36	0	560988160	65	4562
2026-01-19 00:01:32.70	45.84	37.70	-47.2	-48.8	18.5	0.00e+00	0	36	0	568328192	65	4488
2026-01-19 00:01:36.73	46.79	38.54	-47.4	-49.2	18.2	0.00e+00	0	36	0	575668224	65	4658
2026-01-19 00:01:40.76	47.78	39.40	-47.1	-48.8	18.5	0.00e+00	0	36	0	583008256	65	4471
2026-01-19 00:01:44.80	48.83	40.27	-47.8	-49.7	17.8	0.00e+00	0	36	0	591396864	66	4653
2026-01-19 00:01:48.83	49.94	41.14	-46.0	-47.3	20.1	0.00e+00	0	36	0	598736896	63	4210
2026-01-19 00:01:52.86	51.11	42.03	-46.5	-47.9	19.5	0.00e+00	0	36	0	606076928	63	4539
2026-01-19 00:01:56.89	52.34	42.93	-46.7	-48.2	19.2	0.00e+00	0	36	0	613416960	63	4667
2026-01-19 00:02:00.92	53.64	43.83	-46.8	-48.3	19.0	0.00e+00	0	36	0	621805568	64	4475
2026-01-19 00:02:04.95	55.01	44.73	-46.5	-47.9	19.3	0.00e+00	0	36	0	629145600	65	4008
2026-01-19 00:02:08.98	56.47	45.64	-47.3	-49.0	18.4	0.00e+00	0	36	0	636485632	65	4583
2026-01-19 00:02:13.01	58.01	46.55	-48.4	-50.5	16.9	0.00e+00	0	36	0	643825664	67	4830
2026-01-19 00:02:17.04	59.64	47.46	-49.7	-52.4	15.3	0.00e+00	0	36	0	651165696	70	5058
2026-01-19 00:02:21.07	61.37	48.35	-49.7	-52.4	15.2	0.00e+00	0	36	0	659554304	70	5045
2026-01-19 00:02:25.10	63.19	49.24	-48.5	-50.6	17.0	0.00e+00	0	36	0	666894336	68	4632
2026-01-19 00:02:29.13	65.13	50.11	-47.9	-49.7	17.8	0.00e+00	0	36	0	674234368	67	4438
2026-01-19 00:02:33.16	67.18	50.96	-47.1	-48.7	18.7	0.00e+00	0	36	0	681574400	65	4438
2026-01-19 00:02:37.19	69.34	51.79	-47.0	-48.6	18.9	0.00e+00	0	36	0	688914432	65	4341
2026-01-19 00:02:41.23	71.63	52.59	-45.2	-46.4	20.9	0.00e+00	0	36	0	697303040	62	4022
2026-01-19 00:02:45.25	74.04	53.35	-45.4	-46.6	20.7	0.00e+00	0	36	0	704643072	62	4128
2026-01-19 00:02:49.29	76.58	54.07	-45.8	-47.1	20.2	0.00e+00	0	36	0	711983104	63	4144
2026-01-19 00:02:53.32	79.24	54.75	-45.8	-47.2	20.3	0.00e+00	0	36	0	719323136	62	4399
2026-01-19 00:02:57.35	82.02	55.36	-45.5	-46.7	20.6	0.00e+00	0	36	0	726663168	61	4439
2026-01-19 00:03:01.39	84.92	55.92	-44.7	-45.9	21.3	0.00e+00	0	36	0	735051776	61	4012
2026-01-19 00:03:05.42	87.93	56.40	-45.7	-46.9	20.5	0.00e+00	0	36	0	742391808	62	4274
2026-01-19 00:03:09.45	91.04	56.81	-45.7	-47.0	20.3	0.00e+00	0	36	0	749731840	62	4315
2026-01-19 00:03:13.48	94.23	57.15	-47.0	-48.6	18.8	0.00e+00	0	36	0	757071872	65	4357
2026-01-19 00:03:17.51	97.49	57.39	-47.5	-49.2	18.2	0.00e+00	0	36	0	765460480	66	4405
2026-01-19 00:03:21.55	100.81	57.56	-48.1	-49.9	17.6	0.00e+00	0	36	0	772800512	68	4291
2026-01-19 00:03:25.58	104.15	57.63	-48.4	-50.4	17.1	0.00e+00	0	36	0	780140544	67	4793
2026-01-19 00:03:29.61	107.49	57.61	-46.7	-48.2	19.2	0.00e+00	0	36	0	787480576	65	4177
2026-01-19 00:03:33.64	110.82	57.49	-45.9	-47.3	20.2	0.00e+00	0	36	0	794820608	62	4445
2026-01-19 00:03:37.67	114.11	57.29	-45.6	-46.9	20.4	0.00e+00	0	36	0	803209216	62	4274
2026-01-19 00:03:41.70	117.35	57.01	-46.3	-47.7	19.6	0.00e+00	0	36	0	810549248	64	4181
2026-01-19 00:03:45.73	120.51	56.64	-46.6	-48.1	19.4	0.00e+00	0	36	0	817889280	63	4618
2026-01-19 00:03:49.76	123.57	56.19	-45.7	-46.9	20.4	0.00e+00	0	36	0	825229312	63	4039
2026-01-19 00:03:53.79	126.54	55.68	-45.4	-46.6	20.5	0.00e+00	0	36	0	832569344	62	4141
2026-01-19 00:03:57.82	129.39	55.09	-44.4	-45.5	21.6	0.00e+00	0	36	0	840957952	60	4098
2026-01-19 00:04:01.85	132.12	54.45	-44.7	-45.8	21.2	0.00e+00	0	36	0	848297984	60	4227
2026-01-19 00:04:05.88	134.72	53.76	-45.7	-47.0	20.3	0.00e+00	0	36	0	855638016	62	4316
2026-01-19 00:04:09.91	137.21	53.02	-47.6	-49.4	18.0	0.00e+00	0	36	0	862978048	65	4808
2026-01-19 00:04:13.94	139.56	52.24	-48.5	-50.7	16.6	0.00e+00	0	36	0	870318080	67	4934
2026-01-19 00:04:17.97	141.80	51.42	-46.1	-47.4	19.8	0.00e+00	0	36	0	878706688	64	4041
2026-01-19 00:04:22.00	143.91	50.58	-50.5	-53.9	13.6	5.30e-06	0	36	0	886046720	72	5346
2026-01-19 00:04:26.03	145.91	49.72	-48.0	-49.9	17.5	0.00e+00	0	36	0	893386752	66	4777
2026-01-19 00:04:30.06	147.80	48.83	-46.5	-47.9	19.5	0.00e+00	0	36	0	900726784	63	4515
2026-01-19 00:04:34.09	149.59	47.94	-47.6	-49.4	17.9	0.00e+00	0	36	0	908066816	67	4270
2026-01-19 00:04:38.13	151.28	47.03	-46.8	-48.3	19.0	0.00e+00	0	36	0	916455424	65	4220
2026-01-19 00:04:42.15	152.87	46.13	-47.3	-49.0	18.2	0.00e+00	0	37	0	923795456	66	4292
2026-01-19 00:04:46.19	154.37	45.21	-46.6	-48.0	19.3	0.00e+00	0	36	0	931135488	63	4596
2026-01-19 00:04:50.22	155.80	44.30	-46.7	-48.2	19.1	0.00e+00	0	36	0	938475520	64	4432
2026-01-19 00:04:54.25	157.14	43.39	-48.9	-51.2	16.4	0.00e+00	0	36	0	945815552	68	4957
2026-01-19 00:04:58.28	158.41	42.49	-47.4	-49.1	18.1	0.00e+00	0	37	0	954204160	65	4638
2026-01-19 00:05:02.31	159.61	41.60	-48.7	-50.9	16.5	0.00e+00	0	36	0	961544192	69	4528
2026-01-19 00:05:06.34	160.75	40.71	-49.1	-51.4	16.1	0.00e+00	0	36	0	968884224	68	5066
2026-01-19 00:05:10.37	161.83	39.84	-48.2	-50.2	17.2	0.00e+00	0	36	0	976224256	68	4424
2026-01-19 00:05:14.40	162.85	38.97	-46.9	-48.4	18.8	0.00e+00	0	36	0	983564288	64	4523
2026-01-19 00:05:18.43	163.83	38.12	-50.0	-53.0	14.3	2.20e-06	0	36	0	991952896	71	5159
2026-01-19 00:05:22.47	164.75	37.27	-46.4	-47.8	19.4	0.00e+00	0	36	0	999292928	64	4231
2026-01-19 00:05:26.50	165.63	36.45	-46.7	-48.3	18.9	0.00e+00	0	37	0	1006632960	64	4459
2026-01-19 00:05:30.53	166.47	35.63	-46.4	-47.9	19.3	0.00e+00	0	36	0	1013972992	64	4279
2026-01-19 00:05:34.57	167.27	34.83	-47.2	-48.8	18.4	0.00e+00	0	36	0	1022361600	64	4750
2026-01-19 00:05:38.60	168.03	34.05	-49.6	-52.4	14.9	0.00e+00	0	37	0	1029701632	70	5066
2026-01-19 00:05:42.63	168.76	33.28	-47.3	-49.0	18.1	0.00e+00	0	36	0	1037041664	66	4333
2026-01-19 00:05:46.67	169.45	32.52	-46.9	-48.5	18.6	0.00e+00	0	36	0	1044381696	64	4596
2026-01-19 00:05:50.70	170.11	31.78	-46.7	-48.2	18.9	0.00e+00	0	36	0	1051721728	65	4171
2026-01-19 00:05:54.73	170.75	31.05	-47.2	-48.9	18.2	0.00e+00	0	36	0	1060110336	64	4786
2026-01-19 00:05:58.76	171.36	30.34	-47.8	-49.8	17.4	0.00e+00	0	37	0	1067450368	66	4708
2026-01-19 00:06:02.79	171.94	29.64	-46.5	-48.0	19.1	0.00e+00	0	36	0	1074790400	64	4296
2026-01-19 00:06:06.82	172.50	28.95	-45.9	-47.3	19.8	0.00e+00	0	36	0	1082130432	63	4237
2026-01-19 00:06:10.85	173.03	28.28	-47.2	-48.9	18.2	0.00e+00	0	36	0	1089470464	64	4800
2026-01-19 00:06:14.88	173.55	27.62	-48.5	-50.7	16.4	0.00e+00	0	36	0	1097859072	67	4981
2026-01-19 00:06:18.91	174.05	26.98	-46.7	-48.2	18.8	0.00e+00	0	36	0	1105199104	65	4188
2026-01-19 00:06:22.94	174.52	26.35	-46.6	-48.2	18.9	0.00e+00	0	36	0	1112539136	64	4407
2026-01-19 00:06:26.97	174.98	25.73	-46.9	-48.6	18.4	0.00e+00	0	36	0	1119879168	64	4620
2026-01-19 00:06:31.01	175.42	25.12	-46.3	-47.8	19.2	0.00e+00	0	36	0	1127219200	64	4209
2026-01-19 00:06:35.04	175.85	24.52	-46.0	-47.4	19.6	0.00e+00	0	36	0	1135607808	63	4253
2026-01-19 00:06:39.07	176.26	23.94	-45.7	-47.0	19.9	0.00e+00	0	36	0	1142947840	62	4324
2026-01-19 00:06:43.10	176.66	23.37	-46.0	-47.4	19.5	0.00e+00	0	37	0	1150287872	62	4536
2026-01-19 00:06:47.13	177.04	22.81	-46.4	-48.0	19.0	0.00e+00	0	37	0	1157627904	63	4555
2026-01-19 00:06:51.16	177.41	22.26	-46.6	-48.2	18.8	0.00e+00	0	36	0	1166016512	63	4672
2026-01-19 00:06:55.20	177.77	21.72	-46.0	-47.4	19.5	0.00e+00	0	37	0	1173356544	63	4270
2026-01-19 00:06:59.23	178.12	21.19	-45.4	-46.8	20.0	0.00e+00	0	36	0	1180696576	62	4196
2026-01-19 00:07:03.26	178.46	20.67	-44.7	-45.9	20.8	0.00e+00	0	36	0	1188036608	61	4018
2026-01-19 00:07:07.29	178.78	20.16	-44.0	-45.1	21.5	0.00e+00	0	36	0	1195376640	60	3912
2026-01-19 00:07:11.33	179.10	19.66	-44.7	-45.9	21.1	0.00e+00	0	36	0	1203765248	59	4514
2026-01-19 00:07:15.36	179.40	19.17	-45.1	-46.4	20.4	0.00e+00	0	37	0	1211105280	60	4515
2026-01-19 00:07:19.39	179.70	18.69	-45.9	-47.4	19.4	0.00e+00	0	37	0	1218445312	62	4513
2026-01-19 00:07:23.41	179.99	18.21	-46.5	-48.0	18.8	0.00e+00	0	37	0	1225785344	63	4596
2026-01-19 00:07:27.44	180.27	17.75	-46.6	-48.2	18.7	0.00e+00	0	36	0	1233125376	63	4662
2026-01-19 00:07:31.47	180.54	17.29	-46.5	-48.1	18.6	0.00e+00	0	37	0	1241513984	64	4387
2026-01-19 00:07:35.51	180.81	16.84	-46.6	-48.2	18.6	0.00e+00	0	37	0	1248854016	63	4681
2026-01-19 00:07:39.54	181.06	16.40	-46.5	-48.1	18.6	0.00e+00	0	36	0	1256194048	64	4358
2026-01-19 00:07:43.57	181.31	15.96	-46.1	-47.7	19.1	0.00e+00	0	36	0	1263534080	62	4669
2026-01-19 00:07:47.60	181.56	15.54	-45.7	-47.1	19.7	0.00e+00	0	36	0	1270874112	63	4117
2026-01-19 00:07:51.63	181.79	15.12	-45.2	-46.6	20.1	0.00e+00	0	37	0	1279262720	62	4104
2026-01-19 00:07:55.66	182.02	14.70	-45.0	-46.2	20.4	0.00e+00	0	37	0	1286602752	61	4181
2026-01-19 00:07:59.69	182.25	14.30	-45.0	-46.3	20.3	0.00e+00	0	36	0	1293942784	60	4476
2026-01-19 00:08:03.72	182.47	13.90	-45.2	-46.5	20.2	0.00e+00	0	36	0	1301282816	61	4301
2026-01-19 00:08:07.75	182.68	13.50	-45.6	-47.0	19.6	0.00e+00	0	36	0	1308622848	61	4559
2026-01-19 00:08:11.79	182.89	13.11	-45.8	-47.3	19.4	0.00e+00	0	36	0	1317011456	62	4447
2026-01-19 00:08:15.82	183.10	12.73	-46.4	-48.0	18.7	0.00e+00	0	36	0	1324351488	63	4564
2026-01-19 00:08:19.85	183.30	12.35	-46.8	-48.6	18.0	0.00e+00	0	37	0	1331691520	64	4640
2026-01-19 00:08:23.88	183.49	11.98	-47.3	-49.3	17.4	0.00e+00	0	36	0	1339031552	65	4707
2026-01-19 00:08:27.91	183.68	11.61	-47.6	-49.7	16.9	0.00e+00	0	36	0	1346371584	66	4703
2026-01-19 00:08:31.94	183.87	11.25	-47.8	-50.0	16.7	0.00e+00	0	36	0	1354760192	66	4832
2026-01-19 00:08:35.97	184.05	10.90	-47.9	-50.1	16.5	0.00e+00	0	36	0	1362100224	66	4903
2026-01-19 00:08:40.00	184.23	10.55	-47.7	-49.9	16.6	0.00e+00	0	36	0	1369440256	66	4801
2026-01-19 00:08:44.03	184.40	10.20	-47.5	-49.5	17.0	0.00e+00	0	36	0	1376780288	65	4855
2026-01-19 00:08:48.06	184.57	9.86	-47.1	-49.1	17.3	0.00e+00	0	36	0	1385168896	65	4607
2026-01-19 00:08:52.09	184.74	9.52	-47.0	-48.9	17.5	0.00e+00	0	36	0	1392508928	64	4791
2026-01-19 00:08:56.13	184.90	9.19	-46.6	-48.4	18.0	0.00e+00	0	36	0	1399848960	64	4524
2026-01-19 00:09:00.16	185.06	8.86	-46.7	-48.5	18.0	0.00e+00	0	37	0	1407188992	63	4828
2026-01-19 00:09:04.19	185.22	8.53	-46.4	-48.1	18.4	0.00e+00	0	37	0	1414529024	63	4612
2026-01-19 00:09:08.22	185.37	8.21	-46.4	-48.1	18.4	0.00e+00	0	37	0	1422917632	63	4599
2026-01-19 00:09:12.25	185.52	7.89	-46.7	-48.4	18.0	0.00e+00	0	37	0	1430257664	63	4810
2026-01-19 00:09:16.29	185.67	7.58	-46.6	-48.4	18.0	0.00e+00	0	37	0	1437597696	63	4783
2026-01-19 00:09:20.31	185.82	7.27	-46.7	-48.6	17.7	0.00e+00	0	37	0	1444937728	64	4620
2026-01-19 00:09:24.35	185.96	6.97	-46.6	-48.5	17.7	0.00e+00	0	37	0	1452277760	64	4559
2026-01-19 00:09:28.37	186.10	6.66	-47.0	-48.9	17.2	0.00e+00	0	37	0	1460666368	64	4809
2026-01-19 00:09:32.41	186.24	6.36	-47.1	-49.1	17.0	0.00e+00	0	36	0	1468006400	64	4923
2026-01-19 00:09:36.44	186.37	6.07	-47.4	-49.6	16.5	0.00e+00	0	36	0	1475346432	65	4912
2026-01-19 00:09:40.47	186.50	5.78	-47.4	-49.6	16.4	0.00e+00	0	37	0	1482686464	65	4924
2026-01-19 00:09:44.50	186.63	5.49	-48.0	-50.5	15.5	0.00e+00	0	36	0	1490026496	66	5143
2026-01-19 00:09:48.53	186.76	5.20	-47.8	-50.3	15.6	0.00e+00	0	37	0	1498415104	66	5030
2026-01-19 00:09:52.56	186.88	4.92	-52.7	-67.7	3.8	1.49e+00	0	37	104	1504706560	75	22174
2026-01-19 00:09:56.59	187.01	4.64	-53.4	-68.4	3.8	1.49e+00	0	37	104	1504706560	77	21414
2026-01-19 00:10:00.62	187.13	4.36	-53.7	-68.7	3.8	1.49e+00	0	37	104	1504706560	77	22011
2026-01-19 00:10:04.65	187.25	4.08	-53.8	-68.8	3.8	1.49e+00	0	37	104	1504706560	78	21200
2026-01-19 00:10:08.68	187.37	3.81	-53.9	-69.0	3.8	1.49e+00	0	37	104	1504706560	78	21526
2026-01-19 00:10:12.71	187.48	3.54	-54.0	-69.0	3.8	1.49e+00	0	37	104	1504706560	78	21597
2026-01-19 00:10:16.75	187.59	3.28	-54.0	-69.0	3.8	1.49e+00	0	37	104	1504706560	78	21525
2026-01-19 00:10:20.78	187.71	3.01	-53.9	-68.9	3.8	1.49e+00	0	37	104	1504706560	78	21448
2026-01-19 00:10:24.81	187.82	2.75	-53.9	-68.9	3.8	1.49e+00	0	37	104	1504706560	78	21398
2026-01-19 00:10:28.85	187.92	2.49	-53.9	-68.9	3.8	1.49e+00	0	37	104	1504706560	78	21462
2026-01-19 00:10:32.88	188.03	2.23	-53.9	-68.9	3.8	1.49e+00	0	37	104	1504706560	78	21383
2026-01-19 00:10:36.92	188.14	1.98	-53.9	-68.9	3.8	1.49e+00	0	37	104	1504706560	78	21419

#Closed at: 2026-01-19 00:10:37
#Recorded file [1504 MB]: D:/lorett/data/31041_260119_025614.dat