passes_logs/2026/01/18/R3.2S_Murmansk/R3.2S_Murmansk__20260118_035549_NOAA_20_JPSS-1_rec.log

#Pass ID: 20260118_035549_NOAA 20 (JPSS-1)
#Satellite: NOAA 20 (JPSS-1)
#Configuration: NOAA 20
#almurnet v.1.7.20251203
#Start time: 2026-01-18 03:55:49

#Version: 2.2.20231116
#Station: R3.2S_Murmansk
#Location: 33.079688 lon 68.888172 lat
#TLE: 1 43013U 17073A   26017.58553584  .00000066  00000+0  52288-4 0  9998
#TLE: 2 43013  98.7639 318.4977 0001406  35.6039 324.5231 14.19536575423107

#Time	Az	El	Level	Level2	SNR	BER	BlckErr	Temp	State	Recorded	gain1	gain2
2026-01-18 03:55:49.10	46.37	1.97	-51.6	-66.6	3.8	1.49e+00	0	33	0	0	75	19413
2026-01-18 03:55:53.13	46.14	2.20	-51.6	-66.6	3.8	1.49e+00	0	33	104	0	73	21854
2026-01-18 03:55:57.16	45.90	2.44	-51.6	-66.6	3.8	1.49e+00	0	33	104	0	73	21874
2026-01-18 03:56:01.19	45.65	2.68	-51.6	-66.6	3.8	1.49e+00	0	34	104	0	73	21768
2026-01-18 03:56:05.23	45.40	2.91	-51.6	-66.5	3.8	1.49e+00	0	34	104	0	73	21711
2026-01-18 03:56:09.26	45.15	3.15	-51.6	-66.5	3.8	1.49e+00	0	34	104	0	73	21708
2026-01-18 03:56:13.29	44.90	3.39	-51.6	-66.5	3.8	1.49e+00	0	34	104	0	73	21607
2026-01-18 03:56:17.33	44.63	3.64	-51.6	-66.6	3.8	1.49e+00	0	34	104	0	73	21798
2026-01-18 03:56:21.36	44.37	3.88	-51.6	-65.6	3.8	1.49e+00	0	34	104	0	73	19559
2026-01-18 03:56:25.39	44.10	4.13	-51.4	-63.3	4.1	1.44e+00	0	34	0	0	73	15015
2026-01-18 03:56:29.42	43.82	4.38	-51.2	-60.9	5.1	7.03e-01	0	34	0	4194304	73	11311
2026-01-18 03:56:33.45	43.54	4.62	-51.2	-60.8	5.1	6.05e-01	0	34	0	12582912	73	11208
2026-01-18 03:56:37.48	43.26	4.87	-51.4	-62.3	4.4	1.14e+00	144	34	0	19922944	73	13404
2026-01-18 03:56:41.52	42.96	5.13	-51.1	-58.3	7.3	5.23e-02	0	34	0	24117248	73	8443
2026-01-18 03:56:45.54	42.67	5.38	-51.5	-61.2	4.2	1.48e+00	0	35	104	26214400	74	11053
2026-01-18 03:56:49.58	42.37	5.64	-49.4	-52.9	13.2	4.95e-05	0	35	0	32505856	70	5395
2026-01-18 03:56:53.61	42.06	5.89	-48.7	-51.6	14.7	7.00e-07	0	35	0	39845888	69	4879
2026-01-18 03:56:57.64	41.75	6.15	-48.6	-51.3	15.0	0.00e+00	0	35	0	47185920	68	5034
2026-01-18 03:57:01.67	41.43	6.41	-48.6	-51.4	15.1	0.00e+00	0	34	0	54525952	68	5049
2026-01-18 03:57:05.70	41.10	6.68	-48.6	-51.3	15.1	0.00e+00	0	35	0	62914560	68	5041
2026-01-18 03:57:09.73	40.77	6.94	-48.4	-51.0	15.5	0.00e+00	0	35	0	70254592	68	4838
2026-01-18 03:57:13.76	40.44	7.21	-48.3	-50.8	15.7	0.00e+00	0	35	0	77594624	68	4722
2026-01-18 03:57:17.79	40.09	7.48	-48.3	-50.7	15.9	0.00e+00	0	35	0	84934656	68	4670
2026-01-18 03:57:21.82	39.74	7.74	-48.4	-51.0	15.6	0.00e+00	0	35	0	93323264	68	4819
2026-01-18 03:57:25.86	39.38	8.02	-48.4	-50.9	15.7	0.00e+00	0	35	0	100663296	68	4800
2026-01-18 03:57:29.89	39.02	8.29	-48.5	-51.1	15.5	0.00e+00	0	35	0	108003328	68	4894
2026-01-18 03:57:33.92	38.65	8.57	-48.4	-50.9	15.8	0.00e+00	0	35	0	115343360	68	4791
2026-01-18 03:57:37.95	38.27	8.84	-48.4	-50.8	15.9	0.00e+00	0	35	0	122683392	68	4743
2026-01-18 03:57:41.98	37.88	9.12	-48.3	-50.7	16.1	0.00e+00	0	35	0	131072000	68	4660
2026-01-18 03:57:46.01	37.49	9.40	-48.4	-50.8	15.9	0.00e+00	0	35	0	138412032	68	4744
2026-01-18 03:57:50.04	37.09	9.68	-48.2	-50.5	16.2	0.00e+00	0	35	0	145752064	68	4597
2026-01-18 03:57:54.08	36.68	9.97	-48.4	-50.7	16.1	0.00e+00	0	35	0	153092096	68	4688
2026-01-18 03:57:58.12	36.26	10.26	-48.3	-50.6	16.2	0.00e+00	0	35	0	161480704	68	4625
2026-01-18 03:58:02.15	35.83	10.54	-48.3	-50.5	16.3	0.00e+00	0	35	0	168820736	68	4597
2026-01-18 03:58:06.18	35.39	10.83	-48.0	-50.1	16.7	0.00e+00	0	35	0	176160768	68	4390
2026-01-18 03:58:10.21	34.95	11.12	-47.8	-49.9	16.9	0.00e+00	0	35	0	183500800	67	4496
2026-01-18 03:58:14.24	34.49	11.42	-47.8	-49.8	17.0	0.00e+00	0	35	0	190840832	67	4493
2026-01-18 03:58:18.27	34.03	11.71	-47.8	-49.9	16.9	0.00e+00	0	35	0	198180864	67	4521
2026-01-18 03:58:22.30	33.56	12.01	-47.8	-49.9	17.0	0.00e+00	0	35	0	206569472	67	4504
2026-01-18 03:58:26.33	33.07	12.31	-47.9	-50.0	16.8	0.00e+00	0	35	0	213909504	67	4597
2026-01-18 03:58:30.37	32.58	12.61	-47.8	-49.9	17.0	0.00e+00	0	35	0	221249536	67	4520
2026-01-18 03:58:34.40	32.07	12.91	-47.6	-49.6	17.2	0.00e+00	0	35	0	228589568	67	4387
2026-01-18 03:58:38.43	31.56	13.21	-47.6	-49.6	17.3	0.00e+00	0	35	0	236978176	67	4348
2026-01-18 03:58:42.46	31.03	13.51	-47.6	-49.5	17.4	0.00e+00	0	35	0	244318208	67	4315
2026-01-18 03:58:46.49	30.50	13.82	-47.6	-49.6	17.4	0.00e+00	0	35	0	251658240	66	4617
2026-01-18 03:58:50.52	29.95	14.13	-47.4	-49.3	17.6	0.00e+00	0	35	0	258998272	66	4470
2026-01-18 03:58:54.55	29.39	14.43	-47.3	-49.1	17.9	0.00e+00	0	35	0	266338304	66	4366
2026-01-18 03:58:58.58	28.82	14.74	-47.3	-49.2	17.8	0.00e+00	0	35	0	274726912	66	4409
2026-01-18 03:59:02.61	28.23	15.05	-47.4	-49.2	17.8	0.00e+00	0	35	0	282066944	66	4416
2026-01-18 03:59:06.64	27.64	15.36	-47.1	-48.9	18.1	0.00e+00	0	35	0	289406976	66	4256
2026-01-18 03:59:10.68	27.03	15.68	-47.0	-48.8	18.2	0.00e+00	0	35	0	296747008	65	4449
2026-01-18 03:59:14.71	26.40	15.99	-47.0	-48.7	18.3	0.00e+00	0	35	0	304087040	65	4432
2026-01-18 03:59:18.74	25.77	16.30	-47.1	-48.9	18.1	0.00e+00	0	35	0	312475648	65	4525
2026-01-18 03:59:22.77	25.12	16.61	-47.2	-49.0	18.0	0.00e+00	0	35	0	319815680	65	4594
2026-01-18 03:59:26.80	24.46	16.92	-47.3	-49.0	18.0	0.00e+00	0	35	0	327155712	65	4593
2026-01-18 03:59:30.83	23.78	17.24	-47.4	-49.2	17.9	0.00e+00	0	35	0	334495744	65	4671
2026-01-18 03:59:34.86	23.09	17.55	-47.4	-49.2	17.9	0.00e+00	0	35	0	341835776	65	4688
2026-01-18 03:59:38.89	22.38	17.86	-47.4	-49.2	17.9	0.00e+00	0	35	0	350224384	65	4667
2026-01-18 03:59:42.92	21.66	18.17	-47.4	-49.2	17.9	0.00e+00	0	35	0	357564416	65	4674
2026-01-18 03:59:46.95	20.92	18.48	-47.6	-49.5	17.6	0.00e+00	0	35	0	364904448	65	4864
2026-01-18 03:59:50.98	20.17	18.79	-47.5	-49.3	17.9	0.00e+00	0	35	0	372244480	65	4729
2026-01-18 03:59:55.01	19.40	19.10	-47.3	-49.1	18.0	0.00e+00	0	35	0	380633088	65	4620
2026-01-18 03:59:59.04	18.62	19.40	-47.2	-49.0	18.1	0.00e+00	0	35	0	387973120	65	4574
2026-01-18 04:00:03.08	17.82	19.71	-47.1	-48.8	18.4	0.00e+00	0	35	0	395313152	65	4457
2026-01-18 04:00:07.11	17.00	20.01	-47.0	-48.6	18.5	0.00e+00	0	35	0	402653184	65	4390
2026-01-18 04:00:11.14	16.17	20.31	-46.7	-48.3	18.8	0.00e+00	0	35	0	409993216	65	4241
2026-01-18 04:00:15.17	15.32	20.61	-46.3	-47.8	19.3	0.00e+00	0	35	0	417333248	64	4227
2026-01-18 04:00:19.20	14.45	20.90	-45.9	-47.3	19.9	0.00e+00	0	35	0	425721856	63	4239
2026-01-18 04:00:23.24	13.57	21.19	-45.7	-47.0	20.2	0.00e+00	0	35	0	433061888	63	4097
2026-01-18 04:00:27.27	12.67	21.47	-45.7	-47.1	20.1	0.00e+00	0	35	0	440401920	63	4116
2026-01-18 04:00:31.29	11.76	21.75	-45.6	-46.9	20.3	0.00e+00	0	35	0	447741952	63	4039
2026-01-18 04:00:35.33	10.82	22.03	-45.6	-47.0	20.3	0.00e+00	0	35	0	456130560	63	4054
2026-01-18 04:00:39.36	9.87	22.30	-45.5	-46.8	20.5	0.00e+00	0	35	0	463470592	63	3981
2026-01-18 04:00:43.39	8.91	22.56	-45.4	-46.7	20.5	0.00e+00	0	35	0	470810624	62	4169
2026-01-18 04:00:47.42	7.93	22.82	-45.7	-47.1	20.2	0.00e+00	0	35	0	478150656	62	4353
2026-01-18 04:00:51.45	6.93	23.07	-45.6	-47.0	20.4	0.00e+00	0	35	0	485490688	62	4292
2026-01-18 04:00:55.49	5.91	23.31	-45.9	-47.2	20.1	0.00e+00	0	35	0	493879296	62	4424
2026-01-18 04:00:59.52	4.88	23.55	-45.4	-46.7	20.6	0.00e+00	0	35	0	501219328	62	4166
2026-01-18 04:01:03.55	3.84	23.78	-45.3	-46.6	20.7	0.00e+00	0	35	0	508559360	62	4126
2026-01-18 04:01:07.58	2.77	24.00	-45.5	-46.8	20.5	0.00e+00	0	35	0	515899392	62	4237
2026-01-18 04:01:11.62	1.70	24.21	-45.2	-46.5	20.8	0.00e+00	0	35	0	524288000	62	4059
2026-01-18 04:01:15.65	0.61	24.41	-44.9	-46.1	21.1	0.00e+00	0	35	0	531628032	61	4129
2026-01-18 04:01:19.68	359.50	24.60	-45.4	-46.7	20.6	0.00e+00	0	35	0	538968064	61	4396
2026-01-18 04:01:23.71	358.38	24.78	-45.7	-47.0	20.3	0.00e+00	0	35	0	546308096	61	4579
2026-01-18 04:01:27.74	357.26	24.95	-46.0	-47.3	19.9	0.00e+00	0	35	0	553648128	62	4478
2026-01-18 04:01:31.77	356.11	25.11	-46.2	-47.7	19.7	0.00e+00	0	35	0	560988160	63	4404
2026-01-18 04:01:35.80	354.96	25.25	-46.2	-47.6	19.8	0.00e+00	0	35	0	569376768	63	4376
2026-01-18 04:01:39.84	353.79	25.39	-46.6	-48.2	19.1	0.00e+00	0	35	0	576716800	64	4412
2026-01-18 04:01:43.87	352.62	25.51	-46.8	-48.4	18.9	0.00e+00	0	35	0	584056832	64	4512
2026-01-18 04:01:47.90	351.44	25.62	-47.0	-48.7	18.7	0.00e+00	0	35	0	591396864	64	4653
2026-01-18 04:01:51.94	350.25	25.72	-47.0	-48.6	18.8	0.00e+00	0	35	0	599785472	64	4617
2026-01-18 04:01:55.97	349.05	25.80	-47.2	-48.9	18.5	0.00e+00	0	35	0	607125504	64	4761
2026-01-18 04:02:00.00	347.85	25.87	-47.2	-48.8	18.5	0.00e+00	0	35	0	614465536	65	4480
2026-01-18 04:02:04.03	346.64	25.92	-47.1	-48.8	18.5	0.00e+00	0	35	0	621805568	65	4459
2026-01-18 04:02:08.06	345.43	25.96	-47.3	-49.1	18.2	0.00e+00	0	35	0	629145600	65	4601
2026-01-18 04:02:12.09	344.22	25.99	-47.2	-48.9	18.5	0.00e+00	0	35	0	637534208	65	4514
2026-01-18 04:02:16.13	343.00	26.00	-46.9	-48.5	18.8	0.00e+00	0	35	0	644874240	65	4339
2026-01-18 04:02:20.16	341.79	26.00	-46.9	-48.5	18.8	0.00e+00	0	35	0	652214272	65	4328
2026-01-18 04:02:24.19	340.57	25.99	-46.4	-47.8	19.5	0.00e+00	0	35	0	659554304	64	4233
2026-01-18 04:02:28.22	339.36	25.96	-46.0	-47.4	19.9	0.00e+00	0	35	0	666894336	64	4045
2026-01-18 04:02:32.25	338.15	25.92	-45.9	-47.2	20.2	0.00e+00	0	35	0	675282944	63	4167
2026-01-18 04:02:36.29	336.94	25.86	-45.8	-47.2	20.2	0.00e+00	0	35	0	682622976	63	4153
2026-01-18 04:02:40.32	335.74	25.79	-45.2	-46.4	21.0	0.00e+00	0	35	0	689963008	62	4022
2026-01-18 04:02:44.35	334.54	25.70	-45.1	-46.4	21.0	0.00e+00	0	35	0	697303040	62	4007
2026-01-18 04:02:48.38	333.36	25.60	-45.2	-46.4	20.9	0.00e+00	0	35	0	704643072	62	4047
2026-01-18 04:02:52.41	332.18	25.49	-45.1	-46.3	21.1	0.00e+00	0	35	0	713031680	62	3963
2026-01-18 04:02:56.44	331.00	25.37	-45.5	-46.7	20.6	0.00e+00	0	35	0	720371712	62	4189
2026-01-18 04:03:00.45	329.85	25.23	-45.5	-46.8	20.6	0.00e+00	0	35	0	727711744	62	4224
2026-01-18 04:03:04.48	328.70	25.09	-45.7	-47.1	20.3	0.00e+00	0	35	0	735051776	62	4352
2026-01-18 04:03:08.51	327.55	24.93	-46.2	-47.5	19.9	0.00e+00	0	35	0	743440384	62	4597
2026-01-18 04:03:12.54	326.43	24.76	-46.2	-47.6	19.8	0.00e+00	0	35	0	750780416	63	4370
2026-01-18 04:03:16.57	325.31	24.57	-46.5	-48.0	19.4	0.00e+00	0	35	0	758120448	63	4586
2026-01-18 04:03:20.60	324.21	24.38	-46.6	-48.1	19.2	0.00e+00	0	35	0	765460480	64	4389
2026-01-18 04:03:24.63	323.12	24.18	-46.9	-48.5	18.8	0.00e+00	0	35	0	772800512	64	4582
2026-01-18 04:03:28.66	322.04	23.97	-46.9	-48.5	18.9	0.00e+00	0	35	0	780140544	64	4554
2026-01-18 04:03:32.70	320.98	23.75	-47.2	-48.8	18.5	0.00e+00	0	35	0	788529152	64	4742
2026-01-18 04:03:36.73	319.94	23.52	-46.9	-48.5	18.9	0.00e+00	0	35	0	795869184	64	4550
2026-01-18 04:03:40.76	318.91	23.28	-47.0	-48.7	18.7	0.00e+00	0	35	0	803209216	64	4666
2026-01-18 04:03:44.79	317.90	23.03	-47.3	-49.0	18.4	0.00e+00	0	35	0	810549248	65	4567
2026-01-18 04:03:48.82	316.90	22.78	-46.8	-48.3	19.0	0.00e+00	0	35	0	818937856	65	4240
2026-01-18 04:03:52.85	315.92	22.52	-47.0	-48.7	18.7	0.00e+00	0	35	0	826277888	65	4412
2026-01-18 04:03:56.88	314.95	22.26	-46.7	-48.2	19.1	0.00e+00	0	35	0	833617920	65	4161
2026-01-18 04:04:00.92	314.00	21.99	-46.3	-47.8	19.5	0.00e+00	0	35	0	840957952	64	4209
2026-01-18 04:04:04.95	313.07	21.71	-46.2	-47.7	19.6	0.00e+00	0	35	0	848297984	64	4151
2026-01-18 04:04:08.98	312.16	21.43	-46.1	-47.6	19.7	0.00e+00	0	35	0	856686592	64	4107
2026-01-18 04:04:13.01	311.26	21.15	-46.1	-47.4	19.9	0.00e+00	0	35	0	864026624	63	4287
2026-01-18 04:04:17.04	310.38	20.86	-46.1	-47.5	19.8	0.00e+00	0	35	0	871366656	63	4338
2026-01-18 04:04:21.07	309.52	20.56	-46.1	-47.4	19.9	0.00e+00	0	35	0	878706688	63	4288
2026-01-18 04:04:25.10	308.67	20.27	-46.2	-47.6	19.7	0.00e+00	0	35	0	887095296	63	4377
2026-01-18 04:04:29.13	307.84	19.97	-46.1	-47.5	19.8	0.00e+00	0	35	0	894435328	63	4313
2026-01-18 04:04:33.16	307.03	19.67	-45.9	-47.2	20.1	0.00e+00	0	35	0	901775360	63	4183
2026-01-18 04:04:37.19	306.23	19.36	-45.8	-47.2	20.1	0.00e+00	0	35	0	909115392	63	4161
2026-01-18 04:04:41.22	305.45	19.05	-45.7	-47.0	20.3	0.00e+00	0	35	0	916455424	63	4082
2026-01-18 04:04:45.25	304.68	18.75	-45.5	-46.8	20.5	0.00e+00	0	35	0	923795456	63	3981
2026-01-18 04:04:49.29	303.93	18.44	-45.2	-46.4	20.9	0.00e+00	0	35	0	932184064	62	4029
2026-01-18 04:04:53.32	303.19	18.13	-45.4	-46.6	20.6	0.00e+00	0	35	0	939524096	62	4137
2026-01-18 04:04:57.35	302.47	17.81	-45.4	-46.7	20.6	0.00e+00	0	35	0	946864128	62	4152
2026-01-18 04:05:01.38	301.76	17.50	-45.1	-46.3	20.9	0.00e+00	0	35	0	954204160	62	4003
2026-01-18 04:05:05.42	301.07	17.19	-45.3	-46.6	20.7	0.00e+00	0	35	0	962592768	62	4123
2026-01-18 04:05:09.45	300.40	16.88	-45.5	-46.8	20.5	0.00e+00	0	35	0	969932800	62	4221
2026-01-18 04:05:13.48	299.73	16.56	-45.4	-46.6	20.6	0.00e+00	0	35	0	977272832	62	4139
2026-01-18 04:05:17.52	299.08	16.25	-45.5	-46.7	20.5	0.00e+00	0	35	0	984612864	62	4191
2026-01-18 04:05:21.55	298.45	15.94	-45.6	-46.9	20.4	0.00e+00	0	35	0	991952896	62	4282
2026-01-18 04:05:25.58	297.83	15.62	-46.0	-47.4	19.9	0.00e+00	0	35	0	1000341504	62	4533
2026-01-18 04:05:29.61	297.22	15.31	-46.3	-47.8	19.5	0.00e+00	0	35	0	1007681536	63	4452
2026-01-18 04:05:33.64	296.62	15.00	-46.5	-48.0	19.3	0.00e+00	0	35	0	1015021568	63	4563
2026-01-18 04:05:37.68	296.04	14.69	-46.4	-47.8	19.5	0.00e+00	0	35	0	1022361600	63	4484
2026-01-18 04:05:41.71	295.47	14.38	-46.4	-47.9	19.3	0.00e+00	0	35	0	1029701632	63	4529
2026-01-18 04:05:45.74	294.91	14.08	-46.7	-48.2	19.1	0.00e+00	0	35	0	1038090240	63	4692
2026-01-18 04:05:49.78	294.36	13.77	-46.7	-48.3	18.9	0.00e+00	0	35	0	1045430272	64	4442
2026-01-18 04:05:53.81	293.82	13.46	-46.7	-48.3	18.9	0.00e+00	0	35	0	1052770304	64	4485
2026-01-18 04:05:57.84	293.30	13.16	-46.7	-48.3	18.8	0.00e+00	0	35	0	1060110336	64	4488
2026-01-18 04:06:01.87	292.78	12.86	-47.0	-48.7	18.5	0.00e+00	0	35	0	1067450368	64	4655
2026-01-18 04:06:05.90	292.28	12.56	-47.1	-48.8	18.4	0.00e+00	0	35	0	1075838976	64	4733
2026-01-18 04:06:09.93	291.79	12.26	-47.2	-49.0	18.2	0.00e+00	0	35	0	1083179008	65	4554
2026-01-18 04:06:13.96	291.31	11.96	-47.0	-48.7	18.4	0.00e+00	0	35	0	1090519040	65	4433
2026-01-18 04:06:18.00	290.83	11.66	-47.3	-49.1	18.0	0.00e+00	0	35	0	1097859072	65	4639
2026-01-18 04:06:22.03	290.37	11.37	-47.5	-49.4	17.7	0.00e+00	0	35	0	1106247680	65	4789
2026-01-18 04:06:26.06	289.91	11.07	-47.6	-49.5	17.6	0.00e+00	0	35	0	1113587712	65	4834
2026-01-18 04:06:30.09	289.47	10.78	-47.8	-49.8	17.3	0.00e+00	0	35	0	1120927744	66	4739
2026-01-18 04:06:34.12	289.03	10.49	-48.1	-50.2	16.9	0.00e+00	0	35	0	1128267776	66	4942
2026-01-18 04:06:38.15	288.61	10.20	-48.1	-50.2	16.9	0.00e+00	0	35	0	1135607808	66	4934
2026-01-18 04:06:42.18	288.19	9.92	-48.3	-50.5	16.6	0.00e+00	0	35	0	1142947840	67	4831
2026-01-18 04:06:46.21	287.78	9.63	-48.3	-50.5	16.5	0.00e+00	0	35	0	1151336448	67	4863
2026-01-18 04:06:50.24	287.38	9.35	-48.2	-50.4	16.6	0.00e+00	0	35	0	1158676480	67	4795
2026-01-18 04:06:54.28	286.98	9.07	-48.2	-50.4	16.6	0.00e+00	0	35	0	1166016512	67	4764
2026-01-18 04:06:58.31	286.60	8.79	-48.2	-50.4	16.6	0.00e+00	0	35	0	1173356544	67	4790
2026-01-18 04:07:02.34	286.22	8.51	-48.4	-50.7	16.3	0.00e+00	0	35	0	1181745152	67	4948
2026-01-18 04:07:06.38	285.84	8.24	-48.5	-50.9	16.0	0.00e+00	0	35	0	1189085184	67	5082
2026-01-18 04:07:10.41	285.48	7.97	-48.5	-50.9	16.0	0.00e+00	0	35	0	1196425216	67	5090
2026-01-18 04:07:14.44	285.12	7.69	-48.6	-51.1	15.8	0.00e+00	0	35	0	1203765248	67	5168
2026-01-18 04:07:18.47	284.77	7.42	-48.8	-51.4	15.5	0.00e+00	0	35	0	1211105280	68	5068
2026-01-18 04:07:22.50	284.43	7.16	-49.1	-51.9	15.1	0.00e+00	0	35	0	1219493888	68	5344
2026-01-18 04:07:26.53	284.09	6.89	-49.3	-52.1	14.7	7.00e-07	0	35	0	1226833920	69	5209
2026-01-18 04:07:30.56	283.76	6.63	-49.2	-52.1	14.7	7.00e-07	0	35	0	1234173952	69	5199
2026-01-18 04:07:34.59	283.44	6.36	-49.1	-51.9	14.9	0.00e+00	0	35	0	1241513984	69	5057
2026-01-18 04:07:38.62	283.12	6.10	-49.1	-51.9	14.8	0.00e+00	0	35	0	1249902592	69	5055
2026-01-18 04:07:42.65	282.80	5.84	-49.1	-51.9	14.7	0.00e+00	0	35	0	1257242624	69	5080
2026-01-18 04:07:46.68	282.50	5.59	-49.1	-51.9	14.7	7.00e-07	0	35	0	1264582656	69	5086
2026-01-18 04:07:50.71	282.19	5.33	-49.1	-52.1	14.5	1.50e-06	0	35	0	1271922688	69	5178
2026-01-18 04:07:54.75	281.90	5.08	-49.1	-52.2	14.3	7.00e-07	0	35	0	1279262720	69	5240
2026-01-18 04:07:58.78	281.61	4.83	-53.3	-68.3	3.8	1.49e+00	0	35	104	1281359872	77	21172
2026-01-18 04:08:02.81	281.32	4.57	-53.7	-68.7	3.8	1.49e+00	0	36	104	1281359872	77	22143
2026-01-18 04:08:06.85	281.04	4.33	-53.9	-68.9	3.8	1.49e+00	0	35	104	1281359872	78	21430
2026-01-18 04:08:10.88	280.76	4.08	-54.1	-69.1	3.8	1.49e+00	0	36	104	1281359872	78	21801
2026-01-18 04:08:14.91	280.49	3.83	-54.1	-69.2	3.8	1.49e+00	0	35	104	1281359872	78	22047
2026-01-18 04:08:18.94	280.23	3.59	-54.1	-69.2	3.8	1.49e+00	0	35	104	1281359872	78	22069
2026-01-18 04:08:22.97	279.96	3.35	-54.1	-69.1	3.8	1.49e+00	0	35	104	1281359872	78	21860
2026-01-18 04:08:27.01	279.71	3.10	-54.0	-69.0	3.8	1.49e+00	0	35	104	1281359872	78	21681
2026-01-18 04:08:31.04	279.45	2.87	-54.0	-69.0	3.8	1.49e+00	0	36	104	1281359872	78	21597
2026-01-18 04:08:35.07	279.21	2.63	-54.0	-69.0	3.8	1.49e+00	0	36	104	1281359872	78	21597
2026-01-18 04:08:39.10	278.96	2.39	-54.0	-69.0	3.8	1.49e+00	0	36	104	1281359872	78	21537
2026-01-18 04:08:43.13	278.72	2.16	-53.9	-69.0	3.8	1.49e+00	0	35	104	1281359872	78	21519
2026-01-18 04:08:47.17	278.48	1.92	-53.9	-69.0	3.8	1.49e+00	0	35	104	1281359872	78	21536

#Closed at: 2026-01-18 04:08:48
#Recorded file [1281 MB]: D:/lorett/data/31041_260118_065548.dat