passes_logs/2026/01/18/R3.2S_Murmansk/R3.2S_Murmansk__20260118_101234_SUOMI_NPP_rec.log

#Pass ID: 20260118_101234_SUOMI NPP
#Satellite: SUOMI NPP
#Configuration: NPP
#almurnet v.1.7.20251203
#Start time: 2026-01-18 10:12:34

#Version: 2.2.20231116
#Station: R3.2S_Murmansk
#Location: 33.079688 lon 68.888172 lat
#TLE: 1 37849U 11061A   26017.57099531  .00000072  00000+0  54974-4 0  9996
#TLE: 2 37849  98.7814 319.5974 0002398  59.1749 300.9663 14.19525865737072

#Time	Az	El	Level	Level2	SNR	BER	BlckErr	Temp	State	Recorded	gain1	gain2
2026-01-18 10:12:34.47	166.51	2.02	-52.3	-67.2	3.8	1.49e+00	0	34	0	0	76	19716
2026-01-18 10:12:38.50	166.59	2.28	-52.2	-67.1	3.8	1.49e+00	0	34	104	0	75	20607
2026-01-18 10:12:42.54	166.67	2.54	-52.2	-66.9	3.8	1.49e+00	0	34	104	0	75	20124
2026-01-18 10:12:46.57	166.75	2.80	-52.2	-66.9	3.8	1.49e+00	0	34	104	0	75	20198
2026-01-18 10:12:50.60	166.84	3.06	-52.2	-66.9	3.8	1.49e+00	0	34	104	0	75	20074
2026-01-18 10:12:54.63	166.92	3.33	-52.2	-67.2	3.8	1.49e+00	0	34	104	0	75	20780
2026-01-18 10:12:58.67	167.01	3.60	-52.2	-66.2	3.8	1.49e+00	0	35	104	0	75	18542
2026-01-18 10:13:02.70	167.10	3.87	-52.0	-62.7	4.5	1.15e+00	15	34	0	0	75	12457
2026-01-18 10:13:06.73	167.19	4.15	-51.7	-60.3	5.9	3.77e-01	0	35	0	8388608	75	9397
2026-01-18 10:13:10.77	167.28	4.43	-51.1	-57.4	8.5	6.48e-02	0	35	0	15728640	74	7143
2026-01-18 10:13:14.80	167.37	4.71	-49.8	-53.7	12.4	4.41e-04	0	35	0	23068672	71	5570
2026-01-18 10:13:18.83	167.46	4.99	-49.0	-52.2	13.9	2.20e-06	0	35	0	30408704	69	5253
2026-01-18 10:13:22.86	167.56	5.28	-50.9	-56.4	9.7	1.38e-02	0	35	0	37748736	73	6787
2026-01-18 10:13:26.89	167.66	5.57	-48.6	-51.4	14.8	7.00e-07	0	35	0	46137344	69	4783
2026-01-18 10:13:30.92	167.76	5.86	-48.4	-51.0	15.2	0.00e+00	0	35	0	53477376	68	4857
2026-01-18 10:13:34.96	167.86	6.16	-48.1	-50.6	15.7	0.00e+00	0	35	0	60817408	68	4626
2026-01-18 10:13:38.99	167.96	6.46	-47.8	-50.1	16.1	0.00e+00	0	35	0	68157440	67	4643
2026-01-18 10:13:43.02	168.06	6.76	-47.7	-50.0	16.3	0.00e+00	0	35	0	75497472	67	4565
2026-01-18 10:13:47.05	168.17	7.07	-47.7	-49.9	16.5	0.00e+00	0	35	0	83886080	67	4511
2026-01-18 10:13:51.08	168.28	7.38	-47.6	-49.7	16.6	0.00e+00	0	35	0	91226112	67	4418
2026-01-18 10:13:55.11	168.39	7.70	-47.4	-49.5	16.9	0.00e+00	0	35	0	98566144	66	4566
2026-01-18 10:13:59.14	168.50	8.01	-47.4	-49.4	17.0	0.00e+00	0	35	0	105906176	66	4511
2026-01-18 10:14:03.17	168.61	8.34	-47.1	-49.0	17.4	0.00e+00	0	35	0	113246208	66	4338
2026-01-18 10:14:07.21	168.73	8.66	-47.1	-49.1	17.4	0.00e+00	0	35	0	121634816	66	4341
2026-01-18 10:14:11.24	168.85	8.99	-47.1	-49.1	17.4	0.00e+00	0	35	0	128974848	65	4609
2026-01-18 10:14:15.27	168.97	9.33	-47.2	-49.1	17.4	0.00e+00	0	35	0	136314880	65	4650
2026-01-18 10:14:19.30	169.09	9.67	-46.9	-48.8	17.8	0.00e+00	0	35	0	143654912	65	4443
2026-01-18 10:14:23.34	169.22	10.01	-46.7	-48.4	18.1	0.00e+00	0	35	0	152043520	65	4274
2026-01-18 10:14:27.37	169.35	10.36	-46.5	-48.2	18.3	0.00e+00	0	35	0	159383552	64	4416
2026-01-18 10:14:31.40	169.48	10.72	-46.4	-48.1	18.4	0.00e+00	0	35	0	166723584	64	4372
2026-01-18 10:14:35.43	169.62	11.07	-46.3	-47.9	18.7	0.00e+00	0	35	0	174063616	64	4273
2026-01-18 10:14:39.47	169.75	11.44	-46.5	-48.2	18.4	0.00e+00	0	35	0	181403648	64	4427
2026-01-18 10:14:43.50	169.89	11.81	-46.3	-47.9	18.7	0.00e+00	0	35	0	189792256	64	4278
2026-01-18 10:14:47.53	170.04	12.18	-46.1	-47.6	19.0	0.00e+00	0	35	0	197132288	64	4118
2026-01-18 10:14:51.55	170.19	12.56	-46.1	-47.7	19.1	0.00e+00	0	35	0	204472320	63	4404
2026-01-18 10:14:55.58	170.34	12.95	-46.1	-47.6	19.1	0.00e+00	0	35	0	211812352	63	4388
2026-01-18 10:14:59.62	170.49	13.34	-46.2	-47.8	19.0	0.00e+00	0	35	0	219152384	63	4445
2026-01-18 10:15:03.65	170.65	13.74	-46.1	-47.7	19.1	0.00e+00	0	35	0	227540992	63	4393
2026-01-18 10:15:07.68	170.81	14.15	-46.0	-47.4	19.3	0.00e+00	0	35	0	234881024	63	4285
2026-01-18 10:15:11.71	170.98	14.56	-46.0	-47.5	19.3	0.00e+00	0	35	0	242221056	63	4314
2026-01-18 10:15:15.74	171.15	14.98	-46.1	-47.6	19.2	0.00e+00	0	35	0	249561088	63	4350
2026-01-18 10:15:19.77	171.32	15.40	-46.2	-47.7	19.1	0.00e+00	0	35	0	256901120	63	4402
2026-01-18 10:15:23.80	171.50	15.84	-46.2	-47.7	19.2	0.00e+00	0	35	0	265289728	63	4411
2026-01-18 10:15:27.83	171.69	16.28	-46.2	-47.7	19.2	0.00e+00	0	35	0	272629760	63	4418
2026-01-18 10:15:31.87	171.88	16.73	-46.1	-47.6	19.3	0.00e+00	0	35	0	279969792	63	4377
2026-01-18 10:15:35.90	172.07	17.19	-46.3	-47.8	19.1	0.00e+00	0	35	0	287309824	63	4456
2026-01-18 10:15:39.93	172.27	17.65	-46.2	-47.7	19.2	0.00e+00	0	35	0	295698432	63	4422
2026-01-18 10:15:43.96	172.48	18.13	-46.2	-47.7	19.3	0.00e+00	0	35	0	303038464	63	4416
2026-01-18 10:15:47.99	172.69	18.61	-46.6	-48.2	18.7	0.00e+00	0	35	0	310378496	63	4692
2026-01-18 10:15:52.02	172.91	19.10	-46.3	-47.9	19.0	0.00e+00	0	35	0	317718528	64	4255
2026-01-18 10:15:56.05	173.14	19.60	-46.6	-48.2	18.7	0.00e+00	0	35	0	325058560	64	4426
2026-01-18 10:16:00.08	173.37	20.11	-47.0	-48.7	18.2	0.00e+00	0	35	0	333447168	64	4678
2026-01-18 10:16:04.11	173.61	20.64	-46.8	-48.5	18.4	0.00e+00	0	35	0	340787200	64	4581
2026-01-18 10:16:08.13	173.86	21.17	-46.8	-48.5	18.4	0.00e+00	0	35	0	348127232	64	4584
2026-01-18 10:16:12.17	174.11	21.71	-46.7	-48.3	18.6	0.00e+00	0	35	0	355467264	64	4490
2026-01-18 10:16:16.20	174.38	22.27	-46.1	-47.6	19.3	0.00e+00	0	35	0	362807296	64	4105
2026-01-18 10:16:20.23	174.65	22.84	-46.2	-47.7	19.2	0.00e+00	0	35	0	371195904	64	4171
2026-01-18 10:16:24.26	174.94	23.41	-46.0	-47.4	19.6	0.00e+00	0	35	0	378535936	63	4258
2026-01-18 10:16:28.29	175.23	24.01	-46.3	-47.8	19.3	0.00e+00	0	35	0	385875968	63	4449
2026-01-18 10:16:32.32	175.54	24.61	-46.7	-48.3	18.7	0.00e+00	0	35	0	393216000	64	4490
2026-01-18 10:16:36.35	175.85	25.23	-46.7	-48.3	18.7	0.00e+00	0	35	0	400556032	64	4477
2026-01-18 10:16:40.38	176.18	25.86	-46.9	-48.5	18.5	0.00e+00	0	35	0	408944640	64	4585
2026-01-18 10:16:44.42	176.52	26.51	-46.3	-47.8	19.2	0.00e+00	0	35	0	416284672	64	4210
2026-01-18 10:16:48.44	176.88	27.17	-45.5	-46.8	20.2	0.00e+00	0	35	0	423624704	62	4210
2026-01-18 10:16:52.48	177.24	27.85	-45.4	-46.6	20.4	0.00e+00	0	35	0	430964736	62	4143
2026-01-18 10:16:56.51	177.63	28.54	-45.7	-47.0	20.1	0.00e+00	0	35	0	439353344	62	4312
2026-01-18 10:17:00.54	178.03	29.25	-46.0	-47.4	19.8	0.00e+00	0	35	0	446693376	63	4244
2026-01-18 10:17:04.57	178.45	29.97	-47.2	-49.0	18.1	0.00e+00	0	35	0	454033408	65	4582
2026-01-18 10:17:08.60	178.89	30.71	-47.6	-49.4	17.7	0.00e+00	0	36	0	461373440	65	4811
2026-01-18 10:17:12.63	179.34	31.47	-48.0	-50.0	17.2	0.00e+00	0	35	0	468713472	66	4828
2026-01-18 10:17:16.66	179.82	32.25	-49.3	-51.9	15.5	0.00e+00	0	35	0	476053504	69	5062
2026-01-18 10:17:20.69	180.32	33.05	-48.6	-50.8	16.5	0.00e+00	0	35	0	484442112	68	4749
2026-01-18 10:17:24.72	180.85	33.86	-48.2	-50.2	17.1	0.00e+00	0	35	0	491782144	68	4424
2026-01-18 10:17:28.76	181.40	34.70	-48.3	-50.3	16.9	0.00e+00	0	35	0	499122176	67	4743
2026-01-18 10:17:32.79	181.98	35.56	-48.6	-50.8	16.5	0.00e+00	0	36	0	506462208	68	4708
2026-01-18 10:17:36.82	182.59	36.43	-49.0	-51.4	15.9	0.00e+00	0	35	0	514850816	69	4813
2026-01-18 10:17:40.85	183.24	37.33	-48.9	-51.2	16.3	0.00e+00	0	35	0	522190848	69	4677
2026-01-18 10:17:44.88	183.92	38.24	-48.2	-50.2	17.2	0.00e+00	0	36	0	529530880	68	4411
2026-01-18 10:17:48.91	184.63	39.18	-49.9	-52.8	14.5	2.20e-06	0	35	0	536870912	70	5326
2026-01-18 10:17:52.95	185.40	40.14	-50.5	-53.8	13.7	2.20e-06	0	35	0	544210944	71	5610
2026-01-18 10:17:56.98	186.20	41.12	-49.8	-52.7	14.8	0.00e+00	0	35	0	552599552	71	4967
2026-01-18 10:18:01.01	187.06	42.12	-48.3	-50.2	17.2	0.00e+00	0	36	0	559939584	68	4438
2026-01-18 10:18:05.04	187.97	43.14	-47.6	-49.4	17.9	0.00e+00	0	36	0	567279616	67	4282
2026-01-18 10:18:09.07	188.94	44.18	-47.6	-49.4	18.0	0.00e+00	0	35	0	574619648	66	4501
2026-01-18 10:18:13.10	189.97	45.24	-47.3	-49.0	18.2	0.00e+00	0	35	0	581959680	66	4303
2026-01-18 10:18:17.13	191.08	46.31	-47.8	-49.6	17.8	0.00e+00	0	36	0	590348288	66	4619
2026-01-18 10:18:21.16	192.26	47.40	-46.9	-48.4	18.9	0.00e+00	0	36	0	597688320	65	4284
2026-01-18 10:18:25.19	193.53	48.51	-47.3	-49.1	18.2	0.00e+00	0	35	0	605028352	65	4610
2026-01-18 10:18:29.22	194.89	49.63	-45.8	-47.1	20.2	0.00e+00	0	36	0	612368384	63	4110
2026-01-18 10:18:33.25	196.35	50.76	-46.9	-48.5	18.8	0.00e+00	0	36	0	619708416	64	4572
2026-01-18 10:18:37.28	197.93	51.89	-45.5	-46.7	20.5	0.00e+00	0	36	0	628097024	62	4162
2026-01-18 10:18:41.31	199.63	53.03	-44.1	-45.1	22.2	0.00e+00	0	35	0	635437056	59	4145
2026-01-18 10:18:45.34	201.47	54.17	-45.4	-46.7	20.5	0.00e+00	0	36	0	642777088	61	4413
2026-01-18 10:18:49.38	203.46	55.31	-44.1	-45.2	21.9	0.00e+00	0	36	0	650117120	60	3918
2026-01-18 10:18:53.41	205.61	56.42	-45.3	-46.6	20.7	0.00e+00	0	36	0	658505728	62	4109
2026-01-18 10:18:57.45	207.94	57.53	-44.7	-45.9	21.3	0.00e+00	0	36	0	665845760	60	4247
2026-01-18 10:19:01.48	210.46	58.60	-44.9	-46.0	21.2	0.00e+00	0	36	0	673185792	61	4085
2026-01-18 10:19:05.51	213.19	59.64	-47.1	-48.8	18.5	0.00e+00	0	36	0	680525824	65	4465
2026-01-18 10:19:09.54	216.13	60.63	-46.3	-47.7	19.7	0.00e+00	0	35	0	687865856	63	4421
2026-01-18 10:19:13.57	219.31	61.56	-46.9	-48.5	18.9	0.00e+00	0	35	0	695205888	64	4591
2026-01-18 10:19:17.60	222.73	62.42	-45.8	-47.1	20.3	0.00e+00	0	35	0	703594496	62	4348
2026-01-18 10:19:21.63	226.38	63.21	-44.2	-45.3	21.9	0.00e+00	0	35	0	710934528	60	3978
2026-01-18 10:19:25.67	230.27	63.90	-45.1	-46.3	21.0	0.00e+00	0	36	0	718274560	60	4459
2026-01-18 10:19:29.70	234.38	64.48	-45.0	-46.2	21.1	0.00e+00	0	36	0	725614592	60	4410
2026-01-18 10:19:33.73	238.67	64.94	-46.2	-47.5	19.8	0.00e+00	0	35	0	734003200	64	4094
2026-01-18 10:19:37.76	243.12	65.28	-46.4	-47.8	19.6	0.00e+00	0	35	0	741343232	64	4220
2026-01-18 10:19:41.79	247.68	65.48	-46.2	-47.5	19.9	0.00e+00	0	36	0	748683264	63	4331
2026-01-18 10:19:45.82	252.29	65.54	-45.5	-46.7	20.8	0.00e+00	0	36	0	756023296	61	4397
2026-01-18 10:19:49.85	256.89	65.46	-45.2	-46.4	21.0	0.00e+00	0	36	0	763363328	61	4244
2026-01-18 10:19:53.89	261.44	65.23	-46.0	-47.4	20.0	0.00e+00	0	35	0	771751936	63	4273
2026-01-18 10:19:57.91	265.86	64.88	-44.5	-45.5	21.9	0.00e+00	0	36	0	779091968	59	4331
2026-01-18 10:20:01.94	270.12	64.40	-45.2	-46.4	21.0	0.00e+00	0	36	0	786432000	60	4511
2026-01-18 10:20:05.97	274.19	63.80	-44.2	-45.2	22.0	0.00e+00	0	35	0	793772032	60	3944
2026-01-18 10:20:10.00	278.04	63.09	-45.3	-46.6	20.8	0.00e+00	0	36	0	802160640	61	4343
2026-01-18 10:20:14.03	281.65	62.30	-45.5	-46.7	20.7	0.00e+00	0	36	0	809500672	62	4171
2026-01-18 10:20:18.06	285.02	61.42	-45.6	-46.9	20.5	0.00e+00	0	35	0	816840704	61	4500
2026-01-18 10:20:22.09	288.16	60.48	-45.1	-46.3	21.1	0.00e+00	0	36	0	824180736	61	4203
2026-01-18 10:20:26.12	291.07	59.49	-44.1	-45.2	22.3	0.00e+00	0	36	0	831520768	59	4152
2026-01-18 10:20:30.15	293.76	58.45	-44.3	-45.3	22.1	0.00e+00	0	36	0	838860800	59	4229
2026-01-18 10:20:34.18	296.25	57.37	-44.5	-45.6	21.6	0.00e+00	0	35	0	847249408	60	4136
2026-01-18 10:20:38.21	298.55	56.27	-44.8	-45.9	21.4	0.00e+00	0	36	0	854589440	60	4265
2026-01-18 10:20:42.25	300.67	55.15	-44.2	-45.2	22.0	0.00e+00	0	35	0	861929472	60	3955
2026-01-18 10:20:46.28	302.63	54.02	-46.3	-47.7	19.8	0.00e+00	0	36	0	869269504	63	4405
2026-01-18 10:20:50.31	304.45	52.89	-45.4	-46.6	20.9	0.00e+00	0	36	0	877658112	61	4364
2026-01-18 10:20:54.34	306.12	51.75	-45.7	-46.9	20.6	0.00e+00	0	36	0	884998144	61	4530
2026-01-18 10:20:58.38	307.69	50.62	-45.2	-46.3	21.1	0.00e+00	0	36	0	892338176	61	4234
2026-01-18 10:21:02.40	309.13	49.50	-46.3	-47.7	19.9	0.00e+00	0	36	0	899678208	63	4424
2026-01-18 10:21:06.43	310.47	48.38	-46.1	-47.5	19.9	0.00e+00	0	36	0	907018240	64	4079
2026-01-18 10:21:10.46	311.73	47.28	-46.3	-47.6	19.9	0.00e+00	0	35	0	915406848	63	4383
2026-01-18 10:21:14.50	312.90	46.19	-48.9	-51.0	16.7	0.00e+00	0	35	0	922746880	68	4842
2026-01-18 10:21:18.53	313.99	45.13	-46.8	-48.3	19.2	0.00e+00	0	36	0	930086912	65	4214
2026-01-18 10:21:22.56	315.02	44.07	-48.5	-50.6	17.0	0.00e+00	0	35	0	937426944	67	4910
2026-01-18 10:21:26.59	315.97	43.04	-47.1	-48.6	18.8	0.00e+00	0	35	0	944766976	65	4377
2026-01-18 10:21:30.62	316.88	42.03	-46.7	-48.2	19.3	0.00e+00	0	36	0	953155584	65	4166
2026-01-18 10:21:34.66	317.73	41.03	-44.4	-45.4	21.8	0.00e+00	0	36	0	960495616	60	4019
2026-01-18 10:21:38.69	318.53	40.06	-48.0	-49.9	17.6	0.00e+00	0	36	0	967835648	67	4532
2026-01-18 10:21:42.72	319.28	39.11	-44.9	-46.0	21.2	0.00e+00	0	36	0	975175680	61	4096
2026-01-18 10:21:46.75	319.99	38.18	-46.7	-48.3	19.3	0.00e+00	0	35	0	982515712	63	4714
2026-01-18 10:21:50.78	320.67	37.27	-47.0	-48.7	18.7	0.00e+00	0	35	0	990904320	66	4149
2026-01-18 10:21:54.82	321.31	36.38	-45.8	-47.0	20.3	0.00e+00	0	36	0	998244352	62	4333
2026-01-18 10:21:58.85	321.92	35.51	-48.2	-50.2	17.3	0.00e+00	0	35	0	1005584384	67	4680
2026-01-18 10:22:02.87	322.49	34.66	-46.1	-47.5	19.8	0.00e+00	0	36	0	1012924416	64	4071
2026-01-18 10:22:06.91	323.04	33.83	-46.2	-47.5	19.9	0.00e+00	0	36	0	1021313024	63	4315
2026-01-18 10:22:10.94	323.56	33.02	-47.0	-48.5	18.9	0.00e+00	0	36	0	1028653056	64	4586
2026-01-18 10:22:14.97	324.06	32.23	-46.7	-48.2	19.2	0.00e+00	0	35	0	1035993088	64	4423
2026-01-18 10:22:19.00	324.54	31.46	-47.6	-49.3	18.0	0.00e+00	0	35	0	1043333120	65	4757
2026-01-18 10:22:23.03	324.99	30.70	-48.1	-50.1	17.4	0.00e+00	0	36	0	1050673152	67	4616
2026-01-18 10:22:27.06	325.43	29.97	-47.4	-49.2	18.2	0.00e+00	0	36	0	1058013184	66	4407
2026-01-18 10:22:31.09	325.84	29.25	-47.6	-49.4	17.9	0.00e+00	0	36	0	1066401792	66	4526
2026-01-18 10:22:35.12	326.24	28.54	-47.7	-49.5	17.8	0.00e+00	0	36	0	1073741824	66	4575
2026-01-18 10:22:39.16	326.63	27.85	-47.3	-48.9	18.4	0.00e+00	0	36	0	1081081856	66	4282
2026-01-18 10:22:43.19	326.99	27.18	-46.3	-47.7	19.5	0.00e+00	0	36	0	1088421888	64	4175
2026-01-18 10:22:47.22	327.35	26.52	-45.9	-47.2	20.1	0.00e+00	0	36	0	1096810496	63	4171
2026-01-18 10:22:51.25	327.69	25.88	-46.6	-48.1	19.2	0.00e+00	0	35	0	1104150528	63	4613
2026-01-18 10:22:55.29	328.02	25.25	-46.7	-48.2	19.0	0.00e+00	0	36	0	1111490560	64	4426
2026-01-18 10:22:59.32	328.33	24.64	-46.5	-48.0	19.2	0.00e+00	0	36	0	1118830592	64	4310
2026-01-18 10:23:03.35	328.64	24.04	-46.4	-47.9	19.2	0.00e+00	0	36	0	1126170624	64	4285
2026-01-18 10:23:07.38	328.93	23.45	-45.6	-46.9	20.2	0.00e+00	0	36	0	1134559232	63	4041
2026-01-18 10:23:11.41	329.21	22.87	-44.1	-45.2	22.0	0.00e+00	0	36	0	1141899264	59	4169
2026-01-18 10:23:15.44	329.49	22.31	-44.0	-45.0	22.1	0.00e+00	0	35	0	1149239296	59	4085
2026-01-18 10:23:19.47	329.75	21.76	-44.7	-45.8	21.4	0.00e+00	0	36	0	1156579328	59	4480
2026-01-18 10:23:23.50	330.01	21.22	-44.8	-46.0	20.9	0.00e+00	0	36	0	1164967936	60	4312
2026-01-18 10:23:27.50	330.26	20.69	-44.7	-45.9	21.0	0.00e+00	0	36	0	1172307968	60	4262
2026-01-18 10:23:31.53	330.50	20.17	-44.4	-45.6	21.3	0.00e+00	0	36	0	1179648000	60	4105
2026-01-18 10:23:35.56	330.73	19.67	-44.4	-45.6	21.3	0.00e+00	0	36	0	1186988032	60	4105
2026-01-18 10:23:39.59	330.96	19.17	-44.7	-45.9	21.0	0.00e+00	0	35	0	1194328064	60	4258
2026-01-18 10:23:43.61	331.18	18.68	-44.9	-46.1	20.8	0.00e+00	0	35	0	1201668096	60	4383
2026-01-18 10:23:47.62	331.39	18.20	-45.4	-46.7	20.2	0.00e+00	0	36	0	1210056704	61	4412
2026-01-18 10:23:51.65	331.60	17.73	-45.9	-47.3	19.7	0.00e+00	0	36	0	1217396736	62	4457
2026-01-18 10:23:55.68	331.80	17.26	-46.0	-47.4	19.6	0.00e+00	0	36	0	1224736768	62	4520
2026-01-18 10:23:59.71	331.99	16.81	-45.8	-47.1	19.8	0.00e+00	0	36	0	1232076800	62	4390
2026-01-18 10:24:03.73	332.18	16.36	-45.2	-46.4	20.4	0.00e+00	0	35	0	1239416832	62	4037
2026-01-18 10:24:07.75	332.37	15.93	-45.0	-46.2	20.6	0.00e+00	0	36	0	1247805440	61	4166
2026-01-18 10:24:11.78	332.55	15.50	-45.0	-46.2	20.6	0.00e+00	0	36	0	1255145472	61	4187
2026-01-18 10:24:15.82	332.73	15.07	-45.1	-46.3	20.4	0.00e+00	0	36	0	1262485504	61	4233
2026-01-18 10:24:19.85	332.90	14.65	-45.4	-46.7	20.0	0.00e+00	0	36	0	1269825536	61	4425
2026-01-18 10:24:23.88	333.07	14.24	-45.7	-47.1	19.7	0.00e+00	0	36	0	1278214144	62	4370
2026-01-18 10:24:27.91	333.23	13.84	-45.9	-47.3	19.5	0.00e+00	0	36	0	1285554176	62	4477
2026-01-18 10:24:31.94	333.39	13.44	-46.0	-47.5	19.4	0.00e+00	0	35	0	1292894208	62	4548
2026-01-18 10:24:35.96	333.55	13.05	-46.3	-47.9	19.0	0.00e+00	0	36	0	1300234240	63	4511
2026-01-18 10:24:39.99	333.70	12.67	-46.6	-48.3	18.5	0.00e+00	0	36	0	1307574272	63	4726
2026-01-18 10:24:44.02	333.85	12.29	-46.9	-48.6	18.1	0.00e+00	0	35	0	1314914304	64	4639
2026-01-18 10:24:48.05	333.99	11.92	-47.1	-48.9	17.8	0.00e+00	0	36	0	1323302912	65	4504
2026-01-18 10:24:52.09	334.14	11.55	-47.2	-49.0	17.7	0.00e+00	0	35	0	1330642944	65	4576
2026-01-18 10:24:56.12	334.28	11.19	-47.2	-49.1	17.7	0.00e+00	0	35	0	1337982976	65	4608
2026-01-18 10:25:00.15	334.41	10.83	-47.4	-49.3	17.4	0.00e+00	0	35	0	1345323008	65	4736
2026-01-18 10:25:04.18	334.55	10.48	-47.0	-48.9	17.8	0.00e+00	0	35	0	1353711616	65	4498
2026-01-18 10:25:08.22	334.68	10.13	-46.6	-48.3	18.3	0.00e+00	0	36	0	1361051648	65	4226
2026-01-18 10:25:12.25	334.81	9.79	-46.6	-48.3	18.2	0.00e+00	0	36	0	1368391680	65	4242
2026-01-18 10:25:16.28	334.93	9.45	-46.5	-48.2	18.4	0.00e+00	0	36	0	1375731712	64	4408
2026-01-18 10:25:20.31	335.06	9.11	-46.5	-48.1	18.4	0.00e+00	0	36	0	1383071744	64	4382
2026-01-18 10:25:24.34	335.18	8.79	-46.3	-47.9	18.6	0.00e+00	0	35	0	1391460352	64	4267
2026-01-18 10:25:28.37	335.30	8.46	-46.5	-48.1	18.3	0.00e+00	0	36	0	1398800384	64	4388
2026-01-18 10:25:32.40	335.41	8.14	-46.4	-48.1	18.3	0.00e+00	0	35	0	1406140416	64	4380
2026-01-18 10:25:36.44	335.53	7.82	-46.5	-48.2	18.2	0.00e+00	0	35	0	1413480448	64	4430
2026-01-18 10:25:40.46	335.64	7.51	-46.7	-48.5	17.9	0.00e+00	0	36	0	1420820480	64	4566
2026-01-18 10:25:44.49	335.75	7.20	-46.8	-48.7	17.7	0.00e+00	0	36	0	1429209088	64	4660
2026-01-18 10:25:48.53	335.86	6.89	-46.8	-48.7	17.6	0.00e+00	0	36	0	1436549120	64	4675
2026-01-18 10:25:52.56	335.97	6.59	-47.1	-49.1	17.2	0.00e+00	0	35	0	1443889152	64	4882
2026-01-18 10:25:56.59	336.07	6.29	-47.2	-49.3	16.9	0.00e+00	0	36	0	1451229184	65	4742
2026-01-18 10:26:00.62	336.18	6.00	-47.3	-49.4	16.8	0.00e+00	0	36	0	1458569216	65	4781
2026-01-18 10:26:04.66	336.28	5.70	-47.4	-49.5	16.6	0.00e+00	0	36	0	1466957824	65	4863
2026-01-18 10:26:08.69	336.38	5.42	-47.5	-49.8	16.3	0.00e+00	0	36	0	1474297856	65	5009
2026-01-18 10:26:12.72	336.48	5.13	-47.5	-49.7	16.4	0.00e+00	0	36	0	1481637888	66	4688
2026-01-18 10:26:16.75	336.57	4.85	-53.1	-68.1	3.8	1.49e+00	0	35	104	1485832192	76	21790
2026-01-18 10:26:20.79	336.67	4.57	-53.6	-68.6	3.8	1.49e+00	0	36	104	1485832192	77	21905
2026-01-18 10:26:24.82	336.76	4.29	-53.9	-68.9	3.8	1.49e+00	0	36	104	1485832192	78	21478
2026-01-18 10:26:28.85	336.86	4.01	-54.0	-69.0	3.8	1.49e+00	0	36	104	1485832192	78	21742
2026-01-18 10:26:32.88	336.95	3.74	-54.1	-69.1	3.8	1.49e+00	0	36	104	1485832192	78	21913
2026-01-18 10:26:36.91	337.04	3.47	-54.0	-69.1	3.8	1.49e+00	0	36	104	1485832192	78	21828
2026-01-18 10:26:40.94	337.12	3.21	-54.0	-69.0	3.8	1.49e+00	0	36	104	1485832192	78	21607
2026-01-18 10:26:44.98	337.21	2.94	-53.9	-69.0	3.8	1.49e+00	0	36	104	1485832192	78	21574
2026-01-18 10:26:49.01	337.30	2.68	-53.9	-69.0	3.8	1.49e+00	0	36	104	1485832192	78	21512
2026-01-18 10:26:53.04	337.38	2.42	-53.9	-68.9	3.8	1.49e+00	0	36	104	1485832192	78	21441
2026-01-18 10:26:57.08	337.47	2.17	-53.9	-68.9	3.8	1.49e+00	0	36	104	1485832192	78	21402

#Closed at: 2026-01-18 10:27:01
#Recorded file [1485 MB]: D:/lorett/data/31041_260118_131234.dat