passes_logs/2026/01/18/R3.2S_Murmansk/R3.2S_Murmansk__20260118_043411_FENGYUN_3D_rec.log

#Pass ID: 20260118_043411_FENGYUN 3D
#Satellite: FENGYUN 3D
#Configuration: FENGYUN 3D
#almurnet v.1.7.20251203
#Start time: 2026-01-18 04:34:11

#Version: 2.2.20231116
#Station: R3.2S_Murmansk
#Location: 33.079688 lon 68.888172 lat
#TLE: 1 43010U 17072A   26017.61121112  .00000213  00000+0  12257-3 0  9991
#TLE: 2 43010  98.9934 349.4672 0002374 103.9362 256.2078 14.19696413423628

#Time	Az	El	Level	Level2	SNR	BER	BlckErr	Temp	State	Recorded	gain1	gain2
2026-01-18 04:34:11.29	34.48	1.99	-51.5	-63.5	3.8	8.47e-01	0	33	0	0	75	13599
2026-01-18 04:34:15.33	34.33	2.24	-51.5	-63.4	3.8	8.46e-01	0	33	104	0	73	15140
2026-01-18 04:34:19.36	34.18	2.49	-51.5	-63.4	3.8	8.47e-01	0	34	104	0	73	15166
2026-01-18 04:34:23.39	34.02	2.75	-51.5	-63.3	3.8	8.46e-01	0	34	104	0	73	15031
2026-01-18 04:34:27.42	33.86	3.00	-51.5	-62.7	3.8	8.45e-01	0	34	104	0	73	14015
2026-01-18 04:34:31.45	33.70	3.26	-51.4	-61.8	3.9	8.46e-01	0	34	104	0	73	12536
2026-01-18 04:34:35.48	33.53	3.52	-51.4	-62.1	3.8	8.45e-01	0	34	104	0	73	12966
2026-01-18 04:34:39.52	33.36	3.78	-50.5	-56.7	5.8	7.17e-01	0	34	0	0	73	6962
2026-01-18 04:34:43.55	33.19	4.04	-49.3	-53.1	9.1	3.68e-02	0	34	0	23068672	70	5519
2026-01-18 04:34:47.58	33.02	4.31	-48.6	-51.9	10.4	6.67e-03	0	35	0	45088768	69	5066
2026-01-18 04:34:51.62	32.84	4.58	-49.5	-53.7	8.5	4.56e-02	0	34	0	68157440	69	6256
2026-01-18 04:34:55.66	32.65	4.85	-50.5	-56.6	5.9	2.96e-01	0	35	0	91226112	71	7738
2026-01-18 04:34:59.69	32.47	5.12	-49.5	-53.3	9.4	3.89e-03	0	35	0	109051904	69	5987
2026-01-18 04:35:03.72	32.28	5.40	-48.6	-51.4	11.3	7.52e-01	0	35	0	118489088	69	4792
2026-01-18 04:35:07.76	32.08	5.68	-45.2	-46.6	16.6	0.00e+00	0	35	0	140509184	62	4132
2026-01-18 04:35:11.79	31.89	5.96	-44.0	-45.2	18.2	0.00e+00	0	35	0	163577856	60	3936
2026-01-18 04:35:15.82	31.68	6.24	-44.1	-45.3	18.1	0.00e+00	0	35	0	186646528	60	3967
2026-01-18 04:35:19.85	31.48	6.53	-44.1	-45.3	18.4	0.00e+00	0	35	0	208666624	59	4220
2026-01-18 04:35:23.88	31.27	6.81	-44.1	-45.2	18.6	0.00e+00	0	35	0	230686720	59	4177
2026-01-18 04:35:27.91	31.05	7.11	-44.1	-45.2	18.6	0.00e+00	0	35	0	253755392	59	4190
2026-01-18 04:35:31.94	30.83	7.40	-44.1	-45.2	18.6	0.00e+00	0	35	0	276824064	59	4190
2026-01-18 04:35:35.98	30.60	7.70	-44.2	-45.4	18.5	0.00e+00	0	35	0	298844160	59	4269
2026-01-18 04:35:40.01	30.37	8.00	-43.7	-44.8	19.1	0.00e+00	0	35	0	321912832	59	3986
2026-01-18 04:35:44.04	30.14	8.31	-43.7	-44.8	19.1	0.00e+00	0	35	0	344981504	59	3991
2026-01-18 04:35:48.07	29.90	8.61	-43.6	-44.7	19.3	0.00e+00	0	35	0	367001600	59	3937
2026-01-18 04:35:52.10	29.65	8.92	-43.8	-44.9	19.1	0.00e+00	0	35	0	390070272	59	4015
2026-01-18 04:35:56.14	29.40	9.24	-43.4	-44.5	19.5	0.00e+00	0	35	0	413138944	58	4052
2026-01-18 04:36:00.17	29.14	9.56	-43.4	-44.5	19.6	0.00e+00	0	35	0	435159040	58	4055
2026-01-18 04:36:04.20	28.88	9.88	-43.3	-44.3	19.8	0.00e+00	0	35	0	458227712	58	3969
2026-01-18 04:36:08.24	28.61	10.20	-43.0	-44.0	20.0	0.00e+00	0	35	0	481296384	58	3860
2026-01-18 04:36:12.27	28.33	10.53	-43.0	-44.0	20.1	0.00e+00	0	35	0	503316480	58	3850
2026-01-18 04:36:16.30	28.05	10.86	-43.0	-44.0	20.1	0.00e+00	0	35	0	526385152	57	4056
2026-01-18 04:36:20.33	27.76	11.20	-42.9	-43.8	20.2	0.00e+00	0	35	0	549453824	57	3997
2026-01-18 04:36:24.36	27.46	11.54	-42.8	-43.7	20.4	0.00e+00	0	35	0	571473920	57	3952
2026-01-18 04:36:28.40	27.16	11.88	-42.8	-43.8	20.3	0.00e+00	0	35	0	594542592	57	3978
2026-01-18 04:36:32.43	26.84	12.23	-42.7	-43.6	20.5	0.00e+00	0	35	0	616562688	57	3912
2026-01-18 04:36:36.46	26.52	12.58	-42.3	-43.2	21.0	0.00e+00	0	35	0	639631360	56	3926
2026-01-18 04:36:40.49	26.20	12.94	-42.5	-43.4	20.8	0.00e+00	0	35	0	662700032	56	4016
2026-01-18 04:36:44.53	25.86	13.30	-42.5	-43.4	20.8	0.00e+00	0	35	0	684720128	56	4018
2026-01-18 04:36:48.56	25.51	13.66	-42.1	-43.0	21.2	0.00e+00	0	35	0	707788800	56	3846
2026-01-18 04:36:52.58	25.16	14.03	-42.0	-42.9	21.3	0.00e+00	0	35	0	729808896	56	3811
2026-01-18 04:36:56.62	24.80	14.40	-41.8	-42.7	21.4	0.00e+00	0	35	0	752877568	55	3929
2026-01-18 04:37:00.65	24.42	14.78	-41.8	-42.7	21.4	0.00e+00	0	35	0	775946240	55	3941
2026-01-18 04:37:04.68	24.04	15.16	-41.8	-42.7	21.5	0.00e+00	0	35	0	797966336	55	3933
2026-01-18 04:37:08.72	23.65	15.55	-42.0	-42.8	21.3	0.00e+00	0	35	0	821035008	55	4000
2026-01-18 04:37:12.75	23.24	15.94	-41.7	-42.6	21.6	0.00e+00	0	35	0	844103680	55	3877
2026-01-18 04:37:16.78	22.83	16.34	-41.5	-42.3	21.8	0.00e+00	0	35	0	866123776	55	3780
2026-01-18 04:37:20.81	22.40	16.74	-41.3	-42.1	22.1	0.00e+00	0	35	0	889192448	54	3888
2026-01-18 04:37:24.84	21.96	17.15	-41.3	-42.2	22.0	0.00e+00	0	35	0	912261120	54	3921
2026-01-18 04:37:28.88	21.51	17.56	-41.0	-41.8	22.4	0.00e+00	0	35	0	934281216	53	3989
2026-01-18 04:37:32.91	21.04	17.98	-40.8	-41.6	22.5	0.00e+00	0	35	0	957349888	53	3912
2026-01-18 04:37:36.94	20.56	18.40	-41.0	-41.8	22.4	0.00e+00	0	35	0	979369984	53	3998
2026-01-18 04:37:40.97	20.07	18.83	-41.1	-41.9	22.3	0.00e+00	0	35	0	1002438656	53	4038
2026-01-18 04:37:45.00	19.57	19.26	-40.9	-41.7	22.5	0.00e+00	0	35	0	1025507328	53	3937
2026-01-18 04:37:49.03	19.04	19.70	-40.6	-41.4	22.8	0.00e+00	0	35	0	1047527424	53	3798
2026-01-18 04:37:53.06	18.51	20.14	-40.6	-41.4	22.8	0.00e+00	0	35	0	1070596096	52	4018
2026-01-18 04:37:57.10	17.95	20.59	-40.4	-41.2	23.1	0.00e+00	0	35	0	1093664768	52	3921
2026-01-18 04:38:01.13	17.38	21.04	-40.2	-41.0	23.2	0.00e+00	0	35	0	1115684864	52	3849
2026-01-18 04:38:05.16	16.79	21.50	-40.4	-41.1	23.1	0.00e+00	0	35	0	1138753536	52	3910
2026-01-18 04:38:09.19	16.19	21.96	-40.3	-41.0	23.2	0.00e+00	0	35	0	1161822208	52	3858
2026-01-18 04:38:13.22	15.56	22.43	-39.9	-40.6	23.6	0.00e+00	0	35	0	1183842304	51	3913
2026-01-18 04:38:17.25	14.92	22.90	-39.8	-40.5	23.8	0.00e+00	0	35	0	1206910976	51	3868
2026-01-18 04:38:21.29	14.25	23.38	-39.9	-40.7	23.7	0.00e+00	0	35	0	1228931072	51	3933
2026-01-18 04:38:25.32	13.57	23.86	-39.9	-40.6	23.7	0.00e+00	0	35	0	1251999744	51	3909
2026-01-18 04:38:29.35	12.86	24.35	-39.8	-40.5	23.8	0.00e+00	0	35	0	1275068416	51	3855
2026-01-18 04:38:33.38	12.13	24.84	-39.6	-40.4	24.0	0.00e+00	0	35	0	1297088512	51	3784
2026-01-18 04:38:37.42	11.37	25.34	-39.6	-40.3	24.0	0.00e+00	0	35	0	1320157184	51	3773
2026-01-18 04:38:41.45	10.59	25.83	-39.6	-40.3	24.0	0.00e+00	0	35	0	1342177280	51	3767
2026-01-18 04:38:45.49	9.79	26.34	-39.6	-40.3	24.1	0.00e+00	0	35	0	1365245952	51	3763
2026-01-18 04:38:49.52	8.96	26.84	-39.4	-40.2	24.2	0.00e+00	0	35	0	1388314624	50	3924
2026-01-18 04:38:53.55	8.10	27.35	-39.8	-40.5	23.9	0.00e+00	0	35	0	1410334720	50	4085
2026-01-18 04:38:57.58	7.21	27.85	-39.4	-40.2	24.2	0.00e+00	0	35	0	1433403392	50	3926
2026-01-18 04:39:01.61	6.30	28.36	-39.5	-40.2	24.2	0.00e+00	0	35	0	1456472064	50	3932
2026-01-18 04:39:05.65	5.35	28.88	-39.5	-40.3	24.1	0.00e+00	0	35	0	1478492160	50	3973
2026-01-18 04:39:09.68	4.37	29.39	-39.3	-40.0	24.4	0.00e+00	0	35	0	1501560832	50	3846
2026-01-18 04:39:13.71	3.37	29.90	-39.4	-40.1	24.3	0.00e+00	0	35	0	1524629504	50	3890
2026-01-18 04:39:17.74	2.33	30.41	-39.2	-40.0	24.4	0.00e+00	0	35	0	1546649600	50	3827
2026-01-18 04:39:21.77	1.25	30.92	-39.0	-39.7	24.7	0.00e+00	0	35	0	1569718272	49	3939
2026-01-18 04:39:25.81	0.14	31.42	-39.1	-39.9	24.5	0.00e+00	0	35	0	1592786944	49	4013
2026-01-18 04:39:29.84	359.00	31.92	-39.0	-39.7	24.7	0.00e+00	0	36	0	1614807040	49	3937
2026-01-18 04:39:33.87	357.82	32.42	-39.2	-39.9	24.5	0.00e+00	0	35	0	1637875712	49	4021
2026-01-18 04:39:37.91	356.60	32.91	-39.0	-39.7	24.7	0.00e+00	0	35	0	1660944384	49	3948
2026-01-18 04:39:41.94	355.34	33.39	-38.9	-39.6	24.8	0.00e+00	0	35	0	1682964480	49	3875
2026-01-18 04:39:45.98	354.05	33.86	-38.8	-39.5	24.9	0.00e+00	0	35	0	1704984576	49	3829
2026-01-18 04:39:50.01	352.71	34.33	-38.8	-39.5	24.9	0.00e+00	0	35	0	1728053248	49	3841
2026-01-18 04:39:54.04	351.35	34.78	-39.0	-39.7	24.8	0.00e+00	0	35	0	1751121920	49	3933
2026-01-18 04:39:58.07	349.94	35.22	-39.4	-40.2	24.3	0.00e+00	0	35	0	1773142016	49	4157
2026-01-18 04:40:02.10	348.49	35.64	-38.9	-39.6	24.9	0.00e+00	0	35	0	1796210688	49	3884
2026-01-18 04:40:06.14	347.01	36.05	-38.7	-39.4	25.0	0.00e+00	0	35	0	1819279360	49	3810
2026-01-18 04:40:10.17	345.49	36.44	-38.8	-39.5	25.0	0.00e+00	0	35	0	1841299456	49	3853
2026-01-18 04:40:14.20	343.93	36.82	-38.9	-39.6	24.9	0.00e+00	0	35	0	1864368128	49	3895
2026-01-18 04:40:18.23	342.34	37.17	-39.3	-40.0	24.5	0.00e+00	0	35	0	1887436800	49	4090
2026-01-18 04:40:22.26	340.71	37.50	-38.8	-39.5	25.0	0.00e+00	0	35	0	1909456896	49	3858
2026-01-18 04:40:26.30	339.05	37.80	-38.9	-39.6	25.0	0.00e+00	0	35	0	1932525568	49	3888
2026-01-18 04:40:30.33	337.36	38.08	-39.1	-39.8	24.7	0.00e+00	0	35	0	1955594240	49	3985
2026-01-18 04:40:34.36	335.65	38.33	-39.2	-39.9	24.7	0.00e+00	0	35	0	1977614336	49	4043
2026-01-18 04:40:38.40	333.90	38.56	-39.1	-39.8	24.8	0.00e+00	0	35	0	2000683008	49	3965
2026-01-18 04:40:42.43	332.14	38.76	-38.9	-39.6	24.9	0.00e+00	0	35	0	2023751680	49	3910
2026-01-18 04:40:46.46	330.35	38.92	-38.8	-39.5	25.1	0.00e+00	0	35	0	2045771776	49	3838
2026-01-18 04:40:50.49	328.55	39.05	-38.9	-39.6	24.9	0.00e+00	0	35	0	2068840448	49	3905
2026-01-18 04:40:54.52	326.73	39.16	-39.0	-39.7	24.8	0.00e+00	0	35	0	2090860544	49	3952
2026-01-18 04:40:58.55	324.91	39.23	-38.9	-39.6	25.0	0.00e+00	0	35	0	2113929216	49	3881
2026-01-18 04:41:02.59	323.07	39.26	-38.6	-39.3	25.2	0.00e+00	0	35	0	2136997888	49	3760
2026-01-18 04:41:06.62	321.24	39.26	-38.8	-39.5	25.1	0.00e+00	0	35	0	2159017984	49	3858
2026-01-18 04:41:10.65	319.41	39.23	-38.9	-39.6	25.0	0.00e+00	0	35	0	2182086656	49	3911
2026-01-18 04:41:14.69	317.58	39.17	-38.7	-39.4	25.2	0.00e+00	0	35	0	2205155328	49	3789
2026-01-18 04:41:18.72	315.76	39.07	-38.7	-39.4	25.1	0.00e+00	0	35	0	2227175424	49	3823
2026-01-18 04:41:22.75	313.96	38.94	-38.8	-39.5	25.1	0.00e+00	0	35	0	2250244096	48	4058
2026-01-18 04:41:26.78	312.17	38.78	-38.9	-39.6	25.0	0.00e+00	0	35	0	2272264192	48	4133
2026-01-18 04:41:30.81	310.40	38.59	-39.1	-39.8	24.8	0.00e+00	0	35	0	2295332864	48	4239
2026-01-18 04:41:34.85	308.65	38.37	-38.8	-39.5	25.1	0.00e+00	0	35	0	2318401536	48	4070
2026-01-18 04:41:38.87	306.93	38.12	-38.5	-39.2	25.3	0.00e+00	0	35	0	2340421632	48	3941
2026-01-18 04:41:42.90	305.24	37.84	-38.9	-39.6	24.9	0.00e+00	0	35	0	2363490304	48	4141
2026-01-18 04:41:46.93	303.57	37.54	-38.9	-39.6	25.0	0.00e+00	0	35	0	2386558976	48	4103
2026-01-18 04:41:50.97	301.94	37.21	-38.9	-39.6	25.0	0.00e+00	0	35	0	2408579072	48	4134
2026-01-18 04:41:55.00	300.34	36.87	-38.7	-39.4	25.1	0.00e+00	0	35	0	2431647744	48	4045
2026-01-18 04:41:59.03	298.78	36.50	-38.9	-39.7	24.9	0.00e+00	0	35	0	2453667840	48	4149
2026-01-18 04:42:03.06	297.25	36.11	-38.9	-39.6	25.0	0.00e+00	0	35	0	2476736512	48	4114
2026-01-18 04:42:07.09	295.76	35.70	-39.2	-39.9	24.7	0.00e+00	0	35	0	2499805184	48	4248
2026-01-18 04:42:11.12	294.30	35.28	-38.8	-39.5	25.1	0.00e+00	0	35	0	2521825280	48	4058
2026-01-18 04:42:15.15	292.89	34.84	-38.8	-39.5	25.0	0.00e+00	0	35	0	2544893952	48	4077
2026-01-18 04:42:19.19	291.51	34.39	-39.0	-39.7	24.9	0.00e+00	0	35	0	2566914048	48	4173
2026-01-18 04:42:23.22	290.17	33.92	-39.0	-39.7	24.8	0.00e+00	0	35	0	2589982720	48	4191
2026-01-18 04:42:27.25	288.87	33.45	-38.9	-39.6	24.9	0.00e+00	0	35	0	2613051392	48	4145
2026-01-18 04:42:31.28	287.61	32.97	-38.8	-39.5	25.0	0.00e+00	0	35	0	2635071488	48	4077
2026-01-18 04:42:35.32	286.38	32.48	-39.2	-39.9	24.7	0.00e+00	0	35	0	2658140160	49	4009
2026-01-18 04:42:39.35	285.19	31.98	-39.1	-39.8	24.7	0.00e+00	0	35	0	2681208832	49	3987
2026-01-18 04:42:43.38	284.04	31.48	-38.9	-39.6	24.9	0.00e+00	0	35	0	2703228928	49	3896
2026-01-18 04:42:47.41	282.92	30.98	-38.9	-39.6	24.9	0.00e+00	0	35	0	2726297600	49	3879
2026-01-18 04:42:51.45	281.84	30.47	-39.1	-39.8	24.7	0.00e+00	0	35	0	2749366272	49	4000
2026-01-18 04:42:55.48	280.79	29.96	-39.2	-39.9	24.6	0.00e+00	0	35	0	2771386368	49	4039
2026-01-18 04:42:59.51	279.78	29.44	-39.3	-40.0	24.6	0.00e+00	0	35	0	2794455040	49	4075
2026-01-18 04:43:03.54	278.79	28.93	-39.4	-40.1	24.4	0.00e+00	0	36	0	2816475136	49	4130
2026-01-18 04:43:07.57	277.84	28.42	-39.3	-40.1	24.5	0.00e+00	0	35	0	2839543808	49	4108
2026-01-18 04:43:11.61	276.92	27.91	-39.4	-40.1	24.4	0.00e+00	0	35	0	2862612480	49	4120
2026-01-18 04:43:15.64	276.03	27.40	-39.5	-40.2	24.3	0.00e+00	0	35	0	2884632576	49	4191
2026-01-18 04:43:19.67	275.16	26.89	-39.5	-40.2	24.3	0.00e+00	0	35	0	2907701248	49	4152
2026-01-18 04:43:23.70	274.33	26.38	-39.7	-40.4	24.1	0.00e+00	0	35	0	2930769920	49	4290
2026-01-18 04:43:27.74	273.51	25.88	-39.9	-40.6	23.9	0.00e+00	0	35	0	2952790016	50	4142
2026-01-18 04:43:31.77	272.73	25.38	-40.0	-40.7	23.8	0.00e+00	0	36	0	2975858688	50	4172
2026-01-18 04:43:35.80	271.97	24.88	-39.8	-40.6	24.0	0.00e+00	0	35	0	2998927360	50	4102
2026-01-18 04:43:39.83	271.23	24.39	-39.8	-40.5	24.0	0.00e+00	0	35	0	3020947456	50	4070
2026-01-18 04:43:43.86	270.52	23.90	-39.8	-40.5	24.0	0.00e+00	0	35	0	3044016128	50	4092
2026-01-18 04:43:47.89	269.83	23.42	-39.8	-40.5	24.0	0.00e+00	0	35	0	3067084800	50	4098
2026-01-18 04:43:51.93	269.16	22.94	-39.8	-40.5	24.0	0.00e+00	0	35	0	3089104896	50	4068
2026-01-18 04:43:55.96	268.51	22.46	-40.1	-40.8	23.7	0.00e+00	0	35	0	3112173568	50	4233
2026-01-18 04:43:59.99	267.88	21.99	-40.0	-40.7	23.7	0.00e+00	0	35	0	3135242240	50	4185
2026-01-18 04:44:04.02	267.27	21.53	-39.9	-40.6	23.9	0.00e+00	0	35	0	3157262336	50	4118
2026-01-18 04:44:08.05	266.68	21.07	-40.0	-40.7	23.7	0.00e+00	0	35	0	3179282432	50	4189
2026-01-18 04:44:12.09	266.10	20.61	-40.2	-40.9	23.5	0.00e+00	0	35	0	3202351104	50	4288
2026-01-18 04:44:16.12	265.54	20.16	-40.3	-41.1	23.4	0.00e+00	0	35	0	3225419776	51	4122
2026-01-18 04:44:20.16	265.00	19.72	-40.6	-41.4	23.1	0.00e+00	0	35	0	3247439872	51	4265
2026-01-18 04:44:24.19	264.47	19.28	-40.5	-41.3	23.2	0.00e+00	0	35	0	3270508544	51	4220
2026-01-18 04:44:28.23	263.96	18.84	-40.5	-41.3	23.2	0.00e+00	0	36	0	3293577216	51	4197
2026-01-18 04:44:32.26	263.47	18.42	-40.7	-41.5	23.0	0.00e+00	0	35	0	3315597312	51	4300
2026-01-18 04:44:36.29	262.99	17.99	-40.9	-41.7	22.7	0.00e+00	0	36	0	3338665984	52	4169
2026-01-18 04:44:40.32	262.52	17.57	-40.9	-41.7	22.7	0.00e+00	0	35	0	3361734656	52	4173
2026-01-18 04:44:44.35	262.06	17.16	-40.8	-41.6	22.7	0.00e+00	0	35	0	3383754752	52	4133
2026-01-18 04:44:48.38	261.62	16.75	-40.9	-41.7	22.6	0.00e+00	0	35	0	3406823424	52	4181
2026-01-18 04:44:52.41	261.19	16.35	-41.1	-41.9	22.5	0.00e+00	0	35	0	3429892096	52	4247
2026-01-18 04:44:56.44	260.77	15.95	-41.3	-42.1	22.2	0.00e+00	0	36	0	3451912192	53	4127
2026-01-18 04:45:00.48	260.36	15.56	-41.5	-42.3	22.0	0.00e+00	0	35	0	3474980864	53	4237
2026-01-18 04:45:04.51	259.96	15.17	-41.5	-42.3	22.0	0.00e+00	0	36	0	3498049536	53	4222
2026-01-18 04:45:08.54	259.58	14.78	-41.4	-42.2	22.1	0.00e+00	0	36	0	3520069632	53	4189
2026-01-18 04:45:12.57	259.20	14.40	-41.6	-42.4	21.9	0.00e+00	0	35	0	3542089728	53	4283
2026-01-18 04:45:16.60	258.83	14.03	-41.7	-42.5	21.8	0.00e+00	0	35	0	3565158400	54	4083
2026-01-18 04:45:20.64	258.48	13.66	-41.8	-42.7	21.6	0.00e+00	0	35	0	3588227072	54	4153
2026-01-18 04:45:24.67	258.13	13.29	-42.0	-42.8	21.5	0.00e+00	0	36	0	3610247168	54	4232
2026-01-18 04:45:28.70	257.79	12.93	-42.1	-43.0	21.3	0.00e+00	0	35	0	3633315840	54	4313
2026-01-18 04:45:32.73	257.46	12.57	-42.3	-43.2	21.0	0.00e+00	0	35	0	3656384512	55	4191
2026-01-18 04:45:36.76	257.13	12.22	-42.2	-43.0	21.2	0.00e+00	0	35	0	3678404608	55	4092
2026-01-18 04:45:40.80	256.82	11.87	-42.2	-43.1	21.2	0.00e+00	0	35	0	3701473280	55	4102
2026-01-18 04:45:44.83	256.51	11.53	-42.4	-43.3	20.9	0.00e+00	0	35	0	3724541952	55	4228
2026-01-18 04:45:48.86	256.21	11.19	-42.4	-43.3	20.9	0.00e+00	0	35	0	3746562048	55	4226
2026-01-18 04:45:52.89	255.92	10.85	-42.4	-43.3	20.9	0.00e+00	0	36	0	3769630720	55	4229
2026-01-18 04:45:56.92	255.63	10.52	-42.6	-43.5	20.7	0.00e+00	0	35	0	3792699392	55	4306
2026-01-18 04:46:00.95	255.35	10.19	-42.8	-43.7	20.5	0.00e+00	0	35	0	3814719488	56	4188
2026-01-18 04:46:04.99	255.08	9.86	-42.8	-43.8	20.5	0.00e+00	0	36	0	3837788160	56	4207
2026-01-18 04:46:09.02	254.81	9.54	-42.9	-43.8	20.4	0.00e+00	0	35	0	3860856832	56	4218
2026-01-18 04:46:13.05	254.55	9.22	-43.0	-44.0	20.2	0.00e+00	0	36	0	3882876928	56	4322
2026-01-18 04:46:17.08	254.30	8.91	-43.1	-44.0	20.1	0.00e+00	0	36	0	3904897024	56	4340
2026-01-18 04:46:21.11	254.05	8.59	-43.2	-44.2	20.0	0.00e+00	0	36	0	3927965696	56	4399
2026-01-18 04:46:25.15	253.81	8.28	-43.4	-44.4	19.7	0.00e+00	0	35	0	3951034368	57	4275
2026-01-18 04:46:29.18	253.57	7.98	-43.3	-44.3	19.8	0.00e+00	0	36	0	3973054464	57	4236
2026-01-18 04:46:33.21	253.33	7.68	-43.4	-44.4	19.6	0.00e+00	0	35	0	3996123136	57	4289
2026-01-18 04:46:37.24	253.11	7.38	-43.6	-44.6	19.4	0.00e+00	0	35	0	4019191808	57	4368
2026-01-18 04:46:41.28	252.88	7.08	-43.5	-44.6	19.4	0.00e+00	0	35	0	4041211904	58	4113
2026-01-18 04:46:45.31	252.67	6.79	-43.7	-44.8	19.2	0.00e+00	0	35	0	4064280576	58	4200
2026-01-18 04:46:49.34	252.45	6.50	-43.9	-45.0	18.9	0.00e+00	0	36	0	4087349248	58	4326
2026-01-18 04:46:53.37	252.24	6.21	-43.9	-45.0	18.9	0.00e+00	0	35	0	4109369344	58	4327
2026-01-18 04:46:57.41	252.04	5.93	-43.7	-44.8	19.0	0.00e+00	0	35	0	4132438016	58	4232
2026-01-18 04:47:01.44	251.84	5.65	-43.9	-45.1	18.7	0.00e+00	0	36	0	4155506688	58	4345
2026-01-18 04:47:05.47	251.64	5.37	-44.1	-45.2	18.5	0.00e+00	0	35	0	4177526784	58	4433
2026-01-18 04:47:09.50	251.45	5.09	-44.0	-45.1	18.5	0.00e+00	0	36	0	4200595456	59	4135
2026-01-18 04:47:13.54	251.26	4.82	-53.3	-65.3	3.8	8.47e-01	0	36	104	4207935488	77	14974
2026-01-18 04:47:17.56	251.07	4.54	-53.7	-65.7	3.8	8.46e-01	0	36	104	4207935488	77	15668
2026-01-18 04:47:21.60	250.89	4.28	-53.9	-65.9	3.8	8.45e-01	0	36	104	4207935488	78	15125
2026-01-18 04:47:25.64	250.71	4.01	-54.0	-66.0	3.8	8.46e-01	0	35	104	4207935488	78	15264
2026-01-18 04:47:29.67	250.54	3.74	-54.0	-66.0	3.8	8.46e-01	0	36	104	4207935488	78	15297
2026-01-18 04:47:33.70	250.37	3.48	-54.0	-66.0	3.8	8.47e-01	0	36	104	4207935488	78	15283
2026-01-18 04:47:37.73	250.20	3.22	-53.9	-65.9	3.8	8.45e-01	0	36	104	4207935488	78	15196
2026-01-18 04:47:41.76	250.03	2.96	-53.9	-65.9	3.8	8.47e-01	0	36	104	4207935488	78	15195
2026-01-18 04:47:45.79	249.87	2.71	-53.9	-65.9	3.8	8.47e-01	0	36	104	4207935488	78	15146
2026-01-18 04:47:49.82	249.71	2.46	-53.9	-65.9	3.8	8.46e-01	0	36	104	4207935488	78	15124
2026-01-18 04:47:53.85	249.56	2.20	-53.9	-65.9	3.8	8.46e-01	0	36	104	4207935488	78	15121
2026-01-18 04:47:57.88	249.40	1.96	-53.9	-65.9	3.8	8.46e-01	0	36	104	4207935488	78	15096

#Closed at: 2026-01-18 04:47:58
#Recorded file [4207 MB]: D:/lorett/data/31041_260118_073411.dat