passes_logs/2026/01/18/R3.2S_Murmansk/R3.2S_Murmansk__20260118_025359_FENGYUN_3D_rec.log

#Pass ID: 20260118_025359_FENGYUN 3D
#Satellite: FENGYUN 3D
#Configuration: FENGYUN 3D
#almurnet v.1.7.20251203
#Start time: 2026-01-18 02:54:00

#Version: 2.2.20231116
#Station: R3.2S_Murmansk
#Location: 33.079688 lon 68.888172 lat
#TLE: 1 43010U 17072A   26017.61121112  .00000213  00000+0  12257-3 0  9991
#TLE: 2 43010  98.9934 349.4672 0002374 103.9362 256.2078 14.19696413423628

#Time	Az	El	Level	Level2	SNR	BER	BlckErr	Temp	State	Recorded	gain1	gain2
2026-01-18 02:54:00.10	25.60	2.07	-51.5	-63.3	3.8	8.47e-01	0	34	0	0	74	14171
2026-01-18 02:54:04.12	25.61	2.33	-51.4	-63.0	3.8	8.45e-01	0	34	104	0	73	14399
2026-01-18 02:54:08.15	25.61	2.59	-51.4	-63.1	3.8	8.46e-01	0	34	104	0	73	14684
2026-01-18 02:54:12.19	25.61	2.86	-51.3	-61.4	3.8	8.46e-01	0	34	104	0	73	12004
2026-01-18 02:54:16.22	25.62	3.12	-50.4	-56.4	5.9	3.98e-01	0	34	0	2097152	72	7194
2026-01-18 02:54:20.25	25.62	3.39	-49.1	-52.8	9.4	1.30e-02	0	34	0	24117248	69	5639
2026-01-18 02:54:24.28	25.62	3.66	-46.8	-48.9	13.4	3.08e-05	0	34	0	47185920	65	4524
2026-01-18 02:54:28.31	25.62	3.94	-44.0	-45.3	17.5	0.00e+00	0	34	0	70254592	59	4208
2026-01-18 02:54:32.35	25.63	4.22	-44.8	-46.3	16.2	0.00e+00	0	34	0	92274688	60	4470
2026-01-18 02:54:36.38	25.63	4.50	-46.7	-48.8	13.6	2.17e-05	0	34	0	115343360	63	4996
2026-01-18 02:54:40.42	25.63	4.78	-49.2	-53.0	9.2	1.96e-02	0	34	0	138412032	68	6091
2026-01-18 02:54:44.46	25.63	5.07	-49.2	-52.6	9.6	1.99e-01	0	35	0	160432128	70	5206
2026-01-18 02:54:48.49	25.63	5.36	-49.3	-52.8	10.0	1.48e-05	0	35	0	181403648	69	5655
2026-01-18 02:54:52.52	25.63	5.65	-45.1	-46.5	16.9	0.00e+00	0	34	0	197132288	62	4059
2026-01-18 02:54:56.56	25.63	5.94	-44.6	-45.8	17.6	0.00e+00	0	35	0	220200960	60	4228
2026-01-18 02:55:00.59	25.63	6.24	-44.1	-45.3	18.5	0.00e+00	0	35	0	242221056	59	4197
2026-01-18 02:55:04.62	25.63	6.55	-43.9	-45.0	18.7	0.00e+00	0	35	0	265289728	59	4076
2026-01-18 02:55:08.65	25.63	6.85	-43.7	-44.8	19.0	0.00e+00	0	35	0	288358400	59	3993
2026-01-18 02:55:12.69	25.63	7.16	-43.4	-44.5	19.3	0.00e+00	0	35	0	310378496	58	4077
2026-01-18 02:55:16.73	25.63	7.48	-43.6	-44.7	19.1	0.00e+00	0	35	0	333447168	58	4185
2026-01-18 02:55:20.75	25.62	7.79	-43.5	-44.5	19.3	0.00e+00	0	35	0	355467264	58	4098
2026-01-18 02:55:24.79	25.62	8.12	-43.3	-44.3	19.6	0.00e+00	0	35	0	378535936	58	3978
2026-01-18 02:55:28.82	25.62	8.44	-43.3	-44.3	19.7	0.00e+00	0	35	0	401604608	58	3978
2026-01-18 02:55:32.85	25.61	8.77	-43.3	-44.4	19.6	0.00e+00	0	35	0	423624704	58	4009
2026-01-18 02:55:36.88	25.61	9.11	-43.2	-44.2	19.8	0.00e+00	0	35	0	446693376	58	3929
2026-01-18 02:55:40.91	25.60	9.45	-42.9	-43.9	20.1	0.00e+00	0	35	0	469762048	57	4029
2026-01-18 02:55:44.95	25.60	9.79	-42.9	-43.9	20.2	0.00e+00	0	35	0	491782144	57	4013
2026-01-18 02:55:48.98	25.59	10.14	-43.0	-43.9	20.0	0.00e+00	0	35	0	514850816	57	4049
2026-01-18 02:55:53.01	25.59	10.49	-42.8	-43.7	20.3	0.00e+00	0	35	0	537919488	57	3942
2026-01-18 02:55:57.04	25.58	10.85	-42.7	-43.6	20.4	0.00e+00	0	35	0	559939584	57	3913
2026-01-18 02:56:01.07	25.57	11.22	-42.8	-43.8	20.3	0.00e+00	0	35	0	583008256	57	3974
2026-01-18 02:56:05.10	25.56	11.58	-42.6	-43.5	20.6	0.00e+00	0	35	0	606076928	57	3861
2026-01-18 02:56:09.13	25.56	11.96	-42.4	-43.3	20.8	0.00e+00	0	35	0	628097024	56	3997
2026-01-18 02:56:13.17	25.55	12.34	-42.7	-43.7	20.5	0.00e+00	0	35	0	651165696	56	4160
2026-01-18 02:56:17.19	25.54	12.73	-42.4	-43.4	20.8	0.00e+00	0	35	0	673185792	56	4009
2026-01-18 02:56:21.22	25.52	13.12	-42.2	-43.1	21.1	0.00e+00	0	35	0	696254464	56	3885
2026-01-18 02:56:25.26	25.51	13.52	-42.1	-43.0	21.2	0.00e+00	0	35	0	718274560	56	3834
2026-01-18 02:56:29.29	25.50	13.93	-41.7	-42.6	21.5	0.00e+00	0	35	0	741343232	55	3877
2026-01-18 02:56:33.32	25.49	14.34	-41.6	-42.5	21.6	0.00e+00	0	35	0	764411904	55	3833
2026-01-18 02:56:37.35	25.47	14.76	-41.6	-42.5	21.6	0.00e+00	0	35	0	786432000	55	3851
2026-01-18 02:56:41.38	25.46	15.19	-41.5	-42.3	21.8	0.00e+00	0	35	0	809500672	54	3984
2026-01-18 02:56:45.41	25.44	15.63	-41.3	-42.2	22.0	0.00e+00	0	35	0	832569344	54	3917
2026-01-18 02:56:49.44	25.42	16.07	-41.2	-42.0	22.1	0.00e+00	0	35	0	854589440	54	3844
2026-01-18 02:56:53.48	25.41	16.52	-41.1	-41.9	22.3	0.00e+00	0	35	0	877658112	54	3788
2026-01-18 02:56:57.51	25.39	16.98	-41.1	-41.9	22.3	0.00e+00	0	35	0	900726784	54	3799
2026-01-18 02:57:01.55	25.37	17.45	-40.8	-41.6	22.5	0.00e+00	0	35	0	922746880	53	3898
2026-01-18 02:57:05.58	25.34	17.93	-40.8	-41.6	22.5	0.00e+00	0	35	0	945815552	53	3907
2026-01-18 02:57:09.61	25.32	18.42	-40.7	-41.5	22.7	0.00e+00	0	35	0	968884224	53	3855
2026-01-18 02:57:13.64	25.30	18.92	-40.5	-41.3	22.9	0.00e+00	0	35	0	990904320	52	3960
2026-01-18 02:57:17.68	25.27	19.43	-40.4	-41.2	23.0	0.00e+00	0	35	0	1013972992	52	3938
2026-01-18 02:57:21.71	25.24	19.95	-40.1	-40.9	23.3	0.00e+00	0	35	0	1037041664	52	3797
2026-01-18 02:57:25.74	25.22	20.48	-40.2	-40.9	23.2	0.00e+00	0	35	0	1059061760	52	3823
2026-01-18 02:57:29.77	25.19	21.02	-40.1	-40.9	23.4	0.00e+00	0	35	0	1081081856	51	4025
2026-01-18 02:57:33.80	25.15	21.57	-40.1	-40.8	23.4	0.00e+00	0	35	0	1104150528	51	3998
2026-01-18 02:57:37.83	25.12	22.14	-40.1	-40.9	23.4	0.00e+00	0	35	0	1127219200	51	4009
2026-01-18 02:57:41.86	25.08	22.72	-40.0	-40.7	23.5	0.00e+00	0	35	0	1149239296	51	3954
2026-01-18 02:57:45.90	25.05	23.31	-39.9	-40.7	23.6	0.00e+00	0	35	0	1172307968	51	3918
2026-01-18 02:57:49.93	25.01	23.92	-39.9	-40.7	23.6	0.00e+00	0	35	0	1195376640	51	3926
2026-01-18 02:57:53.97	24.97	24.54	-39.7	-40.5	23.8	0.00e+00	0	35	0	1217396736	51	3841
2026-01-18 02:57:58.00	24.92	25.17	-39.6	-40.3	24.0	0.00e+00	0	35	0	1240465408	51	3762
2026-01-18 02:58:02.03	24.87	25.82	-39.5	-40.2	24.1	0.00e+00	0	35	0	1263534080	50	3951
2026-01-18 02:58:06.07	24.82	26.49	-39.4	-40.1	24.2	0.00e+00	0	35	0	1285554176	50	3910
2026-01-18 02:58:10.10	24.77	27.18	-39.4	-40.1	24.2	0.00e+00	0	35	0	1308622848	50	3884
2026-01-18 02:58:14.12	24.72	27.88	-39.6	-40.3	24.0	0.00e+00	0	35	0	1331691520	50	3981
2026-01-18 02:58:18.16	24.66	28.60	-39.6	-40.3	24.0	0.00e+00	0	35	0	1353711616	50	3988
2026-01-18 02:58:22.19	24.60	29.34	-39.5	-40.2	24.1	0.00e+00	0	35	0	1376780288	50	3940
2026-01-18 02:58:26.22	24.53	30.10	-39.5	-40.2	24.2	0.00e+00	0	35	0	1399848960	50	3943
2026-01-18 02:58:30.25	24.46	30.88	-39.5	-40.3	24.1	0.00e+00	0	35	0	1421869056	50	3976
2026-01-18 02:58:34.29	24.39	31.68	-39.4	-40.1	24.3	0.00e+00	0	35	0	1443889152	50	3898
2026-01-18 02:58:38.32	24.31	32.51	-39.2	-40.0	24.4	0.00e+00	0	35	0	1466957824	50	3827
2026-01-18 02:58:42.35	24.22	33.35	-38.9	-39.6	24.7	0.00e+00	0	35	0	1490026496	49	3890
2026-01-18 02:58:46.38	24.13	34.23	-39.1	-39.9	24.5	0.00e+00	0	35	0	1512046592	49	4010
2026-01-18 02:58:50.41	24.04	35.12	-38.7	-39.4	25.0	0.00e+00	0	35	0	1535115264	49	3792
2026-01-18 02:58:54.44	23.94	36.04	-39.0	-39.8	24.7	0.00e+00	0	35	0	1558183936	49	3959
2026-01-18 02:58:58.48	23.83	37.00	-38.4	-39.1	25.2	0.00e+00	0	35	0	1580204032	48	3877
2026-01-18 02:59:02.51	23.71	37.97	-38.6	-39.3	25.0	0.00e+00	0	35	0	1603272704	48	3990
2026-01-18 02:59:06.54	23.59	38.98	-39.0	-39.8	24.7	0.00e+00	0	35	0	1626341376	48	4199
2026-01-18 02:59:10.58	23.45	40.02	-39.0	-39.7	24.7	0.00e+00	0	35	0	1648361472	48	4174
2026-01-18 02:59:14.61	23.31	41.09	-39.0	-39.7	24.7	0.00e+00	0	35	0	1671430144	48	4169
2026-01-18 02:59:18.64	23.16	42.19	-38.8	-39.5	24.9	0.00e+00	0	35	0	1694498816	48	4072
2026-01-18 02:59:22.68	22.99	43.33	-39.4	-40.1	24.4	0.00e+00	0	35	0	1716518912	49	4144
2026-01-18 02:59:26.71	22.81	44.50	-39.7	-40.4	24.2	0.00e+00	0	35	0	1739587584	50	4034
2026-01-18 02:59:30.74	22.61	45.71	-39.6	-40.4	24.2	0.00e+00	0	35	0	1762656256	50	4010
2026-01-18 02:59:34.77	22.40	46.95	-39.9	-40.6	24.0	0.00e+00	0	35	0	1784676352	50	4120
2026-01-18 02:59:38.80	22.17	48.23	-39.6	-40.4	24.2	0.00e+00	0	35	0	1807745024	50	4017
2026-01-18 02:59:42.84	21.91	49.55	-39.5	-40.2	24.4	0.00e+00	0	36	0	1829765120	50	3947
2026-01-18 02:59:46.87	21.63	50.91	-40.0	-40.7	23.9	0.00e+00	0	35	0	1852833792	50	4185
2026-01-18 02:59:50.90	21.33	52.30	-40.4	-41.1	23.6	0.00e+00	0	35	0	1875902464	51	4143
2026-01-18 02:59:54.93	20.99	53.74	-40.4	-41.1	23.6	0.00e+00	0	35	0	1897922560	51	4145
2026-01-18 02:59:58.96	20.61	55.22	-40.7	-41.5	23.2	0.00e+00	0	35	0	1920991232	52	4088
2026-01-18 03:00:03.00	20.19	56.74	-40.0	-40.7	23.9	0.00e+00	0	35	0	1943011328	52	3732
2026-01-18 03:00:07.03	19.71	58.30	-39.9	-40.7	24.0	0.00e+00	0	35	0	1966080000	51	3922
2026-01-18 03:00:11.06	19.18	59.90	-39.1	-39.9	24.8	0.00e+00	0	35	0	1989148672	50	3781
2026-01-18 03:00:15.09	18.57	61.54	-39.5	-40.3	24.4	0.00e+00	0	35	0	2011168768	50	3964
2026-01-18 03:00:19.13	17.87	63.22	-39.2	-39.9	24.8	0.00e+00	0	35	0	2034237440	50	3788
2026-01-18 03:00:23.16	17.06	64.94	-38.8	-39.5	25.1	0.00e+00	0	35	0	2057306112	49	3853
2026-01-18 03:00:27.19	16.11	66.68	-38.8	-39.5	25.1	0.00e+00	0	35	0	2079326208	49	3846
2026-01-18 03:00:31.22	15.00	68.46	-38.7	-39.4	25.1	0.00e+00	0	35	0	2102394880	49	3806
2026-01-18 03:00:35.25	13.65	70.27	-37.6	-38.3	25.6	0.00e+00	0	35	0	2125463552	47	3756
2026-01-18 03:00:39.28	12.01	72.09	-37.7	-38.3	25.6	0.00e+00	0	35	0	2147483648	47	3779
2026-01-18 03:00:43.32	9.96	73.94	-37.1	-37.8	26.1	0.00e+00	0	35	0	2170552320	46	3745
2026-01-18 03:00:47.35	7.36	75.78	-37.2	-37.8	26.0	0.00e+00	0	35	0	2192572416	45	3999
2026-01-18 03:00:51.38	3.94	77.61	-37.0	-37.7	26.1	0.00e+00	0	35	0	2215641088	45	3933
2026-01-18 03:00:55.41	359.32	79.40	-36.5	-37.1	26.6	0.00e+00	0	35	0	2238709760	45	3694
2026-01-18 03:00:59.44	352.82	81.12	-36.3	-37.0	26.7	0.00e+00	0	35	0	2260729856	44	3851
2026-01-18 03:01:03.48	343.30	82.68	-36.4	-37.0	26.7	0.00e+00	0	35	0	2283798528	44	3860
2026-01-18 03:01:07.51	329.25	83.94	-36.3	-37.0	26.7	0.00e+00	0	35	0	2306867200	44	3850
2026-01-18 03:01:11.55	309.58	84.69	-36.5	-37.1	26.6	0.00e+00	0	35	0	2328887296	44	3910
2026-01-18 03:01:15.58	287.10	84.68	-36.8	-37.4	26.3	0.00e+00	0	35	0	2351955968	44	4043
2026-01-18 03:01:19.61	267.61	83.92	-36.7	-37.3	26.5	0.00e+00	0	35	0	2375024640	44	4002
2026-01-18 03:01:23.64	253.68	82.64	-36.7	-37.3	26.4	0.00e+00	0	35	0	2397044736	44	4004
2026-01-18 03:01:27.67	244.27	81.08	-36.9	-37.6	26.3	0.00e+00	0	35	0	2420113408	44	4107
2026-01-18 03:01:31.70	237.82	79.36	-36.6	-37.3	26.5	0.00e+00	0	35	0	2443182080	44	3959
2026-01-18 03:01:35.74	233.22	77.56	-36.6	-37.3	26.5	0.00e+00	0	35	0	2465202176	44	3962
2026-01-18 03:01:39.77	229.83	75.73	-36.7	-37.3	26.5	0.00e+00	0	35	0	2488270848	44	4003
2026-01-18 03:01:43.81	227.23	73.88	-37.2	-37.9	26.0	0.00e+00	0	35	0	2511339520	45	4042
2026-01-18 03:01:47.84	225.20	72.04	-38.1	-38.9	25.2	0.00e+00	0	35	0	2533359616	47	4011
2026-01-18 03:01:51.87	223.57	70.21	-38.2	-38.9	25.1	0.00e+00	0	35	0	2555379712	47	4012
2026-01-18 03:01:55.90	222.23	68.40	-38.5	-39.2	24.8	0.00e+00	0	35	0	2578448384	47	4175
2026-01-18 03:01:59.93	221.11	66.62	-38.3	-39.0	25.0	0.00e+00	0	35	0	2601517056	47	4074
2026-01-18 03:02:03.95	220.17	64.88	-38.1	-38.8	25.2	0.00e+00	0	35	0	2623537152	47	3962
2026-01-18 03:02:07.98	219.36	63.16	-37.9	-38.5	25.4	0.00e+00	0	35	0	2646605824	47	3867
2026-01-18 03:02:12.01	218.67	61.48	-38.6	-39.3	24.7	0.00e+00	0	35	0	2669674496	47	4242
2026-01-18 03:02:16.04	218.06	59.84	-39.2	-39.9	24.7	0.00e+00	0	35	0	2691694592	49	4012
2026-01-18 03:02:20.08	217.52	58.23	-40.0	-40.7	24.0	0.00e+00	0	35	0	2714763264	50	4188
2026-01-18 03:02:24.10	217.05	56.67	-40.6	-41.4	23.4	0.00e+00	0	35	0	2737831936	51	4244
2026-01-18 03:02:28.14	216.63	55.15	-40.3	-41.0	23.7	0.00e+00	0	35	0	2759852032	51	4093
2026-01-18 03:02:32.17	216.25	53.67	-40.0	-40.7	24.0	0.00e+00	0	35	0	2782920704	51	3943
2026-01-18 03:02:36.20	215.91	52.23	-39.8	-40.6	24.1	0.00e+00	0	35	0	2805989376	51	3898
2026-01-18 03:02:40.23	215.61	50.83	-39.4	-40.1	24.5	0.00e+00	0	35	0	2828009472	50	3900
2026-01-18 03:02:44.27	215.33	49.47	-39.6	-40.4	24.3	0.00e+00	0	35	0	2851078144	50	4009
2026-01-18 03:02:48.30	215.07	48.15	-39.4	-40.1	24.5	0.00e+00	0	35	0	2874146816	50	3877
2026-01-18 03:02:52.33	214.84	46.86	-39.4	-40.2	24.4	0.00e+00	0	35	0	2896166912	50	3918
2026-01-18 03:02:56.36	214.63	45.62	-39.2	-39.9	24.7	0.00e+00	0	35	0	2918187008	50	3790
2026-01-18 03:03:00.40	214.43	44.41	-39.1	-39.8	24.7	0.00e+00	0	35	0	2941255680	49	4000
2026-01-18 03:03:04.43	214.25	43.24	-39.1	-39.8	24.8	0.00e+00	0	35	0	2964324352	49	3963
2026-01-18 03:03:08.45	214.08	42.10	-38.9	-39.6	24.9	0.00e+00	0	35	0	2986344448	49	3883
2026-01-18 03:03:12.49	213.93	41.00	-38.8	-39.5	25.0	0.00e+00	0	35	0	3009413120	49	3836
2026-01-18 03:03:16.51	213.78	39.93	-38.4	-39.0	25.4	0.00e+00	0	35	0	3032481792	48	3856
2026-01-18 03:03:20.55	213.65	38.88	-38.4	-39.0	25.3	0.00e+00	0	35	0	3054501888	48	3868
2026-01-18 03:03:24.58	213.52	37.88	-38.3	-39.0	25.3	0.00e+00	0	35	0	3077570560	48	3864
2026-01-18 03:03:28.61	213.41	36.90	-38.2	-38.9	25.4	0.00e+00	0	35	0	3100639232	48	3796
2026-01-18 03:03:32.64	213.30	35.94	-38.8	-39.5	24.9	0.00e+00	0	35	0	3122659328	48	4053
2026-01-18 03:03:36.67	213.19	35.02	-39.1	-39.8	24.6	0.00e+00	0	35	0	3145728000	48	4233
2026-01-18 03:03:40.71	213.10	34.12	-38.8	-39.5	24.9	0.00e+00	0	35	0	3168796672	48	4067
2026-01-18 03:03:44.74	213.01	33.25	-38.9	-39.6	24.8	0.00e+00	0	35	0	3190816768	48	4106
2026-01-18 03:03:48.77	212.92	32.40	-39.0	-39.7	24.6	0.00e+00	0	35	0	3213885440	48	4187
2026-01-18 03:03:52.80	212.84	31.57	-39.1	-39.8	24.6	0.00e+00	0	35	0	3236954112	48	4229
2026-01-18 03:03:56.83	212.77	30.77	-39.1	-39.8	24.6	0.00e+00	0	35	0	3258974208	48	4208
2026-01-18 03:04:00.85	212.70	29.99	-38.7	-39.4	24.9	0.00e+00	0	35	0	3280994304	48	4023
2026-01-18 03:04:04.88	212.63	29.23	-38.9	-39.6	24.7	0.00e+00	0	35	0	3304062976	48	4115
2026-01-18 03:04:08.92	212.56	28.49	-39.1	-39.8	24.5	0.00e+00	0	36	0	3327131648	48	4231
2026-01-18 03:04:12.95	212.50	27.76	-39.1	-39.9	24.4	0.00e+00	0	35	0	3349151744	49	4011
2026-01-18 03:04:16.98	212.45	27.06	-38.9	-39.6	24.6	0.00e+00	0	35	0	3372220416	49	3911
2026-01-18 03:04:21.02	212.39	26.37	-39.0	-39.7	24.6	0.00e+00	0	35	0	3395289088	49	3931
2026-01-18 03:04:25.05	212.34	25.71	-39.1	-39.9	24.4	0.00e+00	0	35	0	3417309184	49	4015
2026-01-18 03:04:29.08	212.30	25.05	-39.5	-40.2	24.1	0.00e+00	0	35	0	3440377856	49	4173
2026-01-18 03:04:33.11	212.25	24.42	-39.5	-40.3	24.0	0.00e+00	0	35	0	3463446528	49	4218
2026-01-18 03:04:37.14	212.21	23.80	-39.6	-40.4	23.9	0.00e+00	0	35	0	3485466624	49	4257
2026-01-18 03:04:41.17	212.17	23.19	-39.6	-40.4	23.9	0.00e+00	0	35	0	3508535296	50	4006
2026-01-18 03:04:45.20	212.13	22.60	-39.6	-40.3	23.9	0.00e+00	0	35	0	3530555392	50	3998
2026-01-18 03:04:49.23	212.09	22.02	-39.7	-40.4	23.8	0.00e+00	0	35	0	3553624064	50	4047
2026-01-18 03:04:53.26	212.05	21.45	-39.8	-40.5	23.7	0.00e+00	0	35	0	3576692736	50	4074
2026-01-18 03:04:57.29	212.02	20.89	-40.0	-40.8	23.5	0.00e+00	0	35	0	3598712832	50	4213
2026-01-18 03:05:01.32	211.99	20.35	-40.2	-41.0	23.3	0.00e+00	0	35	0	3621781504	50	4317
2026-01-18 03:05:05.35	211.96	19.82	-40.3	-41.1	23.2	0.00e+00	0	35	0	3643801600	51	4108
2026-01-18 03:05:09.39	211.93	19.30	-40.4	-41.2	23.1	0.00e+00	0	35	0	3666870272	51	4169
2026-01-18 03:05:13.42	211.90	18.79	-40.6	-41.4	22.9	0.00e+00	0	35	0	3689938944	51	4271
2026-01-18 03:05:17.45	211.88	18.29	-40.8	-41.6	22.6	0.00e+00	0	35	0	3711959040	52	4117
2026-01-18 03:05:21.48	211.85	17.80	-40.8	-41.6	22.6	0.00e+00	0	35	0	3735027712	52	4121
2026-01-18 03:05:25.50	211.83	17.33	-40.7	-41.5	22.6	0.00e+00	0	35	0	3758096384	52	4093
2026-01-18 03:05:29.54	211.81	16.85	-41.0	-41.8	22.3	0.00e+00	0	35	0	3780116480	52	4213
2026-01-18 03:05:33.57	211.78	16.39	-41.1	-41.9	22.2	0.00e+00	0	35	0	3803185152	52	4274
2026-01-18 03:05:37.61	211.76	15.94	-41.2	-42.1	22.0	0.00e+00	0	35	0	3826253824	53	4116
2026-01-18 03:05:41.64	211.75	15.49	-41.5	-42.4	21.8	0.00e+00	0	35	0	3848273920	53	4247
2026-01-18 03:05:45.67	211.73	15.06	-41.5	-42.3	21.8	0.00e+00	0	35	0	3871342592	53	4235
2026-01-18 03:05:49.70	211.71	14.63	-41.6	-42.4	21.7	0.00e+00	0	35	0	3894411264	53	4277
2026-01-18 03:05:53.74	211.69	14.21	-41.8	-42.6	21.5	0.00e+00	0	35	0	3916431360	54	4135
2026-01-18 03:05:57.77	211.68	13.79	-41.9	-42.8	21.3	0.00e+00	0	35	0	3939500032	54	4217
2026-01-18 03:06:01.81	211.66	13.38	-41.9	-42.8	21.3	0.00e+00	0	35	0	3962568704	54	4217
2026-01-18 03:06:05.84	211.65	12.98	-42.2	-43.1	20.9	0.00e+00	0	35	0	3984588800	54	4376
2026-01-18 03:06:09.87	211.64	12.59	-42.0	-42.9	21.2	0.00e+00	0	35	0	4006608896	54	4252
2026-01-18 03:06:13.90	211.62	12.20	-42.2	-43.1	20.9	0.00e+00	0	36	0	4029677568	54	4372
2026-01-18 03:06:17.94	211.61	11.82	-42.3	-43.2	20.8	0.00e+00	0	35	0	4052746240	55	4177
2026-01-18 03:06:21.97	211.60	11.44	-42.5	-43.5	20.5	0.00e+00	0	35	0	4074766336	55	4306
2026-01-18 03:06:26.01	211.59	11.07	-42.5	-43.4	20.6	0.00e+00	0	35	0	4097835008	55	4291
2026-01-18 03:06:30.04	211.58	10.71	-42.5	-43.4	20.5	0.00e+00	0	35	0	4120903680	55	4288
2026-01-18 03:06:34.07	211.57	10.35	-42.6	-43.5	20.4	0.00e+00	0	35	0	4142923776	55	4336
2026-01-18 03:06:38.10	211.56	10.00	-42.8	-43.7	20.3	0.00e+00	0	35	0	4165992448	56	4191
2026-01-18 03:06:42.13	211.55	9.65	-43.0	-44.0	20.1	0.00e+00	0	35	0	4189061120	56	4304
2026-01-18 03:06:46.16	211.55	9.30	-43.0	-44.0	20.0	0.00e+00	0	35	0	4211081216	56	4306
2026-01-18 03:06:50.19	211.54	8.96	-43.2	-44.3	19.7	0.00e+00	0	35	0	4234149888	57	4198
2026-01-18 03:06:54.23	211.53	8.63	-43.0	-44.0	19.9	0.00e+00	0	35	0	4257218560	57	4096
2026-01-18 03:06:58.26	211.53	8.30	-43.4	-44.4	19.5	0.00e+00	0	35	0	4279238656	57	4288
2026-01-18 03:07:02.29	211.52	7.97	-43.6	-44.7	19.2	0.00e+00	0	35	0	4302307328	57	4413
2026-01-18 03:07:06.33	211.51	7.65	-43.6	-44.7	19.2	0.00e+00	0	35	0	4325376000	57	4404
2026-01-18 03:07:10.35	211.51	7.33	-43.6	-44.8	19.1	0.00e+00	0	35	0	4347396096	58	4200
2026-01-18 03:07:14.39	211.50	7.02	-43.7	-44.8	19.0	0.00e+00	0	35	0	4369416192	58	4234
2026-01-18 03:07:18.42	211.50	6.71	-44.0	-45.2	18.6	0.00e+00	0	35	0	4392484864	58	4408
2026-01-18 03:07:22.45	211.50	6.40	-44.2	-45.4	18.3	0.00e+00	0	35	0	4415553536	59	4284
2026-01-18 03:07:26.49	211.49	6.09	-44.4	-45.6	18.1	0.00e+00	0	35	0	4437573632	59	4383
2026-01-18 03:07:30.53	211.49	5.79	-44.4	-45.6	18.0	0.00e+00	0	35	0	4460642304	59	4375
2026-01-18 03:07:34.56	211.49	5.50	-44.5	-45.8	17.8	0.00e+00	0	35	0	4483710976	59	4470
2026-01-18 03:07:38.58	211.48	5.21	-44.3	-45.6	18.0	0.00e+00	0	35	0	4505731072	59	4341
2026-01-18 03:07:42.62	211.48	4.92	-52.8	-64.8	3.8	8.46e-01	0	35	104	4523556864	76	14992
2026-01-18 03:07:46.65	211.48	4.63	-53.4	-65.4	3.8	8.46e-01	0	35	104	4523556864	77	15175
2026-01-18 03:07:50.68	211.48	4.35	-53.7	-65.7	3.8	8.46e-01	0	36	104	4523556864	77	15645
2026-01-18 03:07:54.72	211.48	4.07	-53.8	-65.8	3.8	8.46e-01	0	35	104	4523556864	78	14964
2026-01-18 03:07:58.75	211.48	3.79	-53.9	-65.9	3.8	8.45e-01	0	35	104	4523556864	78	15166
2026-01-18 03:08:02.78	211.47	3.51	-53.9	-65.9	3.8	8.45e-01	0	35	104	4523556864	78	15191
2026-01-18 03:08:06.81	211.47	3.24	-53.9	-65.9	3.8	8.47e-01	0	35	104	4523556864	78	15150
2026-01-18 03:08:10.84	211.47	2.97	-53.9	-65.9	3.8	8.47e-01	0	35	104	4523556864	78	15058
2026-01-18 03:08:14.88	211.47	2.70	-53.8	-65.8	3.8	8.46e-01	0	35	104	4523556864	78	14953
2026-01-18 03:08:18.91	211.47	2.44	-53.8	-65.8	3.8	8.47e-01	0	35	104	4523556864	78	14983
2026-01-18 03:08:22.94	211.47	2.18	-53.8	-65.8	3.8	8.46e-01	0	35	104	4523556864	78	14949

#Closed at: 2026-01-18 03:08:26
#Recorded file [4523 MB]: D:/lorett/data/31041_260118_055359.dat