passes_logs/2026/01/18/R3.2S_Murmansk/R3.2S_Murmansk__20260118_005915_AQUA_rec.log

#Pass ID: 20260118_005915_AQUA
#Satellite: AQUA
#Configuration: AQUA
#almurnet v.1.7.20251203
#Start time: 2026-01-18 00:59:15

#Version: 2.2.20231116
#Station: R3.2S_Murmansk
#Location: 33.079688 lon 68.888172 lat
#TLE: 1 27424U 02022A   26017.62394888  .00000781  00000+0  16630-3 0  9993
#TLE: 2 27424  98.4086 344.0954 0002010  75.0132 339.4723 14.61825944261279

#Time	Az	El	Level	Level2	SNR	BER	BlckErr	Temp	State	Recorded	gain1	gain2
2026-01-18 00:59:15.93	21.29	2.06	-53.4	-71.2	3.8	7.44e-01	0	33	0	0	78	27785
2026-01-18 00:59:18.95	21.44	2.25	-53.4	-71.1	3.8	7.45e-01	0	33	104	0	77	29329
2026-01-18 00:59:21.97	21.60	2.44	-53.4	-70.3	3.8	7.44e-01	0	33	104	0	77	26714
2026-01-18 00:59:25.00	21.75	2.63	-53.3	-68.8	3.9	7.42e-01	0	33	104	0	77	22496
2026-01-18 00:59:28.02	21.91	2.82	-53.3	-67.4	4.3	7.31e-01	0	33	104	0	77	19017
2026-01-18 00:59:31.04	22.07	3.02	-53.3	-67.5	4.2	7.33e-01	0	33	104	0	77	19365
2026-01-18 00:59:34.07	22.23	3.22	-53.3	-67.7	4.2	7.31e-01	0	34	104	0	77	19806
2026-01-18 00:59:37.09	22.39	3.41	-53.1	-64.4	5.8	6.92e-01	30	33	0	0	77	13504
2026-01-18 00:59:40.12	22.56	3.61	-52.9	-62.7	7.1	6.61e-01	182	34	0	3670016	77	11111
2026-01-18 00:59:43.14	22.73	3.81	-52.9	-62.8	7.2	6.59e-01	184	34	0	9437184	77	11158
2026-01-18 00:59:46.17	22.90	4.02	-53.1	-64.1	6.0	6.84e-01	182	34	0	14680064	77	13033
2026-01-18 00:59:49.19	23.07	4.22	-52.4	-59.5	10.5	6.14e-01	0	34	0	20447232	76	8087
2026-01-18 00:59:52.21	23.25	4.43	-51.9	-57.7	12.4	6.08e-01	0	34	0	26214400	75	6990
2026-01-18 00:59:55.23	23.43	4.63	-52.3	-59.1	11.1	6.09e-01	0	34	0	31981568	75	8199
2026-01-18 00:59:58.26	23.61	4.84	-52.3	-59.4	10.6	6.13e-01	0	34	0	37748736	75	8514
2026-01-18 01:00:01.28	23.79	5.05	-52.3	-59.3	10.7	6.15e-01	0	34	0	42991616	75	8449
2026-01-18 01:00:04.30	23.98	5.26	-50.2	-53.3	16.9	6.04e-01	0	34	0	47185920	72	5029
2026-01-18 01:00:07.33	24.17	5.48	-48.0	-50.0	20.6	6.02e-01	0	34	0	52953088	68	4327
2026-01-18 01:00:10.35	24.36	5.69	-47.6	-49.4	21.3	6.03e-01	0	34	0	58720256	67	4285
2026-01-18 01:00:13.38	24.55	5.91	-47.4	-49.2	21.6	6.03e-01	0	34	0	64487424	66	4419
2026-01-18 01:00:16.40	24.75	6.13	-47.4	-49.2	21.7	6.02e-01	0	34	0	69730304	66	4394
2026-01-18 01:00:19.42	24.95	6.35	-47.1	-48.9	22.0	6.02e-01	0	34	0	76021760	66	4248
2026-01-18 01:00:22.45	25.16	6.57	-47.5	-49.4	21.5	6.02e-01	0	34	0	81264640	66	4508
2026-01-18 01:00:25.48	25.36	6.80	-47.3	-49.0	22.0	6.02e-01	0	34	0	87031808	66	4312
2026-01-18 01:00:28.50	25.57	7.02	-47.3	-49.1	21.9	6.00e-01	0	34	0	92798976	66	4366
2026-01-18 01:00:31.52	25.79	7.25	-47.2	-48.9	22.1	6.03e-01	0	35	0	98566144	66	4266
2026-01-18 01:00:34.55	26.00	7.48	-47.1	-48.8	22.2	6.01e-01	0	34	0	104333312	66	4230
2026-01-18 01:00:37.58	26.22	7.71	-47.1	-48.8	22.3	6.01e-01	0	34	0	109576192	65	4451
2026-01-18 01:00:40.60	26.45	7.95	-46.9	-48.6	22.5	6.00e-01	0	34	0	115343360	65	4348
2026-01-18 01:00:43.63	26.68	8.18	-46.7	-48.3	22.8	6.01e-01	0	34	0	121110528	65	4207
2026-01-18 01:00:46.65	26.91	8.42	-46.9	-48.5	22.6	6.04e-01	0	35	0	126877696	65	4310
2026-01-18 01:00:49.68	27.14	8.66	-46.9	-48.5	22.7	6.02e-01	0	34	0	132644864	65	4303
2026-01-18 01:00:52.70	27.38	8.91	-46.8	-48.4	22.8	6.03e-01	0	35	0	137887744	65	4250
2026-01-18 01:00:55.73	27.63	9.15	-46.7	-48.3	22.9	6.01e-01	0	35	0	143654912	65	4199
2026-01-18 01:00:58.75	27.88	9.40	-46.5	-48.0	23.1	6.02e-01	0	35	0	149422080	64	4316
2026-01-18 01:01:01.75	28.13	9.65	-46.3	-47.8	23.4	6.03e-01	0	35	0	155189248	64	4206
2026-01-18 01:01:04.78	28.38	9.90	-46.4	-47.9	23.3	6.02e-01	0	35	0	160956416	64	4268
2026-01-18 01:01:07.81	28.64	10.16	-46.3	-47.8	23.4	6.04e-01	0	35	0	166199296	64	4219
2026-01-18 01:01:10.83	28.91	10.41	-46.4	-47.9	23.3	6.00e-01	0	35	0	171966464	64	4245
2026-01-18 01:01:13.85	29.18	10.67	-46.2	-47.6	23.6	6.01e-01	0	35	0	177733632	64	4126
2026-01-18 01:01:16.88	29.46	10.94	-46.1	-47.5	23.7	6.02e-01	0	35	0	183500800	64	4094
2026-01-18 01:01:19.90	29.74	11.20	-46.0	-47.4	23.8	6.04e-01	0	35	0	189267968	64	4042
2026-01-18 01:01:22.93	30.02	11.47	-46.2	-47.6	23.7	6.04e-01	0	35	0	195035136	63	4368
2026-01-18 01:01:25.95	30.32	11.74	-46.2	-47.6	23.8	6.01e-01	0	35	0	200278016	63	4375
2026-01-18 01:01:28.97	30.61	12.01	-46.0	-47.4	24.0	6.02e-01	0	35	0	206045184	63	4259
2026-01-18 01:01:31.99	30.92	12.29	-46.1	-47.5	23.9	6.03e-01	0	35	0	211812352	63	4302
2026-01-18 01:01:35.02	31.23	12.57	-46.0	-47.4	24.0	6.03e-01	0	35	0	217579520	63	4291
2026-01-18 01:01:38.04	31.54	12.85	-46.2	-47.6	23.8	6.00e-01	0	35	0	223346688	63	4374
2026-01-18 01:01:41.07	31.86	13.13	-45.7	-47.1	24.3	6.02e-01	0	35	0	228589568	63	4102
2026-01-18 01:01:44.09	32.19	13.42	-45.6	-46.9	24.5	6.03e-01	0	35	0	234356736	63	4043
2026-01-18 01:01:47.11	32.52	13.71	-45.8	-47.2	24.2	6.03e-01	0	35	0	240123904	63	4163
2026-01-18 01:01:50.14	32.86	14.00	-45.6	-47.0	24.4	6.03e-01	0	35	0	245891072	63	4071
2026-01-18 01:01:53.16	33.21	14.30	-45.7	-47.0	24.4	6.02e-01	0	35	0	251658240	63	4087
2026-01-18 01:01:56.18	33.57	14.60	-45.6	-46.9	24.5	6.03e-01	0	35	0	256901120	63	4026
2026-01-18 01:01:59.21	33.93	14.90	-45.5	-46.8	24.6	6.01e-01	0	35	0	262668288	62	4238
2026-01-18 01:02:02.23	34.30	15.21	-45.5	-46.8	24.7	6.01e-01	0	35	0	268435456	62	4212
2026-01-18 01:02:05.26	34.68	15.52	-45.6	-46.9	24.6	6.01e-01	0	35	0	274202624	62	4280
2026-01-18 01:02:08.28	35.07	15.83	-45.4	-46.7	24.8	6.04e-01	0	35	0	279969792	62	4163
2026-01-18 01:02:11.30	35.46	16.15	-45.5	-46.8	24.6	6.04e-01	0	35	0	285212672	62	4241
2026-01-18 01:02:14.33	35.87	16.47	-45.5	-46.8	24.6	6.03e-01	0	35	0	290979840	62	4237
2026-01-18 01:02:17.35	36.28	16.79	-45.5	-46.8	24.7	6.01e-01	0	35	0	296747008	62	4220
2026-01-18 01:02:20.38	36.70	17.12	-45.4	-46.7	24.8	6.03e-01	0	35	0	302514176	62	4157
2026-01-18 01:02:23.40	37.13	17.45	-45.4	-46.7	24.8	6.04e-01	0	34	0	308281344	62	4175
2026-01-18 01:02:26.43	37.57	17.78	-45.5	-46.9	24.6	6.01e-01	0	35	0	314048512	62	4247
2026-01-18 01:02:29.45	38.02	18.12	-45.5	-46.8	24.7	6.05e-01	0	35	0	319291392	62	4228
2026-01-18 01:02:32.48	38.49	18.46	-45.4	-46.7	24.8	6.03e-01	0	35	0	325058560	62	4188
2026-01-18 01:02:35.50	38.96	18.80	-45.5	-46.8	24.8	6.02e-01	0	35	0	330825728	62	4211
2026-01-18 01:02:38.52	39.44	19.15	-45.4	-46.6	24.9	6.03e-01	0	35	0	336592896	62	4142
2026-01-18 01:02:41.55	39.94	19.50	-45.4	-46.7	24.8	6.03e-01	0	35	0	342360064	62	4186
2026-01-18 01:02:44.57	40.44	19.85	-45.4	-46.7	24.8	6.04e-01	0	35	0	347602944	62	4180
2026-01-18 01:02:47.59	40.96	20.21	-45.5	-46.8	24.8	6.03e-01	0	35	0	353370112	62	4212
2026-01-18 01:02:50.61	41.49	20.57	-45.5	-46.8	24.8	6.02e-01	0	35	0	359137280	62	4226
2026-01-18 01:02:53.64	42.04	20.94	-45.3	-46.6	25.0	6.02e-01	0	35	0	364904448	62	4123
2026-01-18 01:02:56.66	42.60	21.30	-45.4	-46.7	24.9	6.03e-01	0	35	0	370671616	62	4188
2026-01-18 01:02:59.69	43.17	21.68	-45.5	-46.8	24.8	6.03e-01	0	35	0	375914496	62	4220
2026-01-18 01:03:02.71	43.76	22.05	-45.5	-46.8	24.8	6.01e-01	0	35	0	381681664	62	4220
2026-01-18 01:03:05.73	44.36	22.43	-45.5	-46.8	24.9	6.04e-01	0	35	0	387448832	62	4213
2026-01-18 01:03:08.75	44.97	22.81	-45.6	-46.9	24.8	6.02e-01	0	35	0	393216000	62	4254
2026-01-18 01:03:11.77	45.60	23.19	-45.7	-47.0	24.6	6.02e-01	0	35	0	398983168	62	4330
2026-01-18 01:03:14.80	46.25	23.58	-45.7	-47.0	24.6	6.02e-01	0	35	0	404226048	62	4332
2026-01-18 01:03:17.82	46.92	23.97	-45.7	-47.1	24.6	6.03e-01	0	35	0	409993216	62	4342
2026-01-18 01:03:20.84	47.60	24.36	-45.9	-47.2	24.5	6.01e-01	0	35	0	415760384	62	4429
2026-01-18 01:03:23.87	48.30	24.75	-45.8	-47.2	24.6	6.00e-01	0	35	0	421527552	62	4392
2026-01-18 01:03:26.89	49.01	25.15	-45.6	-46.9	24.8	6.01e-01	0	35	0	427294720	62	4260
2026-01-18 01:03:29.92	49.75	25.54	-45.9	-47.2	24.5	6.00e-01	0	35	0	432537600	62	4418
2026-01-18 01:03:32.94	50.51	25.94	-46.0	-47.3	24.4	6.01e-01	0	35	0	438829056	62	4471
2026-01-18 01:03:35.96	51.28	26.34	-45.8	-47.1	24.6	6.03e-01	0	35	0	444071936	62	4358
2026-01-18 01:03:38.99	52.08	26.74	-45.9	-47.2	24.5	6.03e-01	0	35	0	449839104	62	4440
2026-01-18 01:03:42.01	52.89	27.15	-45.9	-47.2	24.6	6.01e-01	0	35	0	455606272	62	4416
2026-01-18 01:03:45.03	53.73	27.55	-45.7	-47.1	24.7	6.02e-01	0	35	0	461373440	62	4345
2026-01-18 01:03:48.06	54.59	27.95	-45.9	-47.2	24.6	6.01e-01	0	35	0	467140608	62	4421
2026-01-18 01:03:51.08	55.47	28.35	-45.9	-47.2	24.5	6.00e-01	0	35	0	472383488	62	4420
2026-01-18 01:03:54.11	56.37	28.75	-45.7	-47.0	24.7	6.02e-01	0	35	0	478150656	62	4333
2026-01-18 01:03:57.13	57.30	29.15	-45.7	-47.0	24.7	6.02e-01	0	35	0	483917824	62	4330
2026-01-18 01:04:00.15	58.25	29.55	-45.9	-47.3	24.5	6.03e-01	0	35	0	489684992	62	4450
2026-01-18 01:04:03.17	59.22	29.95	-45.8	-47.2	24.6	6.00e-01	0	35	0	495452160	62	4404
2026-01-18 01:04:06.20	60.22	30.34	-45.7	-47.0	24.2	6.02e-01	0	35	0	500695040	62	4329
2026-01-18 01:04:09.22	61.25	30.73	-45.8	-47.1	24.7	6.01e-01	0	35	0	506462208	62	4371
2026-01-18 01:04:12.24	62.30	31.11	-45.7	-47.0	24.8	6.01e-01	0	35	0	512229376	62	4335
2026-01-18 01:04:15.26	63.37	31.49	-45.6	-46.8	24.9	6.01e-01	0	35	0	517996544	62	4235
2026-01-18 01:04:18.29	64.47	31.87	-45.6	-46.9	24.9	6.00e-01	0	35	0	523763712	62	4279
2026-01-18 01:04:21.31	65.60	32.23	-45.8	-47.1	24.7	6.01e-01	0	35	0	529006592	62	4350
2026-01-18 01:04:24.34	66.75	32.59	-45.7	-47.0	24.8	5.99e-01	0	35	0	534773760	62	4318
2026-01-18 01:04:27.36	67.93	32.94	-45.7	-47.0	24.9	6.01e-01	0	35	0	540540928	62	4292
2026-01-18 01:04:30.39	69.14	33.29	-45.8	-47.1	24.8	6.02e-01	0	35	0	546308096	62	4354
2026-01-18 01:04:33.41	70.37	33.62	-45.6	-46.9	25.0	5.99e-01	0	35	0	552075264	62	4261
2026-01-18 01:04:36.43	71.62	33.94	-45.7	-47.0	24.8	6.04e-01	0	35	0	557842432	62	4310
2026-01-18 01:04:39.46	72.91	34.25	-45.6	-46.8	25.0	6.03e-01	0	35	0	563085312	62	4229
2026-01-18 01:04:42.48	74.21	34.55	-45.6	-46.9	24.9	6.01e-01	0	35	0	568852480	62	4264
2026-01-18 01:04:45.51	75.54	34.84	-45.5	-46.7	25.1	6.01e-01	0	35	0	574619648	62	4182
2026-01-18 01:04:48.53	76.89	35.11	-45.5	-46.8	25.0	6.03e-01	0	35	0	580386816	62	4204
2026-01-18 01:04:51.55	78.27	35.36	-45.7	-46.9	24.8	6.01e-01	0	35	0	586153984	62	4291
2026-01-18 01:04:54.58	79.67	35.60	-45.6	-46.8	25.0	5.99e-01	0	35	0	591396864	62	4239
2026-01-18 01:04:57.60	81.08	35.83	-45.8	-47.1	24.8	6.02e-01	0	35	0	597164032	62	4355
2026-01-18 01:05:00.62	82.52	36.03	-45.6	-46.9	25.0	6.03e-01	0	35	0	602931200	62	4254
2026-01-18 01:05:03.65	83.97	36.22	-45.4	-46.6	25.2	6.03e-01	0	35	0	608698368	62	4137
2026-01-18 01:05:06.67	85.44	36.39	-45.5	-46.7	25.1	6.05e-01	0	35	0	614465536	62	4189
2026-01-18 01:05:09.69	86.92	36.53	-45.6	-46.9	24.9	6.02e-01	0	35	0	619708416	62	4266
2026-01-18 01:05:12.72	88.42	36.66	-45.6	-46.9	24.9	6.01e-01	0	35	0	625475584	62	4273
2026-01-18 01:05:15.74	89.93	36.77	-45.4	-46.7	25.2	6.00e-01	0	35	0	631242752	62	4156
2026-01-18 01:05:18.77	91.45	36.85	-45.6	-46.9	24.9	6.01e-01	0	35	0	637009920	62	4251
2026-01-18 01:05:21.79	92.97	36.92	-45.4	-46.7	25.2	6.02e-01	0	35	0	642777088	62	4154
2026-01-18 01:05:24.81	94.50	36.96	-45.6	-46.8	25.0	6.01e-01	0	35	0	648019968	62	4231
2026-01-18 01:05:27.84	96.04	36.98	-45.5	-46.8	25.1	6.03e-01	0	35	0	653787136	62	4223
2026-01-18 01:05:30.87	97.57	36.98	-45.6	-46.9	25.0	6.02e-01	0	35	0	659554304	62	4245
2026-01-18 01:05:33.89	99.10	36.95	-45.7	-47.0	24.8	6.02e-01	0	35	0	665321472	62	4323
2026-01-18 01:05:36.91	100.63	36.90	-45.8	-47.1	24.8	5.99e-01	0	35	0	671088640	62	4363
2026-01-18 01:05:39.93	102.15	36.83	-45.6	-46.9	24.9	5.99e-01	0	35	0	676855808	62	4264
2026-01-18 01:05:42.96	103.67	36.74	-45.5	-46.8	25.0	6.04e-01	0	35	0	682098688	62	4214
2026-01-18 01:05:45.98	105.18	36.63	-45.5	-46.8	25.1	6.02e-01	0	35	0	687865856	62	4222
2026-01-18 01:05:49.00	106.67	36.50	-45.5	-46.7	25.1	6.02e-01	0	35	0	693633024	62	4183
2026-01-18 01:05:52.03	108.16	36.35	-45.3	-46.6	25.2	6.02e-01	0	35	0	699400192	62	4103
2026-01-18 01:05:55.05	109.62	36.17	-45.4	-46.7	25.1	6.01e-01	0	35	0	705167360	62	4173
2026-01-18 01:05:58.07	111.07	35.98	-45.3	-46.5	24.3	6.01e-01	0	35	0	710410240	62	4095
2026-01-18 01:06:01.09	112.50	35.77	-45.5	-46.7	25.1	5.99e-01	0	35	0	716177408	62	4193
2026-01-18 01:06:04.12	113.92	35.54	-45.2	-46.4	25.4	6.02e-01	0	35	0	721944576	62	4017
2026-01-18 01:06:07.14	115.31	35.30	-45.1	-46.3	25.5	6.03e-01	0	35	0	727711744	62	3995
2026-01-18 01:06:10.16	116.68	35.04	-45.0	-46.2	25.6	6.05e-01	0	35	0	733478912	61	4177
2026-01-18 01:06:13.19	118.04	34.76	-44.8	-46.0	25.7	6.02e-01	0	35	0	738721792	61	4086
2026-01-18 01:06:16.21	119.36	34.47	-44.8	-46.0	25.7	6.02e-01	0	35	0	744488960	61	4066
2026-01-18 01:06:19.24	120.67	34.17	-44.8	-46.0	25.7	6.01e-01	0	35	0	750256128	61	4073
2026-01-18 01:06:22.26	121.94	33.86	-44.6	-45.8	25.9	6.01e-01	0	35	0	756023296	61	3984
2026-01-18 01:06:25.29	123.20	33.53	-44.5	-45.7	25.9	6.00e-01	0	35	0	761790464	61	3937
2026-01-18 01:06:28.31	124.42	33.19	-44.6	-45.8	25.9	6.02e-01	0	35	0	767033344	60	4234
2026-01-18 01:06:31.33	125.62	32.85	-44.2	-45.4	26.3	6.02e-01	0	35	0	773324800	60	4013
2026-01-18 01:06:34.35	126.80	32.49	-44.3	-45.4	26.2	5.99e-01	0	35	0	778567680	60	4036
2026-01-18 01:06:37.38	127.95	32.13	-44.4	-45.6	26.1	6.04e-01	0	35	0	784334848	60	4100
2026-01-18 01:06:40.41	129.07	31.76	-44.4	-45.6	26.1	6.02e-01	0	35	0	790102016	60	4120
2026-01-18 01:06:43.43	130.17	31.38	-44.3	-45.5	26.2	6.04e-01	0	35	0	795869184	60	4063
2026-01-18 01:06:46.46	131.24	31.00	-44.3	-45.5	26.2	6.02e-01	0	35	0	801636352	60	4076
2026-01-18 01:06:49.48	132.29	30.61	-44.3	-45.4	26.1	6.02e-01	0	35	0	806879232	60	4046
2026-01-18 01:06:52.51	133.31	30.22	-44.4	-45.6	26.0	6.02e-01	0	35	0	812646400	60	4122
2026-01-18 01:06:55.53	134.31	29.82	-44.3	-45.4	26.2	6.02e-01	0	35	0	818413568	60	4038
2026-01-18 01:06:58.56	135.28	29.42	-44.5	-45.7	25.8	6.04e-01	0	35	0	824180736	60	4183
2026-01-18 01:07:01.58	136.22	29.03	-44.5	-45.7	25.9	6.03e-01	0	35	0	829947904	60	4173
2026-01-18 01:07:04.61	137.15	28.62	-44.4	-45.6	26.0	6.01e-01	0	35	0	835190784	60	4122
2026-01-18 01:07:07.63	138.05	28.22	-44.6	-45.8	25.6	6.03e-01	0	35	0	840957952	60	4239
2026-01-18 01:07:10.65	138.93	27.82	-44.6	-45.8	25.8	6.03e-01	0	35	0	846725120	60	4228
2026-01-18 01:07:13.68	139.78	27.41	-44.8	-46.0	25.5	6.02e-01	0	35	0	852492288	60	4327
2026-01-18 01:07:16.70	140.61	27.01	-44.7	-46.0	25.6	6.03e-01	0	35	0	858259456	60	4299
2026-01-18 01:07:19.73	141.43	26.60	-44.9	-46.2	25.4	6.02e-01	0	35	0	864026624	60	4404
2026-01-18 01:07:22.74	142.22	26.20	-44.7	-45.9	25.6	6.01e-01	0	35	0	869269504	60	4279
2026-01-18 01:07:25.77	142.99	25.80	-45.0	-46.2	25.3	6.01e-01	0	35	0	875036672	60	4428
2026-01-18 01:07:28.79	143.74	25.40	-45.1	-46.4	25.1	6.02e-01	0	35	0	880803840	60	4497
2026-01-18 01:07:31.81	144.47	25.00	-45.0	-46.3	25.2	6.04e-01	0	35	0	886571008	60	4457
2026-01-18 01:07:34.84	145.19	24.60	-45.3	-46.6	25.0	6.03e-01	0	35	0	892338176	61	4341
2026-01-18 01:07:37.86	145.88	24.21	-45.3	-46.6	25.0	6.01e-01	0	35	0	897581056	61	4344
2026-01-18 01:07:40.88	146.56	23.81	-45.1	-46.4	25.1	6.02e-01	0	35	0	903348224	61	4265
2026-01-18 01:07:43.91	147.22	23.42	-45.1	-46.4	25.1	5.99e-01	0	35	0	909115392	61	4275
2026-01-18 01:07:46.93	147.87	23.04	-45.4	-46.7	24.9	6.03e-01	0	35	0	914882560	61	4392
2026-01-18 01:07:49.96	148.50	22.65	-45.2	-46.4	23.4	6.02e-01	0	35	0	920649728	61	4285
2026-01-18 01:07:52.98	149.11	22.27	-45.0	-46.2	25.3	6.01e-01	0	35	0	925892608	61	4168
2026-01-18 01:07:56.00	149.71	21.89	-45.0	-46.2	25.1	6.01e-01	0	36	0	931659776	61	4182
2026-01-18 01:07:59.03	150.29	21.52	-45.2	-46.4	25.0	6.03e-01	0	35	0	937426944	61	4282
2026-01-18 01:08:02.05	150.86	21.14	-45.2	-46.4	25.0	6.02e-01	0	35	0	943194112	61	4282
2026-01-18 01:08:05.08	151.42	20.77	-45.1	-46.4	25.0	6.01e-01	0	35	0	948961280	61	4281
2026-01-18 01:08:08.10	151.96	20.41	-45.0	-46.3	25.2	6.00e-01	0	35	0	954204160	61	4205
2026-01-18 01:08:11.13	152.49	20.05	-45.0	-46.3	25.1	6.04e-01	0	35	0	959971328	61	4202
2026-01-18 01:08:14.15	153.01	19.69	-45.0	-46.2	25.1	6.02e-01	0	35	0	965738496	61	4188
2026-01-18 01:08:17.18	153.51	19.33	-45.1	-46.3	25.1	6.01e-01	0	35	0	971505664	61	4234
2026-01-18 01:08:20.20	154.00	18.98	-45.1	-46.4	25.0	6.01e-01	0	35	0	977272832	61	4245
2026-01-18 01:08:23.22	154.48	18.63	-44.9	-46.1	25.2	6.04e-01	0	35	0	983040000	61	4143
2026-01-18 01:08:26.25	154.95	18.29	-44.9	-46.2	25.2	6.02e-01	0	35	0	988282880	61	4158
2026-01-18 01:08:29.27	155.41	17.95	-44.9	-46.2	25.2	6.02e-01	0	35	0	994050048	61	4146
2026-01-18 01:08:32.30	155.86	17.61	-44.8	-46.0	25.3	6.04e-01	0	36	0	999817216	61	4069
2026-01-18 01:08:35.32	156.30	17.28	-44.8	-46.1	25.2	6.02e-01	0	35	0	1005584384	61	4124
2026-01-18 01:08:38.34	156.73	16.95	-44.9	-46.1	25.2	6.00e-01	0	35	0	1011351552	61	4143
2026-01-18 01:08:41.37	157.15	16.62	-44.9	-46.2	25.1	6.02e-01	0	36	0	1016594432	61	4166
2026-01-18 01:08:44.39	157.56	16.30	-44.9	-46.2	25.1	6.04e-01	0	35	0	1022361600	61	4164
2026-01-18 01:08:47.41	157.96	15.98	-44.9	-46.2	25.1	6.03e-01	0	35	0	1028128768	61	4177
2026-01-18 01:08:50.44	158.35	15.66	-44.8	-46.0	25.2	6.03e-01	0	35	0	1033895936	61	4093
2026-01-18 01:08:53.46	158.74	15.34	-44.8	-46.0	25.2	6.02e-01	0	36	0	1039663104	61	4086
2026-01-18 01:08:56.48	159.11	15.03	-45.0	-46.3	25.0	6.04e-01	0	36	0	1044905984	61	4206
2026-01-18 01:08:59.51	159.48	14.73	-45.1	-46.4	24.8	6.01e-01	0	35	0	1050673152	61	4272
2026-01-18 01:09:02.54	159.84	14.42	-45.1	-46.4	24.8	6.00e-01	0	35	0	1056440320	61	4269
2026-01-18 01:09:05.56	160.20	14.12	-45.0	-46.3	24.9	6.02e-01	0	36	0	1062207488	61	4224
2026-01-18 01:09:08.58	160.54	13.83	-45.1	-46.4	24.8	6.02e-01	0	36	0	1067974656	61	4278
2026-01-18 01:09:11.61	160.88	13.53	-45.3	-46.6	24.6	6.02e-01	0	35	0	1073217536	61	4370
2026-01-18 01:09:14.63	161.21	13.24	-45.1	-46.4	24.9	6.00e-01	0	35	0	1079508992	61	4243
2026-01-18 01:09:17.65	161.54	12.95	-45.2	-46.6	24.7	6.03e-01	0	36	0	1084751872	61	4348
2026-01-18 01:09:20.67	161.85	12.67	-45.3	-46.6	24.6	6.04e-01	0	35	0	1090519040	61	4380
2026-01-18 01:09:23.70	162.17	12.39	-45.4	-46.7	24.5	6.01e-01	0	35	0	1096286208	61	4425
2026-01-18 01:09:26.72	162.47	12.11	-45.3	-46.6	24.6	6.02e-01	0	36	0	1101529088	61	4377
2026-01-18 01:09:29.74	162.77	11.83	-45.4	-46.7	24.4	6.01e-01	0	35	0	1107820544	61	4438
2026-01-18 01:09:32.76	163.07	11.56	-45.2	-46.5	24.5	6.03e-01	0	35	0	1113063424	61	4338
2026-01-18 01:09:35.79	163.36	11.29	-45.4	-46.7	24.4	6.02e-01	0	36	0	1118830592	61	4422
2026-01-18 01:09:38.81	163.64	11.02	-45.3	-46.6	24.4	6.04e-01	0	36	0	1124597760	61	4382
2026-01-18 01:09:41.83	163.92	10.75	-45.5	-46.8	24.3	6.02e-01	0	36	0	1130364928	61	4483
2026-01-18 01:09:44.86	164.20	10.49	-45.6	-47.0	24.1	5.99e-01	0	36	0	1136132096	61	4572
2026-01-18 01:09:47.88	164.46	10.23	-45.4	-46.7	24.4	6.02e-01	0	35	0	1141374976	61	4418
2026-01-18 01:09:50.90	164.73	9.97	-45.7	-47.1	24.0	6.02e-01	0	35	0	1147142144	62	4367
2026-01-18 01:09:53.93	164.99	9.72	-45.9	-47.4	23.7	6.03e-01	0	36	0	1152909312	62	4503
2026-01-18 01:09:56.95	165.24	9.46	-46.3	-47.8	23.3	6.04e-01	0	35	0	1158676480	63	4463
2026-01-18 01:09:59.97	165.49	9.21	-46.2	-47.7	23.5	6.01e-01	0	35	0	1164443648	63	4398
2026-01-18 01:10:02.99	165.74	8.97	-46.1	-47.6	23.5	6.00e-01	0	35	0	1169686528	63	4342
2026-01-18 01:10:06.02	165.98	8.72	-46.3	-47.9	23.2	6.02e-01	0	36	0	1175453696	63	4516
2026-01-18 01:10:09.04	166.21	8.48	-46.2	-47.7	23.3	6.01e-01	0	36	0	1181220864	63	4406
2026-01-18 01:10:12.07	166.45	8.23	-46.4	-47.9	23.1	5.98e-01	0	36	0	1186988032	63	4528
2026-01-18 01:10:15.09	166.68	8.00	-46.5	-48.1	22.9	6.03e-01	0	36	0	1192755200	63	4622
2026-01-18 01:10:18.11	166.90	7.76	-46.1	-47.6	23.3	6.02e-01	0	36	0	1197998080	63	4373
2026-01-18 01:10:21.14	167.12	7.52	-46.5	-48.1	22.9	6.03e-01	0	35	0	1203765248	63	4611
2026-01-18 01:10:24.16	167.34	7.29	-46.5	-48.1	22.9	6.00e-01	0	36	0	1209532416	63	4600
2026-01-18 01:10:27.18	167.56	7.06	-46.6	-48.2	22.7	6.01e-01	0	35	0	1215299584	63	4668
2026-01-18 01:10:30.21	167.77	6.83	-46.6	-48.2	22.5	6.01e-01	0	35	0	1221066752	64	4429
2026-01-18 01:10:33.23	167.98	6.61	-46.6	-48.3	22.4	5.98e-01	0	35	0	1226833920	64	4468
2026-01-18 01:10:36.26	168.18	6.38	-46.6	-48.3	22.4	6.01e-01	0	35	0	1232076800	64	4471
2026-01-18 01:10:39.28	168.38	6.16	-46.8	-48.5	22.2	6.02e-01	0	35	0	1237843968	64	4598
2026-01-18 01:10:42.30	168.58	5.94	-47.2	-49.0	21.6	6.00e-01	0	35	0	1243611136	65	4585
2026-01-18 01:10:45.33	168.78	5.72	-47.1	-48.9	21.7	6.00e-01	0	35	0	1249378304	65	4534
2026-01-18 01:10:48.35	168.97	5.50	-47.0	-48.8	21.7	6.00e-01	0	35	0	1255145472	65	4485
2026-01-18 01:10:51.38	169.16	5.28	-47.2	-49.0	21.5	6.02e-01	0	35	0	1260388352	65	4592
2026-01-18 01:10:54.40	169.34	5.07	-47.0	-48.8	21.8	6.03e-01	0	36	0	1266155520	65	4442
2026-01-18 01:10:57.43	169.53	4.86	-54.4	-72.3	3.8	7.46e-01	0	36	104	1269301248	79	29769
2026-01-18 01:11:00.45	169.71	4.65	-54.8	-72.6	3.8	7.42e-01	0	35	104	1269301248	80	29205
2026-01-18 01:11:03.48	169.89	4.44	-55.0	-72.8	3.8	7.45e-01	0	36	104	1269301248	80	29951
2026-01-18 01:11:06.50	170.06	4.23	-55.2	-73.0	3.8	7.43e-01	0	36	104	1269301248	80	30566
2026-01-18 01:11:09.53	170.24	4.02	-55.3	-73.1	3.8	7.44e-01	0	35	104	1269301248	81	29294
2026-01-18 01:11:12.55	170.41	3.82	-55.4	-73.2	3.8	7.44e-01	0	36	104	1269301248	81	29464
2026-01-18 01:11:15.57	170.57	3.62	-55.4	-73.2	3.8	7.47e-01	0	36	104	1269301248	81	29633
2026-01-18 01:11:18.60	170.74	3.42	-55.4	-73.2	3.8	7.43e-01	0	36	104	1269301248	81	29662
2026-01-18 01:11:21.63	170.90	3.22	-55.4	-73.2	3.8	7.45e-01	0	35	104	1269301248	81	29535
2026-01-18 01:11:24.65	171.07	3.02	-55.4	-73.2	3.8	7.45e-01	0	36	104	1269301248	81	29448
2026-01-18 01:11:27.68	171.23	2.82	-55.4	-73.2	3.8	7.46e-01	0	36	104	1269301248	81	29456
2026-01-18 01:11:30.70	171.38	2.63	-55.3	-73.2	3.8	7.45e-01	0	36	104	1269301248	81	29370
2026-01-18 01:11:33.73	171.54	2.43	-55.3	-73.1	3.8	7.44e-01	0	36	104	1269301248	81	29325
2026-01-18 01:11:36.75	171.69	2.24	-55.3	-73.1	3.8	7.43e-01	0	36	104	1269301248	81	29283
2026-01-18 01:11:39.78	171.84	2.05	-55.3	-73.1	3.8	7.45e-01	0	36	104	1269301248	81	29295

#Closed at: 2026-01-18 01:11:42
#Recorded file [1269 MB]: D:/lorett/data/31041_260118_035915.dat