passes_logs/2026/01/18/R3.2S_Murmansk/R3.2S_Murmansk__20260118_115427_SUOMI_NPP_rec.log

#Pass ID: 20260118_115427_SUOMI NPP
#Satellite: SUOMI NPP
#Configuration: NPP
#almurnet v.1.7.20251203
#Start time: 2026-01-18 11:54:27

#Version: 2.2.20231116
#Station: R3.2S_Murmansk
#Location: 33.079688 lon 68.888172 lat
#TLE: 1 37849U 11061A   26017.57099531  .00000072  00000+0  54974-4 0  9996
#TLE: 2 37849  98.7814 319.5974 0002398  59.1749 300.9663 14.19525865737072

#Time	Az	El	Level	Level2	SNR	BER	BlckErr	Temp	State	Recorded	gain1	gain2
2026-01-18 11:54:27.63	210.00	2.03	-52.3	-67.3	3.8	1.49e+00	0	34	0	0	76	19967
2026-01-18 11:54:31.67	210.28	2.26	-52.3	-67.3	3.8	1.49e+00	0	34	104	0	75	21085
2026-01-18 11:54:35.70	210.56	2.49	-52.3	-67.1	3.8	1.49e+00	0	34	104	0	75	20747
2026-01-18 11:54:39.73	210.85	2.72	-52.3	-67.2	3.8	1.49e+00	0	34	104	0	75	20845
2026-01-18 11:54:43.77	211.14	2.95	-52.3	-67.2	3.8	1.49e+00	0	34	104	0	75	20942
2026-01-18 11:54:47.80	211.43	3.18	-52.3	-67.1	3.8	1.49e+00	0	34	104	0	75	20773
2026-01-18 11:54:51.83	211.73	3.41	-52.3	-67.0	3.8	1.49e+00	0	34	104	0	75	20525
2026-01-18 11:54:55.86	212.03	3.64	-52.3	-67.2	3.8	1.49e+00	0	34	104	0	75	20921
2026-01-18 11:54:59.89	212.34	3.88	-52.3	-67.0	3.8	1.49e+00	0	35	104	0	75	20440
2026-01-18 11:55:03.92	212.65	4.11	-52.3	-66.5	3.8	1.49e+00	0	35	104	0	75	19176
2026-01-18 11:55:07.95	212.97	4.35	-51.8	-60.6	5.7	5.24e-01	0	35	0	3145728	75	9771
2026-01-18 11:55:11.98	213.29	4.59	-50.8	-56.4	9.6	1.61e-02	0	35	0	10485760	73	6724
2026-01-18 11:55:16.02	213.62	4.83	-48.9	-51.8	14.4	3.80e-06	0	35	0	17825792	69	5023
2026-01-18 11:55:20.05	213.95	5.07	-48.9	-51.9	14.4	7.00e-07	0	35	0	25165824	68	5343
2026-01-18 11:55:24.08	214.29	5.32	-51.5	-58.4	7.8	2.59e-05	0	35	0	32505856	73	8540
2026-01-18 11:55:28.11	214.64	5.56	-48.2	-50.7	15.5	0.00e+00	0	35	0	40894464	68	4703
2026-01-18 11:55:32.14	214.98	5.81	-47.9	-50.3	15.9	0.00e+00	0	35	0	48234496	67	4722
2026-01-18 11:55:36.17	215.34	6.06	-47.5	-49.6	16.6	0.00e+00	0	35	0	55574528	66	4639
2026-01-18 11:55:40.21	215.70	6.31	-47.5	-49.6	16.6	0.00e+00	0	35	0	62914560	66	4641
2026-01-18 11:55:44.24	216.07	6.56	-47.3	-49.3	17.0	0.00e+00	0	35	0	70254592	66	4459
2026-01-18 11:55:48.27	216.44	6.81	-47.4	-49.4	16.9	0.00e+00	0	35	0	78643200	66	4534
2026-01-18 11:55:52.30	216.82	7.06	-47.2	-49.1	17.2	0.00e+00	0	35	0	85983232	66	4390
2026-01-18 11:55:56.33	217.20	7.32	-47.3	-49.3	17.1	0.00e+00	0	35	0	93323264	66	4453
2026-01-18 11:56:00.36	217.59	7.58	-46.9	-48.8	17.6	0.00e+00	0	35	0	100663296	65	4477
2026-01-18 11:56:04.39	217.99	7.83	-47.0	-48.9	17.5	0.00e+00	0	35	0	108003328	65	4532
2026-01-18 11:56:08.42	218.39	8.09	-46.9	-48.7	17.7	0.00e+00	0	35	0	116391936	65	4440
2026-01-18 11:56:12.45	218.81	8.36	-47.1	-49.0	17.4	0.00e+00	0	35	0	123731968	65	4577
2026-01-18 11:56:16.49	219.23	8.62	-47.5	-49.6	16.9	0.00e+00	0	35	0	131072000	65	4912
2026-01-18 11:56:20.52	219.65	8.88	-47.6	-49.7	16.9	0.00e+00	0	35	0	138412032	66	4688
2026-01-18 11:56:24.55	220.09	9.15	-47.3	-49.2	17.4	0.00e+00	0	35	0	146800640	66	4407
2026-01-18 11:56:28.58	220.53	9.42	-47.1	-49.0	17.6	0.00e+00	0	35	0	154140672	66	4321
2026-01-18 11:56:32.61	220.98	9.68	-47.1	-49.0	17.6	0.00e+00	0	35	0	161480704	65	4555
2026-01-18 11:56:36.65	221.43	9.95	-46.8	-48.6	18.1	0.00e+00	0	35	0	168820736	65	4341
2026-01-18 11:56:40.68	221.90	10.23	-46.8	-48.5	18.1	0.00e+00	0	35	0	176160768	65	4331
2026-01-18 11:56:44.71	222.37	10.50	-46.8	-48.6	18.1	0.00e+00	0	35	0	183500800	65	4357
2026-01-18 11:56:48.74	222.86	10.77	-46.9	-48.7	17.9	0.00e+00	0	35	0	191889408	65	4393
2026-01-18 11:56:52.77	223.35	11.05	-46.9	-48.7	18.0	0.00e+00	0	35	0	199229440	65	4393
2026-01-18 11:56:56.80	223.85	11.32	-47.1	-48.9	17.8	0.00e+00	0	35	0	206569472	65	4524
2026-01-18 11:57:00.83	224.36	11.60	-47.4	-49.3	17.5	0.00e+00	0	35	0	213909504	65	4728
2026-01-18 11:57:04.86	224.87	11.88	-47.1	-48.9	17.8	0.00e+00	0	35	0	222298112	65	4541
2026-01-18 11:57:08.89	225.40	12.16	-47.0	-48.7	18.0	0.00e+00	0	35	0	229638144	65	4439
2026-01-18 11:57:12.93	225.94	12.44	-46.6	-48.3	18.5	0.00e+00	0	35	0	236978176	65	4198
2026-01-18 11:57:16.96	226.49	12.72	-46.3	-47.9	18.9	0.00e+00	0	35	0	244318208	64	4246
2026-01-18 11:57:20.99	227.05	13.00	-46.2	-47.7	19.1	0.00e+00	0	36	0	251658240	63	4404
2026-01-18 11:57:25.03	227.62	13.29	-46.2	-47.7	19.1	0.00e+00	0	35	0	260046848	63	4403
2026-01-18 11:57:29.05	228.19	13.57	-46.1	-47.6	19.2	0.00e+00	0	35	0	267386880	63	4373
2026-01-18 11:57:33.09	228.79	13.86	-46.3	-47.9	18.9	0.00e+00	0	35	0	274726912	63	4513
2026-01-18 11:57:37.11	229.38	14.14	-46.9	-48.6	18.2	0.00e+00	0	35	0	282066944	64	4617
2026-01-18 11:57:41.15	230.00	14.43	-46.9	-48.6	18.2	0.00e+00	0	35	0	290455552	64	4608
2026-01-18 11:57:45.18	230.62	14.71	-46.4	-48.0	18.8	0.00e+00	0	36	0	297795584	64	4319
2026-01-18 11:57:49.21	231.26	15.00	-45.9	-47.3	19.6	0.00e+00	0	36	0	305135616	63	4223
2026-01-18 11:57:53.24	231.90	15.29	-45.7	-47.1	19.8	0.00e+00	0	35	0	312475648	63	4113
2026-01-18 11:57:57.27	232.56	15.57	-45.7	-47.0	19.8	0.00e+00	0	36	0	319815680	63	4091
2026-01-18 11:58:01.30	233.24	15.86	-45.7	-47.1	19.8	0.00e+00	0	36	0	327155712	62	4351
2026-01-18 11:58:05.33	233.92	16.15	-46.1	-47.6	19.3	0.00e+00	0	36	0	335544320	62	4645
2026-01-18 11:58:09.37	234.62	16.43	-46.1	-47.6	19.3	0.00e+00	0	36	0	342884352	63	4358
2026-01-18 11:58:13.40	235.33	16.72	-46.0	-47.4	19.5	0.00e+00	0	36	0	350224384	63	4284
2026-01-18 11:58:17.43	236.05	17.00	-46.0	-47.4	19.5	0.00e+00	0	35	0	357564416	63	4285
2026-01-18 11:58:21.46	236.79	17.28	-45.4	-46.7	20.2	0.00e+00	0	35	0	365953024	62	4146
2026-01-18 11:58:25.49	237.54	17.56	-45.1	-46.4	20.4	0.00e+00	0	36	0	373293056	62	4038
2026-01-18 11:58:29.52	238.30	17.84	-45.0	-46.3	20.5	0.00e+00	0	35	0	380633088	61	4210
2026-01-18 11:58:33.56	239.08	18.12	-45.2	-46.5	20.4	0.00e+00	0	36	0	387973120	61	4307
2026-01-18 11:58:37.59	239.87	18.39	-45.2	-46.4	20.4	0.00e+00	0	35	0	395313152	61	4289
2026-01-18 11:58:41.62	240.68	18.67	-45.5	-46.8	20.1	0.00e+00	0	36	0	403701760	61	4479
2026-01-18 11:58:45.65	241.50	18.94	-45.6	-46.9	20.0	0.00e+00	0	36	0	411041792	61	4533
2026-01-18 11:58:49.68	242.33	19.21	-45.8	-47.2	19.8	0.00e+00	0	36	0	418381824	62	4419
2026-01-18 11:58:53.71	243.18	19.47	-45.5	-46.9	20.1	0.00e+00	0	35	0	425721856	62	4254
2026-01-18 11:58:57.74	244.04	19.73	-45.5	-46.9	20.1	0.00e+00	0	35	0	433061888	62	4252
2026-01-18 11:59:01.77	244.91	19.99	-46.3	-47.8	19.2	0.00e+00	0	36	0	441450496	63	4460
2026-01-18 11:59:05.81	245.81	20.24	-46.1	-47.6	19.5	0.00e+00	0	36	0	448790528	63	4350
2026-01-18 11:59:09.83	246.71	20.49	-46.6	-48.2	18.9	0.00e+00	0	36	0	456130560	63	4689
2026-01-18 11:59:13.87	247.63	20.74	-45.9	-47.3	19.7	0.00e+00	0	36	0	463470592	63	4196
2026-01-18 11:59:17.89	248.56	20.97	-47.1	-48.9	18.1	0.00e+00	0	36	0	470810624	64	4803
2026-01-18 11:59:21.93	249.51	21.21	-46.4	-48.0	19.0	0.00e+00	0	36	0	479199232	64	4298
2026-01-18 11:59:25.96	250.47	21.44	-46.2	-47.7	19.3	0.00e+00	0	36	0	486539264	63	4436
2026-01-18 11:59:29.99	251.45	21.66	-45.8	-47.1	19.9	0.00e+00	0	36	0	493879296	63	4122
2026-01-18 11:59:34.02	252.43	21.87	-46.5	-48.1	19.0	0.00e+00	0	35	0	501219328	63	4608
2026-01-18 11:59:38.05	253.43	22.08	-45.4	-46.7	20.2	0.00e+00	0	36	0	509607936	62	4186
2026-01-18 11:59:42.08	254.45	22.28	-45.9	-47.3	19.7	0.00e+00	0	36	0	516947968	62	4470
2026-01-18 11:59:46.12	255.48	22.48	-47.0	-48.7	18.3	0.00e+00	0	36	0	524288000	64	4695
2026-01-18 11:59:50.15	256.52	22.66	-46.0	-47.4	19.6	0.00e+00	0	36	0	531628032	63	4261
2026-01-18 11:59:54.18	257.57	22.84	-46.8	-48.5	18.5	0.00e+00	0	36	0	538968064	64	4591
2026-01-18 11:59:58.21	258.63	23.01	-46.7	-48.3	18.8	0.00e+00	0	36	0	546308096	64	4444
2026-01-18 12:00:02.24	259.70	23.17	-46.7	-48.3	18.7	0.00e+00	0	35	0	554696704	64	4462
2026-01-18 12:00:06.27	260.79	23.32	-46.9	-48.5	18.5	0.00e+00	0	36	0	562036736	64	4592
2026-01-18 12:00:10.31	261.88	23.46	-48.5	-50.8	16.4	0.00e+00	0	35	0	569376768	67	4985
2026-01-18 12:00:14.34	262.98	23.59	-47.5	-49.4	17.7	0.00e+00	0	36	0	576716800	66	4508
2026-01-18 12:00:18.37	264.09	23.71	-47.7	-49.6	17.5	0.00e+00	0	36	0	585105408	66	4648
2026-01-18 12:00:22.40	265.21	23.82	-47.8	-49.8	17.4	0.00e+00	0	36	0	592445440	66	4740
2026-01-18 12:00:26.43	266.34	23.91	-48.5	-50.8	16.4	0.00e+00	0	36	0	599785472	67	4987
2026-01-18 12:00:30.46	267.47	24.00	-47.3	-49.1	18.0	0.00e+00	0	36	0	607125504	66	4368
2026-01-18 12:00:34.49	268.61	24.08	-46.4	-47.9	19.2	0.00e+00	0	36	0	614465536	64	4255
2026-01-18 12:00:38.51	269.75	24.14	-46.6	-48.1	19.0	0.00e+00	0	36	0	622854144	63	4625
2026-01-18 12:00:42.54	270.90	24.19	-47.0	-48.7	18.4	0.00e+00	0	36	0	630194176	65	4428
2026-01-18 12:00:46.57	272.05	24.24	-46.7	-48.3	18.8	0.00e+00	0	36	0	637534208	64	4460
2026-01-18 12:00:50.60	273.20	24.27	-46.6	-48.1	18.9	0.00e+00	0	36	0	644874240	64	4388
2026-01-18 12:00:54.63	274.35	24.28	-46.8	-48.5	18.6	0.00e+00	0	36	0	653262848	64	4548
2026-01-18 12:00:58.66	275.51	24.29	-45.7	-47.0	20.1	0.00e+00	0	36	0	660602880	63	4070
2026-01-18 12:01:02.69	276.66	24.28	-46.4	-47.9	19.3	0.00e+00	0	36	0	667942912	63	4511
2026-01-18 12:01:06.73	277.82	24.26	-46.1	-47.5	19.6	0.00e+00	0	35	0	675282944	63	4323
2026-01-18 12:01:10.75	278.97	24.23	-45.9	-47.2	19.9	0.00e+00	0	36	0	682622976	63	4191
2026-01-18 12:01:14.78	280.12	24.19	-46.4	-47.9	19.2	0.00e+00	0	36	0	689963008	63	4537
2026-01-18 12:01:18.81	281.27	24.14	-45.7	-47.0	20.1	0.00e+00	0	36	0	698351616	63	4082
2026-01-18 12:01:22.84	282.41	24.07	-46.1	-47.5	19.7	0.00e+00	0	35	0	705691648	63	4315
2026-01-18 12:01:26.87	283.54	23.99	-46.4	-47.9	19.3	0.00e+00	0	36	0	713031680	63	4541
2026-01-18 12:01:30.90	284.67	23.91	-46.4	-47.9	19.3	0.00e+00	0	36	0	720371712	63	4516
2026-01-18 12:01:34.93	285.80	23.81	-45.7	-47.1	20.1	0.00e+00	0	36	0	728760320	63	4100
2026-01-18 12:01:38.96	286.91	23.70	-46.1	-47.6	19.6	0.00e+00	0	35	0	736100352	62	4603
2026-01-18 12:01:42.99	288.02	23.58	-45.3	-46.5	20.5	0.00e+00	0	36	0	743440384	62	4079
2026-01-18 12:01:47.01	289.12	23.45	-45.6	-46.9	20.2	0.00e+00	0	35	0	750780416	62	4249
2026-01-18 12:01:51.05	290.21	23.31	-44.9	-46.0	21.0	0.00e+00	0	36	0	758120448	61	4097
2026-01-18 12:01:55.07	291.29	23.16	-45.4	-46.7	20.4	0.00e+00	0	36	0	766509056	61	4399
2026-01-18 12:01:59.11	292.36	23.00	-45.9	-47.3	19.9	0.00e+00	0	36	0	773849088	62	4449
2026-01-18 12:02:03.14	293.42	22.83	-45.5	-46.9	20.2	0.00e+00	0	36	0	781189120	62	4243
2026-01-18 12:02:07.17	294.47	22.65	-44.9	-46.2	20.9	0.00e+00	0	35	0	788529152	61	4150
2026-01-18 12:02:11.20	295.50	22.47	-44.3	-45.4	21.8	0.00e+00	0	36	0	795869184	59	4252
2026-01-18 12:02:15.23	296.53	22.27	-44.7	-45.9	21.1	0.00e+00	0	36	0	804257792	60	4265
2026-01-18 12:02:19.26	297.54	22.07	-44.6	-45.8	21.2	0.00e+00	0	36	0	811597824	60	4209
2026-01-18 12:02:23.29	298.53	21.87	-45.1	-46.4	20.6	0.00e+00	0	35	0	818937856	60	4513
2026-01-18 12:02:27.32	299.52	21.65	-45.0	-46.3	20.8	0.00e+00	0	36	0	826277888	61	4194
2026-01-18 12:02:31.35	300.49	21.43	-45.2	-46.4	20.7	0.00e+00	0	36	0	833617920	61	4274
2026-01-18 12:02:35.38	301.44	21.20	-45.3	-46.6	20.5	0.00e+00	0	36	0	842006528	61	4363
2026-01-18 12:02:39.41	302.39	20.97	-45.5	-46.8	20.3	0.00e+00	0	35	0	849346560	61	4451
2026-01-18 12:02:43.44	303.32	20.73	-45.8	-47.2	19.9	0.00e+00	0	36	0	856686592	62	4414
2026-01-18 12:02:47.47	304.23	20.49	-46.5	-48.0	19.2	0.00e+00	0	36	0	864026624	63	4571
2026-01-18 12:02:51.50	305.13	20.24	-45.6	-46.9	20.2	0.00e+00	0	36	0	871366656	63	4050
2026-01-18 12:02:55.53	306.02	19.99	-46.0	-47.4	19.8	0.00e+00	0	36	0	879755264	62	4501
2026-01-18 12:02:59.56	306.89	19.73	-46.2	-47.7	19.5	0.00e+00	0	36	0	887095296	63	4407
2026-01-18 12:03:03.59	307.75	19.47	-46.6	-48.2	18.9	0.00e+00	0	36	0	894435328	64	4426
2026-01-18 12:03:07.63	308.59	19.21	-46.6	-48.2	18.9	0.00e+00	0	36	0	901775360	64	4418
2026-01-18 12:03:11.66	309.42	18.94	-46.9	-48.5	18.6	0.00e+00	0	36	0	909115392	64	4565
2026-01-18 12:03:15.69	310.24	18.67	-46.6	-48.2	18.9	0.00e+00	0	36	0	917504000	64	4429
2026-01-18 12:03:19.72	311.04	18.40	-46.3	-47.8	19.3	0.00e+00	0	36	0	924844032	64	4195
2026-01-18 12:03:23.75	311.83	18.13	-46.9	-48.5	18.6	0.00e+00	0	36	0	932184064	64	4571
2026-01-18 12:03:27.78	312.60	17.85	-46.3	-47.9	19.2	0.00e+00	0	36	0	939524096	64	4244
2026-01-18 12:03:31.81	313.36	17.58	-46.5	-48.1	18.9	0.00e+00	0	36	0	946864128	64	4375
2026-01-18 12:03:35.85	314.11	17.30	-46.0	-47.5	19.5	0.00e+00	0	36	0	955252736	64	4056
2026-01-18 12:03:39.88	314.84	17.01	-46.2	-47.6	19.5	0.00e+00	0	36	0	962592768	63	4380
2026-01-18 12:03:43.91	315.56	16.73	-46.6	-48.2	18.8	0.00e+00	0	36	0	969932800	64	4395
2026-01-18 12:03:47.94	316.27	16.45	-46.6	-48.2	18.8	0.00e+00	0	36	0	977272832	64	4414
2026-01-18 12:03:51.97	316.96	16.17	-47.6	-49.5	17.5	0.00e+00	0	36	0	985661440	65	4859
2026-01-18 12:03:56.00	317.64	15.88	-46.7	-48.3	18.6	0.00e+00	0	36	0	993001472	65	4226
2026-01-18 12:04:00.03	318.31	15.60	-46.2	-47.7	19.3	0.00e+00	0	36	0	1000341504	63	4419
2026-01-18 12:04:04.06	318.97	15.32	-46.5	-48.1	18.9	0.00e+00	0	36	0	1007681536	63	4622
2026-01-18 12:04:08.09	319.61	15.03	-45.7	-47.1	19.8	0.00e+00	0	36	0	1015021568	63	4121
2026-01-18 12:04:12.12	320.25	14.75	-45.9	-47.3	19.6	0.00e+00	0	36	0	1022361600	62	4456
2026-01-18 12:04:16.15	320.87	14.46	-46.6	-48.2	18.7	0.00e+00	0	36	0	1030750208	64	4404
2026-01-18 12:04:20.18	321.48	14.18	-46.3	-47.9	18.9	0.00e+00	0	36	0	1038090240	64	4272
2026-01-18 12:04:24.21	322.08	13.90	-47.1	-48.8	18.0	0.00e+00	0	36	0	1045430272	64	4756
2026-01-18 12:04:28.24	322.66	13.62	-47.1	-48.8	18.0	0.00e+00	0	36	0	1052770304	65	4487
2026-01-18 12:04:32.27	323.24	13.33	-46.5	-48.1	18.6	0.00e+00	0	36	0	1061158912	64	4372
2026-01-18 12:04:36.30	323.81	13.05	-46.8	-48.5	18.3	0.00e+00	0	36	0	1068498944	64	4553
2026-01-18 12:04:40.34	324.36	12.77	-46.8	-48.5	18.2	0.00e+00	0	36	0	1075838976	64	4596
2026-01-18 12:04:44.37	324.91	12.49	-46.7	-48.3	18.4	0.00e+00	0	36	0	1083179008	64	4489
2026-01-18 12:04:48.40	325.45	12.21	-47.4	-49.3	17.4	0.00e+00	0	36	0	1090519040	65	4749
2026-01-18 12:04:52.43	325.97	11.93	-47.4	-49.4	17.4	0.00e+00	0	36	0	1098907648	65	4790
2026-01-18 12:04:56.46	326.49	11.66	-46.9	-48.7	18.0	0.00e+00	0	36	0	1106247680	65	4410
2026-01-18 12:05:00.49	327.00	11.38	-46.3	-47.9	18.8	0.00e+00	0	36	0	1113587712	64	4244
2026-01-18 12:05:04.53	327.50	11.11	-46.6	-48.3	18.3	0.00e+00	0	36	0	1120927744	64	4492
2026-01-18 12:05:08.56	327.99	10.84	-46.6	-48.3	18.3	0.00e+00	0	36	0	1129316352	64	4454
2026-01-18 12:05:12.60	328.47	10.56	-46.6	-48.3	18.3	0.00e+00	0	36	0	1136656384	64	4450
2026-01-18 12:05:16.63	328.94	10.29	-47.1	-48.9	17.7	0.00e+00	0	36	0	1143996416	64	4784
2026-01-18 12:05:20.67	329.41	10.02	-47.5	-49.6	17.1	0.00e+00	0	36	0	1151336448	65	4875
2026-01-18 12:05:24.70	329.87	9.75	-47.1	-49.0	17.6	0.00e+00	0	36	0	1158676480	65	4579
2026-01-18 12:05:28.73	330.31	9.49	-47.0	-48.8	17.7	0.00e+00	0	36	0	1167065088	65	4468
2026-01-18 12:05:32.76	330.76	9.22	-47.1	-49.0	17.5	0.00e+00	0	36	0	1174405120	65	4590
2026-01-18 12:05:36.79	331.19	8.96	-47.5	-49.6	17.0	0.00e+00	0	36	0	1181745152	65	4877
2026-01-18 12:05:40.83	331.62	8.70	-47.8	-50.0	16.6	0.00e+00	0	36	0	1189085184	66	4821
2026-01-18 12:05:44.86	332.03	8.44	-47.3	-49.3	17.2	0.00e+00	0	36	0	1196425216	66	4472
2026-01-18 12:05:48.89	332.45	8.18	-47.1	-49.0	17.4	0.00e+00	0	36	0	1204813824	66	4325
2026-01-18 12:05:52.93	332.85	7.92	-47.1	-49.0	17.4	0.00e+00	0	36	0	1212153856	65	4577
2026-01-18 12:05:56.96	333.25	7.66	-47.5	-49.6	16.9	0.00e+00	0	36	0	1219493888	65	4884
2026-01-18 12:06:00.99	333.64	7.41	-47.5	-49.7	16.7	0.00e+00	0	36	0	1226833920	65	4961
2026-01-18 12:06:05.02	334.03	7.15	-47.5	-49.7	16.7	0.00e+00	0	36	0	1234173952	66	4672
2026-01-18 12:06:09.05	334.40	6.90	-47.2	-49.3	17.0	0.00e+00	0	36	0	1242562560	66	4456
2026-01-18 12:06:13.08	334.78	6.65	-47.4	-49.5	16.8	0.00e+00	0	36	0	1249902592	66	4575
2026-01-18 12:06:17.12	335.15	6.40	-47.7	-50.0	16.2	0.00e+00	0	36	0	1257242624	66	4849
2026-01-18 12:06:21.14	335.50	6.16	-48.4	-51.0	15.2	0.00e+00	0	36	0	1264582656	67	5142
2026-01-18 12:06:25.17	335.86	5.91	-48.4	-51.1	15.0	0.00e+00	0	37	0	1271922688	67	5192
2026-01-18 12:06:29.21	336.21	5.66	-48.4	-51.1	15.1	0.00e+00	0	36	0	1280311296	67	5166
2026-01-18 12:06:33.24	336.55	5.42	-48.1	-50.6	15.6	0.00e+00	0	36	0	1287651328	67	4877
2026-01-18 12:06:37.27	336.89	5.18	-47.8	-50.2	15.9	0.00e+00	0	37	0	1294991360	67	4684
2026-01-18 12:06:41.31	337.23	4.94	-52.6	-67.1	3.8	1.77e-01	0	36	104	1302331392	75	20613
2026-01-18 12:06:45.34	337.56	4.70	-53.4	-68.4	3.8	1.49e+00	0	36	104	1302331392	77	21389
2026-01-18 12:06:49.37	337.88	4.46	-53.8	-68.8	3.8	1.49e+00	0	37	104	1302331392	78	21202
2026-01-18 12:06:53.40	338.20	4.23	-54.0	-69.0	3.8	1.49e+00	0	36	104	1302331392	78	21571
2026-01-18 12:06:57.43	338.51	3.99	-54.0	-69.0	3.8	1.49e+00	0	36	104	1302331392	78	21729
2026-01-18 12:07:01.46	338.82	3.76	-54.0	-69.0	3.8	1.49e+00	0	37	104	1302331392	78	21549
2026-01-18 12:07:05.49	339.12	3.53	-53.9	-68.9	3.8	1.49e+00	0	37	104	1302331392	78	21392
2026-01-18 12:07:09.53	339.43	3.30	-53.9	-68.9	3.8	1.49e+00	0	36	104	1302331392	78	21301
2026-01-18 12:07:13.56	339.72	3.07	-53.8	-68.8	3.8	1.49e+00	0	37	104	1302331392	78	21258
2026-01-18 12:07:17.59	340.01	2.84	-53.8	-68.8	3.8	1.49e+00	0	37	104	1302331392	78	21208
2026-01-18 12:07:21.62	340.30	2.61	-53.8	-68.8	3.8	1.49e+00	0	37	104	1302331392	78	21255
2026-01-18 12:07:25.65	340.58	2.39	-53.8	-68.8	3.8	1.49e+00	0	37	104	1302331392	78	21162
2026-01-18 12:07:29.68	340.86	2.16	-53.8	-68.8	3.8	1.49e+00	0	36	104	1302331392	78	21164

#Closed at: 2026-01-18 12:07:32
#Recorded file [1302 MB]: D:/lorett/data/31041_260118_145427.dat