passes_logs/2026/01/18/R3.2S_Murmansk/R3.2S_Murmansk__20260118_223622_NOAA_20_JPSS-1_rec.log

#Pass ID: 20260118_223622_NOAA 20 (JPSS-1)
#Satellite: NOAA 20 (JPSS-1)
#Configuration: NOAA 20
#almurnet v.1.7.20251203
#Start time: 2026-01-18 22:36:24

#Version: 2.2.20231116
#Station: R3.2S_Murmansk
#Location: 33.079688 lon 68.888172 lat
#TLE: 1 43013U 17073A   26018.57232797  .00000065  00000+0  51758-4 0  9998
#TLE: 2 43013  98.7640 319.4740 0001368  34.2083 325.9181 14.19536753423241

#Time	Az	El	Level	Level2	SNR	BER	BlckErr	Temp	State	Recorded	gain1	gain2
2026-01-18 22:36:24.33	19.27	2.12	-52.1	-67.0	3.8	1.49e+00	0	35	0	0	74	21642
2026-01-18 22:36:28.35	19.52	2.35	-52.1	-67.0	3.8	1.49e+00	0	35	104	0	74	21668
2026-01-18 22:36:32.39	19.78	2.58	-52.0	-66.9	3.8	1.49e+00	0	35	104	0	74	21286
2026-01-18 22:36:36.42	20.04	2.81	-52.1	-67.0	3.8	1.49e+00	0	35	104	0	74	21559
2026-01-18 22:36:40.45	20.31	3.05	-52.1	-66.9	3.8	1.49e+00	0	35	104	0	74	21349
2026-01-18 22:36:44.48	20.58	3.28	-52.0	-66.4	3.8	1.49e+00	0	35	104	0	74	20231
2026-01-18 22:36:48.51	20.85	3.52	-52.0	-66.5	3.8	1.49e+00	0	35	104	0	74	20455
2026-01-18 22:36:52.54	21.13	3.76	-52.0	-65.6	3.8	1.49e+00	0	35	104	0	74	18408
2026-01-18 22:36:56.57	21.41	4.00	-52.0	-65.1	3.9	1.49e+00	0	35	104	0	74	17405
2026-01-18 22:37:00.61	21.70	4.24	-51.9	-63.9	4.1	1.47e+00	0	35	104	0	74	15090
2026-01-18 22:37:04.63	21.99	4.49	-51.3	-58.8	7.0	1.77e-01	0	36	0	6291456	73	8882
2026-01-18 22:37:08.67	22.29	4.73	-50.7	-56.5	9.2	2.47e-02	0	36	0	13631488	72	7248
2026-01-18 22:37:12.69	22.59	4.98	-51.0	-57.5	8.2	4.58e-02	0	36	0	20971520	72	8176
2026-01-18 22:37:16.72	22.89	5.23	-50.2	-54.8	10.8	8.23e-01	0	36	0	27262976	72	5939
2026-01-18 22:37:20.75	23.20	5.48	-47.9	-50.2	15.9	0.00e+00	0	36	0	35651584	66	4974
2026-01-18 22:37:24.78	23.52	5.73	-48.1	-50.6	15.7	0.00e+00	0	36	0	42991616	66	5166
2026-01-18 22:37:28.82	23.84	5.98	-47.7	-49.9	16.4	0.00e+00	0	36	0	50331648	66	4799
2026-01-18 22:37:32.85	24.16	6.24	-47.9	-50.3	16.0	0.00e+00	0	36	0	57671680	66	5011
2026-01-18 22:37:36.87	24.49	6.50	-47.9	-50.2	16.1	0.00e+00	0	35	0	66060288	66	4970
2026-01-18 22:37:40.91	24.83	6.76	-47.8	-50.1	16.2	0.00e+00	0	36	0	73400320	66	4915
2026-01-18 22:37:44.94	25.17	7.02	-47.7	-49.9	16.5	0.00e+00	0	36	0	80740352	66	4766
2026-01-18 22:37:48.97	25.52	7.28	-47.8	-50.1	16.4	0.00e+00	0	36	0	88080384	66	4881
2026-01-18 22:37:53.00	25.88	7.55	-47.5	-49.6	16.8	0.00e+00	0	36	0	95420416	66	4617
2026-01-18 22:37:57.03	26.24	7.82	-47.4	-49.4	17.0	0.00e+00	0	36	0	102760448	66	4521
2026-01-18 22:38:01.06	26.60	8.08	-47.3	-49.2	17.2	0.00e+00	0	36	0	111149056	66	4438
2026-01-18 22:38:05.09	26.98	8.36	-47.3	-49.3	17.1	0.00e+00	0	36	0	118489088	66	4486
2026-01-18 22:38:09.12	27.36	8.63	-47.3	-49.3	17.2	0.00e+00	0	36	0	125829120	66	4480
2026-01-18 22:38:13.15	27.74	8.90	-47.5	-49.5	17.0	0.00e+00	0	36	0	133169152	66	4592
2026-01-18 22:38:17.19	28.14	9.18	-47.5	-49.5	17.1	0.00e+00	0	36	0	141557760	66	4573
2026-01-18 22:38:21.22	28.54	9.46	-47.4	-49.5	17.1	0.00e+00	0	36	0	148897792	66	4547
2026-01-18 22:38:25.25	28.95	9.74	-47.1	-49.0	17.6	0.00e+00	0	36	0	156237824	66	4301
2026-01-18 22:38:29.28	29.36	10.02	-47.0	-48.9	17.7	0.00e+00	0	36	0	163577856	65	4503
2026-01-18 22:38:33.31	29.79	10.31	-46.9	-48.7	17.9	0.00e+00	0	36	0	170917888	65	4431
2026-01-18 22:38:37.34	30.22	10.59	-46.9	-48.7	18.0	0.00e+00	0	36	0	179306496	65	4393
2026-01-18 22:38:41.37	30.66	10.88	-46.9	-48.7	17.9	0.00e+00	0	36	0	186646528	65	4441
2026-01-18 22:38:45.40	31.10	11.17	-46.8	-48.6	18.1	0.00e+00	0	36	0	193986560	65	4345
2026-01-18 22:38:49.43	31.56	11.46	-46.8	-48.5	18.2	0.00e+00	0	36	0	201326592	65	4335
2026-01-18 22:38:53.46	32.03	11.76	-46.8	-48.6	18.1	0.00e+00	0	36	0	209715200	65	4367
2026-01-18 22:38:57.49	32.50	12.05	-47.0	-48.8	18.0	0.00e+00	0	36	0	217055232	65	4465
2026-01-18 22:39:01.52	32.98	12.35	-47.0	-48.9	17.9	0.00e+00	0	36	0	224395264	65	4499
2026-01-18 22:39:05.56	33.48	12.65	-46.7	-48.4	18.4	0.00e+00	0	36	0	231735296	65	4263
2026-01-18 22:39:09.59	33.98	12.96	-46.6	-48.3	18.5	0.00e+00	0	36	0	239075328	65	4223
2026-01-18 22:39:13.62	34.49	13.26	-46.6	-48.2	18.6	0.00e+00	0	36	0	246415360	65	4177
2026-01-18 22:39:17.65	35.02	13.56	-46.5	-48.1	18.8	0.00e+00	0	36	0	254803968	64	4349
2026-01-18 22:39:21.68	35.55	13.87	-46.6	-48.2	18.7	0.00e+00	0	36	0	262144000	64	4419
2026-01-18 22:39:25.70	36.09	14.18	-46.6	-48.3	18.6	0.00e+00	0	36	0	269484032	64	4447
2026-01-18 22:39:29.73	36.65	14.49	-46.6	-48.2	18.7	0.00e+00	0	36	0	276824064	64	4404
2026-01-18 22:39:33.77	37.22	14.80	-46.4	-48.0	18.8	0.00e+00	0	36	0	285212672	64	4336
2026-01-18 22:39:37.80	37.79	15.11	-46.5	-48.1	18.8	0.00e+00	0	36	0	292552704	64	4364
2026-01-18 22:39:41.83	38.38	15.43	-46.2	-47.8	19.1	0.00e+00	0	36	0	299892736	64	4207
2026-01-18 22:39:45.86	38.99	15.74	-46.2	-47.7	19.2	0.00e+00	0	36	0	307232768	64	4162
2026-01-18 22:39:49.89	39.60	16.06	-46.4	-47.9	19.0	0.00e+00	0	36	0	314572800	63	4541
2026-01-18 22:39:53.92	40.23	16.38	-46.3	-47.8	19.2	0.00e+00	0	36	0	322961408	63	4452
2026-01-18 22:39:57.95	40.87	16.70	-45.9	-47.3	19.7	0.00e+00	0	36	0	330301440	63	4226
2026-01-18 22:40:01.98	41.52	17.02	-45.9	-47.3	19.7	0.00e+00	0	36	0	337641472	63	4223
2026-01-18 22:40:06.01	42.19	17.34	-46.0	-47.4	19.6	0.00e+00	0	36	0	344981504	63	4272
2026-01-18 22:40:10.04	42.87	17.66	-46.1	-47.5	19.5	0.00e+00	0	36	0	352321536	63	4324
2026-01-18 22:40:14.07	43.57	17.98	-46.0	-47.4	19.6	0.00e+00	0	36	0	360710144	63	4257
2026-01-18 22:40:18.11	44.28	18.30	-46.4	-47.9	19.1	0.00e+00	0	36	0	368050176	63	4537
2026-01-18 22:40:22.14	45.00	18.62	-46.2	-47.6	19.4	0.00e+00	0	36	0	375390208	63	4381
2026-01-18 22:40:26.17	45.74	18.94	-45.9	-47.3	19.7	0.00e+00	0	36	0	382730240	63	4215
2026-01-18 22:40:30.20	46.50	19.26	-45.8	-47.1	19.9	0.00e+00	0	36	0	390070272	62	4381
2026-01-18 22:40:34.23	47.27	19.58	-45.5	-46.8	20.3	0.00e+00	0	36	0	398458880	62	4222
2026-01-18 22:40:38.26	48.05	19.90	-45.0	-46.3	20.8	0.00e+00	0	36	0	405798912	62	3969
2026-01-18 22:40:42.29	48.86	20.22	-45.1	-46.3	20.8	0.00e+00	0	36	0	413138944	61	4215
2026-01-18 22:40:46.32	49.68	20.53	-45.0	-46.2	20.8	0.00e+00	0	36	0	420478976	61	4186
2026-01-18 22:40:50.35	50.51	20.85	-44.9	-46.2	20.9	0.00e+00	0	36	0	428867584	61	4150
2026-01-18 22:40:54.39	51.36	21.16	-45.1	-46.3	20.7	0.00e+00	0	36	0	436207616	61	4232
2026-01-18 22:40:58.42	52.23	21.47	-44.9	-46.1	20.9	0.00e+00	0	36	0	443547648	61	4126
2026-01-18 22:41:02.45	53.12	21.77	-45.2	-46.4	20.7	0.00e+00	0	36	0	450887680	61	4262
2026-01-18 22:41:06.48	54.02	22.08	-45.4	-46.7	20.4	0.00e+00	0	36	0	458227712	61	4423
2026-01-18 22:41:10.51	54.94	22.38	-45.6	-47.0	20.3	0.00e+00	0	36	0	465567744	61	4555
2026-01-18 22:41:14.54	55.88	22.67	-46.3	-47.8	19.6	0.00e+00	0	36	0	473956352	63	4469
2026-01-18 22:41:18.57	56.83	22.96	-45.9	-47.3	19.9	0.00e+00	0	36	0	481296384	63	4205
2026-01-18 22:41:22.60	57.81	23.25	-45.6	-47.0	20.2	0.00e+00	0	36	0	488636416	63	4054
2026-01-18 22:41:26.63	58.80	23.53	-46.1	-47.6	19.6	0.00e+00	0	36	0	495976448	63	4341
2026-01-18 22:41:30.67	59.81	23.80	-45.9	-47.3	19.9	0.00e+00	0	36	0	504365056	63	4218
2026-01-18 22:41:34.69	60.83	24.07	-46.6	-48.1	19.2	0.00e+00	0	36	0	511705088	63	4630
2026-01-18 22:41:38.73	61.87	24.33	-46.9	-48.5	18.7	0.00e+00	0	36	0	519045120	64	4584
2026-01-18 22:41:42.76	62.93	24.58	-46.9	-48.5	18.7	0.00e+00	0	36	0	526385152	64	4587
2026-01-18 22:41:46.79	64.01	24.83	-47.3	-49.1	18.1	0.00e+00	0	36	0	533725184	65	4618
2026-01-18 22:41:50.82	65.10	25.07	-47.7	-49.5	17.7	0.00e+00	0	36	0	542113792	65	4859
2026-01-18 22:41:54.85	66.20	25.30	-47.9	-49.9	17.4	0.00e+00	0	36	0	549453824	66	4764
2026-01-18 22:41:58.88	67.33	25.52	-48.0	-50.0	17.2	0.00e+00	0	36	0	556793856	66	4862
2026-01-18 22:42:02.91	68.46	25.73	-48.9	-51.2	16.1	0.00e+00	0	36	0	564133888	68	4981
2026-01-18 22:42:06.95	69.62	25.93	-48.5	-50.6	16.8	0.00e+00	0	36	0	572522496	68	4623
2026-01-18 22:42:10.98	70.79	26.11	-48.2	-50.2	17.2	0.00e+00	0	36	0	579862528	68	4430
2026-01-18 22:42:15.01	71.97	26.29	-48.6	-50.8	16.6	0.00e+00	0	36	0	587202560	68	4725
2026-01-18 22:42:19.04	73.16	26.46	-48.4	-50.5	17.0	0.00e+00	0	36	0	594542592	68	4553
2026-01-18 22:42:23.07	74.36	26.61	-48.2	-50.2	17.3	0.00e+00	0	36	0	601882624	68	4413
2026-01-18 22:42:27.10	75.58	26.75	-47.6	-49.4	17.9	0.00e+00	0	36	0	609222656	67	4256
2026-01-18 22:42:31.13	76.81	26.88	-47.3	-49.0	18.2	0.00e+00	0	36	0	617611264	66	4311
2026-01-18 22:42:35.17	78.04	26.99	-47.9	-49.8	17.5	0.00e+00	0	36	0	624951296	66	4739
2026-01-18 22:42:39.20	79.29	27.10	-48.1	-50.1	17.2	0.00e+00	0	36	0	632291328	66	4911
2026-01-18 22:42:43.23	80.54	27.18	-47.7	-49.5	17.7	0.00e+00	0	36	0	639631360	66	4586
2026-01-18 22:42:47.26	81.79	27.26	-47.5	-49.3	17.9	0.00e+00	0	36	0	648019968	66	4488
2026-01-18 22:42:51.29	83.06	27.31	-47.1	-48.7	18.6	0.00e+00	0	36	0	655360000	66	4179
2026-01-18 22:42:55.32	84.32	27.36	-46.9	-48.5	18.7	0.00e+00	0	36	0	662700032	65	4340
2026-01-18 22:42:59.35	85.59	27.39	-47.1	-48.8	18.5	0.00e+00	0	36	0	670040064	65	4451
2026-01-18 22:43:03.39	86.87	27.40	-46.7	-48.2	19.0	0.00e+00	0	36	0	677380096	65	4186
2026-01-18 22:43:07.42	88.14	27.40	-46.9	-48.5	18.8	0.00e+00	0	36	0	685768704	65	4321
2026-01-18 22:43:11.45	89.41	27.38	-46.9	-48.5	18.7	0.00e+00	0	36	0	693108736	65	4317
2026-01-18 22:43:15.48	90.68	27.35	-47.6	-49.4	17.8	0.00e+00	0	36	0	700448768	65	4782
2026-01-18 22:43:19.51	91.94	27.31	-47.6	-49.5	17.8	0.00e+00	0	36	0	707788800	66	4567
2026-01-18 22:43:23.54	93.21	27.25	-46.7	-48.3	18.9	0.00e+00	0	36	0	715128832	65	4220
2026-01-18 22:43:27.57	94.46	27.17	-47.2	-48.9	18.3	0.00e+00	0	36	0	723517440	65	4527
2026-01-18 22:43:31.61	95.72	27.09	-47.8	-49.8	17.5	0.00e+00	0	36	0	730857472	66	4711
2026-01-18 22:43:35.63	96.96	26.98	-47.3	-49.0	18.3	0.00e+00	0	36	0	738197504	66	4297
2026-01-18 22:43:39.67	98.20	26.87	-47.0	-48.6	18.7	0.00e+00	0	36	0	745537536	65	4362
2026-01-18 22:43:43.70	99.42	26.74	-46.9	-48.5	18.7	0.00e+00	0	36	0	752877568	65	4300
2026-01-18 22:43:47.73	100.64	26.60	-46.8	-48.4	18.8	0.00e+00	0	36	0	761266176	65	4291
2026-01-18 22:43:51.76	101.85	26.44	-46.4	-47.9	19.3	0.00e+00	0	36	0	768606208	64	4269
2026-01-18 22:43:55.79	103.04	26.27	-46.1	-47.5	19.7	0.00e+00	0	36	0	775946240	64	4075
2026-01-18 22:43:59.82	104.22	26.09	-46.0	-47.3	19.9	0.00e+00	0	36	0	783286272	63	4234
2026-01-18 22:44:03.85	105.39	25.90	-46.0	-47.4	19.9	0.00e+00	0	36	0	791674880	63	4285
2026-01-18 22:44:07.88	106.54	25.70	-45.7	-47.0	20.2	0.00e+00	0	36	0	799014912	62	4338
2026-01-18 22:44:11.91	107.68	25.49	-46.3	-47.7	19.6	0.00e+00	0	36	0	806354944	63	4436
2026-01-18 22:44:15.93	108.80	25.27	-46.0	-47.5	19.8	0.00e+00	0	36	0	813694976	63	4294
2026-01-18 22:44:19.97	109.91	25.04	-46.2	-47.6	19.6	0.00e+00	0	36	0	821035008	63	4378
2026-01-18 22:44:23.99	111.00	24.80	-46.7	-48.2	19.1	0.00e+00	0	36	0	829423616	63	4703
2026-01-18 22:44:28.03	112.08	24.55	-46.3	-47.7	19.5	0.00e+00	0	36	0	836763648	63	4432
2026-01-18 22:44:32.06	113.14	24.30	-46.4	-47.8	19.5	0.00e+00	0	36	0	844103680	63	4488
2026-01-18 22:44:36.08	114.18	24.04	-46.4	-47.9	19.4	0.00e+00	0	36	0	851443712	63	4534
2026-01-18 22:44:40.12	115.21	23.76	-46.5	-48.0	19.3	0.00e+00	0	36	0	858783744	63	4553
2026-01-18 22:44:44.14	116.22	23.49	-46.0	-47.4	19.9	0.00e+00	0	36	0	867172352	63	4286
2026-01-18 22:44:48.18	117.21	23.21	-46.2	-47.6	19.6	0.00e+00	0	36	0	874512384	63	4389
2026-01-18 22:44:52.21	118.18	22.92	-46.5	-48.0	19.2	0.00e+00	0	36	0	881852416	63	4594
2026-01-18 22:44:56.24	119.14	22.63	-46.2	-47.7	19.6	0.00e+00	0	36	0	889192448	63	4400
2026-01-18 22:45:00.27	120.08	22.33	-46.4	-47.9	19.3	0.00e+00	0	36	0	896532480	63	4503
2026-01-18 22:45:04.30	121.00	22.03	-46.2	-47.7	19.6	0.00e+00	0	36	0	904921088	63	4408
2026-01-18 22:45:08.33	121.90	21.72	-47.3	-49.1	18.1	0.00e+00	0	36	0	912261120	65	4603
2026-01-18 22:45:12.36	122.79	21.42	-47.3	-49.1	18.0	0.00e+00	0	36	0	919601152	65	4639
2026-01-18 22:45:16.39	123.66	21.11	-47.3	-49.1	18.0	0.00e+00	0	36	0	926941184	65	4646
2026-01-18 22:45:20.43	124.51	20.79	-47.1	-48.8	18.3	0.00e+00	0	36	0	934281216	65	4481
2026-01-18 22:45:24.46	125.35	20.48	-47.0	-48.7	18.3	0.00e+00	0	36	0	942669824	64	4693
2026-01-18 22:45:28.48	126.17	20.16	-47.0	-48.7	18.3	0.00e+00	0	36	0	950009856	64	4656
2026-01-18 22:45:32.52	126.97	19.84	-46.6	-48.2	18.9	0.00e+00	0	36	0	957349888	63	4687
2026-01-18 22:45:36.55	127.76	19.52	-47.6	-49.5	17.6	0.00e+00	0	36	0	964689920	65	4828
2026-01-18 22:45:40.58	128.53	19.20	-46.7	-48.4	18.7	0.00e+00	0	36	0	972029952	64	4502
2026-01-18 22:45:44.61	129.28	18.87	-47.7	-49.7	17.3	0.00e+00	0	36	0	980418560	66	4700
2026-01-18 22:45:48.64	130.02	18.55	-47.0	-48.8	18.2	0.00e+00	0	36	0	987758592	64	4721
2026-01-18 22:45:52.67	130.75	18.23	-46.7	-48.4	18.6	0.00e+00	0	36	0	995098624	64	4507
2026-01-18 22:45:56.71	131.46	17.91	-46.5	-48.1	18.9	0.00e+00	0	36	0	1002438656	64	4349
2026-01-18 22:46:00.74	132.15	17.58	-46.5	-48.0	19.0	0.00e+00	0	36	0	1010827264	63	4590
2026-01-18 22:46:04.78	132.84	17.26	-46.7	-48.4	18.5	0.00e+00	0	36	0	1018167296	64	4517
2026-01-18 22:46:08.81	133.50	16.94	-46.3	-47.8	19.1	0.00e+00	0	36	0	1025507328	64	4217
2026-01-18 22:46:12.83	134.16	16.62	-46.2	-47.7	19.3	0.00e+00	0	36	0	1032847360	63	4393
2026-01-18 22:46:16.87	134.80	16.29	-46.3	-47.9	19.1	0.00e+00	0	36	0	1040187392	63	4497
2026-01-18 22:46:20.90	135.43	15.97	-46.1	-47.6	19.3	0.00e+00	0	36	0	1048576000	62	4638
2026-01-18 22:46:24.93	136.04	15.66	-46.1	-47.7	19.3	0.00e+00	0	36	0	1055916032	62	4653
2026-01-18 22:46:28.96	136.64	15.34	-46.4	-48.0	19.0	0.00e+00	0	36	0	1063256064	63	4546
2026-01-18 22:46:33.00	137.23	15.02	-46.7	-48.4	18.5	0.00e+00	0	36	0	1070596096	64	4495
2026-01-18 22:46:37.03	137.81	14.71	-46.7	-48.3	18.4	0.00e+00	0	36	0	1077936128	64	4490
2026-01-18 22:46:41.06	138.38	14.39	-46.5	-48.2	18.7	0.00e+00	0	36	0	1086324736	63	4659
2026-01-18 22:46:45.09	138.93	14.08	-46.5	-48.2	18.7	0.00e+00	0	36	0	1093664768	63	4659
2026-01-18 22:46:49.12	139.48	13.77	-46.6	-48.3	18.6	0.00e+00	0	36	0	1101004800	63	4725
2026-01-18 22:46:53.15	140.01	13.46	-47.0	-48.8	17.9	0.00e+00	0	36	0	1108344832	64	4728
2026-01-18 22:46:57.19	140.53	13.15	-47.4	-49.3	17.2	0.00e+00	0	36	0	1115684864	65	4748
2026-01-18 22:47:01.22	141.04	12.85	-47.6	-49.7	17.0	0.00e+00	0	36	0	1124073472	65	4956
2026-01-18 22:47:05.25	141.55	12.54	-47.4	-49.4	17.3	0.00e+00	0	36	0	1131413504	65	4774
2026-01-18 22:47:09.28	142.04	12.24	-47.6	-49.7	17.0	0.00e+00	0	36	0	1138753536	65	4955
2026-01-18 22:47:13.32	142.52	11.94	-47.7	-49.8	16.9	0.00e+00	0	36	0	1146093568	65	5031
2026-01-18 22:47:17.35	142.99	11.64	-47.8	-49.9	16.8	0.00e+00	0	36	0	1154482176	66	4781
2026-01-18 22:47:21.38	143.46	11.35	-47.4	-49.4	17.2	0.00e+00	0	36	0	1161822208	65	4805
2026-01-18 22:47:25.41	143.91	11.06	-47.4	-49.4	17.2	0.00e+00	0	36	0	1169162240	65	4801
2026-01-18 22:47:29.44	144.36	10.76	-47.6	-49.8	16.8	0.00e+00	0	36	0	1176502272	65	5002
2026-01-18 22:47:33.47	144.80	10.47	-47.7	-49.8	16.8	0.00e+00	0	36	0	1183842304	66	4719
2026-01-18 22:47:37.50	145.23	10.18	-47.2	-49.1	17.4	0.00e+00	0	36	0	1192230912	65	4624
2026-01-18 22:47:41.53	145.65	9.90	-47.1	-49.0	17.6	0.00e+00	0	36	0	1199570944	64	4824
2026-01-18 22:47:45.57	146.06	9.61	-46.9	-48.8	17.7	0.00e+00	0	36	0	1206910976	64	4740
2026-01-18 22:47:49.60	146.47	9.33	-47.4	-49.5	17.0	0.00e+00	0	36	0	1214251008	65	4837
2026-01-18 22:47:53.63	146.87	9.05	-47.5	-49.6	16.9	0.00e+00	0	36	0	1221591040	66	4624
2026-01-18 22:47:57.66	147.26	8.77	-47.2	-49.2	17.2	0.00e+00	0	36	0	1229979648	65	4686
2026-01-18 22:48:01.69	147.65	8.50	-47.0	-48.9	17.4	0.00e+00	0	36	0	1237319680	64	4804
2026-01-18 22:48:05.72	148.02	8.22	-47.2	-49.3	17.1	0.00e+00	0	36	0	1244659712	65	4709
2026-01-18 22:48:09.75	148.40	7.95	-47.3	-49.4	16.9	0.00e+00	0	36	0	1251999744	65	4776
2026-01-18 22:48:13.79	148.76	7.68	-47.5	-49.7	16.6	0.00e+00	0	36	0	1259339776	65	4949
2026-01-18 22:48:17.82	149.12	7.41	-47.5	-49.7	16.5	0.00e+00	0	36	0	1267728384	65	4946
2026-01-18 22:48:21.85	149.47	7.14	-47.3	-49.4	16.8	0.00e+00	0	36	0	1275068416	65	4773
2026-01-18 22:48:25.88	149.82	6.88	-47.1	-49.1	17.0	0.00e+00	0	36	0	1282408448	65	4647
2026-01-18 22:48:29.91	150.16	6.62	-47.3	-49.5	16.7	0.00e+00	0	36	0	1289748480	65	4826
2026-01-18 22:48:33.94	150.49	6.36	-47.3	-49.5	16.6	0.00e+00	0	36	0	1298137088	65	4849
2026-01-18 22:48:37.98	150.82	6.10	-47.7	-50.1	15.9	0.00e+00	0	36	0	1305477120	65	5168
2026-01-18 22:48:42.01	151.15	5.84	-47.7	-50.2	15.8	0.00e+00	0	36	0	1312817152	66	4928
2026-01-18 22:48:46.04	151.46	5.58	-47.6	-50.1	15.8	0.00e+00	0	36	0	1320157184	66	4872
2026-01-18 22:48:50.07	151.78	5.33	-47.9	-50.6	15.2	0.00e+00	0	36	0	1327497216	66	5182
2026-01-18 22:48:54.11	152.08	5.08	-48.1	-50.8	15.0	0.00e+00	0	36	0	1334837248	66	5316
2026-01-18 22:48:58.14	152.39	4.83	-53.0	-68.0	3.8	1.49e+00	0	36	104	1339031552	76	21547
2026-01-18 22:49:02.17	152.68	4.58	-53.4	-68.4	3.8	1.49e+00	0	36	104	1339031552	77	21492
2026-01-18 22:49:06.20	152.98	4.33	-53.7	-68.7	3.8	1.49e+00	0	36	104	1339031552	77	22080
2026-01-18 22:49:10.23	153.27	4.09	-53.9	-68.9	3.8	1.49e+00	0	36	104	1339031552	78	21394
2026-01-18 22:49:14.26	153.55	3.84	-54.0	-69.0	3.8	1.49e+00	0	36	104	1339031552	78	21640
2026-01-18 22:49:18.29	153.83	3.60	-54.0	-69.0	3.8	1.49e+00	0	36	104	1339031552	78	21596
2026-01-18 22:49:22.33	154.11	3.36	-53.9	-69.0	3.8	1.49e+00	0	36	104	1339031552	78	21519
2026-01-18 22:49:26.36	154.38	3.12	-53.9	-68.9	3.8	1.49e+00	0	36	104	1339031552	78	21450
2026-01-18 22:49:30.39	154.64	2.88	-53.9	-68.9	3.8	1.49e+00	0	36	104	1339031552	78	21481
2026-01-18 22:49:34.42	154.91	2.65	-53.9	-68.9	3.8	1.49e+00	0	37	104	1339031552	78	21379
2026-01-18 22:49:38.45	155.17	2.41	-53.9	-68.9	3.8	1.49e+00	0	36	104	1339031552	78	21324
2026-01-18 22:49:42.48	155.42	2.18	-53.9	-68.9	3.8	1.49e+00	0	36	104	1339031552	78	21298
2026-01-18 22:49:46.51	155.67	1.95	-53.9	-68.9	3.8	1.49e+00	0	36	104	1339031552	78	21293

#Closed at: 2026-01-18 22:49:47
#Recorded file [1339 MB]: D:/lorett/data/31041_260119_013624.dat