passes_logs/2026/01/18/R3.2S_Murmansk/R3.2S_Murmansk__20260118_012546_NOAA_21_JPSS-2_rec.log

#Pass ID: 20260118_012546_NOAA 21 (JPSS-2)
#Satellite: NOAA 21 (JPSS-2)
#Configuration: NOAA-21
#almurnet v.1.7.20251203
#Start time: 2026-01-18 01:25:46

#Version: 2.2.20231116
#Station: R3.2S_Murmansk
#Location: 33.079688 lon 68.888172 lat
#TLE: 1 54234U 22150A   26017.62066529  .00000042  00000+0  40984-4 0  9994
#TLE: 2 54234  98.7502 318.4887 0000613 271.5460  88.5645 14.19535234165189

#Time	Az	El	Level	Level2	SNR	BER	BlckErr	Temp	State	Recorded	gain1	gain2
2026-01-18 01:25:46.65	27.68	2.01	-51.4	-64.1	3.8	1.49e+00	0	33	0	0	74	15529
2026-01-18 01:25:50.67	27.62	2.26	-51.4	-64.0	3.8	1.49e+00	0	33	104	0	73	16207
2026-01-18 01:25:54.70	27.56	2.52	-51.3	-63.8	3.8	1.49e+00	0	33	104	0	73	15794
2026-01-18 01:25:58.73	27.49	2.78	-51.3	-63.6	3.8	1.49e+00	0	34	104	0	73	15536
2026-01-18 01:26:02.76	27.43	3.05	-51.4	-63.8	3.8	1.49e+00	0	34	104	0	73	15883
2026-01-18 01:26:06.80	27.36	3.32	-50.7	-58.7	4.1	1.28e+00	0	34	104	0	73	8844
2026-01-18 01:26:10.83	27.29	3.58	-49.4	-53.6	9.3	2.74e-02	0	34	0	10485760	70	5799
2026-01-18 01:26:14.86	27.22	3.86	-47.8	-50.5	12.4	2.84e-04	0	34	0	24117248	67	4854
2026-01-18 01:26:18.89	27.15	4.13	-47.1	-49.4	13.6	5.34e-05	0	34	0	35651584	65	4784
2026-01-18 01:26:22.92	27.07	4.41	-47.6	-50.2	12.7	2.36e-05	0	34	0	48234496	65	5264
2026-01-18 01:26:26.96	27.00	4.69	-49.4	-53.6	9.3	1.38e-02	0	34	0	61865984	69	6150
2026-01-18 01:26:30.99	26.92	4.97	-50.4	-56.6	6.4	2.23e-01	0	34	0	74448896	71	7768
2026-01-18 01:26:35.02	26.84	5.25	-51.0	-62.7	3.8	5.57e-01	0	34	104	85983232	72	14841
2026-01-18 01:26:39.05	26.76	5.54	-46.7	-48.5	15.3	7.00e-07	0	34	0	95420416	65	4324
2026-01-18 01:26:43.08	26.68	5.83	-45.7	-47.1	16.9	0.00e+00	0	34	0	108003328	63	4121
2026-01-18 01:26:47.11	26.59	6.13	-45.8	-47.2	16.8	0.00e+00	0	34	0	120586240	62	4436
2026-01-18 01:26:51.14	26.50	6.43	-45.3	-46.6	17.5	0.00e+00	0	35	0	133169152	62	4128
2026-01-18 01:26:55.18	26.41	6.73	-45.7	-47.1	17.1	0.00e+00	0	34	0	145752064	62	4374
2026-01-18 01:26:59.21	26.32	7.03	-45.6	-47.0	17.2	0.00e+00	0	35	0	158334976	62	4301
2026-01-18 01:27:03.24	26.23	7.34	-45.2	-46.6	17.7	0.00e+00	0	35	0	170917888	62	4103
2026-01-18 01:27:07.27	26.13	7.65	-45.1	-46.4	17.9	0.00e+00	0	35	0	183500800	62	4035
2026-01-18 01:27:11.30	26.03	7.97	-45.0	-46.2	18.0	0.00e+00	0	34	0	196083712	61	4191
2026-01-18 01:27:15.34	25.93	8.29	-45.0	-46.2	18.1	0.00e+00	0	35	0	208666624	61	4163
2026-01-18 01:27:19.37	25.82	8.61	-44.9	-46.1	18.2	0.00e+00	0	35	0	221249536	61	4112
2026-01-18 01:27:23.40	25.72	8.94	-44.9	-46.1	18.3	0.00e+00	0	35	0	233832448	61	4110
2026-01-18 01:27:27.44	25.61	9.28	-44.7	-45.9	18.5	0.00e+00	0	35	0	246415360	61	4010
2026-01-18 01:27:31.47	25.49	9.61	-44.5	-45.7	18.7	0.00e+00	0	35	0	258998272	60	4165
2026-01-18 01:27:35.50	25.38	9.95	-44.5	-45.7	18.8	0.00e+00	0	34	0	271581184	60	4146
2026-01-18 01:27:39.54	25.26	10.30	-44.2	-45.3	19.1	0.00e+00	0	35	0	284164096	60	3995
2026-01-18 01:27:43.57	25.14	10.65	-44.1	-45.2	19.2	0.00e+00	0	35	0	296747008	60	3939
2026-01-18 01:27:47.60	25.01	11.00	-44.2	-45.3	19.1	0.00e+00	0	35	0	309329920	60	3989
2026-01-18 01:27:51.63	24.88	11.37	-44.2	-45.2	19.5	0.00e+00	0	35	0	321912832	59	4190
2026-01-18 01:27:55.66	24.75	11.73	-44.1	-45.2	19.6	0.00e+00	0	35	0	334495744	59	4151
2026-01-18 01:27:59.70	24.61	12.10	-44.0	-45.1	19.7	0.00e+00	0	35	0	347078656	59	4114
2026-01-18 01:28:03.73	24.47	12.48	-44.1	-45.1	19.7	0.00e+00	0	35	0	359661568	59	4120
2026-01-18 01:28:07.76	24.33	12.86	-43.9	-45.0	19.9	0.00e+00	0	35	0	373293056	59	4055
2026-01-18 01:28:11.79	24.18	13.25	-43.9	-44.9	19.9	0.00e+00	0	35	0	384827392	59	4032
2026-01-18 01:28:15.82	24.02	13.64	-43.9	-44.9	20.0	0.00e+00	0	35	0	397410304	59	4023
2026-01-18 01:28:19.85	23.87	14.04	-43.8	-44.8	20.1	0.00e+00	0	35	0	411041792	59	3978
2026-01-18 01:28:23.89	23.70	14.45	-43.7	-44.7	20.2	0.00e+00	0	35	0	422576128	59	3941
2026-01-18 01:28:27.91	23.53	14.86	-43.8	-44.8	20.1	0.00e+00	0	35	0	435159040	59	3966
2026-01-18 01:28:31.95	23.36	15.28	-43.8	-44.7	20.2	0.00e+00	0	35	0	448790528	59	3946
2026-01-18 01:28:35.98	23.18	15.71	-44.0	-45.0	19.9	0.00e+00	0	35	0	461373440	59	4063
2026-01-18 01:28:40.01	23.00	16.15	-44.0	-45.0	19.9	0.00e+00	0	35	0	472907776	59	4079
2026-01-18 01:28:44.04	22.81	16.59	-43.8	-44.8	20.1	0.00e+00	0	35	0	486539264	59	3997
2026-01-18 01:28:48.08	22.61	17.04	-43.9	-45.0	20.0	0.00e+00	0	35	0	499122176	59	4053
2026-01-18 01:28:52.11	22.41	17.50	-44.0	-45.0	19.9	0.00e+00	0	35	0	511705088	59	4085
2026-01-18 01:28:56.14	22.20	17.96	-44.0	-45.0	19.9	0.00e+00	0	35	0	524288000	59	4092
2026-01-18 01:29:00.17	21.98	18.44	-43.9	-44.9	20.1	0.00e+00	0	35	0	536870912	59	4038
2026-01-18 01:29:04.21	21.76	18.92	-43.9	-44.9	20.1	0.00e+00	0	35	0	549453824	59	4012
2026-01-18 01:29:08.23	21.53	19.41	-43.7	-44.6	20.4	0.00e+00	0	35	0	562036736	59	3901
2026-01-18 01:29:12.26	21.29	19.92	-43.6	-44.5	20.5	0.00e+00	0	35	0	574619648	59	3861
2026-01-18 01:29:16.30	21.04	20.43	-43.3	-44.2	20.8	0.00e+00	0	35	0	587202560	58	3937
2026-01-18 01:29:20.33	20.78	20.95	-43.2	-44.1	20.8	0.00e+00	0	35	0	599785472	58	3900
2026-01-18 01:29:24.37	20.51	21.48	-43.0	-43.9	21.1	0.00e+00	0	35	0	612368384	58	3783
2026-01-18 01:29:28.40	20.23	22.03	-42.9	-43.7	21.2	0.00e+00	0	35	0	624951296	57	3947
2026-01-18 01:29:32.43	19.95	22.58	-42.9	-43.8	21.1	0.00e+00	0	35	0	637534208	57	3966
2026-01-18 01:29:36.46	19.65	23.15	-42.9	-43.8	21.2	0.00e+00	0	35	0	650117120	57	3963
2026-01-18 01:29:40.50	19.34	23.72	-42.7	-43.6	21.3	0.00e+00	0	35	0	662700032	57	3901
2026-01-18 01:29:44.53	19.01	24.31	-42.7	-43.6	21.3	0.00e+00	0	35	0	675282944	57	3892
2026-01-18 01:29:48.57	18.68	24.92	-43.0	-43.8	21.1	0.00e+00	0	35	0	687865856	57	4000
2026-01-18 01:29:52.60	18.33	25.53	-43.1	-44.0	21.0	0.00e+00	0	35	0	700448768	57	4095
2026-01-18 01:29:56.63	17.96	26.16	-43.6	-44.5	20.6	0.00e+00	0	35	0	713031680	57	4330
2026-01-18 01:30:00.66	17.58	26.80	-43.8	-44.8	20.3	0.00e+00	0	35	0	725614592	58	4225
2026-01-18 01:30:04.69	17.19	27.45	-44.2	-45.2	20.0	0.00e+00	0	35	0	738197504	58	4432
2026-01-18 01:30:08.72	16.77	28.12	-44.5	-45.5	19.7	0.00e+00	0	35	0	750780416	59	4324
2026-01-18 01:30:12.76	16.34	28.81	-44.5	-45.6	19.7	0.00e+00	0	35	0	763363328	59	4364
2026-01-18 01:30:16.79	15.89	29.51	-44.1	-45.1	20.2	0.00e+00	0	35	0	775946240	59	4114
2026-01-18 01:30:20.82	15.42	30.22	-43.7	-44.6	20.6	0.00e+00	0	35	0	788529152	59	3885
2026-01-18 01:30:24.85	14.92	30.95	-43.4	-44.3	20.9	0.00e+00	0	35	0	801112064	58	3978
2026-01-18 01:30:28.88	14.40	31.70	-43.6	-44.5	20.7	0.00e+00	0	35	0	813694976	58	4096
2026-01-18 01:30:32.92	13.86	32.47	-43.8	-44.8	20.5	0.00e+00	0	35	0	826277888	58	4202
2026-01-18 01:30:36.95	13.28	33.25	-44.0	-44.9	20.3	0.00e+00	0	35	0	838860800	58	4280
2026-01-18 01:30:40.99	12.68	34.05	-44.2	-45.3	20.1	0.00e+00	0	35	0	851443712	59	4194
2026-01-18 01:30:45.02	12.05	34.86	-44.4	-45.4	19.7	0.00e+00	0	35	0	864026624	60	4035
2026-01-18 01:30:49.05	11.39	35.69	-45.0	-46.1	19.0	0.00e+00	0	35	0	876609536	60	4365
2026-01-18 01:30:53.08	10.68	36.54	-45.5	-46.7	18.5	0.00e+00	0	35	0	889192448	61	4402
2026-01-18 01:30:57.12	9.94	37.41	-45.9	-47.2	18.1	0.00e+00	0	35	0	901775360	62	4417
2026-01-18 01:31:01.16	9.16	38.30	-45.7	-46.9	18.4	0.00e+00	0	35	0	914358272	62	4264
2026-01-18 01:31:05.19	8.33	39.20	-46.2	-47.5	17.8	0.00e+00	0	35	0	926941184	62	4589
2026-01-18 01:31:09.22	7.46	40.11	-46.0	-47.3	18.0	0.00e+00	0	35	0	939524096	63	4215
2026-01-18 01:31:13.25	6.53	41.05	-45.0	-46.0	19.2	0.00e+00	0	35	0	952107008	62	3863
2026-01-18 01:31:17.29	5.54	42.00	-45.5	-46.7	18.6	0.00e+00	0	35	0	964689920	61	4430
2026-01-18 01:31:21.32	4.50	42.96	-45.9	-47.1	18.2	0.00e+00	0	35	0	977272832	62	4366
2026-01-18 01:31:25.35	3.39	43.94	-46.5	-47.8	17.5	0.00e+00	0	35	0	989855744	63	4475
2026-01-18 01:31:29.38	2.21	44.93	-45.9	-47.1	18.3	0.00e+00	0	35	0	1002438656	63	4108
2026-01-18 01:31:33.41	0.95	45.93	-45.4	-46.5	18.8	0.00e+00	0	35	0	1015021568	62	4073
2026-01-18 01:31:37.44	359.60	46.93	-45.0	-46.1	19.1	0.00e+00	0	35	0	1027604480	61	4112
2026-01-18 01:31:41.47	358.17	47.95	-45.4	-46.6	18.7	0.00e+00	0	35	0	1040187392	61	4360
2026-01-18 01:31:45.51	356.64	48.97	-45.7	-46.8	18.5	0.00e+00	0	35	0	1052770304	61	4484
2026-01-18 01:31:49.54	355.00	49.98	-46.2	-47.6	17.7	0.00e+00	0	35	0	1065353216	63	4343
2026-01-18 01:31:53.57	353.25	50.99	-45.8	-47.0	18.4	0.00e+00	0	35	0	1077936128	63	4073
2026-01-18 01:31:57.60	351.37	52.00	-45.3	-46.4	19.0	0.00e+00	0	35	0	1090519040	62	4013
2026-01-18 01:32:01.64	349.36	52.99	-44.3	-45.3	20.0	0.00e+00	0	35	0	1103101952	60	3971
2026-01-18 01:32:05.67	347.22	53.96	-44.3	-45.3	20.1	0.00e+00	0	35	0	1116733440	59	4228
2026-01-18 01:32:09.70	344.92	54.90	-44.3	-45.2	20.3	0.00e+00	0	35	0	1128267776	59	4179
2026-01-18 01:32:13.74	342.47	55.81	-44.4	-45.4	19.9	0.00e+00	0	35	0	1140850688	60	4012
2026-01-18 01:32:17.77	339.85	56.68	-43.8	-44.8	20.5	0.00e+00	0	35	0	1154482176	59	3964
2026-01-18 01:32:21.80	337.07	57.51	-44.0	-44.9	20.6	0.00e+00	0	35	0	1167065088	59	4029
2026-01-18 01:32:25.83	334.13	58.27	-43.4	-44.3	21.1	0.00e+00	0	35	0	1178599424	58	3991
2026-01-18 01:32:29.86	331.01	58.97	-43.6	-44.5	21.1	0.00e+00	0	35	0	1192230912	58	4072
2026-01-18 01:32:33.90	327.73	59.60	-43.2	-44.1	21.2	0.00e+00	0	35	0	1204813824	58	3869
2026-01-18 01:32:37.93	324.30	60.13	-43.3	-44.2	21.3	0.00e+00	0	35	0	1216348160	58	3915
2026-01-18 01:32:41.96	320.74	60.58	-43.1	-43.9	21.5	0.00e+00	0	35	0	1229979648	57	4042
2026-01-18 01:32:45.99	317.06	60.93	-43.2	-44.1	21.4	0.00e+00	0	35	0	1242562560	57	4112
2026-01-18 01:32:50.02	313.30	61.17	-43.4	-44.2	21.3	0.00e+00	0	35	0	1255145472	57	4193
2026-01-18 01:32:54.06	309.47	61.30	-42.9	-43.8	21.6	0.00e+00	0	35	0	1267728384	57	3961
2026-01-18 01:32:58.09	305.62	61.32	-43.1	-44.0	21.4	0.00e+00	0	35	0	1280311296	57	4067
2026-01-18 01:33:02.12	301.79	61.23	-43.4	-44.3	21.2	0.00e+00	0	35	0	1292894208	57	4221
2026-01-18 01:33:06.15	298.00	61.03	-43.7	-44.7	20.9	0.00e+00	0	35	0	1305477120	58	4147
2026-01-18 01:33:10.19	294.28	60.72	-43.7	-44.6	20.6	0.00e+00	0	35	0	1318060032	58	4136
2026-01-18 01:33:14.22	290.67	60.30	-43.8	-44.8	20.7	0.00e+00	0	35	0	1330642944	58	4200
2026-01-18 01:33:18.25	287.19	59.79	-43.4	-44.3	21.1	0.00e+00	0	35	0	1343225856	58	4001
2026-01-18 01:33:22.28	283.86	59.20	-44.6	-45.6	19.9	0.00e+00	0	35	0	1355808768	59	4369
2026-01-18 01:33:26.32	280.67	58.52	-43.5	-44.4	21.1	0.00e+00	0	35	0	1368391680	59	3797
2026-01-18 01:33:30.35	277.66	57.78	-44.7	-45.7	20.0	0.00e+00	0	35	0	1380974592	59	4411
2026-01-18 01:33:34.38	274.82	56.98	-44.2	-45.1	20.4	0.00e+00	0	35	0	1393557504	59	4141
2026-01-18 01:33:38.41	272.15	56.12	-44.1	-45.1	20.1	0.00e+00	0	35	0	1406140416	60	3891
2026-01-18 01:33:42.44	269.64	55.22	-45.6	-46.8	18.6	0.00e+00	0	35	0	1418723328	61	4484
2026-01-18 01:33:46.47	267.29	54.29	-44.3	-45.3	19.8	0.00e+00	0	35	0	1431306240	60	3980
2026-01-18 01:33:50.51	265.08	53.32	-45.7	-46.9	18.5	0.00e+00	0	35	0	1443889152	61	4498
2026-01-18 01:33:54.53	263.03	52.34	-44.4	-45.3	19.9	0.00e+00	0	35	0	1456472064	60	3993
2026-01-18 01:33:58.56	261.11	51.34	-44.7	-45.7	19.7	0.00e+00	0	35	0	1469054976	60	4170
2026-01-18 01:34:02.60	259.30	50.32	-44.3	-45.3	19.8	0.00e+00	0	35	0	1481637888	60	3976
2026-01-18 01:34:06.63	257.62	49.30	-46.5	-47.8	17.7	0.00e+00	0	35	0	1494220800	63	4470
2026-01-18 01:34:10.67	256.05	48.28	-45.6	-46.8	18.3	0.00e+00	0	35	0	1506803712	63	4001
2026-01-18 01:34:14.70	254.58	47.27	-45.2	-46.3	18.7	0.00e+00	0	35	0	1519386624	61	4208
2026-01-18 01:34:18.73	253.20	46.25	-46.9	-48.3	17.0	0.00e+00	0	35	0	1531969536	65	4216
2026-01-18 01:34:22.77	251.91	45.25	-45.2	-46.3	19.0	0.00e+00	0	35	0	1544552448	62	3978
2026-01-18 01:34:26.80	250.70	44.25	-46.5	-47.9	17.5	0.00e+00	0	35	0	1557135360	63	4505
2026-01-18 01:34:30.83	249.56	43.27	-46.6	-47.9	16.7	0.00e+00	0	35	0	1569718272	64	4269
2026-01-18 01:34:34.86	248.49	42.30	-46.5	-47.9	17.1	0.00e+00	0	35	0	1582301184	64	4267
2026-01-18 01:34:38.89	247.49	41.34	-46.1	-47.4	17.9	0.00e+00	0	35	0	1594884096	64	4020
2026-01-18 01:34:42.92	246.54	40.40	-45.4	-46.5	18.6	0.00e+00	0	35	0	1607467008	62	4096
2026-01-18 01:34:46.95	245.64	39.47	-44.9	-46.0	19.3	0.00e+00	0	35	0	1620049920	61	4053
2026-01-18 01:34:50.99	244.80	38.56	-46.8	-48.3	17.0	0.00e+00	0	35	0	1632632832	64	4460
2026-01-18 01:34:55.02	244.00	37.67	-45.2	-46.4	18.9	0.00e+00	0	35	0	1645215744	62	4012
2026-01-18 01:34:59.05	243.24	36.79	-44.6	-45.7	19.5	0.00e+00	0	35	0	1657798656	61	3922
2026-01-18 01:35:03.09	242.52	35.93	-44.2	-45.2	19.7	0.00e+00	0	35	0	1670381568	60	3918
2026-01-18 01:35:07.12	241.85	35.09	-44.7	-45.7	19.4	0.00e+00	0	35	0	1682964480	60	4177
2026-01-18 01:35:11.15	241.20	34.27	-44.2	-45.2	20.2	0.00e+00	0	35	0	1695547392	59	4160
2026-01-18 01:35:15.18	240.59	33.47	-44.4	-45.5	19.9	0.00e+00	0	35	0	1708130304	59	4293
2026-01-18 01:35:19.21	240.00	32.68	-44.4	-45.4	19.7	0.00e+00	0	35	0	1720713216	60	4032
2026-01-18 01:35:23.24	239.45	31.91	-44.0	-44.9	20.3	0.00e+00	0	35	0	1733296128	59	4041
2026-01-18 01:35:27.28	238.92	31.15	-43.8	-44.7	20.6	0.00e+00	0	35	0	1745879040	59	3936
2026-01-18 01:35:31.31	238.41	30.41	-43.9	-44.9	20.5	0.00e+00	0	35	0	1758461952	59	4015
2026-01-18 01:35:35.35	237.93	29.69	-44.1	-45.1	20.3	0.00e+00	0	35	0	1771044864	59	4101
2026-01-18 01:35:39.38	237.47	28.98	-44.2	-45.2	20.2	0.00e+00	0	35	0	1783627776	59	4154
2026-01-18 01:35:43.41	237.03	28.29	-44.4	-45.4	19.9	0.00e+00	0	35	0	1796210688	59	4279
2026-01-18 01:35:47.44	236.61	27.61	-44.1	-45.1	20.2	0.00e+00	0	35	0	1809842176	59	4130
2026-01-18 01:35:51.47	236.20	26.95	-43.6	-44.6	20.6	0.00e+00	0	35	0	1821376512	59	3894
2026-01-18 01:35:55.50	235.82	26.30	-43.4	-44.3	20.8	0.00e+00	0	35	0	1833959424	58	3991
2026-01-18 01:35:59.53	235.45	25.67	-42.8	-43.6	21.4	0.00e+00	0	35	0	1846542336	57	3906
2026-01-18 01:36:03.56	235.09	25.05	-42.9	-43.7	21.3	0.00e+00	0	35	0	1860173824	57	3955
2026-01-18 01:36:07.59	234.75	24.44	-43.2	-44.1	21.0	0.00e+00	0	35	0	1871708160	57	4112
2026-01-18 01:36:11.62	234.42	23.85	-43.6	-44.5	20.6	0.00e+00	0	35	0	1884291072	57	4336
2026-01-18 01:36:15.65	234.10	23.26	-43.6	-44.5	20.6	0.00e+00	0	35	0	1897922560	57	4322
2026-01-18 01:36:19.68	233.80	22.69	-43.5	-44.5	20.6	0.00e+00	0	35	0	1909456896	57	4301
2026-01-18 01:36:23.72	233.50	22.13	-43.5	-44.4	20.7	0.00e+00	0	35	0	1922039808	58	4030
2026-01-18 01:36:27.75	233.22	21.58	-43.6	-44.6	20.5	0.00e+00	0	35	0	1935671296	58	4104
2026-01-18 01:36:31.78	232.95	21.05	-43.8	-44.8	20.3	0.00e+00	0	35	0	1948254208	58	4233
2026-01-18 01:36:35.82	232.69	20.52	-43.7	-44.7	20.4	0.00e+00	0	35	0	1959788544	58	4169
2026-01-18 01:36:39.85	232.43	20.00	-43.5	-44.5	20.5	0.00e+00	0	35	0	1973420032	58	4063
2026-01-18 01:36:43.88	232.19	19.50	-43.4	-44.4	20.6	0.00e+00	0	35	0	1986002944	58	4005
2026-01-18 01:36:47.91	231.95	19.00	-43.4	-44.3	20.6	0.00e+00	0	35	0	1998585856	58	3999
2026-01-18 01:36:51.94	231.72	18.51	-43.6	-44.5	20.5	0.00e+00	0	35	0	2011168768	58	4093
2026-01-18 01:36:55.98	231.50	18.03	-43.8	-44.7	20.3	0.00e+00	0	35	0	2023751680	58	4185
2026-01-18 01:37:00.01	231.29	17.56	-43.9	-44.9	20.1	0.00e+00	0	35	0	2036334592	58	4291
2026-01-18 01:37:04.05	231.08	17.10	-44.2	-45.3	19.8	0.00e+00	0	35	0	2048917504	59	4198
2026-01-18 01:37:08.08	230.88	16.64	-44.3	-45.4	19.7	0.00e+00	0	35	0	2061500416	59	4255
2026-01-18 01:37:12.11	230.68	16.20	-44.4	-45.5	19.6	0.00e+00	0	35	0	2074083328	59	4299
2026-01-18 01:37:16.14	230.50	15.76	-44.5	-45.5	19.5	0.00e+00	0	35	0	2086666240	59	4334
2026-01-18 01:37:20.17	230.31	15.33	-44.4	-45.5	19.6	0.00e+00	0	35	0	2099249152	59	4293
2026-01-18 01:37:24.20	230.14	14.91	-44.3	-45.4	19.6	0.00e+00	0	35	0	2111832064	59	4250
2026-01-18 01:37:28.23	229.97	14.49	-44.2	-45.3	19.7	0.00e+00	0	35	0	2124414976	59	4209
2026-01-18 01:37:32.26	229.80	14.08	-44.2	-45.3	19.7	0.00e+00	0	35	0	2136997888	59	4203
2026-01-18 01:37:36.29	229.64	13.68	-44.3	-45.3	19.6	0.00e+00	0	35	0	2149580800	59	4237
2026-01-18 01:37:40.32	229.48	13.28	-44.5	-45.6	19.4	0.00e+00	0	35	0	2162163712	59	4350
2026-01-18 01:37:44.36	229.33	12.89	-44.5	-45.6	19.4	0.00e+00	0	35	0	2174746624	59	4349
2026-01-18 01:37:48.39	229.18	12.50	-44.6	-45.7	19.3	0.00e+00	0	35	0	2187329536	59	4393
2026-01-18 01:37:52.42	229.04	12.12	-44.3	-45.4	19.2	0.00e+00	0	35	0	2199912448	60	4018
2026-01-18 01:37:56.46	228.89	11.75	-44.2	-45.2	19.4	0.00e+00	0	35	0	2212495360	60	3950
2026-01-18 01:38:00.49	228.76	11.38	-44.2	-45.2	19.4	0.00e+00	0	35	0	2225078272	60	3939
2026-01-18 01:38:04.52	228.63	11.02	-44.4	-45.5	19.4	0.00e+00	0	35	0	2237661184	59	4314
2026-01-18 01:38:08.55	228.50	10.66	-44.4	-45.5	19.4	0.00e+00	0	35	0	2250244096	59	4295
2026-01-18 01:38:12.58	228.37	10.31	-44.7	-45.8	19.0	0.00e+00	0	35	0	2262827008	59	4470
2026-01-18 01:38:16.62	228.25	9.96	-44.3	-45.4	19.1	0.00e+00	0	35	0	2275409920	60	4025
2026-01-18 01:38:20.65	228.13	9.62	-44.6	-45.8	18.7	0.00e+00	0	35	0	2287992832	60	4207
2026-01-18 01:38:24.68	228.01	9.28	-44.6	-45.7	18.7	0.00e+00	0	35	0	2300575744	60	4180
2026-01-18 01:38:28.71	227.90	8.94	-44.8	-46.0	18.5	0.00e+00	0	35	0	2313158656	60	4299
2026-01-18 01:38:32.74	227.79	8.61	-45.1	-46.4	18.1	0.00e+00	0	35	0	2325741568	60	4498
2026-01-18 01:38:36.78	227.68	8.29	-45.2	-46.5	17.9	0.00e+00	0	35	0	2338324480	61	4312
2026-01-18 01:38:40.81	227.58	7.97	-45.1	-46.4	18.0	0.00e+00	0	35	0	2350907392	61	4249
2026-01-18 01:38:44.84	227.47	7.65	-45.3	-46.6	17.7	0.00e+00	0	35	0	2363490304	61	4370
2026-01-18 01:38:48.87	227.37	7.33	-45.6	-46.9	17.4	0.00e+00	0	35	0	2376073216	61	4531
2026-01-18 01:38:52.90	227.28	7.02	-45.7	-47.1	17.1	0.00e+00	0	35	0	2388656128	62	4383
2026-01-18 01:38:56.94	227.18	6.72	-45.7	-47.1	17.2	0.00e+00	0	35	0	2401239040	62	4345
2026-01-18 01:39:00.96	227.09	6.41	-45.9	-47.4	16.8	0.00e+00	0	35	0	2413821952	62	4514
2026-01-18 01:39:04.99	227.00	6.12	-45.9	-47.4	16.7	0.00e+00	0	35	0	2426404864	62	4531
2026-01-18 01:39:09.02	226.91	5.82	-45.8	-47.3	16.8	0.00e+00	0	35	0	2438987776	63	4220
2026-01-18 01:39:13.05	226.82	5.53	-46.2	-47.8	16.2	0.00e+00	0	35	0	2451570688	63	4482
2026-01-18 01:39:17.08	226.74	5.24	-46.4	-48.0	16.0	0.00e+00	0	35	0	2464153600	63	4598
2026-01-18 01:39:21.11	226.65	4.95	-52.6	-65.5	3.8	1.49e+00	0	35	104	2475687936	75	17158
2026-01-18 01:39:25.14	226.57	4.67	-53.5	-66.3	3.8	1.49e+00	0	35	104	2475687936	77	16774
2026-01-18 01:39:29.16	226.49	4.38	-53.8	-66.5	3.8	1.49e+00	0	35	104	2475687936	78	16281
2026-01-18 01:39:33.20	226.41	4.11	-53.9	-66.6	3.8	1.49e+00	0	35	104	2475687936	78	16437
2026-01-18 01:39:37.24	226.34	3.83	-54.0	-66.8	3.8	1.49e+00	0	35	104	2475687936	78	16706
2026-01-18 01:39:41.27	226.26	3.56	-54.0	-66.8	3.8	1.49e+00	0	35	104	2475687936	78	16781
2026-01-18 01:39:45.30	226.19	3.29	-54.0	-66.8	3.8	1.49e+00	0	35	104	2475687936	78	16726
2026-01-18 01:39:49.33	226.12	3.02	-53.9	-66.7	3.8	1.49e+00	0	35	104	2475687936	78	16694
2026-01-18 01:39:53.37	226.05	2.75	-53.9	-66.7	3.8	1.49e+00	0	35	104	2475687936	78	16659
2026-01-18 01:39:57.40	225.98	2.49	-53.9	-66.7	3.8	1.49e+00	0	36	104	2475687936	78	16625
2026-01-18 01:40:01.43	225.92	2.23	-53.9	-66.7	3.8	1.49e+00	0	35	104	2475687936	78	16621
2026-01-18 01:40:05.46	225.85	1.97	-53.9	-66.7	3.8	1.49e+00	0	35	104	2475687936	78	16594

#Closed at: 2026-01-18 01:40:07
#Recorded file [2475 MB]: D:/lorett/data/31041_260118_042546.dat