passes_logs/2026/01/18/R3.2S_Murmansk/R3.2S_Murmansk__20260118_232629_NOAA_21_JPSS-2_rec.log

#Pass ID: 20260118_232629_NOAA 21 (JPSS-2)
#Satellite: NOAA 21 (JPSS-2)
#Configuration: NOAA-21
#almurnet v.1.7.20251203
#Start time: 2026-01-18 23:26:30

#Version: 2.2.20231116
#Station: R3.2S_Murmansk
#Location: 33.079688 lon 68.888172 lat
#TLE: 1 54234U 22150A   26018.60745868  .00000048  00000+0  43754-4 0  9997
#TLE: 2 54234  98.7503 319.4636 0000607 264.0480  96.0627 14.19535445165329

#Time	Az	El	Level	Level2	SNR	BER	BlckErr	Temp	State	Recorded	gain1	gain2
2026-01-18 23:26:30.84	20.73	2.07	-52.1	-64.7	3.8	1.49e+00	0	35	0	0	74	16593
2026-01-18 23:26:34.87	20.89	2.32	-52.0	-64.1	3.8	1.49e+00	0	35	104	0	74	15530
2026-01-18 23:26:38.90	21.05	2.57	-52.0	-63.6	3.8	1.49e+00	0	35	104	0	74	14562
2026-01-18 23:26:42.94	21.21	2.83	-51.9	-63.3	3.8	1.49e+00	0	36	104	0	74	14203
2026-01-18 23:26:46.97	21.37	3.08	-51.8	-61.7	4.1	1.48e+00	0	35	104	0	74	11725
2026-01-18 23:26:51.00	21.53	3.34	-51.5	-59.5	4.9	7.52e-01	0	36	0	1048576	73	9662
2026-01-18 23:26:55.03	21.70	3.60	-51.3	-58.4	5.5	4.78e-01	0	36	0	10485760	73	8485
2026-01-18 23:26:59.07	21.87	3.86	-50.9	-56.9	6.6	2.53e-01	0	36	0	23068672	72	7627
2026-01-18 23:27:03.10	22.05	4.12	-49.5	-53.1	10.5	5.81e-03	0	36	0	35651584	69	5841
2026-01-18 23:27:07.13	22.22	4.39	-47.9	-50.3	13.3	1.29e-05	0	36	0	48234496	67	4747
2026-01-18 23:27:11.17	22.40	4.66	-47.5	-49.7	14.0	3.80e-06	0	36	0	60817408	66	4661
2026-01-18 23:27:15.20	22.59	4.93	-48.6	-51.5	12.1	2.97e-04	0	36	0	73400320	67	5454
2026-01-18 23:27:19.23	22.77	5.20	-51.2	-59.1	4.2	1.29e+00	0	36	104	84934656	73	9246
2026-01-18 23:27:23.26	22.96	5.48	-46.3	-48.0	16.0	0.00e+00	0	36	0	95420416	63	4549
2026-01-18 23:27:27.29	23.15	5.76	-46.1	-47.7	16.3	0.00e+00	0	36	0	108003328	62	4663
2026-01-18 23:27:31.33	23.35	6.04	-45.8	-47.2	16.8	0.00e+00	0	36	0	120586240	62	4422
2026-01-18 23:27:35.37	23.54	6.32	-45.7	-47.2	16.9	0.00e+00	0	36	0	133169152	62	4392
2026-01-18 23:27:39.40	23.75	6.61	-45.6	-47.1	17.0	0.00e+00	0	36	0	145752064	62	4345
2026-01-18 23:27:43.43	23.95	6.90	-45.8	-47.3	16.9	0.00e+00	0	36	0	158334976	62	4456
2026-01-18 23:27:47.46	24.16	7.19	-45.5	-46.9	17.3	0.00e+00	0	36	0	170917888	62	4255
2026-01-18 23:27:51.49	24.37	7.49	-45.6	-47.0	17.2	0.00e+00	0	36	0	183500800	62	4336
2026-01-18 23:27:55.52	24.59	7.79	-45.4	-46.8	17.4	0.00e+00	0	36	0	196083712	62	4213
2026-01-18 23:27:59.55	24.81	8.09	-45.3	-46.7	17.6	0.00e+00	0	36	0	209715200	62	4155
2026-01-18 23:28:03.58	25.04	8.40	-45.3	-46.6	17.6	0.00e+00	0	36	0	221249536	61	4360
2026-01-18 23:28:07.61	25.27	8.71	-45.2	-46.5	17.8	0.00e+00	0	36	0	233832448	61	4294
2026-01-18 23:28:11.65	25.50	9.02	-44.9	-46.1	18.1	0.00e+00	0	36	0	247463936	61	4145
2026-01-18 23:28:15.68	25.74	9.34	-44.8	-46.0	18.3	0.00e+00	0	36	0	260046848	61	4077
2026-01-18 23:28:19.71	25.99	9.66	-44.6	-45.8	18.5	0.00e+00	0	36	0	271581184	61	3972
2026-01-18 23:28:23.75	26.24	9.98	-44.4	-45.6	18.7	0.00e+00	0	36	0	285212672	60	4100
2026-01-18 23:28:27.78	26.49	10.31	-44.4	-45.6	18.8	0.00e+00	0	36	0	297795584	60	4107
2026-01-18 23:28:31.81	26.75	10.64	-44.3	-45.5	18.8	0.00e+00	0	36	0	310378496	60	4066
2026-01-18 23:28:35.84	27.02	10.98	-44.3	-45.4	19.0	0.00e+00	0	36	0	322961408	60	4011
2026-01-18 23:28:39.87	27.29	11.32	-44.1	-45.2	19.2	0.00e+00	0	36	0	335544320	60	3920
2026-01-18 23:28:43.91	27.57	11.67	-44.1	-45.2	19.2	0.00e+00	0	36	0	348127232	60	3932
2026-01-18 23:28:47.94	27.85	12.02	-44.3	-45.4	19.3	0.00e+00	0	36	0	360710144	59	4267
2026-01-18 23:28:51.97	28.14	12.37	-44.2	-45.2	19.4	0.00e+00	0	36	0	373293056	59	4187
2026-01-18 23:28:56.00	28.43	12.73	-44.1	-45.1	19.6	0.00e+00	0	36	0	385875968	59	4144
2026-01-18 23:29:00.03	28.74	13.09	-43.9	-45.0	19.8	0.00e+00	0	36	0	398458880	59	4053
2026-01-18 23:29:04.06	29.05	13.46	-43.9	-45.0	19.8	0.00e+00	0	36	0	411041792	59	4063
2026-01-18 23:29:08.09	29.36	13.83	-44.0	-45.0	19.8	0.00e+00	0	36	0	423624704	59	4076
2026-01-18 23:29:12.12	29.69	14.21	-43.9	-45.0	19.8	0.00e+00	0	36	0	436207616	59	4061
2026-01-18 23:29:16.15	30.02	14.59	-44.1	-45.2	19.7	0.00e+00	0	36	0	448790528	59	4165
2026-01-18 23:29:20.18	30.36	14.98	-44.1	-45.1	19.7	0.00e+00	0	36	0	461373440	59	4136
2026-01-18 23:29:24.21	30.71	15.37	-44.2	-45.3	19.6	0.00e+00	0	36	0	473956352	59	4206
2026-01-18 23:29:28.25	31.07	15.77	-44.2	-45.2	19.6	0.00e+00	0	36	0	486539264	59	4182
2026-01-18 23:29:32.28	31.44	16.17	-44.5	-45.6	19.3	0.00e+00	0	36	0	499122176	59	4354
2026-01-18 23:29:36.31	31.82	16.58	-44.5	-45.6	19.3	0.00e+00	0	36	0	511705088	59	4382
2026-01-18 23:29:40.34	32.20	17.00	-44.5	-45.6	19.4	0.00e+00	0	36	0	524288000	59	4350
2026-01-18 23:29:44.37	32.60	17.42	-44.4	-45.5	19.5	0.00e+00	0	36	0	536870912	59	4325
2026-01-18 23:29:48.40	33.01	17.85	-44.6	-45.7	19.3	0.00e+00	0	36	0	549453824	59	4433
2026-01-18 23:29:52.43	33.43	18.28	-44.5	-45.6	19.1	0.00e+00	0	36	0	562036736	60	4116
2026-01-18 23:29:56.46	33.86	18.72	-44.1	-45.2	19.5	0.00e+00	0	36	0	574619648	60	3927
2026-01-18 23:30:00.49	34.31	19.17	-44.2	-45.2	19.7	0.00e+00	0	36	0	587202560	59	4177
2026-01-18 23:30:04.52	34.76	19.62	-43.9	-45.0	20.0	0.00e+00	0	36	0	599785472	59	4052
2026-01-18 23:30:08.55	35.23	20.08	-43.8	-44.8	20.1	0.00e+00	0	36	0	612368384	59	3990
2026-01-18 23:30:12.58	35.71	20.55	-43.6	-44.5	20.4	0.00e+00	0	36	0	624951296	59	3847
2026-01-18 23:30:16.62	36.21	21.02	-43.0	-43.9	20.9	0.00e+00	0	36	0	637534208	58	3823
2026-01-18 23:30:20.65	36.73	21.50	-42.9	-43.7	21.1	0.00e+00	0	36	0	650117120	57	3954
2026-01-18 23:30:24.68	37.25	21.99	-43.0	-43.9	21.0	0.00e+00	0	36	0	662700032	57	4013
2026-01-18 23:30:28.71	37.80	22.48	-42.5	-43.4	21.4	0.00e+00	0	36	0	675282944	57	3803
2026-01-18 23:30:32.75	38.36	22.99	-42.4	-43.3	21.5	0.00e+00	0	36	0	687865856	56	3975
2026-01-18 23:30:36.78	38.94	23.50	-42.6	-43.4	21.4	0.00e+00	0	36	0	700448768	56	4046
2026-01-18 23:30:40.81	39.54	24.01	-42.6	-43.5	21.4	0.00e+00	0	36	0	713031680	56	4053
2026-01-18 23:30:44.84	40.16	24.53	-42.8	-43.7	21.2	0.00e+00	0	36	0	725614592	56	4188
2026-01-18 23:30:48.87	40.80	25.06	-43.4	-44.3	20.7	0.00e+00	0	36	0	738197504	57	4234
2026-01-18 23:30:52.90	41.46	25.60	-43.5	-44.4	20.7	0.00e+00	0	36	0	750780416	57	4269
2026-01-18 23:30:56.93	42.14	26.15	-43.5	-44.5	20.6	0.00e+00	0	36	0	763363328	57	4292
2026-01-18 23:31:00.96	42.84	26.70	-43.6	-44.6	20.5	0.00e+00	0	36	0	775946240	57	4363
2026-01-18 23:31:05.00	43.57	27.26	-43.6	-44.6	20.5	0.00e+00	0	36	0	788529152	58	4113
2026-01-18 23:31:09.03	44.33	27.82	-43.9	-44.9	20.3	0.00e+00	0	36	0	801112064	58	4263
2026-01-18 23:31:13.06	45.11	28.39	-44.1	-45.1	20.1	0.00e+00	0	36	0	813694976	58	4349
2026-01-18 23:31:17.10	45.92	28.97	-43.8	-44.7	20.4	0.00e+00	0	36	0	826277888	58	4192
2026-01-18 23:31:21.13	46.76	29.55	-43.8	-44.8	20.5	0.00e+00	0	36	0	838860800	58	4195
2026-01-18 23:31:25.16	47.63	30.14	-43.6	-44.5	20.6	0.00e+00	0	36	0	851443712	58	4086
2026-01-18 23:31:29.19	48.53	30.74	-43.8	-44.7	20.5	0.00e+00	0	36	0	864026624	58	4187
2026-01-18 23:31:33.23	49.46	31.33	-44.7	-45.8	19.5	0.00e+00	0	36	0	876609536	59	4451
2026-01-18 23:31:37.26	50.43	31.94	-44.4	-45.5	19.8	0.00e+00	0	36	0	889192448	59	4307
2026-01-18 23:31:41.29	51.44	32.54	-44.5	-45.5	19.5	0.00e+00	0	36	0	901775360	60	4093
2026-01-18 23:31:45.32	52.48	33.15	-44.1	-45.1	19.9	0.00e+00	0	36	0	914358272	60	3893
2026-01-18 23:31:49.35	53.56	33.76	-44.6	-45.7	19.4	0.00e+00	0	36	0	926941184	60	4183
2026-01-18 23:31:53.38	54.68	34.37	-44.4	-45.4	19.6	0.00e+00	0	36	0	939524096	60	4037
2026-01-18 23:31:57.42	55.84	34.98	-44.7	-45.7	19.4	0.00e+00	0	36	0	952107008	60	4191
2026-01-18 23:32:01.45	57.05	35.59	-44.7	-45.8	19.2	0.00e+00	0	36	0	964689920	60	4210
2026-01-18 23:32:05.48	58.30	36.19	-44.5	-45.6	19.5	0.00e+00	0	36	0	977272832	60	4122
2026-01-18 23:32:09.51	59.60	36.79	-44.8	-45.9	19.2	0.00e+00	0	36	0	989855744	60	4275
2026-01-18 23:32:13.54	60.94	37.39	-44.9	-46.0	19.1	0.00e+00	0	36	0	1003487232	60	4304
2026-01-18 23:32:17.57	62.34	37.98	-44.8	-45.9	19.1	0.00e+00	0	36	0	1015021568	60	4284
2026-01-18 23:32:21.60	63.78	38.56	-44.7	-45.8	19.3	0.00e+00	0	36	0	1027604480	60	4216
2026-01-18 23:32:25.63	65.28	39.12	-45.3	-46.5	18.7	0.00e+00	0	36	0	1041235968	61	4293
2026-01-18 23:32:29.67	66.83	39.68	-45.3	-46.4	18.7	0.00e+00	0	36	0	1053818880	61	4274
2026-01-18 23:32:33.69	68.43	40.22	-46.3	-47.6	17.6	0.00e+00	0	36	0	1065353216	63	4367
2026-01-18 23:32:37.73	70.09	40.74	-46.1	-47.4	17.7	0.00e+00	0	36	0	1077936128	63	4286
2026-01-18 23:32:41.76	71.79	41.25	-46.3	-47.6	17.6	0.00e+00	0	36	0	1091567616	63	4374
2026-01-18 23:32:45.79	73.55	41.73	-46.7	-48.2	16.8	0.00e+00	0	36	0	1103101952	64	4434
2026-01-18 23:32:49.83	75.36	42.19	-46.4	-47.8	17.3	0.00e+00	0	36	0	1115684864	64	4206
2026-01-18 23:32:53.86	77.22	42.62	-46.2	-47.5	17.6	0.00e+00	0	36	0	1129316352	64	4094
2026-01-18 23:32:57.89	79.13	43.02	-46.0	-47.3	17.7	0.00e+00	0	36	0	1141899264	63	4238
2026-01-18 23:33:01.92	81.09	43.39	-46.1	-47.4	17.7	0.00e+00	0	37	0	1153433600	64	4021
2026-01-18 23:33:05.95	83.08	43.72	-46.8	-48.3	16.8	0.00e+00	0	36	0	1167065088	64	4454
2026-01-18 23:33:09.99	85.13	44.02	-46.1	-47.3	17.9	0.00e+00	0	36	0	1179648000	63	4240
2026-01-18 23:33:14.02	87.20	44.28	-46.0	-47.2	18.0	0.00e+00	0	36	0	1192230912	63	4170
2026-01-18 23:33:18.05	89.30	44.51	-45.4	-46.5	18.7	0.00e+00	0	36	0	1204813824	62	4070
2026-01-18 23:33:22.08	91.44	44.69	-46.1	-47.4	17.8	0.00e+00	0	36	0	1217396736	62	4518
2026-01-18 23:33:26.11	93.59	44.82	-46.6	-48.0	17.2	0.00e+00	0	36	0	1229979648	63	4561
2026-01-18 23:33:30.14	95.76	44.92	-45.7	-46.9	18.3	0.00e+00	0	36	0	1242562560	63	4021
2026-01-18 23:33:34.18	97.94	44.97	-45.4	-46.6	18.6	0.00e+00	0	36	0	1255145472	62	4118
2026-01-18 23:33:38.21	100.12	44.97	-46.4	-47.8	17.5	0.00e+00	0	36	0	1267728384	63	4464
2026-01-18 23:33:42.24	102.30	44.93	-45.9	-47.1	18.1	0.00e+00	0	36	0	1280311296	63	4120
2026-01-18 23:33:46.27	104.48	44.84	-45.3	-46.4	18.8	0.00e+00	0	36	0	1292894208	62	4018
2026-01-18 23:33:50.31	106.64	44.71	-44.9	-46.1	19.1	0.00e+00	0	36	0	1305477120	62	3890
2026-01-18 23:33:54.34	108.78	44.54	-45.8	-47.0	18.2	0.00e+00	0	36	0	1318060032	62	4320
2026-01-18 23:33:58.37	110.89	44.33	-45.8	-47.1	18.2	0.00e+00	0	36	0	1330642944	62	4365
2026-01-18 23:34:02.40	112.97	44.07	-46.4	-47.8	17.4	0.00e+00	0	36	0	1343225856	64	4221
2026-01-18 23:34:06.43	115.02	43.78	-45.8	-47.0	18.3	0.00e+00	0	36	0	1355808768	63	4070
2026-01-18 23:34:10.46	117.02	43.45	-46.4	-47.8	17.5	0.00e+00	0	36	0	1368391680	63	4458
2026-01-18 23:34:14.49	118.99	43.09	-46.1	-47.4	17.7	0.00e+00	0	36	0	1380974592	63	4265
2026-01-18 23:34:18.52	120.91	42.69	-45.8	-47.0	18.0	0.00e+00	0	36	0	1393557504	63	4082
2026-01-18 23:34:22.56	122.79	42.26	-45.4	-46.5	18.6	0.00e+00	0	36	0	1406140416	62	4098
2026-01-18 23:34:26.59	124.61	41.81	-45.5	-46.7	18.4	0.00e+00	0	37	0	1418723328	62	4173
2026-01-18 23:34:30.62	126.38	41.33	-44.9	-45.9	19.2	0.00e+00	0	36	0	1431306240	61	4044
2026-01-18 23:34:34.64	128.10	40.83	-44.9	-46.0	19.2	0.00e+00	0	36	0	1443889152	61	4061
2026-01-18 23:34:38.67	129.76	40.31	-44.6	-45.7	19.3	0.00e+00	0	36	0	1456472064	60	4162
2026-01-18 23:34:42.71	131.38	39.77	-45.5	-46.7	18.5	0.00e+00	0	36	0	1469054976	61	4392
2026-01-18 23:34:46.74	132.94	39.22	-45.7	-47.0	18.2	0.00e+00	0	36	0	1481637888	62	4307
2026-01-18 23:34:50.77	134.45	38.65	-45.9	-47.2	18.1	0.00e+00	0	36	0	1494220800	62	4401
2026-01-18 23:34:54.81	135.91	38.07	-45.1	-46.3	18.9	0.00e+00	0	36	0	1506803712	62	3959
2026-01-18 23:34:58.84	137.32	37.48	-44.5	-45.5	19.5	0.00e+00	0	36	0	1519386624	61	3866
2026-01-18 23:35:02.87	138.68	36.88	-44.2	-45.1	19.8	0.00e+00	0	36	0	1531969536	60	3910
2026-01-18 23:35:06.90	139.99	36.28	-44.6	-45.6	19.7	0.00e+00	0	36	0	1544552448	59	4383
2026-01-18 23:35:10.93	141.25	35.67	-44.3	-45.3	19.6	0.00e+00	0	36	0	1557135360	60	3973
2026-01-18 23:35:14.96	142.47	35.06	-44.0	-45.0	19.9	0.00e+00	0	36	0	1569718272	60	3847
2026-01-18 23:35:18.99	143.64	34.45	-44.4	-45.4	19.6	0.00e+00	0	36	0	1582301184	60	4035
2026-01-18 23:35:23.03	144.77	33.83	-44.2	-45.2	19.8	0.00e+00	0	36	0	1594884096	60	3944
2026-01-18 23:35:27.06	145.86	33.22	-44.3	-45.3	20.0	0.00e+00	0	36	0	1607467008	59	4213
2026-01-18 23:35:31.09	146.91	32.61	-44.2	-45.3	19.9	0.00e+00	0	36	0	1620049920	59	4194
2026-01-18 23:35:35.12	147.93	32.00	-44.0	-44.9	20.3	0.00e+00	0	36	0	1632632832	59	4050
2026-01-18 23:35:39.15	148.90	31.40	-43.3	-44.2	20.9	0.00e+00	0	36	0	1645215744	58	3958
2026-01-18 23:35:43.19	149.84	30.79	-43.1	-43.9	21.1	0.00e+00	0	36	0	1657798656	58	3821
2026-01-18 23:35:47.22	150.75	30.20	-43.4	-44.3	20.8	0.00e+00	0	36	0	1670381568	58	3994
2026-01-18 23:35:51.26	151.63	29.60	-43.7	-44.6	20.5	0.00e+00	0	36	0	1682964480	58	4121
2026-01-18 23:35:55.29	152.48	29.01	-43.8	-44.7	20.3	0.00e+00	0	36	0	1695547392	58	4190
2026-01-18 23:35:59.31	153.29	28.43	-44.1	-45.1	20.0	0.00e+00	0	36	0	1708130304	58	4381
2026-01-18 23:36:03.34	154.08	27.86	-44.0	-45.0	20.0	0.00e+00	0	36	0	1720713216	59	4091
2026-01-18 23:36:07.37	154.84	27.29	-44.2	-45.2	19.9	0.00e+00	0	36	0	1733296128	59	4167
2026-01-18 23:36:11.41	155.57	26.73	-43.6	-44.5	20.5	0.00e+00	0	36	0	1745879040	59	3853
2026-01-18 23:36:15.43	156.28	26.17	-43.2	-44.1	20.9	0.00e+00	0	36	0	1758461952	58	3884
2026-01-18 23:36:19.47	156.97	25.62	-43.5	-44.4	20.6	0.00e+00	0	36	0	1771044864	58	4047
2026-01-18 23:36:23.50	157.63	25.08	-43.3	-44.2	20.8	0.00e+00	0	36	0	1783627776	58	3927
2026-01-18 23:36:27.53	158.28	24.55	-43.0	-43.9	20.9	0.00e+00	0	36	0	1796210688	58	3807
2026-01-18 23:36:31.56	158.90	24.02	-43.1	-44.0	20.9	0.00e+00	0	36	0	1808793600	57	4070
2026-01-18 23:36:35.59	159.50	23.50	-43.3	-44.2	20.6	0.00e+00	0	36	0	1821376512	57	4190
2026-01-18 23:36:39.62	160.08	22.99	-43.2	-44.1	20.8	0.00e+00	0	36	0	1833959424	57	4113
2026-01-18 23:36:43.65	160.65	22.48	-43.3	-44.2	20.6	0.00e+00	0	36	0	1846542336	57	4178
2026-01-18 23:36:47.69	161.20	21.99	-43.5	-44.5	20.4	0.00e+00	0	36	0	1859125248	57	4303
2026-01-18 23:36:51.72	161.73	21.49	-43.5	-44.4	20.5	0.00e+00	0	36	0	1871708160	57	4270
2026-01-18 23:36:55.75	162.24	21.01	-43.6	-44.6	20.3	0.00e+00	0	37	0	1885339648	57	4351
2026-01-18 23:36:59.78	162.74	20.53	-43.8	-44.8	20.2	0.00e+00	0	36	0	1896873984	58	4222
2026-01-18 23:37:03.82	163.23	20.06	-43.8	-44.8	20.2	0.00e+00	0	36	0	1909456896	58	4206
2026-01-18 23:37:07.85	163.70	19.60	-43.6	-44.6	20.2	0.00e+00	0	36	0	1923088384	58	4121
2026-01-18 23:37:11.88	164.16	19.14	-43.4	-44.3	20.4	0.00e+00	0	36	0	1935671296	58	4002
2026-01-18 23:37:15.92	164.60	18.69	-43.3	-44.2	20.5	0.00e+00	0	36	0	1947205632	58	3939
2026-01-18 23:37:19.95	165.04	18.25	-43.2	-44.1	20.7	0.00e+00	0	36	0	1960837120	58	3879
2026-01-18 23:37:23.97	165.46	17.81	-43.3	-44.2	20.6	0.00e+00	0	36	0	1973420032	58	3929
2026-01-18 23:37:28.01	165.87	17.38	-43.8	-44.8	20.1	0.00e+00	0	36	0	1986002944	58	4224
2026-01-18 23:37:32.04	166.27	16.96	-44.0	-45.1	19.8	0.00e+00	0	36	0	1998585856	58	4343
2026-01-18 23:37:36.08	166.65	16.54	-44.5	-45.6	19.3	0.00e+00	0	36	0	2011168768	59	4385
2026-01-18 23:37:40.11	167.03	16.12	-44.3	-45.4	19.5	0.00e+00	0	36	0	2023751680	59	4271
2026-01-18 23:37:44.14	167.40	15.72	-44.1	-45.2	19.6	0.00e+00	0	36	0	2036334592	59	4165
2026-01-18 23:37:48.17	167.76	15.31	-44.0	-45.1	19.7	0.00e+00	0	36	0	2048917504	59	4119
2026-01-18 23:37:52.20	168.11	14.92	-44.1	-45.2	19.6	0.00e+00	0	36	0	2061500416	59	4164
2026-01-18 23:37:56.23	168.45	14.53	-43.9	-45.0	19.8	0.00e+00	0	36	0	2074083328	59	4055
2026-01-18 23:38:00.26	168.78	14.14	-44.0	-45.0	19.8	0.00e+00	0	36	0	2086666240	59	4065
2026-01-18 23:38:04.29	169.11	13.76	-44.3	-45.3	19.4	0.00e+00	0	36	0	2099249152	59	4232
2026-01-18 23:38:08.33	169.43	13.39	-44.6	-45.7	19.1	0.00e+00	0	36	0	2111832064	59	4405
2026-01-18 23:38:12.36	169.74	13.02	-44.7	-45.8	18.9	0.00e+00	0	36	0	2124414976	59	4489
2026-01-18 23:38:16.40	170.04	12.65	-44.3	-45.4	19.0	0.00e+00	0	36	0	2136997888	60	4019
2026-01-18 23:38:20.43	170.33	12.29	-44.4	-45.5	18.9	0.00e+00	0	36	0	2149580800	60	4072
2026-01-18 23:38:24.46	170.62	11.94	-44.2	-45.4	19.0	0.00e+00	0	36	0	2162163712	60	4006
2026-01-18 23:38:28.50	170.91	11.59	-44.4	-45.5	18.8	0.00e+00	0	36	0	2174746624	60	4091
2026-01-18 23:38:32.53	171.18	11.24	-44.4	-45.6	18.7	0.00e+00	0	36	0	2187329536	60	4107
2026-01-18 23:38:36.56	171.45	10.90	-44.6	-45.8	18.5	0.00e+00	0	36	0	2199912448	60	4206
2026-01-18 23:38:40.59	171.72	10.56	-44.6	-45.8	18.5	0.00e+00	0	36	0	2212495360	60	4221
2026-01-18 23:38:44.63	171.98	10.22	-44.7	-45.9	18.3	0.00e+00	0	36	0	2225078272	60	4285
2026-01-18 23:38:48.66	172.23	9.89	-44.7	-45.9	18.3	0.00e+00	0	36	0	2237661184	60	4273
2026-01-18 23:38:52.69	172.48	9.57	-44.9	-46.1	18.1	0.00e+00	0	36	0	2250244096	60	4365
2026-01-18 23:38:56.73	172.72	9.24	-45.1	-46.4	17.8	0.00e+00	0	36	0	2262827008	60	4499
2026-01-18 23:39:00.76	172.96	8.93	-45.1	-46.4	17.8	0.00e+00	0	36	0	2275409920	60	4517
2026-01-18 23:39:04.79	173.19	8.61	-45.3	-46.6	17.5	0.00e+00	0	36	0	2287992832	61	4373
2026-01-18 23:39:08.83	173.42	8.30	-45.1	-46.4	17.7	0.00e+00	0	36	0	2300575744	61	4280
2026-01-18 23:39:12.86	173.64	7.99	-45.1	-46.4	17.7	0.00e+00	0	37	0	2313158656	61	4269
2026-01-18 23:39:16.89	173.86	7.69	-45.1	-46.4	17.6	0.00e+00	0	36	0	2325741568	61	4281
2026-01-18 23:39:20.92	174.08	7.38	-45.5	-46.9	17.1	0.00e+00	0	36	0	2338324480	61	4543
2026-01-18 23:39:24.95	174.29	7.09	-45.6	-47.0	17.1	0.00e+00	0	36	0	2350907392	61	4564
2026-01-18 23:39:28.99	174.50	6.79	-45.8	-47.3	16.8	0.00e+00	0	36	0	2363490304	62	4464
2026-01-18 23:39:33.02	174.70	6.50	-45.8	-47.3	16.7	0.00e+00	0	36	0	2376073216	62	4466
2026-01-18 23:39:37.05	174.90	6.21	-45.9	-47.5	16.5	0.00e+00	0	36	0	2388656128	62	4556
2026-01-18 23:39:41.08	175.10	5.92	-45.8	-47.2	16.7	0.00e+00	0	36	0	2401239040	62	4437
2026-01-18 23:39:45.11	175.29	5.64	-45.7	-47.2	16.7	0.00e+00	0	36	0	2413821952	62	4399
2026-01-18 23:39:49.14	175.48	5.36	-45.8	-47.4	16.5	0.00e+00	0	36	0	2426404864	62	4494
2026-01-18 23:39:53.18	175.67	5.08	-45.9	-47.5	16.3	0.00e+00	0	36	0	2438987776	62	4560
2026-01-18 23:39:57.21	175.85	4.81	-53.1	-65.8	3.8	1.49e+00	0	36	104	2444230656	76	16861
2026-01-18 23:40:01.24	176.03	4.53	-53.5	-66.3	3.8	1.49e+00	0	36	104	2444230656	77	16763
2026-01-18 23:40:05.27	176.20	4.26	-53.8	-66.5	3.8	1.49e+00	0	36	104	2444230656	78	16297
2026-01-18 23:40:09.30	176.38	4.00	-53.9	-66.7	3.8	1.49e+00	0	37	104	2444230656	78	16528
2026-01-18 23:40:13.34	176.55	3.73	-54.0	-66.7	3.8	1.49e+00	0	36	104	2444230656	78	16681
2026-01-18 23:40:17.36	176.72	3.47	-54.0	-66.8	3.8	1.49e+00	0	37	104	2444230656	78	16735
2026-01-18 23:40:21.40	176.88	3.21	-54.0	-66.7	3.8	1.49e+00	0	37	104	2444230656	78	16667
2026-01-18 23:40:25.43	177.05	2.95	-53.9	-66.7	3.8	1.49e+00	0	37	104	2444230656	78	16640
2026-01-18 23:40:29.46	177.21	2.69	-53.9	-66.7	3.8	1.49e+00	0	36	104	2444230656	78	16593
2026-01-18 23:40:33.49	177.36	2.44	-53.9	-66.7	3.8	1.49e+00	0	37	104	2444230656	78	16580
2026-01-18 23:40:37.53	177.52	2.19	-53.9	-66.7	3.8	1.49e+00	0	37	104	2444230656	78	16550
2026-01-18 23:40:41.56	177.67	1.94	-53.9	-66.6	3.8	1.49e+00	0	37	104	2444230656	78	16470

#Closed at: 2026-01-18 23:40:42
#Recorded file [2444 MB]: D:/lorett/data/31041_260119_022630.dat