passes_logs/2026/01/18/R3.2S_Murmansk/R3.2S_Murmansk__20260118_065326_SUOMI_NPP_rec.log

#Pass ID: 20260118_065326_SUOMI NPP
#Satellite: SUOMI NPP
#Configuration: NPP
#almurnet v.1.7.20251203
#Start time: 2026-01-18 06:53:26

#Version: 2.2.20231116
#Station: R3.2S_Murmansk
#Location: 33.079688 lon 68.888172 lat
#TLE: 1 37849U 11061A   26017.57099531  .00000072  00000+0  54974-4 0  9996
#TLE: 2 37849  98.7814 319.5974 0002398  59.1749 300.9663 14.19525865737072

#Time	Az	El	Level	Level2	SNR	BER	BlckErr	Temp	State	Recorded	gain1	gain2
2026-01-18 06:53:26.39	91.25	2.00	-52.0	-67.0	3.8	1.49e+00	0	38	0	0	76	19260
2026-01-18 06:53:30.42	91.04	2.24	-52.0	-67.0	3.8	1.49e+00	0	38	104	0	74	21577
2026-01-18 06:53:34.46	90.82	2.48	-52.0	-67.0	3.8	1.49e+00	0	38	104	0	74	21620
2026-01-18 06:53:38.49	90.59	2.72	-52.0	-67.0	3.8	1.49e+00	0	38	104	0	74	21507
2026-01-18 06:53:42.52	90.37	2.96	-52.0	-66.9	3.8	1.49e+00	0	37	104	0	74	21407
2026-01-18 06:53:46.55	90.14	3.21	-52.0	-67.0	3.8	1.49e+00	0	37	104	0	74	21514
2026-01-18 06:53:50.59	89.90	3.46	-52.0	-66.9	3.8	1.49e+00	0	37	104	0	74	21349
2026-01-18 06:53:54.62	89.66	3.71	-52.0	-66.9	3.8	1.49e+00	0	37	104	0	74	21355
2026-01-18 06:53:58.65	89.42	3.96	-51.9	-65.6	3.8	1.49e+00	0	37	104	0	74	18432
2026-01-18 06:54:02.69	89.17	4.21	-51.7	-62.7	4.4	1.39e+00	132	37	0	0	74	13184
2026-01-18 06:54:06.72	88.92	4.47	-51.4	-59.7	6.1	2.85e-01	0	37	0	7340032	74	9286
2026-01-18 06:54:10.75	88.66	4.72	-51.0	-57.7	7.9	9.47e-02	0	37	0	14680064	74	7396
2026-01-18 06:54:14.78	88.40	4.98	-51.2	-58.9	6.8	1.86e-01	0	37	0	22020096	73	8998
2026-01-18 06:54:18.81	88.13	5.24	-51.8	-63.8	4.1	2.27e-01	0	37	0	29360128	74	15015
2026-01-18 06:54:22.85	87.86	5.50	-49.4	-52.8	13.5	2.21e-05	0	37	0	34603008	70	5302
2026-01-18 06:54:26.88	87.58	5.77	-48.8	-51.7	14.6	7.00e-07	0	37	0	41943040	69	4936
2026-01-18 06:54:30.91	87.30	6.03	-49.1	-52.3	14.1	1.50e-06	0	37	0	50331648	69	5290
2026-01-18 06:54:34.94	87.01	6.30	-49.1	-52.2	14.2	1.50e-06	0	37	0	57671680	69	5258
2026-01-18 06:54:38.97	86.71	6.57	-48.8	-51.6	14.8	0.00e+00	0	37	0	65011712	69	4885
2026-01-18 06:54:43.00	86.41	6.85	-48.8	-51.5	14.9	0.00e+00	0	37	0	72351744	69	4868
2026-01-18 06:54:47.03	86.11	7.12	-48.8	-51.8	14.6	7.00e-07	0	37	0	79691776	69	4993
2026-01-18 06:54:51.07	85.80	7.40	-48.3	-51.0	15.4	0.00e+00	0	36	0	88080384	68	4834
2026-01-18 06:54:55.10	85.48	7.68	-48.1	-50.5	15.9	0.00e+00	0	37	0	95420416	68	4582
2026-01-18 06:54:59.13	85.15	7.96	-47.6	-49.9	16.4	0.00e+00	0	36	0	102760448	67	4519
2026-01-18 06:55:03.16	84.82	8.24	-47.7	-50.0	16.3	0.00e+00	0	36	0	110100480	67	4576
2026-01-18 06:55:07.19	84.49	8.53	-47.7	-50.0	16.4	0.00e+00	0	37	0	117440512	66	4836
2026-01-18 06:55:11.23	84.14	8.82	-47.7	-50.0	16.4	0.00e+00	0	36	0	125829120	66	4830
2026-01-18 06:55:15.26	83.79	9.11	-47.8	-50.1	16.3	0.00e+00	0	37	0	133169152	66	4923
2026-01-18 06:55:19.29	83.43	9.40	-47.9	-50.3	16.2	0.00e+00	0	36	0	140509184	66	4991
2026-01-18 06:55:23.32	83.06	9.69	-47.9	-50.2	16.3	0.00e+00	0	37	0	147849216	66	4952
2026-01-18 06:55:27.36	82.69	9.99	-47.7	-49.9	16.7	0.00e+00	0	36	0	155189248	66	4766
2026-01-18 06:55:31.39	82.30	10.29	-47.8	-50.1	16.3	0.00e+00	0	36	0	163577856	66	4876
2026-01-18 06:55:35.41	81.91	10.59	-47.6	-49.8	16.7	0.00e+00	0	36	0	170917888	66	4743
2026-01-18 06:55:39.45	81.51	10.90	-47.6	-49.7	16.8	0.00e+00	0	36	0	178257920	66	4703
2026-01-18 06:55:43.48	81.11	11.20	-47.9	-50.3	16.2	0.00e+00	0	36	0	185597952	66	5011
2026-01-18 06:55:47.50	80.69	11.51	-47.6	-49.9	16.7	0.00e+00	0	36	0	193986560	66	4769
2026-01-18 06:55:51.53	80.27	11.82	-47.8	-50.1	16.5	0.00e+00	0	37	0	201326592	66	4879
2026-01-18 06:55:55.57	79.83	12.14	-47.7	-50.0	16.6	0.00e+00	0	36	0	208666624	66	4820
2026-01-18 06:55:59.60	79.38	12.46	-47.4	-49.5	17.1	0.00e+00	0	36	0	216006656	66	4572
2026-01-18 06:56:03.64	78.93	12.78	-47.7	-50.0	16.6	0.00e+00	0	36	0	223346688	66	4840
2026-01-18 06:56:07.67	78.46	13.10	-47.0	-48.8	17.8	0.00e+00	0	36	0	231735296	66	4227
2026-01-18 06:56:11.70	77.99	13.42	-47.1	-49.1	17.6	0.00e+00	0	36	0	239075328	65	4616
2026-01-18 06:56:15.73	77.50	13.75	-47.0	-48.8	17.8	0.00e+00	0	36	0	246415360	65	4476
2026-01-18 06:56:19.76	77.00	14.07	-47.5	-49.5	17.2	0.00e+00	0	36	0	253755392	65	4868
2026-01-18 06:56:23.79	76.49	14.40	-47.5	-49.6	17.1	0.00e+00	0	36	0	261095424	66	4606
2026-01-18 06:56:27.82	75.97	14.74	-47.8	-50.1	16.7	0.00e+00	0	36	0	269484032	66	4876
2026-01-18 06:56:31.85	75.44	15.07	-47.3	-49.3	17.5	0.00e+00	0	36	0	276824064	66	4449
2026-01-18 06:56:35.89	74.90	15.41	-47.3	-49.3	17.4	0.00e+00	0	36	0	284164096	65	4711
2026-01-18 06:56:39.91	74.34	15.74	-46.9	-48.8	17.9	0.00e+00	0	36	0	291504128	65	4473
2026-01-18 06:56:43.95	73.77	16.09	-46.7	-48.5	18.2	0.00e+00	0	36	0	298844160	65	4308
2026-01-18 06:56:47.98	73.18	16.43	-46.3	-47.9	18.7	0.00e+00	0	36	0	307232768	64	4290
2026-01-18 06:56:52.01	72.58	16.77	-46.6	-48.3	18.4	0.00e+00	0	36	0	314572800	64	4488
2026-01-18 06:56:56.04	71.97	17.12	-46.5	-48.2	18.5	0.00e+00	0	36	0	321912832	64	4412
2026-01-18 06:57:00.07	71.35	17.46	-46.8	-48.6	18.2	0.00e+00	0	36	0	329252864	64	4622
2026-01-18 06:57:04.10	70.71	17.81	-46.8	-48.6	18.1	0.00e+00	0	36	0	337641472	64	4633
2026-01-18 06:57:08.13	70.05	18.16	-46.7	-48.5	18.2	0.00e+00	0	36	0	344981504	64	4569
2026-01-18 06:57:12.16	69.38	18.51	-46.7	-48.4	18.3	0.00e+00	0	36	0	352321536	64	4531
2026-01-18 06:57:16.19	68.69	18.86	-46.6	-48.3	18.4	0.00e+00	0	36	0	359661568	64	4484
2026-01-18 06:57:20.21	67.99	19.21	-47.0	-48.9	18.0	0.00e+00	0	36	0	367001600	64	4762
2026-01-18 06:57:24.23	67.27	19.56	-47.3	-49.3	17.6	0.00e+00	0	36	0	375390208	65	4707
2026-01-18 06:57:28.26	66.53	19.91	-47.1	-48.9	17.9	0.00e+00	0	36	0	382730240	65	4544
2026-01-18 06:57:32.29	65.78	20.26	-47.1	-49.0	17.9	0.00e+00	0	36	0	390070272	65	4578
2026-01-18 06:57:36.33	65.00	20.62	-47.6	-49.7	17.3	0.00e+00	0	36	0	397410304	65	4929
2026-01-18 06:57:40.36	64.21	20.97	-47.2	-49.1	17.8	0.00e+00	0	36	0	404750336	66	4349
2026-01-18 06:57:44.38	63.40	21.31	-46.7	-48.5	18.4	0.00e+00	0	36	0	412090368	65	4304
2026-01-18 06:57:48.42	62.57	21.66	-46.6	-48.3	18.6	0.00e+00	0	36	0	420478976	64	4454
2026-01-18 06:57:52.45	61.73	22.01	-46.9	-48.6	18.3	0.00e+00	0	36	0	427819008	64	4640
2026-01-18 06:57:56.48	60.86	22.35	-46.8	-48.5	18.4	0.00e+00	0	36	0	435159040	64	4589
2026-01-18 06:58:00.51	59.98	22.69	-45.8	-47.2	19.7	0.00e+00	0	36	0	442499072	63	4171
2026-01-18 06:58:04.54	59.07	23.03	-45.5	-46.9	19.9	0.00e+00	0	36	0	450887680	63	4044
2026-01-18 06:58:08.57	58.15	23.36	-46.1	-47.7	19.2	0.00e+00	0	36	0	458227712	63	4413
2026-01-18 06:58:12.61	57.20	23.69	-45.9	-47.4	19.5	0.00e+00	0	36	0	465567744	63	4290
2026-01-18 06:58:16.63	56.24	24.02	-45.5	-46.9	20.0	0.00e+00	0	36	0	472907776	62	4267
2026-01-18 06:58:20.67	55.25	24.34	-45.7	-47.1	19.9	0.00e+00	0	36	0	480247808	62	4351
2026-01-18 06:58:24.70	54.24	24.66	-45.4	-46.8	20.0	0.00e+00	0	36	0	488636416	62	4215
2026-01-18 06:58:28.73	53.22	24.96	-45.4	-46.7	20.1	0.00e+00	0	36	0	495976448	62	4177
2026-01-18 06:58:32.76	52.17	25.27	-45.4	-46.8	20.1	0.00e+00	0	36	0	503316480	62	4204
2026-01-18 06:58:36.79	51.11	25.56	-46.3	-47.8	19.2	0.00e+00	0	36	0	510656512	63	4468
2026-01-18 06:58:40.82	50.02	25.85	-46.3	-47.9	19.1	0.00e+00	0	36	0	517996544	63	4529
2026-01-18 06:58:44.85	48.92	26.13	-46.1	-47.6	19.4	0.00e+00	0	36	0	526385152	63	4365
2026-01-18 06:58:48.88	47.79	26.40	-46.2	-47.8	19.2	0.00e+00	0	36	0	533725184	63	4460
2026-01-18 06:58:52.91	46.65	26.65	-45.9	-47.3	19.7	0.00e+00	0	36	0	541065216	63	4230
2026-01-18 06:58:56.95	45.48	26.90	-45.9	-47.3	19.6	0.00e+00	0	36	0	548405248	63	4227
2026-01-18 06:59:00.98	44.30	27.14	-46.0	-47.5	19.5	0.00e+00	0	36	0	555745280	63	4313
2026-01-18 06:59:05.01	43.10	27.37	-45.9	-47.3	19.6	0.00e+00	0	36	0	564133888	63	4237
2026-01-18 06:59:09.04	41.89	27.58	-45.8	-47.2	19.8	0.00e+00	0	36	0	571473920	63	4167
2026-01-18 06:59:13.07	40.66	27.78	-46.2	-47.8	19.2	0.00e+00	0	36	0	578813952	63	4459
2026-01-18 06:59:17.11	39.41	27.97	-46.4	-48.0	19.0	0.00e+00	0	36	0	586153984	63	4588
2026-01-18 06:59:21.14	38.15	28.14	-46.5	-48.1	18.8	0.00e+00	0	36	0	594542592	64	4365
2026-01-18 06:59:25.17	36.88	28.30	-47.3	-49.2	17.9	0.00e+00	0	36	0	601882624	65	4669
2026-01-18 06:59:29.20	35.59	28.44	-47.3	-49.2	17.9	0.00e+00	0	36	0	609222656	66	4394
2026-01-18 06:59:33.23	34.30	28.57	-47.6	-49.6	17.5	0.00e+00	0	36	0	616562688	66	4604
2026-01-18 06:59:37.26	32.99	28.68	-47.2	-49.1	18.0	0.00e+00	0	36	0	623902720	65	4615
2026-01-18 06:59:41.29	31.68	28.78	-47.7	-49.8	17.3	0.00e+00	0	36	0	631242752	66	4714
2026-01-18 06:59:45.32	30.36	28.86	-47.3	-49.2	17.7	0.00e+00	0	36	0	639631360	66	4407
2026-01-18 06:59:49.35	29.03	28.92	-48.3	-50.8	16.2	0.00e+00	0	36	0	646971392	67	5021
2026-01-18 06:59:53.38	27.70	28.96	-47.1	-49.0	18.0	0.00e+00	0	36	0	654311424	66	4304
2026-01-18 06:59:57.41	26.36	28.99	-46.4	-48.0	19.0	0.00e+00	0	36	0	661651456	64	4308
2026-01-18 07:00:01.44	25.03	29.00	-47.0	-48.8	18.3	0.00e+00	0	36	0	670040064	64	4724
2026-01-18 07:00:05.48	23.69	28.99	-47.1	-48.9	18.2	0.00e+00	0	36	0	677380096	65	4499
2026-01-18 07:00:09.51	22.35	28.97	-46.8	-48.5	18.6	0.00e+00	0	36	0	684720128	65	4332
2026-01-18 07:00:13.54	21.02	28.93	-47.5	-49.4	17.6	0.00e+00	0	36	0	692060160	65	4809
2026-01-18 07:00:17.57	19.70	28.87	-46.8	-48.5	18.5	0.00e+00	0	36	0	699400192	65	4326
2026-01-18 07:00:21.60	18.37	28.79	-46.9	-48.6	18.5	0.00e+00	0	36	0	707788800	65	4373
2026-01-18 07:00:25.64	17.06	28.70	-46.1	-47.6	19.3	0.00e+00	0	36	0	715128832	64	4132
2026-01-18 07:00:29.67	15.75	28.59	-45.8	-47.2	19.9	0.00e+00	0	36	0	722468864	63	4169
2026-01-18 07:00:33.70	14.45	28.46	-46.5	-48.1	19.0	0.00e+00	0	36	0	729808896	63	4619
2026-01-18 07:00:37.73	13.17	28.32	-46.5	-48.1	18.9	0.00e+00	0	36	0	738197504	64	4353
2026-01-18 07:00:41.76	11.89	28.17	-47.0	-48.7	18.4	0.00e+00	0	36	0	745537536	64	4698
2026-01-18 07:00:45.79	10.63	28.00	-45.6	-46.9	20.1	0.00e+00	0	36	0	752877568	63	4049
2026-01-18 07:00:49.82	9.39	27.81	-46.7	-48.3	18.8	0.00e+00	0	36	0	760217600	64	4445
2026-01-18 07:00:53.85	8.16	27.61	-46.3	-47.8	19.4	0.00e+00	0	36	0	767557632	63	4451
2026-01-18 07:00:57.89	6.94	27.40	-46.8	-48.4	18.6	0.00e+00	0	36	0	774897664	64	4539
2026-01-18 07:01:01.92	5.74	27.18	-47.6	-49.5	17.6	0.00e+00	0	36	0	783286272	65	4861
2026-01-18 07:01:05.95	4.56	26.94	-48.2	-50.4	16.7	0.00e+00	0	36	0	790626304	67	4797
2026-01-18 07:01:09.98	3.39	26.69	-48.6	-51.0	16.1	0.00e+00	0	36	0	797966336	68	4858
2026-01-18 07:01:14.01	2.25	26.44	-47.3	-49.2	17.8	0.00e+00	0	36	0	805306368	66	4401
2026-01-18 07:01:18.04	1.12	26.17	-46.1	-47.6	19.3	0.00e+00	0	36	0	813694976	64	4131
2026-01-18 07:01:22.07	0.02	25.89	-45.8	-47.2	19.7	0.00e+00	0	36	0	821035008	63	4161
2026-01-18 07:01:26.10	358.93	25.61	-46.8	-48.5	18.4	0.00e+00	0	36	0	828375040	64	4582
2026-01-18 07:01:30.14	357.86	25.31	-47.0	-48.9	18.1	0.00e+00	0	36	0	835715072	64	4764
2026-01-18 07:01:34.17	356.81	25.01	-47.4	-49.4	17.6	0.00e+00	0	36	0	843055104	65	4809
2026-01-18 07:01:38.20	355.79	24.71	-47.6	-49.7	17.1	0.00e+00	0	36	0	851443712	66	4675
2026-01-18 07:01:42.23	354.78	24.39	-46.6	-48.3	18.6	0.00e+00	0	36	0	858783744	65	4213
2026-01-18 07:01:46.27	353.79	24.07	-45.9	-47.4	19.5	0.00e+00	0	36	0	866123776	63	4277
2026-01-18 07:01:50.30	352.82	23.75	-45.7	-47.2	19.8	0.00e+00	0	36	0	873463808	63	4154
2026-01-18 07:01:54.33	351.88	23.42	-45.6	-47.1	19.9	0.00e+00	0	36	0	880803840	63	4100
2026-01-18 07:01:58.36	350.95	23.09	-44.5	-45.7	21.1	0.00e+00	0	36	0	889192448	61	3921
2026-01-18 07:02:02.39	350.05	22.75	-45.1	-46.4	20.4	0.00e+00	0	36	0	896532480	60	4499
2026-01-18 07:02:06.42	349.16	22.41	-46.0	-47.6	19.4	0.00e+00	0	36	0	903872512	62	4606
2026-01-18 07:02:10.45	348.29	22.07	-45.7	-47.1	19.8	0.00e+00	0	36	0	911212544	63	4116
2026-01-18 07:02:14.49	347.44	21.72	-45.5	-47.0	19.9	0.00e+00	0	36	0	918552576	63	4053
2026-01-18 07:02:18.52	346.62	21.38	-44.3	-45.5	21.2	0.00e+00	0	36	0	926941184	60	4055
2026-01-18 07:02:22.55	345.81	21.03	-44.5	-45.7	21.3	0.00e+00	0	36	0	934281216	59	4417
2026-01-18 07:02:26.58	345.02	20.68	-44.8	-46.1	20.7	0.00e+00	0	36	0	941621248	60	4347
2026-01-18 07:02:30.62	344.24	20.33	-44.8	-46.1	20.7	0.00e+00	0	36	0	948961280	60	4341
2026-01-18 07:02:34.65	343.48	19.98	-44.9	-46.2	20.6	0.00e+00	0	36	0	957349888	60	4412
2026-01-18 07:02:38.68	342.75	19.63	-45.2	-46.5	20.3	0.00e+00	0	36	0	964689920	61	4336
2026-01-18 07:02:42.71	342.02	19.28	-44.7	-45.9	20.8	0.00e+00	0	36	0	972029952	61	4029
2026-01-18 07:02:46.74	341.32	18.93	-44.4	-45.6	21.1	0.00e+00	0	36	0	979369984	60	4125
2026-01-18 07:02:50.77	340.63	18.58	-45.6	-47.1	19.8	0.00e+00	0	36	0	986710016	61	4599
2026-01-18 07:02:54.80	339.96	18.23	-46.0	-47.4	19.4	0.00e+00	0	36	0	995098624	62	4541
2026-01-18 07:02:58.84	339.30	17.88	-45.2	-46.5	20.3	0.00e+00	0	36	0	1002438656	62	4073
2026-01-18 07:03:02.87	338.66	17.53	-45.6	-47.1	19.8	0.00e+00	0	36	0	1009778688	62	4349
2026-01-18 07:03:06.90	338.03	17.18	-46.6	-48.3	18.6	0.00e+00	0	36	0	1017118720	63	4725
2026-01-18 07:03:10.93	337.42	16.84	-46.8	-48.6	18.3	0.00e+00	0	36	0	1024458752	64	4600
2026-01-18 07:03:14.96	336.82	16.50	-46.1	-47.6	19.3	0.00e+00	0	36	0	1032847360	63	4372
2026-01-18 07:03:18.99	336.24	16.16	-46.4	-48.0	18.9	0.00e+00	0	36	0	1040187392	63	4578
2026-01-18 07:03:23.02	335.67	15.82	-46.6	-48.3	18.5	0.00e+00	0	36	0	1047527424	64	4457
2026-01-18 07:03:27.05	335.11	15.48	-46.1	-47.7	19.0	0.00e+00	0	36	0	1054867456	64	4166
2026-01-18 07:03:31.09	334.56	15.14	-45.6	-47.0	19.7	0.00e+00	0	36	0	1062207488	62	4324
2026-01-18 07:03:35.12	334.03	14.81	-45.6	-47.0	19.8	0.00e+00	0	36	0	1070596096	62	4295
2026-01-18 07:03:39.15	333.51	14.48	-46.1	-47.6	19.1	0.00e+00	0	36	0	1077936128	63	4364
2026-01-18 07:03:43.18	333.00	14.15	-46.2	-47.8	19.0	0.00e+00	0	36	0	1085276160	63	4460
2026-01-18 07:03:47.21	332.50	13.82	-46.1	-47.7	19.1	0.00e+00	0	36	0	1092616192	63	4397
2026-01-18 07:03:51.24	332.02	13.49	-46.6	-48.4	18.3	0.00e+00	0	36	0	1101004800	64	4510
2026-01-18 07:03:55.27	331.54	13.17	-47.5	-49.5	17.2	0.00e+00	0	36	0	1108344832	65	4845
2026-01-18 07:03:59.31	331.08	12.85	-47.1	-49.0	17.7	0.00e+00	0	36	0	1115684864	65	4589
2026-01-18 07:04:03.34	330.62	12.53	-46.1	-47.6	19.0	0.00e+00	0	36	0	1123024896	64	4140
2026-01-18 07:04:07.37	330.18	12.21	-46.1	-47.6	19.0	0.00e+00	0	36	0	1130364928	63	4390
2026-01-18 07:04:11.40	329.74	11.90	-47.0	-48.9	17.7	0.00e+00	0	36	0	1138753536	64	4797
2026-01-18 07:04:15.43	329.32	11.59	-47.9	-50.2	16.5	0.00e+00	0	36	0	1146093568	66	4944
2026-01-18 07:04:19.47	328.90	11.28	-47.9	-50.2	16.5	0.00e+00	0	36	0	1153433600	67	4683
2026-01-18 07:04:23.50	328.49	10.97	-47.8	-50.0	16.7	0.00e+00	0	36	0	1160773632	67	4578
2026-01-18 07:04:27.53	328.09	10.67	-47.9	-50.1	16.5	0.00e+00	0	36	0	1168113664	67	4620
2026-01-18 07:04:31.56	327.70	10.37	-47.7	-49.9	16.7	0.00e+00	0	36	0	1176502272	67	4524
2026-01-18 07:04:35.59	327.32	10.07	-48.1	-50.5	16.1	0.00e+00	0	36	0	1183842304	67	4862
2026-01-18 07:04:39.61	326.95	9.77	-48.2	-50.6	16.0	0.00e+00	0	36	0	1191182336	67	4885
2026-01-18 07:04:43.65	326.58	9.48	-47.7	-49.9	16.6	0.00e+00	0	36	0	1198522368	67	4504
2026-01-18 07:04:47.68	326.22	9.18	-46.8	-48.7	17.7	0.00e+00	0	36	0	1205862400	65	4408
2026-01-18 07:04:51.71	325.87	8.89	-46.6	-48.4	18.0	0.00e+00	0	36	0	1214251008	65	4253
2026-01-18 07:04:55.74	325.53	8.60	-46.9	-48.7	17.7	0.00e+00	0	36	0	1221591040	65	4434
2026-01-18 07:04:59.77	325.19	8.32	-47.4	-49.5	16.9	0.00e+00	0	36	0	1228931072	65	4849
2026-01-18 07:05:03.79	324.86	8.04	-48.2	-50.6	15.8	0.00e+00	0	36	0	1236271104	67	4892
2026-01-18 07:05:07.82	324.54	7.76	-48.6	-51.3	15.2	0.00e+00	0	36	0	1243611136	67	5291
2026-01-18 07:05:11.85	324.22	7.48	-48.5	-51.1	15.3	0.00e+00	0	36	0	1251999744	67	5204
2026-01-18 07:05:15.88	323.91	7.20	-48.4	-51.1	15.2	7.00e-07	0	36	0	1259339776	67	5189
2026-01-18 07:05:19.91	323.60	6.93	-48.4	-51.1	15.2	0.00e+00	0	36	0	1266679808	67	5206
2026-01-18 07:05:23.94	323.31	6.65	-48.3	-50.9	15.4	0.00e+00	0	36	0	1274019840	67	5048
2026-01-18 07:05:27.97	323.01	6.38	-48.2	-50.7	15.5	0.00e+00	0	36	0	1281359872	67	4976
2026-01-18 07:05:32.00	322.72	6.11	-48.3	-51.0	15.3	0.00e+00	0	36	0	1289748480	67	5112
2026-01-18 07:05:36.03	322.44	5.85	-48.7	-51.6	14.6	0.00e+00	0	36	0	1297088512	67	5477
2026-01-18 07:05:40.07	322.17	5.58	-48.9	-52.0	14.3	0.00e+00	0	36	0	1304428544	68	5404
2026-01-18 07:05:44.10	321.89	5.32	-49.3	-52.7	13.5	6.10e-06	0	36	0	1311768576	69	5570
2026-01-18 07:05:48.13	321.63	5.06	-49.1	-52.4	13.7	3.80e-06	0	36	0	1320157184	69	5350
2026-01-18 07:05:52.16	321.37	4.80	-53.0	-68.0	3.8	1.49e+00	0	36	104	1323302912	76	21669
2026-01-18 07:05:56.20	321.11	4.55	-53.6	-68.6	3.8	1.49e+00	0	36	104	1323302912	77	21841
2026-01-18 07:06:00.23	320.86	4.29	-53.9	-68.9	3.8	1.49e+00	0	36	104	1323302912	78	21351
2026-01-18 07:06:04.27	320.61	4.04	-54.1	-69.1	3.8	1.49e+00	0	36	104	1323302912	78	21758
2026-01-18 07:06:08.29	320.37	3.79	-54.1	-69.1	3.8	1.49e+00	0	36	104	1323302912	78	21958
2026-01-18 07:06:12.33	320.13	3.54	-54.0	-69.0	3.8	1.49e+00	0	36	104	1323302912	78	21737
2026-01-18 07:06:16.36	319.89	3.29	-54.0	-69.0	3.8	1.49e+00	0	36	104	1323302912	78	21677
2026-01-18 07:06:20.39	319.66	3.04	-54.0	-69.0	3.8	1.49e+00	0	36	104	1323302912	78	21618
2026-01-18 07:06:24.43	319.44	2.80	-54.0	-69.0	3.8	1.49e+00	0	36	104	1323302912	78	21593
2026-01-18 07:06:28.46	319.22	2.56	-54.0	-69.0	3.8	1.49e+00	0	36	104	1323302912	78	21509
2026-01-18 07:06:32.49	319.00	2.32	-53.9	-69.0	3.8	1.49e+00	0	36	104	1323302912	78	21574
2026-01-18 07:06:36.53	318.78	2.08	-53.9	-69.0	3.8	1.49e+00	0	36	104	1323302912	78	21540
2026-01-18 07:06:40.56	318.57	1.84	-53.9	-68.9	3.8	1.49e+00	0	36	104	1323302912	78	21482

#Closed at: 2026-01-18 07:06:40
#Recorded file [1323 MB]: D:/lorett/data/31041_260118_095326.dat