passes_logs/2026/01/18/R3.2S_Murmansk/R3.2S_Murmansk__20260118_062525_KANOPUS-V_5_rec.log

#Pass ID: 20260118_062525_KANOPUS-V 5
#Satellite: KANOPUS-V 5
#Configuration: KANOPUS-V_8320
#almurnet v.1.7.20251203
#Start time: 2026-01-18 06:25:27

#Version: 2.2.20231116
#Station: R3.2S_Murmansk
#Location: 33.079688 lon 68.888172 lat
#TLE: 1 43876U 18111A   26017.66658644  .00002803  00000+0  12058-3 0  9992
#TLE: 2 43876  97.3688 286.1324 0001777  87.2776 272.8665 15.23451717391876

#Time	Az	El	Level	Level2	SNR	BER	BlckErr	Temp	State	Recorded	gain1	gain2
2026-01-18 06:25:27.16	122.72	2.14	-52.7	-61.6	3.8	7.44e-01	0	34	0	0	76	10368
2026-01-18 06:25:30.17	122.56	2.34	-52.8	-61.6	3.8	7.46e-01	0	34	104	0	76	10373
2026-01-18 06:25:33.20	122.39	2.55	-52.8	-61.6	3.8	7.44e-01	0	34	104	0	76	10363
2026-01-18 06:25:36.22	122.23	2.76	-52.8	-61.6	3.8	7.46e-01	0	34	104	0	76	10381
2026-01-18 06:25:39.24	122.06	2.97	-52.8	-61.6	3.8	7.46e-01	0	34	104	0	76	10361
2026-01-18 06:25:42.26	121.88	3.18	-52.8	-61.6	3.8	7.46e-01	0	34	104	0	76	10358
2026-01-18 06:25:45.29	121.70	3.40	-52.7	-61.6	3.8	7.46e-01	0	34	104	0	76	10384
2026-01-18 06:25:48.31	121.52	3.62	-52.7	-61.6	3.8	7.46e-01	0	34	104	0	76	10382
2026-01-18 06:25:51.34	121.34	3.84	-52.7	-61.6	3.8	7.44e-01	0	34	104	0	76	10348
2026-01-18 06:25:54.36	121.15	4.06	-52.7	-61.6	3.8	7.45e-01	0	34	104	0	76	10363
2026-01-18 06:25:57.38	120.96	4.28	-52.8	-61.6	3.8	7.45e-01	0	35	104	0	76	10361
2026-01-18 06:26:00.40	120.76	4.51	-52.8	-61.6	3.8	7.45e-01	0	35	104	0	76	10302
2026-01-18 06:26:03.43	120.56	4.74	-52.7	-61.6	3.8	7.44e-01	0	35	104	0	76	10338
2026-01-18 06:26:06.45	120.35	4.97	-52.7	-61.6	3.8	7.45e-01	0	35	104	0	76	10322
2026-01-18 06:26:09.48	120.14	5.20	-52.9	-61.7	3.8	7.45e-01	0	35	104	0	76	10504
2026-01-18 06:26:12.50	119.93	5.44	-52.9	-61.7	3.8	7.46e-01	0	35	104	0	76	10524
2026-01-18 06:26:15.52	119.71	5.67	-53.0	-61.8	3.8	7.45e-01	0	35	104	0	76	10608
2026-01-18 06:26:18.54	119.49	5.91	-52.9	-61.8	3.8	7.46e-01	0	35	104	0	76	10612
2026-01-18 06:26:21.57	119.26	6.16	-53.0	-61.9	3.8	7.45e-01	0	35	104	0	76	10681
2026-01-18 06:26:24.59	119.03	6.40	-53.1	-62.0	3.8	7.45e-01	0	35	104	0	76	10779
2026-01-18 06:26:27.61	118.79	6.65	-53.1	-62.0	3.8	7.45e-01	0	35	104	0	76	10787
2026-01-18 06:26:30.63	118.55	6.91	-53.2	-62.0	3.8	7.45e-01	0	35	104	0	77	10284
2026-01-18 06:26:33.66	118.30	7.16	-53.2	-62.0	3.8	7.44e-01	0	35	104	0	77	10257
2026-01-18 06:26:36.68	118.04	7.42	-53.3	-62.1	3.8	7.45e-01	0	35	104	0	77	10406
2026-01-18 06:26:39.70	117.78	7.68	-53.3	-62.2	3.8	7.46e-01	0	35	104	0	77	10435
2026-01-18 06:26:42.72	117.51	7.94	-53.4	-62.2	3.8	7.46e-01	0	35	104	0	77	10519
2026-01-18 06:26:45.75	117.24	8.21	-53.3	-62.2	3.8	7.45e-01	0	35	104	0	77	10447
2026-01-18 06:26:48.77	116.96	8.48	-53.5	-62.4	3.8	7.45e-01	0	35	104	0	77	10680
2026-01-18 06:26:51.80	116.67	8.76	-53.5	-62.4	3.8	7.46e-01	0	35	104	0	77	10659
2026-01-18 06:26:54.82	116.38	9.03	-53.5	-62.4	3.8	7.46e-01	0	35	104	0	77	10703
2026-01-18 06:26:57.84	116.07	9.31	-53.5	-62.3	3.8	7.45e-01	0	35	104	0	77	10584
2026-01-18 06:27:00.87	115.76	9.60	-53.6	-62.4	3.8	7.46e-01	0	35	104	0	77	10709
2026-01-18 06:27:03.89	115.45	9.89	-53.6	-62.4	3.8	7.44e-01	0	35	104	0	77	10762
2026-01-18 06:27:06.91	115.12	10.18	-53.7	-62.5	3.8	7.45e-01	0	35	104	0	77	10865
2026-01-18 06:27:09.94	114.79	10.48	-53.6	-62.5	3.8	7.43e-01	0	35	104	0	78	10202
2026-01-18 06:27:12.96	114.45	10.78	-53.8	-62.6	3.8	7.43e-01	0	35	104	0	78	10317
2026-01-18 06:27:15.98	114.10	11.08	-53.7	-62.6	3.8	7.44e-01	0	35	104	0	78	10348
2026-01-18 06:27:19.01	113.73	11.39	-53.8	-62.6	3.8	7.45e-01	0	35	104	0	78	10360
2026-01-18 06:27:22.03	113.36	11.70	-53.7	-62.6	3.8	7.46e-01	0	36	104	0	78	10298
2026-01-18 06:27:25.06	112.98	12.02	-53.8	-62.6	3.8	7.46e-01	0	36	104	0	78	10387
2026-01-18 06:27:28.08	112.59	12.34	-53.8	-62.6	3.8	7.46e-01	0	35	104	0	78	10397
2026-01-18 06:27:31.11	112.19	12.67	-53.8	-62.7	3.8	7.45e-01	0	35	104	0	78	10433
2026-01-18 06:27:34.13	111.78	13.00	-53.8	-62.7	3.8	7.44e-01	0	35	104	0	78	10440
2026-01-18 06:27:37.15	111.36	13.33	-53.9	-62.7	3.8	7.46e-01	0	35	104	0	78	10462
2026-01-18 06:27:40.17	110.92	13.67	-53.8	-62.7	3.8	7.46e-01	0	36	104	0	78	10464
2026-01-18 06:27:43.20	110.47	14.02	-50.4	-53.7	7.4	6.58e-01	0	36	104	0	72	5274
2026-01-18 06:27:46.22	110.01	14.37	-49.5	-52.7	8.9	6.34e-01	0	36	0	41943040	70	5253
2026-01-18 06:27:49.25	109.53	14.72	-45.0	-47.0	14.3	6.09e-01	0	36	0	88080384	62	4310
2026-01-18 06:27:52.27	109.04	15.08	-42.5	-44.3	16.4	6.08e-01	0	35	0	134217728	57	4215
2026-01-18 06:27:55.29	108.54	15.44	-42.3	-44.1	16.6	6.07e-01	0	35	0	180355072	56	4367
2026-01-18 06:27:58.31	108.02	15.81	-42.4	-44.2	16.5	6.07e-01	0	36	0	226492416	56	4417
2026-01-18 06:28:01.34	107.49	16.19	-42.4	-44.2	16.5	6.07e-01	0	35	0	272629760	56	4435
2026-01-18 06:28:04.36	106.94	16.57	-42.5	-44.5	16.3	5.80e-01	0	36	0	320864256	56	4571
2026-01-18 06:28:07.39	106.37	16.96	-42.3	-44.2	16.6	5.79e-01	0	35	0	367001600	56	4437
2026-01-18 06:28:10.41	105.78	17.35	-42.1	-44.1	16.7	5.80e-01	0	36	0	413138944	56	4385
2026-01-18 06:28:13.43	105.18	17.74	-42.1	-44.1	16.9	5.81e-01	0	36	0	459276288	55	4617
2026-01-18 06:28:16.46	104.55	18.15	-42.1	-44.1	16.9	5.80e-01	0	36	0	505413632	55	4624
2026-01-18 06:28:19.49	103.91	18.56	-41.7	-43.7	17.2	5.80e-01	0	36	0	551550976	55	4394
2026-01-18 06:28:22.51	103.25	18.97	-41.7	-43.6	17.2	5.79e-01	0	36	0	597688320	55	4375
2026-01-18 06:28:25.53	102.56	19.39	-41.6	-43.5	17.3	5.80e-01	0	36	0	643825664	55	4325
2026-01-18 06:28:28.56	101.85	19.81	-41.5	-43.4	17.4	5.80e-01	0	36	0	689963008	55	4275
2026-01-18 06:28:31.58	101.12	20.24	-41.5	-43.3	17.4	5.99e-01	0	36	0	738197504	54	4492
2026-01-18 06:28:34.60	100.37	20.67	-41.4	-43.2	17.5	6.00e-01	0	36	0	784334848	54	4418
2026-01-18 06:28:37.63	99.59	21.11	-41.1	-42.9	17.7	6.01e-01	0	36	0	830472192	54	4274
2026-01-18 06:28:40.65	98.79	21.55	-41.1	-42.9	17.8	6.02e-01	0	36	0	876609536	54	4244
2026-01-18 06:28:43.67	97.95	21.99	-41.2	-43.1	17.6	6.01e-01	0	36	0	924844032	54	4377
2026-01-18 06:28:46.70	97.09	22.44	-41.3	-43.3	17.5	6.03e-01	0	36	0	970981376	54	4469
2026-01-18 06:28:49.72	96.21	22.90	-41.4	-43.4	17.4	6.01e-01	0	36	0	1017118720	54	4524
2026-01-18 06:28:52.75	95.28	23.35	-41.4	-43.2	17.5	6.01e-01	0	35	0	1063256064	54	4408
2026-01-18 06:28:55.77	94.34	23.81	-41.1	-42.9	17.7	6.05e-01	0	36	0	1109393408	54	4290
2026-01-18 06:28:58.79	93.36	24.27	-41.0	-42.8	17.8	6.02e-01	0	36	0	1155530752	54	4225
2026-01-18 06:29:01.81	92.34	24.73	-40.8	-42.6	18.0	6.03e-01	0	36	0	1201668096	53	4344
2026-01-18 06:29:04.84	91.29	25.19	-41.0	-42.8	17.8	6.03e-01	0	36	0	1247805440	53	4471
2026-01-18 06:29:07.86	90.21	25.66	-41.1	-43.0	17.7	6.04e-01	0	36	0	1296039936	53	4569
2026-01-18 06:29:10.89	89.09	26.12	-41.1	-43.0	17.7	6.05e-01	0	36	0	1342177280	53	4560
2026-01-18 06:29:13.91	87.94	26.58	-41.1	-42.9	17.8	6.04e-01	0	36	0	1388314624	53	4528
2026-01-18 06:29:16.93	86.75	27.04	-41.2	-43.1	17.7	6.01e-01	0	36	0	1434451968	53	4623
2026-01-18 06:29:19.96	85.51	27.49	-41.4	-43.4	17.5	6.04e-01	0	36	0	1480589312	53	4778
2026-01-18 06:29:22.98	84.24	27.94	-41.5	-43.4	17.4	6.04e-01	0	36	0	1528823808	53	4780
2026-01-18 06:29:26.00	82.94	28.38	-41.5	-43.4	17.4	6.04e-01	0	36	0	1574961152	53	4778
2026-01-18 06:29:29.03	81.58	28.81	-41.7	-43.7	17.2	6.01e-01	0	36	0	1621098496	53	4932
2026-01-18 06:29:32.05	80.20	29.24	-41.8	-43.8	17.2	6.03e-01	0	36	0	1665138688	54	4722
2026-01-18 06:29:35.08	78.77	29.65	-41.5	-43.5	17.3	6.05e-01	0	36	0	1713373184	54	4574
2026-01-18 06:29:38.10	77.30	30.06	-41.8	-43.8	17.2	6.04e-01	0	36	0	1759510528	54	4718
2026-01-18 06:29:41.13	75.79	30.45	-41.6	-43.4	17.5	6.04e-01	0	36	0	1805647872	54	4524
2026-01-18 06:29:44.15	74.24	30.82	-41.6	-43.5	17.4	6.04e-01	0	36	0	1851785216	54	4566
2026-01-18 06:29:47.17	72.65	31.18	-41.7	-43.8	17.2	6.05e-01	0	36	0	1900019712	54	4718
2026-01-18 06:29:50.20	71.03	31.51	-41.8	-43.9	17.1	6.04e-01	0	36	0	1946157056	54	4781
2026-01-18 06:29:53.22	69.37	31.83	-41.7	-43.8	17.2	6.03e-01	0	36	0	1992294400	54	4706
2026-01-18 06:29:56.24	67.68	32.13	-42.3	-44.5	16.6	6.04e-01	0	36	0	2038431744	55	4855
2026-01-18 06:29:59.27	65.95	32.40	-41.9	-44.0	17.1	6.03e-01	0	36	0	2084569088	55	4565
2026-01-18 06:30:02.29	64.20	32.64	-42.2	-44.5	16.7	6.03e-01	0	36	0	2130706432	55	4859
2026-01-18 06:30:05.31	62.42	32.86	-42.3	-44.6	16.5	6.04e-01	0	36	0	2176843776	55	4923
2026-01-18 06:30:08.34	60.60	33.05	-41.9	-44.3	16.9	6.04e-01	0	36	0	2222981120	55	4732
2026-01-18 06:30:11.36	58.78	33.21	-42.2	-44.6	16.6	6.04e-01	0	36	0	2271215616	55	4881
2026-01-18 06:30:14.38	56.94	33.34	-41.9	-44.1	16.9	6.05e-01	0	36	0	2317352960	55	4649
2026-01-18 06:30:17.41	55.07	33.44	-42.0	-44.3	16.8	6.05e-01	0	36	0	2363490304	55	4752
2026-01-18 06:30:20.43	53.21	33.51	-42.0	-44.3	16.8	6.04e-01	0	36	0	2409627648	55	4742
2026-01-18 06:30:23.46	51.33	33.54	-42.2	-44.6	16.6	6.04e-01	0	36	0	2455764992	55	4874
2026-01-18 06:30:26.48	49.45	33.55	-41.9	-44.1	17.1	6.04e-01	0	36	0	2503999488	55	4603
2026-01-18 06:30:29.51	47.57	33.51	-42.2	-44.6	16.6	6.05e-01	0	36	0	2550136832	55	4917
2026-01-18 06:30:32.54	45.70	33.45	-42.1	-44.5	16.7	6.05e-01	0	36	0	2596274176	55	4823
2026-01-18 06:30:35.56	43.84	33.36	-42.3	-44.7	16.5	6.04e-01	0	36	0	2642411520	55	4950
2026-01-18 06:30:38.58	42.00	33.23	-42.4	-44.8	16.5	6.04e-01	0	36	0	2688548864	55	4992
2026-01-18 06:30:41.60	40.17	33.07	-42.6	-45.2	16.2	6.03e-01	0	36	0	2734686208	55	5219
2026-01-18 06:30:44.63	38.36	32.88	-42.4	-44.8	16.4	6.04e-01	0	36	0	2780823552	55	5009
2026-01-18 06:30:47.65	36.58	32.67	-42.7	-45.0	16.2	6.04e-01	0	36	0	2826960896	55	5157
2026-01-18 06:30:50.67	34.83	32.42	-42.3	-44.3	16.7	6.04e-01	0	36	0	2875195392	56	4470
2026-01-18 06:30:53.70	33.10	32.16	-42.6	-44.8	16.3	6.02e-01	0	36	0	2921332736	56	4732
2026-01-18 06:30:56.72	31.41	31.86	-42.7	-45.0	16.2	6.02e-01	0	36	0	2967470080	56	4817
2026-01-18 06:30:59.74	29.75	31.55	-42.4	-44.5	16.5	6.03e-01	0	36	0	3013607424	56	4578
2026-01-18 06:31:02.77	28.12	31.21	-42.4	-44.4	16.6	6.03e-01	0	36	0	3061841920	56	4537
2026-01-18 06:31:05.79	26.54	30.86	-42.6	-44.8	16.3	6.04e-01	0	36	0	3105882112	56	4729
2026-01-18 06:31:08.82	24.98	30.49	-42.4	-44.6	16.5	6.03e-01	0	36	0	3152019456	56	4635
2026-01-18 06:31:11.84	23.48	30.10	-42.4	-44.5	16.5	6.04e-01	0	36	0	3198156800	56	4583
2026-01-18 06:31:14.86	22.01	29.70	-42.5	-44.4	16.6	6.03e-01	0	36	0	3246391296	56	4543
2026-01-18 06:31:17.88	20.58	29.29	-42.5	-44.5	16.6	6.04e-01	0	36	0	3292528640	56	4549
2026-01-18 06:31:20.91	19.19	28.87	-42.4	-44.5	16.6	6.03e-01	0	36	0	3338665984	56	4547
2026-01-18 06:31:23.93	17.84	28.44	-42.6	-44.5	16.6	6.03e-01	0	36	0	3384803328	56	4546
2026-01-18 06:31:26.96	16.53	28.00	-42.5	-44.5	16.5	6.05e-01	0	36	0	3430940672	56	4575
2026-01-18 06:31:29.98	15.26	27.55	-42.5	-44.6	16.4	6.04e-01	0	36	0	3479175168	56	4633
2026-01-18 06:31:33.00	14.03	27.10	-42.4	-44.4	16.6	6.05e-01	0	36	0	3525312512	56	4497
2026-01-18 06:31:36.02	12.84	26.65	-42.4	-44.4	16.5	6.04e-01	0	36	0	3571449856	56	4539
2026-01-18 06:31:39.05	11.68	26.19	-42.3	-44.3	16.6	6.03e-01	0	36	0	3617587200	56	4464
2026-01-18 06:31:42.07	10.56	25.73	-42.1	-44.1	16.9	6.06e-01	0	36	0	3663724544	56	4343
2026-01-18 06:31:45.10	9.47	25.27	-42.2	-44.2	16.7	6.05e-01	0	36	0	3709861888	56	4430
2026-01-18 06:31:48.12	8.43	24.81	-42.1	-44.2	16.7	6.05e-01	0	36	0	3755999232	56	4404
2026-01-18 06:31:51.14	7.41	24.35	-42.0	-44.0	17.0	6.05e-01	0	36	0	3802136576	55	4551
2026-01-18 06:31:54.17	6.43	23.89	-42.0	-43.9	17.0	6.04e-01	0	36	0	3850371072	55	4523
2026-01-18 06:31:57.20	5.48	23.43	-42.1	-44.1	16.9	6.04e-01	0	36	0	3896508416	55	4647
2026-01-18 06:32:00.22	4.56	22.97	-42.0	-44.0	17.0	6.04e-01	0	36	0	3942645760	55	4563
2026-01-18 06:32:03.24	3.67	22.52	-42.0	-44.0	16.9	6.04e-01	0	36	0	3988783104	55	4582
2026-01-18 06:32:06.27	2.81	22.07	-42.1	-44.2	16.8	6.04e-01	0	36	0	4037017600	55	4698
2026-01-18 06:32:09.29	1.98	21.63	-42.2	-44.3	16.8	6.02e-01	0	36	0	4083154944	55	4740
2026-01-18 06:32:12.32	1.17	21.19	-42.3	-44.4	16.6	6.05e-01	0	36	0	4129292288	55	4811
2026-01-18 06:32:15.34	0.40	20.75	-42.4	-44.5	16.5	6.04e-01	0	36	0	4175429632	55	4829
2026-01-18 06:32:18.37	359.64	20.32	-42.3	-44.4	16.6	6.06e-01	0	36	0	4221566976	55	4802
2026-01-18 06:32:21.39	358.91	19.90	-42.3	-44.5	16.5	6.05e-01	0	36	0	4267704320	55	4850
2026-01-18 06:32:24.41	358.20	19.47	-42.3	-44.5	16.5	6.05e-01	0	36	0	4313841664	55	4854
2026-01-18 06:32:27.43	357.52	19.06	-42.4	-44.6	16.4	6.06e-01	0	36	0	4359979008	55	4883
2026-01-18 06:32:30.46	356.86	18.65	-42.5	-44.6	16.4	6.04e-01	0	36	0	4406116352	55	4914
2026-01-18 06:32:33.48	356.21	18.24	-42.6	-44.7	16.3	6.05e-01	0	36	0	4454350848	55	4983
2026-01-18 06:32:36.51	355.59	17.84	-42.6	-44.7	16.1	6.03e-01	0	36	0	4500488192	56	4696
2026-01-18 06:32:39.53	354.99	17.44	-42.6	-44.8	16.1	6.00e-01	0	36	0	4546625536	56	4740
2026-01-18 06:32:42.55	354.40	17.05	-42.7	-44.9	16.1	5.78e-01	0	36	0	4592762880	56	4781
2026-01-18 06:32:45.58	353.83	16.67	-42.8	-45.0	16.0	5.80e-01	0	36	0	4638900224	56	4836
2026-01-18 06:32:48.60	353.28	16.29	-42.8	-45.1	15.9	5.79e-01	0	36	0	4685037568	56	4874
2026-01-18 06:32:51.62	352.75	15.91	-44.5	-45.4	15.7	5.80e-01	0	36	0	4731174912	59	4284
2026-01-18 06:32:54.64	352.23	15.54	-53.9	-62.8	3.8	7.46e-01	0	36	104	4752146432	78	10599
2026-01-18 06:32:57.67	351.73	15.18	-53.9	-62.7	3.8	7.43e-01	0	36	104	4752146432	78	10493
2026-01-18 06:33:00.69	351.24	14.82	-53.9	-62.7	3.8	7.46e-01	0	36	104	4752146432	78	10503
2026-01-18 06:33:03.72	350.76	14.47	-53.9	-62.7	3.8	7.45e-01	0	36	104	4752146432	78	10500
2026-01-18 06:33:06.74	350.30	14.12	-53.9	-62.7	3.8	7.46e-01	0	36	104	4752146432	78	10467
2026-01-18 06:33:09.77	349.85	13.77	-53.8	-62.7	3.8	7.45e-01	0	36	104	4752146432	78	10443
2026-01-18 06:33:12.79	349.42	13.43	-53.8	-62.6	3.8	7.45e-01	0	36	104	4752146432	78	10351
2026-01-18 06:33:15.81	348.99	13.10	-53.8	-62.7	3.8	7.47e-01	0	36	104	4752146432	78	10420
2026-01-18 06:33:18.84	348.58	12.77	-53.8	-62.6	3.8	7.45e-01	0	36	104	4752146432	78	10346
2026-01-18 06:33:21.86	348.18	12.44	-53.7	-62.5	3.8	7.45e-01	0	36	104	4752146432	78	10266
2026-01-18 06:33:24.88	347.79	12.12	-53.7	-62.5	3.8	7.44e-01	0	36	104	4752146432	78	10243
2026-01-18 06:33:27.90	347.41	11.81	-53.7	-62.5	3.8	7.45e-01	0	36	104	4752146432	78	10260
2026-01-18 06:33:30.93	347.04	11.49	-53.7	-62.5	3.8	7.45e-01	0	36	104	4752146432	78	10209
2026-01-18 06:33:33.95	346.68	11.19	-53.6	-62.4	3.8	7.45e-01	0	36	104	4752146432	78	10132
2026-01-18 06:33:36.97	346.33	10.88	-53.6	-62.4	3.8	7.46e-01	0	36	104	4752146432	78	10140
2026-01-18 06:33:40.00	345.99	10.58	-53.6	-62.4	3.8	7.46e-01	0	36	104	4752146432	78	10164
2026-01-18 06:33:43.02	345.66	10.29	-53.6	-62.4	3.8	7.46e-01	0	36	104	4752146432	78	10139
2026-01-18 06:33:46.04	345.33	10.00	-53.5	-62.3	3.8	7.47e-01	0	36	104	4752146432	78	10051
2026-01-18 06:33:49.06	345.02	9.71	-53.5	-62.3	3.8	7.44e-01	0	36	104	4752146432	78	10020
2026-01-18 06:33:52.09	344.71	9.42	-53.5	-62.4	3.8	7.46e-01	0	36	104	4752146432	78	10080
2026-01-18 06:33:55.11	344.41	9.14	-53.5	-62.3	3.8	7.47e-01	0	36	104	4752146432	78	10048
2026-01-18 06:33:58.13	344.12	8.87	-53.4	-62.3	3.8	7.46e-01	0	36	104	4752146432	78	9967
2026-01-18 06:34:01.15	343.83	8.59	-53.4	-62.3	3.8	7.45e-01	0	36	104	4752146432	78	9959
2026-01-18 06:34:04.17	343.55	8.32	-53.4	-62.3	3.8	7.48e-01	0	36	104	4752146432	78	9960
2026-01-18 06:34:07.19	343.28	8.06	-53.4	-62.2	3.8	7.46e-01	0	36	104	4752146432	78	9942
2026-01-18 06:34:10.21	343.01	7.79	-53.3	-62.2	3.8	7.45e-01	0	36	104	4752146432	78	9863
2026-01-18 06:34:13.24	342.75	7.53	-53.3	-62.1	3.8	7.45e-01	0	36	104	4752146432	78	9789
2026-01-18 06:34:16.26	342.50	7.27	-53.3	-62.2	3.8	7.46e-01	0	36	104	4752146432	78	9854
2026-01-18 06:34:19.28	342.25	7.02	-53.3	-62.2	3.8	7.45e-01	0	36	104	4752146432	78	9833
2026-01-18 06:34:22.31	342.01	6.77	-53.2	-62.0	3.8	7.45e-01	0	36	104	4752146432	78	9686
2026-01-18 06:34:25.33	341.77	6.52	-53.1	-62.0	3.8	7.45e-01	0	36	104	4752146432	78	9634
2026-01-18 06:34:28.35	341.54	6.27	-53.2	-62.0	3.8	7.45e-01	0	36	104	4752146432	78	9700
2026-01-18 06:34:31.38	341.31	6.03	-53.2	-62.0	3.8	7.44e-01	0	36	104	4752146432	78	9684
2026-01-18 06:34:34.40	341.09	5.79	-53.1	-61.9	3.8	7.46e-01	0	36	104	4752146432	78	9539
2026-01-18 06:34:37.42	340.87	5.55	-52.9	-61.8	3.8	7.45e-01	0	36	104	4752146432	77	9952
2026-01-18 06:34:40.45	340.66	5.32	-53.0	-61.8	3.8	7.45e-01	0	36	104	4752146432	77	9999
2026-01-18 06:34:43.47	340.45	5.08	-53.0	-61.8	3.8	7.46e-01	0	36	104	4752146432	77	10014
2026-01-18 06:34:46.50	340.24	4.85	-53.7	-62.5	3.8	7.46e-01	0	36	104	4752146432	77	10828
2026-01-18 06:34:49.52	340.05	4.62	-54.2	-63.0	3.8	7.46e-01	0	36	104	4752146432	78	10869
2026-01-18 06:34:52.54	339.85	4.40	-54.5	-63.3	3.8	7.45e-01	0	36	104	4752146432	79	10629
2026-01-18 06:34:55.57	339.66	4.17	-54.6	-63.5	3.8	7.46e-01	0	36	104	4752146432	79	10844
2026-01-18 06:34:58.60	339.47	3.95	-54.7	-63.5	3.8	7.46e-01	0	36	104	4752146432	79	10902
2026-01-18 06:35:01.62	339.29	3.73	-54.7	-63.6	3.8	7.44e-01	0	36	104	4752146432	80	10352
2026-01-18 06:35:04.64	339.11	3.52	-54.8	-63.6	3.8	7.44e-01	0	36	104	4752146432	80	10383
2026-01-18 06:35:07.67	338.93	3.30	-54.8	-63.6	3.8	7.45e-01	0	36	104	4752146432	80	10362
2026-01-18 06:35:10.69	338.76	3.09	-54.7	-63.6	3.8	7.46e-01	0	36	104	4752146432	80	10317
2026-01-18 06:35:13.72	338.59	2.87	-54.7	-63.6	3.8	7.45e-01	0	36	104	4752146432	80	10315
2026-01-18 06:35:16.74	338.42	2.67	-54.7	-63.6	3.8	7.43e-01	0	36	104	4752146432	80	10329
2026-01-18 06:35:19.76	338.26	2.46	-54.7	-63.6	3.8	7.44e-01	0	36	104	4752146432	80	10334
2026-01-18 06:35:22.79	338.10	2.25	-54.7	-63.6	3.8	7.47e-01	0	36	104	4752146432	80	10301
2026-01-18 06:35:25.81	337.95	2.05	-54.7	-63.6	3.8	7.46e-01	0	36	104	4752146432	80	10304
2026-01-18 06:35:28.84	337.79	1.85	-54.7	-63.5	3.8	7.44e-01	0	36	104	4752146432	80	10281

#Closed at: 2026-01-18 06:35:28
#Recorded file [4752 MB]: D:/lorett/data/31041_260118_092526.dat