passes_logs/2026/01/18/R3.2S_Murmansk/R3.2S_Murmansk__20260118_003544_NOAA_20_JPSS-1_rec.log

#Pass ID: 20260118_003544_NOAA 20 (JPSS-1)
#Satellite: NOAA 20 (JPSS-1)
#Configuration: NOAA 20
#almurnet v.1.7.20251203
#Start time: 2026-01-18 00:35:46

#Version: 2.2.20231116
#Station: R3.2S_Murmansk
#Location: 33.079688 lon 68.888172 lat
#TLE: 1 43013U 17073A   26017.58553584  .00000066  00000+0  52288-4 0  9998
#TLE: 2 43013  98.7639 318.4977 0001406  35.6039 324.5231 14.19536575423107

#Time	Az	El	Level	Level2	SNR	BER	BlckErr	Temp	State	Recorded	gain1	gain2
2026-01-18 00:35:46.12	24.18	2.10	-51.8	-66.7	3.8	1.49e+00	0	34	0	0	75	19762
2026-01-18 00:35:50.15	24.20	2.36	-51.8	-66.4	3.8	1.49e+00	0	34	104	0	74	20151
2026-01-18 00:35:54.18	24.23	2.62	-51.8	-66.0	3.8	1.49e+00	0	34	104	0	74	19266
2026-01-18 00:35:58.21	24.25	2.88	-51.7	-64.8	3.8	1.49e+00	0	34	104	0	74	16846
2026-01-18 00:36:02.24	24.28	3.15	-51.4	-61.5	4.9	7.52e-01	0	34	0	2097152	74	11466
2026-01-18 00:36:06.27	24.30	3.42	-50.6	-56.9	8.5	4.96e-02	0	34	0	9437184	73	7129
2026-01-18 00:36:10.30	24.33	3.69	-49.6	-53.8	11.9	5.42e-04	0	34	0	16777216	71	5611
2026-01-18 00:36:14.34	24.35	3.96	-49.3	-53.2	12.5	4.50e-05	0	34	0	24117248	69	5902
2026-01-18 00:36:18.36	24.38	4.24	-49.2	-52.9	12.8	7.62e-05	0	34	0	31457280	69	5659
2026-01-18 00:36:22.40	24.41	4.52	-50.3	-55.8	9.8	6.77e-03	0	35	0	39845888	71	7067
2026-01-18 00:36:26.43	24.43	4.80	-51.1	-59.1	6.4	1.76e-01	0	34	0	47185920	72	9806
2026-01-18 00:36:30.46	24.46	5.09	-51.4	-60.2	5.6	6.40e-01	0	34	0	54525952	73	10505
2026-01-18 00:36:34.50	24.49	5.38	-50.5	-55.7	10.1	1.64e-01	0	35	0	58720256	73	6209
2026-01-18 00:36:38.53	24.51	5.67	-50.1	-54.5	11.7	4.03e-04	0	35	0	67108864	72	5723
2026-01-18 00:36:42.56	24.54	5.97	-50.0	-54.1	12.2	1.01e-04	0	35	0	74448896	71	5826
2026-01-18 00:36:46.59	24.57	6.27	-49.6	-53.1	13.3	3.28e-05	0	35	0	81788928	71	5214
2026-01-18 00:36:50.62	24.59	6.57	-49.4	-52.6	13.8	9.10e-06	0	35	0	89128960	70	5183
2026-01-18 00:36:54.66	24.62	6.88	-48.8	-51.5	15.0	0.00e+00	0	35	0	97517568	69	4849
2026-01-18 00:36:58.69	24.65	7.18	-48.4	-50.9	15.6	0.00e+00	0	35	0	104857600	68	4813
2026-01-18 00:37:02.72	24.68	7.50	-48.4	-50.8	15.8	0.00e+00	0	35	0	112197632	68	4745
2026-01-18 00:37:06.76	24.71	7.82	-48.3	-50.7	15.9	0.00e+00	0	35	0	119537664	68	4703
2026-01-18 00:37:10.79	24.73	8.14	-48.4	-50.8	15.9	0.00e+00	0	35	0	126877696	68	4738
2026-01-18 00:37:14.82	24.76	8.46	-48.3	-50.7	16.0	0.00e+00	0	35	0	135266304	68	4674
2026-01-18 00:37:18.85	24.79	8.79	-48.1	-50.4	16.4	0.00e+00	0	35	0	142606336	68	4499
2026-01-18 00:37:22.88	24.82	9.13	-48.0	-50.2	16.5	0.00e+00	0	35	0	149946368	68	4435
2026-01-18 00:37:26.92	24.85	9.47	-48.2	-50.5	16.3	0.00e+00	0	35	0	157286400	68	4583
2026-01-18 00:37:30.95	24.88	9.81	-47.9	-50.0	16.7	0.00e+00	0	35	0	165675008	67	4587
2026-01-18 00:37:34.98	24.91	10.16	-47.8	-49.8	16.9	0.00e+00	0	35	0	173015040	67	4485
2026-01-18 00:37:39.01	24.94	10.51	-47.6	-49.6	17.1	0.00e+00	0	35	0	180355072	67	4383
2026-01-18 00:37:43.04	24.97	10.87	-47.5	-49.5	17.3	0.00e+00	0	35	0	187695104	66	4552
2026-01-18 00:37:47.07	25.00	11.23	-47.4	-49.3	17.5	0.00e+00	0	35	0	195035136	66	4448
2026-01-18 00:37:51.10	25.03	11.60	-47.3	-49.2	17.7	0.00e+00	0	35	0	202375168	66	4392
2026-01-18 00:37:55.14	25.06	11.98	-47.2	-49.1	17.8	0.00e+00	0	35	0	210763776	66	4345
2026-01-18 00:37:59.17	25.10	12.36	-47.1	-48.9	17.9	0.00e+00	0	35	0	218103808	66	4287
2026-01-18 00:38:03.20	25.13	12.75	-47.0	-48.8	18.1	0.00e+00	0	35	0	225443840	66	4199
2026-01-18 00:38:07.23	25.16	13.14	-47.0	-48.8	18.1	0.00e+00	0	35	0	232783872	65	4472
2026-01-18 00:38:11.26	25.20	13.54	-46.9	-48.6	18.3	0.00e+00	0	35	0	241172480	65	4391
2026-01-18 00:38:15.30	25.23	13.95	-46.8	-48.5	18.4	0.00e+00	0	35	0	248512512	65	4327
2026-01-18 00:38:19.33	25.26	14.36	-46.8	-48.5	18.5	0.00e+00	0	35	0	255852544	65	4320
2026-01-18 00:38:23.36	25.30	14.78	-46.7	-48.4	18.6	0.00e+00	0	35	0	263192576	65	4249
2026-01-18 00:38:27.39	25.33	15.21	-46.7	-48.4	18.6	0.00e+00	0	35	0	270532608	65	4245
2026-01-18 00:38:31.42	25.37	15.64	-46.6	-48.3	18.7	0.00e+00	0	35	0	278921216	65	4197
2026-01-18 00:38:35.46	25.40	16.09	-46.6	-48.3	18.7	0.00e+00	0	35	0	286261248	65	4205
2026-01-18 00:38:39.49	25.44	16.54	-46.5	-48.1	18.9	0.00e+00	0	35	0	293601280	65	4131
2026-01-18 00:38:43.52	25.48	17.00	-46.6	-48.1	18.9	0.00e+00	0	35	0	300941312	64	4382
2026-01-18 00:38:47.55	25.52	17.47	-46.4	-47.9	19.1	0.00e+00	0	35	0	308281344	64	4286
2026-01-18 00:38:51.58	25.55	17.94	-46.4	-47.9	19.1	0.00e+00	0	35	0	316669952	64	4291
2026-01-18 00:38:55.61	25.59	18.43	-46.3	-47.8	19.2	0.00e+00	0	35	0	324009984	64	4225
2026-01-18 00:38:59.64	25.63	18.93	-46.3	-47.9	19.2	0.00e+00	0	35	0	331350016	64	4245
2026-01-18 00:39:03.67	25.67	19.44	-46.2	-47.7	19.4	0.00e+00	0	35	0	338690048	64	4152
2026-01-18 00:39:07.70	25.72	19.95	-46.3	-47.8	19.3	0.00e+00	0	35	0	346030080	64	4209
2026-01-18 00:39:11.74	25.76	20.48	-46.3	-47.8	19.3	0.00e+00	0	35	0	354418688	64	4219
2026-01-18 00:39:15.77	25.80	21.02	-46.4	-48.0	19.2	0.00e+00	0	35	0	361758720	64	4293
2026-01-18 00:39:19.80	25.85	21.58	-46.4	-47.9	19.3	0.00e+00	0	35	0	369098752	64	4272
2026-01-18 00:39:23.84	25.89	22.14	-46.5	-48.0	19.2	0.00e+00	0	35	0	376438784	64	4310
2026-01-18 00:39:27.86	25.94	22.72	-46.4	-47.9	19.2	0.00e+00	0	35	0	384827392	64	4282
2026-01-18 00:39:31.90	25.99	23.31	-46.5	-48.1	19.1	0.00e+00	0	35	0	392167424	64	4361
2026-01-18 00:39:35.93	26.03	23.92	-46.6	-48.1	19.1	0.00e+00	0	35	0	399507456	64	4385
2026-01-18 00:39:39.95	26.08	24.53	-46.8	-48.4	18.9	0.00e+00	0	35	0	406847488	64	4512
2026-01-18 00:39:43.98	26.13	25.17	-46.9	-48.6	18.7	0.00e+00	0	35	0	414187520	64	4607
2026-01-18 00:39:48.02	26.19	25.82	-47.1	-48.8	18.4	0.00e+00	0	35	0	422576128	64	4754
2026-01-18 00:39:52.04	26.24	26.48	-47.3	-49.0	18.3	0.00e+00	0	35	0	429916160	65	4574
2026-01-18 00:39:56.08	26.30	27.17	-47.6	-49.4	17.9	0.00e+00	0	35	0	437256192	65	4787
2026-01-18 00:40:00.10	26.35	27.87	-47.7	-49.6	17.7	0.00e+00	0	35	0	444596224	66	4627
2026-01-18 00:40:04.14	26.41	28.59	-48.2	-50.2	17.2	0.00e+00	0	35	0	451936256	66	4943
2026-01-18 00:40:08.16	26.48	29.32	-48.3	-50.4	16.9	0.00e+00	0	35	0	460324864	67	4795
2026-01-18 00:40:12.20	26.54	30.08	-48.6	-50.8	16.6	0.00e+00	0	35	0	467664896	67	4995
2026-01-18 00:40:16.23	26.60	30.86	-48.8	-51.0	16.5	0.00e+00	0	36	0	475004928	68	4859
2026-01-18 00:40:20.26	26.67	31.66	-48.7	-50.9	16.5	0.00e+00	0	35	0	482344960	68	4813
2026-01-18 00:40:24.29	26.74	32.48	-48.8	-51.0	16.5	0.00e+00	0	35	0	489684992	68	4830
2026-01-18 00:40:28.32	26.82	33.33	-48.6	-50.7	16.8	0.00e+00	0	35	0	498073600	68	4664
2026-01-18 00:40:32.35	26.89	34.20	-48.0	-49.9	17.7	0.00e+00	0	35	0	505413632	68	4247
2026-01-18 00:40:36.38	26.97	35.09	-47.2	-48.9	18.6	0.00e+00	0	35	0	512753664	66	4269
2026-01-18 00:40:40.41	27.06	36.01	-46.8	-48.4	19.1	0.00e+00	0	35	0	520093696	65	4245
2026-01-18 00:40:44.44	27.14	36.96	-46.0	-47.4	20.1	0.00e+00	0	35	0	528482304	64	4020
2026-01-18 00:40:48.48	27.24	37.94	-45.5	-46.7	20.7	0.00e+00	0	35	0	535822336	62	4189
2026-01-18 00:40:52.51	27.33	38.94	-45.6	-46.8	20.7	0.00e+00	0	35	0	543162368	62	4224
2026-01-18 00:40:56.54	27.43	39.98	-45.9	-47.2	20.3	0.00e+00	0	35	0	550502400	62	4434
2026-01-18 00:41:00.57	27.54	41.04	-45.9	-47.2	20.4	0.00e+00	0	35	0	557842432	62	4397
2026-01-18 00:41:04.60	27.66	42.14	-46.6	-48.1	19.5	0.00e+00	0	35	0	565182464	63	4630
2026-01-18 00:41:08.64	27.78	43.28	-46.5	-48.0	19.5	0.00e+00	0	36	0	573571072	64	4319
2026-01-18 00:41:12.67	27.90	44.44	-46.7	-48.2	19.4	0.00e+00	0	36	0	580911104	64	4401
2026-01-18 00:41:16.70	28.04	45.65	-48.4	-50.4	17.2	0.00e+00	0	35	0	588251136	67	4780
2026-01-18 00:41:20.73	28.19	46.89	-49.0	-51.3	16.4	0.00e+00	0	35	0	595591168	68	5006
2026-01-18 00:41:24.76	28.35	48.17	-48.5	-50.5	17.2	0.00e+00	0	35	0	603979776	68	4552
2026-01-18 00:41:28.80	28.52	49.49	-48.8	-51.0	16.7	0.00e+00	0	36	0	611319808	68	4825
2026-01-18 00:41:32.83	28.70	50.84	-47.7	-49.4	18.1	0.00e+00	0	35	0	618659840	67	4286
2026-01-18 00:41:36.86	28.90	52.24	-46.0	-47.3	20.4	0.00e+00	0	35	0	625999872	63	4202
2026-01-18 00:41:40.90	29.12	53.68	-45.3	-46.4	21.1	0.00e+00	0	35	0	633339904	62	4046
2026-01-18 00:41:44.93	29.36	55.16	-45.6	-46.8	20.8	0.00e+00	0	35	0	641728512	61	4477
2026-01-18 00:41:48.96	29.63	56.68	-46.0	-47.4	20.3	0.00e+00	0	35	0	649068544	63	4246
2026-01-18 00:41:53.00	29.92	58.25	-46.5	-47.9	19.9	0.00e+00	0	36	0	656408576	63	4496
2026-01-18 00:41:57.03	30.25	59.86	-45.6	-46.9	20.8	0.00e+00	0	35	0	663748608	63	4008
2026-01-18 00:42:01.06	30.62	61.50	-44.4	-45.4	22.1	0.00e+00	0	35	0	671088640	60	4049
2026-01-18 00:42:05.09	31.05	63.19	-44.1	-45.1	22.7	0.00e+00	0	35	0	679477248	59	4137
2026-01-18 00:42:09.12	31.53	64.92	-46.4	-47.8	20.0	0.00e+00	0	35	0	686817280	63	4455
2026-01-18 00:42:13.16	32.10	66.69	-47.0	-48.5	19.1	0.00e+00	0	35	0	694157312	66	4065
2026-01-18 00:42:17.18	32.77	68.49	-47.2	-48.7	19.0	0.00e+00	0	35	0	701497344	65	4439
2026-01-18 00:42:21.22	33.57	70.33	-46.5	-47.9	19.8	0.00e+00	0	35	0	709885952	65	4021
2026-01-18 00:42:25.25	34.54	72.20	-47.4	-49.0	18.7	0.00e+00	0	35	0	717225984	65	4577
2026-01-18 00:42:29.28	35.75	74.09	-48.6	-50.6	17.3	0.00e+00	0	35	0	724566016	67	4890
2026-01-18 00:42:33.31	37.31	76.01	-47.5	-49.2	18.5	0.00e+00	0	35	0	731906048	67	4179
2026-01-18 00:42:37.34	39.38	77.94	-46.7	-48.1	19.6	0.00e+00	0	35	0	739246080	64	4371
2026-01-18 00:42:41.38	42.26	79.88	-46.1	-47.4	20.3	0.00e+00	0	35	0	747634688	63	4259
2026-01-18 00:42:45.41	46.50	81.79	-48.6	-50.7	17.1	0.00e+00	0	35	0	754974720	67	4954
2026-01-18 00:42:49.44	53.30	83.65	-48.2	-50.1	17.8	0.00e+00	0	35	0	762314752	68	4349
2026-01-18 00:42:53.47	65.42	85.36	-45.9	-47.2	20.6	0.00e+00	0	35	0	769654784	63	4161
2026-01-18 00:42:57.50	88.97	86.65	-48.0	-49.9	17.9	0.00e+00	0	35	0	776994816	66	4762
2026-01-18 00:43:01.54	126.43	86.94	-47.0	-48.6	19.2	0.00e+00	0	35	0	785383424	65	4345
2026-01-18 00:43:05.57	156.84	85.99	-47.3	-48.8	18.9	0.00e+00	0	35	0	792723456	66	4231
2026-01-18 00:43:09.60	172.89	84.41	-45.9	-47.2	20.5	0.00e+00	0	35	0	800063488	63	4185
2026-01-18 00:43:13.63	181.48	82.59	-49.9	-52.5	15.3	0.00e+00	0	35	0	807403520	70	5141
2026-01-18 00:43:17.66	186.61	80.70	-46.8	-48.2	19.4	0.00e+00	0	35	0	814743552	65	4163
2026-01-18 00:43:21.69	189.98	78.77	-47.8	-49.5	18.4	0.00e+00	0	35	0	823132160	66	4594
2026-01-18 00:43:25.72	192.34	76.83	-50.1	-52.8	15.1	0.00e+00	0	35	0	830472192	71	5027
2026-01-18 00:43:29.76	194.10	74.90	-50.3	-53.1	14.9	0.00e+00	0	35	0	837812224	71	5213
2026-01-18 00:43:33.79	195.44	73.00	-46.2	-47.5	20.3	0.00e+00	0	35	0	845152256	64	4065
2026-01-18 00:43:37.83	196.51	71.11	-45.8	-47.1	20.8	0.00e+00	0	35	0	853540864	63	4112
2026-01-18 00:43:41.86	197.38	69.26	-47.5	-49.1	18.7	0.00e+00	0	35	0	860880896	66	4373
2026-01-18 00:43:45.89	198.10	67.44	-50.3	-53.2	14.5	4.50e-06	0	35	0	868220928	72	4958
2026-01-18 00:43:49.92	198.70	65.65	-49.3	-51.6	16.3	0.00e+00	0	35	0	875560960	70	4626
2026-01-18 00:43:53.96	199.22	63.90	-45.4	-46.6	21.2	0.00e+00	0	35	0	882900992	62	4108
2026-01-18 00:43:57.99	199.67	62.19	-44.5	-45.5	22.1	0.00e+00	0	35	0	891289600	61	3866
2026-01-18 00:44:02.02	200.06	60.52	-46.7	-48.1	19.7	0.00e+00	0	35	0	898629632	63	4620
2026-01-18 00:44:06.05	200.41	58.90	-48.3	-50.2	17.5	0.00e+00	0	35	0	905969664	67	4668
2026-01-18 00:44:10.08	200.72	57.31	-50.0	-52.7	15.0	1.50e-06	0	35	0	913309696	71	4975
2026-01-18 00:44:14.11	200.99	55.77	-46.7	-48.1	19.6	0.00e+00	0	35	0	920649728	65	4124
2026-01-18 00:44:18.14	201.24	54.27	-46.7	-48.2	19.4	0.00e+00	0	35	0	929038336	64	4435
2026-01-18 00:44:22.17	201.47	52.81	-45.4	-46.5	21.1	0.00e+00	0	35	0	936378368	62	4090
2026-01-18 00:44:26.20	201.68	51.39	-48.1	-50.0	17.8	0.00e+00	0	35	0	943718400	66	4826
2026-01-18 00:44:30.24	201.87	50.01	-48.3	-50.2	17.5	0.00e+00	0	35	0	951058432	67	4679
2026-01-18 00:44:34.27	202.04	48.67	-51.8	-56.8	10.8	7.23e-04	0	35	0	958398464	74	6654
2026-01-18 00:44:38.30	202.21	47.38	-47.9	-49.6	18.0	0.00e+00	0	35	0	966787072	67	4379
2026-01-18 00:44:42.33	202.36	46.12	-48.4	-50.4	17.2	0.00e+00	0	35	0	974127104	67	4808
2026-01-18 00:44:46.36	202.50	44.89	-47.5	-49.2	18.4	0.00e+00	0	35	0	981467136	66	4415
2026-01-18 00:44:50.40	202.63	43.71	-44.9	-46.0	21.5	0.00e+00	0	35	0	988807168	61	4067
2026-01-18 00:44:54.42	202.75	42.56	-47.4	-49.1	18.5	0.00e+00	0	35	0	997195776	65	4616
2026-01-18 00:44:58.46	202.87	41.44	-47.9	-49.8	17.8	0.00e+00	0	35	0	1004535808	67	4471
2026-01-18 00:45:02.49	202.98	40.36	-46.8	-48.3	19.3	0.00e+00	0	35	0	1011875840	65	4203
2026-01-18 00:45:06.52	203.08	39.31	-48.5	-50.5	17.1	0.00e+00	0	35	0	1019215872	67	4852
2026-01-18 00:45:10.55	203.18	38.29	-51.0	-54.8	12.7	5.64e-05	0	35	0	1026555904	72	5989
2026-01-18 00:45:14.58	203.27	37.30	-50.0	-52.8	14.8	1.50e-06	0	35	0	1033895936	71	5020
2026-01-18 00:45:18.62	203.36	36.33	-48.8	-50.9	16.7	0.00e+00	0	35	0	1042284544	69	4527
2026-01-18 00:45:22.65	203.44	35.40	-49.2	-51.6	16.0	0.00e+00	0	35	0	1049624576	69	4916
2026-01-18 00:45:26.67	203.52	34.49	-51.4	-55.8	11.6	3.98e-04	0	35	0	1056964608	73	6338
2026-01-18 00:45:30.70	203.60	33.61	-51.1	-55.0	12.4	3.37e-04	0	35	0	1064304640	74	5446
2026-01-18 00:45:34.74	203.67	32.75	-49.9	-52.6	14.9	0.00e+00	0	35	0	1072693248	71	4910
2026-01-18 00:45:38.77	203.74	31.92	-48.9	-51.1	16.5	0.00e+00	0	35	0	1080033280	69	4603
2026-01-18 00:45:42.80	203.81	31.11	-49.1	-51.4	16.1	0.00e+00	0	35	0	1087373312	69	4798
2026-01-18 00:45:46.83	203.88	30.32	-49.9	-52.8	14.7	0.00e+00	0	35	0	1094713344	70	5331
2026-01-18 00:45:50.86	203.94	29.55	-49.9	-52.7	14.8	0.00e+00	0	35	0	1102053376	70	5266
2026-01-18 00:45:54.90	204.00	28.80	-49.1	-51.5	16.1	0.00e+00	0	35	0	1110441984	70	4562
2026-01-18 00:45:58.93	204.06	28.07	-48.5	-50.6	16.9	0.00e+00	0	35	0	1117782016	69	4373
2026-01-18 00:46:02.96	204.12	27.36	-47.6	-49.3	18.0	0.00e+00	0	35	0	1125122048	67	4236
2026-01-18 00:46:06.99	204.17	26.67	-46.9	-48.5	18.8	0.00e+00	0	35	0	1132462080	65	4336
2026-01-18 00:46:11.02	204.23	26.00	-47.0	-48.6	18.8	0.00e+00	0	35	0	1140850688	65	4363
2026-01-18 00:46:15.06	204.28	25.34	-46.9	-48.5	18.8	0.00e+00	0	35	0	1148190720	65	4322
2026-01-18 00:46:19.09	204.33	24.70	-46.7	-48.2	19.1	0.00e+00	0	35	0	1155530752	65	4183
2026-01-18 00:46:23.12	204.38	24.07	-46.3	-47.7	19.5	0.00e+00	0	35	0	1162870784	64	4182
2026-01-18 00:46:27.15	204.42	23.46	-45.8	-47.1	20.2	0.00e+00	0	35	0	1170210816	63	4143
2026-01-18 00:46:31.10	204.47	22.87	-45.7	-47.0	20.3	0.00e+00	0	35	0	1177550848	63	4065
2026-01-18 00:46:35.13	204.51	22.29	-45.6	-46.9	20.4	0.00e+00	0	35	0	1185939456	63	4017
2026-01-18 00:46:39.16	204.56	21.72	-45.8	-47.1	20.2	0.00e+00	0	35	0	1193279488	63	4123
2026-01-18 00:46:43.19	204.60	21.16	-46.0	-47.4	19.8	0.00e+00	0	35	0	1200619520	63	4275
2026-01-18 00:46:47.23	204.64	20.61	-46.3	-47.7	19.5	0.00e+00	0	35	0	1207959552	63	4430
2026-01-18 00:46:51.26	204.69	20.07	-46.5	-48.0	19.3	0.00e+00	0	35	0	1216348160	63	4555
2026-01-18 00:46:55.29	204.73	19.55	-46.4	-47.9	19.3	0.00e+00	0	35	0	1223688192	63	4537
2026-01-18 00:46:59.33	204.76	19.04	-46.6	-48.1	19.1	0.00e+00	0	35	0	1231028224	63	4629
2026-01-18 00:47:03.36	204.80	18.53	-46.5	-48.0	19.2	0.00e+00	0	35	0	1238368256	63	4576
2026-01-18 00:47:07.38	204.84	18.04	-46.5	-48.1	19.1	0.00e+00	0	35	0	1245708288	63	4624
2026-01-18 00:47:11.42	204.88	17.56	-46.5	-48.1	19.1	0.00e+00	0	35	0	1254096896	63	4615
2026-01-18 00:47:15.45	204.91	17.08	-46.6	-48.2	18.9	0.00e+00	0	35	0	1261436928	63	4677
2026-01-18 00:47:19.48	204.95	16.62	-46.7	-48.4	18.7	0.00e+00	0	35	0	1268776960	64	4510
2026-01-18 00:47:23.51	204.98	16.16	-46.8	-48.5	18.6	0.00e+00	0	35	0	1276116992	64	4566
2026-01-18 00:47:27.55	205.02	15.71	-46.8	-48.5	18.5	0.00e+00	0	35	0	1283457024	64	4576
2026-01-18 00:47:31.58	205.05	15.27	-46.9	-48.6	18.4	0.00e+00	0	35	0	1291845632	64	4611
2026-01-18 00:47:35.61	205.09	14.84	-46.9	-48.5	18.5	0.00e+00	0	35	0	1299185664	64	4595
2026-01-18 00:47:39.64	205.12	14.42	-46.8	-48.5	18.4	0.00e+00	0	35	0	1306525696	64	4581
2026-01-18 00:47:43.67	205.15	14.00	-47.0	-48.7	18.2	0.00e+00	0	35	0	1313865728	64	4705
2026-01-18 00:47:47.70	205.18	13.59	-47.1	-48.9	18.1	0.00e+00	0	35	0	1321205760	64	4783
2026-01-18 00:47:51.73	205.21	13.19	-47.3	-49.1	17.8	0.00e+00	0	35	0	1329594368	65	4649
2026-01-18 00:47:55.77	205.24	12.79	-47.5	-49.4	17.5	0.00e+00	0	35	0	1336934400	65	4814
2026-01-18 00:47:59.80	205.27	12.40	-47.7	-49.7	17.2	0.00e+00	0	35	0	1344274432	65	4963
2026-01-18 00:48:03.83	205.30	12.02	-47.8	-49.9	17.0	0.00e+00	0	35	0	1351614464	66	4761
2026-01-18 00:48:07.86	205.33	11.64	-47.9	-50.1	16.8	0.00e+00	0	35	0	1360003072	66	4887
2026-01-18 00:48:11.89	205.36	11.27	-48.0	-50.1	16.7	0.00e+00	0	35	0	1367343104	66	4924
2026-01-18 00:48:15.92	205.39	10.90	-48.0	-50.2	16.7	0.00e+00	0	35	0	1374683136	66	4931
2026-01-18 00:48:19.96	205.42	10.54	-48.0	-50.2	16.6	0.00e+00	0	35	0	1382023168	66	4979
2026-01-18 00:48:23.99	205.45	10.18	-48.0	-50.2	16.6	0.00e+00	0	35	0	1389363200	66	4940
2026-01-18 00:48:28.02	205.48	9.83	-47.8	-50.0	16.8	0.00e+00	0	35	0	1396703232	66	4821
2026-01-18 00:48:32.05	205.50	9.49	-47.7	-49.8	16.9	0.00e+00	0	35	0	1405091840	66	4754
2026-01-18 00:48:36.08	205.53	9.14	-47.6	-49.6	17.1	0.00e+00	0	35	0	1412431872	66	4626
2026-01-18 00:48:40.12	205.56	8.81	-47.7	-49.8	16.8	0.00e+00	0	35	0	1419771904	66	4749
2026-01-18 00:48:44.15	205.58	8.47	-47.6	-49.7	16.9	0.00e+00	0	35	0	1427111936	66	4691
2026-01-18 00:48:48.19	205.61	8.15	-47.7	-49.8	16.8	0.00e+00	0	35	0	1435500544	66	4730
2026-01-18 00:48:52.22	205.64	7.82	-47.6	-49.7	16.9	0.00e+00	0	35	0	1442840576	66	4684
2026-01-18 00:48:56.25	205.66	7.50	-47.6	-49.8	16.8	0.00e+00	0	35	0	1450180608	66	4707
2026-01-18 00:49:00.28	205.69	7.19	-47.7	-49.9	16.6	0.00e+00	0	35	0	1457520640	66	4792
2026-01-18 00:49:04.31	205.71	6.88	-47.6	-49.8	16.7	0.00e+00	0	35	0	1464860672	66	4722
2026-01-18 00:49:08.34	205.74	6.57	-47.8	-50.0	16.4	0.00e+00	0	35	0	1473249280	66	4841
2026-01-18 00:49:12.37	205.76	6.26	-47.8	-50.0	16.3	0.00e+00	0	35	0	1480589312	66	4846
2026-01-18 00:49:16.41	205.79	5.96	-47.7	-49.9	16.4	0.00e+00	0	35	0	1487929344	66	4814
2026-01-18 00:49:20.44	205.81	5.66	-47.9	-50.2	16.0	0.00e+00	0	35	0	1495269376	66	4983
2026-01-18 00:49:24.47	205.83	5.37	-48.0	-50.5	15.7	0.00e+00	0	35	0	1503657984	66	5101
2026-01-18 00:49:28.50	205.86	5.08	-47.9	-50.4	15.8	0.00e+00	0	35	0	1510998016	67	4779
2026-01-18 00:49:32.53	205.88	4.79	-53.3	-68.3	3.8	1.49e+00	0	35	104	1513095168	77	21095
2026-01-18 00:49:36.57	205.90	4.51	-53.6	-68.6	3.8	1.49e+00	0	35	104	1513095168	77	21912
2026-01-18 00:49:40.60	205.93	4.22	-53.8	-68.8	3.8	1.49e+00	0	35	104	1513095168	78	21134
2026-01-18 00:49:44.63	205.95	3.95	-53.9	-68.9	3.8	1.49e+00	0	35	104	1513095168	78	21446
2026-01-18 00:49:48.66	205.97	3.67	-54.0	-69.0	3.8	1.49e+00	0	35	104	1513095168	78	21648
2026-01-18 00:49:52.69	206.00	3.40	-54.0	-69.0	3.8	1.49e+00	0	35	104	1513095168	78	21691
2026-01-18 00:49:56.73	206.02	3.13	-54.0	-69.0	3.8	1.49e+00	0	35	104	1513095168	78	21607
2026-01-18 00:50:00.76	206.04	2.86	-54.0	-69.0	3.8	1.49e+00	0	35	104	1513095168	78	21572
2026-01-18 00:50:04.79	206.06	2.59	-53.9	-69.0	3.8	1.49e+00	0	35	104	1513095168	78	21524
2026-01-18 00:50:08.82	206.08	2.33	-53.9	-68.9	3.8	1.49e+00	0	35	104	1513095168	78	21426
2026-01-18 00:50:12.86	206.11	2.07	-53.9	-68.9	3.8	1.49e+00	0	36	104	1513095168	78	21474

#Closed at: 2026-01-18 00:50:15
#Recorded file [1513 MB]: D:/lorett/data/31041_260118_033545.dat