passes_logs/2026/01/18/R3.2S_Murmansk/R3.2S_Murmansk__20260118_021602_NOAA_20_JPSS-1_rec.log

#Pass ID: 20260118_021602_NOAA 20 (JPSS-1)
#Satellite: NOAA 20 (JPSS-1)
#Configuration: NOAA 20
#almurnet v.1.7.20251203
#Start time: 2026-01-18 02:16:01

#Version: 2.2.20231116
#Station: R3.2S_Murmansk
#Location: 33.079688 lon 68.888172 lat
#TLE: 1 43013U 17073A   26017.58553584  .00000066  00000+0  52288-4 0  9998
#TLE: 2 43013  98.7639 318.4977 0001406  35.6039 324.5231 14.19536575423107

#Time	Az	El	Level	Level2	SNR	BER	BlckErr	Temp	State	Recorded	gain1	gain2
2026-01-18 02:16:01.95	32.38	1.99	-51.5	-66.5	3.8	1.49e+00	0	33	0	0	75	19182
2026-01-18 02:16:05.97	32.24	2.24	-51.5	-66.5	3.8	1.49e+00	0	33	104	0	73	21508
2026-01-18 02:16:10.00	32.10	2.49	-51.5	-66.4	3.8	1.49e+00	0	33	104	0	73	21376
2026-01-18 02:16:14.03	31.96	2.75	-51.5	-66.3	3.8	1.49e+00	0	34	104	0	73	21240
2026-01-18 02:16:18.06	31.82	3.00	-51.4	-65.9	3.8	1.49e+00	0	34	104	0	73	20165
2026-01-18 02:16:22.10	31.67	3.26	-51.4	-64.2	3.9	1.48e+00	0	34	104	0	73	16686
2026-01-18 02:16:26.13	31.52	3.52	-51.5	-66.2	3.8	1.49e+00	0	34	104	0	73	20884
2026-01-18 02:16:30.16	31.37	3.79	-51.3	-62.9	4.2	1.43e+00	0	34	0	0	73	14266
2026-01-18 02:16:34.19	31.21	4.05	-50.5	-57.1	8.0	1.09e-01	0	34	0	6291456	73	7346
2026-01-18 02:16:38.23	31.05	4.32	-49.9	-54.9	10.4	4.54e-03	0	34	0	13631488	71	6382
2026-01-18 02:16:42.26	30.89	4.59	-50.1	-55.8	9.5	8.22e-03	0	34	0	22020096	71	7048
2026-01-18 02:16:46.29	30.72	4.87	-50.7	-58.4	6.8	1.40e-01	0	34	0	29360128	72	8985
2026-01-18 02:16:50.33	30.55	5.14	-50.4	-55.8	9.7	1.73e-02	0	34	0	36700160	72	6683
2026-01-18 02:16:54.36	30.38	5.42	-51.6	-62.7	4.3	1.47e+00	0	34	104	40894464	73	14002
2026-01-18 02:16:58.39	30.20	5.70	-48.2	-50.8	15.4	0.00e+00	0	34	0	48234496	68	4726
2026-01-18 02:17:02.42	30.02	5.99	-48.2	-50.7	15.6	0.00e+00	0	34	0	55574528	68	4691
2026-01-18 02:17:06.45	29.84	6.27	-48.1	-50.6	15.7	0.00e+00	0	34	0	62914560	67	4891
2026-01-18 02:17:10.49	29.65	6.56	-47.8	-50.1	16.3	0.00e+00	0	34	0	70254592	67	4614
2026-01-18 02:17:14.51	29.46	6.85	-48.0	-50.4	16.0	0.00e+00	0	34	0	77594624	67	4791
2026-01-18 02:17:18.55	29.26	7.15	-47.8	-50.0	16.5	0.00e+00	0	35	0	84934656	67	4574
2026-01-18 02:17:22.58	29.06	7.45	-47.7	-49.9	16.6	0.00e+00	0	34	0	93323264	67	4525
2026-01-18 02:17:26.61	28.86	7.75	-47.6	-49.8	16.7	0.00e+00	0	35	0	100663296	67	4448
2026-01-18 02:17:30.64	28.65	8.05	-47.8	-50.0	16.5	0.00e+00	0	35	0	108003328	67	4598
2026-01-18 02:17:34.67	28.43	8.36	-47.7	-49.8	16.8	0.00e+00	0	35	0	115343360	66	4727
2026-01-18 02:17:38.70	28.21	8.67	-47.6	-49.7	16.9	0.00e+00	0	35	0	123731968	66	4661
2026-01-18 02:17:42.74	27.99	8.99	-47.5	-49.5	17.2	0.00e+00	0	35	0	131072000	66	4556
2026-01-18 02:17:46.77	27.76	9.31	-47.4	-49.3	17.4	0.00e+00	0	35	0	138412032	66	4471
2026-01-18 02:17:50.80	27.52	9.63	-47.3	-49.2	17.5	0.00e+00	0	35	0	145752064	66	4396
2026-01-18 02:17:54.83	27.28	9.95	-47.1	-49.0	17.7	0.00e+00	0	35	0	153092096	66	4314
2026-01-18 02:17:58.86	27.03	10.28	-47.1	-48.9	17.9	0.00e+00	0	35	0	161480704	66	4266
2026-01-18 02:18:02.90	26.78	10.62	-46.9	-48.6	18.1	0.00e+00	0	35	0	168820736	65	4387
2026-01-18 02:18:06.93	26.52	10.96	-46.9	-48.7	18.0	0.00e+00	0	35	0	176160768	65	4426
2026-01-18 02:18:10.96	26.25	11.30	-46.8	-48.5	18.3	0.00e+00	0	35	0	183500800	65	4337
2026-01-18 02:18:14.99	25.98	11.64	-46.7	-48.4	18.4	0.00e+00	0	35	0	191889408	65	4263
2026-01-18 02:18:19.02	25.70	11.99	-46.6	-48.3	18.6	0.00e+00	0	35	0	199229440	65	4197
2026-01-18 02:18:23.05	25.41	12.35	-46.7	-48.3	18.5	0.00e+00	0	35	0	206569472	65	4239
2026-01-18 02:18:27.08	25.12	12.71	-46.7	-48.4	18.5	0.00e+00	0	35	0	213909504	65	4266
2026-01-18 02:18:31.11	24.82	13.07	-46.7	-48.4	18.5	0.00e+00	0	35	0	221249536	65	4249
2026-01-18 02:18:35.14	24.51	13.44	-46.6	-48.3	18.6	0.00e+00	0	35	0	228589568	65	4200
2026-01-18 02:18:39.18	24.19	13.81	-46.6	-48.3	18.7	0.00e+00	0	35	0	236978176	65	4199
2026-01-18 02:18:43.21	23.86	14.19	-46.7	-48.3	18.7	0.00e+00	0	35	0	244318208	65	4226
2026-01-18 02:18:47.24	23.53	14.57	-46.6	-48.2	18.8	0.00e+00	0	35	0	251658240	65	4161
2026-01-18 02:18:51.27	23.19	14.96	-46.6	-48.2	18.8	0.00e+00	0	35	0	258998272	65	4150
2026-01-18 02:18:55.31	22.83	15.35	-46.6	-48.2	18.8	0.00e+00	0	35	0	267386880	65	4153
2026-01-18 02:18:59.34	22.47	15.75	-46.6	-48.2	18.8	0.00e+00	0	35	0	274726912	65	4161
2026-01-18 02:19:03.37	22.09	16.15	-46.6	-48.1	18.9	0.00e+00	0	35	0	282066944	65	4141
2026-01-18 02:19:07.40	21.71	16.56	-46.6	-48.2	18.9	0.00e+00	0	35	0	289406976	65	4152
2026-01-18 02:19:11.43	21.31	16.97	-46.6	-48.2	18.8	0.00e+00	0	35	0	296747008	65	4189
2026-01-18 02:19:15.46	20.91	17.39	-46.7	-48.3	18.8	0.00e+00	0	35	0	305135616	65	4232
2026-01-18 02:19:19.49	20.49	17.82	-46.8	-48.4	18.7	0.00e+00	0	35	0	312475648	65	4258
2026-01-18 02:19:23.53	20.05	18.25	-46.8	-48.4	18.7	0.00e+00	0	35	0	319815680	65	4253
2026-01-18 02:19:27.56	19.61	18.69	-46.7	-48.3	18.8	0.00e+00	0	35	0	327155712	65	4240
2026-01-18 02:19:31.59	19.15	19.13	-46.8	-48.4	18.8	0.00e+00	0	35	0	334495744	65	4251
2026-01-18 02:19:35.62	18.68	19.58	-46.8	-48.4	18.7	0.00e+00	0	35	0	342884352	65	4276
2026-01-18 02:19:39.66	18.19	20.03	-46.9	-48.6	18.5	0.00e+00	0	35	0	350224384	65	4366
2026-01-18 02:19:43.69	17.69	20.49	-46.8	-48.5	18.7	0.00e+00	0	35	0	357564416	65	4292
2026-01-18 02:19:47.72	17.17	20.96	-46.8	-48.4	18.7	0.00e+00	0	35	0	364904448	65	4289
2026-01-18 02:19:51.76	16.64	21.44	-46.9	-48.5	18.7	0.00e+00	0	35	0	373293056	65	4315
2026-01-18 02:19:55.79	16.09	21.92	-46.9	-48.5	18.7	0.00e+00	0	35	0	380633088	65	4327
2026-01-18 02:19:59.82	15.52	22.40	-47.0	-48.6	18.7	0.00e+00	0	35	0	387973120	65	4366
2026-01-18 02:20:03.85	14.93	22.89	-47.0	-48.7	18.5	0.00e+00	0	35	0	395313152	65	4412
2026-01-18 02:20:07.88	14.33	23.39	-46.9	-48.5	18.7	0.00e+00	0	35	0	402653184	65	4333
2026-01-18 02:20:11.91	13.70	23.89	-47.0	-48.6	18.6	0.00e+00	0	35	0	411041792	65	4384
2026-01-18 02:20:15.95	13.05	24.41	-47.0	-48.7	18.6	0.00e+00	0	35	0	418381824	65	4398
2026-01-18 02:20:19.98	12.38	24.92	-47.0	-48.6	18.7	0.00e+00	0	35	0	425721856	65	4382
2026-01-18 02:20:24.01	11.69	25.44	-47.2	-48.8	18.5	0.00e+00	0	35	0	433061888	65	4487
2026-01-18 02:20:28.04	10.97	25.97	-47.3	-49.1	18.2	0.00e+00	0	35	0	440401920	65	4606
2026-01-18 02:20:32.08	10.23	26.50	-47.3	-49.0	18.3	0.00e+00	0	35	0	448790528	65	4576
2026-01-18 02:20:36.11	9.46	27.04	-47.2	-48.9	18.5	0.00e+00	0	35	0	456130560	65	4516
2026-01-18 02:20:40.15	8.66	27.58	-47.5	-49.3	18.1	0.00e+00	0	35	0	463470592	65	4732
2026-01-18 02:20:44.17	7.85	28.13	-47.7	-49.5	17.9	0.00e+00	0	35	0	470810624	65	4856
2026-01-18 02:20:48.21	6.99	28.68	-48.2	-50.2	17.2	0.00e+00	0	36	0	478150656	67	4696
2026-01-18 02:20:52.24	6.11	29.23	-49.3	-51.8	15.7	0.00e+00	0	36	0	486539264	69	5002
2026-01-18 02:20:56.27	5.20	29.79	-49.7	-52.4	15.2	0.00e+00	0	35	0	493879296	70	5059
2026-01-18 02:21:00.31	4.25	30.35	-49.6	-52.2	15.3	0.00e+00	0	36	0	501219328	70	4958
2026-01-18 02:21:04.34	3.27	30.91	-49.5	-52.1	15.5	0.00e+00	0	35	0	508559360	70	4897
2026-01-18 02:21:08.37	2.26	31.47	-49.6	-52.2	15.4	0.00e+00	0	35	0	516947968	70	4943
2026-01-18 02:21:12.40	1.21	32.04	-49.9	-52.7	15.0	0.00e+00	0	35	0	524288000	70	5240
2026-01-18 02:21:16.43	0.12	32.60	-49.4	-51.9	15.6	0.00e+00	0	36	0	531628032	70	4799
2026-01-18 02:21:20.47	358.99	33.16	-49.4	-51.9	15.7	0.00e+00	0	36	0	538968064	70	4797
2026-01-18 02:21:24.50	357.82	33.71	-48.9	-51.1	16.5	0.00e+00	0	36	0	546308096	69	4624
2026-01-18 02:21:28.53	356.62	34.27	-48.3	-50.2	17.4	0.00e+00	0	36	0	554696704	68	4419
2026-01-18 02:21:32.56	355.37	34.81	-48.1	-50.0	17.7	0.00e+00	0	36	0	562036736	68	4303
2026-01-18 02:21:36.59	354.08	35.36	-48.7	-50.8	16.9	0.00e+00	0	36	0	569376768	68	4714
2026-01-18 02:21:40.62	352.74	35.89	-48.4	-50.5	17.2	0.00e+00	0	36	0	576716800	68	4551
2026-01-18 02:21:44.65	351.36	36.41	-48.5	-50.5	17.2	0.00e+00	0	36	0	585105408	68	4573
2026-01-18 02:21:48.68	349.94	36.92	-48.6	-50.7	17.0	0.00e+00	0	36	0	592445440	68	4673
2026-01-18 02:21:52.71	348.47	37.42	-49.1	-51.3	16.4	0.00e+00	0	36	0	599785472	68	5037
2026-01-18 02:21:56.75	346.95	37.91	-48.5	-50.5	17.2	0.00e+00	0	36	0	607125504	68	4562
2026-01-18 02:22:00.77	345.39	38.37	-48.2	-50.1	17.6	0.00e+00	0	36	0	614465536	68	4381
2026-01-18 02:22:04.80	343.79	38.82	-48.0	-49.8	17.8	0.00e+00	0	36	0	621805568	68	4242
2026-01-18 02:22:08.83	342.14	39.24	-47.6	-49.4	18.2	0.00e+00	0	36	0	630194176	67	4257
2026-01-18 02:22:12.86	340.44	39.65	-47.5	-49.2	18.4	0.00e+00	0	36	0	637534208	67	4176
2026-01-18 02:22:16.89	338.71	40.03	-47.6	-49.4	18.3	0.00e+00	0	36	0	644874240	66	4512
2026-01-18 02:22:20.92	336.94	40.38	-47.3	-49.0	18.7	0.00e+00	0	36	0	652214272	66	4304
2026-01-18 02:22:24.96	335.12	40.70	-46.8	-48.2	19.4	0.00e+00	0	36	0	660602880	65	4185
2026-01-18 02:22:28.98	333.28	41.00	-46.2	-47.6	20.0	0.00e+00	0	36	0	667942912	64	4105
2026-01-18 02:22:33.01	331.40	41.26	-46.9	-48.4	19.3	0.00e+00	0	36	0	675282944	64	4519
2026-01-18 02:22:37.04	329.49	41.49	-46.5	-47.9	19.8	0.00e+00	0	36	0	682622976	64	4271
2026-01-18 02:22:41.08	327.55	41.68	-46.5	-47.9	19.7	0.00e+00	0	36	0	689963008	64	4283
2026-01-18 02:22:45.11	325.60	41.83	-46.4	-47.8	19.8	0.00e+00	0	36	0	698351616	64	4204
2026-01-18 02:22:49.14	323.63	41.95	-46.7	-48.2	19.5	0.00e+00	0	36	0	705691648	64	4404
2026-01-18 02:22:53.18	321.64	42.03	-46.9	-48.4	19.2	0.00e+00	0	36	0	713031680	64	4533
2026-01-18 02:22:57.21	319.65	42.07	-47.4	-49.1	18.7	0.00e+00	0	35	0	720371712	65	4603
2026-01-18 02:23:01.23	317.66	42.07	-47.5	-49.2	18.5	0.00e+00	0	36	0	727711744	66	4406
2026-01-18 02:23:05.26	315.67	42.03	-48.2	-50.1	17.6	0.00e+00	0	36	0	736100352	67	4634
2026-01-18 02:23:09.29	313.69	41.96	-48.9	-51.1	16.8	0.00e+00	0	36	0	743440384	68	4894
2026-01-18 02:23:13.33	311.71	41.84	-48.6	-50.7	17.2	0.00e+00	0	36	0	750780416	68	4663
2026-01-18 02:23:17.36	309.75	41.69	-50.1	-52.9	14.9	0.00e+00	0	36	0	758120448	70	5402
2026-01-18 02:23:21.39	307.82	41.50	-50.0	-52.7	15.2	0.00e+00	0	36	0	765460480	71	4939
2026-01-18 02:23:25.42	305.91	41.28	-49.9	-52.6	15.2	0.00e+00	0	35	0	773849088	70	5173
2026-01-18 02:23:29.45	304.03	41.02	-49.7	-52.2	15.7	0.00e+00	0	36	0	781189120	71	4660
2026-01-18 02:23:33.48	302.18	40.73	-48.0	-49.8	18.1	0.00e+00	0	36	0	788529152	68	4196
2026-01-18 02:23:37.51	300.36	40.40	-47.7	-49.4	18.4	0.00e+00	0	36	0	795869184	66	4498
2026-01-18 02:23:41.54	298.58	40.05	-46.0	-47.3	20.3	0.00e+00	0	36	0	803209216	64	4004
2026-01-18 02:23:45.57	296.84	39.68	-46.4	-47.8	19.9	0.00e+00	0	36	0	811597824	63	4475
2026-01-18 02:23:49.61	295.14	39.27	-45.3	-46.5	21.2	0.00e+00	0	36	0	818937856	62	4081
2026-01-18 02:23:53.64	293.49	38.85	-45.7	-47.0	20.8	0.00e+00	0	35	0	826277888	62	4296
2026-01-18 02:23:57.67	291.88	38.40	-45.5	-46.7	21.0	0.00e+00	0	35	0	833617920	62	4189
2026-01-18 02:24:01.71	290.31	37.93	-45.8	-47.1	20.6	0.00e+00	0	36	0	840957952	62	4369
2026-01-18 02:24:05.74	288.79	37.45	-46.1	-47.4	20.3	0.00e+00	0	36	0	849346560	63	4256
2026-01-18 02:24:09.77	287.31	36.95	-46.3	-47.7	20.1	0.00e+00	0	35	0	856686592	63	4409
2026-01-18 02:24:13.80	285.88	36.44	-46.3	-47.7	20.0	0.00e+00	0	36	0	864026624	63	4416
2026-01-18 02:24:17.84	284.49	35.91	-46.6	-48.0	19.6	0.00e+00	0	35	0	871366656	64	4332
2026-01-18 02:24:21.87	283.15	35.38	-46.6	-48.0	19.6	0.00e+00	0	35	0	879755264	64	4325
2026-01-18 02:24:25.89	281.86	34.84	-47.1	-48.7	19.0	0.00e+00	0	36	0	887095296	64	4663
2026-01-18 02:24:29.93	280.60	34.29	-47.9	-49.8	17.9	0.00e+00	0	36	0	894435328	66	4706
2026-01-18 02:24:33.96	279.39	33.74	-47.9	-49.8	17.9	0.00e+00	0	35	0	901775360	66	4709
2026-01-18 02:24:37.99	278.22	33.18	-48.5	-50.5	17.1	0.00e+00	0	35	0	909115392	67	4855
2026-01-18 02:24:42.02	277.09	32.62	-49.1	-51.4	16.3	0.00e+00	0	36	0	917504000	68	5077
2026-01-18 02:24:46.05	275.99	32.06	-49.1	-51.4	16.4	0.00e+00	0	36	0	924844032	69	4767
2026-01-18 02:24:50.09	274.94	31.49	-49.4	-51.8	15.9	0.00e+00	0	36	0	932184064	69	5031
2026-01-18 02:24:54.12	273.92	30.93	-49.2	-51.5	16.2	0.00e+00	0	36	0	939524096	69	4834
2026-01-18 02:24:58.15	272.94	30.37	-48.8	-50.9	16.8	0.00e+00	0	36	0	947912704	69	4515
2026-01-18 02:25:02.18	271.99	29.81	-48.6	-50.6	17.0	0.00e+00	0	35	0	955252736	69	4382
2026-01-18 02:25:06.22	271.07	29.25	-47.9	-49.8	17.8	0.00e+00	0	35	0	962592768	67	4451
2026-01-18 02:25:10.25	270.18	28.69	-47.9	-49.7	17.8	0.00e+00	0	35	0	969932800	67	4427
2026-01-18 02:25:14.28	269.33	28.14	-47.4	-49.0	18.5	0.00e+00	0	36	0	977272832	66	4334
2026-01-18 02:25:18.31	268.50	27.59	-47.5	-49.2	18.3	0.00e+00	0	36	0	984612864	66	4428
2026-01-18 02:25:22.34	267.70	27.05	-47.5	-49.2	18.2	0.00e+00	0	36	0	993001472	66	4438
2026-01-18 02:25:26.37	266.93	26.51	-47.2	-48.9	18.6	0.00e+00	0	35	0	1000341504	66	4246
2026-01-18 02:25:30.40	266.19	25.98	-47.7	-49.5	18.0	0.00e+00	0	36	0	1007681536	66	4563
2026-01-18 02:25:34.43	265.47	25.45	-47.6	-49.4	18.1	0.00e+00	0	35	0	1015021568	66	4498
2026-01-18 02:25:38.46	264.77	24.92	-47.4	-49.2	18.3	0.00e+00	0	36	0	1023410176	66	4394
2026-01-18 02:25:42.50	264.10	24.41	-47.4	-49.1	18.4	0.00e+00	0	36	0	1030750208	66	4365
2026-01-18 02:25:46.53	263.45	23.90	-47.5	-49.2	18.2	0.00e+00	0	36	0	1038090240	66	4434
2026-01-18 02:25:50.56	262.82	23.39	-47.8	-49.7	17.7	0.00e+00	0	36	0	1045430272	66	4682
2026-01-18 02:25:54.59	262.21	22.89	-47.7	-49.6	17.8	0.00e+00	0	35	0	1052770304	66	4602
2026-01-18 02:25:58.62	261.62	22.40	-47.3	-49.0	18.4	0.00e+00	0	35	0	1061158912	66	4315
2026-01-18 02:26:02.65	261.04	21.91	-47.4	-49.1	18.3	0.00e+00	0	36	0	1068498944	66	4347
2026-01-18 02:26:06.68	260.49	21.43	-47.9	-49.8	17.6	0.00e+00	0	36	0	1075838976	66	4745
2026-01-18 02:26:10.71	259.95	20.95	-47.8	-49.7	17.6	0.00e+00	0	36	0	1083179008	66	4700
2026-01-18 02:26:14.74	259.43	20.49	-47.6	-49.5	17.9	0.00e+00	0	36	0	1090519040	66	4565
2026-01-18 02:26:18.77	258.93	20.02	-47.6	-49.4	17.9	0.00e+00	0	36	0	1098907648	66	4517
2026-01-18 02:26:22.81	258.44	19.57	-47.6	-49.4	17.9	0.00e+00	0	36	0	1106247680	66	4507
2026-01-18 02:26:26.84	257.96	19.12	-47.5	-49.2	18.0	0.00e+00	0	36	0	1113587712	66	4440
2026-01-18 02:26:30.87	257.50	18.67	-47.7	-49.6	17.7	0.00e+00	0	35	0	1120927744	66	4611
2026-01-18 02:26:34.90	257.06	18.23	-47.6	-49.5	17.8	0.00e+00	0	36	0	1128267776	66	4559
2026-01-18 02:26:38.93	256.62	17.80	-47.4	-49.1	18.1	0.00e+00	0	35	0	1136656384	66	4389
2026-01-18 02:26:42.96	256.20	17.38	-47.2	-49.0	18.3	0.00e+00	0	36	0	1143996416	66	4299
2026-01-18 02:26:47.00	255.79	16.95	-47.1	-48.8	18.4	0.00e+00	0	36	0	1151336448	66	4218
2026-01-18 02:26:51.03	255.39	16.54	-47.3	-49.1	18.1	0.00e+00	0	36	0	1158676480	66	4352
2026-01-18 02:26:55.06	255.01	16.13	-47.6	-49.4	17.8	0.00e+00	0	36	0	1167065088	66	4534
2026-01-18 02:26:59.09	254.63	15.73	-47.7	-49.6	17.6	0.00e+00	0	36	0	1174405120	66	4638
2026-01-18 02:27:03.12	254.26	15.33	-47.6	-49.4	17.7	0.00e+00	0	36	0	1181745152	66	4542
2026-01-18 02:27:07.15	253.91	14.93	-47.6	-49.5	17.7	0.00e+00	0	36	0	1189085184	66	4554
2026-01-18 02:27:11.19	253.56	14.54	-47.8	-49.7	17.4	0.00e+00	0	36	0	1196425216	66	4690
2026-01-18 02:27:15.22	253.22	14.16	-48.0	-50.0	17.1	0.00e+00	0	36	0	1203765248	66	4850
2026-01-18 02:27:19.25	252.89	13.78	-48.1	-50.2	16.9	0.00e+00	0	36	0	1212153856	66	4968
2026-01-18 02:27:23.29	252.57	13.41	-48.1	-50.2	16.9	0.00e+00	0	36	0	1219493888	67	4696
2026-01-18 02:27:27.32	252.26	13.04	-48.3	-50.5	16.6	0.00e+00	0	36	0	1226833920	67	4827
2026-01-18 02:27:31.35	251.96	12.67	-48.5	-50.8	16.3	0.00e+00	0	35	0	1234173952	67	4988
2026-01-18 02:27:35.38	251.66	12.32	-48.6	-50.9	16.1	0.00e+00	0	36	0	1242562560	67	5065
2026-01-18 02:27:39.41	251.37	11.96	-48.8	-51.3	15.9	0.00e+00	0	36	0	1249902592	68	4984
2026-01-18 02:27:43.44	251.09	11.61	-48.5	-50.8	16.3	0.00e+00	0	35	0	1257242624	68	4756
2026-01-18 02:27:47.47	250.82	11.26	-48.6	-50.9	16.2	0.00e+00	0	35	0	1264582656	68	4789
2026-01-18 02:27:51.50	250.55	10.92	-48.7	-51.1	16.0	0.00e+00	0	36	0	1271922688	68	4879
2026-01-18 02:27:55.54	250.29	10.58	-48.8	-51.3	15.8	0.00e+00	0	36	0	1280311296	68	4988
2026-01-18 02:27:59.57	250.03	10.25	-48.6	-51.1	16.0	0.00e+00	0	36	0	1287651328	68	4872
2026-01-18 02:28:03.60	249.78	9.92	-48.8	-51.2	15.7	0.00e+00	0	36	0	1294991360	68	4975
2026-01-18 02:28:07.63	249.54	9.59	-48.8	-51.3	15.6	0.00e+00	0	36	0	1302331392	68	5030
2026-01-18 02:28:11.66	249.30	9.27	-48.9	-51.5	15.4	0.00e+00	0	36	0	1310720000	68	5139
2026-01-18 02:28:15.70	249.07	8.95	-49.1	-51.9	15.0	0.00e+00	0	36	0	1318060032	68	5367
2026-01-18 02:28:19.73	248.84	8.63	-49.1	-51.9	15.0	0.00e+00	0	36	0	1325400064	68	5352
2026-01-18 02:28:23.76	248.62	8.32	-49.1	-51.9	14.9	7.00e-07	0	36	0	1332740096	68	5396
2026-01-18 02:28:27.79	248.40	8.01	-49.1	-51.9	14.8	0.00e+00	0	36	0	1340080128	68	5398
2026-01-18 02:28:31.82	248.19	7.71	-49.0	-51.7	15.0	0.00e+00	0	36	0	1347420160	68	5267
2026-01-18 02:28:35.85	247.98	7.40	-49.0	-51.9	14.8	0.00e+00	0	36	0	1355808768	68	5348
2026-01-18 02:28:39.88	247.78	7.11	-48.9	-51.6	15.0	0.00e+00	0	35	0	1363148800	69	4919
2026-01-18 02:28:43.92	247.58	6.81	-49.1	-52.0	14.6	0.00e+00	0	36	0	1370488832	69	5132
2026-01-18 02:28:47.95	247.38	6.52	-49.1	-52.0	14.5	1.50e-06	0	36	0	1377828864	69	5139
2026-01-18 02:28:51.98	247.19	6.23	-49.1	-52.0	14.5	0.00e+00	0	36	0	1386217472	69	5155
2026-01-18 02:28:56.01	247.00	5.94	-49.1	-52.1	14.4	1.50e-06	0	36	0	1393557504	69	5192
2026-01-18 02:29:00.04	246.82	5.66	-49.2	-52.2	14.2	0.00e+00	0	36	0	1400897536	69	5272
2026-01-18 02:29:04.07	246.64	5.37	-49.4	-52.7	13.7	6.80e-06	0	36	0	1408237568	69	5569
2026-01-18 02:29:08.11	246.47	5.09	-49.3	-52.5	13.9	5.30e-06	0	36	0	1415577600	69	5417
2026-01-18 02:29:12.14	246.29	4.82	-53.3	-68.3	3.8	1.49e+00	0	36	104	1418723328	77	21070
2026-01-18 02:29:16.17	246.13	4.54	-53.7	-68.7	3.8	1.49e+00	0	36	104	1418723328	77	22210
2026-01-18 02:29:20.20	245.96	4.27	-53.9	-68.9	3.8	1.49e+00	0	36	104	1418723328	78	21421
2026-01-18 02:29:24.23	245.80	4.01	-54.0	-69.0	3.8	1.49e+00	0	36	104	1418723328	78	21648
2026-01-18 02:29:28.26	245.64	3.74	-54.0	-69.0	3.8	1.49e+00	0	36	104	1418723328	78	21751
2026-01-18 02:29:32.29	245.49	3.48	-54.0	-69.0	3.8	1.49e+00	0	36	104	1418723328	78	21713
2026-01-18 02:29:36.33	245.33	3.21	-54.0	-69.0	3.8	1.49e+00	0	36	104	1418723328	78	21607
2026-01-18 02:29:40.35	245.18	2.95	-54.0	-69.0	3.8	1.49e+00	0	36	104	1418723328	78	21593
2026-01-18 02:29:44.39	245.04	2.70	-54.0	-69.0	3.8	1.49e+00	0	36	104	1418723328	78	21511
2026-01-18 02:29:48.42	244.89	2.44	-53.9	-68.9	3.8	1.49e+00	0	36	104	1418723328	78	21504
2026-01-18 02:29:52.45	244.75	2.19	-53.9	-68.9	3.8	1.49e+00	0	36	104	1418723328	78	21489
2026-01-18 02:29:56.48	244.61	1.94	-53.9	-69.0	3.8	1.49e+00	0	36	104	1418723328	78	21559

#Closed at: 2026-01-18 02:29:58
#Recorded file [1418 MB]: D:/lorett/data/31041_260118_051601.dat