passes_logs/2026/01/18/R3.2S_Murmansk/R3.2S_Murmansk__20260118_231405_FENGYUN_3D_rec.log

#Pass ID: 20260118_231405_FENGYUN 3D
#Satellite: FENGYUN 3D
#Configuration: FENGYUN 3D
#almurnet v.1.7.20251203
#Start time: 2026-01-18 23:14:06

#Version: 2.2.20231116
#Station: R3.2S_Murmansk
#Location: 33.079688 lon 68.888172 lat
#TLE: 1 43010U 17072A   26018.59788810  .00000129  00000+0  82801-4 0  9992
#TLE: 2 43010  98.9937 350.4692 0002400 102.4643 257.6801 14.19696801423766

#Time	Az	El	Level	Level2	SNR	BER	BlckErr	Temp	State	Recorded	gain1	gain2
2026-01-18 23:14:06.06	19.46	2.04	-51.8	-63.7	3.8	8.46e-01	0	35	0	0	74	14795
2026-01-18 23:14:09.07	19.76	2.16	-51.8	-63.6	3.8	8.46e-01	0	35	104	0	74	14632
2026-01-18 23:14:12.09	20.08	2.29	-51.8	-63.6	3.8	8.48e-01	0	35	104	0	74	14688
2026-01-18 23:14:15.12	20.39	2.42	-51.8	-63.6	3.8	8.45e-01	0	35	104	0	74	14694
2026-01-18 23:14:18.14	20.71	2.55	-51.8	-63.7	3.8	8.46e-01	0	35	104	0	74	14721
2026-01-18 23:14:21.16	21.03	2.67	-51.8	-63.6	3.8	8.46e-01	0	35	104	0	74	14672
2026-01-18 23:14:24.19	21.36	2.80	-51.8	-63.6	3.8	8.47e-01	0	35	104	0	74	14708
2026-01-18 23:14:27.21	21.68	2.93	-51.8	-63.7	3.8	8.46e-01	0	35	104	0	74	14859
2026-01-18 23:14:30.24	22.01	3.06	-51.8	-63.7	3.8	8.47e-01	0	35	104	0	74	14741
2026-01-18 23:14:33.26	22.34	3.18	-51.8	-63.6	3.8	8.45e-01	0	35	104	0	74	14674
2026-01-18 23:14:36.29	22.68	3.31	-51.8	-63.7	3.8	8.45e-01	0	35	104	0	74	14744
2026-01-18 23:14:39.31	23.02	3.44	-51.8	-63.7	3.8	8.45e-01	0	35	104	0	74	14751
2026-01-18 23:14:42.33	23.36	3.56	-51.8	-63.7	3.8	8.47e-01	0	36	104	0	74	14722
2026-01-18 23:14:45.36	23.70	3.69	-51.8	-63.5	3.8	8.45e-01	0	35	104	0	74	14524
2026-01-18 23:14:48.38	24.04	3.81	-51.7	-63.8	3.8	8.46e-01	0	35	104	0	74	14974
2026-01-18 23:14:51.41	24.39	3.94	-51.8	-63.5	3.8	8.46e-01	0	36	104	0	74	14452
2026-01-18 23:14:54.43	24.74	4.06	-51.8	-63.6	3.8	8.47e-01	0	36	104	0	74	14660
2026-01-18 23:14:57.45	25.10	4.19	-51.8	-63.7	3.8	8.46e-01	0	36	104	0	74	14780
2026-01-18 23:15:00.47	25.45	4.31	-51.8	-63.5	3.8	8.46e-01	0	36	104	0	74	14454
2026-01-18 23:15:03.50	25.82	4.44	-51.8	-63.7	3.8	8.46e-01	0	36	104	0	74	14743
2026-01-18 23:15:06.52	26.18	4.56	-51.6	-62.2	3.8	8.46e-01	0	36	104	0	73	13196
2026-01-18 23:15:09.55	26.54	4.69	-51.7	-63.1	3.8	8.46e-01	0	36	104	0	74	13742
2026-01-18 23:15:12.57	26.91	4.81	-50.6	-56.4	6.2	4.51e-01	0	36	0	1048576	73	6749
2026-01-18 23:15:15.60	27.29	4.93	-48.2	-50.9	11.7	1.08e-03	0	36	0	17825792	68	4794
2026-01-18 23:15:18.62	27.66	5.05	-46.2	-48.0	14.8	9.04e-05	0	36	0	34603008	64	4305
2026-01-18 23:15:21.64	28.04	5.18	-50.1	-55.0	7.5	4.28e-02	0	36	0	51380224	70	6812
2026-01-18 23:15:24.66	28.42	5.30	-44.2	-45.4	18.0	0.00e+00	0	36	0	67108864	59	4288
2026-01-18 23:15:27.69	28.80	5.42	-44.0	-45.2	18.3	0.00e+00	0	36	0	84934656	59	4172
2026-01-18 23:15:30.71	29.19	5.54	-44.2	-45.4	18.2	0.00e+00	0	36	0	101711872	59	4249
2026-01-18 23:15:33.74	29.58	5.66	-44.1	-45.2	18.3	0.00e+00	0	36	0	118489088	59	4190
2026-01-18 23:15:36.76	29.97	5.78	-43.9	-45.1	18.5	0.00e+00	0	36	0	135266304	59	4122
2026-01-18 23:15:39.78	30.37	5.90	-44.1	-45.3	18.3	0.00e+00	0	36	0	152043520	59	4222
2026-01-18 23:15:42.80	30.77	6.02	-43.9	-45.0	18.6	0.00e+00	0	36	0	169869312	59	4091
2026-01-18 23:15:45.83	31.17	6.13	-43.9	-45.0	18.7	0.00e+00	0	36	0	186646528	59	4073
2026-01-18 23:15:48.85	31.58	6.25	-43.9	-45.0	18.7	0.00e+00	0	36	0	203423744	59	4082
2026-01-18 23:15:51.88	31.99	6.37	-43.7	-44.9	18.9	0.00e+00	0	36	0	220200960	59	4010
2026-01-18 23:15:54.90	32.40	6.48	-43.5	-44.6	19.1	0.00e+00	0	36	0	236978176	59	3906
2026-01-18 23:15:57.92	32.81	6.60	-43.7	-44.8	19.0	0.00e+00	0	36	0	254803968	59	3967
2026-01-18 23:16:00.94	33.23	6.71	-43.7	-44.8	18.9	0.00e+00	0	36	0	271581184	58	4214
2026-01-18 23:16:03.96	33.65	6.83	-43.5	-44.6	19.1	0.00e+00	0	36	0	288358400	58	4142
2026-01-18 23:16:06.98	34.08	6.94	-43.7	-44.8	19.0	0.00e+00	0	36	0	305135616	58	4206
2026-01-18 23:16:10.01	34.50	7.05	-43.7	-44.8	19.0	0.00e+00	0	36	0	321912832	58	4206
2026-01-18 23:16:13.03	34.93	7.16	-43.4	-44.5	19.3	0.00e+00	0	36	0	339738624	58	4058
2026-01-18 23:16:16.05	35.37	7.27	-43.8	-44.9	19.0	0.00e+00	0	36	0	356515840	58	4249
2026-01-18 23:16:19.08	35.81	7.38	-43.4	-44.4	19.4	0.00e+00	0	36	0	373293056	58	4039
2026-01-18 23:16:22.11	36.25	7.49	-43.5	-44.6	19.3	0.00e+00	0	36	0	390070272	58	4123
2026-01-18 23:16:25.13	36.69	7.60	-43.6	-44.7	19.2	0.00e+00	0	36	0	406847488	58	4148
2026-01-18 23:16:28.15	37.14	7.70	-43.7	-44.9	19.0	0.00e+00	0	36	0	424673280	58	4253
2026-01-18 23:16:31.18	37.59	7.81	-43.5	-44.6	19.3	0.00e+00	0	36	0	441450496	58	4139
2026-01-18 23:16:34.20	38.04	7.91	-43.2	-44.3	19.6	0.00e+00	0	36	0	458227712	58	3974
2026-01-18 23:16:37.23	38.50	8.02	-43.3	-44.3	19.6	0.00e+00	0	36	0	475004928	58	4000
2026-01-18 23:16:40.25	38.96	8.12	-43.5	-44.6	19.3	0.00e+00	0	36	0	491782144	58	4119
2026-01-18 23:16:43.28	39.42	8.22	-43.1	-44.1	19.8	0.00e+00	0	36	0	509607936	58	3899
2026-01-18 23:16:46.30	39.88	8.32	-43.0	-44.0	19.8	0.00e+00	0	36	0	526385152	57	4095
2026-01-18 23:16:49.32	40.35	8.42	-42.9	-43.9	20.0	0.00e+00	0	36	0	543162368	57	4021
2026-01-18 23:16:52.35	40.83	8.51	-43.0	-44.0	19.8	0.00e+00	0	36	0	559939584	57	4085
2026-01-18 23:16:55.37	41.30	8.61	-43.1	-44.1	19.8	0.00e+00	0	36	0	577765376	57	4122
2026-01-18 23:16:58.39	41.78	8.70	-43.0	-44.0	19.9	0.00e+00	0	36	0	594542592	57	4094
2026-01-18 23:17:01.42	42.26	8.80	-42.9	-43.9	20.0	0.00e+00	0	36	0	611319808	57	4029
2026-01-18 23:17:04.44	42.74	8.89	-42.9	-43.9	20.0	0.00e+00	0	36	0	628097024	57	4038
2026-01-18 23:17:07.47	43.23	8.98	-42.9	-43.9	20.0	0.00e+00	0	36	0	645922816	57	4035
2026-01-18 23:17:10.49	43.72	9.07	-42.9	-43.9	20.0	0.00e+00	0	36	0	662700032	57	4045
2026-01-18 23:17:13.52	44.21	9.16	-42.7	-43.7	20.2	0.00e+00	0	36	0	679477248	57	3946
2026-01-18 23:17:16.55	44.71	9.24	-42.9	-43.9	20.1	0.00e+00	0	36	0	696254464	57	4024
2026-01-18 23:17:19.57	45.21	9.33	-43.1	-44.1	19.9	0.00e+00	0	36	0	714080256	57	4134
2026-01-18 23:17:22.59	45.71	9.41	-43.2	-44.2	19.8	0.00e+00	0	36	0	730857472	57	4180
2026-01-18 23:17:25.62	46.21	9.49	-43.0	-44.1	19.9	0.00e+00	0	36	0	747634688	57	4107
2026-01-18 23:17:28.64	46.72	9.57	-42.8	-43.8	20.3	0.00e+00	0	36	0	764411904	57	3962
2026-01-18 23:17:31.67	47.23	9.65	-43.0	-44.0	20.0	0.00e+00	0	36	0	782237696	57	4088
2026-01-18 23:17:34.69	47.74	9.72	-43.1	-44.1	19.9	0.00e+00	0	36	0	799014912	57	4127
2026-01-18 23:17:37.72	48.25	9.80	-42.9	-43.9	20.0	0.00e+00	0	36	0	815792128	57	4048
2026-01-18 23:17:40.74	48.77	9.87	-42.9	-43.8	20.2	0.00e+00	0	36	0	832569344	57	4000
2026-01-18 23:17:43.76	49.29	9.94	-42.7	-43.7	20.3	0.00e+00	0	36	0	850395136	57	3938
2026-01-18 23:17:46.79	49.81	10.01	-42.5	-43.5	20.5	0.00e+00	0	36	0	867172352	57	3836
2026-01-18 23:17:49.81	50.33	10.08	-42.6	-43.5	20.5	0.00e+00	0	36	0	883949568	56	4081
2026-01-18 23:17:52.84	50.86	10.14	-42.5	-43.5	20.6	0.00e+00	0	36	0	900726784	56	4065
2026-01-18 23:17:55.86	51.39	10.21	-42.5	-43.4	20.6	0.00e+00	0	36	0	918552576	56	4048
2026-01-18 23:17:58.88	51.92	10.27	-42.3	-43.2	20.8	0.00e+00	0	36	0	935329792	56	3942
2026-01-18 23:18:01.89	52.45	10.33	-42.3	-43.2	20.8	0.00e+00	0	36	0	952107008	56	3928
2026-01-18 23:18:04.91	52.98	10.38	-42.6	-43.6	20.5	0.00e+00	0	36	0	968884224	56	4105
2026-01-18 23:18:07.93	53.52	10.44	-42.8	-43.7	20.3	0.00e+00	0	36	0	985661440	56	4183
2026-01-18 23:18:10.96	54.06	10.49	-42.6	-43.5	20.5	0.00e+00	0	36	0	1003487232	56	4076
2026-01-18 23:18:13.99	54.60	10.54	-42.5	-43.4	20.6	0.00e+00	0	36	0	1020264448	56	4051
2026-01-18 23:18:17.01	55.15	10.59	-42.6	-43.5	20.5	0.00e+00	0	36	0	1037041664	56	4078
2026-01-18 23:18:20.04	55.69	10.64	-42.6	-43.5	20.5	0.00e+00	0	36	0	1053818880	56	4084
2026-01-18 23:18:23.06	56.24	10.68	-42.6	-43.5	20.5	0.00e+00	0	36	0	1070596096	56	4086
2026-01-18 23:18:26.08	56.78	10.72	-42.6	-43.5	20.5	0.00e+00	0	36	0	1088421888	56	4092
2026-01-18 23:18:29.11	57.33	10.76	-42.5	-43.5	20.5	0.00e+00	0	37	0	1105199104	56	4060
2026-01-18 23:18:32.13	57.88	10.80	-42.7	-43.7	20.3	0.00e+00	0	36	0	1121976320	56	4164
2026-01-18 23:18:35.15	58.43	10.83	-42.6	-43.5	20.5	0.00e+00	0	37	0	1138753536	56	4085
2026-01-18 23:18:38.18	58.99	10.87	-42.5	-43.4	20.6	0.00e+00	0	36	0	1155530752	56	4036
2026-01-18 23:18:41.20	59.54	10.90	-42.3	-43.2	20.8	0.00e+00	0	36	0	1173356544	56	3939
2026-01-18 23:18:44.22	60.10	10.93	-42.3	-43.3	20.8	0.00e+00	0	36	0	1190133760	56	3966
2026-01-18 23:18:47.24	60.65	10.95	-42.3	-43.2	20.8	0.00e+00	0	36	0	1206910976	56	3951
2026-01-18 23:18:50.27	61.21	10.98	-42.5	-43.4	20.6	0.00e+00	0	36	0	1223688192	56	4044
2026-01-18 23:18:53.29	61.77	11.00	-42.5	-43.4	20.6	0.00e+00	0	36	0	1240465408	56	4034
2026-01-18 23:18:56.31	62.33	11.02	-42.4	-43.4	20.6	0.00e+00	0	36	0	1258291200	56	4007
2026-01-18 23:18:59.34	62.89	11.03	-42.3	-43.2	20.8	0.00e+00	0	36	0	1275068416	56	3924
2026-01-18 23:19:02.36	63.45	11.05	-42.4	-43.3	20.8	0.00e+00	0	36	0	1291845632	56	3980
2026-01-18 23:19:05.38	64.01	11.06	-42.3	-43.2	20.8	0.00e+00	0	36	0	1308622848	56	3948
2026-01-18 23:19:08.41	64.57	11.07	-42.5	-43.5	20.6	0.00e+00	0	36	0	1325400064	56	4052
2026-01-18 23:19:11.43	65.13	11.07	-42.3	-43.2	20.8	0.00e+00	0	36	0	1343225856	56	3949
2026-01-18 23:19:14.46	65.70	11.08	-42.4	-43.4	20.7	0.00e+00	0	36	0	1360003072	56	4021
2026-01-18 23:19:17.48	66.26	11.08	-42.5	-43.5	20.6	0.00e+00	0	36	0	1376780288	56	4059
2026-01-18 23:19:20.51	66.82	11.08	-42.4	-43.3	20.7	0.00e+00	0	36	0	1393557504	56	3993
2026-01-18 23:19:23.53	67.38	11.08	-42.3	-43.2	20.8	0.00e+00	0	36	0	1410334720	56	3924
2026-01-18 23:19:26.55	67.94	11.07	-42.4	-43.4	20.7	0.00e+00	0	36	0	1428160512	56	4008
2026-01-18 23:19:29.57	68.50	11.06	-42.6	-43.5	20.4	0.00e+00	0	36	0	1444937728	56	4091
2026-01-18 23:19:32.60	69.07	11.05	-42.3	-43.3	20.7	0.00e+00	0	36	0	1461714944	56	3963
2026-01-18 23:19:35.62	69.63	11.04	-42.3	-43.3	20.7	0.00e+00	0	36	0	1478492160	56	3974
2026-01-18 23:19:38.65	70.19	11.03	-42.6	-43.6	20.4	0.00e+00	0	36	0	1495269376	56	4119
2026-01-18 23:19:41.67	70.75	11.01	-42.7	-43.6	20.4	0.00e+00	0	36	0	1513095168	56	4143
2026-01-18 23:19:44.69	71.30	10.99	-42.7	-43.6	20.4	0.00e+00	0	36	0	1529872384	56	4134
2026-01-18 23:19:47.72	71.86	10.97	-42.5	-43.4	20.6	0.00e+00	0	36	0	1546649600	56	4037
2026-01-18 23:19:50.75	72.42	10.94	-42.5	-43.4	20.6	0.00e+00	0	36	0	1563426816	56	4047
2026-01-18 23:19:53.77	72.98	10.91	-42.6	-43.5	20.5	0.00e+00	0	36	0	1581252608	56	4082
2026-01-18 23:19:56.80	73.54	10.88	-42.5	-43.4	20.6	0.00e+00	0	36	0	1598029824	56	4042
2026-01-18 23:19:59.82	74.09	10.85	-42.6	-43.5	20.5	0.00e+00	0	36	0	1614807040	56	4088
2026-01-18 23:20:02.84	74.64	10.82	-42.7	-43.7	20.4	0.00e+00	0	36	0	1631584256	56	4154
2026-01-18 23:20:05.86	75.19	10.78	-42.6	-43.5	20.4	0.00e+00	0	36	0	1649410048	56	4087
2026-01-18 23:20:08.89	75.75	10.74	-42.4	-43.3	20.7	0.00e+00	0	36	0	1666187264	56	3980
2026-01-18 23:20:11.91	76.29	10.70	-42.5	-43.5	20.6	0.00e+00	0	36	0	1682964480	56	4057
2026-01-18 23:20:14.94	76.84	10.66	-42.6	-43.5	20.5	0.00e+00	0	36	0	1699741696	56	4081
2026-01-18 23:20:17.96	77.39	10.61	-42.6	-43.6	20.4	0.00e+00	0	36	0	1717567488	56	4111
2026-01-18 23:20:20.99	77.93	10.57	-42.6	-43.6	20.2	0.00e+00	0	36	0	1734344704	56	4135
2026-01-18 23:20:24.02	78.48	10.52	-42.9	-43.9	20.0	0.00e+00	0	36	0	1751121920	56	4260
2026-01-18 23:20:27.04	79.02	10.46	-42.8	-43.9	20.0	0.00e+00	0	36	0	1767899136	56	4246
2026-01-18 23:20:30.06	79.56	10.41	-42.6	-43.6	20.2	0.00e+00	0	36	0	1785724928	56	4114
2026-01-18 23:20:33.09	80.10	10.35	-42.4	-43.4	20.4	0.00e+00	0	36	0	1802502144	56	4033
2026-01-18 23:20:36.12	80.63	10.30	-42.7	-43.7	20.2	0.00e+00	0	36	0	1819279360	56	4161
2026-01-18 23:20:39.14	81.16	10.24	-42.6	-43.6	20.2	0.00e+00	0	36	0	1836056576	56	4126
2026-01-18 23:20:42.17	81.70	10.17	-42.7	-43.7	20.1	0.00e+00	0	36	0	1853882368	56	4176
2026-01-18 23:20:45.19	82.22	10.11	-42.7	-43.7	20.1	0.00e+00	0	36	0	1870659584	56	4179
2026-01-18 23:20:48.21	82.75	10.04	-43.0	-44.1	19.8	0.00e+00	0	36	0	1887436800	56	4358
2026-01-18 23:20:51.24	83.28	9.97	-42.9	-43.9	19.9	0.00e+00	0	36	0	1904214016	56	4267
2026-01-18 23:20:54.26	83.80	9.90	-43.0	-44.0	19.8	0.00e+00	0	37	0	1922039808	56	4324
2026-01-18 23:20:57.29	84.32	9.83	-43.0	-44.1	19.7	0.00e+00	0	36	0	1938817024	57	4100
2026-01-18 23:21:00.31	84.83	9.76	-43.3	-44.4	19.4	0.00e+00	0	36	0	1955594240	57	4248
2026-01-18 23:21:03.33	85.35	9.68	-43.3	-44.4	19.5	0.00e+00	0	36	0	1972371456	57	4258
2026-01-18 23:21:06.36	85.86	9.61	-43.0	-44.0	19.7	0.00e+00	0	36	0	1989148672	57	4088
2026-01-18 23:21:09.38	86.37	9.53	-42.8	-43.8	19.9	0.00e+00	0	36	0	2006974464	57	4004
2026-01-18 23:21:12.40	86.88	9.45	-42.8	-43.8	20.0	0.00e+00	0	36	0	2023751680	57	4001
2026-01-18 23:21:15.43	87.38	9.36	-43.0	-44.0	19.7	0.00e+00	0	36	0	2040528896	57	4079
2026-01-18 23:21:18.46	87.88	9.28	-43.0	-44.1	19.7	0.00e+00	0	36	0	2057306112	57	4114
2026-01-18 23:21:21.48	88.38	9.19	-43.1	-44.2	19.6	0.00e+00	0	37	0	2074083328	57	4151
2026-01-18 23:21:24.50	88.87	9.11	-43.2	-44.3	19.5	0.00e+00	0	36	0	2091909120	57	4214
2026-01-18 23:21:27.53	89.37	9.02	-43.4	-44.5	19.2	0.00e+00	0	36	0	2108686336	57	4333
2026-01-18 23:21:30.55	89.86	8.93	-43.0	-44.0	19.7	0.00e+00	0	36	0	2125463552	57	4074
2026-01-18 23:21:33.58	90.35	8.84	-43.1	-44.2	19.6	0.00e+00	0	36	0	2142240768	57	4148
2026-01-18 23:21:36.60	90.83	8.74	-43.1	-44.1	19.5	0.00e+00	0	36	0	2159017984	57	4144
2026-01-18 23:21:39.62	91.31	8.65	-43.2	-44.3	19.4	0.00e+00	0	37	0	2176843776	57	4229
2026-01-18 23:21:42.65	91.79	8.55	-43.4	-44.5	19.2	0.00e+00	0	36	0	2193620992	57	4296
2026-01-18 23:21:45.67	92.26	8.46	-43.5	-44.6	19.1	0.00e+00	0	36	0	2210398208	57	4370
2026-01-18 23:21:48.69	92.73	8.36	-43.6	-44.7	19.0	0.00e+00	0	36	0	2227175424	57	4436
2026-01-18 23:21:51.71	93.20	8.26	-43.4	-44.6	19.1	0.00e+00	0	36	0	2243952640	58	4105
2026-01-18 23:21:54.74	93.67	8.16	-43.7	-44.8	18.9	0.00e+00	0	36	0	2261778432	58	4231
2026-01-18 23:21:57.76	94.13	8.06	-43.3	-44.4	19.3	0.00e+00	0	36	0	2278555648	58	4040
2026-01-18 23:22:00.79	94.59	7.95	-43.3	-44.4	19.2	0.00e+00	0	36	0	2295332864	58	4043
2026-01-18 23:22:03.81	95.05	7.85	-43.2	-44.3	19.3	0.00e+00	0	36	0	2312110080	58	3980
2026-01-18 23:22:06.83	95.50	7.74	-43.4	-44.5	19.2	0.00e+00	0	36	0	2328887296	58	4056
2026-01-18 23:22:09.86	95.95	7.64	-43.7	-44.9	18.7	0.00e+00	0	36	0	2346713088	58	4275
2026-01-18 23:22:12.88	96.40	7.53	-43.9	-45.1	18.6	0.00e+00	0	36	0	2363490304	58	4357
2026-01-18 23:22:15.91	96.84	7.42	-43.8	-44.9	18.7	0.00e+00	0	36	0	2380267520	58	4290
2026-01-18 23:22:18.93	97.28	7.31	-43.6	-44.8	18.8	0.00e+00	0	36	0	2397044736	58	4204
2026-01-18 23:22:21.95	97.72	7.20	-43.7	-44.9	18.8	0.00e+00	0	36	0	2413821952	58	4247
2026-01-18 23:22:24.98	98.15	7.09	-43.8	-45.0	18.6	0.00e+00	0	36	0	2431647744	58	4326
2026-01-18 23:22:28.00	98.58	6.98	-44.1	-45.3	18.3	0.00e+00	0	36	0	2448424960	58	4491
2026-01-18 23:22:31.03	99.01	6.86	-43.8	-45.0	18.6	0.00e+00	0	37	0	2465202176	58	4305
2026-01-18 23:22:34.05	99.43	6.75	-44.0	-45.2	18.3	0.00e+00	0	36	0	2481979392	58	4435
2026-01-18 23:22:37.07	99.85	6.63	-43.9	-45.1	18.4	0.00e+00	0	37	0	2499805184	58	4364
2026-01-18 23:22:40.10	100.27	6.52	-43.8	-45.0	18.5	0.00e+00	0	36	0	2516582400	58	4326
2026-01-18 23:22:43.12	100.69	6.40	-43.7	-44.9	18.6	0.00e+00	0	36	0	2533359616	58	4253
2026-01-18 23:22:46.15	101.10	6.28	-43.9	-45.1	18.3	0.00e+00	0	36	0	2550136832	58	4387
2026-01-18 23:22:49.18	101.51	6.17	-44.2	-45.4	18.0	0.00e+00	0	36	0	2567962624	59	4278
2026-01-18 23:22:52.20	101.92	6.05	-44.1	-45.4	18.1	0.00e+00	0	37	0	2584739840	59	4264
2026-01-18 23:22:55.23	102.32	5.93	-44.0	-45.3	18.2	0.00e+00	0	36	0	2601517056	59	4198
2026-01-18 23:22:58.25	102.72	5.81	-44.2	-45.5	17.9	0.00e+00	0	36	0	2618294272	59	4299
2026-01-18 23:23:01.28	103.11	5.69	-44.2	-45.4	18.0	0.00e+00	0	37	0	2636120064	59	4287
2026-01-18 23:23:04.30	103.51	5.57	-44.1	-45.4	18.0	0.00e+00	0	36	0	2652897280	59	4252
2026-01-18 23:23:07.32	103.90	5.45	-44.3	-45.6	17.7	0.00e+00	0	36	0	2669674496	59	4385
2026-01-18 23:23:10.34	104.28	5.33	-44.4	-45.8	17.3	0.00e+00	0	37	0	2686451712	60	4198
2026-01-18 23:23:13.37	104.67	5.20	-44.3	-45.6	17.4	0.00e+00	0	37	0	2704277504	60	4136
2026-01-18 23:23:16.39	105.05	5.08	-44.4	-45.7	17.3	0.00e+00	0	37	0	2721054720	60	4172
2026-01-18 23:23:19.42	105.42	4.96	-52.5	-64.4	3.8	8.46e-01	0	36	104	2734686208	75	15203
2026-01-18 23:23:22.44	105.80	4.83	-53.1	-65.1	3.8	8.46e-01	0	37	104	2734686208	76	15488
2026-01-18 23:23:25.46	106.17	4.71	-53.5	-65.4	3.8	8.47e-01	0	36	104	2734686208	77	15208
2026-01-18 23:23:28.49	106.54	4.58	-53.6	-65.5	3.8	8.46e-01	0	36	104	2734686208	77	15400
2026-01-18 23:23:31.51	106.90	4.46	-53.8	-65.7	3.8	8.46e-01	0	36	104	2734686208	78	14833
2026-01-18 23:23:34.53	107.26	4.34	-53.8	-65.8	3.8	8.46e-01	0	36	104	2734686208	78	14970
2026-01-18 23:23:37.56	107.62	4.21	-53.9	-65.8	3.8	8.46e-01	0	36	104	2734686208	78	15045
2026-01-18 23:23:40.58	107.98	4.08	-53.9	-65.9	3.8	8.45e-01	0	36	104	2734686208	78	15139
2026-01-18 23:23:43.61	108.33	3.96	-54.0	-65.9	3.8	8.46e-01	0	36	104	2734686208	78	15183
2026-01-18 23:23:46.63	108.68	3.83	-54.0	-65.9	3.8	8.45e-01	0	37	104	2734686208	78	15225
2026-01-18 23:23:49.65	109.03	3.70	-54.0	-66.0	3.8	8.46e-01	0	36	104	2734686208	78	15234
2026-01-18 23:23:52.68	109.38	3.58	-53.9	-65.9	3.8	8.47e-01	0	37	104	2734686208	78	15166
2026-01-18 23:23:55.70	109.72	3.45	-53.9	-65.9	3.8	8.46e-01	0	37	104	2734686208	78	15144
2026-01-18 23:23:58.73	110.06	3.32	-53.9	-65.9	3.8	8.46e-01	0	37	104	2734686208	78	15109
2026-01-18 23:24:01.75	110.40	3.19	-53.9	-65.9	3.8	8.45e-01	0	36	104	2734686208	78	15148
2026-01-18 23:24:04.77	110.73	3.07	-53.9	-65.9	3.8	8.45e-01	0	37	104	2734686208	78	15086
2026-01-18 23:24:07.80	111.06	2.94	-53.9	-65.9	3.8	8.45e-01	0	37	104	2734686208	78	15132
2026-01-18 23:24:10.83	111.39	2.81	-53.9	-65.9	3.8	8.45e-01	0	36	104	2734686208	78	15073
2026-01-18 23:24:13.85	111.71	2.68	-53.9	-65.9	3.8	8.47e-01	0	37	104	2734686208	78	15129
2026-01-18 23:24:16.87	112.04	2.55	-53.9	-65.9	3.8	8.46e-01	0	36	104	2734686208	78	15059
2026-01-18 23:24:19.90	112.36	2.43	-53.9	-65.8	3.8	8.46e-01	0	37	104	2734686208	78	15048
2026-01-18 23:24:22.92	112.67	2.30	-53.9	-65.8	3.8	8.45e-01	0	37	104	2734686208	78	15030
2026-01-18 23:24:25.95	112.99	2.17	-53.9	-65.9	3.8	8.48e-01	0	36	104	2734686208	78	15055
2026-01-18 23:24:28.97	113.30	2.04	-53.9	-65.9	3.8	8.46e-01	0	37	104	2734686208	78	15052

#Closed at: 2026-01-18 23:24:31
#Recorded file [2734 MB]: D:/lorett/data/31041_260119_021405.dat