passes_logs/2026/01/18/R3.2S_Murmansk/R3.2S_Murmansk__20260118_053456_NOAA_20_JPSS-1_rec.log

#Pass ID: 20260118_053456_NOAA 20 (JPSS-1)
#Satellite: NOAA 20 (JPSS-1)
#Configuration: NOAA 20
#almurnet v.1.7.20251203
#Start time: 2026-01-18 05:34:57

#Version: 2.2.20231116
#Station: R3.2S_Murmansk
#Location: 33.079688 lon 68.888172 lat
#TLE: 1 43013U 17073A   26017.58553584  .00000066  00000+0  52288-4 0  9998
#TLE: 2 43013  98.7639 318.4977 0001406  35.6039 324.5231 14.19536575423107

#Time	Az	El	Level	Level2	SNR	BER	BlckErr	Temp	State	Recorded	gain1	gain2
2026-01-18 05:34:57.17	68.65	2.04	-51.9	-66.9	3.8	1.49e+00	0	33	0	0	75	20084
2026-01-18 05:35:00.19	68.46	2.21	-51.9	-66.8	3.8	1.49e+00	0	33	104	0	74	21178
2026-01-18 05:35:03.22	68.26	2.38	-51.9	-66.8	3.8	1.49e+00	0	34	104	0	74	21214
2026-01-18 05:35:06.24	68.07	2.55	-51.9	-66.9	3.8	1.49e+00	0	33	104	0	74	21263
2026-01-18 05:35:09.27	67.87	2.73	-51.9	-66.8	3.8	1.49e+00	0	34	104	0	74	21249
2026-01-18 05:35:12.29	67.67	2.90	-51.9	-66.8	3.8	1.49e+00	0	34	104	0	74	21226
2026-01-18 05:35:15.31	67.46	3.08	-51.9	-66.8	3.8	1.49e+00	0	34	104	0	74	21150
2026-01-18 05:35:18.34	67.25	3.26	-51.9	-66.8	3.8	1.49e+00	0	34	104	0	74	21165
2026-01-18 05:35:21.36	67.05	3.43	-51.9	-66.8	3.8	1.49e+00	0	34	104	0	74	21036
2026-01-18 05:35:24.39	66.83	3.61	-51.9	-66.8	3.8	1.49e+00	0	34	104	0	74	21083
2026-01-18 05:35:27.41	66.62	3.79	-51.9	-66.8	3.8	1.49e+00	0	34	104	0	74	21087
2026-01-18 05:35:30.44	66.40	3.97	-51.8	-65.9	3.8	1.49e+00	0	34	104	0	74	19003
2026-01-18 05:35:33.46	66.18	4.15	-51.7	-64.1	4.0	1.49e+00	0	34	104	0	74	15547
2026-01-18 05:35:36.48	65.95	4.33	-51.6	-62.0	4.6	1.15e+00	0	34	0	1048576	74	12226
2026-01-18 05:35:39.51	65.73	4.52	-51.2	-59.5	6.2	3.18e-01	0	34	0	6291456	74	9096
2026-01-18 05:35:42.53	65.50	4.70	-51.1	-58.7	6.9	1.70e-01	0	34	0	12582912	74	8274
2026-01-18 05:35:45.56	65.27	4.88	-51.3	-59.9	5.8	3.48e-01	0	35	0	17825792	74	9600
2026-01-18 05:35:48.58	65.03	5.07	-50.9	-57.2	8.2	8.16e-01	0	35	0	24117248	73	7393
2026-01-18 05:35:51.60	64.79	5.25	-51.2	-58.8	4.7	1.48e+00	0	35	104	27262976	74	8428
2026-01-18 05:35:54.63	64.55	5.44	-49.8	-53.6	12.5	1.22e-04	0	34	0	29360128	71	5523
2026-01-18 05:35:57.65	64.30	5.63	-49.6	-53.2	13.0	8.54e-05	0	35	0	35651584	71	5248
2026-01-18 05:36:00.68	64.06	5.82	-49.3	-52.6	13.6	3.80e-06	0	34	0	40894464	70	5189
2026-01-18 05:36:03.70	63.80	6.00	-48.7	-51.6	14.7	0.00e+00	0	35	0	46137344	69	4900
2026-01-18 05:36:06.72	63.55	6.19	-48.7	-51.4	14.9	0.00e+00	0	35	0	52428800	69	4799
2026-01-18 05:36:09.74	63.29	6.38	-48.7	-51.4	15.0	0.00e+00	0	35	0	57671680	69	4778
2026-01-18 05:36:12.77	63.03	6.57	-48.8	-51.6	14.8	0.00e+00	0	35	0	63963136	69	4915
2026-01-18 05:36:15.79	62.76	6.77	-48.8	-51.6	14.8	0.00e+00	0	34	0	69206016	69	4908
2026-01-18 05:36:18.82	62.49	6.96	-48.6	-51.3	15.2	0.00e+00	0	35	0	74448896	69	4721
2026-01-18 05:36:21.84	62.22	7.15	-48.8	-51.5	15.0	0.00e+00	0	35	0	80740352	69	4865
2026-01-18 05:36:24.86	61.94	7.35	-48.8	-51.6	14.8	0.00e+00	0	35	0	85983232	69	4907
2026-01-18 05:36:27.89	61.66	7.54	-48.8	-51.5	14.8	0.00e+00	0	35	0	92274688	69	4869
2026-01-18 05:36:30.91	61.38	7.74	-48.7	-51.4	15.1	0.00e+00	0	35	0	97517568	69	4787
2026-01-18 05:36:33.93	61.09	7.94	-48.6	-51.3	15.3	0.00e+00	0	35	0	102760448	69	4714
2026-01-18 05:36:36.96	60.79	8.13	-48.7	-51.3	15.2	0.00e+00	0	35	0	109051904	69	4733
2026-01-18 05:36:39.98	60.50	8.33	-48.3	-50.7	16.0	0.00e+00	0	35	0	114294784	68	4670
2026-01-18 05:36:43.00	60.20	8.53	-48.4	-50.9	15.8	0.00e+00	0	35	0	120586240	68	4786
2026-01-18 05:36:46.03	59.89	8.73	-48.3	-50.7	16.0	0.00e+00	0	35	0	125829120	68	4657
2026-01-18 05:36:49.05	59.58	8.93	-48.3	-50.7	15.9	0.00e+00	0	35	0	131072000	68	4697
2026-01-18 05:36:52.07	59.27	9.14	-48.3	-50.7	16.0	0.00e+00	0	35	0	137363456	68	4664
2026-01-18 05:36:55.10	58.95	9.34	-48.2	-50.6	16.1	0.00e+00	0	35	0	142606336	68	4621
2026-01-18 05:36:58.13	58.62	9.54	-48.6	-51.1	15.7	0.00e+00	0	35	0	148897792	68	4875
2026-01-18 05:37:01.15	58.29	9.75	-48.6	-51.1	15.6	0.00e+00	0	35	0	154140672	68	4898
2026-01-18 05:37:04.17	57.96	9.95	-48.5	-50.9	15.8	0.00e+00	0	35	0	160432128	68	4814
2026-01-18 05:37:07.20	57.62	10.16	-48.5	-51.0	15.7	0.00e+00	0	35	0	165675008	68	4848
2026-01-18 05:37:10.22	57.28	10.36	-48.4	-50.8	16.0	0.00e+00	0	35	0	170917888	68	4735
2026-01-18 05:37:13.24	56.93	10.57	-48.3	-50.7	16.2	0.00e+00	0	35	0	177209344	68	4657
2026-01-18 05:37:16.27	56.58	10.78	-48.2	-50.5	16.3	0.00e+00	0	35	0	182452224	68	4575
2026-01-18 05:37:19.29	56.22	10.99	-48.2	-50.5	16.4	0.00e+00	0	35	0	188743680	68	4577
2026-01-18 05:37:22.32	55.86	11.20	-48.1	-50.2	16.6	0.00e+00	0	35	0	193986560	68	4439
2026-01-18 05:37:25.34	55.49	11.41	-48.0	-50.1	16.7	0.00e+00	0	35	0	199229440	68	4385
2026-01-18 05:37:28.36	55.12	11.62	-47.8	-49.8	17.0	0.00e+00	0	35	0	205520896	67	4481
2026-01-18 05:37:31.39	54.74	11.83	-47.7	-49.7	17.1	0.00e+00	0	35	0	210763776	67	4438
2026-01-18 05:37:34.41	54.35	12.04	-47.7	-49.7	17.1	0.00e+00	0	35	0	217055232	67	4420
2026-01-18 05:37:37.44	53.96	12.25	-47.7	-49.8	17.1	0.00e+00	0	35	0	222298112	67	4445
2026-01-18 05:37:40.46	53.56	12.46	-47.7	-49.7	17.1	0.00e+00	0	35	0	228589568	67	4423
2026-01-18 05:37:43.49	53.16	12.68	-47.8	-49.8	17.0	0.00e+00	0	35	0	233832448	67	4472
2026-01-18 05:37:46.51	52.75	12.89	-47.5	-49.5	17.4	0.00e+00	0	35	0	239075328	67	4313
2026-01-18 05:37:49.54	52.34	13.10	-47.4	-49.3	17.5	0.00e+00	0	35	0	245366784	66	4485
2026-01-18 05:37:52.56	51.92	13.32	-47.3	-49.1	17.8	0.00e+00	0	35	0	250609664	66	4373
2026-01-18 05:37:55.58	51.49	13.53	-47.2	-49.0	17.9	0.00e+00	0	35	0	256901120	66	4302
2026-01-18 05:37:58.61	51.06	13.75	-47.2	-49.0	17.9	0.00e+00	0	35	0	262144000	66	4338
2026-01-18 05:38:01.63	50.62	13.96	-47.1	-48.9	18.0	0.00e+00	0	35	0	267386880	66	4251
2026-01-18 05:38:04.65	50.17	14.18	-47.3	-49.1	17.8	0.00e+00	0	35	0	273678336	66	4383
2026-01-18 05:38:07.67	49.72	14.39	-47.5	-49.4	17.5	0.00e+00	0	35	0	278921216	66	4528
2026-01-18 05:38:10.70	49.26	14.61	-47.4	-49.3	17.7	0.00e+00	0	35	0	285212672	66	4454
2026-01-18 05:38:13.72	48.79	14.82	-47.6	-49.5	17.4	0.00e+00	0	35	0	290455552	66	4598
2026-01-18 05:38:16.74	48.32	15.04	-47.5	-49.4	17.5	0.00e+00	0	35	0	295698432	66	4540
2026-01-18 05:38:19.77	47.84	15.25	-47.7	-49.7	17.3	0.00e+00	0	35	0	301989888	66	4684
2026-01-18 05:38:22.79	47.35	15.47	-47.9	-49.9	17.1	0.00e+00	0	35	0	307232768	66	4784
2026-01-18 05:38:25.81	46.85	15.68	-47.8	-49.8	17.2	0.00e+00	0	35	0	313524224	66	4726
2026-01-18 05:38:28.84	46.35	15.90	-47.8	-49.8	17.2	0.00e+00	0	35	0	318767104	66	4718
2026-01-18 05:38:31.86	45.84	16.11	-47.8	-49.8	17.2	0.00e+00	0	35	0	324009984	66	4746
2026-01-18 05:38:34.89	45.32	16.32	-47.9	-49.9	17.2	0.00e+00	0	35	0	330301440	66	4784
2026-01-18 05:38:37.91	44.80	16.54	-48.0	-50.1	17.0	0.00e+00	0	35	0	335544320	66	4876
2026-01-18 05:38:40.93	44.27	16.75	-47.8	-49.8	17.2	0.00e+00	0	35	0	341835776	66	4738
2026-01-18 05:38:43.96	43.73	16.96	-47.9	-49.9	17.2	0.00e+00	0	35	0	347078656	66	4782
2026-01-18 05:38:46.98	43.18	17.17	-47.8	-49.7	17.4	0.00e+00	0	35	0	352321536	66	4683
2026-01-18 05:38:50.00	42.63	17.38	-47.8	-49.7	17.4	0.00e+00	0	35	0	358612992	66	4698
2026-01-18 05:38:53.03	42.06	17.59	-47.8	-49.7	17.3	0.00e+00	0	35	0	363855872	66	4689
2026-01-18 05:38:56.05	41.49	17.80	-47.4	-49.2	17.9	0.00e+00	0	35	0	370147328	66	4425
2026-01-18 05:38:59.08	40.91	18.00	-47.3	-49.1	18.0	0.00e+00	0	35	0	375390208	66	4354
2026-01-18 05:39:02.10	40.33	18.21	-47.0	-48.7	18.4	0.00e+00	0	35	0	380633088	66	4176
2026-01-18 05:39:05.12	39.73	18.41	-46.4	-47.9	19.2	0.00e+00	0	35	0	386924544	64	4268
2026-01-18 05:39:08.15	39.13	18.61	-46.2	-47.7	19.4	0.00e+00	0	35	0	392167424	64	4170
2026-01-18 05:39:11.17	38.52	18.81	-46.0	-47.5	19.7	0.00e+00	0	35	0	398458880	63	4298
2026-01-18 05:39:14.19	37.90	19.01	-46.1	-47.6	19.6	0.00e+00	0	35	0	403701760	63	4365
2026-01-18 05:39:17.22	37.27	19.21	-46.0	-47.4	19.7	0.00e+00	0	35	0	408944640	63	4284
2026-01-18 05:39:20.24	36.64	19.40	-45.8	-47.2	20.0	0.00e+00	0	35	0	415236096	63	4154
2026-01-18 05:39:23.26	35.99	19.59	-45.8	-47.2	20.0	0.00e+00	0	35	0	420478976	63	4158
2026-01-18 05:39:26.29	35.34	19.78	-45.8	-47.2	19.9	0.00e+00	0	35	0	426770432	63	4186
2026-01-18 05:39:29.31	34.68	19.97	-45.5	-46.9	20.3	0.00e+00	0	35	0	432013312	63	4008
2026-01-18 05:39:32.33	34.01	20.15	-45.6	-47.0	20.2	0.00e+00	0	35	0	437256192	63	4068
2026-01-18 05:39:35.36	33.34	20.34	-45.6	-46.9	20.3	0.00e+00	0	35	0	443547648	62	4253
2026-01-18 05:39:38.38	32.65	20.51	-45.8	-47.2	19.9	0.00e+00	0	35	0	448790528	62	4417
2026-01-18 05:39:41.40	31.96	20.69	-45.7	-47.1	20.1	0.00e+00	0	35	0	455081984	62	4347
2026-01-18 05:39:44.42	31.26	20.86	-45.7	-47.0	20.1	0.00e+00	0	35	0	460324864	62	4332
2026-01-18 05:39:47.45	30.55	21.03	-45.6	-46.9	20.2	0.00e+00	0	35	0	465567744	62	4277
2026-01-18 05:39:50.47	29.84	21.19	-45.6	-47.0	20.2	0.00e+00	0	35	0	471859200	62	4299
2026-01-18 05:39:53.50	29.11	21.36	-45.4	-46.7	20.5	0.00e+00	0	35	0	477102080	62	4192
2026-01-18 05:39:56.52	28.38	21.51	-45.2	-46.5	20.7	0.00e+00	0	35	0	483393536	62	4070
2026-01-18 05:39:59.54	27.65	21.67	-45.2	-46.5	20.7	0.00e+00	0	35	0	488636416	62	4057
2026-01-18 05:40:02.56	26.90	21.81	-45.3	-46.6	20.5	0.00e+00	0	35	0	494927872	62	4129
2026-01-18 05:40:05.59	26.15	21.96	-45.2	-46.4	20.7	0.00e+00	0	35	0	500170752	62	4028
2026-01-18 05:40:08.61	25.39	22.10	-45.1	-46.4	20.8	0.00e+00	0	35	0	505413632	62	4018
2026-01-18 05:40:11.63	24.62	22.23	-45.0	-46.2	20.9	0.00e+00	0	35	0	511705088	61	4180
2026-01-18 05:40:14.66	23.85	22.36	-45.1	-46.3	20.8	0.00e+00	0	35	0	516947968	61	4239
2026-01-18 05:40:17.68	23.07	22.49	-45.3	-46.5	20.6	0.00e+00	0	35	0	523239424	61	4326
2026-01-18 05:40:20.70	22.28	22.61	-45.5	-46.9	20.3	0.00e+00	0	35	0	528482304	61	4495
2026-01-18 05:40:23.72	21.49	22.73	-45.4	-46.6	20.6	0.00e+00	0	35	0	533725184	61	4380
2026-01-18 05:40:26.74	20.70	22.83	-45.5	-46.8	20.3	0.00e+00	0	35	0	540016640	61	4483
2026-01-18 05:40:29.77	19.89	22.94	-45.9	-47.3	20.0	0.00e+00	0	35	0	545259520	62	4470
2026-01-18 05:40:32.79	19.08	23.04	-46.5	-48.0	19.3	0.00e+00	0	35	0	551550976	63	4583
2026-01-18 05:40:35.82	18.27	23.13	-46.3	-47.7	19.6	0.00e+00	0	35	0	556793856	63	4413
2026-01-18 05:40:38.84	17.45	23.22	-46.7	-48.3	18.9	0.00e+00	0	35	0	562036736	64	4464
2026-01-18 05:40:41.86	16.63	23.30	-46.6	-48.2	19.0	0.00e+00	0	35	0	568328192	64	4406
2026-01-18 05:40:44.89	15.80	23.37	-46.9	-48.6	18.6	0.00e+00	0	35	0	573571072	64	4600
2026-01-18 05:40:47.91	14.97	23.44	-46.9	-48.6	18.7	0.00e+00	0	35	0	579862528	64	4599
2026-01-18 05:40:50.93	14.14	23.50	-47.3	-49.0	18.3	0.00e+00	0	35	0	585105408	65	4572
2026-01-18 05:40:53.95	13.30	23.55	-47.1	-48.8	18.4	0.00e+00	0	35	0	590348288	65	4455
2026-01-18 05:40:56.98	12.46	23.60	-47.0	-48.6	18.6	0.00e+00	0	35	0	596639744	65	4385
2026-01-18 05:41:00.00	11.62	23.64	-46.8	-48.4	18.9	0.00e+00	0	35	0	601882624	65	4248
2026-01-18 05:41:03.02	10.78	23.68	-47.0	-48.6	18.6	0.00e+00	0	35	0	608174080	65	4378
2026-01-18 05:41:06.03	9.93	23.71	-47.0	-48.6	18.6	0.00e+00	0	35	0	613416960	65	4375
2026-01-18 05:41:09.05	9.09	23.73	-46.8	-48.5	18.7	0.00e+00	0	35	0	618659840	65	4300
2026-01-18 05:41:12.08	8.24	23.75	-46.8	-48.4	18.8	0.00e+00	0	35	0	624951296	65	4290
2026-01-18 05:41:15.10	7.39	23.75	-46.6	-48.1	19.1	0.00e+00	0	35	0	630194176	65	4134
2026-01-18 05:41:18.12	6.54	23.76	-46.6	-48.2	19.0	0.00e+00	0	35	0	636485632	65	4166
2026-01-18 05:41:21.15	5.69	23.75	-46.2	-47.7	19.5	0.00e+00	0	35	0	641728512	64	4171
2026-01-18 05:41:24.17	4.84	23.74	-46.1	-47.5	19.6	0.00e+00	0	35	0	648019968	64	4098
2026-01-18 05:41:27.19	4.00	23.72	-46.0	-47.4	19.7	0.00e+00	0	35	0	653262848	64	4047
2026-01-18 05:41:30.21	3.15	23.69	-45.8	-47.1	20.1	0.00e+00	0	35	0	658505728	63	4143
2026-01-18 05:41:33.24	2.30	23.66	-45.4	-46.7	20.5	0.00e+00	0	35	0	664797184	62	4169
2026-01-18 05:41:36.26	1.46	23.62	-45.0	-46.2	21.0	0.00e+00	0	35	0	670040064	62	3955
2026-01-18 05:41:39.28	0.62	23.58	-45.1	-46.3	20.9	0.00e+00	0	35	0	676331520	62	4004
2026-01-18 05:41:42.31	359.78	23.52	-44.6	-45.8	21.4	0.00e+00	0	35	0	681574400	61	3967
2026-01-18 05:41:45.33	358.95	23.46	-44.8	-46.0	21.2	0.00e+00	0	35	0	686817280	61	4080
2026-01-18 05:41:48.35	358.12	23.40	-44.5	-45.6	21.5	0.00e+00	0	35	0	693108736	61	3909
2026-01-18 05:41:51.38	357.29	23.33	-44.5	-45.7	21.5	0.00e+00	0	35	0	698351616	60	4159
2026-01-18 05:41:54.40	356.47	23.25	-44.8	-45.9	21.2	0.00e+00	0	35	0	704643072	60	4283
2026-01-18 05:41:57.42	355.65	23.17	-45.0	-46.2	20.9	0.00e+00	0	35	0	709885952	60	4435
2026-01-18 05:42:00.45	354.83	23.08	-44.9	-46.1	21.1	0.00e+00	0	35	0	715128832	60	4371
2026-01-18 05:42:03.47	354.02	22.98	-45.2	-46.4	20.8	0.00e+00	0	35	0	721420288	61	4290
2026-01-18 05:42:06.49	353.22	22.88	-45.5	-46.8	20.5	0.00e+00	0	35	0	726663168	61	4455
2026-01-18 05:42:09.51	352.42	22.77	-45.8	-47.1	20.2	0.00e+00	0	35	0	732954624	62	4371
2026-01-18 05:42:12.53	351.62	22.66	-45.8	-47.2	20.1	0.00e+00	0	35	0	738197504	62	4398
2026-01-18 05:42:15.56	350.84	22.54	-45.8	-47.2	20.0	0.00e+00	0	35	0	743440384	62	4411
2026-01-18 05:42:18.58	350.05	22.42	-46.2	-47.7	19.6	0.00e+00	0	35	0	749731840	63	4415
2026-01-18 05:42:21.60	349.28	22.29	-46.4	-47.9	19.4	0.00e+00	0	35	0	754974720	63	4494
2026-01-18 05:42:24.63	348.51	22.16	-46.4	-47.9	19.4	0.00e+00	0	35	0	761266176	63	4506
2026-01-18 05:42:27.65	347.75	22.02	-46.4	-47.9	19.4	0.00e+00	0	35	0	766509056	63	4494
2026-01-18 05:42:30.68	346.99	21.88	-46.7	-48.3	19.0	0.00e+00	0	35	0	771751936	63	4724
2026-01-18 05:42:33.70	346.24	21.73	-46.7	-48.3	18.8	0.00e+00	0	35	0	778043392	64	4485
2026-01-18 05:42:36.72	345.50	21.58	-46.8	-48.4	18.8	0.00e+00	0	35	0	783286272	64	4526
2026-01-18 05:42:39.75	344.77	21.42	-46.5	-48.1	19.1	0.00e+00	0	35	0	789577728	64	4341
2026-01-18 05:42:42.77	344.04	21.26	-46.7	-48.2	19.0	0.00e+00	0	35	0	794820608	64	4439
2026-01-18 05:42:45.79	343.33	21.10	-46.8	-48.4	18.8	0.00e+00	0	35	0	800063488	64	4534
2026-01-18 05:42:48.81	342.62	20.93	-46.5	-48.1	19.1	0.00e+00	0	35	0	806354944	64	4347
2026-01-18 05:42:51.84	341.91	20.76	-46.5	-48.1	19.1	0.00e+00	0	35	0	811597824	64	4341
2026-01-18 05:42:54.86	341.22	20.59	-46.6	-48.2	19.0	0.00e+00	0	35	0	817889280	64	4402
2026-01-18 05:42:57.88	340.53	20.41	-46.5	-48.0	19.1	0.00e+00	0	35	0	823132160	64	4335
2026-01-18 05:43:00.91	339.85	20.23	-46.3	-47.8	19.4	0.00e+00	0	35	0	828375040	64	4209
2026-01-18 05:43:03.93	339.18	20.05	-46.3	-47.8	19.4	0.00e+00	0	35	0	834666496	64	4212
2026-01-18 05:43:06.95	338.52	19.86	-46.2	-47.7	19.5	0.00e+00	0	35	0	839909376	64	4154
2026-01-18 05:43:09.98	337.86	19.67	-46.3	-47.8	19.3	0.00e+00	0	35	0	846200832	64	4225
2026-01-18 05:43:13.00	337.22	19.48	-46.3	-47.8	19.3	0.00e+00	0	35	0	851443712	64	4208
2026-01-18 05:43:16.02	336.58	19.29	-46.2	-47.7	19.4	0.00e+00	0	35	0	856686592	64	4164
2026-01-18 05:43:19.04	335.95	19.10	-46.3	-47.8	19.3	0.00e+00	0	35	0	862978048	64	4200
2026-01-18 05:43:22.07	335.33	18.90	-46.4	-48.0	19.1	0.00e+00	0	35	0	868220928	64	4303
2026-01-18 05:43:25.09	334.71	18.70	-46.4	-47.9	19.2	0.00e+00	0	35	0	874512384	64	4277
2026-01-18 05:43:28.11	334.11	18.50	-46.4	-47.9	19.2	0.00e+00	0	35	0	879755264	64	4283
2026-01-18 05:43:31.14	333.51	18.30	-46.5	-48.1	19.1	0.00e+00	0	35	0	884998144	64	4344
2026-01-18 05:43:34.16	332.92	18.09	-46.3	-47.8	19.3	0.00e+00	0	35	0	891289600	64	4225
2026-01-18 05:43:37.18	332.34	17.89	-46.3	-47.8	19.3	0.00e+00	0	35	0	896532480	64	4215
2026-01-18 05:43:40.21	331.76	17.68	-46.3	-47.8	19.2	0.00e+00	0	35	0	902823936	64	4239
2026-01-18 05:43:43.23	331.20	17.47	-46.3	-47.9	19.2	0.00e+00	0	35	0	908066816	64	4251
2026-01-18 05:43:46.25	330.64	17.26	-46.4	-47.9	19.2	0.00e+00	0	35	0	913309696	64	4261
2026-01-18 05:43:49.28	330.09	17.05	-46.1	-47.5	19.6	0.00e+00	0	35	0	919601152	63	4328
2026-01-18 05:43:52.30	329.55	16.84	-45.9	-47.3	19.8	0.00e+00	0	35	0	924844032	63	4233
2026-01-18 05:43:55.32	329.02	16.63	-45.8	-47.2	19.8	0.00e+00	0	35	0	931135488	63	4184
2026-01-18 05:43:58.35	328.49	16.42	-46.1	-47.5	19.6	0.00e+00	0	35	0	936378368	63	4322
2026-01-18 05:44:01.37	327.97	16.20	-46.0	-47.4	19.7	0.00e+00	0	35	0	942669824	63	4259
2026-01-18 05:44:04.39	327.46	15.99	-45.7	-47.1	20.0	0.00e+00	0	35	0	947912704	63	4109
2026-01-18 05:44:07.42	326.95	15.78	-45.5	-46.9	20.2	0.00e+00	0	35	0	953155584	63	4007
2026-01-18 05:44:10.44	326.45	15.56	-45.7	-47.1	20.0	0.00e+00	0	35	0	959447040	63	4129
2026-01-18 05:44:13.47	325.96	15.35	-45.7	-47.1	20.0	0.00e+00	0	35	0	964689920	63	4116
2026-01-18 05:44:16.49	325.48	15.13	-45.7	-47.1	20.0	0.00e+00	0	35	0	970981376	63	4133
2026-01-18 05:44:19.52	325.00	14.92	-45.9	-47.3	19.8	0.00e+00	0	35	0	976224256	63	4204
2026-01-18 05:44:22.54	324.54	14.70	-45.6	-47.0	20.0	0.00e+00	0	35	0	981467136	63	4082
2026-01-18 05:44:25.56	324.07	14.49	-45.7	-47.1	19.9	0.00e+00	0	35	0	987758592	63	4134
2026-01-18 05:44:28.59	323.62	14.27	-45.8	-47.3	19.8	0.00e+00	0	35	0	993001472	63	4200
2026-01-18 05:44:31.61	323.17	14.06	-45.9	-47.4	19.6	0.00e+00	0	35	0	999292928	63	4262
2026-01-18 05:44:34.63	322.73	13.84	-46.2	-47.7	19.3	0.00e+00	0	35	0	1004535808	63	4401
2026-01-18 05:44:37.66	322.29	13.63	-46.5	-48.0	19.0	0.00e+00	0	35	0	1009778688	63	4592
2026-01-18 05:44:40.68	321.86	13.41	-46.4	-48.0	18.9	0.00e+00	0	35	0	1016070144	63	4584
2026-01-18 05:44:43.71	321.44	13.20	-46.2	-47.7	19.2	0.00e+00	0	35	0	1021313024	63	4426
2026-01-18 05:44:46.73	321.02	12.99	-46.2	-47.7	19.2	0.00e+00	0	35	0	1027604480	63	4425
2026-01-18 05:44:49.75	320.61	12.77	-46.3	-47.9	19.1	0.00e+00	0	35	0	1032847360	63	4495
2026-01-18 05:44:52.78	320.21	12.56	-46.6	-48.2	18.8	0.00e+00	0	35	0	1039138816	63	4670
2026-01-18 05:44:55.80	319.81	12.35	-46.7	-48.3	18.6	0.00e+00	0	35	0	1044381696	63	4732
2026-01-18 05:44:58.82	319.42	12.14	-46.6	-48.2	18.6	0.00e+00	0	35	0	1049624576	64	4432
2026-01-18 05:45:01.84	319.03	11.92	-46.6	-48.3	18.6	0.00e+00	0	35	0	1055916032	64	4447
2026-01-18 05:45:04.87	318.65	11.71	-46.7	-48.3	18.4	0.00e+00	0	35	0	1061158912	64	4485
2026-01-18 05:45:07.89	318.27	11.50	-46.7	-48.3	18.5	0.00e+00	0	35	0	1067450368	64	4480
2026-01-18 05:45:10.91	317.90	11.29	-46.7	-48.4	18.4	0.00e+00	0	35	0	1072693248	64	4509
2026-01-18 05:45:13.94	317.54	11.08	-46.9	-48.6	18.1	0.00e+00	0	36	0	1077936128	64	4643
2026-01-18 05:45:16.96	317.18	10.88	-47.0	-48.8	18.0	0.00e+00	0	35	0	1084227584	64	4727
2026-01-18 05:45:19.99	316.82	10.67	-47.1	-48.9	17.8	0.00e+00	0	35	0	1089470464	64	4806
2026-01-18 05:45:23.02	316.47	10.46	-47.0	-48.8	17.9	0.00e+00	0	35	0	1095761920	64	4752
2026-01-18 05:45:26.04	316.13	10.25	-47.1	-48.9	17.8	0.00e+00	0	35	0	1101004800	64	4780
2026-01-18 05:45:29.06	315.79	10.05	-47.1	-49.0	17.7	0.00e+00	0	35	0	1106247680	64	4839
2026-01-18 05:45:32.08	315.45	9.84	-47.2	-49.2	17.6	0.00e+00	0	35	0	1112539136	65	4653
2026-01-18 05:45:35.11	315.12	9.64	-47.3	-49.2	17.5	0.00e+00	0	35	0	1117782016	65	4691
2026-01-18 05:45:38.13	314.80	9.43	-47.5	-49.5	17.2	0.00e+00	0	35	0	1124073472	65	4854
2026-01-18 05:45:41.16	314.48	9.23	-47.7	-49.8	16.9	0.00e+00	0	35	0	1129316352	65	4989
2026-01-18 05:45:44.18	314.16	9.03	-47.7	-49.7	17.0	0.00e+00	0	35	0	1134559232	66	4705
2026-01-18 05:45:47.20	313.85	8.83	-47.8	-50.0	16.8	0.00e+00	0	35	0	1140850688	66	4820
2026-01-18 05:45:50.23	313.54	8.63	-47.9	-50.2	16.5	0.00e+00	0	35	0	1146093568	66	4939
2026-01-18 05:45:53.25	313.24	8.43	-48.0	-50.3	16.3	0.00e+00	0	35	0	1152385024	66	5007
2026-01-18 05:45:56.28	312.94	8.23	-48.1	-50.5	16.1	0.00e+00	0	35	0	1157627904	66	5114
2026-01-18 05:45:59.30	312.65	8.03	-48.2	-50.5	16.1	0.00e+00	0	35	0	1162870784	66	5129
2026-01-18 05:46:02.33	312.36	7.83	-48.0	-50.3	16.2	0.00e+00	0	35	0	1169162240	66	5038
2026-01-18 05:46:05.35	312.07	7.64	-48.2	-50.6	16.0	0.00e+00	0	35	0	1174405120	66	5173
2026-01-18 05:46:08.37	311.79	7.44	-48.1	-50.4	16.2	0.00e+00	0	35	0	1180696576	66	5056
2026-01-18 05:46:11.39	311.51	7.25	-48.2	-50.5	16.0	0.00e+00	0	35	0	1185939456	66	5158
2026-01-18 05:46:14.42	311.24	7.05	-48.3	-50.7	15.8	0.00e+00	0	35	0	1191182336	67	4952
2026-01-18 05:46:17.44	310.97	6.86	-48.4	-50.9	15.6	0.00e+00	0	35	0	1197473792	67	5044
2026-01-18 05:46:20.47	310.70	6.67	-48.4	-50.9	15.5	0.00e+00	0	35	0	1202716672	67	5082
2026-01-18 05:46:23.48	310.44	6.48	-48.5	-51.1	15.4	0.00e+00	0	35	0	1209008128	67	5164
2026-01-18 05:46:26.51	310.18	6.29	-48.7	-51.4	15.0	0.00e+00	0	35	0	1214251008	67	5370
2026-01-18 05:46:29.53	309.92	6.10	-48.6	-51.3	15.1	0.00e+00	0	35	0	1219493888	67	5296
2026-01-18 05:46:32.55	309.67	5.91	-48.8	-51.6	14.9	0.00e+00	0	35	0	1225785344	68	5189
2026-01-18 05:46:35.58	309.42	5.72	-48.9	-51.8	14.7	0.00e+00	0	35	0	1231028224	68	5297
2026-01-18 05:46:38.60	309.17	5.53	-49.0	-51.9	14.5	1.50e-06	0	35	0	1237319680	68	5381
2026-01-18 05:46:41.63	308.93	5.35	-49.1	-52.2	14.2	2.20e-06	0	35	0	1242562560	68	5545
2026-01-18 05:46:44.64	308.69	5.16	-49.3	-52.5	13.8	3.80e-06	0	35	0	1247805440	69	5443
2026-01-18 05:46:47.67	308.45	4.98	-51.6	-59.3	7.4	2.20e-06	0	35	0	1254096896	73	9390
2026-01-18 05:46:50.69	308.22	4.79	-53.1	-68.1	3.8	1.49e+00	0	35	104	1254096896	76	21870
2026-01-18 05:46:53.72	307.99	4.61	-53.5	-68.5	3.8	1.49e+00	0	36	104	1254096896	77	21618
2026-01-18 05:46:56.74	307.76	4.43	-53.8	-68.8	3.8	1.49e+00	0	35	104	1254096896	78	21054
2026-01-18 05:46:59.76	307.54	4.24	-53.9	-68.9	3.8	1.49e+00	0	35	104	1254096896	78	21496
2026-01-18 05:47:02.79	307.32	4.06	-54.1	-69.1	3.8	1.49e+00	0	35	104	1254096896	78	21860
2026-01-18 05:47:05.81	307.10	3.88	-54.1	-69.2	3.8	1.49e+00	0	36	104	1254096896	78	22008
2026-01-18 05:47:08.84	306.88	3.70	-54.1	-69.2	3.8	1.49e+00	0	36	104	1254096896	78	22024
2026-01-18 05:47:11.86	306.67	3.53	-54.1	-69.1	3.8	1.49e+00	0	36	104	1254096896	78	21903
2026-01-18 05:47:14.89	306.46	3.35	-54.0	-69.0	3.8	1.49e+00	0	36	104	1254096896	78	21725
2026-01-18 05:47:17.91	306.25	3.17	-54.0	-69.0	3.8	1.49e+00	0	36	104	1254096896	78	21734
2026-01-18 05:47:20.94	306.05	2.99	-54.0	-69.0	3.8	1.49e+00	0	35	104	1254096896	78	21620
2026-01-18 05:47:23.96	305.84	2.82	-54.0	-69.0	3.8	1.49e+00	0	36	104	1254096896	78	21611
2026-01-18 05:47:26.99	305.64	2.64	-54.0	-69.0	3.8	1.49e+00	0	35	104	1254096896	78	21575
2026-01-18 05:47:30.01	305.44	2.47	-53.9	-69.0	3.8	1.49e+00	0	36	104	1254096896	78	21532
2026-01-18 05:47:33.03	305.25	2.30	-53.9	-68.9	3.8	1.49e+00	0	36	104	1254096896	78	21493
2026-01-18 05:47:36.06	305.06	2.12	-53.9	-69.0	3.8	1.49e+00	0	36	104	1254096896	78	21553
2026-01-18 05:47:39.08	304.87	1.95	-53.9	-68.9	3.8	1.49e+00	0	36	104	1254096896	78	21460

#Closed at: 2026-01-18 05:47:41
#Recorded file [1254 MB]: D:/lorett/data/31041_260118_083456.dat