passes_logs/2026/01/18/R3.2S_Murmansk/R3.2S_Murmansk__20260118_222028_KANOPUS-V_5_rec.log

#Pass ID: 20260118_222028_KANOPUS-V 5
#Satellite: KANOPUS-V 5
#Configuration: KANOPUS-V_8320
#almurnet v.1.7.20251203
#Start time: 2026-01-18 22:20:29

#Version: 2.2.20231116
#Station: R3.2S_Murmansk
#Location: 33.079688 lon 68.888172 lat
#TLE: 1 43876U 18111A   26018.65182262  .00003158  00000+0  13545-3 0  9996
#TLE: 2 43876  97.3687 287.0998 0001777  87.4650 272.6790 15.23458333392021

#Time	Az	El	Level	Level2	SNR	BER	BlckErr	Temp	State	Recorded	gain1	gain2
2026-01-18 22:20:29.14	20.74	2.02	-52.9	-61.7	3.8	7.44e-01	0	35	0	0	77	9905
2026-01-18 22:20:32.17	20.75	2.23	-52.9	-61.8	3.8	7.45e-01	0	35	104	0	76	10544
2026-01-18 22:20:35.19	20.75	2.44	-52.9	-61.7	3.8	7.45e-01	0	35	104	0	76	10476
2026-01-18 22:20:38.22	20.75	2.66	-52.9	-61.7	3.8	7.44e-01	0	35	104	0	76	10483
2026-01-18 22:20:41.25	20.75	2.88	-52.9	-61.7	3.8	7.45e-01	0	35	104	0	76	10505
2026-01-18 22:20:44.27	20.76	3.10	-52.9	-61.7	3.8	7.45e-01	0	35	104	0	76	10467
2026-01-18 22:20:47.30	20.76	3.32	-52.9	-61.7	3.8	7.45e-01	0	35	104	0	76	10501
2026-01-18 22:20:50.32	20.76	3.55	-52.9	-61.7	3.8	7.44e-01	0	35	104	0	76	10517
2026-01-18 22:20:53.34	20.76	3.78	-52.9	-61.7	3.8	7.45e-01	0	35	104	0	76	10483
2026-01-18 22:20:56.37	20.76	4.01	-52.9	-61.7	3.8	7.45e-01	0	35	104	0	76	10484
2026-01-18 22:20:59.39	20.76	4.24	-52.9	-61.7	3.8	7.46e-01	0	35	104	0	76	10488
2026-01-18 22:21:02.42	20.77	4.48	-52.9	-61.7	3.8	7.45e-01	0	35	104	0	76	10465
2026-01-18 22:21:05.44	20.77	4.72	-52.9	-61.7	3.8	7.45e-01	0	36	104	0	76	10492
2026-01-18 22:21:08.47	20.77	4.96	-52.9	-61.7	3.8	7.47e-01	0	36	104	0	76	10483
2026-01-18 22:21:11.49	20.77	5.20	-52.9	-61.7	3.8	7.45e-01	0	36	104	0	76	10507
2026-01-18 22:21:14.52	20.77	5.45	-52.9	-61.7	3.8	7.44e-01	0	36	104	0	76	10510
2026-01-18 22:21:17.53	20.77	5.70	-53.0	-61.8	3.8	7.45e-01	0	36	104	0	76	10580
2026-01-18 22:21:20.56	20.76	5.96	-53.1	-61.9	3.8	7.44e-01	0	36	104	0	76	10713
2026-01-18 22:21:23.58	20.76	6.21	-53.0	-61.8	3.8	7.45e-01	0	36	104	0	76	10647
2026-01-18 22:21:26.61	20.76	6.48	-53.0	-61.9	3.8	7.44e-01	0	36	104	0	76	10688
2026-01-18 22:21:29.63	20.76	6.74	-53.1	-61.9	3.8	7.46e-01	0	36	104	0	76	10763
2026-01-18 22:21:32.65	20.76	7.01	-53.2	-62.1	3.8	7.45e-01	0	36	104	0	76	10906
2026-01-18 22:21:35.68	20.75	7.28	-53.2	-62.0	3.8	7.45e-01	0	36	104	0	77	10240
2026-01-18 22:21:38.70	20.75	7.56	-53.2	-62.0	3.8	7.45e-01	0	36	104	0	77	10243
2026-01-18 22:21:41.72	20.75	7.84	-53.2	-62.0	3.8	7.45e-01	0	36	104	0	77	10287
2026-01-18 22:21:44.75	20.74	8.12	-53.4	-62.2	3.8	7.45e-01	0	36	104	0	77	10511
2026-01-18 22:21:47.77	20.74	8.41	-53.3	-62.1	3.8	7.46e-01	0	36	104	0	77	10396
2026-01-18 22:21:50.80	20.74	8.71	-53.3	-62.2	3.8	7.45e-01	0	36	104	0	77	10420
2026-01-18 22:21:53.82	20.73	9.00	-53.3	-62.2	3.8	7.45e-01	0	36	104	0	77	10440
2026-01-18 22:21:56.85	20.73	9.31	-53.5	-62.3	3.8	7.44e-01	0	36	104	0	77	10617
2026-01-18 22:21:59.87	20.72	9.62	-53.4	-62.3	3.8	7.44e-01	0	36	104	0	77	10566
2026-01-18 22:22:02.89	20.71	9.93	-53.5	-62.3	3.8	7.45e-01	0	36	104	0	77	10579
2026-01-18 22:22:05.91	20.71	10.25	-53.5	-62.3	3.8	7.43e-01	0	36	104	0	77	10593
2026-01-18 22:22:08.94	20.70	10.57	-53.6	-62.4	3.8	7.44e-01	0	36	104	0	77	10724
2026-01-18 22:22:11.96	20.69	10.90	-53.6	-62.4	3.8	7.45e-01	0	37	104	0	77	10723
2026-01-18 22:22:14.98	20.68	11.24	-53.6	-62.4	3.8	7.43e-01	0	36	104	0	77	10700
2026-01-18 22:22:18.01	20.67	11.58	-53.6	-62.4	3.8	7.44e-01	0	36	104	0	77	10695
2026-01-18 22:22:21.03	20.66	11.93	-53.6	-62.5	3.8	7.45e-01	0	37	104	0	77	10799
2026-01-18 22:22:24.05	20.65	12.29	-53.6	-62.4	3.8	7.46e-01	0	36	104	0	77	10735
2026-01-18 22:22:27.08	20.64	12.65	-53.6	-62.4	3.8	7.45e-01	0	37	104	0	77	10769
2026-01-18 22:22:30.10	20.63	13.02	-53.6	-62.5	3.8	7.44e-01	0	36	104	0	77	10787
2026-01-18 22:22:33.13	20.62	13.40	-53.7	-62.6	3.8	7.45e-01	0	37	104	0	78	10314
2026-01-18 22:22:36.15	20.60	13.78	-53.7	-62.6	3.8	7.45e-01	0	37	104	0	78	10312
2026-01-18 22:22:39.17	20.59	14.18	-53.7	-62.6	3.8	7.44e-01	0	37	104	0	78	10315
2026-01-18 22:22:42.19	20.57	14.58	-53.7	-62.6	3.8	7.46e-01	0	36	104	0	78	10308
2026-01-18 22:22:45.22	20.56	14.99	-53.8	-62.7	3.8	7.44e-01	0	36	104	0	78	10423
2026-01-18 22:22:48.24	20.54	15.41	-53.8	-62.6	3.8	7.45e-01	0	36	104	0	78	10359
2026-01-18 22:22:51.26	20.52	15.84	-53.8	-62.7	3.8	7.46e-01	0	37	104	0	78	10458
2026-01-18 22:22:54.28	20.50	16.28	-53.8	-62.7	3.8	7.46e-01	0	37	104	0	78	10434
2026-01-18 22:22:57.31	20.48	16.73	-53.9	-62.7	3.8	7.45e-01	0	37	104	0	78	10505
2026-01-18 22:23:00.33	20.46	17.19	-53.9	-62.8	3.8	7.45e-01	0	37	104	0	78	10541
2026-01-18 22:23:03.35	20.44	17.67	-53.9	-62.7	3.8	7.46e-01	0	36	104	0	78	10532
2026-01-18 22:23:06.37	20.41	18.15	-53.9	-62.7	3.8	7.46e-01	0	37	104	0	78	10522
2026-01-18 22:23:09.39	20.39	18.65	-54.0	-62.8	3.8	7.44e-01	0	37	104	0	78	10580
2026-01-18 22:23:12.42	20.36	19.16	-53.9	-62.8	3.8	7.47e-01	0	36	104	0	78	10598
2026-01-18 22:23:15.44	20.33	19.69	-54.0	-62.8	3.8	7.46e-01	0	37	104	0	78	10600
2026-01-18 22:23:18.47	20.30	20.23	-54.0	-62.8	3.8	7.46e-01	0	37	104	0	78	10629
2026-01-18 22:23:21.49	20.27	20.78	-54.0	-62.8	3.8	7.46e-01	0	37	104	0	78	10639
2026-01-18 22:23:24.51	20.23	21.35	-54.0	-62.9	3.8	7.45e-01	0	37	104	0	78	10726
2026-01-18 22:23:27.53	20.20	21.94	-54.0	-62.9	3.8	7.47e-01	0	37	104	0	78	10699
2026-01-18 22:23:30.56	20.16	22.55	-54.0	-62.9	3.8	7.46e-01	0	37	104	0	78	10719
2026-01-18 22:23:33.58	20.12	23.17	-54.1	-62.9	3.8	7.45e-01	0	37	104	0	78	10727
2026-01-18 22:23:36.61	20.08	23.81	-54.1	-63.0	3.8	7.46e-01	0	37	104	0	78	10787
2026-01-18 22:23:39.63	20.03	24.48	-54.1	-62.9	3.8	7.47e-01	0	37	104	0	78	10756
2026-01-18 22:23:42.65	19.98	25.16	-54.1	-63.0	3.8	7.45e-01	0	37	104	0	78	10790
2026-01-18 22:23:45.68	19.93	25.87	-54.1	-63.0	3.8	7.45e-01	0	37	104	0	78	10804
2026-01-18 22:23:48.70	19.88	26.60	-54.2	-63.0	3.8	7.45e-01	0	37	104	0	78	10883
2026-01-18 22:23:51.72	19.82	27.35	-54.2	-63.0	3.8	7.43e-01	0	37	104	0	78	10832
2026-01-18 22:23:54.75	19.76	28.13	-54.2	-63.0	3.8	7.46e-01	0	36	104	0	79	10285
2026-01-18 22:23:57.77	19.69	28.94	-54.2	-63.1	3.8	7.45e-01	0	37	104	0	79	10304
2026-01-18 22:24:00.79	19.62	29.78	-54.3	-63.1	3.8	7.46e-01	0	37	104	0	79	10388
2026-01-18 22:24:03.82	19.54	30.65	-54.3	-63.1	3.8	7.47e-01	0	37	104	0	79	10393
2026-01-18 22:24:06.84	19.46	31.54	-54.3	-63.1	3.8	7.45e-01	0	37	104	0	79	10392
2026-01-18 22:24:09.87	19.37	32.48	-54.3	-63.1	3.8	7.45e-01	0	37	104	0	79	10371
2026-01-18 22:24:12.89	19.28	33.45	-54.4	-63.2	3.8	7.45e-01	0	36	104	0	79	10453
2026-01-18 22:24:15.91	19.18	34.45	-54.4	-63.1	3.8	7.45e-01	0	37	104	0	79	10409
2026-01-18 22:24:18.93	19.07	35.50	-54.4	-63.2	3.8	7.44e-01	0	37	104	0	79	10488
2026-01-18 22:24:21.96	18.96	36.59	-54.4	-63.2	3.8	7.45e-01	0	37	104	0	79	10446
2026-01-18 22:24:24.99	18.83	37.72	-54.4	-63.2	3.8	7.46e-01	0	37	104	0	79	10528
2026-01-18 22:24:28.01	18.69	38.89	-54.4	-63.3	3.8	7.45e-01	0	37	104	0	79	10550
2026-01-18 22:24:31.03	18.54	40.12	-54.4	-63.3	3.8	7.44e-01	0	37	104	0	79	10562
2026-01-18 22:24:34.06	18.38	41.39	-54.4	-63.3	3.8	7.46e-01	0	37	104	0	79	10580
2026-01-18 22:24:37.08	18.20	42.72	-54.5	-63.3	3.8	7.47e-01	0	37	104	0	79	10650
2026-01-18 22:24:40.11	18.01	44.10	-54.5	-63.3	3.8	7.46e-01	0	37	104	0	79	10631
2026-01-18 22:24:43.13	17.79	45.54	-54.5	-63.4	3.8	7.46e-01	0	37	104	0	79	10657
2026-01-18 22:24:46.15	17.55	47.04	-54.5	-63.4	3.8	7.45e-01	0	37	104	0	79	10673
2026-01-18 22:24:49.18	17.29	48.60	-54.6	-63.4	3.8	7.45e-01	0	37	104	0	79	10694
2026-01-18 22:24:52.20	16.99	50.23	-54.6	-63.4	3.8	7.46e-01	0	37	104	0	79	10743
2026-01-18 22:24:55.23	16.66	51.92	-54.6	-63.4	3.8	7.46e-01	0	37	104	0	79	10718
2026-01-18 22:24:58.25	16.28	53.68	-54.6	-63.4	3.8	7.44e-01	0	37	104	0	79	10687
2026-01-18 22:25:01.27	15.85	55.50	-54.6	-63.4	3.8	7.47e-01	0	37	104	0	79	10764
2026-01-18 22:25:04.30	15.36	57.40	-54.6	-63.5	3.8	7.46e-01	0	37	104	0	79	10868
2026-01-18 22:25:07.32	14.79	59.36	-54.6	-63.5	3.8	7.45e-01	0	37	104	0	79	10840
2026-01-18 22:25:10.35	14.12	61.40	-54.6	-63.5	3.8	7.45e-01	0	37	104	0	79	10814
2026-01-18 22:25:13.37	13.33	63.49	-54.6	-63.5	3.8	7.45e-01	0	37	104	0	79	10820
2026-01-18 22:25:16.39	12.37	65.65	-54.7	-63.5	3.8	7.46e-01	0	37	104	0	79	10871
2026-01-18 22:25:19.41	11.20	67.87	-54.7	-63.5	3.8	7.47e-01	0	37	104	0	79	10861
2026-01-18 22:25:22.44	9.73	70.15	-54.7	-63.5	3.8	7.46e-01	0	37	104	0	79	10834
2026-01-18 22:25:25.46	7.84	72.46	-54.7	-63.5	3.8	7.45e-01	0	37	104	0	79	10860
2026-01-18 22:25:28.49	5.33	74.81	-54.7	-63.5	3.8	7.45e-01	0	37	104	0	79	10896
2026-01-18 22:25:31.51	1.85	77.16	-54.7	-63.5	3.8	7.46e-01	0	37	104	0	79	10885
2026-01-18 22:25:34.53	356.77	79.48	-54.7	-63.5	3.8	7.46e-01	0	37	104	0	79	10866
2026-01-18 22:25:37.56	348.78	81.71	-54.7	-63.5	3.8	7.46e-01	0	37	104	0	79	10869
2026-01-18 22:25:40.58	335.35	83.68	-54.7	-63.5	3.8	7.45e-01	0	37	104	0	79	10862
2026-01-18 22:25:43.61	312.28	85.05	-54.7	-63.5	3.8	7.46e-01	0	37	104	0	79	10899
2026-01-18 22:25:46.63	281.10	85.22	-54.7	-63.6	3.8	7.45e-01	0	37	104	0	79	10918
2026-01-18 22:25:49.66	255.28	84.10	-54.6	-63.5	3.8	7.44e-01	0	37	104	0	80	10177
2026-01-18 22:25:52.68	239.85	82.23	-54.7	-63.5	3.8	7.46e-01	0	37	104	0	80	10292
2026-01-18 22:25:55.71	230.81	80.04	-54.7	-63.5	3.8	7.45e-01	0	37	104	0	80	10231
2026-01-18 22:25:58.73	225.16	77.74	-54.7	-63.5	3.8	7.45e-01	0	37	104	0	80	10264
2026-01-18 22:26:01.75	221.36	75.39	-54.7	-63.5	3.8	7.45e-01	0	37	104	0	80	10223
2026-01-18 22:26:04.78	218.64	73.03	-54.7	-63.6	3.8	7.44e-01	0	37	104	0	80	10294
2026-01-18 22:26:07.80	216.62	70.71	-54.7	-63.5	3.8	7.45e-01	0	37	104	0	80	10278
2026-01-18 22:26:10.83	215.06	68.42	-54.7	-63.5	3.8	7.45e-01	0	37	104	0	80	10277
2026-01-18 22:26:13.85	213.82	66.18	-54.6	-63.5	3.8	7.45e-01	0	37	104	0	80	10239
2026-01-18 22:26:16.87	212.82	64.00	-54.6	-63.5	3.8	7.45e-01	0	37	104	0	80	10240
2026-01-18 22:26:19.90	211.99	61.88	-54.6	-63.5	3.8	7.46e-01	0	37	104	0	80	10248
2026-01-18 22:26:22.93	211.29	59.82	-54.6	-63.5	3.8	7.45e-01	0	37	104	0	80	10188
2026-01-18 22:26:25.95	210.70	57.84	-54.6	-63.4	3.8	7.46e-01	0	37	104	0	80	10173
2026-01-18 22:26:28.97	210.19	55.93	-54.6	-63.4	3.8	7.47e-01	0	37	104	0	80	10160
2026-01-18 22:26:31.99	209.74	54.08	-54.6	-63.4	3.8	7.46e-01	0	37	104	0	80	10148
2026-01-18 22:26:35.02	209.35	52.30	-54.6	-63.4	3.8	7.44e-01	0	37	104	0	80	10125
2026-01-18 22:26:38.05	209.01	50.58	-54.5	-63.4	3.8	7.46e-01	0	37	104	0	80	10099
2026-01-18 22:26:41.07	208.71	48.94	-54.5	-63.4	3.8	7.44e-01	0	37	104	0	80	10090
2026-01-18 22:26:44.10	208.43	47.36	-54.5	-63.4	3.8	7.46e-01	0	37	104	0	80	10108
2026-01-18 22:26:47.12	208.19	45.84	-54.5	-63.3	3.8	7.47e-01	0	37	104	0	80	10045
2026-01-18 22:26:50.14	207.97	44.38	-54.5	-63.3	3.8	7.46e-01	0	37	104	0	80	10058
2026-01-18 22:26:53.17	207.77	42.98	-54.5	-63.3	3.8	7.44e-01	0	37	104	0	80	10034
2026-01-18 22:26:56.19	207.58	41.64	-54.4	-63.3	3.8	7.45e-01	0	37	104	0	80	10005
2026-01-18 22:26:59.22	207.42	40.35	-54.4	-63.3	3.8	7.46e-01	0	37	104	0	80	9969
2026-01-18 22:27:02.24	207.26	39.11	-54.4	-63.3	3.8	7.45e-01	0	37	104	0	80	9975
2026-01-18 22:27:05.27	207.12	37.91	-54.4	-63.2	3.8	7.45e-01	0	37	104	0	80	9896
2026-01-18 22:27:08.29	206.99	36.77	-54.4	-63.2	3.8	7.45e-01	0	37	104	0	80	9857
2026-01-18 22:27:11.32	206.87	35.67	-54.3	-63.2	3.8	7.45e-01	0	37	104	0	80	9836
2026-01-18 22:27:14.34	206.76	34.61	-54.3	-63.2	3.8	7.45e-01	0	37	104	0	80	9833
2026-01-18 22:27:17.36	206.66	33.60	-54.3	-63.1	3.8	7.46e-01	0	37	104	0	80	9803
2026-01-18 22:27:20.39	206.56	32.61	-54.3	-63.1	3.8	7.44e-01	0	37	104	0	80	9806
2026-01-18 22:27:23.41	206.48	31.67	-54.3	-63.1	3.8	7.44e-01	0	37	104	0	80	9785
2026-01-18 22:27:26.43	206.39	30.76	-54.2	-63.1	3.8	7.46e-01	0	37	104	0	80	9783
2026-01-18 22:27:29.45	206.31	29.89	-54.2	-63.1	3.8	7.45e-01	0	37	104	0	80	9736
2026-01-18 22:27:32.48	206.24	29.04	-54.2	-63.1	3.8	7.44e-01	0	37	104	0	80	9749
2026-01-18 22:27:35.50	206.17	28.22	-54.2	-63.0	3.8	7.46e-01	0	37	104	0	80	9716
2026-01-18 22:27:38.52	206.11	27.43	-54.2	-63.0	3.8	7.46e-01	0	37	104	0	80	9716
2026-01-18 22:27:41.55	206.05	26.67	-54.2	-63.0	3.8	7.46e-01	0	37	104	0	80	9657
2026-01-18 22:27:44.57	205.99	25.93	-54.2	-63.0	3.8	7.45e-01	0	37	104	0	80	9640
2026-01-18 22:27:47.60	205.94	25.22	-54.1	-63.0	3.8	7.45e-01	0	37	104	0	80	9613
2026-01-18 22:27:50.62	205.89	24.53	-54.1	-62.9	3.8	7.46e-01	0	37	104	0	80	9591
2026-01-18 22:27:53.65	205.84	23.86	-54.1	-63.0	3.8	7.45e-01	0	37	104	0	80	9609
2026-01-18 22:27:56.67	205.80	23.21	-54.1	-62.9	3.8	7.45e-01	0	37	104	0	80	9552
2026-01-18 22:27:59.70	205.76	22.58	-54.1	-62.9	3.8	7.48e-01	0	37	104	0	80	9532
2026-01-18 22:28:02.72	205.72	21.97	-54.0	-62.9	3.8	7.46e-01	0	37	104	0	80	9510
2026-01-18 22:28:05.74	205.68	21.37	-54.0	-62.9	3.8	7.44e-01	0	37	104	0	80	9511
2026-01-18 22:28:08.76	205.64	20.80	-54.0	-62.8	3.8	7.47e-01	0	37	104	0	80	9451
2026-01-18 22:28:11.79	205.61	20.24	-54.0	-62.8	3.8	7.46e-01	0	37	104	0	79	10050
2026-01-18 22:28:14.81	205.58	19.69	-54.0	-62.9	3.8	7.48e-01	0	37	104	0	79	10087
2026-01-18 22:28:17.83	205.55	19.17	-54.0	-62.9	3.8	7.44e-01	0	37	104	0	79	10065
2026-01-18 22:28:20.86	205.52	18.65	-54.0	-62.8	3.8	7.44e-01	0	37	104	0	79	10015
2026-01-18 22:28:23.88	205.49	18.15	-54.0	-62.8	3.8	7.46e-01	0	37	104	0	79	9983
2026-01-18 22:28:26.90	205.47	17.66	-53.9	-62.8	3.8	7.47e-01	0	37	104	0	79	9956
2026-01-18 22:28:29.93	205.44	17.18	-53.9	-62.8	3.8	7.45e-01	0	37	104	0	79	9968
2026-01-18 22:28:32.95	205.42	16.71	-53.9	-62.7	3.8	7.45e-01	0	37	104	0	79	9939
2026-01-18 22:28:35.97	205.40	16.26	-53.9	-62.8	3.8	7.46e-01	0	37	104	0	79	9948
2026-01-18 22:28:39.00	205.38	15.82	-53.9	-62.7	3.8	7.45e-01	0	37	104	0	79	9922
2026-01-18 22:28:42.02	205.36	15.38	-53.9	-62.7	3.8	7.45e-01	0	37	104	0	79	9924
2026-01-18 22:28:45.05	205.34	14.96	-53.8	-62.7	3.8	7.45e-01	0	37	104	0	79	9842
2026-01-18 22:28:48.07	205.32	14.54	-53.8	-62.7	3.8	7.45e-01	0	37	104	0	79	9832
2026-01-18 22:28:51.09	205.31	14.14	-53.8	-62.6	3.8	7.45e-01	0	37	104	0	79	9818
2026-01-18 22:28:54.11	205.29	13.74	-53.8	-62.7	3.8	7.46e-01	0	37	104	0	79	9842
2026-01-18 22:28:57.14	205.28	13.35	-53.7	-62.6	3.8	7.46e-01	0	37	104	0	79	9726
2026-01-18 22:29:00.17	205.26	12.97	-53.7	-62.6	3.8	7.45e-01	0	37	104	0	79	9776
2026-01-18 22:29:03.19	205.25	12.60	-53.7	-62.6	3.8	7.46e-01	0	37	104	0	79	9726
2026-01-18 22:29:06.21	205.24	12.24	-53.7	-62.6	3.8	7.44e-01	0	37	104	0	79	9752
2026-01-18 22:29:09.24	205.22	11.88	-53.7	-62.5	3.8	7.45e-01	0	37	104	0	79	9691
2026-01-18 22:29:12.26	205.21	11.53	-53.7	-62.5	3.8	7.46e-01	0	37	104	0	79	9648
2026-01-18 22:29:15.29	205.20	11.18	-53.6	-62.5	3.8	7.46e-01	0	37	104	0	79	9657
2026-01-18 22:29:18.31	205.19	10.84	-53.7	-62.5	3.8	7.44e-01	0	37	104	0	79	9633
2026-01-18 22:29:21.33	205.18	10.51	-53.6	-62.4	3.8	7.44e-01	0	37	104	0	79	9597
2026-01-18 22:29:24.36	205.17	10.18	-53.6	-62.4	3.8	7.46e-01	0	37	104	0	79	9556
2026-01-18 22:29:27.38	205.16	9.86	-53.5	-62.4	3.8	7.47e-01	0	37	104	0	79	9579
2026-01-18 22:29:30.40	205.16	9.55	-53.5	-62.4	3.8	7.44e-01	0	37	104	0	79	9577
2026-01-18 22:29:33.42	205.15	9.24	-53.5	-62.4	3.8	7.45e-01	0	37	104	0	78	10065
2026-01-18 22:29:36.45	205.14	8.93	-53.4	-62.3	3.8	7.45e-01	0	37	104	0	78	10000
2026-01-18 22:29:39.47	205.13	8.64	-53.4	-62.3	3.8	7.45e-01	0	37	104	0	78	9977
2026-01-18 22:29:42.49	205.13	8.34	-53.4	-62.3	3.8	7.44e-01	0	37	104	0	78	9969
2026-01-18 22:29:45.52	205.12	8.05	-53.4	-62.2	3.8	7.45e-01	0	37	104	0	78	9923
2026-01-18 22:29:48.54	205.12	7.76	-53.3	-62.2	3.8	7.44e-01	0	37	104	0	78	9862
2026-01-18 22:29:51.56	205.11	7.48	-53.3	-62.1	3.8	7.46e-01	0	37	104	0	78	9825
2026-01-18 22:29:54.58	205.11	7.20	-53.3	-62.1	3.8	7.44e-01	0	37	104	0	78	9822
2026-01-18 22:29:57.61	205.10	6.93	-53.3	-62.1	3.8	7.45e-01	0	37	104	0	78	9762
2026-01-18 22:30:00.64	205.10	6.66	-53.1	-61.9	3.8	7.46e-01	0	37	104	0	78	9601
2026-01-18 22:30:03.66	205.10	6.39	-53.2	-62.0	3.8	7.45e-01	0	37	104	0	78	9623
2026-01-18 22:30:06.68	205.09	6.13	-53.1	-62.0	3.8	7.44e-01	0	37	104	0	78	9621
2026-01-18 22:30:09.71	205.09	5.87	-53.1	-62.0	3.8	7.44e-01	0	37	104	0	78	9664
2026-01-18 22:30:12.73	205.09	5.62	-52.9	-61.8	3.8	7.46e-01	0	37	104	0	77	9946
2026-01-18 22:30:15.75	205.09	5.37	-53.0	-61.8	3.8	7.48e-01	0	37	104	0	77	9991
2026-01-18 22:30:18.77	205.08	5.12	-52.9	-61.7	3.8	7.44e-01	0	37	104	0	77	9940
2026-01-18 22:30:21.80	205.08	4.87	-53.5	-62.4	3.8	7.45e-01	0	37	104	0	77	10657
2026-01-18 22:30:24.82	205.08	4.63	-54.1	-63.0	3.8	7.45e-01	0	37	104	0	78	10838
2026-01-18 22:30:27.85	205.08	4.39	-54.4	-63.2	3.8	7.45e-01	0	37	104	0	79	10525
2026-01-18 22:30:30.87	205.08	4.15	-54.6	-63.4	3.8	7.45e-01	0	37	104	0	79	10701
2026-01-18 22:30:33.90	205.08	3.92	-54.7	-63.5	3.8	7.45e-01	0	37	104	0	79	10858
2026-01-18 22:30:36.92	205.08	3.68	-54.7	-63.5	3.8	7.45e-01	0	37	104	0	80	10255
2026-01-18 22:30:39.95	205.08	3.46	-54.7	-63.5	3.8	7.46e-01	0	37	104	0	80	10293
2026-01-18 22:30:42.97	205.08	3.23	-54.8	-63.6	3.8	7.45e-01	0	37	104	0	80	10385
2026-01-18 22:30:45.99	205.08	3.01	-54.7	-63.5	3.8	7.46e-01	0	37	104	0	80	10262
2026-01-18 22:30:49.02	205.08	2.78	-54.7	-63.5	3.8	7.45e-01	0	37	104	0	80	10261
2026-01-18 22:30:52.05	205.08	2.56	-54.7	-63.5	3.8	7.47e-01	0	37	104	0	80	10251
2026-01-18 22:30:55.07	205.08	2.35	-54.6	-63.5	3.8	7.46e-01	0	37	104	0	80	10224
2026-01-18 22:30:58.10	205.08	2.13	-54.6	-63.5	3.8	7.46e-01	0	37	104	0	80	10222

#Closed at: 2026-01-18 22:31:01
#Recorded file [0 MB]: D:/lorett/data/31041_260119_012028.dat