passes_logs/2026/01/18/R3.2S_Murmansk/R3.2S_Murmansk__20260118_121727_AQUA_rec.log

#Pass ID: 20260118_121727_AQUA
#Satellite: AQUA
#Configuration: AQUA
#almurnet v.1.7.20251203
#Start time: 2026-01-18 12:17:27

#Version: 2.2.20231116
#Station: R3.2S_Murmansk
#Location: 33.079688 lon 68.888172 lat
#TLE: 1 27424U 02022A   26017.62394888  .00000781  00000+0  16630-3 0  9993
#TLE: 2 27424  98.4086 344.0954 0002010  75.0132 339.4723 14.61825944261279

#Time	Az	El	Level	Level2	SNR	BER	BlckErr	Temp	State	Recorded	gain1	gain2
2026-01-18 12:17:27.11	178.06	2.00	-53.7	-71.5	3.8	7.47e-01	0	34	0	0	79	27192
2026-01-18 12:17:31.14	178.20	2.26	-53.7	-71.2	3.8	7.44e-01	0	34	104	0	77	29559
2026-01-18 12:17:35.17	178.35	2.53	-53.7	-71.0	3.8	7.47e-01	0	34	104	0	77	28916
2026-01-18 12:17:39.21	178.51	2.80	-53.7	-70.3	3.8	7.44e-01	0	34	104	0	77	26490
2026-01-18 12:17:43.24	178.66	3.07	-53.7	-70.6	3.8	7.46e-01	0	34	104	0	77	27694
2026-01-18 12:17:47.27	178.82	3.34	-53.7	-70.5	3.8	7.47e-01	0	34	104	0	77	27362
2026-01-18 12:17:51.31	178.98	3.62	-53.7	-70.9	3.8	7.46e-01	0	34	104	0	77	28618
2026-01-18 12:17:55.33	179.14	3.90	-53.2	-62.5	7.6	6.50e-01	182	34	0	1572864	77	10843
2026-01-18 12:17:59.37	179.31	4.18	-52.2	-57.9	12.5	6.12e-01	0	34	0	9437184	76	6746
2026-01-18 12:18:03.40	179.48	4.46	-50.7	-54.4	16.0	6.07e-01	0	35	0	16777216	73	5381
2026-01-18 12:18:07.43	179.66	4.75	-48.5	-50.8	19.8	6.07e-01	0	35	0	24641536	69	4448
2026-01-18 12:18:11.46	179.83	5.04	-47.9	-49.9	20.9	6.08e-01	0	35	0	31981568	67	4504
2026-01-18 12:18:15.49	180.01	5.34	-47.8	-49.7	20.6	6.08e-01	0	35	0	39321600	67	4428
2026-01-18 12:18:19.53	180.20	5.64	-47.2	-49.0	21.7	6.07e-01	0	35	0	47185920	66	4295
2026-01-18 12:18:23.56	180.39	5.94	-47.0	-48.7	22.0	6.07e-01	0	35	0	54525952	65	4439
2026-01-18 12:18:27.59	180.58	6.25	-47.0	-48.7	22.1	6.07e-01	0	35	0	62390272	65	4421
2026-01-18 12:18:31.62	180.78	6.56	-47.0	-48.8	22.1	6.05e-01	0	35	0	69730304	65	4449
2026-01-18 12:18:35.65	180.98	6.87	-47.0	-48.7	22.2	6.06e-01	0	35	0	77594624	65	4424
2026-01-18 12:18:39.69	181.19	7.19	-46.8	-48.5	22.5	6.07e-01	0	35	0	84934656	65	4293
2026-01-18 12:18:43.72	181.40	7.51	-46.7	-48.3	22.7	6.06e-01	0	35	0	92798976	65	4216
2026-01-18 12:18:47.75	181.61	7.84	-46.7	-48.4	22.6	6.06e-01	0	35	0	100139008	65	4248
2026-01-18 12:18:51.78	181.83	8.17	-46.6	-48.1	22.9	6.05e-01	0	35	0	107479040	64	4377
2026-01-18 12:18:55.81	182.06	8.50	-46.5	-48.0	23.0	6.07e-01	0	35	0	115343360	64	4316
2026-01-18 12:18:59.85	182.29	8.84	-46.4	-48.0	23.1	6.05e-01	0	35	0	122683392	64	4293
2026-01-18 12:19:03.88	182.52	9.19	-46.4	-47.9	23.2	6.08e-01	0	35	0	130023424	64	4280
2026-01-18 12:19:07.91	182.76	9.54	-46.1	-47.6	23.6	6.05e-01	0	35	0	137887744	64	4103
2026-01-18 12:19:11.94	183.01	9.89	-46.1	-47.6	23.6	6.07e-01	0	35	0	145227776	64	4105
2026-01-18 12:19:15.97	183.27	10.25	-46.1	-47.5	23.6	6.05e-01	0	35	0	153092096	64	4095
2026-01-18 12:19:19.99	183.53	10.62	-46.1	-47.5	23.6	6.06e-01	0	35	0	160432128	64	4096
2026-01-18 12:19:24.02	183.79	10.99	-46.0	-47.5	23.7	6.05e-01	0	35	0	168296448	64	4061
2026-01-18 12:19:28.04	184.07	11.37	-46.0	-47.4	23.9	6.07e-01	0	35	0	175636480	63	4272
2026-01-18 12:19:32.07	184.35	11.75	-46.1	-47.5	23.8	6.06e-01	0	35	0	182976512	63	4324
2026-01-18 12:19:36.11	184.64	12.14	-46.2	-47.6	23.8	6.05e-01	0	35	0	190840832	63	4370
2026-01-18 12:19:40.14	184.93	12.54	-46.0	-47.4	24.0	6.05e-01	0	35	0	198180864	63	4272
2026-01-18 12:19:44.16	185.24	12.94	-45.9	-47.3	24.1	6.07e-01	0	35	0	206045184	63	4208
2026-01-18 12:19:48.18	185.55	13.35	-45.7	-47.0	24.4	6.06e-01	0	35	0	213385216	63	4082
2026-01-18 12:19:52.21	185.87	13.77	-45.6	-47.0	24.4	6.04e-01	0	35	0	220725248	63	4057
2026-01-18 12:19:56.25	186.21	14.19	-45.6	-47.0	24.4	6.06e-01	0	35	0	228589568	63	4070
2026-01-18 12:20:00.27	186.55	14.62	-45.5	-46.8	24.6	6.05e-01	0	35	0	235929600	63	3987
2026-01-18 12:20:04.30	186.90	15.06	-45.5	-46.9	24.5	6.07e-01	0	35	0	243793920	62	4245
2026-01-18 12:20:08.34	187.27	15.51	-45.4	-46.7	24.7	6.06e-01	0	35	0	251133952	62	4182
2026-01-18 12:20:12.37	187.64	15.97	-45.3	-46.6	24.8	6.04e-01	0	35	0	258473984	62	4136
2026-01-18 12:20:16.40	188.03	16.43	-45.3	-46.5	24.9	6.08e-01	0	35	0	266338304	62	4097
2026-01-18 12:20:20.43	188.43	16.90	-45.3	-46.6	24.8	6.05e-01	0	35	0	273678336	62	4114
2026-01-18 12:20:24.46	188.84	17.38	-45.3	-46.6	24.9	6.05e-01	0	35	0	281542656	62	4127
2026-01-18 12:20:28.49	189.26	17.88	-45.2	-46.4	25.0	6.06e-01	0	35	0	288882688	62	4049
2026-01-18 12:20:32.51	189.70	18.37	-45.3	-46.5	24.9	6.06e-01	0	36	0	296747008	62	4097
2026-01-18 12:20:36.55	190.16	18.89	-45.2	-46.5	25.0	6.06e-01	0	35	0	304087040	62	4075
2026-01-18 12:20:40.58	190.63	19.41	-45.3	-46.5	25.0	6.05e-01	0	35	0	311427072	62	4095
2026-01-18 12:20:44.61	191.12	19.94	-45.3	-46.6	24.9	6.08e-01	0	36	0	319291392	62	4108
2026-01-18 12:20:48.64	191.62	20.48	-45.3	-46.6	24.9	6.06e-01	0	36	0	326631424	62	4133
2026-01-18 12:20:52.67	192.15	21.03	-45.4	-46.7	24.8	6.08e-01	0	35	0	334495744	62	4181
2026-01-18 12:20:56.70	192.69	21.60	-45.6	-46.9	24.7	6.05e-01	0	35	0	341835776	62	4251
2026-01-18 12:21:00.72	193.26	22.17	-45.4	-46.7	24.8	6.05e-01	0	35	0	349175808	62	4185
2026-01-18 12:21:04.75	193.84	22.76	-45.6	-47.0	24.6	6.05e-01	0	35	0	357040128	62	4297
2026-01-18 12:21:08.78	194.45	23.35	-45.5	-46.8	24.7	6.05e-01	0	35	0	364380160	62	4238
2026-01-18 12:21:12.82	195.09	23.97	-45.6	-46.9	24.7	6.07e-01	0	35	0	372244480	62	4286
2026-01-18 12:21:16.84	195.75	24.59	-45.5	-46.7	24.9	6.08e-01	0	35	0	379584512	62	4191
2026-01-18 12:21:20.87	196.43	25.22	-45.5	-46.8	24.9	6.07e-01	0	35	0	386924544	62	4195
2026-01-18 12:21:24.90	197.15	25.87	-45.5	-46.8	24.8	6.06e-01	0	35	0	394788864	62	4217
2026-01-18 12:21:28.94	197.90	26.53	-45.4	-46.6	25.0	6.04e-01	0	35	0	402128896	62	4134
2026-01-18 12:21:32.97	198.67	27.21	-45.4	-46.6	25.0	6.06e-01	0	35	0	409993216	62	4139
2026-01-18 12:21:37.00	199.49	27.89	-45.3	-46.6	25.0	6.04e-01	0	35	0	417333248	62	4123
2026-01-18 12:21:41.03	200.34	28.59	-45.7	-47.0	24.7	6.07e-01	0	35	0	425197568	62	4303
2026-01-18 12:21:45.06	201.23	29.30	-45.2	-46.4	25.2	6.05e-01	0	35	0	432537600	62	4028
2026-01-18 12:21:49.09	202.15	30.03	-45.4	-46.6	25.0	6.05e-01	0	35	0	439877632	62	4143
2026-01-18 12:21:53.13	203.13	30.76	-45.2	-46.5	25.2	6.06e-01	0	35	0	447741952	62	4074
2026-01-18 12:21:57.16	204.15	31.51	-45.4	-46.6	25.1	6.05e-01	0	36	0	455081984	62	4140
2026-01-18 12:22:01.19	205.21	32.27	-45.6	-46.9	24.8	6.05e-01	0	35	0	462422016	62	4268
2026-01-18 12:22:05.22	206.33	33.03	-45.8	-47.1	24.7	6.06e-01	0	35	0	470286336	62	4372
2026-01-18 12:22:09.25	207.51	33.81	-45.9	-47.2	24.6	6.06e-01	0	35	0	477626368	62	4416
2026-01-18 12:22:13.29	208.74	34.59	-45.9	-47.3	24.5	6.06e-01	0	36	0	485490688	62	4466
2026-01-18 12:22:17.31	210.03	35.38	-46.1	-47.4	24.4	6.04e-01	0	35	0	492830720	62	4536
2026-01-18 12:22:21.35	211.39	36.17	-46.3	-47.7	24.2	6.05e-01	0	35	0	500695040	63	4407
2026-01-18 12:22:25.37	212.82	36.97	-46.1	-47.4	24.4	6.05e-01	0	35	0	508035072	63	4291
2026-01-18 12:22:29.40	214.31	37.76	-46.3	-47.7	24.1	6.06e-01	0	35	0	515899392	63	4429
2026-01-18 12:22:33.44	215.89	38.56	-46.3	-47.7	24.2	6.05e-01	0	35	0	523239424	63	4415
2026-01-18 12:22:37.47	217.54	39.35	-46.1	-47.5	24.4	6.07e-01	0	35	0	530579456	63	4300
2026-01-18 12:22:41.50	219.28	40.13	-45.8	-47.1	24.8	6.04e-01	0	35	0	538443776	63	4124
2026-01-18 12:22:45.53	221.10	40.89	-45.4	-46.7	25.2	6.07e-01	0	35	0	545783808	62	4177
2026-01-18 12:22:49.56	223.00	41.64	-45.3	-46.5	25.3	6.07e-01	0	35	0	553648128	62	4078
2026-01-18 12:22:53.60	225.01	42.38	-45.1	-46.3	25.5	6.06e-01	0	35	0	560988160	61	4222
2026-01-18 12:22:57.63	227.09	43.09	-44.9	-46.1	25.7	6.06e-01	0	35	0	568852480	61	4110
2026-01-18 12:23:01.66	229.28	43.76	-44.7	-45.9	25.9	6.05e-01	0	36	0	576192512	61	4018
2026-01-18 12:23:05.69	231.55	44.40	-44.5	-45.7	26.1	6.04e-01	0	35	0	583532544	60	4155
2026-01-18 12:23:09.72	233.92	45.01	-44.4	-45.6	26.2	6.06e-01	0	35	0	591396864	60	4123
2026-01-18 12:23:13.75	236.37	45.56	-44.8	-46.0	25.8	6.04e-01	0	35	0	598736896	60	4312
2026-01-18 12:23:17.78	238.91	46.07	-44.7	-45.9	25.9	6.06e-01	0	35	0	606076928	60	4247
2026-01-18 12:23:21.81	241.52	46.52	-45.0	-46.2	25.6	6.05e-01	0	35	0	613941248	60	4436
2026-01-18 12:23:25.85	244.22	46.91	-45.4	-46.6	25.2	6.06e-01	0	36	0	621281280	61	4383
2026-01-18 12:23:29.88	246.97	47.23	-45.2	-46.4	25.5	6.05e-01	0	35	0	629145600	61	4261
2026-01-18 12:23:33.91	249.77	47.49	-45.1	-46.3	25.6	6.04e-01	0	35	0	636485632	61	4221
2026-01-18 12:23:37.94	252.61	47.67	-45.2	-46.4	25.4	6.07e-01	0	36	0	644349952	61	4288
2026-01-18 12:23:41.96	255.47	47.78	-45.0	-46.2	25.7	6.06e-01	0	35	0	651689984	61	4186
2026-01-18 12:23:45.99	258.34	47.81	-45.3	-46.5	25.4	6.06e-01	0	35	0	659030016	61	4339
2026-01-18 12:23:50.02	261.22	47.77	-45.5	-46.7	25.2	6.06e-01	0	36	0	666894336	62	4188
2026-01-18 12:23:54.05	264.08	47.65	-45.7	-47.0	25.0	6.05e-01	0	35	0	674234368	62	4298
2026-01-18 12:23:58.08	266.92	47.46	-45.6	-46.9	25.0	6.06e-01	0	35	0	682098688	62	4274
2026-01-18 12:24:02.11	269.71	47.19	-45.6	-46.9	25.1	6.07e-01	0	35	0	689438720	62	4273
2026-01-18 12:24:06.15	272.45	46.86	-45.5	-46.8	25.2	6.00e-01	0	36	0	697303040	62	4212
2026-01-18 12:24:10.17	275.12	46.46	-45.5	-46.7	25.3	6.03e-01	0	36	0	704643072	62	4169
2026-01-18 12:24:14.21	277.73	46.00	-45.6	-46.9	25.1	6.05e-01	0	35	0	711983104	62	4250
2026-01-18 12:24:18.24	280.25	45.49	-45.4	-46.6	25.2	6.03e-01	0	36	0	719847424	62	4143
2026-01-18 12:24:22.27	282.69	44.93	-45.6	-46.9	25.1	6.02e-01	0	36	0	727187456	62	4246
2026-01-18 12:24:26.29	285.03	44.32	-45.7	-46.9	25.0	6.03e-01	0	36	0	734527488	62	4278
2026-01-18 12:24:30.32	287.29	43.68	-45.6	-46.8	25.2	6.02e-01	0	36	0	742391808	62	4228
2026-01-18 12:24:34.35	289.45	43.00	-45.7	-47.0	25.0	6.04e-01	0	36	0	749731840	62	4302
2026-01-18 12:24:38.38	291.52	42.29	-45.9	-47.2	24.9	6.02e-01	0	36	0	757596160	62	4393
2026-01-18 12:24:42.41	293.50	41.56	-46.1	-47.4	24.6	6.05e-01	0	35	0	764936192	63	4264
2026-01-18 12:24:46.44	295.40	40.81	-46.1	-47.5	24.6	6.03e-01	0	36	0	772800512	63	4295
2026-01-18 12:24:50.47	297.20	40.04	-46.1	-47.4	24.7	6.04e-01	0	36	0	780140544	63	4258
2026-01-18 12:24:54.51	298.92	39.26	-46.1	-47.4	24.6	6.02e-01	0	35	0	788004864	63	4276
2026-01-18 12:24:58.54	300.56	38.47	-46.1	-47.5	24.6	6.02e-01	0	35	0	795344896	63	4292
2026-01-18 12:25:02.58	302.12	37.68	-45.9	-47.3	24.7	6.04e-01	0	36	0	802684928	63	4194
2026-01-18 12:25:06.61	303.61	36.89	-45.8	-47.1	24.9	6.03e-01	0	35	0	810549248	63	4130
2026-01-18 12:25:10.64	305.02	36.10	-45.5	-46.8	25.3	6.03e-01	0	36	0	817889280	63	3962
2026-01-18 12:25:14.67	306.37	35.31	-45.1	-46.4	25.6	6.03e-01	0	35	0	825753600	62	4007
2026-01-18 12:25:18.70	307.65	34.52	-44.8	-46.0	26.0	6.02e-01	0	35	0	833093632	61	4064
2026-01-18 12:25:22.73	308.87	33.75	-44.5	-45.6	26.2	6.02e-01	0	35	0	840433664	61	3901
2026-01-18 12:25:26.76	310.03	32.97	-44.3	-45.4	26.4	6.04e-01	0	35	0	848297984	60	4035
2026-01-18 12:25:30.79	311.14	32.21	-44.3	-45.5	26.3	6.02e-01	0	35	0	855638016	60	4069
2026-01-18 12:25:34.82	312.20	31.46	-44.3	-45.4	26.4	6.01e-01	0	36	0	863502336	60	4025
2026-01-18 12:25:38.86	313.21	30.72	-44.3	-45.5	26.3	6.04e-01	0	36	0	870842368	60	4060
2026-01-18 12:25:42.89	314.18	29.99	-44.4	-45.5	26.3	6.03e-01	0	36	0	878182400	60	4074
2026-01-18 12:25:46.92	315.10	29.27	-44.3	-45.4	26.3	6.01e-01	0	35	0	886046720	60	4039
2026-01-18 12:25:50.95	315.98	28.57	-44.5	-45.7	26.1	6.02e-01	0	36	0	893386752	60	4172
2026-01-18 12:25:54.98	316.82	27.87	-44.8	-46.0	25.8	6.02e-01	0	35	0	901251072	60	4338
2026-01-18 12:25:59.02	317.63	27.19	-44.8	-46.0	25.8	6.03e-01	0	36	0	908591104	60	4334
2026-01-18 12:26:03.05	318.41	26.52	-44.8	-46.0	25.6	6.03e-01	0	35	0	916455424	60	4337
2026-01-18 12:26:07.08	319.15	25.86	-44.9	-46.1	25.7	6.02e-01	0	36	0	923795456	60	4376
2026-01-18 12:26:11.11	319.86	25.22	-45.0	-46.2	25.6	6.01e-01	0	35	0	931659776	60	4409
2026-01-18 12:26:15.14	320.54	24.59	-45.2	-46.4	25.4	6.05e-01	0	36	0	938999808	61	4286
2026-01-18 12:26:19.17	321.20	23.97	-45.3	-46.6	25.1	6.04e-01	0	35	0	946339840	61	4369
2026-01-18 12:26:23.20	321.83	23.36	-45.4	-46.6	25.1	6.03e-01	0	35	0	953679872	61	4386
2026-01-18 12:26:27.23	322.44	22.77	-45.1	-46.4	25.4	6.01e-01	0	36	0	961544192	61	4244
2026-01-18 12:26:31.27	323.02	22.19	-45.2	-46.4	25.3	6.01e-01	0	36	0	968884224	61	4287
2026-01-18 12:26:35.30	323.58	21.62	-45.3	-46.6	25.1	6.03e-01	0	35	0	976748544	61	4360
2026-01-18 12:26:39.33	324.12	21.06	-45.1	-46.4	25.2	6.02e-01	0	35	0	984088576	61	4265
2026-01-18 12:26:43.36	324.65	20.51	-45.0	-46.3	25.3	6.02e-01	0	35	0	991952896	61	4202
2026-01-18 12:26:47.39	325.15	19.97	-44.9	-46.1	25.5	6.03e-01	0	35	0	999292928	61	4122
2026-01-18 12:26:51.42	325.64	19.44	-44.8	-46.0	25.5	6.03e-01	0	35	0	1007157248	61	4088
2026-01-18 12:26:55.45	326.11	18.92	-44.9	-46.1	25.4	6.03e-01	0	36	0	1014497280	61	4123
2026-01-18 12:26:59.49	326.56	18.42	-44.8	-46.1	25.5	6.03e-01	0	36	0	1021837312	61	4099
2026-01-18 12:27:03.52	327.00	17.92	-44.9	-46.2	25.4	6.03e-01	0	36	0	1029701632	61	4152
2026-01-18 12:27:07.55	327.42	17.43	-44.7	-45.9	25.4	6.05e-01	0	35	0	1037041664	61	4031
2026-01-18 12:27:11.58	327.84	16.95	-44.8	-46.1	25.3	6.01e-01	0	36	0	1044905984	61	4100
2026-01-18 12:27:15.61	328.23	16.48	-44.7	-45.9	25.5	6.05e-01	0	35	0	1052246016	61	4035
2026-01-18 12:27:19.64	328.62	16.02	-44.8	-46.0	25.5	6.03e-01	0	35	0	1060110336	61	4074
2026-01-18 12:27:23.67	328.99	15.57	-44.8	-46.1	25.4	6.02e-01	0	35	0	1067450368	61	4108
2026-01-18 12:27:27.71	329.36	15.12	-44.8	-46.1	25.3	6.03e-01	0	36	0	1074790400	61	4115
2026-01-18 12:27:31.73	329.71	14.69	-44.9	-46.1	25.3	6.02e-01	0	36	0	1082654720	61	4142
2026-01-18 12:27:35.77	330.05	14.26	-45.0	-46.3	25.1	5.99e-01	0	35	0	1089994752	61	4228
2026-01-18 12:27:39.80	330.38	13.84	-45.2	-46.5	24.9	6.04e-01	0	36	0	1097334784	61	4318
2026-01-18 12:27:43.83	330.71	13.42	-45.1	-46.4	25.0	6.04e-01	0	35	0	1105199104	61	4249
2026-01-18 12:27:47.86	331.02	13.01	-45.1	-46.4	25.0	6.02e-01	0	36	0	1112539136	61	4249
2026-01-18 12:27:51.89	331.33	12.61	-45.1	-46.3	25.0	6.02e-01	0	35	0	1120403456	61	4226
2026-01-18 12:27:55.92	331.63	12.22	-45.2	-46.5	24.8	6.04e-01	0	35	0	1127743488	61	4301
2026-01-18 12:27:59.95	331.91	11.83	-45.3	-46.6	24.6	6.02e-01	0	36	0	1135607808	61	4391
2026-01-18 12:28:03.99	332.20	11.45	-45.3	-46.6	24.7	6.05e-01	0	35	0	1142947840	61	4361
2026-01-18 12:28:08.02	332.47	11.07	-45.5	-46.8	24.4	6.02e-01	0	36	0	1150812160	61	4481
2026-01-18 12:28:12.05	332.74	10.70	-45.6	-46.9	24.3	6.04e-01	0	35	0	1158152192	61	4535
2026-01-18 12:28:16.08	333.00	10.34	-45.6	-47.0	24.2	6.03e-01	0	35	0	1165492224	61	4554
2026-01-18 12:28:20.11	333.26	9.98	-45.6	-47.0	24.2	6.02e-01	0	35	0	1173356544	61	4569
2026-01-18 12:28:24.15	333.51	9.63	-45.9	-47.3	23.9	6.00e-01	0	35	0	1180696576	62	4489
2026-01-18 12:28:28.18	333.75	9.28	-45.9	-47.3	23.8	6.03e-01	0	36	0	1188036608	62	4490
2026-01-18 12:28:32.21	333.99	8.94	-45.9	-47.4	23.8	6.03e-01	0	35	0	1195900928	62	4507
2026-01-18 12:28:36.24	334.22	8.60	-46.0	-47.4	23.7	6.04e-01	0	36	0	1203240960	62	4533
2026-01-18 12:28:40.27	334.44	8.26	-46.2	-47.7	23.5	6.02e-01	0	36	0	1211105280	62	4657
2026-01-18 12:28:44.30	334.67	7.94	-46.2	-47.7	23.4	6.01e-01	0	36	0	1218445312	63	4394
2026-01-18 12:28:48.33	334.88	7.61	-46.2	-47.7	23.3	6.03e-01	0	36	0	1226309632	63	4435
2026-01-18 12:28:52.36	335.09	7.29	-46.5	-48.1	22.9	6.05e-01	0	36	0	1233649664	63	4640
2026-01-18 12:28:56.39	335.30	6.97	-46.5	-48.0	23.0	6.03e-01	0	35	0	1240989696	63	4588
2026-01-18 12:29:00.42	335.50	6.66	-46.5	-48.0	22.9	6.04e-01	0	36	0	1248854016	63	4590
2026-01-18 12:29:04.45	335.70	6.35	-46.7	-48.3	22.5	6.04e-01	0	36	0	1256194048	64	4486
2026-01-18 12:29:08.48	335.90	6.05	-46.6	-48.3	22.4	6.02e-01	0	36	0	1264058368	64	4457
2026-01-18 12:29:12.51	336.09	5.75	-46.7	-48.4	22.3	6.03e-01	0	36	0	1271398400	64	4530
2026-01-18 12:29:16.54	336.27	5.45	-46.8	-48.5	22.2	6.04e-01	0	36	0	1279262720	64	4581
2026-01-18 12:29:20.57	336.46	5.16	-47.0	-48.7	21.9	6.06e-01	0	36	0	1286602752	64	4681
2026-01-18 12:29:24.60	336.64	4.87	-54.5	-72.4	3.8	7.45e-01	0	36	104	1291321344	79	30044
2026-01-18 12:29:28.63	336.81	4.58	-55.0	-72.8	3.8	7.43e-01	0	36	104	1291321344	80	29927
2026-01-18 12:29:32.66	336.99	4.30	-55.3	-73.1	3.8	7.49e-01	0	36	104	1291321344	81	29321
2026-01-18 12:29:36.69	337.16	4.02	-55.4	-73.2	3.8	7.48e-01	0	36	104	1291321344	81	29648
2026-01-18 12:29:40.73	337.32	3.74	-55.4	-73.2	3.8	7.45e-01	0	36	104	1291321344	81	29674
2026-01-18 12:29:44.76	337.49	3.46	-55.4	-73.2	3.8	7.44e-01	0	36	104	1291321344	81	29592
2026-01-18 12:29:48.79	337.65	3.19	-55.3	-73.1	3.8	7.44e-01	0	36	104	1291321344	81	29257
2026-01-18 12:29:52.82	337.80	2.92	-55.3	-73.1	3.8	7.42e-01	0	36	104	1291321344	81	29194
2026-01-18 12:29:56.85	337.96	2.66	-55.3	-73.1	3.8	7.46e-01	0	36	104	1291321344	81	29173
2026-01-18 12:30:00.88	338.11	2.39	-55.3	-73.1	3.8	7.45e-01	0	36	104	1291321344	81	29135
2026-01-18 12:30:04.91	338.26	2.13	-55.3	-73.1	3.8	7.47e-01	0	36	104	1291321344	81	29098

#Closed at: 2026-01-18 12:30:08
#Recorded file [1291 MB]: D:/lorett/data/31041_260118_151726.dat