passes_logs/2026/01/18/R3.2S_Murmansk/R3.2S_Murmansk__20260118_083227_SUOMI_NPP_rec.log

#Pass ID: 20260118_083227_SUOMI NPP
#Satellite: SUOMI NPP
#Configuration: NPP
#almurnet v.1.7.20251203
#Start time: 2026-01-18 08:32:28

#Version: 2.2.20231116
#Station: R3.2S_Murmansk
#Location: 33.079688 lon 68.888172 lat
#TLE: 1 37849U 11061A   26017.57099531  .00000072  00000+0  54974-4 0  9996
#TLE: 2 37849  98.7814 319.5974 0002398  59.1749 300.9663 14.19525865737072

#Time	Az	El	Level	Level2	SNR	BER	BlckErr	Temp	State	Recorded	gain1	gain2
2026-01-18 08:32:28.32	126.84	2.07	-51.9	-66.9	3.8	1.49e+00	0	34	0	0	75	20233
2026-01-18 08:32:32.35	126.75	2.32	-51.9	-66.9	3.8	1.49e+00	0	34	104	0	74	21370
2026-01-18 08:32:36.38	126.65	2.58	-51.9	-66.9	3.8	1.49e+00	0	34	104	0	74	21362
2026-01-18 08:32:40.41	126.55	2.84	-51.9	-66.9	3.8	1.49e+00	0	34	104	0	74	21305
2026-01-18 08:32:44.44	126.45	3.11	-51.9	-66.8	3.8	1.49e+00	0	35	104	0	74	21176
2026-01-18 08:32:48.47	126.34	3.37	-51.9	-66.8	3.8	1.49e+00	0	34	104	0	74	21089
2026-01-18 08:32:52.50	126.24	3.64	-51.9	-66.0	3.8	1.49e+00	0	35	104	0	74	19284
2026-01-18 08:32:56.53	126.13	3.91	-51.7	-63.6	4.1	1.43e+00	0	35	0	0	74	14591
2026-01-18 08:33:00.57	126.02	4.19	-51.7	-62.9	4.3	1.28e+00	86	35	0	2097152	74	13466
2026-01-18 08:33:04.59	125.91	4.46	-51.4	-60.2	5.7	5.67e-01	0	35	0	9437184	74	9906
2026-01-18 08:33:08.62	125.79	4.74	-50.0	-54.5	11.2	3.52e-03	0	35	0	16777216	71	6107
2026-01-18 08:33:12.64	125.68	5.02	-48.4	-51.3	14.5	0.00e+00	0	35	0	24117248	68	5033
2026-01-18 08:33:16.67	125.56	5.31	-50.5	-55.6	10.5	9.48e-03	0	35	0	32505856	72	6507
2026-01-18 08:33:20.69	125.43	5.60	-47.2	-49.4	16.4	0.00e+00	0	35	0	39845888	66	4533
2026-01-18 08:33:24.73	125.31	5.89	-47.0	-49.0	16.9	0.00e+00	0	35	0	47185920	65	4594
2026-01-18 08:33:28.77	125.18	6.18	-46.8	-48.7	17.3	0.00e+00	0	35	0	54525952	65	4430
2026-01-18 08:33:32.79	125.05	6.48	-47.0	-49.1	17.0	0.00e+00	0	35	0	61865984	65	4604
2026-01-18 08:33:36.82	124.91	6.78	-47.0	-49.0	17.1	0.00e+00	0	35	0	70254592	66	4331
2026-01-18 08:33:40.85	124.78	7.08	-47.1	-49.2	17.0	0.00e+00	0	35	0	77594624	65	4652
2026-01-18 08:33:44.88	124.64	7.39	-46.8	-48.7	17.5	0.00e+00	0	35	0	84934656	65	4402
2026-01-18 08:33:48.91	124.49	7.70	-46.7	-48.6	17.6	0.00e+00	0	35	0	92274688	65	4353
2026-01-18 08:33:52.95	124.35	8.02	-47.1	-49.0	17.2	0.00e+00	0	35	0	99614720	65	4598
2026-01-18 08:33:56.98	124.20	8.34	-46.9	-48.8	17.5	0.00e+00	0	36	0	108003328	65	4470
2026-01-18 08:34:01.01	124.04	8.66	-46.9	-48.7	17.7	0.00e+00	0	36	0	115343360	65	4436
2026-01-18 08:34:05.05	123.88	8.99	-46.6	-48.4	18.0	0.00e+00	0	36	0	122683392	65	4251
2026-01-18 08:34:09.08	123.72	9.32	-46.5	-48.2	18.2	0.00e+00	0	35	0	130023424	64	4416
2026-01-18 08:34:13.11	123.56	9.65	-46.3	-47.9	18.5	0.00e+00	0	35	0	137363456	64	4278
2026-01-18 08:34:17.14	123.39	9.99	-46.3	-48.0	18.4	0.00e+00	0	36	0	145752064	64	4312
2026-01-18 08:34:21.17	123.21	10.33	-46.1	-47.6	18.8	0.00e+00	0	36	0	153092096	64	4128
2026-01-18 08:34:25.21	123.03	10.68	-46.0	-47.5	19.1	0.00e+00	0	36	0	160432128	63	4305
2026-01-18 08:34:29.24	122.85	11.03	-46.1	-47.6	19.0	0.00e+00	0	36	0	167772160	63	4381
2026-01-18 08:34:33.27	122.66	11.39	-46.1	-47.7	19.0	0.00e+00	0	36	0	176160768	63	4400
2026-01-18 08:34:37.31	122.47	11.75	-46.1	-47.6	19.0	0.00e+00	0	36	0	183500800	63	4358
2026-01-18 08:34:41.34	122.27	12.12	-46.1	-47.7	18.9	0.00e+00	0	36	0	190840832	63	4428
2026-01-18 08:34:45.37	122.06	12.49	-46.1	-47.8	18.8	0.00e+00	0	36	0	198180864	63	4463
2026-01-18 08:34:49.40	121.86	12.87	-45.9	-47.4	19.2	0.00e+00	0	36	0	205520896	63	4290
2026-01-18 08:34:53.43	121.64	13.26	-46.0	-47.5	19.1	0.00e+00	0	36	0	213909504	63	4329
2026-01-18 08:34:57.46	121.42	13.64	-45.8	-47.4	19.3	0.00e+00	0	36	0	221249536	63	4265
2026-01-18 08:35:01.49	121.19	14.04	-45.9	-47.4	19.2	0.00e+00	0	36	0	228589568	63	4287
2026-01-18 08:35:05.52	120.96	14.44	-45.7	-47.2	19.5	0.00e+00	0	36	0	235929600	63	4173
2026-01-18 08:35:09.55	120.72	14.85	-45.7	-47.2	19.5	0.00e+00	0	36	0	243269632	62	4409
2026-01-18 08:35:13.59	120.47	15.26	-45.8	-47.3	19.4	0.00e+00	0	36	0	251658240	62	4481
2026-01-18 08:35:17.62	120.21	15.68	-45.6	-47.1	19.6	0.00e+00	0	36	0	258998272	62	4343
2026-01-18 08:35:21.65	119.95	16.11	-45.7	-47.2	19.5	0.00e+00	0	36	0	266338304	62	4440
2026-01-18 08:35:25.68	119.68	16.54	-45.9	-47.4	19.4	0.00e+00	0	36	0	273678336	62	4528
2026-01-18 08:35:29.71	119.40	16.98	-45.7	-47.3	19.5	0.00e+00	0	36	0	281018368	62	4446
2026-01-18 08:35:33.74	119.11	17.43	-46.1	-47.7	19.1	0.00e+00	0	36	0	289406976	62	4699
2026-01-18 08:35:37.77	118.81	17.89	-46.3	-47.9	19.0	0.00e+00	0	36	0	296747008	63	4532
2026-01-18 08:35:41.80	118.51	18.35	-45.7	-47.2	19.7	0.00e+00	0	36	0	304087040	63	4150
2026-01-18 08:35:45.83	118.19	18.82	-45.9	-47.4	19.5	0.00e+00	0	36	0	311427072	63	4254
2026-01-18 08:35:49.86	117.86	19.30	-46.2	-47.8	19.1	0.00e+00	0	36	0	319815680	63	4460
2026-01-18 08:35:53.89	117.53	19.79	-46.4	-48.0	18.9	0.00e+00	0	36	0	327155712	63	4571
2026-01-18 08:35:57.93	117.17	20.29	-46.6	-48.3	18.6	0.00e+00	0	36	0	334495744	64	4469
2026-01-18 08:36:01.96	116.81	20.79	-46.4	-48.0	18.8	0.00e+00	0	36	0	341835776	64	4328
2026-01-18 08:36:05.99	116.44	21.31	-46.4	-48.0	18.8	0.00e+00	0	36	0	349175808	64	4321
2026-01-18 08:36:10.02	116.05	21.83	-46.8	-48.6	18.4	0.00e+00	0	36	0	356515840	64	4608
2026-01-18 08:36:14.05	115.65	22.37	-46.4	-48.0	18.9	0.00e+00	0	36	0	364904448	64	4310
2026-01-18 08:36:18.08	115.24	22.91	-46.7	-48.4	18.6	0.00e+00	0	36	0	372244480	64	4530
2026-01-18 08:36:22.11	114.80	23.46	-46.8	-48.5	18.5	0.00e+00	0	36	0	379584512	64	4562
2026-01-18 08:36:26.14	114.36	24.02	-47.1	-48.8	18.2	0.00e+00	0	36	0	386924544	64	4740
2026-01-18 08:36:30.18	113.89	24.60	-47.0	-48.8	18.2	0.00e+00	0	36	0	395313152	65	4465
2026-01-18 08:36:34.21	113.41	25.18	-46.9	-48.7	18.3	0.00e+00	0	36	0	402653184	65	4402
2026-01-18 08:36:38.24	112.91	25.78	-47.4	-49.4	17.7	0.00e+00	0	36	0	409993216	65	4774
2026-01-18 08:36:42.27	112.39	26.38	-47.8	-49.9	17.1	0.00e+00	0	36	0	417333248	66	4770
2026-01-18 08:36:46.30	111.85	27.00	-47.1	-49.0	18.0	0.00e+00	0	36	0	424673280	66	4301
2026-01-18 08:36:50.33	111.29	27.63	-46.3	-47.9	19.1	0.00e+00	0	36	0	433061888	64	4261
2026-01-18 08:36:54.37	110.70	28.27	-47.2	-49.0	18.0	0.00e+00	0	36	0	440401920	65	4582
2026-01-18 08:36:58.40	110.09	28.92	-46.6	-48.3	18.7	0.00e+00	0	36	0	447741952	65	4204
2026-01-18 08:37:02.43	109.45	29.58	-47.0	-48.8	18.2	0.00e+00	0	36	0	455081984	65	4470
2026-01-18 08:37:06.46	108.79	30.26	-47.4	-49.3	17.8	0.00e+00	0	36	0	462422016	65	4724
2026-01-18 08:37:10.49	108.09	30.94	-47.8	-49.9	17.2	0.00e+00	0	36	0	470810624	66	4790
2026-01-18 08:37:14.52	107.37	31.64	-48.4	-50.7	16.5	0.00e+00	0	36	0	478150656	67	4942
2026-01-18 08:37:18.55	106.61	32.35	-48.6	-50.9	16.4	0.00e+00	0	36	0	485490688	68	4798
2026-01-18 08:37:22.58	105.82	33.06	-48.9	-51.4	15.8	0.00e+00	0	36	0	492830720	68	5090
2026-01-18 08:37:26.61	104.99	33.79	-48.8	-51.2	16.0	0.00e+00	0	36	0	500170752	68	4974
2026-01-18 08:37:30.64	104.13	34.53	-48.5	-51.0	16.2	0.00e+00	0	36	0	508559360	68	4823
2026-01-18 08:37:34.68	103.22	35.28	-47.8	-49.9	17.2	0.00e+00	0	36	0	515899392	67	4538
2026-01-18 08:37:38.71	102.27	36.04	-48.3	-50.7	16.5	0.00e+00	0	36	0	523239424	67	4967
2026-01-18 08:37:42.74	101.27	36.81	-48.2	-50.4	16.7	0.00e+00	0	36	0	530579456	67	4785
2026-01-18 08:37:46.77	100.23	37.58	-48.7	-51.3	16.0	0.00e+00	0	36	0	538968064	68	4992
2026-01-18 08:37:50.80	99.13	38.37	-48.8	-51.3	16.0	0.00e+00	0	36	0	546308096	68	5010
2026-01-18 08:37:54.84	97.98	39.15	-48.7	-51.3	15.9	0.00e+00	0	36	0	553648128	68	5011
2026-01-18 08:37:58.87	96.77	39.95	-47.1	-48.9	18.1	0.00e+00	0	36	0	560988160	65	4528
2026-01-18 08:38:02.90	95.50	40.74	-47.3	-49.2	18.0	0.00e+00	0	36	0	568328192	65	4673
2026-01-18 08:38:06.93	94.16	41.53	-48.9	-51.6	15.7	0.00e+00	0	36	0	576716800	68	5202
2026-01-18 08:38:10.97	92.76	42.33	-47.7	-49.7	17.4	0.00e+00	0	36	0	584056832	67	4439
2026-01-18 08:38:15.00	91.28	43.12	-48.9	-51.6	15.7	0.00e+00	0	36	0	591396864	68	5218
2026-01-18 08:38:19.03	89.73	43.90	-49.6	-52.7	14.6	1.50e-06	0	36	0	598736896	70	5256
2026-01-18 08:38:23.07	88.10	44.67	-49.6	-52.7	14.6	1.50e-06	0	36	0	606076928	70	5248
2026-01-18 08:38:27.10	86.40	45.44	-49.5	-52.5	14.9	0.00e+00	0	36	0	614465536	69	5421
2026-01-18 08:38:31.13	84.61	46.18	-46.5	-48.0	19.1	0.00e+00	0	36	0	621805568	64	4326
2026-01-18 08:38:35.16	82.73	46.91	-47.8	-49.9	17.4	0.00e+00	0	36	0	629145600	66	4800
2026-01-18 08:38:39.19	80.77	47.61	-46.5	-48.0	19.1	0.00e+00	0	36	0	636485632	64	4307
2026-01-18 08:38:43.22	78.71	48.29	-48.0	-50.2	17.0	0.00e+00	0	36	0	643825664	66	4982
2026-01-18 08:38:47.25	76.57	48.93	-47.1	-49.0	18.2	0.00e+00	0	36	0	652214272	65	4549
2026-01-18 08:38:51.28	74.33	49.54	-46.6	-48.3	18.9	0.00e+00	0	36	0	659554304	65	4220
2026-01-18 08:38:55.31	72.01	50.10	-47.3	-49.2	17.9	0.00e+00	0	36	0	666894336	65	4685
2026-01-18 08:38:59.34	69.61	50.63	-50.0	-54.0	13.1	2.13e-05	0	36	0	674234368	70	6088
2026-01-18 08:39:03.37	67.12	51.10	-48.1	-50.4	16.9	0.00e+00	0	36	0	682622976	67	4767
2026-01-18 08:39:07.40	64.56	51.51	-48.3	-50.8	16.3	0.00e+00	0	36	0	689963008	67	5029
2026-01-18 08:39:11.43	61.93	51.87	-46.5	-48.3	18.6	0.00e+00	0	36	0	697303040	65	4202
2026-01-18 08:39:15.46	59.24	52.17	-44.4	-45.6	21.2	0.00e+00	0	36	0	704643072	60	4124
2026-01-18 08:39:19.49	56.51	52.40	-44.7	-46.0	20.9	0.00e+00	0	36	0	711983104	60	4321
2026-01-18 08:39:23.53	53.73	52.56	-44.6	-45.9	20.9	0.00e+00	0	36	0	720371712	60	4283
2026-01-18 08:39:27.56	50.93	52.65	-44.8	-46.2	20.5	0.00e+00	0	36	0	727711744	60	4423
2026-01-18 08:39:31.59	48.12	52.68	-45.5	-46.9	20.1	0.00e+00	0	36	0	735051776	62	4275
2026-01-18 08:39:35.62	45.32	52.63	-45.2	-46.6	20.4	0.00e+00	0	36	0	742391808	62	4132
2026-01-18 08:39:39.65	42.53	52.51	-45.8	-47.4	19.8	0.00e+00	0	36	0	749731840	63	4257
2026-01-18 08:39:43.69	39.76	52.32	-45.7	-47.3	19.8	0.00e+00	0	36	0	758120448	62	4442
2026-01-18 08:39:47.72	37.04	52.06	-44.6	-45.9	21.1	0.00e+00	0	36	0	765460480	60	4258
2026-01-18 08:39:51.75	34.38	51.74	-45.3	-46.7	20.2	0.00e+00	0	36	0	772800512	61	4409
2026-01-18 08:39:55.79	31.77	51.36	-45.6	-47.0	20.1	0.00e+00	0	36	0	780140544	62	4337
2026-01-18 08:39:59.82	29.24	50.93	-45.6	-47.0	20.1	0.00e+00	0	36	0	787480576	62	4310
2026-01-18 08:40:03.85	26.78	50.44	-47.9	-50.1	17.4	0.00e+00	0	36	0	795869184	66	4911
2026-01-18 08:40:07.88	24.41	49.90	-47.2	-49.0	18.2	0.00e+00	0	36	0	803209216	66	4333
2026-01-18 08:40:11.91	22.13	49.32	-47.7	-49.7	17.6	0.00e+00	0	36	0	810549248	65	4960
2026-01-18 08:40:15.94	19.93	48.70	-47.1	-48.9	18.4	0.00e+00	0	36	0	817889280	65	4503
2026-01-18 08:40:19.98	17.82	48.04	-46.9	-48.6	18.5	0.00e+00	0	36	0	825229312	65	4390
2026-01-18 08:40:24.01	15.80	47.36	-46.7	-48.4	18.8	0.00e+00	0	36	0	833617920	64	4498
2026-01-18 08:40:28.04	13.87	46.64	-47.5	-49.3	18.0	0.00e+00	0	36	0	840957952	66	4484
2026-01-18 08:40:32.07	12.03	45.91	-47.2	-49.0	18.4	0.00e+00	0	36	0	848297984	64	4829
2026-01-18 08:40:36.10	10.28	45.16	-49.3	-52.1	15.4	0.00e+00	0	36	0	855638016	69	5172
2026-01-18 08:40:40.13	8.60	44.40	-48.8	-51.1	16.4	0.00e+00	0	36	0	864026624	69	4642
2026-01-18 08:40:44.17	7.01	43.62	-48.5	-50.8	16.6	0.00e+00	0	36	0	871366656	69	4465
2026-01-18 08:40:48.20	5.49	42.84	-46.5	-48.0	19.1	0.00e+00	0	36	0	878706688	65	4073
2026-01-18 08:40:52.22	4.05	42.05	-47.5	-49.4	17.7	0.00e+00	0	36	0	886046720	66	4538
2026-01-18 08:40:56.26	2.67	41.26	-48.7	-51.1	16.3	0.00e+00	0	36	0	893386752	69	4624
2026-01-18 08:41:00.30	1.36	40.46	-49.3	-52.1	15.3	0.00e+00	0	36	0	901775360	69	5199
2026-01-18 08:41:04.32	0.12	39.68	-49.4	-52.4	14.9	0.00e+00	0	36	0	909115392	70	5063
2026-01-18 08:41:08.36	358.93	38.89	-48.7	-51.1	16.3	0.00e+00	0	36	0	916455424	68	4874
2026-01-18 08:41:12.39	357.81	38.10	-48.5	-50.8	16.6	0.00e+00	0	36	0	923795456	68	4730
2026-01-18 08:41:16.42	356.73	37.33	-47.8	-49.8	17.5	0.00e+00	0	36	0	931135488	67	4457
2026-01-18 08:41:20.46	355.71	36.56	-49.4	-52.2	15.2	0.00e+00	0	36	0	939524096	69	5266
2026-01-18 08:41:24.49	354.73	35.79	-49.5	-52.3	15.1	7.00e-07	0	36	0	946864128	70	5010
2026-01-18 08:41:28.52	353.80	35.04	-47.9	-49.9	17.4	0.00e+00	0	36	0	954204160	67	4504
2026-01-18 08:41:32.55	352.91	34.30	-48.2	-50.3	17.1	0.00e+00	0	36	0	961544192	67	4728
2026-01-18 08:41:36.58	352.06	33.56	-47.6	-49.5	17.8	0.00e+00	0	36	0	968884224	66	4565
2026-01-18 08:41:40.61	351.25	32.84	-47.8	-49.7	17.7	0.00e+00	0	36	0	977272832	66	4654
2026-01-18 08:41:44.64	350.47	32.13	-47.7	-49.5	17.7	0.00e+00	0	36	0	984612864	66	4588
2026-01-18 08:41:48.67	349.73	31.43	-48.1	-50.2	17.1	0.00e+00	0	36	0	991952896	66	4939
2026-01-18 08:41:52.70	349.02	30.74	-49.3	-52.1	15.4	0.00e+00	0	36	0	999292928	69	5163
2026-01-18 08:41:56.73	348.34	30.06	-47.4	-49.2	18.0	0.00e+00	0	36	0	1007681536	66	4423
2026-01-18 08:42:00.77	347.69	29.39	-46.3	-47.8	19.4	0.00e+00	0	36	0	1015021568	64	4194
2026-01-18 08:42:04.80	347.06	28.73	-47.5	-49.4	17.9	0.00e+00	0	36	0	1022361600	65	4761
2026-01-18 08:42:08.83	346.46	28.09	-48.0	-50.0	17.2	0.00e+00	0	36	0	1029701632	67	4595
2026-01-18 08:42:12.86	345.89	27.46	-46.5	-48.1	19.2	0.00e+00	0	36	0	1037041664	64	4342
2026-01-18 08:42:16.89	345.33	26.83	-46.6	-48.1	19.0	0.00e+00	0	36	0	1045430272	63	4631
2026-01-18 08:42:20.92	344.80	26.22	-46.8	-48.4	18.6	0.00e+00	0	36	0	1052770304	64	4543
2026-01-18 08:42:24.96	344.29	25.62	-47.5	-49.4	17.8	0.00e+00	0	36	0	1060110336	65	4775
2026-01-18 08:42:28.99	343.80	25.03	-46.7	-48.3	18.8	0.00e+00	0	36	0	1067450368	65	4236
2026-01-18 08:42:33.02	343.32	24.45	-46.3	-47.8	19.3	0.00e+00	0	36	0	1074790400	63	4467
2026-01-18 08:42:37.05	342.87	23.89	-46.8	-48.4	18.7	0.00e+00	0	36	0	1083179008	64	4516
2026-01-18 08:42:41.08	342.43	23.33	-46.9	-48.5	18.5	0.00e+00	0	36	0	1090519040	64	4594
2026-01-18 08:42:45.11	342.01	22.78	-48.2	-50.4	16.8	0.00e+00	0	36	0	1097859072	66	5048
2026-01-18 08:42:49.14	341.60	22.24	-48.1	-50.2	16.9	0.00e+00	0	36	0	1105199104	67	4700
2026-01-18 08:42:53.17	341.20	21.71	-47.2	-48.9	18.1	0.00e+00	0	36	0	1112539136	66	4276
2026-01-18 08:42:57.21	340.82	21.19	-47.5	-49.3	17.7	0.00e+00	0	36	0	1120927744	66	4493
2026-01-18 08:43:01.23	340.46	20.69	-47.1	-48.8	18.2	0.00e+00	0	36	0	1128267776	66	4226
2026-01-18 08:43:05.27	340.10	20.18	-46.0	-47.4	19.6	0.00e+00	0	36	0	1135607808	63	4276
2026-01-18 08:43:09.30	339.76	19.69	-45.7	-47.0	19.9	0.00e+00	0	36	0	1142947840	62	4323
2026-01-18 08:43:13.32	339.42	19.21	-46.3	-47.8	19.2	0.00e+00	0	36	0	1150287872	63	4471
2026-01-18 08:43:17.35	339.10	18.73	-47.3	-49.1	17.8	0.00e+00	0	36	0	1158676480	65	4640
2026-01-18 08:43:21.38	338.79	18.27	-47.7	-49.8	17.2	0.00e+00	0	36	0	1166016512	66	4714
2026-01-18 08:43:25.41	338.49	17.81	-47.7	-49.7	17.3	0.00e+00	0	36	0	1173356544	66	4676
2026-01-18 08:43:29.45	338.20	17.35	-47.4	-49.3	17.6	0.00e+00	0	36	0	1180696576	66	4453
2026-01-18 08:43:33.48	337.92	16.91	-47.4	-49.4	17.5	0.00e+00	0	36	0	1188036608	66	4502
2026-01-18 08:43:37.51	337.64	16.47	-47.4	-49.4	17.5	0.00e+00	0	36	0	1196425216	66	4500
2026-01-18 08:43:41.54	337.37	16.04	-47.5	-49.5	17.4	0.00e+00	0	36	0	1203765248	66	4549
2026-01-18 08:43:45.57	337.12	15.62	-47.6	-49.6	17.2	0.00e+00	0	36	0	1211105280	66	4639
2026-01-18 08:43:49.60	336.87	15.20	-47.2	-49.1	17.7	0.00e+00	0	36	0	1218445312	66	4341
2026-01-18 08:43:53.63	336.62	14.79	-47.2	-49.1	17.7	0.00e+00	0	36	0	1226833920	66	4380
2026-01-18 08:43:57.67	336.39	14.39	-47.0	-48.8	17.9	0.00e+00	0	36	0	1234173952	65	4487
2026-01-18 08:44:01.71	336.16	13.99	-47.0	-48.9	17.8	0.00e+00	0	36	0	1241513984	65	4505
2026-01-18 08:44:05.74	335.93	13.59	-47.6	-49.7	17.0	0.00e+00	0	36	0	1248854016	65	4968
2026-01-18 08:44:09.77	335.72	13.21	-48.2	-50.6	16.2	0.00e+00	0	36	0	1256194048	66	5163
2026-01-18 08:44:13.80	335.50	12.83	-48.4	-50.8	16.0	0.00e+00	0	36	0	1264582656	67	5018
2026-01-18 08:44:17.83	335.30	12.45	-48.2	-50.5	16.2	0.00e+00	0	36	0	1271922688	67	4848
2026-01-18 08:44:21.87	335.10	12.08	-47.5	-49.6	17.1	0.00e+00	0	36	0	1279262720	66	4614
2026-01-18 08:44:25.90	334.90	11.72	-47.0	-48.9	17.8	0.00e+00	0	36	0	1286602752	66	4256
2026-01-18 08:44:29.93	334.72	11.36	-47.0	-48.8	17.8	0.00e+00	0	36	0	1294991360	65	4492
2026-01-18 08:44:33.96	334.53	11.00	-46.8	-48.5	18.1	0.00e+00	0	36	0	1302331392	65	4327
2026-01-18 08:44:37.99	334.35	10.65	-47.2	-49.1	17.5	0.00e+00	0	36	0	1309671424	65	4619
2026-01-18 08:44:42.02	334.18	10.31	-47.3	-49.3	17.2	0.00e+00	0	36	0	1317011456	65	4756
2026-01-18 08:44:46.05	334.01	9.97	-47.6	-49.7	16.9	0.00e+00	0	36	0	1324351488	65	4958
2026-01-18 08:44:50.09	333.84	9.63	-47.8	-50.0	16.5	0.00e+00	0	36	0	1331691520	66	4862
2026-01-18 08:44:54.12	333.68	9.30	-47.9	-50.2	16.3	0.00e+00	0	36	0	1340080128	66	4965
2026-01-18 08:44:58.15	333.52	8.97	-48.0	-50.4	16.2	0.00e+00	0	36	0	1347420160	66	5065
2026-01-18 08:45:02.18	333.36	8.64	-47.8	-50.1	16.4	0.00e+00	0	36	0	1354760192	66	4910
2026-01-18 08:45:06.21	333.21	8.32	-48.1	-50.6	15.9	0.00e+00	0	36	0	1362100224	66	5162
2026-01-18 08:45:10.24	333.07	8.01	-48.4	-51.0	15.5	0.00e+00	0	36	0	1370488832	67	5108
2026-01-18 08:45:14.27	332.92	7.69	-48.9	-51.8	14.7	0.00e+00	0	36	0	1377828864	68	5334
2026-01-18 08:45:18.31	332.78	7.38	-48.8	-51.7	14.8	7.00e-07	0	36	0	1385168896	68	5234
2026-01-18 08:45:22.33	332.65	7.08	-49.2	-52.4	14.0	0.00e+00	0	36	0	1392508928	69	5381
2026-01-18 08:45:26.37	332.51	6.78	-48.9	-52.0	14.4	1.50e-06	0	36	0	1399848960	69	5101
2026-01-18 08:45:30.40	332.38	6.48	-49.2	-52.5	13.8	7.00e-07	0	36	0	1408237568	69	5441
2026-01-18 08:45:34.43	332.25	6.18	-49.1	-52.3	14.0	3.00e-06	0	36	0	1415577600	69	5334
2026-01-18 08:45:38.46	332.13	5.89	-49.1	-52.3	14.0	1.50e-06	0	36	0	1422917632	69	5328
2026-01-18 08:45:42.49	332.01	5.60	-49.3	-52.7	13.6	1.50e-06	0	36	0	1430257664	69	5549
2026-01-18 08:45:46.52	331.89	5.31	-49.2	-52.5	13.7	6.80e-06	0	36	0	1437597696	69	5453
2026-01-18 08:45:50.55	331.77	5.03	-50.6	-55.7	11.0	5.30e-06	0	36	0	1445986304	71	6964
2026-01-18 08:45:54.59	331.66	4.75	-53.3	-68.3	3.8	1.49e+00	0	36	104	1445986304	77	21180
2026-01-18 08:45:58.61	331.55	4.47	-53.8	-68.7	3.8	1.49e+00	0	36	104	1445986304	78	20963
2026-01-18 08:46:02.65	331.44	4.20	-54.0	-69.0	3.8	1.49e+00	0	36	104	1445986304	78	21604
2026-01-18 08:46:06.68	331.33	3.93	-54.0	-69.0	3.8	1.49e+00	0	36	104	1445986304	78	21740
2026-01-18 08:46:10.71	331.23	3.66	-54.1	-69.1	3.8	1.49e+00	0	37	104	1445986304	78	21884
2026-01-18 08:46:14.74	331.12	3.39	-54.0	-69.0	3.8	1.49e+00	0	36	104	1445986304	78	21643
2026-01-18 08:46:18.78	331.02	3.12	-53.9	-69.0	3.8	1.49e+00	0	36	104	1445986304	78	21536
2026-01-18 08:46:22.80	330.93	2.86	-53.9	-68.9	3.8	1.49e+00	0	36	104	1445986304	78	21495
2026-01-18 08:46:26.83	330.83	2.60	-53.9	-69.0	3.8	1.49e+00	0	36	104	1445986304	78	21537
2026-01-18 08:46:30.87	330.74	2.34	-53.9	-68.9	3.8	1.49e+00	0	36	104	1445986304	78	21495
2026-01-18 08:46:34.90	330.64	2.09	-53.9	-68.9	3.8	1.49e+00	0	36	104	1445986304	78	21454

#Closed at: 2026-01-18 08:46:36
#Recorded file [1445 MB]: D:/lorett/data/31041_260118_113228.dat