passes_logs/2026/01/18/R3.2S_Murmansk/R3.2S_Murmansk__20260118_085254_NOAA_20_JPSS-1_rec.log

#Pass ID: 20260118_085254_NOAA 20 (JPSS-1)
#Satellite: NOAA 20 (JPSS-1)
#Configuration: NOAA 20
#almurnet v.1.7.20251203
#Start time: 2026-01-18 08:52:54

#Version: 2.2.20231116
#Station: R3.2S_Murmansk
#Location: 33.079688 lon 68.888172 lat
#TLE: 1 43013U 17073A   26017.58553584  .00000066  00000+0  52288-4 0  9998
#TLE: 2 43013  98.7639 318.4977 0001406  35.6039 324.5231 14.19536575423107

#Time	Az	El	Level	Level2	SNR	BER	BlckErr	Temp	State	Recorded	gain1	gain2
2026-01-18 08:52:54.57	136.43	2.02	-51.9	-66.8	3.8	1.49e+00	0	34	0	0	75	20064
2026-01-18 08:52:58.61	136.38	2.28	-51.9	-66.8	3.8	1.49e+00	0	34	104	0	74	21137
2026-01-18 08:53:02.64	136.32	2.54	-51.8	-66.8	3.8	1.49e+00	0	34	104	0	74	21136
2026-01-18 08:53:06.67	136.26	2.80	-51.8	-66.8	3.8	1.49e+00	0	34	104	0	74	21083
2026-01-18 08:53:10.70	136.20	3.07	-51.8	-66.8	3.8	1.49e+00	0	34	104	0	74	21118
2026-01-18 08:53:14.73	136.14	3.34	-51.8	-66.5	3.8	1.49e+00	0	34	104	0	74	20415
2026-01-18 08:53:18.77	136.08	3.61	-51.8	-65.6	3.8	1.49e+00	0	35	104	0	74	18492
2026-01-18 08:53:22.80	136.02	3.88	-51.7	-64.2	4.0	1.48e+00	0	35	104	0	74	15727
2026-01-18 08:53:26.83	135.95	4.16	-51.6	-63.2	4.2	1.39e+00	0	35	0	0	74	13889
2026-01-18 08:53:30.86	135.88	4.44	-51.2	-59.4	6.2	3.29e-01	0	35	0	5242880	74	9017
2026-01-18 08:53:34.89	135.82	4.72	-49.8	-54.2	11.5	3.01e-03	0	35	0	12582912	71	5856
2026-01-18 08:53:38.92	135.75	5.01	-48.2	-51.1	14.7	0.00e+00	0	35	0	19922944	68	4873
2026-01-18 08:53:42.95	135.68	5.30	-51.3	-58.7	7.4	2.07e-02	0	35	0	28311552	73	8819
2026-01-18 08:53:46.99	135.60	5.59	-48.0	-50.6	15.4	0.00e+00	0	35	0	35651584	68	4644
2026-01-18 08:53:51.02	135.53	5.88	-48.3	-51.1	14.9	0.00e+00	0	35	0	42991616	67	5182
2026-01-18 08:53:55.05	135.45	6.18	-47.3	-49.5	16.6	0.00e+00	0	35	0	50331648	66	4568
2026-01-18 08:53:59.09	135.37	6.48	-47.1	-49.2	17.0	0.00e+00	0	35	0	58720256	66	4419
2026-01-18 08:54:03.12	135.29	6.79	-47.3	-49.5	16.8	0.00e+00	0	35	0	66060288	66	4563
2026-01-18 08:54:07.15	135.21	7.10	-46.7	-48.6	17.6	0.00e+00	0	35	0	73400320	65	4387
2026-01-18 08:54:11.18	135.13	7.41	-46.9	-48.8	17.4	0.00e+00	0	35	0	80740352	65	4493
2026-01-18 08:54:15.21	135.04	7.72	-46.9	-48.7	17.6	0.00e+00	0	35	0	88080384	65	4435
2026-01-18 08:54:19.24	134.95	8.04	-46.8	-48.7	17.8	0.00e+00	0	35	0	96468992	65	4393
2026-01-18 08:54:23.27	134.86	8.37	-46.7	-48.5	18.0	0.00e+00	0	35	0	103809024	65	4307
2026-01-18 08:54:27.30	134.77	8.70	-46.5	-48.2	18.3	0.00e+00	0	35	0	111149056	64	4405
2026-01-18 08:54:31.33	134.67	9.03	-46.4	-48.1	18.4	0.00e+00	0	36	0	118489088	64	4347
2026-01-18 08:54:35.37	134.57	9.37	-46.3	-48.0	18.6	0.00e+00	0	35	0	125829120	64	4295
2026-01-18 08:54:39.40	134.47	9.71	-46.2	-47.8	18.8	0.00e+00	0	36	0	134217728	64	4203
2026-01-18 08:54:43.43	134.37	10.05	-46.2	-47.9	18.7	0.00e+00	0	36	0	141557760	64	4245
2026-01-18 08:54:47.46	134.26	10.40	-46.1	-47.6	19.1	0.00e+00	0	35	0	148897792	63	4359
2026-01-18 08:54:51.49	134.15	10.76	-45.9	-47.4	19.3	0.00e+00	0	36	0	156237824	63	4267
2026-01-18 08:54:55.53	134.04	11.12	-46.1	-47.6	19.2	0.00e+00	0	36	0	163577856	63	4346
2026-01-18 08:54:59.56	133.92	11.49	-45.8	-47.2	19.5	0.00e+00	0	36	0	171966464	63	4193
2026-01-18 08:55:03.59	133.80	11.86	-45.8	-47.2	19.6	0.00e+00	0	36	0	179306496	63	4174
2026-01-18 08:55:07.62	133.68	12.24	-45.8	-47.3	19.5	0.00e+00	0	36	0	186646528	63	4211
2026-01-18 08:55:11.65	133.56	12.62	-45.8	-47.2	19.6	0.00e+00	0	36	0	193986560	63	4163
2026-01-18 08:55:15.68	133.43	13.01	-45.7	-47.1	19.8	0.00e+00	0	36	0	202375168	63	4106
2026-01-18 08:55:19.71	133.29	13.40	-45.8	-47.2	19.7	0.00e+00	0	36	0	209715200	63	4160
2026-01-18 08:55:23.75	133.16	13.80	-45.6	-47.0	19.9	0.00e+00	0	36	0	217055232	63	4055
2026-01-18 08:55:27.78	133.02	14.21	-45.6	-46.9	19.9	0.00e+00	0	36	0	224395264	63	4047
2026-01-18 08:55:31.81	132.87	14.63	-45.5	-46.8	20.1	0.00e+00	0	36	0	231735296	63	3999
2026-01-18 08:55:35.84	132.72	15.05	-45.5	-46.9	20.0	0.00e+00	0	36	0	239075328	62	4248
2026-01-18 08:55:39.87	132.56	15.48	-45.4	-46.7	20.2	0.00e+00	0	36	0	247463936	62	4174
2026-01-18 08:55:43.91	132.40	15.91	-45.4	-46.7	20.2	0.00e+00	0	36	0	254803968	62	4179
2026-01-18 08:55:47.93	132.24	16.36	-45.5	-46.9	20.1	0.00e+00	0	36	0	262144000	62	4243
2026-01-18 08:55:51.97	132.07	16.81	-45.4	-46.8	20.2	0.00e+00	0	36	0	269484032	62	4199
2026-01-18 08:55:56.00	131.89	17.27	-45.5	-46.8	20.2	0.00e+00	0	36	0	277872640	62	4237
2026-01-18 08:56:00.03	131.71	17.74	-45.3	-46.6	20.5	0.00e+00	0	36	0	285212672	62	4102
2026-01-18 08:56:04.06	131.52	18.22	-45.3	-46.6	20.4	0.00e+00	0	36	0	292552704	62	4145
2026-01-18 08:56:08.09	131.33	18.70	-45.3	-46.6	20.4	0.00e+00	0	36	0	299892736	62	4143
2026-01-18 08:56:12.13	131.13	19.20	-45.3	-46.6	20.5	0.00e+00	0	36	0	307232768	62	4132
2026-01-18 08:56:16.16	130.92	19.70	-45.4	-46.7	20.4	0.00e+00	0	36	0	315621376	62	4192
2026-01-18 08:56:20.19	130.70	20.22	-45.3	-46.6	20.5	0.00e+00	0	36	0	322961408	62	4110
2026-01-18 08:56:24.23	130.48	20.75	-45.3	-46.5	20.6	0.00e+00	0	36	0	330301440	62	4085
2026-01-18 08:56:28.26	130.24	21.28	-45.2	-46.4	20.7	0.00e+00	0	36	0	337641472	62	4043
2026-01-18 08:56:32.29	130.00	21.83	-45.0	-46.2	20.9	0.00e+00	0	36	0	346030080	62	3948
2026-01-18 08:56:36.32	129.75	22.39	-45.1	-46.3	20.7	0.00e+00	0	36	0	353370112	62	4004
2026-01-18 08:56:40.35	129.49	22.96	-45.2	-46.5	20.7	0.00e+00	0	36	0	360710144	62	4073
2026-01-18 08:56:44.38	129.22	23.54	-45.5	-46.8	20.3	0.00e+00	0	36	0	368050176	62	4233
2026-01-18 08:56:48.42	128.94	24.14	-45.6	-46.9	20.3	0.00e+00	0	36	0	375390208	62	4287
2026-01-18 08:56:52.45	128.65	24.75	-45.9	-47.3	20.0	0.00e+00	0	36	0	382730240	62	4446
2026-01-18 08:56:56.48	128.34	25.37	-46.2	-47.6	19.6	0.00e+00	0	36	0	391118848	62	4637
2026-01-18 08:57:00.51	128.03	26.01	-46.4	-47.9	19.4	0.00e+00	0	36	0	398458880	63	4514
2026-01-18 08:57:04.54	127.70	26.66	-46.6	-48.2	19.1	0.00e+00	0	36	0	405798912	64	4394
2026-01-18 08:57:08.58	127.35	27.32	-47.2	-48.9	18.4	0.00e+00	0	36	0	413138944	64	4771
2026-01-18 08:57:12.61	126.99	28.00	-47.6	-49.5	17.8	0.00e+00	0	36	0	421527552	65	4823
2026-01-18 08:57:16.64	126.61	28.70	-47.8	-49.7	17.6	0.00e+00	0	36	0	428867584	66	4652
2026-01-18 08:57:20.67	126.21	29.41	-48.0	-50.0	17.3	0.00e+00	0	36	0	436207616	66	4837
2026-01-18 08:57:24.70	125.80	30.14	-48.5	-50.6	16.8	0.00e+00	0	36	0	443547648	67	4902
2026-01-18 08:57:28.73	125.37	30.89	-48.4	-50.6	16.8	0.00e+00	0	36	0	450887680	67	4892
2026-01-18 08:57:32.76	124.91	31.65	-48.6	-50.8	16.5	0.00e+00	0	36	0	459276288	67	5031
2026-01-18 08:57:36.79	124.43	32.43	-49.1	-51.5	16.0	0.00e+00	0	36	0	466616320	68	5119
2026-01-18 08:57:40.82	123.93	33.23	-49.2	-51.6	15.9	0.00e+00	0	36	0	473956352	69	4926
2026-01-18 08:57:44.85	123.40	34.05	-49.2	-51.6	15.9	0.00e+00	0	36	0	481296384	69	4913
2026-01-18 08:57:48.89	122.85	34.89	-49.2	-51.6	15.9	0.00e+00	0	36	0	488636416	69	4907
2026-01-18 08:57:52.92	122.26	35.75	-49.4	-51.9	15.7	0.00e+00	0	36	0	497025024	69	5070
2026-01-18 08:57:56.95	121.64	36.63	-49.2	-51.7	15.9	0.00e+00	0	36	0	504365056	69	4945
2026-01-18 08:58:00.97	120.99	37.52	-49.0	-51.2	16.4	0.00e+00	0	36	0	511705088	69	4704
2026-01-18 08:58:05.00	120.29	38.44	-48.4	-50.4	17.2	0.00e+00	0	36	0	519045120	68	4521
2026-01-18 08:58:09.03	119.56	39.38	-48.1	-50.0	17.5	0.00e+00	0	36	0	526385152	68	4321
2026-01-18 08:58:13.06	118.78	40.34	-47.4	-49.0	18.5	0.00e+00	0	36	0	534773760	66	4332
2026-01-18 08:58:17.10	117.95	41.32	-47.8	-49.7	17.8	0.00e+00	0	36	0	542113792	66	4672
2026-01-18 08:58:21.13	117.07	42.31	-48.1	-50.0	17.5	0.00e+00	0	36	0	549453824	67	4575
2026-01-18 08:58:25.16	116.13	43.33	-48.0	-49.8	17.7	0.00e+00	0	36	0	556793856	67	4489
2026-01-18 08:58:29.19	115.13	44.36	-47.6	-49.4	18.2	0.00e+00	0	36	0	565182464	67	4243
2026-01-18 08:58:33.22	114.06	45.41	-46.8	-48.3	19.2	0.00e+00	0	36	0	572522496	65	4229
2026-01-18 08:58:37.25	112.91	46.48	-47.2	-48.8	18.7	0.00e+00	0	36	0	579862528	65	4489
2026-01-18 08:58:41.29	111.68	47.57	-47.4	-49.2	18.4	0.00e+00	0	35	0	587202560	65	4654
2026-01-18 08:58:45.31	110.37	48.66	-47.4	-49.1	18.4	0.00e+00	0	36	0	594542592	65	4639
2026-01-18 08:58:49.34	108.96	49.76	-46.8	-48.3	19.2	0.00e+00	0	35	0	601882624	65	4203
2026-01-18 08:58:53.37	107.44	50.87	-46.8	-48.3	19.1	0.00e+00	0	35	0	610271232	65	4228
2026-01-18 08:58:57.41	105.79	51.98	-46.4	-47.9	19.6	0.00e+00	0	36	0	617611264	64	4252
2026-01-18 08:59:01.44	104.02	53.10	-45.9	-47.2	20.3	0.00e+00	0	35	0	624951296	63	4157
2026-01-18 08:59:05.47	102.12	54.20	-46.4	-47.8	19.9	0.00e+00	0	36	0	632291328	63	4466
2026-01-18 08:59:09.50	100.06	55.30	-46.3	-47.7	19.9	0.00e+00	0	36	0	640679936	63	4438
2026-01-18 08:59:13.53	97.83	56.37	-46.7	-48.2	19.4	0.00e+00	0	36	0	648019968	64	4411
2026-01-18 08:59:17.56	95.42	57.42	-47.9	-49.7	18.0	0.00e+00	0	36	0	655360000	66	4665
2026-01-18 08:59:21.59	92.83	58.44	-48.0	-49.8	17.9	0.00e+00	0	36	0	662700032	67	4488
2026-01-18 08:59:25.62	90.03	59.42	-47.2	-48.7	18.9	0.00e+00	0	36	0	670040064	66	4193
2026-01-18 08:59:29.65	87.02	60.34	-47.4	-49.1	18.5	0.00e+00	0	36	0	678428672	65	4639
2026-01-18 08:59:33.68	83.79	61.20	-45.4	-46.6	20.9	0.00e+00	0	35	0	685768704	62	4138
2026-01-18 08:59:37.71	80.34	61.98	-45.3	-46.5	21.1	0.00e+00	0	35	0	693108736	62	4060
2026-01-18 08:59:41.74	76.67	62.68	-45.1	-46.3	21.4	0.00e+00	0	36	0	700448768	61	4194
2026-01-18 08:59:45.77	72.81	63.27	-45.1	-46.2	21.4	0.00e+00	0	35	0	708837376	61	4182
2026-01-18 08:59:49.80	68.76	63.76	-44.5	-45.6	22.0	0.00e+00	0	35	0	716177408	60	4105
2026-01-18 08:59:53.83	64.56	64.13	-44.8	-45.9	21.7	0.00e+00	0	35	0	723517440	60	4257
2026-01-18 08:59:57.86	60.24	64.37	-44.5	-45.5	22.3	0.00e+00	0	35	0	730857472	59	4332
2026-01-18 09:00:01.90	55.85	64.48	-44.1	-45.1	22.5	0.00e+00	0	35	0	738197504	60	3898
2026-01-18 09:00:05.93	51.46	64.45	-44.3	-45.4	22.3	0.00e+00	0	35	0	745537536	60	4006
2026-01-18 09:00:09.96	47.10	64.29	-45.1	-46.2	21.4	0.00e+00	0	35	0	753926144	60	4436
2026-01-18 09:00:13.99	42.83	64.00	-45.3	-46.5	21.2	0.00e+00	0	35	0	761266176	61	4307
2026-01-18 09:00:18.02	38.68	63.59	-44.8	-45.9	21.7	0.00e+00	0	36	0	768606208	61	4022
2026-01-18 09:00:22.05	34.70	63.06	-44.0	-45.0	22.5	0.00e+00	0	36	0	775946240	60	3844
2026-01-18 09:00:26.08	30.91	62.42	-44.6	-45.7	22.2	0.00e+00	0	35	0	784334848	59	4418
2026-01-18 09:00:30.11	27.33	61.69	-45.0	-46.2	21.4	0.00e+00	0	36	0	791674880	60	4394
2026-01-18 09:00:34.14	23.97	60.88	-46.6	-48.0	19.7	0.00e+00	0	35	0	799014912	64	4316
2026-01-18 09:00:38.16	20.84	60.00	-48.0	-49.8	17.9	0.00e+00	0	35	0	806354944	66	4758
2026-01-18 09:00:42.19	17.91	59.06	-49.0	-51.2	16.7	0.00e+00	0	36	0	813694976	68	4938
2026-01-18 09:00:46.23	15.19	58.07	-49.4	-51.8	16.1	0.00e+00	0	36	0	822083584	69	5028
2026-01-18 09:00:50.26	12.67	57.04	-48.3	-50.2	17.5	0.00e+00	0	36	0	829423616	68	4438
2026-01-18 09:00:54.29	10.34	55.98	-47.2	-48.7	19.0	0.00e+00	0	36	0	836763648	66	4179
2026-01-18 09:00:58.32	8.18	54.90	-46.4	-47.7	20.0	0.00e+00	0	36	0	844103680	64	4190
2026-01-18 09:01:02.35	6.18	53.80	-46.6	-48.1	19.6	0.00e+00	0	36	0	851443712	64	4368
2026-01-18 09:01:06.38	4.33	52.69	-47.2	-48.8	18.9	0.00e+00	0	35	0	859832320	64	4709
2026-01-18 09:01:10.42	2.61	51.58	-47.8	-49.6	18.1	0.00e+00	0	36	0	867172352	66	4634
2026-01-18 09:01:14.45	1.02	50.47	-47.8	-49.6	18.2	0.00e+00	0	36	0	874512384	66	4628
2026-01-18 09:01:18.48	359.54	49.37	-48.1	-49.9	17.8	0.00e+00	0	36	0	881852416	66	4812
2026-01-18 09:01:22.51	358.17	48.27	-47.6	-49.2	18.5	0.00e+00	0	35	0	889192448	67	4187
2026-01-18 09:01:26.55	356.88	47.18	-47.6	-49.3	18.4	0.00e+00	0	35	0	897581056	66	4450
2026-01-18 09:01:30.58	355.69	46.11	-47.6	-49.4	18.3	0.00e+00	0	36	0	904921088	66	4505
2026-01-18 09:01:34.61	354.58	45.05	-47.7	-49.4	18.3	0.00e+00	0	35	0	912261120	66	4523
2026-01-18 09:01:38.64	353.54	44.01	-48.2	-50.2	17.5	0.00e+00	0	36	0	919601152	67	4671
2026-01-18 09:01:42.67	352.56	42.99	-48.9	-51.1	16.7	0.00e+00	0	35	0	927989760	68	4899
2026-01-18 09:01:46.70	351.65	41.98	-49.1	-51.4	16.4	0.00e+00	0	36	0	935329792	68	5081
2026-01-18 09:01:50.73	350.79	40.99	-50.0	-52.8	15.0	0.00e+00	0	36	0	942669824	70	5318
2026-01-18 09:01:54.77	349.98	40.02	-50.3	-53.4	14.4	3.00e-06	0	36	0	950009856	71	5341
2026-01-18 09:01:58.80	349.22	39.08	-49.7	-52.3	15.5	0.00e+00	0	36	0	957349888	71	4715
2026-01-18 09:02:02.83	348.50	38.15	-49.3	-51.7	16.1	0.00e+00	0	35	0	964689920	70	4685
2026-01-18 09:02:06.86	347.83	37.24	-49.2	-51.5	16.2	0.00e+00	0	36	0	973078528	70	4569
2026-01-18 09:02:10.89	347.19	36.36	-48.8	-50.9	16.7	0.00e+00	0	36	0	980418560	69	4531
2026-01-18 09:02:14.92	346.58	35.49	-48.8	-51.0	16.7	0.00e+00	0	35	0	987758592	69	4563
2026-01-18 09:02:18.95	346.01	34.64	-48.2	-50.1	17.4	0.00e+00	0	36	0	995098624	68	4387
2026-01-18 09:02:22.99	345.46	33.81	-48.8	-51.0	16.6	0.00e+00	0	35	0	1003487232	68	4860
2026-01-18 09:02:27.02	344.94	33.00	-48.9	-51.1	16.5	0.00e+00	0	36	0	1010827264	68	4905
2026-01-18 09:02:31.05	344.45	32.21	-48.9	-51.1	16.5	0.00e+00	0	35	0	1018167296	68	4917
2026-01-18 09:02:35.08	343.99	31.44	-49.1	-51.5	16.1	0.00e+00	0	35	0	1025507328	69	4839
2026-01-18 09:02:39.11	343.54	30.68	-49.6	-52.3	15.3	0.00e+00	0	36	0	1032847360	69	5281
2026-01-18 09:02:43.15	343.12	29.94	-49.8	-52.5	15.0	0.00e+00	0	35	0	1041235968	70	5153
2026-01-18 09:02:47.17	342.71	29.22	-50.0	-52.9	14.6	7.00e-07	0	36	0	1048576000	70	5378
2026-01-18 09:02:51.20	342.32	28.52	-49.8	-52.5	15.0	0.00e+00	0	35	0	1055916032	70	5154
2026-01-18 09:02:55.24	341.95	27.83	-49.4	-51.9	15.6	0.00e+00	0	36	0	1063256064	70	4814
2026-01-18 09:02:59.27	341.60	27.16	-49.1	-51.5	16.0	0.00e+00	0	36	0	1071644672	70	4577
2026-01-18 09:03:03.30	341.26	26.50	-49.0	-51.3	16.2	0.00e+00	0	36	0	1078984704	69	4739
2026-01-18 09:03:07.33	340.94	25.86	-48.7	-50.9	16.6	0.00e+00	0	36	0	1086324736	69	4516
2026-01-18 09:03:11.36	340.63	25.23	-48.7	-50.9	16.6	0.00e+00	0	36	0	1093664768	69	4501
2026-01-18 09:03:15.39	340.33	24.61	-48.3	-50.4	17.0	0.00e+00	0	35	0	1101004800	68	4527
2026-01-18 09:03:19.43	340.04	24.01	-48.0	-50.0	17.4	0.00e+00	0	36	0	1108344832	68	4321
2026-01-18 09:03:23.45	339.77	23.42	-47.7	-49.6	17.8	0.00e+00	0	36	0	1116733440	67	4344
2026-01-18 09:03:27.49	339.50	22.84	-47.5	-49.3	18.0	0.00e+00	0	36	0	1124073472	66	4467
2026-01-18 09:03:31.52	339.25	22.28	-47.2	-48.9	18.3	0.00e+00	0	36	0	1131413504	66	4289
2026-01-18 09:03:35.55	339.00	21.72	-47.1	-48.9	18.4	0.00e+00	0	35	0	1138753536	66	4243
2026-01-18 09:03:39.58	338.76	21.18	-47.1	-48.8	18.5	0.00e+00	0	35	0	1147142144	66	4205
2026-01-18 09:03:43.61	338.54	20.65	-47.2	-48.9	18.4	0.00e+00	0	35	0	1154482176	66	4247
2026-01-18 09:03:47.65	338.32	20.13	-47.2	-49.0	18.2	0.00e+00	0	36	0	1161822208	66	4296
2026-01-18 09:03:51.68	338.11	19.62	-47.3	-49.0	18.1	0.00e+00	0	35	0	1169162240	66	4339
2026-01-18 09:03:55.71	337.90	19.12	-47.1	-48.8	18.4	0.00e+00	0	36	0	1176502272	66	4199
2026-01-18 09:03:59.75	337.70	18.63	-47.0	-48.7	18.5	0.00e+00	0	36	0	1184890880	65	4403
2026-01-18 09:04:03.78	337.51	18.14	-46.8	-48.5	18.6	0.00e+00	0	35	0	1192230912	65	4303
2026-01-18 09:04:07.81	337.33	17.67	-47.0	-48.7	18.4	0.00e+00	0	35	0	1199570944	65	4439
2026-01-18 09:04:11.85	337.15	17.21	-47.1	-48.9	18.2	0.00e+00	0	35	0	1206910976	65	4500
2026-01-18 09:04:15.88	336.98	16.75	-47.4	-49.2	17.9	0.00e+00	0	35	0	1214251008	65	4671
2026-01-18 09:04:19.91	336.81	16.30	-47.4	-49.2	17.9	0.00e+00	0	35	0	1222639616	65	4685
2026-01-18 09:04:23.94	336.65	15.86	-47.5	-49.4	17.7	0.00e+00	0	35	0	1229979648	65	4776
2026-01-18 09:04:27.97	336.50	15.43	-47.5	-49.4	17.7	0.00e+00	0	35	0	1237319680	65	4765
2026-01-18 09:04:32.01	336.34	15.00	-47.6	-49.6	17.4	0.00e+00	0	35	0	1244659712	65	4886
2026-01-18 09:04:36.04	336.20	14.59	-47.7	-49.6	17.4	0.00e+00	0	36	0	1251999744	65	4916
2026-01-18 09:04:40.07	336.06	14.17	-47.9	-49.9	17.1	0.00e+00	0	35	0	1260388352	66	4783
2026-01-18 09:04:44.10	335.92	13.77	-47.9	-49.9	17.0	0.00e+00	0	36	0	1267728384	66	4808
2026-01-18 09:04:48.13	335.78	13.37	-48.0	-50.1	16.8	0.00e+00	0	36	0	1275068416	66	4915
2026-01-18 09:04:52.16	335.66	12.98	-48.0	-50.1	16.9	0.00e+00	0	35	0	1282408448	66	4887
2026-01-18 09:04:56.20	335.53	12.59	-48.1	-50.3	16.7	0.00e+00	0	36	0	1290797056	66	4996
2026-01-18 09:05:00.23	335.41	12.21	-48.1	-50.4	16.5	0.00e+00	0	36	0	1298137088	66	5044
2026-01-18 09:05:04.27	335.29	11.84	-48.0	-50.2	16.7	0.00e+00	0	35	0	1305477120	66	4955
2026-01-18 09:05:08.30	335.17	11.47	-48.1	-50.3	16.5	0.00e+00	0	36	0	1312817152	66	5038
2026-01-18 09:05:12.33	335.06	11.11	-48.1	-50.3	16.6	0.00e+00	0	36	0	1320157184	67	4718
2026-01-18 09:05:16.37	334.95	10.75	-48.1	-50.3	16.4	0.00e+00	0	35	0	1328545792	67	4755
2026-01-18 09:05:20.39	334.85	10.40	-48.1	-50.4	16.4	0.00e+00	0	36	0	1335885824	67	4778
2026-01-18 09:05:24.43	334.74	10.05	-48.1	-50.3	16.4	0.00e+00	0	35	0	1343225856	67	4748
2026-01-18 09:05:28.46	334.64	9.70	-48.1	-50.4	16.3	0.00e+00	0	36	0	1350565888	67	4773
2026-01-18 09:05:32.50	334.54	9.36	-48.1	-50.4	16.3	0.00e+00	0	36	0	1357905920	67	4775
2026-01-18 09:05:36.53	334.45	9.03	-48.2	-50.5	16.2	0.00e+00	0	36	0	1366294528	67	4816
2026-01-18 09:05:40.56	334.36	8.70	-48.3	-50.7	15.9	0.00e+00	0	35	0	1373634560	67	4953
2026-01-18 09:05:44.59	334.27	8.37	-48.4	-50.8	15.8	0.00e+00	0	35	0	1380974592	67	5032
2026-01-18 09:05:48.62	334.18	8.05	-48.5	-51.0	15.5	0.00e+00	0	35	0	1388314624	67	5145
2026-01-18 09:05:52.65	334.09	7.73	-48.6	-51.3	15.2	0.00e+00	0	36	0	1395654656	67	5296
2026-01-18 09:05:56.68	334.01	7.42	-48.6	-51.2	15.4	0.00e+00	0	35	0	1404043264	68	4975
2026-01-18 09:06:00.72	333.93	7.11	-48.7	-51.4	15.1	0.00e+00	0	36	0	1411383296	68	5095
2026-01-18 09:06:04.75	333.85	6.80	-48.8	-51.6	15.0	0.00e+00	0	36	0	1418723328	68	5175
2026-01-18 09:06:08.78	333.77	6.50	-48.8	-51.7	14.8	0.00e+00	0	35	0	1426063360	68	5222
2026-01-18 09:06:12.81	333.70	6.20	-49.0	-51.9	14.5	0.00e+00	0	35	0	1434451968	68	5388
2026-01-18 09:06:16.84	333.63	5.90	-49.1	-52.1	14.2	7.00e-07	0	36	0	1441792000	68	5514
2026-01-18 09:06:20.87	333.55	5.61	-49.2	-52.3	14.0	2.20e-06	0	36	0	1449132032	68	5647
2026-01-18 09:06:24.90	333.48	5.32	-49.4	-52.8	13.5	2.20e-06	0	36	0	1456472064	69	5595
2026-01-18 09:06:28.93	333.42	5.03	-49.3	-52.7	13.6	9.10e-06	0	35	0	1463812096	69	5536
2026-01-18 09:06:32.95	333.35	4.75	-53.2	-68.2	3.8	1.49e+00	0	35	104	1465909248	76	22112
2026-01-18 09:06:36.99	333.29	4.47	-53.7	-68.7	3.8	1.49e+00	0	36	104	1465909248	77	22118
2026-01-18 09:06:41.02	333.22	4.19	-54.0	-69.0	3.8	1.49e+00	0	36	104	1465909248	78	21514
2026-01-18 09:06:45.05	333.16	3.91	-54.0	-69.1	3.8	1.49e+00	0	36	104	1465909248	78	21773
2026-01-18 09:06:49.09	333.10	3.64	-54.1	-69.1	3.8	1.49e+00	0	36	104	1465909248	78	21764
2026-01-18 09:06:53.13	333.04	3.37	-54.0	-69.0	3.8	1.49e+00	0	36	104	1465909248	78	21612
2026-01-18 09:06:57.16	332.98	3.10	-53.9	-69.0	3.8	1.49e+00	0	36	104	1465909248	78	21552
2026-01-18 09:07:01.16	332.93	2.84	-53.9	-68.9	3.8	1.49e+00	0	36	104	1465909248	78	21448
2026-01-18 09:07:05.19	332.87	2.58	-53.9	-68.9	3.8	1.49e+00	0	36	104	1465909248	78	21328
2026-01-18 09:07:09.22	332.82	2.32	-53.9	-68.9	3.8	1.49e+00	0	36	104	1465909248	78	21347
2026-01-18 09:07:13.25	332.77	2.06	-53.8	-68.8	3.8	1.49e+00	0	36	104	1465909248	78	21199

#Closed at: 2026-01-18 09:07:15
#Recorded file [1465 MB]: D:/lorett/data/31041_260118_115254.dat