passes_logs/2026/01/18/R3.2S_Murmansk/R3.2S_Murmansk__20260118_023652_AQUA_rec.log

#Pass ID: 20260118_023652_AQUA
#Satellite: AQUA
#Configuration: AQUA
#almurnet v.1.7.20251203
#Start time: 2026-01-18 02:36:52

#Version: 2.2.20231116
#Station: R3.2S_Murmansk
#Location: 33.079688 lon 68.888172 lat
#TLE: 1 27424U 02022A   26017.62394888  .00000781  00000+0  16630-3 0  9993
#TLE: 2 27424  98.4086 344.0954 0002010  75.0132 339.4723 14.61825944261279

#Time	Az	El	Level	Level2	SNR	BER	BlckErr	Temp	State	Recorded	gain1	gain2
2026-01-18 02:36:52.40	24.37	1.99	-53.3	-71.0	3.8	7.45e-01	0	33	0	0	78	27096
2026-01-18 02:36:56.42	24.35	2.25	-53.3	-70.6	3.8	7.42e-01	0	33	104	0	77	27499
2026-01-18 02:37:00.45	24.33	2.52	-53.3	-69.9	3.8	7.46e-01	0	34	104	0	77	25548
2026-01-18 02:37:04.49	24.31	2.80	-53.3	-69.4	3.9	7.44e-01	0	34	104	0	77	24021
2026-01-18 02:37:08.52	24.28	3.07	-53.1	-64.7	5.5	6.95e-01	22	34	0	0	77	14019
2026-01-18 02:37:12.55	24.26	3.35	-51.4	-56.5	13.4	6.07e-01	0	34	0	7340032	74	6456
2026-01-18 02:37:16.58	24.23	3.64	-49.1	-51.8	18.4	6.02e-01	0	34	0	14680064	70	4725
2026-01-18 02:37:20.61	24.21	3.92	-47.5	-49.6	20.7	6.02e-01	0	34	0	22544384	67	4351
2026-01-18 02:37:24.64	24.18	4.21	-48.3	-50.6	19.7	6.02e-01	0	34	0	29884416	67	4876
2026-01-18 02:37:28.67	24.15	4.50	-49.7	-52.8	17.4	6.03e-01	0	34	0	37224448	69	5646
2026-01-18 02:37:32.70	24.12	4.80	-51.4	-56.5	13.6	6.05e-01	0	34	0	45088768	73	6876
2026-01-18 02:37:36.73	24.09	5.10	-50.2	-53.4	16.8	6.04e-01	0	34	0	52428800	72	5074
2026-01-18 02:37:40.76	24.06	5.40	-53.1	-65.6	5.6	7.02e-01	134	34	0	59768832	76	16435
2026-01-18 02:37:44.80	24.02	5.71	-49.3	-51.9	18.8	6.00e-01	0	34	0	65011712	70	4767
2026-01-18 02:37:48.83	23.99	6.02	-48.7	-51.0	19.7	6.04e-01	0	34	0	72351744	69	4581
2026-01-18 02:37:52.86	23.95	6.34	-47.7	-49.6	21.2	6.03e-01	0	34	0	80216064	67	4386
2026-01-18 02:37:56.89	23.92	6.66	-47.6	-49.5	21.3	6.03e-01	0	35	0	87556096	66	4576
2026-01-18 02:38:00.92	23.88	6.98	-47.3	-49.0	21.9	5.98e-01	0	35	0	95420416	66	4317
2026-01-18 02:38:04.95	23.84	7.31	-46.7	-48.3	22.6	6.02e-01	0	35	0	102760448	65	4231
2026-01-18 02:38:08.98	23.80	7.65	-46.8	-48.4	22.5	6.00e-01	0	35	0	110100480	65	4290
2026-01-18 02:38:13.01	23.76	7.98	-46.6	-48.2	22.8	6.02e-01	0	35	0	117964800	65	4156
2026-01-18 02:38:17.04	23.71	8.33	-46.3	-47.8	23.2	6.01e-01	0	35	0	125304832	64	4216
2026-01-18 02:38:21.08	23.67	8.68	-46.1	-47.5	23.5	6.01e-01	0	35	0	132644864	64	4098
2026-01-18 02:38:25.11	23.62	9.03	-46.0	-47.5	23.6	6.03e-01	0	35	0	140509184	64	4070
2026-01-18 02:38:29.14	23.57	9.39	-46.0	-47.4	23.7	6.02e-01	0	35	0	147849216	63	4270
2026-01-18 02:38:33.17	23.52	9.76	-46.1	-47.6	23.6	6.00e-01	0	35	0	155713536	63	4353
2026-01-18 02:38:37.20	23.47	10.13	-45.9	-47.3	23.9	6.03e-01	0	35	0	163053568	63	4235
2026-01-18 02:38:41.24	23.41	10.51	-45.9	-47.3	23.9	6.03e-01	0	35	0	170917888	63	4208
2026-01-18 02:38:45.27	23.36	10.90	-45.8	-47.2	24.1	6.04e-01	0	35	0	178257920	63	4167
2026-01-18 02:38:49.30	23.30	11.29	-45.6	-47.0	24.3	6.03e-01	0	35	0	186122240	63	4070
2026-01-18 02:38:53.33	23.24	11.69	-45.6	-47.0	24.3	6.02e-01	0	35	0	193462272	63	4069
2026-01-18 02:38:57.36	23.17	12.10	-45.5	-46.9	24.4	6.02e-01	0	35	0	200802304	63	4006
2026-01-18 02:39:01.39	23.11	12.51	-45.5	-46.8	24.4	6.02e-01	0	35	0	208666624	62	4235
2026-01-18 02:39:05.42	23.04	12.93	-45.4	-46.8	24.6	6.02e-01	0	35	0	216006656	62	4204
2026-01-18 02:39:09.45	22.97	13.36	-45.5	-46.8	24.5	6.04e-01	0	35	0	223870976	62	4209
2026-01-18 02:39:13.48	22.89	13.80	-45.1	-46.4	25.0	6.01e-01	0	35	0	231211008	62	4006
2026-01-18 02:39:17.51	22.82	14.25	-45.3	-46.6	24.8	6.02e-01	0	35	0	239075328	62	4113
2026-01-18 02:39:21.54	22.74	14.71	-45.3	-46.6	24.9	6.04e-01	0	35	0	246415360	62	4121
2026-01-18 02:39:25.57	22.65	15.17	-45.2	-46.5	24.9	5.99e-01	0	35	0	253755392	62	4085
2026-01-18 02:39:29.60	22.57	15.65	-45.2	-46.5	25.0	6.03e-01	0	35	0	261619712	62	4078
2026-01-18 02:39:33.64	22.48	16.14	-45.2	-46.5	25.0	6.03e-01	0	35	0	268959744	62	4073
2026-01-18 02:39:37.66	22.38	16.64	-45.3	-46.6	24.9	6.01e-01	0	35	0	276299776	62	4142
2026-01-18 02:39:41.70	22.29	17.15	-45.3	-46.6	25.0	6.02e-01	0	35	0	284164096	62	4100
2026-01-18 02:39:45.73	22.18	17.67	-45.1	-46.4	25.1	6.02e-01	0	35	0	291504128	62	4032
2026-01-18 02:39:49.76	22.08	18.20	-45.1	-46.4	25.2	6.02e-01	0	35	0	299368448	62	4033
2026-01-18 02:39:53.79	21.97	18.75	-45.3	-46.5	25.0	6.02e-01	0	35	0	306708480	62	4095
2026-01-18 02:39:57.82	21.85	19.31	-45.4	-46.7	24.9	6.02e-01	0	35	0	314572800	62	4164
2026-01-18 02:40:01.86	21.73	19.89	-45.4	-46.7	24.9	6.03e-01	0	35	0	321912832	62	4170
2026-01-18 02:40:05.89	21.60	20.47	-45.5	-46.9	24.8	6.01e-01	0	35	0	329252864	62	4244
2026-01-18 02:40:09.92	21.47	21.08	-45.8	-47.1	24.6	6.02e-01	0	35	0	337117184	62	4363
2026-01-18 02:40:13.95	21.33	21.70	-45.8	-47.2	24.5	6.03e-01	0	35	0	344457216	62	4394
2026-01-18 02:40:17.99	21.18	22.34	-45.7	-47.0	24.7	6.03e-01	0	35	0	352321536	62	4308
2026-01-18 02:40:22.01	21.03	22.99	-45.6	-46.9	24.8	6.00e-01	0	35	0	359661568	62	4250
2026-01-18 02:40:26.04	20.87	23.67	-45.6	-46.9	24.8	6.04e-01	0	35	0	367525888	62	4253
2026-01-18 02:40:30.07	20.70	24.36	-45.6	-46.9	24.8	6.01e-01	0	35	0	374865920	62	4269
2026-01-18 02:40:34.11	20.52	25.07	-45.6	-46.8	24.9	6.00e-01	0	35	0	382205952	62	4234
2026-01-18 02:40:38.14	20.33	25.81	-45.5	-46.8	24.5	6.02e-01	0	35	0	390070272	62	4232
2026-01-18 02:40:42.17	20.13	26.56	-45.7	-47.0	24.7	6.02e-01	0	35	0	397410304	62	4336
2026-01-18 02:40:46.20	19.92	27.34	-45.6	-46.8	24.9	6.02e-01	0	35	0	405274624	62	4239
2026-01-18 02:40:50.23	19.70	28.15	-45.2	-46.5	25.3	6.04e-01	0	35	0	412614656	62	4054
2026-01-18 02:40:54.26	19.47	28.98	-45.3	-46.5	24.0	6.01e-01	0	35	0	419954688	62	4084
2026-01-18 02:40:58.29	19.22	29.83	-45.1	-46.4	25.4	6.00e-01	0	35	0	427819008	62	4011
2026-01-18 02:41:02.33	18.96	30.72	-44.7	-45.9	25.9	6.04e-01	0	35	0	435159040	61	4024
2026-01-18 02:41:06.36	18.68	31.63	-45.1	-46.3	25.5	6.03e-01	0	35	0	443023360	61	4216
2026-01-18 02:41:10.39	18.38	32.57	-45.1	-46.3	25.5	6.04e-01	0	35	0	450363392	61	4241
2026-01-18 02:41:14.42	18.07	33.55	-45.1	-46.3	25.5	5.99e-01	0	35	0	458227712	61	4242
2026-01-18 02:41:18.46	17.73	34.56	-45.9	-47.3	24.6	6.00e-01	0	35	0	465567744	62	4449
2026-01-18 02:41:22.49	17.37	35.60	-46.3	-47.6	24.4	6.05e-01	0	35	0	472907776	63	4382
2026-01-18 02:41:26.52	16.98	36.68	-46.6	-48.1	24.0	6.02e-01	0	35	0	480772096	63	4602
2026-01-18 02:41:30.55	16.56	37.79	-46.9	-48.4	23.5	6.02e-01	0	35	0	488112128	64	4512
2026-01-18 02:41:34.58	16.11	38.95	-47.1	-48.6	23.4	6.03e-01	0	35	0	495976448	64	4616
2026-01-18 02:41:38.61	15.63	40.14	-47.2	-48.7	23.3	6.01e-01	0	35	0	503316480	64	4680
2026-01-18 02:41:42.65	15.10	41.38	-46.8	-48.2	23.8	6.01e-01	0	35	0	510656512	64	4407
2026-01-18 02:41:46.67	14.54	42.66	-46.3	-47.7	24.3	6.01e-01	0	35	0	518520832	64	4164
2026-01-18 02:41:50.70	13.92	43.98	-46.0	-47.3	24.7	6.01e-01	0	35	0	525860864	63	4212
2026-01-18 02:41:54.73	13.25	45.35	-45.6	-46.8	25.2	6.01e-01	0	35	0	533725184	63	3989
2026-01-18 02:41:58.76	12.51	46.77	-45.9	-47.2	24.9	6.02e-01	0	35	0	541065216	63	4159
2026-01-18 02:42:02.80	11.69	48.23	-45.9	-47.2	24.9	6.04e-01	0	35	0	548405248	63	4155
2026-01-18 02:42:06.83	10.80	49.74	-45.9	-47.2	24.8	6.01e-01	0	35	0	556269568	63	4186
2026-01-18 02:42:10.86	9.80	51.29	-45.6	-46.8	25.2	5.98e-01	0	35	0	563609600	62	4241
2026-01-18 02:42:14.89	8.69	52.89	-45.4	-46.6	25.4	6.03e-01	0	35	0	571473920	62	4108
2026-01-18 02:42:18.92	7.45	54.53	-44.8	-46.0	26.0	6.03e-01	0	35	0	578813952	61	4077
2026-01-18 02:42:22.96	6.05	56.21	-45.2	-46.5	25.6	6.03e-01	0	35	0	586678272	61	4299
2026-01-18 02:42:26.99	4.47	57.93	-46.4	-47.7	24.5	6.03e-01	0	35	0	594018304	63	4438
2026-01-18 02:42:31.02	2.67	59.67	-46.4	-47.8	24.4	6.03e-01	0	35	0	601882624	63	4453
2026-01-18 02:42:35.04	0.60	61.43	-46.7	-48.1	24.0	6.01e-01	0	35	0	609222656	64	4369
2026-01-18 02:42:39.07	358.21	63.21	-47.6	-49.1	23.0	6.05e-01	0	35	0	616562688	65	4638
2026-01-18 02:42:43.11	355.43	64.99	-48.4	-50.1	22.1	6.03e-01	0	35	0	624427008	67	4636
2026-01-18 02:42:47.14	352.16	66.75	-48.5	-50.2	22.0	6.03e-01	0	35	0	631767040	68	4441
2026-01-18 02:42:51.17	348.32	68.46	-48.8	-50.6	21.6	6.02e-01	0	35	0	639107072	68	4609
2026-01-18 02:42:55.20	343.76	70.10	-49.5	-51.5	20.8	6.01e-01	0	35	0	646971392	69	4830
2026-01-18 02:42:59.24	338.33	71.63	-48.7	-50.5	21.7	6.00e-01	0	35	0	654311424	69	4321
2026-01-18 02:43:03.27	331.93	72.99	-48.5	-50.2	22.0	6.04e-01	0	35	0	662175744	68	4435
2026-01-18 02:43:07.30	324.46	74.13	-48.6	-50.4	21.9	6.02e-01	0	35	0	669515776	68	4509
2026-01-18 02:43:11.33	315.94	74.97	-48.6	-50.3	21.9	6.03e-01	0	35	0	677380096	69	4229
2026-01-18 02:43:15.36	306.59	75.47	-49.0	-51.0	21.4	6.05e-01	0	35	0	684720128	68	4816
2026-01-18 02:43:19.40	296.81	75.57	-48.5	-50.2	22.2	6.02e-01	0	35	0	692060160	68	4394
2026-01-18 02:43:23.43	287.19	75.27	-49.0	-50.8	21.5	6.02e-01	0	35	0	699924480	68	4741
2026-01-18 02:43:27.46	278.21	74.59	-49.0	-50.8	21.5	6.01e-01	0	35	0	707264512	69	4478
2026-01-18 02:43:31.48	270.21	73.59	-49.1	-50.9	21.3	6.02e-01	0	35	0	715128832	69	4540
2026-01-18 02:43:35.52	263.26	72.33	-50.0	-52.2	20.2	6.02e-01	0	35	0	722468864	70	4965
2026-01-18 02:43:39.55	257.36	70.88	-49.9	-52.1	20.2	6.04e-01	0	35	0	730333184	70	4891
2026-01-18 02:43:43.58	252.38	69.30	-50.6	-53.1	19.1	6.01e-01	0	35	0	737673216	71	5182
2026-01-18 02:43:47.61	248.19	67.61	-51.3	-54.1	18.1	6.03e-01	0	35	0	745537536	73	5203
2026-01-18 02:43:51.64	244.65	65.87	-50.6	-53.1	19.0	6.00e-01	0	35	0	752877568	73	4616
2026-01-18 02:43:55.68	241.62	64.10	-49.1	-51.0	21.3	6.04e-01	0	35	0	760217600	70	4302
2026-01-18 02:43:59.71	239.04	62.31	-47.6	-49.1	23.1	6.04e-01	0	35	0	768081920	67	4115
2026-01-18 02:44:03.74	236.82	60.54	-47.3	-48.8	23.4	6.01e-01	0	35	0	775421952	66	4205
2026-01-18 02:44:07.78	234.88	58.77	-47.3	-48.9	23.2	6.01e-01	0	35	0	782761984	65	4514
2026-01-18 02:44:11.81	233.20	57.04	-46.0	-47.3	24.8	6.02e-01	0	35	0	790626304	63	4224
2026-01-18 02:44:15.84	231.71	55.34	-45.1	-46.3	25.8	6.02e-01	0	35	0	797966336	62	3966
2026-01-18 02:44:19.87	230.39	53.67	-45.2	-46.4	25.7	6.02e-01	0	35	0	805830656	61	4274
2026-01-18 02:44:23.90	229.22	52.05	-45.0	-46.3	25.8	6.02e-01	0	35	0	813170688	60	4443
2026-01-18 02:44:27.94	228.17	50.47	-45.1	-46.3	25.7	6.07e-01	0	35	0	821035008	61	4229
2026-01-18 02:44:31.97	227.22	48.93	-45.8	-47.1	25.0	6.03e-01	0	35	0	828375040	62	4371
2026-01-18 02:44:36.00	226.37	47.45	-45.3	-46.5	25.4	6.02e-01	0	35	0	836239360	62	4092
2026-01-18 02:44:40.04	225.59	46.00	-45.9	-47.2	24.8	6.01e-01	0	35	0	843579392	62	4421
2026-01-18 02:44:44.07	224.88	44.61	-45.2	-46.4	25.6	6.01e-01	0	35	0	850919424	62	4031
2026-01-18 02:44:48.10	224.24	43.26	-46.0	-47.3	24.7	6.04e-01	0	35	0	858783744	62	4479
2026-01-18 02:44:52.13	223.65	41.95	-46.3	-47.6	24.4	6.01e-01	0	35	0	866123776	63	4360
2026-01-18 02:44:56.17	223.10	40.69	-46.5	-47.9	24.2	6.03e-01	0	35	0	873463808	63	4500
2026-01-18 02:45:00.20	222.59	39.47	-47.3	-48.8	23.2	6.01e-01	0	35	0	881328128	65	4492
2026-01-18 02:45:04.23	222.13	38.29	-47.1	-48.6	23.4	6.00e-01	0	35	0	888668160	65	4344
2026-01-18 02:45:08.26	221.70	37.16	-47.0	-48.5	23.5	6.03e-01	0	35	0	896532480	65	4296
2026-01-18 02:45:12.29	221.29	36.06	-46.5	-47.8	24.1	6.04e-01	0	35	0	903872512	64	4239
2026-01-18 02:45:16.32	220.92	34.99	-46.4	-47.8	24.1	6.04e-01	0	35	0	911736832	64	4223
2026-01-18 02:45:20.35	220.57	33.97	-45.9	-47.2	24.8	6.03e-01	0	35	0	919076864	63	4164
2026-01-18 02:45:24.39	220.24	32.97	-45.2	-46.4	25.5	6.02e-01	0	35	0	926416896	62	4011
2026-01-18 02:45:28.42	219.93	32.01	-45.3	-46.6	25.3	6.03e-01	0	35	0	934281216	62	4117
2026-01-18 02:45:32.44	219.64	31.08	-44.8	-46.0	25.8	6.04e-01	0	35	0	941621248	61	4057
2026-01-18 02:45:36.48	219.37	30.18	-45.1	-46.3	25.6	6.02e-01	0	35	0	949485568	61	4222
2026-01-18 02:45:40.51	219.11	29.31	-45.1	-46.3	25.5	6.02e-01	0	35	0	956825600	61	4217
2026-01-18 02:45:44.54	218.87	28.47	-45.1	-46.3	25.5	6.05e-01	0	35	0	964689920	61	4208
2026-01-18 02:45:48.57	218.64	27.65	-45.0	-46.2	25.5	6.03e-01	0	35	0	972029952	61	4191
2026-01-18 02:45:52.60	218.43	26.86	-45.3	-46.6	25.2	6.03e-01	0	35	0	979894272	61	4358
2026-01-18 02:45:56.64	218.22	26.08	-45.4	-46.7	25.1	6.03e-01	0	35	0	987234304	61	4394
2026-01-18 02:46:00.67	218.03	25.34	-45.7	-47.0	24.6	6.01e-01	0	35	0	994574336	62	4340
2026-01-18 02:46:04.70	217.84	24.61	-45.8	-47.1	24.7	6.02e-01	0	35	0	1002438656	62	4360
2026-01-18 02:46:08.73	217.67	23.91	-45.9	-47.2	24.6	6.03e-01	0	35	0	1009778688	62	4411
2026-01-18 02:46:12.76	217.50	23.22	-45.9	-47.3	24.5	6.03e-01	0	35	0	1017118720	62	4450
2026-01-18 02:46:16.80	217.34	22.56	-45.8	-47.1	24.6	6.02e-01	0	35	0	1024983040	62	4388
2026-01-18 02:46:20.83	217.19	21.91	-45.9	-47.3	24.4	6.01e-01	0	35	0	1032323072	62	4453
2026-01-18 02:46:24.86	217.05	21.28	-46.0	-47.4	24.3	6.01e-01	0	35	0	1040187392	62	4516
2026-01-18 02:46:28.89	216.91	20.67	-46.0	-47.4	24.3	6.05e-01	0	35	0	1047527424	62	4517
2026-01-18 02:46:32.92	216.78	20.07	-45.8	-47.2	24.5	6.01e-01	0	35	0	1055391744	62	4401
2026-01-18 02:46:36.95	216.65	19.49	-45.8	-47.1	24.5	6.04e-01	0	35	0	1062731776	62	4380
2026-01-18 02:46:40.98	216.53	18.92	-45.7	-47.0	24.6	6.00e-01	0	35	0	1070071808	62	4336
2026-01-18 02:46:45.02	216.42	18.36	-45.6	-47.0	24.6	6.01e-01	0	35	0	1077936128	62	4293
2026-01-18 02:46:49.05	216.31	17.82	-45.6	-46.9	24.7	6.04e-01	0	35	0	1085276160	62	4253
2026-01-18 02:46:53.08	216.20	17.29	-45.6	-46.9	24.7	6.04e-01	0	35	0	1093140480	62	4251
2026-01-18 02:46:57.11	216.10	16.78	-45.6	-46.9	24.7	6.03e-01	0	35	0	1100480512	62	4249
2026-01-18 02:47:01.15	216.00	16.27	-45.5	-46.8	24.7	6.04e-01	0	35	0	1108344832	62	4228
2026-01-18 02:47:05.17	215.91	15.78	-45.6	-46.9	24.6	6.02e-01	0	35	0	1115684864	62	4276
2026-01-18 02:47:09.20	215.82	15.30	-45.6	-46.9	24.6	6.04e-01	0	35	0	1123024896	62	4265
2026-01-18 02:47:13.24	215.73	14.82	-45.7	-47.1	24.4	6.01e-01	0	35	0	1130889216	62	4341
2026-01-18 02:47:17.27	215.65	14.36	-45.7	-47.0	24.5	6.03e-01	0	35	0	1138229248	62	4316
2026-01-18 02:47:21.30	215.57	13.91	-45.9	-47.3	24.2	6.02e-01	0	35	0	1145569280	62	4452
2026-01-18 02:47:25.33	215.49	13.46	-45.8	-47.2	24.3	6.01e-01	0	35	0	1153433600	62	4401
2026-01-18 02:47:29.36	215.42	13.03	-45.8	-47.2	24.2	6.04e-01	0	35	0	1160773632	62	4418
2026-01-18 02:47:33.39	215.34	12.60	-45.8	-47.1	24.1	6.00e-01	0	35	0	1168637952	62	4374
2026-01-18 02:47:37.42	215.28	12.18	-45.8	-47.2	24.2	6.03e-01	0	35	0	1175977984	62	4403
2026-01-18 02:47:41.46	215.21	11.77	-45.8	-47.1	24.2	6.02e-01	0	35	0	1183842304	62	4385
2026-01-18 02:47:45.49	215.15	11.37	-46.0	-47.4	24.0	6.02e-01	0	35	0	1191182336	62	4502
2026-01-18 02:47:49.52	215.08	10.97	-46.4	-47.9	23.5	6.01e-01	0	35	0	1199046656	63	4504
2026-01-18 02:47:53.56	215.02	10.58	-46.3	-47.8	23.4	6.01e-01	0	35	0	1206386688	64	4233
2026-01-18 02:47:57.59	214.97	10.20	-46.2	-47.7	23.6	6.02e-01	0	35	0	1213726720	64	4159
2026-01-18 02:48:01.62	214.91	9.82	-46.2	-47.6	23.6	6.02e-01	0	35	0	1221591040	64	4135
2026-01-18 02:48:05.66	214.86	9.45	-46.4	-47.9	23.3	6.00e-01	0	35	0	1228931072	64	4264
2026-01-18 02:48:09.68	214.80	9.09	-46.3	-47.8	23.3	6.03e-01	0	35	0	1236271104	64	4208
2026-01-18 02:48:13.71	214.75	8.73	-46.7	-48.3	22.9	6.03e-01	0	35	0	1244135424	64	4461
2026-01-18 02:48:17.75	214.71	8.38	-46.4	-47.9	23.2	6.00e-01	0	35	0	1251475456	64	4279
2026-01-18 02:48:21.78	214.66	8.03	-46.6	-48.2	22.8	6.04e-01	0	35	0	1259339776	64	4426
2026-01-18 02:48:25.81	214.61	7.69	-46.7	-48.3	22.7	6.02e-01	0	35	0	1266679808	64	4484
2026-01-18 02:48:29.85	214.57	7.35	-46.5	-48.1	22.9	6.02e-01	0	35	0	1274544128	64	4369
2026-01-18 02:48:33.87	214.53	7.02	-46.8	-48.4	22.6	6.06e-01	0	35	0	1281884160	64	4514
2026-01-18 02:48:37.90	214.49	6.69	-46.9	-48.5	22.4	6.02e-01	0	35	0	1289748480	64	4598
2026-01-18 02:48:41.93	214.45	6.37	-47.2	-48.9	22.0	6.00e-01	0	35	0	1297088512	65	4540
2026-01-18 02:48:45.97	214.41	6.05	-46.8	-48.5	22.3	6.01e-01	0	35	0	1304428544	65	4327
2026-01-18 02:48:50.00	214.37	5.73	-47.0	-48.7	22.1	6.02e-01	0	35	0	1312292864	65	4407
2026-01-18 02:48:54.03	214.33	5.42	-47.0	-48.8	22.0	6.00e-01	0	35	0	1319632896	65	4447
2026-01-18 02:48:58.07	214.30	5.12	-46.9	-48.6	22.1	6.02e-01	0	35	0	1327497216	65	4385
2026-01-18 02:49:02.10	214.26	4.82	-54.7	-72.5	3.8	7.42e-01	0	35	104	1330642944	80	28897
2026-01-18 02:49:06.12	214.23	4.52	-55.1	-72.8	3.8	7.42e-01	0	35	104	1330642944	80	30024
2026-01-18 02:49:10.15	214.20	4.22	-55.3	-73.1	3.8	7.49e-01	0	35	104	1330642944	81	29060
2026-01-18 02:49:14.19	214.17	3.93	-55.4	-73.2	3.8	7.45e-01	0	35	104	1330642944	81	29482
2026-01-18 02:49:18.22	214.14	3.64	-55.4	-73.2	3.8	7.43e-01	0	35	104	1330642944	81	29614
2026-01-18 02:49:22.25	214.11	3.36	-55.5	-73.3	3.8	7.42e-01	0	35	104	1330642944	81	29798
2026-01-18 02:49:26.28	214.08	3.08	-55.4	-73.2	3.8	7.45e-01	0	35	104	1330642944	81	29572
2026-01-18 02:49:30.31	214.05	2.80	-55.4	-73.2	3.8	7.44e-01	0	35	104	1330642944	81	29496
2026-01-18 02:49:34.34	214.03	2.53	-55.4	-73.2	3.8	7.46e-01	0	35	104	1330642944	81	29410
2026-01-18 02:49:38.38	214.00	2.25	-55.3	-73.2	3.8	7.47e-01	0	35	104	1330642944	81	29364
2026-01-18 02:49:42.41	213.98	1.98	-55.3	-73.1	3.8	7.43e-01	0	35	104	1330642944	81	29340

#Closed at: 2026-01-18 02:49:42
#Recorded file [1330 MB]: D:/lorett/data/31041_260118_053652.dat