passes_logs/2026/01/18/R3.2S_Murmansk/R3.2S_Murmansk__20260118_001516_KANOPUS-V_5_rec.log

#Pass ID: 20260118_001516_KANOPUS-V 5
#Satellite: KANOPUS-V 5
#Configuration: KANOPUS-V_8320
#almurnet v.1.7.20251203
#Start time: 2026-01-18 00:15:17

#Version: 2.2.20231116
#Station: R3.2S_Murmansk
#Location: 33.079688 lon 68.888172 lat
#TLE: 1 43876U 18111A   26017.66658644  .00002803  00000+0  12058-3 0  9992
#TLE: 2 43876  97.3688 286.1324 0001777  87.2776 272.8665 15.23451717391876

#Time	Az	El	Level	Level2	SNR	BER	BlckErr	Temp	State	Recorded	gain1	gain2
2026-01-18 00:15:17.93	23.98	2.10	-53.0	-61.9	3.8	7.45e-01	0	34	0	0	78	9505
2026-01-18 00:15:20.95	23.74	2.29	-53.0	-61.8	3.8	7.45e-01	0	34	104	0	77	10020
2026-01-18 00:15:23.97	23.50	2.48	-53.0	-61.8	3.8	7.44e-01	0	34	104	0	77	9987
2026-01-18 00:15:27.00	23.25	2.68	-53.0	-61.8	3.8	7.44e-01	0	34	104	0	77	9966
2026-01-18 00:15:30.02	23.00	2.88	-53.0	-61.8	3.8	7.46e-01	0	34	104	0	77	9992
2026-01-18 00:15:33.05	22.74	3.08	-53.0	-61.8	3.8	7.45e-01	0	34	104	0	77	9980
2026-01-18 00:15:36.07	22.48	3.28	-53.0	-61.8	3.8	7.45e-01	0	34	104	0	77	10004
2026-01-18 00:15:39.10	22.22	3.48	-53.0	-61.8	3.8	7.44e-01	0	35	104	0	77	9968
2026-01-18 00:15:42.12	21.95	3.68	-53.0	-61.8	3.8	7.45e-01	0	35	104	0	77	9995
2026-01-18 00:15:45.14	21.68	3.88	-53.0	-61.8	3.8	7.45e-01	0	35	104	0	77	10016
2026-01-18 00:15:48.17	21.40	4.09	-53.0	-61.8	3.8	7.47e-01	0	35	104	0	77	10009
2026-01-18 00:15:51.19	21.11	4.30	-53.0	-61.8	3.8	7.45e-01	0	35	104	0	77	10032
2026-01-18 00:15:54.22	20.82	4.51	-53.0	-61.8	3.8	7.43e-01	0	35	104	0	77	9980
2026-01-18 00:15:57.24	20.52	4.72	-53.0	-61.8	3.8	7.46e-01	0	35	104	0	77	10023
2026-01-18 00:16:00.26	20.22	4.93	-53.0	-61.8	3.8	7.44e-01	0	35	104	0	77	9994
2026-01-18 00:16:03.28	19.91	5.14	-53.0	-61.8	3.8	7.45e-01	0	35	104	0	77	10057
2026-01-18 00:16:06.31	19.60	5.36	-53.1	-61.9	3.8	7.44e-01	0	35	104	0	77	10172
2026-01-18 00:16:09.33	19.28	5.58	-53.0	-61.8	3.8	7.44e-01	0	35	104	0	77	10010
2026-01-18 00:16:12.36	18.95	5.80	-53.1	-62.0	3.8	7.44e-01	0	35	104	0	77	10189
2026-01-18 00:16:15.38	18.62	6.02	-53.1	-61.9	3.8	7.46e-01	0	35	104	0	77	10104
2026-01-18 00:16:18.40	18.28	6.24	-53.2	-62.0	3.8	7.44e-01	0	35	104	0	77	10246
2026-01-18 00:16:21.42	17.93	6.46	-53.2	-62.0	3.8	7.46e-01	0	35	104	0	77	10191
2026-01-18 00:16:24.45	17.58	6.69	-53.2	-62.0	3.8	7.45e-01	0	35	104	0	77	10241
2026-01-18 00:16:27.47	17.22	6.92	-53.2	-62.0	3.8	7.47e-01	0	35	104	0	77	10263
2026-01-18 00:16:30.50	16.85	7.15	-53.3	-62.1	3.8	7.45e-01	0	35	104	0	77	10313
2026-01-18 00:16:33.52	16.48	7.38	-53.3	-62.1	3.8	7.46e-01	0	35	104	0	77	10342
2026-01-18 00:16:36.55	16.09	7.61	-53.3	-62.1	3.8	7.45e-01	0	36	104	0	77	10392
2026-01-18 00:16:39.57	15.70	7.85	-53.3	-62.1	3.8	7.46e-01	0	36	104	0	77	10379
2026-01-18 00:16:42.59	15.30	8.08	-53.3	-62.2	3.8	7.46e-01	0	35	104	0	77	10436
2026-01-18 00:16:45.62	14.89	8.32	-53.4	-62.2	3.8	7.47e-01	0	35	104	0	77	10494
2026-01-18 00:16:48.64	14.47	8.56	-53.4	-62.2	3.8	7.45e-01	0	36	104	0	77	10493
2026-01-18 00:16:51.66	14.05	8.81	-53.4	-62.2	3.8	7.44e-01	0	36	104	0	77	10521
2026-01-18 00:16:54.68	13.61	9.05	-53.4	-62.2	3.8	7.44e-01	0	36	104	0	77	10526
2026-01-18 00:16:57.71	13.17	9.30	-53.5	-62.3	3.8	7.45e-01	0	36	104	0	77	10628
2026-01-18 00:17:00.73	12.71	9.55	-53.5	-62.3	3.8	7.45e-01	0	36	104	0	77	10583
2026-01-18 00:17:03.76	12.25	9.80	-53.5	-62.4	3.8	7.46e-01	0	36	104	0	77	10661
2026-01-18 00:17:06.78	11.78	10.05	-53.5	-62.3	3.8	7.45e-01	0	36	104	0	77	10602
2026-01-18 00:17:09.80	11.29	10.30	-53.6	-62.4	3.8	7.46e-01	0	36	104	0	77	10759
2026-01-18 00:17:12.83	10.79	10.56	-53.6	-62.4	3.8	7.45e-01	0	36	104	0	77	10696
2026-01-18 00:17:15.85	10.29	10.81	-53.6	-62.4	3.8	7.45e-01	0	36	104	0	77	10745
2026-01-18 00:17:18.88	9.77	11.07	-53.6	-62.4	3.8	7.44e-01	0	36	104	0	77	10696
2026-01-18 00:17:21.90	9.24	11.33	-53.7	-62.5	3.8	7.45e-01	0	36	104	0	77	10824
2026-01-18 00:17:24.93	8.70	11.60	-53.6	-62.5	3.8	7.45e-01	0	36	104	0	77	10779
2026-01-18 00:17:27.95	8.14	11.86	-53.7	-62.5	3.8	7.44e-01	0	36	104	0	77	10858
2026-01-18 00:17:30.97	7.58	12.13	-53.6	-62.4	3.8	7.45e-01	0	36	104	0	77	10775
2026-01-18 00:17:34.00	7.00	12.39	-53.7	-62.6	3.8	7.46e-01	0	36	104	0	78	10328
2026-01-18 00:17:37.02	6.41	12.66	-53.7	-62.5	3.8	7.44e-01	0	36	104	0	78	10245
2026-01-18 00:17:40.04	5.80	12.93	-53.7	-62.6	3.8	7.46e-01	0	36	104	0	78	10325
2026-01-18 00:17:43.07	5.18	13.20	-53.7	-62.5	3.8	7.45e-01	0	36	104	0	78	10293
2026-01-18 00:17:46.09	4.55	13.47	-53.8	-62.6	3.8	7.46e-01	0	36	104	0	78	10376
2026-01-18 00:17:49.12	3.90	13.75	-53.8	-62.6	3.8	7.45e-01	0	36	104	0	78	10346
2026-01-18 00:17:52.14	3.24	14.02	-53.8	-62.6	3.8	7.44e-01	0	36	104	0	78	10362
2026-01-18 00:17:55.16	2.56	14.29	-53.8	-62.6	3.8	7.45e-01	0	36	104	0	78	10372
2026-01-18 00:17:58.19	1.87	14.57	-53.8	-62.7	3.8	7.46e-01	0	36	104	0	78	10418
2026-01-18 00:18:01.21	1.16	14.84	-53.8	-62.6	3.8	7.46e-01	0	36	104	0	78	10404
2026-01-18 00:18:04.23	0.44	15.12	-53.8	-62.7	3.8	7.47e-01	0	36	104	0	78	10427
2026-01-18 00:18:07.26	359.70	15.39	-53.8	-62.6	3.8	7.45e-01	0	36	104	0	78	10405
2026-01-18 00:18:10.28	358.94	15.67	-53.9	-62.7	3.8	7.46e-01	0	36	104	0	78	10496
2026-01-18 00:18:13.30	358.17	15.94	-53.9	-62.7	3.8	7.47e-01	0	36	104	0	78	10477
2026-01-18 00:18:16.33	357.37	16.21	-53.9	-62.8	3.8	7.46e-01	0	36	104	0	78	10557
2026-01-18 00:18:19.35	356.57	16.49	-53.9	-62.7	3.8	7.44e-01	0	36	104	0	78	10489
2026-01-18 00:18:22.37	355.74	16.76	-53.9	-62.8	3.8	7.45e-01	0	36	104	0	78	10549
2026-01-18 00:18:25.40	354.90	17.03	-53.9	-62.7	3.8	7.46e-01	0	36	104	0	78	10510
2026-01-18 00:18:28.42	354.03	17.29	-53.9	-62.8	3.8	7.46e-01	0	36	104	0	78	10540
2026-01-18 00:18:31.45	353.15	17.56	-53.9	-62.8	3.8	7.45e-01	0	36	104	0	78	10562
2026-01-18 00:18:34.47	352.26	17.82	-54.0	-62.8	3.8	7.44e-01	0	36	104	0	78	10589
2026-01-18 00:18:37.49	351.34	18.08	-54.0	-62.8	3.8	7.45e-01	0	36	104	0	78	10612
2026-01-18 00:18:40.52	350.40	18.34	-54.0	-62.8	3.8	7.46e-01	0	36	104	0	78	10614
2026-01-18 00:18:43.54	349.45	18.59	-54.0	-62.8	3.8	7.46e-01	0	36	104	0	78	10580
2026-01-18 00:18:46.57	348.47	18.84	-54.0	-62.8	3.8	7.46e-01	0	36	104	0	78	10639
2026-01-18 00:18:49.59	347.48	19.09	-54.0	-62.9	3.8	7.45e-01	0	36	104	0	78	10657
2026-01-18 00:18:52.61	346.48	19.33	-54.0	-62.8	3.8	7.43e-01	0	36	104	0	78	10612
2026-01-18 00:18:55.64	345.45	19.56	-54.0	-62.9	3.8	7.44e-01	0	36	104	0	78	10676
2026-01-18 00:18:58.66	344.40	19.79	-54.0	-62.9	3.8	7.46e-01	0	36	104	0	78	10678
2026-01-18 00:19:01.68	343.34	20.01	-54.1	-62.9	3.8	7.45e-01	0	36	104	0	78	10714
2026-01-18 00:19:04.71	342.25	20.22	-54.1	-62.9	3.8	7.46e-01	0	36	104	0	78	10688
2026-01-18 00:19:07.73	341.16	20.43	-54.1	-62.9	3.8	7.45e-01	0	36	104	0	78	10729
2026-01-18 00:19:10.75	340.04	20.63	-54.1	-62.9	3.8	7.44e-01	0	36	104	0	78	10714
2026-01-18 00:19:13.78	338.91	20.82	-54.1	-62.9	3.8	7.46e-01	0	36	104	0	78	10737
2026-01-18 00:19:16.80	337.76	21.00	-54.1	-62.9	3.8	7.44e-01	0	36	104	0	78	10759
2026-01-18 00:19:19.82	336.60	21.17	-54.1	-62.9	3.8	7.44e-01	0	36	104	0	78	10753
2026-01-18 00:19:22.85	335.42	21.33	-54.1	-62.9	3.8	7.44e-01	0	36	104	0	78	10776
2026-01-18 00:19:25.87	334.23	21.48	-54.2	-63.0	3.8	7.46e-01	0	36	104	0	78	10828
2026-01-18 00:19:28.90	333.02	21.62	-54.1	-63.0	3.8	7.45e-01	0	36	104	0	78	10782
2026-01-18 00:19:31.92	331.80	21.75	-54.2	-63.0	3.8	7.46e-01	0	36	104	0	78	10826
2026-01-18 00:19:34.94	330.58	21.87	-54.1	-63.0	3.8	7.45e-01	0	36	104	0	78	10799
2026-01-18 00:19:37.97	329.34	21.98	-54.2	-63.0	3.8	7.46e-01	0	36	104	0	78	10832
2026-01-18 00:19:40.99	328.09	22.07	-54.2	-63.0	3.8	7.44e-01	0	36	104	0	78	10840
2026-01-18 00:19:44.01	326.84	22.15	-54.2	-63.0	3.8	7.47e-01	0	36	104	0	78	10853
2026-01-18 00:19:47.04	325.57	22.22	-54.2	-63.0	3.8	7.47e-01	0	36	104	0	78	10864
2026-01-18 00:19:50.06	324.30	22.27	-54.2	-63.0	3.8	7.45e-01	0	36	104	0	79	10289
2026-01-18 00:19:53.08	323.03	22.31	-54.2	-63.0	3.8	7.44e-01	0	36	104	0	79	10267
2026-01-18 00:19:56.11	321.75	22.34	-54.2	-63.1	3.8	7.45e-01	0	36	104	0	79	10319
2026-01-18 00:19:59.13	320.48	22.35	-54.2	-63.0	3.8	7.44e-01	0	36	104	0	79	10281
2026-01-18 00:20:02.16	319.20	22.35	-54.3	-63.1	3.8	7.46e-01	0	36	104	0	79	10316
2026-01-18 00:20:05.18	317.92	22.34	-54.2	-63.1	3.8	7.45e-01	0	36	104	0	79	10313
2026-01-18 00:20:08.20	316.65	22.31	-54.2	-63.1	3.8	7.45e-01	0	36	104	0	79	10332
2026-01-18 00:20:11.23	315.37	22.27	-54.3	-63.1	3.8	7.44e-01	0	36	104	0	79	10351
2026-01-18 00:20:14.25	314.10	22.22	-54.3	-63.1	3.8	7.46e-01	0	36	104	0	79	10364
2026-01-18 00:20:17.28	312.84	22.15	-54.3	-63.1	3.8	7.45e-01	0	36	104	0	79	10343
2026-01-18 00:20:20.30	311.58	22.07	-54.3	-63.1	3.8	7.47e-01	0	36	104	0	79	10367
2026-01-18 00:20:23.32	310.33	21.97	-54.3	-63.1	3.8	7.45e-01	0	36	104	0	79	10376
2026-01-18 00:20:26.35	309.09	21.87	-54.3	-63.1	3.8	7.46e-01	0	36	104	0	79	10371
2026-01-18 00:20:29.37	307.86	21.75	-54.3	-63.1	3.8	7.45e-01	0	36	104	0	79	10358
2026-01-18 00:20:32.39	306.65	21.62	-54.3	-63.1	3.8	7.45e-01	0	36	104	0	79	10350
2026-01-18 00:20:35.42	305.44	21.48	-54.3	-63.1	3.8	7.45e-01	0	36	104	0	79	10360
2026-01-18 00:20:38.44	304.25	21.33	-54.3	-63.1	3.8	7.44e-01	0	36	104	0	79	10396
2026-01-18 00:20:41.47	303.07	21.16	-54.3	-63.2	3.8	7.46e-01	0	36	104	0	79	10423
2026-01-18 00:20:44.49	301.90	20.99	-54.3	-63.1	3.8	7.45e-01	0	36	104	0	79	10380
2026-01-18 00:20:47.52	300.75	20.81	-54.3	-63.1	3.8	7.45e-01	0	36	104	0	79	10399
2026-01-18 00:20:50.54	299.62	20.62	-54.3	-63.1	3.8	7.45e-01	0	36	104	0	79	10408
2026-01-18 00:20:53.56	298.50	20.42	-54.4	-63.1	3.8	7.44e-01	0	36	104	0	79	10401
2026-01-18 00:20:56.59	297.40	20.21	-54.4	-63.2	3.8	7.44e-01	0	36	104	0	79	10435
2026-01-18 00:20:59.61	296.31	20.00	-54.4	-63.2	3.8	7.44e-01	0	36	104	0	79	10420
2026-01-18 00:21:02.64	295.25	19.77	-54.3	-63.2	3.8	7.45e-01	0	36	104	0	79	10436
2026-01-18 00:21:05.66	294.20	19.55	-54.4	-63.2	3.8	7.44e-01	0	36	104	0	79	10462
2026-01-18 00:21:08.68	293.17	19.31	-54.4	-63.2	3.8	7.45e-01	0	36	104	0	79	10507
2026-01-18 00:21:11.71	292.16	19.07	-54.4	-63.2	3.8	7.44e-01	0	36	104	0	79	10447
2026-01-18 00:21:14.73	291.16	18.83	-54.3	-63.2	3.8	7.45e-01	0	36	104	0	79	10441
2026-01-18 00:21:17.76	290.19	18.58	-54.4	-63.2	3.8	7.45e-01	0	36	104	0	79	10458
2026-01-18 00:21:20.78	289.23	18.32	-54.4	-63.2	3.8	7.46e-01	0	36	104	0	79	10463
2026-01-18 00:21:23.80	288.29	18.07	-54.3	-63.1	3.8	7.45e-01	0	36	104	0	79	10370
2026-01-18 00:21:26.83	287.37	17.80	-54.3	-63.1	3.8	7.45e-01	0	36	104	0	79	10359
2026-01-18 00:21:29.85	286.47	17.54	-54.3	-63.1	3.8	7.47e-01	0	36	104	0	79	10389
2026-01-18 00:21:32.88	285.59	17.27	-54.3	-63.2	3.8	7.45e-01	0	36	104	0	79	10428
2026-01-18 00:21:35.90	284.73	17.01	-54.3	-63.1	3.8	7.46e-01	0	36	104	0	79	10343
2026-01-18 00:21:38.93	283.88	16.73	-54.2	-63.1	3.8	7.45e-01	0	36	104	0	79	10320
2026-01-18 00:21:41.95	283.05	16.46	-54.3	-63.1	3.8	7.47e-01	0	36	104	0	79	10328
2026-01-18 00:21:44.98	282.24	16.19	-54.2	-63.1	3.8	7.45e-01	0	36	104	0	79	10326
2026-01-18 00:21:48.00	281.45	15.91	-54.2	-63.0	3.8	7.44e-01	0	36	104	0	79	10233
2026-01-18 00:21:51.02	280.67	15.64	-54.2	-63.0	3.8	7.45e-01	0	36	104	0	79	10233
2026-01-18 00:21:54.04	279.91	15.36	-54.2	-63.0	3.8	7.45e-01	0	36	104	0	79	10203
2026-01-18 00:21:57.07	279.17	15.09	-54.1	-63.0	3.8	7.47e-01	0	36	104	0	79	10183
2026-01-18 00:22:00.10	278.44	14.81	-54.1	-63.0	3.8	7.46e-01	0	36	104	0	79	10214
2026-01-18 00:22:03.12	277.73	14.54	-54.1	-62.9	3.8	7.46e-01	0	36	104	0	79	10111
2026-01-18 00:22:06.15	277.04	14.26	-54.1	-62.9	3.8	7.42e-01	0	36	104	0	79	10155
2026-01-18 00:22:09.17	276.36	13.98	-54.1	-62.9	3.8	7.45e-01	0	36	104	0	79	10124
2026-01-18 00:22:12.20	275.69	13.71	-54.0	-62.9	3.8	7.45e-01	0	36	104	0	79	10107
2026-01-18 00:22:15.22	275.04	13.44	-54.0	-62.8	3.8	7.45e-01	0	36	104	0	79	10034
2026-01-18 00:22:18.24	274.41	13.16	-54.0	-62.9	3.8	7.45e-01	0	36	104	0	79	10076
2026-01-18 00:22:21.27	273.79	12.89	-54.0	-62.9	3.8	7.45e-01	0	36	104	0	79	10062
2026-01-18 00:22:24.30	273.18	12.62	-54.0	-62.8	3.8	7.46e-01	0	36	104	0	79	10007
2026-01-18 00:22:27.32	272.59	12.35	-53.9	-62.8	3.8	7.45e-01	0	36	104	0	79	10002
2026-01-18 00:22:30.35	272.00	12.09	-53.9	-62.7	3.8	7.44e-01	0	36	104	0	79	9942
2026-01-18 00:22:33.37	271.44	11.82	-53.9	-62.8	3.8	7.46e-01	0	36	104	0	79	9968
2026-01-18 00:22:36.40	270.88	11.55	-53.9	-62.7	3.8	7.45e-01	0	36	104	0	79	9924
2026-01-18 00:22:39.42	270.34	11.29	-53.8	-62.6	3.8	7.45e-01	0	36	104	0	79	9772
2026-01-18 00:22:42.44	269.81	11.03	-53.8	-62.6	3.8	7.46e-01	0	36	104	0	79	9799
2026-01-18 00:22:45.46	269.29	10.77	-53.8	-62.6	3.8	7.46e-01	0	36	104	0	79	9806
2026-01-18 00:22:48.49	268.78	10.51	-53.6	-62.5	3.8	7.45e-01	0	36	104	0	78	10226
2026-01-18 00:22:51.51	268.28	10.26	-53.1	-61.9	3.8	7.44e-01	0	36	104	0	78	9547
2026-01-18 00:22:54.53	267.79	10.00	-53.0	-61.9	3.8	7.45e-01	0	36	104	0	77	10123
2026-01-18 00:22:57.55	267.32	9.75	-53.4	-62.3	3.8	7.45e-01	0	36	104	0	77	10555
2026-01-18 00:23:00.58	266.85	9.50	-53.3	-62.2	3.8	7.44e-01	0	36	104	0	77	10446
2026-01-18 00:23:03.60	266.40	9.25	-53.5	-62.3	3.8	7.45e-01	0	36	104	0	77	10642
2026-01-18 00:23:06.62	265.95	9.00	-53.6	-62.5	3.8	7.46e-01	0	36	104	0	78	10212
2026-01-18 00:23:09.64	265.51	8.76	-53.7	-62.5	3.8	7.45e-01	0	36	104	0	78	10242
2026-01-18 00:23:12.66	265.09	8.52	-53.6	-62.5	3.8	7.45e-01	0	36	104	0	78	10194
2026-01-18 00:23:15.69	264.67	8.27	-53.7	-62.5	3.8	7.46e-01	0	36	104	0	78	10261
2026-01-18 00:23:18.71	264.26	8.03	-53.6	-62.4	3.8	7.46e-01	0	36	104	0	78	10167
2026-01-18 00:23:21.73	263.86	7.80	-53.6	-62.4	3.8	7.44e-01	0	36	104	0	78	10111
2026-01-18 00:23:24.76	263.46	7.56	-53.5	-62.4	3.8	7.46e-01	0	36	104	0	78	10071
2026-01-18 00:23:27.78	263.08	7.33	-53.6	-62.4	3.8	7.46e-01	0	36	104	0	78	10113
2026-01-18 00:23:30.79	262.70	7.10	-53.5	-62.4	3.8	7.45e-01	0	36	104	0	78	10089
2026-01-18 00:23:33.82	262.33	6.86	-53.4	-62.2	3.8	7.45e-01	0	36	104	0	78	9933
2026-01-18 00:23:36.84	261.97	6.64	-53.4	-62.2	3.8	7.45e-01	0	36	104	0	78	9889
2026-01-18 00:23:39.86	261.61	6.41	-53.5	-62.3	3.8	7.46e-01	0	36	104	0	78	9996
2026-01-18 00:23:42.89	261.26	6.18	-53.4	-62.2	3.8	7.45e-01	0	36	104	0	78	9895
2026-01-18 00:23:45.91	260.92	5.96	-53.3	-62.1	3.8	7.44e-01	0	36	104	0	78	9800
2026-01-18 00:23:48.93	260.59	5.74	-53.2	-62.0	3.8	7.44e-01	0	36	104	0	78	9715
2026-01-18 00:23:51.96	260.26	5.52	-53.3	-62.2	3.8	7.44e-01	0	36	104	0	78	9872
2026-01-18 00:23:54.98	259.94	5.30	-53.3	-62.1	3.8	7.45e-01	0	36	104	0	78	9731
2026-01-18 00:23:58.00	259.62	5.09	-53.1	-61.9	3.8	7.45e-01	0	36	104	0	78	9583
2026-01-18 00:24:01.03	259.31	4.87	-53.8	-62.6	3.8	7.45e-01	0	36	104	0	78	10333
2026-01-18 00:24:04.05	259.01	4.66	-54.3	-63.1	3.8	7.45e-01	0	36	104	0	79	10349
2026-01-18 00:24:07.08	258.71	4.45	-54.5	-63.3	3.8	7.46e-01	0	36	104	0	79	10617
2026-01-18 00:24:10.10	258.42	4.24	-54.6	-63.5	3.8	7.45e-01	0	36	104	0	79	10783
2026-01-18 00:24:13.13	258.13	4.03	-54.7	-63.5	3.8	7.45e-01	0	36	104	0	80	10276
2026-01-18 00:24:16.15	257.85	3.82	-54.7	-63.6	3.8	7.45e-01	0	36	104	0	80	10307
2026-01-18 00:24:19.17	257.58	3.62	-54.8	-63.6	3.8	7.45e-01	0	36	104	0	80	10322
2026-01-18 00:24:22.20	257.30	3.42	-54.7	-63.6	3.8	7.44e-01	0	36	104	0	80	10294
2026-01-18 00:24:25.22	257.04	3.21	-54.7	-63.6	3.8	7.43e-01	0	36	104	0	80	10297
2026-01-18 00:24:28.25	256.78	3.01	-54.7	-63.5	3.8	7.45e-01	0	36	104	0	80	10252
2026-01-18 00:24:31.27	256.52	2.81	-54.7	-63.5	3.8	7.45e-01	0	36	104	0	80	10234
2026-01-18 00:24:34.30	256.27	2.62	-54.6	-63.5	3.8	7.45e-01	0	36	104	0	80	10208
2026-01-18 00:24:37.32	256.02	2.42	-54.6	-63.5	3.8	7.45e-01	0	36	104	0	80	10184
2026-01-18 00:24:40.34	255.78	2.23	-54.6	-63.4	3.8	7.45e-01	0	36	104	0	80	10170
2026-01-18 00:24:43.37	255.54	2.03	-54.6	-63.4	3.8	7.46e-01	0	36	104	0	80	10165

#Closed at: 2026-01-18 00:24:45
#Recorded file [0 MB]: D:/lorett/data/31041_260118_031517.dat