passes_logs/2026/01/18/R3.2S_Murmansk/R3.2S_Murmansk__20260118_093138_FENGYUN_3D_rec.log

#Pass ID: 20260118_093138_FENGYUN 3D
#Satellite: FENGYUN 3D
#Configuration: FENGYUN 3D
#almurnet v.1.7.20251203
#Start time: 2026-01-18 09:31:38

#Version: 2.2.20231116
#Station: R3.2S_Murmansk
#Location: 33.079688 lon 68.888172 lat
#TLE: 1 43010U 17072A   26017.61121112  .00000213  00000+0  12257-3 0  9991
#TLE: 2 43010  98.9934 349.4672 0002374 103.9362 256.2078 14.19696413423628

#Time	Az	El	Level	Level2	SNR	BER	BlckErr	Temp	State	Recorded	gain1	gain2
2026-01-18 09:31:38.99	105.02	2.03	-52.0	-64.0	3.8	8.46e-01	0	34	0	0	76	13623
2026-01-18 09:31:43.02	104.85	2.28	-52.0	-63.9	3.8	8.46e-01	0	34	104	0	74	15073
2026-01-18 09:31:47.05	104.68	2.53	-52.0	-63.8	3.8	8.47e-01	0	34	104	0	74	14969
2026-01-18 09:31:51.08	104.50	2.78	-52.0	-63.8	3.8	8.46e-01	0	34	104	0	74	15013
2026-01-18 09:31:55.11	104.32	3.03	-52.0	-63.6	3.8	8.45e-01	0	34	104	0	74	14593
2026-01-18 09:31:59.15	104.13	3.29	-51.0	-63.1	3.9	8.42e-01	0	34	104	0	73	14640
2026-01-18 09:32:03.18	103.94	3.54	-50.6	-63.5	3.9	8.42e-01	0	35	104	0	73	15229
2026-01-18 09:32:07.21	103.75	3.80	-48.2	-60.1	4.1	8.37e-01	0	35	104	0	68	13803
2026-01-18 09:32:11.25	103.55	4.06	-47.6	-56.3	4.8	8.18e-01	0	35	104	0	66	9956
2026-01-18 09:32:15.28	103.35	4.33	-48.6	-52.9	9.3	3.42e-02	0	35	0	7340032	67	6381
2026-01-18 09:32:19.31	103.15	4.59	-48.2	-50.9	12.0	4.10e-04	0	35	0	30408704	68	4778
2026-01-18 09:32:23.34	102.94	4.86	-49.1	-52.3	10.5	4.03e-03	0	35	0	53477376	68	5610
2026-01-18 09:32:27.37	102.73	5.13	-49.5	-53.3	9.2	8.28e-02	0	35	0	75497472	71	5304
2026-01-18 09:32:31.40	102.51	5.40	-49.7	-53.5	9.2	2.75e-01	0	35	0	94371840	71	5431
2026-01-18 09:32:35.43	102.29	5.68	-45.1	-46.6	16.7	0.00e+00	0	35	0	117440512	62	4125
2026-01-18 09:32:39.46	102.07	5.96	-44.3	-45.6	17.4	0.00e+00	0	35	0	139460608	60	4144
2026-01-18 09:32:43.49	101.84	6.24	-44.4	-45.7	17.4	3.40e-06	0	35	0	162529280	59	4417
2026-01-18 09:32:47.53	101.60	6.52	-44.3	-45.5	18.1	0.00e+00	0	35	0	185597952	59	4316
2026-01-18 09:32:51.56	101.36	6.81	-44.0	-45.2	18.5	0.00e+00	0	35	0	207618048	59	4171
2026-01-18 09:32:55.59	101.12	7.10	-44.0	-45.1	18.6	0.00e+00	0	35	0	229638144	59	4143
2026-01-18 09:32:59.63	100.87	7.39	-44.1	-45.3	18.4	0.00e+00	0	35	0	252706816	59	4208
2026-01-18 09:33:03.66	100.61	7.68	-43.6	-44.8	18.9	0.00e+00	0	35	0	275775488	59	3959
2026-01-18 09:33:07.69	100.35	7.98	-43.5	-44.6	19.1	0.00e+00	0	35	0	297795584	58	4130
2026-01-18 09:33:11.72	100.09	8.28	-43.4	-44.4	19.3	0.00e+00	0	35	0	320864256	58	4047
2026-01-18 09:33:15.75	99.82	8.58	-43.4	-44.5	19.3	0.00e+00	0	35	0	343932928	58	4070
2026-01-18 09:33:19.78	99.54	8.88	-43.5	-44.6	19.2	0.00e+00	0	35	0	365953024	58	4135
2026-01-18 09:33:23.82	99.26	9.19	-43.3	-44.4	19.4	0.00e+00	0	35	0	389021696	58	4038
2026-01-18 09:33:27.85	98.97	9.51	-43.3	-44.3	19.5	0.00e+00	0	35	0	412090368	58	4000
2026-01-18 09:33:31.88	98.67	9.82	-43.2	-44.2	19.6	0.00e+00	0	36	0	434110464	58	3955
2026-01-18 09:33:35.91	98.37	10.14	-43.1	-44.1	19.7	0.00e+00	0	35	0	457179136	58	3904
2026-01-18 09:33:39.94	98.05	10.46	-43.1	-44.1	19.8	0.00e+00	0	35	0	480247808	58	3889
2026-01-18 09:33:43.97	97.74	10.79	-42.7	-43.7	20.1	0.00e+00	0	35	0	502267904	57	3952
2026-01-18 09:33:48.01	97.41	11.11	-42.6	-43.6	20.2	0.00e+00	0	35	0	525336576	57	3908
2026-01-18 09:33:52.04	97.08	11.45	-42.7	-43.7	20.2	0.00e+00	0	35	0	548405248	57	3923
2026-01-18 09:33:56.07	96.74	11.78	-42.6	-43.6	20.3	0.00e+00	0	35	0	570425344	57	3881
2026-01-18 09:34:00.10	96.39	12.12	-42.3	-43.3	20.6	0.00e+00	0	35	0	593494016	56	3985
2026-01-18 09:34:04.14	96.03	12.46	-42.3	-43.3	20.6	0.00e+00	0	35	0	615514112	56	3979
2026-01-18 09:34:08.17	95.66	12.81	-42.2	-43.2	20.7	0.00e+00	0	35	0	638582784	56	3932
2026-01-18 09:34:12.20	95.29	13.16	-42.4	-43.4	20.6	0.00e+00	0	36	0	661651456	56	4006
2026-01-18 09:34:16.23	94.90	13.51	-42.3	-43.2	20.7	0.00e+00	0	36	0	683671552	56	3956
2026-01-18 09:34:20.27	94.51	13.87	-42.3	-43.2	20.7	0.00e+00	0	36	0	706740224	56	3950
2026-01-18 09:34:24.29	94.11	14.23	-42.0	-43.0	21.0	0.00e+00	0	35	0	728760320	56	3843
2026-01-18 09:34:28.33	93.69	14.60	-42.1	-43.0	20.9	0.00e+00	0	36	0	751828992	56	3859
2026-01-18 09:34:32.36	93.27	14.97	-41.8	-42.8	21.1	0.00e+00	0	36	0	774897664	55	3972
2026-01-18 09:34:36.39	92.83	15.34	-41.5	-42.5	21.4	0.00e+00	0	36	0	796917760	55	3828
2026-01-18 09:34:40.42	92.38	15.72	-41.4	-42.2	21.6	0.00e+00	0	36	0	819986432	54	3956
2026-01-18 09:34:44.45	91.92	16.10	-41.3	-42.2	21.9	0.00e+00	0	36	0	843055104	54	3930
2026-01-18 09:34:48.49	91.45	16.49	-41.4	-42.3	21.8	0.00e+00	0	36	0	865075200	54	3976
2026-01-18 09:34:52.52	90.97	16.88	-41.5	-42.4	21.7	0.00e+00	0	36	0	888143872	54	4032
2026-01-18 09:34:56.55	90.47	17.27	-41.6	-42.5	21.7	0.00e+00	0	36	0	911212544	54	4062
2026-01-18 09:35:00.58	89.96	17.67	-41.1	-41.9	22.2	0.00e+00	0	36	0	933232640	54	3822
2026-01-18 09:35:04.61	89.43	18.07	-41.1	-41.9	22.2	0.00e+00	0	36	0	956301312	53	4024
2026-01-18 09:35:08.64	88.89	18.48	-41.0	-41.8	22.3	0.00e+00	0	36	0	978321408	53	3985
2026-01-18 09:35:12.68	88.34	18.89	-40.6	-41.4	22.7	0.00e+00	0	36	0	1001390080	53	3822
2026-01-18 09:35:16.71	87.77	19.30	-40.6	-41.4	22.7	0.00e+00	0	36	0	1024458752	53	3818
2026-01-18 09:35:20.75	87.18	19.72	-40.6	-41.4	22.7	0.00e+00	0	36	0	1046478848	53	3819
2026-01-18 09:35:24.78	86.58	20.14	-40.5	-41.3	22.9	0.00e+00	0	36	0	1069547520	53	3755
2026-01-18 09:35:28.81	85.96	20.57	-40.4	-41.2	22.9	0.00e+00	0	36	0	1092616192	52	3940
2026-01-18 09:35:32.84	85.32	21.00	-40.2	-41.0	23.2	0.00e+00	0	36	0	1114636288	52	3839
2026-01-18 09:35:36.87	84.67	21.43	-40.1	-40.9	23.2	0.00e+00	0	36	0	1137704960	52	3806
2026-01-18 09:35:40.90	83.99	21.86	-40.0	-40.7	23.4	0.00e+00	0	36	0	1160773632	52	3731
2026-01-18 09:35:44.93	83.30	22.30	-40.1	-40.9	23.4	0.00e+00	0	36	0	1182793728	51	4017
2026-01-18 09:35:48.97	82.58	22.75	-40.1	-40.9	23.3	0.00e+00	0	36	0	1205862400	51	4033
2026-01-18 09:35:53.00	81.85	23.19	-40.1	-40.9	23.4	0.00e+00	0	36	0	1228931072	51	4020
2026-01-18 09:35:57.03	81.09	23.64	-39.9	-40.7	23.6	0.00e+00	0	36	0	1250951168	51	3918
2026-01-18 09:36:01.07	80.31	24.09	-40.0	-40.7	23.5	0.00e+00	0	36	0	1274019840	51	3957
2026-01-18 09:36:05.10	79.51	24.54	-40.0	-40.8	23.5	0.00e+00	0	36	0	1297088512	51	3976
2026-01-18 09:36:09.13	78.68	24.99	-39.9	-40.6	23.6	0.00e+00	0	36	0	1319108608	51	3913
2026-01-18 09:36:13.16	77.83	25.44	-39.9	-40.6	23.7	0.00e+00	0	36	0	1341128704	51	3905
2026-01-18 09:36:17.19	76.95	25.89	-39.5	-40.2	24.1	0.00e+00	0	36	0	1364197376	51	3716
2026-01-18 09:36:21.22	76.05	26.35	-39.4	-40.2	24.1	0.00e+00	0	36	0	1387266048	50	3921
2026-01-18 09:36:25.25	75.13	26.80	-39.3	-40.0	24.2	0.00e+00	0	36	0	1409286144	50	3840
2026-01-18 09:36:29.28	74.17	27.25	-39.2	-40.0	24.3	0.00e+00	0	36	0	1432354816	50	3834
2026-01-18 09:36:33.31	73.19	27.70	-39.3	-40.0	24.3	0.00e+00	0	36	0	1455423488	50	3847
2026-01-18 09:36:37.35	72.18	28.15	-39.3	-40.0	24.3	0.00e+00	0	36	0	1477443584	50	3861
2026-01-18 09:36:41.38	71.14	28.60	-39.5	-40.2	24.1	0.00e+00	0	36	0	1500512256	50	3942
2026-01-18 09:36:45.41	70.07	29.04	-39.4	-40.2	24.1	0.00e+00	0	36	0	1523580928	50	3917
2026-01-18 09:36:49.44	68.98	29.47	-39.3	-40.1	24.2	0.00e+00	0	36	0	1545601024	50	3873
2026-01-18 09:36:53.47	67.85	29.91	-39.0	-39.7	24.6	0.00e+00	0	36	0	1568669696	50	3727
2026-01-18 09:36:57.50	66.69	30.33	-38.9	-39.6	24.6	0.00e+00	0	36	0	1591738368	49	3912
2026-01-18 09:37:01.53	65.50	30.75	-38.8	-39.5	24.7	0.00e+00	0	36	0	1613758464	49	3864
2026-01-18 09:37:05.56	64.28	31.16	-38.8	-39.5	24.8	0.00e+00	0	36	0	1636827136	49	3838
2026-01-18 09:37:09.59	63.03	31.55	-38.8	-39.6	24.7	0.00e+00	0	36	0	1659895808	49	3871
2026-01-18 09:37:13.62	61.75	31.94	-38.7	-39.4	24.8	0.00e+00	0	36	0	1681915904	49	3812
2026-01-18 09:37:17.65	60.43	32.32	-38.7	-39.4	24.9	0.00e+00	0	36	0	1703936000	49	3802
2026-01-18 09:37:21.68	59.09	32.68	-38.5	-39.2	25.1	0.00e+00	0	36	0	1727004672	49	3713
2026-01-18 09:37:25.71	57.72	33.03	-38.4	-39.1	25.1	0.00e+00	0	36	0	1750073344	48	3910
2026-01-18 09:37:29.75	56.31	33.37	-38.6	-39.3	25.0	0.00e+00	0	36	0	1772093440	48	3967
2026-01-18 09:37:33.78	54.88	33.69	-38.6	-39.3	25.0	0.00e+00	0	36	0	1795162112	48	3960
2026-01-18 09:37:37.80	53.42	33.99	-38.7	-39.5	24.8	0.00e+00	0	36	0	1818230784	48	4060
2026-01-18 09:37:41.84	51.93	34.27	-38.5	-39.2	25.1	0.00e+00	0	36	0	1840250880	48	3937
2026-01-18 09:37:45.87	50.42	34.53	-38.5	-39.1	25.1	0.00e+00	0	36	0	1863319552	48	3912
2026-01-18 09:37:49.90	48.89	34.77	-38.9	-39.7	24.7	0.00e+00	0	36	0	1886388224	48	4153
2026-01-18 09:37:53.93	47.33	34.99	-38.7	-39.4	25.0	0.00e+00	0	36	0	1908408320	48	4009
2026-01-18 09:37:57.97	45.76	35.18	-38.7	-39.4	24.9	0.00e+00	0	36	0	1931476992	48	4049
2026-01-18 09:38:02.00	44.16	35.35	-38.4	-39.1	25.2	0.00e+00	0	36	0	1954545664	48	3891
2026-01-18 09:38:06.03	42.55	35.50	-38.7	-39.4	24.9	0.00e+00	0	36	0	1976565760	48	4049
2026-01-18 09:38:10.06	40.93	35.62	-38.2	-38.9	25.4	0.00e+00	0	36	0	1999634432	48	3805
2026-01-18 09:38:14.09	39.30	35.72	-38.2	-38.9	25.4	0.00e+00	0	36	0	2022703104	48	3808
2026-01-18 09:38:18.13	37.65	35.79	-38.5	-39.3	25.1	0.00e+00	0	36	0	2044723200	48	3961
2026-01-18 09:38:22.16	36.00	35.83	-38.5	-39.2	25.2	0.00e+00	0	36	0	2066743296	48	3924
2026-01-18 09:38:26.19	34.36	35.84	-38.4	-39.1	25.2	0.00e+00	0	36	0	2089811968	48	3894
2026-01-18 09:38:30.22	32.71	35.83	-38.4	-39.1	25.2	0.00e+00	0	36	0	2112880640	48	3870
2026-01-18 09:38:34.25	31.06	35.79	-38.3	-39.0	25.3	0.00e+00	0	36	0	2134900736	48	3849
2026-01-18 09:38:38.29	29.41	35.72	-38.6	-39.3	25.1	0.00e+00	0	36	0	2157969408	48	3964
2026-01-18 09:38:42.31	27.78	35.63	-38.7	-39.4	24.9	0.00e+00	0	36	0	2181038080	48	4043
2026-01-18 09:38:46.35	26.16	35.51	-38.4	-39.1	25.2	0.00e+00	0	36	0	2203058176	48	3883
2026-01-18 09:38:50.38	24.55	35.37	-38.2	-38.9	25.4	0.00e+00	0	36	0	2226126848	48	3805
2026-01-18 09:38:54.41	22.95	35.20	-38.4	-39.1	25.3	0.00e+00	0	36	0	2249195520	48	3877
2026-01-18 09:38:58.45	21.37	35.00	-38.4	-39.1	25.2	0.00e+00	0	36	0	2271215616	48	3902
2026-01-18 09:39:02.48	19.82	34.79	-38.2	-38.9	25.4	0.00e+00	0	36	0	2294284288	48	3782
2026-01-18 09:39:06.51	18.28	34.55	-38.2	-38.9	25.4	0.00e+00	0	36	0	2317352960	48	3800
2026-01-18 09:39:10.54	16.77	34.29	-38.6	-39.3	25.1	0.00e+00	0	36	0	2339373056	48	3971
2026-01-18 09:39:14.57	15.29	34.01	-38.4	-39.1	25.2	0.00e+00	0	36	0	2362441728	48	3890
2026-01-18 09:39:18.60	13.83	33.71	-38.5	-39.2	25.1	0.00e+00	0	36	0	2385510400	48	3958
2026-01-18 09:39:22.63	12.39	33.40	-38.4	-39.2	25.2	0.00e+00	0	36	0	2407530496	48	3920
2026-01-18 09:39:26.66	10.99	33.06	-38.4	-39.1	25.2	0.00e+00	0	36	0	2429550592	48	3877
2026-01-18 09:39:30.70	9.61	32.71	-38.2	-38.8	25.4	0.00e+00	0	36	0	2452619264	48	3775
2026-01-18 09:39:34.73	8.27	32.35	-38.5	-39.2	25.1	0.00e+00	0	36	0	2475687936	48	3923
2026-01-18 09:39:38.76	6.96	31.98	-38.5	-39.2	25.1	0.00e+00	0	36	0	2497708032	48	3942
2026-01-18 09:39:42.80	5.67	31.59	-38.7	-39.4	24.9	0.00e+00	0	36	0	2520776704	48	4045
2026-01-18 09:39:46.83	4.42	31.19	-38.6	-39.3	25.0	0.00e+00	0	36	0	2543845376	48	3995
2026-01-18 09:39:50.87	3.19	30.78	-38.5	-39.2	25.1	0.00e+00	0	36	0	2565865472	48	3955
2026-01-18 09:39:54.90	2.01	30.37	-38.6	-39.3	25.0	0.00e+00	0	36	0	2588934144	48	3963
2026-01-18 09:39:58.93	0.85	29.95	-38.7	-39.4	24.9	0.00e+00	0	36	0	2612002816	48	4047
2026-01-18 09:40:02.96	359.72	29.52	-38.5	-39.2	25.1	0.00e+00	0	36	0	2634022912	48	3952
2026-01-18 09:40:06.99	358.62	29.08	-38.6	-39.3	24.9	0.00e+00	0	36	0	2657091584	48	3998
2026-01-18 09:40:11.03	357.55	28.64	-38.7	-39.4	24.9	0.00e+00	0	36	0	2680160256	48	4013
2026-01-18 09:40:15.05	356.51	28.20	-38.8	-39.5	24.8	0.00e+00	0	36	0	2702180352	48	4080
2026-01-18 09:40:19.08	355.50	27.75	-38.7	-39.4	24.9	0.00e+00	0	36	0	2725249024	48	4022
2026-01-18 09:40:23.12	354.52	27.30	-38.9	-39.6	24.6	0.00e+00	0	36	0	2748317696	48	4140
2026-01-18 09:40:27.15	353.56	26.85	-39.0	-39.7	24.6	0.00e+00	0	36	0	2770337792	48	4170
2026-01-18 09:40:31.18	352.64	26.40	-39.1	-39.8	24.5	0.00e+00	0	36	0	2792357888	48	4224
2026-01-18 09:40:35.22	351.73	25.94	-39.3	-40.1	24.3	0.00e+00	0	36	0	2815426560	49	4099
2026-01-18 09:40:39.25	350.86	25.49	-39.3	-40.1	24.3	0.00e+00	0	36	0	2838495232	49	4106
2026-01-18 09:40:43.28	350.01	25.04	-39.8	-40.5	23.8	0.00e+00	0	36	0	2860515328	50	4097
2026-01-18 09:40:47.31	349.18	24.59	-39.6	-40.3	24.0	0.00e+00	0	36	0	2883584000	50	3982
2026-01-18 09:40:51.35	348.38	24.14	-39.4	-40.1	24.2	0.00e+00	0	36	0	2906652672	50	3890
2026-01-18 09:40:55.38	347.60	23.69	-39.6	-40.3	24.0	0.00e+00	0	36	0	2928672768	50	3996
2026-01-18 09:40:59.41	346.84	23.24	-39.8	-40.6	23.7	0.00e+00	0	36	0	2951741440	50	4107
2026-01-18 09:41:03.44	346.11	22.80	-39.6	-40.3	24.0	0.00e+00	0	36	0	2974810112	50	3987
2026-01-18 09:41:07.47	345.39	22.36	-39.5	-40.2	24.1	0.00e+00	0	36	0	2996830208	50	3932
2026-01-18 09:41:11.50	344.70	21.92	-39.6	-40.3	24.0	0.00e+00	0	36	0	3019898880	50	3978
2026-01-18 09:41:15.53	344.03	21.49	-39.5	-40.2	24.0	0.00e+00	0	36	0	3042967552	50	3956
2026-01-18 09:41:19.55	343.37	21.06	-39.8	-40.6	23.7	0.00e+00	0	36	0	3064987648	50	4111
2026-01-18 09:41:23.59	342.73	20.63	-40.0	-40.7	23.6	0.00e+00	0	36	0	3088056320	50	4171
2026-01-18 09:41:27.62	342.12	20.20	-40.0	-40.8	23.5	0.00e+00	0	36	0	3111124992	50	4224
2026-01-18 09:41:31.65	341.51	19.78	-39.9	-40.7	23.6	0.00e+00	0	36	0	3133145088	50	4166
2026-01-18 09:41:35.68	340.93	19.36	-40.2	-40.9	23.3	0.00e+00	0	36	0	3155165184	50	4279
2026-01-18 09:41:39.71	340.36	18.95	-40.4	-41.1	23.1	0.00e+00	0	36	0	3178233856	51	4141
2026-01-18 09:41:43.74	339.80	18.54	-40.4	-41.2	23.0	0.00e+00	0	36	0	3201302528	51	4164
2026-01-18 09:41:47.77	339.27	18.14	-40.6	-41.4	22.9	0.00e+00	0	36	0	3223322624	51	4244
2026-01-18 09:41:51.80	338.74	17.73	-40.7	-41.5	22.8	0.00e+00	0	37	0	3246391296	51	4302
2026-01-18 09:41:55.83	338.23	17.34	-40.6	-41.4	22.7	0.00e+00	0	36	0	3269459968	52	4037
2026-01-18 09:41:59.86	337.73	16.94	-40.8	-41.6	22.6	0.00e+00	0	36	0	3291480064	52	4102
2026-01-18 09:42:03.90	337.25	16.55	-40.9	-41.8	22.4	0.00e+00	0	36	0	3314548736	52	4195
2026-01-18 09:42:07.93	336.78	16.17	-41.0	-41.8	22.4	0.00e+00	0	36	0	3337617408	52	4227
2026-01-18 09:42:11.96	336.32	15.79	-41.1	-41.9	22.3	0.00e+00	0	36	0	3359637504	52	4252
2026-01-18 09:42:15.99	335.87	15.41	-41.1	-41.9	22.2	0.00e+00	0	36	0	3382706176	52	4271
2026-01-18 09:42:20.02	335.44	15.04	-41.3	-42.2	22.0	0.00e+00	0	36	0	3405774848	53	4169
2026-01-18 09:42:24.05	335.01	14.67	-41.5	-42.4	21.8	0.00e+00	0	36	0	3427794944	53	4250
2026-01-18 09:42:28.08	334.60	14.30	-41.6	-42.4	21.7	0.00e+00	0	36	0	3450863616	53	4274
2026-01-18 09:42:32.11	334.20	13.94	-41.5	-42.3	21.7	0.00e+00	0	36	0	3473932288	53	4241
2026-01-18 09:42:36.13	333.80	13.58	-41.6	-42.4	21.7	0.00e+00	0	36	0	3495952384	53	4264
2026-01-18 09:42:40.17	333.42	13.23	-41.8	-42.6	21.5	0.00e+00	0	36	0	3517972480	54	4133
2026-01-18 09:42:44.20	333.05	12.88	-41.6	-42.5	21.6	0.00e+00	0	36	0	3541041152	54	4075
2026-01-18 09:42:48.23	332.68	12.53	-41.9	-42.8	21.3	0.00e+00	0	36	0	3564109824	54	4226
2026-01-18 09:42:52.27	332.32	12.19	-42.0	-43.0	21.1	0.00e+00	0	36	0	3586129920	54	4296
2026-01-18 09:42:56.29	331.98	11.85	-42.2	-43.1	20.9	0.00e+00	0	36	0	3609198592	54	4357
2026-01-18 09:43:00.33	331.63	11.52	-42.2	-43.1	20.9	0.00e+00	0	36	0	3632267264	55	4137
2026-01-18 09:43:04.36	331.30	11.19	-42.2	-43.1	20.9	0.00e+00	0	36	0	3654287360	55	4130
2026-01-18 09:43:08.39	330.98	10.86	-42.1	-43.0	21.0	0.00e+00	0	36	0	3677356032	55	4090
2026-01-18 09:43:12.43	330.66	10.53	-42.2	-43.1	20.8	0.00e+00	0	36	0	3700424704	55	4125
2026-01-18 09:43:16.46	330.35	10.21	-42.4	-43.3	20.6	0.00e+00	0	36	0	3722444800	55	4227
2026-01-18 09:43:20.49	330.05	9.89	-42.4	-43.4	20.6	0.00e+00	0	36	0	3745513472	55	4252
2026-01-18 09:43:24.53	329.75	9.58	-42.6	-43.6	20.4	0.00e+00	0	36	0	3768582144	55	4349
2026-01-18 09:43:28.56	329.46	9.27	-43.0	-44.0	20.0	0.00e+00	0	36	0	3790602240	56	4336
2026-01-18 09:43:32.59	329.18	8.96	-42.8	-43.8	20.2	0.00e+00	0	36	0	3813670912	56	4203
2026-01-18 09:43:36.62	328.91	8.65	-42.9	-43.9	20.1	0.00e+00	0	36	0	3836739584	56	4248
2026-01-18 09:43:40.65	328.64	8.35	-43.0	-44.0	20.0	0.00e+00	0	36	0	3858759680	56	4302
2026-01-18 09:43:44.69	328.37	8.05	-43.0	-44.0	19.9	0.00e+00	0	36	0	3880779776	56	4302
2026-01-18 09:43:48.72	328.11	7.75	-43.0	-44.0	19.9	0.00e+00	0	36	0	3903848448	56	4339
2026-01-18 09:43:52.75	327.86	7.46	-43.2	-44.2	19.6	0.00e+00	0	36	0	3926917120	56	4431
2026-01-18 09:43:56.78	327.61	7.17	-43.3	-44.4	19.5	0.00e+00	0	36	0	3948937216	57	4257
2026-01-18 09:44:00.81	327.37	6.88	-43.5	-44.5	19.3	0.00e+00	0	36	0	3972005888	57	4327
2026-01-18 09:44:04.84	327.13	6.60	-43.6	-44.7	19.1	0.00e+00	0	36	0	3995074560	57	4422
2026-01-18 09:44:08.88	326.90	6.31	-43.7	-44.8	19.0	0.00e+00	0	36	0	4017094656	58	4215
2026-01-18 09:44:12.91	326.67	6.03	-43.8	-44.9	18.8	0.00e+00	0	36	0	4040163328	58	4260
2026-01-18 09:44:16.94	326.45	5.75	-43.7	-44.8	18.9	0.00e+00	0	36	0	4063232000	58	4221
2026-01-18 09:44:20.97	326.23	5.48	-43.8	-45.0	18.7	0.00e+00	0	36	0	4085252096	58	4307
2026-01-18 09:44:25.00	326.01	5.21	-43.9	-45.0	18.6	0.00e+00	0	36	0	4108320768	58	4340
2026-01-18 09:44:29.03	325.80	4.94	-52.1	-60.6	4.4	4.59e-02	0	36	0	4130340864	74	10376
2026-01-18 09:44:33.07	325.59	4.67	-53.3	-65.3	3.8	8.47e-01	0	36	104	4130340864	77	15002
2026-01-18 09:44:37.10	325.39	4.40	-53.8	-65.7	3.8	8.47e-01	0	36	104	4130340864	78	14861
2026-01-18 09:44:41.13	325.19	4.14	-54.0	-65.9	3.8	8.45e-01	0	36	104	4130340864	78	15209
2026-01-18 09:44:45.16	325.00	3.88	-54.0	-66.0	3.8	8.46e-01	0	36	104	4130340864	78	15276
2026-01-18 09:44:49.19	324.81	3.62	-54.0	-66.0	3.8	8.47e-01	0	36	104	4130340864	78	15335
2026-01-18 09:44:53.23	324.62	3.36	-53.9	-65.9	3.8	8.47e-01	0	36	104	4130340864	78	15223
2026-01-18 09:44:57.27	324.44	3.11	-53.9	-65.9	3.8	8.46e-01	0	36	104	4130340864	78	15196
2026-01-18 09:45:01.30	324.26	2.85	-53.9	-65.9	3.8	8.45e-01	0	36	104	4130340864	78	15131
2026-01-18 09:45:05.33	324.08	2.60	-53.9	-65.9	3.8	8.46e-01	0	36	104	4130340864	78	15116
2026-01-18 09:45:09.36	323.91	2.35	-53.9	-65.9	3.8	8.47e-01	0	36	104	4130340864	78	15081
2026-01-18 09:45:13.39	323.74	2.11	-53.9	-65.9	3.8	8.47e-01	0	36	104	4130340864	78	15054

#Closed at: 2026-01-18 09:45:17
#Recorded file [4130 MB]: D:/lorett/data/31041_260118_123138.dat