passes_logs/2026/01/18/R3.2S_Murmansk/R3.2S_Murmansk__20260118_103948_AQUA_rec.log

#Pass ID: 20260118_103948_AQUA
#Satellite: AQUA
#Configuration: AQUA
#almurnet v.1.7.20251203
#Start time: 2026-01-18 10:39:49

#Version: 2.2.20231116
#Station: R3.2S_Murmansk
#Location: 33.079688 lon 68.888172 lat
#TLE: 1 27424U 02022A   26017.62394888  .00000781  00000+0  16630-3 0  9993
#TLE: 2 27424  98.4086 344.0954 0002010  75.0132 339.4723 14.61825944261279

#Time	Az	El	Level	Level2	SNR	BER	BlckErr	Temp	State	Recorded	gain1	gain2
2026-01-18 10:39:49.88	136.77	2.12	-53.4	-71.2	3.8	7.48e-01	0	34	0	0	78	27859
2026-01-18 10:39:53.91	136.69	2.39	-53.4	-71.2	3.8	7.45e-01	0	34	104	0	77	29501
2026-01-18 10:39:57.94	136.62	2.66	-53.4	-71.2	3.8	7.44e-01	0	34	104	0	77	29449
2026-01-18 10:40:01.97	136.54	2.94	-53.4	-71.1	3.8	7.48e-01	0	34	104	0	77	29165
2026-01-18 10:40:06.01	136.46	3.22	-53.4	-70.9	3.8	7.45e-01	0	34	104	0	77	28576
2026-01-18 10:40:10.03	136.38	3.50	-53.3	-70.3	3.8	7.44e-01	0	34	104	0	77	26505
2026-01-18 10:40:14.06	136.30	3.78	-53.1	-65.2	5.2	7.06e-01	0	34	0	0	77	14855
2026-01-18 10:40:18.09	136.22	4.07	-52.8	-61.7	8.1	6.42e-01	135	34	0	6291456	77	9929
2026-01-18 10:40:22.12	136.13	4.36	-52.6	-60.7	9.2	6.33e-01	0	35	0	14155776	77	8814
2026-01-18 10:40:26.15	136.04	4.65	-50.7	-54.7	15.4	6.08e-01	0	35	0	21495808	73	5576
2026-01-18 10:40:30.18	135.95	4.95	-48.2	-50.5	19.6	6.08e-01	0	35	0	28835840	68	4582
2026-01-18 10:40:34.21	135.86	5.25	-48.9	-51.5	18.4	6.08e-01	0	35	0	36700160	69	4850
2026-01-18 10:40:38.25	135.76	5.56	-46.8	-48.5	21.9	6.07e-01	0	35	0	44040192	65	4320
2026-01-18 10:40:42.28	135.66	5.87	-46.9	-48.7	21.7	6.07e-01	0	35	0	51904512	65	4432
2026-01-18 10:40:46.30	135.56	6.18	-46.9	-48.7	21.9	6.06e-01	0	35	0	59244544	65	4400
2026-01-18 10:40:50.34	135.46	6.50	-46.5	-48.2	22.4	6.06e-01	0	35	0	66584576	65	4161
2026-01-18 10:40:54.37	135.35	6.82	-46.5	-48.1	22.5	6.06e-01	0	35	0	74448896	64	4360
2026-01-18 10:40:58.40	135.24	7.14	-46.4	-48.0	22.6	6.07e-01	0	35	0	81788928	64	4330
2026-01-18 10:41:02.43	135.13	7.47	-46.3	-47.9	22.8	6.05e-01	0	35	0	89653248	64	4273
2026-01-18 10:41:06.47	135.01	7.81	-46.3	-47.9	22.8	6.07e-01	0	35	0	96993280	64	4274
2026-01-18 10:41:10.50	134.89	8.15	-46.3	-47.9	22.9	6.05e-01	0	35	0	104857600	64	4271
2026-01-18 10:41:14.53	134.77	8.50	-46.4	-48.0	22.8	6.06e-01	0	35	0	112197632	64	4330
2026-01-18 10:41:18.56	134.64	8.85	-46.4	-47.9	23.0	6.08e-01	0	35	0	119537664	64	4266
2026-01-18 10:41:22.59	134.51	9.20	-46.3	-47.8	23.1	6.05e-01	0	35	0	127401984	64	4234
2026-01-18 10:41:26.63	134.38	9.57	-46.1	-47.6	23.4	6.04e-01	0	35	0	134742016	64	4127
2026-01-18 10:41:30.66	134.24	9.93	-46.0	-47.4	23.6	6.06e-01	0	35	0	142606336	63	4291
2026-01-18 10:41:34.69	134.10	10.31	-45.8	-47.2	23.8	6.05e-01	0	35	0	149946368	63	4189
2026-01-18 10:41:38.72	133.95	10.69	-45.7	-47.1	24.0	6.05e-01	0	35	0	157286400	63	4131
2026-01-18 10:41:42.75	133.80	11.07	-45.8	-47.2	23.9	6.06e-01	0	35	0	165150720	63	4180
2026-01-18 10:41:46.78	133.65	11.47	-45.6	-47.0	24.2	6.05e-01	0	35	0	172490752	63	4082
2026-01-18 10:41:50.81	133.49	11.86	-45.5	-46.9	24.3	6.06e-01	0	35	0	180355072	63	4017
2026-01-18 10:41:54.84	133.32	12.27	-45.5	-46.8	24.4	6.04e-01	0	35	0	187695104	62	4223
2026-01-18 10:41:58.87	133.15	12.69	-45.4	-46.7	23.9	6.06e-01	0	35	0	195559424	62	4188
2026-01-18 10:42:02.91	132.97	13.11	-45.2	-46.5	24.7	6.05e-01	0	35	0	202899456	62	4093
2026-01-18 10:42:06.94	132.79	13.54	-45.4	-46.7	24.6	6.05e-01	0	35	0	210239488	62	4165
2026-01-18 10:42:10.97	132.60	13.98	-45.5	-46.8	24.5	6.06e-01	0	35	0	218103808	62	4226
2026-01-18 10:42:15.00	132.41	14.42	-45.4	-46.7	24.6	6.04e-01	0	35	0	225443840	62	4171
2026-01-18 10:42:19.03	132.20	14.88	-45.4	-46.7	24.6	6.08e-01	0	35	0	233308160	62	4167
2026-01-18 10:42:23.06	131.99	15.34	-45.1	-46.3	25.0	6.05e-01	0	35	0	240648192	62	3993
2026-01-18 10:42:27.09	131.78	15.82	-44.8	-46.1	25.2	6.07e-01	0	35	0	248512512	61	4117
2026-01-18 10:42:31.12	131.55	16.30	-44.7	-46.0	25.3	6.07e-01	0	35	0	255852544	61	4066
2026-01-18 10:42:35.15	131.32	16.80	-44.6	-45.8	25.5	6.06e-01	0	35	0	263192576	61	3992
2026-01-18 10:42:39.19	131.08	17.30	-44.8	-46.1	25.2	6.06e-01	0	35	0	271056896	61	4121
2026-01-18 10:42:43.21	130.82	17.82	-45.1	-46.3	25.1	6.04e-01	0	35	0	278396928	61	4225
2026-01-18 10:42:47.25	130.56	18.35	-45.0	-46.3	25.1	6.07e-01	0	35	0	285736960	61	4218
2026-01-18 10:42:51.28	130.29	18.89	-45.0	-46.2	25.1	6.06e-01	0	35	0	293601280	61	4193
2026-01-18 10:42:55.31	130.01	19.44	-44.9	-46.1	25.3	6.07e-01	0	35	0	300941312	61	4143
2026-01-18 10:42:59.34	129.71	20.01	-44.9	-46.2	25.3	6.06e-01	0	35	0	308805632	61	4151
2026-01-18 10:43:03.37	129.40	20.59	-45.2	-46.4	25.1	6.04e-01	0	35	0	316145664	61	4277
2026-01-18 10:43:07.40	129.08	21.18	-45.4	-46.7	24.8	6.05e-01	0	35	0	324009984	61	4427
2026-01-18 10:43:11.43	128.75	21.79	-45.4	-46.7	24.8	6.07e-01	0	35	0	331350016	61	4434
2026-01-18 10:43:15.47	128.40	22.42	-45.0	-46.3	25.3	6.04e-01	0	35	0	338690048	61	4197
2026-01-18 10:43:19.50	128.04	23.06	-45.4	-56.2	3.9	7.39e-01	0	36	104	342360064	61	13188
2026-01-18 10:43:23.53	127.66	23.71	-47.5	-58.6	3.9	7.45e-01	0	35	104	342360064	67	12333
2026-01-18 10:43:27.56	127.26	24.38	-45.7	-56.5	3.9	7.43e-01	0	35	104	342360064	63	12141
2026-01-18 10:43:31.59	126.84	25.07	-53.3	-66.5	3.8	7.47e-01	0	35	104	342360064	76	18169
2026-01-18 10:43:35.62	126.40	25.78	-49.7	-61.2	3.8	7.45e-01	0	35	104	342360064	69	14735
2026-01-18 10:43:39.65	125.94	26.51	-46.1	-57.0	3.9	7.39e-01	0	35	104	342360064	64	12137
2026-01-18 10:43:43.69	125.46	27.26	-46.0	-56.9	3.8	7.48e-01	0	36	104	342360064	63	12670
2026-01-18 10:43:47.72	124.95	28.03	-45.7	-56.5	3.8	7.45e-01	0	36	104	342360064	63	12219
2026-01-18 10:43:51.75	124.41	28.81	-45.4	-56.2	3.8	7.44e-01	0	36	104	342360064	62	12437
2026-01-18 10:43:55.79	123.85	29.62	-45.4	-56.2	3.8	7.41e-01	0	35	104	342360064	62	12398
2026-01-18 10:43:59.82	123.25	30.46	-45.1	-55.9	3.8	7.46e-01	0	36	104	342360064	61	12777
2026-01-18 10:44:03.85	122.62	31.31	-54.6	-71.3	3.8	7.43e-01	0	36	104	342360064	79	26541
2026-01-18 10:44:07.88	121.96	32.19	-51.5	-63.8	3.8	7.44e-01	0	36	104	342360064	73	15841
2026-01-18 10:44:11.91	121.25	33.09	-45.9	-56.7	3.8	7.42e-01	0	36	104	342360064	63	12488
2026-01-18 10:44:15.94	120.51	34.01	-45.5	-56.4	3.8	7.44e-01	0	36	104	342360064	62	12682
2026-01-18 10:44:19.97	119.71	34.96	-46.9	-57.9	3.8	7.44e-01	0	36	104	342360064	65	12736
2026-01-18 10:44:24.01	118.87	35.94	-46.8	-57.8	3.8	7.44e-01	0	36	104	342360064	64	13298
2026-01-18 10:44:28.04	117.97	36.94	-47.8	-58.9	3.8	7.43e-01	0	35	104	342360064	66	13445
2026-01-18 10:44:32.07	117.01	37.96	-47.6	-58.7	3.8	7.39e-01	0	36	104	342360064	66	13191
2026-01-18 10:44:36.10	115.99	39.01	-54.6	-71.2	3.8	7.44e-01	0	36	104	342360064	79	26174
2026-01-18 10:44:40.13	114.90	40.08	-52.5	-65.6	3.8	7.41e-01	0	36	104	342360064	76	16467
2026-01-18 10:44:44.17	113.72	41.17	-48.2	-59.4	3.8	7.45e-01	0	36	104	342360064	67	13516
2026-01-18 10:44:48.20	112.47	42.29	-46.9	-57.8	3.8	7.45e-01	0	36	104	342360064	65	12639
2026-01-18 10:44:52.23	111.12	43.42	-47.5	-58.6	3.8	7.48e-01	0	36	104	342360064	65	13772
2026-01-18 10:44:56.26	109.66	44.57	-47.4	-58.5	3.8	7.43e-01	0	36	104	342360064	66	12814
2026-01-18 10:45:00.29	108.10	45.73	-47.7	-58.9	3.8	7.44e-01	0	36	104	342360064	66	13430
2026-01-18 10:45:04.32	106.42	46.91	-47.1	-58.1	3.9	7.48e-01	0	36	104	342360064	65	13061
2026-01-18 10:45:08.35	104.60	48.08	-47.6	-58.5	3.8	7.45e-01	0	36	104	342360064	65	13662
2026-01-18 10:45:12.38	102.63	49.26	-46.8	-57.6	3.8	7.43e-01	0	36	104	342360064	64	13105
2026-01-18 10:45:16.42	100.50	50.43	-47.0	-58.0	3.8	7.43e-01	0	36	104	342360064	65	12828
2026-01-18 10:45:20.45	98.20	51.59	-47.3	-58.4	3.8	7.43e-01	0	36	104	342360064	65	13473
2026-01-18 10:45:24.48	95.72	52.72	-46.4	-57.2	3.8	7.44e-01	0	36	104	342360064	64	12491
2026-01-18 10:45:28.50	93.04	53.82	-46.9	-57.8	3.8	7.44e-01	0	36	104	342360064	64	13404
2026-01-18 10:45:32.53	90.14	54.88	-46.7	-57.7	3.8	7.42e-01	0	36	104	342360064	64	13173
2026-01-18 10:45:36.57	87.02	55.88	-47.8	-59.0	3.8	7.42e-01	0	36	104	342360064	66	13657
2026-01-18 10:45:40.60	83.69	56.80	-47.5	-58.6	3.9	7.43e-01	0	36	104	342360064	67	12237
2026-01-18 10:45:44.63	80.13	57.64	-50.9	-62.8	3.8	7.47e-01	0	36	104	342360064	72	14924
2026-01-18 10:45:48.66	76.35	58.38	-52.3	-64.9	3.8	7.43e-01	0	36	104	342360064	76	15107
2026-01-18 10:45:52.69	72.37	59.01	-51.1	-63.1	3.8	7.44e-01	0	36	104	342360064	74	13809
2026-01-18 10:45:56.72	68.22	59.51	-48.2	-59.2	3.8	7.44e-01	0	36	104	342360064	68	12492
2026-01-18 10:46:00.75	63.92	59.87	-52.8	-65.6	3.8	7.42e-01	0	36	104	342360064	75	17288
2026-01-18 10:46:04.78	59.53	60.09	-51.8	-64.3	3.9	7.46e-01	0	36	104	342360064	75	14918
2026-01-18 10:46:08.82	55.08	60.15	-50.9	-62.5	3.8	7.45e-01	0	36	104	342360064	73	13646
2026-01-18 10:46:12.85	50.65	60.06	-48.4	-59.6	3.8	7.44e-01	0	36	104	342360064	68	12993
2026-01-18 10:46:16.88	46.27	59.82	-54.0	-68.4	3.8	7.44e-01	0	36	104	342360064	78	20128
2026-01-18 10:46:20.91	42.00	59.43	-51.9	-64.5	3.9	7.44e-01	0	36	104	342360064	75	15265
2026-01-18 10:46:24.94	37.88	58.90	-50.4	-61.7	3.8	7.47e-01	0	36	104	342360064	72	13231
2026-01-18 10:46:28.97	33.94	58.25	-47.8	-58.9	3.8	7.42e-01	0	36	104	342360064	67	12735
2026-01-18 10:46:33.00	30.21	57.49	-49.8	-61.6	3.8	7.41e-01	0	36	104	342360064	71	13727
2026-01-18 10:46:37.04	26.69	56.63	-47.8	-59.0	3.8	7.45e-01	0	36	104	342360064	67	12905
2026-01-18 10:46:41.07	23.40	55.69	-49.1	-60.6	3.8	7.44e-01	0	36	104	342360064	69	13872
2026-01-18 10:46:45.10	20.33	54.69	-46.1	-57.0	3.8	7.45e-01	0	36	104	342360064	63	12824
2026-01-18 10:46:49.13	17.48	53.62	-52.7	-65.6	3.8	7.45e-01	0	36	104	342360064	76	16446
2026-01-18 10:46:53.17	14.84	52.52	-48.7	-59.8	3.8	7.42e-01	0	36	104	342360064	69	12621
2026-01-18 10:46:57.20	12.39	51.38	-48.9	-60.5	3.8	7.46e-01	0	36	104	342360064	69	13650
2026-01-18 10:47:01.23	10.13	50.22	-46.4	-57.4	3.9	7.45e-01	0	36	104	342360064	64	12807
2026-01-18 10:47:05.26	8.04	49.05	-52.0	-64.4	3.8	7.43e-01	0	36	104	342360064	75	15096
2026-01-18 10:47:09.29	6.11	47.88	-47.5	-58.5	3.8	7.43e-01	0	36	104	342360064	66	12851
2026-01-18 10:47:13.32	4.32	46.71	-49.9	-61.5	3.8	7.44e-01	0	36	104	342360064	70	14397
2026-01-18 10:47:17.35	2.66	45.54	-46.2	-57.1	3.8	7.47e-01	0	36	104	342360064	64	12251
2026-01-18 10:47:21.38	1.12	44.38	-51.9	-64.1	3.8	7.45e-01	0	36	104	342360064	74	15507
2026-01-18 10:47:25.41	359.69	43.24	-47.5	-58.5	3.8	7.45e-01	0	36	104	342360064	67	12194
2026-01-18 10:47:29.45	358.36	42.11	-51.7	-64.1	3.8	7.46e-01	0	36	104	342360064	73	16395
2026-01-18 10:47:33.48	357.12	41.00	-47.2	-58.2	3.8	7.45e-01	0	36	104	342360064	66	12422
2026-01-18 10:47:37.51	355.97	39.92	-53.3	-67.2	3.8	7.47e-01	0	36	104	342360064	77	18619
2026-01-18 10:47:41.54	354.89	38.85	-47.5	-58.3	3.8	7.46e-01	0	36	104	342360064	66	12620
2026-01-18 10:47:45.57	353.88	37.81	-54.1	-68.7	3.7	7.47e-01	0	36	104	342360064	78	20970
2026-01-18 10:47:49.60	352.94	36.80	-47.3	-58.5	3.8	7.45e-01	0	36	104	342360064	66	12825
2026-01-18 10:47:53.63	352.05	35.81	-53.9	-68.3	3.8	7.45e-01	0	36	104	342360064	78	19900
2026-01-18 10:47:57.66	351.22	34.84	-46.5	-57.6	3.8	7.46e-01	0	36	104	342360064	65	12235
2026-01-18 10:48:01.69	350.44	33.90	-54.1	-69.0	3.8	7.47e-01	0	36	104	342360064	78	21544
2026-01-18 10:48:05.73	349.70	32.98	-45.8	-56.5	3.8	7.45e-01	0	36	104	342360064	63	12170
2026-01-18 10:48:09.76	349.01	32.09	-53.7	-67.9	3.8	7.46e-01	0	36	104	342360064	77	20273
2026-01-18 10:48:13.79	348.35	31.22	-45.3	-56.0	3.8	7.45e-01	0	36	104	342360064	62	12098
2026-01-18 10:48:17.82	347.73	30.37	-54.1	-69.2	3.8	7.46e-01	0	36	104	342360064	78	22167
2026-01-18 10:48:21.85	347.14	29.54	-45.4	-56.1	3.8	7.44e-01	0	36	104	342360064	62	12286
2026-01-18 10:48:25.88	346.58	28.74	-54.2	-69.9	3.8	7.45e-01	0	36	104	342360064	79	22720
2026-01-18 10:48:29.91	346.06	27.96	-45.4	-56.3	3.8	7.42e-01	0	36	104	342360064	62	12534
2026-01-18 10:48:33.94	345.55	27.20	-54.2	-69.5	3.8	7.46e-01	0	36	104	342360064	78	22865
2026-01-18 10:48:37.97	345.08	26.46	-45.8	-56.7	3.8	7.47e-01	0	36	104	342360064	63	12434
2026-01-18 10:48:42.01	344.62	25.73	-54.2	-69.7	3.9	7.44e-01	0	36	104	342360064	79	22114
2026-01-18 10:48:46.03	344.19	25.03	-45.9	-56.7	3.8	7.43e-01	0	36	104	342360064	63	12486
2026-01-18 10:48:50.07	343.77	24.34	-54.2	-69.6	3.8	7.46e-01	0	36	104	342360064	78	23296
2026-01-18 10:48:54.10	343.38	23.68	-46.0	-56.9	3.8	7.43e-01	0	36	104	342360064	63	12798
2026-01-18 10:48:58.13	343.00	23.02	-53.7	-68.4	3.9	7.44e-01	0	36	104	342360064	78	20103
2026-01-18 10:49:02.16	342.64	22.39	-46.0	-56.8	3.8	7.44e-01	0	36	104	342360064	63	12538
2026-01-18 10:49:06.19	342.30	21.77	-53.1	-67.1	3.9	7.44e-01	0	36	104	342360064	78	17357
2026-01-18 10:49:10.22	341.97	21.17	-46.1	-57.1	3.8	7.45e-01	0	36	104	342360064	64	12271
2026-01-18 10:49:14.25	341.65	20.58	-52.8	-58.5	5.0	7.08e-01	0	36	104	342360064	77	6807
2026-01-18 10:49:18.29	341.35	20.00	-45.6	-46.9	24.7	6.01e-01	0	36	0	349175808	63	4034
2026-01-18 10:49:22.32	341.06	19.44	-45.6	-46.9	24.7	6.01e-01	0	36	0	356515840	63	4013
2026-01-18 10:49:26.35	340.78	18.89	-45.3	-46.6	24.9	6.02e-01	0	36	0	363855872	62	4123
2026-01-18 10:49:30.38	340.51	18.35	-45.3	-46.6	24.9	6.03e-01	0	36	0	371720192	62	4109
2026-01-18 10:49:34.41	340.25	17.83	-45.3	-46.6	24.9	6.01e-01	0	36	0	379060224	62	4132
2026-01-18 10:49:38.44	340.01	17.31	-45.4	-46.8	24.8	6.01e-01	0	36	0	386924544	62	4196
2026-01-18 10:49:42.47	339.77	16.81	-45.5	-46.8	24.7	6.02e-01	0	36	0	394264576	62	4212
2026-01-18 10:49:46.50	339.54	16.32	-45.6	-46.9	24.6	6.01e-01	0	36	0	402128896	62	4260
2026-01-18 10:49:50.53	339.31	15.84	-45.6	-46.9	24.6	6.01e-01	0	36	0	409468928	62	4271
2026-01-18 10:49:54.55	339.10	15.37	-45.5	-46.8	24.7	5.99e-01	0	36	0	416808960	62	4224
2026-01-18 10:49:58.58	338.89	14.90	-45.5	-46.8	24.6	6.01e-01	0	36	0	424673280	62	4238
2026-01-18 10:50:02.61	338.69	14.45	-45.6	-46.9	24.5	6.01e-01	0	36	0	432013312	62	4266
2026-01-18 10:50:06.65	338.50	14.01	-45.5	-46.9	24.6	6.00e-01	0	36	0	439877632	62	4248
2026-01-18 10:50:10.67	338.32	13.57	-45.6	-47.0	24.4	6.01e-01	0	36	0	447217664	62	4304
2026-01-18 10:50:14.70	338.14	13.14	-45.6	-47.0	24.4	6.03e-01	0	36	0	455081984	62	4312
2026-01-18 10:50:18.73	337.96	12.72	-45.5	-46.8	24.6	6.02e-01	0	36	0	462422016	62	4208
2026-01-18 10:50:22.76	337.79	12.31	-45.5	-46.8	24.5	6.00e-01	0	36	0	469762048	62	4242
2026-01-18 10:50:26.79	337.63	11.91	-45.7	-47.1	24.2	6.03e-01	0	36	0	477626368	62	4368
2026-01-18 10:50:30.82	337.47	11.51	-45.7	-47.1	24.2	6.01e-01	0	36	0	484966400	62	4368
2026-01-18 10:50:34.85	337.32	11.12	-45.9	-47.3	24.0	6.00e-01	0	36	0	492306432	62	4455
2026-01-18 10:50:38.88	337.17	10.73	-45.8	-47.2	24.1	5.99e-01	0	36	0	500170752	62	4414
2026-01-18 10:50:42.91	337.03	10.36	-45.9	-47.3	23.9	6.00e-01	0	36	0	507510784	62	4483
2026-01-18 10:50:46.94	336.89	9.98	-45.9	-47.3	23.9	6.00e-01	0	36	0	515375104	62	4485
2026-01-18 10:50:50.98	336.76	9.62	-46.1	-47.5	23.7	6.02e-01	0	36	0	522715136	62	4568
2026-01-18 10:50:55.01	336.63	9.26	-46.1	-47.5	23.7	6.01e-01	0	36	0	530579456	62	4594
2026-01-18 10:50:59.05	336.50	8.90	-46.2	-47.7	23.5	6.01e-01	0	36	0	537919488	63	4426
2026-01-18 10:51:03.08	336.37	8.55	-46.3	-47.7	23.4	6.01e-01	0	36	0	545783808	63	4435
2026-01-18 10:51:07.11	336.26	8.21	-46.5	-48.0	23.2	6.04e-01	0	36	0	553123840	63	4581
2026-01-18 10:51:11.14	336.14	7.87	-46.4	-48.0	23.2	6.02e-01	0	36	0	560463872	63	4552
2026-01-18 10:51:15.17	336.03	7.54	-46.6	-48.1	23.0	6.01e-01	0	36	0	568328192	63	4627
2026-01-18 10:51:19.20	335.92	7.21	-46.6	-48.2	22.9	5.99e-01	0	36	0	575668224	63	4666
2026-01-18 10:51:23.23	335.81	6.88	-46.7	-48.3	22.6	6.02e-01	0	36	0	583532544	64	4469
2026-01-18 10:51:27.26	335.71	6.56	-46.5	-48.1	22.8	6.02e-01	0	36	0	590872576	64	4345
2026-01-18 10:51:31.29	335.60	6.25	-46.8	-48.7	22.2	6.02e-01	0	36	0	598736896	64	4670
2026-01-18 10:51:35.33	335.51	5.93	-46.0	-48.4	22.4	6.02e-01	0	36	0	606076928	64	4514
2026-01-18 10:51:39.36	335.41	5.63	-46.5	-48.7	22.0	6.00e-01	0	36	0	613416960	64	4660
2026-01-18 10:51:43.39	335.32	5.32	-46.8	-48.6	22.1	6.02e-01	0	36	0	621281280	64	4618
2026-01-18 10:51:47.42	335.23	5.02	-48.0	-50.1	20.8	6.01e-01	0	36	0	628621312	66	4886
2026-01-18 10:51:51.45	335.14	4.72	-54.8	-72.6	3.8	7.45e-01	0	36	104	629669888	80	29171
2026-01-18 10:51:55.48	335.05	4.43	-55.2	-73.0	3.8	7.46e-01	0	36	104	629669888	80	30604
2026-01-18 10:51:59.52	334.97	4.14	-55.4	-73.2	3.8	7.47e-01	0	36	104	629669888	81	29605
2026-01-18 10:52:03.55	334.89	3.86	-55.5	-73.3	3.8	7.44e-01	0	36	104	629669888	81	29790
2026-01-18 10:52:07.58	334.81	3.57	-55.5	-73.3	3.8	7.47e-01	0	36	104	629669888	81	29972
2026-01-18 10:52:11.61	334.73	3.29	-55.4	-73.3	3.8	7.44e-01	0	36	104	629669888	81	29741
2026-01-18 10:52:15.65	334.66	3.01	-55.4	-73.2	3.8	7.44e-01	0	36	104	629669888	81	29676
2026-01-18 10:52:19.68	334.58	2.74	-55.4	-73.2	3.8	7.48e-01	0	36	104	629669888	81	29605
2026-01-18 10:52:23.71	334.51	2.47	-55.4	-73.2	3.8	7.44e-01	0	36	104	629669888	81	29476
2026-01-18 10:52:27.74	334.44	2.20	-55.4	-73.2	3.8	7.45e-01	0	36	104	629669888	81	29507

#Closed at: 2026-01-18 10:52:30
#Recorded file [629 MB]: D:/lorett/data/31041_260118_133949.dat