passes_logs/2026/01/18/R3.2S_Murmansk/R3.2S_Murmansk__20260118_214557_NOAA_21_JPSS-2_rec.log

#Pass ID: 20260118_214557_NOAA 21 (JPSS-2)
#Satellite: NOAA 21 (JPSS-2)
#Configuration: NOAA-21
#almurnet v.1.7.20251203
#Start time: 2026-01-18 21:45:56

#Version: 2.2.20231116
#Station: R3.2S_Murmansk
#Location: 33.079688 lon 68.888172 lat
#TLE: 1 54234U 22150A   26018.60745868  .00000048  00000+0  43754-4 0  9997
#TLE: 2 54234  98.7503 319.4636 0000607 264.0480  96.0627 14.19535445165329

#Time	Az	El	Level	Level2	SNR	BER	BlckErr	Temp	State	Recorded	gain1	gain2
2026-01-18 21:45:56.84	18.30	1.99	-51.5	-64.2	3.8	1.49e+00	0	34	0	0	74	15748
2026-01-18 21:45:59.85	18.55	2.14	-51.5	-64.2	3.8	1.49e+00	0	34	104	0	73	16601
2026-01-18 21:46:02.88	18.82	2.29	-51.5	-64.2	3.8	1.49e+00	0	35	104	0	73	16650
2026-01-18 21:46:05.90	19.08	2.44	-51.5	-64.2	3.8	1.49e+00	0	35	104	0	73	16659
2026-01-18 21:46:08.93	19.35	2.59	-51.5	-64.3	3.8	1.49e+00	0	35	104	0	73	16711
2026-01-18 21:46:11.95	19.61	2.75	-51.5	-64.3	3.8	1.49e+00	0	35	104	0	73	16728
2026-01-18 21:46:14.98	19.89	2.90	-51.5	-64.2	3.8	1.49e+00	0	35	104	0	73	16606
2026-01-18 21:46:18.00	20.16	3.05	-51.5	-64.2	3.8	1.49e+00	0	35	104	0	73	16544
2026-01-18 21:46:21.02	20.44	3.20	-51.5	-64.2	3.8	1.49e+00	0	35	104	0	73	16523
2026-01-18 21:46:24.04	20.71	3.36	-51.5	-64.1	3.8	1.49e+00	0	35	104	0	73	16456
2026-01-18 21:46:27.07	21.00	3.51	-51.5	-64.1	3.8	1.49e+00	0	35	104	0	73	16426
2026-01-18 21:46:30.09	21.28	3.66	-51.5	-64.2	3.8	1.49e+00	0	35	104	0	73	16633
2026-01-18 21:46:33.12	21.57	3.82	-51.5	-64.1	3.8	1.49e+00	0	35	104	0	73	16399
2026-01-18 21:46:36.15	21.86	3.97	-51.5	-64.1	3.8	1.49e+00	0	35	104	0	73	16475
2026-01-18 21:46:39.17	22.16	4.13	-51.5	-64.2	3.8	1.49e+00	0	35	104	0	73	16563
2026-01-18 21:46:42.20	22.45	4.28	-51.4	-63.7	3.8	1.49e+00	0	36	104	0	73	15704
2026-01-18 21:46:45.22	22.75	4.44	-51.4	-63.6	3.8	1.49e+00	0	35	104	0	73	15500
2026-01-18 21:46:48.25	23.05	4.59	-51.4	-63.5	3.8	1.49e+00	0	36	104	0	73	15350
2026-01-18 21:46:51.27	23.36	4.75	-51.0	-59.9	4.0	1.06e+00	2	36	104	0	73	10084
2026-01-18 21:46:54.30	23.67	4.90	-50.7	-57.6	5.7	4.29e-01	0	36	0	7340032	73	7773
2026-01-18 21:46:57.32	23.98	5.06	-50.3	-56.1	6.8	2.28e-01	0	36	0	16777216	72	6945
2026-01-18 21:47:00.34	24.30	5.22	-50.9	-58.8	4.9	6.32e-01	0	35	0	26214400	72	9427
2026-01-18 21:47:03.36	24.61	5.37	-46.7	-48.7	14.7	7.00e-07	0	35	0	32505856	65	4419
2026-01-18 21:47:06.39	24.94	5.53	-46.1	-47.8	15.7	0.00e+00	0	36	0	41943040	64	4195
2026-01-18 21:47:09.42	25.26	5.69	-46.0	-47.7	15.9	0.00e+00	0	35	0	51380224	63	4413
2026-01-18 21:47:12.44	25.59	5.84	-45.9	-47.5	16.1	0.00e+00	0	35	0	60817408	63	4332
2026-01-18 21:47:15.46	25.92	6.00	-46.1	-47.8	15.9	0.00e+00	0	36	0	70254592	63	4455
2026-01-18 21:47:18.49	26.26	6.16	-45.9	-47.5	16.2	0.00e+00	0	36	0	79691776	63	4325
2026-01-18 21:47:21.51	26.59	6.32	-46.1	-47.8	16.0	0.00e+00	0	36	0	89128960	63	4467
2026-01-18 21:47:24.53	26.94	6.47	-46.2	-47.8	15.9	0.00e+00	0	36	0	98566144	63	4493
2026-01-18 21:47:27.55	27.28	6.63	-45.6	-47.1	16.7	0.00e+00	0	36	0	108003328	63	4101
2026-01-18 21:47:30.58	27.63	6.79	-45.9	-47.5	16.3	0.00e+00	0	36	0	117440512	63	4330
2026-01-18 21:47:33.61	27.98	6.95	-45.7	-47.2	16.7	0.00e+00	0	36	0	126877696	63	4151
2026-01-18 21:47:36.63	28.34	7.11	-45.2	-46.6	17.3	0.00e+00	0	36	0	136314880	62	4130
2026-01-18 21:47:39.65	28.70	7.27	-45.4	-46.9	17.1	0.00e+00	0	36	0	145752064	62	4263
2026-01-18 21:47:42.68	29.07	7.42	-45.9	-47.4	16.6	0.00e+00	0	36	0	155189248	62	4515
2026-01-18 21:47:45.70	29.43	7.58	-45.1	-46.4	17.5	0.00e+00	0	36	0	164626432	62	4027
2026-01-18 21:47:48.73	29.81	7.74	-45.2	-46.6	17.5	0.00e+00	0	36	0	174063616	62	4100
2026-01-18 21:47:51.75	30.18	7.90	-44.9	-46.2	17.8	0.00e+00	0	36	0	183500800	61	4154
2026-01-18 21:47:54.77	30.56	8.06	-44.9	-46.1	17.9	0.00e+00	0	36	0	192937984	61	4139
2026-01-18 21:47:57.80	30.94	8.22	-45.1	-46.4	17.6	0.00e+00	0	36	0	202375168	61	4275
2026-01-18 21:48:00.83	31.33	8.38	-45.1	-46.4	17.7	0.00e+00	0	36	0	211812352	61	4272
2026-01-18 21:48:03.85	31.72	8.53	-45.0	-46.3	17.8	0.00e+00	0	36	0	221249536	61	4212
2026-01-18 21:48:06.88	32.12	8.69	-44.9	-46.1	18.0	0.00e+00	0	36	0	230686720	61	4134
2026-01-18 21:48:09.90	32.52	8.85	-44.9	-46.1	18.0	0.00e+00	0	36	0	240123904	61	4135
2026-01-18 21:48:12.92	32.92	9.01	-44.7	-45.9	18.2	0.00e+00	0	36	0	249561088	61	4044
2026-01-18 21:48:15.95	33.33	9.16	-45.0	-46.3	17.9	0.00e+00	0	36	0	258998272	61	4217
2026-01-18 21:48:18.97	33.74	9.32	-44.7	-45.9	18.2	0.00e+00	0	36	0	268435456	61	4033
2026-01-18 21:48:21.99	34.16	9.48	-44.6	-45.8	18.3	0.00e+00	0	36	0	277872640	61	3973
2026-01-18 21:48:25.02	34.58	9.63	-44.4	-45.5	18.7	0.00e+00	0	36	0	287309824	60	4083
2026-01-18 21:48:28.04	35.01	9.79	-44.3	-45.5	18.7	0.00e+00	0	36	0	296747008	60	4069
2026-01-18 21:48:31.06	35.44	9.95	-44.4	-45.6	18.6	0.00e+00	0	36	0	306184192	60	4102
2026-01-18 21:48:34.08	35.87	10.10	-44.7	-45.9	18.3	0.00e+00	0	36	0	315621376	60	4255
2026-01-18 21:48:37.11	36.31	10.26	-44.4	-45.5	18.6	0.00e+00	0	36	0	325058560	60	4096
2026-01-18 21:48:40.13	36.75	10.41	-44.2	-45.4	18.8	0.00e+00	0	36	0	334495744	60	4010
2026-01-18 21:48:43.16	37.20	10.57	-44.2	-45.3	18.9	0.00e+00	0	36	0	343932928	60	4002
2026-01-18 21:48:46.19	37.65	10.72	-44.3	-45.5	18.8	0.00e+00	0	36	0	353370112	60	4067
2026-01-18 21:48:49.21	38.11	10.87	-44.2	-45.3	18.9	0.00e+00	0	36	0	362807296	60	3994
2026-01-18 21:48:52.23	38.57	11.02	-44.1	-45.2	19.0	0.00e+00	0	36	0	372244480	60	3950
2026-01-18 21:48:55.26	39.04	11.17	-44.5	-45.7	18.9	0.00e+00	0	36	0	381681664	59	4394
2026-01-18 21:48:58.28	39.51	11.33	-44.3	-45.4	19.1	0.00e+00	0	36	0	391118848	59	4289
2026-01-18 21:49:01.31	39.98	11.48	-44.3	-45.4	19.1	0.00e+00	0	36	0	400556032	59	4288
2026-01-18 21:49:04.33	40.46	11.62	-44.5	-45.6	19.0	0.00e+00	0	36	0	409993216	59	4356
2026-01-18 21:49:07.35	40.95	11.77	-44.4	-45.6	19.0	0.00e+00	0	36	0	420478976	59	4354
2026-01-18 21:49:10.38	41.44	11.92	-44.3	-45.4	19.1	0.00e+00	0	36	0	428867584	59	4286
2026-01-18 21:49:13.40	41.93	12.07	-44.5	-45.6	19.0	0.00e+00	0	36	0	438304768	59	4370
2026-01-18 21:49:16.42	42.43	12.21	-44.4	-45.6	19.0	0.00e+00	0	36	0	447741952	59	4353
2026-01-18 21:49:19.44	42.93	12.35	-44.4	-45.5	18.7	0.00e+00	0	36	0	457179136	60	4073
2026-01-18 21:49:22.47	43.44	12.50	-44.4	-45.5	18.8	0.00e+00	0	36	0	467664896	60	4086
2026-01-18 21:49:25.49	43.96	12.64	-44.3	-45.4	19.0	0.00e+00	0	36	0	476053504	60	4045
2026-01-18 21:49:28.51	44.48	12.78	-44.4	-45.6	18.8	0.00e+00	0	36	0	485490688	60	4105
2026-01-18 21:49:31.53	45.00	12.92	-44.4	-45.5	18.8	0.00e+00	0	36	0	494927872	60	4070
2026-01-18 21:49:34.56	45.53	13.06	-44.1	-45.2	19.1	0.00e+00	0	36	0	505413632	60	3941
2026-01-18 21:49:37.58	46.06	13.19	-44.4	-45.5	19.1	0.00e+00	0	36	0	514850816	59	4331
2026-01-18 21:49:40.61	46.60	13.33	-44.6	-45.8	18.9	0.00e+00	0	36	0	523239424	59	4442
2026-01-18 21:49:43.63	47.14	13.46	-44.3	-45.5	18.9	0.00e+00	0	36	0	532676608	60	4064
2026-01-18 21:49:46.65	47.69	13.59	-44.2	-45.3	19.0	0.00e+00	0	36	0	543162368	60	3974
2026-01-18 21:49:49.68	48.24	13.72	-44.1	-45.2	19.1	0.00e+00	0	36	0	552599552	60	3933
2026-01-18 21:49:52.70	48.79	13.85	-44.1	-45.2	18.9	0.00e+00	0	36	0	562036736	60	3949
2026-01-18 21:49:55.72	49.35	13.97	-44.2	-45.3	18.8	0.00e+00	0	36	0	570425344	60	3982
2026-01-18 21:49:58.74	49.92	14.10	-44.3	-45.4	18.7	0.00e+00	0	36	0	579862528	60	4051
2026-01-18 21:50:01.77	50.49	14.22	-44.3	-45.4	19.0	0.00e+00	0	36	0	590348288	59	4260
2026-01-18 21:50:04.79	51.06	14.34	-44.3	-45.4	19.0	0.00e+00	0	36	0	599785472	59	4251
2026-01-18 21:50:07.82	51.65	14.46	-44.2	-45.3	19.4	0.00e+00	0	36	0	609222656	59	4227
2026-01-18 21:50:10.84	52.23	14.58	-44.4	-45.5	19.2	0.00e+00	0	36	0	617611264	59	4310
2026-01-18 21:50:13.87	52.82	14.69	-44.1	-45.2	19.5	0.00e+00	0	36	0	628097024	59	4149
2026-01-18 21:50:16.89	53.41	14.80	-43.9	-44.9	19.7	0.00e+00	0	36	0	637534208	59	4032
2026-01-18 21:50:19.91	54.01	14.91	-44.0	-45.0	19.6	0.00e+00	0	36	0	646971392	59	4087
2026-01-18 21:50:22.94	54.61	15.02	-44.2	-45.3	19.4	0.00e+00	0	36	0	656408576	59	4194
2026-01-18 21:50:25.96	55.21	15.12	-44.2	-45.2	19.5	0.00e+00	0	36	0	665845760	59	4186
2026-01-18 21:50:28.98	55.82	15.23	-44.1	-45.1	19.5	0.00e+00	0	36	0	675282944	59	4134
2026-01-18 21:50:32.01	56.44	15.32	-43.9	-44.9	19.8	0.00e+00	0	36	0	684720128	59	4020
2026-01-18 21:50:35.03	57.05	15.42	-43.6	-44.6	20.0	0.00e+00	0	36	0	694157312	59	3901
2026-01-18 21:50:38.05	57.67	15.51	-43.9	-44.9	19.8	0.00e+00	0	36	0	703594496	59	4033
2026-01-18 21:50:41.08	58.30	15.61	-44.1	-45.2	19.5	0.00e+00	0	36	0	713031680	59	4168
2026-01-18 21:50:44.10	58.93	15.69	-44.0	-45.0	19.7	0.00e+00	0	36	0	722468864	59	4092
2026-01-18 21:50:47.13	59.56	15.78	-44.0	-45.0	19.7	0.00e+00	0	36	0	731906048	59	4076
2026-01-18 21:50:50.15	60.20	15.86	-43.8	-44.8	19.9	0.00e+00	0	36	0	741343232	59	3978
2026-01-18 21:50:53.18	60.84	15.94	-43.8	-44.8	19.9	0.00e+00	0	36	0	750780416	59	3976
2026-01-18 21:50:56.20	61.48	16.02	-43.9	-45.0	19.8	0.00e+00	0	36	0	760217600	59	4056
2026-01-18 21:50:59.22	62.13	16.09	-43.9	-45.0	19.8	0.00e+00	0	36	0	769654784	59	4061
2026-01-18 21:51:02.25	62.78	16.16	-43.9	-45.0	19.8	0.00e+00	0	36	0	779091968	59	4062
2026-01-18 21:51:05.27	63.43	16.23	-43.9	-44.9	19.9	0.00e+00	0	36	0	788529152	59	4017
2026-01-18 21:51:08.30	64.08	16.29	-43.9	-45.0	19.8	0.00e+00	0	36	0	797966336	59	4064
2026-01-18 21:51:11.32	64.74	16.35	-44.0	-45.1	19.7	0.00e+00	0	36	0	807403520	59	4115
2026-01-18 21:51:14.35	65.40	16.41	-44.0	-45.1	19.7	0.00e+00	0	36	0	816840704	59	4112
2026-01-18 21:51:17.37	66.06	16.46	-43.9	-44.9	19.8	0.00e+00	0	36	0	826277888	59	4019
2026-01-18 21:51:20.39	66.72	16.51	-44.0	-45.1	19.7	0.00e+00	0	36	0	835715072	59	4112
2026-01-18 21:51:23.41	67.39	16.55	-43.7	-44.7	20.1	0.00e+00	0	36	0	845152256	59	3938
2026-01-18 21:51:26.44	68.06	16.60	-43.7	-44.7	20.1	0.00e+00	0	36	0	854589440	59	3920
2026-01-18 21:51:29.47	68.73	16.63	-43.9	-44.9	19.9	0.00e+00	0	36	0	864026624	59	4037
2026-01-18 21:51:32.49	69.40	16.67	-43.8	-44.8	19.9	0.00e+00	0	36	0	873463808	59	4003
2026-01-18 21:51:35.51	70.07	16.70	-43.8	-44.8	20.0	0.00e+00	0	36	0	882900992	59	3963
2026-01-18 21:51:38.54	70.75	16.73	-43.9	-44.9	19.9	0.00e+00	0	36	0	892338176	59	4034
2026-01-18 21:51:41.56	71.42	16.75	-43.9	-45.0	19.8	0.00e+00	0	36	0	901775360	59	4061
2026-01-18 21:51:44.59	72.10	16.77	-44.0	-45.0	19.7	0.00e+00	0	36	0	911212544	59	4093
2026-01-18 21:51:47.61	72.78	16.79	-43.7	-44.7	20.0	0.00e+00	0	36	0	920649728	59	3946
2026-01-18 21:51:50.64	73.46	16.80	-43.9	-44.9	19.9	0.00e+00	0	36	0	930086912	59	4025
2026-01-18 21:51:53.66	74.14	16.81	-43.9	-45.0	19.8	0.00e+00	0	36	0	939524096	59	4068
2026-01-18 21:51:56.69	74.82	16.81	-43.9	-44.9	19.8	0.00e+00	0	36	0	948961280	59	4043
2026-01-18 21:51:59.70	75.49	16.81	-43.9	-45.0	19.8	0.00e+00	0	36	0	958398464	59	4052
2026-01-18 21:52:02.72	76.17	16.81	-44.0	-45.0	19.8	0.00e+00	0	36	0	967835648	59	4072
2026-01-18 21:52:05.75	76.85	16.80	-43.8	-44.8	19.9	0.00e+00	0	36	0	977272832	59	4004
2026-01-18 21:52:08.77	77.53	16.79	-43.9	-45.0	19.8	0.00e+00	0	36	0	986710016	59	4058
2026-01-18 21:52:11.80	78.21	16.78	-43.9	-44.9	19.9	0.00e+00	0	36	0	996147200	59	4051
2026-01-18 21:52:14.82	78.88	16.76	-44.0	-45.0	19.8	0.00e+00	0	36	0	1005584384	59	4094
2026-01-18 21:52:17.85	79.56	16.74	-44.1	-45.1	19.6	0.00e+00	0	36	0	1015021568	59	4140
2026-01-18 21:52:20.87	80.24	16.71	-44.1	-45.1	19.7	0.00e+00	0	36	0	1024458752	59	4132
2026-01-18 21:52:23.89	80.91	16.68	-43.8	-44.8	20.0	0.00e+00	0	36	0	1033895936	59	3988
2026-01-18 21:52:26.92	81.58	16.65	-44.2	-45.3	19.5	0.00e+00	0	36	0	1043333120	59	4215
2026-01-18 21:52:29.94	82.26	16.61	-44.2	-45.3	19.6	0.00e+00	0	36	0	1052770304	59	4200
2026-01-18 21:52:32.97	82.93	16.57	-44.0	-45.0	19.7	0.00e+00	0	36	0	1062207488	59	4068
2026-01-18 21:52:35.99	83.59	16.53	-43.9	-44.9	19.9	0.00e+00	0	36	0	1071644672	59	4036
2026-01-18 21:52:39.01	84.26	16.48	-43.9	-44.9	19.9	0.00e+00	0	36	0	1081081856	59	4043
2026-01-18 21:52:42.04	84.92	16.43	-44.0	-45.0	19.8	0.00e+00	0	36	0	1090519040	59	4072
2026-01-18 21:52:45.07	85.59	16.38	-44.2	-45.2	19.5	0.00e+00	0	36	0	1099956224	59	4193
2026-01-18 21:52:48.09	86.25	16.32	-43.8	-44.8	19.9	0.00e+00	0	36	0	1109393408	59	3991
2026-01-18 21:52:51.12	86.90	16.25	-44.0	-45.1	19.7	0.00e+00	0	36	0	1118830592	59	4099
2026-01-18 21:52:54.15	87.56	16.19	-43.9	-45.0	19.8	0.00e+00	0	36	0	1128267776	59	4054
2026-01-18 21:52:57.17	88.21	16.12	-44.0	-45.0	19.8	0.00e+00	0	36	0	1137704960	59	4090
2026-01-18 21:53:00.19	88.86	16.05	-43.9	-44.9	19.9	0.00e+00	0	36	0	1147142144	59	4034
2026-01-18 21:53:03.22	89.51	15.97	-43.8	-44.9	19.9	0.00e+00	0	36	0	1156579328	59	4010
2026-01-18 21:53:06.24	90.15	15.90	-43.7	-44.7	20.0	0.00e+00	0	36	0	1166016512	59	3946
2026-01-18 21:53:09.26	90.78	15.82	-43.5	-44.5	20.2	0.00e+00	0	36	0	1175453696	59	3848
2026-01-18 21:53:12.29	91.42	15.73	-43.6	-44.5	20.1	0.00e+00	0	36	0	1184890880	59	3860
2026-01-18 21:53:15.31	92.05	15.64	-43.7	-44.7	20.0	0.00e+00	0	36	0	1194328064	58	4187
2026-01-18 21:53:18.34	92.68	15.55	-43.7	-44.7	20.0	0.00e+00	0	36	0	1203765248	58	4148
2026-01-18 21:53:21.36	93.31	15.46	-43.8	-44.8	19.9	0.00e+00	0	36	0	1214251008	58	4240
2026-01-18 21:53:24.38	93.93	15.36	-43.8	-44.9	19.9	0.00e+00	0	36	0	1222639616	58	4248
2026-01-18 21:53:27.41	94.55	15.27	-43.5	-44.5	20.1	0.00e+00	0	36	0	1232076800	58	4067
2026-01-18 21:53:30.43	95.16	15.17	-43.7	-44.7	20.0	0.00e+00	0	36	0	1241513984	58	4172
2026-01-18 21:53:33.46	95.77	15.06	-43.7	-44.6	20.0	0.00e+00	0	36	0	1251999744	58	4141
2026-01-18 21:53:36.48	96.37	14.95	-43.7	-44.7	20.0	0.00e+00	0	36	0	1261436928	58	4182
2026-01-18 21:53:39.51	96.97	14.85	-43.5	-44.5	20.1	0.00e+00	0	36	0	1269825536	58	4089
2026-01-18 21:53:42.54	97.57	14.73	-43.6	-44.6	20.0	0.00e+00	0	36	0	1279262720	58	4138
2026-01-18 21:53:45.56	98.16	14.62	-44.0	-45.0	19.6	0.00e+00	0	36	0	1289748480	58	4329
2026-01-18 21:53:48.59	98.75	14.50	-44.1	-45.2	19.5	0.00e+00	0	36	0	1299185664	58	4410
2026-01-18 21:53:51.62	99.34	14.39	-43.9	-44.9	19.7	0.00e+00	0	36	0	1308622848	58	4265
2026-01-18 21:53:54.64	99.92	14.27	-43.8	-44.9	19.7	0.00e+00	0	36	0	1317011456	58	4254
2026-01-18 21:53:57.66	100.49	14.14	-44.2	-45.3	19.3	0.00e+00	0	36	0	1327497216	59	4225
2026-01-18 21:54:00.69	101.06	14.02	-44.4	-45.5	19.1	0.00e+00	0	36	0	1336934400	59	4299
2026-01-18 21:54:03.71	101.62	13.89	-44.3	-45.4	19.2	0.00e+00	0	36	0	1346371584	59	4291
2026-01-18 21:54:06.74	102.19	13.77	-44.4	-45.5	19.1	0.00e+00	0	36	0	1355808768	59	4312
2026-01-18 21:54:09.76	102.74	13.64	-44.0	-45.1	19.4	0.00e+00	0	36	0	1365245952	59	4127
2026-01-18 21:54:12.78	103.29	13.50	-44.2	-45.3	19.3	0.00e+00	0	36	0	1374683136	59	4232
2026-01-18 21:54:15.81	103.84	13.37	-44.4	-45.6	19.0	0.00e+00	0	36	0	1384120320	59	4358
2026-01-18 21:54:18.83	104.38	13.24	-44.6	-45.7	18.9	0.00e+00	0	36	0	1393557504	59	4422
2026-01-18 21:54:21.85	104.92	13.10	-44.1	-45.2	19.0	0.00e+00	0	36	0	1402994688	60	3954
2026-01-18 21:54:24.88	105.45	12.96	-44.4	-45.5	19.1	0.00e+00	0	36	0	1412431872	59	4313
2026-01-18 21:54:27.90	105.97	12.82	-44.5	-45.6	19.0	0.00e+00	0	36	0	1421869056	59	4375
2026-01-18 21:54:30.93	106.50	12.68	-44.5	-45.7	19.0	0.00e+00	0	36	0	1431306240	59	4403
2026-01-18 21:54:33.95	107.01	12.54	-44.4	-45.6	18.8	0.00e+00	0	36	0	1440743424	60	4099
2026-01-18 21:54:36.97	107.53	12.40	-44.3	-45.4	18.9	0.00e+00	0	36	0	1450180608	60	4042
2026-01-18 21:54:40.00	108.04	12.25	-44.4	-45.5	18.8	0.00e+00	0	36	0	1459617792	60	4083
2026-01-18 21:54:43.03	108.54	12.11	-44.3	-45.5	18.8	0.00e+00	0	36	0	1469054976	60	4060
2026-01-18 21:54:46.05	109.04	11.96	-44.2	-45.3	19.0	0.00e+00	0	36	0	1478492160	60	3982
2026-01-18 21:54:49.07	109.53	11.81	-44.4	-45.5	18.8	0.00e+00	0	36	0	1487929344	60	4069
2026-01-18 21:54:52.10	110.02	11.66	-44.3	-45.4	18.9	0.00e+00	0	36	0	1497366528	60	4016
2026-01-18 21:54:55.11	110.50	11.51	-44.5	-45.6	18.7	0.00e+00	0	36	0	1506803712	60	4135
2026-01-18 21:54:58.14	110.98	11.36	-44.4	-45.5	18.7	0.00e+00	0	36	0	1516240896	60	4097
2026-01-18 21:55:01.16	111.46	11.21	-44.4	-45.6	18.6	0.00e+00	0	36	0	1525678080	60	4113
2026-01-18 21:55:04.19	111.93	11.06	-44.6	-45.7	18.5	0.00e+00	0	36	0	1535115264	60	4190
2026-01-18 21:55:07.21	112.39	10.91	-44.6	-45.8	18.5	0.00e+00	0	36	0	1544552448	60	4212
2026-01-18 21:55:10.23	112.85	10.75	-44.8	-46.0	18.3	0.00e+00	0	36	0	1553989632	60	4300
2026-01-18 21:55:13.25	113.31	10.60	-44.5	-45.7	18.5	0.00e+00	0	36	0	1563426816	60	4182
2026-01-18 21:55:16.28	113.76	10.44	-44.6	-45.8	18.4	0.00e+00	0	36	0	1572864000	60	4217
2026-01-18 21:55:19.30	114.21	10.29	-44.5	-45.7	18.5	0.00e+00	0	36	0	1582301184	60	4176
2026-01-18 21:55:22.32	114.65	10.13	-44.5	-45.7	18.5	0.00e+00	0	36	0	1591738368	60	4160
2026-01-18 21:55:25.35	115.09	9.98	-44.6	-45.8	18.5	0.00e+00	0	36	0	1601175552	60	4197
2026-01-18 21:55:28.37	115.52	9.82	-44.6	-45.8	18.4	0.00e+00	0	36	0	1610612736	60	4213
2026-01-18 21:55:31.39	115.95	9.66	-44.7	-45.9	18.3	0.00e+00	0	36	0	1620049920	60	4263
2026-01-18 21:55:34.41	116.37	9.50	-44.9	-46.1	18.0	0.00e+00	0	36	0	1629487104	60	4383
2026-01-18 21:55:37.44	116.79	9.35	-44.7	-45.9	18.2	0.00e+00	0	36	0	1638924288	60	4287
2026-01-18 21:55:40.46	117.21	9.19	-44.8	-46.0	18.1	0.00e+00	0	36	0	1648361472	60	4322
2026-01-18 21:55:43.49	117.62	9.03	-44.9	-46.2	17.8	0.00e+00	0	36	0	1657798656	60	4419
2026-01-18 21:55:46.51	118.02	8.87	-45.0	-46.2	17.8	0.00e+00	0	36	0	1667235840	60	4437
2026-01-18 21:55:49.53	118.43	8.71	-45.1	-46.4	17.6	0.00e+00	0	36	0	1676673024	61	4272
2026-01-18 21:55:52.56	118.83	8.55	-45.4	-46.8	17.2	0.00e+00	0	36	0	1686110208	61	4490
2026-01-18 21:55:55.59	119.22	8.39	-45.3	-46.7	17.3	0.00e+00	0	36	0	1695547392	61	4408
2026-01-18 21:55:58.61	119.61	8.23	-45.3	-46.6	17.4	0.00e+00	0	36	0	1704984576	61	4382
2026-01-18 21:56:01.63	120.00	8.07	-45.2	-46.6	17.3	0.00e+00	0	36	0	1714421760	61	4368
2026-01-18 21:56:04.65	120.38	7.91	-45.3	-46.7	17.2	0.00e+00	0	36	0	1723858944	61	4413
2026-01-18 21:56:07.68	120.76	7.75	-45.3	-46.7	17.2	0.00e+00	0	36	0	1733296128	61	4429
2026-01-18 21:56:10.70	121.13	7.59	-45.5	-46.9	17.0	0.00e+00	0	36	0	1742733312	61	4518
2026-01-18 21:56:13.73	121.50	7.43	-45.4	-46.8	17.1	0.00e+00	0	36	0	1752170496	61	4466
2026-01-18 21:56:16.75	121.87	7.27	-45.3	-46.8	17.0	0.00e+00	0	36	0	1761607680	61	4447
2026-01-18 21:56:19.77	122.23	7.12	-45.4	-46.8	17.0	0.00e+00	0	36	0	1771044864	61	4468
2026-01-18 21:56:22.80	122.59	6.96	-45.5	-47.0	16.8	0.00e+00	0	36	0	1780482048	61	4575
2026-01-18 21:56:25.82	122.94	6.80	-45.6	-47.1	16.6	0.00e+00	0	36	0	1789919232	61	4626
2026-01-18 21:56:28.85	123.29	6.64	-45.6	-47.1	16.6	0.00e+00	0	36	0	1799356416	62	4369
2026-01-18 21:56:31.87	123.64	6.48	-45.6	-47.1	16.5	0.00e+00	0	36	0	1808793600	62	4360
2026-01-18 21:56:34.90	123.99	6.32	-45.6	-47.1	16.6	0.00e+00	0	36	0	1818230784	62	4362
2026-01-18 21:56:37.92	124.33	6.16	-45.6	-47.2	16.4	0.00e+00	0	36	0	1827667968	62	4413
2026-01-18 21:56:40.95	124.66	6.00	-45.6	-47.2	16.4	0.00e+00	0	36	0	1837105152	62	4393
2026-01-18 21:56:43.97	125.00	5.84	-45.6	-47.1	16.4	0.00e+00	0	36	0	1846542336	62	4383
2026-01-18 21:56:47.00	125.33	5.68	-45.6	-47.2	16.3	0.00e+00	0	36	0	1855979520	62	4421
2026-01-18 21:56:50.02	125.65	5.52	-46.0	-47.7	15.8	0.00e+00	0	36	0	1865416704	62	4667
2026-01-18 21:56:53.05	125.98	5.36	-46.0	-47.8	15.7	0.00e+00	0	36	0	1874853888	62	4717
2026-01-18 21:56:56.07	126.30	5.21	-46.1	-47.8	15.5	0.00e+00	0	36	0	1884291072	63	4473
2026-01-18 21:56:59.09	126.61	5.05	-46.2	-48.0	15.3	0.00e+00	0	36	0	1893728256	63	4555
2026-01-18 21:57:02.12	126.93	4.89	-52.3	-65.1	3.8	1.49e+00	0	36	104	1900019712	75	16326
2026-01-18 21:57:05.14	127.24	4.73	-52.8	-65.6	3.8	1.49e+00	0	36	104	1900019712	76	16413
2026-01-18 21:57:08.17	127.54	4.58	-53.0	-66.1	3.8	1.49e+00	0	36	104	1900019712	77	16380
2026-01-18 21:57:11.19	127.85	4.42	-53.5	-66.3	3.8	1.49e+00	0	36	104	1900019712	77	16807
2026-01-18 21:57:14.22	128.15	4.26	-53.7	-66.5	3.8	1.49e+00	0	36	104	1900019712	77	17086
2026-01-18 21:57:17.24	128.45	4.11	-53.8	-66.6	3.8	1.49e+00	0	37	104	1900019712	78	16365
2026-01-18 21:57:20.26	128.74	3.95	-53.9	-66.7	3.8	1.49e+00	0	36	104	1900019712	78	16506
2026-01-18 21:57:23.28	129.03	3.79	-53.9	-66.7	3.8	1.49e+00	0	36	104	1900019712	78	16622
2026-01-18 21:57:26.31	129.32	3.64	-54.0	-66.8	3.8	1.49e+00	0	36	104	1900019712	78	16696
2026-01-18 21:57:29.33	129.61	3.48	-53.9	-66.7	3.8	1.49e+00	0	36	104	1900019712	78	16583
2026-01-18 21:57:32.35	129.89	3.33	-53.9	-66.7	3.8	1.49e+00	0	36	104	1900019712	78	16575
2026-01-18 21:57:35.38	130.17	3.17	-53.9	-66.7	3.8	1.49e+00	0	36	104	1900019712	78	16511
2026-01-18 21:57:38.40	130.45	3.02	-53.9	-66.6	3.8	1.49e+00	0	36	104	1900019712	78	16484
2026-01-18 21:57:41.43	130.72	2.87	-53.9	-66.6	3.8	1.49e+00	0	36	104	1900019712	78	16477
2026-01-18 21:57:44.46	131.00	2.71	-53.8	-66.6	3.8	1.49e+00	0	36	104	1900019712	78	16481
2026-01-18 21:57:47.48	131.26	2.56	-53.8	-66.6	3.8	1.49e+00	0	36	104	1900019712	78	16440
2026-01-18 21:57:50.50	131.53	2.41	-53.8	-66.6	3.8	1.49e+00	0	36	104	1900019712	78	16480
2026-01-18 21:57:53.53	131.80	2.25	-53.8	-66.6	3.8	1.49e+00	0	36	104	1900019712	78	16409
2026-01-18 21:57:56.55	132.06	2.10	-53.8	-66.6	3.8	1.49e+00	0	36	104	1900019712	78	16420

#Closed at: 2026-01-18 21:57:59
#Recorded file [1900 MB]: D:/lorett/data/31041_260119_004556.dat