passes_logs/2026/01/18/R3.2S_Murmansk/R3.2S_Murmansk__20260118_143429_FENGYUN_3D_rec.log

#Pass ID: 20260118_143429_FENGYUN 3D
#Satellite: FENGYUN 3D
#Configuration: FENGYUN 3D
#almurnet v.1.7.20251203
#Start time: 2026-01-18 14:34:29

#Version: 2.2.20231116
#Station: R3.2S_Murmansk
#Location: 33.079688 lon 68.888172 lat
#TLE: 1 43010U 17072A   26017.61121112  .00000213  00000+0  12257-3 0  9991
#TLE: 2 43010  98.9934 349.4672 0002374 103.9362 256.2078 14.19696413423628

#Time	Az	El	Level	Level2	SNR	BER	BlckErr	Temp	State	Recorded	gain1	gain2
2026-01-18 14:34:29.48	229.05	2.02	-52.4	-64.3	3.8	8.45e-01	0	34	0	0	76	14142
2026-01-18 14:34:32.51	229.32	2.17	-52.3	-64.3	3.8	8.46e-01	0	34	104	0	75	14890
2026-01-18 14:34:35.53	229.59	2.32	-52.3	-64.2	3.8	8.47e-01	0	35	104	0	75	14854
2026-01-18 14:34:38.56	229.86	2.47	-52.3	-64.1	3.8	8.47e-01	0	35	104	0	75	14645
2026-01-18 14:34:41.58	230.13	2.63	-52.3	-64.2	3.8	8.46e-01	0	35	104	0	75	14753
2026-01-18 14:34:44.61	230.41	2.78	-52.3	-64.1	3.8	8.47e-01	0	35	104	0	75	14677
2026-01-18 14:34:47.63	230.69	2.93	-52.3	-64.2	3.8	8.47e-01	0	35	104	0	75	14808
2026-01-18 14:34:50.66	230.97	3.08	-52.3	-64.2	3.8	8.46e-01	0	35	104	0	75	14833
2026-01-18 14:34:53.68	231.26	3.23	-52.3	-64.0	3.8	8.46e-01	0	35	104	0	75	14525
2026-01-18 14:34:56.71	231.55	3.38	-52.3	-64.2	3.8	8.46e-01	0	35	104	0	75	14736
2026-01-18 14:34:59.73	231.84	3.54	-52.3	-64.2	3.8	8.46e-01	0	36	104	0	75	14798
2026-01-18 14:35:02.75	232.13	3.69	-52.3	-64.1	3.8	8.47e-01	0	36	104	0	75	14626
2026-01-18 14:35:05.78	232.43	3.84	-52.3	-63.9	3.8	8.46e-01	0	36	104	0	75	14284
2026-01-18 14:35:08.80	232.73	3.99	-52.3	-64.1	3.8	8.47e-01	0	35	104	0	75	14561
2026-01-18 14:35:11.82	233.03	4.15	-52.3	-63.8	3.8	8.47e-01	0	36	104	0	75	14182
2026-01-18 14:35:14.85	233.33	4.30	-52.3	-64.2	3.8	8.45e-01	0	36	104	0	75	14849
2026-01-18 14:35:17.87	233.64	4.46	-51.6	-58.8	4.9	8.27e-01	0	36	0	0	75	7936
2026-01-18 14:35:20.89	233.95	4.61	-50.8	-55.9	7.1	2.18e-01	0	36	0	9437184	73	6383
2026-01-18 14:35:23.92	234.27	4.76	-47.7	-49.9	13.2	1.92e-04	0	36	0	26214400	67	4533
2026-01-18 14:35:26.94	234.59	4.92	-44.7	-46.0	17.3	0.00e+00	0	36	0	42991616	61	4097
2026-01-18 14:35:29.97	234.91	5.07	-44.7	-46.0	17.7	0.00e+00	0	36	0	59768832	59	4560
2026-01-18 14:35:33.00	235.23	5.23	-46.2	-47.8	15.4	0.00e+00	0	36	0	77594624	64	4240
2026-01-18 14:35:36.02	235.56	5.38	-44.2	-45.4	18.3	0.00e+00	0	36	0	94371840	59	4243
2026-01-18 14:35:39.04	235.89	5.54	-44.1	-45.3	18.4	0.00e+00	0	36	0	111149056	59	4222
2026-01-18 14:35:42.07	236.23	5.69	-44.1	-45.3	18.4	0.00e+00	0	36	0	127926272	59	4208
2026-01-18 14:35:45.09	236.57	5.85	-44.0	-45.1	18.6	0.00e+00	0	36	0	145752064	59	4121
2026-01-18 14:35:48.12	236.91	6.00	-44.1	-45.3	18.5	0.00e+00	0	36	0	162529280	59	4213
2026-01-18 14:35:51.14	237.25	6.16	-43.7	-44.7	19.0	0.00e+00	0	36	0	179306496	59	3957
2026-01-18 14:35:54.17	237.60	6.32	-43.6	-44.6	19.1	0.00e+00	0	36	0	196083712	59	3913
2026-01-18 14:35:57.19	237.95	6.47	-43.5	-44.6	19.2	0.00e+00	0	36	0	213909504	59	3901
2026-01-18 14:36:00.22	238.31	6.63	-43.7	-44.9	19.0	0.00e+00	0	36	0	230686720	58	4250
2026-01-18 14:36:03.25	238.67	6.78	-43.9	-45.1	18.7	0.00e+00	0	36	0	247463936	58	4362
2026-01-18 14:36:06.26	239.03	6.94	-43.8	-44.9	18.9	0.00e+00	0	36	0	264241152	58	4261
2026-01-18 14:36:09.29	239.40	7.09	-43.6	-44.7	19.2	0.00e+00	0	36	0	282066944	58	4164
2026-01-18 14:36:12.32	239.77	7.25	-43.4	-44.5	19.4	0.00e+00	0	36	0	298844160	58	4061
2026-01-18 14:36:15.34	240.15	7.41	-43.5	-44.6	19.3	0.00e+00	0	36	0	315621376	58	4111
2026-01-18 14:36:18.36	240.52	7.56	-43.4	-44.4	19.5	0.00e+00	0	36	0	332398592	58	4049
2026-01-18 14:36:21.39	240.91	7.72	-43.4	-44.4	19.5	0.00e+00	0	36	0	350224384	58	4041
2026-01-18 14:36:24.41	241.29	7.87	-43.3	-44.4	19.6	0.00e+00	0	36	0	367001600	58	4015
2026-01-18 14:36:27.44	241.68	8.03	-43.1	-44.2	19.8	0.00e+00	0	36	0	383778816	58	3917
2026-01-18 14:36:30.46	242.08	8.18	-43.4	-44.4	19.5	0.00e+00	0	36	0	400556032	58	4035
2026-01-18 14:36:33.49	242.48	8.34	-43.0	-44.0	20.0	0.00e+00	0	36	0	417333248	57	4075
2026-01-18 14:36:36.51	242.88	8.49	-42.9	-43.8	20.1	0.00e+00	0	36	0	435159040	57	3997
2026-01-18 14:36:39.54	243.29	8.65	-42.8	-43.8	20.2	0.00e+00	0	36	0	451936256	57	3972
2026-01-18 14:36:42.56	243.70	8.80	-43.2	-44.2	19.8	0.00e+00	0	36	0	468713472	57	4166
2026-01-18 14:36:45.59	244.11	8.95	-42.9	-43.9	20.1	0.00e+00	0	36	0	485490688	57	4046
2026-01-18 14:36:48.61	244.53	9.11	-43.0	-44.0	20.1	0.00e+00	0	36	0	502267904	57	4059
2026-01-18 14:36:51.63	244.95	9.26	-42.9	-43.9	20.2	0.00e+00	0	36	0	520093696	57	4015
2026-01-18 14:36:54.66	245.38	9.41	-42.8	-43.7	20.3	0.00e+00	0	36	0	536870912	57	3950
2026-01-18 14:36:57.69	245.81	9.56	-42.7	-43.6	20.5	0.00e+00	0	36	0	553648128	57	3902
2026-01-18 14:37:00.71	246.25	9.71	-42.8	-43.7	20.4	0.00e+00	0	36	0	570425344	57	3944
2026-01-18 14:37:03.73	246.69	9.87	-42.8	-43.7	20.4	0.00e+00	0	36	0	587202560	57	3956
2026-01-18 14:37:06.76	247.14	10.02	-42.6	-43.5	20.6	0.00e+00	0	36	0	605028352	57	3864
2026-01-18 14:37:09.78	247.58	10.17	-42.7	-43.7	20.5	0.00e+00	0	36	0	621805568	57	3916
2026-01-18 14:37:12.81	248.04	10.31	-42.5	-43.5	20.7	0.00e+00	0	36	0	638582784	56	4060
2026-01-18 14:37:15.83	248.50	10.46	-42.6	-43.6	20.6	0.00e+00	0	36	0	655360000	56	4110
2026-01-18 14:37:18.86	248.96	10.61	-42.5	-43.5	20.7	0.00e+00	0	36	0	672137216	56	4068
2026-01-18 14:37:21.88	249.43	10.76	-42.6	-43.6	20.6	0.00e+00	0	36	0	689963008	56	4100
2026-01-18 14:37:24.90	249.90	10.90	-42.6	-43.5	20.6	0.00e+00	0	36	0	706740224	56	4096
2026-01-18 14:37:27.92	250.37	11.05	-42.4	-43.4	20.8	0.00e+00	0	36	0	723517440	56	4010
2026-01-18 14:37:30.95	250.86	11.19	-42.1	-43.0	21.1	0.00e+00	0	36	0	740294656	56	3855
2026-01-18 14:37:33.98	251.34	11.34	-42.2	-43.1	21.1	0.00e+00	0	36	0	757071872	56	3885
2026-01-18 14:37:37.00	251.83	11.48	-42.2	-43.1	21.0	0.00e+00	0	36	0	774897664	56	3911
2026-01-18 14:37:40.02	252.33	11.62	-42.2	-43.1	21.0	0.00e+00	0	36	0	791674880	56	3911
2026-01-18 14:37:43.04	252.83	11.76	-42.1	-43.0	21.2	0.00e+00	0	36	0	808452096	56	3847
2026-01-18 14:37:46.07	253.33	11.90	-42.1	-43.0	21.2	0.00e+00	0	36	0	825229312	56	3864
2026-01-18 14:37:49.10	253.84	12.04	-42.1	-43.0	21.2	0.00e+00	0	36	0	843055104	56	3864
2026-01-18 14:37:52.12	254.35	12.17	-42.1	-43.0	21.2	0.00e+00	0	36	0	859832320	56	3834
2026-01-18 14:37:55.14	254.87	12.31	-42.0	-42.9	21.3	0.00e+00	0	36	0	876609536	56	3786
2026-01-18 14:37:58.17	255.39	12.44	-41.9	-42.8	21.3	0.00e+00	0	36	0	893386752	55	3995
2026-01-18 14:38:01.19	255.92	12.57	-41.8	-42.7	21.4	0.00e+00	0	36	0	911212544	55	3926
2026-01-18 14:38:04.21	256.45	12.71	-41.9	-42.8	21.3	0.00e+00	0	36	0	927989760	55	3974
2026-01-18 14:38:07.24	256.99	12.83	-41.8	-42.6	21.5	0.00e+00	0	36	0	944766976	55	3901
2026-01-18 14:38:10.26	257.53	12.96	-41.6	-42.4	21.7	0.00e+00	0	36	0	961544192	55	3806
2026-01-18 14:38:13.29	258.07	13.09	-41.4	-42.2	21.9	0.00e+00	0	36	0	979369984	54	3947
2026-01-18 14:38:16.31	258.62	13.21	-41.5	-42.3	21.8	0.00e+00	0	36	0	996147200	54	3982
2026-01-18 14:38:19.34	259.18	13.34	-41.7	-42.5	21.6	0.00e+00	0	36	0	1012924416	54	4095
2026-01-18 14:38:22.36	259.73	13.46	-41.5	-42.3	21.8	0.00e+00	0	36	0	1029701632	54	3982
2026-01-18 14:38:25.39	260.30	13.58	-41.4	-42.2	21.9	0.00e+00	0	36	0	1047527424	54	3954
2026-01-18 14:38:28.41	260.86	13.69	-41.5	-42.3	21.8	0.00e+00	0	36	0	1064304640	54	3993
2026-01-18 14:38:31.44	261.44	13.81	-41.7	-42.6	21.6	0.00e+00	0	36	0	1081081856	54	4103
2026-01-18 14:38:34.46	262.01	13.92	-41.8	-42.6	21.5	0.00e+00	0	36	0	1097859072	54	4143
2026-01-18 14:38:37.49	262.59	14.03	-41.3	-42.2	22.0	0.00e+00	0	36	0	1115684864	54	3917
2026-01-18 14:38:40.52	263.18	14.14	-41.2	-42.0	22.1	0.00e+00	0	36	0	1132462080	54	3845
2026-01-18 14:38:43.54	263.77	14.24	-41.4	-42.2	21.9	0.00e+00	0	36	0	1149239296	54	3940
2026-01-18 14:38:46.57	264.36	14.35	-41.5	-42.3	21.8	0.00e+00	0	36	0	1166016512	54	3992
2026-01-18 14:38:49.59	264.95	14.45	-41.4	-42.2	22.0	0.00e+00	0	36	0	1183842304	54	3947
2026-01-18 14:38:52.61	265.55	14.55	-41.0	-41.8	22.3	0.00e+00	0	36	0	1200619520	54	3776
2026-01-18 14:38:55.64	266.16	14.64	-41.0	-41.8	22.3	0.00e+00	0	36	0	1217396736	54	3759
2026-01-18 14:38:58.66	266.77	14.74	-41.2	-42.0	22.1	0.00e+00	0	36	0	1234173952	54	3855
2026-01-18 14:39:01.69	267.38	14.83	-41.1	-42.0	22.2	0.00e+00	0	36	0	1250951168	54	3831
2026-01-18 14:39:04.72	267.99	14.92	-41.3	-42.2	22.0	0.00e+00	0	36	0	1268776960	54	3918
2026-01-18 14:39:07.74	268.61	15.00	-41.2	-42.0	22.2	0.00e+00	0	36	0	1285554176	54	3840
2026-01-18 14:39:10.77	269.23	15.09	-41.1	-41.9	22.2	0.00e+00	0	36	0	1302331392	54	3823
2026-01-18 14:39:13.79	269.86	15.17	-41.3	-42.2	22.0	0.00e+00	0	36	0	1319108608	54	3926
2026-01-18 14:39:16.81	270.49	15.24	-41.3	-42.2	22.0	0.00e+00	0	36	0	1335885824	54	3924
2026-01-18 14:39:19.83	271.12	15.32	-41.1	-41.9	22.3	0.00e+00	0	36	0	1353711616	54	3791
2026-01-18 14:39:22.85	271.75	15.39	-41.2	-42.0	22.1	0.00e+00	0	36	0	1370488832	54	3860
2026-01-18 14:39:25.88	272.39	15.46	-41.2	-42.1	22.1	0.00e+00	0	36	0	1387266048	54	3891
2026-01-18 14:39:28.90	273.03	15.52	-41.2	-42.0	22.2	0.00e+00	0	36	0	1404043264	54	3855
2026-01-18 14:39:31.93	273.67	15.58	-41.2	-42.0	22.2	0.00e+00	0	36	0	1420820480	54	3846
2026-01-18 14:39:34.95	274.31	15.64	-41.1	-41.9	22.3	0.00e+00	0	36	0	1438646272	54	3796
2026-01-18 14:39:37.97	274.96	15.69	-41.4	-42.3	22.0	0.00e+00	0	36	0	1455423488	54	3964
2026-01-18 14:39:41.00	275.61	15.75	-41.4	-42.3	22.0	0.00e+00	0	36	0	1472200704	54	3971
2026-01-18 14:39:44.02	276.26	15.79	-41.2	-42.0	22.3	0.00e+00	0	36	0	1488977920	54	3834
2026-01-18 14:39:47.05	276.92	15.84	-41.1	-41.9	22.3	0.00e+00	0	36	0	1505755136	54	3822
2026-01-18 14:39:50.07	277.57	15.88	-41.2	-42.0	22.2	0.00e+00	0	36	0	1523580928	54	3857
2026-01-18 14:39:53.10	278.23	15.92	-41.1	-41.9	22.4	0.00e+00	0	36	0	1540358144	54	3794
2026-01-18 14:39:56.13	278.89	15.95	-41.1	-41.9	22.4	0.00e+00	0	36	0	1557135360	54	3789
2026-01-18 14:39:59.15	279.55	15.98	-41.2	-42.0	22.3	0.00e+00	0	36	0	1573912576	54	3830
2026-01-18 14:40:02.17	280.21	16.01	-41.1	-41.9	22.4	0.00e+00	0	36	0	1590689792	54	3802
2026-01-18 14:40:05.20	280.87	16.04	-41.0	-41.8	22.4	0.00e+00	0	36	0	1608515584	53	4000
2026-01-18 14:40:08.22	281.53	16.06	-41.2	-42.0	22.3	0.00e+00	0	36	0	1625292800	53	4095
2026-01-18 14:40:11.25	282.20	16.07	-41.2	-42.0	22.3	0.00e+00	0	36	0	1642070016	53	4087
2026-01-18 14:40:14.26	282.86	16.09	-41.4	-42.2	22.1	0.00e+00	0	36	0	1658847232	53	4172
2026-01-18 14:40:17.29	283.53	16.09	-41.3	-42.1	22.2	0.00e+00	0	36	0	1676673024	53	4143
2026-01-18 14:40:20.31	284.19	16.10	-41.3	-42.1	22.2	0.00e+00	0	36	0	1693450240	53	4135
2026-01-18 14:40:23.34	284.86	16.10	-41.3	-42.1	22.2	0.00e+00	0	36	0	1710227456	53	4143
2026-01-18 14:40:26.36	285.52	16.10	-41.3	-42.1	22.3	0.00e+00	0	36	0	1727004672	53	4110
2026-01-18 14:40:29.38	286.19	16.10	-41.3	-42.1	22.3	0.00e+00	0	36	0	1743781888	53	4100
2026-01-18 14:40:32.40	286.85	16.09	-41.2	-42.0	22.3	0.00e+00	0	36	0	1761607680	53	4077
2026-01-18 14:40:35.43	287.51	16.07	-41.5	-42.4	22.0	0.00e+00	0	36	0	1778384896	53	4257
2026-01-18 14:40:38.45	288.18	16.06	-41.6	-42.5	21.9	0.00e+00	0	36	0	1795162112	53	4296
2026-01-18 14:40:41.47	288.84	16.04	-41.4	-42.3	22.1	0.00e+00	0	36	0	1811939328	53	4211
2026-01-18 14:40:44.50	289.50	16.02	-41.5	-42.4	22.0	0.00e+00	0	36	0	1829765120	53	4263
2026-01-18 14:40:47.52	290.16	15.99	-41.2	-42.1	22.3	0.00e+00	0	36	0	1846542336	53	4100
2026-01-18 14:40:50.54	290.82	15.96	-41.3	-42.1	22.3	0.00e+00	0	36	0	1863319552	53	4120
2026-01-18 14:40:53.57	291.48	15.93	-41.4	-42.2	22.1	0.00e+00	0	36	0	1880096768	53	4190
2026-01-18 14:40:56.59	292.14	15.89	-41.6	-42.5	21.9	0.00e+00	0	36	0	1897922560	53	4304
2026-01-18 14:40:59.62	292.79	15.85	-41.7	-42.5	21.9	0.00e+00	0	36	0	1914699776	54	4093
2026-01-18 14:41:02.64	293.44	15.80	-41.6	-42.5	21.9	0.00e+00	0	36	0	1931476992	54	4059
2026-01-18 14:41:05.67	294.10	15.76	-41.8	-42.6	21.8	0.00e+00	0	36	0	1948254208	54	4126
2026-01-18 14:41:08.69	294.74	15.70	-41.6	-42.5	21.9	0.00e+00	0	36	0	1966080000	54	4061
2026-01-18 14:41:11.72	295.39	15.65	-41.7	-42.5	21.9	0.00e+00	0	36	0	1982857216	54	4090
2026-01-18 14:41:14.74	296.04	15.59	-41.8	-42.7	21.7	0.00e+00	0	36	0	1999634432	54	4164
2026-01-18 14:41:17.76	296.68	15.53	-41.8	-42.7	21.7	0.00e+00	0	36	0	2016411648	54	4160
2026-01-18 14:41:20.79	297.32	15.47	-41.7	-42.6	21.8	0.00e+00	0	36	0	2034237440	54	4123
2026-01-18 14:41:23.81	297.95	15.40	-41.7	-42.6	21.8	0.00e+00	0	36	0	2051014656	54	4125
2026-01-18 14:41:26.84	298.59	15.33	-41.7	-42.6	21.8	0.00e+00	0	36	0	2067791872	54	4100
2026-01-18 14:41:29.86	299.22	15.26	-41.8	-42.6	21.8	0.00e+00	0	36	0	2084569088	54	4131
2026-01-18 14:41:32.88	299.84	15.18	-42.0	-42.9	21.5	0.00e+00	0	36	0	2102394880	54	4259
2026-01-18 14:41:35.91	300.47	15.10	-42.1	-42.9	21.4	0.00e+00	0	36	0	2119172096	54	4290
2026-01-18 14:41:38.93	301.09	15.02	-42.1	-43.0	21.4	0.00e+00	0	36	0	2135949312	54	4309
2026-01-18 14:41:41.96	301.71	14.94	-42.0	-42.9	21.5	0.00e+00	0	36	0	2152726528	54	4264
2026-01-18 14:41:44.98	302.32	14.85	-41.9	-42.7	21.6	0.00e+00	0	36	0	2169503744	54	4190
2026-01-18 14:41:48.01	302.93	14.76	-41.9	-42.8	21.6	0.00e+00	0	36	0	2187329536	54	4205
2026-01-18 14:41:51.03	303.54	14.67	-41.9	-42.8	21.6	0.00e+00	0	36	0	2204106752	54	4221
2026-01-18 14:41:54.05	304.14	14.57	-41.9	-42.8	21.6	0.00e+00	0	36	0	2220883968	54	4220
2026-01-18 14:41:57.07	304.74	14.47	-42.0	-42.8	21.5	0.00e+00	0	36	0	2237661184	54	4238
2026-01-18 14:42:00.10	305.34	14.37	-42.0	-42.9	21.4	0.00e+00	0	36	0	2254438400	54	4278
2026-01-18 14:42:03.12	305.93	14.27	-41.9	-42.8	21.6	0.00e+00	0	36	0	2272264192	54	4202
2026-01-18 14:42:06.15	306.51	14.16	-42.0	-42.9	21.5	0.00e+00	0	36	0	2289041408	54	4247
2026-01-18 14:42:09.17	307.10	14.06	-42.1	-43.0	21.4	0.00e+00	0	36	0	2305818624	54	4299
2026-01-18 14:42:12.19	307.68	13.95	-42.1	-43.0	21.3	0.00e+00	0	36	0	2322595840	54	4312
2026-01-18 14:42:15.22	308.25	13.84	-42.1	-43.0	21.3	0.00e+00	0	36	0	2339373056	54	4331
2026-01-18 14:42:18.24	308.82	13.72	-42.2	-43.1	21.2	0.00e+00	0	36	0	2357198848	54	4352
2026-01-18 14:42:21.27	309.39	13.61	-42.1	-43.0	21.3	0.00e+00	0	36	0	2373976064	54	4325
2026-01-18 14:42:24.29	309.95	13.49	-42.1	-43.0	21.2	0.00e+00	0	36	0	2390753280	54	4323
2026-01-18 14:42:27.31	310.51	13.37	-42.1	-43.0	21.2	0.00e+00	0	36	0	2407530496	54	4334
2026-01-18 14:42:30.34	311.06	13.25	-42.2	-43.1	21.2	0.00e+00	0	36	0	2424307712	54	4357
2026-01-18 14:42:33.37	311.61	13.12	-42.2	-43.1	21.1	0.00e+00	0	36	0	2442133504	55	4139
2026-01-18 14:42:36.39	312.15	13.00	-42.1	-43.0	21.2	0.00e+00	0	36	0	2458910720	55	4062
2026-01-18 14:42:39.41	312.69	12.87	-42.1	-43.0	21.2	0.00e+00	0	36	0	2475687936	55	4080
2026-01-18 14:42:42.44	313.23	12.74	-42.2	-43.1	21.1	0.00e+00	0	36	0	2492465152	55	4136
2026-01-18 14:42:45.46	313.76	12.61	-42.4	-43.3	20.9	0.00e+00	0	36	0	2509242368	55	4215
2026-01-18 14:42:48.49	314.29	12.48	-42.2	-43.1	21.1	0.00e+00	0	36	0	2527068160	55	4141
2026-01-18 14:42:51.52	314.81	12.35	-42.2	-43.1	21.1	0.00e+00	0	36	0	2543845376	55	4120
2026-01-18 14:42:54.54	315.33	12.22	-42.3	-43.2	21.0	0.00e+00	0	36	0	2560622592	55	4162
2026-01-18 14:42:57.56	315.84	12.08	-42.4	-43.4	20.8	0.00e+00	0	36	0	2577399808	55	4250
2026-01-18 14:43:00.59	316.35	11.94	-42.5	-43.5	20.7	0.00e+00	0	36	0	2595225600	55	4295
2026-01-18 14:43:03.62	316.85	11.81	-42.7	-43.6	20.5	0.00e+00	0	36	0	2612002816	55	4391
2026-01-18 14:43:06.64	317.35	11.67	-42.7	-43.7	20.6	0.00e+00	0	36	0	2628780032	56	4150
2026-01-18 14:43:09.66	317.84	11.53	-42.7	-43.7	20.6	0.00e+00	0	36	0	2645557248	56	4150
2026-01-18 14:43:12.69	318.33	11.39	-42.8	-43.7	20.5	0.00e+00	0	36	0	2663383040	56	4185
2026-01-18 14:43:15.71	318.82	11.24	-42.9	-43.8	20.4	0.00e+00	0	36	0	2680160256	56	4234
2026-01-18 14:43:18.73	319.30	11.10	-42.9	-43.8	20.4	0.00e+00	0	36	0	2696937472	56	4233
2026-01-18 14:43:21.76	319.77	10.96	-42.7	-43.7	20.5	0.00e+00	0	36	0	2713714688	56	4162
2026-01-18 14:43:24.78	320.24	10.81	-42.7	-43.6	20.5	0.00e+00	0	36	0	2731540480	56	4133
2026-01-18 14:43:27.81	320.71	10.67	-42.8	-43.8	20.3	0.00e+00	0	36	0	2748317696	56	4208
2026-01-18 14:43:30.83	321.17	10.52	-42.8	-43.8	20.4	0.00e+00	0	36	0	2765094912	56	4207
2026-01-18 14:43:33.85	321.63	10.37	-42.7	-43.6	20.5	0.00e+00	0	36	0	2781872128	56	4144
2026-01-18 14:43:36.88	322.09	10.23	-42.9	-43.9	20.3	0.00e+00	0	36	0	2798649344	56	4248
2026-01-18 14:43:39.90	322.53	10.08	-43.0	-44.0	20.1	0.00e+00	0	36	0	2816475136	56	4340
2026-01-18 14:43:42.93	322.98	9.93	-43.1	-44.2	19.9	0.00e+00	0	36	0	2833252352	56	4400
2026-01-18 14:43:45.95	323.42	9.78	-43.0	-44.0	20.1	0.00e+00	0	36	0	2850029568	57	4061
2026-01-18 14:43:48.97	323.86	9.63	-43.1	-44.1	20.0	0.00e+00	0	36	0	2866806784	57	4108
2026-01-18 14:43:52.00	324.29	9.48	-43.1	-44.1	20.0	0.00e+00	0	36	0	2884632576	57	4099
2026-01-18 14:43:55.02	324.71	9.33	-43.2	-44.2	19.9	0.00e+00	0	36	0	2901409792	57	4157
2026-01-18 14:43:58.04	325.14	9.17	-43.5	-44.6	19.5	0.00e+00	0	36	0	2918187008	57	4356
2026-01-18 14:44:01.07	325.56	9.02	-43.3	-44.3	19.7	0.00e+00	0	36	0	2934964224	57	4224
2026-01-18 14:44:04.09	325.97	8.87	-43.4	-44.4	19.6	0.00e+00	0	36	0	2952790016	57	4278
2026-01-18 14:44:07.11	326.38	8.72	-43.3	-44.4	19.6	0.00e+00	0	36	0	2969567232	57	4254
2026-01-18 14:44:10.13	326.79	8.57	-43.3	-44.3	19.7	0.00e+00	0	36	0	2986344448	57	4227
2026-01-18 14:44:13.15	327.19	8.41	-43.5	-44.6	19.4	0.00e+00	0	36	0	3003121664	57	4345
2026-01-18 14:44:16.17	327.59	8.26	-43.4	-44.4	19.5	0.00e+00	0	36	0	3019898880	57	4283
2026-01-18 14:44:19.19	327.98	8.11	-43.5	-44.6	19.4	0.00e+00	0	36	0	3037724672	57	4365
2026-01-18 14:44:22.22	328.37	7.95	-43.7	-44.8	19.2	0.00e+00	0	36	0	3054501888	57	4457
2026-01-18 14:44:25.24	328.76	7.80	-43.6	-44.7	19.2	0.00e+00	0	36	0	3071279104	58	4159
2026-01-18 14:44:28.26	329.14	7.64	-43.5	-44.6	19.3	0.00e+00	0	36	0	3088056320	58	4126
2026-01-18 14:44:31.28	329.52	7.49	-43.5	-44.6	19.3	0.00e+00	0	36	0	3105882112	58	4119
2026-01-18 14:44:34.31	329.89	7.34	-43.6	-44.7	19.2	0.00e+00	0	36	0	3122659328	58	4185
2026-01-18 14:44:37.33	330.26	7.18	-43.7	-44.8	19.1	0.00e+00	0	36	0	3139436544	58	4219
2026-01-18 14:44:40.35	330.63	7.03	-43.9	-45.0	18.9	0.00e+00	0	36	0	3156213760	58	4312
2026-01-18 14:44:43.38	330.99	6.87	-44.1	-45.2	18.6	0.00e+00	0	36	0	3172990976	58	4418
2026-01-18 14:44:46.40	331.35	6.72	-44.2	-45.4	18.4	0.00e+00	0	36	0	3190816768	59	4266
2026-01-18 14:44:49.42	331.71	6.56	-44.4	-45.6	18.2	0.00e+00	0	36	0	3207593984	59	4352
2026-01-18 14:44:52.45	332.06	6.41	-44.5	-45.7	18.1	0.00e+00	0	36	0	3224371200	59	4406
2026-01-18 14:44:55.47	332.41	6.25	-44.3	-45.5	18.2	0.00e+00	0	36	0	3241148416	59	4335
2026-01-18 14:44:58.50	332.76	6.10	-44.3	-45.6	17.9	0.00e+00	0	36	0	3257925632	60	4105
2026-01-18 14:45:01.52	333.10	5.95	-44.3	-45.5	18.2	0.00e+00	0	36	0	3275751424	59	4339
2026-01-18 14:45:04.54	333.44	5.79	-44.4	-45.7	18.0	0.00e+00	0	36	0	3292528640	59	4412
2026-01-18 14:45:07.57	333.77	5.64	-44.7	-46.0	17.6	0.00e+00	0	36	0	3309305856	59	4579
2026-01-18 14:45:10.60	334.11	5.48	-44.4	-45.7	17.5	0.00e+00	0	36	0	3326083072	60	4155
2026-01-18 14:45:13.62	334.43	5.33	-44.8	-46.2	16.7	0.00e+00	0	36	0	3342860288	60	4399
2026-01-18 14:45:16.64	334.76	5.18	-44.3	-45.6	17.3	0.00e+00	0	36	0	3360686080	59	4391
2026-01-18 14:45:19.66	335.08	5.02	-44.5	-45.8	17.0	0.00e+00	0	36	0	3377463296	60	4228
2026-01-18 14:45:22.69	335.40	4.87	-53.0	-65.0	3.8	8.47e-01	0	36	104	3384803328	76	15279
2026-01-18 14:45:25.71	335.72	4.72	-53.5	-65.4	3.8	8.47e-01	0	36	104	3384803328	77	15204
2026-01-18 14:45:28.73	336.03	4.56	-53.8	-65.8	3.8	8.47e-01	0	36	104	3384803328	78	14903
2026-01-18 14:45:31.76	336.34	4.41	-53.9	-65.9	3.8	8.46e-01	0	36	104	3384803328	78	15146
2026-01-18 14:45:34.78	336.64	4.26	-54.0	-66.0	3.8	8.46e-01	0	36	104	3384803328	78	15290
2026-01-18 14:45:37.80	336.95	4.11	-54.0	-66.0	3.8	8.45e-01	0	36	104	3384803328	78	15333
2026-01-18 14:45:40.83	337.25	3.95	-54.0	-65.9	3.8	8.45e-01	0	36	104	3384803328	78	15220
2026-01-18 14:45:43.85	337.55	3.80	-53.9	-65.9	3.8	8.45e-01	0	36	104	3384803328	78	15109
2026-01-18 14:45:46.88	337.84	3.65	-53.9	-65.9	3.8	8.46e-01	0	36	104	3384803328	78	15121
2026-01-18 14:45:49.90	338.13	3.50	-53.9	-65.9	3.8	8.46e-01	0	36	104	3384803328	78	15087
2026-01-18 14:45:52.93	338.42	3.35	-53.9	-65.9	3.8	8.46e-01	0	36	104	3384803328	78	15090
2026-01-18 14:45:55.95	338.71	3.20	-53.9	-65.8	3.8	8.46e-01	0	36	104	3384803328	78	15050
2026-01-18 14:45:58.98	338.99	3.05	-53.9	-65.8	3.8	8.45e-01	0	36	104	3384803328	78	15000
2026-01-18 14:46:02.00	339.27	2.90	-53.8	-65.8	3.8	8.46e-01	0	36	104	3384803328	78	15019
2026-01-18 14:46:05.02	339.55	2.75	-53.8	-65.8	3.8	8.46e-01	0	36	104	3384803328	78	14984
2026-01-18 14:46:08.05	339.82	2.60	-53.8	-65.8	3.8	8.46e-01	0	36	104	3384803328	78	14999
2026-01-18 14:46:11.07	340.10	2.45	-53.8	-65.8	3.8	8.47e-01	0	36	104	3384803328	78	14954
2026-01-18 14:46:14.10	340.37	2.30	-53.8	-65.8	3.8	8.46e-01	0	36	104	3384803328	78	15016
2026-01-18 14:46:17.13	340.64	2.15	-53.8	-65.8	3.8	8.47e-01	0	36	104	3384803328	78	14965
2026-01-18 14:46:20.15	340.90	2.00	-53.8	-65.8	3.8	8.46e-01	0	36	104	3384803328	78	14961

#Closed at: 2026-01-18 14:46:22
#Recorded file [3384 MB]: D:/lorett/data/31041_260118_173429.dat