passes_logs/2026/01/18/R3.2S_Murmansk/R3.2S_Murmansk__20260118_033522_SUOMI_NPP_rec.log

#Pass ID: 20260118_033522_SUOMI NPP
#Satellite: SUOMI NPP
#Configuration: NPP
#almurnet v.1.7.20251203
#Start time: 2026-01-18 03:35:22

#Version: 2.2.20231116
#Station: R3.2S_Murmansk
#Location: 33.079688 lon 68.888172 lat
#TLE: 1 37849U 11061A   26017.57099531  .00000072  00000+0  54974-4 0  9996
#TLE: 2 37849  98.7814 319.5974 0002398  59.1749 300.9663 14.19525865737072

#Time	Az	El	Level	Level2	SNR	BER	BlckErr	Temp	State	Recorded	gain1	gain2
2026-01-18 03:35:22.90	42.18	2.00	-51.8	-66.7	3.8	1.49e+00	0	33	0	0	75	19721
2026-01-18 03:35:26.94	41.96	2.24	-51.7	-66.7	3.8	1.49e+00	0	34	104	0	74	20905
2026-01-18 03:35:30.97	41.74	2.48	-51.7	-66.7	3.8	1.49e+00	0	33	104	0	74	20829
2026-01-18 03:35:35.00	41.51	2.72	-51.7	-66.6	3.8	1.49e+00	0	34	104	0	74	20662
2026-01-18 03:35:39.04	41.28	2.96	-51.7	-66.7	3.8	1.49e+00	0	34	104	0	74	20876
2026-01-18 03:35:43.07	41.05	3.21	-51.7	-66.7	3.8	1.49e+00	0	34	104	0	74	20835
2026-01-18 03:35:47.10	40.81	3.45	-51.7	-66.7	3.8	1.49e+00	0	34	104	0	74	20790
2026-01-18 03:35:51.13	40.57	3.70	-51.7	-66.1	3.8	1.49e+00	0	34	104	0	74	19448
2026-01-18 03:35:55.16	40.32	3.95	-51.6	-64.9	3.8	1.49e+00	0	34	104	0	74	16943
2026-01-18 03:35:59.20	40.07	4.20	-51.4	-62.1	4.5	1.27e+00	1	34	0	0	74	12247
2026-01-18 03:36:03.23	39.81	4.45	-51.0	-58.7	6.7	2.58e-01	0	34	0	8388608	73	8845
2026-01-18 03:36:07.26	39.55	4.71	-50.9	-58.2	7.2	1.40e-01	0	34	0	15728640	73	8283
2026-01-18 03:36:11.29	39.29	4.97	-51.2	-60.2	5.6	4.82e-01	0	34	0	23068672	73	10485
2026-01-18 03:36:15.32	39.02	5.22	-51.6	-63.0	4.2	1.46e+00	0	34	104	29360128	73	14412
2026-01-18 03:36:19.35	38.74	5.48	-49.0	-52.3	13.7	1.60e-05	0	34	0	35651584	70	5019
2026-01-18 03:36:23.38	38.46	5.75	-48.6	-51.6	14.5	7.00e-07	0	35	0	42991616	69	4875
2026-01-18 03:36:27.41	38.17	6.01	-48.3	-51.0	15.2	0.00e+00	0	35	0	50331648	68	4870
2026-01-18 03:36:31.45	37.88	6.28	-48.5	-51.3	14.9	0.00e+00	0	35	0	57671680	68	5024
2026-01-18 03:36:35.48	37.58	6.54	-48.6	-51.5	14.7	7.00e-07	0	35	0	66060288	68	5153
2026-01-18 03:36:39.50	37.28	6.81	-48.5	-51.4	15.0	0.00e+00	0	35	0	73400320	68	5042
2026-01-18 03:36:43.54	36.97	7.09	-48.7	-51.6	14.7	0.00e+00	0	35	0	80740352	68	5186
2026-01-18 03:36:47.57	36.65	7.36	-48.5	-51.3	15.1	0.00e+00	0	35	0	88080384	68	4992
2026-01-18 03:36:51.60	36.33	7.64	-48.4	-51.1	15.3	0.00e+00	0	35	0	96468992	68	4871
2026-01-18 03:36:55.64	36.00	7.92	-48.2	-50.7	15.8	0.00e+00	0	35	0	103809024	68	4681
2026-01-18 03:36:59.67	35.67	8.20	-47.8	-50.2	16.1	0.00e+00	0	35	0	111149056	67	4692
2026-01-18 03:37:03.70	35.33	8.48	-47.7	-50.0	16.4	0.00e+00	0	35	0	118489088	67	4583
2026-01-18 03:37:07.74	34.98	8.77	-47.4	-49.5	16.9	0.00e+00	0	35	0	125829120	66	4555
2026-01-18 03:37:11.77	34.62	9.05	-47.7	-49.9	16.5	0.00e+00	0	35	0	134217728	66	4810
2026-01-18 03:37:15.80	34.26	9.34	-47.8	-50.2	16.3	0.00e+00	0	35	0	141557760	66	4930
2026-01-18 03:37:19.84	33.89	9.63	-47.7	-50.0	16.5	0.00e+00	0	35	0	148897792	66	4855
2026-01-18 03:37:23.87	33.51	9.93	-47.7	-50.0	16.6	0.00e+00	0	35	0	156237824	66	4829
2026-01-18 03:37:27.90	33.12	10.22	-47.6	-49.8	16.8	0.00e+00	0	35	0	163577856	66	4732
2026-01-18 03:37:31.93	32.73	10.52	-47.5	-49.6	17.0	0.00e+00	0	35	0	171966464	66	4609
2026-01-18 03:37:35.96	32.32	10.82	-47.5	-49.6	17.0	0.00e+00	0	35	0	179306496	66	4614
2026-01-18 03:37:39.99	31.91	11.13	-47.4	-49.6	17.0	0.00e+00	0	35	0	186646528	66	4601
2026-01-18 03:37:44.02	31.49	11.43	-45.2	-49.9	16.5	0.00e+00	0	35	0	193986560	62	6030
2026-01-18 03:37:48.05	31.06	11.74	-46.7	-50.2	16.2	0.00e+00	0	35	0	201326592	63	5871
2026-01-18 03:37:52.08	30.62	12.05	-48.0	-50.4	16.2	0.00e+00	0	35	0	209715200	66	5049
2026-01-18 03:37:56.12	30.17	12.36	-47.9	-50.2	16.5	0.00e+00	0	35	0	217055232	66	4942
2026-01-18 03:38:00.14	29.71	12.67	-47.9	-50.3	16.4	0.00e+00	0	35	0	224395264	66	4992
2026-01-18 03:38:04.18	29.24	12.99	-47.6	-49.7	17.0	0.00e+00	0	35	0	231735296	66	4655
2026-01-18 03:38:08.21	28.76	13.31	-47.3	-49.3	17.4	0.00e+00	0	35	0	240123904	66	4474
2026-01-18 03:38:12.24	28.27	13.63	-47.0	-48.8	17.8	0.00e+00	0	35	0	247463936	65	4479
2026-01-18 03:38:16.27	27.77	13.95	-47.2	-49.2	17.5	0.00e+00	0	35	0	254803968	65	4653
2026-01-18 03:38:20.30	27.26	14.27	-47.4	-49.5	17.2	0.00e+00	0	35	0	262144000	65	4829
2026-01-18 03:38:24.33	26.73	14.60	-47.6	-49.7	17.1	0.00e+00	0	35	0	269484032	65	4936
2026-01-18 03:38:28.36	26.19	14.93	-47.6	-49.7	17.1	0.00e+00	0	35	0	276824064	65	4931
2026-01-18 03:38:32.40	25.64	15.26	-47.3	-49.3	17.4	0.00e+00	0	35	0	285212672	65	4734
2026-01-18 03:38:36.43	25.08	15.59	-47.0	-48.8	17.9	0.00e+00	0	35	0	292552704	65	4488
2026-01-18 03:38:40.46	24.51	15.93	-46.9	-48.7	18.0	0.00e+00	0	35	0	299892736	65	4411
2026-01-18 03:38:44.49	23.92	16.26	-46.4	-48.1	18.6	0.00e+00	0	35	0	307232768	64	4374
2026-01-18 03:38:48.52	23.32	16.60	-46.4	-48.1	18.6	0.00e+00	0	35	0	315621376	64	4359
2026-01-18 03:38:52.56	22.70	16.93	-46.5	-48.1	18.6	0.00e+00	0	35	0	322961408	64	4376
2026-01-18 03:38:56.59	22.07	17.27	-46.6	-48.4	18.4	0.00e+00	0	35	0	330301440	64	4495
2026-01-18 03:39:00.62	21.43	17.61	-46.8	-48.6	18.1	0.00e+00	0	35	0	337641472	64	4641
2026-01-18 03:39:04.66	20.77	17.95	-46.9	-48.7	18.1	0.00e+00	0	35	0	344981504	64	4687
2026-01-18 03:39:08.69	20.09	18.30	-46.7	-48.5	18.3	0.00e+00	0	35	0	353370112	64	4564
2026-01-18 03:39:12.73	19.40	18.64	-46.6	-48.3	18.5	0.00e+00	0	35	0	360710144	65	4232
2026-01-18 03:39:16.76	18.70	18.98	-47.1	-49.0	17.9	0.00e+00	0	35	0	368050176	65	4547
2026-01-18 03:39:20.79	17.97	19.32	-47.3	-49.2	17.7	0.00e+00	0	35	0	375390208	65	4696
2026-01-18 03:39:24.82	17.23	19.67	-47.4	-49.4	17.5	0.00e+00	0	35	0	383778816	65	4790
2026-01-18 03:39:28.85	16.48	20.01	-46.8	-48.6	18.3	0.00e+00	0	35	0	391118848	65	4345
2026-01-18 03:39:32.88	15.71	20.35	-47.1	-49.0	17.8	0.00e+00	0	35	0	398458880	65	4575
2026-01-18 03:39:36.92	14.91	20.69	-47.1	-48.9	18.1	0.00e+00	0	35	0	405798912	65	4509
2026-01-18 03:39:40.95	14.10	21.03	-46.6	-48.3	18.6	0.00e+00	0	35	0	413138944	65	4219
2026-01-18 03:39:44.99	13.28	21.36	-46.3	-47.9	19.1	0.00e+00	0	35	0	420478976	63	4511
2026-01-18 03:39:49.02	12.43	21.70	-47.2	-49.0	18.0	0.00e+00	0	35	0	428867584	64	4851
2026-01-18 03:39:53.04	11.57	22.03	-47.2	-49.1	17.8	0.00e+00	0	35	0	436207616	65	4650
2026-01-18 03:39:57.08	10.68	22.36	-46.1	-47.6	19.3	0.00e+00	0	35	0	443547648	63	4389
2026-01-18 03:40:01.11	9.78	22.69	-45.7	-47.2	19.7	0.00e+00	0	35	0	450887680	62	4398
2026-01-18 03:40:05.14	8.86	23.01	-45.9	-47.4	19.5	0.00e+00	0	35	0	459276288	62	4533
2026-01-18 03:40:09.17	7.92	23.33	-46.4	-48.0	19.0	0.00e+00	0	35	0	466616320	63	4590
2026-01-18 03:40:13.20	6.96	23.64	-45.4	-46.8	20.1	0.00e+00	0	35	0	473956352	62	4210
2026-01-18 03:40:17.23	5.98	23.95	-45.6	-47.0	20.0	0.00e+00	0	35	0	481296384	62	4302
2026-01-18 03:40:21.26	4.98	24.25	-45.4	-46.8	20.1	0.00e+00	0	35	0	488636416	62	4207
2026-01-18 03:40:25.30	3.96	24.55	-45.0	-46.3	20.6	0.00e+00	0	35	0	497025024	61	4194
2026-01-18 03:40:29.33	2.93	24.84	-45.3	-46.6	20.3	0.00e+00	0	35	0	504365056	61	4364
2026-01-18 03:40:33.37	1.87	25.12	-45.7	-47.1	19.9	0.00e+00	0	35	0	511705088	61	4632
2026-01-18 03:40:37.40	0.79	25.39	-46.3	-47.9	19.2	0.00e+00	0	35	0	519045120	63	4499
2026-01-18 03:40:41.43	359.70	25.66	-46.2	-47.7	19.4	0.00e+00	0	35	0	526385152	63	4424
2026-01-18 03:40:45.47	358.58	25.91	-45.9	-47.3	19.8	0.00e+00	0	35	0	534773760	63	4226
2026-01-18 03:40:49.50	357.45	26.16	-46.1	-47.7	19.4	0.00e+00	0	35	0	542113792	63	4406
2026-01-18 03:40:53.53	356.30	26.40	-45.7	-47.1	19.9	0.00e+00	0	35	0	549453824	62	4341
2026-01-18 03:40:57.56	355.14	26.62	-45.7	-47.1	20.0	0.00e+00	0	35	0	556793856	62	4343
2026-01-18 03:41:01.59	353.96	26.84	-45.6	-47.0	20.0	0.00e+00	0	35	0	564133888	62	4321
2026-01-18 03:41:05.63	352.76	27.04	-45.4	-46.7	20.4	0.00e+00	0	35	0	572522496	62	4164
2026-01-18 03:41:09.66	351.54	27.23	-46.6	-48.3	18.8	0.00e+00	0	35	0	579862528	63	4746
2026-01-18 03:41:13.69	350.32	27.40	-46.6	-48.4	18.7	0.00e+00	0	35	0	587202560	64	4497
2026-01-18 03:41:17.72	349.08	27.56	-46.7	-48.3	18.7	0.00e+00	0	35	0	594542592	65	4227
2026-01-18 03:41:21.75	347.83	27.71	-46.9	-48.6	18.5	0.00e+00	0	35	0	602931200	64	4619
2026-01-18 03:41:25.78	346.57	27.85	-47.2	-49.0	18.1	0.00e+00	0	35	0	610271232	65	4589
2026-01-18 03:41:29.81	345.29	27.96	-47.9	-50.0	17.1	0.00e+00	0	35	0	617611264	66	4835
2026-01-18 03:41:33.84	344.01	28.07	-47.0	-48.7	18.3	0.00e+00	0	35	0	624951296	65	4441
2026-01-18 03:41:37.87	342.72	28.15	-47.2	-49.1	17.9	0.00e+00	0	35	0	632291328	65	4630
2026-01-18 03:41:41.91	341.42	28.23	-47.2	-49.1	17.9	0.00e+00	0	35	0	640679936	65	4634
2026-01-18 03:41:45.93	340.12	28.28	-47.1	-48.9	18.2	0.00e+00	0	35	0	648019968	65	4529
2026-01-18 03:41:49.96	338.82	28.32	-48.3	-50.7	16.4	0.00e+00	0	35	0	655360000	67	4945
2026-01-18 03:41:53.99	337.51	28.34	-46.5	-48.1	18.8	0.00e+00	0	35	0	662700032	65	4141
2026-01-18 03:41:58.03	336.20	28.35	-47.0	-48.8	18.3	0.00e+00	0	35	0	670040064	64	4741
2026-01-18 03:42:02.06	334.89	28.33	-47.2	-49.0	18.1	0.00e+00	0	35	0	678428672	65	4572
2026-01-18 03:42:06.08	333.59	28.31	-46.8	-48.5	18.6	0.00e+00	0	35	0	685768704	65	4330
2026-01-18 03:42:10.11	332.29	28.26	-47.1	-48.9	18.3	0.00e+00	0	35	0	693108736	65	4494
2026-01-18 03:42:14.14	330.99	28.20	-47.3	-49.2	18.0	0.00e+00	0	35	0	700448768	65	4669
2026-01-18 03:42:18.17	329.69	28.12	-46.3	-47.8	19.3	0.00e+00	0	35	0	707788800	64	4208
2026-01-18 03:42:22.21	328.40	28.03	-45.7	-47.1	20.0	0.00e+00	0	35	0	716177408	63	4129
2026-01-18 03:42:26.24	327.12	27.92	-45.7	-47.2	19.9	0.00e+00	0	35	0	723517440	63	4146
2026-01-18 03:42:30.27	325.85	27.80	-45.4	-46.7	20.4	0.00e+00	0	35	0	730857472	62	4174
2026-01-18 03:42:34.30	324.60	27.66	-46.5	-48.1	19.1	0.00e+00	0	35	0	738197504	63	4617
2026-01-18 03:42:38.33	323.35	27.50	-46.8	-48.5	18.7	0.00e+00	0	35	0	746586112	64	4550
2026-01-18 03:42:42.36	322.11	27.34	-46.5	-48.1	19.0	0.00e+00	0	35	0	753926144	64	4356
2026-01-18 03:42:46.40	320.89	27.16	-46.0	-47.4	19.7	0.00e+00	0	35	0	761266176	63	4280
2026-01-18 03:42:50.43	319.68	26.96	-46.4	-47.8	19.2	0.00e+00	0	35	0	768606208	64	4238
2026-01-18 03:42:54.46	318.49	26.76	-46.4	-48.0	19.2	0.00e+00	0	35	0	775946240	63	4559
2026-01-18 03:42:58.49	317.31	26.54	-47.1	-48.9	18.2	0.00e+00	0	35	0	783286272	65	4526
2026-01-18 03:43:02.52	316.15	26.31	-48.1	-50.3	16.9	0.00e+00	0	35	0	791674880	66	5015
2026-01-18 03:43:06.55	315.01	26.07	-48.0	-50.1	17.1	0.00e+00	0	35	0	799014912	67	4627
2026-01-18 03:43:10.58	313.89	25.82	-47.3	-49.2	18.0	0.00e+00	0	35	0	806354944	66	4395
2026-01-18 03:43:14.62	312.78	25.56	-46.7	-48.4	18.6	0.00e+00	0	35	0	813694976	65	4274
2026-01-18 03:43:18.65	311.69	25.29	-46.7	-48.4	18.6	0.00e+00	0	35	0	822083584	64	4520
2026-01-18 03:43:22.68	310.62	25.01	-45.7	-47.1	19.8	0.00e+00	0	35	0	829423616	63	4145
2026-01-18 03:43:26.71	309.57	24.72	-47.1	-48.9	18.2	0.00e+00	0	35	0	836763648	64	4777
2026-01-18 03:43:30.74	308.54	24.43	-47.4	-49.4	17.7	0.00e+00	0	35	0	844103680	65	4800
2026-01-18 03:43:34.77	307.53	24.13	-47.0	-48.8	18.2	0.00e+00	0	35	0	851443712	65	4480
2026-01-18 03:43:38.81	306.53	23.83	-47.0	-48.9	18.2	0.00e+00	0	35	0	859832320	65	4499
2026-01-18 03:43:42.83	305.56	23.52	-47.1	-48.9	18.2	0.00e+00	0	35	0	867172352	65	4519
2026-01-18 03:43:46.86	304.61	23.20	-46.0	-47.5	19.5	0.00e+00	0	35	0	874512384	64	4075
2026-01-18 03:43:50.90	303.67	22.88	-45.8	-47.3	19.8	0.00e+00	0	35	0	881852416	63	4204
2026-01-18 03:43:54.93	302.76	22.56	-45.6	-47.0	20.0	0.00e+00	0	35	0	889192448	63	4082
2026-01-18 03:43:58.96	301.86	22.23	-44.9	-46.2	20.7	0.00e+00	0	35	0	897581056	61	4172
2026-01-18 03:44:02.99	300.98	21.90	-44.8	-46.0	20.8	0.00e+00	0	35	0	904921088	61	4092
2026-01-18 03:44:07.02	300.13	21.57	-45.8	-47.3	19.7	0.00e+00	0	35	0	912261120	62	4482
2026-01-18 03:44:11.05	299.29	21.23	-46.5	-48.1	18.9	0.00e+00	0	35	0	919601152	63	4639
2026-01-18 03:44:15.09	298.46	20.89	-45.9	-47.4	19.6	0.00e+00	0	35	0	926941184	63	4248
2026-01-18 03:44:19.12	297.66	20.55	-45.9	-47.4	19.6	0.00e+00	0	35	0	935329792	63	4281
2026-01-18 03:44:23.14	296.88	20.21	-44.4	-45.6	21.2	0.00e+00	0	35	0	942669824	60	4135
2026-01-18 03:44:27.18	296.11	19.87	-44.7	-45.9	21.0	0.00e+00	0	35	0	950009856	60	4282
2026-01-18 03:44:31.21	295.36	19.53	-45.2	-46.5	20.5	0.00e+00	0	35	0	957349888	60	4558
2026-01-18 03:44:35.24	294.62	19.19	-45.1	-46.3	20.6	0.00e+00	0	35	0	965738496	61	4233
2026-01-18 03:44:39.27	293.90	18.84	-45.2	-46.4	20.5	0.00e+00	0	35	0	973078528	61	4288
2026-01-18 03:44:43.30	293.20	18.50	-45.7	-47.1	20.0	0.00e+00	0	35	0	980418560	62	4363
2026-01-18 03:44:47.34	292.52	18.16	-45.5	-46.9	20.1	0.00e+00	0	35	0	987758592	62	4250
2026-01-18 03:44:51.37	291.85	17.82	-44.8	-46.0	20.9	0.00e+00	0	35	0	995098624	61	4064
2026-01-18 03:44:55.40	291.19	17.48	-45.9	-47.3	19.8	0.00e+00	0	35	0	1002438656	62	4467
2026-01-18 03:44:59.43	290.55	17.14	-46.6	-48.2	18.8	0.00e+00	0	35	0	1010827264	64	4423
2026-01-18 03:45:03.46	289.93	16.80	-46.0	-47.4	19.6	0.00e+00	0	35	0	1018167296	63	4274
2026-01-18 03:45:07.49	289.32	16.46	-45.9	-47.4	19.6	0.00e+00	0	35	0	1025507328	63	4266
2026-01-18 03:45:11.52	288.72	16.12	-46.5	-48.1	19.0	0.00e+00	0	35	0	1032847360	63	4629
2026-01-18 03:45:15.55	288.13	15.79	-47.1	-48.9	18.2	0.00e+00	0	35	0	1041235968	65	4501
2026-01-18 03:45:19.59	287.56	15.46	-46.3	-47.8	19.0	0.00e+00	0	35	0	1048576000	64	4229
2026-01-18 03:45:23.62	287.00	15.12	-46.1	-47.5	19.5	0.00e+00	0	35	0	1055916032	63	4324
2026-01-18 03:45:27.64	286.46	14.80	-46.6	-48.3	18.7	0.00e+00	0	35	0	1063256064	63	4722
2026-01-18 03:45:31.68	285.93	14.47	-46.5	-48.1	18.8	0.00e+00	0	35	0	1070596096	64	4381
2026-01-18 03:45:35.71	285.40	14.14	-46.2	-47.8	19.1	0.00e+00	0	35	0	1078984704	64	4197
2026-01-18 03:45:39.74	284.89	13.82	-46.1	-47.6	19.3	0.00e+00	0	35	0	1086324736	63	4361
2026-01-18 03:45:43.77	284.39	13.50	-46.5	-48.1	18.8	0.00e+00	0	35	0	1093664768	63	4631
2026-01-18 03:45:47.80	283.91	13.18	-46.8	-48.6	18.3	0.00e+00	0	35	0	1101004800	64	4614
2026-01-18 03:45:51.84	283.43	12.86	-47.0	-48.8	18.1	0.00e+00	0	35	0	1109393408	64	4707
2026-01-18 03:45:55.87	282.96	12.54	-46.7	-48.4	18.5	0.00e+00	0	35	0	1116733440	64	4509
2026-01-18 03:45:59.90	282.51	12.23	-47.2	-49.0	17.9	0.00e+00	0	35	0	1124073472	64	4852
2026-01-18 03:46:03.93	282.06	11.92	-47.7	-49.8	17.2	0.00e+00	0	35	0	1131413504	66	4708
2026-01-18 03:46:07.97	281.62	11.61	-47.5	-49.4	17.4	0.00e+00	0	35	0	1138753536	66	4541
2026-01-18 03:46:12.00	281.19	11.30	-46.8	-48.5	18.3	0.00e+00	0	35	0	1146093568	65	4336
2026-01-18 03:46:16.03	280.77	11.00	-46.4	-48.0	18.8	0.00e+00	0	35	0	1154482176	64	4310
2026-01-18 03:46:20.06	280.36	10.69	-47.1	-49.0	17.8	0.00e+00	0	35	0	1161822208	64	4833
2026-01-18 03:46:24.10	279.96	10.39	-48.3	-50.6	16.2	0.00e+00	0	35	0	1169162240	67	4903
2026-01-18 03:46:28.12	279.57	10.10	-48.5	-51.0	15.8	0.00e+00	0	35	0	1176502272	67	5136
2026-01-18 03:46:32.16	279.18	9.80	-48.4	-50.8	16.0	0.00e+00	0	35	0	1184890880	67	5020
2026-01-18 03:46:36.19	278.81	9.51	-48.3	-50.7	16.1	0.00e+00	0	35	0	1192230912	67	4953
2026-01-18 03:46:40.23	278.44	9.22	-48.2	-50.5	16.2	0.00e+00	0	35	0	1199570944	67	4857
2026-01-18 03:46:44.26	278.07	8.93	-48.5	-50.9	15.8	0.00e+00	0	35	0	1206910976	67	5083
2026-01-18 03:46:48.29	277.72	8.64	-48.8	-51.4	15.3	0.00e+00	0	35	0	1214251008	68	5083
2026-01-18 03:46:52.32	277.37	8.36	-49.1	-52.0	14.8	0.00e+00	0	35	0	1222639616	68	5408
2026-01-18 03:46:56.35	277.03	8.07	-48.4	-50.9	15.8	0.00e+00	0	35	0	1229979648	68	4809
2026-01-18 03:47:00.38	276.70	7.79	-47.6	-49.6	16.9	0.00e+00	0	35	0	1237319680	67	4389
2026-01-18 03:47:04.41	276.37	7.52	-47.1	-49.0	17.5	0.00e+00	0	35	0	1244659712	66	4308
2026-01-18 03:47:08.44	276.05	7.24	-47.2	-49.2	17.3	0.00e+00	0	35	0	1251999744	66	4425
2026-01-18 03:47:12.48	275.74	6.97	-47.7	-49.9	16.6	0.00e+00	0	35	0	1260388352	66	4767
2026-01-18 03:47:16.51	275.43	6.69	-48.5	-51.2	15.2	0.00e+00	0	35	0	1267728384	67	5243
2026-01-18 03:47:20.54	275.12	6.42	-48.8	-51.7	14.8	0.00e+00	0	35	0	1275068416	68	5228
2026-01-18 03:47:24.57	274.83	6.16	-49.0	-52.0	14.4	7.00e-07	0	35	0	1282408448	69	5153
2026-01-18 03:47:28.61	274.54	5.89	-49.2	-52.3	14.1	7.00e-07	0	35	0	1290797056	69	5335
2026-01-18 03:47:32.64	274.25	5.63	-49.3	-52.6	13.8	6.10e-06	0	35	0	1298137088	69	5486
2026-01-18 03:47:36.67	273.97	5.37	-49.2	-52.5	13.8	7.00e-07	0	35	0	1305477120	69	5419
2026-01-18 03:47:40.70	273.69	5.11	-49.0	-52.2	14.1	3.00e-06	0	35	0	1312817152	69	5224
2026-01-18 03:47:44.73	273.42	4.85	-52.2	-67.2	3.8	1.49e+00	0	35	104	1317011456	75	20926
2026-01-18 03:47:48.76	273.16	4.59	-53.6	-68.6	3.8	1.49e+00	0	35	104	1317011456	77	21905
2026-01-18 03:47:52.80	272.90	4.34	-53.9	-68.9	3.8	1.49e+00	0	35	104	1317011456	78	21302
2026-01-18 03:47:56.83	272.64	4.09	-54.0	-69.0	3.8	1.49e+00	0	35	104	1317011456	78	21695
2026-01-18 03:48:00.86	272.39	3.83	-54.1	-69.1	3.8	1.49e+00	0	35	104	1317011456	78	21966
2026-01-18 03:48:04.89	272.15	3.59	-54.1	-69.2	3.8	1.49e+00	0	36	104	1317011456	78	22018
2026-01-18 03:48:08.92	271.90	3.34	-54.0	-69.1	3.8	1.49e+00	0	36	104	1317011456	78	21814
2026-01-18 03:48:12.95	271.66	3.09	-54.0	-69.0	3.8	1.49e+00	0	36	104	1317011456	78	21661
2026-01-18 03:48:16.98	271.43	2.85	-54.0	-69.0	3.8	1.49e+00	0	35	104	1317011456	78	21576
2026-01-18 03:48:21.01	271.20	2.61	-53.9	-69.0	3.8	1.49e+00	0	35	104	1317011456	78	21511
2026-01-18 03:48:25.05	270.97	2.37	-53.9	-69.0	3.8	1.49e+00	0	35	104	1317011456	78	21525
2026-01-18 03:48:29.09	270.75	2.13	-53.9	-68.9	3.8	1.49e+00	0	36	104	1317011456	78	21462
2026-01-18 03:48:33.12	270.53	1.89	-53.9	-68.9	3.8	1.49e+00	0	35	104	1317011456	78	21402

#Closed at: 2026-01-18 03:48:34
#Recorded file [1317 MB]: D:/lorett/data/31041_260118_063522.dat