passes_logs/2026/01/18/R3.2S_Murmansk/R3.2S_Murmansk__20260118_075842_KANOPUS-V_5_rec.log

#Pass ID: 20260118_075842_KANOPUS-V 5
#Satellite: KANOPUS-V 5
#Configuration: KANOPUS-V_8320
#almurnet v.1.7.20251203
#Start time: 2026-01-18 07:58:41

#Version: 2.2.20231116
#Station: R3.2S_Murmansk
#Location: 33.079688 lon 68.888172 lat
#TLE: 1 43876U 18111A   26017.66658644  .00002803  00000+0  12058-3 0  9992
#TLE: 2 43876  97.3688 286.1324 0001777  87.2776 272.8665 15.23451717391876

#Time	Az	El	Level	Level2	SNR	BER	BlckErr	Temp	State	Recorded	gain1	gain2
2026-01-18 07:58:41.72	165.13	1.96	-53.0	-61.9	3.8	7.45e-01	0	34	0	0	78	9541
2026-01-18 07:58:44.74	165.19	2.17	-53.0	-61.8	3.8	7.43e-01	0	34	104	0	77	10037
2026-01-18 07:58:47.76	165.24	2.39	-53.0	-61.8	3.8	7.45e-01	0	34	104	0	77	10030
2026-01-18 07:58:50.79	165.30	2.60	-53.0	-61.8	3.8	7.45e-01	0	34	104	0	77	10046
2026-01-18 07:58:53.81	165.36	2.82	-53.0	-61.8	3.8	7.46e-01	0	34	104	0	77	10019
2026-01-18 07:58:56.84	165.41	3.04	-53.0	-61.8	3.8	7.46e-01	0	34	104	0	77	10039
2026-01-18 07:58:59.86	165.47	3.27	-53.0	-61.8	3.8	7.45e-01	0	34	104	0	77	10040
2026-01-18 07:59:02.89	165.53	3.49	-53.0	-61.8	3.8	7.47e-01	0	34	104	0	77	10010
2026-01-18 07:59:05.91	165.59	3.72	-53.0	-61.8	3.8	7.45e-01	0	35	104	0	77	10033
2026-01-18 07:59:08.93	165.66	3.95	-53.0	-61.9	3.8	7.47e-01	0	35	104	0	77	10060
2026-01-18 07:59:11.96	165.72	4.18	-53.0	-61.8	3.8	7.45e-01	0	35	104	0	77	10003
2026-01-18 07:59:14.98	165.78	4.42	-53.0	-61.9	3.8	7.46e-01	0	35	104	0	77	10062
2026-01-18 07:59:18.01	165.85	4.66	-51.7	-61.7	3.8	7.45e-01	0	35	104	0	75	11145
2026-01-18 07:59:21.03	165.92	4.90	-47.8	-50.5	10.2	6.24e-01	0	35	0	14680064	67	4843
2026-01-18 07:59:24.06	165.98	5.15	-53.2	-61.9	3.8	7.46e-01	0	35	104	52428800	77	10125
2026-01-18 07:59:27.07	166.05	5.39	-47.4	-50.0	10.6	6.20e-01	0	35	0	85983232	66	4841
2026-01-18 07:59:30.10	166.12	5.65	-46.3	-48.7	12.0	6.14e-01	0	35	0	130023424	64	4657
2026-01-18 07:59:33.12	166.19	5.90	-46.1	-48.4	12.3	6.14e-01	0	35	0	176160768	63	4793
2026-01-18 07:59:36.15	166.27	6.16	-45.8	-48.0	12.7	6.12e-01	0	35	0	224395264	63	4585
2026-01-18 07:59:39.17	166.34	6.42	-45.9	-48.1	12.7	6.13e-01	0	35	0	270532608	63	4617
2026-01-18 07:59:42.19	166.42	6.68	-45.6	-48.0	13.0	5.88e-01	0	35	0	316669952	63	4546
2026-01-18 07:59:45.22	166.49	6.95	-45.4	-47.8	13.1	5.89e-01	0	35	0	362807296	62	4726
2026-01-18 07:59:48.24	166.57	7.23	-45.7	-48.1	12.9	5.89e-01	0	35	0	408944640	62	4886
2026-01-18 07:59:51.26	166.65	7.50	-45.4	-47.7	13.3	5.87e-01	0	35	0	455081984	62	4688
2026-01-18 07:59:54.28	166.73	7.78	-45.5	-47.8	13.2	5.88e-01	0	35	0	501219328	62	4721
2026-01-18 07:59:57.30	166.82	8.07	-45.3	-47.6	13.4	5.87e-01	0	35	0	547356672	62	4623
2026-01-18 08:00:00.33	166.90	8.35	-45.1	-47.4	13.7	5.87e-01	0	35	0	595591168	62	4523
2026-01-18 08:00:03.35	166.99	8.65	-44.9	-47.2	13.9	5.87e-01	0	35	0	641728512	61	4670
2026-01-18 08:00:06.38	167.08	8.95	-44.9	-47.2	13.8	5.86e-01	0	36	0	687865856	61	4684
2026-01-18 08:00:09.40	167.17	9.25	-45.0	-47.3	13.8	5.86e-01	0	36	0	734003200	61	4720
2026-01-18 08:00:12.43	167.27	9.56	-44.8	-47.1	14.0	5.86e-01	0	35	0	782237696	61	4608
2026-01-18 08:00:15.45	167.36	9.87	-44.7	-46.9	14.1	6.03e-01	0	36	0	828375040	61	4542
2026-01-18 08:00:18.47	167.46	10.19	-45.1	-47.3	13.7	6.03e-01	0	36	0	874512384	61	4736
2026-01-18 08:00:21.49	167.56	10.51	-44.6	-46.9	14.2	6.05e-01	0	35	0	920649728	61	4500
2026-01-18 08:00:24.52	167.66	10.84	-44.5	-46.7	14.3	6.06e-01	0	36	0	966787072	61	4404
2026-01-18 08:00:27.54	167.77	11.18	-44.3	-46.5	14.5	5.99e-01	0	36	0	1012924416	60	4576
2026-01-18 08:00:30.57	167.88	11.52	-44.2	-46.4	14.6	6.02e-01	0	36	0	1059061760	60	4501
2026-01-18 08:00:33.59	167.99	11.87	-44.0	-46.2	14.8	6.01e-01	0	36	0	1105199104	60	4404
2026-01-18 08:00:36.61	168.10	12.22	-44.0	-46.2	14.8	6.03e-01	0	36	0	1151336448	59	4668
2026-01-18 08:00:39.63	168.22	12.58	-43.9	-46.0	15.0	6.01e-01	0	35	0	1199570944	59	4571
2026-01-18 08:00:42.66	168.34	12.95	-43.7	-45.8	15.2	6.03e-01	0	36	0	1245708288	59	4454
2026-01-18 08:00:45.68	168.46	13.33	-43.7	-45.8	15.2	6.02e-01	0	36	0	1291845632	59	4469
2026-01-18 08:00:48.70	168.59	13.71	-43.5	-45.5	15.4	6.03e-01	0	36	0	1337982976	59	4340
2026-01-18 08:00:51.73	168.72	14.11	-43.4	-45.5	15.5	6.03e-01	0	36	0	1386217472	58	4551
2026-01-18 08:00:54.75	168.86	14.51	-43.0	-45.1	15.9	6.03e-01	0	36	0	1432354816	58	4351
2026-01-18 08:00:57.78	169.00	14.92	-42.8	-44.8	16.0	6.01e-01	0	36	0	1476395008	57	4478
2026-01-18 08:01:00.80	169.14	15.33	-42.6	-44.6	16.2	6.01e-01	0	36	0	1522532352	57	4375
2026-01-18 08:01:03.82	169.29	15.76	-42.4	-44.3	16.4	6.01e-01	0	36	0	1568669696	56	4490
2026-01-18 08:01:06.84	169.44	16.20	-42.4	-44.3	16.5	6.02e-01	0	36	0	1616904192	56	4454
2026-01-18 08:01:09.87	169.60	16.65	-42.3	-44.2	16.5	6.02e-01	0	36	0	1663041536	56	4415
2026-01-18 08:01:12.89	169.76	17.11	-42.3	-44.2	16.6	6.00e-01	0	36	0	1709178880	56	4437
2026-01-18 08:01:15.91	169.93	17.57	-42.2	-44.2	16.6	6.00e-01	0	36	0	1755316224	56	4392
2026-01-18 08:01:18.94	170.10	18.06	-42.0	-44.0	16.7	6.00e-01	0	36	0	1803550720	56	4329
2026-01-18 08:01:21.96	170.28	18.55	-42.2	-44.3	16.7	6.02e-01	0	36	0	1849688064	55	4740
2026-01-18 08:01:24.98	170.47	19.06	-41.7	-43.7	17.1	6.03e-01	0	36	0	1895825408	55	4440
2026-01-18 08:01:28.00	170.66	19.57	-41.7	-43.6	17.2	5.96e-01	0	36	0	1941962752	55	4388
2026-01-18 08:01:31.03	170.86	20.11	-41.3	-43.2	17.5	6.00e-01	0	36	0	1988100096	54	4424
2026-01-18 08:01:34.05	171.07	20.66	-41.4	-43.3	17.4	6.02e-01	0	36	0	2034237440	54	4464
2026-01-18 08:01:37.07	171.29	21.22	-41.2	-43.0	17.7	5.98e-01	0	36	0	2080374784	54	4316
2026-01-18 08:01:40.10	171.51	21.80	-41.2	-43.0	17.8	5.85e-01	0	36	0	2126512128	54	4319
2026-01-18 08:01:43.12	171.75	22.39	-41.2	-43.0	17.7	5.85e-01	0	36	0	2172649472	54	4338
2026-01-18 08:01:46.14	171.99	23.01	-41.3	-43.2	17.7	5.86e-01	0	36	0	2220883968	54	4397
2026-01-18 08:01:49.17	172.25	23.64	-41.3	-43.2	17.7	5.85e-01	0	36	0	2267021312	54	4408
2026-01-18 08:01:52.19	172.51	24.29	-40.9	-42.8	18.0	5.86e-01	0	36	0	2313158656	53	4453
2026-01-18 08:01:55.21	172.79	24.96	-40.7	-42.6	18.1	5.84e-01	0	36	0	2359296000	53	4345
2026-01-18 08:01:58.24	173.09	25.65	-40.5	-42.4	18.2	5.85e-01	0	36	0	2407530496	53	4271
2026-01-18 08:02:01.26	173.39	26.36	-40.7	-42.6	18.1	5.86e-01	0	36	0	2453667840	53	4351
2026-01-18 08:02:04.28	173.71	27.09	-40.7	-42.4	18.3	5.86e-01	0	36	0	2499805184	53	4279
2026-01-18 08:02:07.31	174.05	27.86	-40.7	-42.4	18.2	5.85e-01	0	36	0	2545942528	53	4271
2026-01-18 08:02:10.33	174.41	28.64	-40.8	-42.4	18.2	5.85e-01	0	36	0	2592079872	53	4289
2026-01-18 08:02:13.35	174.78	29.45	-41.0	-42.7	18.1	5.86e-01	0	36	0	2638217216	53	4420
2026-01-18 08:02:16.38	175.18	30.29	-41.1	-42.9	17.9	5.86e-01	0	36	0	2684354560	53	4516
2026-01-18 08:02:19.40	175.59	31.15	-41.1	-42.8	17.9	5.99e-01	0	36	0	2730491904	53	4482
2026-01-18 08:02:22.42	176.04	32.05	-41.3	-43.1	17.8	6.00e-01	0	36	0	2776629248	53	4606
2026-01-18 08:02:25.45	176.51	32.98	-41.4	-43.2	17.7	5.99e-01	0	36	0	2824863744	53	4662
2026-01-18 08:02:28.47	177.00	33.94	-40.9	-42.7	18.0	5.98e-01	0	36	0	2871001088	53	4426
2026-01-18 08:02:31.49	177.53	34.93	-40.4	-42.2	18.3	6.04e-01	0	36	0	2917138432	52	4399
2026-01-18 08:02:34.51	178.10	35.95	-40.6	-42.5	18.2	5.96e-01	0	36	0	2963275776	52	4560
2026-01-18 08:02:37.54	178.70	37.02	-40.4	-42.3	18.3	5.96e-01	0	36	0	3009413120	52	4483
2026-01-18 08:02:40.56	179.35	38.12	-40.2	-42.3	18.2	5.99e-01	0	36	0	3055550464	52	4475
2026-01-18 08:02:43.59	180.05	39.27	-40.3	-42.4	18.3	6.00e-01	0	36	0	3101687808	52	4507
2026-01-18 08:02:46.61	180.79	40.44	-39.5	-41.7	18.8	6.03e-01	0	36	0	3147825152	51	4408
2026-01-18 08:02:49.63	181.60	41.66	-39.1	-41.2	19.0	5.96e-01	0	36	0	3196059648	50	4412
2026-01-18 08:02:52.65	182.47	42.93	-38.8	-41.0	19.2	5.96e-01	0	36	0	3242196992	49	4556
2026-01-18 08:02:55.67	183.42	44.23	-38.6	-40.9	19.2	5.97e-01	0	36	0	3288334336	49	4538
2026-01-18 08:02:58.69	184.45	45.57	-38.6	-40.8	19.3	5.99e-01	0	36	0	3334471680	49	4476
2026-01-18 08:03:01.72	185.58	46.96	-38.0	-40.1	19.7	6.01e-01	0	36	0	3380609024	48	4356
2026-01-18 08:03:04.74	186.81	48.39	-38.1	-40.1	19.7	6.00e-01	0	36	0	3428843520	48	4372
2026-01-18 08:03:07.77	188.18	49.85	-37.2	-39.3	19.0	5.99e-01	0	36	0	3474980864	45	4733
2026-01-18 08:03:10.79	189.68	51.35	-37.3	-39.5	19.0	5.96e-01	0	36	0	3521118208	45	4845
2026-01-18 08:03:13.81	191.34	52.88	-37.3	-39.4	19.1	5.98e-01	0	36	0	3567255552	45	4788
2026-01-18 08:03:16.83	193.19	54.44	-37.7	-39.7	18.9	5.99e-01	0	36	0	3613392896	46	4696
2026-01-18 08:03:19.86	195.26	56.02	-38.0	-40.1	18.6	6.01e-01	0	36	0	3659530240	46	4907
2026-01-18 08:03:22.88	197.58	57.61	-38.4	-40.4	18.5	6.01e-01	0	36	0	3705667584	47	4810
2026-01-18 08:03:25.90	200.19	59.20	-38.3	-40.4	18.5	5.98e-01	0	36	0	3751804928	47	4778
2026-01-18 08:03:28.93	203.14	60.77	-38.7	-40.8	18.3	5.95e-01	0	36	0	3800039424	47	5021
2026-01-18 08:03:31.95	206.48	62.31	-40.0	-42.3	18.4	5.99e-01	0	36	0	3846176768	50	5002
2026-01-18 08:03:34.98	210.27	63.79	-40.0	-42.4	18.4	5.99e-01	0	36	0	3892314112	50	5058
2026-01-18 08:03:38.00	214.56	65.19	-39.7	-42.0	18.6	5.98e-01	0	36	0	3938451456	50	4823
2026-01-18 08:03:41.03	219.41	66.48	-39.6	-42.0	18.6	5.98e-01	0	36	0	3986685952	50	4835
2026-01-18 08:03:44.05	224.83	67.61	-39.8	-42.1	18.6	5.96e-01	0	36	0	4032823296	50	4881
2026-01-18 08:03:47.07	230.82	68.56	-39.8	-41.9	18.7	6.01e-01	0	36	0	4076863488	50	4798
2026-01-18 08:03:50.09	237.34	69.28	-39.6	-41.8	18.7	5.99e-01	0	36	0	4123000832	50	4717
2026-01-18 08:03:53.12	244.30	69.74	-39.6	-41.7	18.9	5.99e-01	0	36	0	4169138176	50	4683
2026-01-18 08:03:56.14	251.47	69.91	-39.7	-41.9	18.7	5.99e-01	0	36	0	4217372672	50	4805
2026-01-18 08:03:59.17	258.69	69.79	-39.5	-41.8	18.8	5.98e-01	0	36	0	4263510016	50	4726
2026-01-18 08:04:02.19	265.68	69.38	-39.5	-41.6	18.9	6.04e-01	0	36	0	4309647360	50	4627
2026-01-18 08:04:05.21	272.29	68.71	-39.3	-41.4	19.1	5.98e-01	0	36	0	4355784704	50	4537
2026-01-18 08:04:08.23	278.38	67.81	-39.5	-41.6	19.0	6.00e-01	0	36	0	4404019200	50	4629
2026-01-18 08:04:11.26	283.92	66.70	-40.0	-42.2	18.6	6.01e-01	0	36	0	4450156544	50	4962
2026-01-18 08:04:14.28	288.86	65.45	-39.9	-42.2	18.6	5.99e-01	0	36	0	4496293888	51	4669
2026-01-18 08:04:17.31	293.25	64.06	-39.9	-42.0	18.7	6.01e-01	0	36	0	4542431232	51	4561
2026-01-18 08:04:20.33	297.12	62.60	-40.1	-42.2	18.6	5.97e-01	0	36	0	4588568576	51	4674
2026-01-18 08:04:23.35	300.53	61.07	-40.2	-42.2	18.7	6.00e-01	0	36	0	4634705920	51	4663
2026-01-18 08:04:26.37	303.54	59.51	-39.5	-41.3	19.2	5.97e-01	0	36	0	4680843264	50	4468
2026-01-18 08:04:29.39	306.21	57.93	-39.9	-42.0	18.8	5.99e-01	0	36	0	4726980608	50	4827
2026-01-18 08:04:32.42	308.58	56.34	-39.1	-41.1	19.3	6.03e-01	0	36	0	4773117952	50	4362
2026-01-18 08:04:35.45	310.70	54.76	-38.8	-40.8	19.4	5.99e-01	0	36	0	4821352448	49	4475
2026-01-18 08:04:38.47	312.59	53.21	-38.6	-40.5	19.6	6.00e-01	0	36	0	4867489792	49	4323
2026-01-18 08:04:41.49	314.28	51.68	-38.3	-40.3	19.7	6.02e-01	0	36	0	4913627136	48	4478
2026-01-18 08:04:44.51	315.81	50.17	-38.1	-40.3	19.7	6.01e-01	0	36	0	4959764480	48	4442
2026-01-18 08:04:47.54	317.19	48.70	-38.2	-40.3	19.6	6.02e-01	0	36	0	5007998976	48	4454
2026-01-18 08:04:50.57	318.45	47.27	-38.4	-40.5	19.7	6.01e-01	0	36	0	5054136320	48	4558
2026-01-18 08:04:53.59	319.60	45.88	-38.7	-40.7	19.5	6.05e-01	0	36	0	5100273664	48	4688
2026-01-18 08:04:56.62	320.65	44.53	-38.7	-40.8	19.4	6.01e-01	0	36	0	5146411008	48	4758
2026-01-18 08:04:59.64	321.61	43.23	-38.8	-40.8	19.4	6.01e-01	0	36	0	5192548352	48	4747
2026-01-18 08:05:02.67	322.50	41.96	-39.0	-41.0	19.2	6.02e-01	0	36	0	5238685696	48	4845
2026-01-18 08:05:05.69	323.31	40.73	-39.3	-41.3	19.1	6.00e-01	0	36	0	5284823040	49	4745
2026-01-18 08:05:08.71	324.07	39.55	-39.8	-41.9	18.7	6.01e-01	0	36	0	5330960384	50	4772
2026-01-18 08:05:11.73	324.77	38.41	-40.3	-42.4	18.3	6.01e-01	0	36	0	5379194880	51	4803
2026-01-18 08:05:14.76	325.43	37.30	-40.7	-42.8	18.0	6.00e-01	0	36	0	5425332224	52	4738
2026-01-18 08:05:17.79	326.05	36.23	-40.9	-42.9	18.0	6.03e-01	0	36	0	5471469568	52	4794
2026-01-18 08:05:20.81	326.62	35.20	-41.1	-43.1	17.9	6.01e-01	0	36	0	5517606912	52	4897
2026-01-18 08:05:23.83	327.15	34.20	-41.3	-43.4	17.6	6.00e-01	0	36	0	5563744256	53	4763
2026-01-18 08:05:26.86	327.66	33.24	-41.5	-43.6	17.5	6.02e-01	0	36	0	5609881600	53	4879
2026-01-18 08:05:29.88	328.13	32.31	-41.6	-43.6	17.5	6.06e-01	0	36	0	5656018944	53	4891
2026-01-18 08:05:32.91	328.58	31.41	-41.4	-43.4	17.6	6.05e-01	0	36	0	5702156288	53	4810
2026-01-18 08:05:35.93	329.00	30.54	-41.4	-43.4	17.6	6.01e-01	0	36	0	5750390784	53	4794
2026-01-18 08:05:38.95	329.40	29.70	-41.5	-43.5	17.5	6.03e-01	0	36	0	5796528128	53	4851
2026-01-18 08:05:41.98	329.78	28.89	-41.4	-43.4	17.6	6.02e-01	0	36	0	5842665472	53	4776
2026-01-18 08:05:45.00	330.14	28.10	-41.4	-43.4	17.5	6.01e-01	0	36	0	5888802816	53	4814
2026-01-18 08:05:48.02	330.48	27.34	-41.4	-43.5	17.5	6.03e-01	0	36	0	5934940160	53	4819
2026-01-18 08:05:51.05	330.81	26.60	-41.5	-43.5	17.5	6.00e-01	0	36	0	5983174656	53	4850
2026-01-18 08:05:54.07	331.12	25.89	-41.5	-43.5	17.5	6.00e-01	0	36	0	6029312000	53	4837
2026-01-18 08:05:57.10	331.41	25.19	-41.6	-43.6	17.4	6.01e-01	0	36	0	6075449344	53	4899
2026-01-18 08:06:00.12	331.69	24.52	-41.5	-43.6	17.4	6.02e-01	0	36	0	6121586688	53	4873
2026-01-18 08:06:03.13	331.96	23.87	-41.5	-43.5	17.4	6.01e-01	0	36	0	6167724032	53	4855
2026-01-18 08:06:06.15	332.22	23.24	-41.6	-43.7	17.4	5.72e-01	0	36	0	6213861376	53	4934
2026-01-18 08:06:09.18	332.47	22.62	-41.6	-43.8	17.2	5.97e-01	0	36	0	6259998720	53	4987
2026-01-18 08:06:12.20	332.70	22.03	-41.7	-43.8	17.1	6.00e-01	0	36	0	6306136064	53	5041
2026-01-18 08:06:15.23	332.93	21.45	-41.6	-43.8	17.2	6.00e-01	0	36	0	6354370560	54	4720
2026-01-18 08:06:18.25	333.15	20.88	-41.7	-43.9	17.1	6.03e-01	0	36	0	6400507904	54	4778
2026-01-18 08:06:21.27	333.36	20.33	-41.9	-44.0	17.0	6.02e-01	0	36	0	6446645248	54	4847
2026-01-18 08:06:24.29	333.57	19.80	-42.1	-44.2	16.8	6.00e-01	0	36	0	6492782592	54	4953
2026-01-18 08:06:27.32	333.76	19.28	-42.1	-44.2	16.8	6.03e-01	0	36	0	6538919936	54	4948
2026-01-18 08:06:30.35	333.95	18.77	-42.3	-44.4	16.7	5.88e-01	0	36	0	6587154432	55	4781
2026-01-18 08:06:33.37	334.13	18.27	-42.3	-44.4	16.6	5.94e-01	0	36	0	6631194624	55	4811
2026-01-18 08:06:36.39	334.31	17.79	-42.5	-44.6	16.5	5.94e-01	0	36	0	6677331968	55	4900
2026-01-18 08:06:39.41	334.48	17.32	-42.6	-44.8	16.3	6.03e-01	0	36	0	6723469312	55	5001
2026-01-18 08:06:42.44	334.64	16.86	-42.7	-44.8	16.1	5.92e-01	0	36	0	6771703808	56	4742
2026-01-18 08:06:45.46	334.80	16.41	-42.8	-44.9	16.0	5.93e-01	0	36	0	6817841152	56	4802
2026-01-18 08:06:48.49	334.96	15.97	-42.9	-45.1	15.8	6.02e-01	0	36	0	6863978496	56	4910
2026-01-18 08:06:51.51	335.11	15.55	-42.9	-45.1	15.9	5.86e-01	0	36	0	6910115840	56	4917
2026-01-18 08:06:54.53	335.25	15.13	-43.1	-45.3	15.7	5.84e-01	0	36	0	6958350336	56	5029
2026-01-18 08:06:57.56	335.39	14.72	-43.1	-45.4	15.6	5.85e-01	0	36	0	7004487680	56	5048
2026-01-18 08:07:00.58	335.53	14.32	-43.4	-45.6	15.4	5.85e-01	0	36	0	7050625024	57	4922
2026-01-18 08:07:03.61	335.66	13.92	-53.9	-62.8	3.8	7.46e-01	0	36	104	7086276608	78	10566
2026-01-18 08:07:06.63	335.79	13.54	-53.9	-62.7	3.8	7.45e-01	0	36	104	7086276608	78	10474
2026-01-18 08:07:09.65	335.92	13.16	-53.8	-62.7	3.8	7.45e-01	0	36	104	7086276608	78	10417
2026-01-18 08:07:12.68	336.04	12.79	-53.8	-62.6	3.8	7.45e-01	0	36	104	7086276608	78	10412
2026-01-18 08:07:15.70	336.16	12.43	-53.8	-62.6	3.8	7.46e-01	0	36	104	7086276608	78	10370
2026-01-18 08:07:18.73	336.27	12.07	-53.8	-62.6	3.8	7.44e-01	0	36	104	7086276608	78	10370
2026-01-18 08:07:21.75	336.39	11.72	-53.7	-62.6	3.8	7.46e-01	0	36	104	7086276608	78	10313
2026-01-18 08:07:24.77	336.50	11.38	-53.7	-62.5	3.8	7.44e-01	0	36	104	7086276608	78	10277
2026-01-18 08:07:27.79	336.60	11.05	-53.7	-62.5	3.8	7.46e-01	0	36	104	7086276608	78	10245
2026-01-18 08:07:30.82	336.71	10.72	-53.7	-62.5	3.8	7.44e-01	0	36	104	7086276608	78	10245
2026-01-18 08:07:33.84	336.81	10.39	-53.6	-62.5	3.8	7.46e-01	0	36	104	7086276608	78	10202
2026-01-18 08:07:36.87	336.91	10.07	-53.6	-62.5	3.8	7.44e-01	0	36	104	7086276608	78	10209
2026-01-18 08:07:39.89	337.01	9.76	-53.6	-62.4	3.8	7.42e-01	0	36	104	7086276608	78	10140
2026-01-18 08:07:42.91	337.10	9.45	-53.6	-62.4	3.8	7.45e-01	0	36	104	7086276608	78	10174
2026-01-18 08:07:45.93	337.20	9.15	-53.5	-62.3	3.8	7.43e-01	0	36	104	7086276608	78	10020
2026-01-18 08:07:48.96	337.29	8.85	-53.5	-62.3	3.8	7.46e-01	0	36	104	7086276608	78	10027
2026-01-18 08:07:51.98	337.38	8.56	-53.4	-62.3	3.8	7.45e-01	0	36	104	7086276608	78	9984
2026-01-18 08:07:55.01	337.46	8.27	-53.5	-62.3	3.8	7.46e-01	0	36	104	7086276608	78	10018
2026-01-18 08:07:58.03	337.55	7.98	-53.4	-62.2	3.8	7.45e-01	0	36	104	7086276608	78	9886
2026-01-18 08:08:01.05	337.63	7.70	-53.4	-62.2	3.8	7.45e-01	0	36	104	7086276608	78	9898
2026-01-18 08:08:04.08	337.72	7.42	-53.3	-62.2	3.8	7.46e-01	0	36	104	7086276608	78	9856
2026-01-18 08:08:07.10	337.80	7.15	-53.4	-62.2	3.8	7.45e-01	0	36	104	7086276608	78	9910
2026-01-18 08:08:10.12	337.88	6.88	-53.2	-62.0	3.8	7.46e-01	0	36	104	7086276608	78	9714
2026-01-18 08:08:13.15	337.95	6.62	-53.3	-62.1	3.8	7.44e-01	0	36	104	7086276608	78	9738
2026-01-18 08:08:16.17	338.03	6.36	-53.2	-62.0	3.8	7.45e-01	0	36	104	7086276608	78	9656
2026-01-18 08:08:19.20	338.11	6.10	-53.2	-62.1	3.8	7.45e-01	0	36	104	7086276608	78	9751
2026-01-18 08:08:22.22	338.18	5.84	-53.0	-61.9	3.8	7.45e-01	0	36	104	7086276608	78	9500
2026-01-18 08:08:25.25	338.25	5.59	-53.1	-61.9	3.8	7.43e-01	0	36	104	7086276608	78	9591
2026-01-18 08:08:28.27	338.32	5.34	-53.0	-61.8	3.8	7.46e-01	0	36	104	7086276608	77	10007
2026-01-18 08:08:31.29	338.39	5.10	-53.0	-61.9	3.8	7.48e-01	0	36	104	7086276608	77	10088
2026-01-18 08:08:34.32	338.46	4.86	-53.6	-62.4	3.8	7.45e-01	0	36	104	7086276608	77	10758
2026-01-18 08:08:37.34	338.53	4.62	-54.2	-63.0	3.8	7.46e-01	0	36	104	7086276608	78	10855
2026-01-18 08:08:40.36	338.59	4.38	-54.5	-63.3	3.8	7.45e-01	0	36	104	7086276608	79	10626
2026-01-18 08:08:43.38	338.66	4.15	-54.7	-63.5	3.8	7.46e-01	0	36	104	7086276608	79	10863
2026-01-18 08:08:46.41	338.72	3.92	-54.7	-63.5	3.8	7.45e-01	0	36	104	7086276608	80	10277
2026-01-18 08:08:49.44	338.79	3.69	-54.8	-63.6	3.8	7.44e-01	0	36	104	7086276608	80	10327
2026-01-18 08:08:52.46	338.85	3.46	-54.8	-63.6	3.8	7.47e-01	0	36	104	7086276608	80	10400
2026-01-18 08:08:55.49	338.91	3.24	-54.8	-63.6	3.8	7.44e-01	0	36	104	7086276608	80	10397
2026-01-18 08:08:58.51	338.97	3.02	-54.7	-63.6	3.8	7.45e-01	0	36	104	7086276608	80	10316
2026-01-18 08:09:01.54	339.03	2.80	-54.7	-63.6	3.8	7.45e-01	0	36	104	7086276608	80	10351
2026-01-18 08:09:04.56	339.09	2.58	-54.7	-63.6	3.8	7.47e-01	0	36	104	7086276608	80	10313
2026-01-18 08:09:07.59	339.14	2.37	-54.7	-63.6	3.8	7.46e-01	0	36	104	7086276608	80	10294
2026-01-18 08:09:10.61	339.20	2.15	-54.7	-63.5	3.8	7.45e-01	0	36	104	7086276608	80	10264

#Closed at: 2026-01-18 08:09:13
#Recorded file [7086 MB]: D:/lorett/data/31041_260118_105841.dat