passes_logs/2026/01/18/R3.2S_Murmansk/R3.2S_Murmansk__20260118_111059_FENGYUN_3D_rec.log

#Pass ID: 20260118_111059_FENGYUN 3D
#Satellite: FENGYUN 3D
#Configuration: FENGYUN 3D
#almurnet v.1.7.20251203
#Start time: 2026-01-18 11:11:00

#Version: 2.2.20231116
#Station: R3.2S_Murmansk
#Location: 33.079688 lon 68.888172 lat
#TLE: 1 43010U 17072A   26017.61121112  .00000213  00000+0  12257-3 0  9991
#TLE: 2 43010  98.9934 349.4672 0002374 103.9362 256.2078 14.19696413423628

#Time	Az	El	Level	Level2	SNR	BER	BlckErr	Temp	State	Recorded	gain1	gain2
2026-01-18 11:11:00.09	142.38	2.02	-51.9	-63.8	3.8	8.46e-01	0	34	0	0	75	14145
2026-01-18 11:11:04.12	142.35	2.28	-51.9	-63.8	3.8	8.47e-01	0	34	104	0	74	14965
2026-01-18 11:11:08.15	142.32	2.55	-51.9	-63.8	3.8	8.45e-01	0	34	104	0	74	14957
2026-01-18 11:11:12.18	142.29	2.81	-51.9	-63.8	3.8	8.46e-01	0	34	104	0	74	14940
2026-01-18 11:11:16.21	142.26	3.08	-51.9	-63.7	3.8	8.46e-01	0	34	104	0	74	14718
2026-01-18 11:11:20.25	142.23	3.35	-51.8	-63.5	3.8	8.46e-01	0	35	104	0	74	14449
2026-01-18 11:11:24.28	142.20	3.62	-51.6	-61.6	3.8	8.45e-01	0	34	104	0	74	11674
2026-01-18 11:11:28.31	142.17	3.90	-51.2	-58.7	4.7	7.89e-01	0	35	0	0	74	8335
2026-01-18 11:11:32.35	142.14	4.17	-50.8	-57.0	5.8	3.81e-01	0	35	0	3145728	73	7215
2026-01-18 11:11:36.38	142.11	4.46	-49.3	-52.9	9.7	1.73e-02	0	35	0	26214400	70	5399
2026-01-18 11:11:40.41	142.07	4.74	-46.4	-48.2	14.5	3.40e-06	0	35	0	49283072	64	4439
2026-01-18 11:11:44.44	142.04	5.03	-44.9	-46.4	16.4	0.00e+00	0	35	0	71303168	61	4261
2026-01-18 11:11:48.47	142.00	5.32	-45.7	-47.3	15.4	5.37e-05	0	35	0	94371840	63	4238
2026-01-18 11:11:52.51	141.96	5.61	-44.2	-45.4	17.8	0.00e+00	0	35	0	117440512	59	4284
2026-01-18 11:11:56.54	141.93	5.91	-44.2	-45.5	17.8	0.00e+00	0	35	0	139460608	59	4299
2026-01-18 11:12:00.57	141.89	6.21	-44.0	-45.3	18.1	0.00e+00	0	35	0	162529280	59	4206
2026-01-18 11:12:04.60	141.85	6.51	-44.2	-45.5	17.9	0.00e+00	0	35	0	185597952	59	4308
2026-01-18 11:12:08.63	141.81	6.82	-44.3	-45.5	17.9	0.00e+00	0	35	0	207618048	59	4332
2026-01-18 11:12:12.67	141.76	7.13	-43.8	-45.0	18.4	0.00e+00	0	35	0	230686720	59	4091
2026-01-18 11:12:16.70	141.72	7.44	-43.6	-44.8	18.8	0.00e+00	0	35	0	253755392	59	3969
2026-01-18 11:12:20.73	141.68	7.76	-43.4	-44.6	19.0	0.00e+00	0	35	0	275775488	58	4101
2026-01-18 11:12:24.76	141.63	8.09	-43.5	-44.6	19.0	0.00e+00	0	35	0	297795584	58	4118
2026-01-18 11:12:28.79	141.58	8.41	-43.3	-44.4	19.2	0.00e+00	0	35	0	320864256	58	4034
2026-01-18 11:12:32.83	141.53	8.74	-43.2	-44.3	19.4	0.00e+00	0	35	0	343932928	58	3979
2026-01-18 11:12:36.86	141.48	9.08	-43.2	-44.2	19.5	0.00e+00	0	35	0	365953024	58	3952
2026-01-18 11:12:40.89	141.43	9.42	-43.1	-44.2	19.6	0.00e+00	0	35	0	389021696	58	3919
2026-01-18 11:12:44.92	141.38	9.76	-43.0	-44.1	19.7	0.00e+00	0	35	0	412090368	58	3880
2026-01-18 11:12:48.96	141.32	10.12	-42.8	-43.8	19.9	0.00e+00	0	35	0	434110464	57	3981
2026-01-18 11:12:52.98	141.27	10.47	-42.7	-43.8	20.0	0.00e+00	0	36	0	457179136	57	3964
2026-01-18 11:12:57.01	141.21	10.83	-42.6	-43.7	20.1	0.00e+00	0	36	0	480247808	57	3920
2026-01-18 11:13:01.05	141.15	11.19	-42.6	-43.6	20.2	0.00e+00	0	36	0	502267904	57	3897
2026-01-18 11:13:05.08	141.09	11.56	-42.5	-43.5	20.3	0.00e+00	0	35	0	525336576	56	4093
2026-01-18 11:13:09.11	141.02	11.94	-42.6	-43.6	20.3	0.00e+00	0	35	0	548405248	56	4105
2026-01-18 11:13:13.15	140.96	12.32	-42.4	-43.4	20.4	0.00e+00	0	35	0	570425344	56	4043
2026-01-18 11:13:17.18	140.89	12.71	-42.4	-43.4	20.4	0.00e+00	0	36	0	593494016	56	4048
2026-01-18 11:13:21.21	140.82	13.11	-42.4	-43.4	20.5	0.00e+00	0	35	0	616562688	56	4048
2026-01-18 11:13:25.24	140.74	13.51	-42.5	-43.5	20.4	0.00e+00	0	36	0	638582784	56	4075
2026-01-18 11:13:29.27	140.67	13.91	-42.1	-43.1	20.8	0.00e+00	0	36	0	660602880	56	3879
2026-01-18 11:13:33.31	140.59	14.33	-42.0	-43.0	21.0	0.00e+00	0	36	0	683671552	56	3827
2026-01-18 11:13:37.34	140.51	14.75	-41.7	-42.6	21.2	0.00e+00	0	36	0	706740224	55	3883
2026-01-18 11:13:41.37	140.43	15.18	-41.4	-42.3	21.5	0.00e+00	0	36	0	728760320	54	3998
2026-01-18 11:13:45.41	140.34	15.62	-41.3	-42.2	21.6	0.00e+00	0	36	0	751828992	54	3920
2026-01-18 11:13:49.44	140.26	16.06	-41.1	-42.0	21.9	0.00e+00	0	36	0	774897664	54	3832
2026-01-18 11:13:53.47	140.16	16.51	-41.1	-42.0	21.9	0.00e+00	0	36	0	796917760	54	3825
2026-01-18 11:13:57.51	140.07	16.98	-40.8	-41.6	22.2	0.00e+00	0	36	0	819986432	53	3901
2026-01-18 11:14:01.54	139.97	17.45	-40.6	-41.4	22.4	0.00e+00	0	36	0	843055104	53	3812
2026-01-18 11:14:05.57	139.87	17.92	-40.4	-41.2	22.6	0.00e+00	0	36	0	865075200	52	3932
2026-01-18 11:14:09.60	139.76	18.41	-40.1	-40.9	22.8	0.00e+00	0	36	0	888143872	52	3820
2026-01-18 11:14:13.64	139.65	18.91	-40.1	-41.0	22.8	0.00e+00	0	36	0	911212544	52	3833
2026-01-18 11:14:17.67	139.54	19.42	-40.3	-41.1	22.7	0.00e+00	0	36	0	933232640	52	3907
2026-01-18 11:14:21.71	139.42	19.94	-40.5	-41.3	22.5	0.00e+00	0	35	0	956301312	52	3999
2026-01-18 11:14:25.73	139.30	20.47	-40.7	-41.5	22.3	0.00e+00	0	36	0	979369984	52	4087
2026-01-18 11:14:29.76	139.17	21.01	-40.5	-41.3	22.5	0.00e+00	0	36	0	1001390080	52	3994
2026-01-18 11:14:33.79	139.04	21.56	-40.2	-41.1	22.8	0.00e+00	0	36	0	1024458752	52	3870
2026-01-18 11:14:37.82	138.90	22.12	-39.8	-40.6	23.3	0.00e+00	0	36	0	1046478848	51	3877
2026-01-18 11:14:41.85	138.76	22.70	-39.6	-40.4	23.5	0.00e+00	0	36	0	1069547520	51	3800
2026-01-18 11:14:45.89	138.61	23.29	-39.7	-40.5	23.4	0.00e+00	0	36	0	1091567616	51	3836
2026-01-18 11:14:49.92	138.45	23.90	-39.6	-40.4	23.5	0.00e+00	0	36	0	1114636288	51	3818
2026-01-18 11:14:53.95	138.29	24.51	-39.8	-40.6	23.3	0.00e+00	0	36	0	1137704960	51	3874
2026-01-18 11:14:57.98	138.12	25.15	-39.8	-40.6	23.4	0.00e+00	0	36	0	1159725056	51	3893
2026-01-18 11:15:02.01	137.94	25.79	-39.6	-40.4	23.6	0.00e+00	0	36	0	1182793728	51	3787
2026-01-18 11:15:06.03	137.76	26.45	-39.4	-40.2	23.8	0.00e+00	0	36	0	1205862400	50	3938
2026-01-18 11:15:10.06	137.56	27.13	-39.5	-40.2	23.7	0.00e+00	0	36	0	1227882496	50	3955
2026-01-18 11:15:14.09	137.36	27.83	-39.5	-40.3	23.7	0.00e+00	0	36	0	1250951168	50	3969
2026-01-18 11:15:18.12	137.15	28.54	-39.4	-40.2	23.7	0.00e+00	0	36	0	1274019840	50	3949
2026-01-18 11:15:22.15	136.93	29.28	-39.4	-40.2	23.7	0.00e+00	0	36	0	1296039936	50	3940
2026-01-18 11:15:26.19	136.69	30.03	-39.2	-40.0	23.9	0.00e+00	0	36	0	1319108608	50	3847
2026-01-18 11:15:30.21	136.44	30.80	-39.1	-39.9	24.0	0.00e+00	0	36	0	1342177280	50	3795
2026-01-18 11:15:34.24	136.19	31.59	-39.1	-39.8	24.1	0.00e+00	0	36	0	1364197376	49	3997
2026-01-18 11:15:38.27	135.91	32.40	-38.5	-39.3	24.6	0.00e+00	0	36	0	1387266048	49	3740
2026-01-18 11:15:42.30	135.62	33.23	-38.6	-39.3	24.6	0.00e+00	0	36	0	1410334720	48	3989
2026-01-18 11:15:46.33	135.32	34.09	-38.8	-39.6	24.3	0.00e+00	0	36	0	1432354816	48	4119
2026-01-18 11:15:50.37	135.00	34.97	-38.6	-39.3	24.9	0.00e+00	0	36	0	1454374912	48	3996
2026-01-18 11:15:54.40	134.66	35.88	-38.6	-39.3	24.9	0.00e+00	0	36	0	1477443584	48	3996
2026-01-18 11:15:58.43	134.30	36.81	-38.9	-39.6	24.7	0.00e+00	0	36	0	1500512256	48	4117
2026-01-18 11:16:02.46	133.92	37.76	-38.9	-39.6	24.6	0.00e+00	0	36	0	1522532352	48	4136
2026-01-18 11:16:06.49	133.51	38.74	-38.9	-39.6	24.6	0.00e+00	0	35	0	1545601024	48	4144
2026-01-18 11:16:10.52	133.08	39.75	-38.9	-39.6	24.7	0.00e+00	0	36	0	1568669696	48	4137
2026-01-18 11:16:14.55	132.61	40.78	-38.8	-39.5	24.8	0.00e+00	0	36	0	1590689792	48	4066
2026-01-18 11:16:18.58	132.12	41.85	-39.6	-40.3	24.1	0.00e+00	0	36	0	1613758464	49	4220
2026-01-18 11:16:22.62	131.59	42.94	-39.4	-40.2	24.2	0.00e+00	0	36	0	1636827136	49	4148
2026-01-18 11:16:26.66	131.02	44.07	-39.4	-40.1	24.3	0.00e+00	0	36	0	1658847232	49	4124
2026-01-18 11:16:30.69	130.41	45.22	-39.4	-40.1	24.3	0.00e+00	0	36	0	1681915904	49	4135
2026-01-18 11:16:34.72	129.75	46.40	-39.2	-40.0	24.4	0.00e+00	0	36	0	1704984576	49	4061
2026-01-18 11:16:38.75	129.04	47.61	-39.5	-40.3	24.2	0.00e+00	0	36	0	1727004672	49	4195
2026-01-18 11:16:42.79	128.26	48.86	-39.6	-40.3	24.2	0.00e+00	0	36	0	1750073344	49	4209
2026-01-18 11:16:46.82	127.43	50.13	-40.0	-40.7	23.8	0.00e+00	0	36	0	1773142016	50	4186
2026-01-18 11:16:50.85	126.51	51.43	-40.4	-41.2	23.3	0.00e+00	0	36	0	1795162112	52	3943
2026-01-18 11:16:54.89	125.51	52.76	-40.3	-41.0	23.6	0.00e+00	0	36	0	1817182208	51	4073
2026-01-18 11:16:58.92	124.41	54.11	-40.1	-40.8	23.7	0.00e+00	0	36	0	1840250880	51	4004
2026-01-18 11:17:02.95	123.21	55.49	-40.4	-41.2	23.4	0.00e+00	0	36	0	1863319552	51	4174
2026-01-18 11:17:06.99	121.87	56.90	-39.8	-40.6	24.0	0.00e+00	0	36	0	1885339648	51	3884
2026-01-18 11:17:11.03	120.39	58.32	-39.6	-40.3	24.2	0.00e+00	0	36	0	1908408320	51	3773
2026-01-18 11:17:15.06	118.74	59.75	-39.5	-40.2	24.3	0.00e+00	0	36	0	1931476992	50	3946
2026-01-18 11:17:19.09	116.89	61.19	-39.8	-40.5	24.0	0.00e+00	0	36	0	1954545664	50	4084
2026-01-18 11:17:23.12	114.82	62.64	-39.6	-40.3	24.2	0.00e+00	0	36	0	1976565760	50	3985
2026-01-18 11:17:27.15	112.49	64.07	-39.0	-39.7	24.8	0.00e+00	0	36	0	1999634432	49	3928
2026-01-18 11:17:31.19	109.83	65.50	-38.7	-39.4	25.1	0.00e+00	0	36	0	2022703104	49	3790
2026-01-18 11:17:35.22	106.83	66.89	-38.0	-38.7	25.7	0.00e+00	0	36	0	2044723200	48	3717
2026-01-18 11:17:39.25	103.40	68.24	-37.5	-38.2	25.6	0.00e+00	0	36	0	2067791872	47	3698
2026-01-18 11:17:43.29	99.48	69.53	-37.8	-38.5	25.3	0.00e+00	0	36	0	2089811968	46	4071
2026-01-18 11:17:47.32	95.02	70.73	-38.3	-39.1	24.9	0.00e+00	0	36	0	2112880640	47	4104
2026-01-18 11:17:51.36	89.95	71.82	-37.2	-37.9	25.9	0.00e+00	0	36	0	2135949312	46	3782
2026-01-18 11:17:55.39	84.25	72.76	-37.8	-38.5	25.3	0.00e+00	0	36	0	2159017984	46	4063
2026-01-18 11:17:59.42	77.92	73.53	-37.6	-38.3	25.5	0.00e+00	0	36	0	2181038080	47	3749
2026-01-18 11:18:03.46	71.02	74.09	-37.2	-37.9	25.8	0.00e+00	0	36	0	2203058176	46	3797
2026-01-18 11:18:07.49	63.72	74.42	-37.4	-38.1	25.7	0.00e+00	0	36	0	2226126848	46	3896
2026-01-18 11:18:11.52	56.22	74.50	-37.5	-38.2	25.7	0.00e+00	0	36	0	2249195520	46	3922
2026-01-18 11:18:15.55	48.78	74.32	-37.5	-38.3	25.6	0.00e+00	0	36	0	2271215616	46	3968
2026-01-18 11:18:19.58	41.62	73.89	-38.0	-38.7	25.1	0.00e+00	0	36	0	2294284288	46	4177
2026-01-18 11:18:23.62	34.94	73.24	-37.0	-37.7	26.1	0.00e+00	0	36	0	2317352960	46	3706
2026-01-18 11:18:27.65	28.87	72.40	-37.5	-38.2	25.6	0.00e+00	0	36	0	2339373056	45	4185
2026-01-18 11:18:31.68	23.43	71.39	-37.6	-38.4	25.5	0.00e+00	0	36	0	2362441728	46	4008
2026-01-18 11:18:35.71	18.63	70.26	-37.6	-38.2	25.7	0.00e+00	0	36	0	2385510400	46	3957
2026-01-18 11:18:39.75	14.39	69.02	-37.7	-38.3	25.5	0.00e+00	0	36	0	2407530496	46	4003
2026-01-18 11:18:43.77	10.69	67.71	-38.0	-38.7	25.3	0.00e+00	0	36	0	2430599168	46	4157
2026-01-18 11:18:47.81	7.44	66.34	-38.1	-38.9	25.1	0.00e+00	0	36	0	2453667840	47	4009
2026-01-18 11:18:51.84	4.59	64.94	-37.8	-38.5	25.4	0.00e+00	0	36	0	2475687936	47	3828
2026-01-18 11:18:55.87	2.07	63.51	-38.2	-38.9	25.1	0.00e+00	0	36	0	2498756608	47	4032
2026-01-18 11:18:59.90	359.85	62.07	-39.0	-39.7	24.8	0.00e+00	0	36	0	2521825280	48	4176
2026-01-18 11:19:03.93	357.87	60.63	-39.0	-39.7	24.8	0.00e+00	0	36	0	2543845376	48	4192
2026-01-18 11:19:07.97	356.11	59.19	-39.0	-39.7	24.9	0.00e+00	0	36	0	2565865472	48	4165
2026-01-18 11:19:11.99	354.54	57.77	-39.7	-40.5	24.1	0.00e+00	0	36	0	2588934144	50	4066
2026-01-18 11:19:16.03	353.12	56.36	-39.9	-40.6	24.1	0.00e+00	0	36	0	2612002816	50	4119
2026-01-18 11:19:20.06	351.84	54.97	-39.5	-40.2	24.5	0.00e+00	0	36	0	2634022912	50	3917
2026-01-18 11:19:24.09	350.68	53.60	-39.9	-40.6	24.1	0.00e+00	0	36	0	2657091584	50	4131
2026-01-18 11:19:28.12	349.62	52.26	-40.0	-40.8	23.9	0.00e+00	0	36	0	2680160256	50	4197
2026-01-18 11:19:32.15	348.66	50.95	-39.5	-40.3	24.4	0.00e+00	0	36	0	2702180352	50	3966
2026-01-18 11:19:36.19	347.77	49.66	-39.2	-39.9	24.6	0.00e+00	0	36	0	2725249024	50	3821
2026-01-18 11:19:40.22	346.97	48.40	-38.9	-39.6	24.9	0.00e+00	0	36	0	2748317696	49	3873
2026-01-18 11:19:44.25	346.22	47.17	-39.3	-40.0	24.5	0.00e+00	0	36	0	2770337792	49	4096
2026-01-18 11:19:48.28	345.53	45.98	-38.9	-39.6	24.9	0.00e+00	0	36	0	2793406464	49	3871
2026-01-18 11:19:52.32	344.89	44.81	-39.0	-39.7	24.8	0.00e+00	0	36	0	2816475136	49	3922
2026-01-18 11:19:56.35	344.30	43.67	-38.6	-39.3	25.1	0.00e+00	0	36	0	2838495232	49	3763
2026-01-18 11:20:00.38	343.75	42.56	-38.8	-39.5	25.0	0.00e+00	0	36	0	2861563904	49	3840
2026-01-18 11:20:04.41	343.23	41.48	-38.7	-39.4	25.0	0.00e+00	0	36	0	2884632576	49	3822
2026-01-18 11:20:08.44	342.75	40.43	-38.4	-39.1	25.3	0.00e+00	0	36	0	2906652672	48	3889
2026-01-18 11:20:12.47	342.30	39.41	-38.5	-39.2	25.2	0.00e+00	0	36	0	2928672768	48	3919
2026-01-18 11:20:16.51	341.88	38.41	-38.4	-39.1	25.2	0.00e+00	0	36	0	2951741440	48	3898
2026-01-18 11:20:20.54	341.48	37.44	-38.3	-39.0	25.4	0.00e+00	0	36	0	2974810112	48	3830
2026-01-18 11:20:24.57	341.11	36.50	-38.4	-39.1	25.2	0.00e+00	0	36	0	2996830208	48	3900
2026-01-18 11:20:28.60	340.76	35.59	-38.4	-39.1	25.3	0.00e+00	0	36	0	3019898880	48	3884
2026-01-18 11:20:32.63	340.43	34.69	-38.4	-39.1	25.2	0.00e+00	0	36	0	3042967552	48	3906
2026-01-18 11:20:36.66	340.12	33.83	-38.5	-39.2	25.1	0.00e+00	0	36	0	3064987648	48	3956
2026-01-18 11:20:40.70	339.82	32.98	-38.6	-39.3	25.0	0.00e+00	0	36	0	3088056320	48	3999
2026-01-18 11:20:44.73	339.54	32.15	-39.0	-39.8	24.6	0.00e+00	0	36	0	3111124992	48	4195
2026-01-18 11:20:48.76	339.27	31.35	-39.2	-39.9	24.5	0.00e+00	0	36	0	3133145088	49	4048
2026-01-18 11:20:52.79	339.02	30.57	-38.9	-39.7	24.7	0.00e+00	0	36	0	3156213760	49	3918
2026-01-18 11:20:56.83	338.78	29.81	-38.8	-39.5	24.8	0.00e+00	0	36	0	3179282432	49	3841
2026-01-18 11:21:00.86	338.55	29.07	-38.7	-39.4	24.9	0.00e+00	0	36	0	3201302528	49	3821
2026-01-18 11:21:04.89	338.33	28.34	-38.7	-39.4	24.9	0.00e+00	0	36	0	3224371200	49	3792
2026-01-18 11:21:08.92	338.13	27.64	-38.8	-39.6	24.7	0.00e+00	0	36	0	3247439872	49	3875
2026-01-18 11:21:12.95	337.93	26.95	-39.0	-39.8	24.5	0.00e+00	0	36	0	3269459968	49	3975
2026-01-18 11:21:16.99	337.74	26.28	-38.9	-39.7	24.6	0.00e+00	0	36	0	3292528640	49	3921
2026-01-18 11:21:21.02	337.56	25.62	-38.9	-39.6	24.6	0.00e+00	0	36	0	3314548736	49	3897
2026-01-18 11:21:25.05	337.38	24.98	-39.0	-39.7	24.5	0.00e+00	0	36	0	3337617408	49	3938
2026-01-18 11:21:29.09	337.22	24.35	-39.2	-39.9	24.4	0.00e+00	0	36	0	3359637504	49	4015
2026-01-18 11:21:33.12	337.06	23.74	-39.4	-40.2	24.1	0.00e+00	0	36	0	3382706176	49	4147
2026-01-18 11:21:37.15	336.91	23.15	-39.6	-40.3	23.9	0.00e+00	0	36	0	3405774848	49	4236
2026-01-18 11:21:41.18	336.76	22.56	-39.7	-40.4	23.9	0.00e+00	0	36	0	3427794944	49	4271
2026-01-18 11:21:45.21	336.62	21.99	-39.8	-40.5	23.7	0.00e+00	0	36	0	3450863616	50	4089
2026-01-18 11:21:49.24	336.49	21.43	-39.8	-40.6	23.7	0.00e+00	0	36	0	3473932288	50	4103
2026-01-18 11:21:53.27	336.36	20.89	-40.0	-40.7	23.5	0.00e+00	0	36	0	3495952384	50	4181
2026-01-18 11:21:57.30	336.24	20.35	-39.9	-40.7	23.6	0.00e+00	0	36	0	3519021056	50	4150
2026-01-18 11:22:01.33	336.12	19.83	-40.0	-40.7	23.5	0.00e+00	0	36	0	3542089728	50	4191
2026-01-18 11:22:05.37	336.00	19.31	-40.1	-40.8	23.4	0.00e+00	0	36	0	3564109824	50	4230
2026-01-18 11:22:09.40	335.89	18.81	-40.2	-40.9	23.3	0.00e+00	0	36	0	3587178496	51	4037
2026-01-18 11:22:13.43	335.79	18.32	-40.3	-41.1	23.2	0.00e+00	0	36	0	3610247168	51	4109
2026-01-18 11:22:17.46	335.68	17.84	-40.6	-41.4	22.9	0.00e+00	0	36	0	3632267264	51	4244
2026-01-18 11:22:21.49	335.59	17.36	-40.7	-41.6	22.6	0.00e+00	0	36	0	3655335936	52	4099
2026-01-18 11:22:25.52	335.49	16.90	-40.7	-41.5	22.6	0.00e+00	0	36	0	3677356032	52	4092
2026-01-18 11:22:29.55	335.40	16.44	-40.9	-41.7	22.4	0.00e+00	0	36	0	3700424704	52	4186
2026-01-18 11:22:33.58	335.31	15.99	-41.0	-41.9	22.2	0.00e+00	0	36	0	3722444800	52	4249
2026-01-18 11:22:37.62	335.23	15.55	-41.2	-42.1	22.1	0.00e+00	0	36	0	3745513472	53	4100
2026-01-18 11:22:41.65	335.14	15.12	-41.3	-42.1	22.0	0.00e+00	0	36	0	3768582144	53	4134
2026-01-18 11:22:45.68	335.06	14.69	-41.3	-42.1	22.0	0.00e+00	0	36	0	3790602240	53	4126
2026-01-18 11:22:49.71	334.99	14.27	-41.3	-42.2	21.9	0.00e+00	0	36	0	3813670912	53	4156
2026-01-18 11:22:53.74	334.91	13.86	-41.4	-42.2	21.8	0.00e+00	0	36	0	3836739584	53	4177
2026-01-18 11:22:57.77	334.84	13.46	-41.6	-42.4	21.6	0.00e+00	0	36	0	3858759680	53	4265
2026-01-18 11:23:01.80	334.77	13.06	-41.6	-42.4	21.6	0.00e+00	0	36	0	3881828352	53	4278
2026-01-18 11:23:05.83	334.70	12.67	-41.6	-42.4	21.6	0.00e+00	0	36	0	3904897024	53	4274
2026-01-18 11:23:09.87	334.64	12.28	-41.7	-42.6	21.4	0.00e+00	0	36	0	3926917120	54	4109
2026-01-18 11:23:13.90	334.57	11.91	-41.8	-42.7	21.3	0.00e+00	0	36	0	3949985792	54	4159
2026-01-18 11:23:17.94	334.51	11.53	-42.0	-42.9	21.1	0.00e+00	0	36	0	3973054464	54	4267
2026-01-18 11:23:21.97	334.45	11.16	-41.9	-42.8	21.1	0.00e+00	0	36	0	3995074560	54	4231
2026-01-18 11:23:26.00	334.40	10.80	-42.1	-43.0	20.9	0.00e+00	0	36	0	4018143232	54	4321
2026-01-18 11:23:30.03	334.34	10.44	-42.2	-43.2	20.7	0.00e+00	0	36	0	4040163328	55	4156
2026-01-18 11:23:34.07	334.29	10.09	-42.3	-43.2	20.7	0.00e+00	0	36	0	4063232000	55	4171
2026-01-18 11:23:38.10	334.24	9.74	-42.4	-43.3	20.6	0.00e+00	0	36	0	4086300672	55	4220
2026-01-18 11:23:42.13	334.19	9.40	-42.5	-43.5	20.3	0.00e+00	0	36	0	4108320768	55	4321
2026-01-18 11:23:46.16	334.14	9.06	-42.6	-43.6	20.2	0.00e+00	0	36	0	4131389440	55	4380
2026-01-18 11:23:50.20	334.09	8.73	-42.8	-43.8	20.1	0.00e+00	0	36	0	4154458112	56	4209
2026-01-18 11:23:54.23	334.04	8.40	-43.0	-44.0	19.8	0.00e+00	0	36	0	4176478208	56	4333
2026-01-18 11:23:58.26	334.00	8.08	-43.0	-44.1	19.8	0.00e+00	0	36	0	4199546880	56	4352
2026-01-18 11:24:02.29	333.96	7.76	-43.1	-44.1	19.7	0.00e+00	0	36	0	4222615552	57	4116
2026-01-18 11:24:06.32	333.92	7.44	-43.4	-44.5	19.4	0.00e+00	0	36	0	4244635648	57	4297
2026-01-18 11:24:10.35	333.87	7.13	-43.3	-44.4	19.4	0.00e+00	0	36	0	4267704320	58	4029
2026-01-18 11:24:14.39	333.84	6.82	-43.8	-45.0	18.8	0.00e+00	0	36	0	4289724416	58	4308
2026-01-18 11:24:18.42	333.80	6.51	-43.6	-44.7	19.0	0.00e+00	0	36	0	4312793088	58	4158
2026-01-18 11:24:22.44	333.76	6.21	-44.1	-45.3	18.4	0.00e+00	0	36	0	4335861760	59	4219
2026-01-18 11:24:26.48	333.72	5.91	-44.5	-45.8	17.9	0.00e+00	0	36	0	4357881856	59	4462
2026-01-18 11:24:30.51	333.69	5.62	-44.4	-45.7	17.9	0.00e+00	0	36	0	4380950528	59	4424
2026-01-18 11:24:34.54	333.66	5.32	-44.1	-45.4	18.2	0.00e+00	0	36	0	4402970624	59	4246
2026-01-18 11:24:38.57	333.62	5.04	-44.2	-45.4	18.1	0.00e+00	0	36	0	4426039296	59	4263
2026-01-18 11:24:42.60	333.59	4.75	-53.1	-65.1	3.8	8.45e-01	0	36	104	4434427904	76	15482
2026-01-18 11:24:46.63	333.56	4.47	-53.6	-65.6	3.8	8.45e-01	0	36	104	4434427904	77	15437
2026-01-18 11:24:50.66	333.53	4.19	-53.9	-65.8	3.8	8.47e-01	0	36	104	4434427904	78	15049
2026-01-18 11:24:54.69	333.50	3.91	-53.9	-65.9	3.8	8.46e-01	0	36	104	4434427904	78	15102
2026-01-18 11:24:58.73	333.47	3.64	-53.9	-65.9	3.8	8.46e-01	0	36	104	4434427904	78	15201
2026-01-18 11:25:02.76	333.45	3.37	-53.9	-65.9	3.8	8.46e-01	0	36	104	4434427904	78	15056
2026-01-18 11:25:06.79	333.42	3.10	-53.8	-65.8	3.8	8.47e-01	0	36	104	4434427904	78	14991
2026-01-18 11:25:10.82	333.39	2.83	-53.8	-65.8	3.8	8.47e-01	0	36	104	4434427904	78	14944
2026-01-18 11:25:14.86	333.37	2.57	-53.8	-65.7	3.8	8.46e-01	0	36	104	4434427904	78	14869
2026-01-18 11:25:18.89	333.35	2.31	-53.8	-65.8	3.8	8.46e-01	0	36	104	4434427904	78	14908
2026-01-18 11:25:22.92	333.32	2.05	-53.7	-65.7	3.8	8.46e-01	0	36	104	4434427904	78	14821

#Closed at: 2026-01-18 11:25:23
#Recorded file [4434 MB]: D:/lorett/data/31041_260118_141059.dat