passes_logs/2026/01/08/R2M6_AANII_01/R2M6_AANII_01__20260108_024635_FENGYUN_3D_rec.log

#Pass ID: 20260108_024635_FENGYUN 3D
#Satellite: FENGYUN 3D
#Configuration: FENGYUN 3D
#almurnet v.1.7.20240730
#Start time: 2026-01-08 02:46:35

#Version: 2.2.20231116
#Station: R2M6_AANII_01
#Location: 30.233357 lon 59.946436 lat
#TLE: 1 43010U 17072A   26006.26440730  .00000376  00000+0  19957-3 0  9994
#TLE: 2 43010  98.9925 337.9455 0002045 123.9195 236.2175 14.19693586422016

#Time	Az	El	Level	Level2	SNR	BER	BlckErr	Temp	State	Recorded	gain1	gain2
2026-01-08 02:46:35.52	16.85	6.96	-29.6	-32.9	5.4	7.88e-01	0	41	0	0	19	5208
2026-01-08 02:46:38.53	16.80	7.19	-30.1	-33.7	9.0	2.89e-02	0	41	0	5242880	20	5415
2026-01-08 02:46:41.54	16.76	7.43	-29.4	-32.5	10.6	6.70e-03	0	41	0	22020096	18	5173
2026-01-08 02:46:44.57	16.71	7.66	-28.7	-31.2	11.8	3.01e-03	0	41	0	38797312	17	4808
2026-01-08 02:46:47.57	16.66	7.90	-29.0	-31.4	11.4	4.17e-03	0	41	0	56623104	18	4779
2026-01-08 02:46:50.58	16.61	8.14	-28.0	-29.9	12.9	2.08e-03	0	41	0	73400320	16	4518
2026-01-08 02:46:53.60	16.55	8.38	-27.1	-29.0	13.9	2.00e-03	0	42	0	90177536	14	4468
2026-01-08 02:46:56.62	16.50	8.63	-26.9	-28.9	14.3	1.82e-03	0	42	0	106954752	13	4555
2026-01-08 02:46:59.64	16.45	8.88	-26.7	-28.6	14.5	1.72e-03	0	41	0	123731968	13	4455
2026-01-08 02:47:02.66	16.39	9.12	-26.7	-28.6	14.5	0.00e+00	0	42	0	140509184	13	4464
2026-01-08 02:47:05.67	16.33	9.38	-26.7	-28.5	14.6	1.43e-03	0	42	0	158334976	13	4421
2026-01-08 02:47:08.68	16.28	9.63	-26.6	-28.3	14.7	0.00e+00	0	42	0	175112192	13	4363
2026-01-08 02:47:11.69	16.22	9.89	-26.6	-28.2	14.8	0.00e+00	0	42	0	191889408	13	4346
2026-01-08 02:47:14.71	16.16	10.15	-26.8	-28.6	14.6	0.00e+00	0	42	0	208666624	13	4464
2026-01-08 02:47:17.74	16.10	10.41	-26.4	-27.9	15.0	1.10e-06	0	42	0	225443840	13	4263
2026-01-08 02:47:20.76	16.03	10.68	-26.5	-28.1	14.9	0.00e+00	0	42	0	243269632	13	4298
2026-01-08 02:47:23.78	15.97	10.94	-26.5	-28.5	15.0	0.00e+00	0	42	0	260046848	12	4542
2026-01-08 02:47:26.81	15.90	11.22	-26.3	-28.2	15.2	0.00e+00	0	42	0	276824064	12	4449
2026-01-08 02:47:29.83	15.84	11.49	-26.8	-28.8	14.6	0.00e+00	0	42	0	293601280	13	4511
2026-01-08 02:47:32.85	15.77	11.77	-26.3	-28.0	15.3	0.00e+00	0	42	0	310378496	12	4409
2026-01-08 02:47:35.86	15.70	12.05	-26.4	-28.3	15.2	0.00e+00	0	42	0	328204288	12	4467
2026-01-08 02:47:38.89	15.62	12.33	-26.6	-28.1	15.0	1.10e-06	0	42	0	344981504	13	4323
2026-01-08 02:47:41.90	15.55	12.62	-26.7	-28.5	14.8	0.00e+00	0	43	0	361758720	13	4414
2026-01-08 02:47:44.92	15.48	12.91	-26.4	-27.8	15.2	0.00e+00	0	42	0	378535936	13	4229
2026-01-08 02:47:47.93	15.40	13.20	-26.5	-28.1	15.1	1.10e-06	0	42	0	395313152	13	4306
2026-01-08 02:47:50.95	15.32	13.50	-26.3	-27.5	15.2	0.00e+00	0	43	0	413138944	13	4147
2026-01-08 02:47:53.96	15.24	13.80	-26.5	-28.4	12.8	0.00e+00	0	43	0	429916160	12	4517
2026-01-08 02:47:56.98	15.16	14.10	-26.4	-28.2	15.4	0.00e+00	0	43	0	446693376	12	4448
2026-01-08 02:48:00.00	15.07	14.41	-26.3	-28.0	15.4	1.53e-03	0	42	0	463470592	12	4404
2026-01-08 02:48:03.00	14.99	14.72	-26.1	-27.5	15.7	0.00e+00	0	43	0	480247808	12	4257
2026-01-08 02:48:06.03	14.90	15.04	-25.9	-27.2	15.9	0.00e+00	0	43	0	498073600	12	4185
2026-01-08 02:48:09.04	14.81	15.36	-25.7	-27.3	16.2	1.50e-03	0	43	0	514850816	11	4299
2026-01-08 02:48:12.05	14.71	15.68	-25.7	-27.1	16.4	1.54e-03	0	43	0	531628032	11	4256
2026-01-08 02:48:15.07	14.62	16.01	-25.7	-27.1	16.4	1.56e-03	0	43	0	548405248	11	4249
2026-01-08 02:48:18.09	14.52	16.35	-25.4	-26.6	16.7	1.44e-03	0	43	0	565182464	11	4118
2026-01-08 02:48:21.10	14.42	16.68	-25.3	-26.7	16.9	1.58e-03	0	43	0	581959680	10	4266
2026-01-08 02:48:24.12	14.32	17.02	-25.3	-26.8	16.8	0.00e+00	0	43	0	599785472	10	4275
2026-01-08 02:48:27.15	14.21	17.37	-25.1	-26.3	17.1	0.00e+00	0	43	0	616562688	10	4153
2026-01-08 02:48:30.18	14.10	17.73	-25.0	-26.2	17.1	1.60e-03	0	43	0	633339904	10	4141
2026-01-08 02:48:33.19	13.99	18.08	-25.1	-26.3	17.1	0.00e+00	0	43	0	650117120	10	4162
2026-01-08 02:48:36.20	13.88	18.44	-25.1	-26.4	17.1	0.00e+00	0	43	0	666894336	10	4176
2026-01-08 02:48:39.23	13.76	18.81	-24.9	-25.9	17.4	0.00e+00	0	43	0	684720128	10	4062
2026-01-08 02:48:42.25	13.64	19.19	-25.3	-26.8	16.9	0.00e+00	0	43	0	701497344	10	4275
2026-01-08 02:48:45.28	13.52	19.57	-25.0	-26.1	17.3	0.00e+00	0	43	0	718274560	10	4102
2026-01-08 02:48:48.30	13.39	19.95	-24.7	-26.0	17.6	0.00e+00	0	43	0	735051776	9	4198
2026-01-08 02:48:51.30	13.26	20.34	-24.8	-26.3	17.5	0.00e+00	0	43	0	751828992	9	4267
2026-01-08 02:48:54.33	13.12	20.74	-24.9	-26.4	17.4	0.00e+00	0	43	0	769654784	9	4301
2026-01-08 02:48:57.36	12.99	21.14	-24.8	-26.1	17.6	0.00e+00	0	43	0	786432000	9	4226
2026-01-08 02:49:00.37	12.84	21.55	-24.6	-25.9	17.7	0.00e+00	0	43	0	803209216	9	4161
2026-01-08 02:49:03.39	12.70	21.96	-24.4	-25.4	18.0	0.00e+00	0	43	0	819986432	9	4044
2026-01-08 02:49:06.41	12.55	22.38	-24.2	-24.9	18.3	0.00e+00	0	43	0	836763648	9	3922
2026-01-08 02:49:09.43	12.39	22.81	-24.4	-25.8	18.1	0.00e+00	0	43	0	854589440	8	4247
2026-01-08 02:49:12.45	12.23	23.25	-24.4	-25.9	18.0	0.00e+00	0	43	0	871366656	8	4281
2026-01-08 02:49:15.47	12.07	23.69	-24.3	-25.1	18.2	0.00e+00	0	43	0	888143872	9	3955
2026-01-08 02:49:18.48	11.90	24.14	-24.2	-25.5	18.3	0.00e+00	0	43	0	904921088	8	4162
2026-01-08 02:49:21.49	11.72	24.60	-24.0	-25.0	18.5	0.00e+00	0	43	0	921698304	8	4041
2026-01-08 02:49:24.51	11.54	25.06	-24.0	-25.0	18.6	0.00e+00	0	43	0	938475520	8	4040
2026-01-08 02:49:27.52	11.36	25.54	-23.8	-24.5	18.8	0.00e+00	0	43	0	956301312	8	3935
2026-01-08 02:49:30.55	11.16	26.02	-23.8	-24.6	18.7	0.00e+00	0	43	0	973078528	8	3958
2026-01-08 02:49:33.56	10.97	26.51	-23.5	-24.5	19.1	0.00e+00	0	43	0	989855744	7	4030
2026-01-08 02:49:36.57	10.76	27.01	-23.5	-24.5	19.1	0.00e+00	0	43	0	1006632960	7	4037
2026-01-08 02:49:39.60	10.55	27.52	-23.9	-25.3	18.7	0.00e+00	0	43	0	1023410176	7	4227
2026-01-08 02:49:42.61	10.33	28.03	-23.7	-24.4	18.9	0.00e+00	0	43	0	1040187392	8	3900
2026-01-08 02:49:45.64	10.10	28.56	-23.6	-24.1	19.0	0.00e+00	0	43	0	1058013184	8	3841
2026-01-08 02:49:48.65	9.86	29.10	-23.6	-24.7	19.0	0.00e+00	0	43	0	1074790400	7	4073
2026-01-08 02:49:51.67	9.62	29.64	-23.7	-24.8	19.0	0.00e+00	0	43	0	1091567616	7	4107
2026-01-08 02:49:54.70	9.37	30.20	-23.7	-24.9	18.9	0.00e+00	0	43	0	1108344832	7	4129
2026-01-08 02:49:57.71	9.11	30.77	-23.6	-24.7	19.0	0.00e+00	0	43	0	1125122048	7	4073
2026-01-08 02:50:00.74	8.83	31.34	-23.5	-24.5	19.1	0.00e+00	0	43	0	1142947840	7	4035
2026-01-08 02:50:03.74	8.55	31.93	-23.4	-24.3	19.2	0.00e+00	0	43	0	1159725056	7	4000
2026-01-08 02:50:06.76	8.26	32.53	-23.1	-23.6	19.6	0.00e+00	0	43	0	1176502272	7	3833
2026-01-08 02:50:09.78	7.95	33.14	-23.0	-23.9	19.7	0.00e+00	0	43	0	1193279488	6	4001
2026-01-08 02:50:12.79	7.64	33.76	-23.0	-24.0	19.7	0.00e+00	0	43	0	1210056704	6	4016
2026-01-08 02:50:15.81	7.31	34.39	-23.3	-24.5	19.4	0.00e+00	0	43	0	1227882496	6	4142
2026-01-08 02:50:18.83	6.96	35.04	-23.1	-24.2	19.5	0.00e+00	0	43	0	1244659712	6	4083
2026-01-08 02:50:21.85	6.61	35.70	-23.3	-24.5	19.4	0.00e+00	0	43	0	1261436928	6	4158
2026-01-08 02:50:24.86	6.23	36.37	-23.2	-24.2	19.6	0.00e+00	0	44	0	1278214144	6	4078
2026-01-08 02:50:27.88	5.84	37.05	-23.4	-24.3	19.3	0.00e+00	0	43	0	1294991360	7	3981
2026-01-08 02:50:30.90	5.44	37.75	-23.1	-23.6	19.7	0.00e+00	0	43	0	1312817152	7	3813
2026-01-08 02:50:33.92	5.01	38.46	-22.9	-23.8	19.8	0.00e+00	0	43	0	1329594368	6	3976
2026-01-08 02:50:36.94	4.57	39.18	-22.9	-23.7	19.9	0.00e+00	0	43	0	1346371584	6	3954
2026-01-08 02:50:39.96	4.10	39.91	-23.7	-24.8	19.1	0.00e+00	0	43	0	1363148800	7	4099
2026-01-08 02:50:42.97	3.61	40.66	-23.4	-24.3	19.4	0.00e+00	0	43	0	1379926016	7	3971
2026-01-08 02:50:45.99	3.10	41.42	-23.8	-25.1	18.9	1.05e-03	0	43	0	1397751808	7	4179
2026-01-08 02:50:48.99	2.57	42.19	-24.0	-25.4	18.8	0.00e+00	0	43	0	1414529024	7	4254
2026-01-08 02:50:52.01	2.00	42.98	-23.7	-24.8	19.1	0.00e+00	0	43	0	1431306240	7	4106
2026-01-08 02:50:55.03	1.41	43.79	-23.4	-24.2	19.4	1.06e-03	0	44	0	1448083456	7	3957
2026-01-08 02:50:58.04	0.79	44.60	-23.4	-24.2	19.4	1.06e-03	0	43	0	1464860672	7	3955
2026-01-08 02:51:01.07	0.12	45.43	-23.5	-24.5	19.3	0.00e+00	0	43	0	1481637888	7	4016
2026-01-08 02:51:04.09	359.43	46.28	-23.4	-24.2	19.4	1.07e-03	0	44	0	1499463680	7	3969
2026-01-08 02:51:07.10	358.70	47.13	-23.3	-24.1	19.5	8.43e-04	0	43	0	1516240896	7	3937
2026-01-08 02:51:10.11	357.92	47.99	-23.6	-24.6	19.2	8.59e-04	0	43	0	1533018112	7	4062
2026-01-08 02:51:13.13	357.10	48.87	-23.9	-25.2	19.0	9.05e-04	0	43	0	1549795328	7	4209
2026-01-08 02:51:16.15	356.23	49.76	-24.4	-25.4	18.4	7.75e-04	0	43	0	1566572544	9	4032
2026-01-08 02:51:19.16	355.30	50.66	-24.3	-25.2	18.5	6.56e-04	0	43	0	1583349760	9	3978
2026-01-08 02:51:22.18	354.32	51.57	-24.4	-25.8	18.5	0.00e+00	0	44	0	1601175552	8	4226
2026-01-08 02:51:25.20	353.27	52.49	-24.6	-25.8	18.2	7.12e-04	0	43	0	1617952768	9	4125
2026-01-08 02:51:28.22	352.16	53.41	-24.9	-25.8	18.0	0.00e+00	0	43	0	1634729984	10	4013
2026-01-08 02:51:31.25	350.97	54.34	-24.7	-26.0	18.1	0.00e+00	0	43	0	1651507200	9	4170
2026-01-08 02:51:34.28	349.69	55.28	-25.2	-26.5	17.6	0.00e+00	0	43	0	1669332992	10	4195
2026-01-08 02:51:37.30	348.34	56.22	-23.9	-24.3	19.0	0.00e+00	0	43	0	1686110208	9	3770
2026-01-08 02:51:40.32	346.88	57.15	-24.0	-25.0	18.9	0.00e+00	0	44	0	1702887424	8	4026
2026-01-08 02:51:43.34	345.33	58.08	-23.7	-24.8	19.3	0.00e+00	0	43	0	1719664640	7	4091
2026-01-08 02:51:46.34	343.67	59.00	-24.0	-25.4	18.9	0.00e+00	0	43	0	1736441856	7	4260
2026-01-08 02:51:49.35	341.89	59.91	-24.2	-25.4	18.7	0.00e+00	0	43	0	1753219072	8	4146
2026-01-08 02:51:52.36	339.98	60.80	-23.6	-24.1	19.4	0.00e+00	0	43	0	1771044864	8	3821
2026-01-08 02:51:55.38	337.92	61.68	-23.3	-24.1	19.6	0.00e+00	0	43	0	1787822080	7	3921
2026-01-08 02:51:58.39	335.71	62.54	-23.2	-23.7	19.8	0.00e+00	0	43	0	1804599296	7	3847
2026-01-08 02:52:01.38	333.37	63.36	-23.1	-24.1	19.9	0.00e+00	0	44	0	1821376512	6	4037
2026-01-08 02:52:04.41	330.82	64.16	-22.8	-23.4	20.2	0.00e+00	0	44	0	1838153728	6	3875
2026-01-08 02:52:07.44	328.09	64.91	-22.7	-23.8	20.2	0.00e+00	0	44	0	1855979520	5	4082
2026-01-08 02:52:10.46	325.19	65.62	-22.2	-22.8	20.8	0.00e+00	0	43	0	1872756736	5	3835
2026-01-08 02:52:13.48	322.10	66.27	-22.7	-23.8	20.2	0.00e+00	0	43	0	1889533952	5	4095
2026-01-08 02:52:16.50	318.83	66.86	-22.1	-22.5	20.9	0.00e+00	0	44	0	1906311168	5	3767
2026-01-08 02:52:19.51	315.40	67.38	-22.0	-22.3	21.0	6.40e-05	0	44	0	1923088384	5	3723
2026-01-08 02:52:22.53	311.78	67.83	-22.1	-22.6	20.8	0.00e+00	0	43	0	1940914176	5	3806
2026-01-08 02:52:25.55	308.02	68.19	-22.1	-22.6	20.8	0.00e+00	0	43	0	1957691392	5	3805
2026-01-08 02:52:28.56	304.15	68.46	-22.0	-22.4	20.9	1.57e-04	0	43	0	1974468608	5	3747
2026-01-08 02:52:31.58	300.18	68.64	-21.8	-22.5	21.1	0.00e+00	0	44	0	1991245824	4	3880
2026-01-08 02:52:34.60	296.16	68.73	-21.9	-22.7	21.0	2.20e-06	0	44	0	2008023040	4	3921
2026-01-08 02:52:37.62	292.12	68.71	-22.0	-22.7	21.0	5.19e-04	0	43	0	2025848832	4	3933
2026-01-08 02:52:40.65	288.09	68.60	-21.9	-22.6	21.0	6.33e-04	0	43	0	2042626048	4	3909
2026-01-08 02:52:43.66	284.15	68.39	-21.9	-22.7	21.0	0.00e+00	0	43	0	2059403264	4	3924
2026-01-08 02:52:46.69	280.29	68.09	-21.7	-22.2	21.2	9.19e-04	0	44	0	2076180480	4	3822
2026-01-08 02:52:49.71	276.57	67.71	-21.6	-22.1	21.2	1.01e-03	0	43	0	2092957696	4	3792
2026-01-08 02:52:52.72	273.01	67.24	-22.0	-22.9	20.8	0.00e+00	0	44	0	2109734912	4	3991
2026-01-08 02:52:55.74	269.61	66.69	-22.2	-23.3	20.6	0.00e+00	0	44	0	2127560704	4	4081
2026-01-08 02:52:58.75	266.40	66.09	-22.4	-23.7	20.5	6.04e-04	0	44	0	2144337920	4	4164
2026-01-08 02:53:01.78	263.36	65.41	-22.2	-23.2	20.7	0.00e+00	0	43	0	2161115136	4	4050
2026-01-08 02:53:04.80	260.51	64.69	-22.1	-23.1	20.7	0.00e+00	0	44	0	2177892352	4	4035
2026-01-08 02:53:07.82	257.84	63.92	-22.3	-23.5	20.5	0.00e+00	0	43	0	2195718144	4	4121
2026-01-08 02:53:10.84	255.35	63.11	-22.7	-23.9	20.1	0.00e+00	0	44	0	2212495360	5	4109
2026-01-08 02:53:13.86	253.02	62.27	-22.5	-23.4	20.3	0.00e+00	0	43	0	2229272576	5	3988
2026-01-08 02:53:16.87	250.86	61.41	-22.6	-23.6	20.2	0.00e+00	0	43	0	2246049792	5	4042
2026-01-08 02:53:19.88	248.85	60.52	-23.1	-24.2	19.7	0.00e+00	0	44	0	2262827008	6	4070
2026-01-08 02:53:22.90	246.97	59.62	-23.5	-24.4	19.3	0.00e+00	0	44	0	2279604224	7	4007
2026-01-08 02:53:25.92	245.21	58.70	-23.6	-24.6	19.2	0.00e+00	0	43	0	2296381440	7	4068
2026-01-08 02:53:28.93	243.58	57.77	-24.1	-25.1	18.7	0.00e+00	0	44	0	2314207232	8	4073
2026-01-08 02:53:31.94	242.06	56.84	-23.6	-24.1	19.2	0.00e+00	0	43	0	2330984448	8	3837
2026-01-08 02:53:34.95	240.64	55.91	-23.8	-24.7	18.9	0.00e+00	0	44	0	2347761664	8	3961
2026-01-08 02:53:37.97	239.31	54.97	-23.6	-24.3	19.1	0.00e+00	0	43	0	2364538880	8	3868
2026-01-08 02:53:40.99	238.06	54.03	-23.7	-24.9	19.0	0.00e+00	0	44	0	2381316096	7	4121
2026-01-08 02:53:44.00	236.90	53.11	-23.8	-25.1	18.9	0.00e+00	0	43	0	2398093312	7	4177
2026-01-08 02:53:47.02	235.80	52.18	-23.7	-25.0	18.9	0.00e+00	0	44	0	2415919104	7	4138
2026-01-08 02:53:50.05	234.77	51.26	-24.4	-26.0	18.2	0.00e+00	0	43	0	2432696320	8	4298
2026-01-08 02:53:53.07	233.80	50.35	-23.4	-24.1	19.3	0.00e+00	0	44	0	2449473536	7	3945
2026-01-08 02:53:56.08	232.90	49.45	-23.3	-24.0	19.4	0.00e+00	0	43	0	2466250752	7	3902
2026-01-08 02:53:59.10	232.04	48.56	-23.4	-24.3	19.2	0.00e+00	0	43	0	2483027968	7	3991
2026-01-08 02:54:02.12	231.23	47.68	-23.2	-24.4	19.4	0.00e+00	0	44	0	2500853760	6	4113
2026-01-08 02:54:05.13	230.46	46.82	-22.8	-23.5	19.9	0.00e+00	0	43	0	2517630976	6	3904
2026-01-08 02:54:08.15	229.74	45.96	-22.7	-23.3	20.0	0.00e+00	0	44	0	2534408192	6	3854
2026-01-08 02:54:11.17	229.05	45.12	-23.2	-24.4	19.4	0.00e+00	0	44	0	2551185408	6	4128
2026-01-08 02:54:14.19	228.40	44.29	-22.8	-23.5	19.9	0.00e+00	0	43	0	2567962624	6	3897
2026-01-08 02:54:17.21	227.79	43.48	-23.0	-23.9	19.6	0.00e+00	0	44	0	2585788416	6	4016
2026-01-08 02:54:20.21	227.20	42.68	-22.9	-23.7	19.8	0.00e+00	0	43	0	2602565632	6	3950
2026-01-08 02:54:23.23	226.65	41.89	-22.6	-23.0	20.1	0.00e+00	0	44	0	2619342848	6	3793
2026-01-08 02:54:26.26	226.11	41.11	-22.5	-22.9	20.2	0.00e+00	0	44	0	2636120064	6	3754
2026-01-08 02:54:29.28	225.61	40.35	-22.8	-23.6	19.8	0.00e+00	0	43	0	2652897280	6	3938
2026-01-08 02:54:32.29	225.12	39.61	-23.0	-23.9	19.6	0.00e+00	0	44	0	2670723072	6	3996
2026-01-08 02:54:35.30	224.67	38.88	-22.8	-23.6	19.8	0.00e+00	0	44	0	2687500288	6	3923
2026-01-08 02:54:38.31	224.23	38.16	-22.6	-23.2	20.0	0.00e+00	0	44	0	2704277504	6	3833
2026-01-08 02:54:41.33	223.81	37.45	-22.5	-23.0	20.0	0.00e+00	0	44	0	2721054720	6	3790
2026-01-08 02:54:44.36	223.40	36.75	-22.5	-22.8	20.1	0.00e+00	0	44	0	2737831936	6	3747
2026-01-08 02:54:47.38	223.01	36.07	-22.5	-22.9	20.1	0.00e+00	0	44	0	2755657728	6	3771
2026-01-08 02:54:50.40	222.64	35.40	-22.6	-23.2	19.9	0.00e+00	0	44	0	2772434944	6	3828
2026-01-08 02:54:53.41	222.29	34.74	-22.7	-23.3	19.9	0.00e+00	0	44	0	2789212160	6	3855
2026-01-08 02:54:56.43	221.95	34.10	-22.5	-23.0	20.1	0.00e+00	0	44	0	2805989376	6	3778
2026-01-08 02:54:59.44	221.62	33.47	-22.7	-23.3	19.9	0.00e+00	0	44	0	2822766592	6	3853
2026-01-08 02:55:02.45	221.31	32.85	-22.8	-23.6	19.7	0.00e+00	0	44	0	2839543808	6	3940
2026-01-08 02:55:05.47	221.01	32.24	-22.8	-23.6	19.7	0.00e+00	0	44	0	2857369600	6	3937
2026-01-08 02:55:08.48	220.72	31.65	-22.8	-23.5	19.7	0.00e+00	0	44	0	2874146816	6	3913
2026-01-08 02:55:11.50	220.44	31.06	-23.0	-23.8	19.6	0.00e+00	0	44	0	2890924032	6	3985
2026-01-08 02:55:14.51	220.17	30.48	-22.8	-23.6	19.7	0.00e+00	0	44	0	2907701248	6	3930
2026-01-08 02:55:17.53	219.90	29.92	-22.9	-23.7	19.6	1.59e-04	0	44	0	2924478464	6	3961
2026-01-08 02:55:20.54	219.65	29.37	-23.0	-24.0	19.5	0.00e+00	0	44	0	2941255680	6	4030
2026-01-08 02:55:23.57	219.41	28.82	-23.2	-24.3	19.3	0.00e+00	0	44	0	2958032896	6	4098
2026-01-08 02:55:26.59	219.18	28.28	-23.3	-24.5	19.2	3.33e-04	0	44	0	2975858688	6	4146
2026-01-08 02:55:29.62	218.95	27.76	-23.3	-24.7	19.1	6.18e-04	0	44	0	2992635904	6	4191
2026-01-08 02:55:32.64	218.73	27.24	-23.2	-24.5	19.2	8.11e-04	0	44	0	3009413120	6	4136
2026-01-08 02:55:35.66	218.52	26.73	-23.2	-24.3	19.2	8.41e-04	0	44	0	3026190336	6	4103
2026-01-08 02:55:38.67	218.31	26.23	-23.2	-24.3	19.2	1.05e-03	0	44	0	3044016128	6	4111
2026-01-08 02:55:41.69	218.11	25.74	-23.3	-24.5	19.1	0.00e+00	0	43	0	3060793344	6	4163
2026-01-08 02:55:44.72	217.92	25.26	-23.4	-24.8	18.9	1.15e-03	0	44	0	3077570560	6	4240
2026-01-08 02:55:47.74	217.73	24.79	-23.6	-24.8	18.7	0.00e+00	0	44	0	3094347776	7	4103
2026-01-08 02:55:50.76	217.55	24.32	-23.3	-24.2	19.0	0.00e+00	0	43	0	3111124992	7	3959
2026-01-08 02:55:53.78	217.38	23.87	-23.5	-24.6	18.8	0.00e+00	0	44	0	3128950784	7	4052
2026-01-08 02:55:56.80	217.21	23.42	-23.5	-24.5	18.8	0.00e+00	0	44	0	3145728000	7	4039
2026-01-08 02:55:59.82	217.04	22.97	-23.6	-24.7	18.7	0.00e+00	0	44	0	3162505216	7	4084
2026-01-08 02:56:02.85	216.88	22.54	-23.9	-25.3	18.4	0.00e+00	0	44	0	3179282432	7	4243
2026-01-08 02:56:05.86	216.73	22.11	-24.2	-25.6	18.0	0.00e+00	0	44	0	3196059648	8	4200
2026-01-08 02:56:08.88	216.58	21.69	-24.1	-25.2	18.2	0.00e+00	0	44	0	3213885440	8	4114
2026-01-08 02:56:11.91	216.43	21.27	-24.2	-25.6	18.0	0.00e+00	0	44	0	3230662656	8	4200
2026-01-08 02:56:14.91	216.29	20.87	-24.0	-25.2	18.2	0.00e+00	0	44	0	3247439872	8	4090
2026-01-08 02:56:17.94	216.15	20.47	-23.9	-24.9	18.3	0.00e+00	0	44	0	3264217088	8	4035
2026-01-08 02:56:20.96	216.01	20.07	-23.8	-25.1	18.4	0.00e+00	0	44	0	3280994304	7	4189
2026-01-08 02:56:23.98	215.88	19.68	-23.9	-25.5	18.2	0.00e+00	0	43	0	3298820096	7	4281
2026-01-08 02:56:27.00	215.75	19.30	-24.1	-25.4	16.6	0.00e+00	0	44	0	3315597312	8	4166
2026-01-08 02:56:30.02	215.63	18.92	-24.5	-26.1	17.6	0.00e+00	0	44	0	3332374528	8	4329
2026-01-08 02:56:33.04	215.51	18.55	-24.5	-25.7	17.6	0.00e+00	0	44	0	3349151744	9	4120
2026-01-08 02:56:36.06	215.39	18.18	-24.6	-25.9	17.4	0.00e+00	0	43	0	3365928960	9	4175
2026-01-08 02:56:39.08	215.27	17.82	-24.8	-26.2	17.3	3.50e-04	0	44	0	3383754752	9	4244
2026-01-08 02:56:42.10	215.16	17.46	-24.8	-26.3	17.2	3.77e-05	0	44	0	3400531968	9	4268
2026-01-08 02:56:45.11	215.05	17.11	-24.8	-26.3	17.2	0.00e+00	0	44	0	3417309184	9	4287
2026-01-08 02:56:48.13	214.95	16.77	-24.8	-26.3	17.1	1.91e-04	0	44	0	3434086400	9	4279
2026-01-08 02:56:51.15	214.84	16.42	-25.0	-26.7	16.9	1.38e-04	0	44	0	3450863616	9	4372
2026-01-08 02:56:54.17	214.74	16.09	-25.0	-26.2	17.0	0.00e+00	0	44	0	3468689408	10	4136
2026-01-08 02:56:57.19	214.64	15.75	-25.1	-26.4	16.8	1.77e-04	0	44	0	3485466624	10	4197
2026-01-08 02:57:00.22	214.54	15.42	-25.1	-26.5	16.8	1.72e-04	0	44	0	3502243840	10	4206
2026-01-08 02:57:03.24	214.45	15.10	-25.3	-26.9	16.5	0.00e+00	0	44	0	3519021056	10	4316
2026-01-08 02:57:06.25	214.36	14.78	-25.3	-26.9	16.5	0.00e+00	0	44	0	3535798272	10	4331
2026-01-08 02:57:09.27	214.27	14.46	-25.4	-27.1	16.4	5.26e-05	0	44	0	3552575488	10	4378
2026-01-08 02:57:12.29	214.18	14.15	-25.4	-27.1	16.4	0.00e+00	0	44	0	3570401280	10	4376
2026-01-08 02:57:15.31	214.09	13.84	-25.6	-27.0	16.1	0.00e+00	0	44	0	3587178496	11	4234
2026-01-08 02:57:18.33	214.01	13.54	-25.5	-26.9	16.2	0.00e+00	0	44	0	3603955712	11	4202
2026-01-08 02:57:21.35	213.93	13.24	-25.5	-26.9	16.1	0.00e+00	0	44	0	3620732928	11	4226
2026-01-08 02:57:24.37	213.84	12.94	-25.6	-27.1	16.0	0.00e+00	0	44	0	3637510144	11	4263
2026-01-08 02:57:27.38	213.77	12.65	-25.6	-27.2	16.0	0.00e+00	0	44	0	3655335936	11	4286
2026-01-08 02:57:30.39	213.69	12.36	-25.9	-27.7	15.7	0.00e+00	0	44	0	3672113152	11	4422
2026-01-08 02:57:33.41	213.61	12.07	-25.8	-27.5	15.7	0.00e+00	0	44	0	3688890368	11	4386
2026-01-08 02:57:36.43	213.54	11.79	-25.8	-27.6	15.7	0.00e+00	0	44	0	3705667584	11	4415
2026-01-08 02:57:39.45	213.47	11.51	-25.9	-27.7	15.6	0.00e+00	0	44	0	3722444800	11	4449
2026-01-08 02:57:42.46	213.40	11.24	-26.0	-27.6	15.3	0.00e+00	0	44	0	3740270592	12	4287
2026-01-08 02:57:45.48	213.33	10.96	-26.0	-27.5	15.3	0.00e+00	0	44	0	3757047808	12	4266
2026-01-08 02:57:48.50	213.26	10.69	-26.1	-27.8	15.1	0.00e+00	0	44	0	3773825024	12	4351
2026-01-08 02:57:51.52	213.19	10.42	-26.1	-27.7	15.2	0.00e+00	0	43	0	3790602240	12	4328
2026-01-08 02:57:54.53	213.13	10.16	-26.1	-27.6	15.2	1.10e-06	0	44	0	3807379456	12	4305
2026-01-08 02:57:57.55	213.06	9.90	-26.2	-28.0	15.0	1.10e-06	0	44	0	3825205248	12	4422
2026-01-08 02:58:00.57	213.00	9.64	-26.3	-28.1	14.9	0.00e+00	0	44	0	3841982464	12	4447
2026-01-08 02:58:03.59	212.94	9.38	-26.3	-28.1	14.9	0.00e+00	0	44	0	3858759680	12	4434
2026-01-08 02:58:06.61	212.88	9.12	-26.2	-27.9	15.0	0.00e+00	0	44	0	3875536896	12	4380
2026-01-08 02:58:09.63	212.82	8.87	-26.3	-28.1	14.8	0.00e+00	0	44	0	3892314112	12	4445
2026-01-08 02:58:12.65	212.76	8.62	-26.4	-28.3	14.7	0.00e+00	0	44	0	3910139904	12	4497
2026-01-08 02:58:15.67	212.71	8.38	-26.6	-28.2	14.4	0.00e+00	0	44	0	3926917120	13	4370
2026-01-08 02:58:18.69	212.65	8.13	-26.6	-28.4	14.3	3.40e-06	0	44	0	3943694336	13	4413
2026-01-08 02:58:21.71	212.60	7.89	-26.8	-28.8	14.0	3.40e-06	0	43	0	3960471552	13	4547
2026-01-08 02:58:24.73	212.54	7.65	-26.7	-28.7	14.1	4.50e-06	0	44	0	3977248768	13	4494
2026-01-08 02:58:27.74	212.49	7.41	-26.9	-28.6	13.8	9.10e-06	0	44	0	3995074560	14	4371
2026-01-08 02:58:30.74	212.44	7.18	-27.1	-29.0	13.6	1.25e-05	0	44	0	4011851776	14	4476
2026-01-08 02:58:33.76	212.39	6.94	-33.1	-44.3	3.8	8.46e-01	0	44	104	4021288960	26	12984

#Closed at: 2026-01-08 02:58:33
#Recorded file [4021 MB]: D:/data/31010_260108_054637.dat