passes_logs/2026/01/08/R2M6_AANII_01/R2M6_AANII_01__20260108_042711_FENGYUN_3D_rec.log

#Pass ID: 20260108_042711_FENGYUN 3D
#Satellite: FENGYUN 3D
#Configuration: FENGYUN 3D
#almurnet v.1.7.20240730
#Start time: 2026-01-08 04:27:11

#Version: 2.2.20231116
#Station: R2M6_AANII_01
#Location: 30.233357 lon 59.946436 lat
#TLE: 1 43010U 17072A   26006.26440730  .00000376  00000+0  19957-3 0  9994
#TLE: 2 43010  98.9925 337.9455 0002045 123.9195 236.2175 14.19693586422016

#Time	Az	El	Level	Level2	SNR	BER	BlckErr	Temp	State	Recorded	gain1	gain2
2026-01-08 04:27:11.90	10.62	7.03	-30.8	-34.8	5.0	8.02e-01	0	40	0	0	22	5697
2026-01-08 04:27:14.92	10.33	7.22	-30.4	-34.0	8.4	3.60e-02	0	41	0	5242880	21	5449
2026-01-08 04:27:17.92	10.04	7.40	-30.1	-33.1	9.1	1.74e-02	0	41	0	22020096	21	5083
2026-01-08 04:27:20.94	9.75	7.59	-29.7	-32.4	9.9	8.10e-03	0	41	0	38797312	20	4920
2026-01-08 04:27:23.95	9.45	7.78	-28.3	-29.7	12.4	1.25e-04	0	41	0	55574528	18	4249
2026-01-08 04:27:26.97	9.15	7.98	-27.6	-29.0	13.5	8.00e-06	0	41	0	73400320	16	4256
2026-01-08 04:27:29.98	8.84	8.17	-27.4	-28.7	13.7	8.00e-06	0	41	0	90177536	16	4149
2026-01-08 04:27:32.97	8.53	8.36	-27.6	-29.1	13.4	6.80e-06	0	41	0	106954752	16	4264
2026-01-08 04:27:36.00	8.21	8.55	-27.6	-29.1	13.5	1.37e-05	0	41	0	123731968	16	4254
2026-01-08 04:27:39.01	7.89	8.75	-27.1	-28.5	14.0	1.10e-06	0	41	0	140509184	15	4213
2026-01-08 04:27:42.03	7.57	8.94	-27.2	-28.6	14.0	2.20e-06	0	41	0	158334976	15	4232
2026-01-08 04:27:45.05	7.24	9.14	-27.1	-28.5	14.0	0.00e+00	0	42	0	175112192	15	4219
2026-01-08 04:27:48.07	6.91	9.33	-27.3	-28.8	13.8	2.20e-06	0	42	0	191889408	15	4304
2026-01-08 04:27:51.08	6.57	9.53	-27.3	-28.8	13.9	1.10e-06	0	42	0	208666624	15	4304
2026-01-08 04:27:54.09	6.23	9.72	-27.0	-28.1	14.3	1.10e-06	0	42	0	225443840	15	4100
2026-01-08 04:27:57.08	5.88	9.92	-26.8	-27.7	14.5	0.00e+00	0	42	0	243269632	15	4005
2026-01-08 04:28:00.09	5.53	10.12	-26.7	-28.1	14.6	0.00e+00	0	42	0	260046848	14	4205
2026-01-08 04:28:03.11	5.17	10.32	-26.7	-28.0	14.7	0.00e+00	0	42	0	276824064	14	4167
2026-01-08 04:28:06.13	4.81	10.51	-26.7	-28.0	14.7	0.00e+00	0	42	0	293601280	14	4175
2026-01-08 04:28:09.15	4.44	10.71	-26.7	-28.0	14.8	0.00e+00	0	42	0	310378496	14	4182
2026-01-08 04:28:12.16	4.07	10.91	-26.5	-27.6	14.9	0.00e+00	0	42	0	327155712	14	4066
2026-01-08 04:28:15.19	3.69	11.11	-26.4	-27.2	15.2	0.00e+00	0	42	0	344981504	14	3968
2026-01-08 04:28:18.21	3.30	11.32	-26.4	-27.2	15.2	0.00e+00	0	42	0	361758720	14	3960
2026-01-08 04:28:21.23	2.91	11.52	-26.4	-27.3	15.1	0.00e+00	0	42	0	378535936	14	3999
2026-01-08 04:28:24.25	2.52	11.72	-26.5	-27.6	15.0	0.00e+00	0	42	0	395313152	14	4077
2026-01-08 04:28:27.27	2.12	11.92	-26.5	-27.4	15.1	0.00e+00	0	42	0	413138944	14	4028
2026-01-08 04:28:30.28	1.71	12.12	-26.2	-27.4	15.4	0.00e+00	0	42	0	429916160	13	4129
2026-01-08 04:28:33.29	1.30	12.32	-26.2	-27.3	15.4	0.00e+00	0	42	0	446693376	13	4095
2026-01-08 04:28:36.31	0.88	12.53	-26.2	-27.3	15.5	0.00e+00	0	42	0	463470592	13	4103
2026-01-08 04:28:39.34	0.46	12.73	-25.9	-26.8	15.7	0.00e+00	0	42	0	480247808	13	3957
2026-01-08 04:28:42.35	0.03	12.93	-26.0	-27.0	15.7	0.00e+00	0	42	0	497025024	13	4016
2026-01-08 04:28:45.38	359.59	13.13	-26.1	-27.1	15.6	0.00e+00	0	42	0	514850816	13	4057
2026-01-08 04:28:48.39	359.15	13.34	-26.1	-27.1	15.6	0.00e+00	0	42	0	531628032	13	4037
2026-01-08 04:28:51.41	358.70	13.54	-26.2	-27.2	15.5	0.00e+00	0	43	0	548405248	13	4079
2026-01-08 04:28:54.44	358.25	13.74	-26.1	-27.0	15.6	0.00e+00	0	42	0	565182464	13	4028
2026-01-08 04:28:57.44	357.79	13.94	-25.9	-26.7	15.9	0.00e+00	0	42	0	581959680	13	3951
2026-01-08 04:29:00.46	357.32	14.15	-25.6	-26.5	16.2	0.00e+00	0	43	0	598736896	12	3998
2026-01-08 04:29:03.48	356.85	14.35	-25.7	-26.7	16.2	0.00e+00	0	43	0	616562688	12	4054
2026-01-08 04:29:06.49	356.37	14.55	-25.7	-26.6	16.2	0.00e+00	0	42	0	633339904	12	4027
2026-01-08 04:29:09.51	355.88	14.75	-25.6	-26.6	16.3	0.00e+00	0	43	0	650117120	12	4021
2026-01-08 04:29:12.53	355.38	14.95	-25.8	-26.9	16.1	0.00e+00	0	43	0	666894336	12	4096
2026-01-08 04:29:15.54	354.88	15.15	-25.7	-26.6	16.3	0.00e+00	0	43	0	683671552	12	4027
2026-01-08 04:29:18.55	354.38	15.35	-25.6	-26.5	16.3	0.00e+00	0	43	0	700448768	12	3994
2026-01-08 04:29:21.57	353.86	15.55	-25.6	-26.4	16.4	0.00e+00	0	43	0	718274560	12	3976
2026-01-08 04:29:24.58	353.34	15.75	-25.6	-26.6	16.3	0.00e+00	0	43	0	735051776	12	4020
2026-01-08 04:29:27.60	352.81	15.94	-25.6	-26.5	16.4	0.00e+00	0	43	0	751828992	12	3998
2026-01-08 04:29:30.63	352.28	16.14	-25.3	-26.3	16.8	0.00e+00	0	43	0	768606208	11	4040
2026-01-08 04:29:33.66	351.73	16.34	-25.2	-26.1	16.9	0.00e+00	0	43	0	785383424	11	3992
2026-01-08 04:29:36.67	351.18	16.53	-25.2	-26.2	16.9	0.00e+00	0	43	0	803209216	11	4005
2026-01-08 04:29:39.70	350.62	16.72	-25.3	-26.3	16.8	0.00e+00	0	43	0	819986432	11	4032
2026-01-08 04:29:42.72	350.06	16.92	-25.1	-26.0	17.0	0.00e+00	0	43	0	836763648	11	3962
2026-01-08 04:29:45.74	349.48	17.11	-25.3	-26.3	16.9	0.00e+00	0	43	0	853540864	11	4035
2026-01-08 04:29:48.76	348.90	17.30	-25.1	-26.0	17.0	0.00e+00	0	43	0	870318080	11	3962
2026-01-08 04:29:51.77	348.32	17.48	-25.2	-26.0	17.0	0.00e+00	0	43	0	888143872	11	3974
2026-01-08 04:29:54.79	347.72	17.67	-25.0	-25.7	17.2	0.00e+00	0	43	0	904921088	11	3888
2026-01-08 04:29:57.81	347.12	17.85	-25.0	-25.7	17.2	0.00e+00	0	43	0	921698304	11	3907
2026-01-08 04:30:00.82	346.51	18.03	-25.1	-25.9	17.1	0.00e+00	0	43	0	938475520	11	3959
2026-01-08 04:30:03.84	345.89	18.21	-24.9	-25.5	17.3	0.00e+00	0	43	0	955252736	11	3838
2026-01-08 04:30:06.86	345.27	18.39	-24.7	-25.6	17.5	0.00e+00	0	43	0	973078528	10	3973
2026-01-08 04:30:09.88	344.64	18.57	-24.9	-26.1	17.3	0.00e+00	0	43	0	989855744	10	4101
2026-01-08 04:30:12.90	344.00	18.74	-25.0	-26.3	17.2	0.00e+00	0	43	0	1006632960	10	4151
2026-01-08 04:30:15.92	343.35	18.91	-24.9	-25.9	17.3	0.00e+00	0	43	0	1023410176	10	4059
2026-01-08 04:30:18.93	342.70	19.08	-25.0	-26.3	17.1	0.00e+00	0	43	0	1040187392	10	4144
2026-01-08 04:30:21.96	342.04	19.24	-24.5	-25.1	17.8	0.00e+00	0	43	0	1058013184	10	3844
2026-01-08 04:30:24.98	341.37	19.40	-24.4	-24.9	17.9	0.00e+00	0	43	0	1074790400	10	3818
2026-01-08 04:30:28.00	340.69	19.56	-24.5	-25.1	17.8	0.00e+00	0	43	0	1091567616	10	3851
2026-01-08 04:30:31.02	340.01	19.72	-24.3	-25.1	18.1	0.00e+00	0	43	0	1108344832	9	3972
2026-01-08 04:30:34.04	339.32	19.87	-24.3	-25.2	18.0	0.00e+00	0	43	0	1125122048	9	3978
2026-01-08 04:30:37.06	338.62	20.02	-24.0	-24.6	18.3	0.00e+00	0	43	0	1142947840	9	3840
2026-01-08 04:30:40.09	337.92	20.16	-23.9	-24.4	18.4	0.00e+00	0	43	0	1159725056	9	3802
2026-01-08 04:30:43.10	337.21	20.30	-23.9	-24.4	18.4	0.00e+00	0	43	0	1176502272	9	3808
2026-01-08 04:30:46.11	336.49	20.44	-23.9	-24.4	18.4	0.00e+00	0	43	0	1193279488	9	3790
2026-01-08 04:30:49.14	335.77	20.57	-24.1	-24.8	18.3	0.00e+00	0	43	0	1210056704	9	3889
2026-01-08 04:30:52.16	335.04	20.70	-23.9	-24.4	18.4	0.00e+00	0	43	0	1227882496	9	3788
2026-01-08 04:30:55.19	334.30	20.83	-24.2	-24.9	18.1	0.00e+00	0	43	0	1244659712	9	3924
2026-01-08 04:30:58.20	333.56	20.95	-24.0	-24.5	18.4	0.00e+00	0	43	0	1261436928	9	3815
2026-01-08 04:31:01.21	332.81	21.06	-23.9	-24.3	18.5	0.00e+00	0	43	0	1278214144	9	3783
2026-01-08 04:31:04.24	332.06	21.17	-23.9	-24.4	18.4	0.00e+00	0	43	0	1294991360	9	3801
2026-01-08 04:31:07.26	331.30	21.28	-23.7	-24.4	18.7	0.00e+00	0	43	0	1312817152	8	3905
2026-01-08 04:31:10.28	330.54	21.38	-23.7	-24.5	18.7	0.00e+00	0	43	0	1329594368	8	3917
2026-01-08 04:31:13.29	329.77	21.48	-23.5	-24.1	18.8	0.00e+00	0	43	0	1346371584	8	3824
2026-01-08 04:31:16.31	329.00	21.57	-23.5	-24.0	18.9	0.00e+00	0	43	0	1363148800	8	3813
2026-01-08 04:31:19.33	328.22	21.65	-23.7	-24.4	18.7	0.00e+00	0	43	0	1379926016	8	3899
2026-01-08 04:31:22.35	327.44	21.73	-23.7	-24.5	18.7	0.00e+00	0	43	0	1397751808	8	3928
2026-01-08 04:31:25.36	326.65	21.81	-23.9	-24.8	18.5	0.00e+00	0	43	0	1414529024	8	4002
2026-01-08 04:31:28.38	325.86	21.88	-23.8	-24.6	18.6	0.00e+00	0	43	0	1431306240	8	3942
2026-01-08 04:31:31.40	325.07	21.94	-23.9	-24.8	18.4	0.00e+00	0	43	0	1448083456	8	3997
2026-01-08 04:31:34.43	324.27	22.00	-23.5	-24.1	18.9	0.00e+00	0	43	0	1464860672	8	3818
2026-01-08 04:31:37.44	323.47	22.05	-23.5	-24.0	18.9	0.00e+00	0	43	0	1482686464	8	3823
2026-01-08 04:31:40.46	322.67	22.10	-23.7	-24.4	18.7	0.00e+00	0	43	0	1499463680	8	3904
2026-01-08 04:31:43.48	321.87	22.14	-23.4	-23.8	19.0	0.00e+00	0	43	0	1516240896	8	3764
2026-01-08 04:31:46.49	321.06	22.17	-23.4	-23.8	19.0	0.00e+00	0	43	0	1533018112	8	3764
2026-01-08 04:31:49.51	320.25	22.20	-23.3	-24.0	19.1	0.00e+00	0	43	0	1549795328	7	3922
2026-01-08 04:31:52.53	319.45	22.22	-23.3	-24.1	19.1	0.00e+00	0	43	0	1567621120	7	3949
2026-01-08 04:31:55.55	318.63	22.24	-23.5	-24.5	18.9	0.00e+00	0	43	0	1584398336	7	4041
2026-01-08 04:31:58.57	317.82	22.25	-23.6	-24.6	18.8	0.00e+00	0	43	0	1601175552	7	4068
2026-01-08 04:32:01.59	317.01	22.25	-23.4	-24.3	19.0	0.00e+00	0	43	0	1617952768	7	3994
2026-01-08 04:32:04.60	316.20	22.25	-23.3	-24.0	19.1	0.00e+00	0	43	0	1634729984	7	3923
2026-01-08 04:32:07.62	315.39	22.24	-23.4	-24.2	19.0	0.00e+00	0	43	0	1652555776	7	3974
2026-01-08 04:32:10.64	314.58	22.23	-23.4	-24.3	18.9	0.00e+00	0	43	0	1669332992	7	3992
2026-01-08 04:32:13.65	313.77	22.21	-23.6	-24.8	18.7	0.00e+00	0	43	0	1686110208	7	4104
2026-01-08 04:32:16.67	312.96	22.18	-23.7	-24.9	18.7	0.00e+00	0	43	0	1702887424	7	4124
2026-01-08 04:32:19.69	312.16	22.15	-23.5	-24.6	18.8	0.00e+00	0	43	0	1719664640	7	4052
2026-01-08 04:32:22.71	311.35	22.11	-23.3	-24.1	19.0	0.00e+00	0	43	0	1736441856	7	3941
2026-01-08 04:32:25.73	310.55	22.07	-23.3	-24.1	19.0	0.00e+00	0	43	0	1754267648	7	3936
2026-01-08 04:32:28.74	309.75	22.02	-23.5	-24.5	18.9	0.00e+00	0	43	0	1771044864	7	4034
2026-01-08 04:32:31.76	308.95	21.96	-23.5	-24.5	18.8	0.00e+00	0	43	0	1787822080	7	4045
2026-01-08 04:32:34.78	308.15	21.90	-23.4	-24.3	19.0	0.00e+00	0	43	0	1804599296	7	3994
2026-01-08 04:32:37.81	307.36	21.83	-23.4	-24.2	19.0	0.00e+00	0	43	0	1821376512	7	3965
2026-01-08 04:32:40.82	306.57	21.76	-23.3	-24.1	19.1	0.00e+00	0	43	0	1839202304	7	3939
2026-01-08 04:32:43.84	305.79	21.68	-23.3	-24.0	19.1	0.00e+00	0	43	0	1855979520	7	3910
2026-01-08 04:32:46.86	305.01	21.59	-23.6	-24.6	18.8	0.00e+00	0	43	0	1872756736	7	4070
2026-01-08 04:32:49.88	304.23	21.50	-23.8	-25.1	18.5	0.00e+00	0	43	0	1889533952	7	4185
2026-01-08 04:32:52.89	303.46	21.41	-23.4	-24.3	18.9	0.00e+00	0	43	0	1906311168	7	3976
2026-01-08 04:32:55.92	302.70	21.31	-23.3	-24.1	19.0	0.00e+00	0	43	0	1924136960	7	3946
2026-01-08 04:32:58.93	301.94	21.20	-23.4	-24.3	19.0	0.00e+00	0	43	0	1940914176	7	3977
2026-01-08 04:33:01.96	301.18	21.09	-23.7	-24.8	18.6	0.00e+00	0	43	0	1957691392	7	4115
2026-01-08 04:33:04.98	300.43	20.98	-23.6	-24.6	18.8	0.00e+00	0	43	0	1974468608	7	4063
2026-01-08 04:33:07.99	299.68	20.86	-23.7	-25.0	18.6	0.00e+00	0	43	0	1991245824	7	4155
2026-01-08 04:33:11.00	298.95	20.74	-23.7	-25.0	18.6	0.00e+00	0	43	0	2008023040	7	4150
2026-01-08 04:33:14.02	298.21	20.61	-23.6	-24.8	18.7	0.00e+00	0	43	0	2025848832	7	4098
2026-01-08 04:33:17.02	297.49	20.48	-23.8	-25.2	18.5	0.00e+00	0	43	0	2042626048	7	4203
2026-01-08 04:33:20.03	296.77	20.34	-23.8	-25.1	18.5	0.00e+00	0	43	0	2059403264	7	4186
2026-01-08 04:33:23.05	296.06	20.20	-23.8	-25.1	18.5	0.00e+00	0	43	0	2076180480	7	4177
2026-01-08 04:33:26.06	295.35	20.06	-23.9	-25.3	18.4	0.00e+00	0	43	0	2092957696	7	4227
2026-01-08 04:33:29.08	294.65	19.91	-24.3	-25.2	17.9	0.00e+00	0	43	0	2110783488	9	4000
2026-01-08 04:33:32.10	293.96	19.76	-24.1	-24.8	18.1	0.00e+00	0	43	0	2127560704	9	3904
2026-01-08 04:33:35.12	293.27	19.60	-24.1	-24.7	18.1	0.00e+00	0	43	0	2144337920	9	3875
2026-01-08 04:33:38.15	292.59	19.44	-24.1	-24.7	18.2	0.00e+00	0	43	0	2161115136	9	3861
2026-01-08 04:33:41.16	291.92	19.28	-23.9	-24.4	18.3	0.00e+00	0	43	0	2177892352	9	3792
2026-01-08 04:33:44.18	291.25	19.12	-24.1	-24.7	18.1	0.00e+00	0	43	0	2195718144	9	3867
2026-01-08 04:33:47.20	290.59	18.95	-24.2	-25.1	18.0	0.00e+00	0	43	0	2212495360	9	3955
2026-01-08 04:33:50.23	289.94	18.78	-24.3	-25.2	17.9	0.00e+00	0	43	0	2229272576	9	3992
2026-01-08 04:33:53.25	289.30	18.61	-24.3	-25.3	17.8	0.00e+00	0	43	0	2246049792	9	4010
2026-01-08 04:33:56.27	288.66	18.43	-24.6	-25.8	17.5	0.00e+00	0	43	0	2262827008	9	4144
2026-01-08 04:33:59.28	288.03	18.26	-24.7	-26.1	17.3	0.00e+00	0	43	0	2280652800	9	4228
2026-01-08 04:34:02.31	287.41	18.07	-24.4	-25.3	17.8	0.00e+00	0	43	0	2297430016	9	4013
2026-01-08 04:34:05.32	286.80	17.89	-24.4	-25.3	17.8	0.00e+00	0	43	0	2314207232	9	4022
2026-01-08 04:34:08.35	286.19	17.71	-24.5	-25.7	17.5	0.00e+00	0	43	0	2330984448	9	4129
2026-01-08 04:34:11.37	285.59	17.52	-24.7	-26.0	17.3	0.00e+00	0	43	0	2347761664	9	4191
2026-01-08 04:34:14.39	285.00	17.34	-24.7	-26.0	17.4	0.00e+00	0	43	0	2365587456	9	4203
2026-01-08 04:34:17.41	284.41	17.15	-24.7	-26.0	17.4	0.00e+00	0	43	0	2382364672	9	4197
2026-01-08 04:34:20.43	283.84	16.96	-24.6	-25.9	17.4	0.00e+00	0	43	0	2399141888	9	4177
2026-01-08 04:34:23.45	283.27	16.76	-24.7	-26.0	17.3	0.00e+00	0	43	0	2415919104	9	4198
2026-01-08 04:34:26.46	282.70	16.57	-25.0	-26.6	17.0	0.00e+00	0	43	0	2432696320	9	4364
2026-01-08 04:34:29.47	282.15	16.38	-24.8	-25.7	17.2	0.00e+00	0	43	0	2450522112	10	4011
2026-01-08 04:34:32.49	281.60	16.18	-24.8	-25.7	17.2	0.00e+00	0	43	0	2467299328	10	4005
2026-01-08 04:34:35.51	281.06	15.98	-24.9	-25.9	17.1	0.00e+00	0	43	0	2484076544	10	4071
2026-01-08 04:34:38.53	280.53	15.79	-24.7	-25.5	17.3	0.00e+00	0	43	0	2500853760	10	3955
2026-01-08 04:34:41.55	280.00	15.59	-24.8	-25.7	17.2	0.00e+00	0	43	0	2517630976	10	4004
2026-01-08 04:34:44.56	279.48	15.39	-24.9	-25.9	17.1	0.00e+00	0	43	0	2534408192	10	4065
2026-01-08 04:34:47.58	278.97	15.19	-24.8	-25.8	17.1	0.00e+00	0	43	0	2552233984	10	4037
2026-01-08 04:34:50.60	278.47	14.99	-24.9	-26.1	17.0	0.00e+00	0	43	0	2569011200	10	4114
2026-01-08 04:34:53.62	277.97	14.79	-24.8	-25.9	17.1	0.00e+00	0	43	0	2585788416	10	4053
2026-01-08 04:34:56.63	277.48	14.59	-25.0	-26.2	16.9	0.00e+00	0	43	0	2602565632	10	4124
2026-01-08 04:34:59.65	276.99	14.38	-25.2	-26.5	16.7	0.00e+00	0	43	0	2619342848	10	4224
2026-01-08 04:35:02.68	276.51	14.18	-25.2	-26.5	16.7	0.00e+00	0	43	0	2637168640	10	4229
2026-01-08 04:35:05.70	276.04	13.98	-25.4	-27.0	16.4	0.00e+00	0	43	0	2653945856	10	4352
2026-01-08 04:35:08.72	275.57	13.77	-25.4	-27.1	16.3	0.00e+00	0	43	0	2670723072	10	4378
2026-01-08 04:35:11.73	275.11	13.57	-25.4	-27.2	16.3	0.00e+00	0	43	0	2687500288	10	4395
2026-01-08 04:35:14.75	274.66	13.37	-25.8	-27.5	15.9	0.00e+00	0	43	0	2704277504	11	4362
2026-01-08 04:35:17.76	274.22	13.16	-25.7	-27.3	15.9	0.00e+00	0	43	0	2721054720	11	4324
2026-01-08 04:35:20.77	273.78	12.96	-25.9	-27.6	15.8	0.00e+00	0	43	0	2738880512	11	4397
2026-01-08 04:35:23.79	273.34	12.76	-25.5	-26.7	16.2	3.40e-06	0	43	0	2755657728	11	4160
2026-01-08 04:35:26.81	272.91	12.56	-25.5	-26.9	16.1	4.50e-06	0	43	0	2772434944	11	4210
2026-01-08 04:35:29.82	272.49	12.35	-25.7	-27.2	16.0	3.40e-06	0	43	0	2789212160	11	4289
2026-01-08 04:35:32.84	272.08	12.15	-25.7	-27.2	15.9	0.00e+00	0	43	0	2805989376	11	4287
2026-01-08 04:35:35.86	271.67	11.95	-25.7	-27.3	15.9	2.20e-06	0	43	0	2822766592	11	4315
2026-01-08 04:35:38.88	271.26	11.74	-25.7	-27.2	15.9	6.80e-06	0	43	0	2840592384	11	4301
2026-01-08 04:35:41.90	270.86	11.54	-25.8	-27.6	15.7	0.00e+00	0	43	0	2857369600	11	4396
2026-01-08 04:35:44.92	270.47	11.34	-25.9	-27.7	15.6	0.00e+00	0	43	0	2874146816	11	4422
2026-01-08 04:35:47.93	270.08	11.14	-25.9	-27.7	15.6	0.00e+00	0	43	0	2890924032	11	4443
2026-01-08 04:35:50.96	269.70	10.94	-26.2	-27.8	15.2	0.00e+00	0	43	0	2907701248	12	4343
2026-01-08 04:35:53.98	269.32	10.74	-26.0	-27.5	15.3	0.00e+00	0	43	0	2925527040	12	4279
2026-01-08 04:35:57.00	268.95	10.54	-26.1	-27.8	15.2	0.00e+00	0	43	0	2942304256	12	4348
2026-01-08 04:36:00.01	268.58	10.34	-26.1	-27.7	15.1	0.00e+00	0	43	0	2959081472	12	4335
2026-01-08 04:36:03.03	268.22	10.14	-26.3	-28.2	14.9	0.00e+00	0	43	0	2975858688	12	4461
2026-01-08 04:36:06.05	267.86	9.94	-26.5	-28.6	14.7	1.10e-06	0	43	0	2992635904	12	4581
2026-01-08 04:36:09.07	267.51	9.74	-26.7	-28.5	14.4	0.00e+00	0	43	0	3010461696	13	4453
2026-01-08 04:36:12.09	267.16	9.54	-26.7	-28.5	14.3	0.00e+00	0	43	0	3027238912	13	4451
2026-01-08 04:36:15.10	266.82	9.35	-26.6	-28.4	14.4	0.00e+00	0	43	0	3044016128	13	4399
2026-01-08 04:36:18.13	266.48	9.15	-26.8	-28.7	14.2	1.10e-06	0	43	0	3060793344	13	4521
2026-01-08 04:36:21.15	266.15	8.95	-26.6	-28.3	14.5	2.20e-06	0	43	0	3077570560	13	4395
2026-01-08 04:36:24.17	265.82	8.76	-26.6	-28.3	14.4	0.00e+00	0	43	0	3095396352	13	4384
2026-01-08 04:36:27.19	265.50	8.56	-26.7	-28.5	14.3	0.00e+00	0	43	0	3112173568	13	4453
2026-01-08 04:36:30.20	265.18	8.37	-26.8	-28.9	14.0	0.00e+00	0	43	0	3128950784	13	4566
2026-01-08 04:36:33.21	264.86	8.18	-27.1	-29.0	13.7	3.40e-06	0	43	0	3145728000	14	4495
2026-01-08 04:36:36.23	264.55	7.98	-26.9	-28.5	14.0	0.00e+00	0	43	0	3162505216	14	4334
2026-01-08 04:36:39.25	264.24	7.79	-26.9	-28.5	14.0	1.10e-06	0	43	0	3180331008	14	4331
2026-01-08 04:36:42.27	263.94	7.60	-26.9	-28.5	13.9	0.00e+00	0	43	0	3197108224	14	4349
2026-01-08 04:36:45.28	263.64	7.41	-27.0	-28.7	13.8	2.20e-06	0	43	0	3213885440	14	4412
2026-01-08 04:36:48.30	263.35	7.22	-26.9	-28.7	13.8	0.00e+00	0	43	0	3230662656	14	4387
2026-01-08 04:36:51.32	263.06	7.03	-33.0	-44.1	3.8	8.45e-01	0	43	104	3242196992	26	12866

#Closed at: 2026-01-08 04:36:52
#Recorded file [3242 MB]: D:/data/31010_260108_072713.dat