passes_logs/2026/01/08/R2M6_AANII_01/R2M6_AANII_01__20260108_231740_NOAA_21_JPSS-2_rec.log

#Pass ID: 20260108_231740_NOAA 21 (JPSS-2)
#Satellite: NOAA 21 (JPSS-2)
#Configuration: NOAA 21
#almurnet v.1.7.20240730
#Start time: 2026-01-08 23:17:39

#Version: 2.2.20231116
#Station: R2M6_AANII_01
#Location: 30.233357 lon 59.946436 lat
#TLE: 1 54234U 22150A   26008.45757862  .00000119  00000+0  77172-4 0  9996
#TLE: 2 54234  98.7494 309.4367 0000894 328.2777  31.8345 14.19533328163889

#Time	Az	El	Level	Level2	SNR	BER	BlckErr	Temp	State	Recorded	gain1	gain2
2026-01-08 23:17:39.59	24.67	6.95	-29.9	-34.3	4.8	1.36e+00	0	41	0	0	19	5981
2026-01-08 23:17:42.60	24.85	7.16	-30.9	-35.5	7.6	1.03e-01	0	41	0	3145728	22	6105
2026-01-08 23:17:45.60	25.04	7.38	-30.6	-34.3	8.5	5.85e-02	0	41	0	12582912	22	5505
2026-01-08 23:17:48.62	25.23	7.59	-30.1	-33.8	9.6	1.01e-02	0	41	0	22020096	20	5495
2026-01-08 23:17:51.64	25.43	7.81	-29.8	-33.3	10.4	3.45e-03	0	41	0	31457280	19	5371
2026-01-08 23:17:54.66	25.63	8.03	-29.4	-32.0	11.4	1.15e-03	0	41	0	40894464	19	4883
2026-01-08 23:17:57.67	25.83	8.25	-29.1	-31.8	11.9	5.08e-04	0	41	0	49283072	18	4899
2026-01-08 23:18:00.68	26.03	8.48	-28.4	-30.5	13.0	4.11e-05	0	41	0	58720256	17	4588
2026-01-08 23:18:03.69	26.24	8.70	-28.6	-30.9	12.8	7.70e-05	0	41	0	69206016	17	4721
2026-01-08 23:18:06.72	26.45	8.93	-28.4	-30.6	13.0	3.05e-05	0	41	0	77594624	17	4605
2026-01-08 23:18:09.73	26.66	9.16	-28.6	-30.9	12.9	4.04e-05	0	41	0	87031808	17	4685
2026-01-08 23:18:12.74	26.88	9.39	-28.5	-30.6	13.0	4.11e-05	0	42	0	96468992	17	4611
2026-01-08 23:18:15.77	27.10	9.62	-28.5	-30.6	13.1	4.11e-05	0	42	0	105906176	17	4600
2026-01-08 23:18:18.79	27.32	9.86	-28.4	-30.5	13.1	3.28e-05	0	42	0	116391936	17	4567
2026-01-08 23:18:21.81	27.55	10.10	-28.2	-30.4	13.5	1.14e-05	0	42	0	124780544	16	4655
2026-01-08 23:18:24.83	27.78	10.33	-28.2	-30.5	13.5	8.30e-06	0	42	0	134217728	16	4665
2026-01-08 23:18:27.86	28.01	10.58	-28.2	-30.5	13.5	1.14e-05	0	42	0	143654912	16	4670
2026-01-08 23:18:30.87	28.25	10.82	-28.3	-30.7	13.4	1.83e-05	0	42	0	153092096	16	4751
2026-01-08 23:18:33.89	28.49	11.06	-28.1	-30.1	13.8	5.30e-06	0	42	0	163577856	16	4561
2026-01-08 23:18:36.90	28.73	11.31	-27.8	-30.1	13.9	3.00e-06	0	42	0	171966464	15	4684
2026-01-08 23:18:39.91	28.98	11.55	-27.8	-30.0	14.0	2.20e-06	0	42	0	181403648	15	4649
2026-01-08 23:18:42.93	29.23	11.81	-27.9	-30.3	13.8	2.20e-06	0	42	0	190840832	15	4751
2026-01-08 23:18:45.95	29.49	12.06	-27.9	-30.2	13.9	1.50e-06	0	42	0	200278016	15	4690
2026-01-08 23:18:48.96	29.75	12.31	-27.8	-30.0	14.0	2.20e-06	0	42	0	209715200	15	4638
2026-01-08 23:18:51.98	30.02	12.57	-27.7	-29.8	14.2	0.00e+00	0	42	0	219152384	15	4566
2026-01-08 23:18:55.00	30.29	12.83	-27.6	-29.6	14.3	7.00e-07	0	42	0	228589568	15	4516
2026-01-08 23:18:58.03	30.56	13.09	-27.6	-29.7	14.3	7.00e-07	0	42	0	238026752	15	4541
2026-01-08 23:19:01.06	30.84	13.36	-27.8	-30.1	14.0	7.78e-05	0	42	0	247463936	15	4661
2026-01-08 23:19:04.08	31.13	13.62	-27.6	-29.5	14.4	8.16e-05	0	42	0	256901120	15	4473
2026-01-08 23:19:07.10	31.41	13.89	-27.4	-29.0	14.7	2.99e-04	0	42	0	266338304	15	4344
2026-01-08 23:19:10.11	31.71	14.16	-27.4	-29.6	14.7	2.41e-04	0	42	0	275775488	14	4613
2026-01-08 23:19:13.12	32.00	14.43	-27.6	-29.6	14.0	3.35e-05	0	42	0	285212672	15	4516
2026-01-08 23:19:16.13	32.31	14.71	-27.5	-29.4	14.5	5.49e-04	0	42	0	294649856	15	4447
2026-01-08 23:19:19.15	32.62	14.99	-27.5	-29.7	14.6	6.80e-06	0	42	0	304087040	14	4650
2026-01-08 23:19:22.16	32.93	15.26	-27.6	-29.4	14.5	3.97e-04	0	42	0	313524224	15	4458
2026-01-08 23:19:25.18	33.25	15.55	-27.7	-29.7	14.4	1.50e-06	0	42	0	322961408	15	4521
2026-01-08 23:19:28.20	33.58	15.83	-27.5	-29.4	14.6	3.00e-04	0	43	0	332398592	15	4433
2026-01-08 23:19:31.22	33.91	16.12	-27.5	-29.3	14.6	2.61e-04	0	42	0	341835776	15	4421
2026-01-08 23:19:34.24	34.25	16.41	-27.7	-29.8	14.4	3.15e-04	0	42	0	351272960	15	4557
2026-01-08 23:19:37.25	34.59	16.70	-28.0	-30.4	14.1	3.15e-04	0	43	0	360710144	15	4743
2026-01-08 23:19:40.27	34.95	17.00	-28.0	-29.8	14.3	7.00e-07	0	42	0	370147328	16	4431
2026-01-08 23:19:43.29	35.31	17.30	-27.9	-29.6	14.4	2.24e-04	0	42	0	379584512	16	4374
2026-01-08 23:19:46.31	35.67	17.60	-27.8	-29.4	14.5	7.00e-07	0	43	0	389021696	16	4338
2026-01-08 23:19:49.33	36.04	17.90	-27.9	-29.6	14.4	1.03e-04	0	42	0	398458880	16	4384
2026-01-08 23:19:52.35	36.42	18.21	-28.0	-29.8	14.4	0.00e+00	0	43	0	407896064	16	4437
2026-01-08 23:19:55.37	36.81	18.52	-27.8	-29.3	14.7	0.00e+00	0	43	0	417333248	16	4284
2026-01-08 23:19:58.38	37.20	18.83	-27.9	-29.5	14.6	7.00e-07	0	43	0	426770432	16	4342
2026-01-08 23:20:01.40	37.61	19.14	-27.6	-28.8	14.9	0.00e+00	0	43	0	436207616	16	4166
2026-01-08 23:20:04.41	38.02	19.46	-27.6	-28.9	14.9	7.00e-07	0	43	0	445644800	16	4178
2026-01-08 23:20:07.43	38.44	19.78	-27.5	-28.5	15.2	0.00e+00	0	43	0	455081984	16	4076
2026-01-08 23:20:10.45	38.86	20.10	-27.6	-28.9	15.0	0.00e+00	0	43	0	464519168	16	4169
2026-01-08 23:20:13.47	39.30	20.42	-27.5	-28.6	15.2	0.00e+00	0	43	0	473956352	16	4095
2026-01-08 23:20:16.49	39.75	20.75	-27.6	-28.8	15.0	0.00e+00	0	43	0	483393536	16	4147
2026-01-08 23:20:19.50	40.20	21.08	-26.9	-27.8	15.7	0.00e+00	0	43	0	492830720	15	4004
2026-01-08 23:20:22.51	40.66	21.41	-26.8	-27.5	15.9	1.05e-04	0	43	0	502267904	15	3926
2026-01-08 23:20:25.53	41.14	21.75	-26.8	-28.0	15.9	0.00e+00	0	43	0	511705088	14	4162
2026-01-08 23:20:28.55	41.62	22.08	-26.6	-27.7	16.1	1.37e-05	0	43	0	521142272	14	4076
2026-01-08 23:20:31.57	42.12	22.42	-26.8	-28.0	15.8	0.00e+00	0	43	0	530579456	14	4161
2026-01-08 23:20:34.59	42.62	22.77	-26.6	-27.6	16.2	4.04e-05	0	43	0	540016640	14	4042
2026-01-08 23:20:37.59	43.14	23.11	-26.6	-27.5	16.2	0.00e+00	0	43	0	549453824	14	4030
2026-01-08 23:20:40.62	43.67	23.46	-26.6	-27.6	16.2	1.36e-04	0	43	0	558891008	14	4043
2026-01-08 23:20:43.63	44.21	23.80	-26.6	-28.1	16.1	3.32e-04	0	43	0	568328192	13	4290
2026-01-08 23:20:46.64	44.75	24.15	-26.7	-28.4	16.0	0.00e+00	0	43	0	577765376	13	4367
2026-01-08 23:20:49.66	45.32	24.51	-26.8	-28.5	15.9	3.77e-04	0	43	0	587202560	13	4407
2026-01-08 23:20:52.68	45.89	24.86	-26.6	-28.1	16.2	0.00e+00	0	43	0	596639744	13	4275
2026-01-08 23:20:55.71	46.49	25.22	-26.6	-28.1	16.2	0.00e+00	0	43	0	606076928	13	4277
2026-01-08 23:20:58.73	47.09	25.58	-26.5	-28.0	16.2	0.00e+00	0	43	0	615514112	13	4248
2026-01-08 23:21:01.76	47.71	25.94	-26.9	-28.9	15.8	0.00e+00	0	43	0	624951296	13	4505
2026-01-08 23:21:04.76	48.33	26.30	-27.2	-29.0	15.4	0.00e+00	0	43	0	634388480	14	4421
2026-01-08 23:21:07.78	48.97	26.67	-27.3	-29.3	15.3	0.00e+00	0	43	0	643825664	14	4503
2026-01-08 23:21:10.79	49.63	27.03	-27.4	-28.8	15.3	0.00e+00	0	43	0	653262848	15	4266
2026-01-08 23:21:13.81	50.30	27.39	-27.4	-29.0	15.2	0.00e+00	0	43	0	662700032	15	4298
2026-01-08 23:21:16.82	50.99	27.76	-27.4	-29.0	15.2	0.00e+00	0	43	0	672137216	15	4308
2026-01-08 23:21:19.84	51.69	28.12	-27.0	-28.1	15.7	0.00e+00	0	43	0	681574400	15	4066
2026-01-08 23:21:22.86	52.41	28.49	-26.8	-27.4	16.1	0.00e+00	0	43	0	691011584	15	3893
2026-01-08 23:21:25.88	53.15	28.86	-26.9	-28.2	15.9	0.00e+00	0	43	0	700448768	14	4193
2026-01-08 23:21:28.90	53.90	29.22	-27.0	-28.6	15.7	0.00e+00	0	43	0	709885952	14	4295
2026-01-08 23:21:31.93	54.68	29.59	-26.8	-28.0	16.0	0.00e+00	0	43	0	719323136	14	4147
2026-01-08 23:21:34.95	55.46	29.95	-26.9	-28.2	15.9	0.00e+00	0	43	0	728760320	14	4194
2026-01-08 23:21:37.97	56.27	30.32	-26.9	-28.3	15.9	0.00e+00	0	43	0	738197504	14	4238
2026-01-08 23:21:40.99	57.09	30.68	-27.0	-28.4	15.9	0.00e+00	0	43	0	747634688	14	4260
2026-01-08 23:21:44.01	57.93	31.04	-27.4	-29.3	15.3	0.00e+00	0	43	0	757071872	14	4512
2026-01-08 23:21:47.02	58.79	31.40	-27.6	-29.3	15.1	0.00e+00	0	43	0	766509056	15	4377
2026-01-08 23:21:50.04	59.67	31.75	-27.6	-29.2	15.1	0.00e+00	0	43	0	775946240	15	4376
2026-01-08 23:21:53.06	60.57	32.10	-27.4	-28.8	15.4	0.00e+00	0	43	0	785383424	15	4256
2026-01-08 23:21:56.07	61.48	32.45	-27.9	-30.0	14.8	5.30e-06	0	43	0	794820608	15	4591
2026-01-08 23:21:59.09	62.42	32.79	-27.9	-29.5	14.9	0.00e+00	0	43	0	804257792	16	4335
2026-01-08 23:22:02.11	63.37	33.13	-28.0	-29.8	14.7	5.30e-06	0	43	0	813694976	16	4410
2026-01-08 23:22:05.14	64.35	33.47	-28.2	-30.2	14.5	0.00e+00	0	43	0	823132160	16	4536
2026-01-08 23:22:08.15	65.34	33.79	-28.2	-30.1	14.5	7.60e-06	0	43	0	832569344	16	4514
2026-01-08 23:22:11.17	66.36	34.12	-28.2	-30.2	14.5	1.06e-05	0	43	0	842006528	16	4517
2026-01-08 23:22:14.19	67.39	34.43	-28.4	-30.7	14.3	1.22e-05	0	43	0	851443712	16	4669
2026-01-08 23:22:17.21	68.45	34.74	-28.2	-30.1	14.6	1.14e-05	0	43	0	860880896	16	4492
2026-01-08 23:22:20.23	69.52	35.04	-28.5	-30.8	14.1	7.00e-07	0	43	0	870318080	16	4719
2026-01-08 23:22:23.25	70.62	35.33	-28.4	-30.1	14.3	7.00e-07	0	43	0	879755264	17	4387
2026-01-08 23:22:26.27	71.73	35.62	-28.3	-30.0	14.3	2.20e-06	0	43	0	889192448	17	4360
2026-01-08 23:22:29.29	72.87	35.89	-28.2	-29.8	14.5	1.50e-06	0	43	0	898629632	17	4294
2026-01-08 23:22:32.31	74.02	36.15	-28.2	-29.6	14.6	7.00e-07	0	43	0	908066816	17	4261
2026-01-08 23:22:35.33	75.19	36.41	-28.5	-30.5	14.1	7.00e-07	0	43	0	917504000	17	4512
2026-01-08 23:22:38.35	76.37	36.65	-28.5	-30.4	14.1	2.20e-06	0	43	0	926941184	17	4470
2026-01-08 23:22:41.37	77.58	36.88	-28.7	-30.8	13.9	5.30e-06	0	43	0	936378368	17	4612
2026-01-08 23:22:44.40	78.80	37.09	-28.8	-31.2	13.7	3.80e-06	0	43	0	945815552	17	4705
2026-01-08 23:22:47.42	80.04	37.30	-28.9	-30.9	13.6	7.60e-06	0	43	0	955252736	18	4509
2026-01-08 23:22:50.44	81.29	37.49	-29.2	-31.5	13.3	2.21e-05	0	43	0	964689920	18	4696
2026-01-08 23:22:53.45	82.55	37.66	-29.4	-32.0	13.0	4.65e-05	0	43	0	974127104	18	4866
2026-01-08 23:22:56.46	83.83	37.82	-28.9	-30.8	13.6	3.80e-06	0	43	0	983564288	18	4490
2026-01-08 23:22:59.48	85.12	37.97	-28.8	-30.5	13.9	6.10e-06	0	43	0	993001472	18	4388
2026-01-08 23:23:02.51	86.42	38.10	-28.8	-30.5	13.9	3.80e-06	0	43	0	1002438656	18	4381
2026-01-08 23:23:05.53	87.73	38.21	-28.9	-30.9	13.6	1.98e-05	0	43	0	1011875840	18	4500
2026-01-08 23:23:08.55	89.05	38.31	-28.5	-29.9	14.2	0.00e+00	0	43	0	1021313024	18	4216
2026-01-08 23:23:11.56	90.38	38.39	-28.2	-29.8	14.5	7.62e-05	0	43	0	1030750208	17	4284
2026-01-08 23:23:14.57	91.71	38.46	-28.2	-29.7	14.6	0.00e+00	0	43	0	1040187392	17	4256
2026-01-08 23:23:17.57	93.04	38.50	-28.7	-30.8	14.0	5.30e-06	0	43	0	1049624576	17	4589
2026-01-08 23:23:20.59	94.38	38.53	-29.0	-31.0	13.6	1.14e-05	0	43	0	1059061760	18	4544
2026-01-08 23:23:23.61	95.72	38.55	-29.3	-31.7	13.1	2.36e-05	0	43	0	1068498944	18	4766
2026-01-08 23:23:26.63	97.06	38.54	-29.0	-30.9	13.6	5.30e-06	0	43	0	1077936128	18	4524
2026-01-08 23:23:29.65	98.41	38.52	-28.7	-30.4	13.9	3.80e-06	0	43	0	1087373312	18	4355
2026-01-08 23:23:32.67	99.75	38.48	-28.9	-30.9	13.6	4.50e-06	0	43	0	1096810496	18	4502
2026-01-08 23:23:35.69	101.08	38.43	-29.0	-31.1	13.5	9.90e-06	0	43	0	1106247680	18	4570
2026-01-08 23:23:38.71	102.41	38.35	-28.6	-30.0	14.1	2.20e-06	0	43	0	1115684864	18	4247
2026-01-08 23:23:41.74	103.74	38.26	-28.6	-30.1	14.1	7.00e-07	0	43	0	1125122048	18	4266
2026-01-08 23:23:44.76	105.06	38.16	-28.6	-30.0	14.1	1.50e-06	0	43	0	1134559232	18	4260
2026-01-08 23:23:47.78	106.37	38.03	-29.0	-31.1	13.4	1.06e-05	0	43	0	1143996416	18	4578
2026-01-08 23:23:50.80	107.67	37.90	-29.4	-32.1	12.8	5.49e-05	0	43	0	1153433600	18	4906
2026-01-08 23:23:53.82	108.95	37.74	-28.9	-30.3	13.7	7.60e-06	0	43	0	1162870784	19	4223
2026-01-08 23:23:56.84	110.23	37.57	-28.5	-29.9	14.2	0.00e+00	0	43	0	1172307968	18	4230
2026-01-08 23:23:59.85	111.48	37.39	-28.7	-30.2	14.0	4.50e-06	0	43	0	1181745152	18	4313
2026-01-08 23:24:02.86	112.73	37.19	-28.6	-30.1	14.0	3.00e-06	0	43	0	1191182336	18	4276
2026-01-08 23:24:05.88	113.96	36.98	-28.8	-30.6	13.7	9.90e-06	0	43	0	1200619520	18	4426
2026-01-08 23:24:08.88	115.16	36.76	-29.0	-31.2	13.3	2.51e-05	0	43	0	1210056704	18	4602
2026-01-08 23:24:11.89	116.36	36.52	-29.0	-31.2	13.4	8.30e-06	0	43	0	1219493888	18	4607
2026-01-08 23:24:14.90	117.54	36.28	-27.8	-28.7	15.0	0.00e+00	0	43	0	1228931072	17	4005
2026-01-08 23:24:17.92	118.70	36.02	-27.9	-29.6	14.8	0.00e+00	0	43	0	1238368256	16	4342
2026-01-08 23:24:20.94	119.84	35.75	-27.8	-29.4	14.9	0.00e+00	0	43	0	1247805440	16	4293
2026-01-08 23:24:23.96	120.97	35.47	-28.2	-30.1	14.5	0.00e+00	0	43	0	1257242624	16	4509
2026-01-08 23:24:26.98	122.08	35.18	-28.2	-30.2	14.4	7.00e-07	0	43	0	1266679808	16	4546
2026-01-08 23:24:30.00	123.17	34.88	-27.8	-29.3	14.9	0.00e+00	0	43	0	1276116992	16	4283
2026-01-08 23:24:33.02	124.23	34.58	-27.6	-28.9	15.2	0.00e+00	0	43	0	1285554176	16	4163
2026-01-08 23:24:36.04	125.28	34.26	-27.7	-29.1	15.1	0.00e+00	0	43	0	1294991360	16	4218
2026-01-08 23:24:39.05	126.31	33.94	-27.7	-29.1	15.1	0.00e+00	0	43	0	1304428544	16	4205
2026-01-08 23:24:42.08	127.32	33.61	-27.9	-29.6	14.8	0.00e+00	0	43	0	1313865728	16	4342
2026-01-08 23:24:45.09	128.31	33.28	-27.7	-29.1	15.1	0.00e+00	0	43	0	1323302912	16	4208
2026-01-08 23:24:48.12	129.28	32.94	-27.6	-28.8	15.2	0.00e+00	0	43	0	1332740096	16	4132
2026-01-08 23:24:51.14	130.23	32.60	-27.3	-28.1	15.6	0.00e+00	0	43	0	1342177280	16	3962
2026-01-08 23:24:54.15	131.15	32.25	-27.1	-28.3	15.6	0.00e+00	0	43	0	1351614464	15	4118
2026-01-08 23:24:57.17	132.06	31.90	-27.1	-28.2	15.6	0.00e+00	0	43	0	1361051648	15	4093
2026-01-08 23:25:00.19	132.95	31.54	-27.5	-29.3	15.0	7.00e-07	0	43	0	1370488832	15	4405
2026-01-08 23:25:03.20	133.82	31.19	-27.4	-29.0	15.2	0.00e+00	0	43	0	1379926016	15	4314
2026-01-08 23:25:06.23	134.68	30.83	-27.8	-29.9	14.6	7.00e-07	0	43	0	1389363200	15	4578
2026-01-08 23:25:09.24	135.51	30.46	-27.7	-29.6	14.8	1.50e-06	0	43	0	1398800384	15	4483
2026-01-08 23:25:12.27	136.33	30.10	-27.7	-29.6	14.8	7.00e-07	0	43	0	1408237568	15	4486
2026-01-08 23:25:15.28	137.13	29.73	-27.5	-29.3	15.0	0.00e+00	0	43	0	1417674752	15	4395
2026-01-08 23:25:18.29	137.91	29.37	-27.4	-29.0	15.2	0.00e+00	0	43	0	1427111936	15	4310
2026-01-08 23:25:21.31	138.67	29.00	-27.4	-29.0	15.1	0.00e+00	0	43	0	1436549120	15	4318
2026-01-08 23:25:24.32	139.41	28.63	-27.2	-28.5	15.4	0.00e+00	0	43	0	1445986304	15	4177
2026-01-08 23:25:27.34	140.14	28.26	-27.2	-28.4	15.4	0.00e+00	0	43	0	1455423488	15	4167
2026-01-08 23:25:30.36	140.86	27.89	-26.6	-28.1	16.1	0.00e+00	0	43	0	1464860672	13	4294
2026-01-08 23:25:33.38	141.56	27.52	-26.8	-28.5	15.8	0.00e+00	0	43	0	1474297856	13	4408
2026-01-08 23:25:36.39	142.24	27.16	-26.7	-28.4	15.9	0.00e+00	0	43	0	1483735040	13	4366
2026-01-08 23:25:39.41	142.90	26.79	-26.5	-27.9	16.2	0.00e+00	0	43	0	1493172224	13	4240
2026-01-08 23:25:42.42	143.55	26.43	-26.5	-28.0	16.1	0.00e+00	0	43	0	1502609408	13	4254
2026-01-08 23:25:45.44	144.19	26.06	-26.6	-28.2	16.0	0.00e+00	0	43	0	1510998016	13	4308
2026-01-08 23:25:48.46	144.82	25.70	-26.5	-28.0	16.1	7.00e-07	0	43	0	1521483776	13	4263
2026-01-08 23:25:51.46	145.42	25.34	-26.5	-28.0	16.1	2.20e-06	0	43	0	1530920960	13	4253
2026-01-08 23:25:54.48	146.02	24.98	-26.7	-28.5	15.7	0.00e+00	0	43	0	1539309568	13	4409
2026-01-08 23:25:57.50	146.60	24.62	-26.8	-28.7	15.6	6.10e-06	0	43	0	1549795328	13	4474
2026-01-08 23:26:00.52	147.17	24.26	-26.6	-28.1	16.0	3.80e-06	0	43	0	1558183936	13	4290
2026-01-08 23:26:03.54	147.73	23.91	-26.9	-28.4	15.5	0.00e+00	0	43	0	1567621120	14	4276
2026-01-08 23:26:06.55	148.28	23.55	-26.9	-28.8	15.6	8.30e-06	0	43	0	1578106880	13	4499
2026-01-08 23:26:09.56	148.81	23.20	-27.1	-28.8	15.3	0.00e+00	0	43	0	1586495488	14	4382
2026-01-08 23:26:12.59	149.34	22.86	-27.3	-29.4	14.9	0.00e+00	0	43	0	1595932672	14	4555
2026-01-08 23:26:15.62	149.85	22.51	-27.2	-29.0	15.1	0.00e+00	0	43	0	1605369856	14	4452
2026-01-08 23:26:18.63	150.35	22.17	-27.3	-29.3	15.0	0.00e+00	0	43	0	1614807040	14	4540
2026-01-08 23:26:21.65	150.84	21.82	-27.2	-29.1	15.1	0.00e+00	0	43	0	1625292800	14	4462
2026-01-08 23:26:24.67	151.32	21.49	-27.3	-29.3	14.9	0.00e+00	0	43	0	1633681408	14	4530
2026-01-08 23:26:27.69	151.79	21.15	-27.2	-29.0	15.1	0.00e+00	0	43	0	1643118592	14	4433
2026-01-08 23:26:30.71	152.25	20.82	-27.5	-29.3	14.6	0.00e+00	0	43	0	1653604352	15	4431
2026-01-08 23:26:33.74	152.70	20.48	-27.1	-28.8	15.2	7.00e-07	0	43	0	1663041536	14	4391
2026-01-08 23:26:36.75	153.14	20.16	-27.1	-28.8	15.2	0.00e+00	0	43	0	1672478720	14	4383
2026-01-08 23:26:39.78	153.58	19.83	-27.2	-29.1	14.9	0.00e+00	0	43	0	1680867328	14	4489
2026-01-08 23:26:42.79	154.00	19.51	-27.0	-28.6	15.2	0.00e+00	0	43	0	1690304512	14	4345
2026-01-08 23:26:45.80	154.41	19.19	-27.0	-28.6	15.2	0.00e+00	0	43	0	1700790272	14	4351
2026-01-08 23:26:48.82	154.82	18.87	-26.9	-29.0	15.2	0.00e+00	0	43	0	1709178880	13	4565
2026-01-08 23:26:51.84	155.22	18.56	-27.0	-28.7	15.1	0.00e+00	0	43	0	1718616064	14	4390
2026-01-08 23:26:54.84	155.61	18.25	-27.2	-29.2	14.8	0.00e+00	0	43	0	1728053248	14	4499
2026-01-08 23:26:57.86	155.99	17.94	-27.0	-28.7	15.1	0.00e+00	0	43	0	1737490432	14	4352
2026-01-08 23:27:00.87	156.36	17.63	-26.8	-28.8	15.3	0.00e+00	0	43	0	1746927616	13	4505
2026-01-08 23:27:03.89	156.73	17.33	-27.1	-28.8	15.0	0.00e+00	0	43	0	1756364800	14	4393
2026-01-08 23:27:06.91	157.09	17.03	-27.4	-29.7	14.5	0.00e+00	0	43	0	1765801984	14	4646
2026-01-08 23:27:09.92	157.45	16.73	-27.5	-29.4	14.3	0.00e+00	0	43	0	1775239168	15	4479
2026-01-08 23:27:12.94	157.79	16.43	-28.0	-30.5	13.7	3.00e-06	0	43	0	1784676352	15	4787
2026-01-08 23:27:15.96	158.14	16.14	-27.7	-29.8	14.1	0.00e+00	0	43	0	1794113536	15	4586
2026-01-08 23:27:18.99	158.47	15.85	-27.8	-30.0	13.9	3.80e-06	0	43	0	1803550720	15	4658
2026-01-08 23:27:22.01	158.80	15.56	-27.8	-30.0	14.0	7.00e-07	0	43	0	1812987904	15	4647
2026-01-08 23:27:25.02	159.12	15.27	-27.8	-30.0	13.9	2.83e-03	0	43	0	1822425088	15	4654
2026-01-08 23:27:28.02	159.44	14.99	-27.7	-29.7	14.1	2.20e-06	0	43	0	1831862272	15	4560
2026-01-08 23:27:31.04	159.75	14.71	-27.5	-29.5	14.2	3.16e-03	0	43	0	1841299456	15	4486
2026-01-08 23:27:34.07	160.06	14.43	-27.6	-29.6	14.0	2.50e-04	0	43	0	1850736640	15	4538
2026-01-08 23:27:37.08	160.36	14.15	-27.7	-29.8	13.9	4.01e-03	0	43	0	1860173824	15	4589
2026-01-08 23:27:40.10	160.65	13.88	-27.6	-29.7	13.9	3.69e-03	0	43	0	1869611008	15	4569
2026-01-08 23:27:43.12	160.94	13.61	-27.8	-30.1	13.7	3.44e-03	0	43	0	1879048192	15	4702
2026-01-08 23:27:46.13	161.22	13.34	-27.7	-30.0	13.7	3.78e-03	0	43	0	1888485376	15	4663
2026-01-08 23:27:49.15	161.50	13.07	-27.8	-30.2	13.6	4.50e-06	0	43	0	1897922560	15	4715
2026-01-08 23:27:52.16	161.78	12.81	-28.1	-30.2	13.5	3.65e-03	0	43	0	1907359744	16	4595
2026-01-08 23:27:55.18	162.05	12.55	-27.9	-30.5	13.4	1.37e-05	0	43	0	1916796928	15	4819
2026-01-08 23:27:58.20	162.32	12.29	-28.1	-30.4	13.3	3.02e-03	0	43	0	1926234112	16	4671
2026-01-08 23:28:01.22	162.58	12.03	-28.2	-30.5	13.2	2.36e-05	0	43	0	1935671296	16	4723
2026-01-08 23:28:04.24	162.83	11.78	-28.2	-30.6	13.2	2.28e-05	0	43	0	1945108480	16	4734
2026-01-08 23:28:07.24	163.09	11.52	-28.1	-30.5	13.2	3.28e-05	0	43	0	1954545664	16	4706
2026-01-08 23:28:10.24	163.33	11.27	-28.2	-30.6	13.1	2.89e-05	0	43	0	1963982848	16	4752
2026-01-08 23:28:13.26	163.58	11.03	-28.3	-30.8	13.0	3.35e-05	0	43	0	1973420032	16	4828
2026-01-08 23:28:16.27	163.82	10.78	-28.2	-30.6	13.1	3.20e-05	0	43	0	1982857216	16	4763
2026-01-08 23:28:19.29	164.05	10.53	-28.2	-30.7	13.0	4.04e-05	0	43	0	1992294400	16	4803
2026-01-08 23:28:22.32	164.29	10.29	-28.3	-31.0	12.8	4.11e-05	0	43	0	2001731584	16	4889
2026-01-08 23:28:25.34	164.52	10.05	-28.2	-30.6	13.1	3.35e-05	0	43	0	2011168768	16	4766
2026-01-08 23:28:28.35	164.74	9.81	-28.3	-30.8	12.9	3.96e-05	0	43	0	2020605952	16	4816
2026-01-08 23:28:31.37	164.97	9.57	-28.3	-30.9	12.9	8.01e-05	0	43	0	2030043136	16	4854
2026-01-08 23:28:34.38	165.19	9.34	-28.7	-31.5	12.1	2.73e-04	0	43	0	2039480320	17	4941
2026-01-08 23:28:37.40	165.40	9.11	-28.9	-32.0	11.8	5.51e-04	0	43	0	2048917504	17	5131
2026-01-08 23:28:40.41	165.61	8.88	-29.2	-32.1	11.3	7.06e-04	0	43	0	2058354688	18	5075
2026-01-08 23:28:43.43	165.82	8.65	-28.7	-31.5	12.0	3.42e-04	0	43	0	2067791872	17	4967
2026-01-08 23:28:46.46	166.03	8.42	-28.4	-31.2	12.5	1.11e-04	0	43	0	2077229056	16	4969
2026-01-08 23:28:49.48	166.23	8.19	-28.5	-31.0	12.3	2.23e-03	0	43	0	2086666240	17	4796
2026-01-08 23:28:52.50	166.43	7.97	-28.6	-31.3	12.1	2.98e-04	0	43	0	2096103424	17	4880
2026-01-08 23:28:55.52	166.63	7.74	-28.7	-31.6	11.9	2.58e-03	0	43	0	2105540608	17	4976
2026-01-08 23:28:58.54	166.83	7.52	-28.6	-31.2	12.1	2.43e-04	0	43	0	2114977792	17	4862
2026-01-08 23:29:01.56	167.02	7.30	-28.7	-31.4	12.0	6.25e-03	0	43	0	2124414976	17	4942
2026-01-08 23:29:04.58	167.21	7.09	-32.4	-44.2	3.8	1.49e+00	0	43	104	2132803584	25	14035
2026-01-08 23:29:07.61	167.40	6.87	-33.4	-45.8	3.8	1.49e+00	0	43	104	2132803584	26	15003

#Closed at: 2026-01-08 23:29:08
#Recorded file [2132 MB]: D:/data/31010_260109_021741.dat