passes_logs/2026/01/08/R2M6_AANII_01/R2M6_AANII_01__20260108_123918_FENGYUN_3D_rec.log

#Pass ID: 20260108_123918_FENGYUN 3D
#Satellite: FENGYUN 3D
#Configuration: FENGYUN 3D
#almurnet v.1.7.20240730
#Start time: 2026-01-08 12:39:19

#Version: 2.2.20231116
#Station: R2M6_AANII_01
#Location: 30.233357 lon 59.946436 lat
#TLE: 1 43010U 17072A   26006.26440730  .00000376  00000+0  19957-3 0  9994
#TLE: 2 43010  98.9925 337.9455 0002045 123.9195 236.2175 14.19693586422016

#Time	Az	El	Level	Level2	SNR	BER	BlckErr	Temp	State	Recorded	gain1	gain2
2026-01-08 12:39:19.56	169.57	7.09	-27.8	-30.5	5.7	7.77e-01	0	41	0	0	15	4899
2026-01-08 12:39:22.58	169.64	7.32	-28.6	-31.3	11.1	1.43e-03	0	41	0	5242880	17	4940
2026-01-08 12:39:25.60	169.71	7.56	-27.5	-29.1	12.9	3.43e-05	0	41	0	22020096	16	4323
2026-01-08 12:39:28.63	169.78	7.80	-26.7	-28.3	13.7	1.10e-06	0	41	0	39845888	14	4326
2026-01-08 12:39:31.64	169.85	8.04	-26.6	-28.0	14.0	1.10e-06	0	42	0	56623104	14	4242
2026-01-08 12:39:34.66	169.92	8.28	-26.9	-28.7	13.6	4.50e-06	0	42	0	73400320	14	4443
2026-01-08 12:39:37.67	170.00	8.52	-27.1	-29.1	13.4	8.00e-06	0	42	0	90177536	14	4553
2026-01-08 12:39:40.69	170.07	8.77	-27.0	-28.9	13.5	8.00e-06	0	42	0	106954752	14	4474
2026-01-08 12:39:43.70	170.15	9.02	-27.0	-29.0	13.5	4.50e-06	0	42	0	123731968	14	4521
2026-01-08 12:39:46.71	170.22	9.27	-26.3	-27.4	14.4	0.00e+00	0	42	0	140509184	14	4058
2026-01-08 12:39:49.73	170.30	9.53	-26.2	-27.6	14.6	0.00e+00	0	42	0	158334976	13	4211
2026-01-08 12:39:52.75	170.38	9.78	-26.2	-27.5	14.7	0.00e+00	0	42	0	175112192	13	4186
2026-01-08 12:39:55.76	170.46	10.04	-26.5	-28.2	14.3	0.00e+00	0	42	0	191889408	13	4384
2026-01-08 12:39:58.78	170.54	10.31	-26.5	-28.2	14.3	0.00e+00	0	42	0	208666624	13	4385
2026-01-08 12:40:01.80	170.62	10.57	-26.6	-28.4	14.2	3.40e-06	0	42	0	225443840	13	4455
2026-01-08 12:40:04.82	170.71	10.84	-26.5	-28.3	14.3	0.00e+00	0	42	0	243269632	13	4410
2026-01-08 12:40:07.83	170.79	11.11	-26.7	-28.7	14.1	0.00e+00	0	42	0	260046848	13	4514
2026-01-08 12:40:10.86	170.88	11.39	-26.0	-27.2	15.0	0.00e+00	0	42	0	276824064	13	4093
2026-01-08 12:40:13.88	170.97	11.66	-26.0	-27.0	15.1	0.00e+00	0	42	0	293601280	13	4062
2026-01-08 12:40:16.89	171.06	11.94	-26.1	-27.4	14.8	0.00e+00	0	42	0	310378496	13	4158
2026-01-08 12:40:19.90	171.15	12.23	-26.0	-27.1	15.0	0.00e+00	0	42	0	328204288	13	4073
2026-01-08 12:40:22.91	171.24	12.51	-26.1	-27.3	14.9	0.00e+00	0	43	0	344981504	13	4120
2026-01-08 12:40:25.94	171.34	12.80	-25.7	-27.0	15.4	0.00e+00	0	43	0	361758720	12	4154
2026-01-08 12:40:28.96	171.44	13.10	-25.7	-27.0	15.4	0.00e+00	0	42	0	378535936	12	4165
2026-01-08 12:40:31.98	171.53	13.40	-25.6	-26.8	15.5	0.00e+00	0	43	0	395313152	12	4108
2026-01-08 12:40:35.00	171.63	13.70	-25.4	-26.3	15.8	0.00e+00	0	42	0	413138944	12	3984
2026-01-08 12:40:38.02	171.74	14.00	-25.3	-26.6	16.0	0.00e+00	0	43	0	429916160	11	4163
2026-01-08 12:40:41.04	171.84	14.31	-25.1	-26.2	16.1	0.00e+00	0	43	0	446693376	11	4064
2026-01-08 12:40:44.06	171.95	14.62	-25.1	-26.0	16.2	1.10e-06	0	43	0	463470592	11	4022
2026-01-08 12:40:47.08	172.05	14.94	-24.9	-25.6	16.5	0.00e+00	0	43	0	480247808	11	3928
2026-01-08 12:40:50.10	172.16	15.26	-24.7	-25.8	16.7	0.00e+00	0	43	0	498073600	10	4067
2026-01-08 12:40:53.12	172.28	15.58	-24.4	-25.2	16.7	3.40e-06	0	43	0	514850816	10	3945
2026-01-08 12:40:56.15	172.39	15.91	-24.4	-25.2	17.1	0.00e+00	0	43	0	531628032	10	3905
2026-01-08 12:40:59.17	172.51	16.25	-24.5	-25.5	16.5	2.63e-05	0	43	0	548405248	10	4025
2026-01-08 12:41:02.19	172.63	16.59	-24.3	-25.5	16.5	2.71e-04	0	43	0	565182464	9	4143
2026-01-08 12:41:05.20	172.75	16.93	-24.5	-25.7	17.1	3.41e-04	0	43	0	583008256	9	4146
2026-01-08 12:41:08.22	172.87	17.28	-24.5	-25.7	17.1	0.00e+00	0	43	0	599785472	9	4135
2026-01-08 12:41:11.24	173.00	17.63	-24.7	-26.1	16.9	2.20e-06	0	43	0	616562688	9	4250
2026-01-08 12:41:14.26	173.13	17.98	-24.4	-25.5	17.3	0.00e+00	0	43	0	633339904	9	4100
2026-01-08 12:41:17.26	173.26	18.34	-24.2	-25.1	17.5	0.00e+00	0	43	0	650117120	9	3998
2026-01-08 12:41:20.27	173.40	18.71	-24.2	-25.1	17.5	1.02e-05	0	43	0	667942912	9	3998
2026-01-08 12:41:23.29	173.54	19.08	-24.0	-24.6	17.8	4.50e-06	0	43	0	684720128	9	3880
2026-01-08 12:41:26.31	173.68	19.46	-24.0	-24.6	17.8	0.00e+00	0	43	0	701497344	9	3866
2026-01-08 12:41:29.33	173.83	19.85	-23.9	-24.5	17.9	0.00e+00	0	43	0	718274560	9	3839
2026-01-08 12:41:32.35	173.97	20.24	-23.8	-24.7	18.0	8.00e-06	0	43	0	735051776	8	4002
2026-01-08 12:41:35.36	174.13	20.63	-23.4	-23.9	18.4	0.00e+00	0	43	0	751828992	8	3802
2026-01-08 12:41:38.38	174.28	21.04	-23.3	-23.7	18.6	0.00e+00	0	43	0	769654784	8	3755
2026-01-08 12:41:41.40	174.44	21.44	-23.5	-24.0	18.4	0.00e+00	0	43	0	786432000	8	3836
2026-01-08 12:41:44.42	174.61	21.86	-23.6	-24.2	18.3	0.00e+00	0	43	0	803209216	8	3876
2026-01-08 12:41:47.44	174.78	22.28	-23.8	-24.7	18.1	0.00e+00	0	43	0	819986432	8	4001
2026-01-08 12:41:50.45	174.95	22.71	-23.8	-24.8	18.0	0.00e+00	0	43	0	836763648	8	4032
2026-01-08 12:41:53.47	175.12	23.15	-23.9	-25.0	18.0	0.00e+00	0	43	0	854589440	8	4068
2026-01-08 12:41:56.48	175.31	23.59	-23.7	-24.4	18.3	0.00e+00	0	43	0	871366656	8	3930
2026-01-08 12:41:59.50	175.49	24.04	-23.6	-24.4	18.3	0.00e+00	0	43	0	888143872	8	3916
2026-01-08 12:42:02.52	175.69	24.50	-23.4	-23.9	18.5	0.00e+00	0	43	0	904921088	8	3812
2026-01-08 12:42:05.53	175.88	24.96	-23.4	-24.0	18.5	0.00e+00	0	43	0	921698304	8	3830
2026-01-08 12:42:08.55	176.09	25.43	-23.2	-23.9	18.8	0.00e+00	0	43	0	938475520	7	3899
2026-01-08 12:42:11.58	176.30	25.92	-23.0	-23.6	18.9	0.00e+00	0	43	0	956301312	7	3847
2026-01-08 12:42:14.60	176.51	26.41	-23.1	-23.8	18.8	0.00e+00	0	43	0	973078528	7	3895
2026-01-08 12:42:17.61	176.73	26.91	-23.0	-23.5	19.0	0.00e+00	0	43	0	989855744	7	3829
2026-01-08 12:42:20.62	176.96	27.41	-23.2	-23.9	18.8	0.00e+00	0	43	0	1006632960	7	3915
2026-01-08 12:42:23.65	177.20	27.93	-23.0	-23.6	19.0	0.00e+00	0	43	0	1023410176	7	3845
2026-01-08 12:42:26.66	177.44	28.46	-22.8	-23.5	19.3	0.00e+00	0	43	0	1041235968	6	3928
2026-01-08 12:42:29.68	177.69	28.99	-22.7	-23.4	19.3	0.00e+00	0	43	0	1058013184	6	3908
2026-01-08 12:42:32.70	177.95	29.54	-23.0	-24.1	19.0	0.00e+00	0	43	0	1074790400	6	4068
2026-01-08 12:42:35.71	178.21	30.09	-23.1	-24.2	18.9	0.00e+00	0	43	0	1091567616	6	4099
2026-01-08 12:42:38.73	178.49	30.66	-22.8	-23.6	19.3	0.00e+00	0	43	0	1108344832	6	3940
2026-01-08 12:42:41.75	178.78	31.24	-22.8	-23.7	19.2	0.00e+00	0	43	0	1125122048	6	3979
2026-01-08 12:42:44.77	179.07	31.83	-22.9	-23.8	19.1	0.00e+00	0	43	0	1142947840	6	4010
2026-01-08 12:42:47.79	179.38	32.43	-22.7	-23.4	19.3	0.00e+00	0	43	0	1159725056	6	3908
2026-01-08 12:42:50.80	179.70	33.03	-22.8	-23.6	19.3	0.00e+00	0	43	0	1176502272	6	3953
2026-01-08 12:42:53.82	180.03	33.66	-22.7	-23.3	19.4	0.00e+00	0	43	0	1193279488	6	3884
2026-01-08 12:42:56.84	180.37	34.29	-22.5	-23.0	19.6	0.00e+00	0	43	0	1210056704	6	3801
2026-01-08 12:42:59.86	180.72	34.94	-22.8	-23.6	19.3	0.00e+00	0	43	0	1227882496	6	3950
2026-01-08 12:43:02.87	181.09	35.59	-22.5	-23.1	19.6	0.00e+00	0	43	0	1244659712	6	3829
2026-01-08 12:43:05.89	181.48	36.26	-22.7	-23.4	19.4	0.00e+00	0	43	0	1261436928	6	3913
2026-01-08 12:43:08.91	181.88	36.95	-22.6	-23.2	19.5	0.00e+00	0	43	0	1278214144	6	3850
2026-01-08 12:43:11.92	182.29	37.64	-22.4	-22.9	19.7	0.00e+00	0	43	0	1294991360	6	3774
2026-01-08 12:43:14.94	182.73	38.35	-22.6	-23.1	19.6	0.00e+00	0	43	0	1312817152	6	3832
2026-01-08 12:43:17.96	183.18	39.07	-22.3	-23.1	19.8	0.00e+00	0	43	0	1329594368	5	3943
2026-01-08 12:43:20.98	183.66	39.81	-22.5	-23.6	19.6	0.00e+00	0	43	0	1346371584	5	4052
2026-01-08 12:43:24.01	184.15	40.56	-22.4	-23.3	19.8	0.00e+00	0	43	0	1363148800	5	3986
2026-01-08 12:43:27.03	184.67	41.33	-22.8	-24.1	19.5	0.00e+00	0	43	0	1379926016	5	4171
2026-01-08 12:43:30.05	185.22	42.10	-22.8	-23.5	19.5	0.00e+00	0	43	0	1397751808	6	3924
2026-01-08 12:43:33.07	185.79	42.90	-22.8	-23.5	19.5	0.00e+00	0	43	0	1414529024	6	3921
2026-01-08 12:43:36.09	186.38	43.70	-22.8	-23.6	19.4	0.00e+00	0	43	0	1431306240	6	3935
2026-01-08 12:43:39.11	187.01	44.52	-23.2	-24.4	19.0	0.00e+00	0	43	0	1448083456	6	4150
2026-01-08 12:43:42.13	187.67	45.35	-23.0	-24.1	19.2	0.00e+00	0	43	0	1464860672	6	4055
2026-01-08 12:43:45.16	188.37	46.20	-22.7	-23.3	19.7	0.00e+00	0	43	0	1482686464	6	3873
2026-01-08 12:43:48.17	189.11	47.05	-22.9	-23.9	19.4	0.00e+00	0	43	0	1499463680	6	4008
2026-01-08 12:43:51.18	189.88	47.92	-22.9	-23.7	19.5	0.00e+00	0	43	0	1516240896	6	3965
2026-01-08 12:43:54.20	190.70	48.80	-22.9	-23.9	19.4	0.00e+00	0	43	0	1533018112	6	4002
2026-01-08 12:43:57.22	191.57	49.70	-23.3	-24.5	19.0	0.00e+00	0	43	0	1550843904	6	4174
2026-01-08 12:44:00.24	192.49	50.60	-23.3	-24.5	19.1	0.00e+00	0	43	0	1567621120	6	4161
2026-01-08 12:44:03.27	193.47	51.52	-23.3	-24.5	19.1	0.00e+00	0	43	0	1584398336	6	4156
2026-01-08 12:44:06.28	194.50	52.44	-23.7	-24.4	18.7	0.00e+00	0	43	0	1601175552	8	3905
2026-01-08 12:44:09.29	195.60	53.36	-23.7	-24.3	18.7	0.00e+00	0	43	0	1617952768	8	3899
2026-01-08 12:44:12.31	196.78	54.30	-24.0	-25.0	18.4	0.00e+00	0	43	0	1635778560	8	4063
2026-01-08 12:44:15.34	198.04	55.24	-23.7	-24.5	18.7	0.00e+00	0	43	0	1652555776	8	3935
2026-01-08 12:44:18.34	199.37	56.18	-23.9	-24.9	18.4	0.00e+00	0	43	0	1669332992	8	4035
2026-01-08 12:44:21.37	200.81	57.13	-23.7	-24.5	18.7	0.00e+00	0	43	0	1686110208	8	3940
2026-01-08 12:44:24.39	202.35	58.07	-24.3	-25.7	18.1	0.00e+00	0	43	0	1702887424	8	4241
2026-01-08 12:44:27.41	203.99	59.00	-23.5	-24.1	18.9	0.00e+00	0	43	0	1719664640	8	3832
2026-01-08 12:44:30.43	205.76	59.93	-23.3	-23.7	19.1	0.00e+00	0	43	0	1737490432	8	3744
2026-01-08 12:44:33.45	207.65	60.84	-23.5	-24.5	18.9	0.00e+00	0	43	0	1754267648	7	4053
2026-01-08 12:44:36.48	209.69	61.74	-22.1	-22.6	20.5	0.00e+00	0	44	0	1771044864	5	3799
2026-01-08 12:44:39.49	211.87	62.62	-22.3	-22.9	20.4	0.00e+00	0	43	0	1787822080	5	3875
2026-01-08 12:44:42.50	214.21	63.46	-22.4	-23.2	20.2	0.00e+00	0	43	0	1804599296	5	3945
2026-01-08 12:44:45.53	216.74	64.28	-22.3	-23.0	20.4	0.00e+00	0	44	0	1822425088	5	3884
2026-01-08 12:44:48.55	219.44	65.06	-22.3	-23.0	20.3	0.00e+00	0	43	0	1839202304	5	3894
2026-01-08 12:44:51.56	222.31	65.79	-22.3	-22.9	20.4	0.00e+00	0	43	0	1855979520	5	3882
2026-01-08 12:44:54.58	225.39	66.48	-22.4	-23.1	20.3	0.00e+00	0	43	0	1872756736	5	3929
2026-01-08 12:44:57.60	228.66	67.10	-22.2	-22.8	20.4	0.00e+00	0	44	0	1889533952	5	3849
2026-01-08 12:45:00.61	232.10	67.65	-22.6	-23.0	20.1	0.00e+00	0	43	0	1907359744	6	3794
2026-01-08 12:45:03.63	235.73	68.13	-22.2	-22.7	20.5	0.00e+00	0	44	0	1924136960	5	3823
2026-01-08 12:45:06.65	239.53	68.53	-22.5	-23.5	20.1	0.00e+00	0	43	0	1940914176	5	4015
2026-01-08 12:45:09.68	243.47	68.83	-21.8	-22.0	20.9	0.00e+00	0	44	0	1957691392	5	3662
2026-01-08 12:45:12.69	247.49	69.05	-21.7	-22.2	21.0	0.00e+00	0	43	0	1974468608	4	3816
2026-01-08 12:45:15.71	251.60	69.17	-21.9	-22.7	20.8	0.00e+00	0	43	0	1991245824	4	3925
2026-01-08 12:45:18.73	255.73	69.19	-21.7	-22.3	21.0	0.00e+00	0	43	0	2009071616	4	3840
2026-01-08 12:45:21.75	259.85	69.10	-21.9	-22.7	20.8	0.00e+00	0	44	0	2025848832	4	3944
2026-01-08 12:45:24.76	263.90	68.93	-21.9	-22.6	20.8	0.00e+00	0	44	0	2042626048	4	3908
2026-01-08 12:45:27.79	267.88	68.65	-21.9	-22.7	20.8	0.00e+00	0	44	0	2059403264	4	3936
2026-01-08 12:45:30.81	271.73	68.29	-21.7	-22.2	21.0	0.00e+00	0	43	0	2076180480	4	3816
2026-01-08 12:45:33.83	275.42	67.84	-22.3	-23.6	20.4	0.00e+00	0	44	0	2094006272	4	4150
2026-01-08 12:45:36.86	278.95	67.31	-22.3	-23.4	20.5	0.00e+00	0	44	0	2110783488	4	4109
2026-01-08 12:45:39.88	282.29	66.71	-22.2	-23.3	20.5	0.00e+00	0	43	0	2127560704	4	4078
2026-01-08 12:45:42.90	285.43	66.05	-22.2	-23.3	20.5	0.00e+00	0	44	0	2144337920	4	4074
2026-01-08 12:45:45.92	288.38	65.34	-22.5	-23.8	20.2	0.00e+00	0	44	0	2162163712	4	4218
2026-01-08 12:45:48.94	291.14	64.58	-22.7	-23.8	19.9	0.00e+00	0	44	0	2178940928	5	4092
2026-01-08 12:45:51.95	293.72	63.78	-21.6	-22.6	18.7	0.00e+00	0	44	0	2195718144	4	4075
2026-01-08 12:45:54.96	296.11	62.94	-21.8	-23.8	18.0	0.00e+00	0	43	0	2212495360	3	4528
2026-01-08 12:45:57.98	298.35	62.08	-22.6	-23.7	19.7	0.00e+00	0	44	0	2229272576	5	4089
2026-01-08 12:46:01.00	300.44	61.19	-22.7	-23.9	19.8	0.00e+00	0	44	0	2246049792	5	4118
2026-01-08 12:46:04.03	302.39	60.28	-22.7	-23.9	20.0	0.00e+00	0	44	0	2263875584	5	4116
2026-01-08 12:46:07.05	304.20	59.36	-22.8	-24.1	19.9	0.00e+00	0	44	0	2280652800	5	4152
2026-01-08 12:46:10.07	305.89	58.43	-23.4	-24.8	19.2	0.00e+00	0	43	0	2297430016	6	4226
2026-01-08 12:46:13.09	307.46	57.50	-23.5	-24.9	19.2	0.00e+00	0	43	0	2314207232	6	4226
2026-01-08 12:46:16.10	308.92	56.56	-23.9	-24.9	18.7	0.00e+00	0	44	0	2330984448	8	4034
2026-01-08 12:46:19.13	310.30	55.62	-24.0	-25.1	18.7	0.00e+00	0	44	0	2348810240	8	4053
2026-01-08 12:46:22.15	311.59	54.68	-23.8	-24.7	18.8	0.00e+00	0	43	0	2365587456	8	3973
2026-01-08 12:46:25.18	312.79	53.74	-23.8	-24.6	18.9	0.00e+00	0	43	0	2382364672	8	3946
2026-01-08 12:46:28.19	313.92	52.81	-23.5	-24.0	19.2	0.00e+00	0	44	0	2399141888	8	3809
2026-01-08 12:46:31.22	314.98	51.89	-23.8	-24.6	18.9	0.00e+00	0	44	0	2416967680	8	3943
2026-01-08 12:46:34.22	315.97	50.98	-23.4	-23.8	19.3	0.00e+00	0	43	0	2433744896	8	3766
2026-01-08 12:46:37.24	316.91	50.07	-23.2	-23.8	19.5	0.00e+00	0	44	0	2450522112	7	3868
2026-01-08 12:46:40.26	317.80	49.18	-23.1	-23.6	19.5	0.00e+00	0	44	0	2467299328	7	3824
2026-01-08 12:46:43.27	318.64	48.30	-22.9	-23.7	19.7	0.00e+00	0	44	0	2484076544	6	3951
2026-01-08 12:46:46.29	319.43	47.43	-23.1	-24.2	19.5	0.00e+00	0	44	0	2500853760	6	4072
2026-01-08 12:46:49.31	320.18	46.57	-23.1	-24.1	19.5	0.00e+00	0	44	0	2517630976	6	4047
2026-01-08 12:46:52.33	320.89	45.72	-23.0	-23.9	19.6	0.00e+00	0	44	0	2535456768	6	3992
2026-01-08 12:46:55.34	321.56	44.89	-23.0	-24.0	19.6	0.00e+00	0	43	0	2552233984	6	4020
2026-01-08 12:46:58.37	322.20	44.07	-23.0	-23.9	19.6	0.00e+00	0	44	0	2569011200	6	4002
2026-01-08 12:47:01.39	322.81	43.26	-22.6	-23.1	20.0	0.00e+00	0	43	0	2585788416	6	3805
2026-01-08 12:47:04.40	323.39	42.47	-22.6	-23.1	20.0	0.00e+00	0	44	0	2602565632	6	3809
2026-01-08 12:47:07.42	323.95	41.69	-22.8	-23.5	19.8	0.00e+00	0	44	0	2620391424	6	3915
2026-01-08 12:47:10.44	324.47	40.93	-22.4	-22.7	20.2	0.00e+00	0	44	0	2637168640	6	3715
2026-01-08 12:47:13.46	324.98	40.17	-22.6	-23.1	20.0	0.00e+00	0	44	0	2653945856	6	3813
2026-01-08 12:47:16.48	325.46	39.44	-22.6	-23.1	20.0	0.00e+00	0	44	0	2670723072	6	3807
2026-01-08 12:47:19.50	325.92	38.71	-22.5	-23.0	20.0	0.00e+00	0	44	0	2687500288	6	3783
2026-01-08 12:47:22.51	326.36	38.00	-22.5	-22.8	20.1	0.00e+00	0	44	0	2705326080	6	3757
2026-01-08 12:47:25.53	326.79	37.30	-22.7	-23.2	19.9	0.00e+00	0	43	0	2722103296	6	3847
2026-01-08 12:47:28.55	327.20	36.62	-22.4	-22.7	20.1	0.00e+00	0	44	0	2738880512	6	3731
2026-01-08 12:47:31.57	327.59	35.94	-22.5	-22.8	20.1	0.00e+00	0	44	0	2755657728	6	3749
2026-01-08 12:47:34.59	327.96	35.28	-22.8	-23.5	19.7	0.00e+00	0	44	0	2772434944	6	3918
2026-01-08 12:47:37.60	328.32	34.64	-23.0	-24.0	19.5	0.00e+00	0	44	0	2790260736	6	4021
2026-01-08 12:47:40.63	328.67	34.00	-22.8	-23.6	19.7	0.00e+00	0	43	0	2807037952	6	3925
2026-01-08 12:47:43.64	329.01	33.38	-22.7	-23.4	19.8	0.00e+00	0	43	0	2823815168	6	3871
2026-01-08 12:47:46.66	329.33	32.76	-22.8	-23.5	19.7	0.00e+00	0	44	0	2840592384	6	3904
2026-01-08 12:47:49.68	329.64	32.16	-23.0	-24.0	19.4	0.00e+00	0	44	0	2857369600	6	4036
2026-01-08 12:47:52.71	329.94	31.57	-23.1	-24.2	19.3	0.00e+00	0	43	0	2875195392	6	4086
2026-01-08 12:47:55.73	330.24	30.99	-23.1	-24.1	19.3	0.00e+00	0	44	0	2891972608	6	4066
2026-01-08 12:47:58.75	330.52	30.42	-23.1	-24.2	19.3	0.00e+00	0	44	0	2908749824	6	4072
2026-01-08 12:48:01.77	330.79	29.86	-22.9	-23.8	19.5	0.00e+00	0	44	0	2925527040	6	3992
2026-01-08 12:48:04.79	331.05	29.32	-23.0	-24.0	19.4	0.00e+00	0	44	0	2942304256	6	4028
2026-01-08 12:48:07.81	331.31	28.78	-23.0	-24.0	19.4	0.00e+00	0	43	0	2960130048	6	4038
2026-01-08 12:48:10.83	331.55	28.25	-23.1	-24.1	19.3	0.00e+00	0	43	0	2976907264	6	4053
2026-01-08 12:48:13.85	331.79	27.73	-22.9	-23.7	19.5	0.00e+00	0	43	0	2993684480	6	3952
2026-01-08 12:48:16.87	332.03	27.22	-23.3	-24.6	19.0	0.00e+00	0	43	0	3010461696	6	4189
2026-01-08 12:48:19.89	332.25	26.72	-23.3	-24.6	19.1	0.00e+00	0	43	0	3027238912	6	4169
2026-01-08 12:48:22.91	332.47	26.23	-23.2	-24.5	19.1	0.00e+00	0	44	0	3045064704	6	4147
2026-01-08 12:48:25.94	332.68	25.74	-23.2	-24.4	19.1	0.00e+00	0	43	0	3061841920	6	4144
2026-01-08 12:48:28.96	332.89	25.27	-23.5	-24.9	18.8	0.00e+00	0	43	0	3078619136	6	4263
2026-01-08 12:48:31.98	333.09	24.80	-23.4	-24.7	18.9	0.00e+00	0	43	0	3095396352	6	4212
2026-01-08 12:48:35.01	333.29	24.34	-23.4	-24.3	18.9	0.00e+00	0	43	0	3112173568	7	3981
2026-01-08 12:48:38.03	333.48	23.89	-23.6	-24.6	18.7	0.00e+00	0	44	0	3129999360	7	4070
2026-01-08 12:48:41.05	333.66	23.44	-23.7	-25.0	18.5	0.00e+00	0	43	0	3146776576	7	4162
2026-01-08 12:48:44.07	333.84	23.01	-23.7	-24.9	18.6	0.00e+00	0	43	0	3163553792	7	4147
2026-01-08 12:48:47.09	334.02	22.58	-23.6	-24.8	18.5	0.00e+00	0	44	0	3180331008	7	4119
2026-01-08 12:48:50.11	334.19	22.15	-23.7	-25.0	18.5	0.00e+00	0	43	0	3197108224	7	4159
2026-01-08 12:48:53.13	334.36	21.74	-23.8	-25.2	18.3	0.00e+00	0	43	0	3214934016	7	4211
2026-01-08 12:48:56.14	334.52	21.33	-23.8	-25.2	18.3	0.00e+00	0	44	0	3231711232	7	4219
2026-01-08 12:48:59.17	334.68	20.92	-23.9	-25.4	18.2	0.00e+00	0	43	0	3248488448	7	4268
2026-01-08 12:49:02.19	334.84	20.53	-24.2	-25.4	18.0	1.10e-06	0	43	0	3265265664	8	4153
2026-01-08 12:49:05.21	334.99	20.13	-24.4	-25.9	17.7	0.00e+00	0	43	0	3282042880	8	4271
2026-01-08 12:49:08.22	335.14	19.75	-24.5	-26.1	17.6	0.00e+00	0	43	0	3299868672	8	4334
2026-01-08 12:49:11.24	335.28	19.37	-24.7	-26.1	17.3	0.00e+00	0	43	0	3316645888	9	4210
2026-01-08 12:49:14.26	335.42	19.00	-24.5	-25.7	17.5	0.00e+00	0	43	0	3333423104	9	4110
2026-01-08 12:49:17.27	335.56	18.63	-24.6	-25.8	17.4	0.00e+00	0	43	0	3350200320	9	4153
2026-01-08 12:49:20.29	335.70	18.27	-24.7	-26.1	17.3	0.00e+00	0	43	0	3366977536	9	4220
2026-01-08 12:49:23.31	335.83	17.91	-24.9	-26.5	17.1	0.00e+00	0	43	0	3384803328	9	4321
2026-01-08 12:49:26.33	335.96	17.56	-24.9	-26.5	17.0	0.00e+00	0	43	0	3401580544	9	4319
2026-01-08 12:49:29.35	336.09	17.21	-25.0	-26.2	16.9	0.00e+00	0	43	0	3418357760	10	4139
2026-01-08 12:49:32.37	336.21	16.86	-24.8	-25.7	17.1	0.00e+00	0	43	0	3435134976	10	4020
2026-01-08 12:49:35.39	336.34	16.53	-24.8	-25.8	17.0	0.00e+00	0	43	0	3451912192	10	4027
2026-01-08 12:49:38.41	336.46	16.19	-25.0	-26.2	16.8	0.00e+00	0	43	0	3469737984	10	4150
2026-01-08 12:49:41.42	336.57	15.86	-24.9	-25.9	17.0	0.00e+00	0	43	0	3486515200	10	4071
2026-01-08 12:49:44.44	336.69	15.54	-25.0	-26.2	16.8	0.00e+00	0	44	0	3503292416	10	4143
2026-01-08 12:49:47.46	336.80	15.22	-25.1	-26.4	16.7	0.00e+00	0	43	0	3520069632	10	4185
2026-01-08 12:49:50.48	336.91	14.90	-25.1	-26.6	16.4	0.00e+00	0	43	0	3536846848	10	4243
2026-01-08 12:49:53.50	337.02	14.59	-25.2	-26.6	16.4	0.00e+00	0	43	0	3554672640	10	4240
2026-01-08 12:49:56.52	337.13	14.28	-25.3	-26.8	16.4	0.00e+00	0	44	0	3571449856	10	4294
2026-01-08 12:49:59.54	337.23	13.97	-25.3	-27.0	16.2	0.00e+00	0	44	0	3588227072	10	4345
2026-01-08 12:50:02.56	337.34	13.67	-25.8	-27.5	15.6	0.00e+00	0	43	0	3605004288	11	4364
2026-01-08 12:50:05.57	337.44	13.37	-25.6	-27.1	15.7	0.00e+00	0	43	0	3621781504	11	4281
2026-01-08 12:50:08.59	337.54	13.08	-25.7	-27.3	15.5	0.00e+00	0	44	0	3639607296	11	4324
2026-01-08 12:50:11.62	337.64	12.79	-25.7	-27.2	15.7	0.00e+00	0	43	0	3656384512	11	4292
2026-01-08 12:50:14.63	337.73	12.50	-25.6	-27.0	15.9	0.00e+00	0	43	0	3673161728	11	4242
2026-01-08 12:50:17.64	337.83	12.22	-25.7	-27.3	15.6	0.00e+00	0	43	0	3689938944	11	4314
2026-01-08 12:50:20.66	337.92	11.94	-25.9	-27.6	15.0	0.00e+00	0	43	0	3706716160	11	4418
2026-01-08 12:50:23.67	338.01	11.66	-26.0	-27.3	15.1	0.00e+00	0	43	0	3724541952	12	4227
2026-01-08 12:50:26.69	338.10	11.39	-25.9	-27.3	15.1	0.00e+00	0	44	0	3741319168	12	4225
2026-01-08 12:50:29.72	338.19	11.11	-26.1	-27.8	14.4	0.00e+00	0	44	0	3758096384	12	4363
2026-01-08 12:50:32.75	338.28	10.84	-26.1	-27.7	14.8	0.00e+00	0	43	0	3774873600	12	4335
2026-01-08 12:50:35.77	338.36	10.58	-26.0	-27.5	15.2	0.00e+00	0	43	0	3791650816	12	4285
2026-01-08 12:50:38.79	338.45	10.31	-26.1	-27.6	15.2	0.00e+00	0	43	0	3809476608	12	4300
2026-01-08 12:50:41.81	338.53	10.05	-26.1	-27.6	15.0	0.00e+00	0	43	0	3826253824	12	4308
2026-01-08 12:50:44.83	338.62	9.80	-26.3	-28.1	14.8	1.10e-06	0	43	0	3843031040	12	4435
2026-01-08 12:50:47.85	338.70	9.54	-26.5	-28.1	14.6	0.00e+00	0	44	0	3859808256	13	4346
2026-01-08 12:50:50.86	338.78	9.29	-26.6	-28.3	14.4	0.00e+00	0	44	0	3876585472	13	4405
2026-01-08 12:50:53.88	338.85	9.04	-26.5	-28.1	14.5	0.00e+00	0	43	0	3894411264	13	4335
2026-01-08 12:50:56.90	338.93	8.79	-26.5	-28.2	14.4	0.00e+00	0	43	0	3911188480	13	4357
2026-01-08 12:50:59.92	339.01	8.55	-26.7	-28.6	14.2	1.10e-06	0	44	0	3927965696	13	4477
2026-01-08 12:51:02.94	339.08	8.30	-26.7	-28.5	14.2	0.00e+00	0	44	0	3944742912	13	4459
2026-01-08 12:51:05.96	339.16	8.06	-26.9	-29.1	13.8	3.40e-06	0	44	0	3961520128	13	4618
2026-01-08 12:51:08.97	339.23	7.83	-27.0	-28.7	13.8	3.40e-06	0	43	0	3979345920	14	4401
2026-01-08 12:51:11.99	339.31	7.59	-26.9	-28.5	13.8	1.10e-06	0	43	0	3996123136	14	4346
2026-01-08 12:51:15.01	339.38	7.36	-27.1	-29.1	13.5	1.37e-05	0	44	0	4012900352	14	4514
2026-01-08 12:51:18.03	339.45	7.12	-27.0	-28.8	13.7	4.50e-06	0	44	0	4029677568	14	4431
2026-01-08 12:51:21.05	339.52	6.89	-33.4	-44.8	3.8	8.47e-01	0	43	104	4031774720	26	13365

#Closed at: 2026-01-08 12:51:21
#Recorded file [4031 MB]: D:/data/31010_260108_153921.dat