passes_logs/2026/01/08/R2M6_AANII_01/R2M6_AANII_01__20260108_222807_NOAA_20_JPSS-1_rec.log

#Pass ID: 20260108_222807_NOAA 20 (JPSS-1)
#Satellite: NOAA 20 (JPSS-1)
#Configuration: NOAA 20
#almurnet v.1.7.20240730
#Start time: 2026-01-08 22:28:07

#Version: 2.2.20231116
#Station: R2M6_AANII_01
#Location: 30.233357 lon 59.946436 lat
#TLE: 1 43013U 17073A   26008.42245989  .00000120  00000+0  77990-4 0  9996
#TLE: 2 43013  98.7631 309.4315 0001737  48.7960 311.3365 14.19534455421802

#Time	Az	El	Level	Level2	SNR	BER	BlckErr	Temp	State	Recorded	gain1	gain2
2026-01-08 22:28:07.91	33.25	7.05	-31.5	-38.2	4.9	1.24e+00	0	41	0	0	23	7774
2026-01-08 22:28:10.93	33.58	7.22	-31.7	-39.1	6.6	2.13e-01	0	41	0	1048576	23	8422
2026-01-08 22:28:13.94	33.91	7.39	-31.7	-38.5	7.1	1.57e-01	0	41	0	7340032	23	7895
2026-01-08 22:28:16.97	34.25	7.57	-31.5	-37.9	8.0	7.31e-02	0	41	0	12582912	22	7583
2026-01-08 22:28:19.99	34.59	7.74	-31.5	-37.5	8.0	1.06e-01	0	41	0	18874368	23	7191
2026-01-08 22:28:23.00	34.94	7.91	-30.7	-35.5	10.3	9.14e-03	0	41	0	24117248	21	6243
2026-01-08 22:28:26.02	35.29	8.09	-30.2	-34.5	11.4	1.73e-03	0	41	0	29360128	20	5871
2026-01-08 22:28:29.03	35.64	8.26	-30.3	-34.5	11.4	1.25e-03	0	41	0	35651584	20	5883
2026-01-08 22:28:32.05	36.00	8.43	-30.4	-34.7	11.3	1.28e-03	0	41	0	40894464	20	5959
2026-01-08 22:28:35.07	36.36	8.61	-30.6	-35.1	10.7	2.76e-03	0	41	0	47185920	21	6037
2026-01-08 22:28:38.08	36.72	8.78	-30.4	-34.7	11.4	9.86e-04	0	41	0	52428800	20	5912
2026-01-08 22:28:41.10	37.09	8.96	-30.8	-35.5	10.4	3.75e-03	0	42	0	57671680	21	6195
2026-01-08 22:28:44.12	37.47	9.13	-30.5	-35.0	11.2	1.27e-03	0	42	0	63963136	20	6041
2026-01-08 22:28:47.14	37.85	9.31	-30.7	-35.2	10.7	2.56e-03	0	42	0	69206016	21	6074
2026-01-08 22:28:50.15	38.23	9.48	-30.8	-35.4	10.6	3.10e-03	0	42	0	74448896	21	6144
2026-01-08 22:28:53.17	38.62	9.66	-30.4	-34.1	11.6	8.51e-04	0	42	0	80740352	21	5535
2026-01-08 22:28:56.17	39.01	9.83	-30.3	-34.0	11.6	7.79e-04	0	42	0	85983232	21	5472
2026-01-08 22:28:59.19	39.40	10.01	-30.4	-34.3	11.5	7.22e-04	0	42	0	92274688	21	5632
2026-01-08 22:29:02.21	39.81	10.18	-30.3	-33.7	11.9	5.72e-04	0	42	0	97517568	21	5371
2026-01-08 22:29:05.24	40.21	10.36	-30.2	-33.4	12.2	2.26e-04	0	42	0	102760448	21	5226
2026-01-08 22:29:08.25	40.62	10.54	-30.3	-33.8	11.8	4.13e-04	0	42	0	109051904	21	5384
2026-01-08 22:29:11.27	41.04	10.71	-30.2	-33.5	12.1	3.43e-04	0	42	0	114294784	21	5267
2026-01-08 22:29:14.28	41.46	10.89	-30.2	-33.6	12.0	4.15e-04	0	42	0	120586240	21	5314
2026-01-08 22:29:17.30	41.88	11.06	-30.2	-33.4	12.2	2.19e-04	0	42	0	125829120	21	5216
2026-01-08 22:29:20.32	42.31	11.24	-30.2	-33.4	12.2	2.10e-04	0	42	0	131072000	21	5212
2026-01-08 22:29:23.34	42.75	11.41	-30.1	-33.1	12.4	1.76e-04	0	42	0	137363456	21	5118
2026-01-08 22:29:26.35	43.19	11.59	-30.1	-33.2	12.3	1.60e-04	0	42	0	142606336	21	5154
2026-01-08 22:29:29.36	43.63	11.76	-30.2	-33.4	12.2	1.75e-04	0	42	0	148897792	21	5202
2026-01-08 22:29:32.38	44.08	11.94	-30.1	-33.1	12.5	1.64e-04	0	42	0	154140672	21	5092
2026-01-08 22:29:35.40	44.54	12.11	-29.9	-32.5	12.8	4.95e-05	0	42	0	159383552	21	4874
2026-01-08 22:29:38.41	45.00	12.29	-29.8	-32.7	13.1	4.19e-05	0	42	0	165675008	20	5042
2026-01-08 22:29:41.43	45.47	12.46	-29.8	-33.3	13.2	2.28e-05	0	42	0	170917888	19	5356
2026-01-08 22:29:44.44	45.94	12.63	-29.8	-33.3	13.1	3.89e-05	0	43	0	177209344	19	5376
2026-01-08 22:29:47.46	46.41	12.80	-29.9	-33.4	13.1	3.58e-05	0	42	0	182452224	19	5413
2026-01-08 22:29:50.47	46.90	12.98	-29.8	-32.7	13.1	3.66e-05	0	42	0	187695104	20	5041
2026-01-08 22:29:53.49	47.38	13.15	-29.6	-32.3	13.4	1.60e-05	0	43	0	193986560	20	4890
2026-01-08 22:29:56.50	47.88	13.32	-29.5	-31.9	13.7	6.80e-06	0	43	0	199229440	20	4739
2026-01-08 22:29:59.51	48.37	13.49	-29.6	-32.1	13.5	1.14e-05	0	43	0	205520896	20	4820
2026-01-08 22:30:02.54	48.88	13.66	-29.6	-32.0	13.6	1.05e-04	0	43	0	210763776	20	4770
2026-01-08 22:30:05.55	49.39	13.82	-29.7	-32.8	13.5	4.73e-05	0	43	0	216006656	19	5165
2026-01-08 22:30:08.57	49.91	13.99	-29.6	-32.7	13.6	9.90e-06	0	43	0	222298112	19	5109
2026-01-08 22:30:11.59	50.43	14.16	-29.7	-33.0	13.4	9.90e-06	0	43	0	227540992	19	5214
2026-01-08 22:30:14.61	50.96	14.32	-29.8	-32.7	13.2	2.51e-05	0	43	0	233832448	20	5021
2026-01-08 22:30:17.63	51.49	14.49	-30.0	-33.4	12.8	7.93e-05	0	43	0	239075328	20	5280
2026-01-08 22:30:20.65	52.03	14.65	-29.8	-32.6	13.3	1.52e-05	0	43	0	244318208	20	4985
2026-01-08 22:30:23.67	52.57	14.81	-29.9	-33.1	13.0	3.63e-04	0	43	0	250609664	20	5154
2026-01-08 22:30:26.69	53.12	14.97	-30.1	-33.5	12.8	4.43e-04	0	43	0	255852544	20	5337
2026-01-08 22:30:29.70	53.68	15.13	-30.3	-34.0	12.4	2.30e-04	0	43	0	261095424	20	5525
2026-01-08 22:30:32.73	54.24	15.29	-30.3	-34.0	12.4	2.68e-04	0	43	0	267386880	20	5519
2026-01-08 22:30:35.75	54.81	15.44	-30.4	-34.2	12.3	1.88e-04	0	43	0	272629760	20	5619
2026-01-08 22:30:38.76	55.38	15.60	-30.6	-34.6	11.7	7.29e-04	0	43	0	278921216	21	5667
2026-01-08 22:30:41.79	55.96	15.75	-30.4	-34.2	12.3	1.52e-04	0	43	0	284164096	20	5620
2026-01-08 22:30:44.80	56.55	15.90	-30.4	-33.8	12.3	2.17e-04	0	43	0	289406976	21	5314
2026-01-08 22:30:47.82	57.14	16.05	-30.4	-33.9	12.1	2.36e-04	0	43	0	295698432	21	5385
2026-01-08 22:30:50.83	57.73	16.20	-30.6	-34.4	11.9	3.94e-04	0	43	0	300941312	21	5579
2026-01-08 22:30:53.85	58.34	16.34	-30.7	-34.8	11.6	7.21e-04	0	43	0	307232768	21	5751
2026-01-08 22:30:56.87	58.94	16.48	-30.7	-34.8	11.6	8.73e-04	0	43	0	312475648	21	5739
2026-01-08 22:30:59.89	59.56	16.62	-30.7	-34.5	11.6	4.29e-04	0	43	0	317718528	21	5617
2026-01-08 22:31:02.90	60.18	16.76	-30.7	-34.7	11.7	4.23e-04	0	43	0	324009984	21	5699
2026-01-08 22:31:05.92	60.80	16.90	-30.5	-34.1	12.1	3.65e-04	0	43	0	329252864	21	5442
2026-01-08 22:31:08.93	61.43	17.03	-30.3	-33.5	12.6	1.08e-04	0	43	0	335544320	21	5183
2026-01-08 22:31:11.93	62.06	17.16	-30.4	-33.9	12.3	1.55e-04	0	43	0	340787200	21	5338
2026-01-08 22:31:14.94	62.70	17.29	-30.0	-32.7	13.1	7.93e-05	0	43	0	346030080	21	4893
2026-01-08 22:31:17.95	63.35	17.41	-30.0	-33.0	13.2	2.58e-04	0	43	0	352321536	20	5101
2026-01-08 22:31:20.97	64.00	17.53	-29.9	-33.4	13.4	3.69e-04	0	43	0	357564416	19	5348
2026-01-08 22:31:23.99	64.65	17.65	-29.9	-33.3	13.5	3.25e-04	0	43	0	363855872	19	5327
2026-01-08 22:31:27.01	65.32	17.77	-30.0	-33.2	13.2	1.29e-05	0	43	0	369098752	20	5159
2026-01-08 22:31:30.02	65.98	17.88	-30.1	-33.4	13.0	3.58e-05	0	43	0	374341632	20	5249
2026-01-08 22:31:33.03	66.65	17.99	-30.1	-33.5	13.0	2.34e-04	0	43	0	380633088	20	5302
2026-01-08 22:31:36.05	67.33	18.10	-30.0	-33.2	13.2	1.92e-04	0	43	0	385875968	20	5179
2026-01-08 22:31:39.06	68.01	18.20	-30.1	-33.3	13.1	1.46e-04	0	43	0	392167424	20	5226
2026-01-08 22:31:42.08	68.69	18.30	-30.0	-33.2	13.2	4.57e-05	0	43	0	397410304	20	5177
2026-01-08 22:31:45.10	69.38	18.40	-30.1	-33.3	13.0	3.96e-05	0	43	0	402653184	20	5230
2026-01-08 22:31:48.11	70.07	18.49	-30.2	-33.6	12.9	4.50e-05	0	43	0	408944640	20	5332
2026-01-08 22:31:51.13	70.77	18.58	-30.2	-33.5	12.9	5.03e-05	0	43	0	414187520	20	5313
2026-01-08 22:31:54.15	71.47	18.66	-30.1	-33.3	13.0	8.39e-05	0	43	0	419430400	20	5234
2026-01-08 22:31:57.16	72.18	18.74	-30.3	-33.8	12.7	5.49e-05	0	43	0	425721856	20	5430
2026-01-08 22:32:00.18	72.89	18.82	-29.9	-32.9	13.3	2.36e-05	0	43	0	430964736	20	5072
2026-01-08 22:32:03.19	73.60	18.89	-30.0	-33.0	13.3	2.44e-05	0	43	0	437256192	20	5098
2026-01-08 22:32:06.21	74.31	18.96	-29.9	-32.8	13.4	2.67e-05	0	43	0	442499072	20	5015
2026-01-08 22:32:09.22	75.03	19.02	-30.2	-33.8	12.8	6.33e-05	0	43	0	447741952	20	5397
2026-01-08 22:32:12.24	75.75	19.08	-30.2	-33.7	12.9	4.19e-05	0	43	0	454033408	20	5356
2026-01-08 22:32:15.25	76.48	19.14	-30.2	-33.6	12.9	7.32e-05	0	43	0	459276288	20	5340
2026-01-08 22:32:18.27	77.20	19.19	-30.3	-33.8	12.7	1.07e-04	0	43	0	465567744	20	5424
2026-01-08 22:32:21.29	77.93	19.24	-30.3	-33.8	12.8	6.71e-05	0	43	0	470810624	20	5405
2026-01-08 22:32:24.30	78.66	19.28	-30.2	-33.7	12.9	5.79e-05	0	43	0	476053504	20	5375
2026-01-08 22:32:27.31	79.39	19.32	-30.4	-34.2	12.5	1.20e-04	0	43	0	482344960	20	5574
2026-01-08 22:32:30.32	80.13	19.35	-30.3	-33.8	12.8	3.96e-05	0	43	0	487587840	20	5411
2026-01-08 22:32:33.35	80.87	19.38	-30.5	-34.1	12.2	2.51e-04	0	43	0	493879296	21	5437
2026-01-08 22:32:36.36	81.60	19.40	-30.3	-33.5	12.6	1.17e-04	0	43	0	499122176	21	5186
2026-01-08 22:32:39.36	82.34	19.42	-30.3	-33.4	12.8	5.95e-05	0	43	0	504365056	21	5130
2026-01-08 22:32:42.38	83.08	19.44	-30.4	-33.7	12.5	1.14e-04	0	43	0	510656512	21	5248
2026-01-08 22:32:45.39	83.82	19.45	-30.3	-33.5	12.7	1.25e-04	0	43	0	515899392	21	5189
2026-01-08 22:32:48.41	84.56	19.45	-30.3	-33.3	12.8	5.18e-05	0	43	0	522190848	21	5099
2026-01-08 22:32:51.43	85.30	19.45	-30.1	-33.0	13.0	3.20e-05	0	43	0	527433728	21	4986
2026-01-08 22:32:54.44	86.04	19.45	-30.4	-33.6	12.6	1.07e-04	0	43	0	532676608	21	5224
2026-01-08 22:32:57.45	86.78	19.44	-30.1	-32.7	13.2	3.20e-05	0	43	0	538968064	21	4905
2026-01-08 22:33:00.47	87.52	19.43	-30.2	-33.1	12.9	5.03e-05	0	43	0	544210944	21	5031
2026-01-08 22:33:03.49	88.26	19.41	-30.4	-33.9	12.4	1.64e-04	0	43	0	550502400	21	5333
2026-01-08 22:33:06.51	89.00	19.39	-30.3	-33.6	12.6	9.30e-05	0	43	0	555745280	21	5214
2026-01-08 22:33:09.53	89.74	19.36	-30.3	-33.4	12.7	9.00e-05	0	43	0	560988160	21	5149
2026-01-08 22:33:12.54	90.47	19.33	-29.9	-32.4	13.4	1.83e-05	0	43	0	567279616	21	4769
2026-01-08 22:33:15.56	91.21	19.29	-29.9	-32.9	13.3	1.52e-05	0	43	0	572522496	20	5054
2026-01-08 22:33:18.57	91.94	19.25	-30.2	-33.5	12.9	3.81e-05	0	43	0	578813952	20	5311
2026-01-08 22:33:21.59	92.67	19.21	-30.3	-34.1	12.5	1.20e-04	0	43	0	584056832	20	5532
2026-01-08 22:33:24.60	93.40	19.16	-29.9	-32.8	13.4	1.83e-05	0	43	0	589299712	20	5033
2026-01-08 22:33:27.62	94.12	19.10	-29.9	-32.8	13.4	8.30e-06	0	43	0	595591168	20	5026
2026-01-08 22:33:30.64	94.85	19.04	-29.3	-31.7	14.5	1.50e-06	0	43	0	600834048	19	4747
2026-01-08 22:33:33.67	95.57	18.98	-29.4	-32.0	14.3	1.50e-06	0	43	0	607125504	19	4830
2026-01-08 22:33:36.68	96.29	18.91	-29.7	-32.8	13.8	2.20e-06	0	43	0	612368384	19	5132
2026-01-08 22:33:39.68	97.00	18.84	-29.9	-33.4	13.4	1.60e-05	0	43	0	617611264	19	5371
2026-01-08 22:33:42.70	97.71	18.77	-30.4	-34.3	12.4	1.30e-04	0	43	0	623902720	20	5623
2026-01-08 22:33:45.70	98.42	18.69	-29.9	-32.8	13.3	1.75e-05	0	43	0	629145600	20	5050
2026-01-08 22:33:48.72	99.12	18.60	-30.0	-33.1	13.2	1.98e-05	0	43	0	634388480	20	5135
2026-01-08 22:33:51.73	99.82	18.52	-29.5	-31.7	14.1	3.00e-06	0	43	0	640679936	20	4638
2026-01-08 22:33:54.74	100.52	18.43	-29.5	-32.1	14.2	1.50e-06	0	43	0	645922816	19	4894
2026-01-08 22:33:57.75	101.21	18.33	-29.5	-32.1	14.2	0.00e+00	0	43	0	652214272	19	4903
2026-01-08 22:34:00.77	101.90	18.23	-29.4	-32.0	14.3	7.00e-07	0	43	0	657457152	19	4840
2026-01-08 22:34:03.79	102.58	18.13	-29.1	-31.1	14.8	0.00e+00	0	43	0	662700032	19	4558
2026-01-08 22:34:06.80	103.26	18.02	-28.8	-30.5	15.1	0.00e+00	0	43	0	668991488	19	4385
2026-01-08 22:34:09.82	103.93	17.92	-29.0	-31.4	14.9	0.00e+00	0	43	0	674234368	18	4747
2026-01-08 22:34:12.83	104.60	17.80	-28.7	-30.8	15.3	0.00e+00	0	43	0	680525824	18	4555
2026-01-08 22:34:15.85	105.27	17.69	-28.9	-31.2	15.0	1.52e-05	0	43	0	685768704	18	4701
2026-01-08 22:34:18.87	105.93	17.57	-29.1	-31.7	14.7	0.00e+00	0	43	0	691011584	18	4853
2026-01-08 22:34:21.89	106.58	17.45	-29.4	-32.4	14.3	7.00e-07	0	43	0	697303040	18	5101
2026-01-08 22:34:24.92	107.24	17.32	-29.6	-32.6	13.8	6.80e-06	0	43	0	702545920	19	5079
2026-01-08 22:34:27.94	107.88	17.19	-29.7	-32.7	13.7	6.10e-06	0	43	0	708837376	19	5112
2026-01-08 22:34:30.96	108.52	17.06	-29.6	-32.5	13.9	3.00e-06	0	43	0	714080256	19	5034
2026-01-08 22:34:33.97	109.16	16.93	-29.8	-33.1	13.5	7.60e-06	0	43	0	719323136	19	5244
2026-01-08 22:34:37.00	109.79	16.79	-29.7	-32.7	13.7	1.60e-05	0	43	0	725614592	19	5106
2026-01-08 22:34:40.02	110.41	16.66	-29.8	-33.0	13.5	4.11e-05	0	43	0	730857472	19	5216
2026-01-08 22:34:43.03	111.03	16.52	-29.9	-33.5	13.2	9.61e-05	0	43	0	737148928	19	5419
2026-01-08 22:34:46.05	111.64	16.37	-30.2	-33.8	12.6	9.15e-05	0	43	0	742391808	20	5422
2026-01-08 22:34:49.07	112.25	16.23	-30.1	-33.5	12.7	9.46e-05	0	43	0	747634688	20	5325
2026-01-08 22:34:52.09	112.85	16.08	-30.0	-33.2	12.9	6.48e-05	0	43	0	753926144	20	5207
2026-01-08 22:34:55.11	113.44	15.93	-30.0	-33.3	12.8	2.02e-04	0	43	0	759169024	20	5232
2026-01-08 22:34:58.12	114.03	15.78	-30.1	-33.4	12.7	2.33e-04	0	43	0	765460480	20	5311
2026-01-08 22:35:01.15	114.61	15.63	-30.2	-33.7	12.6	2.78e-04	0	43	0	770703360	20	5407
2026-01-08 22:35:04.17	115.19	15.47	-29.9	-32.9	13.0	9.61e-05	0	43	0	775946240	20	5091
2026-01-08 22:35:07.18	115.76	15.32	-29.7	-32.4	13.4	3.28e-05	0	43	0	782237696	20	4923
2026-01-08 22:35:10.20	116.33	15.16	-29.7	-32.4	13.4	4.27e-05	0	43	0	787480576	20	4916
2026-01-08 22:35:13.21	116.89	15.00	-29.8	-32.6	13.2	5.56e-05	0	43	0	793772032	20	5008
2026-01-08 22:35:16.23	117.44	14.84	-30.3	-34.1	12.2	1.79e-04	0	43	0	799014912	20	5599
2026-01-08 22:35:19.25	117.99	14.68	-30.7	-34.8	11.3	9.70e-04	0	43	0	804257792	21	5804
2026-01-08 22:35:22.27	118.53	14.51	-30.2	-33.4	12.3	2.84e-04	0	43	0	810549248	21	5196
2026-01-08 22:35:25.29	119.07	14.35	-30.0	-33.3	12.7	9.00e-05	0	43	0	815792128	20	5256
2026-01-08 22:35:28.32	119.61	14.18	-29.8	-33.3	13.1	3.96e-05	0	43	0	822083584	19	5378
2026-01-08 22:35:31.34	120.13	14.01	-29.8	-33.4	13.0	7.24e-05	0	43	0	827326464	19	5412
2026-01-08 22:35:34.36	120.65	13.84	-29.8	-33.3	13.1	3.50e-05	0	43	0	832569344	19	5375
2026-01-08 22:35:37.38	121.17	13.67	-29.8	-33.2	13.2	8.08e-05	0	43	0	838860800	19	5315
2026-01-08 22:35:40.39	121.67	13.50	-29.9	-33.6	12.9	4.65e-05	0	43	0	844103680	19	5494
2026-01-08 22:35:43.40	122.17	13.33	-29.6	-32.7	13.4	1.29e-05	0	43	0	849346560	19	5155
2026-01-08 22:35:46.42	122.67	13.16	-29.5	-32.3	13.7	9.90e-06	0	43	0	855638016	19	5000
2026-01-08 22:35:49.43	123.16	12.99	-29.6	-32.8	13.3	9.90e-06	0	43	0	860880896	19	5202
2026-01-08 22:35:52.46	123.65	12.82	-29.8	-33.2	13.1	3.28e-05	0	43	0	867172352	19	5339
2026-01-08 22:35:55.48	124.13	12.64	-29.8	-33.2	13.1	2.44e-05	0	43	0	872415232	19	5323
2026-01-08 22:35:58.50	124.60	12.47	-29.7	-33.0	13.2	5.26e-05	0	43	0	877658112	19	5263
2026-01-08 22:36:01.51	125.07	12.29	-30.1	-33.6	12.3	2.51e-04	0	43	0	883949568	20	5418
2026-01-08 22:36:04.53	125.54	12.12	-30.0	-33.5	12.4	1.31e-04	0	43	0	889192448	20	5367
2026-01-08 22:36:07.55	126.00	11.94	-30.0	-33.6	12.3	1.59e-04	0	43	0	895483904	20	5435
2026-01-08 22:36:10.56	126.45	11.77	-30.0	-33.8	12.5	2.41e-04	0	43	0	900726784	19	5622
2026-01-08 22:36:13.57	126.90	11.59	-30.3	-34.4	11.7	3.56e-04	0	43	0	905969664	20	5745
2026-01-08 22:36:16.58	127.34	11.41	-30.1	-33.7	12.2	3.24e-04	0	43	0	912261120	20	5448
2026-01-08 22:36:19.59	127.77	11.24	-29.8	-33.0	12.7	1.10e-04	0	43	0	917504000	20	5177
2026-01-08 22:36:22.61	128.21	11.06	-29.9	-33.3	12.4	1.11e-04	0	43	0	923795456	20	5318
2026-01-08 22:36:25.63	128.64	10.88	-30.2	-34.2	11.8	5.40e-04	0	43	0	929038336	20	5680
2026-01-08 22:36:28.65	129.06	10.70	-30.3	-34.5	11.6	8.03e-04	0	43	0	934281216	20	5814
2026-01-08 22:36:31.66	129.48	10.53	-30.1	-34.0	11.8	5.31e-04	0	43	0	940572672	20	5636
2026-01-08 22:36:34.68	129.89	10.35	-30.1	-33.9	11.9	4.20e-04	0	43	0	945815552	20	5577
2026-01-08 22:36:37.70	130.30	10.17	-30.3	-34.4	11.5	7.06e-04	0	43	0	952107008	20	5796
2026-01-08 22:36:40.72	130.70	9.99	-30.4	-34.8	11.2	1.23e-03	0	43	0	957349888	20	6003
2026-01-08 22:36:43.73	131.10	9.82	-30.4	-34.8	11.2	1.39e-03	0	43	0	962592768	20	5969
2026-01-08 22:36:46.75	131.49	9.64	-30.3	-34.7	11.2	1.48e-03	0	43	0	968884224	20	5974
2026-01-08 22:36:49.78	131.89	9.46	-30.5	-34.9	10.6	2.25e-03	0	43	0	974127104	21	5951
2026-01-08 22:36:52.79	132.27	9.29	-30.8	-36.1	9.7	9.23e-03	0	43	0	980418560	21	6603
2026-01-08 22:36:55.82	132.65	9.11	-30.7	-35.6	10.0	8.74e-03	0	43	0	985661440	21	6330
2026-01-08 22:36:58.84	133.03	8.93	-30.6	-35.2	10.4	5.01e-03	0	43	0	990904320	21	6100
2026-01-08 22:37:01.85	133.40	8.75	-30.3	-34.1	11.1	1.52e-03	0	43	0	997195776	21	5625
2026-01-08 22:37:04.86	133.77	8.58	-30.3	-34.4	10.9	1.88e-03	0	43	0	1002438656	21	5751
2026-01-08 22:37:07.89	134.13	8.40	-30.3	-34.8	10.9	2.24e-03	0	43	0	1008730112	20	6071
2026-01-08 22:37:10.90	134.49	8.23	-30.3	-35.0	10.7	2.66e-03	0	43	0	1013972992	20	6164
2026-01-08 22:37:13.92	134.84	8.05	-30.2	-34.7	10.8	2.83e-03	0	43	0	1019215872	20	6085
2026-01-08 22:37:16.94	135.19	7.88	-30.3	-35.2	10.4	4.03e-03	0	43	0	1025507328	20	6337
2026-01-08 22:37:19.94	135.54	7.70	-30.5	-35.3	10.1	7.09e-03	0	43	0	1030750208	21	6223
2026-01-08 22:37:22.96	135.88	7.53	-30.6	-35.6	9.8	1.03e-02	0	43	0	1037041664	21	6401
2026-01-08 22:37:25.98	136.22	7.35	-30.6	-35.7	9.6	9.23e-03	0	43	0	1042284544	21	6480
2026-01-08 22:37:29.01	136.56	7.18	-30.5	-35.4	9.7	8.97e-03	0	43	0	1047527424	21	6379
2026-01-08 22:37:32.03	136.89	7.00	-32.6	-46.8	3.8	1.49e+00	0	43	104	1052770304	25	18464

#Closed at: 2026-01-08 22:37:33
#Recorded file [1052 MB]: D:/data/31010_260109_012809.dat