passes_logs/2026/01/08/R2M6_AANII_01/R2M6_AANII_01__20260108_082031_SUOMI_NPP_rec.log

#Pass ID: 20260108_082031_SUOMI NPP
#Satellite: SUOMI NPP
#Configuration: NPP
#almurnet v.1.7.20240730
#Start time: 2026-01-08 08:20:31

#Version: 2.2.20231116
#Station: R2M6_AANII_01
#Location: 30.233357 lon 59.946436 lat
#TLE: 1 37849U 11061A   26005.94084933  .00000134  00000+0  84554-4 0  9990
#TLE: 2 37849  98.7803 308.0679 0002567  79.1029 281.0436 14.19522657735426

#Time	Az	El	Level	Level2	SNR	BER	BlckErr	Temp	State	Recorded	gain1	gain2
2026-01-08 08:20:31.74	96.61	7.02	-30.8	-42.8	3.7	1.50e+00	0	40	0	0	22	14381
2026-01-08 08:20:34.75	96.32	7.21	-30.6	-42.4	3.8	1.49e+00	0	40	104	0	22	14005
2026-01-08 08:20:37.77	96.02	7.40	-30.5	-42.2	3.8	1.49e+00	0	40	104	0	22	13862
2026-01-08 08:20:40.79	95.72	7.59	-30.6	-42.4	3.8	1.49e+00	0	41	104	0	22	14017
2026-01-08 08:20:43.83	95.41	7.78	-30.7	-42.5	3.8	1.49e+00	0	41	104	0	22	14108
2026-01-08 08:20:46.85	95.10	7.97	-30.8	-42.8	3.8	1.49e+00	0	41	104	0	22	14346
2026-01-08 08:20:49.88	94.78	8.16	-30.9	-43.0	3.8	1.49e+00	0	41	104	0	22	14475
2026-01-08 08:20:52.90	94.47	8.35	-31.0	-43.2	3.8	1.49e+00	0	41	104	0	22	14619
2026-01-08 08:20:55.92	94.14	8.54	-31.1	-43.0	3.8	1.49e+00	0	41	104	0	22	14177
2026-01-08 08:20:58.94	93.81	8.74	-31.3	-43.1	3.8	1.49e+00	0	41	104	0	22	14108
2026-01-08 08:21:01.96	93.48	8.93	-31.3	-42.1	3.8	1.49e+00	0	41	104	0	22	12393
2026-01-08 08:21:04.99	93.14	9.13	-31.4	-40.5	4.3	1.34e+00	0	41	104	0	22	10214
2026-01-08 08:21:08.00	92.80	9.32	-31.3	-36.0	7.1	1.90e-01	0	42	0	1048576	23	6215
2026-01-08 08:21:11.02	92.46	9.52	-31.8	-37.9	6.2	3.39e-01	0	41	0	6291456	23	7249
2026-01-08 08:21:14.02	92.11	9.71	-31.6	-36.5	7.3	1.48e-01	0	42	0	12582912	23	6318
2026-01-08 08:21:17.04	91.75	9.91	-31.5	-35.9	8.0	5.88e-02	0	42	0	17825792	23	5952
2026-01-08 08:21:20.05	91.39	10.10	-31.5	-35.9	8.1	8.27e-02	0	42	0	23068672	23	5931
2026-01-08 08:21:23.06	91.03	10.30	-30.9	-33.3	10.2	8.21e-03	0	42	0	29360128	23	4723
2026-01-08 08:21:26.08	90.66	10.50	-30.4	-31.9	11.6	6.42e-04	0	42	0	34603008	22	4297
2026-01-08 08:21:29.10	90.28	10.70	-30.5	-32.4	11.3	1.11e-03	0	42	0	40894464	22	4480
2026-01-08 08:21:32.12	89.90	10.89	-30.6	-32.7	11.2	1.52e-03	0	42	0	46137344	22	4555
2026-01-08 08:21:35.14	89.52	11.09	-30.6	-32.6	11.3	1.20e-03	0	42	0	51380224	22	4510
2026-01-08 08:21:38.15	89.12	11.29	-30.8	-33.1	10.8	2.09e-03	0	42	0	57671680	22	4716
2026-01-08 08:21:41.17	88.73	11.49	-30.9	-33.6	10.5	4.17e-03	0	42	0	62914560	22	4901
2026-01-08 08:21:44.19	88.33	11.69	-30.8	-33.1	10.9	3.31e-03	0	42	0	68157440	22	4716
2026-01-08 08:21:47.21	87.92	11.89	-30.7	-32.7	11.3	1.09e-03	0	42	0	74448896	22	4539
2026-01-08 08:21:50.22	87.50	12.09	-30.7	-32.8	11.3	9.59e-04	0	42	0	79691776	22	4575
2026-01-08 08:21:53.23	87.09	12.29	-30.6	-32.5	11.5	7.93e-04	0	42	0	85983232	22	4488
2026-01-08 08:21:56.24	86.66	12.49	-30.7	-32.9	11.1	1.79e-03	0	42	0	91226112	22	4658
2026-01-08 08:21:59.26	86.23	12.69	-30.6	-32.6	11.3	1.04e-03	0	42	0	96468992	22	4545
2026-01-08 08:22:02.28	85.79	12.89	-30.7	-32.9	11.2	1.06e-03	0	42	0	102760448	22	4656
2026-01-08 08:22:05.30	85.35	13.09	-30.4	-32.0	11.8	6.90e-04	0	42	0	108003328	22	4333
2026-01-08 08:22:08.31	84.90	13.29	-30.6	-32.9	11.2	1.39e-03	0	42	0	114294784	22	4649
2026-01-08 08:22:11.32	84.45	13.49	-30.6	-32.6	11.4	1.15e-03	0	43	0	119537664	22	4550
2026-01-08 08:22:14.34	83.98	13.69	-30.6	-32.6	11.4	8.27e-04	0	42	0	124780544	22	4541
2026-01-08 08:22:17.35	83.52	13.89	-30.8	-33.3	11.0	1.93e-03	0	42	0	131072000	22	4794
2026-01-08 08:22:20.37	83.04	14.09	-30.8	-33.4	10.9	1.83e-03	0	42	0	136314880	22	4824
2026-01-08 08:22:23.39	82.56	14.29	-30.9	-33.5	10.7	3.09e-03	0	42	0	142606336	22	4887
2026-01-08 08:22:26.40	82.08	14.48	-30.6	-32.8	11.3	1.21e-03	0	43	0	147849216	22	4601
2026-01-08 08:22:29.41	81.58	14.68	-30.6	-32.5	11.6	7.19e-04	0	42	0	153092096	22	4486
2026-01-08 08:22:32.42	81.08	14.88	-30.7	-32.9	11.3	9.72e-04	0	42	0	159383552	22	4649
2026-01-08 08:22:35.44	80.57	15.08	-30.7	-33.0	11.2	1.17e-03	0	42	0	164626432	22	4690
2026-01-08 08:22:38.45	80.06	15.27	-30.9	-33.6	10.8	1.94e-03	0	43	0	170917888	22	4910
2026-01-08 08:22:41.48	79.54	15.47	-31.2	-34.7	10.0	5.98e-03	0	43	0	176160768	22	5343
2026-01-08 08:22:44.49	79.01	15.66	-30.9	-33.4	10.9	2.21e-03	0	43	0	181403648	22	4831
2026-01-08 08:22:47.51	78.48	15.86	-30.7	-32.8	11.6	8.02e-04	0	42	0	187695104	22	4594
2026-01-08 08:22:50.52	77.93	16.05	-30.8	-33.3	11.1	1.84e-03	0	43	0	192937984	22	4774
2026-01-08 08:22:53.54	77.39	16.24	-30.1	-31.6	12.6	1.69e-04	0	43	0	199229440	21	4290
2026-01-08 08:22:56.56	76.83	16.43	-30.1	-31.7	12.5	9.46e-05	0	43	0	204472320	21	4319
2026-01-08 08:22:59.59	76.26	16.62	-30.0	-31.2	12.8	1.05e-04	0	43	0	209715200	21	4167
2026-01-08 08:23:02.59	75.70	16.81	-29.9	-31.5	12.9	3.58e-05	0	43	0	216006656	20	4354
2026-01-08 08:23:05.62	75.11	16.99	-29.7	-31.0	13.4	7.60e-06	0	42	0	221249536	20	4167
2026-01-08 08:23:08.62	74.53	17.18	-29.6	-30.6	13.6	2.20e-06	0	42	0	226492416	20	4045
2026-01-08 08:23:11.64	73.94	17.36	-29.5	-30.5	13.7	3.80e-06	0	43	0	232783872	20	4011
2026-01-08 08:23:14.65	73.34	17.54	-29.4	-30.3	13.8	5.30e-06	0	43	0	238026752	20	3969
2026-01-08 08:23:17.67	72.74	17.72	-29.6	-30.6	13.6	6.80e-06	0	43	0	244318208	20	4063
2026-01-08 08:23:20.69	72.12	17.89	-29.5	-30.5	13.7	5.30e-06	0	43	0	249561088	20	4019
2026-01-08 08:23:23.71	71.50	18.07	-29.6	-30.8	13.5	6.10e-06	0	43	0	254803968	20	4097
2026-01-08 08:23:26.71	70.88	18.24	-29.6	-30.7	13.6	5.30e-06	0	43	0	261095424	20	4099
2026-01-08 08:23:29.73	70.24	18.41	-29.5	-30.5	13.7	9.10e-06	0	43	0	266338304	20	4021
2026-01-08 08:23:32.74	69.60	18.58	-29.6	-30.6	13.7	8.30e-06	0	43	0	272629760	20	4050
2026-01-08 08:23:35.76	68.95	18.74	-29.7	-30.9	13.5	1.06e-05	0	43	0	277872640	20	4128
2026-01-08 08:23:38.78	68.29	18.90	-29.6	-30.5	13.8	1.06e-05	0	43	0	283115520	20	4009
2026-01-08 08:23:41.80	67.63	19.06	-29.2	-30.0	14.5	7.00e-07	0	43	0	289406976	19	3944
2026-01-08 08:23:44.82	66.96	19.22	-28.9	-29.3	14.9	0.00e+00	0	43	0	294649856	19	3761
2026-01-08 08:23:47.83	66.28	19.37	-28.8	-29.5	15.1	0.00e+00	0	43	0	300941312	18	3894
2026-01-08 08:23:50.85	65.60	19.52	-29.2	-30.3	14.7	7.00e-07	0	43	0	306184192	18	4122
2026-01-08 08:23:53.87	64.90	19.67	-29.2	-30.4	14.6	0.00e+00	0	43	0	311427072	18	4129
2026-01-08 08:23:56.90	64.20	19.81	-29.5	-30.7	14.1	2.20e-06	0	43	0	317718528	19	4140
2026-01-08 08:23:59.92	63.50	19.95	-29.4	-30.4	14.3	2.20e-06	0	43	0	322961408	19	4041
2026-01-08 08:24:02.94	62.79	20.08	-29.0	-29.5	14.8	7.00e-07	0	43	0	329252864	19	3813
2026-01-08 08:24:05.96	62.07	20.21	-28.8	-28.9	15.2	0.00e+00	0	43	0	334495744	19	3652
2026-01-08 08:24:08.98	61.35	20.34	-28.8	-29.4	15.3	0.00e+00	0	43	0	339738624	18	3842
2026-01-08 08:24:12.00	60.62	20.46	-28.7	-29.1	15.5	0.00e+00	0	43	0	346030080	18	3764
2026-01-08 08:24:15.00	59.89	20.58	-28.7	-29.1	15.4	0.00e+00	0	43	0	351272960	18	3779
2026-01-08 08:24:18.01	59.15	20.69	-29.1	-30.1	14.9	0.00e+00	0	43	0	357564416	18	4038
2026-01-08 08:24:21.02	58.41	20.80	-29.7	-31.1	14.0	3.80e-06	0	43	0	362807296	19	4252
2026-01-08 08:24:24.03	57.66	20.91	-29.8	-31.5	13.7	3.00e-06	0	43	0	368050176	19	4366
2026-01-08 08:24:27.04	56.91	21.01	-30.0	-31.6	13.2	2.13e-05	0	43	0	374341632	20	4319
2026-01-08 08:24:30.07	56.14	21.10	-30.0	-31.6	13.2	3.20e-05	0	43	0	379584512	20	4349
2026-01-08 08:24:33.08	55.38	21.19	-29.7	-30.8	13.7	1.83e-05	0	43	0	385875968	20	4069
2026-01-08 08:24:36.10	54.61	21.28	-29.6	-30.5	13.8	3.80e-06	0	43	0	391118848	20	4011
2026-01-08 08:24:39.12	53.84	21.36	-30.0	-31.6	13.2	2.13e-05	0	43	0	396361728	20	4343
2026-01-08 08:24:42.14	53.06	21.43	-30.1	-31.9	13.0	3.66e-05	0	43	0	402653184	20	4438
2026-01-08 08:24:45.14	52.28	21.50	-30.1	-31.8	13.1	2.67e-05	0	43	0	407896064	20	4385
2026-01-08 08:24:48.15	51.50	21.56	-30.6	-32.9	12.0	2.16e-04	0	43	0	414187520	21	4668
2026-01-08 08:24:51.17	50.72	21.62	-30.6	-32.8	12.0	1.82e-04	0	43	0	419430400	21	4651
2026-01-08 08:24:54.19	49.93	21.67	-30.3	-32.1	12.6	1.06e-04	0	43	0	424673280	21	4387
2026-01-08 08:24:57.20	49.14	21.72	-30.6	-32.8	12.1	1.74e-04	0	43	0	430964736	21	4636
2026-01-08 08:25:00.21	48.34	21.76	-31.1	-33.9	11.0	1.25e-03	0	43	0	436207616	22	4956
2026-01-08 08:25:03.23	47.55	21.79	-30.7	-32.9	11.6	7.64e-04	0	43	0	441450496	22	4608
2026-01-08 08:25:06.25	46.75	21.82	-30.5	-32.0	12.3	2.67e-04	0	43	0	447741952	22	4299
2026-01-08 08:25:09.27	45.95	21.84	-30.6	-32.2	12.1	3.67e-04	0	43	0	452984832	22	4341
2026-01-08 08:25:12.28	45.15	21.86	-29.8	-31.1	13.5	4.50e-06	0	43	0	459276288	20	4172
2026-01-08 08:25:15.29	44.35	21.87	-29.7	-30.7	13.7	6.80e-06	0	43	0	464519168	20	4076
2026-01-08 08:25:18.31	43.55	21.88	-29.6	-30.7	13.8	5.30e-06	0	43	0	469762048	20	4047
2026-01-08 08:25:21.33	42.75	21.88	-30.0	-31.6	13.1	2.74e-05	0	43	0	476053504	20	4327
2026-01-08 08:25:24.35	41.95	21.87	-29.9	-31.3	13.3	1.44e-05	0	43	0	481296384	20	4246
2026-01-08 08:25:27.37	41.15	21.86	-29.8	-31.0	13.5	8.30e-06	0	43	0	487587840	20	4144
2026-01-08 08:25:30.38	40.35	21.84	-29.6	-30.4	13.9	1.50e-06	0	43	0	492830720	20	3966
2026-01-08 08:25:33.40	39.55	21.81	-29.7	-30.7	13.7	6.10e-06	0	43	0	498073600	20	4047
2026-01-08 08:25:36.42	38.75	21.78	-29.0	-29.4	14.9	0.00e+00	0	43	0	504365056	19	3776
2026-01-08 08:25:39.45	37.95	21.74	-29.3	-30.1	14.5	0.00e+00	0	43	0	509607936	19	3943
2026-01-08 08:25:42.46	37.16	21.70	-29.1	-29.6	14.8	0.00e+00	0	43	0	515899392	19	3824
2026-01-08 08:25:45.48	36.37	21.65	-29.2	-30.0	14.6	7.00e-07	0	43	0	521142272	19	3935
2026-01-08 08:25:48.49	35.59	21.60	-29.2	-30.0	14.6	0.00e+00	0	43	0	526385152	19	3921
2026-01-08 08:25:51.52	34.80	21.54	-29.3	-30.1	14.6	0.00e+00	0	43	0	532676608	19	3957
2026-01-08 08:25:54.54	34.02	21.48	-29.5	-30.6	14.2	7.00e-07	0	43	0	537919488	19	4093
2026-01-08 08:25:57.56	33.24	21.41	-28.7	-29.1	15.4	0.00e+00	0	43	0	544210944	18	3773
2026-01-08 08:26:00.57	32.46	21.33	-28.5	-28.7	15.7	0.00e+00	0	43	0	549453824	18	3676
2026-01-08 08:26:03.59	31.69	21.25	-28.8	-29.3	15.3	0.00e+00	0	43	0	554696704	18	3821
2026-01-08 08:26:06.61	30.93	21.16	-29.3	-30.6	14.5	7.00e-07	0	43	0	560988160	18	4202
2026-01-08 08:26:09.63	30.16	21.07	-29.2	-30.4	14.6	7.00e-07	0	43	0	566231040	18	4126
2026-01-08 08:26:12.64	29.41	20.98	-29.2	-30.3	14.7	0.00e+00	0	43	0	572522496	18	4115
2026-01-08 08:26:15.66	28.66	20.88	-29.8	-31.5	13.6	3.80e-06	0	43	0	577765376	19	4385
2026-01-08 08:26:18.68	27.91	20.77	-30.1	-31.8	12.9	6.02e-05	0	43	0	583008256	20	4402
2026-01-08 08:26:21.69	27.17	20.66	-30.3	-32.6	12.5	8.54e-05	0	43	0	589299712	20	4657
2026-01-08 08:26:24.71	26.43	20.54	-30.3	-32.4	12.6	1.07e-04	0	43	0	594542592	20	4598
2026-01-08 08:26:27.73	25.70	20.43	-29.9	-31.3	13.3	1.14e-05	0	43	0	600834048	20	4225
2026-01-08 08:26:30.74	24.98	20.30	-30.0	-31.7	13.0	4.34e-05	0	43	0	606076928	20	4368
2026-01-08 08:26:33.76	24.26	20.17	-29.8	-31.2	13.4	1.98e-05	0	43	0	611319808	20	4197
2026-01-08 08:26:36.78	23.54	20.04	-29.8	-31.0	13.4	6.80e-06	0	43	0	617611264	20	4129
2026-01-08 08:26:39.80	22.84	19.91	-29.4	-30.6	14.1	1.50e-06	0	43	0	622854144	19	4093
2026-01-08 08:26:42.81	22.14	19.77	-29.7	-31.2	13.7	1.50e-06	0	43	0	629145600	19	4274
2026-01-08 08:26:45.83	21.45	19.62	-29.9	-31.8	13.3	9.10e-06	0	43	0	634388480	19	4484
2026-01-08 08:26:48.86	20.76	19.48	-30.8	-33.5	11.3	6.00e-04	0	43	0	639631360	21	4916
2026-01-08 08:26:51.88	20.08	19.33	-30.3	-32.1	12.3	2.59e-04	0	43	0	645922816	21	4407
2026-01-08 08:26:54.90	19.40	19.17	-30.5	-32.8	11.8	4.45e-04	0	43	0	651165696	21	4656
2026-01-08 08:26:57.92	18.74	19.02	-31.2	-34.5	10.1	6.32e-03	0	43	0	657457152	22	5263
2026-01-08 08:27:00.95	18.07	18.86	-30.9	-33.6	10.9	3.54e-03	0	43	0	662700032	22	4858
2026-01-08 08:27:03.97	17.42	18.69	-30.5	-32.1	12.0	4.85e-04	0	43	0	667942912	22	4326
2026-01-08 08:27:06.99	16.77	18.53	-30.1	-31.4	12.7	1.47e-04	0	43	0	674234368	21	4194
2026-01-08 08:27:10.01	16.14	18.36	-29.6	-30.6	13.6	6.80e-06	0	43	0	679477248	20	4044
2026-01-08 08:27:13.03	15.51	18.19	-29.7	-30.9	13.4	7.60e-06	0	43	0	685768704	20	4114
2026-01-08 08:27:16.05	14.88	18.02	-29.6	-30.5	13.6	1.29e-05	0	43	0	691011584	20	3996
2026-01-08 08:27:19.07	14.26	17.84	-29.0	-29.5	14.6	0.00e+00	0	43	0	696254464	19	3810
2026-01-08 08:27:22.09	13.65	17.67	-29.6	-31.3	13.5	2.20e-06	0	43	0	702545920	19	4331
2026-01-08 08:27:25.12	13.05	17.49	-30.3	-32.6	12.2	2.16e-04	0	43	0	707788800	20	4684
2026-01-08 08:27:28.14	12.46	17.31	-30.5	-32.8	11.6	5.45e-04	0	43	0	714080256	21	4698
2026-01-08 08:27:31.14	11.87	17.12	-30.3	-32.2	12.1	3.00e-04	0	43	0	719323136	21	4457
2026-01-08 08:27:34.15	11.29	16.94	-29.6	-30.7	13.4	1.29e-05	0	43	0	724566016	20	4072
2026-01-08 08:27:37.17	10.72	16.75	-29.4	-30.1	13.8	6.10e-06	0	43	0	730857472	20	3901
2026-01-08 08:27:40.18	10.15	16.57	-29.4	-30.4	14.0	3.00e-06	0	43	0	736100352	19	4083
2026-01-08 08:27:43.21	9.59	16.38	-30.0	-32.1	12.8	3.35e-05	0	43	0	742391808	19	4618
2026-01-08 08:27:46.22	9.04	16.19	-30.0	-31.8	12.7	6.48e-05	0	43	0	747634688	20	4417
2026-01-08 08:27:49.25	8.50	16.00	-29.8	-31.3	12.9	4.27e-05	0	43	0	752877568	20	4277
2026-01-08 08:27:52.27	7.96	15.80	-30.0	-31.8	12.7	7.62e-05	0	43	0	759169024	20	4437
2026-01-08 08:27:55.27	7.43	15.61	-30.1	-32.1	12.5	1.24e-04	0	43	0	764411904	20	4516
2026-01-08 08:27:58.29	6.91	15.42	-30.1	-32.1	12.4	1.72e-04	0	43	0	770703360	20	4547
2026-01-08 08:28:01.30	6.39	15.22	-29.9	-31.5	12.8	6.63e-05	0	43	0	775946240	20	4315
2026-01-08 08:28:04.33	5.88	15.03	-29.9	-31.5	12.8	6.25e-05	0	43	0	781189120	20	4335
2026-01-08 08:28:07.34	5.38	14.83	-29.8	-31.2	13.0	2.82e-05	0	43	0	787480576	20	4234
2026-01-08 08:28:10.36	4.88	14.63	-29.4	-30.0	13.8	5.30e-06	0	43	0	792723456	20	3876
2026-01-08 08:28:13.38	4.39	14.44	-29.1	-29.6	14.5	7.00e-07	0	43	0	797966336	19	3849
2026-01-08 08:28:16.40	3.91	14.24	-29.1	-29.9	14.3	7.00e-07	0	43	0	804257792	19	3914
2026-01-08 08:28:19.42	3.43	14.04	-29.7	-31.4	13.3	6.80e-06	0	43	0	809500672	19	4379
2026-01-08 08:28:22.44	2.96	13.84	-29.7	-31.4	13.3	1.22e-05	0	43	0	815792128	19	4360
2026-01-08 08:28:25.46	2.50	13.64	-29.7	-31.3	13.3	2.67e-05	0	43	0	821035008	19	4352
2026-01-08 08:28:28.47	2.04	13.44	-29.7	-31.3	13.4	9.90e-06	0	43	0	826277888	19	4323
2026-01-08 08:28:31.49	1.59	13.24	-29.1	-29.7	14.3	3.00e-06	0	43	0	832569344	19	3872
2026-01-08 08:28:34.50	1.15	13.04	-29.5	-30.9	13.5	7.60e-06	0	43	0	837812224	19	4221
2026-01-08 08:28:37.52	0.71	12.84	-29.8	-31.8	13.0	4.04e-05	0	43	0	844103680	19	4501
2026-01-08 08:28:40.54	0.28	12.64	-29.9	-31.4	12.7	5.64e-05	0	43	0	849346560	20	4313
2026-01-08 08:28:43.56	359.85	12.44	-29.8	-31.3	12.8	9.99e-05	0	43	0	854589440	20	4269
2026-01-08 08:28:46.58	359.43	12.25	-29.3	-29.8	13.7	6.80e-06	0	43	0	860880896	20	3841
2026-01-08 08:28:49.60	359.01	12.05	-29.0	-29.6	14.3	7.00e-07	0	43	0	866123776	19	3850
2026-01-08 08:28:52.62	358.61	11.85	-29.1	-29.7	14.2	7.00e-07	0	43	0	872415232	19	3884
2026-01-08 08:28:55.64	358.20	11.65	-29.6	-31.2	13.3	2.13e-05	0	43	0	877658112	19	4332
2026-01-08 08:28:58.66	357.80	11.45	-30.2	-32.4	12.0	1.49e-04	0	43	0	882900992	20	4649
2026-01-08 08:29:01.68	357.41	11.25	-29.9	-31.5	12.6	1.74e-04	0	43	0	889192448	20	4350
2026-01-08 08:29:04.70	357.02	11.05	-29.6	-30.8	13.1	4.88e-05	0	43	0	894435328	20	4131
2026-01-08 08:29:07.72	356.64	10.85	-29.7	-31.1	12.9	3.05e-05	0	43	0	900726784	20	4219
2026-01-08 08:29:10.74	356.27	10.66	-29.8	-31.2	12.8	5.72e-05	0	43	0	905969664	20	4258
2026-01-08 08:29:13.76	355.89	10.46	-29.7	-31.0	12.9	3.43e-05	0	43	0	911212544	20	4183
2026-01-08 08:29:16.77	355.53	10.26	-29.8	-31.4	12.6	1.10e-04	0	43	0	917504000	20	4318
2026-01-08 08:29:19.79	355.17	10.07	-30.1	-32.3	12.0	1.84e-04	0	43	0	922746880	20	4630
2026-01-08 08:29:22.81	354.81	9.87	-30.2	-32.5	11.9	6.06e-04	0	43	0	929038336	20	4694
2026-01-08 08:29:25.82	354.46	9.67	-30.2	-32.5	11.8	4.83e-04	0	43	0	934281216	20	4695
2026-01-08 08:29:28.83	354.12	9.48	-30.2	-32.7	11.6	4.65e-04	0	43	0	939524096	20	4767
2026-01-08 08:29:31.84	353.77	9.29	-30.4	-33.2	11.3	1.07e-03	0	43	0	945815552	20	4963
2026-01-08 08:29:34.86	353.44	9.09	-30.7	-33.6	10.5	3.70e-03	0	43	0	951058432	21	5069
2026-01-08 08:29:37.88	353.10	8.90	-30.7	-33.6	10.5	3.72e-03	0	43	0	957349888	21	5072
2026-01-08 08:29:40.89	352.78	8.71	-30.4	-32.9	11.0	1.65e-03	0	43	0	962592768	21	4777
2026-01-08 08:29:43.91	352.45	8.51	-30.3	-32.6	11.3	1.46e-03	0	43	0	967835648	21	4647
2026-01-08 08:29:46.93	352.13	8.32	-30.3	-32.4	11.4	7.05e-04	0	43	0	974127104	21	4604
2026-01-08 08:29:49.95	351.82	8.13	-30.6	-33.4	10.6	1.70e-03	0	43	0	979369984	21	4964
2026-01-08 08:29:52.96	351.51	7.94	-30.4	-32.8	11.1	1.90e-03	0	43	0	985661440	21	4743
2026-01-08 08:29:55.97	351.20	7.75	-30.6	-33.3	10.6	2.62e-03	0	43	0	990904320	21	4952
2026-01-08 08:29:58.99	350.90	7.56	-30.5	-33.4	10.5	3.76e-03	0	43	0	996147200	21	4980
2026-01-08 08:30:02.01	350.60	7.37	-30.4	-32.8	11.0	1.80e-03	0	43	0	1002438656	21	4741
2026-01-08 08:30:05.03	350.31	7.19	-30.4	-32.8	10.9	2.05e-03	0	43	0	1007681536	21	4779
2026-01-08 08:30:08.05	350.02	7.00	-32.9	-43.9	3.8	1.49e+00	0	43	104	1012924416	25	12835

#Closed at: 2026-01-08 08:30:08
#Recorded file [1012 MB]: D:/data/31010_260108_112107.dat