passes_logs/2026/01/08/R2M6_AANII_01/R2M6_AANII_01__20260108_122534_AQUA_rec.log

#Pass ID: 20260108_122534_AQUA
#Satellite: AQUA
#Configuration: AQUA
#almurnet v.1.7.20240730
#Start time: 2026-01-08 12:25:34

#Version: 2.2.20231116
#Station: R2M6_AANII_01
#Location: 30.233357 lon 59.946436 lat
#TLE: 1 27424U 02022A   26004.96787593  .00001598  00000+0  32997-3 0  9996
#TLE: 2 27424  98.4069 331.2279 0002002  90.2377   0.6092 14.61798176259425

#Time	Az	El	Level	Level2	SNR	BER	BlckErr	Temp	State	Recorded	gain1	gain2
2026-01-08 12:25:34.32	173.35	7.01	-30.5	-35.6	5.2	7.09e-01	0	40	0	0	22	6444
2026-01-08 12:25:37.33	173.44	7.26	-31.2	-36.8	14.5	6.08e-01	0	41	0	1572864	23	6835
2026-01-08 12:25:40.35	173.54	7.51	-30.8	-35.1	15.7	6.06e-01	0	41	0	7340032	23	5916
2026-01-08 12:25:43.37	173.63	7.76	-30.1	-33.5	17.2	6.07e-01	0	41	0	12582912	22	5324
2026-01-08 12:25:46.38	173.73	8.01	-30.1	-33.3	17.4	6.07e-01	0	41	0	18350080	22	5198
2026-01-08 12:25:49.40	173.83	8.27	-30.1	-33.2	17.5	6.06e-01	0	41	0	24117248	22	5170
2026-01-08 12:25:52.42	173.93	8.53	-30.1	-33.2	17.5	6.07e-01	0	41	0	29884416	22	5186
2026-01-08 12:25:55.44	174.04	8.79	-29.9	-32.8	17.8	6.06e-01	0	41	0	35651584	22	5005
2026-01-08 12:25:58.46	174.14	9.05	-30.0	-33.1	17.7	6.06e-01	0	41	0	40894464	22	5117
2026-01-08 12:26:01.47	174.25	9.32	-29.9	-32.7	17.9	6.04e-01	0	41	0	46661632	22	4972
2026-01-08 12:26:04.48	174.36	9.59	-29.9	-32.7	18.0	6.08e-01	0	41	0	52428800	22	4966
2026-01-08 12:26:07.49	174.47	9.87	-29.9	-32.7	18.0	6.08e-01	0	41	0	58195968	22	4969
2026-01-08 12:26:10.51	174.59	10.15	-29.9	-33.2	18.0	6.05e-01	0	41	0	63438848	21	5240
2026-01-08 12:26:13.51	174.70	10.43	-29.9	-33.2	18.0	6.08e-01	0	42	0	69206016	21	5232
2026-01-08 12:26:16.52	174.82	10.71	-30.0	-33.4	17.9	6.06e-01	0	42	0	74973184	21	5339
2026-01-08 12:26:19.54	174.94	11.00	-29.9	-33.0	18.2	6.05e-01	0	42	0	80740352	21	5152
2026-01-08 12:26:22.56	175.06	11.29	-29.9	-33.0	18.2	6.05e-01	0	42	0	86507520	21	5158
2026-01-08 12:26:25.58	175.19	11.59	-29.6	-32.2	18.7	6.07e-01	0	42	0	91750400	21	4875
2026-01-08 12:26:28.58	175.32	11.89	-29.6	-32.2	18.7	6.06e-01	0	42	0	97517568	21	4883
2026-01-08 12:26:31.60	175.45	12.19	-29.6	-32.2	18.7	6.06e-01	0	42	0	103284736	21	4877
2026-01-08 12:26:34.62	175.58	12.50	-29.6	-32.1	18.8	6.06e-01	0	42	0	109051904	21	4839
2026-01-08 12:26:37.62	175.72	12.81	-29.6	-32.2	18.8	6.07e-01	0	42	0	114819072	21	4851
2026-01-08 12:26:40.64	175.86	13.13	-29.6	-32.2	18.9	6.07e-01	0	42	0	120061952	21	4847
2026-01-08 12:26:43.65	176.00	13.45	-29.6	-32.3	18.8	6.06e-01	0	42	0	125829120	21	4888
2026-01-08 12:26:46.67	176.14	13.78	-29.4	-31.8	19.1	6.05e-01	0	42	0	131596288	21	4705
2026-01-08 12:26:49.69	176.29	14.11	-29.4	-32.1	19.2	6.07e-01	0	42	0	137363456	20	4945
2026-01-08 12:26:52.71	176.44	14.45	-29.3	-32.0	19.3	6.08e-01	0	42	0	142606336	20	4897
2026-01-08 12:26:55.71	176.60	14.79	-29.3	-32.0	19.3	6.07e-01	0	42	0	148373504	20	4887
2026-01-08 12:26:58.73	176.76	15.13	-29.5	-32.4	19.1	6.06e-01	0	42	0	154140672	20	5020
2026-01-08 12:27:01.74	176.92	15.48	-29.6	-32.6	19.0	6.06e-01	0	42	0	159907840	20	5099
2026-01-08 12:27:04.76	177.09	15.84	-29.6	-32.7	18.9	6.07e-01	0	42	0	165150720	20	5135
2026-01-08 12:27:07.78	177.26	16.21	-29.6	-32.6	19.0	6.08e-01	0	42	0	170917888	20	5103
2026-01-08 12:27:10.79	177.43	16.57	-29.4	-32.2	19.3	6.07e-01	0	42	0	176685056	20	4950
2026-01-08 12:27:13.80	177.61	16.95	-29.3	-32.0	19.4	6.05e-01	0	42	0	182452224	20	4898
2026-01-08 12:27:16.82	177.79	17.33	-29.5	-32.4	19.2	6.08e-01	0	42	0	188219392	20	5017
2026-01-08 12:27:19.84	177.98	17.72	-29.4	-32.1	19.4	6.04e-01	0	42	0	193462272	20	4928
2026-01-08 12:27:22.86	178.18	18.11	-29.4	-32.1	19.4	6.08e-01	0	42	0	199229440	20	4931
2026-01-08 12:27:25.87	178.38	18.51	-29.2	-31.6	19.7	6.05e-01	0	42	0	204996608	20	4752
2026-01-08 12:27:28.89	178.58	18.92	-29.3	-31.8	19.6	6.06e-01	0	42	0	210763776	20	4832
2026-01-08 12:27:31.90	178.79	19.33	-29.3	-31.8	19.6	6.04e-01	0	42	0	216530944	20	4838
2026-01-08 12:27:34.91	179.00	19.76	-29.2	-31.7	19.7	6.09e-01	0	42	0	221773824	20	4779
2026-01-08 12:27:37.93	179.23	20.19	-29.2	-31.6	19.8	6.06e-01	0	43	0	227540992	20	4739
2026-01-08 12:27:40.94	179.45	20.62	-29.3	-31.7	19.8	6.09e-01	0	43	0	233308160	20	4770
2026-01-08 12:27:43.97	179.69	21.07	-29.5	-32.1	19.5	6.06e-01	0	43	0	239075328	20	4904
2026-01-08 12:27:46.98	179.93	21.52	-29.5	-32.1	19.5	6.07e-01	0	42	0	244842496	20	4897
2026-01-08 12:27:50.00	180.18	21.99	-29.4	-31.9	19.7	6.07e-01	0	43	0	250085376	20	4832
2026-01-08 12:27:53.01	180.43	22.46	-29.5	-32.2	19.5	6.07e-01	0	43	0	255852544	20	4933
2026-01-08 12:27:56.02	180.70	22.94	-29.5	-32.3	19.5	6.07e-01	0	42	0	261619712	20	4959
2026-01-08 12:27:59.04	180.97	23.43	-29.4	-31.9	19.8	6.07e-01	0	43	0	267386880	20	4796
2026-01-08 12:28:02.03	181.25	23.92	-29.5	-32.1	19.7	6.08e-01	0	43	0	272629760	20	4871
2026-01-08 12:28:05.04	181.54	24.43	-29.6	-32.4	19.5	6.06e-01	0	43	0	278396928	20	4990
2026-01-08 12:28:08.06	181.84	24.95	-29.5	-32.1	19.7	6.06e-01	0	43	0	284164096	20	4869
2026-01-08 12:28:11.07	182.15	25.48	-29.6	-32.3	19.6	6.06e-01	0	43	0	289931264	20	4946
2026-01-08 12:28:14.08	182.47	26.02	-29.6	-32.3	19.6	6.08e-01	0	43	0	295174144	20	4940
2026-01-08 12:28:17.10	182.80	26.58	-29.3	-31.7	20.0	6.05e-01	0	43	0	300941312	20	4722
2026-01-08 12:28:20.11	183.15	27.14	-29.4	-31.9	19.9	6.06e-01	0	43	0	306708480	20	4789
2026-01-08 12:28:23.13	183.50	27.72	-29.3	-31.6	20.0	6.08e-01	0	43	0	312475648	20	4707
2026-01-08 12:28:26.15	183.87	28.30	-29.2	-31.4	20.2	6.07e-01	0	43	0	318242816	20	4625
2026-01-08 12:28:29.17	184.26	28.91	-29.3	-31.6	20.1	6.07e-01	0	43	0	323485696	20	4686
2026-01-08 12:28:32.18	184.66	29.52	-29.2	-31.3	20.3	6.07e-01	0	43	0	329252864	20	4584
2026-01-08 12:28:35.19	185.07	30.14	-29.3	-31.7	20.1	6.06e-01	0	43	0	335020032	20	4714
2026-01-08 12:28:38.21	185.50	30.78	-29.1	-31.1	20.4	6.06e-01	0	43	0	340787200	20	4530
2026-01-08 12:28:41.21	185.95	31.43	-29.5	-32.0	19.8	6.05e-01	0	43	0	346554368	20	4840
2026-01-08 12:28:44.22	186.41	32.10	-29.3	-31.5	20.2	6.08e-01	0	43	0	351797248	20	4650
2026-01-08 12:28:47.24	186.90	32.78	-29.5	-32.1	19.9	6.07e-01	0	43	0	357564416	20	4840
2026-01-08 12:28:50.26	187.41	33.47	-29.6	-32.4	19.7	6.07e-01	0	43	0	363331584	20	4945
2026-01-08 12:28:53.27	187.94	34.18	-29.9	-33.1	19.3	6.08e-01	0	43	0	369098752	20	5197
2026-01-08 12:28:56.29	188.50	34.91	-29.8	-32.9	19.4	6.09e-01	0	43	0	374341632	20	5131
2026-01-08 12:28:59.31	189.08	35.65	-30.0	-33.4	19.1	6.06e-01	0	43	0	380108800	20	5317
2026-01-08 12:29:02.32	189.68	36.40	-30.1	-33.2	18.9	6.05e-01	0	43	0	385875968	21	5145
2026-01-08 12:29:05.34	190.32	37.18	-30.6	-34.1	18.1	6.06e-01	0	43	0	391643136	22	5364
2026-01-08 12:29:08.35	190.99	37.96	-30.7	-34.2	18.0	6.04e-01	0	43	0	397410304	22	5402
2026-01-08 12:29:11.38	191.69	38.77	-30.5	-33.7	18.4	6.07e-01	0	43	0	402653184	22	5184
2026-01-08 12:29:14.40	192.43	39.58	-30.3	-33.3	18.7	6.05e-01	0	43	0	408420352	22	5029
2026-01-08 12:29:17.42	193.21	40.42	-30.2	-32.8	19.0	6.05e-01	0	43	0	414187520	22	4860
2026-01-08 12:29:20.44	194.03	41.27	-29.9	-32.4	19.5	6.06e-01	0	43	0	419954688	21	4848
2026-01-08 12:29:23.45	194.89	42.13	-29.6	-31.8	19.8	6.07e-01	0	43	0	425721856	21	4647
2026-01-08 12:29:26.46	195.79	43.00	-29.4	-31.7	20.3	6.07e-01	0	43	0	430964736	20	4699
2026-01-08 12:29:29.47	196.75	43.89	-29.2	-31.3	20.5	6.07e-01	0	43	0	436731904	20	4565
2026-01-08 12:29:32.49	197.77	44.79	-29.0	-30.7	20.8	6.07e-01	0	43	0	442499072	20	4408
2026-01-08 12:29:35.51	198.85	45.71	-28.9	-30.5	20.9	6.07e-01	0	43	0	448266240	20	4346
2026-01-08 12:29:38.52	199.98	46.63	-29.1	-31.4	20.8	6.09e-01	0	43	0	454033408	19	4710
2026-01-08 12:29:41.54	201.20	47.56	-28.9	-31.0	21.0	6.07e-01	0	43	0	459276288	19	4594
2026-01-08 12:29:44.56	202.48	48.51	-29.0	-31.1	21.0	6.06e-01	0	43	0	465043456	19	4626
2026-01-08 12:29:47.58	203.85	49.45	-28.9	-31.0	21.0	6.05e-01	0	43	0	470810624	19	4584
2026-01-08 12:29:50.60	205.31	50.40	-29.0	-31.2	21.0	6.08e-01	0	43	0	476577792	19	4640
2026-01-08 12:29:53.62	206.86	51.35	-28.9	-31.0	21.0	6.06e-01	0	43	0	482344960	19	4598
2026-01-08 12:29:56.64	208.51	52.30	-28.8	-30.7	21.2	6.06e-01	0	43	0	487587840	19	4498
2026-01-08 12:29:59.65	210.27	53.24	-29.2	-31.7	20.7	6.07e-01	0	43	0	493355008	19	4821
2026-01-08 12:30:02.67	212.14	54.17	-28.9	-31.0	21.1	6.06e-01	0	43	0	499122176	19	4585
2026-01-08 12:30:05.70	214.15	55.09	-29.2	-31.6	20.8	6.06e-01	0	43	0	504889344	19	4773
2026-01-08 12:30:08.71	216.28	55.98	-29.5	-32.0	20.2	6.07e-01	0	43	0	510656512	20	4810
2026-01-08 12:30:11.72	218.54	56.84	-30.0	-33.3	19.5	6.06e-01	0	43	0	515899392	20	5240
2026-01-08 12:30:14.74	220.96	57.68	-30.1	-33.0	19.3	6.07e-01	0	43	0	521666560	21	5022
2026-01-08 12:30:17.75	223.52	58.48	-30.2	-32.8	19.2	6.08e-01	0	43	0	527433728	22	4846
2026-01-08 12:30:20.77	226.25	59.23	-30.6	-33.8	18.6	6.08e-01	0	43	0	533200896	22	5194
2026-01-08 12:30:23.78	229.12	59.93	-30.9	-34.7	18.0	6.07e-01	0	43	0	538443776	22	5566
2026-01-08 12:30:26.79	232.14	60.57	-31.1	-34.8	17.6	6.06e-01	0	43	0	544210944	23	5476
2026-01-08 12:30:29.80	235.31	61.14	-31.2	-35.0	17.4	6.05e-01	0	43	0	549978112	23	5578
2026-01-08 12:30:32.81	238.61	61.64	-31.0	-34.5	17.9	6.06e-01	0	43	0	555745280	23	5335
2026-01-08 12:30:35.83	242.06	62.06	-31.1	-34.7	17.8	6.07e-01	0	43	0	560988160	23	5420
2026-01-08 12:30:38.85	245.61	62.39	-31.3	-35.4	17.3	6.09e-01	0	43	0	566755328	23	5714
2026-01-08 12:30:41.87	249.24	62.62	-31.4	-35.5	17.2	6.08e-01	0	43	0	572522496	23	5782
2026-01-08 12:30:44.89	252.93	62.76	-31.7	-35.8	16.7	6.07e-01	0	43	0	578289664	24	5805
2026-01-08 12:30:47.90	256.63	62.80	-31.3	-34.8	17.4	6.07e-01	0	43	0	584056832	24	5367
2026-01-08 12:30:50.93	260.36	62.74	-31.6	-35.6	16.9	6.06e-01	0	43	0	589299712	24	5725
2026-01-08 12:30:53.95	264.04	62.58	-31.4	-34.8	17.4	6.05e-01	0	43	0	595066880	24	5381
2026-01-08 12:30:56.97	267.66	62.33	-31.2	-34.5	17.6	6.07e-01	0	43	0	600834048	24	5238
2026-01-08 12:30:59.99	271.19	61.98	-30.9	-34.0	18.2	6.07e-01	0	43	0	606601216	23	5157
2026-01-08 12:31:03.01	274.60	61.55	-30.9	-34.0	18.3	6.08e-01	0	43	0	612368384	23	5134
2026-01-08 12:31:06.04	277.90	61.04	-30.9	-34.2	18.2	6.07e-01	0	43	0	617611264	23	5216
2026-01-08 12:31:09.05	281.04	60.45	-31.1	-34.8	17.7	6.05e-01	0	43	0	623378432	23	5478
2026-01-08 12:31:12.06	284.03	59.80	-30.7	-33.5	18.5	6.08e-01	0	43	0	629145600	23	4988
2026-01-08 12:31:15.08	286.87	59.09	-30.3	-33.1	19.1	6.07e-01	0	43	0	634912768	22	4915
2026-01-08 12:31:18.10	289.56	58.33	-30.6	-33.6	18.8	6.07e-01	0	43	0	640679936	22	5130
2026-01-08 12:31:21.13	292.11	57.52	-30.9	-34.6	18.1	6.05e-01	0	43	0	645922816	22	5522
2026-01-08 12:31:24.15	294.49	56.68	-30.8	-34.4	18.3	6.07e-01	0	43	0	651689984	22	5409
2026-01-08 12:31:27.16	296.72	55.81	-30.3	-33.0	19.2	6.07e-01	0	43	0	657457152	22	4883
2026-01-08 12:31:30.17	298.82	54.92	-30.0	-32.2	19.6	6.04e-01	0	43	0	663224320	22	4629
2026-01-08 12:31:33.19	300.79	54.00	-30.1	-32.9	19.5	6.07e-01	0	43	0	668991488	21	4973
2026-01-08 12:31:36.21	302.64	53.07	-30.2	-33.3	19.2	6.08e-01	0	43	0	674234368	21	5110
2026-01-08 12:31:39.22	304.37	52.14	-30.2	-32.7	19.3	6.06e-01	0	43	0	680001536	22	4798
2026-01-08 12:31:42.25	306.01	51.19	-30.1	-32.4	19.5	6.05e-01	0	43	0	685768704	22	4674
2026-01-08 12:31:45.25	307.53	50.25	-30.7	-33.9	18.5	6.08e-01	0	43	0	691535872	22	5248
2026-01-08 12:31:48.27	308.96	49.31	-30.8	-34.2	18.3	6.07e-01	0	43	0	697303040	22	5356
2026-01-08 12:31:51.28	310.31	48.37	-30.6	-33.9	18.6	6.06e-01	0	43	0	702545920	22	5216
2026-01-08 12:31:54.31	311.58	47.43	-30.6	-33.7	18.6	6.07e-01	0	43	0	708313088	22	5166
2026-01-08 12:31:57.32	312.77	46.50	-30.2	-32.8	19.2	6.04e-01	0	43	0	714080256	22	4822
2026-01-08 12:32:00.33	313.90	45.58	-30.0	-32.2	19.5	6.06e-01	0	43	0	719847424	22	4647
2026-01-08 12:32:03.35	314.96	44.68	-30.3	-33.0	19.0	6.04e-01	0	43	0	725090304	22	4917
2026-01-08 12:32:06.37	315.97	43.78	-30.2	-32.8	19.2	6.07e-01	0	43	0	730857472	22	4825
2026-01-08 12:32:09.39	316.92	42.89	-30.4	-33.2	18.9	6.05e-01	0	43	0	736624640	22	4974
2026-01-08 12:32:12.40	317.82	42.03	-30.7	-34.2	18.3	6.09e-01	0	43	0	742391808	22	5349
2026-01-08 12:32:15.41	318.67	41.17	-30.6	-33.7	18.6	6.09e-01	0	43	0	748158976	22	5169
2026-01-08 12:32:18.43	319.48	40.33	-30.6	-33.8	18.5	6.08e-01	0	43	0	753401856	22	5223
2026-01-08 12:32:21.45	320.25	39.50	-30.3	-33.1	18.9	6.07e-01	0	43	0	759169024	22	4953
2026-01-08 12:32:24.45	320.97	38.70	-30.4	-33.2	18.9	6.06e-01	0	43	0	764936192	22	4977
2026-01-08 12:32:27.47	321.67	37.90	-30.3	-32.9	19.0	6.06e-01	0	43	0	770703360	22	4882
2026-01-08 12:32:30.49	322.33	37.12	-30.1	-32.6	19.2	6.06e-01	0	43	0	775946240	22	4790
2026-01-08 12:32:33.50	322.96	36.36	-30.0	-32.2	19.4	6.06e-01	0	43	0	781713408	22	4638
2026-01-08 12:32:36.52	323.56	35.61	-29.5	-31.4	20.2	6.06e-01	0	43	0	787480576	21	4491
2026-01-08 12:32:39.54	324.14	34.87	-29.2	-31.3	20.5	6.07e-01	0	43	0	793247744	20	4564
2026-01-08 12:32:42.56	324.69	34.15	-29.4	-31.6	20.3	6.08e-01	0	43	0	799014912	20	4683
2026-01-08 12:32:45.57	325.22	33.45	-29.2	-31.3	20.5	6.04e-01	0	43	0	804257792	20	4573
2026-01-08 12:32:48.59	325.72	32.76	-29.1	-31.0	20.6	6.03e-01	0	43	0	810024960	20	4479
2026-01-08 12:32:51.61	326.21	32.08	-29.0	-30.7	20.8	6.04e-01	0	43	0	815792128	20	4393
2026-01-08 12:32:54.63	326.67	31.42	-28.9	-30.6	20.9	6.04e-01	0	43	0	821559296	20	4351
2026-01-08 12:32:57.65	327.12	30.77	-28.9	-30.6	20.9	6.01e-01	0	43	0	827326464	20	4372
2026-01-08 12:33:00.67	327.55	30.14	-29.1	-31.1	20.6	6.03e-01	0	43	0	832569344	20	4509
2026-01-08 12:33:03.70	327.96	29.51	-29.1	-31.1	20.6	6.06e-01	0	43	0	838336512	20	4509
2026-01-08 12:33:06.72	328.36	28.90	-29.2	-31.4	20.3	6.04e-01	0	43	0	844103680	20	4619
2026-01-08 12:33:09.72	328.74	28.31	-29.2	-31.3	20.4	6.04e-01	0	43	0	849870848	20	4588
2026-01-08 12:33:12.74	329.10	27.73	-29.2	-31.3	20.3	6.03e-01	0	43	0	855638016	20	4592
2026-01-08 12:33:15.76	329.46	27.16	-29.4	-31.8	20.1	6.04e-01	0	43	0	860880896	20	4753
2026-01-08 12:33:18.78	329.80	26.60	-29.6	-32.3	19.8	6.03e-01	0	43	0	866648064	20	4918
2026-01-08 12:33:21.79	330.13	26.05	-29.6	-32.4	19.6	6.05e-01	0	43	0	872415232	20	4945
2026-01-08 12:33:24.81	330.45	25.51	-29.7	-32.7	19.4	6.03e-01	0	43	0	878182400	20	5054
2026-01-08 12:33:27.82	330.76	24.99	-29.6	-32.5	19.6	6.04e-01	0	43	0	883949568	20	4991
2026-01-08 12:33:30.83	331.06	24.47	-29.8	-32.8	19.4	6.04e-01	0	43	0	889192448	20	5115
2026-01-08 12:33:33.85	331.35	23.97	-29.6	-32.4	19.6	6.02e-01	0	43	0	894959616	20	4974
2026-01-08 12:33:36.87	331.63	23.47	-29.7	-32.6	19.5	6.01e-01	0	43	0	900726784	20	5016
2026-01-08 12:33:39.88	331.90	22.98	-29.8	-33.0	19.2	6.03e-01	0	43	0	906493952	20	5181
2026-01-08 12:33:42.89	332.17	22.51	-29.5	-32.1	19.8	6.02e-01	0	43	0	911736832	20	4857
2026-01-08 12:33:45.91	332.42	22.04	-29.5	-32.2	19.7	6.05e-01	0	43	0	917504000	20	4896
2026-01-08 12:33:48.93	332.67	21.58	-29.6	-32.3	19.6	6.04e-01	0	43	0	923271168	20	4948
2026-01-08 12:33:51.95	332.91	21.13	-29.8	-32.8	19.2	6.04e-01	0	43	0	929038336	20	5123
2026-01-08 12:33:54.96	333.15	20.69	-29.7	-32.6	19.3	6.05e-01	0	43	0	934805504	20	5058
2026-01-08 12:33:57.98	333.38	20.25	-29.8	-32.9	18.9	6.03e-01	0	43	0	940048384	20	5181
2026-01-08 12:34:01.00	333.60	19.82	-29.4	-32.0	19.5	6.04e-01	0	43	0	945815552	20	4847
2026-01-08 12:34:04.02	333.81	19.40	-29.4	-32.1	19.4	6.01e-01	0	43	0	951582720	20	4911
2026-01-08 12:34:07.04	334.02	18.99	-29.3	-31.8	19.6	6.03e-01	0	43	0	957349888	20	4793
2026-01-08 12:34:10.06	334.23	18.59	-29.4	-32.1	19.4	6.04e-01	0	43	0	963117056	20	4911
2026-01-08 12:34:13.08	334.43	18.19	-29.5	-32.2	19.5	6.02e-01	0	43	0	968359936	20	4912
2026-01-08 12:34:16.08	334.62	17.80	-29.4	-31.9	19.7	6.04e-01	0	43	0	974127104	20	4813
2026-01-08 12:34:19.10	334.81	17.41	-29.4	-31.9	19.7	6.03e-01	0	43	0	979894272	20	4800
2026-01-08 12:34:22.11	334.99	17.04	-29.3	-31.6	19.8	6.04e-01	0	43	0	985661440	20	4720
2026-01-08 12:34:25.12	335.17	16.66	-29.4	-32.0	19.6	6.03e-01	0	43	0	990904320	20	4835
2026-01-08 12:34:28.14	335.35	16.30	-29.3	-31.8	19.7	6.04e-01	0	43	0	996671488	20	4788
2026-01-08 12:34:31.15	335.52	15.94	-29.2	-31.6	19.7	6.02e-01	0	43	0	1002438656	20	4712
2026-01-08 12:34:34.18	335.69	15.58	-29.3	-31.7	19.6	6.02e-01	0	43	0	1008205824	20	4773
2026-01-08 12:34:37.21	335.85	15.23	-29.4	-32.1	19.4	6.05e-01	0	43	0	1013972992	20	4888
2026-01-08 12:34:40.22	336.01	14.89	-29.3	-31.8	19.5	6.05e-01	0	43	0	1019215872	20	4799
2026-01-08 12:34:43.24	336.17	14.55	-29.5	-32.2	19.3	6.02e-01	0	43	0	1024983040	20	4933
2026-01-08 12:34:46.25	336.32	14.21	-29.4	-32.1	19.2	6.02e-01	0	43	0	1030750208	20	4922
2026-01-08 12:34:49.27	336.47	13.88	-29.5	-32.3	19.1	6.02e-01	0	43	0	1036517376	20	4988
2026-01-08 12:34:52.29	336.62	13.56	-29.4	-32.0	19.4	6.03e-01	0	43	0	1042284544	20	4889
2026-01-08 12:34:55.29	336.76	13.24	-29.6	-32.7	18.8	6.03e-01	0	43	0	1047527424	20	5128
2026-01-08 12:34:58.31	336.90	12.93	-29.4	-32.2	19.0	6.04e-01	0	43	0	1053294592	20	4963
2026-01-08 12:35:01.33	337.04	12.61	-29.5	-32.5	18.7	6.04e-01	0	43	0	1059061760	20	5068
2026-01-08 12:35:04.34	337.17	12.31	-29.5	-32.5	18.8	6.03e-01	0	43	0	1064828928	20	5065
2026-01-08 12:35:07.36	337.31	12.00	-29.6	-32.6	18.8	6.02e-01	0	43	0	1070596096	20	5108
2026-01-08 12:35:10.37	337.44	11.71	-29.7	-32.9	18.6	6.03e-01	0	43	0	1075838976	20	5220
2026-01-08 12:35:13.38	337.56	11.41	-29.7	-33.0	18.4	6.02e-01	0	43	0	1081606144	20	5285
2026-01-08 12:35:16.40	337.69	11.12	-29.9	-33.5	17.8	6.00e-01	0	43	0	1087373312	20	5498
2026-01-08 12:35:19.42	337.81	10.83	-29.6	-32.8	18.6	6.03e-01	0	43	0	1093140480	20	5172
2026-01-08 12:35:22.44	337.93	10.55	-29.7	-32.9	18.7	6.03e-01	0	43	0	1098383360	20	5213
2026-01-08 12:35:25.46	338.05	10.27	-29.7	-32.9	18.5	6.02e-01	0	43	0	1104150528	20	5238
2026-01-08 12:35:28.48	338.16	9.99	-29.8	-33.2	18.4	6.04e-01	0	43	0	1109917696	20	5323
2026-01-08 12:35:31.51	338.28	9.72	-29.7	-33.1	18.5	6.04e-01	0	43	0	1115684864	20	5285
2026-01-08 12:35:34.52	338.39	9.45	-29.8	-33.3	18.3	6.04e-01	0	43	0	1121452032	20	5379
2026-01-08 12:35:37.54	338.50	9.18	-29.9	-33.7	18.0	6.05e-01	0	43	0	1126694912	20	5547
2026-01-08 12:35:40.55	338.61	8.92	-30.1	-33.7	17.7	6.04e-01	0	43	0	1132462080	21	5428
2026-01-08 12:35:43.56	338.71	8.66	-30.1	-33.7	17.6	6.05e-01	0	43	0	1138229248	21	5459
2026-01-08 12:35:46.58	338.82	8.40	-30.1	-33.6	17.7	6.01e-01	0	43	0	1143996416	21	5422
2026-01-08 12:35:49.59	338.92	8.15	-30.1	-33.8	17.5	6.04e-01	0	43	0	1149239296	21	5519
2026-01-08 12:35:52.61	339.02	7.89	-30.2	-34.0	17.4	6.03e-01	0	43	0	1155006464	21	5586
2026-01-08 12:35:55.63	339.12	7.64	-30.2	-34.0	17.3	6.03e-01	0	43	0	1160773632	21	5574
2026-01-08 12:35:58.65	339.22	7.40	-30.1	-33.9	17.3	6.04e-01	0	43	0	1166540800	21	5563
2026-01-08 12:36:01.66	339.31	7.15	-30.1	-33.9	17.2	6.04e-01	0	43	0	1172307968	21	5575
2026-01-08 12:36:04.68	339.41	6.91	-33.7	-52.9	3.8	7.46e-01	0	43	104	1173356544	28	32707

#Closed at: 2026-01-08 12:36:05
#Recorded file [1173 MB]: D:/data/31010_260108_152536.dat