passes_logs/2026/01/08/R2M6_AANII_01/R2M6_AANII_01__20260108_061316_FENGYUN_3E_rec.log

#Pass ID: 20260108_061316_FENGYUN 3E
#Satellite: FENGYUN 3E
#Configuration: FENGYUN 3E
#almurnet v.1.7.20240730
#Start time: 2026-01-08 06:13:18

#Version: 2.2.20231116
#Station: R2M6_AANII_01
#Location: 30.233357 lon 59.946436 lat
#TLE: 1 49008U 21062A   26006.26767912  .00000427  00000+0  22170-3 0  9993
#TLE: 2 49008  98.7475  11.4982 0001602 156.1158 204.0093 14.19885456233607

#Time	Az	El	Level	Level2	SNR	BER	BlckErr	Temp	State	Recorded	gain1	gain2
2026-01-08 06:13:18.64	11.24	7.11	-29.9	-31.7	5.2	7.81e-01	0	41	0	0	21	4436
2026-01-08 06:13:21.65	11.01	7.32	-29.6	-31.3	9.4	1.67e-02	0	41	0	7340032	20	4373
2026-01-08 06:13:24.67	10.77	7.52	-29.6	-31.2	9.5	1.32e-02	0	41	0	28311552	20	4338
2026-01-08 06:13:27.70	10.52	7.73	-29.3	-30.8	10.1	8.13e-03	0	41	0	50331648	19	4321
2026-01-08 06:13:30.72	10.28	7.94	-27.9	-28.4	12.3	2.17e-04	0	41	0	72351744	17	3836
2026-01-08 06:13:33.74	10.03	8.15	-27.0	-27.5	13.3	1.25e-05	0	41	0	94371840	15	3799
2026-01-08 06:13:36.75	9.78	8.36	-26.9	-27.3	13.5	9.10e-06	0	42	0	116391936	15	3742
2026-01-08 06:13:39.77	9.52	8.58	-26.7	-27.7	13.8	2.20e-06	0	41	0	137363456	13	4043
2026-01-08 06:13:42.80	9.26	8.79	-26.6	-27.5	13.9	2.20e-06	0	42	0	159383552	13	3996
2026-01-08 06:13:45.82	9.00	9.01	-26.7	-27.6	13.9	2.20e-06	0	42	0	181403648	13	4028
2026-01-08 06:13:48.83	8.73	9.22	-26.6	-27.6	14.0	0.00e+00	0	42	0	203423744	13	4012
2026-01-08 06:13:51.85	8.45	9.44	-26.7	-27.7	13.9	4.50e-06	0	42	0	225443840	13	4035
2026-01-08 06:13:54.87	8.18	9.66	-26.5	-27.4	14.0	3.40e-06	0	42	0	246415360	13	3969
2026-01-08 06:13:57.90	7.89	9.88	-26.6	-27.4	14.0	2.20e-06	0	42	0	268435456	13	3979
2026-01-08 06:14:00.91	7.61	10.10	-26.7	-27.8	13.8	0.00e+00	0	42	0	290455552	13	4069
2026-01-08 06:14:03.93	7.32	10.32	-26.9	-28.1	13.7	4.50e-06	0	42	0	312475648	13	4160
2026-01-08 06:14:06.96	7.02	10.55	-26.6	-27.6	14.0	2.20e-06	0	42	0	334495744	13	4021
2026-01-08 06:14:09.98	6.72	10.77	-26.6	-27.4	14.1	2.20e-06	0	42	0	355467264	13	3956
2026-01-08 06:14:13.01	6.42	11.00	-26.3	-26.9	14.4	0.00e+00	0	42	0	377487360	13	3830
2026-01-08 06:14:16.01	6.11	11.23	-26.3	-26.8	14.5	1.10e-06	0	42	0	399507456	13	3804
2026-01-08 06:14:19.02	5.79	11.46	-26.3	-26.8	14.5	1.10e-06	0	42	0	421527552	13	3813
2026-01-08 06:14:22.04	5.47	11.69	-26.2	-26.6	14.6	0.00e+00	0	42	0	442499072	13	3754
2026-01-08 06:14:25.05	5.15	11.92	-26.1	-26.4	14.7	0.00e+00	0	42	0	464519168	13	3721
2026-01-08 06:14:28.07	4.82	12.15	-26.0	-26.1	14.9	0.00e+00	0	42	0	486539264	13	3654
2026-01-08 06:14:31.09	4.48	12.38	-26.0	-26.1	14.9	0.00e+00	0	42	0	508559360	13	3655
2026-01-08 06:14:34.10	4.14	12.62	-26.0	-26.6	14.9	0.00e+00	0	43	0	530579456	12	3875
2026-01-08 06:14:37.13	3.79	12.86	-25.9	-26.5	15.0	0.00e+00	0	43	0	551550976	12	3842
2026-01-08 06:14:40.15	3.44	13.09	-25.9	-26.3	15.1	0.00e+00	0	42	0	573571072	12	3796
2026-01-08 06:14:43.17	3.08	13.33	-25.6	-25.9	15.4	0.00e+00	0	43	0	595591168	12	3687
2026-01-08 06:14:46.19	2.72	13.57	-25.4	-25.3	15.6	0.00e+00	0	43	0	617611264	12	3569
2026-01-08 06:14:49.22	2.34	13.82	-25.8	-26.2	15.2	0.00e+00	0	43	0	638582784	12	3767
2026-01-08 06:14:52.23	1.97	14.06	-25.5	-26.1	15.7	0.00e+00	0	43	0	660602880	11	3835
2026-01-08 06:14:55.25	1.58	14.30	-25.5	-26.1	15.6	0.00e+00	0	43	0	682622976	11	3830
2026-01-08 06:14:58.27	1.19	14.55	-25.5	-25.9	15.8	0.00e+00	0	43	0	704643072	11	3793
2026-01-08 06:15:01.29	0.79	14.79	-25.5	-25.9	15.8	0.00e+00	0	43	0	725614592	11	3796
2026-01-08 06:15:04.30	0.39	15.04	-25.5	-26.0	15.7	0.00e+00	0	43	0	747634688	11	3814
2026-01-08 06:15:07.32	359.98	15.29	-25.6	-26.3	15.6	0.00e+00	0	43	0	769654784	11	3879
2026-01-08 06:15:10.34	359.56	15.54	-25.3	-25.5	16.0	0.00e+00	0	43	0	791674880	11	3695
2026-01-08 06:15:13.36	359.14	15.79	-25.1	-25.1	16.3	0.00e+00	0	43	0	813694976	11	3607
2026-01-08 06:15:16.37	358.71	16.04	-24.8	-25.0	16.6	0.00e+00	0	43	0	834666496	10	3685
2026-01-08 06:15:19.39	358.27	16.29	-24.8	-25.0	16.6	0.00e+00	0	43	0	856686592	10	3675
2026-01-08 06:15:22.41	357.82	16.54	-24.8	-24.9	16.6	0.00e+00	0	43	0	878706688	10	3665
2026-01-08 06:15:25.44	357.36	16.80	-24.9	-25.3	16.4	0.00e+00	0	43	0	900726784	10	3761
2026-01-08 06:15:28.46	356.90	17.05	-25.0	-25.5	16.4	0.00e+00	0	43	0	922746880	10	3796
2026-01-08 06:15:31.47	356.43	17.31	-24.9	-25.3	16.5	0.00e+00	0	43	0	943718400	10	3744
2026-01-08 06:15:34.49	355.95	17.56	-24.8	-24.9	16.6	0.00e+00	0	43	0	965738496	10	3670
2026-01-08 06:15:37.51	355.46	17.82	-24.9	-25.2	16.5	0.00e+00	0	43	0	987758592	10	3730
2026-01-08 06:15:40.53	354.96	18.08	-24.6	-24.5	16.9	0.00e+00	0	43	0	1009778688	10	3572
2026-01-08 06:15:43.55	354.45	18.33	-24.7	-24.7	16.8	0.00e+00	0	43	0	1031798784	10	3617
2026-01-08 06:15:46.57	353.94	18.59	-24.6	-24.6	16.9	0.00e+00	0	43	0	1052770304	10	3590
2026-01-08 06:15:49.59	353.42	18.85	-24.4	-24.7	17.0	0.00e+00	0	43	0	1074790400	9	3715
2026-01-08 06:15:52.60	352.89	19.11	-24.3	-24.4	17.2	0.00e+00	0	43	0	1096810496	9	3640
2026-01-08 06:15:55.62	352.34	19.36	-24.2	-24.2	17.3	0.00e+00	0	43	0	1118830592	9	3598
2026-01-08 06:15:58.63	351.79	19.62	-24.3	-24.5	17.2	0.00e+00	0	43	0	1139802112	9	3664
2026-01-08 06:16:01.65	351.23	19.88	-24.4	-24.6	17.1	0.00e+00	0	43	0	1161822208	9	3699
2026-01-08 06:16:04.67	350.66	20.14	-24.5	-24.9	17.0	0.00e+00	0	43	0	1183842304	9	3751
2026-01-08 06:16:07.69	350.08	20.39	-24.7	-25.2	16.8	0.00e+00	0	43	0	1205862400	9	3831
2026-01-08 06:16:10.70	349.50	20.65	-24.6	-25.0	16.9	0.00e+00	0	43	0	1227882496	9	3796
2026-01-08 06:16:13.72	348.90	20.91	-24.4	-24.7	17.1	0.00e+00	0	43	0	1248854016	9	3716
2026-01-08 06:16:16.74	348.28	21.16	-24.2	-24.3	17.3	0.00e+00	0	43	0	1270874112	9	3621
2026-01-08 06:16:19.76	347.66	21.41	-24.3	-24.4	17.2	0.00e+00	0	43	0	1292894208	9	3655
2026-01-08 06:16:22.78	347.03	21.67	-24.4	-24.7	17.1	0.00e+00	0	43	0	1313865728	9	3724
2026-01-08 06:16:25.80	346.39	21.92	-24.7	-25.2	16.8	0.00e+00	0	43	0	1335885824	9	3829
2026-01-08 06:16:28.82	345.74	22.17	-24.5	-24.9	17.0	0.00e+00	0	43	0	1357905920	9	3766
2026-01-08 06:16:31.83	345.08	22.42	-24.1	-24.1	17.4	0.00e+00	0	43	0	1379926016	9	3573
2026-01-08 06:16:34.86	344.40	22.67	-24.1	-23.9	17.5	0.00e+00	0	43	0	1401946112	9	3541
2026-01-08 06:16:37.87	343.72	22.91	-24.1	-24.6	17.5	0.00e+00	0	43	0	1422917632	8	3789
2026-01-08 06:16:40.88	343.03	23.15	-24.0	-24.3	17.6	0.00e+00	0	43	0	1444937728	8	3714
2026-01-08 06:16:43.89	342.32	23.39	-24.2	-24.7	17.4	0.00e+00	0	43	0	1466957824	8	3824
2026-01-08 06:16:46.90	341.61	23.63	-24.0	-24.2	17.7	0.00e+00	0	43	0	1488977920	8	3702
2026-01-08 06:16:49.92	340.88	23.86	-23.9	-24.0	17.7	0.00e+00	0	43	0	1509949440	8	3659
2026-01-08 06:16:52.94	340.14	24.10	-23.5	-23.3	18.1	0.00e+00	0	43	0	1531969536	8	3509
2026-01-08 06:16:55.97	339.38	24.33	-23.7	-23.6	17.9	0.00e+00	0	43	0	1553989632	8	3578
2026-01-08 06:16:58.99	338.62	24.55	-23.7	-23.6	17.9	0.00e+00	0	43	0	1576009728	8	3579
2026-01-08 06:17:02.01	337.85	24.77	-23.6	-23.4	18.1	0.00e+00	0	43	0	1598029824	8	3527
2026-01-08 06:17:05.02	337.07	24.99	-23.9	-24.2	17.7	0.00e+00	0	43	0	1619001344	8	3694
2026-01-08 06:17:08.03	336.27	25.20	-24.0	-24.2	17.7	0.00e+00	0	43	0	1641021440	8	3708
2026-01-08 06:17:11.04	335.47	25.41	-23.7	-23.7	17.9	0.00e+00	0	43	0	1663041536	8	3587
2026-01-08 06:17:14.07	334.65	25.62	-23.7	-23.8	17.9	0.00e+00	0	43	0	1685061632	8	3604
2026-01-08 06:17:17.08	333.83	25.81	-23.9	-24.2	17.7	0.00e+00	0	43	0	1706033152	8	3693
2026-01-08 06:17:20.11	332.99	26.01	-23.8	-23.9	17.8	0.00e+00	0	43	0	1728053248	8	3633
2026-01-08 06:17:23.12	332.14	26.20	-23.7	-23.7	18.0	0.00e+00	0	43	0	1750073344	8	3589
2026-01-08 06:17:26.13	331.29	26.38	-23.7	-23.7	17.9	0.00e+00	0	43	0	1772093440	8	3588
2026-01-08 06:17:29.15	330.42	26.56	-23.4	-23.1	18.3	0.00e+00	0	43	0	1794113536	8	3458
2026-01-08 06:17:32.18	329.54	26.73	-23.4	-23.6	18.2	0.00e+00	0	43	0	1815085056	7	3665
2026-01-08 06:17:35.20	328.65	26.89	-23.6	-23.8	18.1	0.00e+00	0	43	0	1837105152	7	3724
2026-01-08 06:17:38.22	327.75	27.05	-23.8	-24.3	17.8	0.00e+00	0	43	0	1859125248	7	3834
2026-01-08 06:17:41.24	326.85	27.20	-23.6	-24.0	18.1	0.00e+00	0	43	0	1881145344	7	3752
2026-01-08 06:17:44.26	325.93	27.35	-23.7	-24.1	18.0	0.00e+00	0	43	0	1903165440	7	3773
2026-01-08 06:17:47.27	325.02	27.48	-23.7	-24.1	17.9	0.00e+00	0	43	0	1924136960	7	3793
2026-01-08 06:17:50.28	324.09	27.61	-23.5	-23.8	18.1	0.00e+00	0	43	0	1946157056	7	3715
2026-01-08 06:17:53.31	323.15	27.73	-23.6	-23.9	18.1	0.00e+00	0	43	0	1968177152	7	3744
2026-01-08 06:17:56.33	322.20	27.85	-23.7	-24.1	17.9	0.00e+00	0	43	0	1990197248	7	3786
2026-01-08 06:17:59.34	321.26	27.95	-23.8	-24.5	17.8	0.00e+00	0	43	0	2012217344	7	3870
2026-01-08 06:18:02.36	320.30	28.05	-23.6	-23.9	18.0	0.00e+00	0	43	0	2033188864	7	3741
2026-01-08 06:18:05.38	319.34	28.13	-23.4	-23.6	18.2	0.00e+00	0	43	0	2055208960	7	3674
2026-01-08 06:18:08.40	318.37	28.21	-23.5	-23.7	18.2	0.00e+00	0	43	0	2077229056	7	3705
2026-01-08 06:18:11.42	317.40	28.28	-23.7	-24.2	17.9	0.00e+00	0	43	0	2098200576	7	3813
2026-01-08 06:18:14.43	316.43	28.34	-23.3	-23.2	18.4	0.00e+00	0	43	0	2120220672	7	3592
2026-01-08 06:18:17.45	315.45	28.39	-23.4	-23.6	18.3	0.00e+00	0	43	0	2142240768	7	3663
2026-01-08 06:18:20.45	314.47	28.44	-23.7	-24.1	18.0	0.00e+00	0	44	0	2164260864	7	3773
2026-01-08 06:18:23.47	313.48	28.47	-23.7	-24.2	18.0	0.00e+00	0	43	0	2185232384	7	3800
2026-01-08 06:18:26.48	312.50	28.49	-23.5	-23.8	18.2	0.00e+00	0	43	0	2207252480	7	3705
2026-01-08 06:18:29.50	311.51	28.51	-23.6	-23.9	18.1	0.00e+00	0	43	0	2229272576	7	3738
2026-01-08 06:18:32.52	310.52	28.51	-23.5	-23.7	18.2	0.00e+00	0	43	0	2251292672	7	3697
2026-01-08 06:18:35.54	309.53	28.51	-23.5	-23.7	18.2	0.00e+00	0	43	0	2273312768	7	3691
2026-01-08 06:18:38.56	308.55	28.49	-23.4	-23.6	18.2	0.00e+00	0	43	0	2294284288	7	3671
2026-01-08 06:18:41.57	307.56	28.47	-23.5	-23.7	18.2	0.00e+00	0	43	0	2316304384	7	3682
2026-01-08 06:18:44.59	306.58	28.44	-23.6	-23.9	18.1	0.00e+00	0	44	0	2338324480	7	3724
2026-01-08 06:18:47.60	305.60	28.39	-23.5	-23.8	18.2	0.00e+00	0	44	0	2360344576	7	3702
2026-01-08 06:18:50.61	304.62	28.34	-23.5	-23.7	18.2	0.00e+00	0	43	0	2381316096	7	3693
2026-01-08 06:18:53.63	303.64	28.28	-23.4	-23.5	18.3	0.00e+00	0	44	0	2403336192	7	3645
2026-01-08 06:18:56.65	302.67	28.21	-23.4	-23.5	18.3	0.00e+00	0	43	0	2425356288	7	3643
2026-01-08 06:18:59.67	301.70	28.13	-23.4	-23.5	18.3	0.00e+00	0	43	0	2447376384	7	3648
2026-01-08 06:19:02.70	300.73	28.04	-23.4	-23.6	18.2	0.00e+00	0	43	0	2469396480	7	3672
2026-01-08 06:19:05.71	299.78	27.95	-23.4	-23.6	18.2	0.00e+00	0	43	0	2490368000	7	3668
2026-01-08 06:19:08.73	298.83	27.84	-23.5	-23.7	18.2	0.00e+00	0	44	0	2512388096	7	3687
2026-01-08 06:19:11.74	297.89	27.73	-23.8	-24.4	17.8	0.00e+00	0	44	0	2534408192	7	3855
2026-01-08 06:19:14.77	296.94	27.61	-23.2	-23.0	18.5	0.00e+00	0	43	0	2556428288	7	3544
2026-01-08 06:19:17.79	296.01	27.48	-23.3	-23.4	18.3	0.00e+00	0	44	0	2577399808	7	3616
2026-01-08 06:19:20.80	295.09	27.34	-23.3	-23.4	18.3	0.00e+00	0	43	0	2599419904	7	3635
2026-01-08 06:19:23.82	294.18	27.20	-23.4	-23.5	18.2	0.00e+00	0	44	0	2621440000	7	3651
2026-01-08 06:19:26.84	293.27	27.05	-23.3	-23.2	18.4	0.00e+00	0	43	0	2643460096	7	3586
2026-01-08 06:19:29.87	292.37	26.89	-23.3	-23.4	18.3	0.00e+00	0	44	0	2665480192	7	3622
2026-01-08 06:19:32.88	291.48	26.72	-23.4	-23.6	18.2	0.00e+00	0	43	0	2686451712	7	3682
2026-01-08 06:19:35.88	290.61	26.55	-23.3	-23.4	18.3	0.00e+00	0	44	0	2708471808	7	3620
2026-01-08 06:19:38.90	289.74	26.37	-23.3	-23.4	18.3	0.00e+00	0	43	0	2730491904	7	3613
2026-01-08 06:19:41.92	288.88	26.19	-23.5	-23.7	18.1	0.00e+00	0	43	0	2751463424	7	3688
2026-01-08 06:19:44.94	288.03	26.00	-23.6	-24.0	17.9	0.00e+00	0	43	0	2773483520	7	3754
2026-01-08 06:19:47.96	287.19	25.81	-23.4	-23.6	18.1	0.00e+00	0	43	0	2795503616	7	3677
2026-01-08 06:19:50.97	286.36	25.61	-23.3	-23.4	18.2	0.00e+00	0	43	0	2817523712	7	3622
2026-01-08 06:19:53.99	285.54	25.40	-23.3	-23.4	18.2	0.00e+00	0	44	0	2839543808	7	3628
2026-01-08 06:19:57.01	284.73	25.19	-23.2	-23.1	18.4	0.00e+00	0	43	0	2860515328	7	3559
2026-01-08 06:20:00.03	283.93	24.98	-23.3	-23.3	18.2	0.00e+00	0	44	0	2882535424	7	3614
2026-01-08 06:20:03.06	283.14	24.76	-23.4	-23.6	18.1	0.00e+00	0	44	0	2904555520	7	3680
2026-01-08 06:20:06.08	282.37	24.53	-23.4	-23.6	18.1	0.00e+00	0	43	0	2926575616	7	3665
2026-01-08 06:20:09.09	281.61	24.31	-23.4	-23.5	18.1	0.00e+00	0	44	0	2947547136	7	3661
2026-01-08 06:20:12.11	280.85	24.08	-23.2	-23.2	18.3	0.00e+00	0	44	0	2969567232	7	3591
2026-01-08 06:20:15.13	280.11	23.85	-23.2	-23.0	18.3	0.00e+00	0	43	0	2991587328	7	3543
2026-01-08 06:20:18.14	279.38	23.61	-23.4	-23.6	18.0	0.00e+00	0	43	0	3013607424	7	3672
2026-01-08 06:20:21.16	278.66	23.37	-23.4	-23.5	18.1	0.00e+00	0	43	0	3035627520	7	3653
2026-01-08 06:20:24.18	277.95	23.13	-23.4	-23.5	18.1	0.00e+00	0	44	0	3056599040	7	3640
2026-01-08 06:20:27.21	277.25	22.88	-23.3	-23.3	18.2	0.00e+00	0	43	0	3078619136	7	3608
2026-01-08 06:20:30.23	276.56	22.64	-23.4	-23.5	18.1	0.00e+00	0	43	0	3100639232	7	3654
2026-01-08 06:20:33.25	275.89	22.39	-23.5	-23.7	18.0	0.00e+00	0	43	0	3122659328	7	3696
2026-01-08 06:20:36.27	275.22	22.14	-23.5	-23.9	17.7	0.00e+00	0	44	0	3144679424	7	3735
2026-01-08 06:20:39.30	274.57	21.89	-23.5	-23.8	17.9	0.00e+00	0	43	0	3166699520	7	3714
2026-01-08 06:20:42.31	273.92	21.64	-23.8	-24.5	17.6	0.00e+00	0	43	0	3187671040	7	3870
2026-01-08 06:20:45.33	273.29	21.38	-23.8	-24.5	17.5	0.00e+00	0	43	0	3209691136	7	3872
2026-01-08 06:20:48.36	272.66	21.13	-24.1	-24.6	17.2	0.00e+00	0	43	0	3231711232	8	3791
2026-01-08 06:20:51.37	272.05	20.87	-23.8	-24.0	17.5	0.00e+00	0	43	0	3253731328	8	3659
2026-01-08 06:20:54.39	271.45	20.61	-23.9	-24.1	17.5	0.00e+00	0	43	0	3274702848	8	3678
2026-01-08 06:20:57.41	270.86	20.36	-23.8	-23.9	17.5	0.00e+00	0	44	0	3296722944	8	3639
2026-01-08 06:21:00.42	270.28	20.10	-23.8	-23.9	17.5	0.00e+00	0	44	0	3318743040	8	3645
2026-01-08 06:21:03.44	269.70	19.84	-23.9	-24.0	17.5	0.00e+00	0	43	0	3340763136	8	3668
2026-01-08 06:21:06.46	269.14	19.58	-24.1	-24.4	17.3	0.00e+00	0	43	0	3362783232	8	3757
2026-01-08 06:21:09.48	268.59	19.32	-24.2	-24.7	17.1	0.00e+00	0	43	0	3383754752	8	3821
2026-01-08 06:21:12.50	268.04	19.06	-24.2	-24.8	17.0	0.00e+00	0	43	0	3405774848	8	3844
2026-01-08 06:21:15.52	267.51	18.80	-24.1	-24.6	17.1	0.00e+00	0	44	0	3427794944	8	3794
2026-01-08 06:21:18.53	266.98	18.55	-24.1	-24.6	17.1	0.00e+00	0	43	0	3448766464	8	3794
2026-01-08 06:21:21.55	266.47	18.29	-24.1	-24.6	17.1	0.00e+00	0	44	0	3470786560	8	3806
2026-01-08 06:21:24.57	265.96	18.03	-24.2	-24.7	17.1	0.00e+00	0	44	0	3492806656	8	3822
2026-01-08 06:21:27.59	265.46	17.77	-24.3	-25.0	16.9	0.00e+00	0	43	0	3514826752	8	3890
2026-01-08 06:21:30.61	264.97	17.51	-24.4	-25.3	16.7	0.00e+00	0	43	0	3536846848	8	3959
2026-01-08 06:21:33.62	264.49	17.26	-24.6	-25.2	16.5	0.00e+00	0	43	0	3557818368	9	3839
2026-01-08 06:21:36.63	264.01	17.00	-24.7	-25.4	16.4	0.00e+00	0	43	0	3579838464	9	3893
2026-01-08 06:21:39.65	263.55	16.75	-24.8	-25.6	16.3	0.00e+00	0	43	0	3601858560	9	3931
2026-01-08 06:21:42.67	263.09	16.49	-24.8	-25.6	16.2	0.00e+00	0	43	0	3623878656	9	3938
2026-01-08 06:21:45.69	262.64	16.24	-25.0	-26.0	16.1	0.00e+00	0	44	0	3644850176	9	4027
2026-01-08 06:21:48.70	262.20	15.98	-25.4	-26.3	15.6	0.00e+00	0	44	0	3666870272	10	3996
2026-01-08 06:21:51.72	261.76	15.73	-25.3	-26.2	15.7	0.00e+00	0	43	0	3688890368	10	3976
2026-01-08 06:21:54.74	261.33	15.48	-25.3	-26.0	15.7	0.00e+00	0	44	0	3710910464	10	3938
2026-01-08 06:21:57.76	260.91	15.23	-25.1	-25.8	15.9	0.00e+00	0	43	0	3732930560	10	3879
2026-01-08 06:22:00.78	260.50	14.98	-25.4	-26.3	15.6	0.00e+00	0	43	0	3753902080	10	4009
2026-01-08 06:22:03.80	260.09	14.73	-25.4	-26.2	15.6	0.00e+00	0	43	0	3775922176	10	3987
2026-01-08 06:22:06.80	259.70	14.49	-25.5	-26.7	15.3	0.00e+00	0	43	0	3797942272	10	4094
2026-01-08 06:22:09.83	259.30	14.24	-25.4	-26.4	15.5	0.00e+00	0	44	0	3819962368	10	4014
2026-01-08 06:22:12.85	258.91	14.00	-25.4	-26.3	15.5	0.00e+00	0	43	0	3841982464	10	4004
2026-01-08 06:22:15.86	258.54	13.75	-25.4	-25.8	15.5	0.00e+00	0	43	0	3862953984	11	3769
2026-01-08 06:22:18.88	258.16	13.51	-25.6	-26.3	15.3	0.00e+00	0	44	0	3884974080	11	3888
2026-01-08 06:22:21.90	257.79	13.27	-25.8	-26.7	15.0	0.00e+00	0	43	0	3906994176	11	4006
2026-01-08 06:22:24.92	257.43	13.03	-25.8	-26.8	14.9	0.00e+00	0	43	0	3929014272	11	4019
2026-01-08 06:22:27.94	257.08	12.79	-26.0	-27.2	14.7	0.00e+00	0	43	0	3949985792	11	4123
2026-01-08 06:22:30.96	256.73	12.55	-26.0	-26.8	14.5	0.00e+00	0	43	0	3972005888	12	3928
2026-01-08 06:22:33.98	256.38	12.32	-26.0	-26.7	14.6	0.00e+00	0	43	0	3994025984	12	3901
2026-01-08 06:22:37.00	256.04	12.08	-25.9	-26.6	14.7	0.00e+00	0	44	0	4016046080	12	3866
2026-01-08 06:22:40.01	255.71	11.85	-25.7	-26.1	14.9	0.00e+00	0	44	0	4038066176	12	3753
2026-01-08 06:22:43.03	255.38	11.61	-25.7	-26.1	14.9	0.00e+00	0	43	0	4059037696	12	3751
2026-01-08 06:22:46.04	255.06	11.38	-25.8	-26.2	14.8	0.00e+00	0	43	0	4081057792	12	3772
2026-01-08 06:22:49.06	254.74	11.15	-25.9	-26.5	14.6	2.20e-06	0	43	0	4103077888	12	3856
2026-01-08 06:22:52.09	254.43	10.92	-25.6	-25.9	14.9	1.10e-06	0	43	0	4125097984	12	3712
2026-01-08 06:22:55.10	254.12	10.70	-25.8	-26.2	14.8	0.00e+00	0	43	0	4147118080	12	3781
2026-01-08 06:22:58.11	253.82	10.47	-26.0	-26.7	14.5	0.00e+00	0	43	0	4168089600	12	3906
2026-01-08 06:23:01.12	253.53	10.25	-26.3	-27.4	14.0	4.50e-06	0	43	0	4190109696	12	4095
2026-01-08 06:23:04.14	253.23	10.02	-26.5	-27.9	13.7	2.20e-06	0	43	0	4212129792	12	4228
2026-01-08 06:23:07.17	252.94	9.80	-26.7	-27.9	13.4	5.70e-06	0	43	0	4233101312	13	4113
2026-01-08 06:23:10.18	252.66	9.58	-26.6	-27.6	13.6	3.40e-06	0	44	0	4255121408	13	4037
2026-01-08 06:23:13.21	252.38	9.36	-26.6	-27.7	13.6	1.02e-05	0	44	0	4277141504	13	4052
2026-01-08 06:23:16.22	252.10	9.14	-26.6	-27.6	13.6	9.10e-06	0	43	0	4299161600	13	4050
2026-01-08 06:23:19.24	251.83	8.93	-26.6	-27.7	13.5	6.80e-06	0	43	0	4320133120	13	4054
2026-01-08 06:23:22.24	251.57	8.71	-26.6	-27.6	13.5	5.70e-06	0	43	0	4342153216	13	4031
2026-01-08 06:23:25.25	251.30	8.50	-26.6	-27.5	13.6	6.80e-06	0	43	0	4364173312	13	4014
2026-01-08 06:23:28.28	251.04	8.28	-26.7	-27.7	13.4	3.40e-06	0	43	0	4386193408	13	4068
2026-01-08 06:23:31.30	250.79	8.07	-26.7	-27.8	13.3	1.25e-05	0	43	0	4408213504	13	4088
2026-01-08 06:23:34.32	250.54	7.86	-26.9	-28.2	13.1	2.05e-05	0	44	0	4429185024	13	4210
2026-01-08 06:23:37.33	250.29	7.65	-27.0	-28.6	12.8	6.06e-05	0	44	0	4451205120	13	4315
2026-01-08 06:23:40.36	250.04	7.44	-27.1	-28.4	12.6	7.78e-05	0	44	0	4473225216	14	4148
2026-01-08 06:23:43.37	249.80	7.24	-26.8	-27.6	13.1	3.20e-05	0	44	0	4495245312	14	3949
2026-01-08 06:23:46.40	249.57	7.03	-33.0	-43.0	3.8	8.47e-01	0	44	104	4509925376	25	11319

#Closed at: 2026-01-08 06:23:47
#Recorded file [4509 MB]: D:/data/31010_260108_091320.dat