passes_logs/2026/01/08/R2M6_AANII_01/R2M6_AANII_01__20260108_124644_FENGYUN_3E_rec.log

#Pass ID: 20260108_124644_FENGYUN 3E
#Satellite: FENGYUN 3E
#Configuration: FENGYUN 3E
#almurnet v.1.7.20240730
#Start time: 2026-01-08 12:51:27

#Version: 2.2.20231116
#Station: R2M6_AANII_01
#Location: 30.233357 lon 59.946436 lat
#TLE: 1 49008U 21062A   26006.26767912  .00000427  00000+0  22170-3 0  9993
#TLE: 2 49008  98.7475  11.4982 0001602 156.1158 204.0093 14.19885456233607

#Time	Az	El	Level	Level2	SNR	BER	BlckErr	Temp	State	Recorded	gain1	gain2
2026-01-08 12:51:27.89	52.02	24.86	-33.5	-44.9	3.8	8.46e-01	0	43	0	0	26	13479
2026-01-08 12:51:29.90	51.44	24.89	-33.9	-43.2	3.8	8.45e-01	0	43	104	0	28	10476
2026-01-08 12:51:31.90	50.86	24.92	-34.0	-43.3	3.8	8.46e-01	0	43	104	0	28	10513
2026-01-08 12:51:33.91	50.27	24.94	-33.9	-43.2	3.8	8.47e-01	0	43	104	0	28	10429
2026-01-08 12:51:35.91	49.69	24.96	-33.9	-43.2	3.8	8.46e-01	0	43	104	0	28	10461
2026-01-08 12:51:37.90	49.10	24.97	-33.9	-43.2	3.8	8.47e-01	0	43	104	0	28	10473
2026-01-08 12:51:39.91	48.51	24.99	-33.9	-43.2	3.8	8.45e-01	0	43	104	0	28	10502
2026-01-08 12:51:41.91	47.93	25.00	-33.9	-43.1	3.8	8.45e-01	0	43	104	0	28	10397
2026-01-08 12:51:43.92	47.34	25.00	-34.0	-43.4	3.8	8.46e-01	0	43	104	0	28	10555
2026-01-08 12:51:45.93	46.75	25.01	-33.9	-43.2	3.8	8.46e-01	0	43	104	0	28	10524
2026-01-08 12:51:47.93	46.16	25.01	-33.8	-43.1	3.8	8.46e-01	0	44	104	0	28	10413
2026-01-08 12:51:49.92	45.58	25.00	-34.0	-43.3	3.8	8.46e-01	0	43	104	0	28	10567
2026-01-08 12:51:51.92	45.00	25.00	-33.9	-43.1	3.8	8.46e-01	0	43	104	0	28	10370
2026-01-08 12:51:53.93	44.41	24.99	-33.8	-42.9	3.8	8.45e-01	0	43	104	0	28	10249
2026-01-08 12:51:55.93	43.82	24.97	-33.7	-42.7	3.8	8.46e-01	0	43	104	0	28	10103
2026-01-08 12:51:57.93	43.24	24.96	-33.5	-42.1	3.8	8.46e-01	0	44	104	0	28	9695
2026-01-08 12:51:59.93	42.65	24.94	-33.5	-41.9	3.8	8.46e-01	0	43	104	0	28	9552
2026-01-08 12:52:01.92	42.07	24.91	-33.5	-42.1	3.8	8.46e-01	0	44	104	0	28	9744
2026-01-08 12:52:03.92	41.49	24.89	-33.5	-42.3	3.8	8.45e-01	0	44	104	0	28	9898
2026-01-08 12:52:05.93	40.91	24.86	-33.4	-42.0	3.8	8.45e-01	0	44	104	0	28	9690
2026-01-08 12:52:07.93	40.33	24.82	-33.4	-41.9	3.8	8.46e-01	0	44	104	0	27	9548
2026-01-08 12:52:09.94	39.75	24.79	-33.4	-41.8	3.8	8.46e-01	0	44	104	0	27	9494
2026-01-08 12:52:11.94	39.17	24.75	-33.5	-42.3	3.8	8.46e-01	0	44	104	0	27	9938
2026-01-08 12:52:13.95	38.59	24.71	-33.5	-42.6	3.8	8.47e-01	0	44	104	0	27	10223
2026-01-08 12:52:15.95	38.02	24.66	-33.4	-41.9	3.8	8.46e-01	0	43	104	0	27	9572
2026-01-08 12:52:17.95	37.44	24.61	-32.9	-38.4	4.0	8.42e-01	0	44	104	0	27	6823
2026-01-08 12:52:19.95	36.87	24.56	-31.5	-34.3	6.9	7.77e-01	0	44	104	0	24	4941
2026-01-08 12:52:21.96	36.30	24.51	-27.6	-28.2	13.3	5.83e-05	0	44	0	8388608	16	3830
2026-01-08 12:52:23.96	35.74	24.45	-27.6	-28.8	13.1	2.40e-05	0	44	0	23068672	15	4100
2026-01-08 12:52:25.96	35.17	24.39	-26.9	-27.1	14.1	2.20e-06	0	44	0	37748736	15	3675
2026-01-08 12:52:27.95	34.61	24.33	-26.2	-26.6	14.9	0.00e+00	0	44	0	51380224	13	3758
2026-01-08 12:52:29.94	34.06	24.26	-25.9	-26.4	15.3	0.00e+00	0	44	0	66060288	12	3813
2026-01-08 12:52:31.95	33.50	24.19	-25.9	-26.4	15.2	0.00e+00	0	44	0	80740352	12	3813
2026-01-08 12:52:33.94	32.94	24.12	-26.1	-26.3	15.0	0.00e+00	0	44	0	94371840	13	3687
2026-01-08 12:52:35.95	32.39	24.05	-24.8	-24.9	16.7	0.00e+00	0	44	0	109051904	10	3666
2026-01-08 12:52:37.95	31.84	23.97	-23.8	-23.8	17.7	0.00e+00	0	44	0	123731968	8	3621
2026-01-08 12:52:39.96	31.29	23.89	-23.2	-23.0	18.3	0.00e+00	0	44	0	138412032	7	3550
2026-01-08 12:52:41.97	30.74	23.81	-23.1	-22.9	18.4	0.00e+00	0	44	0	153092096	7	3526
2026-01-08 12:52:43.97	30.20	23.73	-23.2	-23.1	18.3	0.00e+00	0	44	0	167772160	7	3573
2026-01-08 12:52:45.96	29.67	23.64	-23.2	-23.2	18.3	0.00e+00	0	44	0	181403648	7	3573
2026-01-08 12:52:47.96	29.13	23.55	-23.4	-23.6	18.0	0.00e+00	0	43	0	196083712	7	3682
2026-01-08 12:52:49.97	28.60	23.46	-23.4	-23.5	18.0	0.00e+00	0	44	0	210763776	7	3655
2026-01-08 12:52:51.97	28.07	23.36	-23.5	-23.7	18.0	0.00e+00	0	44	0	225443840	7	3695
2026-01-08 12:52:53.95	27.55	23.27	-23.7	-24.1	17.7	0.00e+00	0	44	0	239075328	7	3793
2026-01-08 12:52:55.96	27.02	23.17	-23.4	-23.5	18.1	0.00e+00	0	44	0	253755392	7	3649
2026-01-08 12:52:57.96	26.50	23.07	-23.4	-23.6	18.0	0.00e+00	0	44	0	268435456	7	3666
2026-01-08 12:52:59.98	25.98	22.97	-23.2	-23.1	18.3	0.00e+00	0	44	0	283115520	7	3560
2026-01-08 12:53:01.98	25.47	22.86	-23.2	-23.1	18.2	0.00e+00	0	44	0	296747008	7	3572
2026-01-08 12:53:03.99	24.96	22.75	-23.2	-23.2	18.2	0.00e+00	0	44	0	311427072	7	3584
2026-01-08 12:53:06.00	24.45	22.65	-23.3	-23.4	18.1	0.00e+00	0	44	0	326107136	7	3628
2026-01-08 12:53:08.01	23.95	22.53	-23.3	-23.4	18.1	0.00e+00	0	44	0	340787200	7	3635
2026-01-08 12:53:10.00	23.45	22.42	-23.6	-24.0	17.8	0.00e+00	0	44	0	355467264	7	3758
2026-01-08 12:53:12.00	22.96	22.31	-23.3	-23.2	18.1	0.00e+00	0	43	0	370147328	7	3592
2026-01-08 12:53:14.00	22.47	22.19	-23.3	-23.4	18.1	0.00e+00	0	43	0	383778816	7	3623
2026-01-08 12:53:16.02	21.98	22.07	-23.3	-23.4	18.1	0.00e+00	0	44	0	398458880	7	3634
2026-01-08 12:53:18.01	21.50	21.95	-23.4	-23.5	18.0	0.00e+00	0	44	0	413138944	7	3660
2026-01-08 12:53:20.01	21.02	21.83	-23.4	-23.6	18.0	0.00e+00	0	44	0	427819008	7	3678
2026-01-08 12:53:22.02	20.54	21.71	-23.3	-23.3	18.1	0.00e+00	0	44	0	442499072	7	3601
2026-01-08 12:53:24.02	20.07	21.59	-23.3	-23.4	18.1	0.00e+00	0	44	0	456130560	7	3623
2026-01-08 12:53:26.03	19.60	21.46	-23.4	-23.6	17.9	0.00e+00	0	44	0	470810624	7	3675
2026-01-08 12:53:28.02	19.14	21.33	-23.5	-23.8	17.8	0.00e+00	0	44	0	485490688	7	3727
2026-01-08 12:53:30.02	18.68	21.21	-23.6	-24.1	17.7	0.00e+00	0	43	0	500170752	7	3775
2026-01-08 12:53:32.02	18.22	21.08	-23.8	-24.3	17.6	0.00e+00	0	44	0	513802240	7	3834
2026-01-08 12:53:34.01	17.77	20.95	-23.5	-23.7	17.8	0.00e+00	0	43	0	528482304	7	3707
2026-01-08 12:53:36.02	17.32	20.81	-23.6	-23.9	17.8	0.00e+00	0	44	0	543162368	7	3750
2026-01-08 12:53:38.02	16.88	20.68	-23.7	-24.1	17.6	0.00e+00	0	44	0	557842432	7	3797
2026-01-08 12:53:40.02	16.44	20.55	-23.7	-24.2	17.6	0.00e+00	0	44	0	571473920	7	3805
2026-01-08 12:53:42.03	16.00	20.41	-23.6	-24.0	17.7	0.00e+00	0	44	0	586153984	7	3765
2026-01-08 12:53:44.02	15.57	20.28	-23.5	-23.8	17.8	0.00e+00	0	44	0	600834048	7	3728
2026-01-08 12:53:46.03	15.14	20.14	-23.6	-24.1	17.6	0.00e+00	0	44	0	615514112	7	3781
2026-01-08 12:53:48.03	14.72	20.00	-23.8	-24.3	17.5	0.00e+00	0	44	0	629145600	7	3845
2026-01-08 12:53:50.03	14.29	19.86	-23.8	-24.4	17.4	0.00e+00	0	44	0	643825664	7	3867
2026-01-08 12:53:52.03	13.88	19.72	-23.9	-24.5	17.4	0.00e+00	0	43	0	658505728	7	3892
2026-01-08 12:53:54.03	13.46	19.58	-23.8	-24.4	17.4	0.00e+00	0	44	0	673185792	7	3855
2026-01-08 12:53:56.03	13.05	19.44	-23.8	-24.5	17.4	0.00e+00	0	43	0	687865856	7	3871
2026-01-08 12:53:58.02	12.65	19.30	-23.9	-24.5	17.4	0.00e+00	0	44	0	701497344	7	3890
2026-01-08 12:54:00.02	12.25	19.16	-23.9	-24.5	17.4	0.00e+00	0	43	0	716177408	7	3882
2026-01-08 12:54:02.00	11.86	19.01	-23.8	-24.4	17.4	0.00e+00	0	44	0	730857472	7	3867
2026-01-08 12:54:04.01	11.46	18.87	-23.9	-24.6	17.3	0.00e+00	0	44	0	745537536	7	3914
2026-01-08 12:54:05.99	11.07	18.73	-24.0	-24.8	17.2	0.00e+00	0	44	0	759169024	7	3959
2026-01-08 12:54:07.99	10.69	18.58	-24.2	-24.8	17.0	0.00e+00	0	44	0	773849088	8	3843
2026-01-08 12:54:10.00	10.30	18.44	-24.2	-24.7	17.0	0.00e+00	0	44	0	788529152	8	3832
2026-01-08 12:54:12.01	9.92	18.29	-24.3	-25.0	16.9	0.00e+00	0	44	0	803209216	8	3885
2026-01-08 12:54:14.01	9.55	18.14	-24.1	-24.5	17.1	0.00e+00	0	44	0	816840704	8	3783
2026-01-08 12:54:16.01	9.17	18.00	-24.3	-24.9	16.9	0.00e+00	0	44	0	831520768	8	3875
2026-01-08 12:54:18.01	8.81	17.85	-24.4	-25.3	16.7	0.00e+00	0	44	0	846200832	8	3963
2026-01-08 12:54:20.01	8.44	17.70	-25.1	-26.0	16.5	0.00e+00	0	44	0	860880896	9	3969
2026-01-08 12:54:22.01	8.08	17.55	-24.6	-25.2	16.5	0.00e+00	0	44	0	875560960	9	3841
2026-01-08 12:54:24.01	7.72	17.41	-24.7	-25.3	16.4	0.00e+00	0	44	0	889192448	9	3862
2026-01-08 12:54:26.01	7.37	17.26	-24.8	-25.4	16.3	0.00e+00	0	44	0	903872512	9	3894
2026-01-08 12:54:28.01	7.02	17.11	-24.8	-25.6	16.3	0.00e+00	0	44	0	918552576	9	3938
2026-01-08 12:54:30.01	6.67	16.96	-24.8	-25.6	16.2	0.00e+00	0	44	0	933232640	9	3939
2026-01-08 12:54:32.00	6.33	16.81	-24.7	-25.3	16.4	0.00e+00	0	44	0	946864128	9	3870
2026-01-08 12:54:34.00	5.99	16.66	-24.6	-25.1	16.5	0.00e+00	0	44	0	961544192	9	3823
2026-01-08 12:54:36.00	5.65	16.51	-24.6	-25.1	16.5	1.10e-06	0	44	0	976224256	9	3819
2026-01-08 12:54:37.99	5.32	16.37	-24.8	-25.6	16.2	0.00e+00	0	44	0	989855744	9	3936
2026-01-08 12:54:40.00	4.99	16.22	-24.9	-25.8	16.1	0.00e+00	0	44	0	1004535808	9	3977
2026-01-08 12:54:42.02	4.66	16.07	-25.1	-25.8	15.9	0.00e+00	0	44	0	1019215872	10	3869
2026-01-08 12:54:44.03	4.34	15.92	-25.3	-26.2	15.6	0.00e+00	0	44	0	1033895936	10	3970
2026-01-08 12:54:46.02	4.02	15.77	-25.0	-25.5	16.0	0.00e+00	0	44	0	1048576000	10	3801
2026-01-08 12:54:48.02	3.70	15.62	-25.0	-25.5	16.0	0.00e+00	0	44	0	1063256064	10	3800
2026-01-08 12:54:50.02	3.39	15.47	-25.0	-25.5	16.0	0.00e+00	0	43	0	1076887552	10	3809
2026-01-08 12:54:52.02	3.08	15.32	-25.0	-25.4	16.0	0.00e+00	0	44	0	1091567616	10	3782
2026-01-08 12:54:54.02	2.77	15.17	-25.3	-26.1	15.6	0.00e+00	0	44	0	1106247680	10	3947
2026-01-08 12:54:56.02	2.47	15.02	-25.2	-25.9	15.7	0.00e+00	0	44	0	1120927744	10	3913
2026-01-08 12:54:58.02	2.17	14.87	-25.4	-26.3	15.5	0.00e+00	0	43	0	1134559232	10	4005
2026-01-08 12:55:00.02	1.87	14.72	-25.6	-26.7	15.3	0.00e+00	0	43	0	1149239296	10	4108
2026-01-08 12:55:02.02	1.58	14.57	-25.8	-26.6	15.0	0.00e+00	0	44	0	1163919360	11	3981
2026-01-08 12:55:04.03	1.28	14.43	-25.9	-26.9	14.9	0.00e+00	0	44	0	1178599424	11	4041
2026-01-08 12:55:06.04	0.99	14.28	-25.7	-26.6	15.0	0.00e+00	0	43	0	1192230912	11	3965
2026-01-08 12:55:08.04	0.71	14.13	-25.5	-26.1	15.3	0.00e+00	0	44	0	1206910976	11	3845
2026-01-08 12:55:10.03	0.43	13.98	-25.5	-26.0	15.3	0.00e+00	0	44	0	1221591040	11	3832
2026-01-08 12:55:12.02	0.15	13.83	-25.3	-25.5	15.6	0.00e+00	0	44	0	1236271104	11	3718
2026-01-08 12:55:14.03	359.87	13.69	-25.4	-25.8	15.5	0.00e+00	0	44	0	1250951168	11	3773
2026-01-08 12:55:16.02	359.60	13.54	-25.5	-26.1	15.3	0.00e+00	0	44	0	1264582656	11	3852
2026-01-08 12:55:18.02	359.32	13.39	-25.7	-26.6	15.0	0.00e+00	0	44	0	1279262720	11	3977
2026-01-08 12:55:20.02	359.05	13.24	-25.8	-26.8	14.9	0.00e+00	0	44	0	1293942784	11	4019
2026-01-08 12:55:22.02	358.79	13.10	-25.8	-26.7	14.9	0.00e+00	0	44	0	1308622848	11	3990
2026-01-08 12:55:24.02	358.53	12.95	-25.6	-26.4	15.0	0.00e+00	0	44	0	1322254336	11	3931
2026-01-08 12:55:26.02	358.26	12.81	-25.5	-26.0	15.3	0.00e+00	0	44	0	1336934400	11	3829
2026-01-08 12:55:28.02	358.01	12.66	-25.5	-26.1	15.2	0.00e+00	0	44	0	1351614464	11	3845
2026-01-08 12:55:30.02	357.75	12.51	-25.6	-26.3	15.1	0.00e+00	0	44	0	1366294528	11	3908
2026-01-08 12:55:32.02	357.50	12.37	-25.7	-26.4	15.0	0.00e+00	0	44	0	1379926016	11	3936
2026-01-08 12:55:34.02	357.25	12.22	-25.7	-26.5	14.9	0.00e+00	0	44	0	1394606080	11	3965
2026-01-08 12:55:36.02	357.00	12.08	-25.8	-26.8	14.8	0.00e+00	0	44	0	1409286144	11	4036
2026-01-08 12:55:38.02	356.76	11.94	-25.9	-27.1	14.6	0.00e+00	0	44	0	1423966208	11	4095
2026-01-08 12:55:40.03	356.51	11.79	-26.0	-27.2	14.6	0.00e+00	0	44	0	1438646272	11	4129
2026-01-08 12:55:42.03	356.27	11.65	-26.1	-27.4	14.5	0.00e+00	0	44	0	1452277760	11	4179
2026-01-08 12:55:44.04	356.03	11.50	-25.9	-26.6	14.5	0.00e+00	0	44	0	1466957824	12	3878
2026-01-08 12:55:46.04	355.80	11.36	-26.0	-26.8	14.4	0.00e+00	0	43	0	1481637888	12	3926
2026-01-08 12:55:48.04	355.56	11.22	-26.0	-26.8	14.3	2.20e-06	0	44	0	1496317952	12	3933
2026-01-08 12:55:50.03	355.33	11.08	-26.0	-26.8	14.4	0.00e+00	0	44	0	1509949440	12	3935
2026-01-08 12:55:52.03	355.10	10.93	-26.0	-26.7	14.4	0.00e+00	0	44	0	1524629504	12	3917
2026-01-08 12:55:54.01	354.88	10.79	-26.1	-27.0	14.2	0.00e+00	0	43	0	1539309568	12	3974
2026-01-08 12:55:56.01	354.66	10.65	-26.0	-26.8	14.3	1.10e-06	0	44	0	1553989632	12	3924
2026-01-08 12:55:58.00	354.43	10.51	-25.9	-26.5	14.5	1.10e-06	0	44	0	1567621120	12	3867
2026-01-08 12:56:00.01	354.21	10.37	-25.9	-26.5	14.5	0.00e+00	0	44	0	1582301184	12	3872
2026-01-08 12:56:01.98	354.00	10.23	-25.6	-25.8	14.9	1.10e-06	0	44	0	1596981248	12	3697
2026-01-08 12:56:03.98	353.78	10.10	-25.7	-26.0	14.7	1.10e-06	0	44	0	1610612736	12	3749
2026-01-08 12:56:05.97	353.57	9.96	-25.9	-26.5	14.5	0.00e+00	0	44	0	1625292800	12	3858
2026-01-08 12:56:07.97	353.36	9.82	-25.9	-26.6	14.4	0.00e+00	0	44	0	1639972864	12	3877
2026-01-08 12:56:09.97	353.15	9.68	-26.2	-27.1	14.1	0.00e+00	0	44	0	1654652928	12	4010
2026-01-08 12:56:11.98	352.94	9.54	-26.3	-27.3	13.9	1.10e-06	0	44	0	1668284416	12	4074
2026-01-08 12:56:13.97	352.74	9.40	-26.5	-28.0	13.6	4.50e-06	0	44	0	1682964480	12	4239
2026-01-08 12:56:15.97	352.54	9.27	-26.6	-27.6	13.5	1.25e-05	0	44	0	1697644544	13	4034
2026-01-08 12:56:17.97	352.33	9.13	-26.8	-28.0	13.2	2.40e-05	0	44	0	1712324608	13	4155
2026-01-08 12:56:19.98	352.13	8.99	-26.8	-28.0	13.2	1.60e-05	0	44	0	1727004672	13	4161
2026-01-08 12:56:21.97	351.94	8.86	-27.2	-28.6	12.6	7.78e-05	0	44	0	1740636160	14	4202
2026-01-08 12:56:23.97	351.74	8.72	-26.9	-27.8	13.1	3.43e-05	0	44	0	1755316224	14	3988
2026-01-08 12:56:25.97	351.55	8.59	-26.7	-27.3	13.3	1.14e-05	0	44	0	1769996288	14	3869
2026-01-08 12:56:27.97	351.36	8.45	-26.7	-27.4	13.3	2.17e-05	0	44	0	1784676352	14	3890
2026-01-08 12:56:29.98	351.17	8.32	-26.8	-27.7	13.1	2.86e-05	0	44	0	1798307840	14	3955
2026-01-08 12:56:31.96	350.98	8.18	-26.7	-27.4	13.2	1.37e-05	0	44	0	1812987904	14	3896
2026-01-08 12:56:33.96	350.79	8.05	-26.7	-27.3	13.3	2.28e-05	0	43	0	1827667968	14	3854
2026-01-08 12:56:35.97	350.61	7.92	-26.7	-27.5	13.1	1.60e-05	0	44	0	1842348032	14	3907
2026-01-08 12:56:37.95	350.43	7.79	-26.8	-27.6	13.1	2.17e-05	0	44	0	1855979520	14	3931
2026-01-08 12:56:39.97	350.24	7.65	-26.7	-27.3	13.2	1.02e-05	0	44	0	1870659584	14	3877
2026-01-08 12:56:41.97	350.06	7.52	-27.1	-28.3	12.6	4.46e-05	0	44	0	1885339648	14	4127
2026-01-08 12:56:43.98	349.89	7.39	-27.0	-28.1	12.7	6.40e-05	0	44	0	1900019712	14	4065
2026-01-08 12:56:45.98	349.71	7.26	-27.0	-28.1	12.7	4.92e-05	0	44	0	1914699776	14	4085
2026-01-08 12:56:47.97	349.54	7.13	-26.9	-27.8	12.9	4.11e-05	0	44	0	1928331264	14	3989
2026-01-08 12:56:49.97	349.36	7.00	-33.0	-42.6	3.8	8.46e-01	0	44	104	1932525568	25	10876

#Closed at: 2026-01-08 12:56:50
#Recorded file [1932 MB]: D:/data/31010_260108_155220.dat