passes_logs/2026/01/08/R2M6_AANII_01/R2M6_AANII_01__20260108_011214_AQUA_rec.log

#Pass ID: 20260108_011214_AQUA
#Satellite: AQUA
#Configuration: AQUA
#almurnet v.1.7.20240730
#Start time: 2026-01-08 01:17:33

#Version: 2.2.20231116
#Station: R2M6_AANII_01
#Location: 30.233357 lon 59.946436 lat
#TLE: 1 27424U 02022A   26004.96787593  .00001598  00000+0  32997-3 0  9996
#TLE: 2 27424  98.4069 331.2279 0002002  90.2377   0.6092 14.61798176259425

#Time	Az	El	Level	Level2	SNR	BER	BlckErr	Temp	State	Recorded	gain1	gain2
2026-01-08 01:17:33.84	106.23	42.21	-33.6	-44.8	3.8	8.45e-01	0	44	0	0	27	13004
2026-01-08 01:17:35.83	107.41	42.11	-34.3	-53.7	3.8	7.49e-01	0	44	104	0	29	33489
2026-01-08 01:17:37.85	108.60	42.01	-34.4	-53.8	3.8	7.46e-01	0	44	104	0	29	33730
2026-01-08 01:17:39.85	109.77	41.89	-34.4	-53.9	3.8	7.45e-01	0	44	104	0	29	33831
2026-01-08 01:17:41.86	110.93	41.75	-34.4	-53.8	3.8	7.46e-01	0	44	104	0	29	33808
2026-01-08 01:17:43.84	112.07	41.61	-34.3	-53.8	3.8	7.47e-01	0	44	104	0	29	33617
2026-01-08 01:17:45.84	113.21	41.46	-34.3	-53.7	3.8	7.46e-01	0	44	104	0	29	33628
2026-01-08 01:17:47.86	114.35	41.29	-34.3	-53.7	3.8	7.45e-01	0	44	104	0	29	33604
2026-01-08 01:17:49.86	115.47	41.11	-34.3	-53.6	3.8	7.43e-01	0	44	104	0	29	33313
2026-01-08 01:17:51.87	116.58	40.92	-34.2	-53.5	3.8	7.45e-01	0	44	104	0	29	33168
2026-01-08 01:17:53.87	117.67	40.72	-34.1	-53.3	3.8	7.47e-01	0	44	104	0	29	32650
2026-01-08 01:17:55.87	118.74	40.51	-34.0	-53.6	3.8	7.44e-01	0	44	104	0	28	34393
2026-01-08 01:17:57.88	119.81	40.29	-33.8	-53.3	3.8	7.45e-01	0	44	104	0	28	33838
2026-01-08 01:17:59.88	120.86	40.07	-33.8	-52.7	3.8	7.44e-01	0	44	104	0	28	31479
2026-01-08 01:18:01.88	121.89	39.83	-33.8	-53.1	3.8	7.43e-01	0	44	104	0	28	33286
2026-01-08 01:18:03.87	122.90	39.59	-33.8	-53.0	3.8	7.47e-01	0	44	104	0	28	32907
2026-01-08 01:18:05.87	123.91	39.33	-33.8	-53.1	3.8	7.43e-01	0	44	104	0	28	33149
2026-01-08 01:18:07.86	124.89	39.08	-33.8	-53.1	3.8	7.47e-01	0	44	104	0	28	33387
2026-01-08 01:18:09.87	125.86	38.81	-33.8	-53.1	3.8	7.46e-01	0	44	104	0	28	33101
2026-01-08 01:18:11.87	126.82	38.53	-33.8	-52.8	3.8	7.44e-01	0	44	104	0	28	32267
2026-01-08 01:18:13.86	127.75	38.26	-33.8	-52.6	3.8	7.44e-01	0	44	104	0	28	31273
2026-01-08 01:18:15.87	128.68	37.97	-33.8	-52.4	3.8	7.45e-01	0	44	104	0	28	30747
2026-01-08 01:18:17.87	129.58	37.68	-33.8	-53.1	3.8	7.47e-01	0	44	104	0	28	33202
2026-01-08 01:18:19.88	130.48	37.38	-33.6	-47.3	4.1	7.34e-01	0	44	104	0	28	17431
2026-01-08 01:18:21.88	131.35	37.08	-33.5	-46.0	6.0	6.88e-01	0	44	0	524288	28	15102
2026-01-08 01:18:23.88	132.21	36.78	-32.7	-39.2	12.0	6.05e-01	0	44	104	1048576	27	7570
2026-01-08 01:18:25.88	133.05	36.47	-29.4	-31.4	19.8	6.02e-01	0	43	0	3145728	21	4544
2026-01-08 01:18:27.88	133.87	36.16	-31.5	-36.4	16.2	6.04e-01	0	44	0	6815744	23	6319
2026-01-08 01:18:29.88	134.68	35.85	-31.7	-36.1	15.4	6.04e-01	0	44	0	10485760	25	5940
2026-01-08 01:18:31.88	135.48	35.53	-31.5	-35.5	15.9	6.04e-01	0	44	0	14155776	25	5687
2026-01-08 01:18:33.87	136.25	35.21	-30.6	-33.7	17.7	6.05e-01	0	44	0	17825792	23	5133
2026-01-08 01:18:35.87	137.01	34.89	-29.8	-32.4	19.2	6.03e-01	0	44	0	21495808	21	4862
2026-01-08 01:18:37.87	137.76	34.57	-29.2	-31.4	20.1	6.06e-01	0	44	0	25165824	20	4648
2026-01-08 01:18:39.86	138.49	34.24	-29.2	-31.9	19.8	6.06e-01	0	44	0	29360128	19	4907
2026-01-08 01:18:41.85	139.21	33.92	-29.1	-31.7	19.2	6.05e-01	0	44	0	33030144	19	4843
2026-01-08 01:18:43.85	139.91	33.59	-29.2	-31.9	20.1	6.01e-01	0	44	0	36700160	19	4919
2026-01-08 01:18:45.86	140.60	33.26	-29.0	-32.0	19.9	6.03e-01	0	44	0	40370176	18	5051
2026-01-08 01:18:47.85	141.28	32.93	-28.7	-31.2	20.8	6.03e-01	0	44	0	44040192	18	4803
2026-01-08 01:18:49.86	141.94	32.60	-28.7	-31.2	20.8	6.02e-01	0	44	0	47710208	18	4793
2026-01-08 01:18:51.86	142.59	32.27	-28.9	-31.7	20.5	6.03e-01	0	43	0	51904512	18	4946
2026-01-08 01:18:53.86	143.23	31.94	-28.7	-31.1	20.8	6.05e-01	0	44	0	55574528	18	4755
2026-01-08 01:18:55.86	143.85	31.62	-28.7	-31.1	20.9	6.03e-01	0	44	0	59244544	18	4749
2026-01-08 01:18:57.86	144.46	31.29	-28.7	-31.1	20.9	6.04e-01	0	43	0	62914560	18	4746
2026-01-08 01:18:59.87	145.06	30.96	-28.8	-31.5	20.6	6.02e-01	0	44	0	66584576	18	4882
2026-01-08 01:19:01.86	145.64	30.63	-28.9	-31.6	20.5	6.03e-01	0	44	0	70254592	18	4921
2026-01-08 01:19:03.86	146.22	30.31	-28.8	-31.3	20.7	6.02e-01	0	44	0	73924608	18	4827
2026-01-08 01:19:05.85	146.77	29.98	-28.7	-31.2	20.8	6.06e-01	0	44	0	78118912	18	4779
2026-01-08 01:19:07.86	147.33	29.66	-28.8	-31.5	20.6	6.03e-01	0	44	0	81788928	18	4902
2026-01-08 01:19:09.85	147.87	29.33	-29.0	-32.0	20.3	6.03e-01	0	44	0	85458944	18	5071
2026-01-08 01:19:11.86	148.40	29.01	-29.0	-31.8	20.4	6.03e-01	0	43	0	89128960	18	4999
2026-01-08 01:19:13.86	148.91	28.69	-29.2	-32.0	20.0	6.04e-01	0	43	0	92798976	19	4951
2026-01-08 01:19:15.86	149.42	28.37	-29.2	-32.0	19.9	6.04e-01	0	44	0	96468992	19	4962
2026-01-08 01:19:17.84	149.91	28.06	-29.1	-32.2	20.1	6.03e-01	0	44	0	100663296	18	5139
2026-01-08 01:19:19.86	150.41	27.74	-29.5	-32.8	19.5	6.03e-01	0	44	0	104333312	19	5236
2026-01-08 01:19:21.87	150.89	27.42	-29.2	-32.0	19.9	6.04e-01	0	43	0	108003328	19	4945
2026-01-08 01:19:23.86	151.35	27.11	-29.1	-31.8	20.1	6.04e-01	0	44	0	111673344	19	4880
2026-01-08 01:19:25.85	151.81	26.81	-29.1	-31.7	20.0	6.05e-01	0	44	0	115343360	19	4861
2026-01-08 01:19:27.85	152.26	26.50	-29.2	-32.0	19.9	6.02e-01	0	44	0	119013376	19	4973
2026-01-08 01:19:29.84	152.70	26.19	-29.4	-32.4	19.7	6.05e-01	0	44	0	122683392	19	5093
2026-01-08 01:19:31.84	153.14	25.89	-29.5	-32.8	19.4	6.04e-01	0	44	0	126877696	19	5267
2026-01-08 01:19:33.84	153.56	25.59	-29.6	-32.5	19.2	6.03e-01	0	44	0	130547712	20	5032
2026-01-08 01:19:35.83	153.97	25.29	-29.6	-32.7	19.1	6.02e-01	0	43	0	134217728	20	5099
2026-01-08 01:19:37.83	154.38	24.99	-29.6	-32.4	19.2	6.04e-01	0	44	0	137887744	20	5002
2026-01-08 01:19:39.84	154.79	24.70	-29.7	-32.8	19.0	6.03e-01	0	44	0	141557760	20	5137
2026-01-08 01:19:41.84	155.18	24.40	-29.6	-32.7	19.1	6.04e-01	0	44	0	145227776	20	5092
2026-01-08 01:19:43.84	155.57	24.11	-29.5	-32.3	19.3	6.01e-01	0	44	0	148897792	20	4952
2026-01-08 01:19:45.84	155.95	23.82	-29.6	-32.5	19.2	6.02e-01	0	44	0	153092096	20	5046
2026-01-08 01:19:47.85	156.32	23.54	-29.4	-32.6	19.5	6.03e-01	0	44	0	156762112	19	5182
2026-01-08 01:19:49.85	156.69	23.25	-29.5	-32.7	19.4	6.04e-01	0	43	0	160432128	19	5234
2026-01-08 01:19:51.85	157.04	22.97	-29.5	-32.7	19.4	6.04e-01	0	44	0	164102144	19	5234
2026-01-08 01:19:53.85	157.40	22.69	-29.5	-32.7	19.4	6.03e-01	0	44	0	167772160	19	5240
2026-01-08 01:19:55.85	157.74	22.41	-29.5	-32.9	19.2	6.03e-01	0	44	0	171442176	19	5295
2026-01-08 01:19:57.85	158.08	22.14	-29.8	-33.2	18.7	6.04e-01	0	44	0	175636480	20	5330
2026-01-08 01:19:59.86	158.42	21.86	-29.5	-32.5	19.1	6.03e-01	0	44	0	179306496	20	5076
2026-01-08 01:20:01.86	158.74	21.59	-29.5	-32.4	19.1	6.04e-01	0	44	0	182976512	20	5027
2026-01-08 01:20:03.85	159.06	21.33	-29.6	-33.1	19.1	6.02e-01	0	44	0	186646528	19	5383
2026-01-08 01:20:05.85	159.38	21.06	-29.7	-33.0	18.8	6.04e-01	0	43	0	190316544	20	5247
2026-01-08 01:20:07.85	159.69	20.80	-29.8	-33.3	18.5	6.05e-01	0	44	0	193986560	20	5376
2026-01-08 01:20:09.84	159.99	20.54	-29.4	-32.7	19.2	6.04e-01	0	44	0	198180864	19	5269
2026-01-08 01:20:11.85	160.29	20.28	-29.6	-33.1	19.1	6.04e-01	0	44	0	201850880	19	5382
2026-01-08 01:20:13.84	160.59	20.02	-29.6	-32.6	18.9	6.03e-01	0	44	0	205520896	20	5099
2026-01-08 01:20:15.84	160.88	19.76	-29.7	-32.8	18.8	6.05e-01	0	44	0	209190912	20	5171
2026-01-08 01:20:17.83	161.16	19.51	-29.5	-32.9	19.1	6.03e-01	0	44	0	212860928	19	5290
2026-01-08 01:20:19.82	161.44	19.26	-29.7	-32.9	18.8	6.03e-01	0	44	0	216530944	20	5208
2026-01-08 01:20:21.83	161.72	19.01	-29.8	-33.3	18.4	6.05e-01	0	43	0	220200960	20	5396
2026-01-08 01:20:23.83	161.99	18.77	-29.4	-32.7	19.2	6.01e-01	0	44	0	223870976	19	5248
2026-01-08 01:20:25.83	162.25	18.52	-29.3	-32.5	19.3	6.05e-01	0	44	0	228065280	19	5184
2026-01-08 01:20:27.84	162.52	18.28	-29.6	-33.2	18.9	6.03e-01	0	44	0	231735296	19	5429
2026-01-08 01:20:29.83	162.77	18.04	-29.3	-32.4	19.4	6.04e-01	0	43	0	235405312	19	5122
2026-01-08 01:20:31.83	163.03	17.80	-29.2	-32.1	19.6	6.02e-01	0	44	0	239075328	19	5015
2026-01-08 01:20:33.83	163.28	17.57	-29.3	-32.4	19.4	6.06e-01	0	44	0	242745344	19	5132
2026-01-08 01:20:35.83	163.52	17.33	-28.9	-32.1	19.7	6.05e-01	0	44	0	246415360	18	5181
2026-01-08 01:20:37.83	163.77	17.10	-29.0	-32.2	19.6	6.06e-01	0	44	0	250085376	18	5211
2026-01-08 01:20:39.84	164.01	16.87	-29.2	-32.1	19.4	6.05e-01	0	44	0	254279680	19	5066
2026-01-08 01:20:41.84	164.24	16.64	-29.2	-32.3	19.3	6.03e-01	0	44	0	257949696	19	5118
2026-01-08 01:20:43.82	164.47	16.41	-29.1	-32.0	19.5	6.03e-01	0	44	0	261619712	19	5018
2026-01-08 01:20:45.82	164.70	16.19	-29.3	-32.4	19.2	6.05e-01	0	44	0	265289728	19	5170
2026-01-08 01:20:47.82	164.92	15.97	-29.0	-31.8	19.6	6.05e-01	0	44	0	268959744	19	4965
2026-01-08 01:20:49.82	165.14	15.75	-29.0	-32.1	19.7	6.03e-01	0	44	0	272629760	18	5189
2026-01-08 01:20:51.83	165.36	15.53	-29.0	-32.2	19.6	6.03e-01	0	44	0	276824064	18	5226
2026-01-08 01:20:53.83	165.57	15.31	-29.0	-31.8	19.6	6.04e-01	0	44	0	280494080	19	4950
2026-01-08 01:20:55.83	165.78	15.09	-29.0	-32.2	19.7	6.03e-01	0	44	0	284164096	18	5183
2026-01-08 01:20:57.84	165.99	14.88	-29.1	-32.4	19.6	6.03e-01	0	44	0	287834112	18	5268
2026-01-08 01:20:59.85	166.20	14.67	-29.4	-32.6	18.6	6.05e-01	0	43	0	291504128	19	5238
2026-01-08 01:21:01.86	166.40	14.46	-29.1	-32.0	19.5	6.05e-01	0	44	0	295174144	19	5003
2026-01-08 01:21:03.86	166.60	14.25	-29.2	-32.1	19.0	6.04e-01	0	44	0	299368448	19	5060
2026-01-08 01:21:05.87	166.80	14.04	-29.2	-32.2	19.0	6.01e-01	0	44	0	303038464	19	5108
2026-01-08 01:21:07.87	166.99	13.83	-29.2	-32.2	19.3	6.02e-01	0	44	0	306708480	19	5095
2026-01-08 01:21:09.88	167.18	13.63	-29.2	-32.3	19.3	6.03e-01	0	44	0	310378496	19	5112
2026-01-08 01:21:11.87	167.37	13.43	-29.3	-32.4	19.2	6.02e-01	0	44	0	314048512	19	5185
2026-01-08 01:21:13.89	167.56	13.23	-29.1	-32.1	19.3	6.05e-01	0	44	0	317718528	19	5096
2026-01-08 01:21:15.88	167.74	13.03	-29.1	-32.6	19.2	6.03e-01	0	44	0	321912832	18	5395
2026-01-08 01:21:17.89	167.92	12.83	-28.0	-31.6	19.0	6.06e-01	0	44	0	325582848	18	5421
2026-01-08 01:21:19.90	168.10	12.63	-29.2	-32.4	18.4	6.09e-01	0	44	0	329252864	19	5218
2026-01-08 01:21:21.89	168.27	12.44	-29.2	-32.5	18.8	6.04e-01	0	44	0	332922880	19	5229
2026-01-08 01:21:23.88	168.44	12.25	-29.1	-32.6	19.2	6.03e-01	0	43	0	336592896	18	5379
2026-01-08 01:21:25.89	168.62	12.06	-27.9	-31.5	19.1	6.04e-01	0	43	0	340262912	18	5471
2026-01-08 01:21:27.89	168.78	11.87	-29.2	-32.4	19.0	6.02e-01	0	43	0	344457216	19	5171
2026-01-08 01:21:29.89	168.95	11.68	-29.3	-32.6	19.0	6.03e-01	0	44	0	348127232	19	5246
2026-01-08 01:21:31.90	169.12	11.49	-29.4	-32.8	18.8	6.03e-01	0	44	0	351797248	19	5321
2026-01-08 01:21:33.89	169.28	11.31	-29.4	-32.9	18.7	6.04e-01	0	44	0	355467264	19	5376
2026-01-08 01:21:35.89	169.44	11.12	-29.5	-33.0	18.7	6.05e-01	0	44	0	359137280	19	5428
2026-01-08 01:21:37.90	169.59	10.94	-29.6	-32.9	18.3	6.03e-01	0	44	0	362807296	20	5286
2026-01-08 01:21:39.90	169.75	10.76	-29.6	-33.0	18.2	6.01e-01	0	43	0	367001600	20	5300
2026-01-08 01:21:41.89	169.90	10.58	-29.7	-33.1	18.1	6.03e-01	0	44	0	370671616	20	5362
2026-01-08 01:21:43.89	170.06	10.40	-29.7	-33.3	18.1	6.03e-01	0	44	0	374341632	20	5421
2026-01-08 01:21:45.88	170.20	10.22	-29.5	-33.2	18.5	6.04e-01	0	43	0	378011648	19	5520
2026-01-08 01:21:47.89	170.35	10.05	-29.5	-33.3	18.4	6.02e-01	0	44	0	381681664	19	5535
2026-01-08 01:21:49.90	170.50	9.87	-29.5	-33.3	18.3	6.04e-01	0	44	0	385351680	19	5567
2026-01-08 01:21:51.90	170.64	9.70	-29.7	-33.5	17.9	6.04e-01	0	44	0	389021696	20	5523
2026-01-08 01:21:53.90	170.79	9.52	-29.5	-32.8	18.3	6.04e-01	0	44	0	393216000	20	5250
2026-01-08 01:21:55.89	170.93	9.35	-29.5	-32.9	18.2	6.05e-01	0	44	0	396886016	20	5322
2026-01-08 01:21:57.88	171.07	9.18	-29.5	-33.0	18.1	6.04e-01	0	44	0	400556032	20	5340
2026-01-08 01:21:59.89	171.20	9.01	-29.7	-33.4	17.8	6.02e-01	0	44	0	404226048	20	5499
2026-01-08 01:22:01.89	171.34	8.85	-29.9	-33.9	17.5	6.03e-01	0	43	0	407896064	20	5733
2026-01-08 01:22:03.89	171.48	8.68	-29.9	-34.0	17.4	6.04e-01	0	44	0	411566080	20	5788
2026-01-08 01:22:05.89	171.61	8.51	-30.0	-34.3	17.2	6.03e-01	0	43	0	415236096	20	5894
2026-01-08 01:22:07.89	171.74	8.35	-30.1	-34.5	17.0	6.04e-01	0	44	0	418906112	20	5987
2026-01-08 01:22:09.89	171.87	8.18	-30.2	-34.3	16.9	6.03e-01	0	44	0	423100416	21	5784
2026-01-08 01:22:11.89	172.00	8.02	-30.3	-34.6	16.6	6.01e-01	0	44	0	426770432	21	5918
2026-01-08 01:22:13.89	172.12	7.86	-30.0	-34.3	17.1	6.04e-01	0	44	0	430440448	20	5919
2026-01-08 01:22:15.88	172.25	7.70	-30.1	-34.6	16.9	6.05e-01	0	44	0	434110464	20	6042
2026-01-08 01:22:17.88	172.37	7.54	-30.5	-35.3	16.1	6.05e-01	0	44	0	437780480	21	6280
2026-01-08 01:22:19.87	172.50	7.38	-30.3	-34.9	16.3	6.03e-01	0	44	0	441450496	21	6063
2026-01-08 01:22:21.88	172.62	7.23	-30.2	-34.5	16.5	6.05e-01	0	44	0	445644800	21	5916
2026-01-08 01:22:23.88	172.74	7.07	-32.8	-51.7	3.9	7.43e-01	0	44	104	448266240	26	31857
2026-01-08 01:22:25.88	172.86	6.91	-33.3	-52.8	3.8	7.48e-01	0	44	104	448266240	27	33811

#Closed at: 2026-01-08 01:22:26
#Recorded file [448 MB]: D:/data/31010_260108_041824.dat