passes_logs/2026/01/08/R2M6_AANII_01/R2M6_AANII_01__20260108_014628_SUOMI_NPP_rec.log

#Pass ID: 20260108_014628_SUOMI NPP
#Satellite: SUOMI NPP
#Configuration: NPP
#almurnet v.1.7.20240730
#Start time: 2026-01-08 01:46:28

#Version: 2.2.20231116
#Station: R2M6_AANII_01
#Location: 30.233357 lon 59.946436 lat
#TLE: 1 37849U 11061A   26005.94084933  .00000134  00000+0  84554-4 0  9990
#TLE: 2 37849  98.7803 308.0679 0002567  79.1029 281.0436 14.19522657735426

#Time	Az	El	Level	Level2	SNR	BER	BlckErr	Temp	State	Recorded	gain1	gain2
2026-01-08 01:46:28.41	12.33	6.99	-31.9	-38.4	4.5	1.39e+00	0	41	0	0	23	7639
2026-01-08 01:46:31.41	12.13	7.20	-31.9	-38.1	6.2	2.61e-01	0	41	0	1048576	23	7349
2026-01-08 01:46:34.43	11.93	7.41	-31.9	-37.9	6.4	3.01e-01	0	41	0	7340032	23	7192
2026-01-08 01:46:37.45	11.72	7.63	-31.8	-37.4	6.7	1.86e-01	0	41	0	12582912	23	6849
2026-01-08 01:46:40.47	11.51	7.85	-31.3	-35.6	8.6	4.64e-02	0	41	0	18874368	22	5890
2026-01-08 01:46:43.49	11.30	8.06	-31.6	-36.1	7.8	7.54e-02	0	42	0	24117248	23	6069
2026-01-08 01:46:46.49	11.09	8.28	-31.6	-36.3	7.7	8.90e-02	0	42	0	29360128	23	6198
2026-01-08 01:46:49.51	10.87	8.50	-31.6	-36.2	7.7	7.49e-02	0	42	0	35651584	23	6131
2026-01-08 01:46:52.53	10.65	8.73	-31.7	-36.5	7.5	1.22e-01	0	42	0	40894464	23	6257
2026-01-08 01:46:55.55	10.42	8.95	-31.0	-34.4	9.5	1.57e-02	0	42	0	46137344	22	5290
2026-01-08 01:46:58.56	10.19	9.18	-31.1	-34.6	9.5	1.33e-02	0	42	0	52428800	22	5394
2026-01-08 01:47:01.57	9.96	9.40	-31.2	-34.9	9.3	1.55e-02	0	42	0	57671680	22	5518
2026-01-08 01:47:04.60	9.72	9.64	-31.2	-35.0	9.2	2.21e-02	0	42	0	63963136	22	5585
2026-01-08 01:47:07.61	9.48	9.87	-31.0	-34.1	9.8	1.60e-02	0	42	0	69206016	22	5179
2026-01-08 01:47:10.62	9.24	10.10	-30.4	-32.8	11.2	1.92e-03	0	42	0	74448896	21	4720
2026-01-08 01:47:13.64	8.99	10.33	-30.4	-33.2	10.6	1.63e-03	0	42	0	80740352	20	4990
2026-01-08 01:47:16.66	8.74	10.57	-30.3	-33.0	10.7	1.14e-03	0	43	0	85983232	20	4882
2026-01-08 01:47:19.68	8.48	10.81	-30.2	-32.5	11.9	6.77e-04	0	43	0	92274688	20	4693
2026-01-08 01:47:22.69	8.22	11.05	-30.2	-32.6	11.8	4.30e-04	0	43	0	97517568	20	4716
2026-01-08 01:47:25.70	7.95	11.29	-30.2	-32.6	11.8	3.17e-03	0	43	0	102760448	20	4743
2026-01-08 01:47:28.73	7.68	11.53	-30.2	-32.4	12.0	2.71e-03	0	43	0	109051904	20	4655
2026-01-08 01:47:31.74	7.41	11.77	-30.2	-32.6	12.0	3.06e-03	0	43	0	114294784	20	4707
2026-01-08 01:47:34.75	7.13	12.02	-30.1	-32.0	12.2	2.56e-04	0	43	0	120586240	20	4525
2026-01-08 01:47:37.77	6.84	12.27	-30.1	-32.2	12.2	3.55e-04	0	43	0	125829120	20	4586
2026-01-08 01:47:40.79	6.55	12.52	-30.3	-32.6	11.9	2.82e-04	0	43	0	131072000	20	4696
2026-01-08 01:47:43.81	6.26	12.77	-30.2	-32.3	12.2	3.14e-03	0	43	0	137363456	20	4583
2026-01-08 01:47:46.83	5.95	13.02	-30.2	-32.5	12.1	2.96e-03	0	43	0	142606336	20	4654
2026-01-08 01:47:49.84	5.65	13.28	-30.3	-32.7	11.9	3.27e-03	0	43	0	148897792	20	4732
2026-01-08 01:47:52.86	5.34	13.54	-30.2	-32.3	12.2	3.11e-03	0	43	0	154140672	20	4607
2026-01-08 01:47:55.88	5.02	13.80	-30.2	-32.3	12.2	2.79e-03	0	43	0	159383552	20	4601
2026-01-08 01:47:58.90	4.70	14.06	-30.1	-32.1	12.4	3.07e-03	0	43	0	165675008	20	4540
2026-01-08 01:48:01.91	4.37	14.32	-30.2	-32.4	12.2	2.17e-04	0	43	0	170917888	20	4639
2026-01-08 01:48:04.92	4.03	14.58	-30.1	-31.9	12.7	9.84e-05	0	43	0	177209344	20	4455
2026-01-08 01:48:07.94	3.69	14.85	-30.0	-31.6	12.8	2.94e-03	0	43	0	182452224	20	4326
2026-01-08 01:48:10.95	3.34	15.12	-29.5	-30.8	13.8	2.74e-03	0	43	0	187695104	19	4166
2026-01-08 01:48:13.98	2.99	15.39	-29.6	-31.0	13.7	2.46e-03	0	43	0	193986560	19	4237
2026-01-08 01:48:16.98	2.63	15.66	-29.8	-31.6	13.3	2.79e-03	0	43	0	199229440	19	4411
2026-01-08 01:48:20.00	2.26	15.94	-30.0	-31.7	12.8	5.26e-05	0	43	0	204472320	20	4358
2026-01-08 01:48:23.01	1.89	16.21	-30.0	-31.8	12.8	6.63e-05	0	43	0	210763776	20	4387
2026-01-08 01:48:26.03	1.50	16.49	-30.3	-32.5	12.4	9.91e-05	0	43	0	216006656	20	4623
2026-01-08 01:48:29.05	1.11	16.77	-29.9	-31.5	13.0	3.12e-05	0	43	0	222298112	20	4312
2026-01-08 01:48:32.06	0.72	17.05	-29.8	-31.5	13.4	2.44e-05	0	43	0	227540992	19	4395
2026-01-08 01:48:35.08	0.31	17.34	-30.0	-31.6	12.9	3.58e-05	0	43	0	232783872	20	4349
2026-01-08 01:48:38.10	359.90	17.62	-30.0	-31.5	13.0	3.73e-04	0	43	0	239075328	20	4307
2026-01-08 01:48:41.11	359.48	17.91	-29.9	-31.3	13.2	3.05e-04	0	43	0	244318208	20	4242
2026-01-08 01:48:44.13	359.05	18.20	-30.2	-32.1	12.7	4.01e-04	0	43	0	250609664	20	4479
2026-01-08 01:48:47.15	358.61	18.49	-30.2	-32.5	11.8	5.01e-04	0	43	0	255852544	19	4722
2026-01-08 01:48:50.17	358.17	18.78	-30.4	-32.7	12.3	1.80e-04	0	43	0	261095424	20	4682
2026-01-08 01:48:53.18	357.71	19.07	-30.4	-32.7	12.3	1.82e-04	0	43	0	267386880	20	4702
2026-01-08 01:48:56.19	357.25	19.37	-30.3	-32.5	12.5	1.72e-04	0	43	0	272629760	20	4616
2026-01-08 01:48:59.21	356.77	19.66	-30.3	-32.4	12.5	2.85e-03	0	43	0	278921216	20	4606
2026-01-08 01:49:02.23	356.29	19.96	-30.3	-32.3	12.6	2.53e-03	0	43	0	284164096	20	4555
2026-01-08 01:49:05.25	355.80	20.26	-30.4	-32.6	12.5	2.28e-03	0	43	0	289406976	20	4646
2026-01-08 01:49:08.26	355.30	20.56	-30.3	-32.4	12.5	2.13e-03	0	43	0	295698432	20	4599
2026-01-08 01:49:11.29	354.78	20.87	-30.1	-31.8	13.0	3.12e-05	0	43	0	300941312	20	4388
2026-01-08 01:49:14.31	354.26	21.17	-30.3	-32.5	12.5	5.18e-05	0	43	0	307232768	20	4621
2026-01-08 01:49:17.31	353.73	21.47	-30.6	-32.6	12.1	2.34e-03	0	43	0	312475648	21	4576
2026-01-08 01:49:20.33	353.18	21.78	-30.3	-32.4	12.7	1.97e-03	0	43	0	317718528	20	4556
2026-01-08 01:49:23.34	352.63	22.08	-30.4	-32.7	12.4	1.57e-03	0	43	0	324009984	20	4692
2026-01-08 01:49:26.36	352.06	22.39	-30.9	-33.5	11.5	2.50e-03	0	43	0	329252864	21	4890
2026-01-08 01:49:29.38	351.48	22.70	-31.0	-33.5	11.2	2.63e-03	0	44	0	335544320	22	4791
2026-01-08 01:49:32.39	350.89	23.01	-30.9	-33.7	11.4	2.89e-03	0	43	0	340787200	21	4962
2026-01-08 01:49:35.40	350.29	23.31	-30.6	-32.7	12.1	4.94e-04	0	43	0	346030080	21	4579
2026-01-08 01:49:38.42	349.68	23.62	-30.6	-32.6	12.2	1.29e-04	0	43	0	352321536	21	4567
2026-01-08 01:49:41.44	349.05	23.93	-30.2	-32.1	12.9	1.93e-03	0	44	0	357564416	20	4479
2026-01-08 01:49:44.47	348.41	24.24	-30.2	-32.0	12.9	1.99e-03	0	43	0	363855872	20	4442
2026-01-08 01:49:47.49	347.76	24.55	-30.6	-32.7	12.2	1.49e-03	0	43	0	369098752	21	4569
2026-01-08 01:49:50.51	347.09	24.86	-30.8	-33.3	11.7	4.98e-04	0	43	0	374341632	21	4805
2026-01-08 01:49:53.53	346.41	25.16	-30.5	-32.4	12.4	2.26e-04	0	43	0	380633088	21	4475
2026-01-08 01:49:56.55	345.72	25.47	-30.3	-32.4	12.7	2.62e-04	0	43	0	385875968	20	4561
2026-01-08 01:49:59.56	345.01	25.77	-30.3	-32.4	12.7	2.45e-04	0	44	0	392167424	20	4576
2026-01-08 01:50:02.57	344.30	26.08	-30.5	-32.2	12.6	1.42e-04	0	44	0	397410304	21	4412
2026-01-08 01:50:05.59	343.56	26.38	-30.3	-32.4	12.9	4.71e-04	0	43	0	402653184	20	4545
2026-01-08 01:50:08.61	342.81	26.68	-30.8	-33.2	11.9	4.34e-04	0	43	0	408944640	21	4737
2026-01-08 01:50:11.63	342.05	26.98	-30.9	-33.1	11.6	4.75e-04	0	44	0	414187520	22	4620
2026-01-08 01:50:14.65	341.27	27.27	-30.0	-31.5	13.3	5.52e-04	0	43	0	419430400	20	4258
2026-01-08 01:50:17.66	340.48	27.56	-29.5	-30.7	14.2	1.19e-03	0	44	0	425721856	19	4100
2026-01-08 01:50:20.67	339.68	27.85	-30.3	-32.3	12.8	1.66e-03	0	44	0	430964736	20	4550
2026-01-08 01:50:23.69	338.86	28.14	-30.3	-32.0	12.7	1.82e-04	0	43	0	437256192	21	4332
2026-01-08 01:50:26.71	338.02	28.42	-30.1	-31.8	13.2	1.44e-05	0	44	0	442499072	20	4377
2026-01-08 01:50:29.73	337.17	28.70	-31.1	-33.8	11.1	1.16e-03	0	44	0	447741952	22	4897
2026-01-08 01:50:32.75	336.31	28.97	-30.9	-33.5	11.6	1.34e-03	0	44	0	454033408	21	4873
2026-01-08 01:50:35.77	335.42	29.24	-30.6	-32.8	12.1	6.67e-04	0	44	0	459276288	21	4612
2026-01-08 01:50:38.78	334.53	29.50	-31.3	-34.5	10.6	2.20e-03	0	44	0	465567744	22	5165
2026-01-08 01:50:41.80	333.62	29.76	-31.8	-35.9	9.0	2.50e-02	0	44	0	470810624	23	5744
2026-01-08 01:50:44.81	332.70	30.01	-31.7	-35.1	9.7	1.17e-02	0	44	0	476053504	23	5369
2026-01-08 01:50:47.82	331.76	30.25	-32.0	-36.1	8.5	2.05e-02	0	44	0	482344960	24	5767
2026-01-08 01:50:50.84	330.81	30.49	-31.9	-35.5	9.0	3.11e-02	0	44	0	487587840	24	5474
2026-01-08 01:50:53.86	329.84	30.73	-31.6	-34.7	10.2	6.12e-03	0	44	0	493879296	23	5146
2026-01-08 01:50:56.88	328.86	30.95	-31.9	-35.9	9.2	1.59e-02	0	44	0	499122176	23	5744
2026-01-08 01:50:59.89	327.87	31.16	-32.0	-36.1	8.6	3.58e-02	0	44	0	504365056	24	5747
2026-01-08 01:51:02.88	326.87	31.37	-31.7	-35.4	9.5	1.70e-02	0	44	0	510656512	23	5488
2026-01-08 01:51:05.90	325.84	31.57	-31.6	-35.2	9.6	1.26e-02	0	44	0	515899392	23	5428
2026-01-08 01:51:08.92	324.81	31.76	-31.7	-35.2	9.6	9.24e-03	0	44	0	522190848	23	5406
2026-01-08 01:51:11.94	323.76	31.94	-30.6	-32.2	12.1	3.33e-04	0	44	0	527433728	22	4347
2026-01-08 01:51:14.96	322.71	32.11	-30.9	-33.7	11.5	4.92e-04	0	44	0	532676608	21	4965
2026-01-08 01:51:17.99	321.63	32.27	-31.3	-34.5	10.6	3.37e-03	0	44	0	538968064	22	5195
2026-01-08 01:51:21.00	320.56	32.42	-30.7	-33.1	11.9	8.77e-04	0	44	0	544210944	21	4741
2026-01-08 01:51:24.02	319.47	32.56	-30.8	-33.4	11.8	6.03e-04	0	44	0	550502400	21	4839
2026-01-08 01:51:27.03	318.38	32.69	-30.8	-32.7	11.9	9.81e-04	0	44	0	555745280	22	4487
2026-01-08 01:51:30.06	317.27	32.80	-30.0	-31.6	13.3	5.26e-05	0	44	0	560988160	20	4298
2026-01-08 01:51:33.08	316.15	32.91	-29.9	-31.1	13.5	9.90e-06	0	43	0	567279616	20	4162
2026-01-08 01:51:36.09	315.03	33.00	-29.5	-30.6	14.3	3.00e-06	0	44	0	572522496	19	4102
2026-01-08 01:51:39.10	313.91	33.08	-30.3	-32.4	12.7	3.35e-05	0	43	0	578813952	20	4588
2026-01-08 01:51:42.11	312.78	33.15	-31.1	-33.7	11.2	1.60e-03	0	44	0	584056832	22	4866
2026-01-08 01:51:45.12	311.65	33.20	-30.8	-33.4	11.7	3.70e-04	0	43	0	589299712	21	4826
2026-01-08 01:51:48.12	310.52	33.24	-30.4	-32.1	12.7	9.46e-05	0	43	0	595591168	21	4356
2026-01-08 01:51:51.15	309.37	33.27	-30.2	-31.9	13.0	2.28e-05	0	44	0	600834048	20	4384
2026-01-08 01:51:54.16	308.23	33.29	-30.7	-32.9	12.1	1.65e-04	0	44	0	607125504	21	4637
2026-01-08 01:51:57.19	307.08	33.29	-31.1	-33.8	11.2	8.12e-04	0	43	0	612368384	22	4862
2026-01-08 01:52:00.21	305.94	33.28	-31.5	-34.9	10.4	7.84e-03	0	44	0	617611264	22	5343
2026-01-08 01:52:03.23	304.79	33.26	-31.4	-34.8	10.3	3.64e-03	0	44	0	623902720	22	5326
2026-01-08 01:52:06.23	303.66	33.23	-30.4	-32.1	12.6	2.53e-03	0	44	0	629145600	21	4385
2026-01-08 01:52:09.25	302.52	33.18	-30.8	-33.2	11.9	2.48e-03	0	44	0	634388480	21	4756
2026-01-08 01:52:12.25	301.39	33.12	-31.4	-34.2	10.3	6.75e-03	0	44	0	640679936	23	4978
2026-01-08 01:52:15.27	300.26	33.05	-31.5	-34.5	10.3	8.69e-03	0	44	0	645922816	23	5061
2026-01-08 01:52:18.29	299.14	32.96	-31.5	-34.5	10.2	1.20e-02	0	44	0	652214272	23	5093
2026-01-08 01:52:21.31	298.02	32.86	-31.2	-33.9	11.1	1.98e-03	0	44	0	657457152	22	4926
2026-01-08 01:52:24.32	296.91	32.75	-30.8	-33.2	11.3	3.28e-03	0	44	0	662700032	21	4757
2026-01-08 01:52:27.33	295.81	32.63	-30.6	-32.6	12.2	2.61e-03	0	44	0	668991488	21	4544
2026-01-08 01:52:30.35	294.71	32.50	-30.6	-32.6	12.3	2.79e-03	0	44	0	674234368	21	4563
2026-01-08 01:52:33.38	293.62	32.36	-30.1	-31.9	13.0	2.35e-03	0	44	0	680525824	20	4417
2026-01-08 01:52:36.39	292.55	32.20	-30.6	-32.6	12.1	2.67e-03	0	44	0	685768704	21	4577
2026-01-08 01:52:39.41	291.48	32.04	-30.4	-32.2	12.4	2.90e-03	0	44	0	691011584	21	4447
2026-01-08 01:52:42.43	290.43	31.86	-31.0	-33.1	11.7	6.00e-04	0	44	0	697303040	22	4612
2026-01-08 01:52:45.45	289.39	31.68	-30.1	-31.1	13.3	2.23e-04	0	44	0	702545920	21	4052
2026-01-08 01:52:48.46	288.36	31.48	-30.1	-31.7	13.4	1.36e-04	0	44	0	708837376	20	4309
2026-01-08 01:52:51.48	287.34	31.28	-30.7	-32.8	12.3	2.72e-03	0	44	0	714080256	21	4575
2026-01-08 01:52:54.50	286.34	31.07	-30.7	-32.8	12.3	1.84e-03	0	44	0	719323136	21	4567
2026-01-08 01:52:57.52	285.34	30.85	-31.2	-33.7	11.3	1.22e-03	0	44	0	725614592	22	4816
2026-01-08 01:53:00.53	284.37	30.62	-31.1	-33.4	11.5	1.02e-03	0	44	0	730857472	22	4709
2026-01-08 01:53:03.53	283.41	30.39	-31.3	-34.2	10.9	3.33e-03	0	44	0	737148928	22	5024
2026-01-08 01:53:06.56	282.46	30.14	-30.9	-32.8	11.9	1.05e-03	0	44	0	742391808	22	4497
2026-01-08 01:53:09.57	281.53	29.89	-31.0	-33.2	11.6	7.28e-04	0	44	0	747634688	22	4636
2026-01-08 01:53:12.58	280.61	29.64	-30.7	-32.3	12.2	3.04e-04	0	44	0	753926144	22	4322
2026-01-08 01:53:15.59	279.70	29.38	-30.3	-32.1	13.0	4.27e-05	0	43	0	759169024	20	4439
2026-01-08 01:53:18.61	278.81	29.11	-29.1	-30.1	13.3	0.00e+00	0	44	0	765460480	18	4022
2026-01-08 01:53:21.63	277.93	28.84	-30.0	-31.4	13.4	5.30e-06	0	44	0	770703360	20	4218
2026-01-08 01:53:24.65	277.07	28.57	-31.2	-34.0	11.0	7.11e-04	0	44	0	775946240	22	4948
2026-01-08 01:53:27.67	276.23	28.28	-30.3	-32.3	12.8	2.60e-04	0	44	0	782237696	20	4529
2026-01-08 01:53:30.68	275.40	28.00	-31.1	-33.6	11.2	7.36e-04	0	44	0	787480576	22	4783
2026-01-08 01:53:33.69	274.58	27.71	-32.2	-36.5	8.3	3.16e-02	0	44	0	792723456	24	5903
2026-01-08 01:53:36.71	273.78	27.42	-31.9	-35.3	9.2	2.59e-02	0	44	0	799014912	24	5339
2026-01-08 01:53:39.72	272.99	27.13	-31.6	-34.6	10.0	1.45e-02	0	44	0	804257792	23	5119
2026-01-08 01:53:42.74	272.22	26.83	-30.9	-33.6	11.5	2.29e-03	0	44	0	810549248	21	4910
2026-01-08 01:53:45.76	271.46	26.53	-30.1	-31.6	13.2	1.76e-03	0	44	0	815792128	20	4293
2026-01-08 01:53:48.77	270.72	26.23	-30.3	-32.4	12.6	8.31e-05	0	44	0	821035008	20	4567
2026-01-08 01:53:51.78	269.99	25.93	-29.9	-31.5	13.6	6.80e-06	0	44	0	827326464	19	4366
2026-01-08 01:53:54.80	269.27	25.62	-30.0	-31.5	13.2	2.62e-03	0	44	0	832569344	20	4286
2026-01-08 01:53:57.83	268.57	25.32	-30.2	-31.9	12.9	2.45e-03	0	44	0	838860800	20	4413
2026-01-08 01:54:00.85	267.88	25.01	-30.2	-31.9	12.9	1.63e-03	0	44	0	844103680	20	4414
2026-01-08 01:54:03.86	267.20	24.70	-29.9	-31.2	13.3	2.80e-04	0	44	0	849346560	20	4190
2026-01-08 01:54:06.88	266.54	24.39	-29.5	-30.6	14.1	2.12e-03	0	44	0	855638016	19	4092
2026-01-08 01:54:09.89	265.89	24.08	-28.4	-29.4	15.7	3.04e-03	0	44	0	860880896	16	4033
2026-01-08 01:54:12.92	265.25	23.77	-28.5	-29.2	15.5	2.03e-03	0	44	0	867172352	17	3884
2026-01-08 01:54:15.94	264.63	23.46	-29.5	-30.8	14.0	2.11e-03	0	44	0	872415232	19	4141
2026-01-08 01:54:18.96	264.02	23.15	-29.4	-30.9	14.2	2.01e-03	0	44	0	877658112	18	4272
2026-01-08 01:54:21.98	263.42	22.84	-29.0	-29.8	14.9	1.74e-03	0	44	0	883949568	18	3955
2026-01-08 01:54:25.00	262.83	22.53	-29.3	-30.8	14.2	2.96e-03	0	44	0	889192448	18	4250
2026-01-08 01:54:28.01	262.26	22.23	-29.6	-31.0	13.8	3.01e-03	0	44	0	895483904	19	4205
2026-01-08 01:54:31.02	261.69	21.92	-29.6	-31.0	13.7	1.19e-03	0	44	0	900726784	19	4234
2026-01-08 01:54:34.03	261.14	21.61	-29.2	-30.4	14.5	1.10e-03	0	44	0	905969664	18	4133
2026-01-08 01:54:37.05	260.60	21.31	-29.2	-30.4	14.4	1.33e-03	0	44	0	912261120	18	4140
2026-01-08 01:54:40.07	260.07	21.00	-29.4	-31.0	14.1	1.38e-03	0	44	0	917504000	18	4317
2026-01-08 01:54:43.09	259.54	20.70	-29.6	-31.0	13.7	1.91e-03	0	44	0	923795456	19	4216
2026-01-08 01:54:46.10	259.03	20.40	-29.3	-30.5	14.3	0.00e+00	0	44	0	929038336	18	4173
2026-01-08 01:54:49.12	258.53	20.09	-28.9	-30.3	14.7	7.00e-07	0	44	0	934281216	17	4201
2026-01-08 01:54:52.13	258.04	19.79	-28.7	-29.7	15.1	3.11e-04	0	44	0	940572672	17	4041
2026-01-08 01:54:55.14	257.56	19.50	-29.3	-30.8	14.1	1.10e-03	0	44	0	945815552	18	4262
2026-01-08 01:54:58.16	257.09	19.20	-30.0	-31.7	12.9	3.11e-04	0	44	0	951058432	20	4379
2026-01-08 01:55:01.17	256.63	18.90	-29.7	-31.3	13.4	4.25e-04	0	44	0	957349888	19	4337
2026-01-08 01:55:04.18	256.18	18.61	-29.5	-30.8	13.8	6.10e-06	0	44	0	962592768	19	4175
2026-01-08 01:55:07.20	255.73	18.32	-29.7	-31.4	13.3	2.44e-05	0	44	0	968884224	19	4362
2026-01-08 01:55:10.22	255.30	18.03	-29.9	-31.3	13.0	3.12e-05	0	43	0	974127104	20	4258
2026-01-08 01:55:13.23	254.87	17.74	-30.0	-31.8	12.7	3.65e-04	0	44	0	979369984	20	4410
2026-01-08 01:55:16.24	254.45	17.45	-30.2	-32.2	12.4	1.36e-03	0	44	0	985661440	20	4548
2026-01-08 01:55:19.25	254.04	17.17	-29.3	-30.9	14.0	1.31e-03	0	44	0	990904320	18	4286
2026-01-08 01:55:22.27	253.63	16.88	-29.4	-30.9	13.9	1.52e-03	0	44	0	997195776	18	4307
2026-01-08 01:55:25.29	253.24	16.60	-30.0	-32.1	12.8	2.89e-05	0	44	0	1002438656	19	4592
2026-01-08 01:55:28.29	252.85	16.32	-29.5	-30.7	13.7	1.44e-03	0	44	0	1007681536	19	4156
2026-01-08 01:55:31.30	252.47	16.04	-29.5	-31.2	13.7	9.37e-04	0	44	0	1013972992	18	4410
2026-01-08 01:55:34.31	252.10	15.77	-29.2	-30.5	14.1	7.40e-04	0	44	0	1019215872	18	4195
2026-01-08 01:55:37.32	251.73	15.49	-29.3	-30.7	14.0	1.63e-03	0	44	0	1025507328	18	4246
2026-01-08 01:55:40.34	251.37	15.22	-30.0	-31.8	12.5	2.47e-03	0	44	0	1030750208	20	4431
2026-01-08 01:55:43.37	251.01	14.95	-30.6	-33.2	11.1	3.64e-03	0	44	0	1035993088	21	4833
2026-01-08 01:55:46.38	250.67	14.68	-30.3	-32.7	11.8	6.87e-04	0	44	0	1042284544	20	4756
2026-01-08 01:55:49.39	250.33	14.42	-29.6	-31.2	13.2	3.96e-05	0	44	0	1047527424	19	4330
2026-01-08 01:55:52.41	249.99	14.15	-29.3	-30.7	13.9	3.80e-06	0	44	0	1053818880	18	4253
2026-01-08 01:55:55.43	249.66	13.89	-29.5	-30.9	13.4	1.46e-03	0	44	0	1059061760	19	4237
2026-01-08 01:55:58.45	249.34	13.63	-30.1	-32.2	12.1	1.45e-03	0	44	0	1064304640	20	4591
2026-01-08 01:56:01.46	249.02	13.37	-30.6	-33.2	11.1	1.38e-03	0	44	0	1070596096	21	4835
2026-01-08 01:56:04.48	248.71	13.11	-30.8	-33.7	10.6	4.25e-03	0	44	0	1075838976	21	5070
2026-01-08 01:56:07.49	248.40	12.85	-30.9	-34.1	10.4	3.30e-03	0	44	0	1081081856	21	5213
2026-01-08 01:56:10.51	248.10	12.60	-30.9	-34.2	10.1	4.25e-03	0	44	0	1087373312	21	5276
2026-01-08 01:56:13.53	247.81	12.35	-30.6	-33.3	10.9	2.52e-03	0	44	0	1092616192	21	4892
2026-01-08 01:56:16.55	247.51	12.10	-30.5	-32.9	11.1	1.56e-03	0	44	0	1098907648	21	4738
2026-01-08 01:56:19.56	247.23	11.85	-30.5	-33.5	10.8	1.80e-03	0	44	0	1104150528	20	5072
2026-01-08 01:56:22.58	246.95	11.60	-30.4	-33.2	10.7	1.41e-03	0	43	0	1109393408	20	4960
2026-01-08 01:56:25.60	246.67	11.36	-30.7	-33.6	10.4	2.27e-03	0	44	0	1115684864	21	5054
2026-01-08 01:56:28.62	246.40	11.12	-30.3	-32.7	11.5	1.15e-03	0	44	0	1120927744	20	4798
2026-01-08 01:56:31.64	246.13	10.87	-29.9	-31.6	12.3	2.11e-04	0	44	0	1127219200	20	4380
2026-01-08 01:56:34.65	245.87	10.64	-29.7	-31.6	12.8	9.76e-05	0	44	0	1132462080	19	4475
2026-01-08 01:56:37.66	245.61	10.40	-29.7	-31.5	12.8	5.64e-05	0	44	0	1137704960	19	4433
2026-01-08 01:56:40.67	245.36	10.16	-29.7	-31.5	12.7	6.56e-05	0	44	0	1143996416	19	4459
2026-01-08 01:56:43.70	245.11	9.93	-30.0	-31.9	12.0	1.44e-03	0	44	0	1149239296	20	4520
2026-01-08 01:56:46.72	244.87	9.70	-30.3	-32.9	11.3	3.43e-03	0	44	0	1155530752	20	4853
2026-01-08 01:56:49.73	244.62	9.46	-30.6	-33.6	10.4	7.02e-03	0	44	0	1160773632	21	5056
2026-01-08 01:56:52.75	244.39	9.24	-30.8	-34.3	9.8	1.20e-02	0	44	0	1166016512	21	5390
2026-01-08 01:56:55.76	244.15	9.01	-31.1	-34.7	9.1	2.58e-02	0	44	0	1172307968	22	5496
2026-01-08 01:56:58.77	243.92	8.78	-31.1	-35.0	8.9	2.30e-02	0	44	0	1177550848	22	5607
2026-01-08 01:57:01.79	243.70	8.56	-31.0	-34.4	9.2	2.84e-02	0	44	0	1183842304	22	5375
2026-01-08 01:57:04.81	243.47	8.34	-30.8	-34.3	9.6	1.91e-02	0	44	0	1189085184	21	5425
2026-01-08 01:57:07.82	243.26	8.11	-30.6	-33.7	10.1	1.15e-02	0	44	0	1194328064	21	5145
2026-01-08 01:57:10.84	243.04	7.89	-30.4	-33.5	10.6	6.70e-03	0	44	0	1200619520	20	5153
2026-01-08 01:57:13.86	242.83	7.68	-30.5	-33.5	10.2	8.10e-03	0	44	0	1205862400	21	5070
2026-01-08 01:57:16.88	242.62	7.46	-30.5	-34.0	10.3	4.75e-03	0	44	0	1212153856	20	5394
2026-01-08 01:57:19.90	242.41	7.24	-30.7	-34.3	9.5	1.52e-02	0	44	0	1217396736	21	5447
2026-01-08 01:57:22.91	242.21	7.03	-32.7	-45.0	3.8	1.49e+00	0	44	104	1221591040	25	14767

#Closed at: 2026-01-08 01:57:23
#Recorded file [1221 MB]: D:/data/31010_260108_044630.dat