passes_logs/2026/01/08/R2M6_AANII_01/R2M6_AANII_01__20260108_000557_SUOMI_NPP_rec.log

#Pass ID: 20260108_000557_SUOMI NPP
#Satellite: SUOMI NPP
#Configuration: NPP
#almurnet v.1.7.20240730
#Start time: 2026-01-08 00:05:57

#Version: 2.2.20231116
#Station: R2M6_AANII_01
#Location: 30.233357 lon 59.946436 lat
#TLE: 1 37849U 11061A   26005.94084933  .00000134  00000+0  84554-4 0  9990
#TLE: 2 37849  98.7803 308.0679 0002567  79.1029 281.0436 14.19522657735426

#Time	Az	El	Level	Level2	SNR	BER	BlckErr	Temp	State	Recorded	gain1	gain2
2026-01-08 00:05:57.13	19.89	6.94	-30.7	-34.8	5.2	1.27e+00	0	41	0	0	21	5775
2026-01-08 00:06:00.14	19.96	7.17	-30.9	-35.5	8.3	5.35e-02	0	41	0	1048576	21	6084
2026-01-08 00:06:03.15	20.02	7.40	-31.0	-35.7	8.2	5.13e-02	0	41	0	7340032	21	6189
2026-01-08 00:06:06.18	20.09	7.63	-30.7	-34.6	9.0	2.81e-02	0	41	0	12582912	21	5654
2026-01-08 00:06:09.20	20.16	7.87	-30.6	-34.2	9.3	2.85e-02	0	41	0	18874368	21	5471
2026-01-08 00:06:12.21	20.22	8.11	-30.2	-33.2	10.5	6.03e-03	0	42	0	24117248	20	5115
2026-01-08 00:06:15.22	20.29	8.35	-29.8	-32.4	11.5	3.33e-03	0	41	0	29360128	19	4849
2026-01-08 00:06:18.24	20.36	8.59	-29.8	-32.3	11.6	3.50e-03	0	42	0	35651584	19	4840
2026-01-08 00:06:21.26	20.43	8.84	-29.9	-32.7	11.3	3.55e-03	0	42	0	40894464	19	4966
2026-01-08 00:06:24.27	20.51	9.09	-29.7	-31.9	11.9	2.64e-03	0	42	0	46137344	19	4685
2026-01-08 00:06:27.29	20.58	9.34	-29.6	-31.7	12.1	2.76e-03	0	42	0	52428800	19	4594
2026-01-08 00:06:30.30	20.65	9.59	-29.7	-32.1	11.8	3.66e-04	0	42	0	57671680	19	4727
2026-01-08 00:06:33.32	20.73	9.84	-29.7	-32.1	11.8	2.75e-03	0	42	0	63963136	19	4745
2026-01-08 00:06:36.34	20.81	10.10	-29.9	-32.6	11.5	2.95e-03	0	42	0	69206016	19	4931
2026-01-08 00:06:39.36	20.88	10.36	-29.7	-31.9	12.0	2.54e-03	0	42	0	74448896	19	4651
2026-01-08 00:06:42.38	20.96	10.63	-29.9	-32.6	11.6	2.83e-03	0	42	0	80740352	19	4905
2026-01-08 00:06:45.39	21.04	10.89	-30.1	-32.8	11.0	3.45e-03	0	42	0	85983232	20	4900
2026-01-08 00:06:48.42	21.12	11.17	-29.9	-32.4	11.7	5.90e-04	0	42	0	92274688	19	4848
2026-01-08 00:06:51.43	21.20	11.44	-29.5	-31.3	12.5	1.59e-04	0	42	0	97517568	19	4450
2026-01-08 00:06:54.45	21.29	11.71	-29.6	-31.5	12.4	2.16e-04	0	42	0	102760448	19	4493
2026-01-08 00:06:57.47	21.37	11.99	-29.5	-31.4	12.5	1.35e-04	0	42	0	109051904	19	4466
2026-01-08 00:07:00.48	21.46	12.27	-29.1	-30.7	13.3	1.44e-05	0	42	0	114294784	18	4346
2026-01-08 00:07:03.49	21.55	12.56	-29.1	-30.7	13.3	1.83e-05	0	43	0	120586240	18	4331
2026-01-08 00:07:06.51	21.63	12.85	-29.0	-30.4	13.5	2.13e-05	0	43	0	125829120	18	4241
2026-01-08 00:07:09.53	21.73	13.14	-28.9	-30.3	13.6	1.37e-05	0	43	0	131072000	18	4199
2026-01-08 00:07:12.54	21.82	13.43	-28.9	-30.8	12.5	6.80e-06	0	43	0	137363456	17	4449
2026-01-08 00:07:15.56	21.91	13.73	-29.0	-30.9	13.1	6.80e-06	0	43	0	142606336	17	4485
2026-01-08 00:07:18.58	22.01	14.03	-29.1	-30.6	13.5	1.44e-05	0	43	0	148897792	18	4278
2026-01-08 00:07:21.60	22.10	14.34	-29.1	-30.6	13.5	1.14e-05	0	43	0	154140672	18	4284
2026-01-08 00:07:24.61	22.20	14.65	-29.2	-30.8	13.3	1.83e-05	0	43	0	159383552	18	4365
2026-01-08 00:07:27.63	22.30	14.96	-29.2	-30.8	13.3	1.74e-03	0	43	0	165675008	18	4371
2026-01-08 00:07:30.66	22.41	15.28	-29.4	-31.4	12.9	1.72e-03	0	43	0	170917888	18	4541
2026-01-08 00:07:33.68	22.51	15.61	-29.3	-31.1	13.2	1.64e-03	0	43	0	177209344	18	4452
2026-01-08 00:07:36.70	22.62	15.93	-29.3	-31.2	13.2	2.00e-03	0	43	0	182452224	18	4463
2026-01-08 00:07:39.72	22.73	16.27	-29.1	-30.7	13.5	1.37e-05	0	43	0	187695104	18	4315
2026-01-08 00:07:42.74	22.84	16.60	-29.0	-30.8	13.7	4.50e-06	0	43	0	193986560	17	4444
2026-01-08 00:07:45.76	22.95	16.94	-29.2	-30.8	13.4	1.90e-03	0	43	0	199229440	18	4336
2026-01-08 00:07:48.78	23.06	17.29	-29.1	-30.6	13.5	1.83e-03	0	43	0	205520896	18	4262
2026-01-08 00:07:51.80	23.18	17.64	-29.3	-31.0	13.3	2.06e-03	0	43	0	210763776	18	4411
2026-01-08 00:07:54.82	23.30	17.99	-29.5	-31.6	13.0	2.18e-03	0	43	0	216006656	18	4584
2026-01-08 00:07:57.83	23.43	18.35	-29.3	-30.7	13.2	2.23e-03	0	43	0	222298112	19	4213
2026-01-08 00:08:00.85	23.55	18.72	-29.6	-31.4	12.8	6.35e-04	0	43	0	227540992	19	4434
2026-01-08 00:08:03.85	23.68	19.08	-29.8	-32.0	12.4	6.57e-04	0	43	0	233832448	19	4644
2026-01-08 00:08:06.88	23.81	19.46	-29.9	-32.4	12.1	9.31e-04	0	43	0	239075328	19	4801
2026-01-08 00:08:09.90	23.94	19.84	-30.2	-32.9	11.4	9.22e-04	0	43	0	244318208	20	4873
2026-01-08 00:08:12.91	24.08	20.23	-30.3	-33.2	11.2	3.59e-03	0	43	0	250609664	20	4984
2026-01-08 00:08:15.92	24.22	20.62	-30.3	-32.9	11.4	3.86e-03	0	43	0	255852544	20	4877
2026-01-08 00:08:18.94	24.36	21.02	-30.0	-32.0	12.1	7.26e-04	0	43	0	262144000	20	4539
2026-01-08 00:08:21.95	24.51	21.43	-29.4	-30.8	13.2	2.25e-04	0	43	0	267386880	19	4236
2026-01-08 00:08:24.97	24.66	21.84	-29.2	-30.7	13.6	1.50e-04	0	43	0	272629760	18	4293
2026-01-08 00:08:27.99	24.81	22.26	-29.1	-30.6	13.7	5.30e-06	0	43	0	278921216	18	4267
2026-01-08 00:08:31.00	24.97	22.68	-29.1	-30.5	13.8	3.80e-06	0	43	0	284164096	18	4243
2026-01-08 00:08:34.01	25.13	23.12	-29.0	-30.3	14.0	1.50e-06	0	43	0	289406976	18	4175
2026-01-08 00:08:37.03	25.30	23.56	-29.1	-30.5	13.9	1.50e-06	0	43	0	295698432	18	4224
2026-01-08 00:08:40.05	25.47	24.00	-29.5	-31.0	13.3	1.52e-05	0	43	0	300941312	19	4269
2026-01-08 00:08:43.07	25.65	24.46	-29.7	-31.5	12.9	1.98e-04	0	43	0	307232768	19	4454
2026-01-08 00:08:46.09	25.83	24.92	-30.0	-32.4	12.4	9.84e-05	0	43	0	312475648	19	4738
2026-01-08 00:08:49.10	26.01	25.39	-29.2	-30.3	13.6	8.30e-06	0	43	0	317718528	19	4083
2026-01-08 00:08:52.11	26.20	25.87	-29.1	-30.6	13.9	6.80e-06	0	43	0	324009984	18	4236
2026-01-08 00:08:55.14	26.40	26.36	-29.3	-30.4	13.7	9.10e-06	0	43	0	329252864	19	4102
2026-01-08 00:08:58.16	26.60	26.86	-29.1	-30.4	14.1	0.00e+00	0	43	0	335544320	18	4175
2026-01-08 00:09:01.17	26.81	27.36	-28.7	-29.8	14.8	1.50e-06	0	43	0	340787200	17	4082
2026-01-08 00:09:04.19	27.02	27.88	-28.3	-29.0	15.2	0.00e+00	0	43	0	346030080	17	3862
2026-01-08 00:09:07.20	27.24	28.40	-28.7	-29.8	14.8	0.00e+00	0	43	0	352321536	17	4099
2026-01-08 00:09:10.22	27.47	28.93	-28.5	-29.5	14.9	0.00e+00	0	43	0	357564416	17	3997
2026-01-08 00:09:13.24	27.71	29.48	-28.7	-30.0	14.6	3.28e-05	0	43	0	363855872	17	4158
2026-01-08 00:09:16.25	27.95	30.03	-29.2	-30.7	13.9	3.80e-06	0	43	0	369098752	18	4280
2026-01-08 00:09:19.27	28.20	30.59	-30.0	-32.3	12.5	3.66e-05	0	43	0	374341632	19	4713
2026-01-08 00:09:22.28	28.46	31.17	-29.9	-31.7	12.5	1.72e-04	0	43	0	380633088	20	4414
2026-01-08 00:09:25.30	28.73	31.75	-30.2	-32.6	11.9	3.01e-04	0	43	0	385875968	20	4722
2026-01-08 00:09:28.32	29.01	32.35	-30.3	-32.8	11.6	5.53e-04	0	43	0	392167424	20	4825
2026-01-08 00:09:31.33	29.29	32.96	-30.1	-32.4	11.9	4.65e-04	0	43	0	397410304	20	4694
2026-01-08 00:09:34.36	29.59	33.58	-30.3	-32.9	11.7	3.77e-04	0	44	0	402653184	20	4859
2026-01-08 00:09:37.37	29.90	34.21	-30.2	-32.8	11.8	4.89e-04	0	43	0	408944640	20	4823
2026-01-08 00:09:40.39	30.22	34.86	-30.1	-32.3	12.2	3.50e-04	0	43	0	414187520	20	4642
2026-01-08 00:09:43.41	30.56	35.51	-30.2	-32.7	11.9	3.70e-04	0	43	0	420478976	20	4781
2026-01-08 00:09:46.43	30.91	36.18	-30.5	-33.2	11.0	1.00e-03	0	43	0	425721856	21	4900
2026-01-08 00:09:49.44	31.27	36.87	-30.8	-34.0	10.5	2.63e-03	0	43	0	430964736	21	5231
2026-01-08 00:09:52.45	31.64	37.56	-30.9	-33.9	10.2	5.14e-03	0	44	0	437256192	22	5063
2026-01-08 00:09:55.47	32.04	38.27	-31.4	-35.6	9.0	1.81e-02	0	43	0	442499072	22	5886
2026-01-08 00:09:58.49	32.45	39.00	-30.9	-34.0	10.1	7.93e-03	0	43	0	448790528	22	5136
2026-01-08 00:10:01.52	32.88	39.74	-31.1	-34.9	9.6	1.22e-02	0	44	0	454033408	22	5516
2026-01-08 00:10:04.54	33.33	40.49	-31.5	-35.5	8.8	2.79e-02	0	44	0	459276288	23	5732
2026-01-08 00:10:07.55	33.80	41.25	-31.3	-35.0	9.1	2.85e-02	0	43	0	465567744	23	5452
2026-01-08 00:10:10.56	34.29	42.03	-31.4	-35.2	9.0	2.37e-02	0	43	0	470810624	23	5555
2026-01-08 00:10:13.58	34.80	42.83	-31.2	-34.7	9.7	1.64e-02	0	44	0	477102080	22	5427
2026-01-08 00:10:16.59	35.34	43.64	-31.0	-34.1	10.4	6.87e-03	0	44	0	482344960	22	5119
2026-01-08 00:10:19.62	35.91	44.46	-30.5	-32.9	11.5	1.23e-03	0	44	0	487587840	21	4741
2026-01-08 00:10:22.63	36.51	45.30	-30.0	-31.4	12.5	2.73e-04	0	44	0	493879296	21	4237
2026-01-08 00:10:25.65	37.14	46.15	-29.4	-30.9	13.6	5.80e-04	0	44	0	499122176	19	4241
2026-01-08 00:10:28.67	37.81	47.02	-30.0	-32.0	12.5	8.36e-04	0	43	0	504365056	20	4535
2026-01-08 00:10:31.69	38.51	47.90	-30.4	-32.7	11.6	1.83e-03	0	44	0	510656512	21	4661
2026-01-08 00:10:34.69	39.25	48.79	-30.2	-32.8	11.8	5.14e-04	0	43	0	515899392	20	4834
2026-01-08 00:10:37.70	40.04	49.70	-29.2	-30.4	13.9	2.00e-04	0	44	0	522190848	19	4100
2026-01-08 00:10:40.72	40.87	50.62	-29.5	-31.2	13.4	5.87e-04	0	43	0	527433728	19	4337
2026-01-08 00:10:43.74	41.76	51.56	-29.6	-31.0	13.0	3.66e-05	0	43	0	532676608	20	4221
2026-01-08 00:10:46.76	42.71	52.50	-29.2	-30.8	13.9	3.00e-06	0	44	0	538968064	18	4323
2026-01-08 00:10:49.77	43.71	53.45	-28.8	-29.7	14.6	2.27e-04	0	43	0	544210944	18	4012
2026-01-08 00:10:52.79	44.79	54.42	-28.4	-28.8	15.2	4.65e-05	0	43	0	550502400	18	3746
2026-01-08 00:10:55.81	45.94	55.39	-27.7	-27.8	16.3	4.04e-04	0	43	0	555745280	16	3679
2026-01-08 00:10:58.83	47.17	56.37	-27.4	-27.8	16.5	1.21e-03	0	43	0	562036736	15	3776
2026-01-08 00:11:01.86	48.50	57.35	-27.1	-27.5	17.1	0.00e+00	0	44	0	567279616	14	3775
2026-01-08 00:11:04.86	49.91	58.33	-27.5	-28.0	16.4	0.00e+00	0	43	0	572522496	15	3816
2026-01-08 00:11:07.87	51.43	59.31	-27.6	-28.3	16.4	0.00e+00	0	44	0	578813952	15	3874
2026-01-08 00:11:10.88	53.07	60.29	-28.9	-30.3	14.6	0.00e+00	0	44	0	584056832	17	4254
2026-01-08 00:11:13.90	54.85	61.26	-29.6	-31.3	13.7	9.90e-06	0	44	0	589299712	19	4337
2026-01-08 00:11:16.92	56.77	62.22	-29.3	-30.1	14.2	1.50e-06	0	43	0	595591168	19	3981
2026-01-08 00:11:19.94	58.84	63.16	-28.7	-29.1	15.4	0.00e+00	0	43	0	600834048	18	3788
2026-01-08 00:11:22.96	61.08	64.09	-29.4	-30.4	14.3	0.00e+00	0	43	0	607125504	19	4055
2026-01-08 00:11:25.97	63.49	64.98	-29.6	-31.1	13.8	4.50e-06	0	44	0	612368384	19	4258
2026-01-08 00:11:29.00	66.12	65.85	-29.3	-30.7	14.5	1.50e-06	0	44	0	617611264	18	4217
2026-01-08 00:11:32.02	68.95	66.67	-29.1	-30.1	14.8	2.20e-06	0	44	0	623902720	18	4061
2026-01-08 00:11:35.02	71.98	67.44	-31.1	-33.9	11.0	1.40e-03	0	44	0	629145600	22	4941
2026-01-08 00:11:38.04	75.26	68.17	-30.2	-32.0	13.0	3.58e-05	0	44	0	635437056	20	4431
2026-01-08 00:11:41.05	78.76	68.82	-31.4	-34.8	10.5	3.18e-03	0	44	0	640679936	22	5321
2026-01-08 00:11:44.07	82.50	69.40	-31.1	-33.8	11.1	7.32e-04	0	44	0	645922816	22	4920
2026-01-08 00:11:47.08	86.44	69.90	-29.9	-31.2	13.5	1.78e-03	0	44	0	652214272	20	4199
2026-01-08 00:11:50.10	90.59	70.31	-29.8	-31.3	13.9	2.40e-03	0	44	0	657457152	19	4279
2026-01-08 00:11:53.12	94.90	70.63	-29.2	-29.9	14.8	0.00e+00	0	44	0	663748608	19	3891
2026-01-08 00:11:56.14	99.35	70.83	-29.6	-30.9	14.2	1.68e-04	0	43	0	668991488	19	4157
2026-01-08 00:11:59.15	103.85	70.93	-29.9	-31.6	13.6	1.54e-03	0	44	0	674234368	19	4395
2026-01-08 00:12:02.17	108.38	70.91	-30.8	-33.4	11.7	3.07e-03	0	44	0	680525824	21	4839
2026-01-08 00:12:05.19	112.89	70.79	-30.8	-33.2	11.9	9.96e-04	0	44	0	685768704	21	4758
2026-01-08 00:12:08.20	117.29	70.56	-31.0	-33.4	11.5	1.47e-03	0	44	0	692060160	22	4723
2026-01-08 00:12:11.22	121.57	70.22	-31.6	-34.7	10.1	3.51e-03	0	44	0	697303040	23	5177
2026-01-08 00:12:14.23	125.66	69.79	-30.5	-31.9	12.7	2.60e-04	0	43	0	702545920	22	4196
2026-01-08 00:12:17.24	129.55	69.26	-31.1	-33.7	11.3	1.25e-03	0	44	0	708837376	22	4825
2026-01-08 00:12:20.24	133.21	68.66	-30.8	-32.8	11.9	6.83e-04	0	44	0	714080256	22	4524
2026-01-08 00:12:23.26	136.67	67.99	-31.7	-35.3	9.6	9.71e-03	0	44	0	719323136	23	5425
2026-01-08 00:12:26.28	139.89	67.25	-30.0	-31.4	13.5	1.65e-03	0	44	0	725614592	20	4230
2026-01-08 00:12:29.30	142.89	66.46	-31.4	-34.1	10.6	5.20e-03	0	43	0	730857472	23	4928
2026-01-08 00:12:32.31	145.66	65.63	-29.1	-30.0	15.0	2.68e-04	0	43	0	737148928	18	4005
2026-01-08 00:12:35.33	148.23	64.75	-29.1	-30.1	15.0	1.73e-04	0	44	0	742391808	18	4048
2026-01-08 00:12:38.35	150.61	63.84	-28.9	-29.4	14.9	1.23e-04	0	44	0	747634688	19	3775
2026-01-08 00:12:41.36	152.80	62.92	-27.4	-27.7	16.8	0.00e+00	0	44	0	753926144	15	3738
2026-01-08 00:12:44.36	154.82	61.97	-26.1	-25.7	18.5	0.00e+00	0	44	0	759169024	13	3438
2026-01-08 00:12:47.35	156.69	61.01	-27.5	-28.1	16.7	1.66e-04	0	43	0	765460480	15	3835
2026-01-08 00:12:50.37	158.43	60.04	-26.5	-26.0	18.1	0.00e+00	0	43	0	770703360	14	3415
2026-01-08 00:12:53.37	160.04	59.06	-28.4	-29.4	15.7	0.00e+00	0	43	0	775946240	16	4074
2026-01-08 00:12:56.38	161.54	58.08	-28.5	-29.2	15.6	0.00e+00	0	44	0	782237696	17	3914
2026-01-08 00:12:59.40	162.93	57.09	-29.4	-30.7	14.0	2.20e-06	0	44	0	787480576	19	4163
2026-01-08 00:13:02.42	164.24	56.11	-27.0	-26.7	17.2	0.00e+00	0	44	0	792723456	15	3494
2026-01-08 00:13:05.42	165.44	55.13	-28.6	-29.7	15.1	0.00e+00	0	44	0	799014912	17	4077
2026-01-08 00:13:08.45	166.58	54.16	-28.8	-30.1	15.0	0.00e+00	0	43	0	804257792	17	4186
2026-01-08 00:13:11.46	167.64	53.20	-29.3	-30.5	14.1	3.80e-06	0	44	0	810549248	19	4119
2026-01-08 00:13:14.49	168.63	52.24	-28.4	-28.5	15.5	0.00e+00	0	43	0	815792128	18	3660
2026-01-08 00:13:17.51	169.57	51.29	-28.8	-29.5	15.1	0.00e+00	0	43	0	821035008	18	3908
2026-01-08 00:13:20.52	170.44	50.36	-29.9	-31.3	13.3	2.13e-05	0	44	0	827326464	20	4267
2026-01-08 00:13:23.54	171.27	49.44	-31.0	-34.1	11.1	5.45e-04	0	43	0	832569344	21	5134
2026-01-08 00:13:26.56	172.04	48.53	-31.9	-36.2	8.8	2.44e-02	0	44	0	838860800	23	5953
2026-01-08 00:13:29.58	172.78	47.63	-31.7	-35.1	9.2	2.27e-02	0	44	0	844103680	24	5317
2026-01-08 00:13:32.60	173.47	46.75	-31.9	-35.6	8.9	8.28e-02	0	44	0	849346560	24	5511
2026-01-08 00:13:35.61	174.13	45.88	-31.4	-34.6	10.0	4.27e-03	0	43	0	855638016	23	5175
2026-01-08 00:13:38.63	174.75	45.03	-30.8	-32.9	11.7	4.50e-04	0	44	0	860880896	22	4596
2026-01-08 00:13:41.65	175.34	44.19	-31.3	-34.8	10.2	4.38e-03	0	44	0	867172352	22	5381
2026-01-08 00:13:44.67	175.90	43.37	-32.2	-36.4	8.4	1.85e-02	0	43	0	872415232	24	5882
2026-01-08 00:13:47.68	176.44	42.56	-30.6	-32.2	12.2	4.13e-04	0	44	0	877658112	22	4292
2026-01-08 00:13:50.70	176.95	41.76	-28.5	-28.7	15.8	6.10e-06	0	44	0	883949568	18	3650
2026-01-08 00:13:53.72	177.43	40.98	-29.2	-30.4	14.7	0.00e+00	0	44	0	889192448	18	4116
2026-01-08 00:13:56.74	177.90	40.22	-29.9	-31.1	13.5	6.10e-06	0	44	0	895483904	20	4153
2026-01-08 00:13:59.76	178.34	39.47	-28.4	-28.3	15.9	0.00e+00	0	43	0	900726784	18	3555
2026-01-08 00:14:02.79	178.76	38.73	-29.7	-31.1	13.9	0.00e+00	0	44	0	905969664	19	4234
2026-01-08 00:14:05.80	179.17	38.00	-30.4	-32.2	12.5	2.43e-04	0	44	0	912261120	21	4394
2026-01-08 00:14:08.82	179.56	37.30	-29.8	-30.9	13.6	1.33e-04	0	44	0	917504000	20	4106
2026-01-08 00:14:11.84	179.93	36.60	-29.7	-31.1	13.9	8.46e-05	0	43	0	923795456	19	4227
2026-01-08 00:14:14.86	180.29	35.92	-29.9	-31.2	13.4	1.29e-04	0	44	0	929038336	20	4180
2026-01-08 00:14:17.88	180.63	35.25	-30.5	-32.7	12.2	1.75e-04	0	44	0	934281216	20	4682
2026-01-08 00:14:20.90	180.96	34.59	-31.7	-35.2	9.6	6.72e-03	0	44	0	940572672	23	5400
2026-01-08 00:14:23.92	181.28	33.95	-32.2	-36.7	8.0	6.92e-02	0	44	0	945815552	24	6082
2026-01-08 00:14:26.94	181.59	33.31	-31.3	-34.3	10.5	6.47e-03	0	44	0	952107008	22	5085
2026-01-08 00:14:29.96	181.88	32.69	-30.9	-33.8	11.3	1.01e-03	0	44	0	957349888	21	4984
2026-01-08 00:14:32.97	182.17	32.09	-30.5	-32.4	12.3	2.90e-04	0	44	0	962592768	21	4468
2026-01-08 00:14:35.98	182.44	31.49	-31.1	-33.6	11.0	1.12e-03	0	44	0	968884224	22	4842
2026-01-08 00:14:39.00	182.70	30.91	-31.5	-34.5	10.0	1.13e-02	0	44	0	974127104	23	5116
2026-01-08 00:14:42.03	182.96	30.33	-31.4	-35.0	10.0	7.03e-03	0	44	0	980418560	22	5393
2026-01-08 00:14:45.05	183.21	29.77	-31.1	-33.7	10.9	2.57e-03	0	44	0	985661440	22	4854
2026-01-08 00:14:48.06	183.45	29.22	-30.6	-32.8	11.8	2.27e-03	0	44	0	990904320	21	4647
2026-01-08 00:14:51.07	183.68	28.67	-30.1	-31.9	12.8	2.11e-03	0	44	0	997195776	20	4420
2026-01-08 00:14:54.09	183.91	28.14	-29.9	-31.7	13.3	2.00e-03	0	44	0	1002438656	19	4441
2026-01-08 00:14:57.11	184.12	27.62	-29.8	-31.5	13.5	7.60e-06	0	44	0	1008730112	19	4377
2026-01-08 00:15:00.13	184.33	27.10	-29.9	-31.8	13.2	1.52e-05	0	44	0	1013972992	19	4456
2026-01-08 00:15:03.15	184.54	26.60	-29.4	-31.0	14.1	2.05e-03	0	43	0	1019215872	18	4307
2026-01-08 00:15:06.16	184.74	26.10	-29.2	-30.5	14.3	2.26e-03	0	44	0	1025507328	18	4153
2026-01-08 00:15:09.17	184.93	25.62	-29.3	-30.7	14.2	2.17e-03	0	44	0	1030750208	18	4230
2026-01-08 00:15:12.20	185.12	25.14	-28.5	-29.2	15.4	1.97e-03	0	44	0	1037041664	17	3901
2026-01-08 00:15:15.22	185.30	24.67	-28.1	-28.7	16.0	0.00e+00	0	44	0	1042284544	16	3867
2026-01-08 00:15:18.24	185.48	24.20	-27.8	-28.5	16.2	0.00e+00	0	44	0	1047527424	15	3908
2026-01-08 00:15:21.25	185.65	23.75	-28.0	-28.5	16.1	0.00e+00	0	44	0	1053818880	16	3817
2026-01-08 00:15:24.27	185.82	23.30	-27.9	-28.8	16.0	0.00e+00	0	44	0	1059061760	15	3987
2026-01-08 00:15:27.29	185.98	22.86	-28.3	-29.3	15.6	0.00e+00	0	44	0	1065353216	16	4034
2026-01-08 00:15:30.31	186.14	22.43	-28.5	-29.3	15.3	0.00e+00	0	44	0	1070596096	17	3929
2026-01-08 00:15:33.33	186.30	22.00	-28.8	-29.9	14.9	0.00e+00	0	44	0	1075838976	17	4097
2026-01-08 00:15:36.34	186.45	21.59	-29.1	-30.3	14.3	0.00e+00	0	44	0	1082130432	18	4128
2026-01-08 00:15:39.36	186.60	21.17	-29.1	-30.2	13.7	0.00e+00	0	44	0	1087373312	18	4092
2026-01-08 00:15:42.37	186.74	20.77	-28.9	-30.3	14.4	0.00e+00	0	44	0	1092616192	17	4212
2026-01-08 00:15:45.39	186.88	20.37	-28.8	-30.1	14.7	7.00e-07	0	44	0	1098907648	17	4165
2026-01-08 00:15:48.41	187.02	19.98	-28.8	-30.0	14.8	0.00e+00	0	44	0	1104150528	17	4123
2026-01-08 00:15:51.43	187.15	19.59	-28.6	-29.5	15.0	0.00e+00	0	44	0	1110441984	17	4006
2026-01-08 00:15:54.44	187.28	19.21	-28.5	-29.4	15.1	4.14e-04	0	44	0	1115684864	17	3975
2026-01-08 00:15:57.47	187.41	18.83	-28.6	-29.6	15.0	1.15e-04	0	44	0	1120927744	17	4035
2026-01-08 00:16:00.49	187.54	18.46	-28.8	-30.0	14.7	7.09e-05	0	44	0	1127219200	17	4127
2026-01-08 00:16:03.51	187.66	18.10	-28.7	-29.7	14.9	5.18e-05	0	44	0	1132462080	17	4038
2026-01-08 00:16:06.52	187.78	17.74	-28.9	-29.8	14.6	0.00e+00	0	44	0	1138753536	18	3984
2026-01-08 00:16:09.53	187.90	17.38	-29.1	-30.2	14.3	2.82e-05	0	44	0	1143996416	18	4086
2026-01-08 00:16:12.56	188.01	17.03	-29.5	-30.9	13.5	3.43e-05	0	44	0	1149239296	19	4225
2026-01-08 00:16:15.57	188.13	16.69	-29.8	-31.7	13.1	4.88e-05	0	44	0	1155530752	19	4473
2026-01-08 00:16:18.59	188.24	16.35	-29.6	-31.1	13.3	3.89e-05	0	44	0	1160773632	19	4291
2026-01-08 00:16:21.61	188.34	16.01	-29.5	-31.0	13.5	2.36e-05	0	44	0	1167065088	19	4248
2026-01-08 00:16:24.63	188.45	15.68	-29.6	-31.3	13.2	3.28e-05	0	44	0	1172307968	19	4343
2026-01-08 00:16:27.64	188.55	15.36	-29.7	-31.3	13.1	1.60e-05	0	43	0	1177550848	19	4365
2026-01-08 00:16:30.65	188.66	15.04	-29.6	-31.2	13.1	1.14e-05	0	44	0	1183842304	19	4309
2026-01-08 00:16:33.67	188.76	14.72	-29.7	-31.5	13.1	2.20e-04	0	43	0	1189085184	19	4413
2026-01-08 00:16:36.69	188.85	14.40	-29.8	-31.7	12.9	2.89e-04	0	44	0	1195376640	19	4481
2026-01-08 00:16:39.71	188.95	14.09	-29.9	-32.1	12.6	1.12e-03	0	44	0	1200619520	19	4625
2026-01-08 00:16:42.73	189.04	13.79	-30.1	-32.2	12.1	1.60e-03	0	44	0	1205862400	20	4579
2026-01-08 00:16:45.75	189.14	13.48	-30.0	-32.2	12.5	1.07e-04	0	44	0	1212153856	19	4659
2026-01-08 00:16:48.77	189.23	13.18	-30.1	-32.1	12.1	2.01e-04	0	44	0	1217396736	20	4566
2026-01-08 00:16:51.79	189.32	12.89	-30.0	-32.0	12.1	3.78e-04	0	43	0	1223688192	20	4517
2026-01-08 00:16:54.80	189.40	12.60	-30.0	-32.0	12.1	3.76e-04	0	44	0	1228931072	20	4539
2026-01-08 00:16:57.82	189.49	12.31	-30.0	-32.1	12.1	4.30e-04	0	44	0	1234173952	20	4548
2026-01-08 00:17:00.83	189.57	12.03	-30.2	-32.6	11.6	6.41e-04	0	44	0	1240465408	20	4727
2026-01-08 00:17:03.85	189.66	11.74	-30.3	-33.0	11.4	1.25e-03	0	44	0	1245708288	20	4908
2026-01-08 00:17:06.86	189.74	11.47	-30.3	-33.0	11.3	1.14e-03	0	44	0	1251999744	20	4910
2026-01-08 00:17:09.88	189.82	11.19	-30.7	-33.7	10.6	3.45e-03	0	44	0	1257242624	21	5068
2026-01-08 00:17:12.90	189.90	10.92	-30.0	-32.1	11.9	5.86e-04	0	44	0	1262485504	20	4581
2026-01-08 00:17:15.91	189.98	10.65	-29.9	-32.3	12.2	2.49e-04	0	44	0	1268776960	19	4740
2026-01-08 00:17:18.94	190.05	10.38	-29.9	-31.8	12.1	3.50e-04	0	44	0	1274019840	20	4468
2026-01-08 00:17:21.95	190.13	10.12	-29.9	-32.2	12.2	3.42e-04	0	43	0	1280311296	19	4696
2026-01-08 00:17:24.97	190.20	9.86	-29.6	-31.5	12.7	2.48e-04	0	44	0	1285554176	19	4448
2026-01-08 00:17:27.99	190.28	9.60	-29.5	-31.1	12.8	7.01e-05	0	44	0	1290797056	19	4334
2026-01-08 00:17:31.00	190.35	9.34	-29.6	-31.4	12.7	6.40e-05	0	44	0	1297088512	19	4411
2026-01-08 00:17:34.01	190.42	9.09	-29.5	-31.0	12.9	6.56e-05	0	44	0	1302331392	19	4300
2026-01-08 00:17:37.03	190.49	8.84	-29.5	-31.1	12.8	5.64e-05	0	44	0	1308622848	19	4346
2026-01-08 00:17:40.04	190.56	8.59	-29.5	-31.2	12.8	4.42e-05	0	44	0	1313865728	19	4353
2026-01-08 00:17:43.06	190.63	8.35	-29.4	-31.4	12.9	2.66e-04	0	44	0	1319108608	18	4522
2026-01-08 00:17:46.07	190.69	8.10	-29.3	-31.1	13.1	1.87e-04	0	44	0	1325400064	18	4443
2026-01-08 00:17:49.09	190.76	7.86	-29.1	-30.7	13.3	1.59e-04	0	44	0	1330642944	18	4327
2026-01-08 00:17:52.11	190.82	7.62	-29.1	-30.7	13.3	1.57e-04	0	44	0	1335885824	18	4301
2026-01-08 00:17:55.13	190.89	7.39	-29.0	-30.3	13.5	1.23e-04	0	44	0	1342177280	18	4204
2026-01-08 00:17:58.15	190.95	7.15	-29.0	-30.5	13.4	1.22e-05	0	44	0	1347420160	18	4247
2026-01-08 00:18:01.17	191.01	6.92	-32.9	-45.6	3.8	1.49e+00	0	44	104	1350565888	25	15544

#Closed at: 2026-01-08 00:18:01
#Recorded file [1350 MB]: D:/data/31010_260108_030559.dat