passes_logs/2026/01/08/R2M6_AANII_01/R2M6_AANII_01__20260108_020718_NOAA_20_JPSS-1_rec.log

#Pass ID: 20260108_020718_NOAA 20 (JPSS-1)
#Satellite: NOAA 20 (JPSS-1)
#Configuration: NOAA 20
#almurnet v.1.7.20240730
#Start time: 2026-01-08 02:07:20

#Version: 2.2.20231116
#Station: R2M6_AANII_01
#Location: 30.233357 lon 59.946436 lat
#TLE: 1 43013U 17073A   26006.30790171  .00000126  00000+0  80695-4 0  9991
#TLE: 2 43013  98.7629 307.3394 0001808  51.8724 308.2615 14.19533762421505

#Time	Az	El	Level	Level2	SNR	BER	BlckErr	Temp	State	Recorded	gain1	gain2
2026-01-08 02:07:20.19	10.72	7.09	-32.1	-40.2	4.5	1.37e+00	0	41	0	0	24	9164
2026-01-08 02:07:23.20	10.46	7.28	-32.0	-39.6	6.1	3.07e-01	0	41	0	1048576	24	8601
2026-01-08 02:07:26.21	10.20	7.48	-32.1	-40.1	5.8	3.46e-01	0	41	0	7340032	24	9069
2026-01-08 02:07:29.22	9.94	7.68	-31.7	-38.0	7.7	1.33e-01	0	41	0	12582912	23	7490
2026-01-08 02:07:32.24	9.67	7.89	-31.2	-36.4	9.4	2.25e-02	0	41	0	18874368	22	6560
2026-01-08 02:07:35.26	9.40	8.09	-30.8	-35.6	10.4	7.04e-03	0	41	0	24117248	21	6251
2026-01-08 02:07:38.28	9.12	8.29	-30.9	-35.8	10.3	7.40e-03	0	42	0	29360128	21	6346
2026-01-08 02:07:41.30	8.84	8.50	-30.9	-35.7	10.5	7.47e-03	0	42	0	35651584	21	6270
2026-01-08 02:07:44.32	8.56	8.70	-30.8	-35.5	10.6	5.60e-03	0	42	0	40894464	21	6190
2026-01-08 02:07:47.34	8.27	8.91	-30.8	-35.6	10.6	3.62e-03	0	42	0	47185920	21	6224
2026-01-08 02:07:50.36	7.97	9.12	-30.8	-35.3	10.8	2.80e-03	0	42	0	52428800	21	6065
2026-01-08 02:07:53.38	7.68	9.33	-30.7	-35.1	11.0	2.02e-03	0	42	0	57671680	21	5976
2026-01-08 02:07:56.40	7.37	9.54	-30.7	-35.1	11.0	2.07e-03	0	42	0	63963136	21	5961
2026-01-08 02:07:59.40	7.07	9.75	-30.7	-35.1	11.0	4.73e-03	0	42	0	69206016	21	5962
2026-01-08 02:08:02.42	6.76	9.96	-30.8	-35.2	10.9	3.81e-03	0	42	0	74448896	21	6006
2026-01-08 02:08:05.44	6.44	10.17	-30.8	-35.2	11.0	1.86e-03	0	42	0	80740352	21	5989
2026-01-08 02:08:08.45	6.12	10.38	-30.8	-35.3	10.9	2.40e-03	0	42	0	85983232	21	6028
2026-01-08 02:08:11.47	5.80	10.60	-30.9	-35.7	10.6	2.65e-03	0	42	0	92274688	21	6229
2026-01-08 02:08:14.50	5.47	10.81	-30.9	-35.5	10.8	2.75e-03	0	42	0	97517568	21	6128
2026-01-08 02:08:17.52	5.13	11.03	-31.0	-35.8	10.6	3.04e-03	0	42	0	102760448	21	6292
2026-01-08 02:08:20.53	4.79	11.25	-31.0	-35.5	10.5	3.52e-03	0	42	0	109051904	22	6001
2026-01-08 02:08:23.55	4.44	11.46	-30.9	-35.5	10.8	2.44e-03	0	42	0	114294784	21	6139
2026-01-08 02:08:26.56	4.09	11.68	-31.2	-36.2	10.0	6.77e-03	0	43	0	120586240	22	6340
2026-01-08 02:08:29.56	3.74	11.90	-30.8	-34.7	11.1	2.31e-03	0	42	0	125829120	22	5644
2026-01-08 02:08:32.59	3.38	12.12	-30.8	-35.1	11.2	1.44e-03	0	43	0	131072000	21	5923
2026-01-08 02:08:35.60	3.01	12.34	-30.8	-35.1	11.2	1.31e-03	0	43	0	137363456	21	5928
2026-01-08 02:08:38.60	2.64	12.57	-30.8	-35.2	11.2	1.35e-03	0	43	0	142606336	21	5967
2026-01-08 02:08:41.62	2.26	12.79	-30.7	-34.7	11.5	9.36e-04	0	43	0	148897792	21	5708
2026-01-08 02:08:44.64	1.87	13.01	-30.6	-34.4	11.8	8.96e-04	0	43	0	154140672	21	5598
2026-01-08 02:08:47.66	1.48	13.24	-30.5	-34.2	12.0	6.25e-04	0	43	0	159383552	21	5482
2026-01-08 02:08:50.67	1.08	13.46	-30.4	-34.4	12.2	4.52e-04	0	43	0	165675008	20	5691
2026-01-08 02:08:53.69	0.68	13.69	-30.4	-34.2	12.3	4.13e-04	0	43	0	170917888	20	5603
2026-01-08 02:08:56.71	0.27	13.92	-30.4	-33.9	12.2	4.97e-04	0	43	0	177209344	21	5372
2026-01-08 02:08:59.74	359.85	14.14	-30.4	-34.4	12.3	1.75e-04	0	43	0	182452224	20	5668
2026-01-08 02:09:02.76	359.43	14.37	-30.4	-34.2	12.4	4.21e-04	0	43	0	187695104	20	5609
2026-01-08 02:09:05.77	359.00	14.60	-30.4	-34.2	12.3	4.10e-04	0	43	0	193986560	20	5606
2026-01-08 02:09:08.79	358.56	14.83	-30.7	-34.6	11.8	6.70e-04	0	43	0	199229440	21	5665
2026-01-08 02:09:11.80	358.12	15.06	-30.4	-33.6	12.5	5.52e-04	0	43	0	205520896	21	5242
2026-01-08 02:09:14.82	357.67	15.29	-30.3	-34.0	12.6	5.15e-04	0	43	0	210763776	20	5478
2026-01-08 02:09:17.85	357.21	15.52	-30.3	-34.0	12.6	6.56e-05	0	43	0	216006656	20	5507
2026-01-08 02:09:20.86	356.74	15.75	-30.3	-34.0	12.7	9.23e-05	0	43	0	222298112	20	5499
2026-01-08 02:09:23.87	356.27	15.98	-30.5	-34.4	12.3	9.91e-05	0	43	0	227540992	20	5683
2026-01-08 02:09:26.89	355.79	16.21	-30.3	-34.0	12.6	7.70e-05	0	43	0	233832448	20	5508
2026-01-08 02:09:29.90	355.31	16.44	-30.4	-34.2	12.5	1.14e-04	0	43	0	239075328	20	5569
2026-01-08 02:09:32.92	354.81	16.67	-30.7	-34.6	11.9	5.55e-04	0	43	0	244318208	21	5645
2026-01-08 02:09:35.93	354.31	16.90	-30.8	-35.0	11.7	4.71e-04	0	43	0	250609664	21	5811
2026-01-08 02:09:38.95	353.80	17.13	-30.7	-34.5	12.0	3.14e-04	0	43	0	255852544	21	5588
2026-01-08 02:09:41.95	353.28	17.36	-30.8	-34.7	11.8	6.43e-04	0	43	0	261095424	21	5679
2026-01-08 02:09:44.97	352.75	17.59	-30.4	-33.8	12.5	1.50e-04	0	43	0	267386880	21	5285
2026-01-08 02:09:47.99	352.22	17.82	-30.5	-34.3	12.5	1.08e-04	0	43	0	272629760	20	5610
2026-01-08 02:09:51.01	351.67	18.05	-30.6	-34.3	12.1	2.19e-04	0	43	0	278921216	21	5505
2026-01-08 02:09:54.03	351.12	18.28	-30.5	-34.3	12.5	7.78e-05	0	43	0	284164096	20	5601
2026-01-08 02:09:57.04	350.56	18.51	-30.6	-34.2	12.3	1.99e-03	0	43	0	289406976	21	5467
2026-01-08 02:10:00.07	349.99	18.74	-30.7	-34.4	12.2	2.13e-03	0	43	0	295698432	21	5535
2026-01-08 02:10:03.09	349.41	18.96	-30.5	-34.0	12.4	1.34e-04	0	43	0	300941312	21	5362
2026-01-08 02:10:06.10	348.83	19.19	-30.5	-33.9	12.5	2.02e-04	0	43	0	307232768	21	5307
2026-01-08 02:10:09.12	348.23	19.41	-30.6	-34.1	12.4	1.13e-04	0	43	0	312475648	21	5414
2026-01-08 02:10:12.14	347.62	19.64	-30.5	-33.8	12.6	8.54e-05	0	43	0	317718528	21	5282
2026-01-08 02:10:15.16	347.01	19.86	-30.4	-33.6	12.7	5.41e-05	0	43	0	324009984	21	5207
2026-01-08 02:10:18.17	346.39	20.08	-30.3	-33.8	13.0	1.78e-03	0	43	0	329252864	20	5379
2026-01-08 02:10:21.18	345.76	20.29	-30.0	-32.9	13.6	2.44e-03	0	43	0	335544320	20	5048
2026-01-08 02:10:24.20	345.12	20.51	-30.0	-32.8	13.6	2.41e-03	0	43	0	340787200	20	5014
2026-01-08 02:10:27.22	344.47	20.72	-29.9	-33.0	13.9	2.20e-03	0	43	0	346030080	19	5177
2026-01-08 02:10:30.24	343.81	20.94	-30.2	-33.6	13.1	2.97e-05	0	43	0	352321536	20	5298
2026-01-08 02:10:33.25	343.14	21.15	-29.5	-32.2	14.5	7.00e-07	0	43	0	357564416	19	4868
2026-01-08 02:10:36.26	342.47	21.35	-29.7	-32.7	14.1	2.33e-03	0	43	0	363855872	19	5056
2026-01-08 02:10:39.28	341.78	21.56	-29.8	-32.9	14.1	2.72e-03	0	43	0	369098752	19	5124
2026-01-08 02:10:42.29	341.08	21.76	-29.9	-32.7	13.8	2.74e-03	0	43	0	374341632	20	4946
2026-01-08 02:10:45.30	340.38	21.96	-29.4	-32.3	14.7	2.40e-03	0	43	0	380633088	18	5012
2026-01-08 02:10:48.32	339.67	22.15	-29.6	-32.3	14.5	0.00e+00	0	43	0	385875968	19	4898
2026-01-08 02:10:51.34	338.94	22.35	-29.3	-31.9	15.0	0.00e+00	0	43	0	392167424	18	4906
2026-01-08 02:10:54.36	338.21	22.53	-29.2	-31.7	15.1	0.00e+00	0	43	0	397410304	18	4831
2026-01-08 02:10:57.38	337.47	22.72	-29.4	-32.3	14.7	0.00e+00	0	43	0	402653184	18	5033
2026-01-08 02:11:00.40	336.72	22.90	-29.5	-32.1	14.6	0.00e+00	0	43	0	408944640	19	4831
2026-01-08 02:11:03.41	335.96	23.08	-29.5	-32.4	14.7	0.00e+00	0	43	0	414187520	18	5067
2026-01-08 02:11:06.44	335.19	23.25	-29.5	-32.1	14.5	0.00e+00	0	44	0	419430400	19	4853
2026-01-08 02:11:09.45	334.41	23.42	-29.2	-31.9	15.0	0.00e+00	0	43	0	425721856	18	4884
2026-01-08 02:11:12.47	333.63	23.58	-29.2	-31.8	13.6	7.00e-07	0	43	0	430964736	18	4837
2026-01-08 02:11:15.47	332.84	23.74	-29.3	-32.0	14.8	0.00e+00	0	43	0	437256192	18	4918
2026-01-08 02:11:18.50	332.04	23.90	-29.2	-31.9	15.1	0.00e+00	0	43	0	442499072	18	4880
2026-01-08 02:11:21.52	331.23	24.04	-29.1	-31.4	15.3	0.00e+00	0	43	0	448790528	18	4728
2026-01-08 02:11:24.54	330.41	24.19	-28.8	-31.3	15.7	0.00e+00	0	43	0	454033408	17	4796
2026-01-08 02:11:27.55	329.59	24.32	-28.6	-30.8	16.0	2.03e-03	0	43	0	459276288	17	4631
2026-01-08 02:11:30.56	328.76	24.46	-29.1	-31.5	15.3	2.34e-03	0	43	0	465567744	18	4752
2026-01-08 02:11:33.58	327.92	24.58	-29.2	-31.7	15.1	9.54e-04	0	43	0	470810624	18	4821
2026-01-08 02:11:36.60	327.07	24.70	-29.2	-31.8	15.1	1.62e-03	0	43	0	477102080	18	4855
2026-01-08 02:11:39.61	326.22	24.81	-29.4	-32.3	14.7	0.00e+00	0	43	0	482344960	18	5014
2026-01-08 02:11:42.63	325.37	24.92	-29.4	-31.9	14.7	0.00e+00	0	43	0	487587840	19	4764
2026-01-08 02:11:45.63	324.51	25.02	-29.5	-32.0	14.6	1.03e-03	0	43	0	493879296	19	4818
2026-01-08 02:11:48.66	323.64	25.11	-29.9	-33.2	13.9	1.14e-03	0	43	0	499122176	19	5230
2026-01-08 02:11:51.68	322.76	25.20	-30.0	-32.9	13.6	1.33e-03	0	43	0	504365056	20	5040
2026-01-08 02:11:54.69	321.89	25.28	-30.0	-32.9	13.7	2.29e-03	0	43	0	510656512	20	5007
2026-01-08 02:11:57.70	321.01	25.35	-30.1	-33.2	13.5	2.74e-03	0	43	0	515899392	20	5134
2026-01-08 02:12:00.73	320.12	25.42	-30.0	-33.0	13.6	2.52e-03	0	44	0	522190848	20	5043
2026-01-08 02:12:03.74	319.23	25.47	-30.2	-33.5	13.3	1.44e-05	0	44	0	527433728	20	5252
2026-01-08 02:12:06.75	318.34	25.52	-30.4	-33.6	12.9	6.10e-05	0	43	0	532676608	21	5181
2026-01-08 02:12:09.76	317.45	25.57	-30.5	-33.7	12.8	3.00e-03	0	43	0	538968064	21	5209
2026-01-08 02:12:12.77	316.55	25.60	-30.7	-34.3	12.4	2.88e-03	0	43	0	544210944	21	5451
2026-01-08 02:12:15.80	315.65	25.63	-30.4	-33.9	13.0	3.16e-03	0	43	0	550502400	20	5393
2026-01-08 02:12:18.82	314.75	25.65	-30.5	-33.9	12.7	6.48e-05	0	43	0	555745280	21	5279
2026-01-08 02:12:21.83	313.85	25.66	-30.5	-33.9	12.7	6.25e-05	0	43	0	560988160	21	5297
2026-01-08 02:12:24.85	312.95	25.66	-30.5	-34.2	12.8	4.57e-05	0	43	0	567279616	20	5511
2026-01-08 02:12:27.86	312.05	25.66	-30.3	-33.7	13.2	2.05e-05	0	43	0	572522496	20	5332
2026-01-08 02:12:30.88	311.14	25.65	-30.6	-34.0	12.6	8.46e-05	0	43	0	578813952	21	5332
2026-01-08 02:12:33.90	310.24	25.63	-30.0	-33.0	13.7	1.14e-05	0	44	0	584056832	20	5055
2026-01-08 02:12:36.91	309.34	25.60	-29.7	-32.4	14.4	0.00e+00	0	44	0	589299712	19	4946
2026-01-08 02:12:39.93	308.45	25.57	-29.5	-32.0	14.6	0.00e+00	0	43	0	595591168	19	4826
2026-01-08 02:12:42.95	307.55	25.52	-29.4	-32.3	14.8	0.00e+00	0	44	0	600834048	18	5013
2026-01-08 02:12:45.97	306.66	25.47	-29.4	-32.2	14.8	0.00e+00	0	43	0	607125504	18	4968
2026-01-08 02:12:48.99	305.76	25.42	-29.1	-31.6	15.1	0.00e+00	0	43	0	612368384	18	4796
2026-01-08 02:12:52.00	304.88	25.35	-28.8	-31.2	15.7	0.00e+00	0	44	0	617611264	17	4766
2026-01-08 02:12:55.03	303.99	25.28	-28.7	-31.2	15.7	0.00e+00	0	43	0	623902720	17	4753
2026-01-08 02:12:58.04	303.12	25.20	-28.8	-31.3	15.6	3.35e-04	0	43	0	629145600	17	4808
2026-01-08 02:13:01.05	302.24	25.11	-28.8	-31.2	15.6	4.27e-05	0	44	0	635437056	17	4763
2026-01-08 02:13:04.07	301.37	25.02	-28.8	-31.2	15.7	0.00e+00	0	44	0	640679936	17	4764
2026-01-08 02:13:07.09	300.51	24.92	-28.7	-31.0	15.7	0.00e+00	0	43	0	645922816	17	4719
2026-01-08 02:13:10.10	299.65	24.81	-28.6	-30.9	15.8	0.00e+00	0	44	0	652214272	17	4675
2026-01-08 02:13:13.13	298.80	24.70	-29.0	-31.4	15.3	0.00e+00	0	43	0	657457152	18	4715
2026-01-08 02:13:16.15	297.95	24.58	-29.3	-32.0	14.9	6.79e-05	0	44	0	663748608	18	4911
2026-01-08 02:13:19.17	297.11	24.45	-29.1	-31.6	15.1	6.02e-05	0	43	0	668991488	18	4800
2026-01-08 02:13:22.18	296.28	24.32	-29.2	-31.8	15.0	0.00e+00	0	43	0	674234368	18	4842
2026-01-08 02:13:25.20	295.46	24.18	-29.3	-32.1	14.8	0.00e+00	0	43	0	680525824	18	4942
2026-01-08 02:13:28.21	294.64	24.04	-29.7	-32.7	14.1	2.20e-06	0	44	0	685768704	19	5069
2026-01-08 02:13:31.24	293.83	23.89	-29.7	-32.6	14.1	1.50e-06	0	43	0	691011584	19	5027
2026-01-08 02:13:34.26	293.02	23.74	-29.8	-32.8	14.0	7.00e-07	0	43	0	697303040	19	5115
2026-01-08 02:13:37.28	292.23	23.58	-30.1	-33.1	13.4	5.30e-06	0	43	0	702545920	20	5114
2026-01-08 02:13:40.29	291.44	23.41	-30.3	-33.7	13.0	3.66e-05	0	43	0	708837376	20	5347
2026-01-08 02:13:43.30	290.67	23.25	-30.3	-33.7	13.0	4.80e-05	0	43	0	714080256	20	5347
2026-01-08 02:13:46.31	289.90	23.07	-30.2	-33.5	13.1	2.74e-05	0	43	0	719323136	20	5289
2026-01-08 02:13:49.32	289.14	22.90	-30.0	-32.9	13.5	9.90e-06	0	43	0	725614592	20	5064
2026-01-08 02:13:52.34	288.39	22.71	-30.1	-33.2	13.3	1.67e-05	0	44	0	730857472	20	5158
2026-01-08 02:13:55.36	287.64	22.53	-30.3	-33.7	12.9	5.56e-05	0	44	0	737148928	20	5366
2026-01-08 02:13:58.38	286.91	22.34	-30.0	-33.1	13.3	1.83e-05	0	44	0	742391808	20	5135
2026-01-08 02:14:01.40	286.18	22.15	-30.3	-33.9	12.9	3.43e-05	0	44	0	747634688	20	5425
2026-01-08 02:14:04.41	285.47	21.95	-30.3	-33.7	12.9	5.34e-05	0	43	0	753926144	20	5359
2026-01-08 02:14:07.44	284.76	21.75	-30.0	-33.0	12.5	1.98e-05	0	43	0	759169024	20	5076
2026-01-08 02:14:10.45	284.06	21.55	-29.8	-33.0	13.8	4.50e-06	0	44	0	765460480	19	5185
2026-01-08 02:14:13.47	283.37	21.34	-29.9	-33.3	13.5	2.52e-03	0	44	0	770703360	19	5325
2026-01-08 02:14:16.49	282.69	21.14	-29.6	-32.5	14.0	2.02e-03	0	44	0	775946240	19	5005
2026-01-08 02:14:19.51	282.02	20.92	-29.5	-32.1	14.3	7.00e-07	0	44	0	782237696	19	4862
2026-01-08 02:14:22.53	281.36	20.71	-29.6	-32.3	14.1	7.00e-07	0	44	0	787480576	19	4957
2026-01-08 02:14:25.53	280.71	20.50	-29.6	-32.5	14.1	3.00e-06	0	43	0	793772032	19	5008
2026-01-08 02:14:28.56	280.06	20.28	-29.7	-32.7	13.9	7.00e-07	0	44	0	799014912	19	5073
2026-01-08 02:14:31.57	279.43	20.06	-29.5	-32.1	14.2	2.19e-03	0	43	0	804257792	19	4889
2026-01-08 02:14:34.59	278.80	19.84	-29.7	-32.6	13.9	2.34e-03	0	43	0	810549248	19	5064
2026-01-08 02:14:37.60	278.19	19.62	-29.6	-32.5	14.0	2.28e-03	0	43	0	815792128	19	5026
2026-01-08 02:14:40.61	277.58	19.40	-29.5	-32.6	14.3	2.39e-03	0	44	0	822083584	18	5147
2026-01-08 02:14:43.62	276.99	19.17	-29.4	-32.3	14.4	1.95e-03	0	44	0	827326464	18	5063
2026-01-08 02:14:46.64	276.40	18.95	-29.4	-32.4	14.3	1.25e-03	0	44	0	832569344	18	5104
2026-01-08 02:14:49.65	275.82	18.72	-29.3	-32.1	14.5	2.33e-03	0	44	0	838860800	18	4992
2026-01-08 02:14:52.67	275.25	18.49	-29.4	-32.4	14.4	2.50e-03	0	43	0	844103680	18	5089
2026-01-08 02:14:55.69	274.68	18.26	-29.3	-32.3	14.4	2.33e-03	0	44	0	850395136	18	5065
2026-01-08 02:14:58.71	274.13	18.03	-29.3	-32.2	14.4	2.56e-03	0	44	0	855638016	18	5021
2026-01-08 02:15:01.71	273.59	17.80	-29.0	-31.5	14.9	2.30e-03	0	43	0	860880896	18	4776
2026-01-08 02:15:04.73	273.05	17.57	-28.8	-31.3	15.2	0.00e+00	0	44	0	867172352	17	4843
2026-01-08 02:15:07.75	272.52	17.34	-29.0	-31.5	14.8	0.00e+00	0	44	0	872415232	18	4785
2026-01-08 02:15:10.77	272.00	17.11	-29.0	-31.5	14.8	0.00e+00	0	44	0	877658112	18	4798
2026-01-08 02:15:13.79	271.48	16.88	-28.8	-31.0	15.1	0.00e+00	0	44	0	883949568	18	4629
2026-01-08 02:15:16.81	270.98	16.65	-28.7	-31.3	15.2	0.00e+00	0	44	0	889192448	17	4850
2026-01-08 02:15:19.82	270.48	16.42	-29.1	-31.6	14.7	2.33e-03	0	44	0	895483904	18	4844
2026-01-08 02:15:22.84	269.99	16.19	-29.2	-32.1	14.4	0.00e+00	0	44	0	900726784	18	4998
2026-01-08 02:15:25.86	269.51	15.95	-29.1	-31.6	14.7	7.00e-07	0	43	0	905969664	18	4838
2026-01-08 02:15:28.87	269.03	15.72	-29.1	-31.7	14.6	0.00e+00	0	44	0	912261120	18	4868
2026-01-08 02:15:31.88	268.57	15.49	-29.3	-32.2	14.3	7.00e-07	0	44	0	917504000	18	5054
2026-01-08 02:15:34.91	268.10	15.26	-29.1	-31.9	14.5	7.00e-07	0	43	0	923795456	18	4923
2026-01-08 02:15:37.93	267.65	15.03	-29.2	-32.0	12.9	0.00e+00	0	44	0	929038336	18	4968
2026-01-08 02:15:40.96	267.20	14.80	-29.2	-32.2	14.2	7.00e-07	0	43	0	934281216	18	5039
2026-01-08 02:15:43.97	266.76	14.57	-29.5	-32.8	13.8	5.30e-06	0	44	0	940572672	18	5280
2026-01-08 02:15:46.98	266.33	14.34	-29.7	-32.8	13.4	3.03e-03	0	43	0	945815552	19	5186
2026-01-08 02:15:50.00	265.91	14.11	-29.6	-32.8	13.5	3.06e-03	0	44	0	952107008	19	5156
2026-01-08 02:15:53.02	265.49	13.88	-29.8	-33.2	13.1	1.67e-05	0	44	0	957349888	19	5343
2026-01-08 02:15:56.04	265.07	13.66	-29.7	-33.0	13.3	1.14e-05	0	43	0	962592768	19	5231
2026-01-08 02:15:59.05	264.67	13.43	-30.0	-33.2	12.8	4.04e-05	0	43	0	968884224	20	5222
2026-01-08 02:16:02.06	264.27	13.20	-29.9	-33.4	13.0	2.51e-05	0	43	0	974127104	19	5407
2026-01-08 02:16:05.08	263.88	12.98	-29.8	-33.2	13.1	2.98e-03	0	44	0	980418560	19	5330
2026-01-08 02:16:08.10	263.49	12.75	-29.9	-33.5	12.9	3.51e-03	0	44	0	985661440	19	5444
2026-01-08 02:16:11.12	263.11	12.53	-30.1	-33.6	12.3	3.65e-03	0	44	0	990904320	20	5423
2026-01-08 02:16:14.13	262.73	12.31	-30.0	-33.5	12.5	3.20e-03	0	44	0	997195776	20	5354
2026-01-08 02:16:17.15	262.36	12.08	-30.1	-33.6	12.3	3.24e-03	0	44	0	1002438656	20	5421
2026-01-08 02:16:20.17	262.00	11.86	-29.9	-33.2	12.6	9.68e-05	0	44	0	1008730112	20	5250
2026-01-08 02:16:23.19	261.64	11.64	-30.1	-33.7	12.3	1.60e-04	0	44	0	1013972992	20	5450
2026-01-08 02:16:26.20	261.28	11.42	-30.2	-34.2	11.9	4.76e-04	0	44	0	1019215872	20	5663
2026-01-08 02:16:29.22	260.94	11.20	-30.0	-33.5	12.4	6.49e-04	0	44	0	1025507328	20	5356
2026-01-08 02:16:32.23	260.59	10.99	-30.0	-33.3	12.4	2.28e-03	0	44	0	1030750208	20	5308
2026-01-08 02:16:35.24	260.26	10.77	-29.9	-33.6	12.7	2.81e-03	0	44	0	1037041664	19	5521
2026-01-08 02:16:38.26	259.92	10.55	-30.0	-33.4	12.4	9.61e-05	0	44	0	1042284544	20	5332
2026-01-08 02:16:41.28	259.60	10.34	-30.2	-33.9	12.0	3.60e-04	0	44	0	1047527424	20	5569
2026-01-08 02:16:44.30	259.27	10.13	-30.4	-34.8	11.4	1.02e-03	0	43	0	1053818880	20	5968
2026-01-08 02:16:47.31	258.95	9.91	-30.6	-35.0	10.8	2.20e-03	0	44	0	1059061760	21	5953
2026-01-08 02:16:50.33	258.64	9.70	-30.4	-34.4	11.2	1.47e-03	0	44	0	1064304640	21	5691
2026-01-08 02:16:53.34	258.33	9.49	-30.3	-34.6	11.4	9.12e-04	0	43	0	1070596096	20	5876
2026-01-08 02:16:56.36	258.03	9.28	-30.5	-35.0	11.1	1.57e-03	0	44	0	1075838976	20	6069
2026-01-08 02:16:59.38	257.73	9.07	-30.7	-35.3	10.4	4.00e-03	0	44	0	1082130432	21	6128
2026-01-08 02:17:02.38	257.43	8.86	-30.8	-35.8	10.1	7.05e-03	0	44	0	1087373312	21	6367
2026-01-08 02:17:05.40	257.14	8.66	-30.6	-35.1	10.3	3.29e-03	0	44	0	1092616192	21	6013
2026-01-08 02:17:08.42	256.86	8.45	-30.4	-34.9	10.5	1.81e-03	0	44	0	1098907648	20	6024
2026-01-08 02:17:11.44	256.57	8.24	-30.5	-35.1	10.8	2.64e-03	0	44	0	1104150528	20	6154
2026-01-08 02:17:14.46	256.29	8.04	-30.5	-35.0	10.6	4.03e-03	0	44	0	1110441984	21	5982
2026-01-08 02:17:17.48	256.02	7.84	-30.7	-35.6	10.1	6.62e-03	0	44	0	1115684864	21	6300
2026-01-08 02:17:20.49	255.75	7.64	-30.6	-35.3	10.3	5.49e-03	0	44	0	1120927744	21	6143
2026-01-08 02:17:23.52	255.48	7.43	-30.7	-35.4	10.2	6.76e-03	0	44	0	1127219200	21	6201
2026-01-08 02:17:26.52	255.22	7.23	-30.7	-35.5	10.1	6.27e-03	0	44	0	1132462080	21	6241
2026-01-08 02:17:29.54	254.96	7.03	-32.7	-46.2	3.8	6.49e-03	0	44	104	1137704960	25	17067

#Closed at: 2026-01-08 02:17:30
#Recorded file [1137 MB]: D:/data/31010_260108_050722.dat