passes_logs/2026/01/08/R2M6_AANII_01/R2M6_AANII_01__20260108_110950_NOAA_21_JPSS-2_rec.log

#Pass ID: 20260108_110950_NOAA 21 (JPSS-2)
#Satellite: NOAA 21 (JPSS-2)
#Configuration: NOAA 21
#almurnet v.1.7.20240730
#Start time: 2026-01-08 11:10:58

#Version: 2.2.20231116
#Station: R2M6_AANII_01
#Location: 30.233357 lon 59.946436 lat
#TLE: 1 54234U 22150A   26005.56767909  .00000152  00000+0  92756-4 0  9990
#TLE: 2 54234  98.7490 306.5820 0001036 340.2747  19.8389 14.19532370163472

#Time	Az	El	Level	Level2	SNR	BER	BlckErr	Temp	State	Recorded	gain1	gain2
2026-01-08 11:10:58.75	191.17	12.53	-33.5	-44.6	3.8	8.47e-01	0	43	0	0	27	12852
2026-01-08 11:11:01.74	191.40	12.80	-34.2	-45.8	3.8	1.49e+00	0	43	104	0	29	13602
2026-01-08 11:11:04.73	191.63	13.07	-34.3	-45.9	3.8	1.49e+00	0	43	104	0	29	13724
2026-01-08 11:11:07.74	191.86	13.34	-34.3	-46.0	3.8	1.49e+00	0	43	104	0	29	13769
2026-01-08 11:11:10.75	192.10	13.62	-34.3	-46.0	3.8	1.49e+00	0	43	104	0	29	13788
2026-01-08 11:11:13.74	192.34	13.90	-34.3	-45.9	3.8	1.49e+00	0	43	104	0	29	13766
2026-01-08 11:11:16.75	192.59	14.19	-34.3	-45.9	3.8	1.49e+00	0	43	104	0	29	13719
2026-01-08 11:11:19.76	192.84	14.48	-34.2	-45.7	3.8	1.49e+00	0	44	104	0	29	13604
2026-01-08 11:11:22.76	193.09	14.77	-34.1	-45.5	3.8	1.49e+00	0	43	104	0	29	13406
2026-01-08 11:11:25.75	193.35	15.06	-33.9	-45.1	3.8	1.49e+00	0	43	104	0	29	13076
2026-01-08 11:11:28.76	193.62	15.35	-33.8	-45.0	3.8	1.49e+00	0	43	104	0	29	13014
2026-01-08 11:11:31.77	193.89	15.65	-33.6	-45.1	3.8	1.49e+00	0	43	104	0	28	13509
2026-01-08 11:11:34.75	194.16	15.95	-32.9	-40.6	4.0	1.47e+00	0	43	104	0	27	8757
2026-01-08 11:11:37.76	194.45	16.26	-32.8	-39.6	4.9	7.36e-01	0	43	0	0	26	7940
2026-01-08 11:11:40.76	194.73	16.57	-32.8	-40.5	4.0	1.47e+00	0	43	104	3145728	26	8797
2026-01-08 11:11:43.76	195.03	16.88	-31.3	-35.0	8.7	6.23e-02	0	43	0	4194304	23	5550
2026-01-08 11:11:46.75	195.32	17.19	-28.8	-30.3	13.1	6.40e-05	0	43	0	13631488	19	4281
2026-01-08 11:11:49.77	195.63	17.51	-27.9	-29.1	14.5	0.00e+00	0	43	0	23068672	17	4123
2026-01-08 11:11:52.76	195.94	17.83	-29.1	-31.6	12.7	7.32e-05	0	43	0	32505856	18	4761
2026-01-08 11:11:55.77	196.26	18.16	-29.4	-32.2	12.4	9.91e-05	0	43	0	41943040	18	4973
2026-01-08 11:11:58.76	196.58	18.49	-28.4	-29.7	13.9	6.80e-06	0	43	0	51380224	18	4194
2026-01-08 11:12:01.76	196.91	18.82	-27.7	-29.2	14.8	1.37e-05	0	43	0	60817408	16	4260
2026-01-08 11:12:04.75	197.25	19.15	-27.6	-28.9	15.0	0.00e+00	0	43	0	69206016	16	4177
2026-01-08 11:12:07.76	197.59	19.49	-27.6	-28.7	15.1	8.30e-06	0	43	0	78643200	16	4129
2026-01-08 11:12:10.75	197.94	19.84	-27.5	-28.6	15.2	8.30e-06	0	43	0	88080384	16	4102
2026-01-08 11:12:13.74	198.30	20.18	-27.5	-28.5	15.2	0.00e+00	0	43	0	97517568	16	4070
2026-01-08 11:12:16.75	198.67	20.53	-27.1	-28.3	15.4	1.67e-05	0	43	0	106954752	15	4131
2026-01-08 11:12:19.76	199.05	20.89	-27.1	-28.4	15.4	0.00e+00	0	43	0	116391936	15	4143
2026-01-08 11:12:22.77	199.43	21.25	-27.0	-27.9	15.7	1.14e-05	0	43	0	125829120	15	4032
2026-01-08 11:12:25.76	199.83	21.61	-26.8	-27.6	15.9	9.10e-06	0	43	0	135266304	15	3930
2026-01-08 11:12:28.77	200.23	21.98	-26.7	-27.9	16.0	0.00e+00	0	43	0	144703488	14	4116
2026-01-08 11:12:31.78	200.64	22.35	-26.7	-27.8	16.1	6.10e-06	0	43	0	154140672	14	4102
2026-01-08 11:12:34.78	201.07	22.72	-26.6	-27.6	16.2	0.00e+00	0	43	0	163577856	14	4046
2026-01-08 11:12:37.79	201.50	23.10	-26.6	-27.7	16.2	0.00e+00	0	43	0	173015040	14	4060
2026-01-08 11:12:40.79	201.94	23.48	-26.5	-27.3	16.4	0.00e+00	0	43	0	182452224	14	3974
2026-01-08 11:12:43.78	202.39	23.86	-26.4	-27.2	16.4	0.00e+00	0	43	0	191889408	14	3934
2026-01-08 11:12:46.77	202.85	24.25	-26.4	-27.2	16.4	0.00e+00	0	43	0	201326592	14	3946
2026-01-08 11:12:49.76	203.33	24.64	-26.6	-27.6	16.2	0.00e+00	0	44	0	210763776	14	4059
2026-01-08 11:12:52.74	203.81	25.04	-26.5	-27.4	16.4	0.00e+00	0	44	0	219152384	14	3995
2026-01-08 11:12:55.75	204.31	25.44	-26.5	-27.4	16.4	0.00e+00	0	43	0	228589568	14	3988
2026-01-08 11:12:58.75	204.82	25.85	-26.8	-28.1	16.0	0.00e+00	0	43	0	238026752	14	4163
2026-01-08 11:13:01.75	205.34	26.25	-27.0	-28.4	15.9	0.00e+00	0	43	0	247463936	14	4255
2026-01-08 11:13:04.74	205.88	26.66	-27.1	-28.6	15.7	0.00e+00	0	43	0	256901120	14	4309
2026-01-08 11:13:07.74	206.43	27.08	-27.0	-28.5	15.8	0.00e+00	0	43	0	266338304	14	4290
2026-01-08 11:13:10.75	207.00	27.50	-27.3	-29.1	15.5	0.00e+00	0	43	0	275775488	14	4447
2026-01-08 11:13:13.72	207.57	27.92	-27.2	-29.0	15.6	0.00e+00	0	43	0	285212672	14	4406
2026-01-08 11:13:16.73	208.17	28.35	-27.2	-29.0	15.6	0.00e+00	0	44	0	294649856	14	4407
2026-01-08 11:13:19.75	208.78	28.78	-27.3	-29.3	15.5	0.00e+00	0	43	0	304087040	14	4496
2026-01-08 11:13:22.75	209.41	29.21	-27.8	-29.7	14.9	0.00e+00	0	43	0	313524224	15	4519
2026-01-08 11:13:25.75	210.05	29.65	-27.5	-29.1	15.2	0.00e+00	0	43	0	322961408	15	4336
2026-01-08 11:13:28.77	210.72	30.09	-27.6	-29.5	15.1	0.00e+00	0	43	0	332398592	15	4433
2026-01-08 11:13:31.79	211.40	30.53	-27.2	-28.4	15.7	0.00e+00	0	43	0	341835776	15	4145
2026-01-08 11:13:34.79	212.10	30.98	-27.3	-28.7	15.5	0.00e+00	0	43	0	351272960	15	4223
2026-01-08 11:13:37.80	212.82	31.42	-27.4	-29.0	15.4	0.00e+00	0	43	0	360710144	15	4300
2026-01-08 11:13:40.81	213.56	31.87	-27.7	-29.5	15.1	0.00e+00	0	43	0	370147328	15	4453
2026-01-08 11:13:43.82	214.32	32.32	-28.0	-30.2	14.7	0.00e+00	0	43	0	379584512	15	4646
2026-01-08 11:13:46.81	215.09	32.77	-28.4	-30.6	14.4	0.00e+00	0	43	0	389021696	16	4652
2026-01-08 11:13:49.82	215.89	33.22	-28.3	-30.4	14.5	7.00e-07	0	43	0	398458880	16	4580
2026-01-08 11:13:52.81	216.71	33.67	-28.2	-30.1	14.7	0.00e+00	0	43	0	407896064	16	4486
2026-01-08 11:13:55.82	217.56	34.12	-28.3	-30.4	14.5	7.00e-07	0	43	0	417333248	16	4595
2026-01-08 11:13:58.83	218.43	34.58	-27.9	-29.5	15.0	0.00e+00	0	43	0	425721856	16	4315
2026-01-08 11:14:01.84	219.32	35.03	-28.2	-30.2	14.7	7.00e-07	0	43	0	435159040	16	4519
2026-01-08 11:14:04.83	220.23	35.47	-28.3	-30.5	14.5	0.00e+00	0	43	0	444596224	16	4604
2026-01-08 11:14:07.85	221.18	35.92	-28.7	-30.8	14.0	4.50e-06	0	43	0	454033408	17	4597
2026-01-08 11:14:10.84	222.14	36.37	-28.8	-31.2	13.8	3.00e-06	0	43	0	463470592	17	4716
2026-01-08 11:14:13.83	223.13	36.81	-28.9	-30.9	13.7	4.50e-06	0	43	0	472907776	18	4511
2026-01-08 11:14:16.83	224.15	37.24	-29.1	-31.3	13.5	9.10e-06	0	44	0	482344960	18	4641
2026-01-08 11:14:19.85	225.20	37.68	-29.2	-31.6	13.3	1.52e-05	0	43	0	491782144	18	4717
2026-01-08 11:14:22.83	226.26	38.10	-29.1	-31.2	13.6	9.10e-06	0	43	0	501219328	18	4589
2026-01-08 11:14:25.83	227.37	38.52	-29.2	-31.5	13.3	9.10e-06	0	43	0	510656512	18	4693
2026-01-08 11:14:28.83	228.49	38.94	-29.1	-31.3	13.5	1.83e-05	0	43	0	520093696	18	4616
2026-01-08 11:14:31.83	229.65	39.35	-28.8	-30.4	14.1	2.20e-06	0	43	0	529530880	18	4371
2026-01-08 11:14:34.83	230.84	39.74	-28.8	-30.6	13.9	2.20e-06	0	43	0	538968064	18	4423
2026-01-08 11:14:37.82	232.05	40.13	-28.8	-30.6	13.9	1.50e-06	0	43	0	548405248	18	4414
2026-01-08 11:14:40.83	233.29	40.51	-29.4	-31.9	13.1	2.59e-05	0	43	0	557842432	18	4819
2026-01-08 11:14:43.81	234.56	40.88	-29.3	-31.7	13.3	1.67e-05	0	43	0	567279616	18	4751
2026-01-08 11:14:46.83	235.86	41.23	-29.3	-31.9	13.2	1.75e-05	0	43	0	576716800	18	4813
2026-01-08 11:14:49.83	237.19	41.58	-29.6	-32.0	12.8	3.28e-05	0	43	0	585105408	19	4747
2026-01-08 11:14:52.83	238.55	41.90	-30.0	-33.0	12.2	1.30e-04	0	43	0	594542592	19	5064
2026-01-08 11:14:55.84	239.93	42.22	-30.1	-32.7	12.0	3.97e-04	0	43	0	603979776	20	4863
2026-01-08 11:14:58.83	241.34	42.51	-29.8	-32.0	12.4	1.50e-04	0	43	0	613416960	20	4645
2026-01-08 11:15:01.83	242.77	42.79	-29.7	-31.8	12.5	1.24e-04	0	43	0	622854144	20	4579
2026-01-08 11:15:04.83	244.22	43.05	-29.3	-30.8	13.1	2.44e-05	0	43	0	632291328	20	4259
2026-01-08 11:15:07.83	245.70	43.30	-29.9	-32.3	12.2	2.63e-04	0	43	0	641728512	20	4743
2026-01-08 11:15:10.83	247.20	43.52	-29.8	-31.9	12.5	1.11e-04	0	43	0	651165696	20	4607
2026-01-08 11:15:13.82	248.72	43.72	-30.3	-33.5	11.4	9.74e-04	0	43	0	660602880	20	5160
2026-01-08 11:15:16.83	250.26	43.90	-30.0	-32.5	12.1	2.14e-04	0	44	0	670040064	20	4801
2026-01-08 11:15:19.82	251.81	44.06	-29.7	-31.6	12.7	7.62e-05	0	43	0	679477248	20	4524
2026-01-08 11:15:22.82	253.38	44.20	-29.7	-31.6	12.6	8.85e-05	0	43	0	688914432	20	4509
2026-01-08 11:15:25.80	254.95	44.31	-29.3	-31.1	13.3	1.83e-05	0	43	0	698351616	19	4450
2026-01-08 11:15:28.79	256.54	44.40	-29.5	-31.7	13.0	3.58e-05	0	43	0	707788800	19	4633
2026-01-08 11:15:31.80	258.14	44.47	-29.7	-32.3	12.7	7.24e-05	0	43	0	716177408	19	4855
2026-01-08 11:15:34.79	259.74	44.51	-29.7	-32.1	12.7	7.09e-05	0	43	0	725614592	19	4781
2026-01-08 11:15:37.79	261.34	44.53	-29.7	-32.1	12.7	7.17e-05	0	43	0	735051776	19	4778
2026-01-08 11:15:40.79	262.95	44.52	-29.8	-32.5	12.5	9.23e-05	0	43	0	744488960	19	4916
2026-01-08 11:15:43.79	264.55	44.49	-29.6	-31.8	13.0	4.88e-05	0	43	0	753926144	19	4676
2026-01-08 11:15:46.79	266.15	44.43	-29.7	-32.2	12.7	7.62e-05	0	43	0	763363328	19	4804
2026-01-08 11:15:49.79	267.75	44.35	-29.5	-31.7	13.1	2.51e-05	0	43	0	772800512	19	4629
2026-01-08 11:15:52.79	269.33	44.25	-29.2	-30.9	13.5	3.80e-06	0	43	0	782237696	19	4374
2026-01-08 11:15:55.79	270.90	44.12	-29.6	-31.8	12.9	2.05e-05	0	43	0	791674880	19	4668
2026-01-08 11:15:58.79	272.46	43.97	-29.2	-31.0	13.4	1.44e-05	0	43	0	801112064	19	4427
2026-01-08 11:16:01.80	274.01	43.80	-30.3	-33.3	11.7	5.22e-04	0	43	0	810549248	20	5088
2026-01-08 11:16:04.78	275.53	43.61	-29.7	-31.7	12.7	8.01e-05	0	43	0	819986432	20	4542
2026-01-08 11:16:07.80	277.04	43.39	-29.4	-31.0	13.1	3.50e-05	0	43	0	829423616	20	4328
2026-01-08 11:16:10.80	278.53	43.16	-29.2	-32.2	11.9	1.78e-02	0	43	0	838860800	19	5052
2026-01-08 11:16:13.82	280.00	42.91	-28.5	-30.6	13.1	1.64e-02	0	43	0	848297984	18	4602
2026-01-08 11:16:16.84	281.45	42.63	-28.8	-31.5	12.7	1.26e-02	0	43	0	857735168	18	4877
2026-01-08 11:16:19.87	282.88	42.34	-30.2	-33.2	11.8	5.35e-04	0	43	0	867172352	20	5034
2026-01-08 11:16:22.88	284.27	42.03	-29.8	-31.9	12.5	9.38e-05	0	43	0	876609536	20	4596
2026-01-08 11:16:25.90	285.65	41.71	-30.1	-32.7	12.1	2.84e-04	0	43	0	886046720	20	4848
2026-01-08 11:16:28.91	286.98	41.38	-30.6	-33.6	11.1	1.79e-03	0	43	0	895483904	21	5087
2026-01-08 11:16:31.94	288.30	41.02	-29.8	-32.0	12.5	8.54e-05	0	43	0	904921088	20	4620
2026-01-08 11:16:34.95	289.59	40.66	-30.1	-32.8	11.9	3.52e-04	0	44	0	914358272	20	4903
2026-01-08 11:16:37.97	290.85	40.29	-29.6	-31.6	12.8	8.16e-05	0	43	0	923795456	20	4500
2026-01-08 11:16:40.97	292.07	39.90	-28.9	-30.2	14.0	2.20e-06	0	43	0	933232640	19	4184
2026-01-08 11:16:44.00	293.27	39.50	-29.3	-31.3	13.3	1.29e-05	0	43	0	942669824	19	4515
2026-01-08 11:16:47.02	294.44	39.10	-28.8	-30.0	14.0	6.80e-06	0	43	0	952107008	19	4134
2026-01-08 11:16:50.04	295.59	38.69	-29.4	-31.9	13.2	1.44e-05	0	43	0	961544192	18	4822
2026-01-08 11:16:53.05	296.70	38.27	-29.4	-32.0	13.1	2.28e-05	0	43	0	970981376	18	4859
2026-01-08 11:16:56.07	297.78	37.84	-29.1	-31.3	13.5	9.90e-06	0	43	0	980418560	18	4631
2026-01-08 11:16:59.09	298.84	37.41	-28.8	-30.5	14.0	2.20e-06	0	44	0	989855744	18	4376
2026-01-08 11:17:02.11	299.87	36.98	-28.5	-29.7	14.4	1.50e-06	0	43	0	999292928	18	4152
2026-01-08 11:17:05.12	300.87	36.54	-28.8	-30.5	14.0	7.00e-07	0	43	0	1008730112	18	4385
2026-01-08 11:17:08.15	301.85	36.09	-28.8	-30.6	13.9	6.10e-06	0	43	0	1018167296	18	4408
2026-01-08 11:17:11.17	302.80	35.65	-28.9	-30.8	13.9	3.80e-06	0	43	0	1027604480	18	4462
2026-01-08 11:17:14.18	303.72	35.20	-29.0	-31.1	13.7	1.06e-05	0	43	0	1037041664	18	4557
2026-01-08 11:17:17.21	304.63	34.75	-28.9	-30.8	13.8	3.80e-06	0	43	0	1046478848	18	4476
2026-01-08 11:17:20.23	305.51	34.30	-28.5	-29.9	14.3	0.00e+00	0	43	0	1055916032	18	4204
2026-01-08 11:17:23.24	306.36	33.85	-28.4	-29.5	14.6	0.00e+00	0	43	0	1065353216	18	4109
2026-01-08 11:17:26.27	307.19	33.40	-28.2	-29.7	14.7	0.00e+00	0	43	0	1074790400	17	4261
2026-01-08 11:17:29.28	307.99	32.95	-27.9	-29.0	15.1	0.00e+00	0	43	0	1084227584	17	4067
2026-01-08 11:17:32.30	308.78	32.50	-27.7	-28.9	15.5	0.00e+00	0	43	0	1093664768	16	4136
2026-01-08 11:17:35.32	309.54	32.05	-27.4	-28.2	15.8	0.00e+00	0	43	0	1103101952	16	3962
2026-01-08 11:17:38.34	310.29	31.60	-27.2	-28.3	15.8	0.00e+00	0	43	0	1112539136	15	4113
2026-01-08 11:17:41.36	311.01	31.15	-27.3	-28.7	15.6	0.00e+00	0	43	0	1121976320	15	4208
2026-01-08 11:17:44.38	311.72	30.71	-27.4	-28.8	15.5	7.00e-07	0	43	0	1131413504	15	4247
2026-01-08 11:17:47.40	312.41	30.27	-27.5	-29.2	15.3	0.00e+00	0	43	0	1140850688	15	4338
2026-01-08 11:17:50.43	313.08	29.83	-28.1	-29.9	14.8	0.00e+00	0	43	0	1150287872	16	4442
2026-01-08 11:17:53.45	313.73	29.39	-27.4	-28.2	15.8	0.00e+00	0	43	0	1159725056	16	3975
2026-01-08 11:17:56.46	314.36	28.96	-27.6	-28.7	15.4	0.00e+00	0	43	0	1169162240	16	4105
2026-01-08 11:17:59.48	314.98	28.53	-27.3	-28.2	15.7	0.00e+00	0	43	0	1178599424	16	3963
2026-01-08 11:18:02.50	315.58	28.10	-27.4	-28.3	15.7	0.00e+00	0	43	0	1188036608	16	3993
2026-01-08 11:18:05.52	316.16	27.68	-27.5	-28.5	15.5	0.00e+00	0	43	0	1197473792	16	4058
2026-01-08 11:18:08.54	316.74	27.26	-27.4	-28.4	15.6	0.00e+00	0	43	0	1206910976	16	4035
2026-01-08 11:18:11.56	317.29	26.84	-27.4	-28.2	15.7	0.00e+00	0	43	0	1216348160	16	3988
2026-01-08 11:18:14.57	317.83	26.43	-26.8	-27.8	15.8	7.00e-07	0	43	0	1225785344	15	4051
2026-01-08 11:18:17.59	318.36	26.02	-26.8	-28.1	16.1	0.00e+00	0	43	0	1235222528	14	4152
2026-01-08 11:18:20.59	318.88	25.62	-26.8	-28.0	16.2	0.00e+00	0	43	0	1244659712	14	4126
2026-01-08 11:18:23.61	319.38	25.22	-26.8	-28.0	16.1	0.00e+00	0	44	0	1254096896	14	4141
2026-01-08 11:18:26.63	319.87	24.82	-27.0	-28.5	15.9	0.00e+00	0	43	0	1263534080	14	4284
2026-01-08 11:18:29.65	320.35	24.43	-27.0	-28.5	15.8	0.00e+00	0	43	0	1272971264	14	4287
2026-01-08 11:18:32.67	320.82	24.04	-26.8	-28.1	16.1	0.00e+00	0	43	0	1282408448	14	4168
2026-01-08 11:18:35.70	321.28	23.65	-27.0	-28.4	15.8	0.00e+00	0	43	0	1291845632	14	4254
2026-01-08 11:18:38.72	321.72	23.27	-27.1	-28.7	15.7	0.00e+00	0	43	0	1301282816	14	4336
2026-01-08 11:18:41.73	322.16	22.89	-27.1	-28.7	15.7	0.00e+00	0	43	0	1310720000	14	4329
2026-01-08 11:18:44.76	322.59	22.52	-27.1	-28.7	15.7	0.00e+00	0	43	0	1320157184	14	4344
2026-01-08 11:18:47.78	323.00	22.15	-27.2	-28.9	15.6	7.00e-07	0	43	0	1329594368	14	4389
2026-01-08 11:18:50.80	323.41	21.78	-27.3	-29.2	15.4	0.00e+00	0	43	0	1339031552	14	4467
2026-01-08 11:18:53.83	323.81	21.42	-27.2	-28.9	15.5	0.00e+00	0	43	0	1348468736	14	4400
2026-01-08 11:18:56.84	324.20	21.06	-27.2	-28.9	15.6	0.00e+00	0	43	0	1357905920	14	4376
2026-01-08 11:18:59.87	324.58	20.70	-27.1	-28.8	15.6	0.00e+00	0	43	0	1367343104	14	4353
2026-01-08 11:19:02.90	324.95	20.35	-27.2	-29.0	15.5	0.00e+00	0	43	0	1376780288	14	4417
2026-01-08 11:19:05.91	325.31	20.00	-27.1	-28.6	15.7	0.00e+00	0	43	0	1386217472	14	4315
2026-01-08 11:19:08.93	325.67	19.66	-27.2	-28.8	15.5	0.00e+00	0	43	0	1395654656	14	4376
2026-01-08 11:19:11.95	326.02	19.32	-26.9	-28.3	15.8	0.00e+00	0	43	0	1405091840	14	4237
2026-01-08 11:19:14.97	326.36	18.98	-27.0	-28.6	15.6	0.00e+00	0	43	0	1414529024	14	4303
2026-01-08 11:19:17.98	326.69	18.65	-27.1	-28.7	15.6	0.00e+00	0	43	0	1423966208	14	4324
2026-01-08 11:19:21.00	327.02	18.32	-27.3	-29.3	15.2	0.00e+00	0	43	0	1433403392	14	4502
2026-01-08 11:19:24.03	327.34	18.00	-27.3	-29.3	15.2	0.00e+00	0	43	0	1442840576	14	4501
2026-01-08 11:19:27.05	327.65	17.68	-27.5	-29.6	15.0	0.00e+00	0	43	0	1452277760	14	4604
2026-01-08 11:19:30.07	327.96	17.36	-27.7	-29.7	14.6	0.00e+00	0	43	0	1461714944	15	4518
2026-01-08 11:19:33.09	328.26	17.04	-27.8	-29.9	14.6	0.00e+00	0	43	0	1471152128	15	4565
2026-01-08 11:19:36.12	328.56	16.73	-27.6	-29.3	14.8	0.00e+00	0	43	0	1480589312	15	4410
2026-01-08 11:19:39.13	328.85	16.42	-27.7	-29.6	14.7	0.00e+00	0	43	0	1490026496	15	4475
2026-01-08 11:19:42.14	329.13	16.12	-27.8	-29.8	14.5	0.00e+00	0	43	0	1499463680	15	4557
2026-01-08 11:19:45.16	329.41	15.82	-27.9	-30.1	14.3	1.50e-06	0	43	0	1508900864	15	4638
2026-01-08 11:19:48.18	329.68	15.52	-27.9	-30.1	14.3	1.50e-06	0	43	0	1518338048	15	4652
2026-01-08 11:19:51.19	329.95	15.22	-27.9	-30.1	14.3	7.00e-07	0	43	0	1527775232	15	4658
2026-01-08 11:19:54.20	330.21	14.93	-28.0	-29.7	14.4	7.00e-07	0	43	0	1536163840	16	4416
2026-01-08 11:19:57.22	330.47	14.64	-28.0	-29.8	14.3	2.20e-06	0	43	0	1546649600	16	4440
2026-01-08 11:20:00.24	330.73	14.35	-28.2	-30.2	14.1	2.20e-06	0	44	0	1556086784	16	4556
2026-01-08 11:20:03.25	330.97	14.07	-28.4	-30.7	13.8	6.10e-06	0	43	0	1564475392	16	4722
2026-01-08 11:20:06.28	331.22	13.79	-28.3	-30.5	13.9	1.50e-06	0	43	0	1574961152	16	4664
2026-01-08 11:20:09.31	331.46	13.51	-28.4	-30.7	13.7	3.00e-06	0	43	0	1584398336	16	4722
2026-01-08 11:20:12.32	331.70	13.23	-28.4	-30.3	13.7	9.10e-06	0	43	0	1593835520	17	4488
2026-01-08 11:20:15.33	331.93	12.96	-28.5	-30.5	13.6	1.06e-05	0	43	0	1603272704	17	4534
2026-01-08 11:20:18.36	332.16	12.69	-28.6	-30.7	13.4	1.75e-05	0	43	0	1612709888	17	4621
2026-01-08 11:20:21.38	332.38	12.42	-28.6	-30.7	13.3	1.22e-05	0	43	0	1622147072	17	4618
2026-01-08 11:20:24.41	332.60	12.16	-28.6	-30.9	13.2	2.67e-05	0	43	0	1631584256	17	4675
2026-01-08 11:20:27.43	332.82	11.89	-28.6	-30.9	13.2	2.59e-05	0	43	0	1641021440	17	4674
2026-01-08 11:20:30.44	333.03	11.63	-28.5	-30.6	13.4	1.90e-05	0	43	0	1650458624	17	4574
2026-01-08 11:20:33.46	333.24	11.38	-28.6	-30.9	13.2	2.21e-05	0	43	0	1659895808	17	4665
2026-01-08 11:20:36.48	333.45	11.12	-28.7	-31.1	13.0	2.97e-05	0	43	0	1669332992	17	4740
2026-01-08 11:20:39.50	333.65	10.87	-28.7	-31.2	13.0	2.89e-05	0	43	0	1677721600	17	4770
2026-01-08 11:20:42.52	333.85	10.62	-28.5	-30.7	13.3	2.28e-05	0	43	0	1688207360	17	4626
2026-01-08 11:20:45.54	334.05	10.37	-28.6	-30.8	13.2	2.74e-05	0	43	0	1697644544	17	4649
2026-01-08 11:20:48.56	334.24	10.12	-28.6	-30.9	13.1	2.82e-05	0	43	0	1707081728	17	4677
2026-01-08 11:20:51.58	334.43	9.88	-28.5	-30.7	13.2	2.13e-05	0	43	0	1716518912	17	4627
2026-01-08 11:20:54.60	334.62	9.64	-28.7	-31.1	13.0	4.73e-05	0	43	0	1724907520	17	4737
2026-01-08 11:20:57.62	334.81	9.40	-28.8	-31.3	12.8	5.03e-05	0	43	0	1735393280	17	4812
2026-01-08 11:21:00.64	334.99	9.16	-28.8	-31.4	12.7	7.32e-05	0	43	0	1744830464	17	4862
2026-01-08 11:21:03.66	335.17	8.92	-28.8	-31.4	12.7	5.49e-05	0	43	0	1754267648	17	4856
2026-01-08 11:21:06.68	335.35	8.69	-28.8	-31.4	12.7	9.68e-05	0	43	0	1763704832	17	4857
2026-01-08 11:21:09.69	335.52	8.46	-28.9	-31.7	12.4	1.31e-04	0	43	0	1772093440	17	4958
2026-01-08 11:21:12.71	335.69	8.23	-28.9	-31.7	12.4	1.22e-04	0	43	0	1782579200	17	4983
2026-01-08 11:21:15.73	335.86	8.00	-29.3	-32.1	11.8	6.11e-04	0	43	0	1792016384	18	5021
2026-01-08 11:21:18.75	336.03	7.77	-29.3	-32.3	11.7	5.32e-04	0	43	0	1800404992	18	5064
2026-01-08 11:21:21.77	336.19	7.55	-29.3	-32.1	11.7	5.80e-04	0	43	0	1810890752	18	5021
2026-01-08 11:21:24.79	336.35	7.33	-29.4	-32.5	11.5	7.71e-04	0	43	0	1819279360	18	5137
2026-01-08 11:21:27.81	336.52	7.11	-29.8	-33.2	10.7	3.62e-03	0	43	0	1829765120	19	5299

#Closed at: 2026-01-08 11:21:30
#Recorded file [1830 MB]: D:/data/31010_260108_141142.dat