passes_logs/2026/01/08/R2M6_AANII_01/R2M6_AANII_01__20260108_075147_NOAA_21_JPSS-2_rec.log

#Pass ID: 20260108_075147_NOAA 21 (JPSS-2)
#Satellite: NOAA 21 (JPSS-2)
#Configuration: NOAA 21
#almurnet v.1.7.20240730
#Start time: 2026-01-08 07:51:47

#Version: 2.2.20231116
#Station: R2M6_AANII_01
#Location: 30.233357 lon 59.946436 lat
#TLE: 1 54234U 22150A   26005.56767909  .00000152  00000+0  92756-4 0  9990
#TLE: 2 54234  98.7490 306.5820 0001036 340.2747  19.8389 14.19532370163472

#Time	Az	El	Level	Level2	SNR	BER	BlckErr	Temp	State	Recorded	gain1	gain2
2026-01-08 07:51:47.36	83.81	7.00	-30.9	-35.6	4.5	1.41e+00	0	41	0	0	23	6170
2026-01-08 07:51:50.38	83.46	7.17	-30.4	-33.6	9.2	1.90e-02	0	41	0	3145728	22	5200
2026-01-08 07:51:53.39	83.12	7.34	-30.3	-33.3	9.4	1.54e-02	0	41	0	12582912	22	5067
2026-01-08 07:51:56.42	82.77	7.50	-30.5	-34.0	8.9	3.73e-02	0	41	0	22020096	22	5366
2026-01-08 07:51:59.43	82.42	7.67	-29.4	-31.8	11.1	1.64e-03	0	41	0	31457280	20	4727
2026-01-08 07:52:02.45	82.06	7.84	-28.8	-30.9	12.4	1.56e-04	0	41	0	40894464	18	4624
2026-01-08 07:52:05.46	81.70	8.01	-28.7	-30.9	12.5	1.78e-04	0	41	0	49283072	18	4597
2026-01-08 07:52:08.49	81.33	8.18	-28.7	-30.8	12.5	1.17e-04	0	41	0	59768832	18	4596
2026-01-08 07:52:11.51	80.96	8.35	-28.7	-30.7	12.7	6.48e-05	0	41	0	69206016	18	4538
2026-01-08 07:52:14.53	80.59	8.52	-28.4	-29.9	13.2	2.67e-05	0	41	0	78643200	18	4294
2026-01-08 07:52:17.55	80.21	8.69	-28.3	-29.8	13.3	1.83e-05	0	41	0	88080384	18	4269
2026-01-08 07:52:20.58	79.82	8.85	-28.5	-30.1	13.1	4.73e-05	0	42	0	97517568	18	4355
2026-01-08 07:52:23.60	79.44	9.02	-28.3	-30.2	13.4	2.28e-05	0	42	0	106954752	17	4481
2026-01-08 07:52:26.62	79.04	9.19	-28.4	-30.4	13.2	1.83e-05	0	42	0	116391936	17	4546
2026-01-08 07:52:29.64	78.65	9.36	-28.2	-30.0	13.5	1.14e-05	0	42	0	125829120	17	4406
2026-01-08 07:52:32.66	78.24	9.53	-28.3	-30.2	13.4	1.90e-05	0	42	0	135266304	17	4485
2026-01-08 07:52:35.67	77.84	9.69	-28.2	-30.0	13.5	1.44e-05	0	42	0	144703488	17	4426
2026-01-08 07:52:38.70	77.43	9.86	-28.3	-30.1	13.5	1.06e-05	0	42	0	154140672	17	4449
2026-01-08 07:52:41.73	77.01	10.03	-28.3	-30.2	13.4	2.36e-05	0	42	0	163577856	17	4484
2026-01-08 07:52:44.75	76.59	10.20	-28.2	-29.8	13.7	1.06e-05	0	42	0	173015040	17	4366
2026-01-08 07:52:47.76	76.16	10.36	-28.2	-29.8	13.7	1.44e-05	0	42	0	182452224	17	4360
2026-01-08 07:52:50.78	75.73	10.53	-28.1	-29.7	13.8	1.60e-05	0	42	0	191889408	17	4336
2026-01-08 07:52:53.80	75.29	10.69	-28.2	-29.8	13.7	5.30e-06	0	42	0	201326592	17	4347
2026-01-08 07:52:56.81	74.85	10.86	-28.3	-30.1	13.6	1.60e-05	0	42	0	210763776	17	4442
2026-01-08 07:52:59.83	74.41	11.02	-28.4	-30.3	13.4	1.14e-05	0	42	0	220200960	17	4513
2026-01-08 07:53:02.85	73.96	11.19	-28.4	-30.3	13.5	1.60e-05	0	42	0	229638144	17	4506
2026-01-08 07:53:05.87	73.50	11.35	-28.3	-30.2	13.5	8.30e-06	0	42	0	239075328	17	4467
2026-01-08 07:53:08.89	73.04	11.51	-28.4	-30.4	13.5	1.22e-05	0	42	0	248512512	17	4516
2026-01-08 07:53:11.91	72.57	11.67	-28.5	-30.5	13.3	1.06e-05	0	42	0	257949696	17	4573
2026-01-08 07:53:14.94	72.10	11.84	-28.3	-30.2	13.6	7.60e-06	0	42	0	267386880	17	4461
2026-01-08 07:53:17.96	71.62	12.00	-28.3	-30.1	13.6	9.90e-06	0	42	0	276824064	17	4442
2026-01-08 07:53:20.98	71.14	12.15	-28.3	-30.1	13.7	6.80e-06	0	42	0	286261248	17	4421
2026-01-08 07:53:24.01	70.65	12.31	-28.1	-29.6	13.9	1.50e-06	0	42	0	295698432	17	4292
2026-01-08 07:53:27.03	70.16	12.47	-28.0	-29.5	14.0	2.20e-06	0	42	0	305135616	17	4266
2026-01-08 07:53:30.05	69.66	12.63	-28.1	-29.7	13.9	6.80e-06	0	42	0	314572800	17	4326
2026-01-08 07:53:33.07	69.16	12.78	-28.3	-30.1	13.7	3.80e-06	0	43	0	324009984	17	4440
2026-01-08 07:53:36.09	68.65	12.93	-28.1	-29.7	13.9	3.80e-06	0	43	0	333447168	17	4313
2026-01-08 07:53:39.11	68.13	13.09	-28.1	-29.6	14.0	3.80e-06	0	42	0	342884352	17	4284
2026-01-08 07:53:42.13	67.61	13.24	-28.1	-29.6	14.0	4.50e-06	0	42	0	352321536	17	4282
2026-01-08 07:53:45.15	67.09	13.39	-28.0	-29.5	14.1	7.00e-07	0	43	0	361758720	17	4245
2026-01-08 07:53:48.17	66.56	13.53	-28.0	-29.3	14.2	7.00e-07	0	43	0	371195904	17	4197
2026-01-08 07:53:51.19	66.02	13.68	-27.9	-29.2	14.3	7.00e-07	0	43	0	380633088	17	4163
2026-01-08 07:53:54.22	65.48	13.83	-27.9	-29.2	14.3	1.50e-06	0	43	0	390070272	17	4173
2026-01-08 07:53:57.24	64.93	13.97	-27.9	-29.1	14.4	0.00e+00	0	43	0	399507456	17	4144
2026-01-08 07:54:00.25	64.38	14.11	-28.0	-29.3	14.3	0.00e+00	0	43	0	408944640	17	4197
2026-01-08 07:54:03.24	63.83	14.25	-28.0	-29.2	14.3	3.80e-06	0	43	0	418381824	17	4174
2026-01-08 07:54:06.27	63.27	14.39	-28.0	-29.3	14.3	1.50e-06	0	43	0	427819008	17	4192
2026-01-08 07:54:09.29	62.70	14.52	-28.0	-29.4	14.2	7.00e-07	0	43	0	437256192	17	4232
2026-01-08 07:54:12.32	62.12	14.65	-27.8	-29.0	14.5	7.00e-07	0	43	0	446693376	17	4103
2026-01-08 07:54:15.33	61.55	14.79	-27.7	-29.2	14.7	7.00e-07	0	43	0	456130560	16	4254
2026-01-08 07:54:18.35	60.97	14.91	-27.7	-29.1	14.7	7.00e-07	0	43	0	465567744	16	4235
2026-01-08 07:54:21.37	60.38	15.04	-28.0	-29.8	14.4	3.80e-06	0	43	0	475004928	16	4427
2026-01-08 07:54:24.39	59.78	15.16	-28.0	-29.8	14.3	3.80e-06	0	43	0	484442112	16	4445
2026-01-08 07:54:27.41	59.19	15.29	-27.9	-29.6	14.4	7.00e-07	0	43	0	493879296	16	4393
2026-01-08 07:54:30.44	58.58	15.41	-27.9	-29.7	14.4	1.50e-06	0	43	0	503316480	16	4398
2026-01-08 07:54:33.45	57.98	15.52	-27.9	-29.5	14.5	0.00e+00	0	43	0	512753664	16	4360
2026-01-08 07:54:36.47	57.36	15.63	-27.9	-29.6	14.4	1.50e-06	0	43	0	522190848	16	4385
2026-01-08 07:54:39.49	56.75	15.75	-27.9	-29.7	14.4	0.00e+00	0	43	0	531628032	16	4402
2026-01-08 07:54:42.51	56.13	15.85	-27.9	-29.7	14.4	0.00e+00	0	43	0	541065216	16	4403
2026-01-08 07:54:45.52	55.50	15.96	-27.6	-28.9	14.9	0.00e+00	0	43	0	550502400	16	4176
2026-01-08 07:54:48.55	54.87	16.06	-27.7	-29.1	14.8	0.00e+00	0	43	0	559939584	16	4224
2026-01-08 07:54:51.57	54.24	16.16	-27.7	-29.1	14.7	0.00e+00	0	43	0	569376768	16	4245
2026-01-08 07:54:54.59	53.60	16.25	-27.7	-29.1	14.8	7.00e-07	0	43	0	578813952	16	4234
2026-01-08 07:54:57.60	52.96	16.35	-27.7	-29.2	14.7	7.00e-07	0	43	0	588251136	16	4262
2026-01-08 07:55:00.63	52.31	16.44	-27.9	-29.7	14.4	7.00e-07	0	43	0	597688320	16	4402
2026-01-08 07:55:03.65	51.66	16.52	-27.8	-29.4	14.6	0.00e+00	0	43	0	607125504	16	4313
2026-01-08 07:55:06.67	51.00	16.60	-27.8	-29.4	14.6	0.00e+00	0	43	0	616562688	16	4310
2026-01-08 07:55:09.69	50.35	16.68	-27.7	-29.1	14.8	0.00e+00	0	43	0	625999872	16	4229
2026-01-08 07:55:12.71	49.69	16.76	-27.4	-28.5	15.1	0.00e+00	0	43	0	635437056	16	4080
2026-01-08 07:55:15.72	49.02	16.83	-27.5	-28.7	15.0	0.00e+00	0	43	0	644874240	16	4134
2026-01-08 07:55:18.73	48.36	16.89	-27.6	-28.9	14.9	0.00e+00	0	43	0	654311424	16	4172
2026-01-08 07:55:21.75	47.69	16.96	-27.6	-28.8	15.0	0.00e+00	0	43	0	663748608	16	4140
2026-01-08 07:55:24.77	47.02	17.02	-27.7	-29.2	14.7	0.00e+00	0	43	0	673185792	16	4262
2026-01-08 07:55:27.79	46.34	17.07	-27.7	-29.1	14.8	0.00e+00	0	43	0	682622976	16	4246
2026-01-08 07:55:30.82	45.66	17.13	-27.6	-29.0	14.9	0.00e+00	0	43	0	692060160	16	4194
2026-01-08 07:55:33.84	44.98	17.17	-27.5	-28.8	15.0	0.00e+00	0	43	0	701497344	16	4151
2026-01-08 07:55:36.85	44.30	17.22	-27.5	-28.7	15.0	7.00e-07	0	43	0	710934528	16	4129
2026-01-08 07:55:39.87	43.62	17.26	-27.5	-28.7	15.0	0.00e+00	0	43	0	720371712	16	4123
2026-01-08 07:55:42.89	42.93	17.29	-27.8	-29.4	14.6	1.50e-06	0	43	0	729808896	16	4330
2026-01-08 07:55:45.92	42.24	17.32	-27.7	-29.0	14.8	0.00e+00	0	43	0	739246080	16	4218
2026-01-08 07:55:48.94	41.56	17.35	-27.7	-29.2	14.8	7.00e-07	0	43	0	748683264	16	4258
2026-01-08 07:55:51.95	40.87	17.37	-27.9	-29.5	14.6	7.00e-07	0	43	0	758120448	16	4354
2026-01-08 07:55:54.97	40.18	17.39	-27.6	-29.0	14.9	0.00e+00	0	43	0	767557632	16	4200
2026-01-08 07:55:57.99	39.49	17.41	-27.4	-28.5	15.2	0.00e+00	0	43	0	776994816	16	4067
2026-01-08 07:56:01.00	38.80	17.42	-27.4	-28.3	15.2	0.00e+00	0	43	0	785383424	16	4027
2026-01-08 07:56:04.02	38.11	17.42	-27.4	-28.4	15.2	0.00e+00	0	43	0	795869184	16	4047
2026-01-08 07:56:07.03	37.42	17.42	-27.5	-28.6	15.0	0.00e+00	0	43	0	805306368	16	4104
2026-01-08 07:56:10.05	36.73	17.42	-27.5	-28.6	15.1	0.00e+00	0	43	0	813694976	16	4093
2026-01-08 07:56:13.06	36.04	17.41	-27.6	-29.0	14.9	0.00e+00	0	43	0	823132160	16	4197
2026-01-08 07:56:16.08	35.34	17.40	-27.4	-28.5	15.2	0.00e+00	0	43	0	832569344	16	4064
2026-01-08 07:56:19.09	34.66	17.39	-27.3	-28.3	15.3	0.00e+00	0	43	0	842006528	16	4010
2026-01-08 07:56:22.11	33.97	17.37	-27.2	-28.5	15.3	0.00e+00	0	43	0	851443712	15	4174
2026-01-08 07:56:25.13	33.28	17.34	-27.2	-28.5	15.3	0.00e+00	0	43	0	860880896	15	4180
2026-01-08 07:56:28.15	32.59	17.32	-27.2	-28.6	15.2	0.00e+00	0	43	0	870318080	15	4216
2026-01-08 07:56:31.17	31.90	17.28	-27.3	-28.7	15.2	0.00e+00	0	43	0	879755264	15	4228
2026-01-08 07:56:34.20	31.22	17.25	-27.3	-28.8	15.1	0.00e+00	0	43	0	889192448	15	4261
2026-01-08 07:56:37.21	30.54	17.21	-27.4	-28.9	15.0	0.00e+00	0	43	0	898629632	15	4297
2026-01-08 07:56:40.23	29.86	17.16	-27.5	-29.2	14.9	0.00e+00	0	43	0	908066816	15	4372
2026-01-08 07:56:43.25	29.18	17.11	-27.3	-28.7	15.1	0.00e+00	0	43	0	917504000	15	4230
2026-01-08 07:56:46.27	28.50	17.06	-27.2	-28.5	15.2	0.00e+00	0	43	0	926941184	15	4189
2026-01-08 07:56:49.29	27.83	17.00	-27.4	-28.8	15.0	0.00e+00	0	43	0	936378368	15	4276
2026-01-08 07:56:52.32	27.16	16.94	-27.5	-29.3	14.7	0.00e+00	0	43	0	946864128	15	4412
2026-01-08 07:56:55.34	26.49	16.88	-27.4	-28.9	14.9	7.00e-07	0	43	0	955252736	15	4307
2026-01-08 07:56:58.34	25.83	16.81	-27.3	-28.8	15.0	0.00e+00	0	43	0	964689920	15	4274
2026-01-08 07:57:01.37	25.16	16.74	-27.3	-28.8	15.0	0.00e+00	0	43	0	974127104	15	4274
2026-01-08 07:57:04.40	24.50	16.66	-27.5	-29.2	14.8	0.00e+00	0	43	0	983564288	15	4381
2026-01-08 07:57:07.41	23.85	16.58	-27.5	-29.3	14.7	7.00e-07	0	43	0	993001472	15	4406
2026-01-08 07:57:10.44	23.19	16.50	-27.6	-29.4	14.7	0.00e+00	0	43	0	1002438656	15	4429
2026-01-08 07:57:13.45	22.55	16.42	-27.3	-28.8	15.0	0.00e+00	0	43	0	1011875840	15	4261
2026-01-08 07:57:16.48	21.90	16.33	-27.5	-29.3	14.7	7.00e-07	0	43	0	1021313024	15	4407
2026-01-08 07:57:19.49	21.26	16.23	-27.2	-28.6	15.1	0.00e+00	0	43	0	1030750208	15	4218
2026-01-08 07:57:22.52	20.63	16.14	-27.4	-29.0	14.9	0.00e+00	0	43	0	1041235968	15	4340
2026-01-08 07:57:25.53	20.00	16.04	-27.3	-28.8	15.0	0.00e+00	0	43	0	1049624576	15	4277
2026-01-08 07:57:28.54	19.37	15.94	-27.4	-29.0	14.9	0.00e+00	0	43	0	1059061760	15	4311
2026-01-08 07:57:31.56	18.75	15.83	-27.6	-29.5	14.5	7.00e-07	0	43	0	1068498944	15	4484
2026-01-08 07:57:34.58	18.13	15.72	-27.5	-29.1	14.7	7.00e-07	0	43	0	1077936128	15	4369
2026-01-08 07:57:37.60	17.52	15.61	-27.5	-29.2	14.7	7.00e-07	0	43	0	1087373312	15	4381
2026-01-08 07:57:40.61	16.91	15.50	-27.3	-28.7	15.0	0.00e+00	0	43	0	1096810496	15	4245
2026-01-08 07:57:43.63	16.30	15.38	-27.6	-29.4	14.6	0.00e+00	0	43	0	1106247680	15	4455
2026-01-08 07:57:46.64	15.71	15.26	-27.6	-29.5	14.5	0.00e+00	0	43	0	1115684864	15	4468
2026-01-08 07:57:49.66	15.11	15.14	-27.4	-29.0	14.8	0.00e+00	0	43	0	1125122048	15	4342
2026-01-08 07:57:52.68	14.52	15.02	-27.4	-29.0	14.8	0.00e+00	0	43	0	1134559232	15	4329
2026-01-08 07:57:55.69	13.94	14.89	-27.8	-29.9	14.2	7.00e-07	0	43	0	1143996416	15	4603
2026-01-08 07:57:58.69	13.36	14.76	-27.6	-29.5	14.5	7.00e-07	0	43	0	1153433600	15	4491
2026-01-08 07:58:01.72	12.79	14.63	-27.5	-29.1	14.7	0.00e+00	0	43	0	1162870784	15	4368
2026-01-08 07:58:04.73	12.22	14.50	-27.5	-29.3	14.6	0.00e+00	0	43	0	1172307968	15	4411
2026-01-08 07:58:07.75	11.65	14.36	-27.5	-29.2	14.7	0.00e+00	0	43	0	1181745152	15	4372
2026-01-08 07:58:10.78	11.09	14.22	-27.6	-29.4	14.5	7.00e-07	0	43	0	1191182336	15	4445
2026-01-08 07:58:13.78	10.54	14.09	-27.5	-29.3	14.6	1.50e-06	0	43	0	1200619520	15	4413
2026-01-08 07:58:16.79	10.00	13.94	-27.6	-29.4	14.5	0.00e+00	0	43	0	1210056704	15	4462
2026-01-08 07:58:19.81	9.45	13.80	-27.6	-29.6	14.4	3.00e-06	0	43	0	1219493888	15	4505
2026-01-08 07:58:22.82	8.92	13.66	-27.8	-29.9	14.2	3.80e-06	0	43	0	1228931072	15	4614
2026-01-08 07:58:25.83	8.39	13.51	-27.8	-30.0	14.1	2.20e-06	0	43	0	1238368256	15	4630
2026-01-08 07:58:28.85	7.86	13.36	-27.7	-29.8	14.2	2.20e-06	0	43	0	1247805440	15	4576
2026-01-08 07:58:31.87	7.34	13.21	-27.7	-29.7	14.3	0.00e+00	0	43	0	1257242624	15	4533
2026-01-08 07:58:34.89	6.82	13.06	-27.9	-30.2	14.0	1.50e-06	0	43	0	1266679808	15	4696
2026-01-08 07:58:37.91	6.31	12.91	-27.7	-29.7	14.3	1.50e-06	0	43	0	1276116992	15	4529
2026-01-08 07:58:40.93	5.80	12.76	-27.6	-29.6	14.3	1.50e-06	0	43	0	1285554176	15	4517
2026-01-08 07:58:43.94	5.31	12.60	-27.6	-29.4	14.4	0.00e+00	0	43	0	1294991360	15	4464
2026-01-08 07:58:46.96	4.81	12.45	-27.7	-29.7	14.2	2.20e-06	0	43	0	1304428544	15	4549
2026-01-08 07:58:49.98	4.32	12.29	-27.6	-29.6	14.3	0.00e+00	0	43	0	1313865728	15	4516
2026-01-08 07:58:53.00	3.84	12.13	-27.9	-30.2	14.0	5.30e-06	0	43	0	1323302912	15	4691
2026-01-08 07:58:56.02	3.36	11.98	-28.2	-30.5	13.6	5.30e-06	0	43	0	1332740096	16	4675
2026-01-08 07:58:59.03	2.89	11.82	-28.3	-30.6	13.6	9.10e-06	0	43	0	1342177280	16	4702
2026-01-08 07:59:02.05	2.42	11.66	-28.3	-30.6	13.5	7.60e-06	0	43	0	1351614464	16	4709
2026-01-08 07:59:05.07	1.95	11.49	-28.4	-30.8	13.4	1.90e-05	0	43	0	1361051648	16	4781
2026-01-08 07:59:08.10	1.49	11.33	-28.4	-31.0	13.3	2.05e-05	0	43	0	1370488832	16	4820
2026-01-08 07:59:11.11	1.04	11.17	-28.5	-30.5	13.2	2.05e-05	0	43	0	1379926016	17	4575
2026-01-08 07:59:14.13	0.60	11.01	-28.2	-29.9	13.6	9.90e-06	0	43	0	1389363200	17	4401
2026-01-08 07:59:17.14	0.15	10.84	-28.2	-29.9	13.6	4.50e-06	0	43	0	1398800384	17	4375
2026-01-08 07:59:20.17	359.72	10.68	-28.1	-29.7	13.7	5.30e-06	0	43	0	1408237568	17	4331
2026-01-08 07:59:23.18	359.28	10.51	-28.2	-29.9	13.6	6.10e-06	0	43	0	1417674752	17	4397
2026-01-08 07:59:26.19	358.86	10.35	-28.2	-30.0	13.5	6.80e-06	0	43	0	1427111936	17	4409
2026-01-08 07:59:29.22	358.43	10.18	-28.3	-30.3	13.3	1.90e-05	0	43	0	1436549120	17	4517
2026-01-08 07:59:32.24	358.02	10.02	-28.3	-30.1	13.4	1.29e-05	0	43	0	1445986304	17	4462
2026-01-08 07:59:35.26	357.60	9.85	-28.2	-30.0	13.4	1.29e-05	0	43	0	1455423488	17	4424
2026-01-08 07:59:38.29	357.19	9.68	-28.2	-29.9	13.5	6.80e-06	0	43	0	1464860672	17	4377
2026-01-08 07:59:41.31	356.79	9.51	-28.3	-30.1	13.4	1.44e-05	0	43	0	1474297856	17	4450
2026-01-08 07:59:44.34	356.39	9.35	-28.4	-30.5	13.2	1.83e-05	0	43	0	1483735040	17	4560
2026-01-08 07:59:47.36	356.00	9.18	-28.4	-30.4	13.1	1.44e-05	0	43	0	1493172224	17	4557
2026-01-08 07:59:50.38	355.61	9.01	-28.6	-30.9	12.9	4.34e-05	0	43	0	1502609408	17	4701
2026-01-08 07:59:53.40	355.22	8.84	-28.5	-30.8	12.9	3.50e-05	0	43	0	1512046592	17	4674
2026-01-08 07:59:56.43	354.84	8.67	-28.7	-31.2	12.6	8.31e-05	0	43	0	1521483776	17	4797
2026-01-08 07:59:59.45	354.46	8.51	-28.7	-31.1	12.7	1.05e-04	0	43	0	1530920960	17	4789
2026-01-08 08:00:02.46	354.09	8.34	-28.7	-31.3	12.5	1.30e-04	0	43	0	1540358144	17	4845
2026-01-08 08:00:05.48	353.73	8.17	-28.7	-31.1	12.6	1.03e-04	0	43	0	1549795328	17	4788
2026-01-08 08:00:08.50	353.36	8.00	-28.8	-31.6	12.3	1.48e-04	0	43	0	1559232512	17	4956
2026-01-08 08:00:11.53	353.00	7.83	-28.9	-31.3	12.2	1.49e-04	0	43	0	1568669696	18	4724
2026-01-08 08:00:14.53	352.65	7.67	-28.7	-30.8	12.5	1.10e-04	0	43	0	1578106880	18	4585
2026-01-08 08:00:17.55	352.30	7.50	-28.6	-30.5	12.7	7.93e-05	0	43	0	1587544064	18	4471
2026-01-08 08:00:20.57	351.96	7.33	-28.5	-30.3	12.8	5.79e-05	0	43	0	1596981248	18	4415
2026-01-08 08:00:23.58	351.62	7.16	-28.6	-30.6	12.5	1.13e-04	0	43	0	1606418432	18	4525
2026-01-08 08:00:26.61	351.28	6.99	-33.2	-45.1	3.8	1.49e+00	0	43	104	1612709888	26	14240

#Closed at: 2026-01-08 08:00:27
#Recorded file [1612 MB]: D:/data/31010_260108_105149.dat