passes_logs/2026/01/08/R2M6_AANII_01/R2M6_AANII_01__20260108_092929_NOAA_21_JPSS-2_rec.log

#Pass ID: 20260108_092929_NOAA 21 (JPSS-2)
#Satellite: NOAA 21 (JPSS-2)
#Configuration: NOAA 21
#almurnet v.1.7.20240730
#Start time: 2026-01-08 09:29:31

#Version: 2.2.20231116
#Station: R2M6_AANII_01
#Location: 30.233357 lon 59.946436 lat
#TLE: 1 54234U 22150A   26005.56767909  .00000152  00000+0  92756-4 0  9990
#TLE: 2 54234  98.7490 306.5820 0001036 340.2747  19.8389 14.19532370163472

#Time	Az	El	Level	Level2	SNR	BER	BlckErr	Temp	State	Recorded	gain1	gain2
2026-01-08 09:29:31.07	134.61	7.10	-30.2	-34.5	4.7	1.39e+00	0	40	0	0	21	5865
2026-01-08 09:29:34.09	134.49	7.33	-30.5	-34.0	8.7	3.35e-02	0	41	0	3145728	22	5379
2026-01-08 09:29:37.09	134.37	7.56	-30.0	-33.0	9.8	1.08e-02	0	41	0	12582912	21	5085
2026-01-08 09:29:40.11	134.24	7.79	-29.8	-32.5	10.2	6.70e-03	0	41	0	22020096	21	4892
2026-01-08 09:29:43.13	134.12	8.02	-29.0	-31.0	12.0	3.49e-04	0	41	0	31457280	19	4568
2026-01-08 09:29:46.14	133.99	8.26	-28.9	-31.2	12.2	1.88e-04	0	41	0	40894464	18	4720
2026-01-08 09:29:49.17	133.85	8.50	-28.8	-30.9	12.4	1.37e-04	0	41	0	49283072	18	4623
2026-01-08 09:29:52.18	133.72	8.74	-28.8	-31.0	12.5	1.31e-04	0	41	0	59768832	18	4622
2026-01-08 09:29:55.20	133.58	8.98	-28.7	-30.8	12.6	1.16e-04	0	42	0	69206016	18	4572
2026-01-08 09:29:58.21	133.44	9.23	-28.4	-30.0	13.2	2.28e-05	0	42	0	77594624	18	4319
2026-01-08 09:30:01.23	133.30	9.47	-28.4	-30.1	13.2	3.20e-05	0	42	0	88080384	18	4340
2026-01-08 09:30:04.25	133.16	9.72	-28.4	-30.0	13.2	1.67e-05	0	42	0	96468992	18	4314
2026-01-08 09:30:07.26	133.01	9.97	-28.3	-29.7	13.4	1.60e-05	0	42	0	105906176	18	4232
2026-01-08 09:30:10.28	132.86	10.23	-28.3	-29.7	13.5	9.10e-06	0	42	0	116391936	18	4209
2026-01-08 09:30:13.30	132.71	10.49	-28.3	-30.1	13.5	8.30e-06	0	42	0	124780544	17	4442
2026-01-08 09:30:16.32	132.55	10.74	-28.2	-29.8	13.7	7.60e-06	0	42	0	135266304	17	4351
2026-01-08 09:30:19.34	132.39	11.01	-28.2	-29.9	13.7	6.10e-06	0	42	0	143654912	17	4374
2026-01-08 09:30:22.36	132.23	11.27	-28.0	-29.4	14.1	7.00e-07	0	42	0	153092096	17	4225
2026-01-08 09:30:25.38	132.07	11.54	-28.1	-29.6	13.9	3.80e-06	0	42	0	163577856	17	4302
2026-01-08 09:30:28.40	131.90	11.81	-28.1	-29.6	14.0	4.50e-06	0	42	0	171966464	17	4279
2026-01-08 09:30:31.41	131.73	12.08	-28.0	-29.4	14.1	3.00e-06	0	42	0	181403648	17	4227
2026-01-08 09:30:34.43	131.55	12.36	-28.2	-29.9	13.8	3.80e-06	0	42	0	190840832	17	4361
2026-01-08 09:30:37.44	131.38	12.63	-28.0	-29.4	14.1	7.60e-06	0	42	0	200278016	17	4227
2026-01-08 09:30:40.47	131.19	12.91	-27.9	-29.1	14.3	3.00e-06	0	42	0	209715200	17	4153
2026-01-08 09:30:43.49	131.01	13.20	-27.9	-29.1	14.4	9.10e-06	0	42	0	219152384	17	4137
2026-01-08 09:30:46.51	130.82	13.49	-27.9	-29.3	14.3	6.10e-06	0	42	0	228589568	17	4188
2026-01-08 09:30:49.52	130.63	13.78	-27.8	-29.0	14.4	1.50e-06	0	42	0	238026752	17	4110
2026-01-08 09:30:52.53	130.43	14.07	-27.7	-29.3	14.6	3.00e-06	0	42	0	247463936	16	4296
2026-01-08 09:30:55.55	130.23	14.37	-27.7	-29.1	14.7	7.00e-07	0	42	0	256901120	16	4239
2026-01-08 09:30:58.57	130.02	14.67	-27.7	-29.1	14.7	0.00e+00	0	43	0	266338304	16	4246
2026-01-08 09:31:01.59	129.82	14.97	-27.7	-29.2	14.7	7.00e-07	0	42	0	275775488	16	4260
2026-01-08 09:31:04.61	129.60	15.28	-27.9	-29.5	14.6	0.00e+00	0	42	0	285212672	16	4351
2026-01-08 09:31:07.63	129.38	15.59	-27.9	-29.5	14.6	0.00e+00	0	43	0	294649856	16	4346
2026-01-08 09:31:10.64	129.16	15.90	-27.9	-29.7	14.5	7.00e-07	0	42	0	304087040	16	4399
2026-01-08 09:31:13.65	128.93	16.21	-28.1	-30.0	14.3	1.50e-06	0	42	0	313524224	16	4491
2026-01-08 09:31:16.67	128.70	16.54	-28.0	-29.9	14.4	0.00e+00	0	42	0	322961408	16	4462
2026-01-08 09:31:19.68	128.46	16.86	-28.1	-30.0	14.4	0.00e+00	0	43	0	332398592	16	4481
2026-01-08 09:31:22.70	128.22	17.19	-28.0	-29.8	14.5	0.00e+00	0	42	0	341835776	16	4426
2026-01-08 09:31:25.73	127.97	17.52	-28.0	-29.8	14.5	0.00e+00	0	43	0	351272960	16	4442
2026-01-08 09:31:28.75	127.71	17.86	-27.9	-29.6	14.7	0.00e+00	0	43	0	360710144	16	4369
2026-01-08 09:31:31.77	127.45	18.20	-27.9	-29.6	14.7	0.00e+00	0	43	0	370147328	16	4360
2026-01-08 09:31:34.79	127.18	18.54	-28.1	-30.0	14.5	0.00e+00	0	43	0	379584512	16	4486
2026-01-08 09:31:37.81	126.91	18.89	-28.0	-29.8	14.6	0.00e+00	0	43	0	389021696	16	4405
2026-01-08 09:31:40.83	126.63	19.25	-28.0	-29.7	14.7	7.00e-07	0	43	0	398458880	16	4390
2026-01-08 09:31:43.85	126.34	19.60	-27.9	-29.6	14.8	0.00e+00	0	43	0	407896064	16	4353
2026-01-08 09:31:46.86	126.05	19.96	-27.8	-29.4	14.9	0.00e+00	0	43	0	417333248	16	4302
2026-01-08 09:31:49.88	125.75	20.33	-27.8	-29.4	14.9	0.00e+00	0	43	0	426770432	16	4299
2026-01-08 09:31:52.90	125.44	20.70	-27.8	-29.1	15.1	0.00e+00	0	43	0	436207616	16	4225
2026-01-08 09:31:55.92	125.12	21.08	-27.5	-28.5	15.5	0.00e+00	0	43	0	445644800	16	4045
2026-01-08 09:31:58.92	124.80	21.45	-27.1	-28.2	15.7	0.00e+00	0	43	0	455081984	15	4093
2026-01-08 09:32:01.93	124.47	21.84	-27.1	-28.2	15.7	0.00e+00	0	43	0	464519168	15	4095
2026-01-08 09:32:04.93	124.13	22.23	-27.1	-28.2	15.8	0.00e+00	0	43	0	473956352	15	4088
2026-01-08 09:32:07.96	123.78	22.62	-26.9	-27.8	16.0	0.00e+00	0	43	0	483393536	15	3977
2026-01-08 09:32:10.97	123.42	23.02	-26.9	-27.7	16.1	0.00e+00	0	43	0	492830720	15	3967
2026-01-08 09:32:13.98	123.05	23.42	-26.8	-28.0	16.2	0.00e+00	0	43	0	502267904	14	4147
2026-01-08 09:32:17.00	122.67	23.83	-27.0	-28.5	15.9	0.00e+00	0	43	0	511705088	14	4278
2026-01-08 09:32:20.02	122.29	24.25	-26.6	-27.5	16.5	0.00e+00	0	43	0	521142272	14	3998
2026-01-08 09:32:23.03	121.89	24.67	-26.5	-27.4	16.5	0.00e+00	0	43	0	530579456	14	3993
2026-01-08 09:32:26.06	121.48	25.09	-26.7	-27.7	16.4	0.00e+00	0	43	0	540016640	14	4068
2026-01-08 09:32:29.08	121.05	25.52	-27.1	-28.7	15.9	0.00e+00	0	43	0	549453824	14	4314
2026-01-08 09:32:32.11	120.62	25.96	-27.1	-28.6	15.9	0.00e+00	0	43	0	558891008	14	4309
2026-01-08 09:32:35.14	120.17	26.40	-27.2	-29.0	15.7	0.00e+00	0	43	0	568328192	14	4404
2026-01-08 09:32:38.16	119.71	26.85	-27.3	-28.6	15.7	0.00e+00	0	43	0	577765376	15	4198
2026-01-08 09:32:41.18	119.24	27.30	-27.2	-28.5	15.8	0.00e+00	0	43	0	587202560	15	4150
2026-01-08 09:32:44.20	118.75	27.76	-27.3	-28.7	15.7	0.00e+00	0	43	0	596639744	15	4200
2026-01-08 09:32:47.22	118.25	28.22	-27.7	-29.5	15.2	0.00e+00	0	43	0	606076928	15	4427
2026-01-08 09:32:50.25	117.73	28.69	-27.6	-29.3	15.4	0.00e+00	0	43	0	615514112	15	4371
2026-01-08 09:32:53.25	117.21	29.15	-27.6	-29.2	15.4	0.00e+00	0	43	0	624951296	15	4344
2026-01-08 09:32:56.27	116.66	29.63	-27.4	-28.9	15.6	0.00e+00	0	43	0	634388480	15	4265
2026-01-08 09:32:59.28	116.10	30.11	-27.7	-29.5	15.2	0.00e+00	0	43	0	643825664	15	4422
2026-01-08 09:33:02.31	115.51	30.60	-27.9	-29.5	15.1	0.00e+00	0	43	0	653262848	16	4306
2026-01-08 09:33:05.32	114.92	31.09	-27.8	-29.3	15.3	0.00e+00	0	43	0	662700032	16	4260
2026-01-08 09:33:08.33	114.30	31.59	-28.0	-29.7	15.1	0.00e+00	0	43	0	672137216	16	4357
2026-01-08 09:33:11.35	113.66	32.09	-28.1	-29.9	15.0	7.00e-07	0	43	0	681574400	16	4422
2026-01-08 09:33:14.36	113.01	32.59	-28.3	-30.3	14.7	0.00e+00	0	43	0	691011584	16	4555
2026-01-08 09:33:17.38	112.33	33.10	-28.1	-29.9	15.0	0.00e+00	0	43	0	700448768	16	4408
2026-01-08 09:33:20.40	111.63	33.62	-28.1	-29.9	14.9	0.00e+00	0	43	0	709885952	16	4427
2026-01-08 09:33:23.41	110.91	34.13	-28.2	-30.0	15.0	0.00e+00	0	43	0	719323136	16	4438
2026-01-08 09:33:26.43	110.16	34.65	-28.5	-30.7	14.5	0.00e+00	0	43	0	728760320	16	4657
2026-01-08 09:33:29.44	109.39	35.17	-28.7	-30.7	14.3	0.00e+00	0	43	0	738197504	17	4540
2026-01-08 09:33:32.46	108.59	35.70	-28.8	-30.9	14.2	1.50e-06	0	43	0	747634688	17	4609
2026-01-08 09:33:35.47	107.77	36.23	-28.9	-31.3	13.9	1.50e-06	0	43	0	757071872	17	4716
2026-01-08 09:33:38.50	106.92	36.76	-29.1	-31.1	13.8	4.50e-06	0	43	0	766509056	18	4553
2026-01-08 09:33:41.52	106.04	37.29	-29.1	-31.1	13.8	2.20e-06	0	43	0	775946240	18	4550
2026-01-08 09:33:44.54	105.13	37.82	-29.1	-31.1	13.9	3.00e-06	0	43	0	785383424	18	4543
2026-01-08 09:33:47.56	104.19	38.35	-29.0	-31.0	13.9	3.80e-06	0	43	0	794820608	18	4523
2026-01-08 09:33:50.58	103.22	38.88	-29.0	-30.9	14.0	6.10e-06	0	43	0	804257792	18	4496
2026-01-08 09:33:53.60	102.22	39.41	-28.9	-30.7	14.1	6.80e-06	0	43	0	813694976	18	4420
2026-01-08 09:33:56.63	101.18	39.94	-28.9	-30.8	14.0	1.50e-06	0	43	0	823132160	18	4456
2026-01-08 09:33:59.64	100.12	40.46	-29.4	-31.9	13.4	1.29e-05	0	43	0	832569344	18	4798
2026-01-08 09:34:02.66	99.02	40.98	-29.6	-32.0	13.1	3.66e-05	0	43	0	842006528	19	4704
2026-01-08 09:34:05.68	97.88	41.49	-30.0	-32.5	12.3	1.21e-04	0	43	0	851443712	20	4791
2026-01-08 09:34:08.70	96.70	42.00	-30.1	-32.7	12.3	2.08e-04	0	43	0	860880896	20	4836
2026-01-08 09:34:11.72	95.48	42.50	-30.2	-33.0	12.1	3.31e-04	0	43	0	870318080	20	4936
2026-01-08 09:34:14.74	94.23	42.99	-30.1	-32.6	12.3	2.07e-04	0	43	0	879755264	20	4800
2026-01-08 09:34:17.76	92.94	43.47	-29.8	-31.9	12.8	6.10e-05	0	43	0	889192448	20	4571
2026-01-08 09:34:20.77	91.61	43.94	-29.8	-31.8	12.9	5.49e-05	0	43	0	898629632	20	4550
2026-01-08 09:34:23.79	90.25	44.40	-30.0	-32.4	12.5	1.03e-04	0	43	0	908066816	20	4735
2026-01-08 09:34:26.81	88.84	44.85	-30.0	-32.5	12.5	1.27e-04	0	43	0	917504000	20	4769
2026-01-08 09:34:29.82	87.39	45.28	-29.5	-31.2	13.3	1.60e-05	0	43	0	926941184	20	4359
2026-01-08 09:34:32.84	85.90	45.69	-29.4	-30.9	13.4	1.29e-05	0	43	0	936378368	20	4267
2026-01-08 09:34:35.87	84.37	46.09	-29.3	-31.2	13.6	3.00e-06	0	43	0	945815552	19	4450
2026-01-08 09:34:38.87	82.82	46.46	-29.8	-32.2	12.9	4.04e-05	0	43	0	955252736	19	4786
2026-01-08 09:34:41.89	81.22	46.82	-30.1	-32.5	12.4	9.46e-05	0	43	0	964689920	20	4774
2026-01-08 09:34:44.91	79.58	47.15	-29.7	-31.6	13.0	3.66e-05	0	43	0	974127104	20	4470
2026-01-08 09:34:47.94	77.90	47.46	-30.4	-33.5	11.8	3.86e-04	0	43	0	983564288	20	5121
2026-01-08 09:34:50.96	76.20	47.75	-30.4	-33.4	11.8	3.87e-04	0	43	0	993001472	20	5080
2026-01-08 09:34:53.98	74.47	48.00	-29.4	-30.8	13.4	1.37e-05	0	43	0	1002438656	20	4249
2026-01-08 09:34:57.00	72.71	48.23	-29.5	-31.0	13.3	1.90e-05	0	43	0	1011875840	20	4314
2026-01-08 09:35:00.01	70.93	48.44	-29.2	-30.9	13.8	4.50e-06	0	43	0	1021313024	19	4385
2026-01-08 09:35:03.03	69.12	48.61	-30.0	-32.5	12.4	1.41e-04	0	43	0	1030750208	20	4787
2026-01-08 09:35:06.06	67.29	48.75	-30.0	-32.5	12.4	1.17e-04	0	43	0	1040187392	20	4785
2026-01-08 09:35:09.07	65.45	48.86	-29.7	-31.7	12.9	6.10e-05	0	43	0	1049624576	20	4528
2026-01-08 09:35:12.09	63.60	48.94	-29.5	-31.2	13.2	3.89e-05	0	43	0	1059061760	20	4366
2026-01-08 09:35:15.09	61.76	48.98	-29.6	-31.3	13.1	2.21e-05	0	43	0	1068498944	20	4405
2026-01-08 09:35:18.12	59.89	49.00	-28.9	-30.2	14.1	2.20e-06	0	43	0	1077936128	19	4178
2026-01-08 09:35:21.14	58.03	48.98	-28.9	-30.7	14.2	0.00e+00	0	43	0	1087373312	18	4414
2026-01-08 09:35:24.14	56.18	48.93	-29.2	-31.4	13.7	3.00e-06	0	43	0	1096810496	18	4648
2026-01-08 09:35:27.16	54.33	48.85	-29.4	-31.3	13.5	1.29e-05	0	43	0	1106247680	19	4501
2026-01-08 09:35:30.18	52.49	48.73	-29.7	-32.1	13.1	3.05e-05	0	43	0	1115684864	19	4732
2026-01-08 09:35:33.20	50.67	48.58	-29.8	-32.4	12.9	5.18e-05	0	43	0	1125122048	19	4848
2026-01-08 09:35:36.21	48.87	48.41	-29.7	-31.6	13.0	5.95e-05	0	43	0	1134559232	20	4504
2026-01-08 09:35:39.22	47.10	48.20	-29.4	-31.4	13.5	7.60e-06	0	43	0	1143996416	19	4513
2026-01-08 09:35:42.24	45.35	47.97	-30.2	-32.8	12.1	2.50e-04	0	43	0	1153433600	20	4888
2026-01-08 09:35:45.26	43.62	47.71	-29.0	-30.5	14.0	3.80e-06	0	43	0	1162870784	19	4255
2026-01-08 09:35:48.28	41.92	47.42	-29.5	-31.5	13.4	1.06e-05	0	43	0	1172307968	19	4566
2026-01-08 09:35:51.29	40.26	47.11	-29.5	-31.5	13.3	2.13e-05	0	43	0	1181745152	19	4572
2026-01-08 09:35:54.31	38.64	46.77	-29.6	-31.8	13.0	3.12e-05	0	43	0	1191182336	19	4665
2026-01-08 09:35:57.33	37.04	46.41	-29.7	-32.0	13.0	6.25e-05	0	43	0	1200619520	19	4732
2026-01-08 09:36:00.35	35.49	46.04	-29.6	-31.7	13.2	2.13e-05	0	43	0	1210056704	19	4634
2026-01-08 09:36:03.37	33.97	45.64	-30.8	-34.0	11.0	1.74e-03	0	43	0	1219493888	21	5228
2026-01-08 09:36:06.39	32.49	45.22	-29.4	-31.4	13.4	9.90e-06	0	43	0	1228931072	19	4510
2026-01-08 09:36:09.40	31.05	44.79	-31.5	-35.4	9.7	7.66e-03	0	43	0	1238368256	22	5688
2026-01-08 09:36:12.43	29.65	44.35	-30.4	-32.3	11.7	6.99e-04	0	43	0	1247805440	22	4509
2026-01-08 09:36:15.43	28.30	43.89	-30.5	-32.8	11.5	5.43e-04	0	43	0	1257242624	22	4665
2026-01-08 09:36:18.44	26.98	43.42	-32.2	-36.9	7.8	8.25e-02	0	43	0	1266679808	24	6191
2026-01-08 09:36:21.46	25.70	42.94	-31.5	-34.7	9.5	1.23e-02	0	43	0	1276116992	24	5169
2026-01-08 09:36:24.47	24.46	42.45	-31.1	-33.9	10.3	5.37e-03	0	43	0	1285554176	23	4970
2026-01-08 09:36:27.50	23.25	41.95	-30.7	-33.3	11.1	2.96e-03	0	43	0	1294991360	22	4843
2026-01-08 09:36:30.52	22.08	41.44	-29.5	-31.3	13.1	1.83e-05	0	43	0	1304428544	20	4386
2026-01-08 09:36:33.53	20.95	40.93	-31.1	-34.5	10.3	5.38e-03	0	43	0	1313865728	22	5322
2026-01-08 09:36:36.55	19.86	40.41	-30.0	-31.9	12.3	2.55e-04	0	43	0	1323302912	21	4471
2026-01-08 09:36:39.56	18.80	39.89	-29.1	-30.7	13.6	8.30e-06	0	43	0	1332740096	19	4340
2026-01-08 09:36:42.59	17.77	39.37	-30.0	-32.5	12.2	1.86e-04	0	43	0	1342177280	20	4782
2026-01-08 09:36:45.60	16.78	38.84	-29.3	-30.7	13.3	3.12e-05	0	43	0	1351614464	20	4242
2026-01-08 09:36:48.62	15.81	38.31	-29.1	-30.8	13.6	9.90e-06	0	43	0	1361051648	19	4355
2026-01-08 09:36:51.64	14.88	37.78	-29.8	-32.3	12.7	5.26e-05	0	43	0	1370488832	19	4838
2026-01-08 09:36:54.65	13.99	37.26	-29.8	-32.4	12.6	9.76e-05	0	43	0	1379926016	19	4875
2026-01-08 09:36:57.68	13.11	36.73	-28.6	-30.1	14.3	1.50e-06	0	43	0	1389363200	18	4260
2026-01-08 09:37:00.69	12.27	36.20	-28.3	-29.8	14.7	7.00e-07	0	43	0	1398800384	17	4293
2026-01-08 09:37:03.70	11.45	35.68	-28.3	-29.9	14.6	0.00e+00	0	43	0	1408237568	17	4308
2026-01-08 09:37:06.72	10.66	35.16	-27.9	-28.9	15.2	0.00e+00	0	43	0	1417674752	17	4037
2026-01-08 09:37:09.74	9.90	34.64	-28.0	-29.1	15.1	0.00e+00	0	43	0	1427111936	17	4091
2026-01-08 09:37:12.75	9.16	34.12	-28.1	-29.3	14.9	0.00e+00	0	43	0	1436549120	17	4151
2026-01-08 09:37:15.77	8.44	33.60	-28.5	-30.4	14.3	0.00e+00	0	43	0	1445986304	17	4454
2026-01-08 09:37:18.79	7.75	33.09	-28.4	-30.2	14.4	7.00e-07	0	43	0	1455423488	17	4399
2026-01-08 09:37:21.81	7.07	32.59	-28.5	-30.2	14.4	0.00e+00	0	43	0	1463812096	17	4415
2026-01-08 09:37:24.83	6.42	32.08	-28.6	-30.6	14.2	4.50e-06	0	43	0	1474297856	17	4518
2026-01-08 09:37:27.85	5.79	31.59	-28.3	-29.8	14.6	1.50e-06	0	43	0	1483735040	17	4296
2026-01-08 09:37:30.87	5.17	31.09	-27.9	-29.0	15.0	0.00e+00	0	43	0	1493172224	17	4082
2026-01-08 09:37:33.89	4.58	30.60	-28.0	-29.8	14.9	0.00e+00	0	43	0	1502609408	16	4395
2026-01-08 09:37:36.90	4.00	30.12	-28.1	-29.9	14.8	0.00e+00	0	43	0	1510998016	16	4442
2026-01-08 09:37:39.92	3.45	29.64	-27.9	-29.5	15.0	0.00e+00	0	43	0	1520435200	16	4336
2026-01-08 09:37:42.94	2.90	29.17	-27.9	-29.4	15.0	0.00e+00	0	43	0	1530920960	16	4301
2026-01-08 09:37:45.96	2.38	28.70	-27.7	-28.9	15.4	0.00e+00	0	43	0	1539309568	16	4159
2026-01-08 09:37:48.97	1.87	28.23	-27.5	-28.6	15.5	0.00e+00	0	43	0	1549795328	16	4086
2026-01-08 09:37:51.99	1.37	27.77	-27.4	-28.3	15.7	0.00e+00	0	43	0	1559232512	16	4001
2026-01-08 09:37:55.02	0.89	27.32	-27.4	-28.4	15.6	0.00e+00	0	43	0	1567621120	16	4024
2026-01-08 09:37:58.03	0.42	26.87	-27.4	-28.3	15.6	7.00e-07	0	43	0	1578106880	16	4008
2026-01-08 09:38:01.04	359.96	26.43	-26.9	-27.8	16.0	0.00e+00	0	43	0	1586495488	15	3984
2026-01-08 09:38:04.07	359.52	25.99	-26.7	-27.9	16.2	0.00e+00	0	43	0	1595932672	14	4103
2026-01-08 09:38:07.07	359.09	25.56	-26.7	-27.7	16.4	0.00e+00	0	43	0	1606418432	14	4053
2026-01-08 09:38:10.09	358.67	25.13	-27.0	-28.4	15.9	0.00e+00	0	43	0	1614807040	14	4242
2026-01-08 09:38:13.10	358.27	24.71	-27.1	-28.7	15.7	0.00e+00	0	43	0	1624244224	14	4334
2026-01-08 09:38:16.12	357.87	24.29	-27.4	-29.5	15.3	0.00e+00	0	43	0	1633681408	14	4555
2026-01-08 09:38:19.13	357.49	23.88	-27.7	-29.6	14.9	0.00e+00	0	43	0	1643118592	15	4486
2026-01-08 09:38:22.15	357.11	23.48	-27.7	-29.5	15.0	0.00e+00	0	43	0	1652555776	15	4451
2026-01-08 09:38:25.16	356.75	23.07	-27.7	-29.5	14.9	0.00e+00	0	43	0	1661992960	15	4466
2026-01-08 09:38:28.18	356.39	22.68	-27.4	-28.9	15.3	0.00e+00	0	43	0	1671430144	15	4285
2026-01-08 09:38:31.19	356.05	22.29	-27.1	-28.2	15.7	0.00e+00	0	43	0	1680867328	15	4087
2026-01-08 09:38:34.20	355.71	21.90	-27.0	-28.1	15.8	0.00e+00	0	43	0	1690304512	15	4056
2026-01-08 09:38:37.21	355.38	21.52	-27.0	-28.1	15.8	0.00e+00	0	43	0	1699741696	15	4064
2026-01-08 09:38:40.24	355.06	21.14	-27.3	-28.6	15.4	0.00e+00	0	43	0	1709178880	15	4196
2026-01-08 09:38:43.26	354.75	20.77	-27.3	-28.7	15.3	0.00e+00	0	43	0	1718616064	15	4236
2026-01-08 09:38:46.27	354.44	20.40	-27.6	-29.4	15.0	0.00e+00	0	43	0	1728053248	15	4425
2026-01-08 09:38:49.28	354.14	20.03	-27.2	-28.5	15.4	0.00e+00	0	43	0	1737490432	15	4178
2026-01-08 09:38:52.29	353.85	19.68	-27.3	-28.7	15.3	0.00e+00	0	43	0	1746927616	15	4233
2026-01-08 09:38:55.31	353.57	19.32	-27.1	-28.2	15.6	0.00e+00	0	43	0	1756364800	15	4083
2026-01-08 09:38:58.33	353.29	18.97	-27.0	-28.1	15.6	0.00e+00	0	43	0	1765801984	15	4058
2026-01-08 09:39:01.35	353.02	18.62	-27.1	-28.1	15.6	0.00e+00	0	43	0	1775239168	15	4079
2026-01-08 09:39:04.36	352.76	18.28	-26.9	-27.9	15.7	7.00e-07	0	43	0	1784676352	15	4015
2026-01-08 09:39:07.37	352.50	17.94	-27.1	-28.3	15.5	0.00e+00	0	43	0	1794113536	15	4112
2026-01-08 09:39:10.38	352.25	17.61	-27.4	-28.8	15.2	0.00e+00	0	43	0	1803550720	15	4267
2026-01-08 09:39:13.40	352.00	17.28	-27.5	-29.2	15.0	0.00e+00	0	43	0	1812987904	15	4361
2026-01-08 09:39:16.41	351.76	16.95	-27.5	-29.3	14.9	0.00e+00	0	43	0	1822425088	15	4402
2026-01-08 09:39:19.42	351.53	16.63	-27.8	-29.8	14.6	7.00e-07	0	43	0	1831862272	15	4535
2026-01-08 09:39:22.44	351.30	16.31	-27.8	-29.9	14.5	7.00e-07	0	43	0	1841299456	15	4574
2026-01-08 09:39:25.46	351.07	15.99	-27.9	-30.1	14.4	0.00e+00	0	43	0	1850736640	15	4633
2026-01-08 09:39:28.47	350.85	15.68	-28.1	-30.0	14.3	0.00e+00	0	43	0	1860173824	16	4487
2026-01-08 09:39:31.49	350.63	15.37	-28.1	-30.0	14.3	1.50e-06	0	43	0	1869611008	16	4504
2026-01-08 09:39:34.51	350.42	15.07	-28.1	-30.0	14.3	7.00e-07	0	43	0	1879048192	16	4490
2026-01-08 09:39:37.53	350.22	14.76	-27.9	-29.6	14.6	7.00e-07	0	43	0	1888485376	16	4367
2026-01-08 09:39:40.54	350.02	14.47	-27.9	-29.7	14.5	0.00e+00	0	43	0	1897922560	16	4390
2026-01-08 09:39:43.56	349.82	14.17	-27.9	-29.6	14.5	0.00e+00	0	43	0	1907359744	16	4392
2026-01-08 09:39:46.58	349.62	13.88	-27.9	-29.7	14.5	7.00e-07	0	43	0	1916796928	16	4399
2026-01-08 09:39:49.59	349.43	13.59	-28.0	-29.7	14.4	1.50e-06	0	43	0	1926234112	16	4413
2026-01-08 09:39:52.60	349.25	13.31	-28.1	-30.0	14.2	0.00e+00	0	43	0	1935671296	16	4498
2026-01-08 09:39:55.63	349.07	13.02	-27.8	-29.5	14.5	1.50e-06	0	43	0	1945108480	16	4338
2026-01-08 09:39:58.66	348.89	12.74	-27.9	-29.7	14.4	7.00e-07	0	43	0	1954545664	16	4400
2026-01-08 09:40:01.67	348.71	12.46	-28.0	-29.9	14.2	0.00e+00	0	43	0	1963982848	16	4470
2026-01-08 09:40:04.69	348.54	12.19	-28.1	-30.0	14.1	7.00e-07	0	43	0	1973420032	16	4502
2026-01-08 09:40:07.72	348.37	11.92	-28.1	-30.2	14.0	2.20e-06	0	43	0	1982857216	16	4547
2026-01-08 09:40:10.74	348.21	11.65	-28.2	-30.3	14.0	3.00e-06	0	43	0	1992294400	16	4580
2026-01-08 09:40:13.76	348.04	11.38	-28.3	-30.6	13.8	6.10e-06	0	43	0	2001731584	16	4673
2026-01-08 09:40:16.78	347.89	11.12	-28.2	-30.4	13.8	6.10e-06	0	43	0	2011168768	16	4641
2026-01-08 09:40:19.80	347.73	10.86	-28.3	-30.5	13.7	1.14e-05	0	43	0	2020605952	16	4672
2026-01-08 09:40:22.82	347.58	10.60	-28.4	-30.9	13.5	7.60e-06	0	43	0	2030043136	16	4802
2026-01-08 09:40:25.84	347.43	10.34	-28.7	-31.2	13.0	2.36e-05	0	43	0	2039480320	17	4757
2026-01-08 09:40:28.86	347.28	10.09	-28.4	-30.3	13.6	5.30e-06	0	43	0	2048917504	17	4477
2026-01-08 09:40:31.88	347.14	9.84	-28.4	-30.4	13.5	1.06e-05	0	43	0	2058354688	17	4534
2026-01-08 09:40:34.89	346.99	9.59	-28.6	-30.9	13.2	1.98e-05	0	43	0	2067791872	17	4672
2026-01-08 09:40:37.91	346.85	9.34	-28.6	-30.8	13.2	2.13e-05	0	43	0	2077229056	17	4644
2026-01-08 09:40:40.93	346.72	9.10	-28.6	-30.9	13.1	3.20e-05	0	43	0	2086666240	17	4691
2026-01-08 09:40:43.96	346.58	8.86	-28.6	-30.9	13.1	3.58e-05	0	43	0	2096103424	17	4699
2026-01-08 09:40:46.98	346.45	8.62	-28.7	-31.2	12.9	5.95e-05	0	43	0	2105540608	17	4778
2026-01-08 09:40:50.01	346.32	8.38	-29.1	-31.6	12.3	1.40e-04	0	43	0	2114977792	18	4825
2026-01-08 09:40:53.04	346.19	8.14	-29.0	-31.4	12.4	1.64e-04	0	43	0	2124414976	18	4756
2026-01-08 09:40:56.06	346.07	7.91	-29.1	-31.7	12.2	2.15e-04	0	43	0	2133852160	18	4841
2026-01-08 09:40:59.08	345.95	7.68	-29.2	-31.9	12.0	4.09e-04	0	43	0	2143289344	18	4942
2026-01-08 09:41:02.10	345.83	7.45	-29.4	-32.5	11.5	7.24e-04	0	43	0	2152726528	18	5142
2026-01-08 09:41:05.13	345.71	7.22	-29.3	-31.8	11.6	6.67e-04	0	43	0	2162163712	19	4796
2026-01-08 09:41:08.15	345.59	6.99	-33.1	-44.3	3.8	1.48e+00	0	43	104	2169503744	26	13077

#Closed at: 2026-01-08 09:41:08
#Recorded file [2169 MB]: D:/data/31010_260108_122932.dat