passes_logs/2026/01/08/R2M6_AANII_01/R2M6_AANII_01__20260108_142203_FENGYUN_3D_rec.log

#Pass ID: 20260108_142203_FENGYUN 3D
#Satellite: FENGYUN 3D
#Configuration: FENGYUN 3D
#almurnet v.1.7.20240730
#Start time: 2026-01-08 14:22:05

#Version: 2.2.20231116
#Station: R2M6_AANII_01
#Location: 30.233357 lon 59.946436 lat
#TLE: 1 43010U 17072A   26007.88538054  .00000150  00000+0  92867-4 0  9992
#TLE: 2 43010  98.9932 339.5913 0002105 121.8756 238.2625 14.19694026422245

#Time	Az	El	Level	Level2	SNR	BER	BlckErr	Temp	State	Recorded	gain1	gain2
2026-01-08 14:22:05.57	228.42	7.09	-28.4	-30.8	5.6	7.53e-01	0	40	0	0	17	4746
2026-01-08 14:22:08.58	228.78	7.25	-28.6	-30.8	11.2	2.68e-03	0	40	0	5242880	18	4625
2026-01-08 14:22:11.60	229.14	7.41	-27.9	-29.4	12.4	3.28e-04	0	41	0	22020096	17	4283
2026-01-08 14:22:14.61	229.50	7.58	-27.4	-28.8	13.1	7.55e-05	0	41	0	38797312	16	4224
2026-01-08 14:22:17.62	229.87	7.74	-26.7	-28.2	13.9	3.40e-06	0	41	0	56623104	14	4271
2026-01-08 14:22:20.63	230.24	7.90	-26.4	-27.5	14.3	3.40e-06	0	41	0	73400320	14	4073
2026-01-08 14:22:23.65	230.62	8.07	-26.5	-27.6	14.3	1.10e-06	0	41	0	90177536	14	4116
2026-01-08 14:22:26.67	231.00	8.23	-26.7	-28.0	14.0	5.70e-06	0	41	0	106954752	14	4223
2026-01-08 14:22:29.70	231.38	8.39	-26.3	-27.3	14.5	1.10e-06	0	41	0	123731968	14	4015
2026-01-08 14:22:32.72	231.77	8.56	-26.4	-27.4	14.5	0.00e+00	0	41	0	141557760	14	4058
2026-01-08 14:22:35.74	232.16	8.72	-26.3	-27.3	14.6	1.10e-06	0	41	0	158334976	14	4008
2026-01-08 14:22:38.75	232.56	8.88	-26.2	-27.5	14.7	2.20e-06	0	41	0	175112192	13	4177
2026-01-08 14:22:41.77	232.96	9.05	-26.2	-27.4	14.8	1.10e-06	0	41	0	191889408	13	4135
2026-01-08 14:22:44.79	233.37	9.21	-26.2	-27.5	14.8	0.00e+00	0	41	0	208666624	13	4174
2026-01-08 14:22:47.81	233.78	9.37	-26.2	-27.4	14.8	2.20e-06	0	42	0	225443840	13	4148
2026-01-08 14:22:50.83	234.19	9.53	-25.9	-26.8	15.2	2.20e-06	0	42	0	243269632	13	3987
2026-01-08 14:22:53.85	234.61	9.70	-25.7	-26.8	15.5	0.00e+00	0	42	0	260046848	12	4090
2026-01-08 14:22:56.87	235.03	9.86	-25.6	-26.6	15.6	0.00e+00	0	42	0	276824064	12	4029
2026-01-08 14:22:59.89	235.46	10.02	-25.8	-27.1	15.3	1.10e-06	0	42	0	293601280	12	4170
2026-01-08 14:23:02.91	235.90	10.18	-26.0	-27.5	15.1	0.00e+00	0	42	0	310378496	12	4271
2026-01-08 14:23:05.92	236.33	10.34	-26.1	-27.7	15.0	0.00e+00	0	42	0	328204288	12	4342
2026-01-08 14:23:08.94	236.77	10.50	-26.1	-27.7	15.0	0.00e+00	0	42	0	344981504	12	4338
2026-01-08 14:23:11.96	237.22	10.66	-26.1	-27.7	15.0	1.10e-06	0	42	0	361758720	12	4329
2026-01-08 14:23:14.98	237.67	10.82	-25.9	-27.3	15.2	0.00e+00	0	42	0	378535936	12	4235
2026-01-08 14:23:17.99	238.13	10.98	-25.9	-27.3	15.3	0.00e+00	0	42	0	395313152	12	4222
2026-01-08 14:23:21.01	238.59	11.14	-25.9	-27.2	15.3	0.00e+00	0	42	0	413138944	12	4204
2026-01-08 14:23:24.03	239.05	11.30	-25.7	-26.9	15.5	0.00e+00	0	42	0	429916160	12	4111
2026-01-08 14:23:27.05	239.52	11.45	-25.8	-27.0	15.3	6.52e-05	0	42	0	446693376	12	4149
2026-01-08 14:23:30.06	240.00	11.61	-25.7	-26.9	15.2	5.77e-04	0	42	0	463470592	12	4131
2026-01-08 14:23:33.09	240.48	11.77	-25.8	-27.0	14.9	4.23e-03	0	42	0	480247808	12	4156
2026-01-08 14:23:36.10	240.96	11.92	-26.0	-27.5	15.3	0.00e+00	0	42	0	498073600	12	4266
2026-01-08 14:23:39.11	241.45	12.07	-25.5	-26.4	15.9	0.00e+00	0	42	0	514850816	12	3996
2026-01-08 14:23:42.12	241.95	12.23	-25.5	-26.3	15.9	0.00e+00	0	42	0	531628032	12	3965
2026-01-08 14:23:45.14	242.45	12.38	-25.6	-26.5	15.8	0.00e+00	0	42	0	548405248	12	4010
2026-01-08 14:23:48.16	242.95	12.53	-25.4	-26.6	16.2	0.00e+00	0	42	0	565182464	11	4133
2026-01-08 14:23:51.19	243.47	12.68	-25.4	-26.7	16.1	0.00e+00	0	42	0	583008256	11	4165
2026-01-08 14:23:54.20	243.98	12.83	-25.4	-26.6	16.1	0.00e+00	0	42	0	599785472	11	4142
2026-01-08 14:23:57.21	244.50	12.97	-25.5	-26.9	16.0	0.00e+00	0	42	0	616562688	11	4203
2026-01-08 14:24:00.24	245.02	13.12	-25.3	-26.3	16.3	0.00e+00	0	42	0	633339904	11	4071
2026-01-08 14:24:03.25	245.55	13.26	-25.4	-26.6	16.2	0.00e+00	0	42	0	650117120	11	4150
2026-01-08 14:24:06.27	246.09	13.41	-25.3	-26.5	16.3	0.00e+00	0	42	0	667942912	11	4098
2026-01-08 14:24:09.29	246.63	13.55	-25.3	-26.4	16.3	0.00e+00	0	42	0	684720128	11	4078
2026-01-08 14:24:12.31	247.18	13.69	-25.2	-26.1	16.5	0.00e+00	0	42	0	701497344	11	4004
2026-01-08 14:24:15.34	247.73	13.83	-25.2	-26.2	16.4	0.00e+00	0	42	0	718274560	11	4038
2026-01-08 14:24:18.34	248.28	13.96	-25.3	-26.4	16.3	0.00e+00	0	42	0	735051776	11	4082
2026-01-08 14:24:21.36	248.84	14.10	-25.2	-26.2	16.5	0.00e+00	0	42	0	751828992	11	4026
2026-01-08 14:24:24.38	249.41	14.23	-25.2	-26.2	16.5	0.00e+00	0	42	0	769654784	11	4026
2026-01-08 14:24:27.39	249.97	14.36	-24.8	-25.7	17.0	0.00e+00	0	42	0	786432000	10	4020
2026-01-08 14:24:30.41	250.55	14.49	-25.0	-26.2	16.7	0.00e+00	0	42	0	803209216	10	4143
2026-01-08 14:24:33.43	251.13	14.62	-25.1	-26.4	16.7	0.00e+00	0	43	0	819986432	10	4186
2026-01-08 14:24:36.45	251.71	14.75	-25.1	-26.4	16.7	0.00e+00	0	42	0	836763648	10	4179
2026-01-08 14:24:39.47	252.30	14.87	-24.8	-25.8	17.0	0.00e+00	0	43	0	854589440	10	4038
2026-01-08 14:24:42.49	252.90	14.99	-24.8	-25.8	17.0	0.00e+00	0	42	0	871366656	10	4035
2026-01-08 14:24:45.51	253.50	15.11	-25.0	-26.1	16.9	0.00e+00	0	42	0	888143872	10	4117
2026-01-08 14:24:48.53	254.10	15.23	-24.9	-26.0	16.9	0.00e+00	0	43	0	904921088	10	4083
2026-01-08 14:24:51.55	254.71	15.34	-24.7	-25.7	17.1	0.00e+00	0	43	0	921698304	10	4005
2026-01-08 14:24:54.58	255.32	15.45	-24.7	-25.5	17.2	0.00e+00	0	43	0	939524096	10	3958
2026-01-08 14:24:57.60	255.94	15.56	-24.7	-25.7	17.1	0.00e+00	0	43	0	956301312	10	4005
2026-01-08 14:25:00.61	256.56	15.67	-24.7	-25.5	17.2	0.00e+00	0	43	0	973078528	10	3962
2026-01-08 14:25:03.63	257.18	15.77	-24.6	-25.3	17.3	0.00e+00	0	43	0	989855744	10	3908
2026-01-08 14:25:06.64	257.81	15.87	-24.5	-25.2	17.4	0.00e+00	0	43	0	1006632960	10	3890
2026-01-08 14:25:09.65	258.44	15.97	-24.7	-25.5	17.2	0.00e+00	0	43	0	1023410176	10	3967
2026-01-08 14:25:12.66	259.08	16.06	-24.7	-25.7	17.1	0.00e+00	0	43	0	1040187392	10	4002
2026-01-08 14:25:15.68	259.72	16.16	-24.8	-25.9	17.1	0.00e+00	0	43	0	1058013184	10	4048
2026-01-08 14:25:18.70	260.37	16.24	-24.6	-25.3	17.4	0.00e+00	0	43	0	1074790400	10	3903
2026-01-08 14:25:21.71	261.01	16.33	-24.5	-25.2	17.4	0.00e+00	0	43	0	1091567616	10	3900
2026-01-08 14:25:24.73	261.66	16.41	-24.7	-25.6	17.2	0.00e+00	0	43	0	1108344832	10	3980
2026-01-08 14:25:27.74	262.32	16.49	-24.8	-25.9	17.1	0.00e+00	0	43	0	1125122048	10	4054
2026-01-08 14:25:30.76	262.98	16.57	-24.7	-25.6	17.2	0.00e+00	0	43	0	1142947840	10	3989
2026-01-08 14:25:33.78	263.64	16.64	-24.8	-25.8	17.1	0.00e+00	0	43	0	1159725056	10	4051
2026-01-08 14:25:36.78	264.30	16.71	-24.9	-26.1	17.0	0.00e+00	0	43	0	1176502272	10	4114
2026-01-08 14:25:39.79	264.97	16.77	-24.6	-25.3	17.4	0.00e+00	0	43	0	1193279488	10	3908
2026-01-08 14:25:42.80	265.63	16.84	-24.6	-25.3	17.4	0.00e+00	0	43	0	1210056704	10	3915
2026-01-08 14:25:45.82	266.31	16.89	-24.4	-25.0	17.6	0.00e+00	0	43	0	1227882496	10	3840
2026-01-08 14:25:48.83	266.98	16.95	-24.8	-25.8	17.1	0.00e+00	0	43	0	1244659712	10	4041
2026-01-08 14:25:51.85	267.66	17.00	-24.7	-25.6	17.2	0.00e+00	0	43	0	1261436928	10	3987
2026-01-08 14:25:54.85	268.33	17.05	-24.7	-25.6	17.3	0.00e+00	0	43	0	1278214144	10	3976
2026-01-08 14:25:57.87	269.02	17.09	-24.5	-25.1	17.5	0.00e+00	0	43	0	1294991360	10	3854
2026-01-08 14:26:00.90	269.70	17.13	-24.4	-24.9	17.7	1.10e-06	0	43	0	1311768576	10	3808
2026-01-08 14:26:03.93	270.39	17.17	-24.3	-25.2	17.8	0.00e+00	0	43	0	1329594368	9	3982
2026-01-08 14:26:06.94	271.07	17.20	-24.4	-25.3	17.7	0.00e+00	0	43	0	1346371584	9	4028
2026-01-08 14:26:09.96	271.76	17.23	-24.5	-25.7	17.5	1.10e-06	0	43	0	1363148800	9	4125
2026-01-08 14:26:12.97	272.45	17.25	-24.3	-25.3	17.7	2.20e-06	0	43	0	1379926016	9	4013
2026-01-08 14:26:15.99	273.14	17.27	-24.3	-25.1	17.8	1.10e-06	0	43	0	1396703232	9	3971
2026-01-08 14:26:19.01	273.83	17.29	-24.2	-25.1	17.8	0.00e+00	0	43	0	1413480448	9	3963
2026-01-08 14:26:22.03	274.52	17.30	-24.4	-25.3	17.7	0.00e+00	0	43	0	1431306240	9	4020
2026-01-08 14:26:25.04	275.21	17.31	-24.5	-25.6	17.5	0.00e+00	0	43	0	1448083456	9	4087
2026-01-08 14:26:28.05	275.90	17.31	-24.4	-25.4	17.6	0.00e+00	0	43	0	1464860672	9	4036
2026-01-08 14:26:31.06	276.59	17.31	-24.5	-25.5	17.5	0.00e+00	0	43	0	1481637888	9	4077
2026-01-08 14:26:34.09	277.29	17.31	-24.4	-25.3	17.6	0.00e+00	0	43	0	1498415104	9	4028
2026-01-08 14:26:37.11	277.98	17.30	-24.3	-25.3	17.5	0.00e+00	0	43	0	1515192320	9	4020
2026-01-08 14:26:40.13	278.67	17.29	-24.4	-25.4	17.3	0.00e+00	0	43	0	1533018112	9	4050
2026-01-08 14:26:43.14	279.36	17.27	-24.7	-26.2	16.9	0.00e+00	0	43	0	1549795328	9	4246
2026-01-08 14:26:46.16	280.05	17.25	-24.6	-25.9	17.4	0.00e+00	0	43	0	1566572544	9	4172
2026-01-08 14:26:49.18	280.74	17.23	-24.6	-25.9	17.3	0.00e+00	0	43	0	1583349760	9	4177
2026-01-08 14:26:52.19	281.42	17.20	-24.6	-25.8	17.4	0.00e+00	0	43	0	1600126976	9	4146
2026-01-08 14:26:55.21	282.11	17.17	-24.5	-25.7	17.5	0.00e+00	0	43	0	1617952768	9	4103
2026-01-08 14:26:58.22	282.79	17.14	-24.4	-25.3	17.7	0.00e+00	0	43	0	1634729984	9	4025
2026-01-08 14:27:01.24	283.48	17.10	-24.5	-25.6	17.5	0.00e+00	0	43	0	1651507200	9	4091
2026-01-08 14:27:04.27	284.16	17.05	-24.5	-25.6	17.5	0.00e+00	0	43	0	1668284416	9	4108
2026-01-08 14:27:07.29	284.84	17.01	-24.7	-26.0	17.3	0.00e+00	0	43	0	1686110208	9	4205
2026-01-08 14:27:10.31	285.52	16.96	-24.7	-26.0	17.3	0.00e+00	0	43	0	1702887424	9	4192
2026-01-08 14:27:13.32	286.19	16.90	-24.7	-26.0	17.3	0.00e+00	0	43	0	1719664640	9	4197
2026-01-08 14:27:16.34	286.86	16.85	-24.7	-26.0	17.3	0.00e+00	0	43	0	1736441856	9	4204
2026-01-08 14:27:19.35	287.53	16.78	-24.9	-26.5	17.0	0.00e+00	0	43	0	1753219072	9	4328
2026-01-08 14:27:22.38	288.20	16.72	-25.0	-26.6	16.9	0.00e+00	0	43	0	1771044864	9	4365
2026-01-08 14:27:25.40	288.86	16.65	-25.1	-26.5	16.8	0.00e+00	0	43	0	1787822080	10	4207
2026-01-08 14:27:28.42	289.52	16.58	-25.1	-26.4	16.8	0.00e+00	0	43	0	1804599296	10	4196
2026-01-08 14:27:31.43	290.18	16.50	-25.1	-26.5	16.7	0.00e+00	0	43	0	1821376512	10	4220
2026-01-08 14:27:34.46	290.84	16.43	-24.9	-26.1	17.0	0.00e+00	0	43	0	1838153728	10	4104
2026-01-08 14:27:37.48	291.49	16.34	-25.3	-26.8	16.6	0.00e+00	0	43	0	1855979520	10	4283
2026-01-08 14:27:40.50	292.14	16.26	-25.2	-26.2	16.6	0.00e+00	0	43	0	1872756736	11	4039
2026-01-08 14:27:43.51	292.78	16.17	-25.1	-25.9	16.8	0.00e+00	0	43	0	1889533952	11	3957
2026-01-08 14:27:46.53	293.42	16.08	-25.1	-25.9	16.8	0.00e+00	0	43	0	1906311168	11	3954
2026-01-08 14:27:49.54	294.05	15.99	-25.0	-25.6	16.9	0.00e+00	0	43	0	1923088384	11	3880
2026-01-08 14:27:52.56	294.68	15.89	-25.0	-25.7	16.9	0.00e+00	0	43	0	1939865600	11	3909
2026-01-08 14:27:55.58	295.31	15.79	-24.9	-25.5	17.0	0.00e+00	0	43	0	1957691392	11	3866
2026-01-08 14:27:58.60	295.94	15.69	-24.9	-25.5	17.0	0.00e+00	0	43	0	1974468608	11	3866
2026-01-08 14:28:01.61	296.55	15.58	-25.1	-25.8	16.8	0.00e+00	0	43	0	1991245824	11	3936
2026-01-08 14:28:04.63	297.17	15.47	-25.0	-25.8	16.8	0.00e+00	0	43	0	2008023040	11	3921
2026-01-08 14:28:07.64	297.78	15.36	-25.0	-25.7	16.9	0.00e+00	0	43	0	2024800256	11	3910
2026-01-08 14:28:10.66	298.38	15.25	-25.1	-26.0	16.7	0.00e+00	0	43	0	2042626048	11	3974
2026-01-08 14:28:13.68	298.99	15.14	-25.2	-26.1	16.7	0.00e+00	0	43	0	2059403264	11	3992
2026-01-08 14:28:16.69	299.58	15.02	-25.3	-26.5	16.4	0.00e+00	0	43	0	2076180480	11	4105
2026-01-08 14:28:19.71	300.17	14.90	-25.4	-26.6	16.3	0.00e+00	0	43	0	2092957696	11	4134
2026-01-08 14:28:22.74	300.76	14.78	-25.2	-26.2	16.6	0.00e+00	0	43	0	2109734912	11	4038
2026-01-08 14:28:25.76	301.35	14.65	-25.4	-26.7	16.3	0.00e+00	0	43	0	2126512128	11	4150
2026-01-08 14:28:28.78	301.93	14.53	-25.4	-26.5	16.4	0.00e+00	0	43	0	2144337920	11	4106
2026-01-08 14:28:31.80	302.50	14.40	-25.4	-26.5	16.4	0.00e+00	0	43	0	2161115136	11	4114
2026-01-08 14:28:34.82	303.07	14.27	-25.4	-26.5	16.4	0.00e+00	0	43	0	2177892352	11	4113
2026-01-08 14:28:37.83	303.63	14.13	-25.4	-26.5	16.4	0.00e+00	0	43	0	2194669568	11	4113
2026-01-08 14:28:40.84	304.19	14.00	-25.2	-26.1	16.6	0.00e+00	0	43	0	2211446784	11	4007
2026-01-08 14:28:43.86	304.74	13.87	-25.3	-26.5	16.4	0.00e+00	0	43	0	2229272576	11	4093
2026-01-08 14:28:46.88	305.29	13.73	-25.5	-26.8	16.2	0.00e+00	0	43	0	2246049792	11	4175
2026-01-08 14:28:49.90	305.84	13.59	-25.5	-26.9	16.1	0.00e+00	0	43	0	2262827008	11	4216
2026-01-08 14:28:52.93	306.38	13.45	-25.7	-27.3	15.9	0.00e+00	0	43	0	2279604224	11	4306
2026-01-08 14:28:55.95	306.91	13.31	-25.6	-27.0	16.1	0.00e+00	0	43	0	2296381440	11	4239
2026-01-08 14:28:58.97	307.44	13.16	-25.6	-27.1	16.0	0.00e+00	0	43	0	2314207232	11	4267
2026-01-08 14:29:01.99	307.96	13.02	-25.8	-27.4	15.9	0.00e+00	0	43	0	2330984448	11	4345
2026-01-08 14:29:05.00	308.48	12.87	-25.9	-27.8	15.6	0.00e+00	0	43	0	2347761664	11	4449
2026-01-08 14:29:08.02	309.00	12.73	-25.9	-27.1	15.7	0.00e+00	0	43	0	2364538880	12	4169
2026-01-08 14:29:11.04	309.50	12.58	-26.0	-27.5	15.5	0.00e+00	0	43	0	2381316096	12	4264
2026-01-08 14:29:14.07	310.01	12.43	-25.8	-27.1	15.7	0.00e+00	0	43	0	2399141888	12	4146
2026-01-08 14:29:17.08	310.51	12.28	-25.9	-27.3	15.5	0.00e+00	0	43	0	2415919104	12	4204
2026-01-08 14:29:20.11	311.00	12.13	-25.9	-27.3	15.5	0.00e+00	0	43	0	2432696320	12	4219
2026-01-08 14:29:23.12	311.49	11.97	-26.0	-27.4	15.4	0.00e+00	0	43	0	2449473536	12	4242
2026-01-08 14:29:26.15	311.98	11.82	-26.0	-27.5	15.4	0.00e+00	0	43	0	2466250752	12	4256
2026-01-08 14:29:29.18	312.46	11.67	-26.1	-27.7	15.2	0.00e+00	0	43	0	2484076544	12	4321
2026-01-08 14:29:32.19	312.93	11.51	-26.0	-27.4	15.4	0.00e+00	0	43	0	2500853760	12	4244
2026-01-08 14:29:35.21	313.40	11.36	-25.9	-27.3	15.5	0.00e+00	0	43	0	2517630976	12	4199
2026-01-08 14:29:38.23	313.87	11.20	-26.1	-27.6	15.3	0.00e+00	0	43	0	2534408192	12	4289
2026-01-08 14:29:41.25	314.33	11.04	-26.1	-27.6	15.3	0.00e+00	0	43	0	2551185408	12	4309
2026-01-08 14:29:44.27	314.78	10.89	-26.1	-27.6	15.3	0.00e+00	0	43	0	2569011200	12	4308
2026-01-08 14:29:47.29	315.23	10.73	-26.1	-27.8	15.2	0.00e+00	0	43	0	2585788416	12	4345
2026-01-08 14:29:50.31	315.68	10.57	-26.3	-28.2	14.9	0.00e+00	0	43	0	2602565632	12	4464
2026-01-08 14:29:53.33	316.12	10.41	-26.3	-28.2	14.9	0.00e+00	0	43	0	2619342848	12	4466
2026-01-08 14:29:56.34	316.56	10.25	-26.8	-28.8	14.3	4.50e-06	0	43	0	2636120064	13	4520
2026-01-08 14:29:59.36	316.99	10.09	-26.4	-27.8	14.8	0.00e+00	0	43	0	2652897280	13	4235
2026-01-08 14:30:02.38	317.42	9.93	-26.5	-28.0	14.7	0.00e+00	0	43	0	2670723072	13	4297
2026-01-08 14:30:05.41	317.84	9.77	-26.6	-28.4	14.5	1.10e-06	0	43	0	2687500288	13	4410
2026-01-08 14:30:08.43	318.26	9.61	-26.5	-28.1	14.7	0.00e+00	0	43	0	2704277504	13	4314
2026-01-08 14:30:11.43	318.67	9.45	-26.6	-28.2	14.5	1.10e-06	0	43	0	2721054720	13	4358
2026-01-08 14:30:14.45	319.08	9.29	-26.5	-28.2	14.5	0.00e+00	0	43	0	2737831936	13	4351
2026-01-08 14:30:17.47	319.48	9.13	-26.7	-28.5	14.4	2.20e-06	0	43	0	2755657728	13	4439
2026-01-08 14:30:20.48	319.88	8.97	-26.6	-28.4	14.4	3.40e-06	0	43	0	2772434944	13	4428
2026-01-08 14:30:23.51	320.28	8.81	-26.6	-28.3	14.4	3.40e-06	0	43	0	2789212160	13	4397
2026-01-08 14:30:26.52	320.67	8.64	-26.6	-28.4	14.4	5.70e-06	0	43	0	2805989376	13	4404
2026-01-08 14:30:29.54	321.06	8.48	-26.6	-28.4	14.4	2.20e-06	0	43	0	2822766592	13	4411
2026-01-08 14:30:32.56	321.45	8.32	-26.9	-29.0	14.0	2.20e-06	0	43	0	2840592384	13	4588
2026-01-08 14:30:35.58	321.83	8.16	-26.9	-29.0	13.9	6.80e-06	0	43	0	2857369600	13	4598
2026-01-08 14:30:38.61	322.20	8.00	-27.2	-29.3	13.5	2.17e-05	0	43	0	2874146816	14	4586
2026-01-08 14:30:41.62	322.58	7.83	-27.0	-28.9	13.8	1.02e-05	0	43	0	2890924032	14	4442
2026-01-08 14:30:44.65	322.95	7.67	-27.3	-29.5	13.4	1.25e-05	0	43	0	2907701248	14	4638
2026-01-08 14:30:47.67	323.31	7.51	-27.3	-29.6	13.3	2.63e-05	0	43	0	2925527040	14	4654
2026-01-08 14:30:50.69	323.67	7.35	-27.3	-29.5	13.3	2.17e-05	0	43	0	2942304256	14	4633
2026-01-08 14:30:53.70	324.03	7.19	-27.2	-29.3	13.5	2.74e-05	0	43	0	2959081472	14	4557
2026-01-08 14:30:56.72	324.38	7.03	-32.8	-43.7	3.8	3.53e-01	0	43	104	2974810112	25	12626

#Closed at: 2026-01-08 14:30:57
#Recorded file [2974 MB]: D:/data/31010_260108_172207.dat