passes_logs/2026/01/08/R2M6_AANII_01/R2M6_AANII_01__20260108_010628_FENGYUN_3D_rec.log

#Pass ID: 20260108_010628_FENGYUN 3D
#Satellite: FENGYUN 3D
#Configuration: FENGYUN 3D
#almurnet v.1.7.20240730
#Start time: 2026-01-08 01:06:28

#Version: 2.2.20231116
#Station: R2M6_AANII_01
#Location: 30.233357 lon 59.946436 lat
#TLE: 1 43010U 17072A   26006.26440730  .00000376  00000+0  19957-3 0  9994
#TLE: 2 43010  98.9925 337.9455 0002045 123.9195 236.2175 14.19693586422016

#Time	Az	El	Level	Level2	SNR	BER	BlckErr	Temp	State	Recorded	gain1	gain2
2026-01-08 01:06:28.75	27.50	7.04	-28.6	-31.3	5.6	7.72e-01	0	41	0	0	17	4888
2026-01-08 01:06:31.77	27.73	7.24	-30.0	-33.7	8.6	2.94e-02	0	41	0	5242880	20	5491
2026-01-08 01:06:34.79	27.97	7.45	-29.1	-31.9	10.6	4.34e-03	0	41	0	22020096	18	4976
2026-01-08 01:06:37.80	28.21	7.65	-27.8	-29.6	12.8	5.26e-05	0	41	0	38797312	16	4450
2026-01-08 01:06:40.82	28.45	7.86	-27.2	-29.3	13.4	5.70e-06	0	42	0	56623104	14	4575
2026-01-08 01:06:43.84	28.70	8.07	-26.9	-28.0	13.9	2.29e-04	0	42	0	73400320	15	4110
2026-01-08 01:06:46.85	28.95	8.28	-26.7	-28.7	14.1	2.20e-06	0	42	0	90177536	13	4499
2026-01-08 01:06:49.87	29.21	8.49	-26.6	-28.3	14.3	0.00e+00	0	42	0	106954752	13	4395
2026-01-08 01:06:52.89	29.47	8.71	-26.6	-28.4	14.3	1.10e-06	0	42	0	123731968	13	4422
2026-01-08 01:06:55.90	29.73	8.92	-26.4	-28.5	14.5	0.00e+00	0	42	0	140509184	12	4562
2026-01-08 01:06:58.92	29.99	9.14	-26.4	-28.4	14.6	0.00e+00	0	42	0	158334976	12	4536
2026-01-08 01:07:01.94	30.26	9.36	-26.3	-27.8	14.7	0.00e+00	0	42	0	175112192	13	4243
2026-01-08 01:07:04.96	30.53	9.58	-26.3	-28.2	14.7	0.00e+00	0	42	0	191889408	12	4479
2026-01-08 01:07:07.99	30.81	9.80	-26.1	-27.8	15.0	0.00e+00	0	42	0	208666624	12	4357
2026-01-08 01:07:11.00	31.09	10.02	-26.2	-27.8	15.0	0.00e+00	0	42	0	225443840	12	4369
2026-01-08 01:07:14.02	31.38	10.24	-26.4	-28.4	14.7	0.00e+00	0	42	0	243269632	12	4538
2026-01-08 01:07:17.04	31.67	10.47	-26.1	-27.7	15.1	0.00e+00	0	42	0	260046848	12	4329
2026-01-08 01:07:20.06	31.96	10.69	-25.9	-27.3	15.2	3.72e-04	0	42	0	276824064	12	4194
2026-01-08 01:07:23.07	32.26	10.92	-25.9	-27.8	15.3	0.00e+00	0	42	0	293601280	11	4461
2026-01-08 01:07:26.09	32.56	11.15	-25.9	-27.2	15.4	0.00e+00	0	42	0	310378496	12	4196
2026-01-08 01:07:29.11	32.87	11.38	-25.7	-27.4	15.7	3.62e-04	0	42	0	328204288	11	4336
2026-01-08 01:07:32.13	33.18	11.61	-25.7	-27.3	15.8	2.84e-04	0	43	0	344981504	11	4315
2026-01-08 01:07:35.15	33.49	11.85	-25.7	-27.4	15.8	3.28e-04	0	42	0	361758720	11	4343
2026-01-08 01:07:38.15	33.81	12.08	-25.7	-27.2	15.8	4.08e-04	0	43	0	378535936	11	4304
2026-01-08 01:07:41.17	34.14	12.32	-25.7	-27.2	15.8	2.35e-04	0	43	0	395313152	11	4309
2026-01-08 01:07:44.19	34.47	12.56	-26.4	-28.4	14.8	2.75e-04	0	43	0	413138944	12	4513
2026-01-08 01:07:47.21	34.81	12.80	-26.3	-28.2	14.9	1.22e-04	0	43	0	429916160	12	4460
2026-01-08 01:07:50.22	35.15	13.04	-26.2	-27.9	15.1	1.92e-04	0	43	0	446693376	12	4394
2026-01-08 01:07:53.24	35.49	13.28	-25.5	-26.2	16.1	0.00e+00	0	43	0	463470592	12	3941
2026-01-08 01:07:56.26	35.85	13.53	-25.9	-27.6	15.8	2.40e-05	0	43	0	480247808	11	4403
2026-01-08 01:07:59.27	36.20	13.77	-25.8	-27.6	15.8	1.98e-04	0	43	0	498073600	11	4402
2026-01-08 01:08:02.28	36.57	14.02	-25.7	-27.2	16.0	0.00e+00	0	43	0	514850816	11	4309
2026-01-08 01:08:05.29	36.94	14.27	-25.4	-26.6	16.4	0.00e+00	0	43	0	531628032	11	4122
2026-01-08 01:08:08.31	37.31	14.52	-25.1	-25.9	16.8	0.00e+00	0	43	0	548405248	11	3960
2026-01-08 01:08:11.32	37.69	14.77	-25.2	-26.1	16.7	0.00e+00	0	43	0	565182464	11	4008
2026-01-08 01:08:14.33	38.08	15.02	-25.4	-26.5	16.5	0.00e+00	0	43	0	581959680	11	4096
2026-01-08 01:08:17.35	38.48	15.27	-25.3	-26.3	16.6	0.00e+00	0	43	0	598736896	11	4039
2026-01-08 01:08:20.37	38.88	15.53	-25.6	-26.9	16.3	0.00e+00	0	43	0	616562688	11	4214
2026-01-08 01:08:23.39	39.28	15.79	-24.9	-25.9	17.1	0.00e+00	0	43	0	633339904	10	4068
2026-01-08 01:08:26.41	39.70	16.05	-24.9	-26.0	17.0	0.00e+00	0	43	0	650117120	10	4087
2026-01-08 01:08:29.42	40.12	16.31	-24.8	-25.9	17.1	0.00e+00	0	43	0	666894336	10	4050
2026-01-08 01:08:32.44	40.55	16.57	-24.9	-26.0	17.1	0.00e+00	0	43	0	683671552	10	4079
2026-01-08 01:08:35.47	40.99	16.83	-24.7	-25.6	17.3	0.00e+00	0	43	0	701497344	10	3997
2026-01-08 01:08:38.49	41.43	17.10	-24.9	-26.0	17.1	0.00e+00	0	43	0	718274560	10	4078
2026-01-08 01:08:41.50	41.88	17.36	-24.8	-25.8	17.2	0.00e+00	0	43	0	735051776	10	4023
2026-01-08 01:08:44.52	42.34	17.63	-24.4	-25.0	17.6	0.00e+00	0	43	0	751828992	10	3835
2026-01-08 01:08:47.55	42.81	17.90	-24.4	-24.8	17.8	0.00e+00	0	43	0	768606208	10	3798
2026-01-08 01:08:50.57	43.29	18.17	-24.3	-25.1	17.8	0.00e+00	0	43	0	786432000	9	3978
2026-01-08 01:08:53.59	43.77	18.44	-24.4	-25.3	17.7	0.00e+00	0	43	0	803209216	9	4022
2026-01-08 01:08:56.61	44.26	18.71	-24.3	-25.1	17.8	0.00e+00	0	43	0	819986432	9	3974
2026-01-08 01:08:59.63	44.76	18.98	-24.4	-25.3	17.8	0.00e+00	0	43	0	836763648	9	4021
2026-01-08 01:09:02.64	45.27	19.25	-24.3	-25.2	17.8	0.00e+00	0	43	0	853540864	9	3990
2026-01-08 01:09:05.65	45.79	19.53	-24.3	-25.3	17.8	0.00e+00	0	44	0	871366656	9	4007
2026-01-08 01:09:08.68	46.32	19.80	-24.3	-25.2	17.8	0.00e+00	0	43	0	888143872	9	3997
2026-01-08 01:09:11.71	46.86	20.08	-24.4	-25.4	17.7	0.00e+00	0	43	0	904921088	9	4052
2026-01-08 01:09:14.73	47.41	20.36	-24.0	-24.5	18.3	0.00e+00	0	43	0	921698304	9	3819
2026-01-08 01:09:17.74	47.96	20.63	-23.9	-24.8	18.3	0.00e+00	0	43	0	938475520	8	4012
2026-01-08 01:09:20.76	48.53	20.91	-23.9	-24.9	18.3	0.00e+00	0	44	0	956301312	8	4017
2026-01-08 01:09:23.77	49.10	21.18	-23.9	-24.9	18.3	0.00e+00	0	43	0	973078528	8	4016
2026-01-08 01:09:26.78	49.69	21.46	-23.9	-24.9	18.3	0.00e+00	0	44	0	989855744	8	4012
2026-01-08 01:09:29.81	50.28	21.74	-23.9	-24.9	18.3	0.00e+00	0	44	0	1006632960	8	4028
2026-01-08 01:09:32.83	50.89	22.02	-23.7	-24.4	18.6	0.00e+00	0	43	0	1023410176	8	3914
2026-01-08 01:09:35.84	51.51	22.29	-23.8	-24.6	18.5	0.00e+00	0	44	0	1040187392	8	3946
2026-01-08 01:09:38.86	52.14	22.57	-23.7	-24.4	18.6	0.00e+00	0	44	0	1058013184	8	3909
2026-01-08 01:09:41.88	52.78	22.84	-23.6	-24.1	18.8	0.00e+00	0	44	0	1074790400	8	3846
2026-01-08 01:09:44.90	53.43	23.12	-23.6	-24.8	18.6	0.00e+00	0	43	0	1091567616	7	4122
2026-01-08 01:09:47.91	54.09	23.39	-23.6	-24.8	18.6	0.00e+00	0	44	0	1108344832	7	4105
2026-01-08 01:09:50.92	54.76	23.67	-23.4	-24.4	18.9	0.00e+00	0	44	0	1125122048	7	4014
2026-01-08 01:09:53.92	55.44	23.94	-23.5	-24.6	18.8	0.00e+00	0	44	0	1142947840	7	4058
2026-01-08 01:09:56.94	56.14	24.21	-23.7	-24.9	18.5	0.00e+00	0	44	0	1159725056	7	4158
2026-01-08 01:09:59.95	56.84	24.48	-23.0	-23.4	19.4	0.00e+00	0	44	0	1176502272	7	3776
2026-01-08 01:10:02.95	57.56	24.74	-23.6	-24.8	18.7	0.00e+00	0	44	0	1193279488	7	4104
2026-01-08 01:10:05.98	58.30	25.01	-23.3	-24.0	19.1	0.00e+00	0	44	0	1210056704	7	3925
2026-01-08 01:10:09.00	59.04	25.27	-23.0	-23.5	19.4	0.00e+00	0	44	0	1226833920	7	3809
2026-01-08 01:10:12.03	59.80	25.53	-23.2	-23.8	19.2	0.00e+00	0	43	0	1244659712	7	3874
2026-01-08 01:10:15.04	60.57	25.79	-23.3	-24.1	19.0	0.00e+00	0	44	0	1261436928	7	3939
2026-01-08 01:10:18.06	61.35	26.05	-22.9	-23.7	19.5	0.00e+00	0	44	0	1278214144	6	3945
2026-01-08 01:10:21.07	62.14	26.30	-22.7	-23.4	19.7	0.00e+00	0	44	0	1294991360	6	3882
2026-01-08 01:10:24.10	62.95	26.55	-22.5	-22.9	19.9	2.56e-04	0	44	0	1311768576	6	3770
2026-01-08 01:10:27.12	63.77	26.79	-22.6	-23.1	19.8	0.00e+00	0	43	0	1329594368	6	3824
2026-01-08 01:10:30.14	64.61	27.03	-22.6	-23.1	19.8	0.00e+00	0	44	0	1346371584	6	3812
2026-01-08 01:10:33.15	65.45	27.27	-22.8	-23.6	19.6	2.16e-04	0	44	0	1363148800	6	3927
2026-01-08 01:10:36.17	66.30	27.50	-22.7	-23.3	19.7	4.23e-05	0	44	0	1379926016	6	3863
2026-01-08 01:10:39.18	67.17	27.73	-22.8	-23.5	19.6	0.00e+00	0	44	0	1396703232	6	3913
2026-01-08 01:10:42.20	68.05	27.95	-22.6	-23.0	19.9	0.00e+00	0	44	0	1414529024	6	3799
2026-01-08 01:10:45.22	68.94	28.16	-22.7	-23.4	19.7	1.61e-04	0	44	0	1431306240	6	3873
2026-01-08 01:10:48.24	69.85	28.38	-22.6	-23.1	19.9	0.00e+00	0	44	0	1448083456	6	3811
2026-01-08 01:10:51.26	70.76	28.58	-22.7	-23.3	19.6	0.00e+00	0	44	0	1464860672	6	3875
2026-01-08 01:10:54.28	71.69	28.78	-22.6	-23.2	19.6	1.48e-04	0	44	0	1481637888	6	3863
2026-01-08 01:10:57.30	72.63	28.97	-22.1	-22.6	20.1	0.00e+00	0	44	0	1499463680	5	3815
2026-01-08 01:11:00.32	73.58	29.15	-22.5	-23.5	19.6	0.00e+00	0	44	0	1516240896	5	4044
2026-01-08 01:11:03.33	74.54	29.33	-22.6	-23.7	19.6	0.00e+00	0	43	0	1533018112	5	4079
2026-01-08 01:11:06.35	75.51	29.50	-22.7	-23.8	19.5	0.00e+00	0	44	0	1549795328	5	4117
2026-01-08 01:11:09.36	76.49	29.66	-22.6	-23.7	19.5	0.00e+00	0	44	0	1566572544	5	4097
2026-01-08 01:11:12.38	77.48	29.81	-22.3	-23.0	19.9	0.00e+00	0	44	0	1583349760	5	3902
2026-01-08 01:11:15.40	78.48	29.96	-22.4	-23.3	19.8	0.00e+00	0	44	0	1601175552	5	3989
2026-01-08 01:11:18.43	79.49	30.09	-22.5	-23.5	19.7	0.00e+00	0	44	0	1617952768	5	4038
2026-01-08 01:11:21.46	80.51	30.22	-22.6	-23.7	19.6	0.00e+00	0	44	0	1634729984	5	4074
2026-01-08 01:11:24.48	81.53	30.34	-23.0	-24.1	19.1	0.00e+00	0	44	0	1651507200	6	4065
2026-01-08 01:11:27.50	82.56	30.45	-23.2	-24.4	19.0	0.00e+00	0	43	0	1668284416	6	4149
2026-01-08 01:11:30.52	83.60	30.55	-23.3	-24.7	18.9	0.00e+00	0	44	0	1686110208	6	4219
2026-01-08 01:11:33.54	84.65	30.63	-22.7	-23.4	19.5	0.00e+00	0	44	0	1702887424	6	3902
2026-01-08 01:11:36.56	85.70	30.71	-22.5	-23.0	19.7	0.00e+00	0	44	0	1719664640	6	3820
2026-01-08 01:11:39.59	86.75	30.78	-22.6	-23.1	19.6	0.00e+00	0	44	0	1736441856	6	3840
2026-01-08 01:11:42.60	87.81	30.84	-22.6	-23.2	19.6	0.00e+00	0	44	0	1753219072	6	3865
2026-01-08 01:11:45.62	88.87	30.89	-22.7	-23.4	19.5	1.25e-04	0	44	0	1771044864	6	3908
2026-01-08 01:11:48.64	89.94	30.92	-22.5	-22.9	19.8	2.70e-04	0	44	0	1787822080	6	3797
2026-01-08 01:11:51.66	91.00	30.95	-22.5	-23.5	19.7	0.00e+00	0	44	0	1804599296	5	4030
2026-01-08 01:11:54.68	92.07	30.97	-22.5	-23.5	19.7	1.26e-04	0	44	0	1821376512	5	4032
2026-01-08 01:11:57.70	93.14	30.97	-22.7	-23.8	19.6	9.95e-05	0	44	0	1838153728	5	4106
2026-01-08 01:12:00.70	94.20	30.97	-22.6	-23.7	19.6	6.80e-06	0	44	0	1855979520	5	4092
2026-01-08 01:12:03.72	95.27	30.95	-22.7	-24.0	19.4	0.00e+00	0	44	0	1872756736	5	4147
2026-01-08 01:12:06.74	96.34	30.92	-22.8	-24.2	19.3	1.94e-05	0	44	0	1889533952	5	4222
2026-01-08 01:12:09.76	97.40	30.88	-22.7	-23.8	19.5	0.00e+00	0	44	0	1906311168	5	4119
2026-01-08 01:12:12.78	98.47	30.84	-22.6	-23.7	19.6	0.00e+00	0	44	0	1923088384	5	4086
2026-01-08 01:12:15.80	99.52	30.78	-22.6	-23.8	19.5	0.00e+00	0	44	0	1940914176	5	4097
2026-01-08 01:12:18.82	100.58	30.71	-22.6	-23.7	19.5	0.00e+00	0	43	0	1957691392	5	4086
2026-01-08 01:12:21.84	101.63	30.63	-22.6	-23.8	19.6	0.00e+00	0	44	0	1974468608	5	4096
2026-01-08 01:12:24.86	102.67	30.54	-22.6	-23.7	19.6	0.00e+00	0	44	0	1991245824	5	4078
2026-01-08 01:12:27.87	103.71	30.44	-22.5	-23.5	19.7	0.00e+00	0	44	0	2008023040	5	4027
2026-01-08 01:12:30.89	104.74	30.33	-22.3	-23.1	19.9	0.00e+00	0	44	0	2025848832	5	3934
2026-01-08 01:12:33.91	105.77	30.21	-22.5	-23.5	19.6	0.00e+00	0	44	0	2042626048	5	4043
2026-01-08 01:12:36.92	106.78	30.08	-22.6	-23.7	19.5	0.00e+00	0	44	0	2059403264	5	4092
2026-01-08 01:12:39.94	107.79	29.94	-22.7	-24.0	19.3	0.00e+00	0	44	0	2076180480	5	4168
2026-01-08 01:12:42.96	108.79	29.80	-23.0	-24.1	19.1	0.00e+00	0	44	0	2092957696	6	4064
2026-01-08 01:12:45.99	109.79	29.64	-23.1	-24.3	19.0	0.00e+00	0	44	0	2110783488	6	4117
2026-01-08 01:12:49.02	110.77	29.48	-22.8	-23.5	19.4	0.00e+00	0	44	0	2127560704	6	3930
2026-01-08 01:12:52.03	111.74	29.31	-22.9	-23.8	19.3	0.00e+00	0	44	0	2144337920	6	3987
2026-01-08 01:12:55.05	112.71	29.13	-22.8	-23.6	19.3	0.00e+00	0	44	0	2161115136	6	3950
2026-01-08 01:12:58.06	113.65	28.95	-22.8	-23.6	19.3	0.00e+00	0	44	0	2177892352	6	3956
2026-01-08 01:13:01.07	114.59	28.75	-22.8	-23.6	19.3	0.00e+00	0	44	0	2195718144	6	3951
2026-01-08 01:13:04.09	115.52	28.56	-22.7	-23.4	19.4	0.00e+00	0	44	0	2212495360	6	3912
2026-01-08 01:13:07.11	116.44	28.35	-22.9	-23.8	19.2	0.00e+00	0	44	0	2229272576	6	4008
2026-01-08 01:13:10.12	117.34	28.14	-22.7	-23.5	19.4	0.00e+00	0	44	0	2246049792	6	3922
2026-01-08 01:13:13.13	118.24	27.92	-23.1	-24.2	19.0	0.00e+00	0	44	0	2262827008	6	4112
2026-01-08 01:13:16.16	119.12	27.70	-23.0	-24.0	19.1	0.00e+00	0	44	0	2280652800	6	4053
2026-01-08 01:13:19.18	119.99	27.47	-22.9	-23.8	19.2	0.00e+00	0	44	0	2297430016	6	3999
2026-01-08 01:13:22.20	120.85	27.23	-22.8	-23.6	19.3	0.00e+00	0	44	0	2314207232	6	3943
2026-01-08 01:13:25.22	121.70	27.00	-22.7	-23.4	19.4	0.00e+00	0	44	0	2330984448	6	3911
2026-01-08 01:13:28.22	122.53	26.75	-23.0	-24.0	19.1	0.00e+00	0	44	0	2347761664	6	4039
2026-01-08 01:13:31.25	123.35	26.51	-22.9	-23.9	19.1	0.00e+00	0	44	0	2364538880	6	4029
2026-01-08 01:13:34.27	124.16	26.26	-23.1	-24.3	18.9	0.00e+00	0	44	0	2382364672	6	4132
2026-01-08 01:13:37.28	124.95	26.00	-22.9	-23.8	19.1	0.00e+00	0	44	0	2399141888	6	3992
2026-01-08 01:13:40.31	125.74	25.75	-23.1	-24.2	18.9	0.00e+00	0	44	0	2415919104	6	4109
2026-01-08 01:13:43.32	126.51	25.49	-23.1	-24.3	18.9	0.00e+00	0	44	0	2432696320	6	4139
2026-01-08 01:13:46.34	127.27	25.22	-22.9	-23.7	19.2	0.00e+00	0	44	0	2449473536	6	3986
2026-01-08 01:13:49.36	128.02	24.96	-23.0	-23.9	19.1	0.00e+00	0	44	0	2467299328	6	4023
2026-01-08 01:13:52.37	128.75	24.69	-23.1	-24.2	18.9	0.00e+00	0	44	0	2484076544	6	4098
2026-01-08 01:13:55.39	129.47	24.42	-23.4	-24.8	18.6	0.00e+00	0	44	0	2500853760	6	4260
2026-01-08 01:13:58.40	130.18	24.15	-23.4	-24.9	18.5	0.00e+00	0	44	0	2517630976	6	4280
2026-01-08 01:14:01.42	130.88	23.88	-23.3	-24.8	18.6	0.00e+00	0	44	0	2534408192	6	4235
2026-01-08 01:14:04.44	131.57	23.60	-23.4	-24.3	18.6	0.00e+00	0	44	0	2551185408	7	4009
2026-01-08 01:14:07.45	132.24	23.33	-23.5	-24.7	18.4	0.00e+00	0	44	0	2567962624	7	4110
2026-01-08 01:14:10.47	132.90	23.05	-23.4	-24.3	18.6	0.00e+00	0	44	0	2585788416	7	4017
2026-01-08 01:14:13.48	133.55	22.77	-23.5	-24.6	18.4	0.00e+00	0	44	0	2602565632	7	4086
2026-01-08 01:14:16.51	134.20	22.50	-23.7	-25.0	18.1	0.00e+00	0	44	0	2619342848	7	4178
2026-01-08 01:14:19.52	134.82	22.22	-23.8	-25.2	18.0	0.00e+00	0	44	0	2636120064	7	4248
2026-01-08 01:14:22.53	135.44	21.94	-23.7	-25.1	18.1	0.00e+00	0	44	0	2652897280	7	4212
2026-01-08 01:14:25.55	136.05	21.66	-23.7	-25.1	18.0	1.33e-04	0	44	0	2670723072	7	4222
2026-01-08 01:14:28.57	136.65	21.38	-24.3	-25.8	17.5	0.00e+00	0	44	0	2687500288	8	4272
2026-01-08 01:14:31.59	137.23	21.10	-24.7	-26.1	17.0	0.00e+00	0	44	0	2704277504	9	4260
2026-01-08 01:14:34.59	137.81	20.82	-24.7	-26.2	17.0	4.49e-04	0	44	0	2721054720	9	4270
2026-01-08 01:14:37.61	138.37	20.54	-24.7	-26.1	17.0	3.94e-04	0	44	0	2737831936	9	4257
2026-01-08 01:14:40.62	138.93	20.27	-25.0	-26.8	16.6	3.40e-06	0	44	0	2755657728	9	4452
2026-01-08 01:14:43.65	139.48	19.99	-24.3	-25.4	17.3	4.34e-04	0	44	0	2772434944	9	4072
2026-01-08 01:14:46.66	140.02	19.71	-24.1	-25.4	17.6	7.37e-04	0	44	0	2789212160	8	4190
2026-01-08 01:14:49.68	140.54	19.43	-24.2	-25.6	17.4	7.45e-04	0	44	0	2805989376	8	4248
2026-01-08 01:14:52.70	141.06	19.16	-24.3	-25.9	17.3	0.00e+00	0	44	0	2822766592	8	4321
2026-01-08 01:14:55.72	141.57	18.88	-24.5	-25.7	17.1	4.46e-04	0	44	0	2840592384	9	4151
2026-01-08 01:14:58.75	142.08	18.61	-24.6	-25.9	17.0	0.00e+00	0	44	0	2857369600	9	4207
2026-01-08 01:15:01.77	142.57	18.33	-24.7	-26.3	16.7	0.00e+00	0	44	0	2874146816	9	4313
2026-01-08 01:15:04.79	143.05	18.06	-24.9	-26.6	16.6	0.00e+00	0	44	0	2890924032	9	4389
2026-01-08 01:15:07.80	143.53	17.79	-24.8	-26.5	16.6	0.00e+00	0	44	0	2907701248	9	4363
2026-01-08 01:15:10.82	143.99	17.52	-24.8	-26.5	16.6	0.00e+00	0	44	0	2925527040	9	4349
2026-01-08 01:15:13.84	144.45	17.25	-25.2	-26.9	16.1	0.00e+00	0	44	0	2942304256	10	4354
2026-01-08 01:15:16.85	144.90	16.98	-25.3	-27.0	16.0	0.00e+00	0	44	0	2959081472	10	4377
2026-01-08 01:15:19.87	145.35	16.72	-25.2	-26.9	16.0	0.00e+00	0	44	0	2975858688	10	4373
2026-01-08 01:15:22.89	145.79	16.45	-25.1	-26.6	16.2	0.00e+00	0	44	0	2992635904	10	4289
2026-01-08 01:15:25.90	146.21	16.19	-25.1	-26.7	16.2	0.00e+00	0	44	0	3009413120	10	4292
2026-01-08 01:15:28.93	146.64	15.93	-25.4	-27.2	15.9	0.00e+00	0	44	0	3027238912	10	4440
2026-01-08 01:15:31.95	147.05	15.66	-25.3	-27.1	15.9	0.00e+00	0	44	0	3044016128	10	4425
2026-01-08 01:15:34.97	147.46	15.40	-25.2	-26.9	16.0	0.00e+00	0	44	0	3060793344	10	4355
2026-01-08 01:15:37.99	147.86	15.15	-25.2	-26.8	16.1	0.00e+00	0	44	0	3077570560	10	4321
2026-01-08 01:15:41.01	148.25	14.89	-25.1	-26.5	16.2	0.00e+00	0	44	0	3095396352	10	4239
2026-01-08 01:15:44.03	148.64	14.63	-25.1	-26.7	16.1	0.00e+00	0	44	0	3112173568	10	4301
2026-01-08 01:15:47.05	149.02	14.38	-25.2	-26.9	15.9	0.00e+00	0	44	0	3128950784	10	4358
2026-01-08 01:15:50.07	149.40	14.13	-25.4	-27.3	15.7	1.35e-03	0	44	0	3145728000	10	4466
2026-01-08 01:15:53.10	149.77	13.88	-25.7	-27.4	15.4	2.63e-05	0	44	0	3162505216	11	4388
2026-01-08 01:15:56.12	150.13	13.63	-25.8	-27.7	15.2	1.53e-03	0	44	0	3180331008	11	4481
2026-01-08 01:15:59.13	150.49	13.38	-25.9	-27.9	15.0	1.52e-03	0	44	0	3197108224	11	4531
2026-01-08 01:16:02.15	150.84	13.13	-26.2	-28.2	14.5	1.78e-03	0	44	0	3213885440	12	4507
2026-01-08 01:16:05.17	151.19	12.89	-25.9	-27.9	15.0	2.40e-05	0	44	0	3230662656	11	4529
2026-01-08 01:16:08.19	151.53	12.65	-26.1	-27.9	14.6	1.57e-03	0	44	0	3247439872	12	4441
2026-01-08 01:16:11.20	151.86	12.41	-26.0	-28.1	14.8	1.69e-03	0	44	0	3264217088	11	4605
2026-01-08 01:16:14.22	152.19	12.17	-26.1	-27.9	14.6	0.00e+00	0	44	0	3282042880	12	4429
2026-01-08 01:16:17.24	152.52	11.93	-26.3	-28.3	14.4	2.20e-06	0	44	0	3298820096	12	4529
2026-01-08 01:16:20.25	152.84	11.69	-26.4	-28.1	14.2	1.69e-03	0	44	0	3315597312	13	4364
2026-01-08 01:16:23.27	153.15	11.45	-26.3	-28.4	14.3	0.00e+00	0	44	0	3332374528	12	4566
2026-01-08 01:16:26.28	153.46	11.22	-26.2	-28.2	14.4	0.00e+00	0	44	0	3349151744	12	4523
2026-01-08 01:16:29.31	153.77	10.99	-26.2	-28.2	14.3	0.00e+00	0	44	0	3366977536	12	4523
2026-01-08 01:16:32.32	154.07	10.76	-26.2	-28.2	14.3	0.00e+00	0	44	0	3383754752	12	4537
2026-01-08 01:16:35.33	154.36	10.53	-26.3	-28.4	14.2	0.00e+00	0	44	0	3400531968	12	4575
2026-01-08 01:16:38.35	154.65	10.30	-26.3	-28.5	14.2	0.00e+00	0	44	0	3417309184	12	4600
2026-01-08 01:16:41.36	154.94	10.07	-26.4	-28.7	14.1	1.10e-06	0	44	0	3434086400	12	4670
2026-01-08 01:16:44.38	155.22	9.85	-26.8	-29.1	13.5	6.80e-06	0	44	0	3450863616	13	4690
2026-01-08 01:16:47.39	155.50	9.63	-26.4	-28.2	14.0	1.10e-06	0	44	0	3467640832	13	4419
2026-01-08 01:16:50.40	155.78	9.41	-26.4	-28.7	14.0	2.20e-06	0	44	0	3485466624	12	4683
2026-01-08 01:16:53.41	156.05	9.18	-26.5	-28.3	14.0	2.20e-06	0	44	0	3502243840	13	4441
2026-01-08 01:16:56.43	156.31	8.97	-26.5	-28.7	14.0	1.10e-06	0	44	0	3519021056	12	4662
2026-01-08 01:16:59.44	156.58	8.75	-26.5	-28.3	13.9	2.20e-06	0	44	0	3535798272	13	4443
2026-01-08 01:17:02.45	156.84	8.53	-26.5	-28.4	13.7	3.40e-06	0	44	0	3552575488	13	4492
2026-01-08 01:17:05.47	157.09	8.32	-26.5	-28.5	13.7	4.57e-05	0	44	0	3570401280	13	4504
2026-01-08 01:17:08.49	157.34	8.10	-26.6	-28.6	13.6	9.61e-05	0	44	0	3587178496	13	4551
2026-01-08 01:17:11.52	157.59	7.89	-26.8	-29.2	13.3	1.57e-04	0	44	0	3603955712	13	4726
2026-01-08 01:17:14.53	157.84	7.68	-26.6	-28.7	13.6	1.42e-04	0	44	0	3620732928	13	4558
2026-01-08 01:17:17.55	158.08	7.47	-26.7	-28.9	13.4	1.15e-04	0	44	0	3637510144	13	4634
2026-01-08 01:17:20.57	158.32	7.26	-26.7	-28.8	13.5	6.80e-06	0	44	0	3655335936	13	4618
2026-01-08 01:17:23.59	158.56	7.05	-32.1	-43.0	3.8	4.40e-01	0	44	104	3670016000	24	12694
2026-01-08 01:17:26.61	158.79	6.85	-33.5	-45.0	3.8	8.45e-01	0	44	104	3670016000	26	13573

#Closed at: 2026-01-08 01:17:27
#Recorded file [3670 MB]: D:/data/31010_260108_040630.dat