passes_logs/2026/01/08/R2M6_AANII_01/R2M6_AANII_01__20260108_084031_NOAA_20_JPSS-1_rec.log

#Pass ID: 20260108_084031_NOAA 20 (JPSS-1)
#Satellite: NOAA 20 (JPSS-1)
#Configuration: NOAA 20
#almurnet v.1.7.20240730
#Start time: 2026-01-08 08:40:32

#Version: 2.2.20231116
#Station: R2M6_AANII_01
#Location: 30.233357 lon 59.946436 lat
#TLE: 1 43013U 17073A   26006.30790171  .00000126  00000+0  80695-4 0  9991
#TLE: 2 43013  98.7629 307.3394 0001808  51.8724 308.2615 14.19533762421505

#Time	Az	El	Level	Level2	SNR	BER	BlckErr	Temp	State	Recorded	gain1	gain2
2026-01-08 08:40:32.42	109.33	7.03	-31.9	-38.8	4.6	1.35e+00	0	40	0	0	25	7995
2026-01-08 08:40:35.43	109.09	7.23	-31.7	-38.0	7.2	1.38e-01	0	41	0	1048576	24	7455
2026-01-08 08:40:38.45	108.84	7.44	-31.7	-37.7	7.4	1.48e-01	0	41	0	7340032	24	7262
2026-01-08 08:40:41.46	108.60	7.65	-31.1	-35.6	9.6	1.89e-02	0	41	0	12582912	23	6079
2026-01-08 08:40:44.48	108.34	7.85	-30.9	-34.9	10.1	6.02e-03	0	41	0	18874368	23	5728
2026-01-08 08:40:47.50	108.09	8.06	-30.9	-34.8	10.3	5.53e-03	0	41	0	24117248	23	5671
2026-01-08 08:40:50.52	107.83	8.27	-31.0	-35.1	10.2	5.71e-03	0	41	0	29360128	23	5762
2026-01-08 08:40:53.54	107.56	8.49	-30.9	-34.9	10.3	6.04e-03	0	41	0	35651584	23	5685
2026-01-08 08:40:56.56	107.29	8.70	-30.9	-34.5	10.7	3.35e-03	0	41	0	40894464	23	5503
2026-01-08 08:40:59.58	107.02	8.91	-31.0	-35.0	10.3	4.74e-03	0	41	0	47185920	23	5747
2026-01-08 08:41:02.59	106.75	9.13	-31.0	-35.0	10.3	5.38e-03	0	41	0	52428800	23	5742
2026-01-08 08:41:05.60	106.47	9.34	-30.9	-34.7	10.6	3.53e-03	0	41	0	57671680	23	5565
2026-01-08 08:41:08.62	106.18	9.56	-31.0	-35.0	10.4	4.24e-03	0	41	0	63963136	23	5716
2026-01-08 08:41:11.63	105.89	9.78	-30.9	-34.6	10.7	3.11e-03	0	41	0	69206016	23	5508
2026-01-08 08:41:14.65	105.60	10.00	-30.9	-34.5	10.8	2.24e-03	0	41	0	74448896	23	5485
2026-01-08 08:41:17.66	105.30	10.22	-30.8	-34.4	10.9	2.15e-03	0	41	0	80740352	23	5400
2026-01-08 08:41:20.69	105.00	10.44	-30.9	-34.6	10.8	2.57e-03	0	42	0	85983232	23	5509
2026-01-08 08:41:23.70	104.69	10.67	-30.9	-34.7	10.7	3.79e-03	0	42	0	92274688	23	5545
2026-01-08 08:41:26.72	104.38	10.89	-30.8	-34.3	11.0	1.84e-03	0	42	0	97517568	23	5388
2026-01-08 08:41:29.74	104.06	11.12	-30.7	-34.4	11.3	1.24e-03	0	42	0	102760448	22	5501
2026-01-08 08:41:32.77	103.74	11.35	-30.6	-34.1	11.5	7.67e-04	0	42	0	109051904	22	5370
2026-01-08 08:41:35.79	103.41	11.58	-30.7	-34.3	11.5	7.28e-04	0	42	0	114294784	22	5442
2026-01-08 08:41:38.82	103.08	11.81	-30.6	-33.9	11.7	6.48e-04	0	42	0	120586240	22	5292
2026-01-08 08:41:41.84	102.74	12.04	-30.7	-34.4	11.4	9.61e-04	0	42	0	125829120	22	5489
2026-01-08 08:41:44.86	102.40	12.27	-30.8	-34.5	11.3	9.24e-04	0	42	0	131072000	22	5536
2026-01-08 08:41:47.88	102.05	12.50	-30.8	-34.8	11.1	1.03e-03	0	42	0	137363456	22	5649
2026-01-08 08:41:50.89	101.69	12.74	-30.7	-34.4	11.4	8.03e-04	0	42	0	142606336	22	5469
2026-01-08 08:41:53.91	101.33	12.97	-30.7	-34.2	11.6	6.25e-04	0	42	0	148897792	22	5403
2026-01-08 08:41:56.92	100.97	13.21	-30.5	-33.7	11.9	3.69e-04	0	42	0	154140672	22	5199
2026-01-08 08:41:59.94	100.59	13.45	-30.5	-33.7	12.0	3.38e-04	0	42	0	159383552	22	5202
2026-01-08 08:42:02.95	100.21	13.69	-30.6	-33.9	11.9	3.89e-04	0	42	0	165675008	22	5258
2026-01-08 08:42:05.96	99.83	13.93	-30.5	-33.7	12.0	3.00e-04	0	42	0	170917888	22	5187
2026-01-08 08:42:08.97	99.44	14.17	-30.6	-34.1	11.7	5.11e-04	0	42	0	177209344	22	5340
2026-01-08 08:42:11.99	99.04	14.41	-30.5	-33.6	12.1	2.44e-04	0	42	0	182452224	22	5156
2026-01-08 08:42:15.00	98.64	14.65	-30.7	-34.2	11.7	4.52e-04	0	42	0	187695104	22	5394
2026-01-08 08:42:18.02	98.23	14.90	-30.3	-32.9	12.7	1.22e-04	0	42	0	193986560	22	4882
2026-01-08 08:42:21.03	97.81	15.14	-30.3	-33.5	12.6	9.00e-05	0	42	0	199229440	21	5212
2026-01-08 08:42:24.05	97.38	15.39	-30.4	-33.7	12.5	1.05e-04	0	42	0	205520896	21	5275
2026-01-08 08:42:27.06	96.95	15.64	-30.3	-33.4	12.7	9.76e-05	0	42	0	210763776	21	5166
2026-01-08 08:42:30.06	96.51	15.88	-30.5	-34.0	12.3	1.64e-04	0	42	0	216006656	21	5406
2026-01-08 08:42:33.08	96.07	16.13	-30.3	-33.4	12.7	6.33e-05	0	43	0	222298112	21	5162
2026-01-08 08:42:36.10	95.61	16.38	-30.2	-33.3	12.8	6.48e-05	0	43	0	227540992	21	5089
2026-01-08 08:42:39.11	95.15	16.63	-30.3	-33.5	12.7	6.33e-05	0	42	0	232783872	21	5165
2026-01-08 08:42:42.13	94.68	16.88	-30.2	-33.2	12.9	5.56e-05	0	42	0	239075328	21	5058
2026-01-08 08:42:45.14	94.20	17.13	-30.5	-33.8	12.5	7.93e-05	0	42	0	244318208	21	5306
2026-01-08 08:42:48.16	93.71	17.38	-30.5	-33.9	12.5	1.32e-04	0	43	0	250609664	21	5336
2026-01-08 08:42:51.18	93.22	17.64	-30.5	-34.0	12.5	8.39e-05	0	42	0	255852544	21	5361
2026-01-08 08:42:54.20	92.71	17.89	-30.5	-33.9	12.6	1.10e-04	0	42	0	261095424	21	5330
2026-01-08 08:42:57.21	92.20	18.14	-30.5	-34.0	12.5	1.26e-04	0	43	0	267386880	21	5349
2026-01-08 08:43:00.21	91.69	18.39	-30.6	-34.1	12.4	1.27e-04	0	42	0	272629760	21	5422
2026-01-08 08:43:03.23	91.16	18.64	-30.5	-33.9	12.6	1.18e-04	0	43	0	278921216	21	5328
2026-01-08 08:43:06.25	90.62	18.90	-30.6	-34.3	12.4	1.52e-04	0	42	0	284164096	21	5466
2026-01-08 08:43:09.27	90.07	19.15	-30.7	-34.5	12.2	2.13e-04	0	43	0	289406976	21	5570
2026-01-08 08:43:12.28	89.51	19.40	-30.8	-34.6	12.1	2.38e-04	0	43	0	295698432	21	5592
2026-01-08 08:43:15.30	88.95	19.66	-30.6	-34.1	12.5	1.45e-04	0	43	0	300941312	21	5390
2026-01-08 08:43:18.31	88.37	19.91	-30.4	-33.5	12.9	4.80e-05	0	43	0	307232768	21	5144
2026-01-08 08:43:21.33	87.79	20.16	-30.3	-33.1	13.2	2.59e-05	0	42	0	312475648	21	5016
2026-01-08 08:43:24.34	87.19	20.41	-30.2	-33.1	13.2	2.05e-05	0	43	0	317718528	21	5003
2026-01-08 08:43:27.37	86.59	20.66	-30.1	-32.8	13.4	2.05e-05	0	43	0	324009984	21	4900
2026-01-08 08:43:30.38	85.97	20.91	-30.1	-32.6	13.5	8.30e-06	0	43	0	329252864	21	4828
2026-01-08 08:43:33.39	85.35	21.15	-29.8	-31.8	14.1	1.50e-06	0	43	0	335544320	21	4540
2026-01-08 08:43:36.42	84.71	21.40	-29.8	-32.4	14.0	1.50e-06	0	43	0	340787200	20	4850
2026-01-08 08:43:39.43	84.07	21.65	-29.7	-32.0	14.3	3.80e-06	0	42	0	346030080	20	4728
2026-01-08 08:43:42.45	83.41	21.89	-29.5	-31.6	14.5	0.00e+00	0	43	0	352321536	20	4576
2026-01-08 08:43:45.47	82.75	22.13	-29.3	-31.6	15.0	0.00e+00	0	43	0	357564416	19	4660
2026-01-08 08:43:48.49	82.07	22.37	-29.4	-31.8	14.8	0.00e+00	0	43	0	363855872	19	4731
2026-01-08 08:43:51.50	81.38	22.61	-29.5	-32.0	14.7	0.00e+00	0	42	0	369098752	19	4800
2026-01-08 08:43:54.52	80.69	22.84	-29.5	-31.9	14.8	7.00e-07	0	43	0	374341632	19	4777
2026-01-08 08:43:57.54	79.98	23.08	-29.5	-32.1	14.7	7.00e-07	0	43	0	380633088	19	4820
2026-01-08 08:44:00.56	79.26	23.31	-29.5	-32.0	14.8	0.00e+00	0	43	0	385875968	19	4799
2026-01-08 08:44:03.58	78.53	23.53	-29.4	-31.8	14.8	7.00e-07	0	43	0	392167424	19	4748
2026-01-08 08:44:06.59	77.79	23.76	-29.4	-31.7	15.0	0.00e+00	0	43	0	397410304	19	4685
2026-01-08 08:44:09.61	77.04	23.98	-29.5	-32.0	14.8	1.50e-06	0	43	0	402653184	19	4790
2026-01-08 08:44:12.64	76.28	24.20	-29.6	-32.3	14.6	7.00e-07	0	43	0	408944640	19	4888
2026-01-08 08:44:15.65	75.51	24.41	-29.8	-32.7	14.4	7.00e-07	0	43	0	414187520	19	5030
2026-01-08 08:44:18.67	74.72	24.62	-29.6	-32.3	14.6	2.20e-06	0	43	0	420478976	19	4899
2026-01-08 08:44:21.69	73.93	24.82	-29.5	-31.8	14.9	2.20e-06	0	43	0	425721856	19	4741
2026-01-08 08:44:24.70	73.13	25.02	-29.6	-32.3	14.6	0.00e+00	0	43	0	430964736	19	4903
2026-01-08 08:44:27.72	72.31	25.22	-29.9	-33.0	14.3	1.50e-06	0	43	0	437256192	19	5128
2026-01-08 08:44:30.74	71.49	25.41	-29.8	-32.8	14.3	1.50e-06	0	43	0	442499072	19	5054
2026-01-08 08:44:33.76	70.66	25.60	-29.5	-31.8	14.9	3.00e-06	0	43	0	448790528	19	4736
2026-01-08 08:44:36.77	69.82	25.78	-29.3	-31.5	15.1	0.00e+00	0	43	0	454033408	19	4640
2026-01-08 08:44:39.79	68.96	25.95	-29.3	-31.5	15.1	0.00e+00	0	43	0	459276288	19	4621
2026-01-08 08:44:42.81	68.10	26.12	-29.5	-32.0	14.9	0.00e+00	0	43	0	465567744	19	4791
2026-01-08 08:44:45.82	67.23	26.28	-29.6	-32.3	14.7	0.00e+00	0	43	0	470810624	19	4881
2026-01-08 08:44:48.84	66.35	26.44	-30.0	-33.1	14.1	0.00e+00	0	43	0	477102080	19	5190
2026-01-08 08:44:51.87	65.46	26.59	-30.1	-33.0	13.9	3.00e-06	0	43	0	482344960	20	5017
2026-01-08 08:44:54.88	64.57	26.73	-30.4	-33.8	13.3	8.30e-06	0	43	0	487587840	20	5342
2026-01-08 08:44:57.90	63.66	26.86	-30.4	-33.9	13.3	9.10e-06	0	43	0	493879296	20	5375
2026-01-08 08:45:00.91	62.76	26.99	-30.4	-33.8	13.4	9.90e-06	0	43	0	499122176	20	5316
2026-01-08 08:45:03.93	61.84	27.11	-30.4	-33.8	13.4	1.06e-05	0	43	0	505413632	20	5333
2026-01-08 08:45:06.94	60.91	27.22	-30.5	-33.7	13.1	2.28e-05	0	43	0	510656512	21	5193
2026-01-08 08:45:09.97	59.98	27.33	-30.4	-33.4	13.3	2.67e-05	0	43	0	515899392	21	5059
2026-01-08 08:45:12.98	59.04	27.43	-30.6	-33.9	13.0	2.44e-05	0	43	0	522190848	21	5258
2026-01-08 08:45:16.00	58.10	27.51	-30.6	-33.9	13.0	3.58e-05	0	43	0	527433728	21	5246
2026-01-08 08:45:19.02	57.15	27.59	-31.1	-34.8	12.1	2.07e-04	0	43	0	533725184	22	5526
2026-01-08 08:45:22.05	56.20	27.67	-31.2	-35.0	12.0	3.10e-04	0	43	0	538968064	22	5587
2026-01-08 08:45:25.06	55.24	27.73	-31.1	-34.9	12.0	2.60e-04	0	43	0	544210944	22	5562
2026-01-08 08:45:28.08	54.28	27.78	-31.1	-34.7	12.1	4.03e-04	0	43	0	550502400	22	5493
2026-01-08 08:45:31.09	53.32	27.83	-31.1	-34.8	12.1	3.81e-04	0	43	0	555745280	22	5532
2026-01-08 08:45:34.11	52.36	27.86	-30.8	-33.9	12.7	1.14e-04	0	43	0	560988160	22	5161
2026-01-08 08:45:37.13	51.39	27.89	-30.8	-34.0	12.6	9.07e-05	0	43	0	567279616	22	5175
2026-01-08 08:45:40.16	50.42	27.91	-30.7	-33.5	12.9	7.62e-05	0	43	0	572522496	22	5005
2026-01-08 08:45:43.17	49.45	27.92	-30.5	-33.0	13.3	1.52e-05	0	43	0	578813952	22	4820
2026-01-08 08:45:46.19	48.48	27.92	-30.5	-32.9	13.3	1.90e-05	0	43	0	584056832	22	4792
2026-01-08 08:45:49.21	47.51	27.91	-30.5	-33.1	13.2	2.44e-05	0	43	0	589299712	22	4864
2026-01-08 08:45:52.22	46.55	27.89	-30.6	-33.4	13.0	4.11e-05	0	43	0	595591168	22	4980
2026-01-08 08:45:55.24	45.58	27.87	-30.4	-32.7	13.5	7.60e-06	0	43	0	600834048	22	4716
2026-01-08 08:45:58.26	44.61	27.83	-30.3	-33.2	13.5	1.06e-05	0	43	0	607125504	21	4981
2026-01-08 08:46:01.27	43.65	27.79	-30.0	-32.2	14.1	1.50e-06	0	43	0	612368384	21	4643
2026-01-08 08:46:04.29	42.69	27.73	-29.9	-32.0	14.2	2.20e-06	0	43	0	617611264	21	4587
2026-01-08 08:46:07.30	41.74	27.67	-30.0	-32.2	14.1	2.20e-06	0	43	0	623902720	21	4652
2026-01-08 08:46:10.32	40.79	27.60	-29.4	-31.2	15.0	7.00e-07	0	43	0	629145600	20	4427
2026-01-08 08:46:13.35	39.84	27.52	-29.6	-31.6	14.7	1.50e-06	0	43	0	635437056	20	4554
2026-01-08 08:46:16.35	38.90	27.43	-29.5	-31.5	14.8	0.00e+00	0	43	0	640679936	20	4531
2026-01-08 08:46:19.36	37.97	27.33	-29.5	-31.5	14.8	0.00e+00	0	43	0	645922816	20	4534
2026-01-08 08:46:22.38	37.04	27.23	-29.6	-31.7	14.7	7.00e-07	0	43	0	652214272	20	4593
2026-01-08 08:46:25.40	36.11	27.12	-29.8	-32.3	14.3	1.50e-06	0	43	0	657457152	20	4791
2026-01-08 08:46:28.41	35.20	27.00	-30.2	-33.4	13.6	4.50e-06	0	43	0	663748608	20	5182
2026-01-08 08:46:31.43	34.29	26.87	-30.2	-33.3	13.7	6.80e-06	0	43	0	668991488	20	5139
2026-01-08 08:46:34.44	33.39	26.74	-30.3	-33.7	13.4	1.06e-05	0	43	0	674234368	20	5287
2026-01-08 08:46:37.45	32.50	26.59	-30.5	-33.7	13.0	1.90e-05	0	43	0	680525824	21	5204
2026-01-08 08:46:40.47	31.61	26.45	-30.7	-34.2	12.7	5.95e-05	0	43	0	685768704	21	5380
2026-01-08 08:46:43.49	30.73	26.29	-30.6	-34.0	12.9	4.04e-05	0	43	0	692060160	21	5316
2026-01-08 08:46:46.50	29.86	26.13	-30.7	-34.2	12.7	6.86e-05	0	43	0	697303040	21	5406
2026-01-08 08:46:49.52	29.00	25.96	-30.9	-34.7	12.3	1.59e-04	0	43	0	702545920	21	5606
2026-01-08 08:46:52.52	28.16	25.79	-30.9	-34.9	12.2	1.71e-04	0	43	0	708837376	21	5678
2026-01-08 08:46:55.53	27.32	25.61	-30.7	-33.6	12.7	8.39e-05	0	43	0	714080256	22	5066
2026-01-08 08:46:58.54	26.49	25.43	-30.6	-33.4	12.9	4.50e-05	0	43	0	719323136	22	4977
2026-01-08 08:47:01.56	25.67	25.24	-30.6	-33.4	12.8	4.34e-05	0	43	0	725614592	22	5003
2026-01-08 08:47:04.58	24.86	25.04	-30.4	-33.0	13.1	2.51e-05	0	43	0	730857472	22	4855
2026-01-08 08:47:07.60	24.06	24.84	-30.4	-32.9	13.3	2.51e-05	0	43	0	737148928	22	4785
2026-01-08 08:47:10.62	23.26	24.64	-30.2	-32.9	13.5	1.14e-05	0	43	0	742391808	21	4891
2026-01-08 08:47:13.63	22.49	24.43	-30.3	-33.1	13.4	1.75e-05	0	43	0	747634688	21	4960
2026-01-08 08:47:16.65	21.72	24.22	-30.4	-33.4	13.2	2.74e-05	0	43	0	753926144	21	5088
2026-01-08 08:47:19.66	20.96	24.00	-30.0	-32.2	13.8	6.10e-06	0	43	0	759169024	21	4676
2026-01-08 08:47:22.68	20.21	23.78	-29.9	-31.9	14.1	7.00e-07	0	43	0	765460480	21	4575
2026-01-08 08:47:25.69	19.47	23.56	-29.8	-32.2	14.2	0.00e+00	0	43	0	770703360	20	4751
2026-01-08 08:47:28.71	18.75	23.33	-29.9	-32.7	13.9	2.20e-06	0	43	0	775946240	20	4941
2026-01-08 08:47:31.72	18.03	23.10	-29.8	-32.2	14.2	1.50e-06	0	43	0	782237696	20	4773
2026-01-08 08:47:34.73	17.33	22.87	-30.0	-32.8	13.8	1.50e-06	0	43	0	787480576	20	4971
2026-01-08 08:47:37.75	16.63	22.64	-29.4	-31.2	14.8	1.50e-06	0	43	0	793772032	20	4440
2026-01-08 08:47:40.77	15.95	22.40	-29.3	-31.5	15.0	0.00e+00	0	43	0	799014912	19	4654
2026-01-08 08:47:43.78	15.27	22.16	-29.3	-31.6	14.9	7.00e-07	0	43	0	804257792	19	4663
2026-01-08 08:47:46.79	14.61	21.92	-29.0	-30.7	15.4	0.00e+00	0	43	0	810549248	19	4398
2026-01-08 08:47:49.81	13.96	21.68	-28.8	-30.3	15.7	0.00e+00	0	43	0	815792128	19	4257
2026-01-08 08:47:52.82	13.32	21.44	-28.7	-30.5	15.8	0.00e+00	0	43	0	822083584	18	4445
2026-01-08 08:47:55.84	12.68	21.19	-28.7	-30.5	15.8	0.00e+00	0	43	0	827326464	18	4425
2026-01-08 08:47:58.86	12.06	20.95	-28.4	-29.7	16.3	0.00e+00	0	43	0	832569344	18	4198
2026-01-08 08:48:01.87	11.45	20.70	-28.4	-29.9	16.2	0.00e+00	0	43	0	838860800	18	4270
2026-01-08 08:48:04.89	10.84	20.45	-28.5	-30.0	16.1	0.00e+00	0	43	0	844103680	18	4294
2026-01-08 08:48:07.91	10.25	20.20	-28.5	-30.1	16.0	0.00e+00	0	43	0	849346560	18	4337
2026-01-08 08:48:10.93	9.67	19.95	-28.5	-30.2	16.0	0.00e+00	0	43	0	855638016	18	4343
2026-01-08 08:48:13.95	9.09	19.70	-28.5	-30.2	15.9	0.00e+00	0	43	0	860880896	18	4352
2026-01-08 08:48:16.96	8.53	19.45	-28.6	-30.4	15.8	0.00e+00	0	43	0	867172352	18	4413
2026-01-08 08:48:19.98	7.98	19.20	-28.7	-30.6	15.7	0.00e+00	0	43	0	872415232	18	4475
2026-01-08 08:48:23.00	7.43	18.95	-28.9	-31.1	15.4	0.00e+00	0	43	0	877658112	18	4640
2026-01-08 08:48:26.02	6.89	18.69	-29.0	-31.4	15.2	0.00e+00	0	43	0	883949568	18	4724
2026-01-08 08:48:29.04	6.37	18.44	-29.0	-31.3	15.2	0.00e+00	0	43	0	889192448	18	4698
2026-01-08 08:48:32.05	5.85	18.19	-29.3	-32.1	14.7	0.00e+00	0	43	0	895483904	18	4978
2026-01-08 08:48:35.06	5.34	17.94	-29.6	-32.5	14.2	1.50e-06	0	43	0	900726784	19	4991
2026-01-08 08:48:38.09	4.84	17.69	-29.6	-32.4	14.2	0.00e+00	0	43	0	905969664	19	4973
2026-01-08 08:48:41.11	4.34	17.44	-29.7	-32.8	13.9	1.50e-06	0	43	0	912261120	19	5104
2026-01-08 08:48:44.13	3.86	17.18	-29.6	-32.3	14.2	2.20e-06	0	43	0	917504000	19	4937
2026-01-08 08:48:47.14	3.38	16.93	-29.7	-32.6	14.0	3.80e-06	0	43	0	923795456	19	5043
2026-01-08 08:48:50.15	2.92	16.69	-29.8	-32.9	13.8	2.20e-06	0	43	0	929038336	19	5173
2026-01-08 08:48:53.16	2.46	16.44	-29.9	-33.2	13.6	6.10e-06	0	43	0	934281216	19	5274
2026-01-08 08:48:56.18	2.01	16.19	-30.1	-33.2	13.2	2.89e-05	0	43	0	940572672	20	5187
2026-01-08 08:48:59.21	1.56	15.94	-29.8	-32.5	13.7	8.30e-06	0	43	0	945815552	20	4922
2026-01-08 08:49:02.21	1.12	15.69	-29.9	-32.6	13.5	1.67e-05	0	43	0	952107008	20	4968
2026-01-08 08:49:05.24	0.69	15.45	-29.9	-32.7	13.5	1.06e-05	0	43	0	957349888	20	4973
2026-01-08 08:49:08.24	0.27	15.20	-30.0	-33.1	13.2	1.52e-05	0	43	0	962592768	20	5128
2026-01-08 08:49:11.26	359.85	14.96	-30.2	-33.6	12.8	5.03e-05	0	43	0	968884224	20	5357
2026-01-08 08:49:14.28	359.44	14.72	-30.0	-33.2	13.1	2.36e-05	0	43	0	974127104	20	5184
2026-01-08 08:49:17.29	359.04	14.47	-30.1	-33.5	12.9	4.19e-05	0	43	0	980418560	20	5289
2026-01-08 08:49:20.30	358.65	14.23	-30.2	-33.6	12.8	5.34e-05	0	43	0	985661440	20	5337
2026-01-08 08:49:23.32	358.26	13.99	-30.2	-33.8	12.7	7.62e-05	0	43	0	990904320	20	5416
2026-01-08 08:49:26.34	357.88	13.75	-30.3	-34.1	12.4	1.29e-04	0	43	0	997195776	20	5552
2026-01-08 08:49:29.36	357.50	13.51	-30.5	-34.1	12.1	2.90e-04	0	43	0	1002438656	21	5444
2026-01-08 08:49:32.38	357.13	13.28	-30.5	-34.3	11.9	4.39e-04	0	43	0	1008730112	21	5523
2026-01-08 08:49:35.40	356.76	13.04	-30.4	-33.8	12.3	1.95e-04	0	43	0	1013972992	21	5318
2026-01-08 08:49:38.42	356.40	12.81	-30.4	-34.0	12.1	2.12e-04	0	43	0	1019215872	21	5406
2026-01-08 08:49:41.44	356.05	12.57	-30.5	-34.3	11.9	4.37e-04	0	43	0	1025507328	21	5554
2026-01-08 08:49:44.46	355.71	12.34	-30.5	-34.3	11.8	5.30e-04	0	43	0	1030750208	21	5562
2026-01-08 08:49:47.48	355.36	12.11	-30.6	-34.5	11.7	6.61e-04	0	43	0	1037041664	21	5615
2026-01-08 08:49:50.48	355.03	11.88	-30.4	-34.0	12.0	4.52e-04	0	43	0	1042284544	21	5442
2026-01-08 08:49:53.50	354.70	11.65	-30.5	-34.4	11.8	4.17e-04	0	43	0	1047527424	21	5583
2026-01-08 08:49:56.52	354.37	11.42	-30.6	-34.4	11.6	6.23e-04	0	43	0	1053818880	21	5606
2026-01-08 08:49:59.54	354.05	11.19	-30.6	-34.5	11.6	6.96e-04	0	43	0	1059061760	21	5666
2026-01-08 08:50:02.56	353.74	10.97	-30.7	-34.9	11.2	1.36e-03	0	43	0	1064304640	21	5816
2026-01-08 08:50:05.58	353.43	10.74	-30.7	-34.9	11.2	1.39e-03	0	43	0	1070596096	21	5850
2026-01-08 08:50:08.60	353.12	10.52	-30.8	-35.1	11.1	1.20e-03	0	43	0	1075838976	21	5928
2026-01-08 08:50:11.62	352.82	10.30	-30.7	-34.9	11.2	1.28e-03	0	43	0	1082130432	21	5826
2026-01-08 08:50:14.63	352.53	10.08	-30.8	-35.3	10.9	1.91e-03	0	43	0	1087373312	21	6033
2026-01-08 08:50:17.65	352.24	9.86	-30.9	-35.5	10.7	3.28e-03	0	43	0	1092616192	21	6154
2026-01-08 08:50:20.65	351.95	9.64	-30.9	-35.5	10.7	2.71e-03	0	43	0	1098907648	21	6159
2026-01-08 08:50:23.64	351.67	9.43	-30.9	-35.8	10.5	4.04e-03	0	43	0	1104150528	21	6276
2026-01-08 08:50:26.66	351.39	9.21	-30.6	-34.7	11.2	1.47e-03	0	43	0	1110441984	21	5774
2026-01-08 08:50:29.68	351.12	9.00	-30.7	-34.9	11.0	1.67e-03	0	43	0	1115684864	21	5874
2026-01-08 08:50:32.69	350.85	8.78	-30.7	-35.1	10.9	2.18e-03	0	43	0	1120927744	21	5982
2026-01-08 08:50:35.71	350.59	8.57	-30.8	-35.4	10.6	3.61e-03	0	43	0	1127219200	21	6114
2026-01-08 08:50:38.73	350.32	8.36	-30.9	-35.7	10.3	4.95e-03	0	43	0	1132462080	21	6300
2026-01-08 08:50:41.75	350.07	8.15	-30.9	-36.0	10.2	5.88e-03	0	43	0	1138753536	21	6420
2026-01-08 08:50:44.78	349.81	7.94	-30.9	-35.7	10.3	5.62e-03	0	43	0	1143996416	21	6299
2026-01-08 08:50:47.79	349.56	7.73	-30.9	-36.1	10.0	7.56e-03	0	43	0	1149239296	21	6524
2026-01-08 08:50:50.81	349.32	7.53	-31.1	-36.3	9.5	1.07e-02	0	43	0	1155530752	22	6509
2026-01-08 08:50:53.82	349.07	7.32	-31.0	-36.0	9.7	1.29e-02	0	43	0	1160773632	22	6360
2026-01-08 08:50:56.83	348.84	7.12	-31.1	-36.4	9.4	1.48e-02	0	43	0	1167065088	22	6570
2026-01-08 08:50:59.85	348.60	6.92	-33.5	-48.0	3.8	1.49e+00	0	43	104	1168113664	26	19199

#Closed at: 2026-01-08 08:51:00
#Recorded file [1168 MB]: D:/data/31010_260108_114034.dat