passes_logs/2026/01/08/R2M6_AANII_01/R2M6_AANII_01__20260108_120130_NOAA_20_JPSS-1_rec.log

#Pass ID: 20260108_120130_NOAA 20 (JPSS-1)
#Satellite: NOAA 20 (JPSS-1)
#Configuration: NOAA 20
#almurnet v.1.7.20240730
#Start time: 2026-01-08 12:01:32

#Version: 2.2.20231116
#Station: R2M6_AANII_01
#Location: 30.233357 lon 59.946436 lat
#TLE: 1 43013U 17073A   26006.30790171  .00000126  00000+0  80695-4 0  9991
#TLE: 2 43013  98.7629 307.3394 0001808  51.8724 308.2615 14.19533762421505

#Time	Az	El	Level	Level2	SNR	BER	BlckErr	Temp	State	Recorded	gain1	gain2
2026-01-08 12:01:32.83	216.65	7.12	-31.2	-36.2	5.2	1.17e+00	0	41	0	0	23	6391
2026-01-08 12:01:35.85	216.96	7.31	-31.3	-35.9	9.0	2.96e-02	0	41	0	1048576	24	6111
2026-01-08 12:01:38.87	217.27	7.50	-31.4	-36.7	8.7	2.12e-02	0	41	0	7340032	23	6650
2026-01-08 12:01:41.87	217.58	7.68	-30.9	-34.9	10.2	8.85e-03	0	41	0	12582912	23	5700
2026-01-08 12:01:44.89	217.89	7.87	-30.7	-34.8	10.7	2.95e-03	0	41	0	18874368	22	5740
2026-01-08 12:01:47.91	218.21	8.06	-30.6	-34.3	11.0	2.26e-03	0	41	0	24117248	22	5530
2026-01-08 12:01:50.92	218.54	8.25	-30.4	-33.8	11.6	8.41e-04	0	41	0	29360128	22	5266
2026-01-08 12:01:53.94	218.87	8.44	-30.5	-33.8	11.5	1.01e-03	0	41	0	35651584	22	5286
2026-01-08 12:01:56.95	219.20	8.63	-30.5	-33.9	11.5	8.78e-04	0	41	0	40894464	22	5302
2026-01-08 12:01:59.97	219.54	8.82	-30.5	-33.9	11.5	9.63e-04	0	42	0	46137344	22	5309
2026-01-08 12:02:02.99	219.88	9.01	-30.6	-34.3	11.2	1.56e-03	0	42	0	52428800	22	5478
2026-01-08 12:02:06.01	220.23	9.20	-30.6	-34.1	11.4	8.55e-04	0	42	0	57671680	22	5399
2026-01-08 12:02:09.03	220.58	9.40	-30.6	-34.2	11.4	1.37e-03	0	42	0	63963136	22	5427
2026-01-08 12:02:12.05	220.93	9.59	-30.6	-34.1	11.4	9.30e-04	0	42	0	69206016	22	5409
2026-01-08 12:02:15.06	221.29	9.78	-30.4	-33.6	11.8	7.64e-04	0	42	0	74448896	22	5186
2026-01-08 12:02:18.08	221.65	9.98	-30.3	-33.2	12.1	2.62e-04	0	42	0	80740352	22	5004
2026-01-08 12:02:21.10	222.02	10.17	-30.3	-33.7	12.1	2.21e-04	0	42	0	85983232	21	5309
2026-01-08 12:02:24.12	222.40	10.37	-30.4	-34.0	11.9	3.11e-04	0	42	0	92274688	21	5444
2026-01-08 12:02:27.14	222.78	10.56	-30.2	-33.2	12.4	1.29e-04	0	42	0	97517568	21	5133
2026-01-08 12:02:30.16	223.16	10.76	-30.1	-32.9	12.7	6.63e-05	0	42	0	102760448	21	5011
2026-01-08 12:02:33.18	223.55	10.96	-30.1	-32.9	12.7	6.63e-05	0	42	0	109051904	21	5011
2026-01-08 12:02:36.20	223.94	11.15	-30.0	-32.8	12.8	4.95e-05	0	42	0	114294784	21	4948
2026-01-08 12:02:39.21	224.34	11.35	-30.0	-32.8	12.8	4.04e-05	0	42	0	120586240	21	4965
2026-01-08 12:02:42.22	224.74	11.55	-30.1	-33.1	12.6	6.10e-05	0	42	0	125829120	21	5071
2026-01-08 12:02:45.25	225.15	11.75	-30.2	-33.2	12.6	7.62e-05	0	43	0	131072000	21	5124
2026-01-08 12:02:48.27	225.57	11.95	-30.2	-33.3	12.5	8.69e-05	0	42	0	137363456	21	5155
2026-01-08 12:02:51.28	225.99	12.14	-30.0	-32.8	12.9	6.40e-05	0	42	0	142606336	21	4953
2026-01-08 12:02:54.29	226.41	12.34	-30.0	-32.7	12.9	4.19e-05	0	42	0	148897792	21	4910
2026-01-08 12:02:57.31	226.84	12.54	-29.9	-32.4	13.2	2.28e-05	0	42	0	154140672	21	4813
2026-01-08 12:03:00.32	227.28	12.74	-30.0	-32.6	13.1	2.89e-05	0	43	0	159383552	21	4863
2026-01-08 12:03:03.34	227.72	12.94	-30.1	-33.0	12.8	5.41e-05	0	43	0	165675008	21	5004
2026-01-08 12:03:06.35	228.17	13.14	-30.0	-32.7	13.0	4.11e-05	0	42	0	170917888	21	4904
2026-01-08 12:03:09.37	228.62	13.34	-30.0	-32.7	13.0	3.43e-05	0	43	0	177209344	21	4902
2026-01-08 12:03:12.39	229.08	13.54	-29.9	-32.3	13.4	1.44e-05	0	43	0	182452224	21	4737
2026-01-08 12:03:15.41	229.55	13.74	-29.9	-32.3	13.3	1.67e-05	0	43	0	187695104	21	4755
2026-01-08 12:03:18.43	230.02	13.94	-29.8	-32.1	13.5	1.14e-05	0	42	0	193986560	21	4680
2026-01-08 12:03:21.45	230.50	14.14	-29.8	-32.5	13.5	9.10e-06	0	43	0	199229440	20	4928
2026-01-08 12:03:24.48	230.99	14.34	-29.9	-32.9	13.3	1.67e-05	0	43	0	205520896	20	5089
2026-01-08 12:03:27.48	231.48	14.53	-30.0	-33.0	13.2	2.59e-05	0	43	0	210763776	20	5121
2026-01-08 12:03:30.50	231.97	14.73	-30.1	-33.2	13.1	4.19e-05	0	43	0	216006656	20	5191
2026-01-08 12:03:33.51	232.48	14.93	-30.2	-33.6	12.9	6.48e-05	0	43	0	222298112	20	5312
2026-01-08 12:03:36.53	232.99	15.13	-30.0	-33.1	13.2	2.74e-05	0	43	0	227540992	20	5150
2026-01-08 12:03:39.55	233.50	15.33	-30.1	-33.4	13.0	2.36e-05	0	43	0	233832448	20	5243
2026-01-08 12:03:42.57	234.03	15.52	-30.1	-33.2	13.2	3.12e-05	0	43	0	239075328	20	5193
2026-01-08 12:03:45.59	234.56	15.72	-30.0	-33.0	13.4	1.37e-05	0	43	0	244318208	20	5080
2026-01-08 12:03:48.61	235.10	15.91	-30.1	-33.2	13.2	1.44e-05	0	43	0	250609664	20	5178
2026-01-08 12:03:51.64	235.64	16.11	-30.2	-33.5	13.0	2.13e-05	0	43	0	255852544	20	5264
2026-01-08 12:03:54.66	236.19	16.30	-30.1	-33.3	13.2	2.28e-05	0	43	0	262144000	20	5214
2026-01-08 12:03:57.68	236.75	16.49	-29.9	-32.8	13.6	9.90e-06	0	43	0	267386880	20	5004
2026-01-08 12:04:00.69	237.32	16.68	-30.0	-32.9	13.5	1.60e-05	0	43	0	272629760	20	5056
2026-01-08 12:04:03.71	237.89	16.87	-29.9	-32.8	13.5	3.00e-06	0	43	0	278921216	20	5015
2026-01-08 12:04:06.73	238.47	17.06	-30.0	-32.9	13.5	7.60e-06	0	43	0	284164096	20	5055
2026-01-08 12:04:09.74	239.05	17.25	-29.9	-32.7	13.6	9.10e-06	0	43	0	290455552	20	4983
2026-01-08 12:04:12.76	239.64	17.43	-29.8	-32.4	13.9	8.30e-06	0	43	0	295698432	20	4863
2026-01-08 12:04:15.77	240.24	17.62	-29.6	-32.0	14.1	2.20e-06	0	43	0	300941312	20	4710
2026-01-08 12:04:18.77	240.85	17.80	-29.6	-31.9	14.1	7.00e-07	0	43	0	307232768	20	4704
2026-01-08 12:04:21.79	241.46	17.98	-29.7	-32.2	14.0	3.00e-06	0	43	0	312475648	20	4791
2026-01-08 12:04:24.81	242.08	18.16	-29.4	-31.3	14.5	2.20e-06	0	43	0	317718528	20	4493
2026-01-08 12:04:27.83	242.71	18.34	-29.4	-31.4	14.6	1.50e-06	0	43	0	324009984	20	4514
2026-01-08 12:04:30.84	243.34	18.51	-29.6	-31.9	14.2	0.00e+00	0	43	0	329252864	20	4692
2026-01-08 12:04:33.86	243.99	18.68	-30.0	-32.8	13.6	4.50e-06	0	43	0	335544320	20	5014
2026-01-08 12:04:36.87	244.64	18.85	-30.1	-33.1	13.5	9.90e-06	0	43	0	340787200	20	5108
2026-01-08 12:04:39.89	245.29	19.02	-30.2	-33.4	13.3	1.44e-05	0	43	0	346030080	20	5224
2026-01-08 12:04:42.90	245.95	19.18	-30.3	-33.8	13.0	3.66e-05	0	43	0	352321536	20	5374
2026-01-08 12:04:45.92	246.63	19.35	-30.6	-34.1	12.5	1.03e-04	0	43	0	357564416	21	5384
2026-01-08 12:04:48.93	247.30	19.51	-31.0	-34.9	11.7	3.55e-04	0	43	0	363855872	22	5598
2026-01-08 12:04:51.95	247.99	19.66	-30.9	-34.4	12.0	4.29e-04	0	43	0	369098752	22	5415
2026-01-08 12:04:54.96	248.67	19.81	-31.0	-34.8	11.7	4.39e-04	0	43	0	374341632	22	5584
2026-01-08 12:04:57.98	249.37	19.96	-30.8	-34.2	12.1	2.40e-04	0	43	0	380633088	22	5325
2026-01-08 12:05:01.00	250.08	20.11	-30.9	-34.3	12.1	3.14e-04	0	43	0	385875968	22	5371
2026-01-08 12:05:04.01	250.79	20.25	-30.8	-34.3	12.1	2.27e-04	0	43	0	392167424	22	5343
2026-01-08 12:05:07.03	251.50	20.39	-30.8	-34.1	12.2	2.30e-04	0	43	0	397410304	22	5290
2026-01-08 12:05:10.05	252.23	20.53	-30.6	-33.6	12.6	1.61e-04	0	43	0	402653184	22	5090
2026-01-08 12:05:13.06	252.96	20.66	-30.4	-32.9	13.0	3.05e-05	0	43	0	408944640	22	4830
2026-01-08 12:05:16.08	253.69	20.79	-30.6	-33.6	12.6	8.39e-05	0	43	0	414187520	22	5079
2026-01-08 12:05:19.09	254.43	20.91	-30.6	-33.5	12.7	8.23e-05	0	43	0	420478976	22	5023
2026-01-08 12:05:22.10	255.18	21.03	-30.6	-33.5	12.6	5.49e-05	0	43	0	425721856	22	5051
2026-01-08 12:05:25.12	255.93	21.15	-30.3	-32.7	13.2	2.36e-05	0	43	0	430964736	22	4758
2026-01-08 12:05:28.14	256.69	21.26	-30.4	-32.9	13.1	3.58e-05	0	43	0	437256192	22	4826
2026-01-08 12:05:31.16	257.45	21.37	-30.7	-33.7	12.6	9.07e-05	0	43	0	442499072	22	5112
2026-01-08 12:05:34.16	258.21	21.47	-30.3	-32.8	13.2	1.29e-05	0	43	0	448790528	22	4764
2026-01-08 12:05:37.18	258.99	21.57	-29.9	-32.2	13.8	6.10e-06	0	43	0	454033408	21	4667
2026-01-08 12:05:40.19	259.76	21.66	-29.9	-32.0	14.0	1.50e-06	0	43	0	459276288	21	4595
2026-01-08 12:05:43.21	260.55	21.74	-29.9	-32.0	14.0	7.00e-07	0	43	0	465567744	21	4609
2026-01-08 12:05:46.23	261.33	21.83	-29.8	-31.9	14.1	3.00e-06	0	43	0	470810624	21	4572
2026-01-08 12:05:49.25	262.12	21.90	-30.0	-32.2	13.9	6.10e-06	0	43	0	477102080	21	4670
2026-01-08 12:05:52.27	262.92	21.97	-29.8	-31.9	14.1	1.50e-06	0	43	0	482344960	21	4580
2026-01-08 12:05:55.29	263.71	22.04	-30.1	-32.5	13.7	4.50e-06	0	43	0	487587840	21	4764
2026-01-08 12:05:58.31	264.52	22.10	-30.2	-32.8	13.5	9.10e-06	0	43	0	493879296	21	4891
2026-01-08 12:06:01.33	265.32	22.16	-30.3	-33.3	13.2	1.29e-05	0	43	0	499122176	21	5044
2026-01-08 12:06:04.36	266.13	22.21	-30.5	-33.7	12.9	4.42e-05	0	43	0	505413632	21	5191
2026-01-08 12:06:07.37	266.93	22.25	-30.4	-33.4	13.1	2.97e-05	0	43	0	510656512	21	5100
2026-01-08 12:06:10.39	267.74	22.29	-30.1	-32.6	13.6	9.10e-06	0	43	0	515899392	21	4818
2026-01-08 12:06:13.41	268.56	22.32	-30.2	-32.9	13.4	1.90e-05	0	43	0	522190848	21	4915
2026-01-08 12:06:16.43	269.37	22.35	-30.4	-33.5	13.1	2.21e-05	0	43	0	527433728	21	5124
2026-01-08 12:06:19.45	270.18	22.37	-30.5	-33.7	12.9	5.64e-05	0	43	0	533725184	21	5204
2026-01-08 12:06:22.47	271.00	22.38	-30.1	-32.6	13.6	5.30e-06	0	43	0	538968064	21	4817
2026-01-08 12:06:25.50	271.82	22.39	-29.8	-31.9	14.1	3.00e-06	0	43	0	544210944	21	4562
2026-01-08 12:06:28.51	272.63	22.39	-30.2	-32.8	13.5	3.80e-06	0	43	0	550502400	21	4884
2026-01-08 12:06:31.54	273.45	22.39	-30.3	-33.0	13.4	1.90e-05	0	43	0	555745280	21	4950
2026-01-08 12:06:34.55	274.26	22.38	-30.0	-32.4	13.8	8.30e-06	0	43	0	562036736	21	4726
2026-01-08 12:06:37.55	275.07	22.37	-29.6	-31.9	14.4	0.00e+00	0	43	0	567279616	20	4657
2026-01-08 12:06:40.56	275.89	22.35	-29.9	-32.7	14.0	7.00e-07	0	43	0	572522496	20	4934
2026-01-08 12:06:43.59	276.70	22.32	-30.4	-34.0	13.1	3.58e-05	0	43	0	578813952	20	5423
2026-01-08 12:06:46.60	277.51	22.29	-30.5	-34.1	13.0	4.27e-05	0	43	0	584056832	20	5457
2026-01-08 12:06:49.63	278.32	22.25	-30.7	-34.2	12.6	8.69e-05	0	43	0	589299712	21	5393
2026-01-08 12:06:52.64	279.13	22.21	-30.3	-33.1	13.3	2.59e-05	0	43	0	595591168	21	4995
2026-01-08 12:06:55.66	279.93	22.16	-30.4	-33.4	13.2	1.75e-05	0	43	0	600834048	21	5075
2026-01-08 12:06:58.67	280.73	22.11	-30.7	-34.2	12.6	9.00e-05	0	43	0	607125504	21	5418
2026-01-08 12:07:01.68	281.53	22.05	-30.5	-33.6	13.0	4.19e-05	0	43	0	612368384	21	5160
2026-01-08 12:07:04.69	282.32	21.98	-30.3	-33.1	13.4	1.83e-05	0	43	0	617611264	21	4959
2026-01-08 12:07:07.71	283.12	21.91	-30.1	-32.7	13.6	7.60e-06	0	43	0	623902720	21	4842
2026-01-08 12:07:10.72	283.90	21.83	-30.0	-32.3	13.8	4.50e-06	0	43	0	629145600	21	4683
2026-01-08 12:07:13.74	284.69	21.75	-30.0	-32.3	13.9	3.00e-06	0	43	0	635437056	21	4684
2026-01-08 12:07:16.75	285.47	21.67	-30.0	-32.4	13.7	3.00e-06	0	43	0	640679936	21	4746
2026-01-08 12:07:19.75	286.24	21.58	-30.1	-32.5	13.7	8.30e-06	0	43	0	645922816	21	4759
2026-01-08 12:07:22.76	287.01	21.48	-29.9	-32.7	13.9	2.20e-06	0	43	0	652214272	20	4922
2026-01-08 12:07:25.77	287.77	21.38	-30.1	-33.3	13.5	9.10e-06	0	43	0	657457152	20	5150
2026-01-08 12:07:28.79	288.53	21.27	-29.9	-32.5	14.0	0.00e+00	0	43	0	663748608	20	4871
2026-01-08 12:07:31.81	289.29	21.16	-29.8	-32.3	14.2	7.00e-07	0	43	0	668991488	20	4797
2026-01-08 12:07:34.82	290.04	21.05	-29.3	-31.0	14.9	0.00e+00	0	43	0	674234368	20	4389
2026-01-08 12:07:37.84	290.79	20.93	-29.5	-32.0	14.7	0.00e+00	0	43	0	680525824	19	4798
2026-01-08 12:07:40.86	291.53	20.81	-29.9	-33.1	14.0	3.00e-06	0	43	0	685768704	19	5180
2026-01-08 12:07:43.88	292.26	20.68	-29.7	-32.6	14.3	1.50e-06	0	43	0	691011584	19	5008
2026-01-08 12:07:46.89	292.99	20.55	-29.7	-32.6	14.3	7.00e-07	0	43	0	697303040	19	5033
2026-01-08 12:07:49.90	293.70	20.42	-29.3	-31.6	15.0	0.00e+00	0	43	0	702545920	19	4667
2026-01-08 12:07:52.92	294.42	20.28	-29.2	-31.4	15.1	0.00e+00	0	43	0	708837376	19	4602
2026-01-08 12:07:55.94	295.13	20.14	-28.8	-30.4	15.7	0.00e+00	0	43	0	714080256	19	4294
2026-01-08 12:07:58.97	295.83	19.99	-29.0	-30.8	15.4	0.00e+00	0	43	0	719323136	19	4429
2026-01-08 12:08:01.98	296.53	19.84	-29.2	-31.2	15.1	0.00e+00	0	43	0	725614592	19	4560
2026-01-08 12:08:05.00	297.22	19.69	-29.7	-32.5	14.4	0.00e+00	0	43	0	730857472	19	4971
2026-01-08 12:08:08.02	297.90	19.53	-29.6	-32.4	14.4	0.00e+00	0	43	0	737148928	19	4966
2026-01-08 12:08:11.03	298.57	19.38	-29.4	-31.8	14.7	0.00e+00	0	43	0	742391808	19	4758
2026-01-08 12:08:14.04	299.24	19.22	-29.4	-31.9	14.7	7.00e-07	0	43	0	747634688	19	4774
2026-01-08 12:08:17.05	299.90	19.05	-29.5	-32.0	14.7	0.00e+00	0	43	0	753926144	19	4804
2026-01-08 12:08:20.06	300.55	18.89	-30.0	-32.8	13.7	7.00e-07	0	43	0	759169024	20	4998
2026-01-08 12:08:23.09	301.20	18.72	-30.2	-33.5	13.3	2.05e-05	0	43	0	765460480	20	5268
2026-01-08 12:08:26.11	301.84	18.55	-30.4	-33.9	13.0	4.04e-05	0	43	0	770703360	20	5404
2026-01-08 12:08:29.13	302.48	18.37	-30.4	-33.4	13.0	4.34e-05	0	43	0	775946240	21	5093
2026-01-08 12:08:32.15	303.10	18.20	-30.3	-33.1	13.2	1.83e-05	0	43	0	782237696	21	4995
2026-01-08 12:08:35.17	303.72	18.02	-30.3	-33.2	13.1	3.66e-05	0	43	0	787480576	21	5021
2026-01-08 12:08:38.18	304.34	17.84	-30.2	-33.2	13.1	2.67e-05	0	43	0	793772032	21	5040
2026-01-08 12:08:41.20	304.94	17.66	-30.3	-33.3	13.0	3.73e-05	0	43	0	799014912	21	5090
2026-01-08 12:08:44.22	305.54	17.48	-30.4	-33.7	12.8	6.86e-05	0	43	0	804257792	21	5212
2026-01-08 12:08:47.24	306.13	17.30	-30.6	-34.1	12.5	1.43e-04	0	43	0	810549248	21	5370
2026-01-08 12:08:50.26	306.71	17.11	-30.0	-32.3	13.7	9.90e-06	0	43	0	815792128	21	4728
2026-01-08 12:08:53.28	307.29	16.92	-30.0	-32.4	13.6	8.30e-06	0	43	0	822083584	21	4762
2026-01-08 12:08:56.30	307.86	16.74	-30.0	-32.4	13.6	5.30e-06	0	43	0	827326464	21	4757
2026-01-08 12:08:59.31	308.42	16.55	-30.0	-32.3	13.7	4.50e-06	0	43	0	832569344	21	4726
2026-01-08 12:09:02.33	308.98	16.36	-30.1	-32.8	13.3	1.22e-05	0	43	0	838860800	21	4904
2026-01-08 12:09:05.35	309.53	16.17	-30.5	-33.9	12.6	7.24e-05	0	43	0	844103680	21	5314
2026-01-08 12:09:08.36	310.07	15.97	-30.3	-33.4	12.9	5.18e-05	0	43	0	850395136	21	5107
2026-01-08 12:09:11.37	310.60	15.78	-30.4	-33.6	12.7	8.69e-05	0	43	0	855638016	21	5202
2026-01-08 12:09:14.39	311.13	15.59	-30.1	-32.8	13.3	2.21e-05	0	43	0	860880896	21	4895
2026-01-08 12:09:17.41	311.66	15.39	-30.2	-32.9	13.2	2.51e-05	0	43	0	867172352	21	4933
2026-01-08 12:09:20.41	312.17	15.20	-30.0	-32.4	13.5	1.29e-05	0	43	0	872415232	21	4754
2026-01-08 12:09:23.44	312.68	15.00	-30.1	-32.8	13.2	1.83e-05	0	43	0	878706688	21	4908
2026-01-08 12:09:26.45	313.18	14.81	-30.3	-33.3	12.9	5.26e-05	0	43	0	883949568	21	5100
2026-01-08 12:09:29.47	313.68	14.61	-30.3	-33.3	12.8	3.81e-05	0	43	0	889192448	21	5097
2026-01-08 12:09:32.49	314.17	14.41	-30.4	-33.7	12.5	1.03e-04	0	43	0	895483904	21	5261
2026-01-08 12:09:35.51	314.65	14.22	-30.7	-34.6	11.9	3.67e-04	0	43	0	900726784	21	5653
2026-01-08 12:09:38.53	315.13	14.02	-30.6	-33.7	12.2	4.65e-04	0	43	0	905969664	22	5167
2026-01-08 12:09:41.55	315.60	13.82	-29.9	-32.3	13.5	1.06e-05	0	43	0	912261120	21	4729
2026-01-08 12:09:44.57	316.07	13.62	-29.9	-32.2	13.5	6.80e-06	0	43	0	917504000	21	4693
2026-01-08 12:09:47.58	316.53	13.43	-30.3	-33.4	12.7	3.73e-05	0	43	0	923795456	21	5156
2026-01-08 12:09:50.58	316.98	13.23	-30.4	-33.6	12.5	1.43e-04	0	43	0	929038336	21	5238
2026-01-08 12:09:53.61	317.43	13.03	-30.4	-33.8	12.3	1.23e-04	0	43	0	934281216	21	5308
2026-01-08 12:09:56.62	317.87	12.84	-30.2	-33.0	12.9	5.64e-05	0	43	0	940572672	21	5013
2026-01-08 12:09:59.63	318.30	12.64	-30.5	-33.9	12.3	1.79e-04	0	43	0	945815552	21	5353
2026-01-08 12:10:02.64	318.73	12.44	-30.4	-33.7	12.4	1.46e-04	0	43	0	952107008	21	5267
2026-01-08 12:10:05.66	319.16	12.24	-30.4	-33.7	12.4	1.15e-04	0	43	0	957349888	21	5263
2026-01-08 12:10:08.68	319.58	12.05	-30.1	-32.8	13.0	6.63e-05	0	43	0	962592768	21	4948
2026-01-08 12:10:11.69	319.99	11.85	-30.5	-34.0	12.1	1.48e-04	0	43	0	968884224	21	5414
2026-01-08 12:10:14.70	320.40	11.66	-30.7	-34.7	11.6	5.48e-04	0	43	0	974127104	21	5696
2026-01-08 12:10:17.72	320.80	11.46	-30.7	-34.7	11.6	5.97e-04	0	43	0	980418560	21	5716
2026-01-08 12:10:20.74	321.20	11.26	-30.5	-34.2	12.0	4.13e-04	0	43	0	985661440	21	5471
2026-01-08 12:10:23.76	321.59	11.07	-30.5	-34.2	12.0	3.33e-04	0	43	0	990904320	21	5498
2026-01-08 12:10:26.77	321.98	10.87	-30.6	-34.5	11.7	5.00e-04	0	43	0	997195776	21	5620
2026-01-08 12:10:29.78	322.36	10.68	-30.7	-34.9	11.5	7.25e-04	0	43	0	1002438656	21	5792
2026-01-08 12:10:32.80	322.74	10.49	-30.5	-34.3	11.9	4.17e-04	0	43	0	1008730112	21	5526
2026-01-08 12:10:35.81	323.12	10.29	-30.7	-34.7	11.5	6.13e-04	0	43	0	1013972992	21	5736
2026-01-08 12:10:38.82	323.48	10.10	-30.9	-35.4	11.0	2.18e-03	0	43	0	1019215872	21	6066
2026-01-08 12:10:41.83	323.85	9.91	-30.9	-35.6	10.9	2.10e-03	0	43	0	1025507328	21	6135
2026-01-08 12:10:44.85	324.21	9.72	-31.0	-35.4	10.7	3.65e-03	0	43	0	1030750208	22	5928
2026-01-08 12:10:47.87	324.56	9.52	-30.9	-34.8	11.1	1.81e-03	0	43	0	1035993088	22	5655
2026-01-08 12:10:50.88	324.91	9.33	-30.7	-34.3	11.4	1.18e-03	0	43	0	1042284544	22	5457
2026-01-08 12:10:53.90	325.26	9.14	-30.7	-34.3	11.4	1.11e-03	0	43	0	1047527424	22	5467
2026-01-08 12:10:56.91	325.60	8.95	-30.8	-34.8	11.1	1.60e-03	0	43	0	1053818880	22	5655
2026-01-08 12:10:59.92	325.94	8.77	-30.8	-34.7	11.1	1.62e-03	0	43	0	1059061760	22	5625
2026-01-08 12:11:02.94	326.27	8.58	-30.8	-34.6	11.1	1.44e-03	0	43	0	1064304640	22	5591
2026-01-08 12:11:05.96	326.60	8.39	-30.8	-34.8	10.9	1.64e-03	0	43	0	1070596096	22	5712
2026-01-08 12:11:08.97	326.93	8.20	-31.0	-35.3	10.6	4.40e-03	0	43	0	1075838976	22	5926
2026-01-08 12:11:11.98	327.25	8.02	-31.1	-35.8	10.1	5.66e-03	0	43	0	1082130432	22	6202
2026-01-08 12:11:15.00	327.57	7.83	-31.1	-35.7	10.2	6.02e-03	0	43	0	1087373312	22	6147
2026-01-08 12:11:18.00	327.88	7.65	-31.0	-35.4	10.3	4.72e-03	0	43	0	1092616192	22	6011
2026-01-08 12:11:21.02	328.19	7.46	-30.9	-35.3	10.4	3.96e-03	0	43	0	1098907648	22	5967
2026-01-08 12:11:24.04	328.49	7.28	-31.2	-36.2	9.7	9.53e-03	0	43	0	1104150528	22	6418
2026-01-08 12:11:27.06	328.80	7.09	-31.3	-36.7	9.2	2.08e-02	0	43	0	1110441984	22	6685
2026-01-08 12:11:30.08	329.10	6.91	-33.7	-47.9	3.8	1.49e+00	0	43	104	1110441984	27	18578

#Closed at: 2026-01-08 12:11:31
#Recorded file [1110 MB]: D:/data/31010_260108_150134.dat