passes_logs/2026/01/08/R2M6_AANII_01/R2M6_AANII_01__20260108_160659_FENGYUN_3E_rec.log

#Pass ID: 20260108_160659_FENGYUN 3E
#Satellite: FENGYUN 3E
#Configuration: FENGYUN 3E
#almurnet v.1.7.20240730
#Start time: 2026-01-08 16:07:00

#Version: 2.2.20231116
#Station: R2M6_AANII_01
#Location: 30.233357 lon 59.946436 lat
#TLE: 1 49008U 21062A   26007.88844255 -.00000338  00000+0 -13865-3 0  9992
#TLE: 2 49008  98.7481  13.0996 0001694 151.5348 208.5921 14.19883289233834

#Time	Az	El	Level	Level2	SNR	BER	BlckErr	Temp	State	Recorded	gain1	gain2
2026-01-08 16:07:00.19	209.71	7.07	-27.8	-29.0	5.6	7.49e-01	0	41	0	0	16	4135
2026-01-08 16:07:03.20	209.98	7.27	-29.5	-32.3	8.9	3.23e-02	0	41	0	7340032	18	4982
2026-01-08 16:07:06.22	210.26	7.47	-28.4	-29.5	10.8	3.78e-03	0	41	0	28311552	18	4057
2026-01-08 16:07:09.23	210.54	7.66	-27.5	-28.3	12.2	3.03e-04	0	41	0	50331648	16	3931
2026-01-08 16:07:12.25	210.82	7.86	-27.6	-28.5	12.1	2.69e-04	0	41	0	72351744	16	3979
2026-01-08 16:07:15.26	211.11	8.06	-26.8	-27.7	13.0	5.37e-05	0	41	0	94371840	14	3981
2026-01-08 16:07:18.28	211.40	8.26	-26.6	-27.1	13.4	2.86e-05	0	41	0	115343360	14	3809
2026-01-08 16:07:21.29	211.69	8.47	-26.6	-27.5	13.4	1.02e-05	0	41	0	137363456	13	4026
2026-01-08 16:07:24.30	211.99	8.67	-26.4	-27.1	13.7	8.00e-06	0	41	0	159383552	13	3911
2026-01-08 16:07:27.32	212.29	8.87	-26.3	-27.0	13.8	6.80e-06	0	41	0	181403648	13	3875
2026-01-08 16:07:30.34	212.60	9.08	-26.5	-27.5	13.5	1.94e-05	0	41	0	203423744	13	4014
2026-01-08 16:07:33.36	212.91	9.29	-26.4	-27.1	13.7	3.40e-06	0	41	0	224395264	13	3916
2026-01-08 16:07:36.37	213.23	9.49	-26.4	-27.1	13.8	1.02e-05	0	42	0	246415360	13	3908
2026-01-08 16:07:39.40	213.55	9.70	-26.2	-26.8	14.0	4.50e-06	0	42	0	268435456	13	3839
2026-01-08 16:07:42.42	213.87	9.91	-26.3	-27.0	13.8	4.50e-06	0	42	0	290455552	13	3905
2026-01-08 16:07:45.44	214.20	10.12	-26.3	-26.9	13.9	5.70e-06	0	42	0	312475648	13	3862
2026-01-08 16:07:48.45	214.54	10.33	-26.2	-26.6	14.1	1.10e-06	0	42	0	333447168	13	3795
2026-01-08 16:07:51.47	214.87	10.54	-26.0	-26.3	14.3	0.00e+00	0	42	0	355467264	13	3724
2026-01-08 16:07:54.49	215.22	10.76	-26.0	-26.3	14.3	2.20e-06	0	42	0	377487360	13	3720
2026-01-08 16:07:57.51	215.57	10.97	-26.0	-26.2	14.4	1.10e-06	0	42	0	399507456	13	3697
2026-01-08 16:08:00.52	215.92	11.18	-26.0	-26.2	14.4	1.10e-06	0	42	0	420478976	13	3695
2026-01-08 16:08:03.55	216.28	11.40	-26.1	-26.6	14.2	1.10e-06	0	42	0	442499072	13	3778
2026-01-08 16:08:06.56	216.64	11.62	-25.9	-26.0	14.6	1.10e-06	0	42	0	464519168	13	3630
2026-01-08 16:08:09.57	217.01	11.83	-25.9	-26.5	14.5	2.20e-06	0	42	0	486539264	12	3850
2026-01-08 16:08:12.59	217.38	12.05	-25.8	-26.3	14.7	0.00e+00	0	42	0	508559360	12	3799
2026-01-08 16:08:15.61	217.76	12.27	-26.0	-26.7	14.4	0.00e+00	0	42	0	529530880	12	3915
2026-01-08 16:08:18.63	218.14	12.49	-26.1	-26.9	14.4	0.00e+00	0	42	0	551550976	12	3947
2026-01-08 16:08:21.65	218.53	12.71	-25.8	-26.3	14.7	0.00e+00	0	42	0	573571072	12	3810
2026-01-08 16:08:24.66	218.93	12.94	-25.7	-26.0	14.9	1.10e-06	0	42	0	594542592	12	3738
2026-01-08 16:08:27.68	219.33	13.16	-25.8	-26.4	14.7	1.10e-06	0	42	0	616562688	12	3823
2026-01-08 16:08:30.70	219.74	13.38	-25.8	-26.3	14.8	0.00e+00	0	42	0	638582784	12	3803
2026-01-08 16:08:33.72	220.15	13.61	-25.6	-25.9	15.0	0.00e+00	0	42	0	660602880	12	3709
2026-01-08 16:08:36.74	220.57	13.83	-25.6	-25.8	15.0	0.00e+00	0	42	0	682622976	12	3688
2026-01-08 16:08:39.77	221.00	14.06	-25.5	-25.7	15.2	0.00e+00	0	42	0	703594496	12	3660
2026-01-08 16:08:42.79	221.43	14.28	-25.5	-25.5	15.3	0.00e+00	0	42	0	725614592	12	3618
2026-01-08 16:08:45.80	221.87	14.51	-25.5	-26.0	15.4	0.00e+00	0	43	0	747634688	11	3829
2026-01-08 16:08:48.82	222.32	14.74	-25.2	-25.5	15.6	0.00e+00	0	43	0	769654784	11	3717
2026-01-08 16:08:51.85	222.77	14.97	-25.1	-25.1	15.8	0.00e+00	0	43	0	791674880	11	3622
2026-01-08 16:08:54.87	223.23	15.19	-24.9	-24.9	16.0	0.00e+00	0	42	0	812646400	11	3566
2026-01-08 16:08:57.89	223.69	15.42	-24.8	-25.0	16.2	0.00e+00	0	43	0	834666496	10	3689
2026-01-08 16:09:00.92	224.17	15.65	-24.8	-25.0	16.2	0.00e+00	0	43	0	856686592	10	3687
2026-01-08 16:09:03.94	224.65	15.88	-25.0	-25.4	16.0	0.00e+00	0	43	0	878706688	10	3783
2026-01-08 16:09:06.96	225.13	16.11	-25.3	-26.0	15.7	0.00e+00	0	43	0	900726784	10	3939
2026-01-08 16:09:09.99	225.63	16.34	-24.7	-24.8	16.3	0.00e+00	0	43	0	921698304	10	3653
2026-01-08 16:09:13.00	226.13	16.57	-24.6	-24.6	16.5	0.00e+00	0	43	0	943718400	10	3607
2026-01-08 16:09:16.02	226.64	16.80	-24.5	-24.4	16.6	0.00e+00	0	43	0	965738496	10	3563
2026-01-08 16:09:19.04	227.16	17.03	-24.3	-24.5	16.8	0.00e+00	0	43	0	987758592	9	3673
2026-01-08 16:09:22.04	227.68	17.26	-24.3	-24.5	16.8	0.00e+00	0	43	0	1009778688	9	3681
2026-01-08 16:09:25.07	228.21	17.49	-24.3	-24.5	16.8	0.00e+00	0	43	0	1030750208	9	3672
2026-01-08 16:09:28.09	228.75	17.72	-24.5	-24.9	16.6	0.00e+00	0	43	0	1052770304	9	3768
2026-01-08 16:09:31.10	229.30	17.95	-24.5	-25.0	16.6	0.00e+00	0	43	0	1074790400	9	3788
2026-01-08 16:09:34.12	229.85	18.18	-24.5	-24.8	16.7	0.00e+00	0	43	0	1096810496	9	3747
2026-01-08 16:09:37.14	230.42	18.41	-24.5	-24.9	16.7	0.00e+00	0	43	0	1118830592	9	3763
2026-01-08 16:09:40.15	230.99	18.64	-24.7	-25.4	16.4	0.00e+00	0	43	0	1139802112	9	3883
2026-01-08 16:09:43.17	231.57	18.86	-24.1	-24.0	17.2	0.00e+00	0	43	0	1161822208	9	3557
2026-01-08 16:09:46.19	232.16	19.09	-24.1	-24.0	17.2	0.00e+00	0	43	0	1183842304	9	3563
2026-01-08 16:09:49.21	232.76	19.31	-24.2	-24.1	17.1	0.00e+00	0	43	0	1205862400	9	3599
2026-01-08 16:09:52.22	233.36	19.54	-24.2	-24.2	17.0	0.00e+00	0	43	0	1226833920	9	3619
2026-01-08 16:09:55.23	233.98	19.76	-24.2	-24.2	17.1	0.00e+00	0	43	0	1248854016	9	3615
2026-01-08 16:09:58.26	234.60	19.98	-24.1	-24.1	17.2	0.00e+00	0	43	0	1270874112	9	3595
2026-01-08 16:10:01.26	235.23	20.20	-24.0	-23.7	17.4	0.00e+00	0	43	0	1291845632	9	3507
2026-01-08 16:10:04.28	235.87	20.42	-24.0	-23.9	17.3	0.00e+00	0	43	0	1313865728	9	3540
2026-01-08 16:10:07.29	236.52	20.64	-23.9	-23.7	17.4	0.00e+00	0	43	0	1335885824	9	3505
2026-01-08 16:10:10.30	237.18	20.85	-23.9	-24.1	17.4	0.00e+00	0	43	0	1357905920	8	3689
2026-01-08 16:10:13.32	237.85	21.06	-23.9	-24.0	17.5	0.00e+00	0	43	0	1378877440	8	3666
2026-01-08 16:10:16.33	238.52	21.27	-24.1	-24.6	17.2	0.00e+00	0	43	0	1400897536	8	3798
2026-01-08 16:10:19.35	239.21	21.48	-24.3	-24.9	17.0	0.00e+00	0	43	0	1422917632	8	3868
2026-01-08 16:10:22.36	239.91	21.69	-23.9	-24.1	17.5	0.00e+00	0	43	0	1444937728	8	3678
2026-01-08 16:10:25.39	240.61	21.89	-24.0	-24.3	17.3	0.00e+00	0	43	0	1466957824	8	3743
2026-01-08 16:10:28.40	241.32	22.09	-23.8	-23.8	17.6	0.00e+00	0	43	0	1487929344	8	3617
2026-01-08 16:10:31.43	242.05	22.29	-23.6	-23.4	17.8	0.00e+00	0	43	0	1509949440	8	3540
2026-01-08 16:10:34.45	242.78	22.49	-23.6	-23.4	17.8	0.00e+00	0	43	0	1531969536	8	3525
2026-01-08 16:10:37.46	243.52	22.68	-23.5	-23.7	17.9	0.00e+00	0	43	0	1553989632	7	3705
2026-01-08 16:10:40.49	244.27	22.87	-23.5	-23.8	17.8	0.00e+00	0	43	0	1576009728	7	3726
2026-01-08 16:10:43.51	245.03	23.05	-23.6	-23.9	17.8	0.00e+00	0	43	0	1596981248	7	3750
2026-01-08 16:10:46.52	245.79	23.23	-23.6	-23.9	17.8	0.00e+00	0	43	0	1619001344	7	3747
2026-01-08 16:10:49.54	246.57	23.41	-23.6	-23.9	17.8	0.00e+00	0	43	0	1641021440	7	3741
2026-01-08 16:10:52.54	247.35	23.58	-23.4	-23.6	18.0	0.00e+00	0	43	0	1663041536	7	3683
2026-01-08 16:10:55.56	248.14	23.75	-23.4	-23.5	18.0	0.00e+00	0	43	0	1684013056	7	3658
2026-01-08 16:10:58.59	248.94	23.91	-23.4	-23.5	18.0	0.00e+00	0	43	0	1706033152	7	3641
2026-01-08 16:11:01.61	249.75	24.07	-23.3	-23.2	18.2	0.00e+00	0	43	0	1728053248	7	3595
2026-01-08 16:11:04.63	250.57	24.22	-23.4	-23.6	18.0	0.00e+00	0	43	0	1750073344	7	3681
2026-01-08 16:11:07.65	251.39	24.37	-23.5	-23.7	17.9	0.00e+00	0	43	0	1772093440	7	3701
2026-01-08 16:11:10.67	252.22	24.51	-23.3	-23.4	18.1	0.00e+00	0	43	0	1793064960	7	3631
2026-01-08 16:11:13.68	253.06	24.65	-23.1	-22.9	18.4	0.00e+00	0	43	0	1815085056	7	3515
2026-01-08 16:11:16.68	253.90	24.78	-23.2	-23.7	18.2	0.00e+00	0	43	0	1837105152	6	3806
2026-01-08 16:11:19.69	254.75	24.90	-23.2	-23.6	18.2	0.00e+00	0	43	0	1859125248	6	3786
2026-01-08 16:11:22.71	255.61	25.02	-23.1	-23.4	18.4	0.00e+00	0	43	0	1880096768	6	3724
2026-01-08 16:11:25.73	256.47	25.14	-23.2	-23.6	18.3	0.00e+00	0	43	0	1902116864	6	3767
2026-01-08 16:11:28.75	257.35	25.24	-23.1	-23.4	18.3	0.00e+00	0	43	0	1924136960	6	3742
2026-01-08 16:11:31.76	258.22	25.34	-22.9	-23.0	18.6	0.00e+00	0	43	0	1946157056	6	3645
2026-01-08 16:11:34.78	259.10	25.44	-23.2	-23.6	18.3	0.00e+00	0	43	0	1967128576	6	3772
2026-01-08 16:11:37.80	259.99	25.52	-23.2	-23.7	18.2	0.00e+00	0	43	0	1989148672	6	3805
2026-01-08 16:11:40.83	260.88	25.60	-23.4	-24.0	18.1	0.00e+00	0	43	0	2011168768	6	3858
2026-01-08 16:11:43.85	261.78	25.68	-23.2	-23.6	18.3	0.00e+00	0	43	0	2033188864	6	3787
2026-01-08 16:11:46.86	262.67	25.74	-23.1	-23.3	18.4	0.00e+00	0	43	0	2054160384	6	3715
2026-01-08 16:11:49.88	263.58	25.80	-23.0	-23.3	18.5	0.00e+00	0	43	0	2076180480	6	3707
2026-01-08 16:11:52.89	264.48	25.85	-23.0	-23.1	18.5	0.00e+00	0	43	0	2098200576	6	3671
2026-01-08 16:11:55.91	265.39	25.90	-23.0	-23.3	18.5	0.00e+00	0	43	0	2120220672	6	3704
2026-01-08 16:11:58.93	266.30	25.93	-23.4	-24.0	18.1	0.00e+00	0	43	0	2141192192	6	3859
2026-01-08 16:12:01.96	267.21	25.96	-23.0	-23.1	18.5	0.00e+00	0	43	0	2163212288	6	3667
2026-01-08 16:12:04.99	268.13	25.98	-23.0	-23.3	18.4	0.00e+00	0	43	0	2185232384	6	3699
2026-01-08 16:12:08.00	269.04	26.00	-22.9	-22.9	18.7	0.00e+00	0	43	0	2207252480	6	3616
2026-01-08 16:12:11.01	269.95	26.00	-23.0	-23.1	18.5	0.00e+00	0	43	0	2229272576	6	3666
2026-01-08 16:12:14.02	270.86	26.00	-23.1	-23.5	18.4	0.00e+00	0	43	0	2250244096	6	3742
2026-01-08 16:12:17.03	271.78	25.99	-23.1	-23.3	18.4	2.20e-06	0	43	0	2272264192	6	3715
2026-01-08 16:12:20.05	272.69	25.98	-23.1	-23.4	18.4	2.20e-06	0	43	0	2294284288	6	3738
2026-01-08 16:12:23.07	273.60	25.95	-23.0	-23.2	18.5	5.70e-06	0	43	0	2316304384	6	3682
2026-01-08 16:12:26.08	274.51	25.92	-23.2	-23.6	18.3	0.00e+00	0	43	0	2337275904	6	3785
2026-01-08 16:12:29.10	275.42	25.88	-23.2	-23.7	18.2	0.00e+00	0	43	0	2359296000	6	3803
2026-01-08 16:12:32.11	276.32	25.84	-23.5	-24.2	18.0	0.00e+00	0	43	0	2381316096	6	3914
2026-01-08 16:12:35.12	277.22	25.78	-23.2	-23.6	18.3	0.00e+00	0	43	0	2403336192	6	3769
2026-01-08 16:12:38.14	278.12	25.72	-23.4	-24.1	18.0	0.00e+00	0	43	0	2425356288	6	3900
2026-01-08 16:12:41.15	279.02	25.65	-23.3	-23.3	18.2	0.00e+00	0	43	0	2446327808	7	3609
2026-01-08 16:12:44.18	279.91	25.58	-23.1	-23.0	18.4	0.00e+00	0	43	0	2468347904	7	3530
2026-01-08 16:12:47.20	280.80	25.49	-23.2	-23.2	18.3	0.00e+00	0	43	0	2490368000	7	3583
2026-01-08 16:12:50.22	281.69	25.40	-23.4	-23.5	18.1	0.00e+00	0	43	0	2512388096	7	3656
2026-01-08 16:12:53.24	282.56	25.31	-23.6	-23.9	17.9	0.00e+00	0	43	0	2534408192	7	3740
2026-01-08 16:12:56.24	283.43	25.21	-22.9	-22.6	18.6	0.00e+00	0	43	0	2555379712	7	3458
2026-01-08 16:12:59.26	284.30	25.10	-23.3	-23.3	18.2	0.00e+00	0	43	0	2577399808	7	3616
2026-01-08 16:13:02.28	285.16	24.98	-23.3	-23.3	18.2	0.00e+00	0	43	0	2599419904	7	3603
2026-01-08 16:13:05.29	286.01	24.86	-23.4	-23.5	18.1	0.00e+00	0	43	0	2621440000	7	3644
2026-01-08 16:13:08.30	286.86	24.73	-23.5	-23.7	18.0	0.00e+00	0	43	0	2642411520	7	3692
2026-01-08 16:13:11.32	287.70	24.60	-23.5	-23.7	18.0	0.00e+00	0	43	0	2664431616	7	3703
2026-01-08 16:13:14.33	288.53	24.46	-23.4	-23.6	18.0	0.00e+00	0	43	0	2685403136	7	3675
2026-01-08 16:13:17.35	289.36	24.32	-23.3	-23.4	18.1	0.00e+00	0	43	0	2707423232	7	3633
2026-01-08 16:13:20.37	290.17	24.17	-23.4	-23.6	18.0	0.00e+00	0	43	0	2729443328	7	3674
2026-01-08 16:13:23.39	290.99	24.02	-23.5	-23.7	18.0	0.00e+00	0	43	0	2751463424	7	3696
2026-01-08 16:13:26.40	291.79	23.86	-23.7	-24.2	17.7	0.00e+00	0	43	0	2773483520	7	3800
2026-01-08 16:13:29.43	292.58	23.69	-23.7	-24.1	17.7	0.00e+00	0	43	0	2794455040	7	3797
2026-01-08 16:13:32.45	293.37	23.52	-23.7	-24.1	17.8	0.00e+00	0	43	0	2816475136	7	3783
2026-01-08 16:13:35.47	294.15	23.35	-23.6	-23.9	17.9	0.00e+00	0	43	0	2838495232	7	3741
2026-01-08 16:13:38.48	294.92	23.18	-23.6	-24.0	17.8	0.00e+00	0	43	0	2860515328	7	3762
2026-01-08 16:13:41.49	295.68	23.00	-23.5	-23.8	17.9	0.00e+00	0	43	0	2882535424	7	3719
2026-01-08 16:13:44.52	296.43	22.81	-23.7	-24.2	17.7	0.00e+00	0	43	0	2903506944	7	3807
2026-01-08 16:13:47.55	297.18	22.62	-24.0	-24.7	17.4	0.00e+00	0	43	0	2925527040	7	3931
2026-01-08 16:13:50.57	297.91	22.43	-24.1	-24.9	17.3	0.00e+00	0	43	0	2947547136	7	3977
2026-01-08 16:13:53.58	298.64	22.24	-24.2	-24.8	17.2	0.00e+00	0	43	0	2969567232	8	3838
2026-01-08 16:13:56.61	299.36	22.04	-23.9	-24.1	17.5	0.00e+00	0	43	0	2991587328	8	3692
2026-01-08 16:13:59.62	300.06	21.84	-24.1	-24.6	17.3	0.00e+00	0	43	0	3012558848	8	3788
2026-01-08 16:14:02.65	300.76	21.63	-24.3	-24.9	17.1	0.00e+00	0	43	0	3034578944	8	3866
2026-01-08 16:14:05.66	301.45	21.43	-24.5	-25.3	16.9	0.00e+00	0	43	0	3056599040	8	3957
2026-01-08 16:14:08.68	302.13	21.22	-24.2	-24.2	17.2	0.00e+00	0	43	0	3078619136	9	3606
2026-01-08 16:14:11.71	302.81	21.01	-24.6	-25.1	16.7	0.00e+00	0	43	0	3100639232	9	3806
2026-01-08 16:14:14.72	303.47	20.80	-24.4	-24.7	16.9	0.00e+00	0	43	0	3121610752	9	3721
2026-01-08 16:14:17.74	304.12	20.58	-24.5	-24.8	16.8	0.00e+00	0	43	0	3143630848	9	3751
2026-01-08 16:14:20.76	304.77	20.37	-24.3	-24.5	17.0	0.00e+00	0	43	0	3165650944	9	3665
2026-01-08 16:14:23.76	305.40	20.15	-24.3	-24.4	17.1	0.00e+00	0	43	0	3187671040	9	3652
2026-01-08 16:14:26.78	306.03	19.93	-24.4	-24.7	16.9	0.00e+00	0	43	0	3208642560	9	3714
2026-01-08 16:14:29.79	306.64	19.71	-24.6	-25.1	16.7	0.00e+00	0	43	0	3230662656	9	3814
2026-01-08 16:14:32.81	307.25	19.49	-24.7	-25.3	16.5	0.00e+00	0	43	0	3252682752	9	3871
2026-01-08 16:14:35.83	307.86	19.27	-24.8	-25.5	16.4	0.00e+00	0	43	0	3274702848	9	3908
2026-01-08 16:14:38.83	308.44	19.04	-24.7	-25.3	16.5	0.00e+00	0	43	0	3295674368	9	3868
2026-01-08 16:14:41.86	309.03	18.82	-24.5	-24.8	16.8	0.00e+00	0	43	0	3317694464	9	3749
2026-01-08 16:14:44.88	309.61	18.59	-24.5	-24.9	16.7	0.00e+00	0	43	0	3339714560	9	3766
2026-01-08 16:14:47.90	310.18	18.37	-24.5	-25.0	16.7	0.00e+00	0	43	0	3361734656	9	3779
2026-01-08 16:14:50.92	310.73	18.14	-24.8	-25.5	16.4	0.00e+00	0	43	0	3383754752	9	3907
2026-01-08 16:14:53.94	311.29	17.91	-25.0	-26.1	16.1	0.00e+00	0	43	0	3405774848	9	4045
2026-01-08 16:14:56.96	311.83	17.69	-25.2	-25.8	16.0	0.00e+00	0	43	0	3426746368	10	3876
2026-01-08 16:14:59.97	312.36	17.46	-24.8	-25.1	16.4	0.00e+00	0	43	0	3448766464	10	3703
2026-01-08 16:15:02.99	312.89	17.23	-24.7	-24.7	16.5	0.00e+00	0	43	0	3470786560	10	3627
2026-01-08 16:15:06.01	313.41	17.00	-24.6	-24.6	16.6	0.00e+00	0	43	0	3491758080	10	3607
2026-01-08 16:15:09.03	313.92	16.77	-24.8	-25.1	16.3	0.00e+00	0	43	0	3513778176	10	3709
2026-01-08 16:15:12.05	314.43	16.55	-25.3	-26.1	15.8	0.00e+00	0	43	0	3535798272	10	3941
2026-01-08 16:15:15.08	314.93	16.32	-25.5	-26.1	15.5	0.00e+00	0	43	0	3557818368	11	3859
2026-01-08 16:15:18.10	315.42	16.09	-25.5	-26.0	15.5	0.00e+00	0	43	0	3579838464	11	3830
2026-01-08 16:15:21.11	315.90	15.86	-25.2	-25.4	15.9	0.00e+00	0	43	0	3600809984	11	3673
2026-01-08 16:15:24.12	316.38	15.63	-25.0	-25.1	16.1	0.00e+00	0	43	0	3622830080	11	3605
2026-01-08 16:15:27.14	316.84	15.41	-24.8	-25.0	16.3	0.00e+00	0	43	0	3644850176	10	3697
2026-01-08 16:15:30.16	317.31	15.18	-25.0	-25.5	16.0	0.00e+00	0	43	0	3666870272	10	3811
2026-01-08 16:15:33.18	317.76	14.95	-25.2	-26.0	15.8	0.00e+00	0	43	0	3687841792	10	3921
2026-01-08 16:15:36.20	318.21	14.73	-25.8	-26.8	15.1	0.00e+00	0	43	0	3709861888	11	4009
2026-01-08 16:15:39.21	318.65	14.50	-26.3	-27.2	14.4	0.00e+00	0	43	0	3731881984	12	4032
2026-01-08 16:15:42.24	319.09	14.28	-26.3	-27.4	14.3	2.20e-06	0	43	0	3753902080	12	4086
2026-01-08 16:15:45.25	319.52	14.05	-25.9	-26.5	14.8	0.00e+00	0	43	0	3775922176	12	3851
2026-01-08 16:15:48.26	319.94	13.83	-25.4	-25.4	15.4	0.00e+00	0	43	0	3796893696	12	3594
2026-01-08 16:15:51.29	320.36	13.61	-25.5	-26.0	15.4	0.00e+00	0	43	0	3818913792	11	3821
2026-01-08 16:15:54.30	320.77	13.39	-25.3	-25.7	15.6	0.00e+00	0	43	0	3840933888	11	3740
2026-01-08 16:15:57.32	321.17	13.17	-25.4	-25.8	15.5	0.00e+00	0	43	0	3862953984	11	3787
2026-01-08 16:16:00.34	321.57	12.94	-25.6	-26.3	15.2	0.00e+00	0	43	0	3884974080	11	3895
2026-01-08 16:16:03.36	321.97	12.73	-25.9	-26.8	14.9	0.00e+00	0	43	0	3905945600	11	4033
2026-01-08 16:16:06.38	322.35	12.51	-26.0	-27.1	14.7	1.10e-06	0	43	0	3927965696	11	4104
2026-01-08 16:16:09.39	322.74	12.29	-26.0	-27.2	14.7	1.10e-06	0	43	0	3949985792	11	4133
2026-01-08 16:16:12.41	323.11	12.07	-26.2	-27.0	14.4	1.10e-06	0	43	0	3972005888	12	3987
2026-01-08 16:16:15.42	323.48	11.86	-26.0	-26.8	14.6	0.00e+00	0	44	0	3992977408	12	3920
2026-01-08 16:16:18.44	323.85	11.64	-26.0	-26.7	14.6	0.00e+00	0	43	0	4014997504	12	3897
2026-01-08 16:16:21.47	324.21	11.42	-26.1	-26.8	14.5	0.00e+00	0	43	0	4037017600	12	3934
2026-01-08 16:16:24.48	324.57	11.21	-25.9	-26.5	14.7	0.00e+00	0	43	0	4059037696	12	3846
2026-01-08 16:16:27.50	324.92	11.00	-26.0	-26.6	14.6	0.00e+00	0	44	0	4081057792	12	3885
2026-01-08 16:16:30.52	325.27	10.79	-26.1	-26.8	14.5	0.00e+00	0	44	0	4102029312	12	3932
2026-01-08 16:16:33.54	325.61	10.58	-26.1	-26.9	14.4	0.00e+00	0	43	0	4124049408	12	3955
2026-01-08 16:16:36.56	325.95	10.37	-26.1	-27.0	14.4	1.10e-06	0	43	0	4146069504	12	3977
2026-01-08 16:16:39.59	326.28	10.16	-26.3	-27.3	14.1	2.20e-06	0	43	0	4168089600	12	4069
2026-01-08 16:16:42.60	326.61	9.95	-26.4	-27.6	14.0	2.20e-06	0	43	0	4189061120	12	4146
2026-01-08 16:16:45.63	326.93	9.74	-26.4	-27.7	13.9	5.70e-06	0	44	0	4211081216	12	4154
2026-01-08 16:16:48.65	327.25	9.53	-26.5	-27.4	13.7	1.10e-06	0	43	0	4233101312	13	3995
2026-01-08 16:16:51.67	327.57	9.33	-26.6	-27.7	13.6	1.60e-05	0	43	0	4255121408	13	4059
2026-01-08 16:16:54.69	327.88	9.12	-26.7	-27.8	13.5	1.60e-05	0	44	0	4276092928	13	4090
2026-01-08 16:16:57.71	328.19	8.92	-26.7	-27.8	13.5	1.25e-05	0	44	0	4298113024	13	4086
2026-01-08 16:17:00.72	328.49	8.72	-26.7	-27.9	13.4	9.10e-06	0	44	0	4320133120	13	4103
2026-01-08 16:17:03.75	328.79	8.52	-26.7	-27.8	13.5	9.10e-06	0	43	0	4342153216	13	4081
2026-01-08 16:17:06.76	329.08	8.32	-26.8	-28.0	13.4	1.25e-05	0	43	0	4364173312	13	4130
2026-01-08 16:17:09.78	329.37	8.12	-26.7	-27.7	13.5	1.25e-05	0	44	0	4385144832	13	4074
2026-01-08 16:17:12.80	329.66	7.92	-26.6	-27.5	13.6	1.25e-05	0	43	0	4407164928	13	4020
2026-01-08 16:17:15.82	329.94	7.72	-26.8	-28.1	13.2	1.48e-05	0	43	0	4429185024	13	4163
2026-01-08 16:17:18.84	330.22	7.53	-26.8	-28.1	13.2	4.23e-05	0	43	0	4451205120	13	4179
2026-01-08 16:17:21.87	330.50	7.33	-26.9	-28.3	13.1	4.69e-05	0	43	0	4473225216	13	4220
2026-01-08 16:17:24.88	330.77	7.14	-27.2	-28.4	12.7	8.01e-05	0	44	0	4494196736	14	4164
2026-01-08 16:17:27.91	331.04	6.94	-33.5	-43.4	3.8	8.47e-01	0	43	104	4498391040	26	11267

#Closed at: 2026-01-08 16:17:28
#Recorded file [4498 MB]: D:/data/31010_260108_190702.dat