passes_logs/2026/01/08/R2M6_AANII_01/R2M6_AANII_01__20260108_101928_NOAA_20_JPSS-1_rec.log

#Pass ID: 20260108_101928_NOAA 20 (JPSS-1)
#Satellite: NOAA 20 (JPSS-1)
#Configuration: NOAA 20
#almurnet v.1.7.20240730
#Start time: 2026-01-08 10:19:28

#Version: 2.2.20231116
#Station: R2M6_AANII_01
#Location: 30.233357 lon 59.946436 lat
#TLE: 1 43013U 17073A   26006.30790171  .00000126  00000+0  80695-4 0  9991
#TLE: 2 43013  98.7629 307.3394 0001808  51.8724 308.2615 14.19533762421505

#Time	Az	El	Level	Level2	SNR	BER	BlckErr	Temp	State	Recorded	gain1	gain2
2026-01-08 10:19:28.04	160.31	6.98	-31.9	-40.4	4.3	1.43e+00	0	40	0	0	25	9556
2026-01-08 10:19:31.06	160.32	7.21	-31.7	-39.4	5.9	3.46e-01	0	41	0	1048576	24	8778
2026-01-08 10:19:34.09	160.34	7.45	-31.6	-39.0	6.1	3.24e-01	0	41	0	7340032	24	8397
2026-01-08 10:19:37.10	160.35	7.69	-31.7	-39.8	5.7	3.53e-01	0	41	0	12582912	24	9099
2026-01-08 10:19:40.12	160.37	7.93	-31.4	-37.8	7.0	1.93e-01	0	41	0	18874368	24	7534
2026-01-08 10:19:43.13	160.38	8.17	-30.9	-36.2	8.5	5.93e-02	0	41	0	24117248	23	6636
2026-01-08 10:19:46.15	160.40	8.42	-30.7	-35.5	9.5	2.50e-02	0	41	0	29360128	22	6308
2026-01-08 10:19:49.17	160.42	8.67	-30.8	-35.8	9.5	1.68e-02	0	41	0	35651584	22	6413
2026-01-08 10:19:52.18	160.43	8.92	-30.8	-35.9	9.5	1.34e-02	0	42	0	40894464	22	6441
2026-01-08 10:19:55.19	160.45	9.17	-30.7	-35.4	9.9	1.02e-02	0	41	0	47185920	22	6164
2026-01-08 10:19:58.20	160.46	9.43	-30.6	-35.1	10.2	6.08e-03	0	41	0	52428800	22	6002
2026-01-08 10:20:01.22	160.48	9.68	-30.7	-35.4	10.0	7.80e-03	0	42	0	57671680	22	6165
2026-01-08 10:20:04.24	160.50	9.95	-30.6	-34.9	10.3	4.63e-03	0	42	0	63963136	22	5919
2026-01-08 10:20:07.24	160.51	10.21	-30.6	-34.9	10.3	5.05e-03	0	42	0	69206016	22	5939
2026-01-08 10:20:10.26	160.53	10.48	-30.6	-34.8	10.4	4.03e-03	0	42	0	74448896	22	5879
2026-01-08 10:20:13.28	160.55	10.75	-30.5	-34.6	10.7	3.15e-03	0	42	0	80740352	22	5757
2026-01-08 10:20:16.30	160.56	11.02	-30.5	-34.5	10.7	3.07e-03	0	42	0	85983232	22	5710
2026-01-08 10:20:19.30	160.58	11.30	-30.6	-34.5	10.7	3.55e-03	0	42	0	92274688	22	5695
2026-01-08 10:20:22.33	160.60	11.58	-30.6	-34.4	11.0	2.04e-03	0	42	0	97517568	22	5600
2026-01-08 10:20:25.34	160.62	11.86	-30.6	-34.3	11.1	1.77e-03	0	42	0	102760448	22	5539
2026-01-08 10:20:28.36	160.63	12.14	-30.6	-34.4	11.0	1.72e-03	0	42	0	109051904	22	5598
2026-01-08 10:20:31.37	160.65	12.43	-30.7	-34.7	10.8	2.58e-03	0	42	0	114294784	22	5715
2026-01-08 10:20:34.39	160.67	12.73	-30.8	-35.0	10.6	3.60e-03	0	42	0	120586240	22	5838
2026-01-08 10:20:37.41	160.69	13.02	-30.6	-34.3	11.1	1.49e-03	0	42	0	125829120	22	5525
2026-01-08 10:20:40.43	160.71	13.32	-30.4	-33.7	11.6	7.96e-04	0	42	0	131072000	22	5256
2026-01-08 10:20:43.45	160.72	13.63	-30.3	-33.4	11.9	4.73e-04	0	42	0	137363456	22	5110
2026-01-08 10:20:46.46	160.74	13.93	-30.4	-33.8	11.6	4.93e-04	0	42	0	142606336	22	5292
2026-01-08 10:20:49.48	160.76	14.25	-30.3	-33.8	11.8	4.05e-04	0	42	0	148897792	21	5439
2026-01-08 10:20:52.48	160.78	14.56	-30.3	-33.8	11.9	3.84e-04	0	42	0	154140672	21	5423
2026-01-08 10:20:55.50	160.80	14.88	-30.1	-33.4	12.2	2.37e-04	0	43	0	159383552	21	5259
2026-01-08 10:20:58.52	160.82	15.21	-30.2	-33.4	12.3	2.30e-04	0	42	0	165675008	21	5231
2026-01-08 10:21:01.54	160.84	15.53	-30.3	-33.8	12.0	3.75e-04	0	43	0	170917888	21	5370
2026-01-08 10:21:04.56	160.86	15.87	-30.3	-33.6	12.2	1.98e-04	0	43	0	177209344	21	5277
2026-01-08 10:21:07.57	160.88	16.20	-30.3	-33.7	12.2	2.14e-04	0	43	0	182452224	21	5306
2026-01-08 10:21:10.59	160.90	16.55	-30.4	-33.9	12.0	2.43e-04	0	43	0	187695104	21	5416
2026-01-08 10:21:13.61	160.92	16.89	-30.4	-34.0	12.0	4.01e-04	0	43	0	193986560	21	5437
2026-01-08 10:21:16.63	160.94	17.25	-30.4	-33.9	12.0	2.56e-04	0	43	0	199229440	21	5407
2026-01-08 10:21:19.64	160.97	17.60	-30.4	-34.0	12.1	3.20e-04	0	42	0	204472320	21	5437
2026-01-08 10:21:22.65	160.99	17.97	-30.6	-34.7	11.6	8.44e-04	0	43	0	210763776	21	5736
2026-01-08 10:21:25.67	161.01	18.33	-30.7	-34.9	11.4	1.40e-03	0	43	0	216006656	21	5827
2026-01-08 10:21:28.68	161.03	18.71	-30.6	-34.6	11.7	6.44e-04	0	43	0	222298112	21	5664
2026-01-08 10:21:31.70	161.05	19.09	-30.7	-34.6	11.7	7.01e-04	0	43	0	227540992	21	5667
2026-01-08 10:21:34.72	161.08	19.47	-30.0	-32.7	13.0	5.49e-05	0	43	0	232783872	21	4912
2026-01-08 10:21:37.74	161.10	19.87	-29.6	-32.1	13.8	5.30e-06	0	42	0	239075328	20	4788
2026-01-08 10:21:40.75	161.13	20.26	-29.7	-32.4	13.6	7.00e-07	0	43	0	244318208	20	4890
2026-01-08 10:21:43.77	161.15	20.67	-29.6	-32.1	13.8	4.50e-06	0	43	0	250609664	20	4773
2026-01-08 10:21:46.79	161.17	21.08	-29.6	-32.2	13.8	4.50e-06	0	43	0	255852544	20	4810
2026-01-08 10:21:49.81	161.20	21.50	-29.8	-32.7	13.4	1.52e-05	0	43	0	261095424	20	5011
2026-01-08 10:21:52.83	161.22	21.92	-30.1	-33.5	12.9	3.50e-05	0	43	0	267386880	20	5325
2026-01-08 10:21:55.84	161.25	22.35	-30.2	-33.7	12.8	7.24e-05	0	43	0	272629760	20	5394
2026-01-08 10:21:58.86	161.28	22.79	-30.2	-33.6	12.9	7.93e-05	0	43	0	278921216	20	5317
2026-01-08 10:22:01.88	161.30	23.24	-29.6	-32.1	13.9	7.60e-06	0	43	0	284164096	20	4783
2026-01-08 10:22:04.90	161.33	23.69	-29.7	-32.1	13.9	4.50e-06	0	43	0	289406976	20	4776
2026-01-08 10:22:07.91	161.36	24.16	-29.5	-31.7	14.2	0.00e+00	0	43	0	295698432	20	4649
2026-01-08 10:22:10.93	161.39	24.63	-29.4	-31.5	14.3	2.20e-06	0	43	0	300941312	20	4588
2026-01-08 10:22:13.93	161.41	25.11	-29.5	-31.7	14.3	3.00e-06	0	43	0	307232768	20	4625
2026-01-08 10:22:16.94	161.44	25.59	-29.8	-32.4	13.8	2.20e-06	0	43	0	312475648	20	4868
2026-01-08 10:22:19.96	161.47	26.09	-30.0	-33.0	13.4	7.60e-06	0	43	0	317718528	20	5114
2026-01-08 10:22:22.97	161.50	26.60	-30.3	-33.7	12.9	3.35e-05	0	43	0	324009984	20	5381
2026-01-08 10:22:25.99	161.54	27.12	-30.5	-33.8	12.5	1.17e-04	0	43	0	329252864	21	5296
2026-01-08 10:22:29.01	161.57	27.64	-30.7	-34.5	12.1	2.66e-04	0	43	0	335544320	21	5577
2026-01-08 10:22:32.03	161.60	28.18	-31.0	-35.3	11.6	6.66e-04	0	43	0	340787200	21	5927
2026-01-08 10:22:35.04	161.63	28.73	-31.2	-35.6	11.1	1.64e-03	0	43	0	346030080	22	5936
2026-01-08 10:22:38.07	161.67	29.29	-31.5	-36.4	10.5	3.93e-03	0	43	0	352321536	22	6364
2026-01-08 10:22:41.08	161.70	29.86	-31.7	-36.7	9.8	9.79e-03	0	43	0	357564416	23	6431
2026-01-08 10:22:44.08	161.74	30.44	-31.8	-37.0	9.6	1.40e-02	0	43	0	362807296	23	6590
2026-01-08 10:22:47.11	161.78	31.03	-31.8	-37.2	9.6	1.31e-02	0	43	0	369098752	23	6654
2026-01-08 10:22:50.13	161.82	31.64	-31.7	-36.4	10.2	8.64e-03	0	43	0	374341632	23	6237
2026-01-08 10:22:53.14	161.86	32.26	-31.7	-36.5	10.2	8.56e-03	0	43	0	380633088	23	6267
2026-01-08 10:22:56.17	161.90	32.89	-31.3	-35.3	11.0	2.94e-03	0	43	0	385875968	23	5692
2026-01-08 10:22:59.18	161.94	33.54	-30.8	-33.7	12.1	3.00e-04	0	43	0	392167424	23	5025
2026-01-08 10:23:02.20	161.98	34.20	-30.4	-33.1	12.9	6.63e-05	0	43	0	397410304	22	4885
2026-01-08 10:23:05.21	162.03	34.87	-30.3	-32.7	13.1	3.12e-05	0	43	0	402653184	22	4761
2026-01-08 10:23:08.21	162.07	35.55	-29.3	-31.6	14.9	0.00e+00	0	43	0	408944640	19	4665
2026-01-08 10:23:11.23	162.12	36.26	-29.1	-31.0	15.3	0.00e+00	0	43	0	414187520	19	4490
2026-01-08 10:23:14.24	162.17	36.97	-29.2	-31.3	15.1	0.00e+00	0	43	0	419430400	19	4594
2026-01-08 10:23:17.26	162.22	37.71	-29.1	-31.0	15.3	0.00e+00	0	43	0	425721856	19	4468
2026-01-08 10:23:20.27	162.27	38.46	-29.0	-30.8	15.4	0.00e+00	0	43	0	430964736	19	4425
2026-01-08 10:23:23.29	162.33	39.23	-29.2	-31.2	15.2	0.00e+00	0	43	0	437256192	19	4560
2026-01-08 10:23:26.31	162.38	40.02	-29.1	-31.0	15.3	0.00e+00	0	43	0	442499072	19	4500
2026-01-08 10:23:29.31	162.44	40.81	-29.0	-30.7	15.5	0.00e+00	0	43	0	447741952	19	4397
2026-01-08 10:23:32.33	162.50	41.64	-29.0	-30.7	15.5	0.00e+00	0	43	0	454033408	19	4403
2026-01-08 10:23:35.36	162.57	42.48	-29.2	-31.4	15.1	0.00e+00	0	43	0	459276288	19	4599
2026-01-08 10:23:38.37	162.64	43.34	-29.3	-31.4	15.1	0.00e+00	0	43	0	465567744	19	4601
2026-01-08 10:23:41.39	162.71	44.22	-29.9	-33.1	14.2	1.50e-06	0	43	0	470810624	19	5175
2026-01-08 10:23:44.40	162.78	45.12	-30.7	-34.3	12.6	9.30e-05	0	43	0	476053504	21	5441
2026-01-08 10:23:47.42	162.86	46.04	-30.8	-34.6	12.4	1.11e-04	0	43	0	482344960	21	5564
2026-01-08 10:23:50.44	162.94	46.99	-31.0	-34.7	12.0	2.71e-04	0	43	0	487587840	22	5491
2026-01-08 10:23:53.46	163.03	47.95	-31.2	-35.4	11.5	1.06e-03	0	43	0	493879296	22	5809
2026-01-08 10:23:56.48	163.12	48.94	-31.0	-34.6	12.0	4.00e-04	0	43	0	499122176	22	5451
2026-01-08 10:23:59.50	163.21	49.95	-30.8	-33.9	12.5	9.99e-05	0	43	0	504365056	22	5191
2026-01-08 10:24:02.52	163.32	50.98	-30.1	-32.5	13.8	9.10e-06	0	43	0	510656512	21	4751
2026-01-08 10:24:05.54	163.43	52.03	-29.7	-32.1	14.4	7.00e-07	0	43	0	515899392	20	4721
2026-01-08 10:24:08.56	163.54	53.11	-29.6	-31.8	14.6	7.00e-07	0	43	0	522190848	20	4624
2026-01-08 10:24:11.57	163.67	54.21	-29.8	-32.3	14.3	7.00e-07	0	43	0	527433728	20	4794
2026-01-08 10:24:14.58	163.80	55.33	-29.6	-31.7	14.7	7.00e-07	0	43	0	532676608	20	4580
2026-01-08 10:24:17.59	163.95	56.48	-29.5	-31.9	14.9	0.00e+00	0	43	0	538968064	19	4753
2026-01-08 10:24:20.61	164.10	57.65	-30.4	-33.8	13.2	7.60e-06	0	43	0	544210944	20	5349
2026-01-08 10:24:23.62	164.27	58.85	-30.4	-33.3	13.4	2.05e-05	0	43	0	550502400	21	5036
2026-01-08 10:24:26.63	164.46	60.07	-29.7	-31.9	14.6	0.00e+00	0	43	0	555745280	20	4640
2026-01-08 10:24:29.66	164.66	61.32	-29.5	-31.5	14.9	0.00e+00	0	43	0	560988160	20	4518
2026-01-08 10:24:32.67	164.88	62.58	-29.0	-30.7	15.7	0.00e+00	0	43	0	567279616	19	4368
2026-01-08 10:24:35.68	165.13	63.87	-28.6	-30.2	16.2	0.00e+00	0	43	0	572522496	18	4336
2026-01-08 10:24:38.69	165.40	65.18	-30.1	-33.0	13.9	3.00e-06	0	43	0	578813952	20	5035
2026-01-08 10:24:41.70	165.71	66.51	-30.6	-33.8	13.1	5.03e-05	0	43	0	584056832	21	5207
2026-01-08 10:24:44.72	166.06	67.87	-30.5	-33.7	13.2	1.29e-05	0	43	0	589299712	21	5170
2026-01-08 10:24:47.74	166.45	69.25	-30.7	-33.6	12.9	1.71e-04	0	43	0	595591168	22	5022
2026-01-08 10:24:50.74	166.90	70.64	-29.6	-31.6	14.9	0.00e+00	0	43	0	600834048	20	4544
2026-01-08 10:24:53.76	167.43	72.06	-30.6	-34.0	13.0	4.50e-06	0	43	0	606076928	21	5295
2026-01-08 10:24:56.78	168.06	73.49	-31.1	-34.9	12.2	2.88e-04	0	43	0	612368384	22	5525
2026-01-08 10:24:59.80	168.81	74.94	-31.7	-36.2	10.8	1.44e-03	0	43	0	617611264	23	6019
2026-01-08 10:25:02.81	169.72	76.40	-30.8	-33.4	12.8	1.06e-04	0	43	0	623902720	23	4838
2026-01-08 10:25:05.82	170.85	77.87	-30.7	-33.7	12.9	1.03e-04	0	43	0	629145600	22	5046
2026-01-08 10:25:08.83	172.31	79.35	-30.5	-33.0	13.4	1.29e-05	0	43	0	634388480	22	4797
2026-01-08 10:25:11.85	174.24	80.83	-29.7	-32.0	14.7	0.00e+00	0	43	0	640679936	20	4677
2026-01-08 10:25:14.87	176.94	82.31	-31.9	-36.3	10.4	2.91e-03	0	43	0	645922816	24	5921
2026-01-08 10:25:17.88	180.90	83.77	-31.5	-34.9	11.7	2.49e-03	0	43	0	652214272	24	5275
2026-01-08 10:25:20.90	187.28	85.19	-31.4	-34.9	12.1	1.18e-04	0	43	0	657457152	23	5396
2026-01-08 10:25:23.91	198.69	86.51	-32.0	-36.7	10.8	1.46e-03	0	43	0	662700032	23	6232
2026-01-08 10:25:26.93	221.58	87.54	-31.4	-34.3	12.2	3.94e-04	0	43	0	668991488	24	5020
2026-01-08 10:25:29.95	260.31	87.83	-30.0	-32.1	14.7	0.00e+00	0	43	0	674234368	21	4553
2026-01-08 10:25:32.97	292.67	87.13	-30.9	-34.6	12.9	1.29e-05	0	43	0	680525824	21	5486
2026-01-08 10:25:35.99	309.23	85.93	-30.4	-32.6	13.7	6.80e-06	0	43	0	685768704	22	4660
2026-01-08 10:25:39.01	317.85	84.55	-29.6	-31.5	15.0	7.00e-07	0	43	0	691011584	20	4515
2026-01-08 10:25:42.03	322.92	83.10	-31.7	-35.9	11.3	5.29e-04	0	43	0	697303040	23	5839
2026-01-08 10:25:45.04	326.20	81.64	-32.0	-36.4	10.3	5.46e-03	0	43	0	702545920	24	5979
2026-01-08 10:25:48.05	328.50	80.16	-31.5	-34.9	11.4	1.19e-03	0	43	0	708837376	24	5342
2026-01-08 10:25:51.06	330.18	78.68	-31.1	-34.8	12.3	1.32e-04	0	43	0	714080256	22	5506
2026-01-08 10:25:54.09	331.49	77.20	-33.1	-40.2	6.6	9.43e-02	0	43	0	719323136	26	8159
2026-01-08 10:25:57.10	332.51	75.74	-32.1	-36.6	9.9	1.49e-02	0	43	0	725614592	25	6012
2026-01-08 10:26:00.12	333.34	74.28	-32.2	-36.8	9.5	6.52e-02	0	43	0	730857472	25	6131
2026-01-08 10:26:03.15	334.03	72.84	-30.1	-32.3	14.1	1.50e-06	0	43	0	737148928	21	4682
2026-01-08 10:26:06.16	334.61	71.42	-28.9	-30.4	16.0	0.00e+00	0	43	0	742391808	19	4263
2026-01-08 10:26:09.17	335.10	70.02	-30.9	-34.7	12.6	5.64e-05	0	43	0	747634688	21	5563
2026-01-08 10:26:12.19	335.52	68.63	-31.7	-36.0	11.0	6.26e-04	0	43	0	753926144	23	5964
2026-01-08 10:26:15.21	335.90	67.26	-31.7	-35.6	10.9	4.68e-03	0	43	0	759169024	24	5638
2026-01-08 10:26:18.23	336.23	65.92	-32.0	-36.7	10.0	5.50e-03	0	43	0	764411904	24	6167
2026-01-08 10:26:21.24	336.52	64.60	-30.6	-33.4	13.0	9.76e-05	0	43	0	770703360	22	4965
2026-01-08 10:26:24.25	336.78	63.30	-29.7	-31.9	14.6	2.20e-06	0	43	0	775946240	20	4642
2026-01-08 10:26:27.27	337.01	62.03	-28.5	-30.0	16.5	0.00e+00	0	43	0	782237696	18	4257
2026-01-08 10:26:30.28	337.22	60.77	-30.5	-34.0	13.3	3.00e-06	0	43	0	787480576	20	5414
2026-01-08 10:26:33.30	337.42	59.54	-30.3	-32.6	13.6	2.13e-05	0	43	0	792723456	22	4658
2026-01-08 10:26:36.33	337.60	58.33	-31.6	-35.7	11.0	1.44e-03	0	43	0	799014912	23	5825
2026-01-08 10:26:39.34	337.76	57.15	-31.3	-34.9	11.5	1.76e-03	0	43	0	804257792	23	5464
2026-01-08 10:26:42.36	337.91	55.99	-30.8	-33.9	12.6	7.78e-05	0	43	0	810549248	22	5147
2026-01-08 10:26:45.38	338.05	54.86	-29.9	-32.1	14.1	2.20e-06	0	43	0	815792128	21	4622
2026-01-08 10:26:48.40	338.18	53.75	-31.0	-34.6	12.0	3.00e-04	0	43	0	821035008	22	5442
2026-01-08 10:26:51.41	338.30	52.66	-30.1	-32.4	13.9	2.20e-06	0	43	0	827326464	21	4723
2026-01-08 10:26:54.43	338.42	51.60	-31.4	-35.5	11.0	9.20e-04	0	43	0	832569344	23	5738
2026-01-08 10:26:57.45	338.53	50.56	-32.1	-37.2	9.4	1.58e-02	0	43	0	838860800	24	6509
2026-01-08 10:27:00.47	338.63	49.54	-31.4	-35.0	11.0	2.14e-03	0	43	0	844103680	24	5398
2026-01-08 10:27:03.48	338.72	48.55	-33.2	-42.4	5.1	3.36e-01	0	43	0	849346560	26	10385
2026-01-08 10:27:06.49	338.81	47.58	-30.8	-33.7	12.2	1.56e-03	0	43	0	855638016	23	4982
2026-01-08 10:27:09.51	338.90	46.63	-30.0	-32.2	13.9	4.50e-06	0	43	0	860880896	21	4655
2026-01-08 10:27:12.52	338.98	45.70	-31.1	-35.0	11.7	4.36e-04	0	43	0	867172352	22	5630
2026-01-08 10:27:15.54	339.05	44.79	-31.0	-34.7	11.9	3.65e-04	0	43	0	872415232	22	5506
2026-01-08 10:27:18.55	339.13	43.91	-30.6	-33.5	12.8	5.56e-05	0	43	0	877658112	22	5024
2026-01-08 10:27:21.56	339.20	43.04	-30.5	-33.3	12.8	5.26e-05	0	43	0	883949568	22	4943
2026-01-08 10:27:24.57	339.26	42.19	-31.6	-36.3	10.4	2.34e-03	0	43	0	889192448	23	6159
2026-01-08 10:27:27.57	339.33	41.37	-31.9	-36.8	9.5	2.62e-02	0	43	0	894435328	24	6328
2026-01-08 10:27:30.58	339.39	40.56	-30.3	-32.7	13.2	7.40e-05	0	43	0	900726784	22	4746
2026-01-08 10:27:33.60	339.45	39.77	-30.0	-32.4	13.7	2.20e-06	0	43	0	905969664	21	4741
2026-01-08 10:27:36.62	339.50	38.99	-31.4	-36.0	10.9	7.99e-04	0	43	0	912261120	22	6135
2026-01-08 10:27:39.63	339.56	38.23	-32.4	-38.8	8.0	5.62e-02	0	43	0	917504000	24	7552
2026-01-08 10:27:42.64	339.61	37.49	-31.8	-36.3	9.9	1.42e-02	0	43	0	922746880	24	6074
2026-01-08 10:27:45.66	339.66	36.77	-31.7	-36.1	10.1	5.35e-03	0	43	0	929038336	24	5952
2026-01-08 10:27:48.68	339.71	36.06	-31.3	-34.7	11.1	2.01e-03	0	43	0	934281216	24	5320
2026-01-08 10:27:51.70	339.76	35.36	-31.1	-34.6	11.6	5.77e-04	0	43	0	940572672	23	5350
2026-01-08 10:27:54.71	339.81	34.69	-32.2	-38.1	8.5	1.56e-02	0	43	0	945815552	24	7067
2026-01-08 10:27:57.73	339.85	34.02	-32.8	-40.4	6.4	2.74e-01	0	43	0	951058432	25	8653
2026-01-08 10:28:00.74	339.90	33.37	-32.5	-39.0	7.4	1.62e-01	0	43	0	957349888	25	7570
2026-01-08 10:28:03.76	339.94	32.73	-32.1	-37.3	8.8	3.77e-02	0	43	0	962592768	25	6493
2026-01-08 10:28:06.77	339.98	32.11	-32.1	-37.0	8.9	2.48e-02	0	43	0	968884224	25	6367
2026-01-08 10:28:09.79	340.02	31.50	-32.0	-36.6	9.2	1.83e-02	0	43	0	974127104	25	6154
2026-01-08 10:28:12.80	340.06	30.90	-32.2	-37.5	8.5	3.47e-02	0	43	0	979369984	25	6648
2026-01-08 10:28:15.81	340.10	30.32	-32.3	-38.3	7.9	8.17e-02	0	43	0	985661440	25	7126
2026-01-08 10:28:18.83	340.13	29.74	-32.4	-38.7	7.5	1.08e-01	0	43	0	990904320	25	7394
2026-01-08 10:28:21.83	340.17	29.18	-32.3	-38.0	8.1	7.92e-02	0	43	0	996147200	25	6967
2026-01-08 10:28:24.85	340.21	28.63	-32.1	-37.1	8.7	3.39e-02	0	43	0	1002438656	25	6453
2026-01-08 10:28:27.87	340.24	28.09	-31.6	-35.9	10.0	1.36e-02	0	43	0	1007681536	24	5901
2026-01-08 10:28:30.89	340.27	27.56	-30.7	-33.9	12.2	2.76e-04	0	43	0	1013972992	22	5213
2026-01-08 10:28:33.91	340.31	27.03	-30.2	-33.1	13.1	2.67e-05	0	43	0	1019215872	21	5010
2026-01-08 10:28:36.93	340.34	26.52	-30.0	-32.5	13.5	1.75e-05	0	43	0	1024458752	21	4775
2026-01-08 10:28:39.94	340.37	26.02	-30.2	-32.9	13.2	2.36e-05	0	43	0	1030750208	21	4934
2026-01-08 10:28:42.95	340.40	25.53	-30.2	-33.1	13.0	4.88e-05	0	43	0	1035993088	21	5020
2026-01-08 10:28:45.96	340.43	25.05	-30.3	-33.5	12.8	5.41e-05	0	43	0	1042284544	21	5159
2026-01-08 10:28:48.97	340.46	24.58	-29.9	-32.3	13.6	1.29e-05	0	43	0	1047527424	21	4724
2026-01-08 10:28:51.99	340.49	24.11	-29.7	-32.2	13.9	3.00e-06	0	43	0	1052770304	20	4809
2026-01-08 10:28:55.01	340.52	23.65	-29.2	-31.3	14.8	0.00e+00	0	43	0	1059061760	19	4614
2026-01-08 10:28:58.02	340.55	23.20	-29.1	-31.0	15.0	0.00e+00	0	43	0	1064304640	19	4507
2026-01-08 10:29:01.04	340.58	22.76	-29.2	-31.3	14.9	0.00e+00	0	43	0	1070596096	19	4601
2026-01-08 10:29:04.06	340.61	22.32	-29.3	-31.7	14.6	0.00e+00	0	43	0	1075838976	19	4738
2026-01-08 10:29:07.07	340.64	21.90	-29.6	-32.3	14.2	0.00e+00	0	43	0	1081081856	19	4932
2026-01-08 10:29:10.08	340.66	21.48	-29.7	-32.6	14.0	4.50e-06	0	43	0	1087373312	19	5029
2026-01-08 10:29:13.10	340.69	21.06	-29.9	-33.1	13.6	5.30e-06	0	43	0	1092616192	19	5246
2026-01-08 10:29:16.12	340.71	20.66	-29.7	-32.6	14.0	3.80e-06	0	43	0	1098907648	19	5054
2026-01-08 10:29:19.14	340.74	20.26	-29.8	-32.9	13.8	6.10e-06	0	43	0	1104150528	19	5170
2026-01-08 10:29:22.16	340.77	19.86	-29.8	-33.1	13.7	6.80e-06	0	43	0	1109393408	19	5226
2026-01-08 10:29:25.17	340.79	19.48	-29.9	-33.2	13.5	7.60e-06	0	43	0	1115684864	19	5282
2026-01-08 10:29:28.18	340.82	19.10	-30.0	-33.1	13.3	9.10e-06	0	43	0	1120927744	20	5131
2026-01-08 10:29:31.20	340.84	18.72	-30.1	-33.5	12.9	3.43e-05	0	43	0	1127219200	20	5307
2026-01-08 10:29:34.21	340.86	18.35	-30.3	-34.0	12.6	9.30e-05	0	43	0	1132462080	20	5482
2026-01-08 10:29:37.22	340.89	17.99	-30.6	-34.5	11.9	2.66e-04	0	43	0	1137704960	21	5616
2026-01-08 10:29:40.24	340.91	17.63	-30.8	-35.1	11.4	8.70e-04	0	43	0	1143996416	21	5898
2026-01-08 10:29:43.25	340.94	17.27	-31.1	-35.3	10.9	1.91e-03	0	43	0	1149239296	22	5878
2026-01-08 10:29:46.26	340.96	16.92	-31.1	-35.6	10.7	2.81e-03	0	43	0	1154482176	22	6018
2026-01-08 10:29:49.27	340.98	16.58	-31.2	-36.0	10.4	4.26e-03	0	43	0	1160773632	22	6195
2026-01-08 10:29:52.29	341.00	16.24	-31.5	-36.5	9.6	1.27e-02	0	43	0	1166016512	23	6360
2026-01-08 10:29:55.31	341.03	15.91	-30.8	-34.1	11.3	1.93e-03	0	43	0	1172307968	23	5251
2026-01-08 10:29:58.33	341.05	15.58	-30.1	-32.9	12.9	1.04e-04	0	43	0	1177550848	21	4977
2026-01-08 10:30:01.34	341.07	15.25	-29.7	-32.5	13.4	1.75e-05	0	43	0	1182793728	20	4930
2026-01-08 10:30:04.35	341.09	14.93	-29.7	-32.5	13.4	1.44e-05	0	43	0	1189085184	20	4937
2026-01-08 10:30:07.37	341.12	14.61	-29.8	-32.8	13.2	2.05e-05	0	43	0	1194328064	20	5045
2026-01-08 10:30:10.38	341.14	14.30	-30.0	-33.2	13.0	3.58e-05	0	43	0	1200619520	20	5198
2026-01-08 10:30:13.39	341.16	13.99	-30.1	-33.6	12.6	9.61e-05	0	43	0	1205862400	20	5385
2026-01-08 10:30:16.42	341.18	13.68	-30.2	-33.9	12.4	1.80e-04	0	43	0	1211105280	20	5499
2026-01-08 10:30:19.44	341.20	13.38	-30.3	-34.2	12.2	2.50e-04	0	43	0	1217396736	20	5639
2026-01-08 10:30:22.45	341.22	13.09	-30.2	-33.9	12.4	1.91e-04	0	43	0	1222639616	20	5493
2026-01-08 10:30:25.47	341.24	12.79	-30.0	-33.2	12.8	6.10e-05	0	43	0	1228931072	20	5219
2026-01-08 10:30:28.47	341.26	12.50	-30.0	-33.4	12.7	7.93e-05	0	43	0	1234173952	20	5293
2026-01-08 10:30:31.50	341.28	12.21	-30.0	-33.3	12.7	7.01e-05	0	43	0	1239416832	20	5273
2026-01-08 10:30:34.52	341.30	11.93	-30.1	-33.6	12.5	1.40e-04	0	43	0	1245708288	20	5399
2026-01-08 10:30:37.54	341.32	11.65	-30.1	-33.7	12.4	1.11e-04	0	43	0	1250951168	20	5448
2026-01-08 10:30:40.55	341.34	11.37	-30.2	-33.9	12.2	1.72e-04	0	43	0	1257242624	20	5534
2026-01-08 10:30:43.57	341.36	11.10	-30.3	-34.2	12.0	3.13e-04	0	43	0	1262485504	20	5655
2026-01-08 10:30:46.59	341.38	10.83	-30.3	-34.2	12.0	3.59e-04	0	43	0	1267728384	20	5650
2026-01-08 10:30:49.61	341.40	10.56	-30.2	-33.9	12.2	2.71e-04	0	43	0	1274019840	20	5514
2026-01-08 10:30:52.63	341.42	10.29	-30.2	-34.0	12.1	2.73e-04	0	43	0	1279262720	20	5563
2026-01-08 10:30:55.64	341.44	10.03	-30.3	-34.4	11.8	3.42e-04	0	43	0	1285554176	20	5767
2026-01-08 10:30:58.66	341.46	9.77	-30.2	-33.9	12.1	2.77e-04	0	43	0	1290797056	20	5557
2026-01-08 10:31:01.67	341.48	9.51	-30.2	-34.0	12.0	2.88e-04	0	43	0	1296039936	20	5589
2026-01-08 10:31:04.69	341.50	9.26	-30.2	-34.2	11.9	4.44e-04	0	43	0	1302331392	20	5668
2026-01-08 10:31:07.70	341.52	9.01	-30.2	-34.2	11.8	4.99e-04	0	43	0	1307574272	20	5687
2026-01-08 10:31:10.73	341.54	8.76	-30.3	-34.3	11.7	7.01e-04	0	43	0	1312817152	20	5718
2026-01-08 10:31:13.73	341.55	8.51	-30.3	-34.4	11.6	6.11e-04	0	43	0	1319108608	20	5781
2026-01-08 10:31:16.75	341.57	8.27	-30.4	-34.8	11.3	9.31e-04	0	43	0	1324351488	20	5990
2026-01-08 10:31:19.77	341.59	8.02	-30.4	-34.6	11.4	9.56e-04	0	43	0	1330642944	20	5889
2026-01-08 10:31:22.79	341.61	7.78	-30.5	-34.5	11.1	1.54e-03	0	43	0	1335885824	21	5747
2026-01-08 10:31:25.80	341.63	7.55	-30.3	-34.2	11.3	1.28e-03	0	43	0	1341128704	21	5598
2026-01-08 10:31:28.82	341.65	7.31	-30.4	-34.3	11.2	1.69e-03	0	43	0	1347420160	21	5665
2026-01-08 10:31:31.84	341.66	7.08	-32.9	-47.3	3.8	6.69e-01	0	43	104	1351614464	25	18884
2026-01-08 10:31:34.85	341.68	6.85	-33.5	-47.7	3.8	1.49e+00	0	43	104	1351614464	27	18299

#Closed at: 2026-01-08 10:31:35
#Recorded file [1351 MB]: D:/data/31010_260108_131929.dat