passes_logs/2026/01/08/R2M6_AANII_01/R2M6_AANII_01__20260108_105953_FENGYUN_3D_rec.log

#Pass ID: 20260108_105953_FENGYUN 3D
#Satellite: FENGYUN 3D
#Configuration: FENGYUN 3D
#almurnet v.1.7.20240730
#Start time: 2026-01-08 10:59:53

#Version: 2.2.20231116
#Station: R2M6_AANII_01
#Location: 30.233357 lon 59.946436 lat
#TLE: 1 43010U 17072A   26006.26440730  .00000376  00000+0  19957-3 0  9994
#TLE: 2 43010  98.9925 337.9455 0002045 123.9195 236.2175 14.19693586422016

#Time	Az	El	Level	Level2	SNR	BER	BlckErr	Temp	State	Recorded	gain1	gain2
2026-01-08 10:59:53.54	118.47	6.97	-30.8	-34.2	5.0	8.02e-01	0	43	0	0	23	5285
2026-01-08 10:59:56.56	118.27	7.19	-30.3	-33.4	9.2	2.60e-02	0	42	0	5242880	21	5159
2026-01-08 10:59:59.57	118.07	7.40	-30.2	-33.2	9.3	2.18e-02	0	43	0	22020096	21	5080
2026-01-08 11:00:02.59	117.87	7.62	-29.8	-32.1	10.1	1.14e-02	0	43	0	38797312	21	4691
2026-01-08 11:00:05.61	117.66	7.84	-28.6	-30.3	12.3	3.46e-04	0	43	0	56623104	18	4415
2026-01-08 11:00:08.62	117.46	8.06	-27.9	-29.2	13.4	3.31e-05	0	43	0	73400320	17	4183
2026-01-08 11:00:11.63	117.24	8.28	-27.7	-29.3	13.6	1.14e-05	0	43	0	90177536	16	4330
2026-01-08 11:00:14.64	117.03	8.51	-27.7	-29.2	13.7	1.60e-05	0	43	0	106954752	16	4297
2026-01-08 11:00:17.67	116.81	8.73	-27.6	-29.1	13.8	6.80e-06	0	43	0	123731968	16	4268
2026-01-08 11:00:20.69	116.58	8.96	-27.6	-28.9	13.9	4.50e-06	0	43	0	141557760	16	4207
2026-01-08 11:00:23.71	116.36	9.19	-27.7	-29.1	13.8	3.40e-06	0	43	0	158334976	16	4263
2026-01-08 11:00:26.73	116.13	9.42	-27.5	-28.7	14.1	3.40e-06	0	43	0	175112192	16	4159
2026-01-08 11:00:29.75	115.89	9.65	-27.5	-28.7	14.1	1.10e-06	0	43	0	191889408	16	4134
2026-01-08 11:00:32.77	115.65	9.89	-27.4	-28.6	14.2	0.00e+00	0	43	0	208666624	16	4106
2026-01-08 11:00:35.80	115.41	10.12	-27.1	-28.4	14.4	3.40e-06	0	43	0	226492416	15	4186
2026-01-08 11:00:38.81	115.16	10.36	-27.1	-28.4	14.4	0.00e+00	0	43	0	243269632	15	4190
2026-01-08 11:00:41.84	114.91	10.60	-27.0	-28.1	14.7	0.00e+00	0	43	0	260046848	15	4091
2026-01-08 11:00:44.86	114.66	10.84	-26.9	-27.9	14.8	0.00e+00	0	43	0	276824064	15	4049
2026-01-08 11:00:47.88	114.40	11.08	-27.1	-28.3	14.6	0.00e+00	0	43	0	293601280	15	4143
2026-01-08 11:00:50.90	114.13	11.33	-27.1	-28.4	14.5	3.40e-06	0	43	0	311427072	15	4176
2026-01-08 11:00:53.92	113.86	11.57	-27.1	-28.3	14.6	1.10e-06	0	43	0	328204288	15	4140
2026-01-08 11:00:56.93	113.59	11.82	-26.9	-28.0	14.8	0.00e+00	0	43	0	344981504	15	4066
2026-01-08 11:00:59.95	113.31	12.07	-26.8	-28.1	15.0	2.20e-06	0	43	0	361758720	14	4204
2026-01-08 11:01:02.97	113.03	12.32	-26.6	-27.8	15.2	0.00e+00	0	43	0	378535936	14	4111
2026-01-08 11:01:05.99	112.74	12.58	-26.9	-28.3	14.9	0.00e+00	0	43	0	395313152	14	4253
2026-01-08 11:01:09.00	112.45	12.83	-27.0	-28.7	14.7	3.40e-06	0	43	0	413138944	14	4364
2026-01-08 11:01:12.03	112.15	13.09	-26.7	-27.9	15.2	2.20e-06	0	43	0	429916160	14	4142
2026-01-08 11:01:15.05	111.85	13.35	-26.9	-28.4	14.9	0.00e+00	0	43	0	446693376	14	4284
2026-01-08 11:01:18.06	111.54	13.61	-26.4	-27.2	15.6	0.00e+00	0	43	0	463470592	14	3951
2026-01-08 11:01:21.08	111.22	13.88	-26.2	-27.4	15.7	3.40e-06	0	43	0	480247808	13	4121
2026-01-08 11:01:24.11	110.90	14.15	-26.2	-27.2	15.9	0.00e+00	0	43	0	498073600	13	4076
2026-01-08 11:01:27.13	110.57	14.41	-26.1	-27.2	15.9	0.00e+00	0	43	0	514850816	13	4066
2026-01-08 11:01:30.15	110.24	14.68	-26.0	-26.9	16.0	0.00e+00	0	43	0	531628032	13	3995
2026-01-08 11:01:33.17	109.90	14.96	-26.0	-26.8	16.1	0.00e+00	0	43	0	548405248	13	3977
2026-01-08 11:01:36.19	109.56	15.23	-25.9	-26.7	16.2	0.00e+00	0	43	0	565182464	13	3949
2026-01-08 11:01:39.21	109.20	15.51	-25.9	-26.6	16.3	0.00e+00	0	43	0	583008256	13	3904
2026-01-08 11:01:42.23	108.84	15.78	-25.8	-26.9	16.4	0.00e+00	0	43	0	599785472	12	4106
2026-01-08 11:01:45.26	108.48	16.06	-25.8	-26.9	16.4	0.00e+00	0	43	0	616562688	12	4096
2026-01-08 11:01:48.28	108.10	16.35	-25.7	-26.7	16.5	0.00e+00	0	43	0	633339904	12	4051
2026-01-08 11:01:51.30	107.72	16.63	-25.5	-26.2	16.8	0.00e+00	0	43	0	651165696	12	3933
2026-01-08 11:01:54.31	107.34	16.92	-25.3	-25.9	17.0	0.00e+00	0	43	0	667942912	12	3856
2026-01-08 11:01:57.33	106.94	17.20	-25.5	-26.3	16.8	0.00e+00	0	43	0	684720128	12	3939
2026-01-08 11:02:00.34	106.54	17.49	-25.5	-26.2	16.8	0.00e+00	0	43	0	701497344	12	3927
2026-01-08 11:02:03.35	106.13	17.78	-25.5	-26.3	16.8	0.00e+00	0	43	0	718274560	12	3935
2026-01-08 11:02:06.37	105.71	18.08	-25.3	-26.3	17.2	0.00e+00	0	43	0	735051776	11	4039
2026-01-08 11:02:09.38	105.29	18.37	-25.3	-26.4	17.1	0.00e+00	0	43	0	752877568	11	4067
2026-01-08 11:02:12.40	104.85	18.67	-25.2	-26.1	17.3	0.00e+00	0	43	0	769654784	11	3999
2026-01-08 11:02:15.42	104.41	18.97	-25.3	-26.2	17.2	0.00e+00	0	43	0	786432000	11	4032
2026-01-08 11:02:18.44	103.95	19.27	-25.3	-26.4	17.1	0.00e+00	0	43	0	803209216	11	4069
2026-01-08 11:02:21.45	103.49	19.57	-25.2	-26.1	17.3	0.00e+00	0	43	0	819986432	11	3995
2026-01-08 11:02:24.47	103.02	19.88	-25.0	-25.7	17.5	0.00e+00	0	43	0	837812224	11	3895
2026-01-08 11:02:27.49	102.54	20.19	-24.9	-25.4	17.7	0.00e+00	0	43	0	854589440	11	3823
2026-01-08 11:02:30.51	102.05	20.49	-24.8	-25.2	17.8	0.00e+00	0	43	0	871366656	11	3788
2026-01-08 11:02:33.53	101.54	20.80	-24.9	-25.9	17.6	0.00e+00	0	43	0	888143872	10	4064
2026-01-08 11:02:36.55	101.03	21.11	-25.0	-26.1	17.6	0.00e+00	0	43	0	904921088	10	4110
2026-01-08 11:02:39.56	100.51	21.43	-24.8	-25.7	17.8	0.00e+00	0	43	0	922746880	10	4012
2026-01-08 11:02:42.58	99.98	21.74	-24.6	-25.4	18.0	0.00e+00	0	43	0	939524096	10	3925
2026-01-08 11:02:45.59	99.44	22.05	-24.5	-25.1	18.2	0.00e+00	0	43	0	956301312	10	3851
2026-01-08 11:02:48.61	98.88	22.37	-24.5	-25.2	18.1	0.00e+00	0	43	0	973078528	10	3877
2026-01-08 11:02:51.64	98.31	22.69	-24.5	-25.2	18.1	0.00e+00	0	43	0	989855744	10	3891
2026-01-08 11:02:54.65	97.73	23.00	-24.4	-24.9	18.2	0.00e+00	0	43	0	1007681536	10	3813
2026-01-08 11:02:57.66	97.14	23.32	-24.2	-25.0	18.4	0.00e+00	0	43	0	1024458752	9	3957
2026-01-08 11:03:00.67	96.54	23.64	-24.1	-24.9	18.5	0.00e+00	0	43	0	1041235968	9	3913
2026-01-08 11:03:03.70	95.92	23.96	-24.3	-25.1	18.4	0.00e+00	0	43	0	1058013184	9	3973
2026-01-08 11:03:06.71	95.30	24.28	-24.3	-25.3	18.3	0.00e+00	0	43	0	1074790400	9	4012
2026-01-08 11:03:09.73	94.66	24.60	-24.2	-25.0	18.5	0.00e+00	0	43	0	1091567616	9	3940
2026-01-08 11:03:12.75	94.00	24.92	-23.9	-24.3	18.8	0.00e+00	0	43	0	1109393408	9	3782
2026-01-08 11:03:15.76	93.34	25.23	-23.9	-24.4	18.8	0.00e+00	0	43	0	1126170624	9	3810
2026-01-08 11:03:18.78	92.65	25.55	-23.9	-24.3	18.9	0.00e+00	0	43	0	1142947840	9	3770
2026-01-08 11:03:21.81	91.95	25.87	-23.8	-24.7	18.9	0.00e+00	0	43	0	1159725056	8	3975
2026-01-08 11:03:24.83	91.24	26.19	-23.7	-24.4	19.1	0.00e+00	0	43	0	1176502272	8	3901
2026-01-08 11:03:27.84	90.52	26.50	-23.5	-23.9	19.3	0.00e+00	0	43	0	1193279488	8	3800
2026-01-08 11:03:30.85	89.79	26.82	-23.5	-24.1	19.2	0.00e+00	0	43	0	1211105280	8	3838
2026-01-08 11:03:33.87	89.03	27.13	-23.8	-24.6	19.0	0.00e+00	0	43	0	1227882496	8	3952
2026-01-08 11:03:36.89	88.26	27.44	-23.9	-24.9	18.8	0.00e+00	0	43	0	1244659712	8	4024
2026-01-08 11:03:39.91	87.48	27.75	-23.7	-24.5	19.0	0.00e+00	0	43	0	1261436928	8	3942
2026-01-08 11:03:42.93	86.68	28.05	-23.7	-24.5	19.0	0.00e+00	0	43	0	1278214144	8	3935
2026-01-08 11:03:45.94	85.87	28.35	-23.7	-24.4	19.1	0.00e+00	0	43	0	1294991360	8	3905
2026-01-08 11:03:48.95	85.04	28.65	-23.7	-24.5	19.1	0.00e+00	0	43	0	1312817152	8	3925
2026-01-08 11:03:51.97	84.19	28.95	-23.4	-23.7	19.4	0.00e+00	0	43	0	1329594368	8	3746
2026-01-08 11:03:54.99	83.33	29.24	-23.5	-23.9	19.4	0.00e+00	0	43	0	1346371584	8	3792
2026-01-08 11:03:58.00	82.46	29.52	-23.5	-24.0	19.3	0.00e+00	0	43	0	1363148800	8	3810
2026-01-08 11:04:01.02	81.57	29.80	-23.6	-24.2	19.2	0.00e+00	0	43	0	1379926016	8	3856
2026-01-08 11:04:04.04	80.66	30.08	-23.7	-24.3	19.2	0.00e+00	0	43	0	1397751808	8	3890
2026-01-08 11:04:07.06	79.73	30.35	-23.7	-24.3	19.2	0.00e+00	0	43	0	1414529024	8	3895
2026-01-08 11:04:10.09	78.79	30.62	-23.4	-23.9	19.4	0.00e+00	0	44	0	1431306240	8	3788
2026-01-08 11:04:13.10	77.84	30.87	-23.3	-23.7	19.5	0.00e+00	0	44	0	1448083456	8	3737
2026-01-08 11:04:16.12	76.87	31.13	-23.7	-24.4	19.2	1.10e-06	0	43	0	1464860672	8	3894
2026-01-08 11:04:19.15	75.88	31.37	-23.5	-23.9	19.4	0.00e+00	0	43	0	1482686464	8	3797
2026-01-08 11:04:22.17	74.88	31.61	-23.9	-24.8	19.0	0.00e+00	0	43	0	1499463680	8	3995
2026-01-08 11:04:25.19	73.87	31.84	-23.2	-23.8	19.6	0.00e+00	0	43	0	1516240896	7	3891
2026-01-08 11:04:28.20	72.84	32.06	-22.9	-23.2	19.9	0.00e+00	0	43	0	1533018112	7	3733
2026-01-08 11:04:31.23	71.80	32.27	-23.0	-23.4	19.8	0.00e+00	0	43	0	1549795328	7	3786
2026-01-08 11:04:34.24	70.75	32.47	-23.1	-23.6	19.8	0.00e+00	0	43	0	1567621120	7	3826
2026-01-08 11:04:37.25	69.68	32.66	-22.8	-23.1	20.0	0.00e+00	0	43	0	1584398336	7	3711
2026-01-08 11:04:40.27	68.60	32.84	-22.5	-23.0	20.3	0.00e+00	0	44	0	1601175552	6	3788
2026-01-08 11:04:43.29	67.51	33.01	-22.9	-23.7	20.1	0.00e+00	0	43	0	1617952768	6	3943
2026-01-08 11:04:46.32	66.40	33.17	-22.7	-23.3	20.3	0.00e+00	0	43	0	1634729984	6	3841
2026-01-08 11:04:49.34	65.29	33.32	-22.8	-23.5	20.2	0.00e+00	0	43	0	1652555776	6	3895
2026-01-08 11:04:52.36	64.16	33.46	-22.7	-23.3	20.3	0.00e+00	0	44	0	1669332992	6	3845
2026-01-08 11:04:55.39	63.03	33.58	-22.9	-23.6	20.2	0.00e+00	0	43	0	1686110208	6	3918
2026-01-08 11:04:58.40	61.89	33.69	-23.1	-24.1	19.9	0.00e+00	0	43	0	1702887424	6	4038
2026-01-08 11:05:01.42	60.74	33.79	-23.3	-24.4	19.8	0.00e+00	0	43	0	1720713216	6	4117
2026-01-08 11:05:04.44	59.59	33.88	-22.8	-23.4	20.2	0.00e+00	0	43	0	1737490432	6	3883
2026-01-08 11:05:07.47	58.42	33.95	-22.9	-23.6	20.2	0.00e+00	0	43	0	1754267648	6	3924
2026-01-08 11:05:10.48	57.26	34.01	-23.3	-24.5	19.7	0.00e+00	0	43	0	1771044864	6	4141
2026-01-08 11:05:13.50	56.09	34.06	-23.2	-24.3	19.8	0.00e+00	0	43	0	1787822080	6	4089
2026-01-08 11:05:16.51	54.92	34.09	-23.2	-24.3	19.9	0.00e+00	0	43	0	1805647872	6	4075
2026-01-08 11:05:19.53	53.75	34.11	-22.5	-22.8	20.6	0.00e+00	0	43	0	1822425088	6	3734
2026-01-08 11:05:22.55	52.57	34.12	-22.8	-23.4	20.3	0.00e+00	0	43	0	1839202304	6	3883
2026-01-08 11:05:25.58	51.40	34.11	-22.6	-23.1	20.4	0.00e+00	0	43	0	1855979520	6	3801
2026-01-08 11:05:28.60	50.22	34.09	-23.1	-24.1	19.9	0.00e+00	0	44	0	1872756736	6	4043
2026-01-08 11:05:31.61	49.06	34.05	-23.0	-24.0	20.0	0.00e+00	0	43	0	1890582528	6	4010
2026-01-08 11:05:34.63	47.89	34.00	-23.0	-23.8	20.0	0.00e+00	0	43	0	1907359744	6	3979
2026-01-08 11:05:37.65	46.72	33.94	-22.6	-23.1	20.4	0.00e+00	0	44	0	1924136960	6	3806
2026-01-08 11:05:40.66	45.57	33.87	-22.6	-23.0	20.4	0.00e+00	0	44	0	1940914176	6	3786
2026-01-08 11:05:43.68	44.41	33.78	-22.7	-23.2	20.4	0.00e+00	0	44	0	1957691392	6	3821
2026-01-08 11:05:46.70	43.27	33.68	-22.8	-23.4	20.2	0.00e+00	0	43	0	1975517184	6	3888
2026-01-08 11:05:49.73	42.13	33.56	-23.0	-23.8	20.0	0.00e+00	0	44	0	1992294400	6	3975
2026-01-08 11:05:52.75	41.00	33.44	-23.1	-24.1	19.9	0.00e+00	0	43	0	2009071616	6	4042
2026-01-08 11:05:55.76	39.88	33.30	-22.7	-23.3	20.3	0.00e+00	0	43	0	2025848832	6	3855
2026-01-08 11:05:58.78	38.77	33.15	-22.6	-23.0	20.4	0.00e+00	0	43	0	2042626048	6	3791
2026-01-08 11:06:01.81	37.66	32.99	-22.6	-23.0	20.4	0.00e+00	0	43	0	2060451840	6	3780
2026-01-08 11:06:04.84	36.57	32.82	-22.8	-23.6	20.1	0.00e+00	0	43	0	2077229056	6	3910
2026-01-08 11:06:07.86	35.49	32.63	-23.0	-23.8	20.0	0.00e+00	0	43	0	2094006272	6	3976
2026-01-08 11:06:10.87	34.43	32.44	-22.9	-23.8	20.0	0.00e+00	0	44	0	2110783488	6	3965
2026-01-08 11:06:13.90	33.38	32.24	-22.8	-23.4	20.2	0.00e+00	0	43	0	2127560704	6	3869
2026-01-08 11:06:16.92	32.34	32.03	-22.8	-23.5	20.2	0.00e+00	0	44	0	2145386496	6	3898
2026-01-08 11:06:19.93	31.32	31.81	-22.8	-23.5	20.1	0.00e+00	0	43	0	2162163712	6	3908
2026-01-08 11:06:22.95	30.31	31.58	-23.1	-24.0	19.9	0.00e+00	0	44	0	2178940928	6	4028
2026-01-08 11:06:25.98	29.31	31.34	-23.0	-23.9	19.9	0.00e+00	0	44	0	2195718144	6	3984
2026-01-08 11:06:29.00	28.33	31.09	-23.0	-23.8	19.9	0.00e+00	0	43	0	2212495360	6	3978
2026-01-08 11:06:32.01	27.37	30.84	-22.9	-23.7	20.0	0.00e+00	0	43	0	2230321152	6	3955
2026-01-08 11:06:35.03	26.42	30.58	-23.0	-23.8	19.9	0.00e+00	0	43	0	2247098368	6	3975
2026-01-08 11:06:38.05	25.48	30.32	-23.0	-24.0	19.8	0.00e+00	0	43	0	2263875584	6	4022
2026-01-08 11:06:41.06	24.57	30.05	-22.9	-23.7	20.0	0.00e+00	0	43	0	2280652800	6	3957
2026-01-08 11:06:44.08	23.66	29.77	-22.9	-23.6	20.0	0.00e+00	0	43	0	2297430016	6	3920
2026-01-08 11:06:47.11	22.77	29.49	-22.9	-23.7	20.0	0.00e+00	0	43	0	2315255808	6	3947
2026-01-08 11:06:50.13	21.90	29.20	-22.9	-23.7	20.0	0.00e+00	0	43	0	2332033024	6	3939
2026-01-08 11:06:53.14	21.05	28.91	-23.0	-23.8	19.9	0.00e+00	0	44	0	2348810240	6	3973
2026-01-08 11:06:56.16	20.21	28.62	-23.2	-24.4	19.6	0.00e+00	0	43	0	2365587456	6	4119
2026-01-08 11:06:59.17	19.38	28.32	-23.0	-24.0	19.8	0.00e+00	0	43	0	2382364672	6	4010
2026-01-08 11:07:02.19	18.58	28.02	-23.2	-24.4	19.6	0.00e+00	0	43	0	2399141888	6	4125
2026-01-08 11:07:05.20	17.78	27.72	-23.2	-24.2	19.7	0.00e+00	0	43	0	2416967680	6	4064
2026-01-08 11:07:08.23	17.00	27.41	-23.4	-24.8	19.3	0.00e+00	0	43	0	2433744896	6	4221
2026-01-08 11:07:11.24	16.24	27.10	-23.6	-24.8	19.1	0.00e+00	0	43	0	2450522112	7	4092
2026-01-08 11:07:14.24	15.50	26.79	-23.6	-24.8	19.1	0.00e+00	0	43	0	2467299328	7	4095
2026-01-08 11:07:17.23	14.77	26.48	-23.3	-24.0	19.5	0.00e+00	0	43	0	2484076544	7	3899
2026-01-08 11:07:20.22	14.06	26.17	-23.7	-24.9	19.1	0.00e+00	0	43	0	2500853760	7	4126
2026-01-08 11:07:23.23	13.35	25.85	-23.8	-25.1	18.9	0.00e+00	0	43	0	2517630976	7	4186
2026-01-08 11:07:26.24	12.66	25.54	-23.6	-24.7	19.1	0.00e+00	0	43	0	2534408192	7	4079
2026-01-08 11:07:29.24	11.99	25.22	-23.5	-24.4	19.2	0.00e+00	0	43	0	2551185408	7	4013
2026-01-08 11:07:32.26	11.33	24.90	-23.8	-25.1	18.9	0.00e+00	0	43	0	2569011200	7	4166
2026-01-08 11:07:35.27	10.68	24.59	-23.9	-25.2	18.8	0.00e+00	0	43	0	2585788416	7	4201
2026-01-08 11:07:38.29	10.04	24.27	-23.9	-25.4	18.7	0.00e+00	0	43	0	2602565632	7	4247
2026-01-08 11:07:41.29	9.42	23.95	-24.3	-25.6	18.4	0.00e+00	0	43	0	2619342848	8	4199
2026-01-08 11:07:44.31	8.81	23.63	-24.1	-25.1	18.6	0.00e+00	0	43	0	2636120064	8	4077
2026-01-08 11:07:47.32	8.21	23.32	-24.0	-24.9	18.7	0.00e+00	0	44	0	2652897280	8	4017
2026-01-08 11:07:50.34	7.62	23.00	-23.9	-24.8	18.7	0.00e+00	0	44	0	2670723072	8	3991
2026-01-08 11:07:53.36	7.05	22.68	-23.8	-24.6	18.9	0.00e+00	0	44	0	2687500288	8	3940
2026-01-08 11:07:56.38	6.48	22.37	-23.8	-24.5	18.9	0.00e+00	0	44	0	2704277504	8	3934
2026-01-08 11:07:59.40	5.93	22.05	-23.9	-24.8	18.7	0.00e+00	0	44	0	2721054720	8	4002
2026-01-08 11:08:02.42	5.39	21.74	-23.9	-24.8	18.7	0.00e+00	0	43	0	2737831936	8	4000
2026-01-08 11:08:05.44	4.86	21.43	-24.0	-25.0	18.5	0.00e+00	0	44	0	2755657728	8	4048
2026-01-08 11:08:08.47	4.34	21.12	-24.0	-25.0	18.6	0.00e+00	0	43	0	2772434944	8	4051
2026-01-08 11:08:11.49	3.83	20.81	-24.0	-25.0	18.5	0.00e+00	0	44	0	2789212160	8	4050
2026-01-08 11:08:14.51	3.33	20.50	-24.1	-25.2	18.4	0.00e+00	0	43	0	2805989376	8	4085
2026-01-08 11:08:17.52	2.85	20.19	-24.2	-25.4	18.3	0.00e+00	0	43	0	2822766592	8	4137
2026-01-08 11:08:20.54	2.37	19.89	-24.3	-25.7	18.1	0.00e+00	0	43	0	2840592384	8	4223
2026-01-08 11:08:23.56	1.90	19.58	-24.4	-25.8	18.1	0.00e+00	0	43	0	2857369600	8	4240
2026-01-08 11:08:26.58	1.44	19.28	-24.5	-25.6	17.9	0.00e+00	0	43	0	2874146816	9	4092
2026-01-08 11:08:29.60	0.99	18.98	-24.5	-25.6	17.9	0.00e+00	0	43	0	2890924032	9	4077
2026-01-08 11:08:32.61	0.55	18.68	-24.5	-25.7	17.7	0.00e+00	0	43	0	2907701248	9	4106
2026-01-08 11:08:35.64	0.12	18.39	-24.6	-25.8	17.6	0.00e+00	0	43	0	2925527040	9	4129
2026-01-08 11:08:38.66	359.69	18.09	-25.0	-26.6	17.2	0.00e+00	0	43	0	2942304256	9	4337
2026-01-08 11:08:41.68	359.28	17.80	-25.2	-26.6	17.0	0.00e+00	0	43	0	2959081472	10	4224
2026-01-08 11:08:44.70	358.87	17.51	-25.2	-26.5	17.1	0.00e+00	0	44	0	2975858688	10	4195
2026-01-08 11:08:47.71	358.47	17.22	-25.3	-26.7	17.0	0.00e+00	0	44	0	2992635904	10	4243
2026-01-08 11:08:50.73	358.08	16.93	-25.4	-26.5	16.9	0.00e+00	0	43	0	3010461696	11	4090
2026-01-08 11:08:53.75	357.70	16.65	-25.3	-26.3	17.0	0.00e+00	0	43	0	3027238912	11	4042
2026-01-08 11:08:56.77	357.32	16.37	-25.4	-26.4	16.9	0.00e+00	0	43	0	3044016128	11	4073
2026-01-08 11:08:59.79	356.95	16.09	-25.4	-26.6	16.8	0.00e+00	0	43	0	3060793344	11	4102
2026-01-08 11:09:02.79	356.59	15.81	-25.7	-27.1	16.6	0.00e+00	0	44	0	3077570560	11	4248
2026-01-08 11:09:05.81	356.23	15.53	-25.8	-27.4	16.3	0.00e+00	0	44	0	3095396352	11	4336
2026-01-08 11:09:08.83	355.88	15.26	-25.7	-27.1	16.4	0.00e+00	0	44	0	3112173568	11	4252
2026-01-08 11:09:11.85	355.54	14.98	-25.8	-27.4	16.3	0.00e+00	0	43	0	3128950784	11	4315
2026-01-08 11:09:14.86	355.21	14.71	-25.6	-26.5	16.5	0.00e+00	0	43	0	3145728000	12	3989
2026-01-08 11:09:17.87	354.88	14.45	-25.8	-26.9	16.2	0.00e+00	0	44	0	3162505216	12	4085
2026-01-08 11:09:20.89	354.55	14.18	-25.9	-27.1	16.1	0.00e+00	0	44	0	3180331008	12	4143
2026-01-08 11:09:23.92	354.24	13.91	-25.9	-27.2	16.0	0.00e+00	0	43	0	3197108224	12	4168
2026-01-08 11:09:26.94	353.92	13.65	-25.9	-27.2	16.0	0.00e+00	0	44	0	3213885440	12	4174
2026-01-08 11:09:29.96	353.62	13.39	-26.1	-27.5	15.8	0.00e+00	0	43	0	3230662656	12	4252
2026-01-08 11:09:32.98	353.32	13.13	-26.0	-27.3	15.9	0.00e+00	0	44	0	3247439872	12	4194
2026-01-08 11:09:36.00	353.02	12.87	-25.9	-27.2	15.9	0.00e+00	0	43	0	3265265664	12	4161
2026-01-08 11:09:39.01	352.73	12.62	-26.2	-27.9	15.6	0.00e+00	0	43	0	3282042880	12	4349
2026-01-08 11:09:42.03	352.45	12.37	-26.2	-27.7	15.6	0.00e+00	0	43	0	3298820096	12	4315
2026-01-08 11:09:45.05	352.17	12.11	-26.3	-28.0	15.4	0.00e+00	0	43	0	3315597312	12	4397
2026-01-08 11:09:48.07	351.89	11.86	-26.2	-27.8	15.5	0.00e+00	0	43	0	3332374528	12	4323
2026-01-08 11:09:51.07	351.62	11.62	-26.3	-28.0	15.4	0.00e+00	0	43	0	3349151744	12	4393
2026-01-08 11:09:54.07	351.36	11.37	-26.6	-28.2	15.1	0.00e+00	0	43	0	3365928960	13	4324
2026-01-08 11:09:57.09	351.10	11.13	-26.3	-27.6	15.3	0.00e+00	0	43	0	3382706176	13	4178
2026-01-08 11:10:00.11	350.84	10.89	-26.4	-27.8	15.3	0.00e+00	0	44	0	3400531968	13	4229
2026-01-08 11:10:03.12	350.59	10.65	-26.5	-27.9	15.2	0.00e+00	0	43	0	3417309184	13	4256
2026-01-08 11:10:06.13	350.34	10.41	-26.6	-28.1	15.0	0.00e+00	0	44	0	3434086400	13	4316
2026-01-08 11:10:09.15	350.10	10.17	-26.4	-27.8	15.2	0.00e+00	0	43	0	3450863616	13	4213
2026-01-08 11:10:12.17	349.86	9.94	-26.5	-28.0	15.0	0.00e+00	0	44	0	3467640832	13	4283
2026-01-08 11:10:15.18	349.62	9.71	-26.5	-28.0	15.0	1.10e-06	0	43	0	3485466624	13	4280
2026-01-08 11:10:18.20	349.39	9.47	-26.6	-28.2	14.9	0.00e+00	0	43	0	3502243840	13	4341
2026-01-08 11:10:21.22	349.16	9.24	-26.7	-28.6	14.6	0.00e+00	0	43	0	3519021056	13	4442
2026-01-08 11:10:24.24	348.94	9.02	-26.8	-28.6	14.6	0.00e+00	0	44	0	3535798272	13	4451
2026-01-08 11:10:27.26	348.72	8.79	-26.8	-28.7	14.6	0.00e+00	0	44	0	3552575488	13	4480
2026-01-08 11:10:30.28	348.50	8.57	-26.8	-28.8	14.4	3.40e-06	0	43	0	3570401280	13	4517
2026-01-08 11:10:33.30	348.29	8.34	-26.8	-28.7	14.4	0.00e+00	0	43	0	3587178496	13	4496
2026-01-08 11:10:36.33	348.08	8.12	-27.0	-28.6	14.2	4.50e-06	0	44	0	3603955712	14	4358
2026-01-08 11:10:39.34	347.87	7.90	-26.8	-28.2	14.4	0.00e+00	0	44	0	3620732928	14	4248
2026-01-08 11:10:42.35	347.67	7.68	-26.9	-28.5	14.2	1.10e-06	0	43	0	3637510144	14	4334
2026-01-08 11:10:45.38	347.47	7.46	-26.9	-28.5	14.2	6.80e-06	0	43	0	3655335936	14	4321
2026-01-08 11:10:48.39	347.27	7.25	-27.0	-28.7	14.1	3.40e-06	0	44	0	3672113152	14	4392
2026-01-08 11:10:51.41	347.08	7.03	-33.2	-43.9	3.8	8.44e-01	0	44	104	3683647488	26	12328

#Closed at: 2026-01-08 11:10:52
#Recorded file [3683 MB]: D:/data/31010_260108_135955.dat