passes_logs/2026/01/08/R2M6_AANII_01/R2M6_AANII_01__20260108_011648_NOAA_21_JPSS-2_rec.log

#Pass ID: 20260108_011648_NOAA 21 (JPSS-2)
#Satellite: NOAA 21 (JPSS-2)
#Configuration: NOAA 21
#almurnet v.1.7.20240730
#Start time: 2026-01-08 01:22:32

#Version: 2.2.20231116
#Station: R2M6_AANII_01
#Location: 30.233357 lon 59.946436 lat
#TLE: 1 54234U 22150A   26005.56767909  .00000152  00000+0  92756-4 0  9990
#TLE: 2 54234  98.7490 306.5820 0001036 340.2747  19.8389 14.19532370163472

#Time	Az	El	Level	Level2	SNR	BER	BlckErr	Temp	State	Recorded	gain1	gain2
2026-01-08 01:22:32.81	302.38	44.25	-33.4	-53.0	3.8	7.44e-01	0	43	0	0	27	34105
2026-01-08 01:22:34.79	301.33	44.25	-33.7	-45.8	3.8	1.49e+00	0	44	104	0	27	14508
2026-01-08 01:22:36.81	300.26	44.24	-33.9	-46.1	3.8	1.49e+00	0	43	104	0	27	14679
2026-01-08 01:22:38.82	299.20	44.22	-33.9	-46.2	3.8	1.49e+00	0	43	104	0	27	14776
2026-01-08 01:22:40.81	298.15	44.19	-34.0	-46.2	3.8	1.49e+00	0	43	104	0	27	14832
2026-01-08 01:22:42.82	297.09	44.14	-33.9	-45.6	3.8	1.49e+00	0	44	104	0	28	13914
2026-01-08 01:22:44.82	296.04	44.09	-34.0	-46.3	3.8	1.49e+00	0	44	104	0	27	14824
2026-01-08 01:22:46.83	294.99	44.03	-34.0	-46.3	3.8	1.49e+00	0	43	104	0	27	14848
2026-01-08 01:22:48.84	293.94	43.95	-33.9	-45.7	3.8	1.49e+00	0	43	104	0	28	14017
2026-01-08 01:22:50.86	292.89	43.86	-33.9	-45.7	3.8	1.49e+00	0	43	104	0	28	13951
2026-01-08 01:22:52.87	291.85	43.77	-33.9	-46.1	3.8	1.49e+00	0	44	104	0	27	14731
2026-01-08 01:22:54.88	290.82	43.66	-33.8	-46.0	3.8	1.49e+00	0	43	104	0	27	14654
2026-01-08 01:22:56.89	289.80	43.54	-33.8	-46.0	3.8	1.49e+00	0	43	104	0	27	14564
2026-01-08 01:22:58.91	288.78	43.42	-33.8	-45.8	3.8	1.49e+00	0	43	104	0	27	14471
2026-01-08 01:23:00.93	287.77	43.28	-33.8	-45.9	3.8	1.49e+00	0	44	104	0	27	14499
2026-01-08 01:23:02.96	286.76	43.13	-33.7	-45.8	3.8	1.49e+00	0	43	104	0	27	14457
2026-01-08 01:23:04.97	285.77	42.98	-33.8	-45.8	3.8	1.49e+00	0	43	104	0	27	14421
2026-01-08 01:23:06.98	284.79	42.82	-33.7	-45.7	3.8	1.49e+00	0	44	104	0	27	14284
2026-01-08 01:23:08.98	283.83	42.64	-33.7	-45.8	3.8	1.49e+00	0	44	104	0	27	14451
2026-01-08 01:23:11.00	282.86	42.46	-33.7	-45.8	3.8	1.49e+00	0	44	104	0	27	14426
2026-01-08 01:23:13.02	281.91	42.27	-33.7	-45.3	3.8	1.49e+00	0	44	104	0	27	13664
2026-01-08 01:23:15.04	280.97	42.08	-33.6	-44.8	3.8	1.49e+00	0	43	104	0	27	13013
2026-01-08 01:23:17.05	280.05	41.87	-33.7	-45.7	3.8	1.49e+00	0	44	104	0	27	14311
2026-01-08 01:23:19.06	279.13	41.66	-33.7	-45.7	3.8	1.49e+00	0	44	104	0	27	14261
2026-01-08 01:23:21.08	278.23	41.44	-32.8	-43.9	3.8	1.49e+00	0	44	104	0	27	12926
2026-01-08 01:23:23.09	277.34	41.22	-33.4	-42.6	4.0	1.48e+00	0	43	104	0	27	10339
2026-01-08 01:23:25.10	276.46	40.99	-32.9	-39.6	5.2	8.41e-01	0	44	104	0	26	7742
2026-01-08 01:23:27.12	275.60	40.75	-30.4	-33.2	11.0	3.26e-03	0	43	0	4194304	21	4963
2026-01-08 01:23:29.13	274.75	40.51	-30.3	-33.6	10.9	1.42e-03	0	44	0	10485760	20	5232
2026-01-08 01:23:31.15	273.90	40.26	-30.3	-33.4	11.2	1.23e-03	0	43	0	16777216	20	5165
2026-01-08 01:23:33.14	273.09	40.01	-31.0	-35.0	9.8	9.17e-03	0	43	0	23068672	21	5683
2026-01-08 01:23:35.15	272.28	39.75	-30.1	-32.9	11.4	1.92e-03	0	44	0	29360128	20	4966
2026-01-08 01:23:37.16	271.48	39.49	-28.8	-30.5	13.6	1.06e-05	0	44	0	35651584	18	4419
2026-01-08 01:23:39.16	270.69	39.22	-28.8	-31.3	13.5	3.36e-04	0	44	0	41943040	17	4756
2026-01-08 01:23:41.17	269.92	38.95	-30.4	-33.9	10.8	2.24e-03	0	44	0	48234496	20	5384
2026-01-08 01:23:43.18	269.16	38.68	-29.5	-31.8	12.5	4.55e-03	0	44	0	54525952	19	4723
2026-01-08 01:23:45.19	268.41	38.40	-27.7	-29.1	15.0	0.00e+00	0	44	0	60817408	16	4208
2026-01-08 01:23:47.20	267.68	38.12	-27.8	-29.8	14.7	5.10e-03	0	44	0	67108864	15	4547
2026-01-08 01:23:49.22	266.95	37.84	-29.1	-31.5	13.1	4.83e-03	0	44	0	73400320	18	4718
2026-01-08 01:23:51.23	266.24	37.55	-28.9	-31.0	13.3	2.59e-05	0	44	0	79691776	18	4560
2026-01-08 01:23:53.24	265.54	37.26	-27.8	-29.7	14.8	4.66e-03	0	43	0	85983232	15	4511
2026-01-08 01:23:55.26	264.86	36.97	-27.8	-29.7	14.7	4.07e-03	0	43	0	92274688	15	4508
2026-01-08 01:23:57.27	264.18	36.68	-29.3	-31.9	12.7	4.57e-05	0	44	0	98566144	18	4853
2026-01-08 01:23:59.28	263.52	36.38	-29.4	-31.7	12.6	4.81e-03	0	44	0	104857600	19	4672
2026-01-08 01:24:01.30	262.87	36.08	-27.9	-29.6	14.6	3.91e-03	0	44	0	111149056	16	4351
2026-01-08 01:24:03.31	262.23	35.79	-27.6	-29.5	14.9	0.00e+00	0	44	0	117440512	15	4439
2026-01-08 01:24:05.32	261.61	35.49	-28.2	-30.2	14.4	3.31e-03	0	43	0	123731968	16	4536
2026-01-08 01:24:07.34	260.99	35.19	-29.2	-31.6	12.9	2.59e-05	0	44	0	130023424	18	4768
2026-01-08 01:24:09.35	260.39	34.88	-29.1	-31.4	13.1	4.04e-05	0	44	0	136314880	18	4691
2026-01-08 01:24:11.36	259.80	34.58	-28.3	-30.4	14.2	2.20e-06	0	44	0	142606336	16	4602
2026-01-08 01:24:13.37	259.22	34.28	-27.6	-29.4	14.9	0.00e+00	0	44	0	148897792	15	4433
2026-01-08 01:24:15.38	258.65	33.98	-27.9	-30.1	14.5	0.00e+00	0	44	0	155189248	15	4628
2026-01-08 01:24:17.39	258.09	33.68	-28.3	-30.6	14.1	1.50e-06	0	44	0	161480704	16	4674
2026-01-08 01:24:19.40	257.54	33.37	-27.6	-29.4	14.8	0.00e+00	0	44	0	167772160	15	4437
2026-01-08 01:24:21.41	257.00	33.07	-27.5	-29.2	15.0	0.00e+00	0	44	0	174063616	15	4374
2026-01-08 01:24:23.43	256.47	32.77	-27.8	-29.9	14.6	0.00e+00	0	43	0	180355072	15	4569
2026-01-08 01:24:25.44	255.95	32.46	-28.5	-30.4	13.8	5.30e-06	0	44	0	186646528	17	4508
2026-01-08 01:24:27.46	255.44	32.16	-28.2	-30.3	14.2	7.00e-07	0	43	0	192937984	16	4589
2026-01-08 01:24:29.47	254.94	31.86	-28.2	-30.4	14.2	0.00e+00	0	44	0	199229440	16	4607
2026-01-08 01:24:31.48	254.45	31.56	-27.7	-29.6	14.7	7.00e-07	0	43	0	205520896	15	4481
2026-01-08 01:24:33.49	253.97	31.26	-27.6	-29.5	14.8	7.00e-07	0	44	0	211812352	15	4456
2026-01-08 01:24:35.51	253.49	30.96	-27.9	-30.2	14.4	7.00e-07	0	44	0	218103808	15	4669
2026-01-08 01:24:37.51	253.03	30.66	-28.1	-30.0	14.3	7.00e-07	0	43	0	224395264	16	4499
2026-01-08 01:24:39.52	252.58	30.36	-27.5	-28.5	15.2	0.00e+00	0	44	0	230686720	16	4074
2026-01-08 01:24:41.53	252.13	30.07	-26.8	-28.2	15.8	0.00e+00	0	44	0	236978176	14	4194
2026-01-08 01:24:43.53	251.69	29.77	-26.4	-27.7	16.2	0.00e+00	0	43	0	243269632	13	4183
2026-01-08 01:24:45.54	251.26	29.48	-26.4	-28.3	16.2	0.00e+00	0	43	0	249561088	12	4441
2026-01-08 01:24:47.55	250.84	29.19	-26.7	-28.4	15.9	0.00e+00	0	43	0	255852544	13	4374
2026-01-08 01:24:49.56	250.42	28.90	-27.2	-28.9	15.3	9.90e-06	0	44	0	262144000	14	4404
2026-01-08 01:24:51.58	250.01	28.60	-27.1	-28.8	15.4	0.00e+00	0	44	0	268435456	14	4379
2026-01-08 01:24:53.58	249.62	28.32	-26.6	-28.2	16.0	0.00e+00	0	44	0	274726912	13	4315
2026-01-08 01:24:55.58	249.22	28.03	-26.8	-28.5	15.8	9.10e-06	0	44	0	281018368	13	4406
2026-01-08 01:24:57.59	248.84	27.75	-27.1	-28.7	15.4	0.00e+00	0	44	0	287309824	14	4349
2026-01-08 01:24:59.60	248.46	27.46	-26.5	-28.6	14.7	0.00e+00	0	43	0	293601280	14	4578
2026-01-08 01:25:01.61	248.09	27.18	-27.2	-29.1	15.1	1.22e-05	0	43	0	299892736	14	4472
2026-01-08 01:25:03.62	247.72	26.90	-27.0	-28.6	15.4	5.53e-03	0	44	0	306184192	14	4315
2026-01-08 01:25:05.62	247.36	26.62	-26.9	-29.0	15.5	0.00e+00	0	43	0	312475648	13	4539
2026-01-08 01:25:07.64	247.01	26.34	-26.6	-28.2	15.9	0.00e+00	0	44	0	318767104	13	4335
2026-01-08 01:25:09.65	246.66	26.06	-26.1	-27.6	16.5	5.21e-03	0	44	0	325058560	12	4263
2026-01-08 01:25:11.66	246.32	25.79	-26.1	-27.5	16.5	0.00e+00	0	44	0	331350016	12	4236
2026-01-08 01:25:13.68	245.98	25.51	-26.4	-28.1	16.2	3.80e-03	0	43	0	337641472	12	4419
2026-01-08 01:25:15.69	245.65	25.24	-26.7	-28.4	15.8	3.34e-03	0	44	0	343932928	13	4388
2026-01-08 01:25:17.70	245.33	24.97	-26.6	-28.2	15.9	5.34e-04	0	43	0	350224384	13	4326
2026-01-08 01:25:19.70	245.01	24.71	-26.6	-28.2	15.9	1.36e-03	0	44	0	356515840	13	4320
2026-01-08 01:25:21.71	244.70	24.44	-26.8	-28.7	15.6	3.22e-03	0	43	0	362807296	13	4465
2026-01-08 01:25:23.72	244.39	24.18	-26.9	-28.8	15.5	1.17e-03	0	44	0	369098752	13	4501
2026-01-08 01:25:25.72	244.09	23.92	-27.3	-29.2	15.0	5.55e-03	0	43	0	375390208	14	4511
2026-01-08 01:25:27.73	243.80	23.65	-27.3	-29.4	14.9	1.37e-05	0	44	0	381681664	14	4544
2026-01-08 01:25:29.73	243.51	23.40	-27.2	-29.0	15.1	1.09e-03	0	44	0	387973120	14	4451
2026-01-08 01:25:31.75	243.22	23.14	-27.1	-28.8	15.2	3.64e-03	0	44	0	394264576	14	4380
2026-01-08 01:25:33.76	242.93	22.88	-27.2	-29.1	15.1	0.00e+00	0	43	0	400556032	14	4461
2026-01-08 01:25:35.78	242.65	22.63	-27.3	-28.8	14.9	2.46e-04	0	44	0	406847488	15	4286
2026-01-08 01:25:37.79	242.38	22.38	-27.0	-28.2	15.2	0.00e+00	0	44	0	413138944	15	4118
2026-01-08 01:25:39.80	242.11	22.13	-27.0	-28.5	15.4	0.00e+00	0	44	0	419430400	14	4299
2026-01-08 01:25:41.81	241.85	21.88	-26.9	-28.8	15.4	3.98e-04	0	44	0	425721856	13	4501
2026-01-08 01:25:43.83	241.59	21.63	-26.9	-28.4	15.4	0.00e+00	0	44	0	432013312	14	4266
2026-01-08 01:25:45.83	241.33	21.39	-26.7	-28.3	15.7	6.10e-06	0	43	0	438304768	13	4368
2026-01-08 01:25:47.84	241.08	21.14	-26.7	-28.5	15.6	0.00e+00	0	43	0	444596224	13	4428
2026-01-08 01:25:49.85	240.83	20.90	-26.6	-28.3	15.7	0.00e+00	0	44	0	450887680	13	4352
2026-01-08 01:25:51.86	240.59	20.66	-26.4	-28.3	15.9	1.50e-06	0	44	0	457179136	12	4465
2026-01-08 01:25:53.87	240.35	20.42	-26.3	-28.1	16.0	0.00e+00	0	44	0	463470592	12	4420
2026-01-08 01:25:55.90	240.11	20.19	-26.1	-27.6	16.3	0.00e+00	0	44	0	469762048	12	4271
2026-01-08 01:25:57.91	239.87	19.95	-26.3	-28.0	16.1	3.00e-06	0	43	0	476053504	12	4389
2026-01-08 01:25:59.92	239.65	19.72	-26.4	-28.3	15.9	0.00e+00	0	44	0	482344960	12	4486
2026-01-08 01:26:01.93	239.42	19.49	-26.7	-28.4	15.6	0.00e+00	0	43	0	488636416	13	4388
2026-01-08 01:26:03.94	239.20	19.26	-26.7	-28.4	15.6	0.00e+00	0	44	0	494927872	13	4387
2026-01-08 01:26:05.96	238.98	19.03	-26.6	-28.3	15.6	0.00e+00	0	44	0	501219328	13	4378
2026-01-08 01:26:07.96	238.76	18.80	-26.6	-28.3	15.6	0.00e+00	0	43	0	507510784	13	4359
2026-01-08 01:26:09.98	238.55	18.58	-26.7	-28.3	15.6	0.00e+00	0	43	0	513802240	13	4370
2026-01-08 01:26:12.00	238.34	18.35	-26.5	-28.0	15.7	0.00e+00	0	44	0	520093696	13	4289
2026-01-08 01:26:14.01	238.13	18.13	-26.5	-28.0	15.7	0.00e+00	0	44	0	526385152	13	4270
2026-01-08 01:26:16.02	237.93	17.91	-26.6	-28.3	15.5	0.00e+00	0	43	0	532676608	13	4355
2026-01-08 01:26:18.03	237.73	17.69	-26.6	-28.2	15.6	0.00e+00	0	43	0	538968064	13	4325
2026-01-08 01:26:20.04	237.53	17.48	-26.9	-28.8	15.2	0.00e+00	0	43	0	545259520	13	4519
2026-01-08 01:26:22.05	237.34	17.26	-25.9	-27.6	15.4	0.00e+00	0	44	0	551550976	13	4375
2026-01-08 01:26:24.05	237.15	17.05	-27.0	-29.1	15.1	7.00e-07	0	44	0	556793856	13	4586
2026-01-08 01:26:26.06	236.96	16.84	-27.0	-28.7	15.0	0.00e+00	0	44	0	564133888	14	4366
2026-01-08 01:26:28.08	236.77	16.63	-27.3	-29.4	14.6	0.00e+00	0	43	0	570425344	14	4578
2026-01-08 01:26:30.10	236.59	16.42	-27.3	-29.4	14.6	3.00e-03	0	44	0	575668224	14	4566
2026-01-08 01:26:32.12	236.41	16.21	-27.4	-29.7	14.5	7.00e-07	0	44	0	583008256	14	4659
2026-01-08 01:26:34.13	236.23	16.00	-27.4	-29.5	14.5	2.85e-03	0	44	0	589299712	14	4621
2026-01-08 01:26:36.14	236.05	15.80	-27.7	-29.7	14.1	3.64e-03	0	43	0	595591168	15	4557
2026-01-08 01:26:38.16	235.88	15.59	-27.3	-29.3	14.6	5.30e-06	0	43	0	600834048	14	4543
2026-01-08 01:26:40.17	235.71	15.39	-27.3	-29.4	14.6	4.61e-03	0	43	0	608174080	14	4575
2026-01-08 01:26:42.18	235.54	15.19	-27.2	-29.1	14.7	4.48e-03	0	44	0	614465536	14	4499
2026-01-08 01:26:44.19	235.37	14.99	-27.3	-29.3	14.6	4.04e-04	0	43	0	620756992	14	4549
2026-01-08 01:26:46.20	235.21	14.79	-27.3	-29.4	14.6	5.01e-03	0	44	0	625999872	14	4565
2026-01-08 01:26:48.21	235.05	14.60	-27.1	-28.8	14.9	4.82e-03	0	44	0	633339904	14	4403
2026-01-08 01:26:50.22	234.89	14.40	-27.1	-28.9	14.7	0.00e+00	0	44	0	639631360	14	4439
2026-01-08 01:26:52.23	234.73	14.21	-27.1	-29.0	14.7	4.33e-03	0	44	0	645922816	14	4471
2026-01-08 01:26:54.24	234.57	14.02	-27.1	-28.9	14.7	3.80e-06	0	44	0	651165696	14	4443
2026-01-08 01:26:56.26	234.42	13.82	-27.1	-29.0	14.7	1.50e-06	0	44	0	658505728	14	4473
2026-01-08 01:26:58.27	234.27	13.64	-27.1	-29.0	14.7	4.70e-03	0	44	0	664797184	14	4457
2026-01-08 01:27:00.27	234.12	13.45	-27.2	-29.1	14.6	5.30e-06	0	44	0	670040064	14	4494
2026-01-08 01:27:02.29	233.97	13.26	-27.1	-29.0	14.6	1.50e-06	0	44	0	676331520	14	4477
2026-01-08 01:27:04.30	233.83	13.07	-27.2	-29.2	14.5	1.50e-06	0	44	0	682622976	14	4542
2026-01-08 01:27:06.32	233.68	12.89	-27.3	-29.4	14.4	0.00e+00	0	44	0	689963008	14	4579
2026-01-08 01:27:08.32	233.54	12.71	-27.2	-29.3	14.5	2.20e-06	0	43	0	695205888	14	4558
2026-01-08 01:27:10.32	233.40	12.52	-27.3	-29.5	14.3	0.00e+00	0	44	0	701497344	14	4613
2026-01-08 01:27:12.34	233.26	12.34	-27.4	-29.7	14.2	3.80e-06	0	44	0	707788800	14	4684
2026-01-08 01:27:14.35	233.13	12.16	-27.4	-29.8	14.2	4.50e-06	0	44	0	714080256	14	4707
2026-01-08 01:27:16.35	232.99	11.98	-27.4	-29.6	14.2	1.50e-06	0	43	0	720371712	14	4661
2026-01-08 01:27:18.36	232.86	11.81	-27.5	-29.3	14.1	2.20e-06	0	44	0	726663168	15	4462
2026-01-08 01:27:20.37	232.73	11.63	-27.5	-29.5	14.0	5.30e-06	0	43	0	732954624	15	4519
2026-01-08 01:27:22.39	232.60	11.45	-27.6	-29.6	13.9	6.80e-06	0	44	0	739246080	15	4533
2026-01-08 01:27:24.40	232.47	11.28	-27.7	-29.9	13.7	8.30e-06	0	43	0	745537536	15	4644
2026-01-08 01:27:26.41	232.34	11.11	-27.7	-29.9	13.7	6.10e-06	0	44	0	751828992	15	4625
2026-01-08 01:27:28.42	232.22	10.93	-27.8	-30.2	13.5	1.14e-05	0	44	0	758120448	15	4741
2026-01-08 01:27:30.44	232.09	10.76	-28.0	-30.6	13.2	2.36e-05	0	44	0	764411904	15	4873
2026-01-08 01:27:32.44	231.97	10.59	-28.4	-31.0	12.9	4.73e-05	0	44	0	770703360	16	4872
2026-01-08 01:27:34.46	231.85	10.42	-28.3	-30.7	13.0	3.66e-05	0	44	0	776994816	16	4778
2026-01-08 01:27:36.46	231.73	10.25	-28.4	-31.2	12.7	5.72e-05	0	43	0	783286272	16	4937
2026-01-08 01:27:38.47	231.62	10.09	-28.4	-30.5	12.8	6.17e-05	0	44	0	789577728	17	4598
2026-01-08 01:27:40.49	231.50	9.92	-28.4	-31.1	12.8	6.86e-05	0	44	0	795869184	16	4897
2026-01-08 01:27:42.50	231.38	9.76	-28.4	-30.7	12.6	8.77e-05	0	44	0	802160640	17	4668
2026-01-08 01:27:44.51	231.27	9.59	-28.6	-31.0	12.4	1.41e-04	0	44	0	808452096	17	4783
2026-01-08 01:27:46.51	231.16	9.43	-28.7	-31.4	12.2	2.43e-04	0	44	0	814743552	17	4911
2026-01-08 01:27:48.52	231.05	9.27	-28.7	-31.4	12.1	2.10e-04	0	43	0	821035008	17	4920
2026-01-08 01:27:50.52	230.94	9.11	-27.9	-30.7	11.6	1.30e-04	0	44	0	827326464	16	5000
2026-01-08 01:27:52.53	230.83	8.95	-28.7	-31.4	11.9	2.19e-04	0	44	0	833617920	17	4902
2026-01-08 01:27:54.54	230.72	8.79	-28.5	-31.0	12.3	2.03e-04	0	44	0	839909376	17	4788
2026-01-08 01:27:56.56	230.62	8.63	-28.5	-31.0	12.4	1.35e-04	0	44	0	846200832	17	4774
2026-01-08 01:27:58.58	230.51	8.47	-28.6	-31.1	12.3	1.83e-04	0	44	0	852492288	17	4821
2026-01-08 01:28:00.58	230.41	8.31	-28.7	-31.3	12.1	4.72e-03	0	44	0	858783744	17	4898
2026-01-08 01:28:02.60	230.31	8.16	-28.6	-31.3	12.1	4.56e-03	0	44	0	865075200	17	4877
2026-01-08 01:28:04.61	230.20	8.00	-28.7	-31.5	12.0	1.15e-03	0	44	0	871366656	17	4950
2026-01-08 01:28:06.62	230.10	7.85	-28.8	-31.6	11.9	5.11e-03	0	44	0	877658112	17	5000
2026-01-08 01:28:08.62	230.01	7.70	-28.9	-31.9	11.7	5.84e-04	0	44	0	883949568	17	5111
2026-01-08 01:28:10.63	229.91	7.54	-28.8	-31.8	11.8	1.02e-03	0	44	0	890241024	17	5064
2026-01-08 01:28:12.64	229.81	7.39	-28.8	-31.7	11.8	4.57e-03	0	44	0	896532480	17	5015
2026-01-08 01:28:14.66	229.71	7.24	-28.8	-31.7	11.8	5.39e-04	0	44	0	902823936	17	5031
2026-01-08 01:28:16.67	229.62	7.09	-32.6	-44.3	3.8	8.24e-01	0	44	104	908066816	25	13891
2026-01-08 01:28:18.68	229.53	6.94	-33.2	-45.3	3.8	1.49e+00	0	44	104	908066816	26	14486

#Closed at: 2026-01-08 01:28:19
#Recorded file [908 MB]: D:/data/31010_260108_042325.dat