passes_logs/2026/01/08/R2M6_AANII_01/R2M6_AANII_01__20260108_025730_NOAA_21_JPSS-2_rec.log

#Pass ID: 20260108_025730_NOAA 21 (JPSS-2)
#Satellite: NOAA 21 (JPSS-2)
#Configuration: NOAA 21
#almurnet v.1.7.20240730
#Start time: 2026-01-08 03:02:50

#Version: 2.2.20231116
#Station: R2M6_AANII_01
#Location: 30.233357 lon 59.946436 lat
#TLE: 1 54234U 22150A   26005.56767909  .00000152  00000+0  92756-4 0  9990
#TLE: 2 54234  98.7490 306.5820 0001036 340.2747  19.8389 14.19532370163472

#Time	Az	El	Level	Level2	SNR	BER	BlckErr	Temp	State	Recorded	gain1	gain2
2026-01-08 03:02:50.91	309.17	15.18	-33.8	-43.4	3.8	8.46e-01	0	44	0	0	27	10956
2026-01-08 03:02:51.91	308.97	15.15	-34.2	-46.2	3.8	1.49e+00	0	44	104	0	28	14296
2026-01-08 03:02:52.91	308.76	15.12	-34.2	-46.3	3.8	1.49e+00	0	44	104	0	28	14431
2026-01-08 03:02:53.89	308.56	15.09	-34.3	-46.4	3.8	1.49e+00	0	44	104	0	28	14522
2026-01-08 03:02:54.90	308.36	15.06	-34.3	-46.4	3.8	1.49e+00	0	44	104	0	28	14548
2026-01-08 03:02:55.90	308.15	15.03	-34.3	-46.5	3.8	1.49e+00	0	44	104	0	28	14580
2026-01-08 03:02:56.90	307.95	15.00	-34.3	-46.4	3.8	1.49e+00	0	44	104	0	28	14548
2026-01-08 03:02:57.89	307.75	14.97	-34.3	-46.4	3.8	1.49e+00	0	44	104	0	28	14556
2026-01-08 03:02:58.90	307.54	14.94	-34.3	-46.4	3.8	1.49e+00	0	44	104	0	28	14538
2026-01-08 03:02:59.91	307.34	14.91	-34.3	-46.3	3.8	1.49e+00	0	44	104	0	28	14491
2026-01-08 03:03:00.91	307.14	14.88	-34.3	-46.4	3.8	1.49e+00	0	44	104	0	28	14521
2026-01-08 03:03:01.92	306.94	14.85	-34.3	-46.3	3.8	1.49e+00	0	44	104	0	28	14471
2026-01-08 03:03:02.92	306.74	14.82	-34.3	-46.3	3.8	1.49e+00	0	44	104	0	28	14483
2026-01-08 03:03:03.92	306.54	14.78	-34.2	-46.3	3.8	1.49e+00	0	44	104	0	28	14445
2026-01-08 03:03:04.92	306.34	14.75	-34.2	-46.3	3.8	1.49e+00	0	44	104	0	28	14496
2026-01-08 03:03:05.92	306.14	14.72	-34.2	-46.3	3.8	1.49e+00	0	44	104	0	28	14441
2026-01-08 03:03:06.92	305.94	14.69	-34.2	-46.2	3.8	1.49e+00	0	44	104	0	28	14392
2026-01-08 03:03:07.92	305.74	14.65	-34.1	-46.1	3.8	1.49e+00	0	44	104	0	28	14301
2026-01-08 03:03:08.93	305.54	14.62	-34.1	-46.1	3.8	1.49e+00	0	44	104	0	28	14322
2026-01-08 03:03:09.93	305.34	14.58	-34.1	-46.0	3.8	1.49e+00	0	44	104	0	28	14209
2026-01-08 03:03:10.92	305.15	14.55	-34.1	-46.0	3.8	1.49e+00	0	44	104	0	28	14224
2026-01-08 03:03:11.92	304.95	14.51	-34.1	-46.0	3.8	1.49e+00	0	44	104	0	28	14176
2026-01-08 03:03:12.92	304.75	14.48	-34.0	-45.9	3.8	1.49e+00	0	44	104	0	28	14154
2026-01-08 03:03:13.92	304.56	14.44	-34.0	-45.9	3.8	1.49e+00	0	44	104	0	28	14111
2026-01-08 03:03:14.92	304.36	14.41	-34.0	-45.8	3.8	1.49e+00	0	44	104	0	28	14087
2026-01-08 03:03:15.93	304.17	14.37	-34.0	-45.7	3.8	1.49e+00	0	44	104	0	28	13964
2026-01-08 03:03:16.92	303.97	14.34	-33.9	-45.7	3.8	1.49e+00	0	44	104	0	28	13908
2026-01-08 03:03:17.92	303.78	14.30	-33.9	-45.6	3.8	1.49e+00	0	44	104	0	28	13828
2026-01-08 03:03:18.93	303.58	14.26	-33.9	-46.1	3.8	1.49e+00	0	44	104	0	27	14700
2026-01-08 03:03:19.93	303.39	14.23	-33.8	-45.9	3.8	1.49e+00	0	44	104	0	27	14478
2026-01-08 03:03:20.93	303.20	14.19	-33.6	-45.1	3.8	1.49e+00	0	44	104	0	27	13494
2026-01-08 03:03:21.93	303.01	14.15	-33.4	-44.9	3.8	1.49e+00	0	44	104	0	27	13543
2026-01-08 03:03:22.92	302.82	14.12	-33.3	-44.4	3.8	1.49e+00	0	44	104	0	27	12847
2026-01-08 03:03:23.92	302.63	14.08	-33.3	-44.9	3.8	1.49e+00	0	44	104	0	26	13641
2026-01-08 03:03:24.93	302.44	14.04	-33.3	-45.0	3.8	1.49e+00	0	44	104	0	26	13808
2026-01-08 03:03:25.93	302.25	14.00	-33.3	-45.2	3.8	1.49e+00	0	44	104	0	26	14044
2026-01-08 03:03:26.94	302.05	13.96	-33.3	-45.3	3.8	1.49e+00	0	44	104	0	26	14257
2026-01-08 03:03:27.94	301.87	13.92	-33.3	-45.4	3.8	1.49e+00	0	44	104	0	26	14438
2026-01-08 03:03:28.95	301.67	13.88	-33.4	-45.5	3.8	1.49e+00	0	44	104	0	26	14496
2026-01-08 03:03:29.94	301.49	13.84	-33.3	-45.4	3.8	1.49e+00	0	44	104	0	26	14449
2026-01-08 03:03:30.95	301.30	13.80	-33.3	-45.3	3.8	1.49e+00	0	44	104	0	26	14332
2026-01-08 03:03:31.95	301.11	13.76	-33.3	-45.3	3.8	1.49e+00	0	44	104	0	26	14259
2026-01-08 03:03:32.95	300.93	13.72	-33.3	-45.2	3.8	1.49e+00	0	44	104	0	26	14218
2026-01-08 03:03:33.95	300.74	13.68	-33.3	-45.1	3.8	1.49e+00	0	44	104	0	26	14046
2026-01-08 03:03:34.96	300.55	13.64	-33.3	-44.8	3.8	1.49e+00	0	44	104	0	26	13600
2026-01-08 03:03:35.97	300.37	13.60	-33.2	-44.1	3.8	1.49e+00	0	44	104	0	26	12619
2026-01-08 03:03:36.96	300.18	13.56	-33.1	-43.2	3.8	1.49e+00	0	44	104	0	26	11552
2026-01-08 03:03:37.96	300.00	13.52	-33.0	-41.8	4.1	1.46e+00	0	44	104	0	26	9962
2026-01-08 03:03:38.97	299.82	13.48	-32.9	-42.2	3.9	1.48e+00	0	44	104	0	25	10518
2026-01-08 03:03:39.98	299.63	13.44	-32.8	-41.0	4.5	1.31e+00	0	44	104	0	25	9263
2026-01-08 03:03:40.98	299.45	13.39	-32.6	-40.5	4.0	1.47e+00	0	44	104	0	25	8936
2026-01-08 03:03:41.98	299.27	13.35	-32.2	-37.7	6.0	4.69e-01	0	44	0	0	25	6828
2026-01-08 03:03:42.99	299.08	13.31	-31.5	-35.5	7.9	1.28e-01	0	43	0	3145728	24	5697
2026-01-08 03:03:43.99	298.90	13.27	-30.7	-34.0	9.5	2.00e-02	0	44	0	6291456	22	5251
2026-01-08 03:03:44.99	298.72	13.22	-30.1	-32.7	10.8	3.28e-03	0	44	0	9437184	21	4855
2026-01-08 03:03:46.00	298.54	13.18	-30.1	-33.2	10.9	3.05e-03	0	44	0	12582912	20	5136
2026-01-08 03:03:47.01	298.36	13.14	-30.4	-34.0	10.3	3.95e-03	0	44	0	15728640	20	5477
2026-01-08 03:03:48.01	298.18	13.09	-30.1	-33.2	10.8	3.45e-03	0	44	0	18874368	20	5157
2026-01-08 03:03:49.01	298.00	13.05	-29.9	-32.7	11.1	2.00e-03	0	43	0	22020096	20	4983
2026-01-08 03:03:50.02	297.82	13.01	-29.7	-32.1	11.5	1.08e-03	0	44	0	25165824	20	4760
2026-01-08 03:03:51.02	297.65	12.96	-29.5	-32.2	11.9	5.23e-04	0	44	0	28311552	19	4874
2026-01-08 03:03:52.03	297.47	12.92	-29.6	-32.3	11.7	4.84e-04	0	44	0	31457280	19	4936
2026-01-08 03:03:53.02	297.30	12.87	-29.1	-31.0	12.6	2.00e-04	0	44	0	34603008	19	4481
2026-01-08 03:03:54.02	297.12	12.83	-28.6	-30.3	13.4	1.98e-05	0	44	0	37748736	18	4367
2026-01-08 03:03:55.02	296.95	12.78	-28.2	-29.9	13.8	1.06e-05	0	44	0	40894464	17	4358
2026-01-08 03:03:56.02	296.77	12.74	-28.0	-29.3	14.2	3.00e-06	0	44	0	44040192	17	4203
2026-01-08 03:03:57.02	296.60	12.69	-27.8	-29.5	14.4	0.00e+00	0	44	0	47185920	16	4351
2026-01-08 03:03:58.02	296.42	12.65	-28.1	-30.1	14.0	4.50e-06	0	44	0	50331648	16	4536
2026-01-08 03:03:59.02	296.25	12.60	-28.0	-29.9	14.1	0.00e+00	0	44	0	53477376	16	4464
2026-01-08 03:04:00.02	296.08	12.56	-28.0	-29.9	14.1	3.00e-06	0	44	0	56623104	16	4467
2026-01-08 03:04:01.02	295.91	12.51	-27.9	-30.2	14.0	1.50e-06	0	44	0	59768832	15	4699
2026-01-08 03:04:02.03	295.74	12.47	-27.9	-30.2	14.0	3.00e-06	0	44	0	62914560	15	4701
2026-01-08 03:04:03.02	295.57	12.42	-28.2	-30.4	13.9	3.80e-06	0	44	0	66060288	16	4618
2026-01-08 03:04:04.01	295.40	12.37	-28.4	-30.5	13.5	8.30e-06	0	44	0	69206016	17	4538
2026-01-08 03:04:05.01	295.23	12.33	-28.4	-30.3	13.5	1.37e-05	0	44	0	71303168	17	4499
2026-01-08 03:04:06.02	295.06	12.28	-28.7	-31.1	13.1	2.82e-05	0	44	0	74448896	17	4753
2026-01-08 03:04:07.03	294.89	12.23	-28.6	-30.8	13.3	2.21e-05	0	44	0	77594624	17	4639
2026-01-08 03:04:08.03	294.72	12.19	-28.4	-30.5	13.5	1.37e-05	0	44	0	80740352	17	4542
2026-01-08 03:04:09.03	294.55	12.14	-28.4	-30.4	13.5	1.29e-05	0	44	0	83886080	17	4511
2026-01-08 03:04:10.03	294.39	12.09	-28.5	-30.7	13.3	2.21e-05	0	44	0	87031808	17	4598
2026-01-08 03:04:11.03	294.22	12.05	-28.4	-30.3	13.6	3.00e-06	0	44	0	90177536	17	4488
2026-01-08 03:04:12.03	294.05	12.00	-28.3	-30.1	13.7	6.10e-06	0	44	0	93323264	17	4424
2026-01-08 03:04:13.03	293.89	11.95	-28.3	-30.2	13.6	5.30e-06	0	43	0	96468992	17	4470
2026-01-08 03:04:14.03	293.72	11.90	-28.3	-30.2	13.6	9.90e-06	0	44	0	99614720	17	4455
2026-01-08 03:04:15.02	293.56	11.85	-28.4	-30.4	13.5	1.06e-05	0	43	0	102760448	17	4538
2026-01-08 03:04:16.02	293.40	11.81	-28.6	-31.0	13.1	2.89e-05	0	44	0	105906176	17	4712
2026-01-08 03:04:17.02	293.24	11.76	-28.5	-30.6	13.4	2.05e-05	0	44	0	109051904	17	4578
2026-01-08 03:04:18.02	293.07	11.71	-28.5	-30.6	13.3	1.67e-05	0	44	0	112197632	17	4596
2026-01-08 03:04:19.02	292.91	11.66	-28.7	-31.1	13.0	2.05e-05	0	44	0	115343360	17	4752
2026-01-08 03:04:20.01	292.75	11.61	-28.4	-30.4	13.4	1.98e-05	0	44	0	118489088	17	4516
2026-01-08 03:04:21.01	292.59	11.57	-28.3	-30.3	13.5	6.80e-06	0	44	0	121634816	17	4485
2026-01-08 03:04:22.02	292.43	11.52	-28.4	-30.8	13.5	7.60e-06	0	43	0	124780544	16	4758
2026-01-08 03:04:23.03	292.27	11.47	-28.3	-30.6	13.6	7.60e-06	0	44	0	127926272	16	4696
2026-01-08 03:04:24.04	292.11	11.42	-28.2	-30.5	13.7	6.80e-06	0	44	0	131072000	16	4667
2026-01-08 03:04:25.05	291.95	11.37	-28.3	-30.5	13.6	8.30e-06	0	44	0	134217728	16	4677
2026-01-08 03:04:26.05	291.79	11.32	-28.3	-30.7	13.6	9.90e-06	0	44	0	137363456	16	4726
2026-01-08 03:04:27.06	291.63	11.27	-28.2	-30.5	13.7	9.90e-06	0	43	0	140509184	16	4666
2026-01-08 03:04:28.06	291.47	11.22	-28.2	-30.4	13.7	4.50e-06	0	44	0	143654912	16	4644
2026-01-08 03:04:29.06	291.32	11.17	-28.4	-31.0	13.4	1.06e-05	0	44	0	146800640	16	4825
2026-01-08 03:04:30.07	291.16	11.12	-28.4	-30.8	13.5	9.90e-06	0	44	0	149946368	16	4763
2026-01-08 03:04:31.07	291.00	11.07	-28.5	-31.0	13.3	1.44e-05	0	44	0	153092096	16	4846
2026-01-08 03:04:32.08	290.85	11.02	-28.6	-30.8	13.1	2.36e-05	0	44	0	156237824	17	4657
2026-01-08 03:04:33.09	290.69	10.97	-28.7	-31.2	12.9	3.73e-05	0	44	0	159383552	17	4802
2026-01-08 03:04:34.10	290.54	10.92	-28.8	-31.4	12.7	5.95e-05	0	44	0	162529280	17	4851
2026-01-08 03:04:35.10	290.38	10.87	-29.0	-31.8	12.5	1.19e-04	0	44	0	165675008	17	5016
2026-01-08 03:04:36.10	290.23	10.82	-28.9	-31.8	12.5	1.20e-04	0	43	0	168820736	17	5005
2026-01-08 03:04:37.11	290.08	10.77	-29.1	-31.7	12.3	1.50e-04	0	44	0	171966464	18	4832
2026-01-08 03:04:38.12	289.92	10.72	-29.2	-31.9	12.1	2.25e-04	0	44	0	175112192	18	4901
2026-01-08 03:04:39.12	289.77	10.66	-29.0	-31.3	12.5	1.77e-04	0	44	0	178257920	18	4724
2026-01-08 03:04:40.12	289.62	10.61	-28.9	-31.6	12.6	9.15e-05	0	44	0	181403648	17	4925
2026-01-08 03:04:41.13	289.47	10.56	-28.7	-31.3	12.8	7.70e-05	0	44	0	184549376	17	4815
2026-01-08 03:04:42.14	289.32	10.51	-28.7	-31.2	12.8	4.50e-05	0	44	0	187695104	17	4808
2026-01-08 03:04:43.14	289.17	10.46	-28.7	-31.2	12.8	9.46e-05	0	44	0	190840832	17	4799
2026-01-08 03:04:44.15	289.02	10.41	-28.7	-31.1	12.9	4.19e-05	0	44	0	193986560	17	4749
2026-01-08 03:04:45.16	288.87	10.36	-28.6	-30.9	13.0	3.89e-05	0	44	0	197132288	17	4694
2026-01-08 03:04:46.16	288.72	10.31	-28.6	-30.9	12.9	3.73e-05	0	44	0	200278016	17	4698
2026-01-08 03:04:47.17	288.57	10.25	-28.6	-31.3	12.9	4.73e-05	0	44	0	203423744	16	4958
2026-01-08 03:04:48.17	288.43	10.20	-28.3	-30.8	12.5	1.67e-05	0	44	0	206569472	16	4771
2026-01-08 03:04:49.18	288.28	10.15	-28.2	-30.6	13.5	1.29e-05	0	43	0	209715200	16	4699
2026-01-08 03:04:50.18	288.13	10.10	-28.2	-30.4	13.5	9.90e-06	0	43	0	212860928	16	4657
2026-01-08 03:04:51.19	287.99	10.05	-28.1	-30.1	13.7	3.80e-06	0	44	0	216006656	16	4569
2026-01-08 03:04:52.20	287.84	10.00	-28.2	-30.5	13.5	9.90e-06	0	44	0	219152384	16	4660
2026-01-08 03:04:53.20	287.70	9.94	-28.3	-30.6	13.4	8.30e-06	0	44	0	222298112	16	4721
2026-01-08 03:04:54.21	287.55	9.89	-28.4	-30.8	13.3	3.27e-03	0	44	0	225443840	16	4789
2026-01-08 03:04:55.22	287.41	9.84	-28.5	-30.7	13.0	3.12e-05	0	44	0	228589568	17	4646
2026-01-08 03:04:56.22	287.27	9.79	-28.7	-31.2	12.8	6.40e-05	0	44	0	231735296	17	4799
2026-01-08 03:04:57.22	287.13	9.74	-28.6	-31.1	12.8	6.56e-05	0	44	0	234881024	17	4753
2026-01-08 03:04:58.23	286.98	9.68	-28.6	-31.0	12.9	5.26e-05	0	44	0	238026752	17	4743
2026-01-08 03:04:59.24	286.84	9.63	-28.6	-30.9	12.9	1.37e-03	0	44	0	241172480	17	4692
2026-01-08 03:05:00.24	286.70	9.58	-28.6	-31.0	12.8	3.10e-03	0	44	0	244318208	17	4753
2026-01-08 03:05:01.26	286.56	9.53	-28.7	-31.3	12.7	3.45e-04	0	43	0	247463936	17	4836
2026-01-08 03:05:02.26	286.42	9.47	-28.8	-31.4	12.6	3.94e-03	0	43	0	250609664	17	4866
2026-01-08 03:05:03.27	286.28	9.42	-28.8	-31.5	12.5	8.85e-05	0	44	0	253755392	17	4913
2026-01-08 03:05:04.28	286.14	9.37	-28.9	-31.7	12.4	4.95e-04	0	44	0	256901120	17	4996
2026-01-08 03:05:05.28	286.00	9.32	-29.1	-31.6	12.1	4.65e-03	0	43	0	260046848	18	4846
2026-01-08 03:05:06.28	285.87	9.26	-29.1	-31.8	12.1	4.51e-03	0	44	0	263192576	18	4890
2026-01-08 03:05:07.29	285.73	9.21	-29.1	-31.9	12.0	6.68e-04	0	44	0	266338304	18	4928
2026-01-08 03:05:08.29	285.59	9.16	-29.0	-31.5	12.1	2.62e-04	0	44	0	269484032	18	4811
2026-01-08 03:05:09.30	285.45	9.10	-29.1	-31.7	12.0	4.13e-03	0	44	0	272629760	18	4867
2026-01-08 03:05:10.31	285.32	9.05	-29.1	-31.7	12.1	8.23e-04	0	43	0	275775488	18	4863
2026-01-08 03:05:11.31	285.18	9.00	-28.9	-31.7	12.3	4.25e-03	0	44	0	278921216	17	4986
2026-01-08 03:05:12.32	285.05	8.95	-28.8	-31.6	12.4	4.80e-03	0	44	0	282066944	17	4937
2026-01-08 03:05:13.34	284.91	8.89	-29.0	-31.4	12.2	1.40e-03	0	44	0	285212672	18	4786
2026-01-08 03:05:14.34	284.78	8.84	-28.8	-31.6	12.3	1.78e-04	0	44	0	288358400	17	4966
2026-01-08 03:05:15.34	284.65	8.79	-28.8	-31.5	12.4	4.95e-03	0	43	0	291504128	17	4918
2026-01-08 03:05:16.35	284.51	8.73	-28.8	-31.6	12.3	2.26e-03	0	44	0	294649856	17	4943
2026-01-08 03:05:17.35	284.38	8.68	-28.8	-31.6	12.3	5.26e-03	0	44	0	297795584	17	4951
2026-01-08 03:05:18.36	284.25	8.63	-28.7	-31.2	12.5	4.86e-03	0	44	0	300941312	17	4825
2026-01-08 03:05:19.36	284.12	8.57	-28.5	-30.8	12.8	7.17e-05	0	44	0	304087040	17	4702
2026-01-08 03:05:20.37	283.99	8.52	-28.5	-30.7	12.9	4.95e-05	0	44	0	307232768	17	4669
2026-01-08 03:05:21.38	283.85	8.47	-28.4	-30.5	13.0	5.29e-03	0	44	0	310378496	17	4581
2026-01-08 03:05:22.38	283.73	8.41	-28.3	-30.9	13.0	2.54e-03	0	44	0	313524224	16	4832
2026-01-08 03:05:23.39	283.60	8.36	-28.3	-30.9	13.0	5.33e-03	0	44	0	316669952	16	4828
2026-01-08 03:05:24.40	283.47	8.31	-28.3	-30.8	13.1	2.97e-05	0	44	0	319815680	16	4808
2026-01-08 03:05:25.40	283.34	8.25	-28.5	-31.2	12.9	4.57e-05	0	44	0	322961408	16	4943
2026-01-08 03:05:26.41	283.21	8.20	-28.5	-31.2	12.8	5.21e-03	0	44	0	326107136	16	4936
2026-01-08 03:05:27.41	283.08	8.15	-28.6	-31.0	12.7	4.76e-03	0	44	0	329252864	17	4757
2026-01-08 03:05:28.42	282.96	8.09	-28.7	-31.2	12.5	2.56e-03	0	44	0	332398592	17	4817
2026-01-08 03:05:29.43	282.83	8.04	-28.5	-30.9	12.7	8.01e-05	0	44	0	335544320	17	4709
2026-01-08 03:05:30.43	282.70	7.99	-28.6	-31.0	12.6	9.46e-05	0	44	0	338690048	17	4758
2026-01-08 03:05:31.43	282.58	7.93	-28.6	-31.0	12.7	8.46e-05	0	44	0	341835776	17	4759
2026-01-08 03:05:32.44	282.45	7.88	-28.7	-31.2	12.5	1.23e-04	0	44	0	344981504	17	4829
2026-01-08 03:05:33.45	282.33	7.83	-28.7	-31.3	12.4	4.39e-03	0	44	0	348127232	17	4853
2026-01-08 03:05:34.46	282.20	7.77	-28.6	-30.9	12.6	9.84e-05	0	44	0	351272960	17	4738
2026-01-08 03:05:35.47	282.08	7.72	-28.5	-30.8	12.7	5.41e-05	0	44	0	354418688	17	4689
2026-01-08 03:05:36.47	281.95	7.66	-28.5	-30.7	12.8	5.03e-05	0	44	0	357564416	17	4655
2026-01-08 03:05:37.48	281.83	7.61	-28.5	-30.9	12.7	6.79e-05	0	44	0	360710144	17	4711
2026-01-08 03:05:38.48	281.71	7.56	-28.5	-30.8	12.7	8.69e-05	0	44	0	363855872	17	4684
2026-01-08 03:05:39.50	281.59	7.50	-28.7	-31.3	12.4	1.04e-04	0	44	0	367001600	17	4872
2026-01-08 03:05:40.51	281.46	7.45	-28.6	-31.2	12.4	1.87e-04	0	44	0	370147328	17	4830
2026-01-08 03:05:41.51	281.34	7.40	-28.7	-31.2	12.4	1.39e-04	0	44	0	373293056	17	4845
2026-01-08 03:05:42.52	281.22	7.34	-28.7	-31.3	12.3	1.72e-04	0	44	0	376438784	17	4870
2026-01-08 03:05:43.53	281.10	7.29	-28.8	-31.5	12.2	2.36e-04	0	44	0	379584512	17	4936
2026-01-08 03:05:44.53	280.98	7.23	-28.8	-31.6	12.1	2.58e-04	0	44	0	382730240	17	4978
2026-01-08 03:05:45.54	280.86	7.18	-28.8	-31.6	12.1	2.53e-04	0	44	0	385875968	17	4965
2026-01-08 03:05:46.54	280.74	7.13	-28.8	-31.5	12.2	1.98e-04	0	44	0	389021696	17	4934
2026-01-08 03:05:47.55	280.63	7.07	-32.7	-44.1	3.8	9.70e-02	0	44	104	391118848	25	13426
2026-01-08 03:05:48.55	280.51	7.02	-33.2	-45.3	3.8	1.49e+00	0	44	104	391118848	26	14449
2026-01-08 03:05:49.56	280.39	6.97	-33.6	-45.5	3.8	1.49e+00	0	44	104	391118848	27	14136
2026-01-08 03:05:50.57	280.27	6.91	-33.8	-46.0	3.8	1.49e+00	0	44	104	391118848	27	14602

#Closed at: 2026-01-08 03:05:51
#Recorded file [391 MB]: D:/data/31010_260108_060341.dat