passes_logs/2026/01/08/R2M6_AANII_01/R2M6_AANII_01__20260108_113958_SUOMI_NPP_rec.log

#Pass ID: 20260108_113958_SUOMI NPP
#Satellite: SUOMI NPP
#Configuration: NPP
#almurnet v.1.7.20240730
#Start time: 2026-01-08 11:39:58

#Version: 2.2.20231116
#Station: R2M6_AANII_01
#Location: 30.233357 lon 59.946436 lat
#TLE: 1 37849U 11061A   26005.94084933  .00000134  00000+0  84554-4 0  9990
#TLE: 2 37849  98.7803 308.0679 0002567  79.1029 281.0436 14.19522657735426

#Time	Az	El	Level	Level2	SNR	BER	BlckErr	Temp	State	Recorded	gain1	gain2
2026-01-08 11:39:58.62	201.23	7.01	-29.5	-34.2	4.8	1.31e+00	0	40	0	0	20	6163
2026-01-08 11:40:01.62	201.46	7.21	-29.7	-35.3	6.0	3.13e-01	0	41	0	1048576	20	6841
2026-01-08 11:40:04.65	201.70	7.42	-29.8	-34.2	7.2	1.76e-01	0	41	0	7340032	20	6024
2026-01-08 11:40:07.66	201.94	7.63	-30.2	-34.1	8.9	2.90e-02	0	41	0	12582912	20	5599
2026-01-08 11:40:10.69	202.18	7.84	-30.5	-33.7	9.8	1.55e-02	0	41	0	18874368	21	5168
2026-01-08 11:40:13.71	202.42	8.06	-30.6	-33.3	10.7	3.13e-03	0	41	0	24117248	21	4925
2026-01-08 11:40:16.73	202.67	8.27	-30.6	-33.5	10.7	3.50e-03	0	41	0	29360128	21	4987
2026-01-08 11:40:19.75	202.92	8.49	-30.5	-33.1	11.0	1.87e-03	0	41	0	35651584	21	4834
2026-01-08 11:40:22.77	203.18	8.70	-30.4	-32.8	11.1	2.02e-03	0	41	0	40894464	21	4728
2026-01-08 11:40:25.80	203.44	8.92	-30.4	-32.8	11.1	1.77e-03	0	42	0	47185920	21	4733
2026-01-08 11:40:28.80	203.70	9.14	-30.6	-33.3	10.7	1.71e-03	0	41	0	52428800	21	4952
2026-01-08 11:40:31.82	203.97	9.36	-30.4	-32.5	11.4	9.87e-04	0	42	0	57671680	21	4614
2026-01-08 11:40:34.84	204.24	9.59	-30.3	-32.2	11.6	6.68e-04	0	42	0	63963136	21	4495
2026-01-08 11:40:37.86	204.51	9.81	-30.2	-32.1	11.7	8.76e-04	0	42	0	69206016	21	4457
2026-01-08 11:40:40.88	204.79	10.04	-30.1	-31.6	12.1	3.15e-04	0	42	0	75497472	21	4276
2026-01-08 11:40:43.90	205.08	10.26	-30.0	-31.3	12.4	1.70e-04	0	42	0	80740352	21	4164
2026-01-08 11:40:46.92	205.36	10.49	-29.9	-30.9	12.7	7.85e-05	0	42	0	85983232	21	4049
2026-01-08 11:40:49.95	205.66	10.72	-30.0	-31.3	12.5	9.84e-05	0	42	0	92274688	21	4168
2026-01-08 11:40:52.96	205.95	10.95	-29.9	-31.0	12.8	1.45e-04	0	42	0	97517568	21	4080
2026-01-08 11:40:55.97	206.25	11.19	-29.9	-30.9	12.8	5.56e-05	0	42	0	103809024	21	4056
2026-01-08 11:40:58.98	206.56	11.42	-29.8	-31.1	13.0	7.32e-05	0	42	0	109051904	20	4200
2026-01-08 11:41:02.00	206.87	11.66	-29.7	-30.9	13.2	2.82e-05	0	42	0	114294784	20	4112
2026-01-08 11:41:05.02	207.18	11.90	-29.9	-31.4	12.9	5.26e-05	0	42	0	120586240	20	4287
2026-01-08 11:41:08.03	207.50	12.13	-30.1	-31.9	12.6	7.62e-05	0	42	0	125829120	20	4440
2026-01-08 11:41:11.04	207.83	12.37	-30.1	-31.8	12.6	4.95e-05	0	42	0	131072000	20	4412
2026-01-08 11:41:14.06	208.16	12.62	-29.9	-31.3	13.0	7.01e-05	0	42	0	137363456	20	4239
2026-01-08 11:41:17.07	208.49	12.86	-29.8	-31.1	13.3	1.75e-05	0	43	0	142606336	20	4166
2026-01-08 11:41:20.09	208.83	13.11	-29.7	-30.7	13.5	8.30e-06	0	43	0	148897792	20	4068
2026-01-08 11:41:23.11	209.18	13.35	-29.5	-30.3	13.7	9.90e-06	0	43	0	154140672	20	3937
2026-01-08 11:41:26.12	209.53	13.60	-29.6	-30.4	13.7	5.30e-06	0	43	0	159383552	20	3986
2026-01-08 11:41:29.15	209.89	13.85	-29.7	-30.9	13.4	6.10e-06	0	43	0	165675008	20	4100
2026-01-08 11:41:32.17	210.25	14.11	-30.0	-31.5	13.0	2.67e-05	0	43	0	170917888	20	4302
2026-01-08 11:41:35.18	210.62	14.36	-30.2	-32.0	12.7	5.72e-05	0	43	0	177209344	20	4455
2026-01-08 11:41:38.19	211.00	14.61	-30.1	-31.8	12.8	6.17e-05	0	43	0	182452224	20	4396
2026-01-08 11:41:41.22	211.38	14.87	-30.1	-31.7	12.9	6.33e-05	0	43	0	187695104	20	4366
2026-01-08 11:41:44.24	211.77	15.13	-29.9	-31.3	13.3	3.35e-05	0	43	0	193986560	20	4216
2026-01-08 11:41:47.25	212.16	15.39	-30.1	-31.8	12.9	3.50e-05	0	43	0	199229440	20	4381
2026-01-08 11:41:50.27	212.56	15.65	-30.1	-31.9	12.8	8.62e-05	0	43	0	205520896	20	4424
2026-01-08 11:41:53.29	212.97	15.91	-30.3	-32.4	12.6	1.20e-04	0	43	0	210763776	20	4582
2026-01-08 11:41:56.31	213.39	16.18	-30.2	-32.0	12.9	4.34e-05	0	43	0	216006656	20	4432
2026-01-08 11:41:59.33	213.81	16.44	-30.3	-32.2	12.7	4.65e-05	0	43	0	222298112	20	4505
2026-01-08 11:42:02.35	214.24	16.71	-30.2	-32.0	12.8	4.19e-05	0	43	0	227540992	20	4448
2026-01-08 11:42:05.37	214.68	16.98	-30.1	-31.8	13.0	5.72e-05	0	43	0	233832448	20	4360
2026-01-08 11:42:08.39	215.13	17.25	-30.4	-32.5	12.5	7.62e-05	0	43	0	239075328	20	4605
2026-01-08 11:42:11.40	215.58	17.52	-30.4	-32.5	12.6	9.99e-05	0	43	0	244318208	20	4610
2026-01-08 11:42:14.41	216.04	17.79	-30.2	-32.1	12.7	1.02e-04	0	43	0	250609664	20	4481
2026-01-08 11:42:17.41	216.51	18.06	-30.2	-32.1	12.8	4.73e-05	0	43	0	255852544	20	4478
2026-01-08 11:42:20.41	216.98	18.34	-30.0	-31.5	13.2	3.12e-05	0	43	0	261095424	20	4284
2026-01-08 11:42:23.43	217.47	18.61	-30.2	-31.9	13.0	4.42e-05	0	43	0	267386880	20	4406
2026-01-08 11:42:26.43	217.96	18.89	-30.0	-31.5	13.3	3.12e-05	0	43	0	272629760	20	4257
2026-01-08 11:42:29.45	218.46	19.17	-29.9	-31.2	13.5	6.80e-06	0	43	0	278921216	20	4179
2026-01-08 11:42:32.46	218.97	19.45	-29.7	-30.6	13.9	4.50e-06	0	43	0	284164096	20	3999
2026-01-08 11:42:35.48	219.50	19.73	-29.5	-30.2	14.2	7.00e-07	0	43	0	289406976	20	3887
2026-01-08 11:42:38.49	220.03	20.01	-29.3	-29.6	14.5	7.00e-07	0	43	0	295698432	20	3720
2026-01-08 11:42:41.50	220.57	20.29	-29.5	-30.6	14.3	1.50e-06	0	43	0	300941312	19	4062
2026-01-08 11:42:44.52	221.12	20.57	-29.4	-30.4	14.5	2.20e-06	0	43	0	307232768	19	4022
2026-01-08 11:42:47.53	221.67	20.85	-29.4	-30.3	14.5	7.00e-07	0	43	0	312475648	19	4003
2026-01-08 11:42:50.55	222.25	21.13	-29.3	-30.1	14.7	0.00e+00	0	43	0	317718528	19	3928
2026-01-08 11:42:53.56	222.82	21.42	-29.2	-29.7	14.9	1.50e-06	0	43	0	324009984	19	3837
2026-01-08 11:42:56.58	223.42	21.70	-29.0	-29.2	15.2	0.00e+00	0	43	0	329252864	19	3689
2026-01-08 11:42:59.60	224.02	21.98	-28.8	-28.8	15.5	0.00e+00	0	43	0	335544320	19	3590
2026-01-08 11:43:02.62	224.63	22.27	-28.9	-29.4	15.4	0.00e+00	0	43	0	340787200	18	3844
2026-01-08 11:43:05.63	225.25	22.55	-28.5	-28.6	16.0	3.00e-06	0	43	0	346030080	18	3618
2026-01-08 11:43:08.64	225.89	22.83	-28.7	-29.1	15.6	3.80e-06	0	43	0	352321536	18	3759
2026-01-08 11:43:11.67	226.53	23.12	-29.2	-30.3	14.9	4.50e-06	0	43	0	357564416	18	4065
2026-01-08 11:43:14.69	227.19	23.40	-29.6	-30.8	14.3	7.00e-07	0	43	0	363855872	19	4114
2026-01-08 11:43:17.71	227.86	23.68	-29.5	-30.6	14.5	0.00e+00	0	43	0	369098752	19	4065
2026-01-08 11:43:20.73	228.54	23.96	-29.5	-30.4	14.6	8.30e-06	0	43	0	374341632	19	3996
2026-01-08 11:43:23.75	229.24	24.24	-29.6	-30.9	14.3	1.06e-05	0	43	0	380633088	19	4148
2026-01-08 11:43:26.77	229.94	24.52	-29.4	-30.1	14.8	6.80e-06	0	43	0	385875968	19	3941
2026-01-08 11:43:29.80	230.66	24.79	-29.5	-30.4	14.7	5.30e-06	0	43	0	392167424	19	4002
2026-01-08 11:43:32.81	231.39	25.07	-29.2	-29.7	15.0	5.30e-06	0	43	0	397410304	19	3811
2026-01-08 11:43:35.84	232.13	25.34	-29.1	-29.4	15.3	0.00e+00	0	43	0	402653184	19	3728
2026-01-08 11:43:38.86	232.89	25.61	-29.3	-29.9	15.0	0.00e+00	0	43	0	408944640	19	3875
2026-01-08 11:43:41.88	233.66	25.88	-30.1	-31.5	13.6	4.50e-06	0	43	0	414187520	20	4245
2026-01-08 11:43:44.90	234.44	26.14	-29.8	-30.7	14.1	1.50e-06	0	43	0	420478976	20	3997
2026-01-08 11:43:47.91	235.23	26.40	-29.5	-29.9	14.7	3.80e-06	0	43	0	425721856	20	3774
2026-01-08 11:43:50.93	236.03	26.66	-29.3	-29.5	14.9	0.00e+00	0	43	0	430964736	20	3666
2026-01-08 11:43:53.94	236.85	26.91	-29.6	-30.1	14.5	0.00e+00	0	43	0	437256192	20	3827
2026-01-08 11:43:56.96	237.68	27.16	-29.6	-30.3	14.4	0.00e+00	0	43	0	442499072	20	3880
2026-01-08 11:43:59.98	238.53	27.41	-29.4	-29.7	14.8	7.00e-07	0	43	0	448790528	20	3714
2026-01-08 11:44:02.98	239.38	27.65	-29.7	-30.5	14.3	0.00e+00	0	43	0	454033408	20	3937
2026-01-08 11:44:06.00	240.25	27.89	-30.0	-31.1	13.9	7.00e-07	0	43	0	459276288	20	4118
2026-01-08 11:44:09.01	241.13	28.12	-29.8	-30.7	14.1	3.80e-06	0	43	0	465567744	20	3998
2026-01-08 11:44:12.03	242.02	28.35	-29.7	-30.5	14.3	3.80e-06	0	43	0	470810624	20	3933
2026-01-08 11:44:15.04	242.92	28.57	-29.9	-31.0	14.0	3.00e-06	0	43	0	476053504	20	4065
2026-01-08 11:44:18.06	243.84	28.78	-30.2	-31.6	13.6	3.80e-06	0	43	0	482344960	20	4263
2026-01-08 11:44:21.08	244.77	28.99	-30.6	-32.3	12.8	4.42e-05	0	43	0	487587840	21	4395
2026-01-08 11:44:24.10	245.72	29.19	-30.3	-31.4	13.5	3.80e-06	0	43	0	493879296	21	4101
2026-01-08 11:44:27.12	246.67	29.39	-30.8	-32.8	12.6	9.91e-05	0	43	0	499122176	21	4554
2026-01-08 11:44:30.14	247.63	29.57	-30.3	-31.5	13.4	1.22e-05	0	43	0	504365056	21	4124
2026-01-08 11:44:33.16	248.61	29.75	-30.6	-32.5	12.8	3.96e-05	0	43	0	510656512	21	4436
2026-01-08 11:44:36.17	249.59	29.92	-31.2	-33.5	11.8	4.67e-04	0	43	0	515899392	22	4684
2026-01-08 11:44:39.19	250.59	30.09	-31.6	-34.2	10.8	2.13e-03	0	43	0	522190848	23	4866
2026-01-08 11:44:42.21	251.59	30.24	-31.1	-32.6	11.9	4.41e-04	0	43	0	527433728	23	4316
2026-01-08 11:44:45.22	252.61	30.39	-31.3	-33.4	11.5	7.88e-04	0	43	0	532676608	23	4592
2026-01-08 11:44:48.25	253.63	30.53	-31.3	-33.5	11.4	6.94e-04	0	43	0	538968064	23	4592
2026-01-08 11:44:51.26	254.66	30.65	-30.6	-31.9	12.9	8.01e-05	0	43	0	544210944	22	4154
2026-01-08 11:44:54.27	255.70	30.77	-31.1	-33.3	11.9	1.85e-04	0	43	0	550502400	22	4622
2026-01-08 11:44:57.29	256.75	30.88	-30.7	-32.1	12.7	1.16e-04	0	43	0	555745280	22	4231
2026-01-08 11:45:00.31	257.80	30.98	-30.8	-32.4	12.5	1.08e-04	0	43	0	560988160	22	4315
2026-01-08 11:45:03.33	258.86	31.07	-30.0	-30.7	13.9	2.20e-06	0	43	0	567279616	21	3907
2026-01-08 11:45:06.35	259.92	31.15	-31.0	-33.5	12.2	1.38e-04	0	43	0	572522496	21	4778
2026-01-08 11:45:09.36	260.99	31.21	-31.0	-32.8	12.2	3.17e-04	0	43	0	578813952	22	4464
2026-01-08 11:45:12.39	262.07	31.27	-30.1	-30.9	13.8	7.60e-06	0	43	0	584056832	21	3964
2026-01-08 11:45:15.40	263.14	31.32	-29.5	-29.8	14.8	0.00e+00	0	43	0	589299712	20	3733
2026-01-08 11:45:18.42	264.22	31.35	-30.5	-32.5	13.1	3.80e-06	0	43	0	595591168	20	4540
2026-01-08 11:45:21.44	265.30	31.38	-30.7	-32.5	12.8	4.27e-05	0	43	0	600834048	21	4432
2026-01-08 11:45:24.46	266.38	31.39	-30.6	-32.2	13.0	2.05e-05	0	43	0	607125504	21	4340
2026-01-08 11:45:27.48	267.46	31.39	-30.3	-31.4	13.5	2.51e-05	0	43	0	612368384	21	4089
2026-01-08 11:45:30.49	268.54	31.38	-30.0	-30.6	14.0	7.00e-07	0	43	0	617611264	21	3865
2026-01-08 11:45:33.50	269.62	31.36	-29.3	-29.8	14.3	0.00e+00	0	43	0	623902720	20	3841
2026-01-08 11:45:36.52	270.70	31.33	-29.6	-30.3	14.5	0.00e+00	0	43	0	629145600	20	3867
2026-01-08 11:45:39.53	271.77	31.29	-30.6	-32.4	12.8	4.27e-05	0	43	0	635437056	21	4414
2026-01-08 11:45:42.56	272.85	31.24	-30.4	-31.9	13.2	2.05e-05	0	43	0	640679936	21	4236
2026-01-08 11:45:45.58	273.92	31.17	-30.4	-31.9	13.1	2.89e-05	0	43	0	645922816	21	4247
2026-01-08 11:45:48.59	274.98	31.10	-30.0	-30.7	14.0	2.20e-06	0	43	0	652214272	21	3898
2026-01-08 11:45:51.60	276.04	31.01	-30.2	-31.2	13.6	1.06e-05	0	43	0	657457152	21	4045
2026-01-08 11:45:54.62	277.09	30.92	-30.4	-31.6	13.4	6.10e-06	0	43	0	663748608	21	4170
2026-01-08 11:45:57.64	278.14	30.82	-31.1	-33.1	12.0	2.28e-04	0	43	0	668991488	22	4560
2026-01-08 11:46:00.65	279.18	30.70	-31.6	-34.1	11.0	1.27e-03	0	43	0	674234368	23	4822
2026-01-08 11:46:03.66	280.21	30.58	-31.3	-33.3	11.6	1.15e-03	0	43	0	680525824	23	4528
2026-01-08 11:46:06.67	281.23	30.44	-30.8	-32.4	12.6	8.01e-05	0	43	0	685768704	22	4302
2026-01-08 11:46:09.69	282.24	30.30	-31.9	-35.3	10.2	4.93e-03	0	44	0	692060160	23	5316
2026-01-08 11:46:12.71	283.25	30.15	-31.6	-33.6	11.0	1.38e-03	0	43	0	697303040	24	4576
2026-01-08 11:46:15.72	284.25	29.99	-31.5	-33.5	11.1	2.88e-03	0	43	0	702545920	24	4531
2026-01-08 11:46:18.73	285.23	29.82	-31.2	-33.0	11.8	2.31e-04	0	43	0	708837376	23	4440
2026-01-08 11:46:21.74	286.20	29.65	-31.4	-33.8	11.2	1.53e-03	0	43	0	714080256	23	4706
2026-01-08 11:46:24.76	287.17	29.46	-31.2	-32.9	11.9	9.50e-04	0	43	0	719323136	23	4387
2026-01-08 11:46:27.77	288.12	29.27	-31.1	-33.1	12.0	2.28e-04	0	43	0	725614592	22	4553
2026-01-08 11:46:30.79	289.07	29.07	-31.0	-32.8	12.3	2.23e-04	0	44	0	730857472	22	4451
2026-01-08 11:46:33.81	290.00	28.87	-30.6	-31.9	12.8	3.50e-05	0	43	0	737148928	22	4158
2026-01-08 11:46:36.82	290.92	28.66	-31.1	-33.2	12.0	4.26e-04	0	43	0	742391808	22	4577
2026-01-08 11:46:39.83	291.82	28.44	-31.3	-33.7	11.1	1.15e-03	0	43	0	747634688	23	4739
2026-01-08 11:46:42.85	292.72	28.22	-31.5	-34.2	10.8	2.37e-03	0	44	0	753926144	23	4908
2026-01-08 11:46:45.87	293.60	27.99	-30.6	-31.9	12.7	6.40e-05	0	43	0	759169024	22	4204
2026-01-08 11:46:48.88	294.47	27.76	-31.6	-34.7	10.3	2.96e-03	0	43	0	765460480	23	5147
2026-01-08 11:46:51.89	295.33	27.52	-31.9	-35.6	9.7	1.03e-02	0	43	0	770703360	23	5514
2026-01-08 11:46:54.91	296.17	27.28	-32.0	-35.6	9.4	1.42e-02	0	44	0	775946240	24	5418
2026-01-08 11:46:57.93	297.01	27.03	-31.8	-34.7	10.0	9.88e-03	0	43	0	782237696	24	5042
2026-01-08 11:47:00.94	297.83	26.78	-31.3	-33.8	11.0	1.58e-03	0	43	0	787480576	23	4777
2026-01-08 11:47:03.95	298.63	26.53	-31.5	-34.3	10.6	3.11e-03	0	43	0	793772032	23	4977
2026-01-08 11:47:06.97	299.43	26.27	-31.7	-35.3	9.8	6.87e-03	0	43	0	799014912	23	5415
2026-01-08 11:47:09.98	300.21	26.01	-31.5	-34.5	10.5	5.61e-03	0	43	0	804257792	23	5091
2026-01-08 11:47:12.99	300.97	25.74	-31.2	-33.4	11.2	1.85e-03	0	44	0	810549248	23	4655
2026-01-08 11:47:16.01	301.73	25.48	-30.9	-32.6	11.8	9.62e-04	0	43	0	815792128	23	4363
2026-01-08 11:47:19.03	302.48	25.21	-30.8	-32.7	12.0	3.12e-04	0	43	0	822083584	22	4483
2026-01-08 11:47:22.05	303.21	24.94	-31.0	-33.3	11.6	7.35e-04	0	43	0	827326464	22	4690
2026-01-08 11:47:25.07	303.93	24.66	-30.4	-31.6	12.8	8.62e-05	0	44	0	832569344	22	4108
2026-01-08 11:47:28.09	304.64	24.39	-30.7	-32.9	12.2	9.00e-05	0	44	0	838860800	21	4639
2026-01-08 11:47:31.12	305.33	24.11	-30.7	-32.8	12.2	4.03e-04	0	44	0	844103680	21	4629
2026-01-08 11:47:34.13	306.02	23.83	-30.4	-31.9	12.9	3.73e-05	0	44	0	850395136	21	4315
2026-01-08 11:47:37.15	306.69	23.55	-30.9	-33.7	11.7	3.85e-04	0	43	0	855638016	21	4930
2026-01-08 11:47:40.16	307.35	23.28	-30.5	-31.9	12.5	2.93e-04	0	43	0	860880896	22	4224
2026-01-08 11:47:43.16	307.99	23.00	-29.9	-30.6	13.8	1.22e-05	0	43	0	867172352	21	3921
2026-01-08 11:47:46.17	308.63	22.72	-29.7	-30.6	14.1	5.30e-06	0	43	0	872415232	20	4006
2026-01-08 11:47:49.19	309.25	22.44	-29.3	-29.6	14.6	7.00e-07	0	44	0	877658112	20	3719
2026-01-08 11:47:52.21	309.87	22.15	-30.4	-32.6	12.7	6.86e-05	0	43	0	883949568	20	4624
2026-01-08 11:47:55.22	310.47	21.87	-31.8	-35.7	9.3	1.48e-02	0	43	0	889192448	23	5648
2026-01-08 11:47:58.25	311.07	21.59	-31.0	-32.8	11.5	2.87e-03	0	43	0	895483904	23	4434
2026-01-08 11:48:01.27	311.65	21.31	-30.2	-31.4	13.1	2.67e-05	0	43	0	900726784	21	4174
2026-01-08 11:48:04.28	312.22	21.03	-30.5	-32.3	12.5	1.05e-04	0	43	0	905969664	21	4452
2026-01-08 11:48:07.30	312.79	20.75	-29.3	-29.6	14.5	1.50e-06	0	43	0	912261120	20	3747
2026-01-08 11:48:10.32	313.34	20.47	-29.2	-29.7	14.9	0.00e+00	0	43	0	917504000	19	3849
2026-01-08 11:48:13.34	313.88	20.19	-29.7	-31.1	14.1	0.00e+00	0	43	0	923795456	19	4227
2026-01-08 11:48:16.35	314.42	19.91	-29.5	-30.7	14.2	0.00e+00	0	43	0	929038336	19	4124
2026-01-08 11:48:19.38	314.94	19.63	-29.7	-31.1	14.0	3.00e-06	0	43	0	934281216	19	4241
2026-01-08 11:48:22.38	315.45	19.35	-30.2	-32.2	12.9	3.05e-05	0	43	0	940572672	20	4508
2026-01-08 11:48:25.41	315.96	19.08	-29.8	-31.1	13.5	1.22e-05	0	43	0	945815552	20	4164
2026-01-08 11:48:28.42	316.46	18.80	-29.8	-31.0	13.6	5.30e-06	0	44	0	952107008	20	4137
2026-01-08 11:48:31.44	316.95	18.53	-29.6	-30.3	14.1	3.00e-06	0	43	0	957349888	20	3937
2026-01-08 11:48:34.46	317.43	18.25	-29.6	-30.4	14.0	4.50e-06	0	43	0	962592768	20	3965
2026-01-08 11:48:37.47	317.90	17.98	-29.6	-30.4	14.0	2.20e-06	0	44	0	968884224	20	3941
2026-01-08 11:48:40.49	318.36	17.71	-29.1	-29.7	14.8	0.00e+00	0	43	0	974127104	19	3834
2026-01-08 11:48:43.50	318.82	17.44	-29.2	-30.0	14.6	1.50e-06	0	43	0	980418560	19	3912
2026-01-08 11:48:46.52	319.26	17.17	-29.5	-30.6	14.2	1.50e-06	0	43	0	985661440	19	4091
2026-01-08 11:48:49.54	319.71	16.91	-29.4	-30.4	14.4	0.00e+00	0	43	0	990904320	19	4029
2026-01-08 11:48:52.56	320.14	16.64	-29.3	-30.3	14.4	7.00e-07	0	43	0	997195776	19	3997
2026-01-08 11:48:55.58	320.56	16.38	-29.3	-30.1	14.5	7.00e-07	0	43	0	1002438656	19	3964
2026-01-08 11:48:58.60	320.98	16.11	-29.4	-30.6	14.1	2.20e-06	0	43	0	1008730112	19	4101
2026-01-08 11:49:01.61	321.39	15.85	-29.5	-30.8	14.0	5.30e-06	0	43	0	1013972992	19	4171
2026-01-08 11:49:04.63	321.80	15.59	-29.5	-30.7	14.0	2.20e-06	0	43	0	1019215872	19	4144
2026-01-08 11:49:07.64	322.19	15.34	-29.3	-30.3	14.3	3.00e-06	0	43	0	1025507328	19	4010
2026-01-08 11:49:10.65	322.58	15.08	-29.3	-30.2	14.2	4.50e-06	0	43	0	1030750208	19	4005
2026-01-08 11:49:13.66	322.97	14.83	-29.7	-31.1	13.7	4.50e-06	0	43	0	1035993088	19	4252
2026-01-08 11:49:16.67	323.35	14.57	-30.1	-31.8	12.8	2.89e-05	0	44	0	1042284544	20	4396
2026-01-08 11:49:19.68	323.72	14.32	-30.3	-32.4	12.3	1.93e-04	0	43	0	1047527424	20	4604
2026-01-08 11:49:22.69	324.08	14.07	-30.2	-32.2	12.6	7.17e-05	0	43	0	1053818880	20	4525
2026-01-08 11:49:25.71	324.44	13.82	-30.0	-31.5	13.0	2.59e-05	0	43	0	1059061760	20	4306
2026-01-08 11:49:28.73	324.80	13.57	-30.1	-31.9	12.8	6.40e-05	0	43	0	1064304640	20	4426
2026-01-08 11:49:31.76	325.15	13.33	-30.5	-32.6	11.9	4.36e-04	0	44	0	1070596096	21	4594
2026-01-08 11:49:34.76	325.49	13.08	-30.8	-33.6	11.2	9.40e-04	0	44	0	1075838976	21	4936
2026-01-08 11:49:37.78	325.83	12.84	-30.8	-33.6	11.2	1.97e-03	0	44	0	1082130432	21	4971
2026-01-08 11:49:40.79	326.16	12.60	-30.8	-33.5	11.2	1.06e-03	0	43	0	1087373312	21	4924
2026-01-08 11:49:43.81	326.49	12.36	-30.7	-33.2	11.4	7.22e-04	0	43	0	1092616192	21	4825
2026-01-08 11:49:46.82	326.81	12.12	-31.0	-34.1	10.8	1.63e-03	0	43	0	1098907648	21	5160
2026-01-08 11:49:49.84	327.13	11.88	-30.9	-33.2	11.0	1.81e-03	0	44	0	1104150528	22	4739
2026-01-08 11:49:52.85	327.44	11.65	-30.9	-33.3	11.0	2.49e-03	0	44	0	1110441984	22	4765
2026-01-08 11:49:55.88	327.75	11.42	-30.6	-32.3	11.6	7.26e-04	0	44	0	1115684864	22	4413
2026-01-08 11:49:58.90	328.05	11.18	-30.1	-31.6	12.5	1.39e-04	0	44	0	1120927744	21	4244
2026-01-08 11:50:01.92	328.35	10.95	-30.0	-31.1	12.8	6.17e-05	0	43	0	1127219200	21	4093
2026-01-08 11:50:04.94	328.65	10.72	-30.2	-31.7	12.4	8.23e-05	0	43	0	1132462080	21	4290
2026-01-08 11:50:07.96	328.94	10.50	-30.3	-32.1	12.1	2.62e-04	0	43	0	1138753536	21	4439
2026-01-08 11:50:10.96	329.22	10.27	-30.6	-33.0	11.4	5.05e-04	0	43	0	1143996416	21	4745
2026-01-08 11:50:13.98	329.51	10.05	-30.8	-33.6	11.0	2.24e-03	0	44	0	1149239296	21	4971
2026-01-08 11:50:17.00	329.78	9.82	-30.7	-33.4	11.1	1.98e-03	0	44	0	1155530752	21	4924
2026-01-08 11:50:20.03	330.06	9.60	-30.7	-33.4	11.1	1.67e-03	0	43	0	1160773632	21	4920
2026-01-08 11:50:23.05	330.33	9.38	-30.6	-33.1	11.3	9.99e-04	0	43	0	1167065088	21	4807
2026-01-08 11:50:26.07	330.59	9.16	-30.4	-32.5	11.6	7.00e-04	0	44	0	1172307968	21	4581
2026-01-08 11:50:29.08	330.86	8.94	-30.6	-33.1	11.1	1.14e-03	0	43	0	1177550848	21	4824
2026-01-08 11:50:32.10	331.12	8.73	-30.2	-32.0	12.0	3.54e-04	0	43	0	1183842304	21	4412
2026-01-08 11:50:35.12	331.37	8.51	-30.2	-32.0	12.0	3.31e-04	0	43	0	1189085184	21	4414
2026-01-08 11:50:38.13	331.62	8.30	-30.2	-32.0	11.9	3.36e-04	0	43	0	1195376640	21	4411
2026-01-08 11:50:41.15	331.87	8.09	-30.2	-32.1	11.8	4.11e-04	0	43	0	1200619520	21	4468
2026-01-08 11:50:44.17	332.11	7.88	-30.2	-32.0	11.8	4.79e-04	0	43	0	1205862400	21	4439
2026-01-08 11:50:47.19	332.36	7.67	-30.1	-31.7	12.0	2.77e-04	0	43	0	1212153856	21	4349
2026-01-08 11:50:50.20	332.59	7.46	-30.1	-31.8	11.9	3.11e-04	0	43	0	1217396736	21	4381
2026-01-08 11:50:53.22	332.83	7.25	-30.2	-32.0	11.8	3.88e-04	0	43	0	1223688192	21	4444
2026-01-08 11:50:56.23	333.06	7.05	-33.3	-45.8	3.8	1.49e+00	0	44	104	1226833920	26	15146
2026-01-08 11:50:59.25	333.29	6.85	-33.9	-46.5	3.8	1.49e+00	0	44	104	1226833920	27	15380

#Closed at: 2026-01-08 11:51:00
#Recorded file [1226 MB]: D:/data/31010_260108_144000.dat