passes_logs/2026/01/08/R2M6_AANII_01/R2M6_AANII_01__20260108_142522_FENGYUN_3E_rec.log

#Pass ID: 20260108_142522_FENGYUN 3E
#Satellite: FENGYUN 3E
#Configuration: FENGYUN 3E
#almurnet v.1.7.20240730
#Start time: 2026-01-08 14:31:04

#Version: 2.2.20231116
#Station: R2M6_AANII_01
#Location: 30.233357 lon 59.946436 lat
#TLE: 1 49008U 21062A   26007.88844255 -.00000338  00000+0 -13865-3 0  9992
#TLE: 2 49008  98.7481  13.0996 0001694 151.5348 208.5921 14.19883289233834

#Time	Az	El	Level	Level2	SNR	BER	BlckErr	Temp	State	Recorded	gain1	gain2
2026-01-08 14:31:04.51	114.32	77.03	-33.3	-44.6	3.8	8.46e-01	0	43	0	0	26	13244
2026-01-08 14:31:06.49	111.05	77.71	-33.9	-43.3	3.8	8.45e-01	0	43	104	0	28	10527
2026-01-08 14:31:08.50	107.33	78.36	-34.0	-43.4	3.8	8.46e-01	0	43	104	0	28	10618
2026-01-08 14:31:10.50	103.20	78.96	-34.0	-43.5	3.8	8.45e-01	0	43	104	0	28	10650
2026-01-08 14:31:12.50	98.61	79.50	-34.0	-43.5	3.8	8.46e-01	0	43	104	0	28	10644
2026-01-08 14:31:14.51	93.52	79.97	-34.0	-43.1	3.8	8.45e-01	0	43	104	0	28	10245
2026-01-08 14:31:16.50	88.03	80.35	-34.0	-43.1	3.8	8.46e-01	0	43	104	0	28	10290
2026-01-08 14:31:18.49	82.15	80.63	-33.9	-42.9	3.8	8.47e-01	0	43	104	0	28	10093
2026-01-08 14:31:20.49	75.92	80.82	-34.0	-43.3	3.8	8.46e-01	0	43	104	0	28	10473
2026-01-08 14:31:22.48	69.55	80.89	-34.0	-43.2	3.8	8.46e-01	0	43	104	0	28	10312
2026-01-08 14:31:24.48	63.12	80.85	-34.1	-43.6	3.8	8.45e-01	0	43	104	0	28	10738
2026-01-08 14:31:26.47	56.86	80.70	-34.1	-43.5	3.8	8.46e-01	0	43	104	0	28	10628
2026-01-08 14:31:28.49	50.78	80.44	-34.0	-43.4	3.8	8.46e-01	0	43	104	0	28	10593
2026-01-08 14:31:30.50	45.12	80.09	-34.0	-43.3	3.8	8.46e-01	0	43	104	0	28	10500
2026-01-08 14:31:32.51	39.90	79.64	-34.0	-43.3	3.8	8.45e-01	0	43	104	0	28	10453
2026-01-08 14:31:34.51	35.18	79.12	-34.0	-43.3	3.8	8.48e-01	0	43	104	0	28	10492
2026-01-08 14:31:36.50	30.94	78.54	-34.0	-43.3	3.8	8.47e-01	0	43	104	0	28	10517
2026-01-08 14:31:38.49	27.14	77.91	-34.0	-43.2	3.8	8.45e-01	0	43	104	0	28	10434
2026-01-08 14:31:40.49	23.72	77.23	-34.0	-43.4	3.8	8.46e-01	0	43	104	0	28	10620
2026-01-08 14:31:42.50	20.65	76.51	-34.0	-43.1	3.8	8.46e-01	0	43	104	0	28	10297
2026-01-08 14:31:44.50	17.92	75.77	-33.9	-42.4	3.8	8.45e-01	0	43	104	0	28	9582
2026-01-08 14:31:46.50	15.48	75.00	-34.0	-42.9	3.8	8.46e-01	0	43	104	0	28	10122
2026-01-08 14:31:48.50	13.29	74.21	-34.0	-43.4	3.8	8.46e-01	0	43	104	0	28	10613
2026-01-08 14:31:50.51	11.31	73.40	-33.9	-42.4	3.8	8.47e-01	0	43	104	0	28	9576
2026-01-08 14:31:52.52	9.52	72.58	-34.0	-43.2	3.8	8.47e-01	0	43	104	0	28	10452
2026-01-08 14:31:54.53	7.90	71.76	-34.0	-43.1	3.8	8.46e-01	0	43	104	0	28	10348
2026-01-08 14:31:56.53	6.44	70.93	-32.4	-35.7	6.1	6.75e-01	0	43	104	0	26	5224
2026-01-08 14:31:58.52	5.12	70.10	-28.2	-28.8	13.2	1.91e-04	0	43	0	8388608	17	3871
2026-01-08 14:32:00.53	3.89	69.26	-26.5	-27.5	15.2	0.00e+00	0	43	0	23068672	12	4068
2026-01-08 14:32:02.53	2.78	68.42	-25.5	-25.4	16.4	0.00e+00	0	43	0	37748736	12	3556
2026-01-08 14:32:04.53	1.76	67.59	-24.0	-23.6	18.1	0.00e+00	0	43	0	52428800	9	3473
2026-01-08 14:32:06.52	0.82	66.76	-23.7	-23.6	18.3	0.00e+00	0	43	0	67108864	8	3567
2026-01-08 14:32:08.52	359.94	65.93	-24.2	-24.7	17.8	0.00e+00	0	43	0	80740352	8	3801
2026-01-08 14:32:10.51	359.14	65.11	-23.7	-23.6	18.3	0.00e+00	0	43	0	95420416	8	3554
2026-01-08 14:32:12.51	358.39	64.29	-23.8	-23.8	18.2	0.00e+00	0	43	0	110100480	8	3598
2026-01-08 14:32:14.51	357.69	63.47	-24.4	-25.2	17.4	0.00e+00	0	43	0	124780544	8	3938
2026-01-08 14:32:16.51	357.04	62.66	-24.4	-24.6	17.5	0.00e+00	0	43	0	138412032	9	3691
2026-01-08 14:32:18.52	356.43	61.85	-24.3	-24.4	17.5	0.00e+00	0	43	0	153092096	9	3629
2026-01-08 14:32:20.50	355.87	61.06	-24.3	-24.4	17.6	0.00e+00	0	43	0	167772160	9	3629
2026-01-08 14:32:22.50	355.33	60.27	-24.7	-25.2	17.2	0.00e+00	0	43	0	181403648	9	3822
2026-01-08 14:32:24.51	354.83	59.49	-24.7	-25.3	17.2	0.00e+00	0	43	0	196083712	9	3841
2026-01-08 14:32:26.49	354.36	58.72	-24.8	-25.4	17.1	0.00e+00	0	43	0	210763776	9	3878
2026-01-08 14:32:28.50	353.91	57.95	-24.6	-25.1	17.2	0.00e+00	0	43	0	225443840	9	3789
2026-01-08 14:32:30.50	353.49	57.20	-24.5	-24.7	17.4	0.00e+00	0	43	0	239075328	9	3710
2026-01-08 14:32:32.50	353.09	56.45	-24.9	-25.7	16.9	0.00e+00	0	43	0	253755392	9	3941
2026-01-08 14:32:34.50	352.72	55.71	-25.0	-25.4	16.7	0.00e+00	0	43	0	268435456	10	3778
2026-01-08 14:32:36.49	352.36	54.98	-24.9	-25.2	16.9	0.00e+00	0	43	0	283115520	10	3717
2026-01-08 14:32:38.49	352.02	54.26	-24.5	-24.3	17.4	0.00e+00	0	43	0	296747008	10	3532
2026-01-08 14:32:40.49	351.70	53.54	-24.4	-24.2	17.5	0.00e+00	0	43	0	311427072	10	3492
2026-01-08 14:32:42.49	351.40	52.84	-24.5	-24.8	17.3	0.00e+00	0	43	0	326107136	9	3729
2026-01-08 14:32:44.50	351.10	52.14	-24.8	-25.5	16.9	0.00e+00	0	43	0	340787200	9	3883
2026-01-08 14:32:46.49	350.83	51.46	-24.6	-25.1	17.2	0.00e+00	0	43	0	355467264	9	3798
2026-01-08 14:32:48.49	350.56	50.78	-24.6	-25.0	17.2	0.00e+00	0	43	0	369098752	9	3769
2026-01-08 14:32:50.49	350.31	50.11	-24.4	-24.7	17.4	0.00e+00	0	43	0	383778816	9	3695
2026-01-08 14:32:52.50	350.06	49.45	-24.4	-24.6	17.4	0.00e+00	0	43	0	398458880	9	3679
2026-01-08 14:32:54.49	349.83	48.81	-24.5	-24.8	17.3	0.00e+00	0	43	0	413138944	9	3743
2026-01-08 14:32:56.49	349.61	48.16	-24.3	-24.4	17.5	0.00e+00	0	43	0	426770432	9	3645
2026-01-08 14:32:58.49	349.40	47.53	-24.0	-23.7	17.8	0.00e+00	0	43	0	441450496	9	3499
2026-01-08 14:33:00.48	349.20	46.91	-24.0	-23.8	17.8	0.00e+00	0	43	0	456130560	9	3510
2026-01-08 14:33:02.49	349.00	46.30	-23.4	-23.5	17.6	0.00e+00	0	43	0	470810624	7	3652
2026-01-08 14:33:04.49	348.81	45.69	-23.3	-23.4	18.5	0.00e+00	0	43	0	484442112	7	3621
2026-01-08 14:33:06.49	348.63	45.09	-23.4	-23.5	18.4	0.00e+00	0	43	0	499122176	7	3632
2026-01-08 14:33:08.48	348.46	44.51	-23.0	-22.7	18.8	0.00e+00	0	43	0	513802240	7	3466
2026-01-08 14:33:10.48	348.29	43.93	-23.2	-23.0	18.6	0.00e+00	0	43	0	528482304	7	3536
2026-01-08 14:33:12.48	348.13	43.36	-23.1	-22.8	18.7	0.00e+00	0	43	0	543162368	7	3501
2026-01-08 14:33:14.48	347.98	42.79	-23.0	-22.7	18.8	0.00e+00	0	43	0	556793856	7	3482
2026-01-08 14:33:16.47	347.83	42.24	-23.3	-23.2	18.5	0.00e+00	0	43	0	571473920	7	3590
2026-01-08 14:33:18.47	347.68	41.69	-23.5	-23.7	18.3	0.00e+00	0	43	0	586153984	7	3688
2026-01-08 14:33:20.46	347.54	41.16	-23.8	-24.3	17.9	0.00e+00	0	43	0	600834048	7	3839
2026-01-08 14:33:22.46	347.41	40.62	-23.7	-24.2	18.0	0.00e+00	0	43	0	614465536	7	3806
2026-01-08 14:33:24.46	347.28	40.10	-23.9	-24.6	17.8	0.00e+00	0	43	0	629145600	7	3895
2026-01-08 14:33:26.46	347.15	39.58	-23.7	-24.2	17.9	0.00e+00	0	43	0	643825664	7	3811
2026-01-08 14:33:28.45	347.03	39.08	-23.7	-24.2	18.0	0.00e+00	0	43	0	657457152	7	3807
2026-01-08 14:33:30.46	346.91	38.57	-23.9	-24.5	17.8	0.00e+00	0	43	0	672137216	7	3885
2026-01-08 14:33:32.46	346.80	38.08	-23.8	-24.4	17.9	0.00e+00	0	43	0	686817280	7	3863
2026-01-08 14:33:34.46	346.69	37.59	-23.8	-24.4	17.9	0.00e+00	0	43	0	701497344	7	3856
2026-01-08 14:33:36.45	346.58	37.11	-23.4	-23.6	18.3	0.00e+00	0	43	0	715128832	7	3664
2026-01-08 14:33:38.46	346.48	36.64	-23.4	-23.5	18.4	0.00e+00	0	43	0	730857472	7	3639
2026-01-08 14:33:40.46	346.38	36.17	-23.2	-23.2	18.5	0.00e+00	0	43	0	744488960	7	3585
2026-01-08 14:33:42.46	346.28	35.71	-22.9	-22.5	18.8	0.00e+00	0	43	0	759169024	7	3437
2026-01-08 14:33:44.46	346.19	35.25	-22.9	-23.0	18.8	0.00e+00	0	43	0	772800512	6	3630
2026-01-08 14:33:46.45	346.10	34.81	-22.7	-22.6	19.0	0.00e+00	0	43	0	787480576	6	3561
2026-01-08 14:33:48.45	346.01	34.37	-22.8	-22.7	18.9	0.00e+00	0	43	0	802160640	6	3579
2026-01-08 14:33:50.45	345.92	33.93	-22.7	-22.6	19.0	0.00e+00	0	43	0	816840704	6	3553
2026-01-08 14:33:52.45	345.84	33.50	-22.7	-22.5	19.0	0.00e+00	0	43	0	831520768	6	3539
2026-01-08 14:33:54.45	345.76	33.08	-22.9	-22.9	18.8	0.00e+00	0	43	0	845152256	6	3613
2026-01-08 14:33:56.44	345.68	32.66	-22.9	-23.1	18.7	0.00e+00	0	43	0	859832320	6	3656
2026-01-08 14:33:58.44	345.60	32.25	-23.2	-23.6	18.4	0.00e+00	0	43	0	874512384	6	3781
2026-01-08 14:34:00.43	345.53	31.84	-23.3	-23.8	18.3	0.00e+00	0	43	0	889192448	6	3824
2026-01-08 14:34:02.43	345.45	31.44	-23.4	-24.0	18.2	0.00e+00	0	43	0	902823936	6	3867
2026-01-08 14:34:04.42	345.38	31.05	-23.4	-24.1	17.8	0.00e+00	0	43	0	917504000	6	3895
2026-01-08 14:34:06.42	345.31	30.66	-23.2	-23.7	18.4	0.00e+00	0	43	0	932184064	6	3800
2026-01-08 14:34:08.43	345.25	30.27	-23.3	-23.9	18.2	0.00e+00	0	43	0	946864128	6	3843
2026-01-08 14:34:10.43	345.18	29.89	-23.2	-23.6	18.4	0.00e+00	0	43	0	960495616	6	3783
2026-01-08 14:34:12.42	345.12	29.52	-23.2	-23.6	18.4	0.00e+00	0	43	0	975175680	6	3770
2026-01-08 14:34:14.43	345.05	29.15	-23.1	-23.4	18.5	0.00e+00	0	43	0	989855744	6	3739
2026-01-08 14:34:16.43	344.99	28.78	-23.1	-23.4	18.5	0.00e+00	0	43	0	1004535808	6	3731
2026-01-08 14:34:18.41	344.94	28.42	-23.1	-23.5	18.5	0.00e+00	0	43	0	1019215872	6	3745
2026-01-08 14:34:20.41	344.88	28.07	-23.3	-23.8	18.3	0.00e+00	0	43	0	1032847360	6	3828
2026-01-08 14:34:22.42	344.82	27.71	-23.4	-24.1	18.1	0.00e+00	0	43	0	1047527424	6	3883
2026-01-08 14:34:24.42	344.77	27.37	-23.5	-24.2	18.1	0.00e+00	0	43	0	1062207488	6	3921
2026-01-08 14:34:26.41	344.71	27.02	-23.3	-23.9	18.2	0.00e+00	0	43	0	1076887552	6	3855
2026-01-08 14:34:28.40	344.66	26.69	-23.4	-24.1	18.1	0.00e+00	0	43	0	1090519040	6	3896
2026-01-08 14:34:30.40	344.61	26.35	-23.4	-24.0	18.1	0.00e+00	0	43	0	1105199104	6	3879
2026-01-08 14:34:32.41	344.56	26.02	-23.5	-24.2	18.0	0.00e+00	0	43	0	1119879168	6	3926
2026-01-08 14:34:34.42	344.51	25.69	-23.5	-24.2	18.0	0.00e+00	0	43	0	1134559232	6	3917
2026-01-08 14:34:36.42	344.46	25.37	-23.8	-24.3	17.7	0.00e+00	0	43	0	1148190720	7	3842
2026-01-08 14:34:38.42	344.42	25.05	-23.7	-24.2	17.8	0.00e+00	0	43	0	1162870784	7	3811
2026-01-08 14:34:40.42	344.37	24.74	-23.6	-24.0	17.8	0.00e+00	0	43	0	1177550848	7	3771
2026-01-08 14:34:42.41	344.33	24.43	-23.5	-23.8	17.9	0.00e+00	0	43	0	1192230912	7	3729
2026-01-08 14:34:44.40	344.29	24.12	-23.6	-23.9	17.9	0.00e+00	0	43	0	1205862400	7	3751
2026-01-08 14:34:46.40	344.24	23.82	-23.8	-24.3	17.7	0.00e+00	0	43	0	1220542464	7	3827
2026-01-08 14:34:48.39	344.20	23.52	-23.3	-23.4	18.1	0.00e+00	0	43	0	1235222528	7	3633
2026-01-08 14:34:50.39	344.16	23.22	-23.4	-23.5	18.1	0.00e+00	0	43	0	1248854016	7	3664
2026-01-08 14:34:52.39	344.12	22.93	-23.5	-23.7	18.0	0.00e+00	0	43	0	1263534080	7	3683
2026-01-08 14:34:54.38	344.08	22.64	-23.4	-23.5	18.0	0.00e+00	0	43	0	1278214144	7	3658
2026-01-08 14:34:56.40	344.05	22.35	-23.4	-23.6	18.0	0.00e+00	0	43	0	1292894208	7	3680
2026-01-08 14:34:58.40	344.01	22.06	-23.6	-23.9	17.8	0.00e+00	0	43	0	1307574272	7	3749
2026-01-08 14:35:00.39	343.97	21.78	-23.6	-24.0	17.8	0.00e+00	0	43	0	1321205760	7	3759
2026-01-08 14:35:02.38	343.94	21.51	-23.7	-24.2	17.6	0.00e+00	0	43	0	1335885824	7	3808
2026-01-08 14:35:04.38	343.90	21.23	-23.7	-24.2	17.7	0.00e+00	0	43	0	1350565888	7	3806
2026-01-08 14:35:06.37	343.87	20.96	-23.7	-24.2	17.7	0.00e+00	0	43	0	1365245952	7	3801
2026-01-08 14:35:08.36	343.84	20.69	-23.7	-24.3	17.6	0.00e+00	0	43	0	1378877440	7	3822
2026-01-08 14:35:10.36	343.81	20.43	-23.9	-24.7	17.4	0.00e+00	0	43	0	1393557504	7	3923
2026-01-08 14:35:12.37	343.77	20.16	-24.0	-24.9	17.3	0.00e+00	0	43	0	1408237568	7	3972
2026-01-08 14:35:14.37	343.74	19.90	-24.0	-24.9	17.2	1.10e-06	0	43	0	1422917632	7	3977
2026-01-08 14:35:16.37	343.71	19.64	-24.2	-24.7	17.1	0.00e+00	0	43	0	1436549120	8	3824
2026-01-08 14:35:18.38	343.68	19.39	-24.2	-24.7	17.1	0.00e+00	0	43	0	1451229184	8	3820
2026-01-08 14:35:20.39	343.65	19.13	-24.0	-24.4	17.2	0.00e+00	0	43	0	1465909248	8	3762
2026-01-08 14:35:22.41	343.63	18.88	-24.1	-24.5	17.2	0.00e+00	0	43	0	1480589312	8	3769
2026-01-08 14:35:24.42	343.60	18.63	-24.2	-24.8	17.0	0.00e+00	0	43	0	1495269376	8	3851
2026-01-08 14:35:26.44	343.57	18.38	-24.3	-25.0	16.9	0.00e+00	0	43	0	1509949440	8	3893
2026-01-08 14:35:28.45	343.54	18.14	-24.3	-25.0	16.9	0.00e+00	0	43	0	1523580928	8	3903
2026-01-08 14:35:30.47	343.52	17.90	-24.4	-25.2	16.8	0.00e+00	0	43	0	1539309568	8	3943
2026-01-08 14:35:32.48	343.49	17.66	-24.4	-25.1	16.8	0.00e+00	0	43	0	1552941056	8	3910
2026-01-08 14:35:34.50	343.47	17.42	-24.2	-24.9	16.9	0.00e+00	0	43	0	1567621120	8	3866
2026-01-08 14:35:36.51	343.44	17.19	-24.3	-25.1	16.8	0.00e+00	0	43	0	1582301184	8	3907
2026-01-08 14:35:38.53	343.42	16.95	-24.5	-25.3	16.7	0.00e+00	0	43	0	1596981248	8	3968
2026-01-08 14:35:40.54	343.39	16.72	-24.5	-25.4	16.6	0.00e+00	0	43	0	1611661312	8	3988
2026-01-08 14:35:42.55	343.37	16.50	-24.6	-25.6	16.5	0.00e+00	0	43	0	1625292800	8	4034
2026-01-08 14:35:44.56	343.35	16.27	-24.6	-25.2	16.5	0.00e+00	0	43	0	1641021440	9	3839
2026-01-08 14:35:46.57	343.32	16.05	-24.7	-25.4	16.4	0.00e+00	0	43	0	1654652928	9	3887
2026-01-08 14:35:48.59	343.30	15.82	-24.8	-25.6	16.2	0.00e+00	0	43	0	1669332992	9	3923
2026-01-08 14:35:50.60	343.28	15.60	-24.9	-25.8	16.1	0.00e+00	0	43	0	1684013056	9	3973
2026-01-08 14:35:52.61	343.26	15.39	-25.0	-25.5	16.0	0.00e+00	0	43	0	1698693120	10	3814
2026-01-08 14:35:54.62	343.24	15.17	-25.1	-25.7	15.9	0.00e+00	0	43	0	1713373184	10	3864
2026-01-08 14:35:56.64	343.22	14.95	-25.2	-25.9	15.8	0.00e+00	0	43	0	1728053248	10	3898
2026-01-08 14:35:58.66	343.20	14.74	-25.2	-25.9	15.8	0.00e+00	0	43	0	1741684736	10	3907
2026-01-08 14:36:00.66	343.18	14.53	-25.3	-26.1	15.6	0.00e+00	0	43	0	1756364800	10	3962
2026-01-08 14:36:02.67	343.16	14.32	-25.4	-26.4	15.4	0.00e+00	0	43	0	1771044864	10	4035
2026-01-08 14:36:04.68	343.14	14.12	-25.5	-26.5	15.4	0.00e+00	0	43	0	1785724928	10	4049
2026-01-08 14:36:06.70	343.13	13.91	-25.8	-26.6	15.1	0.00e+00	0	43	0	1800404992	11	3978
2026-01-08 14:36:08.71	343.11	13.71	-25.7	-26.5	15.1	0.00e+00	0	43	0	1815085056	11	3955
2026-01-08 14:36:10.73	343.09	13.51	-25.8	-26.7	15.0	2.20e-06	0	43	0	1829765120	11	4007
2026-01-08 14:36:12.74	343.07	13.31	-25.9	-26.9	14.9	0.00e+00	0	43	0	1843396608	11	4052
2026-01-08 14:36:14.75	343.06	13.11	-26.0	-27.1	14.8	0.00e+00	0	43	0	1858076672	11	4102
2026-01-08 14:36:16.75	343.04	12.91	-26.4	-27.5	14.2	3.40e-06	0	43	0	1872756736	12	4116
2026-01-08 14:36:18.77	343.02	12.72	-26.0	-26.8	14.6	0.00e+00	0	43	0	1887436800	12	3913
2026-01-08 14:36:20.79	343.01	12.52	-26.0	-26.6	14.7	1.10e-06	0	43	0	1902116864	12	3872
2026-01-08 14:36:22.80	342.99	12.33	-25.8	-26.3	14.8	0.00e+00	0	43	0	1916796928	12	3811
2026-01-08 14:36:24.81	342.98	12.14	-25.9	-26.4	14.7	0.00e+00	0	43	0	1931476992	12	3839
2026-01-08 14:36:26.83	342.96	11.95	-25.9	-26.5	14.6	0.00e+00	0	43	0	1945108480	12	3858
2026-01-08 14:36:28.84	342.95	11.76	-26.0	-26.7	14.5	0.00e+00	0	43	0	1959788544	12	3899
2026-01-08 14:36:30.86	342.93	11.57	-25.9	-26.4	14.7	0.00e+00	0	43	0	1974468608	12	3838
2026-01-08 14:36:32.88	342.92	11.39	-25.9	-26.6	14.6	1.10e-06	0	43	0	1989148672	12	3871
2026-01-08 14:36:34.89	342.91	11.21	-25.9	-26.6	14.6	0.00e+00	0	43	0	2003828736	12	3872
2026-01-08 14:36:36.90	342.89	11.02	-26.0	-26.7	14.5	2.20e-06	0	43	0	2018508800	12	3906
2026-01-08 14:36:38.92	342.88	10.84	-26.1	-26.8	14.4	1.10e-06	0	43	0	2033188864	12	3933
2026-01-08 14:36:40.93	342.87	10.66	-26.1	-27.0	14.3	0.00e+00	0	43	0	2047868928	12	3988
2026-01-08 14:36:42.94	342.85	10.48	-26.1	-26.9	14.4	3.40e-06	0	43	0	2061500416	12	3965
2026-01-08 14:36:44.95	342.84	10.31	-26.3	-27.4	14.1	2.20e-06	0	43	0	2076180480	12	4080
2026-01-08 14:36:46.96	342.83	10.13	-26.2	-27.1	14.3	4.50e-06	0	43	0	2090860544	12	3994
2026-01-08 14:36:48.97	342.82	9.96	-26.5	-27.8	13.8	8.00e-06	0	43	0	2105540608	12	4189
2026-01-08 14:36:50.98	342.81	9.79	-26.3	-27.3	14.1	5.70e-06	0	43	0	2120220672	12	4068
2026-01-08 14:36:52.99	342.79	9.61	-26.3	-27.4	14.0	0.00e+00	0	43	0	2133852160	12	4091
2026-01-08 14:36:55.01	342.78	9.44	-26.5	-27.9	13.7	8.00e-06	0	43	0	2149580800	12	4217
2026-01-08 14:36:57.02	342.77	9.27	-26.1	-27.1	14.2	2.20e-06	0	43	0	2163212288	12	3996
2026-01-08 14:36:59.03	342.76	9.10	-26.2	-27.2	14.1	0.00e+00	0	43	0	2177892352	12	4022
2026-01-08 14:37:01.03	342.75	8.94	-26.2	-27.1	14.1	0.00e+00	0	43	0	2192572416	12	4021
2026-01-08 14:37:03.04	342.74	8.77	-26.2	-27.2	14.1	3.40e-06	0	43	0	2207252480	12	4044
2026-01-08 14:37:05.05	342.73	8.61	-26.2	-27.2	14.0	5.70e-06	0	43	0	2220883968	12	4041
2026-01-08 14:37:07.05	342.72	8.44	-26.3	-27.4	13.9	5.70e-06	0	43	0	2235564032	12	4101
2026-01-08 14:37:09.06	342.71	8.28	-26.4	-27.8	13.7	1.48e-05	0	43	0	2250244096	12	4191
2026-01-08 14:37:11.08	342.70	8.12	-26.3	-27.5	13.8	6.80e-06	0	43	0	2264924160	12	4119
2026-01-08 14:37:13.09	342.69	7.96	-26.6	-27.6	13.5	1.02e-05	0	43	0	2279604224	13	4051
2026-01-08 14:37:15.10	342.68	7.80	-26.5	-27.3	13.6	6.80e-06	0	43	0	2294284288	13	3968
2026-01-08 14:37:17.11	342.67	7.64	-26.5	-27.4	13.5	1.14e-05	0	43	0	2308964352	13	4002
2026-01-08 14:37:19.12	342.67	7.48	-26.5	-27.4	13.6	1.14e-05	0	43	0	2322595840	13	3985
2026-01-08 14:37:21.13	342.66	7.32	-26.4	-27.2	13.6	1.02e-05	0	43	0	2337275904	13	3944
2026-01-08 14:37:23.14	342.65	7.17	-26.5	-27.4	13.5	1.14e-05	0	43	0	2351955968	13	3989
2026-01-08 14:37:25.17	342.64	7.01	-32.6	-40.3	4.0	8.18e-01	0	43	0	2364538880	24	8803

#Closed at: 2026-01-08 14:37:27
#Recorded file [2364 MB]: D:/data/31010_260108_173157.dat