passes_logs/2026/01/08/R2M6_AANII_01/R2M6_AANII_01__20260108_234712_SUOMI_NPP_rec.log

#Pass ID: 20260108_234712_SUOMI NPP
#Satellite: SUOMI NPP
#Configuration: NPP
#almurnet v.1.7.20240730
#Start time: 2026-01-08 23:47:11

#Version: 2.2.20231116
#Station: R2M6_AANII_01
#Location: 30.233357 lon 59.946436 lat
#TLE: 1 37849U 11061A   26008.05542337  .00000108  00000+0  71976-4 0  9997
#TLE: 2 37849  98.7805 310.1641 0002540  75.6410 284.5048 14.19523335735721

#Time	Az	El	Level	Level2	SNR	BER	BlckErr	Temp	State	Recorded	gain1	gain2
2026-01-08 23:47:11.99	21.84	6.99	-31.4	-36.8	4.7	1.35e+00	0	40	0	0	23	6675
2026-01-08 23:47:15.00	21.96	7.22	-31.6	-37.3	6.2	2.63e-01	0	41	0	1048576	23	7000
2026-01-08 23:47:18.03	22.08	7.45	-31.5	-37.1	6.4	3.09e-01	0	41	0	7340032	23	6835
2026-01-08 23:47:21.05	22.20	7.68	-31.3	-36.4	7.4	1.64e-01	0	41	0	12582912	22	6485
2026-01-08 23:47:24.06	22.32	7.91	-30.7	-34.4	9.3	2.14e-02	0	41	0	18874368	21	5524
2026-01-08 23:47:27.08	22.45	8.14	-30.1	-33.0	10.6	4.23e-03	0	41	0	24117248	20	5017
2026-01-08 23:47:30.10	22.57	8.38	-30.0	-32.5	11.0	1.55e-03	0	41	0	29360128	20	4806
2026-01-08 23:47:33.11	22.70	8.62	-30.0	-32.4	11.1	1.36e-03	0	41	0	35651584	20	4759
2026-01-08 23:47:36.14	22.83	8.86	-29.8	-32.4	11.6	2.98e-03	0	41	0	40894464	19	4822
2026-01-08 23:47:39.15	22.96	9.10	-30.0	-32.4	11.2	2.64e-03	0	41	0	47185920	20	4757
2026-01-08 23:47:42.17	23.10	9.35	-29.9	-32.6	11.5	2.13e-03	0	41	0	52428800	19	4903
2026-01-08 23:47:45.19	23.24	9.59	-30.1	-32.7	11.1	2.85e-03	0	41	0	57671680	20	4867
2026-01-08 23:47:48.20	23.37	9.84	-29.9	-32.4	11.7	1.67e-03	0	42	0	63963136	19	4836
2026-01-08 23:47:51.22	23.51	10.09	-29.7	-32.0	12.0	4.36e-04	0	42	0	69206016	19	4691
2026-01-08 23:47:54.23	23.66	10.35	-29.7	-32.0	12.1	8.85e-04	0	42	0	74448896	19	4664
2026-01-08 23:47:57.25	23.80	10.60	-29.8	-32.2	12.0	1.12e-03	0	42	0	80740352	19	4744
2026-01-08 23:48:00.26	23.95	10.86	-29.9	-32.5	11.8	8.77e-04	0	42	0	85983232	19	4842
2026-01-08 23:48:03.27	24.10	11.12	-29.6	-31.7	12.4	8.82e-04	0	42	0	92274688	19	4547
2026-01-08 23:48:06.29	24.25	11.39	-29.5	-31.2	12.7	1.16e-03	0	42	0	97517568	19	4384
2026-01-08 23:48:09.31	24.41	11.66	-29.5	-31.6	12.8	1.23e-03	0	42	0	102760448	18	4609
2026-01-08 23:48:12.33	24.57	11.93	-29.4	-31.0	12.9	7.09e-05	0	42	0	109051904	19	4306
2026-01-08 23:48:15.35	24.73	12.20	-29.6	-31.4	12.6	9.38e-05	0	42	0	114294784	19	4450
2026-01-08 23:48:18.37	24.89	12.48	-29.7	-31.8	12.4	1.26e-04	0	42	0	120586240	19	4574
2026-01-08 23:48:21.40	25.06	12.76	-29.6	-31.6	12.6	1.38e-04	0	42	0	125829120	19	4497
2026-01-08 23:48:24.41	25.22	13.04	-29.5	-31.2	12.8	6.47e-04	0	42	0	131072000	19	4383
2026-01-08 23:48:27.42	25.40	13.32	-29.6	-31.6	12.5	1.60e-04	0	42	0	137363456	19	4504
2026-01-08 23:48:30.44	25.57	13.61	-29.4	-31.0	12.9	4.88e-05	0	42	0	142606336	19	4311
2026-01-08 23:48:33.46	25.75	13.90	-29.5	-31.2	12.8	6.25e-05	0	42	0	148897792	19	4367
2026-01-08 23:48:36.48	25.93	14.20	-29.4	-31.4	13.0	2.59e-05	0	42	0	154140672	18	4525
2026-01-08 23:48:39.48	26.11	14.49	-29.3	-31.1	13.2	2.67e-05	0	42	0	159383552	18	4420
2026-01-08 23:48:42.50	26.30	14.80	-29.3	-31.0	13.3	1.75e-05	0	42	0	165675008	18	4413
2026-01-08 23:48:45.52	26.50	15.10	-29.2	-30.8	13.5	1.75e-05	0	42	0	170917888	18	4329
2026-01-08 23:48:48.54	26.69	15.41	-29.0	-30.7	13.8	4.50e-06	0	42	0	177209344	17	4381
2026-01-08 23:48:51.57	26.89	15.72	-28.7	-30.0	14.3	5.01e-04	0	42	0	182452224	17	4191
2026-01-08 23:48:54.58	27.09	16.04	-28.7	-30.0	14.3	1.50e-06	0	43	0	187695104	17	4187
2026-01-08 23:48:57.59	27.30	16.36	-28.8	-30.3	14.2	0.00e+00	0	42	0	193986560	17	4262
2026-01-08 23:49:00.61	27.51	16.68	-28.8	-30.3	14.2	7.00e-07	0	43	0	199229440	17	4257
2026-01-08 23:49:03.64	27.73	17.01	-29.0	-30.3	13.9	0.00e+00	0	42	0	205520896	18	4174
2026-01-08 23:49:06.65	27.95	17.34	-28.9	-30.1	14.0	1.50e-06	0	42	0	210763776	18	4098
2026-01-08 23:49:09.67	28.18	17.68	-28.6	-29.8	14.6	4.19e-05	0	43	0	216006656	17	4112
2026-01-08 23:49:12.68	28.41	18.02	-28.5	-29.4	14.8	6.56e-05	0	42	0	222298112	17	3990
2026-01-08 23:49:15.69	28.64	18.36	-28.5	-29.4	14.8	3.50e-05	0	43	0	227540992	17	3993
2026-01-08 23:49:18.71	28.88	18.71	-28.4	-29.1	14.9	2.36e-05	0	43	0	233832448	17	3924
2026-01-08 23:49:21.72	29.13	19.07	-28.4	-29.3	14.9	1.30e-04	0	43	0	239075328	17	3981
2026-01-08 23:49:24.74	29.38	19.43	-28.7	-29.9	14.5	7.00e-07	0	43	0	244318208	17	4140
2026-01-08 23:49:27.75	29.63	19.79	-28.6	-29.6	14.7	1.50e-04	0	43	0	250609664	17	4069
2026-01-08 23:49:30.77	29.90	20.16	-28.7	-29.8	14.6	5.26e-05	0	42	0	255852544	17	4127
2026-01-08 23:49:33.79	30.16	20.53	-28.9	-29.9	14.2	1.22e-05	0	43	0	262144000	18	4042
2026-01-08 23:49:36.80	30.44	20.91	-28.5	-29.4	14.8	0.00e+00	0	43	0	267386880	17	4009
2026-01-08 23:49:39.82	30.72	21.29	-28.4	-29.1	15.0	5.30e-06	0	42	0	272629760	17	3928
2026-01-08 23:49:42.84	31.01	21.68	-28.3	-29.4	15.2	2.86e-04	0	43	0	278921216	16	4078
2026-01-08 23:49:45.85	31.30	22.07	-28.1	-29.0	15.4	0.00e+00	0	43	0	284164096	16	3974
2026-01-08 23:49:48.88	31.61	22.48	-28.1	-29.0	15.5	0.00e+00	0	43	0	289406976	16	3970
2026-01-08 23:49:51.90	31.92	22.88	-28.2	-29.1	15.3	0.00e+00	0	43	0	295698432	16	4017
2026-01-08 23:49:54.92	32.24	23.29	-28.2	-29.1	15.3	0.00e+00	0	43	0	300941312	16	4017
2026-01-08 23:49:57.93	32.56	23.71	-28.4	-29.6	15.1	2.20e-06	0	43	0	307232768	16	4140
2026-01-08 23:50:00.94	32.89	24.13	-28.5	-29.4	14.9	0.00e+00	0	43	0	312475648	17	3980
2026-01-08 23:50:03.96	33.24	24.56	-28.7	-29.8	14.7	0.00e+00	0	43	0	317718528	17	4114
2026-01-08 23:50:06.97	33.59	24.99	-28.8	-30.3	14.2	0.00e+00	0	43	0	324009984	17	4243
2026-01-08 23:50:09.99	33.95	25.43	-28.8	-30.3	14.4	7.00e-07	0	43	0	329252864	17	4250
2026-01-08 23:50:13.01	34.32	25.88	-29.0	-30.2	14.2	3.00e-06	0	43	0	335544320	18	4131
2026-01-08 23:50:16.02	34.71	26.33	-29.2	-30.6	14.0	0.00e+00	0	43	0	340787200	18	4242
2026-01-08 23:50:19.05	35.10	26.79	-29.2	-30.7	14.0	1.46e-04	0	43	0	346030080	18	4260
2026-01-08 23:50:22.06	35.50	27.26	-29.1	-30.4	14.1	1.28e-04	0	43	0	352321536	18	4193
2026-01-08 23:50:25.08	35.92	27.73	-29.1	-30.3	14.2	2.67e-04	0	43	0	357564416	18	4143
2026-01-08 23:50:28.09	36.35	28.21	-29.4	-31.2	13.7	1.59e-04	0	43	0	363855872	18	4431
2026-01-08 23:50:31.11	36.79	28.70	-29.7	-31.5	13.2	7.60e-06	0	43	0	369098752	19	4414
2026-01-08 23:50:34.13	37.24	29.19	-30.0	-31.8	12.6	1.23e-04	0	43	0	374341632	20	4436
2026-01-08 23:50:37.15	37.71	29.69	-30.2	-32.5	12.2	3.50e-04	0	43	0	380633088	20	4668
2026-01-08 23:50:40.16	38.19	30.20	-30.5	-32.9	11.4	7.41e-04	0	43	0	385875968	21	4747
2026-01-08 23:50:43.17	38.69	30.71	-30.7	-33.3	11.2	1.88e-03	0	43	0	392167424	21	4896
2026-01-08 23:50:46.18	39.20	31.23	-30.8	-33.6	11.1	1.35e-03	0	43	0	397410304	21	4998
2026-01-08 23:50:49.20	39.73	31.76	-30.6	-33.0	11.5	1.02e-03	0	43	0	402653184	21	4777
2026-01-08 23:50:52.22	40.28	32.29	-30.5	-32.8	11.7	5.16e-04	0	43	0	408944640	21	4670
2026-01-08 23:50:55.23	40.84	32.83	-30.6	-33.1	11.5	6.93e-04	0	43	0	414187520	21	4775
2026-01-08 23:50:58.26	41.43	33.39	-30.0	-31.3	12.6	1.05e-04	0	43	0	420478976	21	4188
2026-01-08 23:51:01.29	42.04	33.94	-29.7	-30.8	13.3	9.90e-06	0	43	0	425721856	20	4094
2026-01-08 23:51:04.31	42.66	34.51	-29.7	-31.5	13.3	2.89e-05	0	43	0	430964736	19	4409
2026-01-08 23:51:07.33	43.31	35.07	-30.3	-32.1	12.1	3.64e-04	0	43	0	437256192	21	4442
2026-01-08 23:51:10.33	43.97	35.65	-30.0	-31.4	12.6	4.93e-04	0	43	0	442499072	21	4195
2026-01-08 23:51:13.35	44.66	36.23	-29.6	-30.6	13.5	6.80e-06	0	43	0	448790528	20	4033
2026-01-08 23:51:16.37	45.38	36.81	-29.4	-30.5	14.0	4.50e-06	0	43	0	454033408	19	4102
2026-01-08 23:51:19.38	46.12	37.41	-29.1	-30.0	14.2	7.00e-07	0	43	0	459276288	19	3955
2026-01-08 23:51:22.40	46.89	38.00	-28.8	-29.5	14.9	0.00e+00	0	43	0	465567744	18	3910
2026-01-08 23:51:25.42	47.69	38.61	-28.8	-29.5	14.9	0.00e+00	0	43	0	470810624	18	3907
2026-01-08 23:51:28.44	48.52	39.21	-28.1	-28.4	15.8	0.00e+00	0	43	0	477102080	17	3717
2026-01-08 23:51:31.46	49.38	39.83	-27.7	-27.9	16.3	0.00e+00	0	43	0	482344960	16	3685
2026-01-08 23:51:34.46	50.27	40.44	-28.4	-29.2	15.3	0.00e+00	0	43	0	487587840	17	3918
2026-01-08 23:51:37.48	51.19	41.06	-28.8	-30.0	14.9	0.00e+00	0	43	0	493879296	17	4134
2026-01-08 23:51:40.49	52.15	41.67	-29.2	-30.7	14.2	3.80e-06	0	43	0	499122176	18	4248
2026-01-08 23:51:43.49	53.15	42.29	-28.8	-29.6	14.8	1.50e-06	0	43	0	504365056	18	3942
2026-01-08 23:51:46.50	54.18	42.91	-29.0	-30.1	14.4	0.00e+00	0	43	0	510656512	18	4097
2026-01-08 23:51:49.52	55.26	43.54	-29.8	-31.8	13.1	2.59e-05	0	43	0	515899392	19	4542
2026-01-08 23:51:52.54	56.38	44.16	-30.0	-32.0	12.5	1.30e-04	0	43	0	522190848	20	4519
2026-01-08 23:51:55.56	57.54	44.77	-30.0	-31.7	12.8	5.03e-05	0	43	0	527433728	20	4384
2026-01-08 23:51:58.58	58.75	45.39	-30.7	-33.5	11.2	7.84e-04	0	43	0	532676608	21	4981
2026-01-08 23:52:01.61	60.02	46.00	-31.0	-33.8	10.7	2.96e-03	0	43	0	538968064	22	4992
2026-01-08 23:52:04.62	61.32	46.60	-30.8	-33.3	11.2	9.02e-04	0	43	0	544210944	22	4761
2026-01-08 23:52:07.64	62.67	47.20	-30.7	-32.7	11.6	9.63e-04	0	43	0	550502400	22	4533
2026-01-08 23:52:10.64	64.07	47.78	-30.5	-32.6	11.9	7.04e-04	0	43	0	555745280	21	4593
2026-01-08 23:52:13.66	65.54	48.36	-30.0	-31.4	12.8	1.24e-04	0	43	0	560988160	21	4187
2026-01-08 23:52:16.68	67.05	48.92	-29.4	-30.0	14.1	1.98e-05	0	43	0	567279616	20	3871
2026-01-08 23:52:19.69	68.62	49.47	-29.8	-31.7	13.3	1.60e-05	0	43	0	572522496	19	4460
2026-01-08 23:52:22.71	70.25	50.00	-29.8	-31.0	13.4	1.90e-05	0	43	0	578813952	20	4162
2026-01-08 23:52:25.72	71.92	50.51	-29.7	-31.0	13.6	5.11e-05	0	43	0	584056832	20	4141
2026-01-08 23:52:28.73	73.66	51.00	-29.5	-30.3	13.8	6.80e-06	0	43	0	589299712	20	3960
2026-01-08 23:52:31.75	75.45	51.47	-29.4	-30.6	14.0	3.00e-06	0	43	0	595591168	19	4154
2026-01-08 23:52:34.77	77.31	51.91	-28.8	-29.1	14.9	3.80e-06	0	43	0	600834048	19	3723
2026-01-08 23:52:37.79	79.21	52.33	-29.6	-31.2	13.7	1.75e-05	0	43	0	607125504	19	4310
2026-01-08 23:52:40.81	81.17	52.71	-29.0	-29.6	14.7	5.30e-06	0	43	0	612368384	19	3838
2026-01-08 23:52:43.82	83.17	53.07	-29.1	-30.2	14.6	0.00e+00	0	43	0	617611264	18	4098
2026-01-08 23:52:46.84	85.23	53.39	-30.3	-32.7	12.4	5.49e-05	0	43	0	623902720	20	4719
2026-01-08 23:52:49.85	87.32	53.67	-30.6	-32.8	11.9	9.14e-04	0	43	0	629145600	21	4678
2026-01-08 23:52:52.86	89.45	53.92	-30.8	-33.4	11.5	1.10e-03	0	43	0	635437056	21	4879
2026-01-08 23:52:55.88	91.62	54.12	-30.1	-31.4	12.8	6.71e-05	0	43	0	640679936	21	4193
2026-01-08 23:52:58.90	93.82	54.29	-30.0	-31.7	13.1	7.60e-06	0	43	0	645922816	20	4367
2026-01-08 23:53:01.93	96.04	54.42	-29.8	-31.0	13.4	4.50e-06	0	43	0	652214272	20	4145
2026-01-08 23:53:04.94	98.27	54.50	-29.4	-30.4	14.3	9.10e-06	0	43	0	657457152	19	4054
2026-01-08 23:53:07.95	100.52	54.54	-29.3	-29.8	14.3	8.30e-06	0	43	0	663748608	20	3810
2026-01-08 23:53:10.97	102.77	54.54	-29.4	-30.4	14.3	7.00e-07	0	43	0	668991488	19	4050
2026-01-08 23:53:13.99	105.01	54.49	-29.4	-30.4	14.3	0.00e+00	0	43	0	674234368	19	4044
2026-01-08 23:53:17.00	107.24	54.40	-29.8	-31.7	13.4	4.50e-06	0	43	0	680525824	19	4460
2026-01-08 23:53:20.02	109.46	54.27	-29.3	-30.2	14.4	7.00e-07	0	43	0	685768704	19	3993
2026-01-08 23:53:23.04	111.66	54.10	-30.1	-32.1	12.8	3.35e-05	0	43	0	691011584	20	4509
2026-01-08 23:53:26.05	113.82	53.89	-29.5	-30.3	13.9	5.30e-06	0	43	0	697303040	20	3959
2026-01-08 23:53:29.06	115.95	53.63	-29.6	-31.1	13.8	7.00e-07	0	43	0	702545920	19	4273
2026-01-08 23:53:32.08	118.04	53.35	-29.7	-31.0	13.5	1.14e-05	0	43	0	708837376	20	4165
2026-01-08 23:53:35.09	120.08	53.02	-29.9	-30.8	13.4	4.11e-05	0	43	0	714080256	21	4006
2026-01-08 23:53:38.11	122.09	52.66	-29.6	-30.5	13.8	3.80e-06	0	43	0	719323136	20	3992
2026-01-08 23:53:41.13	124.04	52.27	-30.3	-32.6	12.5	1.06e-04	0	43	0	725614592	20	4682
2026-01-08 23:53:44.14	125.94	51.85	-30.0	-31.6	13.2	2.20e-06	0	43	0	730857472	20	4321
2026-01-08 23:53:47.16	127.79	51.40	-29.4	-30.0	14.2	3.80e-06	0	43	0	737148928	20	3849
2026-01-08 23:53:50.18	129.58	50.93	-30.7	-32.9	11.9	1.42e-04	0	43	0	742391808	21	4682
2026-01-08 23:53:53.20	131.32	50.44	-30.2	-31.6	12.8	2.72e-04	0	43	0	747634688	21	4241
2026-01-08 23:53:56.22	133.00	49.92	-30.4	-32.3	12.3	1.36e-04	0	43	0	753926144	21	4494
2026-01-08 23:53:59.23	134.61	49.39	-30.2	-31.7	12.6	1.46e-04	0	43	0	759169024	21	4309
2026-01-08 23:54:02.25	136.18	48.83	-31.3	-35.0	10.0	4.11e-03	0	43	0	765460480	22	5483
2026-01-08 23:54:05.28	137.70	48.26	-30.4	-32.2	12.3	2.23e-04	0	43	0	770703360	21	4448
2026-01-08 23:54:08.29	139.15	47.69	-30.3	-32.0	12.3	3.97e-04	0	43	0	775946240	21	4387
2026-01-08 23:54:11.29	140.54	47.10	-29.8	-31.6	13.4	1.25e-03	0	43	0	782237696	19	4436
2026-01-08 23:54:14.32	141.90	46.50	-30.9	-33.8	11.2	2.53e-03	0	43	0	787480576	21	5054
2026-01-08 23:54:17.33	143.20	45.89	-30.0	-31.8	12.9	5.39e-04	0	43	0	793772032	20	4426
2026-01-08 23:54:20.34	144.45	45.28	-31.5	-35.1	9.3	2.79e-02	0	43	0	799014912	23	5494
2026-01-08 23:54:23.36	145.65	44.66	-31.3	-34.7	10.1	3.44e-03	0	43	0	804257792	22	5341
2026-01-08 23:54:26.37	146.81	44.05	-32.8	-41.1	4.6	8.83e-01	0	43	0	810549248	25	9372
2026-01-08 23:54:29.39	147.93	43.42	-32.3	-38.2	6.6	1.10e-01	0	43	0	815792128	24	7075
2026-01-08 23:54:32.41	149.00	42.80	-32.8	-41.5	4.5	1.34e+00	0	43	0	819986432	25	9802
2026-01-08 23:54:35.42	150.03	42.17	-32.1	-37.3	7.3	4.93e-02	0	43	0	825229312	24	6553
2026-01-08 23:54:38.44	151.03	41.55	-32.3	-37.0	7.9	1.02e-01	0	43	0	831520768	24	6176
2026-01-08 23:54:41.46	151.99	40.93	-32.0	-35.8	8.8	3.09e-02	0	43	0	836763648	24	5593
2026-01-08 23:54:44.48	152.91	40.30	-31.6	-34.9	9.9	1.34e-02	0	43	0	842006528	23	5231
2026-01-08 23:54:47.50	153.80	39.69	-31.2	-33.6	10.9	3.08e-03	0	43	0	848297984	23	4719
2026-01-08 23:54:50.51	154.65	39.07	-32.1	-36.3	8.4	1.58e-02	0	43	0	853540864	24	5828
2026-01-08 23:54:53.52	155.48	38.47	-30.8	-32.4	11.6	1.71e-03	0	43	0	859832320	23	4307
2026-01-08 23:54:56.54	156.27	37.86	-31.9	-36.2	8.7	1.39e-02	0	43	0	865075200	23	5860
2026-01-08 23:54:59.55	157.04	37.26	-31.3	-33.5	10.4	1.43e-02	0	43	0	870318080	24	4635
2026-01-08 23:55:02.57	157.78	36.67	-31.2	-33.9	10.9	3.32e-03	0	43	0	876609536	22	4936
2026-01-08 23:55:05.59	158.49	36.08	-32.4	-37.8	7.2	1.41e-01	0	43	0	881852416	24	6692
2026-01-08 23:55:08.61	159.18	35.50	-31.9	-35.4	9.0	2.84e-02	0	43	0	888143872	24	5427
2026-01-08 23:55:11.63	159.85	34.92	-31.6	-34.8	9.9	1.54e-02	0	43	0	893386752	23	5210
2026-01-08 23:55:14.65	160.49	34.35	-32.5	-38.2	6.8	1.08e-01	0	43	0	898629632	24	6982
2026-01-08 23:55:17.66	161.11	33.79	-32.5	-37.7	6.8	3.23e-01	0	43	0	904921088	25	6582
2026-01-08 23:55:20.67	161.71	33.23	-31.1	-33.1	11.0	5.06e-03	0	43	0	910163968	23	4576
2026-01-08 23:55:23.69	162.29	32.68	-30.8	-33.3	11.6	7.90e-04	0	43	0	916455424	21	4795
2026-01-08 23:55:26.71	162.85	32.13	-32.1	-36.7	7.9	3.46e-02	0	43	0	921698304	24	6084
2026-01-08 23:55:29.73	163.40	31.60	-31.3	-34.1	10.3	1.17e-02	0	43	0	926941184	23	4937
2026-01-08 23:55:32.74	163.93	31.07	-29.5	-30.7	14.0	1.22e-05	0	43	0	933232640	19	4141
2026-01-08 23:55:35.76	164.44	30.55	-29.4	-31.0	14.2	0.00e+00	0	43	0	938475520	18	4303
2026-01-08 23:55:38.77	164.93	30.03	-30.9	-33.9	11.1	1.64e-03	0	43	0	944766976	21	5051
2026-01-08 23:55:41.80	165.41	29.52	-31.1	-34.0	10.6	4.57e-03	0	43	0	950009856	22	5012
2026-01-08 23:55:44.82	165.88	29.02	-31.0	-34.1	11.0	1.19e-03	0	43	0	955252736	21	5139
2026-01-08 23:55:47.83	166.33	28.53	-30.3	-32.6	12.4	3.07e-04	0	43	0	961544192	20	4661
2026-01-08 23:55:50.85	166.77	28.04	-30.0	-31.5	13.1	3.66e-05	0	43	0	966787072	20	4294
2026-01-08 23:55:53.87	167.19	27.56	-30.2	-32.2	12.6	6.00e-04	0	43	0	973078528	20	4517
2026-01-08 23:55:56.88	167.61	27.08	-31.1	-34.0	10.7	1.45e-03	0	43	0	978321408	22	5013
2026-01-08 23:55:59.90	168.01	26.62	-30.1	-31.9	12.7	4.26e-04	0	43	0	983564288	20	4436
2026-01-08 23:56:02.92	168.40	26.15	-30.0	-32.0	13.1	2.99e-04	0	43	0	989855744	19	4542
2026-01-08 23:56:05.93	168.78	25.70	-30.3	-32.4	12.4	4.90e-04	0	43	0	995098624	20	4610
2026-01-08 23:56:08.95	169.15	25.25	-30.9	-33.7	11.2	1.71e-03	0	43	0	1001390080	21	4972
2026-01-08 23:56:11.97	169.51	24.81	-30.7	-33.2	11.5	2.15e-03	0	43	0	1006632960	21	4778
2026-01-08 23:56:14.98	169.86	24.38	-30.8	-33.5	11.3	1.01e-03	0	43	0	1011875840	21	4898
2026-01-08 23:56:18.00	170.20	23.95	-30.5	-33.0	11.9	4.50e-04	0	43	0	1018167296	20	4834
2026-01-08 23:56:21.02	170.53	23.52	-29.5	-30.7	13.8	2.82e-04	0	43	0	1023410176	19	4153
2026-01-08 23:56:24.03	170.86	23.11	-28.8	-30.1	14.7	4.61e-04	0	43	0	1028653056	17	4147
2026-01-08 23:56:27.04	171.17	22.69	-28.3	-29.1	15.7	4.29e-04	0	43	0	1034944512	16	3976
2026-01-08 23:56:30.06	171.48	22.29	-28.6	-29.5	15.2	6.95e-04	0	43	0	1040187392	17	3992
2026-01-08 23:56:33.08	171.78	21.89	-29.3	-30.7	14.2	8.96e-04	0	43	0	1046478848	18	4225
2026-01-08 23:56:36.10	172.07	21.49	-29.8	-31.6	13.2	7.56e-04	0	43	0	1051721728	19	4418
2026-01-08 23:56:39.12	172.36	21.10	-29.8	-31.5	13.3	7.30e-04	0	43	0	1056964608	19	4386
2026-01-08 23:56:42.14	172.64	20.72	-29.2	-30.4	14.2	5.07e-04	0	43	0	1063256064	18	4157
2026-01-08 23:56:45.14	172.91	20.34	-28.7	-29.8	14.9	2.88e-04	0	43	0	1068498944	17	4065
2026-01-08 23:56:48.16	173.18	19.97	-28.5	-29.1	15.3	1.84e-04	0	43	0	1074790400	17	3895
2026-01-08 23:56:51.18	173.44	19.60	-28.0	-28.6	15.9	1.92e-04	0	43	0	1080033280	16	3834
2026-01-08 23:56:54.21	173.69	19.23	-28.1	-28.7	15.8	2.43e-04	0	43	0	1085276160	16	3880
2026-01-08 23:56:57.22	173.94	18.87	-28.6	-29.5	15.0	1.52e-04	0	43	0	1091567616	17	3988
2026-01-08 23:57:00.22	174.18	18.52	-29.1	-30.2	14.3	2.39e-04	0	43	0	1096810496	18	4109
2026-01-08 23:57:03.22	174.42	18.17	-29.8	-31.7	13.1	2.05e-05	0	43	0	1103101952	19	4466
2026-01-08 23:57:06.24	174.65	17.83	-29.9	-31.9	12.8	4.19e-05	0	43	0	1108344832	19	4553
2026-01-08 23:57:09.26	174.88	17.48	-29.8	-31.8	12.9	2.89e-05	0	43	0	1113587712	19	4515
2026-01-08 23:57:12.28	175.10	17.15	-29.6	-31.3	13.3	2.21e-05	0	43	0	1119879168	19	4349
2026-01-08 23:57:15.29	175.32	16.81	-29.5	-31.0	13.4	7.60e-06	0	43	0	1125122048	19	4248
2026-01-08 23:57:18.30	175.53	16.49	-29.5	-31.0	13.4	3.95e-04	0	43	0	1131413504	19	4254
2026-01-08 23:57:21.32	175.74	16.16	-29.5	-30.9	13.4	1.90e-05	0	43	0	1136656384	19	4249
2026-01-08 23:57:24.33	175.95	15.84	-29.5	-30.9	13.4	7.60e-06	0	43	0	1141899264	19	4233
2026-01-08 23:57:27.35	176.15	15.52	-29.4	-31.2	13.6	1.14e-05	0	43	0	1148190720	18	4411
2026-01-08 23:57:30.37	176.34	15.21	-29.3	-30.8	13.8	9.10e-06	0	43	0	1153433600	18	4288
2026-01-08 23:57:33.38	176.54	14.90	-29.4	-31.1	13.6	1.06e-05	0	43	0	1158676480	18	4381
2026-01-08 23:57:36.39	176.73	14.60	-29.2	-30.5	13.2	3.80e-06	0	43	0	1164967936	18	4217
2026-01-08 23:57:39.42	176.91	14.29	-29.1	-30.4	14.0	2.20e-06	0	43	0	1170210816	18	4167
2026-01-08 23:57:42.43	177.09	13.99	-29.2	-30.7	13.8	1.11e-03	0	43	0	1176502272	18	4256
2026-01-08 23:57:45.45	177.27	13.70	-29.1	-30.5	13.9	7.06e-04	0	43	0	1181745152	18	4210
2026-01-08 23:57:48.47	177.45	13.41	-29.1	-30.4	14.0	3.80e-06	0	43	0	1186988032	18	4186
2026-01-08 23:57:51.48	177.62	13.12	-29.1	-30.4	14.0	1.50e-06	0	43	0	1193279488	18	4160
2026-01-08 23:57:54.51	177.79	12.83	-29.2	-30.6	13.8	3.80e-06	0	43	0	1198522368	18	4247
2026-01-08 23:57:57.53	177.96	12.55	-29.2	-30.6	13.8	4.50e-06	0	43	0	1204813824	18	4243
2026-01-08 23:58:00.55	178.12	12.27	-29.3	-31.0	13.6	6.71e-05	0	43	0	1210056704	18	4350
2026-01-08 23:58:03.58	178.28	11.99	-29.6	-31.1	13.1	7.85e-05	0	43	0	1215299584	19	4298
2026-01-08 23:58:06.60	178.44	11.72	-29.8	-31.9	12.6	7.70e-05	0	43	0	1221591040	19	4558
2026-01-08 23:58:09.60	178.59	11.45	-30.1	-32.2	12.0	3.14e-04	0	43	0	1226833920	20	4588
2026-01-08 23:58:12.63	178.75	11.18	-30.3	-32.8	11.5	9.70e-04	0	43	0	1233125376	20	4802
2026-01-08 23:58:15.64	178.90	10.91	-30.4	-32.8	11.1	1.93e-03	0	43	0	1238368256	21	4726
2026-01-08 23:58:18.66	179.04	10.65	-30.6	-33.5	10.6	3.87e-03	0	43	0	1243611136	21	4996
2026-01-08 23:58:21.67	179.19	10.39	-30.6	-33.5	10.5	4.57e-03	0	43	0	1249902592	21	5031
2026-01-08 23:58:24.69	179.33	10.14	-30.7	-33.7	10.4	4.67e-03	0	43	0	1255145472	21	5087
2026-01-08 23:58:27.70	179.47	9.88	-30.6	-33.6	10.4	4.13e-03	0	43	0	1261436928	21	5055
2026-01-08 23:58:30.72	179.61	9.63	-30.7	-33.7	10.4	3.47e-03	0	43	0	1266679808	21	5101
2026-01-08 23:58:33.74	179.74	9.38	-30.5	-33.0	10.8	2.90e-03	0	43	0	1271922688	21	4830
2026-01-08 23:58:36.74	179.88	9.13	-30.3	-33.2	11.1	2.77e-03	0	43	0	1278214144	20	4975
2026-01-08 23:58:39.76	180.01	8.89	-30.1	-32.5	11.5	2.12e-03	0	43	0	1283457024	20	4740
2026-01-08 23:58:42.77	180.14	8.64	-30.0	-32.0	11.8	1.43e-03	0	43	0	1289748480	20	4563
2026-01-08 23:58:45.79	180.27	8.40	-29.8	-32.2	12.1	1.17e-03	0	43	0	1294991360	19	4697
2026-01-08 23:58:48.81	180.39	8.16	-29.8	-31.9	12.2	1.23e-03	0	43	0	1300234240	19	4623
2026-01-08 23:58:51.83	180.52	7.93	-29.7	-31.7	12.4	1.11e-03	0	43	0	1306525696	19	4557
2026-01-08 23:58:54.85	180.64	7.69	-29.7	-31.9	12.2	1.10e-03	0	43	0	1311768576	19	4618
2026-01-08 23:58:57.86	180.76	7.46	-29.8	-31.9	12.2	1.06e-03	0	43	0	1318060032	19	4625
2026-01-08 23:59:00.88	180.88	7.23	-29.6	-31.6	12.4	1.25e-03	0	43	0	1323302912	19	4508
2026-01-08 23:59:03.89	180.99	7.00	-32.7	-45.4	3.8	1.49e+00	0	43	104	1326448640	25	15450

#Closed at: 2026-01-08 23:59:04
#Recorded file [1326 MB]: D:/data/31010_260109_024713.dat