passes_logs/2026/01/08/R2M6_AANII_01/R2M6_AANII_01__20260108_043244_FENGYUN_3E_rec.log

#Pass ID: 20260108_043244_FENGYUN 3E
#Satellite: FENGYUN 3E
#Configuration: FENGYUN 3E
#almurnet v.1.7.20240730
#Start time: 2026-01-08 04:36:58

#Version: 2.2.20231116
#Station: R2M6_AANII_01
#Location: 30.233357 lon 59.946436 lat
#TLE: 1 49008U 21062A   26006.26767912  .00000427  00000+0  22170-3 0  9993
#TLE: 2 49008  98.7475  11.4982 0001602 156.1158 204.0093 14.19885456233607

#Time	Az	El	Level	Level2	SNR	BER	BlckErr	Temp	State	Recorded	gain1	gain2
2026-01-08 04:36:58.78	22.65	43.88	-33.3	-44.6	3.8	8.45e-01	0	43	0	0	26	13264
2026-01-08 04:37:00.77	22.74	44.46	-34.0	-42.8	3.8	8.46e-01	0	43	104	0	29	9933
2026-01-08 04:37:02.77	22.83	45.05	-34.1	-43.0	3.8	8.47e-01	0	43	104	0	29	10029
2026-01-08 04:37:04.77	22.93	45.66	-34.1	-43.1	3.8	8.47e-01	0	43	104	0	29	10103
2026-01-08 04:37:06.77	23.03	46.27	-34.1	-43.0	3.8	8.46e-01	0	43	104	0	29	10077
2026-01-08 04:37:08.77	23.13	46.89	-34.0	-42.9	3.8	8.46e-01	0	43	104	0	29	10035
2026-01-08 04:37:10.77	23.24	47.52	-34.0	-42.9	3.8	8.47e-01	0	43	104	0	29	9988
2026-01-08 04:37:12.76	23.35	48.16	-34.0	-42.8	3.8	8.48e-01	0	43	104	0	29	9955
2026-01-08 04:37:14.76	23.47	48.80	-34.0	-42.9	3.8	8.46e-01	0	43	104	0	29	9974
2026-01-08 04:37:16.73	23.59	49.45	-34.0	-43.0	3.8	8.46e-01	0	43	104	0	29	10048
2026-01-08 04:37:18.74	23.72	50.12	-34.0	-42.9	3.8	8.47e-01	0	43	104	0	29	10024
2026-01-08 04:37:20.75	23.85	50.81	-33.9	-42.7	3.8	8.47e-01	0	43	104	0	29	9919
2026-01-08 04:37:22.75	23.99	51.49	-33.7	-42.8	3.8	8.47e-01	0	43	104	0	28	10272
2026-01-08 04:37:24.76	24.13	52.20	-33.7	-42.7	3.8	8.45e-01	0	43	104	0	28	10143
2026-01-08 04:37:26.75	24.28	52.90	-33.7	-42.7	3.8	8.46e-01	0	44	104	0	28	10184
2026-01-08 04:37:28.75	24.44	53.62	-33.7	-42.7	3.8	8.46e-01	0	43	104	0	28	10194
2026-01-08 04:37:30.77	24.60	54.36	-33.7	-42.7	3.8	8.46e-01	0	43	104	0	28	10155
2026-01-08 04:37:32.76	24.78	55.09	-33.7	-42.5	3.8	8.45e-01	0	43	104	0	28	9913
2026-01-08 04:37:34.78	24.96	55.85	-33.6	-42.4	3.8	8.48e-01	0	43	104	0	28	9828
2026-01-08 04:37:36.78	25.15	56.61	-33.7	-42.5	3.8	8.47e-01	0	44	104	0	28	9926
2026-01-08 04:37:38.78	25.36	57.38	-33.7	-42.6	3.8	8.47e-01	0	43	104	0	28	10076
2026-01-08 04:37:40.79	25.57	58.16	-33.6	-42.1	3.8	8.46e-01	0	43	104	0	28	9523
2026-01-08 04:37:42.79	25.80	58.95	-33.3	-39.8	3.9	8.43e-01	0	44	104	0	27	7651
2026-01-08 04:37:44.80	26.04	59.75	-33.6	-42.0	3.8	8.45e-01	0	44	104	0	27	9530
2026-01-08 04:37:46.79	26.30	60.56	-33.6	-42.4	3.8	8.45e-01	0	43	104	0	27	9924
2026-01-08 04:37:48.79	26.57	61.38	-33.4	-40.8	3.8	8.46e-01	0	44	104	0	27	8380
2026-01-08 04:37:50.79	26.86	62.21	-32.0	-35.4	6.1	5.00e-01	0	44	0	1048576	25	5295
2026-01-08 04:37:52.80	27.17	63.05	-26.5	-26.7	14.7	5.70e-06	0	43	0	15728640	14	3684
2026-01-08 04:37:54.81	27.51	63.91	-26.3	-27.2	15.0	0.00e+00	0	44	0	29360128	12	3987
2026-01-08 04:37:56.82	27.87	64.77	-25.3	-25.5	16.2	0.00e+00	0	43	0	44040192	11	3681
2026-01-08 04:37:58.82	28.25	65.64	-25.5	-26.0	16.1	0.00e+00	0	44	0	58720256	11	3801
2026-01-08 04:38:00.83	28.67	66.52	-25.7	-26.0	15.6	0.00e+00	0	43	0	73400320	12	3722
2026-01-08 04:38:02.83	29.12	67.40	-24.2	-24.2	17.5	0.00e+00	0	43	0	88080384	9	3611
2026-01-08 04:38:04.83	29.61	68.29	-23.0	-22.7	18.7	0.00e+00	0	43	0	102760448	7	3476
2026-01-08 04:38:06.80	30.14	69.18	-23.1	-23.4	18.6	0.00e+00	0	43	0	116391936	6	3720
2026-01-08 04:38:08.81	30.73	70.09	-23.5	-23.7	18.2	0.00e+00	0	44	0	131072000	7	3693
2026-01-08 04:38:10.81	31.38	71.00	-22.9	-23.0	18.9	0.00e+00	0	44	0	145752064	6	3645
2026-01-08 04:38:12.80	32.10	71.92	-23.1	-22.8	18.3	0.00e+00	0	44	0	159383552	7	3494
2026-01-08 04:38:14.80	32.90	72.84	-23.5	-23.8	18.2	0.00e+00	0	43	0	174063616	7	3714
2026-01-08 04:38:16.79	33.79	73.77	-23.3	-23.4	18.4	0.00e+00	0	44	0	188743680	7	3617
2026-01-08 04:38:18.79	34.79	74.70	-23.4	-23.5	18.4	2.20e-06	0	43	0	203423744	7	3650
2026-01-08 04:38:20.79	35.93	75.63	-23.3	-23.2	18.5	0.00e+00	0	44	0	217055232	7	3598
2026-01-08 04:38:22.78	37.23	76.56	-22.5	-22.2	19.2	0.00e+00	0	43	0	231735296	6	3475
2026-01-08 04:38:24.77	38.73	77.49	-22.0	-21.6	19.9	0.00e+00	0	44	0	246415360	5	3432
2026-01-08 04:38:26.77	40.48	78.42	-21.6	-21.4	20.2	0.00e+00	0	43	0	260046848	4	3493
2026-01-08 04:38:28.76	42.53	79.33	-21.7	-22.0	20.2	0.00e+00	0	44	0	274726912	3	3720
2026-01-08 04:38:30.77	44.99	80.25	-21.5	-21.7	20.4	0.00e+00	0	43	0	289406976	3	3648
2026-01-08 04:38:32.77	47.95	81.14	-21.2	-21.0	20.7	0.00e+00	0	43	0	304087040	3	3502
2026-01-08 04:38:34.77	51.57	82.00	-21.6	-21.9	20.2	0.00e+00	0	43	0	318767104	3	3707
2026-01-08 04:38:36.76	56.03	82.83	-21.6	-21.7	20.3	0.00e+00	0	43	0	332398592	3	3667
2026-01-08 04:38:38.77	61.69	83.61	-21.4	-21.3	20.6	0.00e+00	0	44	0	347078656	3	3568
2026-01-08 04:38:40.76	68.77	84.31	-21.9	-22.3	20.1	0.00e+00	0	44	0	361758720	3	3797
2026-01-08 04:38:42.77	77.77	84.91	-22.8	-23.3	19.1	0.00e+00	0	43	0	376438784	5	3803
2026-01-08 04:38:44.77	88.75	85.35	-23.9	-24.6	18.0	0.00e+00	0	43	0	390070272	7	3889
2026-01-08 04:38:46.77	101.47	85.59	-23.6	-24.0	18.4	0.00e+00	0	43	0	404750336	7	3744
2026-01-08 04:38:48.76	114.86	85.60	-23.8	-24.4	18.1	0.00e+00	0	43	0	419430400	7	3856
2026-01-08 04:38:50.76	127.66	85.38	-23.4	-23.6	18.6	0.00e+00	0	44	0	434110464	7	3651
2026-01-08 04:38:52.76	138.78	84.95	-23.8	-24.3	18.3	0.00e+00	0	43	0	447741952	7	3816
2026-01-08 04:38:54.76	147.87	84.36	-23.8	-24.4	18.1	0.00e+00	0	44	0	462422016	7	3849
2026-01-08 04:38:56.75	155.08	83.67	-23.1	-22.9	18.9	0.00e+00	0	44	0	477102080	7	3506
2026-01-08 04:38:58.76	160.83	82.89	-23.1	-22.9	19.0	0.00e+00	0	43	0	491782144	7	3514
2026-01-08 04:39:00.76	165.39	82.06	-23.7	-24.2	18.3	0.00e+00	0	43	0	506462208	7	3785
2026-01-08 04:39:02.77	169.08	81.19	-22.8	-22.8	19.2	0.00e+00	0	44	0	520093696	6	3591
2026-01-08 04:39:04.77	172.07	80.30	-21.9	-21.8	20.2	0.00e+00	0	44	0	534773760	4	3575
2026-01-08 04:39:06.76	174.54	79.39	-21.7	-21.6	20.3	0.00e+00	0	44	0	549453824	4	3528
2026-01-08 04:39:08.75	176.62	78.48	-21.8	-21.6	20.2	0.00e+00	0	43	0	564133888	4	3540
2026-01-08 04:39:10.75	178.39	77.55	-21.9	-21.9	20.1	0.00e+00	0	44	0	577765376	4	3608
2026-01-08 04:39:12.75	179.91	76.61	-22.3	-22.6	19.7	0.00e+00	0	44	0	592445440	4	3759
2026-01-08 04:39:14.75	181.22	75.68	-23.1	-23.8	18.9	0.00e+00	0	44	0	607125504	5	3931
2026-01-08 04:39:16.75	182.37	74.74	-23.7	-24.2	18.2	0.00e+00	0	44	0	621805568	7	3788
2026-01-08 04:39:18.75	183.39	73.81	-23.7	-24.2	18.2	0.00e+00	0	43	0	635437056	7	3804
2026-01-08 04:39:20.76	184.29	72.88	-23.9	-24.5	18.1	0.00e+00	0	44	0	650117120	7	3879
2026-01-08 04:39:22.76	185.10	71.95	-23.6	-23.8	18.3	0.00e+00	0	43	0	664797184	7	3710
2026-01-08 04:39:24.76	185.82	71.03	-24.0	-24.7	17.9	0.00e+00	0	44	0	679477248	7	3913
2026-01-08 04:39:26.76	186.47	70.11	-23.8	-24.3	18.1	3.40e-06	0	44	0	693108736	7	3825
2026-01-08 04:39:28.76	187.06	69.20	-23.3	-23.4	18.5	0.00e+00	0	44	0	707788800	7	3631
2026-01-08 04:39:30.75	187.60	68.31	-23.2	-23.1	18.7	0.00e+00	0	44	0	722468864	7	3556
2026-01-08 04:39:32.74	188.09	67.41	-23.0	-22.7	18.8	0.00e+00	0	43	0	737148928	7	3477
2026-01-08 04:39:34.76	188.55	66.52	-23.3	-23.3	18.6	0.00e+00	0	43	0	751828992	7	3603
2026-01-08 04:39:36.76	188.96	65.64	-23.3	-23.2	18.6	0.00e+00	0	44	0	765460480	7	3587
2026-01-08 04:39:38.78	189.35	64.76	-23.4	-23.4	18.5	0.00e+00	0	44	0	780140544	7	3625
2026-01-08 04:39:40.77	189.71	63.91	-23.8	-24.4	18.0	0.00e+00	0	44	0	794820608	7	3841
2026-01-08 04:39:42.78	190.05	63.05	-23.5	-23.8	18.3	0.00e+00	0	44	0	809500672	7	3713
2026-01-08 04:39:44.79	190.36	62.20	-23.6	-24.0	18.2	0.00e+00	0	44	0	824180736	7	3750
2026-01-08 04:39:46.77	190.65	61.38	-24.3	-25.0	17.5	0.00e+00	0	43	0	837812224	8	3873
2026-01-08 04:39:48.77	190.92	60.56	-24.9	-25.7	16.8	0.00e+00	0	43	0	852492288	9	3947
2026-01-08 04:39:50.76	191.17	59.75	-25.1	-25.6	16.6	0.00e+00	0	43	0	867172352	10	3822
2026-01-08 04:39:52.77	191.42	58.94	-25.4	-26.3	16.2	0.00e+00	0	44	0	880803840	10	3980
2026-01-08 04:39:54.77	191.64	58.15	-25.6	-26.6	16.1	0.00e+00	0	43	0	895483904	10	4065
2026-01-08 04:39:56.76	191.86	57.37	-25.1	-25.6	16.6	0.00e+00	0	43	0	910163968	10	3822
2026-01-08 04:39:58.76	192.06	56.60	-25.2	-25.8	16.5	0.00e+00	0	44	0	924844032	10	3854
2026-01-08 04:40:00.76	192.25	55.83	-25.2	-25.9	16.4	0.00e+00	0	44	0	939524096	10	3881
2026-01-08 04:40:02.76	192.44	55.08	-24.8	-25.1	16.7	0.00e+00	0	44	0	953155584	10	3686
2026-01-08 04:40:04.76	192.61	54.34	-24.6	-24.6	17.1	0.00e+00	0	44	0	967835648	10	3580
2026-01-08 04:40:06.77	192.78	53.60	-24.5	-24.3	17.2	0.00e+00	0	44	0	982515712	10	3533
2026-01-08 04:40:08.77	192.93	52.88	-24.6	-25.0	17.1	0.00e+00	0	43	0	997195776	9	3782
2026-01-08 04:40:10.75	193.08	52.18	-24.5	-24.9	17.1	0.00e+00	0	43	0	1010827264	9	3760
2026-01-08 04:40:12.74	193.23	51.48	-24.6	-25.0	17.1	0.00e+00	0	43	0	1025507328	9	3778
2026-01-08 04:40:14.74	193.36	50.79	-24.8	-25.4	16.9	0.00e+00	0	43	0	1040187392	9	3874
2026-01-08 04:40:16.73	193.50	50.11	-24.8	-25.6	16.8	0.00e+00	0	44	0	1054867456	9	3913
2026-01-08 04:40:18.73	193.62	49.44	-24.8	-25.5	16.8	0.00e+00	0	44	0	1068498944	9	3884
2026-01-08 04:40:20.74	193.74	48.77	-24.2	-24.3	17.3	0.00e+00	0	44	0	1083179008	9	3611
2026-01-08 04:40:22.72	193.86	48.13	-24.1	-24.0	17.5	0.00e+00	0	43	0	1097859072	9	3558
2026-01-08 04:40:24.72	193.97	47.48	-23.9	-24.0	17.8	0.00e+00	0	44	0	1111490560	8	3659
2026-01-08 04:40:26.71	194.08	46.85	-23.8	-23.8	17.9	0.00e+00	0	44	0	1126170624	8	3610
2026-01-08 04:40:28.71	194.18	46.23	-23.5	-23.2	18.2	0.00e+00	0	44	0	1140850688	8	3486
2026-01-08 04:40:30.72	194.28	45.61	-23.6	-23.5	18.0	0.00e+00	0	44	0	1155530752	8	3559
2026-01-08 04:40:32.73	194.38	45.00	-23.8	-23.9	17.8	0.00e+00	0	44	0	1170210816	8	3646
2026-01-08 04:40:34.73	194.48	44.41	-23.7	-23.7	17.7	0.00e+00	0	44	0	1184890880	8	3602
2026-01-08 04:40:36.74	194.57	43.82	-23.5	-23.2	18.2	0.00e+00	0	44	0	1198522368	8	3471
2026-01-08 04:40:38.74	194.65	43.24	-23.0	-22.8	18.6	0.00e+00	0	44	0	1213202432	7	3490
2026-01-08 04:40:40.76	194.74	42.66	-23.2	-23.1	18.4	0.00e+00	0	43	0	1227882496	7	3558
2026-01-08 04:40:42.76	194.82	42.10	-23.2	-23.1	18.4	0.00e+00	0	44	0	1242562560	7	3567
2026-01-08 04:40:44.77	194.90	41.54	-23.4	-23.6	18.0	0.00e+00	0	43	0	1256194048	7	3678
2026-01-08 04:40:46.76	194.98	41.00	-23.4	-23.4	18.2	0.00e+00	0	44	0	1270874112	7	3637
2026-01-08 04:40:48.76	195.05	40.46	-23.4	-23.6	18.2	0.00e+00	0	43	0	1285554176	7	3664
2026-01-08 04:40:50.75	195.12	39.94	-23.2	-23.1	18.4	0.00e+00	0	44	0	1300234240	7	3564
2026-01-08 04:40:52.74	195.19	39.42	-23.2	-23.1	18.3	0.00e+00	0	43	0	1314914304	7	3567
2026-01-08 04:40:54.75	195.26	38.90	-23.3	-23.4	18.2	0.00e+00	0	43	0	1328545792	7	3621
2026-01-08 04:40:56.73	195.33	38.40	-23.0	-22.6	18.6	0.00e+00	0	43	0	1343225856	7	3464
2026-01-08 04:40:58.72	195.39	37.91	-22.9	-23.0	18.6	0.00e+00	0	44	0	1356857344	6	3641
2026-01-08 04:41:00.72	195.45	37.41	-22.8	-22.7	18.7	0.00e+00	0	44	0	1371537408	6	3577
2026-01-08 04:41:02.73	195.52	36.93	-22.9	-23.0	18.6	0.00e+00	0	44	0	1386217472	6	3636
2026-01-08 04:41:04.75	195.58	36.44	-22.9	-23.0	18.6	0.00e+00	0	44	0	1400897536	6	3649
2026-01-08 04:41:06.74	195.63	35.98	-23.0	-23.3	18.5	0.00e+00	0	43	0	1415577600	6	3707
2026-01-08 04:41:08.73	195.69	35.51	-23.1	-23.5	18.2	0.00e+00	0	44	0	1430257664	6	3755
2026-01-08 04:41:10.73	195.75	35.06	-23.1	-23.4	18.2	2.20e-06	0	43	0	1443889152	6	3741
2026-01-08 04:41:12.73	195.80	34.61	-22.9	-23.0	18.6	0.00e+00	0	43	0	1458569216	6	3633
2026-01-08 04:41:14.74	195.85	34.16	-22.7	-22.6	18.8	0.00e+00	0	44	0	1473249280	6	3549
2026-01-08 04:41:16.74	195.90	33.72	-22.7	-22.5	18.8	1.10e-06	0	43	0	1487929344	6	3536
2026-01-08 04:41:18.75	195.95	33.29	-22.6	-22.3	18.9	0.00e+00	0	43	0	1502609408	6	3487
2026-01-08 04:41:20.76	196.00	32.86	-22.6	-22.3	18.9	0.00e+00	0	44	0	1516240896	6	3496
2026-01-08 04:41:22.75	196.05	32.44	-22.7	-22.5	18.8	0.00e+00	0	43	0	1530920960	6	3533
2026-01-08 04:41:24.76	196.10	32.03	-22.8	-22.7	18.7	0.00e+00	0	44	0	1545601024	6	3586
2026-01-08 04:41:26.75	196.14	31.62	-22.9	-23.0	18.5	0.00e+00	0	44	0	1560281088	6	3645
2026-01-08 04:41:28.75	196.19	31.22	-23.0	-23.1	18.5	0.00e+00	0	44	0	1573912576	6	3675
2026-01-08 04:41:30.74	196.23	30.82	-23.0	-23.2	18.4	0.00e+00	0	44	0	1588592640	6	3684
2026-01-08 04:41:32.74	196.28	30.43	-23.0	-23.3	18.4	0.00e+00	0	44	0	1603272704	6	3702
2026-01-08 04:41:34.76	196.32	30.04	-23.0	-23.3	18.3	0.00e+00	0	44	0	1617952768	6	3708
2026-01-08 04:41:36.77	196.36	29.66	-23.1	-23.4	18.3	0.00e+00	0	44	0	1631584256	6	3743
2026-01-08 04:41:38.78	196.40	29.28	-23.1	-23.5	18.3	0.00e+00	0	43	0	1647312896	6	3751
2026-01-08 04:41:40.80	196.44	28.90	-23.2	-23.6	18.2	0.00e+00	0	43	0	1660944384	6	3789
2026-01-08 04:41:42.81	196.48	28.53	-23.3	-23.8	18.1	0.00e+00	0	44	0	1675624448	6	3813
2026-01-08 04:41:44.83	196.52	28.17	-23.4	-24.0	18.0	0.00e+00	0	43	0	1690304512	6	3863
2026-01-08 04:41:46.84	196.56	27.81	-23.4	-24.0	18.0	0.00e+00	0	43	0	1704984576	6	3869
2026-01-08 04:41:48.86	196.60	27.45	-23.4	-24.1	17.9	0.00e+00	0	44	0	1719664640	6	3899
2026-01-08 04:41:50.88	196.63	27.10	-23.4	-24.1	17.9	0.00e+00	0	44	0	1734344704	6	3888
2026-01-08 04:41:52.88	196.67	26.76	-23.6	-23.9	17.7	0.00e+00	0	44	0	1749024768	7	3755
2026-01-08 04:41:54.90	196.70	26.42	-23.6	-24.0	17.6	0.00e+00	0	43	0	1762656256	7	3775
2026-01-08 04:41:56.91	196.74	26.08	-23.7	-24.1	17.6	0.00e+00	0	44	0	1777336320	7	3792
2026-01-08 04:41:58.93	196.77	25.74	-23.7	-24.1	17.6	0.00e+00	0	44	0	1792016384	7	3795
2026-01-08 04:42:00.94	196.81	25.42	-23.7	-24.2	17.5	0.00e+00	0	44	0	1806696448	7	3824
2026-01-08 04:42:02.96	196.84	25.09	-23.4	-23.6	17.9	0.00e+00	0	44	0	1821376512	7	3675
2026-01-08 04:42:04.97	196.87	24.77	-23.4	-23.5	17.9	0.00e+00	0	43	0	1836056576	7	3658
2026-01-08 04:42:06.99	196.90	24.45	-23.4	-23.6	17.8	1.10e-06	0	44	0	1850736640	7	3689
2026-01-08 04:42:09.00	196.93	24.14	-23.5	-23.7	17.8	0.00e+00	0	44	0	1864368128	7	3696
2026-01-08 04:42:11.02	196.97	23.83	-23.4	-23.6	17.8	0.00e+00	0	44	0	1879048192	7	3675
2026-01-08 04:42:13.03	197.00	23.52	-23.6	-23.9	17.7	0.00e+00	0	44	0	1893728256	7	3740
2026-01-08 04:42:15.05	197.03	23.22	-23.8	-24.4	17.4	0.00e+00	0	44	0	1908408320	7	3865
2026-01-08 04:42:17.05	197.06	22.92	-23.5	-23.7	17.8	0.00e+00	0	44	0	1923088384	7	3694
2026-01-08 04:42:19.06	197.08	22.63	-23.5	-23.7	17.8	0.00e+00	0	44	0	1937768448	7	3708
2026-01-08 04:42:21.07	197.11	22.34	-23.6	-24.1	17.6	0.00e+00	0	44	0	1951399936	7	3789
2026-01-08 04:42:23.09	197.14	22.05	-23.4	-23.5	17.8	0.00e+00	0	43	0	1967128576	7	3665
2026-01-08 04:42:25.09	197.17	21.76	-23.4	-23.5	17.8	0.00e+00	0	43	0	1980760064	7	3664
2026-01-08 04:42:27.11	197.20	21.48	-23.5	-23.7	17.7	0.00e+00	0	44	0	1995440128	7	3709
2026-01-08 04:42:29.12	197.22	21.20	-23.7	-24.1	17.5	0.00e+00	0	43	0	2010120192	7	3790
2026-01-08 04:42:31.13	197.25	20.92	-23.7	-24.3	17.4	0.00e+00	0	44	0	2024800256	7	3833
2026-01-08 04:42:33.15	197.28	20.65	-23.8	-24.5	17.3	0.00e+00	0	43	0	2039480320	7	3870
2026-01-08 04:42:35.16	197.30	20.38	-23.9	-24.6	17.3	0.00e+00	0	44	0	2053111808	7	3898
2026-01-08 04:42:37.18	197.33	20.11	-23.9	-24.7	17.2	0.00e+00	0	44	0	2068840448	7	3931
2026-01-08 04:42:39.19	197.35	19.85	-24.3	-24.9	16.8	0.00e+00	0	44	0	2082471936	8	3880
2026-01-08 04:42:41.21	197.38	19.59	-24.5	-25.3	16.6	0.00e+00	0	44	0	2097152000	8	3970
2026-01-08 04:42:43.22	197.40	19.33	-24.5	-24.9	16.6	0.00e+00	0	44	0	2111832064	9	3768
2026-01-08 04:42:45.23	197.43	19.07	-24.2	-24.3	16.8	0.00e+00	0	44	0	2126512128	9	3641
2026-01-08 04:42:47.25	197.45	18.82	-24.3	-24.5	16.7	0.00e+00	0	43	0	2141192192	9	3689
2026-01-08 04:42:49.25	197.48	18.57	-24.1	-24.1	17.0	0.00e+00	0	44	0	2155872256	9	3587
2026-01-08 04:42:51.27	197.50	18.32	-24.2	-24.2	16.9	0.00e+00	0	44	0	2169503744	9	3613
2026-01-08 04:42:53.28	197.52	18.07	-24.4	-24.7	16.6	0.00e+00	0	44	0	2184183808	9	3727
2026-01-08 04:42:55.30	197.55	17.83	-24.4	-24.7	16.7	0.00e+00	0	44	0	2198863872	9	3717
2026-01-08 04:42:57.31	197.57	17.59	-24.4	-24.7	16.6	0.00e+00	0	43	0	2213543936	9	3724
2026-01-08 04:42:59.32	197.59	17.35	-24.5	-24.9	16.5	0.00e+00	0	44	0	2228224000	9	3772
2026-01-08 04:43:01.34	197.61	17.11	-24.7	-25.3	16.3	0.00e+00	0	44	0	2242904064	9	3856
2026-01-08 04:43:03.35	197.64	16.88	-24.6	-25.1	16.4	3.40e-06	0	44	0	2257584128	9	3818
2026-01-08 04:43:05.37	197.66	16.64	-24.8	-25.5	16.2	0.00e+00	0	44	0	2271215616	9	3912
2026-01-08 04:43:07.37	197.68	16.41	-24.8	-25.5	16.2	0.00e+00	0	44	0	2285895680	9	3915
2026-01-08 04:43:09.37	197.70	16.19	-25.0	-26.0	15.9	0.00e+00	0	43	0	2300575744	9	4032
2026-01-08 04:43:11.39	197.72	15.96	-25.0	-25.5	15.9	0.00e+00	0	44	0	2315255808	10	3809
2026-01-08 04:43:13.40	197.74	15.74	-24.7	-24.9	16.3	0.00e+00	0	44	0	2329935872	10	3669
2026-01-08 04:43:15.42	197.76	15.52	-24.6	-24.7	16.3	0.00e+00	0	44	0	2344615936	10	3633
2026-01-08 04:43:17.44	197.78	15.30	-24.7	-24.8	16.3	0.00e+00	0	43	0	2359296000	10	3646
2026-01-08 04:43:19.45	197.80	15.08	-24.8	-25.1	16.1	0.00e+00	0	44	0	2372927488	10	3708
2026-01-08 04:43:21.46	197.82	14.86	-24.8	-25.0	16.1	0.00e+00	0	43	0	2387607552	10	3697
2026-01-08 04:43:23.47	197.84	14.65	-24.9	-25.3	16.0	0.00e+00	0	43	0	2402287616	10	3759
2026-01-08 04:43:25.48	197.86	14.44	-25.0	-25.5	15.9	0.00e+00	0	44	0	2416967680	10	3806
2026-01-08 04:43:27.50	197.88	14.23	-25.0	-25.5	15.9	0.00e+00	0	44	0	2431647744	10	3811
2026-01-08 04:43:29.51	197.90	14.02	-25.1	-25.7	15.7	0.00e+00	0	44	0	2446327808	10	3866
2026-01-08 04:43:31.52	197.92	13.81	-25.3	-26.2	15.4	0.00e+00	0	44	0	2459959296	10	3998
2026-01-08 04:43:33.53	197.94	13.61	-25.3	-26.1	15.5	0.00e+00	0	44	0	2474639360	10	3957
2026-01-08 04:43:35.55	197.96	13.41	-25.3	-26.1	15.5	0.00e+00	0	44	0	2489319424	10	3963
2026-01-08 04:43:37.56	197.98	13.20	-25.4	-26.4	15.3	0.00e+00	0	44	0	2503999488	10	4031
2026-01-08 04:43:39.58	198.00	13.00	-25.5	-26.7	15.2	0.00e+00	0	44	0	2518679552	10	4103
2026-01-08 04:43:41.59	198.01	12.81	-25.6	-26.7	15.1	0.00e+00	0	44	0	2533359616	10	4125
2026-01-08 04:43:43.61	198.03	12.61	-25.8	-26.7	14.8	0.00e+00	0	43	0	2548039680	11	4011
2026-01-08 04:43:45.62	198.05	12.41	-25.8	-26.9	14.8	0.00e+00	0	43	0	2561671168	11	4045
2026-01-08 04:43:47.63	198.07	12.22	-25.9	-26.9	14.7	0.00e+00	0	44	0	2577399808	11	4047
2026-01-08 04:43:49.64	198.08	12.03	-25.9	-26.9	14.7	0.00e+00	0	44	0	2591031296	11	4068
2026-01-08 04:43:51.65	198.10	11.84	-26.0	-27.1	14.6	0.00e+00	0	44	0	2605711360	11	4117
2026-01-08 04:43:53.66	198.12	11.65	-26.0	-27.2	14.5	5.70e-06	0	44	0	2620391424	11	4136
2026-01-08 04:43:55.67	198.14	11.46	-26.0	-27.2	14.5	0.00e+00	0	44	0	2635071488	11	4144
2026-01-08 04:43:57.69	198.15	11.28	-26.4	-27.5	14.0	2.20e-06	0	44	0	2649751552	12	4118
2026-01-08 04:43:59.70	198.17	11.09	-26.1	-27.0	14.3	1.37e-05	0	44	0	2664431616	12	3973
2026-01-08 04:44:01.72	198.19	10.91	-26.1	-27.0	14.2	1.10e-06	0	44	0	2678063104	12	3991
2026-01-08 04:44:03.72	198.20	10.73	-26.2	-27.3	14.1	1.10e-06	0	44	0	2692743168	12	4051
2026-01-08 04:44:05.74	198.22	10.55	-26.4	-27.6	13.9	9.10e-06	0	44	0	2707423232	12	4136
2026-01-08 04:44:07.76	198.24	10.37	-26.2	-27.3	14.0	2.20e-06	0	44	0	2722103296	12	4055
2026-01-08 04:44:09.77	198.25	10.19	-26.2	-27.1	14.1	2.20e-06	0	44	0	2736783360	12	4023
2026-01-08 04:44:11.78	198.27	10.01	-26.3	-27.4	13.9	6.80e-06	0	44	0	2751463424	12	4091
2026-01-08 04:44:13.80	198.29	9.84	-26.2	-27.1	14.1	1.10e-06	0	44	0	2766143488	12	4021
2026-01-08 04:44:15.80	198.30	9.67	-26.4	-27.6	13.8	5.70e-06	0	44	0	2779774976	12	4143
2026-01-08 04:44:17.81	198.32	9.49	-26.2	-27.2	14.0	4.50e-06	0	44	0	2794455040	12	4043
2026-01-08 04:44:19.83	198.33	9.32	-26.3	-27.4	13.9	3.40e-06	0	43	0	2809135104	12	4095
2026-01-08 04:44:21.84	198.35	9.15	-26.3	-27.4	13.9	5.70e-06	0	43	0	2823815168	12	4084
2026-01-08 04:44:23.85	198.36	8.98	-26.5	-27.8	13.6	3.40e-06	0	44	0	2838495232	12	4205
2026-01-08 04:44:25.86	198.38	8.81	-26.6	-28.1	13.4	1.14e-05	0	44	0	2853175296	12	4287
2026-01-08 04:44:27.88	198.39	8.65	-26.5	-27.4	13.5	9.10e-06	0	43	0	2867855360	13	4003
2026-01-08 04:44:29.89	198.41	8.48	-26.7	-27.8	13.3	2.28e-05	0	44	0	2881486848	13	4087
2026-01-08 04:44:31.90	198.42	8.31	-26.8	-28.0	13.2	2.40e-05	0	44	0	2896166912	13	4153
2026-01-08 04:44:33.92	198.44	8.15	-26.5	-27.5	13.5	1.14e-05	0	44	0	2910846976	13	4006
2026-01-08 04:44:35.93	198.45	7.99	-26.5	-27.3	13.5	1.25e-05	0	44	0	2925527040	13	3984
2026-01-08 04:44:37.94	198.47	7.83	-26.6	-27.6	13.4	2.40e-05	0	44	0	2940207104	13	4052
2026-01-08 04:44:39.95	198.48	7.67	-26.4	-27.3	13.5	1.37e-05	0	44	0	2954887168	13	3977
2026-01-08 04:44:41.96	198.50	7.51	-26.5	-27.5	13.4	1.25e-05	0	44	0	2968518656	13	4011
2026-01-08 04:44:43.97	198.51	7.35	-26.6	-27.7	13.3	1.60e-05	0	44	0	2983198720	13	4074
2026-01-08 04:44:45.99	198.53	7.19	-26.6	-27.6	13.3	1.83e-05	0	44	0	2997878784	13	4049
2026-01-08 04:44:48.00	198.54	7.03	-32.8	-42.5	3.8	8.47e-01	0	44	104	3007315968	25	11007
2026-01-08 04:44:50.01	198.55	6.88	-33.2	-42.7	3.8	8.46e-01	0	44	104	3007315968	26	10810

#Closed at: 2026-01-08 04:44:51
#Recorded file [3007 MB]: D:/data/31010_260108_073749.dat