passes_logs/2026/01/08/R2M6_AANII_01/R2M6_AANII_01__20260108_095849_SUOMI_NPP_rec.log

#Pass ID: 20260108_095849_SUOMI NPP
#Satellite: SUOMI NPP
#Configuration: NPP
#almurnet v.1.7.20240730
#Start time: 2026-01-08 09:58:51

#Version: 2.2.20231116
#Station: R2M6_AANII_01
#Location: 30.233357 lon 59.946436 lat
#TLE: 1 37849U 11061A   26005.94084933  .00000134  00000+0  84554-4 0  9990
#TLE: 2 37849  98.7803 308.0679 0002567  79.1029 281.0436 14.19522657735426

#Time	Az	El	Level	Level2	SNR	BER	BlckErr	Temp	State	Recorded	gain1	gain2
2026-01-08 09:58:51.12	147.42	7.11	-30.0	-34.1	5.2	1.25e+00	0	41	0	0	21	5737
2026-01-08 09:58:54.13	147.36	7.34	-30.3	-34.7	8.5	3.91e-02	0	41	0	1048576	21	6007
2026-01-08 09:58:57.15	147.31	7.58	-30.3	-34.4	8.9	3.29e-02	0	41	0	7340032	21	5769
2026-01-08 09:59:00.18	147.25	7.82	-30.0	-33.1	10.0	9.69e-03	0	41	0	12582912	21	5124
2026-01-08 09:59:03.20	147.19	8.06	-29.8	-32.0	11.1	2.13e-03	0	41	0	18874368	21	4613
2026-01-08 09:59:06.21	147.14	8.31	-29.6	-31.5	12.0	5.45e-04	0	41	0	24117248	20	4458
2026-01-08 09:59:09.23	147.08	8.55	-29.6	-31.4	12.1	1.53e-04	0	41	0	29360128	20	4389
2026-01-08 09:59:12.24	147.02	8.80	-29.5	-31.0	12.4	1.44e-04	0	41	0	35651584	20	4252
2026-01-08 09:59:15.25	146.95	9.05	-29.8	-31.6	12.1	2.68e-04	0	41	0	40894464	20	4451
2026-01-08 09:59:18.28	146.89	9.30	-30.0	-32.2	11.7	4.49e-04	0	41	0	47185920	20	4635
2026-01-08 09:59:21.29	146.83	9.56	-29.9	-31.8	11.9	3.58e-04	0	41	0	52428800	20	4513
2026-01-08 09:59:24.31	146.76	9.82	-29.7	-31.3	12.3	2.34e-04	0	42	0	57671680	20	4344
2026-01-08 09:59:27.32	146.69	10.08	-29.4	-30.5	12.9	3.89e-05	0	42	0	63963136	20	4107
2026-01-08 09:59:30.33	146.62	10.34	-29.5	-30.7	12.8	5.87e-05	0	42	0	69206016	20	4156
2026-01-08 09:59:33.35	146.55	10.61	-29.6	-31.2	12.5	9.53e-05	0	42	0	74448896	20	4288
2026-01-08 09:59:36.37	146.48	10.88	-29.7	-31.3	12.5	1.30e-04	0	42	0	80740352	20	4319
2026-01-08 09:59:39.39	146.41	11.15	-29.7	-31.3	12.5	1.53e-04	0	42	0	85983232	20	4331
2026-01-08 09:59:42.40	146.33	11.43	-29.3	-30.5	13.4	1.83e-05	0	42	0	92274688	19	4143
2026-01-08 09:59:45.41	146.26	11.70	-29.0	-29.9	13.8	3.80e-06	0	42	0	97517568	19	3969
2026-01-08 09:59:48.43	146.18	11.98	-29.1	-29.9	13.9	4.50e-06	0	42	0	102760448	19	3977
2026-01-08 09:59:51.45	146.10	12.27	-29.1	-30.1	13.8	4.50e-06	0	42	0	109051904	19	4004
2026-01-08 09:59:54.47	146.02	12.56	-29.3	-30.4	13.6	6.10e-06	0	42	0	114294784	19	4109
2026-01-08 09:59:57.49	145.94	12.85	-29.1	-30.0	13.9	3.00e-06	0	42	0	120586240	19	3987
2026-01-08 10:00:00.51	145.85	13.15	-29.1	-29.9	14.0	5.30e-06	0	42	0	125829120	19	3934
2026-01-08 10:00:03.53	145.77	13.44	-29.1	-29.8	14.1	1.50e-06	0	42	0	131072000	19	3929
2026-01-08 10:00:06.55	145.68	13.75	-29.1	-30.0	14.0	2.20e-06	0	42	0	137363456	19	3977
2026-01-08 10:00:09.58	145.59	14.05	-29.3	-30.5	13.7	9.10e-06	0	42	0	142606336	19	4126
2026-01-08 10:00:12.59	145.49	14.36	-29.4	-30.8	13.5	2.20e-06	0	42	0	148897792	19	4208
2026-01-08 10:00:15.61	145.40	14.68	-29.4	-30.6	13.7	5.30e-06	0	42	0	154140672	19	4150
2026-01-08 10:00:18.63	145.30	15.00	-29.4	-30.6	13.7	3.00e-06	0	42	0	159383552	19	4132
2026-01-08 10:00:21.64	145.20	15.32	-29.5	-30.9	13.5	4.50e-06	0	42	0	165675008	19	4222
2026-01-08 10:00:24.66	145.10	15.64	-29.4	-30.5	13.7	4.50e-06	0	42	0	170917888	19	4112
2026-01-08 10:00:27.67	145.00	15.97	-29.4	-30.6	13.7	9.90e-06	0	43	0	177209344	19	4125
2026-01-08 10:00:30.69	144.89	16.31	-29.0	-29.5	14.4	7.00e-07	0	43	0	182452224	19	3810
2026-01-08 10:00:33.71	144.78	16.65	-29.2	-29.9	14.2	1.50e-06	0	43	0	187695104	19	3930
2026-01-08 10:00:36.72	144.67	16.99	-29.2	-30.0	14.2	3.00e-06	0	42	0	193986560	19	3951
2026-01-08 10:00:39.74	144.56	17.34	-29.3	-30.2	14.1	4.50e-06	0	43	0	199229440	19	3994
2026-01-08 10:00:42.74	144.44	17.69	-29.2	-30.0	14.3	7.00e-07	0	43	0	205520896	19	3958
2026-01-08 10:00:45.76	144.32	18.05	-29.2	-29.9	14.3	7.00e-07	0	43	0	210763776	19	3927
2026-01-08 10:00:48.77	144.19	18.41	-29.1	-29.8	14.5	0.00e+00	0	43	0	216006656	19	3894
2026-01-08 10:00:51.79	144.07	18.78	-29.3	-30.2	14.2	2.20e-06	0	43	0	222298112	19	3999
2026-01-08 10:00:54.80	143.94	19.16	-29.5	-30.6	14.0	1.50e-06	0	43	0	227540992	19	4092
2026-01-08 10:00:57.82	143.80	19.54	-29.4	-30.4	14.2	2.20e-06	0	43	0	232783872	19	4046
2026-01-08 10:01:00.83	143.67	19.92	-29.6	-31.0	13.9	8.30e-06	0	43	0	239075328	19	4208
2026-01-08 10:01:03.85	143.53	20.31	-29.4	-30.3	14.3	6.10e-06	0	43	0	244318208	19	3997
2026-01-08 10:01:06.88	143.38	20.71	-29.4	-30.4	14.3	3.00e-06	0	43	0	250609664	19	4042
2026-01-08 10:01:09.89	143.23	21.12	-29.3	-30.0	14.6	5.30e-06	0	43	0	255852544	19	3918
2026-01-08 10:01:12.90	143.08	21.53	-29.4	-30.4	14.3	6.10e-06	0	43	0	261095424	19	4021
2026-01-08 10:01:15.90	142.92	21.94	-29.8	-31.4	13.8	6.80e-06	0	43	0	267386880	19	4309
2026-01-08 10:01:18.92	142.76	22.37	-29.7	-30.7	13.8	3.80e-06	0	43	0	272629760	20	4040
2026-01-08 10:01:21.94	142.59	22.80	-29.5	-30.1	14.2	3.00e-06	0	43	0	278921216	20	3852
2026-01-08 10:01:24.95	142.42	23.23	-29.2	-29.8	14.8	0.00e+00	0	43	0	284164096	19	3867
2026-01-08 10:01:27.97	142.24	23.68	-29.3	-30.0	14.7	7.00e-07	0	43	0	289406976	19	3903
2026-01-08 10:01:30.98	142.06	24.13	-29.8	-31.4	13.9	2.20e-06	0	43	0	295698432	19	4299
2026-01-08 10:01:33.98	141.87	24.59	-30.1	-31.7	13.3	3.80e-06	0	43	0	300941312	20	4306
2026-01-08 10:01:37.00	141.68	25.05	-30.3	-32.3	12.9	2.82e-05	0	43	0	307232768	20	4493
2026-01-08 10:01:40.02	141.48	25.53	-30.3	-32.3	13.0	5.49e-05	0	43	0	312475648	20	4508
2026-01-08 10:01:43.04	141.27	26.02	-30.2	-31.9	13.3	1.83e-05	0	43	0	317718528	20	4372
2026-01-08 10:01:46.06	141.06	26.51	-30.1	-31.7	13.3	2.36e-05	0	43	0	324009984	20	4304
2026-01-08 10:01:49.08	140.84	27.01	-30.3	-31.6	13.2	3.81e-05	0	43	0	329252864	21	4169
2026-01-08 10:01:52.10	140.61	27.52	-30.6	-32.5	12.6	1.54e-04	0	43	0	335544320	21	4485
2026-01-08 10:01:55.12	140.38	28.04	-30.5	-32.2	12.8	7.17e-05	0	43	0	340787200	21	4380
2026-01-08 10:01:58.13	140.13	28.57	-30.5	-32.1	12.9	5.26e-05	0	43	0	346030080	21	4341
2026-01-08 10:02:01.16	139.88	29.11	-30.8	-33.0	12.3	1.50e-04	0	43	0	352321536	21	4616
2026-01-08 10:02:04.17	139.62	29.65	-30.6	-32.4	12.7	9.00e-05	0	43	0	357564416	21	4436
2026-01-08 10:02:07.18	139.35	30.21	-30.8	-32.4	12.4	1.26e-04	0	43	0	363855872	22	4327
2026-01-08 10:02:10.18	139.07	30.77	-31.0	-33.0	12.1	2.58e-04	0	43	0	369098752	22	4518
2026-01-08 10:02:13.19	138.78	31.35	-31.2	-33.5	11.7	6.56e-04	0	43	0	374341632	22	4708
2026-01-08 10:02:16.21	138.48	31.94	-31.8	-35.2	10.2	2.98e-03	0	43	0	380633088	23	5297
2026-01-08 10:02:19.23	138.17	32.54	-32.3	-36.3	8.8	1.82e-02	0	43	0	385875968	24	5727
2026-01-08 10:02:22.26	137.84	33.16	-32.4	-37.0	8.4	3.50e-02	0	43	0	391118848	24	6075
2026-01-08 10:02:25.26	137.51	33.77	-32.8	-38.2	7.1	1.39e-01	0	43	0	397410304	25	6667
2026-01-08 10:02:28.28	137.15	34.41	-33.1	-38.9	6.3	2.95e-01	0	43	0	402653184	26	7065
2026-01-08 10:02:31.29	136.79	35.05	-33.1	-38.8	6.3	2.85e-01	0	43	0	408944640	26	7006
2026-01-08 10:02:34.30	136.41	35.71	-32.7	-36.8	7.9	7.97e-02	0	43	0	414187520	26	5789
2026-01-08 10:02:37.32	136.01	36.38	-32.6	-37.6	6.9	1.11e-01	0	43	0	419430400	26	6402
2026-01-08 10:02:40.33	135.60	37.06	-31.2	-33.7	11.0	9.57e-03	0	43	0	425721856	23	4812
2026-01-08 10:02:43.35	135.16	37.76	-31.4	-34.1	10.8	3.91e-03	0	43	0	430964736	23	4920
2026-01-08 10:02:46.37	134.71	38.47	-31.5	-34.5	10.5	2.88e-03	0	43	0	437256192	23	5085
2026-01-08 10:02:49.39	134.24	39.19	-31.5	-34.2	10.8	2.98e-03	0	43	0	442499072	23	4960
2026-01-08 10:02:52.40	133.74	39.92	-31.7	-35.2	10.2	7.51e-03	0	43	0	447741952	23	5375
2026-01-08 10:02:55.42	133.23	40.67	-31.2	-33.4	11.4	1.63e-03	0	43	0	454033408	23	4659
2026-01-08 10:02:58.44	132.68	41.43	-30.7	-32.3	12.5	2.00e-04	0	43	0	459276288	22	4346
2026-01-08 10:03:01.46	132.11	42.20	-30.4	-32.0	13.1	1.83e-05	0	43	0	465567744	21	4335
2026-01-08 10:03:04.47	131.51	42.99	-30.1	-31.6	13.7	6.10e-06	0	43	0	470810624	20	4295
2026-01-08 10:03:07.48	130.89	43.78	-30.2	-32.0	13.4	7.60e-06	0	43	0	476053504	20	4422
2026-01-08 10:03:10.50	130.22	44.60	-30.0	-31.2	14.0	3.80e-06	0	43	0	482344960	20	4141
2026-01-08 10:03:13.52	129.52	45.42	-30.0	-31.4	13.8	6.10e-06	0	43	0	487587840	20	4219
2026-01-08 10:03:16.53	128.79	46.25	-30.4	-32.0	13.2	1.83e-05	0	43	0	493879296	21	4307
2026-01-08 10:03:19.56	128.01	47.10	-30.2	-31.5	13.5	8.30e-06	0	43	0	499122176	21	4184
2026-01-08 10:03:22.58	127.19	47.96	-30.4	-32.1	13.0	6.17e-05	0	43	0	504365056	21	4373
2026-01-08 10:03:25.60	126.32	48.83	-30.7	-32.9	12.6	4.34e-05	0	43	0	510656512	21	4640
2026-01-08 10:03:28.62	125.40	49.71	-29.7	-30.6	14.4	2.20e-06	0	43	0	515899392	20	3976
2026-01-08 10:03:31.65	124.42	50.60	-29.1	-29.4	15.5	0.00e+00	0	43	0	522190848	19	3722
2026-01-08 10:03:34.66	123.39	51.50	-29.7	-30.9	14.6	0.00e+00	0	43	0	527433728	19	4156
2026-01-08 10:03:37.67	122.29	52.39	-29.3	-29.9	15.2	0.00e+00	0	43	0	532676608	19	3884
2026-01-08 10:03:40.68	121.13	53.30	-30.3	-32.2	13.3	2.05e-05	0	43	0	538968064	20	4510
2026-01-08 10:03:43.70	119.88	54.21	-29.8	-30.8	14.3	7.00e-07	0	43	0	544210944	20	4062
2026-01-08 10:03:46.71	118.56	55.12	-30.1	-31.5	13.9	3.80e-06	0	43	0	550502400	20	4250
2026-01-08 10:03:49.72	117.15	56.03	-30.1	-31.2	13.8	1.60e-05	0	43	0	555745280	21	4056
2026-01-08 10:03:52.74	115.64	56.93	-30.0	-30.9	14.0	3.80e-06	0	43	0	560988160	21	3964
2026-01-08 10:03:55.76	114.02	57.83	-30.8	-33.0	12.7	1.44e-05	0	43	0	567279616	21	4644
2026-01-08 10:03:58.78	112.29	58.73	-30.0	-30.9	14.1	3.80e-06	0	43	0	572522496	21	3952
2026-01-08 10:04:01.79	110.45	59.60	-29.9	-30.5	14.2	3.00e-06	0	43	0	578813952	21	3857
2026-01-08 10:04:04.80	108.48	60.46	-29.2	-29.7	15.5	0.00e+00	0	43	0	584056832	19	3797
2026-01-08 10:04:07.83	106.36	61.31	-28.9	-29.5	15.9	0.00e+00	0	43	0	589299712	18	3858
2026-01-08 10:04:10.84	104.11	62.12	-29.7	-31.1	14.7	0.00e+00	0	43	0	595591168	19	4194
2026-01-08 10:04:13.85	101.71	62.90	-29.4	-30.2	15.1	3.00e-06	0	43	0	600834048	19	3965
2026-01-08 10:04:16.87	99.14	63.65	-29.0	-29.8	15.8	0.00e+00	0	43	0	606076928	18	3918
2026-01-08 10:04:19.89	96.41	64.35	-29.0	-29.2	15.8	0.00e+00	0	43	0	612368384	19	3680
2026-01-08 10:04:22.90	93.51	65.00	-30.1	-31.5	14.0	0.00e+00	0	43	0	617611264	20	4229
2026-01-08 10:04:25.92	90.45	65.60	-30.8	-32.9	12.8	4.73e-05	0	43	0	623902720	21	4583
2026-01-08 10:04:28.94	87.22	66.13	-29.9	-30.5	14.2	8.30e-06	0	43	0	629145600	21	3855
2026-01-08 10:04:31.96	83.83	66.60	-29.9	-31.0	14.3	1.50e-06	0	43	0	634388480	20	4101
2026-01-08 10:04:34.97	80.33	66.99	-29.3	-29.9	15.4	0.00e+00	0	43	0	640679936	19	3857
2026-01-08 10:04:37.98	76.70	67.30	-29.2	-29.6	15.6	0.00e+00	0	43	0	645922816	19	3767
2026-01-08 10:04:41.00	72.96	67.52	-30.1	-31.4	14.1	2.20e-06	0	43	0	652214272	20	4183
2026-01-08 10:04:44.02	69.17	67.65	-30.3	-31.9	13.8	5.30e-06	0	43	0	657457152	20	4341
2026-01-08 10:04:47.03	65.35	67.70	-30.1	-31.1	14.0	6.80e-06	0	43	0	662700032	21	4010
2026-01-08 10:04:50.04	61.53	67.65	-30.1	-31.1	13.9	7.00e-07	0	43	0	668991488	21	4030
2026-01-08 10:04:53.06	57.74	67.51	-30.3	-31.6	13.6	1.75e-05	0	43	0	674234368	21	4187
2026-01-08 10:04:56.07	54.02	67.28	-31.6	-34.2	11.2	1.15e-03	0	43	0	680525824	23	4868
2026-01-08 10:04:59.09	50.39	66.97	-31.3	-33.1	12.0	7.49e-04	0	43	0	685768704	23	4468
2026-01-08 10:05:02.10	46.89	66.57	-30.6	-31.8	13.2	6.33e-05	0	43	0	691011584	22	4117
2026-01-08 10:05:05.13	43.51	66.10	-29.7	-30.9	14.8	0.00e+00	0	43	0	697303040	19	4109
2026-01-08 10:05:08.14	40.31	65.57	-29.9	-30.5	14.3	1.50e-06	0	43	0	702545920	21	3863
2026-01-08 10:05:11.15	37.26	64.97	-29.1	-29.5	15.7	0.00e+00	0	43	0	708837376	19	3755
2026-01-08 10:05:14.16	34.38	64.31	-29.5	-30.3	15.3	7.00e-07	0	43	0	714080256	19	3968
2026-01-08 10:05:17.18	31.66	63.61	-30.5	-32.2	13.3	2.20e-06	0	43	0	719323136	21	4356
2026-01-08 10:05:20.20	29.10	62.86	-30.5	-32.2	13.1	0.00e+00	0	43	0	725614592	21	4372
2026-01-08 10:05:23.23	26.70	62.07	-30.2	-31.2	13.9	2.20e-06	0	43	0	730857472	21	4058
2026-01-08 10:05:26.24	24.46	61.26	-30.9	-32.7	12.5	1.04e-04	0	43	0	737148928	22	4439
2026-01-08 10:05:29.25	22.37	60.42	-31.6	-34.6	10.8	1.19e-03	0	43	0	742391808	23	5063
2026-01-08 10:05:32.27	20.40	59.56	-30.4	-31.2	13.6	9.10e-06	0	43	0	747634688	22	3964
2026-01-08 10:05:35.28	18.57	58.69	-30.5	-31.5	13.3	1.22e-05	0	43	0	753926144	22	4047
2026-01-08 10:05:38.29	16.86	57.80	-29.6	-30.2	14.8	0.00e+00	0	43	0	759169024	20	3857
2026-01-08 10:05:41.31	15.25	56.90	-30.6	-32.4	13.1	5.30e-06	0	43	0	764411904	21	4406
2026-01-08 10:05:44.31	13.76	56.00	-30.7	-32.2	12.8	1.95e-04	0	43	0	770703360	22	4244
2026-01-08 10:05:47.33	12.35	55.09	-30.7	-31.9	13.0	1.79e-04	0	43	0	775946240	22	4152
2026-01-08 10:05:50.34	11.03	54.19	-30.8	-32.3	12.8	6.94e-05	0	43	0	782237696	22	4266
2026-01-08 10:05:53.36	9.80	53.28	-31.0	-33.1	12.2	3.73e-05	0	43	0	787480576	22	4553
2026-01-08 10:05:56.38	8.63	52.38	-31.5	-34.0	11.2	1.08e-03	0	43	0	792723456	23	4798
2026-01-08 10:05:59.40	7.54	51.48	-30.8	-32.3	12.6	7.01e-05	0	43	0	799014912	22	4292
2026-01-08 10:06:02.43	6.50	50.58	-31.2	-33.4	12.0	4.74e-04	0	43	0	804257792	22	4639
2026-01-08 10:06:05.45	5.53	49.70	-32.3	-36.2	9.1	9.69e-03	0	43	0	810549248	24	5670
2026-01-08 10:06:08.46	4.62	48.83	-32.2	-35.8	9.5	1.29e-02	0	43	0	815792128	24	5477
2026-01-08 10:06:11.48	3.76	47.96	-31.5	-33.3	11.4	2.10e-03	0	43	0	821035008	24	4447
2026-01-08 10:06:14.49	2.94	47.11	-30.8	-32.2	12.8	1.44e-03	0	43	0	827326464	22	4231
2026-01-08 10:06:17.51	2.17	46.26	-30.9	-33.2	12.4	2.13e-05	0	43	0	832569344	21	4676
2026-01-08 10:06:20.52	1.44	45.43	-30.4	-31.2	13.4	2.59e-05	0	43	0	838860800	22	3943
2026-01-08 10:06:23.53	0.75	44.61	-32.4	-36.1	8.5	2.54e-02	0	43	0	844103680	25	5533
2026-01-08 10:06:26.55	0.09	43.81	-31.6	-33.9	10.8	9.33e-03	0	43	0	849346560	24	4689
2026-01-08 10:06:29.58	359.46	43.01	-31.5	-33.8	10.7	1.74e-03	0	43	0	855638016	24	4660
2026-01-08 10:06:32.60	358.86	42.22	-31.4	-33.8	11.1	2.73e-03	0	43	0	860880896	23	4736
2026-01-08 10:06:35.62	358.29	41.45	-32.4	-37.3	8.1	4.14e-02	0	43	0	867172352	24	6299
2026-01-08 10:06:38.64	357.75	40.70	-31.8	-34.4	9.9	1.73e-02	0	43	0	872415232	25	4837
2026-01-08 10:06:41.65	357.24	39.96	-31.2	-33.1	11.6	6.42e-04	0	43	0	877658112	23	4492
2026-01-08 10:06:44.66	356.75	39.23	-31.5	-34.1	10.8	1.73e-03	0	43	0	883949568	23	4891
2026-01-08 10:06:47.67	356.28	38.51	-31.2	-33.3	11.4	4.91e-03	0	43	0	889192448	23	4566
2026-01-08 10:06:50.69	355.83	37.81	-31.5	-34.4	10.6	1.67e-03	0	43	0	895483904	23	4981
2026-01-08 10:06:53.71	355.40	37.11	-30.8	-32.1	12.2	4.86e-04	0	43	0	900726784	23	4172
2026-01-08 10:06:56.72	354.99	36.44	-31.2	-33.9	11.3	6.18e-04	0	43	0	905969664	22	4905
2026-01-08 10:06:59.73	354.59	35.77	-30.0	-30.8	13.6	2.82e-05	0	43	0	912261120	21	3970
2026-01-08 10:07:02.73	354.22	35.12	-29.9	-31.1	13.8	2.20e-06	0	43	0	917504000	20	4156
2026-01-08 10:07:05.75	353.85	34.47	-31.5	-34.4	10.5	2.46e-03	0	43	0	922746880	23	5030
2026-01-08 10:07:08.78	353.50	33.84	-31.6	-34.0	10.6	5.16e-03	0	43	0	929038336	24	4766
2026-01-08 10:07:11.79	353.17	33.22	-31.3	-33.6	11.2	1.03e-03	0	43	0	934281216	23	4680
2026-01-08 10:07:14.81	352.84	32.61	-31.4	-33.8	11.0	1.25e-03	0	43	0	940572672	23	4775
2026-01-08 10:07:17.82	352.53	32.02	-30.8	-32.5	12.3	2.37e-04	0	43	0	945815552	22	4377
2026-01-08 10:07:20.84	352.23	31.43	-31.0	-33.2	11.7	7.06e-04	0	43	0	951058432	22	4651
2026-01-08 10:07:23.85	351.95	30.85	-31.4	-34.0	10.8	2.72e-03	0	43	0	957349888	23	4844
2026-01-08 10:07:26.88	351.67	30.29	-31.8	-35.7	9.4	1.00e-02	0	43	0	962592768	23	5590
2026-01-08 10:07:29.89	351.40	29.73	-32.2	-36.4	8.5	3.56e-02	0	43	0	968884224	24	5840
2026-01-08 10:07:32.91	351.14	29.19	-32.2	-36.6	8.1	4.39e-02	0	43	0	974127104	24	5970
2026-01-08 10:07:35.93	350.89	28.65	-32.4	-37.3	7.9	3.20e-02	0	43	0	979369984	24	6323
2026-01-08 10:07:38.94	350.65	28.13	-31.9	-35.3	9.4	2.37e-02	0	43	0	985661440	24	5300
2026-01-08 10:07:41.96	350.42	27.61	-31.4	-33.5	10.8	3.23e-03	0	43	0	990904320	24	4570
2026-01-08 10:07:44.97	350.19	27.10	-30.3	-31.7	13.1	3.35e-05	0	43	0	997195776	21	4219
2026-01-08 10:07:47.98	349.97	26.60	-30.1	-31.0	13.4	1.37e-05	0	43	0	1002438656	21	4019
2026-01-08 10:07:51.00	349.76	26.11	-29.9	-30.6	13.7	4.50e-06	0	43	0	1007681536	21	3904
2026-01-08 10:07:54.01	349.56	25.63	-30.8	-33.2	12.0	1.32e-04	0	43	0	1013972992	21	4726
2026-01-08 10:07:57.03	349.36	25.16	-32.0	-35.8	8.9	1.17e-02	0	43	0	1019215872	24	5551
2026-01-08 10:08:00.05	349.17	24.69	-32.1	-36.0	8.7	4.57e-02	0	43	0	1025507328	24	5684
2026-01-08 10:08:03.07	348.98	24.23	-31.6	-34.3	10.1	9.01e-03	0	43	0	1030750208	24	4911
2026-01-08 10:08:06.09	348.80	23.78	-31.1	-33.1	11.3	9.99e-04	0	43	0	1035993088	23	4533
2026-01-08 10:08:09.10	348.63	23.34	-30.7	-32.5	12.0	2.59e-04	0	43	0	1042284544	22	4424
2026-01-08 10:08:12.11	348.46	22.91	-30.5	-31.8	12.5	1.44e-04	0	43	0	1047527424	22	4194
2026-01-08 10:08:15.13	348.29	22.48	-30.4	-31.7	12.6	1.09e-04	0	43	0	1053818880	22	4149
2026-01-08 10:08:18.14	348.13	22.05	-30.7	-32.4	12.2	8.01e-05	0	43	0	1059061760	22	4372
2026-01-08 10:08:21.16	347.98	21.64	-30.5	-31.8	12.5	7.09e-05	0	43	0	1064304640	22	4183
2026-01-08 10:08:24.17	347.83	21.23	-30.5	-32.0	12.3	1.43e-04	0	43	0	1070596096	22	4272
2026-01-08 10:08:27.18	347.68	20.83	-31.0	-33.3	11.4	6.49e-04	0	43	0	1075838976	22	4711
2026-01-08 10:08:30.20	347.54	20.43	-31.0	-33.4	11.2	1.22e-03	0	43	0	1081081856	22	4777
2026-01-08 10:08:33.21	347.40	20.04	-31.0	-33.4	11.3	1.36e-03	0	43	0	1087373312	22	4748
2026-01-08 10:08:36.23	347.26	19.66	-30.9	-33.1	11.5	1.17e-03	0	43	0	1092616192	22	4644
2026-01-08 10:08:39.24	347.13	19.28	-30.8	-33.0	11.5	9.13e-04	0	43	0	1098907648	22	4641
2026-01-08 10:08:42.25	347.00	18.91	-30.7	-32.5	11.7	4.56e-04	0	43	0	1104150528	22	4458
2026-01-08 10:08:45.28	346.88	18.54	-31.0	-33.6	11.0	1.68e-03	0	43	0	1109393408	22	4840
2026-01-08 10:08:48.29	346.76	18.18	-31.1	-33.9	10.7	1.62e-03	0	43	0	1115684864	22	4968
2026-01-08 10:08:51.32	346.64	17.82	-30.9	-33.4	11.1	2.39e-03	0	43	0	1120927744	22	4766
2026-01-08 10:08:54.34	346.52	17.46	-30.6	-32.4	11.8	6.39e-04	0	43	0	1127219200	22	4407
2026-01-08 10:08:57.36	346.41	17.12	-30.4	-31.8	12.2	2.48e-04	0	43	0	1132462080	22	4226
2026-01-08 10:09:00.37	346.30	16.77	-30.3	-31.9	12.4	1.69e-04	0	43	0	1137704960	21	4361
2026-01-08 10:09:03.39	346.19	16.44	-30.4	-32.3	12.1	2.46e-04	0	43	0	1143996416	21	4474
2026-01-08 10:09:06.41	346.09	16.10	-30.7	-33.2	11.5	4.79e-04	0	43	0	1149239296	21	4790
2026-01-08 10:09:09.43	345.99	15.77	-30.9	-34.0	10.8	2.49e-03	0	43	0	1155530752	21	5138
2026-01-08 10:09:12.44	345.89	15.45	-31.3	-34.8	9.9	7.76e-03	0	43	0	1160773632	22	5384
2026-01-08 10:09:15.45	345.79	15.13	-31.5	-35.0	9.3	1.62e-02	0	43	0	1166016512	23	5399
2026-01-08 10:09:18.47	345.70	14.81	-31.3	-34.5	9.7	1.32e-02	0	43	0	1172307968	23	5161
2026-01-08 10:09:21.48	345.60	14.50	-31.1	-33.7	10.2	7.84e-03	0	43	0	1177550848	23	4870
2026-01-08 10:09:24.49	345.51	14.19	-30.8	-32.7	11.0	2.40e-03	0	43	0	1183842304	23	4463
2026-01-08 10:09:27.50	345.43	13.89	-30.9	-33.4	10.9	1.96e-03	0	43	0	1189085184	22	4817
2026-01-08 10:09:30.52	345.34	13.58	-30.5	-32.3	11.6	9.18e-04	0	43	0	1194328064	22	4409
2026-01-08 10:09:33.53	345.26	13.29	-30.7	-32.8	11.2	6.55e-04	0	43	0	1200619520	22	4601
2026-01-08 10:09:36.55	345.17	12.99	-30.4	-32.1	11.7	6.39e-04	0	43	0	1205862400	22	4347
2026-01-08 10:09:39.57	345.09	12.70	-30.5	-32.3	11.5	6.02e-04	0	43	0	1212153856	22	4420
2026-01-08 10:09:42.59	345.01	12.41	-30.6	-32.7	11.2	9.80e-04	0	43	0	1217396736	22	4575
2026-01-08 10:09:45.61	344.94	12.13	-30.8	-33.2	10.8	2.29e-03	0	43	0	1222639616	22	4766
2026-01-08 10:09:48.62	344.86	11.85	-30.8	-33.3	10.8	2.35e-03	0	43	0	1228931072	22	4786
2026-01-08 10:09:51.63	344.79	11.57	-30.9	-33.7	10.4	4.57e-03	0	43	0	1234173952	22	4976
2026-01-08 10:09:54.65	344.72	11.30	-31.1	-34.2	10.1	6.48e-03	0	43	0	1239416832	22	5156
2026-01-08 10:09:57.68	344.65	11.03	-31.1	-34.5	9.8	7.67e-03	0	43	0	1245708288	22	5300
2026-01-08 10:10:00.69	344.58	10.76	-31.1	-34.4	9.9	7.91e-03	0	43	0	1250951168	22	5249
2026-01-08 10:10:03.71	344.51	10.49	-31.1	-34.4	9.8	1.22e-02	0	43	0	1257242624	22	5278
2026-01-08 10:10:06.73	344.44	10.23	-31.1	-34.6	9.6	1.06e-02	0	43	0	1262485504	22	5354
2026-01-08 10:10:09.74	344.38	9.97	-31.1	-34.6	9.7	1.21e-02	0	43	0	1267728384	22	5344
2026-01-08 10:10:12.76	344.32	9.71	-31.0	-34.1	10.0	7.64e-03	0	43	0	1274019840	22	5158
2026-01-08 10:10:15.78	344.26	9.46	-31.2	-34.8	9.4	1.39e-02	0	43	0	1279262720	22	5479
2026-01-08 10:10:18.79	344.19	9.20	-31.2	-35.0	9.2	1.96e-02	0	43	0	1285554176	22	5571
2026-01-08 10:10:21.81	344.14	8.95	-31.2	-34.9	9.3	1.79e-02	0	43	0	1290797056	22	5537
2026-01-08 10:10:24.83	344.08	8.71	-31.1	-34.6	9.5	1.99e-02	0	43	0	1296039936	22	5387
2026-01-08 10:10:27.85	344.02	8.46	-31.0	-34.2	9.7	7.68e-03	0	43	0	1302331392	22	5222
2026-01-08 10:10:30.87	343.96	8.22	-31.0	-34.3	9.7	1.00e-02	0	43	0	1307574272	22	5249
2026-01-08 10:10:33.89	343.91	7.98	-31.1	-34.5	9.5	1.22e-02	0	43	0	1313865728	22	5345
2026-01-08 10:10:36.91	343.86	7.74	-30.9	-33.9	9.8	1.49e-02	0	43	0	1319108608	22	5115
2026-01-08 10:10:39.92	343.80	7.50	-31.0	-34.2	9.7	1.33e-02	0	43	0	1324351488	22	5226
2026-01-08 10:10:42.94	343.75	7.27	-31.0	-34.3	9.5	1.50e-02	0	43	0	1330642944	22	5295
2026-01-08 10:10:45.94	343.70	7.04	-32.8	-43.6	3.8	1.44e+00	0	43	104	1334837248	25	12364

#Closed at: 2026-01-08 10:10:46
#Recorded file [1334 MB]: D:/data/31010_260108_125853.dat