passes_logs/2026/01/08/R2M6_AANII_01/R2M6_AANII_01__20260108_104850_AQUA_rec.log

#Pass ID: 20260108_104850_AQUA
#Satellite: AQUA
#Configuration: AQUA
#almurnet v.1.7.20240730
#Start time: 2026-01-08 10:48:51

#Version: 2.2.20231116
#Station: R2M6_AANII_01
#Location: 30.233357 lon 59.946436 lat
#TLE: 1 27424U 02022A   26004.96787593  .00001598  00000+0  32997-3 0  9996
#TLE: 2 27424  98.4069 331.2279 0002002  90.2377   0.6092 14.61798176259425

#Time	Az	El	Level	Level2	SNR	BER	BlckErr	Temp	State	Recorded	gain1	gain2
2026-01-08 10:48:51.05	119.62	7.02	-32.1	-39.5	4.9	7.17e-01	0	41	0	0	26	8485
2026-01-08 10:48:54.05	119.38	7.24	-31.8	-37.8	13.2	6.08e-01	0	41	0	1572864	25	7191
2026-01-08 10:48:57.07	119.14	7.47	-31.8	-37.7	13.3	6.09e-01	0	41	0	7340032	25	7062
2026-01-08 10:49:00.09	118.89	7.70	-31.6	-36.5	14.3	6.07e-01	0	41	0	13107200	25	6374
2026-01-08 10:49:03.11	118.64	7.93	-30.8	-34.7	16.4	6.06e-01	0	41	0	18874368	23	5643
2026-01-08 10:49:06.12	118.39	8.16	-30.4	-33.4	17.3	6.07e-01	0	41	0	24117248	23	5121
2026-01-08 10:49:09.14	118.13	8.40	-30.4	-33.9	17.4	6.07e-01	0	41	0	29884416	22	5385
2026-01-08 10:49:12.15	117.87	8.64	-30.4	-33.8	17.5	6.08e-01	0	41	0	35651584	22	5377
2026-01-08 10:49:15.16	117.60	8.87	-30.4	-33.9	17.5	6.08e-01	0	41	0	41418752	22	5386
2026-01-08 10:49:18.18	117.33	9.11	-30.3	-33.6	17.7	6.04e-01	0	41	0	46661632	22	5279
2026-01-08 10:49:21.20	117.05	9.36	-30.3	-33.5	17.8	6.05e-01	0	41	0	52428800	22	5235
2026-01-08 10:49:24.21	116.77	9.60	-30.2	-33.4	17.9	6.07e-01	0	41	0	58195968	22	5172
2026-01-08 10:49:27.22	116.48	9.85	-30.2	-33.3	18.0	6.08e-01	0	42	0	63963136	22	5122
2026-01-08 10:49:30.24	116.18	10.10	-30.6	-34.4	17.3	6.07e-01	0	41	0	69730304	22	5545
2026-01-08 10:49:33.26	115.88	10.35	-30.3	-33.4	18.0	6.07e-01	0	42	0	74973184	22	5167
2026-01-08 10:49:36.28	115.58	10.60	-30.3	-33.6	17.9	6.05e-01	0	42	0	80740352	22	5250
2026-01-08 10:49:39.29	115.27	10.85	-30.0	-32.8	18.4	6.07e-01	0	42	0	86507520	22	4926
2026-01-08 10:49:42.29	114.95	11.11	-30.1	-32.8	18.4	6.08e-01	0	42	0	92274688	22	4946
2026-01-08 10:49:45.31	114.63	11.37	-30.0	-32.6	18.6	6.06e-01	0	42	0	98041856	22	4846
2026-01-08 10:49:48.33	114.30	11.63	-30.1	-33.0	18.3	6.07e-01	0	42	0	103284736	22	5003
2026-01-08 10:49:51.35	113.96	11.89	-30.2	-33.1	18.3	6.07e-01	0	42	0	109051904	22	5035
2026-01-08 10:49:54.37	113.61	12.16	-30.1	-32.8	18.5	6.07e-01	0	42	0	114819072	22	4927
2026-01-08 10:49:57.39	113.26	12.43	-29.9	-32.4	18.8	6.07e-01	0	42	0	120586240	22	4777
2026-01-08 10:50:00.41	112.91	12.70	-29.8	-32.6	19.0	6.07e-01	0	42	0	126353408	21	4946
2026-01-08 10:50:03.42	112.54	12.97	-29.9	-32.7	19.0	6.08e-01	0	42	0	131596288	21	4992
2026-01-08 10:50:06.43	112.17	13.25	-30.0	-33.0	18.8	6.06e-01	0	42	0	137363456	21	5087
2026-01-08 10:50:09.44	111.79	13.52	-30.1	-33.2	18.7	6.04e-01	0	42	0	143130624	21	5161
2026-01-08 10:50:12.46	111.40	13.80	-30.0	-32.9	18.9	6.06e-01	0	42	0	148897792	21	5049
2026-01-08 10:50:15.48	111.01	14.09	-29.8	-32.5	19.1	6.06e-01	0	42	0	154140672	21	4916
2026-01-08 10:50:18.49	110.60	14.37	-29.8	-32.4	19.3	6.08e-01	0	42	0	159907840	21	4867
2026-01-08 10:50:21.51	110.19	14.66	-29.8	-32.5	19.2	6.07e-01	0	42	0	165675008	21	4890
2026-01-08 10:50:24.52	109.77	14.94	-29.9	-32.8	19.1	6.05e-01	0	42	0	171442176	21	4993
2026-01-08 10:50:27.54	109.34	15.24	-29.8	-32.5	19.3	6.07e-01	0	42	0	176685056	21	4897
2026-01-08 10:50:30.55	108.90	15.53	-29.7	-32.2	19.4	6.05e-01	0	42	0	182452224	21	4794
2026-01-08 10:50:33.58	108.45	15.83	-29.8	-32.4	19.4	6.06e-01	0	43	0	188219392	21	4836
2026-01-08 10:50:36.60	107.99	16.12	-29.8	-32.3	19.4	6.07e-01	0	42	0	193986560	21	4828
2026-01-08 10:50:39.62	107.52	16.43	-29.8	-32.3	19.4	6.07e-01	0	42	0	199753728	21	4833
2026-01-08 10:50:42.64	107.04	16.73	-29.7	-32.1	19.6	6.05e-01	0	42	0	204996608	21	4737
2026-01-08 10:50:45.65	106.55	17.03	-29.8	-32.2	19.6	6.09e-01	0	43	0	210763776	21	4778
2026-01-08 10:50:48.67	106.05	17.34	-29.9	-32.5	19.4	6.06e-01	0	42	0	216530944	21	4867
2026-01-08 10:50:51.69	105.54	17.65	-29.8	-32.3	19.6	6.07e-01	0	43	0	222298112	21	4799
2026-01-08 10:50:54.71	105.02	17.96	-29.7	-32.1	19.7	6.06e-01	0	42	0	228065280	21	4735
2026-01-08 10:50:57.72	104.48	18.27	-29.9	-32.5	19.5	6.06e-01	0	42	0	233308160	21	4856
2026-01-08 10:51:00.74	103.94	18.59	-29.9	-32.6	19.5	6.07e-01	0	42	0	239075328	21	4898
2026-01-08 10:51:03.76	103.38	18.90	-29.8	-32.3	19.7	6.06e-01	0	42	0	244842496	21	4798
2026-01-08 10:51:06.77	102.81	19.22	-29.9	-32.5	19.5	6.05e-01	0	43	0	250609664	21	4861
2026-01-08 10:51:09.79	102.22	19.54	-29.9	-32.5	19.6	6.07e-01	0	43	0	256376832	21	4848
2026-01-08 10:51:12.80	101.63	19.86	-30.0	-32.7	19.5	6.05e-01	0	43	0	261619712	21	4933
2026-01-08 10:51:15.81	101.02	20.18	-30.1	-32.9	19.4	6.09e-01	0	43	0	267386880	21	5000
2026-01-08 10:51:18.82	100.39	20.50	-30.2	-33.4	19.1	6.06e-01	0	43	0	273154048	21	5157
2026-01-08 10:51:21.83	99.76	20.83	-30.1	-33.1	19.3	6.07e-01	0	43	0	278921216	21	5046
2026-01-08 10:51:24.84	99.10	21.15	-30.1	-32.8	19.5	6.09e-01	0	43	0	284164096	21	4962
2026-01-08 10:51:27.86	98.44	21.48	-30.0	-32.6	19.6	6.07e-01	0	43	0	289931264	21	4872
2026-01-08 10:51:30.88	97.75	21.81	-30.2	-33.3	19.2	6.08e-01	0	43	0	295698432	21	5131
2026-01-08 10:51:33.90	97.05	22.13	-30.3	-33.4	19.2	6.05e-01	0	43	0	301465600	21	5166
2026-01-08 10:51:36.92	96.34	22.46	-30.2	-33.3	19.3	6.05e-01	0	43	0	307232768	21	5102
2026-01-08 10:51:39.93	95.61	22.79	-30.1	-33.0	19.4	6.06e-01	0	43	0	312475648	21	5027
2026-01-08 10:51:42.94	94.87	23.11	-30.3	-33.4	19.2	6.08e-01	0	43	0	318242816	21	5143
2026-01-08 10:51:45.96	94.10	23.44	-30.2	-33.2	19.3	6.06e-01	0	43	0	324009984	21	5086
2026-01-08 10:51:48.98	93.32	23.76	-30.3	-33.3	19.3	6.07e-01	0	43	0	329777152	21	5121
2026-01-08 10:51:51.99	92.53	24.09	-30.3	-33.4	19.3	6.07e-01	0	43	0	335020032	21	5138
2026-01-08 10:51:55.01	91.71	24.41	-30.2	-33.2	19.4	6.04e-01	0	43	0	340787200	21	5074
2026-01-08 10:51:58.03	90.88	24.73	-30.2	-33.2	19.4	6.08e-01	0	43	0	346554368	21	5071
2026-01-08 10:52:01.05	90.03	25.05	-30.3	-33.5	19.2	6.05e-01	0	43	0	352321536	21	5199
2026-01-08 10:52:04.08	89.16	25.36	-30.1	-32.8	19.7	6.04e-01	0	43	0	358088704	21	4926
2026-01-08 10:52:07.10	88.27	25.68	-30.0	-32.5	19.8	6.08e-01	0	43	0	363855872	21	4839
2026-01-08 10:52:10.09	87.37	25.98	-30.0	-32.6	19.8	6.08e-01	0	43	0	369098752	21	4851
2026-01-08 10:52:13.12	86.45	26.29	-30.1	-32.8	19.7	6.07e-01	0	43	0	374865920	21	4926
2026-01-08 10:52:16.14	85.51	26.59	-29.9	-32.4	20.0	6.04e-01	0	43	0	380633088	21	4776
2026-01-08 10:52:19.16	84.55	26.88	-29.9	-32.3	20.0	6.06e-01	0	43	0	386400256	21	4765
2026-01-08 10:52:22.18	83.57	27.17	-30.0	-32.6	19.8	6.06e-01	0	43	0	391643136	21	4870
2026-01-08 10:52:25.19	82.57	27.46	-29.8	-32.1	20.1	6.07e-01	0	43	0	397410304	21	4698
2026-01-08 10:52:28.21	81.56	27.73	-29.8	-32.0	20.2	6.07e-01	0	43	0	403177472	21	4667
2026-01-08 10:52:31.22	80.53	28.00	-29.7	-31.8	20.3	6.06e-01	0	43	0	408944640	21	4582
2026-01-08 10:52:34.24	79.47	28.27	-29.7	-31.9	20.2	6.08e-01	0	43	0	414711808	21	4631
2026-01-08 10:52:37.26	78.40	28.52	-29.7	-31.9	20.3	6.05e-01	0	43	0	419954688	21	4620
2026-01-08 10:52:40.28	77.32	28.77	-29.6	-31.6	20.5	6.05e-01	0	43	0	425721856	21	4515
2026-01-08 10:52:43.30	76.21	29.01	-30.0	-41.9	3.8	7.46e-01	0	43	104	430964736	21	14201
2026-01-08 10:52:46.31	75.09	29.23	-30.3	-42.8	3.8	7.43e-01	0	43	104	430964736	21	15071
2026-01-08 10:52:49.32	73.96	29.45	-31.4	-44.5	3.8	7.45e-01	0	43	104	430964736	23	16261
2026-01-08 10:52:52.34	72.81	29.66	-31.8	-45.0	3.8	7.49e-01	0	43	104	430964736	24	16556
2026-01-08 10:52:55.35	71.64	29.85	-32.7	-46.7	3.8	7.47e-01	0	43	104	430964736	26	18055
2026-01-08 10:52:58.36	70.46	30.04	-32.8	-46.7	3.8	7.47e-01	0	43	104	430964736	27	17790
2026-01-08 10:53:01.38	69.27	30.21	-31.8	-44.6	3.8	7.40e-01	0	43	104	430964736	25	15739
2026-01-08 10:53:04.39	68.06	30.37	-32.6	-47.0	3.8	7.47e-01	0	43	104	430964736	25	18974
2026-01-08 10:53:07.41	66.84	30.51	-33.4	-48.9	3.8	7.40e-01	0	43	104	430964736	27	21535
2026-01-08 10:53:10.42	65.62	30.64	-33.4	-49.3	3.8	7.47e-01	0	43	104	430964736	27	22356
2026-01-08 10:53:13.43	64.38	30.76	-33.6	-49.9	3.8	7.41e-01	0	43	104	430964736	27	23633
2026-01-08 10:53:16.45	63.13	30.87	-33.4	-48.9	3.8	7.46e-01	0	43	104	430964736	28	21347
2026-01-08 10:53:19.47	61.87	30.96	-32.6	-46.2	3.8	7.47e-01	0	43	104	430964736	27	17171
2026-01-08 10:53:22.48	60.61	31.03	-32.3	-45.7	3.8	7.46e-01	0	43	104	430964736	26	16764
2026-01-08 10:53:25.50	59.34	31.09	-32.3	-45.5	3.8	7.44e-01	0	43	104	430964736	26	16497
2026-01-08 10:53:28.52	58.07	31.13	-31.8	-44.5	3.8	7.45e-01	0	43	104	430964736	25	15609
2026-01-08 10:53:31.54	56.80	31.16	-30.7	-42.5	3.8	7.48e-01	0	43	104	430964736	23	14090
2026-01-08 10:53:34.57	55.51	31.17	-31.0	-43.4	3.8	7.44e-01	0	43	104	430964736	23	15002
2026-01-08 10:53:37.59	54.24	31.17	-32.3	-46.1	3.8	7.45e-01	0	43	104	430964736	25	17571
2026-01-08 10:53:40.60	52.96	31.15	-33.2	-47.9	3.8	7.46e-01	0	43	104	430964736	27	19587
2026-01-08 10:53:43.62	51.69	31.12	-33.4	-49.1	3.8	7.46e-01	0	43	104	430964736	27	21724
2026-01-08 10:53:46.65	50.41	31.07	-33.0	-47.1	3.8	7.45e-01	0	43	104	430964736	28	18210
2026-01-08 10:53:49.67	49.15	31.00	-32.1	-45.0	3.8	7.45e-01	0	43	104	430964736	26	15854
2026-01-08 10:53:52.69	47.89	30.92	-31.8	-44.5	3.8	7.44e-01	0	43	104	430964736	25	15626
2026-01-08 10:53:55.71	46.63	30.83	-32.9	-47.8	3.8	7.43e-01	0	43	104	430964736	26	19903
2026-01-08 10:53:58.73	45.39	30.72	-33.5	-49.6	3.8	7.45e-01	0	43	104	430964736	27	22764
2026-01-08 10:54:01.73	44.16	30.60	-33.5	-49.4	3.8	7.43e-01	0	43	104	430964736	28	22250
2026-01-08 10:54:04.75	42.94	30.46	-33.7	-50.1	3.8	7.45e-01	0	43	104	430964736	28	23884
2026-01-08 10:54:07.76	41.73	30.31	-33.0	-47.3	3.8	7.46e-01	0	43	104	430964736	28	18652
2026-01-08 10:54:10.78	40.52	30.15	-32.3	-45.9	3.8	7.44e-01	0	43	104	430964736	26	17082
2026-01-08 10:54:13.80	39.34	29.97	-32.4	-45.9	3.8	7.45e-01	0	43	104	430964736	26	17060
2026-01-08 10:54:16.81	38.16	29.78	-32.9	-47.8	3.8	7.45e-01	0	43	104	430964736	26	19942
2026-01-08 10:54:19.83	37.00	29.58	-32.3	-45.7	3.8	7.44e-01	0	43	104	430964736	26	16762
2026-01-08 10:54:22.85	35.86	29.37	-31.7	-44.5	3.8	7.46e-01	0	43	104	430964736	25	15579
2026-01-08 10:54:25.87	34.73	29.15	-33.0	-48.0	3.8	7.46e-01	0	43	104	430964736	26	20329
2026-01-08 10:54:28.90	33.62	28.92	-32.7	-46.6	3.8	7.40e-01	0	43	104	430964736	27	17784
2026-01-08 10:54:31.91	32.52	28.68	-32.8	-46.8	3.8	7.42e-01	0	43	104	430964736	27	18042
2026-01-08 10:54:34.93	31.45	28.43	-33.2	-48.2	3.8	7.48e-01	0	43	104	430964736	27	20294
2026-01-08 10:54:37.96	30.38	28.17	-32.3	-45.8	3.8	7.45e-01	0	43	104	430964736	26	17035
2026-01-08 10:54:40.97	29.34	27.91	-31.6	-44.3	3.8	7.42e-01	0	43	104	430964736	25	15506
2026-01-08 10:54:43.99	28.32	27.64	-32.1	-45.8	3.8	7.46e-01	0	43	104	430964736	25	17272
2026-01-08 10:54:47.01	27.31	27.36	-33.2	-48.7	3.8	7.47e-01	0	43	104	430964736	27	21391
2026-01-08 10:54:50.03	26.33	27.07	-33.5	-49.8	3.8	7.42e-01	0	43	104	430964736	27	23554
2026-01-08 10:54:53.05	25.36	26.78	-33.5	-50.0	3.8	7.44e-01	0	43	104	430964736	27	23916
2026-01-08 10:54:56.07	24.41	26.49	-33.4	-49.2	3.8	7.43e-01	0	43	104	430964736	28	22115
2026-01-08 10:54:59.09	23.48	26.18	-32.6	-46.5	3.8	7.45e-01	0	43	104	430964736	27	17802
2026-01-08 10:55:02.12	22.56	25.88	-32.5	-46.7	3.8	7.41e-01	0	43	104	430964736	26	18278
2026-01-08 10:55:05.13	21.67	25.57	-33.1	-48.3	3.9	7.43e-01	0	43	104	430964736	27	20707
2026-01-08 10:55:08.16	20.79	25.26	-33.3	-49.2	3.8	7.46e-01	0	43	104	430964736	27	22309
2026-01-08 10:55:11.17	19.93	24.94	-33.1	-48.0	3.8	7.46e-01	0	43	104	430964736	27	20028
2026-01-08 10:55:14.19	19.09	24.63	-33.4	-49.3	3.8	7.44e-01	0	43	104	430964736	27	22513
2026-01-08 10:55:17.21	18.27	24.31	-32.9	-47.0	3.8	7.46e-01	0	43	104	430964736	28	18235
2026-01-08 10:55:20.24	17.46	23.98	-32.2	-45.5	3.8	7.44e-01	0	43	104	430964736	26	16525
2026-01-08 10:55:23.26	16.68	23.66	-32.5	-46.6	3.8	7.46e-01	0	43	104	430964736	26	18314
2026-01-08 10:55:26.28	15.91	23.34	-32.4	-46.0	3.8	7.46e-01	0	43	104	430964736	26	17305
2026-01-08 10:55:29.30	15.15	23.01	-31.6	-44.4	3.8	7.44e-01	0	43	104	430964736	25	15687
2026-01-08 10:55:32.32	14.42	22.69	-31.3	-44.1	3.8	7.46e-01	0	43	104	430964736	24	15629
2026-01-08 10:55:35.35	13.69	22.36	-32.5	-47.2	3.8	7.45e-01	0	43	104	430964736	25	19527
2026-01-08 10:55:38.37	12.99	22.03	-33.3	-49.3	3.8	7.46e-01	0	43	104	430964736	27	22811
2026-01-08 10:55:41.39	12.30	21.71	-33.3	-49.6	3.8	7.46e-01	0	43	104	430964736	27	23374
2026-01-08 10:55:44.41	11.62	21.38	-33.5	-50.2	3.8	7.46e-01	0	43	104	430964736	27	24710
2026-01-08 10:55:47.42	10.97	21.06	-33.1	-48.6	3.8	7.46e-01	0	43	104	430964736	27	21417
2026-01-08 10:55:50.44	10.32	20.74	-32.6	-46.5	3.8	7.47e-01	0	43	104	430964736	27	17902
2026-01-08 10:55:53.46	9.69	20.41	-33.1	-48.5	3.8	7.41e-01	0	43	104	430964736	27	21231
2026-01-08 10:55:56.48	9.08	20.09	-33.4	-49.8	3.8	7.46e-01	0	43	104	430964736	27	23821
2026-01-08 10:55:59.50	8.47	19.77	-33.5	-50.4	3.8	7.43e-01	0	43	104	430964736	27	25165
2026-01-08 10:56:02.51	7.89	19.45	-33.6	-50.6	3.8	7.48e-01	0	43	104	430964736	27	25526
2026-01-08 10:56:05.53	7.31	19.13	-32.8	-47.6	3.8	7.46e-01	0	43	104	430964736	27	19581
2026-01-08 10:56:08.55	6.75	18.82	-31.7	-44.8	3.8	7.45e-01	0	43	104	430964736	25	16192
2026-01-08 10:56:11.56	6.20	18.50	-31.5	-44.2	3.8	7.48e-01	0	43	104	430964736	25	15524
2026-01-08 10:56:14.57	5.66	18.19	-32.0	-45.7	3.8	7.46e-01	0	43	104	430964736	25	17395
2026-01-08 10:56:17.60	5.13	17.88	-31.4	-44.1	3.8	7.45e-01	0	43	104	430964736	25	15458
2026-01-08 10:56:20.62	4.61	17.57	-30.9	-43.1	3.8	7.45e-01	0	43	104	430964736	24	14598
2026-01-08 10:56:23.64	4.11	17.27	-31.5	-45.2	3.8	7.42e-01	0	43	104	430964736	23	17424
2026-01-08 10:56:26.66	3.62	16.96	-32.7	-47.5	3.9	7.43e-01	0	43	104	430964736	26	19969
2026-01-08 10:56:29.68	3.13	16.66	-33.2	-49.2	3.8	7.47e-01	0	43	104	430964736	27	22942
2026-01-08 10:56:32.69	2.66	16.36	-33.3	-49.8	3.8	7.44e-01	0	43	104	430964736	27	24079
2026-01-08 10:56:35.71	2.20	16.06	-33.4	-50.4	3.8	7.47e-01	0	43	104	430964736	27	25413
2026-01-08 10:56:38.73	1.75	15.76	-33.0	-48.5	3.8	7.47e-01	0	43	104	430964736	27	21469
2026-01-08 10:56:41.75	1.31	15.47	-33.0	-48.7	3.8	7.45e-01	0	43	104	430964736	27	21730
2026-01-08 10:56:44.76	0.87	15.18	-33.3	-50.0	3.8	7.42e-01	0	43	104	430964736	27	24482
2026-01-08 10:56:47.79	0.45	14.89	-33.1	-49.1	3.8	7.46e-01	0	43	104	430964736	27	22729
2026-01-08 10:56:50.80	0.03	14.60	-33.0	-48.5	3.8	7.45e-01	0	43	104	430964736	27	21452
2026-01-08 10:56:53.83	359.63	14.32	-32.8	-47.6	3.8	7.42e-01	0	43	104	430964736	27	19737
2026-01-08 10:56:56.84	359.23	14.04	-31.7	-45.2	3.8	7.42e-01	0	43	104	430964736	25	16947
2026-01-08 10:56:59.87	358.84	13.75	-31.1	-43.7	3.8	7.43e-01	0	43	104	430964736	24	15388
2026-01-08 10:57:02.89	358.45	13.48	-31.2	-43.8	3.8	7.44e-01	0	43	104	430964736	24	15393
2026-01-08 10:57:05.91	358.08	13.20	-31.4	-44.7	3.8	7.43e-01	0	43	104	430964736	24	16552
2026-01-08 10:57:08.93	357.71	12.93	-31.0	-43.5	3.8	7.42e-01	0	43	104	430964736	24	15293
2026-01-08 10:57:11.94	357.36	12.66	-31.5	-44.8	3.8	7.43e-01	0	43	104	430964736	24	16729
2026-01-08 10:57:14.96	357.00	12.39	-32.3	-47.1	3.8	7.45e-01	0	43	104	430964736	25	19805
2026-01-08 10:57:17.97	356.66	12.12	-32.9	-49.4	3.8	7.45e-01	0	43	104	430964736	26	24000
2026-01-08 10:57:20.99	356.32	11.86	-33.2	-50.0	3.8	7.46e-01	0	43	104	430964736	27	24985
2026-01-08 10:57:24.01	355.99	11.60	-33.3	-50.7	3.8	7.46e-01	0	43	104	430964736	27	26481
2026-01-08 10:57:27.01	355.67	11.34	-33.3	-50.4	3.8	7.45e-01	0	43	104	430964736	27	25806
2026-01-08 10:57:30.03	355.35	11.08	-33.0	-49.2	3.8	7.42e-01	0	43	104	430964736	27	23037
2026-01-08 10:57:33.05	355.04	10.83	-33.2	-50.2	3.8	7.41e-01	0	43	104	430964736	27	25263
2026-01-08 10:57:36.07	354.73	10.57	-33.0	-49.1	3.8	7.46e-01	0	43	104	430964736	27	23096
2026-01-08 10:57:39.09	354.43	10.32	-32.6	-47.8	3.8	7.44e-01	0	43	104	430964736	27	20541
2026-01-08 10:57:42.09	354.13	10.07	-32.5	-47.0	3.8	7.43e-01	0	43	104	430964736	27	19221
2026-01-08 10:57:45.11	353.85	9.83	-31.8	-45.7	3.8	7.47e-01	0	43	104	430964736	25	17686
2026-01-08 10:57:48.13	353.56	9.58	-31.1	-44.0	3.8	7.44e-01	0	43	104	430964736	24	15831
2026-01-08 10:57:51.15	353.28	9.34	-31.0	-43.5	3.8	7.47e-01	0	43	104	430964736	24	15261
2026-01-08 10:57:54.17	353.01	9.10	-31.4	-44.7	3.8	7.46e-01	0	43	104	430964736	24	16758
2026-01-08 10:57:57.18	352.74	8.86	-31.2	-44.4	3.8	7.45e-01	0	43	104	430964736	24	16370
2026-01-08 10:58:00.20	352.48	8.62	-31.8	-46.2	3.8	7.45e-01	0	43	104	430964736	24	18928
2026-01-08 10:58:03.22	352.22	8.39	-32.4	-48.1	3.8	7.46e-01	0	43	104	430964736	25	21884
2026-01-08 10:58:06.24	351.96	8.15	-32.9	-49.6	3.8	7.45e-01	0	43	104	430964736	26	24585
2026-01-08 10:58:09.26	351.71	7.92	-33.1	-50.4	3.8	7.45e-01	0	43	104	430964736	27	26349
2026-01-08 10:58:12.28	351.47	7.69	-33.1	-50.9	3.8	7.45e-01	0	43	104	430964736	27	27701
2026-01-08 10:58:15.30	351.23	7.47	-33.2	-51.3	3.8	7.43e-01	0	43	104	430964736	27	28939
2026-01-08 10:58:18.32	350.99	7.24	-33.0	-50.5	3.8	7.45e-01	0	43	104	430964736	27	26736
2026-01-08 10:58:21.34	350.76	7.02	-33.6	-52.8	3.8	7.46e-01	0	43	104	430964736	28	32629

#Closed at: 2026-01-08 10:58:22
#Recorded file [430 MB]: D:/data/31010_260108_134852.dat