passes_logs/2026/01/08/R2M6_AANII_01/R2M6_AANII_01__20260108_002643_NOAA_20_JPSS-1_rec.log

#Pass ID: 20260108_002643_NOAA 20 (JPSS-1)
#Satellite: NOAA 20 (JPSS-1)
#Configuration: NOAA 20
#almurnet v.1.7.20240730
#Start time: 2026-01-08 00:26:43

#Version: 2.2.20231116
#Station: R2M6_AANII_01
#Location: 30.233357 lon 59.946436 lat
#TLE: 1 43013U 17073A   26006.30790171  .00000126  00000+0  80695-4 0  9991
#TLE: 2 43013  98.7629 307.3394 0001808  51.8724 308.2615 14.19533762421505

#Time	Az	El	Level	Level2	SNR	BER	BlckErr	Temp	State	Recorded	gain1	gain2
2026-01-08 00:26:43.20	17.60	7.01	-31.7	-39.3	4.6	1.36e+00	0	41	0	0	23	8682
2026-01-08 00:26:46.22	17.60	7.25	-31.9	-40.7	5.5	5.09e-01	0	41	0	1048576	23	9825
2026-01-08 00:26:49.23	17.59	7.48	-32.0	-40.6	5.3	6.74e-01	0	41	0	7340032	24	9681
2026-01-08 00:26:52.26	17.58	7.72	-31.7	-38.8	6.8	2.52e-01	0	41	0	12582912	23	8158
2026-01-08 00:26:55.27	17.58	7.96	-31.4	-37.9	7.9	7.69e-02	0	42	0	18874368	22	7558
2026-01-08 00:26:58.29	17.57	8.20	-31.4	-37.8	8.1	5.54e-02	0	42	0	24117248	22	7467
2026-01-08 00:27:01.32	17.56	8.44	-31.5	-37.5	7.9	6.91e-02	0	42	0	29360128	23	7207
2026-01-08 00:27:04.33	17.56	8.69	-31.7	-38.3	7.4	1.05e-01	0	42	0	35651584	23	7705
2026-01-08 00:27:07.34	17.55	8.94	-31.6	-38.0	7.6	1.00e-01	0	42	0	40894464	23	7513
2026-01-08 00:27:10.36	17.54	9.19	-30.6	-36.4	8.2	5.62e-02	0	42	0	47185920	23	7015
2026-01-08 00:27:13.37	17.53	9.44	-31.4	-37.3	8.6	4.15e-02	0	42	0	52428800	22	7096
2026-01-08 00:27:16.39	17.52	9.70	-31.1	-36.0	9.6	1.60e-02	0	42	0	57671680	22	6356
2026-01-08 00:27:19.41	17.52	9.96	-30.8	-35.7	10.2	9.75e-03	0	42	0	63963136	21	6327
2026-01-08 00:27:22.42	17.51	10.22	-30.8	-35.7	10.2	7.75e-03	0	42	0	69206016	21	6307
2026-01-08 00:27:25.44	17.50	10.49	-30.9	-36.0	10.1	8.11e-03	0	42	0	74448896	21	6466
2026-01-08 00:27:28.45	17.49	10.75	-31.0	-36.1	10.0	1.14e-02	0	42	0	80740352	21	6531
2026-01-08 00:27:31.46	17.47	11.02	-30.9	-36.0	10.1	9.64e-03	0	43	0	85983232	21	6434
2026-01-08 00:27:34.48	17.46	11.30	-31.2	-36.3	9.5	1.26e-02	0	43	0	92274688	22	6500
2026-01-08 00:27:37.49	17.45	11.57	-30.7	-35.3	10.6	4.65e-03	0	42	0	97517568	21	6083
2026-01-08 00:27:40.51	17.44	11.85	-30.5	-34.5	11.3	1.89e-03	0	43	0	102760448	21	5727
2026-01-08 00:27:43.53	17.43	12.14	-30.5	-34.5	11.3	1.81e-03	0	43	0	109051904	21	5685
2026-01-08 00:27:46.55	17.41	12.42	-30.5	-34.8	11.5	1.48e-03	0	43	0	114294784	20	5944
2026-01-08 00:27:49.55	17.40	12.71	-30.4	-34.7	11.6	1.32e-03	0	43	0	120586240	20	5884
2026-01-08 00:27:52.56	17.39	13.01	-30.4	-34.6	11.6	3.00e-03	0	43	0	125829120	20	5863
2026-01-08 00:27:55.58	17.37	13.30	-30.3	-34.3	11.9	1.04e-03	0	43	0	131072000	20	5717
2026-01-08 00:27:58.60	17.36	13.60	-30.3	-34.3	11.9	1.03e-03	0	43	0	137363456	20	5692
2026-01-08 00:28:01.62	17.34	13.91	-30.3	-34.2	12.0	9.86e-04	0	43	0	142606336	20	5650
2026-01-08 00:28:04.63	17.33	14.22	-30.4	-34.5	11.8	1.07e-03	0	43	0	148897792	20	5777
2026-01-08 00:28:07.64	17.31	14.53	-29.5	-33.4	11.9	7.44e-04	0	43	0	154140672	20	5628
2026-01-08 00:28:10.65	17.29	14.84	-30.4	-34.5	11.5	1.06e-03	0	43	0	159383552	20	5789
2026-01-08 00:28:13.66	17.27	15.16	-30.3	-34.1	12.0	2.84e-04	0	43	0	165675008	20	5622
2026-01-08 00:28:16.68	17.25	15.49	-30.2	-34.0	12.2	1.27e-03	0	43	0	170917888	20	5554
2026-01-08 00:28:19.70	17.23	15.82	-30.1	-33.5	12.6	2.81e-03	0	43	0	177209344	20	5357
2026-01-08 00:28:22.72	17.21	16.15	-30.0	-33.4	12.6	5.74e-04	0	43	0	182452224	20	5306
2026-01-08 00:28:25.74	17.19	16.49	-30.0	-33.3	12.8	6.04e-04	0	43	0	187695104	20	5259
2026-01-08 00:28:28.76	17.17	16.83	-29.9	-33.0	13.0	4.73e-05	0	43	0	193986560	20	5140
2026-01-08 00:28:31.77	17.15	17.18	-30.0	-33.6	13.0	2.89e-05	0	43	0	199229440	19	5466
2026-01-08 00:28:34.79	17.13	17.53	-29.9	-33.4	13.2	2.39e-03	0	43	0	205520896	19	5397
2026-01-08 00:28:37.81	17.10	17.89	-29.8	-33.1	13.3	2.68e-03	0	43	0	210763776	19	5277
2026-01-08 00:28:40.83	17.08	18.25	-29.9	-33.4	13.2	2.58e-03	0	43	0	216006656	19	5374
2026-01-08 00:28:43.85	17.05	18.62	-30.2	-33.9	12.5	2.51e-03	0	43	0	222298112	20	5465
2026-01-08 00:28:46.86	17.02	19.00	-30.0	-33.3	12.9	2.70e-03	0	43	0	227540992	20	5251
2026-01-08 00:28:49.89	17.00	19.38	-30.1	-33.6	12.7	2.57e-03	0	43	0	232783872	20	5357
2026-01-08 00:28:52.90	16.97	19.76	-29.8	-33.1	13.5	1.29e-05	0	43	0	239075328	19	5250
2026-01-08 00:28:55.93	16.94	20.16	-29.9	-33.3	13.4	2.55e-03	0	43	0	244318208	19	5316
2026-01-08 00:28:58.94	16.90	20.56	-29.7	-32.7	13.8	2.37e-03	0	43	0	250609664	19	5109
2026-01-08 00:29:01.96	16.87	20.96	-29.6	-32.5	14.0	2.24e-03	0	43	0	255852544	19	5005
2026-01-08 00:29:04.97	16.84	21.37	-29.5	-32.2	14.1	2.49e-03	0	43	0	261095424	19	4931
2026-01-08 00:29:07.99	16.80	21.79	-29.7	-32.7	13.8	2.38e-03	0	43	0	267386880	19	5089
2026-01-08 00:29:11.01	16.77	22.22	-29.5	-32.3	14.1	2.20e-06	0	43	0	272629760	19	4947
2026-01-08 00:29:14.03	16.73	22.65	-29.5	-32.6	14.2	2.20e-06	0	43	0	278921216	18	5174
2026-01-08 00:29:17.05	16.69	23.09	-29.6	-32.4	14.1	1.50e-06	0	43	0	284164096	19	4978
2026-01-08 00:29:20.07	16.65	23.54	-29.5	-32.1	14.2	7.00e-07	0	43	0	289406976	19	4868
2026-01-08 00:29:23.08	16.61	23.99	-29.5	-32.2	14.2	7.00e-07	0	43	0	295698432	19	4897
2026-01-08 00:29:26.10	16.57	24.46	-29.7	-32.7	13.9	4.50e-06	0	43	0	300941312	19	5102
2026-01-08 00:29:29.12	16.52	24.93	-29.5	-32.2	14.2	7.00e-07	0	43	0	307232768	19	4917
2026-01-08 00:29:32.14	16.48	25.41	-29.6	-32.4	14.1	3.80e-06	0	43	0	312475648	19	4991
2026-01-08 00:29:35.15	16.43	25.90	-29.8	-32.9	13.7	3.00e-06	0	43	0	317718528	19	5139
2026-01-08 00:29:38.16	16.38	26.40	-29.9	-33.2	13.6	5.30e-06	0	43	0	324009984	19	5284
2026-01-08 00:29:41.18	16.32	26.90	-30.1	-33.2	13.2	1.60e-05	0	43	0	329252864	20	5163
2026-01-08 00:29:44.19	16.27	27.42	-30.2	-33.4	13.1	3.20e-05	0	43	0	335544320	20	5251
2026-01-08 00:29:47.20	16.21	27.95	-30.5	-34.3	12.5	7.70e-05	0	43	0	340787200	20	5613
2026-01-08 00:29:50.22	16.15	28.49	-30.8	-34.8	11.8	3.97e-04	0	43	0	346030080	21	5725
2026-01-08 00:29:53.24	16.09	29.03	-31.1	-35.4	11.1	1.83e-03	0	44	0	352321536	22	5853
2026-01-08 00:29:56.26	16.03	29.59	-31.5	-36.5	10.3	5.03e-03	0	44	0	357564416	22	6405
2026-01-08 00:29:59.27	15.96	30.16	-31.6	-36.5	10.0	8.26e-03	0	44	0	363855872	23	6290
2026-01-08 00:30:02.29	15.89	30.75	-31.7	-36.8	9.7	9.23e-03	0	43	0	369098752	23	6456
2026-01-08 00:30:05.30	15.82	31.34	-31.7	-36.8	9.7	9.33e-03	0	43	0	374341632	23	6439
2026-01-08 00:30:08.31	15.74	31.94	-31.7	-36.8	9.7	1.22e-02	0	44	0	380633088	23	6483
2026-01-08 00:30:11.34	15.66	32.57	-31.4	-35.7	10.5	4.08e-03	0	43	0	385875968	23	5924
2026-01-08 00:30:14.35	15.58	33.20	-31.3	-35.9	10.8	3.38e-03	0	43	0	392167424	22	6126
2026-01-08 00:30:17.37	15.49	33.84	-30.7	-34.3	12.3	2.44e-04	0	44	0	397410304	21	5496
2026-01-08 00:30:20.39	15.40	34.50	-30.3	-33.8	12.9	4.34e-05	0	44	0	402653184	20	5363
2026-01-08 00:30:23.41	15.31	35.18	-29.9	-33.2	13.5	6.80e-06	0	44	0	408944640	19	5250
2026-01-08 00:30:26.41	15.21	35.86	-29.3	-32.1	14.7	0.00e+00	0	44	0	414187520	18	4963
2026-01-08 00:30:29.43	15.11	36.56	-28.8	-31.4	15.5	0.00e+00	0	43	0	420478976	17	4827
2026-01-08 00:30:32.45	15.00	37.28	-28.7	-31.1	15.7	0.00e+00	0	43	0	425721856	17	4731
2026-01-08 00:30:35.47	14.88	38.02	-28.7	-31.1	15.7	0.00e+00	0	43	0	430964736	17	4730
2026-01-08 00:30:38.49	14.76	38.77	-29.0	-31.3	15.3	0.00e+00	0	44	0	437256192	18	4707
2026-01-08 00:30:41.50	14.63	39.53	-29.5	-32.5	14.6	0.00e+00	0	44	0	442499072	18	5098
2026-01-08 00:30:44.52	14.50	40.32	-29.5	-32.1	14.5	7.00e-07	0	44	0	448790528	19	4853
2026-01-08 00:30:47.53	14.36	41.12	-29.6	-32.3	14.4	3.06e-04	0	43	0	454033408	19	4932
2026-01-08 00:30:50.56	14.21	41.94	-29.4	-32.3	14.7	1.92e-04	0	43	0	459276288	18	5046
2026-01-08 00:30:53.57	14.05	42.78	-29.4	-32.3	14.7	2.17e-04	0	43	0	465567744	18	5013
2026-01-08 00:30:56.59	13.89	43.64	-29.5	-32.1	14.6	1.99e-04	0	44	0	470810624	19	4833
2026-01-08 00:30:59.61	13.71	44.51	-30.0	-33.2	13.9	2.43e-04	0	44	0	477102080	19	5252
2026-01-08 00:31:02.63	13.52	45.41	-30.8	-34.7	12.1	8.69e-05	0	44	0	482344960	21	5615
2026-01-08 00:31:05.64	13.32	46.32	-31.1	-35.1	11.6	7.57e-04	0	43	0	487587840	22	5703
2026-01-08 00:31:08.66	13.11	47.26	-31.5	-35.9	10.6	2.63e-03	0	43	0	493879296	23	5958
2026-01-08 00:31:11.68	12.89	48.22	-31.3	-35.2	11.1	2.05e-03	0	44	0	499122176	23	5637
2026-01-08 00:31:14.71	12.64	49.20	-31.3	-35.7	11.1	1.39e-03	0	44	0	505413632	22	5950
2026-01-08 00:31:17.72	12.39	50.20	-30.7	-33.9	12.4	3.78e-04	0	44	0	510656512	22	5185
2026-01-08 00:31:20.74	12.11	51.23	-29.9	-32.2	13.8	1.41e-04	0	44	0	515899392	21	4683
2026-01-08 00:31:23.76	11.81	52.27	-29.4	-31.9	14.7	4.50e-06	0	43	0	522190848	19	4779
2026-01-08 00:31:26.78	11.49	53.34	-29.5	-32.0	14.6	3.75e-04	0	44	0	527433728	19	4798
2026-01-08 00:31:29.79	11.15	54.42	-28.7	-31.0	15.9	4.41e-04	0	44	0	532676608	17	4681
2026-01-08 00:31:32.82	10.77	55.54	-29.4	-32.2	14.9	6.32e-04	0	43	0	538968064	18	4986
2026-01-08 00:31:35.84	10.37	56.67	-30.4	-34.1	12.9	7.17e-05	0	44	0	544210944	20	5476
2026-01-08 00:31:38.85	9.93	57.82	-31.5	-35.9	10.6	2.11e-03	0	44	0	550502400	23	5928
2026-01-08 00:31:41.87	9.44	59.00	-31.4	-35.5	11.0	4.02e-03	0	44	0	555745280	23	5746
2026-01-08 00:31:44.88	8.92	60.19	-30.7	-33.9	12.5	6.31e-04	0	44	0	560988160	22	5173
2026-01-08 00:31:47.90	8.33	61.41	-30.0	-32.9	13.8	4.42e-04	0	44	0	567279616	20	5029
2026-01-08 00:31:50.92	7.69	62.65	-29.9	-32.7	13.9	3.78e-04	0	43	0	572522496	20	4939
2026-01-08 00:31:53.93	6.97	63.90	-29.5	-32.1	14.7	2.74e-05	0	44	0	578813952	19	4819
2026-01-08 00:31:56.95	6.17	65.18	-30.1	-33.2	13.6	8.30e-06	0	44	0	584056832	20	5116
2026-01-08 00:31:59.95	5.28	66.46	-30.4	-33.4	13.1	3.12e-05	0	44	0	589299712	21	5090
2026-01-08 00:32:02.96	4.27	67.77	-29.8	-32.3	14.2	3.00e-06	0	44	0	595591168	20	4802
2026-01-08 00:32:05.98	3.11	69.09	-30.0	-32.7	13.9	1.17e-03	0	44	0	600834048	20	4948
2026-01-08 00:32:09.00	1.78	70.41	-29.9	-32.5	14.1	1.38e-03	0	44	0	607125504	20	4844
2026-01-08 00:32:12.02	0.25	71.75	-29.9	-32.6	14.1	1.45e-03	0	44	0	612368384	20	4907
2026-01-08 00:32:15.04	358.45	73.09	-30.0	-32.7	14.0	7.00e-07	0	44	0	617611264	20	4925
2026-01-08 00:32:18.05	356.33	74.42	-31.0	-34.7	12.0	1.30e-04	0	44	0	623902720	22	5505
2026-01-08 00:32:21.06	353.80	75.74	-30.4	-33.3	13.4	2.28e-05	0	44	0	629145600	21	5018
2026-01-08 00:32:24.09	350.71	77.05	-30.9	-34.8	12.4	1.47e-04	0	44	0	635437056	21	5612
2026-01-08 00:32:27.10	346.95	78.31	-31.2	-35.1	11.8	3.82e-04	0	44	0	640679936	22	5636
2026-01-08 00:32:30.10	342.28	79.52	-30.1	-32.6	13.8	1.06e-05	0	44	0	645922816	21	4784
2026-01-08 00:32:33.12	336.36	80.66	-30.7	-34.1	12.9	2.36e-05	0	44	0	652214272	21	5319
2026-01-08 00:32:36.14	328.88	81.68	-31.3	-35.4	11.6	4.63e-04	0	44	0	657457152	22	5760
2026-01-08 00:32:39.15	319.52	82.52	-31.1	-34.7	12.2	2.86e-04	0	44	0	663748608	22	5447
2026-01-08 00:32:42.16	308.16	83.12	-31.4	-35.6	11.5	6.68e-04	0	44	0	668991488	22	5892
2026-01-08 00:32:45.16	295.27	83.41	-31.3	-35.4	11.7	3.38e-04	0	44	0	674234368	22	5760
2026-01-08 00:32:48.18	281.85	83.34	-31.5	-35.5	11.1	1.51e-03	0	44	0	680525824	23	5715
2026-01-08 00:32:51.19	269.38	82.93	-31.7	-36.1	10.8	2.52e-03	0	44	0	685768704	23	6018
2026-01-08 00:32:54.21	258.70	82.24	-32.2	-37.6	9.2	3.46e-02	0	44	0	691011584	24	6674
2026-01-08 00:32:57.23	250.03	81.32	-30.5	-33.1	13.1	7.78e-05	0	44	0	697303040	22	4874
2026-01-08 00:33:00.23	243.21	80.26	-30.0	-32.8	13.9	1.88e-03	0	44	0	702545920	20	4967
2026-01-08 00:33:03.24	237.78	79.09	-30.1	-33.2	13.8	1.75e-03	0	44	0	708837376	20	5094
2026-01-08 00:33:06.25	233.46	77.86	-30.7	-34.1	12.7	6.33e-05	0	44	0	714080256	21	5356
2026-01-08 00:33:09.26	229.96	76.57	-30.9	-34.9	12.2	1.98e-03	0	44	0	719323136	21	5687
2026-01-08 00:33:12.28	227.09	75.26	-31.0	-34.6	12.0	2.76e-03	0	43	0	725614592	22	5453
2026-01-08 00:33:15.30	224.71	73.93	-29.8	-32.6	14.3	4.71e-04	0	44	0	730857472	19	5014
2026-01-08 00:33:18.31	222.72	72.60	-29.0	-30.6	15.6	3.36e-04	0	44	0	737148928	19	4358
2026-01-08 00:33:21.33	221.02	71.26	-28.1	-30.1	16.7	3.88e-04	0	44	0	742391808	16	4529
2026-01-08 00:33:24.35	219.57	69.92	-28.8	-31.2	15.9	3.97e-04	0	44	0	747634688	17	4740
2026-01-08 00:33:27.36	218.31	68.59	-30.9	-34.7	12.2	9.23e-05	0	44	0	753926144	21	5622
2026-01-08 00:33:30.37	217.21	67.28	-31.8	-36.8	10.1	5.08e-03	0	44	0	759169024	23	6417
2026-01-08 00:33:33.39	216.23	65.98	-31.0	-34.6	12.0	8.07e-04	0	44	0	765460480	22	5460
2026-01-08 00:33:36.40	215.38	64.69	-29.7	-32.6	14.4	0.00e+00	0	44	0	770703360	19	4989
2026-01-08 00:33:39.41	214.61	63.42	-28.8	-30.8	15.7	1.34e-03	0	44	0	775946240	18	4522
2026-01-08 00:33:42.43	213.92	62.17	-29.2	-31.7	15.2	1.86e-03	0	44	0	782237696	18	4797
2026-01-08 00:33:45.45	213.30	60.94	-29.3	-31.9	15.1	0.00e+00	0	44	0	787480576	18	4877
2026-01-08 00:33:48.47	212.73	59.72	-31.3	-35.6	11.3	3.46e-04	0	44	0	792723456	22	5924
2026-01-08 00:33:51.48	212.22	58.53	-31.6	-36.0	10.6	5.55e-03	0	44	0	799014912	23	6008
2026-01-08 00:33:54.51	211.75	57.36	-30.7	-34.3	12.5	1.72e-04	0	44	0	804257792	21	5443
2026-01-08 00:33:57.53	211.32	56.20	-29.5	-32.1	14.6	7.00e-07	0	44	0	810549248	19	4824
2026-01-08 00:34:00.53	210.93	55.08	-28.7	-31.1	15.8	0.00e+00	0	44	0	815792128	17	4724
2026-01-08 00:34:03.55	210.57	53.98	-29.0	-31.3	15.3	0.00e+00	0	43	0	821035008	18	4678
2026-01-08 00:34:06.56	210.23	52.90	-28.6	-30.7	15.9	1.68e-04	0	44	0	827326464	17	4614
2026-01-08 00:34:09.57	209.92	51.84	-28.5	-30.6	16.1	0.00e+00	0	43	0	832569344	17	4563
2026-01-08 00:34:12.59	209.63	50.80	-30.4	-34.0	13.0	4.50e-06	0	43	0	838860800	20	5431
2026-01-08 00:34:15.61	209.36	49.78	-31.7	-36.6	10.1	3.28e-03	0	43	0	844103680	23	6315
2026-01-08 00:34:18.63	209.11	48.78	-31.2	-35.3	11.4	1.70e-03	0	44	0	849346560	22	5797
2026-01-08 00:34:21.65	208.87	47.81	-31.7	-36.7	10.0	5.39e-03	0	44	0	855638016	23	6387
2026-01-08 00:34:24.66	208.65	46.86	-31.3	-35.2	11.1	2.45e-03	0	44	0	860880896	23	5619
2026-01-08 00:34:27.68	208.44	45.92	-30.8	-34.2	12.2	4.80e-04	0	44	0	867172352	22	5302
2026-01-08 00:34:30.70	208.25	45.01	-30.9	-35.0	12.0	5.16e-04	0	44	0	872415232	21	5771
2026-01-08 00:34:33.72	208.06	44.12	-31.4	-36.2	10.8	2.71e-03	0	44	0	877658112	22	6222
2026-01-08 00:34:36.75	207.89	43.24	-30.9	-34.4	12.0	3.83e-04	0	44	0	883949568	22	5397
2026-01-08 00:34:39.77	207.72	42.39	-30.7	-34.4	12.3	1.85e-04	0	44	0	889192448	21	5520
2026-01-08 00:34:42.79	207.57	41.55	-31.2	-35.3	11.5	6.11e-04	0	44	0	895483904	22	5808
2026-01-08 00:34:45.80	207.42	40.74	-31.6	-36.4	10.2	8.62e-03	0	44	0	900726784	23	6231
2026-01-08 00:34:48.82	207.28	39.94	-31.3	-35.8	11.0	2.79e-03	0	44	0	905969664	22	6019
2026-01-08 00:34:51.84	207.15	39.16	-31.1	-35.0	11.5	7.92e-04	0	44	0	912261120	22	5682
2026-01-08 00:34:54.85	207.02	38.40	-31.0	-34.8	11.6	6.71e-04	0	44	0	917504000	22	5602
2026-01-08 00:34:57.85	206.90	37.66	-31.1	-35.3	11.4	1.11e-03	0	44	0	923795456	22	5793
2026-01-08 00:35:00.86	206.79	36.93	-30.8	-34.8	12.0	3.17e-04	0	44	0	929038336	21	5695
2026-01-08 00:35:03.87	206.68	36.21	-30.8	-34.7	12.0	3.73e-04	0	44	0	934281216	21	5675
2026-01-08 00:35:06.88	206.58	35.52	-30.6	-34.2	12.3	1.68e-04	0	44	0	940572672	21	5443
2026-01-08 00:35:09.90	206.48	34.83	-30.5	-34.1	12.4	1.76e-04	0	44	0	945815552	21	5392
2026-01-08 00:35:12.91	206.38	34.16	-30.3	-33.9	12.9	7.85e-05	0	44	0	951058432	20	5419
2026-01-08 00:35:15.92	206.29	33.51	-30.8	-34.8	12.0	1.93e-04	0	43	0	957349888	21	5696
2026-01-08 00:35:18.94	206.21	32.86	-31.3	-35.8	10.8	2.47e-03	0	44	0	962592768	22	6075
2026-01-08 00:35:21.97	206.13	32.23	-31.4	-36.4	10.4	5.55e-03	0	44	0	968884224	22	6341
2026-01-08 00:35:24.99	206.05	31.62	-31.5	-35.9	10.3	6.43e-03	0	44	0	974127104	23	6012
2026-01-08 00:35:28.01	205.97	31.01	-31.0	-35.3	11.5	1.29e-03	0	44	0	979369984	21	5924
2026-01-08 00:35:31.01	205.90	30.42	-30.8	-34.8	11.7	1.36e-03	0	44	0	985661440	21	5707
2026-01-08 00:35:34.03	205.83	29.84	-30.8	-34.7	11.7	1.31e-03	0	44	0	990904320	21	5697
2026-01-08 00:35:37.05	205.76	29.27	-30.7	-34.8	11.9	2.99e-03	0	44	0	997195776	21	5719
2026-01-08 00:35:40.06	205.70	28.72	-31.1	-35.2	11.2	4.06e-03	0	44	0	1002438656	22	5822
2026-01-08 00:35:43.07	205.63	28.17	-31.2	-35.6	10.9	2.74e-03	0	44	0	1007681536	22	6019
2026-01-08 00:35:46.08	205.57	27.64	-30.9	-35.4	11.4	2.35e-03	0	44	0	1013972992	21	6005
2026-01-08 00:35:49.10	205.52	27.11	-31.1	-35.4	11.0	2.46e-03	0	44	0	1019215872	22	5917
2026-01-08 00:35:52.13	205.46	26.59	-30.7	-34.6	11.9	2.10e-03	0	44	0	1025507328	21	5662
2026-01-08 00:35:55.15	205.41	26.09	-30.3	-33.9	12.7	3.35e-03	0	44	0	1030750208	20	5440
2026-01-08 00:35:58.17	205.36	25.59	-30.2	-33.6	12.9	3.71e-03	0	44	0	1035993088	20	5343
2026-01-08 00:36:01.19	205.31	25.10	-30.0	-33.1	13.2	2.40e-03	0	44	0	1042284544	20	5148
2026-01-08 00:36:04.21	205.26	24.62	-30.0	-33.2	13.2	2.22e-03	0	44	0	1047527424	20	5177
2026-01-08 00:36:07.23	205.21	24.15	-30.2	-33.6	12.9	2.54e-03	0	44	0	1053818880	20	5327
2026-01-08 00:36:10.24	205.17	23.69	-30.1	-33.5	13.0	3.89e-05	0	44	0	1059061760	20	5282
2026-01-08 00:36:13.27	205.12	23.24	-30.2	-33.6	12.8	6.02e-05	0	44	0	1064304640	20	5357
2026-01-08 00:36:16.29	205.08	22.79	-30.3	-33.9	12.6	3.26e-03	0	44	0	1070596096	20	5474
2026-01-08 00:36:19.30	205.04	22.35	-30.5	-34.1	12.1	2.59e-03	0	44	0	1075838976	21	5441
2026-01-08 00:36:22.32	205.01	21.92	-30.2	-33.7	12.7	2.21e-03	0	44	0	1082130432	20	5371
2026-01-08 00:36:25.34	204.97	21.50	-30.3	-34.1	12.4	2.60e-03	0	44	0	1087373312	20	5578
2026-01-08 00:36:28.35	204.93	21.08	-30.3	-33.9	12.5	1.21e-04	0	44	0	1092616192	20	5485
2026-01-08 00:36:31.37	204.90	20.67	-30.4	-34.2	12.3	1.69e-04	0	44	0	1098907648	20	5631
2026-01-08 00:36:34.37	204.86	20.27	-30.6	-34.5	11.8	3.88e-04	0	44	0	1104150528	21	5625
2026-01-08 00:36:37.40	204.83	19.87	-30.6	-34.5	11.7	5.30e-04	0	44	0	1110441984	21	5630
2026-01-08 00:36:40.41	204.80	19.48	-30.5	-34.3	11.9	6.25e-04	0	44	0	1115684864	21	5531
2026-01-08 00:36:43.43	204.77	19.10	-30.6	-34.5	11.7	7.17e-04	0	44	0	1120927744	21	5618
2026-01-08 00:36:46.45	204.74	18.72	-30.4	-34.5	12.0	3.36e-04	0	44	0	1127219200	20	5772
2026-01-08 00:36:49.46	204.71	18.34	-30.6	-34.6	11.6	6.86e-04	0	44	0	1132462080	21	5698
2026-01-08 00:36:52.48	204.68	17.98	-30.6	-34.6	11.5	7.58e-04	0	44	0	1137704960	21	5716
2026-01-08 00:36:55.50	204.66	17.61	-30.8	-35.1	10.7	1.43e-03	0	44	0	1143996416	21	5928
2026-01-08 00:36:58.50	204.63	17.26	-30.8	-35.3	11.0	1.72e-03	0	44	0	1149239296	21	6028
2026-01-08 00:37:01.51	204.60	16.91	-31.0	-35.5	10.5	3.21e-03	0	44	0	1155530752	22	6047
2026-01-08 00:37:04.52	204.58	16.56	-31.3	-36.3	9.8	8.32e-03	0	44	0	1160773632	22	6446
2026-01-08 00:37:07.54	204.56	16.22	-31.2	-36.2	9.9	1.19e-02	0	44	0	1166016512	22	6398
2026-01-08 00:37:10.55	204.53	15.88	-31.3	-36.6	9.6	1.70e-02	0	44	0	1172307968	22	6592
2026-01-08 00:37:13.57	204.51	15.55	-31.0	-35.9	10.5	6.30e-03	0	44	0	1177550848	21	6322
2026-01-08 00:37:16.59	204.49	15.22	-31.1	-35.9	10.1	5.67e-03	0	44	0	1183842304	22	6254
2026-01-08 00:37:19.59	204.47	14.90	-31.2	-36.1	9.9	9.93e-03	0	44	0	1189085184	22	6348
2026-01-08 00:37:22.62	204.45	14.58	-30.9	-35.7	10.5	4.84e-03	0	44	0	1194328064	21	6274
2026-01-08 00:37:25.64	204.43	14.26	-31.1	-36.0	10.0	8.76e-03	0	43	0	1200619520	22	6304
2026-01-08 00:37:28.65	204.41	13.95	-30.9	-35.8	10.4	5.68e-03	0	44	0	1205862400	21	6313
2026-01-08 00:37:31.66	204.39	13.64	-31.1	-36.0	9.8	1.07e-02	0	44	0	1212153856	22	6327
2026-01-08 00:37:34.67	204.37	13.34	-31.1	-35.9	9.9	1.00e-02	0	44	0	1217396736	22	6252
2026-01-08 00:37:37.70	204.36	13.04	-31.1	-36.1	9.8	1.10e-02	0	43	0	1222639616	22	6382
2026-01-08 00:37:40.72	204.34	12.74	-30.9	-36.0	10.2	7.22e-03	0	44	0	1228931072	21	6449
2026-01-08 00:37:43.73	204.32	12.45	-30.8	-35.5	10.5	3.75e-03	0	44	0	1234173952	21	6185
2026-01-08 00:37:46.74	204.31	12.16	-30.9	-35.9	10.1	7.52e-03	0	44	0	1239416832	21	6405
2026-01-08 00:37:49.75	204.29	11.88	-30.7	-35.2	10.7	6.13e-03	0	44	0	1245708288	21	6049
2026-01-08 00:37:52.78	204.28	11.59	-30.8	-35.6	10.4	5.90e-03	0	44	0	1250951168	21	6227
2026-01-08 00:37:55.80	204.26	11.31	-30.7	-35.4	10.5	5.90e-03	0	44	0	1257242624	21	6147
2026-01-08 00:37:58.82	204.25	11.04	-30.9	-35.8	10.2	4.94e-03	0	44	0	1262485504	21	6354
2026-01-08 00:38:01.84	204.24	10.76	-30.8	-35.8	10.2	7.09e-03	0	44	0	1268776960	21	6350
2026-01-08 00:38:04.85	204.22	10.49	-30.8	-35.7	10.2	6.54e-03	0	44	0	1274019840	21	6318
2026-01-08 00:38:07.87	204.21	10.23	-30.8	-35.6	10.3	5.60e-03	0	43	0	1279262720	21	6274
2026-01-08 00:38:10.89	204.20	9.96	-30.9	-35.9	10.0	6.57e-03	0	44	0	1285554176	21	6436
2026-01-08 00:38:13.91	204.19	9.70	-30.9	-36.0	9.9	8.40e-03	0	43	0	1290797056	21	6480
2026-01-08 00:38:16.91	204.17	9.44	-31.0	-36.4	9.6	1.30e-02	0	44	0	1296039936	21	6732
2026-01-08 00:38:19.93	204.16	9.19	-30.9	-36.3	9.6	1.22e-02	0	44	0	1302331392	21	6673
2026-01-08 00:38:22.96	204.15	8.93	-31.1	-36.4	9.2	1.70e-02	0	44	0	1307574272	22	6631
2026-01-08 00:38:25.98	204.14	8.68	-31.0	-36.6	9.3	1.95e-02	0	44	0	1313865728	21	6831
2026-01-08 00:38:28.98	204.13	8.43	-31.2	-36.6	8.9	2.82e-02	0	44	0	1319108608	22	6774
2026-01-08 00:38:31.99	204.12	8.19	-31.1	-36.3	9.1	2.35e-02	0	44	0	1324351488	22	6614
2026-01-08 00:38:35.01	204.11	7.94	-31.1	-36.5	9.0	2.55e-02	0	44	0	1330642944	22	6702
2026-01-08 00:38:38.03	204.10	7.70	-31.1	-36.7	8.8	2.95e-02	0	43	0	1335885824	22	6827
2026-01-08 00:38:41.04	204.09	7.46	-31.1	-36.5	8.9	3.15e-02	0	44	0	1342177280	22	6733
2026-01-08 00:38:44.05	204.08	7.23	-31.0	-36.4	8.9	2.92e-02	0	44	0	1347420160	22	6680
2026-01-08 00:38:47.06	204.08	6.99	-33.0	-47.1	3.8	1.49e+00	0	44	104	1349517312	26	18225

#Closed at: 2026-01-08 00:38:47
#Recorded file [1349 MB]: D:/data/31010_260108_032645.dat