passes_logs/2026/01/07/R2.0S_Moscow/R2.0S_Moscow__20260107_003346_AQUA_rec.log

#Pass ID: 20260107_003346_AQUA
#Satellite: AQUA
#Configuration: AQUA
#almurnet v.1.7.20251203
#Start time: 2026-01-07 00:38:37

#Version: 2.2.20231116
#Station: R2.0S_Moscow
#Location: 37.707566 lon 55.798166 lat
#TLE: 1 27424U 02022A   26004.96787593  .00001598  00000+0  32997-3 0  9996
#TLE: 2 27424  98.4069 331.2279 0002002  90.2377   0.6092 14.61798176259425

#Time	Az	El	Level	Level2	SNR	BER	BlckErr	Temp	State	Recorded	gain1	gain2
2026-01-07 00:38:37.24	58.21	31.73	-44.9	-59.7	3.8	1.49e+00	0	56	0	0	60	20791
2026-01-07 00:38:39.25	58.90	32.02	-46.3	-65.0	3.8	7.46e-01	0	56	104	0	63	32548
2026-01-07 00:38:41.27	59.60	32.32	-46.2	-65.0	3.8	7.44e-01	0	56	104	0	63	32523
2026-01-07 00:38:43.29	60.31	32.61	-46.1	-64.9	3.8	7.48e-01	0	56	104	0	63	31861
2026-01-07 00:38:45.32	61.04	32.90	-46.0	-64.9	3.8	7.45e-01	0	57	104	0	63	31929
2026-01-07 00:38:47.34	61.77	33.19	-46.1	-64.9	3.8	7.48e-01	0	56	104	0	63	31950
2026-01-07 00:38:49.36	62.53	33.48	-46.0	-64.9	3.8	7.45e-01	0	56	104	0	63	31994
2026-01-07 00:38:51.38	63.29	33.76	-46.0	-64.9	3.8	7.44e-01	0	56	104	0	63	31850
2026-01-07 00:38:53.40	64.07	34.04	-46.0	-64.8	3.8	7.49e-01	0	57	104	0	63	31782
2026-01-07 00:38:55.42	64.86	34.32	-46.0	-64.8	3.8	7.42e-01	0	56	104	0	63	31785
2026-01-07 00:38:57.45	65.67	34.60	-46.0	-64.8	3.8	7.45e-01	0	56	104	0	63	31648
2026-01-07 00:38:59.47	66.49	34.87	-46.0	-64.9	3.8	7.49e-01	0	57	104	0	63	31932
2026-01-07 00:39:01.49	67.33	35.14	-46.0	-64.8	3.8	7.45e-01	0	56	104	0	63	31578
2026-01-07 00:39:03.51	68.18	35.40	-46.0	-64.8	3.8	7.46e-01	0	56	104	0	63	31692
2026-01-07 00:39:05.53	69.04	35.66	-46.0	-64.6	3.8	7.47e-01	0	56	104	0	63	30940
2026-01-07 00:39:07.55	69.92	35.91	-46.0	-64.7	3.8	7.48e-01	0	56	104	0	63	31427
2026-01-07 00:39:09.57	70.81	36.16	-46.0	-64.6	3.8	7.44e-01	0	56	104	0	63	30734
2026-01-07 00:39:11.59	71.71	36.40	-46.0	-64.3	3.8	7.44e-01	0	56	104	0	63	29701
2026-01-07 00:39:13.61	72.63	36.64	-46.0	-64.7	3.8	7.45e-01	0	57	104	0	63	31349
2026-01-07 00:39:15.63	73.56	36.87	-45.9	-63.1	3.8	7.45e-01	0	57	104	0	63	26142
2026-01-07 00:39:17.65	74.50	37.10	-45.9	-63.9	3.8	7.43e-01	0	56	104	0	63	28497
2026-01-07 00:39:19.67	75.46	37.31	-45.9	-62.0	3.9	7.44e-01	0	57	104	0	63	23041
2026-01-07 00:39:21.69	76.43	37.52	-45.9	-63.4	3.8	7.49e-01	0	56	104	0	63	27011
2026-01-07 00:39:23.71	77.41	37.73	-45.6	-57.2	6.2	6.76e-01	92	57	0	0	63	13186
2026-01-07 00:39:25.74	78.41	37.92	-44.6	-51.3	12.4	6.07e-01	0	57	0	3670016	61	7493
2026-01-07 00:39:27.76	79.42	38.11	-45.3	-54.5	8.7	6.34e-01	2	56	0	7340032	61	10797
2026-01-07 00:39:29.78	80.44	38.28	-40.2	-42.5	21.4	6.00e-01	0	57	0	11010048	52	4575
2026-01-07 00:39:31.80	81.47	38.45	-41.7	-44.6	19.7	6.04e-01	0	57	0	15204352	53	5472
2026-01-07 00:39:33.82	82.51	38.61	-41.4	-44.2	20.2	6.01e-01	0	57	0	18874368	53	5241
2026-01-07 00:39:35.84	83.56	38.76	-44.6	-50.2	15.0	6.02e-01	0	57	0	22544384	59	7433
2026-01-07 00:39:37.86	84.62	38.90	-40.4	-42.8	21.1	5.99e-01	0	57	0	26214400	52	4743
2026-01-07 00:39:39.88	85.69	39.03	-40.2	-42.5	21.6	6.01e-01	0	56	0	30408704	52	4564
2026-01-07 00:39:41.90	86.76	39.15	-40.0	-42.2	21.8	6.02e-01	0	57	0	34078720	52	4425
2026-01-07 00:39:43.92	87.85	39.25	-39.9	-42.1	22.0	6.02e-01	0	57	0	37748736	51	4617
2026-01-07 00:39:45.94	88.94	39.35	-39.8	-42.0	22.1	6.02e-01	0	57	0	41418752	51	4550
2026-01-07 00:39:47.96	90.04	39.44	-39.6	-41.7	22.4	6.00e-01	0	57	0	45613056	51	4404
2026-01-07 00:39:49.98	91.14	39.51	-39.7	-41.8	22.3	6.02e-01	0	57	0	49283072	51	4444
2026-01-07 00:39:51.99	92.24	39.58	-39.6	-41.6	22.5	6.02e-01	0	56	0	52953088	51	4373
2026-01-07 00:39:54.01	93.35	39.63	-39.8	-41.9	22.2	6.01e-01	0	56	0	56623104	51	4523
2026-01-07 00:39:56.03	94.47	39.67	-39.5	-41.6	22.5	6.00e-01	0	56	0	60293120	50	4599
2026-01-07 00:39:58.05	95.59	39.69	-39.8	-42.0	22.0	5.98e-01	0	57	0	64487424	50	4833
2026-01-07 00:40:00.07	96.71	39.71	-39.5	-41.5	22.6	6.00e-01	0	57	0	68157440	50	4583
2026-01-07 00:40:02.09	97.83	39.72	-39.6	-41.6	22.5	6.02e-01	0	57	0	71827456	50	4647
2026-01-07 00:40:04.11	98.95	39.71	-39.7	-41.8	22.3	6.00e-01	0	56	0	75497472	50	4726
2026-01-07 00:40:06.13	100.07	39.69	-39.7	-41.8	22.3	6.01e-01	0	57	0	79167488	50	4731
2026-01-07 00:40:08.15	101.18	39.66	-39.8	-41.9	22.2	6.02e-01	0	56	0	83361792	50	4766
2026-01-07 00:40:10.17	102.30	39.61	-39.8	-41.9	22.2	6.00e-01	0	57	0	87031808	50	4786
2026-01-07 00:40:12.19	103.41	39.56	-40.1	-42.3	21.8	6.03e-01	0	57	0	90701824	50	4992
2026-01-07 00:40:14.20	104.51	39.49	-39.8	-42.0	22.1	6.01e-01	0	56	0	94371840	50	4826
2026-01-07 00:40:16.22	105.62	39.42	-39.9	-42.1	22.0	6.02e-01	0	57	0	98566144	50	4882
2026-01-07 00:40:18.24	106.71	39.33	-39.8	-41.9	22.1	6.01e-01	0	57	0	102236160	50	4791
2026-01-07 00:40:20.26	107.81	39.23	-39.8	-42.0	22.1	6.03e-01	0	56	0	105906176	50	4825
2026-01-07 00:40:22.28	108.89	39.12	-39.7	-41.8	22.3	6.02e-01	0	57	0	109576192	50	4722
2026-01-07 00:40:24.30	109.97	38.99	-39.8	-41.9	22.2	6.02e-01	0	56	0	113770496	50	4784
2026-01-07 00:40:26.32	111.03	38.86	-39.8	-42.0	22.1	6.00e-01	0	56	0	117440512	50	4833
2026-01-07 00:40:28.34	112.09	38.72	-39.8	-42.0	22.1	6.03e-01	0	56	0	121110528	50	4841
2026-01-07 00:40:30.36	113.14	38.57	-39.8	-41.9	22.1	6.00e-01	0	57	0	124780544	50	4791
2026-01-07 00:40:32.38	114.18	38.41	-39.7	-41.8	22.2	6.00e-01	0	56	0	128450560	50	4740
2026-01-07 00:40:34.40	115.21	38.23	-39.6	-41.7	22.3	6.03e-01	0	56	0	132644864	50	4677
2026-01-07 00:40:36.42	116.23	38.05	-39.9	-42.1	22.0	6.00e-01	0	56	0	136314880	50	4880
2026-01-07 00:40:38.44	117.23	37.87	-39.6	-41.6	22.4	5.99e-01	0	56	0	139984896	50	4637
2026-01-07 00:40:40.46	118.23	37.67	-39.8	-42.0	22.1	6.02e-01	0	57	0	143654912	50	4816
2026-01-07 00:40:42.48	119.21	37.46	-39.7	-41.9	22.1	6.01e-01	0	56	0	147324928	50	4767
2026-01-07 00:40:44.50	120.18	37.25	-39.8	-41.9	22.2	6.00e-01	0	56	0	151519232	50	4780
2026-01-07 00:40:46.52	121.13	37.03	-39.7	-41.8	22.2	6.01e-01	0	57	0	155189248	50	4735
2026-01-07 00:40:48.54	122.08	36.80	-39.5	-41.5	22.5	6.01e-01	0	56	0	158859264	50	4583
2026-01-07 00:40:50.56	123.01	36.57	-39.5	-41.6	22.5	6.02e-01	0	56	0	162529280	50	4622
2026-01-07 00:40:52.58	123.92	36.33	-39.6	-41.7	22.3	6.01e-01	0	56	0	166723584	50	4694
2026-01-07 00:40:54.60	124.83	36.09	-39.5	-41.5	22.5	6.00e-01	0	56	0	170393600	50	4573
2026-01-07 00:40:56.62	125.71	35.83	-39.4	-41.5	22.6	6.00e-01	0	56	0	174063616	50	4553
2026-01-07 00:40:58.64	126.59	35.58	-39.5	-41.5	22.6	5.99e-01	0	57	0	177733632	50	4556
2026-01-07 00:41:00.66	127.45	35.32	-39.3	-41.3	22.7	6.01e-01	0	56	0	181927936	50	4482
2026-01-07 00:41:02.68	128.30	35.05	-39.4	-41.4	22.5	6.02e-01	0	57	0	185597952	50	4539
2026-01-07 00:41:04.70	129.13	34.78	-39.1	-41.0	23.0	6.01e-01	0	56	0	189267968	50	4321
2026-01-07 00:41:06.72	129.95	34.51	-39.1	-41.1	23.0	6.02e-01	0	56	0	192937984	50	4345
2026-01-07 00:41:08.74	130.76	34.23	-39.2	-41.2	22.8	6.02e-01	0	56	0	196608000	50	4407
2026-01-07 00:41:10.76	131.55	33.95	-39.1	-41.0	23.0	5.98e-01	0	56	0	200802304	50	4302
2026-01-07 00:41:12.78	132.33	33.66	-39.2	-41.1	22.8	6.02e-01	0	56	0	204472320	50	4389
2026-01-07 00:41:14.80	133.09	33.38	-39.3	-41.3	22.7	6.03e-01	0	56	0	208142336	50	4467
2026-01-07 00:41:16.82	133.84	33.09	-39.1	-41.1	22.9	6.02e-01	0	56	0	211812352	50	4357
2026-01-07 00:41:18.84	134.58	32.80	-38.7	-40.6	23.4	6.03e-01	0	56	0	216006656	49	4356
2026-01-07 00:41:20.86	135.30	32.50	-38.8	-40.7	23.3	5.98e-01	0	56	0	219676672	49	4400
2026-01-07 00:41:22.88	136.01	32.21	-38.8	-40.6	23.3	6.03e-01	0	56	0	223346688	49	4386
2026-01-07 00:41:24.90	136.71	31.91	-38.8	-40.6	23.2	6.00e-01	0	56	0	227016704	49	4379
2026-01-07 00:41:26.92	137.40	31.61	-38.9	-40.8	23.2	6.01e-01	0	56	0	230686720	49	4442
2026-01-07 00:41:28.94	138.07	31.32	-39.0	-40.9	23.0	6.02e-01	0	56	0	234881024	49	4529
2026-01-07 00:41:30.96	138.73	31.02	-38.7	-40.6	23.3	6.02e-01	0	56	0	238551040	49	4364
2026-01-07 00:41:32.98	139.38	30.72	-38.6	-40.4	23.5	6.03e-01	0	57	0	242221056	49	4279
2026-01-07 00:41:35.00	140.01	30.41	-38.8	-40.6	23.2	6.01e-01	0	56	0	245891072	49	4385
2026-01-07 00:41:37.02	140.63	30.11	-38.7	-40.6	23.3	6.00e-01	0	56	0	249561088	49	4372
2026-01-07 00:41:39.04	141.25	29.81	-38.9	-40.9	23.0	6.02e-01	0	56	0	253755392	49	4509
2026-01-07 00:41:41.06	141.85	29.51	-39.0	-41.0	22.9	6.00e-01	0	56	0	257425408	49	4562
2026-01-07 00:41:43.08	142.44	29.21	-38.8	-40.7	23.1	6.01e-01	0	56	0	261095424	49	4429
2026-01-07 00:41:45.10	143.01	28.91	-38.9	-40.8	23.0	6.00e-01	0	56	0	264765440	49	4471
2026-01-07 00:41:47.13	143.58	28.61	-39.2	-41.1	22.7	6.01e-01	0	56	0	268959744	49	4645
2026-01-07 00:41:49.14	144.14	28.31	-39.1	-41.1	22.8	6.00e-01	0	56	0	272629760	49	4637
2026-01-07 00:41:51.16	144.68	28.01	-39.0	-40.9	22.9	6.02e-01	0	56	0	276299776	49	4544
2026-01-07 00:41:53.18	145.22	27.71	-39.1	-41.1	22.8	6.02e-01	0	56	0	279969792	49	4627
2026-01-07 00:41:55.20	145.75	27.42	-39.3	-41.3	22.5	6.01e-01	0	56	0	284164096	49	4759
2026-01-07 00:41:57.22	146.26	27.12	-39.4	-41.5	22.3	6.03e-01	0	56	0	287834112	49	4851
2026-01-07 00:41:59.24	146.77	26.83	-39.3	-41.4	22.5	6.01e-01	0	57	0	291504128	49	4764
2026-01-07 00:42:01.26	147.26	26.53	-39.4	-41.4	22.4	6.00e-01	0	56	0	295174144	49	4809
2026-01-07 00:42:03.28	147.75	26.24	-39.4	-41.5	22.4	5.99e-01	0	56	0	298844160	49	4833
2026-01-07 00:42:05.29	148.23	25.95	-39.5	-41.6	22.3	6.01e-01	0	56	0	303038464	49	4886
2026-01-07 00:42:07.32	148.70	25.66	-39.5	-41.6	22.3	6.00e-01	0	56	0	306708480	49	4881
2026-01-07 00:42:09.34	149.16	25.37	-39.5	-41.5	22.3	5.98e-01	0	56	0	310378496	49	4864
2026-01-07 00:42:11.36	149.61	25.09	-39.4	-41.4	22.4	6.02e-01	0	56	0	314048512	49	4812
2026-01-07 00:42:13.37	150.06	24.80	-39.3	-41.4	22.4	6.02e-01	0	56	0	317718528	49	4768
2026-01-07 00:42:15.39	150.49	24.52	-39.5	-41.7	22.1	5.99e-01	0	56	0	321912832	49	4931
2026-01-07 00:42:17.41	150.92	24.24	-39.5	-41.6	22.2	6.00e-01	0	56	0	325582848	49	4902
2026-01-07 00:42:19.43	151.34	23.96	-39.5	-41.6	22.2	6.00e-01	0	56	0	329252864	49	4899
2026-01-07 00:42:21.45	151.75	23.68	-39.5	-41.7	22.1	5.98e-01	0	56	0	332922880	49	4929
2026-01-07 00:42:23.47	152.16	23.40	-39.5	-41.6	22.1	6.00e-01	0	56	0	337117184	49	4911
2026-01-07 00:42:25.49	152.56	23.13	-39.5	-41.6	22.2	6.00e-01	0	56	0	340787200	49	4898
2026-01-07 00:42:27.51	152.95	22.85	-39.4	-41.5	22.2	5.99e-01	0	56	0	344457216	49	4844
2026-01-07 00:42:29.53	153.33	22.58	-39.3	-41.4	22.4	6.02e-01	0	56	0	348127232	49	4770
2026-01-07 00:42:31.55	153.71	22.31	-39.4	-41.5	22.2	6.03e-01	0	56	0	352321536	49	4866
2026-01-07 00:42:33.57	154.08	22.05	-39.4	-41.5	22.2	6.00e-01	0	56	0	355991552	49	4840
2026-01-07 00:42:35.59	154.45	21.78	-39.4	-41.5	22.1	6.00e-01	0	56	0	359661568	49	4864
2026-01-07 00:42:37.61	154.81	21.52	-39.5	-41.6	22.1	5.99e-01	0	56	0	363331584	49	4911
2026-01-07 00:42:39.63	155.16	21.26	-39.4	-41.5	22.2	6.03e-01	0	56	0	367001600	49	4816
2026-01-07 00:42:41.65	155.50	21.00	-39.2	-41.3	22.4	6.01e-01	0	56	0	371195904	49	4707
2026-01-07 00:42:43.67	155.84	20.74	-39.3	-41.4	22.3	6.02e-01	0	56	0	374865920	49	4765
2026-01-07 00:42:45.68	156.18	20.49	-39.3	-41.4	22.3	6.01e-01	0	56	0	378535936	49	4789
2026-01-07 00:42:47.70	156.51	20.23	-39.3	-41.4	22.3	6.03e-01	0	56	0	382205952	49	4782
2026-01-07 00:42:49.73	156.83	19.98	-39.5	-41.6	22.0	6.00e-01	0	56	0	385875968	49	4903
2026-01-07 00:42:51.74	157.15	19.73	-39.3	-41.4	22.2	6.00e-01	0	56	0	390070272	49	4777
2026-01-07 00:42:53.76	157.46	19.48	-39.2	-41.3	22.3	6.00e-01	0	56	0	393740288	49	4746
2026-01-07 00:42:55.78	157.77	19.24	-39.2	-41.3	22.3	6.00e-01	0	56	0	397410304	49	4743
2026-01-07 00:42:57.80	158.07	18.99	-39.1	-41.2	22.4	6.02e-01	0	56	0	401080320	49	4665
2026-01-07 00:42:59.82	158.37	18.75	-39.1	-41.1	22.4	6.00e-01	0	56	0	405274624	49	4632
2026-01-07 00:43:01.84	158.66	18.51	-39.1	-41.1	22.4	5.99e-01	0	56	0	408944640	49	4650
2026-01-07 00:43:03.86	158.95	18.27	-39.2	-41.3	22.3	6.01e-01	0	56	0	412614656	49	4712
2026-01-07 00:43:05.88	159.23	18.03	-39.2	-41.3	22.2	6.01e-01	0	56	0	416284672	49	4755
2026-01-07 00:43:07.90	159.51	17.80	-39.4	-41.6	22.0	6.01e-01	0	56	0	420478976	49	4874
2026-01-07 00:43:09.92	159.78	17.57	-39.1	-41.1	22.3	6.01e-01	0	56	0	424148992	49	4649
2026-01-07 00:43:11.94	160.05	17.33	-39.0	-41.1	22.4	6.02e-01	0	56	0	427819008	49	4600
2026-01-07 00:43:13.96	160.32	17.11	-39.0	-41.1	22.4	5.98e-01	0	56	0	431489024	49	4622
2026-01-07 00:43:15.98	160.58	16.88	-39.0	-41.1	22.4	5.99e-01	0	56	0	435159040	49	4622
2026-01-07 00:43:18.00	160.84	16.65	-39.1	-41.1	22.3	5.99e-01	0	56	0	439353344	49	4635
2026-01-07 00:43:20.01	161.09	16.43	-39.1	-41.1	22.3	6.00e-01	0	56	0	443023360	49	4644
2026-01-07 00:43:22.03	161.34	16.21	-38.9	-41.0	22.4	6.06e-01	0	56	0	446693376	49	4558
2026-01-07 00:43:24.05	161.59	15.99	-38.9	-41.0	22.5	6.00e-01	0	56	0	450363392	49	4550
2026-01-07 00:43:26.07	161.83	15.77	-39.1	-41.1	22.2	5.99e-01	0	56	0	454033408	49	4641
2026-01-07 00:43:28.09	162.07	15.55	-39.2	-41.3	22.1	6.03e-01	0	56	0	458227712	49	4759
2026-01-07 00:43:30.12	162.31	15.33	-39.2	-41.4	22.0	6.00e-01	0	56	0	461897728	49	4766
2026-01-07 00:43:32.14	162.54	15.12	-39.1	-41.2	22.1	6.00e-01	0	56	0	465567744	49	4688
2026-01-07 00:43:34.16	162.77	14.91	-39.1	-41.2	22.2	5.99e-01	0	56	0	469237760	49	4657
2026-01-07 00:43:36.18	162.99	14.70	-39.2	-41.4	22.0	6.01e-01	0	56	0	473432064	49	4776
2026-01-07 00:43:38.20	163.22	14.49	-39.1	-41.2	22.1	6.02e-01	0	56	0	477102080	49	4698
2026-01-07 00:43:40.22	163.43	14.28	-39.1	-41.2	22.2	6.01e-01	0	56	0	480772096	49	4662
2026-01-07 00:43:42.24	163.65	14.08	-39.0	-41.1	22.2	6.03e-01	0	56	0	484442112	49	4651
2026-01-07 00:43:44.26	163.86	13.87	-39.1	-41.2	22.1	6.03e-01	0	56	0	488636416	49	4659
2026-01-07 00:43:46.28	164.07	13.67	-39.1	-41.2	22.0	6.01e-01	0	56	0	492306432	49	4705
2026-01-07 00:43:48.30	164.28	13.47	-39.1	-41.3	22.0	6.02e-01	0	56	0	495976448	49	4712
2026-01-07 00:43:50.32	164.48	13.27	-39.1	-41.3	21.9	6.01e-01	0	56	0	499646464	49	4738
2026-01-07 00:43:52.34	164.68	13.07	-39.2	-41.4	21.8	6.01e-01	0	56	0	503316480	49	4791
2026-01-07 00:43:54.36	164.88	12.88	-39.2	-41.4	21.8	6.03e-01	0	56	0	507510784	49	4800
2026-01-07 00:43:56.38	165.08	12.68	-39.3	-41.5	21.7	6.01e-01	0	56	0	511180800	49	4848
2026-01-07 00:43:58.40	165.27	12.49	-39.3	-41.6	21.6	5.98e-01	0	56	0	514850816	49	4889
2026-01-07 00:44:00.42	165.46	12.30	-39.4	-41.7	21.5	6.03e-01	0	56	0	518520832	49	4931
2026-01-07 00:44:02.44	165.65	12.10	-39.4	-41.7	21.4	6.00e-01	0	56	0	522190848	49	4942
2026-01-07 00:44:04.46	165.83	11.92	-39.5	-41.8	21.3	6.01e-01	0	56	0	526385152	49	5015
2026-01-07 00:44:06.48	166.02	11.73	-39.4	-41.7	21.4	6.00e-01	0	56	0	530055168	49	4931
2026-01-07 00:44:08.50	166.20	11.54	-39.3	-41.6	21.5	5.99e-01	0	56	0	533725184	49	4904
2026-01-07 00:44:10.52	166.38	11.36	-39.4	-41.7	21.4	6.01e-01	0	56	0	537395200	49	4953
2026-01-07 00:44:12.54	166.55	11.17	-39.4	-41.8	21.2	6.00e-01	0	56	0	541589504	49	4999
2026-01-07 00:44:14.56	166.73	10.99	-39.5	-41.9	21.1	6.02e-01	0	56	0	545259520	49	5054
2026-01-07 00:44:16.58	166.90	10.81	-39.6	-42.0	21.0	6.01e-01	0	56	0	548929536	49	5121
2026-01-07 00:44:18.60	167.07	10.63	-39.5	-41.8	21.1	6.02e-01	0	56	0	552599552	49	5036
2026-01-07 00:44:20.62	167.23	10.45	-39.6	-42.0	21.0	6.02e-01	0	56	0	556793856	49	5132
2026-01-07 00:44:22.63	167.40	10.27	-39.6	-42.0	21.0	6.01e-01	0	56	0	560463872	49	5117
2026-01-07 00:44:24.65	167.56	10.10	-39.7	-42.2	20.7	6.00e-01	0	56	0	564133888	50	4947
2026-01-07 00:44:26.67	167.72	9.92	-39.7	-42.2	20.7	6.01e-01	0	56	0	567803904	50	4942
2026-01-07 00:44:28.69	167.88	9.75	-39.7	-42.2	20.6	6.01e-01	0	56	0	571473920	50	4961
2026-01-07 00:44:30.71	168.04	9.57	-39.7	-42.2	20.6	5.99e-01	0	56	0	575668224	50	4958
2026-01-07 00:44:32.73	168.19	9.40	-39.7	-42.3	20.4	6.00e-01	0	56	0	579338240	50	5012
2026-01-07 00:44:34.75	168.35	9.23	-39.6	-42.2	20.5	6.02e-01	0	56	0	583008256	50	4937
2026-01-07 00:44:36.77	168.50	9.06	-39.7	-42.3	20.4	6.00e-01	0	56	0	586678272	50	5005
2026-01-07 00:44:38.79	168.65	8.90	-39.7	-42.3	20.3	6.02e-01	0	56	0	590348288	50	5022
2026-01-07 00:44:40.81	168.79	8.73	-39.8	-42.4	20.3	5.98e-01	0	56	0	594542592	50	5084
2026-01-07 00:44:42.83	168.94	8.56	-39.8	-42.5	20.2	6.03e-01	0	56	0	598212608	50	5108
2026-01-07 00:44:44.85	169.08	8.40	-39.8	-42.5	20.2	6.02e-01	0	56	0	601882624	50	5120
2026-01-07 00:44:46.86	169.23	8.23	-39.9	-42.6	20.0	6.00e-01	0	56	0	605552640	50	5172
2026-01-07 00:44:48.88	169.37	8.07	-40.1	-42.9	19.7	5.99e-01	0	56	0	609746944	50	5366
2026-01-07 00:44:50.91	169.51	7.91	-45.3	-64.0	3.8	7.45e-01	0	56	104	611319808	61	32420
2026-01-07 00:44:52.93	169.65	7.75	-45.7	-64.5	3.8	7.44e-01	0	56	104	611319808	61	34464
2026-01-07 00:44:54.95	169.78	7.59	-45.9	-64.8	3.8	7.43e-01	0	56	104	611319808	62	33324
2026-01-07 00:44:56.97	169.92	7.43	-46.0	-64.9	3.8	7.42e-01	0	56	104	611319808	62	33861
2026-01-07 00:44:58.99	170.05	7.27	-46.0	-64.9	3.8	7.46e-01	0	56	104	611319808	62	34075
2026-01-07 00:45:01.01	170.18	7.12	-46.0	-64.9	3.8	7.46e-01	0	57	104	611319808	62	33974
2026-01-07 00:45:03.03	170.31	6.96	-46.0	-64.9	3.8	7.48e-01	0	56	104	611319808	62	33707
2026-01-07 00:45:05.05	170.44	6.80	-46.0	-64.8	3.8	7.46e-01	0	56	104	611319808	62	33690
2026-01-07 00:45:07.07	170.57	6.65	-45.9	-64.8	3.8	7.44e-01	0	57	104	611319808	62	33578
2026-01-07 00:45:09.09	170.69	6.50	-45.9	-64.8	3.8	7.44e-01	0	56	104	611319808	62	33571
2026-01-07 00:45:11.11	170.82	6.35	-45.9	-64.8	3.8	7.47e-01	0	56	104	611319808	62	33546
2026-01-07 00:45:13.13	170.94	6.19	-45.9	-64.8	3.8	7.47e-01	0	57	104	611319808	62	33441
2026-01-07 00:45:15.15	171.06	6.04	-45.9	-64.8	3.8	7.45e-01	0	57	104	611319808	62	33437
2026-01-07 00:45:17.18	171.19	5.89	-45.9	-64.8	3.8	7.43e-01	0	57	104	611319808	62	33372
2026-01-07 00:45:19.19	171.30	5.75	-45.9	-64.8	3.8	7.48e-01	0	57	104	611319808	62	33383
2026-01-07 00:45:21.22	171.42	5.60	-45.9	-64.8	3.8	7.48e-01	0	57	104	611319808	62	33404
2026-01-07 00:45:23.24	171.54	5.45	-45.9	-64.8	3.8	7.47e-01	0	56	104	611319808	62	33430
2026-01-07 00:45:25.26	171.66	5.30	-45.9	-64.8	3.8	7.47e-01	0	56	104	611319808	62	33380
2026-01-07 00:45:27.28	171.77	5.16	-45.9	-64.8	3.8	7.45e-01	0	57	104	611319808	62	33373
2026-01-07 00:45:29.30	171.88	5.01	-45.9	-64.8	3.8	7.45e-01	0	57	104	611319808	62	33374
2026-01-07 00:45:31.32	172.00	4.87	-45.9	-64.8	3.8	7.46e-01	0	57	104	611319808	62	33326
2026-01-07 00:45:33.34	172.11	4.73	-45.9	-64.8	3.8	7.46e-01	0	57	104	611319808	62	33362
2026-01-07 00:45:35.36	172.22	4.59	-45.9	-64.8	3.8	7.45e-01	0	57	104	611319808	62	33333
2026-01-07 00:45:37.39	172.33	4.44	-45.9	-64.8	3.8	7.45e-01	0	57	104	611319808	62	33347
2026-01-07 00:45:39.41	172.43	4.30	-45.9	-64.8	3.8	7.45e-01	0	57	104	611319808	62	33342
2026-01-07 00:45:41.43	172.54	4.16	-45.9	-64.8	3.8	7.47e-01	0	57	104	611319808	62	33379
2026-01-07 00:45:43.45	172.65	4.02	-45.9	-64.8	3.8	7.47e-01	0	57	104	611319808	62	33353
2026-01-07 00:45:45.47	172.75	3.89	-45.9	-64.8	3.8	7.47e-01	0	56	104	611319808	62	33334
2026-01-07 00:45:47.49	172.86	3.75	-45.9	-64.8	3.8	7.45e-01	0	57	104	611319808	62	33364
2026-01-07 00:45:49.51	172.96	3.61	-45.9	-64.8	3.8	7.45e-01	0	56	104	611319808	62	33362
2026-01-07 00:45:51.54	173.06	3.47	-45.9	-64.8	3.8	7.46e-01	0	57	104	611319808	62	33381
2026-01-07 00:45:53.56	173.16	3.34	-45.9	-64.8	3.8	7.45e-01	0	57	104	611319808	62	33319
2026-01-07 00:45:55.58	173.26	3.20	-45.9	-64.8	3.8	7.43e-01	0	57	104	611319808	62	33338
2026-01-07 00:45:57.60	173.36	3.07	-45.9	-64.8	3.8	7.48e-01	0	57	104	611319808	62	33367
2026-01-07 00:45:59.62	173.46	2.94	-45.9	-64.8	3.8	7.45e-01	0	56	104	611319808	62	33344
2026-01-07 00:46:01.64	173.55	2.80	-45.9	-64.8	3.8	7.48e-01	0	56	104	611319808	62	33383
2026-01-07 00:46:03.67	173.65	2.67	-45.9	-64.8	3.8	7.47e-01	0	56	104	611319808	62	33311
2026-01-07 00:46:05.69	173.75	2.54	-45.9	-64.8	3.8	7.45e-01	0	57	104	611319808	62	33313
2026-01-07 00:46:07.71	173.84	2.41	-45.9	-64.7	3.8	7.43e-01	0	57	104	611319808	62	33307
2026-01-07 00:46:09.73	173.93	2.28	-45.8	-64.8	3.8	7.44e-01	0	57	104	611319808	62	33354
2026-01-07 00:46:11.75	174.03	2.15	-45.8	-64.8	3.8	7.46e-01	0	57	104	611319808	62	33342
2026-01-07 00:46:13.77	174.12	2.02	-45.8	-64.7	3.8	7.43e-01	0	57	104	611319808	62	33291

#Closed at: 2026-01-07 00:46:14
#Recorded file [611 MB]: D:/lorett/data/31039_260107_033837.dat