passes_logs/2026/01/07/R2.0S_Moscow/R2.0S_Moscow__20260107_112656_NOAA_21_JPSS-2_rec.log

#Pass ID: 20260107_112656_NOAA 21 (JPSS-2)
#Satellite: NOAA 21 (JPSS-2)
#Configuration: NOAA-21
#almurnet v.1.7.20251203
#Start time: 2026-01-07 11:29:49

#Version: 2.2.20231116
#Station: R2.0S_Moscow
#Location: 37.707566 lon 55.798166 lat
#TLE: 1 54234U 22150A   26005.56767909  .00000152  00000+0  92756-4 0  9990
#TLE: 2 54234  98.7490 306.5820 0001036 340.2747  19.8389 14.19532370163472

#Time	Az	El	Level	Level2	SNR	BER	BlckErr	Temp	State	Recorded	gain1	gain2
2026-01-07 11:29:49.25	224.63	12.67	-44.9	-56.8	3.8	8.46e-01	0	56	0	0	60	14956
2026-01-07 11:29:52.27	225.06	12.87	-45.1	-57.6	3.8	1.49e+00	0	57	104	0	62	14623
2026-01-07 11:29:55.30	225.51	13.08	-45.0	-57.4	3.8	1.49e+00	0	57	104	0	62	14359
2026-01-07 11:29:58.34	225.96	13.28	-44.8	-57.3	3.8	1.49e+00	0	57	104	0	61	14949
2026-01-07 11:30:01.37	226.41	13.48	-44.6	-57.0	3.8	1.49e+00	0	57	104	0	61	14485
2026-01-07 11:30:04.40	226.87	13.69	-44.6	-57.1	3.8	1.49e+00	0	57	104	0	61	14615
2026-01-07 11:30:07.43	227.34	13.89	-44.6	-56.9	3.8	1.49e+00	0	57	104	0	61	14298
2026-01-07 11:30:10.47	227.81	14.09	-44.6	-56.6	3.8	1.49e+00	0	57	104	0	61	13823
2026-01-07 11:30:13.50	228.29	14.30	-44.6	-56.8	3.8	1.49e+00	0	57	104	0	61	14182
2026-01-07 11:30:16.53	228.78	14.50	-44.6	-57.1	3.8	1.49e+00	0	57	104	0	61	14573
2026-01-07 11:30:19.56	229.27	14.70	-44.5	-56.3	3.8	1.49e+00	0	57	104	0	61	13334
2026-01-07 11:30:22.60	229.77	14.91	-44.4	-54.9	3.9	1.48e+00	0	57	104	0	60	12017
2026-01-07 11:30:25.63	230.28	15.11	-44.4	-55.2	3.9	1.49e+00	0	57	104	0	60	12460
2026-01-07 11:30:28.66	230.79	15.31	-44.5	-55.9	3.8	1.49e+00	0	57	104	0	60	13444
2026-01-07 11:30:31.70	231.31	15.51	-44.3	-54.3	4.0	1.48e+00	0	57	104	0	60	11240
2026-01-07 11:30:34.73	231.84	15.71	-43.6	-49.7	6.1	3.79e-01	0	57	0	1048576	59	7004
2026-01-07 11:30:37.76	232.37	15.91	-40.8	-43.8	11.9	1.19e-03	0	57	0	11534336	53	4986
2026-01-07 11:30:40.79	232.91	16.11	-38.6	-40.4	15.3	0.00e+00	0	57	0	19922944	49	4291
2026-01-07 11:30:43.82	233.46	16.31	-43.1	-48.2	7.7	0.00e+00	0	57	0	30408704	56	7014
2026-01-07 11:30:46.85	234.02	16.51	-39.8	-42.2	13.7	7.00e-07	0	57	0	36700160	50	4928
2026-01-07 11:30:49.89	234.58	16.71	-37.7	-39.4	16.3	0.00e+00	0	57	0	46137344	47	4247
2026-01-07 11:30:52.91	235.15	16.90	-37.6	-39.3	16.4	0.00e+00	0	57	0	56623104	47	4213
2026-01-07 11:30:55.94	235.72	17.10	-37.5	-39.1	16.5	0.00e+00	0	57	0	65011712	46	4387
2026-01-07 11:30:58.97	236.30	17.29	-37.4	-39.0	16.7	0.00e+00	0	57	0	75497472	46	4311
2026-01-07 11:31:02.01	236.90	17.48	-37.3	-38.9	16.8	0.00e+00	0	57	0	84934656	46	4254
2026-01-07 11:31:05.03	237.49	17.67	-37.3	-38.8	16.8	0.00e+00	0	57	0	94371840	46	4236
2026-01-07 11:31:08.06	238.10	17.86	-37.3	-38.9	16.8	0.00e+00	0	57	0	103809024	46	4262
2026-01-07 11:31:11.09	238.71	18.05	-37.4	-39.0	16.7	0.00e+00	0	57	0	113246208	46	4307
2026-01-07 11:31:14.12	239.33	18.23	-37.3	-38.9	16.8	0.00e+00	0	57	0	122683392	46	4265
2026-01-07 11:31:17.15	239.95	18.41	-37.2	-38.7	17.0	0.00e+00	0	57	0	132120576	46	4193
2026-01-07 11:31:20.18	240.59	18.60	-37.3	-38.9	16.8	0.00e+00	0	57	0	141557760	46	4263
2026-01-07 11:31:23.21	241.23	18.77	-37.5	-39.1	16.7	0.00e+00	0	57	0	150994944	46	4347
2026-01-07 11:31:26.24	241.88	18.95	-37.5	-39.2	16.6	0.00e+00	0	57	0	160432128	46	4400
2026-01-07 11:31:29.27	242.54	19.13	-37.5	-39.1	16.6	0.00e+00	0	57	0	169869312	46	4389
2026-01-07 11:31:32.29	243.20	19.30	-37.4	-38.9	16.8	0.00e+00	0	57	0	179306496	46	4283
2026-01-07 11:31:35.32	243.87	19.47	-37.5	-39.2	16.6	0.00e+00	0	57	0	188743680	46	4395
2026-01-07 11:31:38.35	244.54	19.63	-37.7	-39.4	16.4	0.00e+00	0	57	0	198180864	46	4496
2026-01-07 11:31:41.38	245.23	19.80	-37.4	-39.0	16.8	0.00e+00	0	56	0	207618048	46	4307
2026-01-07 11:31:44.41	245.92	19.96	-37.4	-39.0	16.8	0.00e+00	0	57	0	217055232	46	4293
2026-01-07 11:31:47.44	246.62	20.12	-37.5	-39.1	16.7	0.00e+00	0	57	0	226492416	46	4357
2026-01-07 11:31:50.47	247.33	20.27	-37.5	-39.2	16.5	0.00e+00	0	57	0	235929600	46	4400
2026-01-07 11:31:53.50	248.04	20.42	-37.4	-39.0	16.8	0.00e+00	0	57	0	245366784	46	4298
2026-01-07 11:31:56.53	248.76	20.57	-37.2	-38.7	17.0	0.00e+00	0	56	0	254803968	46	4180
2026-01-07 11:31:59.56	249.49	20.71	-37.3	-38.9	16.8	0.00e+00	0	57	0	264241152	46	4256
2026-01-07 11:32:02.58	250.22	20.85	-37.1	-38.7	17.0	0.00e+00	0	57	0	273678336	46	4163
2026-01-07 11:32:05.61	250.96	20.99	-37.0	-38.5	17.2	0.00e+00	0	57	0	283115520	46	4064
2026-01-07 11:32:08.64	251.70	21.12	-37.1	-38.6	17.1	0.00e+00	0	57	0	292552704	45	4351
2026-01-07 11:32:11.67	252.45	21.25	-37.0	-38.5	17.2	0.00e+00	0	57	0	301989888	45	4338
2026-01-07 11:32:14.70	253.21	21.37	-36.9	-38.4	17.3	0.00e+00	0	57	0	311427072	45	4251
2026-01-07 11:32:17.74	253.98	21.49	-37.0	-38.6	17.1	0.00e+00	0	56	0	320864256	45	4345
2026-01-07 11:32:20.77	254.74	21.60	-37.1	-38.6	17.1	0.00e+00	0	56	0	330301440	45	4360
2026-01-07 11:32:23.80	255.52	21.71	-36.9	-38.4	17.3	0.00e+00	0	57	0	339738624	45	4265
2026-01-07 11:32:26.83	256.30	21.82	-37.0	-38.5	17.2	0.00e+00	0	57	0	349175808	45	4321
2026-01-07 11:32:29.86	257.08	21.92	-37.1	-38.6	17.1	0.00e+00	0	57	0	358612992	45	4370
2026-01-07 11:32:32.89	257.87	22.01	-36.8	-38.3	17.4	0.00e+00	0	57	0	368050176	45	4201
2026-01-07 11:32:35.92	258.67	22.10	-36.8	-38.3	17.4	0.00e+00	0	57	0	377487360	45	4211
2026-01-07 11:32:38.95	259.46	22.18	-37.0	-38.5	17.2	0.00e+00	0	57	0	387973120	45	4317
2026-01-07 11:32:41.98	260.27	22.26	-36.9	-38.4	17.2	0.00e+00	0	57	0	397410304	45	4278
2026-01-07 11:32:45.01	261.07	22.33	-37.0	-38.5	17.2	0.00e+00	0	56	0	406847488	45	4318
2026-01-07 11:32:48.04	261.88	22.40	-36.9	-38.4	17.4	0.00e+00	0	57	0	416284672	45	4249
2026-01-07 11:32:51.07	262.69	22.46	-36.9	-38.4	17.3	0.00e+00	0	56	0	425721856	45	4271
2026-01-07 11:32:54.10	263.51	22.52	-37.2	-38.8	17.0	0.00e+00	0	57	0	435159040	45	4450
2026-01-07 11:32:57.13	264.33	22.57	-36.9	-38.4	17.3	0.00e+00	0	57	0	444596224	45	4259
2026-01-07 11:33:00.16	265.15	22.61	-36.8	-38.2	17.5	0.00e+00	0	57	0	454033408	45	4167
2026-01-07 11:33:03.19	265.97	22.65	-36.8	-38.2	17.5	0.00e+00	0	57	0	463470592	45	4168
2026-01-07 11:33:06.23	266.80	22.69	-37.0	-38.4	17.3	0.00e+00	0	57	0	472907776	45	4290
2026-01-07 11:33:09.26	267.62	22.71	-37.0	-38.5	17.2	0.00e+00	0	57	0	482344960	45	4307
2026-01-07 11:33:12.29	268.45	22.73	-37.0	-38.5	17.2	0.00e+00	0	57	0	491782144	45	4301
2026-01-07 11:33:15.32	269.28	22.75	-37.0	-38.5	17.2	0.00e+00	0	57	0	501219328	45	4323
2026-01-07 11:33:18.35	270.11	22.76	-36.9	-38.4	17.3	0.00e+00	0	56	0	510656512	45	4286
2026-01-07 11:33:21.38	270.93	22.76	-37.0	-38.5	17.2	0.00e+00	0	57	0	520093696	45	4302
2026-01-07 11:33:24.41	271.76	22.75	-36.7	-38.2	17.5	0.00e+00	0	57	0	529530880	45	4152
2026-01-07 11:33:27.44	272.59	22.74	-36.8	-38.3	17.4	0.00e+00	0	56	0	538968064	45	4204
2026-01-07 11:33:30.47	273.42	22.73	-36.9	-38.4	17.3	0.00e+00	0	57	0	548405248	45	4287
2026-01-07 11:33:33.50	274.24	22.71	-37.0	-38.5	17.2	0.00e+00	0	57	0	557842432	45	4325
2026-01-07 11:33:36.53	275.07	22.68	-37.1	-38.6	17.1	0.00e+00	0	56	0	567279616	45	4383
2026-01-07 11:33:39.56	275.89	22.64	-37.0	-38.5	17.2	0.00e+00	0	57	0	576716800	45	4319
2026-01-07 11:33:42.59	276.71	22.60	-37.1	-38.7	17.1	0.00e+00	0	56	0	586153984	45	4401
2026-01-07 11:33:45.63	277.53	22.56	-36.9	-38.3	17.4	0.00e+00	0	56	0	595591168	45	4234
2026-01-07 11:33:48.65	278.35	22.51	-36.7	-38.1	17.6	0.00e+00	0	56	0	605028352	45	4126
2026-01-07 11:33:51.68	279.16	22.45	-36.6	-38.1	17.6	0.00e+00	0	56	0	614465536	45	4109
2026-01-07 11:33:54.71	279.97	22.39	-36.7	-38.2	17.5	0.00e+00	0	57	0	623902720	45	4167
2026-01-07 11:33:57.75	280.78	22.32	-36.7	-38.1	17.5	0.00e+00	0	57	0	633339904	45	4134
2026-01-07 11:34:00.78	281.58	22.24	-36.7	-38.2	17.5	0.00e+00	0	57	0	642777088	45	4152
2026-01-07 11:34:03.80	282.38	22.16	-36.7	-38.2	17.5	0.00e+00	0	56	0	652214272	45	4172
2026-01-07 11:34:06.83	283.18	22.08	-36.8	-38.3	17.4	0.00e+00	0	56	0	661651456	45	4227
2026-01-07 11:34:09.86	283.97	21.99	-36.9	-38.4	17.2	0.00e+00	0	56	0	671088640	45	4272
2026-01-07 11:34:12.89	284.75	21.89	-37.0	-38.5	17.2	0.00e+00	0	56	0	680525824	45	4305
2026-01-07 11:34:15.91	285.53	21.79	-36.9	-38.4	17.3	0.00e+00	0	56	0	691011584	45	4263
2026-01-07 11:34:18.94	286.31	21.69	-37.0	-38.5	17.2	0.00e+00	0	56	0	699400192	45	4318
2026-01-07 11:34:21.97	287.08	21.58	-36.8	-38.2	17.4	0.00e+00	0	56	0	709885952	45	4183
2026-01-07 11:34:25.00	287.84	21.46	-37.0	-38.5	17.1	0.00e+00	0	57	0	719323136	45	4325
2026-01-07 11:34:28.04	288.60	21.34	-36.8	-38.3	17.3	0.00e+00	0	56	0	728760320	45	4223
2026-01-07 11:34:31.07	289.36	21.22	-36.8	-38.2	17.4	0.00e+00	0	57	0	738197504	45	4188
2026-01-07 11:34:34.10	290.10	21.09	-36.9	-38.4	17.3	0.00e+00	0	57	0	747634688	45	4249
2026-01-07 11:34:37.13	290.85	20.96	-36.9	-38.4	17.2	0.00e+00	0	56	0	757071872	45	4285
2026-01-07 11:34:40.16	291.58	20.83	-36.9	-38.4	17.2	0.00e+00	0	57	0	766509056	45	4270
2026-01-07 11:34:43.19	292.31	20.69	-36.8	-38.2	17.4	0.00e+00	0	56	0	775946240	45	4191
2026-01-07 11:34:46.22	293.03	20.54	-36.9	-38.4	17.2	0.00e+00	0	56	0	785383424	45	4264
2026-01-07 11:34:49.25	293.75	20.39	-37.0	-38.5	17.1	0.00e+00	0	56	0	794820608	45	4332
2026-01-07 11:34:52.28	294.45	20.24	-36.9	-38.5	17.2	0.00e+00	0	56	0	804257792	45	4292
2026-01-07 11:34:55.32	295.16	20.09	-37.0	-38.5	17.1	0.00e+00	0	56	0	813694976	45	4312
2026-01-07 11:34:58.35	295.85	19.93	-36.9	-38.4	17.2	0.00e+00	0	56	0	823132160	45	4291
2026-01-07 11:35:01.38	296.54	19.77	-37.0	-38.5	17.1	0.00e+00	0	56	0	832569344	45	4325
2026-01-07 11:35:04.41	297.22	19.61	-37.1	-38.7	16.9	0.00e+00	0	57	0	842006528	45	4409
2026-01-07 11:35:07.44	297.89	19.44	-37.0	-38.5	17.1	0.00e+00	0	57	0	851443712	45	4325
2026-01-07 11:35:10.48	298.56	19.27	-37.3	-38.8	16.8	0.00e+00	0	57	0	860880896	45	4489
2026-01-07 11:35:13.51	299.22	19.10	-37.3	-38.9	16.7	0.00e+00	0	56	0	870318080	45	4507
2026-01-07 11:35:16.54	299.87	18.93	-37.1	-38.6	17.0	0.00e+00	0	57	0	879755264	45	4360
2026-01-07 11:35:19.57	300.51	18.75	-37.0	-38.5	17.0	0.00e+00	0	57	0	889192448	45	4335
2026-01-07 11:35:22.60	301.15	18.57	-36.9	-38.4	17.1	0.00e+00	0	57	0	898629632	45	4281
2026-01-07 11:35:25.63	301.78	18.39	-37.1	-38.6	16.9	0.00e+00	0	57	0	908066816	45	4391
2026-01-07 11:35:28.66	302.40	18.21	-37.3	-38.9	16.6	0.00e+00	0	57	0	917504000	45	4542
2026-01-07 11:35:31.70	303.02	18.03	-37.3	-38.9	16.7	0.00e+00	0	57	0	926941184	45	4496
2026-01-07 11:35:34.73	303.63	17.84	-37.2	-38.8	16.7	0.00e+00	0	57	0	936378368	45	4468
2026-01-07 11:35:37.76	304.23	17.65	-37.3	-38.8	16.7	0.00e+00	0	57	0	945815552	45	4493
2026-01-07 11:35:40.79	304.82	17.47	-37.5	-39.1	16.4	0.00e+00	0	56	0	955252736	45	4643
2026-01-07 11:35:43.82	305.40	17.28	-37.8	-39.6	16.0	0.00e+00	0	56	0	964689920	46	4610
2026-01-07 11:35:46.85	305.98	17.08	-37.7	-39.3	16.2	0.00e+00	0	57	0	974127104	46	4490
2026-01-07 11:35:49.88	306.55	16.89	-37.5	-39.2	16.4	0.00e+00	0	56	0	984612864	46	4401
2026-01-07 11:35:52.91	307.12	16.70	-37.6	-39.2	16.3	0.00e+00	0	57	0	994050048	46	4422
2026-01-07 11:35:55.94	307.68	16.50	-37.7	-39.4	16.1	0.00e+00	0	57	0	1003487232	46	4538
2026-01-07 11:35:58.97	308.23	16.31	-37.9	-39.6	16.0	0.00e+00	0	57	0	1012924416	46	4631
2026-01-07 11:36:02.00	308.77	16.11	-37.8	-39.6	16.0	0.00e+00	0	57	0	1022361600	46	4614
2026-01-07 11:36:05.03	309.30	15.91	-37.8	-39.5	16.0	0.00e+00	0	57	0	1031798784	46	4584
2026-01-07 11:36:08.06	309.83	15.71	-37.9	-39.7	15.9	0.00e+00	0	57	0	1041235968	46	4656
2026-01-07 11:36:11.09	310.36	15.52	-37.8	-39.5	16.0	0.00e+00	0	57	0	1050673152	46	4574
2026-01-07 11:36:14.12	310.87	15.32	-37.8	-39.5	16.1	0.00e+00	0	56	0	1060110336	46	4566
2026-01-07 11:36:17.15	311.38	15.12	-37.9	-39.6	15.9	0.00e+00	0	57	0	1069547520	46	4623
2026-01-07 11:36:20.18	311.88	14.92	-37.8	-39.5	16.0	0.00e+00	0	56	0	1078984704	46	4568
2026-01-07 11:36:23.21	312.38	14.72	-37.8	-39.5	16.0	0.00e+00	0	56	0	1088421888	46	4571
2026-01-07 11:36:26.24	312.87	14.51	-37.9	-39.7	15.9	0.00e+00	0	56	0	1097859072	46	4655
2026-01-07 11:36:29.27	313.35	14.31	-37.8	-39.5	16.0	0.00e+00	0	57	0	1107296256	46	4581
2026-01-07 11:36:32.30	313.83	14.11	-37.8	-39.6	15.9	0.00e+00	0	57	0	1116733440	46	4623
2026-01-07 11:36:35.34	314.30	13.91	-37.8	-39.5	16.0	0.00e+00	0	57	0	1126170624	46	4564
2026-01-07 11:36:38.37	314.76	13.71	-37.7	-39.4	16.1	0.00e+00	0	57	0	1135607808	46	4504
2026-01-07 11:36:41.40	315.22	13.51	-37.8	-39.5	16.0	0.00e+00	0	57	0	1145044992	46	4574
2026-01-07 11:36:44.43	315.67	13.31	-37.9	-39.7	15.8	0.00e+00	0	57	0	1154482176	46	4678
2026-01-07 11:36:47.46	316.12	13.11	-38.0	-39.8	15.7	0.00e+00	0	57	0	1163919360	46	4729
2026-01-07 11:36:50.48	316.56	12.91	-38.0	-39.8	15.6	0.00e+00	0	57	0	1173356544	46	4744
2026-01-07 11:36:53.51	316.99	12.70	-38.1	-40.0	15.5	0.00e+00	0	57	0	1182793728	46	4819
2026-01-07 11:36:56.55	317.42	12.50	-38.2	-40.0	15.4	0.00e+00	0	56	0	1192230912	46	4864
2026-01-07 11:36:59.57	317.84	12.30	-38.4	-40.3	15.1	0.00e+00	0	57	0	1201668096	47	4732
2026-01-07 11:37:02.60	318.26	12.10	-38.4	-40.4	15.0	0.00e+00	0	57	0	1211105280	47	4788
2026-01-07 11:37:05.63	318.67	11.90	-38.4	-40.3	15.1	0.00e+00	0	56	0	1220542464	47	4753
2026-01-07 11:37:08.65	319.08	11.70	-38.4	-40.3	15.1	0.00e+00	0	57	0	1229979648	47	4743
2026-01-07 11:37:11.68	319.48	11.51	-38.5	-40.5	14.9	7.00e-07	0	56	0	1239416832	47	4825
2026-01-07 11:37:14.71	319.88	11.31	-38.3	-40.3	15.1	0.00e+00	0	56	0	1248854016	47	4719
2026-01-07 11:37:17.74	320.27	11.11	-38.4	-40.4	14.9	7.00e-07	0	57	0	1258291200	47	4786
2026-01-07 11:37:20.78	320.66	10.91	-38.6	-40.7	14.6	0.00e+00	0	56	0	1267728384	47	4945
2026-01-07 11:37:23.81	321.04	10.71	-38.7	-40.8	14.6	1.50e-06	0	57	0	1277165568	48	4721
2026-01-07 11:37:26.84	321.41	10.52	-38.9	-41.0	14.4	0.00e+00	0	57	0	1287651328	48	4841
2026-01-07 11:37:29.87	321.79	10.32	-38.7	-40.7	14.7	1.50e-06	0	57	0	1297088512	48	4664
2026-01-07 11:37:32.90	322.15	10.12	-38.9	-41.0	14.4	7.00e-07	0	56	0	1306525696	48	4832
2026-01-07 11:37:35.93	322.51	9.93	-39.0	-41.2	14.2	7.00e-07	0	57	0	1315962880	48	4941
2026-01-07 11:37:38.96	322.87	9.73	-39.0	-41.1	14.2	0.00e+00	0	57	0	1325400064	48	4909
2026-01-07 11:37:41.98	323.22	9.54	-38.7	-40.8	14.5	0.00e+00	0	57	0	1334837248	48	4728
2026-01-07 11:37:45.02	323.57	9.35	-38.8	-40.9	14.4	7.00e-07	0	57	0	1344274432	48	4786
2026-01-07 11:37:48.05	323.92	9.15	-38.8	-41.0	14.3	7.00e-07	0	57	0	1353711616	48	4823
2026-01-07 11:37:51.08	324.26	8.96	-39.0	-41.2	14.0	4.50e-06	0	57	0	1363148800	48	4952
2026-01-07 11:37:54.11	324.59	8.77	-39.0	-41.2	14.0	4.50e-06	0	57	0	1372585984	48	4979
2026-01-07 11:37:57.14	324.92	8.58	-39.2	-41.6	13.6	5.30e-06	0	57	0	1382023168	49	4876
2026-01-07 11:38:00.17	325.25	8.39	-39.0	-41.3	13.9	3.00e-06	0	57	0	1391460352	49	4706
2026-01-07 11:38:03.20	325.57	8.20	-39.1	-41.4	13.7	9.10e-06	0	56	0	1400897536	49	4803
2026-01-07 11:38:06.23	325.89	8.01	-39.0	-41.2	13.9	4.50e-06	0	57	0	1410334720	49	4685
2026-01-07 11:38:09.26	326.21	7.82	-44.7	-57.2	3.8	1.49e+00	0	57	104	1411383296	60	15708
2026-01-07 11:38:12.29	326.52	7.64	-45.1	-57.6	3.8	1.49e+00	0	57	104	1411383296	60	16387
2026-01-07 11:38:15.32	326.83	7.45	-44.8	-57.7	3.8	1.49e+00	0	57	104	1411383296	60	16509
2026-01-07 11:38:18.36	327.13	7.26	-44.7	-57.7	3.8	1.49e+00	0	57	104	1411383296	60	16555
2026-01-07 11:38:21.39	327.43	7.08	-45.1	-57.6	3.8	1.49e+00	0	57	104	1411383296	60	16480
2026-01-07 11:38:24.42	327.73	6.89	-45.1	-57.6	3.8	1.49e+00	0	57	104	1411383296	60	16470
2026-01-07 11:38:27.45	328.02	6.71	-45.1	-57.6	3.8	1.49e+00	0	57	104	1411383296	60	16405
2026-01-07 11:38:30.48	328.31	6.53	-45.0	-57.6	3.8	1.49e+00	0	57	104	1411383296	60	16438
2026-01-07 11:38:33.52	328.60	6.34	-45.0	-57.6	3.8	1.49e+00	0	57	104	1411383296	60	16443
2026-01-07 11:38:36.55	328.88	6.16	-45.0	-57.6	3.8	1.49e+00	0	57	104	1411383296	60	16439
2026-01-07 11:38:39.58	329.16	5.98	-45.0	-57.6	3.8	1.49e+00	0	57	104	1411383296	60	16411
2026-01-07 11:38:42.62	329.43	5.80	-45.0	-57.6	3.8	1.49e+00	0	57	104	1411383296	60	16388
2026-01-07 11:38:45.65	329.71	5.62	-45.0	-57.6	3.8	1.49e+00	0	57	104	1411383296	60	16377
2026-01-07 11:38:48.69	329.98	5.44	-45.0	-57.6	3.8	1.49e+00	0	57	104	1411383296	60	16355
2026-01-07 11:38:51.72	330.24	5.26	-45.0	-57.6	3.8	1.49e+00	0	57	104	1411383296	60	16390
2026-01-07 11:38:54.75	330.51	5.08	-45.0	-57.6	3.8	1.49e+00	0	57	104	1411383296	60	16357
2026-01-07 11:38:57.79	330.77	4.91	-45.0	-57.6	3.8	1.49e+00	0	57	104	1411383296	60	16400
2026-01-07 11:39:00.82	331.03	4.73	-45.0	-57.6	3.8	1.49e+00	0	57	104	1411383296	60	16389
2026-01-07 11:39:03.85	331.28	4.56	-45.0	-57.6	3.8	1.49e+00	0	57	104	1411383296	60	16370
2026-01-07 11:39:06.88	331.53	4.38	-45.0	-57.6	3.8	1.49e+00	0	57	104	1411383296	60	16328
2026-01-07 11:39:09.92	331.78	4.21	-45.0	-57.6	3.8	1.49e+00	0	57	104	1411383296	60	16354
2026-01-07 11:39:12.95	332.03	4.03	-45.0	-57.6	3.8	1.49e+00	0	57	104	1411383296	60	16328
2026-01-07 11:39:15.98	332.27	3.86	-45.0	-57.6	3.8	1.49e+00	0	57	104	1411383296	60	16350
2026-01-07 11:39:19.01	332.51	3.69	-45.0	-57.6	3.8	1.49e+00	0	57	104	1411383296	60	16351
2026-01-07 11:39:22.05	332.75	3.52	-44.9	-57.6	3.8	1.49e+00	0	57	104	1411383296	60	16321
2026-01-07 11:39:25.08	332.99	3.35	-45.0	-57.6	3.8	1.49e+00	0	57	104	1411383296	60	16388
2026-01-07 11:39:28.11	333.22	3.18	-45.0	-57.6	3.8	1.49e+00	0	57	104	1411383296	60	16373
2026-01-07 11:39:31.15	333.45	3.01	-45.0	-57.6	3.8	1.49e+00	0	57	104	1411383296	60	16363
2026-01-07 11:39:34.18	333.68	2.84	-45.0	-57.6	3.8	1.49e+00	0	57	104	1411383296	60	16345
2026-01-07 11:39:37.21	333.91	2.67	-45.0	-57.6	3.8	1.49e+00	0	57	104	1411383296	60	16350
2026-01-07 11:39:40.24	334.13	2.51	-45.0	-57.6	3.8	1.49e+00	0	57	104	1411383296	60	16368
2026-01-07 11:39:43.28	334.35	2.34	-45.0	-57.6	3.8	1.49e+00	0	57	104	1411383296	60	16321
2026-01-07 11:39:46.31	334.57	2.17	-45.0	-57.6	3.8	1.49e+00	0	57	104	1411383296	60	16341
2026-01-07 11:39:49.34	334.79	2.01	-45.0	-57.6	3.8	1.49e+00	0	57	104	1411383296	60	16319

#Closed at: 2026-01-07 11:39:51
#Recorded file [1411 MB]: D:/lorett/data/31039_260107_142949.dat