passes_logs/2026/01/07/R2.0S_Moscow/R2.0S_Moscow__20260107_021118_AQUA_rec.log

#Pass ID: 20260107_021118_AQUA
#Satellite: AQUA
#Configuration: AQUA
#almurnet v.1.7.20251203
#Start time: 2026-01-07 02:11:19

#Version: 2.2.20231116
#Station: R2.0S_Moscow
#Location: 37.707566 lon 55.798166 lat
#TLE: 1 27424U 02022A   26004.96787593  .00001598  00000+0  32997-3 0  9996
#TLE: 2 27424  98.4069 331.2279 0002002  90.2377   0.6092 14.61798176259425

#Time	Az	El	Level	Level2	SNR	BER	BlckErr	Temp	State	Recorded	gain1	gain2
2026-01-07 02:11:19.46	10.67	2.04	-40.6	-59.5	3.8	7.46e-01	0	53	0	0	53	30505
2026-01-07 02:11:22.48	10.55	2.23	-40.7	-59.5	3.8	7.44e-01	0	53	104	0	51	34383
2026-01-07 02:11:25.51	10.42	2.43	-40.7	-59.5	3.8	7.45e-01	0	54	104	0	51	34308
2026-01-07 02:11:28.55	10.29	2.62	-40.7	-59.5	3.8	7.44e-01	0	54	104	0	51	34272
2026-01-07 02:11:31.58	10.16	2.82	-40.7	-59.5	3.8	7.46e-01	0	54	104	0	51	34365
2026-01-07 02:11:34.61	10.03	3.02	-40.7	-59.5	3.8	7.46e-01	0	54	104	0	51	34281
2026-01-07 02:11:37.64	9.89	3.22	-40.6	-59.5	3.8	7.45e-01	0	54	104	0	51	34225
2026-01-07 02:11:40.68	9.75	3.42	-40.6	-59.5	3.8	7.46e-01	0	54	104	0	51	34193
2026-01-07 02:11:43.71	9.61	3.63	-40.6	-59.5	3.8	7.44e-01	0	54	104	0	51	34184
2026-01-07 02:11:46.74	9.47	3.83	-40.6	-59.5	3.8	7.42e-01	0	54	104	0	51	34147
2026-01-07 02:11:49.78	9.32	4.04	-40.6	-59.5	3.8	7.46e-01	0	54	104	0	51	34136
2026-01-07 02:11:52.81	9.18	4.25	-40.6	-59.5	3.8	7.43e-01	0	54	104	0	51	34108
2026-01-07 02:11:55.84	9.03	4.46	-40.6	-59.5	3.8	7.44e-01	0	54	104	0	51	34139
2026-01-07 02:11:58.87	8.87	4.67	-40.6	-59.5	3.8	7.42e-01	0	54	104	0	51	34164
2026-01-07 02:12:01.88	8.72	4.88	-40.6	-59.5	3.8	7.45e-01	0	54	104	0	51	34087
2026-01-07 02:12:04.91	8.56	5.10	-40.6	-59.5	3.8	7.48e-01	0	54	104	0	51	34175
2026-01-07 02:12:07.94	8.40	5.31	-40.6	-59.5	3.8	7.45e-01	0	54	104	0	51	34147
2026-01-07 02:12:10.98	8.24	5.53	-40.6	-59.5	3.8	7.43e-01	0	55	104	0	51	34127
2026-01-07 02:12:14.01	8.07	5.75	-40.6	-59.5	3.8	7.45e-01	0	55	104	0	51	34109
2026-01-07 02:12:17.04	7.90	5.98	-40.6	-59.5	3.8	7.46e-01	0	55	104	0	51	34099
2026-01-07 02:12:20.07	7.73	6.20	-40.6	-59.5	3.8	7.43e-01	0	55	104	0	51	34160
2026-01-07 02:12:23.11	7.55	6.43	-40.6	-59.5	3.8	7.44e-01	0	55	104	0	51	34098
2026-01-07 02:12:26.14	7.37	6.66	-40.6	-59.5	3.8	7.46e-01	0	55	104	0	51	34090
2026-01-07 02:12:29.17	7.19	6.89	-40.6	-59.5	3.8	7.43e-01	0	55	104	0	51	34094
2026-01-07 02:12:32.20	7.00	7.12	-40.6	-59.5	3.8	7.45e-01	0	55	104	0	51	34087
2026-01-07 02:12:35.24	6.81	7.35	-40.6	-59.4	3.8	7.45e-01	0	55	104	0	51	34066
2026-01-07 02:12:38.27	6.62	7.59	-40.6	-59.5	3.8	7.47e-01	0	55	104	0	51	34107
2026-01-07 02:12:41.30	6.43	7.83	-40.6	-59.4	3.8	7.46e-01	0	55	104	0	51	34080
2026-01-07 02:12:44.33	6.23	8.07	-40.6	-59.5	3.8	7.48e-01	0	55	104	0	51	34233
2026-01-07 02:12:47.37	6.02	8.31	-40.7	-59.5	3.8	7.44e-01	0	55	104	0	51	34382
2026-01-07 02:12:50.39	5.81	8.56	-40.6	-59.5	3.8	7.45e-01	0	55	104	0	52	32372
2026-01-07 02:12:53.42	5.60	8.80	-40.6	-59.5	3.8	7.47e-01	0	55	104	0	52	32284
2026-01-07 02:12:56.45	5.39	9.05	-40.6	-59.5	3.8	7.45e-01	0	55	104	0	52	32414
2026-01-07 02:12:59.49	5.16	9.31	-40.6	-59.5	3.8	7.43e-01	0	55	104	0	52	32218
2026-01-07 02:13:02.52	4.94	9.56	-40.6	-59.6	3.8	7.47e-01	0	55	104	0	52	32623
2026-01-07 02:13:05.55	4.71	9.82	-40.6	-59.6	3.8	7.44e-01	0	55	104	0	52	32579
2026-01-07 02:13:08.58	4.48	10.08	-40.7	-59.7	3.8	7.44e-01	0	55	104	0	52	32938
2026-01-07 02:13:11.61	4.24	10.34	-40.7	-59.7	3.8	7.47e-01	0	56	104	0	52	33126
2026-01-07 02:13:14.64	3.99	10.61	-40.8	-59.7	3.8	7.46e-01	0	55	104	0	52	33120
2026-01-07 02:13:17.67	3.75	10.87	-40.9	-59.8	3.8	7.44e-01	0	56	104	0	52	33447
2026-01-07 02:13:20.70	3.49	11.14	-40.8	-59.7	3.8	7.42e-01	0	56	104	0	52	33183
2026-01-07 02:13:23.73	3.23	11.42	-40.7	-59.9	3.8	7.46e-01	0	56	104	0	52	33818
2026-01-07 02:13:26.76	2.97	11.69	-40.8	-59.8	3.8	7.47e-01	0	56	104	0	52	33671
2026-01-07 02:13:29.78	2.70	11.97	-40.8	-59.5	3.8	7.48e-01	0	56	104	0	52	32405
2026-01-07 02:13:32.82	2.42	12.26	-40.7	-59.9	3.8	7.44e-01	0	56	104	0	53	32116
2026-01-07 02:13:35.85	2.14	12.54	-41.3	-56.5	3.9	7.42e-01	0	56	104	0	53	21730
2026-01-07 02:13:38.88	1.85	12.83	-40.9	-59.3	3.8	7.47e-01	0	56	104	1048576	53	29937
2026-01-07 02:13:41.90	1.56	13.12	-41.2	-48.3	11.8	6.09e-01	0	56	0	2097152	54	7923
2026-01-07 02:13:44.94	1.25	13.41	-40.4	-44.7	16.6	6.02e-01	0	56	0	7864320	52	5920
2026-01-07 02:13:47.97	0.95	13.71	-40.3	-43.9	17.9	6.00e-01	0	56	0	13631488	52	5351
2026-01-07 02:13:50.99	0.63	14.01	-39.4	-42.4	19.5	6.05e-01	0	56	0	18874368	50	5050
2026-01-07 02:13:54.02	0.31	14.32	-39.4	-42.2	19.7	6.04e-01	0	56	0	24641536	50	4963
2026-01-07 02:13:57.05	359.98	14.62	-38.8	-41.3	20.7	6.04e-01	0	56	0	30408704	49	4726
2026-01-07 02:14:00.08	359.64	14.94	-38.8	-41.3	20.9	6.03e-01	0	56	0	36175872	49	4739
2026-01-07 02:14:03.10	359.30	15.25	-38.7	-41.1	21.4	6.00e-01	0	56	0	41943040	49	4617
2026-01-07 02:14:06.13	358.94	15.57	-38.8	-41.2	21.4	6.04e-01	0	56	0	47710208	49	4678
2026-01-07 02:14:09.16	358.58	15.89	-38.7	-41.1	21.6	6.02e-01	0	56	0	52953088	49	4604
2026-01-07 02:14:12.19	358.21	16.21	-38.7	-41.0	21.6	6.03e-01	0	56	0	58720256	49	4565
2026-01-07 02:14:15.22	357.83	16.54	-38.9	-41.2	21.4	6.01e-01	0	56	0	64487424	49	4689
2026-01-07 02:14:18.25	357.44	16.88	-38.7	-41.0	21.5	6.03e-01	0	56	0	70254592	49	4597
2026-01-07 02:14:21.27	357.05	17.21	-38.3	-40.5	21.9	6.02e-01	0	56	0	76021760	48	4575
2026-01-07 02:14:24.31	356.64	17.55	-38.6	-41.0	21.0	6.02e-01	0	56	0	81264640	48	4861
2026-01-07 02:14:27.33	356.22	17.89	-40.2	-44.1	17.2	6.04e-01	0	56	0	87031808	50	6139
2026-01-07 02:14:30.36	355.79	18.24	-41.3	-49.1	10.8	6.15e-01	0	56	0	92798976	53	9190
2026-01-07 02:14:33.39	355.35	18.59	-41.5	-54.1	5.6	6.97e-01	0	56	0	98041856	53	16467
2026-01-07 02:14:36.42	354.90	18.95	-41.3	-58.2	3.9	7.44e-01	0	56	104	98041856	53	26435
2026-01-07 02:14:39.44	354.44	19.31	-41.5	-60.0	3.8	7.43e-01	0	56	104	98041856	54	30639
2026-01-07 02:14:42.47	353.96	19.67	-40.0	-56.9	3.8	7.42e-01	0	56	104	98041856	51	25455
2026-01-07 02:14:45.50	353.48	20.04	-32.2	-49.0	3.9	7.46e-01	0	56	104	98041856	36	24367
2026-01-07 02:14:48.53	352.98	20.41	-35.9	-50.3	3.8	7.43e-01	0	56	104	98041856	42	19953
2026-01-07 02:14:51.56	352.47	20.78	-39.3	-48.4	8.2	6.42e-01	27	56	0	100139008	49	10712
2026-01-07 02:14:54.59	351.94	21.16	-41.2	-46.0	15.2	5.99e-01	0	56	0	105906176	53	6474
2026-01-07 02:14:57.62	351.40	21.54	-40.2	-43.4	18.7	6.02e-01	0	56	0	111673344	52	5081
2026-01-07 02:15:00.65	350.84	21.93	-39.3	-41.9	20.4	6.02e-01	0	56	0	117440512	50	4777
2026-01-07 02:15:03.68	350.27	22.31	-38.7	-41.0	21.3	6.03e-01	0	56	0	123207680	49	4597
2026-01-07 02:15:06.71	349.69	22.71	-39.1	-41.6	21.1	5.99e-01	0	56	0	128450560	49	4903
2026-01-07 02:15:09.74	349.09	23.10	-39.0	-41.3	21.6	6.01e-01	0	56	0	134217728	49	4734
2026-01-07 02:15:12.77	348.47	23.50	-39.4	-41.7	21.4	6.00e-01	0	56	0	139984896	49	4955
2026-01-07 02:15:15.80	347.83	23.90	-39.2	-41.4	21.9	6.01e-01	0	56	0	145752064	49	4785
2026-01-07 02:15:18.83	347.18	24.31	-39.1	-41.2	22.1	6.03e-01	0	56	0	151519232	49	4678
2026-01-07 02:15:21.85	346.51	24.72	-39.0	-41.1	22.2	6.02e-01	0	56	0	157286400	49	4647
2026-01-07 02:15:24.88	345.82	25.13	-39.0	-41.0	22.4	6.02e-01	0	56	0	162529280	49	4585
2026-01-07 02:15:27.91	345.12	25.54	-39.1	-41.2	22.3	6.02e-01	0	56	0	168296448	49	4653
2026-01-07 02:15:30.95	344.38	25.96	-39.0	-41.0	22.4	6.02e-01	0	56	0	174063616	49	4565
2026-01-07 02:15:33.98	343.64	26.37	-39.0	-41.0	22.4	6.02e-01	0	56	0	179830784	49	4593
2026-01-07 02:15:37.00	342.87	26.79	-38.8	-40.8	22.7	6.02e-01	0	56	0	185597952	49	4468
2026-01-07 02:15:40.03	342.08	27.21	-38.8	-40.8	22.7	6.02e-01	0	56	0	191365120	49	4478
2026-01-07 02:15:43.06	341.26	27.63	-38.9	-40.9	22.7	6.02e-01	0	56	0	196608000	49	4500
2026-01-07 02:15:46.09	340.43	28.06	-38.7	-40.6	23.0	6.01e-01	0	56	0	202375168	49	4372
2026-01-07 02:15:49.11	339.57	28.48	-38.6	-40.5	23.1	5.99e-01	0	56	0	208142336	49	4320
2026-01-07 02:15:52.15	338.68	28.90	-38.6	-40.5	23.1	6.04e-01	0	56	0	213909504	49	4331
2026-01-07 02:15:55.17	337.78	29.32	-38.5	-40.4	23.3	6.01e-01	0	56	0	219676672	49	4261
2026-01-07 02:15:58.20	336.84	29.74	-38.6	-40.5	23.2	5.99e-01	0	56	0	225443840	49	4328
2026-01-07 02:16:01.24	335.88	30.16	-38.4	-40.2	23.4	6.00e-01	0	56	0	230686720	48	4424
2026-01-07 02:16:04.26	334.90	30.57	-38.6	-40.5	23.2	6.02e-01	0	56	0	236453888	48	4564
2026-01-07 02:16:07.29	333.88	30.98	-38.5	-40.4	23.3	6.01e-01	0	56	0	242221056	48	4511
2026-01-07 02:16:10.32	332.84	31.39	-38.4	-40.2	23.6	6.01e-01	0	56	0	247988224	48	4422
2026-01-07 02:16:13.35	331.78	31.80	-38.7	-40.6	23.1	6.02e-01	0	56	0	253755392	48	4633
2026-01-07 02:16:16.38	330.68	32.19	-38.5	-40.4	23.3	6.02e-01	0	56	0	259522560	48	4519
2026-01-07 02:16:19.40	329.56	32.58	-38.7	-40.6	23.2	6.01e-01	0	56	0	264765440	48	4618
2026-01-07 02:16:22.43	328.41	32.97	-38.7	-40.6	23.1	6.01e-01	0	56	0	270532608	48	4643
2026-01-07 02:16:25.46	327.23	33.35	-38.9	-40.9	22.9	6.01e-01	0	56	0	276299776	48	4772
2026-01-07 02:16:28.49	326.03	33.71	-38.9	-40.9	22.9	6.04e-01	0	56	0	282066944	48	4771
2026-01-07 02:16:31.52	324.79	34.07	-39.1	-41.0	22.7	6.01e-01	0	56	0	287834112	48	4864
2026-01-07 02:16:34.54	323.53	34.42	-39.2	-41.2	22.7	6.02e-01	0	56	0	293076992	48	4927
2026-01-07 02:16:37.57	322.24	34.75	-39.1	-41.1	22.7	6.04e-01	0	56	0	298844160	49	4634
2026-01-07 02:16:40.60	320.92	35.08	-39.3	-41.4	22.5	6.00e-01	0	57	0	304611328	49	4760
2026-01-07 02:16:43.63	319.57	35.38	-39.5	-41.5	22.3	6.01e-01	0	56	0	310378496	49	4865
2026-01-07 02:16:46.65	318.21	35.68	-39.5	-41.6	22.3	6.01e-01	0	56	0	316145664	49	4910
2026-01-07 02:16:49.68	316.81	35.95	-39.5	-41.6	22.2	6.02e-01	0	56	0	321912832	49	4920
2026-01-07 02:16:52.71	315.39	36.22	-39.6	-41.7	22.1	6.02e-01	0	56	0	327680000	50	4663
2026-01-07 02:16:55.74	313.95	36.46	-39.7	-41.8	22.0	6.03e-01	0	56	0	332922880	50	4755
2026-01-07 02:16:58.76	312.49	36.68	-40.0	-42.3	21.6	6.02e-01	0	56	0	338690048	50	5009
2026-01-07 02:17:01.79	311.00	36.89	-39.5	-41.7	22.2	6.00e-01	0	56	0	344457216	50	4652
2026-01-07 02:17:04.82	309.50	37.07	-40.0	-42.3	21.5	6.02e-01	0	56	0	350224384	50	5024
2026-01-07 02:17:07.85	307.98	37.23	-39.9	-42.1	21.8	6.00e-01	0	57	0	355991552	50	4900
2026-01-07 02:17:10.88	306.44	37.37	-39.9	-42.1	21.8	6.03e-01	0	56	0	361234432	50	4920
2026-01-07 02:17:13.91	304.89	37.49	-39.3	-41.3	22.4	6.00e-01	0	56	0	367001600	50	4444
2026-01-07 02:17:16.94	303.34	37.59	-40.2	-42.8	21.4	6.00e-01	0	56	0	372768768	51	5027
2026-01-07 02:17:19.97	301.77	37.66	-39.3	-41.3	22.6	6.03e-01	0	56	0	378535936	50	4460
2026-01-07 02:17:23.00	300.20	37.71	-40.5	-43.1	20.6	6.01e-01	0	56	0	384303104	52	4914
2026-01-07 02:17:26.03	298.62	37.73	-39.2	-41.2	22.6	6.00e-01	0	56	0	390070272	50	4428
2026-01-07 02:17:29.05	297.05	37.73	-40.3	-42.7	21.2	6.01e-01	0	56	0	395313152	51	4931
2026-01-07 02:17:32.08	295.47	37.71	-39.4	-41.4	22.3	6.01e-01	0	56	0	401080320	50	4530
2026-01-07 02:17:35.11	293.90	37.66	-39.5	-41.5	22.4	6.02e-01	0	56	0	406847488	50	4573
2026-01-07 02:17:38.14	292.33	37.58	-39.6	-41.7	22.2	6.00e-01	0	56	0	412614656	50	4689
2026-01-07 02:17:41.17	290.77	37.49	-39.7	-41.8	22.1	6.01e-01	0	56	0	418381824	50	4723
2026-01-07 02:17:44.20	289.22	37.37	-40.3	-42.7	21.2	5.99e-01	0	56	0	424148992	51	4930
2026-01-07 02:17:47.22	287.69	37.23	-40.2	-42.6	21.3	6.01e-01	0	56	0	429391872	51	4874
2026-01-07 02:17:50.25	286.17	37.06	-39.8	-42.1	21.8	5.99e-01	0	56	0	435159040	50	4879
2026-01-07 02:17:53.28	284.67	36.88	-39.5	-41.6	22.2	5.98e-01	0	56	0	440926208	51	4374
2026-01-07 02:17:56.31	283.18	36.67	-40.2	-42.5	21.4	5.99e-01	0	57	0	446693376	50	5146
2026-01-07 02:17:59.34	281.71	36.45	-39.4	-41.4	22.4	6.02e-01	0	56	0	452460544	50	4531
2026-01-07 02:18:02.37	280.27	36.20	-40.1	-42.3	21.5	6.02e-01	0	56	0	458227712	50	5039
2026-01-07 02:18:05.39	278.85	35.94	-39.6	-41.7	22.1	6.02e-01	0	56	0	463470592	50	4697
2026-01-07 02:18:08.42	277.45	35.66	-39.6	-41.6	22.2	6.04e-01	0	56	0	469237760	50	4649
2026-01-07 02:18:11.46	276.07	35.36	-39.6	-41.7	22.1	6.00e-01	0	56	0	475004928	50	4697
2026-01-07 02:18:14.49	274.73	35.05	-39.7	-41.9	21.9	6.03e-01	0	56	0	480772096	50	4796
2026-01-07 02:18:17.52	273.41	34.73	-40.1	-42.5	21.4	6.01e-01	0	56	0	486539264	50	5102
2026-01-07 02:18:20.55	272.11	34.39	-39.9	-42.2	21.6	5.99e-01	0	56	0	492306432	50	4953
2026-01-07 02:18:23.57	270.85	34.04	-39.6	-41.7	22.1	6.01e-01	0	56	0	497549312	50	4684
2026-01-07 02:18:26.61	269.61	33.68	-39.0	-40.9	22.9	6.01e-01	0	56	0	503316480	50	4280
2026-01-07 02:18:29.63	268.40	33.31	-39.8	-42.0	21.6	6.00e-01	0	56	0	509083648	50	4869
2026-01-07 02:18:32.67	267.22	32.93	-39.8	-42.1	21.8	6.03e-01	0	56	0	514850816	50	4879
2026-01-07 02:18:35.70	266.06	32.55	-39.3	-41.3	22.4	6.01e-01	0	56	0	520617984	50	4482
2026-01-07 02:18:38.73	264.94	32.15	-39.6	-41.7	22.1	6.02e-01	0	57	0	526385152	50	4692
2026-01-07 02:18:41.75	263.85	31.75	-39.3	-41.3	22.5	6.02e-01	0	56	0	531628032	50	4460
2026-01-07 02:18:44.78	262.78	31.35	-39.4	-41.5	22.4	6.03e-01	0	56	0	537395200	50	4546
2026-01-07 02:18:47.81	261.73	30.94	-39.4	-41.5	22.3	6.01e-01	0	56	0	543162368	50	4561
2026-01-07 02:18:50.85	260.72	30.52	-39.3	-41.3	22.4	6.01e-01	0	56	0	548929536	50	4482
2026-01-07 02:18:53.88	259.73	30.11	-39.4	-41.5	22.3	6.03e-01	0	56	0	554696704	50	4575
2026-01-07 02:18:56.91	258.77	29.69	-39.5	-41.6	22.2	6.00e-01	0	56	0	560463872	50	4641
2026-01-07 02:18:59.94	257.83	29.26	-39.5	-41.6	22.2	6.00e-01	0	56	0	565706752	50	4609
2026-01-07 02:19:02.97	256.92	28.84	-39.4	-41.5	22.3	6.03e-01	0	57	0	571473920	50	4549
2026-01-07 02:19:06.00	256.03	28.42	-39.4	-41.5	22.3	6.00e-01	0	56	0	577241088	50	4552
2026-01-07 02:19:09.03	255.17	27.99	-39.7	-41.8	21.9	6.01e-01	0	57	0	583008256	50	4753
2026-01-07 02:19:12.06	254.33	27.57	-39.3	-41.4	22.4	6.01e-01	0	57	0	588775424	50	4497
2026-01-07 02:19:15.09	253.52	27.15	-39.6	-41.8	21.9	6.01e-01	0	57	0	594542592	50	4732
2026-01-07 02:19:18.12	252.72	26.72	-39.4	-41.5	22.2	6.03e-01	0	56	0	600309760	50	4564
2026-01-07 02:19:21.15	251.95	26.30	-39.7	-42.0	21.8	6.01e-01	0	56	0	605552640	50	4821
2026-01-07 02:19:24.18	251.20	25.88	-39.5	-41.6	22.1	6.00e-01	0	56	0	611319808	50	4626
2026-01-07 02:19:27.21	250.47	25.47	-39.6	-41.8	21.9	6.01e-01	0	57	0	617086976	50	4713
2026-01-07 02:19:30.24	249.76	25.05	-39.7	-41.9	21.8	6.00e-01	0	57	0	622854144	50	4770
2026-01-07 02:19:33.26	249.07	24.64	-39.6	-41.8	21.8	5.98e-01	0	56	0	628621312	50	4755
2026-01-07 02:19:36.29	248.40	24.23	-39.7	-41.9	21.8	6.02e-01	0	56	0	633864192	50	4778
2026-01-07 02:19:39.32	247.74	23.82	-39.7	-41.9	21.7	6.01e-01	0	57	0	639631360	50	4810
2026-01-07 02:19:42.35	247.11	23.42	-39.7	-41.9	21.7	6.02e-01	0	56	0	645398528	50	4793
2026-01-07 02:19:45.38	246.49	23.02	-39.7	-41.9	21.7	6.03e-01	0	56	0	651165696	50	4800
2026-01-07 02:19:48.40	245.88	22.62	-39.9	-42.2	21.5	6.01e-01	0	57	0	656932864	50	4941
2026-01-07 02:19:51.43	245.30	22.23	-39.6	-41.8	21.9	6.02e-01	0	57	0	662700032	50	4710
2026-01-07 02:19:54.46	244.72	21.84	-39.7	-41.9	21.7	6.00e-01	0	56	0	668467200	50	4778
2026-01-07 02:19:57.49	244.17	21.45	-39.8	-42.1	21.5	6.02e-01	0	56	0	673710080	50	4915
2026-01-07 02:20:00.52	243.62	21.07	-39.6	-41.7	21.8	6.04e-01	0	56	0	679477248	50	4703
2026-01-07 02:20:03.55	243.10	20.69	-39.8	-42.1	21.5	6.02e-01	0	56	0	685244416	50	4881
2026-01-07 02:20:06.58	242.58	20.31	-39.7	-41.9	21.7	6.01e-01	0	57	0	691011584	50	4784
2026-01-07 02:20:09.61	242.08	19.94	-39.6	-41.9	21.7	6.02e-01	0	57	0	696778752	50	4780
2026-01-07 02:20:12.64	241.59	19.57	-39.6	-41.9	21.7	6.02e-01	0	56	0	702021632	50	4762
2026-01-07 02:20:15.67	241.11	19.21	-39.5	-41.6	21.9	6.03e-01	0	56	0	707788800	50	4651
2026-01-07 02:20:18.70	240.65	18.85	-39.6	-41.8	21.6	6.03e-01	0	57	0	713555968	50	4759
2026-01-07 02:20:21.73	240.20	18.49	-39.4	-41.6	21.9	6.00e-01	0	56	0	719323136	50	4606
2026-01-07 02:20:24.76	239.76	18.14	-39.7	-41.9	21.6	6.02e-01	0	57	0	725090304	50	4813
2026-01-07 02:20:27.78	239.33	17.79	-39.5	-41.7	21.7	6.01e-01	0	57	0	730857472	50	4692
2026-01-07 02:20:30.81	238.91	17.45	-39.4	-41.6	21.8	5.98e-01	0	57	0	736100352	50	4630
2026-01-07 02:20:33.84	238.49	17.10	-39.8	-42.1	21.3	6.00e-01	0	57	0	741867520	50	4908
2026-01-07 02:20:36.87	238.09	16.77	-39.6	-41.9	21.5	5.98e-01	0	57	0	747634688	50	4783
2026-01-07 02:20:39.90	237.70	16.43	-39.6	-41.8	21.6	5.99e-01	0	56	0	753401856	50	4758
2026-01-07 02:20:42.93	237.32	16.10	-39.5	-41.8	21.6	6.01e-01	0	57	0	759169024	50	4724
2026-01-07 02:20:45.96	236.95	15.78	-39.6	-41.9	21.5	6.01e-01	0	57	0	764936192	50	4775
2026-01-07 02:20:48.99	236.58	15.45	-39.8	-42.2	21.2	5.99e-01	0	56	0	770179072	50	4954
2026-01-07 02:20:52.02	236.23	15.13	-39.8	-42.2	21.1	6.01e-01	0	56	0	775946240	50	4945
2026-01-07 02:20:55.04	235.88	14.82	-39.6	-41.8	21.5	5.99e-01	0	57	0	781713408	50	4755
2026-01-07 02:20:58.07	235.54	14.51	-39.6	-42.0	21.3	6.01e-01	0	57	0	787480576	50	4827
2026-01-07 02:21:01.10	235.21	14.20	-39.8	-42.2	21.1	6.01e-01	0	57	0	793247744	50	4954
2026-01-07 02:21:04.13	234.89	13.89	-39.7	-42.1	21.2	6.02e-01	0	57	0	799014912	50	4877
2026-01-07 02:21:07.16	234.57	13.59	-39.6	-42.0	21.2	6.02e-01	0	57	0	804782080	50	4849
2026-01-07 02:21:10.19	234.26	13.29	-39.9	-42.4	20.8	5.98e-01	0	57	0	810024960	50	5069
2026-01-07 02:21:13.22	233.95	13.00	-39.8	-42.3	20.8	6.03e-01	0	57	0	815792128	50	5040
2026-01-07 02:21:16.25	233.66	12.71	-39.8	-42.3	20.8	6.04e-01	0	56	0	821559296	50	5028
2026-01-07 02:21:19.28	233.36	12.42	-39.9	-42.4	20.8	5.99e-01	0	57	0	827326464	50	5044
2026-01-07 02:21:22.31	233.08	12.13	-39.9	-42.4	20.7	6.03e-01	0	57	0	833093632	50	5091
2026-01-07 02:21:25.34	232.80	11.85	-39.9	-42.5	20.6	6.02e-01	0	57	0	838336512	50	5118
2026-01-07 02:21:28.37	232.53	11.57	-39.9	-42.4	20.6	6.04e-01	0	57	0	844103680	50	5096
2026-01-07 02:21:31.40	232.26	11.29	-40.0	-42.6	20.5	6.03e-01	0	56	0	849870848	50	5184
2026-01-07 02:21:34.43	232.00	11.02	-40.1	-42.8	20.2	6.01e-01	0	57	0	855638016	50	5325
2026-01-07 02:21:37.45	231.74	10.75	-40.2	-43.0	20.0	6.01e-01	0	56	0	861405184	51	5116
2026-01-07 02:21:40.48	231.49	10.48	-40.2	-43.0	20.1	6.03e-01	0	56	0	867172352	51	5107
2026-01-07 02:21:43.51	231.25	10.21	-40.1	-42.8	20.2	6.00e-01	0	57	0	872939520	51	4988
2026-01-07 02:21:46.54	231.01	9.95	-40.1	-42.9	20.1	6.04e-01	0	57	0	878182400	51	5059
2026-01-07 02:21:49.57	230.77	9.69	-40.1	-42.9	20.0	6.01e-01	0	57	0	883949568	51	5091
2026-01-07 02:21:52.60	230.54	9.43	-40.1	-42.8	20.0	6.00e-01	0	57	0	889716736	51	5025
2026-01-07 02:21:55.63	230.31	9.17	-40.2	-43.0	19.8	6.01e-01	0	56	0	895483904	51	5158
2026-01-07 02:21:58.65	230.09	8.92	-40.1	-42.9	19.9	6.04e-01	0	56	0	901251072	51	5077
2026-01-07 02:22:01.68	229.87	8.67	-40.3	-43.3	19.5	6.01e-01	0	57	0	906493952	51	5302
2026-01-07 02:22:04.71	229.65	8.42	-40.5	-43.5	19.3	6.03e-01	0	57	0	912261120	51	5447
2026-01-07 02:22:07.75	229.44	8.18	-40.6	-43.8	18.9	6.01e-01	0	57	0	918028288	51	5597
2026-01-07 02:22:10.78	229.24	7.93	-45.2	-64.0	3.8	7.46e-01	0	57	104	921698304	60	34208
2026-01-07 02:22:13.81	229.03	7.69	-45.8	-64.7	3.8	7.43e-01	0	57	104	921698304	62	32969
2026-01-07 02:22:16.84	228.83	7.45	-46.0	-64.9	3.8	7.45e-01	0	57	104	921698304	62	33762
2026-01-07 02:22:19.87	228.64	7.22	-46.0	-64.8	3.8	7.44e-01	0	57	104	921698304	62	33678
2026-01-07 02:22:22.90	228.45	6.98	-45.9	-64.8	3.8	7.47e-01	0	57	104	921698304	62	33542
2026-01-07 02:22:25.93	228.26	6.75	-45.9	-64.8	3.8	7.42e-01	0	57	104	921698304	62	33568
2026-01-07 02:22:28.97	228.07	6.52	-45.9	-64.8	3.8	7.47e-01	0	57	104	921698304	62	33426
2026-01-07 02:22:32.00	227.89	6.29	-45.9	-64.8	3.8	7.44e-01	0	57	104	921698304	62	33358
2026-01-07 02:22:35.03	227.71	6.06	-45.9	-64.8	3.8	7.49e-01	0	57	104	921698304	62	33385
2026-01-07 02:22:38.06	227.54	5.84	-45.8	-64.7	3.8	7.43e-01	0	57	104	921698304	62	33289
2026-01-07 02:22:41.09	227.36	5.62	-45.8	-64.8	3.8	7.46e-01	0	57	104	921698304	62	33335
2026-01-07 02:22:44.13	227.19	5.39	-45.8	-64.7	3.8	7.42e-01	0	57	104	921698304	62	33276
2026-01-07 02:22:47.16	227.03	5.17	-45.8	-64.7	3.8	7.45e-01	0	57	104	921698304	62	33186
2026-01-07 02:22:50.19	226.86	4.96	-45.8	-64.7	3.8	7.43e-01	0	57	104	921698304	62	33211
2026-01-07 02:22:53.22	226.70	4.74	-45.8	-64.7	3.8	7.44e-01	0	57	104	921698304	62	33222
2026-01-07 02:22:56.25	226.54	4.53	-45.8	-64.7	3.8	7.42e-01	0	57	104	921698304	62	33242
2026-01-07 02:22:59.28	226.39	4.32	-45.8	-64.7	3.8	7.46e-01	0	57	104	921698304	62	33235
2026-01-07 02:23:02.32	226.23	4.11	-45.8	-64.7	3.8	7.47e-01	0	57	104	921698304	62	33117
2026-01-07 02:23:05.35	226.08	3.90	-45.8	-64.7	3.8	7.46e-01	0	57	104	921698304	62	33199
2026-01-07 02:23:08.38	225.94	3.69	-45.8	-64.7	3.8	7.47e-01	0	57	104	921698304	62	33249
2026-01-07 02:23:11.41	225.79	3.48	-45.8	-64.7	3.8	7.47e-01	0	57	104	921698304	62	33139
2026-01-07 02:23:14.45	225.65	3.28	-45.8	-64.7	3.8	7.45e-01	0	57	104	921698304	62	33168
2026-01-07 02:23:17.48	225.50	3.08	-45.8	-64.7	3.8	7.46e-01	0	57	104	921698304	62	33145
2026-01-07 02:23:20.51	225.37	2.88	-45.8	-64.7	3.8	7.43e-01	0	57	104	921698304	62	33254
2026-01-07 02:23:23.54	225.23	2.68	-45.8	-64.7	3.8	7.43e-01	0	57	104	921698304	62	33149
2026-01-07 02:23:26.57	225.09	2.48	-45.8	-64.7	3.8	7.44e-01	0	57	104	921698304	62	33122
2026-01-07 02:23:29.60	224.96	2.28	-45.8	-64.7	3.8	7.44e-01	0	57	104	921698304	62	33161
2026-01-07 02:23:32.64	224.83	2.08	-45.8	-64.7	3.8	7.43e-01	0	57	104	921698304	62	33183
2026-01-07 02:23:35.67	224.70	1.89	-45.8	-64.7	3.8	7.46e-01	0	57	104	921698304	62	33205

#Closed at: 2026-01-07 02:23:36
#Recorded file [921 MB]: D:/lorett/data/31039_260107_051119.dat