passes_logs/2026/01/07/R2.0S_Moscow/R2.0S_Moscow__20260107_012447_FENGYUN_3D_rec.log

#Pass ID: 20260107_012447_FENGYUN 3D
#Satellite: FENGYUN 3D
#Configuration: FENGYUN 3D
#almurnet v.1.7.20251203
#Start time: 2026-01-07 01:24:49

#Version: 2.2.20231116
#Station: R2.0S_Moscow
#Location: 37.707566 lon 55.798166 lat
#TLE: 1 43010U 17072A   26006.26440730  .00000376  00000+0  19957-3 0  9994
#TLE: 2 43010  98.9925 337.9455 0002045 123.9195 236.2175 14.19693586422016

#Time	Az	El	Level	Level2	SNR	BER	BlckErr	Temp	State	Recorded	gain1	gain2
2026-01-07 01:24:49.13	18.13	2.10	-40.6	-52.7	3.8	8.46e-01	0	47	0	0	53	13914
2026-01-07 01:24:53.17	18.21	2.36	-40.6	-52.6	3.8	8.45e-01	0	47	104	0	53	13837
2026-01-07 01:24:57.22	18.28	2.62	-40.6	-52.7	3.8	8.48e-01	0	48	104	0	53	13887
2026-01-07 01:25:01.26	18.36	2.88	-40.6	-52.6	3.8	8.47e-01	0	48	104	0	53	13855
2026-01-07 01:25:05.30	18.44	3.14	-40.6	-52.6	3.8	8.47e-01	0	48	104	0	53	13860
2026-01-07 01:25:09.34	18.52	3.41	-40.6	-52.6	3.8	8.46e-01	0	49	104	0	53	13853
2026-01-07 01:25:13.38	18.60	3.68	-40.6	-52.6	3.8	8.46e-01	0	49	104	0	53	13842
2026-01-07 01:25:17.42	18.68	3.95	-40.6	-52.6	3.8	8.46e-01	0	49	104	0	53	13851
2026-01-07 01:25:21.47	18.76	4.23	-40.6	-52.6	3.8	8.47e-01	0	50	104	0	53	13867
2026-01-07 01:25:25.51	18.84	4.51	-40.6	-52.6	3.8	8.46e-01	0	49	104	0	53	13832
2026-01-07 01:25:29.56	18.93	4.79	-40.6	-52.6	3.8	8.46e-01	0	50	104	0	53	13789
2026-01-07 01:25:33.60	19.02	5.07	-40.6	-52.6	3.8	8.46e-01	0	50	104	0	53	13816
2026-01-07 01:25:37.64	19.10	5.36	-40.6	-52.6	3.8	8.46e-01	0	50	104	0	53	13816
2026-01-07 01:25:41.68	19.19	5.65	-40.6	-52.6	3.8	8.46e-01	0	51	104	0	53	13794
2026-01-07 01:25:45.72	19.28	5.94	-40.5	-52.6	3.8	8.46e-01	0	51	104	0	53	13768
2026-01-07 01:25:49.76	19.37	6.24	-40.6	-52.6	3.8	8.46e-01	0	51	104	0	53	13866
2026-01-07 01:25:53.81	19.47	6.54	-40.6	-52.6	3.8	8.45e-01	0	51	104	0	53	13833
2026-01-07 01:25:57.85	19.56	6.84	-40.6	-52.5	3.8	8.47e-01	0	51	104	0	53	13643
2026-01-07 01:26:01.89	19.66	7.15	-40.6	-52.2	3.8	8.47e-01	0	52	104	0	53	13249
2026-01-07 01:26:05.94	19.76	7.46	-40.5	-51.7	3.8	8.46e-01	0	52	104	0	52	13132
2026-01-07 01:26:09.98	19.86	7.77	-40.4	-50.4	3.9	8.44e-01	0	52	104	0	52	11329
2026-01-07 01:26:14.02	19.96	8.09	-41.8	-48.2	5.4	4.77e-01	0	52	0	2097152	54	7894
2026-01-07 01:26:18.06	20.06	8.41	-39.3	-42.4	11.0	1.06e-03	0	52	0	15728640	49	5356
2026-01-07 01:26:22.10	20.17	8.74	-36.1	-37.9	15.4	0.00e+00	0	52	0	37748736	44	4269
2026-01-07 01:26:26.13	20.28	9.07	-36.7	-38.6	14.8	2.20e-06	0	52	0	60817408	44	4642
2026-01-07 01:26:30.18	20.39	9.41	-36.6	-38.5	15.0	0.00e+00	0	52	0	83886080	44	4558
2026-01-07 01:26:34.22	20.50	9.74	-36.6	-38.5	15.1	0.00e+00	0	53	0	105906176	44	4558
2026-01-07 01:26:38.25	20.61	10.09	-36.6	-38.3	15.4	0.00e+00	0	53	0	128974848	44	4485
2026-01-07 01:26:42.30	20.73	10.44	-36.6	-38.3	15.5	0.00e+00	0	53	0	152043520	44	4480
2026-01-07 01:26:46.34	20.85	10.79	-36.7	-38.5	15.4	0.00e+00	0	53	0	174063616	44	4560
2026-01-07 01:26:50.38	20.97	11.15	-36.5	-38.1	15.8	0.00e+00	0	53	0	197132288	44	4384
2026-01-07 01:26:54.43	21.10	11.52	-36.5	-38.2	15.9	0.00e+00	0	53	0	220200960	44	4405
2026-01-07 01:26:58.47	21.22	11.89	-36.3	-38.0	16.2	0.00e+00	0	53	0	242221056	44	4295
2026-01-07 01:27:02.51	21.35	12.26	-36.3	-37.9	16.3	0.00e+00	0	53	0	265289728	44	4256
2026-01-07 01:27:06.55	21.48	12.64	-36.3	-37.8	16.4	0.00e+00	0	53	0	288358400	44	4241
2026-01-07 01:27:10.59	21.62	13.03	-36.3	-37.9	16.4	0.00e+00	0	53	0	310378496	44	4244
2026-01-07 01:27:14.63	21.76	13.42	-36.3	-37.9	16.5	0.00e+00	0	54	0	333447168	44	4259
2026-01-07 01:27:18.66	21.90	13.82	-36.3	-37.9	16.5	0.00e+00	0	54	0	356515840	44	4246
2026-01-07 01:27:22.70	22.05	14.23	-36.1	-37.7	16.7	0.00e+00	0	54	0	378535936	44	4146
2026-01-07 01:27:26.74	22.20	14.64	-36.1	-37.6	16.8	0.00e+00	0	54	0	401604608	44	4110
2026-01-07 01:27:30.78	22.35	15.06	-35.7	-37.1	17.1	0.00e+00	0	54	0	424673280	43	4133
2026-01-07 01:27:34.81	22.50	15.49	-35.5	-36.9	17.4	0.00e+00	0	54	0	446693376	43	4051
2026-01-07 01:27:38.86	22.67	15.92	-35.3	-36.7	17.7	0.00e+00	0	54	0	469762048	42	4158
2026-01-07 01:27:42.90	22.83	16.37	-35.2	-36.6	17.9	0.00e+00	0	54	0	492830720	42	4113
2026-01-07 01:27:46.94	23.00	16.82	-35.1	-36.4	18.0	0.00e+00	0	54	0	514850816	42	4044
2026-01-07 01:27:50.98	23.18	17.28	-35.0	-36.3	18.1	0.00e+00	0	54	0	537919488	41	4230
2026-01-07 01:27:55.02	23.35	17.74	-34.7	-36.0	18.5	0.00e+00	0	54	0	560988160	41	4070
2026-01-07 01:27:59.07	23.54	18.22	-34.6	-35.9	18.5	0.00e+00	0	54	0	583008256	41	4034
2026-01-07 01:28:03.11	23.73	18.71	-34.6	-35.9	18.6	0.00e+00	0	55	0	606076928	41	4036
2026-01-07 01:28:07.15	23.92	19.20	-34.5	-35.7	18.8	0.00e+00	0	54	0	629145600	40	4171
2026-01-07 01:28:11.19	24.13	19.71	-34.3	-35.5	19.1	0.00e+00	0	55	0	652214272	40	4074
2026-01-07 01:28:15.23	24.33	20.22	-34.2	-35.4	19.1	0.00e+00	0	55	0	674234368	40	4046
2026-01-07 01:28:19.27	24.55	20.75	-34.1	-35.3	19.3	0.00e+00	0	55	0	697303040	40	3997
2026-01-07 01:28:23.31	24.77	21.28	-34.0	-35.2	19.4	0.00e+00	0	55	0	719323136	40	3949
2026-01-07 01:28:27.36	25.00	21.83	-34.1	-35.3	19.5	0.00e+00	0	55	0	742391808	39	4205
2026-01-07 01:28:31.39	25.23	22.39	-34.0	-35.2	19.5	0.00e+00	0	55	0	765460480	39	4173
2026-01-07 01:28:35.43	25.48	22.96	-33.8	-34.9	19.8	0.00e+00	0	55	0	788529152	39	4043
2026-01-07 01:28:39.47	25.73	23.55	-33.6	-34.8	20.0	0.00e+00	0	55	0	810549248	39	3967
2026-01-07 01:28:43.51	25.99	24.14	-33.7	-34.8	19.9	0.00e+00	0	55	0	833617920	39	4001
2026-01-07 01:28:47.55	26.26	24.76	-33.7	-34.9	19.9	0.00e+00	0	55	0	856686592	39	4007
2026-01-07 01:28:51.59	26.55	25.38	-33.7	-34.9	20.0	0.00e+00	0	55	0	878706688	39	4017
2026-01-07 01:28:55.63	26.84	26.02	-33.6	-34.7	20.1	0.00e+00	0	55	0	901775360	39	3938
2026-01-07 01:28:59.67	27.14	26.67	-33.5	-34.6	20.3	0.00e+00	0	55	0	923795456	38	4108
2026-01-07 01:29:03.71	27.46	27.34	-33.5	-34.7	20.2	0.00e+00	0	55	0	946864128	38	4148
2026-01-07 01:29:07.75	27.79	28.03	-33.2	-34.3	20.6	0.00e+00	0	55	0	969932800	38	4001
2026-01-07 01:29:11.79	28.13	28.73	-33.2	-34.3	20.6	0.00e+00	0	55	0	993001472	38	3992
2026-01-07 01:29:15.83	28.49	29.45	-33.4	-34.5	20.4	0.00e+00	0	55	0	1015021568	38	4056
2026-01-07 01:29:19.87	28.86	30.19	-33.6	-34.7	20.2	0.00e+00	0	56	0	1038090240	38	4168
2026-01-07 01:29:23.91	29.25	30.94	-33.1	-34.2	20.8	0.00e+00	0	55	0	1061158912	38	3915
2026-01-07 01:29:27.95	29.66	31.72	-33.2	-34.3	20.7	0.00e+00	0	55	0	1083179008	38	3986
2026-01-07 01:29:32.00	30.09	32.51	-33.1	-34.2	20.7	0.00e+00	0	55	0	1106247680	38	3944
2026-01-07 01:29:36.04	30.54	33.33	-32.9	-34.0	21.0	0.00e+00	0	56	0	1129316352	37	4062
2026-01-07 01:29:40.08	31.01	34.16	-32.8	-33.8	21.1	0.00e+00	0	56	0	1151336448	37	3997
2026-01-07 01:29:44.12	31.51	35.01	-32.9	-34.0	21.0	0.00e+00	0	56	0	1174405120	37	4062
2026-01-07 01:29:48.16	32.03	35.89	-32.9	-34.0	21.0	0.00e+00	0	56	0	1197473792	37	4077
2026-01-07 01:29:52.20	32.58	36.79	-32.5	-33.5	21.5	0.00e+00	0	56	0	1219493888	37	3857
2026-01-07 01:29:56.24	33.16	37.71	-32.5	-33.6	21.4	0.00e+00	0	56	0	1242562560	37	3882
2026-01-07 01:30:00.28	33.78	38.65	-32.6	-33.8	20.7	0.00e+00	0	56	0	1265631232	37	3968
2026-01-07 01:30:04.32	34.43	39.62	-33.0	-34.2	20.3	0.00e+00	0	56	0	1287651328	37	4180
2026-01-07 01:30:08.37	35.12	40.61	-32.9	-34.1	20.5	0.00e+00	0	56	0	1310720000	37	4119
2026-01-07 01:30:12.40	35.85	41.62	-33.0	-34.2	20.4	0.00e+00	0	56	0	1333788672	37	4189
2026-01-07 01:30:16.45	36.63	42.66	-33.0	-34.2	20.3	0.00e+00	0	56	0	1355808768	37	4190
2026-01-07 01:30:20.49	37.46	43.72	-33.0	-34.2	20.4	0.00e+00	0	56	0	1378877440	37	4150
2026-01-07 01:30:24.53	38.35	44.81	-33.8	-35.2	19.5	0.00e+00	0	56	0	1401946112	38	4393
2026-01-07 01:30:28.57	39.30	45.92	-33.2	-34.4	20.3	0.00e+00	0	56	0	1423966208	38	4011
2026-01-07 01:30:32.61	40.32	47.04	-33.3	-34.5	20.3	0.00e+00	0	56	0	1447034880	38	4056
2026-01-07 01:30:36.65	41.42	48.19	-33.3	-34.5	20.3	0.00e+00	0	56	0	1470103552	38	4080
2026-01-07 01:30:40.68	42.59	49.36	-33.6	-34.9	19.9	0.00e+00	0	56	0	1493172224	38	4249
2026-01-07 01:30:44.72	43.87	50.55	-33.8	-35.0	19.7	0.00e+00	0	56	0	1515192320	38	4340
2026-01-07 01:30:48.76	45.24	51.75	-33.8	-35.0	19.8	0.00e+00	0	56	0	1538260992	38	4331
2026-01-07 01:30:52.80	46.74	52.96	-34.2	-35.4	19.5	0.00e+00	0	56	0	1560281088	38	4534
2026-01-07 01:30:56.85	48.36	54.19	-34.3	-35.6	19.3	0.00e+00	0	56	0	1583349760	39	4356
2026-01-07 01:31:00.88	50.12	55.41	-34.1	-35.3	19.5	0.00e+00	0	56	0	1606418432	39	4242
2026-01-07 01:31:04.93	52.04	56.64	-33.7	-34.9	19.9	0.00e+00	0	56	0	1629487104	39	4022
2026-01-07 01:31:08.97	54.14	57.87	-33.9	-35.2	19.6	0.00e+00	0	56	0	1651507200	39	4167
2026-01-07 01:31:13.01	56.44	59.07	-33.5	-34.7	20.1	0.00e+00	0	56	0	1674575872	39	3953
2026-01-07 01:31:17.05	58.96	60.26	-33.0	-34.2	20.6	0.00e+00	0	56	0	1697644544	38	3938
2026-01-07 01:31:21.09	61.71	61.42	-32.8	-34.0	20.7	0.00e+00	0	56	0	1719664640	37	4075
2026-01-07 01:31:25.13	64.73	62.53	-32.9	-34.0	20.6	0.00e+00	0	56	0	1742733312	37	4097
2026-01-07 01:31:29.17	68.03	63.58	-32.7	-33.8	20.8	0.00e+00	0	56	0	1764753408	37	3998
2026-01-07 01:31:33.22	71.64	64.57	-32.5	-33.6	21.0	0.00e+00	0	56	0	1787822080	37	3913
2026-01-07 01:31:37.26	75.55	65.48	-32.6	-33.7	20.9	0.00e+00	0	56	0	1810890752	36	4179
2026-01-07 01:31:41.31	79.79	66.28	-32.8	-34.1	20.6	0.00e+00	0	56	0	1833959424	36	4345
2026-01-07 01:31:45.34	84.30	66.96	-32.3	-33.4	21.1	0.00e+00	0	56	0	1855979520	36	4051
2026-01-07 01:31:49.38	89.10	67.51	-32.1	-33.3	21.4	0.00e+00	0	56	0	1879048192	36	3965
2026-01-07 01:31:53.42	94.12	67.91	-32.4	-33.6	21.0	0.00e+00	0	56	0	1902116864	36	4119
2026-01-07 01:31:57.46	99.31	68.16	-31.2	-32.4	21.4	0.00e+00	0	56	0	1924136960	34	4006
2026-01-07 01:32:01.49	104.56	68.23	-31.9	-33.1	20.7	0.00e+00	0	56	0	1947205632	34	4360
2026-01-07 01:32:05.53	109.83	68.14	-31.6	-32.7	21.0	0.00e+00	0	56	0	1970274304	34	4186
2026-01-07 01:32:09.58	115.01	67.88	-31.6	-32.8	21.0	0.00e+00	0	56	0	1992294400	34	4209
2026-01-07 01:32:13.62	120.02	67.46	-31.8	-33.0	20.8	0.00e+00	0	56	0	2015363072	34	4302
2026-01-07 01:32:17.66	124.80	66.90	-31.7	-32.9	20.9	0.00e+00	0	56	0	2038431744	34	4265
2026-01-07 01:32:21.70	129.30	66.20	-31.6	-32.8	21.0	0.00e+00	0	56	0	2060451840	34	4199
2026-01-07 01:32:25.74	133.49	65.39	-31.8	-33.0	20.7	0.00e+00	0	56	0	2083520512	34	4335
2026-01-07 01:32:29.78	137.38	64.47	-31.9	-33.1	20.7	0.00e+00	0	56	0	2106589184	34	4345
2026-01-07 01:32:33.82	140.95	63.47	-31.9	-33.0	20.8	0.00e+00	0	56	0	2128609280	34	4328
2026-01-07 01:32:37.85	144.22	62.41	-32.0	-33.2	20.7	0.00e+00	0	56	0	2151677952	34	4425
2026-01-07 01:32:41.90	147.22	61.29	-32.4	-33.6	20.3	0.00e+00	0	56	0	2174746624	35	4381
2026-01-07 01:32:45.93	149.95	60.13	-32.5	-33.7	20.2	0.00e+00	0	56	0	2196766720	35	4441
2026-01-07 01:32:49.97	152.44	58.93	-33.4	-34.6	20.1	0.00e+00	0	56	0	2219835392	37	4389
2026-01-07 01:32:54.01	154.72	57.72	-33.8	-35.0	19.8	0.00e+00	0	56	0	2242904064	38	4337
2026-01-07 01:32:58.04	156.80	56.50	-33.7	-35.0	19.8	0.00e+00	0	56	0	2264924160	38	4304
2026-01-07 01:33:02.08	158.71	55.26	-33.9	-35.2	19.6	0.00e+00	0	56	0	2287992832	38	4423
2026-01-07 01:33:06.12	160.46	54.03	-34.0	-35.3	19.6	0.00e+00	0	56	0	2311061504	38	4459
2026-01-07 01:33:10.16	162.07	52.80	-34.1	-35.5	19.3	0.00e+00	0	56	0	2333081600	39	4301
2026-01-07 01:33:14.20	163.55	51.59	-33.4	-34.6	20.1	0.00e+00	0	56	0	2356150272	38	4135
2026-01-07 01:33:18.24	164.92	50.38	-33.5	-34.7	20.0	0.00e+00	0	56	0	2379218944	38	4186
2026-01-07 01:33:22.27	166.18	49.19	-33.4	-34.6	20.2	0.00e+00	0	56	0	2401239040	38	4130
2026-01-07 01:33:26.32	167.35	48.02	-33.5	-34.7	20.0	0.00e+00	0	56	0	2424307712	38	4181
2026-01-07 01:33:30.36	168.44	46.87	-33.3	-34.6	20.1	0.00e+00	0	56	0	2447376384	38	4102
2026-01-07 01:33:34.40	169.46	45.73	-33.2	-34.4	20.2	0.00e+00	0	56	0	2469396480	38	4029
2026-01-07 01:33:38.44	170.40	44.62	-33.0	-34.2	20.4	0.00e+00	0	56	0	2492465152	38	3935
2026-01-07 01:33:42.48	171.28	43.54	-33.0	-34.2	20.3	0.00e+00	0	56	0	2515533824	37	4192
2026-01-07 01:33:46.52	172.11	42.47	-32.6	-33.8	20.7	0.00e+00	0	56	0	2537553920	37	3986
2026-01-07 01:33:50.56	172.88	41.43	-32.9	-34.1	20.3	0.00e+00	0	56	0	2560622592	37	4129
2026-01-07 01:33:54.61	173.61	40.42	-32.7	-33.9	20.5	0.00e+00	0	56	0	2583691264	37	4035
2026-01-07 01:33:58.65	174.30	39.42	-32.8	-34.0	20.4	0.00e+00	0	56	0	2605711360	37	4095
2026-01-07 01:34:02.69	174.95	38.46	-32.8	-34.0	20.4	0.00e+00	0	56	0	2628780032	37	4072
2026-01-07 01:34:06.73	175.56	37.51	-32.6	-33.8	20.5	0.00e+00	0	56	0	2651848704	37	3987
2026-01-07 01:34:10.77	176.13	36.59	-32.8	-34.0	20.3	0.00e+00	0	56	0	2673868800	37	4090
2026-01-07 01:34:14.81	176.68	35.69	-32.6	-33.8	20.5	0.00e+00	0	57	0	2696937472	37	3973
2026-01-07 01:34:18.85	177.20	34.81	-32.6	-33.9	20.4	0.00e+00	0	56	0	2720006144	37	4009
2026-01-07 01:34:22.89	177.69	33.95	-32.9	-34.1	20.2	0.00e+00	0	56	0	2743074816	37	4126
2026-01-07 01:34:26.93	178.16	33.12	-32.9	-34.1	20.2	0.00e+00	0	56	0	2765094912	37	4118
2026-01-07 01:34:30.98	178.60	32.30	-33.0	-34.3	19.9	0.00e+00	0	56	0	2788163584	37	4216
2026-01-07 01:34:35.02	179.03	31.51	-33.1	-34.4	19.8	0.00e+00	0	56	0	2810183680	37	4275
2026-01-07 01:34:39.06	179.43	30.73	-33.2	-34.5	19.8	0.00e+00	0	56	0	2833252352	37	4305
2026-01-07 01:34:43.10	179.82	29.97	-33.0	-34.2	20.0	0.00e+00	0	56	0	2856321024	37	4166
2026-01-07 01:34:47.14	180.19	29.23	-32.9	-34.2	20.1	0.00e+00	0	56	0	2879389696	37	4150
2026-01-07 01:34:51.18	180.55	28.51	-33.0	-34.2	20.0	0.00e+00	0	56	0	2901409792	37	4180
2026-01-07 01:34:55.22	180.89	27.81	-33.0	-34.3	19.9	0.00e+00	0	56	0	2924478464	37	4219
2026-01-07 01:34:59.25	181.21	27.13	-33.0	-34.2	20.0	0.00e+00	0	56	0	2947547136	37	4180
2026-01-07 01:35:03.29	181.52	26.45	-33.0	-34.2	19.9	0.00e+00	0	57	0	2969567232	37	4176
2026-01-07 01:35:07.33	181.83	25.80	-33.2	-34.5	19.7	0.00e+00	0	57	0	2992635904	37	4317
2026-01-07 01:35:11.37	182.11	25.16	-33.5	-34.8	19.4	0.00e+00	0	56	0	3014656000	37	4454
2026-01-07 01:35:15.41	182.39	24.53	-33.6	-34.9	19.3	0.00e+00	0	56	0	3037724672	37	4541
2026-01-07 01:35:19.45	182.66	23.92	-33.8	-35.1	19.1	0.00e+00	0	56	0	3060793344	38	4352
2026-01-07 01:35:23.48	182.92	23.32	-33.7	-35.0	19.2	0.00e+00	0	57	0	3083862016	38	4302
2026-01-07 01:35:27.52	183.17	22.74	-33.6	-34.9	19.3	0.00e+00	0	56	0	3105882112	38	4272
2026-01-07 01:35:31.56	183.41	22.17	-33.7	-34.9	19.3	0.00e+00	0	57	0	3128950784	38	4289
2026-01-07 01:35:35.61	183.64	21.60	-33.7	-35.0	19.2	0.00e+00	0	57	0	3152019456	38	4310
2026-01-07 01:35:39.65	183.87	21.06	-33.8	-35.1	19.0	0.00e+00	0	56	0	3174039552	38	4378
2026-01-07 01:35:43.69	184.09	20.52	-34.0	-35.3	18.9	0.00e+00	0	57	0	3197108224	38	4484
2026-01-07 01:35:47.72	184.30	19.99	-34.2	-35.5	18.7	0.00e+00	0	56	0	3219128320	38	4595
2026-01-07 01:35:51.76	184.50	19.48	-34.3	-35.7	18.5	0.00e+00	0	57	0	3242196992	39	4424
2026-01-07 01:35:55.80	184.70	18.97	-34.4	-35.8	18.4	0.00e+00	0	56	0	3265265664	39	4478
2026-01-07 01:35:59.84	184.89	18.47	-34.5	-36.0	18.3	0.00e+00	0	57	0	3288334336	39	4554
2026-01-07 01:36:03.88	185.08	17.99	-34.6	-36.0	18.2	0.00e+00	0	57	0	3310354432	39	4569
2026-01-07 01:36:07.92	185.26	17.51	-34.6	-36.1	18.1	0.00e+00	0	57	0	3333423104	39	4599
2026-01-07 01:36:11.96	185.43	17.04	-34.7	-36.1	18.1	0.00e+00	0	57	0	3356491776	39	4621
2026-01-07 01:36:16.00	185.60	16.58	-34.7	-36.1	18.0	0.00e+00	0	56	0	3378511872	40	4372
2026-01-07 01:36:20.04	185.77	16.13	-35.0	-36.4	17.8	0.00e+00	0	57	0	3401580544	40	4513
2026-01-07 01:36:24.08	185.93	15.69	-35.1	-36.5	17.6	0.00e+00	0	56	0	3424649216	40	4581
2026-01-07 01:36:28.12	186.09	15.25	-35.3	-36.8	17.3	0.00e+00	0	57	0	3446669312	41	4479
2026-01-07 01:36:32.16	186.24	14.82	-35.5	-37.0	17.2	0.00e+00	0	57	0	3469737984	41	4562
2026-01-07 01:36:36.21	186.39	14.40	-35.5	-37.1	17.1	0.00e+00	0	57	0	3492806656	41	4604
2026-01-07 01:36:40.25	186.54	13.99	-35.8	-37.4	16.7	0.00e+00	0	57	0	3514826752	42	4531
2026-01-07 01:36:44.29	186.68	13.58	-35.9	-37.5	16.6	0.00e+00	0	57	0	3537895424	42	4559
2026-01-07 01:36:48.33	186.82	13.18	-35.9	-37.5	16.6	0.00e+00	0	57	0	3560964096	42	4593
2026-01-07 01:36:52.37	186.95	12.79	-36.1	-37.8	16.3	0.00e+00	0	57	0	3582984192	42	4724
2026-01-07 01:36:56.41	187.08	12.40	-36.1	-37.8	16.3	0.00e+00	0	57	0	3606052864	42	4739
2026-01-07 01:37:00.44	187.21	12.02	-36.4	-38.2	15.9	0.00e+00	0	57	0	3629121536	43	4659
2026-01-07 01:37:04.48	187.34	11.64	-36.1	-37.8	16.2	0.00e+00	0	57	0	3651141632	43	4461
2026-01-07 01:37:08.53	187.46	11.27	-36.3	-38.0	16.0	0.00e+00	0	57	0	3674210304	43	4556
2026-01-07 01:37:12.57	187.58	10.91	-36.2	-37.9	16.1	0.00e+00	0	57	0	3697278976	43	4532
2026-01-07 01:37:16.61	187.70	10.55	-36.4	-38.1	15.8	0.00e+00	0	57	0	3720347648	43	4635
2026-01-07 01:37:20.65	187.81	10.19	-36.4	-38.1	15.8	0.00e+00	0	57	0	3742367744	43	4622
2026-01-07 01:37:24.69	187.92	9.84	-36.1	-37.8	16.1	0.00e+00	0	56	0	3765436416	43	4470
2026-01-07 01:37:28.74	188.03	9.50	-36.4	-38.1	15.7	0.00e+00	0	57	0	3787456512	43	4645
2026-01-07 01:37:32.78	188.14	9.16	-36.6	-38.4	15.6	0.00e+00	0	56	0	3810525184	44	4508
2026-01-07 01:37:36.82	188.25	8.82	-36.7	-38.5	15.5	0.00e+00	0	57	0	3833593856	44	4553
2026-01-07 01:37:40.87	188.35	8.49	-36.7	-38.5	15.4	0.00e+00	0	56	0	3856662528	44	4570
2026-01-07 01:37:44.91	188.45	8.16	-36.8	-38.7	15.2	0.00e+00	0	57	0	3878682624	44	4668
2026-01-07 01:37:48.95	188.55	7.84	-44.6	-56.1	3.8	8.46e-01	0	57	104	3889168384	59	14631
2026-01-07 01:37:53.00	188.65	7.52	-44.9	-56.7	3.8	8.45e-01	0	57	104	3889168384	60	14789
2026-01-07 01:37:57.04	188.74	7.21	-45.0	-56.8	3.8	8.45e-01	0	57	104	3889168384	60	15019
2026-01-07 01:38:01.08	188.84	6.89	-45.0	-56.8	3.8	8.45e-01	0	57	104	3889168384	60	14980
2026-01-07 01:38:05.12	188.93	6.59	-44.9	-56.8	3.8	8.46e-01	0	57	104	3889168384	60	14963
2026-01-07 01:38:09.16	189.02	6.28	-44.9	-56.8	3.8	8.47e-01	0	57	104	3889168384	60	14919
2026-01-07 01:38:13.20	189.11	5.98	-44.9	-56.7	3.8	8.47e-01	0	57	104	3889168384	60	14840
2026-01-07 01:38:17.24	189.20	5.69	-44.9	-56.7	3.8	8.46e-01	0	57	104	3889168384	60	14852
2026-01-07 01:38:21.29	189.28	5.39	-44.9	-56.7	3.8	8.46e-01	0	57	104	3889168384	60	14856
2026-01-07 01:38:25.33	189.36	5.10	-44.9	-56.7	3.8	8.47e-01	0	57	104	3889168384	60	14838
2026-01-07 01:38:29.37	189.45	4.81	-44.9	-56.7	3.8	8.46e-01	0	57	104	3889168384	60	14848
2026-01-07 01:38:33.42	189.53	4.53	-44.9	-56.7	3.8	8.45e-01	0	57	104	3889168384	60	14865
2026-01-07 01:38:37.46	189.61	4.25	-44.9	-56.7	3.8	8.47e-01	0	57	104	3889168384	60	14825
2026-01-07 01:38:41.50	189.69	3.97	-44.9	-56.7	3.8	8.45e-01	0	57	104	3889168384	60	14774
2026-01-07 01:38:45.55	189.76	3.69	-44.9	-56.7	3.8	8.47e-01	0	57	104	3889168384	60	14795
2026-01-07 01:38:49.59	189.84	3.42	-44.8	-56.7	3.8	8.46e-01	0	57	104	3889168384	60	14772
2026-01-07 01:38:53.63	189.92	3.15	-44.8	-56.7	3.8	8.46e-01	0	57	104	3889168384	60	14752
2026-01-07 01:38:57.67	189.99	2.88	-44.8	-56.7	3.8	8.46e-01	0	57	104	3889168384	60	14778
2026-01-07 01:39:01.71	190.06	2.62	-44.8	-56.7	3.8	8.45e-01	0	57	104	3889168384	60	14761
2026-01-07 01:39:05.76	190.13	2.35	-44.8	-56.7	3.8	8.46e-01	0	57	104	3889168384	60	14762
2026-01-07 01:39:09.80	190.20	2.09	-44.9	-56.7	3.8	8.46e-01	0	57	104	3889168384	60	14771

#Closed at: 2026-01-07 01:39:12
#Recorded file [3889 MB]: D:/lorett/data/31039_260107_042448.dat