passes_logs/2026/01/07/R2.0S_Moscow/R2.0S_Moscow__20260107_002422_SUOMI_NPP_rec.log

#Pass ID: 20260107_002422_SUOMI NPP
#Satellite: SUOMI NPP
#Configuration: NPP
#almurnet v.1.7.20251203
#Start time: 2026-01-07 00:24:24

#Version: 2.2.20231116
#Station: R2.0S_Moscow
#Location: 37.707566 lon 55.798166 lat
#TLE: 1 37849U 11061A   26005.94084933  .00000134  00000+0  84554-4 0  9990
#TLE: 2 37849  98.7803 308.0679 0002567  79.1029 281.0436 14.19522657735426

#Time	Az	El	Level	Level2	SNR	BER	BlckErr	Temp	State	Recorded	gain1	gain2
2026-01-07 00:24:24.42	13.48	2.12	-40.8	-55.2	3.8	1.49e+00	0	47	0	0	53	18706
2026-01-07 00:24:28.46	13.38	2.37	-40.8	-55.2	3.8	1.49e+00	0	48	104	0	53	18641
2026-01-07 00:24:32.50	13.28	2.63	-40.8	-55.2	3.8	1.49e+00	0	48	104	0	53	18647
2026-01-07 00:24:36.54	13.17	2.89	-40.8	-55.2	3.8	1.49e+00	0	48	104	0	53	18679
2026-01-07 00:24:40.58	13.06	3.15	-40.8	-55.2	3.8	1.49e+00	0	48	104	0	53	18627
2026-01-07 00:24:44.63	12.95	3.42	-40.8	-55.1	3.8	1.49e+00	0	49	104	0	53	18480
2026-01-07 00:24:48.66	12.84	3.69	-40.8	-55.0	3.8	1.49e+00	0	49	104	0	53	18265
2026-01-07 00:24:52.70	12.72	3.96	-40.7	-55.0	3.8	1.49e+00	0	49	104	0	53	18108
2026-01-07 00:24:56.74	12.61	4.23	-40.7	-54.9	3.8	1.49e+00	0	49	104	0	53	17992
2026-01-07 00:25:00.78	12.49	4.50	-40.7	-54.8	3.8	1.49e+00	0	50	104	0	53	17809
2026-01-07 00:25:04.82	12.36	4.78	-40.7	-54.7	3.8	1.49e+00	0	50	104	0	53	17678
2026-01-07 00:25:08.87	12.24	5.06	-40.7	-54.4	3.8	1.49e+00	0	50	104	0	53	17014
2026-01-07 00:25:12.91	12.11	5.34	-40.7	-53.7	3.8	1.49e+00	0	50	104	0	53	15693
2026-01-07 00:25:16.95	11.98	5.63	-40.6	-53.1	3.8	1.48e+00	0	51	104	0	53	14670
2026-01-07 00:25:20.98	11.85	5.92	-40.7	-53.6	3.8	1.49e+00	0	51	104	0	53	15497
2026-01-07 00:25:25.03	11.71	6.21	-40.8	-55.0	3.8	1.49e+00	0	51	104	0	53	18272
2026-01-07 00:25:29.07	11.57	6.51	-40.7	-53.8	3.8	1.49e+00	0	51	104	0	53	15839
2026-01-07 00:25:33.11	11.43	6.81	-40.4	-50.3	4.7	1.11e+00	0	51	0	2097152	52	11217
2026-01-07 00:25:37.15	11.28	7.11	-40.1	-48.5	5.7	4.43e-01	0	51	0	9437184	52	9159
2026-01-07 00:25:41.19	11.13	7.41	-40.1	-48.1	6.0	3.59e-01	0	52	0	16777216	52	8753
2026-01-07 00:25:45.23	10.98	7.72	-40.3	-49.4	5.2	5.62e-01	0	52	0	24117248	52	10098
2026-01-07 00:25:49.28	10.82	8.04	-40.4	-51.2	4.3	1.22e+00	0	52	0	31457280	52	12457
2026-01-07 00:25:53.31	10.66	8.35	-40.6	-53.4	3.8	1.49e+00	0	52	104	32505856	51	16913
2026-01-07 00:25:57.35	10.50	8.67	-40.5	-52.3	3.9	1.44e+00	0	52	104	32505856	53	13289
2026-01-07 00:26:01.39	10.33	8.99	-40.3	-52.8	3.8	1.48e+00	0	52	104	32505856	52	14917
2026-01-07 00:26:05.43	10.15	9.32	-40.3	-54.0	3.8	1.49e+00	0	53	104	32505856	52	17139
2026-01-07 00:26:09.46	9.98	9.65	-40.3	-54.4	3.8	1.49e+00	0	53	104	32505856	52	18080
2026-01-07 00:26:13.50	9.79	9.99	-40.2	-54.2	3.8	1.49e+00	0	53	104	32505856	51	18647
2026-01-07 00:26:17.54	9.61	10.33	-40.0	-53.9	3.8	1.48e+00	0	53	104	32505856	52	17023
2026-01-07 00:26:21.58	9.42	10.67	-40.4	-53.2	3.8	1.49e+00	0	53	104	32505856	52	15619
2026-01-07 00:26:25.62	9.22	11.02	-40.9	-50.4	5.1	5.74e-01	0	53	0	34603008	53	10686
2026-01-07 00:26:29.66	9.02	11.38	-41.2	-47.9	7.6	1.08e-01	0	53	0	39845888	53	8035
2026-01-07 00:26:33.70	8.81	11.74	-40.0	-44.5	11.2	3.63e-03	0	54	0	47185920	52	5747
2026-01-07 00:26:37.74	8.60	12.10	-38.5	-41.5	14.4	3.80e-06	0	53	0	55574528	49	4820
2026-01-07 00:26:41.78	8.38	12.47	-38.8	-41.9	14.2	3.00e-06	0	54	0	62914560	48	5354
2026-01-07 00:26:45.82	8.16	12.84	-39.0	-42.1	14.2	3.80e-06	0	54	0	70254592	48	5477
2026-01-07 00:26:49.85	7.93	13.22	-38.9	-41.7	14.8	0.00e+00	0	54	0	77594624	48	5279
2026-01-07 00:26:53.89	7.69	13.61	-39.0	-41.8	14.9	0.00e+00	0	54	0	84934656	48	5310
2026-01-07 00:26:57.93	7.45	14.00	-39.8	-42.8	14.3	7.00e-07	0	54	0	93323264	50	5304
2026-01-07 00:27:01.97	7.20	14.39	-39.0	-41.6	15.6	0.00e+00	0	54	0	100663296	49	4874
2026-01-07 00:27:06.01	6.94	14.79	-38.9	-41.5	15.7	0.00e+00	0	54	0	108003328	49	4823
2026-01-07 00:27:10.05	6.68	15.20	-39.1	-41.7	15.5	0.00e+00	0	54	0	115343360	49	4974
2026-01-07 00:27:14.08	6.41	15.62	-38.9	-41.4	15.9	0.00e+00	0	54	0	123731968	49	4765
2026-01-07 00:27:18.12	6.13	16.04	-39.0	-41.5	15.8	0.00e+00	0	54	0	131072000	49	4865
2026-01-07 00:27:22.16	5.84	16.47	-38.9	-41.3	16.1	0.00e+00	0	54	0	138412032	49	4716
2026-01-07 00:27:26.20	5.54	16.90	-39.0	-41.4	16.0	0.00e+00	0	54	0	145752064	49	4783
2026-01-07 00:27:30.23	5.23	17.34	-39.2	-41.7	15.8	0.00e+00	0	54	0	153092096	49	4937
2026-01-07 00:27:34.27	4.91	17.79	-39.2	-41.8	15.7	0.00e+00	0	55	0	161480704	49	5003
2026-01-07 00:27:38.31	4.59	18.25	-39.5	-42.1	15.4	0.00e+00	0	55	0	168820736	49	5192
2026-01-07 00:27:42.35	4.25	18.71	-39.3	-41.8	15.7	0.00e+00	0	55	0	176160768	49	5033
2026-01-07 00:27:46.39	3.90	19.18	-39.5	-42.1	15.5	0.00e+00	0	55	0	183500800	49	5190
2026-01-07 00:27:50.43	3.54	19.66	-39.3	-41.7	15.9	0.00e+00	0	55	0	191889408	49	4972
2026-01-07 00:27:54.46	3.17	20.15	-39.8	-42.4	15.2	0.00e+00	0	55	0	199229440	50	5085
2026-01-07 00:27:58.51	2.78	20.64	-39.9	-42.6	15.0	0.00e+00	0	55	0	206569472	50	5216
2026-01-07 00:28:02.55	2.39	21.15	-40.1	-43.0	14.7	0.00e+00	0	55	0	213909504	51	5106
2026-01-07 00:28:06.59	1.97	21.66	-40.2	-43.2	14.5	1.50e-06	0	55	0	221249536	51	5234
2026-01-07 00:28:10.63	1.55	22.18	-40.2	-43.1	14.6	0.00e+00	0	55	0	229638144	51	5187
2026-01-07 00:28:14.67	1.11	22.72	-40.0	-42.8	15.0	0.00e+00	0	55	0	236978176	51	5016
2026-01-07 00:28:18.71	0.65	23.26	-40.2	-43.1	14.6	0.00e+00	0	55	0	244318208	51	5188
2026-01-07 00:28:22.75	0.18	23.81	-40.5	-43.5	14.3	1.50e-06	0	55	0	251658240	51	5446
2026-01-07 00:28:26.79	359.68	24.37	-40.3	-43.3	14.5	7.00e-07	0	55	0	260046848	52	5005
2026-01-07 00:28:30.82	359.17	24.93	-40.3	-43.1	14.7	7.00e-07	0	55	0	267386880	52	4925
2026-01-07 00:28:34.86	358.64	25.51	-40.2	-43.0	14.8	0.00e+00	0	55	0	274726912	52	4845
2026-01-07 00:28:38.91	358.09	26.10	-40.7	-44.0	13.8	6.80e-06	0	55	0	282066944	52	5439
2026-01-07 00:28:42.95	357.52	26.70	-40.7	-43.9	13.9	1.29e-05	0	55	0	289406976	52	5392
2026-01-07 00:28:46.99	356.93	27.31	-40.3	-43.2	14.6	0.00e+00	0	55	0	297795584	52	4964
2026-01-07 00:28:51.03	356.31	27.93	-40.2	-43.1	14.8	0.00e+00	0	55	0	305135616	52	4890
2026-01-07 00:28:55.07	355.67	28.56	-40.5	-43.4	14.4	0.00e+00	0	55	0	312475648	52	5098
2026-01-07 00:28:59.11	355.00	29.20	-40.6	-43.7	14.2	2.20e-06	0	55	0	319815680	52	5237
2026-01-07 00:29:03.15	354.30	29.85	-40.7	-43.9	14.1	1.50e-06	0	55	0	328204288	52	5348
2026-01-07 00:29:07.19	353.57	30.51	-41.3	-45.1	12.8	4.27e-05	0	55	0	335544320	53	5807
2026-01-07 00:29:11.23	352.81	31.19	-41.5	-45.2	12.8	7.55e-05	0	55	0	342884352	53	5863
2026-01-07 00:29:15.27	352.02	31.87	-42.0	-46.2	11.8	6.63e-04	0	56	0	350224384	54	6230
2026-01-07 00:29:19.31	351.19	32.56	-41.8	-45.8	12.1	2.98e-04	0	55	0	357564416	55	5634
2026-01-07 00:29:23.34	350.33	33.25	-42.1	-46.6	11.4	1.59e-03	0	55	0	365953024	55	6163
2026-01-07 00:29:27.38	349.43	33.96	-41.7	-45.7	12.2	2.70e-04	0	56	0	373293056	55	5557
2026-01-07 00:29:31.43	348.49	34.68	-41.3	-45.0	13.0	5.72e-05	0	56	0	380633088	54	5428
2026-01-07 00:29:35.47	347.50	35.40	-41.2	-44.8	13.1	1.67e-05	0	56	0	387973120	54	5324
2026-01-07 00:29:39.50	346.47	36.13	-41.5	-45.3	12.7	4.80e-05	0	56	0	396361728	54	5628
2026-01-07 00:29:43.54	345.39	36.86	-41.4	-45.0	13.0	3.43e-05	0	56	0	403701760	54	5438
2026-01-07 00:29:47.58	344.27	37.60	-41.8	-46.0	12.0	1.95e-04	0	56	0	411041792	54	6103
2026-01-07 00:29:51.62	343.08	38.34	-41.4	-45.3	12.8	4.57e-05	0	56	0	418381824	54	5638
2026-01-07 00:29:55.66	341.84	39.08	-41.2	-44.9	13.1	7.85e-05	0	56	0	425721856	54	5378
2026-01-07 00:29:59.70	340.55	39.83	-41.0	-44.3	13.8	4.50e-06	0	56	0	434110464	53	5328
2026-01-07 00:30:03.74	339.19	40.57	-41.3	-45.1	13.0	2.59e-05	0	56	0	441450496	53	5809
2026-01-07 00:30:07.78	337.77	41.31	-41.7	-45.9	12.2	3.78e-04	0	56	0	448790528	54	6031
2026-01-07 00:30:11.82	336.28	42.04	-40.9	-44.3	13.8	6.80e-06	0	56	0	456130560	53	5294
2026-01-07 00:30:15.86	334.72	42.76	-42.3	-47.2	10.9	2.23e-03	0	56	0	464519168	55	6572
2026-01-07 00:30:19.89	333.09	43.47	-42.3	-47.1	11.0	2.01e-03	0	56	0	471859200	55	6521
2026-01-07 00:30:23.93	331.39	44.17	-42.0	-46.5	11.6	6.85e-04	0	56	0	479199232	55	6089
2026-01-07 00:30:27.97	329.61	44.85	-42.0	-46.4	11.7	2.06e-03	0	56	0	486539264	55	6003
2026-01-07 00:30:32.01	327.75	45.51	-40.0	-42.7	15.5	7.00e-07	0	56	0	493879296	51	4944
2026-01-07 00:30:36.04	325.82	46.15	-41.3	-45.0	13.1	2.05e-05	0	56	0	502267904	53	5757
2026-01-07 00:30:40.08	323.81	46.75	-39.7	-42.2	16.0	0.00e+00	0	56	0	509607936	50	4946
2026-01-07 00:30:44.12	321.71	47.33	-41.2	-44.8	13.3	1.22e-05	0	56	0	516947968	53	5603
2026-01-07 00:30:48.16	319.55	47.87	-41.9	-46.5	11.8	3.25e-04	0	56	0	524288000	54	6423
2026-01-07 00:30:52.20	317.30	48.37	-40.6	-43.8	14.3	3.80e-06	0	56	0	532676608	53	5025
2026-01-07 00:30:56.24	314.99	48.82	-40.6	-44.0	14.0	7.00e-07	0	56	0	540016640	52	5409
2026-01-07 00:31:00.28	312.61	49.23	-42.3	-47.9	10.0	6.81e-03	0	56	0	547356672	55	7188
2026-01-07 00:31:04.32	310.16	49.59	-41.0	-44.8	13.1	8.23e-05	0	56	0	554696704	54	5317
2026-01-07 00:31:08.36	307.67	49.89	-41.5	-45.9	12.2	2.99e-04	0	56	0	562036736	53	6395
2026-01-07 00:31:12.39	305.13	50.14	-40.6	-44.3	13.7	3.80e-06	0	56	0	570425344	53	5309
2026-01-07 00:31:16.43	302.56	50.32	-39.4	-42.1	15.9	0.00e+00	0	56	0	577765376	50	4880
2026-01-07 00:31:20.47	299.95	50.44	-39.0	-41.5	16.4	0.00e+00	0	56	0	585105408	49	4864
2026-01-07 00:31:24.51	297.33	50.50	-39.0	-41.6	16.4	0.00e+00	0	56	0	592445440	48	5160
2026-01-07 00:31:28.55	294.70	50.50	-39.9	-43.0	14.9	0.00e+00	0	57	0	600834048	50	5437
2026-01-07 00:31:32.59	292.08	50.44	-39.6	-42.5	15.5	0.00e+00	0	56	0	608174080	50	5107
2026-01-07 00:31:36.62	289.48	50.31	-38.8	-41.1	16.8	0.00e+00	0	56	0	615514112	49	4647
2026-01-07 00:31:40.66	286.91	50.12	-39.1	-41.6	16.4	0.00e+00	0	56	0	622854144	49	4899
2026-01-07 00:31:44.69	284.37	49.87	-39.8	-42.7	15.3	0.00e+00	0	56	0	630194176	50	5268
2026-01-07 00:31:48.73	281.88	49.56	-39.8	-42.8	15.2	0.00e+00	0	56	0	638582784	50	5320
2026-01-07 00:31:52.77	279.44	49.20	-40.4	-43.8	14.2	0.00e+00	0	56	0	645922816	51	5618
2026-01-07 00:31:56.81	277.06	48.78	-40.0	-43.0	15.1	0.00e+00	0	56	0	653262848	51	5101
2026-01-07 00:32:00.85	274.75	48.32	-41.8	-46.6	11.4	3.52e-04	0	56	0	660602880	54	6551
2026-01-07 00:32:04.88	272.52	47.82	-40.9	-44.5	13.6	0.00e+00	0	56	0	668991488	52	5787
2026-01-07 00:32:08.92	270.35	47.27	-40.9	-44.5	13.5	1.06e-05	0	56	0	676331520	53	5442
2026-01-07 00:32:12.97	268.26	46.69	-40.9	-44.4	13.4	1.75e-05	0	56	0	683671552	53	5392
2026-01-07 00:32:17.01	266.24	46.08	-40.8	-44.4	13.6	9.10e-06	0	56	0	691011584	53	5355
2026-01-07 00:32:21.04	264.32	45.44	-40.4	-43.5	14.6	0.00e+00	0	56	0	698351616	52	5110
2026-01-07 00:32:25.08	262.46	44.78	-41.1	-44.7	13.4	3.00e-06	0	56	0	706740224	52	5864
2026-01-07 00:32:29.13	260.68	44.09	-40.8	-43.7	14.6	0.00e+00	0	56	0	714080256	52	5219
2026-01-07 00:32:33.16	258.98	43.39	-40.6	-43.3	14.9	0.00e+00	0	56	0	721420288	53	4750
2026-01-07 00:32:37.20	257.35	42.68	-40.0	-42.4	15.8	0.00e+00	0	56	0	728760320	51	4801
2026-01-07 00:32:41.24	255.80	41.95	-39.9	-42.3	15.9	0.00e+00	0	56	0	737148928	50	5015
2026-01-07 00:32:45.28	254.31	41.21	-40.2	-42.8	15.5	0.00e+00	0	56	0	744488960	51	5012
2026-01-07 00:32:49.32	252.89	40.47	-41.9	-45.7	12.5	7.24e-05	0	56	0	751828992	54	5915
2026-01-07 00:32:53.35	251.54	39.73	-41.1	-44.2	13.9	3.00e-06	0	56	0	759169024	53	5274
2026-01-07 00:32:57.39	250.24	38.98	-41.2	-44.4	13.8	2.20e-06	0	56	0	766509056	53	5375
2026-01-07 00:33:01.43	249.01	38.24	-41.7	-45.4	12.8	2.44e-05	0	56	0	774897664	54	5662
2026-01-07 00:33:05.47	247.83	37.49	-40.8	-43.7	14.4	0.00e+00	0	56	0	782237696	53	4943
2026-01-07 00:33:09.51	246.70	36.75	-42.0	-45.8	12.2	3.57e-04	0	56	0	789577728	55	5646
2026-01-07 00:33:13.54	245.62	36.02	-43.7	-50.2	8.0	4.02e-02	0	56	0	796917760	57	8356
2026-01-07 00:33:17.58	244.59	35.29	-42.2	-46.2	12.0	2.90e-04	0	56	0	805306368	56	5556
2026-01-07 00:33:21.62	243.61	34.56	-42.0	-45.9	12.1	1.36e-04	0	56	0	812646400	55	5696
2026-01-07 00:33:25.66	242.67	33.84	-40.8	-43.7	14.4	2.20e-06	0	56	0	819986432	53	4929
2026-01-07 00:33:29.70	241.77	33.13	-41.8	-45.4	12.7	3.66e-05	0	57	0	827326464	54	5671
2026-01-07 00:33:33.74	240.90	32.43	-41.7	-45.3	12.8	2.54e-04	0	56	0	834666496	55	5304
2026-01-07 00:33:37.77	240.08	31.74	-41.5	-44.8	13.3	7.47e-05	0	56	0	843055104	54	5340
2026-01-07 00:33:41.81	239.29	31.06	-41.3	-44.7	13.4	1.22e-05	0	56	0	850395136	53	5548
2026-01-07 00:33:45.85	238.53	30.39	-42.8	-47.7	10.5	3.75e-03	0	57	0	857735168	56	6576
2026-01-07 00:33:49.89	237.80	29.73	-40.7	-43.6	14.4	7.00e-07	0	56	0	865075200	53	4891
2026-01-07 00:33:53.93	237.10	29.07	-40.3	-42.9	15.1	0.00e+00	0	56	0	873463808	52	4793
2026-01-07 00:33:57.97	236.43	28.43	-42.0	-46.0	12.0	1.88e-04	0	56	0	880803840	54	6065
2026-01-07 00:34:02.01	235.79	27.80	-40.5	-43.3	14.7	0.00e+00	0	56	0	888143872	53	4740
2026-01-07 00:34:06.05	235.17	27.18	-40.5	-43.3	14.7	0.00e+00	0	57	0	895483904	52	5022
2026-01-07 00:34:10.09	234.57	26.57	-40.6	-43.4	14.5	0.00e+00	0	57	0	902823936	52	5076
2026-01-07 00:34:14.13	234.00	25.97	-40.3	-43.0	15.1	0.00e+00	0	57	0	911212544	51	5132
2026-01-07 00:34:18.17	233.45	25.38	-41.3	-44.6	13.3	4.50e-06	0	56	0	918552576	53	5521
2026-01-07 00:34:22.20	232.92	24.80	-41.2	-44.6	13.4	1.60e-05	0	56	0	925892608	53	5467
2026-01-07 00:34:26.25	232.41	24.23	-40.9	-44.1	13.8	2.20e-06	0	56	0	933232640	53	5173
2026-01-07 00:34:30.29	231.91	23.67	-40.6	-43.4	14.5	0.00e+00	0	56	0	941621248	53	4808
2026-01-07 00:34:34.33	231.44	23.11	-40.6	-43.6	14.4	0.00e+00	0	57	0	948961280	52	5195
2026-01-07 00:34:38.37	230.98	22.57	-40.7	-43.8	14.1	2.20e-06	0	56	0	956301312	52	5304
2026-01-07 00:34:42.41	230.54	22.04	-40.1	-42.8	15.1	0.00e+00	0	57	0	963641344	52	4728
2026-01-07 00:34:46.44	230.11	21.52	-40.8	-43.9	14.0	1.50e-06	0	56	0	970981376	52	5386
2026-01-07 00:34:50.49	229.70	21.00	-41.8	-45.7	12.2	2.08e-04	0	56	0	979369984	54	5865
2026-01-07 00:34:54.53	229.30	20.50	-41.2	-44.7	13.1	3.73e-05	0	56	0	986710016	54	5241
2026-01-07 00:34:58.57	228.91	20.00	-41.0	-44.3	13.5	1.14e-05	0	56	0	994050048	53	5336
2026-01-07 00:35:02.60	228.54	19.51	-41.1	-44.4	13.4	1.44e-05	0	57	0	1001390080	53	5365
2026-01-07 00:35:06.64	228.17	19.03	-40.9	-44.2	13.7	9.10e-06	0	57	0	1009778688	53	5219
2026-01-07 00:35:10.68	227.82	18.56	-41.1	-44.5	13.3	1.29e-05	0	56	0	1017118720	53	5418
2026-01-07 00:35:14.72	227.48	18.10	-40.9	-44.1	13.7	5.30e-06	0	56	0	1024458752	53	5176
2026-01-07 00:35:18.76	227.15	17.64	-40.8	-44.1	13.7	4.50e-06	0	57	0	1031798784	53	5189
2026-01-07 00:35:22.80	226.83	17.19	-40.9	-44.2	13.5	9.90e-06	0	57	0	1039138816	53	5270
2026-01-07 00:35:26.84	226.52	16.75	-41.1	-44.5	13.1	2.67e-05	0	57	0	1047527424	53	5463
2026-01-07 00:35:30.87	226.22	16.31	-41.0	-44.4	13.3	1.29e-05	0	56	0	1054867456	53	5373
2026-01-07 00:35:34.91	225.93	15.88	-40.6	-43.6	14.1	3.80e-06	0	57	0	1062207488	53	4907
2026-01-07 00:35:38.95	225.65	15.46	-40.3	-43.2	14.5	7.00e-07	0	57	0	1069547520	52	4973
2026-01-07 00:35:42.99	225.37	15.05	-40.4	-43.4	14.3	2.20e-06	0	57	0	1077936128	52	5060
2026-01-07 00:35:47.02	225.11	14.64	-40.6	-43.7	13.9	2.20e-06	0	56	0	1085276160	52	5243
2026-01-07 00:35:51.06	224.85	14.24	-40.7	-43.8	13.8	4.50e-06	0	56	0	1092616192	52	5324
2026-01-07 00:35:55.10	224.59	13.84	-40.7	-43.9	13.7	1.50e-06	0	57	0	1099956224	52	5366
2026-01-07 00:35:59.14	224.35	13.45	-40.8	-44.1	13.4	1.06e-05	0	57	0	1107296256	52	5520
2026-01-07 00:36:03.18	224.11	13.06	-40.9	-44.2	13.3	1.52e-05	0	57	0	1115684864	52	5586
2026-01-07 00:36:07.22	223.87	12.68	-41.1	-44.7	12.8	4.42e-05	0	57	0	1123024896	52	5865
2026-01-07 00:36:11.26	223.65	12.31	-41.3	-45.1	12.4	1.80e-04	0	57	0	1130364928	53	5806
2026-01-07 00:36:15.30	223.43	11.94	-41.3	-45.2	12.2	1.98e-04	0	56	0	1137704960	53	5900
2026-01-07 00:36:19.35	223.21	11.57	-41.5	-45.6	11.8	4.74e-04	0	56	0	1146093568	53	6143
2026-01-07 00:36:23.39	223.00	11.22	-41.4	-45.5	11.8	3.54e-04	0	57	0	1153433600	53	6109
2026-01-07 00:36:27.43	222.80	10.86	-41.3	-45.1	12.2	2.15e-04	0	57	0	1160773632	53	5841
2026-01-07 00:36:31.47	222.60	10.51	-41.1	-44.8	12.4	1.01e-04	0	57	0	1168113664	53	5656
2026-01-07 00:36:35.51	222.40	10.17	-41.0	-44.6	12.6	7.47e-05	0	57	0	1175453696	53	5517
2026-01-07 00:36:39.55	222.21	9.83	-41.0	-44.8	12.4	1.23e-04	0	57	0	1183842304	53	5606
2026-01-07 00:36:43.58	222.03	9.49	-41.0	-44.7	12.4	1.73e-04	0	57	0	1191182336	53	5583
2026-01-07 00:36:47.62	221.85	9.16	-41.1	-45.0	12.1	2.75e-04	0	57	0	1198522368	53	5788
2026-01-07 00:36:51.66	221.67	8.83	-41.2	-45.3	11.7	6.28e-04	0	57	0	1205862400	53	5985
2026-01-07 00:36:55.70	221.50	8.51	-41.5	-46.1	10.9	1.54e-03	0	57	0	1214251008	53	6536
2026-01-07 00:36:59.73	221.33	8.19	-41.6	-46.3	10.6	3.24e-03	0	56	0	1221591040	53	6702
2026-01-07 00:37:03.77	221.17	7.87	-44.5	-59.0	3.8	1.49e+00	0	57	104	1226833920	59	20374
2026-01-07 00:37:07.81	221.00	7.56	-44.9	-59.7	3.8	1.49e+00	0	57	104	1226833920	60	20880
2026-01-07 00:37:11.84	220.85	7.25	-45.0	-59.8	3.8	1.49e+00	0	56	104	1226833920	60	21151
2026-01-07 00:37:15.88	220.69	6.94	-44.9	-59.7	3.8	1.49e+00	0	57	104	1226833920	60	20888
2026-01-07 00:37:19.92	220.54	6.64	-44.9	-59.7	3.8	1.49e+00	0	57	104	1226833920	60	20996
2026-01-07 00:37:23.97	220.40	6.34	-44.9	-59.7	3.8	1.49e+00	0	57	104	1226833920	60	21000
2026-01-07 00:37:28.01	220.25	6.05	-44.9	-59.7	3.8	1.49e+00	0	57	104	1226833920	60	20951
2026-01-07 00:37:32.05	220.11	5.75	-44.9	-59.7	3.8	1.49e+00	0	57	104	1226833920	60	20905
2026-01-07 00:37:36.10	219.97	5.46	-44.9	-59.7	3.8	1.49e+00	0	56	104	1226833920	60	20883
2026-01-07 00:37:40.14	219.84	5.18	-44.9	-59.7	3.8	1.49e+00	0	57	104	1226833920	60	20889
2026-01-07 00:37:44.18	219.70	4.89	-44.9	-59.7	3.8	1.49e+00	0	57	104	1226833920	60	20865
2026-01-07 00:37:48.23	219.57	4.61	-44.9	-59.7	3.8	1.49e+00	0	57	104	1226833920	60	20943
2026-01-07 00:37:52.27	219.45	4.33	-44.9	-59.7	3.8	1.49e+00	0	57	104	1226833920	60	20848
2026-01-07 00:37:56.31	219.32	4.06	-44.9	-59.7	3.8	1.49e+00	0	57	104	1226833920	60	20852
2026-01-07 00:38:00.35	219.20	3.79	-44.9	-59.7	3.8	1.49e+00	0	57	104	1226833920	60	20879
2026-01-07 00:38:04.40	219.08	3.52	-44.9	-59.7	3.8	1.49e+00	0	57	104	1226833920	60	20831
2026-01-07 00:38:08.44	218.96	3.25	-44.9	-59.6	3.8	1.49e+00	0	57	104	1226833920	60	20745
2026-01-07 00:38:12.49	218.85	2.98	-44.9	-59.7	3.8	1.49e+00	0	57	104	1226833920	60	20834
2026-01-07 00:38:16.53	218.74	2.72	-44.8	-59.7	3.8	1.49e+00	0	57	104	1226833920	60	20785
2026-01-07 00:38:20.57	218.63	2.46	-44.9	-59.7	3.8	1.49e+00	0	57	104	1226833920	60	20824
2026-01-07 00:38:24.61	218.52	2.20	-44.8	-59.7	3.8	1.49e+00	0	57	104	1226833920	60	20792
2026-01-07 00:38:28.66	218.41	1.95	-44.9	-59.7	3.8	1.49e+00	0	57	104	1226833920	60	20779

#Closed at: 2026-01-07 00:38:30
#Recorded file [1226 MB]: D:/lorett/data/31039_260107_032424.dat