passes_logs/2026/01/07/R2.0S_Moscow/R2.0S_Moscow__20260107_114453_AQUA_rec.log

#Pass ID: 20260107_114453_AQUA
#Satellite: AQUA
#Configuration: AQUA
#almurnet v.1.7.20251203
#Start time: 2026-01-07 11:44:55

#Version: 2.2.20231116
#Station: R2.0S_Moscow
#Location: 37.707566 lon 55.798166 lat
#TLE: 1 27424U 02022A   26004.96787593  .00001598  00000+0  32997-3 0  9996
#TLE: 2 27424  98.4069 331.2279 0002002  90.2377   0.6092 14.61798176259425

#Time	Az	El	Level	Level2	SNR	BER	BlckErr	Temp	State	Recorded	gain1	gain2
2026-01-07 11:44:55.74	164.34	2.13	-44.9	-63.7	3.8	7.47e-01	0	48	0	0	60	32977
2026-01-07 11:44:59.79	164.37	2.41	-44.8	-63.6	3.8	7.45e-01	0	49	104	0	60	32892
2026-01-07 11:45:03.83	164.40	2.68	-44.8	-63.6	3.8	7.45e-01	0	49	104	0	60	32897
2026-01-07 11:45:07.88	164.43	2.96	-44.8	-63.7	3.8	7.45e-01	0	49	104	0	60	32944
2026-01-07 11:45:11.92	164.46	3.24	-44.8	-63.6	3.8	7.44e-01	0	50	104	0	60	32798
2026-01-07 11:45:15.96	164.50	3.53	-44.8	-63.6	3.8	7.47e-01	0	50	104	0	60	32783
2026-01-07 11:45:20.01	164.53	3.82	-44.8	-63.6	3.8	7.46e-01	0	50	104	0	60	32690
2026-01-07 11:45:24.05	164.56	4.11	-44.8	-63.6	3.8	7.48e-01	0	50	104	0	60	32725
2026-01-07 11:45:28.10	164.60	4.40	-44.8	-63.5	3.8	7.45e-01	0	51	104	0	60	32551
2026-01-07 11:45:32.14	164.63	4.70	-44.8	-63.6	3.8	7.49e-01	0	51	104	0	60	32589
2026-01-07 11:45:36.18	164.67	5.00	-44.8	-63.5	3.8	7.46e-01	0	51	104	0	60	32374
2026-01-07 11:45:40.23	164.70	5.31	-44.8	-62.9	3.8	7.41e-01	0	51	104	0	60	30332
2026-01-07 11:45:44.27	164.74	5.62	-44.8	-62.3	3.8	7.46e-01	0	51	104	0	60	28211
2026-01-07 11:45:48.32	164.78	5.94	-44.8	-63.5	3.8	7.46e-01	0	52	104	0	60	32308
2026-01-07 11:45:52.36	164.81	6.25	-44.8	-63.4	3.8	7.44e-01	0	52	104	0	60	31985
2026-01-07 11:45:56.40	164.85	6.58	-44.8	-61.5	3.8	7.43e-01	0	52	104	0	60	25830
2026-01-07 11:46:00.45	164.89	6.91	-44.4	-55.1	7.2	6.60e-01	90	52	0	1572864	60	12262
2026-01-07 11:46:04.49	164.93	7.24	-43.7	-50.2	12.6	6.09e-01	0	52	0	9437184	59	7429
2026-01-07 11:46:08.53	164.97	7.57	-42.4	-46.6	16.3	6.08e-01	0	52	0	16777216	56	5839
2026-01-07 11:46:12.57	165.01	7.92	-41.2	-44.5	18.4	6.05e-01	0	52	0	24117248	54	5101
2026-01-07 11:46:16.61	165.05	8.26	-40.7	-43.6	19.1	6.08e-01	0	53	0	31981568	53	4920
2026-01-07 11:46:20.65	165.10	8.62	-40.5	-43.4	19.5	6.05e-01	0	53	0	39321600	53	4792
2026-01-07 11:46:24.69	165.14	8.98	-40.4	-43.1	19.8	6.08e-01	0	53	0	47185920	52	4921
2026-01-07 11:46:28.73	165.18	9.34	-40.2	-42.9	20.1	6.09e-01	0	53	0	54525952	52	4794
2026-01-07 11:46:32.77	165.23	9.71	-40.1	-42.6	20.4	6.07e-01	0	53	0	62390272	52	4641
2026-01-07 11:46:36.81	165.27	10.09	-40.0	-42.4	20.7	6.05e-01	0	53	0	69730304	51	4812
2026-01-07 11:46:40.85	165.32	10.47	-39.9	-42.3	20.8	6.03e-01	0	53	0	77594624	51	4759
2026-01-07 11:46:44.88	165.37	10.86	-39.8	-42.2	21.0	6.07e-01	0	53	0	84934656	51	4691
2026-01-07 11:46:48.92	165.42	11.26	-39.9	-42.3	21.0	6.05e-01	0	53	0	92274688	51	4730
2026-01-07 11:46:52.95	165.47	11.66	-39.9	-42.3	21.0	6.07e-01	0	53	0	100139008	51	4725
2026-01-07 11:46:56.99	165.52	12.07	-40.1	-42.5	20.8	6.06e-01	0	54	0	107479040	51	4862
2026-01-07 11:47:01.03	165.57	12.49	-39.9	-42.3	21.1	6.06e-01	0	54	0	115343360	51	4735
2026-01-07 11:47:05.07	165.63	12.92	-39.8	-42.1	21.3	6.06e-01	0	54	0	122683392	51	4617
2026-01-07 11:47:09.11	165.68	13.36	-39.5	-41.8	21.6	6.08e-01	0	54	0	130547712	51	4453
2026-01-07 11:47:13.15	165.74	13.80	-39.4	-41.6	21.8	6.07e-01	0	54	0	137887744	50	4635
2026-01-07 11:47:17.18	165.80	14.26	-39.4	-41.6	21.8	6.07e-01	0	54	0	145227776	50	4634
2026-01-07 11:47:21.22	165.86	14.72	-39.5	-41.7	21.8	6.04e-01	0	54	0	153092096	50	4658
2026-01-07 11:47:25.26	165.92	15.20	-39.6	-41.8	21.7	6.07e-01	0	54	0	160432128	50	4753
2026-01-07 11:47:29.30	165.98	15.68	-39.5	-41.7	21.9	6.06e-01	0	54	0	168296448	50	4674
2026-01-07 11:47:33.33	166.05	16.17	-39.4	-41.6	21.9	6.07e-01	0	54	0	175636480	50	4601
2026-01-07 11:47:37.38	166.12	16.68	-39.3	-41.4	22.2	6.05e-01	0	54	0	183500800	50	4533
2026-01-07 11:47:41.42	166.18	17.20	-39.2	-41.3	22.3	6.07e-01	0	54	0	190840832	50	4454
2026-01-07 11:47:45.46	166.26	17.73	-39.3	-41.4	22.2	6.05e-01	0	54	0	198705152	50	4518
2026-01-07 11:47:49.49	166.33	18.28	-39.4	-41.6	22.1	6.06e-01	0	54	0	206045184	50	4613
2026-01-07 11:47:53.53	166.40	18.83	-39.4	-41.5	22.1	6.06e-01	0	55	0	213385216	50	4590
2026-01-07 11:47:57.57	166.48	19.41	-39.5	-41.6	22.1	6.07e-01	0	55	0	221249536	50	4639
2026-01-07 11:48:01.61	166.56	19.99	-39.6	-41.8	21.9	6.06e-01	0	55	0	228589568	50	4720
2026-01-07 11:48:05.65	166.65	20.60	-39.7	-41.9	21.8	6.07e-01	0	55	0	236453888	50	4767
2026-01-07 11:48:09.69	166.74	21.21	-39.8	-42.0	21.8	6.07e-01	0	55	0	243793920	50	4825
2026-01-07 11:48:13.73	166.83	21.85	-39.7	-41.9	21.9	6.06e-01	0	55	0	251658240	50	4762
2026-01-07 11:48:17.77	166.92	22.50	-39.7	-41.9	21.9	6.06e-01	0	55	0	258998272	50	4798
2026-01-07 11:48:21.81	167.02	23.17	-39.9	-42.2	21.7	6.05e-01	0	55	0	266862592	50	4935
2026-01-07 11:48:25.84	167.12	23.86	-39.8	-42.0	21.8	6.06e-01	0	55	0	274202624	50	4868
2026-01-07 11:48:29.88	167.22	24.58	-39.9	-42.1	21.8	6.08e-01	0	55	0	281542656	50	4878
2026-01-07 11:48:33.92	167.33	25.31	-39.9	-42.1	21.7	6.07e-01	0	55	0	289406976	50	4914
2026-01-07 11:48:37.97	167.45	26.07	-39.6	-41.7	22.2	6.05e-01	0	55	0	296747008	50	4676
2026-01-07 11:48:42.00	167.57	26.84	-39.6	-41.7	22.2	6.05e-01	0	55	0	304611328	50	4689
2026-01-07 11:48:46.04	167.69	27.65	-39.5	-41.5	22.4	6.05e-01	0	55	0	311951360	50	4597
2026-01-07 11:48:50.08	167.83	28.48	-39.2	-41.2	22.7	6.06e-01	0	55	0	319815680	50	4414
2026-01-07 11:48:54.11	167.97	29.33	-39.3	-41.3	22.6	6.05e-01	0	55	0	327155712	50	4457
2026-01-07 11:48:58.15	168.11	30.22	-39.1	-41.1	22.8	6.06e-01	0	55	0	335020032	50	4376
2026-01-07 11:49:02.19	168.26	31.14	-39.4	-41.5	22.5	6.04e-01	0	55	0	342360064	50	4566
2026-01-07 11:49:06.23	168.43	32.08	-39.4	-41.4	22.6	6.08e-01	0	55	0	349700096	50	4521
2026-01-07 11:49:10.27	168.60	33.07	-39.8	-41.9	22.1	6.07e-01	0	56	0	357564416	50	4801
2026-01-07 11:49:14.31	168.78	34.08	-39.9	-42.0	22.0	6.06e-01	0	56	0	364904448	50	4851
2026-01-07 11:49:18.35	168.97	35.13	-40.4	-42.8	21.3	6.05e-01	0	55	0	372768768	51	4985
2026-01-07 11:49:22.38	169.18	36.22	-40.7	-43.2	20.9	6.06e-01	0	55	0	380108800	52	4935
2026-01-07 11:49:26.42	169.40	37.35	-41.3	-44.0	20.0	6.04e-01	0	56	0	387973120	53	5127
2026-01-07 11:49:30.46	169.64	38.52	-41.6	-44.6	19.5	6.05e-01	0	55	0	395313152	53	5466
2026-01-07 11:49:34.50	169.89	39.74	-41.2	-43.9	20.2	6.05e-01	0	55	0	403177472	53	5056
2026-01-07 11:49:38.54	170.16	41.00	-40.9	-43.4	20.6	6.06e-01	0	56	0	410517504	53	4791
2026-01-07 11:49:42.58	170.45	42.31	-40.0	-42.3	21.8	6.06e-01	0	56	0	417857536	52	4447
2026-01-07 11:49:46.62	170.77	43.67	-39.6	-41.7	22.4	6.08e-01	0	56	0	425721856	51	4415
2026-01-07 11:49:50.66	171.12	45.08	-39.5	-41.6	22.5	6.06e-01	0	56	0	433061888	51	4363
2026-01-07 11:49:54.70	171.50	46.54	-39.6	-41.7	22.4	6.07e-01	0	56	0	440926208	50	4676
2026-01-07 11:49:58.74	171.91	48.06	-39.4	-41.4	22.7	6.06e-01	0	56	0	448266240	50	4532
2026-01-07 11:50:02.77	172.37	49.63	-39.6	-41.7	22.4	6.05e-01	0	56	0	456130560	50	4688
2026-01-07 11:50:06.81	172.87	51.26	-39.2	-41.2	22.9	6.07e-01	0	56	0	463470592	50	4392
2026-01-07 11:50:10.85	173.44	52.95	-38.6	-40.5	23.6	6.06e-01	0	56	0	471334912	49	4303
2026-01-07 11:50:14.89	174.07	54.70	-39.0	-40.9	23.2	6.06e-01	0	56	0	478674944	49	4522
2026-01-07 11:50:18.93	174.79	56.50	-39.6	-41.7	22.5	6.07e-01	0	56	0	486014976	49	4933
2026-01-07 11:50:22.97	175.61	58.37	-40.1	-42.3	21.9	6.06e-01	0	56	0	493879296	51	4743
2026-01-07 11:50:27.00	176.55	60.28	-40.7	-43.2	21.0	6.08e-01	0	56	0	501219328	52	4934
2026-01-07 11:50:31.04	177.64	62.26	-41.3	-44.1	20.1	6.08e-01	0	56	0	509083648	53	5170
2026-01-07 11:50:35.08	178.93	64.28	-42.4	-45.8	18.4	6.07e-01	0	56	0	516423680	55	5635
2026-01-07 11:50:39.12	180.47	66.35	-43.2	-47.2	17.0	6.05e-01	0	56	0	524288000	57	5913
2026-01-07 11:50:43.16	182.34	68.46	-43.2	-47.1	17.1	6.06e-01	0	56	0	531628032	57	5826
2026-01-07 11:50:47.21	184.66	70.59	-43.1	-46.9	17.3	6.08e-01	0	56	0	539492352	57	5720
2026-01-07 11:50:51.24	187.57	72.73	-42.5	-45.9	18.3	6.04e-01	0	56	0	546832384	56	5350
2026-01-07 11:50:55.28	191.37	74.86	-42.1	-45.2	19.1	6.06e-01	0	56	0	554172416	56	4941
2026-01-07 11:50:59.32	196.44	76.94	-41.6	-44.4	19.7	6.07e-01	0	56	0	562036736	55	4802
2026-01-07 11:51:03.36	203.43	78.91	-41.3	-44.0	20.0	6.06e-01	0	56	0	569376768	54	4859
2026-01-07 11:51:07.40	213.30	80.67	-40.1	-42.3	21.7	6.08e-01	0	56	0	577241088	52	4474
2026-01-07 11:51:11.43	227.17	82.05	-40.0	-42.2	21.9	6.07e-01	0	56	0	584581120	51	4681
2026-01-07 11:51:15.47	245.41	82.82	-40.3	-42.6	21.5	6.06e-01	0	56	0	592445440	51	4914
2026-01-07 11:51:19.51	265.49	82.75	-40.0	-42.1	22.0	6.07e-01	0	56	0	599785472	51	4647
2026-01-07 11:51:23.55	283.12	81.87	-39.8	-42.0	22.2	6.06e-01	0	56	0	607649792	51	4552
2026-01-07 11:51:27.58	296.31	80.42	-40.2	-42.5	21.6	6.06e-01	0	56	0	614989824	51	4848
2026-01-07 11:51:31.62	305.66	78.62	-41.0	-43.6	20.5	6.06e-01	0	56	0	622329856	52	5193
2026-01-07 11:51:35.66	312.29	76.63	-41.4	-44.2	19.9	6.07e-01	0	56	0	630194176	53	5275
2026-01-07 11:51:39.70	317.13	74.54	-42.1	-45.2	18.9	6.06e-01	0	56	0	637534208	54	5576
2026-01-07 11:51:43.73	320.76	72.42	-42.5	-45.9	18.3	6.07e-01	0	56	0	645398528	55	5672
2026-01-07 11:51:47.77	323.57	70.28	-42.6	-46.2	17.9	6.06e-01	0	56	0	652738560	55	5897
2026-01-07 11:51:51.81	325.81	68.16	-42.9	-46.6	17.7	6.07e-01	0	56	0	660602880	56	5819
2026-01-07 11:51:55.85	327.62	66.06	-43.2	-47.1	17.1	6.06e-01	0	56	0	667942912	56	6192
2026-01-07 11:51:59.89	329.12	64.00	-42.2	-45.4	18.7	6.08e-01	0	56	0	675282944	55	5398
2026-01-07 11:52:03.93	330.37	61.99	-41.0	-43.5	20.6	6.05e-01	0	56	0	683147264	53	4866
2026-01-07 11:52:07.97	331.44	60.03	-40.6	-42.9	21.2	6.07e-01	0	56	0	690487296	52	4804
2026-01-07 11:52:12.01	332.36	58.13	-40.3	-42.6	21.5	6.04e-01	0	56	0	698351616	52	4643
2026-01-07 11:52:16.05	333.16	56.28	-39.2	-41.1	23.1	6.06e-01	0	56	0	705691648	50	4354
2026-01-07 11:52:20.08	333.87	54.49	-38.9	-40.8	23.3	6.06e-01	0	56	0	713555968	49	4453
2026-01-07 11:52:24.12	334.49	52.76	-39.0	-40.8	23.3	6.07e-01	0	56	0	720896000	49	4488
2026-01-07 11:52:28.16	335.05	51.08	-39.3	-41.3	22.8	6.05e-01	0	56	0	728760320	49	4736
2026-01-07 11:52:32.20	335.55	49.47	-39.9	-42.0	22.1	6.05e-01	0	56	0	736100352	50	4841
2026-01-07 11:52:36.24	336.00	47.91	-39.6	-41.6	22.5	6.06e-01	0	56	0	743964672	50	4611
2026-01-07 11:52:40.28	336.41	46.40	-39.8	-42.0	22.2	6.06e-01	0	56	0	751304704	50	4823
2026-01-07 11:52:44.32	336.78	44.95	-39.8	-41.9	22.2	6.05e-01	0	56	0	758644736	50	4779
2026-01-07 11:52:48.36	337.12	43.56	-39.8	-41.9	22.2	6.06e-01	0	56	0	766509056	50	4781
2026-01-07 11:52:52.39	337.44	42.21	-40.2	-42.4	21.7	6.06e-01	0	56	0	773849088	51	4807
2026-01-07 11:52:56.43	337.73	40.92	-40.7	-43.1	20.9	6.06e-01	0	56	0	781713408	52	4892
2026-01-07 11:53:00.47	338.00	39.67	-40.6	-43.0	21.0	6.03e-01	0	56	0	789053440	52	4859
2026-01-07 11:53:04.51	338.25	38.46	-40.7	-43.2	20.8	6.05e-01	0	56	0	796917760	52	4978
2026-01-07 11:53:08.55	338.49	37.30	-40.3	-42.7	21.3	6.05e-01	0	56	0	804257792	52	4664
2026-01-07 11:53:12.59	338.70	36.18	-39.9	-42.1	21.9	6.08e-01	0	56	0	812122112	51	4620
2026-01-07 11:53:16.63	338.91	35.10	-39.7	-41.8	22.2	6.07e-01	0	56	0	819462144	51	4483
2026-01-07 11:53:20.67	339.10	34.06	-39.4	-41.5	22.5	6.06e-01	0	56	0	826802176	50	4560
2026-01-07 11:53:24.71	339.29	33.05	-39.0	-41.0	23.0	6.05e-01	0	56	0	834666496	50	4307
2026-01-07 11:53:28.75	339.46	32.08	-38.8	-40.7	23.2	6.07e-01	0	56	0	842006528	49	4410
2026-01-07 11:53:32.79	339.62	31.14	-38.9	-40.8	23.1	6.07e-01	0	56	0	849870848	49	4477
2026-01-07 11:53:36.83	339.77	30.23	-39.0	-41.0	22.9	6.04e-01	0	56	0	857210880	49	4553
2026-01-07 11:53:40.86	339.92	29.35	-39.0	-40.9	22.9	6.06e-01	0	56	0	865075200	49	4545
2026-01-07 11:53:44.90	340.06	28.50	-39.2	-41.2	22.6	6.06e-01	0	56	0	872415232	49	4697
2026-01-07 11:53:48.94	340.19	27.68	-39.4	-41.5	22.3	6.04e-01	0	57	0	880279552	49	4820
2026-01-07 11:53:52.98	340.32	26.88	-39.5	-41.6	22.2	6.05e-01	0	56	0	887619584	49	4886
2026-01-07 11:53:57.02	340.44	26.10	-39.6	-41.8	22.0	6.05e-01	0	56	0	894959616	49	4995
2026-01-07 11:54:01.05	340.56	25.36	-39.8	-42.0	21.7	6.05e-01	0	56	0	902823936	50	4854
2026-01-07 11:54:05.09	340.67	24.63	-39.8	-42.0	21.6	6.06e-01	0	57	0	910163968	50	4856
2026-01-07 11:54:09.13	340.78	23.92	-39.8	-42.0	21.5	6.09e-01	0	56	0	918028288	50	4863
2026-01-07 11:54:13.17	340.88	23.24	-39.8	-42.2	21.3	6.02e-01	0	56	0	925368320	50	4936
2026-01-07 11:54:17.21	340.98	22.57	-39.6	-42.1	21.0	5.99e-01	0	56	0	933232640	50	4872
2026-01-07 11:54:21.25	341.07	21.92	-39.3	-41.8	20.8	6.03e-01	0	56	0	940572672	50	4725
2026-01-07 11:54:25.29	341.17	21.29	-38.9	-41.4	20.9	5.99e-01	0	56	0	947912704	49	4785
2026-01-07 11:54:29.33	341.26	20.68	-40.8	-45.1	16.2	6.01e-01	0	56	0	955777024	52	6181
2026-01-07 11:54:33.37	341.34	20.08	-41.9	-53.0	6.9	6.64e-01	92	56	0	963117056	54	13676
2026-01-07 11:54:37.41	341.42	19.49	-41.1	-59.6	3.8	7.45e-01	0	56	104	964689920	54	29183
2026-01-07 11:54:41.44	341.50	18.93	-40.5	-60.4	3.8	7.48e-01	0	57	104	964689920	53	33886
2026-01-07 11:54:45.48	341.58	18.37	-40.9	-60.4	3.8	7.46e-01	0	56	104	964689920	52	35975
2026-01-07 11:54:49.52	341.66	17.83	-41.0	-60.4	3.8	7.44e-01	0	57	104	964689920	52	35917
2026-01-07 11:54:53.56	341.73	17.30	-40.7	-60.3	3.8	7.44e-01	0	56	104	964689920	53	33651
2026-01-07 11:54:57.60	341.80	16.79	-40.9	-60.4	3.8	7.45e-01	0	56	104	964689920	53	33818
2026-01-07 11:55:01.64	341.87	16.28	-41.2	-60.4	3.8	7.44e-01	0	57	104	964689920	53	33785
2026-01-07 11:55:05.68	341.94	15.79	-41.7	-60.6	3.8	7.47e-01	0	57	104	964689920	53	34607
2026-01-07 11:55:09.72	342.01	15.31	-41.6	-60.4	3.8	7.49e-01	0	57	104	964689920	54	32112
2026-01-07 11:55:13.76	342.07	14.84	-41.5	-60.6	3.8	7.45e-01	0	56	104	964689920	54	32652
2026-01-07 11:55:17.80	342.13	14.38	-41.5	-60.4	3.8	7.45e-01	0	57	104	964689920	54	31882
2026-01-07 11:55:21.83	342.20	13.92	-41.4	-60.6	3.8	7.47e-01	0	57	104	964689920	53	34601
2026-01-07 11:55:25.88	342.26	13.48	-41.5	-60.4	3.8	7.47e-01	0	56	104	964689920	53	33955
2026-01-07 11:55:29.92	342.31	13.05	-41.5	-60.5	3.8	7.43e-01	0	57	104	964689920	53	34126
2026-01-07 11:55:33.96	342.37	12.62	-41.3	-60.4	3.8	7.48e-01	0	57	104	964689920	53	34076
2026-01-07 11:55:37.99	342.43	12.20	-41.2	-60.4	3.8	7.47e-01	0	57	104	964689920	53	33697
2026-01-07 11:55:42.03	342.48	11.79	-41.1	-60.3	3.8	7.47e-01	0	57	104	964689920	53	33589
2026-01-07 11:55:46.07	342.54	11.39	-41.2	-60.4	3.8	7.46e-01	0	57	104	964689920	53	33785
2026-01-07 11:55:50.11	342.59	11.00	-41.4	-60.5	3.8	7.46e-01	0	57	104	964689920	53	34105
2026-01-07 11:55:54.16	342.64	10.61	-41.1	-60.1	3.8	7.49e-01	0	57	104	964689920	53	32624
2026-01-07 11:55:58.20	342.69	10.23	-41.3	-60.3	3.8	7.45e-01	0	57	104	964689920	53	33414
2026-01-07 11:56:02.24	342.74	9.85	-41.2	-60.1	3.8	7.46e-01	0	57	104	964689920	53	32690
2026-01-07 11:56:06.28	342.79	9.48	-41.3	-60.1	3.8	7.46e-01	0	57	104	964689920	53	32846
2026-01-07 11:56:10.32	342.84	9.12	-41.4	-60.3	3.8	7.47e-01	0	57	104	964689920	53	33397
2026-01-07 11:56:14.36	342.88	8.76	-41.4	-60.4	3.8	7.44e-01	0	57	104	964689920	53	33718
2026-01-07 11:56:18.40	342.93	8.41	-41.2	-60.2	3.8	7.44e-01	0	57	104	964689920	53	33120
2026-01-07 11:56:22.44	342.98	8.07	-41.3	-60.3	3.8	7.44e-01	0	57	104	964689920	53	33329
2026-01-07 11:56:26.48	343.02	7.72	-45.2	-64.0	3.8	7.44e-01	0	57	104	964689920	60	34139
2026-01-07 11:56:30.52	343.07	7.39	-46.1	-64.9	3.8	7.45e-01	0	57	104	964689920	62	33974
2026-01-07 11:56:34.57	343.11	7.06	-46.1	-65.0	3.8	7.43e-01	0	57	104	964689920	62	34239
2026-01-07 11:56:38.61	343.15	6.73	-46.0	-64.9	3.8	7.50e-01	0	57	104	964689920	62	33987
2026-01-07 11:56:42.66	343.19	6.41	-46.0	-64.9	3.8	7.43e-01	0	57	104	964689920	62	33861
2026-01-07 11:56:46.70	343.24	6.09	-46.0	-64.9	3.8	7.41e-01	0	57	104	964689920	62	33821
2026-01-07 11:56:50.74	343.28	5.78	-46.0	-64.9	3.8	7.48e-01	0	57	104	964689920	62	33827
2026-01-07 11:56:54.79	343.32	5.47	-46.0	-64.9	3.8	7.44e-01	0	57	104	964689920	62	33823
2026-01-07 11:56:58.83	343.36	5.16	-46.0	-64.9	3.8	7.46e-01	0	57	104	964689920	62	33745
2026-01-07 11:57:02.87	343.40	4.86	-46.0	-64.9	3.8	7.45e-01	0	57	104	964689920	62	33800
2026-01-07 11:57:06.92	343.44	4.57	-46.0	-64.8	3.8	7.46e-01	0	57	104	964689920	62	33688
2026-01-07 11:57:10.96	343.48	4.27	-46.0	-64.9	3.8	7.45e-01	0	57	104	964689920	62	33749
2026-01-07 11:57:15.00	343.51	3.98	-46.0	-64.9	3.8	7.42e-01	0	57	104	964689920	62	33757
2026-01-07 11:57:19.05	343.55	3.69	-46.0	-64.9	3.8	7.42e-01	0	57	104	964689920	62	33769
2026-01-07 11:57:23.09	343.59	3.41	-46.0	-64.9	3.8	7.44e-01	0	57	104	964689920	62	33772
2026-01-07 11:57:27.14	343.63	3.13	-46.0	-64.9	3.8	7.49e-01	0	57	104	964689920	62	33702
2026-01-07 11:57:31.18	343.66	2.85	-45.9	-64.8	3.8	7.49e-01	0	57	104	964689920	62	33625
2026-01-07 11:57:35.23	343.70	2.58	-45.9	-64.8	3.8	7.42e-01	0	57	104	964689920	62	33636
2026-01-07 11:57:39.27	343.73	2.31	-45.9	-64.8	3.8	7.45e-01	0	57	104	964689920	62	33669
2026-01-07 11:57:43.32	343.77	2.04	-45.9	-64.8	3.8	7.41e-01	0	57	104	964689920	62	33616

#Closed at: 2026-01-07 11:57:44
#Recorded file [964 MB]: D:/lorett/data/31039_260107_144455.dat