passes_logs/2026/01/07/R2.0S_Moscow/R2.0S_Moscow__20260107_094520_NOAA_21_JPSS-2_rec.log

#Pass ID: 20260107_094520_NOAA 21 (JPSS-2)
#Satellite: NOAA 21 (JPSS-2)
#Configuration: NOAA-21
#almurnet v.1.7.20251203
#Start time: 2026-01-07 09:45:20

#Version: 2.2.20231116
#Station: R2.0S_Moscow
#Location: 37.707566 lon 55.798166 lat
#TLE: 1 54234U 22150A   26005.56767909  .00000152  00000+0  92756-4 0  9990
#TLE: 2 54234  98.7490 306.5820 0001036 340.2747  19.8389 14.19532370163472

#Time	Az	El	Level	Level2	SNR	BER	BlckErr	Temp	State	Recorded	gain1	gain2
2026-01-07 09:45:20.82	155.86	2.05	-44.0	-56.2	3.8	1.49e+00	0	47	0	0	59	14781
2026-01-07 09:45:24.85	155.84	2.31	-44.0	-56.2	3.8	1.49e+00	0	47	104	0	59	14780
2026-01-07 09:45:28.90	155.82	2.57	-44.0	-56.2	3.8	1.49e+00	0	48	104	0	59	14761
2026-01-07 09:45:32.94	155.80	2.84	-44.0	-56.2	3.8	1.49e+00	0	48	104	0	59	14817
2026-01-07 09:45:36.98	155.78	3.11	-44.0	-56.2	3.8	1.49e+00	0	48	104	0	59	14743
2026-01-07 09:45:41.03	155.76	3.38	-44.0	-56.2	3.8	1.49e+00	0	49	104	0	59	14756
2026-01-07 09:45:45.07	155.74	3.66	-44.0	-56.2	3.8	1.49e+00	0	49	104	0	59	14713
2026-01-07 09:45:49.12	155.71	3.93	-44.0	-56.2	3.8	1.49e+00	0	49	104	0	59	14785
2026-01-07 09:45:53.16	155.69	4.21	-44.0	-56.2	3.8	1.49e+00	0	50	104	0	59	14748
2026-01-07 09:45:57.21	155.66	4.50	-44.0	-56.2	3.8	1.49e+00	0	50	104	0	59	14756
2026-01-07 09:46:01.25	155.64	4.78	-44.0	-56.2	3.8	1.49e+00	0	50	104	0	59	14743
2026-01-07 09:46:05.29	155.61	5.07	-44.0	-56.1	3.8	1.49e+00	0	50	104	0	59	14669
2026-01-07 09:46:09.34	155.59	5.37	-44.0	-56.1	3.8	1.49e+00	0	50	104	0	59	14659
2026-01-07 09:46:13.38	155.56	5.66	-43.9	-56.1	3.8	1.49e+00	0	50	104	0	59	14650
2026-01-07 09:46:17.43	155.53	5.96	-43.9	-55.9	3.8	1.49e+00	0	51	104	0	59	14353
2026-01-07 09:46:21.47	155.50	6.26	-43.9	-55.4	3.8	1.49e+00	0	51	104	0	59	13541
2026-01-07 09:46:25.51	155.47	6.57	-43.9	-55.7	3.8	1.49e+00	0	51	104	0	59	13941
2026-01-07 09:46:29.56	155.44	6.88	-43.8	-55.0	3.8	1.49e+00	0	51	104	0	59	12914
2026-01-07 09:46:33.60	155.41	7.19	-43.0	-49.8	5.5	5.34e-01	0	51	0	2097152	58	7509
2026-01-07 09:46:37.65	155.38	7.51	-41.4	-45.4	9.3	2.61e-02	0	52	0	14680064	54	5703
2026-01-07 09:46:41.69	155.34	7.83	-40.0	-42.9	11.9	5.31e-04	0	52	0	27262976	52	4793
2026-01-07 09:46:45.73	155.31	8.16	-44.2	-55.8	3.8	1.49e+00	0	52	104	35651584	59	14070
2026-01-07 09:46:49.78	155.27	8.49	-39.2	-41.6	13.4	1.52e-05	0	52	0	46137344	50	4633
2026-01-07 09:46:53.82	155.23	8.82	-39.0	-41.2	13.8	3.00e-06	0	52	0	58720256	49	4683
2026-01-07 09:46:57.86	155.20	9.16	-38.8	-40.9	14.2	1.50e-06	0	52	0	71303168	49	4517
2026-01-07 09:47:01.90	155.16	9.51	-38.6	-40.7	14.4	7.00e-07	0	52	0	83886080	49	4422
2026-01-07 09:47:05.94	155.12	9.85	-38.6	-40.7	14.5	0.00e+00	0	52	0	96468992	49	4410
2026-01-07 09:47:09.98	155.08	10.21	-38.5	-40.5	14.8	0.00e+00	0	53	0	109051904	48	4557
2026-01-07 09:47:14.02	155.03	10.57	-38.4	-40.4	14.9	0.00e+00	0	53	0	121634816	48	4519
2026-01-07 09:47:18.07	154.99	10.93	-38.4	-40.3	15.1	7.00e-07	0	53	0	134217728	48	4453
2026-01-07 09:47:22.11	154.95	11.30	-38.3	-40.1	15.2	0.00e+00	0	53	0	146800640	48	4383
2026-01-07 09:47:26.15	154.90	11.67	-38.1	-40.0	15.5	0.00e+00	0	53	0	159383552	48	4295
2026-01-07 09:47:30.19	154.85	12.05	-38.1	-39.9	15.6	0.00e+00	0	53	0	171966464	48	4268
2026-01-07 09:47:34.22	154.80	12.44	-38.0	-39.8	15.7	0.00e+00	0	53	0	184549376	48	4233
2026-01-07 09:47:38.26	154.75	12.83	-37.9	-39.7	15.7	0.00e+00	0	53	0	197132288	47	4417
2026-01-07 09:47:42.30	154.70	13.23	-37.8	-39.5	15.9	0.00e+00	0	54	0	209715200	47	4337
2026-01-07 09:47:46.34	154.64	13.64	-37.7	-39.5	16.0	0.00e+00	0	53	0	222298112	47	4294
2026-01-07 09:47:50.38	154.59	14.05	-37.8	-39.5	16.0	0.00e+00	0	54	0	234881024	47	4313
2026-01-07 09:47:54.42	154.53	14.47	-37.8	-39.5	16.0	0.00e+00	0	54	0	247463936	47	4309
2026-01-07 09:47:58.46	154.47	14.89	-37.7	-39.4	16.2	0.00e+00	0	54	0	260046848	47	4262
2026-01-07 09:48:02.50	154.40	15.33	-37.8	-39.5	16.2	0.00e+00	0	54	0	272629760	47	4295
2026-01-07 09:48:06.54	154.34	15.77	-37.8	-39.5	16.1	0.00e+00	0	54	0	285212672	47	4308
2026-01-07 09:48:10.58	154.27	16.22	-37.8	-39.5	16.1	0.00e+00	0	54	0	298844160	47	4325
2026-01-07 09:48:14.61	154.20	16.68	-37.9	-39.6	16.0	0.00e+00	0	54	0	310378496	47	4370
2026-01-07 09:48:18.65	154.13	17.15	-38.0	-39.7	16.0	0.00e+00	0	54	0	324009984	47	4427
2026-01-07 09:48:22.70	154.06	17.63	-38.0	-39.7	16.0	0.00e+00	0	54	0	336592896	47	4441
2026-01-07 09:48:26.74	153.98	18.11	-38.1	-39.8	15.9	0.00e+00	0	54	0	349175808	47	4464
2026-01-07 09:48:30.78	153.90	18.61	-38.1	-39.9	15.8	0.00e+00	0	54	0	361758720	47	4524
2026-01-07 09:48:34.82	153.81	19.11	-38.1	-39.9	15.9	0.00e+00	0	54	0	374341632	47	4506
2026-01-07 09:48:38.86	153.73	19.63	-38.1	-39.8	16.0	0.00e+00	0	54	0	386924544	47	4462
2026-01-07 09:48:42.90	153.64	20.16	-37.9	-39.6	16.2	0.00e+00	0	54	0	399507456	47	4346
2026-01-07 09:48:46.94	153.54	20.69	-37.7	-39.3	16.5	0.00e+00	0	55	0	412090368	47	4232
2026-01-07 09:48:50.99	153.45	21.25	-37.4	-39.0	16.8	0.00e+00	0	55	0	424673280	46	4325
2026-01-07 09:48:55.03	153.35	21.81	-37.1	-38.6	17.2	0.00e+00	0	55	0	437256192	46	4117
2026-01-07 09:48:59.07	153.24	22.38	-36.9	-38.4	17.4	0.00e+00	0	55	0	449839104	45	4252
2026-01-07 09:49:03.11	153.13	22.97	-36.8	-38.2	17.6	0.00e+00	0	55	0	462422016	45	4166
2026-01-07 09:49:07.15	153.02	23.57	-36.7	-38.1	17.7	0.00e+00	0	55	0	475004928	45	4104
2026-01-07 09:49:11.19	152.90	24.19	-36.6	-38.1	17.8	0.00e+00	0	55	0	487587840	45	4100
2026-01-07 09:49:15.23	152.77	24.82	-36.8	-38.2	17.6	0.00e+00	0	55	0	500170752	45	4179
2026-01-07 09:49:19.26	152.64	25.47	-37.1	-38.6	17.3	0.00e+00	0	55	0	512753664	45	4355
2026-01-07 09:49:23.30	152.51	26.13	-37.4	-39.0	16.9	0.00e+00	0	55	0	525336576	45	4546
2026-01-07 09:49:27.35	152.36	26.81	-37.7	-39.3	16.6	0.00e+00	0	55	0	537919488	45	4727
2026-01-07 09:49:31.39	152.21	27.50	-38.0	-39.7	16.3	0.00e+00	0	55	0	550502400	46	4663
2026-01-07 09:49:35.43	152.06	28.22	-38.2	-39.9	16.0	0.00e+00	0	55	0	563085312	46	4788
2026-01-07 09:49:39.47	151.89	28.95	-38.3	-40.1	15.9	0.00e+00	0	55	0	575668224	47	4603
2026-01-07 09:49:43.51	151.72	29.70	-37.9	-39.6	16.4	0.00e+00	0	55	0	588251136	47	4357
2026-01-07 09:49:47.55	151.54	30.47	-37.5	-39.1	16.8	0.00e+00	0	55	0	601882624	47	4127
2026-01-07 09:49:51.59	151.35	31.26	-37.3	-38.8	17.2	0.00e+00	0	55	0	614465536	46	4222
2026-01-07 09:49:55.64	151.14	32.08	-37.3	-38.8	17.1	0.00e+00	0	55	0	627048448	46	4240
2026-01-07 09:49:59.68	150.93	32.91	-37.5	-39.0	17.0	0.00e+00	0	55	0	639631360	46	4314
2026-01-07 09:50:03.72	150.71	33.77	-37.8	-39.5	16.6	0.00e+00	0	55	0	652214272	46	4550
2026-01-07 09:50:07.76	150.47	34.66	-38.4	-40.2	15.9	0.00e+00	0	56	0	664797184	47	4664
2026-01-07 09:50:11.80	150.22	35.56	-39.1	-41.0	15.2	7.00e-07	0	55	0	677380096	48	4828
2026-01-07 09:50:15.84	149.95	36.50	-39.1	-41.0	15.1	0.00e+00	0	56	0	689963008	49	4574
2026-01-07 09:50:19.88	149.67	37.46	-39.3	-41.2	14.9	0.00e+00	0	56	0	702545920	49	4683
2026-01-07 09:50:23.92	149.36	38.45	-39.3	-41.3	14.9	0.00e+00	0	55	0	715128832	49	4739
2026-01-07 09:50:27.96	149.04	39.47	-38.9	-40.8	15.4	0.00e+00	0	55	0	727711744	49	4444
2026-01-07 09:50:32.00	148.70	40.51	-38.6	-40.4	15.8	0.00e+00	0	56	0	740294656	49	4246
2026-01-07 09:50:36.04	148.33	41.59	-39.2	-41.0	15.2	0.00e+00	0	56	0	752877568	49	4595
2026-01-07 09:50:40.08	147.94	42.70	-39.6	-41.7	14.6	7.00e-07	0	56	0	765460480	49	4928
2026-01-07 09:50:44.12	147.51	43.84	-40.0	-42.3	14.0	3.80e-06	0	56	0	778043392	50	4985
2026-01-07 09:50:48.16	147.06	45.01	-40.1	-42.4	13.9	3.00e-06	0	56	0	790626304	50	5053
2026-01-07 09:50:52.21	146.56	46.22	-40.3	-42.5	13.7	4.50e-06	0	56	0	803209216	51	4868
2026-01-07 09:50:56.25	146.03	47.46	-39.3	-41.3	15.0	0.00e+00	0	56	0	815792128	50	4450
2026-01-07 09:51:00.29	145.45	48.73	-39.4	-41.4	14.9	0.00e+00	0	56	0	828375040	50	4540
2026-01-07 09:51:04.33	144.82	50.04	-39.2	-41.1	15.2	0.00e+00	0	56	0	840957952	50	4375
2026-01-07 09:51:08.37	144.13	51.38	-39.3	-41.3	15.1	0.00e+00	0	56	0	853540864	49	4712
2026-01-07 09:51:12.41	143.38	52.75	-39.0	-40.8	15.4	0.00e+00	0	56	0	866123776	49	4472
2026-01-07 09:51:16.45	142.54	54.16	-38.4	-40.1	16.2	0.00e+00	0	55	0	878706688	48	4374
2026-01-07 09:51:20.48	141.63	55.60	-38.5	-40.2	16.1	0.00e+00	0	56	0	892338176	48	4416
2026-01-07 09:51:24.52	140.60	57.07	-37.5	-39.0	17.2	0.00e+00	0	56	0	904921088	46	4316
2026-01-07 09:51:28.57	139.46	58.58	-37.4	-38.9	17.3	0.00e+00	0	56	0	917504000	46	4273
2026-01-07 09:51:32.60	138.19	60.10	-37.2	-38.7	17.4	0.00e+00	0	56	0	930086912	46	4173
2026-01-07 09:51:36.64	136.74	61.65	-36.9	-38.3	17.8	0.00e+00	0	56	0	942669824	45	4204
2026-01-07 09:51:40.68	135.10	63.22	-36.6	-38.0	18.1	0.00e+00	0	56	0	955252736	45	4097
2026-01-07 09:51:44.72	133.23	64.80	-36.4	-37.7	18.4	0.00e+00	0	56	0	967835648	44	4174
2026-01-07 09:51:48.76	131.07	66.39	-36.5	-37.8	18.2	0.00e+00	0	56	0	980418560	44	4231
2026-01-07 09:51:52.80	128.57	67.97	-36.7	-38.2	17.9	0.00e+00	0	56	0	993001472	44	4404
2026-01-07 09:51:56.83	125.65	69.52	-36.1	-37.4	18.5	0.00e+00	0	56	0	1005584384	44	4042
2026-01-07 09:52:00.87	122.21	71.05	-35.6	-36.9	18.9	0.00e+00	0	56	0	1018167296	43	4025
2026-01-07 09:52:04.91	118.13	72.53	-36.0	-37.3	18.5	0.00e+00	0	56	0	1030750208	43	4198
2026-01-07 09:52:08.95	113.28	73.92	-36.1	-37.4	18.4	0.00e+00	0	56	0	1043333120	43	4270
2026-01-07 09:52:12.99	107.51	75.19	-36.2	-37.5	18.4	0.00e+00	0	56	0	1055916032	43	4328
2026-01-07 09:52:17.03	100.69	76.31	-36.6	-38.0	17.9	0.00e+00	0	56	0	1068498944	43	4580
2026-01-07 09:52:21.06	92.77	77.20	-36.3	-37.6	18.3	0.00e+00	0	56	0	1081081856	43	4369
2026-01-07 09:52:25.10	83.80	77.83	-36.2	-37.5	18.4	0.00e+00	0	56	0	1093664768	43	4320
2026-01-07 09:52:29.15	74.07	78.14	-36.1	-37.4	18.5	0.00e+00	0	56	0	1106247680	44	4012
2026-01-07 09:52:33.19	64.12	78.11	-36.9	-38.4	17.7	0.00e+00	0	56	0	1118830592	44	4529
2026-01-07 09:52:37.22	54.55	77.73	-37.3	-38.8	17.3	0.00e+00	0	56	0	1131413504	45	4491
2026-01-07 09:52:41.26	45.76	77.05	-36.4	-37.8	18.3	0.00e+00	0	56	0	1143996416	44	4217
2026-01-07 09:52:45.30	38.04	76.11	-36.8	-38.2	17.8	0.00e+00	0	56	0	1156579328	44	4419
2026-01-07 09:52:49.35	31.42	74.96	-36.7	-38.2	17.9	0.00e+00	0	56	0	1169162240	44	4406
2026-01-07 09:52:53.38	25.86	73.66	-35.5	-36.8	19.1	0.00e+00	0	56	0	1181745152	42	4194
2026-01-07 09:52:57.43	21.17	72.25	-36.3	-37.6	18.3	0.00e+00	0	56	0	1194328064	44	4144
2026-01-07 09:53:01.47	17.23	70.77	-36.4	-37.8	18.3	0.00e+00	0	56	0	1206910976	44	4209
2026-01-07 09:53:05.51	13.90	69.23	-35.8	-37.1	18.8	0.00e+00	0	56	0	1219493888	42	4344
2026-01-07 09:53:09.56	11.06	67.67	-36.8	-38.2	17.9	0.00e+00	0	56	0	1233125376	45	4159
2026-01-07 09:53:13.59	8.64	66.09	-37.1	-38.6	17.6	0.00e+00	0	56	0	1245708288	44	4605
2026-01-07 09:53:17.63	6.55	64.51	-36.3	-37.6	18.5	0.00e+00	0	56	0	1258291200	44	4130
2026-01-07 09:53:21.67	4.73	62.94	-37.5	-39.0	17.2	0.00e+00	0	56	0	1270874112	45	4586
2026-01-07 09:53:25.70	3.13	61.38	-36.4	-37.8	18.4	0.00e+00	0	56	0	1283457024	44	4205
2026-01-07 09:53:29.75	1.72	59.84	-38.0	-39.6	16.6	0.00e+00	0	56	0	1296039936	46	4641
2026-01-07 09:53:33.78	0.48	58.32	-37.6	-39.2	16.9	0.00e+00	0	56	0	1308622848	47	4160
2026-01-07 09:53:37.82	359.36	56.83	-38.7	-40.5	15.6	0.00e+00	0	56	0	1321205760	47	4867
2026-01-07 09:53:41.85	358.37	55.38	-38.2	-39.9	16.3	0.00e+00	0	56	0	1333788672	48	4264
2026-01-07 09:53:45.89	357.46	53.95	-37.1	-38.5	17.6	0.00e+00	0	56	0	1346371584	46	4091
2026-01-07 09:53:49.93	356.65	52.55	-39.8	-42.0	14.3	7.00e-07	0	56	0	1358954496	50	4849
2026-01-07 09:53:53.98	355.91	51.18	-38.4	-40.1	16.2	6.10e-06	0	56	0	1371537408	48	4356
2026-01-07 09:53:58.02	355.23	49.85	-39.2	-41.1	15.2	0.00e+00	0	56	0	1384120320	48	4876
2026-01-07 09:54:02.06	354.61	48.56	-40.4	-42.9	13.4	2.36e-05	0	56	0	1396703232	51	5055
2026-01-07 09:54:06.10	354.05	47.29	-39.2	-41.1	15.1	0.00e+00	0	56	0	1409286144	50	4386
2026-01-07 09:54:10.14	353.52	46.07	-40.4	-42.8	13.5	9.10e-06	0	56	0	1421869056	51	5022
2026-01-07 09:54:14.18	353.04	44.87	-40.1	-42.4	13.9	3.80e-06	0	56	0	1434451968	51	4788
2026-01-07 09:54:18.22	352.59	43.71	-41.0	-43.9	12.3	1.06e-04	0	56	0	1447034880	52	5343
2026-01-07 09:54:22.27	352.17	42.58	-40.4	-42.8	13.3	2.05e-05	0	56	0	1459617792	52	4733
2026-01-07 09:54:26.31	351.79	41.48	-39.0	-40.9	15.4	7.00e-07	0	56	0	1472200704	50	4254
2026-01-07 09:54:30.35	351.43	40.41	-39.9	-42.0	14.2	0.00e+00	0	56	0	1484783616	50	4864
2026-01-07 09:54:34.39	351.09	39.38	-39.6	-41.6	14.6	0.00e+00	0	56	0	1497366528	50	4614
2026-01-07 09:54:38.43	350.77	38.37	-39.8	-42.0	14.2	4.50e-06	0	56	0	1509949440	50	4832
2026-01-07 09:54:42.47	350.48	37.39	-39.1	-41.0	15.2	0.00e+00	0	57	0	1523580928	50	4310
2026-01-07 09:54:46.51	350.20	36.44	-38.7	-40.4	15.7	0.00e+00	0	56	0	1535115264	49	4283
2026-01-07 09:54:50.55	349.93	35.51	-38.4	-40.1	16.1	0.00e+00	0	56	0	1548746752	48	4367
2026-01-07 09:54:54.59	349.69	34.61	-38.4	-40.1	16.0	0.00e+00	0	56	0	1561329664	48	4387
2026-01-07 09:54:58.63	349.45	33.74	-37.8	-39.4	16.6	0.00e+00	0	56	0	1573912576	47	4288
2026-01-07 09:55:02.67	349.23	32.89	-37.8	-39.4	16.6	0.00e+00	0	56	0	1586495488	47	4276
2026-01-07 09:55:06.71	349.03	32.06	-38.0	-39.7	16.3	0.00e+00	0	56	0	1599078400	47	4409
2026-01-07 09:55:10.75	348.83	31.25	-37.9	-39.5	16.4	0.00e+00	0	56	0	1611661312	47	4338
2026-01-07 09:55:14.79	348.64	30.47	-37.7	-39.4	16.5	0.00e+00	0	56	0	1624244224	47	4253
2026-01-07 09:55:18.83	348.46	29.70	-37.6	-39.2	16.7	0.00e+00	0	56	0	1636827136	47	4187
2026-01-07 09:55:22.87	348.29	28.96	-37.6	-39.2	16.6	0.00e+00	0	56	0	1649410048	47	4168
2026-01-07 09:55:26.91	348.13	28.23	-37.6	-39.2	16.6	0.00e+00	0	56	0	1661992960	47	4166
2026-01-07 09:55:30.95	347.98	27.52	-37.5	-39.1	16.7	0.00e+00	0	56	0	1674575872	47	4115
2026-01-07 09:55:34.99	347.83	26.83	-37.3	-38.9	16.9	0.00e+00	0	57	0	1687158784	46	4263
2026-01-07 09:55:39.02	347.70	26.16	-37.1	-38.7	17.0	0.00e+00	0	56	0	1699741696	46	4160
2026-01-07 09:55:43.06	347.56	25.51	-37.1	-38.6	17.1	0.00e+00	0	56	0	1712324608	46	4136
2026-01-07 09:55:47.10	347.44	24.87	-37.3	-38.9	16.8	0.00e+00	0	56	0	1724907520	46	4246
2026-01-07 09:55:51.14	347.31	24.24	-37.1	-38.7	16.7	0.00e+00	0	56	0	1737490432	46	4188
2026-01-07 09:55:55.18	347.20	23.63	-37.1	-38.7	16.6	0.00e+00	0	57	0	1750073344	46	4174
2026-01-07 09:55:59.22	347.09	23.03	-36.9	-38.5	16.5	0.00e+00	0	56	0	1762656256	45	4312
2026-01-07 09:56:03.27	346.98	22.45	-36.4	-38.1	16.6	0.00e+00	0	56	0	1775239168	44	4353
2026-01-07 09:56:07.31	346.88	21.88	-37.0	-39.0	15.2	0.00e+00	0	56	0	1787822080	44	4823
2026-01-07 09:56:11.35	346.78	21.32	-39.2	-42.7	10.4	2.98e-03	0	56	0	1800404992	48	5893
2026-01-07 09:56:15.39	346.69	20.77	-40.5	-48.1	4.9	6.10e-01	0	56	0	1812987904	51	9208
2026-01-07 09:56:19.43	346.60	20.24	-40.7	-52.2	3.8	1.49e+00	0	57	104	1814036480	51	14850
2026-01-07 09:56:23.46	346.51	19.71	-40.6	-52.8	3.8	1.49e+00	0	57	104	1814036480	52	15014
2026-01-07 09:56:27.50	346.43	19.20	-40.7	-53.0	3.8	1.49e+00	0	57	104	1814036480	52	15377
2026-01-07 09:56:31.55	346.35	18.70	-40.7	-53.0	3.8	1.49e+00	0	57	104	1814036480	52	15325
2026-01-07 09:56:35.59	346.27	18.20	-40.7	-53.0	3.8	1.49e+00	0	57	104	1814036480	53	14530
2026-01-07 09:56:39.62	346.20	17.72	-40.6	-53.0	3.8	1.49e+00	0	57	104	1814036480	53	14437
2026-01-07 09:56:43.66	346.13	17.25	-40.9	-53.3	3.8	1.49e+00	0	57	104	1814036480	53	15029
2026-01-07 09:56:47.70	346.06	16.78	-40.9	-53.3	3.8	1.49e+00	0	57	104	1814036480	53	15012
2026-01-07 09:56:51.74	345.99	16.33	-40.7	-53.2	3.8	1.49e+00	0	57	104	1814036480	53	14802
2026-01-07 09:56:55.78	345.93	15.88	-41.1	-53.4	3.8	1.49e+00	0	57	104	1814036480	53	15117
2026-01-07 09:56:59.82	345.87	15.44	-40.9	-53.2	3.8	1.49e+00	0	57	104	1814036480	53	14775
2026-01-07 09:57:03.86	345.81	15.01	-40.8	-53.3	3.8	1.49e+00	0	56	104	1814036480	53	14943
2026-01-07 09:57:07.91	345.75	14.58	-40.8	-53.2	3.8	1.49e+00	0	57	104	1814036480	53	14767
2026-01-07 09:57:11.95	345.70	14.17	-40.5	-53.0	3.8	1.49e+00	0	57	104	1814036480	53	14515
2026-01-07 09:57:15.99	345.65	13.76	-40.6	-53.0	3.8	1.49e+00	0	57	104	1814036480	53	14378
2026-01-07 09:57:20.03	345.59	13.35	-40.8	-53.1	3.8	1.49e+00	0	57	104	1814036480	53	14692
2026-01-07 09:57:24.07	345.55	12.96	-40.6	-52.9	3.8	1.49e+00	0	57	104	1814036480	53	14266
2026-01-07 09:57:28.11	345.50	12.57	-40.7	-53.0	3.8	1.49e+00	0	57	104	1814036480	53	14465
2026-01-07 09:57:32.15	345.45	12.18	-40.6	-52.9	3.8	1.49e+00	0	57	104	1814036480	53	14286
2026-01-07 09:57:36.20	345.41	11.80	-40.7	-53.0	3.8	1.49e+00	0	57	104	1814036480	53	14425
2026-01-07 09:57:40.23	345.37	11.43	-40.4	-52.8	3.8	1.49e+00	0	57	104	1814036480	52	14904
2026-01-07 09:57:44.27	345.32	11.06	-40.7	-53.1	3.8	1.49e+00	0	57	104	1814036480	52	15434
2026-01-07 09:57:48.31	345.29	10.70	-40.4	-52.7	3.8	1.49e+00	0	57	104	1814036480	52	14873
2026-01-07 09:57:52.35	345.25	10.35	-40.5	-52.8	3.8	1.49e+00	0	57	104	1814036480	52	14903
2026-01-07 09:57:56.39	345.21	10.00	-40.6	-52.9	3.8	1.49e+00	0	57	104	1814036480	52	15149
2026-01-07 09:58:00.43	345.17	9.65	-40.6	-52.9	3.8	1.49e+00	0	57	104	1814036480	52	15093
2026-01-07 09:58:04.47	345.14	9.31	-40.6	-52.8	3.8	1.49e+00	0	57	104	1814036480	52	15028
2026-01-07 09:58:08.51	345.11	8.97	-40.6	-52.9	3.8	1.49e+00	0	57	104	1814036480	52	15126
2026-01-07 09:58:12.55	345.07	8.64	-40.5	-52.7	3.8	1.49e+00	0	57	104	1814036480	52	14878
2026-01-07 09:58:16.59	345.04	8.31	-40.4	-52.7	3.8	1.49e+00	0	57	104	1814036480	52	14821
2026-01-07 09:58:20.63	345.01	7.99	-40.6	-52.9	3.8	1.49e+00	0	57	104	1814036480	52	15216
2026-01-07 09:58:24.67	344.98	7.67	-44.8	-57.3	3.8	1.49e+00	0	57	104	1814036480	60	15899
2026-01-07 09:58:28.72	344.96	7.35	-45.1	-57.7	3.8	1.49e+00	0	57	104	1814036480	60	16517
2026-01-07 09:58:32.76	344.93	7.04	-45.1	-57.7	3.8	1.49e+00	0	57	104	1814036480	60	16539
2026-01-07 09:58:36.80	344.90	6.73	-45.0	-57.6	3.8	1.49e+00	0	57	104	1814036480	60	16444
2026-01-07 09:58:40.85	344.88	6.42	-45.0	-57.6	3.8	1.49e+00	0	57	104	1814036480	60	16395
2026-01-07 09:58:44.89	344.85	6.12	-45.0	-57.6	3.8	1.49e+00	0	57	104	1814036480	60	16392
2026-01-07 09:58:48.94	344.83	5.82	-45.0	-57.6	3.8	1.49e+00	0	57	104	1814036480	60	16364
2026-01-07 09:58:52.98	344.81	5.53	-45.0	-57.6	3.8	1.49e+00	0	57	104	1814036480	60	16336
2026-01-07 09:58:57.02	344.79	5.24	-45.0	-57.6	3.8	1.49e+00	0	57	104	1814036480	60	16350
2026-01-07 09:59:01.07	344.77	4.95	-45.0	-57.6	3.8	1.49e+00	0	57	104	1814036480	60	16330
2026-01-07 09:59:05.11	344.74	4.66	-45.0	-57.6	3.8	1.49e+00	0	57	104	1814036480	60	16316
2026-01-07 09:59:09.15	344.73	4.38	-45.0	-57.6	3.8	1.49e+00	0	57	104	1814036480	60	16339
2026-01-07 09:59:13.20	344.71	4.10	-45.0	-57.5	3.8	1.49e+00	0	57	104	1814036480	60	16313
2026-01-07 09:59:17.24	344.69	3.83	-45.0	-57.5	3.8	1.49e+00	0	57	104	1814036480	60	16286
2026-01-07 09:59:21.29	344.67	3.55	-45.0	-57.5	3.8	1.49e+00	0	57	104	1814036480	60	16286
2026-01-07 09:59:25.33	344.65	3.28	-45.0	-57.5	3.8	1.49e+00	0	57	104	1814036480	60	16284
2026-01-07 09:59:29.37	344.64	3.01	-44.9	-57.6	3.8	1.49e+00	0	57	104	1814036480	60	16335
2026-01-07 09:59:33.42	344.62	2.75	-45.0	-57.5	3.8	1.49e+00	0	57	104	1814036480	60	16304
2026-01-07 09:59:37.46	344.61	2.49	-45.0	-57.5	3.8	1.49e+00	0	57	104	1814036480	60	16274
2026-01-07 09:59:41.51	344.59	2.22	-45.0	-57.5	3.8	1.49e+00	0	57	104	1814036480	60	16294
2026-01-07 09:59:45.55	344.58	1.97	-44.9	-57.6	3.8	1.49e+00	0	57	104	1814036480	60	16315

#Closed at: 2026-01-07 09:59:46
#Recorded file [1814 MB]: D:/lorett/data/31039_260107_124520.dat