passes_logs/2026/01/07/R2.0S_Moscow/R2.0S_Moscow__20260107_080654_NOAA_21_JPSS-2_rec.log

#Pass ID: 20260107_080654_NOAA 21 (JPSS-2)
#Satellite: NOAA 21 (JPSS-2)
#Configuration: NOAA-21
#almurnet v.1.7.20251203
#Start time: 2026-01-07 08:06:53

#Version: 2.2.20231116
#Station: R2.0S_Moscow
#Location: 37.707566 lon 55.798166 lat
#TLE: 1 54234U 22150A   26005.56767909  .00000152  00000+0  92756-4 0  9990
#TLE: 2 54234  98.7490 306.5820 0001036 340.2747  19.8389 14.19532370163472

#Time	Az	El	Level	Level2	SNR	BER	BlckErr	Temp	State	Recorded	gain1	gain2
2026-01-07 08:06:53.70	107.60	1.98	-37.4	-51.6	3.9	1.50e+00	0	47	0	0	45	19597
2026-01-07 08:06:56.73	107.38	2.15	-36.3	-51.3	3.9	1.50e+00	0	47	104	0	40	25007
2026-01-07 08:06:59.76	107.16	2.31	-35.9	-51.2	4.0	1.50e+00	0	47	104	0	40	24787
2026-01-07 08:07:02.78	106.94	2.48	-35.1	-51.2	4.1	1.50e+00	0	47	104	0	45	18542
2026-01-07 08:07:05.81	106.72	2.65	-28.6	-49.3	3.9	1.50e+00	0	48	104	0	40	20013
2026-01-07 08:07:08.84	106.49	2.82	-31.3	-48.8	4.0	1.50e+00	0	48	104	0	39	19852
2026-01-07 08:07:11.87	106.26	2.99	-36.4	-51.6	4.1	1.50e+00	0	48	104	0	45	19434
2026-01-07 08:07:14.90	106.02	3.16	-31.5	-50.0	4.1	1.50e+00	0	48	104	0	37	25563
2026-01-07 08:07:17.94	105.78	3.33	-26.1	-41.9	3.8	1.50e+00	0	49	104	0	24	21370
2026-01-07 08:07:20.97	105.54	3.50	-35.2	-51.1	4.0	1.50e+00	0	49	104	0	43	20644
2026-01-07 08:07:24.00	105.30	3.67	-28.1	-42.6	3.8	1.51e+00	0	49	104	0	26	20695
2026-01-07 08:07:27.03	105.06	3.84	-30.0	-43.4	4.0	1.50e+00	0	49	104	0	27	21292
2026-01-07 08:07:30.07	104.81	4.02	-35.4	-49.4	3.8	1.50e+00	0	49	104	0	27	42657
2026-01-07 08:07:33.10	104.56	4.19	-33.1	-49.9	4.0	1.50e+00	0	50	104	0	41	20165
2026-01-07 08:07:36.13	104.30	4.36	-36.2	-51.3	4.1	1.50e+00	0	50	104	0	45	18856
2026-01-07 08:07:39.16	104.04	4.54	-36.2	-51.4	4.1	1.50e+00	0	50	104	0	44	20301
2026-01-07 08:07:42.19	103.78	4.71	-29.6	-46.8	4.2	1.50e+00	0	50	104	0	44	11842
2026-01-07 08:07:45.22	103.52	4.89	-32.1	-48.6	3.9	1.50e+00	0	50	104	0	43	15563
2026-01-07 08:07:48.25	103.25	5.07	-31.4	-48.1	4.0	1.50e+00	0	50	104	0	43	14589
2026-01-07 08:07:51.27	102.98	5.24	-35.4	-50.5	4.0	1.50e+00	0	50	104	0	42	20428
2026-01-07 08:07:54.31	102.71	5.42	-35.1	-51.2	3.9	1.50e+00	0	51	104	0	43	20985
2026-01-07 08:07:57.34	102.43	5.60	-33.7	-50.2	4.1	1.50e+00	0	51	104	0	42	19788
2026-01-07 08:08:00.37	102.15	5.78	-34.1	-50.6	4.0	1.50e+00	0	51	104	0	43	19498
2026-01-07 08:08:03.40	101.86	5.96	-35.4	-51.2	4.1	1.50e+00	0	51	104	0	45	18524
2026-01-07 08:08:06.44	101.57	6.14	-37.5	-50.4	4.1	1.50e+00	0	51	104	0	43	18991
2026-01-07 08:08:09.47	101.28	6.32	-31.4	-49.5	4.0	1.50e+00	0	51	104	0	42	18160
2026-01-07 08:08:12.50	100.98	6.50	-32.0	-49.8	3.5	1.50e+00	0	51	104	0	37	25202
2026-01-07 08:08:15.53	100.69	6.68	-28.2	-43.2	3.8	1.50e+00	0	52	104	0	26	22237
2026-01-07 08:08:18.56	100.38	6.86	-27.2	-43.4	3.6	1.50e+00	0	52	104	0	26	22582
2026-01-07 08:08:21.59	100.07	7.05	-35.0	-49.9	4.1	1.50e+00	0	52	104	0	40	21411
2026-01-07 08:08:24.62	99.76	7.23	-30.6	-49.9	4.0	1.50e+00	0	52	104	0	43	18018
2026-01-07 08:08:27.65	99.45	7.41	-35.2	-48.9	4.0	1.50e+00	0	52	104	0	41	17945
2026-01-07 08:08:30.69	99.13	7.60	-36.3	-48.7	3.9	1.50e+00	0	52	104	0	29	35239
2026-01-07 08:08:33.71	98.81	7.78	-34.5	-47.7	3.4	1.49e+00	0	52	104	0	28	33175
2026-01-07 08:08:36.75	98.48	7.97	-34.0	-44.7	5.9	9.28e-01	1	52	0	0	43	9842
2026-01-07 08:08:39.78	98.14	8.15	-36.9	-51.7	3.8	1.50e+00	0	52	104	0	44	20873
2026-01-07 08:08:42.81	97.81	8.34	-34.3	-44.0	6.4	4.70e-01	20	53	0	0	44	8583
2026-01-07 08:08:45.84	97.47	8.53	-35.4	-40.1	10.4	2.54e-02	0	53	0	6291456	43	5821
2026-01-07 08:08:48.88	97.12	8.71	-37.8	-43.8	7.4	1.34e-01	0	53	0	15728640	45	7922
2026-01-07 08:08:51.90	96.77	8.90	-37.8	-46.2	5.1	5.30e-01	17	53	0	24117248	45	10526
2026-01-07 08:08:54.94	96.42	9.09	-38.4	-51.4	3.6	1.49e+00	0	53	104	25165824	48	15979
2026-01-07 08:08:57.96	96.06	9.28	-40.8	-53.2	3.8	1.49e+00	0	53	104	25165824	53	14864
2026-01-07 08:09:00.99	95.70	9.46	-39.7	-52.1	3.8	1.49e+00	0	53	104	25165824	50	15539
2026-01-07 08:09:04.02	95.33	9.65	-39.8	-51.6	3.8	1.49e+00	0	53	104	25165824	50	14621
2026-01-07 08:09:07.05	94.95	9.84	-42.5	-54.0	3.8	1.49e+00	0	53	104	25165824	55	14533
2026-01-07 08:09:10.08	94.58	10.03	-40.1	-46.6	5.8	7.00e-01	0	53	0	26214400	51	7792
2026-01-07 08:09:13.11	94.19	10.22	-40.3	-46.4	6.3	2.31e-01	0	53	0	35651584	51	7588
2026-01-07 08:09:16.13	93.80	10.41	-39.8	-44.7	7.8	1.10e-01	0	54	0	45088768	51	6265
2026-01-07 08:09:19.16	93.41	10.60	-39.2	-43.1	9.6	1.95e-02	0	53	0	54525952	50	5511
2026-01-07 08:09:22.19	93.01	10.79	-37.1	-39.5	13.4	1.29e-05	0	54	0	63963136	45	4831
2026-01-07 08:09:25.22	92.61	10.98	-37.8	-40.5	12.5	1.37e-04	0	54	0	73400320	46	5126
2026-01-07 08:09:28.25	92.20	11.17	-38.3	-41.3	11.8	4.42e-04	0	54	0	82837504	47	5318
2026-01-07 08:09:31.28	91.78	11.36	-37.8	-40.4	12.9	1.03e-04	0	54	0	92274688	47	4777
2026-01-07 08:09:34.31	91.36	11.55	-37.9	-40.7	12.5	1.60e-04	0	54	0	101711872	47	4936
2026-01-07 08:09:37.34	90.94	11.74	-37.4	-40.0	12.8	5.26e-05	0	54	0	111149056	46	4844
2026-01-07 08:09:40.38	90.51	11.93	-40.1	-45.9	6.5	1.59e-01	0	54	0	120586240	50	7565
2026-01-07 08:09:43.41	90.07	12.12	-40.8	-51.5	3.8	1.49e+00	0	54	104	124780544	52	12918
2026-01-07 08:09:46.43	89.63	12.31	-40.9	-52.8	3.8	1.49e+00	0	54	104	124780544	52	15025
2026-01-07 08:09:49.46	89.18	12.50	-40.8	-53.1	3.8	1.49e+00	0	54	104	124780544	53	14641
2026-01-07 08:09:52.49	88.72	12.69	-40.8	-52.9	3.8	1.49e+00	0	54	104	124780544	53	14259
2026-01-07 08:09:55.52	88.26	12.87	-40.7	-52.8	3.8	1.49e+00	0	55	104	124780544	53	14098
2026-01-07 08:09:58.54	87.80	13.06	-40.7	-52.5	3.8	1.49e+00	0	55	104	124780544	53	13621
2026-01-07 08:10:01.57	87.33	13.25	-41.3	-52.6	3.8	1.49e+00	0	55	104	124780544	54	12995
2026-01-07 08:10:04.60	86.85	13.44	-41.4	-51.8	3.8	1.48e+00	0	54	104	124780544	54	11866
2026-01-07 08:10:07.63	86.36	13.62	-41.1	-51.1	4.0	1.49e+00	0	55	104	124780544	53	11585
2026-01-07 08:10:10.66	85.87	13.81	-40.3	-48.8	4.0	1.03e+00	0	55	104	124780544	52	9463
2026-01-07 08:10:13.70	85.37	14.00	-40.1	-46.7	5.6	4.50e-01	0	55	0	133169152	52	7454
2026-01-07 08:10:16.73	84.87	14.18	-39.7	-45.0	7.1	1.56e-01	0	55	0	141557760	51	6461
2026-01-07 08:10:19.76	84.36	14.37	-39.1	-43.5	8.7	4.02e-02	0	54	0	152043520	50	5741
2026-01-07 08:10:22.79	83.84	14.55	-38.9	-42.9	9.4	1.42e-02	0	55	0	160432128	49	5678
2026-01-07 08:10:25.82	83.32	14.73	-39.1	-43.1	9.4	1.60e-02	0	55	0	170917888	49	5854
2026-01-07 08:10:28.85	82.79	14.91	-38.8	-42.3	10.5	4.69e-03	0	55	0	180355072	49	5321
2026-01-07 08:10:31.88	82.26	15.09	-38.9	-42.2	10.8	2.44e-03	0	55	0	189792256	49	5230
2026-01-07 08:10:34.91	81.71	15.27	-39.0	-42.4	10.6	3.33e-03	0	55	0	199229440	49	5369
2026-01-07 08:10:37.94	81.17	15.45	-38.8	-42.2	10.6	3.77e-03	0	55	0	208666624	49	5260
2026-01-07 08:10:40.97	80.61	15.62	-39.0	-42.7	10.0	7.62e-03	0	55	0	218103808	49	5573
2026-01-07 08:10:44.01	80.05	15.80	-39.2	-43.1	9.7	9.94e-03	0	55	0	227540992	49	5796
2026-01-07 08:10:47.04	79.48	15.97	-38.9	-42.4	10.4	6.04e-03	0	55	0	236978176	49	5402
2026-01-07 08:10:50.07	78.90	16.14	-39.2	-42.9	9.9	8.13e-03	0	55	0	246415360	49	5720
2026-01-07 08:10:53.10	78.32	16.31	-39.0	-42.7	10.1	6.75e-03	0	55	0	255852544	49	5545
2026-01-07 08:10:56.14	77.73	16.48	-38.9	-42.4	10.4	5.52e-03	0	55	0	265289728	49	5392
2026-01-07 08:10:59.17	77.14	16.64	-38.8	-42.2	10.6	3.19e-03	0	55	0	274726912	49	5229
2026-01-07 08:11:02.20	76.54	16.81	-38.6	-41.8	11.0	1.97e-03	0	55	0	284164096	49	5001
2026-01-07 08:11:05.23	75.93	16.97	-38.4	-41.6	11.2	1.20e-03	0	55	0	293601280	48	5164
2026-01-07 08:11:08.26	75.31	17.13	-38.6	-42.0	10.7	2.64e-03	0	55	0	303038464	48	5442
2026-01-07 08:11:11.30	74.69	17.28	-38.9	-42.7	9.9	8.29e-03	0	55	0	312475648	48	5865
2026-01-07 08:11:14.32	74.06	17.44	-39.0	-42.8	9.7	1.04e-02	0	55	0	321912832	48	5945
2026-01-07 08:11:17.35	73.43	17.59	-39.0	-42.9	9.7	1.25e-02	0	55	0	331350016	48	6002
2026-01-07 08:11:20.38	72.79	17.74	-38.8	-42.4	10.4	5.10e-03	0	55	0	340787200	48	5657
2026-01-07 08:11:23.41	72.14	17.88	-38.7	-42.1	10.7	3.35e-03	0	55	0	350224384	48	5492
2026-01-07 08:11:26.43	71.49	18.03	-38.5	-41.6	11.5	8.54e-04	0	55	0	359661568	48	5163
2026-01-07 08:11:29.46	70.83	18.17	-38.4	-41.3	12.1	3.52e-04	0	55	0	369098752	48	4990
2026-01-07 08:11:32.49	70.17	18.30	-38.0	-40.4	13.2	3.73e-05	0	55	0	378535936	48	4544
2026-01-07 08:11:35.52	69.50	18.44	-37.8	-40.0	14.2	2.20e-06	0	55	0	387973120	47	4552
2026-01-07 08:11:38.55	68.82	18.57	-37.6	-39.6	15.0	0.00e+00	0	55	0	397410304	47	4345
2026-01-07 08:11:41.58	68.14	18.69	-37.3	-39.1	15.7	0.00e+00	0	56	0	406847488	46	4380
2026-01-07 08:11:44.61	67.45	18.82	-37.2	-38.8	16.2	0.00e+00	0	55	0	416284672	46	4241
2026-01-07 08:11:47.64	66.76	18.93	-37.0	-38.6	16.6	0.00e+00	0	55	0	425721856	46	4116
2026-01-07 08:11:50.68	66.06	19.05	-36.9	-38.5	16.7	0.00e+00	0	56	0	435159040	45	4331
2026-01-07 08:11:53.70	65.36	19.16	-36.9	-38.5	16.8	0.00e+00	0	55	0	445644800	45	4302
2026-01-07 08:11:56.73	64.65	19.27	-36.9	-38.5	16.8	0.00e+00	0	56	0	454033408	45	4304
2026-01-07 08:11:59.76	63.93	19.37	-37.0	-38.5	16.8	0.00e+00	0	55	0	464519168	45	4329
2026-01-07 08:12:02.76	63.22	19.47	-36.9	-38.5	16.8	0.00e+00	0	56	0	473956352	45	4295
2026-01-07 08:12:05.79	62.50	19.56	-37.1	-38.7	16.7	0.00e+00	0	55	0	482344960	45	4392
2026-01-07 08:12:08.82	61.77	19.65	-37.0	-38.6	16.7	0.00e+00	0	56	0	492830720	45	4379
2026-01-07 08:12:11.86	61.04	19.74	-37.1	-38.7	16.7	0.00e+00	0	56	0	502267904	45	4424
2026-01-07 08:12:14.89	60.30	19.82	-37.0	-38.6	16.8	0.00e+00	0	56	0	511705088	45	4368
2026-01-07 08:12:17.92	59.56	19.90	-37.1	-38.7	16.7	0.00e+00	0	55	0	521142272	45	4401
2026-01-07 08:12:20.95	58.82	19.97	-37.3	-39.0	16.5	0.00e+00	0	56	0	530579456	45	4551
2026-01-07 08:12:23.98	58.07	20.04	-37.5	-39.2	16.2	0.00e+00	0	56	0	540016640	45	4680
2026-01-07 08:12:27.01	57.32	20.10	-37.3	-38.9	16.5	0.00e+00	0	56	0	549453824	45	4509
2026-01-07 08:12:30.04	56.57	20.15	-37.2	-38.9	16.5	0.00e+00	0	56	0	558891008	45	4503
2026-01-07 08:12:33.08	55.81	20.21	-37.2	-38.8	16.6	0.00e+00	0	56	0	568328192	45	4443
2026-01-07 08:12:36.11	55.05	20.25	-37.3	-38.9	16.5	0.00e+00	0	56	0	577765376	45	4540
2026-01-07 08:12:39.14	54.30	20.29	-37.1	-38.7	16.7	0.00e+00	0	56	0	587202560	45	4438
2026-01-07 08:12:42.17	53.53	20.33	-37.1	-38.7	16.8	0.00e+00	0	56	0	596639744	45	4412
2026-01-07 08:12:45.20	52.77	20.36	-37.2	-38.8	16.7	0.00e+00	0	56	0	606076928	45	4449
2026-01-07 08:12:48.22	52.01	20.38	-37.3	-38.9	16.6	0.00e+00	0	56	0	615514112	45	4512
2026-01-07 08:12:51.26	51.24	20.40	-37.1	-38.7	16.7	0.00e+00	0	56	0	624951296	45	4436
2026-01-07 08:12:54.28	50.48	20.42	-37.3	-38.9	16.6	0.00e+00	0	56	0	634388480	45	4511
2026-01-07 08:12:57.31	49.71	20.43	-37.3	-38.9	16.6	0.00e+00	0	56	0	643825664	45	4517
2026-01-07 08:13:00.34	48.94	20.43	-37.3	-38.9	16.5	0.00e+00	0	56	0	653262848	45	4543
2026-01-07 08:13:03.37	48.18	20.43	-37.3	-39.0	16.5	0.00e+00	0	56	0	662700032	45	4561
2026-01-07 08:13:06.40	47.41	20.42	-37.1	-38.6	16.8	0.00e+00	0	56	0	672137216	45	4378
2026-01-07 08:13:09.43	46.64	20.41	-36.9	-38.4	17.0	0.00e+00	0	56	0	681574400	45	4277
2026-01-07 08:13:12.46	45.88	20.39	-37.0	-38.6	16.9	0.00e+00	0	56	0	691011584	45	4361
2026-01-07 08:13:15.49	45.11	20.37	-37.0	-38.6	16.9	0.00e+00	0	56	0	700448768	45	4349
2026-01-07 08:13:18.52	44.35	20.34	-37.1	-38.7	16.8	0.00e+00	0	56	0	709885952	45	4405
2026-01-07 08:13:21.55	43.59	20.31	-37.3	-39.0	16.5	0.00e+00	0	56	0	719323136	45	4558
2026-01-07 08:13:24.58	42.83	20.27	-37.3	-38.9	16.6	0.00e+00	0	56	0	728760320	45	4538
2026-01-07 08:13:27.61	42.07	20.22	-37.1	-38.6	16.8	0.00e+00	0	56	0	738197504	45	4384
2026-01-07 08:13:30.64	41.32	20.17	-37.0	-38.6	16.9	0.00e+00	0	56	0	747634688	45	4354
2026-01-07 08:13:33.67	40.57	20.12	-37.1	-38.7	16.8	0.00e+00	0	56	0	757071872	45	4432
2026-01-07 08:13:36.70	39.82	20.06	-37.2	-38.8	16.7	0.00e+00	0	56	0	767557632	45	4485
2026-01-07 08:13:39.73	39.07	20.00	-37.3	-39.0	16.6	0.00e+00	0	56	0	775946240	45	4546
2026-01-07 08:13:42.76	38.33	19.93	-37.1	-38.7	16.8	0.00e+00	0	56	0	786432000	45	4423
2026-01-07 08:13:45.79	37.59	19.85	-37.1	-38.6	16.9	0.00e+00	0	56	0	794820608	45	4372
2026-01-07 08:13:48.82	36.85	19.77	-37.2	-38.8	16.8	0.00e+00	0	56	0	805306368	45	4450
2026-01-07 08:13:51.85	36.12	19.69	-37.4	-39.0	16.5	0.00e+00	0	56	0	814743552	45	4573
2026-01-07 08:13:54.89	35.39	19.60	-37.3	-38.9	16.6	0.00e+00	0	56	0	824180736	45	4534
2026-01-07 08:13:57.92	34.67	19.51	-37.4	-39.0	16.5	0.00e+00	0	56	0	833617920	45	4571
2026-01-07 08:14:00.95	33.95	19.41	-37.4	-39.0	16.6	0.00e+00	0	56	0	843055104	45	4556
2026-01-07 08:14:03.98	33.23	19.31	-37.3	-38.9	16.6	0.00e+00	0	56	0	852492288	45	4537
2026-01-07 08:14:07.01	32.52	19.21	-37.3	-38.9	16.7	0.00e+00	0	56	0	861929472	45	4497
2026-01-07 08:14:10.04	31.82	19.10	-37.2	-38.8	16.8	0.00e+00	0	56	0	871366656	45	4443
2026-01-07 08:14:13.07	31.12	18.98	-37.3	-38.9	16.6	0.00e+00	0	56	0	880803840	45	4511
2026-01-07 08:14:16.10	30.43	18.87	-37.1	-38.7	16.9	0.00e+00	0	56	0	890241024	45	4405
2026-01-07 08:14:19.13	29.74	18.74	-37.2	-38.9	16.6	0.00e+00	0	56	0	899678208	45	4495
2026-01-07 08:14:22.16	29.06	18.62	-37.6	-39.2	16.3	0.00e+00	0	56	0	909115392	45	4703
2026-01-07 08:14:25.19	28.38	18.49	-37.5	-39.2	16.3	0.00e+00	0	56	0	918552576	45	4673
2026-01-07 08:14:28.22	27.71	18.36	-37.3	-38.9	16.6	0.00e+00	0	56	0	927989760	45	4531
2026-01-07 08:14:31.25	27.05	18.22	-37.4	-39.1	16.4	0.00e+00	0	56	0	937426944	45	4606
2026-01-07 08:14:34.28	26.39	18.09	-37.6	-39.3	16.2	0.00e+00	0	56	0	946864128	45	4739
2026-01-07 08:14:37.31	25.73	17.95	-37.6	-39.3	15.8	3.67e-04	0	56	0	956301312	46	4462
2026-01-07 08:14:40.34	25.09	17.80	-37.3	-38.9	16.5	2.20e-06	0	56	0	965738496	46	4275
2026-01-07 08:14:43.37	24.45	17.65	-37.4	-39.1	16.0	5.53e-04	0	56	0	975175680	46	4352
2026-01-07 08:14:46.39	23.82	17.50	-37.7	-39.4	15.9	1.22e-05	0	56	0	984612864	46	4541
2026-01-07 08:14:49.42	23.19	17.35	-37.6	-39.4	15.9	7.00e-07	0	56	0	994050048	46	4528
2026-01-07 08:14:52.46	22.57	17.20	-37.4	-39.1	16.1	1.67e-05	0	56	0	1003487232	46	4382
2026-01-07 08:14:55.48	21.95	17.04	-37.3	-39.0	16.2	1.92e-04	0	56	0	1012924416	46	4336
2026-01-07 08:14:58.51	21.35	16.88	-37.3	-39.0	16.3	0.00e+00	0	56	0	1022361600	46	4323
2026-01-07 08:15:01.55	20.74	16.72	-37.6	-39.2	16.2	0.00e+00	0	56	0	1031798784	46	4435
2026-01-07 08:15:04.58	20.15	16.55	-37.7	-39.4	16.0	0.00e+00	0	56	0	1041235968	46	4537
2026-01-07 08:15:07.61	19.56	16.39	-37.8	-39.5	15.9	0.00e+00	0	56	0	1050673152	46	4581
2026-01-07 08:15:10.64	18.98	16.22	-37.6	-39.4	16.0	0.00e+00	0	56	0	1060110336	46	4511
2026-01-07 08:15:13.67	18.40	16.05	-37.7	-39.4	16.0	0.00e+00	0	56	0	1069547520	46	4510
2026-01-07 08:15:16.70	17.84	15.88	-37.8	-39.5	15.8	0.00e+00	0	56	0	1080033280	46	4594
2026-01-07 08:15:19.73	17.28	15.71	-37.9	-39.7	15.6	0.00e+00	0	56	0	1088421888	46	4685
2026-01-07 08:15:22.76	16.72	15.53	-37.9	-39.7	15.6	0.00e+00	0	56	0	1098907648	46	4672
2026-01-07 08:15:25.79	16.17	15.36	-37.9	-39.7	15.5	0.00e+00	0	56	0	1108344832	46	4683
2026-01-07 08:15:28.83	15.63	15.18	-37.7	-39.5	15.8	7.00e-07	0	56	0	1117782016	46	4580
2026-01-07 08:15:31.86	15.09	15.00	-37.7	-39.4	15.9	0.00e+00	0	56	0	1127219200	46	4527
2026-01-07 08:15:34.89	14.57	14.82	-37.5	-39.2	16.0	0.00e+00	0	56	0	1136656384	46	4435
2026-01-07 08:15:37.92	14.04	14.64	-37.7	-39.4	15.8	0.00e+00	0	56	0	1146093568	46	4544
2026-01-07 08:15:40.95	13.53	14.46	-38.1	-39.9	15.4	0.00e+00	0	56	0	1155530752	46	4809
2026-01-07 08:15:43.98	13.02	14.27	-37.9	-39.8	15.5	0.00e+00	0	56	0	1164967936	46	4743
2026-01-07 08:15:47.01	12.52	14.09	-37.8	-39.6	15.7	0.00e+00	0	56	0	1174405120	46	4628
2026-01-07 08:15:50.04	12.02	13.91	-37.6	-39.3	15.9	0.00e+00	0	56	0	1183842304	46	4486
2026-01-07 08:15:53.07	11.53	13.72	-37.9	-39.8	15.4	0.00e+00	0	56	0	1193279488	46	4718
2026-01-07 08:15:56.10	11.04	13.53	-38.0	-40.0	15.1	0.00e+00	0	56	0	1202716672	46	4821
2026-01-07 08:15:59.13	10.57	13.35	-37.8	-39.7	15.2	0.00e+00	0	56	0	1212153856	46	4700
2026-01-07 08:16:02.16	10.09	13.16	-37.5	-39.4	15.4	0.00e+00	0	56	0	1221591040	46	4498
2026-01-07 08:16:05.19	9.63	12.97	-37.7	-39.7	14.8	7.00e-07	0	56	0	1231028224	46	4702
2026-01-07 08:16:08.22	9.17	12.79	-37.8	-40.0	14.4	1.50e-06	0	56	0	1240465408	46	4819
2026-01-07 08:16:11.24	8.72	12.60	-37.8	-40.0	14.2	7.00e-07	0	56	0	1249902592	46	4830
2026-01-07 08:16:14.27	8.27	12.41	-37.6	-39.7	14.3	1.50e-06	0	56	0	1259339776	46	4696
2026-01-07 08:16:17.30	7.83	12.22	-37.4	-39.6	14.3	1.50e-06	0	56	0	1268776960	46	4617
2026-01-07 08:16:20.34	7.39	12.03	-38.0	-40.5	13.2	1.67e-05	0	56	0	1278214144	46	5131
2026-01-07 08:16:23.37	6.96	11.84	-39.2	-42.8	10.3	3.39e-03	0	56	0	1287651328	49	5640
2026-01-07 08:16:26.39	6.54	11.65	-40.1	-45.5	7.1	1.30e-01	0	56	0	1297088512	50	7227
2026-01-07 08:16:29.42	6.12	11.47	-40.6	-49.5	4.3	1.23e+00	0	56	104	1304428544	51	10798
2026-01-07 08:16:32.45	5.70	11.28	-40.3	-51.6	3.8	1.48e+00	0	56	104	1304428544	51	13811
2026-01-07 08:16:35.48	5.29	11.09	-40.2	-52.2	3.8	1.49e+00	0	56	104	1304428544	52	13934
2026-01-07 08:16:38.50	4.89	10.90	-40.0	-52.3	3.8	1.49e+00	0	56	104	1304428544	51	14988
2026-01-07 08:16:41.54	4.49	10.71	-40.0	-52.3	3.8	1.49e+00	0	56	104	1304428544	51	14941
2026-01-07 08:16:44.57	4.10	10.52	-40.1	-52.4	3.8	1.49e+00	0	56	104	1304428544	51	15059
2026-01-07 08:16:47.60	3.71	10.33	-40.1	-52.3	3.8	1.49e+00	0	56	104	1304428544	51	14971
2026-01-07 08:16:50.62	3.33	10.14	-40.1	-52.3	3.8	1.49e+00	0	57	104	1304428544	51	15026
2026-01-07 08:16:53.65	2.96	9.95	-39.9	-52.2	3.8	1.49e+00	0	56	104	1304428544	51	14849
2026-01-07 08:16:56.68	2.58	9.77	-39.9	-52.2	3.8	1.49e+00	0	56	104	1304428544	51	14747
2026-01-07 08:16:59.71	2.22	9.58	-39.9	-52.2	3.8	1.49e+00	0	56	104	1304428544	51	14742
2026-01-07 08:17:02.74	1.85	9.39	-39.7	-52.2	3.8	1.49e+00	0	57	104	1304428544	51	14765
2026-01-07 08:17:05.78	1.50	9.20	-39.9	-52.2	3.8	1.49e+00	0	56	104	1304428544	51	14740
2026-01-07 08:17:08.80	1.14	9.02	-39.8	-52.2	3.8	1.49e+00	0	56	104	1304428544	51	14740
2026-01-07 08:17:11.83	0.80	8.83	-39.7	-52.1	3.8	1.49e+00	0	57	104	1304428544	51	14652
2026-01-07 08:17:14.86	0.45	8.64	-39.7	-52.2	3.8	1.49e+00	0	57	104	1304428544	51	14790
2026-01-07 08:17:17.89	0.11	8.46	-39.6	-52.1	3.8	1.49e+00	0	57	104	1304428544	51	14625
2026-01-07 08:17:20.92	359.78	8.27	-39.4	-52.1	3.8	1.49e+00	0	57	104	1304428544	50	15496
2026-01-07 08:17:23.95	359.45	8.09	-39.5	-52.1	3.8	1.49e+00	0	57	104	1304428544	50	15463
2026-01-07 08:17:26.98	359.12	7.90	-44.2	-56.5	3.8	1.49e+00	0	57	104	1304428544	58	16205
2026-01-07 08:17:30.01	358.80	7.72	-45.0	-57.5	3.8	1.49e+00	0	57	104	1304428544	60	16274
2026-01-07 08:17:33.04	358.48	7.53	-45.2	-57.7	3.8	1.49e+00	0	57	104	1304428544	61	15721
2026-01-07 08:17:36.07	358.17	7.35	-45.2	-57.7	3.8	1.49e+00	0	57	104	1304428544	60	16661
2026-01-07 08:17:39.11	357.86	7.17	-45.1	-57.6	3.8	1.49e+00	0	57	104	1304428544	60	16482
2026-01-07 08:17:42.14	357.55	6.98	-45.0	-57.6	3.8	1.49e+00	0	57	104	1304428544	60	16390
2026-01-07 08:17:45.17	357.25	6.80	-45.0	-57.6	3.8	1.49e+00	0	57	104	1304428544	60	16400
2026-01-07 08:17:48.21	356.95	6.62	-45.0	-57.6	3.8	1.49e+00	0	57	104	1304428544	60	16427
2026-01-07 08:17:51.24	356.66	6.44	-45.0	-57.6	3.8	1.49e+00	0	57	104	1304428544	60	16320
2026-01-07 08:17:54.27	356.37	6.26	-45.0	-57.6	3.8	1.49e+00	0	57	104	1304428544	60	16388
2026-01-07 08:17:57.31	356.08	6.08	-45.0	-57.6	3.8	1.49e+00	0	57	104	1304428544	60	16364
2026-01-07 08:18:00.34	355.80	5.90	-45.0	-57.6	3.8	1.49e+00	0	57	104	1304428544	60	16362
2026-01-07 08:18:03.36	355.52	5.72	-45.0	-57.6	3.8	1.49e+00	0	57	104	1304428544	60	16390
2026-01-07 08:18:06.40	355.24	5.55	-45.0	-57.6	3.8	1.49e+00	0	57	104	1304428544	60	16319
2026-01-07 08:18:09.43	354.97	5.37	-45.0	-57.5	3.8	1.49e+00	0	57	104	1304428544	60	16286
2026-01-07 08:18:12.46	354.70	5.19	-45.0	-57.6	3.8	1.49e+00	0	57	104	1304428544	60	16349
2026-01-07 08:18:15.49	354.44	5.02	-44.9	-57.6	3.8	1.49e+00	0	57	104	1304428544	60	16361
2026-01-07 08:18:18.52	354.17	4.84	-44.9	-57.5	3.8	1.49e+00	0	57	104	1304428544	60	16314
2026-01-07 08:18:21.56	353.91	4.66	-44.9	-57.5	3.8	1.49e+00	0	57	104	1304428544	60	16308
2026-01-07 08:18:24.59	353.66	4.49	-45.0	-57.5	3.8	1.49e+00	0	57	104	1304428544	60	16307
2026-01-07 08:18:27.62	353.41	4.32	-44.9	-57.6	3.8	1.49e+00	0	57	104	1304428544	60	16328
2026-01-07 08:18:30.65	353.16	4.14	-44.9	-57.5	3.8	1.49e+00	0	57	104	1304428544	60	16290
2026-01-07 08:18:33.69	352.91	3.97	-44.9	-57.5	3.8	1.49e+00	0	57	104	1304428544	60	16283
2026-01-07 08:18:36.72	352.67	3.80	-44.9	-57.6	3.8	1.49e+00	0	57	104	1304428544	60	16330
2026-01-07 08:18:39.75	352.43	3.63	-44.9	-57.5	3.8	1.49e+00	0	57	104	1304428544	60	16279
2026-01-07 08:18:42.78	352.19	3.46	-44.9	-57.5	3.8	1.49e+00	0	57	104	1304428544	60	16266
2026-01-07 08:18:45.82	351.95	3.28	-44.9	-57.5	3.8	1.49e+00	0	57	104	1304428544	60	16306
2026-01-07 08:18:48.85	351.72	3.12	-44.9	-57.5	3.8	1.49e+00	0	57	104	1304428544	60	16234
2026-01-07 08:18:51.88	351.49	2.95	-44.9	-57.5	3.8	1.49e+00	0	57	104	1304428544	60	16260
2026-01-07 08:18:54.91	351.27	2.78	-44.9	-57.5	3.8	1.49e+00	0	57	104	1304428544	60	16291
2026-01-07 08:18:57.95	351.04	2.61	-44.9	-57.5	3.8	1.49e+00	0	57	104	1304428544	60	16291
2026-01-07 08:19:00.98	350.82	2.44	-44.9	-57.5	3.8	1.49e+00	0	57	104	1304428544	60	16259
2026-01-07 08:19:04.01	350.60	2.28	-44.9	-57.5	3.8	1.49e+00	0	57	104	1304428544	60	16272
2026-01-07 08:19:07.05	350.39	2.11	-44.9	-57.5	3.8	1.49e+00	0	57	104	1304428544	60	16256
2026-01-07 08:19:10.08	350.17	1.94	-44.9	-57.5	3.8	1.49e+00	0	57	104	1304428544	60	16263

#Closed at: 2026-01-07 08:19:10
#Recorded file [1304 MB]: D:/lorett/data/31039_260107_110653.dat