passes_logs/2026/01/07/R2.0S_Moscow/R2.0S_Moscow__20260107_020055_FENGYUN_3G_rec.log

#Pass ID: 20260107_020055_FENGYUN 3G
#Satellite: FENGYUN 3G
#Configuration: FENGYUN 3G
#almurnet v.1.7.20251203
#Start time: 2026-01-07 02:00:55

#Version: 2.2.20231116
#Station: R2.0S_Moscow
#Location: 37.707566 lon 55.798166 lat
#TLE: 1 56232U 23055A   26005.65670112  .00041871  00000+0  66206-3 0  9997
#TLE: 2 56232  49.9942 104.1198 0004242 344.1257  15.9577 15.52986726154745

#Time	Az	El	Level	Level2	SNR	BER	BlckErr	Temp	State	Recorded	gain1	gain2
2026-01-07 02:00:55.25	241.31	2.01	-43.8	-62.0	3.8	8.46e-01	0	47	0	0	59	28964
2026-01-07 02:00:58.27	241.11	2.21	-43.8	-62.0	3.8	8.46e-01	0	47	104	0	59	28765
2026-01-07 02:01:01.30	240.90	2.41	-43.8	-62.1	3.8	8.47e-01	0	47	104	0	59	29100
2026-01-07 02:01:04.34	240.69	2.61	-43.8	-62.0	3.8	8.46e-01	0	47	104	0	59	28937
2026-01-07 02:01:07.37	240.48	2.82	-43.8	-61.9	3.8	8.46e-01	0	48	104	0	59	28563
2026-01-07 02:01:10.40	240.27	3.02	-43.8	-62.0	3.8	8.46e-01	0	48	104	0	59	28713
2026-01-07 02:01:13.43	240.04	3.23	-43.8	-62.0	3.8	8.46e-01	0	48	104	0	59	28748
2026-01-07 02:01:16.47	239.82	3.44	-43.8	-62.1	3.8	8.46e-01	0	48	104	0	59	29027
2026-01-07 02:01:19.50	239.59	3.65	-43.8	-62.1	3.8	8.46e-01	0	48	104	0	59	29056
2026-01-07 02:01:22.53	239.35	3.86	-43.8	-62.1	3.8	8.46e-01	0	49	104	0	59	29078
2026-01-07 02:01:25.57	239.11	4.08	-43.8	-62.1	3.8	8.46e-01	0	49	104	0	59	29136
2026-01-07 02:01:28.60	238.86	4.30	-43.8	-62.0	3.8	8.46e-01	0	49	104	0	59	28883
2026-01-07 02:01:31.63	238.61	4.52	-43.7	-61.8	3.8	8.46e-01	0	49	104	0	59	28085
2026-01-07 02:01:34.67	238.35	4.74	-43.7	-61.6	3.8	8.47e-01	0	49	104	0	59	27462
2026-01-07 02:01:37.70	238.09	4.97	-43.7	-61.6	3.8	8.45e-01	0	50	104	0	59	27700
2026-01-07 02:01:40.74	237.82	5.20	-43.7	-61.0	3.8	8.46e-01	0	50	104	0	59	25802
2026-01-07 02:01:43.77	237.55	5.43	-43.7	-59.8	3.8	8.45e-01	0	50	104	0	59	22325
2026-01-07 02:01:46.80	237.27	5.66	-43.7	-59.3	3.8	8.44e-01	0	50	104	0	59	21236
2026-01-07 02:01:49.83	236.98	5.90	-43.7	-59.0	4.0	8.44e-01	0	50	104	0	59	20410
2026-01-07 02:01:52.87	236.68	6.13	-43.7	-59.7	3.8	8.44e-01	0	50	104	0	59	22111
2026-01-07 02:01:55.90	236.38	6.38	-43.6	-58.4	4.2	8.42e-01	0	50	0	0	59	19046
2026-01-07 02:01:58.93	236.07	6.62	-43.6	-56.7	4.9	8.19e-01	0	50	0	0	59	15757
2026-01-07 02:02:01.97	235.75	6.87	-43.5	-56.3	5.1	7.48e-01	0	51	0	0	59	14979
2026-01-07 02:02:05.00	235.43	7.12	-43.7	-59.8	3.8	7.96e-01	0	51	104	0	59	22469
2026-01-07 02:02:08.03	235.10	7.37	-43.3	-53.8	6.8	8.44e-01	0	51	0	0	58	11939
2026-01-07 02:02:11.06	234.76	7.62	-41.4	-46.5	14.4	9.84e-05	0	51	0	3670016	54	6423
2026-01-07 02:02:14.09	234.41	7.88	-39.6	-42.8	18.2	0.00e+00	0	51	0	6815744	51	5017
2026-01-07 02:02:17.12	234.05	8.15	-41.3	-46.0	15.0	0.00e+00	0	51	0	10485760	53	6428
2026-01-07 02:02:20.15	233.69	8.41	-39.8	-43.0	18.1	0.00e+00	0	51	0	14155776	50	5419
2026-01-07 02:02:23.18	233.31	8.68	-39.0	-41.8	19.3	1.11e-02	0	52	0	17301504	50	4735
2026-01-07 02:02:26.21	232.92	8.95	-38.4	-40.8	20.2	0.00e+00	0	52	0	20447232	48	4751
2026-01-07 02:02:29.23	232.53	9.23	-38.4	-40.9	20.3	0.00e+00	0	52	0	24117248	48	4762
2026-01-07 02:02:32.27	232.12	9.51	-38.4	-40.8	20.3	0.00e+00	0	52	0	27262976	48	4748
2026-01-07 02:02:35.29	231.71	9.79	-38.1	-40.5	20.7	0.00e+00	0	52	0	30932992	48	4576
2026-01-07 02:02:38.32	231.28	10.08	-38.3	-40.7	20.5	0.00e+00	0	52	0	34078720	48	4704
2026-01-07 02:02:41.35	230.84	10.37	-38.1	-40.5	20.8	0.00e+00	0	52	0	37748736	47	4816
2026-01-07 02:02:44.38	230.39	10.66	-37.7	-40.0	21.3	0.00e+00	0	52	0	40894464	47	4564
2026-01-07 02:02:47.41	229.92	10.96	-37.3	-39.4	21.8	0.00e+00	0	52	0	44564480	46	4543
2026-01-07 02:02:50.44	229.44	11.27	-37.7	-39.9	21.4	0.00e+00	0	52	0	47710208	46	4796
2026-01-07 02:02:53.47	228.95	11.57	-37.6	-39.8	21.6	0.00e+00	0	52	0	51380224	46	4718
2026-01-07 02:02:56.50	228.45	11.88	-37.1	-39.1	22.1	0.00e+00	0	53	0	54525952	46	4388
2026-01-07 02:02:59.53	227.93	12.20	-37.0	-39.0	22.3	0.00e+00	0	53	0	58195968	46	4332
2026-01-07 02:03:02.56	227.39	12.52	-37.4	-39.5	21.9	0.00e+00	0	52	0	61341696	46	4546
2026-01-07 02:03:05.59	226.84	12.84	-37.2	-39.3	22.1	0.00e+00	0	53	0	65011712	46	4452
2026-01-07 02:03:08.62	226.28	13.17	-36.9	-38.9	22.5	0.00e+00	0	53	0	68157440	45	4529
2026-01-07 02:03:11.64	225.70	13.50	-37.3	-39.4	22.1	0.00e+00	0	53	0	71827456	45	4762
2026-01-07 02:03:14.67	225.10	13.83	-37.1	-39.2	22.3	0.00e+00	0	53	0	74973184	45	4653
2026-01-07 02:03:17.71	224.48	14.18	-36.6	-38.4	23.0	0.00e+00	0	53	0	78643200	45	4266
2026-01-07 02:03:20.74	223.84	14.52	-36.1	-37.9	23.6	0.00e+00	0	53	0	81788928	44	4254
2026-01-07 02:03:23.77	223.18	14.87	-36.4	-38.2	23.3	0.00e+00	0	53	0	85458944	44	4419
2026-01-07 02:03:26.80	222.51	15.22	-36.0	-37.7	23.8	0.00e+00	0	53	0	88604672	44	4190
2026-01-07 02:03:29.83	221.81	15.58	-36.3	-38.1	23.5	0.00e+00	0	53	0	92274688	44	4356
2026-01-07 02:03:32.86	221.09	15.94	-36.4	-38.3	23.3	0.00e+00	0	53	0	95420416	44	4445
2026-01-07 02:03:35.88	220.35	16.30	-36.1	-37.9	23.7	0.00e+00	0	53	0	99090432	44	4244
2026-01-07 02:03:38.91	219.59	16.67	-35.7	-37.4	24.0	0.00e+00	0	53	0	102236160	43	4266
2026-01-07 02:03:41.94	218.80	17.04	-35.5	-37.2	24.2	0.00e+00	0	53	0	105906176	42	4416
2026-01-07 02:03:44.97	217.99	17.42	-35.5	-37.2	24.2	0.00e+00	0	53	0	109051904	42	4433
2026-01-07 02:03:48.00	217.15	17.79	-35.2	-36.8	24.6	0.00e+00	0	53	0	112721920	42	4211
2026-01-07 02:03:51.03	216.29	18.18	-34.9	-36.4	25.0	0.00e+00	0	53	0	115867648	41	4284
2026-01-07 02:03:54.05	215.40	18.56	-35.1	-36.7	24.7	0.00e+00	0	53	0	119537664	41	4425
2026-01-07 02:03:57.08	214.48	18.94	-34.8	-36.3	25.1	0.00e+00	0	54	0	122683392	41	4230
2026-01-07 02:04:00.11	213.53	19.33	-34.9	-36.5	25.0	0.00e+00	0	53	0	126353408	41	4297
2026-01-07 02:04:03.14	212.55	19.72	-34.9	-36.4	25.1	0.00e+00	0	54	0	129499136	41	4272
2026-01-07 02:04:06.17	211.54	20.11	-34.8	-36.4	25.0	0.00e+00	0	54	0	133169152	41	4276
2026-01-07 02:04:09.20	210.50	20.50	-35.0	-36.6	24.9	0.00e+00	0	54	0	136314880	41	4347
2026-01-07 02:04:12.23	209.43	20.88	-34.7	-36.2	25.3	0.00e+00	0	54	0	139984896	41	4171
2026-01-07 02:04:15.26	208.33	21.27	-34.6	-36.2	25.3	0.00e+00	0	54	0	143130624	41	4156
2026-01-07 02:04:18.29	207.19	21.66	-34.6	-36.1	25.3	0.00e+00	0	54	0	146800640	41	4141
2026-01-07 02:04:21.32	206.01	22.04	-34.6	-36.2	25.4	0.00e+00	0	54	0	149946368	40	4392
2026-01-07 02:04:24.35	204.81	22.42	-34.1	-35.6	25.9	0.00e+00	0	54	0	153616384	40	4129
2026-01-07 02:04:27.38	203.57	22.79	-34.3	-35.8	25.7	0.00e+00	0	54	0	156762112	40	4198
2026-01-07 02:04:30.41	202.29	23.16	-34.2	-35.7	25.8	0.00e+00	0	54	0	160432128	40	4187
2026-01-07 02:04:33.43	200.98	23.52	-34.4	-35.9	25.6	0.00e+00	0	54	0	163577856	40	4280
2026-01-07 02:04:36.46	199.63	23.87	-34.2	-35.7	25.8	0.00e+00	0	54	0	167247872	40	4162
2026-01-07 02:04:39.49	198.25	24.22	-33.9	-35.4	26.1	0.00e+00	0	54	0	170393600	39	4270
2026-01-07 02:04:42.52	196.83	24.55	-34.0	-35.4	26.1	0.00e+00	0	54	0	174063616	39	4279
2026-01-07 02:04:45.55	195.38	24.88	-33.8	-35.2	26.4	0.00e+00	0	54	0	177209344	39	4189
2026-01-07 02:04:48.58	193.89	25.19	-33.9	-35.3	26.3	0.00e+00	0	54	0	180879360	39	4241
2026-01-07 02:04:51.61	192.37	25.48	-33.8	-35.3	26.4	0.00e+00	0	54	0	184025088	39	4208
2026-01-07 02:04:54.64	190.81	25.76	-33.3	-34.7	26.8	0.00e+00	0	54	0	187695104	38	4182
2026-01-07 02:04:57.67	189.23	26.02	-33.3	-34.7	26.8	0.00e+00	0	54	0	190840832	38	4168
2026-01-07 02:05:00.70	187.62	26.26	-32.9	-34.3	27.1	0.00e+00	0	54	0	194510848	37	4203
2026-01-07 02:05:03.73	185.98	26.49	-33.3	-34.7	26.8	0.00e+00	0	54	0	197656576	37	4400
2026-01-07 02:05:06.76	184.31	26.69	-33.4	-34.8	26.8	0.00e+00	0	54	0	201326592	37	4445
2026-01-07 02:05:09.79	182.63	26.87	-33.8	-35.2	26.4	0.00e+00	0	55	0	204472320	38	4428
2026-01-07 02:05:12.82	180.92	27.03	-33.5	-34.9	26.7	0.00e+00	0	54	0	208142336	38	4260
2026-01-07 02:05:15.84	179.20	27.16	-33.7	-35.1	26.5	0.00e+00	0	54	0	211288064	38	4349
2026-01-07 02:05:18.87	177.46	27.27	-33.2	-34.5	27.1	0.00e+00	0	54	0	214958080	38	4089
2026-01-07 02:05:21.90	175.70	27.35	-33.8	-35.2	26.4	0.00e+00	0	55	0	218103808	38	4433
2026-01-07 02:05:24.93	173.94	27.41	-33.4	-34.8	26.8	0.00e+00	0	55	0	221773824	38	4218
2026-01-07 02:05:27.96	172.18	27.43	-33.6	-35.0	26.6	0.00e+00	0	55	0	224919552	38	4310
2026-01-07 02:05:30.99	170.41	27.44	-33.3	-34.7	26.9	0.00e+00	0	55	0	228589568	38	4180
2026-01-07 02:05:34.02	168.64	27.41	-33.6	-35.0	26.7	0.00e+00	0	55	0	231735296	38	4321
2026-01-07 02:05:37.05	166.88	27.36	-33.8	-35.2	26.6	0.00e+00	0	55	0	235405312	38	4432
2026-01-07 02:05:40.07	165.13	27.28	-33.8	-35.3	26.4	0.00e+00	0	55	0	238551040	38	4465
2026-01-07 02:05:43.10	163.39	27.18	-33.7	-35.1	26.6	0.00e+00	0	54	0	242221056	38	4377
2026-01-07 02:05:46.13	161.66	27.05	-33.6	-35.1	26.7	0.00e+00	0	55	0	245366784	38	4350
2026-01-07 02:05:49.16	159.95	26.90	-33.9	-35.3	26.4	0.00e+00	0	55	0	249036800	38	4483
2026-01-07 02:05:52.19	158.27	26.72	-33.7	-35.2	26.5	0.00e+00	0	55	0	252182528	38	4392
2026-01-07 02:05:55.22	156.60	26.52	-33.5	-34.9	26.8	0.00e+00	0	55	0	255852544	38	4287
2026-01-07 02:05:58.25	154.96	26.30	-33.5	-34.9	26.7	0.00e+00	0	55	0	258998272	38	4279
2026-01-07 02:06:01.28	153.34	26.06	-33.6	-35.1	26.6	0.00e+00	0	55	0	262668288	38	4347
2026-01-07 02:06:04.31	151.76	25.80	-33.6	-35.0	26.7	0.00e+00	0	55	0	265814016	38	4306
2026-01-07 02:06:07.34	150.20	25.53	-33.8	-35.2	26.4	0.00e+00	0	55	0	269484032	38	4419
2026-01-07 02:06:10.37	148.68	25.23	-34.1	-35.6	26.0	0.00e+00	0	55	0	272629760	39	4380
2026-01-07 02:06:13.40	147.19	24.93	-33.8	-35.2	26.4	0.00e+00	0	55	0	276299776	39	4163
2026-01-07 02:06:16.43	145.73	24.61	-33.8	-35.2	26.4	0.00e+00	0	55	0	279445504	38	4415
2026-01-07 02:06:19.46	144.31	24.28	-34.0	-35.5	26.1	0.00e+00	0	55	0	283115520	38	4552
2026-01-07 02:06:22.48	142.93	23.93	-33.8	-35.3	26.3	0.00e+00	0	55	0	286261248	38	4455
2026-01-07 02:06:25.51	141.58	23.58	-33.6	-35.0	26.4	0.00e+00	0	55	0	289931264	38	4332
2026-01-07 02:06:28.54	140.26	23.22	-34.0	-35.5	26.0	0.00e+00	0	55	0	293076992	38	4555
2026-01-07 02:06:31.57	138.98	22.86	-33.9	-35.3	26.2	0.00e+00	0	55	0	296747008	38	4487
2026-01-07 02:06:34.60	137.74	22.49	-34.2	-35.7	25.8	0.00e+00	0	55	0	299892736	38	4688
2026-01-07 02:06:37.63	136.53	22.11	-34.4	-35.9	25.5	0.00e+00	0	55	0	303562752	39	4540
2026-01-07 02:06:40.66	135.35	21.73	-34.3	-35.8	25.7	0.00e+00	0	55	0	306708480	39	4471
2026-01-07 02:06:43.69	134.21	21.34	-34.8	-36.3	25.0	0.00e+00	0	55	0	310378496	40	4481
2026-01-07 02:06:46.71	133.11	20.96	-35.0	-36.6	24.8	0.00e+00	0	55	0	313524224	41	4356
2026-01-07 02:06:49.75	132.03	20.57	-34.5	-36.0	25.3	0.00e+00	0	55	0	317194240	40	4325
2026-01-07 02:06:52.78	130.99	20.18	-34.8	-36.4	25.0	0.00e+00	0	55	0	320339968	40	4499
2026-01-07 02:06:55.81	129.98	19.80	-34.8	-36.4	25.0	0.00e+00	0	55	0	324009984	40	4540
2026-01-07 02:06:58.83	129.00	19.41	-34.7	-36.3	25.1	0.00e+00	0	55	0	327155712	40	4466
2026-01-07 02:07:01.85	128.05	19.02	-34.8	-36.4	24.9	0.00e+00	0	55	0	330825728	40	4520
2026-01-07 02:07:04.88	127.13	18.64	-35.3	-37.0	24.3	0.00e+00	0	55	0	333971456	41	4566
2026-01-07 02:07:07.91	126.24	18.26	-34.9	-36.5	24.8	0.00e+00	0	55	0	337641472	41	4308
2026-01-07 02:07:10.94	125.37	17.88	-35.5	-37.2	24.1	0.00e+00	0	55	0	340787200	41	4682
2026-01-07 02:07:13.97	124.53	17.50	-35.2	-36.8	24.4	0.00e+00	0	55	0	344457216	41	4483
2026-01-07 02:07:17.00	123.72	17.13	-35.4	-37.1	24.2	0.00e+00	0	55	0	347602944	41	4607
2026-01-07 02:07:20.02	122.93	16.76	-35.6	-37.3	23.9	0.00e+00	0	55	0	351272960	41	4742
2026-01-07 02:07:23.05	122.17	16.39	-35.8	-37.6	23.7	0.00e+00	0	55	0	354418688	42	4604
2026-01-07 02:07:26.08	121.42	16.03	-35.9	-37.7	23.5	0.00e+00	0	55	0	358088704	42	4683
2026-01-07 02:07:29.11	120.70	15.67	-35.6	-37.4	23.7	0.00e+00	0	55	0	361234432	41	4814
2026-01-07 02:07:32.14	120.01	15.31	-36.5	-38.4	22.8	0.00e+00	0	55	0	364904448	43	4789
2026-01-07 02:07:35.16	119.33	14.96	-36.3	-38.2	23.0	0.00e+00	0	55	0	368050176	43	4661
2026-01-07 02:07:38.19	118.67	14.61	-36.2	-38.1	23.1	0.00e+00	0	55	0	371720192	43	4637
2026-01-07 02:07:41.22	118.03	14.27	-36.2	-38.2	23.0	0.00e+00	0	55	0	374865920	43	4659
2026-01-07 02:07:44.25	117.41	13.93	-36.8	-39.2	22.1	0.00e+00	0	55	0	378535936	44	4934
2026-01-07 02:07:47.28	116.81	13.59	-36.7	-39.2	22.0	1.10e-06	0	56	0	381681664	44	4948
2026-01-07 02:07:50.31	116.23	13.26	-36.3	-38.8	21.7	5.03e-05	0	56	0	385351680	43	4995
2026-01-07 02:07:53.33	115.66	12.93	-36.4	-38.9	21.7	3.40e-06	0	56	0	388497408	43	5080
2026-01-07 02:07:56.37	115.11	12.61	-36.7	-39.6	21.1	0.00e+00	0	55	0	392167424	44	5163
2026-01-07 02:07:59.40	114.58	12.29	-37.1	-39.8	21.2	9.10e-06	0	55	0	395313152	44	5281
2026-01-07 02:08:02.43	114.05	11.98	-37.2	-39.9	21.1	1.48e-03	0	56	0	398983168	45	5081
2026-01-07 02:08:05.45	113.55	11.67	-37.4	-39.8	21.1	0.00e+00	0	55	0	402128896	45	5004
2026-01-07 02:08:08.49	113.06	11.36	-37.8	-40.5	20.3	2.20e-06	0	55	0	405798912	46	5117
2026-01-07 02:08:11.52	112.58	11.06	-37.9	-40.7	20.1	2.20e-06	0	56	0	408944640	45	5551
2026-01-07 02:08:14.55	112.11	10.76	-37.5	-40.7	19.9	2.00e-04	0	56	0	412614656	45	5541
2026-01-07 02:08:17.57	111.66	10.46	-36.5	-39.1	21.1	1.01e-04	0	56	0	415760384	43	5208
2026-01-07 02:08:20.60	111.22	10.17	-39.6	-45.4	14.6	7.80e-04	0	56	0	419430400	50	7180
2026-01-07 02:08:23.63	110.79	9.89	-38.8	-42.9	17.3	2.09e-03	0	56	0	422576128	48	6021
2026-01-07 02:08:26.66	110.37	9.60	-36.6	-41.2	18.2	1.94e-05	0	55	0	426246144	43	6586
2026-01-07 02:08:29.69	109.97	9.32	-35.9	-41.5	17.8	1.21e-03	0	56	0	429391872	42	7249
2026-01-07 02:08:32.71	109.57	9.05	-37.9	-41.7	18.5	1.37e-04	0	56	0	433061888	46	5890
2026-01-07 02:08:35.74	109.19	8.78	-29.1	-40.3	16.1	6.82e-04	0	56	0	436207616	33	10535
2026-01-07 02:08:38.77	108.81	8.51	-31.9	-40.4	17.9	3.84e-04	0	56	0	439877632	39	7620
2026-01-07 02:08:41.80	108.44	8.24	-35.5	-40.7	18.1	6.06e-05	0	55	0	443023360	43	6272
2026-01-07 02:08:44.83	108.08	7.98	-43.4	-61.8	3.6	2.07e-03	0	56	104	446169088	57	31488
2026-01-07 02:08:47.86	107.73	7.72	-44.8	-63.0	3.8	8.46e-01	0	56	104	446169088	60	30681
2026-01-07 02:08:50.89	107.39	7.46	-45.4	-63.7	3.8	8.45e-01	0	56	104	446169088	61	31090
2026-01-07 02:08:53.93	107.06	7.21	-45.5	-63.8	3.8	8.47e-01	0	56	104	446169088	61	31642
2026-01-07 02:08:56.96	106.74	6.96	-45.3	-63.7	3.8	8.47e-01	0	56	104	446169088	61	31200
2026-01-07 02:08:59.99	106.42	6.71	-45.2	-63.7	3.8	8.46e-01	0	56	104	446169088	61	31112
2026-01-07 02:09:03.02	106.11	6.47	-45.1	-63.6	3.8	8.47e-01	0	56	104	446169088	61	30766
2026-01-07 02:09:06.06	105.81	6.23	-45.1	-63.5	3.8	8.46e-01	0	56	104	446169088	61	30610
2026-01-07 02:09:09.09	105.51	5.99	-45.0	-63.5	3.8	8.46e-01	0	56	104	446169088	61	30601
2026-01-07 02:09:12.12	105.23	5.76	-45.0	-63.5	3.8	8.47e-01	0	56	104	446169088	61	30545
2026-01-07 02:09:15.15	104.94	5.52	-45.0	-63.4	3.8	8.46e-01	0	56	104	446169088	61	30362
2026-01-07 02:09:18.19	104.67	5.29	-45.0	-63.5	3.8	8.45e-01	0	56	104	446169088	61	30471
2026-01-07 02:09:21.22	104.40	5.06	-45.0	-63.5	3.8	8.47e-01	0	56	104	446169088	61	30520
2026-01-07 02:09:24.25	104.14	4.84	-45.0	-63.5	3.8	8.47e-01	0	56	104	446169088	60	32203
2026-01-07 02:09:27.28	103.88	4.62	-45.0	-63.5	3.8	8.47e-01	0	56	104	446169088	60	32189
2026-01-07 02:09:30.31	103.63	4.40	-45.0	-63.5	3.8	8.45e-01	0	56	104	446169088	60	32210
2026-01-07 02:09:33.34	103.38	4.18	-45.0	-63.4	3.8	8.46e-01	0	56	104	446169088	60	32152
2026-01-07 02:09:36.38	103.14	3.96	-45.0	-63.4	3.8	8.46e-01	0	56	104	446169088	60	32120
2026-01-07 02:09:39.41	102.90	3.75	-45.0	-63.5	3.8	8.46e-01	0	56	104	446169088	60	32257
2026-01-07 02:09:42.44	102.67	3.54	-45.0	-63.4	3.8	8.47e-01	0	56	104	446169088	60	32137
2026-01-07 02:09:45.47	102.45	3.33	-45.0	-63.4	3.8	8.46e-01	0	56	104	446169088	60	32125
2026-01-07 02:09:48.51	102.23	3.12	-45.0	-63.4	3.8	8.47e-01	0	56	104	446169088	60	32133
2026-01-07 02:09:51.54	102.01	2.91	-45.0	-63.4	3.8	8.45e-01	0	56	104	446169088	60	32172
2026-01-07 02:09:54.57	101.80	2.71	-45.0	-63.5	3.8	8.48e-01	0	56	104	446169088	60	32249
2026-01-07 02:09:57.61	101.59	2.51	-45.0	-63.4	3.8	8.45e-01	0	56	104	446169088	60	32142
2026-01-07 02:10:00.64	101.38	2.31	-45.0	-63.4	3.8	8.46e-01	0	56	104	446169088	60	32149
2026-01-07 02:10:03.67	101.18	2.11	-45.0	-63.5	3.8	8.46e-01	0	56	104	446169088	60	32232

#Closed at: 2026-01-07 02:10:05
#Recorded file [446 MB]: D:/lorett/data/31039_260107_050055.dat