passes_logs/2026/01/07/R2.0S_Moscow/R2.0S_Moscow__20260107_130224_FENGYUN_3E_rec.log

#Pass ID: 20260107_130224_FENGYUN 3E
#Satellite: FENGYUN 3E
#Configuration: FENGYUN 3E
#almurnet v.1.7.20251203
#Start time: 2026-01-07 13:10:06

#Version: 2.2.20231116
#Station: R2.0S_Moscow
#Location: 37.707566 lon 55.798166 lat
#TLE: 1 49008U 21062A   26006.26767912  .00000427  00000+0  22170-3 0  9993
#TLE: 2 49008  98.7475  11.4982 0001602 156.1158 204.0093 14.19885456233607

#Time	Az	El	Level	Level2	SNR	BER	BlckErr	Temp	State	Recorded	gain1	gain2
2026-01-07 13:10:06.49	36.23	30.80	-45.0	-56.8	3.8	8.46e-01	0	57	0	0	60	15045
2026-01-07 13:10:08.50	35.58	30.66	-45.8	-56.7	3.8	8.46e-01	0	57	104	0	62	12506
2026-01-07 13:10:10.52	34.92	30.51	-45.7	-56.6	3.8	8.45e-01	0	57	104	0	62	12364
2026-01-07 13:10:12.54	34.28	30.35	-45.5	-56.5	3.8	8.46e-01	0	57	104	0	62	12169
2026-01-07 13:10:14.56	33.64	30.20	-45.5	-56.6	3.8	8.47e-01	0	57	104	0	62	12250
2026-01-07 13:10:16.59	33.00	30.04	-45.5	-56.5	3.8	8.46e-01	0	57	104	0	61	12959
2026-01-07 13:10:18.61	32.38	29.88	-45.4	-56.5	3.8	8.46e-01	0	57	104	0	61	12922
2026-01-07 13:10:20.63	31.76	29.71	-45.4	-56.3	3.8	8.46e-01	0	57	104	0	61	12569
2026-01-07 13:10:22.65	31.14	29.54	-45.4	-56.0	3.8	8.46e-01	0	57	104	0	61	12208
2026-01-07 13:10:24.67	30.53	29.37	-45.4	-56.0	3.8	8.46e-01	0	57	104	0	61	12214
2026-01-07 13:10:26.70	29.93	29.20	-45.4	-56.2	3.8	8.47e-01	0	57	104	0	61	12411
2026-01-07 13:10:28.72	29.34	29.02	-45.4	-56.2	3.8	8.46e-01	0	57	104	0	61	12460
2026-01-07 13:10:30.74	28.75	28.85	-45.4	-56.4	3.8	8.46e-01	0	57	104	0	61	12797
2026-01-07 13:10:32.76	28.17	28.67	-45.4	-56.5	3.8	8.47e-01	0	57	104	0	61	12850
2026-01-07 13:10:34.78	27.59	28.49	-45.4	-56.5	3.8	8.46e-01	0	57	104	0	61	12870
2026-01-07 13:10:36.80	27.02	28.30	-45.4	-56.3	3.8	8.46e-01	0	57	104	0	61	12617
2026-01-07 13:10:38.82	26.46	28.12	-45.4	-56.2	3.8	8.45e-01	0	57	104	0	61	12379
2026-01-07 13:10:40.85	25.91	27.93	-45.4	-56.3	3.8	8.47e-01	0	57	104	0	61	12648
2026-01-07 13:10:42.87	25.36	27.74	-45.4	-56.4	3.8	8.45e-01	0	57	104	0	61	12806
2026-01-07 13:10:44.89	24.82	27.55	-45.3	-55.5	3.8	8.46e-01	0	57	104	0	61	11536
2026-01-07 13:10:46.91	24.28	27.36	-45.2	-55.1	3.8	8.46e-01	0	57	104	0	61	10927
2026-01-07 13:10:48.93	23.75	27.16	-45.1	-53.9	3.9	8.45e-01	0	57	104	0	61	9593
2026-01-07 13:10:50.96	23.23	26.97	-44.5	-51.0	4.9	7.98e-01	0	57	0	0	60	7276
2026-01-07 13:10:52.98	22.71	26.77	-44.4	-50.2	5.3	7.46e-01	0	57	0	0	59	7020
2026-01-07 13:10:55.00	22.20	26.57	-42.5	-45.8	9.2	5.38e-02	0	57	0	10485760	56	4986
2026-01-07 13:10:57.03	21.70	26.37	-38.5	-40.1	15.1	1.10e-06	0	57	0	24117248	48	4138
2026-01-07 13:10:59.05	21.20	26.18	-35.3	-36.4	18.4	0.00e+00	0	57	0	39845888	41	4043
2026-01-07 13:11:01.07	20.71	25.98	-35.2	-36.3	18.6	0.00e+00	0	57	0	53477376	40	4231
2026-01-07 13:11:03.09	20.23	25.78	-36.8	-38.2	16.7	0.00e+00	0	57	0	68157440	43	4410
2026-01-07 13:11:05.11	19.75	25.57	-42.7	-46.2	8.6	1.61e-02	0	57	0	82837504	55	5565
2026-01-07 13:11:07.13	19.28	25.37	-34.9	-36.0	18.8	0.00e+00	0	57	0	97517568	40	4094
2026-01-07 13:11:09.15	18.81	25.17	-34.6	-35.7	19.1	0.00e+00	0	57	0	112197632	40	3943
2026-01-07 13:11:11.17	18.35	24.97	-34.5	-35.6	19.3	2.20e-06	0	57	0	126877696	39	4107
2026-01-07 13:11:13.19	17.90	24.76	-34.3	-35.4	19.5	0.00e+00	0	57	0	141557760	39	4017
2026-01-07 13:11:15.21	17.45	24.56	-34.2	-35.3	19.5	1.10e-06	0	57	0	156237824	39	3973
2026-01-07 13:11:17.23	17.01	24.35	-34.2	-35.3	19.4	1.10e-06	0	57	0	170917888	39	3974
2026-01-07 13:11:19.24	16.57	24.15	-34.4	-35.5	19.3	0.00e+00	0	57	0	185597952	39	4064
2026-01-07 13:11:21.27	16.14	23.95	-34.4	-35.5	19.3	0.00e+00	0	57	0	199229440	39	4055
2026-01-07 13:11:23.28	15.72	23.74	-34.3	-35.4	19.4	0.00e+00	0	57	0	213909504	39	4033
2026-01-07 13:11:25.30	15.30	23.54	-34.2	-35.3	19.5	0.00e+00	0	57	0	228589568	39	3965
2026-01-07 13:11:27.32	14.89	23.33	-34.2	-35.3	19.5	0.00e+00	0	57	0	243269632	39	3969
2026-01-07 13:11:29.35	14.48	23.13	-34.3	-35.4	19.4	0.00e+00	0	57	0	257949696	39	4027
2026-01-07 13:11:31.36	14.08	22.92	-34.4	-35.5	19.3	0.00e+00	0	57	0	272629760	39	4085
2026-01-07 13:11:33.39	13.68	22.72	-34.5	-35.6	19.2	0.00e+00	0	57	0	287309824	39	4129
2026-01-07 13:11:35.40	13.29	22.51	-34.7	-35.8	19.0	0.00e+00	0	57	0	301989888	39	4209
2026-01-07 13:11:37.42	12.90	22.31	-34.7	-35.9	18.9	0.00e+00	0	57	0	316669952	39	4245
2026-01-07 13:11:39.44	12.52	22.11	-34.9	-36.0	18.7	0.00e+00	0	57	0	331350016	39	4337
2026-01-07 13:11:41.46	12.14	21.90	-35.0	-36.1	18.6	0.00e+00	0	57	0	344981504	39	4383
2026-01-07 13:11:43.48	11.77	21.70	-35.0	-36.2	18.6	0.00e+00	0	57	0	359661568	39	4397
2026-01-07 13:11:45.50	11.40	21.50	-34.9	-36.0	18.7	0.00e+00	0	57	0	374341632	39	4326
2026-01-07 13:11:47.52	11.04	21.29	-34.7	-35.9	18.9	0.00e+00	0	57	0	389021696	39	4245
2026-01-07 13:11:49.54	10.68	21.09	-34.9	-36.0	18.7	0.00e+00	0	57	0	403701760	39	4338
2026-01-07 13:11:51.56	10.33	20.89	-35.1	-36.3	18.5	0.00e+00	0	57	0	418381824	39	4451
2026-01-07 13:11:53.58	9.98	20.69	-35.0	-36.2	18.5	0.00e+00	0	57	0	433061888	39	4410
2026-01-07 13:11:55.60	9.64	20.49	-35.0	-36.1	18.6	0.00e+00	0	57	0	447741952	39	4372
2026-01-07 13:11:57.62	9.30	20.29	-34.8	-35.9	18.8	0.00e+00	0	57	0	462422016	39	4270
2026-01-07 13:11:59.63	8.97	20.09	-34.9	-36.0	18.7	0.00e+00	0	57	0	476053504	39	4311
2026-01-07 13:12:01.64	8.64	19.89	-35.1	-36.3	18.3	0.00e+00	0	57	0	490733568	39	4470
2026-01-07 13:12:03.65	8.32	19.69	-35.5	-36.7	17.7	0.00e+00	0	57	0	505413632	40	4434
2026-01-07 13:12:05.67	8.00	19.49	-35.5	-36.8	17.8	0.00e+00	0	57	0	520093696	40	4449
2026-01-07 13:12:07.69	7.68	19.30	-35.5	-36.8	17.8	0.00e+00	0	57	0	534773760	40	4444
2026-01-07 13:12:09.71	7.37	19.10	-35.3	-36.5	18.0	0.00e+00	0	57	0	549453824	40	4338
2026-01-07 13:12:11.73	7.06	18.90	-35.3	-36.5	18.0	0.00e+00	0	57	0	564133888	40	4336
2026-01-07 13:12:13.75	6.75	18.71	-35.3	-36.5	18.0	0.00e+00	0	57	0	578813952	40	4309
2026-01-07 13:12:15.78	6.45	18.51	-35.3	-36.5	17.9	0.00e+00	0	57	0	593494016	40	4317
2026-01-07 13:12:17.80	6.15	18.32	-35.4	-36.7	17.8	0.00e+00	0	57	0	608174080	40	4407
2026-01-07 13:12:19.81	5.86	18.13	-35.6	-36.9	17.5	0.00e+00	0	57	0	621805568	40	4524
2026-01-07 13:12:21.83	5.57	17.94	-35.9	-37.2	17.2	0.00e+00	0	57	0	636485632	41	4421
2026-01-07 13:12:23.85	5.29	17.74	-36.2	-37.5	16.8	0.00e+00	0	57	0	651165696	41	4580
2026-01-07 13:12:25.87	5.01	17.55	-36.0	-37.4	17.0	0.00e+00	0	57	0	665845760	42	4247
2026-01-07 13:12:27.89	4.73	17.36	-36.0	-37.3	17.0	0.00e+00	0	57	0	680525824	42	4208
2026-01-07 13:12:29.91	4.45	17.17	-35.8	-37.0	17.2	0.00e+00	0	57	0	695205888	42	4087
2026-01-07 13:12:31.94	4.18	16.98	-35.6	-36.9	17.3	0.00e+00	0	57	0	709885952	42	4025
2026-01-07 13:12:33.95	3.91	16.80	-35.6	-36.8	17.3	0.00e+00	0	57	0	724566016	41	4231
2026-01-07 13:12:35.98	3.65	16.61	-35.7	-37.0	17.2	0.00e+00	0	57	0	739246080	41	4297
2026-01-07 13:12:37.99	3.39	16.42	-36.0	-37.3	16.8	0.00e+00	0	57	0	753926144	41	4461
2026-01-07 13:12:40.01	3.13	16.24	-36.0	-37.3	16.8	0.00e+00	0	57	0	768606208	41	4483
2026-01-07 13:12:42.04	2.88	16.05	-36.1	-37.5	16.6	0.00e+00	0	57	0	782237696	41	4551
2026-01-07 13:12:44.05	2.63	15.87	-36.1	-37.4	16.5	0.00e+00	0	57	0	796917760	42	4285
2026-01-07 13:12:46.07	2.38	15.69	-36.2	-37.6	16.3	0.00e+00	0	57	0	811597824	42	4354
2026-01-07 13:12:48.09	2.13	15.51	-35.9	-37.2	16.6	0.00e+00	0	57	0	826277888	42	4192
2026-01-07 13:12:50.11	1.89	15.32	-36.2	-37.7	16.0	0.00e+00	0	57	0	840957952	42	4399
2026-01-07 13:12:52.13	1.65	15.14	-35.9	-37.3	16.3	0.00e+00	0	57	0	855638016	42	4222
2026-01-07 13:12:54.15	1.42	14.96	-36.0	-37.5	15.9	0.00e+00	0	57	0	870318080	42	4308
2026-01-07 13:12:56.17	1.18	14.79	-35.8	-37.3	16.0	0.00e+00	0	57	0	884998144	42	4215
2026-01-07 13:12:58.19	0.95	14.61	-35.8	-37.3	16.0	0.00e+00	0	57	0	899678208	42	4208
2026-01-07 13:13:00.21	0.72	14.43	-35.9	-37.4	15.7	0.00e+00	0	57	0	914358272	42	4289
2026-01-07 13:13:02.23	0.50	14.25	-36.0	-37.5	15.6	0.00e+00	0	57	0	927989760	42	4318
2026-01-07 13:13:04.26	0.28	14.08	-35.7	-37.2	15.8	0.00e+00	0	57	0	942669824	42	4190
2026-01-07 13:13:06.27	0.06	13.90	-35.6	-37.1	15.5	0.00e+00	0	57	0	957349888	42	4138
2026-01-07 13:13:08.30	359.84	13.73	-36.0	-37.8	14.7	0.00e+00	0	57	0	972029952	42	4455
2026-01-07 13:13:10.32	359.63	13.56	-36.9	-39.1	13.0	2.51e-05	0	57	0	986710016	43	4890
2026-01-07 13:13:12.34	359.42	13.38	-38.5	-41.5	10.4	2.95e-03	0	57	0	1001390080	46	5415
2026-01-07 13:13:14.35	359.21	13.21	-39.6	-43.6	8.1	5.80e-02	0	57	0	1016070144	48	6174
2026-01-07 13:13:16.38	359.00	13.04	-40.1	-45.2	6.4	2.24e-01	0	57	0	1030750208	49	6965
2026-01-07 13:13:18.40	358.80	12.87	-40.4	-46.6	5.2	7.30e-01	0	57	0	1040187392	50	7782
2026-01-07 13:13:20.42	358.60	12.70	-40.7	-48.3	4.4	8.25e-01	0	58	0	1041235968	50	9473
2026-01-07 13:13:22.43	358.40	12.54	-40.6	-48.1	4.4	8.28e-01	0	57	0	1041235968	50	9248
2026-01-07 13:13:24.45	358.20	12.37	-40.6	-48.0	4.6	8.14e-01	0	57	0	1041235968	50	9073
2026-01-07 13:13:26.47	358.01	12.20	-40.6	-48.9	4.2	8.36e-01	0	57	0	1041235968	50	10160
2026-01-07 13:13:28.49	357.81	12.04	-40.5	-49.6	4.0	8.42e-01	0	57	0	1041235968	50	11013
2026-01-07 13:13:30.51	357.62	11.87	-40.4	-49.0	4.2	8.39e-01	0	57	0	1041235968	50	10277
2026-01-07 13:13:32.53	357.44	11.71	-40.4	-49.3	4.1	8.39e-01	0	58	0	1041235968	50	10644
2026-01-07 13:13:34.55	357.25	11.54	-40.4	-50.8	3.8	8.46e-01	0	58	104	1041235968	50	12573
2026-01-07 13:13:36.57	357.07	11.38	-40.4	-51.4	3.8	8.46e-01	0	57	104	1041235968	50	13452
2026-01-07 13:13:38.59	356.89	11.22	-40.5	-51.7	3.8	8.46e-01	0	57	104	1041235968	50	13927
2026-01-07 13:13:40.61	356.71	11.06	-39.9	-51.3	3.8	8.47e-01	0	57	104	1041235968	50	13361
2026-01-07 13:13:42.63	356.53	10.90	-39.6	-51.4	3.8	8.45e-01	0	57	104	1041235968	50	13415
2026-01-07 13:13:44.65	356.35	10.74	-39.3	-51.3	3.8	8.46e-01	0	57	104	1041235968	49	14109
2026-01-07 13:13:46.67	356.18	10.58	-39.7	-51.3	3.8	8.46e-01	0	57	104	1041235968	49	14123
2026-01-07 13:13:48.69	356.01	10.42	-39.6	-51.3	3.8	8.46e-01	0	57	104	1041235968	49	14114
2026-01-07 13:13:50.72	355.84	10.27	-39.5	-51.3	3.8	8.45e-01	0	57	104	1041235968	50	13312
2026-01-07 13:13:52.74	355.67	10.11	-39.7	-51.3	3.8	8.47e-01	0	57	104	1041235968	50	13329
2026-01-07 13:13:54.76	355.51	9.95	-39.7	-51.3	3.8	8.45e-01	0	57	104	1041235968	50	13350
2026-01-07 13:13:56.78	355.34	9.80	-39.8	-51.3	3.8	8.46e-01	0	57	104	1041235968	50	13360
2026-01-07 13:13:58.80	355.18	9.64	-40.1	-51.4	3.8	8.46e-01	0	58	104	1041235968	50	13463
2026-01-07 13:14:00.80	355.02	9.49	-40.2	-51.4	3.8	8.47e-01	0	57	104	1041235968	50	13502
2026-01-07 13:14:02.82	354.86	9.34	-40.1	-51.3	3.8	8.46e-01	0	58	104	1041235968	50	13374
2026-01-07 13:14:04.84	354.71	9.19	-40.1	-51.3	3.8	8.46e-01	0	58	104	1041235968	50	13378
2026-01-07 13:14:06.86	354.55	9.04	-40.4	-51.5	3.8	8.47e-01	0	57	104	1041235968	50	13631
2026-01-07 13:14:08.88	354.40	8.89	-40.4	-51.4	3.8	8.45e-01	0	57	104	1041235968	50	13564
2026-01-07 13:14:10.90	354.24	8.74	-40.2	-51.4	3.8	8.47e-01	0	57	104	1041235968	50	13427
2026-01-07 13:14:12.92	354.09	8.59	-40.2	-51.4	3.8	8.45e-01	0	57	104	1041235968	50	13517
2026-01-07 13:14:14.94	353.95	8.44	-40.4	-51.4	3.8	8.46e-01	0	58	104	1041235968	50	13506
2026-01-07 13:14:16.96	353.80	8.29	-40.4	-51.4	3.8	8.46e-01	0	57	104	1041235968	50	13493
2026-01-07 13:14:18.98	353.65	8.14	-40.4	-51.5	3.8	8.46e-01	0	57	104	1041235968	50	13589
2026-01-07 13:14:21.00	353.51	8.00	-40.3	-51.4	3.8	8.45e-01	0	58	104	1041235968	51	12714
2026-01-07 13:14:23.02	353.37	7.85	-42.5	-53.6	3.8	8.45e-01	0	58	104	1041235968	54	13779
2026-01-07 13:14:25.05	353.23	7.71	-45.4	-56.5	3.8	8.47e-01	0	58	104	1041235968	60	13591
2026-01-07 13:14:27.07	353.09	7.56	-45.5	-56.6	3.8	8.46e-01	0	58	104	1041235968	60	13838
2026-01-07 13:14:29.09	352.95	7.42	-45.6	-56.7	3.8	8.46e-01	0	58	104	1041235968	60	13908
2026-01-07 13:14:31.11	352.81	7.27	-45.6	-56.7	3.8	8.45e-01	0	58	104	1041235968	60	13916
2026-01-07 13:14:33.14	352.68	7.13	-45.6	-56.6	3.8	8.45e-01	0	58	104	1041235968	60	13833
2026-01-07 13:14:35.16	352.54	6.99	-45.5	-56.5	3.8	8.46e-01	0	58	104	1041235968	60	13692
2026-01-07 13:14:37.18	352.41	6.85	-45.5	-56.5	3.8	8.47e-01	0	57	104	1041235968	60	13646
2026-01-07 13:14:39.20	352.28	6.71	-45.5	-56.5	3.8	8.47e-01	0	57	104	1041235968	60	13619
2026-01-07 13:14:41.22	352.15	6.57	-45.5	-56.5	3.8	8.47e-01	0	57	104	1041235968	60	13611
2026-01-07 13:14:43.25	352.02	6.43	-45.5	-56.5	3.8	8.46e-01	0	57	104	1041235968	60	13628
2026-01-07 13:14:45.27	351.89	6.29	-45.5	-56.5	3.8	8.45e-01	0	57	104	1041235968	60	13634
2026-01-07 13:14:47.29	351.77	6.15	-45.5	-56.5	3.8	8.46e-01	0	57	104	1041235968	60	13599
2026-01-07 13:14:49.31	351.64	6.01	-45.5	-56.5	3.8	8.46e-01	0	58	104	1041235968	60	13600
2026-01-07 13:14:51.33	351.52	5.87	-45.5	-56.5	3.8	8.46e-01	0	57	104	1041235968	60	13627
2026-01-07 13:14:53.36	351.40	5.74	-45.5	-56.5	3.8	8.47e-01	0	58	104	1041235968	60	13616
2026-01-07 13:14:55.38	351.28	5.60	-45.5	-56.5	3.8	8.46e-01	0	57	104	1041235968	60	13585
2026-01-07 13:14:57.40	351.16	5.47	-45.5	-56.4	3.8	8.47e-01	0	58	104	1041235968	60	13569
2026-01-07 13:14:59.42	351.04	5.33	-45.5	-56.4	3.8	8.46e-01	0	57	104	1041235968	60	13562
2026-01-07 13:15:01.44	350.92	5.20	-45.4	-56.5	3.8	8.46e-01	0	58	104	1041235968	60	13599
2026-01-07 13:15:03.47	350.80	5.06	-45.5	-56.4	3.8	8.45e-01	0	58	104	1041235968	60	13560
2026-01-07 13:15:05.49	350.69	4.93	-45.4	-56.4	3.8	8.47e-01	0	58	104	1041235968	60	13551
2026-01-07 13:15:07.51	350.58	4.80	-45.5	-56.4	3.8	8.46e-01	0	58	104	1041235968	60	13559
2026-01-07 13:15:09.53	350.46	4.67	-45.4	-56.5	3.8	8.47e-01	0	58	104	1041235968	60	13573
2026-01-07 13:15:11.55	350.35	4.53	-45.4	-56.4	3.8	8.47e-01	0	58	104	1041235968	60	13544
2026-01-07 13:15:13.58	350.24	4.40	-45.4	-56.5	3.8	8.46e-01	0	58	104	1041235968	60	13581
2026-01-07 13:15:15.60	350.13	4.27	-45.4	-56.5	3.8	8.46e-01	0	58	104	1041235968	60	13583
2026-01-07 13:15:17.62	350.02	4.14	-45.4	-56.4	3.8	8.45e-01	0	57	104	1041235968	60	13497
2026-01-07 13:15:19.64	349.91	4.01	-45.4	-56.4	3.8	8.46e-01	0	58	104	1041235968	60	13507
2026-01-07 13:15:21.66	349.81	3.88	-45.4	-56.4	3.8	8.46e-01	0	58	104	1041235968	60	13562
2026-01-07 13:15:23.68	349.70	3.76	-45.4	-56.4	3.8	8.46e-01	0	58	104	1041235968	60	13537
2026-01-07 13:15:25.71	349.60	3.63	-45.4	-56.4	3.8	8.47e-01	0	57	104	1041235968	60	13558
2026-01-07 13:15:27.73	349.49	3.50	-45.4	-56.4	3.8	8.46e-01	0	58	104	1041235968	60	13522
2026-01-07 13:15:29.75	349.39	3.37	-45.4	-56.4	3.8	8.45e-01	0	58	104	1041235968	60	13502
2026-01-07 13:15:31.77	349.29	3.25	-45.4	-56.4	3.8	8.45e-01	0	58	104	1041235968	60	13552
2026-01-07 13:15:33.80	349.19	3.12	-45.4	-56.4	3.8	8.46e-01	0	58	104	1041235968	60	13507
2026-01-07 13:15:35.82	349.09	3.00	-45.4	-56.4	3.8	8.45e-01	0	58	104	1041235968	60	13557
2026-01-07 13:15:37.84	348.99	2.87	-45.4	-56.4	3.8	8.46e-01	0	58	104	1041235968	60	13492
2026-01-07 13:15:39.86	348.89	2.75	-45.4	-56.4	3.8	8.47e-01	0	57	104	1041235968	60	13536
2026-01-07 13:15:41.88	348.79	2.62	-44.9	-56.1	3.8	8.45e-01	0	58	104	1041235968	60	12970
2026-01-07 13:15:43.91	348.70	2.50	-45.4	-56.4	3.8	8.46e-01	0	58	104	1041235968	60	13517
2026-01-07 13:15:45.93	348.60	2.38	-45.4	-56.5	3.8	8.46e-01	0	58	104	1041235968	60	13574
2026-01-07 13:15:47.95	348.51	2.25	-45.4	-56.4	3.8	8.47e-01	0	57	104	1041235968	60	13522
2026-01-07 13:15:49.97	348.41	2.13	-45.4	-56.4	3.8	8.46e-01	0	57	104	1041235968	60	13513
2026-01-07 13:15:51.99	348.32	2.01	-45.4	-56.4	3.8	8.45e-01	0	58	104	1041235968	60	13569

#Closed at: 2026-01-07 13:15:52
#Recorded file [1041 MB]: D:/lorett/data/31039_260107_161006.dat