passes_logs/2026/01/07/R2.0S_Moscow/R2.0S_Moscow__20260107_004511_NOAA_20_JPSS-1_rec.log

#Pass ID: 20260107_004511_NOAA 20 (JPSS-1)
#Satellite: NOAA 20 (JPSS-1)
#Configuration: NOAA 20
#almurnet v.1.7.20251203
#Start time: 2026-01-07 00:46:21

#Version: 2.2.20231116
#Station: R2.0S_Moscow
#Location: 37.707566 lon 55.798166 lat
#TLE: 1 43013U 17073A   26006.30790171  .00000126  00000+0  80695-4 0  9991
#TLE: 2 43013  98.7629 307.3394 0001808  51.8724 308.2615 14.19533762421505

#Time	Az	El	Level	Level2	SNR	BER	BlckErr	Temp	State	Recorded	gain1	gain2
2026-01-07 00:46:21.91	8.56	6.57	-45.8	-64.7	3.8	7.43e-01	0	56	0	0	62	33227
2026-01-07 00:46:24.93	8.39	6.78	-45.2	-60.0	3.8	1.49e+00	0	56	104	0	62	19179
2026-01-07 00:46:27.96	8.20	6.99	-44.8	-59.5	3.8	1.49e+00	0	56	104	0	61	19292
2026-01-07 00:46:30.99	8.02	7.21	-42.0	-56.6	3.8	1.49e+00	0	57	104	0	56	18390
2026-01-07 00:46:34.03	7.83	7.43	-40.0	-54.5	3.8	1.49e+00	0	57	104	0	52	18239
2026-01-07 00:46:37.06	7.64	7.65	-40.0	-54.5	3.8	1.49e+00	0	56	104	0	52	18305
2026-01-07 00:46:40.10	7.45	7.87	-40.0	-54.5	3.8	1.49e+00	0	57	104	0	52	18261
2026-01-07 00:46:43.13	7.25	8.09	-40.0	-54.5	3.8	1.49e+00	0	57	104	0	52	18182
2026-01-07 00:46:46.16	7.05	8.32	-40.0	-54.5	3.8	1.49e+00	0	56	104	0	52	18230
2026-01-07 00:46:49.19	6.84	8.54	-40.1	-54.6	3.8	1.49e+00	0	57	104	0	51	19400
2026-01-07 00:46:52.23	6.64	8.77	-40.1	-54.6	3.8	1.49e+00	0	57	104	0	51	19438
2026-01-07 00:46:55.26	6.43	9.00	-40.1	-54.6	3.8	1.49e+00	0	57	104	0	51	19441
2026-01-07 00:46:58.29	6.21	9.23	-40.0	-54.6	3.8	1.49e+00	0	57	104	0	51	19415
2026-01-07 00:47:01.33	6.00	9.47	-40.0	-54.5	3.8	1.49e+00	0	57	104	0	51	19372
2026-01-07 00:47:04.36	5.77	9.70	-40.0	-54.5	3.8	1.49e+00	0	57	104	0	51	19359
2026-01-07 00:47:07.39	5.55	9.94	-40.0	-54.5	3.8	1.49e+00	0	57	104	0	51	19363
2026-01-07 00:47:10.42	5.32	10.18	-40.0	-54.5	3.8	1.49e+00	0	57	104	0	51	19343
2026-01-07 00:47:13.46	5.09	10.42	-40.0	-54.5	3.8	1.49e+00	0	57	104	0	51	19281
2026-01-07 00:47:16.49	4.85	10.66	-40.0	-54.6	3.8	1.49e+00	0	57	104	0	51	19407
2026-01-07 00:47:19.52	4.61	10.90	-40.1	-54.6	3.8	1.49e+00	0	56	104	0	51	19533
2026-01-07 00:47:22.55	4.36	11.15	-40.2	-54.6	3.8	1.49e+00	0	57	104	0	51	19555
2026-01-07 00:47:25.59	4.11	11.40	-40.1	-54.2	3.8	1.49e+00	0	57	104	0	51	18652
2026-01-07 00:47:28.62	3.86	11.65	-40.0	-54.5	3.8	1.49e+00	0	57	104	0	51	19308
2026-01-07 00:47:31.65	3.60	11.90	-40.1	-54.8	3.8	1.49e+00	0	57	104	0	52	18740
2026-01-07 00:47:34.68	3.34	12.15	-40.0	-54.6	3.8	1.49e+00	0	57	104	0	51	19482
2026-01-07 00:47:37.71	3.07	12.41	-40.0	-54.6	3.8	1.49e+00	0	57	104	0	51	19502
2026-01-07 00:47:40.74	2.80	12.67	-40.8	-55.0	3.8	1.46e+00	0	57	104	0	53	18296
2026-01-07 00:47:43.77	2.52	12.93	-41.5	-51.1	4.9	7.95e-01	0	57	0	2097152	53	11631
2026-01-07 00:47:46.80	2.23	13.19	-41.4	-49.3	6.2	3.71e-01	0	57	0	7340032	53	9466
2026-01-07 00:47:49.83	1.95	13.45	-41.0	-47.4	8.0	1.12e-01	0	57	0	13631488	53	7583
2026-01-07 00:47:52.85	1.65	13.72	-40.2	-45.1	10.3	7.10e-03	0	56	0	18874368	52	6185
2026-01-07 00:47:55.88	1.35	13.99	-40.3	-45.1	10.7	2.48e-03	0	57	0	25165824	52	6133
2026-01-07 00:47:58.91	1.05	14.26	-40.7	-45.6	10.4	4.55e-03	0	57	0	30408704	52	6544
2026-01-07 00:48:01.94	0.74	14.53	-40.2	-44.1	12.2	4.19e-04	0	57	0	36700160	52	5521
2026-01-07 00:48:04.97	0.42	14.80	-40.0	-43.5	13.1	2.13e-05	0	57	0	41943040	51	5426
2026-01-07 00:48:07.99	0.10	15.08	-40.2	-43.8	13.0	3.58e-05	0	57	0	47185920	51	5611
2026-01-07 00:48:11.02	359.77	15.36	-40.1	-43.4	13.7	1.50e-06	0	57	0	53477376	51	5348
2026-01-07 00:48:14.06	359.43	15.64	-40.1	-43.2	14.0	5.30e-06	0	57	0	58720256	51	5250
2026-01-07 00:48:17.08	359.09	15.93	-40.2	-43.3	13.9	6.10e-06	0	57	0	65011712	51	5324
2026-01-07 00:48:20.11	358.74	16.21	-40.2	-43.3	14.0	7.00e-07	0	57	0	70254592	51	5313
2026-01-07 00:48:23.14	358.38	16.50	-40.3	-43.4	13.8	6.80e-06	0	57	0	75497472	51	5383
2026-01-07 00:48:26.17	358.02	16.79	-40.2	-43.4	13.8	3.80e-06	0	57	0	81788928	51	5392
2026-01-07 00:48:29.20	357.65	17.08	-40.3	-43.5	13.6	6.10e-06	0	57	0	87031808	51	5461
2026-01-07 00:48:32.23	357.27	17.38	-40.0	-43.1	14.0	3.00e-06	0	57	0	93323264	51	5188
2026-01-07 00:48:35.26	356.89	17.68	-39.7	-42.8	14.1	7.00e-07	0	57	0	98566144	51	4984
2026-01-07 00:48:38.29	356.49	17.98	-40.2	-44.1	12.2	7.93e-05	0	57	0	104857600	51	5811
2026-01-07 00:48:41.32	356.09	18.28	-40.9	-47.3	8.0	2.92e-02	0	57	0	110100480	52	7918
2026-01-07 00:48:44.35	355.68	18.58	-41.0	-51.0	4.6	7.01e-01	0	57	0	115343360	52	12153
2026-01-07 00:48:47.38	355.26	18.89	-40.9	-54.7	3.8	1.49e+00	0	57	104	117440512	52	18648
2026-01-07 00:48:50.40	354.84	19.20	-40.8	-53.9	3.8	1.49e+00	0	57	104	117440512	52	17008
2026-01-07 00:48:53.43	354.40	19.51	-40.9	-54.6	3.8	1.49e+00	0	57	104	117440512	52	18373
2026-01-07 00:48:56.46	353.95	19.82	-40.9	-54.6	3.8	1.49e+00	0	57	104	117440512	52	18374
2026-01-07 00:48:59.49	353.50	20.14	-40.8	-53.7	3.8	1.49e+00	0	57	104	117440512	52	16522
2026-01-07 00:49:02.52	353.03	20.45	-40.8	-52.6	4.1	1.47e+00	0	57	104	117440512	52	14674
2026-01-07 00:49:05.55	352.56	20.77	-41.2	-50.7	4.9	8.97e-01	0	57	0	118489088	52	11792
2026-01-07 00:49:08.58	352.07	21.09	-41.4	-47.7	8.2	7.47e-02	0	57	0	124780544	53	7896
2026-01-07 00:49:11.61	351.58	21.42	-41.3	-46.5	9.9	9.90e-03	0	57	0	130023424	53	6830
2026-01-07 00:49:14.63	351.08	21.74	-40.3	-44.2	12.4	2.04e-04	0	57	0	135266304	52	5535
2026-01-07 00:49:17.66	350.56	22.07	-40.1	-43.6	13.2	1.83e-05	0	57	0	141557760	52	5178
2026-01-07 00:49:20.69	350.03	22.39	-40.1	-43.4	13.5	1.29e-05	0	57	0	146800640	52	5067
2026-01-07 00:49:23.72	349.49	22.72	-40.3	-43.7	13.3	2.05e-05	0	57	0	153092096	52	5273
2026-01-07 00:49:26.75	348.94	23.05	-40.3	-43.6	13.7	1.14e-05	0	57	0	158334976	52	5173
2026-01-07 00:49:29.78	348.38	23.39	-40.4	-43.4	14.1	2.20e-06	0	57	0	163577856	52	5082
2026-01-07 00:49:32.81	347.80	23.72	-40.4	-43.4	14.2	1.50e-06	0	57	0	169869312	52	5087
2026-01-07 00:49:35.84	347.21	24.05	-40.3	-43.3	14.4	0.00e+00	0	57	0	175112192	52	5010
2026-01-07 00:49:38.87	346.61	24.39	-40.5	-43.4	14.4	7.00e-07	0	57	0	181403648	52	5086
2026-01-07 00:49:41.90	346.00	24.73	-40.7	-43.8	14.1	1.50e-06	0	57	0	186646528	52	5300
2026-01-07 00:49:44.93	345.37	25.06	-41.0	-44.2	13.7	8.30e-06	0	57	0	192937984	52	5568
2026-01-07 00:49:47.96	344.73	25.40	-41.2	-44.5	13.4	2.13e-05	0	57	0	198180864	52	5770
2026-01-07 00:49:50.98	344.07	25.74	-41.3	-44.8	13.1	1.60e-05	0	57	0	203423744	53	5626
2026-01-07 00:49:54.01	343.40	26.07	-41.5	-45.0	12.9	4.19e-05	0	57	0	209715200	53	5773
2026-01-07 00:49:57.04	342.72	26.41	-41.3	-44.7	13.3	2.51e-05	0	57	0	214958080	53	5532
2026-01-07 00:50:00.07	342.02	26.75	-41.2	-44.4	13.5	1.22e-05	0	57	0	221249536	53	5391
2026-01-07 00:50:03.10	341.30	27.08	-41.3	-44.7	13.3	1.98e-05	0	57	0	226492416	53	5553
2026-01-07 00:50:06.13	340.57	27.42	-41.4	-44.8	13.2	1.83e-05	0	57	0	231735296	53	5639
2026-01-07 00:50:09.16	339.83	27.75	-41.3	-44.7	13.5	1.44e-05	0	57	0	238026752	53	5531
2026-01-07 00:50:12.19	339.07	28.09	-41.2	-44.5	13.6	1.22e-05	0	57	0	243269632	53	5415
2026-01-07 00:50:15.21	338.29	28.42	-41.2	-44.4	13.7	6.10e-06	0	57	0	249561088	53	5397
2026-01-07 00:50:18.24	337.50	28.75	-41.3	-44.5	13.6	9.90e-06	0	57	0	254803968	53	5455
2026-01-07 00:50:21.27	336.69	29.07	-41.2	-44.5	13.7	6.10e-06	0	57	0	261095424	53	5416
2026-01-07 00:50:24.29	335.86	29.39	-41.1	-44.2	14.0	1.50e-06	0	57	0	266338304	53	5222
2026-01-07 00:50:27.32	335.02	29.72	-41.1	-44.3	13.9	3.80e-06	0	57	0	271581184	53	5304
2026-01-07 00:50:30.35	334.16	30.03	-41.4	-44.7	13.5	1.22e-05	0	57	0	277872640	53	5538
2026-01-07 00:50:33.38	333.28	30.35	-41.9	-45.6	12.6	8.85e-05	0	57	0	283115520	54	5832
2026-01-07 00:50:36.41	332.38	30.65	-42.2	-46.3	11.8	4.32e-04	0	57	0	289406976	55	5960
2026-01-07 00:50:39.44	331.47	30.96	-42.4	-46.8	11.3	1.08e-03	0	57	0	294649856	55	6324
2026-01-07 00:50:42.47	330.54	31.26	-42.6	-47.0	11.0	1.70e-03	0	57	0	299892736	55	6488
2026-01-07 00:50:45.50	329.59	31.55	-42.9	-47.7	10.6	2.86e-03	0	57	0	306184192	56	6605
2026-01-07 00:50:48.53	328.62	31.84	-43.0	-48.0	10.2	5.22e-03	0	57	0	311427072	56	6833
2026-01-07 00:50:51.56	327.64	32.12	-43.3	-48.6	9.6	1.47e-02	0	57	0	317718528	57	6922
2026-01-07 00:50:54.59	326.64	32.39	-43.4	-49.0	9.2	1.50e-02	0	57	0	322961408	57	7230
2026-01-07 00:50:57.62	325.63	32.65	-43.3	-48.6	9.6	1.75e-02	0	57	0	329252864	57	6907
2026-01-07 00:51:00.65	324.59	32.91	-42.6	-46.9	11.4	1.56e-03	0	57	0	334495744	57	5679
2026-01-07 00:51:03.68	323.54	33.16	-42.6	-47.0	11.3	1.06e-03	0	57	0	339738624	57	5763
2026-01-07 00:51:06.71	322.48	33.40	-42.5	-46.8	11.6	9.87e-04	0	57	0	346030080	57	5603
2026-01-07 00:51:09.74	321.40	33.63	-42.5	-46.6	11.7	6.19e-04	0	57	0	351272960	56	5828
2026-01-07 00:51:12.77	320.30	33.85	-42.1	-45.9	12.5	1.88e-04	0	57	0	357564416	56	5368
2026-01-07 00:51:15.80	319.19	34.06	-41.7	-45.2	13.1	2.89e-05	0	57	0	362807296	55	5222
2026-01-07 00:51:18.83	318.06	34.26	-41.3	-44.5	13.7	6.80e-06	0	57	0	368050176	54	5149
2026-01-07 00:51:21.86	316.92	34.44	-41.2	-44.3	14.0	2.20e-06	0	57	0	374341632	54	4994
2026-01-07 00:51:24.89	315.77	34.62	-41.1	-44.2	14.1	3.00e-06	0	57	0	379584512	54	4936
2026-01-07 00:51:27.93	314.61	34.78	-40.8	-43.7	14.6	0.00e+00	0	57	0	385875968	53	4935
2026-01-07 00:51:30.96	313.43	34.93	-40.7	-43.4	14.9	0.00e+00	0	57	0	391118848	53	4812
2026-01-07 00:51:33.98	312.25	35.07	-40.6	-43.4	14.9	0.00e+00	0	57	0	397410304	53	4790
2026-01-07 00:51:37.01	311.05	35.19	-40.1	-42.6	15.7	0.00e+00	0	57	0	402653184	52	4629
2026-01-07 00:51:40.04	309.85	35.30	-40.2	-42.7	15.7	0.00e+00	0	57	0	407896064	51	4949
2026-01-07 00:51:43.07	308.64	35.39	-40.1	-42.5	15.9	0.00e+00	0	57	0	414187520	51	4836
2026-01-07 00:51:46.10	307.42	35.47	-39.8	-42.2	16.2	0.00e+00	0	57	0	419430400	51	4668
2026-01-07 00:51:49.13	306.20	35.54	-39.6	-41.9	16.5	0.00e+00	0	57	0	425721856	51	4500
2026-01-07 00:51:52.15	304.97	35.59	-39.9	-42.3	16.1	0.00e+00	0	57	0	430964736	51	4728
2026-01-07 00:51:55.18	303.74	35.63	-40.2	-42.8	15.6	0.00e+00	0	57	0	436207616	51	4996
2026-01-07 00:51:58.21	302.51	35.65	-40.6	-43.3	15.0	0.00e+00	0	56	0	442499072	51	5306
2026-01-07 00:52:01.24	301.27	35.65	-40.6	-43.3	15.0	0.00e+00	0	57	0	447741952	51	5340
2026-01-07 00:52:04.27	300.04	35.64	-40.6	-43.4	14.9	0.00e+00	0	57	0	454033408	52	5080
2026-01-07 00:52:07.29	298.81	35.62	-40.7	-43.5	14.8	0.00e+00	0	57	0	459276288	52	5101
2026-01-07 00:52:10.32	297.58	35.58	-40.2	-42.7	15.6	0.00e+00	0	57	0	465567744	52	4684
2026-01-07 00:52:13.35	296.35	35.53	-40.7	-43.4	14.8	0.00e+00	0	57	0	470810624	52	5097
2026-01-07 00:52:16.38	295.12	35.46	-41.1	-44.2	14.1	2.20e-06	0	56	0	476053504	52	5576
2026-01-07 00:52:19.41	293.91	35.37	-41.1	-44.2	14.1	7.00e-07	0	57	0	482344960	52	5532
2026-01-07 00:52:22.44	292.70	35.28	-41.3	-44.6	13.7	4.50e-06	0	57	0	487587840	53	5482
2026-01-07 00:52:25.46	291.50	35.16	-41.5	-44.9	13.3	1.37e-05	0	57	0	493879296	53	5718
2026-01-07 00:52:28.49	290.30	35.04	-41.8	-45.4	12.8	5.49e-05	0	57	0	499122176	54	5699
2026-01-07 00:52:31.52	289.12	34.90	-41.8	-45.5	12.7	1.09e-04	0	57	0	504365056	54	5776
2026-01-07 00:52:34.55	287.94	34.74	-41.8	-45.5	12.7	9.53e-05	0	57	0	510656512	54	5766
2026-01-07 00:52:37.58	286.78	34.58	-41.5	-44.8	13.4	1.98e-05	0	57	0	515899392	54	5338
2026-01-07 00:52:40.61	285.63	34.40	-41.8	-45.5	12.7	6.86e-05	0	57	0	522190848	54	5785
2026-01-07 00:52:43.63	284.50	34.21	-41.8	-45.5	12.7	9.76e-05	0	57	0	527433728	54	5774
2026-01-07 00:52:46.66	283.37	34.01	-41.6	-45.0	13.2	2.97e-05	0	57	0	533725184	54	5451
2026-01-07 00:52:49.69	282.26	33.80	-41.2	-44.4	13.9	3.80e-06	0	57	0	538968064	54	5073
2026-01-07 00:52:52.72	281.17	33.58	-41.5	-44.8	13.4	1.44e-05	0	57	0	544210944	54	5333
2026-01-07 00:52:55.75	280.09	33.34	-41.5	-44.9	13.4	1.75e-05	0	57	0	550502400	54	5354
2026-01-07 00:52:58.79	279.02	33.10	-41.3	-44.6	13.6	3.80e-06	0	57	0	555745280	54	5173
2026-01-07 00:53:01.81	277.97	32.85	-41.6	-45.0	13.2	1.90e-05	0	57	0	562036736	54	5460
2026-01-07 00:53:04.84	276.94	32.59	-41.9	-45.6	12.6	6.71e-05	0	57	0	567279616	54	5832
2026-01-07 00:53:07.87	275.92	32.32	-41.9	-45.7	12.5	1.16e-04	0	57	0	572522496	54	5885
2026-01-07 00:53:10.90	274.93	32.05	-41.7	-45.3	12.9	5.49e-05	0	57	0	578813952	54	5599
2026-01-07 00:53:13.93	273.94	31.76	-41.9	-45.6	12.6	6.86e-05	0	57	0	584056832	54	5820
2026-01-07 00:53:16.96	272.98	31.47	-42.2	-46.2	11.9	3.82e-04	0	57	0	590348288	54	6256
2026-01-07 00:53:19.99	272.03	31.18	-42.0	-46.0	12.2	2.20e-04	0	57	0	595591168	54	6063
2026-01-07 00:53:23.02	271.10	30.88	-41.8	-45.4	12.8	1.27e-04	0	57	0	601882624	54	5689
2026-01-07 00:53:26.05	270.19	30.57	-41.8	-45.4	12.7	6.17e-05	0	57	0	607125504	54	5684
2026-01-07 00:53:29.08	269.30	30.26	-41.7	-45.3	12.9	7.17e-05	0	57	0	612368384	54	5607
2026-01-07 00:53:32.11	268.42	29.95	-41.6	-45.2	12.9	3.35e-05	0	57	0	618659840	54	5549
2026-01-07 00:53:35.13	267.56	29.63	-41.6	-45.1	13.0	3.58e-05	0	57	0	623902720	54	5521
2026-01-07 00:53:38.16	266.72	29.31	-41.7	-45.4	12.7	7.01e-05	0	57	0	630194176	54	5677
2026-01-07 00:53:41.19	265.89	28.98	-41.4	-44.8	13.3	1.98e-05	0	57	0	635437056	54	5302
2026-01-07 00:53:44.22	265.08	28.65	-41.2	-44.5	13.7	1.14e-05	0	57	0	640679936	54	5111
2026-01-07 00:53:47.25	264.29	28.32	-41.3	-44.6	13.5	8.30e-06	0	57	0	646971392	54	5201
2026-01-07 00:53:50.28	263.51	27.99	-40.9	-43.8	14.2	7.00e-07	0	57	0	652214272	53	5039
2026-01-07 00:53:53.30	262.75	27.65	-40.5	-43.4	14.8	0.00e+00	0	57	0	658505728	53	4763
2026-01-07 00:53:56.34	262.00	27.32	-40.5	-43.2	14.9	0.00e+00	0	57	0	663748608	52	4972
2026-01-07 00:53:59.37	261.27	26.98	-40.2	-42.8	15.2	0.00e+00	0	57	0	670040064	52	4729
2026-01-07 00:54:02.40	260.56	26.64	-39.6	-41.9	16.3	0.00e+00	0	57	0	675282944	51	4507
2026-01-07 00:54:05.42	259.86	26.31	-39.4	-41.7	16.5	0.00e+00	0	56	0	680525824	50	4674
2026-01-07 00:54:08.45	259.18	25.97	-39.5	-41.7	16.4	0.00e+00	0	57	0	686817280	50	4700
2026-01-07 00:54:11.48	258.51	25.63	-39.1	-41.3	16.9	0.00e+00	0	56	0	692060160	50	4454
2026-01-07 00:54:14.51	257.85	25.29	-38.9	-41.0	17.1	0.00e+00	0	57	0	698351616	49	4571
2026-01-07 00:54:17.54	257.21	24.95	-39.0	-41.0	17.1	0.00e+00	0	57	0	703594496	49	4598
2026-01-07 00:54:20.58	256.58	24.61	-39.1	-41.2	16.9	0.00e+00	0	57	0	708837376	49	4678
2026-01-07 00:54:23.60	255.97	24.27	-39.0	-41.1	17.0	0.00e+00	0	57	0	715128832	49	4614
2026-01-07 00:54:26.63	255.37	23.94	-39.0	-41.1	17.0	0.00e+00	0	57	0	720371712	49	4599
2026-01-07 00:54:29.66	254.78	23.60	-39.2	-41.4	16.7	0.00e+00	0	56	0	726663168	49	4768
2026-01-07 00:54:32.69	254.21	23.27	-39.3	-41.6	16.5	0.00e+00	0	57	0	731906048	49	4871
2026-01-07 00:54:35.72	253.64	22.93	-39.3	-41.5	16.6	0.00e+00	0	57	0	738197504	49	4848
2026-01-07 00:54:38.75	253.09	22.60	-39.4	-41.7	16.4	0.00e+00	0	57	0	743440384	49	4939
2026-01-07 00:54:41.78	252.55	22.27	-39.6	-42.0	16.1	0.00e+00	0	57	0	748683264	49	5128
2026-01-07 00:54:44.81	252.02	21.94	-39.5	-41.8	16.2	0.00e+00	0	57	0	754974720	49	5034
2026-01-07 00:54:47.84	251.51	21.62	-39.4	-41.6	16.4	0.00e+00	0	57	0	760217600	49	4904
2026-01-07 00:54:50.87	251.00	21.29	-39.5	-41.8	16.2	0.00e+00	0	57	0	766509056	49	5017
2026-01-07 00:54:53.90	250.50	20.97	-39.6	-42.0	16.1	0.00e+00	0	57	0	771751936	50	4821
2026-01-07 00:54:56.93	250.02	20.64	-39.6	-42.0	16.0	0.00e+00	0	57	0	776994816	50	4829
2026-01-07 00:54:59.97	249.54	20.32	-39.6	-41.9	16.1	0.00e+00	0	57	0	783286272	50	4802
2026-01-07 00:55:03.00	249.08	20.01	-39.8	-42.2	15.8	0.00e+00	0	57	0	788529152	50	4976
2026-01-07 00:55:06.03	248.62	19.69	-40.0	-42.6	15.4	0.00e+00	0	57	0	794820608	50	5179
2026-01-07 00:55:09.05	248.18	19.38	-40.0	-42.6	15.4	7.00e-07	0	57	0	800063488	50	5182
2026-01-07 00:55:12.08	247.74	19.07	-40.0	-42.5	15.4	0.00e+00	0	57	0	806354944	50	5142
2026-01-07 00:55:15.11	247.31	18.76	-40.2	-42.9	15.1	0.00e+00	0	57	0	811597824	50	5360
2026-01-07 00:55:18.14	246.89	18.45	-40.4	-43.2	14.7	0.00e+00	0	57	0	816840704	51	5273
2026-01-07 00:55:21.17	246.48	18.15	-40.5	-43.3	14.6	0.00e+00	0	56	0	823132160	51	5336
2026-01-07 00:55:24.20	246.08	17.84	-40.2	-42.9	15.0	0.00e+00	0	56	0	828375040	51	5089
2026-01-07 00:55:27.23	245.68	17.54	-40.2	-42.9	15.0	0.00e+00	0	57	0	834666496	51	5074
2026-01-07 00:55:30.26	245.30	17.24	-40.5	-43.4	14.5	0.00e+00	0	57	0	839909376	51	5354
2026-01-07 00:55:33.29	244.92	16.95	-40.7	-43.8	14.0	3.00e-06	0	57	0	845152256	52	5283
2026-01-07 00:55:36.32	244.55	16.65	-40.6	-43.7	14.1	2.20e-06	0	57	0	851443712	52	5243
2026-01-07 00:55:39.35	244.18	16.36	-40.4	-43.4	14.4	1.50e-06	0	57	0	856686592	52	5060
2026-01-07 00:55:42.38	243.82	16.07	-40.4	-43.3	14.5	1.50e-06	0	57	0	862978048	52	4997
2026-01-07 00:55:45.41	243.47	15.79	-40.6	-43.6	14.1	7.00e-07	0	57	0	868220928	52	5185
2026-01-07 00:55:48.44	243.13	15.50	-40.7	-43.9	13.8	2.20e-06	0	57	0	874512384	52	5367
2026-01-07 00:55:51.46	242.79	15.22	-40.7	-43.8	13.9	6.10e-06	0	57	0	879755264	52	5332
2026-01-07 00:55:54.50	242.46	14.94	-40.5	-43.5	14.2	1.50e-06	0	57	0	884998144	52	5130
2026-01-07 00:55:57.53	242.14	14.66	-40.4	-43.4	14.3	7.00e-07	0	57	0	891289600	52	5097
2026-01-07 00:56:00.55	241.82	14.39	-40.5	-43.5	14.1	1.50e-06	0	57	0	896532480	52	5144
2026-01-07 00:56:03.59	241.51	14.12	-40.8	-44.0	13.6	6.80e-06	0	57	0	902823936	52	5443
2026-01-07 00:56:06.61	241.20	13.85	-40.8	-44.1	13.5	7.60e-06	0	57	0	908066816	52	5505
2026-01-07 00:56:09.64	240.90	13.58	-40.7	-44.0	13.6	3.00e-06	0	57	0	913309696	52	5404
2026-01-07 00:56:12.67	240.60	13.31	-40.6	-43.8	13.8	6.80e-06	0	57	0	919601152	52	5286
2026-01-07 00:56:15.70	240.31	13.04	-40.7	-43.9	13.7	4.50e-06	0	57	0	924844032	52	5372
2026-01-07 00:56:18.72	240.03	12.78	-40.8	-44.1	13.4	8.30e-06	0	57	0	931135488	52	5501
2026-01-07 00:56:21.75	239.75	12.52	-40.8	-44.1	13.4	1.37e-05	0	57	0	936378368	52	5498
2026-01-07 00:56:24.78	239.48	12.26	-40.7	-44.1	13.4	1.37e-05	0	57	0	942669824	52	5494
2026-01-07 00:56:27.81	239.21	12.01	-40.6	-43.9	13.6	8.30e-06	0	57	0	947912704	52	5349
2026-01-07 00:56:30.84	238.94	11.75	-40.7	-44.0	13.5	9.10e-06	0	57	0	953155584	52	5424
2026-01-07 00:56:33.87	238.68	11.50	-40.9	-44.4	13.0	3.58e-05	0	57	0	959447040	52	5689
2026-01-07 00:56:36.90	238.42	11.25	-41.1	-44.9	12.5	6.56e-05	0	57	0	964689920	52	6014
2026-01-07 00:56:39.93	238.17	11.00	-41.1	-44.8	12.6	1.07e-04	0	56	0	970981376	52	5930
2026-01-07 00:56:42.96	237.93	10.76	-41.1	-44.9	12.5	1.59e-04	0	57	0	976224256	52	5995
2026-01-07 00:56:45.99	237.68	10.51	-41.1	-45.0	12.3	1.30e-04	0	57	0	981467136	53	5733
2026-01-07 00:56:49.02	237.44	10.27	-41.0	-44.8	12.5	1.54e-04	0	57	0	987758592	53	5620
2026-01-07 00:56:52.04	237.21	10.03	-41.0	-44.8	12.4	1.28e-04	0	57	0	993001472	53	5623
2026-01-07 00:56:55.07	236.98	9.79	-41.1	-45.0	12.2	2.22e-04	0	57	0	999292928	53	5770
2026-01-07 00:56:58.10	236.75	9.56	-41.2	-45.3	11.9	3.19e-04	0	57	0	1004535808	53	5944
2026-01-07 00:57:01.13	236.53	9.32	-41.3	-45.5	11.6	4.27e-04	0	57	0	1010827264	53	6087
2026-01-07 00:57:04.16	236.31	9.09	-41.3	-45.4	11.7	5.61e-04	0	57	0	1016070144	53	6055
2026-01-07 00:57:07.19	236.09	8.86	-41.2	-45.3	11.8	6.71e-04	0	57	0	1021313024	53	5973
2026-01-07 00:57:10.22	235.88	8.63	-41.3	-45.6	11.5	8.13e-04	0	57	0	1027604480	53	6134
2026-01-07 00:57:13.25	235.67	8.40	-41.4	-45.9	11.1	1.48e-03	0	57	0	1032847360	53	6380
2026-01-07 00:57:16.28	235.47	8.17	-41.3	-45.7	11.3	1.53e-03	0	57	0	1039138816	53	6221
2026-01-07 00:57:19.31	235.26	7.95	-44.3	-58.7	3.8	1.49e+00	0	57	104	1043333120	59	19782
2026-01-07 00:57:22.34	235.06	7.73	-44.8	-59.5	3.8	1.49e+00	0	57	104	1043333120	60	20463
2026-01-07 00:57:25.37	234.87	7.50	-45.0	-59.8	3.8	1.49e+00	0	57	104	1043333120	60	21082
2026-01-07 00:57:28.40	234.67	7.28	-45.0	-59.8	3.8	1.49e+00	0	57	104	1043333120	60	21123
2026-01-07 00:57:31.43	234.48	7.07	-45.0	-59.8	3.8	1.49e+00	0	57	104	1043333120	60	21060
2026-01-07 00:57:34.46	234.30	6.85	-45.0	-59.8	3.8	1.49e+00	0	57	104	1043333120	60	21153
2026-01-07 00:57:37.49	234.11	6.63	-45.0	-59.8	3.8	1.49e+00	0	57	104	1043333120	60	21029
2026-01-07 00:57:40.53	233.93	6.42	-44.9	-59.8	3.8	1.49e+00	0	57	104	1043333120	60	21083
2026-01-07 00:57:43.56	233.75	6.21	-44.9	-59.7	3.8	1.49e+00	0	57	104	1043333120	60	21014
2026-01-07 00:57:46.58	233.58	6.00	-44.9	-59.7	3.8	1.49e+00	0	57	104	1043333120	60	21014
2026-01-07 00:57:49.62	233.40	5.79	-44.9	-59.8	3.8	1.49e+00	0	57	104	1043333120	60	21040
2026-01-07 00:57:52.64	233.23	5.58	-44.9	-59.7	3.8	1.49e+00	0	57	104	1043333120	60	21013
2026-01-07 00:57:55.67	233.06	5.37	-44.9	-59.7	3.8	1.49e+00	0	57	104	1043333120	60	20943
2026-01-07 00:57:58.71	232.90	5.17	-44.9	-59.7	3.8	1.49e+00	0	57	104	1043333120	60	20964
2026-01-07 00:58:01.74	232.73	4.97	-44.9	-59.7	3.8	1.49e+00	0	57	104	1043333120	60	20981
2026-01-07 00:58:04.77	232.57	4.76	-44.9	-59.7	3.8	1.49e+00	0	57	104	1043333120	60	20916
2026-01-07 00:58:07.80	232.41	4.56	-44.9	-59.7	3.8	1.49e+00	0	57	104	1043333120	60	20887
2026-01-07 00:58:10.83	232.25	4.36	-44.9	-59.7	3.8	1.49e+00	0	57	104	1043333120	60	20913
2026-01-07 00:58:13.87	232.10	4.16	-44.9	-59.7	3.8	1.49e+00	0	57	104	1043333120	60	20924
2026-01-07 00:58:16.90	231.95	3.97	-44.9	-59.7	3.8	1.49e+00	0	57	104	1043333120	60	20925
2026-01-07 00:58:19.93	231.80	3.77	-44.9	-59.7	3.8	1.49e+00	0	57	104	1043333120	60	20896
2026-01-07 00:58:22.96	231.65	3.58	-44.9	-59.7	3.8	1.49e+00	0	57	104	1043333120	60	20879
2026-01-07 00:58:25.99	231.50	3.38	-44.9	-59.7	3.8	1.49e+00	0	57	104	1043333120	60	20902
2026-01-07 00:58:29.03	231.36	3.19	-44.9	-59.7	3.8	1.49e+00	0	57	104	1043333120	60	20957
2026-01-07 00:58:32.06	231.22	3.00	-44.9	-59.7	3.8	1.49e+00	0	57	104	1043333120	60	20933
2026-01-07 00:58:35.09	231.08	2.81	-44.9	-59.7	3.8	1.49e+00	0	57	104	1043333120	60	20853
2026-01-07 00:58:38.13	230.94	2.62	-44.9	-59.7	3.8	1.49e+00	0	57	104	1043333120	60	20838
2026-01-07 00:58:41.16	230.80	2.43	-44.9	-59.7	3.8	1.49e+00	0	57	104	1043333120	60	20821
2026-01-07 00:58:44.19	230.67	2.24	-44.9	-59.7	3.8	1.49e+00	0	57	104	1043333120	60	20794
2026-01-07 00:58:47.23	230.53	2.06	-44.9	-59.7	3.8	1.49e+00	0	57	104	1043333120	60	20812

#Closed at: 2026-01-07 00:58:48
#Recorded file [1043 MB]: D:/lorett/data/31039_260107_034621.dat