passes_logs/2026/01/07/R2.0S_Moscow/R2.0S_Moscow__20260107_125605_FENGYUN_3D_rec.log

#Pass ID: 20260107_125605_FENGYUN 3D
#Satellite: FENGYUN 3D
#Configuration: FENGYUN 3D
#almurnet v.1.7.20251203
#Start time: 2026-01-07 12:56:06

#Version: 2.2.20231116
#Station: R2.0S_Moscow
#Location: 37.707566 lon 55.798166 lat
#TLE: 1 43010U 17072A   26006.26440730  .00000376  00000+0  19957-3 0  9994
#TLE: 2 43010  98.9925 337.9455 0002045 123.9195 236.2175 14.19693586422016

#Time	Az	El	Level	Level2	SNR	BER	BlckErr	Temp	State	Recorded	gain1	gain2
2026-01-07 12:56:06.41	189.72	2.08	-43.9	-55.4	3.8	8.46e-01	0	47	0	0	59	13529
2026-01-07 12:56:10.45	189.91	2.33	-43.9	-55.4	3.8	8.46e-01	0	47	104	0	59	13554
2026-01-07 12:56:14.49	190.11	2.58	-43.9	-55.4	3.8	8.46e-01	0	48	104	0	59	13537
2026-01-07 12:56:18.53	190.31	2.83	-43.9	-55.4	3.8	8.46e-01	0	48	104	0	59	13515
2026-01-07 12:56:22.57	190.51	3.08	-43.9	-55.4	3.8	8.46e-01	0	48	104	0	59	13517
2026-01-07 12:56:26.62	190.72	3.33	-43.9	-55.4	3.8	8.46e-01	0	48	104	0	59	13528
2026-01-07 12:56:30.66	190.93	3.59	-43.9	-55.4	3.8	8.46e-01	0	49	104	0	59	13512
2026-01-07 12:56:34.71	191.14	3.85	-43.9	-55.4	3.8	8.46e-01	0	49	104	0	59	13515
2026-01-07 12:56:38.75	191.36	4.11	-43.9	-55.4	3.8	8.46e-01	0	49	104	0	59	13477
2026-01-07 12:56:42.80	191.58	4.37	-43.9	-55.4	3.8	8.46e-01	0	50	104	0	59	13424
2026-01-07 12:56:46.84	191.80	4.63	-43.9	-55.1	3.8	8.46e-01	0	50	104	0	59	13047
2026-01-07 12:56:50.88	192.03	4.90	-43.8	-54.5	3.8	8.46e-01	0	50	104	0	59	12146
2026-01-07 12:56:54.93	192.26	5.17	-43.7	-53.4	3.8	8.46e-01	0	50	104	0	59	10744
2026-01-07 12:56:58.97	192.50	5.44	-43.7	-53.6	3.8	8.44e-01	0	50	104	0	59	10945
2026-01-07 12:57:03.02	192.74	5.72	-43.8	-54.4	3.8	8.46e-01	0	51	104	0	59	12003
2026-01-07 12:57:07.06	192.98	5.99	-43.8	-54.6	3.8	8.47e-01	0	51	104	0	59	12285
2026-01-07 12:57:11.10	193.23	6.27	-43.7	-54.0	3.8	8.46e-01	0	51	104	0	59	11501
2026-01-07 12:57:15.15	193.49	6.56	-43.6	-52.9	3.8	8.44e-01	0	51	104	0	59	10075
2026-01-07 12:57:19.19	193.74	6.84	-42.8	-49.2	5.4	7.53e-01	0	51	0	0	57	7397
2026-01-07 12:57:23.24	194.01	7.13	-40.8	-44.3	9.6	2.54e-02	0	52	0	20971520	53	5316
2026-01-07 12:57:27.28	194.28	7.42	-38.8	-41.2	13.0	9.38e-05	0	52	0	44040192	49	4663
2026-01-07 12:57:31.33	194.55	7.71	-37.5	-39.5	14.6	1.10e-06	0	52	0	67108864	47	4305
2026-01-07 12:57:35.37	194.83	8.01	-37.3	-39.3	14.8	0.00e+00	0	52	0	89128960	46	4443
2026-01-07 12:57:39.41	195.11	8.30	-38.7	-40.9	13.5	2.40e-05	0	52	0	110100480	48	4776
2026-01-07 12:57:43.45	195.40	8.61	-37.3	-39.1	15.0	0.00e+00	0	52	0	132120576	46	4390
2026-01-07 12:57:47.49	195.70	8.91	-37.2	-39.1	15.2	0.00e+00	0	52	0	155189248	45	4619
2026-01-07 12:57:51.53	196.00	9.22	-37.1	-38.9	15.4	0.00e+00	0	53	0	178257920	45	4514
2026-01-07 12:57:55.57	196.31	9.53	-36.7	-38.5	15.8	0.00e+00	0	53	0	201326592	45	4306
2026-01-07 12:57:59.61	196.62	9.84	-36.8	-38.5	15.9	0.00e+00	0	53	0	223346688	45	4308
2026-01-07 12:58:03.65	196.94	10.16	-36.7	-38.4	16.0	0.00e+00	0	53	0	246415360	45	4272
2026-01-07 12:58:07.69	197.27	10.48	-36.6	-38.4	16.0	0.00e+00	0	53	0	269484032	45	4244
2026-01-07 12:58:11.74	197.61	10.81	-36.5	-38.2	16.2	0.00e+00	0	53	0	291504128	45	4170
2026-01-07 12:58:15.78	197.95	11.13	-36.5	-38.2	16.3	0.00e+00	0	53	0	314572800	44	4411
2026-01-07 12:58:19.81	198.30	11.46	-36.3	-37.9	16.6	0.00e+00	0	53	0	336592896	44	4279
2026-01-07 12:58:23.85	198.65	11.80	-36.0	-37.6	17.0	0.00e+00	0	54	0	359661568	44	4107
2026-01-07 12:58:27.89	199.02	12.14	-35.8	-37.3	17.0	0.00e+00	0	54	0	382730240	43	4237
2026-01-07 12:58:31.93	199.39	12.48	-35.9	-37.4	16.9	0.00e+00	0	54	0	405798912	43	4289
2026-01-07 12:58:35.97	199.77	12.83	-35.7	-37.3	17.1	0.00e+00	0	54	0	427819008	43	4206
2026-01-07 12:58:40.01	200.16	13.17	-35.7	-37.2	17.2	0.00e+00	0	54	0	450887680	43	4185
2026-01-07 12:58:44.04	200.56	13.53	-35.6	-37.1	17.3	0.00e+00	0	54	0	473956352	43	4120
2026-01-07 12:58:48.08	200.97	13.88	-35.6	-37.0	17.4	0.00e+00	0	54	0	495976448	43	4097
2026-01-07 12:58:52.12	201.39	14.25	-35.6	-37.1	17.3	0.00e+00	0	54	0	519045120	43	4121
2026-01-07 12:58:56.16	201.82	14.61	-35.5	-37.0	17.5	0.00e+00	0	54	0	541065216	42	4300
2026-01-07 12:59:00.20	202.26	14.98	-35.3	-36.8	17.7	0.00e+00	0	54	0	564133888	42	4201
2026-01-07 12:59:04.24	202.71	15.35	-35.2	-36.7	17.8	0.00e+00	0	54	0	587202560	42	4157
2026-01-07 12:59:08.27	203.16	15.73	-35.1	-36.6	17.9	0.00e+00	0	54	0	610271232	42	4117
2026-01-07 12:59:12.31	203.64	16.11	-35.0	-36.5	18.0	0.00e+00	0	55	0	632291328	41	4292
2026-01-07 12:59:16.35	204.12	16.50	-34.8	-36.1	18.3	0.00e+00	0	54	0	655360000	41	4142
2026-01-07 12:59:20.39	204.62	16.89	-34.8	-36.2	18.3	0.00e+00	0	54	0	678428672	41	4171
2026-01-07 12:59:24.43	205.12	17.28	-35.0	-36.4	18.1	0.00e+00	0	55	0	700448768	41	4263
2026-01-07 12:59:28.47	205.65	17.68	-34.8	-36.2	18.3	0.00e+00	0	55	0	723517440	41	4167
2026-01-07 12:59:32.51	206.18	18.09	-34.6	-36.0	18.5	0.00e+00	0	55	0	746586112	41	4062
2026-01-07 12:59:36.56	206.73	18.50	-34.6	-36.0	18.5	0.00e+00	0	55	0	768606208	41	4065
2026-01-07 12:59:40.59	207.30	18.91	-34.4	-35.7	18.8	0.00e+00	0	55	0	791674880	40	4180
2026-01-07 12:59:44.63	207.87	19.32	-34.4	-35.7	18.8	0.00e+00	0	55	0	814743552	40	4175
2026-01-07 12:59:48.67	208.47	19.74	-34.1	-35.5	19.0	0.00e+00	0	55	0	836763648	40	4056
2026-01-07 12:59:52.72	209.08	20.17	-34.3	-35.6	19.0	0.00e+00	0	55	0	859832320	40	4113
2026-01-07 12:59:56.76	209.71	20.59	-34.1	-35.4	19.1	0.00e+00	0	55	0	882900992	40	4040
2026-01-07 13:00:00.80	210.35	21.03	-34.1	-35.4	19.2	0.00e+00	0	55	0	904921088	39	4252
2026-01-07 13:00:04.83	211.01	21.46	-34.1	-35.4	19.2	0.00e+00	0	55	0	927989760	39	4259
2026-01-07 13:00:08.87	211.70	21.90	-34.1	-35.4	19.2	0.00e+00	0	55	0	951058432	39	4289
2026-01-07 13:00:12.91	212.40	22.34	-33.8	-35.1	19.5	0.00e+00	0	55	0	973078528	39	4107
2026-01-07 13:00:16.95	213.12	22.79	-33.5	-34.8	19.8	0.00e+00	0	55	0	996147200	38	4198
2026-01-07 13:00:20.99	213.86	23.24	-33.3	-34.6	20.0	0.00e+00	0	55	0	1019215872	38	4102
2026-01-07 13:00:25.03	214.62	23.69	-33.5	-34.8	19.8	0.00e+00	0	55	0	1041235968	38	4195
2026-01-07 13:00:29.07	215.40	24.15	-33.4	-34.6	19.9	0.00e+00	0	55	0	1064304640	38	4135
2026-01-07 13:00:33.11	216.21	24.60	-33.5	-34.8	19.8	0.00e+00	0	55	0	1087373312	38	4203
2026-01-07 13:00:37.15	217.04	25.06	-33.6	-34.9	19.7	0.00e+00	0	55	0	1109393408	38	4255
2026-01-07 13:00:41.19	217.89	25.52	-33.4	-34.7	19.9	0.00e+00	0	55	0	1132462080	38	4146
2026-01-07 13:00:45.23	218.77	25.98	-33.1	-34.3	20.3	0.00e+00	0	55	0	1155530752	38	3987
2026-01-07 13:00:49.27	219.67	26.45	-33.3	-34.5	20.1	0.00e+00	0	56	0	1177550848	38	4083
2026-01-07 13:00:53.30	220.60	26.91	-33.2	-34.4	20.2	0.00e+00	0	55	0	1200619520	38	4015
2026-01-07 13:00:57.35	221.56	27.37	-33.0	-34.2	20.3	0.00e+00	0	56	0	1223688192	37	4186
2026-01-07 13:01:01.38	222.54	27.83	-32.9	-34.1	20.5	0.00e+00	0	56	0	1245708288	37	4099
2026-01-07 13:01:05.42	223.55	28.30	-33.0	-34.2	20.3	0.00e+00	0	56	0	1268776960	37	4183
2026-01-07 13:01:09.46	224.59	28.75	-32.9	-34.1	20.4	0.00e+00	0	55	0	1291845632	37	4132
2026-01-07 13:01:13.50	225.66	29.21	-32.9	-34.1	20.5	0.00e+00	0	56	0	1313865728	37	4126
2026-01-07 13:01:17.54	226.76	29.66	-32.6	-33.7	20.9	0.00e+00	0	56	0	1336934400	37	3948
2026-01-07 13:01:21.58	227.89	30.11	-32.9	-34.1	20.5	0.00e+00	0	56	0	1360003072	36	4350
2026-01-07 13:01:25.61	229.05	30.55	-32.8	-33.9	20.6	0.00e+00	0	56	0	1382023168	36	4289
2026-01-07 13:01:29.66	230.25	30.99	-32.7	-33.9	20.6	0.00e+00	0	56	0	1405091840	36	4267
2026-01-07 13:01:33.70	231.47	31.41	-32.7	-33.8	20.6	0.00e+00	0	56	0	1428160512	36	4239
2026-01-07 13:01:37.75	232.73	31.83	-32.8	-34.0	20.5	0.00e+00	0	56	0	1450180608	36	4315
2026-01-07 13:01:41.79	234.02	32.25	-32.6	-33.8	20.7	0.00e+00	0	56	0	1473249280	36	4210
2026-01-07 13:01:45.83	235.34	32.64	-32.8	-34.0	20.6	0.00e+00	0	56	0	1496317952	36	4298
2026-01-07 13:01:49.87	236.69	33.03	-32.9	-34.2	20.4	0.00e+00	0	56	0	1518338048	36	4395
2026-01-07 13:01:53.90	238.07	33.41	-32.5	-33.7	20.8	0.00e+00	0	56	0	1541406720	36	4162
2026-01-07 13:01:57.95	239.49	33.77	-32.7	-34.0	20.6	0.00e+00	0	56	0	1564475392	36	4294
2026-01-07 13:02:01.99	240.94	34.11	-32.4	-33.6	20.8	0.00e+00	0	56	0	1586495488	36	4126
2026-01-07 13:02:06.03	242.41	34.44	-32.5	-33.7	20.7	0.00e+00	0	56	0	1609564160	36	4178
2026-01-07 13:02:10.06	243.91	34.75	-32.4	-33.6	21.0	0.00e+00	0	56	0	1632632832	36	4099
2026-01-07 13:02:14.10	245.44	35.04	-32.7	-33.8	20.7	0.00e+00	0	56	0	1654652928	36	4237
2026-01-07 13:02:18.15	247.00	35.31	-32.4	-33.6	21.0	0.00e+00	0	56	0	1677721600	36	4110
2026-01-07 13:02:22.19	248.58	35.56	-32.2	-33.3	21.2	0.00e+00	0	56	0	1700790272	36	3974
2026-01-07 13:02:26.22	250.18	35.79	-32.5	-33.7	20.8	0.00e+00	0	56	0	1722810368	36	4175
2026-01-07 13:02:30.26	251.81	35.99	-32.4	-33.5	21.0	0.00e+00	0	56	0	1745879040	36	4081
2026-01-07 13:02:34.30	253.45	36.17	-32.5	-33.7	20.8	0.00e+00	0	56	0	1768947712	36	4184
2026-01-07 13:02:38.34	255.11	36.32	-32.3	-33.5	21.1	0.00e+00	0	56	0	1790967808	36	4053
2026-01-07 13:02:42.38	256.79	36.45	-32.3	-33.5	21.0	0.00e+00	0	56	0	1814036480	36	4065
2026-01-07 13:02:46.43	258.48	36.55	-32.3	-33.4	21.1	0.00e+00	0	56	0	1837105152	36	4036
2026-01-07 13:02:50.46	260.17	36.63	-32.4	-33.5	21.0	0.00e+00	0	56	0	1860173824	36	4088
2026-01-07 13:02:54.50	261.87	36.67	-32.5	-33.7	20.8	0.00e+00	0	56	0	1882193920	36	4180
2026-01-07 13:02:58.54	263.57	36.69	-32.6	-33.6	21.5	0.00e+00	0	56	0	1905262592	36	4118
2026-01-07 13:03:02.58	265.28	36.68	-32.6	-33.6	21.5	0.00e+00	0	56	0	1927282688	36	4143
2026-01-07 13:03:06.62	266.98	36.64	-32.5	-33.5	21.6	0.00e+00	0	56	0	1950351360	36	4076
2026-01-07 13:03:10.66	268.67	36.57	-32.6	-33.7	21.4	0.00e+00	0	56	0	1973420032	36	4166
2026-01-07 13:03:14.70	270.36	36.48	-32.4	-33.5	21.7	0.00e+00	0	56	0	1995440128	36	4057
2026-01-07 13:03:18.74	272.04	36.36	-32.5	-33.5	21.6	0.00e+00	0	56	0	2018508800	36	4088
2026-01-07 13:03:22.78	273.70	36.22	-32.5	-33.5	21.6	0.00e+00	0	56	0	2041577472	36	4068
2026-01-07 13:03:26.82	275.35	36.04	-32.6	-33.6	21.5	0.00e+00	0	56	0	2064646144	36	4134
2026-01-07 13:03:30.86	276.98	35.85	-32.5	-33.5	21.6	0.00e+00	0	56	0	2086666240	36	4074
2026-01-07 13:03:34.90	278.58	35.63	-32.4	-33.4	21.7	0.00e+00	0	56	0	2109734912	36	4031
2026-01-07 13:03:38.95	280.17	35.39	-32.9	-34.0	21.2	0.00e+00	0	56	0	2131755008	36	4311
2026-01-07 13:03:42.99	281.73	35.12	-32.4	-33.4	21.6	0.00e+00	0	56	0	2154823680	36	4046
2026-01-07 13:03:47.02	283.26	34.84	-32.7	-33.8	21.3	0.00e+00	0	56	0	2177892352	36	4211
2026-01-07 13:03:51.06	284.77	34.53	-32.7	-33.7	21.4	0.00e+00	0	56	0	2200961024	36	4179
2026-01-07 13:03:55.10	286.25	34.21	-32.7	-33.7	21.4	0.00e+00	0	56	0	2222981120	36	4183
2026-01-07 13:03:59.14	287.70	33.87	-33.1	-34.2	20.9	0.00e+00	0	56	0	2246049792	36	4416
2026-01-07 13:04:03.18	289.12	33.52	-33.0	-34.1	21.1	0.00e+00	0	56	0	2269118464	36	4346
2026-01-07 13:04:07.22	290.51	33.15	-33.0	-34.1	21.0	0.00e+00	0	56	0	2291138560	36	4348
2026-01-07 13:04:11.26	291.87	32.77	-33.1	-34.2	20.9	0.00e+00	0	56	0	2314207232	36	4424
2026-01-07 13:04:15.30	293.19	32.37	-33.2	-34.3	20.8	0.00e+00	0	56	0	2336227328	36	4470
2026-01-07 13:04:19.34	294.48	31.97	-33.1	-34.2	20.9	0.00e+00	0	56	0	2359296000	37	4175
2026-01-07 13:04:23.38	295.75	31.55	-33.2	-34.3	20.9	0.00e+00	0	56	0	2382364672	37	4194
2026-01-07 13:04:27.42	296.98	31.13	-33.0	-34.1	21.0	0.00e+00	0	56	0	2405433344	37	4119
2026-01-07 13:04:31.47	298.18	30.70	-32.9	-33.9	21.1	0.00e+00	0	56	0	2427453440	37	4039
2026-01-07 13:04:35.51	299.34	30.26	-33.1	-34.2	20.8	0.00e+00	0	56	0	2450522112	37	4184
2026-01-07 13:04:39.55	300.48	29.81	-33.1	-34.2	20.9	0.00e+00	0	56	0	2473590784	37	4159
2026-01-07 13:04:43.59	301.58	29.37	-33.2	-34.3	20.8	0.00e+00	0	56	0	2495610880	37	4203
2026-01-07 13:04:47.63	302.66	28.91	-33.2	-34.3	20.7	0.00e+00	0	56	0	2518679552	37	4230
2026-01-07 13:04:51.67	303.70	28.46	-33.3	-34.4	20.6	0.00e+00	0	56	0	2541748224	37	4274
2026-01-07 13:04:55.70	304.72	28.00	-33.5	-34.6	20.5	0.00e+00	0	56	0	2563768320	37	4364
2026-01-07 13:04:59.74	305.71	27.55	-33.1	-34.1	20.8	0.00e+00	0	56	0	2586836992	37	4142
2026-01-07 13:05:03.78	306.67	27.09	-33.6	-34.8	20.2	0.00e+00	0	56	0	2609905664	37	4452
2026-01-07 13:05:07.82	307.60	26.63	-33.7	-34.8	20.2	0.00e+00	0	56	0	2631925760	37	4460
2026-01-07 13:05:11.86	308.51	26.17	-33.5	-34.7	20.3	0.00e+00	0	56	0	2654994432	37	4394
2026-01-07 13:05:15.89	309.39	25.71	-33.4	-34.6	20.4	0.00e+00	0	56	0	2678063104	37	4344
2026-01-07 13:05:19.94	310.25	25.25	-33.2	-34.3	20.6	0.00e+00	0	56	0	2700083200	37	4222
2026-01-07 13:05:23.98	311.09	24.79	-33.4	-34.5	20.4	0.00e+00	0	56	0	2723151872	37	4326
2026-01-07 13:05:28.01	311.89	24.34	-33.6	-34.8	20.2	0.00e+00	0	57	0	2746220544	37	4461
2026-01-07 13:05:32.05	312.68	23.89	-33.8	-34.9	20.0	0.00e+00	0	56	0	2768240640	38	4276
2026-01-07 13:05:36.09	313.45	23.44	-33.9	-35.0	19.9	0.00e+00	0	56	0	2791309312	38	4317
2026-01-07 13:05:40.13	314.19	22.99	-34.1	-35.3	19.7	0.00e+00	0	56	0	2814377984	38	4453
2026-01-07 13:05:44.17	314.92	22.55	-34.1	-35.3	19.6	0.00e+00	0	56	0	2836398080	38	4467
2026-01-07 13:05:48.21	315.62	22.11	-34.0	-35.2	19.7	0.00e+00	0	56	0	2859466752	38	4415
2026-01-07 13:05:52.25	316.31	21.67	-34.0	-35.2	19.7	0.00e+00	0	57	0	2882535424	38	4392
2026-01-07 13:05:56.28	316.98	21.24	-34.3	-35.5	19.4	0.00e+00	0	56	0	2904555520	39	4316
2026-01-07 13:06:00.32	317.63	20.81	-34.5	-35.7	19.2	0.00e+00	0	57	0	2927624192	39	4434
2026-01-07 13:06:04.36	318.26	20.38	-34.4	-35.6	19.3	0.00e+00	0	56	0	2949644288	39	4361
2026-01-07 13:06:08.40	318.87	19.96	-34.5	-35.7	19.2	0.00e+00	0	57	0	2972712960	39	4432
2026-01-07 13:06:12.44	319.47	19.54	-34.8	-36.0	18.7	0.00e+00	0	56	0	2995781632	40	4335
2026-01-07 13:06:16.48	320.06	19.13	-34.9	-36.2	18.6	0.00e+00	0	56	0	3018850304	40	4426
2026-01-07 13:06:20.52	320.62	18.72	-35.0	-36.3	18.4	0.00e+00	0	57	0	3040870400	40	4483
2026-01-07 13:06:24.56	321.18	18.31	-35.1	-36.4	18.3	0.00e+00	0	56	0	3063939072	40	4543
2026-01-07 13:06:28.60	321.72	17.91	-35.3	-36.6	18.1	0.00e+00	0	57	0	3087007744	41	4375
2026-01-07 13:06:32.64	322.24	17.51	-35.2	-36.6	18.2	0.00e+00	0	57	0	3109027840	41	4352
2026-01-07 13:06:36.68	322.76	17.12	-35.1	-36.4	18.3	0.00e+00	0	56	0	3132096512	41	4271
2026-01-07 13:06:40.72	323.26	16.73	-35.1	-36.4	18.3	0.00e+00	0	57	0	3155165184	41	4282
2026-01-07 13:06:44.76	323.75	16.35	-35.2	-36.5	18.2	0.00e+00	0	56	0	3177185280	41	4329
2026-01-07 13:06:48.80	324.22	15.96	-35.3	-36.6	18.1	0.00e+00	0	57	0	3200253952	41	4359
2026-01-07 13:06:52.83	324.69	15.59	-35.3	-36.6	18.1	0.00e+00	0	57	0	3223322624	41	4357
2026-01-07 13:06:56.87	325.14	15.22	-35.4	-36.8	17.9	0.00e+00	0	57	0	3245342720	41	4448
2026-01-07 13:07:00.91	325.58	14.85	-35.6	-37.0	17.7	0.00e+00	0	57	0	3268411392	41	4547
2026-01-07 13:07:04.96	326.02	14.48	-35.7	-37.2	17.5	0.00e+00	0	57	0	3291480064	42	4393
2026-01-07 13:07:08.98	326.44	14.13	-35.7	-37.1	17.5	0.00e+00	0	57	0	3313500160	42	4360
2026-01-07 13:07:13.03	326.85	13.77	-35.7	-37.1	17.5	0.00e+00	0	57	0	3336568832	42	4383
2026-01-07 13:07:17.07	327.26	13.42	-35.9	-37.4	17.2	0.00e+00	0	57	0	3359637504	42	4514
2026-01-07 13:07:21.11	327.65	13.07	-36.2	-37.7	16.8	0.00e+00	0	57	0	3381657600	43	4432
2026-01-07 13:07:25.15	328.04	12.72	-36.3	-37.8	16.7	0.00e+00	0	57	0	3404726272	43	4469
2026-01-07 13:07:29.18	328.41	12.38	-36.3	-37.8	16.7	0.00e+00	0	57	0	3427794944	43	4491
2026-01-07 13:07:33.23	328.78	12.04	-36.4	-37.9	16.5	0.00e+00	0	56	0	3449815040	43	4542
2026-01-07 13:07:37.27	329.15	11.71	-36.4	-38.0	16.5	0.00e+00	0	57	0	3472883712	43	4560
2026-01-07 13:07:41.31	329.50	11.38	-36.7	-38.3	16.2	0.00e+00	0	57	0	3495952384	43	4718
2026-01-07 13:07:45.35	329.85	11.05	-37.1	-38.7	15.8	0.00e+00	0	57	0	3517972480	44	4700
2026-01-07 13:07:49.39	330.19	10.73	-37.0	-38.6	15.9	0.00e+00	0	57	0	3541041152	44	4640
2026-01-07 13:07:53.43	330.52	10.41	-37.0	-38.7	15.8	0.00e+00	0	56	0	3564109824	44	4684
2026-01-07 13:07:57.47	330.84	10.10	-36.9	-38.5	16.0	0.00e+00	0	57	0	3586129920	44	4572
2026-01-07 13:08:01.50	331.16	9.78	-37.1	-38.8	15.7	0.00e+00	0	57	0	3609198592	44	4713
2026-01-07 13:08:05.55	331.47	9.47	-37.2	-39.0	15.4	0.00e+00	0	57	0	3632267264	45	4550
2026-01-07 13:08:09.59	331.78	9.17	-37.1	-38.7	15.6	0.00e+00	0	56	0	3654287360	45	4441
2026-01-07 13:08:13.62	332.08	8.86	-37.1	-38.8	15.6	0.00e+00	0	56	0	3677356032	45	4454
2026-01-07 13:08:17.66	332.38	8.56	-37.2	-38.9	15.4	0.00e+00	0	57	0	3700424704	45	4534
2026-01-07 13:08:21.70	332.67	8.27	-37.1	-38.8	15.4	0.00e+00	0	57	0	3723493376	45	4476
2026-01-07 13:08:25.74	332.95	7.97	-44.0	-55.1	3.8	2.15e-01	0	57	0	3745513472	58	13857
2026-01-07 13:08:29.78	333.23	7.68	-44.9	-56.7	3.8	8.45e-01	0	57	104	3745513472	60	14831
2026-01-07 13:08:33.82	333.50	7.39	-45.2	-57.0	3.8	8.45e-01	0	57	104	3745513472	60	15233
2026-01-07 13:08:37.87	333.77	7.10	-45.1	-56.9	3.8	8.47e-01	0	57	104	3745513472	60	15218
2026-01-07 13:08:41.91	334.03	6.82	-45.1	-56.9	3.8	8.46e-01	0	57	104	3745513472	60	15144
2026-01-07 13:08:45.95	334.29	6.54	-45.1	-56.9	3.8	8.45e-01	0	57	104	3745513472	60	15190
2026-01-07 13:08:49.99	334.55	6.26	-45.1	-56.9	3.8	8.45e-01	0	57	104	3745513472	60	15102
2026-01-07 13:08:54.04	334.80	5.98	-45.1	-56.9	3.8	8.47e-01	0	57	104	3745513472	60	15125
2026-01-07 13:08:58.08	335.04	5.71	-45.1	-56.8	3.8	8.46e-01	0	57	104	3745513472	60	15037
2026-01-07 13:09:02.12	335.28	5.44	-45.1	-56.9	3.8	8.46e-01	0	57	104	3745513472	60	15075
2026-01-07 13:09:06.17	335.52	5.17	-45.1	-56.9	3.8	8.47e-01	0	57	104	3745513472	60	15064
2026-01-07 13:09:10.21	335.75	4.91	-45.0	-56.8	3.8	8.44e-01	0	57	104	3745513472	60	15045
2026-01-07 13:09:14.26	335.98	4.64	-45.1	-56.9	3.8	8.46e-01	0	57	104	3745513472	60	15067
2026-01-07 13:09:18.30	336.21	4.38	-45.0	-56.9	3.8	8.46e-01	0	57	104	3745513472	60	15053
2026-01-07 13:09:22.34	336.43	4.12	-45.1	-56.8	3.8	8.47e-01	0	57	104	3745513472	60	15049
2026-01-07 13:09:26.39	336.65	3.86	-45.0	-56.8	3.8	8.47e-01	0	57	104	3745513472	60	15041
2026-01-07 13:09:30.43	336.87	3.61	-45.0	-56.9	3.8	8.47e-01	0	57	104	3745513472	60	15067
2026-01-07 13:09:34.48	337.08	3.35	-45.0	-56.8	3.8	8.46e-01	0	57	104	3745513472	60	15038
2026-01-07 13:09:38.52	337.29	3.10	-45.0	-56.9	3.8	8.47e-01	0	57	104	3745513472	60	15066
2026-01-07 13:09:42.57	337.49	2.85	-45.0	-56.8	3.8	8.45e-01	0	57	104	3745513472	60	15006
2026-01-07 13:09:46.61	337.69	2.61	-45.0	-56.8	3.8	8.45e-01	0	57	104	3745513472	60	15040
2026-01-07 13:09:50.65	337.89	2.36	-45.0	-56.8	3.8	8.46e-01	0	57	104	3745513472	60	15032
2026-01-07 13:09:54.70	338.09	2.12	-45.0	-56.8	3.8	8.47e-01	0	57	104	3745513472	60	15047
2026-01-07 13:09:58.74	338.28	1.88	-45.0	-56.8	3.8	8.46e-01	0	57	104	3745513472	60	15009

#Closed at: 2026-01-07 13:09:59
#Recorded file [3745 MB]: D:/lorett/data/31039_260107_155606.dat