passes_logs/2026/01/07/R2.0S_Moscow/R2.0S_Moscow__20260107_144158_FENGYUN_3E_rec.log

#Pass ID: 20260107_144158_FENGYUN 3E
#Satellite: FENGYUN 3E
#Configuration: FENGYUN 3E
#almurnet v.1.7.20251203
#Start time: 2026-01-07 14:42:00

#Version: 2.2.20231116
#Station: R2.0S_Moscow
#Location: 37.707566 lon 55.798166 lat
#TLE: 1 49008U 21062A   26006.26767912  .00000427  00000+0  22170-3 0  9993
#TLE: 2 49008  98.7475  11.4982 0001602 156.1158 204.0093 14.19885456233607

#Time	Az	El	Level	Level2	SNR	BER	BlckErr	Temp	State	Recorded	gain1	gain2
2026-01-07 14:42:00.68	175.31	2.14	-44.1	-54.8	3.8	8.46e-01	0	47	0	0	59	11879
2026-01-07 14:42:04.72	175.42	2.40	-44.0	-54.8	3.8	8.48e-01	0	48	104	0	59	11915
2026-01-07 14:42:08.76	175.52	2.66	-44.0	-54.8	3.8	8.46e-01	0	48	104	0	59	11896
2026-01-07 14:42:12.81	175.63	2.92	-44.1	-54.8	3.8	8.45e-01	0	48	104	0	59	11870
2026-01-07 14:42:16.85	175.73	3.19	-44.0	-54.8	3.8	8.46e-01	0	48	104	0	59	11873
2026-01-07 14:42:20.89	175.84	3.46	-44.0	-54.8	3.8	8.45e-01	0	49	104	0	59	11849
2026-01-07 14:42:24.94	175.95	3.73	-44.0	-54.8	3.8	8.46e-01	0	49	104	0	59	11852
2026-01-07 14:42:28.98	176.07	4.00	-44.1	-54.8	3.8	8.46e-01	0	49	104	0	59	11909
2026-01-07 14:42:33.03	176.18	4.28	-44.1	-54.8	3.8	8.46e-01	0	50	104	0	59	11846
2026-01-07 14:42:37.07	176.30	4.55	-44.0	-54.8	3.8	8.46e-01	0	50	104	0	59	11847
2026-01-07 14:42:41.11	176.42	4.84	-44.0	-54.7	3.8	8.46e-01	0	50	104	0	59	11773
2026-01-07 14:42:45.16	176.54	5.12	-44.0	-54.7	3.8	8.46e-01	0	50	104	0	59	11738
2026-01-07 14:42:49.20	176.66	5.41	-44.0	-54.6	3.8	8.46e-01	0	51	104	0	59	11559
2026-01-07 14:42:53.25	176.79	5.70	-44.0	-54.1	3.8	8.45e-01	0	51	104	0	58	11682
2026-01-07 14:42:57.29	176.91	5.99	-43.8	-53.0	3.8	8.46e-01	0	51	104	0	58	10260
2026-01-07 14:43:01.33	177.04	6.29	-43.6	-51.8	4.1	8.39e-01	0	51	0	0	58	8952
2026-01-07 14:43:05.38	177.18	6.59	-42.9	-49.0	5.1	7.62e-01	0	51	0	0	56	7255
2026-01-07 14:43:09.42	177.31	6.89	-41.3	-45.4	7.9	1.01e-01	0	52	0	23068672	53	5716
2026-01-07 14:43:13.47	177.45	7.20	-39.7	-42.7	10.8	3.49e-03	0	51	0	52428800	50	4945
2026-01-07 14:43:17.51	177.59	7.51	-38.0	-40.4	12.9	9.72e-05	0	52	0	81788928	47	4541
2026-01-07 14:43:21.55	177.73	7.83	-37.2	-39.4	13.9	3.40e-06	0	52	0	111149056	45	4533
2026-01-07 14:43:25.60	177.88	8.15	-39.7	-42.6	11.1	8.06e-04	0	52	0	140509184	49	5168
2026-01-07 14:43:29.64	178.03	8.47	-37.9	-40.3	13.1	4.78e-04	0	52	0	169869312	46	4714
2026-01-07 14:43:33.68	178.18	8.79	-37.0	-39.2	14.4	0.00e+00	0	53	0	198180864	44	4675
2026-01-07 14:43:37.72	178.33	9.12	-36.9	-39.1	14.6	0.00e+00	0	53	0	227540992	44	4610
2026-01-07 14:43:41.76	178.49	9.46	-36.8	-39.0	14.8	0.00e+00	0	53	0	256901120	44	4568
2026-01-07 14:43:45.80	178.65	9.80	-36.7	-38.8	15.0	0.00e+00	0	53	0	286261248	44	4476
2026-01-07 14:43:49.84	178.82	10.14	-36.8	-38.9	14.9	0.00e+00	0	53	0	315621376	44	4543
2026-01-07 14:43:53.88	178.99	10.49	-36.4	-38.5	15.2	0.00e+00	0	53	0	344981504	43	4582
2026-01-07 14:43:57.93	179.16	10.84	-36.2	-38.3	15.5	0.00e+00	0	53	0	373293056	43	4442
2026-01-07 14:44:01.96	179.34	11.20	-36.3	-38.4	15.4	0.00e+00	0	53	0	402653184	43	4523
2026-01-07 14:44:06.00	179.52	11.56	-36.0	-38.0	15.8	0.00e+00	0	53	0	432013312	42	4576
2026-01-07 14:44:10.04	179.71	11.93	-35.8	-37.7	16.1	0.00e+00	0	53	0	461373440	42	4421
2026-01-07 14:44:14.08	179.90	12.31	-35.7	-37.7	16.2	0.00e+00	0	54	0	489684992	42	4407
2026-01-07 14:44:18.12	180.09	12.68	-35.4	-37.3	16.5	0.00e+00	0	54	0	519045120	41	4478
2026-01-07 14:44:22.16	180.29	13.07	-35.3	-37.2	16.6	0.00e+00	0	54	0	548405248	41	4416
2026-01-07 14:44:26.20	180.49	13.46	-35.2	-37.0	16.7	0.00e+00	0	54	0	577765376	41	4336
2026-01-07 14:44:30.24	180.70	13.86	-35.1	-36.9	16.9	0.00e+00	0	54	0	607125504	40	4534
2026-01-07 14:44:34.27	180.92	14.26	-34.9	-36.8	17.0	0.00e+00	0	54	0	635437056	40	4462
2026-01-07 14:44:38.32	181.14	14.67	-34.9	-36.7	17.1	0.00e+00	0	54	0	664797184	40	4439
2026-01-07 14:44:42.36	181.36	15.09	-34.9	-36.8	17.0	0.00e+00	0	54	0	694157312	40	4454
2026-01-07 14:44:46.40	181.60	15.51	-34.8	-36.8	17.0	0.00e+00	0	54	0	723517440	40	4454
2026-01-07 14:44:50.43	181.83	15.94	-34.7	-36.7	17.1	0.00e+00	0	54	0	751828992	40	4400
2026-01-07 14:44:54.47	182.08	16.38	-34.8	-36.7	17.1	0.00e+00	0	55	0	781189120	39	4679
2026-01-07 14:44:58.51	182.33	16.82	-34.5	-36.4	17.4	0.00e+00	0	55	0	810549248	39	4500
2026-01-07 14:45:02.56	182.59	17.28	-34.4	-36.3	17.6	0.00e+00	0	55	0	839909376	39	4446
2026-01-07 14:45:06.59	182.86	17.74	-34.3	-36.2	17.7	0.00e+00	0	55	0	869269504	39	4400
2026-01-07 14:45:10.63	183.13	18.20	-34.2	-36.1	17.7	0.00e+00	0	55	0	898629632	39	4365
2026-01-07 14:45:14.67	183.41	18.68	-34.2	-36.0	17.9	0.00e+00	0	55	0	926941184	39	4302
2026-01-07 14:45:18.71	183.71	19.17	-34.1	-35.9	17.9	0.00e+00	0	55	0	956301312	39	4278
2026-01-07 14:45:22.76	184.01	19.66	-34.1	-35.9	17.9	0.00e+00	0	55	0	985661440	39	4291
2026-01-07 14:45:26.80	184.32	20.17	-34.2	-36.0	17.9	0.00e+00	0	55	0	1015021568	39	4296
2026-01-07 14:45:30.84	184.64	20.68	-34.1	-35.9	18.0	0.00e+00	0	55	0	1044381696	39	4274
2026-01-07 14:45:34.88	184.97	21.21	-34.2	-36.0	18.0	0.00e+00	0	55	0	1072693248	39	4309
2026-01-07 14:45:38.92	185.31	21.74	-34.2	-35.9	18.1	0.00e+00	0	55	0	1102053376	39	4266
2026-01-07 14:45:42.96	185.66	22.29	-34.0	-35.8	18.2	0.00e+00	0	55	0	1131413504	38	4452
2026-01-07 14:45:47.00	186.03	22.84	-33.9	-35.6	18.4	0.00e+00	0	55	0	1160773632	38	4356
2026-01-07 14:45:51.03	186.41	23.41	-33.8	-35.5	18.4	0.00e+00	0	55	0	1190133760	38	4328
2026-01-07 14:45:55.07	186.80	23.98	-33.6	-35.3	18.6	0.00e+00	0	55	0	1219493888	38	4232
2026-01-07 14:45:59.11	187.21	24.57	-33.6	-35.3	18.5	0.00e+00	0	55	0	1247805440	37	4471
2026-01-07 14:46:03.15	187.63	25.18	-33.5	-35.2	18.6	0.00e+00	0	56	0	1277165568	37	4430
2026-01-07 14:46:07.19	188.06	25.79	-33.3	-35.1	18.7	0.00e+00	0	55	0	1306525696	37	4359
2026-01-07 14:46:11.23	188.52	26.42	-33.2	-35.0	18.9	0.00e+00	0	56	0	1335885824	37	4302
2026-01-07 14:46:15.27	188.99	27.06	-33.1	-34.8	19.0	0.00e+00	0	56	0	1365245952	37	4234
2026-01-07 14:46:19.31	189.48	27.71	-33.1	-34.8	19.1	0.00e+00	0	56	0	1393557504	36	4458
2026-01-07 14:46:23.34	189.99	28.37	-32.8	-34.4	19.5	0.00e+00	0	56	0	1422917632	36	4270
2026-01-07 14:46:27.39	190.52	29.06	-32.2	-33.8	19.3	0.00e+00	0	56	0	1452277760	34	4472
2026-01-07 14:46:31.43	191.08	29.75	-32.3	-34.0	19.2	0.00e+00	0	56	0	1481637888	34	4557
2026-01-07 14:46:35.47	191.66	30.46	-32.4	-34.2	18.9	0.00e+00	0	56	0	1510998016	34	4679
2026-01-07 14:46:39.51	192.26	31.18	-32.4	-34.2	18.9	0.00e+00	0	56	0	1540358144	34	4694
2026-01-07 14:46:43.55	192.89	31.92	-32.3	-34.1	18.9	0.00e+00	0	56	0	1568669696	35	4385
2026-01-07 14:46:47.60	193.55	32.68	-32.3	-34.1	18.9	0.00e+00	0	56	0	1598029824	34	4650
2026-01-07 14:46:51.64	194.25	33.44	-32.3	-34.1	18.9	0.00e+00	0	56	0	1627389952	34	4642
2026-01-07 14:46:55.68	194.97	34.23	-32.5	-34.4	18.7	0.00e+00	0	56	0	1656750080	34	4768
2026-01-07 14:46:59.72	195.73	35.03	-32.4	-34.2	18.9	0.00e+00	0	56	0	1686110208	34	4663
2026-01-07 14:47:03.76	196.53	35.84	-32.3	-34.0	19.0	0.00e+00	0	56	0	1715470336	34	4559
2026-01-07 14:47:07.80	197.36	36.67	-32.5	-34.4	18.7	0.00e+00	0	56	0	1743781888	35	4500
2026-01-07 14:47:11.83	198.24	37.51	-32.4	-34.2	19.0	0.00e+00	0	56	0	1773142016	35	4401
2026-01-07 14:47:15.87	199.17	38.36	-32.6	-34.4	18.9	0.00e+00	0	56	0	1802502144	35	4499
2026-01-07 14:47:19.91	200.14	39.23	-33.6	-35.3	18.7	0.00e+00	0	56	0	1831862272	36	4754
2026-01-07 14:47:23.95	201.17	40.11	-33.3	-35.0	19.0	0.00e+00	0	56	0	1861222400	37	4332
2026-01-07 14:47:27.99	202.26	41.01	-33.2	-34.9	19.3	0.00e+00	0	56	0	1889533952	36	4504
2026-01-07 14:47:32.03	203.40	41.91	-33.5	-35.2	18.9	2.20e-06	0	56	0	1918894080	36	4685
2026-01-07 14:47:36.06	204.61	42.82	-33.6	-35.3	18.9	0.00e+00	0	56	0	1948254208	36	4745
2026-01-07 14:47:40.11	205.90	43.74	-33.7	-35.4	18.7	0.00e+00	0	56	0	1977614336	37	4513
2026-01-07 14:47:44.15	207.25	44.67	-33.5	-35.1	19.2	0.00e+00	0	56	0	2006974464	37	4342
2026-01-07 14:47:48.18	208.69	45.60	-34.0	-35.7	18.7	0.00e+00	0	56	0	2036334592	37	4692
2026-01-07 14:47:52.22	210.21	46.53	-34.6	-35.7	19.2	0.00e+00	0	56	0	2064646144	39	4164
2026-01-07 14:47:56.26	211.83	47.46	-34.8	-35.9	19.0	0.00e+00	0	56	0	2094006272	39	4279
2026-01-07 14:48:00.31	213.54	48.38	-34.8	-35.9	18.9	0.00e+00	0	56	0	2123366400	40	4040
2026-01-07 14:48:04.35	215.36	49.30	-34.8	-35.9	18.8	0.00e+00	0	56	0	2152726528	40	4049
2026-01-07 14:48:08.39	217.29	50.19	-35.5	-36.7	18.1	0.00e+00	0	56	0	2182086656	40	4413
2026-01-07 14:48:12.43	219.33	51.08	-35.1	-36.3	18.5	0.00e+00	0	56	0	2210398208	40	4201
2026-01-07 14:48:16.47	221.49	51.93	-35.5	-36.7	18.2	2.20e-06	0	56	0	2239758336	40	4403
2026-01-07 14:48:20.51	223.78	52.76	-35.0	-36.1	18.7	0.00e+00	0	56	0	2269118464	40	4107
2026-01-07 14:48:24.55	226.20	53.56	-35.3	-36.5	18.3	0.00e+00	0	57	0	2298478592	40	4323
2026-01-07 14:48:28.59	228.74	54.31	-35.0	-36.1	18.7	0.00e+00	0	56	0	2327838720	40	4127
2026-01-07 14:48:32.64	231.43	55.01	-35.1	-36.3	18.6	0.00e+00	0	56	0	2357198848	40	4199
2026-01-07 14:48:36.68	234.24	55.66	-35.2	-36.3	18.5	0.00e+00	0	56	0	2385510400	40	4239
2026-01-07 14:48:40.73	237.18	56.25	-35.2	-36.4	18.4	0.00e+00	0	56	0	2414870528	41	4030
2026-01-07 14:48:44.77	240.23	56.76	-35.2	-36.4	18.4	0.00e+00	0	56	0	2444230656	40	4258
2026-01-07 14:48:48.80	243.38	57.20	-35.2	-36.4	18.4	0.00e+00	0	56	0	2473590784	41	4013
2026-01-07 14:48:52.85	246.64	57.56	-34.9	-36.0	18.8	0.00e+00	0	56	0	2502950912	40	4071
2026-01-07 14:48:56.89	249.97	57.83	-34.8	-35.9	18.9	0.00e+00	0	56	0	2531262464	39	4274
2026-01-07 14:49:00.93	253.35	58.01	-35.3	-36.5	18.3	0.00e+00	0	56	0	2560622592	40	4332
2026-01-07 14:49:04.97	256.77	58.10	-35.5	-36.7	18.1	0.00e+00	0	57	0	2589982720	40	4436
2026-01-07 14:49:09.01	260.19	58.09	-35.0	-36.1	18.6	0.00e+00	0	56	0	2619342848	40	4140
2026-01-07 14:49:13.04	263.60	57.99	-35.0	-36.2	18.6	0.00e+00	0	57	0	2648702976	40	4155
2026-01-07 14:49:17.08	266.97	57.79	-34.9	-36.0	18.7	0.00e+00	0	57	0	2677014528	40	4087
2026-01-07 14:49:21.12	270.28	57.51	-35.4	-36.6	18.3	0.00e+00	0	56	0	2706374656	40	4347
2026-01-07 14:49:25.17	273.53	57.14	-34.9	-36.1	18.7	0.00e+00	0	56	0	2735734784	40	4105
2026-01-07 14:49:29.21	276.67	56.69	-35.2	-36.3	18.5	0.00e+00	0	57	0	2765094912	40	4222
2026-01-07 14:49:33.25	279.70	56.17	-35.4	-36.5	18.3	0.00e+00	0	57	0	2794455040	40	4336
2026-01-07 14:49:37.29	282.61	55.57	-35.2	-36.4	18.5	0.00e+00	0	57	0	2823815168	41	4008
2026-01-07 14:49:41.34	285.40	54.92	-35.2	-36.4	18.3	0.00e+00	0	56	0	2852126720	40	4254
2026-01-07 14:49:45.37	288.05	54.21	-35.4	-36.5	18.1	0.00e+00	0	56	0	2881486848	41	4094
2026-01-07 14:49:49.41	290.58	53.45	-35.4	-36.6	18.3	0.00e+00	0	57	0	2910846976	41	4100
2026-01-07 14:49:53.45	292.97	52.66	-35.0	-36.1	18.7	0.00e+00	0	57	0	2940207104	40	4130
2026-01-07 14:49:57.49	295.24	51.83	-35.3	-36.5	18.3	0.00e+00	0	57	0	2969567232	40	4304
2026-01-07 14:50:01.53	297.38	50.97	-35.4	-36.6	18.2	0.00e+00	0	56	0	2997878784	40	4377
2026-01-07 14:50:05.58	299.40	50.09	-35.1	-36.3	18.5	0.00e+00	0	57	0	3027238912	41	3970
2026-01-07 14:50:09.62	301.31	49.19	-35.2	-36.3	18.5	0.00e+00	0	57	0	3056599040	41	3985
2026-01-07 14:50:13.65	303.11	48.28	-34.6	-35.7	19.2	0.00e+00	0	57	0	3085959168	40	3914
2026-01-07 14:50:17.69	304.80	47.36	-35.0	-36.1	18.6	0.00e+00	0	57	0	3115319296	40	4142
2026-01-07 14:50:21.73	306.40	46.43	-34.4	-35.5	19.4	0.00e+00	0	57	0	3143630848	39	4060
2026-01-07 14:50:25.77	307.91	45.51	-33.9	-34.9	19.6	0.00e+00	0	56	0	3172990976	38	4026
2026-01-07 14:50:29.81	309.33	44.58	-34.0	-35.1	19.8	0.00e+00	0	57	0	3202351104	38	4111
2026-01-07 14:50:33.85	310.68	43.66	-34.3	-35.4	19.4	0.00e+00	0	57	0	3231711232	38	4274
2026-01-07 14:50:37.89	311.95	42.75	-33.9	-34.9	19.9	0.00e+00	0	57	0	3261071360	38	4051
2026-01-07 14:50:41.93	313.15	41.84	-34.3	-35.3	19.4	0.00e+00	0	57	0	3289382912	38	4230
2026-01-07 14:50:45.97	314.29	40.94	-34.2	-35.2	19.6	0.00e+00	0	57	0	3318743040	38	4182
2026-01-07 14:50:50.01	315.36	40.05	-33.9	-35.0	19.8	0.00e+00	0	57	0	3348103168	38	4069
2026-01-07 14:50:54.05	316.38	39.18	-33.9	-34.9	19.9	0.00e+00	0	57	0	3377463296	38	4026
2026-01-07 14:50:58.09	317.35	38.31	-34.1	-35.2	19.6	0.00e+00	0	57	0	3406823424	38	4151
2026-01-07 14:51:02.13	318.27	37.46	-34.1	-35.1	19.6	0.00e+00	0	57	0	3435134976	38	4120
2026-01-07 14:51:06.17	319.14	36.63	-33.7	-34.7	20.1	0.00e+00	0	57	0	3464495104	38	3944
2026-01-07 14:51:10.22	319.98	35.81	-33.3	-34.3	20.4	0.00e+00	0	57	0	3493855232	37	3981
2026-01-07 14:51:14.26	320.77	35.00	-33.4	-34.5	20.3	0.00e+00	0	57	0	3523215360	37	4053
2026-01-07 14:51:18.30	321.52	34.21	-33.8	-34.9	19.9	0.00e+00	0	57	0	3552575488	37	4258
2026-01-07 14:51:22.34	322.24	33.43	-34.1	-35.1	19.6	0.00e+00	0	57	0	3581935616	37	4376
2026-01-07 14:51:26.38	322.93	32.67	-33.7	-34.7	19.9	0.00e+00	0	57	0	3610247168	37	4189
2026-01-07 14:51:30.42	323.58	31.92	-33.4	-34.4	20.3	0.00e+00	0	57	0	3639607296	37	4045
2026-01-07 14:51:34.46	324.21	31.19	-33.5	-34.6	20.1	0.00e+00	0	57	0	3668967424	37	4099
2026-01-07 14:51:38.50	324.81	30.47	-33.6	-34.7	20.0	0.00e+00	0	57	0	3698327552	37	4157
2026-01-07 14:51:42.55	325.39	29.76	-33.9	-34.9	19.8	0.00e+00	0	57	0	3727687680	37	4287
2026-01-07 14:51:46.58	325.94	29.08	-34.1	-35.2	19.5	0.00e+00	0	57	0	3755999232	37	4420
2026-01-07 14:51:50.63	326.47	28.40	-34.2	-35.2	19.5	0.00e+00	0	57	0	3785359360	37	4435
2026-01-07 14:51:54.66	326.98	27.74	-34.0	-35.1	19.5	0.00e+00	0	57	0	3814719488	37	4368
2026-01-07 14:51:58.71	327.47	27.09	-34.0	-35.0	19.6	0.00e+00	0	57	0	3844079616	37	4323
2026-01-07 14:52:02.75	327.94	26.46	-33.9	-35.0	19.7	0.00e+00	0	57	0	3873439744	37	4298
2026-01-07 14:52:06.79	328.40	25.83	-33.8	-34.9	19.8	0.00e+00	0	57	0	3902799872	37	4243
2026-01-07 14:52:10.83	328.83	25.22	-34.0	-35.0	19.6	0.00e+00	0	57	0	3931111424	37	4326
2026-01-07 14:52:14.87	329.25	24.63	-34.0	-35.1	19.4	0.00e+00	0	57	0	3960471552	37	4369
2026-01-07 14:52:18.91	329.66	24.04	-34.1	-35.2	19.4	0.00e+00	0	57	0	3989831680	37	4400
2026-01-07 14:52:22.95	330.05	23.47	-34.3	-35.4	19.3	0.00e+00	0	57	0	4019191808	38	4244
2026-01-07 14:52:26.99	330.43	22.90	-34.4	-35.6	19.0	0.00e+00	0	57	0	4048551936	38	4345
2026-01-07 14:52:31.03	330.80	22.35	-34.5	-35.6	19.0	0.00e+00	0	57	0	4076863488	38	4369
2026-01-07 14:52:35.07	331.15	21.81	-34.4	-35.5	19.0	0.00e+00	0	57	0	4106223616	38	4331
2026-01-07 14:52:39.11	331.49	21.28	-34.5	-35.6	19.0	0.00e+00	0	57	0	4135583744	38	4343
2026-01-07 14:52:43.15	331.83	20.76	-34.6	-35.7	18.8	0.00e+00	0	57	0	4164943872	38	4406
2026-01-07 14:52:47.19	332.15	20.25	-34.7	-35.8	18.6	0.00e+00	0	57	0	4194304000	38	4483
2026-01-07 14:52:51.23	332.46	19.75	-34.8	-36.0	18.5	0.00e+00	0	57	0	4222615552	39	4304
2026-01-07 14:52:55.27	332.76	19.26	-34.9	-36.1	18.3	0.00e+00	0	57	0	4251975680	39	4346
2026-01-07 14:52:59.32	333.05	18.77	-35.1	-36.2	18.2	0.00e+00	0	57	0	4281335808	39	4435
2026-01-07 14:53:03.36	333.34	18.30	-35.2	-36.3	18.0	0.00e+00	0	57	0	4310695936	39	4490
2026-01-07 14:53:07.40	333.61	17.83	-35.1	-36.3	17.9	0.00e+00	0	57	0	4340056064	40	4229
2026-01-07 14:53:11.44	333.88	17.38	-35.2	-36.4	17.8	0.00e+00	0	57	0	4369416192	40	4270
2026-01-07 14:53:15.48	334.14	16.93	-35.2	-36.4	17.8	0.00e+00	0	57	0	4397727744	40	4266
2026-01-07 14:53:19.52	334.40	16.48	-35.3	-36.5	17.6	0.00e+00	0	57	0	4427087872	40	4323
2026-01-07 14:53:23.56	334.64	16.05	-35.4	-36.7	17.4	0.00e+00	0	57	0	4456448000	40	4425
2026-01-07 14:53:27.61	334.89	15.62	-35.6	-36.9	17.2	0.00e+00	0	57	0	4485808128	40	4507
2026-01-07 14:53:31.64	335.12	15.20	-35.7	-37.0	17.1	0.00e+00	0	57	0	4515168256	40	4548
2026-01-07 14:53:35.69	335.35	14.79	-35.8	-37.1	16.9	0.00e+00	0	57	0	4544528384	41	4354
2026-01-07 14:53:39.73	335.57	14.38	-35.8	-37.1	16.8	0.00e+00	0	57	0	4572839936	41	4385
2026-01-07 14:53:43.77	335.79	13.98	-35.9	-37.2	16.6	0.00e+00	0	57	0	4602200064	41	4439
2026-01-07 14:53:47.80	336.00	13.58	-36.0	-37.4	16.4	0.00e+00	0	57	0	4631560192	41	4508
2026-01-07 14:53:51.84	336.21	13.20	-36.0	-37.4	16.4	0.00e+00	0	57	0	4660920320	41	4497
2026-01-07 14:53:55.88	336.41	12.81	-36.2	-37.6	16.1	0.00e+00	0	57	0	4689231872	41	4625
2026-01-07 14:53:59.93	336.61	12.44	-35.9	-37.3	16.4	0.00e+00	0	57	0	4718592000	41	4459
2026-01-07 14:54:03.97	336.80	12.06	-36.2	-37.6	15.9	0.00e+00	0	57	0	4747952128	41	4616
2026-01-07 14:54:08.01	336.99	11.70	-36.3	-37.8	15.7	0.00e+00	0	57	0	4777312256	42	4446
2026-01-07 14:54:12.05	337.17	11.34	-36.2	-37.6	15.7	0.00e+00	0	57	0	4806672384	42	4391
2026-01-07 14:54:16.09	337.35	10.98	-36.6	-38.2	14.9	0.00e+00	0	57	0	4836032512	42	4705
2026-01-07 14:54:20.13	337.53	10.63	-36.8	-38.5	14.5	0.00e+00	0	57	0	4864344064	43	4585
2026-01-07 14:54:24.17	337.70	10.28	-36.9	-38.6	14.4	1.10e-06	0	57	0	4893704192	43	4629
2026-01-07 14:54:28.21	337.87	9.94	-36.8	-38.6	14.3	1.10e-06	0	57	0	4923064320	43	4630
2026-01-07 14:54:32.25	338.04	9.60	-36.6	-38.4	14.4	0.00e+00	0	57	0	4952424448	43	4510
2026-01-07 14:54:36.30	338.20	9.27	-36.7	-38.4	14.3	0.00e+00	0	57	0	4981784576	43	4523
2026-01-07 14:54:40.34	338.36	8.94	-36.5	-38.3	14.3	1.10e-06	0	57	0	5011144704	43	4459
2026-01-07 14:54:44.38	338.51	8.62	-36.6	-38.3	14.2	2.20e-06	0	57	0	5039456256	43	4473
2026-01-07 14:54:48.41	338.66	8.30	-36.9	-38.8	13.6	5.70e-06	0	57	0	5068816384	43	4718
2026-01-07 14:54:52.45	338.81	7.98	-38.1	-40.5	12.2	4.69e-05	0	57	0	5098176512	45	5105
2026-01-07 14:54:56.49	338.96	7.67	-45.3	-56.3	3.8	8.47e-01	0	57	104	5099225088	60	13352
2026-01-07 14:55:00.54	339.11	7.36	-45.6	-56.7	3.8	8.47e-01	0	57	104	5099225088	60	13889
2026-01-07 14:55:04.58	339.25	7.05	-45.6	-56.6	3.8	8.46e-01	0	57	104	5099225088	60	13784
2026-01-07 14:55:08.62	339.39	6.75	-45.5	-56.5	3.8	8.46e-01	0	57	104	5099225088	60	13665
2026-01-07 14:55:12.67	339.52	6.45	-45.5	-56.5	3.8	8.45e-01	0	57	104	5099225088	60	13645
2026-01-07 14:55:16.71	339.66	6.16	-45.5	-56.5	3.8	8.46e-01	0	57	104	5099225088	60	13630
2026-01-07 14:55:20.75	339.79	5.87	-45.5	-56.5	3.8	8.46e-01	0	57	104	5099225088	60	13590
2026-01-07 14:55:24.79	339.92	5.58	-45.5	-56.5	3.8	8.46e-01	0	57	104	5099225088	60	13635
2026-01-07 14:55:28.84	340.05	5.29	-45.5	-56.4	3.8	8.45e-01	0	57	104	5099225088	60	13565
2026-01-07 14:55:32.88	340.17	5.01	-45.5	-56.5	3.8	8.45e-01	0	57	104	5099225088	60	13579
2026-01-07 14:55:36.92	340.30	4.73	-45.4	-56.4	3.8	8.47e-01	0	57	104	5099225088	60	13561
2026-01-07 14:55:40.97	340.42	4.45	-45.5	-56.5	3.8	8.47e-01	0	57	104	5099225088	60	13608
2026-01-07 14:55:45.01	340.54	4.18	-45.4	-56.4	3.8	8.45e-01	0	57	104	5099225088	60	13541
2026-01-07 14:55:49.06	340.66	3.90	-45.4	-56.5	3.8	8.46e-01	0	58	104	5099225088	60	13571
2026-01-07 14:55:53.10	340.77	3.63	-45.3	-56.3	3.8	8.46e-01	0	57	104	5099225088	60	13360
2026-01-07 14:55:57.14	340.89	3.37	-45.4	-56.5	3.8	8.46e-01	0	57	104	5099225088	60	13581
2026-01-07 14:56:01.19	341.00	3.10	-45.4	-56.4	3.8	8.46e-01	0	57	104	5099225088	60	13515
2026-01-07 14:56:05.23	341.11	2.84	-45.4	-56.4	3.8	8.45e-01	0	57	104	5099225088	60	13492
2026-01-07 14:56:09.28	341.22	2.58	-45.4	-56.4	3.8	8.46e-01	0	57	104	5099225088	60	13495
2026-01-07 14:56:13.32	341.33	2.32	-45.4	-56.4	3.8	8.46e-01	0	57	104	5099225088	60	13513
2026-01-07 14:56:17.36	341.43	2.07	-45.4	-56.4	3.8	8.45e-01	0	57	104	5099225088	60	13523

#Closed at: 2026-01-07 14:56:20
#Recorded file [5099 MB]: D:/lorett/data/31039_260107_174200.dat