passes_logs/2026/01/07/R2.0S_Moscow/R2.0S_Moscow__20260107_215600_NOAA_21_JPSS-2_rec.log

#Pass ID: 20260107_215600_NOAA 21 (JPSS-2)
#Satellite: NOAA 21 (JPSS-2)
#Configuration: NOAA-21
#almurnet v.1.7.20251203
#Start time: 2026-01-07 21:56:00

#Version: 2.2.20231116
#Station: R2.0S_Moscow
#Location: 37.707566 lon 55.798166 lat
#TLE: 1 54234U 22150A   26005.56767909  .00000152  00000+0  92756-4 0  9990
#TLE: 2 54234  98.7490 306.5820 0001036 340.2747  19.8389 14.19532370163472

#Time	Az	El	Level	Level2	SNR	BER	BlckErr	Temp	State	Recorded	gain1	gain2
2026-01-07 21:56:00.29	27.31	2.01	-42.3	-55.1	3.8	1.49e+00	0	46	0	0	56	15402
2026-01-07 21:56:03.31	27.56	2.16	-42.2	-54.9	3.8	1.49e+00	0	47	104	0	55	16018
2026-01-07 21:56:06.34	27.81	2.32	-42.2	-54.9	3.8	1.49e+00	0	47	104	0	55	15997
2026-01-07 21:56:09.37	28.06	2.47	-42.2	-54.9	3.8	1.49e+00	0	47	104	0	55	16000
2026-01-07 21:56:12.40	28.32	2.63	-42.2	-54.9	3.8	1.49e+00	0	48	104	0	55	16006
2026-01-07 21:56:15.43	28.57	2.79	-42.2	-54.9	3.8	1.49e+00	0	48	104	0	55	15988
2026-01-07 21:56:18.46	28.83	2.94	-42.2	-54.9	3.8	1.49e+00	0	48	104	0	55	16006
2026-01-07 21:56:21.48	29.09	3.10	-42.2	-54.9	3.8	1.49e+00	0	48	104	0	55	16003
2026-01-07 21:56:24.51	29.36	3.26	-42.2	-54.8	3.8	1.49e+00	0	49	104	0	55	15937
2026-01-07 21:56:27.55	29.63	3.42	-42.2	-54.9	3.8	1.49e+00	0	49	104	0	55	15977
2026-01-07 21:56:30.58	29.90	3.58	-42.2	-54.9	3.8	1.49e+00	0	49	104	0	55	15967
2026-01-07 21:56:33.61	30.17	3.74	-42.2	-54.9	3.8	1.49e+00	0	49	104	0	55	15959
2026-01-07 21:56:36.64	30.45	3.90	-42.2	-54.8	3.8	1.49e+00	0	49	104	0	55	15897
2026-01-07 21:56:39.67	30.73	4.06	-42.2	-54.9	3.8	1.49e+00	0	49	104	0	55	15969
2026-01-07 21:56:42.69	31.01	4.22	-42.2	-54.9	3.8	1.49e+00	0	50	104	0	55	15945
2026-01-07 21:56:45.72	31.29	4.38	-42.2	-54.9	3.8	1.49e+00	0	50	104	0	55	15986
2026-01-07 21:56:48.75	31.58	4.54	-42.2	-54.9	3.8	1.49e+00	0	50	104	0	55	15979
2026-01-07 21:56:51.78	31.87	4.70	-42.2	-54.8	3.8	1.49e+00	0	50	104	0	55	15919
2026-01-07 21:56:54.81	32.17	4.86	-42.2	-54.9	3.8	1.49e+00	0	50	104	0	55	15954
2026-01-07 21:56:57.84	32.46	5.03	-42.2	-54.9	3.8	1.49e+00	0	51	104	0	55	15985
2026-01-07 21:57:00.87	32.76	5.19	-42.2	-54.9	3.8	1.49e+00	0	51	104	0	55	15958
2026-01-07 21:57:03.90	33.07	5.35	-42.2	-54.9	3.8	1.49e+00	0	51	104	0	55	15954
2026-01-07 21:57:06.93	33.37	5.52	-42.2	-54.9	3.8	1.49e+00	0	51	104	0	55	15980
2026-01-07 21:57:09.96	33.68	5.68	-42.2	-54.9	3.8	1.49e+00	0	51	104	0	55	15950
2026-01-07 21:57:12.98	34.00	5.85	-42.2	-54.9	3.8	1.49e+00	0	51	104	0	55	15947
2026-01-07 21:57:16.01	34.31	6.01	-42.2	-54.8	3.8	1.49e+00	0	51	104	0	55	15917
2026-01-07 21:57:19.04	34.63	6.18	-42.2	-54.9	3.8	1.49e+00	0	52	104	0	55	16000
2026-01-07 21:57:22.07	34.96	6.34	-42.2	-54.8	3.8	1.49e+00	0	52	104	0	55	15907
2026-01-07 21:57:25.10	35.28	6.51	-42.2	-54.9	3.8	1.49e+00	0	52	104	0	55	15949
2026-01-07 21:57:28.12	35.61	6.67	-42.2	-54.9	3.8	1.49e+00	0	52	104	0	55	15949
2026-01-07 21:57:31.16	35.95	6.84	-42.2	-54.9	3.8	1.49e+00	0	52	104	0	55	15957
2026-01-07 21:57:34.18	36.29	7.01	-42.2	-54.8	3.8	1.49e+00	0	52	104	0	55	15776
2026-01-07 21:57:37.21	36.63	7.17	-42.2	-54.9	3.8	1.49e+00	0	52	104	0	55	15982
2026-01-07 21:57:40.25	36.98	7.34	-42.2	-54.8	3.8	1.49e+00	0	52	104	0	55	15925
2026-01-07 21:57:43.27	37.32	7.51	-42.1	-53.8	3.8	1.49e+00	0	52	104	0	55	14095
2026-01-07 21:57:46.30	37.68	7.68	-41.3	-48.1	5.8	4.74e-01	0	53	0	1048576	54	7737
2026-01-07 21:57:49.33	38.04	7.85	-39.1	-42.3	11.4	1.80e-03	0	53	0	10485760	50	5026
2026-01-07 21:57:52.36	38.40	8.01	-38.2	-40.8	12.9	3.89e-05	0	52	0	19922944	48	4751
2026-01-07 21:57:55.38	38.76	8.18	-40.5	-46.6	6.5	1.48e+00	0	53	104	27262976	53	6893
2026-01-07 21:57:58.42	39.13	8.35	-40.0	-43.5	10.8	5.85e-03	0	53	0	35651584	51	5421
2026-01-07 21:58:01.44	39.50	8.52	-39.1	-41.6	13.0	4.80e-05	0	53	0	46137344	50	4644
2026-01-07 21:58:04.47	39.88	8.69	-38.9	-41.4	13.3	3.05e-05	0	53	0	54525952	49	4767
2026-01-07 21:58:07.50	40.26	8.86	-38.7	-41.1	13.6	1.14e-05	0	53	0	65011712	49	4623
2026-01-07 21:58:10.53	40.65	9.02	-38.9	-41.2	13.5	1.14e-05	0	53	0	73400320	49	4693
2026-01-07 21:58:13.55	41.04	9.19	-38.9	-41.3	13.5	1.29e-05	0	53	0	83886080	49	4713
2026-01-07 21:58:16.58	41.44	9.36	-38.9	-41.2	13.6	6.10e-06	0	53	0	93323264	49	4662
2026-01-07 21:58:19.61	41.83	9.53	-38.9	-41.2	13.6	8.30e-06	0	53	0	102760448	49	4701
2026-01-07 21:58:22.65	42.24	9.70	-39.0	-41.3	13.5	9.90e-06	0	53	0	112197632	49	4754
2026-01-07 21:58:25.67	42.65	9.87	-38.7	-40.9	14.1	2.20e-06	0	54	0	121634816	49	4538
2026-01-07 21:58:28.70	43.06	10.04	-38.6	-40.6	14.4	7.00e-07	0	53	0	131072000	49	4383
2026-01-07 21:58:31.73	43.48	10.20	-38.6	-40.6	14.5	1.50e-06	0	54	0	140509184	49	4382
2026-01-07 21:58:34.76	43.90	10.37	-38.5	-40.5	14.6	0.00e+00	0	54	0	149946368	49	4324
2026-01-07 21:58:37.79	44.33	10.54	-38.3	-40.3	14.9	0.00e+00	0	54	0	159383552	48	4456
2026-01-07 21:58:40.82	44.76	10.71	-38.1	-40.0	15.2	0.00e+00	0	54	0	168820736	48	4338
2026-01-07 21:58:43.85	45.20	10.88	-38.2	-40.1	15.1	0.00e+00	0	54	0	178257920	48	4383
2026-01-07 21:58:46.88	45.64	11.04	-38.2	-40.1	15.2	0.00e+00	0	54	0	187695104	48	4353
2026-01-07 21:58:49.91	46.08	11.21	-38.2	-40.1	15.2	0.00e+00	0	54	0	197132288	48	4357
2026-01-07 21:58:52.93	46.53	11.38	-38.3	-40.2	15.1	0.00e+00	0	54	0	206569472	48	4413
2026-01-07 21:58:55.96	46.99	11.54	-38.2	-40.1	15.2	0.00e+00	0	54	0	216006656	48	4349
2026-01-07 21:58:58.99	47.45	11.71	-38.2	-40.1	15.2	0.00e+00	0	54	0	225443840	48	4353
2026-01-07 21:59:02.02	47.92	11.87	-38.1	-40.0	15.3	0.00e+00	0	54	0	234881024	48	4314
2026-01-07 21:59:05.05	48.39	12.04	-38.1	-39.9	15.5	0.00e+00	0	54	0	244318208	48	4265
2026-01-07 21:59:08.07	48.87	12.20	-37.9	-39.7	15.6	0.00e+00	0	54	0	253755392	47	4414
2026-01-07 21:59:11.11	49.35	12.36	-37.9	-39.7	15.6	0.00e+00	0	54	0	263192576	47	4423
2026-01-07 21:59:14.13	49.83	12.52	-37.9	-39.7	15.5	0.00e+00	0	54	0	272629760	47	4441
2026-01-07 21:59:17.15	50.32	12.69	-38.0	-39.8	15.5	0.00e+00	0	55	0	282066944	47	4464
2026-01-07 21:59:20.18	50.82	12.85	-38.0	-39.8	15.5	0.00e+00	0	54	0	291504128	47	4474
2026-01-07 21:59:23.21	51.33	13.01	-38.1	-39.9	15.4	0.00e+00	0	54	0	300941312	47	4538
2026-01-07 21:59:26.24	51.83	13.16	-38.0	-39.9	15.5	0.00e+00	0	55	0	310378496	47	4494
2026-01-07 21:59:29.27	52.35	13.32	-38.0	-39.8	15.5	0.00e+00	0	55	0	319815680	47	4467
2026-01-07 21:59:32.30	52.87	13.48	-38.1	-39.9	15.4	0.00e+00	0	55	0	329252864	47	4520
2026-01-07 21:59:35.33	53.39	13.63	-38.2	-40.1	15.2	0.00e+00	0	55	0	338690048	47	4629
2026-01-07 21:59:38.36	53.92	13.79	-38.3	-40.2	15.2	0.00e+00	0	55	0	348127232	47	4695
2026-01-07 21:59:41.38	54.45	13.94	-38.2	-40.0	15.4	0.00e+00	0	55	0	357564416	47	4578
2026-01-07 21:59:44.41	54.99	14.09	-38.1	-39.9	15.5	0.00e+00	0	55	0	367001600	47	4511
2026-01-07 21:59:47.45	55.54	14.24	-38.0	-39.8	15.6	0.00e+00	0	55	0	376438784	47	4458
2026-01-07 21:59:50.47	56.09	14.39	-38.1	-40.0	15.4	0.00e+00	0	55	0	385875968	47	4552
2026-01-07 21:59:53.50	56.65	14.54	-38.2	-40.0	15.4	0.00e+00	0	55	0	395313152	47	4578
2026-01-07 21:59:56.53	57.21	14.69	-38.0	-39.8	15.6	0.00e+00	0	55	0	404750336	47	4459
2026-01-07 21:59:59.56	57.78	14.83	-38.0	-39.8	15.6	0.00e+00	0	55	0	414187520	47	4448
2026-01-07 22:00:02.59	58.35	14.97	-37.9	-39.6	15.7	0.00e+00	0	55	0	423624704	47	4383
2026-01-07 22:00:05.61	58.92	15.11	-38.0	-39.8	15.6	0.00e+00	0	55	0	434110464	47	4452
2026-01-07 22:00:08.64	59.51	15.25	-38.0	-39.8	15.6	0.00e+00	0	55	0	443547648	47	4470
2026-01-07 22:00:11.68	60.10	15.39	-37.8	-39.6	15.8	0.00e+00	0	55	0	452984832	47	4370
2026-01-07 22:00:14.71	60.69	15.52	-37.7	-39.4	15.9	0.00e+00	0	55	0	462422016	47	4290
2026-01-07 22:00:17.74	61.29	15.65	-37.9	-39.7	15.7	0.00e+00	0	55	0	471859200	47	4398
2026-01-07 22:00:20.77	61.90	15.78	-37.7	-39.5	15.9	0.00e+00	0	55	0	481296384	47	4308
2026-01-07 22:00:23.80	62.51	15.91	-37.7	-39.5	15.9	0.00e+00	0	55	0	490733568	47	4300
2026-01-07 22:00:26.83	63.12	16.03	-37.5	-39.1	16.2	0.00e+00	0	55	0	500170752	46	4389
2026-01-07 22:00:29.85	63.74	16.16	-37.5	-39.2	16.1	0.00e+00	0	55	0	509607936	46	4395
2026-01-07 22:00:32.87	64.36	16.28	-37.7	-39.5	15.8	0.00e+00	0	55	0	519045120	46	4560
2026-01-07 22:00:35.89	64.99	16.39	-37.7	-39.5	15.7	0.00e+00	0	55	0	528482304	46	4560
2026-01-07 22:00:38.90	65.62	16.51	-37.5	-39.3	15.8	0.00e+00	0	55	0	537919488	46	4448
2026-01-07 22:00:41.91	66.25	16.62	-37.6	-39.4	15.6	0.00e+00	0	55	0	547356672	46	4535
2026-01-07 22:00:44.91	66.89	16.73	-37.6	-39.4	15.4	0.00e+00	0	55	0	556793856	46	4532
2026-01-07 22:00:47.92	67.53	16.83	-37.7	-39.7	15.1	0.00e+00	0	55	0	566231040	46	4653
2026-01-07 22:00:50.94	68.18	16.93	-37.9	-40.0	14.4	0.00e+00	0	55	0	575668224	46	4848
2026-01-07 22:00:53.94	68.83	17.03	-38.0	-40.3	13.8	5.30e-06	0	55	0	585105408	46	4999
2026-01-07 22:00:56.95	69.49	17.13	-38.2	-40.8	12.8	4.73e-05	0	55	0	594542592	47	5019
2026-01-07 22:00:59.95	70.15	17.22	-38.5	-41.5	11.7	4.75e-04	0	55	0	602931200	47	5423
2026-01-07 22:01:02.96	70.81	17.31	-38.6	-41.9	11.1	1.65e-03	0	56	0	612368384	47	5683
2026-01-07 22:01:05.98	71.48	17.40	-38.8	-42.3	10.5	3.26e-03	0	56	0	621805568	48	5614
2026-01-07 22:01:09.00	72.16	17.48	-38.9	-42.5	10.2	6.80e-03	0	56	0	631242752	48	5777
2026-01-07 22:01:12.02	72.83	17.56	-39.0	-42.8	9.9	9.39e-03	0	56	0	640679936	48	5947
2026-01-07 22:01:15.05	73.52	17.64	-38.8	-42.2	10.5	3.98e-03	0	56	0	650117120	48	5580
2026-01-07 22:01:18.07	74.20	17.71	-38.9	-42.5	10.4	4.71e-03	0	56	0	659554304	48	5724
2026-01-07 22:01:21.10	74.89	17.78	-39.0	-42.4	10.5	4.21e-03	0	56	0	670040064	48	5705
2026-01-07 22:01:24.12	75.58	17.84	-38.8	-42.0	11.0	1.81e-03	0	56	0	678428672	48	5415
2026-01-07 22:01:27.14	76.28	17.90	-38.9	-42.1	11.0	1.75e-03	0	56	0	688914432	48	5519
2026-01-07 22:01:30.17	76.98	17.96	-38.8	-42.0	11.3	1.29e-03	0	56	0	697303040	48	5420
2026-01-07 22:01:33.18	77.67	18.01	-38.6	-41.7	11.4	9.99e-04	0	56	0	706740224	48	5269
2026-01-07 22:01:36.19	78.37	18.06	-38.6	-41.8	11.3	1.25e-03	0	56	0	717225984	48	5306
2026-01-07 22:01:39.20	79.07	18.11	-38.7	-41.8	11.1	1.48e-03	0	56	0	725614592	48	5337
2026-01-07 22:01:42.21	79.78	18.15	-38.6	-41.8	11.3	1.18e-03	0	56	0	735051776	48	5284
2026-01-07 22:01:45.21	80.48	18.18	-38.4	-41.1	12.4	1.70e-04	0	56	0	744488960	48	4921
2026-01-07 22:01:48.22	81.18	18.21	-38.5	-41.0	13.0	4.50e-05	0	56	0	753926144	48	4866
2026-01-07 22:01:51.24	81.89	18.24	-38.3	-40.5	14.0	2.20e-06	0	56	0	763363328	48	4565
2026-01-07 22:01:54.26	82.61	18.27	-38.4	-40.6	13.8	5.30e-06	0	56	0	772800512	48	4648
2026-01-07 22:01:57.29	83.32	18.29	-38.5	-40.8	13.6	8.30e-06	0	56	0	782237696	48	4736
2026-01-07 22:02:00.32	84.04	18.30	-38.1	-40.3	13.9	2.20e-06	0	56	0	791674880	48	4482
2026-01-07 22:02:03.35	84.75	18.31	-37.9	-40.3	13.5	9.10e-06	0	56	0	801112064	47	4733
2026-01-07 22:02:06.38	85.47	18.32	-38.2	-40.8	12.9	5.26e-05	0	56	0	810549248	47	4995
2026-01-07 22:02:09.41	86.19	18.32	-38.5	-41.2	12.4	1.74e-04	0	56	0	819986432	47	5275
2026-01-07 22:02:12.43	86.90	18.32	-38.3	-40.9	12.7	8.01e-05	0	56	0	829423616	47	5094
2026-01-07 22:02:15.46	87.62	18.31	-38.5	-41.1	12.7	6.25e-05	0	56	0	838860800	47	5180
2026-01-07 22:02:18.49	88.34	18.30	-38.3	-40.6	13.6	9.10e-06	0	56	0	848297984	47	4887
2026-01-07 22:02:21.51	89.05	18.29	-38.2	-40.3	14.3	0.00e+00	0	56	0	858783744	47	4713
2026-01-07 22:02:24.54	89.76	18.27	-38.0	-40.0	14.7	0.00e+00	0	56	0	868220928	47	4590
2026-01-07 22:02:27.57	90.48	18.24	-37.5	-39.3	15.5	0.00e+00	0	56	0	877658112	47	4233
2026-01-07 22:02:30.60	91.19	18.22	-37.5	-39.3	15.8	0.00e+00	0	56	0	887095296	46	4444
2026-01-07 22:02:33.61	91.90	18.18	-37.5	-39.2	16.0	0.00e+00	0	56	0	896532480	46	4431
2026-01-07 22:02:36.64	92.61	18.15	-37.3	-39.0	16.3	0.00e+00	0	56	0	905969664	46	4308
2026-01-07 22:02:39.66	93.32	18.11	-37.1	-38.7	16.7	0.00e+00	0	56	0	915406848	46	4165
2026-01-07 22:02:42.68	94.02	18.06	-37.1	-38.7	16.8	0.00e+00	0	56	0	924844032	46	4162
2026-01-07 22:02:45.69	94.72	18.01	-37.3	-38.9	16.5	0.00e+00	0	56	0	933232640	46	4252
2026-01-07 22:02:48.69	95.42	17.96	-37.1	-38.7	16.7	0.00e+00	0	56	0	943718400	46	4183
2026-01-07 22:02:51.71	96.12	17.90	-37.1	-38.6	16.8	0.00e+00	0	56	0	953155584	46	4135
2026-01-07 22:02:54.73	96.81	17.84	-37.1	-38.6	16.8	0.00e+00	0	56	0	961544192	46	4145
2026-01-07 22:02:57.75	97.50	17.78	-37.2	-38.8	16.7	0.00e+00	0	56	0	972029952	46	4209
2026-01-07 22:03:00.77	98.19	17.71	-37.3	-38.9	16.5	0.00e+00	0	56	0	980418560	46	4277
2026-01-07 22:03:03.79	98.88	17.64	-37.4	-39.0	16.5	0.00e+00	0	56	0	989855744	46	4334
2026-01-07 22:03:06.81	99.56	17.56	-37.2	-38.8	16.7	0.00e+00	0	56	0	1000341504	46	4232
2026-01-07 22:03:09.82	100.24	17.48	-37.3	-38.9	16.6	0.00e+00	0	56	0	1008730112	46	4266
2026-01-07 22:03:12.83	100.91	17.40	-37.1	-38.7	16.8	0.00e+00	0	56	0	1018167296	46	4149
2026-01-07 22:03:15.83	101.58	17.31	-37.1	-38.6	16.9	0.00e+00	0	56	0	1027604480	46	4124
2026-01-07 22:03:18.85	102.25	17.22	-37.2	-38.8	16.7	0.00e+00	0	56	0	1037041664	45	4446
2026-01-07 22:03:21.88	102.92	17.13	-37.3	-38.9	16.6	0.00e+00	0	56	0	1046478848	45	4511
2026-01-07 22:03:24.89	103.58	17.03	-37.3	-39.0	16.5	0.00e+00	0	56	0	1055916032	45	4553
2026-01-07 22:03:27.91	104.23	16.93	-37.3	-38.9	16.5	0.00e+00	0	56	0	1065353216	45	4524
2026-01-07 22:03:30.93	104.89	16.83	-37.2	-38.8	16.6	0.00e+00	0	56	0	1074790400	45	4475
2026-01-07 22:03:33.96	105.54	16.72	-37.2	-38.9	16.6	0.00e+00	0	56	0	1084227584	45	4495
2026-01-07 22:03:36.98	106.18	16.62	-37.3	-38.9	16.5	0.00e+00	0	56	0	1093664768	45	4535
2026-01-07 22:03:40.00	106.82	16.50	-37.3	-39.0	16.5	0.00e+00	0	56	0	1103101952	45	4549
2026-01-07 22:03:43.02	107.46	16.39	-37.5	-39.2	16.3	0.00e+00	0	56	0	1112539136	45	4664
2026-01-07 22:03:46.03	108.08	16.27	-37.7	-39.4	16.1	0.00e+00	0	56	0	1121976320	45	4764
2026-01-07 22:03:49.05	108.71	16.15	-37.8	-39.5	16.0	0.00e+00	0	56	0	1131413504	46	4590
2026-01-07 22:03:52.06	109.33	16.03	-37.6	-39.3	16.2	0.00e+00	0	56	0	1140850688	46	4470
2026-01-07 22:03:55.08	109.94	15.90	-37.6	-39.3	16.2	0.00e+00	0	57	0	1150287872	46	4466
2026-01-07 22:03:58.10	110.55	15.77	-37.8	-39.5	15.9	0.00e+00	0	56	0	1159725056	46	4579
2026-01-07 22:04:01.11	111.15	15.64	-37.7	-39.6	15.8	1.50e-06	0	56	0	1169162240	46	4644
2026-01-07 22:04:04.13	111.75	15.51	-37.7	-39.4	16.0	0.00e+00	0	56	0	1178599424	46	4531
2026-01-07 22:04:07.13	112.34	15.38	-37.7	-39.4	16.0	0.00e+00	0	56	0	1188036608	46	4542
2026-01-07 22:04:10.15	112.93	15.24	-37.7	-39.4	16.0	0.00e+00	0	56	0	1197473792	45	4788
2026-01-07 22:04:13.18	113.52	15.10	-37.9	-39.7	15.7	0.00e+00	0	56	0	1206910976	46	4679
2026-01-07 22:04:16.20	114.10	14.96	-38.0	-39.8	15.6	0.00e+00	0	56	0	1216348160	46	4756
2026-01-07 22:04:19.22	114.67	14.82	-37.9	-39.7	15.7	0.00e+00	0	56	0	1225785344	46	4691
2026-01-07 22:04:22.25	115.24	14.67	-37.6	-39.3	16.1	0.00e+00	0	56	0	1235222528	46	4486
2026-01-07 22:04:25.28	115.81	14.53	-37.7	-39.4	16.0	0.00e+00	0	56	0	1244659712	46	4536
2026-01-07 22:04:28.29	116.36	14.38	-37.8	-39.6	15.8	0.00e+00	0	56	0	1254096896	46	4633
2026-01-07 22:04:31.31	116.92	14.23	-37.9	-39.8	15.5	8.46e-05	0	56	0	1263534080	46	4742
2026-01-07 22:04:34.34	117.46	14.08	-37.9	-39.7	15.6	5.03e-05	0	56	0	1272971264	46	4701
2026-01-07 22:04:37.37	118.01	13.92	-35.9	-39.2	15.0	4.47e-03	0	56	0	1282408448	43	5247
2026-01-07 22:04:40.38	118.54	13.77	-37.7	-39.5	15.7	2.69e-03	0	56	0	1291845632	45	4861
2026-01-07 22:04:43.41	119.07	13.61	-37.8	-39.7	15.4	3.87e-04	0	57	0	1301282816	46	4683
2026-01-07 22:04:46.44	119.60	13.46	-37.8	-39.7	15.3	9.08e-04	0	56	0	1310720000	46	4677
2026-01-07 22:04:49.46	120.12	13.30	-38.0	-39.9	15.0	1.06e-03	0	56	0	1320157184	46	4814
2026-01-07 22:04:52.48	120.64	13.14	-37.2	-39.6	15.0	6.36e-03	0	56	0	1329594368	45	4926
2026-01-07 22:04:55.50	121.14	12.98	-36.7	-39.5	15.0	2.37e-03	0	57	0	1339031552	45	4817
2026-01-07 22:04:58.52	121.65	12.82	-35.9	-39.2	14.1	7.60e-03	0	57	0	1348468736	42	5556
2026-01-07 22:05:01.54	122.15	12.66	-37.5	-39.6	15.0	7.59e-03	0	56	0	1357905920	45	4885
2026-01-07 22:05:04.57	122.64	12.50	-35.1	-39.4	12.8	4.87e-03	0	57	0	1367343104	43	5392
2026-01-07 22:05:07.60	123.13	12.33	-37.9	-39.9	15.0	6.17e-04	0	57	0	1377828864	46	4772
2026-01-07 22:05:10.61	123.61	12.17	-35.7	-39.7	13.2	2.45e-02	0	56	0	1386217472	43	5558
2026-01-07 22:05:13.64	124.09	12.00	-37.8	-39.8	15.1	3.85e-04	0	57	0	1395654656	46	4755
2026-01-07 22:05:16.66	124.56	11.84	-37.6	-39.7	14.6	9.16e-04	0	56	0	1406140416	46	4688
2026-01-07 22:05:19.69	125.03	11.67	-37.3	-39.6	14.3	9.74e-03	0	56	0	1414529024	45	4913
2026-01-07 22:05:22.71	125.49	11.50	-36.7	-39.5	11.3	1.24e-01	7	57	0	1423966208	43	5453
2026-01-07 22:05:25.73	125.95	11.34	-34.6	-39.4	9.5	2.01e-01	49	57	0	1429209088	39	6761
2026-01-07 22:05:28.76	126.40	11.17	-32.9	-39.3	4.9	1.16e+00	0	57	104	1433403392	31	10582
2026-01-07 22:05:31.78	126.85	11.00	-30.8	-39.1	4.6	1.09e+00	0	57	104	1433403392	25	14591
2026-01-07 22:05:34.80	127.29	10.83	-25.9	-37.6	4.9	1.43e+00	0	57	104	1433403392	25	12365
2026-01-07 22:05:37.83	127.73	10.66	-26.2	-38.1	4.8	1.48e+00	0	57	104	1433403392	22	15480
2026-01-07 22:05:40.84	128.16	10.50	-25.5	-37.7	4.1	1.50e+00	0	57	104	1433403392	19	17561
2026-01-07 22:05:43.87	128.59	10.33	-25.1	-40.3	4.1	1.50e+00	0	57	104	1433403392	18	25255
2026-01-07 22:05:46.89	129.01	10.16	-27.8	-43.6	4.2	1.50e+00	0	57	104	1433403392	24	25955
2026-01-07 22:05:49.91	129.43	9.99	-23.4	-38.8	3.7	1.50e+00	0	57	104	1433403392	20	18909
2026-01-07 22:05:52.94	129.85	9.82	-26.5	-40.7	3.6	1.51e+00	0	57	104	1433403392	17	27946
2026-01-07 22:05:55.96	130.26	9.65	-23.8	-38.1	3.5	1.51e+00	0	57	104	1433403392	18	19491
2026-01-07 22:05:58.99	130.66	9.48	-24.4	-38.5	4.0	1.51e+00	0	57	104	1433403392	16	22892
2026-01-07 22:06:02.01	131.06	9.31	-25.1	-40.6	3.7	1.51e+00	0	57	104	1433403392	19	24433
2026-01-07 22:06:05.03	131.46	9.13	-23.6	-36.8	3.6	1.51e+00	0	57	104	1433403392	16	18835
2026-01-07 22:06:08.06	131.85	8.96	-22.8	-38.9	3.3	1.50e+00	0	57	104	1433403392	17	22529
2026-01-07 22:06:11.08	132.23	8.79	-19.6	-33.8	3.9	1.51e+00	0	57	104	1433403392	22	9445
2026-01-07 22:06:14.11	132.62	8.62	-26.1	-40.6	3.7	1.51e+00	0	57	104	1433403392	20	23184
2026-01-07 22:06:17.13	133.00	8.45	-26.7	-42.7	3.9	1.51e+00	0	57	104	1433403392	21	27782
2026-01-07 22:06:20.15	133.37	8.28	-30.4	-47.6	4.4	1.51e+00	0	57	104	1433403392	28	32661
2026-01-07 22:06:23.17	133.74	8.11	-34.4	-50.8	4.4	1.51e+00	0	57	104	1433403392	40	23655
2026-01-07 22:06:26.20	134.10	7.94	-25.5	-39.3	3.6	1.51e+00	0	57	104	1433403392	21	18743
2026-01-07 22:06:29.23	134.47	7.77	-45.1	-57.5	3.8	1.49e+00	0	57	104	1433403392	60	16192
2026-01-07 22:06:32.25	134.82	7.60	-45.4	-57.8	3.8	1.49e+00	0	57	104	1433403392	61	15816
2026-01-07 22:06:35.28	135.18	7.43	-45.4	-57.9	3.8	1.49e+00	0	57	104	1433403392	61	15953
2026-01-07 22:06:38.30	135.53	7.27	-45.2	-57.7	3.8	1.49e+00	0	57	104	1433403392	61	15735
2026-01-07 22:06:41.32	135.87	7.10	-45.1	-57.6	3.8	1.49e+00	0	57	104	1433403392	61	15548
2026-01-07 22:06:44.35	136.21	6.93	-45.1	-57.6	3.8	1.49e+00	0	57	104	1433403392	61	15486
2026-01-07 22:06:47.38	136.55	6.76	-45.1	-57.6	3.8	1.49e+00	0	57	104	1433403392	61	15453
2026-01-07 22:06:50.39	136.89	6.59	-45.1	-57.6	3.8	1.49e+00	0	57	104	1433403392	61	15427
2026-01-07 22:06:53.42	137.22	6.42	-45.0	-57.6	3.8	1.49e+00	0	57	104	1433403392	61	15445
2026-01-07 22:06:56.44	137.54	6.26	-45.0	-57.6	3.8	1.49e+00	0	57	104	1433403392	61	15460
2026-01-07 22:06:59.47	137.87	6.09	-45.0	-57.6	3.8	1.49e+00	0	57	104	1433403392	61	15405
2026-01-07 22:07:02.49	138.19	5.92	-45.1	-57.6	3.8	1.49e+00	0	57	104	1433403392	61	15477
2026-01-07 22:07:05.51	138.50	5.76	-45.1	-57.6	3.8	1.49e+00	0	57	104	1433403392	61	15407
2026-01-07 22:07:08.54	138.82	5.59	-45.0	-57.5	3.8	1.49e+00	0	57	104	1433403392	61	15390
2026-01-07 22:07:11.56	139.13	5.42	-45.0	-57.5	3.8	1.49e+00	0	57	104	1433403392	61	15395
2026-01-07 22:07:14.58	139.43	5.26	-45.0	-57.6	3.8	1.49e+00	0	57	104	1433403392	61	15428
2026-01-07 22:07:17.60	139.73	5.09	-45.0	-57.5	3.8	1.49e+00	0	57	104	1433403392	61	15391
2026-01-07 22:07:20.63	140.03	4.93	-45.0	-57.5	3.8	1.49e+00	0	57	104	1433403392	61	15384
2026-01-07 22:07:23.65	140.33	4.76	-45.0	-57.6	3.8	1.49e+00	0	57	104	1433403392	61	15402
2026-01-07 22:07:26.68	140.62	4.60	-45.0	-57.5	3.8	1.49e+00	0	57	104	1433403392	61	15362
2026-01-07 22:07:29.71	140.91	4.44	-45.0	-57.5	3.8	1.49e+00	0	57	104	1433403392	61	15356
2026-01-07 22:07:32.73	141.20	4.27	-45.0	-57.5	3.8	1.49e+00	0	57	104	1433403392	61	15393
2026-01-07 22:07:35.75	141.48	4.11	-45.0	-57.5	3.8	1.49e+00	0	57	104	1433403392	61	15390
2026-01-07 22:07:38.78	141.76	3.95	-45.0	-57.5	3.8	1.49e+00	0	57	104	1433403392	61	15400
2026-01-07 22:07:41.80	142.04	3.78	-45.0	-57.6	3.8	1.49e+00	0	57	104	1433403392	61	15405
2026-01-07 22:07:44.83	142.32	3.62	-45.0	-57.6	3.8	1.49e+00	0	57	104	1433403392	61	15404
2026-01-07 22:07:47.86	142.59	3.46	-45.0	-57.5	3.8	1.49e+00	0	57	104	1433403392	61	15400
2026-01-07 22:07:50.87	142.86	3.30	-45.0	-57.5	3.8	1.49e+00	0	57	104	1433403392	61	15386
2026-01-07 22:07:53.90	143.12	3.14	-45.0	-57.5	3.8	1.49e+00	0	57	104	1433403392	61	15319
2026-01-07 22:07:56.92	143.39	2.98	-45.0	-57.5	3.8	1.49e+00	0	57	104	1433403392	61	15393
2026-01-07 22:07:59.95	143.65	2.82	-45.0	-57.5	3.8	1.49e+00	0	57	104	1433403392	61	15366
2026-01-07 22:08:02.98	143.91	2.66	-45.0	-57.5	3.8	1.49e+00	0	57	104	1433403392	61	15397
2026-01-07 22:08:06.00	144.16	2.50	-45.0	-57.5	3.8	1.49e+00	0	57	104	1433403392	61	15384
2026-01-07 22:08:09.02	144.42	2.35	-45.0	-57.6	3.8	1.49e+00	0	57	104	1433403392	61	15403
2026-01-07 22:08:12.04	144.67	2.19	-45.0	-57.5	3.8	1.49e+00	0	57	104	1433403392	61	15368
2026-01-07 22:08:15.07	144.91	2.03	-45.0	-57.5	3.8	1.49e+00	0	57	104	1433403392	61	15322

#Closed at: 2026-01-07 22:08:17
#Recorded file [1433 MB]: D:/lorett/data/31039_260108_005600.dat