passes_logs/2026/01/07/R2.0S_Moscow/R2.0S_Moscow__20260107_100849_AQUA_rec.log

#Pass ID: 20260107_100849_AQUA
#Satellite: AQUA
#Configuration: AQUA
#almurnet v.1.7.20251203
#Start time: 2026-01-07 10:08:49

#Version: 2.2.20231116
#Station: R2.0S_Moscow
#Location: 37.707566 lon 55.798166 lat
#TLE: 1 27424U 02022A   26004.96787593  .00001598  00000+0  32997-3 0  9996
#TLE: 2 27424  98.4069 331.2279 0002002  90.2377   0.6092 14.61798176259425

#Time	Az	El	Level	Level2	SNR	BER	BlckErr	Temp	State	Recorded	gain1	gain2
2026-01-07 10:08:49.24	114.18	2.01	-32.9	-57.3	4.1	7.61e-01	0	47	0	0	40	50150
2026-01-07 10:08:52.27	113.95	2.19	-38.4	-59.6	4.2	7.52e-01	0	47	104	0	44	51812
2026-01-07 10:08:55.30	113.72	2.37	-25.4	-53.0	3.9	7.44e-01	0	47	104	0	37	36422
2026-01-07 10:08:58.34	113.48	2.55	-38.1	-58.9	3.9	7.52e-01	0	48	104	0	43	50894
2026-01-07 10:09:01.37	113.25	2.73	-37.2	-60.5	3.3	7.53e-01	0	48	104	0	45	54053
2026-01-07 10:09:04.40	113.00	2.91	-35.6	-59.8	3.9	7.45e-01	0	48	104	0	42	59809
2026-01-07 10:09:07.44	112.76	3.09	-37.2	-60.0	4.0	7.52e-01	0	48	104	0	42	61214
2026-01-07 10:09:10.47	112.51	3.27	-28.4	-51.6	4.4	7.81e-01	0	49	104	0	24	65535
2026-01-07 10:09:13.50	112.26	3.45	-36.3	-59.3	4.1	7.55e-01	0	49	104	0	42	56351
2026-01-07 10:09:16.54	112.00	3.64	-36.2	-59.2	4.1	7.57e-01	0	49	104	0	43	52473
2026-01-07 10:09:19.57	111.74	3.82	-31.1	-55.7	4.2	7.48e-01	0	49	104	0	34	59225
2026-01-07 10:09:22.60	111.48	4.01	-34.8	-57.6	3.9	7.58e-01	0	49	104	0	36	65521
2026-01-07 10:09:25.63	111.21	4.19	-37.4	-58.9	4.3	7.47e-01	0	50	104	0	43	50657
2026-01-07 10:09:28.66	110.94	4.38	-38.2	-57.6	3.6	7.64e-01	0	50	104	0	37	61792
2026-01-07 10:09:31.70	110.66	4.57	-33.8	-59.4	4.3	7.48e-01	0	50	104	0	42	56885
2026-01-07 10:09:34.73	110.38	4.76	-36.8	-57.1	4.3	7.46e-01	0	50	104	0	40	49005
2026-01-07 10:09:37.76	110.10	4.95	-23.6	-46.0	3.5	7.59e-01	0	50	104	0	18	48302
2026-01-07 10:09:40.79	109.81	5.14	-35.2	-57.6	3.8	7.53e-01	0	50	104	0	36	65396
2026-01-07 10:09:43.83	109.52	5.33	-30.0	-54.6	3.6	7.68e-01	0	50	104	0	30	65413
2026-01-07 10:09:46.86	109.22	5.52	-35.8	-60.5	4.1	7.49e-01	0	50	104	0	45	54040
2026-01-07 10:09:49.89	108.92	5.71	-37.5	-60.1	4.2	7.52e-01	0	51	104	0	43	57909
2026-01-07 10:09:52.92	108.62	5.91	-30.0	-53.1	3.8	7.73e-01	0	51	104	0	27	65535
2026-01-07 10:09:55.96	108.31	6.10	-36.5	-58.8	4.2	7.47e-01	0	51	104	0	39	63232
2026-01-07 10:09:58.99	108.00	6.30	-36.7	-58.8	4.1	7.51e-01	0	51	104	0	41	56113
2026-01-07 10:10:02.03	107.68	6.50	-30.8	-56.5	3.5	7.58e-01	0	51	104	0	34	64284
2026-01-07 10:10:05.06	107.35	6.70	-32.7	-58.6	3.7	7.62e-01	0	51	104	0	38	65519
2026-01-07 10:10:08.09	107.02	6.89	-37.7	-61.4	3.5	7.36e-01	0	52	104	0	46	56824
2026-01-07 10:10:11.13	106.69	7.09	-22.6	-46.5	3.4	7.55e-01	0	52	104	0	15	61086
2026-01-07 10:10:14.16	106.35	7.29	-32.2	-55.1	3.8	7.65e-01	0	52	104	0	31	65535
2026-01-07 10:10:17.19	106.01	7.50	-31.3	-51.7	4.3	7.58e-01	0	52	104	0	26	58577
2026-01-07 10:10:20.23	105.66	7.70	-32.1	-45.0	10.9	6.16e-01	21	52	0	1048576	34	17108
2026-01-07 10:10:23.26	105.30	7.90	-23.3	-41.0	7.0	6.74e-01	67	52	0	2097152	15	32389
2026-01-07 10:10:26.29	104.94	8.11	-37.8	-61.4	3.7	7.39e-01	0	52	104	5242880	52	40401
2026-01-07 10:10:29.32	104.58	8.31	-27.1	-44.8	4.3	7.36e-01	0	52	104	5767168	11	63141
2026-01-07 10:10:32.35	104.21	8.52	-30.7	-43.9	10.4	6.20e-01	33	52	0	6291456	24	26815
2026-01-07 10:10:35.38	103.83	8.72	-18.1	-40.3	7.2	6.76e-01	40	53	104	8388608	9	42015
2026-01-07 10:10:38.41	103.45	8.93	-16.4	-39.2	5.9	6.99e-01	0	53	0	12058624	12	31327
2026-01-07 10:10:41.44	103.06	9.14	-28.7	-42.0	10.9	6.29e-01	17	53	0	16252928	25	20363
2026-01-07 10:10:44.47	102.66	9.34	-28.6	-41.8	9.6	6.13e-01	42	53	0	22020096	24	21081
2026-01-07 10:10:47.50	102.26	9.55	-31.0	-42.6	14.5	6.09e-01	0	53	0	27787264	29	17417
2026-01-07 10:10:50.53	101.85	9.76	-29.7	-44.9	11.9	6.16e-01	4	53	0	33030144	30	21503
2026-01-07 10:10:53.56	101.44	9.97	-25.1	-41.7	13.6	6.08e-01	0	53	0	38797312	24	20989
2026-01-07 10:10:56.59	101.02	10.18	-26.3	-43.9	11.4	6.16e-01	8	53	0	44564480	26	23882
2026-01-07 10:10:59.62	100.59	10.40	-25.6	-46.1	4.7	7.39e-01	0	53	104	49807360	20	43508
2026-01-07 10:11:02.65	100.15	10.61	-27.0	-41.6	11.4	6.18e-01	14	54	0	52953088	22	23256
2026-01-07 10:11:05.68	99.71	10.82	-26.9	-42.4	11.3	6.19e-01	27	53	104	57147392	24	22521
2026-01-07 10:11:08.71	99.26	11.03	-18.6	-38.1	4.9	7.30e-01	0	54	104	57147392	7	36823
2026-01-07 10:11:11.73	98.81	11.25	-29.2	-41.6	12.9	6.16e-01	8	54	0	57671680	27	17478
2026-01-07 10:11:14.76	98.35	11.46	-28.4	-42.0	13.8	6.13e-01	1	54	0	61865984	30	15251
2026-01-07 10:11:17.79	97.88	11.68	-30.3	-42.3	15.0	6.09e-01	1	54	0	67633152	34	12629
2026-01-07 10:11:20.82	97.40	11.89	-33.3	-42.4	16.5	6.04e-01	0	54	0	73400320	36	11309
2026-01-07 10:11:23.84	96.91	12.10	-29.2	-41.5	16.7	6.04e-01	0	54	0	78643200	30	14502
2026-01-07 10:11:26.87	96.42	12.32	-36.9	-42.5	19.5	6.08e-01	0	54	0	84410368	48	5774
2026-01-07 10:11:29.90	95.92	12.53	-39.9	-42.8	19.7	6.08e-01	0	54	0	90177536	50	5320
2026-01-07 10:11:32.93	95.41	12.75	-39.9	-42.7	19.9	6.06e-01	0	54	0	95944704	50	5239
2026-01-07 10:11:35.96	94.89	12.96	-39.6	-42.2	20.4	6.06e-01	0	54	0	101711872	50	4944
2026-01-07 10:11:38.99	94.37	13.18	-39.4	-42.0	20.6	6.07e-01	0	54	0	107479040	50	4840
2026-01-07 10:11:42.02	93.83	13.39	-40.4	-43.4	19.1	6.06e-01	0	54	0	112721920	51	5393
2026-01-07 10:11:45.05	93.29	13.61	-40.5	-43.8	18.6	6.05e-01	0	54	0	118489088	51	5628
2026-01-07 10:11:48.08	92.74	13.82	-40.3	-43.4	19.1	6.06e-01	0	54	0	124256256	51	5370
2026-01-07 10:11:51.11	92.18	14.04	-40.4	-43.6	18.6	6.07e-01	0	54	0	130023424	51	5500
2026-01-07 10:11:54.14	91.61	14.25	-40.3	-43.5	18.8	6.07e-01	0	54	0	135790592	51	5437
2026-01-07 10:11:57.17	91.03	14.46	-40.4	-43.6	18.7	6.08e-01	0	54	0	141557760	51	5491
2026-01-07 10:12:00.19	90.45	14.67	-39.3	-42.0	20.3	6.09e-01	0	55	0	146800640	50	4853
2026-01-07 10:12:03.22	89.85	14.89	-39.4	-42.1	20.1	6.07e-01	0	54	0	152567808	50	4886
2026-01-07 10:12:06.25	89.25	15.10	-39.6	-42.5	19.6	6.05e-01	0	54	0	158334976	50	5129
2026-01-07 10:12:09.28	88.63	15.30	-39.8	-43.0	18.8	6.07e-01	0	55	0	164102144	50	5460
2026-01-07 10:12:12.30	88.01	15.51	-40.0	-43.5	18.0	6.06e-01	0	55	0	169869312	50	5772
2026-01-07 10:12:15.33	87.38	15.72	-40.1	-44.1	17.1	6.06e-01	0	55	0	175112192	50	6132
2026-01-07 10:12:18.36	86.74	15.92	-40.3	-44.6	16.4	6.06e-01	0	55	0	180879360	51	6185
2026-01-07 10:12:21.39	86.09	16.13	-40.5	-45.0	15.9	6.04e-01	0	55	0	186646528	51	6446
2026-01-07 10:12:24.41	85.43	16.33	-40.6	-45.1	15.8	6.06e-01	0	55	0	192413696	51	6557
2026-01-07 10:12:27.44	84.76	16.53	-40.6	-44.9	16.4	6.07e-01	0	55	0	198180864	51	6375
2026-01-07 10:12:30.47	84.08	16.72	-40.6	-44.6	16.9	6.06e-01	0	55	0	203948032	51	6138
2026-01-07 10:12:33.50	83.39	16.92	-40.5	-44.2	17.4	6.05e-01	0	55	0	209715200	51	5912
2026-01-07 10:12:36.53	82.69	17.11	-40.2	-43.6	18.1	6.06e-01	0	55	0	214958080	51	5501
2026-01-07 10:12:39.56	81.99	17.30	-40.1	-43.4	18.5	6.05e-01	0	55	0	220725248	51	5372
2026-01-07 10:12:42.58	81.27	17.49	-40.4	-44.0	17.6	6.06e-01	0	55	0	226492416	51	5779
2026-01-07 10:12:45.61	80.54	17.67	-40.3	-44.3	16.9	6.06e-01	0	55	0	232259584	51	5941
2026-01-07 10:12:48.64	79.81	17.86	-40.4	-44.9	15.9	6.04e-01	0	55	0	238026752	51	6378
2026-01-07 10:12:51.67	79.06	18.03	-40.6	-45.4	15.4	6.08e-01	0	55	0	243269632	51	6766
2026-01-07 10:12:54.70	78.31	18.21	-40.6	-45.3	15.5	6.06e-01	0	55	0	249036800	51	6685
2026-01-07 10:12:57.72	77.54	18.38	-40.5	-45.0	15.9	6.08e-01	0	55	0	254803968	51	6487
2026-01-07 10:13:00.75	76.77	18.55	-40.6	-45.3	15.7	6.05e-01	0	55	0	260571136	51	6660
2026-01-07 10:13:03.78	75.99	18.71	-40.5	-45.1	15.8	6.08e-01	0	55	0	266338304	51	6540
2026-01-07 10:13:06.81	75.20	18.87	-40.5	-44.8	16.2	6.07e-01	0	55	0	272105472	51	6342
2026-01-07 10:13:09.83	74.40	19.03	-40.3	-44.3	17.0	6.06e-01	0	55	0	277348352	51	5930
2026-01-07 10:13:12.87	73.59	19.18	-40.5	-44.5	16.9	6.07e-01	0	55	0	283115520	51	6095
2026-01-07 10:13:15.89	72.78	19.32	-40.5	-44.4	17.2	6.05e-01	0	55	0	288882688	51	6008
2026-01-07 10:13:18.92	71.95	19.46	-40.4	-44.0	17.8	6.06e-01	0	55	0	294649856	51	5778
2026-01-07 10:13:21.95	71.12	19.60	-40.4	-43.8	18.3	6.07e-01	0	55	0	300417024	51	5622
2026-01-07 10:13:24.98	70.28	19.73	-40.6	-43.9	18.5	6.05e-01	0	55	0	306184192	51	5689
2026-01-07 10:13:28.00	69.43	19.85	-40.5	-43.5	19.2	6.07e-01	0	55	0	311427072	52	5140
2026-01-07 10:13:31.03	68.58	19.97	-40.2	-42.8	20.3	6.07e-01	0	55	0	317194240	52	4747
2026-01-07 10:13:34.06	67.72	20.09	-40.3	-43.0	20.3	6.10e-01	0	55	0	322961408	52	4826
2026-01-07 10:13:37.09	66.85	20.19	-40.0	-42.5	20.8	6.05e-01	0	55	0	328728576	52	4580
2026-01-07 10:13:40.12	65.97	20.29	-40.4	-43.0	20.4	6.05e-01	0	55	0	334495744	52	4840
2026-01-07 10:13:43.14	65.10	20.39	-40.3	-42.8	20.5	6.09e-01	0	55	0	340262912	52	4752
2026-01-07 10:13:46.17	64.21	20.48	-40.2	-42.6	20.8	6.07e-01	0	56	0	345505792	52	4641
2026-01-07 10:13:49.20	63.32	20.56	-40.3	-42.9	20.6	6.08e-01	0	55	0	351272960	52	4774
2026-01-07 10:13:52.23	62.42	20.63	-40.0	-42.4	21.2	6.06e-01	0	55	0	357040128	51	4760
2026-01-07 10:13:55.26	61.52	20.70	-40.2	-42.7	20.9	6.06e-01	0	56	0	362807296	51	4930
2026-01-07 10:13:58.29	60.62	20.76	-40.3	-42.8	20.8	6.06e-01	0	55	0	368574464	51	4984
2026-01-07 10:14:01.32	59.71	20.82	-40.2	-42.6	21.0	6.08e-01	0	55	0	374341632	51	4887
2026-01-07 10:14:04.35	58.80	20.86	-40.2	-42.6	20.9	6.06e-01	0	55	0	379584512	51	4914
2026-01-07 10:14:07.39	57.88	20.90	-40.3	-42.8	20.8	6.03e-01	0	56	0	385351680	51	4996
2026-01-07 10:14:10.41	56.97	20.94	-40.2	-42.6	21.0	6.07e-01	0	55	0	391118848	51	4884
2026-01-07 10:14:13.44	56.05	20.96	-40.2	-42.7	20.9	6.04e-01	0	56	0	396886016	51	4935
2026-01-07 10:14:16.48	55.13	20.98	-40.3	-42.8	20.8	6.07e-01	0	55	0	402653184	51	5016
2026-01-07 10:14:19.51	54.21	20.99	-40.2	-42.6	21.0	6.08e-01	0	56	0	408420352	51	4903
2026-01-07 10:14:22.53	53.30	20.99	-40.2	-42.6	20.9	6.05e-01	0	56	0	413663232	51	4924
2026-01-07 10:14:25.56	52.38	20.99	-40.2	-42.6	20.9	6.06e-01	0	56	0	419430400	51	4917
2026-01-07 10:14:28.59	51.46	20.97	-40.4	-42.9	20.7	6.05e-01	0	55	0	425197568	51	5061
2026-01-07 10:14:31.62	50.54	20.95	-40.9	-52.9	3.9	7.41e-01	0	56	104	428343296	52	15106
2026-01-07 10:14:34.65	49.62	20.93	-43.7	-57.5	3.8	7.46e-01	0	56	104	428343296	57	19180
2026-01-07 10:14:37.68	48.71	20.89	-40.9	-52.7	3.9	7.43e-01	0	56	104	428343296	53	13914
2026-01-07 10:14:40.71	47.80	20.85	-40.7	-52.6	3.9	7.44e-01	0	56	104	428343296	53	13758
2026-01-07 10:14:43.74	46.89	20.80	-41.6	-53.9	3.8	7.47e-01	0	56	104	428343296	53	15998
2026-01-07 10:14:46.77	45.98	20.75	-41.0	-52.9	3.7	7.45e-01	0	56	104	428343296	54	13532
2026-01-07 10:14:49.81	45.08	20.68	-42.6	-55.5	3.8	7.47e-01	0	56	104	428343296	55	17135
2026-01-07 10:14:52.84	44.18	20.61	-43.2	-56.3	3.8	7.44e-01	0	56	104	428343296	56	17730
2026-01-07 10:14:55.87	43.29	20.54	-40.7	-52.6	3.8	7.42e-01	0	56	104	428343296	53	13800
2026-01-07 10:14:58.90	42.40	20.45	-43.8	-57.9	3.8	7.42e-01	0	56	104	428343296	58	19058
2026-01-07 10:15:01.93	41.52	20.36	-42.5	-55.3	3.8	7.46e-01	0	56	104	428343296	55	16844
2026-01-07 10:15:04.96	40.64	20.26	-40.7	-52.6	3.8	7.47e-01	0	56	104	428343296	53	13796
2026-01-07 10:15:08.00	39.77	20.16	-44.8	-60.9	3.9	7.49e-01	0	56	104	428343296	60	23926
2026-01-07 10:15:11.02	38.91	20.05	-41.4	-53.7	3.8	7.40e-01	0	56	104	428343296	54	14768
2026-01-07 10:15:14.05	38.05	19.94	-40.6	-52.5	3.8	7.44e-01	0	56	104	428343296	52	14426
2026-01-07 10:15:17.08	37.20	19.82	-43.7	-57.6	3.9	7.44e-01	0	56	104	428343296	58	18320
2026-01-07 10:15:20.11	36.36	19.69	-40.6	-52.5	3.8	7.41e-01	0	56	104	428343296	52	14535
2026-01-07 10:15:23.14	35.52	19.56	-43.1	-56.5	3.8	7.42e-01	0	56	104	428343296	57	17175
2026-01-07 10:15:26.16	34.70	19.42	-43.1	-56.4	3.8	7.42e-01	0	56	104	428343296	56	18038
2026-01-07 10:15:29.19	33.88	19.28	-40.7	-52.6	3.8	7.44e-01	0	56	104	428343296	53	13870
2026-01-07 10:15:32.23	33.06	19.13	-42.1	-54.7	3.8	7.47e-01	0	56	104	428343296	55	15587
2026-01-07 10:15:35.25	32.26	18.98	-40.7	-52.6	3.8	7.44e-01	0	56	104	428343296	53	13789
2026-01-07 10:15:38.28	31.47	18.83	-41.5	-53.8	3.8	7.44e-01	0	56	104	428343296	54	15024
2026-01-07 10:15:41.31	30.68	18.67	-41.4	-53.5	3.9	7.40e-01	0	56	104	428343296	54	14405
2026-01-07 10:15:44.35	29.90	18.50	-40.5	-52.3	3.8	7.45e-01	0	56	104	428343296	53	13292
2026-01-07 10:15:47.38	29.14	18.33	-40.8	-52.9	3.8	7.41e-01	0	56	104	428343296	53	14282
2026-01-07 10:15:50.40	28.38	18.16	-42.5	-55.4	3.8	7.43e-01	0	56	104	428343296	56	15965
2026-01-07 10:15:53.43	27.63	17.99	-40.4	-52.3	3.8	7.43e-01	0	56	104	428343296	52	14116
2026-01-07 10:15:56.46	26.89	17.81	-43.5	-57.3	3.9	7.43e-01	0	56	104	428343296	59	16884
2026-01-07 10:15:59.49	26.16	17.63	-40.6	-52.4	3.8	7.45e-01	0	56	104	428343296	53	13495
2026-01-07 10:16:02.52	25.44	17.44	-40.7	-52.7	3.8	7.44e-01	0	56	104	428343296	52	14867
2026-01-07 10:16:05.56	24.73	17.25	-40.4	-52.2	3.8	7.44e-01	0	56	104	428343296	52	13994
2026-01-07 10:16:08.58	24.03	17.06	-40.5	-52.3	3.8	7.45e-01	0	56	104	428343296	53	13393
2026-01-07 10:16:11.62	23.33	16.87	-41.7	-54.0	3.8	7.44e-01	0	56	104	428343296	53	16184
2026-01-07 10:16:14.65	22.65	16.67	-41.5	-53.7	3.8	7.43e-01	0	56	104	428343296	55	13985
2026-01-07 10:16:17.68	21.98	16.48	-40.4	-52.4	3.8	7.45e-01	0	56	104	428343296	52	14316
2026-01-07 10:16:20.71	21.31	16.28	-41.6	-54.0	3.8	7.45e-01	0	56	104	428343296	54	15274
2026-01-07 10:16:23.74	20.66	16.08	-40.5	-52.4	3.8	7.42e-01	0	56	104	428343296	52	14259
2026-01-07 10:16:26.77	20.02	15.87	-42.3	-55.2	3.8	7.49e-01	0	56	104	428343296	55	16625
2026-01-07 10:16:29.81	19.38	15.67	-41.6	-54.0	3.8	7.47e-01	0	56	104	428343296	53	16198
2026-01-07 10:16:32.84	18.75	15.46	-40.4	-52.3	3.8	7.44e-01	0	56	104	428343296	52	14167
2026-01-07 10:16:35.87	18.14	15.25	-44.4	-60.2	3.7	7.46e-01	0	56	104	428343296	59	23312
2026-01-07 10:16:38.91	17.53	15.05	-41.1	-53.3	3.8	7.45e-01	0	56	104	428343296	54	14098
2026-01-07 10:16:41.94	16.93	14.84	-40.7	-52.8	3.8	7.39e-01	0	56	104	428343296	53	14154
2026-01-07 10:16:44.97	16.34	14.63	-42.1	-54.9	3.8	7.44e-01	0	56	104	428343296	54	16917
2026-01-07 10:16:48.00	15.76	14.41	-40.7	-52.8	3.8	7.45e-01	0	56	104	428343296	53	14096
2026-01-07 10:16:51.03	15.19	14.20	-42.0	-54.8	3.9	7.44e-01	0	56	104	428343296	54	16842
2026-01-07 10:16:54.06	14.63	13.99	-43.0	-56.5	3.8	7.45e-01	0	56	104	428343296	56	18231
2026-01-07 10:16:57.10	14.07	13.78	-40.6	-52.6	3.8	7.44e-01	0	56	104	428343296	53	13837
2026-01-07 10:17:00.13	13.53	13.56	-42.3	-55.7	3.8	7.42e-01	0	56	104	428343296	55	17648
2026-01-07 10:17:03.16	12.99	13.35	-40.8	-53.1	3.8	7.45e-01	0	56	104	428343296	53	14568
2026-01-07 10:17:06.19	12.46	13.14	-42.4	-55.7	3.8	7.44e-01	0	56	104	428343296	55	17577
2026-01-07 10:17:09.22	11.94	12.92	-41.6	-54.9	3.8	7.45e-01	0	56	104	428343296	55	15965
2026-01-07 10:17:12.25	11.43	12.71	-40.7	-53.1	3.8	7.44e-01	0	56	104	428343296	53	14556
2026-01-07 10:17:15.28	10.93	12.49	-40.6	-53.1	3.9	7.45e-01	0	56	104	428343296	53	14541
2026-01-07 10:17:18.31	10.43	12.28	-41.8	-55.2	3.8	7.45e-01	0	56	104	428343296	54	17500
2026-01-07 10:17:21.34	9.95	12.07	-39.6	-51.8	3.8	7.47e-01	0	56	104	428343296	51	14094
2026-01-07 10:17:24.37	9.47	11.85	-40.3	-53.7	3.8	7.42e-01	0	56	104	428343296	51	17529
2026-01-07 10:17:27.39	9.00	11.64	-40.5	-54.5	3.8	7.43e-01	0	56	104	428343296	52	18231
2026-01-07 10:17:30.42	8.53	11.43	-41.4	-57.0	3.8	7.45e-01	0	56	104	428343296	54	21742
2026-01-07 10:17:33.45	8.08	11.21	-41.5	-57.5	3.8	7.45e-01	0	56	104	428343296	54	23035
2026-01-07 10:17:36.48	7.63	11.00	-41.2	-59.3	3.8	7.46e-01	0	56	104	428343296	53	29766
2026-01-07 10:17:39.51	7.18	10.79	-41.1	-59.9	3.8	7.45e-01	0	56	104	428343296	54	30316
2026-01-07 10:17:42.54	6.75	10.58	-40.9	-59.7	3.8	7.43e-01	0	56	104	428343296	53	31437
2026-01-07 10:17:45.57	6.32	10.37	-40.7	-59.7	3.8	7.42e-01	0	56	104	428343296	53	31104
2026-01-07 10:17:48.60	5.90	10.15	-41.1	-60.0	3.8	7.44e-01	0	56	104	428343296	53	32462
2026-01-07 10:17:51.63	5.48	9.94	-40.7	-59.7	3.8	7.47e-01	0	56	104	428343296	53	31124
2026-01-07 10:17:54.66	5.07	9.74	-40.7	-59.6	3.8	7.47e-01	0	56	104	428343296	53	30933
2026-01-07 10:17:57.69	4.67	9.53	-40.6	-59.5	3.8	7.46e-01	0	56	104	428343296	53	30629
2026-01-07 10:18:00.72	4.27	9.32	-40.6	-59.6	3.8	7.46e-01	0	56	104	428343296	53	31004
2026-01-07 10:18:03.76	3.88	9.11	-40.7	-59.6	3.8	7.46e-01	0	56	104	428343296	53	30910
2026-01-07 10:18:06.79	3.50	8.90	-40.6	-59.6	3.8	7.43e-01	0	56	104	428343296	53	31080
2026-01-07 10:18:09.82	3.12	8.70	-40.6	-59.6	3.8	7.43e-01	0	56	104	428343296	53	30859
2026-01-07 10:18:12.85	2.75	8.49	-40.6	-59.6	3.8	7.43e-01	0	57	104	428343296	53	31051
2026-01-07 10:18:15.88	2.38	8.29	-40.5	-59.6	3.8	7.46e-01	0	57	104	428343296	53	30877
2026-01-07 10:18:18.91	2.02	8.09	-40.1	-59.6	3.8	7.46e-01	0	57	104	428343296	52	32686
2026-01-07 10:18:21.95	1.67	7.88	-44.8	-63.8	3.8	7.47e-01	0	56	104	428343296	60	33330
2026-01-07 10:18:24.98	1.32	7.68	-46.0	-64.8	3.8	7.45e-01	0	56	104	428343296	62	33550
2026-01-07 10:18:28.01	0.97	7.48	-46.3	-65.1	3.8	7.46e-01	0	56	104	428343296	63	32837
2026-01-07 10:18:31.05	0.63	7.28	-46.2	-65.0	3.8	7.47e-01	0	56	104	428343296	63	32521
2026-01-07 10:18:34.08	0.30	7.08	-46.1	-65.0	3.8	7.42e-01	0	56	104	428343296	63	32210
2026-01-07 10:18:37.11	359.97	6.88	-46.0	-64.9	3.8	7.43e-01	0	56	104	428343296	63	32006
2026-01-07 10:18:40.15	359.65	6.68	-46.0	-64.9	3.8	7.48e-01	0	57	104	428343296	63	31973
2026-01-07 10:18:43.18	359.33	6.49	-46.0	-64.9	3.8	7.46e-01	0	56	104	428343296	63	31905
2026-01-07 10:18:46.21	359.02	6.29	-46.0	-64.9	3.8	7.43e-01	0	57	104	428343296	63	31882
2026-01-07 10:18:49.24	358.71	6.10	-46.0	-64.9	3.8	7.45e-01	0	56	104	428343296	63	31859
2026-01-07 10:18:52.28	358.40	5.90	-46.0	-64.8	3.8	7.45e-01	0	56	104	428343296	63	31803
2026-01-07 10:18:55.31	358.10	5.71	-46.0	-64.9	3.8	7.46e-01	0	56	104	428343296	63	31835
2026-01-07 10:18:58.34	357.81	5.52	-46.0	-64.9	3.8	7.48e-01	0	57	104	428343296	63	31822
2026-01-07 10:19:01.38	357.52	5.32	-46.0	-64.8	3.8	7.45e-01	0	56	104	428343296	63	31778
2026-01-07 10:19:04.41	357.23	5.13	-46.0	-64.8	3.8	7.45e-01	0	57	104	428343296	63	31786
2026-01-07 10:19:07.44	356.95	4.94	-45.9	-64.8	3.8	7.47e-01	0	56	104	428343296	63	31748
2026-01-07 10:19:10.48	356.67	4.75	-45.8	-64.9	3.8	7.46e-01	0	56	104	428343296	63	31821
2026-01-07 10:19:13.51	356.39	4.57	-46.0	-64.8	3.8	7.44e-01	0	56	104	428343296	63	31807
2026-01-07 10:19:16.54	356.12	4.38	-46.0	-64.8	3.8	7.43e-01	0	56	104	428343296	63	31743
2026-01-07 10:19:19.57	355.86	4.19	-46.0	-64.8	3.8	7.46e-01	0	57	104	428343296	63	31763
2026-01-07 10:19:22.61	355.59	4.01	-46.0	-64.8	3.8	7.45e-01	0	57	104	428343296	63	31756
2026-01-07 10:19:25.64	355.34	3.82	-46.0	-64.8	3.8	7.45e-01	0	56	104	428343296	63	31727
2026-01-07 10:19:28.67	355.08	3.64	-46.0	-64.8	3.8	7.44e-01	0	57	104	428343296	63	31680
2026-01-07 10:19:31.71	354.83	3.46	-45.9	-64.8	3.8	7.47e-01	0	57	104	428343296	62	33579
2026-01-07 10:19:34.74	354.58	3.28	-45.9	-64.8	3.8	7.47e-01	0	57	104	428343296	62	33655
2026-01-07 10:19:37.77	354.34	3.09	-45.9	-64.8	3.8	7.46e-01	0	57	104	428343296	62	33676
2026-01-07 10:19:40.81	354.09	2.91	-45.9	-64.8	3.8	7.44e-01	0	57	104	428343296	62	33640
2026-01-07 10:19:43.84	353.86	2.73	-46.0	-64.8	3.8	7.46e-01	0	56	104	428343296	62	33677
2026-01-07 10:19:46.87	353.62	2.56	-45.9	-64.8	3.8	7.46e-01	0	57	104	428343296	62	33666
2026-01-07 10:19:49.90	353.39	2.38	-45.9	-64.8	3.8	7.48e-01	0	57	104	428343296	62	33617
2026-01-07 10:19:52.94	353.16	2.20	-45.9	-64.8	3.8	7.43e-01	0	56	104	428343296	62	33568
2026-01-07 10:19:55.97	352.94	2.03	-45.9	-64.8	3.8	7.44e-01	0	57	104	428343296	62	33662

#Closed at: 2026-01-07 10:19:56
#Recorded file [428 MB]: D:/lorett/data/31039_260107_130849.dat