passes_logs/2026/01/07/R2.0S_Moscow/R2.0S_Moscow__20260107_233556_NOAA_21_JPSS-2_rec.log

#Pass ID: 20260107_233556_NOAA 21 (JPSS-2)
#Satellite: NOAA 21 (JPSS-2)
#Configuration: NOAA-21
#almurnet v.1.7.20251203
#Start time: 2026-01-07 23:35:56

#Version: 2.2.20231116
#Station: R2.0S_Moscow
#Location: 37.707566 lon 55.798166 lat
#TLE: 1 54234U 22150A   26005.56767909  .00000152  00000+0  92756-4 0  9990
#TLE: 2 54234  98.7490 306.5820 0001036 340.2747  19.8389 14.19532370163472

#Time	Az	El	Level	Level2	SNR	BER	BlckErr	Temp	State	Recorded	gain1	gain2
2026-01-07 23:35:56.44	16.45	2.03	-41.8	-54.5	3.8	1.49e+00	0	48	0	0	55	15348
2026-01-07 23:36:00.43	16.47	2.28	-41.8	-54.5	3.8	1.49e+00	0	48	104	0	54	16271
2026-01-07 23:36:04.40	16.50	2.54	-41.8	-54.5	3.8	1.49e+00	0	49	104	0	54	16222
2026-01-07 23:36:08.40	16.53	2.80	-41.8	-54.5	3.8	1.49e+00	0	49	104	0	54	16238
2026-01-07 23:36:12.42	16.56	3.07	-41.8	-54.5	3.8	1.49e+00	0	49	104	0	54	16276
2026-01-07 23:36:16.45	16.59	3.33	-41.8	-54.5	3.8	1.49e+00	0	49	104	0	54	16228
2026-01-07 23:36:20.47	16.61	3.60	-41.8	-54.5	3.8	1.49e+00	0	50	104	0	54	16244
2026-01-07 23:36:24.51	16.64	3.88	-41.8	-54.5	3.8	1.49e+00	0	50	104	0	54	16187
2026-01-07 23:36:28.53	16.67	4.15	-41.8	-54.5	3.8	1.49e+00	0	50	104	0	54	16191
2026-01-07 23:36:32.52	16.70	4.43	-41.8	-54.5	3.8	1.49e+00	0	50	104	0	54	16242
2026-01-07 23:36:36.52	16.73	4.71	-41.8	-54.5	3.8	1.49e+00	0	51	104	0	54	16220
2026-01-07 23:36:40.51	16.76	4.99	-41.8	-54.5	3.8	1.49e+00	0	51	104	0	54	16258
2026-01-07 23:36:44.51	16.79	5.27	-41.8	-54.4	3.8	1.49e+00	0	51	104	0	54	16068
2026-01-07 23:36:48.51	16.82	5.56	-41.7	-54.5	3.8	1.49e+00	0	51	104	0	54	16135
2026-01-07 23:36:52.52	16.85	5.86	-41.8	-54.5	3.8	1.49e+00	0	52	104	0	54	16221
2026-01-07 23:36:56.52	16.88	6.15	-41.8	-54.5	3.8	1.49e+00	0	52	104	0	54	16198
2026-01-07 23:37:00.52	16.91	6.45	-41.7	-54.4	3.8	1.49e+00	0	52	104	0	54	15992
2026-01-07 23:37:04.52	16.94	6.75	-41.7	-53.8	3.8	1.49e+00	0	52	104	0	54	14998
2026-01-07 23:37:08.52	16.97	7.06	-41.6	-53.4	3.8	1.49e+00	0	52	104	0	54	14303
2026-01-07 23:37:12.51	17.01	7.36	-41.3	-49.8	4.6	1.33e+00	2	52	104	0	54	9403
2026-01-07 23:37:16.51	17.04	7.68	-40.0	-44.8	8.4	5.48e-02	0	53	0	9437184	51	6331
2026-01-07 23:37:20.51	17.07	7.99	-37.8	-40.6	12.7	1.11e-04	0	53	0	22020096	47	4910
2026-01-07 23:37:24.53	17.10	8.32	-39.6	-42.4	12.2	2.47e-03	0	53	0	34603008	51	4775
2026-01-07 23:37:28.53	17.14	8.64	-38.5	-40.7	14.0	3.00e-06	0	53	0	45088768	49	4411
2026-01-07 23:37:32.53	17.17	8.97	-38.6	-40.9	13.9	1.50e-06	0	53	0	57671680	49	4494
2026-01-07 23:37:36.53	17.20	9.30	-38.5	-40.7	14.1	1.50e-06	0	53	0	70254592	48	4656
2026-01-07 23:37:40.56	17.24	9.64	-38.6	-40.7	14.1	2.20e-06	0	54	0	82837504	48	4701
2026-01-07 23:37:44.59	17.27	9.99	-38.5	-40.6	14.5	1.50e-06	0	54	0	95420416	48	4603
2026-01-07 23:37:48.61	17.31	10.34	-38.5	-40.5	14.5	7.00e-07	0	54	0	108003328	48	4589
2026-01-07 23:37:52.63	17.34	10.69	-38.4	-40.3	14.8	7.00e-07	0	54	0	120586240	48	4491
2026-01-07 23:37:56.64	17.38	11.05	-38.2	-40.2	14.9	0.00e+00	0	54	0	133169152	48	4415
2026-01-07 23:38:00.67	17.42	11.42	-38.2	-40.1	15.1	0.00e+00	0	54	0	145752064	48	4368
2026-01-07 23:38:04.70	17.45	11.79	-38.1	-40.0	15.3	0.00e+00	0	54	0	158334976	48	4301
2026-01-07 23:38:08.72	17.49	12.17	-38.1	-39.9	15.4	0.00e+00	0	54	0	170917888	48	4257
2026-01-07 23:38:12.74	17.53	12.55	-38.0	-39.8	15.5	0.00e+00	0	54	0	183500800	48	4241
2026-01-07 23:38:16.75	17.57	12.94	-37.8	-39.6	15.7	0.00e+00	0	54	0	196083712	47	4372
2026-01-07 23:38:20.77	17.61	13.33	-37.8	-39.5	15.7	0.00e+00	0	54	0	208666624	47	4332
2026-01-07 23:38:24.81	17.65	13.73	-37.6	-39.3	16.0	0.00e+00	0	55	0	221249536	47	4234
2026-01-07 23:38:28.83	17.69	14.14	-37.7	-39.4	15.9	0.00e+00	0	55	0	233832448	47	4268
2026-01-07 23:38:32.85	17.73	14.56	-37.6	-39.3	16.1	0.00e+00	0	55	0	246415360	47	4226
2026-01-07 23:38:36.87	17.77	14.98	-37.6	-39.3	16.1	0.00e+00	0	55	0	258998272	47	4229
2026-01-07 23:38:40.89	17.81	15.41	-37.7	-39.3	16.1	0.00e+00	0	55	0	271581184	47	4241
2026-01-07 23:38:44.92	17.86	15.85	-37.7	-39.4	16.2	0.00e+00	0	55	0	284164096	47	4244
2026-01-07 23:38:48.95	17.90	16.29	-37.7	-39.4	16.2	0.00e+00	0	55	0	296747008	47	4246
2026-01-07 23:38:52.98	17.95	16.75	-37.6	-39.3	16.3	0.00e+00	0	55	0	309329920	47	4218
2026-01-07 23:38:57.00	17.99	17.21	-37.7	-39.4	16.2	0.00e+00	0	55	0	321912832	47	4264
2026-01-07 23:39:01.03	18.04	17.68	-37.7	-39.4	16.2	0.00e+00	0	55	0	334495744	47	4276
2026-01-07 23:39:05.05	18.09	18.16	-37.7	-39.4	16.3	0.00e+00	0	55	0	347078656	47	4252
2026-01-07 23:39:09.05	18.13	18.65	-37.6	-39.3	16.4	0.00e+00	0	55	0	359661568	47	4205
2026-01-07 23:39:13.03	18.18	19.15	-37.6	-39.2	16.5	0.00e+00	0	56	0	371195904	47	4160
2026-01-07 23:39:17.02	18.23	19.65	-37.5	-39.1	16.6	0.00e+00	0	56	0	383778816	46	4371
2026-01-07 23:39:21.01	18.29	20.17	-37.5	-39.1	16.7	0.00e+00	0	56	0	396361728	46	4355
2026-01-07 23:39:25.00	18.34	20.70	-37.4	-38.9	16.9	0.00e+00	0	56	0	408944640	46	4267
2026-01-07 23:39:28.99	18.39	21.24	-37.1	-38.6	17.1	0.00e+00	0	56	0	421527552	46	4142
2026-01-07 23:39:32.99	18.45	21.79	-36.9	-38.4	17.4	0.00e+00	0	56	0	434110464	45	4257
2026-01-07 23:39:36.99	18.51	22.36	-36.8	-38.2	17.6	0.00e+00	0	56	0	446693376	45	4179
2026-01-07 23:39:40.99	18.57	22.93	-36.6	-38.0	17.8	0.00e+00	0	56	0	459276288	45	4075
2026-01-07 23:39:44.98	18.63	23.52	-36.5	-37.9	17.9	0.00e+00	0	56	0	471859200	45	4021
2026-01-07 23:39:48.98	18.69	24.13	-36.5	-37.9	18.0	0.00e+00	0	56	0	483393536	44	4244
2026-01-07 23:39:52.98	18.75	24.75	-36.5	-37.9	17.9	0.00e+00	0	56	0	495976448	44	4286
2026-01-07 23:39:56.96	18.82	25.38	-36.8	-38.2	17.6	0.00e+00	0	56	0	508559360	44	4431
2026-01-07 23:40:00.96	18.89	26.03	-37.1	-38.6	17.3	0.00e+00	0	56	0	521142272	44	4649
2026-01-07 23:40:04.94	18.96	26.69	-37.5	-39.1	16.8	0.00e+00	0	56	0	533725184	45	4620
2026-01-07 23:40:08.94	19.03	27.37	-37.9	-39.5	16.4	0.00e+00	0	56	0	546308096	46	4583
2026-01-07 23:40:12.95	19.10	28.07	-38.1	-39.8	16.1	0.00e+00	0	56	0	558891008	46	4746
2026-01-07 23:40:16.94	19.18	28.79	-38.0	-39.6	16.3	0.00e+00	0	56	0	571473920	46	4632
2026-01-07 23:40:20.93	19.26	29.53	-37.7	-39.3	16.7	0.00e+00	0	56	0	584056832	46	4461
2026-01-07 23:40:24.94	19.35	30.28	-37.3	-38.8	17.2	0.00e+00	0	56	0	596639744	46	4204
2026-01-07 23:40:28.95	19.43	31.06	-37.0	-38.4	17.5	0.00e+00	0	56	0	609222656	45	4273
2026-01-07 23:40:32.93	19.52	31.86	-36.9	-38.4	17.6	0.00e+00	0	57	0	620756992	45	4245
2026-01-07 23:40:36.93	19.62	32.68	-37.3	-38.8	17.2	0.00e+00	0	57	0	633339904	45	4470
2026-01-07 23:40:40.92	19.72	33.52	-37.6	-39.1	16.9	0.00e+00	0	56	0	645922816	45	4636
2026-01-07 23:40:44.92	19.82	34.39	-37.9	-39.6	16.5	0.00e+00	0	56	0	658505728	46	4604
2026-01-07 23:40:48.92	19.93	35.28	-38.4	-40.1	16.0	0.00e+00	0	56	0	671088640	47	4613
2026-01-07 23:40:52.92	20.04	36.20	-38.9	-40.7	15.5	0.00e+00	0	56	0	683671552	48	4686
2026-01-07 23:40:56.93	20.16	37.15	-39.1	-41.0	15.2	0.00e+00	0	56	0	696254464	48	4831
2026-01-07 23:41:00.92	20.29	38.12	-39.2	-41.2	15.0	0.00e+00	0	56	0	708837376	49	4659
2026-01-07 23:41:04.92	20.42	39.12	-39.0	-40.8	15.4	0.00e+00	0	57	0	721420288	49	4473
2026-01-07 23:41:08.91	20.56	40.15	-39.0	-40.8	15.4	0.00e+00	0	57	0	734003200	49	4473
2026-01-07 23:41:12.92	20.71	41.22	-38.9	-40.7	15.5	0.00e+00	0	57	0	746586112	49	4438
2026-01-07 23:41:16.93	20.86	42.32	-39.6	-41.7	14.5	0.00e+00	0	57	0	759169024	49	4948
2026-01-07 23:41:20.92	21.03	43.44	-40.2	-42.4	13.8	3.80e-06	0	57	0	771751936	51	4779
2026-01-07 23:41:24.92	21.21	44.60	-40.0	-42.1	14.1	7.00e-07	0	57	0	783286272	51	4650
2026-01-07 23:41:28.91	21.40	45.80	-40.5	-42.8	13.4	1.90e-05	0	57	0	795869184	51	5037
2026-01-07 23:41:32.91	21.61	47.03	-40.6	-43.2	12.9	5.41e-05	0	57	0	808452096	52	4948
2026-01-07 23:41:36.90	21.83	48.30	-40.0	-42.2	14.1	2.20e-06	0	57	0	821035008	51	4673
2026-01-07 23:41:40.91	22.07	49.62	-39.4	-41.4	14.9	7.00e-07	0	57	0	833617920	50	4524
2026-01-07 23:41:44.92	22.33	50.97	-39.0	-40.8	15.5	0.00e+00	0	57	0	846200832	49	4475
2026-01-07 23:41:48.92	22.61	52.36	-38.6	-40.4	15.9	0.00e+00	0	57	0	858783744	49	4254
2026-01-07 23:41:52.92	22.92	53.78	-38.4	-40.1	16.2	0.00e+00	0	57	0	871366656	48	4378
2026-01-07 23:41:56.92	23.26	55.25	-37.4	-38.8	17.3	0.00e+00	0	57	0	883949568	46	4232
2026-01-07 23:42:00.93	23.64	56.77	-37.4	-38.9	17.3	0.00e+00	0	57	0	896532480	46	4278
2026-01-07 23:42:04.93	24.06	58.32	-37.3	-38.8	17.4	0.00e+00	0	57	0	909115392	46	4200
2026-01-07 23:42:08.92	24.53	59.90	-36.4	-37.7	18.4	0.00e+00	0	57	0	921698304	44	4180
2026-01-07 23:42:12.93	25.07	61.54	-36.3	-37.6	18.5	0.00e+00	0	57	0	933232640	44	4108
2026-01-07 23:42:16.92	25.67	63.20	-35.6	-36.9	19.0	0.00e+00	0	57	0	945815552	43	4015
2026-01-07 23:42:20.92	26.37	64.91	-35.9	-37.2	18.7	0.00e+00	0	57	0	958398464	43	4178
2026-01-07 23:42:24.92	27.18	66.65	-35.5	-36.8	19.1	0.00e+00	0	57	0	970981376	43	3973
2026-01-07 23:42:28.93	28.14	68.43	-36.0	-37.3	18.6	0.00e+00	0	57	0	983564288	43	4207
2026-01-07 23:42:32.93	29.28	70.23	-35.8	-37.1	18.7	0.00e+00	0	57	0	996147200	43	4122
2026-01-07 23:42:36.93	30.66	72.06	-35.3	-36.5	19.3	0.00e+00	0	57	0	1008730112	42	4063
2026-01-07 23:42:40.91	32.37	73.90	-35.4	-36.6	19.2	0.00e+00	0	57	0	1021313024	42	4110
2026-01-07 23:42:44.90	34.54	75.76	-35.5	-36.7	19.1	0.00e+00	0	57	0	1033895936	41	4428
2026-01-07 23:42:48.89	37.39	77.61	-36.3	-37.7	18.2	0.00e+00	0	57	0	1046478848	43	4398
2026-01-07 23:42:52.90	41.29	79.46	-36.6	-38.0	18.1	0.00e+00	0	57	0	1059061760	44	4310
2026-01-07 23:42:56.90	46.83	81.25	-36.0	-37.3	18.5	0.00e+00	0	57	0	1071644672	43	4240
2026-01-07 23:43:00.90	55.15	82.94	-36.4	-37.7	18.1	0.00e+00	0	57	0	1084227584	43	4436
2026-01-07 23:43:04.89	68.21	84.39	-36.3	-37.6	18.2	0.00e+00	0	57	0	1095761920	43	4377
2026-01-07 23:43:08.88	88.50	85.39	-37.0	-38.4	17.6	0.00e+00	0	57	0	1108344832	44	4526
2026-01-07 23:43:12.86	114.59	85.59	-36.6	-38.0	18.0	0.00e+00	0	57	0	1120927744	44	4299
2026-01-07 23:43:16.85	138.09	84.90	-36.4	-37.7	18.3	0.00e+00	0	57	0	1133510656	44	4167
2026-01-07 23:43:20.83	154.00	83.61	-36.3	-37.7	18.2	0.00e+00	0	57	0	1146093568	43	4403
2026-01-07 23:43:24.82	164.07	82.00	-36.0	-37.3	18.5	0.00e+00	0	57	0	1158676480	43	4212
2026-01-07 23:43:28.81	170.63	80.25	-36.2	-37.5	18.5	0.00e+00	0	57	0	1171259392	44	4094
2026-01-07 23:43:32.77	175.10	78.44	-35.9	-37.2	18.5	0.00e+00	0	57	0	1182793728	43	4157
2026-01-07 23:43:36.74	178.35	76.60	-36.0	-37.3	18.5	0.00e+00	0	57	0	1195376640	42	4482
2026-01-07 23:43:40.73	180.80	74.74	-35.9	-37.2	18.3	0.00e+00	0	57	0	1207959552	43	4184
2026-01-07 23:43:44.70	182.70	72.89	-36.4	-37.8	18.2	0.00e+00	0	57	0	1220542464	44	4208
2026-01-07 23:43:48.66	184.21	71.07	-35.3	-36.5	19.2	0.00e+00	0	57	0	1233125376	42	4084
2026-01-07 23:43:52.65	185.45	69.25	-37.4	-39.0	17.0	0.00e+00	0	57	0	1245708288	45	4548
2026-01-07 23:43:56.63	186.48	67.47	-36.6	-37.9	18.0	0.00e+00	0	57	0	1258291200	44	4283
2026-01-07 23:44:00.62	187.35	65.71	-36.7	-38.1	17.9	0.00e+00	0	57	0	1269825536	45	4119
2026-01-07 23:44:04.61	188.10	63.99	-36.1	-37.4	18.4	0.00e+00	0	57	0	1282408448	43	4267
2026-01-07 23:44:08.60	188.74	62.30	-37.7	-39.3	16.6	0.00e+00	0	57	0	1294991360	46	4445
2026-01-07 23:44:12.57	189.31	60.66	-36.7	-38.1	17.8	0.00e+00	0	57	0	1307574272	44	4375
2026-01-07 23:44:16.55	189.80	59.05	-37.1	-38.5	17.4	0.00e+00	0	57	0	1320157184	45	4329
2026-01-07 23:44:20.54	190.25	57.48	-36.2	-37.5	18.5	0.00e+00	0	57	0	1332740096	44	4055
2026-01-07 23:44:24.53	190.64	55.95	-38.5	-40.2	15.8	0.00e+00	0	57	0	1345323008	47	4697
2026-01-07 23:44:28.51	191.00	54.46	-38.3	-40.0	16.2	0.00e+00	0	57	0	1357905920	48	4299
2026-01-07 23:44:32.50	191.32	53.01	-37.5	-39.0	17.0	0.00e+00	0	57	0	1370488832	46	4311
2026-01-07 23:44:36.49	191.62	51.60	-39.5	-41.6	14.6	0.00e+00	0	57	0	1382023168	49	4874
2026-01-07 23:44:40.48	191.89	50.23	-39.2	-41.0	15.1	0.00e+00	0	57	0	1394606080	49	4586
2026-01-07 23:44:44.46	192.14	48.90	-39.4	-41.4	14.8	0.00e+00	0	57	0	1407188992	50	4516
2026-01-07 23:44:48.45	192.37	47.61	-39.6	-41.7	14.4	7.00e-07	0	57	0	1419771904	50	4694
2026-01-07 23:44:52.44	192.58	46.36	-39.9	-42.1	14.0	4.50e-06	0	57	0	1432354816	50	4890
2026-01-07 23:44:56.42	192.77	45.14	-39.9	-42.1	14.0	0.00e+00	0	57	0	1444937728	50	4886
2026-01-07 23:45:00.40	192.96	43.96	-40.5	-43.0	13.1	4.04e-05	0	57	0	1457520640	51	5106
2026-01-07 23:45:04.38	193.13	42.81	-39.1	-40.9	15.1	0.00e+00	0	57	0	1469054976	50	4290
2026-01-07 23:45:08.36	193.29	41.70	-40.1	-42.4	13.7	6.80e-06	0	57	0	1481637888	50	5085
2026-01-07 23:45:12.34	193.44	40.62	-40.3	-42.7	13.3	2.05e-05	0	57	0	1494220800	51	4953
2026-01-07 23:45:16.33	193.58	39.57	-39.3	-41.2	14.8	0.00e+00	0	58	0	1506803712	50	4429
2026-01-07 23:45:20.31	193.72	38.56	-39.3	-41.3	14.8	0.00e+00	0	57	0	1519386624	49	4710
2026-01-07 23:45:24.30	193.84	37.57	-38.4	-40.1	16.0	0.00e+00	0	57	0	1531969536	48	4356
2026-01-07 23:45:28.28	193.96	36.61	-38.7	-40.5	15.6	7.00e-07	0	57	0	1544552448	48	4561
2026-01-07 23:45:32.28	194.08	35.67	-39.3	-41.4	14.7	0.00e+00	0	57	0	1557135360	49	4761
2026-01-07 23:45:36.26	194.19	34.76	-39.2	-41.2	14.6	0.00e+00	0	57	0	1568669696	49	4687
2026-01-07 23:45:40.23	194.29	33.88	-38.7	-40.5	15.4	0.00e+00	0	58	0	1581252608	49	4324
2026-01-07 23:45:44.23	194.39	33.02	-38.1	-39.7	16.3	0.00e+00	0	58	0	1593835520	48	4169
2026-01-07 23:45:48.21	194.48	32.19	-37.5	-39.0	16.9	0.00e+00	0	58	0	1606418432	47	4071
2026-01-07 23:45:52.19	194.58	31.38	-37.5	-39.0	16.9	0.00e+00	0	57	0	1619001344	46	4322
2026-01-07 23:45:56.18	194.66	30.59	-38.0	-39.6	16.3	0.00e+00	0	57	0	1631584256	46	4636
2026-01-07 23:46:00.17	194.75	29.82	-37.9	-39.5	16.4	0.00e+00	0	57	0	1644167168	46	4585
2026-01-07 23:46:04.16	194.83	29.07	-37.8	-39.5	16.4	0.00e+00	0	57	0	1656750080	46	4560
2026-01-07 23:46:08.15	194.90	28.34	-37.5	-39.0	16.8	0.00e+00	0	57	0	1669332992	46	4327
2026-01-07 23:46:12.15	194.98	27.63	-37.1	-38.6	17.2	0.00e+00	0	57	0	1680867328	46	4114
2026-01-07 23:46:16.16	195.05	26.93	-36.9	-38.4	17.4	0.00e+00	0	57	0	1693450240	45	4252
2026-01-07 23:46:20.15	195.12	26.26	-36.5	-37.9	17.9	0.00e+00	0	57	0	1706033152	45	4026
2026-01-07 23:46:24.13	195.19	25.60	-36.5	-37.9	17.9	0.00e+00	0	57	0	1718616064	45	4024
2026-01-07 23:46:28.13	195.25	24.95	-36.4	-37.8	18.0	0.00e+00	0	57	0	1731198976	44	4206
2026-01-07 23:46:32.12	195.31	24.33	-36.5	-37.9	17.9	0.00e+00	0	57	0	1743781888	44	4249
2026-01-07 23:46:36.10	195.37	23.71	-36.8	-38.2	17.6	0.00e+00	0	57	0	1756364800	44	4421
2026-01-07 23:46:40.09	195.43	23.11	-37.1	-38.5	17.2	0.00e+00	0	58	0	1768947712	44	4596
2026-01-07 23:46:44.08	195.49	22.53	-37.1	-38.6	17.1	0.00e+00	0	58	0	1781530624	44	4649
2026-01-07 23:46:48.07	195.54	21.96	-37.1	-38.6	17.1	0.00e+00	0	57	0	1793064960	44	4627
2026-01-07 23:46:52.06	195.60	21.40	-37.1	-38.6	17.2	0.00e+00	0	57	0	1805647872	44	4604
2026-01-07 23:46:56.06	195.65	20.85	-37.0	-38.5	17.3	0.00e+00	0	58	0	1818230784	44	4578
2026-01-07 23:47:00.03	195.70	20.31	-37.1	-38.6	17.1	0.00e+00	0	58	0	1830813696	44	4650
2026-01-07 23:47:04.03	195.75	19.79	-37.2	-38.7	17.0	0.00e+00	0	57	0	1843396608	44	4699
2026-01-07 23:47:08.03	195.80	19.27	-37.3	-38.8	16.8	0.00e+00	0	58	0	1855979520	45	4492
2026-01-07 23:47:12.03	195.85	18.77	-37.4	-39.0	16.7	0.00e+00	0	57	0	1868562432	45	4546
2026-01-07 23:47:16.03	195.89	18.27	-37.5	-39.1	16.5	0.00e+00	0	58	0	1881145344	45	4628
2026-01-07 23:47:20.01	195.94	17.79	-37.6	-39.3	16.4	0.00e+00	0	57	0	1893728256	45	4723
2026-01-07 23:47:23.99	195.98	17.32	-37.8	-39.5	16.2	0.00e+00	0	57	0	1906311168	46	4565
2026-01-07 23:47:27.98	196.02	16.85	-37.8	-39.5	16.2	0.00e+00	0	57	0	1917845504	46	4564
2026-01-07 23:47:31.97	196.07	16.39	-37.8	-39.5	16.3	0.00e+00	0	57	0	1930428416	46	4547
2026-01-07 23:47:35.96	196.11	15.94	-37.7	-39.3	16.4	0.00e+00	0	58	0	1943011328	46	4472
2026-01-07 23:47:39.96	196.15	15.50	-37.6	-39.3	16.4	0.00e+00	0	58	0	1955594240	46	4455
2026-01-07 23:47:43.94	196.19	15.07	-37.7	-39.3	16.3	0.00e+00	0	58	0	1968177152	46	4491
2026-01-07 23:47:47.93	196.23	14.65	-37.7	-39.3	16.3	0.00e+00	0	58	0	1980760064	46	4487
2026-01-07 23:47:51.91	196.26	14.23	-37.8	-39.4	16.1	0.00e+00	0	58	0	1993342976	46	4544
2026-01-07 23:47:55.87	196.30	13.82	-37.7	-39.4	16.2	0.00e+00	0	58	0	2005925888	46	4500
2026-01-07 23:47:59.85	196.34	13.42	-37.8	-39.4	16.1	0.00e+00	0	58	0	2017460224	46	4537
2026-01-07 23:48:03.84	196.37	13.02	-37.8	-39.4	16.1	0.00e+00	0	58	0	2030043136	46	4538
2026-01-07 23:48:07.83	196.41	12.63	-37.8	-39.5	16.0	0.00e+00	0	58	0	2042626048	46	4576
2026-01-07 23:48:11.83	196.44	12.25	-38.0	-39.7	15.8	0.00e+00	0	58	0	2055208960	46	4682
2026-01-07 23:48:15.82	196.48	11.87	-38.1	-39.9	15.6	0.00e+00	0	58	0	2067791872	46	4790
2026-01-07 23:48:19.81	196.51	11.49	-38.2	-40.0	15.5	0.00e+00	0	57	0	2080374784	46	4848
2026-01-07 23:48:23.80	196.54	11.13	-38.3	-40.2	15.2	0.00e+00	0	58	0	2092957696	47	4685
2026-01-07 23:48:27.80	196.57	10.76	-38.4	-40.3	15.1	0.00e+00	0	57	0	2105540608	47	4728
2026-01-07 23:48:31.79	196.61	10.41	-38.5	-40.4	15.0	0.00e+00	0	58	0	2118123520	47	4803
2026-01-07 23:48:35.79	196.64	10.05	-38.6	-40.6	14.8	0.00e+00	0	57	0	2130706432	47	4889
2026-01-07 23:48:39.79	196.67	9.71	-38.8	-40.9	14.5	0.00e+00	0	58	0	2143289344	48	4768
2026-01-07 23:48:43.78	196.70	9.36	-38.9	-41.0	14.4	1.50e-06	0	58	0	2154823680	48	4858
2026-01-07 23:48:47.79	196.73	9.03	-39.1	-41.3	14.0	4.50e-06	0	58	0	2167406592	48	5027
2026-01-07 23:48:51.77	196.76	8.69	-39.2	-41.5	13.8	4.50e-06	0	58	0	2179989504	49	4815
2026-01-07 23:48:55.77	196.79	8.37	-39.4	-41.7	13.5	1.22e-05	0	58	0	2192572416	49	4949
2026-01-07 23:48:59.77	196.81	8.04	-39.4	-41.8	13.3	1.60e-05	0	57	0	2205155328	49	5032
2026-01-07 23:49:03.75	196.84	7.72	-45.0	-57.4	3.8	1.49e+00	0	58	104	2208301056	60	16051
2026-01-07 23:49:07.74	196.87	7.41	-45.3	-57.7	3.8	1.49e+00	0	58	104	2208301056	61	15622
2026-01-07 23:49:11.74	196.90	7.09	-45.2	-57.7	3.8	1.49e+00	0	58	104	2208301056	61	15603
2026-01-07 23:49:15.73	196.92	6.78	-45.2	-57.7	3.8	1.49e+00	0	58	104	2208301056	61	15591
2026-01-07 23:49:19.73	196.95	6.48	-45.2	-57.6	3.8	1.49e+00	0	58	104	2208301056	61	15511
2026-01-07 23:49:23.71	196.98	6.18	-45.2	-57.6	3.8	1.49e+00	0	58	104	2208301056	61	15487
2026-01-07 23:49:27.70	197.00	5.88	-45.1	-57.6	3.8	1.49e+00	0	58	104	2208301056	61	15506
2026-01-07 23:49:31.68	197.03	5.59	-45.1	-57.6	3.8	1.49e+00	0	58	104	2208301056	61	15481
2026-01-07 23:49:35.67	197.05	5.30	-45.1	-57.6	3.8	1.49e+00	0	58	104	2208301056	61	15498
2026-01-07 23:49:39.64	197.08	5.01	-45.1	-57.6	3.8	1.49e+00	0	58	104	2208301056	61	15430
2026-01-07 23:49:43.59	197.10	4.73	-45.1	-57.6	3.8	1.49e+00	0	58	104	2208301056	61	15488
2026-01-07 23:49:47.58	197.13	4.45	-45.1	-57.6	3.8	1.49e+00	0	58	104	2208301056	61	15437
2026-01-07 23:49:51.58	197.15	4.17	-45.1	-57.6	3.8	1.49e+00	0	58	104	2208301056	61	15446
2026-01-07 23:49:55.58	197.18	3.89	-45.1	-57.6	3.8	1.49e+00	0	58	104	2208301056	61	15456
2026-01-07 23:49:59.57	197.20	3.62	-45.1	-57.6	3.8	1.49e+00	0	58	104	2208301056	61	15421
2026-01-07 23:50:03.57	197.22	3.35	-45.1	-57.6	3.8	1.49e+00	0	58	104	2208301056	61	15408
2026-01-07 23:50:07.55	197.25	3.08	-45.1	-57.6	3.8	1.49e+00	0	58	104	2208301056	61	15435
2026-01-07 23:50:11.52	197.27	2.81	-45.1	-57.6	3.8	1.49e+00	0	58	104	2208301056	61	15408
2026-01-07 23:50:15.51	197.29	2.55	-45.1	-57.5	3.8	1.49e+00	0	58	104	2208301056	61	15394
2026-01-07 23:50:19.49	197.32	2.29	-45.1	-57.5	3.8	1.49e+00	0	58	104	2208301056	61	15383
2026-01-07 23:50:23.48	197.34	2.03	-45.1	-57.5	3.8	1.49e+00	0	58	104	2208301056	61	15379

#Closed at: 2026-01-07 23:50:25
#Recorded file [2208 MB]: D:/lorett/data/31039_260108_023556.dat