passes_logs/2026/01/07/R2.0S_Moscow/R2.0S_Moscow__20260107_103551_NOAA_20_JPSS-1_rec.log

#Pass ID: 20260107_103551_NOAA 20 (JPSS-1)
#Satellite: NOAA 20 (JPSS-1)
#Configuration: NOAA 20
#almurnet v.1.7.20251203
#Start time: 2026-01-07 10:35:53

#Version: 2.2.20231116
#Station: R2.0S_Moscow
#Location: 37.707566 lon 55.798166 lat
#TLE: 1 43013U 17073A   26006.30790171  .00000126  00000+0  80695-4 0  9991
#TLE: 2 43013  98.7629 307.3394 0001808  51.8724 308.2615 14.19533762421505

#Time	Az	El	Level	Level2	SNR	BER	BlckErr	Temp	State	Recorded	gain1	gain2
2026-01-07 10:35:53.10	180.62	2.09	-43.9	-58.4	3.8	1.49e+00	0	48	0	0	59	19129
2026-01-07 10:35:57.15	180.76	2.35	-43.9	-58.5	3.8	1.49e+00	0	48	104	0	59	19174
2026-01-07 10:36:01.19	180.90	2.60	-43.9	-58.4	3.8	1.49e+00	0	48	104	0	59	19136
2026-01-07 10:36:05.23	181.04	2.86	-43.9	-58.4	3.8	1.49e+00	0	49	104	0	59	19160
2026-01-07 10:36:09.28	181.18	3.12	-43.9	-58.4	3.8	1.49e+00	0	49	104	0	59	19133
2026-01-07 10:36:13.32	181.32	3.39	-43.9	-58.4	3.8	1.49e+00	0	49	104	0	59	19084
2026-01-07 10:36:17.37	181.47	3.65	-43.9	-58.4	3.8	1.49e+00	0	50	104	0	59	19152
2026-01-07 10:36:21.41	181.62	3.92	-43.9	-58.4	3.8	1.49e+00	0	50	104	0	59	19083
2026-01-07 10:36:25.45	181.77	4.19	-43.9	-58.3	3.8	1.49e+00	0	50	104	0	59	18855
2026-01-07 10:36:29.50	181.93	4.47	-43.9	-57.7	3.8	1.49e+00	0	50	104	0	59	17578
2026-01-07 10:36:33.54	182.08	4.74	-43.9	-57.1	3.8	1.49e+00	0	50	104	0	59	16437
2026-01-07 10:36:37.59	182.24	5.02	-43.9	-57.5	3.8	1.49e+00	0	51	104	0	59	17219
2026-01-07 10:36:41.63	182.41	5.31	-43.9	-57.8	3.8	1.49e+00	0	51	104	0	59	17686
2026-01-07 10:36:45.68	182.57	5.59	-43.9	-58.1	3.8	1.49e+00	0	51	104	0	59	18508
2026-01-07 10:36:49.72	182.74	5.88	-43.9	-57.9	3.8	1.49e+00	0	51	104	0	59	17959
2026-01-07 10:36:53.77	182.92	6.17	-43.9	-57.4	3.8	1.49e+00	0	51	104	0	59	17064
2026-01-07 10:36:57.81	183.09	6.46	-43.8	-56.1	3.8	1.49e+00	0	52	104	0	59	14638
2026-01-07 10:37:01.85	183.27	6.76	-43.5	-52.7	5.1	7.33e-01	0	52	0	3145728	58	10519
2026-01-07 10:37:05.90	183.45	7.06	-42.8	-49.3	7.8	8.97e-02	0	52	0	10485760	57	7494
2026-01-07 10:37:09.93	183.64	7.36	-41.8	-46.6	10.4	6.81e-03	0	52	0	17825792	55	6185
2026-01-07 10:37:13.97	183.83	7.67	-41.2	-45.1	12.0	5.29e-04	0	52	0	26214400	54	5517
2026-01-07 10:37:18.01	184.02	7.98	-41.1	-45.0	12.0	3.11e-04	0	52	0	33554432	53	5779
2026-01-07 10:37:22.05	184.22	8.30	-42.1	-47.2	10.0	7.97e-04	0	52	0	40894464	54	7002
2026-01-07 10:37:26.09	184.42	8.61	-41.2	-45.1	12.1	3.85e-04	0	53	0	48234496	54	5491
2026-01-07 10:37:30.13	184.62	8.94	-41.0	-44.8	12.4	1.25e-04	0	53	0	55574528	53	5617
2026-01-07 10:37:34.17	184.83	9.26	-40.7	-44.2	13.0	3.96e-05	0	53	0	63963136	53	5276
2026-01-07 10:37:38.21	185.05	9.59	-40.6	-44.1	13.2	2.28e-05	0	53	0	71303168	53	5161
2026-01-07 10:37:42.25	185.27	9.92	-40.7	-44.1	13.2	1.67e-05	0	53	0	78643200	53	5168
2026-01-07 10:37:46.29	185.49	10.26	-40.6	-43.8	13.4	9.10e-06	0	53	0	85983232	52	5328
2026-01-07 10:37:50.33	185.72	10.60	-40.5	-43.8	13.5	1.29e-05	0	53	0	94371840	52	5306
2026-01-07 10:37:54.36	185.95	10.95	-40.4	-43.6	13.8	5.30e-06	0	53	0	101711872	52	5160
2026-01-07 10:37:58.40	186.19	11.30	-40.3	-43.3	14.1	5.30e-06	0	53	0	109051904	52	5002
2026-01-07 10:38:02.44	186.44	11.66	-40.3	-43.3	14.2	0.00e+00	0	54	0	116391936	52	5016
2026-01-07 10:38:06.48	186.69	12.02	-40.2	-43.1	14.4	2.20e-06	0	54	0	123731968	52	4918
2026-01-07 10:38:10.52	186.95	12.38	-40.3	-43.2	14.3	7.00e-07	0	54	0	132120576	52	4966
2026-01-07 10:38:14.56	187.21	12.75	-40.1	-43.0	14.6	0.00e+00	0	54	0	139460608	52	4842
2026-01-07 10:38:18.60	187.48	13.13	-40.1	-42.9	14.7	0.00e+00	0	54	0	146800640	52	4781
2026-01-07 10:38:22.63	187.75	13.51	-40.0	-42.7	14.9	0.00e+00	0	54	0	154140672	52	4682
2026-01-07 10:38:26.67	188.03	13.90	-40.1	-42.8	14.9	0.00e+00	0	54	0	162529280	51	5011
2026-01-07 10:38:30.71	188.32	14.29	-40.0	-42.6	15.1	0.00e+00	0	54	0	169869312	51	4922
2026-01-07 10:38:34.75	188.62	14.69	-39.8	-42.4	15.3	0.00e+00	0	54	0	177209344	51	4788
2026-01-07 10:38:38.79	188.93	15.09	-39.8	-42.4	15.4	0.00e+00	0	54	0	184549376	51	4780
2026-01-07 10:38:42.82	189.24	15.50	-39.7	-42.1	15.6	0.00e+00	0	54	0	191889408	51	4639
2026-01-07 10:38:46.86	189.56	15.91	-39.6	-42.1	15.7	0.00e+00	0	54	0	200278016	51	4599
2026-01-07 10:38:50.91	189.89	16.34	-39.6	-41.9	15.9	0.00e+00	0	54	0	207618048	50	4814
2026-01-07 10:38:54.94	190.23	16.77	-39.4	-41.7	16.1	0.00e+00	0	55	0	214958080	50	4684
2026-01-07 10:38:58.98	190.58	17.20	-39.3	-41.6	16.3	0.00e+00	0	55	0	222298112	50	4601
2026-01-07 10:39:03.02	190.94	17.65	-39.3	-41.5	16.3	0.00e+00	0	55	0	230686720	50	4585
2026-01-07 10:39:07.05	191.30	18.09	-39.2	-41.4	16.4	0.00e+00	0	55	0	238026752	50	4543
2026-01-07 10:39:11.09	191.68	18.55	-39.3	-41.5	16.4	0.00e+00	0	55	0	245366784	50	4573
2026-01-07 10:39:15.13	192.07	19.02	-39.3	-41.5	16.3	0.00e+00	0	55	0	252706816	50	4597
2026-01-07 10:39:19.17	192.48	19.49	-39.4	-41.7	16.3	0.00e+00	0	55	0	260046848	50	4658
2026-01-07 10:39:23.21	192.89	19.97	-39.4	-41.7	16.2	0.00e+00	0	55	0	268435456	50	4690
2026-01-07 10:39:27.25	193.32	20.46	-39.4	-41.7	16.3	0.00e+00	0	55	0	275775488	50	4666
2026-01-07 10:39:31.28	193.76	20.95	-39.4	-41.6	16.4	0.00e+00	0	55	0	283115520	50	4640
2026-01-07 10:39:35.32	194.21	21.45	-39.2	-41.4	16.6	0.00e+00	0	55	0	290455552	50	4542
2026-01-07 10:39:39.36	194.68	21.97	-39.1	-41.2	16.8	0.00e+00	0	55	0	298844160	50	4437
2026-01-07 10:39:43.40	195.17	22.49	-39.1	-41.3	16.7	0.00e+00	0	55	0	306184192	50	4475
2026-01-07 10:39:47.44	195.67	23.02	-39.1	-41.3	16.7	0.00e+00	0	55	0	313524224	50	4456
2026-01-07 10:39:51.48	196.19	23.56	-39.2	-41.3	16.7	0.00e+00	0	55	0	320864256	50	4487
2026-01-07 10:39:55.52	196.72	24.10	-39.4	-41.6	16.5	0.00e+00	0	55	0	328204288	50	4636
2026-01-07 10:39:59.55	197.28	24.66	-39.5	-41.8	16.3	0.00e+00	0	55	0	336592896	50	4745
2026-01-07 10:40:03.59	197.85	25.22	-39.6	-41.9	16.2	0.00e+00	0	55	0	343932928	50	4770
2026-01-07 10:40:07.64	198.45	25.80	-39.6	-42.0	16.1	0.00e+00	0	55	0	351272960	50	4824
2026-01-07 10:40:11.68	199.06	26.38	-39.8	-42.2	16.0	0.00e+00	0	55	0	358612992	50	4930
2026-01-07 10:40:15.71	199.70	26.98	-39.8	-42.1	16.0	0.00e+00	0	55	0	367001600	50	4919
2026-01-07 10:40:19.76	200.36	27.58	-40.2	-42.8	15.3	0.00e+00	0	55	0	374341632	51	5016
2026-01-07 10:40:23.80	201.05	28.19	-40.5	-43.2	14.9	0.00e+00	0	55	0	381681664	51	5279
2026-01-07 10:40:27.83	201.76	28.81	-40.7	-43.5	14.7	0.00e+00	0	55	0	389021696	51	5445
2026-01-07 10:40:31.87	202.50	29.44	-41.0	-44.0	14.0	0.00e+00	0	56	0	397410304	52	5449
2026-01-07 10:40:35.91	203.27	30.08	-41.3	-44.6	13.5	1.29e-05	0	55	0	404750336	53	5489
2026-01-07 10:40:39.95	204.07	30.73	-41.4	-44.8	13.3	1.90e-05	0	56	0	412090368	53	5629
2026-01-07 10:40:43.98	204.90	31.39	-41.4	-44.8	13.3	1.44e-05	0	56	0	419430400	53	5617
2026-01-07 10:40:48.02	205.77	32.05	-41.4	-44.8	13.3	2.89e-05	0	56	0	426770432	53	5613
2026-01-07 10:40:52.06	206.67	32.72	-41.1	-44.2	14.0	6.80e-06	0	56	0	435159040	53	5254
2026-01-07 10:40:56.10	207.61	33.40	-41.0	-44.0	14.3	0.00e+00	0	56	0	442499072	53	5111
2026-01-07 10:41:00.14	208.59	34.09	-40.6	-43.3	14.9	7.00e-07	0	56	0	449839104	53	4759
2026-01-07 10:41:04.18	209.62	34.78	-40.4	-43.1	15.2	0.00e+00	0	56	0	457179136	52	4879
2026-01-07 10:41:08.22	210.68	35.48	-40.1	-42.6	15.6	0.00e+00	0	56	0	464519168	52	4650
2026-01-07 10:41:12.25	211.79	36.18	-40.0	-42.4	16.0	0.00e+00	0	56	0	472907776	51	4773
2026-01-07 10:41:16.29	212.95	36.88	-40.1	-42.5	15.8	0.00e+00	0	56	0	480247808	51	4833
2026-01-07 10:41:20.34	214.16	37.59	-39.5	-41.6	16.7	0.00e+00	0	56	0	487587840	50	4649
2026-01-07 10:41:24.38	215.42	38.30	-39.3	-41.4	16.9	0.00e+00	0	56	0	494927872	50	4526
2026-01-07 10:41:28.41	216.73	39.00	-40.1	-42.5	15.9	0.00e+00	0	56	0	503316480	50	5134
2026-01-07 10:41:32.46	218.11	39.70	-39.7	-41.9	16.4	0.00e+00	0	56	0	510656512	50	4798
2026-01-07 10:41:36.49	219.54	40.40	-40.2	-42.7	15.6	0.00e+00	0	56	0	517996544	51	4981
2026-01-07 10:41:40.54	221.04	41.09	-40.3	-42.8	15.5	0.00e+00	0	56	0	525336576	51	5023
2026-01-07 10:41:44.58	222.60	41.77	-40.5	-43.2	15.1	0.00e+00	0	56	0	533725184	51	5248
2026-01-07 10:41:48.62	224.22	42.44	-40.6	-43.4	14.9	7.00e-07	0	56	0	541065216	52	5071
2026-01-07 10:41:52.65	225.91	43.09	-40.6	-43.3	14.9	0.00e+00	0	56	0	548405248	52	5041
2026-01-07 10:41:56.69	227.67	43.73	-40.3	-42.8	15.5	0.00e+00	0	56	0	555745280	52	4757
2026-01-07 10:42:00.73	229.50	44.35	-40.6	-43.2	15.1	0.00e+00	0	56	0	563085312	52	4977
2026-01-07 10:42:04.77	231.40	44.94	-40.1	-42.6	15.8	0.00e+00	0	56	0	571473920	52	4626
2026-01-07 10:42:08.80	233.37	45.50	-40.7	-43.5	14.8	7.00e-07	0	56	0	578813952	52	5129
2026-01-07 10:42:12.84	235.41	46.04	-40.3	-42.9	15.4	0.00e+00	0	56	0	586153984	52	4766
2026-01-07 10:42:16.88	237.51	46.54	-41.0	-44.0	14.4	1.50e-06	0	56	0	593494016	52	5410
2026-01-07 10:42:20.92	239.68	47.01	-41.5	-44.8	13.5	1.52e-05	0	56	0	601882624	53	5640
2026-01-07 10:42:24.96	241.91	47.43	-41.2	-44.3	14.0	5.30e-06	0	56	0	609222656	53	5328
2026-01-07 10:42:29.00	244.20	47.81	-41.8	-45.4	12.9	2.51e-05	0	56	0	616562688	54	5669
2026-01-07 10:42:33.03	246.54	48.14	-41.4	-44.6	13.7	6.80e-06	0	56	0	623902720	54	5201
2026-01-07 10:42:37.07	248.93	48.43	-41.8	-45.3	13.0	4.80e-05	0	56	0	631242752	54	5635
2026-01-07 10:42:41.11	251.36	48.66	-41.1	-44.2	14.1	7.00e-07	0	56	0	639631360	54	4928
2026-01-07 10:42:45.15	253.82	48.84	-41.3	-44.4	13.8	9.90e-06	0	56	0	646971392	54	5100
2026-01-07 10:42:49.19	256.31	48.96	-41.4	-44.6	13.7	6.80e-06	0	56	0	654311424	54	5177
2026-01-07 10:42:53.23	258.81	49.02	-40.7	-43.5	14.9	0.00e+00	0	56	0	661651456	53	4823
2026-01-07 10:42:57.27	261.31	49.03	-40.5	-43.1	15.2	0.00e+00	0	56	0	668991488	53	4650
2026-01-07 10:43:01.31	263.81	48.98	-40.4	-43.0	15.4	0.00e+00	0	56	0	677380096	52	4831
2026-01-07 10:43:05.35	266.30	48.88	-40.8	-43.6	14.7	0.00e+00	0	56	0	684720128	52	5200
2026-01-07 10:43:09.39	268.77	48.71	-40.6	-43.3	15.0	0.00e+00	0	56	0	692060160	52	5033
2026-01-07 10:43:13.42	271.20	48.50	-41.1	-44.1	14.2	3.00e-06	0	56	0	699400192	53	5167
2026-01-07 10:43:17.46	273.59	48.23	-41.5	-44.8	13.5	6.10e-06	0	56	0	707788800	53	5631
2026-01-07 10:43:21.50	275.95	47.91	-41.2	-44.3	14.0	1.50e-06	0	56	0	715128832	53	5320
2026-01-07 10:43:25.54	278.25	47.54	-41.7	-45.2	13.1	4.27e-05	0	56	0	722468864	54	5554
2026-01-07 10:43:29.58	280.49	47.13	-42.3	-46.5	11.7	1.07e-03	0	56	0	729808896	55	6075
2026-01-07 10:43:33.61	282.67	46.68	-43.2	-48.2	10.0	4.96e-03	0	56	0	737148928	56	7030
2026-01-07 10:43:37.65	284.79	46.19	-42.4	-46.5	11.9	2.80e-04	0	56	0	745537536	56	5759
2026-01-07 10:43:41.70	286.85	45.66	-41.6	-45.0	13.2	3.66e-05	0	56	0	752877568	55	5131
2026-01-07 10:43:45.74	288.83	45.10	-41.4	-44.6	13.7	1.44e-05	0	56	0	760217600	54	5201
2026-01-07 10:43:49.78	290.75	44.52	-41.4	-44.7	13.6	3.80e-06	0	56	0	767557632	53	5544
2026-01-07 10:43:53.81	292.59	43.91	-40.7	-43.4	14.9	7.00e-07	0	56	0	775946240	53	4798
2026-01-07 10:43:57.85	294.36	43.29	-39.9	-42.2	16.3	0.00e+00	0	56	0	783286272	51	4660
2026-01-07 10:44:01.89	296.07	42.64	-39.6	-41.8	16.7	0.00e+00	0	56	0	790626304	51	4446
2026-01-07 10:44:05.93	297.70	41.98	-40.2	-42.8	15.7	0.00e+00	0	56	0	797966336	51	4991
2026-01-07 10:44:09.97	299.28	41.30	-40.3	-42.9	15.5	0.00e+00	0	56	0	805306368	51	5053
2026-01-07 10:44:14.01	300.79	40.62	-40.1	-42.5	15.8	0.00e+00	0	56	0	813694976	52	4576
2026-01-07 10:44:18.05	302.23	39.93	-41.4	-44.7	13.5	3.00e-06	0	56	0	821035008	53	5589
2026-01-07 10:44:22.08	303.61	39.23	-40.5	-43.2	15.1	7.00e-07	0	56	0	828375040	52	4946
2026-01-07 10:44:26.12	304.94	38.53	-40.9	-43.9	14.3	1.22e-05	0	56	0	835715072	53	5084
2026-01-07 10:44:30.16	306.22	37.83	-41.4	-44.7	13.6	3.00e-06	0	56	0	844103680	53	5585
2026-01-07 10:44:34.20	307.44	37.13	-40.5	-43.3	15.0	0.00e+00	0	56	0	851443712	53	4722
2026-01-07 10:44:38.24	308.61	36.43	-42.2	-46.4	11.8	1.24e-04	0	56	0	858783744	55	6014
2026-01-07 10:44:42.28	309.73	35.73	-40.1	-42.6	15.6	0.00e+00	0	56	0	866123776	52	4631
2026-01-07 10:44:46.32	310.80	35.04	-41.9	-45.7	12.6	5.72e-05	0	56	0	873463808	54	5868
2026-01-07 10:44:50.36	311.83	34.35	-40.9	-43.8	14.4	4.50e-06	0	57	0	881852416	53	5016
2026-01-07 10:44:54.40	312.82	33.66	-42.3	-46.6	11.6	2.44e-04	0	56	0	889192448	55	6141
2026-01-07 10:44:58.44	313.77	32.99	-41.6	-45.1	13.1	1.30e-04	0	56	0	896532480	55	5185
2026-01-07 10:45:02.48	314.68	32.32	-41.7	-45.2	13.0	2.36e-05	0	57	0	903872512	54	5556
2026-01-07 10:45:06.52	315.56	31.65	-43.2	-48.6	9.5	2.44e-02	0	56	0	912261120	57	6928
2026-01-07 10:45:10.56	316.40	31.00	-40.5	-43.2	15.0	0.00e+00	0	56	0	919601152	53	4681
2026-01-07 10:45:14.60	317.21	30.35	-41.5	-44.9	13.3	1.50e-06	0	57	0	926941184	53	5663
2026-01-07 10:45:18.63	317.99	29.72	-41.8	-45.5	12.6	1.05e-04	0	56	0	934281216	54	5758
2026-01-07 10:45:22.67	318.73	29.09	-41.0	-44.1	14.0	2.20e-06	0	57	0	941621248	54	4904
2026-01-07 10:45:26.71	319.46	28.47	-41.6	-45.1	13.0	3.73e-05	0	56	0	950009856	54	5518
2026-01-07 10:45:30.75	320.15	27.85	-40.4	-43.1	15.1	0.00e+00	0	56	0	957349888	52	4871
2026-01-07 10:45:34.79	320.82	27.25	-39.7	-42.1	16.2	0.00e+00	0	56	0	964689920	51	4617
2026-01-07 10:45:38.83	321.46	26.66	-40.5	-43.3	14.9	0.00e+00	0	56	0	972029952	51	5312
2026-01-07 10:45:42.87	322.09	26.08	-40.5	-43.3	14.8	7.00e-07	0	56	0	980418560	52	5021
2026-01-07 10:45:46.90	322.68	25.51	-40.2	-42.9	15.2	0.00e+00	0	56	0	987758592	52	4760
2026-01-07 10:45:50.95	323.27	24.94	-40.1	-42.7	15.4	0.00e+00	0	56	0	995098624	51	4952
2026-01-07 10:45:54.99	323.83	24.38	-40.3	-43.1	15.0	0.00e+00	0	56	0	1002438656	51	5176
2026-01-07 10:45:59.02	324.37	23.84	-40.9	-44.2	13.8	1.50e-06	0	57	0	1009778688	52	5547
2026-01-07 10:46:03.06	324.89	23.30	-40.7	-43.8	14.2	1.50e-06	0	56	0	1018167296	52	5329
2026-01-07 10:46:07.10	325.40	22.77	-40.2	-42.9	15.1	0.00e+00	0	56	0	1025507328	52	4802
2026-01-07 10:46:11.14	325.89	22.25	-40.5	-43.4	14.6	0.00e+00	0	56	0	1032847360	52	5054
2026-01-07 10:46:15.18	326.36	21.74	-40.5	-43.5	14.5	1.50e-06	0	56	0	1040187392	52	5128
2026-01-07 10:46:19.22	326.82	21.24	-40.3	-43.0	14.9	0.00e+00	0	57	0	1048576000	52	4859
2026-01-07 10:46:23.25	327.27	20.74	-40.2	-42.9	15.0	0.00e+00	0	56	0	1055916032	52	4809
2026-01-07 10:46:27.29	327.70	20.25	-40.3	-43.2	14.8	0.00e+00	0	56	0	1063256064	52	4953
2026-01-07 10:46:31.33	328.12	19.78	-40.4	-43.3	14.6	7.00e-07	0	57	0	1070596096	52	4998
2026-01-07 10:46:35.37	328.53	19.30	-40.5	-43.4	14.5	0.00e+00	0	56	0	1077936128	52	5066
2026-01-07 10:46:39.41	328.93	18.84	-40.6	-43.7	14.2	2.20e-06	0	56	0	1086324736	52	5254
2026-01-07 10:46:43.45	329.31	18.38	-40.7	-43.9	14.0	2.20e-06	0	56	0	1093664768	52	5348
2026-01-07 10:46:47.49	329.68	17.93	-40.7	-43.8	14.0	7.00e-07	0	57	0	1101004800	52	5307
2026-01-07 10:46:51.52	330.05	17.49	-40.6	-43.8	14.1	1.50e-06	0	57	0	1108344832	52	5282
2026-01-07 10:46:55.56	330.40	17.06	-40.6	-43.7	14.1	2.20e-06	0	56	0	1116733440	52	5244
2026-01-07 10:46:59.60	330.74	16.63	-40.6	-43.7	14.0	0.00e+00	0	56	0	1124073472	52	5261
2026-01-07 10:47:03.64	331.08	16.21	-40.5	-43.5	14.2	7.00e-07	0	57	0	1131413504	52	5123
2026-01-07 10:47:07.68	331.41	15.79	-40.4	-43.3	14.4	2.20e-06	0	56	0	1138753536	52	5027
2026-01-07 10:47:11.71	331.72	15.38	-40.4	-43.4	14.2	1.50e-06	0	56	0	1146093568	52	5096
2026-01-07 10:47:15.76	332.03	14.98	-40.4	-43.4	14.2	3.00e-06	0	57	0	1154482176	52	5082
2026-01-07 10:47:19.80	332.34	14.58	-40.7	-43.9	13.7	5.30e-06	0	57	0	1161822208	52	5347
2026-01-07 10:47:23.84	332.63	14.19	-40.9	-44.4	13.2	1.83e-05	0	56	0	1169162240	52	5659
2026-01-07 10:47:27.87	332.92	13.80	-41.0	-44.7	12.8	3.73e-05	0	56	0	1176502272	52	5858
2026-01-07 10:47:31.92	333.20	13.42	-40.9	-44.4	13.1	3.66e-05	0	56	0	1184890880	52	5707
2026-01-07 10:47:35.95	333.47	13.05	-40.7	-44.2	13.3	1.60e-05	0	57	0	1192230912	52	5531
2026-01-07 10:47:39.99	333.74	12.68	-40.6	-43.8	13.6	4.50e-06	0	56	0	1199570944	52	5302
2026-01-07 10:47:44.02	334.00	12.31	-40.4	-43.5	13.9	5.30e-06	0	56	0	1206910976	52	5122
2026-01-07 10:47:48.07	334.26	11.95	-40.4	-43.6	13.8	1.50e-06	0	57	0	1214251008	52	5163
2026-01-07 10:47:52.11	334.51	11.60	-40.5	-43.7	13.6	1.06e-05	0	57	0	1222639616	52	5265
2026-01-07 10:47:56.14	334.75	11.25	-40.8	-44.3	13.0	3.89e-05	0	57	0	1229979648	52	5630
2026-01-07 10:48:00.18	334.99	10.90	-41.1	-44.9	12.3	1.45e-04	0	57	0	1237319680	52	6052
2026-01-07 10:48:04.22	335.22	10.56	-41.2	-45.3	11.8	4.60e-04	0	56	0	1244659712	53	5976
2026-01-07 10:48:08.26	335.45	10.22	-41.4	-45.7	11.4	7.57e-04	0	56	0	1253048320	53	6211
2026-01-07 10:48:12.30	335.67	9.89	-41.2	-45.3	11.7	5.18e-04	0	57	0	1260388352	53	5959
2026-01-07 10:48:16.34	335.89	9.56	-41.1	-45.1	11.9	4.99e-04	0	57	0	1267728384	53	5802
2026-01-07 10:48:20.37	336.11	9.24	-41.0	-45.1	11.9	4.00e-04	0	57	0	1275068416	53	5821
2026-01-07 10:48:24.41	336.32	8.91	-40.9	-45.0	12.0	3.08e-04	0	56	0	1282408448	53	5723
2026-01-07 10:48:28.45	336.53	8.60	-40.9	-44.8	12.1	2.91e-04	0	57	0	1290797056	53	5605
2026-01-07 10:48:32.49	336.73	8.28	-40.8	-44.7	12.1	2.46e-04	0	57	0	1298137088	53	5540
2026-01-07 10:48:36.53	336.93	7.97	-42.2	-48.4	8.8	3.17e-03	0	56	0	1305477120	54	8068
2026-01-07 10:48:40.57	337.12	7.67	-44.9	-59.6	3.8	1.49e+00	0	57	104	1305477120	60	20611
2026-01-07 10:48:44.61	337.31	7.36	-45.1	-59.9	3.8	1.49e+00	0	57	104	1305477120	60	21366
2026-01-07 10:48:48.65	337.50	7.06	-45.1	-59.9	3.8	1.49e+00	0	57	104	1305477120	60	21326
2026-01-07 10:48:52.70	337.69	6.77	-45.0	-59.8	3.8	1.49e+00	0	56	104	1305477120	60	21142
2026-01-07 10:48:56.74	337.87	6.47	-45.0	-59.8	3.8	1.49e+00	0	57	104	1305477120	60	21096
2026-01-07 10:49:00.78	338.04	6.18	-45.0	-59.8	3.8	1.49e+00	0	57	104	1305477120	60	21109
2026-01-07 10:49:04.83	338.22	5.90	-45.0	-59.8	3.8	1.49e+00	0	57	104	1305477120	60	21095
2026-01-07 10:49:08.87	338.39	5.61	-45.0	-59.8	3.8	1.49e+00	0	57	104	1305477120	60	21120
2026-01-07 10:49:12.91	338.56	5.33	-45.0	-59.8	3.8	1.49e+00	0	57	104	1305477120	60	21095
2026-01-07 10:49:16.96	338.72	5.05	-45.0	-59.8	3.8	1.49e+00	0	57	104	1305477120	60	21104
2026-01-07 10:49:21.00	338.89	4.78	-45.0	-59.8	3.8	1.49e+00	0	57	104	1305477120	60	21093
2026-01-07 10:49:25.05	339.05	4.50	-45.0	-59.8	3.8	1.49e+00	0	57	104	1305477120	60	21114
2026-01-07 10:49:29.09	339.21	4.23	-45.0	-59.8	3.8	1.49e+00	0	57	104	1305477120	60	21092
2026-01-07 10:49:33.14	339.36	3.96	-45.0	-59.8	3.8	1.49e+00	0	57	104	1305477120	60	21104
2026-01-07 10:49:37.18	339.51	3.70	-45.0	-59.7	3.8	1.49e+00	0	57	104	1305477120	60	21003
2026-01-07 10:49:41.22	339.66	3.43	-45.0	-59.7	3.8	1.49e+00	0	57	104	1305477120	60	20977
2026-01-07 10:49:45.27	339.81	3.17	-44.9	-59.8	3.8	1.49e+00	0	57	104	1305477120	60	21018
2026-01-07 10:49:49.31	339.96	2.91	-45.0	-59.7	3.8	1.49e+00	0	57	104	1305477120	60	21006
2026-01-07 10:49:53.36	340.10	2.66	-45.0	-59.8	3.8	1.49e+00	0	57	104	1305477120	60	21026
2026-01-07 10:49:57.40	340.24	2.40	-45.0	-59.7	3.8	1.49e+00	0	57	104	1305477120	60	20945
2026-01-07 10:50:01.44	340.38	2.15	-45.0	-59.8	3.8	1.49e+00	0	57	104	1305477120	60	21026

#Closed at: 2026-01-07 10:50:04
#Recorded file [1305 MB]: D:/lorett/data/31039_260107_133552.dat