passes_logs/2026/01/07/R2.0S_Moscow/R2.0S_Moscow__20260107_115731_SUOMI_NPP_rec.log

#Pass ID: 20260107_115731_SUOMI NPP
#Satellite: SUOMI NPP
#Configuration: NPP
#almurnet v.1.7.20251203
#Start time: 2026-01-07 11:57:51

#Version: 2.2.20231116
#Station: R2.0S_Moscow
#Location: 37.707566 lon 55.798166 lat
#TLE: 1 37849U 11061A   26005.94084933  .00000134  00000+0  84554-4 0  9990
#TLE: 2 37849  98.7803 308.0679 0002567  79.1029 281.0436 14.19522657735426

#Time	Az	El	Level	Level2	SNR	BER	BlckErr	Temp	State	Recorded	gain1	gain2
2026-01-07 11:57:51.16	223.66	2.99	-45.9	-64.8	3.8	7.44e-01	0	56	0	0	62	33666
2026-01-07 11:57:54.18	223.95	3.14	-45.1	-59.8	3.8	1.49e+00	0	57	104	0	62	18841
2026-01-07 11:57:57.21	224.25	3.29	-45.0	-59.7	3.8	1.49e+00	0	57	104	0	61	19768
2026-01-07 11:58:00.24	224.54	3.43	-44.8	-59.5	3.8	1.49e+00	0	57	104	0	61	19385
2026-01-07 11:58:03.28	224.84	3.59	-44.0	-58.7	3.8	1.49e+00	0	57	104	0	60	18694
2026-01-07 11:58:06.31	225.15	3.74	-44.0	-58.5	3.8	1.49e+00	0	57	104	0	59	19203
2026-01-07 11:58:09.34	225.45	3.89	-44.0	-58.5	3.8	1.49e+00	0	57	104	0	59	19190
2026-01-07 11:58:12.38	225.76	4.04	-43.9	-58.5	3.8	1.49e+00	0	57	104	0	59	19185
2026-01-07 11:58:15.41	226.08	4.19	-43.9	-58.5	3.8	1.49e+00	0	57	104	0	59	19196
2026-01-07 11:58:18.44	226.39	4.34	-44.0	-58.4	3.8	1.49e+00	0	57	104	0	59	19161
2026-01-07 11:58:21.47	226.71	4.49	-43.9	-58.4	3.8	1.49e+00	0	57	104	0	59	19131
2026-01-07 11:58:24.51	227.03	4.64	-43.9	-58.5	3.8	1.49e+00	0	57	104	0	59	19179
2026-01-07 11:58:27.54	227.36	4.79	-43.9	-58.4	3.8	1.49e+00	0	57	104	0	59	19147
2026-01-07 11:58:30.57	227.69	4.94	-43.9	-58.4	3.8	1.49e+00	0	57	104	0	59	19119
2026-01-07 11:58:33.61	228.02	5.10	-43.9	-58.4	3.8	1.49e+00	0	57	104	0	59	19077
2026-01-07 11:58:36.64	228.36	5.25	-43.9	-58.4	3.8	1.49e+00	0	57	104	0	59	19043
2026-01-07 11:58:39.67	228.69	5.40	-43.9	-58.4	3.8	1.49e+00	0	57	104	0	59	19132
2026-01-07 11:58:42.71	229.04	5.55	-43.9	-58.4	3.8	1.49e+00	0	57	104	0	59	19101
2026-01-07 11:58:45.74	229.38	5.70	-43.9	-58.3	3.8	1.49e+00	0	57	104	0	59	18844
2026-01-07 11:58:48.77	229.73	5.85	-43.9	-58.2	3.8	1.49e+00	0	57	104	0	59	18661
2026-01-07 11:58:51.80	230.08	6.01	-43.9	-58.3	3.8	1.49e+00	0	57	104	0	59	18794
2026-01-07 11:58:54.84	230.44	6.16	-43.9	-58.4	3.8	1.49e+00	0	57	104	0	59	19090
2026-01-07 11:58:57.87	230.80	6.31	-43.9	-58.4	3.8	1.49e+00	0	57	104	0	59	18984
2026-01-07 11:59:00.90	231.16	6.46	-43.9	-58.0	3.8	1.49e+00	0	57	104	0	59	18218
2026-01-07 11:59:03.94	231.53	6.61	-43.9	-57.4	3.8	1.49e+00	0	57	104	0	59	16889
2026-01-07 11:59:06.97	231.90	6.76	-43.8	-57.2	3.8	1.49e+00	0	57	104	0	59	16690
2026-01-07 11:59:10.00	232.28	6.91	-43.9	-57.8	3.8	1.49e+00	0	57	104	0	59	17688
2026-01-07 11:59:13.04	232.66	7.07	-43.9	-57.7	3.8	1.49e+00	0	57	104	0	59	17643
2026-01-07 11:59:16.07	233.04	7.22	-43.8	-57.2	3.8	1.49e+00	0	57	104	0	59	16607
2026-01-07 11:59:19.10	233.42	7.37	-43.7	-55.7	3.8	1.48e+00	0	57	104	0	59	13970
2026-01-07 11:59:22.13	233.81	7.52	-43.3	-51.9	5.6	6.43e-01	0	57	0	3145728	58	9592
2026-01-07 11:59:25.17	234.21	7.67	-42.5	-48.3	8.7	5.37e-02	0	57	0	9437184	57	6711
2026-01-07 11:59:28.20	234.60	7.82	-41.6	-46.3	10.7	3.51e-03	0	57	0	14680064	55	5926
2026-01-07 11:59:31.23	235.01	7.97	-41.1	-45.1	12.0	4.60e-04	0	57	0	20971520	54	5495
2026-01-07 11:59:34.26	235.41	8.12	-43.6	-54.7	4.0	3.96e-01	0	57	104	23068672	58	13196
2026-01-07 11:59:37.29	235.82	8.27	-42.2	-47.5	9.4	9.58e-03	0	57	0	27262976	55	6857
2026-01-07 11:59:40.32	236.23	8.41	-41.0	-44.7	12.5	1.27e-04	0	57	0	33554432	53	5560
2026-01-07 11:59:43.35	236.65	8.56	-40.8	-44.3	12.8	6.94e-05	0	57	0	38797312	53	5339
2026-01-07 11:59:46.38	237.07	8.71	-41.0	-44.7	12.5	1.14e-04	0	57	0	45088768	53	5566
2026-01-07 11:59:49.40	237.50	8.86	-40.9	-44.4	12.8	7.09e-05	0	57	0	50331648	53	5387
2026-01-07 11:59:52.43	237.93	9.00	-40.5	-43.8	13.5	9.90e-06	0	57	0	55574528	53	5008
2026-01-07 11:59:55.46	238.36	9.15	-40.4	-43.5	13.7	3.00e-06	0	57	0	61865984	52	5147
2026-01-07 11:59:58.48	238.80	9.29	-40.2	-43.3	14.0	3.00e-06	0	57	0	67108864	52	5020
2026-01-07 12:00:01.51	239.24	9.44	-40.0	-42.9	14.3	0.00e+00	0	57	0	73400320	52	4791
2026-01-07 12:00:04.54	239.69	9.58	-39.9	-42.8	14.6	7.00e-07	0	57	0	78643200	51	4995
2026-01-07 12:00:07.57	240.14	9.73	-39.8	-42.5	14.9	7.00e-07	0	57	0	84934656	51	4835
2026-01-07 12:00:10.60	240.59	9.87	-39.9	-42.7	14.7	0.00e+00	0	57	0	90177536	51	4967
2026-01-07 12:00:13.63	241.05	10.01	-40.1	-43.0	14.4	0.00e+00	0	57	0	95420416	51	5159
2026-01-07 12:00:16.65	241.52	10.15	-40.1	-43.0	14.5	0.00e+00	0	57	0	101711872	51	5119
2026-01-07 12:00:19.68	241.99	10.29	-40.0	-42.8	14.6	0.00e+00	0	57	0	106954752	51	5040
2026-01-07 12:00:22.71	242.46	10.43	-40.2	-43.1	14.4	0.00e+00	0	57	0	113246208	51	5185
2026-01-07 12:00:25.74	242.94	10.57	-40.1	-42.9	14.5	0.00e+00	0	57	0	118489088	51	5098
2026-01-07 12:00:28.77	243.42	10.71	-40.1	-42.9	14.5	0.00e+00	0	57	0	123731968	51	5083
2026-01-07 12:00:31.80	243.90	10.84	-40.2	-43.0	14.5	0.00e+00	0	57	0	130023424	51	5144
2026-01-07 12:00:34.83	244.39	10.98	-40.2	-43.1	14.4	0.00e+00	0	57	0	135266304	51	5215
2026-01-07 12:00:37.86	244.89	11.11	-40.2	-43.0	14.6	7.00e-07	0	57	0	141557760	51	5123
2026-01-07 12:00:40.89	245.39	11.25	-40.1	-42.9	14.6	0.00e+00	0	57	0	146800640	51	5072
2026-01-07 12:00:43.92	245.89	11.38	-40.1	-43.0	14.6	0.00e+00	0	57	0	153092096	51	5101
2026-01-07 12:00:46.95	246.40	11.51	-40.3	-43.3	14.2	0.00e+00	0	57	0	158334976	51	5318
2026-01-07 12:00:49.97	246.91	11.64	-40.4	-43.4	14.2	3.80e-06	0	57	0	163577856	51	5395
2026-01-07 12:00:53.00	247.42	11.77	-40.3	-43.2	14.4	0.00e+00	0	57	0	169869312	51	5247
2026-01-07 12:00:56.03	247.95	11.89	-40.4	-43.4	14.2	2.20e-06	0	57	0	175112192	51	5380
2026-01-07 12:00:59.06	248.47	12.02	-40.6	-43.7	13.9	4.50e-06	0	57	0	181403648	51	5547
2026-01-07 12:01:02.09	249.00	12.14	-40.5	-43.6	14.0	7.00e-07	0	57	0	186646528	51	5485
2026-01-07 12:01:05.11	249.53	12.26	-40.4	-43.4	14.2	7.00e-07	0	57	0	191889408	51	5358
2026-01-07 12:01:08.15	250.07	12.38	-40.5	-43.5	14.1	3.80e-06	0	57	0	198180864	51	5440
2026-01-07 12:01:11.18	250.61	12.50	-40.6	-43.6	14.0	0.00e+00	0	57	0	203423744	51	5518
2026-01-07 12:01:14.20	251.16	12.62	-40.7	-43.9	13.7	1.06e-05	0	57	0	209715200	52	5344
2026-01-07 12:01:17.23	251.71	12.73	-40.8	-44.1	13.4	1.22e-05	0	57	0	214958080	52	5510
2026-01-07 12:01:20.26	252.26	12.84	-40.8	-44.1	13.4	1.06e-05	0	57	0	221249536	52	5500
2026-01-07 12:01:23.29	252.82	12.95	-40.9	-44.3	13.2	2.67e-05	0	57	0	226492416	52	5629
2026-01-07 12:01:26.32	253.39	13.06	-41.1	-44.7	12.9	5.41e-05	0	57	0	231735296	53	5538
2026-01-07 12:01:29.35	253.95	13.17	-41.1	-44.7	12.9	6.17e-05	0	57	0	238026752	53	5556
2026-01-07 12:01:32.38	254.52	13.27	-41.3	-45.1	12.5	8.39e-05	0	57	0	243269632	53	5797
2026-01-07 12:01:35.41	255.10	13.38	-41.3	-45.0	12.5	1.08e-04	0	57	0	249561088	53	5763
2026-01-07 12:01:38.44	255.68	13.48	-41.2	-44.8	12.8	8.69e-05	0	57	0	254803968	53	5635
2026-01-07 12:01:41.46	256.26	13.57	-41.1	-44.6	12.9	4.88e-05	0	57	0	260046848	53	5515
2026-01-07 12:01:44.49	256.84	13.67	-41.3	-44.9	12.6	7.09e-05	0	57	0	266338304	53	5720
2026-01-07 12:01:47.52	257.43	13.76	-41.3	-45.0	12.5	1.27e-04	0	57	0	271581184	53	5756
2026-01-07 12:01:50.55	258.02	13.85	-41.2	-44.7	12.8	8.08e-05	0	57	0	277872640	53	5562
2026-01-07 12:01:53.58	258.62	13.94	-40.9	-44.3	13.3	2.89e-05	0	57	0	283115520	53	5306
2026-01-07 12:01:56.61	259.22	14.03	-40.4	-43.4	14.2	1.50e-06	0	57	0	289406976	52	5091
2026-01-07 12:01:59.64	259.82	14.11	-40.1	-42.9	14.8	0.00e+00	0	57	0	294649856	52	4768
2026-01-07 12:02:02.67	260.43	14.19	-40.0	-42.7	15.0	0.00e+00	0	57	0	299892736	51	4974
2026-01-07 12:02:05.70	261.04	14.27	-40.0	-42.7	15.0	7.00e-07	0	57	0	306184192	51	4945
2026-01-07 12:02:08.73	261.65	14.34	-40.4	-43.3	14.4	7.00e-07	0	57	0	311427072	51	5319
2026-01-07 12:02:11.76	262.27	14.42	-40.2	-43.0	14.7	0.00e+00	0	57	0	317718528	51	5111
2026-01-07 12:02:14.79	262.89	14.48	-39.8	-42.4	15.3	0.00e+00	0	57	0	322961408	51	4779
2026-01-07 12:02:17.82	263.51	14.55	-40.4	-43.3	14.5	7.00e-07	0	57	0	328204288	51	5288
2026-01-07 12:02:20.84	264.13	14.61	-40.3	-43.1	14.6	0.00e+00	0	57	0	334495744	51	5173
2026-01-07 12:02:23.87	264.75	14.67	-40.1	-42.9	14.8	0.00e+00	0	57	0	339738624	51	5050
2026-01-07 12:02:26.90	265.38	14.73	-40.6	-43.7	14.0	1.50e-06	0	57	0	346030080	51	5541
2026-01-07 12:02:29.93	266.01	14.79	-40.4	-43.4	14.2	3.80e-06	0	57	0	351272960	52	5062
2026-01-07 12:02:32.96	266.65	14.84	-40.5	-43.5	14.1	2.20e-06	0	57	0	356515840	52	5155
2026-01-07 12:02:35.99	267.28	14.88	-41.4	-45.2	12.5	1.17e-04	0	57	0	362807296	53	5859
2026-01-07 12:02:39.02	267.92	14.93	-40.8	-44.1	13.5	2.44e-05	0	57	0	368050176	53	5181
2026-01-07 12:02:42.05	268.56	14.97	-40.2	-43.0	14.7	0.00e+00	0	57	0	374341632	52	4831
2026-01-07 12:02:45.08	269.20	15.01	-40.7	-44.0	13.7	5.30e-06	0	57	0	379584512	52	5411
2026-01-07 12:02:48.11	269.84	15.04	-40.3	-43.3	14.3	2.20e-06	0	57	0	385875968	52	5003
2026-01-07 12:02:51.14	270.48	15.07	-40.1	-42.8	14.9	0.00e+00	0	57	0	391118848	51	5001
2026-01-07 12:02:54.17	271.12	15.10	-40.3	-43.1	14.6	2.20e-06	0	57	0	396361728	51	5177
2026-01-07 12:02:57.20	271.77	15.13	-40.0	-42.7	15.0	0.00e+00	0	57	0	402653184	51	4960
2026-01-07 12:03:00.23	272.42	15.15	-40.2	-43.0	14.6	0.00e+00	0	57	0	407896064	51	5132
2026-01-07 12:03:03.26	273.06	15.17	-40.6	-43.7	14.0	2.20e-06	0	57	0	414187520	51	5539
2026-01-07 12:03:06.28	273.71	15.18	-40.2	-43.0	14.6	1.50e-06	0	57	0	419430400	51	5147
2026-01-07 12:03:09.31	274.36	15.19	-40.5	-43.6	14.1	7.00e-07	0	57	0	425721856	51	5469
2026-01-07 12:03:12.34	275.00	15.20	-40.8	-44.0	13.5	6.10e-06	0	57	0	430964736	52	5424
2026-01-07 12:03:15.37	275.65	15.20	-40.6	-43.7	13.9	9.10e-06	0	57	0	436207616	52	5273
2026-01-07 12:03:18.39	276.30	15.21	-40.5	-43.5	14.0	5.30e-06	0	57	0	442499072	52	5158
2026-01-07 12:03:21.42	276.95	15.20	-40.3	-43.2	14.3	7.00e-07	0	57	0	447741952	52	4963
2026-01-07 12:03:24.45	277.60	15.20	-40.4	-43.4	14.1	7.00e-07	0	57	0	454033408	52	5091
2026-01-07 12:03:27.48	278.24	15.19	-40.5	-43.6	14.0	5.30e-06	0	57	0	459276288	52	5172
2026-01-07 12:03:30.51	278.89	15.17	-40.1	-42.9	14.6	0.00e+00	0	57	0	464519168	52	4789
2026-01-07 12:03:33.54	279.54	15.16	-40.1	-43.0	14.6	0.00e+00	0	57	0	470810624	52	4839
2026-01-07 12:03:36.57	280.18	15.14	-40.2	-43.1	14.4	2.20e-06	0	57	0	476053504	52	4924
2026-01-07 12:03:39.60	280.83	15.12	-40.0	-42.7	14.9	0.00e+00	0	57	0	482344960	51	4948
2026-01-07 12:03:42.63	281.47	15.09	-40.2	-43.0	14.6	0.00e+00	0	57	0	487587840	51	5158
2026-01-07 12:03:45.65	282.11	15.06	-40.2	-43.0	14.6	7.00e-07	0	57	0	492830720	51	5115
2026-01-07 12:03:48.68	282.76	15.03	-39.6	-42.1	15.5	0.00e+00	0	57	0	499122176	51	4626
2026-01-07 12:03:51.71	283.40	14.99	-39.6	-42.1	15.5	0.00e+00	0	57	0	504365056	50	4915
2026-01-07 12:03:54.74	284.03	14.95	-40.0	-42.7	15.0	7.00e-07	0	57	0	510656512	50	5248
2026-01-07 12:03:57.76	284.67	14.91	-40.0	-42.8	14.8	0.00e+00	0	57	0	515899392	50	5291
2026-01-07 12:04:00.80	285.31	14.86	-40.0	-42.8	14.8	0.00e+00	0	57	0	522190848	50	5287
2026-01-07 12:04:03.82	285.94	14.81	-40.2	-43.1	14.5	1.50e-06	0	57	0	527433728	51	5176
2026-01-07 12:04:06.85	286.57	14.76	-40.2	-43.1	14.4	0.00e+00	0	57	0	532676608	51	5207
2026-01-07 12:04:09.88	287.19	14.71	-40.4	-43.4	14.2	0.00e+00	0	57	0	538968064	51	5360
2026-01-07 12:04:12.90	287.82	14.65	-40.5	-43.5	14.0	2.20e-06	0	57	0	544210944	51	5452
2026-01-07 12:04:15.93	288.44	14.59	-40.2	-43.2	14.3	7.00e-07	0	57	0	550502400	51	5239
2026-01-07 12:04:18.97	289.06	14.52	-40.0	-42.8	14.7	0.00e+00	0	57	0	555745280	51	5008
2026-01-07 12:04:21.99	289.68	14.46	-39.8	-42.4	15.0	0.00e+00	0	57	0	560988160	51	4807
2026-01-07 12:04:25.02	290.30	14.39	-39.6	-42.2	15.2	0.00e+00	0	57	0	567279616	51	4694
2026-01-07 12:04:28.05	290.91	14.31	-39.6	-42.2	15.3	0.00e+00	0	57	0	572522496	51	4701
2026-01-07 12:04:31.07	291.51	14.24	-39.3	-41.7	15.8	0.00e+00	0	57	0	578813952	50	4672
2026-01-07 12:04:34.10	292.12	14.16	-39.7	-42.3	15.1	0.00e+00	0	57	0	584056832	50	5027
2026-01-07 12:04:37.13	292.72	14.08	-39.7	-42.4	15.1	0.00e+00	0	57	0	590348288	50	5054
2026-01-07 12:04:40.17	293.33	13.99	-39.8	-42.5	14.9	0.00e+00	0	57	0	595591168	50	5141
2026-01-07 12:04:43.20	293.92	13.91	-39.7	-42.5	14.9	7.00e-07	0	57	0	600834048	50	5108
2026-01-07 12:04:46.22	294.51	13.82	-39.4	-41.9	15.4	0.00e+00	0	57	0	607125504	50	4785
2026-01-07 12:04:49.25	295.10	13.73	-39.1	-41.6	15.8	0.00e+00	0	57	0	612368384	50	4616
2026-01-07 12:04:52.28	295.69	13.63	-39.1	-41.4	15.9	0.00e+00	0	57	0	618659840	50	4539
2026-01-07 12:04:55.31	296.27	13.54	-39.0	-41.4	15.9	0.00e+00	0	57	0	623902720	49	4792
2026-01-07 12:04:58.34	296.85	13.44	-39.2	-41.7	15.6	0.00e+00	0	56	0	629145600	49	4961
2026-01-07 12:05:01.37	297.42	13.34	-39.4	-42.0	15.4	0.00e+00	0	57	0	635437056	49	5117
2026-01-07 12:05:04.40	297.99	13.24	-39.7	-42.4	15.0	0.00e+00	0	57	0	640679936	50	5064
2026-01-07 12:05:07.43	298.56	13.13	-39.8	-42.5	15.0	0.00e+00	0	57	0	646971392	50	5124
2026-01-07 12:05:10.45	299.12	13.03	-39.4	-41.9	15.6	0.00e+00	0	57	0	652214272	50	4771
2026-01-07 12:05:13.48	299.68	12.92	-39.5	-42.0	15.5	0.00e+00	0	57	0	658505728	50	4869
2026-01-07 12:05:16.51	300.23	12.81	-39.7	-42.3	15.2	0.00e+00	0	57	0	663748608	50	5010
2026-01-07 12:05:19.54	300.78	12.69	-39.5	-41.9	15.6	0.00e+00	0	57	0	668991488	50	4810
2026-01-07 12:05:22.57	301.33	12.58	-39.7	-42.3	15.3	0.00e+00	0	57	0	675282944	50	4987
2026-01-07 12:05:25.60	301.87	12.46	-40.1	-42.9	14.6	0.00e+00	0	57	0	680525824	50	5379
2026-01-07 12:05:28.62	302.41	12.35	-40.1	-42.9	14.5	0.00e+00	0	57	0	686817280	51	5088
2026-01-07 12:05:31.66	302.94	12.23	-40.2	-43.0	14.5	7.00e-07	0	57	0	692060160	51	5146
2026-01-07 12:05:34.69	303.47	12.10	-40.1	-43.0	14.5	0.00e+00	0	57	0	697303040	51	5127
2026-01-07 12:05:37.72	304.00	11.98	-40.7	-43.9	13.6	5.30e-06	0	57	0	703594496	51	5668
2026-01-07 12:05:40.75	304.52	11.86	-41.1	-44.7	12.7	6.17e-05	0	57	0	708837376	52	5876
2026-01-07 12:05:43.78	305.04	11.73	-40.8	-44.2	13.1	2.44e-05	0	57	0	715128832	52	5586
2026-01-07 12:05:46.81	305.55	11.60	-40.9	-44.5	12.9	4.34e-05	0	57	0	720371712	52	5726
2026-01-07 12:05:49.84	306.06	11.48	-41.1	-44.8	12.6	9.61e-05	0	57	0	726663168	52	5936
2026-01-07 12:05:52.87	306.56	11.35	-40.6	-43.8	13.5	1.67e-05	0	57	0	731906048	52	5323
2026-01-07 12:05:55.90	307.06	11.21	-40.4	-43.5	13.8	6.10e-06	0	57	0	737148928	52	5135
2026-01-07 12:05:58.93	307.55	11.08	-40.7	-44.3	12.9	3.28e-05	0	57	0	743440384	52	5616
2026-01-07 12:06:01.96	308.04	10.95	-40.9	-44.7	12.5	1.80e-04	0	57	0	748683264	52	5886
2026-01-07 12:06:04.99	308.53	10.81	-41.1	-45.1	12.1	3.31e-04	0	57	0	754974720	52	6159
2026-01-07 12:06:08.02	309.01	10.68	-41.1	-45.1	12.0	4.16e-04	0	57	0	760217600	52	6198
2026-01-07 12:06:11.04	309.49	10.54	-40.8	-44.7	12.4	1.27e-04	0	57	0	765460480	52	5896
2026-01-07 12:06:14.07	309.96	10.41	-40.7	-44.4	12.8	7.55e-05	0	57	0	771751936	52	5713
2026-01-07 12:06:17.10	310.43	10.27	-40.9	-44.8	12.3	1.26e-04	0	57	0	776994816	52	5979
2026-01-07 12:06:20.13	310.89	10.13	-40.9	-44.8	12.3	2.17e-04	0	57	0	783286272	52	5961
2026-01-07 12:06:23.16	311.36	9.99	-40.5	-44.1	13.1	3.73e-05	0	57	0	788529152	52	5467
2026-01-07 12:06:26.19	311.81	9.85	-40.2	-43.5	13.6	7.60e-06	0	57	0	794820608	52	5144
2026-01-07 12:06:29.22	312.26	9.71	-40.5	-44.1	12.9	4.42e-05	0	57	0	800063488	52	5522
2026-01-07 12:06:32.24	312.71	9.56	-41.0	-45.0	12.0	2.91e-04	0	57	0	805306368	52	6125
2026-01-07 12:06:35.27	313.15	9.42	-41.2	-45.4	11.6	3.93e-04	0	57	0	811597824	52	6417
2026-01-07 12:06:38.30	313.59	9.28	-40.8	-44.7	12.4	1.89e-04	0	57	0	816840704	52	5881
2026-01-07 12:06:41.33	314.03	9.13	-40.7	-44.5	12.6	8.01e-05	0	57	0	823132160	52	5745
2026-01-07 12:06:44.36	314.46	8.99	-40.6	-44.3	12.8	8.31e-05	0	57	0	828375040	52	5605
2026-01-07 12:06:47.39	314.88	8.84	-40.3	-43.8	13.2	1.52e-05	0	57	0	833617920	52	5297
2026-01-07 12:06:50.42	315.31	8.70	-40.3	-43.8	13.2	1.67e-05	0	57	0	839909376	52	5336
2026-01-07 12:06:53.45	315.72	8.55	-40.2	-43.6	13.5	2.21e-05	0	57	0	845152256	52	5163
2026-01-07 12:06:56.48	316.14	8.41	-40.4	-43.9	13.1	2.74e-05	0	57	0	851443712	52	5374
2026-01-07 12:06:59.51	316.55	8.26	-40.3	-43.8	13.2	2.13e-05	0	57	0	856686592	52	5302
2026-01-07 12:07:02.54	316.95	8.11	-40.3	-43.7	13.4	1.14e-05	0	57	0	862978048	52	5221
2026-01-07 12:07:05.57	317.36	7.96	-44.4	-58.8	3.8	1.49e+00	0	57	104	866123776	59	19856
2026-01-07 12:07:08.59	317.75	7.82	-44.9	-59.6	3.8	1.49e+00	0	57	104	866123776	60	20612
2026-01-07 12:07:11.63	318.15	7.67	-45.1	-59.8	3.8	1.49e+00	0	57	104	866123776	60	21156
2026-01-07 12:07:14.66	318.54	7.52	-45.1	-59.8	3.8	1.49e+00	0	57	104	866123776	60	21203
2026-01-07 12:07:17.69	318.93	7.37	-45.0	-59.8	3.8	1.49e+00	0	57	104	866123776	60	21122
2026-01-07 12:07:20.72	319.31	7.22	-45.0	-59.8	3.8	1.49e+00	0	57	104	866123776	60	21081
2026-01-07 12:07:23.75	319.69	7.07	-45.0	-59.8	3.8	1.49e+00	0	57	104	866123776	60	21043
2026-01-07 12:07:26.79	320.07	6.92	-45.0	-59.8	3.8	1.49e+00	0	57	104	866123776	60	21051
2026-01-07 12:07:29.82	320.44	6.77	-45.0	-59.8	3.8	1.49e+00	0	57	104	866123776	60	21031
2026-01-07 12:07:32.85	320.81	6.62	-45.0	-59.8	3.8	1.49e+00	0	57	104	866123776	60	21056
2026-01-07 12:07:35.89	321.17	6.47	-45.0	-59.7	3.8	1.49e+00	0	57	104	866123776	60	20972
2026-01-07 12:07:38.92	321.53	6.32	-45.0	-59.7	3.8	1.49e+00	0	57	104	866123776	60	20928
2026-01-07 12:07:41.95	321.89	6.17	-45.0	-59.8	3.8	1.49e+00	0	57	104	866123776	60	21022
2026-01-07 12:07:44.99	322.25	6.02	-45.0	-59.7	3.8	1.49e+00	0	57	104	866123776	60	20983
2026-01-07 12:07:48.02	322.60	5.87	-45.0	-59.7	3.8	1.49e+00	0	57	104	866123776	60	20966
2026-01-07 12:07:51.06	322.94	5.72	-45.0	-59.7	3.8	1.49e+00	0	57	104	866123776	60	20898
2026-01-07 12:07:54.09	323.29	5.57	-44.9	-59.7	3.8	1.49e+00	0	57	104	866123776	60	20894
2026-01-07 12:07:57.12	323.63	5.42	-44.9	-59.7	3.8	1.49e+00	0	57	104	866123776	60	20968
2026-01-07 12:08:00.15	323.97	5.27	-44.9	-59.7	3.8	1.49e+00	0	57	104	866123776	60	20890
2026-01-07 12:08:03.19	324.30	5.12	-44.9	-59.7	3.8	1.49e+00	0	57	104	866123776	60	20940
2026-01-07 12:08:06.22	324.63	4.97	-45.0	-59.7	3.8	1.49e+00	0	57	104	866123776	60	20906
2026-01-07 12:08:09.26	324.96	4.82	-44.9	-59.7	3.8	1.49e+00	0	57	104	866123776	60	20905
2026-01-07 12:08:12.29	325.28	4.68	-44.9	-59.7	3.8	1.49e+00	0	57	104	866123776	60	20982
2026-01-07 12:08:15.32	325.60	4.53	-44.9	-59.7	3.8	1.49e+00	0	57	104	866123776	60	20949
2026-01-07 12:08:18.35	325.92	4.38	-44.9	-59.7	3.8	1.49e+00	0	57	104	866123776	60	20956
2026-01-07 12:08:21.39	326.24	4.23	-44.9	-59.7	3.8	1.49e+00	0	57	104	866123776	60	20916
2026-01-07 12:08:24.42	326.55	4.08	-44.9	-59.7	3.8	1.49e+00	0	57	104	866123776	60	20970
2026-01-07 12:08:27.45	326.86	3.93	-44.9	-59.7	3.8	1.49e+00	0	57	104	866123776	60	20885
2026-01-07 12:08:30.48	327.16	3.78	-44.9	-59.7	3.8	1.49e+00	0	57	104	866123776	60	20900
2026-01-07 12:08:33.52	327.47	3.63	-44.9	-59.7	3.8	1.49e+00	0	57	104	866123776	60	20892
2026-01-07 12:08:36.55	327.76	3.48	-44.9	-59.7	3.8	1.49e+00	0	57	104	866123776	60	20969
2026-01-07 12:08:39.58	328.06	3.34	-44.9	-59.7	3.8	1.49e+00	0	57	104	866123776	60	20917
2026-01-07 12:08:42.61	328.36	3.19	-44.9	-59.7	3.8	1.49e+00	0	57	104	866123776	60	20881
2026-01-07 12:08:45.65	328.65	3.04	-44.9	-59.7	3.8	1.49e+00	0	57	104	866123776	60	20884
2026-01-07 12:08:48.68	328.94	2.89	-44.9	-59.7	3.8	1.49e+00	0	57	104	866123776	60	20934
2026-01-07 12:08:51.71	329.22	2.75	-44.9	-59.7	3.8	1.49e+00	0	57	104	866123776	60	20897
2026-01-07 12:08:54.75	329.51	2.60	-44.9	-59.7	3.8	1.49e+00	0	57	104	866123776	60	20894
2026-01-07 12:08:57.78	329.79	2.45	-44.9	-59.7	3.8	1.49e+00	0	57	104	866123776	60	20894
2026-01-07 12:09:00.81	330.06	2.31	-44.9	-59.7	3.8	1.49e+00	0	57	104	866123776	60	20902
2026-01-07 12:09:03.84	330.34	2.16	-44.9	-59.7	3.8	1.49e+00	0	57	104	866123776	60	20852
2026-01-07 12:09:06.88	330.61	2.01	-44.9	-59.7	3.8	1.49e+00	0	57	104	866123776	60	20873

#Closed at: 2026-01-07 12:09:09
#Recorded file [866 MB]: D:/lorett/data/31039_260107_145750.dat