passes_logs/2026/01/07/R2.0S_Moscow/R2.0S_Moscow__20260107_101454_SUOMI_NPP_rec.log

#Pass ID: 20260107_101454_SUOMI NPP
#Satellite: SUOMI NPP
#Configuration: NPP
#almurnet v.1.7.20251203
#Start time: 2026-01-07 10:20:03

#Version: 2.2.20231116
#Station: R2.0S_Moscow
#Location: 37.707566 lon 55.798166 lat
#TLE: 1 37849U 11061A   26005.94084933  .00000134  00000+0  84554-4 0  9990
#TLE: 2 37849  98.7803 308.0679 0002567  79.1029 281.0436 14.19522657735426

#Time	Az	El	Level	Level2	SNR	BER	BlckErr	Temp	State	Recorded	gain1	gain2
2026-01-07 10:20:03.88	180.44	39.08	-45.9	-64.8	3.8	7.43e-01	0	56	0	0	62	33576
2026-01-07 10:20:06.90	180.83	39.84	-45.2	-59.9	3.8	1.49e+00	0	56	104	0	62	19105
2026-01-07 10:20:09.93	181.24	40.61	-45.1	-59.9	3.8	1.49e+00	0	56	104	0	62	18973
2026-01-07 10:20:12.97	181.67	41.40	-45.1	-59.9	3.8	1.49e+00	0	56	104	0	62	18956
2026-01-07 10:20:16.00	182.13	42.20	-45.1	-59.8	3.8	1.49e+00	0	56	104	0	62	18903
2026-01-07 10:20:19.03	182.60	43.02	-45.1	-59.8	3.8	1.49e+00	0	56	104	0	62	18883
2026-01-07 10:20:22.06	183.10	43.85	-45.1	-59.8	3.8	1.49e+00	0	56	104	0	62	18881
2026-01-07 10:20:25.10	183.63	44.70	-45.1	-59.8	3.8	1.49e+00	0	56	104	0	62	18861
2026-01-07 10:20:28.13	184.18	45.57	-45.1	-59.9	3.8	1.49e+00	0	56	104	0	62	18955
2026-01-07 10:20:31.16	184.77	46.45	-45.1	-59.8	3.8	1.49e+00	0	56	104	0	62	18893
2026-01-07 10:20:34.19	185.38	47.34	-45.1	-59.9	3.8	1.49e+00	0	56	104	0	62	18949
2026-01-07 10:20:37.23	186.04	48.26	-45.1	-59.8	3.8	1.49e+00	0	56	104	0	62	18889
2026-01-07 10:20:40.26	186.74	49.19	-45.1	-59.8	3.8	1.49e+00	0	56	104	0	62	18832
2026-01-07 10:20:43.29	187.47	50.13	-45.1	-59.7	3.8	1.49e+00	0	56	104	0	62	18642
2026-01-07 10:20:46.33	188.26	51.09	-45.1	-59.8	3.8	1.49e+00	0	57	104	0	62	18818
2026-01-07 10:20:49.36	189.09	52.06	-45.0	-59.2	3.8	1.49e+00	0	56	104	0	62	17547
2026-01-07 10:20:52.40	189.99	53.05	-45.0	-58.0	3.9	1.49e+00	0	56	104	0	62	15269
2026-01-07 10:20:55.43	190.94	54.05	-43.2	-48.0	10.4	1.07e-01	0	56	0	2097152	58	6063
2026-01-07 10:20:58.46	191.96	55.05	-38.8	-40.6	17.8	0.00e+00	0	56	0	8388608	48	4642
2026-01-07 10:21:01.49	193.06	56.07	-40.3	-42.8	15.7	0.00e+00	0	56	0	13631488	51	5005
2026-01-07 10:21:04.52	194.24	57.10	-39.8	-42.1	16.3	3.80e-06	0	56	0	18874368	51	4635
2026-01-07 10:21:07.55	195.51	58.13	-39.4	-41.6	16.8	0.00e+00	0	56	0	25165824	50	4629
2026-01-07 10:21:10.58	196.88	59.17	-38.4	-40.3	18.1	0.00e+00	0	56	0	30408704	48	4452
2026-01-07 10:21:13.61	198.36	60.21	-37.4	-39.0	19.2	0.00e+00	0	56	0	36700160	46	4298
2026-01-07 10:21:16.64	199.97	61.24	-37.9	-39.7	18.5	0.00e+00	0	56	0	41943040	46	4662
2026-01-07 10:21:19.67	201.71	62.27	-38.8	-40.7	17.5	0.00e+00	0	56	0	48234496	48	4699
2026-01-07 10:21:22.70	203.61	63.30	-38.6	-40.5	17.9	0.00e+00	0	57	0	53477376	48	4589
2026-01-07 10:21:25.73	205.67	64.31	-40.0	-42.5	15.9	0.00e+00	0	56	0	58720256	50	5113
2026-01-07 10:21:28.76	207.93	65.30	-39.1	-41.1	17.2	0.00e+00	0	57	0	65011712	50	4390
2026-01-07 10:21:31.79	210.39	66.27	-40.2	-42.7	15.6	0.00e+00	0	56	0	70254592	51	4978
2026-01-07 10:21:34.81	213.06	67.20	-40.4	-43.2	15.0	0.00e+00	0	56	0	76546048	51	5256
2026-01-07 10:21:37.84	215.99	68.09	-40.6	-43.5	14.7	0.00e+00	0	56	0	81788928	52	5147
2026-01-07 10:21:40.87	219.18	68.94	-40.3	-43.0	15.2	0.00e+00	0	57	0	87031808	52	4829
2026-01-07 10:21:43.90	222.65	69.73	-40.5	-43.3	14.9	7.00e-07	0	56	0	93323264	52	5019
2026-01-07 10:21:46.93	226.41	70.45	-41.8	-45.8	12.4	1.04e-04	0	56	0	98566144	54	5982
2026-01-07 10:21:49.95	230.43	71.08	-42.0	-46.4	11.9	9.76e-05	0	56	0	104857600	54	6351
2026-01-07 10:21:52.98	234.75	71.63	-40.7	-43.8	14.3	7.00e-07	0	56	0	110100480	53	5007
2026-01-07 10:21:56.01	239.33	72.08	-40.3	-43.0	15.2	0.00e+00	0	56	0	116391936	52	4849
2026-01-07 10:21:59.04	244.12	72.42	-40.7	-43.8	14.4	1.50e-06	0	56	0	121634816	52	5316
2026-01-07 10:22:02.07	249.07	72.63	-40.2	-42.9	15.3	0.00e+00	0	56	0	126877696	51	5079
2026-01-07 10:22:05.09	254.09	72.72	-39.6	-42.0	16.3	0.00e+00	0	56	0	133169152	50	4860
2026-01-07 10:22:08.12	259.15	72.69	-38.7	-40.7	17.5	0.00e+00	0	56	0	138412032	48	4655
2026-01-07 10:22:11.15	264.15	72.53	-39.1	-41.3	17.0	5.30e-06	0	56	0	144703488	48	4994
2026-01-07 10:22:14.18	269.02	72.24	-42.2	-46.6	11.7	5.30e-06	0	56	0	149946368	54	6517
2026-01-07 10:22:17.21	273.69	71.84	-41.6	-45.2	13.1	7.62e-05	0	56	0	155189248	54	5533
2026-01-07 10:22:20.23	278.11	71.34	-42.2	-46.5	11.6	7.57e-04	0	56	0	161480704	55	6068
2026-01-07 10:22:23.26	282.27	70.74	-43.7	-50.5	7.7	1.93e-01	0	56	0	166723584	58	8160
2026-01-07 10:22:26.29	286.15	70.05	-43.7	-50.6	7.6	1.87e-01	0	56	0	173015040	58	8189
2026-01-07 10:22:29.32	289.74	69.30	-41.2	-44.5	13.7	2.51e-05	0	56	0	178257920	54	5126
2026-01-07 10:22:32.35	293.05	68.48	-41.2	-44.6	13.6	1.14e-05	0	56	0	184549376	53	5471
2026-01-07 10:22:35.38	296.09	67.60	-40.1	-42.8	15.5	0.00e+00	0	56	0	189792256	51	4996
2026-01-07 10:22:38.41	298.88	66.69	-40.7	-43.8	14.3	1.50e-06	0	56	0	195035136	53	5030
2026-01-07 10:22:41.44	301.43	65.74	-38.7	-40.8	17.3	0.00e+00	0	56	0	201326592	49	4479
2026-01-07 10:22:44.46	303.76	64.76	-38.5	-40.7	17.4	0.00e+00	0	57	0	206569472	48	4665
2026-01-07 10:22:47.49	305.90	63.76	-38.2	-40.3	17.7	0.00e+00	0	57	0	212860928	48	4457
2026-01-07 10:22:50.52	307.87	62.75	-37.8	-39.9	18.0	0.00e+00	0	56	0	218103808	47	4514
2026-01-07 10:22:53.55	309.68	61.72	-36.4	-38.0	19.8	0.00e+00	0	56	0	223346688	44	4323
2026-01-07 10:22:56.58	311.34	60.69	-38.3	-40.6	17.5	0.00e+00	0	57	0	229638144	47	4873
2026-01-07 10:22:59.62	312.88	59.65	-37.4	-39.3	18.6	0.00e+00	0	57	0	234881024	45	4753
2026-01-07 10:23:02.64	314.30	58.62	-38.2	-40.3	17.7	0.00e+00	0	56	0	241172480	47	4746
2026-01-07 10:23:05.67	315.61	57.59	-38.1	-40.1	17.9	0.00e+00	0	57	0	246415360	48	4385
2026-01-07 10:23:08.70	316.83	56.56	-39.2	-41.7	16.3	0.00e+00	0	56	0	252706816	50	4689
2026-01-07 10:23:11.73	317.96	55.55	-37.8	-39.8	18.1	0.00e+00	0	56	0	257949696	46	4740
2026-01-07 10:23:14.76	319.01	54.54	-38.2	-40.4	17.6	0.00e+00	0	56	0	263192576	48	4521
2026-01-07 10:23:17.79	319.99	53.54	-38.1	-40.3	17.5	0.00e+00	0	57	0	269484032	47	4736
2026-01-07 10:23:20.81	320.91	52.56	-39.0	-41.5	16.6	0.00e+00	0	56	0	274726912	48	5150
2026-01-07 10:23:23.84	321.77	51.58	-37.5	-39.4	18.5	0.00e+00	0	56	0	281018368	46	4528
2026-01-07 10:23:26.87	322.57	50.62	-39.8	-42.7	15.6	0.00e+00	0	57	0	286261248	50	5219
2026-01-07 10:23:29.90	323.33	49.68	-39.5	-42.1	16.0	0.00e+00	0	56	0	291504128	50	4911
2026-01-07 10:23:32.93	324.04	48.74	-39.8	-42.7	15.5	0.00e+00	0	56	0	297795584	50	5250
2026-01-07 10:23:35.96	324.72	47.83	-41.7	-46.6	11.5	2.12e-04	0	57	0	303038464	53	6894
2026-01-07 10:23:38.98	325.35	46.93	-41.4	-45.7	12.4	3.39e-04	0	57	0	309329920	54	5902
2026-01-07 10:23:42.01	325.95	46.05	-39.9	-42.7	15.4	0.00e+00	0	57	0	314572800	51	4929
2026-01-07 10:23:45.04	326.52	45.18	-41.3	-45.2	13.0	6.10e-06	0	57	0	320864256	53	5866
2026-01-07 10:23:48.07	327.06	44.32	-41.2	-45.0	13.0	6.17e-04	0	57	0	326107136	54	5437
2026-01-07 10:23:51.09	327.57	43.49	-39.3	-41.7	16.4	0.00e+00	0	57	0	331350016	50	4657
2026-01-07 10:23:54.12	328.05	42.67	-40.4	-43.5	14.7	7.00e-07	0	57	0	337641472	51	5453
2026-01-07 10:23:57.15	328.52	41.86	-40.2	-43.1	15.0	0.00e+00	0	57	0	342884352	52	4898
2026-01-07 10:24:00.18	328.96	41.07	-37.8	-39.8	18.2	0.00e+00	0	57	0	349175808	47	4456
2026-01-07 10:24:03.21	329.38	40.30	-38.7	-41.0	17.0	0.00e+00	0	57	0	354418688	47	5141
2026-01-07 10:24:06.24	329.78	39.54	-40.6	-43.8	14.3	0.00e+00	0	57	0	359661568	51	5650
2026-01-07 10:24:09.27	330.16	38.79	-40.3	-43.4	14.6	0.00e+00	0	57	0	365953024	52	5044
2026-01-07 10:24:12.29	330.53	38.06	-39.9	-42.6	15.5	0.00e+00	0	57	0	371195904	51	4916
2026-01-07 10:24:15.33	330.89	37.35	-38.5	-40.6	17.4	0.00e+00	0	56	0	377487360	48	4641
2026-01-07 10:24:18.36	331.22	36.64	-39.1	-41.5	16.6	0.00e+00	0	56	0	382730240	48	5134
2026-01-07 10:24:21.38	331.55	35.96	-40.3	-43.3	14.7	0.00e+00	0	57	0	389021696	51	5321
2026-01-07 10:24:24.41	331.86	35.28	-40.3	-43.2	14.7	0.00e+00	0	57	0	394264576	51	5270
2026-01-07 10:24:27.44	332.16	34.62	-40.3	-43.2	14.9	0.00e+00	0	57	0	399507456	51	5279
2026-01-07 10:24:30.47	332.45	33.98	-40.6	-43.6	14.5	0.00e+00	0	57	0	405798912	52	5196
2026-01-07 10:24:33.50	332.72	33.34	-41.1	-44.6	13.5	7.60e-06	0	57	0	411041792	52	5837
2026-01-07 10:24:36.53	332.99	32.72	-41.1	-44.6	13.4	9.90e-06	0	57	0	417333248	53	5468
2026-01-07 10:24:39.56	333.25	32.11	-40.6	-43.6	14.4	1.50e-06	0	57	0	422576128	53	4926
2026-01-07 10:24:42.59	333.50	31.51	-40.2	-43.0	15.1	0.00e+00	0	56	0	427819008	52	4867
2026-01-07 10:24:45.61	333.74	30.92	-40.2	-43.0	15.0	0.00e+00	0	57	0	434110464	52	4850
2026-01-07 10:24:48.64	333.97	30.35	-40.3	-43.2	14.9	0.00e+00	0	57	0	439353344	52	4958
2026-01-07 10:24:51.67	334.19	29.78	-40.5	-43.5	14.6	7.00e-07	0	57	0	445644800	52	5116
2026-01-07 10:24:54.70	334.41	29.23	-41.0	-44.3	13.9	3.00e-06	0	57	0	450887680	52	5616
2026-01-07 10:24:57.72	334.62	28.68	-41.8	-46.0	12.0	2.38e-04	0	57	0	456130560	54	6095
2026-01-07 10:25:00.76	334.83	28.15	-41.7	-45.7	12.2	1.62e-04	0	57	0	462422016	54	5874
2026-01-07 10:25:03.78	335.02	27.62	-40.4	-43.4	14.6	0.00e+00	0	57	0	467664896	52	5065
2026-01-07 10:25:06.81	335.22	27.11	-39.2	-41.5	16.5	0.00e+00	0	57	0	473956352	50	4563
2026-01-07 10:25:09.84	335.40	26.60	-38.1	-40.0	17.9	0.00e+00	0	57	0	479199232	48	4318
2026-01-07 10:25:12.87	335.58	26.11	-38.2	-40.1	17.8	0.00e+00	0	57	0	485490688	48	4375
2026-01-07 10:25:15.90	335.76	25.62	-39.0	-41.2	16.8	0.00e+00	0	56	0	490733568	48	4981
2026-01-07 10:25:18.93	335.93	25.14	-39.8	-42.4	15.6	0.00e+00	0	57	0	495976448	50	5094
2026-01-07 10:25:21.96	336.10	24.67	-39.7	-42.4	15.6	0.00e+00	0	56	0	502267904	50	5046
2026-01-07 10:25:24.99	336.26	24.21	-39.5	-41.9	16.0	0.00e+00	0	57	0	507510784	50	4805
2026-01-07 10:25:28.01	336.41	23.75	-39.2	-41.6	16.4	0.00e+00	0	57	0	513802240	50	4615
2026-01-07 10:25:31.04	336.57	23.31	-39.1	-41.4	16.5	0.00e+00	0	56	0	519045120	50	4527
2026-01-07 10:25:34.07	336.72	22.87	-38.9	-41.2	16.7	0.00e+00	0	56	0	524288000	49	4662
2026-01-07 10:25:37.10	336.86	22.44	-38.8	-41.0	16.8	0.00e+00	0	56	0	530579456	49	4563
2026-01-07 10:25:40.13	337.00	22.01	-38.6	-40.7	17.0	0.00e+00	0	56	0	535822336	49	4428
2026-01-07 10:25:43.16	337.14	21.59	-38.9	-41.2	16.4	0.00e+00	0	57	0	542113792	49	4702
2026-01-07 10:25:46.19	337.28	21.18	-39.3	-41.8	15.6	0.00e+00	0	57	0	547356672	49	5021
2026-01-07 10:25:49.22	337.41	20.77	-39.6	-42.4	15.1	0.00e+00	0	57	0	553648128	49	5379
2026-01-07 10:25:52.25	337.54	20.38	-39.3	-42.0	15.3	0.00e+00	0	57	0	558891008	49	5154
2026-01-07 10:25:55.28	337.66	19.98	-38.9	-41.5	15.7	0.00e+00	0	57	0	564133888	49	4840
2026-01-07 10:25:58.31	337.79	19.60	-38.4	-40.9	16.2	0.00e+00	0	56	0	570425344	48	4765
2026-01-07 10:26:01.33	337.91	19.22	-38.2	-40.5	16.4	0.00e+00	0	57	0	575668224	48	4573
2026-01-07 10:26:04.36	338.02	18.84	-38.1	-40.4	16.5	0.00e+00	0	57	0	581959680	48	4512
2026-01-07 10:26:07.39	338.14	18.47	-38.2	-40.6	16.1	0.00e+00	0	57	0	587202560	48	4647
2026-01-07 10:26:10.41	338.25	18.11	-38.4	-40.9	15.8	0.00e+00	0	57	0	592445440	48	4782
2026-01-07 10:26:13.45	338.36	17.75	-38.4	-41.0	15.6	0.00e+00	0	57	0	598736896	48	4853
2026-01-07 10:26:16.48	338.47	17.40	-38.6	-41.4	15.1	0.00e+00	0	56	0	603979776	48	5054
2026-01-07 10:26:19.51	338.58	17.05	-38.5	-41.3	15.1	0.00e+00	0	56	0	610271232	48	4988
2026-01-07 10:26:22.54	338.68	16.70	-38.7	-41.6	14.6	7.00e-07	0	57	0	615514112	48	5216
2026-01-07 10:26:25.57	338.78	16.36	-39.0	-42.1	14.0	1.50e-06	0	56	0	621805568	48	5523
2026-01-07 10:26:28.60	338.88	16.03	-39.4	-43.1	12.8	4.11e-05	0	57	0	627048448	49	5794
2026-01-07 10:26:31.63	338.98	15.70	-39.9	-44.1	11.7	4.29e-04	0	57	0	632291328	50	6175
2026-01-07 10:26:34.65	339.07	15.37	-40.2	-45.2	10.5	2.98e-03	0	56	0	638582784	50	6964
2026-01-07 10:26:37.68	339.17	15.05	-40.5	-46.2	9.1	1.89e-02	0	57	0	643825664	51	7447
2026-01-07 10:26:40.71	339.26	14.73	-40.6	-47.1	7.9	5.75e-02	0	56	0	650117120	51	8244
2026-01-07 10:26:43.74	339.35	14.42	-40.6	-48.3	6.6	1.84e-01	0	57	0	655360000	52	8867
2026-01-07 10:26:46.77	339.44	14.11	-40.8	-49.3	5.8	3.62e-01	0	56	0	660602880	52	9972
2026-01-07 10:26:49.80	339.53	13.81	-40.9	-50.6	4.9	6.80e-01	0	56	0	666894336	52	11626
2026-01-07 10:26:52.82	339.61	13.51	-40.9	-51.6	4.4	1.10e+00	0	57	0	672137216	52	13014
2026-01-07 10:26:55.86	339.70	13.21	-40.8	-52.3	4.1	1.41e+00	0	57	0	673185792	52	14129
2026-01-07 10:26:58.88	339.78	12.91	-40.8	-53.1	3.8	1.48e+00	0	57	104	673185792	52	15430
2026-01-07 10:27:01.91	339.86	12.62	-40.8	-53.3	3.9	1.49e+00	0	57	104	673185792	52	15780
2026-01-07 10:27:04.94	339.94	12.33	-41.5	-54.2	3.8	1.49e+00	0	56	104	673185792	53	16509
2026-01-07 10:27:07.97	340.02	12.05	-41.1	-54.3	3.8	1.49e+00	0	57	104	673185792	52	17835
2026-01-07 10:27:11.00	340.10	11.77	-40.9	-54.0	3.8	1.49e+00	0	57	104	673185792	52	17199
2026-01-07 10:27:14.03	340.18	11.49	-40.7	-54.1	3.8	1.49e+00	0	57	104	673185792	52	17396
2026-01-07 10:27:17.06	340.25	11.22	-40.5	-54.2	3.8	1.49e+00	0	57	104	673185792	52	17584
2026-01-07 10:27:20.09	340.33	10.95	-40.4	-54.4	3.8	1.49e+00	0	57	104	673185792	52	17906
2026-01-07 10:27:23.12	340.40	10.68	-40.0	-54.7	3.8	1.49e+00	0	57	104	673185792	52	18626
2026-01-07 10:27:26.15	340.47	10.41	-40.1	-54.6	3.8	1.49e+00	0	57	104	673185792	52	18464
2026-01-07 10:27:29.18	340.54	10.15	-40.0	-54.6	3.8	1.49e+00	0	57	104	673185792	52	18385
2026-01-07 10:27:32.21	340.61	9.89	-40.2	-54.7	3.8	1.49e+00	0	57	104	673185792	52	18604
2026-01-07 10:27:35.24	340.68	9.63	-40.2	-54.7	3.8	1.49e+00	0	57	104	673185792	52	18528
2026-01-07 10:27:38.28	340.75	9.37	-40.2	-54.6	3.8	1.49e+00	0	57	104	673185792	52	18509
2026-01-07 10:27:41.31	340.82	9.12	-40.1	-54.6	3.8	1.49e+00	0	57	104	673185792	52	18417
2026-01-07 10:27:44.34	340.89	8.87	-40.3	-54.8	3.8	1.49e+00	0	57	104	673185792	52	18807
2026-01-07 10:27:47.37	340.95	8.62	-40.2	-54.6	3.8	1.49e+00	0	57	104	673185792	52	18508
2026-01-07 10:27:50.40	341.01	8.38	-40.3	-54.8	3.8	1.49e+00	0	57	104	673185792	52	18790
2026-01-07 10:27:53.43	341.08	8.14	-40.3	-54.4	3.8	1.49e+00	0	57	104	673185792	52	17987
2026-01-07 10:27:56.46	341.14	7.90	-43.2	-57.5	3.8	1.49e+00	0	57	104	673185792	56	20329
2026-01-07 10:27:59.50	341.20	7.66	-44.8	-59.5	3.8	1.49e+00	0	57	104	673185792	60	20536
2026-01-07 10:28:02.53	341.26	7.42	-45.0	-59.8	3.8	1.49e+00	0	57	104	673185792	60	21255
2026-01-07 10:28:05.56	341.32	7.19	-45.2	-60.0	3.8	1.49e+00	0	57	104	673185792	60	21524
2026-01-07 10:28:08.59	341.38	6.96	-45.1	-59.9	3.8	1.49e+00	0	57	104	673185792	60	21391
2026-01-07 10:28:11.63	341.44	6.73	-45.1	-59.9	3.8	1.49e+00	0	57	104	673185792	60	21269
2026-01-07 10:28:14.66	341.50	6.50	-45.1	-59.9	3.8	1.49e+00	0	57	104	673185792	60	21313
2026-01-07 10:28:17.70	341.56	6.27	-45.1	-59.9	3.8	1.49e+00	0	57	104	673185792	60	21261
2026-01-07 10:28:20.73	341.62	6.05	-45.0	-59.9	3.8	1.49e+00	0	57	104	673185792	60	21261
2026-01-07 10:28:23.76	341.67	5.83	-45.0	-59.8	3.8	1.49e+00	0	57	104	673185792	60	21159
2026-01-07 10:28:26.79	341.73	5.61	-45.0	-59.8	3.8	1.49e+00	0	57	104	673185792	60	21248
2026-01-07 10:28:29.83	341.78	5.39	-45.0	-59.8	3.8	1.49e+00	0	57	104	673185792	60	21194
2026-01-07 10:28:32.86	341.84	5.17	-45.0	-59.8	3.8	1.49e+00	0	57	104	673185792	60	21148
2026-01-07 10:28:35.89	341.89	4.96	-45.0	-59.8	3.8	1.49e+00	0	57	104	673185792	60	21135
2026-01-07 10:28:38.93	341.94	4.74	-45.0	-59.8	3.8	1.49e+00	0	57	104	673185792	60	21130
2026-01-07 10:28:41.96	342.00	4.53	-45.0	-59.8	3.8	1.49e+00	0	57	104	673185792	60	21223
2026-01-07 10:28:44.99	342.05	4.32	-45.0	-59.8	3.8	1.49e+00	0	57	104	673185792	60	21159
2026-01-07 10:28:48.03	342.10	4.11	-45.0	-59.8	3.8	1.49e+00	0	57	104	673185792	60	21094
2026-01-07 10:28:51.06	342.15	3.91	-45.0	-59.8	3.8	1.49e+00	0	57	104	673185792	60	21110
2026-01-07 10:28:54.09	342.20	3.70	-45.0	-59.8	3.8	1.49e+00	0	57	104	673185792	60	21048
2026-01-07 10:28:57.12	342.25	3.50	-45.0	-59.8	3.8	1.49e+00	0	57	104	673185792	60	21119
2026-01-07 10:29:00.16	342.30	3.30	-45.0	-59.8	3.8	1.49e+00	0	57	104	673185792	60	21090
2026-01-07 10:29:03.19	342.35	3.10	-45.0	-59.8	3.8	1.49e+00	0	57	104	673185792	60	21080
2026-01-07 10:29:06.22	342.40	2.90	-45.0	-59.8	3.8	1.49e+00	0	57	104	673185792	60	21190
2026-01-07 10:29:09.25	342.45	2.70	-45.0	-59.8	3.8	1.49e+00	0	57	104	673185792	60	21103
2026-01-07 10:29:12.29	342.49	2.50	-45.0	-59.8	3.8	1.49e+00	0	57	104	673185792	60	21090
2026-01-07 10:29:15.32	342.54	2.31	-45.0	-59.8	3.8	1.49e+00	0	57	104	673185792	60	21078
2026-01-07 10:29:18.36	342.59	2.12	-45.0	-59.8	3.8	1.49e+00	0	57	104	673185792	60	21126

#Closed at: 2026-01-07 10:29:21
#Recorded file [673 MB]: D:/lorett/data/31039_260107_132003.dat