passes_logs/2026/01/07/R2.0S_Moscow/R2.0S_Moscow__20260107_111536_FENGYUN_3D_rec.log

#Pass ID: 20260107_111536_FENGYUN 3D
#Satellite: FENGYUN 3D
#Configuration: FENGYUN 3D
#almurnet v.1.7.20251203
#Start time: 2026-01-07 11:15:37

#Version: 2.2.20231116
#Station: R2.0S_Moscow
#Location: 37.707566 lon 55.798166 lat
#TLE: 1 43010U 17072A   26006.26440730  .00000376  00000+0  19957-3 0  9994
#TLE: 2 43010  98.9925 337.9455 0002045 123.9195 236.2175 14.19693586422016

#Time	Az	El	Level	Level2	SNR	BER	BlckErr	Temp	State	Recorded	gain1	gain2
2026-01-07 11:15:37.21	140.40	2.02	-41.2	-53.2	3.8	8.45e-01	0	47	0	0	53	14733
2026-01-07 11:15:41.25	140.29	2.28	-41.5	-53.4	3.7	8.48e-01	0	47	104	0	53	15144
2026-01-07 11:15:45.29	140.17	2.54	-42.0	-53.5	3.8	8.44e-01	0	48	104	0	54	14467
2026-01-07 11:15:49.34	140.06	2.80	-41.9	-53.4	3.8	8.45e-01	0	48	104	0	54	14350
2026-01-07 11:15:53.38	139.94	3.06	-41.9	-53.8	3.8	8.48e-01	0	48	104	0	50	18759
2026-01-07 11:15:57.43	139.82	3.33	-42.0	-53.5	3.7	8.47e-01	0	49	104	0	51	17261
2026-01-07 11:16:01.47	139.70	3.60	-40.2	-53.5	3.9	8.48e-01	0	49	104	0	54	14472
2026-01-07 11:16:05.51	139.57	3.87	-41.9	-53.5	3.8	8.46e-01	0	49	104	0	54	14457
2026-01-07 11:16:09.56	139.44	4.14	-42.0	-53.4	3.8	8.46e-01	0	49	104	0	54	14249
2026-01-07 11:16:13.60	139.31	4.42	-41.8	-53.4	3.8	8.46e-01	0	50	104	0	54	14319
2026-01-07 11:16:17.65	139.18	4.69	-40.9	-53.4	3.8	8.46e-01	0	50	104	0	54	14337
2026-01-07 11:16:21.69	139.04	4.98	-42.0	-53.4	3.8	8.46e-01	0	50	104	0	54	14297
2026-01-07 11:16:25.73	138.91	5.26	-42.0	-53.5	3.8	8.46e-01	0	50	104	0	54	14404
2026-01-07 11:16:29.78	138.76	5.55	-41.9	-53.5	3.8	8.46e-01	0	50	104	0	54	14420
2026-01-07 11:16:33.82	138.62	5.84	-42.1	-53.7	3.8	8.45e-01	0	51	104	0	50	18690
2026-01-07 11:16:37.87	138.47	6.13	-40.2	-52.6	3.8	8.45e-01	0	51	104	0	49	17432
2026-01-07 11:16:41.91	138.32	6.43	-41.6	-53.4	3.8	8.46e-01	0	51	104	0	54	14360
2026-01-07 11:16:45.96	138.17	6.73	-41.3	-53.3	3.8	8.46e-01	0	51	104	0	54	14146
2026-01-07 11:16:50.00	138.01	7.03	-42.0	-53.4	3.8	8.45e-01	0	51	104	0	54	14343
2026-01-07 11:16:54.04	137.85	7.33	-41.7	-54.0	3.3	8.46e-01	0	52	104	0	50	19383
2026-01-07 11:16:58.09	137.68	7.64	-41.9	-53.4	3.8	8.47e-01	0	52	104	0	53	15093
2026-01-07 11:17:02.13	137.51	7.96	-41.9	-53.5	3.9	8.46e-01	0	52	104	0	54	14410
2026-01-07 11:17:06.18	137.34	8.27	-41.7	-53.3	3.8	8.46e-01	0	52	104	0	54	14162
2026-01-07 11:17:10.22	137.16	8.60	-42.3	-53.7	3.8	8.46e-01	0	52	104	0	54	14786
2026-01-07 11:17:14.25	136.98	8.92	-32.9	-46.7	3.4	8.45e-01	0	52	104	0	42	13243
2026-01-07 11:17:18.29	136.80	9.25	-41.8	-53.1	3.8	8.47e-01	0	53	104	0	54	13802
2026-01-07 11:17:22.34	136.61	9.58	-41.8	-53.1	3.8	8.46e-01	0	53	104	0	54	13835
2026-01-07 11:17:26.38	136.41	9.92	-40.4	-52.3	3.8	8.46e-01	0	53	104	0	51	15009
2026-01-07 11:17:30.42	136.22	10.26	-27.3	-44.9	4.3	8.41e-01	0	53	104	0	30	21344
2026-01-07 11:17:34.46	136.01	10.60	-37.0	-40.7	10.1	9.27e-02	0	53	0	6291456	43	6215
2026-01-07 11:17:38.50	135.80	10.95	-35.9	-39.0	11.9	5.83e-02	0	53	0	27262976	41	5747
2026-01-07 11:17:42.54	135.59	11.31	-35.0	-39.6	11.2	7.44e-02	0	53	0	47185920	42	5824
2026-01-07 11:17:46.58	135.37	11.67	-34.6	-39.3	11.8	9.37e-02	0	53	0	67108864	40	6341
2026-01-07 11:17:50.63	135.14	12.03	-36.2	-39.1	11.2	1.77e-01	0	54	0	87031808	40	6134
2026-01-07 11:17:54.67	134.91	12.40	-31.6	-37.5	8.7	9.77e-02	0	54	0	106954752	33	7689
2026-01-07 11:17:58.71	134.67	12.78	-35.5	-38.6	12.1	1.01e-01	0	54	0	126877696	40	5807
2026-01-07 11:18:02.75	134.43	13.16	-34.8	-38.2	11.5	9.01e-02	0	54	0	147849216	39	5902
2026-01-07 11:18:06.79	134.18	13.54	-36.0	-38.1	12.1	5.84e-02	0	54	0	168820736	39	5848
2026-01-07 11:18:10.83	133.92	13.93	-36.0	-38.0	14.2	1.10e-02	0	54	0	191889408	42	4822
2026-01-07 11:18:14.86	133.66	14.33	-35.4	-37.5	15.2	7.45e-03	0	54	0	213909504	41	4867
2026-01-07 11:18:18.90	133.39	14.73	-35.5	-37.4	15.6	7.45e-02	0	54	0	234881024	41	4787
2026-01-07 11:18:22.94	133.11	15.14	-35.5	-37.3	16.2	1.44e-03	0	54	0	257949696	41	4754
2026-01-07 11:18:26.98	132.82	15.55	-35.1	-36.9	16.2	1.20e-03	0	54	0	279969792	41	4530
2026-01-07 11:18:31.02	132.52	15.97	-34.8	-36.8	16.2	9.81e-03	0	54	0	303038464	41	4477
2026-01-07 11:18:35.06	132.22	16.40	-35.1	-36.9	16.5	1.47e-03	0	55	0	326107136	41	4509
2026-01-07 11:18:39.10	131.90	16.84	-35.1	-36.7	17.4	1.60e-04	0	54	0	348127232	40	4653
2026-01-07 11:18:43.14	131.58	17.28	-35.0	-36.5	17.7	5.03e-05	0	54	0	371195904	40	4547
2026-01-07 11:18:47.18	131.24	17.73	-34.8	-36.4	17.7	1.25e-05	0	54	0	394264576	40	4513
2026-01-07 11:18:51.22	130.90	18.18	-34.9	-36.3	17.8	7.55e-05	0	55	0	416284672	40	4489
2026-01-07 11:18:55.26	130.54	18.65	-34.9	-36.3	17.9	8.00e-06	0	55	0	439353344	40	4483
2026-01-07 11:18:59.30	130.18	19.12	-34.8	-36.2	18.0	1.10e-06	0	55	0	462422016	40	4437
2026-01-07 11:19:03.34	129.80	19.60	-34.5	-35.9	18.4	1.10e-06	0	55	0	484442112	40	4256
2026-01-07 11:19:07.38	129.41	20.08	-34.4	-35.7	18.5	0.00e+00	0	55	0	507510784	40	4186
2026-01-07 11:19:11.41	129.00	20.58	-34.4	-35.7	18.6	0.00e+00	0	55	0	530579456	40	4189
2026-01-07 11:19:15.45	128.59	21.08	-34.3	-35.7	18.6	0.00e+00	0	55	0	552599552	40	4163
2026-01-07 11:19:19.50	128.15	21.59	-34.3	-35.6	18.7	0.00e+00	0	55	0	575668224	40	4128
2026-01-07 11:19:23.54	127.71	22.11	-34.0	-35.3	19.0	0.00e+00	0	55	0	598736896	40	3992
2026-01-07 11:19:27.58	127.24	22.64	-33.9	-35.2	19.3	0.00e+00	0	55	0	620756992	39	4151
2026-01-07 11:19:31.62	126.76	23.18	-33.9	-35.2	19.3	0.00e+00	0	55	0	643825664	39	4156
2026-01-07 11:19:35.66	126.27	23.73	-33.9	-35.2	19.2	0.00e+00	0	55	0	666894336	39	4164
2026-01-07 11:19:39.70	125.75	24.29	-33.7	-35.0	19.4	0.00e+00	0	55	0	688914432	39	4085
2026-01-07 11:19:43.74	125.22	24.85	-33.5	-34.8	19.6	0.00e+00	0	55	0	711983104	39	3963
2026-01-07 11:19:47.78	124.67	25.43	-33.6	-34.8	19.6	0.00e+00	0	56	0	735051776	39	3997
2026-01-07 11:19:51.83	124.09	26.02	-33.4	-34.7	19.7	0.00e+00	0	55	0	758120448	38	4168
2026-01-07 11:19:55.87	123.49	26.61	-33.3	-34.6	19.8	0.00e+00	0	56	0	780140544	38	4103
2026-01-07 11:19:59.91	122.87	27.22	-33.5	-34.8	19.7	0.00e+00	0	55	0	803209216	38	4205
2026-01-07 11:20:03.95	122.23	27.83	-33.4	-34.6	19.8	0.00e+00	0	55	0	825229312	38	4126
2026-01-07 11:20:07.99	121.56	28.45	-33.1	-34.4	20.0	0.00e+00	0	56	0	848297984	38	4011
2026-01-07 11:20:12.02	120.86	29.09	-33.1	-34.3	20.1	0.00e+00	0	56	0	871366656	37	4213
2026-01-07 11:20:16.06	120.14	29.73	-33.2	-34.5	20.0	0.00e+00	0	55	0	893386752	37	4301
2026-01-07 11:20:20.10	119.38	30.38	-33.3	-34.5	20.0	0.00e+00	0	56	0	916455424	37	4315
2026-01-07 11:20:24.14	118.59	31.04	-33.2	-34.4	20.1	0.00e+00	0	55	0	939524096	37	4284
2026-01-07 11:20:28.18	117.77	31.71	-33.2	-34.4	20.1	0.00e+00	0	56	0	962592768	37	4268
2026-01-07 11:20:32.22	116.92	32.39	-33.3	-34.6	19.9	0.00e+00	0	56	0	984612864	37	4369
2026-01-07 11:20:36.26	116.02	33.08	-32.9	-34.1	20.4	0.00e+00	0	56	0	1007681536	37	4115
2026-01-07 11:20:40.30	115.09	33.77	-33.1	-34.3	20.2	0.00e+00	0	56	0	1029701632	37	4217
2026-01-07 11:20:44.34	114.12	34.47	-32.9	-34.2	20.3	0.00e+00	0	56	0	1052770304	37	4147
2026-01-07 11:20:48.38	113.10	35.18	-32.9	-34.2	20.3	0.00e+00	0	56	0	1075838976	37	4156
2026-01-07 11:20:52.42	112.04	35.89	-33.0	-34.2	20.3	0.00e+00	0	56	0	1098907648	37	4173
2026-01-07 11:20:56.46	110.93	36.61	-33.1	-34.3	20.2	0.00e+00	0	56	0	1120927744	37	4229
2026-01-07 11:21:00.50	109.77	37.33	-32.9	-34.1	20.4	0.00e+00	0	56	0	1143996416	37	4117
2026-01-07 11:21:04.55	108.55	38.05	-32.9	-34.1	20.4	0.00e+00	0	56	0	1167065088	37	4137
2026-01-07 11:21:08.59	107.28	38.77	-33.1	-34.3	20.3	0.00e+00	0	56	0	1189085184	37	4204
2026-01-07 11:21:12.62	105.96	39.49	-33.1	-34.4	20.2	0.00e+00	0	56	0	1212153856	37	4243
2026-01-07 11:21:16.66	104.57	40.20	-33.0	-34.1	20.5	0.00e+00	0	56	0	1234173952	37	4143
2026-01-07 11:21:20.70	103.12	40.91	-33.2	-34.4	20.2	0.00e+00	0	56	0	1257242624	37	4291
2026-01-07 11:21:24.74	101.61	41.62	-33.1	-34.2	20.4	0.00e+00	0	56	0	1280311296	37	4189
2026-01-07 11:21:28.78	100.03	42.31	-33.0	-34.2	20.4	0.00e+00	0	56	0	1303379968	37	4166
2026-01-07 11:21:32.82	98.38	42.99	-33.2	-34.4	20.3	0.00e+00	0	56	0	1325400064	37	4261
2026-01-07 11:21:36.86	96.66	43.65	-33.1	-34.3	20.5	0.00e+00	0	56	0	1348468736	37	4198
2026-01-07 11:21:40.90	94.87	44.29	-32.8	-34.0	20.7	0.00e+00	0	56	0	1371537408	37	4069
2026-01-07 11:21:44.94	93.00	44.91	-32.9	-34.1	20.6	0.00e+00	0	56	0	1393557504	37	4119
2026-01-07 11:21:48.98	91.06	45.51	-33.4	-34.6	20.0	0.00e+00	0	56	0	1416626176	37	4389
2026-01-07 11:21:53.01	89.06	46.07	-33.1	-34.3	20.5	0.00e+00	0	56	0	1439694848	37	4215
2026-01-07 11:21:57.05	86.98	46.60	-33.6	-34.9	20.0	0.00e+00	0	56	0	1461714944	38	4243
2026-01-07 11:22:01.10	84.82	47.10	-33.7	-34.9	19.9	0.00e+00	0	56	0	1484783616	38	4287
2026-01-07 11:22:05.14	82.60	47.55	-33.8	-35.1	19.7	0.00e+00	0	56	0	1507852288	38	4368
2026-01-07 11:22:09.18	80.32	47.97	-33.8	-35.0	19.8	0.00e+00	0	56	0	1529872384	38	4329
2026-01-07 11:22:13.23	77.98	48.33	-33.8	-35.1	19.8	0.00e+00	0	56	0	1552941056	38	4358
2026-01-07 11:22:17.26	75.60	48.64	-33.6	-34.8	20.1	0.00e+00	0	56	0	1576009728	38	4216
2026-01-07 11:22:21.30	73.16	48.91	-33.5	-34.7	20.3	0.00e+00	0	56	0	1598029824	38	4153
2026-01-07 11:22:25.34	70.69	49.11	-33.5	-34.7	20.2	0.00e+00	0	56	0	1621098496	38	4179
2026-01-07 11:22:29.38	68.19	49.26	-33.7	-34.9	20.0	0.00e+00	0	56	0	1644167168	38	4255
2026-01-07 11:22:33.42	65.67	49.35	-33.5	-34.7	20.2	0.00e+00	0	56	0	1666187264	38	4181
2026-01-07 11:22:37.46	63.14	49.38	-33.9	-35.1	19.8	0.00e+00	0	56	0	1689255936	38	4370
2026-01-07 11:22:41.50	60.61	49.35	-33.6	-34.8	20.1	0.00e+00	0	56	0	1712324608	38	4221
2026-01-07 11:22:45.53	58.09	49.26	-33.9	-35.1	19.8	0.00e+00	0	56	0	1734344704	38	4380
2026-01-07 11:22:49.57	55.59	49.11	-33.9	-35.2	19.8	0.00e+00	0	56	0	1757413376	38	4410
2026-01-07 11:22:53.61	53.12	48.91	-33.6	-34.8	20.1	0.00e+00	0	56	0	1780482048	38	4241
2026-01-07 11:22:57.65	50.69	48.65	-33.8	-35.1	19.9	0.00e+00	0	56	0	1802502144	38	4354
2026-01-07 11:23:01.69	48.30	48.33	-33.9	-35.1	19.7	0.00e+00	0	56	0	1825570816	38	4390
2026-01-07 11:23:05.73	45.97	47.97	-34.0	-35.2	19.7	0.00e+00	0	56	0	1848639488	38	4434
2026-01-07 11:23:09.76	43.69	47.56	-33.7	-34.9	20.0	0.00e+00	0	56	0	1870659584	38	4280
2026-01-07 11:23:13.80	41.48	47.11	-33.6	-34.8	20.0	0.00e+00	0	56	0	1893728256	38	4228
2026-01-07 11:23:17.84	39.33	46.61	-33.6	-34.8	20.1	0.00e+00	0	56	0	1916796928	38	4214
2026-01-07 11:23:21.88	37.25	46.08	-33.1	-34.3	20.7	0.00e+00	0	56	0	1938817024	38	3965
2026-01-07 11:23:25.92	35.25	45.52	-33.1	-34.3	20.7	0.00e+00	0	56	0	1961885696	38	3963
2026-01-07 11:23:29.96	33.31	44.93	-33.0	-34.2	20.7	0.00e+00	0	56	0	1984954368	38	3926
2026-01-07 11:23:34.00	31.45	44.31	-33.0	-34.2	20.6	0.00e+00	0	57	0	2006974464	38	3934
2026-01-07 11:23:38.04	29.66	43.67	-33.1	-34.3	20.7	0.00e+00	0	56	0	2030043136	38	3963
2026-01-07 11:23:42.08	27.94	43.01	-32.7	-33.8	21.1	0.00e+00	0	56	0	2053111808	37	3983
2026-01-07 11:23:46.12	26.30	42.33	-33.2	-34.4	20.5	0.00e+00	0	56	0	2075131904	37	4271
2026-01-07 11:23:50.16	24.72	41.64	-33.3	-34.3	21.0	0.00e+00	0	56	0	2098200576	37	4241
2026-01-07 11:23:54.20	23.21	40.94	-33.2	-34.2	21.1	0.00e+00	0	56	0	2121269248	37	4181
2026-01-07 11:23:58.25	21.76	40.23	-33.3	-34.3	21.0	0.00e+00	0	56	0	2143289344	37	4228
2026-01-07 11:24:02.29	20.38	39.52	-33.1	-34.2	21.1	0.00e+00	0	56	0	2166358016	37	4176
2026-01-07 11:24:06.33	19.06	38.81	-32.8	-33.8	21.5	0.00e+00	0	56	0	2189426688	37	3981
2026-01-07 11:24:10.37	17.79	38.09	-32.9	-33.9	21.3	0.00e+00	0	57	0	2212495360	37	4048
2026-01-07 11:24:14.41	16.58	37.37	-33.2	-34.3	21.0	0.00e+00	0	56	0	2234515456	37	4206
2026-01-07 11:24:18.44	15.43	36.66	-32.9	-33.9	21.3	0.00e+00	0	56	0	2257584128	37	4026
2026-01-07 11:24:22.48	14.32	35.94	-33.0	-34.0	21.2	0.00e+00	0	57	0	2279604224	37	4098
2026-01-07 11:24:26.53	13.26	35.23	-32.9	-33.9	21.3	0.00e+00	0	56	0	2302672896	37	4047
2026-01-07 11:24:30.56	12.25	34.53	-32.6	-33.6	21.6	0.00e+00	0	56	0	2325741568	37	3911
2026-01-07 11:24:34.60	11.27	33.83	-32.9	-33.9	21.3	0.00e+00	0	57	0	2347761664	37	4023
2026-01-07 11:24:38.64	10.34	33.14	-33.2	-34.3	21.0	0.00e+00	0	56	0	2370830336	37	4196
2026-01-07 11:24:42.68	9.45	32.45	-32.9	-33.9	21.2	0.00e+00	0	56	0	2393899008	37	4035
2026-01-07 11:24:46.72	8.60	31.78	-33.2	-34.3	20.9	0.00e+00	0	57	0	2416967680	37	4194
2026-01-07 11:24:50.76	7.78	31.11	-33.4	-34.5	20.7	0.00e+00	0	56	0	2438987776	37	4311
2026-01-07 11:24:54.80	7.00	30.45	-33.5	-34.6	20.5	0.00e+00	0	57	0	2462056448	37	4378
2026-01-07 11:24:58.84	6.24	29.80	-33.5	-34.6	20.5	0.00e+00	0	57	0	2484076544	37	4387
2026-01-07 11:25:02.88	5.52	29.16	-33.6	-34.7	20.4	0.00e+00	0	56	0	2507145216	37	4427
2026-01-07 11:25:06.92	4.83	28.53	-33.6	-34.7	20.4	0.00e+00	0	56	0	2530213888	37	4429
2026-01-07 11:25:10.96	4.16	27.91	-33.7	-34.9	20.3	0.00e+00	0	56	0	2552233984	38	4244
2026-01-07 11:25:15.01	3.52	27.29	-33.6	-34.7	20.4	0.00e+00	0	56	0	2575302656	38	4179
2026-01-07 11:25:19.04	2.90	26.69	-33.7	-34.8	20.3	0.00e+00	0	57	0	2598371328	38	4227
2026-01-07 11:25:23.08	2.31	26.10	-33.7	-34.8	20.2	0.00e+00	0	56	0	2621440000	38	4220
2026-01-07 11:25:27.12	1.74	25.52	-33.8	-34.9	20.1	0.00e+00	0	57	0	2643460096	38	4268
2026-01-07 11:25:31.16	1.19	24.94	-33.7	-34.9	20.2	0.00e+00	0	56	0	2666528768	38	4244
2026-01-07 11:25:35.20	0.65	24.38	-33.8	-34.9	20.1	0.00e+00	0	56	0	2688548864	38	4285
2026-01-07 11:25:39.24	0.14	23.82	-33.9	-35.0	19.9	0.00e+00	0	57	0	2711617536	38	4327
2026-01-07 11:25:43.28	359.65	23.28	-33.7	-34.8	20.1	0.00e+00	0	56	0	2734686208	38	4229
2026-01-07 11:25:47.32	359.17	22.74	-33.8	-35.0	20.0	0.00e+00	0	56	0	2757754880	38	4299
2026-01-07 11:25:51.36	358.71	22.21	-34.2	-35.4	19.5	0.00e+00	0	56	0	2779774976	38	4503
2026-01-07 11:25:55.40	358.27	21.69	-34.3	-35.5	19.3	0.00e+00	0	57	0	2802843648	39	4313
2026-01-07 11:25:59.43	357.84	21.18	-34.3	-35.5	19.3	0.00e+00	0	56	0	2825912320	39	4294
2026-01-07 11:26:03.48	357.43	20.68	-34.3	-35.5	19.1	0.00e+00	0	56	0	2847932416	39	4312
2026-01-07 11:26:07.52	357.02	20.19	-34.2	-35.4	19.1	0.00e+00	0	57	0	2871001088	39	4254
2026-01-07 11:26:11.56	356.64	19.70	-34.8	-36.1	17.9	0.00e+00	0	56	0	2893021184	40	4377
2026-01-07 11:26:15.60	356.26	19.23	-37.1	-39.0	14.5	0.00e+00	0	56	0	2916089856	44	4839
2026-01-07 11:26:19.64	355.90	18.76	-39.0	-42.2	10.3	3.06e-03	0	56	0	2939158528	48	5574
2026-01-07 11:26:23.68	355.54	18.29	-40.3	-46.3	5.8	3.46e-01	0	57	0	2962227200	51	7521
2026-01-07 11:26:27.72	355.20	17.84	-40.6	-49.7	4.0	8.41e-01	0	57	0	2963275776	51	11122
2026-01-07 11:26:31.77	354.87	17.39	-40.7	-51.5	3.8	8.46e-01	0	56	104	2963275776	51	13571
2026-01-07 11:26:35.81	354.55	16.95	-40.6	-52.1	3.8	8.45e-01	0	57	104	2963275776	51	14572
2026-01-07 11:26:39.84	354.24	16.52	-40.4	-52.1	3.8	8.47e-01	0	56	104	2963275776	52	13781
2026-01-07 11:26:43.88	353.94	16.09	-40.1	-52.1	3.8	8.46e-01	0	57	104	2963275776	52	13864
2026-01-07 11:26:47.92	353.64	15.67	-40.5	-52.2	3.8	8.47e-01	0	57	104	2963275776	51	14808
2026-01-07 11:26:51.96	353.36	15.26	-39.9	-52.4	3.8	8.46e-01	0	57	104	2963275776	51	15083
2026-01-07 11:26:56.00	353.08	14.85	-40.7	-52.4	3.8	8.46e-01	0	57	104	2963275776	51	15099
2026-01-07 11:27:00.05	352.81	14.45	-40.6	-52.3	3.8	8.46e-01	0	57	104	2963275776	52	14138
2026-01-07 11:27:04.09	352.55	14.05	-40.6	-52.2	3.8	8.46e-01	0	57	104	2963275776	52	13963
2026-01-07 11:27:08.13	352.30	13.66	-40.6	-52.2	3.8	8.46e-01	0	57	104	2963275776	52	13943
2026-01-07 11:27:12.17	352.05	13.28	-40.5	-52.1	3.8	8.46e-01	0	57	104	2963275776	52	13826
2026-01-07 11:27:16.20	351.81	12.90	-40.6	-52.2	3.8	8.47e-01	0	57	104	2963275776	52	13983
2026-01-07 11:27:20.24	351.58	12.53	-40.6	-52.2	3.8	8.45e-01	0	57	104	2963275776	52	13971
2026-01-07 11:27:24.28	351.35	12.16	-40.5	-52.2	3.8	8.47e-01	0	57	104	2963275776	52	13951
2026-01-07 11:27:28.32	351.13	11.80	-40.5	-52.3	3.8	8.46e-01	0	57	104	2963275776	52	14085
2026-01-07 11:27:32.36	350.91	11.44	-40.7	-52.4	3.8	8.46e-01	0	57	104	2963275776	52	14245
2026-01-07 11:27:36.40	350.70	11.08	-40.3	-52.1	3.8	8.46e-01	0	57	104	2963275776	52	13727
2026-01-07 11:27:40.44	350.50	10.73	-40.3	-52.1	3.8	8.46e-01	0	57	104	2963275776	52	13826
2026-01-07 11:27:44.48	350.30	10.39	-40.4	-52.1	3.8	8.47e-01	0	57	104	2963275776	52	13774
2026-01-07 11:27:48.52	350.10	10.05	-40.5	-52.1	3.8	8.46e-01	0	57	104	2963275776	52	13802
2026-01-07 11:27:52.56	349.91	9.71	-40.5	-52.1	3.8	8.46e-01	0	57	104	2963275776	52	13806
2026-01-07 11:27:56.60	349.72	9.38	-40.5	-52.1	3.8	8.46e-01	0	57	104	2963275776	52	13793
2026-01-07 11:28:00.64	349.54	9.05	-40.5	-52.1	3.8	8.47e-01	0	57	104	2963275776	52	13773
2026-01-07 11:28:04.68	349.37	8.73	-40.4	-52.0	3.8	8.46e-01	0	57	104	2963275776	52	13594
2026-01-07 11:28:08.72	349.19	8.41	-40.4	-52.0	3.8	8.45e-01	0	57	104	2963275776	52	13611
2026-01-07 11:28:12.76	349.03	8.09	-40.5	-52.1	3.8	8.47e-01	0	57	104	2963275776	52	13793
2026-01-07 11:28:16.81	348.86	7.78	-44.0	-55.6	3.8	8.46e-01	0	57	104	2963275776	58	14708
2026-01-07 11:28:20.85	348.70	7.47	-45.1	-56.9	3.8	8.46e-01	0	57	104	2963275776	60	15104
2026-01-07 11:28:24.90	348.54	7.17	-45.1	-56.9	3.8	8.45e-01	0	57	104	2963275776	60	15203
2026-01-07 11:28:28.94	348.39	6.86	-45.0	-56.9	3.8	8.46e-01	0	57	104	2963275776	60	15117
2026-01-07 11:28:32.99	348.24	6.57	-45.0	-56.8	3.8	8.46e-01	0	57	104	2963275776	60	15049
2026-01-07 11:28:37.03	348.09	6.27	-45.1	-56.9	3.8	8.47e-01	0	57	104	2963275776	60	15140
2026-01-07 11:28:41.08	347.95	5.98	-45.0	-56.8	3.8	8.46e-01	0	57	104	2963275776	60	15038
2026-01-07 11:28:45.12	347.81	5.69	-45.0	-56.8	3.8	8.46e-01	0	57	104	2963275776	60	15044
2026-01-07 11:28:49.16	347.67	5.40	-45.0	-56.8	3.8	8.46e-01	0	57	104	2963275776	60	15008
2026-01-07 11:28:53.21	347.54	5.12	-45.0	-56.8	3.8	8.46e-01	0	57	104	2963275776	60	15005
2026-01-07 11:28:57.25	347.41	4.84	-45.0	-56.8	3.8	8.47e-01	0	57	104	2963275776	60	15049
2026-01-07 11:29:01.29	347.28	4.56	-45.0	-56.8	3.8	8.45e-01	0	57	104	2963275776	60	15009
2026-01-07 11:29:05.34	347.15	4.28	-45.0	-56.8	3.8	8.45e-01	0	57	104	2963275776	60	15042
2026-01-07 11:29:09.38	347.03	4.01	-45.0	-56.8	3.8	8.45e-01	0	57	104	2963275776	60	14991
2026-01-07 11:29:13.43	346.91	3.74	-45.0	-56.8	3.8	8.47e-01	0	57	104	2963275776	60	14985
2026-01-07 11:29:17.47	346.79	3.47	-45.0	-56.8	3.8	8.47e-01	0	57	104	2963275776	60	15020
2026-01-07 11:29:21.51	346.68	3.21	-45.0	-56.8	3.8	8.45e-01	0	57	104	2963275776	60	14999
2026-01-07 11:29:25.56	346.56	2.95	-45.0	-56.8	3.8	8.46e-01	0	57	104	2963275776	60	14989
2026-01-07 11:29:29.60	346.45	2.69	-44.9	-56.8	3.8	8.46e-01	0	57	104	2963275776	60	14989
2026-01-07 11:29:33.64	346.34	2.43	-44.9	-56.8	3.8	8.47e-01	0	57	104	2963275776	60	15004
2026-01-07 11:29:37.69	346.24	2.17	-45.0	-56.8	3.8	8.47e-01	0	57	104	2963275776	60	14966
2026-01-07 11:29:41.73	346.13	1.92	-44.9	-56.8	3.8	8.46e-01	0	57	104	2963275776	60	14929

#Closed at: 2026-01-07 11:29:42
#Recorded file [2963 MB]: D:/lorett/data/31039_260107_141537.dat