passes_logs/2026/01/07/R2.0S_Moscow/R2.0S_Moscow__20260107_224600_NOAA_20_JPSS-1_rec.log

#Pass ID: 20260107_224600_NOAA 20 (JPSS-1)
#Satellite: NOAA 20 (JPSS-1)
#Configuration: NOAA 20
#almurnet v.1.7.20251203
#Start time: 2026-01-07 22:46:00

#Version: 2.2.20231116
#Station: R2.0S_Moscow
#Location: 37.707566 lon 55.798166 lat
#TLE: 1 43013U 17073A   26006.30790171  .00000126  00000+0  80695-4 0  9991
#TLE: 2 43013  98.7629 307.3394 0001808  51.8724 308.2615 14.19533762421505

#Time	Az	El	Level	Level2	SNR	BER	BlckErr	Temp	State	Recorded	gain1	gain2
2026-01-07 22:46:00.92	20.92	2.02	-42.0	-56.9	3.8	1.49e+00	0	48	0	0	56	19012
2026-01-07 22:46:04.94	21.10	2.26	-41.8	-56.7	3.8	1.49e+00	0	48	104	0	54	20862
2026-01-07 22:46:08.98	21.28	2.51	-41.8	-56.7	3.8	1.49e+00	0	49	104	0	54	20846
2026-01-07 22:46:13.02	21.47	2.76	-41.8	-56.7	3.8	1.49e+00	0	49	104	0	54	20826
2026-01-07 22:46:17.06	21.66	3.01	-41.8	-56.7	3.8	1.49e+00	0	49	104	0	54	20862
2026-01-07 22:46:21.10	21.85	3.26	-41.8	-56.7	3.8	1.49e+00	0	50	104	0	54	20826
2026-01-07 22:46:25.13	22.04	3.51	-41.8	-56.6	3.8	1.49e+00	0	50	104	0	54	20768
2026-01-07 22:46:29.17	22.24	3.77	-41.8	-56.7	3.8	1.49e+00	0	50	104	0	54	20788
2026-01-07 22:46:33.21	22.44	4.03	-41.8	-56.7	3.8	1.49e+00	0	51	104	0	54	20831
2026-01-07 22:46:37.25	22.65	4.29	-41.8	-56.7	3.8	1.49e+00	0	51	104	0	54	20817
2026-01-07 22:46:41.29	22.85	4.55	-41.8	-56.7	3.8	1.49e+00	0	51	104	0	54	20778
2026-01-07 22:46:45.31	23.06	4.82	-41.8	-56.7	3.8	1.49e+00	0	51	104	0	54	20805
2026-01-07 22:46:49.34	23.28	5.09	-41.8	-56.6	3.8	1.49e+00	0	51	104	0	54	20748
2026-01-07 22:46:53.37	23.50	5.36	-41.8	-56.6	3.8	1.49e+00	0	52	104	0	54	20765
2026-01-07 22:46:57.39	23.72	5.63	-41.8	-56.7	3.8	1.49e+00	0	52	104	0	54	20799
2026-01-07 22:47:01.40	23.94	5.90	-41.8	-56.6	3.8	1.49e+00	0	52	104	0	54	20754
2026-01-07 22:47:05.40	24.17	6.18	-41.8	-56.6	3.8	1.49e+00	0	52	104	0	54	20765
2026-01-07 22:47:09.41	24.40	6.46	-41.8	-56.7	3.8	1.49e+00	0	52	104	0	54	20812
2026-01-07 22:47:13.42	24.64	6.74	-41.8	-56.6	3.8	1.49e+00	0	52	104	0	54	20574
2026-01-07 22:47:17.43	24.88	7.02	-41.8	-56.2	3.8	1.49e+00	0	53	104	0	54	19779
2026-01-07 22:47:21.46	25.12	7.31	-41.7	-55.0	3.8	1.49e+00	0	53	104	0	54	17161
2026-01-07 22:47:25.50	25.37	7.60	-41.4	-51.1	5.0	8.34e-01	0	53	0	2097152	54	10982
2026-01-07 22:47:29.53	25.63	7.90	-40.4	-46.3	9.0	3.68e-02	0	53	0	9437184	52	7063
2026-01-07 22:47:33.55	25.89	8.19	-40.2	-45.2	10.7	8.50e-03	0	53	0	17825792	52	6207
2026-01-07 22:47:37.58	26.15	8.49	-41.0	-45.5	11.1	2.73e-03	0	53	0	23068672	54	5759
2026-01-07 22:47:41.61	26.43	8.80	-40.8	-45.0	11.7	5.77e-04	0	54	0	30408704	53	5770
2026-01-07 22:47:45.62	26.70	9.10	-40.7	-44.7	12.1	2.32e-04	0	54	0	38797312	53	5546
2026-01-07 22:47:49.64	26.98	9.41	-40.8	-44.8	12.2	2.71e-04	0	54	0	46137344	53	5619
2026-01-07 22:47:53.65	27.27	9.73	-40.8	-44.5	12.5	1.08e-04	0	54	0	53477376	53	5451
2026-01-07 22:47:57.68	27.56	10.04	-40.7	-44.2	13.0	3.12e-05	0	54	0	60817408	53	5221
2026-01-07 22:48:01.70	27.86	10.36	-40.6	-44.0	13.2	2.13e-05	0	54	0	68157440	53	5114
2026-01-07 22:48:05.70	28.16	10.68	-40.5	-43.8	13.5	1.83e-05	0	54	0	76546048	53	5015
2026-01-07 22:48:09.71	28.47	11.01	-40.5	-43.8	13.6	4.50e-06	0	54	0	83886080	53	5003
2026-01-07 22:48:13.72	28.79	11.34	-40.5	-43.6	13.9	5.30e-06	0	54	0	91226112	52	5176
2026-01-07 22:48:17.73	29.11	11.67	-40.5	-43.5	13.9	4.50e-06	0	55	0	98566144	52	5153
2026-01-07 22:48:21.73	29.44	12.01	-40.5	-43.5	14.0	3.00e-06	0	55	0	105906176	52	5153
2026-01-07 22:48:25.75	29.78	12.35	-40.4	-43.3	14.2	1.50e-06	0	55	0	113246208	52	5019
2026-01-07 22:48:29.75	30.12	12.69	-40.3	-43.2	14.4	0.00e+00	0	55	0	121634816	52	4965
2026-01-07 22:48:33.76	30.47	13.04	-40.2	-43.0	14.7	0.00e+00	0	55	0	128974848	52	4834
2026-01-07 22:48:37.77	30.83	13.40	-40.1	-42.9	14.8	0.00e+00	0	55	0	136314880	52	4765
2026-01-07 22:48:41.78	31.20	13.75	-40.0	-42.6	15.1	0.00e+00	0	55	0	143654912	51	4900
2026-01-07 22:48:45.79	31.58	14.12	-39.9	-42.5	15.3	0.00e+00	0	55	0	150994944	51	4835
2026-01-07 22:48:49.81	31.97	14.48	-39.9	-42.5	15.4	0.00e+00	0	55	0	158334976	51	4838
2026-01-07 22:48:53.83	32.37	14.85	-39.9	-42.5	15.4	0.00e+00	0	55	0	166723584	51	4845
2026-01-07 22:48:57.84	32.77	15.23	-40.1	-42.7	15.2	0.00e+00	0	55	0	174063616	51	4929
2026-01-07 22:49:01.85	33.19	15.61	-40.2	-42.8	15.1	0.00e+00	0	55	0	181403648	51	5037
2026-01-07 22:49:05.84	33.61	15.99	-40.2	-42.9	15.1	0.00e+00	0	55	0	188743680	51	5066
2026-01-07 22:49:09.87	34.05	16.38	-40.3	-42.9	15.1	0.00e+00	0	55	0	196083712	51	5087
2026-01-07 22:49:13.89	34.50	16.78	-40.3	-43.0	15.0	0.00e+00	0	56	0	204472320	51	5125
2026-01-07 22:49:17.91	34.96	17.18	-40.3	-43.0	15.0	0.00e+00	0	56	0	211812352	51	5140
2026-01-07 22:49:21.94	35.43	17.58	-40.4	-43.1	14.9	0.00e+00	0	56	0	219152384	51	5206
2026-01-07 22:49:25.96	35.92	17.99	-40.5	-43.3	14.7	7.00e-07	0	56	0	226492416	51	5320
2026-01-07 22:49:29.97	36.41	18.40	-40.7	-43.6	14.4	7.00e-07	0	55	0	233832448	52	5165
2026-01-07 22:49:33.99	36.92	18.82	-40.8	-43.7	14.3	0.00e+00	0	56	0	241172480	52	5262
2026-01-07 22:49:38.01	37.45	19.25	-40.8	-43.8	14.2	3.00e-06	0	56	0	249561088	52	5300
2026-01-07 22:49:42.03	37.99	19.68	-40.9	-43.9	14.2	3.00e-06	0	56	0	256901120	52	5344
2026-01-07 22:49:46.06	38.54	20.11	-40.7	-43.6	14.4	0.00e+00	0	56	0	264241152	52	5211
2026-01-07 22:49:50.07	39.11	20.55	-40.7	-43.6	14.4	1.50e-06	0	56	0	271581184	52	5217
2026-01-07 22:49:54.10	39.70	21.00	-40.8	-43.7	14.4	0.00e+00	0	56	0	278921216	52	5242
2026-01-07 22:49:58.12	40.30	21.45	-40.8	-43.8	14.3	7.00e-07	0	56	0	287309824	52	5285
2026-01-07 22:50:02.14	40.92	21.90	-40.9	-43.8	14.3	0.00e+00	0	56	0	294649856	52	5321
2026-01-07 22:50:06.16	41.56	22.36	-40.9	-43.8	14.2	2.20e-06	0	56	0	301989888	52	5340
2026-01-07 22:50:10.17	42.21	22.82	-40.8	-43.6	14.4	0.00e+00	0	56	0	309329920	52	5217
2026-01-07 22:50:14.18	42.89	23.29	-40.7	-43.5	14.6	0.00e+00	0	56	0	316669952	52	5130
2026-01-07 22:50:18.21	43.58	23.76	-40.7	-43.6	14.5	0.00e+00	0	56	0	325058560	52	5182
2026-01-07 22:50:22.23	44.30	24.24	-40.5	-43.2	15.0	7.00e-07	0	56	0	332398592	52	4955
2026-01-07 22:50:26.25	45.04	24.72	-40.2	-42.7	15.4	0.00e+00	0	56	0	339738624	52	4692
2026-01-07 22:50:30.27	45.80	25.21	-40.0	-42.4	15.7	0.00e+00	0	56	0	347078656	52	4545
2026-01-07 22:50:34.30	46.59	25.70	-40.0	-42.4	15.9	0.00e+00	0	56	0	354418688	51	4802
2026-01-07 22:50:38.32	47.39	26.19	-40.1	-42.5	15.8	0.00e+00	0	56	0	362807296	51	4863
2026-01-07 22:50:42.36	48.23	26.69	-40.3	-42.8	15.5	0.00e+00	0	56	0	370147328	51	5005
2026-01-07 22:50:46.39	49.09	27.19	-40.4	-43.0	15.3	0.00e+00	0	56	0	377487360	51	5142
2026-01-07 22:50:50.42	49.98	27.69	-40.7	-43.4	14.9	0.00e+00	0	56	0	384827392	51	5345
2026-01-07 22:50:54.45	50.90	28.20	-40.7	-43.5	14.7	7.00e-07	0	57	0	392167424	52	5132
2026-01-07 22:50:58.48	51.84	28.70	-40.7	-43.5	14.7	0.00e+00	0	57	0	400556032	52	5131
2026-01-07 22:51:02.50	52.82	29.21	-41.4	-44.6	13.6	4.50e-06	0	56	0	407896064	53	5489
2026-01-07 22:51:06.53	53.82	29.71	-41.6	-44.9	13.3	1.98e-05	0	56	0	415236096	53	5680
2026-01-07 22:51:10.57	54.86	30.22	-41.8	-45.3	13.0	3.66e-05	0	57	0	422576128	54	5598
2026-01-07 22:51:14.60	55.93	30.72	-41.8	-45.3	13.0	1.83e-05	0	57	0	429916160	54	5609
2026-01-07 22:51:18.63	57.03	31.22	-42.6	-46.9	11.2	1.06e-03	0	57	0	438304768	55	6416
2026-01-07 22:51:22.67	58.17	31.72	-43.1	-47.9	10.4	4.35e-03	0	57	0	445644800	56	6783
2026-01-07 22:51:26.70	59.34	32.22	-43.0	-47.7	10.6	4.77e-03	0	57	0	452984832	56	6593
2026-01-07 22:51:30.72	60.55	32.71	-43.0	-47.6	10.7	2.18e-03	0	57	0	460324864	56	6532
2026-01-07 22:51:34.75	61.79	33.19	-43.5	-48.9	9.4	1.86e-02	0	56	0	467664896	57	7196
2026-01-07 22:51:38.76	63.07	33.66	-42.7	-46.9	11.4	1.53e-03	0	57	0	476053504	57	5711
2026-01-07 22:51:42.76	64.37	34.13	-42.7	-47.0	11.4	8.97e-04	0	57	0	483393536	57	5744
2026-01-07 22:51:46.75	65.71	34.58	-42.7	-46.8	11.5	8.99e-04	0	57	0	490733568	57	5619
2026-01-07 22:51:50.77	67.10	35.02	-42.3	-46.0	12.5	1.43e-04	0	57	0	498073600	56	5410
2026-01-07 22:51:54.79	68.53	35.45	-41.7	-45.0	13.3	1.44e-05	0	57	0	505413632	55	5149
2026-01-07 22:51:58.82	69.99	35.87	-41.4	-44.4	14.0	3.00e-06	0	57	0	512753664	54	5087
2026-01-07 22:52:02.82	71.49	36.27	-40.5	-43.1	15.3	0.00e+00	0	57	0	521142272	52	4873
2026-01-07 22:52:06.83	73.02	36.66	-41.1	-44.1	14.3	1.50e-06	0	57	0	528482304	53	5160
2026-01-07 22:52:10.83	74.58	37.02	-40.7	-43.4	15.0	0.00e+00	0	57	0	535822336	53	4788
2026-01-07 22:52:14.84	76.18	37.37	-41.4	-44.5	13.9	5.30e-06	0	57	0	543162368	53	5421
2026-01-07 22:52:18.84	77.81	37.69	-41.3	-44.4	14.0	2.20e-06	0	57	0	550502400	53	5381
2026-01-07 22:52:22.85	79.48	37.99	-41.4	-44.5	13.9	5.30e-06	0	57	0	557842432	53	5408
2026-01-07 22:52:26.83	81.16	38.26	-41.4	-44.6	13.8	0.00e+00	0	57	0	566231040	53	5478
2026-01-07 22:52:30.82	82.87	38.51	-41.9	-45.5	12.9	5.03e-05	0	57	0	573571072	54	5732
2026-01-07 22:52:34.80	84.61	38.73	-41.6	-44.8	13.7	9.90e-06	0	57	0	580911104	54	5282
2026-01-07 22:52:38.80	86.37	38.92	-41.8	-45.2	13.2	3.35e-05	0	57	0	588251136	54	5551
2026-01-07 22:52:42.79	88.15	39.09	-41.8	-45.1	13.3	9.90e-06	0	57	0	595591168	54	5477
2026-01-07 22:52:46.79	89.95	39.22	-42.4	-46.4	12.0	3.14e-04	0	57	0	602931200	55	5993
2026-01-07 22:52:50.80	91.77	39.32	-42.6	-46.8	11.5	6.76e-04	0	57	0	610271232	55	6309
2026-01-07 22:52:54.79	93.59	39.40	-42.9	-47.3	11.2	1.15e-03	0	57	0	618659840	56	6311
2026-01-07 22:52:58.82	95.43	39.44	-42.3	-45.9	12.5	1.69e-04	0	57	0	625999872	56	5378
2026-01-07 22:53:02.84	97.28	39.44	-42.1	-45.6	13.0	3.43e-05	0	57	0	633339904	56	5165
2026-01-07 22:53:06.86	99.12	39.42	-41.4	-44.4	14.0	3.00e-06	0	57	0	640679936	54	5083
2026-01-07 22:53:10.89	100.96	39.36	-42.2	-45.9	12.5	5.95e-05	0	57	0	648019968	54	6002
2026-01-07 22:53:14.89	102.78	39.27	-42.2	-46.0	12.4	8.23e-05	0	57	0	655360000	55	5748
2026-01-07 22:53:18.89	104.59	39.15	-42.5	-46.5	11.8	3.85e-04	0	57	0	663748608	55	6077
2026-01-07 22:53:22.90	106.38	38.99	-42.5	-46.5	12.0	5.35e-04	0	57	0	671088640	56	5736
2026-01-07 22:53:26.90	108.16	38.81	-42.8	-47.1	11.3	7.65e-04	0	57	0	678428672	56	6142
2026-01-07 22:53:30.92	109.92	38.60	-41.6	-44.7	13.6	2.20e-06	0	57	0	685768704	54	5266
2026-01-07 22:53:34.94	111.66	38.36	-40.8	-43.5	14.9	7.00e-07	0	57	0	693108736	53	4827
2026-01-07 22:53:38.96	113.38	38.09	-41.4	-44.5	13.8	7.60e-06	0	57	0	700448768	53	5432
2026-01-07 22:53:42.98	115.06	37.80	-40.8	-43.6	14.8	0.00e+00	0	57	0	708837376	53	4882
2026-01-07 22:53:47.00	116.71	37.49	-39.6	-41.7	16.8	0.00e+00	0	57	0	716177408	51	4411
2026-01-07 22:53:51.03	118.34	37.15	-40.5	-43.0	15.4	0.00e+00	0	57	0	723517440	52	4833
2026-01-07 22:53:55.04	119.92	36.79	-39.8	-42.0	16.5	0.00e+00	0	57	0	730857472	51	4566
2026-01-07 22:53:59.04	121.47	36.41	-39.2	-41.2	17.3	0.00e+00	0	57	0	738197504	50	4400
2026-01-07 22:54:03.07	122.99	36.01	-39.7	-41.9	16.6	0.00e+00	0	58	0	746586112	51	4515
2026-01-07 22:54:07.08	124.46	35.60	-40.7	-43.3	15.1	0.00e+00	0	57	0	753926144	51	5321
2026-01-07 22:54:11.11	125.91	35.17	-40.2	-42.6	15.8	0.00e+00	0	57	0	761266176	52	4620
2026-01-07 22:54:15.12	127.31	34.73	-40.0	-42.3	16.2	0.00e+00	0	57	0	768606208	51	4725
2026-01-07 22:54:19.14	128.68	34.27	-40.8	-43.5	14.9	0.00e+00	0	57	0	775946240	52	5103
2026-01-07 22:54:23.14	130.01	33.81	-40.8	-43.5	14.9	0.00e+00	0	57	0	784334848	52	5108
2026-01-07 22:54:27.15	131.30	33.34	-41.1	-44.0	14.3	1.50e-06	0	57	0	791674880	53	5115
2026-01-07 22:54:31.17	132.55	32.86	-41.9	-45.4	12.9	1.83e-05	0	57	0	799014912	54	5708
2026-01-07 22:54:35.17	133.77	32.37	-40.9	-43.7	14.6	7.00e-07	0	57	0	806354944	53	4930
2026-01-07 22:54:39.18	134.95	31.88	-42.4	-46.5	11.7	1.07e-03	0	57	0	813694976	55	6074
2026-01-07 22:54:43.22	136.11	31.38	-41.7	-45.0	13.3	1.60e-05	0	57	0	821035008	54	5460
2026-01-07 22:54:47.24	137.22	30.87	-41.3	-44.3	13.9	1.60e-05	0	57	0	829423616	54	5020
2026-01-07 22:54:51.25	138.30	30.37	-40.9	-43.7	14.6	0.00e+00	0	57	0	836763648	52	5257
2026-01-07 22:54:55.26	139.35	29.86	-40.3	-42.8	15.5	0.00e+00	0	57	0	844103680	52	4730
2026-01-07 22:54:59.29	140.37	29.35	-41.5	-44.7	13.6	0.00e+00	0	57	0	851443712	53	5573
2026-01-07 22:55:03.31	141.36	28.85	-40.1	-42.5	15.8	0.00e+00	0	57	0	858783744	52	4577
2026-01-07 22:55:07.33	142.31	28.34	-40.4	-42.8	15.6	0.00e+00	0	57	0	867172352	51	5035
2026-01-07 22:55:11.33	143.23	27.83	-39.6	-41.7	16.6	0.00e+00	0	57	0	874512384	51	4425
2026-01-07 22:55:15.33	144.13	27.33	-39.6	-41.7	16.6	0.00e+00	0	57	0	881852416	49	4974
2026-01-07 22:55:19.36	145.00	26.83	-40.3	-42.8	15.5	0.00e+00	0	57	0	889192448	52	4734
2026-01-07 22:55:23.38	145.85	26.33	-39.0	-40.9	17.4	0.00e+00	0	57	0	896532480	49	4519
2026-01-07 22:55:27.40	146.67	25.83	-40.2	-42.6	15.8	0.00e+00	0	57	0	903872512	50	5175
2026-01-07 22:55:31.42	147.46	25.34	-38.8	-40.7	17.7	0.00e+00	0	57	0	912261120	49	4398
2026-01-07 22:55:35.44	148.24	24.85	-39.4	-41.5	16.8	0.00e+00	0	57	0	919601152	49	4864
2026-01-07 22:55:39.44	148.98	24.36	-39.5	-41.7	16.7	0.00e+00	0	57	0	926941184	50	4655
2026-01-07 22:55:43.45	149.71	23.88	-39.5	-41.7	16.7	0.00e+00	0	58	0	934281216	50	4658
2026-01-07 22:55:47.45	150.41	23.40	-39.9	-42.1	16.2	0.00e+00	0	57	0	941621248	50	4923
2026-01-07 22:55:51.46	151.09	22.93	-39.8	-42.1	16.3	0.00e+00	0	58	0	948961280	50	4889
2026-01-07 22:55:55.47	151.75	22.46	-40.1	-42.5	15.9	0.00e+00	0	57	0	957349888	50	5104
2026-01-07 22:55:59.49	152.40	22.00	-39.9	-42.2	16.1	0.00e+00	0	57	0	964689920	50	4975
2026-01-07 22:56:03.51	153.03	21.54	-39.9	-42.3	16.0	0.00e+00	0	57	0	972029952	50	4998
2026-01-07 22:56:07.53	153.64	21.09	-40.6	-43.3	14.9	7.00e-07	0	57	0	979369984	51	5336
2026-01-07 22:56:11.54	154.23	20.64	-40.5	-43.1	15.1	0.00e+00	0	57	0	986710016	52	4919
2026-01-07 22:56:15.56	154.80	20.19	-40.4	-43.1	15.1	0.00e+00	0	57	0	995098624	52	4893
2026-01-07 22:56:19.57	155.36	19.75	-40.6	-43.4	14.8	7.00e-07	0	58	0	1002438656	52	5046
2026-01-07 22:56:23.58	155.90	19.32	-40.6	-43.4	14.7	0.00e+00	0	57	0	1009778688	52	5080
2026-01-07 22:56:27.58	156.43	18.89	-40.4	-43.0	15.1	0.00e+00	0	57	0	1017118720	52	4836
2026-01-07 22:56:31.57	156.94	18.47	-40.2	-42.7	15.4	0.00e+00	0	58	0	1024458752	52	4700
2026-01-07 22:56:35.59	157.45	18.05	-40.4	-43.1	15.0	0.00e+00	0	57	0	1031798784	52	4919
2026-01-07 22:56:39.60	157.94	17.64	-40.5	-43.3	14.8	0.00e+00	0	58	0	1040187392	52	4990
2026-01-07 22:56:43.62	158.41	17.23	-40.4	-43.0	15.1	7.00e-07	0	57	0	1047527424	52	4834
2026-01-07 22:56:47.63	158.87	16.83	-40.4	-43.1	15.0	0.00e+00	0	57	0	1054867456	52	4893
2026-01-07 22:56:51.63	159.33	16.43	-40.8	-43.8	14.2	3.00e-06	0	57	0	1062207488	52	5320
2026-01-07 22:56:55.66	159.77	16.03	-41.0	-44.1	13.9	3.80e-06	0	57	0	1069547520	52	5511
2026-01-07 22:56:59.69	160.20	15.64	-41.1	-44.2	13.8	5.30e-06	0	57	0	1076887552	52	5557
2026-01-07 22:57:03.71	160.62	15.26	-40.9	-44.0	14.0	1.50e-06	0	58	0	1085276160	52	5412
2026-01-07 22:57:07.74	161.03	14.88	-40.9	-43.9	14.0	2.20e-06	0	58	0	1092616192	52	5390
2026-01-07 22:57:11.75	161.43	14.50	-40.7	-43.6	14.4	1.50e-06	0	57	0	1099956224	52	5163
2026-01-07 22:57:15.77	161.82	14.13	-40.6	-43.5	14.4	1.50e-06	0	57	0	1107296256	52	5143
2026-01-07 22:57:19.80	162.20	13.76	-40.8	-43.8	14.2	1.50e-06	0	57	0	1114636288	52	5286
2026-01-07 22:57:23.83	162.57	13.40	-41.0	-44.2	13.6	3.00e-06	0	57	0	1123024896	52	5573
2026-01-07 22:57:27.85	162.93	13.04	-41.0	-44.2	13.6	6.10e-06	0	57	0	1130364928	52	5562
2026-01-07 22:57:31.88	163.29	12.69	-41.1	-44.4	13.5	1.52e-05	0	57	0	1137704960	52	5676
2026-01-07 22:57:35.89	163.64	12.34	-41.2	-44.6	13.2	2.05e-05	0	58	0	1145044992	52	5790
2026-01-07 22:57:39.89	163.97	11.99	-41.3	-44.8	12.9	4.95e-05	0	57	0	1152385024	53	5629
2026-01-07 22:57:43.90	164.30	11.65	-41.4	-45.1	12.7	7.62e-05	0	58	0	1159725056	53	5795
2026-01-07 22:57:47.92	164.63	11.32	-41.3	-44.9	12.8	7.01e-05	0	58	0	1168113664	53	5680
2026-01-07 22:57:51.94	164.94	10.98	-41.4	-45.0	12.7	1.02e-04	0	58	0	1175453696	53	5750
2026-01-07 22:57:55.95	165.25	10.65	-41.1	-44.6	13.0	2.82e-05	0	58	0	1182793728	53	5489
2026-01-07 22:57:59.96	165.56	10.33	-41.0	-44.4	13.2	1.52e-05	0	58	0	1190133760	53	5377
2026-01-07 22:58:03.97	165.85	10.00	-41.2	-44.9	12.7	8.39e-05	0	58	0	1197473792	53	5658
2026-01-07 22:58:07.99	166.15	9.69	-41.3	-45.0	12.5	1.20e-04	0	58	0	1205862400	53	5738
2026-01-07 22:58:12.01	166.43	9.37	-41.5	-45.4	12.1	1.84e-04	0	58	0	1213202432	53	6000
2026-01-07 22:58:16.04	166.71	9.06	-41.6	-45.8	11.6	6.65e-04	0	57	0	1220542464	53	6287
2026-01-07 22:58:20.07	166.99	8.75	-41.8	-46.2	11.1	1.43e-03	0	58	0	1227882496	54	6236
2026-01-07 22:58:24.10	167.25	8.44	-41.8	-46.4	10.9	2.17e-03	0	58	0	1235222528	54	6360
2026-01-07 22:58:28.13	167.52	8.14	-41.8	-46.3	10.9	1.96e-03	0	57	0	1243611136	54	6309
2026-01-07 22:58:32.17	167.78	7.83	-44.9	-59.6	3.8	1.49e+00	0	58	104	1245708288	60	20590
2026-01-07 22:58:36.20	168.03	7.54	-45.1	-59.8	3.8	1.49e+00	0	58	104	1245708288	60	21250
2026-01-07 22:58:40.23	168.28	7.24	-45.2	-59.9	3.8	1.49e+00	0	58	104	1245708288	60	21387
2026-01-07 22:58:44.27	168.52	6.95	-45.1	-59.8	3.8	1.49e+00	0	58	104	1245708288	60	21215
2026-01-07 22:58:48.30	168.76	6.66	-45.1	-59.8	3.8	1.49e+00	0	58	104	1245708288	60	21158
2026-01-07 22:58:52.33	169.00	6.38	-45.1	-59.8	3.8	1.49e+00	0	58	104	1245708288	60	21124
2026-01-07 22:58:56.36	169.23	6.09	-45.1	-59.8	3.8	1.49e+00	0	58	104	1245708288	60	21087
2026-01-07 22:59:00.40	169.46	5.81	-45.1	-59.8	3.8	1.49e+00	0	58	104	1245708288	60	21050
2026-01-07 22:59:04.42	169.68	5.54	-45.1	-59.8	3.8	1.49e+00	0	58	104	1245708288	60	21101
2026-01-07 22:59:08.43	169.90	5.26	-45.0	-59.8	3.8	1.49e+00	0	58	104	1245708288	60	21044
2026-01-07 22:59:12.43	170.11	4.99	-45.0	-59.8	3.8	1.49e+00	0	58	104	1245708288	60	21056
2026-01-07 22:59:16.44	170.32	4.72	-45.0	-59.8	3.8	1.49e+00	0	58	104	1245708288	60	21053
2026-01-07 22:59:20.47	170.53	4.46	-45.0	-59.7	3.8	1.49e+00	0	58	104	1245708288	60	20962
2026-01-07 22:59:24.49	170.73	4.19	-45.0	-59.8	3.8	1.49e+00	0	58	104	1245708288	60	21053
2026-01-07 22:59:28.52	170.93	3.93	-45.0	-59.7	3.8	1.49e+00	0	58	104	1245708288	60	20990
2026-01-07 22:59:32.54	171.13	3.67	-45.0	-59.8	3.8	1.49e+00	0	58	104	1245708288	60	21026
2026-01-07 22:59:36.57	171.32	3.41	-45.0	-59.7	3.8	1.49e+00	0	58	104	1245708288	60	20995
2026-01-07 22:59:40.60	171.51	3.15	-45.0	-59.7	3.8	1.49e+00	0	58	104	1245708288	60	20957
2026-01-07 22:59:44.62	171.70	2.90	-45.0	-59.7	3.8	1.49e+00	0	58	104	1245708288	60	20967
2026-01-07 22:59:48.63	171.88	2.65	-45.0	-59.7	3.8	1.49e+00	0	58	104	1245708288	60	20964
2026-01-07 22:59:52.63	172.06	2.40	-45.0	-59.8	3.8	1.49e+00	0	58	104	1245708288	60	21018
2026-01-07 22:59:56.65	172.24	2.15	-45.0	-59.8	3.8	1.49e+00	0	58	104	1245708288	60	21037

#Closed at: 2026-01-07 23:00:00
#Recorded file [1245 MB]: D:/lorett/data/31039_260108_014600.dat