passes_logs/2026/01/07/R2.0S_Moscow/R2.0S_Moscow__20260107_033706_FENGYUN_3G_rec.log

#Pass ID: 20260107_033706_FENGYUN 3G
#Satellite: FENGYUN 3G
#Configuration: FENGYUN 3G
#almurnet v.1.7.20251203
#Start time: 2026-01-07 03:37:07

#Version: 2.2.20231116
#Station: R2.0S_Moscow
#Location: 37.707566 lon 55.798166 lat
#TLE: 1 56232U 23055A   26005.65670112  .00041871  00000+0  66206-3 0  9997
#TLE: 2 56232  49.9942 104.1198 0004242 344.1257  15.9577 15.52986726154745

#Time	Az	El	Level	Level2	SNR	BER	BlckErr	Temp	State	Recorded	gain1	gain2
2026-01-07 03:37:07.34	260.04	2.08	-44.0	-62.4	3.8	8.46e-01	0	48	0	0	60	28419
2026-01-07 03:37:10.36	259.83	2.27	-44.0	-62.2	3.8	8.47e-01	0	48	104	0	60	27884
2026-01-07 03:37:13.39	259.62	2.47	-44.1	-62.1	3.8	8.45e-01	0	48	104	0	59	29136
2026-01-07 03:37:16.42	259.40	2.67	-44.1	-62.1	3.8	8.47e-01	0	49	104	0	59	29145
2026-01-07 03:37:19.46	259.18	2.88	-44.1	-62.3	3.8	8.46e-01	0	49	104	0	59	29699
2026-01-07 03:37:22.49	258.96	3.08	-44.1	-62.3	3.8	8.46e-01	0	49	104	0	59	29943
2026-01-07 03:37:25.52	258.73	3.29	-44.1	-62.3	3.8	8.46e-01	0	49	104	0	59	30025
2026-01-07 03:37:28.56	258.49	3.50	-44.1	-62.4	3.8	8.46e-01	0	49	104	0	59	30103
2026-01-07 03:37:31.59	258.25	3.71	-44.1	-62.4	3.8	8.46e-01	0	49	104	0	59	30205
2026-01-07 03:37:34.62	258.01	3.92	-44.1	-62.4	3.8	8.46e-01	0	49	104	0	59	30163
2026-01-07 03:37:37.65	257.76	4.13	-44.1	-62.4	3.8	8.46e-01	0	50	104	0	59	30097
2026-01-07 03:37:40.68	257.50	4.35	-44.1	-62.4	3.8	8.45e-01	0	50	104	0	59	30177
2026-01-07 03:37:43.72	257.24	4.57	-44.1	-62.2	3.8	8.47e-01	0	50	104	0	59	29611
2026-01-07 03:37:46.75	256.98	4.79	-44.0	-62.0	3.8	8.47e-01	0	50	104	0	59	28975
2026-01-07 03:37:49.78	256.70	5.02	-44.1	-61.9	3.8	8.45e-01	0	50	104	0	59	28496
2026-01-07 03:37:52.81	256.43	5.24	-44.0	-61.5	3.8	8.47e-01	0	51	104	0	59	27197
2026-01-07 03:37:55.84	256.14	5.47	-44.0	-60.3	3.8	8.45e-01	0	51	104	0	59	23665
2026-01-07 03:37:58.87	255.85	5.70	-43.9	-58.9	4.2	8.41e-01	0	51	0	0	59	20232
2026-01-07 03:38:01.91	255.55	5.94	-43.9	-59.0	4.1	8.37e-01	0	51	0	0	59	20527
2026-01-07 03:38:04.94	255.24	6.17	-43.9	-59.1	4.1	8.39e-01	0	51	0	0	59	20564
2026-01-07 03:38:07.97	254.93	6.41	-43.9	-58.6	4.2	8.38e-01	0	51	0	0	59	19576
2026-01-07 03:38:11.01	254.61	6.65	-43.8	-56.5	5.1	8.13e-01	0	51	0	0	59	15243
2026-01-07 03:38:14.04	254.28	6.90	-43.7	-55.5	5.9	6.55e-01	0	52	0	1572864	59	13631
2026-01-07 03:38:17.07	253.95	7.15	-43.9	-59.2	4.1	6.66e-01	0	52	0	2621440	59	20889
2026-01-07 03:38:20.11	253.60	7.40	-43.6	-54.7	6.3	8.45e-01	0	52	0	2621440	59	12505
2026-01-07 03:38:23.14	253.25	7.65	-41.6	-46.4	14.7	1.67e-04	0	52	0	6291456	55	6008
2026-01-07 03:38:26.17	252.89	7.91	-39.8	-42.8	18.4	0.00e+00	0	52	0	9437184	51	5037
2026-01-07 03:38:29.20	252.52	8.17	-40.2	-43.5	17.6	0.00e+00	0	52	0	13107200	51	5451
2026-01-07 03:38:32.23	252.14	8.43	-40.9	-44.7	15.9	3.26e-02	0	52	0	16252928	53	5574
2026-01-07 03:38:35.26	251.75	8.70	-38.5	-41.0	20.3	0.00e+00	0	52	0	19922944	49	4580
2026-01-07 03:38:38.29	251.36	8.96	-38.8	-41.4	20.0	0.00e+00	0	53	0	23068672	49	4764
2026-01-07 03:38:41.32	250.95	9.24	-38.3	-40.7	20.6	0.00e+00	0	53	0	26738688	48	4692
2026-01-07 03:38:44.35	250.53	9.51	-38.4	-40.8	20.6	0.00e+00	0	53	0	29884416	48	4727
2026-01-07 03:38:47.38	250.10	9.79	-38.5	-40.9	20.5	0.00e+00	0	53	0	33554432	48	4782
2026-01-07 03:38:50.41	249.65	10.08	-38.3	-40.7	20.7	0.00e+00	0	53	0	36700160	48	4693
2026-01-07 03:38:53.43	249.20	10.36	-37.8	-40.0	21.4	0.00e+00	0	53	0	40370176	47	4546
2026-01-07 03:38:56.46	248.74	10.65	-37.5	-39.7	21.8	0.00e+00	0	53	0	43515904	46	4666
2026-01-07 03:38:59.49	248.26	10.94	-37.9	-40.1	21.4	0.00e+00	0	53	0	47185920	46	4902
2026-01-07 03:39:02.52	247.77	11.24	-37.8	-40.0	21.5	0.00e+00	0	53	0	50331648	46	4862
2026-01-07 03:39:05.55	247.26	11.54	-37.3	-39.4	22.1	0.00e+00	0	53	0	54001664	46	4507
2026-01-07 03:39:08.58	246.74	11.85	-37.2	-39.3	22.3	0.00e+00	0	53	0	57147392	46	4449
2026-01-07 03:39:11.60	246.21	12.16	-37.4	-39.5	22.0	0.00e+00	0	53	0	60817408	46	4563
2026-01-07 03:39:14.63	245.66	12.47	-37.2	-39.2	22.3	0.00e+00	0	54	0	63963136	46	4427
2026-01-07 03:39:17.67	245.09	12.79	-36.9	-38.8	22.7	0.00e+00	0	53	0	67633152	45	4486
2026-01-07 03:39:20.70	244.51	13.11	-37.4	-39.4	22.2	0.00e+00	0	53	0	70778880	45	4809
2026-01-07 03:39:23.73	243.91	13.43	-37.4	-39.5	22.1	0.00e+00	0	54	0	74448896	45	4818
2026-01-07 03:39:26.76	243.30	13.76	-36.8	-38.7	22.9	0.00e+00	0	54	0	77594624	45	4433
2026-01-07 03:39:29.79	242.66	14.09	-36.5	-38.4	23.3	0.00e+00	0	54	0	81264640	45	4245
2026-01-07 03:39:32.82	242.01	14.43	-36.7	-38.6	23.0	0.00e+00	0	54	0	84410368	44	4634
2026-01-07 03:39:35.85	241.34	14.76	-36.2	-38.0	23.6	0.00e+00	0	54	0	88080384	44	4316
2026-01-07 03:39:38.87	240.65	15.11	-36.5	-38.4	23.3	0.00e+00	0	54	0	91226112	44	4514
2026-01-07 03:39:41.90	239.94	15.45	-36.5	-38.3	23.3	0.00e+00	0	54	0	94896128	44	4488
2026-01-07 03:39:44.93	239.20	15.80	-36.1	-37.9	23.8	0.00e+00	0	54	0	98041856	44	4272
2026-01-07 03:39:47.96	238.45	16.15	-35.7	-37.4	23.9	0.00e+00	0	54	0	101711872	43	4278
2026-01-07 03:39:50.99	237.67	16.51	-35.4	-37.0	24.5	0.00e+00	0	54	0	104857600	42	4336
2026-01-07 03:39:54.02	236.87	16.87	-35.6	-37.3	24.2	0.00e+00	0	54	0	108527616	42	4481
2026-01-07 03:39:57.05	236.04	17.23	-35.5	-37.2	24.4	0.00e+00	0	54	0	111673344	42	4400
2026-01-07 03:40:00.08	235.19	17.59	-35.1	-36.7	24.8	0.00e+00	0	54	0	115343360	42	4157
2026-01-07 03:40:03.10	234.31	17.96	-34.9	-36.4	25.1	0.00e+00	0	54	0	118489088	41	4291
2026-01-07 03:40:06.13	233.41	18.32	-35.0	-36.6	24.9	0.00e+00	0	54	0	122159104	41	4373
2026-01-07 03:40:09.16	232.48	18.69	-34.8	-36.4	25.1	0.00e+00	0	55	0	125304832	41	4268
2026-01-07 03:40:12.19	231.52	19.06	-34.8	-36.3	25.3	0.00e+00	0	54	0	128974848	41	4221
2026-01-07 03:40:15.22	230.53	19.43	-34.7	-36.2	25.3	0.00e+00	0	55	0	132120576	41	4193
2026-01-07 03:40:18.25	229.51	19.80	-34.9	-36.5	25.2	0.00e+00	0	55	0	135790592	40	4557
2026-01-07 03:40:21.28	228.47	20.17	-34.6	-36.1	25.4	0.00e+00	0	55	0	138936320	40	4381
2026-01-07 03:40:24.31	227.39	20.53	-34.7	-36.2	25.4	0.00e+00	0	54	0	142606336	40	4423
2026-01-07 03:40:27.34	226.28	20.90	-34.8	-36.4	25.2	0.00e+00	0	54	0	145752064	40	4528
2026-01-07 03:40:30.37	225.14	21.26	-34.6	-36.1	25.5	0.00e+00	0	55	0	149422080	40	4359
2026-01-07 03:40:33.39	223.96	21.62	-34.1	-35.6	25.9	0.00e+00	0	55	0	152567808	40	4128
2026-01-07 03:40:36.43	222.75	21.97	-34.5	-36.1	25.6	0.00e+00	0	55	0	156237824	40	4348
2026-01-07 03:40:39.46	221.51	22.32	-34.5	-36.1	25.6	0.00e+00	0	55	0	159383552	40	4343
2026-01-07 03:40:42.49	220.24	22.67	-34.3	-35.8	25.8	0.00e+00	0	55	0	163053568	40	4213
2026-01-07 03:40:45.52	218.94	23.00	-34.1	-35.6	26.0	0.00e+00	0	55	0	166199296	40	4102
2026-01-07 03:40:48.55	217.60	23.33	-34.0	-35.5	26.2	0.00e+00	0	55	0	169869312	39	4292
2026-01-07 03:40:51.58	216.23	23.64	-34.0	-35.5	26.2	0.00e+00	0	55	0	173015040	39	4305
2026-01-07 03:40:54.61	214.82	23.95	-34.0	-35.4	26.3	0.00e+00	0	55	0	176685056	39	4277
2026-01-07 03:40:57.64	213.39	24.24	-33.7	-35.1	26.5	0.00e+00	0	55	0	179830784	39	4133
2026-01-07 03:41:00.67	211.92	24.52	-33.7	-35.1	26.6	0.00e+00	0	55	0	183500800	39	4109
2026-01-07 03:41:03.70	210.43	24.79	-33.3	-34.7	26.9	0.00e+00	0	55	0	186646528	38	4171
2026-01-07 03:41:06.73	208.90	25.04	-33.8	-35.3	26.3	0.00e+00	0	55	0	190316544	38	4448
2026-01-07 03:41:09.75	207.36	25.27	-33.8	-35.3	26.4	0.00e+00	0	55	0	193462272	38	4459
2026-01-07 03:41:12.78	205.78	25.49	-33.6	-35.0	26.7	0.00e+00	0	55	0	197132288	38	4309
2026-01-07 03:41:15.81	204.18	25.68	-33.6	-34.9	26.6	0.00e+00	0	55	0	200278016	38	4286
2026-01-07 03:41:18.84	202.56	25.86	-33.4	-34.8	26.8	0.00e+00	0	55	0	203948032	38	4226
2026-01-07 03:41:21.86	200.92	26.01	-33.6	-35.0	26.7	0.00e+00	0	55	0	207093760	38	4310
2026-01-07 03:41:24.89	199.26	26.15	-33.2	-34.6	27.1	0.00e+00	0	55	0	210763776	38	4105
2026-01-07 03:41:27.92	197.59	26.26	-33.3	-34.6	27.0	0.00e+00	0	55	0	213909504	38	4145
2026-01-07 03:41:30.95	195.90	26.34	-33.3	-34.6	27.0	0.00e+00	0	55	0	217579520	37	4390
2026-01-07 03:41:33.98	194.20	26.40	-34.0	-35.4	26.3	0.00e+00	0	55	0	220725248	38	4541
2026-01-07 03:41:37.01	192.50	26.44	-33.6	-35.1	26.6	0.00e+00	0	55	0	224395264	38	4351
2026-01-07 03:41:40.03	190.80	26.46	-34.0	-35.5	26.2	0.00e+00	0	55	0	227540992	38	4563
2026-01-07 03:41:43.06	189.10	26.44	-33.3	-34.7	27.0	0.00e+00	0	56	0	231211008	38	4150
2026-01-07 03:41:46.09	187.40	26.41	-33.6	-35.0	26.7	0.00e+00	0	56	0	234356736	38	4318
2026-01-07 03:41:49.11	185.71	26.35	-33.8	-35.2	26.4	0.00e+00	0	55	0	238026752	38	4427
2026-01-07 03:41:52.14	184.02	26.27	-33.9	-35.4	26.3	0.00e+00	0	55	0	241172480	38	4505
2026-01-07 03:41:55.17	182.35	26.16	-33.9	-35.4	26.2	0.00e+00	0	55	0	244842496	38	4514
2026-01-07 03:41:58.20	180.69	26.03	-33.6	-35.0	26.6	0.00e+00	0	55	0	247988224	38	4329
2026-01-07 03:42:01.23	179.04	25.87	-33.5	-34.9	26.7	0.00e+00	0	55	0	251658240	38	4271
2026-01-07 03:42:04.26	177.42	25.70	-33.8	-35.2	26.4	0.00e+00	0	55	0	254803968	38	4432
2026-01-07 03:42:07.29	175.81	25.51	-33.8	-35.2	26.4	0.00e+00	0	55	0	258473984	39	4192
2026-01-07 03:42:10.32	174.24	25.29	-33.6	-35.1	26.5	0.00e+00	0	56	0	261619712	37	4627
2026-01-07 03:42:13.35	172.68	25.06	-33.8	-35.3	26.5	0.00e+00	0	56	0	265289728	38	4444
2026-01-07 03:42:16.37	171.16	24.81	-34.0	-35.4	26.3	0.00e+00	0	56	0	268435456	38	4537
2026-01-07 03:42:19.40	169.66	24.55	-33.6	-35.0	26.7	0.00e+00	0	55	0	272105472	38	4321
2026-01-07 03:42:22.43	168.19	24.27	-34.0	-35.5	26.3	0.00e+00	0	55	0	275251200	38	4572
2026-01-07 03:42:25.46	166.75	23.98	-34.0	-35.5	26.2	0.00e+00	0	56	0	278921216	38	4561
2026-01-07 03:42:28.49	165.35	23.67	-33.7	-35.1	26.7	0.00e+00	0	56	0	282066944	38	4362
2026-01-07 03:42:31.52	163.97	23.36	-34.0	-35.5	26.3	0.00e+00	0	56	0	285736960	38	4568
2026-01-07 03:42:34.54	162.64	23.03	-34.0	-35.5	26.2	0.00e+00	0	56	0	288882688	39	4321
2026-01-07 03:42:37.57	161.33	22.70	-34.3	-35.8	26.0	0.00e+00	0	56	0	292552704	39	4480
2026-01-07 03:42:40.60	160.05	22.36	-34.0	-35.4	26.3	0.00e+00	0	56	0	295698432	39	4272
2026-01-07 03:42:43.63	158.81	22.01	-34.4	-35.9	25.8	0.00e+00	0	56	0	299368448	39	4524
2026-01-07 03:42:46.67	157.60	21.66	-34.6	-36.1	25.7	0.00e+00	0	56	0	302514176	39	4624
2026-01-07 03:42:49.69	156.42	21.30	-34.4	-35.9	25.7	0.00e+00	0	56	0	306184192	40	4270
2026-01-07 03:42:52.73	155.28	20.94	-34.5	-36.0	25.6	0.00e+00	0	56	0	309329920	40	4324
2026-01-07 03:42:55.75	154.17	20.57	-34.6	-36.1	25.5	0.00e+00	0	56	0	312999936	40	4363
2026-01-07 03:42:58.78	153.09	20.21	-34.9	-36.4	25.2	0.00e+00	0	56	0	316145664	40	4531
2026-01-07 03:43:01.81	152.03	19.84	-34.7	-36.2	25.3	0.00e+00	0	56	0	319815680	41	4183
2026-01-07 03:43:04.84	151.01	19.47	-34.9	-36.4	25.1	0.00e+00	0	56	0	322961408	41	4283
2026-01-07 03:43:07.87	150.02	19.10	-34.8	-36.4	25.1	0.00e+00	0	56	0	326631424	41	4276
2026-01-07 03:43:10.90	149.06	18.73	-35.2	-36.8	24.7	0.00e+00	0	56	0	329777152	41	4466
2026-01-07 03:43:13.93	148.13	18.36	-34.6	-36.2	25.3	0.00e+00	0	56	0	333447168	41	4153
2026-01-07 03:43:16.96	147.22	17.99	-35.2	-36.8	24.7	0.00e+00	0	56	0	336592896	41	4463
2026-01-07 03:43:19.99	146.34	17.63	-35.7	-37.4	24.0	0.00e+00	0	56	0	340262912	42	4541
2026-01-07 03:43:23.02	145.49	17.27	-35.2	-36.8	24.6	0.00e+00	0	56	0	343408640	42	4231
2026-01-07 03:43:26.05	144.66	16.90	-35.4	-37.1	24.4	0.00e+00	0	56	0	347078656	42	4341
2026-01-07 03:43:29.08	143.85	16.55	-35.3	-36.9	24.5	0.00e+00	0	56	0	350224384	42	4272
2026-01-07 03:43:32.10	143.08	16.19	-35.6	-37.4	24.0	0.00e+00	0	56	0	353894400	42	4497
2026-01-07 03:43:35.14	142.31	15.84	-36.1	-37.9	23.4	0.00e+00	0	56	0	357040128	42	4812
2026-01-07 03:43:38.16	141.58	15.49	-35.9	-37.6	23.7	0.00e+00	0	56	0	360710144	42	4644
2026-01-07 03:43:41.19	140.87	15.14	-36.1	-37.9	23.4	0.00e+00	0	56	0	363855872	42	4773
2026-01-07 03:43:44.22	140.17	14.80	-36.0	-37.8	23.5	0.00e+00	0	56	0	367525888	42	4724
2026-01-07 03:43:47.25	139.50	14.46	-36.5	-38.4	22.8	0.00e+00	0	56	0	370671616	43	4779
2026-01-07 03:43:50.28	138.85	14.13	-36.3	-38.2	23.0	0.00e+00	0	56	0	374341632	43	4679
2026-01-07 03:43:53.31	138.21	13.79	-35.9	-38.3	22.7	0.00e+00	0	56	0	377487360	42	5011
2026-01-07 03:43:56.33	137.59	13.47	-37.0	-39.0	22.3	0.00e+00	0	56	0	381157376	44	4838
2026-01-07 03:43:59.36	136.99	13.14	-37.3	-39.6	21.4	2.05e-05	0	56	0	384303104	45	4880
2026-01-07 03:44:02.40	136.41	12.82	-37.2	-39.4	21.0	7.66e-05	0	56	0	387973120	44	5050
2026-01-07 03:44:05.43	135.84	12.50	-36.7	-38.8	21.2	7.51e-04	0	56	0	391118848	43	5036
2026-01-07 03:44:08.46	135.29	12.19	-35.1	-39.2	15.5	1.56e-02	0	56	0	394788864	40	6250
2026-01-07 03:44:11.49	134.76	11.88	-36.8	-40.1	15.2	1.32e-02	0	56	0	397934592	44	5505
2026-01-07 03:44:14.52	134.23	11.58	-33.6	-39.9	15.3	1.13e-02	0	56	0	401604608	40	6797
2026-01-07 03:44:17.54	133.73	11.28	-32.2	-39.3	14.2	2.04e-01	0	56	0	404226048	35	8454
2026-01-07 03:44:20.57	133.24	10.98	-29.6	-37.8	12.1	7.77e-02	0	56	0	407896064	27	11285
2026-01-07 03:44:23.60	132.75	10.69	-28.8	-41.6	9.0	1.32e-01	0	56	0	411041792	30	14696
2026-01-07 03:44:26.63	132.29	10.39	-28.2	-47.3	4.8	5.50e-01	0	56	104	412090368	29	29791
2026-01-07 03:44:29.66	131.83	10.11	-25.6	-51.0	4.1	8.31e-01	0	56	104	412090368	29	45586
2026-01-07 03:44:32.69	131.39	9.83	-29.1	-50.8	4.3	8.33e-01	0	56	104	412090368	30	42056
2026-01-07 03:44:35.72	130.96	9.55	-26.4	-47.7	3.9	8.27e-01	0	56	104	412090368	24	41664
2026-01-07 03:44:38.75	130.54	9.27	-25.8	-47.7	3.8	8.19e-01	0	56	104	412090368	25	39192
2026-01-07 03:44:41.78	130.13	9.00	-27.7	-45.5	3.6	8.13e-01	0	56	104	412090368	19	42932
2026-01-07 03:44:44.80	129.73	8.73	-26.7	-47.4	3.9	8.00e-01	0	56	0	412090368	25	38045
2026-01-07 03:44:47.83	129.34	8.46	-20.4	-43.6	3.6	8.06e-01	0	56	104	412090368	13	49197
2026-01-07 03:44:50.86	128.96	8.20	-15.4	-39.0	3.8	8.10e-01	0	56	104	412090368	3	51478
2026-01-07 03:44:53.89	128.59	7.94	-28.5	-53.7	4.0	8.13e-01	0	56	104	412090368	30	58931
2026-01-07 03:44:56.92	128.22	7.68	-44.9	-63.2	3.8	8.47e-01	0	56	104	412090368	60	31438
2026-01-07 03:44:59.95	127.87	7.43	-45.3	-63.6	3.8	8.46e-01	0	56	104	412090368	61	30874
2026-01-07 03:45:02.99	127.53	7.18	-45.5	-63.8	3.8	8.46e-01	0	56	104	412090368	61	31447
2026-01-07 03:45:06.02	127.19	6.93	-45.2	-63.6	3.8	8.46e-01	0	56	104	412090368	61	30873
2026-01-07 03:45:09.05	126.86	6.69	-45.2	-63.6	3.8	8.46e-01	0	56	104	412090368	61	30994
2026-01-07 03:45:12.09	126.54	6.44	-45.1	-63.6	3.8	8.46e-01	0	57	104	412090368	61	30852
2026-01-07 03:45:15.11	126.23	6.20	-45.1	-63.6	3.8	8.46e-01	0	56	104	412090368	61	30788
2026-01-07 03:45:18.15	125.92	5.97	-45.1	-63.5	3.8	8.46e-01	0	56	104	412090368	61	30719
2026-01-07 03:45:21.18	125.62	5.73	-45.1	-63.5	3.8	8.47e-01	0	56	104	412090368	61	30728
2026-01-07 03:45:24.21	125.33	5.50	-45.1	-63.5	3.8	8.46e-01	0	56	104	412090368	61	30689
2026-01-07 03:45:27.24	125.04	5.27	-45.1	-63.5	3.8	8.47e-01	0	56	104	412090368	61	30693
2026-01-07 03:45:30.27	124.76	5.05	-45.1	-63.5	3.8	8.45e-01	0	56	104	412090368	61	30611
2026-01-07 03:45:33.30	124.49	4.82	-45.1	-63.5	3.8	8.46e-01	0	56	104	412090368	61	30599
2026-01-07 03:45:36.34	124.22	4.60	-45.0	-63.5	3.8	8.47e-01	0	57	104	412090368	61	30554
2026-01-07 03:45:39.37	123.96	4.38	-45.0	-63.5	3.8	8.46e-01	0	57	104	412090368	60	32322
2026-01-07 03:45:42.40	123.70	4.16	-45.0	-63.5	3.8	8.46e-01	0	57	104	412090368	60	32430
2026-01-07 03:45:45.44	123.45	3.95	-45.0	-63.5	3.8	8.46e-01	0	57	104	412090368	60	32203
2026-01-07 03:45:48.47	123.21	3.74	-45.0	-63.5	3.8	8.46e-01	0	56	104	412090368	60	32368
2026-01-07 03:45:51.50	122.97	3.53	-45.0	-63.5	3.8	8.46e-01	0	57	104	412090368	60	32366
2026-01-07 03:45:54.54	122.73	3.32	-45.0	-63.5	3.8	8.46e-01	0	57	104	412090368	60	32312
2026-01-07 03:45:57.57	122.50	3.11	-45.0	-63.5	3.8	8.46e-01	0	57	104	412090368	60	32271
2026-01-07 03:46:00.60	122.27	2.90	-45.0	-63.5	3.8	8.46e-01	0	57	104	412090368	60	32259
2026-01-07 03:46:03.64	122.05	2.70	-45.0	-63.5	3.8	8.45e-01	0	57	104	412090368	60	32185
2026-01-07 03:46:06.67	121.83	2.50	-45.0	-63.5	3.8	8.46e-01	0	57	104	412090368	60	32275
2026-01-07 03:46:09.70	121.62	2.30	-45.0	-63.4	3.8	8.46e-01	0	57	104	412090368	60	32144
2026-01-07 03:46:12.73	121.41	2.10	-45.0	-63.5	3.8	8.46e-01	0	57	104	412090368	60	32199

#Closed at: 2026-01-07 03:46:14
#Recorded file [412 MB]: D:/lorett/data/31039_260107_063707.dat