passes_logs/2026/01/07/R2.0S_Moscow/R2.0S_Moscow__20260107_083545_SUOMI_NPP_rec.log

#Pass ID: 20260107_083545_SUOMI NPP
#Satellite: SUOMI NPP
#Configuration: NPP
#almurnet v.1.7.20251203
#Start time: 2026-01-07 08:35:47

#Version: 2.2.20231116
#Station: R2.0S_Moscow
#Location: 37.707566 lon 55.798166 lat
#TLE: 1 37849U 11061A   26005.94084933  .00000134  00000+0  84554-4 0  9990
#TLE: 2 37849  98.7803 308.0679 0002567  79.1029 281.0436 14.19522657735426

#Time	Az	El	Level	Level2	SNR	BER	BlckErr	Temp	State	Recorded	gain1	gain2
2026-01-07 08:35:47.95	119.64	2.14	-24.5	-45.2	4.0	1.50e+00	0	46	0	0	19	41464
2026-01-07 08:35:51.99	119.41	2.38	-20.7	-37.7	3.6	1.50e+00	0	47	104	0	3	44317
2026-01-07 08:35:56.03	119.18	2.62	-19.9	-41.6	3.7	1.50e+00	0	47	0	0	16	32594
2026-01-07 08:36:00.07	118.94	2.86	-21.3	-38.5	3.9	1.50e+00	0	48	104	0	9	34124
2026-01-07 08:36:04.12	118.69	3.11	-21.3	-43.3	3.9	1.50e+00	0	48	104	0	17	37737
2026-01-07 08:36:08.16	118.44	3.35	-15.5	-34.8	3.7	1.50e+00	0	48	104	0	6	26501
2026-01-07 08:36:12.20	118.19	3.60	-22.3	-38.3	3.8	1.50e+00	0	49	0	0	9	33552
2026-01-07 08:36:16.24	117.93	3.85	-23.5	-41.9	2.8	1.49e+00	0	49	104	0	8	53627
2026-01-07 08:36:20.29	117.67	4.10	-22.9	-43.0	3.1	1.50e+00	0	49	104	0	12	48380
2026-01-07 08:36:24.33	117.40	4.35	-18.9	-40.2	4.2	1.50e+00	0	49	104	0	11	37357
2026-01-07 08:36:28.38	117.13	4.60	-17.5	-38.1	3.7	1.50e+00	0	50	104	0	9	32749
2026-01-07 08:36:32.42	116.85	4.86	-15.8	-35.2	4.1	1.50e+00	0	50	104	0	7	26348
2026-01-07 08:36:36.46	116.57	5.12	-21.3	-42.7	3.9	1.49e+00	0	50	104	0	18	33057
2026-01-07 08:36:40.50	116.28	5.38	-24.6	-45.7	4.3	1.50e+00	0	50	104	0	18	46564
2026-01-07 08:36:44.55	115.99	5.64	-23.2	-44.4	3.8	1.50e+00	0	50	104	0	18	40374
2026-01-07 08:36:48.59	115.69	5.90	-19.7	-40.9	4.9	1.50e+00	0	51	0	0	18	26876
2026-01-07 08:36:52.64	115.39	6.17	-20.9	-42.5	4.0	1.50e+00	0	51	104	0	17	34342
2026-01-07 08:36:56.68	115.08	6.43	-23.1	-43.7	3.8	1.49e+00	0	51	104	0	16	41710
2026-01-07 08:37:00.72	114.76	6.70	-22.2	-44.1	3.9	1.50e+00	0	51	104	0	16	43813
2026-01-07 08:37:04.75	114.44	6.97	-23.1	-44.5	4.1	1.50e+00	0	51	104	0	20	36395
2026-01-07 08:37:08.80	114.11	7.25	-23.1	-45.2	3.8	1.50e+00	0	51	104	0	18	44135
2026-01-07 08:37:12.84	113.78	7.52	-19.6	-40.8	3.8	1.50e+00	0	52	104	0	16	29952
2026-01-07 08:37:16.88	113.44	7.80	-24.1	-43.9	4.8	1.47e+00	0	52	0	0	21	32029
2026-01-07 08:37:20.92	113.09	8.08	-43.3	-58.4	3.8	1.49e+00	0	52	104	0	57	21445
2026-01-07 08:37:24.96	112.74	8.36	-20.2	-40.0	4.2	1.45e+00	0	52	104	0	15	28900
2026-01-07 08:37:28.99	112.38	8.64	-20.1	-39.0	3.8	1.50e+00	0	52	104	0	11	32427
2026-01-07 08:37:33.03	112.01	8.93	-28.1	-45.8	3.9	1.47e+00	0	52	104	0	22	37454
2026-01-07 08:37:37.07	111.63	9.21	-30.4	-46.0	4.4	1.47e+00	0	53	104	0	31	22791
2026-01-07 08:37:41.11	111.25	9.50	-37.4	-50.2	4.5	1.46e+00	0	52	104	0	41	21003
2026-01-07 08:37:45.15	110.86	9.79	-39.7	-49.2	6.4	4.18e-01	0	53	0	3145728	50	11056
2026-01-07 08:37:49.19	110.46	10.09	-35.7	-48.1	5.9	4.94e-01	0	53	0	10485760	48	10946
2026-01-07 08:37:53.22	110.05	10.38	-39.5	-49.2	6.6	2.97e-01	0	53	0	17825792	50	11129
2026-01-07 08:37:57.26	109.63	10.68	-38.8	-46.6	9.6	4.60e-02	0	53	0	26214400	50	8208
2026-01-07 08:38:01.30	109.21	10.98	-40.8	-46.5	10.0	2.11e-02	0	53	0	33554432	52	7215
2026-01-07 08:38:05.34	108.78	11.28	-40.9	-46.1	10.5	9.86e-03	0	53	0	40894464	52	6930
2026-01-07 08:38:09.38	108.33	11.59	-39.7	-44.4	12.3	1.22e-03	0	53	0	48234496	52	5677
2026-01-07 08:38:13.42	107.88	11.90	-40.6	-45.2	11.8	1.26e-03	0	54	0	55574528	52	6228
2026-01-07 08:38:17.46	107.42	12.20	-40.0	-44.4	12.2	9.91e-05	0	54	0	63963136	51	6007
2026-01-07 08:38:21.50	106.94	12.51	-41.0	-45.3	11.6	1.45e-03	0	54	0	71303168	52	6285
2026-01-07 08:38:25.53	106.46	12.83	-41.1	-45.5	11.5	2.95e-03	0	54	0	78643200	53	6107
2026-01-07 08:38:29.57	105.97	13.14	-37.2	-44.3	11.7	7.56e-03	0	54	0	85983232	50	6331
2026-01-07 08:38:33.61	105.46	13.46	-39.3	-44.4	12.6	2.82e-04	0	54	0	94371840	51	6001
2026-01-07 08:38:37.65	104.95	13.78	-40.0	-43.3	14.0	2.05e-05	0	54	0	101711872	51	5284
2026-01-07 08:38:41.69	104.42	14.10	-39.4	-43.5	13.4	4.23e-04	0	54	0	109051904	51	5437
2026-01-07 08:38:45.73	103.88	14.42	-40.1	-43.0	14.3	3.05e-05	0	54	0	116391936	50	5446
2026-01-07 08:38:49.77	103.33	14.74	-40.6	-43.9	13.4	1.75e-05	0	54	0	123731968	51	5684
2026-01-07 08:38:53.80	102.77	15.07	-40.1	-43.0	14.4	2.20e-06	0	54	0	132120576	51	5142
2026-01-07 08:38:57.84	102.19	15.39	-40.3	-43.3	14.2	0.00e+00	0	54	0	139460608	51	5283
2026-01-07 08:39:01.87	101.61	15.72	-40.0	-42.8	14.6	1.50e-06	0	54	0	146800640	51	5032
2026-01-07 08:39:05.91	101.00	16.05	-40.4	-43.7	13.8	6.10e-06	0	54	0	154140672	51	5537
2026-01-07 08:39:09.95	100.39	16.38	-40.3	-43.3	14.3	7.00e-07	0	54	0	162529280	51	5296
2026-01-07 08:39:13.99	99.76	16.71	-40.8	-44.1	13.4	2.28e-05	0	54	0	169869312	52	5482
2026-01-07 08:39:18.03	99.12	17.05	-41.0	-44.5	13.0	3.96e-05	0	55	0	177209344	52	5738
2026-01-07 08:39:22.07	98.46	17.38	-40.8	-44.2	13.3	1.75e-05	0	55	0	184549376	52	5539
2026-01-07 08:39:26.11	97.78	17.71	-41.0	-44.5	13.0	3.05e-05	0	55	0	191889408	52	5776
2026-01-07 08:39:30.15	97.10	18.05	-40.7	-43.9	13.7	1.50e-06	0	55	0	200278016	52	5355
2026-01-07 08:39:34.19	96.39	18.38	-40.5	-43.6	14.0	3.00e-06	0	55	0	207618048	52	5179
2026-01-07 08:39:38.23	95.67	18.72	-40.2	-43.1	14.4	1.50e-06	0	55	0	214958080	52	4900
2026-01-07 08:39:42.27	94.94	19.05	-41.1	-44.5	13.0	1.60e-05	0	55	0	222298112	52	5775
2026-01-07 08:39:46.31	94.18	19.39	-40.6	-43.8	13.8	3.00e-06	0	55	0	230686720	52	5291
2026-01-07 08:39:50.35	93.42	19.72	-40.3	-43.2	14.3	5.30e-06	0	55	0	238026752	52	4954
2026-01-07 08:39:54.39	92.63	20.05	-40.5	-43.7	13.7	1.50e-06	0	55	0	245366784	52	5236
2026-01-07 08:39:58.43	91.83	20.38	-40.6	-43.8	13.5	8.30e-06	0	55	0	252706816	52	5335
2026-01-07 08:40:02.47	91.01	20.71	-40.2	-43.3	14.0	3.00e-06	0	55	0	260046848	52	5002
2026-01-07 08:40:06.51	90.17	21.04	-39.9	-42.8	14.5	0.00e+00	0	55	0	268435456	51	4992
2026-01-07 08:40:10.55	89.31	21.36	-39.9	-42.9	14.3	1.50e-06	0	55	0	275775488	51	5067
2026-01-07 08:40:14.59	88.44	21.68	-39.9	-42.8	14.3	0.00e+00	0	55	0	283115520	51	5018
2026-01-07 08:40:18.63	87.54	22.00	-39.6	-42.3	14.7	7.00e-07	0	55	0	290455552	51	4745
2026-01-07 08:40:22.66	86.63	22.32	-39.7	-42.4	14.7	0.00e+00	0	55	0	298844160	50	5090
2026-01-07 08:40:26.70	85.70	22.63	-39.7	-42.4	14.9	0.00e+00	0	55	0	306184192	50	5054
2026-01-07 08:40:30.74	84.76	22.93	-39.1	-41.5	15.9	0.00e+00	0	55	0	313524224	50	4573
2026-01-07 08:40:34.78	83.79	23.23	-39.3	-41.6	15.9	0.00e+00	0	55	0	320864256	50	4650
2026-01-07 08:40:38.82	82.80	23.53	-39.2	-41.6	15.9	0.00e+00	0	55	0	328204288	50	4650
2026-01-07 08:40:42.85	81.80	23.82	-39.1	-41.5	16.1	0.00e+00	0	55	0	336592896	49	4856
2026-01-07 08:40:46.89	80.78	24.10	-40.0	-42.8	14.8	0.00e+00	0	55	0	343932928	50	5340
2026-01-07 08:40:50.93	79.73	24.38	-39.8	-42.5	15.2	7.00e-07	0	55	0	351272960	50	5131
2026-01-07 08:40:54.97	78.67	24.64	-39.4	-42.0	15.7	0.00e+00	0	56	0	358612992	50	4817
2026-01-07 08:40:59.01	77.60	24.90	-39.3	-41.8	15.9	0.00e+00	0	55	0	367001600	50	4718
2026-01-07 08:41:03.05	76.50	25.15	-39.0	-41.3	16.4	0.00e+00	0	56	0	374341632	50	4472
2026-01-07 08:41:07.08	75.39	25.40	-38.8	-41.0	16.8	0.00e+00	0	55	0	381681664	49	4548
2026-01-07 08:41:11.12	74.26	25.63	-39.3	-41.8	15.9	0.00e+00	0	56	0	389021696	49	5003
2026-01-07 08:41:15.16	73.11	25.85	-39.6	-42.2	15.6	0.00e+00	0	55	0	396361728	49	5264
2026-01-07 08:41:19.20	71.95	26.06	-39.5	-42.1	15.7	0.00e+00	0	55	0	404750336	49	5181
2026-01-07 08:41:23.23	70.78	26.26	-39.9	-42.5	15.3	0.00e+00	0	56	0	412090368	50	5151
2026-01-07 08:41:27.27	69.59	26.44	-40.5	-43.5	14.4	0.00e+00	0	55	0	419430400	51	5422
2026-01-07 08:41:31.31	68.38	26.62	-40.3	-43.2	14.7	7.00e-07	0	56	0	426770432	51	5242
2026-01-07 08:41:35.35	67.16	26.78	-40.4	-43.4	14.5	0.00e+00	0	56	0	435159040	51	5368
2026-01-07 08:41:39.39	65.94	26.93	-40.9	-44.4	13.4	9.90e-06	0	56	0	442499072	52	5661
2026-01-07 08:41:43.43	64.70	27.06	-40.6	-43.8	14.0	1.50e-06	0	56	0	449839104	52	5315
2026-01-07 08:41:47.47	63.45	27.18	-40.7	-44.0	13.9	7.00e-07	0	56	0	457179136	52	5412
2026-01-07 08:41:51.50	62.19	27.29	-40.2	-43.3	14.6	7.00e-07	0	56	0	464519168	52	4985
2026-01-07 08:41:55.54	60.92	27.38	-40.3	-43.3	14.6	0.00e+00	0	56	0	472907776	51	5301
2026-01-07 08:41:59.58	59.65	27.45	-41.0	-44.5	13.3	2.44e-05	0	56	0	480247808	52	5771
2026-01-07 08:42:03.62	58.37	27.51	-40.8	-44.2	13.6	9.90e-06	0	56	0	487587840	53	5255
2026-01-07 08:42:07.66	57.09	27.55	-39.9	-42.6	15.4	0.00e+00	0	56	0	494927872	51	4886
2026-01-07 08:42:11.70	55.80	27.58	-40.4	-43.4	14.6	7.00e-07	0	56	0	503316480	51	5365
2026-01-07 08:42:15.74	54.52	27.59	-40.2	-43.0	14.9	0.00e+00	0	56	0	510656512	51	5141
2026-01-07 08:42:19.78	53.23	27.59	-39.9	-42.5	15.5	0.00e+00	0	56	0	517996544	51	4833
2026-01-07 08:42:23.82	51.95	27.57	-40.4	-43.3	14.7	0.00e+00	0	56	0	525336576	51	5285
2026-01-07 08:42:27.86	50.66	27.53	-40.4	-43.4	14.6	1.50e-06	0	56	0	532676608	52	5043
2026-01-07 08:42:31.90	49.38	27.48	-39.2	-41.4	16.6	0.00e+00	0	56	0	541065216	50	4516
2026-01-07 08:42:35.94	48.11	27.41	-39.8	-42.4	15.6	0.00e+00	0	56	0	548405248	50	5082
2026-01-07 08:42:39.98	46.84	27.33	-39.5	-41.9	16.1	0.00e+00	0	56	0	555745280	50	4787
2026-01-07 08:42:44.02	45.58	27.23	-40.1	-42.7	15.3	0.00e+00	0	56	0	563085312	50	5278
2026-01-07 08:42:48.05	44.33	27.11	-39.9	-42.4	15.7	0.00e+00	0	56	0	571473920	50	5078
2026-01-07 08:42:52.09	43.09	26.99	-40.5	-43.4	14.6	0.00e+00	0	56	0	578813952	52	5096
2026-01-07 08:42:56.13	41.86	26.84	-40.1	-42.6	15.4	7.00e-07	0	56	0	586153984	52	4639
2026-01-07 08:43:00.17	40.64	26.69	-40.0	-42.5	15.5	0.00e+00	0	56	0	593494016	51	4867
2026-01-07 08:43:04.20	39.43	26.52	-39.9	-42.4	15.7	0.00e+00	0	56	0	600834048	51	4763
2026-01-07 08:43:08.24	38.24	26.34	-40.6	-43.4	14.7	0.00e+00	0	56	0	609222656	51	5389
2026-01-07 08:43:12.28	37.06	26.15	-40.9	-44.1	14.0	7.60e-06	0	56	0	616562688	52	5474
2026-01-07 08:43:16.32	35.89	25.94	-41.1	-44.5	13.5	9.10e-06	0	56	0	623902720	53	5433
2026-01-07 08:43:20.36	34.74	25.72	-41.1	-44.5	13.4	1.22e-05	0	56	0	631242752	53	5460
2026-01-07 08:43:24.39	33.61	25.50	-40.7	-43.9	14.1	3.00e-06	0	56	0	639631360	53	5046
2026-01-07 08:43:28.43	32.49	25.26	-40.4	-43.4	14.5	0.00e+00	0	56	0	646971392	52	5065
2026-01-07 08:43:32.47	31.40	25.01	-40.1	-42.8	15.2	0.00e+00	0	56	0	654311424	51	5022
2026-01-07 08:43:36.51	30.31	24.76	-40.4	-43.5	14.6	7.00e-07	0	56	0	661651456	51	5405
2026-01-07 08:43:40.55	29.25	24.50	-40.7	-44.0	13.9	1.50e-06	0	56	0	668991488	52	5427
2026-01-07 08:43:44.59	28.20	24.22	-40.8	-44.2	13.8	1.14e-05	0	56	0	677380096	52	5537
2026-01-07 08:43:48.62	27.18	23.95	-40.4	-43.5	14.4	0.00e+00	0	56	0	684720128	52	5147
2026-01-07 08:43:52.66	26.17	23.66	-40.6	-43.7	14.2	2.20e-06	0	56	0	692060160	52	5266
2026-01-07 08:43:56.70	25.18	23.37	-40.0	-42.6	15.3	0.00e+00	0	56	0	699400192	51	4924
2026-01-07 08:44:00.74	24.21	23.07	-39.7	-42.3	15.7	0.00e+00	0	56	0	707788800	51	4737
2026-01-07 08:44:04.78	23.26	22.77	-39.6	-42.2	15.8	0.00e+00	0	56	0	715128832	51	4669
2026-01-07 08:44:08.82	22.32	22.46	-39.4	-41.8	16.1	0.00e+00	0	56	0	722468864	50	4753
2026-01-07 08:44:12.85	21.41	22.15	-38.7	-40.9	17.0	0.00e+00	0	56	0	729808896	49	4512
2026-01-07 08:44:16.89	20.51	21.83	-39.5	-42.0	15.9	0.00e+00	0	56	0	737148928	49	5149
2026-01-07 08:44:20.93	19.63	21.52	-40.0	-42.7	15.2	0.00e+00	0	56	0	745537536	50	5273
2026-01-07 08:44:24.97	18.77	21.19	-39.7	-42.3	15.6	0.00e+00	0	56	0	752877568	50	4986
2026-01-07 08:44:29.01	17.93	20.87	-39.6	-42.2	15.8	0.00e+00	0	56	0	760217600	50	4931
2026-01-07 08:44:33.04	17.11	20.54	-38.6	-40.7	17.2	0.00e+00	0	56	0	767557632	49	4424
2026-01-07 08:44:37.08	16.30	20.21	-38.8	-40.9	17.0	0.00e+00	0	56	0	774897664	48	4814
2026-01-07 08:44:41.12	15.51	19.88	-38.9	-41.2	16.8	0.00e+00	0	56	0	783286272	48	4927
2026-01-07 08:44:45.16	14.74	19.55	-39.0	-41.3	16.6	0.00e+00	0	56	0	790626304	48	5006
2026-01-07 08:44:49.20	13.99	19.22	-39.2	-41.5	16.4	0.00e+00	0	56	0	797966336	49	4842
2026-01-07 08:44:53.24	13.25	18.89	-39.5	-42.0	16.0	0.00e+00	0	56	0	805306368	49	5107
2026-01-07 08:44:57.28	12.53	18.56	-39.1	-41.4	16.5	0.00e+00	0	56	0	813694976	49	4791
2026-01-07 08:45:01.32	11.82	18.22	-38.9	-41.1	16.7	0.00e+00	0	56	0	821035008	49	4615
2026-01-07 08:45:05.35	11.13	17.89	-39.8	-42.5	15.4	0.00e+00	0	56	0	828375040	50	5110
2026-01-07 08:45:09.39	10.46	17.56	-39.8	-42.5	15.4	0.00e+00	0	57	0	835715072	50	5112
2026-01-07 08:45:13.43	9.80	17.22	-39.6	-42.1	15.7	0.00e+00	0	56	0	843055104	50	4893
2026-01-07 08:45:17.47	9.15	16.89	-39.7	-42.4	15.4	0.00e+00	0	56	0	851443712	50	5044
2026-01-07 08:45:21.51	8.52	16.56	-40.3	-43.3	14.4	0.00e+00	0	56	0	858783744	51	5300
2026-01-07 08:45:25.55	7.90	16.23	-40.2	-43.1	14.6	3.00e-06	0	56	0	866123776	51	5176
2026-01-07 08:45:29.59	7.30	15.90	-39.6	-42.2	15.4	0.00e+00	0	56	0	873463808	50	4959
2026-01-07 08:45:33.63	6.71	15.58	-40.1	-43.1	14.4	0.00e+00	0	56	0	881852416	50	5478
2026-01-07 08:45:37.67	6.13	15.25	-40.0	-42.9	14.5	0.00e+00	0	56	0	889192448	51	5100
2026-01-07 08:45:41.71	5.57	14.92	-39.6	-42.4	14.9	0.00e+00	0	56	0	896532480	50	5049
2026-01-07 08:45:45.75	5.02	14.60	-39.4	-42.2	14.7	0.00e+00	0	56	0	903872512	50	4980
2026-01-07 08:45:49.78	4.48	14.28	-39.4	-42.5	14.2	7.00e-07	0	56	0	911212544	50	5148
2026-01-07 08:45:53.82	3.95	13.96	-39.4	-42.6	13.8	9.10e-06	0	56	0	919601152	50	5210
2026-01-07 08:45:57.86	3.43	13.64	-38.9	-42.0	14.1	3.00e-06	0	56	0	926941184	49	5111
2026-01-07 08:46:01.90	2.93	13.33	-40.0	-44.7	10.6	9.47e-04	0	56	0	934281216	50	6640
2026-01-07 08:46:05.94	2.43	13.01	-40.8	-49.7	5.4	4.48e-01	0	56	0	941621248	52	10448
2026-01-07 08:46:09.98	1.95	12.70	-40.7	-53.9	3.8	1.49e+00	0	56	104	944766976	52	16987
2026-01-07 08:46:14.02	1.48	12.39	-40.1	-54.6	3.8	1.49e+00	0	56	104	944766976	52	18402
2026-01-07 08:46:18.06	1.01	12.08	-40.4	-54.9	3.8	1.49e+00	0	56	104	944766976	52	18969
2026-01-07 08:46:22.10	0.56	11.78	-40.0	-54.5	3.8	1.49e+00	0	56	104	944766976	52	18257
2026-01-07 08:46:26.14	0.12	11.47	-40.1	-54.7	3.8	1.49e+00	0	56	104	944766976	51	19693
2026-01-07 08:46:30.18	359.68	11.17	-39.8	-54.5	3.8	1.49e+00	0	57	104	944766976	51	19243
2026-01-07 08:46:34.21	359.26	10.87	-39.8	-54.5	3.8	1.49e+00	0	56	104	944766976	51	19260
2026-01-07 08:46:38.25	358.84	10.57	-39.5	-54.3	3.8	1.49e+00	0	56	104	944766976	51	18761
2026-01-07 08:46:42.29	358.44	10.28	-39.5	-54.4	3.8	1.49e+00	0	56	104	944766976	50	20183
2026-01-07 08:46:46.33	358.04	9.98	-39.3	-54.4	3.8	1.49e+00	0	56	104	944766976	50	20111
2026-01-07 08:46:50.37	357.65	9.69	-39.6	-54.4	3.8	1.49e+00	0	57	104	944766976	50	20251
2026-01-07 08:46:54.41	357.26	9.40	-39.0	-54.3	3.8	1.49e+00	0	57	104	944766976	49	21177
2026-01-07 08:46:58.45	356.89	9.11	-39.0	-54.3	3.8	1.49e+00	0	57	104	944766976	49	21177
2026-01-07 08:47:02.49	356.52	8.83	-39.6	-54.3	3.8	1.49e+00	0	56	104	944766976	49	21116
2026-01-07 08:47:06.53	356.16	8.55	-39.5	-54.3	3.8	1.49e+00	0	56	104	944766976	50	20000
2026-01-07 08:47:10.57	355.81	8.26	-39.8	-54.5	3.8	1.49e+00	0	57	104	944766976	50	20378
2026-01-07 08:47:14.61	355.46	7.99	-39.3	-54.3	3.8	1.49e+00	0	56	104	944766976	50	19971
2026-01-07 08:47:18.65	355.12	7.71	-45.0	-59.7	3.8	1.49e+00	0	56	104	944766976	60	21006
2026-01-07 08:47:22.70	354.79	7.43	-45.2	-60.0	3.8	1.49e+00	0	57	104	944766976	61	20370
2026-01-07 08:47:26.74	354.46	7.16	-44.8	-59.9	3.8	1.49e+00	0	56	104	944766976	60	21396
2026-01-07 08:47:30.78	354.15	6.89	-45.1	-59.9	3.8	1.49e+00	0	57	104	944766976	60	21359
2026-01-07 08:47:34.82	353.83	6.62	-45.0	-59.9	3.8	1.49e+00	0	57	104	944766976	60	21295
2026-01-07 08:47:38.87	353.52	6.35	-45.0	-59.9	3.8	1.49e+00	0	57	104	944766976	60	21325
2026-01-07 08:47:42.91	353.22	6.09	-45.0	-59.8	3.8	1.49e+00	0	57	104	944766976	60	21245
2026-01-07 08:47:46.95	352.93	5.82	-45.0	-59.8	3.8	1.49e+00	0	57	104	944766976	60	21246
2026-01-07 08:47:51.00	352.64	5.56	-45.0	-59.9	3.8	1.49e+00	0	57	104	944766976	60	21284
2026-01-07 08:47:55.04	352.35	5.30	-45.0	-59.8	3.8	1.49e+00	0	57	104	944766976	60	21226
2026-01-07 08:47:59.08	352.07	5.05	-45.0	-59.8	3.8	1.49e+00	0	57	104	944766976	60	21196
2026-01-07 08:48:03.13	351.80	4.79	-45.0	-59.8	3.8	1.49e+00	0	57	104	944766976	60	21216
2026-01-07 08:48:07.17	351.53	4.54	-45.0	-59.8	3.8	1.49e+00	0	57	104	944766976	60	21118
2026-01-07 08:48:11.21	351.26	4.28	-45.0	-59.8	3.8	1.49e+00	0	57	104	944766976	60	21119
2026-01-07 08:48:15.25	351.00	4.03	-45.0	-59.8	3.8	1.49e+00	0	57	104	944766976	60	21151
2026-01-07 08:48:19.29	350.75	3.78	-45.0	-59.8	3.8	1.49e+00	0	57	104	944766976	60	21151
2026-01-07 08:48:23.34	350.50	3.54	-45.0	-59.8	3.8	1.49e+00	0	57	104	944766976	60	21083
2026-01-07 08:48:27.38	350.25	3.29	-45.0	-59.8	3.8	1.49e+00	0	57	104	944766976	60	21187
2026-01-07 08:48:31.42	350.01	3.05	-45.0	-59.8	3.8	1.49e+00	0	57	104	944766976	60	21146
2026-01-07 08:48:35.47	349.77	2.81	-45.0	-59.8	3.8	1.49e+00	0	57	104	944766976	60	21134
2026-01-07 08:48:39.51	349.54	2.57	-45.0	-59.8	3.8	1.49e+00	0	57	104	944766976	60	21127
2026-01-07 08:48:43.55	349.31	2.33	-45.0	-59.8	3.8	1.49e+00	0	57	104	944766976	60	21158
2026-01-07 08:48:47.59	349.08	2.09	-45.0	-59.8	3.8	1.49e+00	0	57	104	944766976	60	21124

#Closed at: 2026-01-07 08:48:50
#Recorded file [944 MB]: D:/lorett/data/31039_260107_113547.dat