passes_logs/2026/01/07/R2.0S_Moscow/R2.0S_Moscow__20260107_045132_FENGYUN_3E_rec.log

#Pass ID: 20260107_045132_FENGYUN 3E
#Satellite: FENGYUN 3E
#Configuration: FENGYUN 3E
#almurnet v.1.7.20251203
#Start time: 2026-01-07 04:51:33

#Version: 2.2.20231116
#Station: R2.0S_Moscow
#Location: 37.707566 lon 55.798166 lat
#TLE: 1 49008U 21062A   26006.26767912  .00000427  00000+0  22170-3 0  9993
#TLE: 2 49008  98.7475  11.4982 0001602 156.1158 204.0093 14.19885456233607

#Time	Az	El	Level	Level2	SNR	BER	BlckErr	Temp	State	Recorded	gain1	gain2
2026-01-07 04:51:33.75	12.55	2.05	-40.3	-51.3	3.8	8.46e-01	0	47	0	0	51	12630
2026-01-07 04:51:37.79	12.40	2.30	-40.2	-51.3	3.8	8.46e-01	0	47	104	0	51	12617
2026-01-07 04:51:41.83	12.26	2.56	-40.2	-51.3	3.8	8.46e-01	0	48	104	0	51	12624
2026-01-07 04:51:45.87	12.11	2.81	-40.2	-51.3	3.8	8.46e-01	0	48	104	0	51	12611
2026-01-07 04:51:49.92	11.96	3.07	-40.2	-51.3	3.8	8.45e-01	0	48	104	0	51	12616
2026-01-07 04:51:53.97	11.80	3.33	-40.2	-51.3	3.8	8.46e-01	0	49	104	0	51	12571
2026-01-07 04:51:58.01	11.64	3.59	-40.2	-51.2	3.8	8.46e-01	0	49	104	0	51	12462
2026-01-07 04:52:02.05	11.48	3.85	-40.2	-51.1	3.8	8.46e-01	0	49	104	0	51	12318
2026-01-07 04:52:06.10	11.32	4.12	-40.2	-51.2	3.8	8.46e-01	0	50	104	0	51	12441
2026-01-07 04:52:10.14	11.15	4.39	-40.2	-51.2	3.8	8.47e-01	0	50	104	0	51	12455
2026-01-07 04:52:14.18	10.98	4.66	-40.2	-51.3	3.8	8.46e-01	0	50	104	0	51	12582
2026-01-07 04:52:18.23	10.81	4.93	-40.2	-51.3	3.8	8.46e-01	0	50	104	0	51	12569
2026-01-07 04:52:22.27	10.63	5.20	-40.2	-51.3	3.8	8.47e-01	0	50	104	0	51	12599
2026-01-07 04:52:26.31	10.45	5.48	-40.2	-51.2	3.8	8.46e-01	0	50	104	0	51	12509
2026-01-07 04:52:30.35	10.26	5.76	-40.2	-51.3	3.8	8.45e-01	0	51	104	0	51	12525
2026-01-07 04:52:34.40	10.07	6.05	-40.2	-51.2	3.8	8.45e-01	0	51	104	0	51	12483
2026-01-07 04:52:38.44	9.88	6.33	-40.2	-51.2	3.8	8.47e-01	0	51	104	0	51	12497
2026-01-07 04:52:42.48	9.68	6.62	-40.2	-51.3	3.8	8.46e-01	0	51	104	0	51	12540
2026-01-07 04:52:46.53	9.48	6.92	-40.2	-51.3	3.8	8.47e-01	0	52	104	0	51	12613
2026-01-07 04:52:50.57	9.27	7.21	-40.2	-51.3	3.8	8.47e-01	0	52	104	0	51	12616
2026-01-07 04:52:54.61	9.06	7.51	-40.2	-51.3	3.8	8.46e-01	0	52	104	0	51	12556
2026-01-07 04:52:58.66	8.85	7.81	-40.2	-51.3	3.8	8.46e-01	0	52	104	0	51	12602
2026-01-07 04:53:02.70	8.62	8.12	-40.2	-51.2	3.8	8.47e-01	0	52	104	0	51	12466
2026-01-07 04:53:06.74	8.40	8.42	-40.3	-51.3	3.8	8.46e-01	0	53	104	0	51	12610
2026-01-07 04:53:10.78	8.17	8.73	-40.2	-51.2	3.8	8.47e-01	0	53	104	0	51	12471
2026-01-07 04:53:14.82	7.93	9.05	-40.3	-51.3	3.8	8.46e-01	0	53	104	0	51	12573
2026-01-07 04:53:18.86	7.69	9.37	-40.2	-51.1	3.8	8.47e-01	0	53	104	0	51	12370
2026-01-07 04:53:22.90	7.44	9.69	-40.2	-51.3	3.8	8.47e-01	0	53	104	0	51	12522
2026-01-07 04:53:26.95	7.19	10.02	-40.1	-51.2	3.8	8.45e-01	0	53	104	0	51	12433
2026-01-07 04:53:30.99	6.93	10.34	-40.3	-51.3	3.8	8.46e-01	0	53	104	0	51	12563
2026-01-07 04:53:35.02	6.66	10.68	-40.3	-51.3	3.8	8.45e-01	0	53	104	0	51	12563
2026-01-07 04:53:39.07	6.39	11.01	-40.4	-51.4	3.8	8.47e-01	0	53	104	0	51	12763
2026-01-07 04:53:43.11	6.11	11.35	-40.6	-49.2	4.0	8.41e-01	0	54	0	0	51	9868
2026-01-07 04:53:47.14	5.83	11.70	-40.4	-45.5	6.2	3.45e-01	0	54	0	4194304	51	6492
2026-01-07 04:53:51.19	5.53	12.05	-39.3	-42.5	9.5	2.26e-02	0	54	0	33554432	49	5144
2026-01-07 04:53:55.23	5.23	12.40	-35.4	-37.1	14.9	0.00e+00	0	54	0	62914560	41	4359
2026-01-07 04:53:59.26	4.93	12.76	-35.6	-37.2	15.0	0.00e+00	0	54	0	92274688	41	4434
2026-01-07 04:54:03.30	4.61	13.12	-36.7	-38.7	13.6	1.25e-05	0	54	0	120586240	43	4669
2026-01-07 04:54:07.34	4.28	13.49	-35.9	-37.6	15.2	0.00e+00	0	54	0	149946368	42	4354
2026-01-07 04:54:11.39	3.95	13.86	-35.0	-36.4	16.4	0.00e+00	0	54	0	179306496	40	4276
2026-01-07 04:54:15.42	3.61	14.23	-36.4	-38.1	15.0	0.00e+00	0	54	0	208666624	42	4603
2026-01-07 04:54:19.46	3.26	14.62	-35.6	-37.0	16.3	0.00e+00	0	54	0	238026752	41	4325
2026-01-07 04:54:23.50	2.90	15.00	-35.9	-37.3	16.1	0.00e+00	0	54	0	266338304	41	4483
2026-01-07 04:54:27.54	2.53	15.39	-36.0	-37.4	16.3	0.00e+00	0	54	0	295698432	41	4507
2026-01-07 04:54:31.58	2.15	15.79	-35.5	-36.8	17.0	0.00e+00	0	55	0	325058560	41	4217
2026-01-07 04:54:35.62	1.75	16.19	-35.2	-36.5	17.4	0.00e+00	0	55	0	354418688	40	4309
2026-01-07 04:54:39.65	1.35	16.59	-35.3	-36.5	17.4	0.00e+00	0	55	0	382730240	40	4337
2026-01-07 04:54:43.70	0.94	17.01	-35.3	-36.6	17.4	0.00e+00	0	55	0	412090368	40	4361
2026-01-07 04:54:47.74	0.51	17.42	-35.3	-36.6	17.4	0.00e+00	0	55	0	441450496	40	4341
2026-01-07 04:54:51.78	0.07	17.85	-35.1	-36.4	17.7	0.00e+00	0	55	0	470810624	40	4253
2026-01-07 04:54:55.81	359.62	18.27	-34.9	-36.1	18.0	0.00e+00	0	55	0	500170752	40	4129
2026-01-07 04:54:59.85	359.16	18.71	-34.9	-36.1	18.0	0.00e+00	0	55	0	529530880	40	4107
2026-01-07 04:55:03.89	358.68	19.15	-34.8	-36.0	18.2	0.00e+00	0	55	0	557842432	40	4056
2026-01-07 04:55:07.93	358.18	19.59	-34.9	-36.1	18.0	0.00e+00	0	55	0	587202560	39	4370
2026-01-07 04:55:11.97	357.67	20.04	-35.0	-36.2	17.9	0.00e+00	0	55	0	616562688	40	4175
2026-01-07 04:55:16.01	357.15	20.50	-34.8	-36.0	18.0	0.00e+00	0	55	0	645922816	40	4096
2026-01-07 04:55:20.05	356.61	20.96	-34.4	-35.6	18.5	0.00e+00	0	55	0	675282944	39	4104
2026-01-07 04:55:24.10	356.05	21.43	-34.1	-35.2	18.8	0.00e+00	0	55	0	703594496	38	4192
2026-01-07 04:55:28.14	355.47	21.90	-34.6	-35.7	18.2	0.00e+00	0	55	0	732954624	39	4192
2026-01-07 04:55:32.18	354.88	22.38	-34.3	-35.5	18.4	0.00e+00	0	56	0	762314752	39	4080
2026-01-07 04:55:36.22	354.27	22.87	-34.4	-35.6	18.5	0.00e+00	0	55	0	791674880	39	4121
2026-01-07 04:55:40.26	353.64	23.36	-34.4	-35.5	18.7	0.00e+00	0	56	0	821035008	38	4327
2026-01-07 04:55:44.30	352.98	23.86	-34.2	-35.3	19.0	0.00e+00	0	56	0	850395136	38	4229
2026-01-07 04:55:48.34	352.31	24.36	-34.5	-35.7	18.7	0.00e+00	0	55	0	878706688	38	4404
2026-01-07 04:55:52.38	351.61	24.86	-34.2	-35.3	19.2	0.00e+00	0	56	0	908066816	38	4201
2026-01-07 04:55:56.41	350.89	25.38	-34.1	-35.2	19.3	0.00e+00	0	56	0	937426944	38	4159
2026-01-07 04:56:00.45	350.14	25.89	-34.5	-35.6	18.9	0.00e+00	0	56	0	966787072	38	4381
2026-01-07 04:56:04.49	349.37	26.41	-34.3	-35.4	19.1	0.00e+00	0	56	0	996147200	38	4263
2026-01-07 04:56:08.53	348.58	26.94	-34.0	-35.1	19.5	0.00e+00	0	56	0	1025507328	38	4104
2026-01-07 04:56:12.57	347.75	27.47	-34.0	-35.1	19.4	0.00e+00	0	56	0	1053818880	38	4127
2026-01-07 04:56:16.61	346.90	28.00	-34.3	-35.4	19.2	0.00e+00	0	56	0	1083179008	38	4268
2026-01-07 04:56:20.65	346.02	28.54	-34.2	-35.2	19.3	0.00e+00	0	56	0	1112539136	38	4186
2026-01-07 04:56:24.69	345.11	29.08	-33.9	-35.0	19.7	0.00e+00	0	56	0	1141899264	38	4054
2026-01-07 04:56:28.73	344.16	29.62	-33.8	-34.9	19.8	0.00e+00	0	56	0	1171259392	38	4013
2026-01-07 04:56:32.78	343.18	30.16	-33.7	-34.7	19.9	0.00e+00	0	56	0	1199570944	38	3934
2026-01-07 04:56:36.80	342.18	30.70	-33.8	-34.9	19.8	0.00e+00	0	56	0	1228931072	38	4006
2026-01-07 04:56:40.84	341.13	31.24	-33.7	-34.8	20.0	0.00e+00	0	56	0	1258291200	38	3963
2026-01-07 04:56:44.88	340.05	31.78	-33.7	-34.8	19.9	0.00e+00	0	56	0	1287651328	38	3969
2026-01-07 04:56:48.92	338.93	32.32	-34.0	-35.0	19.7	0.00e+00	0	56	0	1317011456	38	4067
2026-01-07 04:56:52.96	337.77	32.86	-34.0	-35.1	19.6	0.00e+00	0	56	0	1346371584	38	4125
2026-01-07 04:56:57.00	336.58	33.39	-33.8	-34.8	19.9	0.00e+00	0	56	0	1374683136	38	3994
2026-01-07 04:57:01.04	335.34	33.92	-33.4	-34.4	20.3	0.00e+00	0	56	0	1404043264	37	4037
2026-01-07 04:57:05.08	334.07	34.44	-33.5	-34.6	20.2	0.00e+00	0	56	0	1433403392	37	4103
2026-01-07 04:57:09.12	332.75	34.95	-33.6	-34.6	20.1	0.00e+00	0	56	0	1462763520	37	4119
2026-01-07 04:57:13.16	331.39	35.45	-33.5	-34.5	20.2	0.00e+00	0	56	0	1492123648	37	4081
2026-01-07 04:57:17.20	329.98	35.94	-33.6	-34.6	20.2	0.00e+00	0	56	0	1520435200	37	4123
2026-01-07 04:57:21.24	328.54	36.42	-33.8	-34.8	20.0	0.00e+00	0	56	0	1549795328	37	4220
2026-01-07 04:57:25.28	327.05	36.88	-33.7	-34.7	20.1	0.00e+00	0	56	0	1579155456	37	4178
2026-01-07 04:57:29.32	325.52	37.33	-33.4	-34.4	20.3	0.00e+00	0	56	0	1608515584	37	4046
2026-01-07 04:57:33.36	323.95	37.75	-34.1	-35.1	19.6	0.00e+00	0	56	0	1637875712	37	4377
2026-01-07 04:57:37.40	322.33	38.16	-34.0	-35.1	19.7	0.00e+00	0	56	0	1666187264	38	4116
2026-01-07 04:57:41.44	320.68	38.55	-33.8	-34.8	19.9	0.00e+00	0	56	0	1695547392	38	3981
2026-01-07 04:57:45.49	318.98	38.91	-33.8	-34.9	19.9	0.00e+00	0	56	0	1724907520	38	4006
2026-01-07 04:57:49.53	317.25	39.25	-34.1	-35.2	19.6	0.00e+00	0	56	0	1754267648	38	4164
2026-01-07 04:57:53.57	315.48	39.56	-34.0	-35.0	19.8	0.00e+00	0	56	0	1783627776	38	4077
2026-01-07 04:57:57.61	313.69	39.84	-33.6	-34.7	20.1	0.00e+00	0	56	0	1812987904	38	3916
2026-01-07 04:58:01.65	311.86	40.09	-33.8	-34.9	19.9	0.00e+00	0	56	0	1841299456	38	4014
2026-01-07 04:58:05.69	310.00	40.31	-34.0	-35.1	19.6	0.00e+00	0	57	0	1870659584	38	4127
2026-01-07 04:58:09.74	308.12	40.50	-33.9	-35.0	19.8	0.00e+00	0	57	0	1900019712	38	4064
2026-01-07 04:58:13.77	306.22	40.65	-33.6	-34.6	20.1	0.00e+00	0	56	0	1929379840	37	4106
2026-01-07 04:58:17.82	304.30	40.76	-33.5	-34.5	20.1	0.00e+00	0	57	0	1958739968	37	4098
2026-01-07 04:58:21.86	302.38	40.84	-33.8	-34.8	19.9	0.00e+00	0	57	0	1988100096	37	4211
2026-01-07 04:58:25.90	300.44	40.88	-33.7	-34.8	19.9	0.00e+00	0	56	0	2016411648	37	4210
2026-01-07 04:58:29.94	298.50	40.89	-33.3	-34.3	20.4	0.00e+00	0	56	0	2045771776	37	3984
2026-01-07 04:58:33.99	296.56	40.85	-33.4	-34.4	20.3	0.00e+00	0	57	0	2075131904	37	4013
2026-01-07 04:58:38.02	294.64	40.78	-33.4	-34.4	20.3	0.00e+00	0	57	0	2104492032	37	4013
2026-01-07 04:58:42.06	292.72	40.68	-33.6	-34.7	20.0	0.00e+00	0	56	0	2133852160	37	4149
2026-01-07 04:58:46.10	290.81	40.54	-33.5	-34.5	20.2	0.00e+00	0	57	0	2162163712	37	4059
2026-01-07 04:58:50.14	288.93	40.36	-33.3	-34.3	20.4	0.00e+00	0	57	0	2191523840	37	3967
2026-01-07 04:58:54.19	287.06	40.15	-33.3	-34.3	20.4	0.00e+00	0	56	0	2220883968	37	3992
2026-01-07 04:58:58.23	285.22	39.91	-33.2	-34.2	20.4	0.00e+00	0	56	0	2250244096	37	3952
2026-01-07 04:59:02.27	283.41	39.63	-33.0	-34.0	20.7	0.00e+00	0	56	0	2279604224	37	3845
2026-01-07 04:59:06.30	281.63	39.33	-33.3	-34.3	20.4	0.00e+00	0	56	0	2307915776	37	3977
2026-01-07 04:59:10.34	279.89	39.00	-33.5	-34.6	20.1	0.00e+00	0	57	0	2337275904	37	4101
2026-01-07 04:59:14.38	278.18	38.64	-33.1	-34.1	20.5	0.00e+00	0	57	0	2366636032	37	3893
2026-01-07 04:59:18.42	276.51	38.26	-33.4	-34.5	20.2	0.00e+00	0	56	0	2395996160	37	4053
2026-01-07 04:59:22.46	274.88	37.86	-33.5	-34.5	20.1	0.00e+00	0	57	0	2425356288	37	4094
2026-01-07 04:59:26.50	273.30	37.43	-33.4	-34.4	20.3	0.00e+00	0	57	0	2453667840	37	4016
2026-01-07 04:59:30.54	271.75	36.99	-33.5	-34.5	20.2	0.00e+00	0	57	0	2483027968	37	4061
2026-01-07 04:59:34.58	270.25	36.53	-33.5	-34.5	20.1	0.00e+00	0	57	0	2512388096	37	4097
2026-01-07 04:59:38.63	268.78	36.05	-33.4	-34.4	20.2	0.00e+00	0	57	0	2541748224	37	4041
2026-01-07 04:59:42.67	267.36	35.56	-33.4	-34.5	20.2	0.00e+00	0	57	0	2571108352	37	4055
2026-01-07 04:59:46.71	265.99	35.06	-33.5	-34.5	20.2	0.00e+00	0	57	0	2600468480	37	4082
2026-01-07 04:59:50.75	264.65	34.55	-33.2	-34.2	20.4	0.00e+00	0	57	0	2628780032	37	3942
2026-01-07 04:59:54.79	263.36	34.03	-33.2	-34.1	20.5	0.00e+00	0	57	0	2658140160	37	3911
2026-01-07 04:59:58.83	262.11	33.51	-33.5	-34.6	20.0	0.00e+00	0	57	0	2687500288	37	4101
2026-01-07 05:00:02.87	260.90	32.97	-33.1	-34.1	20.5	0.00e+00	0	57	0	2716860416	37	3899
2026-01-07 05:00:06.91	259.72	32.44	-33.1	-34.1	20.6	0.00e+00	0	57	0	2746220544	37	3896
2026-01-07 05:00:10.95	258.59	31.89	-33.3	-34.3	20.3	0.00e+00	0	57	0	2775580672	37	3992
2026-01-07 05:00:14.99	257.50	31.35	-33.4	-34.4	20.3	0.00e+00	0	57	0	2803892224	37	4013
2026-01-07 05:00:19.02	256.44	30.81	-33.4	-34.4	20.2	0.00e+00	0	57	0	2833252352	37	4036
2026-01-07 05:00:23.06	255.41	30.26	-33.5	-34.5	20.2	0.00e+00	0	57	0	2862612480	37	4065
2026-01-07 05:00:27.10	254.42	29.72	-33.4	-34.4	20.2	0.00e+00	0	57	0	2891972608	37	4048
2026-01-07 05:00:31.15	253.47	29.17	-33.7	-34.8	19.8	0.00e+00	0	57	0	2920284160	37	4203
2026-01-07 05:00:35.18	252.54	28.63	-33.4	-34.4	20.2	0.00e+00	0	57	0	2949644288	37	4018
2026-01-07 05:00:39.23	251.65	28.09	-33.6	-34.7	19.9	0.00e+00	0	57	0	2979004416	37	4156
2026-01-07 05:00:43.27	250.78	27.55	-33.8	-34.8	19.8	0.00e+00	0	57	0	3008364544	37	4215
2026-01-07 05:00:47.30	249.95	27.02	-33.6	-34.6	20.0	0.00e+00	0	57	0	3037724672	37	4139
2026-01-07 05:00:51.34	249.14	26.49	-33.7	-34.8	19.8	0.00e+00	0	57	0	3066036224	37	4206
2026-01-07 05:00:55.39	248.36	25.97	-33.6	-34.6	20.0	0.00e+00	0	57	0	3095396352	37	4114
2026-01-07 05:00:59.43	247.60	25.45	-33.7	-34.7	19.9	0.00e+00	0	57	0	3124756480	37	4167
2026-01-07 05:01:03.47	246.87	24.93	-33.9	-34.9	19.6	0.00e+00	0	57	0	3154116608	37	4286
2026-01-07 05:01:07.50	246.16	24.42	-33.5	-34.6	20.0	0.00e+00	0	57	0	3183476736	37	4108
2026-01-07 05:01:11.54	245.48	23.91	-33.8	-34.8	19.7	0.00e+00	0	57	0	3211788288	37	4219
2026-01-07 05:01:15.58	244.82	23.41	-34.1	-35.1	19.4	0.00e+00	0	57	0	3241148416	37	4383
2026-01-07 05:01:19.62	244.17	22.92	-33.8	-34.9	19.7	0.00e+00	0	57	0	3270508544	37	4260
2026-01-07 05:01:23.66	243.55	22.43	-33.8	-34.8	19.7	0.00e+00	0	57	0	3299868672	37	4224
2026-01-07 05:01:27.71	242.95	21.95	-33.9	-34.9	19.6	0.00e+00	0	57	0	3329228800	37	4264
2026-01-07 05:01:31.75	242.36	21.47	-34.2	-35.2	19.3	0.00e+00	0	57	0	3357540352	37	4441
2026-01-07 05:01:35.79	241.80	21.00	-34.1	-35.1	19.4	0.00e+00	0	57	0	3386900480	38	4134
2026-01-07 05:01:39.82	241.25	20.53	-33.9	-34.9	19.6	0.00e+00	0	57	0	3416260608	38	4024
2026-01-07 05:01:43.86	240.72	20.07	-34.4	-35.5	19.1	0.00e+00	0	57	0	3445620736	38	4295
2026-01-07 05:01:47.90	240.20	19.62	-34.8	-36.0	18.5	0.00e+00	0	57	0	3474980864	39	4306
2026-01-07 05:01:51.94	239.70	19.17	-34.9	-36.1	18.4	0.00e+00	0	57	0	3504340992	39	4367
2026-01-07 05:01:55.98	239.22	18.73	-35.0	-36.2	18.3	0.00e+00	0	57	0	3532652544	39	4398
2026-01-07 05:02:00.02	238.74	18.29	-35.2	-36.4	18.1	0.00e+00	0	57	0	3562012672	39	4512
2026-01-07 05:02:04.05	238.29	17.86	-35.1	-36.3	18.0	0.00e+00	0	57	0	3591372800	40	4227
2026-01-07 05:02:08.10	237.84	17.43	-35.0	-36.2	18.1	0.00e+00	0	57	0	3620732928	40	4177
2026-01-07 05:02:12.14	237.41	17.01	-35.0	-36.2	18.1	0.00e+00	0	57	0	3650093056	40	4178
2026-01-07 05:02:16.18	236.98	16.60	-35.2	-36.4	17.9	0.00e+00	0	57	0	3678404608	40	4286
2026-01-07 05:02:20.21	236.58	16.19	-35.3	-36.5	17.7	0.00e+00	0	57	0	3707764736	40	4331
2026-01-07 05:02:24.26	236.18	15.78	-35.5	-36.8	17.5	0.00e+00	0	57	0	3737124864	40	4458
2026-01-07 05:02:28.29	235.79	15.39	-35.8	-37.0	17.2	0.00e+00	0	57	0	3766484992	41	4331
2026-01-07 05:02:32.33	235.41	14.99	-35.8	-37.1	17.1	0.00e+00	0	57	0	3795845120	41	4385
2026-01-07 05:02:36.37	235.05	14.60	-35.9	-37.1	17.1	0.00e+00	0	57	0	3825205248	41	4389
2026-01-07 05:02:40.40	234.69	14.22	-36.0	-37.3	16.9	0.00e+00	0	57	0	3853516800	41	4474
2026-01-07 05:02:44.44	234.34	13.84	-36.0	-37.3	16.9	0.00e+00	0	57	0	3882876928	41	4479
2026-01-07 05:02:48.48	234.00	13.47	-36.2	-37.5	16.7	0.00e+00	0	57	0	3912237056	42	4330
2026-01-07 05:02:52.53	233.67	13.10	-36.5	-37.9	16.3	0.00e+00	0	57	0	3941597184	42	4521
2026-01-07 05:02:56.57	233.35	12.73	-36.6	-38.1	16.1	0.00e+00	0	57	0	3970957312	43	4341
2026-01-07 05:03:00.60	233.03	12.37	-36.7	-38.1	16.0	0.00e+00	0	57	0	3999268864	43	4382
2026-01-07 05:03:04.64	232.73	12.02	-36.3	-37.7	16.4	0.00e+00	0	57	0	4028628992	43	4191
2026-01-07 05:03:08.68	232.43	11.67	-36.3	-37.7	16.4	0.00e+00	0	57	0	4057989120	43	4152
2026-01-07 05:03:12.72	232.14	11.32	-36.3	-37.7	16.4	0.00e+00	0	57	0	4087349248	43	4177
2026-01-07 05:03:16.76	231.85	10.98	-36.4	-37.8	16.3	0.00e+00	0	57	0	4116709376	43	4195
2026-01-07 05:03:20.79	231.57	10.64	-36.5	-38.0	16.1	0.00e+00	0	57	0	4145020928	43	4302
2026-01-07 05:03:24.84	231.30	10.30	-36.8	-38.3	15.7	0.00e+00	0	57	0	4174381056	43	4470
2026-01-07 05:03:28.88	231.04	9.97	-36.7	-38.2	15.8	0.00e+00	0	57	0	4203741184	43	4409
2026-01-07 05:03:32.92	230.78	9.64	-37.0	-38.6	15.4	0.00e+00	0	57	0	4233101312	43	4606
2026-01-07 05:03:36.96	230.53	9.32	-37.0	-38.5	15.4	0.00e+00	0	57	0	4262461440	43	4591
2026-01-07 05:03:41.00	230.28	9.00	-37.4	-39.1	15.0	0.00e+00	0	57	0	4290772992	44	4601
2026-01-07 05:03:45.04	230.04	8.68	-37.5	-39.1	14.9	0.00e+00	0	57	0	4320133120	45	4375
2026-01-07 05:03:49.08	229.80	8.37	-37.5	-39.1	14.8	0.00e+00	0	57	0	4349493248	45	4380
2026-01-07 05:03:53.12	229.57	8.06	-37.5	-39.2	14.7	0.00e+00	0	57	0	4378853376	45	4408
2026-01-07 05:03:57.16	229.34	7.76	-45.3	-56.3	3.8	8.46e-01	0	57	104	4381999104	60	13396
2026-01-07 05:04:01.20	229.12	7.45	-45.5	-56.6	3.8	8.47e-01	0	57	104	4381999104	60	13774
2026-01-07 05:04:05.25	228.90	7.15	-45.4	-56.5	3.8	8.47e-01	0	57	104	4381999104	60	13593
2026-01-07 05:04:09.29	228.69	6.86	-45.4	-56.4	3.8	8.45e-01	0	57	104	4381999104	60	13555
2026-01-07 05:04:13.33	228.48	6.56	-45.4	-56.4	3.8	8.46e-01	0	57	104	4381999104	60	13503
2026-01-07 05:04:17.37	228.28	6.27	-45.4	-56.4	3.8	8.46e-01	0	57	104	4381999104	60	13504
2026-01-07 05:04:21.41	228.08	5.98	-45.4	-56.4	3.8	8.46e-01	0	57	104	4381999104	60	13445
2026-01-07 05:04:25.45	227.89	5.70	-45.4	-56.4	3.8	8.45e-01	0	57	104	4381999104	60	13457
2026-01-07 05:04:29.49	227.70	5.42	-45.3	-56.4	3.8	8.47e-01	0	57	104	4381999104	60	13429
2026-01-07 05:04:33.53	227.51	5.14	-45.4	-56.4	3.8	8.47e-01	0	57	104	4381999104	60	13489
2026-01-07 05:04:37.58	227.33	4.86	-45.3	-56.4	3.8	8.47e-01	0	57	104	4381999104	60	13459
2026-01-07 05:04:41.62	227.15	4.58	-45.3	-56.4	3.8	8.47e-01	0	57	104	4381999104	60	13475
2026-01-07 05:04:45.66	226.97	4.31	-45.3	-56.4	3.8	8.47e-01	0	57	104	4381999104	60	13418
2026-01-07 05:04:49.70	226.80	4.04	-45.3	-56.4	3.8	8.45e-01	0	57	104	4381999104	60	13428
2026-01-07 05:04:53.75	226.63	3.78	-45.3	-56.3	3.8	8.45e-01	0	57	104	4381999104	60	13397
2026-01-07 05:04:57.79	226.46	3.51	-45.3	-56.4	3.8	8.46e-01	0	57	104	4381999104	60	13473
2026-01-07 05:05:01.83	226.30	3.25	-45.3	-56.4	3.8	8.46e-01	0	57	104	4381999104	60	13466
2026-01-07 05:05:05.88	226.14	2.99	-45.3	-56.4	3.8	8.47e-01	0	57	104	4381999104	60	13435
2026-01-07 05:05:09.92	225.98	2.73	-45.3	-56.3	3.8	8.46e-01	0	57	104	4381999104	60	13389
2026-01-07 05:05:13.96	225.82	2.47	-45.3	-56.4	3.8	8.47e-01	0	57	104	4381999104	60	13426
2026-01-07 05:05:18.01	225.67	2.22	-45.3	-56.4	3.8	8.46e-01	0	57	104	4381999104	60	13452
2026-01-07 05:05:22.06	225.52	1.97	-45.3	-56.4	3.8	8.47e-01	0	57	104	4381999104	60	13415

#Closed at: 2026-01-07 05:05:23
#Recorded file [4381 MB]: D:/lorett/data/31039_260107_075133.dat