passes_logs/2026/01/07/R2.0S_Moscow/R2.0S_Moscow__20260107_085556_NOAA_20_JPSS-1_rec.log

#Pass ID: 20260107_085556_NOAA 20 (JPSS-1)
#Satellite: NOAA 20 (JPSS-1)
#Configuration: NOAA 20
#almurnet v.1.7.20251203
#Start time: 2026-01-07 08:55:58

#Version: 2.2.20231116
#Station: R2.0S_Moscow
#Location: 37.707566 lon 55.798166 lat
#TLE: 1 43013U 17073A   26006.30790171  .00000126  00000+0  80695-4 0  9991
#TLE: 2 43013  98.7629 307.3394 0001808  51.8724 308.2615 14.19533762421505

#Time	Az	El	Level	Level2	SNR	BER	BlckErr	Temp	State	Recorded	gain1	gain2
2026-01-07 08:55:58.83	131.76	2.13	-17.8	-36.6	3.5	1.51e+00	0	47	0	0	6	32847
2026-01-07 08:56:02.86	131.59	2.38	-15.5	-31.7	3.9	1.51e+00	0	48	104	0	4	20865
2026-01-07 08:56:06.90	131.43	2.63	-17.2	-32.0	4.1	1.51e+00	0	48	104	0	11	14504
2026-01-07 08:56:10.94	131.25	2.88	-18.2	-34.1	3.7	1.51e+00	0	49	104	0	7	23063
2026-01-07 08:56:14.99	131.08	3.14	-17.8	-37.8	3.7	1.50e+00	0	49	104	0	12	26673
2026-01-07 08:56:19.03	130.90	3.40	-20.2	-37.7	3.6	1.51e+00	0	49	104	0	8	33106
2026-01-07 08:56:23.07	130.72	3.66	-20.6	-39.7	3.6	1.50e+00	0	49	104	0	13	31290
2026-01-07 08:56:27.11	130.54	3.92	-18.8	-34.0	4.1	1.51e+00	0	49	104	0	7	22815
2026-01-07 08:56:31.15	130.35	4.19	-16.3	-31.8	3.8	1.51e+00	0	50	104	0	6	18894
2026-01-07 08:56:35.20	130.16	4.46	-17.4	-38.7	3.3	1.51e+00	0	50	104	0	9	35208
2026-01-07 08:56:39.24	129.96	4.73	-19.5	-36.3	3.3	1.51e+00	0	50	104	0	7	29701
2026-01-07 08:56:43.29	129.76	5.00	-15.9	-32.3	3.8	1.50e+00	0	50	104	0	10	15825
2026-01-07 08:56:47.33	129.56	5.28	-21.2	-41.6	3.8	1.50e+00	0	50	104	0	22	23299
2026-01-07 08:56:51.37	129.35	5.56	-22.4	-40.1	3.5	1.50e+00	0	51	104	0	15	29031
2026-01-07 08:56:55.41	129.14	5.84	-17.6	-36.3	3.6	1.50e+00	0	51	104	0	11	23678
2026-01-07 08:56:59.45	128.92	6.12	-24.3	-43.7	4.0	1.50e+00	0	51	104	0	23	28024
2026-01-07 08:57:03.49	128.70	6.40	-22.9	-40.8	3.6	1.50e+00	0	51	104	0	18	26552
2026-01-07 08:57:07.54	128.48	6.69	-21.4	-40.5	3.7	1.51e+00	0	51	0	0	19	24252
2026-01-07 08:57:11.59	128.24	6.99	-19.9	-41.2	3.7	1.51e+00	0	52	0	0	18	27816
2026-01-07 08:57:15.63	128.01	7.28	-18.3	-35.8	3.5	1.51e+00	0	52	104	0	5	31630
2026-01-07 08:57:19.67	127.77	7.58	-17.4	-37.5	4.0	1.51e+00	0	52	104	0	13	24287
2026-01-07 08:57:23.71	127.53	7.88	-19.5	-40.4	3.6	1.51e+00	0	52	104	0	14	31890
2026-01-07 08:57:27.75	127.28	8.18	-22.8	-40.6	3.6	1.50e+00	0	52	0	0	14	32556
2026-01-07 08:57:31.80	127.02	8.49	-22.6	-39.1	3.7	1.50e+00	0	52	0	0	3	51915
2026-01-07 08:57:35.83	126.76	8.80	-16.8	-35.3	3.9	1.49e+00	0	53	104	0	5	29787
2026-01-07 08:57:39.88	126.49	9.11	-24.3	-40.3	4.2	1.50e+00	0	53	104	0	18	25103
2026-01-07 08:57:43.92	126.22	9.43	-24.4	-41.5	4.3	1.48e+00	0	53	104	0	19	27363
2026-01-07 08:57:47.96	125.94	9.75	-19.9	-36.1	4.1	1.48e+00	0	53	0	0	14	19610
2026-01-07 08:57:52.00	125.65	10.07	-27.4	-43.4	4.5	1.45e+00	0	53	104	0	24	25356
2026-01-07 08:57:56.04	125.36	10.40	-26.8	-43.8	4.6	1.41e+00	0	53	0	0	30	18905
2026-01-07 08:58:00.08	125.06	10.73	-29.7	-45.4	5.2	6.39e-01	53	53	0	1048576	30	22525
2026-01-07 08:58:04.12	124.75	11.06	-36.1	-46.4	7.2	4.86e-01	53	53	0	5242880	42	12778
2026-01-07 08:58:08.16	124.44	11.40	-28.0	-46.8	6.7	5.00e-01	29	53	0	10485760	41	14162
2026-01-07 08:58:12.20	124.12	11.74	-35.1	-47.1	6.3	3.81e-01	27	54	0	16777216	36	19458
2026-01-07 08:58:16.24	123.79	12.09	-37.8	-47.0	9.3	8.93e-02	0	54	0	24117248	49	9123
2026-01-07 08:58:20.28	123.45	12.44	-38.8	-45.7	9.7	9.01e-03	0	54	0	31457280	48	8308
2026-01-07 08:58:24.31	123.11	12.79	-35.7	-45.0	10.1	1.22e-02	0	54	0	39845888	44	9638
2026-01-07 08:58:28.35	122.75	13.15	-36.8	-45.1	11.8	1.50e-03	0	54	0	47185920	50	6880
2026-01-07 08:58:32.39	122.39	13.51	-34.1	-44.3	10.3	1.19e-03	0	54	0	54525952	44	8898
2026-01-07 08:58:36.43	122.02	13.88	-39.2	-44.7	11.7	1.87e-03	0	54	0	61865984	47	7867
2026-01-07 08:58:40.47	121.64	14.25	-39.6	-44.0	13.2	7.86e-04	0	54	0	69206016	50	6116
2026-01-07 08:58:44.51	121.24	14.62	-40.0	-43.7	13.7	5.11e-04	0	54	0	77594624	50	5889
2026-01-07 08:58:48.55	120.84	15.00	-39.7	-43.4	14.1	2.36e-04	0	55	0	84934656	50	5664
2026-01-07 08:58:52.59	120.43	15.39	-37.8	-42.8	14.0	1.06e-03	0	55	0	92274688	48	5979
2026-01-07 08:58:56.63	120.01	15.78	-39.7	-43.4	13.9	3.63e-04	0	54	0	99614720	50	5698
2026-01-07 08:59:00.67	119.57	16.17	-39.8	-43.2	14.3	8.30e-06	0	55	0	108003328	51	5244
2026-01-07 08:59:04.71	119.12	16.57	-40.2	-43.1	14.5	1.90e-05	0	54	0	115343360	51	5197
2026-01-07 08:59:08.75	118.66	16.97	-40.3	-43.1	14.5	7.00e-07	0	55	0	122683392	51	5215
2026-01-07 08:59:12.75	118.20	17.37	-40.1	-43.0	14.7	7.00e-07	0	55	0	130023424	51	5150
2026-01-07 08:59:16.79	117.71	17.78	-40.4	-43.3	14.4	7.00e-07	0	55	0	137363456	51	5313
2026-01-07 08:59:20.83	117.21	18.20	-40.4	-43.3	14.5	0.00e+00	0	55	0	145752064	51	5282
2026-01-07 08:59:24.86	116.70	18.62	-40.6	-43.6	14.2	6.10e-06	0	55	0	153092096	51	5474
2026-01-07 08:59:28.90	116.17	19.05	-40.5	-43.4	14.4	1.50e-06	0	55	0	160432128	51	5368
2026-01-07 08:59:32.95	115.63	19.48	-40.6	-43.6	14.1	4.50e-06	0	55	0	167772160	52	5199
2026-01-07 08:59:36.99	115.07	19.92	-40.7	-43.7	14.0	7.00e-07	0	55	0	176160768	52	5272
2026-01-07 08:59:41.02	114.49	20.36	-40.8	-44.0	13.8	3.00e-06	0	55	0	183500800	52	5408
2026-01-07 08:59:45.06	113.90	20.80	-40.6	-43.6	14.2	0.00e+00	0	55	0	190840832	52	5162
2026-01-07 08:59:49.10	113.29	21.25	-40.4	-43.2	14.6	7.00e-07	0	55	0	198180864	52	4983
2026-01-07 08:59:53.14	112.66	21.71	-40.4	-43.1	14.7	0.00e+00	0	55	0	205520896	52	4923
2026-01-07 08:59:57.18	112.01	22.17	-40.3	-43.1	14.9	0.00e+00	0	55	0	213909504	52	4872
2026-01-07 09:00:01.22	111.35	22.63	-40.3	-43.0	14.9	0.00e+00	0	55	0	221249536	52	4829
2026-01-07 09:00:05.26	110.66	23.10	-40.4	-43.2	14.8	0.00e+00	0	55	0	228589568	52	4929
2026-01-07 09:00:09.29	109.95	23.57	-40.3	-43.0	14.9	0.00e+00	0	55	0	235929600	52	4859
2026-01-07 09:00:13.33	109.22	24.04	-40.3	-43.0	15.0	7.00e-07	0	55	0	244318208	52	4818
2026-01-07 09:00:17.37	108.46	24.52	-40.6	-43.5	14.5	0.00e+00	0	55	0	251658240	52	5112
2026-01-07 09:00:21.41	107.69	25.00	-40.9	-44.0	14.0	2.20e-06	0	56	0	258998272	52	5416
2026-01-07 09:00:25.45	106.89	25.49	-41.1	-44.3	13.6	4.50e-06	0	55	0	266338304	52	5649
2026-01-07 09:00:29.49	106.06	25.97	-41.3	-44.7	13.3	1.60e-05	0	55	0	273678336	53	5546
2026-01-07 09:00:33.53	105.20	26.46	-41.4	-44.9	13.1	2.67e-05	0	55	0	282066944	53	5674
2026-01-07 09:00:37.57	104.32	26.96	-41.3	-44.6	13.4	1.90e-05	0	56	0	289406976	53	5526
2026-01-07 09:00:41.61	103.42	27.45	-41.4	-44.8	13.3	1.98e-05	0	56	0	296747008	53	5593
2026-01-07 09:00:45.64	102.48	27.94	-41.6	-45.0	13.0	4.80e-05	0	56	0	304087040	53	5781
2026-01-07 09:00:49.68	101.52	28.43	-41.5	-44.9	13.0	3.20e-05	0	56	0	312475648	53	5716
2026-01-07 09:00:53.72	100.52	28.92	-41.5	-45.0	13.0	3.66e-05	0	56	0	319815680	53	5758
2026-01-07 09:00:57.76	99.49	29.41	-41.7	-45.2	12.9	6.40e-05	0	56	0	327155712	53	5887
2026-01-07 09:01:01.80	98.43	29.90	-41.7	-45.2	12.9	4.27e-05	0	56	0	334495744	54	5552
2026-01-07 09:01:05.84	97.34	30.39	-41.5	-44.8	13.3	1.83e-05	0	56	0	341835776	54	5330
2026-01-07 09:01:09.88	96.22	30.87	-42.2	-46.3	11.7	2.69e-04	0	56	0	350224384	55	5976
2026-01-07 09:01:13.92	95.06	31.34	-42.5	-46.9	11.1	1.31e-03	0	56	0	357564416	55	6376
2026-01-07 09:01:17.96	93.86	31.81	-42.9	-47.5	10.7	3.15e-03	0	56	0	364904448	56	6459
2026-01-07 09:01:22.00	92.64	32.28	-43.1	-48.1	10.1	5.79e-03	0	56	0	372244480	56	6917
2026-01-07 09:01:26.04	91.37	32.73	-43.4	-48.8	9.2	1.36e-02	0	56	0	380633088	57	7120
2026-01-07 09:01:30.07	90.08	33.18	-43.6	-49.6	8.5	4.32e-02	0	56	0	387973120	57	7788
2026-01-07 09:01:34.11	88.74	33.61	-43.8	-50.1	8.1	6.45e-02	0	56	0	395313152	58	7755
2026-01-07 09:01:38.15	87.37	34.03	-42.9	-47.6	10.6	5.23e-03	0	56	0	402653184	57	6152
2026-01-07 09:01:42.19	85.96	34.44	-42.6	-46.9	11.3	1.52e-03	0	56	0	409993216	57	5706
2026-01-07 09:01:46.23	84.52	34.83	-42.3	-46.2	12.0	2.78e-04	0	56	0	418381824	56	5585
2026-01-07 09:01:50.27	83.05	35.21	-41.6	-45.0	13.2	3.43e-05	0	56	0	425721856	55	5157
2026-01-07 09:01:54.31	81.54	35.57	-41.0	-44.0	14.2	3.80e-06	0	56	0	433061888	54	4827
2026-01-07 09:01:58.35	80.00	35.91	-40.9	-43.8	14.4	0.00e+00	0	56	0	440401920	53	4997
2026-01-07 09:02:02.39	78.42	36.23	-40.9	-43.7	14.6	0.00e+00	0	56	0	446693376	53	4950
2026-01-07 09:02:06.43	76.82	36.53	-40.6	-43.3	15.1	0.00e+00	0	56	0	454033408	53	4720
2026-01-07 09:02:10.46	75.19	36.80	-40.2	-42.6	15.7	0.00e+00	0	56	0	461373440	52	4621
2026-01-07 09:02:14.50	73.53	37.05	-39.7	-41.9	16.6	0.00e+00	0	56	0	468713472	51	4497
2026-01-07 09:02:18.55	71.84	37.27	-40.0	-42.4	16.1	0.00e+00	0	56	0	477102080	51	4770
2026-01-07 09:02:22.59	70.14	37.47	-39.9	-42.1	16.3	0.00e+00	0	56	0	484442112	51	4648
2026-01-07 09:02:26.63	68.42	37.63	-39.5	-41.6	16.8	0.00e+00	0	56	0	491782144	51	4374
2026-01-07 09:02:30.67	66.68	37.77	-39.7	-41.9	16.5	0.00e+00	0	56	0	499122176	50	4800
2026-01-07 09:02:34.71	64.93	37.88	-40.2	-42.6	15.9	0.00e+00	0	56	0	506462208	50	5183
2026-01-07 09:02:38.75	63.16	37.96	-40.8	-43.5	14.9	0.00e+00	0	56	0	514850816	52	5137
2026-01-07 09:02:42.79	61.40	38.01	-40.6	-43.3	15.1	0.00e+00	0	56	0	522190848	52	4986
2026-01-07 09:02:46.83	59.62	38.02	-40.9	-43.8	14.7	0.00e+00	0	56	0	529530880	52	5292
2026-01-07 09:02:50.86	57.86	38.01	-41.1	-44.0	14.4	7.00e-07	0	56	0	536870912	52	5421
2026-01-07 09:02:54.90	56.09	37.96	-41.0	-43.8	14.6	0.00e+00	0	56	0	545259520	53	5012
2026-01-07 09:02:58.94	54.33	37.88	-41.5	-44.7	13.6	7.60e-06	0	56	0	552599552	53	5566
2026-01-07 09:03:02.98	52.58	37.78	-41.6	-44.9	13.5	1.06e-05	0	56	0	559939584	54	5354
2026-01-07 09:03:07.02	50.84	37.64	-42.0	-45.5	12.8	4.19e-05	0	56	0	567279616	54	5784
2026-01-07 09:03:11.06	49.12	37.47	-42.1	-45.8	12.6	9.15e-05	0	56	0	574619648	55	5602
2026-01-07 09:03:15.10	47.41	37.28	-42.0	-45.5	12.9	7.40e-05	0	56	0	583008256	55	5464
2026-01-07 09:03:19.14	45.73	37.06	-41.6	-44.8	13.5	6.80e-06	0	56	0	590348288	55	5035
2026-01-07 09:03:23.18	44.08	36.81	-40.9	-43.7	14.7	0.00e+00	0	56	0	597688320	53	4940
2026-01-07 09:03:27.21	42.45	36.54	-40.3	-42.8	15.6	0.00e+00	0	56	0	605028352	52	4743
2026-01-07 09:03:31.25	40.85	36.24	-40.2	-42.6	15.8	0.00e+00	0	56	0	613416960	52	4633
2026-01-07 09:03:35.29	39.28	35.92	-40.1	-42.4	16.1	0.00e+00	0	56	0	620756992	51	4770
2026-01-07 09:03:39.33	37.74	35.58	-40.4	-42.9	15.5	0.00e+00	0	56	0	628097024	51	5079
2026-01-07 09:03:43.37	36.24	35.23	-40.9	-43.7	14.7	0.00e+00	0	56	0	635437056	52	5231
2026-01-07 09:03:47.40	34.77	34.85	-40.9	-43.7	14.7	7.00e-07	0	56	0	642777088	52	5254
2026-01-07 09:03:51.44	33.33	34.46	-41.1	-44.0	14.4	7.00e-07	0	56	0	651165696	52	5407
2026-01-07 09:03:55.48	31.93	34.05	-41.1	-44.0	14.3	1.50e-06	0	56	0	658505728	52	5407
2026-01-07 09:03:59.52	30.56	33.63	-41.2	-44.1	14.2	1.50e-06	0	56	0	665845760	52	5511
2026-01-07 09:04:03.56	29.23	33.20	-41.0	-43.9	14.4	0.00e+00	0	56	0	673185792	52	5372
2026-01-07 09:04:07.60	27.93	32.76	-41.4	-44.6	13.8	4.50e-06	0	56	0	681574400	53	5495
2026-01-07 09:04:11.64	26.67	32.30	-41.7	-45.1	13.2	1.67e-05	0	56	0	688914432	53	5819
2026-01-07 09:04:15.67	25.45	31.84	-41.9	-45.5	12.8	4.73e-05	0	56	0	696254464	54	5786
2026-01-07 09:04:19.72	24.26	31.37	-42.1	-45.8	12.5	1.14e-04	0	56	0	703594496	54	5990
2026-01-07 09:04:23.76	23.10	30.90	-42.1	-45.8	12.5	1.30e-04	0	57	0	710934528	54	5951
2026-01-07 09:04:27.80	21.98	30.42	-41.7	-45.1	13.3	1.44e-05	0	56	0	719323136	54	5475
2026-01-07 09:04:31.84	20.89	29.94	-41.6	-44.9	13.4	2.44e-05	0	56	0	726663168	54	5392
2026-01-07 09:04:35.88	19.84	29.45	-41.2	-44.3	14.1	1.50e-06	0	56	0	734003200	54	4987
2026-01-07 09:04:39.92	18.82	28.97	-41.0	-44.0	14.3	0.00e+00	0	56	0	741343232	54	4824
2026-01-07 09:04:43.96	17.82	28.48	-40.7	-43.5	14.8	7.00e-07	0	56	0	749731840	53	4835
2026-01-07 09:04:48.00	16.86	27.99	-40.8	-43.6	14.6	0.00e+00	0	56	0	757071872	53	4917
2026-01-07 09:04:52.03	15.93	27.50	-40.6	-43.3	15.0	7.00e-07	0	56	0	764411904	53	4710
2026-01-07 09:04:56.07	15.03	27.01	-40.5	-43.2	15.1	0.00e+00	0	56	0	771751936	53	4685
2026-01-07 09:05:00.12	14.15	26.52	-40.6	-43.4	14.9	0.00e+00	0	56	0	779091968	53	4784
2026-01-07 09:05:04.15	13.30	26.03	-40.6	-43.4	14.9	0.00e+00	0	56	0	787480576	53	4779
2026-01-07 09:05:08.19	12.48	25.55	-40.5	-43.2	15.0	0.00e+00	0	56	0	794820608	52	4956
2026-01-07 09:05:12.23	11.68	25.06	-40.4	-43.1	15.2	0.00e+00	0	56	0	802160640	52	4875
2026-01-07 09:05:16.27	10.90	24.58	-40.5	-43.3	14.9	0.00e+00	0	56	0	809500672	52	4991
2026-01-07 09:05:20.30	10.16	24.11	-40.7	-43.6	14.6	0.00e+00	0	56	0	817889280	52	5186
2026-01-07 09:05:24.34	9.43	23.64	-40.6	-43.3	14.9	0.00e+00	0	56	0	825229312	52	5009
2026-01-07 09:05:28.38	8.72	23.17	-40.8	-43.8	14.3	0.00e+00	0	56	0	832569344	52	5302
2026-01-07 09:05:32.42	8.04	22.70	-41.0	-44.1	14.0	3.00e-06	0	57	0	839909376	52	5502
2026-01-07 09:05:36.46	7.37	22.24	-41.0	-44.0	14.1	2.20e-06	0	57	0	847249408	52	5456
2026-01-07 09:05:40.50	6.73	21.78	-41.0	-44.0	14.1	2.20e-06	0	57	0	855638016	52	5445
2026-01-07 09:05:44.54	6.10	21.33	-40.8	-43.8	14.3	7.00e-07	0	57	0	862978048	52	5287
2026-01-07 09:05:48.58	5.50	20.88	-40.8	-43.8	14.2	3.80e-06	0	57	0	870318080	52	5332
2026-01-07 09:05:52.62	4.91	20.44	-41.1	-44.4	13.5	9.10e-06	0	56	0	877658112	52	5681
2026-01-07 09:05:56.66	4.34	20.00	-41.0	-44.2	13.7	8.30e-06	0	57	0	886046720	52	5579
2026-01-07 09:06:00.70	3.78	19.57	-40.9	-44.0	13.9	2.20e-06	0	57	0	893386752	52	5417
2026-01-07 09:06:04.74	3.24	19.14	-40.8	-43.9	14.0	3.80e-06	0	57	0	900726784	52	5349
2026-01-07 09:06:08.78	2.72	18.71	-40.7	-43.8	14.0	2.20e-06	0	57	0	908066816	52	5322
2026-01-07 09:06:12.81	2.21	18.29	-40.9	-44.1	13.6	5.30e-06	0	56	0	915406848	52	5524
2026-01-07 09:06:16.85	1.71	17.88	-40.9	-44.2	13.5	9.10e-06	0	57	0	923795456	52	5551
2026-01-07 09:06:20.89	1.23	17.47	-40.8	-44.0	13.6	1.06e-05	0	57	0	931135488	52	5424
2026-01-07 09:06:24.93	0.76	17.06	-40.6	-43.9	13.7	9.90e-06	0	57	0	938475520	52	5345
2026-01-07 09:06:28.97	0.30	16.66	-40.6	-43.8	13.6	6.80e-06	0	56	0	945815552	52	5302
2026-01-07 09:06:33.01	359.86	16.26	-40.5	-43.7	13.7	1.14e-05	0	57	0	954204160	52	5248
2026-01-07 09:06:37.05	359.43	15.87	-40.5	-43.9	13.4	6.80e-06	0	56	0	961544192	52	5366
2026-01-07 09:06:41.09	359.01	15.49	-40.7	-44.5	12.6	7.93e-05	0	57	0	968884224	52	5731
2026-01-07 09:06:45.14	358.60	15.10	-40.7	-44.7	12.2	2.35e-04	0	56	0	976224256	52	5866
2026-01-07 09:06:49.17	358.20	14.73	-40.4	-44.3	12.4	1.47e-04	0	57	0	983564288	52	5621
2026-01-07 09:06:53.21	357.81	14.35	-40.4	-44.6	11.9	4.05e-04	0	57	0	991952896	52	5816
2026-01-07 09:06:57.25	357.43	13.98	-40.4	-44.9	11.4	8.96e-04	0	56	0	999292928	52	5995
2026-01-07 09:07:01.29	357.07	13.62	-40.3	-44.7	11.3	1.45e-03	0	57	0	1006632960	52	5867
2026-01-07 09:07:05.32	356.71	13.26	-40.3	-45.2	10.5	2.74e-03	0	56	0	1013972992	52	6261
2026-01-07 09:07:09.36	356.36	12.90	-40.3	-46.6	8.4	4.24e-02	0	57	0	1022361600	52	7345
2026-01-07 09:07:13.40	356.02	12.55	-40.2	-50.0	5.1	5.07e-01	0	57	0	1029701632	52	10803
2026-01-07 09:07:17.44	355.68	12.20	-40.2	-54.2	3.8	1.49e+00	0	57	104	1031798784	52	17643
2026-01-07 09:07:21.48	355.36	11.85	-40.2	-54.7	3.8	1.49e+00	0	57	104	1031798784	52	18726
2026-01-07 09:07:25.51	355.04	11.52	-40.1	-54.7	3.8	1.49e+00	0	57	104	1031798784	51	19641
2026-01-07 09:07:29.55	354.73	11.18	-40.1	-54.6	3.8	1.49e+00	0	57	104	1031798784	51	19530
2026-01-07 09:07:33.59	354.43	10.85	-40.0	-54.5	3.8	1.49e+00	0	57	104	1031798784	51	19293
2026-01-07 09:07:37.62	354.13	10.52	-40.0	-54.6	3.8	1.49e+00	0	56	104	1031798784	51	19407
2026-01-07 09:07:41.66	353.84	10.19	-40.0	-54.5	3.8	1.49e+00	0	57	104	1031798784	51	19376
2026-01-07 09:07:45.69	353.56	9.87	-40.1	-54.7	3.8	1.49e+00	0	57	104	1031798784	51	19626
2026-01-07 09:07:49.73	353.29	9.55	-40.4	-54.9	3.8	1.49e+00	0	57	104	1031798784	51	20077
2026-01-07 09:07:53.77	353.02	9.23	-40.4	-54.9	3.8	1.49e+00	0	57	104	1031798784	51	20263
2026-01-07 09:07:57.81	352.76	8.92	-40.5	-55.0	3.8	1.49e+00	0	57	104	1031798784	51	20453
2026-01-07 09:08:01.85	352.50	8.61	-40.5	-55.0	3.8	1.49e+00	0	57	104	1031798784	51	20438
2026-01-07 09:08:05.88	352.25	8.31	-40.5	-55.0	3.8	1.49e+00	0	57	104	1031798784	51	20388
2026-01-07 09:08:09.92	352.00	8.01	-40.5	-55.0	3.8	1.49e+00	0	57	104	1031798784	51	20345
2026-01-07 09:08:13.96	351.76	7.71	-44.7	-59.5	3.8	1.49e+00	0	57	104	1031798784	60	20335
2026-01-07 09:08:18.01	351.53	7.41	-45.0	-59.9	3.8	1.49e+00	0	57	104	1031798784	60	21376
2026-01-07 09:08:22.04	351.30	7.12	-45.2	-59.9	3.8	1.49e+00	0	57	104	1031798784	60	21490
2026-01-07 09:08:26.09	351.07	6.83	-45.1	-59.9	3.8	1.49e+00	0	57	104	1031798784	60	21324
2026-01-07 09:08:30.13	350.85	6.54	-45.0	-59.9	3.8	1.49e+00	0	57	104	1031798784	60	21264
2026-01-07 09:08:34.17	350.63	6.25	-45.0	-59.8	3.8	1.49e+00	0	57	104	1031798784	60	21229
2026-01-07 09:08:38.22	350.42	5.97	-45.0	-59.8	3.8	1.49e+00	0	57	104	1031798784	60	21203
2026-01-07 09:08:42.26	350.21	5.69	-45.0	-59.8	3.8	1.49e+00	0	57	104	1031798784	60	21210
2026-01-07 09:08:46.30	350.01	5.41	-45.0	-59.8	3.8	1.49e+00	0	57	104	1031798784	60	21173
2026-01-07 09:08:50.35	349.81	5.14	-45.0	-59.8	3.8	1.49e+00	0	57	104	1031798784	60	21205
2026-01-07 09:08:54.39	349.62	4.87	-45.0	-59.8	3.8	1.49e+00	0	57	104	1031798784	60	21188
2026-01-07 09:08:58.43	349.42	4.60	-45.0	-59.8	3.8	1.49e+00	0	57	104	1031798784	60	21170
2026-01-07 09:09:02.48	349.24	4.33	-45.0	-59.8	3.8	1.49e+00	0	57	104	1031798784	60	21095
2026-01-07 09:09:06.52	349.05	4.06	-45.0	-59.8	3.8	1.49e+00	0	57	104	1031798784	60	21183
2026-01-07 09:09:10.56	348.87	3.80	-45.0	-59.8	3.8	1.49e+00	0	57	104	1031798784	60	21143
2026-01-07 09:09:14.60	348.70	3.54	-45.0	-59.8	3.8	1.49e+00	0	57	104	1031798784	60	21115
2026-01-07 09:09:18.65	348.52	3.28	-45.0	-59.8	3.8	1.49e+00	0	57	104	1031798784	60	21098
2026-01-07 09:09:22.69	348.35	3.02	-45.0	-59.8	3.8	1.49e+00	0	57	104	1031798784	60	21087
2026-01-07 09:09:26.73	348.19	2.77	-44.9	-59.8	3.8	1.49e+00	0	57	104	1031798784	60	21201
2026-01-07 09:09:30.77	348.02	2.52	-45.0	-59.8	3.8	1.49e+00	0	57	104	1031798784	60	21048
2026-01-07 09:09:34.81	347.86	2.27	-45.0	-59.8	3.8	1.49e+00	0	57	104	1031798784	60	21121
2026-01-07 09:09:38.86	347.71	2.02	-45.0	-59.8	3.8	1.49e+00	0	57	104	1031798784	60	21075

#Closed at: 2026-01-07 09:09:40
#Recorded file [1031 MB]: D:/lorett/data/31039_260107_115558.dat