passes_logs/2026/01/07/R2.0S_Moscow/R2.0S_Moscow__20260107_030515_FENGYUN_3D_rec.log

#Pass ID: 20260107_030515_FENGYUN 3D
#Satellite: FENGYUN 3D
#Configuration: FENGYUN 3D
#almurnet v.1.7.20251203
#Start time: 2026-01-07 03:05:16

#Version: 2.2.20231116
#Station: R2.0S_Moscow
#Location: 37.707566 lon 55.798166 lat
#TLE: 1 43010U 17072A   26006.26440730  .00000376  00000+0  19957-3 0  9994
#TLE: 2 43010  98.9925 337.9455 0002045 123.9195 236.2175 14.19693586422016

#Time	Az	El	Level	Level2	SNR	BER	BlckErr	Temp	State	Recorded	gain1	gain2
2026-01-07 03:05:16.33	11.62	2.06	-39.7	-51.3	3.8	8.45e-01	0	48	0	0	51	13298
2026-01-07 03:05:20.36	11.40	2.30	-39.7	-51.2	3.8	8.47e-01	0	48	104	0	51	13256
2026-01-07 03:05:24.40	11.19	2.54	-39.7	-51.2	3.8	8.46e-01	0	48	104	0	51	13252
2026-01-07 03:05:28.45	10.96	2.79	-39.7	-51.3	3.8	8.45e-01	0	49	104	0	51	13278
2026-01-07 03:05:32.49	10.74	3.03	-39.7	-51.3	3.8	8.46e-01	0	49	104	0	51	13311
2026-01-07 03:05:36.53	10.51	3.28	-39.7	-51.3	3.8	8.46e-01	0	49	104	0	51	13266
2026-01-07 03:05:40.57	10.28	3.52	-39.7	-51.2	3.8	8.46e-01	0	49	104	0	51	13206
2026-01-07 03:05:44.62	10.04	3.77	-39.7	-51.2	3.8	8.46e-01	0	50	104	0	51	13215
2026-01-07 03:05:48.66	9.80	4.03	-39.7	-51.3	3.8	8.45e-01	0	50	104	0	51	13281
2026-01-07 03:05:52.70	9.55	4.28	-39.7	-51.3	3.8	8.47e-01	0	50	104	0	51	13283
2026-01-07 03:05:56.74	9.30	4.53	-39.7	-51.3	3.8	8.46e-01	0	51	104	0	51	13297
2026-01-07 03:06:00.78	9.04	4.79	-39.7	-51.2	3.8	8.46e-01	0	51	104	0	51	13230
2026-01-07 03:06:04.82	8.78	5.05	-39.7	-51.2	3.8	8.45e-01	0	51	104	0	51	13195
2026-01-07 03:06:08.87	8.52	5.31	-39.7	-51.3	3.8	8.46e-01	0	51	104	0	51	13275
2026-01-07 03:06:12.91	8.25	5.57	-39.7	-51.3	3.8	8.46e-01	0	51	104	0	51	13281
2026-01-07 03:06:16.95	7.97	5.84	-39.7	-51.2	3.8	8.46e-01	0	51	104	0	51	13195
2026-01-07 03:06:20.99	7.69	6.11	-39.7	-51.3	3.8	8.45e-01	0	52	104	0	51	13271
2026-01-07 03:06:25.04	7.40	6.38	-39.7	-51.2	3.8	8.47e-01	0	52	104	0	51	13239
2026-01-07 03:06:29.08	7.11	6.65	-39.7	-51.3	3.8	8.46e-01	0	52	104	0	51	13272
2026-01-07 03:06:33.13	6.81	6.92	-39.7	-51.2	3.8	8.47e-01	0	52	104	0	51	13251
2026-01-07 03:06:37.17	6.51	7.20	-39.7	-51.2	3.8	8.46e-01	0	52	104	0	51	13259
2026-01-07 03:06:41.21	6.20	7.47	-39.7	-51.2	3.8	8.46e-01	0	52	104	0	51	13218
2026-01-07 03:06:45.25	5.88	7.75	-39.7	-51.2	3.8	8.47e-01	0	53	104	0	51	13211
2026-01-07 03:06:49.30	5.56	8.04	-39.7	-51.2	3.8	8.46e-01	0	53	104	0	51	13256
2026-01-07 03:06:53.34	5.23	8.32	-39.8	-51.3	3.8	8.46e-01	0	53	104	0	51	13362
2026-01-07 03:06:57.38	4.89	8.61	-39.7	-51.3	3.8	8.47e-01	0	53	104	0	51	13339
2026-01-07 03:07:01.42	4.55	8.90	-39.8	-51.4	3.8	8.46e-01	0	53	104	0	51	13457
2026-01-07 03:07:05.46	4.20	9.19	-39.8	-51.4	3.8	8.47e-01	0	53	104	0	51	13453
2026-01-07 03:07:09.49	3.84	9.48	-39.9	-51.5	3.8	8.46e-01	0	54	104	0	51	13573
2026-01-07 03:07:13.53	3.47	9.78	-39.9	-51.4	3.8	8.46e-01	0	53	104	0	51	13535
2026-01-07 03:07:17.58	3.10	10.07	-39.9	-51.5	3.8	8.47e-01	0	54	104	0	51	13591
2026-01-07 03:07:21.62	2.72	10.38	-39.8	-51.4	3.8	8.47e-01	0	54	104	0	51	13558
2026-01-07 03:07:25.65	2.33	10.68	-39.9	-51.4	3.8	8.46e-01	0	54	104	0	51	13554
2026-01-07 03:07:29.70	1.93	10.98	-39.8	-51.4	3.8	8.47e-01	0	54	104	0	51	13448
2026-01-07 03:07:33.74	1.52	11.29	-39.9	-51.5	3.8	8.47e-01	0	54	104	0	51	13587
2026-01-07 03:07:37.78	1.11	11.60	-39.9	-51.5	3.8	8.46e-01	0	54	104	0	51	13639
2026-01-07 03:07:41.82	0.68	11.91	-39.9	-51.6	3.8	8.46e-01	0	54	104	0	51	13750
2026-01-07 03:07:45.86	0.25	12.23	-39.8	-51.6	3.8	8.46e-01	0	54	104	0	51	13730
2026-01-07 03:07:49.90	359.80	12.55	-40.6	-49.9	4.0	8.45e-01	0	54	104	0	51	11398
2026-01-07 03:07:53.94	359.35	12.87	-40.6	-46.9	5.5	7.41e-01	0	54	0	0	52	7625
2026-01-07 03:07:57.98	358.88	13.19	-40.1	-44.2	8.7	6.48e-02	0	55	0	22020096	52	5570
2026-01-07 03:08:02.02	358.41	13.52	-37.7	-40.0	13.2	6.75e-05	0	55	0	45088768	47	4574
2026-01-07 03:08:06.06	357.92	13.84	-36.8	-38.8	14.6	0.00e+00	0	55	0	67108864	45	4469
2026-01-07 03:08:10.10	357.42	14.17	-37.1	-39.2	14.4	1.10e-06	0	55	0	90177536	45	4653
2026-01-07 03:08:14.14	356.91	14.50	-36.7	-38.5	15.1	0.00e+00	0	55	0	113246208	45	4320
2026-01-07 03:08:18.18	356.39	14.84	-37.6	-39.8	13.4	1.37e-05	0	55	0	135266304	45	5028
2026-01-07 03:08:22.22	355.86	15.17	-39.7	-43.9	8.5	4.48e-02	0	55	0	158334976	50	6016
2026-01-07 03:08:26.26	355.31	15.51	-40.5	-48.7	4.3	8.26e-01	0	55	0	170917888	51	9886
2026-01-07 03:08:30.31	354.75	15.85	-40.5	-51.5	3.8	8.46e-01	0	55	104	170917888	51	13703
2026-01-07 03:08:34.35	354.18	16.19	-40.3	-51.9	3.8	8.46e-01	0	55	104	170917888	51	14360
2026-01-07 03:08:38.39	353.59	16.54	-40.4	-52.0	3.8	8.46e-01	0	55	104	170917888	51	14423
2026-01-07 03:08:42.42	352.99	16.88	-39.7	-52.3	3.8	8.46e-01	0	55	104	170917888	51	14897
2026-01-07 03:08:46.46	352.38	17.23	-40.0	-52.2	3.8	8.46e-01	0	55	104	170917888	51	14747
2026-01-07 03:08:50.50	351.75	17.58	-39.9	-52.3	3.8	8.47e-01	0	55	104	170917888	51	14912
2026-01-07 03:08:54.54	351.11	17.93	-40.4	-52.2	3.8	8.46e-01	0	55	104	170917888	51	14709
2026-01-07 03:08:58.58	350.45	18.28	-40.5	-52.1	3.8	8.46e-01	0	56	104	170917888	52	13813
2026-01-07 03:09:02.62	349.78	18.63	-40.4	-52.0	3.8	8.46e-01	0	55	104	170917888	52	13654
2026-01-07 03:09:06.66	349.08	18.99	-40.4	-52.0	3.8	8.46e-01	0	56	104	170917888	52	13692
2026-01-07 03:09:10.71	348.38	19.34	-40.6	-52.2	3.8	8.46e-01	0	56	104	170917888	52	13970
2026-01-07 03:09:14.74	347.65	19.69	-40.3	-51.7	3.8	8.47e-01	0	56	104	170917888	52	13205
2026-01-07 03:09:18.78	346.91	20.05	-40.5	-51.1	3.8	8.47e-01	0	56	104	170917888	52	12240
2026-01-07 03:09:22.83	346.15	20.40	-41.0	-51.0	3.8	8.46e-01	0	56	104	170917888	52	12216
2026-01-07 03:09:26.87	345.37	20.75	-41.0	-46.0	7.1	1.94e-01	0	56	0	178257920	52	6807
2026-01-07 03:09:30.90	344.58	21.11	-39.3	-42.3	11.2	3.70e-03	0	56	0	201326592	50	4991
2026-01-07 03:09:34.94	343.77	21.46	-35.3	-36.9	16.6	0.00e+00	0	56	0	224395264	42	4263
2026-01-07 03:09:38.99	342.93	21.81	-33.5	-34.7	18.9	0.00e+00	0	56	0	247463936	38	4173
2026-01-07 03:09:43.02	342.08	22.16	-33.8	-35.1	18.8	0.00e+00	0	56	0	269484032	38	4355
2026-01-07 03:09:47.06	341.21	22.50	-33.8	-35.0	19.2	0.00e+00	0	56	0	292552704	38	4325
2026-01-07 03:09:51.10	340.32	22.85	-33.9	-35.1	19.4	0.00e+00	0	56	0	314572800	38	4355
2026-01-07 03:09:55.14	339.40	23.19	-33.7	-34.9	19.8	0.00e+00	0	56	0	337641472	38	4257
2026-01-07 03:09:59.18	338.47	23.52	-33.6	-34.7	20.0	0.00e+00	0	56	0	360710144	38	4193
2026-01-07 03:10:03.22	337.52	23.86	-33.8	-34.9	19.9	0.00e+00	0	56	0	383778816	38	4280
2026-01-07 03:10:07.25	336.55	24.18	-33.6	-34.7	20.1	0.00e+00	0	56	0	405798912	38	4189
2026-01-07 03:10:11.30	335.55	24.51	-33.7	-34.8	20.1	0.00e+00	0	56	0	428867584	38	4216
2026-01-07 03:10:15.34	334.54	24.82	-33.9	-35.1	19.8	0.00e+00	0	56	0	451936256	38	4349
2026-01-07 03:10:19.38	333.50	25.14	-33.9	-35.1	19.8	0.00e+00	0	56	0	473956352	38	4354
2026-01-07 03:10:23.41	332.45	25.44	-33.8	-34.9	20.1	0.00e+00	0	56	0	497025024	38	4270
2026-01-07 03:10:27.45	331.37	25.74	-33.5	-34.6	20.3	0.00e+00	0	56	0	519045120	38	4132
2026-01-07 03:10:31.49	330.28	26.02	-33.4	-34.5	20.4	0.00e+00	0	56	0	542113792	38	4091
2026-01-07 03:10:35.53	329.16	26.30	-33.4	-34.5	20.5	0.00e+00	0	56	0	565182464	38	4085
2026-01-07 03:10:39.57	328.02	26.58	-33.4	-34.5	20.5	0.00e+00	0	56	0	588251136	38	4082
2026-01-07 03:10:43.61	326.86	26.84	-33.3	-34.4	20.6	0.00e+00	0	56	0	610271232	38	4036
2026-01-07 03:10:47.66	325.69	27.09	-33.6	-34.7	20.3	0.00e+00	0	56	0	633339904	38	4193
2026-01-07 03:10:51.70	324.49	27.33	-33.3	-34.4	20.6	0.00e+00	0	56	0	656408576	38	4042
2026-01-07 03:10:55.74	323.28	27.55	-33.3	-34.4	20.6	0.00e+00	0	56	0	678428672	38	4024
2026-01-07 03:10:59.78	322.05	27.77	-33.0	-34.1	20.9	0.00e+00	0	56	0	701497344	38	3887
2026-01-07 03:11:03.81	320.81	27.97	-33.1	-34.2	20.8	0.00e+00	0	56	0	723517440	38	3936
2026-01-07 03:11:07.85	319.55	28.15	-33.0	-34.1	20.9	0.00e+00	0	56	0	746586112	37	4117
2026-01-07 03:11:11.89	318.28	28.33	-33.0	-34.1	20.9	0.00e+00	0	56	0	769654784	37	4135
2026-01-07 03:11:15.93	316.99	28.48	-32.8	-33.8	21.2	0.00e+00	0	56	0	792723456	37	3993
2026-01-07 03:11:19.97	315.69	28.63	-32.9	-33.9	21.0	0.00e+00	0	57	0	814743552	37	4050
2026-01-07 03:11:24.01	314.38	28.75	-32.7	-33.8	21.2	0.00e+00	0	56	0	837812224	37	3979
2026-01-07 03:11:28.05	313.05	28.86	-32.6	-33.7	21.3	0.00e+00	0	57	0	860880896	37	3926
2026-01-07 03:11:32.09	311.72	28.95	-32.7	-33.8	21.2	0.00e+00	0	56	0	882900992	37	3980
2026-01-07 03:11:36.14	310.38	29.03	-32.6	-33.6	21.4	0.00e+00	0	56	0	905969664	37	3901
2026-01-07 03:11:40.17	309.04	29.09	-32.5	-33.6	21.4	0.00e+00	0	56	0	929038336	37	3890
2026-01-07 03:11:44.21	307.70	29.13	-32.5	-33.5	21.4	0.00e+00	0	56	0	951058432	36	4092
2026-01-07 03:11:48.25	306.35	29.15	-32.7	-33.7	21.2	0.00e+00	0	57	0	974127104	36	4188
2026-01-07 03:11:52.29	305.00	29.16	-32.7	-33.7	21.3	0.00e+00	0	57	0	997195776	36	4187
2026-01-07 03:11:56.33	303.64	29.15	-32.3	-33.3	21.6	0.00e+00	0	57	0	1019215872	36	3999
2026-01-07 03:12:00.35	302.30	29.12	-32.4	-33.4	21.5	0.00e+00	0	57	0	1042284544	36	4037
2026-01-07 03:12:04.38	300.96	29.07	-32.5	-33.6	21.4	0.00e+00	0	56	0	1065353216	36	4105
2026-01-07 03:12:08.43	299.61	29.01	-32.5	-33.6	21.4	0.00e+00	0	57	0	1087373312	36	4105
2026-01-07 03:12:12.47	298.28	28.93	-32.5	-33.6	21.4	0.00e+00	0	57	0	1110441984	36	4111
2026-01-07 03:12:16.52	296.94	28.83	-32.6	-33.7	21.3	0.00e+00	0	57	0	1133510656	36	4165
2026-01-07 03:12:20.56	295.62	28.71	-32.6	-33.7	21.3	0.00e+00	0	57	0	1155530752	36	4168
2026-01-07 03:12:24.60	294.31	28.58	-32.4	-33.4	21.6	0.00e+00	0	57	0	1178599424	36	4025
2026-01-07 03:12:28.64	293.02	28.43	-32.5	-33.6	21.4	0.00e+00	0	57	0	1201668096	36	4100
2026-01-07 03:12:32.67	291.73	28.27	-32.7	-33.7	21.2	0.00e+00	0	57	0	1223688192	36	4181
2026-01-07 03:12:36.71	290.46	28.09	-32.8	-33.8	21.1	0.00e+00	0	57	0	1246756864	36	4234
2026-01-07 03:12:40.76	289.20	27.90	-32.6	-33.7	21.3	0.00e+00	0	57	0	1269825536	36	4152
2026-01-07 03:12:44.80	287.96	27.69	-32.6	-33.6	21.3	0.00e+00	0	57	0	1291845632	36	4137
2026-01-07 03:12:48.84	286.73	27.47	-32.7	-33.8	21.2	0.00e+00	0	57	0	1314914304	36	4199
2026-01-07 03:12:52.88	285.52	27.24	-32.8	-33.9	21.0	0.00e+00	0	57	0	1337982976	36	4274
2026-01-07 03:12:56.93	284.33	27.00	-32.8	-33.8	21.1	0.00e+00	0	57	0	1360003072	36	4241
2026-01-07 03:13:00.96	283.16	26.74	-32.7	-33.8	21.2	0.00e+00	0	57	0	1383071744	36	4197
2026-01-07 03:13:05.00	282.01	26.48	-32.8	-33.9	21.0	0.00e+00	0	57	0	1406140416	36	4277
2026-01-07 03:13:09.04	280.87	26.20	-32.7	-33.7	21.2	0.00e+00	0	57	0	1428160512	36	4185
2026-01-07 03:13:13.08	279.76	25.92	-32.9	-34.0	21.0	0.00e+00	0	57	0	1451229184	36	4296
2026-01-07 03:13:17.11	278.67	25.63	-33.1	-34.1	20.8	0.00e+00	0	57	0	1474297856	36	4389
2026-01-07 03:13:21.16	277.59	25.33	-33.1	-34.2	20.7	0.00e+00	0	57	0	1496317952	36	4418
2026-01-07 03:13:25.20	276.54	25.02	-33.1	-34.2	20.7	0.00e+00	0	57	0	1519386624	36	4427
2026-01-07 03:13:29.24	275.51	24.70	-33.1	-34.3	20.7	0.00e+00	0	57	0	1542455296	36	4444
2026-01-07 03:13:33.28	274.49	24.38	-33.1	-34.2	20.7	0.00e+00	0	57	0	1564475392	37	4181
2026-01-07 03:13:37.32	273.50	24.06	-32.9	-34.0	20.9	0.00e+00	0	57	0	1587544064	37	4069
2026-01-07 03:13:41.36	272.53	23.72	-33.1	-34.2	20.7	0.00e+00	0	57	0	1610612736	37	4183
2026-01-07 03:13:45.41	271.58	23.39	-33.1	-34.2	20.7	0.00e+00	0	57	0	1632632832	37	4149
2026-01-07 03:13:49.44	270.65	23.05	-33.3	-34.4	20.4	0.00e+00	0	57	0	1655701504	37	4285
2026-01-07 03:13:53.48	269.74	22.71	-33.4	-34.5	20.3	0.00e+00	0	57	0	1678770176	37	4333
2026-01-07 03:13:57.52	268.86	22.36	-33.5	-34.6	20.3	0.00e+00	0	57	0	1701838848	37	4361
2026-01-07 03:14:01.55	267.99	22.01	-33.7	-34.9	20.0	0.00e+00	0	57	0	1723858944	37	4509
2026-01-07 03:14:05.59	267.14	21.66	-33.9	-35.1	19.8	0.00e+00	0	57	0	1746927616	38	4346
2026-01-07 03:14:09.64	266.30	21.31	-34.0	-35.2	19.7	0.00e+00	0	57	0	1768947712	38	4394
2026-01-07 03:14:13.67	265.49	20.96	-34.0	-35.2	19.7	0.00e+00	0	57	0	1792016384	38	4417
2026-01-07 03:14:17.71	264.70	20.60	-33.9	-35.0	19.9	0.00e+00	0	57	0	1815085056	38	4320
2026-01-07 03:14:21.75	263.93	20.25	-34.4	-35.6	19.3	0.00e+00	0	57	0	1837105152	39	4348
2026-01-07 03:14:25.79	263.17	19.89	-34.2	-35.4	19.5	0.00e+00	0	57	0	1860173824	39	4254
2026-01-07 03:14:29.83	262.43	19.54	-34.1	-35.3	19.5	0.00e+00	0	57	0	1883242496	39	4214
2026-01-07 03:14:33.87	261.71	19.18	-33.9	-35.0	19.8	0.00e+00	0	57	0	1906311168	39	4094
2026-01-07 03:14:37.91	261.00	18.83	-34.3	-35.5	19.3	0.00e+00	0	57	0	1928331264	39	4292
2026-01-07 03:14:41.96	260.31	18.47	-34.5	-35.8	19.1	0.00e+00	0	57	0	1951399936	39	4442
2026-01-07 03:14:46.00	259.64	18.12	-34.4	-35.6	19.2	0.00e+00	0	57	0	1973420032	39	4371
2026-01-07 03:14:50.04	258.98	17.76	-34.6	-35.8	19.0	0.00e+00	0	57	0	1996488704	39	4475
2026-01-07 03:14:54.08	258.34	17.41	-34.7	-36.0	18.7	0.00e+00	0	57	0	2019557376	40	4312
2026-01-07 03:14:58.13	257.71	17.06	-34.8	-36.0	18.6	0.00e+00	0	57	0	2042626048	40	4325
2026-01-07 03:15:02.17	257.09	16.71	-34.6	-35.9	18.8	0.00e+00	0	57	0	2064646144	40	4256
2026-01-07 03:15:06.21	256.50	16.37	-34.8	-36.1	18.6	0.00e+00	0	57	0	2087714816	40	4343
2026-01-07 03:15:10.25	255.91	16.02	-35.0	-36.3	18.3	0.00e+00	0	57	0	2110783488	40	4464
2026-01-07 03:15:14.29	255.34	15.68	-35.1	-36.4	18.2	0.00e+00	0	57	0	2132803584	40	4510
2026-01-07 03:15:18.33	254.78	15.34	-35.2	-36.5	18.1	0.00e+00	0	57	0	2155872256	40	4558
2026-01-07 03:15:22.37	254.23	15.00	-35.1	-36.4	18.1	0.00e+00	0	57	0	2178940928	41	4288
2026-01-07 03:15:26.41	253.70	14.66	-35.4	-36.7	17.8	0.00e+00	0	57	0	2200961024	41	4435
2026-01-07 03:15:30.44	253.18	14.33	-35.5	-36.9	17.6	0.00e+00	0	57	0	2224029696	41	4527
2026-01-07 03:15:34.48	252.67	14.00	-35.5	-36.9	17.7	0.00e+00	0	57	0	2247098368	41	4502
2026-01-07 03:15:38.53	252.17	13.67	-35.4	-36.7	17.8	0.00e+00	0	57	0	2269118464	41	4424
2026-01-07 03:15:42.57	251.69	13.34	-35.5	-36.9	17.6	0.00e+00	0	57	0	2292187136	41	4531
2026-01-07 03:15:46.60	251.21	13.01	-35.5	-36.9	17.6	0.00e+00	0	57	0	2315255808	41	4497
2026-01-07 03:15:50.64	250.75	12.69	-35.6	-37.0	17.5	0.00e+00	0	57	0	2337275904	41	4570
2026-01-07 03:15:54.68	250.29	12.37	-35.9	-37.4	17.1	0.00e+00	0	57	0	2360344576	42	4524
2026-01-07 03:15:58.72	249.84	12.05	-36.0	-37.4	17.0	0.00e+00	0	57	0	2383413248	42	4542
2026-01-07 03:16:02.76	249.41	11.74	-36.0	-37.5	17.0	0.00e+00	0	57	0	2405433344	42	4561
2026-01-07 03:16:06.80	248.98	11.42	-36.1	-37.6	16.8	0.00e+00	0	57	0	2428502016	42	4642
2026-01-07 03:16:10.84	248.57	11.11	-36.1	-37.6	16.8	0.00e+00	0	57	0	2451570688	42	4634
2026-01-07 03:16:14.87	248.16	10.81	-36.2	-37.7	16.7	0.00e+00	0	57	0	2473590784	43	4398
2026-01-07 03:16:18.91	247.76	10.50	-36.4	-37.9	16.4	0.00e+00	0	57	0	2496659456	43	4538
2026-01-07 03:16:22.96	247.37	10.20	-36.6	-38.3	16.1	0.00e+00	0	57	0	2519728128	43	4717
2026-01-07 03:16:26.99	246.98	9.90	-36.5	-38.1	16.2	0.00e+00	0	57	0	2541748224	43	4643
2026-01-07 03:16:31.04	246.61	9.60	-36.6	-38.2	16.1	0.00e+00	0	57	0	2564816896	43	4696
2026-01-07 03:16:35.08	246.24	9.30	-37.2	-38.9	15.5	0.00e+00	0	57	0	2587885568	44	4783
2026-01-07 03:16:39.12	245.88	9.01	-37.1	-38.8	15.5	0.00e+00	0	57	0	2609905664	45	4487
2026-01-07 03:16:43.16	245.53	8.71	-37.1	-38.8	15.5	0.00e+00	0	57	0	2632974336	45	4477
2026-01-07 03:16:47.20	245.18	8.43	-36.9	-38.6	15.8	0.00e+00	0	57	0	2656043008	45	4346
2026-01-07 03:16:51.24	244.85	8.14	-37.0	-38.7	15.5	0.00e+00	0	57	0	2678063104	45	4430
2026-01-07 03:16:55.28	244.51	7.85	-44.6	-56.2	3.8	8.47e-01	0	57	104	2691694592	59	14822
2026-01-07 03:16:59.32	244.19	7.57	-45.0	-56.8	3.8	8.47e-01	0	57	104	2691694592	60	14922
2026-01-07 03:17:03.37	243.87	7.29	-45.1	-56.9	3.8	8.45e-01	0	57	104	2691694592	60	15113
2026-01-07 03:17:07.41	243.56	7.01	-45.0	-56.8	3.8	8.45e-01	0	57	104	2691694592	60	14941
2026-01-07 03:17:11.45	243.25	6.74	-45.0	-56.8	3.8	8.46e-01	0	57	104	2691694592	60	14984
2026-01-07 03:17:15.49	242.95	6.47	-44.9	-56.8	3.8	8.47e-01	0	57	104	2691694592	60	14937
2026-01-07 03:17:19.54	242.65	6.19	-44.9	-56.8	3.8	8.46e-01	0	57	104	2691694592	60	14926
2026-01-07 03:17:23.58	242.37	5.92	-44.9	-56.8	3.8	8.47e-01	0	57	104	2691694592	60	14902
2026-01-07 03:17:27.63	242.08	5.66	-44.9	-56.8	3.8	8.45e-01	0	57	104	2691694592	60	14920
2026-01-07 03:17:31.67	241.80	5.39	-44.9	-56.8	3.8	8.47e-01	0	57	104	2691694592	60	14883
2026-01-07 03:17:35.71	241.53	5.13	-44.9	-56.8	3.8	8.46e-01	0	57	104	2691694592	60	14944
2026-01-07 03:17:39.75	241.26	4.87	-44.9	-56.8	3.8	8.45e-01	0	57	104	2691694592	60	14892
2026-01-07 03:17:43.79	241.00	4.61	-44.9	-56.8	3.8	8.46e-01	0	57	104	2691694592	60	14950
2026-01-07 03:17:47.84	240.74	4.35	-44.9	-56.8	3.8	8.47e-01	0	57	104	2691694592	60	14931
2026-01-07 03:17:51.88	240.48	4.10	-44.9	-56.8	3.8	8.46e-01	0	57	104	2691694592	60	14896
2026-01-07 03:17:55.93	240.23	3.84	-44.9	-56.8	3.8	8.45e-01	0	57	104	2691694592	60	14888
2026-01-07 03:17:59.97	239.99	3.59	-44.9	-56.8	3.8	8.46e-01	0	57	104	2691694592	60	14896
2026-01-07 03:18:04.02	239.75	3.34	-44.9	-56.8	3.8	8.46e-01	0	57	104	2691694592	60	14931
2026-01-07 03:18:08.06	239.51	3.09	-44.9	-56.8	3.8	8.46e-01	0	57	104	2691694592	60	14917
2026-01-07 03:18:12.10	239.28	2.85	-44.9	-56.8	3.8	8.45e-01	0	57	104	2691694592	60	14961
2026-01-07 03:18:16.15	239.05	2.60	-44.9	-56.7	3.8	8.47e-01	0	57	104	2691694592	60	14860
2026-01-07 03:18:20.19	238.83	2.36	-44.9	-56.8	3.8	8.46e-01	0	57	104	2691694592	60	14912
2026-01-07 03:18:24.24	238.61	2.12	-44.9	-56.7	3.8	8.46e-01	0	57	104	2691694592	60	14871

#Closed at: 2026-01-07 03:18:27
#Recorded file [2691 MB]: D:/lorett/data/31039_260107_060516.dat