passes_logs/2026/01/07/R2.0S_Moscow/R2.0S_Moscow__20260107_222523_SUOMI_NPP_rec.log

#Pass ID: 20260107_222523_SUOMI NPP
#Satellite: SUOMI NPP
#Configuration: NPP
#almurnet v.1.7.20251203
#Start time: 2026-01-07 22:25:25

#Version: 2.2.20231116
#Station: R2.0S_Moscow
#Location: 37.707566 lon 55.798166 lat
#TLE: 1 37849U 11061A   26005.94084933  .00000134  00000+0  84554-4 0  9990
#TLE: 2 37849  98.7803 308.0679 0002567  79.1029 281.0436 14.19522657735426

#Time	Az	El	Level	Level2	SNR	BER	BlckErr	Temp	State	Recorded	gain1	gain2
2026-01-07 22:25:25.97	24.02	2.15	-42.3	-57.4	3.8	1.49e+00	0	47	0	0	56	20260
2026-01-07 22:25:30.00	24.27	2.38	-42.1	-57.3	3.8	1.49e+00	0	48	104	0	54	22267
2026-01-07 22:25:34.03	24.54	2.61	-42.1	-57.3	3.8	1.49e+00	0	48	104	0	54	22339
2026-01-07 22:25:38.07	24.80	2.85	-42.0	-57.3	3.8	1.49e+00	0	49	104	0	54	22297
2026-01-07 22:25:42.10	25.07	3.08	-42.0	-57.3	3.8	1.49e+00	0	49	104	0	54	22272
2026-01-07 22:25:46.14	25.35	3.32	-42.1	-57.3	3.8	1.49e+00	0	49	104	0	54	22302
2026-01-07 22:25:50.18	25.63	3.55	-42.0	-57.2	3.8	1.49e+00	0	49	104	0	54	22238
2026-01-07 22:25:54.21	25.91	3.79	-42.1	-57.3	3.8	1.49e+00	0	49	104	0	54	22267
2026-01-07 22:25:58.24	26.20	4.03	-42.0	-57.3	3.8	1.49e+00	0	50	104	0	54	22316
2026-01-07 22:26:02.26	26.49	4.27	-42.0	-57.2	3.8	1.49e+00	0	50	104	0	54	22245
2026-01-07 22:26:06.30	26.79	4.52	-42.0	-57.2	3.8	1.49e+00	0	50	104	0	54	22238
2026-01-07 22:26:10.34	27.09	4.76	-42.1	-57.3	3.8	1.49e+00	0	50	104	0	54	22289
2026-01-07 22:26:14.37	27.39	5.01	-42.1	-57.2	3.8	1.49e+00	0	51	104	0	54	22243
2026-01-07 22:26:18.41	27.70	5.26	-42.0	-57.2	3.8	1.49e+00	0	51	104	0	54	22241
2026-01-07 22:26:22.44	28.02	5.51	-42.0	-57.2	3.8	1.49e+00	0	51	104	0	54	22216
2026-01-07 22:26:26.48	28.34	5.76	-42.0	-57.2	3.8	1.49e+00	0	51	104	0	54	22256
2026-01-07 22:26:30.51	28.67	6.01	-42.0	-57.3	3.8	1.49e+00	0	51	104	0	54	22265
2026-01-07 22:26:34.55	29.00	6.27	-42.0	-57.2	3.8	1.49e+00	0	51	104	0	54	22096
2026-01-07 22:26:38.59	29.34	6.52	-42.1	-57.2	3.8	1.49e+00	0	52	104	0	54	22097
2026-01-07 22:26:42.62	29.68	6.78	-42.0	-57.0	3.8	1.49e+00	0	52	104	0	54	21545
2026-01-07 22:26:46.65	30.03	7.04	-42.0	-56.0	3.8	1.49e+00	0	52	104	0	54	19295
2026-01-07 22:26:50.69	30.38	7.31	-41.6	-51.1	5.3	1.19e+00	0	52	0	1048576	54	10943
2026-01-07 22:26:54.72	30.74	7.57	-40.9	-47.5	8.3	6.80e-02	0	52	0	8388608	53	7695
2026-01-07 22:26:58.75	31.11	7.84	-39.8	-44.3	11.7	5.27e-04	0	53	0	15728640	51	5966
2026-01-07 22:27:02.78	31.48	8.10	-41.3	-48.1	8.5	1.86e-03	0	53	0	23068672	53	8235
2026-01-07 22:27:06.82	31.86	8.37	-40.7	-45.9	10.8	7.01e-03	0	53	0	28311552	52	6734
2026-01-07 22:27:10.86	32.25	8.64	-40.4	-44.7	12.0	4.53e-04	0	53	0	35651584	52	5856
2026-01-07 22:27:14.89	32.64	8.92	-40.4	-44.5	12.3	2.01e-04	0	53	0	44040192	52	5729
2026-01-07 22:27:18.93	33.04	9.19	-40.3	-44.0	12.8	6.02e-05	0	53	0	51380224	52	5463
2026-01-07 22:27:22.97	33.45	9.47	-40.1	-43.6	13.3	4.65e-05	0	53	0	58720256	52	5208
2026-01-07 22:27:27.00	33.87	9.75	-40.2	-43.6	13.3	1.44e-05	0	54	0	66060288	52	5217
2026-01-07 22:27:31.04	34.29	10.03	-40.4	-43.8	13.2	1.90e-05	0	54	0	74448896	52	5312
2026-01-07 22:27:35.07	34.72	10.31	-40.4	-43.7	13.4	1.06e-05	0	54	0	81788928	52	5277
2026-01-07 22:27:39.11	35.16	10.60	-40.3	-43.6	13.6	1.67e-05	0	54	0	89128960	52	5182
2026-01-07 22:27:43.14	35.61	10.89	-40.3	-43.6	13.7	1.06e-05	0	54	0	96468992	52	5194
2026-01-07 22:27:47.18	36.07	11.17	-40.3	-43.5	13.7	5.30e-06	0	54	0	103809024	52	5156
2026-01-07 22:27:51.22	36.53	11.47	-40.4	-43.7	13.6	5.30e-06	0	54	0	112197632	52	5231
2026-01-07 22:27:55.25	37.01	11.76	-40.5	-43.9	13.4	1.22e-05	0	54	0	119537664	52	5387
2026-01-07 22:27:59.29	37.49	12.05	-40.4	-43.7	13.7	6.80e-06	0	55	0	126877696	52	5257
2026-01-07 22:28:03.32	37.98	12.35	-40.4	-43.5	13.9	0.00e+00	0	54	0	134217728	52	5135
2026-01-07 22:28:07.36	38.48	12.65	-40.2	-43.2	14.3	0.00e+00	0	54	0	141557760	52	4933
2026-01-07 22:28:11.39	39.00	12.94	-40.0	-42.8	14.8	7.00e-07	0	55	0	149946368	51	5002
2026-01-07 22:28:15.42	39.52	13.24	-39.9	-42.7	14.9	0.00e+00	0	54	0	157286400	51	4951
2026-01-07 22:28:19.45	40.05	13.55	-39.9	-42.6	15.0	0.00e+00	0	55	0	164626432	51	4915
2026-01-07 22:28:23.48	40.59	13.85	-39.9	-42.6	15.0	0.00e+00	0	55	0	171966464	51	4908
2026-01-07 22:28:27.52	41.15	14.16	-40.0	-42.7	14.9	0.00e+00	0	55	0	180355072	51	4979
2026-01-07 22:28:31.56	41.71	14.46	-40.2	-43.1	14.6	0.00e+00	0	55	0	187695104	51	5196
2026-01-07 22:28:35.59	42.29	14.77	-40.5	-43.5	14.2	7.00e-07	0	55	0	195035136	51	5424
2026-01-07 22:28:39.63	42.88	15.08	-40.3	-43.2	14.5	1.50e-06	0	55	0	202375168	51	5253
2026-01-07 22:28:43.66	43.48	15.39	-39.9	-42.6	15.2	0.00e+00	0	55	0	209715200	51	4872
2026-01-07 22:28:47.70	44.09	15.70	-39.5	-42.0	15.7	0.00e+00	0	55	0	218103808	51	4591
2026-01-07 22:28:51.73	44.72	16.02	-39.4	-41.9	15.8	0.00e+00	0	55	0	225443840	50	4794
2026-01-07 22:28:55.76	45.35	16.33	-39.4	-41.8	15.9	0.00e+00	0	55	0	232783872	50	4753
2026-01-07 22:28:59.79	46.01	16.64	-39.5	-42.0	15.8	0.00e+00	0	55	0	240123904	50	4841
2026-01-07 22:29:03.82	46.67	16.96	-39.8	-42.4	15.5	0.00e+00	0	56	0	247463936	50	5073
2026-01-07 22:29:07.84	47.34	17.27	-39.8	-42.4	15.5	0.00e+00	0	55	0	255852544	50	5056
2026-01-07 22:29:11.88	48.04	17.59	-39.9	-42.5	15.3	0.00e+00	0	55	0	263192576	50	5157
2026-01-07 22:29:15.91	48.74	17.90	-39.7	-42.4	15.5	0.00e+00	0	55	0	270532608	50	5044
2026-01-07 22:29:19.94	49.46	18.22	-39.4	-41.8	16.1	0.00e+00	0	56	0	277872640	50	4717
2026-01-07 22:29:23.98	50.20	18.53	-39.1	-41.5	16.3	0.00e+00	0	56	0	285212672	50	4550
2026-01-07 22:29:28.01	50.95	18.85	-38.8	-41.0	16.9	0.00e+00	0	55	0	293601280	49	4557
2026-01-07 22:29:32.05	51.72	19.16	-38.7	-40.9	16.9	0.00e+00	0	56	0	300941312	49	4501
2026-01-07 22:29:36.08	52.50	19.47	-38.4	-40.5	17.3	0.00e+00	0	56	0	308281344	48	4564
2026-01-07 22:29:40.11	53.29	19.78	-38.4	-40.5	17.3	0.00e+00	0	56	0	315621376	48	4577
2026-01-07 22:29:44.14	54.11	20.09	-38.5	-40.6	17.1	0.00e+00	0	56	0	324009984	48	4649
2026-01-07 22:29:48.17	54.93	20.40	-38.6	-40.8	17.0	0.00e+00	0	56	0	331350016	48	4739
2026-01-07 22:29:52.21	55.78	20.70	-38.5	-40.7	17.1	0.00e+00	0	56	0	338690048	48	4659
2026-01-07 22:29:56.24	56.64	21.01	-38.4	-40.4	17.3	0.00e+00	0	56	0	346030080	48	4539
2026-01-07 22:30:00.27	57.52	21.30	-38.9	-41.2	16.6	0.00e+00	0	56	0	353370112	48	4937
2026-01-07 22:30:04.30	58.41	21.60	-38.7	-40.9	16.9	0.00e+00	0	56	0	361758720	48	4765
2026-01-07 22:30:08.34	59.33	21.89	-39.1	-41.4	16.4	0.00e+00	0	56	0	369098752	48	5089
2026-01-07 22:30:12.37	60.26	22.18	-38.7	-40.9	16.9	0.00e+00	0	56	0	376438784	48	4770
2026-01-07 22:30:16.40	61.20	22.47	-39.7	-42.3	15.5	0.00e+00	0	56	0	383778816	50	5041
2026-01-07 22:30:20.44	62.17	22.75	-38.9	-41.1	16.7	0.00e+00	0	56	0	391118848	49	4639
2026-01-07 22:30:24.47	63.15	23.02	-39.5	-41.9	16.0	0.00e+00	0	56	0	399507456	49	5078
2026-01-07 22:30:28.51	64.15	23.29	-39.5	-41.9	16.0	0.00e+00	0	56	0	406847488	49	5084
2026-01-07 22:30:32.54	65.16	23.55	-40.4	-43.3	14.7	0.00e+00	0	56	0	414187520	51	5291
2026-01-07 22:30:36.58	66.19	23.81	-40.0	-42.6	15.3	7.00e-07	0	56	0	421527552	51	4888
2026-01-07 22:30:40.61	67.24	24.05	-40.8	-44.0	13.9	3.00e-06	0	56	0	428867584	52	5415
2026-01-07 22:30:44.64	68.30	24.29	-41.2	-44.8	13.1	2.44e-05	0	56	0	437256192	53	5593
2026-01-07 22:30:48.68	69.38	24.53	-40.3	-43.1	14.7	7.00e-07	0	56	0	444596224	52	4907
2026-01-07 22:30:52.72	70.48	24.75	-41.3	-45.0	12.8	2.51e-05	0	56	0	451936256	53	5784
2026-01-07 22:30:56.75	71.58	24.96	-41.8	-45.9	11.8	5.18e-04	0	56	0	459276288	54	6037
2026-01-07 22:31:00.79	72.71	25.17	-41.5	-45.4	12.4	1.90e-04	0	56	0	467664896	54	5666
2026-01-07 22:31:04.82	73.85	25.36	-41.0	-44.5	13.3	9.10e-06	0	56	0	475004928	53	5426
2026-01-07 22:31:08.86	75.00	25.55	-41.6	-45.5	12.2	3.24e-04	0	56	0	482344960	54	5787
2026-01-07 22:31:12.89	76.17	25.72	-41.9	-46.2	11.6	4.50e-04	0	57	0	489684992	54	6247
2026-01-07 22:31:16.93	77.35	25.88	-41.6	-45.4	12.4	1.72e-04	0	56	0	497025024	54	5666
2026-01-07 22:31:20.96	78.54	26.03	-40.8	-44.0	13.8	1.06e-05	0	56	0	505413632	53	5149
2026-01-07 22:31:24.99	79.73	26.17	-41.2	-44.7	13.2	4.11e-05	0	57	0	512753664	53	5592
2026-01-07 22:31:29.03	80.95	26.30	-41.7	-45.6	12.3	1.35e-04	0	56	0	520093696	53	6147
2026-01-07 22:31:33.06	82.16	26.41	-40.9	-44.0	13.9	4.50e-06	0	57	0	527433728	53	5136
2026-01-07 22:31:37.09	83.39	26.51	-41.6	-45.5	12.4	1.40e-04	0	56	0	534773760	53	6080
2026-01-07 22:31:41.13	84.63	26.60	-40.5	-43.5	14.4	7.00e-07	0	57	0	543162368	53	4849
2026-01-07 22:31:45.16	85.87	26.67	-41.1	-44.2	13.8	9.90e-06	0	57	0	550502400	53	5264
2026-01-07 22:31:49.19	87.11	26.73	-41.1	-44.2	13.8	2.20e-06	0	57	0	557842432	53	5250
2026-01-07 22:31:53.23	88.36	26.77	-41.0	-44.1	14.0	3.80e-06	0	56	0	565182464	53	5168
2026-01-07 22:31:57.27	89.62	26.80	-41.5	-44.8	13.3	1.37e-05	0	57	0	573571072	53	5646
2026-01-07 22:32:01.31	90.87	26.81	-41.1	-44.2	13.8	2.20e-06	0	57	0	580911104	53	5261
2026-01-07 22:32:05.34	92.13	26.81	-40.8	-43.7	14.4	7.00e-07	0	57	0	588251136	53	4950
2026-01-07 22:32:09.38	93.38	26.80	-41.3	-44.6	13.4	8.30e-06	0	57	0	595591168	53	5485
2026-01-07 22:32:13.41	94.64	26.77	-41.5	-45.0	13.1	3.73e-05	0	56	0	602931200	54	5403
2026-01-07 22:32:17.45	95.89	26.73	-40.7	-43.5	14.6	0.00e+00	0	57	0	611319808	53	4821
2026-01-07 22:32:21.49	97.14	26.67	-40.6	-43.4	14.7	2.20e-06	0	57	0	618659840	53	4801
2026-01-07 22:32:25.52	98.38	26.60	-40.6	-43.3	14.8	0.00e+00	0	57	0	625999872	52	5027
2026-01-07 22:32:29.56	99.62	26.51	-40.2	-42.7	15.4	0.00e+00	0	57	0	633339904	52	4679
2026-01-07 22:32:33.59	100.85	26.42	-40.5	-43.1	15.1	0.00e+00	0	57	0	641728512	51	5208
2026-01-07 22:32:37.63	102.07	26.30	-41.1	-44.3	13.8	5.30e-06	0	57	0	649068544	53	5282
2026-01-07 22:32:41.65	103.28	26.18	-40.1	-42.5	15.6	0.00e+00	0	57	0	656408576	52	4592
2026-01-07 22:32:45.68	104.48	26.04	-39.1	-41.1	17.1	0.00e+00	0	57	0	663748608	50	4363
2026-01-07 22:32:49.70	105.67	25.89	-39.9	-42.3	15.9	0.00e+00	0	57	0	671088640	50	4998
2026-01-07 22:32:53.73	106.85	25.73	-39.4	-41.6	16.6	0.00e+00	0	56	0	679477248	50	4600
2026-01-07 22:32:57.78	108.02	25.56	-39.1	-41.2	17.0	0.00e+00	0	57	0	686817280	49	4685
2026-01-07 22:33:01.81	109.18	25.37	-38.3	-40.1	18.0	0.00e+00	0	57	0	694157312	48	4363
2026-01-07 22:33:05.84	110.32	25.18	-39.4	-41.5	16.6	0.00e+00	0	57	0	701497344	49	4853
2026-01-07 22:33:09.88	111.45	24.97	-38.9	-40.9	17.2	0.00e+00	0	57	0	708837376	49	4514
2026-01-07 22:33:13.91	112.56	24.76	-38.7	-40.6	17.5	0.00e+00	0	57	0	717225984	48	4628
2026-01-07 22:33:17.95	113.66	24.53	-38.9	-40.9	17.2	0.00e+00	0	57	0	724566016	48	4788
2026-01-07 22:33:21.99	114.75	24.30	-39.0	-41.1	17.0	0.00e+00	0	57	0	731906048	49	4612
2026-01-07 22:33:26.02	115.81	24.06	-39.0	-41.0	17.1	0.00e+00	0	57	0	739246080	49	4557
2026-01-07 22:33:30.06	116.87	23.81	-39.0	-41.1	17.0	0.00e+00	0	57	0	746586112	49	4614
2026-01-07 22:33:34.10	117.90	23.55	-39.9	-42.2	15.9	0.00e+00	0	57	0	754974720	50	4963
2026-01-07 22:33:38.14	118.92	23.29	-39.8	-42.1	15.9	0.00e+00	0	57	0	762314752	51	4633
2026-01-07 22:33:42.18	119.93	23.02	-39.4	-41.6	16.5	0.00e+00	0	57	0	769654784	50	4643
2026-01-07 22:33:46.21	120.91	22.74	-39.2	-41.4	16.7	0.00e+00	0	57	0	776994816	50	4507
2026-01-07 22:33:50.25	121.88	22.46	-39.9	-42.3	15.8	0.00e+00	0	57	0	785383424	50	5016
2026-01-07 22:33:54.28	122.83	22.17	-39.6	-41.9	16.2	0.00e+00	0	57	0	792723456	50	4760
2026-01-07 22:33:58.32	123.76	21.88	-39.8	-42.1	15.9	0.00e+00	0	57	0	800063488	50	4920
2026-01-07 22:34:02.36	124.68	21.59	-39.7	-42.0	16.1	0.00e+00	0	57	0	807403520	50	4861
2026-01-07 22:34:06.39	125.58	21.29	-40.5	-43.3	14.8	0.00e+00	0	57	0	814743552	51	5290
2026-01-07 22:34:10.42	126.46	20.99	-39.3	-41.4	16.6	0.00e+00	0	57	0	823132160	50	4512
2026-01-07 22:34:14.45	127.33	20.68	-40.0	-42.5	15.5	0.00e+00	0	57	0	830472192	50	5118
2026-01-07 22:34:18.49	128.18	20.38	-40.4	-43.0	15.0	0.00e+00	0	57	0	837812224	51	5145
2026-01-07 22:34:22.53	129.01	20.07	-40.2	-42.8	15.1	0.00e+00	0	57	0	845152256	52	4744
2026-01-07 22:34:26.57	129.83	19.75	-39.0	-41.0	17.0	7.00e-07	0	57	0	852492288	49	4592
2026-01-07 22:34:30.61	130.63	19.44	-40.1	-42.6	15.4	3.26e-04	0	57	0	860880896	50	5212
2026-01-07 22:34:34.64	131.42	19.13	-40.1	-42.6	15.4	4.50e-06	0	57	0	868220928	51	4876
2026-01-07 22:34:38.68	132.19	18.81	-39.6	-41.9	16.0	4.03e-04	0	57	0	875560960	49	5094
2026-01-07 22:34:42.72	132.94	18.49	-39.5	-41.9	15.9	7.62e-05	0	57	0	882900992	50	4796
2026-01-07 22:34:46.76	133.68	18.18	-39.8	-42.2	15.7	6.10e-06	0	57	0	891289600	50	4976
2026-01-07 22:34:50.79	134.40	17.86	-40.2	-42.8	15.1	7.01e-05	0	57	0	898629632	51	5027
2026-01-07 22:34:54.83	135.11	17.54	-40.0	-42.4	15.5	1.22e-05	0	57	0	905969664	50	5092
2026-01-07 22:34:58.86	135.81	17.22	-40.6	-43.6	13.9	3.14e-03	0	57	0	913309696	51	5475
2026-01-07 22:35:02.91	136.49	16.90	-40.1	-42.7	15.1	2.05e-05	0	57	0	920649728	52	4692
2026-01-07 22:35:06.93	137.15	16.59	-39.7	-42.1	15.8	3.00e-06	0	57	0	929038336	50	4893
2026-01-07 22:35:10.97	137.81	16.27	-39.5	-41.8	16.1	8.30e-06	0	57	0	936378368	50	4713
2026-01-07 22:35:15.01	138.45	15.95	-39.2	-41.4	16.4	7.00e-07	0	57	0	943718400	49	4804
2026-01-07 22:35:19.05	139.07	15.64	-39.6	-42.0	15.8	0.00e+00	0	57	0	951058432	49	5113
2026-01-07 22:35:23.09	139.69	15.32	-40.3	-43.1	14.6	0.00e+00	0	57	0	959447040	51	5189
2026-01-07 22:35:27.13	140.29	15.01	-40.4	-43.3	14.5	7.00e-07	0	57	0	966787072	51	5292
2026-01-07 22:35:31.16	140.88	14.70	-40.1	-42.7	15.1	0.00e+00	0	57	0	974127104	51	4949
2026-01-07 22:35:35.20	141.46	14.38	-40.0	-42.6	15.1	0.00e+00	0	57	0	981467136	51	4907
2026-01-07 22:35:39.23	142.03	14.08	-39.8	-42.4	15.3	0.00e+00	0	57	0	988807168	51	4777
2026-01-07 22:35:43.27	142.58	13.77	-39.3	-41.6	16.1	0.00e+00	0	57	0	997195776	50	4629
2026-01-07 22:35:47.31	143.12	13.46	-39.9	-42.5	15.2	0.00e+00	0	57	0	1004535808	50	5103
2026-01-07 22:35:51.35	143.66	13.15	-40.5	-43.3	14.4	0.00e+00	0	57	0	1011875840	51	5340
2026-01-07 22:35:55.39	144.18	12.85	-40.4	-43.3	14.4	0.00e+00	0	57	0	1019215872	51	5291
2026-01-07 22:35:59.43	144.69	12.55	-40.2	-42.9	14.7	0.00e+00	0	57	0	1027604480	51	5096
2026-01-07 22:36:03.46	145.20	12.25	-40.3	-43.2	14.4	0.00e+00	0	57	0	1034944512	51	5238
2026-01-07 22:36:07.49	145.69	11.95	-40.8	-44.1	13.4	1.14e-05	0	57	0	1042284544	52	5465
2026-01-07 22:36:11.53	146.17	11.65	-40.6	-43.7	13.8	8.30e-06	0	57	0	1049624576	52	5252
2026-01-07 22:36:15.57	146.64	11.36	-40.6	-43.7	13.8	3.80e-06	0	57	0	1056964608	52	5241
2026-01-07 22:36:19.60	147.11	11.07	-40.6	-43.8	13.6	6.80e-06	0	57	0	1065353216	52	5311
2026-01-07 22:36:23.64	147.56	10.77	-40.8	-44.1	13.3	3.05e-05	0	57	0	1072693248	52	5485
2026-01-07 22:36:27.68	148.01	10.48	-40.5	-43.6	13.8	6.80e-06	0	57	0	1080033280	52	5168
2026-01-07 22:36:31.72	148.45	10.20	-40.3	-43.2	14.1	7.00e-07	0	57	0	1087373312	52	4972
2026-01-07 22:36:35.76	148.88	9.91	-40.6	-43.9	13.4	1.37e-05	0	57	0	1095761920	52	5348
2026-01-07 22:36:39.79	149.30	9.63	-41.0	-44.7	12.5	8.92e-05	0	57	0	1103101952	52	5877
2026-01-07 22:36:43.83	149.72	9.35	-41.2	-45.0	12.2	2.43e-04	0	57	0	1110441984	53	5744
2026-01-07 22:36:47.85	150.12	9.07	-41.0	-44.6	12.4	1.92e-04	0	57	0	1117782016	53	5526
2026-01-07 22:36:51.87	150.52	8.79	-40.8	-44.3	12.8	4.34e-05	0	57	0	1125122048	53	5301
2026-01-07 22:36:55.89	150.91	8.52	-40.5	-43.8	13.2	2.28e-05	0	57	0	1133510656	52	5324
2026-01-07 22:36:59.92	151.30	8.24	-40.3	-43.5	13.4	9.90e-06	0	57	0	1140850688	52	5149
2026-01-07 22:37:03.96	151.68	7.97	-44.2	-58.3	3.8	3.42e-01	0	57	104	1148190720	58	19974
2026-01-07 22:37:08.00	152.05	7.70	-45.2	-59.8	3.8	1.49e+00	0	57	104	1148190720	60	21094
2026-01-07 22:37:12.03	152.41	7.43	-45.4	-60.1	3.8	1.49e+00	0	57	104	1148190720	61	20604
2026-01-07 22:37:16.05	152.77	7.17	-45.2	-59.9	3.8	1.49e+00	0	57	104	1148190720	61	20223
2026-01-07 22:37:20.07	153.12	6.90	-45.1	-59.9	3.8	1.49e+00	0	57	104	1148190720	61	20154
2026-01-07 22:37:24.08	153.46	6.64	-45.1	-59.9	3.8	1.49e+00	0	57	104	1148190720	61	20076
2026-01-07 22:37:28.12	153.81	6.38	-45.1	-59.8	3.8	1.49e+00	0	57	104	1148190720	61	20035
2026-01-07 22:37:32.14	154.14	6.12	-45.1	-59.9	3.8	1.49e+00	0	57	104	1148190720	61	20072
2026-01-07 22:37:36.18	154.47	5.86	-45.1	-59.8	3.8	1.49e+00	0	57	104	1148190720	61	19999
2026-01-07 22:37:40.19	154.79	5.61	-45.1	-59.8	3.8	1.49e+00	0	57	104	1148190720	61	20022
2026-01-07 22:37:44.22	155.11	5.36	-45.1	-59.8	3.8	1.49e+00	0	57	104	1148190720	61	19988
2026-01-07 22:37:48.24	155.42	5.10	-45.1	-59.8	3.8	1.49e+00	0	57	104	1148190720	61	19935
2026-01-07 22:37:52.27	155.73	4.85	-45.1	-59.8	3.8	1.49e+00	0	57	104	1148190720	60	21154
2026-01-07 22:37:56.29	156.03	4.61	-45.0	-59.8	3.8	1.49e+00	0	57	104	1148190720	60	21154
2026-01-07 22:38:00.32	156.33	4.36	-45.1	-59.8	3.8	1.49e+00	0	57	104	1148190720	60	21123
2026-01-07 22:38:04.34	156.62	4.11	-45.1	-59.8	3.8	1.49e+00	0	57	104	1148190720	60	21165
2026-01-07 22:38:08.36	156.91	3.87	-45.1	-59.8	3.8	1.49e+00	0	57	104	1148190720	60	21125
2026-01-07 22:38:12.39	157.19	3.63	-45.0	-59.8	3.8	1.49e+00	0	57	104	1148190720	60	21115
2026-01-07 22:38:16.41	157.47	3.39	-45.0	-59.8	3.8	1.49e+00	0	57	104	1148190720	60	21028
2026-01-07 22:38:20.41	157.74	3.15	-45.0	-59.8	3.8	1.49e+00	0	57	104	1148190720	60	21125
2026-01-07 22:38:24.43	158.01	2.92	-45.1	-59.8	3.8	1.49e+00	0	57	104	1148190720	60	21060
2026-01-07 22:38:28.44	158.28	2.68	-45.0	-59.8	3.8	1.49e+00	0	57	104	1148190720	60	21124
2026-01-07 22:38:32.45	158.54	2.45	-45.1	-59.8	3.8	1.49e+00	0	57	104	1148190720	60	21097
2026-01-07 22:38:36.47	158.80	2.22	-45.0	-59.8	3.8	1.49e+00	0	58	104	1148190720	60	21062

#Closed at: 2026-01-07 22:38:40
#Recorded file [1148 MB]: D:/lorett/data/31039_260108_012525.dat