passes_logs/2026/01/09/R3.2S_Murmansk/R3.2S_Murmansk__20260109_054408_FENGYUN_3D_rec.log

#Pass ID: 20260109_054408_FENGYUN 3D
#Satellite: FENGYUN 3D
#Configuration: FENGYUN 3D
#almurnet v.1.7.20251203
#Start time: 2026-01-09 05:44:07

#Version: 2.2.20231116
#Station: R3.2S_Murmansk
#Location: 33.079688 lon 68.888172 lat
#TLE: 1 43010U 17072A   26008.59015185 -.00000067  00000+0 -98204-5 0  9997
#TLE: 2 43010  98.9935 340.3069 0002117 119.1923 240.9464 14.19693468422340

#Time	Az	El	Level	Level2	SNR	BER	BlckErr	Temp	State	Recorded	gain1	gain2
2026-01-09 05:44:07.80	44.40	1.99	-57.2	-70.2	3.8	8.46e-01	0	22	0	0	80	16176
2026-01-09 05:44:11.83	44.18	2.22	-57.1	-70.1	3.8	8.45e-01	0	22	104	0	79	17013
2026-01-09 05:44:15.87	43.95	2.46	-57.1	-70.1	3.8	8.46e-01	0	22	104	0	79	17015
2026-01-09 05:44:19.91	43.72	2.70	-57.2	-70.1	3.8	8.46e-01	0	22	104	0	79	17063
2026-01-09 05:44:23.94	43.49	2.94	-57.2	-70.2	3.8	8.46e-01	0	22	104	0	79	17096
2026-01-09 05:44:27.97	43.25	3.19	-57.2	-70.1	3.8	8.46e-01	0	22	104	0	79	16891
2026-01-09 05:44:32.01	43.01	3.43	-57.1	-70.0	3.8	8.45e-01	0	22	104	0	79	16769
2026-01-09 05:44:36.04	42.76	3.68	-57.2	-70.2	3.8	8.46e-01	0	22	104	0	79	17086
2026-01-09 05:44:40.08	42.51	3.93	-57.1	-70.0	3.8	8.46e-01	0	22	104	0	79	16698
2026-01-09 05:44:44.12	42.26	4.18	-57.2	-70.1	3.8	8.46e-01	0	22	104	0	79	17052
2026-01-09 05:44:48.15	42.00	4.43	-56.9	-67.5	3.9	8.44e-01	0	23	104	0	79	12636
2026-01-09 05:44:52.19	41.73	4.68	-56.3	-63.3	5.7	5.70e-01	0	23	0	1048576	79	7738
2026-01-09 05:44:56.23	41.46	4.94	-55.4	-60.4	8.1	4.82e-02	0	23	0	24117248	77	6208
2026-01-09 05:45:00.26	41.19	5.20	-55.9	-61.2	7.5	4.35e-01	0	23	0	38797312	78	6427
2026-01-09 05:45:04.29	40.91	5.45	-51.4	-53.3	13.5	0.00e+00	0	23	0	55574528	69	4357
2026-01-09 05:45:08.33	40.62	5.72	-49.0	-50.5	14.6	0.00e+00	0	23	0	78643200	64	4227
2026-01-09 05:45:12.36	40.33	5.98	-48.9	-50.4	14.7	0.00e+00	0	23	0	101711872	64	4182
2026-01-09 05:45:16.39	40.04	6.24	-48.9	-50.4	14.7	0.00e+00	0	23	0	123731968	64	4149
2026-01-09 05:45:20.41	39.74	6.51	-48.7	-50.1	14.7	0.00e+00	0	23	0	146800640	63	4273
2026-01-09 05:45:24.45	39.43	6.78	-48.7	-50.1	14.7	0.00e+00	0	23	0	169869312	63	4279
2026-01-09 05:45:28.48	39.11	7.05	-48.8	-50.2	14.7	0.00e+00	0	23	0	191889408	63	4316
2026-01-09 05:45:32.52	38.79	7.32	-48.8	-50.2	14.7	0.00e+00	0	23	0	214958080	63	4309
2026-01-09 05:45:36.55	38.47	7.60	-48.8	-50.2	14.7	0.00e+00	0	23	0	236978176	63	4329
2026-01-09 05:45:40.57	38.14	7.87	-48.7	-50.2	14.7	0.00e+00	0	23	0	260046848	63	4293
2026-01-09 05:45:44.56	37.80	8.15	-48.7	-50.1	14.8	0.00e+00	0	23	0	282066944	63	4276
2026-01-09 05:45:48.56	37.46	8.43	-48.6	-50.0	14.8	0.00e+00	0	23	0	305135616	63	4201
2026-01-09 05:45:52.54	37.11	8.71	-48.5	-49.9	14.9	0.00e+00	0	23	0	327155712	63	4176
2026-01-09 05:45:56.51	36.75	8.99	-48.1	-49.4	15.0	0.00e+00	0	23	0	350224384	62	4191
2026-01-09 05:46:00.50	36.39	9.27	-48.1	-49.4	15.0	0.00e+00	0	23	0	372244480	62	4161
2026-01-09 05:46:04.49	36.02	9.56	-48.0	-49.3	15.1	0.00e+00	0	23	0	394264576	62	4121
2026-01-09 05:46:08.46	35.64	9.85	-48.0	-49.3	15.0	0.00e+00	0	23	0	417333248	62	4135
2026-01-09 05:46:12.44	35.26	10.14	-47.9	-49.2	15.1	0.00e+00	0	23	0	439353344	62	4073
2026-01-09 05:46:16.45	34.86	10.43	-47.8	-49.1	15.2	0.00e+00	0	23	0	462422016	62	4015
2026-01-09 05:46:20.43	34.46	10.72	-47.8	-49.1	15.2	0.00e+00	0	24	0	484442112	62	4027
2026-01-09 05:46:24.41	34.05	11.02	-47.5	-48.8	15.2	0.00e+00	0	23	0	506462208	61	4099
2026-01-09 05:46:28.39	33.63	11.32	-47.5	-48.7	15.2	0.00e+00	0	24	0	529530880	61	4074
2026-01-09 05:46:32.38	33.20	11.62	-47.5	-48.7	15.2	0.00e+00	0	23	0	551550976	61	4077
2026-01-09 05:46:36.35	32.76	11.92	-47.5	-48.8	15.2	0.00e+00	0	23	0	573571072	61	4120
2026-01-09 05:46:40.31	32.32	12.22	-47.5	-48.8	15.2	0.00e+00	0	23	0	595591168	61	4101
2026-01-09 05:46:44.27	31.86	12.53	-47.5	-48.8	15.2	0.00e+00	0	24	0	618659840	61	4125
2026-01-09 05:46:48.23	31.40	12.84	-47.5	-48.7	15.2	0.00e+00	0	23	0	640679936	61	4088
2026-01-09 05:46:52.18	30.93	13.14	-47.2	-48.4	15.4	0.00e+00	0	23	0	662700032	61	3957
2026-01-09 05:46:56.18	30.44	13.46	-47.1	-48.3	15.3	0.00e+00	0	24	0	684720128	60	4133
2026-01-09 05:47:00.14	29.94	13.77	-47.2	-48.4	15.3	0.00e+00	0	24	0	707788800	60	4151
2026-01-09 05:47:04.13	29.43	14.09	-46.9	-48.1	15.4	0.00e+00	0	23	0	729808896	60	4027
2026-01-09 05:47:08.10	28.91	14.41	-46.7	-47.9	15.5	0.00e+00	0	24	0	752877568	60	3941
2026-01-09 05:47:12.07	28.38	14.72	-47.0	-48.2	15.2	0.00e+00	0	24	0	774897664	59	4327
2026-01-09 05:47:16.04	27.84	15.04	-46.8	-48.0	15.3	0.00e+00	0	24	0	796917760	59	4241
2026-01-09 05:47:20.01	27.29	15.37	-46.8	-48.0	15.3	0.00e+00	0	24	0	818937856	59	4198
2026-01-09 05:47:23.97	26.72	15.69	-46.8	-48.0	15.3	0.00e+00	0	24	0	842006528	59	4240
2026-01-09 05:47:27.95	26.14	16.01	-46.7	-47.9	15.4	0.00e+00	0	24	0	864026624	59	4165
2026-01-09 05:47:31.92	25.55	16.34	-46.6	-47.8	15.4	0.00e+00	0	23	0	886046720	59	4127
2026-01-09 05:47:35.89	24.95	16.67	-46.7	-47.9	15.4	0.00e+00	0	24	0	908066816	59	4149
2026-01-09 05:47:39.84	24.33	17.00	-46.5	-47.7	15.4	0.00e+00	0	24	0	931135488	59	4083
2026-01-09 05:47:43.81	23.70	17.32	-46.4	-47.6	15.5	0.00e+00	0	24	0	953155584	59	4029
2026-01-09 05:47:47.79	23.05	17.66	-46.1	-47.3	15.5	0.00e+00	0	24	0	975175680	58	4103
2026-01-09 05:47:51.76	22.39	17.99	-46.2	-47.4	15.5	0.00e+00	0	24	0	998244352	58	4155
2026-01-09 05:47:55.74	21.71	18.32	-46.2	-47.4	15.5	0.00e+00	0	24	0	1020264448	58	4168
2026-01-09 05:47:59.71	21.02	18.65	-45.9	-47.1	15.6	0.00e+00	0	24	0	1042284544	58	4007
2026-01-09 05:48:03.68	20.31	18.98	-46.0	-47.1	15.5	0.00e+00	0	24	0	1065353216	58	4050
2026-01-09 05:48:07.68	19.58	19.31	-46.3	-47.5	15.5	0.00e+00	0	23	0	1087373312	58	4194
2026-01-09 05:48:11.65	18.85	19.64	-46.1	-47.2	15.5	0.00e+00	0	24	0	1110441984	58	4082
2026-01-09 05:48:15.63	18.09	19.97	-46.1	-47.2	15.5	0.00e+00	0	24	0	1132462080	58	4089
2026-01-09 05:48:19.60	17.32	20.30	-46.1	-47.2	15.5	0.00e+00	0	24	0	1154482176	58	4092
2026-01-09 05:48:23.57	16.53	20.63	-45.9	-47.0	15.6	0.00e+00	0	24	0	1176502272	58	4001
2026-01-09 05:48:27.54	15.72	20.95	-45.7	-46.9	15.7	0.00e+00	0	24	0	1199570944	58	3914
2026-01-09 05:48:31.51	14.90	21.28	-45.5	-46.6	15.6	0.00e+00	0	24	0	1221591040	57	4037
2026-01-09 05:48:35.46	14.06	21.60	-45.4	-46.5	15.7	0.00e+00	0	24	0	1243611136	57	3974
2026-01-09 05:48:39.43	13.20	21.91	-45.5	-46.6	15.6	0.00e+00	0	24	0	1265631232	57	4020
2026-01-09 05:48:43.38	12.33	22.23	-45.6	-46.7	15.6	0.00e+00	0	24	0	1288699904	57	4097
2026-01-09 05:48:47.35	11.44	22.54	-45.6	-46.7	15.6	0.00e+00	0	24	0	1310720000	57	4088
2026-01-09 05:48:51.33	10.52	22.85	-45.4	-46.5	15.7	0.00e+00	0	24	0	1332740096	57	3971
2026-01-09 05:48:55.30	9.59	23.15	-45.4	-46.5	15.7	0.00e+00	0	24	0	1355808768	57	3997
2026-01-09 05:48:59.28	8.64	23.45	-45.3	-46.4	15.7	0.00e+00	0	24	0	1377828864	57	3922
2026-01-09 05:49:03.24	7.67	23.74	-45.5	-46.6	15.6	0.00e+00	0	24	0	1399848960	57	4036
2026-01-09 05:49:07.21	6.69	24.03	-45.3	-46.3	15.7	0.00e+00	0	24	0	1422917632	57	3911
2026-01-09 05:49:11.19	5.68	24.31	-45.2	-46.3	15.8	0.00e+00	0	24	0	1444937728	57	3871
2026-01-09 05:49:15.16	4.66	24.59	-45.4	-46.5	15.5	0.00e+00	0	24	0	1466957824	56	4203
2026-01-09 05:49:19.13	3.62	24.85	-45.2	-46.4	15.6	0.00e+00	0	24	0	1488977920	56	4146
2026-01-09 05:49:23.12	2.55	25.11	-44.8	-45.9	15.7	0.00e+00	0	24	0	1512046592	56	3934
2026-01-09 05:49:27.11	1.47	25.37	-44.8	-45.9	15.8	0.00e+00	0	24	0	1534066688	56	3915
2026-01-09 05:49:31.08	0.38	25.61	-45.0	-46.1	15.7	0.00e+00	0	24	0	1556086784	56	4007
2026-01-09 05:49:35.05	359.27	25.84	-44.9	-46.0	15.7	0.00e+00	0	24	0	1579155456	56	3986
2026-01-09 05:49:39.00	358.15	26.06	-45.0	-46.1	15.7	0.00e+00	0	24	0	1601175552	56	4019
2026-01-09 05:49:42.98	357.00	26.27	-44.7	-45.7	15.8	0.00e+00	0	24	0	1623195648	56	3855
2026-01-09 05:49:46.92	355.86	26.47	-44.7	-45.8	15.6	0.00e+00	0	24	0	1645215744	55	4130
2026-01-09 05:49:50.91	354.68	26.66	-44.6	-45.7	15.7	0.00e+00	0	24	0	1668284416	55	4065
2026-01-09 05:49:54.89	353.49	26.84	-44.8	-45.9	15.6	0.00e+00	0	24	0	1690304512	55	4149
2026-01-09 05:49:58.87	352.29	27.00	-44.6	-45.7	15.6	0.00e+00	0	24	0	1713373184	55	4072
2026-01-09 05:50:02.84	351.08	27.15	-44.5	-45.5	15.7	0.00e+00	0	24	0	1735393280	55	3995
2026-01-09 05:50:06.82	349.86	27.29	-44.5	-45.6	15.7	0.00e+00	0	24	0	1757413376	55	4012
2026-01-09 05:50:10.78	348.63	27.41	-44.4	-45.5	15.7	0.00e+00	0	24	0	1779433472	55	3985
2026-01-09 05:50:14.76	347.39	27.52	-44.5	-45.5	15.7	0.00e+00	0	24	0	1802502144	55	3989
2026-01-09 05:50:18.71	346.15	27.61	-44.5	-45.6	15.7	0.00e+00	0	24	0	1824522240	55	4033
2026-01-09 05:50:22.69	344.89	27.69	-44.3	-45.3	15.8	0.00e+00	0	24	0	1847590912	55	3903
2026-01-09 05:50:26.68	343.62	27.76	-44.1	-45.1	15.7	0.00e+00	0	24	0	1869611008	54	4046
2026-01-09 05:50:30.65	342.36	27.81	-44.3	-45.4	15.7	0.00e+00	0	24	0	1891631104	54	4148
2026-01-09 05:50:34.64	341.08	27.84	-44.3	-45.3	15.6	0.00e+00	0	24	0	1913651200	54	4129
2026-01-09 05:50:38.61	339.81	27.86	-44.3	-45.4	15.6	0.00e+00	0	24	0	1936719872	54	4148
2026-01-09 05:50:42.57	338.54	27.86	-44.5	-45.6	15.6	0.00e+00	0	24	0	1958739968	54	4278
2026-01-09 05:50:46.54	337.27	27.85	-44.5	-45.6	15.6	0.00e+00	0	24	0	1980760064	54	4248
2026-01-09 05:50:50.51	336.01	27.82	-44.3	-45.3	15.6	0.00e+00	0	24	0	2003828736	54	4143
2026-01-09 05:50:54.48	334.74	27.77	-44.2	-45.2	15.7	0.00e+00	0	24	0	2025848832	54	4086
2026-01-09 05:50:58.44	333.48	27.71	-44.4	-45.5	15.6	0.00e+00	0	24	0	2047868928	54	4195
2026-01-09 05:51:02.40	332.23	27.64	-44.4	-45.4	15.6	0.00e+00	0	24	0	2069889024	54	4174
2026-01-09 05:51:06.38	330.97	27.55	-44.4	-45.5	15.6	0.00e+00	0	24	0	2092957696	54	4223
2026-01-09 05:51:10.34	329.73	27.44	-44.4	-45.4	15.6	0.00e+00	0	24	0	2114977792	54	4182
2026-01-09 05:51:14.33	328.49	27.32	-44.5	-45.6	15.6	0.00e+00	0	24	0	2136997888	54	4256
2026-01-09 05:51:18.32	327.26	27.19	-44.4	-45.4	15.6	0.00e+00	0	24	0	2160066560	54	4188
2026-01-09 05:51:22.31	326.05	27.04	-44.3	-45.3	15.6	0.00e+00	0	24	0	2182086656	54	4133
2026-01-09 05:51:26.31	324.84	26.88	-44.4	-45.4	15.6	0.00e+00	0	24	0	2205155328	54	4188
2026-01-09 05:51:30.31	323.64	26.70	-44.2	-45.3	15.6	0.00e+00	0	24	0	2227175424	54	4124
2026-01-09 05:51:34.30	322.46	26.51	-44.3	-45.3	15.6	0.00e+00	0	24	0	2250244096	54	4117
2026-01-09 05:51:38.30	321.29	26.32	-44.5	-45.6	15.6	0.00e+00	0	24	0	2272264192	54	4261
2026-01-09 05:51:42.27	320.14	26.11	-44.5	-45.5	15.6	0.00e+00	0	24	0	2294284288	54	4236
2026-01-09 05:51:46.25	319.01	25.89	-44.4	-45.5	15.6	0.00e+00	0	24	0	2317352960	54	4218
2026-01-09 05:51:50.23	317.89	25.66	-44.4	-45.4	15.6	0.00e+00	0	24	0	2339373056	54	4186
2026-01-09 05:51:54.20	316.79	25.42	-44.6	-45.7	15.6	0.00e+00	0	24	0	2361393152	54	4314
2026-01-09 05:51:58.20	315.70	25.16	-44.5	-45.5	15.6	0.00e+00	0	24	0	2384461824	54	4230
2026-01-09 05:52:02.19	314.64	24.91	-44.6	-45.7	15.6	0.00e+00	0	24	0	2406481920	54	4321
2026-01-09 05:52:06.18	313.58	24.64	-45.0	-46.0	15.6	0.00e+00	0	24	0	2428502016	55	4235
2026-01-09 05:52:10.15	312.56	24.37	-45.0	-46.1	15.5	0.00e+00	0	24	0	2451570688	55	4261
2026-01-09 05:52:14.15	311.54	24.08	-45.0	-46.1	15.5	0.00e+00	0	24	0	2473590784	55	4265
2026-01-09 05:52:18.15	310.54	23.79	-44.8	-45.9	15.6	0.00e+00	0	24	0	2496659456	55	4178
2026-01-09 05:52:22.13	309.57	23.50	-44.6	-45.7	15.7	0.00e+00	0	24	0	2518679552	55	4072
2026-01-09 05:52:26.13	308.60	23.20	-44.8	-45.9	15.6	0.00e+00	0	24	0	2540699648	55	4182
2026-01-09 05:52:30.11	307.67	22.90	-45.0	-46.1	15.6	0.00e+00	0	24	0	2563768320	55	4266
2026-01-09 05:52:34.10	306.74	22.59	-44.9	-46.0	15.6	0.00e+00	0	24	0	2585788416	55	4211
2026-01-09 05:52:38.09	305.84	22.27	-45.2	-46.3	15.5	0.00e+00	0	24	0	2608857088	55	4348
2026-01-09 05:52:42.08	304.95	21.96	-45.3	-46.4	15.5	0.00e+00	0	24	0	2630877184	55	4402
2026-01-09 05:52:46.07	304.09	21.64	-45.5	-46.6	15.5	0.00e+00	0	24	0	2652897280	56	4285
2026-01-09 05:52:50.03	303.24	21.32	-45.8	-46.9	15.4	0.00e+00	0	24	0	2675965952	56	4440
2026-01-09 05:52:54.02	302.41	20.99	-45.8	-46.9	15.5	0.00e+00	0	24	0	2697986048	57	4185
2026-01-09 05:52:58.01	301.60	20.67	-45.9	-47.0	15.5	0.00e+00	0	24	0	2721054720	57	4215
2026-01-09 05:53:02.00	300.80	20.34	-45.9	-47.0	15.5	0.00e+00	0	24	0	2743074816	57	4238
2026-01-09 05:53:06.00	300.02	20.00	-45.7	-46.8	15.5	0.00e+00	0	24	0	2766143488	57	4140
2026-01-09 05:53:09.98	299.26	19.67	-45.8	-46.9	15.5	0.00e+00	0	24	0	2788163584	57	4178
2026-01-09 05:53:13.97	298.51	19.34	-46.0	-47.1	15.4	0.00e+00	0	24	0	2810183680	57	4272
2026-01-09 05:53:17.97	297.78	19.01	-46.0	-47.1	15.4	0.00e+00	0	24	0	2833252352	57	4280
2026-01-09 05:53:21.96	297.07	18.67	-45.9	-47.0	15.5	0.00e+00	0	24	0	2855272448	57	4202
2026-01-09 05:53:25.95	296.37	18.34	-46.1	-47.2	15.4	0.00e+00	0	24	0	2878341120	57	4327
2026-01-09 05:53:29.95	295.68	18.01	-46.3	-47.5	15.3	0.00e+00	0	24	0	2900361216	57	4449
2026-01-09 05:53:33.94	295.02	17.67	-46.5	-47.6	15.4	0.00e+00	0	24	0	2922381312	58	4277
2026-01-09 05:53:37.92	294.36	17.34	-46.7	-47.9	15.3	0.00e+00	0	24	0	2945449984	58	4393
2026-01-09 05:53:41.90	293.73	17.01	-46.8	-48.0	15.3	0.00e+00	0	24	0	2967470080	58	4463
2026-01-09 05:53:45.87	293.11	16.68	-46.8	-48.0	15.3	0.00e+00	0	24	0	2989490176	58	4442
2026-01-09 05:53:49.84	292.50	16.36	-46.7	-47.9	15.3	0.00e+00	0	24	0	3012558848	58	4422
2026-01-09 05:53:53.83	291.90	16.03	-46.8	-48.0	15.3	0.00e+00	0	24	0	3034578944	58	4458
2026-01-09 05:53:57.82	291.32	15.70	-46.9	-48.1	15.3	0.00e+00	0	24	0	3056599040	59	4270
2026-01-09 05:54:01.82	290.74	15.37	-47.1	-48.2	15.2	0.00e+00	0	24	0	3079667712	59	4340
2026-01-09 05:54:05.81	290.19	15.05	-47.2	-48.4	15.2	0.00e+00	0	24	0	3101687808	59	4421
2026-01-09 05:54:09.81	289.64	14.72	-47.2	-48.4	15.2	0.00e+00	0	24	0	3124756480	59	4410
2026-01-09 05:54:13.78	289.11	14.41	-47.4	-48.6	15.1	0.00e+00	0	24	0	3146776576	59	4529
2026-01-09 05:54:17.78	288.58	14.09	-47.3	-48.5	15.2	0.00e+00	0	24	0	3168796672	60	4231
2026-01-09 05:54:21.77	288.07	13.77	-47.3	-48.5	15.2	0.00e+00	0	24	0	3191865344	60	4219
2026-01-09 05:54:25.76	287.57	13.45	-47.2	-48.4	15.2	0.00e+00	0	24	0	3213885440	60	4185
2026-01-09 05:54:29.75	287.08	13.14	-47.2	-48.4	15.3	0.00e+00	0	24	0	3236954112	60	4159
2026-01-09 05:54:33.76	286.60	12.82	-47.2	-48.4	15.2	0.00e+00	0	24	0	3258974208	60	4179
2026-01-09 05:54:37.76	286.13	12.51	-47.4	-48.6	15.1	0.00e+00	0	24	0	3282042880	60	4276
2026-01-09 05:54:41.74	285.67	12.21	-47.5	-48.8	15.1	0.00e+00	0	24	0	3304062976	60	4359
2026-01-09 05:54:45.74	285.22	11.90	-47.6	-48.8	15.1	0.00e+00	0	24	0	3327131648	60	4383
2026-01-09 05:54:49.73	284.78	11.60	-47.7	-48.9	15.0	0.00e+00	0	24	0	3349151744	60	4424
2026-01-09 05:54:53.72	284.35	11.30	-47.8	-49.1	15.0	0.00e+00	0	24	0	3371171840	60	4497
2026-01-09 05:54:57.71	283.93	11.00	-47.8	-49.1	15.0	0.00e+00	0	24	0	3394240512	61	4279
2026-01-09 05:55:01.68	283.52	10.70	-47.9	-49.2	15.0	0.00e+00	0	24	0	3416260608	61	4307
2026-01-09 05:55:05.66	283.11	10.41	-48.0	-49.2	15.0	0.00e+00	0	24	0	3438280704	61	4338
2026-01-09 05:55:09.65	282.72	10.11	-48.1	-49.4	14.9	0.00e+00	0	24	0	3461349376	61	4395
2026-01-09 05:55:13.65	282.33	9.82	-48.1	-49.5	14.9	0.00e+00	0	24	0	3483369472	61	4444
2026-01-09 05:55:17.65	281.95	9.53	-48.1	-49.4	14.9	0.00e+00	0	24	0	3506438144	61	4432
2026-01-09 05:55:21.66	281.57	9.24	-48.0	-49.3	14.9	0.00e+00	0	24	0	3528458240	61	4375
2026-01-09 05:55:25.65	281.21	8.96	-48.2	-49.5	14.8	0.00e+00	0	24	0	3551526912	61	4477
2026-01-09 05:55:29.64	280.85	8.67	-48.2	-49.6	14.8	0.00e+00	0	24	0	3573547008	61	4507
2026-01-09 05:55:33.64	280.50	8.39	-48.4	-49.7	14.9	0.00e+00	0	24	0	3596615680	62	4322
2026-01-09 05:55:37.65	280.15	8.11	-48.3	-49.6	14.9	0.00e+00	0	24	0	3618635776	62	4273
2026-01-09 05:55:41.63	279.82	7.84	-48.4	-49.8	14.8	0.00e+00	0	24	0	3640655872	62	4360
2026-01-09 05:55:45.62	279.48	7.56	-48.5	-49.9	14.7	0.00e+00	0	24	0	3663724544	62	4409
2026-01-09 05:55:49.60	279.16	7.29	-48.7	-50.1	14.6	0.00e+00	0	24	0	3685744640	62	4505
2026-01-09 05:55:53.58	278.84	7.02	-48.7	-50.1	14.7	0.00e+00	0	24	0	3707764736	62	4517
2026-01-09 05:55:57.57	278.53	6.75	-48.7	-50.1	14.6	0.00e+00	0	24	0	3730833408	62	4503
2026-01-09 05:56:01.45	278.23	6.50	-48.7	-50.1	14.6	0.00e+00	0	24	0	3752853504	62	4522
2026-01-09 05:56:05.39	277.94	6.23	-48.8	-50.2	14.7	0.00e+00	0	24	0	3774873600	63	4336
2026-01-09 05:56:09.39	277.64	5.97	-49.0	-50.5	14.5	0.00e+00	0	24	0	3797942272	63	4466
2026-01-09 05:56:13.40	277.35	5.71	-49.0	-50.4	14.5	0.00e+00	0	24	0	3819962368	63	4433
2026-01-09 05:56:17.39	277.07	5.45	-49.0	-50.5	14.5	0.00e+00	0	24	0	3843031040	63	4458
2026-01-09 05:56:21.39	276.79	5.19	-49.5	-51.0	14.3	0.00e+00	0	24	0	3865051136	64	4462
2026-01-09 05:56:25.37	276.52	4.94	-58.1	-71.1	3.8	8.46e-01	0	24	104	3883925504	81	16908
2026-01-09 05:56:29.36	276.25	4.68	-58.9	-71.9	3.8	8.47e-01	0	24	104	3883925504	82	17648
2026-01-09 05:56:33.36	275.98	4.43	-59.2	-72.3	3.8	8.45e-01	0	24	104	3883925504	83	17463
2026-01-09 05:56:37.35	275.72	4.18	-59.7	-72.8	3.8	8.45e-01	0	24	104	3883925504	84	17343
2026-01-09 05:56:41.34	275.47	3.94	-59.9	-73.0	3.8	8.46e-01	0	24	104	3883925504	85	16829
2026-01-09 05:56:45.34	275.22	3.69	-60.0	-73.1	3.8	8.46e-01	0	24	104	3883925504	85	16891
2026-01-09 05:56:49.32	274.97	3.44	-59.9	-73.0	3.8	8.45e-01	0	24	104	3883925504	85	16749
2026-01-09 05:56:53.30	274.73	3.20	-59.8	-72.8	3.8	8.45e-01	0	24	104	3883925504	85	16451
2026-01-09 05:56:57.28	274.49	2.96	-59.7	-72.8	3.8	8.44e-01	0	24	104	3883925504	85	16417
2026-01-09 05:57:01.28	274.26	2.72	-59.7	-72.8	3.8	8.45e-01	0	24	104	3883925504	85	16388
2026-01-09 05:57:05.28	274.03	2.48	-59.7	-72.8	3.8	8.44e-01	0	24	104	3883925504	85	16339
2026-01-09 05:57:09.27	273.80	2.25	-59.7	-72.7	3.8	8.45e-01	0	24	104	3883925504	85	16268
2026-01-09 05:57:13.27	273.58	2.01	-59.7	-72.7	3.8	8.47e-01	0	24	104	3883925504	85	16238

#Closed at: 2026-01-09 05:57:14
#Recorded file [3883 MB]: D:/lorett/data/31004_260109_084407.dat