passes_logs/2026/01/09/R3.2S_Murmansk/R3.2S_Murmansk__20260109_214405_SUOMI_NPP_rec.log

#Pass ID: 20260109_214405_SUOMI NPP
#Satellite: SUOMI NPP
#Configuration: NPP
#almurnet v.1.7.20251203
#Start time: 2026-01-09 21:44:05

#Version: 2.2.20231116
#Station: R3.2S_Murmansk
#Location: 33.079688 lon 68.888172 lat
#TLE: 1 37849U 11061A   26008.83076692  .00000095  00000+0  66074-4 0  9997
#TLE: 2 37849  98.7806 310.9327 0002533  74.3004 285.8451 14.19523607735834

#Time	Az	El	Level	Level2	SNR	BER	BlckErr	Temp	State	Recorded	gain1	gain2
2026-01-09 21:44:05.97	18.52	2.04	-57.2	-73.2	3.8	1.49e+00	0	21	0	0	80	22797
2026-01-09 21:44:08.98	18.79	2.19	-57.2	-73.0	3.8	1.49e+00	0	21	104	0	79	23758
2026-01-09 21:44:11.99	19.06	2.34	-57.2	-73.0	3.8	1.49e+00	0	21	104	0	79	23768
2026-01-09 21:44:15.00	19.33	2.48	-57.2	-73.1	3.8	1.49e+00	0	21	104	0	79	24081
2026-01-09 21:44:18.00	19.60	2.63	-57.2	-73.2	3.8	1.49e+00	0	22	104	0	79	24247
2026-01-09 21:44:21.01	19.88	2.78	-57.2	-73.1	3.8	1.49e+00	0	21	104	0	79	24120
2026-01-09 21:44:24.01	20.16	2.93	-57.2	-73.1	3.8	1.49e+00	0	22	104	0	79	24074
2026-01-09 21:44:27.01	20.44	3.07	-57.2	-73.1	3.8	1.49e+00	0	22	104	0	79	24046
2026-01-09 21:44:30.02	20.73	3.22	-57.2	-73.1	3.8	1.49e+00	0	22	104	0	79	24119
2026-01-09 21:44:33.02	21.02	3.37	-57.2	-73.1	3.8	1.49e+00	0	22	104	0	79	24034
2026-01-09 21:44:36.02	21.31	3.52	-57.2	-73.2	3.8	1.49e+00	0	22	104	0	79	24274
2026-01-09 21:44:39.02	21.60	3.67	-57.2	-72.8	3.8	1.49e+00	0	22	104	0	79	23201
2026-01-09 21:44:42.04	21.90	3.82	-57.2	-72.7	3.8	1.49e+00	0	22	104	0	79	23005
2026-01-09 21:44:45.05	22.20	3.96	-57.2	-72.9	3.8	1.49e+00	0	22	104	0	79	23318
2026-01-09 21:44:48.05	22.50	4.11	-57.1	-71.5	3.8	1.49e+00	0	22	104	0	79	20007
2026-01-09 21:44:51.05	22.81	4.26	-57.1	-71.1	3.8	1.48e+00	0	22	104	0	79	18983
2026-01-09 21:44:54.05	23.12	4.41	-56.9	-67.4	5.1	1.03e+00	0	22	0	1048576	79	12412
2026-01-09 21:44:57.05	23.43	4.56	-55.7	-61.6	9.6	1.60e-02	0	22	0	6291456	78	6729
2026-01-09 21:45:00.04	23.74	4.71	-55.2	-60.2	10.8	5.58e-04	0	22	0	12582912	77	6074
2026-01-09 21:45:03.03	24.06	4.86	-55.4	-60.8	10.1	1.01e-03	0	22	0	17825792	76	6945
2026-01-09 21:45:06.03	24.38	5.01	-56.3	-64.1	7.3	6.74e-02	0	22	0	23068672	77	9545
2026-01-09 21:45:09.03	24.70	5.16	-56.1	-62.2	9.3	6.46e-03	0	23	0	28311552	78	7260
2026-01-09 21:45:12.01	25.02	5.31	-53.5	-56.7	13.2	1.19e-01	0	23	0	34603008	73	5122
2026-01-09 21:45:15.01	25.35	5.46	-52.9	-55.7	13.8	0.00e+00	0	22	0	39845888	72	4852
2026-01-09 21:45:18.02	25.69	5.61	-52.8	-55.6	13.9	0.00e+00	0	22	0	46137344	72	4769
2026-01-09 21:45:21.01	26.02	5.76	-52.7	-55.4	13.9	0.00e+00	0	23	0	51380224	71	4950
2026-01-09 21:45:24.02	26.36	5.91	-52.4	-54.9	14.2	0.00e+00	0	22	0	56623104	71	4674
2026-01-09 21:45:27.01	26.71	6.06	-52.3	-54.8	14.3	0.00e+00	0	23	0	62914560	71	4616
2026-01-09 21:45:30.02	27.05	6.21	-52.5	-55.1	14.1	0.00e+00	0	23	0	68157440	71	4763
2026-01-09 21:45:33.01	27.40	6.36	-52.4	-54.9	14.2	0.00e+00	0	23	0	73400320	71	4705
2026-01-09 21:45:36.00	27.75	6.51	-52.6	-55.2	14.1	0.00e+00	0	23	0	79691776	71	4838
2026-01-09 21:45:38.99	28.11	6.66	-52.8	-55.5	13.8	0.00e+00	0	23	0	84934656	71	4988
2026-01-09 21:45:42.00	28.47	6.81	-52.7	-55.3	13.9	0.00e+00	0	23	0	90177536	71	4902
2026-01-09 21:45:45.00	28.84	6.97	-52.9	-55.6	13.8	0.00e+00	0	23	0	96468992	71	5093
2026-01-09 21:45:48.00	29.20	7.12	-52.8	-55.4	13.9	0.00e+00	0	23	0	101711872	71	4970
2026-01-09 21:45:50.99	29.57	7.27	-52.6	-55.2	14.0	0.00e+00	0	23	0	106954752	71	4866
2026-01-09 21:45:53.99	29.95	7.42	-52.7	-55.4	13.9	0.00e+00	0	23	0	113246208	71	4952
2026-01-09 21:45:56.97	30.32	7.56	-52.7	-55.3	14.1	0.00e+00	0	23	0	118489088	71	4895
2026-01-09 21:45:59.96	30.70	7.71	-52.7	-55.3	14.0	0.00e+00	0	23	0	123731968	71	4890
2026-01-09 21:46:02.94	31.09	7.86	-52.6	-55.2	14.1	0.00e+00	0	23	0	130023424	71	4849
2026-01-09 21:46:05.94	31.48	8.01	-52.5	-55.0	14.2	0.00e+00	0	23	0	135266304	71	4743
2026-01-09 21:46:08.93	31.87	8.16	-52.1	-54.5	14.3	0.00e+00	0	23	0	141557760	70	4745
2026-01-09 21:46:11.93	32.27	8.31	-52.1	-54.4	14.4	0.00e+00	0	23	0	146800640	70	4701
2026-01-09 21:46:14.93	32.67	8.46	-52.1	-54.4	14.4	0.00e+00	0	23	0	152043520	70	4687
2026-01-09 21:46:17.92	33.07	8.61	-51.9	-54.1	14.6	0.00e+00	0	23	0	158334976	70	4524
2026-01-09 21:46:20.92	33.48	8.76	-51.6	-53.8	14.6	0.00e+00	0	23	0	163577856	69	4604
2026-01-09 21:46:23.91	33.90	8.90	-51.3	-53.4	14.9	0.00e+00	0	23	0	168820736	69	4395
2026-01-09 21:46:26.90	34.31	9.05	-51.4	-53.6	14.8	0.00e+00	0	23	0	175112192	69	4512
2026-01-09 21:46:29.89	34.73	9.20	-51.6	-53.8	14.6	0.00e+00	0	23	0	180355072	69	4648
2026-01-09 21:46:32.90	35.16	9.34	-51.7	-53.9	14.6	0.00e+00	0	23	0	185597952	69	4669
2026-01-09 21:46:35.90	35.59	9.49	-51.5	-53.7	14.7	0.00e+00	0	23	0	191889408	69	4565
2026-01-09 21:46:38.89	36.02	9.63	-51.6	-53.8	14.6	0.00e+00	0	23	0	197132288	69	4642
2026-01-09 21:46:41.89	36.46	9.78	-51.6	-53.8	14.7	0.00e+00	0	23	0	202375168	69	4612
2026-01-09 21:46:44.90	36.90	9.92	-51.7	-53.9	14.6	0.00e+00	0	23	0	208666624	69	4694
2026-01-09 21:46:47.90	37.35	10.07	-51.8	-54.0	14.5	0.00e+00	0	23	0	213909504	69	4735
2026-01-09 21:46:50.89	37.80	10.21	-51.6	-53.8	14.7	0.00e+00	0	23	0	220200960	69	4609
2026-01-09 21:46:53.89	38.25	10.35	-51.6	-53.9	14.6	0.00e+00	0	23	0	225443840	69	4665
2026-01-09 21:46:56.89	38.71	10.49	-51.6	-53.9	14.6	0.00e+00	0	23	0	230686720	69	4673
2026-01-09 21:46:59.90	39.18	10.63	-51.5	-53.7	14.7	0.00e+00	0	23	0	236978176	69	4584
2026-01-09 21:47:02.89	39.65	10.77	-51.6	-53.8	14.7	0.00e+00	0	23	0	242221056	69	4623
2026-01-09 21:47:05.88	40.12	10.91	-51.9	-54.2	14.4	0.00e+00	0	23	0	247463936	69	4849
2026-01-09 21:47:08.86	40.59	11.05	-52.0	-54.5	14.3	0.00e+00	0	23	0	253755392	69	4988
2026-01-09 21:47:11.86	41.07	11.19	-51.9	-54.2	14.4	0.00e+00	0	23	0	258998272	69	4867
2026-01-09 21:47:14.85	41.55	11.32	-52.1	-54.5	14.1	0.00e+00	0	23	0	264241152	69	5037
2026-01-09 21:47:17.85	42.04	11.46	-52.1	-54.7	14.1	0.00e+00	0	23	0	270532608	69	5110
2026-01-09 21:47:20.84	42.54	11.59	-52.0	-54.5	14.3	0.00e+00	0	23	0	275775488	69	5016
2026-01-09 21:47:23.84	43.04	11.72	-51.9	-54.3	14.4	0.00e+00	0	23	0	282066944	69	4900
2026-01-09 21:47:26.84	43.54	11.85	-51.9	-54.3	14.4	0.00e+00	0	23	0	287309824	69	4892
2026-01-09 21:47:29.83	44.04	11.98	-52.2	-54.7	14.2	0.00e+00	0	23	0	292552704	69	5110
2026-01-09 21:47:32.83	44.56	12.11	-52.2	-54.7	14.1	0.00e+00	0	23	0	298844160	69	5123
2026-01-09 21:47:35.83	45.07	12.24	-52.5	-55.1	14.0	0.00e+00	0	23	0	304087040	70	5100
2026-01-09 21:47:38.81	45.59	12.36	-52.6	-55.3	13.9	0.00e+00	0	23	0	309329920	70	5160
2026-01-09 21:47:41.81	46.11	12.49	-52.6	-55.3	14.0	0.00e+00	0	23	0	315621376	70	5180
2026-01-09 21:47:44.81	46.64	12.61	-52.8	-55.6	13.8	0.00e+00	0	23	0	320864256	70	5349
2026-01-09 21:47:47.82	47.18	12.73	-53.0	-55.9	13.7	0.00e+00	0	23	0	326107136	71	5278
2026-01-09 21:47:50.81	47.71	12.85	-52.9	-55.8	13.8	0.00e+00	0	23	0	332398592	71	5163
2026-01-09 21:47:53.79	48.25	12.97	-52.9	-55.8	13.8	0.00e+00	0	23	0	337641472	71	5173
2026-01-09 21:47:56.79	48.80	13.09	-53.1	-56.0	13.6	0.00e+00	0	23	0	342884352	71	5323
2026-01-09 21:47:59.77	49.34	13.20	-53.0	-55.9	13.7	0.00e+00	0	23	0	349175808	71	5239
2026-01-09 21:48:02.77	49.90	13.31	-52.8	-55.5	14.0	0.00e+00	0	23	0	354418688	71	4993
2026-01-09 21:48:05.74	50.45	13.42	-53.0	-55.9	13.8	0.00e+00	0	23	0	359661568	71	5220
2026-01-09 21:48:08.73	51.01	13.53	-53.1	-55.9	13.7	0.00e+00	0	23	0	365953024	71	5279
2026-01-09 21:48:11.72	51.57	13.64	-53.0	-55.8	13.8	0.00e+00	0	23	0	371195904	71	5162
2026-01-09 21:48:14.70	52.14	13.74	-52.7	-55.3	14.1	0.00e+00	0	23	0	376438784	71	4923
2026-01-09 21:48:17.70	52.71	13.84	-52.6	-55.2	14.2	0.00e+00	0	23	0	382730240	71	4826
2026-01-09 21:48:20.69	53.29	13.94	-52.1	-54.4	14.5	0.00e+00	0	23	0	387973120	70	4662
2026-01-09 21:48:23.69	53.87	14.04	-51.8	-53.9	14.8	0.00e+00	0	23	0	394264576	70	4423
2026-01-09 21:48:26.68	54.45	14.14	-51.5	-53.6	14.8	0.00e+00	0	23	0	399507456	69	4514
2026-01-09 21:48:29.67	55.04	14.23	-51.5	-53.6	14.8	0.00e+00	0	23	0	404750336	69	4498
2026-01-09 21:48:32.66	55.63	14.32	-51.9	-54.2	14.4	0.00e+00	0	23	0	411041792	69	4818
2026-01-09 21:48:35.65	56.22	14.41	-51.6	-53.8	14.7	0.00e+00	0	23	0	416284672	69	4602
2026-01-09 21:48:38.64	56.82	14.49	-51.3	-53.3	15.0	0.00e+00	0	23	0	421527552	69	4343
2026-01-09 21:48:41.64	57.42	14.58	-51.7	-53.9	14.5	0.00e+00	0	23	0	427819008	68	4959
2026-01-09 21:48:44.64	58.03	14.66	-51.8	-54.0	14.6	0.00e+00	0	23	0	433061888	69	4740
2026-01-09 21:48:47.63	58.64	14.73	-51.5	-53.6	14.7	0.00e+00	0	23	0	438304768	69	4527
2026-01-09 21:48:50.62	59.25	14.81	-52.0	-54.3	14.4	0.00e+00	0	23	0	444596224	69	4872
2026-01-09 21:48:53.62	59.86	14.88	-52.2	-54.5	14.3	0.00e+00	0	23	0	449839104	69	4999
2026-01-09 21:48:56.61	60.48	14.95	-52.1	-54.3	14.4	0.00e+00	0	23	0	455081984	69	4897
2026-01-09 21:48:59.59	61.09	15.02	-52.9	-55.6	13.8	0.00e+00	0	23	0	461373440	70	5377
2026-01-09 21:49:02.59	61.72	15.08	-52.8	-55.4	14.0	0.00e+00	0	23	0	466616320	71	4955
2026-01-09 21:49:05.58	62.34	15.14	-51.8	-53.9	14.7	0.00e+00	0	23	0	471859200	70	4421
2026-01-09 21:49:08.56	62.97	15.20	-51.8	-54.0	14.6	0.00e+00	0	23	0	478150656	69	4728
2026-01-09 21:49:11.55	63.59	15.25	-52.2	-54.5	14.3	0.00e+00	0	23	0	483393536	69	5019
2026-01-09 21:49:14.55	64.23	15.30	-51.5	-53.5	14.9	0.00e+00	0	23	0	488636416	69	4463
2026-01-09 21:49:17.54	64.86	15.35	-51.5	-53.5	14.8	0.00e+00	0	23	0	494927872	69	4483
2026-01-09 21:49:20.52	65.49	15.39	-51.6	-53.7	14.8	0.00e+00	0	23	0	500170752	69	4578
2026-01-09 21:49:23.52	66.13	15.44	-51.4	-53.4	14.9	0.00e+00	0	23	0	506462208	69	4425
2026-01-09 21:49:26.53	66.77	15.47	-51.9	-54.2	14.5	0.00e+00	0	23	0	511705088	69	4825
2026-01-09 21:49:29.54	67.42	15.51	-52.0	-54.3	14.4	0.00e+00	0	23	0	516947968	69	4906
2026-01-09 21:49:32.52	68.06	15.54	-51.7	-53.9	14.6	0.00e+00	0	23	0	523239424	69	4693
2026-01-09 21:49:35.51	68.70	15.57	-52.3	-54.8	14.2	0.00e+00	0	23	0	528482304	69	5204
2026-01-09 21:49:38.50	69.34	15.60	-52.4	-54.9	14.2	0.00e+00	0	23	0	533725184	70	4972
2026-01-09 21:49:41.50	69.99	15.62	-52.2	-54.6	14.4	0.00e+00	0	23	0	540016640	70	4772
2026-01-09 21:49:44.49	70.64	15.64	-52.2	-54.6	14.4	0.00e+00	0	23	0	545259520	70	4769
2026-01-09 21:49:47.48	71.28	15.65	-51.9	-54.2	14.7	0.00e+00	0	23	0	550502400	70	4548
2026-01-09 21:49:50.49	71.93	15.66	-52.1	-54.4	14.5	0.00e+00	0	23	0	556793856	70	4699
2026-01-09 21:49:53.49	72.58	15.67	-51.8	-54.1	14.7	0.00e+00	0	23	0	562036736	70	4521
2026-01-09 21:49:56.49	73.23	15.67	-51.4	-53.4	14.9	0.00e+00	0	23	0	567279616	69	4436
2026-01-09 21:49:59.47	73.88	15.68	-51.8	-54.0	14.5	0.00e+00	0	23	0	573571072	69	4746
2026-01-09 21:50:02.45	74.53	15.67	-51.6	-53.7	14.7	0.00e+00	0	23	0	578813952	69	4594
2026-01-09 21:50:05.44	75.17	15.67	-51.4	-53.5	14.8	0.00e+00	0	23	0	584056832	69	4490
2026-01-09 21:50:08.43	75.82	15.66	-51.8	-54.0	14.5	0.00e+00	0	23	0	590348288	69	4747
2026-01-09 21:50:11.43	76.47	15.65	-51.6	-53.8	14.7	0.00e+00	0	23	0	595591168	69	4609
2026-01-09 21:50:14.41	77.11	15.63	-51.2	-53.2	15.0	0.00e+00	0	23	0	600834048	69	4333
2026-01-09 21:50:17.40	77.76	15.61	-51.5	-53.7	14.6	0.00e+00	0	23	0	607125504	68	4831
2026-01-09 21:50:20.38	78.40	15.59	-52.0	-54.4	14.4	0.00e+00	0	23	0	612368384	69	4927
2026-01-09 21:50:23.37	79.05	15.56	-51.8	-54.0	14.6	0.00e+00	0	23	0	618659840	69	4748
2026-01-09 21:50:26.37	79.69	15.53	-51.5	-53.6	14.8	0.00e+00	0	23	0	623902720	69	4509
2026-01-09 21:50:29.38	80.34	15.50	-51.7	-53.9	14.6	0.00e+00	0	23	0	629145600	69	4692
2026-01-09 21:50:32.37	80.98	15.46	-51.8	-54.0	14.5	0.00e+00	0	23	0	635437056	69	4752
2026-01-09 21:50:35.36	81.62	15.42	-51.8	-54.1	14.5	0.00e+00	0	23	0	640679936	69	4807
2026-01-09 21:50:38.34	82.25	15.38	-51.7	-53.8	14.7	0.00e+00	0	23	0	645922816	69	4647
2026-01-09 21:50:41.33	82.89	15.34	-51.6	-53.7	14.7	0.00e+00	0	23	0	652214272	69	4569
2026-01-09 21:50:44.33	83.52	15.29	-51.1	-53.0	14.9	0.00e+00	0	23	0	657457152	68	4448
2026-01-09 21:50:47.33	84.15	15.23	-50.9	-52.8	14.9	0.00e+00	0	23	0	662700032	68	4346
2026-01-09 21:50:50.32	84.78	15.18	-51.0	-52.8	15.0	0.00e+00	0	23	0	668991488	68	4390
2026-01-09 21:50:53.32	85.41	15.12	-50.9	-52.7	15.1	0.00e+00	0	23	0	674234368	68	4310
2026-01-09 21:50:56.31	86.04	15.06	-51.2	-53.1	14.8	0.00e+00	0	23	0	679477248	68	4521
2026-01-09 21:50:59.30	86.66	15.00	-51.5	-53.5	14.6	0.00e+00	0	23	0	685768704	68	4733
2026-01-09 21:51:02.29	87.28	14.93	-51.3	-53.3	14.7	0.00e+00	0	23	0	691011584	68	4611
2026-01-09 21:51:05.29	87.90	14.86	-51.4	-53.4	14.7	0.00e+00	0	23	0	696254464	68	4669
2026-01-09 21:51:08.28	88.51	14.78	-51.3	-53.4	14.7	0.00e+00	0	23	0	702545920	68	4657
2026-01-09 21:51:11.26	89.12	14.71	-51.0	-52.9	15.0	0.00e+00	0	23	0	707788800	68	4431
2026-01-09 21:51:14.25	89.72	14.63	-50.3	-52.1	15.2	0.00e+00	0	23	0	713031680	67	4259
2026-01-09 21:51:17.25	90.33	14.55	-50.2	-52.0	15.1	0.00e+00	0	23	0	719323136	66	4466
2026-01-09 21:51:20.24	90.93	14.46	-50.7	-52.6	14.7	0.00e+00	0	23	0	724566016	66	4779
2026-01-09 21:51:23.25	91.53	14.38	-50.7	-52.6	14.7	0.00e+00	0	23	0	730857472	66	4805
2026-01-09 21:51:26.23	92.13	14.29	-50.8	-52.7	14.7	0.00e+00	0	23	0	736100352	66	4834
2026-01-09 21:51:29.24	92.72	14.20	-51.0	-53.0	14.7	0.00e+00	0	23	0	741343232	67	4721
2026-01-09 21:51:32.24	93.31	14.10	-50.8	-52.8	14.8	0.00e+00	0	23	0	747634688	67	4603
2026-01-09 21:51:35.24	93.90	14.01	-50.8	-52.7	14.9	0.00e+00	0	23	0	752877568	67	4559
2026-01-09 21:51:38.22	94.47	13.91	-50.7	-52.6	14.9	0.00e+00	0	23	0	758120448	67	4525
2026-01-09 21:51:41.21	95.05	13.81	-50.5	-52.4	15.0	0.00e+00	0	23	0	764411904	67	4435
2026-01-09 21:51:44.21	95.62	13.70	-50.9	-52.9	14.8	0.00e+00	0	23	0	769654784	67	4694
2026-01-09 21:51:47.20	96.19	13.60	-51.1	-53.1	14.6	0.00e+00	0	23	0	774897664	67	4810
2026-01-09 21:51:50.20	96.76	13.49	-51.6	-53.8	14.5	0.00e+00	0	23	0	781189120	68	4904
2026-01-09 21:51:53.20	97.32	13.38	-52.0	-54.3	14.3	0.00e+00	0	23	0	786432000	69	4914
2026-01-09 21:51:56.19	97.88	13.27	-52.0	-54.4	14.3	0.00e+00	0	23	0	791674880	69	4928
2026-01-09 21:51:59.19	98.43	13.15	-52.1	-54.5	14.2	0.00e+00	0	23	0	797966336	69	5024
2026-01-09 21:52:02.18	98.98	13.04	-52.1	-54.5	14.2	0.00e+00	0	23	0	803209216	69	5009
2026-01-09 21:52:05.17	99.52	12.92	-52.5	-55.2	13.9	0.00e+00	0	23	0	809500672	70	5130
2026-01-09 21:52:08.16	100.06	12.80	-52.6	-55.2	13.9	0.00e+00	0	23	0	814743552	70	5145
2026-01-09 21:52:11.16	100.60	12.68	-52.1	-54.4	14.4	0.00e+00	0	23	0	819986432	70	4705
2026-01-09 21:52:14.16	101.13	12.56	-52.1	-54.6	14.3	0.00e+00	0	23	0	826277888	70	4774
2026-01-09 21:52:17.15	101.66	12.44	-52.5	-55.2	14.0	0.00e+00	0	23	0	831520768	70	5110
2026-01-09 21:52:20.14	102.18	12.31	-53.1	-56.0	13.6	0.00e+00	0	23	0	836763648	71	5339
2026-01-09 21:52:23.13	102.70	12.18	-53.2	-56.3	13.3	0.00e+00	0	23	0	843055104	71	5508
2026-01-09 21:52:26.13	103.22	12.06	-52.9	-55.8	13.7	0.00e+00	0	23	0	848297984	71	5203
2026-01-09 21:52:29.12	103.73	11.93	-52.3	-54.9	14.3	0.00e+00	0	23	0	853540864	71	4678
2026-01-09 21:52:32.12	104.24	11.79	-52.2	-54.7	14.2	0.00e+00	0	23	0	859832320	70	4863
2026-01-09 21:52:35.12	104.74	11.66	-52.5	-55.1	14.0	0.00e+00	0	23	0	865075200	70	5073
2026-01-09 21:52:38.12	105.24	11.53	-52.4	-55.0	14.1	0.00e+00	0	23	0	871366656	70	5040
2026-01-09 21:52:41.11	105.73	11.39	-52.6	-55.2	13.9	0.00e+00	0	23	0	876609536	70	5145
2026-01-09 21:52:44.10	106.22	11.26	-52.8	-55.5	13.7	0.00e+00	0	23	0	881852416	70	5339
2026-01-09 21:52:47.11	106.71	11.12	-53.0	-55.9	13.6	0.00e+00	0	23	0	888143872	71	5239
2026-01-09 21:52:50.11	107.19	10.98	-52.9	-55.7	13.8	0.00e+00	0	23	0	893386752	71	5101
2026-01-09 21:52:53.09	107.66	10.84	-52.7	-55.4	14.0	0.00e+00	0	23	0	898629632	71	4957
2026-01-09 21:52:56.10	108.13	10.70	-52.6	-55.2	14.1	0.00e+00	0	23	0	904921088	71	4864
2026-01-09 21:52:59.12	108.61	10.56	-52.4	-54.9	14.3	0.00e+00	0	23	0	910163968	71	4674
2026-01-09 21:53:02.12	109.07	10.42	-52.1	-54.5	14.4	0.00e+00	0	23	0	915406848	70	4715
2026-01-09 21:53:05.11	109.53	10.28	-52.0	-54.4	14.4	0.00e+00	0	23	0	921698304	70	4702
2026-01-09 21:53:08.10	109.98	10.13	-52.1	-54.6	14.3	0.00e+00	0	23	0	926941184	70	4777
2026-01-09 21:53:11.09	110.43	9.99	-52.1	-54.2	14.6	0.00e+00	0	23	0	932184064	70	4548
2026-01-09 21:53:14.08	110.87	9.85	-52.1	-54.2	14.5	0.00e+00	0	23	0	938475520	70	4570
2026-01-09 21:53:17.06	111.31	9.70	-52.4	-54.5	14.3	0.00e+00	0	23	0	943718400	70	4747
2026-01-09 21:53:20.06	111.75	9.56	-52.2	-54.4	14.4	0.00e+00	0	23	0	948961280	70	4669
2026-01-09 21:53:23.06	112.19	9.41	-52.2	-54.3	14.5	0.00e+00	0	23	0	955252736	70	4634
2026-01-09 21:53:26.07	112.62	9.26	-51.6	-53.5	14.7	0.00e+00	0	23	0	960495616	69	4481
2026-01-09 21:53:29.07	113.04	9.11	-51.7	-53.7	14.6	0.00e+00	0	23	0	966787072	69	4574
2026-01-09 21:53:32.06	113.46	8.97	-51.7	-53.7	14.6	0.00e+00	0	23	0	972029952	69	4590
2026-01-09 21:53:35.05	113.88	8.82	-52.1	-54.2	14.3	0.00e+00	0	23	0	977272832	69	4870
2026-01-09 21:53:38.05	114.29	8.67	-52.2	-54.4	14.2	0.00e+00	0	23	0	983564288	69	4937
2026-01-09 21:53:41.03	114.70	8.52	-52.3	-54.6	14.1	0.00e+00	0	23	0	988807168	69	5075
2026-01-09 21:53:44.03	115.10	8.37	-52.6	-54.9	14.1	0.00e+00	0	23	0	994050048	70	4951
2026-01-09 21:53:47.03	115.50	8.22	-52.3	-54.5	14.3	0.00e+00	0	23	0	1000341504	70	4724
2026-01-09 21:53:50.02	115.90	8.07	-52.1	-54.3	14.4	0.00e+00	0	23	0	1005584384	70	4606
2026-01-09 21:53:53.02	116.29	7.92	-52.1	-54.3	14.4	0.00e+00	0	23	0	1010827264	70	4612
2026-01-09 21:53:56.00	116.68	7.77	-52.2	-54.5	14.3	0.00e+00	0	23	0	1017118720	70	4719
2026-01-09 21:53:59.00	117.06	7.62	-52.5	-54.9	14.1	0.00e+00	0	23	0	1022361600	70	4929
2026-01-09 21:54:02.00	117.45	7.47	-52.5	-54.9	14.0	0.00e+00	0	23	0	1027604480	70	4959
2026-01-09 21:54:04.99	117.82	7.32	-52.4	-54.7	14.1	0.00e+00	0	23	0	1033895936	70	4863
2026-01-09 21:54:07.98	118.20	7.17	-52.6	-55.0	13.9	0.00e+00	0	23	0	1039138816	70	5032
2026-01-09 21:54:10.98	118.57	7.02	-52.7	-55.3	13.7	0.00e+00	0	23	0	1045430272	70	5171
2026-01-09 21:54:13.97	118.93	6.86	-53.0	-55.6	13.6	0.00e+00	0	23	0	1050673152	71	5093
2026-01-09 21:54:16.95	119.29	6.71	-53.1	-55.8	13.5	0.00e+00	0	23	0	1055916032	71	5188
2026-01-09 21:54:19.95	119.65	6.56	-53.1	-55.9	13.4	0.00e+00	0	23	0	1062207488	71	5233
2026-01-09 21:54:22.95	120.01	6.41	-53.2	-56.1	13.3	0.00e+00	0	23	0	1067450368	71	5373
2026-01-09 21:54:25.94	120.36	6.26	-53.4	-56.4	13.2	0.00e+00	0	23	0	1072693248	72	5273
2026-01-09 21:54:28.92	120.71	6.11	-53.5	-56.6	13.1	0.00e+00	0	23	0	1078984704	72	5369
2026-01-09 21:54:31.92	121.05	5.96	-53.2	-56.0	13.5	0.00e+00	0	23	0	1084227584	72	5004
2026-01-09 21:54:34.91	121.39	5.81	-53.0	-55.7	13.7	0.00e+00	0	24	0	1089470464	72	4840
2026-01-09 21:54:37.90	121.73	5.65	-53.0	-55.7	13.6	0.00e+00	0	23	0	1095761920	72	4837
2026-01-09 21:54:40.90	122.07	5.50	-53.4	-56.5	13.1	0.00e+00	0	23	0	1101004800	72	5289
2026-01-09 21:54:43.90	122.40	5.35	-54.0	-57.6	12.3	0.00e+00	0	23	0	1106247680	73	5697
2026-01-09 21:54:46.90	122.73	5.20	-54.1	-57.8	12.1	3.00e-06	0	23	0	1112539136	73	5833
2026-01-09 21:54:49.90	123.05	5.05	-53.9	-57.6	12.2	5.30e-06	0	23	0	1117782016	73	5718
2026-01-09 21:54:52.90	123.37	4.90	-58.0	-73.9	3.8	1.49e+00	0	24	104	1119879168	81	23454
2026-01-09 21:54:55.89	123.69	4.75	-58.6	-74.6	3.8	1.49e+00	0	23	104	1119879168	82	23922
2026-01-09 21:54:58.89	124.01	4.59	-58.9	-74.9	3.8	1.49e+00	0	24	104	1119879168	82	24778
2026-01-09 21:55:01.90	124.32	4.44	-59.1	-75.2	3.8	1.49e+00	0	23	104	1119879168	83	24142
2026-01-09 21:55:04.89	124.63	4.29	-59.2	-75.3	3.8	1.49e+00	0	23	104	1119879168	83	24484
2026-01-09 21:55:07.89	124.94	4.14	-59.4	-75.4	3.8	1.49e+00	0	24	104	1119879168	83	24911
2026-01-09 21:55:10.88	125.24	3.99	-59.6	-75.7	3.8	1.49e+00	0	24	104	1119879168	84	24154
2026-01-09 21:55:13.88	125.54	3.84	-59.7	-75.7	3.8	1.49e+00	0	24	104	1119879168	84	24354
2026-01-09 21:55:16.87	125.84	3.69	-59.7	-75.8	3.8	1.49e+00	0	24	104	1119879168	84	24456
2026-01-09 21:55:19.87	126.13	3.54	-59.7	-75.7	3.8	1.49e+00	0	24	104	1119879168	84	24275
2026-01-09 21:55:22.87	126.43	3.39	-59.6	-75.7	3.8	1.49e+00	0	23	104	1119879168	84	24291
2026-01-09 21:55:25.87	126.72	3.24	-59.6	-75.7	3.8	1.49e+00	0	23	104	1119879168	84	24137
2026-01-09 21:55:28.88	127.00	3.10	-59.6	-75.7	3.8	1.49e+00	0	24	104	1119879168	84	24138
2026-01-09 21:55:31.87	127.29	2.95	-59.6	-75.6	3.8	1.49e+00	0	23	104	1119879168	84	24068
2026-01-09 21:55:34.87	127.57	2.80	-59.6	-75.6	3.8	1.49e+00	0	24	104	1119879168	84	24080
2026-01-09 21:55:37.87	127.85	2.65	-59.6	-75.6	3.8	1.49e+00	0	23	104	1119879168	84	24046
2026-01-09 21:55:40.88	128.12	2.50	-59.6	-75.6	3.8	1.49e+00	0	24	104	1119879168	84	24063
2026-01-09 21:55:43.88	128.40	2.35	-59.6	-75.6	3.8	1.49e+00	0	24	104	1119879168	84	23990
2026-01-09 21:55:46.87	128.67	2.21	-59.5	-75.6	3.8	1.49e+00	0	24	104	1119879168	84	23944
2026-01-09 21:55:49.88	128.93	2.06	-59.5	-75.6	3.8	1.49e+00	0	24	104	1119879168	84	23978

#Closed at: 2026-01-09 21:55:52
#Recorded file [1119 MB]: D:/lorett/data/31004_260110_004405.dat