passes_logs/2026/01/09/R3.2S_Murmansk/R3.2S_Murmansk__20260109_114327_NOAA_20_JPSS-1_rec.log

#Pass ID: 20260109_114327_NOAA 20 (JPSS-1)
#Satellite: NOAA 20 (JPSS-1)
#Configuration: NOAA 20
#almurnet v.1.7.20251203
#Start time: 2026-01-09 11:43:29

#Version: 2.2.20231116
#Station: R3.2S_Murmansk
#Location: 33.079688 lon 68.888172 lat
#TLE: 1 43013U 17073A   26008.56343035  .00000133  00000+0  84205-4 0  9993
#TLE: 2 43013  98.7630 309.5710 0001731  48.5146 311.6178 14.19534569421822

#Time	Az	El	Level	Level2	SNR	BER	BlckErr	Temp	State	Recorded	gain1	gain2
2026-01-09 11:43:29.61	207.21	2.11	-57.8	-73.7	3.8	1.49e+00	0	22	0	0	82	21687
2026-01-09 11:43:33.58	207.47	2.34	-57.7	-73.6	3.8	1.49e+00	0	22	104	0	80	24102
2026-01-09 11:43:37.55	207.73	2.57	-57.7	-73.6	3.8	1.49e+00	0	22	104	0	80	24129
2026-01-09 11:43:41.52	208.00	2.80	-57.7	-73.6	3.8	1.49e+00	0	23	104	0	80	24099
2026-01-09 11:43:45.47	208.28	3.02	-57.7	-73.6	3.8	1.49e+00	0	23	104	0	80	24026
2026-01-09 11:43:49.44	208.55	3.26	-57.7	-73.6	3.8	1.49e+00	0	23	104	0	80	23930
2026-01-09 11:43:53.40	208.84	3.49	-57.7	-73.5	3.8	1.49e+00	0	23	104	0	80	23707
2026-01-09 11:43:57.37	209.12	3.72	-57.7	-73.4	3.8	1.49e+00	0	23	104	0	80	23358
2026-01-09 11:44:01.32	209.41	3.96	-57.6	-73.3	3.8	1.49e+00	0	23	104	0	80	23266
2026-01-09 11:44:05.29	209.71	4.19	-57.6	-72.8	3.8	1.49e+00	0	23	104	0	80	21907
2026-01-09 11:44:09.26	210.01	4.43	-57.4	-69.0	4.6	1.13e+00	0	23	0	1048576	80	14137
2026-01-09 11:44:13.20	210.31	4.67	-57.1	-66.0	6.2	2.94e-01	0	23	0	8388608	80	9983
2026-01-09 11:44:17.16	210.62	4.91	-55.8	-60.5	10.9	1.09e-03	0	23	0	15728640	78	5975
2026-01-09 11:44:21.12	210.93	5.16	-56.5	-62.8	8.8	8.53e-03	0	23	0	23068672	78	7797
2026-01-09 11:44:25.08	211.25	5.40	-53.3	-56.0	13.9	0.00e+00	0	23	0	30408704	73	4732
2026-01-09 11:44:29.05	211.57	5.65	-53.4	-56.1	13.8	0.00e+00	0	23	0	37748736	73	4805
2026-01-09 11:44:33.02	211.90	5.90	-53.3	-55.9	14.0	0.00e+00	0	23	0	45088768	73	4654
2026-01-09 11:44:37.00	212.24	6.15	-53.2	-55.7	13.9	0.00e+00	0	23	0	52428800	72	4858
2026-01-09 11:44:40.97	212.58	6.40	-53.3	-55.8	13.9	0.00e+00	0	23	0	60817408	72	4925
2026-01-09 11:44:44.93	212.92	6.65	-53.1	-55.6	14.0	0.00e+00	0	23	0	68157440	72	4785
2026-01-09 11:44:48.88	213.27	6.90	-53.3	-55.9	13.9	0.00e+00	0	23	0	75497472	72	4937
2026-01-09 11:44:52.85	213.63	7.16	-53.3	-55.8	13.9	0.00e+00	0	23	0	82837504	72	4916
2026-01-09 11:44:56.81	213.99	7.42	-53.2	-55.7	14.0	0.00e+00	0	23	0	90177536	72	4819
2026-01-09 11:45:00.77	214.36	7.67	-53.1	-55.5	14.1	0.00e+00	0	24	0	97517568	72	4745
2026-01-09 11:45:04.75	214.74	7.94	-53.1	-55.5	14.2	0.00e+00	0	23	0	104857600	72	4722
2026-01-09 11:45:08.73	215.12	8.20	-53.1	-55.4	14.2	0.00e+00	0	24	0	112197632	72	4703
2026-01-09 11:45:12.70	215.51	8.46	-52.9	-55.2	14.3	0.00e+00	0	24	0	119537664	72	4580
2026-01-09 11:45:16.67	215.91	8.73	-52.8	-55.0	14.5	0.00e+00	0	23	0	126877696	72	4467
2026-01-09 11:45:20.63	216.31	9.00	-52.7	-54.9	14.4	0.00e+00	0	23	0	134217728	71	4660
2026-01-09 11:45:24.59	216.72	9.27	-52.7	-54.8	14.4	0.00e+00	0	24	0	142606336	71	4644
2026-01-09 11:45:28.55	217.14	9.54	-52.7	-54.9	14.4	0.00e+00	0	24	0	149946368	71	4690
2026-01-09 11:45:32.52	217.56	9.81	-52.8	-55.1	14.3	0.00e+00	0	24	0	157286400	71	4789
2026-01-09 11:45:36.50	218.00	10.08	-52.8	-55.1	14.3	0.00e+00	0	24	0	164626432	71	4764
2026-01-09 11:45:40.48	218.44	10.36	-52.6	-54.8	14.5	0.00e+00	0	24	0	171966464	71	4610
2026-01-09 11:45:44.46	218.89	10.64	-52.5	-54.6	14.6	0.00e+00	0	23	0	179306496	71	4512
2026-01-09 11:45:48.43	219.35	10.92	-52.3	-54.4	14.7	0.00e+00	0	24	0	186646528	71	4403
2026-01-09 11:45:52.40	219.81	11.20	-52.6	-54.7	14.6	0.00e+00	0	24	0	193986560	71	4549
2026-01-09 11:45:56.36	220.29	11.48	-52.3	-54.3	14.8	0.00e+00	0	23	0	201326592	71	4379
2026-01-09 11:46:00.33	220.77	11.77	-52.3	-54.3	14.8	0.00e+00	0	24	0	208666624	71	4346
2026-01-09 11:46:04.30	221.26	12.05	-52.4	-54.4	14.7	0.00e+00	0	23	0	217055232	71	4434
2026-01-09 11:46:08.28	221.77	12.34	-52.5	-54.5	14.7	0.00e+00	0	23	0	224395264	71	4466
2026-01-09 11:46:12.25	222.28	12.63	-52.4	-54.4	14.8	0.00e+00	0	24	0	231735296	71	4416
2026-01-09 11:46:16.21	222.80	12.92	-52.3	-54.3	14.8	0.00e+00	0	24	0	239075328	71	4344
2026-01-09 11:46:20.16	223.32	13.21	-52.2	-54.2	14.9	0.00e+00	0	24	0	246415360	71	4320
2026-01-09 11:46:24.13	223.87	13.50	-52.2	-54.2	14.7	0.00e+00	0	24	0	253755392	70	4575
2026-01-09 11:46:28.09	224.42	13.79	-52.2	-54.1	14.8	0.00e+00	0	24	0	261095424	70	4528
2026-01-09 11:46:32.05	224.98	14.08	-52.1	-54.0	14.8	0.00e+00	0	24	0	268435456	70	4462
2026-01-09 11:46:36.03	225.55	14.38	-52.1	-54.1	14.8	0.00e+00	0	24	0	275775488	70	4504
2026-01-09 11:46:40.02	226.14	14.68	-52.1	-54.0	14.8	0.00e+00	0	24	0	283115520	70	4486
2026-01-09 11:46:44.01	226.74	14.98	-52.0	-53.8	14.9	0.00e+00	0	24	0	291504128	70	4383
2026-01-09 11:46:47.97	227.34	15.28	-51.9	-53.8	15.0	0.00e+00	0	24	0	298844160	70	4371
2026-01-09 11:46:51.94	227.96	15.57	-51.9	-53.7	15.0	0.00e+00	0	24	0	306184192	70	4326
2026-01-09 11:46:55.93	228.60	15.87	-51.8	-53.6	15.1	0.00e+00	0	24	0	313524224	70	4255
2026-01-09 11:46:59.90	229.24	16.17	-51.6	-53.4	15.0	0.00e+00	0	24	0	320864256	69	4405
2026-01-09 11:47:03.88	229.90	16.48	-51.7	-53.5	14.9	0.00e+00	0	24	0	328204288	69	4466
2026-01-09 11:47:07.84	230.56	16.77	-51.3	-53.0	15.2	0.00e+00	0	24	0	335544320	69	4216
2026-01-09 11:47:11.81	231.25	17.07	-51.4	-53.1	15.2	0.00e+00	0	24	0	342884352	69	4280
2026-01-09 11:47:15.80	231.94	17.38	-51.5	-53.3	15.1	0.00e+00	0	24	0	350224384	69	4354
2026-01-09 11:47:19.77	232.65	17.67	-51.6	-53.4	15.0	0.00e+00	0	24	0	358612992	69	4395
2026-01-09 11:47:23.74	233.37	17.97	-51.7	-53.5	14.9	0.00e+00	0	24	0	365953024	69	4493
2026-01-09 11:47:27.69	234.11	18.27	-51.9	-53.7	14.8	0.00e+00	0	24	0	373293056	69	4598
2026-01-09 11:47:31.67	234.86	18.57	-51.7	-53.5	15.0	0.00e+00	0	24	0	380633088	69	4451
2026-01-09 11:47:35.64	235.62	18.86	-51.4	-53.1	15.2	0.00e+00	0	24	0	387973120	69	4269
2026-01-09 11:47:39.62	236.41	19.16	-51.2	-52.9	15.3	0.00e+00	0	24	0	395313152	69	4157
2026-01-09 11:47:43.59	237.20	19.45	-50.9	-52.5	15.3	0.00e+00	0	24	0	402653184	68	4219
2026-01-09 11:47:47.57	238.01	19.74	-50.4	-52.0	15.3	0.00e+00	0	24	0	409993216	67	4208
2026-01-09 11:47:51.54	238.83	20.03	-50.4	-51.9	15.4	0.00e+00	0	24	0	417333248	67	4169
2026-01-09 11:47:55.51	239.67	20.31	-50.3	-51.8	15.4	0.00e+00	0	24	0	424673280	67	4142
2026-01-09 11:47:59.49	240.53	20.60	-50.4	-51.9	15.4	0.00e+00	0	24	0	433061888	67	4177
2026-01-09 11:48:03.46	241.40	20.87	-50.5	-52.1	15.3	0.00e+00	0	24	0	440401920	67	4261
2026-01-09 11:48:07.42	242.28	21.15	-50.5	-52.1	15.3	0.00e+00	0	24	0	447741952	67	4263
2026-01-09 11:48:11.40	243.18	21.42	-50.7	-52.2	15.2	0.00e+00	0	24	0	455081984	67	4335
2026-01-09 11:48:15.37	244.10	21.69	-50.7	-52.3	15.2	0.00e+00	0	24	0	462422016	67	4382
2026-01-09 11:48:19.35	245.03	21.95	-51.1	-52.7	15.0	0.00e+00	0	24	0	469762048	67	4598
2026-01-09 11:48:23.32	245.98	22.21	-51.3	-53.0	14.9	0.00e+00	0	24	0	477102080	67	4721
2026-01-09 11:48:27.28	246.93	22.46	-51.1	-52.8	14.9	0.00e+00	0	24	0	484442112	67	4640
2026-01-09 11:48:31.25	247.91	22.71	-51.3	-53.0	14.9	0.00e+00	0	24	0	491782144	67	4721
2026-01-09 11:48:35.20	248.90	22.94	-51.2	-52.9	14.9	0.00e+00	0	24	0	499122176	67	4703
2026-01-09 11:48:39.19	249.91	23.18	-51.3	-53.1	14.8	0.00e+00	0	24	0	507510784	67	4762
2026-01-09 11:48:43.16	250.93	23.40	-52.0	-53.9	14.8	0.00e+00	0	24	0	514850816	69	4664
2026-01-09 11:48:47.13	251.96	23.62	-52.5	-54.5	14.6	0.00e+00	0	24	0	522190848	70	4724
2026-01-09 11:48:51.11	253.01	23.83	-52.5	-54.5	14.6	0.00e+00	0	24	0	529530880	70	4731
2026-01-09 11:48:55.08	254.08	24.04	-53.0	-55.1	14.4	0.00e+00	0	24	0	536870912	71	4781
2026-01-09 11:48:59.06	255.15	24.23	-53.2	-55.4	14.3	0.00e+00	0	24	0	544210944	71	4929
2026-01-09 11:49:03.03	256.24	24.41	-52.5	-54.5	14.8	0.00e+00	0	24	0	551550976	71	4453
2026-01-09 11:49:07.00	257.34	24.59	-53.1	-55.3	14.3	0.00e+00	0	24	0	558891008	71	4916
2026-01-09 11:49:10.97	258.45	24.75	-53.9	-56.5	13.9	0.00e+00	0	24	0	566231040	73	4984
2026-01-09 11:49:14.94	259.58	24.91	-53.4	-55.6	14.5	0.00e+00	0	24	0	573571072	73	4499
2026-01-09 11:49:18.90	260.71	25.05	-53.6	-56.0	14.2	0.00e+00	0	24	0	581959680	73	4707
2026-01-09 11:49:22.86	261.84	25.19	-53.6	-56.0	14.2	0.00e+00	0	24	0	589299712	73	4749
2026-01-09 11:49:26.81	262.99	25.31	-53.0	-55.2	14.6	0.00e+00	0	24	0	596639744	72	4549
2026-01-09 11:49:30.76	264.14	25.42	-53.2	-55.3	14.5	0.00e+00	0	24	0	603979776	72	4651
2026-01-09 11:49:34.73	265.31	25.52	-52.5	-54.5	14.8	0.00e+00	0	24	0	611319808	71	4470
2026-01-09 11:49:38.70	266.49	25.60	-52.2	-54.0	14.9	0.00e+00	0	24	0	618659840	70	4480
2026-01-09 11:49:42.67	267.67	25.68	-52.3	-54.2	14.8	0.00e+00	0	24	0	625999872	70	4549
2026-01-09 11:49:46.65	268.85	25.74	-52.4	-54.4	14.7	0.00e+00	0	24	0	633339904	70	4671
2026-01-09 11:49:50.62	270.04	25.79	-53.0	-55.1	14.4	0.00e+00	0	24	0	640679936	71	4776
2026-01-09 11:49:54.59	271.23	25.82	-52.9	-55.0	14.5	0.00e+00	0	24	0	648019968	71	4741
2026-01-09 11:49:58.55	272.42	25.85	-52.6	-54.5	14.8	0.00e+00	0	24	0	655360000	71	4483
2026-01-09 11:50:02.52	273.62	25.86	-52.4	-54.3	14.9	0.00e+00	0	24	0	663748608	71	4354
2026-01-09 11:50:06.51	274.82	25.86	-52.2	-54.0	15.1	0.00e+00	0	24	0	671088640	71	4240
2026-01-09 11:50:10.49	276.02	25.84	-51.7	-53.4	15.2	0.00e+00	0	24	0	678428672	70	4182
2026-01-09 11:50:14.47	277.21	25.81	-52.2	-54.0	14.7	0.00e+00	0	24	0	685768704	69	4748
2026-01-09 11:50:18.46	278.41	25.77	-52.3	-54.2	14.8	0.00e+00	0	24	0	693108736	70	4572
2026-01-09 11:50:22.44	279.60	25.72	-51.8	-53.5	15.2	0.00e+00	0	24	0	700448768	70	4228
2026-01-09 11:50:26.41	280.78	25.65	-53.2	-55.4	14.3	0.00e+00	0	24	0	707788800	71	4929
2026-01-09 11:50:30.37	281.95	25.57	-52.8	-54.8	14.6	0.00e+00	0	24	0	715128832	71	4605
2026-01-09 11:50:34.34	283.12	25.48	-52.3	-54.2	15.0	0.00e+00	0	24	0	722468864	71	4315
2026-01-09 11:50:38.31	284.28	25.37	-52.7	-54.7	14.7	0.00e+00	0	24	0	730857472	71	4583
2026-01-09 11:50:42.29	285.44	25.26	-52.5	-54.4	14.9	0.00e+00	0	24	0	738197504	71	4401
2026-01-09 11:50:46.26	286.59	25.13	-52.4	-54.3	14.9	0.00e+00	0	24	0	745537536	71	4366
2026-01-09 11:50:50.21	287.72	25.00	-52.2	-54.0	15.1	0.00e+00	0	24	0	752877568	71	4224
2026-01-09 11:50:54.18	288.84	24.85	-52.0	-53.8	15.0	0.00e+00	0	24	0	760217600	70	4386
2026-01-09 11:50:58.14	289.96	24.69	-51.8	-53.5	15.2	0.00e+00	0	24	0	767557632	70	4207
2026-01-09 11:51:02.12	291.06	24.52	-51.5	-53.1	15.2	0.00e+00	0	24	0	774897664	69	4280
2026-01-09 11:51:06.08	292.15	24.34	-51.2	-52.8	15.4	0.00e+00	0	24	0	782237696	69	4122
2026-01-09 11:51:10.05	293.23	24.16	-50.9	-52.5	15.4	0.00e+00	0	24	0	789577728	68	4197
2026-01-09 11:51:14.03	294.30	23.96	-50.5	-52.0	15.4	0.00e+00	0	24	0	796917760	67	4238
2026-01-09 11:51:18.01	295.36	23.75	-50.6	-52.1	15.3	0.00e+00	0	24	0	805306368	67	4277
2026-01-09 11:51:21.98	296.40	23.54	-50.3	-51.8	15.5	0.00e+00	0	24	0	812646400	67	4112
2026-01-09 11:51:25.95	297.42	23.32	-50.9	-52.5	15.2	0.00e+00	0	24	0	819986432	67	4470
2026-01-09 11:51:29.93	298.44	23.09	-50.8	-52.4	15.2	0.00e+00	0	24	0	827326464	67	4423
2026-01-09 11:51:33.91	299.44	22.86	-50.7	-52.3	15.2	0.00e+00	0	24	0	834666496	67	4369
2026-01-09 11:51:37.87	300.42	22.61	-51.2	-52.8	15.0	0.00e+00	0	24	0	842006528	67	4644
2026-01-09 11:51:41.83	301.38	22.37	-52.1	-53.9	14.8	0.00e+00	0	24	0	849346560	69	4684
2026-01-09 11:51:45.80	302.33	22.12	-52.2	-54.1	14.7	0.00e+00	0	24	0	856686592	69	4760
2026-01-09 11:51:49.77	303.27	21.86	-51.9	-53.7	14.9	0.00e+00	0	24	0	864026624	69	4596
2026-01-09 11:51:53.75	304.19	21.59	-51.6	-53.4	15.1	0.00e+00	0	24	0	871366656	69	4395
2026-01-09 11:51:57.74	305.10	21.33	-51.9	-53.7	14.9	0.00e+00	0	24	0	879755264	69	4579
2026-01-09 11:52:01.70	305.99	21.06	-52.1	-54.0	14.7	0.00e+00	0	24	0	887095296	69	4710
2026-01-09 11:52:05.67	306.87	20.78	-52.0	-53.8	14.8	0.00e+00	0	24	0	894435328	69	4634
2026-01-09 11:52:09.64	307.73	20.50	-51.6	-53.4	15.1	0.00e+00	0	24	0	901775360	69	4395
2026-01-09 11:52:13.61	308.57	20.22	-51.7	-53.5	15.0	0.00e+00	0	24	0	909115392	69	4443
2026-01-09 11:52:17.57	309.40	19.94	-51.6	-53.3	15.0	0.00e+00	0	24	0	916455424	69	4387
2026-01-09 11:52:21.54	310.21	19.65	-52.0	-53.8	14.8	0.00e+00	0	24	0	923795456	69	4624
2026-01-09 11:52:25.49	311.01	19.36	-52.1	-54.0	14.7	0.00e+00	0	24	0	931135488	69	4741
2026-01-09 11:52:29.46	311.79	19.07	-53.0	-55.1	14.4	0.00e+00	0	24	0	938475520	71	4792
2026-01-09 11:52:33.43	312.56	18.78	-52.3	-54.2	14.9	0.00e+00	0	24	0	945815552	71	4312
2026-01-09 11:52:37.39	313.32	18.49	-52.5	-54.4	14.6	0.00e+00	0	24	0	953155584	70	4701
2026-01-09 11:52:41.35	314.06	18.19	-52.9	-55.1	14.4	0.00e+00	0	24	0	961544192	71	4767
2026-01-09 11:52:45.33	314.79	17.89	-52.0	-53.8	15.0	0.00e+00	0	24	0	968884224	70	4372
2026-01-09 11:52:49.30	315.50	17.60	-52.5	-54.5	14.6	0.00e+00	0	24	0	976224256	70	4749
2026-01-09 11:52:53.29	316.21	17.30	-52.1	-54.0	14.9	7.00e-07	0	24	0	983564288	70	4463
2026-01-09 11:52:57.25	316.90	17.00	-52.7	-54.8	14.4	0.00e+00	0	24	0	990904320	70	4874
2026-01-09 11:53:01.23	317.57	16.70	-52.4	-54.4	14.6	0.00e+00	0	24	0	998244352	70	4701
2026-01-09 11:53:05.21	318.24	16.40	-52.0	-53.8	15.0	0.00e+00	0	24	0	1005584384	70	4355
2026-01-09 11:53:09.19	318.89	16.11	-53.2	-55.5	14.2	0.00e+00	0	24	0	1012924416	71	5017
2026-01-09 11:53:13.16	319.52	15.81	-53.1	-55.4	14.2	0.00e+00	0	24	0	1020264448	71	4931
2026-01-09 11:53:17.13	320.15	15.51	-52.3	-54.2	14.9	0.00e+00	0	24	0	1028653056	71	4320
2026-01-09 11:53:21.10	320.76	15.22	-52.6	-54.7	14.6	0.00e+00	0	24	0	1035993088	71	4564
2026-01-09 11:53:25.07	321.36	14.92	-52.3	-54.2	14.9	0.00e+00	0	24	0	1043333120	71	4311
2026-01-09 11:53:29.02	321.95	14.63	-52.2	-54.1	14.8	0.00e+00	0	24	0	1050673152	70	4523
2026-01-09 11:53:33.00	322.53	14.33	-52.7	-54.8	14.4	0.00e+00	0	24	0	1058013184	70	4898
2026-01-09 11:53:36.97	323.10	14.04	-52.5	-54.6	14.5	0.00e+00	0	24	0	1065353216	70	4788
2026-01-09 11:53:40.93	323.65	13.75	-52.3	-54.3	14.7	0.00e+00	0	24	0	1072693248	70	4616
2026-01-09 11:53:44.92	324.20	13.46	-52.5	-54.6	14.5	0.00e+00	0	24	0	1080033280	70	4800
2026-01-09 11:53:48.89	324.74	13.17	-52.5	-54.6	14.5	0.00e+00	0	24	0	1087373312	70	4776
2026-01-09 11:53:52.86	325.26	12.88	-52.3	-54.3	14.6	0.00e+00	0	24	0	1094713344	70	4651
2026-01-09 11:53:56.84	325.78	12.59	-52.5	-54.6	14.5	0.00e+00	0	24	0	1103101952	70	4780
2026-01-09 11:54:00.81	326.29	12.30	-52.7	-54.8	14.3	0.00e+00	0	24	0	1110441984	70	4922
2026-01-09 11:54:04.78	326.78	12.02	-52.7	-54.9	14.3	0.00e+00	0	24	0	1117782016	70	4945
2026-01-09 11:54:08.76	327.27	11.74	-52.7	-54.9	14.2	0.00e+00	0	24	0	1125122048	70	4978
2026-01-09 11:54:12.75	327.76	11.45	-52.8	-55.0	14.2	0.00e+00	0	24	0	1132462080	70	5029
2026-01-09 11:54:16.70	328.22	11.18	-52.7	-54.9	14.3	0.00e+00	0	24	0	1139802112	70	4961
2026-01-09 11:54:20.66	328.69	10.90	-52.7	-54.9	14.3	3.00e-06	0	24	0	1147142144	70	4948
2026-01-09 11:54:24.61	329.14	10.62	-52.8	-55.0	14.2	0.00e+00	0	24	0	1154482176	70	5034
2026-01-09 11:54:28.57	329.58	10.35	-53.1	-55.4	14.1	0.00e+00	0	24	0	1161822208	71	4983
2026-01-09 11:54:32.53	330.02	10.07	-53.5	-56.0	13.8	0.00e+00	0	24	0	1169162240	72	5011
2026-01-09 11:54:36.50	330.45	9.80	-53.8	-56.5	13.5	0.00e+00	0	24	0	1176502272	72	5302
2026-01-09 11:54:40.47	330.87	9.53	-53.8	-56.6	13.4	0.00e+00	0	24	0	1184890880	72	5393
2026-01-09 11:54:44.43	331.29	9.26	-53.8	-56.5	13.5	0.00e+00	0	24	0	1192230912	72	5333
2026-01-09 11:54:48.43	331.70	9.00	-53.9	-56.8	13.4	0.00e+00	0	24	0	1199570944	73	5165
2026-01-09 11:54:52.42	332.10	8.73	-53.8	-56.6	13.5	0.00e+00	0	24	0	1206910976	73	5098
2026-01-09 11:54:56.38	332.49	8.47	-53.7	-56.4	13.7	0.00e+00	0	24	0	1214251008	73	4968
2026-01-09 11:55:00.36	332.88	8.20	-53.4	-56.0	13.9	7.00e-07	0	24	0	1221591040	73	4741
2026-01-09 11:55:04.34	333.26	7.94	-53.5	-56.1	13.9	0.00e+00	0	24	0	1228931072	73	4775
2026-01-09 11:55:08.31	333.64	7.68	-53.6	-56.3	13.7	0.00e+00	0	24	0	1236271104	73	4904
2026-01-09 11:55:12.27	334.01	7.43	-53.8	-56.6	13.6	0.00e+00	0	24	0	1243611136	73	5072
2026-01-09 11:55:16.24	334.37	7.17	-53.8	-56.6	13.5	0.00e+00	0	24	0	1251999744	73	5087
2026-01-09 11:55:20.20	334.72	6.92	-53.4	-56.0	14.0	0.00e+00	0	24	0	1259339776	73	4715
2026-01-09 11:55:24.17	335.07	6.67	-53.1	-55.6	14.0	0.00e+00	0	24	0	1266679808	72	4800
2026-01-09 11:55:28.16	335.42	6.42	-53.0	-55.5	14.0	1.50e-06	0	24	0	1274019840	72	4730
2026-01-09 11:55:32.11	335.76	6.17	-53.0	-55.4	14.0	0.00e+00	0	24	0	1281359872	72	4695
2026-01-09 11:55:36.08	336.09	5.92	-53.4	-56.1	13.6	4.50e-06	0	24	0	1288699904	72	5052
2026-01-09 11:55:40.05	336.42	5.67	-53.6	-56.5	13.3	0.00e+00	0	24	0	1296039936	72	5332
2026-01-09 11:55:44.02	336.75	5.43	-53.6	-56.6	13.3	0.00e+00	0	24	0	1303379968	72	5356
2026-01-09 11:55:47.98	337.06	5.19	-53.4	-56.2	13.5	4.50e-06	0	24	0	1310720000	72	5153
2026-01-09 11:55:51.95	337.38	4.95	-57.6	-69.5	4.7	5.72e-04	5	24	0	1318060032	80	14926
2026-01-09 11:55:55.95	337.69	4.71	-59.0	-75.0	3.8	1.49e+00	0	24	104	1318060032	83	23832
2026-01-09 11:55:59.94	337.99	4.47	-59.4	-75.5	3.8	1.49e+00	0	24	104	1318060032	83	25018
2026-01-09 11:56:03.94	338.30	4.23	-59.8	-75.8	3.8	1.49e+00	0	24	104	1318060032	84	24549
2026-01-09 11:56:07.93	338.59	3.99	-59.8	-75.9	3.8	1.49e+00	0	24	104	1318060032	84	24839
2026-01-09 11:56:11.90	338.88	3.76	-59.8	-75.9	3.8	1.49e+00	0	24	104	1318060032	84	24792
2026-01-09 11:56:15.88	339.17	3.53	-59.8	-75.8	3.8	1.49e+00	0	24	104	1318060032	84	24687
2026-01-09 11:56:19.82	339.45	3.30	-59.7	-75.8	3.8	1.49e+00	0	24	104	1318060032	84	24549
2026-01-09 11:56:23.80	339.73	3.07	-59.7	-75.8	3.8	1.49e+00	0	24	104	1318060032	84	24502
2026-01-09 11:56:27.76	340.00	2.84	-59.7	-75.7	3.8	1.49e+00	0	24	104	1318060032	84	24361
2026-01-09 11:56:31.72	340.27	2.61	-59.7	-75.7	3.8	1.49e+00	0	24	104	1318060032	84	24275
2026-01-09 11:56:35.70	340.54	2.39	-59.6	-75.7	3.8	1.49e+00	0	24	104	1318060032	84	24266
2026-01-09 11:56:39.65	340.80	2.16	-59.6	-75.7	3.8	1.49e+00	0	24	104	1318060032	84	24311
2026-01-09 11:56:43.62	341.06	1.94	-59.6	-75.7	3.8	1.49e+00	0	24	104	1318060032	84	24208

#Closed at: 2026-01-09 11:56:44
#Recorded file [1318 MB]: D:/lorett/data/31004_260109_144329.dat