passes_logs/2026/01/09/R3.2S_Murmansk/R3.2S_Murmansk__20260109_082141_NOAA_20_JPSS-1_rec.log

#Pass ID: 20260109_082141_NOAA 20 (JPSS-1)
#Satellite: NOAA 20 (JPSS-1)
#Configuration: NOAA 20
#almurnet v.1.7.20251203
#Start time: 2026-01-09 08:21:41

#Version: 2.2.20231116
#Station: R3.2S_Murmansk
#Location: 33.079688 lon 68.888172 lat
#TLE: 1 43013U 17073A   26008.56343035  .00000133  00000+0  84205-4 0  9993
#TLE: 2 43013  98.7630 309.5710 0001731  48.5146 311.6178 14.19534569421822

#Time	Az	El	Level	Level2	SNR	BER	BlckErr	Temp	State	Recorded	gain1	gain2
2026-01-09 08:21:41.45	124.48	2.02	-54.7	-70.6	3.8	1.49e+00	0	22	0	0	74	23981
2026-01-09 08:21:45.49	124.38	2.28	-54.7	-70.6	3.8	1.49e+00	0	22	104	0	74	24037
2026-01-09 08:21:49.49	124.27	2.54	-54.7	-70.6	3.8	1.49e+00	0	22	104	0	74	24108
2026-01-09 08:21:53.50	124.16	2.79	-54.7	-70.6	3.8	1.49e+00	0	22	104	0	74	24059
2026-01-09 08:21:57.51	124.05	3.06	-54.7	-70.6	3.8	1.49e+00	0	22	104	0	74	24108
2026-01-09 08:22:01.53	123.94	3.32	-54.7	-70.6	3.8	1.49e+00	0	22	104	0	74	24111
2026-01-09 08:22:05.56	123.82	3.59	-54.7	-70.6	3.8	1.49e+00	0	22	104	0	74	24119
2026-01-09 08:22:09.59	123.70	3.86	-54.7	-70.6	3.8	1.49e+00	0	22	104	0	74	24129
2026-01-09 08:22:13.61	123.58	4.13	-54.7	-70.6	3.8	1.49e+00	0	22	104	0	74	24102
2026-01-09 08:22:17.62	123.46	4.40	-54.7	-70.7	3.8	1.49e+00	0	23	104	0	74	24135
2026-01-09 08:22:21.61	123.34	4.68	-54.7	-70.6	3.8	1.49e+00	0	23	104	0	74	24106
2026-01-09 08:22:25.52	123.21	4.95	-54.7	-70.7	3.8	1.49e+00	0	23	104	0	74	24154
2026-01-09 08:22:29.51	123.08	5.23	-54.7	-70.7	3.8	1.49e+00	0	23	104	0	74	24138
2026-01-09 08:22:33.53	122.95	5.51	-54.7	-70.7	3.8	1.49e+00	0	23	104	0	74	24205
2026-01-09 08:22:37.50	122.81	5.80	-54.7	-70.7	3.8	1.49e+00	0	23	104	0	74	24186
2026-01-09 08:22:41.48	122.68	6.08	-54.7	-70.7	3.8	1.49e+00	0	23	104	0	74	24220
2026-01-09 08:22:45.49	122.53	6.38	-54.7	-70.7	3.8	1.49e+00	0	23	104	0	74	24212
2026-01-09 08:22:49.47	122.39	6.67	-54.7	-70.7	3.8	1.49e+00	0	23	104	0	74	24178
2026-01-09 08:22:53.47	122.24	6.97	-54.7	-70.7	3.8	1.49e+00	0	23	104	0	74	24201
2026-01-09 08:22:57.47	122.09	7.27	-54.7	-70.7	3.8	1.49e+00	0	23	104	0	74	24173
2026-01-09 08:23:01.47	121.93	7.58	-54.7	-70.7	3.8	1.49e+00	0	23	104	0	74	24188
2026-01-09 08:23:05.49	121.78	7.89	-54.8	-70.7	3.8	1.49e+00	0	23	104	0	74	24220
2026-01-09 08:23:09.50	121.61	8.20	-54.8	-70.7	3.8	1.49e+00	0	23	104	0	74	24219
2026-01-09 08:23:13.51	121.45	8.52	-54.8	-70.7	3.8	1.49e+00	0	23	104	0	74	24288
2026-01-09 08:23:17.54	121.27	8.84	-54.7	-70.7	3.8	1.49e+00	0	23	104	0	74	24152
2026-01-09 08:23:21.57	121.10	9.17	-54.7	-70.7	3.8	1.49e+00	0	23	104	0	74	24220
2026-01-09 08:23:25.61	120.92	9.50	-54.8	-70.7	3.8	1.49e+00	0	23	104	0	74	24166
2026-01-09 08:23:29.62	120.74	9.83	-54.8	-70.7	3.8	1.49e+00	0	23	104	0	74	24251
2026-01-09 08:23:33.66	120.55	10.17	-54.8	-70.7	3.8	1.49e+00	0	23	104	0	74	24202
2026-01-09 08:23:37.70	120.35	10.52	-54.7	-70.7	3.8	1.49e+00	0	23	104	0	74	24209
2026-01-09 08:23:41.73	120.15	10.87	-54.8	-70.7	3.8	1.49e+00	0	23	104	0	74	24225
2026-01-09 08:23:45.76	119.95	11.22	-54.8	-70.7	3.8	1.49e+00	0	24	104	0	74	24283
2026-01-09 08:23:49.78	119.74	11.57	-54.8	-70.7	3.8	1.49e+00	0	23	104	0	74	24231
2026-01-09 08:23:53.80	119.53	11.94	-54.8	-70.7	3.8	1.49e+00	0	23	104	0	74	24171
2026-01-09 08:23:57.81	119.31	12.30	-54.8	-70.7	3.8	1.49e+00	0	24	104	0	74	24261
2026-01-09 08:24:01.82	119.08	12.67	-54.8	-70.7	3.8	1.49e+00	0	24	104	0	74	24191
2026-01-09 08:24:05.86	118.85	13.05	-54.8	-70.7	3.8	1.49e+00	0	24	104	0	74	24191
2026-01-09 08:24:09.88	118.61	13.43	-54.8	-70.7	3.8	1.49e+00	0	24	104	0	74	24261
2026-01-09 08:24:13.91	118.37	13.82	-54.8	-70.7	3.8	1.49e+00	0	24	104	0	74	24268
2026-01-09 08:24:17.93	118.12	14.21	-54.8	-70.7	3.8	1.49e+00	0	23	104	0	74	24287
2026-01-09 08:24:21.96	117.86	14.61	-54.8	-70.7	3.8	1.49e+00	0	23	104	0	74	24335
2026-01-09 08:24:26.00	117.59	15.02	-54.8	-70.7	3.8	1.49e+00	0	24	104	0	74	24245
2026-01-09 08:24:30.03	117.32	15.43	-54.8	-70.7	3.8	1.49e+00	0	24	104	0	74	24278
2026-01-09 08:24:34.04	117.03	15.85	-54.8	-70.7	3.8	1.49e+00	0	24	104	0	74	24283
2026-01-09 08:24:38.07	116.74	16.27	-54.8	-70.7	3.8	1.49e+00	0	23	104	0	74	24248
2026-01-09 08:24:42.10	116.44	16.71	-54.8	-70.7	3.8	1.49e+00	0	24	104	0	74	24277
2026-01-09 08:24:46.13	116.14	17.15	-54.8	-70.7	3.8	1.49e+00	0	24	104	0	74	24342
2026-01-09 08:24:50.16	115.82	17.59	-54.8	-70.7	3.8	1.49e+00	0	24	104	0	74	24257
2026-01-09 08:24:54.20	115.49	18.05	-54.8	-70.7	3.8	1.49e+00	0	24	104	0	74	24209
2026-01-09 08:24:58.23	115.15	18.51	-54.8	-70.7	3.8	1.49e+00	0	24	104	0	74	24317
2026-01-09 08:25:02.27	114.80	18.98	-54.8	-70.7	3.8	1.49e+00	0	24	104	0	74	24275
2026-01-09 08:25:06.28	114.44	19.45	-54.8	-70.7	3.8	1.49e+00	0	24	104	0	74	24277
2026-01-09 08:25:10.31	114.07	19.93	-54.8	-70.7	3.8	1.49e+00	0	24	104	0	74	24315
2026-01-09 08:25:14.35	113.68	20.43	-54.8	-70.7	3.8	1.49e+00	0	24	104	0	74	24305
2026-01-09 08:25:18.38	113.28	20.93	-54.8	-70.7	3.8	1.49e+00	0	24	104	0	74	24366
2026-01-09 08:25:22.41	112.87	21.44	-54.8	-70.7	3.8	1.49e+00	0	24	104	0	74	24358
2026-01-09 08:25:26.43	112.44	21.95	-54.8	-70.7	3.8	1.49e+00	0	24	104	0	74	24373
2026-01-09 08:25:30.47	112.00	22.48	-54.8	-70.7	3.8	1.49e+00	0	24	104	0	74	24351
2026-01-09 08:25:34.51	111.54	23.02	-54.8	-70.7	3.8	1.49e+00	0	24	104	0	74	24334
2026-01-09 08:25:38.52	111.07	23.56	-54.8	-70.7	3.8	1.49e+00	0	24	104	0	74	24376
2026-01-09 08:25:42.56	110.58	24.12	-54.8	-70.7	3.8	1.49e+00	0	24	104	0	74	24335
2026-01-09 08:25:46.59	110.07	24.68	-54.8	-70.7	3.8	1.49e+00	0	24	104	0	74	24384
2026-01-09 08:25:50.63	109.54	25.25	-54.8	-70.7	3.8	1.49e+00	0	24	104	0	74	24387
2026-01-09 08:25:54.66	108.99	25.84	-54.8	-70.7	3.8	1.49e+00	0	24	104	0	74	24364
2026-01-09 08:25:58.70	108.42	26.43	-54.8	-70.7	3.8	1.49e+00	0	24	104	0	74	24404
2026-01-09 08:26:02.73	107.83	27.04	-54.8	-70.7	3.8	1.49e+00	0	24	104	0	74	24309
2026-01-09 08:26:06.76	107.22	27.65	-54.8	-70.7	3.8	1.49e+00	0	24	104	0	74	24366
2026-01-09 08:26:10.76	106.58	28.27	-54.8	-70.7	3.8	1.49e+00	0	24	104	0	74	24274
2026-01-09 08:26:14.80	105.91	28.90	-54.8	-70.7	3.8	1.49e+00	0	24	104	0	74	24348
2026-01-09 08:26:18.83	105.22	29.55	-54.8	-70.7	3.8	1.49e+00	0	24	104	0	74	24325
2026-01-09 08:26:22.86	104.50	30.20	-54.8	-70.7	3.8	1.49e+00	0	24	104	0	74	24339
2026-01-09 08:26:26.89	103.75	30.86	-54.8	-70.7	3.8	1.49e+00	0	24	104	0	74	24368
2026-01-09 08:26:30.92	102.96	31.53	-54.8	-70.7	3.8	1.49e+00	0	24	104	0	74	24343
2026-01-09 08:26:34.95	102.14	32.21	-54.8	-70.7	3.8	1.49e+00	0	24	104	0	74	24407
2026-01-09 08:26:38.97	101.29	32.90	-54.8	-70.8	3.8	1.49e+00	0	24	104	0	74	24422
2026-01-09 08:26:43.00	100.40	33.60	-54.8	-70.8	3.8	1.49e+00	0	24	104	0	74	24436
2026-01-09 08:26:47.03	99.47	34.30	-54.8	-70.7	3.8	1.49e+00	0	24	104	0	74	24379
2026-01-09 08:26:51.06	98.49	35.02	-54.8	-70.8	3.8	1.49e+00	0	24	104	0	74	24415
2026-01-09 08:26:55.08	97.48	35.73	-54.8	-70.7	3.8	1.49e+00	0	24	104	0	74	24315
2026-01-09 08:26:59.02	96.44	36.44	-54.8	-70.7	3.8	1.49e+00	0	24	104	0	74	24395
2026-01-09 08:27:03.06	95.33	37.17	-54.8	-70.7	3.8	1.49e+00	0	24	104	0	74	24408
2026-01-09 08:27:07.09	94.16	37.90	-54.8	-70.7	3.8	1.49e+00	0	24	104	0	74	24361
2026-01-09 08:27:11.12	92.95	38.64	-54.8	-70.7	3.8	1.49e+00	0	24	104	0	74	24361
2026-01-09 08:27:15.15	91.67	39.37	-54.8	-70.7	3.8	1.49e+00	0	24	104	0	74	24407
2026-01-09 08:27:19.19	90.34	40.11	-54.8	-70.8	3.8	1.49e+00	0	24	104	0	74	24476
2026-01-09 08:27:23.22	88.94	40.83	-54.8	-70.8	3.8	1.49e+00	0	24	104	0	74	24425
2026-01-09 08:27:27.26	87.48	41.56	-54.8	-70.8	3.8	1.49e+00	0	24	104	0	74	24454
2026-01-09 08:27:31.29	85.95	42.27	-54.8	-70.8	3.8	1.49e+00	0	24	104	0	74	24425
2026-01-09 08:27:35.32	84.36	42.98	-54.8	-70.8	3.8	1.49e+00	0	24	104	0	74	24415
2026-01-09 08:27:39.35	82.69	43.67	-54.8	-70.7	3.8	1.49e+00	0	24	104	0	74	24409
2026-01-09 08:27:43.36	80.96	44.34	-54.8	-70.8	3.8	1.49e+00	0	24	104	0	74	24427
2026-01-09 08:27:47.40	79.14	45.00	-54.8	-70.8	3.8	1.49e+00	0	24	104	0	74	24416
2026-01-09 08:27:51.43	77.25	45.63	-54.8	-70.7	3.8	1.49e+00	0	24	104	0	74	24365
2026-01-09 08:27:55.46	75.29	46.24	-54.8	-70.8	3.8	1.49e+00	0	24	104	0	74	24419
2026-01-09 08:27:59.50	73.24	46.81	-54.8	-70.7	3.8	1.49e+00	0	24	104	0	74	24366
2026-01-09 08:28:03.53	71.13	47.35	-54.8	-70.7	3.8	1.49e+00	0	24	104	0	74	24373
2026-01-09 08:28:07.57	68.93	47.86	-54.8	-70.7	3.8	1.49e+00	0	24	104	0	74	24391
2026-01-09 08:28:11.60	66.68	48.32	-54.8	-70.8	3.8	1.49e+00	0	24	104	0	74	24433
2026-01-09 08:28:15.62	64.36	48.74	-54.8	-70.8	3.8	1.49e+00	0	24	104	0	74	24458
2026-01-09 08:28:19.65	61.98	49.10	-54.8	-70.7	3.8	1.49e+00	0	24	104	0	74	24385
2026-01-09 08:28:23.69	59.54	49.42	-54.8	-70.7	3.8	1.49e+00	0	24	104	0	74	24372
2026-01-09 08:28:27.71	57.06	49.68	-54.8	-70.8	3.8	1.49e+00	0	24	104	0	74	24419
2026-01-09 08:28:31.74	54.54	49.88	-54.8	-70.7	3.8	1.49e+00	0	24	104	0	74	24410
2026-01-09 08:28:35.78	51.99	50.03	-54.8	-70.8	3.8	1.49e+00	0	24	104	0	74	24412
2026-01-09 08:28:39.80	49.43	50.11	-54.8	-70.8	3.8	1.49e+00	0	24	104	0	74	24475
2026-01-09 08:28:43.83	46.85	50.14	-54.8	-70.8	3.8	1.49e+00	0	24	104	0	74	24496
2026-01-09 08:28:47.85	44.28	50.10	-54.8	-70.8	3.8	1.49e+00	0	24	104	0	74	24443
2026-01-09 08:28:51.88	41.72	50.00	-54.8	-70.8	3.8	1.49e+00	0	24	104	0	74	24485
2026-01-09 08:28:55.92	39.17	49.84	-54.8	-70.8	3.8	1.49e+00	0	24	104	0	74	24460
2026-01-09 08:28:59.95	36.66	49.62	-54.8	-70.8	3.8	1.49e+00	0	24	104	0	74	24469
2026-01-09 08:29:03.98	34.19	49.34	-54.8	-70.8	3.8	1.49e+00	0	24	104	0	74	24437
2026-01-09 08:29:08.02	31.77	49.01	-54.8	-70.8	3.8	1.49e+00	0	24	104	0	74	24498
2026-01-09 08:29:12.04	29.41	48.63	-54.5	-70.6	3.8	1.49e+00	0	24	104	0	73	25535
2026-01-09 08:29:16.07	27.11	48.20	-54.9	-70.8	3.8	1.49e+00	0	24	104	0	74	24480
2026-01-09 08:29:20.07	24.89	47.73	-54.9	-70.8	3.8	1.49e+00	0	24	104	0	74	24560
2026-01-09 08:29:24.10	22.72	47.22	-54.9	-70.8	3.8	1.49e+00	0	24	104	0	74	24561
2026-01-09 08:29:28.14	20.62	46.67	-54.8	-70.8	3.8	1.49e+00	0	24	104	0	74	24504
2026-01-09 08:29:32.17	18.61	46.08	-54.8	-70.8	3.8	1.49e+00	0	24	104	0	74	24487
2026-01-09 08:29:36.21	16.66	45.47	-54.8	-70.8	3.8	1.49e+00	0	24	104	0	74	24490
2026-01-09 08:29:40.23	14.80	44.84	-54.8	-70.8	3.8	1.49e+00	0	24	104	0	74	24510
2026-01-09 08:29:44.27	13.00	44.18	-54.8	-70.8	3.8	1.49e+00	0	24	104	0	74	24548
2026-01-09 08:29:48.29	11.29	43.50	-54.8	-70.8	3.8	1.49e+00	0	24	104	0	74	24521
2026-01-09 08:29:52.31	9.65	42.81	-54.9	-70.8	3.8	1.49e+00	0	24	104	0	74	24579
2026-01-09 08:29:56.34	8.08	42.10	-54.9	-70.8	3.8	1.49e+00	0	24	104	0	74	24610
2026-01-09 08:30:00.37	6.57	41.39	-54.9	-70.8	3.8	1.49e+00	0	24	104	0	74	24595
2026-01-09 08:30:04.41	5.13	40.66	-54.9	-70.8	3.8	1.49e+00	0	24	104	0	74	24540
2026-01-09 08:30:08.45	3.75	39.93	-54.9	-70.8	3.8	1.49e+00	0	24	104	0	74	24549
2026-01-09 08:30:12.48	2.43	39.20	-54.9	-70.8	3.8	1.49e+00	0	24	104	0	74	24563
2026-01-09 08:30:16.52	1.18	38.47	-54.9	-70.8	3.8	1.49e+00	0	24	104	0	74	24453
2026-01-09 08:30:20.55	359.98	37.74	-54.8	-70.8	3.8	1.49e+00	0	24	104	0	74	24518
2026-01-09 08:30:24.56	358.83	37.01	-54.9	-70.8	3.8	1.49e+00	0	24	104	0	74	24577
2026-01-09 08:30:28.59	357.74	36.29	-54.8	-70.8	3.8	1.49e+00	0	24	104	0	74	24471
2026-01-09 08:30:32.62	356.69	35.57	-54.9	-70.8	3.8	1.49e+00	0	24	104	0	74	24562
2026-01-09 08:30:36.66	355.69	34.85	-54.8	-70.8	3.8	1.49e+00	0	24	104	0	74	24509
2026-01-09 08:30:40.69	354.73	34.14	-54.8	-70.8	3.8	1.49e+00	0	24	104	0	74	24439
2026-01-09 08:30:44.72	353.81	33.44	-54.8	-70.8	3.8	1.49e+00	0	24	104	0	74	24573
2026-01-09 08:30:48.75	352.93	32.75	-54.9	-70.8	3.8	1.49e+00	0	24	104	0	74	24550
2026-01-09 08:30:52.78	352.09	32.06	-54.9	-70.8	3.8	1.49e+00	0	24	104	0	74	24551
2026-01-09 08:30:56.81	351.28	31.38	-54.8	-70.8	3.8	1.49e+00	0	24	104	0	74	24515
2026-01-09 08:31:00.84	350.51	30.72	-54.8	-70.8	3.8	1.49e+00	0	24	104	0	74	24501
2026-01-09 08:31:04.87	349.77	30.06	-54.9	-70.8	3.8	1.49e+00	0	24	104	0	74	24585
2026-01-09 08:31:08.90	349.06	29.41	-54.8	-70.8	3.8	1.49e+00	0	24	104	0	74	24475
2026-01-09 08:31:12.93	348.37	28.77	-54.9	-70.8	3.8	1.49e+00	0	24	104	0	74	24577
2026-01-09 08:31:16.96	347.72	28.15	-54.8	-70.8	3.8	1.49e+00	0	24	104	0	74	24523
2026-01-09 08:31:20.99	347.09	27.53	-54.9	-70.8	3.8	1.49e+00	0	24	104	0	74	24542
2026-01-09 08:31:25.02	346.48	26.92	-54.9	-70.8	3.8	1.49e+00	0	24	104	0	74	24548
2026-01-09 08:31:29.03	345.90	26.32	-54.9	-70.8	3.8	1.49e+00	0	24	104	0	74	24547
2026-01-09 08:31:33.06	345.34	25.73	-54.9	-70.8	3.8	1.49e+00	0	24	104	0	74	24526
2026-01-09 08:31:37.10	344.80	25.15	-54.9	-70.8	3.8	1.49e+00	0	24	104	0	74	24494
2026-01-09 08:31:41.14	344.27	24.58	-54.9	-70.8	3.8	1.49e+00	0	24	104	0	74	24580
2026-01-09 08:31:45.17	343.77	24.02	-54.9	-70.8	3.8	1.49e+00	0	24	104	0	74	24548
2026-01-09 08:31:49.19	343.29	23.47	-54.9	-70.8	3.8	1.49e+00	0	24	104	0	74	24561
2026-01-09 08:31:53.22	342.82	22.93	-54.8	-70.8	3.8	1.49e+00	0	24	104	0	74	24497
2026-01-09 08:31:57.24	342.37	22.40	-54.9	-70.8	3.8	1.49e+00	0	24	104	0	74	24519
2026-01-09 08:32:01.27	341.94	21.88	-54.9	-70.8	3.8	1.49e+00	0	24	104	0	74	24604
2026-01-09 08:32:05.31	341.52	21.37	-54.9	-70.8	3.8	1.49e+00	0	24	104	0	74	24490
2026-01-09 08:32:09.34	341.11	20.86	-54.9	-70.8	3.8	1.49e+00	0	24	104	0	74	24540
2026-01-09 08:32:13.37	340.72	20.36	-54.9	-70.8	3.8	1.49e+00	0	24	104	0	74	24509
2026-01-09 08:32:17.41	340.34	19.87	-54.9	-70.8	3.8	1.49e+00	0	24	104	0	74	24535
2026-01-09 08:32:21.44	339.97	19.39	-54.9	-70.8	3.8	1.49e+00	0	24	104	0	74	24511
2026-01-09 08:32:25.48	339.61	18.92	-54.9	-70.8	3.8	1.49e+00	0	24	104	0	74	24591
2026-01-09 08:32:29.49	339.27	18.46	-54.9	-70.8	3.8	1.49e+00	0	24	104	0	74	24507
2026-01-09 08:32:33.52	338.93	18.00	-54.9	-70.8	3.8	1.49e+00	0	24	104	0	74	24566
2026-01-09 08:32:37.56	338.61	17.55	-54.9	-70.8	3.8	1.49e+00	0	24	104	0	74	24540
2026-01-09 08:32:41.59	338.30	17.11	-54.9	-70.8	3.8	1.49e+00	0	24	104	0	74	24565
2026-01-09 08:32:45.63	337.99	16.67	-54.9	-70.8	3.8	1.49e+00	0	24	104	0	74	24600
2026-01-09 08:32:49.66	337.70	16.24	-54.9	-70.8	3.8	1.49e+00	0	24	104	0	74	24547
2026-01-09 08:32:53.69	337.41	15.82	-54.9	-70.8	3.8	1.49e+00	0	24	104	0	74	24630
2026-01-09 08:32:57.72	337.13	15.40	-54.9	-70.8	3.8	1.49e+00	0	24	104	0	74	24653
2026-01-09 08:33:01.74	336.86	14.99	-54.9	-70.8	3.8	1.49e+00	0	24	104	0	74	24576
2026-01-09 08:33:05.77	336.60	14.59	-54.9	-70.8	3.8	1.49e+00	0	24	104	0	74	24525
2026-01-09 08:33:09.81	336.34	14.19	-54.9	-70.8	3.8	1.49e+00	0	24	104	0	74	24550
2026-01-09 08:33:13.84	336.09	13.80	-54.9	-70.8	3.8	1.49e+00	0	24	104	0	74	24573
2026-01-09 08:33:17.87	335.85	13.41	-54.9	-70.8	3.8	1.49e+00	0	24	104	0	74	24582
2026-01-09 08:33:21.91	335.62	13.03	-54.8	-70.8	3.8	1.49e+00	0	24	104	0	74	24494
2026-01-09 08:33:25.94	335.39	12.66	-54.9	-70.8	3.8	1.49e+00	0	24	104	0	74	24542
2026-01-09 08:33:29.98	335.17	12.29	-54.9	-70.8	3.8	1.49e+00	0	24	104	0	74	24590
2026-01-09 08:33:34.00	334.95	11.92	-54.9	-70.8	3.8	1.49e+00	0	24	104	0	74	24540
2026-01-09 08:33:38.03	334.74	11.56	-54.9	-70.8	3.8	1.49e+00	0	24	104	0	74	24647
2026-01-09 08:33:42.06	334.53	11.21	-54.9	-70.8	3.8	1.49e+00	0	24	104	0	74	24538
2026-01-09 08:33:46.10	334.33	10.86	-54.9	-70.8	3.8	1.49e+00	0	24	104	0	74	24586
2026-01-09 08:33:50.13	334.14	10.51	-54.9	-70.8	3.8	1.49e+00	0	24	104	0	74	24632
2026-01-09 08:33:54.17	333.95	10.17	-54.9	-70.8	3.8	1.49e+00	0	24	104	0	74	24646
2026-01-09 08:33:58.21	333.76	9.83	-54.9	-70.8	3.8	1.49e+00	0	24	104	0	74	24640
2026-01-09 08:34:02.25	333.58	9.50	-54.9	-70.8	3.8	1.49e+00	0	24	104	0	74	24628
2026-01-09 08:34:06.26	333.41	9.17	-54.9	-70.8	3.8	1.49e+00	0	24	104	0	74	24570
2026-01-09 08:34:10.29	333.23	8.84	-54.9	-70.8	3.8	1.49e+00	0	24	104	0	74	24502
2026-01-09 08:34:14.33	333.07	8.52	-54.8	-70.8	3.8	1.49e+00	0	24	104	0	74	24605
2026-01-09 08:34:18.37	332.90	8.21	-54.9	-70.8	3.8	1.49e+00	0	24	104	0	74	24600
2026-01-09 08:34:22.40	332.74	7.89	-54.9	-70.8	3.8	1.49e+00	0	24	104	0	74	24586
2026-01-09 08:34:26.43	332.59	7.58	-54.9	-70.8	3.8	1.49e+00	0	24	104	0	74	24621
2026-01-09 08:34:30.47	332.43	7.27	-54.9	-70.8	3.8	1.49e+00	0	24	104	0	74	24503
2026-01-09 08:34:34.50	332.28	6.97	-54.9	-70.8	3.8	1.49e+00	0	24	104	0	74	24653
2026-01-09 08:34:38.52	332.14	6.67	-54.9	-70.8	3.8	1.49e+00	0	24	104	0	74	24681
2026-01-09 08:34:42.56	331.99	6.38	-54.9	-70.8	3.8	1.49e+00	0	24	104	0	74	24616
2026-01-09 08:34:46.59	331.86	6.08	-54.9	-70.8	3.8	1.49e+00	0	24	104	0	74	24544
2026-01-09 08:34:50.62	331.72	5.79	-54.9	-70.8	3.8	1.49e+00	0	24	104	0	74	24573
2026-01-09 08:34:54.66	331.59	5.51	-54.9	-70.8	3.8	1.49e+00	0	24	104	0	74	24644
2026-01-09 08:34:58.70	331.45	5.22	-54.9	-70.8	3.8	1.49e+00	0	24	104	0	74	24583
2026-01-09 08:35:02.73	331.33	4.94	-54.9	-70.8	3.8	1.49e+00	0	24	104	0	74	24547
2026-01-09 08:35:06.77	331.20	4.66	-54.9	-70.7	3.8	1.49e+00	0	24	104	0	74	24338
2026-01-09 08:35:10.78	331.08	4.39	-54.9	-70.8	3.8	1.49e+00	0	24	104	0	74	24531
2026-01-09 08:35:14.82	330.96	4.11	-54.9	-70.8	3.8	1.49e+00	0	24	104	0	74	24667
2026-01-09 08:35:18.85	330.84	3.84	-54.9	-70.8	3.8	1.49e+00	0	24	104	0	74	24666
2026-01-09 08:35:22.87	330.73	3.57	-54.9	-70.8	3.8	1.49e+00	0	24	104	0	74	24547
2026-01-09 08:35:26.91	330.62	3.31	-54.9	-70.6	3.8	1.49e+00	0	24	104	0	74	24130
2026-01-09 08:35:30.95	330.51	3.04	-54.9	-70.7	3.8	1.49e+00	0	24	104	0	74	24160
2026-01-09 08:35:34.98	330.40	2.78	-54.9	-70.8	3.8	1.49e+00	0	24	104	0	74	24489
2026-01-09 08:35:39.01	330.29	2.53	-54.9	-70.7	3.8	1.49e+00	0	24	104	0	74	24246
2026-01-09 08:35:43.03	330.19	2.27	-54.9	-70.8	3.8	1.49e+00	0	24	104	0	74	24463
2026-01-09 08:35:47.07	330.09	2.02	-54.9	-70.3	3.8	1.49e+00	0	24	104	0	74	23175

#Closed at: 2026-01-09 08:35:50
#Recorded file [0 MB]: D:/lorett/data/31004_260109_112141.dat