passes_logs/2026/01/09/R3.2S_Murmansk/R3.2S_Murmansk__20260109_225456_NOAA_21_JPSS-2_rec.log

#Pass ID: 20260109_225456_NOAA 21 (JPSS-2)
#Satellite: NOAA 21 (JPSS-2)
#Configuration: NOAA-21
#almurnet v.1.7.20251203
#Start time: 2026-01-09 22:54:57

#Version: 2.2.20231116
#Station: R3.2S_Murmansk
#Location: 33.079688 lon 68.888172 lat
#TLE: 1 54234U 22150A   26009.23291724  .00000115  00000+0  75298-4 0  9996
#TLE: 2 54234  98.7494 310.2026 0000856 324.9272  35.1848 14.19533567163994

#Time	Az	El	Level	Level2	SNR	BER	BlckErr	Temp	State	Recorded	gain1	gain2
2026-01-09 22:54:57.85	19.68	2.09	-57.3	-71.1	3.8	1.49e+00	0	21	0	0	81	16953
2026-01-09 22:55:01.86	19.89	2.33	-57.2	-70.7	3.8	1.49e+00	0	22	104	0	79	18299
2026-01-09 22:55:05.86	20.11	2.56	-57.2	-70.2	3.8	1.49e+00	0	22	104	0	79	17109
2026-01-09 22:55:09.86	20.33	2.80	-57.2	-69.5	3.8	1.49e+00	0	22	104	0	79	15798
2026-01-09 22:55:13.86	20.56	3.04	-57.1	-69.2	3.8	1.49e+00	0	22	104	0	79	15313
2026-01-09 22:55:17.84	20.79	3.29	-57.0	-67.5	3.9	1.46e+00	0	22	104	0	79	12554
2026-01-09 22:55:21.84	21.02	3.53	-56.7	-64.5	5.5	4.61e-01	0	22	0	6291456	79	8951
2026-01-09 22:55:25.84	21.25	3.78	-56.3	-62.9	6.6	1.86e-01	0	22	0	18874368	79	7435
2026-01-09 22:55:29.85	21.49	4.03	-54.7	-58.5	10.5	1.97e-03	0	22	0	31457280	76	5287
2026-01-09 22:55:33.85	21.74	4.28	-52.4	-54.7	13.1	0.00e+00	0	22	0	44040192	71	4555
2026-01-09 22:55:37.84	21.98	4.53	-51.7	-53.8	13.5	0.00e+00	0	23	0	56623104	69	4601
2026-01-09 22:55:41.82	22.23	4.78	-53.4	-56.4	11.8	4.50e-06	0	22	0	68157440	71	5543
2026-01-09 22:55:45.80	22.49	5.04	-55.4	-60.3	8.7	1.34e-02	0	22	0	80740352	75	6899
2026-01-09 22:55:49.76	22.74	5.29	-56.3	-62.9	6.6	2.85e-01	0	22	0	93323264	78	7860
2026-01-09 22:55:53.75	23.01	5.55	-51.9	-54.0	13.5	0.00e+00	0	23	0	105906176	70	4477
2026-01-09 22:55:57.76	23.27	5.82	-51.2	-53.1	14.1	0.00e+00	0	22	0	118489088	69	4252
2026-01-09 22:56:01.75	23.55	6.08	-51.1	-52.9	14.0	0.00e+00	0	23	0	131072000	68	4419
2026-01-09 22:56:05.75	23.82	6.35	-50.8	-52.6	14.3	0.00e+00	0	22	0	143654912	68	4256
2026-01-09 22:56:09.74	24.10	6.62	-50.8	-52.5	14.3	0.00e+00	0	23	0	156237824	68	4241
2026-01-09 22:56:13.74	24.39	6.89	-50.8	-52.5	14.4	0.00e+00	0	23	0	168820736	68	4194
2026-01-09 22:56:17.73	24.68	7.16	-50.7	-52.4	14.2	0.00e+00	0	23	0	180355072	67	4424
2026-01-09 22:56:21.74	24.98	7.44	-50.4	-52.0	14.4	0.00e+00	0	23	0	192937984	67	4237
2026-01-09 22:56:25.74	25.28	7.72	-50.3	-51.9	14.5	0.00e+00	0	23	0	205520896	67	4175
2026-01-09 22:56:29.74	25.59	8.00	-50.1	-51.7	14.5	0.00e+00	0	23	0	218103808	66	4334
2026-01-09 22:56:33.72	25.90	8.28	-50.1	-51.7	14.5	0.00e+00	0	23	0	230686720	66	4306
2026-01-09 22:56:37.72	26.22	8.57	-49.9	-51.5	14.6	0.00e+00	0	23	0	243269632	66	4204
2026-01-09 22:56:41.71	26.55	8.86	-50.1	-51.6	14.5	0.00e+00	0	23	0	255852544	66	4275
2026-01-09 22:56:45.69	26.87	9.15	-49.8	-51.4	14.7	0.00e+00	0	23	0	268435456	66	4149
2026-01-09 22:56:49.68	27.21	9.44	-49.8	-51.3	14.7	0.00e+00	0	23	0	281018368	66	4130
2026-01-09 22:56:53.67	27.55	9.73	-50.0	-51.5	14.6	0.00e+00	0	23	0	293601280	66	4207
2026-01-09 22:56:57.66	27.90	10.03	-49.9	-51.4	14.7	0.00e+00	0	23	0	306184192	66	4161
2026-01-09 22:57:01.65	28.26	10.33	-49.6	-51.1	14.7	0.00e+00	0	23	0	317718528	65	4251
2026-01-09 22:57:05.63	28.62	10.64	-49.7	-51.1	14.7	0.00e+00	0	23	0	330301440	65	4283
2026-01-09 22:57:09.62	28.99	10.94	-49.5	-50.9	14.8	0.00e+00	0	23	0	342884352	65	4185
2026-01-09 22:57:13.62	29.37	11.26	-49.3	-50.7	14.9	0.00e+00	0	23	0	355467264	65	4075
2026-01-09 22:57:17.61	29.76	11.57	-49.2	-50.6	15.0	0.00e+00	0	23	0	368050176	65	4048
2026-01-09 22:57:21.59	30.15	11.88	-49.2	-50.6	15.0	0.00e+00	0	23	0	380633088	65	4025
2026-01-09 22:57:25.59	30.56	12.20	-48.9	-50.2	15.1	0.00e+00	0	23	0	393216000	64	4086
2026-01-09 22:57:29.59	30.97	12.52	-48.8	-50.1	15.1	0.00e+00	0	23	0	405798912	64	4040
2026-01-09 22:57:33.58	31.39	12.85	-48.8	-50.2	15.1	0.00e+00	0	23	0	418381824	64	4055
2026-01-09 22:57:37.57	31.81	13.18	-48.8	-50.1	15.1	0.00e+00	0	23	0	429916160	64	4046
2026-01-09 22:57:41.56	32.25	13.51	-48.7	-50.1	15.1	0.00e+00	0	23	0	442499072	64	4008
2026-01-09 22:57:45.54	32.70	13.84	-48.7	-50.0	15.0	0.00e+00	0	23	0	455081984	63	4232
2026-01-09 22:57:49.53	33.15	14.18	-48.8	-50.1	15.0	0.00e+00	0	23	0	467664896	63	4291
2026-01-09 22:57:53.52	33.62	14.52	-48.8	-50.2	14.9	0.00e+00	0	23	0	480247808	63	4307
2026-01-09 22:57:57.52	34.10	14.86	-48.7	-50.1	15.0	0.00e+00	0	23	0	492830720	63	4247
2026-01-09 22:58:01.50	34.59	15.20	-48.7	-50.0	15.0	0.00e+00	0	23	0	505413632	63	4234
2026-01-09 22:58:05.50	35.09	15.55	-48.9	-50.2	14.9	0.00e+00	0	23	0	517996544	63	4320
2026-01-09 22:58:09.50	35.60	15.91	-48.8	-50.2	14.9	0.00e+00	0	23	0	530579456	63	4306
2026-01-09 22:58:13.50	36.12	16.26	-48.9	-50.3	14.9	0.00e+00	0	23	0	543162368	63	4349
2026-01-09 22:58:17.49	36.65	16.62	-49.0	-50.4	14.8	0.00e+00	0	23	0	554696704	63	4422
2026-01-09 22:58:21.48	37.20	16.98	-49.0	-50.4	14.9	0.00e+00	0	23	0	567279616	63	4409
2026-01-09 22:58:25.48	37.76	17.35	-48.9	-50.3	14.9	0.00e+00	0	23	0	579862528	63	4355
2026-01-09 22:58:29.47	38.33	17.71	-48.8	-50.2	15.0	0.00e+00	0	23	0	592445440	63	4300
2026-01-09 22:58:33.46	38.92	18.08	-48.8	-50.1	15.0	0.00e+00	0	23	0	605028352	63	4277
2026-01-09 22:58:37.47	39.52	18.46	-48.7	-50.0	15.0	0.00e+00	0	23	0	617611264	63	4200
2026-01-09 22:58:41.46	40.14	18.83	-48.4	-49.6	15.2	0.00e+00	0	23	0	630194176	63	4035
2026-01-09 22:58:45.44	40.76	19.21	-48.5	-49.7	15.2	0.00e+00	0	23	0	642777088	63	4085
2026-01-09 22:58:49.44	41.41	19.59	-48.4	-49.7	15.2	0.00e+00	0	23	0	655360000	63	4071
2026-01-09 22:58:53.42	42.07	19.97	-48.1	-49.3	15.2	0.00e+00	0	23	0	667942912	62	4110
2026-01-09 22:58:57.42	42.75	20.35	-48.2	-49.4	15.2	0.00e+00	0	23	0	679477248	62	4186
2026-01-09 22:59:01.42	43.44	20.74	-48.4	-49.7	15.0	0.00e+00	0	23	0	692060160	62	4313
2026-01-09 22:59:05.42	44.15	21.13	-47.9	-49.1	15.3	0.00e+00	0	23	0	704643072	62	4044
2026-01-09 22:59:09.43	44.89	21.52	-48.0	-49.2	15.3	0.00e+00	0	23	0	717225984	62	4082
2026-01-09 22:59:13.42	45.63	21.91	-48.1	-49.3	15.2	0.00e+00	0	23	0	729808896	62	4126
2026-01-09 22:59:17.41	46.40	22.30	-47.8	-49.0	15.3	0.00e+00	0	23	0	742391808	62	3991
2026-01-09 22:59:21.41	47.18	22.70	-48.0	-49.3	15.2	0.00e+00	0	23	0	754974720	62	4106
2026-01-09 22:59:25.42	47.99	23.09	-48.0	-49.2	15.2	0.00e+00	0	23	0	767557632	62	4075
2026-01-09 22:59:29.42	48.82	23.49	-47.6	-48.8	15.3	0.00e+00	0	23	0	780140544	61	4112
2026-01-09 22:59:33.42	49.66	23.88	-47.9	-49.1	15.2	0.00e+00	0	23	0	792723456	61	4265
2026-01-09 22:59:37.44	50.53	24.28	-48.1	-49.4	15.1	0.00e+00	0	23	0	805306368	61	4404
2026-01-09 22:59:41.43	51.42	24.67	-48.2	-49.4	15.1	0.00e+00	0	23	0	817889280	61	4436
2026-01-09 22:59:45.42	52.33	25.06	-48.3	-49.6	15.0	0.00e+00	0	23	0	829423616	61	4504
2026-01-09 22:59:49.40	53.26	25.45	-48.0	-49.2	15.2	0.00e+00	0	23	0	842006528	61	4325
2026-01-09 22:59:53.39	54.21	25.83	-48.2	-49.5	15.0	0.00e+00	0	23	0	854589440	61	4444
2026-01-09 22:59:57.57	55.23	26.24	-48.3	-49.5	15.1	0.00e+00	0	23	0	869269504	62	4239
2026-01-09 23:00:01.84	56.30	26.64	-48.2	-49.4	15.2	0.00e+00	0	23	0	882900992	62	4167
2026-01-09 23:00:05.85	57.33	27.02	-48.2	-49.4	15.2	0.00e+00	0	23	0	894435328	62	4169
2026-01-09 23:00:09.87	58.39	27.39	-48.7	-50.0	14.9	0.00e+00	0	23	0	908066816	62	4472
2026-01-09 23:00:13.89	59.47	27.76	-48.5	-49.7	15.0	0.00e+00	0	23	0	919601152	62	4329
2026-01-09 23:00:17.90	60.58	28.12	-48.4	-49.7	15.1	0.00e+00	0	23	0	932184064	62	4298
2026-01-09 23:00:21.94	61.71	28.48	-48.3	-49.5	15.1	0.00e+00	0	23	0	944766976	62	4221
2026-01-09 23:00:25.98	62.88	28.83	-48.0	-49.2	15.3	0.00e+00	0	23	0	958398464	62	4071
2026-01-09 23:00:30.02	64.06	29.17	-48.2	-49.4	15.2	0.00e+00	0	23	0	970981376	62	4189
2026-01-09 23:00:34.02	65.26	29.50	-48.2	-49.4	15.1	0.00e+00	0	23	0	983564288	62	4193
2026-01-09 23:00:38.02	66.49	29.82	-48.6	-49.8	15.0	0.00e+00	0	23	0	995098624	62	4389
2026-01-09 23:00:42.02	67.73	30.13	-48.4	-49.6	15.1	0.00e+00	0	23	0	1007681536	62	4268
2026-01-09 23:00:46.07	69.02	30.43	-48.5	-49.7	15.0	0.00e+00	0	23	0	1020264448	62	4337
2026-01-09 23:00:50.09	70.32	30.71	-48.5	-49.7	15.0	0.00e+00	0	23	0	1032847360	62	4319
2026-01-09 23:00:54.12	71.64	30.98	-48.7	-50.0	15.0	0.00e+00	0	23	0	1045430272	62	4467
2026-01-09 23:00:58.13	72.98	31.24	-49.0	-50.3	14.9	0.00e+00	0	23	0	1058013184	63	4353
2026-01-09 23:01:02.19	74.36	31.49	-49.0	-50.2	14.9	0.00e+00	0	23	0	1070596096	63	4332
2026-01-09 23:01:06.20	75.74	31.71	-49.0	-50.3	14.9	0.00e+00	0	23	0	1083179008	63	4365
2026-01-09 23:01:10.21	77.14	31.92	-48.7	-50.0	15.0	0.00e+00	0	24	0	1095761920	63	4206
2026-01-09 23:01:14.22	78.56	32.11	-49.0	-50.3	14.9	0.00e+00	0	23	0	1108344832	63	4363
2026-01-09 23:01:18.22	79.98	32.29	-49.2	-50.5	14.8	0.00e+00	0	23	0	1120927744	63	4479
2026-01-09 23:01:22.26	81.44	32.44	-48.8	-50.0	15.0	0.00e+00	0	23	0	1133510656	63	4239
2026-01-09 23:01:26.28	82.91	32.58	-49.0	-50.3	15.0	0.00e+00	0	23	0	1146093568	63	4355
2026-01-09 23:01:30.28	84.37	32.69	-49.0	-50.3	14.9	0.00e+00	0	23	0	1158676480	63	4367
2026-01-09 23:01:34.30	85.86	32.79	-49.3	-50.6	14.8	0.00e+00	0	24	0	1171259392	63	4530
2026-01-09 23:01:38.34	87.36	32.86	-49.4	-50.7	14.8	0.00e+00	0	23	0	1183842304	64	4332
2026-01-09 23:01:42.37	88.86	32.92	-49.3	-50.7	14.9	0.00e+00	0	23	0	1196425216	64	4293
2026-01-09 23:01:46.40	90.36	32.95	-49.4	-50.8	14.8	0.00e+00	0	23	0	1209008128	64	4345
2026-01-09 23:01:50.43	91.87	32.96	-49.5	-50.9	14.8	0.00e+00	0	23	0	1221591040	64	4409
2026-01-09 23:01:54.45	93.38	32.95	-49.0	-50.3	15.1	0.00e+00	0	23	0	1234173952	64	4106
2026-01-09 23:01:58.49	94.89	32.92	-49.0	-50.3	15.0	0.00e+00	0	23	0	1246756864	64	4120
2026-01-09 23:02:02.50	96.38	32.87	-48.8	-50.0	15.2	0.00e+00	0	23	0	1259339776	64	3991
2026-01-09 23:02:06.50	97.87	32.79	-49.2	-50.5	15.0	0.00e+00	0	23	0	1271922688	64	4205
2026-01-09 23:02:10.50	99.34	32.70	-49.1	-50.4	15.0	0.00e+00	0	23	0	1284505600	64	4161
2026-01-09 23:02:14.55	100.83	32.58	-49.1	-50.4	15.0	0.00e+00	0	23	0	1297088512	64	4151
2026-01-09 23:02:18.56	102.29	32.44	-49.1	-50.4	15.0	0.00e+00	0	23	0	1309671424	64	4154
2026-01-09 23:02:22.60	103.75	32.29	-49.2	-50.5	15.0	0.00e+00	0	23	0	1322254336	64	4211
2026-01-09 23:02:26.59	105.18	32.12	-49.2	-50.5	14.9	0.00e+00	0	23	0	1334837248	64	4220
2026-01-09 23:02:30.58	106.59	31.93	-49.1	-50.4	15.0	0.00e+00	0	23	0	1347420160	64	4192
2026-01-09 23:02:34.60	108.00	31.72	-48.9	-50.2	15.1	0.00e+00	0	23	0	1360003072	64	4080
2026-01-09 23:02:38.63	109.39	31.49	-49.0	-50.3	15.1	0.00e+00	0	23	0	1372585984	64	4112
2026-01-09 23:02:42.64	110.75	31.25	-48.8	-50.1	15.1	0.00e+00	0	23	0	1385168896	64	4026
2026-01-09 23:02:46.71	112.11	30.99	-48.7	-50.0	15.1	0.00e+00	0	23	0	1397751808	63	4195
2026-01-09 23:02:50.74	113.44	30.71	-49.0	-50.3	14.9	0.00e+00	0	23	0	1410334720	63	4368
2026-01-09 23:02:54.76	114.74	30.43	-48.7	-49.9	15.1	0.00e+00	0	23	0	1422917632	63	4178
2026-01-09 23:02:58.78	116.02	30.13	-48.6	-49.9	15.1	0.00e+00	0	23	0	1435500544	63	4155
2026-01-09 23:03:02.81	117.28	29.82	-48.6	-49.9	15.1	0.00e+00	0	23	0	1448083456	63	4173
2026-01-09 23:03:06.83	118.52	29.49	-48.2	-49.4	15.3	0.00e+00	0	23	0	1460666368	63	3920
2026-01-09 23:03:10.85	119.73	29.16	-48.4	-49.6	15.1	0.00e+00	0	23	0	1473249280	62	4291
2026-01-09 23:03:14.87	120.91	28.82	-48.1	-49.3	15.2	0.00e+00	0	23	0	1485832192	62	4104
2026-01-09 23:03:18.90	122.07	28.47	-47.8	-49.0	15.3	0.00e+00	0	23	0	1498415104	62	3995
2026-01-09 23:03:22.93	123.21	28.11	-47.7	-48.9	15.4	0.00e+00	0	23	0	1510998016	62	3928
2026-01-09 23:03:26.93	124.31	27.75	-47.8	-49.0	15.3	0.00e+00	0	24	0	1523580928	62	3997
2026-01-09 23:03:30.97	125.40	27.38	-47.7	-48.8	15.3	0.00e+00	0	23	0	1536163840	61	4135
2026-01-09 23:03:35.00	126.47	27.00	-47.6	-48.8	15.3	0.00e+00	0	23	0	1548746752	61	4132
2026-01-09 23:03:39.02	127.50	26.62	-47.9	-49.1	15.2	0.00e+00	0	23	0	1561329664	61	4272
2026-01-09 23:03:43.04	128.52	26.24	-47.7	-48.9	15.2	0.00e+00	0	23	0	1573912576	61	4177
2026-01-09 23:03:47.07	129.51	25.85	-47.7	-48.9	15.2	0.00e+00	0	23	0	1586495488	61	4154
2026-01-09 23:03:51.10	130.48	25.46	-48.0	-49.2	15.1	0.00e+00	0	23	0	1599078400	61	4306
2026-01-09 23:03:55.13	131.42	25.06	-48.1	-49.3	15.1	0.00e+00	0	23	0	1611661312	61	4363
2026-01-09 23:03:59.12	132.33	24.67	-48.1	-49.3	15.1	0.00e+00	0	23	0	1624244224	61	4357
2026-01-09 23:04:03.12	133.22	24.27	-48.0	-49.3	15.1	0.00e+00	0	23	0	1636827136	61	4343
2026-01-09 23:04:07.14	134.10	23.87	-48.0	-49.3	15.1	0.00e+00	0	23	0	1649410048	61	4350
2026-01-09 23:04:11.15	134.95	23.48	-48.0	-49.3	15.1	0.00e+00	0	23	0	1661992960	61	4351
2026-01-09 23:04:15.16	135.78	23.08	-48.0	-49.3	15.1	0.00e+00	0	23	0	1674575872	61	4347
2026-01-09 23:04:19.17	136.59	22.68	-48.1	-49.4	15.1	0.00e+00	0	23	0	1687158784	61	4410
2026-01-09 23:04:23.19	137.39	22.28	-48.1	-49.3	15.0	0.00e+00	0	23	0	1698693120	61	4391
2026-01-09 23:04:27.22	138.16	21.89	-48.4	-49.6	14.9	0.00e+00	0	23	0	1711276032	61	4542
2026-01-09 23:04:31.25	138.92	21.49	-48.4	-49.7	15.0	0.00e+00	0	23	0	1723858944	62	4311
2026-01-09 23:04:35.27	139.65	21.09	-48.3	-49.6	15.1	0.00e+00	0	23	0	1736441856	62	4248
2026-01-09 23:04:39.27	140.37	20.70	-48.1	-49.4	15.2	0.00e+00	0	23	0	1749024768	62	4152
2026-01-09 23:04:43.28	141.07	20.31	-48.1	-49.3	15.2	0.00e+00	0	23	0	1761607680	62	4139
2026-01-09 23:04:47.28	141.75	19.92	-48.2	-49.5	15.2	0.00e+00	0	23	0	1774190592	62	4199
2026-01-09 23:04:51.29	142.41	19.54	-48.0	-49.2	15.2	0.00e+00	0	23	0	1786773504	62	4098
2026-01-09 23:04:55.30	143.06	19.15	-47.9	-49.2	15.2	0.00e+00	0	23	0	1799356416	62	4058
2026-01-09 23:04:59.32	143.70	18.77	-47.9	-49.1	15.2	0.00e+00	0	23	0	1811939328	62	4035
2026-01-09 23:05:03.33	144.32	18.39	-47.9	-49.1	15.2	0.00e+00	0	23	0	1824522240	62	4032
2026-01-09 23:05:07.35	144.92	18.02	-48.2	-49.5	15.1	0.00e+00	0	23	0	1837105152	62	4218
2026-01-09 23:05:11.37	145.51	17.64	-48.4	-49.7	15.0	0.00e+00	0	23	0	1849688064	62	4306
2026-01-09 23:05:15.37	146.09	17.27	-48.5	-49.8	15.0	0.00e+00	0	23	0	1862270976	62	4372
2026-01-09 23:05:19.38	146.65	16.90	-48.7	-50.0	14.9	0.00e+00	0	23	0	1874853888	62	4453
2026-01-09 23:05:23.38	147.20	16.54	-48.6	-49.9	14.9	0.00e+00	0	23	0	1887436800	62	4427
2026-01-09 23:05:27.38	147.73	16.18	-48.9	-50.2	14.8	0.00e+00	0	23	0	1900019712	62	4580
2026-01-09 23:05:31.39	148.26	15.82	-49.1	-50.5	14.8	0.00e+00	0	23	0	1912602624	63	4448
2026-01-09 23:05:35.42	148.77	15.46	-49.1	-50.4	14.8	0.00e+00	0	23	0	1925185536	63	4424
2026-01-09 23:05:39.43	149.27	15.11	-49.3	-50.7	14.6	0.00e+00	0	23	0	1937768448	63	4592
2026-01-09 23:05:43.45	149.76	14.76	-49.3	-50.8	14.6	0.00e+00	0	23	0	1950351360	63	4599
2026-01-09 23:05:47.46	150.24	14.41	-49.3	-50.7	14.7	0.00e+00	0	23	0	1962934272	64	4334
2026-01-09 23:05:51.50	150.71	14.07	-49.3	-50.7	14.8	0.00e+00	0	23	0	1975517184	64	4328
2026-01-09 23:05:55.50	151.17	13.73	-49.2	-50.6	14.8	0.00e+00	0	23	0	1987051520	64	4272
2026-01-09 23:05:59.50	151.62	13.39	-49.4	-50.8	14.7	0.00e+00	0	23	0	1999634432	64	4367
2026-01-09 23:06:03.51	152.06	13.06	-49.3	-50.8	14.7	0.00e+00	0	23	0	2012217344	64	4346
2026-01-09 23:06:07.55	152.49	12.73	-49.4	-50.8	14.7	0.00e+00	0	23	0	2024800256	64	4361
2026-01-09 23:06:11.57	152.91	12.40	-49.3	-50.7	14.7	0.00e+00	0	23	0	2037383168	64	4306
2026-01-09 23:06:15.57	153.32	12.07	-49.2	-50.6	14.8	0.00e+00	0	23	0	2049966080	64	4273
2026-01-09 23:06:19.58	153.72	11.75	-49.2	-50.6	14.8	0.00e+00	0	24	0	2062548992	64	4256
2026-01-09 23:06:23.60	154.12	11.43	-49.1	-50.5	14.8	0.00e+00	0	23	0	2075131904	64	4223
2026-01-09 23:06:27.62	154.50	11.12	-49.1	-50.5	14.8	0.00e+00	0	23	0	2087714816	64	4197
2026-01-09 23:06:31.62	154.88	10.80	-49.1	-50.5	14.8	0.00e+00	0	23	0	2100297728	64	4220
2026-01-09 23:06:35.62	155.25	10.49	-49.4	-50.9	14.6	0.00e+00	0	23	0	2112880640	64	4397
2026-01-09 23:06:39.64	155.62	10.19	-49.6	-51.1	14.5	0.00e+00	0	23	0	2125463552	64	4530
2026-01-09 23:06:43.68	155.97	9.88	-49.6	-51.1	14.5	0.00e+00	0	23	0	2138046464	64	4535
2026-01-09 23:06:47.69	156.32	9.58	-49.6	-51.1	14.5	0.00e+00	0	23	0	2150629376	64	4529
2026-01-09 23:06:51.74	156.67	9.28	-49.8	-51.3	14.4	0.00e+00	0	23	0	2163212288	64	4631
2026-01-09 23:06:55.77	157.01	8.98	-49.7	-51.2	14.4	0.00e+00	0	23	0	2175795200	64	4550
2026-01-09 23:06:59.81	157.34	8.68	-49.8	-51.3	14.3	0.00e+00	0	23	0	2188378112	64	4648
2026-01-09 23:07:03.80	157.66	8.39	-49.9	-51.5	14.4	0.00e+00	0	23	0	2200961024	65	4458
2026-01-09 23:07:07.84	157.98	8.10	-50.2	-51.9	14.2	0.00e+00	0	24	0	2213543936	65	4665
2026-01-09 23:07:11.86	158.29	7.82	-50.4	-52.1	14.0	0.00e+00	0	24	0	2226126848	65	4780
2026-01-09 23:07:15.89	158.60	7.53	-50.7	-52.4	14.0	0.00e+00	0	23	0	2238709760	66	4673
2026-01-09 23:07:19.89	158.90	7.25	-50.8	-52.5	13.9	0.00e+00	0	23	0	2251292672	66	4746
2026-01-09 23:07:23.90	159.19	6.98	-50.9	-52.8	13.9	0.00e+00	0	23	0	2263875584	67	4604
2026-01-09 23:07:27.93	159.49	6.70	-50.9	-52.7	13.9	0.00e+00	0	23	0	2276458496	67	4559
2026-01-09 23:07:31.95	159.77	6.42	-50.9	-52.7	13.9	0.00e+00	0	24	0	2289041408	67	4584
2026-01-09 23:07:35.97	160.05	6.15	-50.7	-52.5	14.0	0.00e+00	0	24	0	2301624320	67	4471
2026-01-09 23:07:39.97	160.32	5.89	-50.7	-52.4	14.0	0.00e+00	0	23	0	2314207232	67	4429
2026-01-09 23:07:43.99	160.59	5.62	-50.8	-52.6	13.9	0.00e+00	0	23	0	2326790144	67	4527
2026-01-09 23:07:48.02	160.86	5.35	-50.9	-52.8	13.8	0.00e+00	0	24	0	2339373056	67	4600
2026-01-09 23:07:52.04	161.12	5.09	-51.0	-52.9	13.7	0.00e+00	0	24	0	2351955968	67	4691
2026-01-09 23:07:56.08	161.38	4.83	-58.4	-72.1	3.8	1.49e+00	0	24	104	2356150272	81	19161
2026-01-09 23:08:00.07	161.63	4.57	-58.9	-72.7	3.8	1.49e+00	0	24	104	2356150272	82	19200
2026-01-09 23:08:04.08	161.88	4.31	-59.2	-73.0	3.8	1.49e+00	0	24	104	2356150272	83	18834
2026-01-09 23:08:08.11	162.13	4.06	-59.3	-73.2	3.8	1.49e+00	0	24	104	2356150272	83	19236
2026-01-09 23:08:12.13	162.37	3.81	-59.4	-73.2	3.8	1.49e+00	0	24	104	2356150272	83	19350
2026-01-09 23:08:16.16	162.60	3.56	-59.6	-73.4	3.8	1.49e+00	0	24	104	2356150272	84	18567
2026-01-09 23:08:20.18	162.84	3.31	-59.6	-73.3	3.8	1.49e+00	0	24	104	2356150272	84	18509
2026-01-09 23:08:24.18	163.07	3.06	-59.5	-73.3	3.8	1.49e+00	0	24	104	2356150272	84	18440
2026-01-09 23:08:28.21	163.29	2.82	-59.5	-73.3	3.8	1.49e+00	0	24	104	2356150272	84	18458
2026-01-09 23:08:32.21	163.51	2.57	-59.5	-73.3	3.8	1.49e+00	0	24	104	2356150272	84	18395
2026-01-09 23:08:36.23	163.73	2.33	-59.5	-73.3	3.8	1.49e+00	0	24	104	2356150272	84	18355
2026-01-09 23:08:40.23	163.95	2.09	-59.4	-73.3	3.8	1.49e+00	0	24	104	2356150272	84	18317

#Closed at: 2026-01-09 23:08:42
#Recorded file [2356 MB]: D:/lorett/data/31004_260110_015457.dat