passes_logs/2026/01/09/R3.2S_Murmansk/R3.2S_Murmansk__20260109_140333_FENGYUN_3D_rec.log

#Pass ID: 20260109_140333_FENGYUN 3D
#Satellite: FENGYUN 3D
#Configuration: FENGYUN 3D
#almurnet v.1.7.20251203
#Start time: 2026-01-09 14:03:33

#Version: 2.2.20231116
#Station: R3.2S_Murmansk
#Location: 33.079688 lon 68.888172 lat
#TLE: 1 43010U 17072A   26008.59015185 -.00000067  00000+0 -98204-5 0  9997
#TLE: 2 43010  98.9935 340.3069 0002117 119.1923 240.9464 14.19693468422340

#Time	Az	El	Level	Level2	SNR	BER	BlckErr	Temp	State	Recorded	gain1	gain2
2026-01-09 14:03:33.82	215.23	2.03	-57.7	-70.6	3.8	8.46e-01	0	21	0	0	81	16042
2026-01-09 14:03:37.81	215.53	2.25	-57.6	-70.5	3.8	8.46e-01	0	21	104	0	80	16867
2026-01-09 14:03:41.80	215.84	2.47	-57.6	-70.4	3.8	8.45e-01	0	22	104	0	80	16693
2026-01-09 14:03:45.78	216.14	2.69	-57.6	-70.6	3.8	8.46e-01	0	22	104	0	80	17021
2026-01-09 14:03:49.78	216.45	2.91	-57.6	-70.5	3.8	8.46e-01	0	22	104	0	80	16810
2026-01-09 14:03:53.76	216.77	3.13	-57.7	-70.7	3.8	8.46e-01	0	22	104	0	80	17102
2026-01-09 14:03:57.76	217.09	3.35	-57.6	-70.6	3.8	8.45e-01	0	22	104	0	80	16939
2026-01-09 14:04:01.75	217.41	3.57	-57.6	-70.3	3.8	8.47e-01	0	22	104	0	80	16453
2026-01-09 14:04:05.74	217.74	3.79	-57.6	-70.1	3.8	8.46e-01	0	23	104	0	80	16117
2026-01-09 14:04:09.75	218.08	4.02	-57.6	-69.6	3.8	8.46e-01	0	22	104	0	80	15074
2026-01-09 14:04:13.75	218.42	4.25	-57.6	-70.1	3.8	8.47e-01	0	22	104	0	80	16102
2026-01-09 14:04:17.75	218.76	4.48	-56.9	-64.4	5.4	7.45e-01	0	22	0	0	80	8291
2026-01-09 14:04:21.74	219.11	4.70	-55.9	-60.7	8.2	5.70e-02	0	22	0	20971520	78	6128
2026-01-09 14:04:25.76	219.47	4.93	-52.2	-54.3	13.1	0.00e+00	0	23	0	42991616	71	4384
2026-01-09 14:04:29.76	219.83	5.17	-50.5	-52.2	14.1	2.40e-05	0	22	0	66060288	67	4310
2026-01-09 14:04:33.76	220.20	5.40	-49.4	-50.8	14.5	0.00e+00	0	23	0	88080384	64	4385
2026-01-09 14:04:37.75	220.57	5.63	-49.0	-50.5	14.7	0.00e+00	0	23	0	110100480	64	4219
2026-01-09 14:04:41.75	220.95	5.87	-48.7	-50.1	14.8	0.00e+00	0	23	0	133169152	63	4285
2026-01-09 14:04:45.76	221.33	6.10	-48.9	-50.3	14.7	0.00e+00	0	23	0	155189248	63	4358
2026-01-09 14:04:49.75	221.72	6.34	-48.7	-50.1	14.8	0.00e+00	0	23	0	178257920	63	4291
2026-01-09 14:04:53.75	222.12	6.57	-48.7	-50.1	14.8	0.00e+00	0	23	0	200278016	63	4288
2026-01-09 14:04:57.72	222.52	6.81	-48.8	-50.3	14.8	0.00e+00	0	23	0	223346688	63	4341
2026-01-09 14:05:01.73	222.93	7.05	-49.1	-50.5	14.6	0.00e+00	0	23	0	245366784	63	4465
2026-01-09 14:05:05.72	223.34	7.29	-48.6	-50.0	14.9	0.00e+00	0	23	0	267386880	63	4207
2026-01-09 14:05:09.71	223.76	7.53	-48.4	-49.8	15.0	0.00e+00	0	23	0	290455552	63	4100
2026-01-09 14:05:13.69	224.19	7.78	-48.5	-49.9	15.0	0.00e+00	0	23	0	312475648	63	4159
2026-01-09 14:05:17.69	224.62	8.02	-48.5	-49.9	15.0	0.00e+00	0	23	0	335544320	63	4163
2026-01-09 14:05:21.69	225.06	8.26	-48.3	-49.6	15.2	0.00e+00	0	23	0	357564416	63	4020
2026-01-09 14:05:25.68	225.51	8.51	-48.0	-49.3	15.1	0.00e+00	0	23	0	380633088	62	4117
2026-01-09 14:05:29.68	225.97	8.76	-48.1	-49.4	15.1	0.00e+00	0	23	0	402653184	62	4181
2026-01-09 14:05:33.68	226.43	9.00	-48.1	-49.4	15.1	0.00e+00	0	23	0	425721856	62	4172
2026-01-09 14:05:37.67	226.90	9.25	-47.8	-49.1	15.3	0.00e+00	0	23	0	447741952	62	4012
2026-01-09 14:05:41.66	227.38	9.50	-47.7	-49.0	15.1	0.00e+00	0	23	0	469762048	61	4212
2026-01-09 14:05:45.65	227.87	9.75	-47.7	-48.9	15.1	0.00e+00	0	23	0	492830720	61	4193
2026-01-09 14:05:49.64	228.36	10.00	-47.6	-48.9	15.2	0.00e+00	0	23	0	514850816	61	4152
2026-01-09 14:05:53.63	228.87	10.25	-47.6	-48.9	15.2	0.00e+00	0	23	0	537919488	61	4170
2026-01-09 14:05:57.61	229.38	10.50	-47.7	-49.0	15.2	0.00e+00	0	23	0	559939584	61	4219
2026-01-09 14:06:01.62	229.90	10.75	-47.6	-48.9	15.2	0.00e+00	0	23	0	581959680	61	4166
2026-01-09 14:06:05.60	230.42	11.00	-47.3	-48.5	15.4	0.00e+00	0	23	0	605028352	61	3964
2026-01-09 14:06:09.60	230.96	11.26	-47.3	-48.6	15.2	0.00e+00	0	23	0	627048448	60	4245
2026-01-09 14:06:13.62	231.51	11.51	-47.4	-48.6	15.2	0.00e+00	0	24	0	650117120	60	4276
2026-01-09 14:06:17.62	232.07	11.77	-47.3	-48.5	15.2	0.00e+00	0	23	0	672137216	60	4237
2026-01-09 14:06:21.61	232.63	12.02	-47.2	-48.4	15.3	0.00e+00	0	23	0	695205888	60	4170
2026-01-09 14:06:25.60	233.21	12.27	-47.0	-48.1	15.4	0.00e+00	0	23	0	717225984	60	4043
2026-01-09 14:06:29.60	233.79	12.53	-47.1	-48.3	15.3	0.00e+00	0	23	0	739246080	60	4104
2026-01-09 14:06:33.61	234.39	12.78	-47.0	-48.2	15.4	0.00e+00	0	23	0	762314752	60	4074
2026-01-09 14:06:37.60	234.99	13.03	-47.0	-48.2	15.4	0.00e+00	0	23	0	784334848	60	4057
2026-01-09 14:06:41.60	235.61	13.29	-46.9	-48.0	15.4	0.00e+00	0	23	0	807403520	60	3999
2026-01-09 14:06:45.59	236.23	13.54	-46.8	-48.0	15.5	0.00e+00	0	23	0	829423616	60	3986
2026-01-09 14:06:49.59	236.87	13.79	-46.7	-47.9	15.5	0.00e+00	0	24	0	852492288	60	3926
2026-01-09 14:06:53.58	237.51	14.05	-47.1	-48.2	15.3	0.00e+00	0	23	0	874512384	59	4337
2026-01-09 14:06:57.57	238.17	14.30	-47.0	-48.2	15.3	0.00e+00	0	23	0	896532480	59	4309
2026-01-09 14:07:01.57	238.83	14.55	-47.0	-48.2	15.3	0.00e+00	0	23	0	919601152	59	4295
2026-01-09 14:07:05.56	239.51	14.80	-47.0	-48.2	15.3	0.00e+00	0	24	0	941621248	59	4314
2026-01-09 14:07:09.55	240.20	15.04	-46.8	-48.0	15.4	0.00e+00	0	24	0	964689920	59	4197
2026-01-09 14:07:13.56	240.90	15.29	-46.8	-47.9	15.4	0.00e+00	0	23	0	986710016	59	4193
2026-01-09 14:07:17.56	241.61	15.54	-46.9	-48.1	15.3	0.00e+00	0	23	0	1009778688	59	4255
2026-01-09 14:07:21.55	242.33	15.78	-46.8	-48.0	15.4	0.00e+00	0	23	0	1031798784	59	4216
2026-01-09 14:07:25.52	243.06	16.02	-46.6	-47.8	15.5	0.00e+00	0	23	0	1054867456	59	4123
2026-01-09 14:07:29.53	243.81	16.26	-46.5	-47.6	15.5	0.00e+00	0	23	0	1076887552	59	4027
2026-01-09 14:07:33.51	244.57	16.50	-46.5	-47.6	15.5	0.00e+00	0	23	0	1098907648	59	4044
2026-01-09 14:07:37.50	245.33	16.73	-46.6	-47.7	15.5	0.00e+00	0	23	0	1121976320	59	4093
2026-01-09 14:07:41.47	246.11	16.96	-46.4	-47.5	15.6	0.00e+00	0	23	0	1143996416	59	3993
2026-01-09 14:07:45.47	246.90	17.19	-46.3	-47.4	15.7	0.00e+00	0	23	0	1167065088	59	3924
2026-01-09 14:07:49.44	247.70	17.41	-46.3	-47.4	15.5	0.00e+00	0	23	0	1189085184	58	4187
2026-01-09 14:07:53.43	248.51	17.63	-46.3	-47.4	15.5	0.00e+00	0	23	0	1211105280	58	4183
2026-01-09 14:07:57.43	249.34	17.85	-46.2	-47.3	15.5	0.00e+00	0	23	0	1234173952	58	4110
2026-01-09 14:08:01.40	250.17	18.07	-46.2	-47.3	15.5	0.00e+00	0	24	0	1256194048	58	4145
2026-01-09 14:08:05.40	251.02	18.28	-46.2	-47.4	15.5	0.00e+00	0	24	0	1278214144	58	4164
2026-01-09 14:08:09.38	251.88	18.48	-46.2	-47.3	15.5	0.00e+00	0	24	0	1301282816	58	4128
2026-01-09 14:08:13.39	252.76	18.69	-46.0	-47.1	15.6	0.00e+00	0	23	0	1323302912	58	4043
2026-01-09 14:08:17.38	253.64	18.88	-45.9	-47.0	15.6	0.00e+00	0	23	0	1346371584	58	4001
2026-01-09 14:08:21.37	254.53	19.07	-45.6	-46.6	15.6	0.00e+00	0	23	0	1368391680	57	4045
2026-01-09 14:08:25.37	255.44	19.26	-45.7	-46.8	15.6	0.00e+00	0	24	0	1390411776	57	4130
2026-01-09 14:08:29.37	256.36	19.44	-45.9	-47.0	15.5	0.00e+00	0	23	0	1413480448	57	4207
2026-01-09 14:08:33.35	257.28	19.61	-45.5	-46.6	15.6	0.00e+00	0	23	0	1435500544	57	4042
2026-01-09 14:08:37.35	258.22	19.78	-45.9	-47.1	15.5	0.00e+00	0	23	0	1458569216	57	4251
2026-01-09 14:08:41.33	259.16	19.94	-45.7	-46.9	15.5	0.00e+00	0	23	0	1480589312	57	4148
2026-01-09 14:08:45.31	260.11	20.10	-45.6	-46.7	15.6	0.00e+00	0	24	0	1502609408	57	4086
2026-01-09 14:08:49.28	261.07	20.24	-45.7	-46.8	15.6	0.00e+00	0	24	0	1525678080	57	4099
2026-01-09 14:08:53.27	262.04	20.38	-45.5	-46.6	15.6	0.00e+00	0	24	0	1547698176	57	4045
2026-01-09 14:08:57.26	263.02	20.52	-45.4	-46.4	15.7	0.00e+00	0	24	0	1570766848	57	3956
2026-01-09 14:09:01.27	264.01	20.64	-45.5	-46.6	15.6	0.00e+00	0	23	0	1592786944	57	4011
2026-01-09 14:09:05.27	265.01	20.76	-45.5	-46.6	15.6	0.00e+00	0	24	0	1615855616	57	4030
2026-01-09 14:09:09.24	266.01	20.87	-45.6	-46.7	15.6	0.00e+00	0	23	0	1637875712	57	4083
2026-01-09 14:09:13.24	267.02	20.97	-45.6	-46.7	15.6	0.00e+00	0	23	0	1659895808	57	4089
2026-01-09 14:09:17.24	268.04	21.06	-45.5	-46.6	15.6	0.00e+00	0	23	0	1682964480	57	4007
2026-01-09 14:09:21.23	269.06	21.15	-45.6	-46.7	15.6	0.00e+00	0	24	0	1704984576	57	4058
2026-01-09 14:09:25.22	270.09	21.22	-45.4	-46.5	15.7	0.00e+00	0	24	0	1728053248	57	3974
2026-01-09 14:09:29.23	271.13	21.29	-45.6	-46.7	15.6	0.00e+00	0	23	0	1750073344	57	4072
2026-01-09 14:09:33.25	272.17	21.34	-45.4	-46.5	15.7	0.00e+00	0	23	0	1773142016	57	3961
2026-01-09 14:09:37.25	273.21	21.39	-45.5	-46.6	15.7	0.00e+00	0	24	0	1795162112	57	4015
2026-01-09 14:09:41.25	274.26	21.43	-45.4	-46.5	15.7	0.00e+00	0	24	0	1818230784	57	3984
2026-01-09 14:09:45.27	275.31	21.46	-45.5	-46.6	15.7	0.00e+00	0	23	0	1840250880	57	4023
2026-01-09 14:09:49.27	276.36	21.48	-45.7	-46.8	15.6	0.00e+00	0	23	0	1863319552	57	4123
2026-01-09 14:09:53.27	277.40	21.48	-45.6	-46.7	15.6	0.00e+00	0	24	0	1885339648	57	4065
2026-01-09 14:09:57.27	278.45	21.48	-45.5	-46.6	15.6	0.00e+00	0	23	0	1908408320	57	4041
2026-01-09 14:10:01.28	279.50	21.47	-45.5	-46.6	15.6	0.00e+00	0	24	0	1930428416	57	4029
2026-01-09 14:10:05.28	280.55	21.45	-45.5	-46.6	15.6	0.00e+00	0	24	0	1953497088	57	4020
2026-01-09 14:10:09.28	281.60	21.43	-45.6	-46.7	15.6	0.00e+00	0	24	0	1975517184	57	4087
2026-01-09 14:10:13.29	282.64	21.39	-45.8	-46.9	15.5	0.00e+00	0	24	0	1998585856	57	4171
2026-01-09 14:10:17.30	283.68	21.34	-45.6	-46.7	15.6	0.00e+00	0	23	0	2020605952	57	4071
2026-01-09 14:10:21.30	284.72	21.28	-45.4	-46.5	15.7	0.00e+00	0	24	0	2042626048	57	3984
2026-01-09 14:10:25.31	285.76	21.21	-45.7	-46.8	15.6	0.00e+00	0	24	0	2065694720	57	4109
2026-01-09 14:10:29.32	286.79	21.14	-45.8	-46.9	15.6	0.00e+00	0	24	0	2088763392	57	4153
2026-01-09 14:10:33.31	287.81	21.05	-46.0	-47.1	15.5	0.00e+00	0	24	0	2110783488	57	4254
2026-01-09 14:10:37.33	288.83	20.96	-45.9	-47.0	15.5	0.00e+00	0	23	0	2133852160	57	4205
2026-01-09 14:10:41.35	289.84	20.86	-46.0	-47.1	15.5	0.00e+00	0	24	0	2155872256	57	4280
2026-01-09 14:10:45.36	290.85	20.75	-46.1	-47.3	15.4	0.00e+00	0	24	0	2177892352	57	4352
2026-01-09 14:10:49.36	291.85	20.63	-45.9	-47.1	15.5	0.00e+00	0	24	0	2200961024	57	4243
2026-01-09 14:10:53.35	292.83	20.50	-45.8	-46.9	15.5	0.00e+00	0	24	0	2222981120	57	4166
2026-01-09 14:10:57.33	293.81	20.37	-45.8	-46.9	15.5	0.00e+00	0	24	0	2246049792	57	4188
2026-01-09 14:11:01.34	294.78	20.23	-46.0	-47.1	15.5	0.00e+00	0	24	0	2268069888	57	4252
2026-01-09 14:11:05.33	295.74	20.08	-46.0	-47.2	15.5	0.00e+00	0	23	0	2291138560	57	4299
2026-01-09 14:11:09.35	296.70	19.93	-46.3	-47.4	15.4	0.00e+00	0	24	0	2313158656	57	4420
2026-01-09 14:11:13.37	297.65	19.76	-46.3	-47.4	15.4	0.00e+00	0	24	0	2336227328	57	4432
2026-01-09 14:11:17.37	298.58	19.59	-46.5	-47.6	15.4	0.00e+00	0	24	0	2358247424	58	4276
2026-01-09 14:11:21.37	299.50	19.42	-46.4	-47.5	15.4	0.00e+00	0	24	0	2381316096	58	4225
2026-01-09 14:11:25.37	300.42	19.24	-46.5	-47.6	15.4	0.00e+00	0	24	0	2403336192	58	4275
2026-01-09 14:11:29.37	301.32	19.05	-46.6	-47.8	15.4	0.00e+00	0	24	0	2425356288	58	4346
2026-01-09 14:11:33.36	302.21	18.86	-46.4	-47.6	15.4	0.00e+00	0	24	0	2448424960	58	4254
2026-01-09 14:11:37.35	303.09	18.67	-46.4	-47.5	15.4	0.00e+00	0	24	0	2470445056	58	4225
2026-01-09 14:11:41.36	303.96	18.46	-46.4	-47.6	15.4	0.00e+00	0	24	0	2493513728	58	4257
2026-01-09 14:11:45.35	304.81	18.26	-46.6	-47.7	15.4	0.00e+00	0	24	0	2515533824	58	4325
2026-01-09 14:11:49.35	305.66	18.05	-46.7	-47.8	15.3	0.00e+00	0	24	0	2538602496	58	4378
2026-01-09 14:11:53.33	306.49	17.83	-46.4	-47.5	15.4	0.00e+00	0	24	0	2560622592	58	4229
2026-01-09 14:11:57.33	307.31	17.62	-46.8	-48.0	15.3	0.00e+00	0	24	0	2583691264	58	4480
2026-01-09 14:12:01.30	308.12	17.40	-47.0	-48.2	15.3	0.00e+00	0	24	0	2605711360	59	4317
2026-01-09 14:12:05.28	308.92	17.17	-46.8	-48.0	15.4	0.00e+00	0	24	0	2627731456	59	4218
2026-01-09 14:12:09.29	309.71	16.94	-46.9	-48.0	15.4	0.00e+00	0	24	0	2650800128	59	4235
2026-01-09 14:12:13.29	310.48	16.71	-46.8	-48.0	15.4	0.00e+00	0	24	0	2672820224	59	4194
2026-01-09 14:12:17.29	311.25	16.48	-47.0	-48.2	15.3	0.00e+00	0	24	0	2695888896	59	4312
2026-01-09 14:12:21.29	312.00	16.24	-47.3	-48.5	15.2	0.00e+00	0	24	0	2717908992	59	4492
2026-01-09 14:12:25.29	312.75	16.00	-47.4	-48.6	15.1	0.00e+00	0	24	0	2740977664	59	4510
2026-01-09 14:12:29.30	313.48	15.76	-47.3	-48.5	15.3	0.00e+00	0	24	0	2762997760	60	4230
2026-01-09 14:12:33.30	314.20	15.52	-47.0	-48.2	15.4	0.00e+00	0	24	0	2786066432	60	4086
2026-01-09 14:12:37.30	314.91	15.28	-46.9	-48.1	15.4	0.00e+00	0	24	0	2808086528	60	4005
2026-01-09 14:12:41.30	315.60	15.03	-47.0	-48.2	15.3	0.00e+00	0	24	0	2830106624	59	4330
2026-01-09 14:12:45.31	316.29	14.78	-47.2	-48.4	15.2	0.00e+00	0	24	0	2853175296	59	4428
2026-01-09 14:12:49.31	316.96	14.54	-47.2	-48.4	15.1	0.00e+00	0	24	0	2875195392	59	4435
2026-01-09 14:12:53.30	317.63	14.29	-47.3	-48.5	15.2	0.00e+00	0	24	0	2898264064	60	4206
2026-01-09 14:12:57.28	318.28	14.04	-47.1	-48.3	15.3	0.00e+00	0	24	0	2920284160	60	4123
2026-01-09 14:13:01.27	318.92	13.79	-47.2	-48.5	15.2	0.00e+00	0	24	0	2942304256	60	4196
2026-01-09 14:13:05.26	319.55	13.54	-47.5	-48.8	15.1	0.00e+00	0	24	0	2965372928	60	4343
2026-01-09 14:13:09.26	320.17	13.29	-47.3	-48.5	15.2	0.00e+00	0	24	0	2987393024	60	4226
2026-01-09 14:13:13.25	320.78	13.03	-47.2	-48.4	15.2	0.00e+00	0	24	0	3010461696	60	4160
2026-01-09 14:13:17.25	321.38	12.78	-47.2	-48.4	15.2	0.00e+00	0	24	0	3032481792	60	4149
2026-01-09 14:13:21.24	321.97	12.53	-47.1	-48.3	15.3	0.00e+00	0	24	0	3055550464	60	4132
2026-01-09 14:13:25.25	322.56	12.28	-47.4	-48.6	15.1	0.00e+00	0	24	0	3077570560	60	4272
2026-01-09 14:13:29.25	323.13	12.02	-47.5	-48.7	15.1	0.00e+00	0	24	0	3100639232	60	4320
2026-01-09 14:13:33.25	323.69	11.77	-47.5	-48.8	15.1	0.00e+00	0	24	0	3122659328	60	4354
2026-01-09 14:13:37.24	324.25	11.52	-47.7	-48.9	15.0	0.00e+00	0	24	0	3145728000	60	4437
2026-01-09 14:13:41.23	324.79	11.27	-47.7	-49.0	14.9	0.00e+00	0	24	0	3167748096	60	4468
2026-01-09 14:13:45.23	325.33	11.02	-47.6	-48.9	15.0	0.00e+00	0	24	0	3189768192	60	4405
2026-01-09 14:13:49.22	325.85	10.77	-47.7	-49.0	15.0	0.00e+00	0	24	0	3212836864	60	4459
2026-01-09 14:13:53.21	326.37	10.52	-47.9	-49.2	15.0	0.00e+00	0	24	0	3234856960	61	4311
2026-01-09 14:13:57.19	326.88	10.27	-48.1	-49.4	14.9	0.00e+00	0	24	0	3257925632	61	4424
2026-01-09 14:14:01.17	327.38	10.02	-48.3	-49.6	14.8	0.00e+00	0	24	0	3279945728	61	4537
2026-01-09 14:14:05.17	327.87	9.77	-48.1	-49.4	14.9	0.00e+00	0	24	0	3303014400	61	4429
2026-01-09 14:14:09.15	328.35	9.53	-48.1	-49.5	14.8	0.00e+00	0	24	0	3325034496	61	4450
2026-01-09 14:14:13.14	328.83	9.28	-48.3	-49.7	14.7	0.00e+00	0	24	0	3347054592	61	4559
2026-01-09 14:14:17.14	329.30	9.03	-48.3	-49.6	14.8	0.00e+00	0	24	0	3370123264	61	4530
2026-01-09 14:14:21.13	329.76	8.79	-48.3	-49.6	14.7	0.00e+00	0	24	0	3392143360	61	4517
2026-01-09 14:14:25.13	330.22	8.54	-48.2	-49.5	14.8	0.00e+00	0	24	0	3415212032	61	4485
2026-01-09 14:14:29.14	330.67	8.30	-48.4	-49.7	14.7	0.00e+00	0	24	0	3437232128	61	4594
2026-01-09 14:14:33.14	331.11	8.06	-48.6	-50.0	14.7	0.00e+00	0	24	0	3459252224	62	4476
2026-01-09 14:14:37.15	331.54	7.81	-49.0	-50.4	14.6	0.00e+00	0	24	0	3482320896	63	4420
2026-01-09 14:14:41.17	331.97	7.57	-48.7	-50.0	14.8	0.00e+00	0	24	0	3505389568	63	4242
2026-01-09 14:14:45.17	332.39	7.33	-48.6	-49.9	14.9	0.00e+00	0	24	0	3527409664	63	4185
2026-01-09 14:14:49.17	332.81	7.09	-48.5	-49.8	14.9	0.00e+00	0	24	0	3550478336	63	4118
2026-01-09 14:14:53.18	333.22	6.85	-48.7	-50.0	14.8	0.00e+00	0	24	0	3572498432	63	4238
2026-01-09 14:14:57.16	333.62	6.62	-48.7	-50.1	14.7	0.00e+00	0	24	0	3594518528	63	4286
2026-01-09 14:15:01.15	334.01	6.38	-49.1	-50.5	14.5	0.00e+00	0	24	0	3617587200	63	4490
2026-01-09 14:15:05.15	334.40	6.15	-49.0	-50.5	14.5	0.00e+00	0	24	0	3639607296	63	4482
2026-01-09 14:15:09.14	334.78	5.92	-49.4	-51.0	14.3	0.00e+00	0	24	0	3662675968	64	4456
2026-01-09 14:15:13.13	335.16	5.68	-49.4	-51.0	14.3	0.00e+00	0	24	0	3684696064	64	4472
2026-01-09 14:15:17.14	335.53	5.45	-49.5	-51.1	14.3	0.00e+00	0	24	0	3706716160	64	4497
2026-01-09 14:15:21.16	335.90	5.22	-49.4	-50.9	14.3	0.00e+00	0	24	0	3729784832	64	4423
2026-01-09 14:15:25.17	336.26	4.99	-49.4	-50.9	14.3	0.00e+00	0	24	0	3751804928	64	4418
2026-01-09 14:15:29.16	336.62	4.76	-58.9	-71.9	3.8	8.45e-01	0	24	104	3757047808	82	17614
2026-01-09 14:15:33.15	336.97	4.54	-59.4	-72.4	3.8	8.46e-01	0	24	104	3757047808	83	17624
2026-01-09 14:15:37.16	337.32	4.31	-59.8	-72.8	3.8	8.48e-01	0	24	104	3757047808	84	17395
2026-01-09 14:15:41.15	337.66	4.09	-59.8	-72.9	3.8	8.45e-01	0	24	104	3757047808	84	17593
2026-01-09 14:15:45.14	337.99	3.86	-59.8	-72.9	3.8	8.45e-01	0	24	104	3757047808	84	17599
2026-01-09 14:15:49.13	338.32	3.64	-59.8	-72.8	3.8	8.45e-01	0	24	104	3757047808	84	17421
2026-01-09 14:15:53.13	338.65	3.42	-59.7	-72.8	3.8	8.46e-01	0	24	104	3757047808	84	17311
2026-01-09 14:15:57.12	338.97	3.20	-59.7	-72.7	3.8	8.46e-01	0	24	104	3757047808	84	17256
2026-01-09 14:16:01.12	339.29	2.98	-59.7	-72.7	3.8	8.46e-01	0	24	104	3757047808	84	17265
2026-01-09 14:16:05.10	339.60	2.76	-59.6	-72.7	3.8	8.46e-01	0	24	104	3757047808	84	17184
2026-01-09 14:16:09.10	339.91	2.54	-59.6	-72.7	3.8	8.46e-01	0	24	104	3757047808	84	17170
2026-01-09 14:16:13.08	340.21	2.33	-59.6	-72.6	3.8	8.45e-01	0	24	104	3757047808	84	17033
2026-01-09 14:16:17.08	340.51	2.11	-59.6	-72.6	3.8	8.45e-01	0	24	104	3757047808	84	17021

#Closed at: 2026-01-09 14:16:21
#Recorded file [3757 MB]: D:/lorett/data/31004_260109_170333.dat