passes_logs/2026/01/09/R3.2S_Murmansk/R3.2S_Murmansk__20260109_211426_NOAA_21_JPSS-2_rec.log

#Pass ID: 20260109_211426_NOAA 21 (JPSS-2)
#Satellite: NOAA 21 (JPSS-2)
#Configuration: NOAA-21
#almurnet v.1.7.20251203
#Start time: 2026-01-09 21:14:28

#Version: 2.2.20231116
#Station: R3.2S_Murmansk
#Location: 33.079688 lon 68.888172 lat
#TLE: 1 54234U 22150A   26009.23291724  .00000115  00000+0  75298-4 0  9996
#TLE: 2 54234  98.7494 310.2026 0000856 324.9272  35.1848 14.19533567163994

#Time	Az	El	Level	Level2	SNR	BER	BlckErr	Temp	State	Recorded	gain1	gain2
2026-01-09 21:14:28.42	18.54	2.07	-57.0	-70.7	3.8	1.49e+00	0	21	0	0	80	17180
2026-01-09 21:14:31.42	18.84	2.21	-56.9	-70.6	3.8	1.49e+00	0	21	104	0	79	17908
2026-01-09 21:14:34.41	19.14	2.34	-57.0	-70.5	3.8	1.49e+00	0	21	104	0	79	17780
2026-01-09 21:14:37.41	19.45	2.47	-57.0	-70.5	3.8	1.49e+00	0	22	104	0	79	17851
2026-01-09 21:14:40.41	19.75	2.60	-57.0	-70.5	3.8	1.49e+00	0	22	104	0	79	17871
2026-01-09 21:14:43.41	20.06	2.73	-57.0	-70.6	3.8	1.49e+00	0	22	104	0	79	17944
2026-01-09 21:14:46.40	20.37	2.86	-57.0	-70.6	3.8	1.49e+00	0	22	104	0	79	18009
2026-01-09 21:14:49.40	20.69	2.99	-57.0	-70.7	3.8	1.49e+00	0	22	104	0	79	18264
2026-01-09 21:14:52.40	21.00	3.13	-57.0	-70.7	3.8	1.49e+00	0	22	104	0	79	18190
2026-01-09 21:14:55.40	21.32	3.26	-57.0	-70.7	3.8	1.49e+00	0	22	104	0	79	18141
2026-01-09 21:14:58.40	21.64	3.39	-57.0	-70.5	3.8	1.49e+00	0	22	104	0	79	17842
2026-01-09 21:15:01.40	21.97	3.52	-57.0	-70.7	3.8	1.49e+00	0	22	104	0	79	18189
2026-01-09 21:15:04.41	22.30	3.65	-57.0	-70.7	3.8	1.49e+00	0	22	104	0	79	18282
2026-01-09 21:15:07.41	22.63	3.78	-57.0	-70.7	3.8	1.49e+00	0	22	104	0	79	18246
2026-01-09 21:15:10.40	22.96	3.91	-57.0	-70.7	3.8	1.49e+00	0	22	104	0	79	18274
2026-01-09 21:15:13.39	23.30	4.04	-57.0	-70.6	3.8	1.49e+00	0	22	104	0	79	17979
2026-01-09 21:15:16.38	23.63	4.17	-57.0	-70.7	3.8	1.49e+00	0	22	104	0	79	18251
2026-01-09 21:15:19.36	23.97	4.30	-56.9	-69.9	3.8	1.49e+00	0	22	104	0	79	16543
2026-01-09 21:15:22.36	24.32	4.43	-56.9	-69.6	3.8	1.49e+00	0	22	104	0	79	16005
2026-01-09 21:15:25.35	24.67	4.56	-56.7	-66.7	4.4	1.48e+00	0	22	104	0	79	11453
2026-01-09 21:15:28.35	25.02	4.69	-55.3	-60.2	8.7	2.77e-02	0	22	0	6291456	77	6082
2026-01-09 21:15:31.34	25.37	4.82	-54.1	-57.7	10.7	9.25e-04	0	23	0	15728640	74	5433
2026-01-09 21:15:34.32	25.72	4.95	-54.6	-58.8	9.8	3.02e-03	0	22	0	25165824	74	6133
2026-01-09 21:15:37.32	26.08	5.08	-51.9	-54.1	13.3	0.00e+00	0	23	0	34603008	69	4792
2026-01-09 21:15:40.32	26.45	5.21	-52.8	-55.3	12.6	0.00e+00	0	23	0	40894464	70	5187
2026-01-09 21:15:43.33	26.81	5.33	-51.5	-53.5	13.7	0.00e+00	0	23	0	50331648	69	4451
2026-01-09 21:15:46.34	27.18	5.46	-51.3	-53.2	13.9	0.00e+00	0	23	0	59768832	69	4306
2026-01-09 21:15:49.33	27.55	5.59	-51.3	-53.2	13.8	0.00e+00	0	23	0	69206016	68	4563
2026-01-09 21:15:52.33	27.93	5.72	-51.2	-53.1	13.8	0.00e+00	0	23	0	78643200	68	4513
2026-01-09 21:15:55.34	28.31	5.85	-51.0	-52.7	14.1	0.00e+00	0	23	0	88080384	68	4331
2026-01-09 21:15:58.33	28.69	5.97	-51.0	-52.8	14.1	0.00e+00	0	23	0	97517568	68	4353
2026-01-09 21:16:01.32	29.07	6.10	-50.8	-52.5	14.3	0.00e+00	0	23	0	106954752	68	4205
2026-01-09 21:16:04.33	29.46	6.22	-51.0	-52.8	14.0	0.00e+00	0	23	0	116391936	68	4385
2026-01-09 21:16:07.34	29.85	6.35	-50.9	-52.7	14.2	0.00e+00	0	23	0	125829120	68	4300
2026-01-09 21:16:10.33	30.25	6.47	-50.8	-52.5	14.3	0.00e+00	0	23	0	135266304	68	4218
2026-01-09 21:16:13.33	30.64	6.60	-50.7	-52.4	14.1	0.00e+00	0	23	0	143654912	67	4416
2026-01-09 21:16:16.32	31.04	6.72	-50.5	-52.2	14.2	0.00e+00	0	23	0	153092096	67	4319
2026-01-09 21:16:19.30	31.44	6.84	-50.4	-52.0	14.4	0.00e+00	0	23	0	162529280	67	4227
2026-01-09 21:16:22.29	31.85	6.96	-50.6	-52.3	14.2	0.00e+00	0	23	0	171966464	67	4390
2026-01-09 21:16:25.27	32.26	7.08	-50.6	-52.2	14.2	0.00e+00	0	23	0	181403648	67	4333
2026-01-09 21:16:28.27	32.67	7.21	-50.5	-52.1	14.3	0.00e+00	0	23	0	190840832	67	4288
2026-01-09 21:16:31.28	33.09	7.33	-50.4	-52.0	14.4	0.00e+00	0	23	0	200278016	67	4222
2026-01-09 21:16:34.28	33.51	7.45	-50.3	-51.9	14.4	0.00e+00	0	23	0	209715200	67	4191
2026-01-09 21:16:37.27	33.93	7.56	-50.3	-51.9	14.5	0.00e+00	0	23	0	219152384	67	4156
2026-01-09 21:16:40.27	34.36	7.68	-50.3	-52.0	14.4	0.00e+00	0	23	0	228589568	67	4212
2026-01-09 21:16:43.28	34.79	7.80	-50.3	-52.0	14.5	0.00e+00	0	23	0	238026752	67	4195
2026-01-09 21:16:46.28	35.23	7.92	-50.2	-51.8	14.5	0.00e+00	0	23	0	247463936	67	4137
2026-01-09 21:16:49.26	35.66	8.03	-50.1	-51.7	14.5	0.00e+00	0	23	0	255852544	66	4292
2026-01-09 21:16:52.25	36.10	8.15	-50.1	-51.6	14.5	0.00e+00	0	23	0	265289728	66	4278
2026-01-09 21:16:55.25	36.54	8.26	-50.0	-51.6	14.5	0.00e+00	0	23	0	274726912	66	4263
2026-01-09 21:16:58.25	36.99	8.37	-49.9	-51.4	14.6	0.00e+00	0	23	0	284164096	66	4177
2026-01-09 21:17:01.24	37.44	8.48	-49.8	-51.3	14.7	0.00e+00	0	23	0	293601280	66	4131
2026-01-09 21:17:04.24	37.89	8.59	-49.9	-51.4	14.6	0.00e+00	0	23	0	303038464	66	4191
2026-01-09 21:17:07.25	38.35	8.70	-49.9	-51.5	14.6	0.00e+00	0	23	0	312475648	66	4195
2026-01-09 21:17:10.25	38.81	8.81	-50.0	-51.5	14.6	0.00e+00	0	23	0	321912832	66	4230
2026-01-09 21:17:13.23	39.27	8.92	-50.1	-51.7	14.5	0.00e+00	0	23	0	331350016	66	4324
2026-01-09 21:17:16.22	39.74	9.03	-50.0	-51.6	14.6	0.00e+00	0	23	0	340787200	66	4246
2026-01-09 21:17:19.21	40.21	9.13	-50.1	-51.7	14.5	0.00e+00	0	23	0	350224384	66	4303
2026-01-09 21:17:22.19	40.68	9.23	-50.0	-51.5	14.6	0.00e+00	0	23	0	359661568	66	4212
2026-01-09 21:17:25.19	41.16	9.34	-50.0	-51.5	14.6	0.00e+00	0	23	0	369098752	66	4212
2026-01-09 21:17:28.18	41.63	9.44	-50.0	-51.5	14.6	0.00e+00	0	23	0	378535936	66	4229
2026-01-09 21:17:31.18	42.12	9.54	-50.0	-51.6	14.5	0.00e+00	0	23	0	386924544	66	4270
2026-01-09 21:17:34.16	42.60	9.64	-49.8	-51.3	14.7	0.00e+00	0	23	0	396361728	66	4143
2026-01-09 21:17:37.15	43.09	9.73	-49.9	-51.4	14.7	0.00e+00	0	23	0	405798912	66	4159
2026-01-09 21:17:40.13	43.58	9.83	-50.0	-51.5	14.6	0.00e+00	0	23	0	415236096	66	4203
2026-01-09 21:17:43.14	44.08	9.92	-50.1	-51.7	14.5	0.00e+00	0	23	0	424673280	66	4309
2026-01-09 21:17:46.14	44.58	10.02	-50.3	-51.9	14.4	0.00e+00	0	23	0	434110464	66	4412
2026-01-09 21:17:49.15	45.08	10.11	-50.0	-51.5	14.6	0.00e+00	0	23	0	443547648	66	4214
2026-01-09 21:17:52.14	45.58	10.20	-49.8	-51.3	14.7	0.00e+00	0	23	0	452984832	66	4140
2026-01-09 21:17:55.15	46.09	10.29	-49.9	-51.4	14.6	0.00e+00	0	23	0	462422016	66	4193
2026-01-09 21:17:58.14	46.60	10.37	-49.9	-51.4	14.7	0.00e+00	0	23	0	471859200	66	4159
2026-01-09 21:18:01.13	47.12	10.46	-49.9	-51.4	14.7	0.00e+00	0	23	0	481296384	66	4176
2026-01-09 21:18:04.12	47.63	10.54	-49.8	-51.3	14.7	0.00e+00	0	23	0	490733568	66	4113
2026-01-09 21:18:07.13	48.15	10.62	-49.9	-51.3	14.7	0.00e+00	0	23	0	500170752	66	4143
2026-01-09 21:18:10.13	48.67	10.70	-49.7	-51.1	14.7	0.00e+00	0	23	0	509607936	65	4284
2026-01-09 21:18:13.13	49.20	10.78	-49.7	-51.2	14.6	0.00e+00	0	23	0	519045120	65	4323
2026-01-09 21:18:16.13	49.73	10.85	-49.7	-51.2	14.6	0.00e+00	0	23	0	527433728	65	4314
2026-01-09 21:18:19.12	50.26	10.93	-49.8	-51.3	14.6	0.00e+00	0	23	0	536870912	65	4344
2026-01-09 21:18:22.11	50.79	11.00	-50.0	-51.5	14.4	0.00e+00	0	23	0	546308096	65	4488
2026-01-09 21:18:25.09	51.32	11.07	-49.8	-51.3	14.6	0.00e+00	0	23	0	555745280	65	4371
2026-01-09 21:18:28.09	51.86	11.14	-49.7	-51.2	14.7	0.00e+00	0	23	0	565182464	65	4292
2026-01-09 21:18:31.09	52.40	11.20	-49.7	-51.2	14.6	0.00e+00	0	23	0	574619648	65	4301
2026-01-09 21:18:34.08	52.94	11.26	-49.9	-51.4	14.5	0.00e+00	0	23	0	584056832	65	4439
2026-01-09 21:18:37.08	53.48	11.33	-49.8	-51.3	14.6	0.00e+00	0	23	0	593494016	65	4382
2026-01-09 21:18:40.07	54.03	11.39	-49.7	-51.1	14.7	0.00e+00	0	23	0	602931200	65	4282
2026-01-09 21:18:43.07	54.58	11.44	-49.6	-51.1	14.7	0.00e+00	0	23	0	612368384	65	4259
2026-01-09 21:18:46.07	55.13	11.50	-49.8	-51.3	14.5	0.00e+00	0	23	0	621805568	65	4382
2026-01-09 21:18:49.09	55.69	11.55	-49.6	-51.1	14.7	0.00e+00	0	24	0	631242752	65	4261
2026-01-09 21:18:52.09	56.24	11.60	-49.5	-51.0	14.7	0.00e+00	0	23	0	640679936	65	4206
2026-01-09 21:18:55.09	56.80	11.65	-49.4	-50.9	14.8	0.00e+00	0	23	0	650117120	65	4147
2026-01-09 21:18:58.10	57.36	11.70	-49.5	-51.0	14.8	0.00e+00	0	23	0	658505728	65	4195
2026-01-09 21:19:01.09	57.92	11.74	-49.5	-51.0	14.7	0.00e+00	0	23	0	667942912	65	4196
2026-01-09 21:19:04.10	58.49	11.78	-49.7	-51.2	14.6	0.00e+00	0	23	0	677380096	65	4301
2026-01-09 21:19:07.11	59.05	11.82	-49.7	-51.1	14.7	0.00e+00	0	23	0	686817280	65	4290
2026-01-09 21:19:10.11	59.62	11.85	-49.7	-51.2	14.6	0.00e+00	0	23	0	696254464	65	4324
2026-01-09 21:19:13.12	60.18	11.89	-49.7	-51.2	14.6	0.00e+00	0	23	0	705691648	65	4294
2026-01-09 21:19:16.11	60.75	11.92	-49.4	-50.8	14.8	0.00e+00	0	23	0	715128832	65	4135
2026-01-09 21:19:19.10	61.32	11.95	-49.3	-50.7	14.9	0.00e+00	0	23	0	724566016	65	4098
2026-01-09 21:19:22.10	61.89	11.97	-49.3	-50.7	14.9	0.00e+00	0	23	0	734003200	65	4080
2026-01-09 21:19:25.11	62.46	12.00	-49.2	-50.6	14.9	0.00e+00	0	23	0	743440384	65	4043
2026-01-09 21:19:28.10	63.03	12.02	-49.1	-50.5	14.8	0.00e+00	0	23	0	752877568	64	4216
2026-01-09 21:19:31.11	63.60	12.04	-49.3	-50.7	14.8	0.00e+00	0	23	0	762314752	64	4293
2026-01-09 21:19:34.11	64.18	12.06	-49.3	-50.7	14.8	0.00e+00	0	24	0	771751936	64	4309
2026-01-09 21:19:37.11	64.75	12.07	-49.3	-50.7	14.7	0.00e+00	0	23	0	781189120	64	4326
2026-01-09 21:19:40.11	65.33	12.08	-49.3	-50.7	14.7	0.00e+00	0	23	0	790626304	64	4338
2026-01-09 21:19:43.11	65.90	12.09	-49.3	-50.7	14.7	0.00e+00	0	23	0	800063488	64	4316
2026-01-09 21:19:46.10	66.47	12.09	-49.3	-50.7	14.7	0.00e+00	0	23	0	809500672	64	4337
2026-01-09 21:19:49.09	67.05	12.10	-49.5	-50.9	14.6	0.00e+00	0	23	0	817889280	64	4427
2026-01-09 21:19:52.10	67.62	12.10	-49.3	-50.7	14.7	0.00e+00	0	23	0	827326464	64	4332
2026-01-09 21:19:55.10	68.20	12.10	-49.2	-50.6	14.8	0.00e+00	0	23	0	836763648	64	4259
2026-01-09 21:19:58.09	68.77	12.09	-49.2	-50.6	14.8	0.00e+00	0	23	0	846200832	64	4257
2026-01-09 21:20:01.09	69.35	12.08	-49.2	-50.6	14.8	0.00e+00	0	23	0	855638016	64	4276
2026-01-09 21:20:04.08	69.92	12.08	-49.3	-50.8	14.7	0.00e+00	0	23	0	865075200	64	4350
2026-01-09 21:20:07.09	70.50	12.06	-49.5	-50.9	14.6	0.00e+00	0	23	0	874512384	64	4441
2026-01-09 21:20:10.08	71.07	12.05	-49.5	-50.9	14.6	0.00e+00	0	23	0	883949568	64	4428
2026-01-09 21:20:13.08	71.64	12.03	-49.5	-50.9	14.6	0.00e+00	0	23	0	893386752	64	4419
2026-01-09 21:20:16.07	72.21	12.01	-49.5	-50.9	14.6	0.00e+00	0	23	0	902823936	64	4429
2026-01-09 21:20:19.07	72.79	11.99	-49.5	-50.9	14.6	0.00e+00	0	23	0	912261120	64	4419
2026-01-09 21:20:22.06	73.36	11.96	-49.4	-50.9	14.7	0.00e+00	0	23	0	921698304	64	4396
2026-01-09 21:20:25.04	73.92	11.94	-49.5	-50.9	14.6	0.00e+00	0	24	0	931135488	64	4437
2026-01-09 21:20:28.03	74.49	11.91	-49.4	-50.9	14.6	0.00e+00	0	23	0	940572672	64	4399
2026-01-09 21:20:31.03	75.06	11.87	-49.2	-50.6	14.8	0.00e+00	0	23	0	948961280	64	4281
2026-01-09 21:20:34.01	75.62	11.84	-49.5	-50.9	14.6	0.00e+00	0	23	0	958398464	64	4441
2026-01-09 21:20:37.01	76.18	11.80	-49.5	-51.0	14.6	0.00e+00	0	23	0	967835648	64	4452
2026-01-09 21:20:40.01	76.75	11.76	-49.6	-51.0	14.5	0.00e+00	0	23	0	977272832	64	4490
2026-01-09 21:20:43.00	77.31	11.72	-49.4	-50.8	14.7	0.00e+00	0	23	0	986710016	64	4369
2026-01-09 21:20:46.00	77.87	11.68	-49.4	-50.9	14.6	0.00e+00	0	23	0	996147200	64	4403
2026-01-09 21:20:49.01	78.43	11.63	-49.3	-50.7	14.7	0.00e+00	0	23	0	1005584384	64	4336
2026-01-09 21:20:52.00	78.99	11.58	-49.3	-50.7	14.7	0.00e+00	0	23	0	1015021568	64	4297
2026-01-09 21:20:55.00	79.54	11.53	-49.3	-50.7	14.7	0.00e+00	0	23	0	1024458752	64	4336
2026-01-09 21:20:58.00	80.10	11.47	-49.4	-50.8	14.6	0.00e+00	0	24	0	1033895936	64	4390
2026-01-09 21:21:00.99	80.65	11.42	-49.5	-51.0	14.6	0.00e+00	0	24	0	1043333120	64	4446
2026-01-09 21:21:03.99	81.20	11.36	-49.5	-50.9	14.6	0.00e+00	0	23	0	1052770304	64	4423
2026-01-09 21:21:06.99	81.74	11.30	-49.4	-50.8	14.7	0.00e+00	0	23	0	1062207488	64	4368
2026-01-09 21:21:09.99	82.29	11.24	-49.3	-50.7	14.7	0.00e+00	0	23	0	1071644672	64	4322
2026-01-09 21:21:12.99	82.83	11.17	-49.3	-50.8	14.7	0.00e+00	0	24	0	1081081856	64	4341
2026-01-09 21:21:16.00	83.38	11.11	-49.6	-51.1	14.5	0.00e+00	0	23	0	1089470464	64	4496
2026-01-09 21:21:18.99	83.91	11.04	-49.5	-51.0	14.6	0.00e+00	0	23	0	1098907648	64	4464
2026-01-09 21:21:21.98	84.45	10.97	-49.4	-50.9	14.6	0.00e+00	0	23	0	1108344832	64	4410
2026-01-09 21:21:24.97	84.98	10.89	-49.4	-50.9	14.6	0.00e+00	0	24	0	1117782016	64	4410
2026-01-09 21:21:27.95	85.50	10.82	-49.4	-50.8	14.6	0.00e+00	0	23	0	1127219200	64	4368
2026-01-09 21:21:30.93	86.03	10.74	-49.6	-51.1	14.5	0.00e+00	0	23	0	1136656384	64	4504
2026-01-09 21:21:33.93	86.56	10.66	-49.6	-51.0	14.5	0.00e+00	0	23	0	1146093568	64	4485
2026-01-09 21:21:36.92	87.08	10.58	-49.4	-50.9	14.6	0.00e+00	0	23	0	1155530752	64	4401
2026-01-09 21:21:39.91	87.59	10.50	-49.6	-51.1	14.5	0.00e+00	0	23	0	1164967936	64	4521
2026-01-09 21:21:42.92	88.11	10.42	-49.6	-51.1	14.5	0.00e+00	0	23	0	1174405120	64	4543
2026-01-09 21:21:45.92	88.63	10.33	-49.5	-51.0	14.5	0.00e+00	0	23	0	1183842304	64	4453
2026-01-09 21:21:48.92	89.14	10.24	-49.7	-51.2	14.4	0.00e+00	0	24	0	1193279488	64	4587
2026-01-09 21:21:51.91	89.65	10.15	-49.5	-51.0	14.5	0.00e+00	0	23	0	1201668096	64	4465
2026-01-09 21:21:54.91	90.15	10.06	-49.5	-51.0	14.5	0.00e+00	0	23	0	1211105280	64	4451
2026-01-09 21:21:57.91	90.65	9.97	-49.4	-50.9	14.6	0.00e+00	0	23	0	1220542464	64	4416
2026-01-09 21:22:00.90	91.15	9.88	-49.4	-50.9	14.6	0.00e+00	0	23	0	1229979648	64	4406
2026-01-09 21:22:03.89	91.65	9.78	-49.6	-51.1	14.5	0.00e+00	0	23	0	1239416832	64	4531
2026-01-09 21:22:06.88	92.14	9.69	-49.8	-51.3	14.4	0.00e+00	0	24	0	1248854016	64	4617
2026-01-09 21:22:09.89	92.63	9.59	-49.8	-51.4	14.5	0.00e+00	0	23	0	1258291200	65	4396
2026-01-09 21:22:12.89	93.12	9.49	-49.7	-51.2	14.6	0.00e+00	0	24	0	1267728384	65	4301
2026-01-09 21:22:15.90	93.60	9.38	-49.7	-51.3	14.5	0.00e+00	0	24	0	1277165568	65	4352
2026-01-09 21:22:18.90	94.08	9.28	-49.9	-51.4	14.4	0.00e+00	0	23	0	1286602752	65	4441
2026-01-09 21:22:21.89	94.56	9.18	-49.8	-51.4	14.4	0.00e+00	0	23	0	1296039936	65	4404
2026-01-09 21:22:24.88	95.03	9.07	-50.1	-51.7	14.3	0.00e+00	0	24	0	1305477120	65	4568
2026-01-09 21:22:27.86	95.50	8.97	-50.1	-51.7	14.2	0.00e+00	0	24	0	1314914304	65	4560
2026-01-09 21:22:30.85	95.96	8.86	-50.1	-51.7	14.3	0.00e+00	0	24	0	1324351488	65	4551
2026-01-09 21:22:33.83	96.42	8.75	-50.0	-51.5	14.4	0.00e+00	0	24	0	1332740096	65	4483
2026-01-09 21:22:36.82	96.88	8.64	-50.0	-51.6	14.3	0.00e+00	0	24	0	1342177280	65	4526
2026-01-09 21:22:39.82	97.34	8.53	-50.1	-51.7	14.2	0.00e+00	0	23	0	1351614464	65	4572
2026-01-09 21:22:42.83	97.80	8.42	-50.3	-51.9	14.1	0.00e+00	0	23	0	1361051648	65	4679
2026-01-09 21:22:45.81	98.24	8.31	-50.5	-52.2	14.1	0.00e+00	0	23	0	1370488832	66	4552
2026-01-09 21:22:48.81	98.69	8.19	-50.2	-51.8	14.3	0.00e+00	0	24	0	1379926016	66	4390
2026-01-09 21:22:51.81	99.13	8.08	-50.3	-52.0	14.2	0.00e+00	0	24	0	1389363200	66	4462
2026-01-09 21:22:54.81	99.58	7.96	-50.2	-51.8	14.3	0.00e+00	0	24	0	1398800384	66	4364
2026-01-09 21:22:57.82	100.01	7.85	-50.2	-51.8	14.3	0.00e+00	0	24	0	1408237568	66	4379
2026-01-09 21:23:00.81	100.45	7.73	-50.2	-51.9	14.3	0.00e+00	0	24	0	1417674752	66	4397
2026-01-09 21:23:03.81	100.88	7.61	-50.4	-52.0	14.2	0.00e+00	0	23	0	1427111936	66	4475
2026-01-09 21:23:06.81	101.30	7.49	-50.5	-52.2	14.1	0.00e+00	0	24	0	1436549120	66	4556
2026-01-09 21:23:09.80	101.73	7.37	-50.5	-52.2	14.1	0.00e+00	0	24	0	1445986304	66	4549
2026-01-09 21:23:12.81	102.15	7.25	-50.3	-52.0	14.2	0.00e+00	0	24	0	1455423488	66	4468
2026-01-09 21:23:15.81	102.57	7.13	-50.4	-52.0	14.2	0.00e+00	0	23	0	1463812096	66	4483
2026-01-09 21:23:18.80	102.98	7.01	-50.5	-52.2	14.1	0.00e+00	0	24	0	1473249280	66	4550
2026-01-09 21:23:21.80	103.39	6.88	-50.6	-52.4	14.0	0.00e+00	0	24	0	1482686464	66	4665
2026-01-09 21:23:24.79	103.79	6.76	-50.7	-52.5	13.9	0.00e+00	0	24	0	1492123648	66	4715
2026-01-09 21:23:27.76	104.19	6.64	-50.6	-52.4	13.9	0.00e+00	0	24	0	1501560832	66	4681
2026-01-09 21:23:30.76	104.59	6.51	-50.8	-52.6	13.8	0.00e+00	0	23	0	1510998016	66	4764
2026-01-09 21:23:33.75	104.99	6.39	-50.9	-52.7	13.8	0.00e+00	0	24	0	1520435200	66	4852
2026-01-09 21:23:36.75	105.38	6.26	-51.0	-52.8	13.8	0.00e+00	0	24	0	1529872384	67	4645
2026-01-09 21:23:39.75	105.77	6.13	-51.0	-52.8	13.8	0.00e+00	0	24	0	1539309568	67	4640
2026-01-09 21:23:42.73	106.16	6.01	-50.9	-52.7	13.8	0.00e+00	0	24	0	1548746752	67	4587
2026-01-09 21:23:45.72	106.54	5.88	-50.9	-52.7	13.8	0.00e+00	0	24	0	1558183936	67	4576
2026-01-09 21:23:48.73	106.93	5.75	-50.9	-52.8	13.8	0.00e+00	0	24	0	1567621120	67	4600
2026-01-09 21:23:51.72	107.30	5.63	-50.9	-52.7	13.8	0.00e+00	0	23	0	1577058304	67	4576
2026-01-09 21:23:54.72	107.68	5.50	-50.8	-52.6	13.9	0.00e+00	0	24	0	1586495488	67	4544
2026-01-09 21:23:57.71	108.05	5.37	-50.8	-52.6	13.9	0.00e+00	0	24	0	1594884096	67	4541
2026-01-09 21:24:00.71	108.42	5.24	-50.9	-52.8	13.8	0.00e+00	0	24	0	1604321280	67	4617
2026-01-09 21:24:03.71	108.78	5.11	-51.1	-53.0	13.7	0.00e+00	0	23	0	1613758464	67	4719
2026-01-09 21:24:06.71	109.14	4.98	-55.2	-59.4	9.9	0.00e+00	0	24	0	1623195648	75	6243
2026-01-09 21:24:09.73	109.51	4.85	-58.3	-72.1	3.8	1.49e+00	0	24	104	1624244224	81	19033
2026-01-09 21:24:12.73	109.86	4.72	-58.7	-72.5	3.8	1.49e+00	0	24	104	1624244224	82	18751
2026-01-09 21:24:15.75	110.22	4.59	-58.9	-72.7	3.8	1.49e+00	0	24	104	1624244224	82	19214
2026-01-09 21:24:18.75	110.57	4.46	-59.0	-72.8	3.8	1.49e+00	0	24	104	1624244224	83	18473
2026-01-09 21:24:21.74	110.91	4.33	-59.1	-72.9	3.8	1.49e+00	0	24	104	1624244224	83	18545
2026-01-09 21:24:24.75	111.26	4.19	-59.2	-73.0	3.8	1.49e+00	0	24	104	1624244224	83	18842
2026-01-09 21:24:27.74	111.60	4.06	-59.3	-73.1	3.8	1.49e+00	0	24	104	1624244224	83	19035
2026-01-09 21:24:30.73	111.94	3.93	-59.3	-73.1	3.8	1.49e+00	0	24	104	1624244224	83	19143
2026-01-09 21:24:33.72	112.27	3.80	-59.4	-73.2	3.8	1.49e+00	0	24	104	1624244224	83	19386
2026-01-09 21:24:36.71	112.60	3.67	-59.6	-73.5	3.8	1.49e+00	0	24	104	1624244224	84	18747
2026-01-09 21:24:39.70	112.93	3.54	-59.6	-73.4	3.8	1.49e+00	0	24	104	1624244224	84	18696
2026-01-09 21:24:42.70	113.26	3.41	-59.6	-73.4	3.8	1.49e+00	0	24	104	1624244224	84	18614
2026-01-09 21:24:45.70	113.58	3.27	-59.6	-73.4	3.8	1.49e+00	0	24	104	1624244224	84	18568
2026-01-09 21:24:48.71	113.90	3.14	-59.5	-73.4	3.8	1.49e+00	0	24	104	1624244224	84	18554
2026-01-09 21:24:51.72	114.22	3.01	-59.5	-73.3	3.8	1.49e+00	0	24	104	1624244224	84	18512
2026-01-09 21:24:54.71	114.54	2.88	-59.5	-73.3	3.8	1.49e+00	0	24	104	1624244224	84	18487
2026-01-09 21:24:57.71	114.85	2.74	-59.5	-73.3	3.8	1.49e+00	0	24	104	1624244224	84	18458
2026-01-09 21:25:00.70	115.16	2.61	-59.5	-73.3	3.8	1.49e+00	0	24	104	1624244224	84	18402
2026-01-09 21:25:03.71	115.47	2.48	-59.5	-73.3	3.8	1.49e+00	0	24	104	1624244224	84	18455
2026-01-09 21:25:06.71	115.78	2.34	-59.5	-73.3	3.8	1.49e+00	0	24	104	1624244224	84	18398
2026-01-09 21:25:09.72	116.08	2.21	-59.5	-73.3	3.8	1.49e+00	0	24	104	1624244224	84	18390
2026-01-09 21:25:12.72	116.38	2.08	-59.5	-73.3	3.8	1.49e+00	0	24	104	1624244224	84	18360
2026-01-09 21:25:15.71	116.68	1.95	-59.5	-73.3	3.8	1.49e+00	0	24	104	1624244224	84	18369

#Closed at: 2026-01-09 21:25:16
#Recorded file [1624 MB]: D:/lorett/data/31004_260110_001428.dat