passes_logs/2026/01/09/R3.2S_Murmansk/R3.2S_Murmansk__20260109_144615_AQUA_rec.log

#Pass ID: 20260109_144615_AQUA
#Satellite: AQUA
#Configuration: AQUA
#almurnet v.1.7.20251203
#Start time: 2026-01-09 14:46:16

#Version: 2.2.20231116
#Station: R3.2S_Murmansk
#Location: 33.079688 lon 68.888172 lat
#TLE: 1 27424U 02022A   26004.96787593  .00001598  00000+0  32997-3 0  9996
#TLE: 2 27424  98.4069 331.2279 0002002  90.2377   0.6092 14.61798176259425

#Time	Az	El	Level	Level2	SNR	BER	BlckErr	Temp	State	Recorded	gain1	gain2
2026-01-09 14:46:16.86	249.92	2.05	-57.2	-76.5	3.8	7.47e-01	0	21	0	0	83	32862
2026-01-09 14:46:19.84	250.28	2.18	-57.1	-76.4	3.8	7.49e-01	0	21	104	0	81	36479
2026-01-09 14:46:22.82	250.64	2.30	-57.2	-76.5	3.8	7.47e-01	0	21	104	0	82	34774
2026-01-09 14:46:25.81	251.01	2.43	-57.2	-76.5	3.8	7.46e-01	0	22	104	0	82	34552
2026-01-09 14:46:28.81	251.38	2.55	-57.2	-76.5	3.8	7.45e-01	0	22	104	0	82	34737
2026-01-09 14:46:31.81	251.75	2.67	-57.2	-76.5	3.8	7.46e-01	0	22	104	0	82	34709
2026-01-09 14:46:34.79	252.12	2.80	-57.2	-76.5	3.8	7.46e-01	0	22	104	0	82	34738
2026-01-09 14:46:37.76	252.50	2.92	-57.2	-76.4	3.8	7.46e-01	0	22	104	0	82	34443
2026-01-09 14:46:40.75	252.88	3.04	-57.2	-76.5	3.8	7.44e-01	0	22	104	0	82	34788
2026-01-09 14:46:43.74	253.27	3.17	-57.2	-76.5	3.8	7.46e-01	0	22	104	0	82	34580
2026-01-09 14:46:46.74	253.66	3.29	-57.2	-76.4	3.8	7.45e-01	0	22	104	0	82	34276
2026-01-09 14:46:49.72	254.05	3.41	-57.2	-76.5	3.8	7.46e-01	0	22	104	0	82	34690
2026-01-09 14:46:52.71	254.45	3.53	-57.2	-76.5	3.8	7.50e-01	0	22	104	0	82	34563
2026-01-09 14:46:55.71	254.85	3.65	-57.2	-76.5	3.8	7.47e-01	0	22	104	0	82	34739
2026-01-09 14:46:58.70	255.25	3.77	-57.2	-76.1	3.8	7.45e-01	0	22	104	0	82	33084
2026-01-09 14:47:01.70	255.66	3.89	-57.2	-76.0	3.8	7.47e-01	0	22	104	0	82	32911
2026-01-09 14:47:04.70	256.07	4.01	-57.2	-76.4	3.8	7.49e-01	0	22	104	0	82	34336
2026-01-09 14:47:07.69	256.48	4.13	-57.2	-75.6	3.8	7.50e-01	0	23	104	0	82	31126
2026-01-09 14:47:10.68	256.90	4.25	-57.2	-76.1	3.8	7.48e-01	0	22	104	0	82	33063
2026-01-09 14:47:13.67	257.32	4.37	-57.2	-76.5	3.8	7.45e-01	0	22	104	0	82	34596
2026-01-09 14:47:16.67	257.74	4.48	-57.2	-75.7	3.8	7.43e-01	0	23	104	0	82	31735
2026-01-09 14:47:19.66	258.17	4.60	-57.2	-74.0	3.9	7.41e-01	0	23	104	0	82	25884
2026-01-09 14:47:22.64	258.60	4.71	-57.2	-76.2	3.8	7.46e-01	0	23	104	0	82	33386
2026-01-09 14:47:25.63	259.03	4.83	-56.8	-67.5	7.3	6.54e-01	91	23	0	1048576	82	12281
2026-01-09 14:47:28.63	259.47	4.94	-56.0	-62.6	11.5	6.10e-01	0	23	0	6815744	81	7414
2026-01-09 14:47:31.63	259.92	5.06	-53.1	-56.2	15.0	6.07e-01	0	23	0	12582912	75	5003
2026-01-09 14:47:34.62	260.36	5.17	-53.9	-57.7	14.4	6.06e-01	0	23	0	18350080	75	5935
2026-01-09 14:47:37.60	260.81	5.28	-51.1	-53.3	15.7	6.05e-01	0	23	0	23592960	71	4524
2026-01-09 14:47:40.59	261.26	5.39	-51.0	-53.2	15.8	6.06e-01	0	23	0	29360128	71	4478
2026-01-09 14:47:43.58	261.72	5.50	-51.0	-53.3	15.8	6.06e-01	0	23	0	35127296	71	4495
2026-01-09 14:47:46.55	262.17	5.61	-51.0	-53.2	15.8	6.09e-01	0	23	0	40370176	71	4444
2026-01-09 14:47:49.53	262.64	5.72	-50.9	-53.1	15.8	6.05e-01	0	23	0	46137344	71	4421
2026-01-09 14:47:52.52	263.10	5.82	-50.7	-52.9	15.7	6.08e-01	0	23	0	51904512	70	4557
2026-01-09 14:47:55.52	263.57	5.93	-50.9	-53.2	15.6	6.07e-01	0	23	0	57147392	70	4708
2026-01-09 14:47:58.52	264.05	6.04	-50.8	-53.0	15.7	6.08e-01	0	23	0	62914560	70	4606
2026-01-09 14:48:01.50	264.53	6.14	-50.7	-52.9	15.7	6.08e-01	0	23	0	68681728	70	4553
2026-01-09 14:48:04.50	265.01	6.24	-50.9	-53.1	15.6	6.06e-01	0	23	0	74448896	70	4660
2026-01-09 14:48:07.49	265.49	6.34	-50.7	-52.8	15.8	6.08e-01	0	23	0	79691776	70	4511
2026-01-09 14:48:10.50	265.98	6.44	-50.7	-52.8	15.8	6.05e-01	0	23	0	85458944	70	4541
2026-01-09 14:48:13.49	266.48	6.54	-50.7	-52.8	15.8	6.07e-01	0	23	0	91226112	70	4540
2026-01-09 14:48:16.48	266.97	6.64	-50.4	-52.5	15.9	6.06e-01	0	23	0	96468992	70	4349
2026-01-09 14:48:19.48	267.47	6.74	-50.4	-52.5	15.7	6.06e-01	0	23	0	102236160	69	4630
2026-01-09 14:48:22.47	267.97	6.83	-52.0	-54.8	15.0	6.06e-01	0	23	0	108003328	71	5345
2026-01-09 14:48:25.45	268.48	6.93	-52.8	-56.2	14.6	6.07e-01	0	23	0	113246208	73	5598
2026-01-09 14:48:28.45	268.99	7.02	-53.3	-57.2	14.2	6.07e-01	0	23	0	119013376	74	5928
2026-01-09 14:48:31.44	269.50	7.11	-53.7	-57.7	14.0	6.07e-01	0	23	0	124780544	75	5991
2026-01-09 14:48:34.44	270.02	7.20	-53.0	-56.1	15.1	6.08e-01	0	23	0	130547712	75	4943
2026-01-09 14:48:37.42	270.54	7.29	-51.5	-53.8	15.7	6.07e-01	0	23	0	135790592	72	4537
2026-01-09 14:48:40.40	271.06	7.37	-50.9	-53.1	15.8	6.09e-01	0	23	0	141557760	71	4401
2026-01-09 14:48:43.39	271.58	7.46	-50.7	-52.8	15.8	6.06e-01	0	23	0	147324928	70	4499
2026-01-09 14:48:46.37	272.11	7.54	-50.4	-52.4	15.9	6.07e-01	0	23	0	152567808	70	4322
2026-01-09 14:48:49.38	272.64	7.62	-50.2	-52.2	15.8	6.08e-01	0	23	0	158334976	69	4454
2026-01-09 14:48:52.36	273.18	7.70	-50.3	-52.3	15.8	6.08e-01	0	23	0	164102144	69	4533
2026-01-09 14:48:55.35	273.72	7.78	-50.4	-52.4	15.7	6.04e-01	0	23	0	169345024	69	4560
2026-01-09 14:48:58.34	274.26	7.86	-50.3	-52.2	15.8	6.06e-01	0	23	0	175112192	69	4486
2026-01-09 14:49:01.34	274.80	7.93	-50.2	-52.1	15.9	6.06e-01	0	23	0	180879360	69	4439
2026-01-09 14:49:04.33	275.35	8.00	-50.2	-52.1	15.9	6.07e-01	0	23	0	186122240	69	4411
2026-01-09 14:49:07.33	275.90	8.07	-50.3	-52.3	15.8	6.06e-01	0	23	0	191889408	69	4494
2026-01-09 14:49:10.33	276.45	8.14	-50.2	-52.2	15.8	6.06e-01	0	23	0	197656576	69	4457
2026-01-09 14:49:13.33	277.01	8.21	-50.2	-52.1	15.8	6.06e-01	0	23	0	203423744	69	4432
2026-01-09 14:49:16.32	277.57	8.28	-50.3	-52.3	15.8	6.06e-01	0	23	0	208666624	69	4494
2026-01-09 14:49:19.31	278.13	8.34	-50.2	-52.2	15.8	6.05e-01	0	23	0	214433792	69	4444
2026-01-09 14:49:22.30	278.69	8.40	-50.2	-52.1	15.8	6.07e-01	0	23	0	220200960	69	4438
2026-01-09 14:49:25.30	279.26	8.46	-50.2	-52.2	15.8	6.06e-01	0	23	0	225968128	69	4457
2026-01-09 14:49:28.31	279.83	8.51	-50.3	-52.2	15.8	6.07e-01	0	23	0	231211008	69	4473
2026-01-09 14:49:31.31	280.40	8.57	-50.2	-52.1	15.8	6.06e-01	0	23	0	236978176	69	4441
2026-01-09 14:49:34.31	280.97	8.62	-50.2	-52.1	15.8	6.05e-01	0	23	0	242745344	69	4429
2026-01-09 14:49:37.31	281.55	8.67	-50.1	-52.0	15.9	6.07e-01	0	23	0	247988224	69	4379
2026-01-09 14:49:40.30	282.13	8.72	-50.3	-52.3	15.8	6.04e-01	0	23	0	253755392	69	4511
2026-01-09 14:49:43.29	282.70	8.76	-50.3	-52.3	15.8	6.06e-01	0	23	0	259522560	69	4495
2026-01-09 14:49:46.28	283.28	8.81	-50.3	-52.3	15.8	6.04e-01	0	23	0	264765440	69	4500
2026-01-09 14:49:49.28	283.87	8.85	-50.3	-52.2	15.8	6.07e-01	0	23	0	270532608	69	4488
2026-01-09 14:49:52.27	284.45	8.88	-50.3	-52.3	15.8	6.03e-01	0	23	0	276299776	69	4514
2026-01-09 14:49:55.25	285.03	8.92	-50.3	-52.2	15.8	6.01e-01	0	23	0	282066944	69	4480
2026-01-09 14:49:58.25	285.62	8.95	-50.3	-52.2	15.8	6.03e-01	0	23	0	287309824	69	4465
2026-01-09 14:50:01.24	286.21	8.98	-50.3	-52.2	15.8	6.01e-01	0	23	0	293076992	69	4477
2026-01-09 14:50:04.24	286.80	9.01	-50.4	-52.3	15.7	6.02e-01	0	23	0	298844160	69	4542
2026-01-09 14:50:07.22	287.38	9.04	-50.4	-52.3	15.7	6.04e-01	0	23	0	304087040	69	4544
2026-01-09 14:50:10.22	287.98	9.06	-50.5	-52.5	15.7	6.02e-01	0	23	0	309854208	69	4607
2026-01-09 14:50:13.22	288.57	9.08	-50.3	-52.2	15.8	6.04e-01	0	23	0	315621376	69	4473
2026-01-09 14:50:16.22	289.16	9.10	-50.4	-52.4	15.7	6.04e-01	0	23	0	321388544	69	4566
2026-01-09 14:50:19.21	289.76	9.12	-50.3	-52.2	15.8	6.02e-01	0	23	0	326631424	69	4471
2026-01-09 14:50:22.22	290.35	9.13	-50.3	-52.2	15.8	6.02e-01	0	23	0	332398592	69	4484
2026-01-09 14:50:25.21	290.95	9.14	-50.3	-52.3	15.8	6.01e-01	0	23	0	338165760	69	4494
2026-01-09 14:50:28.21	291.54	9.15	-50.3	-52.2	15.8	6.01e-01	0	23	0	343408640	69	4490
2026-01-09 14:50:31.19	292.14	9.16	-50.3	-52.3	15.8	6.02e-01	0	23	0	349175808	69	4496
2026-01-09 14:50:34.17	292.73	9.16	-50.4	-52.3	15.8	6.02e-01	0	23	0	354942976	69	4522
2026-01-09 14:50:37.15	293.32	9.16	-50.5	-52.4	15.7	6.05e-01	0	23	0	360710144	69	4590
2026-01-09 14:50:40.15	293.92	9.16	-50.3	-52.2	15.8	6.05e-01	0	23	0	365953024	69	4486
2026-01-09 14:50:43.14	294.51	9.16	-50.3	-52.2	15.8	6.05e-01	0	23	0	371720192	69	4490
2026-01-09 14:50:46.13	295.11	9.15	-50.4	-52.3	15.8	6.03e-01	0	23	0	377487360	69	4519
2026-01-09 14:50:49.12	295.70	9.14	-50.4	-52.3	15.8	6.02e-01	0	23	0	382730240	69	4518
2026-01-09 14:50:52.11	296.30	9.13	-50.1	-52.0	15.9	6.03e-01	0	23	0	388497408	69	4371
2026-01-09 14:50:55.09	296.89	9.11	-50.3	-52.2	15.8	6.04e-01	0	23	0	394264576	69	4477
2026-01-09 14:50:58.08	297.48	9.10	-50.2	-52.1	15.8	6.05e-01	0	23	0	399507456	69	4436
2026-01-09 14:51:01.08	298.07	9.08	-50.2	-52.1	15.9	6.02e-01	0	23	0	405274624	69	4399
2026-01-09 14:51:04.06	298.66	9.06	-50.3	-52.3	15.8	6.03e-01	0	23	0	411041792	69	4508
2026-01-09 14:51:07.04	299.25	9.03	-50.3	-52.2	15.8	6.03e-01	0	23	0	416284672	69	4452
2026-01-09 14:51:10.04	299.84	9.00	-50.3	-52.3	15.8	6.03e-01	0	23	0	422051840	69	4504
2026-01-09 14:51:13.01	300.42	8.98	-50.2	-52.1	15.8	6.03e-01	0	23	0	427819008	69	4440
2026-01-09 14:51:16.01	301.01	8.94	-50.2	-52.1	15.9	6.05e-01	0	23	0	433061888	69	4420
2026-01-09 14:51:19.00	301.60	8.91	-50.1	-52.0	15.9	6.03e-01	0	23	0	438829056	69	4352
2026-01-09 14:51:21.99	302.18	8.87	-50.2	-52.2	15.8	6.02e-01	0	23	0	444596224	69	4442
2026-01-09 14:51:24.97	302.76	8.84	-50.2	-52.2	15.8	6.03e-01	0	23	0	449839104	69	4443
2026-01-09 14:51:27.97	303.34	8.79	-50.1	-52.0	15.9	6.04e-01	0	23	0	455606272	69	4372
2026-01-09 14:51:30.96	303.92	8.75	-50.2	-52.1	15.9	6.06e-01	0	23	0	461373440	69	4409
2026-01-09 14:51:33.95	304.49	8.71	-50.3	-52.3	15.8	6.03e-01	0	23	0	467140608	69	4516
2026-01-09 14:51:36.95	305.07	8.66	-50.3	-52.2	15.8	6.03e-01	0	23	0	472383488	69	4493
2026-01-09 14:51:39.93	305.64	8.61	-50.2	-52.1	15.8	6.02e-01	0	23	0	478150656	69	4437
2026-01-09 14:51:42.92	306.21	8.55	-50.1	-52.0	15.9	6.02e-01	0	23	0	483917824	69	4361
2026-01-09 14:51:45.91	306.78	8.50	-50.1	-52.1	15.8	6.03e-01	0	23	0	489160704	69	4394
2026-01-09 14:51:48.90	307.34	8.44	-50.2	-52.1	15.9	6.02e-01	0	23	0	494927872	69	4401
2026-01-09 14:51:51.89	307.91	8.38	-50.1	-52.0	15.9	6.02e-01	0	23	0	500695040	69	4380
2026-01-09 14:51:54.88	308.47	8.32	-50.2	-52.1	15.8	6.04e-01	0	23	0	505937920	69	4422
2026-01-09 14:51:57.86	309.02	8.26	-50.3	-52.3	15.8	6.05e-01	0	23	0	511705088	69	4521
2026-01-09 14:52:00.85	309.58	8.20	-50.1	-52.0	15.9	6.03e-01	0	23	0	517472256	69	4374
2026-01-09 14:52:03.86	310.13	8.13	-50.1	-52.0	15.9	6.04e-01	0	23	0	523239424	69	4386
2026-01-09 14:52:06.85	310.68	8.06	-50.3	-52.3	15.8	6.02e-01	0	23	0	528482304	69	4516
2026-01-09 14:52:09.83	311.23	7.99	-50.3	-52.2	15.8	6.04e-01	0	23	0	534249472	69	4487
2026-01-09 14:52:12.83	311.78	7.92	-50.2	-52.2	15.8	6.03e-01	0	23	0	540016640	69	4453
2026-01-09 14:52:15.82	312.32	7.84	-50.2	-52.1	15.8	6.03e-01	0	23	0	545259520	69	4441
2026-01-09 14:52:18.81	312.86	7.77	-50.3	-52.3	15.8	6.04e-01	0	23	0	551026688	69	4499
2026-01-09 14:52:21.82	313.39	7.69	-50.3	-52.2	15.8	6.01e-01	0	23	0	556793856	69	4488
2026-01-09 14:52:24.84	313.93	7.61	-50.3	-52.3	15.7	6.03e-01	0	23	0	562036736	69	4523
2026-01-09 14:52:27.83	314.46	7.53	-50.2	-52.2	15.8	6.04e-01	0	23	0	567803904	69	4480
2026-01-09 14:52:30.83	314.99	7.44	-50.6	-52.6	15.6	6.02e-01	0	23	0	573571072	69	4698
2026-01-09 14:52:33.83	315.51	7.36	-50.4	-52.5	15.7	6.02e-01	0	23	0	579338240	69	4602
2026-01-09 14:52:36.84	316.04	7.27	-50.3	-52.3	15.8	6.05e-01	0	23	0	584581120	69	4522
2026-01-09 14:52:39.86	316.56	7.18	-50.3	-52.3	15.8	6.04e-01	0	23	0	590348288	69	4496
2026-01-09 14:52:42.85	317.07	7.09	-50.2	-52.2	15.8	6.02e-01	0	23	0	596115456	69	4460
2026-01-09 14:52:45.84	317.58	7.00	-50.5	-52.5	15.7	6.04e-01	0	23	0	601882624	69	4643
2026-01-09 14:52:48.84	318.09	6.91	-50.5	-52.6	15.6	6.05e-01	0	23	0	607125504	69	4694
2026-01-09 14:52:51.84	318.59	6.82	-50.5	-52.5	15.6	6.02e-01	0	23	0	612892672	69	4631
2026-01-09 14:52:54.83	319.09	6.72	-50.4	-52.4	15.7	6.03e-01	0	23	0	618659840	69	4565
2026-01-09 14:52:57.83	319.59	6.62	-50.4	-52.4	15.7	6.02e-01	0	23	0	623902720	69	4595
2026-01-09 14:53:00.81	320.08	6.53	-50.5	-52.5	15.6	6.04e-01	0	23	0	629669888	69	4630
2026-01-09 14:53:03.79	320.57	6.43	-50.5	-52.5	15.6	6.03e-01	0	23	0	635437056	69	4641
2026-01-09 14:53:06.80	321.06	6.33	-50.4	-52.4	15.7	6.04e-01	0	23	0	641204224	69	4597
2026-01-09 14:53:09.81	321.54	6.23	-50.4	-52.4	15.7	6.03e-01	0	23	0	646447104	69	4575
2026-01-09 14:53:12.80	322.02	6.12	-50.5	-52.6	15.6	6.02e-01	0	23	0	652214272	69	4670
2026-01-09 14:53:15.81	322.50	6.02	-50.6	-52.7	15.5	6.03e-01	0	23	0	657981440	69	4750
2026-01-09 14:53:18.81	322.97	5.91	-50.6	-52.8	15.6	6.02e-01	0	23	0	663748608	69	4761
2026-01-09 14:53:21.80	323.44	5.81	-50.5	-52.6	15.6	6.03e-01	0	23	0	668991488	69	4675
2026-01-09 14:53:24.80	323.90	5.70	-50.6	-52.7	15.6	6.02e-01	0	23	0	674758656	69	4724
2026-01-09 14:53:27.79	324.36	5.59	-50.6	-52.7	15.6	6.05e-01	0	23	0	680525824	69	4741
2026-01-09 14:53:30.80	324.82	5.49	-50.7	-52.9	15.5	6.03e-01	0	23	0	686292992	69	4843
2026-01-09 14:53:33.80	325.28	5.38	-50.8	-53.0	15.4	6.04e-01	0	23	0	691535872	69	4904
2026-01-09 14:53:36.79	325.73	5.27	-50.8	-53.0	15.4	6.04e-01	0	23	0	697303040	69	4924
2026-01-09 14:53:39.79	326.17	5.15	-50.7	-52.8	15.5	6.00e-01	0	23	0	703070208	69	4800
2026-01-09 14:53:42.78	326.62	5.04	-50.7	-52.9	15.5	6.02e-01	0	24	0	708313088	69	4869
2026-01-09 14:53:45.78	327.06	4.93	-58.0	-77.3	3.8	7.46e-01	0	23	104	710934528	83	35930
2026-01-09 14:53:48.78	327.49	4.82	-58.8	-78.1	3.8	7.44e-01	0	23	104	710934528	85	34974
2026-01-09 14:53:51.78	327.93	4.70	-59.0	-78.4	3.8	7.42e-01	0	24	104	710934528	85	36237
2026-01-09 14:53:54.77	328.36	4.59	-59.2	-78.6	3.8	7.46e-01	0	24	104	710934528	86	35028
2026-01-09 14:53:57.75	328.78	4.47	-59.3	-78.7	3.8	7.47e-01	0	24	104	710934528	86	35342
2026-01-09 14:54:00.72	329.20	4.36	-59.3	-78.7	3.8	7.48e-01	0	24	104	710934528	86	35520
2026-01-09 14:54:03.72	329.62	4.24	-59.3	-78.7	3.8	7.47e-01	0	23	104	710934528	86	35313
2026-01-09 14:54:06.72	330.03	4.12	-59.2	-78.6	3.8	7.46e-01	0	23	104	710934528	86	34884
2026-01-09 14:54:09.72	330.44	4.00	-59.2	-78.5	3.8	7.48e-01	0	24	104	710934528	86	34816
2026-01-09 14:54:12.72	330.85	3.88	-59.2	-78.5	3.8	7.48e-01	0	24	104	710934528	86	34619
2026-01-09 14:54:15.70	331.25	3.77	-59.1	-78.5	3.8	7.47e-01	0	24	104	710934528	86	34621
2026-01-09 14:54:18.70	331.65	3.65	-59.1	-78.5	3.8	7.45e-01	0	24	104	710934528	86	34487
2026-01-09 14:54:21.71	332.05	3.53	-59.1	-78.4	3.8	7.46e-01	0	23	104	710934528	86	34317
2026-01-09 14:54:24.72	332.45	3.40	-59.1	-78.4	3.8	7.47e-01	0	24	104	710934528	86	34414
2026-01-09 14:54:27.71	332.84	3.28	-59.1	-78.4	3.8	7.44e-01	0	24	104	710934528	86	34338
2026-01-09 14:54:30.72	333.23	3.16	-59.1	-78.4	3.8	7.47e-01	0	24	104	710934528	86	34272
2026-01-09 14:54:33.73	333.61	3.04	-59.0	-78.4	3.8	7.50e-01	0	24	104	710934528	86	34296
2026-01-09 14:54:36.73	334.00	2.92	-59.0	-78.4	3.8	7.45e-01	0	24	104	710934528	86	34261
2026-01-09 14:54:39.72	334.37	2.79	-59.0	-78.4	3.8	7.44e-01	0	24	104	710934528	86	34140
2026-01-09 14:54:42.72	334.75	2.67	-59.0	-78.4	3.8	7.47e-01	0	23	104	710934528	86	34248
2026-01-09 14:54:45.72	335.12	2.55	-59.0	-78.4	3.8	7.45e-01	0	24	104	710934528	86	34145
2026-01-09 14:54:48.72	335.49	2.43	-59.0	-78.4	3.8	7.46e-01	0	24	104	710934528	86	34110
2026-01-09 14:54:51.71	335.85	2.30	-59.0	-78.3	3.8	7.46e-01	0	24	104	710934528	86	34021
2026-01-09 14:54:54.69	336.21	2.18	-59.0	-78.3	3.8	7.46e-01	0	24	104	710934528	86	34019
2026-01-09 14:54:57.67	336.56	2.06	-59.0	-78.3	3.8	7.44e-01	0	24	104	710934528	86	33904

#Closed at: 2026-01-09 14:55:00
#Recorded file [710 MB]: D:/lorett/data/31004_260109_174616.dat