passes_logs/2026/01/09/R3.2S_Murmansk/R3.2S_Murmansk__20260109_123459_NOAA_21_JPSS-2_rec.log

#Pass ID: 20260109_123459_NOAA 21 (JPSS-2)
#Satellite: NOAA 21 (JPSS-2)
#Configuration: NOAA-21
#almurnet v.1.7.20251203
#Start time: 2026-01-09 12:34:59

#Version: 2.2.20231116
#Station: R3.2S_Murmansk
#Location: 33.079688 lon 68.888172 lat
#TLE: 1 54234U 22150A   26008.59854928  .00000127  00000+0  81204-4 0  9992
#TLE: 2 54234  98.7494 309.5759 0000887 327.7487  32.3634 14.19533414163905

#Time	Az	El	Level	Level2	SNR	BER	BlckErr	Temp	State	Recorded	gain1	gain2
2026-01-09 12:34:59.53	230.67	2.01	-57.9	-71.7	3.8	1.49e+00	0	22	0	0	82	17091
2026-01-09 12:35:02.44	230.93	2.16	-57.8	-71.6	3.8	1.49e+00	0	22	104	0	80	19006
2026-01-09 12:35:05.36	231.19	2.30	-57.8	-71.6	3.8	1.49e+00	0	22	104	0	80	18979
2026-01-09 12:35:08.28	231.45	2.44	-57.8	-71.6	3.8	1.49e+00	0	22	104	0	80	19027
2026-01-09 12:35:11.20	231.72	2.59	-57.8	-71.5	3.8	1.49e+00	0	22	104	0	80	18897
2026-01-09 12:35:14.13	231.99	2.73	-57.8	-71.5	3.8	1.49e+00	0	23	104	0	80	18925
2026-01-09 12:35:17.05	232.26	2.88	-57.8	-71.5	3.8	1.49e+00	0	23	104	0	80	18860
2026-01-09 12:35:19.97	232.53	3.02	-57.8	-71.5	3.8	1.49e+00	0	23	104	0	80	18813
2026-01-09 12:35:22.89	232.81	3.17	-57.8	-71.6	3.8	1.49e+00	0	23	104	0	80	18956
2026-01-09 12:35:25.80	233.09	3.31	-57.8	-71.5	3.8	1.49e+00	0	23	104	0	80	18842
2026-01-09 12:35:28.72	233.37	3.46	-57.8	-71.5	3.8	1.49e+00	0	23	104	0	80	18803
2026-01-09 12:35:31.63	233.65	3.61	-57.8	-71.5	3.8	1.49e+00	0	23	104	0	80	18905
2026-01-09 12:35:34.54	233.94	3.75	-57.8	-71.6	3.8	1.49e+00	0	23	104	0	80	18980
2026-01-09 12:35:37.44	234.22	3.90	-57.8	-71.4	3.8	1.49e+00	0	23	104	0	80	18690
2026-01-09 12:35:40.35	234.52	4.04	-57.8	-71.2	3.8	1.49e+00	0	23	104	0	80	18166
2026-01-09 12:35:43.27	234.81	4.19	-57.8	-71.0	3.8	1.49e+00	0	23	104	0	80	17838
2026-01-09 12:35:46.19	235.11	4.34	-57.8	-71.1	3.8	1.49e+00	0	23	104	0	80	17943
2026-01-09 12:35:49.10	235.41	4.48	-57.8	-71.4	3.8	1.49e+00	0	23	104	0	80	18619
2026-01-09 12:35:52.01	235.71	4.63	-57.5	-67.7	4.3	1.47e+00	0	23	104	0	80	12182
2026-01-09 12:35:54.92	236.02	4.78	-57.1	-64.8	5.6	4.48e-01	0	23	0	4194304	80	8706
2026-01-09 12:35:57.84	236.33	4.93	-55.5	-59.7	9.7	5.95e-03	0	23	0	13631488	77	5784
2026-01-09 12:36:00.76	236.64	5.07	-56.8	-63.1	7.0	2.51e-02	0	23	0	23068672	78	7994
2026-01-09 12:36:03.67	236.95	5.22	-55.9	-60.4	9.2	1.01e-03	0	23	0	29360128	76	6608
2026-01-09 12:36:06.58	237.27	5.37	-51.7	-53.7	13.7	0.00e+00	0	23	0	37748736	69	4551
2026-01-09 12:36:09.49	237.59	5.52	-51.7	-53.5	13.8	0.00e+00	0	23	0	47185920	69	4488
2026-01-09 12:36:12.40	237.92	5.67	-51.5	-53.3	13.9	0.00e+00	0	23	0	56623104	69	4389
2026-01-09 12:36:15.33	238.25	5.81	-51.5	-53.3	13.9	0.00e+00	0	24	0	65011712	69	4375
2026-01-09 12:36:18.24	238.58	5.96	-51.5	-53.4	13.9	0.00e+00	0	23	0	74448896	69	4394
2026-01-09 12:36:21.16	238.91	6.11	-51.3	-53.1	14.1	0.00e+00	0	23	0	83886080	69	4255
2026-01-09 12:36:24.07	239.25	6.26	-51.4	-53.2	14.1	0.00e+00	0	23	0	93323264	69	4298
2026-01-09 12:36:26.99	239.59	6.41	-51.3	-53.1	14.1	0.00e+00	0	23	0	101711872	69	4274
2026-01-09 12:36:29.91	239.93	6.56	-51.2	-53.0	14.2	0.00e+00	0	23	0	111149056	69	4209
2026-01-09 12:36:32.82	240.28	6.70	-51.3	-53.0	14.1	0.00e+00	0	23	0	120586240	69	4235
2026-01-09 12:36:35.74	240.63	6.85	-51.1	-52.9	14.1	0.00e+00	0	23	0	128974848	68	4394
2026-01-09 12:36:38.65	240.98	7.00	-51.1	-52.8	14.2	0.00e+00	0	23	0	138412032	68	4344
2026-01-09 12:36:41.56	241.34	7.15	-50.9	-52.5	14.3	0.00e+00	0	23	0	147849216	68	4227
2026-01-09 12:36:44.47	241.70	7.30	-51.0	-52.7	14.3	0.00e+00	0	24	0	156237824	68	4304
2026-01-09 12:36:47.38	242.07	7.45	-50.9	-52.6	14.3	0.00e+00	0	24	0	165675008	68	4261
2026-01-09 12:36:50.29	242.43	7.59	-50.9	-52.6	14.3	0.00e+00	0	23	0	175112192	68	4257
2026-01-09 12:36:53.20	242.80	7.74	-50.7	-52.4	14.4	0.00e+00	0	23	0	183500800	68	4147
2026-01-09 12:36:56.11	243.18	7.89	-50.5	-52.1	14.4	0.00e+00	0	24	0	192937984	67	4264
2026-01-09 12:36:59.03	243.56	8.04	-50.4	-51.9	14.5	0.00e+00	0	24	0	202375168	67	4192
2026-01-09 12:37:01.94	243.94	8.18	-50.3	-51.9	14.6	0.00e+00	0	23	0	210763776	67	4160
2026-01-09 12:37:04.86	244.33	8.33	-50.4	-51.9	14.5	0.00e+00	0	23	0	220200960	67	4185
2026-01-09 12:37:07.76	244.72	8.48	-50.2	-51.7	14.5	0.00e+00	0	23	0	229638144	66	4321
2026-01-09 12:37:10.67	245.11	8.62	-50.1	-51.6	14.5	0.00e+00	0	23	0	238026752	66	4274
2026-01-09 12:37:13.57	245.51	8.77	-50.2	-51.7	14.5	0.00e+00	0	24	0	247463936	66	4333
2026-01-09 12:37:16.47	245.91	8.91	-50.3	-51.8	14.4	0.00e+00	0	24	0	256901120	66	4379
2026-01-09 12:37:19.37	246.31	9.06	-50.1	-51.7	14.5	0.00e+00	0	24	0	265289728	66	4304
2026-01-09 12:37:22.27	246.72	9.20	-50.2	-51.7	14.5	0.00e+00	0	23	0	274726912	66	4337
2026-01-09 12:37:25.16	247.13	9.34	-50.2	-51.7	14.5	0.00e+00	0	23	0	283115520	66	4302
2026-01-09 12:37:28.06	247.54	9.49	-50.1	-51.5	14.6	0.00e+00	0	24	0	292552704	66	4241
2026-01-09 12:37:30.95	247.96	9.63	-49.8	-51.3	14.8	0.00e+00	0	24	0	301989888	66	4107
2026-01-09 12:37:33.85	248.38	9.77	-49.9	-51.3	14.7	0.00e+00	0	24	0	310378496	66	4121
2026-01-09 12:37:36.76	248.81	9.91	-49.7	-51.1	14.7	0.00e+00	0	23	0	319815680	65	4270
2026-01-09 12:37:39.66	249.24	10.06	-49.6	-51.0	14.7	0.00e+00	0	24	0	329252864	65	4223
2026-01-09 12:37:42.56	249.68	10.20	-49.7	-51.1	14.7	0.00e+00	0	24	0	337641472	65	4275
2026-01-09 12:37:45.45	250.11	10.34	-49.6	-51.1	14.7	0.00e+00	0	24	0	347078656	65	4245
2026-01-09 12:37:48.35	250.56	10.47	-49.6	-51.0	14.7	0.00e+00	0	24	0	356515840	65	4240
2026-01-09 12:37:51.25	251.00	10.61	-49.6	-51.1	14.7	0.00e+00	0	24	0	364904448	65	4250
2026-01-09 12:37:54.15	251.45	10.75	-49.5	-50.9	14.8	0.00e+00	0	24	0	374341632	65	4165
2026-01-09 12:37:57.05	251.91	10.89	-49.5	-50.9	14.8	0.00e+00	0	23	0	383778816	65	4151
2026-01-09 12:37:59.96	252.37	11.02	-49.5	-50.8	14.8	0.00e+00	0	24	0	392167424	65	4137
2026-01-09 12:38:02.87	252.84	11.16	-49.4	-50.7	14.9	0.00e+00	0	24	0	401604608	65	4089
2026-01-09 12:38:05.79	253.31	11.30	-49.4	-50.7	14.9	0.00e+00	0	24	0	411041792	65	4094
2026-01-09 12:38:08.70	253.78	11.43	-49.3	-50.7	14.9	0.00e+00	0	24	0	419430400	65	4062
2026-01-09 12:38:11.60	254.26	11.56	-49.5	-50.8	14.8	0.00e+00	0	24	0	428867584	65	4136
2026-01-09 12:38:14.50	254.74	11.69	-49.5	-50.9	14.8	0.00e+00	0	24	0	438304768	65	4162
2026-01-09 12:38:17.41	255.22	11.82	-49.4	-50.7	14.9	0.00e+00	0	24	0	446693376	65	4084
2026-01-09 12:38:20.31	255.71	11.95	-49.3	-50.7	14.9	0.00e+00	0	24	0	456130560	65	4062
2026-01-09 12:38:23.20	256.20	12.08	-49.5	-50.9	14.8	0.00e+00	0	24	0	464519168	65	4158
2026-01-09 12:38:26.11	256.70	12.21	-49.5	-50.9	14.8	0.00e+00	0	24	0	473956352	65	4185
2026-01-09 12:38:29.01	257.20	12.33	-49.8	-51.2	14.7	0.00e+00	0	24	0	483393536	65	4329
2026-01-09 12:38:31.91	257.70	12.45	-49.8	-51.2	14.7	0.00e+00	0	24	0	491782144	65	4322
2026-01-09 12:38:34.82	258.22	12.58	-49.7	-51.2	14.7	0.00e+00	0	24	0	501219328	65	4304
2026-01-09 12:38:37.73	258.73	12.70	-49.6	-51.0	14.8	0.00e+00	0	24	0	510656512	65	4194
2026-01-09 12:38:40.63	259.25	12.82	-49.3	-50.7	15.0	0.00e+00	0	24	0	520093696	65	4055
2026-01-09 12:38:43.54	259.77	12.94	-49.6	-51.0	14.8	0.00e+00	0	24	0	528482304	65	4201
2026-01-09 12:38:46.45	260.30	13.05	-49.6	-51.0	14.8	0.00e+00	0	24	0	537919488	65	4213
2026-01-09 12:38:49.36	260.83	13.17	-49.7	-51.1	14.7	0.00e+00	0	24	0	546308096	65	4258
2026-01-09 12:38:52.27	261.36	13.28	-49.5	-50.9	14.8	0.00e+00	0	24	0	555745280	65	4175
2026-01-09 12:38:55.18	261.90	13.39	-49.5	-50.9	14.8	0.00e+00	0	24	0	565182464	65	4173
2026-01-09 12:38:58.09	262.44	13.50	-49.7	-51.1	14.7	0.00e+00	0	24	0	574619648	65	4256
2026-01-09 12:39:01.01	262.99	13.61	-49.7	-51.2	14.7	0.00e+00	0	24	0	583008256	65	4295
2026-01-09 12:39:03.92	263.54	13.72	-49.6	-50.9	14.8	0.00e+00	0	24	0	592445440	65	4191
2026-01-09 12:39:06.83	264.10	13.82	-49.5	-50.9	14.9	0.00e+00	0	24	0	601882624	65	4149
2026-01-09 12:39:09.75	264.66	13.92	-49.2	-50.6	15.0	0.00e+00	0	24	0	610271232	65	4012
2026-01-09 12:39:12.66	265.22	14.02	-49.1	-50.4	14.9	0.00e+00	0	24	0	619708416	64	4191
2026-01-09 12:39:15.56	265.78	14.12	-49.3	-50.6	14.8	0.00e+00	0	24	0	629145600	64	4291
2026-01-09 12:39:18.48	266.35	14.22	-49.2	-50.5	14.8	0.00e+00	0	24	0	637534208	64	4235
2026-01-09 12:39:21.39	266.92	14.31	-49.1	-50.4	14.9	0.00e+00	0	24	0	646971392	64	4183
2026-01-09 12:39:24.30	267.50	14.40	-49.1	-50.4	14.9	0.00e+00	0	24	0	656408576	64	4193
2026-01-09 12:39:27.21	268.08	14.49	-49.3	-50.6	14.8	0.00e+00	0	24	0	664797184	64	4279
2026-01-09 12:39:30.12	268.66	14.57	-49.2	-50.5	14.9	0.00e+00	0	24	0	674234368	64	4225
2026-01-09 12:39:33.03	269.25	14.66	-49.1	-50.4	14.9	0.00e+00	0	24	0	683671552	64	4162
2026-01-09 12:39:35.94	269.83	14.74	-49.1	-50.4	14.9	0.00e+00	0	24	0	692060160	64	4185
2026-01-09 12:39:38.85	270.43	14.82	-49.0	-50.3	15.0	0.00e+00	0	24	0	701497344	64	4116
2026-01-09 12:39:41.77	271.02	14.89	-48.9	-50.2	15.0	0.00e+00	0	24	0	710934528	64	4082
2026-01-09 12:39:44.68	271.62	14.97	-49.0	-50.3	15.0	0.00e+00	0	24	0	719323136	64	4121
2026-01-09 12:39:47.60	272.22	15.04	-49.1	-50.4	14.9	0.00e+00	0	24	0	728760320	64	4162
2026-01-09 12:39:50.50	272.82	15.11	-48.9	-50.2	15.0	0.00e+00	0	24	0	738197504	64	4092
2026-01-09 12:39:53.41	273.43	15.17	-48.9	-50.2	15.0	0.00e+00	0	24	0	746586112	64	4072
2026-01-09 12:39:56.32	274.04	15.23	-49.0	-50.3	15.0	0.00e+00	0	24	0	756023296	64	4111
2026-01-09 12:39:59.23	274.65	15.29	-48.9	-50.2	15.0	0.00e+00	0	24	0	765460480	64	4088
2026-01-09 12:40:02.14	275.26	15.35	-48.8	-50.1	15.1	0.00e+00	0	24	0	773849088	64	4046
2026-01-09 12:40:05.06	275.88	15.40	-49.0	-50.3	15.0	0.00e+00	0	24	0	783286272	64	4112
2026-01-09 12:40:07.99	276.50	15.45	-49.0	-50.3	15.0	0.00e+00	0	24	0	792723456	64	4143
2026-01-09 12:40:10.91	277.12	15.50	-49.0	-50.3	15.0	0.00e+00	0	24	0	801112064	64	4100
2026-01-09 12:40:13.83	277.74	15.55	-49.0	-50.3	15.0	0.00e+00	0	24	0	810549248	64	4119
2026-01-09 12:40:16.75	278.37	15.59	-49.1	-50.4	14.9	0.00e+00	0	24	0	819986432	64	4181
2026-01-09 12:40:19.66	278.99	15.63	-49.1	-50.4	15.0	0.00e+00	0	24	0	829423616	64	4166
2026-01-09 12:40:22.58	279.62	15.66	-48.9	-50.2	15.0	0.00e+00	0	24	0	837812224	64	4092
2026-01-09 12:40:25.50	280.25	15.69	-49.0	-50.3	15.0	0.00e+00	0	24	0	847249408	64	4122
2026-01-09 12:40:28.43	280.88	15.72	-48.8	-50.1	15.1	0.00e+00	0	24	0	856686592	64	4034
2026-01-09 12:40:31.35	281.51	15.75	-48.8	-50.1	15.1	0.00e+00	0	24	0	865075200	64	4031
2026-01-09 12:40:34.27	282.14	15.77	-49.1	-50.4	14.9	0.00e+00	0	24	0	874512384	64	4178
2026-01-09 12:40:37.19	282.77	15.79	-49.2	-50.5	14.9	0.00e+00	0	24	0	883949568	64	4223
2026-01-09 12:40:40.10	283.41	15.81	-49.1	-50.4	14.9	0.00e+00	0	24	0	892338176	64	4161
2026-01-09 12:40:43.01	284.04	15.82	-49.2	-50.5	14.9	0.00e+00	0	24	0	901775360	64	4218
2026-01-09 12:40:45.93	284.67	15.83	-49.3	-50.7	14.8	0.00e+00	0	23	0	911212544	64	4319
2026-01-09 12:40:48.85	285.31	15.83	-49.3	-50.7	14.8	0.00e+00	0	24	0	920649728	64	4294
2026-01-09 12:40:51.77	285.94	15.84	-49.3	-50.7	14.8	0.00e+00	0	24	0	929038336	64	4304
2026-01-09 12:40:54.69	286.58	15.84	-49.3	-50.6	14.9	0.00e+00	0	24	0	938475520	64	4268
2026-01-09 12:40:57.62	287.21	15.83	-49.2	-50.5	14.9	0.00e+00	0	24	0	947912704	64	4219
2026-01-09 12:41:00.53	287.85	15.82	-49.2	-50.5	14.9	0.00e+00	0	24	0	956301312	64	4208
2026-01-09 12:41:03.45	288.48	15.81	-49.1	-50.4	15.0	0.00e+00	0	23	0	965738496	64	4153
2026-01-09 12:41:06.38	289.12	15.80	-49.1	-50.4	15.0	0.00e+00	0	24	0	975175680	64	4181
2026-01-09 12:41:09.31	289.75	15.78	-49.0	-50.3	15.0	0.00e+00	0	24	0	984612864	64	4125
2026-01-09 12:41:12.24	290.39	15.76	-49.0	-50.2	15.0	0.00e+00	0	24	0	993001472	64	4098
2026-01-09 12:41:15.17	291.02	15.74	-49.1	-50.4	15.0	0.00e+00	0	24	0	1002438656	64	4166
2026-01-09 12:41:18.10	291.65	15.71	-49.1	-50.5	14.9	0.00e+00	0	24	0	1011875840	64	4205
2026-01-09 12:41:21.02	292.28	15.68	-49.1	-50.4	15.0	0.00e+00	0	24	0	1021313024	64	4146
2026-01-09 12:41:23.95	292.91	15.65	-49.2	-50.5	14.9	0.00e+00	0	24	0	1029701632	64	4228
2026-01-09 12:41:26.87	293.54	15.61	-49.1	-50.4	14.9	0.00e+00	0	24	0	1039138816	64	4187
2026-01-09 12:41:29.80	294.16	15.57	-49.0	-50.2	15.0	0.00e+00	0	24	0	1048576000	64	4097
2026-01-09 12:41:32.74	294.79	15.53	-49.4	-50.8	14.8	0.00e+00	0	24	0	1056964608	64	4343
2026-01-09 12:41:35.68	295.42	15.48	-49.5	-50.9	14.8	0.00e+00	0	24	0	1066401792	64	4397
2026-01-09 12:41:38.61	296.04	15.43	-49.4	-50.8	14.8	0.00e+00	0	24	0	1075838976	64	4344
2026-01-09 12:41:41.54	296.66	15.38	-49.3	-50.6	14.8	0.00e+00	0	24	0	1085276160	64	4282
2026-01-09 12:41:44.48	297.28	15.33	-49.2	-50.6	14.9	0.00e+00	0	24	0	1093664768	64	4247
2026-01-09 12:41:47.41	297.89	15.27	-49.2	-50.5	14.9	0.00e+00	0	24	0	1103101952	64	4230
2026-01-09 12:41:50.34	298.50	15.21	-49.4	-50.8	14.8	0.00e+00	0	24	0	1112539136	64	4346
2026-01-09 12:41:53.28	299.11	15.14	-49.5	-50.8	14.8	0.00e+00	0	24	0	1121976320	64	4384
2026-01-09 12:41:56.23	299.73	15.08	-49.4	-50.7	14.8	0.00e+00	0	24	0	1130364928	64	4318
2026-01-09 12:41:59.16	300.33	15.01	-49.2	-50.5	14.9	0.00e+00	0	24	0	1139802112	64	4214
2026-01-09 12:42:02.09	300.93	14.94	-49.2	-50.5	14.9	0.00e+00	0	24	0	1149239296	64	4231
2026-01-09 12:42:05.02	301.53	14.86	-49.2	-50.6	14.9	0.00e+00	0	24	0	1158676480	64	4259
2026-01-09 12:42:07.94	302.12	14.78	-49.3	-50.7	14.9	0.00e+00	0	24	0	1167065088	64	4292
2026-01-09 12:42:10.87	302.72	14.70	-49.1	-50.4	15.0	0.00e+00	0	24	0	1176502272	64	4175
2026-01-09 12:42:13.80	303.31	14.62	-49.1	-50.4	15.0	0.00e+00	0	24	0	1185939456	64	4165
2026-01-09 12:42:16.73	303.89	14.54	-49.1	-50.4	14.9	0.00e+00	0	24	0	1195376640	64	4187
2026-01-09 12:42:19.66	304.48	14.45	-49.1	-50.4	15.0	0.00e+00	0	24	0	1203765248	64	4184
2026-01-09 12:42:22.60	305.06	14.36	-49.1	-50.4	15.0	0.00e+00	0	24	0	1213202432	64	4176
2026-01-09 12:42:25.54	305.64	14.27	-49.1	-50.5	14.9	0.00e+00	0	24	0	1222639616	64	4199
2026-01-09 12:42:28.48	306.21	14.17	-49.1	-50.4	14.9	0.00e+00	0	24	0	1232076800	64	4183
2026-01-09 12:42:31.42	306.78	14.07	-49.2	-50.5	14.9	0.00e+00	0	24	0	1240465408	64	4228
2026-01-09 12:42:34.36	307.35	13.97	-49.1	-50.5	14.9	0.00e+00	0	24	0	1249902592	64	4195
2026-01-09 12:42:37.30	307.91	13.87	-49.0	-50.3	15.0	0.00e+00	0	24	0	1259339776	64	4118
2026-01-09 12:42:40.25	308.47	13.77	-49.0	-50.3	15.0	0.00e+00	0	24	0	1268776960	64	4136
2026-01-09 12:42:43.18	309.03	13.66	-49.1	-50.4	14.9	0.00e+00	0	24	0	1277165568	64	4190
2026-01-09 12:42:46.11	309.58	13.56	-49.3	-50.6	14.9	0.00e+00	0	24	0	1286602752	64	4269
2026-01-09 12:42:49.05	310.12	13.45	-49.2	-50.5	14.9	0.00e+00	0	24	0	1296039936	64	4224
2026-01-09 12:42:52.00	310.67	13.34	-49.1	-50.4	14.9	0.00e+00	0	24	0	1305477120	64	4147
2026-01-09 12:42:54.94	311.21	13.22	-48.9	-50.2	15.0	0.00e+00	0	24	0	1313865728	64	4072
2026-01-09 12:42:57.88	311.75	13.11	-49.0	-50.3	15.0	0.00e+00	0	24	0	1323302912	64	4103
2026-01-09 12:43:00.82	312.28	12.99	-49.2	-50.5	14.9	0.00e+00	0	24	0	1332740096	64	4209
2026-01-09 12:43:03.77	312.81	12.87	-49.1	-50.4	15.0	0.00e+00	0	24	0	1342177280	64	4152
2026-01-09 12:43:06.70	313.33	12.75	-49.0	-50.3	14.9	0.00e+00	0	24	0	1350565888	64	4127
2026-01-09 12:43:09.65	313.85	12.63	-49.3	-50.7	14.8	0.00e+00	0	24	0	1360003072	64	4293
2026-01-09 12:43:12.59	314.37	12.51	-49.3	-50.7	14.8	0.00e+00	0	24	0	1369440256	64	4301
2026-01-09 12:43:15.53	314.88	12.39	-49.5	-50.9	14.7	0.00e+00	0	24	0	1378877440	64	4392
2026-01-09 12:43:18.48	315.39	12.26	-49.6	-51.1	14.6	0.00e+00	0	24	0	1388314624	64	4505
2026-01-09 12:43:21.43	315.89	12.13	-49.6	-51.0	14.6	0.00e+00	0	24	0	1396703232	64	4487
2026-01-09 12:43:24.38	316.39	12.00	-49.4	-50.8	14.7	0.00e+00	0	24	0	1406140416	64	4363
2026-01-09 12:43:27.34	316.89	11.87	-49.4	-50.8	14.7	0.00e+00	0	24	0	1415577600	64	4346
2026-01-09 12:43:30.28	317.38	11.74	-49.4	-50.8	14.7	0.00e+00	0	24	0	1425014784	64	4369
2026-01-09 12:43:33.23	317.86	11.61	-49.5	-50.9	14.7	0.00e+00	0	24	0	1434451968	64	4393
2026-01-09 12:43:36.20	318.35	11.48	-49.7	-51.2	14.5	0.00e+00	0	24	0	1442840576	64	4575
2026-01-09 12:43:39.15	318.83	11.34	-49.8	-51.3	14.4	0.00e+00	0	24	0	1452277760	64	4631
2026-01-09 12:43:42.10	319.30	11.21	-50.1	-51.6	14.4	0.00e+00	0	24	0	1461714944	65	4511
2026-01-09 12:43:45.05	319.77	11.07	-50.0	-51.5	14.4	0.00e+00	0	24	0	1471152128	65	4480
2026-01-09 12:43:48.00	320.24	10.93	-50.2	-51.7	14.3	0.00e+00	0	24	0	1479540736	65	4583
2026-01-09 12:43:50.95	320.70	10.80	-50.0	-51.4	14.5	0.00e+00	0	24	0	1488977920	65	4435
2026-01-09 12:43:53.90	321.16	10.66	-50.0	-51.5	14.5	0.00e+00	0	24	0	1498415104	65	4457
2026-01-09 12:43:56.85	321.61	10.52	-50.1	-51.6	14.4	0.00e+00	0	24	0	1507852288	65	4498
2026-01-09 12:43:59.81	322.06	10.38	-50.0	-51.5	14.4	0.00e+00	0	24	0	1517289472	65	4465
2026-01-09 12:44:02.76	322.51	10.23	-50.1	-51.6	14.4	0.00e+00	0	24	0	1525678080	65	4513
2026-01-09 12:44:05.71	322.95	10.09	-50.0	-51.5	14.4	0.00e+00	0	24	0	1535115264	65	4490
2026-01-09 12:44:08.67	323.39	9.95	-50.0	-51.6	14.4	0.00e+00	0	24	0	1544552448	65	4497
2026-01-09 12:44:11.63	323.82	9.81	-50.1	-51.7	14.4	0.00e+00	0	24	0	1553989632	65	4558
2026-01-09 12:44:14.57	324.25	9.66	-50.2	-51.7	14.3	0.00e+00	0	24	0	1563426816	65	4590
2026-01-09 12:44:17.53	324.68	9.52	-50.2	-51.7	14.3	0.00e+00	0	24	0	1572864000	65	4579
2026-01-09 12:44:20.50	325.10	9.37	-50.3	-51.9	14.3	0.00e+00	0	24	0	1581252608	65	4660
2026-01-09 12:44:23.46	325.52	9.23	-50.4	-52.0	14.3	0.00e+00	0	24	0	1590689792	66	4481
2026-01-09 12:44:26.42	325.93	9.08	-50.2	-51.7	14.5	0.00e+00	0	24	0	1600126976	66	4338
2026-01-09 12:44:29.37	326.34	8.94	-50.2	-51.7	14.5	0.00e+00	0	24	0	1609564160	66	4320
2026-01-09 12:44:32.34	326.75	8.79	-50.3	-51.9	14.3	0.00e+00	0	24	0	1619001344	66	4420
2026-01-09 12:44:35.30	327.15	8.64	-50.3	-51.8	14.4	0.00e+00	0	24	0	1627389952	66	4387
2026-01-09 12:44:38.25	327.55	8.49	-50.4	-52.0	14.3	0.00e+00	0	24	0	1636827136	66	4468
2026-01-09 12:44:41.20	327.94	8.35	-50.3	-51.9	14.4	0.00e+00	0	24	0	1646264320	66	4392
2026-01-09 12:44:44.15	328.33	8.20	-50.3	-52.0	14.3	0.00e+00	0	24	0	1655701504	66	4442
2026-01-09 12:44:47.11	328.72	8.05	-50.2	-51.8	14.4	0.00e+00	0	24	0	1665138688	66	4355
2026-01-09 12:44:50.06	329.10	7.90	-50.4	-51.9	14.3	0.00e+00	0	24	0	1673527296	66	4435
2026-01-09 12:44:53.00	329.47	7.76	-50.5	-52.1	14.2	0.00e+00	0	24	0	1682964480	66	4519
2026-01-09 12:44:55.95	329.85	7.61	-50.3	-51.9	14.3	0.00e+00	0	24	0	1692401664	66	4419
2026-01-09 12:44:58.91	330.22	7.46	-50.3	-51.9	14.3	0.00e+00	0	24	0	1701838848	66	4439
2026-01-09 12:45:01.87	330.59	7.31	-50.5	-52.1	14.2	0.00e+00	0	24	0	1711276032	66	4516
2026-01-09 12:45:04.84	330.96	7.16	-50.5	-52.2	14.1	0.00e+00	0	24	0	1719664640	66	4558
2026-01-09 12:45:07.81	331.32	7.01	-50.7	-52.4	14.0	0.00e+00	0	24	0	1729101824	66	4703
2026-01-09 12:45:10.78	331.68	6.86	-50.7	-52.4	14.0	0.00e+00	0	24	0	1738539008	66	4687
2026-01-09 12:45:13.74	332.03	6.71	-50.9	-52.6	14.0	0.00e+00	0	24	0	1747976192	67	4533
2026-01-09 12:45:16.72	332.38	6.56	-51.0	-52.7	13.9	0.00e+00	0	24	0	1757413376	67	4583
2026-01-09 12:45:19.70	332.73	6.41	-50.9	-52.7	13.9	0.00e+00	0	24	0	1766850560	67	4570
2026-01-09 12:45:22.66	333.08	6.26	-50.9	-52.6	14.0	0.00e+00	0	24	0	1776287744	67	4539
2026-01-09 12:45:25.62	333.42	6.11	-51.0	-52.7	13.9	0.00e+00	0	24	0	1784676352	67	4597
2026-01-09 12:45:28.57	333.75	5.96	-51.0	-52.9	13.8	0.00e+00	0	24	0	1794113536	67	4660
2026-01-09 12:45:31.53	334.09	5.81	-51.3	-53.2	13.6	0.00e+00	0	24	0	1803550720	67	4829
2026-01-09 12:45:34.48	334.42	5.66	-51.1	-52.9	13.7	0.00e+00	0	24	0	1812987904	67	4697
2026-01-09 12:45:37.44	334.74	5.52	-51.1	-53.0	13.6	0.00e+00	0	24	0	1822425088	67	4728
2026-01-09 12:45:40.40	335.07	5.37	-51.5	-53.5	13.5	0.00e+00	0	24	0	1830813696	68	4739
2026-01-09 12:45:43.36	335.39	5.22	-51.3	-53.1	13.7	0.00e+00	0	24	0	1840250880	68	4534
2026-01-09 12:45:46.31	335.71	5.07	-51.4	-53.3	13.7	0.00e+00	0	24	0	1849688064	68	4600
2026-01-09 12:45:49.27	336.02	4.92	-58.4	-72.2	3.8	1.49e+00	0	24	104	1854930944	81	19221
2026-01-09 12:45:52.24	336.34	4.77	-59.0	-72.8	3.8	1.49e+00	0	24	104	1854930944	83	18506
2026-01-09 12:45:55.20	336.64	4.62	-59.3	-73.2	3.8	1.49e+00	0	24	104	1854930944	83	19195
2026-01-09 12:45:58.16	336.95	4.48	-59.7	-73.5	3.8	1.49e+00	0	24	104	1854930944	84	18928
2026-01-09 12:46:01.13	337.25	4.33	-59.8	-73.6	3.8	1.49e+00	0	24	104	1854930944	84	19038
2026-01-09 12:46:04.10	337.56	4.18	-59.8	-73.7	3.8	1.49e+00	0	24	104	1854930944	84	19204
2026-01-09 12:46:07.07	337.85	4.03	-59.8	-73.6	3.8	1.49e+00	0	24	104	1854930944	84	19156
2026-01-09 12:46:10.04	338.15	3.88	-59.8	-73.6	3.8	1.49e+00	0	24	104	1854930944	84	19130
2026-01-09 12:46:13.01	338.44	3.73	-59.7	-73.6	3.8	1.49e+00	0	24	104	1854930944	84	18979
2026-01-09 12:46:15.97	338.73	3.59	-59.7	-73.6	3.8	1.49e+00	0	24	104	1854930944	84	18955
2026-01-09 12:46:18.94	339.02	3.44	-59.7	-73.5	3.8	1.49e+00	0	24	104	1854930944	84	18910
2026-01-09 12:46:21.92	339.30	3.29	-59.7	-73.5	3.8	1.49e+00	0	24	104	1854930944	84	18801
2026-01-09 12:46:24.90	339.59	3.15	-59.7	-73.5	3.8	1.49e+00	0	24	104	1854930944	84	18849
2026-01-09 12:46:27.86	339.86	3.00	-59.6	-73.5	3.8	1.49e+00	0	24	104	1854930944	84	18773
2026-01-09 12:46:30.83	340.14	2.85	-59.7	-73.5	3.8	1.49e+00	0	24	104	1854930944	84	18755
2026-01-09 12:46:33.80	340.42	2.71	-59.6	-73.4	3.8	1.49e+00	0	24	104	1854930944	84	18673
2026-01-09 12:46:36.76	340.69	2.56	-59.6	-73.4	3.8	1.49e+00	0	24	104	1854930944	84	18690
2026-01-09 12:46:39.72	340.95	2.42	-59.6	-73.4	3.8	1.49e+00	0	24	104	1854930944	84	18679
2026-01-09 12:46:42.68	341.22	2.27	-59.6	-73.4	3.8	1.49e+00	0	24	104	1854930944	84	18609
2026-01-09 12:46:45.67	341.48	2.13	-59.5	-73.4	3.8	1.49e+00	0	24	104	1854930944	84	18535
2026-01-09 12:46:48.63	341.75	1.98	-59.5	-73.4	3.8	1.49e+00	0	24	104	1854930944	84	18564

#Closed at: 2026-01-09 12:46:49
#Recorded file [1854 MB]: D:/lorett/data/31004_260109_153459.dat