passes_logs/2026/01/09/R3.2S_Murmansk/R3.2S_Murmansk__20260109_091400_TY-42_rec.log

#Pass ID: 20260109_091400_TY-42
#Satellite: TY-42
#Configuration: TY-42_900M
#almurnet v.1.7.20251203
#Start time: 2026-01-09 09:14:01

#Version: 2.2.20231116
#Station: R3.2S_Murmansk
#Location: 33.079688 lon 68.888172 lat
#TLE: 1 64048U 25103A   26008.64993056  .00008011  00000-0  38191-3 0 09996
#TLE: 2 64048 097.4110 084.1864 0001712 091.7426 302.1052 15.19171442 35856

#Time	Az	El	Level	Level2	SNR	BER	BlckErr	Temp	State	Recorded	gain1	gain2
2026-01-09 09:14:01.38	20.82	2.09	-54.3	-57.5	6.1	0.00e+00	0	29	0	0	74	22102
2026-01-09 09:14:04.35	20.85	2.30	-54.5	-57.7	6.2	0.00e+00	0	28	104	0	76	20150
2026-01-09 09:14:07.33	20.89	2.51	-54.5	-57.7	6.2	0.00e+00	0	29	104	0	76	20087
2026-01-09 09:14:10.29	20.93	2.72	-54.4	-57.6	6.2	0.00e+00	0	29	104	0	75	21103
2026-01-09 09:14:13.26	20.97	2.93	-54.4	-57.6	6.2	0.00e+00	0	29	104	0	75	21052
2026-01-09 09:14:16.23	21.01	3.15	-54.4	-57.7	6.2	0.00e+00	0	29	104	0	75	21117
2026-01-09 09:14:19.21	21.05	3.37	-54.4	-57.7	6.2	0.00e+00	0	29	104	0	75	21118
2026-01-09 09:14:22.18	21.09	3.59	-54.4	-57.7	6.2	0.00e+00	0	30	104	0	75	21119
2026-01-09 09:14:25.13	21.13	3.81	-54.4	-57.6	6.2	0.00e+00	0	30	104	0	75	21048
2026-01-09 09:14:28.10	21.17	4.03	-54.5	-57.7	6.2	0.00e+00	0	30	104	0	75	21216
2026-01-09 09:14:31.05	21.21	4.26	-54.5	-57.7	6.2	0.00e+00	0	30	104	0	75	21263
2026-01-09 09:14:34.00	21.25	4.49	-54.5	-57.7	6.2	0.00e+00	0	30	104	0	75	21211
2026-01-09 09:14:36.97	21.29	4.72	-54.5	-57.7	6.2	0.00e+00	0	30	104	0	75	21250
2026-01-09 09:14:39.93	21.34	4.96	-54.5	-57.7	6.2	0.00e+00	0	31	104	0	75	21225
2026-01-09 09:14:42.88	21.38	5.19	-54.5	-57.7	6.2	0.00e+00	0	30	104	0	75	21278
2026-01-09 09:14:45.85	21.42	5.43	-54.5	-57.7	6.2	0.00e+00	0	31	104	0	75	21301
2026-01-09 09:14:48.81	21.47	5.68	-54.5	-57.7	6.2	0.00e+00	0	31	104	0	75	21293
2026-01-09 09:14:51.79	21.51	5.93	-54.5	-57.7	6.2	0.00e+00	0	31	104	0	75	21329
2026-01-09 09:14:54.76	21.56	6.18	-54.5	-57.7	6.2	0.00e+00	0	31	104	0	75	21329
2026-01-09 09:14:57.72	21.61	6.43	-54.5	-57.7	6.2	0.00e+00	0	31	104	0	75	21286
2026-01-09 09:15:00.70	21.66	6.69	-54.5	-57.8	6.2	0.00e+00	0	31	104	0	75	21361
2026-01-09 09:15:03.65	21.71	6.95	-54.5	-57.7	6.2	0.00e+00	0	31	104	0	75	21293
2026-01-09 09:15:06.62	21.75	7.21	-54.5	-57.7	6.2	0.00e+00	0	31	104	0	75	21314
2026-01-09 09:15:09.58	21.80	7.48	-54.5	-57.8	6.2	0.00e+00	0	31	104	0	75	21435
2026-01-09 09:15:12.54	21.86	7.75	-54.5	-57.8	6.2	0.00e+00	0	31	104	0	75	21428
2026-01-09 09:15:15.52	21.91	8.02	-54.5	-57.8	6.2	0.00e+00	0	31	104	0	75	21373
2026-01-09 09:15:18.50	21.96	8.30	-54.5	-57.8	6.2	0.00e+00	0	31	104	0	75	21407
2026-01-09 09:15:21.47	22.02	8.59	-54.5	-57.8	6.2	0.00e+00	0	31	104	0	75	21415
2026-01-09 09:15:24.45	22.07	8.87	-54.6	-57.8	6.2	0.00e+00	0	31	104	0	75	21418
2026-01-09 09:15:27.41	22.13	9.17	-54.6	-57.8	6.2	0.00e+00	0	31	104	0	75	21521
2026-01-09 09:15:30.36	22.18	9.46	-54.6	-57.8	6.2	0.00e+00	0	31	104	0	75	21489
2026-01-09 09:15:33.32	22.24	9.76	-57.4	-60.7	6.2	0.00e+00	0	31	104	0	80	22413
2026-01-09 09:15:36.27	22.30	10.06	-57.7	-61.0	6.2	0.00e+00	0	31	104	0	81	21902
2026-01-09 09:15:39.22	22.36	10.37	-58.2	-61.5	6.2	0.00e+00	0	31	104	0	82	21860
2026-01-09 09:15:42.17	22.42	10.69	-58.6	-61.8	6.1	0.00e+00	0	31	104	0	82	22755
2026-01-09 09:15:45.13	22.49	11.01	-58.8	-62.0	6.2	0.00e+00	0	31	104	0	83	22026
2026-01-09 09:15:48.10	22.55	11.34	-58.9	-62.1	6.2	0.00e+00	0	31	104	0	83	22351
2026-01-09 09:15:51.07	22.62	11.67	-58.9	-62.1	6.1	0.00e+00	0	31	104	0	83	22308
2026-01-09 09:15:54.03	22.68	12.01	-59.0	-62.3	6.2	0.00e+00	0	31	104	0	83	22654
2026-01-09 09:15:56.97	22.75	12.35	-59.4	-62.6	6.2	0.00e+00	0	31	104	0	84	22206
2026-01-09 09:15:59.92	22.82	12.70	-59.5	-62.7	6.2	0.00e+00	0	32	104	0	84	22574
2026-01-09 09:16:02.89	22.90	13.06	-59.5	-62.8	6.2	0.00e+00	0	32	104	0	84	22715
2026-01-09 09:16:05.86	22.97	13.43	-59.6	-62.8	6.2	0.00e+00	0	32	104	0	84	22762
2026-01-09 09:16:08.83	23.05	13.80	-59.5	-62.8	6.2	0.00e+00	0	32	104	0	84	22644
2026-01-09 09:16:11.79	23.12	14.18	-59.5	-62.7	6.2	0.00e+00	0	32	104	0	84	22546
2026-01-09 09:16:14.74	23.20	14.56	-59.6	-62.8	6.2	0.00e+00	0	32	104	0	84	22714
2026-01-09 09:16:17.71	23.29	14.96	-59.5	-62.7	6.1	0.00e+00	0	32	104	0	84	22501
2026-01-09 09:16:20.68	23.37	15.37	-59.4	-62.7	6.2	0.00e+00	0	32	104	0	84	22405
2026-01-09 09:16:23.63	23.46	15.78	-59.4	-62.6	6.1	0.00e+00	0	32	104	0	84	22260
2026-01-09 09:16:26.59	23.55	16.20	-59.4	-62.6	6.2	0.00e+00	0	32	104	0	84	22282
2026-01-09 09:16:29.55	23.64	16.63	-59.4	-62.6	6.1	0.00e+00	0	32	104	0	84	22194
2026-01-09 09:16:32.51	23.73	17.07	-59.3	-62.6	6.2	0.00e+00	0	32	104	0	84	22122
2026-01-09 09:16:35.47	23.83	17.52	-59.5	-62.7	6.2	0.00e+00	0	32	104	0	84	22558
2026-01-09 09:16:38.42	23.93	17.99	-59.5	-62.7	6.2	0.00e+00	0	32	104	0	84	22515
2026-01-09 09:16:41.38	24.03	18.46	-59.5	-62.7	6.1	0.00e+00	0	32	104	0	84	22478
2026-01-09 09:16:44.34	24.14	18.94	-59.4	-62.6	6.2	0.00e+00	0	32	104	0	84	22301
2026-01-09 09:16:47.30	24.25	19.44	-59.3	-62.5	6.2	0.00e+00	0	32	104	0	84	22019
2026-01-09 09:16:50.27	24.36	19.95	-59.1	-62.3	6.2	0.00e+00	0	32	104	0	84	21475
2026-01-09 09:16:53.23	24.48	20.48	-43.7	-44.1	11.7	0.00e+00	0	33	0	8388608	53	15659
2026-01-09 09:16:56.21	24.60	21.02	-46.7	-47.1	10.8	3.76e-02	0	33	0	335544320	59	15761
2026-01-09 09:16:59.19	24.73	21.58	-53.8	-54.9	7.7	9.20e-02	15	33	104	637534208	75	15329
2026-01-09 09:17:02.16	24.86	22.15	-39.1	-39.4	12.5	2.54e-02	0	33	0	889192448	45	14448
2026-01-09 09:17:05.14	25.00	22.73	-36.4	-36.7	12.9	1.51e-03	0	34	0	1224736768	40	14164
2026-01-09 09:17:08.12	25.14	23.34	-36.0	-36.3	12.9	6.39e-04	0	34	0	1560281088	39	14343
2026-01-09 09:17:11.09	25.29	23.96	-35.7	-36.0	12.9	3.62e-04	0	34	0	1895825408	38	14707
2026-01-09 09:17:14.06	25.45	24.60	-35.3	-35.6	12.9	3.10e-04	0	34	0	2222981120	37	14842
2026-01-09 09:17:17.02	25.61	25.26	-35.1	-35.4	13.0	2.72e-04	0	34	0	2558525440	37	14550
2026-01-09 09:17:20.00	25.78	25.94	-34.7	-35.0	13.0	1.62e-04	0	34	0	2894069760	36	14627
2026-01-09 09:17:22.98	25.95	26.64	-34.5	-34.8	13.0	1.38e-04	0	34	0	3229614080	36	14285
2026-01-09 09:17:25.96	26.14	27.36	-31.7	-32.0	12.9	2.00e-04	0	34	0	3565158400	30	14640
2026-01-09 09:17:28.93	26.33	28.11	-31.4	-31.6	13.0	2.10e-04	0	34	0	3900702720	30	14067
2026-01-09 09:17:31.89	26.53	28.88	-31.2	-31.5	13.0	1.48e-04	0	34	0	4236247040	29	14666
2026-01-09 09:17:34.87	26.75	29.68	-30.9	-31.2	13.0	9.53e-05	0	34	0	4563402752	29	14130
2026-01-09 09:17:37.82	26.97	30.50	-30.7	-30.9	13.0	6.67e-05	0	35	0	4898947072	28	14560
2026-01-09 09:17:40.80	27.21	31.35	-30.3	-30.6	13.0	7.62e-05	0	34	0	5234491392	27	14876
2026-01-09 09:17:43.76	27.46	32.23	-30.2	-30.5	13.0	8.58e-05	0	35	0	5561647104	27	14662
2026-01-09 09:17:46.72	27.72	33.14	-29.9	-30.1	13.1	5.24e-05	0	35	0	5897191424	26	14901
2026-01-09 09:17:49.69	28.00	34.08	-29.3	-29.6	13.1	2.86e-05	0	35	0	6232735744	25	14791
2026-01-09 09:17:52.66	28.30	35.06	-29.0	-29.2	13.1	9.50e-06	0	35	0	6568280064	25	14270
2026-01-09 09:17:55.65	28.61	36.08	-28.8	-29.1	13.1	9.50e-06	0	35	0	6903824384	24	14806
2026-01-09 09:17:58.63	28.95	37.14	-28.4	-28.7	13.2	9.50e-06	0	35	0	7239368704	24	14178
2026-01-09 09:18:01.61	29.32	38.23	-28.1	-28.3	13.2	9.50e-06	0	35	0	7574913024	23	14376
2026-01-09 09:18:04.58	29.70	39.36	-27.7	-27.9	13.2	0.00e+00	0	35	0	7910457344	22	14555
2026-01-09 09:18:07.55	30.12	40.54	-27.2	-27.5	13.2	0.00e+00	0	35	0	8246001664	21	14691
2026-01-09 09:18:10.53	30.57	41.76	-27.0	-27.3	13.3	9.50e-06	0	35	0	8581545984	21	14377
2026-01-09 09:18:13.51	31.05	43.02	-26.8	-27.0	13.3	0.00e+00	0	35	0	8908701696	20	14769
2026-01-09 09:18:16.48	31.58	44.34	-26.3	-26.6	13.3	0.00e+00	0	35	0	9252634624	19	14902
2026-01-09 09:18:19.49	32.16	45.71	-26.1	-26.4	13.4	0.00e+00	0	35	0	9588178944	19	14462
2026-01-09 09:18:22.46	32.79	47.12	-25.8	-26.0	13.4	0.00e+00	0	35	0	9915334656	18	14768
2026-01-09 09:18:25.44	33.48	48.59	-25.6	-25.9	13.4	0.00e+00	0	35	0	10259267584	18	14450
2026-01-09 09:18:28.42	34.24	50.10	-25.5	-25.7	13.5	0.00e+00	0	35	0	10594811904	18	14236
2026-01-09 09:18:31.40	35.08	51.67	-24.9	-25.2	13.5	0.00e+00	0	35	0	10921967616	17	14124
2026-01-09 09:18:34.39	36.02	53.30	-24.6	-24.9	13.5	0.00e+00	0	35	0	11265900544	16	14445
2026-01-09 09:18:37.35	37.07	54.96	-24.4	-24.6	13.5	0.00e+00	0	35	0	11593056256	16	14106
2026-01-09 09:18:40.34	38.26	56.68	-23.8	-24.1	13.5	0.00e+00	0	35	0	11936989184	14	14815
2026-01-09 09:18:43.32	39.61	58.45	-23.6	-23.8	13.5	0.00e+00	0	35	0	12264144896	14	14403
2026-01-09 09:18:46.30	41.16	60.26	-23.4	-23.7	13.5	0.00e+00	0	35	0	12599689216	14	14175
2026-01-09 09:18:49.27	42.93	62.10	-23.2	-23.5	13.5	0.00e+00	0	35	0	12943622144	13	14628
2026-01-09 09:18:52.25	45.01	63.98	-23.0	-23.3	13.5	0.00e+00	0	35	0	13270777856	13	14291
2026-01-09 09:18:55.22	47.45	65.86	-22.9	-23.1	13.5	0.00e+00	0	35	0	13606322176	13	14102
2026-01-09 09:18:58.21	50.37	67.76	-22.9	-23.1	13.5	0.00e+00	0	35	0	13941866496	12	14898
2026-01-09 09:19:01.19	53.88	69.64	-22.8	-23.0	13.5	0.00e+00	0	35	0	14277410816	12	14681
2026-01-09 09:19:04.17	58.15	71.47	-22.7	-22.9	13.5	0.00e+00	0	35	0	14612955136	12	14589
2026-01-09 09:19:07.14	63.38	73.21	-22.8	-23.0	13.5	0.00e+00	0	35	0	14948499456	12	14751
2026-01-09 09:19:10.13	69.87	74.82	-22.7	-23.0	13.5	0.00e+00	0	35	0	15284043776	12	14684
2026-01-09 09:19:13.10	77.80	76.21	-22.7	-23.0	13.6	0.00e+00	0	35	0	15619588096	12	14675
2026-01-09 09:19:16.08	87.39	77.31	-22.8	-23.0	13.5	0.00e+00	0	35	0	15955132416	12	14714
2026-01-09 09:19:19.06	98.48	78.01	-22.5	-22.8	13.6	0.00e+00	0	35	0	16290676736	12	14284
2026-01-09 09:19:22.03	110.44	78.23	-22.5	-22.8	13.6	0.00e+00	0	35	0	16626221056	12	14309
2026-01-09 09:19:25.01	122.38	77.95	-22.4	-22.7	13.6	0.00e+00	0	35	0	16953376768	12	14149
2026-01-09 09:19:27.99	133.31	77.19	-22.6	-22.8	13.6	0.00e+00	0	35	0	17297309696	12	14382
2026-01-09 09:19:30.98	142.72	76.05	-22.6	-22.9	13.5	0.00e+00	0	35	0	17632854016	12	14523
2026-01-09 09:19:33.97	150.50	74.61	-22.5	-22.7	13.5	0.00e+00	0	35	0	17968398336	12	14269
2026-01-09 09:19:36.94	156.77	72.99	-22.5	-22.8	13.5	0.00e+00	0	35	0	18303942656	12	14371
2026-01-09 09:19:39.91	161.86	71.23	-22.7	-23.0	13.5	0.00e+00	0	35	0	18631098368	12	14636
2026-01-09 09:19:42.90	166.03	69.38	-22.6	-22.9	13.5	0.00e+00	0	35	0	18966642688	12	14522
2026-01-09 09:19:45.87	169.45	67.51	-22.8	-23.0	13.5	0.00e+00	0	35	0	19310575616	12	14721
2026-01-09 09:19:48.84	172.29	65.61	-22.9	-23.2	13.5	0.00e+00	0	35	0	19637731328	12	14972
2026-01-09 09:19:51.82	174.68	63.72	-23.0	-23.3	13.5	0.00e+00	0	35	0	19973275648	12	15155
2026-01-09 09:19:54.81	176.73	61.84	-23.2	-23.5	13.5	0.00e+00	0	36	0	20308819968	12	15493
2026-01-09 09:19:57.80	178.48	59.98	-23.5	-23.8	13.5	0.00e+00	0	35	0	20644364288	12	16106
2026-01-09 09:20:00.78	180.00	58.18	-23.7	-23.9	13.5	0.00e+00	0	35	0	20979908608	13	15448
2026-01-09 09:20:03.76	181.32	56.41	-23.9	-24.1	13.4	0.00e+00	0	35	0	21315452928	13	15772
2026-01-09 09:20:06.73	182.49	54.70	-24.2	-24.4	13.4	0.00e+00	0	35	0	21650997248	14	15472
2026-01-09 09:20:09.71	183.53	53.03	-24.4	-24.7	13.4	4.70e-06	0	35	0	21986541568	14	15864
2026-01-09 09:20:12.68	184.45	51.42	-24.7	-25.0	13.4	0.00e+00	0	36	0	22322085888	15	15560
2026-01-09 09:20:15.65	185.28	49.85	-59.3	-62.6	6.2	0.00e+00	0	35	104	22380806144	84	22192
2026-01-09 09:20:18.64	186.03	48.34	-59.3	-62.6	6.2	0.00e+00	0	35	104	22380806144	84	22139
2026-01-09 09:20:21.64	186.72	46.86	-59.3	-62.5	6.2	0.00e+00	0	35	104	22380806144	84	22103
2026-01-09 09:20:24.61	187.33	45.46	-59.2	-62.5	6.2	0.00e+00	0	35	104	22380806144	84	21890
2026-01-09 09:20:27.59	187.90	44.10	-59.2	-62.5	6.2	0.00e+00	0	34	104	22380806144	84	21934
2026-01-09 09:20:30.57	188.42	42.78	-59.3	-62.5	6.1	0.00e+00	0	34	104	22380806144	84	21919
2026-01-09 09:20:33.54	188.90	41.52	-59.2	-62.4	6.2	0.00e+00	0	34	104	22380806144	84	21845
2026-01-09 09:20:36.52	189.35	40.30	-59.2	-62.4	6.2	0.00e+00	0	34	104	22380806144	84	21686
2026-01-09 09:20:39.50	189.76	39.13	-59.2	-62.4	6.1	0.00e+00	0	34	104	22380806144	84	21687
2026-01-09 09:20:42.48	190.15	38.00	-59.2	-62.4	6.2	0.00e+00	0	34	104	22380806144	84	21674
2026-01-09 09:20:45.44	190.50	36.91	-59.1	-62.4	6.1	0.00e+00	0	34	104	22380806144	84	21661
2026-01-09 09:20:48.42	190.84	35.86	-59.1	-62.3	6.2	0.00e+00	0	34	104	22380806144	84	21577
2026-01-09 09:20:51.40	191.15	34.84	-59.1	-62.4	6.2	0.00e+00	0	34	104	22380806144	84	21636
2026-01-09 09:20:54.38	191.45	33.86	-59.1	-62.3	6.2	0.00e+00	0	34	104	22380806144	84	21537
2026-01-09 09:20:57.35	191.73	32.92	-59.0	-62.3	6.1	0.00e+00	0	34	104	22380806144	84	21360
2026-01-09 09:21:00.33	191.99	32.01	-59.0	-62.2	6.2	0.00e+00	0	34	104	22380806144	84	21354
2026-01-09 09:21:03.30	192.24	31.13	-59.0	-62.3	6.2	0.00e+00	0	34	104	22380806144	84	21370
2026-01-09 09:21:06.29	192.47	30.27	-59.0	-62.2	6.1	0.00e+00	0	34	104	22380806144	84	21339
2026-01-09 09:21:09.27	192.69	29.45	-59.0	-62.2	6.2	0.00e+00	0	34	104	22380806144	84	21222
2026-01-09 09:21:12.25	192.90	28.65	-59.0	-62.2	6.2	0.00e+00	0	34	104	22380806144	84	21188
2026-01-09 09:21:15.22	193.11	27.88	-58.9	-62.2	6.2	0.00e+00	0	33	104	22380806144	84	21118
2026-01-09 09:21:18.19	193.30	27.14	-58.9	-62.2	6.2	0.00e+00	0	34	104	22380806144	84	21135
2026-01-09 09:21:21.15	193.48	26.42	-58.9	-62.1	6.2	0.00e+00	0	34	104	22380806144	84	21067
2026-01-09 09:21:24.12	193.65	25.72	-58.9	-62.1	6.2	0.00e+00	0	33	104	22380806144	84	20949
2026-01-09 09:21:27.10	193.82	25.04	-58.9	-62.1	6.1	0.00e+00	0	33	104	22380806144	84	20947
2026-01-09 09:21:30.06	193.98	24.39	-58.8	-62.1	6.2	0.00e+00	0	33	104	22380806144	84	20917
2026-01-09 09:21:33.04	194.13	23.75	-58.8	-62.0	6.2	0.00e+00	0	33	104	22380806144	84	20850
2026-01-09 09:21:36.01	194.28	23.13	-58.8	-62.0	6.2	0.00e+00	0	33	104	22380806144	84	20762
2026-01-09 09:21:38.97	194.42	22.53	-58.8	-62.0	6.1	0.00e+00	0	33	104	22380806144	84	20655
2026-01-09 09:21:41.94	194.55	21.94	-58.7	-62.0	6.2	0.00e+00	0	33	104	22380806144	84	20689
2026-01-09 09:21:44.90	194.68	21.38	-58.7	-61.9	6.1	0.00e+00	0	33	104	22380806144	84	20633
2026-01-09 09:21:47.88	194.81	20.82	-58.7	-61.9	6.2	0.00e+00	0	33	104	22380806144	84	20623
2026-01-09 09:21:50.85	194.93	20.28	-58.7	-61.9	6.2	0.00e+00	0	33	104	22380806144	84	20627
2026-01-09 09:21:53.81	195.05	19.76	-58.7	-61.9	6.2	0.00e+00	0	33	104	22380806144	84	20552
2026-01-09 09:21:56.78	195.16	19.25	-58.7	-61.9	6.2	0.00e+00	0	33	104	22380806144	84	20486
2026-01-09 09:21:59.74	195.27	18.75	-58.7	-61.9	6.2	0.00e+00	0	33	104	22380806144	84	20495
2026-01-09 09:22:02.69	195.37	18.27	-58.6	-61.8	6.1	0.00e+00	0	33	104	22380806144	84	20361
2026-01-09 09:22:05.65	195.48	17.79	-58.6	-61.8	6.2	0.00e+00	0	33	104	22380806144	84	20377
2026-01-09 09:22:08.61	195.58	17.33	-58.6	-61.8	6.2	0.00e+00	0	33	104	22380806144	84	20242
2026-01-09 09:22:11.59	195.67	16.88	-58.6	-61.8	6.2	0.00e+00	0	33	104	22380806144	84	20306
2026-01-09 09:22:14.55	195.76	16.44	-58.5	-61.8	6.2	0.00e+00	0	33	104	22380806144	84	20251
2026-01-09 09:22:17.50	195.85	16.01	-58.5	-61.7	6.2	0.00e+00	0	33	104	22380806144	84	20080
2026-01-09 09:22:20.47	195.94	15.58	-58.5	-61.7	6.2	0.00e+00	0	33	104	22380806144	84	20090
2026-01-09 09:22:23.45	196.03	15.17	-58.5	-61.7	6.2	0.00e+00	0	33	104	22380806144	84	20045
2026-01-09 09:22:26.41	196.11	14.77	-58.5	-61.7	6.2	0.00e+00	0	33	104	22380806144	84	19979
2026-01-09 09:22:29.37	196.19	14.37	-58.4	-61.6	6.2	0.00e+00	0	33	104	22380806144	84	19881
2026-01-09 09:22:32.33	196.27	13.98	-58.4	-61.6	6.1	0.00e+00	0	33	104	22380806144	84	19922
2026-01-09 09:22:35.30	196.35	13.60	-58.4	-61.6	6.2	0.00e+00	0	33	104	22380806144	84	19840
2026-01-09 09:22:38.26	196.42	13.23	-58.2	-61.4	6.2	0.00e+00	0	33	104	22380806144	83	20629
2026-01-09 09:22:41.22	196.49	12.87	-58.2	-61.4	6.2	0.00e+00	0	33	104	22380806144	83	20498
2026-01-09 09:22:44.19	196.56	12.51	-58.2	-61.4	6.2	0.00e+00	0	33	104	22380806144	83	20524
2026-01-09 09:22:47.16	196.63	12.16	-58.1	-61.4	6.2	0.00e+00	0	33	104	22380806144	83	20405
2026-01-09 09:22:50.13	196.70	11.81	-58.1	-61.4	6.2	0.00e+00	0	33	104	22380806144	83	20417
2026-01-09 09:22:53.09	196.77	11.47	-58.1	-61.3	6.2	0.00e+00	0	33	104	22380806144	83	20340
2026-01-09 09:22:56.05	196.83	11.14	-58.1	-61.3	6.2	0.00e+00	0	33	104	22380806144	83	20387
2026-01-09 09:22:59.01	196.89	10.82	-58.1	-61.3	6.2	0.00e+00	0	33	104	22380806144	83	20247
2026-01-09 09:23:01.97	196.96	10.50	-58.1	-61.3	6.2	0.00e+00	0	33	104	22380806144	83	20223
2026-01-09 09:23:04.94	197.02	10.18	-58.0	-61.3	6.2	0.00e+00	0	33	104	22380806144	83	20179
2026-01-09 09:23:07.91	197.07	9.87	-58.1	-61.3	6.2	0.00e+00	0	33	104	22380806144	83	20266
2026-01-09 09:23:10.88	197.13	9.56	-58.0	-61.2	6.2	0.00e+00	0	33	104	22380806144	83	20012
2026-01-09 09:23:13.85	197.19	9.26	-58.0	-61.2	6.2	0.00e+00	0	33	104	22380806144	83	19984
2026-01-09 09:23:16.80	197.24	8.97	-57.9	-61.1	6.2	0.00e+00	0	33	104	22380806144	83	19918
2026-01-09 09:23:19.78	197.30	8.68	-58.0	-61.2	6.2	0.00e+00	0	33	104	22380806144	83	20055
2026-01-09 09:23:22.75	197.35	8.39	-57.8	-61.1	6.2	0.00e+00	0	33	104	22380806144	82	20948
2026-01-09 09:23:25.72	197.41	8.10	-57.9	-61.1	6.2	0.00e+00	0	33	104	22380806144	82	20973
2026-01-09 09:23:28.69	197.46	7.83	-57.8	-61.0	6.1	0.00e+00	0	33	104	22380806144	82	20865
2026-01-09 09:23:31.67	197.51	7.55	-57.8	-61.0	6.2	0.00e+00	0	33	104	22380806144	82	20858
2026-01-09 09:23:34.64	197.56	7.28	-57.7	-60.9	6.2	0.00e+00	0	33	104	22380806144	82	20582
2026-01-09 09:23:37.59	197.61	7.01	-57.7	-61.0	6.2	0.00e+00	0	33	104	22380806144	82	20636
2026-01-09 09:23:40.57	197.65	6.75	-57.7	-60.9	6.2	0.00e+00	0	33	104	22380806144	82	20525
2026-01-09 09:23:43.54	197.70	6.49	-57.7	-60.9	6.2	0.00e+00	0	33	104	22380806144	82	20480
2026-01-09 09:23:46.51	197.75	6.23	-57.6	-60.8	6.2	0.00e+00	0	33	104	22380806144	82	20333
2026-01-09 09:23:49.48	197.79	5.98	-57.6	-60.8	6.2	0.00e+00	0	33	104	22380806144	82	20203
2026-01-09 09:23:52.44	197.84	5.73	-57.5	-60.8	6.2	0.00e+00	0	33	104	22380806144	82	20255
2026-01-09 09:23:55.41	197.88	5.48	-57.5	-60.7	6.1	0.00e+00	0	33	104	22380806144	82	20042
2026-01-09 09:23:58.36	197.92	5.24	-57.4	-60.6	6.2	0.00e+00	0	33	104	22380806144	82	19848
2026-01-09 09:24:01.32	197.97	5.00	-57.3	-60.5	6.1	0.00e+00	0	33	104	22380806144	81	20852
2026-01-09 09:24:04.29	198.01	4.76	-58.3	-61.6	6.2	0.00e+00	0	33	104	22380806144	82	22132
2026-01-09 09:24:07.29	198.05	4.52	-58.7	-62.0	6.1	0.00e+00	0	33	104	22380806144	83	21918
2026-01-09 09:24:10.30	198.09	4.29	-59.0	-62.2	6.2	0.00e+00	0	33	104	22380806144	83	22467
2026-01-09 09:24:13.26	198.13	4.06	-59.1	-62.4	6.2	0.00e+00	0	33	104	22380806144	83	22901
2026-01-09 09:24:16.22	198.17	3.83	-59.4	-62.6	6.2	0.00e+00	0	33	104	22380806144	84	22328
2026-01-09 09:24:19.19	198.21	3.61	-59.5	-62.7	6.2	0.00e+00	0	33	104	22380806144	84	22531
2026-01-09 09:24:22.16	198.25	3.38	-59.6	-62.8	6.2	0.00e+00	0	33	104	22380806144	84	22753
2026-01-09 09:24:25.13	198.28	3.16	-59.6	-62.8	6.2	0.00e+00	0	33	104	22380806144	85	21574
2026-01-09 09:24:28.10	198.32	2.95	-59.6	-62.8	6.2	0.00e+00	0	33	104	22380806144	85	21454
2026-01-09 09:24:31.07	198.36	2.73	-59.5	-62.8	6.2	0.00e+00	0	33	104	22380806144	85	21379
2026-01-09 09:24:34.03	198.40	2.52	-59.5	-62.8	6.1	0.00e+00	0	33	104	22380806144	85	21435
2026-01-09 09:24:36.99	198.43	2.31	-59.5	-62.7	6.2	0.00e+00	0	33	104	22380806144	85	21260
2026-01-09 09:24:39.94	198.47	2.10	-59.4	-62.7	6.2	0.00e+00	0	33	104	22380806144	85	21185
2026-01-09 09:24:42.90	198.50	1.89	-59.4	-62.6	6.2	0.00e+00	0	33	104	22380806144	85	21013

#Closed at: 2026-01-09 09:24:43
#Recorded file [22380 MB]: D:/lorett/data/31004_260109_121401.dat