passes_logs/2026/01/09/R3.2S_Murmansk/R3.2S_Murmansk__20260109_044330_SUOMI_NPP_rec.log

#Pass ID: 20260109_044330_SUOMI NPP
#Satellite: SUOMI NPP
#Configuration: NPP
#almurnet v.1.7.20251203
#Start time: 2026-01-09 04:43:32

#Version: 2.2.20231116
#Station: R3.2S_Murmansk
#Location: 33.079688 lon 68.888172 lat
#TLE: 1 37849U 11061A   26008.05542337  .00000108  00000+0  71976-4 0  9997
#TLE: 2 37849  98.7805 310.1641 0002540  75.6410 284.5048 14.19523335735721

#Time	Az	El	Level	Level2	SNR	BER	BlckErr	Temp	State	Recorded	gain1	gain2
2026-01-09 04:43:32.00	54.90	2.09	-57.3	-73.3	3.8	1.49e+00	0	22	0	0	81	21792
2026-01-09 04:43:36.01	54.65	2.32	-57.2	-73.2	3.8	1.49e+00	0	22	104	0	79	24323
2026-01-09 04:43:40.01	54.39	2.55	-57.2	-73.2	3.8	1.49e+00	0	22	104	0	79	24223
2026-01-09 04:43:44.01	54.13	2.78	-57.2	-73.2	3.8	1.49e+00	0	22	104	0	79	24251
2026-01-09 04:43:48.00	53.86	3.01	-57.2	-73.2	3.8	1.49e+00	0	22	104	0	79	24249
2026-01-09 04:43:52.01	53.59	3.24	-57.2	-73.2	3.8	1.49e+00	0	22	104	0	79	24364
2026-01-09 04:43:56.00	53.31	3.48	-57.2	-73.2	3.8	1.49e+00	0	22	104	0	79	24319
2026-01-09 04:43:59.99	53.03	3.71	-57.2	-73.2	3.8	1.49e+00	0	22	104	0	79	24332
2026-01-09 04:44:03.99	52.74	3.95	-57.2	-73.1	3.8	1.49e+00	0	22	104	0	79	24062
2026-01-09 04:44:07.98	52.45	4.19	-57.2	-73.2	3.8	1.49e+00	0	23	104	0	79	24332
2026-01-09 04:44:11.98	52.15	4.43	-57.2	-72.4	3.8	1.49e+00	0	22	104	0	79	22047
2026-01-09 04:44:15.98	51.85	4.67	-57.1	-69.8	4.2	1.42e+00	0	23	0	0	79	16333
2026-01-09 04:44:19.97	51.55	4.92	-56.8	-66.6	5.5	4.34e-01	0	23	0	6291456	79	11416
2026-01-09 04:44:23.97	51.23	5.16	-57.0	-68.2	4.7	7.77e-01	0	23	0	13631488	79	13707
2026-01-09 04:44:27.98	50.92	5.41	-55.4	-60.5	10.6	1.07e+00	0	23	0	18874368	77	6333
2026-01-09 04:44:31.97	50.59	5.65	-54.8	-59.1	11.8	2.21e-05	0	23	0	26214400	76	5711
2026-01-09 04:44:35.98	50.26	5.90	-53.5	-56.8	13.2	0.00e+00	0	23	0	33554432	73	5176
2026-01-09 04:44:39.98	49.93	6.15	-53.9	-57.4	12.8	7.00e-07	0	23	0	40894464	73	5544
2026-01-09 04:44:43.97	49.59	6.40	-53.6	-56.9	13.1	0.00e+00	0	23	0	48234496	73	5259
2026-01-09 04:44:47.96	49.24	6.66	-53.8	-57.2	13.0	0.00e+00	0	23	0	56623104	73	5409
2026-01-09 04:44:51.97	48.89	6.91	-53.7	-57.1	13.0	0.00e+00	0	23	0	63963136	73	5362
2026-01-09 04:44:55.96	48.53	7.17	-53.8	-57.2	12.9	0.00e+00	0	23	0	71303168	73	5462
2026-01-09 04:44:59.96	48.16	7.43	-53.8	-57.4	12.9	0.00e+00	0	23	0	78643200	73	5532
2026-01-09 04:45:03.94	47.79	7.68	-53.5	-56.9	13.3	0.00e+00	0	23	0	85983232	73	5222
2026-01-09 04:45:07.93	47.41	7.94	-53.5	-56.8	13.4	0.00e+00	0	23	0	93323264	73	5183
2026-01-09 04:45:11.93	47.02	8.21	-53.2	-56.3	13.5	0.00e+00	0	23	0	100663296	72	5203
2026-01-09 04:45:15.91	46.63	8.47	-53.0	-55.9	13.8	0.00e+00	0	23	0	109051904	72	4946
2026-01-09 04:45:19.90	46.22	8.73	-53.1	-56.1	13.7	0.00e+00	0	23	0	116391936	72	5071
2026-01-09 04:45:23.89	45.81	9.00	-52.9	-55.7	13.9	0.00e+00	0	23	0	123731968	72	4821
2026-01-09 04:45:27.90	45.40	9.27	-52.8	-55.6	14.0	0.00e+00	0	23	0	131072000	72	4793
2026-01-09 04:45:31.89	44.97	9.53	-52.9	-55.7	14.0	0.00e+00	0	23	0	138412032	72	4828
2026-01-09 04:45:35.89	44.54	9.81	-53.0	-55.8	13.9	0.00e+00	0	23	0	145752064	72	4912
2026-01-09 04:45:39.88	44.09	10.08	-53.0	-55.8	13.9	0.00e+00	0	23	0	153092096	72	4910
2026-01-09 04:45:43.88	43.64	10.35	-53.2	-56.1	13.7	0.00e+00	0	23	0	161480704	72	5078
2026-01-09 04:45:47.87	43.18	10.62	-53.2	-56.1	13.7	0.00e+00	0	23	0	168820736	72	5045
2026-01-09 04:45:51.87	42.72	10.90	-53.3	-56.3	13.6	0.00e+00	0	23	0	176160768	72	5169
2026-01-09 04:45:55.87	42.24	11.17	-53.1	-55.9	13.9	0.00e+00	0	23	0	183500800	72	4953
2026-01-09 04:45:59.87	41.75	11.45	-52.9	-55.6	14.1	0.00e+00	0	23	0	190840832	72	4774
2026-01-09 04:46:03.85	41.26	11.73	-52.8	-55.4	14.2	0.00e+00	0	23	0	198180864	72	4677
2026-01-09 04:46:07.85	40.75	12.01	-52.5	-55.0	14.3	0.00e+00	0	23	0	205520896	71	4736
2026-01-09 04:46:11.85	40.23	12.29	-52.6	-55.2	14.2	0.00e+00	0	23	0	213909504	71	4847
2026-01-09 04:46:15.85	39.70	12.57	-52.3	-54.7	14.5	0.00e+00	0	23	0	221249536	71	4587
2026-01-09 04:46:19.84	39.17	12.85	-52.5	-54.9	14.4	0.00e+00	0	23	0	228589568	71	4686
2026-01-09 04:46:23.84	38.62	13.14	-52.3	-54.7	14.5	0.00e+00	0	23	0	235929600	71	4584
2026-01-09 04:46:27.83	38.06	13.42	-52.2	-54.6	14.4	0.00e+00	0	23	0	243269632	70	4786
2026-01-09 04:46:31.82	37.50	13.70	-52.2	-54.6	14.3	0.00e+00	0	23	0	250609664	70	4802
2026-01-09 04:46:35.80	36.92	13.99	-52.2	-54.7	14.2	0.00e+00	0	23	0	257949696	70	4842
2026-01-09 04:46:39.80	36.32	14.27	-52.6	-55.3	13.9	0.00e+00	0	23	0	266338304	70	5186
2026-01-09 04:46:43.79	35.72	14.56	-52.6	-55.3	14.0	0.00e+00	0	23	0	273678336	70	5176
2026-01-09 04:46:47.79	35.11	14.84	-52.5	-55.1	14.0	0.00e+00	0	23	0	281018368	70	5075
2026-01-09 04:46:51.78	34.48	15.12	-52.3	-54.8	14.2	0.00e+00	0	23	0	288358400	70	4895
2026-01-09 04:46:55.79	33.84	15.41	-52.7	-55.5	13.8	0.00e+00	0	23	0	295698432	70	5293
2026-01-09 04:46:59.79	33.18	15.69	-52.8	-55.6	13.9	0.00e+00	0	24	0	303038464	71	5088
2026-01-09 04:47:03.78	32.52	15.98	-52.5	-55.1	14.2	0.00e+00	0	23	0	310378496	71	4761
2026-01-09 04:47:07.77	31.84	16.26	-52.7	-55.4	14.1	0.00e+00	0	23	0	318767104	71	4929
2026-01-09 04:47:11.76	31.15	16.54	-52.5	-55.1	14.2	0.00e+00	0	24	0	326107136	71	4810
2026-01-09 04:47:15.76	30.45	16.82	-52.5	-55.2	14.2	0.00e+00	0	24	0	333447168	71	4824
2026-01-09 04:47:19.75	29.73	17.10	-52.4	-54.9	14.4	0.00e+00	0	24	0	340787200	71	4675
2026-01-09 04:47:23.75	29.00	17.38	-52.8	-55.6	13.9	0.00e+00	0	24	0	348127232	71	5086
2026-01-09 04:47:27.73	28.25	17.65	-52.6	-55.2	14.2	0.00e+00	0	24	0	355467264	71	4859
2026-01-09 04:47:31.73	27.49	17.93	-52.0	-54.3	14.6	0.00e+00	0	23	0	362807296	70	4630
2026-01-09 04:47:35.74	26.72	18.20	-51.9	-54.3	14.5	0.00e+00	0	24	0	371195904	70	4627
2026-01-09 04:47:39.74	25.93	18.47	-51.8	-54.2	14.4	0.00e+00	0	23	0	378535936	69	4870
2026-01-09 04:47:43.74	25.13	18.74	-51.1	-53.3	14.8	0.00e+00	0	23	0	385875968	68	4641
2026-01-09 04:47:47.73	24.31	19.00	-51.2	-53.3	14.8	0.00e+00	0	24	0	393216000	68	4641
2026-01-09 04:47:51.73	23.48	19.26	-51.1	-53.3	14.8	0.00e+00	0	24	0	400556032	68	4612
2026-01-09 04:47:55.73	22.64	19.52	-51.2	-53.3	14.7	0.00e+00	0	23	0	407896064	68	4631
2026-01-09 04:47:59.73	21.78	19.77	-51.1	-53.3	14.8	0.00e+00	0	24	0	415236096	68	4599
2026-01-09 04:48:03.71	20.91	20.01	-51.0	-53.1	14.9	0.00e+00	0	23	0	423624704	68	4545
2026-01-09 04:48:07.71	20.02	20.26	-50.9	-53.0	14.9	0.00e+00	0	23	0	430964736	68	4478
2026-01-09 04:48:11.71	19.12	20.50	-50.2	-52.1	15.2	0.00e+00	0	23	0	438304768	67	4253
2026-01-09 04:48:15.71	18.20	20.73	-50.5	-52.4	15.1	0.00e+00	0	24	0	445644800	67	4406
2026-01-09 04:48:19.69	17.28	20.95	-50.5	-52.3	15.1	0.00e+00	0	24	0	452984832	67	4378
2026-01-09 04:48:23.67	16.34	21.17	-50.3	-52.1	15.3	0.00e+00	0	24	0	460324864	67	4243
2026-01-09 04:48:27.67	15.38	21.39	-50.3	-52.1	15.2	0.00e+00	0	24	0	467664896	67	4267
2026-01-09 04:48:31.67	14.41	21.59	-50.1	-51.9	15.2	0.00e+00	0	23	0	476053504	66	4404
2026-01-09 04:48:35.67	13.43	21.79	-50.2	-51.9	15.2	0.00e+00	0	24	0	483393536	66	4410
2026-01-09 04:48:39.68	12.43	21.99	-50.2	-52.0	15.1	0.00e+00	0	23	0	490733568	66	4442
2026-01-09 04:48:43.68	11.42	22.17	-50.3	-52.1	15.1	0.00e+00	0	24	0	498073600	66	4510
2026-01-09 04:48:47.67	10.40	22.35	-50.3	-52.1	15.1	0.00e+00	0	24	0	505413632	66	4522
2026-01-09 04:48:51.67	9.37	22.51	-50.2	-51.8	15.2	0.00e+00	0	23	0	512753664	66	4391
2026-01-09 04:48:55.66	8.33	22.67	-50.2	-51.9	15.2	0.00e+00	0	23	0	521142272	66	4399
2026-01-09 04:48:59.65	7.28	22.82	-50.7	-52.5	14.9	0.00e+00	0	24	0	528482304	66	4723
2026-01-09 04:49:03.65	6.22	22.96	-51.2	-53.2	14.7	0.00e+00	0	23	0	535822336	67	4853
2026-01-09 04:49:07.64	5.15	23.09	-52.5	-54.9	14.3	0.00e+00	0	24	0	543162368	70	4966
2026-01-09 04:49:11.62	4.07	23.21	-51.9	-54.1	14.7	0.00e+00	0	24	0	550502400	70	4529
2026-01-09 04:49:15.60	2.99	23.31	-51.7	-53.8	14.9	0.00e+00	0	23	0	557842432	70	4388
2026-01-09 04:49:19.59	1.89	23.41	-51.4	-53.4	14.9	0.00e+00	0	23	0	565182464	69	4434
2026-01-09 04:49:23.58	0.79	23.50	-51.6	-53.8	14.7	0.00e+00	0	24	0	572522496	69	4646
2026-01-09 04:49:27.58	359.69	23.57	-52.2	-54.6	14.3	0.00e+00	0	24	0	580911104	69	5090
2026-01-09 04:49:31.57	358.58	23.64	-52.2	-54.6	14.4	0.00e+00	0	24	0	588251136	70	4804
2026-01-09 04:49:35.56	357.46	23.69	-52.4	-54.9	14.3	0.00e+00	0	24	0	595591168	70	4932
2026-01-09 04:49:39.56	356.34	23.73	-52.6	-55.2	14.0	0.00e+00	0	24	0	602931200	70	5149
2026-01-09 04:49:43.54	355.22	23.76	-52.8	-55.5	13.9	0.00e+00	0	24	0	610271232	70	5284
2026-01-09 04:49:47.54	354.10	23.77	-51.4	-53.6	14.8	0.00e+00	0	24	0	617611264	69	4501
2026-01-09 04:49:51.54	352.97	23.78	-51.9	-54.2	14.6	0.00e+00	0	24	0	624951296	69	4866
2026-01-09 04:49:55.53	351.85	23.77	-51.6	-53.9	14.6	0.00e+00	0	24	0	633339904	69	4655
2026-01-09 04:49:59.53	350.72	23.75	-51.5	-53.7	14.8	0.00e+00	0	24	0	640679936	69	4569
2026-01-09 04:50:03.49	349.61	23.72	-51.5	-53.7	14.8	0.00e+00	0	24	0	648019968	69	4557
2026-01-09 04:50:07.49	348.49	23.68	-50.7	-52.6	15.1	0.00e+00	0	24	0	655360000	68	4258
2026-01-09 04:50:11.48	347.38	23.62	-51.5	-53.6	14.6	0.00e+00	0	24	0	662700032	68	4804
2026-01-09 04:50:15.47	346.27	23.56	-50.5	-52.2	15.2	0.00e+00	0	24	0	670040064	67	4320
2026-01-09 04:50:19.45	345.17	23.48	-50.3	-52.0	15.3	0.00e+00	0	24	0	677380096	67	4217
2026-01-09 04:50:23.45	344.07	23.39	-50.1	-51.7	15.3	0.00e+00	0	24	0	684720128	66	4316
2026-01-09 04:50:27.43	342.98	23.29	-50.0	-51.7	15.3	0.00e+00	0	24	0	693108736	66	4296
2026-01-09 04:50:31.42	341.89	23.18	-50.6	-52.4	14.9	0.00e+00	0	24	0	700448768	66	4652
2026-01-09 04:50:35.42	340.81	23.06	-50.7	-52.5	15.0	0.00e+00	0	24	0	707788800	67	4471
2026-01-09 04:50:39.39	339.75	22.93	-50.5	-52.2	15.1	0.00e+00	0	23	0	715128832	67	4325
2026-01-09 04:50:43.40	338.69	22.79	-50.8	-52.6	14.9	0.00e+00	0	24	0	722468864	67	4536
2026-01-09 04:50:47.38	337.64	22.64	-50.8	-52.6	15.0	0.00e+00	0	24	0	729808896	67	4514
2026-01-09 04:50:51.36	336.61	22.48	-51.1	-53.0	14.8	0.00e+00	0	24	0	737148928	67	4722
2026-01-09 04:50:55.35	335.58	22.31	-51.7	-53.8	14.5	0.00e+00	0	24	0	744488960	68	4926
2026-01-09 04:50:59.33	334.57	22.14	-51.9	-54.2	14.5	0.00e+00	0	24	0	752877568	69	4829
2026-01-09 04:51:03.34	333.56	21.95	-51.9	-54.2	14.5	0.00e+00	0	24	0	760217600	69	4828
2026-01-09 04:51:07.34	332.56	21.75	-52.1	-54.4	14.4	0.00e+00	0	24	0	767557632	69	4975
2026-01-09 04:51:11.33	331.58	21.55	-51.2	-53.3	14.8	0.00e+00	0	24	0	774897664	68	4599
2026-01-09 04:51:15.33	330.62	21.35	-51.3	-53.4	14.8	0.00e+00	0	24	0	782237696	68	4664
2026-01-09 04:51:19.31	329.67	21.13	-52.1	-54.5	14.4	0.00e+00	0	24	0	789577728	69	4984
2026-01-09 04:51:23.29	328.73	20.91	-52.7	-55.3	14.0	0.00e+00	0	24	0	796917760	70	5171
2026-01-09 04:51:27.28	327.80	20.68	-52.2	-54.6	14.4	0.00e+00	0	24	0	805306368	70	4791
2026-01-09 04:51:31.27	326.89	20.45	-53.4	-56.7	13.3	0.00e+00	0	24	0	812646400	71	5727
2026-01-09 04:51:35.27	325.99	20.21	-52.2	-54.6	14.6	0.00e+00	0	24	0	819986432	71	4538
2026-01-09 04:51:39.27	325.11	19.97	-51.4	-53.6	14.8	0.00e+00	0	24	0	827326464	69	4498
2026-01-09 04:51:43.27	324.24	19.72	-51.0	-53.1	14.9	0.00e+00	0	24	0	834666496	68	4508
2026-01-09 04:51:47.26	323.38	19.47	-50.8	-52.7	15.1	0.00e+00	0	24	0	842006528	68	4322
2026-01-09 04:51:51.26	322.54	19.21	-50.2	-52.0	15.2	0.00e+00	0	24	0	850395136	67	4234
2026-01-09 04:51:55.25	321.71	18.95	-50.9	-52.9	14.7	0.00e+00	0	24	0	857735168	67	4699
2026-01-09 04:51:59.25	320.90	18.68	-52.2	-54.7	14.2	0.00e+00	0	24	0	865075200	69	5155
2026-01-09 04:52:03.24	320.10	18.42	-52.0	-54.5	14.3	0.00e+00	0	24	0	872415232	69	5002
2026-01-09 04:52:07.24	319.31	18.15	-51.3	-53.4	14.9	0.00e+00	0	24	0	879755264	69	4432
2026-01-09 04:52:11.22	318.55	17.88	-50.4	-52.4	15.1	0.00e+00	0	24	0	887095296	67	4403
2026-01-09 04:52:15.21	317.79	17.60	-50.8	-52.9	14.8	0.00e+00	0	24	0	894435328	67	4668
2026-01-09 04:52:19.20	317.05	17.33	-51.6	-53.8	14.5	0.00e+00	0	24	0	901775360	68	4917
2026-01-09 04:52:23.21	316.32	17.05	-51.5	-53.7	14.6	0.00e+00	0	24	0	910163968	68	4841
2026-01-09 04:52:27.22	315.60	16.77	-51.9	-54.2	14.3	0.00e+00	0	24	0	917504000	68	5157
2026-01-09 04:52:31.22	314.90	16.49	-51.7	-53.9	14.6	0.00e+00	0	24	0	924844032	69	4679
2026-01-09 04:52:35.24	314.20	16.20	-51.1	-53.1	14.9	0.00e+00	0	23	0	932184064	68	4504
2026-01-09 04:52:39.23	313.53	15.92	-51.3	-53.4	14.7	0.00e+00	0	24	0	939524096	68	4656
2026-01-09 04:52:43.25	312.86	15.63	-51.1	-52.9	15.0	0.00e+00	0	24	0	946864128	68	4436
2026-01-09 04:52:47.25	312.21	15.35	-50.2	-51.9	15.1	0.00e+00	0	24	0	955252736	66	4439
2026-01-09 04:52:51.25	311.57	15.06	-50.6	-52.3	14.9	0.00e+00	0	24	0	962592768	66	4649
2026-01-09 04:52:55.26	310.95	14.78	-50.8	-52.7	14.7	0.00e+00	0	24	0	969932800	66	4836
2026-01-09 04:52:59.27	310.33	14.49	-50.7	-52.5	14.9	0.00e+00	0	24	0	977272832	67	4491
2026-01-09 04:53:03.28	309.73	14.21	-50.3	-52.0	15.2	0.00e+00	0	24	0	984612864	67	4197
2026-01-09 04:53:07.28	309.14	13.92	-51.1	-53.0	14.7	0.00e+00	0	24	0	991952896	67	4736
2026-01-09 04:53:11.28	308.56	13.64	-51.6	-53.6	14.6	0.00e+00	0	24	0	1000341504	68	4809
2026-01-09 04:53:15.29	307.99	13.35	-51.5	-53.5	14.6	0.00e+00	0	24	0	1007681536	68	4727
2026-01-09 04:53:19.30	307.43	13.07	-51.2	-53.2	14.8	0.00e+00	0	24	0	1015021568	68	4549
2026-01-09 04:53:23.29	306.89	12.79	-51.1	-52.9	14.9	0.00e+00	0	24	0	1022361600	68	4421
2026-01-09 04:53:27.29	306.35	12.50	-51.8	-53.9	14.4	0.00e+00	0	24	0	1029701632	68	4954
2026-01-09 04:53:31.28	305.83	12.22	-52.3	-54.6	14.4	0.00e+00	0	24	0	1037041664	70	4763
2026-01-09 04:53:35.29	305.31	11.94	-51.5	-53.5	14.8	0.00e+00	0	24	0	1044381696	69	4463
2026-01-09 04:53:39.30	304.80	11.66	-51.4	-53.4	14.8	0.00e+00	0	24	0	1052770304	69	4423
2026-01-09 04:53:43.30	304.31	11.38	-51.6	-53.6	14.7	0.00e+00	0	24	0	1060110336	69	4526
2026-01-09 04:53:47.30	303.82	11.11	-51.6	-53.6	14.7	0.00e+00	0	24	0	1067450368	69	4513
2026-01-09 04:53:51.30	303.35	10.83	-51.9	-54.1	14.5	0.00e+00	0	24	0	1074790400	69	4764
2026-01-09 04:53:55.31	302.88	10.55	-52.3	-54.7	14.1	0.00e+00	0	24	0	1082130432	69	5124
2026-01-09 04:53:59.31	302.42	10.28	-52.2	-54.6	14.2	0.00e+00	0	24	0	1089470464	69	5069
2026-01-09 04:54:03.32	301.97	10.01	-52.5	-55.0	14.0	0.00e+00	0	24	0	1097859072	70	5014
2026-01-09 04:54:07.33	301.53	9.73	-52.8	-55.5	13.9	0.00e+00	0	24	0	1105199104	71	5014
2026-01-09 04:54:11.33	301.10	9.46	-52.8	-55.3	14.0	0.00e+00	0	24	0	1112539136	71	4923
2026-01-09 04:54:15.33	300.67	9.20	-52.2	-54.5	14.5	0.00e+00	0	24	0	1119879168	71	4469
2026-01-09 04:54:19.33	300.26	8.93	-52.0	-54.2	14.4	0.00e+00	0	24	0	1127219200	70	4595
2026-01-09 04:54:23.33	299.85	8.66	-52.3	-54.7	14.2	0.00e+00	0	24	0	1134559232	70	4821
2026-01-09 04:54:27.33	299.45	8.40	-52.5	-54.9	14.1	0.00e+00	0	24	0	1142947840	70	4977
2026-01-09 04:54:31.32	299.05	8.14	-52.5	-54.9	14.1	0.00e+00	0	24	0	1150287872	70	4975
2026-01-09 04:54:35.34	298.67	7.87	-52.3	-54.7	14.2	0.00e+00	0	24	0	1157627904	70	4825
2026-01-09 04:54:39.33	298.29	7.61	-52.3	-54.7	14.1	0.00e+00	0	24	0	1164967936	70	4856
2026-01-09 04:54:43.34	297.91	7.35	-52.6	-55.2	13.9	0.00e+00	0	24	0	1172307968	70	5123
2026-01-09 04:54:47.33	297.55	7.10	-52.9	-55.6	13.7	0.00e+00	0	24	0	1179648000	71	5071
2026-01-09 04:54:51.33	297.19	6.84	-53.3	-56.3	13.3	0.00e+00	0	24	0	1186988032	71	5492
2026-01-09 04:54:55.34	296.84	6.59	-53.6	-56.9	13.0	0.00e+00	0	24	0	1195376640	72	5548
2026-01-09 04:54:59.33	296.49	6.33	-53.8	-57.2	12.8	0.00e+00	0	24	0	1202716672	73	5445
2026-01-09 04:55:03.32	296.15	6.08	-53.9	-57.3	12.8	0.00e+00	0	24	0	1210056704	73	5509
2026-01-09 04:55:07.33	295.82	5.83	-53.9	-57.3	12.8	7.00e-07	0	24	0	1217396736	73	5486
2026-01-09 04:55:11.33	295.49	5.58	-54.1	-57.7	12.5	0.00e+00	0	24	0	1224736768	73	5740
2026-01-09 04:55:15.32	295.17	5.34	-54.2	-58.0	12.3	2.20e-06	0	24	0	1232076800	73	5930
2026-01-09 04:55:19.32	294.85	5.09	-54.3	-58.2	12.1	6.10e-06	0	24	0	1240465408	74	5776
2026-01-09 04:55:23.32	294.54	4.85	-58.5	-74.5	3.8	1.49e+00	0	24	104	1242562560	82	23761
2026-01-09 04:55:27.32	294.23	4.60	-59.1	-75.2	3.8	1.49e+00	0	24	104	1242562560	83	24306
2026-01-09 04:55:31.34	293.93	4.36	-59.6	-75.7	3.8	1.49e+00	0	24	104	1242562560	84	24264
2026-01-09 04:55:35.34	293.64	4.12	-59.8	-75.9	3.8	1.49e+00	0	24	104	1242562560	84	24824
2026-01-09 04:55:39.25	293.35	3.89	-59.9	-76.0	3.8	1.49e+00	0	24	104	1242562560	84	25061
2026-01-09 04:55:43.26	293.07	3.65	-59.9	-76.0	3.8	1.49e+00	0	24	104	1242562560	84	25063
2026-01-09 04:55:47.26	292.78	3.41	-59.8	-75.9	3.8	1.49e+00	0	24	104	1242562560	84	24952
2026-01-09 04:55:51.26	292.51	3.18	-59.7	-75.8	3.8	1.49e+00	0	24	104	1242562560	84	24621
2026-01-09 04:55:55.27	292.24	2.95	-59.7	-75.8	3.8	1.49e+00	0	24	104	1242562560	84	24437
2026-01-09 04:55:59.26	291.97	2.71	-59.6	-75.7	3.8	1.49e+00	0	24	104	1242562560	84	24341
2026-01-09 04:56:03.25	291.71	2.48	-59.6	-75.7	3.8	1.49e+00	0	24	104	1242562560	84	24192
2026-01-09 04:56:07.25	291.45	2.26	-59.6	-75.7	3.8	1.49e+00	0	24	104	1242562560	84	24143
2026-01-09 04:56:11.26	291.19	2.03	-59.6	-75.6	3.8	1.49e+00	0	24	104	1242562560	84	24068

#Closed at: 2026-01-09 04:56:13
#Recorded file [1242 MB]: D:/lorett/data/31004_260109_074331.dat