passes_logs/2026/01/09/R3.2S_Murmansk/R3.2S_Murmansk__20260109_232436_SUOMI_NPP_rec.log

#Pass ID: 20260109_232436_SUOMI NPP
#Satellite: SUOMI NPP
#Configuration: NPP
#almurnet v.1.7.20251203
#Start time: 2026-01-09 23:24:37

#Version: 2.2.20231116
#Station: R3.2S_Murmansk
#Location: 33.079688 lon 68.888172 lat
#TLE: 1 37849U 11061A   26008.83076692  .00000095  00000+0  66074-4 0  9997
#TLE: 2 37849  98.7806 310.9327 0002533  74.3004 285.8451 14.19523607735834

#Time	Az	El	Level	Level2	SNR	BER	BlckErr	Temp	State	Recorded	gain1	gain2
2026-01-09 23:24:37.15	20.55	2.01	-57.3	-73.0	3.8	1.49e+00	0	21	0	0	81	21120
2026-01-09 23:24:41.15	20.71	2.26	-57.2	-72.2	3.8	1.49e+00	0	22	104	0	79	21617
2026-01-09 23:24:45.17	20.88	2.50	-57.2	-72.2	3.8	1.49e+00	0	22	104	0	79	21526
2026-01-09 23:24:49.17	21.06	2.75	-57.2	-71.9	3.8	1.49e+00	0	22	104	0	79	21009
2026-01-09 23:24:53.15	21.23	3.00	-57.1	-69.1	4.4	1.35e+00	63	22	0	0	79	15067
2026-01-09 23:24:57.15	21.41	3.25	-57.0	-68.2	4.7	7.84e-01	0	22	0	5242880	79	13581
2026-01-09 23:25:01.15	21.59	3.51	-56.9	-66.8	5.4	4.73e-01	0	22	0	13631488	79	11634
2026-01-09 23:25:05.13	21.77	3.76	-56.2	-62.9	8.6	4.25e-02	0	22	0	20971520	79	7383
2026-01-09 23:25:09.13	21.96	4.02	-54.9	-59.1	11.7	2.40e-04	0	22	0	28311552	76	5670
2026-01-09 23:25:13.13	22.15	4.28	-54.2	-57.8	12.6	0.00e+00	0	22	0	35651584	75	5162
2026-01-09 23:25:17.12	22.34	4.55	-54.9	-59.3	11.3	4.57e-05	0	23	0	42991616	74	6566
2026-01-09 23:25:21.13	22.53	4.81	-56.2	-62.9	8.4	1.79e-02	0	23	0	50331648	77	8352
2026-01-09 23:25:25.12	22.73	5.08	-56.7	-65.4	6.4	1.72e-01	0	23	0	57671680	78	10413
2026-01-09 23:25:29.11	22.93	5.35	-57.2	-69.3	4.3	3.97e-01	0	23	0	65011712	79	15421
2026-01-09 23:25:33.09	23.14	5.62	-55.2	-59.5	11.5	4.88e-05	0	23	0	72351744	76	5951
2026-01-09 23:25:37.10	23.35	5.90	-54.9	-58.9	12.1	1.22e-05	0	23	0	80740352	76	5530
2026-01-09 23:25:41.08	23.56	6.17	-54.4	-57.8	12.7	7.00e-07	0	23	0	88080384	75	5215
2026-01-09 23:25:45.08	23.77	6.46	-54.1	-57.4	12.9	0.00e+00	0	23	0	95420416	74	5232
2026-01-09 23:25:49.08	23.99	6.74	-54.0	-57.1	13.2	0.00e+00	0	23	0	102760448	74	5080
2026-01-09 23:25:53.06	24.22	7.02	-53.9	-56.9	13.3	0.00e+00	0	23	0	110100480	74	4969
2026-01-09 23:25:57.06	24.44	7.31	-53.8	-56.7	13.5	0.00e+00	0	23	0	117440512	74	4817
2026-01-09 23:26:01.06	24.68	7.61	-53.6	-56.3	13.6	0.00e+00	0	23	0	124780544	73	4910
2026-01-09 23:26:05.06	24.91	7.90	-53.5	-56.2	13.7	0.00e+00	0	23	0	133169152	73	4820
2026-01-09 23:26:09.06	25.15	8.20	-53.4	-56.1	13.8	0.00e+00	0	23	0	140509184	73	4763
2026-01-09 23:26:13.06	25.40	8.50	-53.3	-55.9	14.0	0.00e+00	0	23	0	147849216	73	4652
2026-01-09 23:26:17.05	25.65	8.81	-53.1	-55.5	14.0	0.00e+00	0	23	0	155189248	72	4740
2026-01-09 23:26:21.04	25.91	9.12	-53.0	-55.4	14.2	0.00e+00	0	23	0	162529280	72	4657
2026-01-09 23:26:25.04	26.17	9.43	-52.8	-55.2	14.3	0.00e+00	0	23	0	169869312	72	4551
2026-01-09 23:26:29.04	26.43	9.74	-52.6	-54.8	14.3	0.00e+00	0	23	0	177209344	71	4637
2026-01-09 23:26:33.01	26.70	10.06	-52.6	-54.8	14.4	0.00e+00	0	23	0	185597952	71	4603
2026-01-09 23:26:36.99	26.98	10.38	-52.3	-54.3	14.6	0.00e+00	0	23	0	192937984	71	4375
2026-01-09 23:26:40.97	27.26	10.71	-52.2	-54.2	14.5	0.00e+00	0	23	0	200278016	70	4593
2026-01-09 23:26:44.96	27.54	11.03	-52.0	-54.0	14.7	0.00e+00	0	23	0	207618048	70	4442
2026-01-09 23:26:48.95	27.84	11.37	-51.9	-53.9	14.8	0.00e+00	0	23	0	214958080	70	4426
2026-01-09 23:26:52.94	28.14	11.70	-52.0	-54.0	14.7	0.00e+00	0	23	0	222298112	70	4485
2026-01-09 23:26:56.93	28.44	12.05	-52.0	-54.0	14.7	0.00e+00	0	23	0	229638144	70	4464
2026-01-09 23:27:00.95	28.76	12.39	-52.1	-54.1	14.7	0.00e+00	0	23	0	236978176	70	4510
2026-01-09 23:27:04.94	29.08	12.74	-52.1	-54.2	14.6	0.00e+00	0	23	0	245366784	70	4548
2026-01-09 23:27:08.95	29.41	13.10	-52.0	-54.0	14.7	0.00e+00	0	23	0	252706816	70	4484
2026-01-09 23:27:12.94	29.75	13.46	-52.1	-54.1	14.7	0.00e+00	0	23	0	260046848	70	4530
2026-01-09 23:27:16.93	30.09	13.82	-52.2	-54.3	14.6	0.00e+00	0	23	0	267386880	70	4606
2026-01-09 23:27:20.91	30.44	14.19	-52.2	-54.3	14.6	0.00e+00	0	23	0	274726912	70	4601
2026-01-09 23:27:24.92	30.80	14.56	-52.1	-54.1	14.7	0.00e+00	0	24	0	282066944	70	4520
2026-01-09 23:27:28.89	31.17	14.94	-51.9	-53.8	14.7	0.00e+00	0	23	0	289406976	70	4378
2026-01-09 23:27:32.89	31.55	15.32	-52.1	-54.0	14.7	0.00e+00	0	23	0	297795584	70	4489
2026-01-09 23:27:36.89	31.93	15.71	-51.9	-53.9	14.8	0.00e+00	0	23	0	305135616	70	4393
2026-01-09 23:27:40.88	32.33	16.10	-51.8	-53.7	14.9	0.00e+00	0	24	0	312475648	70	4309
2026-01-09 23:27:44.87	32.74	16.49	-51.6	-53.4	14.9	0.00e+00	0	23	0	319815680	69	4405
2026-01-09 23:27:48.88	33.15	16.90	-51.8	-53.7	14.7	0.00e+00	0	23	0	327155712	69	4580
2026-01-09 23:27:52.87	33.58	17.31	-52.2	-54.3	14.5	0.00e+00	0	23	0	334495744	69	4880
2026-01-09 23:27:56.85	34.02	17.72	-52.3	-54.3	14.6	0.00e+00	0	23	0	341835776	70	4623
2026-01-09 23:28:00.84	34.47	18.14	-52.3	-54.3	14.6	0.00e+00	0	24	0	350224384	70	4612
2026-01-09 23:28:04.83	34.93	18.56	-52.6	-54.8	14.2	0.00e+00	0	23	0	357564416	70	4884
2026-01-09 23:28:08.82	35.41	18.99	-52.5	-54.7	14.4	0.00e+00	0	24	0	364904448	70	4820
2026-01-09 23:28:12.82	35.90	19.42	-52.5	-54.7	14.4	0.00e+00	0	24	0	372244480	70	4821
2026-01-09 23:28:16.82	36.40	19.87	-52.6	-54.7	14.4	0.00e+00	0	24	0	379584512	70	4865
2026-01-09 23:28:20.80	36.92	20.31	-52.7	-54.8	14.4	0.00e+00	0	24	0	386924544	71	4633
2026-01-09 23:28:24.80	37.45	20.77	-52.8	-55.0	14.4	0.00e+00	0	24	0	394264576	71	4731
2026-01-09 23:28:28.77	37.99	21.22	-52.9	-55.2	14.3	0.00e+00	0	24	0	401604608	71	4815
2026-01-09 23:28:32.77	38.56	21.69	-52.6	-54.7	14.5	0.00e+00	0	24	0	409993216	71	4595
2026-01-09 23:28:36.76	39.14	22.16	-52.2	-54.2	14.8	0.00e+00	0	23	0	417333248	71	4307
2026-01-09 23:28:40.76	39.73	22.63	-51.6	-53.5	14.9	0.00e+00	0	24	0	424673280	69	4450
2026-01-09 23:28:44.76	40.35	23.12	-51.5	-53.2	15.1	0.00e+00	0	24	0	432013312	69	4333
2026-01-09 23:28:48.76	40.98	23.61	-51.7	-53.6	14.8	0.00e+00	0	23	0	439353344	69	4503
2026-01-09 23:28:52.75	41.64	24.10	-52.1	-54.1	14.6	0.00e+00	0	23	0	446693376	69	4771
2026-01-09 23:28:56.75	42.31	24.60	-51.9	-53.7	14.8	0.00e+00	0	24	0	455081984	69	4583
2026-01-09 23:29:00.76	43.01	25.11	-51.8	-53.6	14.8	0.00e+00	0	24	0	462422016	69	4510
2026-01-09 23:29:04.75	43.73	25.61	-52.3	-54.3	14.6	0.00e+00	0	24	0	469762048	70	4634
2026-01-09 23:29:08.75	44.47	26.13	-52.3	-54.3	14.6	0.00e+00	0	23	0	477102080	70	4620
2026-01-09 23:29:12.74	45.23	26.65	-52.2	-54.2	14.7	0.00e+00	0	23	0	484442112	70	4550
2026-01-09 23:29:16.74	46.02	27.18	-52.7	-54.8	14.3	0.00e+00	0	24	0	491782144	70	4919
2026-01-09 23:29:20.73	46.84	27.71	-53.0	-55.2	14.3	0.00e+00	0	24	0	499122176	71	4821
2026-01-09 23:29:24.73	47.68	28.24	-52.2	-54.0	14.8	0.00e+00	0	23	0	507510784	70	4491
2026-01-09 23:29:28.74	48.55	28.78	-52.4	-54.4	14.6	0.00e+00	0	23	0	514850816	70	4682
2026-01-09 23:29:32.72	49.45	29.32	-52.7	-54.8	14.5	0.00e+00	0	24	0	522190848	71	4641
2026-01-09 23:29:36.72	50.38	29.86	-52.5	-54.5	14.7	0.00e+00	0	23	0	529530880	71	4463
2026-01-09 23:29:40.70	51.33	30.41	-53.0	-55.3	14.2	0.00e+00	0	23	0	536870912	71	4880
2026-01-09 23:29:44.69	52.33	30.95	-52.8	-54.9	14.5	0.00e+00	0	24	0	544210944	71	4677
2026-01-09 23:29:48.70	53.36	31.50	-53.0	-55.1	14.3	0.00e+00	0	23	0	551550976	71	4788
2026-01-09 23:29:52.69	54.42	32.05	-54.1	-56.7	13.8	0.00e+00	0	24	0	559939584	73	5109
2026-01-09 23:29:56.72	55.52	32.60	-55.9	-59.7	12.1	6.10e-06	0	24	0	567279616	77	5757
2026-01-09 23:30:00.71	56.65	33.15	-54.5	-57.3	13.6	0.00e+00	0	24	0	574619648	75	4917
2026-01-09 23:30:04.70	57.83	33.69	-55.3	-58.7	12.5	0.00e+00	0	23	0	581959680	75	5726
2026-01-09 23:30:08.68	59.03	34.23	-54.6	-57.5	13.5	0.00e+00	0	24	0	589299712	75	4988
2026-01-09 23:30:12.68	60.28	34.76	-54.6	-57.4	13.6	0.00e+00	0	24	0	596639744	75	4940
2026-01-09 23:30:16.68	61.58	35.29	-55.2	-58.3	13.0	0.00e+00	0	24	0	603979776	76	5191
2026-01-09 23:30:20.68	62.91	35.81	-54.6	-57.4	13.5	0.00e+00	0	24	0	612368384	75	4957
2026-01-09 23:30:24.68	64.29	36.32	-55.0	-58.1	13.0	0.00e+00	0	23	0	619708416	75	5394
2026-01-09 23:30:28.68	65.71	36.82	-54.5	-57.2	13.8	0.00e+00	0	24	0	627048448	75	4843
2026-01-09 23:30:32.67	67.17	37.31	-54.6	-57.5	13.3	0.00e+00	0	23	0	634388480	74	5293
2026-01-09 23:30:36.64	68.66	37.78	-54.0	-56.5	13.9	0.00e+00	0	24	0	641728512	74	4734
2026-01-09 23:30:40.64	70.21	38.24	-54.0	-56.6	13.8	0.00e+00	0	24	0	649068544	73	5045
2026-01-09 23:30:44.64	71.80	38.68	-54.1	-56.7	13.8	0.00e+00	0	24	0	656408576	74	4853
2026-01-09 23:30:48.64	73.44	39.10	-53.2	-55.3	14.4	0.00e+00	0	24	0	664797184	72	4642
2026-01-09 23:30:52.62	75.11	39.50	-54.1	-56.7	13.7	0.00e+00	0	24	0	672137216	73	5137
2026-01-09 23:30:56.62	76.82	39.88	-53.1	-55.2	14.5	0.00e+00	0	24	0	679477248	72	4575
2026-01-09 23:31:00.64	78.58	40.23	-54.9	-57.9	13.2	0.00e+00	0	24	0	686817280	75	5241
2026-01-09 23:31:04.63	80.37	40.56	-54.2	-56.7	13.8	0.00e+00	0	23	0	694157312	74	4854
2026-01-09 23:31:08.63	82.20	40.85	-54.3	-57.0	13.6	0.00e+00	0	24	0	701497344	73	5290
2026-01-09 23:31:12.62	84.05	41.12	-55.0	-58.0	13.4	0.00e+00	0	24	0	708837376	76	5009
2026-01-09 23:31:16.62	85.94	41.35	-55.5	-58.8	12.8	0.00e+00	0	24	0	717225984	76	5466
2026-01-09 23:31:20.63	87.85	41.55	-56.3	-60.5	11.6	2.05e-05	0	23	0	724566016	77	6291
2026-01-09 23:31:24.64	89.79	41.72	-55.5	-58.8	12.9	0.00e+00	0	24	0	731906048	77	5164
2026-01-09 23:31:28.64	91.74	41.85	-56.1	-60.1	12.0	1.50e-06	0	24	0	739246080	77	6030
2026-01-09 23:31:32.63	93.70	41.95	-55.6	-59.0	12.8	2.13e-05	0	24	0	746586112	77	5291
2026-01-09 23:31:36.61	95.67	42.01	-55.4	-58.8	12.6	7.00e-07	0	24	0	753926144	75	5806
2026-01-09 23:31:40.61	97.65	42.03	-53.8	-56.1	14.3	0.00e+00	0	24	0	761266176	74	4522
2026-01-09 23:31:44.60	99.62	42.01	-54.4	-57.1	13.8	0.00e+00	0	24	0	769654784	75	4763
2026-01-09 23:31:48.59	101.60	41.96	-54.5	-57.2	13.7	0.00e+00	0	24	0	776994816	75	4844
2026-01-09 23:31:52.58	103.56	41.87	-55.7	-59.4	12.3	0.00e+00	0	24	0	784334848	76	5898
2026-01-09 23:31:56.58	105.51	41.74	-54.3	-56.9	13.8	0.00e+00	0	23	0	791674880	74	4934
2026-01-09 23:32:00.58	107.45	41.58	-54.0	-56.4	13.9	0.00e+00	0	24	0	799014912	73	4961
2026-01-09 23:32:04.58	109.37	41.38	-54.6	-57.3	13.6	0.00e+00	0	24	0	806354944	75	4917
2026-01-09 23:32:08.58	111.26	41.15	-56.5	-60.8	11.2	9.90e-06	0	24	0	814743552	78	6200
2026-01-09 23:32:12.56	113.11	40.89	-54.2	-56.7	13.9	0.00e+00	0	24	0	822083584	74	4860
2026-01-09 23:32:16.56	114.95	40.60	-53.0	-55.1	14.5	0.00e+00	0	24	0	829423616	71	4800
2026-01-09 23:32:20.55	116.74	40.27	-53.8	-56.3	13.8	0.00e+00	0	24	0	836763648	72	5197
2026-01-09 23:32:24.53	118.49	39.93	-52.0	-53.8	15.0	0.00e+00	0	24	0	844103680	70	4379
2026-01-09 23:32:28.53	120.22	39.55	-51.0	-52.6	15.2	0.00e+00	0	23	0	851443712	68	4273
2026-01-09 23:32:32.52	121.90	39.16	-50.5	-52.1	15.1	0.00e+00	0	24	0	858783744	66	4536
2026-01-09 23:32:36.51	123.54	38.74	-50.6	-52.2	15.1	0.00e+00	0	24	0	866123776	66	4587
2026-01-09 23:32:40.49	125.13	38.30	-49.6	-50.9	15.6	0.00e+00	0	24	0	874512384	65	4185
2026-01-09 23:32:44.48	126.69	37.84	-48.6	-49.9	15.5	0.00e+00	0	24	0	881852416	63	4178
2026-01-09 23:32:48.49	128.21	37.37	-49.8	-51.3	15.3	0.00e+00	0	24	0	889192448	65	4375
2026-01-09 23:32:52.48	129.67	36.88	-48.8	-50.2	15.5	0.00e+00	0	24	0	896532480	64	4067
2026-01-09 23:32:56.48	131.10	36.38	-49.3	-50.7	15.3	0.00e+00	0	24	0	903872512	64	4334
2026-01-09 23:33:00.49	132.49	35.87	-50.7	-52.3	15.0	0.00e+00	0	24	0	911212544	66	4651
2026-01-09 23:33:04.48	133.83	35.35	-50.5	-52.1	15.3	0.00e+00	0	24	0	918552576	67	4264
2026-01-09 23:33:08.48	135.13	34.82	-49.8	-51.2	15.5	0.00e+00	0	24	0	926941184	66	4097
2026-01-09 23:33:12.46	136.39	34.28	-53.0	-55.2	14.3	0.00e+00	0	24	0	934281216	71	4839
2026-01-09 23:33:16.46	137.61	33.74	-51.4	-53.1	14.9	0.00e+00	0	24	0	941621248	68	4541
2026-01-09 23:33:20.45	138.79	33.20	-54.2	-56.9	13.8	0.00e+00	0	24	0	948961280	75	4682
2026-01-09 23:33:24.45	139.93	32.65	-53.1	-55.3	14.2	0.00e+00	0	24	0	956301312	71	4916
2026-01-09 23:33:28.45	141.04	32.10	-53.2	-55.4	14.4	0.00e+00	0	24	0	963641344	73	4412
2026-01-09 23:33:32.45	142.11	31.55	-52.8	-54.9	14.3	0.00e+00	0	24	0	970981376	70	4928
2026-01-09 23:33:36.44	143.14	31.00	-53.5	-55.9	14.2	0.00e+00	0	24	0	979369984	73	4663
2026-01-09 23:33:40.42	144.13	30.45	-52.6	-54.7	14.4	0.00e+00	0	24	0	986710016	70	4850
2026-01-09 23:33:44.41	145.10	29.90	-53.0	-55.2	14.4	0.00e+00	0	24	0	994050048	72	4549
2026-01-09 23:33:48.40	146.03	29.36	-51.6	-53.4	14.8	0.00e+00	0	24	0	1001390080	68	4692
2026-01-09 23:33:52.39	146.94	28.81	-53.2	-55.6	14.4	0.00e+00	0	24	0	1008730112	73	4495
2026-01-09 23:33:56.41	147.82	28.27	-50.6	-52.3	15.1	0.00e+00	0	24	0	1016070144	67	4345
2026-01-09 23:34:00.40	148.66	27.73	-53.0	-55.3	14.3	0.00e+00	0	24	0	1023410176	71	4875
2026-01-09 23:34:04.40	149.48	27.20	-51.7	-53.5	15.0	0.00e+00	0	24	0	1031798784	70	4213
2026-01-09 23:34:08.39	150.28	26.67	-52.0	-53.9	14.7	0.00e+00	0	24	0	1039138816	69	4697
2026-01-09 23:34:12.39	151.05	26.15	-52.0	-53.9	14.9	0.00e+00	0	24	0	1046478848	70	4395
2026-01-09 23:34:16.37	151.79	25.63	-51.1	-52.7	15.1	0.00e+00	0	24	0	1053818880	68	4327
2026-01-09 23:34:20.36	152.51	25.12	-50.7	-52.4	15.1	0.00e+00	0	24	0	1061158912	67	4405
2026-01-09 23:34:24.36	153.21	24.61	-51.3	-53.1	14.7	0.00e+00	0	24	0	1068498944	67	4800
2026-01-09 23:34:28.34	153.88	24.11	-51.4	-53.2	14.8	0.00e+00	0	24	0	1075838976	68	4571
2026-01-09 23:34:32.32	154.54	23.62	-51.1	-52.8	15.0	0.00e+00	0	24	0	1084227584	68	4376
2026-01-09 23:34:36.29	155.17	23.13	-51.8	-53.7	14.6	0.00e+00	0	24	0	1091567616	68	4859
2026-01-09 23:34:40.29	155.79	22.64	-52.8	-55.1	14.2	0.00e+00	0	24	0	1098907648	70	5042
2026-01-09 23:34:44.28	156.39	22.16	-52.1	-54.0	14.8	0.00e+00	0	24	0	1106247680	70	4457
2026-01-09 23:34:48.26	156.97	21.69	-52.3	-54.3	14.6	0.00e+00	0	24	0	1113587712	70	4623
2026-01-09 23:34:52.24	157.54	21.22	-52.9	-55.1	14.1	0.00e+00	0	24	0	1120927744	70	5069
2026-01-09 23:34:56.24	158.09	20.76	-52.0	-53.9	14.8	0.00e+00	0	24	0	1128267776	70	4428
2026-01-09 23:35:00.25	158.62	20.30	-51.3	-53.0	15.1	0.00e+00	0	24	0	1135607808	69	4242
2026-01-09 23:35:04.24	159.14	19.85	-51.1	-52.8	15.0	0.00e+00	0	24	0	1143996416	68	4386
2026-01-09 23:35:08.23	159.64	19.41	-51.9	-53.9	14.6	0.00e+00	0	24	0	1151336448	69	4664
2026-01-09 23:35:12.22	160.13	18.97	-52.0	-54.0	14.6	0.00e+00	0	24	0	1158676480	69	4714
2026-01-09 23:35:16.22	160.61	18.54	-51.4	-53.2	15.0	0.00e+00	0	24	0	1166016512	69	4314
2026-01-09 23:35:20.22	161.08	18.11	-50.9	-52.6	15.1	0.00e+00	0	24	0	1173356544	68	4250
2026-01-09 23:35:24.20	161.53	17.69	-51.7	-53.5	14.6	0.00e+00	0	23	0	1180696576	68	4754
2026-01-09 23:35:28.20	161.97	17.28	-51.9	-53.9	14.6	0.00e+00	0	24	0	1188036608	69	4675
2026-01-09 23:35:32.19	162.40	16.87	-52.3	-54.4	14.3	0.00e+00	0	24	0	1196425216	69	4946
2026-01-09 23:35:36.18	162.81	16.46	-52.9	-55.2	14.2	0.00e+00	0	23	0	1203765248	71	4835
2026-01-09 23:35:40.17	163.22	16.06	-53.7	-56.3	13.6	0.00e+00	0	23	0	1211105280	72	5187
2026-01-09 23:35:44.18	163.62	15.67	-53.7	-56.4	13.8	0.00e+00	0	24	0	1218445312	73	4927
2026-01-09 23:35:48.17	164.01	15.28	-53.6	-56.1	13.9	0.00e+00	0	24	0	1225785344	73	4778
2026-01-09 23:35:52.16	164.39	14.89	-52.5	-54.6	14.5	0.00e+00	0	23	0	1233125376	71	4542
2026-01-09 23:35:56.16	164.75	14.51	-51.9	-53.9	14.8	0.00e+00	0	24	0	1240465408	70	4401
2026-01-09 23:36:00.16	165.11	14.14	-51.4	-53.2	14.9	0.00e+00	0	23	0	1248854016	69	4331
2026-01-09 23:36:04.15	165.47	13.77	-51.4	-53.2	14.9	0.00e+00	0	23	0	1256194048	69	4298
2026-01-09 23:36:08.14	165.81	13.40	-51.5	-53.4	14.8	0.00e+00	0	24	0	1263534080	69	4430
2026-01-09 23:36:12.15	166.15	13.04	-52.0	-54.1	14.5	0.00e+00	0	24	0	1270874112	69	4760
2026-01-09 23:36:16.15	166.47	12.68	-52.3	-54.4	14.3	0.00e+00	0	23	0	1278214144	69	4963
2026-01-09 23:36:20.15	166.79	12.33	-52.7	-55.0	14.1	0.00e+00	0	23	0	1285554176	70	4994
2026-01-09 23:36:24.14	167.11	11.98	-52.7	-55.0	14.1	0.00e+00	0	24	0	1292894208	70	5038
2026-01-09 23:36:28.13	167.41	11.64	-52.8	-55.2	14.0	0.00e+00	0	23	0	1301282816	70	5131
2026-01-09 23:36:32.13	167.71	11.30	-52.9	-55.3	14.1	0.00e+00	0	24	0	1308622848	71	4903
2026-01-09 23:36:36.11	168.01	10.97	-52.9	-55.3	14.1	0.00e+00	0	24	0	1315962880	71	4883
2026-01-09 23:36:40.10	168.29	10.63	-53.0	-55.5	13.9	0.00e+00	0	23	0	1323302912	71	4985
2026-01-09 23:36:44.08	168.57	10.31	-53.1	-55.6	13.8	0.00e+00	0	24	0	1330642944	71	5098
2026-01-09 23:36:48.07	168.85	9.98	-53.3	-56.0	13.6	0.00e+00	0	24	0	1337982976	71	5305
2026-01-09 23:36:52.05	169.12	9.67	-53.3	-55.9	13.8	0.00e+00	0	23	0	1345323008	72	4975
2026-01-09 23:36:56.05	169.38	9.35	-53.2	-55.8	13.9	0.00e+00	0	23	0	1353711616	72	4887
2026-01-09 23:37:00.04	169.64	9.04	-53.1	-55.6	13.9	0.00e+00	0	23	0	1361051648	72	4776
2026-01-09 23:37:04.03	169.89	8.73	-52.9	-55.3	14.1	0.00e+00	0	23	0	1368391680	72	4651
2026-01-09 23:37:08.03	170.14	8.42	-52.9	-55.3	14.1	0.00e+00	0	24	0	1375731712	72	4617
2026-01-09 23:37:12.03	170.38	8.12	-52.9	-55.3	14.1	0.00e+00	0	24	0	1383071744	72	4648
2026-01-09 23:37:16.04	170.62	7.81	-53.0	-55.4	14.0	0.00e+00	0	24	0	1390411776	72	4700
2026-01-09 23:37:20.03	170.86	7.52	-53.1	-55.7	13.9	0.00e+00	0	24	0	1397751808	72	4819
2026-01-09 23:37:24.03	171.09	7.22	-53.3	-55.9	13.7	0.00e+00	0	24	0	1406140416	72	4977
2026-01-09 23:37:28.04	171.32	6.93	-53.4	-56.1	13.6	0.00e+00	0	23	0	1413480448	72	5079
2026-01-09 23:37:32.04	171.54	6.64	-53.5	-56.3	13.4	0.00e+00	0	24	0	1420820480	72	5216
2026-01-09 23:37:36.04	171.76	6.36	-53.8	-57.0	12.9	0.00e+00	0	24	0	1428160512	72	5615
2026-01-09 23:37:40.03	171.97	6.08	-54.0	-57.2	12.9	0.00e+00	0	24	0	1435500544	73	5433
2026-01-09 23:37:44.02	172.18	5.80	-54.3	-57.9	12.4	0.00e+00	0	24	0	1442840576	73	5901
2026-01-09 23:37:48.01	172.38	5.52	-54.3	-58.0	12.3	0.00e+00	0	24	0	1450180608	73	5943
2026-01-09 23:37:52.01	172.59	5.25	-54.4	-58.1	12.3	3.00e-06	0	24	0	1458569216	74	5692
2026-01-09 23:37:56.00	172.79	4.97	-57.7	-73.6	3.8	6.94e-01	0	24	104	1464860672	80	24055
2026-01-09 23:37:59.99	172.98	4.71	-58.7	-74.7	3.8	1.49e+00	0	24	104	1464860672	82	24324
2026-01-09 23:38:03.99	173.18	4.44	-59.1	-75.1	3.8	1.49e+00	0	24	104	1464860672	83	24058
2026-01-09 23:38:07.99	173.36	4.17	-59.3	-75.3	3.8	1.49e+00	0	24	104	1464860672	83	24620
2026-01-09 23:38:12.00	173.55	3.91	-59.3	-75.4	3.8	1.49e+00	0	24	104	1464860672	83	24869
2026-01-09 23:38:16.01	173.74	3.65	-59.4	-75.5	3.8	1.49e+00	0	24	104	1464860672	83	25003
2026-01-09 23:38:20.02	173.92	3.39	-59.4	-75.4	3.8	1.49e+00	0	24	104	1464860672	83	24945
2026-01-09 23:38:24.01	174.09	3.14	-59.3	-75.4	3.8	1.49e+00	0	24	104	1464860672	83	24752
2026-01-09 23:38:28.02	174.27	2.88	-59.2	-75.3	3.8	1.49e+00	0	24	104	1464860672	83	24548
2026-01-09 23:38:32.03	174.44	2.63	-59.2	-75.3	3.8	1.49e+00	0	24	104	1464860672	83	24446
2026-01-09 23:38:36.03	174.61	2.38	-59.2	-75.3	3.8	1.49e+00	0	24	104	1464860672	83	24555
2026-01-09 23:38:40.01	174.78	2.14	-59.2	-75.3	3.8	1.49e+00	0	24	104	1464860672	83	24551

#Closed at: 2026-01-09 23:38:43
#Recorded file [1464 MB]: D:/lorett/data/31004_260110_022436.dat