passes_logs/2026/01/09/R3.2S_Murmansk/R3.2S_Murmansk__20260109_122146_TY-42_rec.log

#Pass ID: 20260109_122146_TY-42
#Satellite: TY-42
#Configuration: TY-42_900M
#almurnet v.1.7.20251203
#Start time: 2026-01-09 12:21:46

#Version: 2.2.20231116
#Station: R3.2S_Murmansk
#Location: 33.079688 lon 68.888172 lat
#TLE: 1 64048U 25103A   26008.64993056  .00008011  00000-0  38191-3 0 09996
#TLE: 2 64048 097.4110 084.1864 0001712 091.7426 302.1052 15.19171442 35856

#Time	Az	El	Level	Level2	SNR	BER	BlckErr	Temp	State	Recorded	gain1	gain2
2026-01-09 12:21:46.42	29.59	1.97	-56.9	-60.1	6.1	0.00e+00	0	29	0	0	80	21023
2026-01-09 12:21:49.41	29.29	2.15	-57.0	-60.2	6.2	0.00e+00	0	29	104	0	81	20054
2026-01-09 12:21:52.40	28.98	2.32	-57.0	-60.2	6.2	0.00e+00	0	29	104	0	81	20026
2026-01-09 12:21:55.40	28.66	2.49	-57.0	-60.2	6.2	0.00e+00	0	29	104	0	81	20003
2026-01-09 12:21:58.38	28.34	2.67	-57.0	-60.2	6.2	0.00e+00	0	29	104	0	81	20097
2026-01-09 12:22:01.36	28.02	2.84	-57.0	-60.2	6.2	0.00e+00	0	29	104	0	81	20042
2026-01-09 12:22:04.36	27.69	3.02	-57.0	-60.2	6.2	0.00e+00	0	30	104	0	81	20119
2026-01-09 12:22:07.35	27.35	3.20	-57.0	-60.2	6.2	0.00e+00	0	30	104	0	81	20058
2026-01-09 12:22:10.32	27.02	3.37	-57.0	-60.2	6.2	0.00e+00	0	30	104	0	81	20065
2026-01-09 12:22:13.31	26.67	3.55	-57.0	-60.3	6.2	0.00e+00	0	30	104	0	81	20185
2026-01-09 12:22:16.30	26.32	3.73	-57.0	-60.3	6.2	0.00e+00	0	30	104	0	81	20212
2026-01-09 12:22:19.30	25.96	3.91	-57.1	-60.3	6.2	0.00e+00	0	30	104	0	81	20175
2026-01-09 12:22:22.30	25.60	4.09	-57.1	-60.3	6.2	0.00e+00	0	31	104	0	81	20175
2026-01-09 12:22:25.28	25.23	4.28	-57.1	-60.3	6.2	0.00e+00	0	30	104	0	81	20179
2026-01-09 12:22:28.28	24.85	4.46	-57.1	-60.3	6.2	0.00e+00	0	31	104	0	81	20186
2026-01-09 12:22:31.26	24.48	4.64	-57.0	-60.3	6.2	0.00e+00	0	31	104	0	81	20214
2026-01-09 12:22:34.24	24.09	4.82	-57.1	-60.3	6.2	0.00e+00	0	31	104	0	81	20194
2026-01-09 12:22:37.23	23.70	5.01	-57.1	-60.3	6.2	0.00e+00	0	31	104	0	81	20213
2026-01-09 12:22:40.22	23.30	5.19	-57.2	-60.4	6.2	0.00e+00	0	31	104	0	81	20505
2026-01-09 12:22:43.20	22.89	5.38	-57.1	-60.3	6.2	0.00e+00	0	31	104	0	81	20284
2026-01-09 12:22:46.18	22.48	5.56	-57.3	-60.5	6.2	0.00e+00	0	31	104	0	81	20844
2026-01-09 12:22:49.16	22.06	5.75	-57.2	-60.4	6.2	0.00e+00	0	31	104	0	81	20519
2026-01-09 12:22:52.14	21.64	5.93	-57.3	-60.5	6.2	0.00e+00	0	31	104	0	81	20788
2026-01-09 12:22:55.12	21.20	6.12	-57.3	-60.4	6.2	0.00e+00	0	31	104	0	81	20599
2026-01-09 12:22:58.09	20.77	6.31	-57.4	-60.7	6.2	0.00e+00	0	31	104	0	81	21119
2026-01-09 12:23:01.06	20.32	6.49	-57.3	-60.6	6.2	0.00e+00	0	31	104	0	81	20939
2026-01-09 12:23:04.03	19.87	6.68	-57.4	-60.6	6.2	0.00e+00	0	31	104	0	81	21040
2026-01-09 12:23:07.02	19.41	6.87	-57.4	-60.6	6.2	0.00e+00	0	31	104	0	81	20958
2026-01-09 12:23:10.01	18.94	7.06	-57.5	-60.7	6.2	0.00e+00	0	31	104	0	81	21300
2026-01-09 12:23:13.00	18.46	7.25	-57.4	-60.6	6.2	0.00e+00	0	31	104	0	81	21063
2026-01-09 12:23:15.98	17.97	7.44	-57.5	-60.7	6.2	0.00e+00	0	31	104	0	81	21298
2026-01-09 12:23:18.97	17.48	7.63	-57.4	-60.6	6.2	0.00e+00	0	31	104	0	81	21114
2026-01-09 12:23:21.94	16.98	7.82	-57.6	-60.8	6.1	0.00e+00	0	31	104	0	81	21471
2026-01-09 12:23:24.90	16.47	8.01	-57.5	-60.7	6.2	0.00e+00	0	31	104	0	81	21334
2026-01-09 12:23:27.88	15.95	8.20	-57.6	-60.8	6.2	0.00e+00	0	32	104	0	81	21495
2026-01-09 12:23:30.87	15.42	8.39	-57.6	-60.8	6.1	0.00e+00	0	31	104	0	81	21451
2026-01-09 12:23:33.85	14.89	8.58	-57.6	-60.9	6.2	0.00e+00	0	32	104	0	81	21684
2026-01-09 12:23:36.84	14.34	8.77	-57.6	-60.8	6.2	0.00e+00	0	32	104	0	81	21505
2026-01-09 12:23:39.84	13.79	8.96	-57.7	-60.9	6.1	0.00e+00	0	32	104	0	81	21689
2026-01-09 12:23:42.81	13.23	9.14	-57.6	-60.9	6.2	0.00e+00	0	32	104	0	81	21613
2026-01-09 12:23:45.80	12.65	9.33	-57.7	-60.9	6.2	0.00e+00	0	32	104	0	81	21801
2026-01-09 12:23:48.78	12.07	9.52	-57.7	-60.9	6.1	0.00e+00	0	32	104	0	81	21743
2026-01-09 12:23:51.76	11.48	9.71	-57.7	-61.0	6.2	0.00e+00	0	32	104	0	81	21863
2026-01-09 12:23:54.76	10.88	9.90	-57.7	-60.9	6.2	0.00e+00	0	32	104	0	81	21810
2026-01-09 12:23:57.74	10.27	10.08	-57.8	-61.1	6.2	0.00e+00	0	32	104	0	81	22111
2026-01-09 12:24:00.72	9.65	10.27	-57.8	-61.0	6.2	0.00e+00	0	32	104	0	81	21924
2026-01-09 12:24:03.71	9.02	10.45	-57.8	-61.0	6.2	0.00e+00	0	32	104	0	81	21990
2026-01-09 12:24:06.69	8.38	10.64	-57.8	-61.0	6.2	0.00e+00	0	32	104	0	81	22087
2026-01-09 12:24:09.67	7.74	10.82	-57.8	-61.1	6.1	0.00e+00	0	32	104	0	81	22202
2026-01-09 12:24:12.65	7.08	11.00	-57.8	-61.1	6.2	0.00e+00	0	32	104	0	81	22115
2026-01-09 12:24:15.65	6.41	11.18	-57.9	-61.1	6.2	0.00e+00	0	32	104	0	81	22278
2026-01-09 12:24:18.64	5.72	11.36	-57.9	-61.1	6.1	0.00e+00	0	32	104	0	81	22261
2026-01-09 12:24:21.62	5.04	11.53	-57.9	-61.1	6.2	0.00e+00	0	32	104	0	81	22346
2026-01-09 12:24:24.62	4.33	11.71	-57.9	-61.1	6.2	0.00e+00	0	32	104	0	81	22317
2026-01-09 12:24:27.61	3.62	11.88	-57.9	-61.1	6.2	0.00e+00	0	32	104	0	81	22233
2026-01-09 12:24:30.60	2.90	12.05	-57.9	-61.2	6.2	0.00e+00	0	32	104	0	81	22379
2026-01-09 12:24:33.61	2.17	12.22	-57.9	-61.2	6.2	0.00e+00	0	32	104	0	81	22390
2026-01-09 12:24:36.62	1.42	12.38	-57.9	-61.1	6.2	0.00e+00	0	32	104	0	81	22360
2026-01-09 12:24:39.61	0.67	12.55	-57.9	-61.2	6.2	0.00e+00	0	32	104	0	81	22404
2026-01-09 12:24:42.61	359.90	12.71	-58.0	-61.2	6.1	0.00e+00	0	32	104	0	81	22505
2026-01-09 12:24:45.61	359.13	12.87	-58.0	-61.2	6.2	0.00e+00	0	32	104	0	81	22590
2026-01-09 12:24:48.61	358.34	13.02	-58.0	-61.2	6.2	0.00e+00	0	32	104	0	81	22550
2026-01-09 12:24:51.61	357.55	13.17	-58.0	-61.2	6.1	0.00e+00	0	32	104	0	81	22545
2026-01-09 12:24:54.61	356.75	13.32	-58.0	-61.2	6.1	0.00e+00	0	32	104	0	81	22608
2026-01-09 12:24:57.61	355.93	13.46	-58.0	-61.3	6.2	0.00e+00	0	32	104	0	81	22667
2026-01-09 12:25:00.59	355.11	13.60	-58.0	-61.2	6.1	0.00e+00	0	32	104	0	81	22557
2026-01-09 12:25:03.59	354.28	13.73	-58.0	-61.3	6.2	0.00e+00	0	32	104	0	81	22628
2026-01-09 12:25:06.59	353.44	13.87	-58.0	-61.3	6.2	0.00e+00	0	32	104	0	81	22684
2026-01-09 12:25:09.59	352.59	13.99	-58.1	-61.3	6.2	0.00e+00	0	32	104	0	81	22794
2026-01-09 12:25:12.58	351.74	14.11	-58.1	-61.3	6.1	0.00e+00	0	32	104	0	81	22816
2026-01-09 12:25:15.56	350.87	14.23	-58.1	-61.3	6.1	0.00e+00	0	32	104	0	81	22816
2026-01-09 12:25:18.55	350.00	14.34	-58.2	-61.4	6.2	0.00e+00	0	33	104	0	82	21700
2026-01-09 12:25:21.54	349.12	14.45	-58.2	-61.4	6.1	0.00e+00	0	33	104	0	82	21802
2026-01-09 12:25:24.53	348.23	14.55	-58.2	-61.4	6.2	0.00e+00	0	33	104	0	82	21768
2026-01-09 12:25:27.51	347.34	14.64	-58.3	-61.5	6.2	0.00e+00	0	33	104	0	82	21928
2026-01-09 12:25:30.48	346.45	14.73	-58.3	-61.5	6.2	0.00e+00	0	33	104	0	82	21894
2026-01-09 12:25:33.47	345.54	14.82	-58.3	-61.5	6.2	0.00e+00	0	33	104	0	82	21943
2026-01-09 12:25:36.46	344.63	14.90	-58.2	-61.5	6.2	0.00e+00	0	32	104	0	82	21861
2026-01-09 12:25:39.45	343.71	14.97	-58.2	-61.5	6.2	0.00e+00	0	33	104	0	82	21883
2026-01-09 12:25:42.43	342.79	15.03	-58.3	-61.5	6.2	0.00e+00	0	32	104	0	82	21929
2026-01-09 12:25:45.43	341.86	15.09	-58.3	-61.5	6.2	0.00e+00	0	33	104	0	82	21980
2026-01-09 12:25:48.43	340.92	15.15	-58.3	-61.5	6.1	0.00e+00	0	33	104	0	82	21916
2026-01-09 12:25:51.43	339.98	15.19	-58.3	-61.5	6.1	0.00e+00	0	32	104	0	82	21934
2026-01-09 12:25:54.42	339.04	15.23	-58.3	-61.5	6.2	0.00e+00	0	32	104	0	82	22059
2026-01-09 12:25:57.43	338.09	15.27	-58.3	-61.5	6.2	0.00e+00	0	32	104	0	82	22006
2026-01-09 12:26:00.41	337.15	15.29	-58.3	-61.6	6.2	0.00e+00	0	32	104	0	82	22127
2026-01-09 12:26:03.41	336.20	15.31	-58.3	-61.5	6.2	0.00e+00	0	32	104	0	82	22079
2026-01-09 12:26:06.41	335.25	15.33	-58.3	-61.5	6.2	0.00e+00	0	33	104	0	82	22104
2026-01-09 12:26:09.40	334.30	15.33	-58.3	-61.5	6.2	0.00e+00	0	32	104	0	82	22078
2026-01-09 12:26:12.41	333.35	15.33	-58.3	-61.5	6.2	0.00e+00	0	33	104	0	82	22079
2026-01-09 12:26:15.41	332.40	15.32	-58.3	-61.5	6.2	0.00e+00	0	33	104	0	82	22000
2026-01-09 12:26:18.42	331.44	15.31	-58.3	-61.5	6.1	0.00e+00	0	32	104	0	82	22012
2026-01-09 12:26:21.41	330.50	15.29	-42.2	-42.5	12.2	3.04e-02	0	33	0	67108864	51	14696
2026-01-09 12:26:24.40	329.55	15.26	-39.2	-39.4	12.5	0.00e+00	0	34	0	327155712	45	14586
2026-01-09 12:26:27.39	328.61	15.22	-39.2	-39.4	12.5	2.74e-02	0	34	0	662700032	45	14590
2026-01-09 12:26:30.39	327.67	15.18	-39.2	-39.5	12.5	4.88e-03	0	34	0	1006632960	45	14640
2026-01-09 12:26:33.38	326.73	15.13	-39.0	-39.3	12.5	4.23e-03	0	34	0	1342177280	44	15220
2026-01-09 12:26:36.36	325.80	15.08	-38.8	-39.1	12.6	4.08e-03	0	34	0	1669332992	44	14889
2026-01-09 12:26:39.37	324.87	15.01	-38.7	-39.0	12.6	3.34e-03	0	34	0	2013265920	44	14644
2026-01-09 12:26:42.36	323.95	14.95	-38.7	-39.0	12.6	2.45e-03	0	34	0	2348810240	44	14769
2026-01-09 12:26:45.35	323.03	14.87	-38.8	-39.1	12.6	2.54e-03	0	34	0	2684354560	44	14802
2026-01-09 12:26:48.34	322.12	14.79	-38.7	-39.0	12.6	2.41e-03	0	34	0	3019898880	44	14676
2026-01-09 12:26:51.33	321.21	14.70	-38.8	-39.1	12.6	2.79e-03	0	35	0	3363831808	44	14930
2026-01-09 12:26:54.32	320.31	14.61	-38.9	-39.3	12.5	5.14e-03	0	35	0	3699376128	44	15124
2026-01-09 12:26:57.32	319.41	14.51	-38.9	-39.3	12.5	3.65e-03	0	35	0	4034920448	44	15139
2026-01-09 12:27:00.31	318.53	14.41	-39.0	-39.3	12.5	3.20e-03	0	35	0	4370464768	44	15224
2026-01-09 12:27:03.29	317.65	14.30	-38.9	-39.2	12.5	3.40e-03	0	35	0	4706009088	44	15062
2026-01-09 12:27:06.28	316.78	14.19	-38.8	-39.1	12.5	3.41e-03	0	35	0	5041553408	44	14881
2026-01-09 12:27:09.27	315.92	14.07	-39.0	-39.4	12.5	2.84e-03	0	35	0	5377097728	44	15320
2026-01-09 12:27:12.24	315.07	13.95	-39.0	-39.3	12.5	5.98e-03	0	35	0	5712642048	44	15231
2026-01-09 12:27:15.25	314.22	13.82	-39.2	-39.6	12.5	8.47e-03	0	35	0	6048186368	44	15714
2026-01-09 12:27:18.25	313.38	13.69	-58.4	-61.6	6.2	8.15e-03	0	35	104	6266290176	82	22316
2026-01-09 12:27:21.21	312.56	13.55	-58.4	-61.6	6.2	5.81e-03	0	35	104	6266290176	82	22281
2026-01-09 12:27:24.19	311.74	13.41	-58.4	-61.6	6.2	5.81e-03	0	34	104	6266290176	82	22180
2026-01-09 12:27:27.17	310.94	13.27	-58.4	-61.7	6.2	5.81e-03	0	34	104	6266290176	82	22432
2026-01-09 12:27:30.16	310.14	13.12	-58.3	-61.6	6.2	5.81e-03	0	34	104	6266290176	82	22162
2026-01-09 12:27:33.16	309.34	12.97	-58.4	-61.6	6.1	5.81e-03	0	34	104	6266290176	82	22280
2026-01-09 12:27:36.16	308.56	12.81	-58.4	-61.6	6.1	5.81e-03	0	34	104	6266290176	82	22160
2026-01-09 12:27:39.16	307.79	12.66	-58.4	-61.6	6.1	0.00e+00	0	34	104	6266290176	82	22292
2026-01-09 12:27:42.16	307.03	12.49	-58.3	-61.5	6.2	0.00e+00	0	34	104	6266290176	82	22029
2026-01-09 12:27:45.17	306.27	12.33	-58.2	-61.6	6.2	0.00e+00	0	34	104	6266290176	82	22174
2026-01-09 12:27:48.18	305.53	12.16	-58.3	-61.6	6.1	0.00e+00	0	34	104	6266290176	82	22125
2026-01-09 12:27:51.18	304.79	11.99	-58.3	-61.6	6.1	0.00e+00	0	34	104	6266290176	82	22118
2026-01-09 12:27:54.18	304.07	11.82	-58.3	-61.5	6.2	0.00e+00	0	34	104	6266290176	82	21961
2026-01-09 12:27:57.17	303.36	11.65	-58.3	-61.5	6.2	0.00e+00	0	34	104	6266290176	82	22019
2026-01-09 12:28:00.17	302.66	11.47	-58.3	-61.5	6.2	0.00e+00	0	34	104	6266290176	82	21989
2026-01-09 12:28:03.16	301.97	11.29	-58.3	-61.5	6.2	0.00e+00	0	33	104	6266290176	82	22105
2026-01-09 12:28:06.16	301.29	11.11	-58.3	-61.5	6.1	0.00e+00	0	34	104	6266290176	82	21963
2026-01-09 12:28:09.38	300.57	10.92	-58.2	-61.5	6.2	0.00e+00	0	34	104	6266290176	82	21933
2026-01-09 12:28:12.23	299.94	10.75	-58.3	-61.5	6.1	0.00e+00	0	33	104	6266290176	82	21935
2026-01-09 12:28:15.35	299.27	10.55	-58.3	-61.5	6.1	0.00e+00	0	33	104	6266290176	82	21993
2026-01-09 12:28:18.21	298.66	10.38	-58.2	-61.5	6.2	0.00e+00	0	33	104	6266290176	82	21903
2026-01-09 12:28:21.35	298.00	10.18	-58.2	-61.4	6.2	0.00e+00	0	33	104	6266290176	82	21778
2026-01-09 12:28:24.19	297.41	10.01	-58.2	-61.4	6.2	0.00e+00	0	33	104	6266290176	82	21743
2026-01-09 12:28:27.31	296.77	9.81	-58.2	-61.5	6.2	0.00e+00	0	34	104	6266290176	82	21886
2026-01-09 12:28:30.16	296.20	9.63	-58.2	-61.4	6.1	0.00e+00	0	33	104	6266290176	82	21807
2026-01-09 12:28:33.28	295.59	9.43	-58.2	-61.4	6.2	0.00e+00	0	33	104	6266290176	82	21761
2026-01-09 12:28:36.12	295.03	9.25	-58.2	-61.4	6.1	0.00e+00	0	33	104	6266290176	82	21764
2026-01-09 12:28:39.25	294.44	9.06	-58.2	-61.5	6.2	0.00e+00	0	33	104	6266290176	82	21872
2026-01-09 12:28:42.10	293.90	8.87	-58.2	-61.5	6.2	0.00e+00	0	33	104	6266290176	82	21941
2026-01-09 12:28:45.23	293.32	8.68	-58.2	-61.4	6.2	0.00e+00	0	33	104	6266290176	82	21709
2026-01-09 12:28:48.08	292.80	8.49	-58.1	-61.4	6.2	0.00e+00	0	33	104	6266290176	82	21611
2026-01-09 12:28:51.22	292.24	8.29	-58.2	-61.4	6.2	0.00e+00	0	33	104	6266290176	82	21790
2026-01-09 12:28:54.07	291.74	8.11	-58.2	-61.4	6.2	0.00e+00	0	33	104	6266290176	82	21822
2026-01-09 12:28:57.22	291.19	7.91	-58.1	-61.3	6.2	0.00e+00	0	33	104	6266290176	82	21457
2026-01-09 12:29:00.08	290.71	7.73	-58.0	-61.2	6.2	0.00e+00	0	33	104	6266290176	82	21327
2026-01-09 12:29:03.23	290.18	7.53	-58.1	-61.4	6.1	0.00e+00	0	33	104	6266290176	82	21619
2026-01-09 12:29:06.09	289.71	7.35	-58.1	-61.4	6.2	0.00e+00	0	33	104	6266290176	82	21613
2026-01-09 12:29:09.25	289.19	7.14	-58.0	-61.2	6.2	0.00e+00	0	34	104	6266290176	82	21234
2026-01-09 12:29:12.10	288.74	6.96	-57.9	-61.1	6.2	0.00e+00	0	33	104	6266290176	82	21032
2026-01-09 12:29:15.24	288.25	6.76	-58.0	-61.2	6.2	0.00e+00	0	33	104	6266290176	82	21265
2026-01-09 12:29:18.10	287.81	6.58	-58.0	-61.2	6.2	0.00e+00	0	33	104	6266290176	82	21256
2026-01-09 12:29:21.25	287.33	6.38	-57.8	-61.1	6.2	0.00e+00	0	33	104	6266290176	82	20933
2026-01-09 12:29:24.08	286.91	6.21	-57.8	-61.0	6.2	0.00e+00	0	33	104	6266290176	82	20787
2026-01-09 12:29:27.22	286.45	6.01	-57.9	-61.1	6.2	0.00e+00	0	33	104	6266290176	82	21087
2026-01-09 12:29:30.05	286.04	5.83	-57.9	-61.1	6.2	0.00e+00	0	33	104	6266290176	82	21109
2026-01-09 12:29:33.17	285.59	5.64	-57.8	-61.0	6.2	0.00e+00	0	33	104	6266290176	82	20741
2026-01-09 12:29:36.03	285.19	5.46	-57.7	-60.9	6.2	0.00e+00	0	33	104	6266290176	82	20572
2026-01-09 12:29:39.14	284.77	5.26	-57.8	-61.0	6.2	0.00e+00	0	33	104	6266290176	82	20774
2026-01-09 12:29:41.99	284.38	5.09	-57.8	-61.0	6.2	0.00e+00	0	33	104	6266290176	82	20726
2026-01-09 12:29:45.10	283.97	4.89	-58.2	-61.4	6.2	0.00e+00	0	33	104	6266290176	82	21797
2026-01-09 12:29:47.95	283.59	4.72	-58.7	-61.9	6.2	0.00e+00	0	33	104	6266290176	83	21750
2026-01-09 12:29:51.08	283.19	4.53	-59.0	-62.2	6.1	0.00e+00	0	33	104	6266290176	83	22506
2026-01-09 12:29:53.93	282.83	4.35	-59.3	-62.6	6.1	0.00e+00	0	33	104	6266290176	84	22196
2026-01-09 12:29:57.05	282.44	4.16	-59.5	-62.8	6.2	0.00e+00	0	33	104	6266290176	84	22642
2026-01-09 12:29:59.90	282.09	3.99	-59.6	-62.8	6.1	0.00e+00	0	33	104	6266290176	84	22753
2026-01-09 12:30:03.03	281.71	3.80	-59.6	-62.8	6.2	0.00e+00	0	33	104	6266290176	84	22779
2026-01-09 12:30:05.88	281.37	3.63	-59.6	-62.8	6.2	0.00e+00	0	33	104	6266290176	84	22826
2026-01-09 12:30:09.02	281.00	3.44	-59.6	-62.9	6.2	0.00e+00	0	33	104	6266290176	85	21626
2026-01-09 12:30:11.87	280.68	3.27	-59.6	-62.8	6.2	0.00e+00	0	33	104	6266290176	85	21471
2026-01-09 12:30:15.01	280.32	3.08	-59.5	-62.7	6.2	0.00e+00	0	33	104	6266290176	85	21316
2026-01-09 12:30:17.86	280.00	2.91	-59.5	-62.6	6.2	0.00e+00	0	33	104	6266290176	85	21091
2026-01-09 12:30:21.00	279.66	2.73	-59.4	-62.7	6.2	0.00e+00	0	33	104	6266290176	85	21142
2026-01-09 12:30:23.83	279.35	2.56	-59.4	-62.6	6.2	0.00e+00	0	33	104	6266290176	85	21011
2026-01-09 12:30:26.96	279.02	2.38	-59.4	-62.6	6.2	0.00e+00	0	34	104	6266290176	85	21074
2026-01-09 12:30:29.82	278.72	2.21	-59.4	-62.6	6.1	0.00e+00	0	33	104	6266290176	85	21006
2026-01-09 12:30:32.94	278.39	2.03	-59.4	-62.6	6.2	0.00e+00	0	33	104	6266290176	85	21012
2026-01-09 12:30:35.78	278.11	1.87	-59.4	-62.6	6.1	0.00e+00	0	33	104	6266290176	85	20978

#Closed at: 2026-01-09 12:30:36
#Recorded file [6266 MB]: D:/lorett/data/31004_260109_152146.dat