passes_logs/2026/01/09/R3.2S_Murmansk/R3.2S_Murmansk__20260109_234523_NOAA_20_JPSS-1_rec.log

#Pass ID: 20260109_234523_NOAA 20 (JPSS-1)
#Satellite: NOAA 20 (JPSS-1)
#Configuration: NOAA 20
#almurnet v.1.7.20251203
#Start time: 2026-01-09 23:45:23

#Version: 2.2.20231116
#Station: R3.2S_Murmansk
#Location: 33.079688 lon 68.888172 lat
#TLE: 1 43013U 17073A   26009.26828276  .00000112  00000+0  74203-4 0  9990
#TLE: 2 43013  98.7631 310.2683 0001700  47.4387 312.6933 14.19534764421920

#Time	Az	El	Level	Level2	SNR	BER	BlckErr	Temp	State	Recorded	gain1	gain2
2026-01-09 23:45:23.98	21.53	2.02	-57.3	-72.6	3.8	1.49e+00	0	21	0	0	81	20233
2026-01-09 23:45:27.96	21.65	2.27	-57.2	-72.0	3.8	1.49e+00	0	22	104	0	79	21129
2026-01-09 23:45:31.96	21.77	2.53	-57.2	-72.1	3.8	1.49e+00	0	21	104	0	79	21314
2026-01-09 23:45:35.96	21.89	2.78	-57.1	-70.1	4.1	1.47e+00	0	22	104	0	79	17045
2026-01-09 23:45:39.96	22.01	3.04	-57.0	-68.1	4.7	9.17e-01	0	22	0	3145728	79	13491
2026-01-09 23:45:43.96	22.14	3.30	-56.9	-67.3	5.1	5.93e-01	0	22	0	10485760	79	12328
2026-01-09 23:45:47.96	22.27	3.56	-56.5	-64.3	7.3	9.93e-02	0	22	0	18874368	79	8678
2026-01-09 23:45:51.96	22.40	3.82	-55.3	-59.9	11.2	6.32e-04	0	22	0	26214400	77	5891
2026-01-09 23:45:55.93	22.53	4.09	-54.0	-57.5	12.8	1.50e-06	0	22	0	33554432	74	5296
2026-01-09 23:45:59.92	22.66	4.36	-53.9	-57.3	12.9	0.00e+00	0	22	0	40894464	74	5186
2026-01-09 23:46:03.91	22.79	4.63	-54.7	-59.0	11.6	3.28e-05	0	22	0	48234496	74	6289
2026-01-09 23:46:07.91	22.93	4.90	-56.2	-62.9	8.5	1.68e-02	0	22	0	55574528	77	8302
2026-01-09 23:46:11.92	23.07	5.18	-56.8	-67.2	5.2	7.91e-02	0	22	0	62914560	78	12872
2026-01-09 23:46:15.92	23.22	5.46	-55.1	-59.2	11.7	2.59e-01	0	22	0	70254592	76	5781
2026-01-09 23:46:19.92	23.36	5.74	-53.8	-56.9	13.4	0.00e+00	0	22	0	77594624	74	4949
2026-01-09 23:46:23.92	23.51	6.03	-53.5	-56.4	13.6	7.00e-07	0	23	0	84934656	73	4958
2026-01-09 23:46:27.92	23.66	6.32	-53.3	-56.1	13.8	0.00e+00	0	23	0	93323264	73	4760
2026-01-09 23:46:31.92	23.81	6.61	-53.4	-56.1	13.8	0.00e+00	0	23	0	100663296	73	4811
2026-01-09 23:46:35.90	23.97	6.90	-53.2	-55.9	14.0	0.00e+00	0	23	0	108003328	73	4658
2026-01-09 23:46:39.89	24.12	7.20	-53.1	-55.7	14.0	0.00e+00	0	23	0	115343360	72	4821
2026-01-09 23:46:43.90	24.28	7.50	-53.1	-55.7	14.0	0.00e+00	0	23	0	122683392	72	4829
2026-01-09 23:46:47.88	24.45	7.81	-53.1	-55.6	14.1	0.00e+00	0	23	0	130023424	72	4762
2026-01-09 23:46:51.88	24.61	8.12	-53.1	-55.5	14.1	0.00e+00	0	23	0	138412032	72	4756
2026-01-09 23:46:55.86	24.78	8.43	-53.0	-55.5	14.1	0.00e+00	0	23	0	145752064	72	4727
2026-01-09 23:46:59.85	24.96	8.74	-52.9	-55.3	14.3	0.00e+00	0	23	0	153092096	72	4613
2026-01-09 23:47:03.82	25.13	9.06	-52.8	-55.2	14.4	0.00e+00	0	23	0	160432128	72	4565
2026-01-09 23:47:07.81	25.31	9.38	-52.8	-55.1	14.4	0.00e+00	0	23	0	167772160	72	4502
2026-01-09 23:47:11.82	25.50	9.71	-52.7	-55.0	14.5	0.00e+00	0	23	0	175112192	72	4467
2026-01-09 23:47:15.81	25.69	10.04	-52.7	-54.9	14.4	0.00e+00	0	23	0	182452224	71	4698
2026-01-09 23:47:19.81	25.88	10.38	-52.5	-54.7	14.5	0.00e+00	0	23	0	189792256	71	4582
2026-01-09 23:47:23.82	26.07	10.72	-52.5	-54.7	14.5	0.00e+00	0	23	0	198180864	71	4589
2026-01-09 23:47:27.81	26.27	11.07	-52.5	-54.6	14.6	0.00e+00	0	23	0	205520896	71	4532
2026-01-09 23:47:31.81	26.48	11.42	-52.4	-54.6	14.6	0.00e+00	0	23	0	212860928	71	4506
2026-01-09 23:47:35.80	26.69	11.77	-52.3	-54.4	14.7	0.00e+00	0	23	0	220200960	71	4417
2026-01-09 23:47:39.79	26.90	12.13	-52.2	-54.2	14.8	0.00e+00	0	23	0	227540992	71	4328
2026-01-09 23:47:43.78	27.12	12.49	-52.1	-54.0	14.8	0.00e+00	0	23	0	234881024	70	4490
2026-01-09 23:47:47.76	27.34	12.86	-52.0	-54.0	14.8	0.00e+00	0	23	0	242221056	70	4449
2026-01-09 23:47:51.73	27.57	13.23	-52.0	-54.0	14.8	0.00e+00	0	23	0	250609664	70	4460
2026-01-09 23:47:55.73	27.80	13.61	-51.7	-53.6	15.0	0.00e+00	0	23	0	257949696	70	4277
2026-01-09 23:47:59.71	28.04	14.00	-51.7	-53.5	14.9	0.00e+00	0	23	0	265289728	69	4491
2026-01-09 23:48:03.69	28.28	14.39	-51.5	-53.3	15.0	0.00e+00	0	23	0	272629760	69	4385
2026-01-09 23:48:07.68	28.54	14.79	-51.3	-53.1	15.1	0.00e+00	0	23	0	279969792	69	4282
2026-01-09 23:48:11.68	28.79	15.19	-51.3	-53.1	15.2	0.00e+00	0	23	0	287309824	69	4265
2026-01-09 23:48:15.68	29.06	15.60	-51.2	-53.0	15.2	0.00e+00	0	23	0	294649856	69	4201
2026-01-09 23:48:19.67	29.33	16.02	-51.3	-53.0	15.2	0.00e+00	0	23	0	303038464	69	4218
2026-01-09 23:48:23.68	29.61	16.44	-51.2	-52.9	15.3	0.00e+00	0	23	0	310378496	69	4167
2026-01-09 23:48:27.69	29.90	16.87	-51.1	-52.8	15.1	0.00e+00	0	23	0	317718528	68	4370
2026-01-09 23:48:31.69	30.19	17.31	-50.8	-52.5	15.3	0.00e+00	0	23	0	325058560	68	4211
2026-01-09 23:48:35.68	30.49	17.76	-50.8	-52.4	15.4	0.00e+00	0	23	0	332398592	68	4173
2026-01-09 23:48:39.68	30.80	18.21	-50.8	-52.4	15.4	0.00e+00	0	23	0	339738624	68	4168
2026-01-09 23:48:43.68	31.12	18.67	-50.5	-52.2	15.3	0.00e+00	0	23	0	347078656	67	4292
2026-01-09 23:48:47.68	31.45	19.14	-50.5	-52.2	15.3	0.00e+00	0	23	0	355467264	67	4294
2026-01-09 23:48:51.68	31.79	19.61	-50.6	-52.3	15.2	0.00e+00	0	23	0	362807296	67	4357
2026-01-09 23:48:55.67	32.14	20.10	-50.7	-52.4	15.2	0.00e+00	0	23	0	370147328	67	4403
2026-01-09 23:48:59.67	32.50	20.59	-50.7	-52.4	15.2	0.00e+00	0	23	0	377487360	67	4401
2026-01-09 23:49:03.65	32.87	21.09	-50.6	-52.2	15.2	0.00e+00	0	23	0	384827392	67	4329
2026-01-09 23:49:07.63	33.25	21.60	-50.5	-52.1	15.3	0.00e+00	0	23	0	392167424	67	4274
2026-01-09 23:49:11.61	33.64	22.12	-50.3	-51.9	15.4	0.00e+00	0	23	0	399507456	67	4146
2026-01-09 23:49:15.60	34.05	22.65	-50.2	-51.8	15.3	0.00e+00	0	23	0	406847488	66	4367
2026-01-09 23:49:19.61	34.47	23.19	-50.5	-52.1	15.2	0.00e+00	0	23	0	415236096	66	4500
2026-01-09 23:49:23.58	34.90	23.73	-50.3	-51.9	15.2	0.00e+00	0	23	0	422576128	66	4406
2026-01-09 23:49:27.59	35.35	24.29	-50.4	-51.9	15.2	0.00e+00	0	23	0	429916160	66	4429
2026-01-09 23:49:31.59	35.82	24.86	-50.8	-52.4	15.0	0.00e+00	0	23	0	437256192	66	4670
2026-01-09 23:49:35.59	36.30	25.45	-51.2	-52.9	14.9	0.00e+00	0	23	0	444596224	67	4705
2026-01-09 23:49:39.59	36.81	26.04	-51.4	-53.2	14.8	0.00e+00	0	24	0	451936256	67	4840
2026-01-09 23:49:43.58	37.32	26.64	-51.7	-53.5	14.8	0.00e+00	0	23	0	460324864	68	4707
2026-01-09 23:49:47.59	37.86	27.25	-51.8	-53.6	14.8	0.00e+00	0	24	0	467664896	68	4784
2026-01-09 23:49:51.59	38.42	27.88	-51.8	-53.7	14.9	0.00e+00	0	23	0	475004928	69	4553
2026-01-09 23:49:55.58	39.00	28.52	-52.0	-53.9	14.8	0.00e+00	0	24	0	482344960	69	4676
2026-01-09 23:49:59.57	39.60	29.16	-52.6	-54.7	14.5	0.00e+00	0	23	0	489684992	70	4832
2026-01-09 23:50:03.57	40.23	29.82	-53.2	-55.5	14.2	0.00e+00	0	23	0	497025024	71	4984
2026-01-09 23:50:07.55	40.88	30.49	-53.6	-56.0	14.1	0.00e+00	0	24	0	504365056	72	5009
2026-01-09 23:50:11.54	41.56	31.18	-53.5	-55.9	14.1	0.00e+00	0	23	0	512753664	72	4941
2026-01-09 23:50:15.55	42.27	31.87	-53.5	-55.8	14.2	0.00e+00	0	23	0	520093696	72	4887
2026-01-09 23:50:19.54	43.01	32.58	-53.8	-56.4	13.8	0.00e+00	0	24	0	527433728	72	5219
2026-01-09 23:50:23.54	43.79	33.30	-53.3	-55.4	14.4	0.00e+00	0	24	0	534773760	72	4703
2026-01-09 23:50:27.52	44.59	34.03	-52.8	-54.9	14.7	0.00e+00	0	24	0	542113792	72	4411
2026-01-09 23:50:31.54	45.44	34.78	-52.8	-54.8	14.8	0.00e+00	0	23	0	549453824	72	4387
2026-01-09 23:50:35.55	46.32	35.53	-52.2	-54.1	15.1	0.00e+00	0	23	0	556793856	71	4244
2026-01-09 23:50:39.55	47.25	36.29	-52.0	-53.8	15.0	0.00e+00	0	24	0	565182464	70	4375
2026-01-09 23:50:43.55	48.21	37.07	-51.7	-53.5	15.2	0.00e+00	0	24	0	572522496	70	4209
2026-01-09 23:50:47.55	49.23	37.85	-51.4	-53.1	15.2	0.00e+00	0	23	0	579862528	69	4268
2026-01-09 23:50:51.55	50.29	38.64	-51.0	-52.7	15.2	0.00e+00	0	24	0	587202560	68	4298
2026-01-09 23:50:55.54	51.40	39.44	-50.9	-52.5	15.4	0.00e+00	0	23	0	594542592	68	4210
2026-01-09 23:50:59.53	52.57	40.24	-51.3	-53.0	15.1	0.00e+00	0	23	0	601882624	68	4489
2026-01-09 23:51:03.52	53.80	41.05	-51.1	-52.7	15.3	0.00e+00	0	23	0	609222656	68	4304
2026-01-09 23:51:07.51	55.09	41.86	-51.4	-53.1	15.0	0.00e+00	0	23	0	617611264	68	4527
2026-01-09 23:51:11.50	56.44	42.68	-51.6	-53.4	14.9	0.00e+00	0	24	0	624951296	68	4663
2026-01-09 23:51:15.49	57.87	43.49	-52.0	-53.9	14.8	0.00e+00	0	23	0	632291328	69	4675
2026-01-09 23:51:19.49	59.37	44.30	-52.2	-54.0	14.7	0.00e+00	0	23	0	639631360	69	4756
2026-01-09 23:51:23.48	60.94	45.10	-53.4	-55.7	14.2	0.00e+00	0	23	0	646971392	71	5120
2026-01-09 23:51:27.47	62.59	45.90	-53.2	-55.4	14.5	0.00e+00	0	24	0	654311424	72	4680
2026-01-09 23:51:31.47	64.34	46.68	-54.0	-56.5	13.9	0.00e+00	0	24	0	661651456	73	5036
2026-01-09 23:51:35.47	66.17	47.46	-52.6	-54.5	14.8	0.00e+00	0	23	0	670040064	71	4463
2026-01-09 23:51:39.45	68.08	48.20	-53.2	-55.4	14.3	0.00e+00	0	23	0	677380096	71	4972
2026-01-09 23:51:43.44	70.09	48.93	-52.2	-54.0	15.1	0.00e+00	0	23	0	684720128	71	4238
2026-01-09 23:51:47.44	72.20	49.63	-52.4	-54.2	15.0	0.00e+00	0	24	0	692060160	71	4335
2026-01-09 23:51:51.42	74.39	50.30	-52.0	-53.8	15.0	0.00e+00	0	24	0	699400192	70	4374
2026-01-09 23:51:55.42	76.69	50.93	-51.0	-52.6	15.3	0.00e+00	0	23	0	706740224	68	4265
2026-01-09 23:51:59.41	79.08	51.52	-51.4	-53.1	15.1	0.00e+00	0	24	0	714080256	68	4502
2026-01-09 23:52:03.41	81.57	52.07	-50.5	-52.0	15.4	0.00e+00	0	23	0	722468864	67	4238
2026-01-09 23:52:07.41	84.15	52.57	-51.1	-52.7	15.3	0.00e+00	0	23	0	729808896	68	4306
2026-01-09 23:52:11.41	86.81	53.00	-50.5	-52.0	15.4	0.00e+00	0	23	0	737148928	67	4213
2026-01-09 23:52:15.40	89.54	53.38	-51.1	-52.7	15.1	0.00e+00	0	23	0	744488960	67	4580
2026-01-09 23:52:19.40	92.34	53.70	-51.3	-53.0	15.0	0.00e+00	0	23	0	751828992	67	4715
2026-01-09 23:52:23.40	95.20	53.94	-51.1	-52.7	15.3	0.00e+00	0	23	0	759169024	68	4334
2026-01-09 23:52:27.39	98.09	54.12	-50.4	-51.9	15.5	0.00e+00	0	23	0	766509056	67	4159
2026-01-09 23:52:31.39	101.01	54.22	-51.8	-53.6	15.0	0.00e+00	0	23	0	774897664	69	4536
2026-01-09 23:52:35.39	103.95	54.25	-51.1	-52.7	15.3	0.00e+00	0	23	0	782237696	68	4321
2026-01-09 23:52:39.40	106.90	54.20	-50.8	-52.4	15.5	0.00e+00	0	23	0	789577728	68	4170
2026-01-09 23:52:43.41	109.83	54.08	-49.8	-51.2	15.6	0.00e+00	0	23	0	796917760	66	4085
2026-01-09 23:52:47.40	112.71	53.89	-49.4	-50.8	15.7	0.00e+00	0	24	0	804257792	65	4109
2026-01-09 23:52:51.40	115.55	53.63	-50.8	-52.4	15.0	0.00e+00	0	23	0	811597824	66	4671
2026-01-09 23:52:55.40	118.34	53.30	-50.9	-52.5	15.2	0.00e+00	0	24	0	819986432	67	4478
2026-01-09 23:52:59.39	121.06	52.91	-50.3	-51.8	15.3	0.00e+00	0	23	0	827326464	66	4384
2026-01-09 23:53:03.36	123.68	52.46	-50.7	-52.2	15.1	0.00e+00	0	23	0	834666496	66	4591
2026-01-09 23:53:07.34	126.23	51.95	-50.6	-52.2	15.2	0.00e+00	0	23	0	842006528	66	4548
2026-01-09 23:53:11.33	128.70	51.40	-50.4	-51.9	15.3	0.00e+00	0	24	0	849346560	66	4404
2026-01-09 23:53:15.32	131.07	50.80	-51.4	-53.1	14.9	0.00e+00	0	23	0	856686592	67	4768
2026-01-09 23:53:19.33	133.36	50.15	-53.8	-56.1	14.2	0.00e+00	0	23	0	864026624	73	4807
2026-01-09 23:53:23.32	135.54	49.47	-56.8	-61.8	10.7	6.37e-04	0	23	0	871366656	79	6497
2026-01-09 23:53:27.31	137.63	48.76	-56.0	-59.7	12.2	0.00e+00	0	23	0	879755264	77	5777
2026-01-09 23:53:31.31	139.62	48.03	-54.1	-56.6	14.0	0.00e+00	0	24	0	887095296	74	4808
2026-01-09 23:53:35.31	141.53	47.27	-55.2	-58.4	13.1	0.00e+00	0	24	0	894435328	76	5227
2026-01-09 23:53:39.32	143.35	46.49	-54.5	-57.3	13.6	0.00e+00	0	24	0	901775360	74	5178
2026-01-09 23:53:43.31	145.07	45.70	-52.4	-54.2	14.9	0.00e+00	0	23	0	909115392	71	4327
2026-01-09 23:53:47.29	146.70	44.90	-54.8	-57.8	13.2	0.00e+00	0	23	0	916455424	74	5513
2026-01-09 23:53:51.29	148.26	44.09	-52.8	-54.7	14.9	0.00e+00	0	23	0	923795456	72	4328
2026-01-09 23:53:55.29	149.75	43.28	-55.3	-58.5	13.0	7.00e-07	0	23	0	932184064	76	5314
2026-01-09 23:53:59.29	151.16	42.46	-55.0	-57.5	13.5	0.00e+00	0	24	0	939524096	74	5284
2026-01-09 23:54:03.28	152.50	41.65	-56.0	-59.8	12.2	4.50e-05	0	23	0	946864128	78	5488
2026-01-09 23:54:07.26	153.77	40.83	-54.8	-57.8	13.2	0.00e+00	0	24	0	954204160	74	5480
2026-01-09 23:54:11.25	154.99	40.02	-54.7	-57.4	13.8	0.00e+00	0	23	0	961544192	76	4704
2026-01-09 23:54:15.24	156.15	39.22	-54.6	-57.4	13.5	0.00e+00	0	23	0	968884224	74	5269
2026-01-09 23:54:19.22	157.25	38.42	-54.9	-57.9	13.3	0.00e+00	0	24	0	976224256	75	5248
2026-01-09 23:54:23.24	158.30	37.63	-53.8	-56.3	14.1	0.00e+00	0	24	0	984612864	73	4877
2026-01-09 23:54:27.23	159.30	36.84	-54.5	-57.2	13.7	0.00e+00	0	23	0	991952896	75	4849
2026-01-09 23:54:31.25	160.27	36.07	-53.1	-55.2	14.6	0.00e+00	0	24	0	999292928	72	4558
2026-01-09 23:54:35.25	161.18	35.30	-54.7	-57.7	13.3	0.00e+00	0	24	0	1006632960	74	5429
2026-01-09 23:54:39.24	162.05	34.55	-51.5	-53.2	15.1	0.00e+00	0	24	0	1013972992	69	4337
2026-01-09 23:54:43.24	162.89	33.81	-53.6	-56.1	14.0	0.00e+00	0	23	0	1021313024	72	5072
2026-01-09 23:54:47.23	163.69	33.08	-53.1	-55.3	14.5	0.00e+00	0	23	0	1029701632	72	4617
2026-01-09 23:54:51.23	164.45	32.36	-52.5	-54.4	14.8	0.00e+00	0	23	0	1037041664	71	4437
2026-01-09 23:54:55.22	165.19	31.65	-53.9	-56.5	13.8	0.00e+00	0	23	0	1044381696	72	5316
2026-01-09 23:54:59.22	165.89	30.95	-54.2	-56.9	13.6	0.00e+00	0	23	0	1051721728	73	5251
2026-01-09 23:55:03.20	166.56	30.27	-53.8	-56.3	14.0	0.00e+00	0	23	0	1059061760	73	4900
2026-01-09 23:55:07.19	167.21	29.60	-53.2	-55.4	14.4	0.00e+00	0	24	0	1066401792	72	4658
2026-01-09 23:55:11.17	167.83	28.94	-53.0	-55.2	14.6	0.00e+00	0	24	0	1073741824	72	4548
2026-01-09 23:55:15.16	168.42	28.30	-53.4	-55.8	14.2	0.00e+00	0	24	0	1081081856	72	4895
2026-01-09 23:55:19.14	169.00	27.66	-52.7	-54.8	14.8	0.00e+00	0	24	0	1089470464	72	4346
2026-01-09 23:55:23.14	169.55	27.04	-52.6	-54.7	14.6	0.00e+00	0	24	0	1096810496	71	4568
2026-01-09 23:55:27.14	170.08	26.42	-53.6	-56.1	14.0	0.00e+00	0	23	0	1104150528	72	5044
2026-01-09 23:55:31.13	170.60	25.82	-53.5	-55.9	14.1	0.00e+00	0	23	0	1111490560	72	4960
2026-01-09 23:55:35.12	171.09	25.23	-53.4	-55.7	14.2	0.00e+00	0	24	0	1118830592	72	4848
2026-01-09 23:55:39.10	171.57	24.65	-52.6	-54.6	14.7	0.00e+00	0	24	0	1126170624	71	4522
2026-01-09 23:55:43.08	172.03	24.09	-52.1	-54.0	14.8	0.00e+00	0	23	0	1133510656	70	4449
2026-01-09 23:55:47.07	172.47	23.53	-52.6	-54.7	14.4	0.00e+00	0	24	0	1140850688	70	4868
2026-01-09 23:55:51.05	172.90	22.98	-53.1	-55.3	14.2	0.00e+00	0	23	0	1149239296	71	4919
2026-01-09 23:55:55.05	173.32	22.44	-52.4	-54.4	14.8	0.00e+00	0	24	0	1156579328	71	4409
2026-01-09 23:55:59.06	173.73	21.91	-51.6	-53.4	15.0	0.00e+00	0	24	0	1163919360	69	4416
2026-01-09 23:56:03.05	174.12	21.39	-51.7	-53.6	14.9	0.00e+00	0	24	0	1171259392	69	4498
2026-01-09 23:56:07.05	174.49	20.88	-51.9	-53.8	14.8	0.00e+00	0	24	0	1178599424	69	4630
2026-01-09 23:56:11.03	174.86	20.38	-51.8	-53.7	14.8	0.00e+00	0	24	0	1185939456	69	4560
2026-01-09 23:56:15.03	175.22	19.89	-51.6	-53.4	15.0	0.00e+00	0	24	0	1194328064	69	4427
2026-01-09 23:56:19.03	175.56	19.40	-51.3	-53.0	15.2	0.00e+00	0	24	0	1201668096	69	4211
2026-01-09 23:56:23.02	175.90	18.93	-51.0	-52.7	15.2	0.00e+00	0	24	0	1209008128	68	4302
2026-01-09 23:56:27.03	176.22	18.46	-51.4	-53.1	15.0	0.00e+00	0	24	0	1216348160	68	4523
2026-01-09 23:56:31.02	176.54	18.00	-51.2	-53.0	15.0	0.00e+00	0	23	0	1223688192	68	4455
2026-01-09 23:56:35.02	176.85	17.55	-51.5	-53.3	14.8	0.00e+00	0	24	0	1231028224	68	4644
2026-01-09 23:56:39.03	177.15	17.10	-51.7	-53.6	14.7	0.00e+00	0	24	0	1238368256	68	4806
2026-01-09 23:56:43.05	177.44	16.66	-51.5	-53.3	14.9	0.00e+00	0	24	0	1246756864	68	4617
2026-01-09 23:56:47.05	177.72	16.23	-51.3	-53.1	15.0	0.00e+00	0	24	0	1254096896	68	4509
2026-01-09 23:56:51.05	178.00	15.81	-51.1	-52.9	15.1	0.00e+00	0	23	0	1261436928	68	4409
2026-01-09 23:56:55.04	178.26	15.39	-51.2	-52.9	15.0	0.00e+00	0	24	0	1268776960	68	4429
2026-01-09 23:56:59.06	178.53	14.98	-51.4	-53.2	14.9	0.00e+00	0	24	0	1276116992	68	4552
2026-01-09 23:57:03.06	178.78	14.57	-51.6	-53.5	14.7	0.00e+00	0	24	0	1283457024	68	4727
2026-01-09 23:57:07.05	179.03	14.18	-51.8	-53.8	14.6	0.00e+00	0	24	0	1290797056	68	4887
2026-01-09 23:57:11.04	179.27	13.79	-52.1	-54.1	14.5	0.00e+00	0	24	0	1299185664	69	4775
2026-01-09 23:57:15.01	179.51	13.40	-52.1	-54.1	14.5	0.00e+00	0	23	0	1306525696	69	4796
2026-01-09 23:57:19.00	179.74	13.02	-52.1	-54.2	14.5	0.00e+00	0	23	0	1313865728	69	4830
2026-01-09 23:57:22.99	179.96	12.65	-51.9	-53.9	14.6	0.00e+00	0	23	0	1321205760	69	4697
2026-01-09 23:57:26.98	180.18	12.28	-52.0	-54.0	14.6	0.00e+00	0	23	0	1328545792	69	4747
2026-01-09 23:57:30.98	180.40	11.91	-51.9	-53.9	14.6	0.00e+00	0	23	0	1335885824	69	4702
2026-01-09 23:57:34.98	180.61	11.56	-51.9	-54.0	14.6	0.00e+00	0	24	0	1343225856	69	4706
2026-01-09 23:57:38.97	180.81	11.20	-51.9	-53.9	14.6	0.00e+00	0	24	0	1351614464	69	4698
2026-01-09 23:57:42.97	181.01	10.85	-52.1	-54.1	14.5	0.00e+00	0	24	0	1358954496	69	4794
2026-01-09 23:57:46.96	181.21	10.51	-52.1	-54.2	14.5	0.00e+00	0	24	0	1366294528	69	4836
2026-01-09 23:57:50.96	181.40	10.17	-52.3	-54.5	14.3	0.00e+00	0	24	0	1373634560	69	5017
2026-01-09 23:57:54.97	181.59	9.83	-52.5	-54.8	14.3	0.00e+00	0	24	0	1380974592	70	4894
2026-01-09 23:57:58.94	181.77	9.50	-52.7	-55.0	14.1	0.00e+00	0	24	0	1388314624	70	5026
2026-01-09 23:58:02.95	181.95	9.17	-52.8	-55.3	14.0	0.00e+00	0	23	0	1395654656	70	5162
2026-01-09 23:58:06.95	182.13	8.85	-52.9	-55.3	14.0	0.00e+00	0	24	0	1404043264	71	4918
2026-01-09 23:58:10.94	182.30	8.53	-53.0	-55.4	14.0	0.00e+00	0	24	0	1411383296	71	4966
2026-01-09 23:58:14.93	182.47	8.21	-53.1	-55.6	13.9	0.00e+00	0	24	0	1418723328	71	5052
2026-01-09 23:58:18.92	182.64	7.90	-52.8	-55.3	14.1	0.00e+00	0	24	0	1426063360	71	4876
2026-01-09 23:58:22.92	182.80	7.59	-52.8	-55.2	14.1	0.00e+00	0	24	0	1433403392	71	4857
2026-01-09 23:58:26.90	182.96	7.29	-52.9	-55.3	14.0	0.00e+00	0	24	0	1440743424	71	4889
2026-01-09 23:58:30.89	183.12	6.99	-52.7	-55.1	14.2	0.00e+00	0	24	0	1448083456	71	4760
2026-01-09 23:58:34.89	183.28	6.69	-52.8	-55.2	14.1	0.00e+00	0	24	0	1456472064	71	4845
2026-01-09 23:58:38.88	183.43	6.39	-52.7	-55.2	14.1	0.00e+00	0	24	0	1463812096	71	4826
2026-01-09 23:58:42.88	183.58	6.10	-52.7	-55.1	14.1	0.00e+00	0	23	0	1471152128	71	4770
2026-01-09 23:58:46.89	183.72	5.81	-52.8	-55.4	13.9	0.00e+00	0	24	0	1478492160	71	4941
2026-01-09 23:58:50.90	183.87	5.52	-52.8	-55.4	13.9	0.00e+00	0	24	0	1485832192	71	4944
2026-01-09 23:58:54.89	184.01	5.24	-52.9	-55.5	13.8	0.00e+00	0	24	0	1493172224	71	5000
2026-01-09 23:58:58.90	184.15	4.96	-57.7	-73.6	3.7	0.00e+00	0	24	104	1500512256	80	24105
2026-01-09 23:59:02.90	184.28	4.68	-58.7	-74.7	3.8	1.49e+00	0	24	104	1500512256	82	24293
2026-01-09 23:59:06.89	184.42	4.41	-59.0	-75.1	3.8	1.49e+00	0	24	104	1500512256	83	23993
2026-01-09 23:59:10.89	184.55	4.14	-59.2	-75.2	3.8	1.49e+00	0	24	104	1500512256	83	24350
2026-01-09 23:59:14.87	184.68	3.87	-59.3	-75.3	3.8	1.49e+00	0	24	104	1500512256	83	24634
2026-01-09 23:59:18.86	184.81	3.60	-59.3	-75.4	3.8	1.49e+00	0	24	104	1500512256	83	24856
2026-01-09 23:59:22.86	184.93	3.34	-59.3	-75.4	3.8	1.49e+00	0	24	104	1500512256	83	24803
2026-01-09 23:59:26.88	185.06	3.08	-59.3	-75.4	3.8	1.49e+00	0	24	104	1500512256	83	24736
2026-01-09 23:59:30.87	185.18	2.82	-59.3	-75.3	3.8	1.49e+00	0	24	104	1500512256	83	24598
2026-01-09 23:59:34.86	185.30	2.56	-59.2	-75.3	3.8	1.49e+00	0	24	104	1500512256	83	24589
2026-01-09 23:59:38.86	185.42	2.31	-59.2	-75.3	3.8	1.49e+00	0	24	104	1500512256	83	24543
2026-01-09 23:59:42.87	185.53	2.05	-59.2	-75.3	3.8	1.49e+00	0	24	104	1500512256	83	24464

#Closed at: 2026-01-09 23:59:44
#Recorded file [1500 MB]: D:/lorett/data/31004_260110_024523.dat