passes_logs/2026/01/09/R3.2S_Murmansk/R3.2S_Murmansk__20260109_112703_AQUA_rec.log

#Pass ID: 20260109_112703_AQUA
#Satellite: AQUA
#Configuration: AQUA
#almurnet v.1.7.20251203
#Start time: 2026-01-09 11:27:03

#Version: 2.2.20231116
#Station: R3.2S_Murmansk
#Location: 33.079688 lon 68.888172 lat
#TLE: 1 27424U 02022A   26004.96787593  .00001598  00000+0  32997-3 0  9996
#TLE: 2 27424  98.4069 331.2279 0002002  90.2377   0.6092 14.61798176259425

#Time	Az	El	Level	Level2	SNR	BER	BlckErr	Temp	State	Recorded	gain1	gain2
2026-01-09 11:27:03.95	156.88	2.03	-57.0	-76.3	3.8	7.43e-01	0	22	0	0	82	33981
2026-01-09 11:27:07.82	156.91	2.29	-56.9	-76.1	3.8	7.47e-01	0	22	104	0	81	35264
2026-01-09 11:27:11.69	156.95	2.55	-56.9	-75.8	3.8	7.49e-01	0	22	104	0	81	33778
2026-01-09 11:27:15.55	156.98	2.81	-56.9	-75.2	3.8	7.46e-01	0	22	104	0	81	31449
2026-01-09 11:27:19.41	157.01	3.08	-56.9	-74.4	3.8	7.46e-01	0	22	104	0	81	28985
2026-01-09 11:27:23.28	157.04	3.35	-56.9	-74.5	3.8	7.43e-01	0	22	104	0	81	29168
2026-01-09 11:27:27.15	157.08	3.62	-56.9	-74.7	3.9	7.44e-01	0	22	104	0	81	29834
2026-01-09 11:27:30.88	157.11	3.89	-56.5	-67.1	7.4	6.51e-01	91	22	0	2621440	81	12444
2026-01-09 11:27:35.02	157.14	4.18	-55.7	-62.3	11.5	6.12e-01	0	23	0	10485760	80	7625
2026-01-09 11:27:39.15	157.18	4.49	-54.1	-58.1	14.2	6.06e-01	0	23	0	17825792	77	5571
2026-01-09 11:27:43.29	157.22	4.79	-52.1	-54.8	15.3	6.05e-01	0	23	0	25690112	73	4791
2026-01-09 11:27:47.43	157.26	5.10	-53.5	-57.1	14.5	6.06e-01	0	23	0	33554432	74	5893
2026-01-09 11:27:51.58	157.29	5.42	-51.3	-53.7	15.5	6.07e-01	0	23	0	41418752	71	4746
2026-01-09 11:27:55.71	157.33	5.73	-51.1	-53.3	15.5	6.07e-01	0	23	0	49283072	70	4804
2026-01-09 11:27:59.86	157.37	6.06	-50.7	-52.8	15.7	6.07e-01	0	23	0	56623104	70	4521
2026-01-09 11:28:04.00	157.41	6.39	-50.6	-52.7	15.8	6.03e-01	0	23	0	64487424	70	4478
2026-01-09 11:28:08.14	157.45	6.72	-50.5	-52.6	15.8	6.05e-01	0	23	0	72351744	70	4428
2026-01-09 11:28:12.28	157.50	7.05	-50.5	-52.5	15.9	6.05e-01	0	23	0	80216064	70	4388
2026-01-09 11:28:16.43	157.54	7.40	-50.4	-52.4	15.9	6.07e-01	0	23	0	88080384	70	4338
2026-01-09 11:28:20.56	157.58	7.74	-50.3	-52.3	15.7	6.07e-01	0	23	0	95944704	69	4510
2026-01-09 11:28:24.70	157.62	8.10	-50.1	-52.0	15.9	6.08e-01	0	23	0	103284736	69	4388
2026-01-09 11:28:28.83	157.67	8.45	-50.0	-52.0	15.9	6.07e-01	0	23	0	111149056	69	4348
2026-01-09 11:28:32.97	157.71	8.82	-49.8	-51.6	15.8	6.06e-01	0	23	0	119013376	68	4439
2026-01-09 11:28:37.12	157.76	9.19	-49.8	-51.7	15.8	6.06e-01	0	23	0	126877696	68	4456
2026-01-09 11:28:41.26	157.81	9.56	-49.7	-51.6	15.9	6.06e-01	0	23	0	134742016	68	4392
2026-01-09 11:28:45.40	157.86	9.95	-49.7	-51.5	15.9	6.07e-01	0	23	0	142082048	68	4355
2026-01-09 11:28:49.54	157.90	10.34	-49.6	-51.4	15.9	6.07e-01	0	23	0	149946368	68	4333
2026-01-09 11:28:53.68	157.95	10.73	-49.6	-51.4	16.0	6.07e-01	0	23	0	157810688	68	4300
2026-01-09 11:28:57.82	158.01	11.14	-49.5	-51.3	16.0	6.06e-01	0	23	0	165675008	68	4259
2026-01-09 11:29:01.95	158.06	11.55	-49.4	-51.2	16.0	6.05e-01	0	23	0	173539328	68	4210
2026-01-09 11:29:06.09	158.11	11.96	-49.3	-51.1	15.9	6.06e-01	0	23	0	180879360	67	4396
2026-01-09 11:29:10.23	158.17	12.39	-49.3	-51.0	15.9	6.07e-01	0	23	0	188743680	67	4385
2026-01-09 11:29:14.36	158.22	12.83	-49.0	-50.7	16.0	6.07e-01	0	23	0	196608000	67	4235
2026-01-09 11:29:18.51	158.28	13.27	-48.9	-50.6	16.1	6.04e-01	0	23	0	204472320	67	4152
2026-01-09 11:29:22.65	158.34	13.72	-48.9	-50.6	15.9	6.08e-01	0	23	0	212336640	66	4434
2026-01-09 11:29:26.78	158.40	14.19	-48.9	-50.6	15.9	6.05e-01	0	23	0	219676672	66	4416
2026-01-09 11:29:30.93	158.46	14.66	-49.1	-50.8	15.8	6.06e-01	0	23	0	227540992	66	4502
2026-01-09 11:29:35.07	158.52	15.14	-49.1	-50.8	15.8	6.08e-01	0	23	0	235405312	66	4517
2026-01-09 11:29:39.21	158.59	15.64	-48.9	-50.6	15.9	6.06e-01	0	23	0	243269632	66	4409
2026-01-09 11:29:43.35	158.65	16.14	-48.7	-50.4	16.0	6.06e-01	0	23	0	251133952	66	4301
2026-01-09 11:29:47.49	158.72	16.66	-48.7	-50.3	16.0	6.06e-01	0	23	0	258473984	66	4259
2026-01-09 11:29:51.63	158.79	17.19	-48.8	-50.5	15.9	6.06e-01	0	23	0	266338304	66	4357
2026-01-09 11:29:55.77	158.86	17.73	-48.9	-50.6	15.8	6.05e-01	0	24	0	274202624	66	4427
2026-01-09 11:29:59.90	158.94	18.29	-49.0	-50.7	15.8	6.07e-01	0	23	0	282066944	66	4480
2026-01-09 11:30:04.04	159.02	18.86	-48.8	-50.5	15.9	6.05e-01	0	23	0	289931264	66	4341
2026-01-09 11:30:08.18	159.10	19.44	-48.9	-50.6	15.9	6.06e-01	0	23	0	297271296	66	4424
2026-01-09 11:30:12.32	159.18	20.04	-49.2	-50.8	15.8	6.06e-01	0	24	0	305135616	66	4539
2026-01-09 11:30:16.46	159.26	20.66	-49.2	-50.9	15.8	6.07e-01	0	24	0	312999936	66	4550
2026-01-09 11:30:20.60	159.35	21.29	-49.1	-50.8	15.8	6.07e-01	0	24	0	320864256	66	4520
2026-01-09 11:30:24.74	159.44	21.94	-49.1	-50.8	15.8	6.05e-01	0	24	0	328728576	66	4498
2026-01-09 11:30:28.88	159.54	22.61	-49.2	-50.9	15.8	6.06e-01	0	24	0	336592896	66	4554
2026-01-09 11:30:33.03	159.64	23.30	-49.3	-51.0	15.7	6.06e-01	0	24	0	343932928	66	4648
2026-01-09 11:30:37.17	159.74	24.01	-49.3	-51.0	15.7	6.06e-01	0	24	0	351797248	66	4603
2026-01-09 11:30:41.31	159.85	24.74	-49.4	-51.2	15.7	6.05e-01	0	24	0	359661568	66	4707
2026-01-09 11:30:45.46	159.96	25.50	-49.4	-51.1	15.7	6.07e-01	0	24	0	367525888	66	4670
2026-01-09 11:30:49.60	160.08	26.28	-48.9	-50.5	15.9	6.05e-01	0	24	0	375390208	66	4385
2026-01-09 11:30:53.73	160.20	27.08	-49.1	-50.8	15.8	6.08e-01	0	24	0	382730240	66	4527
2026-01-09 11:30:57.87	160.33	27.91	-48.8	-50.5	15.9	6.09e-01	0	24	0	390594560	66	4353
2026-01-09 11:31:02.01	160.46	28.76	-48.7	-50.3	16.0	6.09e-01	0	24	0	398458880	66	4259
2026-01-09 11:31:06.15	160.60	29.65	-48.5	-50.1	16.0	6.07e-01	0	24	0	406323200	66	4158
2026-01-09 11:31:10.30	160.75	30.57	-48.8	-50.4	15.9	6.04e-01	0	24	0	414187520	66	4340
2026-01-09 11:31:14.44	160.91	31.51	-48.6	-50.2	16.0	6.05e-01	0	24	0	421527552	66	4231
2026-01-09 11:31:18.58	161.07	32.49	-48.9	-50.5	15.9	6.07e-01	0	24	0	429391872	66	4366
2026-01-09 11:31:22.71	161.25	33.51	-49.0	-50.6	15.9	6.08e-01	0	24	0	437256192	66	4434
2026-01-09 11:31:26.86	161.43	34.56	-49.5	-51.2	15.6	6.06e-01	0	24	0	445120512	66	4741
2026-01-09 11:31:31.00	161.63	35.66	-49.9	-51.6	15.7	6.06e-01	0	24	0	452984832	67	4687
2026-01-09 11:31:35.14	161.84	36.79	-50.4	-52.2	15.6	6.08e-01	0	24	0	460324864	68	4726
2026-01-09 11:31:39.28	162.07	37.97	-50.8	-52.7	15.6	6.05e-01	0	24	0	468189184	69	4725
2026-01-09 11:31:43.41	162.31	39.18	-50.7	-52.6	15.6	6.07e-01	0	24	0	476053504	69	4698
2026-01-09 11:31:47.58	162.57	40.46	-50.5	-52.3	15.7	6.07e-01	0	24	0	483917824	69	4510
2026-01-09 11:31:51.78	162.86	41.79	-49.9	-51.6	16.0	6.06e-01	0	24	0	491782144	69	4176
2026-01-09 11:31:55.96	163.17	43.18	-49.3	-50.9	15.9	6.06e-01	0	24	0	499646464	67	4333
2026-01-09 11:32:00.14	163.50	44.61	-49.0	-50.6	16.0	6.06e-01	0	24	0	507510784	67	4154
2026-01-09 11:32:04.33	163.87	46.10	-48.9	-50.5	16.1	6.08e-01	0	24	0	515375104	67	4143
2026-01-09 11:32:08.53	164.27	47.66	-48.8	-50.4	15.9	6.08e-01	0	24	0	523239424	66	4299
2026-01-09 11:32:12.71	164.72	49.27	-48.8	-50.4	15.9	6.09e-01	0	24	0	531103744	66	4335
2026-01-09 11:32:16.90	165.21	50.94	-48.6	-50.1	16.0	6.05e-01	0	24	0	538968064	66	4183
2026-01-09 11:32:21.08	165.76	52.67	-48.0	-49.5	16.0	6.05e-01	0	24	0	546832384	65	4134
2026-01-09 11:32:25.27	166.38	54.47	-48.3	-49.9	15.9	6.07e-01	0	24	0	554696704	65	4307
2026-01-09 11:32:29.46	167.08	56.33	-48.9	-50.5	15.7	6.07e-01	0	24	0	562561024	65	4604
2026-01-09 11:32:33.63	167.89	58.25	-49.5	-51.2	15.8	6.07e-01	0	24	0	570425344	67	4460
2026-01-09 11:32:37.82	168.82	60.23	-50.2	-52.0	15.7	6.06e-01	0	24	0	578289664	68	4644
2026-01-09 11:32:42.01	169.90	62.27	-51.0	-52.9	15.5	6.07e-01	0	24	0	586153984	69	4852
2026-01-09 11:32:46.20	171.19	64.37	-52.4	-54.7	15.3	5.99e-01	0	24	0	594018304	72	5031
2026-01-09 11:32:50.36	172.72	66.50	-53.5	-56.1	15.0	6.01e-01	0	24	0	601358336	74	5273
2026-01-09 11:32:54.52	174.60	68.67	-53.7	-56.5	14.9	6.01e-01	0	24	0	609222656	75	5184
2026-01-09 11:32:58.67	176.93	70.87	-53.6	-56.2	15.1	6.02e-01	0	24	0	617086976	75	5041
2026-01-09 11:33:02.81	179.90	73.07	-52.4	-54.6	15.5	6.02e-01	0	24	0	624951296	73	4695
2026-01-09 11:33:06.96	183.81	75.26	-52.0	-54.1	15.7	6.00e-01	0	23	0	632815616	73	4433
2026-01-09 11:33:11.10	189.10	77.39	-51.3	-53.3	15.9	6.03e-01	0	24	0	640679936	71	4503
2026-01-09 11:33:15.24	196.55	79.41	-50.3	-52.0	16.0	6.00e-01	0	24	0	648019968	69	4372
2026-01-09 11:33:19.39	207.33	81.19	-49.7	-51.3	15.9	6.03e-01	0	24	0	655884288	68	4277
2026-01-09 11:33:23.53	222.76	82.54	-49.6	-51.3	16.0	6.02e-01	0	24	0	663748608	68	4250
2026-01-09 11:33:27.67	242.84	83.16	-50.3	-52.1	15.7	6.02e-01	0	24	0	671612928	68	4682
2026-01-09 11:33:31.81	263.89	82.86	-50.1	-51.8	15.8	6.00e-01	0	23	0	679477248	68	4536
2026-01-09 11:33:35.96	281.21	81.74	-50.0	-51.7	15.8	6.00e-01	0	24	0	686817280	68	4449
2026-01-09 11:33:40.09	293.49	80.10	-50.7	-52.5	15.7	6.02e-01	0	24	0	694681600	69	4629
2026-01-09 11:33:44.24	302.01	78.15	-50.9	-52.7	15.6	6.02e-01	0	24	0	702545920	69	4736
2026-01-09 11:33:48.37	307.97	76.05	-51.7	-53.8	15.5	6.04e-01	0	24	0	710410240	71	4762
2026-01-09 11:33:52.52	312.32	73.88	-52.2	-54.3	15.5	5.99e-01	0	24	0	718274560	72	4805
2026-01-09 11:33:56.66	315.59	71.68	-52.4	-54.7	15.3	6.01e-01	0	24	0	726138880	72	4984
2026-01-09 11:34:00.80	318.13	69.49	-52.4	-54.6	15.4	5.99e-01	0	24	0	733478912	73	4682
2026-01-09 11:34:04.94	320.15	67.32	-53.0	-55.4	15.3	6.03e-01	0	24	0	741343232	74	4836
2026-01-09 11:34:09.07	321.78	65.20	-51.7	-53.6	15.7	6.02e-01	0	24	0	749207552	72	4440
2026-01-09 11:34:13.22	323.15	63.10	-50.6	-52.4	15.9	6.01e-01	0	24	0	757071872	70	4299
2026-01-09 11:34:17.39	324.30	61.05	-50.1	-51.8	15.9	6.01e-01	0	24	0	764936192	69	4267
2026-01-09 11:34:21.57	325.29	59.05	-49.4	-51.2	16.0	6.03e-01	0	24	0	772800512	68	4222
2026-01-09 11:34:25.75	326.13	57.12	-49.6	-51.2	15.9	6.02e-01	0	24	0	780664832	68	4234
2026-01-09 11:34:29.93	326.87	55.24	-48.9	-50.4	15.9	6.00e-01	0	24	0	788529152	66	4335
2026-01-09 11:34:34.09	327.52	53.43	-48.7	-50.2	16.0	6.03e-01	0	24	0	795869184	66	4226
2026-01-09 11:34:38.25	328.10	51.69	-49.0	-50.6	15.8	5.99e-01	0	24	0	803733504	66	4422
2026-01-09 11:34:42.40	328.61	50.01	-49.6	-51.3	15.8	6.01e-01	0	24	0	811597824	67	4502
2026-01-09 11:34:46.57	329.07	48.39	-49.7	-51.4	15.7	6.00e-01	0	24	0	819462144	67	4568
2026-01-09 11:34:50.73	329.49	46.83	-49.7	-51.4	15.7	6.01e-01	0	24	0	827326464	67	4575
2026-01-09 11:34:54.87	329.87	45.33	-49.7	-51.4	15.7	6.04e-01	0	24	0	835190784	67	4576
2026-01-09 11:34:59.03	330.21	43.88	-49.6	-51.2	15.8	6.01e-01	0	24	0	843055104	67	4471
2026-01-09 11:35:03.20	330.53	42.48	-50.0	-51.7	15.6	6.03e-01	0	24	0	850919424	67	4756
2026-01-09 11:35:07.37	330.83	41.14	-50.1	-51.8	15.7	6.01e-01	0	24	0	858259456	68	4518
2026-01-09 11:35:11.55	331.10	39.84	-50.5	-52.3	15.6	6.01e-01	0	24	0	866123776	68	4765
2026-01-09 11:35:15.73	331.35	38.59	-50.4	-52.2	15.6	6.00e-01	0	24	0	873988096	68	4729
2026-01-09 11:35:19.91	331.59	37.39	-50.1	-51.8	15.8	6.02e-01	0	24	0	881852416	68	4511
2026-01-09 11:35:24.09	331.81	36.23	-49.6	-51.2	15.9	6.02e-01	0	24	0	889716736	68	4205
2026-01-09 11:35:28.28	332.02	35.11	-49.4	-51.0	15.9	6.02e-01	0	24	0	897581056	67	4375
2026-01-09 11:35:32.44	332.21	34.03	-49.2	-50.8	16.0	6.00e-01	0	24	0	905445376	67	4257
2026-01-09 11:35:36.62	332.39	33.00	-48.6	-50.2	16.0	5.99e-01	0	24	0	913309696	66	4200
2026-01-09 11:35:40.77	332.56	32.00	-48.4	-50.0	16.0	6.01e-01	0	24	0	921174016	66	4100
2026-01-09 11:35:44.94	332.72	31.04	-48.4	-49.9	16.1	6.00e-01	0	24	0	929038336	66	4098
2026-01-09 11:35:49.12	332.88	30.10	-48.6	-50.1	16.0	6.02e-01	0	24	0	936902656	66	4188
2026-01-09 11:35:53.30	333.02	29.20	-48.5	-50.1	16.0	6.00e-01	0	24	0	944766976	66	4148
2026-01-09 11:35:57.50	333.16	28.32	-48.5	-50.0	16.1	6.01e-01	0	24	0	952631296	66	4118
2026-01-09 11:36:01.66	333.30	27.48	-48.8	-50.4	15.9	6.03e-01	0	24	0	960495616	66	4294
2026-01-09 11:36:05.86	333.42	26.66	-49.1	-50.8	15.8	6.00e-01	0	24	0	968359936	66	4502
2026-01-09 11:36:09.98	333.54	25.88	-49.2	-50.8	15.8	6.02e-01	0	24	0	975699968	66	4518
2026-01-09 11:36:14.09	333.66	25.12	-49.4	-51.1	15.7	5.99e-01	0	24	0	983564288	66	4653
2026-01-09 11:36:18.17	333.77	24.40	-49.5	-51.2	15.6	6.02e-01	0	24	0	991428608	66	4715
2026-01-09 11:36:22.19	333.87	23.70	-49.5	-51.2	15.7	6.03e-01	0	24	0	998768640	66	4713
2026-01-09 11:36:26.13	333.97	23.04	-49.4	-51.1	15.7	6.02e-01	0	24	0	1006108672	66	4655
2026-01-09 11:36:30.08	334.06	22.39	-49.4	-51.0	15.7	6.01e-01	0	24	0	1013448704	66	4643
2026-01-09 11:36:34.01	334.15	21.77	-49.3	-51.0	15.7	6.00e-01	0	24	0	1020788736	66	4616
2026-01-09 11:36:37.98	334.24	21.15	-49.3	-51.0	15.7	6.00e-01	0	24	0	1028653056	66	4622
2026-01-09 11:36:41.93	334.32	20.55	-49.2	-50.8	15.7	6.02e-01	0	24	0	1035993088	66	4544
2026-01-09 11:36:45.89	334.40	19.97	-49.1	-50.7	15.8	6.02e-01	0	24	0	1043333120	66	4493
2026-01-09 11:36:49.87	334.48	19.40	-49.1	-50.8	15.8	6.01e-01	0	24	0	1050673152	66	4513
2026-01-09 11:36:53.84	334.56	18.84	-49.0	-50.6	15.8	6.00e-01	0	24	0	1058013184	66	4430
2026-01-09 11:36:57.80	334.64	18.30	-49.0	-50.7	15.8	5.99e-01	0	24	0	1065353216	66	4457
2026-01-09 11:37:01.75	334.71	17.78	-49.0	-50.6	15.8	6.00e-01	0	24	0	1072693248	66	4433
2026-01-09 11:37:05.73	334.78	17.26	-49.0	-50.6	15.8	6.02e-01	0	24	0	1080557568	66	4422
2026-01-09 11:37:09.68	334.85	16.76	-49.0	-50.7	15.7	6.02e-01	0	24	0	1087897600	66	4463
2026-01-09 11:37:13.67	334.92	16.26	-49.1	-50.8	15.8	6.01e-01	0	24	0	1095237632	66	4514
2026-01-09 11:37:17.65	334.98	15.77	-49.0	-50.7	15.8	6.03e-01	0	24	0	1102577664	66	4444
2026-01-09 11:37:21.63	335.05	15.30	-48.9	-50.6	15.8	6.01e-01	0	24	0	1110441984	66	4402
2026-01-09 11:37:25.62	335.11	14.83	-48.9	-50.6	15.8	6.01e-01	0	24	0	1117782016	66	4394
2026-01-09 11:37:29.59	335.17	14.38	-48.9	-50.6	15.8	5.98e-01	0	24	0	1125122048	66	4418
2026-01-09 11:37:33.56	335.23	13.94	-48.9	-50.5	15.8	6.00e-01	0	24	0	1132462080	66	4371
2026-01-09 11:37:37.52	335.29	13.50	-48.9	-50.5	15.8	6.02e-01	0	24	0	1139802112	66	4390
2026-01-09 11:37:41.48	335.35	13.08	-48.9	-50.5	15.9	6.01e-01	0	24	0	1147666432	66	4372
2026-01-09 11:37:45.44	335.40	12.66	-49.0	-50.7	15.8	6.00e-01	0	24	0	1155006464	66	4452
2026-01-09 11:37:49.41	335.46	12.25	-49.0	-50.6	15.8	6.01e-01	0	24	0	1162346496	66	4439
2026-01-09 11:37:53.40	335.51	11.84	-49.1	-50.8	15.7	6.01e-01	0	24	0	1169686528	66	4523
2026-01-09 11:37:57.37	335.56	11.45	-49.2	-51.0	15.7	6.02e-01	0	24	0	1177026560	66	4619
2026-01-09 11:38:01.35	335.61	11.05	-49.3	-51.1	15.6	6.00e-01	0	24	0	1184890880	66	4676
2026-01-09 11:38:05.31	335.66	10.67	-49.6	-51.4	15.6	6.01e-01	0	24	0	1192230912	66	4839
2026-01-09 11:38:09.30	335.71	10.30	-49.3	-51.1	15.6	6.00e-01	0	24	0	1199570944	66	4682
2026-01-09 11:38:13.29	335.76	9.92	-49.4	-51.2	15.5	6.02e-01	0	24	0	1206910976	66	4737
2026-01-09 11:38:17.26	335.81	9.56	-49.5	-51.4	15.4	6.01e-01	0	24	0	1214251008	66	4818
2026-01-09 11:38:21.23	335.86	9.20	-49.6	-51.5	15.5	6.01e-01	0	24	0	1222115328	67	4648
2026-01-09 11:38:25.20	335.90	8.85	-49.6	-51.5	15.6	6.00e-01	0	24	0	1229455360	67	4640
2026-01-09 11:38:29.20	335.95	8.50	-49.9	-51.9	15.4	6.01e-01	0	24	0	1236795392	67	4821
2026-01-09 11:38:33.18	336.00	8.16	-49.9	-51.8	15.5	6.01e-01	0	24	0	1244135424	67	4814
2026-01-09 11:38:37.17	336.04	7.82	-49.8	-51.7	15.5	6.03e-01	0	24	0	1251999744	67	4759
2026-01-09 11:38:41.14	336.08	7.49	-50.0	-52.0	15.4	6.01e-01	0	24	0	1259339776	67	4884
2026-01-09 11:38:45.10	336.13	7.16	-50.2	-52.1	15.6	6.02e-01	0	24	0	1266679808	68	4704
2026-01-09 11:38:49.08	336.17	6.84	-50.3	-52.3	15.5	6.00e-01	0	24	0	1274019840	68	4796
2026-01-09 11:38:53.05	336.21	6.52	-50.3	-52.3	15.5	5.99e-01	0	24	0	1281359872	68	4803
2026-01-09 11:38:57.03	336.25	6.21	-50.4	-52.5	15.4	6.02e-01	0	24	0	1289224192	68	4890
2026-01-09 11:39:01.01	336.29	5.90	-50.5	-52.6	15.6	6.00e-01	0	24	0	1296564224	69	4692
2026-01-09 11:39:05.00	336.33	5.59	-50.6	-52.7	15.5	5.99e-01	0	24	0	1303904256	69	4743
2026-01-09 11:39:08.97	336.37	5.29	-50.8	-53.0	15.4	6.01e-01	0	24	0	1311244288	69	4888
2026-01-09 11:39:12.94	336.41	4.99	-57.4	-73.5	4.3	7.44e-01	0	24	104	1318584320	82	24457
2026-01-09 11:39:16.92	336.45	4.70	-58.7	-78.1	3.8	7.42e-01	0	24	104	1318584320	85	35195
2026-01-09 11:39:20.91	336.49	4.41	-59.1	-78.4	3.8	7.45e-01	0	24	104	1318584320	85	36449
2026-01-09 11:39:24.91	336.53	4.12	-59.3	-78.6	3.8	7.45e-01	0	24	104	1318584320	86	35242
2026-01-09 11:39:28.91	336.56	3.83	-59.4	-78.7	3.8	7.45e-01	0	24	104	1318584320	86	35656
2026-01-09 11:39:32.91	336.60	3.55	-59.4	-78.7	3.8	7.45e-01	0	24	104	1318584320	86	35659
2026-01-09 11:39:36.91	336.64	3.27	-59.3	-78.7	3.8	7.46e-01	0	24	104	1318584320	86	35289
2026-01-09 11:39:40.88	336.67	3.00	-59.2	-78.6	3.8	7.48e-01	0	24	104	1318584320	86	34983
2026-01-09 11:39:44.84	336.71	2.73	-59.2	-78.6	3.8	7.43e-01	0	24	104	1318584320	86	34905
2026-01-09 11:39:48.79	336.74	2.46	-59.2	-78.5	3.8	7.41e-01	0	24	104	1318584320	86	34839
2026-01-09 11:39:52.74	336.78	2.20	-59.2	-78.5	3.8	7.47e-01	0	24	104	1318584320	86	34651
2026-01-09 11:39:56.72	336.81	1.93	-59.2	-78.5	3.8	7.46e-01	0	24	104	1318584320	86	34721

#Closed at: 2026-01-09 11:39:57
#Recorded file [1318 MB]: D:/lorett/data/31004_260109_142703.dat