passes_logs/2026/01/09/R3.2S_Murmansk/R3.2S_Murmansk__20260109_195730_TY-39_rec.log

#Pass ID: 20260109_195730_TY-39
#Satellite: TY-39
#Configuration: TY-39
#almurnet v.1.7.20251203
#Start time: 2026-01-09 19:57:30

#Version: 2.2.20231116
#Station: R3.2S_Murmansk
#Location: 33.079688 lon 68.888172 lat
#TLE: 1 51832U 22019J   26009.29565763  .00001022  00000-0  51098-4 0  9995
#TLE: 2 51832  97.3651  76.1242 0010332  69.7194 290.5151 15.19609297213669

#Time	Az	El	Level	Level2	SNR	BER	BlckErr	Temp	State	Recorded	gain1	gain2
2026-01-09 19:57:30.93	206.73	2.01	-57.1	-60.2	3.7	0.00e+00	0	25	0	0	81	20073
2026-01-09 19:57:33.92	207.00	2.19	-57.1	-60.3	3.7	0.00e+00	0	26	104	0	81	20262
2026-01-09 19:57:36.91	207.27	2.38	-57.1	-60.4	3.6	0.00e+00	0	26	104	0	81	20543
2026-01-09 19:57:39.90	207.54	2.57	-57.1	-60.3	3.7	0.00e+00	0	26	104	0	81	20296
2026-01-09 19:57:42.89	207.82	2.76	-57.1	-60.3	3.7	0.00e+00	0	26	104	0	81	20178
2026-01-09 19:57:45.89	208.10	2.95	-57.1	-60.3	3.7	0.00e+00	0	26	104	0	81	20210
2026-01-09 19:57:48.89	208.39	3.14	-57.2	-60.3	3.7	0.00e+00	0	26	104	0	81	20246
2026-01-09 19:57:51.88	208.68	3.33	-57.2	-60.4	3.7	0.00e+00	0	26	104	0	81	20518
2026-01-09 19:57:54.87	208.97	3.53	-57.2	-60.3	3.7	0.00e+00	0	27	104	0	81	20293
2026-01-09 19:57:57.87	209.27	3.72	-57.2	-60.4	3.6	0.00e+00	0	27	104	0	81	20567
2026-01-09 19:58:00.86	209.58	3.92	-57.2	-60.3	3.7	0.00e+00	0	27	104	0	81	20396
2026-01-09 19:58:03.84	209.89	4.12	-57.2	-60.3	3.7	0.00e+00	0	27	104	0	81	20298
2026-01-09 19:58:06.85	210.21	4.32	-57.2	-60.3	3.7	0.00e+00	0	27	104	0	81	20376
2026-01-09 19:58:09.84	210.53	4.52	-57.2	-60.4	3.6	0.00e+00	0	27	104	0	81	20505
2026-01-09 19:58:12.84	210.86	4.72	-57.2	-60.4	3.7	0.00e+00	0	27	104	0	81	20622
2026-01-09 19:58:15.83	211.19	4.93	-57.2	-60.3	3.7	0.00e+00	0	27	104	0	81	20323
2026-01-09 19:58:18.82	211.52	5.13	-57.2	-60.3	3.7	0.00e+00	0	27	104	0	81	20346
2026-01-09 19:58:21.79	211.87	5.34	-57.2	-60.5	3.6	0.00e+00	0	27	104	0	81	20685
2026-01-09 19:58:24.78	212.22	5.54	-57.3	-60.5	3.7	0.00e+00	0	27	104	0	81	20678
2026-01-09 19:58:27.76	212.57	5.75	-57.3	-60.6	3.6	0.00e+00	0	28	104	0	81	21047
2026-01-09 19:58:30.73	212.93	5.96	-57.2	-60.4	3.7	0.00e+00	0	28	104	0	81	20527
2026-01-09 19:58:33.73	213.30	6.18	-57.3	-60.5	3.7	0.00e+00	0	28	104	0	81	20750
2026-01-09 19:58:36.71	213.67	6.39	-57.4	-60.6	3.7	0.00e+00	0	28	104	0	81	20949
2026-01-09 19:58:39.71	214.06	6.61	-44.9	-45.3	11.0	4.12e-02	0	28	0	8388608	57	14322
2026-01-09 19:58:42.69	214.44	6.82	-43.8	-44.1	11.4	6.90e-06	0	28	0	234881024	54	14884
2026-01-09 19:58:45.66	214.84	7.04	-43.6	-43.9	11.6	0.00e+00	0	28	0	452984832	54	14584
2026-01-09 19:58:48.64	215.24	7.26	-43.7	-44.0	11.5	6.90e-06	0	29	0	679477248	54	14722
2026-01-09 19:58:51.62	215.65	7.48	-43.5	-43.9	11.6	0.00e+00	0	29	0	905969664	54	14470
2026-01-09 19:58:54.62	216.07	7.70	-43.6	-43.9	11.6	0.00e+00	0	29	0	1124073472	54	14494
2026-01-09 19:58:57.60	216.49	7.93	-43.3	-43.6	11.7	0.00e+00	0	29	0	1350565888	53	14877
2026-01-09 19:59:00.58	216.92	8.15	-43.2	-43.5	11.7	6.90e-06	0	29	0	1577058304	53	14732
2026-01-09 19:59:03.55	217.36	8.38	-43.2	-43.5	11.8	0.00e+00	0	29	0	1795162112	53	14679
2026-01-09 19:59:06.53	217.81	8.61	-43.2	-43.5	11.8	0.00e+00	0	29	0	2021654528	53	14639
2026-01-09 19:59:09.51	218.27	8.84	-43.2	-43.5	11.8	0.00e+00	0	29	0	2248146944	53	14658
2026-01-09 19:59:12.49	218.73	9.07	-43.0	-43.3	11.9	0.00e+00	0	29	0	2466250752	53	14430
2026-01-09 19:59:15.49	219.21	9.30	-43.0	-43.3	11.9	6.90e-06	0	29	0	2692743168	53	14383
2026-01-09 19:59:18.47	219.70	9.54	-42.8	-43.1	11.9	0.00e+00	0	29	0	2919235584	52	14824
2026-01-09 19:59:21.47	220.19	9.77	-42.7	-43.0	11.9	0.00e+00	0	29	0	3137339392	52	14740
2026-01-09 19:59:24.46	220.70	10.01	-42.7	-43.0	12.0	0.00e+00	0	29	0	3363831808	52	14716
2026-01-09 19:59:27.42	221.21	10.25	-42.6	-42.9	12.0	0.00e+00	0	30	0	3590324224	52	14464
2026-01-09 19:59:30.40	221.73	10.49	-42.5	-42.9	12.0	0.00e+00	0	30	0	3816816640	52	14442
2026-01-09 19:59:33.38	222.27	10.73	-42.4	-42.7	12.1	0.00e+00	0	29	0	4034920448	52	14227
2026-01-09 19:59:36.37	222.81	10.97	-42.4	-42.7	12.0	0.00e+00	0	30	0	4261412864	51	15108
2026-01-09 19:59:39.36	223.37	11.22	-42.3	-42.6	12.1	0.00e+00	0	30	0	4487905280	51	14786
2026-01-09 19:59:42.36	223.94	11.46	-42.3	-42.6	12.1	0.00e+00	0	30	0	4706009088	51	14873
2026-01-09 19:59:45.34	224.52	11.71	-42.2	-42.4	12.1	0.00e+00	0	30	0	4932501504	51	14601
2026-01-09 19:59:48.35	225.11	11.96	-42.1	-42.5	12.2	0.00e+00	0	30	0	5158993920	51	14612
2026-01-09 19:59:51.34	225.71	12.20	-42.0	-42.3	12.2	0.00e+00	0	30	0	5377097728	51	14394
2026-01-09 19:59:54.33	226.33	12.45	-42.0	-42.3	12.2	0.00e+00	0	30	0	5603590144	51	14375
2026-01-09 19:59:57.31	226.95	12.70	-41.9	-42.2	12.2	0.00e+00	0	30	0	5830082560	50	14966
2026-01-09 20:00:00.29	227.59	12.95	-41.8	-42.1	12.2	0.00e+00	0	30	0	6048186368	50	14881
2026-01-09 20:00:03.28	228.24	13.20	-41.8	-42.0	12.3	0.00e+00	0	30	0	6274678784	50	14740
2026-01-09 20:00:06.27	228.91	13.45	-41.7	-42.0	12.3	0.00e+00	0	30	0	6501171200	50	14637
2026-01-09 20:00:09.27	229.59	13.71	-41.5	-41.8	12.4	0.00e+00	0	30	0	6727663616	50	14389
2026-01-09 20:00:12.25	230.28	13.96	-41.5	-41.7	12.4	0.00e+00	0	30	0	6954156032	50	14245
2026-01-09 20:00:15.24	230.99	14.21	-41.4	-41.7	12.4	0.00e+00	0	30	0	7172259840	50	14207
2026-01-09 20:00:18.22	231.71	14.46	-41.3	-41.6	12.3	0.00e+00	0	30	0	7398752256	49	14818
2026-01-09 20:00:21.20	232.44	14.71	-41.2	-41.5	12.4	0.00e+00	0	30	0	7625244672	49	14716
2026-01-09 20:00:24.18	233.19	14.96	-41.1	-41.4	12.4	0.00e+00	0	31	0	7843348480	49	14474
2026-01-09 20:00:27.16	233.95	15.21	-41.1	-41.3	12.5	0.00e+00	0	30	0	8069840896	49	14436
2026-01-09 20:00:30.15	234.73	15.46	-41.0	-41.3	12.5	0.00e+00	0	31	0	8296333312	49	14357
2026-01-09 20:00:33.14	235.52	15.70	-41.0	-41.3	12.5	0.00e+00	0	31	0	8514437120	49	14294
2026-01-09 20:00:36.13	236.33	15.95	-41.0	-41.3	12.5	0.00e+00	0	31	0	8740929536	49	14360
2026-01-09 20:00:39.12	237.15	16.19	-40.9	-41.2	12.4	0.00e+00	0	30	0	8967421952	48	15059
2026-01-09 20:00:42.11	237.99	16.44	-40.8	-41.1	12.5	0.00e+00	0	30	0	9193914368	48	14816
2026-01-09 20:00:45.10	238.85	16.68	-40.6	-40.9	12.5	0.00e+00	0	31	0	9412018176	48	14466
2026-01-09 20:00:48.11	239.73	16.92	-40.7	-40.9	12.6	0.00e+00	0	31	0	9638510592	48	14593
2026-01-09 20:00:51.10	240.61	17.15	-40.6	-40.8	12.6	0.00e+00	0	31	0	9865003008	48	14435
2026-01-09 20:00:54.09	241.52	17.38	-40.5	-40.8	12.6	0.00e+00	0	31	0	10083106816	48	14307
2026-01-09 20:00:57.09	242.44	17.61	-40.5	-40.8	12.6	0.00e+00	0	31	0	10309599232	48	14335
2026-01-09 20:01:00.06	243.36	17.83	-40.5	-40.7	12.6	0.00e+00	0	31	0	10536091648	48	14270
2026-01-09 20:01:03.04	244.31	18.05	-39.6	-39.9	12.5	0.00e+00	0	31	0	10754195456	46	14527
2026-01-09 20:01:06.02	245.27	18.27	-39.5	-39.8	12.5	0.00e+00	0	31	0	10980687872	46	14358
2026-01-09 20:01:09.02	246.26	18.48	-39.5	-39.8	12.5	0.00e+00	0	31	0	11207180288	46	14328
2026-01-09 20:01:12.01	247.25	18.69	-39.3	-39.6	12.5	0.00e+00	0	31	0	11433672704	45	14886
2026-01-09 20:01:15.00	248.27	18.89	-39.4	-39.7	12.5	0.00e+00	0	31	0	11660165120	45	14958
2026-01-09 20:01:17.98	249.29	19.08	-39.2	-39.5	12.5	0.00e+00	0	31	0	11878268928	45	14669
2026-01-09 20:01:20.97	250.33	19.27	-39.2	-39.5	12.6	0.00e+00	0	31	0	12104761344	45	14639
2026-01-09 20:01:23.97	251.39	19.45	-39.2	-39.5	12.5	0.00e+00	0	31	0	12331253760	45	14609
2026-01-09 20:01:26.97	252.46	19.62	-39.2	-39.5	12.5	0.00e+00	0	31	0	12557746176	45	14697
2026-01-09 20:01:29.96	253.54	19.79	-39.1	-39.4	12.6	0.00e+00	0	31	0	12775849984	45	14451
2026-01-09 20:01:32.94	254.63	19.95	-39.0	-39.3	12.6	0.00e+00	0	31	0	13002342400	45	14337
2026-01-09 20:01:35.91	255.73	20.10	-39.0	-39.3	12.7	0.00e+00	0	31	0	13228834816	45	14288
2026-01-09 20:01:38.91	256.86	20.24	-39.0	-39.2	12.7	0.00e+00	0	31	0	13446938624	45	14266
2026-01-09 20:01:41.90	257.99	20.37	-39.0	-39.2	12.7	0.00e+00	0	31	0	13673431040	45	14271
2026-01-09 20:01:44.88	259.12	20.49	-39.0	-39.3	12.6	0.00e+00	0	31	0	13899923456	45	14328
2026-01-09 20:01:47.86	260.27	20.61	-39.0	-39.2	12.7	0.00e+00	0	31	0	14118027264	45	14257
2026-01-09 20:01:50.86	261.44	20.71	-38.9	-39.1	12.6	0.00e+00	0	31	0	14344519680	44	14945
2026-01-09 20:01:53.84	262.60	20.80	-38.8	-39.1	12.6	0.00e+00	0	31	0	14571012096	44	14823
2026-01-09 20:01:56.83	263.77	20.89	-38.8	-39.1	12.6	0.00e+00	0	31	0	14789115904	44	14862
2026-01-09 20:01:59.82	264.96	20.96	-38.8	-39.1	12.6	0.00e+00	0	31	0	15015608320	44	14859
2026-01-09 20:02:02.79	266.14	21.02	-38.8	-39.1	12.6	0.00e+00	0	31	0	15242100736	44	14858
2026-01-09 20:02:05.78	267.33	21.07	-38.9	-39.1	12.6	0.00e+00	0	31	0	15460204544	44	14934
2026-01-09 20:02:08.77	268.52	21.11	-38.8	-39.1	12.6	0.00e+00	0	31	0	15686696960	44	14886
2026-01-09 20:02:11.76	269.72	21.14	-38.7	-39.0	12.6	0.00e+00	0	31	0	15913189376	44	14744
2026-01-09 20:02:14.73	270.92	21.15	-38.9	-39.1	12.5	0.00e+00	0	31	0	16131293184	44	14926
2026-01-09 20:02:17.72	272.12	21.16	-38.8	-39.1	12.6	0.00e+00	0	31	0	16357785600	44	14849
2026-01-09 20:02:20.72	273.32	21.15	-38.8	-39.1	12.6	0.00e+00	0	31	0	16584278016	44	14900
2026-01-09 20:02:23.69	274.51	21.13	-38.9	-39.1	12.6	0.00e+00	0	31	0	16802381824	44	14917
2026-01-09 20:02:26.68	275.71	21.11	-39.0	-39.3	12.5	0.00e+00	0	31	0	17028874240	44	15176
2026-01-09 20:02:29.66	276.90	21.07	-39.0	-39.3	12.5	0.00e+00	0	31	0	17255366656	44	15205
2026-01-09 20:02:32.64	278.09	21.01	-39.0	-39.3	12.5	0.00e+00	0	31	0	17473470464	44	15169
2026-01-09 20:02:35.63	279.27	20.95	-39.0	-39.3	12.5	0.00e+00	0	31	0	17699962880	44	15162
2026-01-09 20:02:38.61	280.45	20.88	-39.0	-39.3	12.5	0.00e+00	0	31	0	17926455296	44	15149
2026-01-09 20:02:41.58	281.62	20.79	-39.1	-39.4	12.5	0.00e+00	0	31	0	18152947712	44	15299
2026-01-09 20:02:44.59	282.79	20.70	-39.1	-39.4	12.5	0.00e+00	0	31	0	18371051520	44	15402
2026-01-09 20:02:47.57	283.94	20.59	-39.1	-39.4	12.5	0.00e+00	0	31	0	18597543936	44	15350
2026-01-09 20:02:50.57	285.09	20.48	-39.1	-39.4	12.5	0.00e+00	0	31	0	18824036352	44	15353
2026-01-09 20:02:53.57	286.23	20.36	-39.1	-39.4	12.5	0.00e+00	0	31	0	19050528768	44	15444
2026-01-09 20:02:56.56	287.36	20.22	-39.1	-39.4	12.5	0.00e+00	0	31	0	19277021184	44	15379
2026-01-09 20:02:59.57	288.48	20.08	-39.2	-39.5	12.4	0.00e+00	0	31	0	19495124992	44	15613
2026-01-09 20:03:02.58	289.59	19.93	-39.3	-39.6	12.4	0.00e+00	0	31	0	19721617408	44	15811
2026-01-09 20:03:05.59	290.69	19.77	-39.3	-39.6	12.4	0.00e+00	0	31	0	19948109824	44	15712
2026-01-09 20:03:08.57	291.76	19.60	-39.4	-39.7	12.4	0.00e+00	0	31	0	20174602240	44	15905
2026-01-09 20:03:11.57	292.83	19.43	-39.4	-39.7	12.4	0.00e+00	0	31	0	20401094656	44	15882
2026-01-09 20:03:14.57	293.88	19.24	-39.4	-39.7	12.4	0.00e+00	0	31	0	20627587072	44	15961
2026-01-09 20:03:17.56	294.91	19.06	-39.5	-39.8	12.4	0.00e+00	0	31	0	20845690880	44	16117
2026-01-09 20:03:20.54	295.93	18.86	-39.6	-39.9	12.4	0.00e+00	0	31	0	21072183296	44	16205
2026-01-09 20:03:23.55	296.94	18.66	-39.8	-40.1	12.3	0.00e+00	0	31	0	21298675712	45	15738
2026-01-09 20:03:26.53	297.93	18.46	-39.7	-40.0	12.4	0.00e+00	0	31	0	21516779520	45	15485
2026-01-09 20:03:29.53	298.91	18.25	-39.7	-40.0	12.4	0.00e+00	0	31	0	21743271936	45	15595
2026-01-09 20:03:32.53	299.87	18.03	-39.8	-40.1	12.3	0.00e+00	0	31	0	21969764352	45	15678
2026-01-09 20:03:35.50	300.81	17.81	-39.8	-40.1	12.3	0.00e+00	0	31	0	22196256768	45	15796
2026-01-09 20:03:38.49	301.73	17.59	-40.0	-40.3	12.3	0.00e+00	0	31	0	22414360576	45	16112
2026-01-09 20:03:41.47	302.64	17.36	-40.0	-40.3	12.3	0.00e+00	0	31	0	22640852992	45	16063
2026-01-09 20:03:44.44	303.53	17.13	-40.0	-40.3	12.2	0.00e+00	0	31	0	22858956800	45	16164
2026-01-09 20:03:47.44	304.42	16.90	-40.2	-40.5	12.2	0.00e+00	0	31	0	23085449216	46	15548
2026-01-09 20:03:50.44	305.28	16.66	-40.2	-40.5	12.2	0.00e+00	0	31	0	23311941632	46	15576
2026-01-09 20:03:53.43	306.13	16.42	-40.3	-40.5	12.2	0.00e+00	0	31	0	23538434048	46	15641
2026-01-09 20:03:56.40	306.96	16.18	-40.4	-40.7	12.2	0.00e+00	0	31	0	23764926464	46	15861
2026-01-09 20:03:59.39	307.78	15.94	-40.5	-40.8	12.1	0.00e+00	0	31	0	23983030272	46	16033
2026-01-09 20:04:02.36	308.58	15.70	-40.5	-40.8	12.1	0.00e+00	0	31	0	24209522688	46	16124
2026-01-09 20:04:05.34	309.36	15.45	-40.6	-40.9	12.1	0.00e+00	0	31	0	24436015104	46	16223
2026-01-09 20:04:08.34	310.14	15.20	-40.7	-41.0	12.1	0.00e+00	0	31	0	24654118912	47	15490
2026-01-09 20:04:11.32	310.90	14.96	-40.8	-41.1	12.1	0.00e+00	0	31	0	24880611328	47	15825
2026-01-09 20:04:14.31	311.64	14.71	-40.7	-41.0	12.1	0.00e+00	0	31	0	25107103744	47	15574
2026-01-09 20:04:17.31	312.37	14.46	-40.9	-41.2	12.0	0.00e+00	0	31	0	25333596160	47	15908
2026-01-09 20:04:20.30	313.09	14.21	-40.9	-41.2	12.0	0.00e+00	0	31	0	25551699968	47	15902
2026-01-09 20:04:23.28	313.79	13.96	-41.0	-41.3	12.0	0.00e+00	0	31	0	25778192384	47	16156
2026-01-09 20:04:26.28	314.48	13.71	-41.0	-41.3	12.0	0.00e+00	0	31	0	26004684800	47	16155
2026-01-09 20:04:29.26	315.15	13.46	-41.9	-42.2	12.1	0.00e+00	0	31	0	26222788608	49	15908
2026-01-09 20:04:32.24	315.81	13.21	-41.9	-42.2	12.1	0.00e+00	0	31	0	26449281024	49	15995
2026-01-09 20:04:35.21	316.45	12.97	-42.1	-42.4	12.0	0.00e+00	0	31	0	26675773440	49	16349
2026-01-09 20:04:38.19	317.08	12.72	-42.2	-42.5	12.0	0.00e+00	0	31	0	26893877248	50	15586
2026-01-09 20:04:41.15	317.70	12.47	-42.3	-42.6	12.0	0.00e+00	0	31	0	27120369664	50	15737
2026-01-09 20:04:44.14	318.31	12.23	-42.3	-42.6	12.0	0.00e+00	0	31	0	27338473472	50	15758
2026-01-09 20:04:47.13	318.91	11.98	-42.5	-42.8	11.9	0.00e+00	0	31	0	27564965888	50	16037
2026-01-09 20:04:50.13	319.50	11.73	-42.5	-42.8	12.0	0.00e+00	0	31	0	27791458304	51	15263
2026-01-09 20:04:53.11	320.07	11.49	-42.6	-42.9	12.0	0.00e+00	0	31	0	28017950720	51	15335
2026-01-09 20:04:56.09	320.64	11.25	-42.6	-42.9	11.9	0.00e+00	0	31	0	28236054528	51	15466
2026-01-09 20:04:59.08	321.19	11.01	-42.8	-43.1	11.9	0.00e+00	0	31	0	28462546944	51	15760
2026-01-09 20:05:02.07	321.73	10.76	-42.8	-43.1	11.8	0.00e+00	0	31	0	28689039360	51	15797
2026-01-09 20:05:05.04	322.26	10.53	-42.8	-43.1	11.8	0.00e+00	0	31	0	28907143168	51	15810
2026-01-09 20:05:08.04	322.78	10.29	-42.9	-43.2	11.8	0.00e+00	0	31	0	29133635584	51	15906
2026-01-09 20:05:11.03	323.30	10.05	-43.0	-43.3	11.7	0.00e+00	0	31	0	29360128000	51	16118
2026-01-09 20:05:14.03	323.80	9.81	-43.0	-43.3	11.8	6.90e-06	0	31	0	29578231808	52	15218
2026-01-09 20:05:17.02	324.29	9.58	-43.0	-43.3	11.8	0.00e+00	0	31	0	29804724224	52	15270
2026-01-09 20:05:20.01	324.78	9.35	-43.2	-43.6	11.6	0.00e+00	0	31	0	30031216640	52	15668
2026-01-09 20:05:23.00	325.25	9.11	-43.2	-43.5	11.7	0.00e+00	0	31	0	30257709056	52	15596
2026-01-09 20:05:25.98	325.71	8.88	-43.5	-43.9	11.5	0.00e+00	0	31	0	30475812864	52	16209
2026-01-09 20:05:28.97	326.17	8.66	-43.4	-43.8	11.5	6.90e-06	0	31	0	30702305280	52	16048
2026-01-09 20:05:31.96	326.62	8.43	-43.5	-43.9	11.5	0.00e+00	0	31	0	30928797696	52	16217
2026-01-09 20:05:34.95	327.06	8.20	-43.6	-44.0	11.5	0.00e+00	0	31	0	31155290112	53	15487
2026-01-09 20:05:37.92	327.49	7.98	-43.6	-43.9	11.5	0.00e+00	0	31	0	31373393920	53	15357
2026-01-09 20:05:40.90	327.91	7.76	-43.7	-44.0	11.5	0.00e+00	0	31	0	31599886336	53	15585
2026-01-09 20:05:43.87	328.32	7.54	-43.8	-44.1	11.4	0.00e+00	0	31	0	31817990144	53	15822
2026-01-09 20:05:46.86	328.73	7.32	-43.9	-44.2	11.3	6.90e-06	0	31	0	32044482560	53	15975
2026-01-09 20:05:49.85	329.13	7.10	-44.0	-44.3	11.3	2.08e-05	0	31	0	32270974976	53	16138
2026-01-09 20:05:52.84	329.53	6.88	-44.1	-44.5	11.3	0.00e+00	0	31	0	32497467392	54	15499
2026-01-09 20:05:55.83	329.91	6.67	-44.1	-44.4	11.3	0.00e+00	0	31	0	32715571200	54	15419
2026-01-09 20:05:58.82	330.29	6.45	-44.2	-44.6	11.2	1.38e-05	0	31	0	32942063616	54	15654
2026-01-09 20:06:01.82	330.67	6.24	-44.4	-44.7	11.1	2.08e-05	0	31	0	33168556032	54	15944
2026-01-09 20:06:04.81	331.03	6.03	-44.4	-44.7	11.1	2.08e-05	0	31	0	33395048448	54	15974
2026-01-09 20:06:07.81	331.40	5.82	-57.5	-60.8	3.6	3.46e-05	0	31	104	33504100352	80	22743
2026-01-09 20:06:10.80	331.75	5.61	-57.4	-60.6	3.7	3.46e-05	0	31	104	33504100352	80	22129
2026-01-09 20:06:13.79	332.10	5.40	-57.3	-60.6	3.7	3.46e-05	0	31	104	33504100352	80	22110
2026-01-09 20:06:16.77	332.44	5.20	-57.4	-60.6	3.7	3.46e-05	0	31	104	33504100352	80	22170
2026-01-09 20:06:19.74	332.77	5.00	-57.5	-60.8	3.7	3.46e-05	0	31	104	33504100352	80	22648
2026-01-09 20:06:22.74	333.11	4.79	-58.7	-61.9	3.7	3.46e-05	0	31	104	33504100352	83	21686
2026-01-09 20:06:25.73	333.43	4.59	-59.1	-62.3	3.6	3.46e-05	0	31	104	33504100352	83	22777
2026-01-09 20:06:28.72	333.75	4.39	-59.5	-62.7	3.7	3.46e-05	0	31	104	33504100352	84	22401
2026-01-09 20:06:31.69	334.07	4.20	-59.6	-62.7	3.7	3.46e-05	0	31	104	33504100352	84	22590
2026-01-09 20:06:34.67	334.37	4.00	-59.6	-62.8	3.7	3.46e-05	0	31	104	33504100352	84	22774
2026-01-09 20:06:37.65	334.68	3.81	-59.6	-62.8	3.7	3.46e-05	0	31	104	33504100352	84	22727
2026-01-09 20:06:40.65	334.98	3.61	-59.5	-62.8	3.6	3.46e-05	0	31	104	33504100352	84	22687
2026-01-09 20:06:43.63	335.27	3.42	-59.4	-62.6	3.7	3.46e-05	0	30	104	33504100352	84	22269
2026-01-09 20:06:46.63	335.56	3.23	-59.4	-62.6	3.7	3.46e-05	0	30	104	33504100352	84	22113
2026-01-09 20:06:49.62	335.85	3.04	-59.4	-62.6	3.6	3.46e-05	0	30	104	33504100352	84	22255
2026-01-09 20:06:52.62	336.13	2.85	-59.3	-62.6	3.6	3.46e-05	0	31	104	33504100352	84	22211
2026-01-09 20:06:55.62	336.41	2.66	-59.3	-62.5	3.7	3.46e-05	0	30	104	33504100352	84	21977
2026-01-09 20:06:58.61	336.68	2.47	-59.3	-62.5	3.7	3.46e-05	0	30	104	33504100352	84	22044
2026-01-09 20:07:01.61	336.95	2.29	-59.3	-62.5	3.6	3.46e-05	0	30	104	33504100352	84	22040
2026-01-09 20:07:04.61	337.22	2.10	-59.2	-62.4	3.7	3.46e-05	0	30	104	33504100352	84	21761
2026-01-09 20:07:07.63	337.48	1.92	-59.2	-62.4	3.6	3.46e-05	0	30	104	33504100352	84	21831

#Closed at: 2026-01-09 20:07:08
#Recorded file [33504 MB]: D:/lorett/data/31004_260109_225730.dat