passes_logs/2026/01/09/R3.2S_Murmansk/R3.2S_Murmansk__20260109_032415_AQUA_rec.log

#Pass ID: 20260109_032415_AQUA
#Satellite: AQUA
#Configuration: AQUA
#almurnet v.1.7.20251203
#Start time: 2026-01-09 03:24:17

#Version: 2.2.20231116
#Station: R3.2S_Murmansk
#Location: 33.079688 lon 68.888172 lat
#TLE: 1 27424U 02022A   26004.96787593  .00001598  00000+0  32997-3 0  9996
#TLE: 2 27424  98.4069 331.2279 0002002  90.2377   0.6092 14.61798176259425

#Time	Az	El	Level	Level2	SNR	BER	BlckErr	Temp	State	Recorded	gain1	gain2
2026-01-09 03:24:17.72	27.25	2.15	-56.7	-76.0	3.8	7.45e-01	0	22	0	0	82	32862
2026-01-09 03:24:20.71	27.16	2.35	-56.6	-76.0	3.8	7.48e-01	0	22	104	0	80	36583
2026-01-09 03:24:23.71	27.07	2.54	-56.7	-76.0	3.8	7.45e-01	0	22	104	0	81	34589
2026-01-09 03:24:26.70	26.97	2.74	-56.6	-76.0	3.8	7.46e-01	0	22	104	0	81	34693
2026-01-09 03:24:29.70	26.88	2.94	-56.7	-76.0	3.8	7.49e-01	0	22	104	0	81	34646
2026-01-09 03:24:32.71	26.78	3.15	-56.7	-76.0	3.8	7.47e-01	0	22	104	0	81	34661
2026-01-09 03:24:35.71	26.69	3.35	-56.7	-76.0	3.8	7.46e-01	0	22	104	0	81	34661
2026-01-09 03:24:38.71	26.59	3.56	-56.7	-76.0	3.8	7.49e-01	0	22	104	0	81	34560
2026-01-09 03:24:41.72	26.49	3.77	-56.6	-75.7	3.8	7.45e-01	0	22	104	0	81	33667
2026-01-09 03:24:44.73	26.38	3.97	-56.6	-75.2	3.8	7.45e-01	0	22	104	0	81	31682
2026-01-09 03:24:47.73	26.28	4.19	-56.5	-74.9	3.8	7.47e-01	0	22	104	0	81	30483
2026-01-09 03:24:50.75	26.17	4.40	-56.4	-74.2	3.8	7.47e-01	0	23	104	0	81	28035
2026-01-09 03:24:53.74	26.06	4.61	-56.0	-72.1	3.8	7.45e-01	0	23	104	0	81	22174
2026-01-09 03:24:56.76	25.95	4.83	-55.6	-71.0	3.8	7.46e-01	0	23	104	0	80	20759
2026-01-09 03:24:59.76	25.84	5.05	-55.5	-70.6	3.8	7.43e-01	0	23	104	0	80	19715
2026-01-09 03:25:02.75	25.72	5.27	-56.3	-73.6	3.8	7.49e-01	0	23	104	0	80	27805
2026-01-09 03:25:05.73	25.61	5.49	-53.9	-66.9	3.8	7.42e-01	0	23	104	0	77	15263
2026-01-09 03:25:08.72	25.49	5.71	-51.1	-62.9	3.8	7.46e-01	0	23	104	0	71	13689
2026-01-09 03:25:11.71	25.37	5.93	-55.6	-70.3	3.8	7.46e-01	0	23	104	0	80	18989
2026-01-09 03:25:14.69	25.25	6.16	-53.0	-65.6	3.8	7.43e-01	0	23	104	0	75	14769
2026-01-09 03:25:17.68	25.12	6.39	-51.9	-64.0	3.8	7.47e-01	0	23	104	0	71	15457
2026-01-09 03:25:20.68	24.99	6.62	-53.5	-66.3	3.8	7.47e-01	0	23	104	0	74	16956
2026-01-09 03:25:23.68	24.86	6.86	-52.0	-64.1	3.8	7.48e-01	0	23	104	0	73	13932
2026-01-09 03:25:26.67	24.73	7.09	-56.4	-72.6	3.7	7.45e-01	0	23	104	0	80	24777
2026-01-09 03:25:29.67	24.59	7.33	-53.1	-65.6	3.8	7.44e-01	0	23	104	0	75	14745
2026-01-09 03:25:32.68	24.45	7.57	-52.6	-64.8	3.8	7.49e-01	0	23	104	0	73	15066
2026-01-09 03:25:35.69	24.31	7.82	-55.6	-70.0	3.8	7.44e-01	0	23	104	0	80	18378
2026-01-09 03:25:38.69	24.17	8.06	-52.5	-64.7	3.8	7.45e-01	0	23	104	0	74	14086
2026-01-09 03:25:41.69	24.02	8.31	-52.0	-64.1	3.9	7.44e-01	0	23	104	0	72	14784
2026-01-09 03:25:44.70	23.87	8.56	-53.1	-65.5	3.8	7.44e-01	0	23	104	0	74	15480
2026-01-09 03:25:47.70	23.72	8.82	-52.6	-64.7	3.9	7.46e-01	0	23	104	0	74	14187
2026-01-09 03:25:50.70	23.56	9.07	-56.7	-73.4	3.8	7.49e-01	0	23	104	0	81	25618
2026-01-09 03:25:53.69	23.40	9.33	-52.7	-65.0	3.9	7.46e-01	0	23	104	0	74	14550
2026-01-09 03:25:56.68	23.24	9.59	-51.7	-63.6	3.8	7.46e-01	0	23	104	0	72	13907
2026-01-09 03:25:59.69	23.07	9.86	-55.8	-70.2	3.8	7.43e-01	0	23	104	0	80	18912
2026-01-09 03:26:02.69	22.91	10.12	-52.0	-63.9	3.9	7.48e-01	0	23	104	0	73	13608
2026-01-09 03:26:05.70	22.73	10.40	-51.6	-63.4	3.8	7.47e-01	0	23	104	0	70	15357
2026-01-09 03:26:08.70	22.55	10.67	-52.9	-65.1	3.8	7.44e-01	0	23	104	0	73	15611
2026-01-09 03:26:11.69	22.37	10.95	-51.0	-62.6	3.8	7.49e-01	0	23	104	0	71	13218
2026-01-09 03:26:14.69	22.19	11.23	-56.5	-71.9	3.8	7.50e-01	0	23	104	0	80	22796
2026-01-09 03:26:17.68	22.00	11.51	-51.9	-63.8	3.9	7.44e-01	0	23	104	0	73	13422
2026-01-09 03:26:20.67	21.81	11.79	-51.6	-63.3	3.8	7.47e-01	0	23	104	0	71	14321
2026-01-09 03:26:23.67	21.61	12.08	-55.8	-69.8	3.8	7.46e-01	0	23	104	0	80	17988
2026-01-09 03:26:26.65	21.41	12.38	-51.2	-62.9	3.9	7.44e-01	0	23	104	0	71	13612
2026-01-09 03:26:29.65	21.20	12.67	-51.2	-62.8	3.9	7.45e-01	0	23	104	0	70	14372
2026-01-09 03:26:32.66	20.99	12.98	-51.9	-63.7	3.8	7.45e-01	0	23	104	0	72	14156
2026-01-09 03:26:35.66	20.77	13.28	-51.4	-63.1	3.8	7.46e-01	0	23	104	0	71	14025
2026-01-09 03:26:38.65	20.55	13.59	-56.5	-71.7	3.8	7.45e-01	0	23	104	0	80	22315
2026-01-09 03:26:41.66	20.33	13.90	-51.5	-63.2	3.9	7.45e-01	0	23	104	0	72	13345
2026-01-09 03:26:44.65	20.09	14.22	-53.0	-65.2	3.9	7.44e-01	0	23	104	0	73	15782
2026-01-09 03:26:47.66	19.86	14.54	-55.9	-70.0	3.8	7.47e-01	0	23	104	0	80	18412
2026-01-09 03:26:50.65	19.61	14.86	-50.6	-62.1	3.8	7.45e-01	0	23	104	0	70	13256
2026-01-09 03:26:53.65	19.36	15.19	-51.0	-62.6	3.9	7.41e-01	0	23	104	0	71	13251
2026-01-09 03:26:56.66	19.11	15.53	-51.4	-63.0	3.8	7.45e-01	0	23	104	0	71	13811
2026-01-09 03:26:59.65	18.84	15.87	-50.7	-62.2	3.9	7.44e-01	0	23	104	0	70	13313
2026-01-09 03:27:02.65	18.57	16.21	-56.1	-70.4	3.8	7.48e-01	0	23	104	0	79	20537
2026-01-09 03:27:05.65	18.30	16.56	-51.6	-63.4	3.8	7.44e-01	0	23	104	0	72	13644
2026-01-09 03:27:08.64	18.02	16.91	-49.5	-60.9	3.8	7.49e-01	0	23	104	0	68	12848
2026-01-09 03:27:11.64	17.72	17.26	-56.1	-70.2	3.8	7.44e-01	0	23	104	0	80	18744
2026-01-09 03:27:14.64	17.43	17.63	-51.0	-62.5	3.9	7.44e-01	0	23	104	0	71	13082
2026-01-09 03:27:17.61	17.12	17.99	-51.1	-62.6	3.8	7.45e-01	0	23	104	0	69	14824
2026-01-09 03:27:20.61	16.81	18.36	-51.0	-62.4	3.8	7.45e-01	0	23	104	0	71	12954
2026-01-09 03:27:23.60	16.48	18.74	-50.2	-61.6	3.9	7.47e-01	0	23	104	0	69	13220
2026-01-09 03:27:26.60	16.15	19.13	-56.1	-70.3	3.8	7.48e-01	0	23	104	0	79	20145
2026-01-09 03:27:29.58	15.81	19.51	-50.9	-62.5	3.9	7.46e-01	0	23	104	0	71	12994
2026-01-09 03:27:32.58	15.46	19.91	-51.3	-63.1	3.9	7.47e-01	0	23	104	0	70	14728
2026-01-09 03:27:35.59	15.10	20.31	-56.1	-70.1	3.8	7.46e-01	0	23	104	0	81	17591
2026-01-09 03:27:38.58	14.73	20.71	-51.0	-62.6	3.8	7.45e-01	0	23	104	0	71	13162
2026-01-09 03:27:41.58	14.34	21.13	-50.7	-62.4	3.8	7.48e-01	0	23	104	0	69	14391
2026-01-09 03:27:44.57	13.95	21.55	-51.1	-62.7	3.8	7.42e-01	0	23	104	0	71	13380
2026-01-09 03:27:47.58	13.54	21.97	-51.0	-62.5	3.8	7.44e-01	0	24	104	0	71	13049
2026-01-09 03:27:50.57	13.13	22.40	-55.9	-69.6	3.8	7.44e-01	0	23	104	0	79	18689
2026-01-09 03:27:53.56	12.70	22.84	-51.4	-63.1	3.9	7.45e-01	0	23	104	0	72	13143
2026-01-09 03:27:56.56	12.25	23.28	-50.4	-61.8	3.8	7.45e-01	0	23	104	0	70	12773
2026-01-09 03:27:59.55	11.80	23.73	-56.4	-70.5	3.8	7.45e-01	0	23	104	0	81	18422
2026-01-09 03:28:02.55	11.33	24.19	-51.0	-62.5	3.8	7.47e-01	0	24	104	0	71	13029
2026-01-09 03:28:05.56	10.84	24.65	-50.9	-62.5	3.8	7.43e-01	0	23	104	0	69	14566
2026-01-09 03:28:08.56	10.33	25.13	-50.6	-62.1	3.9	7.45e-01	0	23	104	0	70	13176
2026-01-09 03:28:11.57	9.81	25.60	-50.0	-61.4	3.9	7.46e-01	0	23	104	0	69	12908
2026-01-09 03:28:14.56	9.28	26.09	-56.0	-69.7	3.8	7.46e-01	0	23	104	0	79	18845
2026-01-09 03:28:17.55	8.73	26.58	-51.1	-62.6	3.8	7.43e-01	0	24	104	0	71	13152
2026-01-09 03:28:20.54	8.16	27.07	-49.5	-60.8	3.8	7.47e-01	0	24	104	0	68	12767
2026-01-09 03:28:23.53	7.57	27.58	-56.2	-70.0	3.8	7.47e-01	0	24	104	0	81	17422
2026-01-09 03:28:26.53	6.95	28.09	-50.2	-61.6	3.8	7.43e-01	0	23	104	0	69	13234
2026-01-09 03:28:29.52	6.32	28.60	-50.1	-61.5	3.8	7.45e-01	0	23	104	0	67	14611
2026-01-09 03:28:32.52	5.67	29.13	-49.8	-61.3	3.8	7.45e-01	0	23	104	0	69	12684
2026-01-09 03:28:35.51	4.99	29.66	-49.5	-60.8	3.8	7.48e-01	0	24	104	0	68	12675
2026-01-09 03:28:38.50	4.29	30.19	-54.9	-67.6	3.8	7.45e-01	0	24	104	0	77	16673
2026-01-09 03:28:41.50	3.57	30.73	-50.3	-61.4	3.9	7.45e-01	0	23	104	0	69	12921
2026-01-09 03:28:44.50	2.81	31.28	-50.0	-61.4	3.9	7.47e-01	0	24	104	0	67	14457
2026-01-09 03:28:47.48	2.04	31.83	-56.2	-69.7	3.9	7.44e-01	0	23	104	0	81	16846
2026-01-09 03:28:50.47	1.23	32.39	-49.7	-61.0	3.9	7.47e-01	0	24	104	0	68	13093
2026-01-09 03:28:53.46	0.40	32.95	-50.2	-61.7	3.8	7.45e-01	0	23	104	0	68	14091
2026-01-09 03:28:56.46	359.53	33.52	-50.9	-62.4	3.9	7.46e-01	0	23	104	0	71	12954
2026-01-09 03:28:59.46	358.63	34.09	-49.6	-60.9	3.9	7.47e-01	0	24	104	0	68	12870
2026-01-09 03:29:02.48	357.69	34.67	-55.5	-68.5	3.8	7.47e-01	0	24	104	0	78	17367
2026-01-09 03:29:05.48	356.72	35.25	-51.2	-62.7	3.9	7.50e-01	0	23	104	0	71	13350
2026-01-09 03:29:08.46	355.72	35.82	-50.2	-61.5	3.8	7.46e-01	0	24	104	0	68	13734
2026-01-09 03:29:11.45	354.68	36.40	-57.0	-71.4	3.9	7.42e-01	0	24	104	0	83	18137
2026-01-09 03:29:14.43	353.61	36.97	-51.3	-62.8	3.8	7.47e-01	0	24	104	0	71	13429
2026-01-09 03:29:17.43	352.49	37.55	-53.1	-65.1	3.9	7.48e-01	0	23	104	0	75	13945
2026-01-09 03:29:20.42	351.33	38.13	-52.4	-64.2	3.9	7.49e-01	0	24	104	0	74	13307
2026-01-09 03:29:23.42	350.12	38.70	-51.6	-63.2	3.8	7.49e-01	0	24	104	0	71	14177
2026-01-09 03:29:26.41	348.87	39.27	-55.5	-68.3	3.8	7.47e-01	0	24	104	0	78	17083
2026-01-09 03:29:29.40	347.58	39.83	-52.5	-64.4	3.9	7.47e-01	0	24	104	0	74	13612
2026-01-09 03:29:32.39	346.24	40.38	-51.5	-63.0	3.8	7.42e-01	0	24	104	0	71	13808
2026-01-09 03:29:35.39	344.85	40.92	-57.5	-72.3	3.9	7.45e-01	0	24	104	0	84	19090
2026-01-09 03:29:38.39	343.42	41.46	-50.9	-62.3	3.8	7.43e-01	0	24	104	0	71	12733
2026-01-09 03:29:41.40	341.92	41.98	-52.0	-63.7	3.8	7.44e-01	0	24	104	0	73	13340
2026-01-09 03:29:44.40	340.39	42.49	-51.3	-63.0	3.8	7.46e-01	0	24	104	0	72	12987
2026-01-09 03:29:47.40	338.80	42.98	-51.0	-62.5	3.8	7.45e-01	0	24	104	0	71	12997
2026-01-09 03:29:50.40	337.17	43.45	-54.7	-67.0	3.8	7.43e-01	0	24	104	0	76	16471
2026-01-09 03:29:53.39	335.49	43.90	-52.1	-63.8	3.9	7.43e-01	0	24	104	0	73	13447
2026-01-09 03:29:56.39	333.75	44.33	-51.2	-62.6	3.8	7.42e-01	0	24	104	0	70	14001
2026-01-09 03:29:59.40	331.97	44.73	-57.4	-72.0	3.9	7.47e-01	0	24	104	0	84	18431
2026-01-09 03:30:02.39	330.15	45.10	-51.2	-62.8	3.8	7.45e-01	0	24	104	0	71	13557
2026-01-09 03:30:05.39	328.28	45.45	-51.1	-62.6	3.8	7.43e-01	0	24	104	0	70	13995
2026-01-09 03:30:08.39	326.38	45.77	-51.9	-63.7	3.8	7.48e-01	0	24	104	0	73	13337
2026-01-09 03:30:11.39	324.43	46.05	-51.3	-62.7	3.8	7.44e-01	0	24	104	0	71	13383
2026-01-09 03:30:14.37	322.47	46.29	-54.1	-56.8	15.0	6.03e-01	0	24	0	3145728	75	5399
2026-01-09 03:30:17.36	320.47	46.50	-52.0	-54.0	15.7	6.03e-01	0	24	0	8912896	73	4384
2026-01-09 03:30:20.34	318.45	46.68	-50.2	-51.9	15.8	6.06e-01	0	24	0	14155776	69	4337
2026-01-09 03:30:23.33	316.40	46.81	-49.9	-51.6	15.8	6.05e-01	0	24	0	19922944	68	4400
2026-01-09 03:30:26.32	314.34	46.90	-49.8	-51.4	15.9	6.04e-01	0	24	0	25690112	68	4316
2026-01-09 03:30:29.31	312.27	46.96	-49.9	-51.6	15.7	6.02e-01	0	24	0	30932992	68	4429
2026-01-09 03:30:32.30	310.19	46.97	-50.2	-51.9	15.7	6.03e-01	0	24	0	36700160	68	4559
2026-01-09 03:30:35.29	308.12	46.94	-50.0	-51.7	15.8	6.05e-01	0	24	0	42467328	68	4480
2026-01-09 03:30:38.31	306.03	46.88	-49.6	-51.2	15.9	6.06e-01	0	24	0	48234496	68	4237
2026-01-09 03:30:41.30	303.97	46.77	-49.2	-50.8	15.9	6.04e-01	0	24	0	53477376	67	4250
2026-01-09 03:30:44.29	301.93	46.62	-49.8	-51.4	15.9	6.04e-01	0	24	0	59244544	68	4337
2026-01-09 03:30:47.28	299.91	46.43	-49.9	-51.6	15.6	6.04e-01	0	24	0	65011712	67	4698
2026-01-09 03:30:50.27	297.92	46.21	-49.3	-50.9	15.9	6.03e-01	0	24	0	70254592	67	4303
2026-01-09 03:30:53.27	295.95	45.95	-49.9	-51.6	15.7	6.03e-01	0	24	0	76021760	67	4673
2026-01-09 03:30:56.27	294.02	45.66	-49.5	-51.1	15.9	6.04e-01	0	24	0	81788928	68	4164
2026-01-09 03:30:59.27	292.12	45.33	-49.5	-51.1	15.8	6.02e-01	0	24	0	87031808	67	4397
2026-01-09 03:31:02.26	290.27	44.97	-49.4	-51.0	15.8	6.03e-01	0	24	0	92798976	67	4383
2026-01-09 03:31:05.26	288.46	44.59	-48.3	-49.7	15.9	6.02e-01	0	24	0	98566144	65	4209
2026-01-09 03:31:08.25	286.70	44.18	-48.5	-49.9	15.8	6.03e-01	0	24	0	104333312	66	4082
2026-01-09 03:31:11.24	284.99	43.74	-50.7	-52.7	15.6	6.04e-01	0	24	0	109576192	69	4728
2026-01-09 03:31:14.24	283.32	43.28	-48.5	-49.9	15.9	6.04e-01	0	24	0	115343360	65	4319
2026-01-09 03:31:17.23	281.71	42.80	-50.0	-51.8	15.6	6.05e-01	0	24	0	121110528	67	4778
2026-01-09 03:31:20.22	280.14	42.31	-49.4	-51.0	16.0	6.06e-01	0	24	0	126353408	68	4106
2026-01-09 03:31:23.21	278.62	41.80	-49.8	-51.5	15.7	6.04e-01	0	23	0	132120576	67	4611
2026-01-09 03:31:26.19	277.16	41.27	-49.9	-51.6	15.7	6.03e-01	0	24	0	137887744	67	4658
2026-01-09 03:31:29.18	275.74	40.74	-51.1	-53.1	15.5	6.02e-01	0	24	0	143130624	69	4948
2026-01-09 03:31:32.18	274.36	40.19	-50.3	-52.0	15.8	6.03e-01	0	24	0	148897792	69	4376
2026-01-09 03:31:35.17	273.04	39.63	-50.9	-52.7	15.6	6.01e-01	0	23	0	154664960	69	4741
2026-01-09 03:31:38.16	271.76	39.07	-51.0	-52.8	15.7	6.04e-01	0	24	0	160432128	70	4536
2026-01-09 03:31:41.15	270.53	38.50	-50.5	-52.4	15.7	6.02e-01	0	24	0	165675008	69	4549
2026-01-09 03:31:44.15	269.33	37.92	-50.7	-52.5	15.6	6.03e-01	0	24	0	171442176	69	4642
2026-01-09 03:31:47.16	268.18	37.34	-50.7	-52.5	15.6	6.04e-01	0	24	0	177209344	69	4608
2026-01-09 03:31:50.16	267.07	36.76	-50.9	-52.8	15.5	6.03e-01	0	24	0	182976512	69	4799
2026-01-09 03:31:53.15	266.00	36.18	-50.5	-52.4	15.7	6.03e-01	0	24	0	188219392	69	4555
2026-01-09 03:31:56.13	264.97	35.61	-50.5	-52.4	15.7	6.06e-01	0	24	0	193986560	69	4554
2026-01-09 03:31:59.12	263.98	35.03	-50.3	-52.1	15.8	6.05e-01	0	24	0	199753728	69	4394
2026-01-09 03:32:02.12	263.02	34.45	-50.0	-51.7	15.8	6.04e-01	0	24	0	204996608	68	4446
2026-01-09 03:32:05.12	262.10	33.87	-49.8	-51.5	15.8	6.01e-01	0	24	0	210763776	68	4371
2026-01-09 03:32:08.11	261.21	33.30	-50.0	-51.7	15.8	6.04e-01	0	24	0	216530944	68	4475
2026-01-09 03:32:11.10	260.35	32.74	-49.7	-51.4	15.9	6.05e-01	0	24	0	221773824	68	4310
2026-01-09 03:32:14.10	259.52	32.17	-49.7	-51.4	15.9	6.02e-01	0	24	0	227540992	68	4302
2026-01-09 03:32:17.09	258.72	31.62	-49.7	-51.4	15.8	6.05e-01	0	24	0	233308160	68	4323
2026-01-09 03:32:20.09	257.95	31.06	-49.7	-51.4	15.7	6.01e-01	0	24	0	238551040	67	4574
2026-01-09 03:32:23.08	257.21	30.52	-49.2	-50.8	15.9	6.02e-01	0	24	0	244318208	67	4260
2026-01-09 03:32:26.08	256.49	29.97	-49.3	-50.9	15.9	6.02e-01	0	24	0	250085376	67	4314
2026-01-09 03:32:29.06	255.80	29.44	-49.4	-51.0	15.8	6.02e-01	0	24	0	255852544	67	4366
2026-01-09 03:32:32.04	255.13	28.92	-49.1	-50.7	15.9	6.05e-01	0	24	0	261095424	67	4218
2026-01-09 03:32:35.03	254.48	28.39	-49.5	-51.2	15.8	6.01e-01	0	24	0	266862592	67	4454
2026-01-09 03:32:38.03	253.86	27.88	-49.2	-50.9	15.9	6.02e-01	0	24	0	272629760	67	4295
2026-01-09 03:32:41.03	253.25	27.37	-49.4	-51.1	15.8	6.04e-01	0	24	0	277872640	67	4417
2026-01-09 03:32:44.03	252.66	26.86	-49.4	-51.1	15.8	6.02e-01	0	24	0	283639808	67	4427
2026-01-09 03:32:47.02	252.10	26.37	-49.6	-51.3	15.7	6.05e-01	0	24	0	289406976	67	4514
2026-01-09 03:32:50.03	251.54	25.88	-49.2	-50.8	15.9	6.04e-01	0	24	0	295174144	67	4290
2026-01-09 03:32:53.02	251.01	25.39	-49.6	-51.3	15.7	6.04e-01	0	24	0	300417024	67	4526
2026-01-09 03:32:56.02	250.50	24.92	-49.6	-51.2	15.8	6.03e-01	0	24	0	306184192	67	4480
2026-01-09 03:32:59.02	250.00	24.45	-49.4	-51.0	15.8	6.05e-01	0	24	0	311951360	67	4370
2026-01-09 03:33:02.02	249.52	23.98	-49.7	-51.5	15.6	6.03e-01	0	24	0	317194240	67	4602
2026-01-09 03:33:05.02	249.05	23.53	-49.6	-51.3	15.7	6.01e-01	0	23	0	322961408	67	4523
2026-01-09 03:33:08.01	248.59	23.08	-49.6	-51.3	15.7	6.02e-01	0	24	0	328728576	67	4525
2026-01-09 03:33:11.00	248.15	22.64	-49.6	-51.3	15.7	6.05e-01	0	24	0	334495744	67	4529
2026-01-09 03:33:13.99	247.73	22.20	-49.5	-51.2	15.8	6.04e-01	0	24	0	339738624	67	4460
2026-01-09 03:33:16.99	247.31	21.77	-49.3	-51.0	15.8	6.05e-01	0	24	0	345505792	67	4360
2026-01-09 03:33:19.98	246.91	21.35	-49.3	-51.0	15.8	6.04e-01	0	24	0	351272960	67	4366
2026-01-09 03:33:22.97	246.52	20.93	-49.4	-51.0	15.8	6.06e-01	0	24	0	356515840	67	4391
2026-01-09 03:33:25.96	246.14	20.52	-49.4	-51.1	15.8	6.02e-01	0	24	0	362283008	67	4410
2026-01-09 03:33:28.95	245.77	20.12	-49.7	-51.4	15.7	6.05e-01	0	24	0	368050176	67	4575
2026-01-09 03:33:31.94	245.41	19.72	-49.7	-51.4	15.7	6.05e-01	0	24	0	373293056	67	4585
2026-01-09 03:33:34.94	245.06	19.32	-49.2	-50.8	15.9	6.05e-01	0	24	0	379060224	67	4278
2026-01-09 03:33:37.93	244.72	18.94	-49.3	-50.9	15.9	6.02e-01	0	24	0	384827392	67	4338
2026-01-09 03:33:40.92	244.39	18.55	-49.5	-51.2	15.7	6.04e-01	0	24	0	390594560	67	4467
2026-01-09 03:33:43.91	244.07	18.18	-49.5	-51.2	15.7	6.03e-01	0	23	0	395837440	67	4477
2026-01-09 03:33:46.92	243.76	17.80	-49.4	-51.1	15.8	6.05e-01	0	24	0	401604608	67	4402
2026-01-09 03:33:49.90	243.45	17.44	-49.4	-51.1	15.8	6.02e-01	0	24	0	407371776	67	4429
2026-01-09 03:33:52.88	243.16	17.08	-49.4	-51.1	15.7	6.05e-01	0	24	0	412614656	67	4418
2026-01-09 03:33:55.87	242.87	16.73	-49.4	-51.1	15.8	6.04e-01	0	24	0	418381824	67	4407
2026-01-09 03:33:58.87	242.59	16.37	-49.3	-51.1	15.8	6.05e-01	0	24	0	424148992	67	4393
2026-01-09 03:34:01.87	242.31	16.03	-49.3	-51.0	15.8	6.04e-01	0	24	0	429391872	67	4361
2026-01-09 03:34:04.88	242.04	15.68	-49.3	-51.0	15.8	6.05e-01	0	24	0	435159040	67	4354
2026-01-09 03:34:07.87	241.78	15.35	-49.4	-51.1	15.8	6.03e-01	0	24	0	440926208	67	4431
2026-01-09 03:34:10.87	241.53	15.01	-49.4	-51.2	15.8	6.04e-01	0	24	0	446693376	67	4448
2026-01-09 03:34:13.88	241.28	14.68	-49.4	-51.1	15.8	6.02e-01	0	24	0	451936256	67	4435
2026-01-09 03:34:16.87	241.03	14.36	-49.3	-51.0	15.8	6.05e-01	0	24	0	457703424	67	4378
2026-01-09 03:34:19.87	240.79	14.04	-49.4	-51.2	15.7	6.03e-01	0	24	0	463470592	67	4449
2026-01-09 03:34:22.87	240.56	13.72	-49.4	-51.1	15.8	6.02e-01	0	24	0	469237760	67	4403
2026-01-09 03:34:25.85	240.34	13.41	-49.4	-51.1	15.8	6.04e-01	0	24	0	474480640	67	4401
2026-01-09 03:34:28.84	240.12	13.11	-49.5	-51.2	15.7	6.06e-01	0	24	0	480247808	67	4479
2026-01-09 03:34:31.82	239.90	12.80	-49.4	-51.2	15.8	6.04e-01	0	24	0	486014976	67	4454
2026-01-09 03:34:34.82	239.69	12.50	-49.5	-51.2	15.7	6.03e-01	0	24	0	491257856	67	4462
2026-01-09 03:34:37.80	239.49	12.21	-49.6	-51.3	15.7	6.04e-01	0	24	0	497025024	67	4525
2026-01-09 03:34:40.81	239.28	11.92	-49.6	-51.4	15.7	6.04e-01	0	24	0	502792192	67	4574
2026-01-09 03:34:43.80	239.09	11.63	-49.7	-51.5	15.7	6.05e-01	0	24	0	508559360	67	4606
2026-01-09 03:34:46.80	238.89	11.34	-49.6	-51.4	15.7	6.04e-01	0	24	0	513802240	67	4574
2026-01-09 03:34:49.80	238.70	11.06	-49.7	-51.6	15.6	6.04e-01	0	24	0	519569408	67	4653
2026-01-09 03:34:52.81	238.52	10.78	-49.7	-51.6	15.6	6.04e-01	0	24	0	525336576	67	4659
2026-01-09 03:34:55.79	238.34	10.50	-49.8	-51.7	15.6	6.03e-01	0	24	0	530579456	67	4720
2026-01-09 03:34:58.79	238.16	10.23	-49.8	-51.7	15.5	6.04e-01	0	24	0	536346624	67	4723
2026-01-09 03:35:01.79	237.99	9.96	-49.9	-51.8	15.5	6.04e-01	0	24	0	542113792	67	4774
2026-01-09 03:35:04.79	237.82	9.69	-49.8	-51.6	15.6	6.02e-01	0	24	0	547356672	67	4701
2026-01-09 03:35:07.79	237.65	9.43	-49.9	-51.8	15.5	6.05e-01	0	24	0	553123840	67	4772
2026-01-09 03:35:10.78	237.49	9.17	-49.8	-51.6	15.6	6.03e-01	0	24	0	558891008	67	4681
2026-01-09 03:35:13.77	237.33	8.91	-49.9	-51.8	15.5	6.06e-01	0	24	0	564658176	67	4809
2026-01-09 03:35:16.77	237.17	8.65	-49.9	-51.8	15.5	6.04e-01	0	24	0	569901056	67	4812
2026-01-09 03:35:19.75	237.02	8.40	-50.1	-52.0	15.5	6.03e-01	0	24	0	575668224	67	4907
2026-01-09 03:35:22.73	236.87	8.15	-50.3	-52.2	15.5	6.06e-01	0	24	0	581435392	68	4741
2026-01-09 03:35:25.73	236.72	7.90	-50.2	-52.2	15.5	6.04e-01	0	24	0	586678272	68	4720
2026-01-09 03:35:28.72	236.58	7.66	-50.2	-52.2	15.5	6.04e-01	0	24	0	592445440	68	4711
2026-01-09 03:35:31.72	236.44	7.42	-50.3	-52.2	15.5	6.02e-01	0	24	0	598212608	68	4750
2026-01-09 03:35:34.71	236.30	7.18	-50.2	-52.2	15.5	6.04e-01	0	24	0	603979776	68	4732
2026-01-09 03:35:37.71	236.16	6.94	-50.4	-52.5	15.4	6.04e-01	0	23	0	609222656	68	4881
2026-01-09 03:35:40.71	236.03	6.70	-50.5	-52.6	15.4	6.05e-01	0	24	0	614989824	68	4934
2026-01-09 03:35:43.71	235.89	6.47	-50.4	-52.5	15.6	6.02e-01	0	24	0	620756992	69	4614
2026-01-09 03:35:46.72	235.76	6.24	-50.7	-52.8	15.4	6.03e-01	0	24	0	625999872	69	4800
2026-01-09 03:35:49.71	235.64	6.01	-50.6	-52.7	15.5	6.02e-01	0	24	0	631767040	69	4751
2026-01-09 03:35:52.72	235.51	5.78	-50.6	-52.7	15.5	6.03e-01	0	24	0	637534208	69	4741
2026-01-09 03:35:55.71	235.39	5.55	-50.8	-53.1	15.3	6.04e-01	0	24	0	643301376	69	4930
2026-01-09 03:35:58.70	235.27	5.33	-50.9	-53.1	15.3	6.03e-01	0	24	0	648544256	69	4977
2026-01-09 03:36:01.69	235.15	5.11	-51.1	-53.4	15.2	6.04e-01	0	24	0	654311424	69	5149
2026-01-09 03:36:04.69	235.04	4.89	-57.8	-77.1	3.8	7.44e-01	0	24	104	658505728	83	34998
2026-01-09 03:36:07.68	234.93	4.67	-58.6	-77.9	3.8	7.45e-01	0	24	104	658505728	84	36352
2026-01-09 03:36:10.68	234.81	4.46	-58.9	-78.2	3.8	7.48e-01	0	24	104	658505728	85	35518
2026-01-09 03:36:13.68	234.70	4.24	-59.0	-78.4	3.8	7.44e-01	0	24	104	658505728	85	36209
2026-01-09 03:36:16.68	234.60	4.03	-59.1	-78.5	3.8	7.44e-01	0	24	104	658505728	85	36526
2026-01-09 03:36:19.66	234.49	3.82	-59.2	-78.5	3.8	7.50e-01	0	24	104	658505728	86	34859
2026-01-09 03:36:22.67	234.39	3.61	-59.3	-78.6	3.8	7.43e-01	0	24	104	658505728	86	35187
2026-01-09 03:36:25.67	234.28	3.41	-59.4	-78.7	3.8	7.46e-01	0	24	104	658505728	86	35581
2026-01-09 03:36:28.67	234.18	3.20	-59.3	-78.6	3.8	7.45e-01	0	24	104	658505728	86	35232
2026-01-09 03:36:31.67	234.08	3.00	-59.2	-78.6	3.8	7.44e-01	0	24	104	658505728	86	35132
2026-01-09 03:36:34.66	233.99	2.80	-59.2	-78.6	3.8	7.46e-01	0	24	104	658505728	86	34887
2026-01-09 03:36:37.65	233.89	2.60	-59.2	-78.5	3.8	7.43e-01	0	24	104	658505728	86	34824
2026-01-09 03:36:40.64	233.80	2.40	-59.2	-78.5	3.8	7.44e-01	0	24	104	658505728	86	34795
2026-01-09 03:36:43.63	233.70	2.20	-59.2	-78.5	3.8	7.44e-01	0	24	104	658505728	86	34746
2026-01-09 03:36:46.64	233.61	2.00	-59.1	-78.5	3.8	7.49e-01	0	24	104	658505728	86	34642

#Closed at: 2026-01-09 03:36:47
#Recorded file [658 MB]: D:/lorett/data/31004_260109_062417.dat