passes_logs/2026/01/09/R3.2S_Murmansk/R3.2S_Murmansk__20260109_104110_FENGYUN_3D_rec.log

#Pass ID: 20260109_104110_FENGYUN 3D
#Satellite: FENGYUN 3D
#Configuration: FENGYUN 3D
#almurnet v.1.7.20251203
#Start time: 2026-01-09 10:41:12

#Version: 2.2.20231116
#Station: R3.2S_Murmansk
#Location: 33.079688 lon 68.888172 lat
#TLE: 1 43010U 17072A   26008.59015185 -.00000067  00000+0 -98204-5 0  9997
#TLE: 2 43010  98.9935 340.3069 0002117 119.1923 240.9464 14.19693468422340

#Time	Az	El	Level	Level2	SNR	BER	BlckErr	Temp	State	Recorded	gain1	gain2
2026-01-09 10:41:12.49	131.18	2.13	-57.2	-70.2	3.8	8.46e-01	0	22	0	0	80	16219
2026-01-09 10:41:16.42	131.11	2.38	-57.2	-70.2	3.8	8.45e-01	0	22	104	0	79	17124
2026-01-09 10:41:20.36	131.03	2.63	-57.2	-70.2	3.8	8.45e-01	0	22	104	0	79	17084
2026-01-09 10:41:24.30	130.96	2.89	-57.2	-70.1	3.8	8.46e-01	0	22	104	0	79	17061
2026-01-09 10:41:28.24	130.88	3.15	-57.2	-70.1	3.8	8.45e-01	0	22	104	0	79	16964
2026-01-09 10:41:32.19	130.80	3.41	-57.1	-69.8	3.8	8.46e-01	0	22	104	0	79	16385
2026-01-09 10:41:36.13	130.72	3.68	-56.9	-66.6	4.2	8.38e-01	0	22	0	0	79	11413
2026-01-09 10:41:40.06	130.63	3.94	-56.3	-63.3	5.7	4.36e-01	0	22	0	4194304	79	7803
2026-01-09 10:41:44.00	130.55	4.21	-55.3	-60.0	8.4	4.37e-02	0	22	0	26214400	77	5960
2026-01-09 10:41:47.94	130.46	4.49	-52.9	-55.6	11.9	3.43e-05	0	23	0	48234496	72	4813
2026-01-09 10:41:51.87	130.37	4.76	-50.5	-52.5	13.6	0.00e+00	0	23	0	70254592	67	4490
2026-01-09 10:41:55.81	130.28	5.04	-50.1	-52.0	13.8	0.00e+00	0	23	0	92274688	66	4458
2026-01-09 10:41:59.75	130.19	5.32	-51.2	-53.4	13.1	0.00e+00	0	23	0	115343360	67	4972
2026-01-09 10:42:03.69	130.10	5.60	-49.5	-51.2	14.2	0.00e+00	0	23	0	137363456	65	4335
2026-01-09 10:42:07.63	130.00	5.89	-49.7	-51.5	14.1	0.00e+00	0	23	0	159383552	65	4447
2026-01-09 10:42:11.58	129.90	6.18	-49.1	-50.8	14.4	0.00e+00	0	23	0	181403648	64	4363
2026-01-09 10:42:15.53	129.80	6.47	-49.2	-50.8	14.4	0.00e+00	0	23	0	203423744	64	4391
2026-01-09 10:42:19.45	129.70	6.77	-49.1	-50.8	14.4	0.00e+00	0	23	0	225443840	64	4360
2026-01-09 10:42:23.40	129.59	7.07	-49.1	-50.7	14.5	0.00e+00	0	23	0	248512512	64	4308
2026-01-09 10:42:27.34	129.48	7.37	-48.9	-50.5	14.6	0.00e+00	0	23	0	270532608	64	4238
2026-01-09 10:42:31.30	129.37	7.68	-48.9	-50.5	14.6	0.00e+00	0	23	0	292552704	64	4226
2026-01-09 10:42:35.23	129.26	7.99	-48.8	-50.3	14.7	0.00e+00	0	23	0	314572800	64	4144
2026-01-09 10:42:39.17	129.14	8.30	-48.6	-50.2	14.7	0.00e+00	0	23	0	336592896	63	4300
2026-01-09 10:42:43.11	129.02	8.62	-48.5	-50.0	14.8	0.00e+00	0	23	0	358612992	63	4217
2026-01-09 10:42:47.05	128.90	8.94	-48.5	-50.0	14.8	0.00e+00	0	23	0	380633088	63	4212
2026-01-09 10:42:51.00	128.78	9.27	-48.3	-49.8	15.0	0.00e+00	0	23	0	403701760	63	4118
2026-01-09 10:42:54.94	128.65	9.60	-48.1	-49.6	14.9	0.00e+00	0	23	0	425721856	62	4263
2026-01-09 10:42:58.87	128.52	9.93	-48.0	-49.5	15.0	0.00e+00	0	23	0	447741952	62	4195
2026-01-09 10:43:02.82	128.38	10.27	-48.0	-49.4	15.0	0.00e+00	0	23	0	469762048	62	4189
2026-01-09 10:43:06.76	128.24	10.61	-47.9	-49.4	15.0	0.00e+00	0	23	0	491782144	62	4168
2026-01-09 10:43:10.69	128.10	10.96	-47.9	-49.3	15.0	0.00e+00	0	23	0	513802240	62	4145
2026-01-09 10:43:14.62	127.96	11.31	-47.9	-49.4	15.0	0.00e+00	0	23	0	535822336	62	4154
2026-01-09 10:43:18.56	127.81	11.67	-47.8	-49.2	15.1	0.00e+00	0	23	0	557842432	62	4088
2026-01-09 10:43:22.49	127.66	12.03	-47.8	-49.3	15.1	0.00e+00	0	23	0	580911104	62	4106
2026-01-09 10:43:26.43	127.50	12.40	-47.7	-49.1	15.2	0.00e+00	0	23	0	602931200	62	4020
2026-01-09 10:43:30.37	127.34	12.77	-47.5	-49.0	15.1	0.00e+00	0	23	0	624951296	61	4194
2026-01-09 10:43:34.32	127.17	13.15	-47.3	-48.7	15.2	0.00e+00	0	24	0	646971392	61	4084
2026-01-09 10:43:38.24	127.00	13.53	-47.3	-48.7	15.3	0.00e+00	0	24	0	668991488	61	4058
2026-01-09 10:43:42.19	126.82	13.92	-47.1	-48.4	15.2	0.00e+00	0	23	0	691011584	60	4193
2026-01-09 10:43:46.13	126.64	14.32	-47.0	-48.3	15.3	0.00e+00	0	23	0	713031680	60	4136
2026-01-09 10:43:50.06	126.46	14.72	-47.0	-48.4	15.2	0.00e+00	0	24	0	735051776	60	4153
2026-01-09 10:43:54.00	126.27	15.13	-47.0	-48.3	15.3	0.00e+00	0	24	0	758120448	60	4136
2026-01-09 10:43:57.95	126.07	15.55	-46.7	-48.0	15.5	0.00e+00	0	23	0	780140544	60	3987
2026-01-09 10:44:01.89	125.86	15.97	-46.8	-48.1	15.2	0.00e+00	0	24	0	802160640	59	4278
2026-01-09 10:44:05.84	125.65	16.40	-46.6	-47.9	15.3	0.00e+00	0	24	0	824180736	59	4181
2026-01-09 10:44:09.77	125.44	16.84	-46.5	-47.8	15.4	0.00e+00	0	23	0	846200832	59	4140
2026-01-09 10:44:13.71	125.22	17.28	-46.5	-47.8	15.4	0.00e+00	0	24	0	868220928	59	4112
2026-01-09 10:44:17.64	124.99	17.73	-46.4	-47.6	15.5	0.00e+00	0	24	0	890241024	59	4051
2026-01-09 10:44:21.59	124.75	18.19	-46.3	-47.6	15.5	0.00e+00	0	24	0	913309696	59	4048
2026-01-09 10:44:25.53	124.50	18.66	-46.2	-47.5	15.6	0.00e+00	0	24	0	935329792	59	3978
2026-01-09 10:44:29.47	124.25	19.14	-46.2	-47.5	15.4	0.00e+00	0	24	0	957349888	58	4229
2026-01-09 10:44:33.41	123.99	19.62	-46.2	-47.5	15.3	0.00e+00	0	24	0	979369984	58	4231
2026-01-09 10:44:37.34	123.72	20.11	-46.1	-47.5	15.4	0.00e+00	0	24	0	1001390080	58	4197
2026-01-09 10:44:41.28	123.44	20.62	-46.0	-47.4	15.4	0.00e+00	0	24	0	1023410176	58	4150
2026-01-09 10:44:45.22	123.15	21.13	-45.9	-47.2	15.5	0.00e+00	0	24	0	1045430272	58	4060
2026-01-09 10:44:49.14	122.85	21.65	-45.8	-47.1	15.6	0.00e+00	0	24	0	1067450368	58	4022
2026-01-09 10:44:53.09	122.54	22.18	-45.8	-47.0	15.6	0.00e+00	0	24	0	1090519040	58	4001
2026-01-09 10:44:57.02	122.22	22.72	-45.6	-46.9	15.5	0.00e+00	0	24	0	1112539136	57	4167
2026-01-09 10:45:00.96	121.88	23.28	-45.6	-46.9	15.5	0.00e+00	0	24	0	1134559232	57	4154
2026-01-09 10:45:04.91	121.54	23.84	-45.2	-46.4	15.7	0.00e+00	0	24	0	1156579328	57	3930
2026-01-09 10:45:08.85	121.18	24.42	-45.1	-46.3	15.6	0.00e+00	0	24	0	1178599424	56	4138
2026-01-09 10:45:12.80	120.80	25.01	-45.0	-46.2	15.6	0.00e+00	0	24	0	1200619520	56	4091
2026-01-09 10:45:16.73	120.41	25.61	-45.1	-46.3	15.6	0.00e+00	0	24	0	1222639616	56	4138
2026-01-09 10:45:20.67	120.01	26.22	-45.0	-46.2	15.6	0.00e+00	0	24	0	1244659712	56	4095
2026-01-09 10:45:24.61	119.59	26.84	-45.0	-46.3	15.6	0.00e+00	0	24	0	1267728384	56	4102
2026-01-09 10:45:28.55	119.15	27.48	-44.9	-46.1	15.7	0.00e+00	0	24	0	1289748480	56	4027
2026-01-09 10:45:32.50	118.69	28.13	-45.2	-46.3	15.6	0.00e+00	0	24	0	1311768576	56	4119
2026-01-09 10:45:36.44	118.22	28.79	-45.0	-46.1	15.7	0.00e+00	0	24	0	1333788672	56	4023
2026-01-09 10:45:40.38	117.72	29.47	-44.7	-45.8	15.8	0.00e+00	0	24	0	1355808768	56	3888
2026-01-09 10:45:44.32	117.20	30.16	-44.4	-45.4	15.8	0.00e+00	0	24	0	1377828864	55	3956
2026-01-09 10:45:48.27	116.66	30.87	-44.4	-45.5	15.7	0.00e+00	0	24	0	1399848960	55	3987
2026-01-09 10:45:52.21	116.09	31.58	-44.3	-45.4	15.8	0.00e+00	0	24	0	1422917632	55	3920
2026-01-09 10:45:56.15	115.49	32.32	-44.3	-45.3	15.7	0.00e+00	0	24	0	1444937728	54	4133
2026-01-09 10:46:00.08	114.87	33.06	-44.4	-45.5	15.6	0.00e+00	0	24	0	1466957824	54	4201
2026-01-09 10:46:04.03	114.22	33.83	-44.2	-45.3	15.7	0.00e+00	0	24	0	1488977920	54	4112
2026-01-09 10:46:08.00	113.53	34.61	-44.3	-45.3	15.6	0.00e+00	0	24	0	1510998016	54	4143
2026-01-09 10:46:11.96	112.80	35.41	-44.2	-45.3	15.7	0.00e+00	0	24	0	1534066688	54	4121
2026-01-09 10:46:15.92	112.04	36.22	-44.4	-45.4	15.6	0.00e+00	0	24	0	1556086784	54	4171
2026-01-09 10:46:19.87	111.25	37.04	-44.3	-45.3	15.7	0.00e+00	0	24	0	1578106880	54	4136
2026-01-09 10:46:23.82	110.41	37.88	-44.1	-45.1	15.7	0.00e+00	0	24	0	1600126976	54	4021
2026-01-09 10:46:27.79	109.52	38.74	-44.5	-45.6	15.6	0.00e+00	0	24	0	1623195648	54	4243
2026-01-09 10:46:31.75	108.58	39.60	-44.5	-45.5	15.6	0.00e+00	0	24	0	1645215744	54	4242
2026-01-09 10:46:35.70	107.59	40.48	-44.6	-45.7	15.6	0.00e+00	0	24	0	1667235840	54	4296
2026-01-09 10:46:39.67	106.54	41.38	-44.5	-45.6	15.6	0.00e+00	0	24	0	1689255936	54	4256
2026-01-09 10:46:43.62	105.44	42.27	-44.8	-45.8	15.6	0.00e+00	0	24	0	1711276032	54	4382
2026-01-09 10:46:47.57	104.27	43.18	-44.7	-45.8	15.6	0.00e+00	0	24	0	1734344704	54	4376
2026-01-09 10:46:51.51	103.04	44.10	-44.6	-45.7	15.6	0.00e+00	0	24	0	1756364800	54	4299
2026-01-09 10:46:55.46	101.73	45.02	-44.7	-45.7	15.6	0.00e+00	0	24	0	1778384896	54	4335
2026-01-09 10:46:59.41	100.34	45.94	-44.9	-46.0	15.6	0.00e+00	0	24	0	1800404992	54	4473
2026-01-09 10:47:03.36	98.87	46.87	-44.9	-45.9	15.6	0.00e+00	0	24	0	1822425088	55	4181
2026-01-09 10:47:07.32	97.30	47.80	-45.0	-46.1	15.6	0.00e+00	0	24	0	1845493760	55	4248
2026-01-09 10:47:11.29	95.63	48.72	-45.2	-46.3	15.5	0.00e+00	0	24	0	1867513856	55	4381
2026-01-09 10:47:15.25	93.87	49.64	-45.9	-47.1	15.5	0.00e+00	0	24	0	1889533952	57	4252
2026-01-09 10:47:19.22	91.98	50.54	-45.7	-46.8	15.6	0.00e+00	0	24	0	1911554048	57	4135
2026-01-09 10:47:23.17	90.00	51.42	-45.7	-46.8	15.6	0.00e+00	0	24	0	1934622720	57	4108
2026-01-09 10:47:27.14	87.88	52.28	-45.8	-46.9	15.5	0.00e+00	0	23	0	1956642816	57	4181
2026-01-09 10:47:31.10	85.64	53.11	-45.8	-46.9	15.5	0.00e+00	0	24	0	1978662912	57	4161
2026-01-09 10:47:35.06	83.28	53.91	-45.3	-46.3	15.7	0.00e+00	0	24	0	2000683008	57	3897
2026-01-09 10:47:39.02	80.78	54.67	-45.5	-46.6	15.6	0.00e+00	0	24	0	2023751680	57	4046
2026-01-09 10:47:42.97	78.16	55.37	-45.5	-46.6	15.6	0.00e+00	0	24	0	2045771776	57	4045
2026-01-09 10:47:46.92	75.40	56.03	-45.4	-46.5	15.7	0.00e+00	0	24	0	2067791872	57	3963
2026-01-09 10:47:50.87	72.52	56.62	-45.1	-46.2	15.5	0.00e+00	0	24	0	2089811968	55	4314
2026-01-09 10:47:54.81	69.53	57.15	-45.7	-46.8	15.5	0.00e+00	0	24	0	2111832064	56	4372
2026-01-09 10:47:58.77	66.42	57.60	-45.2	-46.3	15.6	0.00e+00	0	24	0	2134900736	56	4129
2026-01-09 10:48:02.73	63.20	57.97	-45.5	-46.5	15.5	0.00e+00	0	24	0	2156920832	56	4237
2026-01-09 10:48:06.68	59.92	58.26	-45.6	-46.8	15.5	0.00e+00	0	24	0	2178940928	56	4348
2026-01-09 10:48:10.64	56.56	58.46	-45.5	-46.6	15.5	0.00e+00	0	24	0	2200961024	56	4281
2026-01-09 10:48:14.60	53.17	58.56	-45.3	-46.4	15.6	0.00e+00	0	24	0	2224029696	56	4155
2026-01-09 10:48:18.54	49.78	58.58	-45.3	-46.4	15.6	0.00e+00	0	24	0	2246049792	56	4164
2026-01-09 10:48:22.49	46.39	58.49	-45.4	-46.4	15.6	0.00e+00	0	24	0	2268069888	56	4190
2026-01-09 10:48:26.45	43.03	58.32	-45.1	-46.2	15.6	0.00e+00	0	24	0	2290089984	56	4058
2026-01-09 10:48:30.40	39.73	58.05	-45.5	-46.6	15.5	0.00e+00	0	24	0	2312110080	56	4252
2026-01-09 10:48:34.34	36.51	57.71	-45.1	-46.1	15.7	0.00e+00	0	24	0	2334130176	56	4036
2026-01-09 10:48:38.28	33.38	57.28	-45.1	-46.2	15.7	0.00e+00	0	24	0	2356150272	56	4055
2026-01-09 10:48:42.23	30.36	56.77	-45.0	-46.0	15.7	0.00e+00	0	24	0	2379218944	56	3997
2026-01-09 10:48:46.18	27.45	56.19	-44.8	-45.8	15.8	0.00e+00	0	24	0	2401239040	56	3890
2026-01-09 10:48:50.13	24.66	55.56	-44.9	-46.0	15.7	0.00e+00	0	24	0	2423259136	56	3961
2026-01-09 10:48:54.09	22.00	54.86	-45.3	-46.4	15.6	0.00e+00	0	24	0	2445279232	56	4182
2026-01-09 10:48:58.02	19.49	54.12	-45.3	-46.4	15.6	0.00e+00	0	24	0	2467299328	56	4169
2026-01-09 10:49:01.96	17.10	53.34	-45.2	-46.2	15.6	0.00e+00	0	24	0	2490368000	56	4091
2026-01-09 10:49:05.91	14.84	52.52	-45.4	-46.5	15.6	0.00e+00	0	24	0	2512388096	56	4206
2026-01-09 10:49:09.87	12.69	51.67	-45.1	-46.1	15.7	0.00e+00	0	24	0	2534408192	56	4035
2026-01-09 10:49:13.83	10.67	50.80	-45.3	-46.4	15.6	0.00e+00	0	24	0	2556428288	56	4157
2026-01-09 10:49:17.80	8.76	49.90	-44.8	-45.8	15.7	0.00e+00	0	24	0	2579496960	56	3910
2026-01-09 10:49:21.77	6.96	48.99	-44.9	-45.9	15.7	0.00e+00	0	24	0	2601517056	56	3951
2026-01-09 10:49:25.72	5.28	48.07	-45.0	-46.0	15.7	0.00e+00	0	24	0	2623537152	56	4003
2026-01-09 10:49:29.68	3.68	47.15	-44.9	-46.0	15.7	0.00e+00	0	24	0	2645557248	56	3980
2026-01-09 10:49:33.65	2.18	46.22	-44.4	-45.4	15.7	0.00e+00	0	24	0	2668625920	55	3945
2026-01-09 10:49:37.60	0.77	45.30	-44.1	-45.1	15.7	0.00e+00	0	24	0	2690646016	54	4023
2026-01-09 10:49:41.55	359.44	44.37	-43.9	-45.0	15.8	0.00e+00	0	24	0	2712666112	54	3963
2026-01-09 10:49:45.51	358.18	43.46	-44.1	-45.2	15.7	0.00e+00	0	24	0	2734686208	54	4053
2026-01-09 10:49:49.47	357.00	42.55	-44.1	-45.1	15.7	0.00e+00	0	24	0	2756706304	54	4041
2026-01-09 10:49:53.43	355.88	41.64	-44.3	-45.3	15.6	0.00e+00	0	24	0	2779774976	54	4134
2026-01-09 10:49:57.39	354.82	40.75	-44.3	-45.4	15.7	0.00e+00	0	24	0	2801795072	54	4151
2026-01-09 10:50:01.35	353.82	39.87	-44.0	-45.1	15.7	0.00e+00	0	24	0	2823815168	54	4010
2026-01-09 10:50:05.30	352.87	39.01	-43.8	-44.8	15.8	0.00e+00	0	24	0	2845835264	54	3908
2026-01-09 10:50:09.26	351.97	38.15	-43.9	-45.0	15.8	0.00e+00	0	24	0	2868903936	54	3970
2026-01-09 10:50:13.23	351.12	37.31	-43.9	-44.9	15.8	0.00e+00	0	24	0	2890924032	54	3942
2026-01-09 10:50:17.19	350.31	36.48	-44.0	-45.1	15.7	0.00e+00	0	24	0	2912944128	54	4029
2026-01-09 10:50:21.16	349.54	35.66	-44.0	-45.0	15.7	0.00e+00	0	24	0	2934964224	54	3987
2026-01-09 10:50:25.10	348.81	34.87	-44.2	-45.2	15.7	0.00e+00	0	24	0	2958032896	54	4086
2026-01-09 10:50:29.07	348.11	34.08	-44.1	-45.2	15.7	0.00e+00	0	24	0	2980052992	54	4052
2026-01-09 10:50:33.01	347.45	33.32	-43.9	-44.9	15.8	0.00e+00	0	24	0	3002073088	54	3955
2026-01-09 10:50:36.97	346.82	32.56	-44.0	-45.0	15.7	0.00e+00	0	24	0	3024093184	54	4004
2026-01-09 10:50:40.92	346.22	31.83	-44.2	-45.2	15.7	0.00e+00	0	24	0	3046113280	54	4086
2026-01-09 10:50:44.87	345.64	31.10	-44.4	-45.4	15.6	0.00e+00	0	24	0	3069181952	54	4188
2026-01-09 10:50:48.82	345.09	30.39	-44.2	-45.3	15.7	0.00e+00	0	24	0	3091202048	54	4117
2026-01-09 10:50:52.76	344.57	29.70	-44.3	-45.3	15.6	0.00e+00	0	24	0	3113222144	54	4142
2026-01-09 10:50:56.72	344.07	29.02	-44.4	-45.5	15.6	0.00e+00	0	24	0	3135242240	54	4199
2026-01-09 10:51:00.67	343.58	28.35	-44.7	-45.8	15.6	0.00e+00	0	24	0	3157262336	54	4375
2026-01-09 10:51:04.62	343.12	27.70	-44.7	-45.7	15.6	0.00e+00	0	24	0	3179282432	54	4324
2026-01-09 10:51:08.58	342.68	27.06	-44.6	-45.6	15.6	0.00e+00	0	24	0	3202351104	54	4284
2026-01-09 10:51:12.54	342.25	26.43	-44.6	-45.7	15.6	0.00e+00	0	24	0	3224371200	54	4301
2026-01-09 10:51:16.50	341.84	25.81	-44.6	-45.6	15.6	0.00e+00	0	24	0	3246391296	54	4283
2026-01-09 10:51:20.45	341.45	25.21	-44.6	-45.7	15.6	0.00e+00	0	24	0	3269459968	54	4305
2026-01-09 10:51:24.40	341.08	24.62	-44.7	-45.7	15.6	0.00e+00	0	24	0	3291480064	54	4337
2026-01-09 10:51:28.36	340.71	24.04	-44.6	-45.7	15.6	0.00e+00	0	24	0	3313500160	54	4308
2026-01-09 10:51:32.32	340.36	23.47	-44.6	-45.7	15.6	0.00e+00	0	24	0	3335520256	54	4293
2026-01-09 10:51:36.27	340.03	22.92	-44.7	-45.8	15.5	0.00e+00	0	24	0	3357540352	54	4344
2026-01-09 10:51:40.22	339.70	22.37	-44.9	-46.0	15.6	0.00e+00	0	24	0	3379560448	55	4216
2026-01-09 10:51:44.18	339.39	21.83	-45.0	-46.1	15.5	0.00e+00	0	24	0	3402629120	55	4243
2026-01-09 10:51:48.13	339.09	21.31	-45.1	-46.1	15.5	0.00e+00	0	24	0	3424649216	55	4284
2026-01-09 10:51:52.09	338.80	20.79	-45.2	-46.3	15.5	0.00e+00	0	24	0	3446669312	55	4363
2026-01-09 10:51:56.05	338.51	20.29	-45.4	-46.5	15.4	0.00e+00	0	24	0	3468689408	55	4486
2026-01-09 10:52:00.00	338.24	19.79	-45.9	-47.0	15.5	0.00e+00	0	24	0	3491758080	57	4218
2026-01-09 10:52:03.95	337.98	19.30	-45.9	-47.1	15.5	0.00e+00	0	24	0	3513778176	57	4263
2026-01-09 10:52:07.89	337.73	18.83	-46.0	-47.2	15.4	0.00e+00	0	24	0	3535798272	57	4296
2026-01-09 10:52:11.83	337.48	18.36	-45.9	-47.0	15.5	0.00e+00	0	24	0	3557818368	57	4225
2026-01-09 10:52:15.77	337.25	17.90	-45.9	-47.0	15.5	0.00e+00	0	24	0	3579838464	57	4209
2026-01-09 10:52:19.70	337.02	17.45	-45.8	-46.9	15.5	0.00e+00	0	24	0	3601858560	57	4185
2026-01-09 10:52:23.63	336.79	17.00	-45.8	-46.9	15.5	0.00e+00	0	24	0	3623878656	57	4182
2026-01-09 10:52:27.59	336.58	16.56	-46.0	-47.2	15.4	0.00e+00	0	24	0	3646947328	57	4304
2026-01-09 10:52:31.52	336.37	16.13	-46.2	-47.4	15.3	0.00e+00	0	24	0	3668967424	57	4400
2026-01-09 10:52:35.46	336.17	15.71	-46.5	-47.7	15.3	2.20e-06	0	24	0	3690987520	58	4292
2026-01-09 10:52:39.41	335.97	15.29	-46.8	-47.9	15.2	0.00e+00	0	24	0	3713007616	58	4432
2026-01-09 10:52:43.35	335.78	14.88	-46.9	-48.1	15.2	0.00e+00	0	24	0	3735027712	58	4500
2026-01-09 10:52:47.30	335.59	14.48	-47.1	-48.3	15.2	0.00e+00	0	24	0	3757047808	59	4345
2026-01-09 10:52:51.23	335.41	14.08	-47.2	-48.5	15.1	0.00e+00	0	24	0	3779067904	59	4446
2026-01-09 10:52:55.17	335.24	13.69	-47.2	-48.4	15.1	0.00e+00	0	24	0	3801088000	59	4440
2026-01-09 10:52:59.10	335.07	13.31	-47.0	-48.2	15.3	0.00e+00	0	24	0	3824156672	60	4089
2026-01-09 10:53:03.05	334.90	12.93	-47.1	-48.3	15.3	0.00e+00	0	24	0	3846176768	60	4102
2026-01-09 10:53:07.00	334.74	12.55	-47.3	-48.5	15.2	0.00e+00	0	24	0	3868196864	60	4212
2026-01-09 10:53:10.94	334.59	12.19	-47.5	-48.8	15.0	0.00e+00	0	24	0	3890216960	60	4369
2026-01-09 10:53:14.89	334.43	11.82	-47.3	-48.6	15.2	0.00e+00	0	24	0	3912237056	60	4255
2026-01-09 10:53:18.84	334.28	11.46	-47.3	-48.6	15.2	0.00e+00	0	24	0	3935305728	60	4253
2026-01-09 10:53:22.81	334.14	11.11	-47.4	-48.6	15.1	0.00e+00	0	24	0	3957325824	60	4263
2026-01-09 10:53:26.76	334.00	10.76	-47.4	-48.6	15.1	0.00e+00	0	24	0	3979345920	60	4270
2026-01-09 10:53:30.73	333.86	10.41	-47.4	-48.7	15.1	0.00e+00	0	24	0	4001366016	60	4302
2026-01-09 10:53:34.69	333.73	10.07	-47.4	-48.6	15.0	0.00e+00	0	24	0	4024434688	60	4291
2026-01-09 10:53:38.63	333.60	9.74	-47.4	-48.7	15.1	0.00e+00	0	24	0	4046454784	60	4308
2026-01-09 10:53:42.61	333.47	9.41	-47.8	-49.1	14.9	0.00e+00	0	24	0	4068474880	60	4529
2026-01-09 10:53:46.57	333.35	9.08	-47.7	-49.0	14.9	0.00e+00	0	24	0	4090494976	60	4487
2026-01-09 10:53:50.53	333.23	8.76	-47.8	-49.1	14.9	0.00e+00	0	24	0	4113563648	60	4511
2026-01-09 10:53:54.50	333.11	8.44	-47.9	-49.2	14.9	0.00e+00	0	24	0	4135583744	61	4316
2026-01-09 10:53:58.45	332.99	8.12	-47.8	-49.1	14.9	0.00e+00	0	24	0	4157603840	61	4285
2026-01-09 10:54:02.41	332.88	7.81	-47.9	-49.3	14.9	0.00e+00	0	24	0	4179623936	61	4344
2026-01-09 10:54:06.37	332.77	7.50	-48.0	-49.4	14.8	0.00e+00	0	24	0	4201644032	61	4399
2026-01-09 10:54:10.33	332.67	7.20	-48.0	-49.3	14.8	0.00e+00	0	24	0	4224712704	61	4386
2026-01-09 10:54:14.29	332.56	6.90	-48.3	-49.6	14.7	0.00e+00	0	24	0	4246732800	61	4538
2026-01-09 10:54:18.23	332.46	6.60	-48.3	-49.6	14.8	2.20e-06	0	24	0	4268752896	62	4273
2026-01-09 10:54:22.19	332.36	6.30	-48.3	-49.7	14.8	0.00e+00	0	24	0	4290772992	62	4302
2026-01-09 10:54:26.16	332.26	6.01	-48.6	-50.0	14.6	0.00e+00	0	24	0	4313841664	62	4457
2026-01-09 10:54:30.13	332.17	5.72	-48.8	-50.2	14.5	0.00e+00	0	24	0	4335861760	62	4571
2026-01-09 10:54:34.10	332.08	5.44	-48.8	-50.3	14.4	0.00e+00	0	24	0	4357881856	62	4618
2026-01-09 10:54:38.04	331.99	5.16	-48.8	-50.3	14.4	0.00e+00	0	24	0	4379901952	62	4616
2026-01-09 10:54:41.99	331.90	4.88	-58.2	-71.3	3.8	8.45e-01	0	24	104	4396679168	81	17290
2026-01-09 10:54:45.95	331.81	4.60	-59.0	-72.1	3.8	8.47e-01	0	24	104	4396679168	83	16931
2026-01-09 10:54:49.93	331.73	4.33	-59.4	-72.5	3.8	8.45e-01	0	24	104	4396679168	83	17711
2026-01-09 10:54:53.91	331.64	4.06	-59.7	-72.8	3.8	8.46e-01	0	24	104	4396679168	84	17334
2026-01-09 10:54:57.86	331.56	3.79	-59.8	-72.8	3.8	8.46e-01	0	24	104	4396679168	84	17471
2026-01-09 10:55:01.81	331.48	3.52	-59.8	-72.9	3.8	8.46e-01	0	24	104	4396679168	84	17542
2026-01-09 10:55:05.78	331.41	3.26	-59.7	-72.8	3.8	8.44e-01	0	24	104	4396679168	84	17355
2026-01-09 10:55:09.72	331.33	3.00	-59.7	-72.7	3.8	8.45e-01	0	24	104	4396679168	84	17237
2026-01-09 10:55:13.67	331.26	2.74	-59.7	-72.7	3.8	8.45e-01	0	24	104	4396679168	84	17199
2026-01-09 10:55:17.62	331.18	2.49	-59.6	-72.7	3.8	8.46e-01	0	24	104	4396679168	84	17246
2026-01-09 10:55:21.59	331.11	2.23	-59.6	-72.7	3.8	8.46e-01	0	24	104	4396679168	84	17159
2026-01-09 10:55:25.54	331.04	1.98	-59.6	-72.7	3.8	8.45e-01	0	24	104	4396679168	84	17167

#Closed at: 2026-01-09 10:55:26
#Recorded file [4396 MB]: D:/lorett/data/31004_260109_134112.dat