passes_logs/2026/01/09/R3.2S_Murmansk/R3.2S_Murmansk__20260109_100142_NOAA_20_JPSS-1_rec.log

#Pass ID: 20260109_100142_NOAA 20 (JPSS-1)
#Satellite: NOAA 20 (JPSS-1)
#Configuration: NOAA 20
#almurnet v.1.7.20251203
#Start time: 2026-01-09 10:01:42

#Version: 2.2.20231116
#Station: R3.2S_Murmansk
#Location: 33.079688 lon 68.888172 lat
#TLE: 1 43013U 17073A   26008.56343035  .00000133  00000+0  84205-4 0  9993
#TLE: 2 43013  98.7630 309.5710 0001731  48.5146 311.6178 14.19534569421822

#Time	Az	El	Level	Level2	SNR	BER	BlckErr	Temp	State	Recorded	gain1	gain2
2026-01-09 10:01:42.49	163.91	2.00	-57.6	-73.5	3.8	1.49e+00	0	21	0	0	81	22403
2026-01-09 10:01:46.44	163.98	2.25	-57.6	-73.4	3.8	1.49e+00	0	22	104	0	80	23426
2026-01-09 10:01:50.40	164.05	2.51	-57.3	-73.3	3.8	1.49e+00	0	22	104	0	80	23276
2026-01-09 10:01:54.35	164.11	2.77	-57.5	-73.3	3.8	1.49e+00	0	22	104	0	80	23251
2026-01-09 10:01:58.29	164.18	3.03	-57.5	-73.0	3.8	1.49e+00	0	22	104	0	80	22424
2026-01-09 10:02:02.26	164.25	3.29	-57.5	-73.3	3.8	1.49e+00	0	22	104	0	80	23258
2026-01-09 10:02:06.21	164.33	3.55	-57.5	-73.1	3.8	1.49e+00	0	22	104	0	80	22575
2026-01-09 10:02:10.16	164.40	3.82	-57.4	-69.4	4.3	1.39e+00	74	22	0	0	80	14852
2026-01-09 10:02:14.13	164.47	4.09	-57.1	-66.4	5.9	3.80e-01	0	22	0	7340032	80	10507
2026-01-09 10:02:18.08	164.55	4.37	-56.5	-63.3	8.4	3.92e-02	0	23	0	14680064	79	7774
2026-01-09 10:02:22.04	164.62	4.64	-55.8	-60.8	10.6	9.49e-04	0	23	0	22020096	78	6166
2026-01-09 10:02:25.99	164.70	4.92	-55.0	-59.0	11.9	1.52e-05	0	23	0	29360128	76	5636
2026-01-09 10:02:29.95	164.78	5.20	-56.0	-61.3	10.2	6.74e-04	0	23	0	36700160	77	6950
2026-01-09 10:02:33.91	164.86	5.49	-53.7	-56.6	13.6	0.00e+00	0	23	0	44040192	74	4787
2026-01-09 10:02:37.86	164.94	5.78	-53.5	-56.3	13.6	0.00e+00	0	23	0	51380224	73	4902
2026-01-09 10:02:41.81	165.02	6.07	-53.6	-56.4	13.6	0.00e+00	0	23	0	58720256	73	4947
2026-01-09 10:02:45.77	165.11	6.36	-53.3	-56.0	13.9	0.00e+00	0	23	0	66060288	73	4733
2026-01-09 10:02:49.70	165.19	6.66	-53.4	-56.1	13.9	0.00e+00	0	23	0	73400320	73	4782
2026-01-09 10:02:53.65	165.28	6.96	-53.2	-55.8	14.0	0.00e+00	0	23	0	80740352	73	4638
2026-01-09 10:02:57.60	165.37	7.26	-53.2	-55.8	14.1	0.00e+00	0	23	0	88080384	73	4611
2026-01-09 10:03:01.56	165.46	7.57	-53.1	-55.5	14.1	0.00e+00	0	23	0	96468992	72	4739
2026-01-09 10:03:05.52	165.55	7.88	-53.1	-55.5	14.1	0.00e+00	0	23	0	103809024	72	4733
2026-01-09 10:03:09.46	165.64	8.20	-52.8	-55.2	14.3	0.00e+00	0	23	0	111149056	72	4570
2026-01-09 10:03:13.41	165.74	8.52	-52.9	-55.2	14.3	0.00e+00	0	23	0	118489088	72	4575
2026-01-09 10:03:17.37	165.83	8.84	-52.7	-55.0	14.5	0.00e+00	0	23	0	125829120	72	4461
2026-01-09 10:03:21.33	165.93	9.17	-52.8	-55.1	14.4	0.00e+00	0	23	0	133169152	72	4495
2026-01-09 10:03:25.29	166.03	9.50	-52.6	-54.8	14.5	0.00e+00	0	23	0	140509184	71	4605
2026-01-09 10:03:29.25	166.13	9.84	-52.4	-54.6	14.6	0.00e+00	0	23	0	147849216	71	4506
2026-01-09 10:03:33.22	166.24	10.18	-52.5	-54.7	14.5	0.00e+00	0	23	0	155189248	71	4568
2026-01-09 10:03:37.17	166.35	10.53	-52.3	-54.4	14.7	0.00e+00	0	23	0	162529280	71	4420
2026-01-09 10:03:41.13	166.45	10.88	-52.5	-54.7	14.6	0.00e+00	0	23	0	169869312	71	4553
2026-01-09 10:03:45.08	166.57	11.23	-52.3	-54.4	14.7	0.00e+00	0	23	0	177209344	71	4401
2026-01-09 10:03:49.03	166.68	11.60	-52.1	-54.1	14.7	0.00e+00	0	23	0	184549376	70	4527
2026-01-09 10:03:52.97	166.80	11.96	-52.1	-54.1	14.8	0.00e+00	0	23	0	191889408	70	4505
2026-01-09 10:03:56.94	166.91	12.33	-52.0	-53.9	14.8	0.00e+00	0	23	0	200278016	70	4430
2026-01-09 10:04:00.91	167.04	12.71	-52.0	-53.9	14.9	0.00e+00	0	23	0	207618048	70	4422
2026-01-09 10:04:04.85	167.16	13.10	-51.9	-53.8	14.9	0.00e+00	0	23	0	214958080	70	4363
2026-01-09 10:04:08.80	167.29	13.48	-51.8	-53.6	15.0	0.00e+00	0	23	0	222298112	70	4280
2026-01-09 10:04:12.76	167.42	13.88	-51.8	-53.6	15.1	0.00e+00	0	23	0	229638144	70	4267
2026-01-09 10:04:16.70	167.55	14.28	-51.5	-53.4	15.0	0.00e+00	0	23	0	236978176	69	4398
2026-01-09 10:04:20.66	167.69	14.69	-51.6	-53.4	15.0	0.00e+00	0	23	0	244318208	69	4400
2026-01-09 10:04:24.60	167.83	15.11	-51.7	-53.6	14.9	0.00e+00	0	23	0	251658240	69	4495
2026-01-09 10:04:28.56	167.97	15.53	-51.7	-53.6	14.9	0.00e+00	0	23	0	258998272	69	4508
2026-01-09 10:04:32.52	168.12	15.96	-51.9	-53.8	14.8	0.00e+00	0	24	0	266338304	69	4605
2026-01-09 10:04:36.48	168.27	16.40	-52.0	-53.9	14.7	0.00e+00	0	23	0	273678336	69	4704
2026-01-09 10:04:40.43	168.42	16.84	-52.1	-54.0	14.7	0.00e+00	0	23	0	281018368	69	4746
2026-01-09 10:04:44.39	168.58	17.30	-52.2	-54.2	14.5	0.00e+00	0	23	0	288358400	69	4867
2026-01-09 10:04:48.33	168.75	17.76	-52.3	-54.3	14.5	0.00e+00	0	23	0	295698432	69	4912
2026-01-09 10:04:52.28	168.92	18.23	-52.6	-54.6	14.5	0.00e+00	0	24	0	303038464	70	4796
2026-01-09 10:04:56.23	169.09	18.71	-52.7	-54.8	14.4	0.00e+00	0	23	0	311427072	70	4886
2026-01-09 10:05:00.17	169.27	19.19	-52.7	-54.9	14.4	0.00e+00	0	23	0	318767104	70	4929
2026-01-09 10:05:04.13	169.45	19.69	-52.7	-54.8	14.4	0.00e+00	0	23	0	326107136	70	4922
2026-01-09 10:05:08.09	169.64	20.20	-52.7	-54.7	14.4	0.00e+00	0	24	0	333447168	70	4863
2026-01-09 10:05:12.04	169.84	20.72	-52.7	-54.8	14.4	0.00e+00	0	24	0	340787200	70	4887
2026-01-09 10:05:16.01	170.04	21.25	-52.7	-54.8	14.4	0.00e+00	0	24	0	348127232	70	4876
2026-01-09 10:05:19.96	170.25	21.79	-52.6	-54.6	14.5	0.00e+00	0	24	0	355467264	70	4800
2026-01-09 10:05:23.91	170.46	22.34	-52.5	-54.5	14.6	0.00e+00	0	24	0	362807296	70	4729
2026-01-09 10:05:27.88	170.69	22.91	-52.4	-54.4	14.7	0.00e+00	0	24	0	370147328	70	4663
2026-01-09 10:05:31.85	170.92	23.49	-52.3	-54.2	14.8	0.00e+00	0	24	0	377487360	70	4581
2026-01-09 10:05:35.81	171.16	24.08	-52.4	-54.3	14.7	0.00e+00	0	24	0	384827392	70	4621
2026-01-09 10:05:39.75	171.40	24.68	-52.3	-54.1	14.8	0.00e+00	0	23	0	392167424	70	4544
2026-01-09 10:05:43.70	171.66	25.29	-52.2	-54.1	14.9	0.00e+00	0	24	0	399507456	70	4496
2026-01-09 10:05:47.65	171.92	25.92	-52.4	-54.3	14.7	0.00e+00	0	24	0	407896064	70	4632
2026-01-09 10:05:51.58	172.20	26.56	-52.5	-54.5	14.6	0.00e+00	0	24	0	415236096	70	4731
2026-01-09 10:05:55.52	172.48	27.21	-52.7	-54.8	14.4	0.00e+00	0	23	0	422576128	70	4886
2026-01-09 10:05:59.47	172.78	27.89	-52.8	-54.9	14.4	0.00e+00	0	24	0	429916160	70	4946
2026-01-09 10:06:03.41	173.09	28.57	-52.9	-54.9	14.4	0.00e+00	0	24	0	437256192	70	4983
2026-01-09 10:06:07.36	173.41	29.28	-53.2	-55.4	14.3	0.00e+00	0	24	0	444596224	71	4940
2026-01-09 10:06:11.31	173.75	30.00	-53.5	-55.8	14.2	0.00e+00	0	24	0	451936256	72	4912
2026-01-09 10:06:15.25	174.10	30.74	-53.5	-55.8	14.2	0.00e+00	0	24	0	459276288	72	4910
2026-01-09 10:06:19.22	174.47	31.50	-53.7	-56.0	14.1	0.00e+00	0	24	0	466616320	72	5028
2026-01-09 10:06:23.18	174.86	32.28	-53.7	-56.1	14.1	0.00e+00	0	23	0	473956352	72	5043
2026-01-09 10:06:27.15	175.26	33.09	-53.5	-55.7	14.2	0.00e+00	0	24	0	481296384	72	4838
2026-01-09 10:06:31.14	175.69	33.91	-53.5	-55.7	14.3	0.00e+00	0	24	0	488636416	72	4850
2026-01-09 10:06:35.12	176.14	34.75	-53.3	-55.5	14.4	0.00e+00	0	24	0	495976448	72	4757
2026-01-09 10:06:39.07	176.60	35.61	-53.1	-55.2	14.5	0.00e+00	0	24	0	503316480	72	4583
2026-01-09 10:06:43.05	177.10	36.50	-53.2	-55.4	14.5	0.00e+00	0	23	0	511705088	72	4660
2026-01-09 10:06:47.01	177.62	37.41	-53.5	-55.7	14.3	0.00e+00	0	24	0	519045120	72	4856
2026-01-09 10:06:50.99	178.17	38.34	-54.0	-56.5	13.9	0.00e+00	0	24	0	526385152	73	4998
2026-01-09 10:06:54.95	178.75	39.29	-54.7	-57.6	13.4	0.00e+00	0	24	0	533725184	74	5376
2026-01-09 10:06:58.91	179.37	40.26	-54.5	-57.2	13.8	0.00e+00	0	24	0	541065216	75	4815
2026-01-09 10:07:02.88	180.02	41.26	-54.9	-57.8	13.4	0.00e+00	0	24	0	548405248	75	5174
2026-01-09 10:07:06.85	180.72	42.29	-54.7	-57.5	13.6	0.00e+00	0	24	0	555745280	75	4993
2026-01-09 10:07:10.82	181.46	43.34	-54.2	-56.7	14.1	0.00e+00	0	24	0	563085312	75	4580
2026-01-09 10:07:14.81	182.26	44.42	-54.6	-57.2	13.7	0.00e+00	0	24	0	570425344	75	4870
2026-01-09 10:07:18.79	183.10	45.51	-54.9	-57.8	13.4	0.00e+00	0	24	0	577765376	75	5187
2026-01-09 10:07:22.77	184.01	46.64	-54.6	-57.2	13.8	0.00e+00	0	24	0	586153984	75	4859
2026-01-09 10:07:26.72	184.98	47.77	-54.5	-57.2	13.7	0.00e+00	0	24	0	593494016	74	5122
2026-01-09 10:07:30.69	186.02	48.94	-54.1	-56.5	14.1	0.00e+00	0	24	0	600834048	74	4742
2026-01-09 10:07:34.67	187.15	50.13	-52.6	-54.5	14.8	0.00e+00	0	24	0	608174080	71	4480
2026-01-09 10:07:38.64	188.37	51.33	-51.2	-52.8	15.3	0.00e+00	0	24	0	615514112	69	4137
2026-01-09 10:07:42.60	189.69	52.55	-50.2	-51.7	15.6	0.00e+00	0	24	0	622854144	67	4075
2026-01-09 10:07:46.58	191.12	53.78	-49.5	-50.9	15.6	0.00e+00	0	24	0	630194176	65	4163
2026-01-09 10:07:50.55	192.68	55.03	-50.1	-51.5	15.3	0.00e+00	0	23	0	637534208	65	4474
2026-01-09 10:07:54.53	194.39	56.28	-51.2	-52.8	15.0	0.00e+00	0	23	0	644874240	67	4625
2026-01-09 10:07:58.49	196.24	57.54	-51.4	-53.1	14.9	0.00e+00	0	23	0	652214272	67	4770
2026-01-09 10:08:02.47	198.28	58.79	-51.8	-53.5	15.0	0.00e+00	0	24	0	660602880	69	4444
2026-01-09 10:08:06.44	200.52	60.03	-50.9	-52.5	15.4	0.00e+00	0	23	0	667942912	68	4200
2026-01-09 10:08:10.41	202.98	61.25	-50.3	-51.8	15.5	0.00e+00	0	24	0	675282944	67	4128
2026-01-09 10:08:14.38	205.69	62.45	-50.3	-51.7	15.5	0.00e+00	0	24	0	682622976	67	4094
2026-01-09 10:08:18.35	208.68	63.60	-51.7	-53.4	15.0	0.00e+00	0	24	0	689963008	68	4661
2026-01-09 10:08:22.31	211.95	64.70	-51.5	-53.1	15.1	0.00e+00	0	24	0	697303040	68	4531
2026-01-09 10:08:26.27	215.55	65.74	-52.0	-53.8	14.9	0.00e+00	0	23	0	704643072	69	4605
2026-01-09 10:08:30.25	219.51	66.70	-51.4	-53.1	15.1	0.00e+00	0	24	0	711983104	68	4508
2026-01-09 10:08:34.22	223.80	67.55	-52.8	-54.7	14.8	0.00e+00	0	24	0	719323136	71	4576
2026-01-09 10:08:38.20	228.46	68.29	-53.9	-56.3	14.1	0.00e+00	0	24	0	727711744	73	4886
2026-01-09 10:08:42.16	233.41	68.90	-53.6	-55.7	14.5	0.00e+00	0	24	0	735051776	73	4587
2026-01-09 10:08:46.14	238.66	69.35	-53.7	-55.9	14.2	0.00e+00	0	24	0	742391808	72	4935
2026-01-09 10:08:50.11	244.10	69.64	-52.2	-53.9	15.0	0.00e+00	0	24	0	749731840	70	4417
2026-01-09 10:08:54.09	249.67	69.76	-52.1	-53.8	15.1	0.00e+00	0	24	0	757071872	70	4391
2026-01-09 10:08:58.05	255.23	69.69	-51.3	-52.9	15.4	0.00e+00	0	24	0	764411904	69	4165
2026-01-09 10:09:02.02	260.72	69.46	-51.6	-53.2	15.2	0.00e+00	0	24	0	771751936	69	4329
2026-01-09 10:09:06.00	266.03	69.05	-53.7	-56.0	14.4	0.00e+00	0	24	0	779091968	73	4706
2026-01-09 10:09:09.97	271.08	68.49	-55.3	-58.2	13.3	0.00e+00	0	24	0	786432000	75	5444
2026-01-09 10:09:13.94	275.82	67.79	-55.6	-58.7	13.0	0.00e+00	0	24	0	793772032	76	5463
2026-01-09 10:09:17.91	280.21	66.96	-53.3	-55.3	14.6	0.00e+00	0	24	0	802160640	72	4643
2026-01-09 10:09:21.89	284.27	66.04	-51.5	-53.1	15.2	0.00e+00	0	24	0	809500672	69	4275
2026-01-09 10:09:25.84	287.96	65.03	-50.6	-52.0	15.4	0.00e+00	0	24	0	816840704	67	4225
2026-01-09 10:09:29.82	291.34	63.94	-51.0	-52.5	15.4	0.00e+00	0	24	0	824180736	68	4234
2026-01-09 10:09:33.77	294.39	62.81	-50.8	-52.4	15.2	0.00e+00	0	24	0	831520768	67	4397
2026-01-09 10:09:37.76	297.19	61.62	-49.3	-50.7	15.7	0.00e+00	0	24	0	838860800	65	4054
2026-01-09 10:09:41.73	299.72	60.41	-49.6	-51.0	15.4	0.00e+00	0	24	0	846200832	64	4446
2026-01-09 10:09:45.68	302.01	59.18	-50.1	-51.5	15.3	0.00e+00	0	24	0	853540864	65	4488
2026-01-09 10:09:49.66	304.11	57.93	-51.3	-52.8	15.4	0.00e+00	0	24	0	860880896	69	4119
2026-01-09 10:09:53.64	306.02	56.68	-52.0	-53.8	15.1	0.00e+00	0	24	0	868220928	70	4360
2026-01-09 10:09:57.58	307.76	55.44	-50.1	-51.5	15.5	0.00e+00	0	24	0	875560960	66	4214
2026-01-09 10:10:01.55	309.36	54.20	-50.2	-51.6	15.6	0.00e+00	0	24	0	883949568	67	4019
2026-01-09 10:10:05.51	310.82	52.97	-50.7	-52.2	15.3	0.00e+00	0	24	0	891289600	67	4311
2026-01-09 10:10:09.48	312.17	51.74	-48.9	-50.2	15.6	0.00e+00	0	24	0	898629632	64	4068
2026-01-09 10:10:13.45	313.42	50.54	-52.6	-54.5	14.7	0.00e+00	0	24	0	905969664	70	4750
2026-01-09 10:10:17.41	314.57	49.36	-52.6	-54.4	14.8	0.00e+00	0	24	0	913309696	70	4677
2026-01-09 10:10:21.38	315.64	48.19	-56.2	-60.0	12.3	6.10e-06	0	24	0	920649728	78	5602
2026-01-09 10:10:25.35	316.63	47.04	-53.1	-55.0	14.8	0.00e+00	0	24	0	927989760	72	4491
2026-01-09 10:10:29.32	317.56	45.92	-54.3	-56.8	14.1	0.00e+00	0	24	0	935329792	74	4873
2026-01-09 10:10:33.30	318.43	44.82	-52.0	-53.6	15.2	0.00e+00	0	24	0	942669824	70	4278
2026-01-09 10:10:37.27	319.23	43.74	-52.8	-54.7	14.6	0.00e+00	0	24	0	950009856	70	4826
2026-01-09 10:10:41.24	319.99	42.69	-51.3	-52.8	15.4	0.00e+00	0	24	0	958398464	69	4143
2026-01-09 10:10:45.21	320.70	41.66	-50.8	-52.4	15.2	0.00e+00	0	24	0	965738496	67	4403
2026-01-09 10:10:49.18	321.37	40.65	-54.2	-56.8	13.9	0.00e+00	0	24	0	973078528	73	5181
2026-01-09 10:10:53.14	321.99	39.68	-50.7	-52.1	15.5	0.00e+00	0	24	0	980418560	68	4033
2026-01-09 10:10:57.11	322.59	38.72	-51.7	-53.4	15.0	0.00e+00	0	24	0	987758592	68	4679
2026-01-09 10:11:01.08	323.15	37.78	-53.0	-55.0	14.7	0.00e+00	0	24	0	995098624	72	4483
2026-01-09 10:11:05.05	323.68	36.87	-51.2	-52.8	15.4	0.00e+00	0	24	0	1002438656	69	4117
2026-01-09 10:11:09.03	324.19	35.98	-51.3	-52.8	15.2	0.00e+00	0	24	0	1009778688	68	4382
2026-01-09 10:11:13.00	324.66	35.11	-52.1	-53.9	14.9	0.00e+00	0	24	0	1017118720	69	4653
2026-01-09 10:11:16.98	325.12	34.27	-52.1	-53.9	14.9	0.00e+00	0	24	0	1024458752	69	4655
2026-01-09 10:11:20.95	325.55	33.44	-52.3	-54.2	14.7	0.00e+00	0	24	0	1032847360	69	4834
2026-01-09 10:11:24.93	325.96	32.63	-52.6	-54.5	14.7	0.00e+00	0	24	0	1040187392	70	4722
2026-01-09 10:11:28.90	326.36	31.85	-52.7	-54.6	14.6	0.00e+00	0	24	0	1047527424	70	4804
2026-01-09 10:11:32.88	326.74	31.08	-53.3	-55.5	14.3	0.00e+00	0	24	0	1054867456	71	4989
2026-01-09 10:11:36.84	327.09	30.34	-53.4	-55.6	14.4	0.00e+00	0	24	0	1062207488	72	4779
2026-01-09 10:11:40.82	327.44	29.60	-52.7	-54.6	14.9	0.00e+00	0	24	0	1069547520	72	4282
2026-01-09 10:11:44.80	327.77	28.89	-51.9	-53.7	15.1	0.00e+00	0	24	0	1076887552	70	4293
2026-01-09 10:11:48.76	328.09	28.20	-51.9	-53.6	15.1	0.00e+00	0	24	0	1084227584	70	4264
2026-01-09 10:11:52.72	328.39	27.52	-52.4	-54.2	14.8	0.00e+00	0	24	0	1091567616	70	4595
2026-01-09 10:11:56.68	328.68	26.86	-52.5	-54.4	14.7	0.00e+00	0	24	0	1098907648	70	4680
2026-01-09 10:12:00.65	328.96	26.21	-51.9	-53.6	15.1	0.00e+00	0	24	0	1107296256	70	4285
2026-01-09 10:12:04.64	329.23	25.57	-51.3	-53.0	15.3	2.20e-06	0	24	0	1114636288	69	4201
2026-01-09 10:12:08.60	329.49	24.95	-50.9	-52.4	15.4	0.00e+00	0	24	0	1121976320	68	4178
2026-01-09 10:12:12.56	329.74	24.35	-50.9	-52.4	15.4	0.00e+00	0	24	0	1129316352	68	4192
2026-01-09 10:12:16.53	329.99	23.76	-51.2	-52.9	15.1	0.00e+00	0	24	0	1136656384	68	4418
2026-01-09 10:12:20.50	330.22	23.18	-51.2	-52.8	15.1	0.00e+00	0	24	0	1143996416	68	4383
2026-01-09 10:12:24.47	330.45	22.61	-50.8	-52.3	15.4	0.00e+00	0	24	0	1151336448	68	4132
2026-01-09 10:12:28.44	330.67	22.06	-50.6	-52.1	15.3	0.00e+00	0	24	0	1158676480	67	4273
2026-01-09 10:12:32.41	330.88	21.51	-50.4	-51.9	15.4	0.00e+00	0	24	0	1166016512	67	4159
2026-01-09 10:12:36.38	331.09	20.98	-50.4	-51.9	15.4	0.00e+00	0	24	0	1173356544	67	4170
2026-01-09 10:12:40.35	331.29	20.46	-50.6	-52.1	15.3	0.00e+00	0	24	0	1181745152	67	4271
2026-01-09 10:12:44.33	331.48	19.95	-50.7	-52.3	15.1	0.00e+00	0	24	0	1189085184	67	4380
2026-01-09 10:12:48.29	331.67	19.45	-50.9	-52.6	15.1	0.00e+00	0	24	0	1196425216	67	4510
2026-01-09 10:12:52.24	331.85	18.96	-50.9	-52.5	15.1	0.00e+00	0	24	0	1203765248	67	4469
2026-01-09 10:12:56.21	332.02	18.47	-50.9	-52.5	15.1	0.00e+00	0	24	0	1211105280	67	4491
2026-01-09 10:13:00.17	332.20	18.00	-51.0	-52.6	15.0	0.00e+00	0	24	0	1218445312	67	4537
2026-01-09 10:13:04.15	332.36	17.54	-51.0	-52.7	15.0	0.00e+00	0	24	0	1225785344	67	4547
2026-01-09 10:13:08.10	332.53	17.08	-51.1	-52.8	14.9	0.00e+00	0	24	0	1233125376	67	4618
2026-01-09 10:13:12.07	332.69	16.64	-51.4	-53.1	14.8	0.00e+00	0	24	0	1240465408	67	4802
2026-01-09 10:13:16.05	332.84	16.19	-51.7	-53.5	14.8	0.00e+00	0	24	0	1247805440	68	4729
2026-01-09 10:13:20.02	332.99	15.76	-51.9	-53.8	14.7	0.00e+00	0	24	0	1255145472	69	4641
2026-01-09 10:13:24.01	333.14	15.34	-52.0	-53.9	14.7	0.00e+00	0	24	0	1263534080	69	4695
2026-01-09 10:13:28.00	333.28	14.92	-52.1	-54.0	14.7	0.00e+00	0	24	0	1270874112	69	4739
2026-01-09 10:13:31.96	333.42	14.51	-52.1	-54.1	14.6	0.00e+00	0	24	0	1278214144	69	4780
2026-01-09 10:13:35.94	333.56	14.10	-52.2	-54.2	14.5	0.00e+00	0	24	0	1285554176	69	4856
2026-01-09 10:13:39.91	333.69	13.70	-52.3	-54.3	14.5	0.00e+00	0	23	0	1292894208	69	4879
2026-01-09 10:13:43.86	333.82	13.31	-52.2	-54.2	14.5	0.00e+00	0	24	0	1300234240	69	4858
2026-01-09 10:13:47.84	333.95	12.93	-52.3	-54.3	14.5	0.00e+00	0	24	0	1307574272	69	4904
2026-01-09 10:13:51.79	334.07	12.55	-52.4	-54.4	14.4	0.00e+00	0	24	0	1314914304	69	4979
2026-01-09 10:13:55.76	334.20	12.18	-52.3	-54.4	14.6	0.00e+00	0	24	0	1322254336	70	4672
2026-01-09 10:13:59.70	334.31	11.81	-52.4	-54.5	14.5	0.00e+00	0	24	0	1329594368	70	4711
2026-01-09 10:14:03.67	334.43	11.45	-52.3	-54.3	14.6	0.00e+00	0	24	0	1336934400	70	4646
2026-01-09 10:14:07.64	334.55	11.09	-52.3	-54.3	14.6	0.00e+00	0	24	0	1345323008	70	4642
2026-01-09 10:14:11.59	334.66	10.74	-52.3	-54.3	14.6	0.00e+00	0	24	0	1352663040	70	4639
2026-01-09 10:14:15.56	334.77	10.39	-52.3	-54.3	14.5	0.00e+00	0	24	0	1360003072	70	4640
2026-01-09 10:14:19.54	334.88	10.05	-52.1	-54.2	14.6	0.00e+00	0	24	0	1367343104	70	4548
2026-01-09 10:14:23.50	334.98	9.71	-52.2	-54.2	14.6	0.00e+00	0	24	0	1374683136	70	4567
2026-01-09 10:14:27.47	335.08	9.38	-52.3	-54.4	14.5	0.00e+00	0	24	0	1382023168	70	4657
2026-01-09 10:14:31.44	335.19	9.05	-52.3	-54.4	14.5	0.00e+00	0	24	0	1389363200	70	4697
2026-01-09 10:14:35.41	335.29	8.73	-52.2	-54.3	14.6	1.67e-05	0	24	0	1396703232	70	4605
2026-01-09 10:14:39.37	335.38	8.41	-52.2	-54.3	14.5	0.00e+00	0	24	0	1404043264	70	4621
2026-01-09 10:14:43.35	335.48	8.09	-52.2	-54.3	14.5	0.00e+00	0	24	0	1411383296	70	4635
2026-01-09 10:14:47.31	335.58	7.78	-52.3	-54.4	14.4	0.00e+00	0	24	0	1419771904	70	4683
2026-01-09 10:14:51.29	335.67	7.47	-52.3	-54.5	14.4	0.00e+00	0	24	0	1427111936	70	4724
2026-01-09 10:14:55.27	335.76	7.16	-52.4	-54.6	14.3	0.00e+00	0	24	0	1434451968	70	4785
2026-01-09 10:14:59.25	335.85	6.86	-52.5	-54.7	14.2	0.00e+00	0	24	0	1441792000	70	4853
2026-01-09 10:15:03.22	335.94	6.56	-52.6	-54.9	14.1	0.00e+00	0	24	0	1449132032	70	4965
2026-01-09 10:15:07.18	336.03	6.26	-52.7	-55.0	14.0	0.00e+00	0	24	0	1456472064	70	5040
2026-01-09 10:15:11.14	336.11	5.97	-52.8	-55.3	13.8	0.00e+00	0	24	0	1463812096	70	5187
2026-01-09 10:15:15.09	336.20	5.69	-52.8	-55.3	13.8	0.00e+00	0	24	0	1471152128	70	5178
2026-01-09 10:15:19.05	336.28	5.40	-52.9	-55.4	13.9	0.00e+00	0	24	0	1478492160	71	4943
2026-01-09 10:15:23.03	336.36	5.12	-53.0	-55.5	13.8	0.00e+00	0	24	0	1485832192	71	5028
2026-01-09 10:15:27.00	336.44	4.84	-58.6	-74.6	3.8	1.49e+00	0	24	104	1490026496	82	24094
2026-01-09 10:15:30.97	336.52	4.56	-59.2	-75.3	3.8	1.49e+00	0	24	104	1490026496	83	24589
2026-01-09 10:15:34.94	336.60	4.29	-59.7	-75.7	3.8	1.49e+00	0	24	104	1490026496	84	24397
2026-01-09 10:15:38.89	336.68	4.02	-59.8	-75.9	3.8	1.49e+00	0	24	104	1490026496	84	24715
2026-01-09 10:15:42.85	336.75	3.75	-59.9	-76.0	3.8	1.49e+00	0	24	104	1490026496	84	25012
2026-01-09 10:15:46.82	336.83	3.49	-59.9	-75.9	3.8	1.49e+00	0	24	104	1490026496	84	24866
2026-01-09 10:15:50.77	336.90	3.22	-59.8	-75.8	3.8	1.49e+00	0	24	104	1490026496	84	24631
2026-01-09 10:15:54.73	336.98	2.96	-59.7	-75.8	3.8	1.49e+00	0	24	104	1490026496	84	24577
2026-01-09 10:15:58.69	337.05	2.71	-59.7	-75.8	3.8	1.49e+00	0	24	104	1490026496	84	24471
2026-01-09 10:16:02.64	337.12	2.45	-59.7	-75.7	3.8	1.49e+00	0	24	104	1490026496	84	24407
2026-01-09 10:16:06.59	337.19	2.20	-59.7	-75.7	3.8	1.49e+00	0	24	104	1490026496	84	24371
2026-01-09 10:16:10.55	337.26	1.95	-59.7	-75.7	3.8	1.49e+00	0	24	104	1490026496	84	24285

#Closed at: 2026-01-09 10:16:11
#Recorded file [1490 MB]: D:/lorett/data/31004_260109_130142.dat