passes_logs/2026/01/09/R3.2S_Murmansk/R3.2S_Murmansk__20260109_005417_NOAA_21_JPSS-2_rec.log

#Pass ID: 20260109_005417_NOAA 21 (JPSS-2)
#Satellite: NOAA 21 (JPSS-2)
#Configuration: NOAA-21
#almurnet v.1.7.20251203
#Start time: 2026-01-09 00:54:17

#Version: 2.2.20231116
#Station: R3.2S_Murmansk
#Location: 33.079688 lon 68.888172 lat
#TLE: 1 54234U 22150A   26008.59854928  .00000127  00000+0  81204-4 0  9992
#TLE: 2 54234  98.7494 309.5759 0000887 327.7487  32.3634 14.19533414163905

#Time	Az	El	Level	Level2	SNR	BER	BlckErr	Temp	State	Recorded	gain1	gain2
2026-01-09 00:54:17.48	25.35	2.03	-57.3	-71.1	3.8	1.49e+00	0	22	0	0	81	16945
2026-01-09 00:54:21.48	25.34	2.28	-57.2	-71.0	3.8	1.49e+00	0	22	104	0	79	18874
2026-01-09 00:54:25.49	25.33	2.54	-57.2	-71.0	3.8	1.49e+00	0	22	104	0	79	18926
2026-01-09 00:54:29.49	25.32	2.80	-57.2	-70.9	3.8	1.49e+00	0	22	104	0	79	18676
2026-01-09 00:54:33.48	25.31	3.07	-57.2	-70.4	3.8	1.49e+00	0	22	104	0	79	17640
2026-01-09 00:54:37.41	25.30	3.33	-57.2	-70.4	3.8	1.49e+00	0	22	104	0	79	17594
2026-01-09 00:54:41.42	25.29	3.60	-57.2	-71.0	3.8	1.49e+00	0	23	104	0	79	18798
2026-01-09 00:54:45.42	25.27	3.87	-57.2	-70.1	3.8	1.49e+00	0	22	104	0	79	16947
2026-01-09 00:54:49.44	25.26	4.14	-56.7	-64.7	5.4	5.65e-01	0	23	0	2097152	79	9115
2026-01-09 00:54:53.45	25.25	4.42	-56.1	-62.2	7.1	1.14e-01	0	23	0	13631488	78	7278
2026-01-09 00:54:57.45	25.24	4.70	-55.8	-61.2	8.1	4.28e-02	0	23	0	26214400	78	6469
2026-01-09 00:55:01.45	25.22	4.98	-56.0	-61.7	7.7	6.32e-02	0	23	0	38797312	78	6807
2026-01-09 00:55:05.44	25.21	5.27	-56.0	-61.3	7.9	1.46e+00	0	23	104	47185920	78	6504
2026-01-09 00:55:09.43	25.19	5.56	-52.5	-54.8	13.1	7.00e-07	0	23	0	58720256	71	4612
2026-01-09 00:55:13.43	25.18	5.85	-52.0	-54.0	13.5	0.00e+00	0	23	0	71303168	70	4460
2026-01-09 00:55:17.43	25.16	6.14	-51.0	-52.8	14.0	0.00e+00	0	23	0	83886080	68	4373
2026-01-09 00:55:21.43	25.14	6.44	-51.1	-52.9	14.0	0.00e+00	0	23	0	96468992	68	4401
2026-01-09 00:55:25.41	25.12	6.74	-50.9	-52.7	14.2	0.00e+00	0	23	0	109051904	68	4296
2026-01-09 00:55:29.42	25.10	7.05	-50.8	-52.4	14.3	0.00e+00	0	23	0	121634816	68	4192
2026-01-09 00:55:33.41	25.08	7.36	-50.4	-52.1	14.4	0.00e+00	0	23	0	134217728	67	4249
2026-01-09 00:55:37.41	25.06	7.67	-50.3	-51.8	14.5	0.00e+00	0	23	0	146800640	67	4138
2026-01-09 00:55:41.42	25.04	7.99	-50.3	-51.9	14.5	0.00e+00	0	23	0	159383552	67	4172
2026-01-09 00:55:45.40	25.02	8.31	-50.1	-51.7	14.4	0.00e+00	0	23	0	170917888	66	4307
2026-01-09 00:55:49.39	25.00	8.63	-50.1	-51.6	14.5	0.00e+00	0	23	0	183500800	66	4269
2026-01-09 00:55:53.39	24.97	8.96	-50.0	-51.6	14.5	0.00e+00	0	23	0	196083712	66	4253
2026-01-09 00:55:57.39	24.95	9.30	-49.8	-51.3	14.7	0.00e+00	0	23	0	208666624	66	4136
2026-01-09 00:56:01.38	24.92	9.64	-49.7	-51.2	14.8	0.00e+00	0	23	0	221249536	66	4081
2026-01-09 00:56:05.37	24.90	9.98	-49.7	-51.2	14.8	0.00e+00	0	23	0	233832448	66	4072
2026-01-09 00:56:09.38	24.87	10.33	-49.5	-50.9	14.7	0.00e+00	0	23	0	246415360	65	4189
2026-01-09 00:56:13.38	24.84	10.68	-49.5	-50.9	14.8	0.00e+00	0	23	0	258998272	65	4176
2026-01-09 00:56:17.39	24.81	11.04	-49.6	-51.0	14.7	0.00e+00	0	23	0	271581184	65	4218
2026-01-09 00:56:21.40	24.78	11.40	-49.3	-50.7	14.9	0.00e+00	0	23	0	284164096	65	4054
2026-01-09 00:56:25.39	24.75	11.77	-49.1	-50.5	14.9	0.00e+00	0	23	0	296747008	64	4200
2026-01-09 00:56:29.39	24.71	12.14	-49.0	-50.3	14.9	0.00e+00	0	23	0	309329920	64	4133
2026-01-09 00:56:33.38	24.68	12.52	-48.9	-50.2	15.0	0.00e+00	0	23	0	320864256	64	4072
2026-01-09 00:56:37.37	24.64	12.91	-48.8	-50.1	15.0	0.00e+00	0	23	0	333447168	64	4026
2026-01-09 00:56:41.36	24.60	13.30	-48.7	-50.0	15.1	0.00e+00	0	23	0	346030080	64	3982
2026-01-09 00:56:45.35	24.56	13.70	-48.7	-50.0	15.0	0.00e+00	0	23	0	358612992	63	4201
2026-01-09 00:56:49.35	24.52	14.10	-48.6	-49.9	15.0	0.00e+00	0	23	0	371195904	63	4185
2026-01-09 00:56:53.36	24.48	14.52	-48.5	-49.7	15.1	0.00e+00	0	23	0	383778816	63	4096
2026-01-09 00:56:57.35	24.44	14.93	-48.7	-50.0	15.0	0.00e+00	0	24	0	396361728	63	4206
2026-01-09 00:57:01.34	24.39	15.36	-48.7	-50.0	15.0	0.00e+00	0	24	0	408944640	63	4197
2026-01-09 00:57:05.35	24.34	15.80	-48.8	-50.1	14.9	0.00e+00	0	24	0	421527552	63	4249
2026-01-09 00:57:09.34	24.29	16.24	-48.8	-50.1	14.9	0.00e+00	0	23	0	434110464	63	4252
2026-01-09 00:57:13.35	24.24	16.69	-48.8	-50.1	14.9	0.00e+00	0	24	0	446693376	63	4274
2026-01-09 00:57:17.35	24.19	17.15	-48.9	-50.3	14.9	0.00e+00	0	24	0	458227712	63	4344
2026-01-09 00:57:21.36	24.13	17.61	-48.8	-50.1	14.9	0.00e+00	0	23	0	470810624	63	4268
2026-01-09 00:57:25.35	24.07	18.09	-48.8	-50.1	14.9	0.00e+00	0	24	0	483393536	63	4271
2026-01-09 00:57:29.34	24.01	18.57	-48.7	-50.0	15.0	0.00e+00	0	24	0	495976448	63	4208
2026-01-09 00:57:33.34	23.95	19.07	-48.7	-49.9	15.0	0.00e+00	0	24	0	508559360	63	4193
2026-01-09 00:57:37.33	23.88	19.57	-48.5	-49.8	15.0	0.00e+00	0	24	0	521142272	63	4124
2026-01-09 00:57:41.32	23.81	20.09	-48.7	-49.9	15.0	0.00e+00	0	23	0	533725184	63	4183
2026-01-09 00:57:45.32	23.74	20.61	-48.4	-49.6	15.1	0.00e+00	0	24	0	546308096	63	4040
2026-01-09 00:57:49.32	23.67	21.15	-48.3	-49.6	15.2	0.00e+00	0	24	0	558891008	63	4009
2026-01-09 00:57:53.34	23.59	21.70	-47.9	-49.1	15.2	0.00e+00	0	24	0	571473920	62	4022
2026-01-09 00:57:57.33	23.51	22.26	-47.6	-48.8	15.2	0.00e+00	0	24	0	584056832	61	4106
2026-01-09 00:58:01.31	23.42	22.84	-47.4	-48.5	15.3	0.00e+00	0	24	0	596639744	61	3999
2026-01-09 00:58:05.30	23.33	23.42	-47.3	-48.5	15.3	0.00e+00	0	24	0	608174080	61	3964
2026-01-09 00:58:09.31	23.24	24.02	-47.2	-48.4	15.4	0.00e+00	0	24	0	620756992	61	3918
2026-01-09 00:58:13.28	23.15	24.63	-47.4	-48.5	15.3	0.00e+00	0	24	0	633339904	61	3990
2026-01-09 00:58:17.28	23.04	25.26	-47.5	-48.7	15.3	0.00e+00	0	24	0	645922816	61	4060
2026-01-09 00:58:21.28	22.94	25.91	-47.7	-48.8	15.2	0.00e+00	0	24	0	658505728	61	4143
2026-01-09 00:58:25.27	22.83	26.57	-48.0	-49.2	15.1	0.00e+00	0	24	0	671088640	61	4308
2026-01-09 00:58:29.27	22.71	27.24	-48.4	-49.6	15.0	0.00e+00	0	24	0	683671552	61	4509
2026-01-09 00:58:33.26	22.59	27.94	-48.6	-49.8	14.9	0.00e+00	0	24	0	696254464	62	4372
2026-01-09 00:58:37.26	22.46	28.65	-48.6	-49.9	14.9	0.00e+00	0	24	0	708837376	62	4406
2026-01-09 00:58:41.25	22.32	29.37	-48.7	-49.9	14.9	0.00e+00	0	24	0	720371712	62	4435
2026-01-09 00:58:45.24	22.18	30.12	-48.4	-49.6	15.0	0.00e+00	0	24	0	732954624	62	4286
2026-01-09 00:58:49.23	22.03	30.89	-48.3	-49.5	15.1	0.00e+00	0	24	0	745537536	62	4236
2026-01-09 00:58:53.22	21.87	31.68	-48.4	-49.6	15.1	0.00e+00	0	24	0	758120448	62	4286
2026-01-09 00:58:57.24	21.70	32.49	-48.6	-49.8	15.0	0.00e+00	0	24	0	770703360	62	4377
2026-01-09 00:59:01.24	21.52	33.32	-49.0	-50.3	14.9	0.00e+00	0	24	0	783286272	63	4363
2026-01-09 00:59:05.24	21.34	34.18	-49.4	-50.7	14.8	0.00e+00	0	24	0	795869184	64	4301
2026-01-09 00:59:09.23	21.14	35.06	-50.1	-51.6	14.6	0.00e+00	0	24	0	808452096	65	4514
2026-01-09 00:59:13.22	20.93	35.96	-50.4	-51.9	14.5	0.00e+00	0	24	0	821035008	66	4423
2026-01-09 00:59:17.21	20.70	36.89	-50.4	-51.8	14.6	0.00e+00	0	24	0	833617920	66	4380
2026-01-09 00:59:21.19	20.47	37.84	-49.9	-51.2	14.9	0.00e+00	0	24	0	846200832	66	4085
2026-01-09 00:59:25.19	20.21	38.83	-50.1	-51.5	14.8	0.00e+00	0	24	0	857735168	66	4219
2026-01-09 00:59:29.17	19.94	39.83	-50.0	-51.4	14.8	0.00e+00	0	23	0	870318080	66	4160
2026-01-09 00:59:33.17	19.65	40.87	-50.1	-51.5	14.8	0.00e+00	0	24	0	882900992	66	4222
2026-01-09 00:59:37.14	19.35	41.94	-50.4	-51.9	14.5	0.00e+00	0	24	0	895483904	66	4401
2026-01-09 00:59:41.12	19.02	43.04	-50.8	-52.3	14.3	0.00e+00	0	24	0	908066816	66	4648
2026-01-09 00:59:45.12	18.66	44.17	-51.2	-52.8	14.2	0.00e+00	0	24	0	920649728	67	4619
2026-01-09 00:59:49.11	18.28	45.34	-51.7	-53.3	14.1	0.00e+00	0	24	0	933232640	68	4641
2026-01-09 00:59:53.11	17.86	46.54	-51.4	-53.0	14.3	0.00e+00	0	24	0	945815552	68	4488
2026-01-09 00:59:57.12	17.41	47.77	-51.1	-52.6	14.5	0.00e+00	0	24	0	958398464	68	4266
2026-01-09 01:00:01.10	16.92	49.04	-50.7	-52.2	14.6	0.00e+00	0	24	0	969932800	67	4296
2026-01-09 01:00:05.11	16.38	50.34	-51.2	-52.8	14.2	0.00e+00	0	24	0	983564288	67	4637
2026-01-09 01:00:09.11	15.80	51.68	-50.7	-52.2	14.6	0.00e+00	0	24	0	995098624	67	4292
2026-01-09 01:00:13.11	15.16	53.06	-49.6	-50.9	15.1	0.00e+00	0	24	0	1007681536	65	4185
2026-01-09 01:00:17.11	14.45	54.47	-49.4	-50.7	15.0	0.00e+00	0	24	0	1020264448	65	4076
2026-01-09 01:00:21.12	13.66	55.91	-49.1	-50.3	15.0	0.00e+00	0	24	0	1032847360	64	4142
2026-01-09 01:00:25.12	12.79	57.39	-48.8	-50.1	15.2	0.00e+00	0	24	0	1045430272	64	4006
2026-01-09 01:00:29.11	11.82	58.89	-48.5	-49.7	15.2	0.00e+00	0	24	0	1058013184	63	4082
2026-01-09 01:00:33.10	10.73	60.42	-48.2	-49.4	15.2	0.00e+00	0	24	0	1070596096	62	4150
2026-01-09 01:00:37.08	9.50	61.98	-47.4	-48.5	15.4	0.00e+00	0	24	0	1083179008	61	3971
2026-01-09 01:00:41.06	8.09	63.56	-47.9	-49.0	15.2	0.00e+00	0	24	0	1095761920	61	4242
2026-01-09 01:00:45.05	6.48	65.16	-47.7	-48.9	15.3	0.00e+00	0	24	0	1107296256	61	4157
2026-01-09 01:00:49.03	4.62	66.77	-47.2	-48.4	15.3	0.00e+00	0	24	0	1119879168	60	4149
2026-01-09 01:00:53.03	2.44	68.40	-47.3	-48.4	15.3	0.00e+00	0	24	0	1132462080	60	4162
2026-01-09 01:00:57.02	359.87	70.01	-47.4	-48.6	15.2	0.00e+00	0	24	0	1145044992	60	4260
2026-01-09 01:01:01.01	356.82	71.61	-47.0	-48.1	15.4	0.00e+00	0	24	0	1157627904	60	4024
2026-01-09 01:01:05.02	353.14	73.18	-47.0	-48.0	15.4	0.00e+00	0	24	0	1170210816	60	3994
2026-01-09 01:01:09.00	348.71	74.68	-46.7	-47.8	15.5	0.00e+00	0	24	0	1182793728	60	3884
2026-01-09 01:01:12.99	343.29	76.09	-47.4	-48.5	15.3	0.00e+00	0	24	0	1195376640	60	4208
2026-01-09 01:01:16.99	336.65	77.36	-47.6	-48.7	15.2	0.00e+00	0	24	0	1207959552	60	4309
2026-01-09 01:01:21.00	328.58	78.45	-47.2	-48.3	15.4	0.00e+00	0	24	0	1220542464	60	4099
2026-01-09 01:01:25.00	319.04	79.27	-48.2	-49.4	15.1	0.00e+00	0	24	0	1232076800	61	4413
2026-01-09 01:01:28.99	308.27	79.76	-48.2	-49.4	15.2	0.00e+00	0	24	0	1244659712	62	4184
2026-01-09 01:01:32.97	296.88	79.87	-47.8	-49.0	15.3	0.00e+00	0	24	0	1257242624	62	3971
2026-01-09 01:01:36.97	285.64	79.57	-47.8	-49.0	15.2	0.00e+00	0	24	0	1269825536	61	4202
2026-01-09 01:01:40.94	275.46	78.92	-47.0	-48.1	15.4	0.00e+00	0	24	0	1282408448	60	4039
2026-01-09 01:01:44.93	266.63	77.97	-47.9	-49.1	15.2	0.00e+00	0	24	0	1294991360	61	4273
2026-01-09 01:01:48.91	259.28	76.80	-47.4	-48.5	15.4	0.00e+00	0	24	0	1307574272	61	3970
2026-01-09 01:01:52.91	253.22	75.45	-47.6	-48.7	15.2	0.00e+00	0	24	0	1320157184	60	4315
2026-01-09 01:01:56.90	248.28	73.99	-47.6	-48.8	15.2	0.00e+00	0	24	0	1332740096	60	4343
2026-01-09 01:02:00.91	244.20	72.45	-47.3	-48.4	15.3	0.00e+00	0	24	0	1345323008	60	4172
2026-01-09 01:02:04.90	240.83	70.87	-46.9	-47.9	15.4	0.00e+00	0	24	0	1356857344	60	3937
2026-01-09 01:02:08.89	238.02	69.26	-48.1	-49.3	15.1	0.00e+00	0	24	0	1369440256	61	4365
2026-01-09 01:02:12.89	235.64	67.63	-48.0	-49.1	15.3	0.00e+00	0	24	0	1382023168	62	4023
2026-01-09 01:02:16.91	233.60	66.00	-48.7	-49.9	15.0	0.00e+00	0	24	0	1394606080	62	4439
2026-01-09 01:02:20.89	231.86	64.39	-47.6	-48.7	15.3	0.00e+00	0	24	0	1407188992	61	4075
2026-01-09 01:02:24.90	230.35	62.78	-49.1	-50.3	15.0	0.00e+00	0	24	0	1419771904	63	4389
2026-01-09 01:02:28.91	229.02	61.20	-47.9	-49.0	15.3	0.00e+00	0	24	0	1432354816	62	3969
2026-01-09 01:02:32.92	227.85	59.64	-49.2	-50.5	14.8	0.00e+00	0	24	0	1444937728	63	4445
2026-01-09 01:02:36.90	226.82	58.12	-48.5	-49.7	15.1	0.00e+00	0	24	0	1457520640	63	4068
2026-01-09 01:02:40.90	225.90	56.63	-50.5	-52.0	14.6	0.00e+00	0	24	0	1470103552	66	4450
2026-01-09 01:02:44.88	225.07	55.17	-49.3	-50.5	15.1	0.00e+00	0	24	0	1482686464	65	3983
2026-01-09 01:02:48.86	224.33	53.75	-48.7	-49.9	15.1	0.00e+00	0	24	0	1495269376	63	4170
2026-01-09 01:02:52.86	223.65	52.35	-51.7	-53.4	14.2	0.00e+00	0	24	0	1506803712	68	4668
2026-01-09 01:02:56.85	223.04	51.00	-50.1	-51.4	14.8	0.00e+00	0	24	0	1519386624	66	4192
2026-01-09 01:03:00.83	222.48	49.68	-50.9	-52.3	14.5	0.00e+00	0	24	0	1531969536	67	4379
2026-01-09 01:03:04.83	221.97	48.39	-51.1	-52.7	14.3	0.00e+00	0	24	0	1544552448	67	4549
2026-01-09 01:03:08.84	221.50	47.13	-50.2	-51.6	14.8	0.00e+00	0	24	0	1557135360	67	4020
2026-01-09 01:03:12.83	221.06	45.91	-50.0	-51.3	14.8	0.00e+00	0	24	0	1569718272	66	4134
2026-01-09 01:03:16.83	220.66	44.72	-51.7	-53.4	14.1	0.00e+00	0	24	0	1582301184	68	4661
2026-01-09 01:03:20.82	220.29	43.57	-53.1	-55.1	13.5	0.00e+00	0	24	0	1594884096	71	4780
2026-01-09 01:03:24.83	219.94	42.45	-51.4	-53.0	14.4	0.00e+00	0	24	0	1607467008	69	4223
2026-01-09 01:03:28.84	219.62	41.35	-50.1	-51.4	14.8	0.00e+00	0	24	0	1620049920	66	4177
2026-01-09 01:03:32.84	219.32	40.29	-50.9	-52.4	14.3	0.00e+00	0	24	0	1632632832	66	4683
2026-01-09 01:03:36.83	219.04	39.27	-51.1	-52.7	14.3	0.00e+00	0	24	0	1644167168	67	4560
2026-01-09 01:03:40.83	218.78	38.26	-51.0	-52.6	14.4	0.00e+00	0	24	0	1656750080	67	4496
2026-01-09 01:03:44.82	218.53	37.29	-51.1	-52.6	14.4	0.00e+00	0	24	0	1669332992	67	4536
2026-01-09 01:03:48.80	218.30	36.35	-50.9	-52.4	14.4	0.00e+00	0	24	0	1681915904	67	4439
2026-01-09 01:03:52.79	218.08	35.43	-50.2	-51.6	14.9	0.00e+00	0	24	0	1694498816	67	4048
2026-01-09 01:03:56.78	217.88	34.54	-50.0	-51.4	14.9	0.00e+00	0	24	0	1707081728	66	4150
2026-01-09 01:04:00.76	217.68	33.68	-50.2	-51.6	14.7	0.00e+00	0	24	0	1719664640	66	4267
2026-01-09 01:04:04.76	217.50	32.83	-49.4	-50.7	15.0	0.00e+00	0	24	0	1732247552	65	4061
2026-01-09 01:04:08.76	217.33	32.01	-48.6	-49.8	15.1	0.00e+00	0	24	0	1744830464	63	4106
2026-01-09 01:04:12.74	217.16	31.21	-48.4	-49.5	15.2	0.00e+00	0	24	0	1756364800	63	3999
2026-01-09 01:04:16.72	217.01	30.43	-48.5	-49.7	15.2	0.00e+00	0	24	0	1768947712	63	4082
2026-01-09 01:04:20.72	216.86	29.67	-48.5	-49.7	15.2	0.00e+00	0	24	0	1781530624	63	4092
2026-01-09 01:04:24.71	216.72	28.93	-48.8	-50.0	15.0	0.00e+00	0	24	0	1794113536	63	4208
2026-01-09 01:04:28.71	216.58	28.21	-48.3	-49.5	15.2	0.00e+00	0	24	0	1806696448	63	3999
2026-01-09 01:04:32.71	216.46	27.50	-48.2	-49.3	15.1	0.00e+00	0	24	0	1819279360	62	4135
2026-01-09 01:04:36.70	216.33	26.82	-48.2	-49.4	15.1	0.00e+00	0	24	0	1831862272	62	4147
2026-01-09 01:04:40.70	216.22	26.15	-48.3	-49.6	15.1	0.00e+00	0	24	0	1844445184	62	4249
2026-01-09 01:04:44.67	216.11	25.50	-48.4	-49.6	15.0	0.00e+00	0	24	0	1857028096	62	4253
2026-01-09 01:04:48.65	216.00	24.86	-48.3	-49.5	15.0	0.00e+00	0	24	0	1868562432	62	4227
2026-01-09 01:04:52.63	215.90	24.24	-48.4	-49.7	15.0	0.00e+00	0	24	0	1881145344	62	4295
2026-01-09 01:04:56.63	215.81	23.63	-48.4	-49.6	15.0	0.00e+00	0	24	0	1893728256	62	4278
2026-01-09 01:05:00.63	215.71	23.04	-48.4	-49.7	15.0	0.00e+00	0	24	0	1906311168	62	4309
2026-01-09 01:05:04.62	215.63	22.46	-48.3	-49.5	15.1	0.00e+00	0	24	0	1918894080	62	4230
2026-01-09 01:05:08.62	215.54	21.89	-48.2	-49.4	15.1	0.00e+00	0	24	0	1931476992	62	4168
2026-01-09 01:05:12.61	215.46	21.33	-47.9	-49.1	15.3	0.00e+00	0	24	0	1944059904	62	4020
2026-01-09 01:05:16.60	215.38	20.79	-48.0	-49.2	15.2	0.00e+00	0	24	0	1956642816	62	4060
2026-01-09 01:05:20.60	215.31	20.25	-47.9	-49.1	15.2	0.00e+00	0	24	0	1969225728	62	4033
2026-01-09 01:05:24.60	215.23	19.73	-48.1	-49.3	15.1	0.00e+00	0	24	0	1981808640	62	4144
2026-01-09 01:05:28.59	215.17	19.22	-48.2	-49.4	15.1	0.00e+00	0	24	0	1993342976	62	4193
2026-01-09 01:05:32.59	215.10	18.72	-48.3	-49.6	15.0	0.00e+00	0	24	0	2005925888	62	4246
2026-01-09 01:05:36.58	215.04	18.23	-48.5	-49.8	14.9	0.00e+00	0	24	0	2018508800	62	4341
2026-01-09 01:05:40.57	214.97	17.75	-48.6	-49.8	14.9	0.00e+00	0	24	0	2031091712	62	4381
2026-01-09 01:05:44.56	214.92	17.28	-48.5	-49.7	15.0	0.00e+00	0	24	0	2043674624	62	4336
2026-01-09 01:05:48.55	214.86	16.81	-48.7	-50.0	14.9	0.00e+00	0	24	0	2056257536	62	4471
2026-01-09 01:05:52.53	214.80	16.36	-49.0	-50.3	14.9	0.00e+00	0	24	0	2068840448	63	4356
2026-01-09 01:05:56.51	214.75	15.92	-49.1	-50.5	14.7	0.00e+00	0	24	0	2081423360	63	4457
2026-01-09 01:06:00.50	214.70	15.48	-49.3	-50.6	14.7	0.00e+00	0	24	0	2094006272	63	4530
2026-01-09 01:06:04.50	214.65	15.05	-49.2	-50.6	14.7	0.00e+00	0	24	0	2105540608	63	4497
2026-01-09 01:06:08.50	214.60	14.62	-49.1	-50.4	14.7	0.00e+00	0	24	0	2118123520	63	4432
2026-01-09 01:06:12.49	214.56	14.21	-49.0	-50.4	14.8	0.00e+00	0	24	0	2130706432	63	4394
2026-01-09 01:06:16.49	214.52	13.80	-49.3	-50.7	14.6	0.00e+00	0	24	0	2143289344	63	4548
2026-01-09 01:06:20.48	214.47	13.40	-49.1	-50.5	14.7	0.00e+00	0	24	0	2155872256	63	4458
2026-01-09 01:06:24.48	214.43	13.00	-49.3	-50.7	14.6	0.00e+00	0	24	0	2168455168	63	4550
2026-01-09 01:06:28.49	214.39	12.61	-49.3	-50.6	14.7	0.00e+00	0	24	0	2181038080	63	4534
2026-01-09 01:06:32.49	214.35	12.22	-49.2	-50.6	14.6	0.00e+00	0	24	0	2193620992	63	4523
2026-01-09 01:06:36.48	214.32	11.85	-49.3	-50.6	14.6	0.00e+00	0	24	0	2206203904	63	4533
2026-01-09 01:06:40.48	214.28	11.47	-49.2	-50.6	14.6	0.00e+00	0	24	0	2218786816	63	4521
2026-01-09 01:06:44.46	214.25	11.11	-49.3	-50.6	14.7	0.00e+00	0	24	0	2231369728	64	4286
2026-01-09 01:06:48.44	214.22	10.75	-49.3	-50.7	14.7	0.00e+00	0	24	0	2242904064	64	4305
2026-01-09 01:06:52.42	214.18	10.39	-49.5	-50.9	14.6	0.00e+00	0	24	0	2255486976	64	4408
2026-01-09 01:06:56.43	214.15	10.04	-49.4	-50.8	14.6	0.00e+00	0	24	0	2268069888	64	4376
2026-01-09 01:07:00.43	214.12	9.70	-49.6	-51.0	14.5	0.00e+00	0	24	0	2280652800	64	4468
2026-01-09 01:07:04.42	214.09	9.36	-49.6	-51.0	14.5	0.00e+00	0	24	0	2293235712	64	4493
2026-01-09 01:07:08.42	214.07	9.02	-49.7	-51.2	14.5	0.00e+00	0	24	0	2305818624	64	4558
2026-01-09 01:07:12.41	214.04	8.69	-49.9	-51.4	14.3	0.00e+00	0	24	0	2318401536	64	4654
2026-01-09 01:07:16.41	214.01	8.36	-49.9	-51.4	14.5	0.00e+00	0	24	0	2330984448	65	4402
2026-01-09 01:07:20.41	213.99	8.04	-50.1	-51.6	14.3	0.00e+00	0	24	0	2343567360	65	4526
2026-01-09 01:07:24.40	213.96	7.72	-50.3	-51.9	14.2	0.00e+00	0	24	0	2356150272	65	4671
2026-01-09 01:07:28.41	213.94	7.40	-50.6	-52.2	14.1	0.00e+00	0	24	0	2367684608	66	4590
2026-01-09 01:07:32.39	213.92	7.09	-50.8	-52.5	14.0	0.00e+00	0	24	0	2380267520	66	4716
2026-01-09 01:07:36.39	213.90	6.78	-50.8	-52.5	13.9	0.00e+00	0	24	0	2392850432	66	4738
2026-01-09 01:07:40.39	213.87	6.48	-50.8	-52.5	14.0	0.00e+00	0	24	0	2405433344	67	4477
2026-01-09 01:07:44.37	213.85	6.18	-51.1	-53.0	13.7	0.00e+00	0	24	0	2418016256	67	4717
2026-01-09 01:07:48.36	213.83	5.88	-51.1	-52.9	13.8	0.00e+00	0	24	0	2430599168	67	4672
2026-01-09 01:07:52.35	213.82	5.59	-51.3	-53.2	13.6	0.00e+00	0	24	0	2443182080	67	4849
2026-01-09 01:07:56.34	213.80	5.30	-51.8	-53.8	13.4	0.00e+00	0	24	0	2455764992	68	4879
2026-01-09 01:08:00.32	213.78	5.01	-52.7	-55.1	12.9	0.00e+00	0	24	0	2468347904	70	5079
2026-01-09 01:08:04.30	213.76	4.73	-58.9	-72.7	3.8	1.49e+00	0	24	104	2468347904	82	19324
2026-01-09 01:08:08.28	213.75	4.45	-59.2	-73.0	3.8	1.49e+00	0	24	104	2468347904	83	18940
2026-01-09 01:08:12.27	213.73	4.17	-59.4	-73.2	3.8	1.49e+00	0	24	104	2468347904	83	19311
2026-01-09 01:08:16.27	213.71	3.89	-59.7	-73.5	3.8	1.49e+00	0	24	104	2468347904	84	18864
2026-01-09 01:08:20.27	213.70	3.62	-59.8	-73.6	3.8	1.49e+00	0	24	104	2468347904	84	19136
2026-01-09 01:08:24.25	213.68	3.35	-59.9	-73.7	3.8	1.49e+00	0	24	104	2468347904	85	18182
2026-01-09 01:08:28.25	213.67	3.08	-59.8	-73.6	3.8	1.49e+00	0	24	104	2468347904	85	18087
2026-01-09 01:08:32.25	213.66	2.81	-59.8	-73.6	3.8	1.49e+00	0	24	104	2468347904	85	18042
2026-01-09 01:08:36.25	213.64	2.55	-59.8	-73.6	3.8	1.49e+00	0	24	104	2468347904	85	17954
2026-01-09 01:08:40.25	213.63	2.29	-59.7	-73.6	3.8	1.49e+00	0	24	104	2468347904	85	17891
2026-01-09 01:08:44.24	213.62	2.03	-59.7	-73.5	3.8	1.49e+00	0	24	104	2468347904	85	17878

#Closed at: 2026-01-09 01:08:47
#Recorded file [2468 MB]: D:/lorett/data/31004_260109_035417.dat