passes_logs/2026/01/09/R3.2S_Murmansk/R3.2S_Murmansk__20260109_073156_NOAA_21_JPSS-2_rec.log

#Pass ID: 20260109_073156_NOAA 21 (JPSS-2)
#Satellite: NOAA 21 (JPSS-2)
#Configuration: NOAA-21
#almurnet v.1.7.20251203
#Start time: 2026-01-09 07:31:56

#Version: 2.2.20231116
#Station: R3.2S_Murmansk
#Location: 33.079688 lon 68.888172 lat
#TLE: 1 54234U 22150A   26008.59854928  .00000127  00000+0  81204-4 0  9992
#TLE: 2 54234  98.7494 309.5759 0000887 327.7487  32.3634 14.19533414163905

#Time	Az	El	Level	Level2	SNR	BER	BlckErr	Temp	State	Recorded	gain1	gain2
2026-01-09 07:31:56.79	106.15	2.02	-57.4	-71.1	3.8	1.49e+00	0	22	0	0	81	17049
2026-01-09 07:32:00.77	105.99	2.26	-57.4	-71.1	3.8	1.49e+00	0	22	104	0	79	18960
2026-01-09 07:32:04.75	105.81	2.51	-57.4	-71.1	3.8	1.49e+00	0	22	104	0	79	19021
2026-01-09 07:32:08.74	105.64	2.75	-57.4	-71.1	3.8	1.49e+00	0	22	104	0	79	19064
2026-01-09 07:32:12.71	105.46	3.00	-57.4	-71.1	3.8	1.49e+00	0	22	104	0	79	19033
2026-01-09 07:32:16.67	105.28	3.25	-57.4	-71.0	3.8	1.49e+00	0	22	104	0	79	18941
2026-01-09 07:32:20.67	105.09	3.51	-57.4	-70.8	3.8	1.49e+00	0	22	104	0	79	18320
2026-01-09 07:32:24.67	104.90	3.76	-57.3	-70.6	3.8	1.49e+00	0	22	104	0	79	18014
2026-01-09 07:32:28.66	104.71	4.02	-57.4	-71.1	3.8	1.49e+00	0	22	104	0	79	19030
2026-01-09 07:32:32.65	104.51	4.28	-57.2	-67.9	4.1	1.48e+00	0	22	104	0	79	13173
2026-01-09 07:32:36.63	104.31	4.55	-56.7	-64.3	5.7	4.00e-01	0	22	0	3145728	79	8725
2026-01-09 07:32:40.62	104.10	4.81	-56.1	-61.7	7.8	7.61e-02	0	23	0	15728640	78	6826
2026-01-09 07:32:44.60	103.90	5.08	-55.2	-59.2	10.1	9.50e-03	0	23	0	28311552	77	5419
2026-01-09 07:32:48.59	103.68	5.35	-56.5	-62.9	7.0	2.62e-03	0	23	0	40894464	78	7876
2026-01-09 07:32:52.58	103.47	5.62	-53.6	-56.3	12.1	3.80e-06	0	23	0	51380224	73	4904
2026-01-09 07:32:56.54	103.25	5.89	-53.1	-55.6	12.7	1.50e-06	0	23	0	63963136	72	4774
2026-01-09 07:33:00.52	103.02	6.17	-52.4	-54.6	13.3	0.00e+00	0	23	0	75497472	71	4497
2026-01-09 07:33:04.50	102.79	6.44	-52.2	-54.3	13.4	0.00e+00	0	23	0	88080384	70	4628
2026-01-09 07:33:08.48	102.56	6.73	-52.0	-54.1	13.5	0.00e+00	0	23	0	100663296	70	4517
2026-01-09 07:33:12.49	102.32	7.01	-51.8	-53.7	13.6	0.00e+00	0	23	0	113246208	69	4587
2026-01-09 07:33:16.48	102.07	7.30	-51.4	-53.3	13.9	0.00e+00	0	23	0	125829120	69	4353
2026-01-09 07:33:20.48	101.82	7.59	-51.4	-53.2	14.0	0.00e+00	0	23	0	138412032	69	4320
2026-01-09 07:33:24.49	101.57	7.88	-51.4	-53.2	13.8	0.00e+00	0	23	0	150994944	68	4593
2026-01-09 07:33:28.49	101.30	8.18	-50.3	-51.9	14.4	0.00e+00	0	23	0	163577856	67	4179
2026-01-09 07:33:32.50	101.04	8.48	-50.0	-51.5	14.5	0.00e+00	0	23	0	176160768	66	4224
2026-01-09 07:33:36.49	100.77	8.78	-49.8	-51.3	14.7	0.00e+00	0	23	0	188743680	66	4121
2026-01-09 07:33:40.47	100.49	9.08	-49.5	-51.0	14.7	0.00e+00	0	23	0	200278016	65	4195
2026-01-09 07:33:44.46	100.20	9.39	-49.6	-51.0	14.6	0.00e+00	0	23	0	212860928	65	4236
2026-01-09 07:33:48.48	99.91	9.70	-49.4	-50.9	14.7	0.00e+00	0	23	0	225443840	65	4159
2026-01-09 07:33:52.48	99.61	10.02	-49.4	-50.9	14.7	0.00e+00	0	23	0	238026752	65	4178
2026-01-09 07:33:56.47	99.31	10.34	-49.2	-50.6	14.9	0.00e+00	0	23	0	250609664	65	4045
2026-01-09 07:34:00.45	99.00	10.65	-49.0	-50.4	14.9	0.00e+00	0	23	0	263192576	64	4174
2026-01-09 07:34:04.43	98.68	10.98	-48.8	-50.1	15.0	0.00e+00	0	23	0	275775488	64	4033
2026-01-09 07:34:08.42	98.36	11.30	-48.7	-50.0	14.9	0.00e+00	0	23	0	288358400	63	4211
2026-01-09 07:34:12.39	98.03	11.63	-48.7	-50.0	14.9	0.00e+00	0	23	0	300941312	63	4239
2026-01-09 07:34:16.36	97.69	11.96	-48.8	-50.2	14.9	0.00e+00	0	23	0	312475648	63	4309
2026-01-09 07:34:20.33	97.34	12.30	-48.7	-50.0	15.0	0.00e+00	0	23	0	325058560	63	4210
2026-01-09 07:34:24.32	96.98	12.64	-48.6	-49.9	15.0	0.00e+00	0	23	0	337641472	63	4172
2026-01-09 07:34:28.28	96.62	12.98	-48.8	-50.1	14.9	0.00e+00	0	23	0	350224384	63	4273
2026-01-09 07:34:32.27	96.24	13.33	-48.6	-50.0	15.0	0.00e+00	0	23	0	362807296	63	4203
2026-01-09 07:34:36.26	95.86	13.68	-48.7	-50.1	14.9	0.00e+00	0	23	0	375390208	63	4250
2026-01-09 07:34:40.24	95.47	14.04	-48.8	-50.2	14.9	0.00e+00	0	23	0	387973120	63	4301
2026-01-09 07:34:44.23	95.06	14.40	-48.6	-49.9	15.0	0.00e+00	0	23	0	399507456	63	4166
2026-01-09 07:34:48.21	94.65	14.76	-48.6	-49.9	15.0	0.00e+00	0	23	0	412090368	63	4188
2026-01-09 07:34:52.19	94.23	15.13	-48.7	-50.0	14.9	0.00e+00	0	23	0	424673280	63	4231
2026-01-09 07:34:56.16	93.80	15.50	-49.0	-50.3	14.8	0.00e+00	0	23	0	437256192	63	4384
2026-01-09 07:35:00.14	93.35	15.87	-48.8	-50.1	14.9	0.00e+00	0	24	0	449839104	63	4270
2026-01-09 07:35:04.13	92.89	16.25	-48.9	-50.2	14.9	0.00e+00	0	23	0	462422016	63	4316
2026-01-09 07:35:08.12	92.42	16.63	-48.8	-50.1	14.9	0.00e+00	0	23	0	475004928	63	4255
2026-01-09 07:35:12.12	91.94	17.02	-48.9	-50.2	14.9	0.00e+00	0	23	0	487587840	63	4318
2026-01-09 07:35:16.11	91.44	17.41	-49.1	-50.4	14.8	0.00e+00	0	24	0	500170752	63	4435
2026-01-09 07:35:20.10	90.94	17.81	-48.9	-50.3	14.8	0.00e+00	0	24	0	511705088	63	4346
2026-01-09 07:35:24.10	90.41	18.21	-49.0	-50.3	14.8	0.00e+00	0	24	0	524288000	63	4347
2026-01-09 07:35:28.09	89.87	18.61	-49.0	-50.3	14.8	0.00e+00	0	24	0	536870912	63	4374
2026-01-09 07:35:32.10	89.32	19.02	-48.9	-50.2	14.9	0.00e+00	0	23	0	549453824	63	4303
2026-01-09 07:35:36.11	88.75	19.43	-48.8	-50.1	14.9	0.00e+00	0	24	0	562036736	63	4281
2026-01-09 07:35:40.12	88.17	19.85	-48.7	-50.0	15.0	0.00e+00	0	23	0	574619648	63	4204
2026-01-09 07:35:44.11	87.57	20.26	-48.4	-49.7	15.1	0.00e+00	0	23	0	587202560	63	4072
2026-01-09 07:35:48.10	86.95	20.69	-48.3	-49.6	15.2	0.00e+00	0	23	0	599785472	63	4008
2026-01-09 07:35:52.11	86.31	21.11	-48.1	-49.3	15.1	0.00e+00	0	23	0	612368384	62	4134
2026-01-09 07:35:56.12	85.66	21.54	-47.9	-49.1	15.2	0.00e+00	0	24	0	624951296	62	4048
2026-01-09 07:36:00.11	84.99	21.98	-47.7	-48.9	15.2	0.00e+00	0	24	0	637534208	61	4185
2026-01-09 07:36:04.12	84.30	22.41	-47.6	-48.8	15.2	0.00e+00	0	23	0	650117120	61	4135
2026-01-09 07:36:08.12	83.58	22.85	-47.6	-48.7	15.3	0.00e+00	0	24	0	662700032	61	4091
2026-01-09 07:36:12.13	82.85	23.29	-47.7	-48.9	15.2	0.00e+00	0	24	0	674234368	61	4166
2026-01-09 07:36:16.11	82.10	23.74	-47.9	-49.1	15.1	0.00e+00	0	24	0	686817280	61	4273
2026-01-09 07:36:20.11	81.33	24.18	-47.7	-48.9	15.2	0.00e+00	0	24	0	699400192	61	4166
2026-01-09 07:36:24.13	80.52	24.63	-48.1	-49.4	15.0	0.00e+00	0	24	0	711983104	61	4416
2026-01-09 07:36:28.15	79.70	25.08	-48.3	-49.5	15.1	0.00e+00	0	24	0	724566016	62	4229
2026-01-09 07:36:32.16	78.85	25.53	-48.0	-49.2	15.2	0.00e+00	0	24	0	737148928	62	4057
2026-01-09 07:36:36.17	77.98	25.98	-48.5	-49.8	15.0	0.00e+00	0	24	0	749731840	62	4342
2026-01-09 07:36:40.18	77.08	26.43	-48.2	-49.5	15.1	0.00e+00	0	24	0	762314752	62	4196
2026-01-09 07:36:44.19	76.16	26.89	-48.6	-49.9	14.9	0.00e+00	0	24	0	774897664	62	4405
2026-01-09 07:36:48.21	75.21	27.34	-48.8	-50.1	14.9	0.00e+00	0	24	0	787480576	62	4508
2026-01-09 07:36:52.21	74.23	27.78	-49.0	-50.3	14.9	0.00e+00	0	24	0	800063488	63	4380
2026-01-09 07:36:56.22	73.23	28.23	-49.1	-50.5	14.8	0.00e+00	0	24	0	812646400	63	4452
2026-01-09 07:37:00.24	72.19	28.67	-48.4	-49.7	15.2	0.00e+00	0	23	0	825229312	63	4065
2026-01-09 07:37:04.24	71.13	29.11	-48.4	-49.6	15.1	0.00e+00	0	24	0	837812224	63	4046
2026-01-09 07:37:08.23	70.04	29.54	-48.6	-49.8	15.1	0.00e+00	0	24	0	850395136	63	4126
2026-01-09 07:37:12.25	68.92	29.97	-48.6	-49.8	15.1	0.00e+00	0	24	0	862978048	63	4137
2026-01-09 07:37:16.26	67.77	30.39	-48.7	-50.0	15.0	0.00e+00	0	24	0	875560960	63	4198
2026-01-09 07:37:20.28	66.58	30.81	-48.6	-49.9	15.1	0.00e+00	0	24	0	888143872	63	4154
2026-01-09 07:37:24.30	65.37	31.21	-48.7	-50.0	15.0	0.00e+00	0	24	0	900726784	63	4215
2026-01-09 07:37:28.32	64.12	31.61	-48.9	-50.2	14.9	0.00e+00	0	24	0	913309696	63	4299
2026-01-09 07:37:32.32	62.85	32.00	-48.9	-50.2	14.9	0.00e+00	0	24	0	924844032	63	4295
2026-01-09 07:37:36.31	61.55	32.37	-49.1	-50.4	14.9	0.00e+00	0	24	0	937426944	63	4416
2026-01-09 07:37:40.34	60.21	32.73	-49.4	-50.7	14.7	0.00e+00	0	24	0	950009856	63	4557
2026-01-09 07:37:44.35	58.84	33.08	-49.5	-50.9	14.8	0.00e+00	0	24	0	962592768	64	4402
2026-01-09 07:37:48.37	57.45	33.42	-49.4	-50.8	14.8	0.00e+00	0	24	0	975175680	64	4346
2026-01-09 07:37:52.40	56.02	33.73	-49.3	-50.6	14.9	0.00e+00	0	24	0	987758592	64	4262
2026-01-09 07:37:56.41	54.57	34.03	-49.9	-51.3	14.6	0.00e+00	0	24	0	1000341504	64	4619
2026-01-09 07:38:00.41	53.10	34.31	-49.8	-51.2	14.7	0.00e+00	0	24	0	1012924416	65	4318
2026-01-09 07:38:04.43	51.59	34.57	-49.7	-51.0	14.8	0.00e+00	0	24	0	1025507328	65	4231
2026-01-09 07:38:08.45	50.07	34.82	-49.0	-50.3	15.1	0.00e+00	0	24	0	1038090240	64	4113
2026-01-09 07:38:12.46	48.52	35.03	-49.5	-50.8	14.8	0.00e+00	0	24	0	1050673152	64	4380
2026-01-09 07:38:16.48	46.95	35.23	-49.8	-51.2	14.6	0.00e+00	0	24	0	1063256064	64	4582
2026-01-09 07:38:20.49	45.37	35.40	-49.7	-51.1	14.8	0.00e+00	0	24	0	1075838976	65	4252
2026-01-09 07:38:24.51	43.77	35.55	-49.6	-50.9	14.9	0.00e+00	0	24	0	1088421888	65	4174
2026-01-09 07:38:28.51	42.16	35.67	-49.7	-51.1	14.8	0.00e+00	0	24	0	1101004800	65	4257
2026-01-09 07:38:32.53	40.54	35.77	-50.1	-51.5	14.6	0.00e+00	0	24	0	1113587712	65	4475
2026-01-09 07:38:36.54	38.90	35.84	-50.2	-51.7	14.5	0.00e+00	0	24	0	1126170624	65	4583
2026-01-09 07:38:40.55	37.27	35.88	-49.8	-51.1	14.8	0.00e+00	0	24	0	1138753536	65	4284
2026-01-09 07:38:44.57	35.63	35.90	-49.5	-50.9	14.9	0.00e+00	0	24	0	1151336448	65	4155
2026-01-09 07:38:48.58	33.99	35.89	-49.3	-50.6	15.0	0.00e+00	0	24	0	1163919360	65	4044
2026-01-09 07:38:52.58	32.35	35.85	-49.5	-50.8	14.9	0.00e+00	0	24	0	1176502272	65	4126
2026-01-09 07:38:56.60	30.72	35.79	-49.5	-50.9	14.9	0.00e+00	0	24	0	1189085184	65	4154
2026-01-09 07:39:00.61	29.09	35.70	-49.4	-50.7	15.0	0.00e+00	0	24	0	1201668096	65	4083
2026-01-09 07:39:04.64	27.47	35.59	-49.7	-51.1	14.8	0.00e+00	0	24	0	1214251008	65	4253
2026-01-09 07:39:08.66	25.87	35.45	-50.1	-51.5	14.6	0.00e+00	0	24	0	1226833920	65	4477
2026-01-09 07:39:12.67	24.28	35.28	-50.1	-51.5	14.6	0.00e+00	0	24	0	1239416832	65	4473
2026-01-09 07:39:16.68	22.71	35.09	-49.5	-50.8	15.0	0.00e+00	0	24	0	1250951168	65	4106
2026-01-09 07:39:20.70	21.16	34.88	-49.4	-50.8	15.0	0.00e+00	0	24	0	1263534080	65	4102
2026-01-09 07:39:24.71	19.63	34.65	-48.8	-50.0	15.2	0.00e+00	0	24	0	1276116992	64	3993
2026-01-09 07:39:28.73	18.12	34.39	-49.2	-50.5	14.8	0.00e+00	0	24	0	1288699904	63	4475
2026-01-09 07:39:32.75	16.64	34.12	-49.4	-50.7	14.9	0.00e+00	0	24	0	1301282816	64	4310
2026-01-09 07:39:36.76	15.18	33.82	-49.4	-50.7	14.8	0.00e+00	0	24	0	1313865728	64	4314
2026-01-09 07:39:40.77	13.76	33.51	-49.8	-51.1	14.7	0.00e+00	0	24	0	1326448640	65	4291
2026-01-09 07:39:44.79	12.35	33.18	-49.2	-50.4	15.1	0.00e+00	0	24	0	1339031552	65	3953
2026-01-09 07:39:48.82	10.97	32.84	-48.6	-49.8	15.1	0.00e+00	0	24	0	1351614464	63	4125
2026-01-09 07:39:52.84	9.63	32.48	-49.2	-50.5	14.8	0.00e+00	0	24	0	1364197376	63	4446
2026-01-09 07:39:56.86	8.32	32.11	-48.8	-50.1	14.9	0.00e+00	0	24	0	1376780288	63	4252
2026-01-09 07:40:00.88	7.03	31.73	-48.7	-49.9	15.0	0.00e+00	0	24	0	1389363200	63	4188
2026-01-09 07:40:04.90	5.78	31.33	-49.3	-50.6	14.8	0.00e+00	0	24	0	1401946112	63	4544
2026-01-09 07:40:08.92	4.56	30.93	-49.1	-50.4	14.9	0.00e+00	0	24	0	1414529024	63	4412
2026-01-09 07:40:12.95	3.36	30.52	-49.3	-50.6	14.9	0.00e+00	0	24	0	1427111936	64	4289
2026-01-09 07:40:16.97	2.20	30.10	-48.7	-49.9	15.2	0.00e+00	0	24	0	1439694848	64	3940
2026-01-09 07:40:20.97	1.08	29.67	-49.1	-50.4	14.9	0.00e+00	0	24	0	1452277760	63	4408
2026-01-09 07:40:25.00	359.97	29.24	-48.8	-50.1	15.0	0.00e+00	0	24	0	1464860672	63	4256
2026-01-09 07:40:29.00	358.91	28.80	-48.9	-50.2	14.9	0.00e+00	0	24	0	1477443584	63	4328
2026-01-09 07:40:33.02	357.87	28.36	-48.6	-49.8	15.1	0.00e+00	0	24	0	1490026496	63	4141
2026-01-09 07:40:37.05	356.85	27.91	-48.4	-49.6	15.2	0.00e+00	0	24	0	1502609408	63	4038
2026-01-09 07:40:41.06	355.87	27.47	-48.7	-50.0	15.1	0.00e+00	0	24	0	1515192320	63	4196
2026-01-09 07:40:45.08	354.91	27.02	-48.5	-49.7	15.1	0.00e+00	0	24	0	1527775232	63	4083
2026-01-09 07:40:49.10	353.98	26.57	-48.1	-49.3	15.2	0.00e+00	0	24	0	1540358144	62	4119
2026-01-09 07:40:53.13	353.07	26.12	-48.3	-49.5	15.1	0.00e+00	0	24	0	1552941056	62	4226
2026-01-09 07:40:57.15	352.20	25.67	-49.0	-50.3	14.9	0.00e+00	0	24	0	1565523968	63	4355
2026-01-09 07:41:01.16	351.35	25.22	-48.9	-50.2	14.9	0.00e+00	0	24	0	1578106880	63	4311
2026-01-09 07:41:05.18	350.52	24.77	-48.4	-49.6	15.2	0.00e+00	0	24	0	1590689792	63	4026
2026-01-09 07:41:09.21	349.71	24.32	-48.1	-49.2	15.2	0.00e+00	0	24	0	1603272704	62	4095
2026-01-09 07:41:13.22	348.93	23.87	-47.7	-48.9	15.3	0.00e+00	0	24	0	1615855616	62	3927
2026-01-09 07:41:17.24	348.17	23.43	-47.7	-48.8	15.2	0.00e+00	0	24	0	1628438528	61	4129
2026-01-09 07:41:21.26	347.43	22.98	-48.0	-49.2	15.1	0.00e+00	0	24	0	1641021440	61	4304
2026-01-09 07:41:25.27	346.72	22.54	-48.2	-49.4	15.0	0.00e+00	0	24	0	1653604352	61	4417
2026-01-09 07:41:29.29	346.02	22.11	-48.0	-49.2	15.1	0.00e+00	0	24	0	1666187264	61	4329
2026-01-09 07:41:33.30	345.34	21.67	-48.5	-49.8	15.0	0.00e+00	0	24	0	1678770176	62	4344
2026-01-09 07:41:37.29	344.69	21.24	-48.5	-49.8	15.0	0.00e+00	0	24	0	1691353088	62	4370
2026-01-09 07:41:41.30	344.05	20.82	-48.5	-49.8	15.0	0.00e+00	0	24	0	1703936000	62	4373
2026-01-09 07:41:45.30	343.43	20.40	-48.6	-49.9	14.9	0.00e+00	0	24	0	1715470336	62	4398
2026-01-09 07:41:49.30	342.83	19.98	-48.7	-50.0	14.9	0.00e+00	0	24	0	1728053248	62	4443
2026-01-09 07:41:53.30	342.24	19.56	-48.3	-49.5	15.1	0.00e+00	0	24	0	1740636160	62	4230
2026-01-09 07:41:57.29	341.67	19.15	-48.3	-49.6	15.0	0.00e+00	0	24	0	1753219072	62	4246
2026-01-09 07:42:01.29	341.12	18.74	-48.2	-49.4	15.1	0.00e+00	0	24	0	1765801984	62	4155
2026-01-09 07:42:05.30	340.58	18.34	-48.2	-49.4	15.1	0.00e+00	0	24	0	1778384896	62	4168
2026-01-09 07:42:09.29	340.05	17.94	-48.2	-49.4	15.1	0.00e+00	0	24	0	1790967808	62	4157
2026-01-09 07:42:13.30	339.54	17.54	-48.3	-49.5	15.0	0.00e+00	0	24	0	1803550720	62	4227
2026-01-09 07:42:17.31	339.04	17.15	-48.4	-49.7	15.0	0.00e+00	0	24	0	1816133632	62	4304
2026-01-09 07:42:21.30	338.56	16.76	-48.9	-50.2	14.8	0.00e+00	0	24	0	1828716544	62	4554
2026-01-09 07:42:25.30	338.09	16.38	-49.1	-50.4	14.8	0.00e+00	0	24	0	1841299456	63	4415
2026-01-09 07:42:29.28	337.63	16.00	-49.2	-50.5	14.7	0.00e+00	0	24	0	1852833792	63	4493
2026-01-09 07:42:33.28	337.18	15.63	-48.9	-50.2	14.9	0.00e+00	0	24	0	1865416704	63	4336
2026-01-09 07:42:37.26	336.75	15.25	-49.2	-50.6	14.7	0.00e+00	0	24	0	1877999616	63	4509
2026-01-09 07:42:41.25	336.32	14.89	-49.1	-50.5	14.8	0.00e+00	0	24	0	1890582528	63	4444
2026-01-09 07:42:45.24	335.91	14.52	-49.4	-50.7	14.6	0.00e+00	0	24	0	1903165440	63	4593
2026-01-09 07:42:49.23	335.51	14.16	-49.5	-50.8	14.7	0.00e+00	0	24	0	1915748352	64	4386
2026-01-09 07:42:53.23	335.11	13.81	-49.4	-50.8	14.7	0.00e+00	0	24	0	1928331264	64	4386
2026-01-09 07:42:57.23	334.73	13.46	-49.2	-50.5	14.8	0.00e+00	0	24	0	1940914176	64	4234
2026-01-09 07:43:01.24	334.35	13.11	-49.1	-50.4	14.9	0.00e+00	0	24	0	1953497088	64	4158
2026-01-09 07:43:05.26	333.98	12.76	-49.0	-50.3	14.9	0.00e+00	0	24	0	1966080000	64	4111
2026-01-09 07:43:09.28	333.62	12.42	-49.4	-50.8	14.7	0.00e+00	0	24	0	1978662912	64	4356
2026-01-09 07:43:13.30	333.27	12.08	-49.4	-50.8	14.6	0.00e+00	0	24	0	1991245824	64	4381
2026-01-09 07:43:17.32	332.93	11.74	-49.7	-51.2	14.5	0.00e+00	0	24	0	2003828736	64	4572
2026-01-09 07:43:21.30	332.60	11.41	-49.8	-51.2	14.6	0.00e+00	0	24	0	2016411648	65	4325
2026-01-09 07:43:25.29	332.27	11.08	-49.8	-51.3	14.5	0.00e+00	0	24	0	2027945984	65	4364
2026-01-09 07:43:29.26	331.96	10.76	-49.6	-51.0	14.7	0.00e+00	0	24	0	2040528896	65	4215
2026-01-09 07:43:33.23	331.65	10.44	-49.6	-51.0	14.7	0.00e+00	0	24	0	2053111808	65	4227
2026-01-09 07:43:37.19	331.35	10.13	-49.8	-51.3	14.5	0.00e+00	0	24	0	2065694720	65	4343
2026-01-09 07:43:41.16	331.05	9.82	-49.7	-51.2	14.6	0.00e+00	0	24	0	2078277632	65	4308
2026-01-09 07:43:45.12	330.76	9.51	-49.8	-51.2	14.5	0.00e+00	0	24	0	2089811968	65	4330
2026-01-09 07:43:49.11	330.48	9.20	-49.8	-51.3	14.5	0.00e+00	0	24	0	2102394880	65	4375
2026-01-09 07:43:53.10	330.20	8.90	-50.0	-51.5	14.4	0.00e+00	0	24	0	2114977792	65	4492
2026-01-09 07:43:57.09	329.93	8.60	-50.0	-51.5	14.4	0.00e+00	0	24	0	2127560704	65	4492
2026-01-09 07:44:01.05	329.67	8.30	-50.2	-51.8	14.2	0.00e+00	0	24	0	2140143616	65	4623
2026-01-09 07:44:05.04	329.41	8.01	-50.6	-52.3	14.1	0.00e+00	0	24	0	2152726528	66	4625
2026-01-09 07:44:09.03	329.15	7.71	-50.7	-52.3	14.0	0.00e+00	0	24	0	2165309440	66	4632
2026-01-09 07:44:13.01	328.91	7.42	-50.5	-52.1	14.1	0.00e+00	0	24	0	2177892352	66	4537
2026-01-09 07:44:16.99	328.66	7.14	-51.0	-52.7	13.9	0.00e+00	0	24	0	2190475264	67	4580
2026-01-09 07:44:20.96	328.43	6.85	-50.9	-52.6	14.0	0.00e+00	0	24	0	2202009600	67	4528
2026-01-09 07:44:24.93	328.19	6.57	-51.2	-53.0	13.7	0.00e+00	0	24	0	2214592512	67	4727
2026-01-09 07:44:28.92	327.96	6.29	-50.9	-52.7	13.9	0.00e+00	0	24	0	2227175424	67	4572
2026-01-09 07:44:32.89	327.74	6.02	-51.1	-52.9	13.7	0.00e+00	0	24	0	2239758336	67	4683
2026-01-09 07:44:36.87	327.52	5.75	-51.6	-53.5	13.5	0.00e+00	0	24	0	2252341248	68	4752
2026-01-09 07:44:40.84	327.31	5.47	-51.6	-53.5	13.6	0.00e+00	0	24	0	2264924160	68	4746
2026-01-09 07:44:44.83	327.09	5.20	-51.7	-53.7	13.4	0.00e+00	0	24	0	2276458496	68	4869
2026-01-09 07:44:48.83	326.89	4.94	-58.2	-71.9	3.8	1.49e+00	0	24	104	2286944256	81	18633
2026-01-09 07:44:52.85	326.68	4.67	-59.1	-72.9	3.8	1.49e+00	0	24	104	2286944256	83	18677
2026-01-09 07:44:56.86	326.48	4.41	-59.7	-73.5	3.8	1.49e+00	0	24	104	2286944256	84	18795
2026-01-09 07:45:00.87	326.28	4.14	-59.8	-73.6	3.8	1.49e+00	0	24	104	2286944256	84	19104
2026-01-09 07:45:04.90	326.09	3.88	-59.9	-73.7	3.8	1.49e+00	0	24	104	2286944256	84	19350
2026-01-09 07:45:08.92	325.90	3.63	-60.0	-73.8	3.8	1.49e+00	0	24	104	2286944256	85	18405
2026-01-09 07:45:12.90	325.72	3.37	-59.9	-73.7	3.8	1.49e+00	0	24	104	2286944256	85	18184
2026-01-09 07:45:16.89	325.54	3.12	-59.8	-73.7	3.8	1.49e+00	0	24	104	2286944256	85	18153
2026-01-09 07:45:20.87	325.36	2.87	-59.8	-73.6	3.8	1.49e+00	0	24	104	2286944256	85	17999
2026-01-09 07:45:24.87	325.18	2.62	-59.8	-73.6	3.8	1.49e+00	0	24	104	2286944256	85	17959
2026-01-09 07:45:28.84	325.01	2.38	-59.8	-73.6	3.8	1.49e+00	0	24	104	2286944256	85	17927
2026-01-09 07:45:32.82	324.84	2.13	-59.7	-73.5	3.8	1.49e+00	0	24	104	2286944256	85	17865

#Closed at: 2026-01-09 07:45:35
#Recorded file [2286 MB]: D:/lorett/data/31004_260109_103156.dat