passes_logs/2026/01/09/R3.2S_Murmansk/R3.2S_Murmansk__20260109_022358_FENGYUN_3D_rec.log

#Pass ID: 20260109_022358_FENGYUN 3D
#Satellite: FENGYUN 3D
#Configuration: FENGYUN 3D
#almurnet v.1.7.20251203
#Start time: 2026-01-09 02:23:59

#Version: 2.2.20231116
#Station: R3.2S_Murmansk
#Location: 33.079688 lon 68.888172 lat
#TLE: 1 43010U 17072A   26008.59015185 -.00000067  00000+0 -98204-5 0  9997
#TLE: 2 43010  98.9935 340.3069 0002117 119.1923 240.9464 14.19693468422340

#Time	Az	El	Level	Level2	SNR	BER	BlckErr	Temp	State	Recorded	gain1	gain2
2026-01-09 02:23:59.30	23.86	2.07	-57.3	-70.3	3.8	8.45e-01	0	22	0	0	81	15474
2026-01-09 02:24:03.30	23.91	2.33	-57.2	-69.9	3.8	8.46e-01	0	22	104	0	79	16567
2026-01-09 02:24:07.30	23.97	2.59	-57.2	-69.8	3.8	8.45e-01	0	22	104	0	79	16340
2026-01-09 02:24:11.28	24.03	2.85	-57.1	-68.5	3.8	8.45e-01	0	22	104	0	79	14086
2026-01-09 02:24:15.27	24.09	3.11	-57.1	-68.0	3.9	8.46e-01	0	22	104	0	79	13352
2026-01-09 02:24:19.26	24.14	3.37	-56.9	-66.3	4.3	8.33e-01	0	22	0	0	79	11020
2026-01-09 02:24:23.26	24.20	3.64	-55.8	-61.3	7.4	1.13e-01	0	23	0	11534336	78	6520
2026-01-09 02:24:27.26	24.26	3.91	-54.3	-57.9	10.2	3.38e-03	0	23	0	33554432	75	5262
2026-01-09 02:24:31.27	24.33	4.19	-53.3	-56.2	11.6	4.34e-05	0	23	0	56623104	73	4825
2026-01-09 02:24:35.27	24.39	4.46	-53.3	-56.2	11.4	7.66e-05	0	23	0	78643200	72	5112
2026-01-09 02:24:39.26	24.45	4.74	-54.3	-58.0	10.0	1.79e-03	0	23	0	101711872	73	5926
2026-01-09 02:24:43.26	24.52	5.02	-54.9	-59.1	9.0	2.55e-02	0	23	0	123731968	75	6053
2026-01-09 02:24:47.23	24.58	5.31	-50.5	-52.2	13.9	0.00e+00	0	23	0	142606336	67	4315
2026-01-09 02:24:51.21	24.64	5.59	-49.3	-50.8	14.6	0.00e+00	0	23	0	164626432	65	4129
2026-01-09 02:24:55.20	24.71	5.88	-48.7	-50.1	14.7	0.00e+00	0	23	0	187695104	63	4255
2026-01-09 02:24:59.19	24.78	6.18	-48.4	-49.8	14.9	0.00e+00	0	23	0	209715200	63	4119
2026-01-09 02:25:03.19	24.85	6.47	-48.4	-49.7	14.9	0.00e+00	0	23	0	231735296	63	4083
2026-01-09 02:25:07.19	24.92	6.77	-48.2	-49.5	14.9	0.00e+00	0	23	0	254803968	62	4202
2026-01-09 02:25:11.20	24.99	7.08	-48.2	-49.5	14.8	0.00e+00	0	23	0	277872640	62	4235
2026-01-09 02:25:15.19	25.06	7.39	-48.2	-49.6	14.8	0.00e+00	0	23	0	299892736	62	4244
2026-01-09 02:25:19.19	25.13	7.70	-48.1	-49.4	15.0	0.00e+00	0	23	0	321912832	62	4154
2026-01-09 02:25:23.19	25.21	8.02	-47.8	-49.1	15.1	0.00e+00	0	23	0	344981504	62	4009
2026-01-09 02:25:27.18	25.28	8.33	-47.8	-49.0	15.1	0.00e+00	0	23	0	367001600	62	4001
2026-01-09 02:25:31.17	25.36	8.66	-47.8	-49.1	15.2	0.00e+00	0	23	0	390070272	62	4006
2026-01-09 02:25:35.15	25.44	8.98	-47.7	-48.9	15.1	0.00e+00	0	23	0	412090368	61	4183
2026-01-09 02:25:39.16	25.52	9.32	-47.4	-48.7	15.2	0.00e+00	0	23	0	434110464	61	4059
2026-01-09 02:25:43.15	25.60	9.65	-47.5	-48.8	15.1	0.00e+00	0	23	0	457179136	61	4102
2026-01-09 02:25:47.15	25.68	10.00	-47.5	-48.7	15.2	0.00e+00	0	23	0	479199232	61	4071
2026-01-09 02:25:51.12	25.76	10.34	-47.2	-48.4	15.3	0.00e+00	0	23	0	502267904	61	3954
2026-01-09 02:25:55.10	25.85	10.69	-47.2	-48.5	15.3	0.00e+00	0	23	0	524288000	61	3961
2026-01-09 02:25:59.09	25.93	11.04	-47.2	-48.4	15.3	0.00e+00	0	23	0	546308096	61	3953
2026-01-09 02:26:03.08	26.02	11.40	-47.3	-48.5	15.3	0.00e+00	0	23	0	569376768	61	3966
2026-01-09 02:26:07.09	26.11	11.77	-47.3	-48.5	15.3	0.00e+00	0	24	0	591396864	61	3991
2026-01-09 02:26:11.09	26.21	12.14	-47.4	-48.7	15.2	0.00e+00	0	23	0	614465536	61	4069
2026-01-09 02:26:15.08	26.30	12.52	-47.4	-48.7	15.2	0.00e+00	0	24	0	636485632	61	4069
2026-01-09 02:26:19.09	26.40	12.91	-47.4	-48.6	15.3	0.00e+00	0	24	0	659554304	61	4035
2026-01-09 02:26:23.08	26.50	13.30	-47.2	-48.5	15.3	0.00e+00	0	24	0	681574400	61	3963
2026-01-09 02:26:27.08	26.60	13.69	-47.1	-48.3	15.3	0.00e+00	0	24	0	703594496	60	4123
2026-01-09 02:26:31.05	26.70	14.09	-47.0	-48.3	15.3	0.00e+00	0	24	0	726663168	60	4104
2026-01-09 02:26:35.04	26.80	14.50	-46.9	-48.1	15.3	0.00e+00	0	24	0	748683264	60	4040
2026-01-09 02:26:39.03	26.91	14.92	-46.9	-48.1	15.3	0.00e+00	0	24	0	771751936	59	4249
2026-01-09 02:26:43.03	27.02	15.34	-46.6	-47.8	15.4	0.00e+00	0	24	0	793772032	59	4125
2026-01-09 02:26:47.01	27.13	15.77	-46.5	-47.7	15.4	0.00e+00	0	24	0	815792128	59	4069
2026-01-09 02:26:50.98	27.25	16.21	-46.3	-47.4	15.5	0.00e+00	0	24	0	838860800	59	3931
2026-01-09 02:26:54.97	27.37	16.65	-46.3	-47.5	15.5	0.00e+00	0	24	0	860880896	59	3963
2026-01-09 02:26:58.98	27.49	17.11	-46.1	-47.3	15.4	0.00e+00	0	24	0	883949568	58	4104
2026-01-09 02:27:02.96	27.61	17.57	-46.1	-47.2	15.5	0.00e+00	0	24	0	905969664	58	4079
2026-01-09 02:27:06.96	27.74	18.04	-46.1	-47.3	15.4	0.00e+00	0	24	0	927989760	58	4100
2026-01-09 02:27:10.94	27.87	18.52	-45.9	-47.0	15.6	0.00e+00	0	24	0	951058432	58	3981
2026-01-09 02:27:14.93	28.01	19.01	-45.8	-46.9	15.6	0.00e+00	0	24	0	973078528	58	3946
2026-01-09 02:27:18.92	28.15	19.51	-45.8	-46.9	15.6	0.00e+00	0	24	0	996147200	58	3943
2026-01-09 02:27:22.93	28.29	20.02	-45.6	-46.7	15.5	0.00e+00	0	24	0	1018167296	57	4076
2026-01-09 02:27:26.93	28.44	20.54	-45.2	-46.3	15.7	0.00e+00	0	24	0	1040187392	57	3880
2026-01-09 02:27:30.93	28.59	21.08	-45.0	-46.0	15.6	0.00e+00	0	24	0	1063256064	56	3996
2026-01-09 02:27:34.92	28.75	21.62	-44.9	-46.0	15.6	0.00e+00	0	24	0	1085276160	56	3976
2026-01-09 02:27:38.91	28.91	22.17	-45.1	-46.1	15.5	0.00e+00	0	24	0	1108344832	56	4048
2026-01-09 02:27:42.91	29.08	22.74	-45.2	-46.3	15.5	0.00e+00	0	24	0	1130364928	56	4100
2026-01-09 02:27:46.90	29.25	23.32	-45.3	-46.4	15.5	0.00e+00	0	24	0	1153433600	56	4152
2026-01-09 02:27:50.91	29.43	23.92	-44.8	-45.9	15.6	0.00e+00	0	24	0	1175453696	56	3937
2026-01-09 02:27:54.89	29.62	24.52	-44.5	-45.6	15.6	0.00e+00	0	24	0	1197473792	55	4010
2026-01-09 02:27:58.89	29.81	25.14	-44.4	-45.5	15.7	0.00e+00	0	24	0	1220542464	55	3961
2026-01-09 02:28:02.89	30.01	25.78	-44.3	-45.3	15.7	0.00e+00	0	24	0	1242562560	55	3912
2026-01-09 02:28:06.89	30.21	26.43	-44.4	-45.5	15.7	0.00e+00	0	24	0	1265631232	55	3964
2026-01-09 02:28:10.88	30.43	27.10	-44.5	-45.6	15.6	0.00e+00	0	24	0	1287651328	55	4008
2026-01-09 02:28:14.87	30.65	27.78	-44.6	-45.7	15.6	0.00e+00	0	24	0	1310720000	55	4058
2026-01-09 02:28:18.87	30.88	28.48	-44.6	-45.6	15.6	0.00e+00	0	24	0	1332740096	55	4040
2026-01-09 02:28:22.85	31.13	29.20	-44.4	-45.4	15.7	0.00e+00	0	24	0	1355808768	55	3948
2026-01-09 02:28:26.84	31.38	29.93	-44.7	-45.8	15.5	0.00e+00	0	24	0	1377828864	55	4127
2026-01-09 02:28:30.83	31.64	30.69	-44.5	-45.6	15.6	0.00e+00	0	24	0	1399848960	55	4032
2026-01-09 02:28:34.81	31.92	31.46	-44.0	-45.0	15.7	0.00e+00	0	24	0	1422917632	54	3991
2026-01-09 02:28:38.81	32.20	32.25	-44.1	-45.2	15.6	0.00e+00	0	24	0	1444937728	54	4067
2026-01-09 02:28:42.79	32.50	33.07	-44.5	-45.6	15.5	0.00e+00	0	24	0	1466957824	54	4259
2026-01-09 02:28:46.76	32.82	33.90	-44.4	-45.4	15.6	0.00e+00	0	24	0	1490026496	54	4180
2026-01-09 02:28:50.75	33.15	34.76	-44.4	-45.4	15.6	0.00e+00	0	24	0	1512046592	54	4193
2026-01-09 02:28:54.75	33.50	35.64	-44.1	-45.2	15.6	0.00e+00	0	24	0	1535115264	54	4069
2026-01-09 02:28:58.74	33.87	36.55	-44.0	-45.0	15.7	0.00e+00	0	24	0	1557135360	54	4001
2026-01-09 02:29:02.72	34.26	37.48	-43.4	-44.4	15.7	0.00e+00	0	24	0	1579155456	53	3944
2026-01-09 02:29:06.72	34.67	38.43	-43.6	-44.6	15.7	0.00e+00	0	24	0	1602224128	53	4035
2026-01-09 02:29:10.71	35.10	39.42	-44.0	-45.0	15.6	0.00e+00	0	24	0	1624244224	53	4224
2026-01-09 02:29:14.71	35.57	40.43	-44.2	-45.2	15.5	0.00e+00	0	24	0	1647312896	53	4322
2026-01-09 02:29:18.70	36.06	41.47	-43.9	-44.9	15.6	0.00e+00	0	24	0	1669332992	53	4189
2026-01-09 02:29:22.68	36.58	42.53	-44.4	-45.5	15.6	0.00e+00	0	24	0	1691353088	54	4204
2026-01-09 02:29:26.68	37.14	43.63	-44.5	-45.6	15.5	0.00e+00	0	24	0	1714421760	54	4269
2026-01-09 02:29:30.68	37.73	44.75	-44.5	-45.6	15.5	0.00e+00	0	24	0	1736441856	54	4245
2026-01-09 02:29:34.68	38.38	45.91	-44.5	-45.6	15.5	0.00e+00	0	24	0	1759510528	54	4258
2026-01-09 02:29:38.67	39.06	47.09	-44.4	-45.5	15.6	0.00e+00	0	24	0	1781530624	54	4206
2026-01-09 02:29:42.66	39.80	48.30	-44.8	-45.8	15.5	0.00e+00	0	24	0	1804599296	54	4373
2026-01-09 02:29:46.66	40.61	49.54	-45.0	-46.1	15.5	0.00e+00	0	24	0	1826619392	55	4277
2026-01-09 02:29:50.64	41.47	50.81	-44.9	-45.9	15.5	0.00e+00	0	24	0	1848639488	55	4193
2026-01-09 02:29:54.61	42.41	52.10	-45.2	-46.3	15.5	0.00e+00	0	24	0	1871708160	55	4357
2026-01-09 02:29:58.61	43.44	53.43	-45.8	-46.9	15.4	0.00e+00	0	24	0	1893728256	56	4408
2026-01-09 02:30:02.60	44.57	54.78	-45.3	-46.4	15.5	0.00e+00	0	24	0	1916796928	56	4153
2026-01-09 02:30:06.60	45.81	56.16	-46.1	-47.2	15.4	0.00e+00	0	24	0	1938817024	57	4340
2026-01-09 02:30:10.59	47.18	57.56	-45.5	-46.6	15.6	0.00e+00	0	24	0	1961885696	57	4041
2026-01-09 02:30:14.59	48.69	58.97	-45.3	-46.4	15.7	0.00e+00	0	24	0	1983905792	57	3924
2026-01-09 02:30:18.60	50.39	60.41	-44.4	-45.5	15.6	0.00e+00	0	24	0	2006974464	54	4200
2026-01-09 02:30:22.60	52.28	61.85	-44.3	-45.3	15.6	0.00e+00	0	24	0	2028994560	54	4131
2026-01-09 02:30:26.59	54.40	63.28	-44.1	-45.2	15.6	0.00e+00	0	24	0	2051014656	54	4071
2026-01-09 02:30:30.61	56.81	64.72	-43.8	-44.8	15.7	0.00e+00	0	24	0	2074083328	54	3887
2026-01-09 02:30:34.61	59.52	66.14	-44.1	-45.2	15.6	0.00e+00	0	24	0	2096103424	54	4058
2026-01-09 02:30:38.60	62.60	67.52	-43.3	-44.3	15.7	0.00e+00	0	24	0	2119172096	53	3907
2026-01-09 02:30:42.59	66.12	68.86	-43.5	-44.5	15.7	0.00e+00	0	24	0	2141192192	53	3970
2026-01-09 02:30:46.59	70.14	70.14	-43.6	-44.6	15.7	0.00e+00	0	24	0	2164260864	53	4023
2026-01-09 02:30:50.58	74.73	71.32	-43.0	-44.0	15.7	0.00e+00	0	24	0	2186280960	52	3990
2026-01-09 02:30:54.58	79.95	72.39	-43.0	-44.0	15.7	0.00e+00	0	24	0	2208301056	52	3965
2026-01-09 02:30:58.57	85.81	73.32	-43.0	-44.0	15.7	0.00e+00	0	24	0	2231369728	52	4000
2026-01-09 02:31:02.57	92.34	74.06	-42.8	-43.7	15.8	0.00e+00	0	24	0	2253389824	52	3863
2026-01-09 02:31:06.58	99.46	74.60	-42.7	-43.7	15.8	0.00e+00	0	24	0	2276458496	52	3857
2026-01-09 02:31:10.58	106.97	74.89	-43.1	-44.1	15.7	0.00e+00	0	24	0	2298478592	52	4016
2026-01-09 02:31:14.57	114.63	74.93	-43.1	-44.1	15.7	0.00e+00	0	24	0	2321547264	52	4044
2026-01-09 02:31:18.58	122.24	74.71	-42.7	-43.7	15.7	0.00e+00	0	24	0	2343567360	51	4064
2026-01-09 02:31:22.58	129.48	74.25	-43.3	-44.4	15.6	0.00e+00	0	24	0	2366636032	51	4399
2026-01-09 02:31:26.58	136.20	73.56	-43.2	-44.2	15.7	0.00e+00	0	24	0	2388656128	52	4082
2026-01-09 02:31:30.58	142.28	72.68	-43.5	-44.5	15.6	0.00e+00	0	24	0	2411724800	52	4241
2026-01-09 02:31:34.58	147.70	71.65	-43.8	-44.9	15.6	0.00e+00	0	24	0	2433744896	52	4392
2026-01-09 02:31:38.57	152.46	70.49	-43.9	-44.9	15.6	0.00e+00	0	24	0	2455764992	53	4170
2026-01-09 02:31:42.55	156.63	69.25	-43.9	-44.9	15.6	0.00e+00	0	24	0	2478833664	53	4189
2026-01-09 02:31:46.56	160.31	67.92	-44.0	-45.0	15.6	0.00e+00	0	24	0	2500853760	53	4230
2026-01-09 02:31:50.56	163.53	66.54	-43.7	-44.7	15.6	0.00e+00	0	24	0	2523922432	53	4084
2026-01-09 02:31:54.55	166.34	65.13	-44.0	-45.1	15.6	0.00e+00	0	24	0	2545942528	53	4244
2026-01-09 02:31:58.54	168.82	63.70	-43.9	-44.9	15.6	0.00e+00	0	24	0	2567962624	53	4178
2026-01-09 02:32:02.53	171.02	62.26	-44.3	-45.4	15.5	0.00e+00	0	24	0	2591031296	53	4398
2026-01-09 02:32:06.52	172.97	60.82	-44.8	-45.9	15.5	0.00e+00	0	24	0	2613051392	54	4401
2026-01-09 02:32:10.52	174.72	59.39	-44.9	-46.0	15.5	0.00e+00	0	24	0	2636120064	55	4219
2026-01-09 02:32:14.51	176.29	57.97	-45.2	-46.3	15.4	0.00e+00	0	24	0	2658140160	55	4348
2026-01-09 02:32:18.51	177.70	56.56	-45.9	-47.0	15.4	0.00e+00	0	24	0	2681208832	56	4472
2026-01-09 02:32:22.51	178.98	55.17	-45.4	-46.5	15.5	0.00e+00	0	24	0	2703228928	56	4221
2026-01-09 02:32:26.50	180.14	53.80	-45.3	-46.3	15.5	0.00e+00	0	24	0	2726297600	56	4136
2026-01-09 02:32:30.51	181.21	52.46	-45.5	-46.6	15.5	0.00e+00	0	24	0	2748317696	56	4248
2026-01-09 02:32:34.49	182.17	51.15	-46.0	-47.1	15.4	0.00e+00	0	24	0	2770337792	57	4283
2026-01-09 02:32:38.50	183.07	49.87	-44.8	-45.8	15.7	0.00e+00	0	24	0	2793406464	56	3907
2026-01-09 02:32:42.51	183.89	48.61	-45.0	-46.1	15.6	0.00e+00	0	24	0	2816475136	56	4011
2026-01-09 02:32:46.51	184.65	47.38	-44.5	-45.5	15.6	0.00e+00	0	24	0	2838495232	55	3971
2026-01-09 02:32:50.51	185.35	46.18	-44.6	-45.6	15.6	0.00e+00	0	24	0	2860515328	55	4039
2026-01-09 02:32:54.51	186.00	45.01	-44.4	-45.5	15.7	0.00e+00	0	24	0	2883584000	55	3961
2026-01-09 02:32:58.50	186.61	43.88	-44.2	-45.2	15.7	0.00e+00	0	24	0	2905604096	55	3856
2026-01-09 02:33:02.49	187.18	42.77	-44.5	-45.6	15.6	0.00e+00	0	24	0	2928672768	55	4008
2026-01-09 02:33:06.48	187.71	41.70	-44.4	-45.5	15.6	0.00e+00	0	24	0	2950692864	55	3973
2026-01-09 02:33:10.48	188.21	40.65	-43.9	-44.9	15.7	0.00e+00	0	24	0	2972712960	54	3958
2026-01-09 02:33:14.48	188.68	39.62	-43.6	-44.6	15.6	0.00e+00	0	24	0	2995781632	53	4034
2026-01-09 02:33:18.47	189.12	38.63	-43.8	-44.8	15.6	0.00e+00	0	24	0	3017801728	53	4139
2026-01-09 02:33:22.45	189.54	37.67	-44.0	-45.0	15.6	0.00e+00	0	24	0	3040870400	53	4223
2026-01-09 02:33:26.44	189.93	36.73	-43.9	-44.9	15.6	0.00e+00	0	24	0	3062890496	53	4166
2026-01-09 02:33:30.43	190.31	35.81	-44.2	-45.2	15.5	0.00e+00	0	24	0	3084910592	53	4327
2026-01-09 02:33:34.41	190.66	34.92	-44.2	-45.3	15.5	0.00e+00	0	24	0	3107979264	53	4358
2026-01-09 02:33:38.40	190.99	34.05	-44.0	-45.1	15.6	0.00e+00	0	24	0	3129999360	53	4244
2026-01-09 02:33:42.40	191.32	33.20	-44.1	-45.1	15.6	0.00e+00	0	24	0	3153068032	53	4267
2026-01-09 02:33:46.40	191.62	32.38	-43.9	-45.0	15.6	0.00e+00	0	24	0	3175088128	53	4205
2026-01-09 02:33:50.40	191.91	31.57	-44.1	-45.1	15.5	0.00e+00	0	24	0	3198156800	53	4286
2026-01-09 02:33:54.39	192.19	30.79	-44.2	-45.3	15.5	0.00e+00	0	24	0	3220176896	53	4344
2026-01-09 02:33:58.37	192.45	30.03	-44.3	-45.4	15.5	0.00e+00	0	24	0	3242196992	53	4420
2026-01-09 02:34:02.37	192.71	29.29	-44.4	-45.4	15.5	0.00e+00	0	24	0	3265265664	54	4192
2026-01-09 02:34:06.37	192.95	28.56	-44.4	-45.5	15.5	0.00e+00	0	24	0	3287285760	54	4216
2026-01-09 02:34:10.37	193.19	27.86	-44.4	-45.5	15.5	0.00e+00	0	24	0	3310354432	54	4200
2026-01-09 02:34:14.38	193.41	27.16	-44.4	-45.5	15.5	0.00e+00	0	24	0	3332374528	54	4216
2026-01-09 02:34:18.38	193.63	26.49	-44.3	-45.3	15.6	0.00e+00	0	24	0	3355443200	54	4141
2026-01-09 02:34:22.39	193.84	25.83	-44.3	-45.3	15.6	0.00e+00	0	24	0	3377463296	54	4119
2026-01-09 02:34:26.38	194.03	25.19	-44.3	-45.3	15.5	0.00e+00	0	24	0	3400531968	54	4134
2026-01-09 02:34:30.37	194.23	24.56	-44.4	-45.5	15.5	0.00e+00	0	24	0	3422552064	54	4212
2026-01-09 02:34:34.38	194.41	23.95	-44.7	-45.7	15.5	0.00e+00	0	24	0	3445620736	54	4335
2026-01-09 02:34:38.36	194.59	23.35	-44.9	-46.0	15.4	0.00e+00	0	24	0	3467640832	54	4474
2026-01-09 02:34:42.37	194.77	22.77	-45.1	-46.2	15.4	0.00e+00	0	24	0	3489660928	55	4315
2026-01-09 02:34:46.37	194.93	22.19	-45.2	-46.3	15.4	0.00e+00	0	24	0	3512729600	55	4355
2026-01-09 02:34:50.37	195.09	21.63	-45.2	-46.3	15.4	0.00e+00	0	24	0	3534749696	55	4366
2026-01-09 02:34:54.36	195.25	21.09	-45.3	-46.4	15.4	0.00e+00	0	24	0	3557818368	55	4401
2026-01-09 02:34:58.35	195.40	20.55	-45.6	-46.7	15.4	0.00e+00	0	24	0	3579838464	56	4301
2026-01-09 02:35:02.33	195.55	20.03	-45.5	-46.6	15.4	0.00e+00	0	24	0	3601858560	56	4274
2026-01-09 02:35:06.33	195.69	19.51	-45.6	-46.6	15.4	0.00e+00	0	24	0	3624927232	56	4287
2026-01-09 02:35:10.32	195.83	19.01	-45.6	-46.7	15.4	0.00e+00	0	24	0	3646947328	56	4337
2026-01-09 02:35:14.29	195.97	18.52	-45.7	-46.8	15.3	0.00e+00	0	24	0	3670016000	56	4385
2026-01-09 02:35:18.29	196.10	18.03	-46.0	-47.2	15.3	0.00e+00	0	24	0	3692036096	57	4297
2026-01-09 02:35:22.30	196.22	17.56	-46.2	-47.3	15.3	0.00e+00	0	24	0	3715104768	57	4364
2026-01-09 02:35:26.29	196.35	17.09	-46.3	-47.5	15.3	0.00e+00	0	24	0	3737124864	57	4450
2026-01-09 02:35:30.27	196.47	16.63	-46.5	-47.7	15.3	0.00e+00	0	24	0	3759144960	58	4301
2026-01-09 02:35:34.26	196.59	16.18	-46.8	-48.0	15.2	0.00e+00	0	24	0	3782213632	58	4476
2026-01-09 02:35:38.25	196.70	15.74	-46.7	-47.9	15.2	0.00e+00	0	24	0	3804233728	58	4422
2026-01-09 02:35:42.25	196.81	15.31	-46.9	-48.1	15.2	0.00e+00	0	24	0	3827302400	59	4285
2026-01-09 02:35:46.24	196.92	14.88	-47.1	-48.3	15.1	0.00e+00	0	24	0	3849322496	59	4379
2026-01-09 02:35:50.23	197.03	14.46	-47.1	-48.3	15.1	0.00e+00	0	24	0	3871342592	59	4376
2026-01-09 02:35:54.24	197.13	14.05	-47.2	-48.5	15.1	0.00e+00	0	24	0	3894411264	59	4452
2026-01-09 02:35:58.23	197.23	13.65	-47.3	-48.5	15.0	0.00e+00	0	24	0	3916431360	59	4488
2026-01-09 02:36:02.23	197.33	13.25	-47.1	-48.3	15.2	0.00e+00	0	24	0	3939500032	60	4143
2026-01-09 02:36:06.22	197.43	12.86	-47.1	-48.2	15.2	0.00e+00	0	24	0	3961520128	60	4097
2026-01-09 02:36:10.22	197.52	12.47	-47.1	-48.3	15.2	0.00e+00	0	24	0	3984588800	60	4122
2026-01-09 02:36:14.21	197.61	12.09	-47.3	-48.5	15.1	0.00e+00	0	24	0	4006608896	60	4210
2026-01-09 02:36:18.20	197.70	11.72	-47.3	-48.6	15.1	0.00e+00	0	24	0	4029677568	60	4246
2026-01-09 02:36:22.21	197.79	11.35	-47.4	-48.7	15.0	0.00e+00	0	24	0	4051697664	60	4296
2026-01-09 02:36:26.21	197.88	10.98	-47.4	-48.7	15.0	0.00e+00	0	24	0	4073717760	60	4319
2026-01-09 02:36:30.19	197.96	10.63	-47.5	-48.7	15.0	0.00e+00	0	24	0	4096786432	60	4332
2026-01-09 02:36:34.20	198.05	10.27	-47.6	-48.8	14.9	0.00e+00	0	24	0	4118806528	60	4386
2026-01-09 02:36:38.18	198.13	9.93	-47.6	-48.9	14.9	0.00e+00	0	24	0	4141875200	60	4424
2026-01-09 02:36:42.17	198.21	9.58	-47.7	-49.0	14.9	0.00e+00	0	24	0	4163895296	60	4475
2026-01-09 02:36:46.17	198.29	9.24	-48.0	-49.3	14.9	0.00e+00	0	24	0	4186963968	61	4359
2026-01-09 02:36:50.17	198.37	8.91	-47.9	-49.2	14.9	0.00e+00	0	24	0	4208984064	61	4297
2026-01-09 02:36:54.17	198.44	8.58	-48.0	-49.4	14.8	0.00e+00	0	24	0	4231004160	61	4394
2026-01-09 02:36:58.16	198.52	8.26	-48.1	-49.5	14.7	0.00e+00	0	24	0	4254072832	61	4463
2026-01-09 02:37:02.14	198.59	7.94	-48.3	-49.7	14.7	0.00e+00	0	24	0	4276092928	61	4553
2026-01-09 02:37:06.12	198.66	7.62	-48.2	-49.5	14.7	0.00e+00	0	24	0	4299161600	61	4493
2026-01-09 02:37:10.13	198.73	7.30	-48.3	-49.7	14.6	0.00e+00	0	24	0	4321181696	61	4550
2026-01-09 02:37:14.12	198.80	7.00	-48.3	-49.6	14.7	0.00e+00	0	24	0	4343201792	61	4530
2026-01-09 02:37:18.12	198.87	6.69	-48.6	-50.0	14.6	0.00e+00	0	24	0	4366270464	62	4443
2026-01-09 02:37:22.12	198.93	6.39	-48.4	-49.8	14.7	0.00e+00	0	24	0	4388290560	62	4373
2026-01-09 02:37:26.11	199.00	6.09	-48.8	-50.2	14.4	0.00e+00	0	24	0	4411359232	62	4586
2026-01-09 02:37:30.12	199.07	5.79	-48.7	-50.1	14.5	0.00e+00	0	24	0	4433379328	62	4512
2026-01-09 02:37:34.11	199.13	5.50	-48.7	-50.1	14.5	0.00e+00	0	24	0	4456448000	62	4524
2026-01-09 02:37:38.11	199.19	5.21	-49.0	-50.5	14.4	0.00e+00	0	24	0	4478468096	63	4479
2026-01-09 02:37:42.09	199.25	4.93	-57.9	-70.3	3.8	4.31e-01	0	24	104	4498391040	80	16354
2026-01-09 02:37:46.09	199.31	4.64	-58.8	-71.9	3.8	8.46e-01	0	24	104	4498391040	82	17510
2026-01-09 02:37:50.10	199.38	4.36	-59.2	-72.2	3.8	8.45e-01	0	24	104	4498391040	83	17258
2026-01-09 02:37:54.10	199.43	4.09	-59.3	-72.4	3.8	8.45e-01	0	24	104	4498391040	83	17599
2026-01-09 02:37:58.09	199.49	3.81	-59.6	-72.7	3.8	8.45e-01	0	24	104	4498391040	84	17129
2026-01-09 02:38:02.08	199.55	3.54	-59.7	-72.8	3.8	8.46e-01	0	24	104	4498391040	84	17342
2026-01-09 02:38:06.08	199.61	3.27	-59.7	-72.8	3.8	8.46e-01	0	24	104	4498391040	84	17360
2026-01-09 02:38:10.07	199.66	3.01	-59.7	-72.8	3.8	8.46e-01	0	24	104	4498391040	84	17284
2026-01-09 02:38:14.08	199.72	2.74	-59.7	-72.7	3.8	8.46e-01	0	24	104	4498391040	84	17227
2026-01-09 02:38:18.07	199.77	2.48	-59.6	-72.7	3.8	8.45e-01	0	24	104	4498391040	84	17184
2026-01-09 02:38:22.06	199.83	2.22	-59.6	-72.7	3.8	8.45e-01	0	24	104	4498391040	84	17196

#Closed at: 2026-01-09 02:38:25
#Recorded file [4498 MB]: D:/lorett/data/31004_260109_052359.dat