passes_logs/2026/01/09/R3.2S_Murmansk/R3.2S_Murmansk__20260109_062223_SUOMI_NPP_rec.log

#Pass ID: 20260109_062223_SUOMI NPP
#Satellite: SUOMI NPP
#Configuration: NPP
#almurnet v.1.7.20251203
#Start time: 2026-01-09 06:22:23

#Version: 2.2.20231116
#Station: R3.2S_Murmansk
#Location: 33.079688 lon 68.888172 lat
#TLE: 1 37849U 11061A   26008.05542337  .00000108  00000+0  71976-4 0  9997
#TLE: 2 37849  98.7805 310.1641 0002540  75.6410 284.5048 14.19523335735721

#Time	Az	El	Level	Level2	SNR	BER	BlckErr	Temp	State	Recorded	gain1	gain2
2026-01-09 06:22:23.78	81.28	2.04	-57.2	-73.2	3.8	1.49e+00	0	21	0	0	80	22922
2026-01-09 06:22:27.77	81.05	2.27	-57.2	-73.2	3.8	1.49e+00	0	22	104	0	79	24262
2026-01-09 06:22:31.77	80.80	2.50	-57.2	-73.2	3.8	1.49e+00	0	22	104	0	79	24210
2026-01-09 06:22:35.73	80.56	2.74	-57.2	-73.2	3.8	1.49e+00	0	22	104	0	79	24200
2026-01-09 06:22:39.72	80.31	2.97	-57.2	-73.2	3.8	1.49e+00	0	22	104	0	79	24368
2026-01-09 06:22:43.71	80.06	3.21	-57.2	-73.2	3.8	1.49e+00	0	22	104	0	79	24269
2026-01-09 06:22:47.70	79.80	3.45	-57.2	-73.2	3.8	1.49e+00	0	22	104	0	79	24298
2026-01-09 06:22:51.69	79.54	3.69	-57.2	-73.2	3.8	1.49e+00	0	22	104	0	79	24292
2026-01-09 06:22:55.68	79.28	3.93	-57.2	-73.1	3.8	1.49e+00	0	23	104	0	79	23864
2026-01-09 06:22:59.68	79.00	4.18	-57.2	-73.2	3.8	1.49e+00	0	22	104	0	79	24258
2026-01-09 06:23:03.67	78.73	4.42	-57.2	-71.8	3.8	1.49e+00	0	23	104	0	79	20586
2026-01-09 06:23:07.68	78.45	4.67	-57.0	-68.6	4.5	1.14e+00	0	23	0	1048576	79	14299
2026-01-09 06:23:11.68	78.16	4.92	-56.8	-66.5	5.6	4.28e-01	0	23	0	8388608	79	11252
2026-01-09 06:23:15.67	77.87	5.17	-57.0	-68.7	4.7	4.64e-02	0	23	0	15728640	79	14409
2026-01-09 06:23:19.67	77.57	5.42	-55.4	-60.6	10.6	5.29e-04	0	23	0	20971520	77	6418
2026-01-09 06:23:23.66	77.27	5.68	-53.9	-57.4	12.8	7.00e-07	0	23	0	28311552	74	5254
2026-01-09 06:23:27.65	76.97	5.93	-53.5	-56.8	13.2	0.00e+00	0	23	0	35651584	73	5207
2026-01-09 06:23:31.63	76.65	6.19	-53.3	-56.4	13.5	0.00e+00	0	23	0	42991616	73	4973
2026-01-09 06:23:35.60	76.34	6.45	-53.4	-56.7	13.3	0.00e+00	0	23	0	50331648	73	5135
2026-01-09 06:23:39.59	76.01	6.71	-53.3	-56.5	13.4	0.00e+00	0	23	0	57671680	73	5038
2026-01-09 06:23:43.55	75.69	6.97	-53.4	-56.5	13.4	0.00e+00	0	23	0	65011712	73	5018
2026-01-09 06:23:47.55	75.35	7.23	-53.2	-56.2	13.6	0.00e+00	0	23	0	72351744	72	5127
2026-01-09 06:23:51.54	75.00	7.50	-53.4	-56.5	13.3	0.00e+00	0	23	0	80740352	72	5321
2026-01-09 06:23:55.53	74.66	7.77	-53.2	-56.1	13.6	0.00e+00	0	23	0	88080384	72	5094
2026-01-09 06:23:59.52	74.30	8.04	-53.2	-56.2	13.6	0.00e+00	0	23	0	95420416	72	5123
2026-01-09 06:24:03.52	73.93	8.31	-53.6	-56.9	13.1	0.00e+00	0	23	0	102760448	72	5559
2026-01-09 06:24:07.51	73.56	8.58	-53.3	-56.5	13.4	0.00e+00	0	23	0	110100480	72	5293
2026-01-09 06:24:11.51	73.19	8.86	-53.5	-56.7	13.3	0.00e+00	0	23	0	117440512	72	5455
2026-01-09 06:24:15.50	72.80	9.13	-53.3	-56.6	13.4	0.00e+00	0	23	0	124780544	72	5351
2026-01-09 06:24:19.50	72.41	9.41	-52.9	-55.9	13.8	0.00e+00	0	23	0	133169152	72	4937
2026-01-09 06:24:23.48	72.01	9.69	-52.9	-55.8	13.9	0.00e+00	0	23	0	140509184	72	4902
2026-01-09 06:24:27.48	71.60	9.97	-53.0	-56.0	13.8	0.00e+00	0	23	0	147849216	72	4986
2026-01-09 06:24:31.46	71.18	10.26	-52.9	-55.8	13.9	0.00e+00	0	23	0	155189248	72	4877
2026-01-09 06:24:35.46	70.76	10.54	-53.0	-55.8	13.8	0.00e+00	0	23	0	162529280	72	4908
2026-01-09 06:24:39.44	70.32	10.83	-52.8	-55.6	14.0	0.00e+00	0	23	0	169869312	72	4800
2026-01-09 06:24:43.41	69.88	11.12	-52.9	-55.7	14.0	0.00e+00	0	23	0	177209344	72	4822
2026-01-09 06:24:47.40	69.43	11.41	-53.1	-55.9	13.8	0.00e+00	0	23	0	184549376	72	4981
2026-01-09 06:24:51.40	68.97	11.70	-53.0	-55.8	13.9	0.00e+00	0	23	0	192937984	72	4915
2026-01-09 06:24:55.38	68.50	11.99	-53.1	-56.0	13.8	0.00e+00	0	23	0	200278016	72	5009
2026-01-09 06:24:59.36	68.02	12.29	-53.1	-55.9	13.8	0.00e+00	0	23	0	207618048	72	4974
2026-01-09 06:25:03.36	67.53	12.59	-53.0	-55.7	14.0	0.00e+00	0	23	0	214958080	72	4865
2026-01-09 06:25:07.34	67.03	12.88	-52.6	-55.2	14.2	0.00e+00	0	23	0	222298112	71	4825
2026-01-09 06:25:11.33	66.52	13.18	-52.2	-54.6	14.5	0.00e+00	0	24	0	229638144	71	4517
2026-01-09 06:25:15.35	65.99	13.49	-51.9	-54.2	14.6	0.00e+00	0	23	0	236978176	70	4576
2026-01-09 06:25:19.34	65.46	13.79	-52.0	-54.4	14.5	0.00e+00	0	23	0	245366784	70	4687
2026-01-09 06:25:23.32	64.92	14.09	-52.2	-54.7	14.3	0.00e+00	0	23	0	252706816	70	4842
2026-01-09 06:25:27.29	64.37	14.40	-51.9	-54.1	14.7	0.00e+00	0	24	0	260046848	70	4538
2026-01-09 06:25:31.27	63.80	14.70	-52.0	-54.4	14.5	0.00e+00	0	24	0	267386880	70	4660
2026-01-09 06:25:35.25	63.22	15.01	-52.0	-54.3	14.6	0.00e+00	0	24	0	274726912	70	4615
2026-01-09 06:25:39.23	62.63	15.32	-51.7	-54.2	14.5	0.00e+00	0	23	0	282066944	69	4852
2026-01-09 06:25:43.22	62.03	15.62	-51.9	-54.5	14.3	0.00e+00	0	23	0	289406976	69	5003
2026-01-09 06:25:47.21	61.41	15.93	-52.2	-54.9	14.1	0.00e+00	0	24	0	296747008	69	5243
2026-01-09 06:25:51.20	60.78	16.24	-52.5	-55.2	14.1	0.00e+00	0	23	0	305135616	70	5146
2026-01-09 06:25:55.18	60.14	16.55	-52.6	-55.4	13.9	0.00e+00	0	24	0	312475648	70	5242
2026-01-09 06:25:59.19	59.48	16.86	-52.6	-55.2	14.1	0.00e+00	0	24	0	319815680	70	5132
2026-01-09 06:26:03.45	58.76	17.19	-52.5	-55.2	14.1	0.00e+00	0	24	0	327155712	70	5105
2026-01-09 06:26:07.43	58.08	17.50	-52.4	-55.0	14.2	0.00e+00	0	24	0	334495744	70	5014
2026-01-09 06:26:11.43	57.38	17.81	-52.2	-54.7	14.3	0.00e+00	0	23	0	341835776	70	4844
2026-01-09 06:26:15.42	56.66	18.12	-52.3	-54.9	14.3	0.00e+00	0	24	0	349175808	70	4937
2026-01-09 06:26:19.41	55.93	18.43	-52.4	-55.1	14.1	0.00e+00	0	24	0	357564416	70	5067
2026-01-09 06:26:23.39	55.19	18.73	-52.2	-54.7	14.4	0.00e+00	0	24	0	364904448	70	4858
2026-01-09 06:26:27.39	54.43	19.04	-52.3	-54.7	14.3	0.00e+00	0	24	0	372244480	70	4869
2026-01-09 06:26:31.35	53.66	19.34	-52.5	-55.0	14.2	0.00e+00	0	24	0	379584512	70	5035
2026-01-09 06:26:35.32	52.87	19.64	-52.1	-54.5	14.5	0.00e+00	0	24	0	386924544	70	4729
2026-01-09 06:26:39.28	52.07	19.94	-51.9	-54.2	14.7	0.00e+00	0	24	0	394264576	70	4575
2026-01-09 06:26:43.25	51.25	20.23	-51.5	-53.7	14.7	0.00e+00	0	24	0	401604608	69	4561
2026-01-09 06:26:47.23	50.42	20.53	-51.4	-53.7	14.7	0.00e+00	0	24	0	408944640	69	4553
2026-01-09 06:26:51.23	49.56	20.82	-50.8	-52.8	15.0	0.00e+00	0	24	0	417333248	68	4368
2026-01-09 06:26:55.23	48.68	21.11	-50.4	-52.3	15.0	0.00e+00	0	24	0	424673280	67	4384
2026-01-09 06:26:59.22	47.80	21.39	-50.8	-52.9	14.8	0.00e+00	0	24	0	432013312	67	4674
2026-01-09 06:27:03.21	46.89	21.67	-50.7	-52.6	14.9	0.00e+00	0	24	0	439353344	67	4539
2026-01-09 06:27:07.20	45.97	21.94	-50.4	-52.4	15.0	0.00e+00	0	24	0	446693376	67	4403
2026-01-09 06:27:11.19	45.03	22.21	-50.2	-52.1	15.0	0.00e+00	0	24	0	454033408	66	4504
2026-01-09 06:27:15.17	44.08	22.47	-50.0	-51.8	15.2	0.00e+00	0	24	0	461373440	66	4372
2026-01-09 06:27:19.16	43.11	22.73	-50.2	-51.9	15.1	0.00e+00	0	24	0	468713472	66	4437
2026-01-09 06:27:23.16	42.12	22.98	-50.5	-52.3	14.9	0.00e+00	0	24	0	477102080	66	4638
2026-01-09 06:27:27.15	41.12	23.22	-50.5	-52.3	14.9	0.00e+00	0	24	0	484442112	66	4635
2026-01-09 06:27:31.14	40.10	23.46	-50.2	-52.0	15.1	0.00e+00	0	24	0	491782144	66	4486
2026-01-09 06:27:35.11	39.08	23.69	-50.5	-52.3	15.0	0.00e+00	0	24	0	499122176	66	4619
2026-01-09 06:27:39.09	38.03	23.91	-50.1	-51.8	15.2	0.00e+00	0	24	0	506462208	66	4352
2026-01-09 06:27:43.04	36.98	24.12	-50.3	-52.0	15.1	0.00e+00	0	24	0	513802240	66	4481
2026-01-09 06:27:47.03	35.90	24.32	-50.3	-52.0	15.1	0.00e+00	0	24	0	521142272	66	4464
2026-01-09 06:27:51.03	34.81	24.51	-50.4	-52.1	15.0	0.00e+00	0	24	0	528482304	66	4530
2026-01-09 06:27:55.01	33.71	24.69	-50.1	-51.8	15.2	0.00e+00	0	24	0	535822336	66	4379
2026-01-09 06:27:59.00	32.60	24.86	-50.6	-52.3	14.9	0.00e+00	0	24	0	544210944	66	4645
2026-01-09 06:28:02.98	31.47	25.03	-51.0	-52.9	14.8	0.00e+00	0	23	0	551550976	67	4674
2026-01-09 06:28:06.97	30.33	25.18	-52.3	-54.5	14.5	0.00e+00	0	24	0	558891008	70	4740
2026-01-09 06:28:10.97	29.18	25.31	-51.7	-53.9	14.7	0.00e+00	0	24	0	566231040	69	4660
2026-01-09 06:28:14.98	28.02	25.44	-52.0	-54.3	14.4	0.00e+00	0	24	0	573571072	69	4913
2026-01-09 06:28:18.98	26.85	25.55	-52.1	-54.4	14.4	0.00e+00	0	23	0	580911104	69	4969
2026-01-09 06:28:22.97	25.67	25.65	-52.4	-54.9	14.3	0.00e+00	0	24	0	588251136	70	4963
2026-01-09 06:28:26.97	24.48	25.74	-52.2	-54.6	14.4	0.00e+00	0	24	0	596639744	70	4800
2026-01-09 06:28:30.95	23.30	25.82	-51.5	-53.6	14.8	0.00e+00	0	24	0	603979776	69	4520
2026-01-09 06:28:34.94	22.10	25.88	-51.9	-54.2	14.5	0.00e+00	0	24	0	611319808	69	4843
2026-01-09 06:28:38.93	20.91	25.92	-52.4	-54.8	14.2	0.00e+00	0	24	0	618659840	69	5212
2026-01-09 06:28:42.90	19.71	25.96	-52.2	-54.4	14.5	0.00e+00	0	24	0	625999872	70	4692
2026-01-09 06:28:46.90	18.51	25.98	-51.8	-53.9	14.6	0.00e+00	0	24	0	633339904	69	4682
2026-01-09 06:28:50.89	17.30	25.98	-52.5	-55.1	14.1	0.00e+00	0	24	0	640679936	70	5075
2026-01-09 06:28:54.89	16.09	25.97	-52.3	-54.7	14.3	0.00e+00	0	24	0	649068544	70	4845
2026-01-09 06:28:58.88	14.89	25.95	-51.3	-53.4	14.9	0.00e+00	0	24	0	656408576	69	4397
2026-01-09 06:29:02.87	13.69	25.92	-51.0	-52.9	15.0	0.00e+00	0	24	0	663748608	68	4408
2026-01-09 06:29:06.87	12.49	25.87	-50.8	-52.7	15.1	0.00e+00	0	24	0	671088640	68	4312
2026-01-09 06:29:10.85	11.30	25.80	-50.2	-51.9	15.3	0.00e+00	0	24	0	678428672	67	4176
2026-01-09 06:29:14.85	10.11	25.73	-49.9	-51.5	15.4	0.00e+00	0	24	0	685768704	66	4204
2026-01-09 06:29:18.83	8.93	25.64	-50.2	-51.8	15.2	0.00e+00	0	24	0	693108736	66	4385
2026-01-09 06:29:22.83	7.76	25.53	-50.5	-52.3	15.0	0.00e+00	0	24	0	701497344	66	4623
2026-01-09 06:29:26.83	6.59	25.42	-50.5	-52.2	15.0	0.00e+00	0	24	0	708837376	66	4549
2026-01-09 06:29:30.82	5.43	25.29	-51.0	-52.8	14.9	0.00e+00	0	24	0	716177408	67	4612
2026-01-09 06:29:34.81	4.28	25.15	-51.1	-52.9	14.8	0.00e+00	0	24	0	723517440	67	4705
2026-01-09 06:29:38.80	3.15	25.00	-51.3	-53.1	14.9	0.00e+00	0	24	0	730857472	68	4532
2026-01-09 06:29:42.78	2.03	24.84	-51.4	-53.3	14.8	0.00e+00	0	24	0	738197504	68	4601
2026-01-09 06:29:46.76	0.92	24.66	-51.9	-54.0	14.5	0.00e+00	0	24	0	745537536	68	5005
2026-01-09 06:29:50.72	359.82	24.48	-52.2	-54.5	14.4	0.00e+00	0	24	0	752877568	69	4995
2026-01-09 06:29:54.70	358.74	24.29	-52.1	-54.3	14.6	0.00e+00	0	24	0	761266176	70	4646
2026-01-09 06:29:58.68	357.67	24.09	-52.1	-54.4	14.6	0.00e+00	0	24	0	768606208	70	4681
2026-01-09 06:30:02.68	356.61	23.87	-52.2	-54.5	14.5	0.00e+00	0	24	0	775946240	70	4723
2026-01-09 06:30:06.67	355.56	23.65	-51.8	-54.0	14.8	0.00e+00	0	24	0	783286272	70	4452
2026-01-09 06:30:10.66	354.53	23.42	-51.9	-54.2	14.7	0.00e+00	0	24	0	790626304	70	4559
2026-01-09 06:30:14.64	353.52	23.19	-52.6	-55.2	14.0	0.00e+00	0	24	0	797966336	70	5158
2026-01-09 06:30:18.64	352.52	22.94	-52.1	-54.6	14.5	0.00e+00	0	24	0	805306368	70	4768
2026-01-09 06:30:22.65	351.54	22.69	-52.8	-55.6	13.8	0.00e+00	0	24	0	813694976	70	5390
2026-01-09 06:30:26.65	350.57	22.43	-52.1	-54.6	14.5	0.00e+00	0	24	0	821035008	70	4763
2026-01-09 06:30:30.64	349.62	22.17	-51.1	-53.1	14.9	0.00e+00	0	24	0	828375040	68	4540
2026-01-09 06:30:34.63	348.69	21.90	-52.0	-54.4	14.3	0.00e+00	0	24	0	835715072	69	4971
2026-01-09 06:30:38.62	347.77	21.62	-51.4	-53.5	14.9	0.00e+00	0	24	0	843055104	69	4484
2026-01-09 06:30:42.60	346.87	21.34	-50.1	-51.9	15.1	0.00e+00	0	24	0	850395136	66	4419
2026-01-09 06:30:46.59	345.99	21.06	-50.4	-52.3	15.0	0.00e+00	0	24	0	857735168	66	4602
2026-01-09 06:30:50.59	345.12	20.77	-50.6	-52.6	14.8	0.00e+00	0	24	0	865075200	66	4768
2026-01-09 06:30:54.58	344.27	20.48	-50.7	-52.8	14.7	0.00e+00	0	24	0	873463808	66	4881
2026-01-09 06:30:58.58	343.43	20.19	-51.0	-53.1	14.7	0.00e+00	0	24	0	880803840	67	4794
2026-01-09 06:31:02.57	342.61	19.89	-50.7	-52.7	14.9	0.00e+00	0	24	0	888143872	67	4573
2026-01-09 06:31:06.57	341.80	19.59	-51.3	-53.5	14.5	0.00e+00	0	24	0	895483904	67	5040
2026-01-09 06:31:10.57	341.02	19.29	-50.5	-52.4	15.1	0.00e+00	0	24	0	902823936	67	4431
2026-01-09 06:31:14.56	340.24	18.98	-51.0	-53.0	14.8	0.00e+00	0	24	0	910163968	67	4740
2026-01-09 06:31:18.56	339.49	18.68	-50.4	-52.3	15.1	0.00e+00	0	24	0	917504000	67	4343
2026-01-09 06:31:22.55	338.75	18.37	-50.2	-51.9	15.1	0.00e+00	0	24	0	925892608	66	4421
2026-01-09 06:31:26.55	338.02	18.06	-50.7	-52.5	14.8	0.00e+00	0	24	0	933232640	66	4758
2026-01-09 06:31:30.55	337.31	17.76	-50.6	-52.4	14.9	0.00e+00	0	24	0	940572672	66	4689
2026-01-09 06:31:34.54	336.61	17.45	-50.2	-51.9	15.1	0.00e+00	0	24	0	947912704	66	4428
2026-01-09 06:31:38.52	335.93	17.14	-50.6	-52.4	14.9	0.00e+00	0	24	0	955252736	66	4675
2026-01-09 06:31:42.51	335.26	16.83	-50.8	-52.7	14.8	0.00e+00	0	24	0	962592768	66	4832
2026-01-09 06:31:46.48	334.61	16.52	-50.6	-52.4	14.9	0.00e+00	0	24	0	969932800	66	4693
2026-01-09 06:31:50.47	333.97	16.21	-50.1	-51.8	15.1	0.00e+00	0	24	0	978321408	66	4356
2026-01-09 06:31:54.48	333.34	15.90	-51.1	-53.1	14.7	0.00e+00	0	24	0	985661440	67	4809
2026-01-09 06:31:58.44	332.73	15.59	-50.8	-52.7	14.9	0.00e+00	0	24	0	993001472	67	4564
2026-01-09 06:32:02.43	332.13	15.29	-50.5	-52.3	15.1	0.00e+00	0	24	0	1000341504	67	4359
2026-01-09 06:32:06.44	331.54	14.98	-50.6	-52.4	15.0	0.00e+00	0	24	0	1007681536	67	4404
2026-01-09 06:32:10.44	330.96	14.67	-51.6	-53.7	14.5	0.00e+00	0	24	0	1015021568	68	4846
2026-01-09 06:32:14.44	330.40	14.36	-52.1	-54.4	14.3	0.00e+00	0	24	0	1022361600	69	4937
2026-01-09 06:32:18.43	329.85	14.06	-51.2	-53.1	14.9	0.00e+00	0	24	0	1030750208	68	4496
2026-01-09 06:32:22.42	329.31	13.76	-51.2	-53.0	14.9	0.00e+00	0	24	0	1038090240	68	4488
2026-01-09 06:32:26.41	328.78	13.46	-51.4	-53.4	14.8	0.00e+00	0	24	0	1045430272	68	4657
2026-01-09 06:32:30.40	328.26	13.15	-51.2	-53.1	14.9	0.00e+00	0	24	0	1052770304	68	4494
2026-01-09 06:32:34.40	327.75	12.85	-51.4	-53.4	14.7	0.00e+00	0	24	0	1060110336	68	4675
2026-01-09 06:32:38.39	327.25	12.56	-51.6	-53.7	14.6	0.00e+00	0	24	0	1067450368	68	4819
2026-01-09 06:32:42.36	326.76	12.26	-51.9	-54.1	14.4	0.00e+00	0	24	0	1074790400	69	4805
2026-01-09 06:32:46.35	326.29	11.97	-52.1	-54.4	14.3	0.00e+00	0	24	0	1082130432	69	4971
2026-01-09 06:32:50.34	325.82	11.67	-52.4	-54.7	14.3	0.00e+00	0	24	0	1090519040	70	4854
2026-01-09 06:32:54.33	325.36	11.38	-52.0	-54.1	14.6	0.00e+00	0	24	0	1097859072	70	4528
2026-01-09 06:32:58.33	324.91	11.09	-52.0	-54.1	14.6	0.00e+00	0	24	0	1105199104	70	4536
2026-01-09 06:33:02.32	324.47	10.80	-52.6	-55.0	14.1	0.00e+00	0	24	0	1112539136	70	5008
2026-01-09 06:33:06.32	324.04	10.52	-52.8	-55.3	14.0	0.00e+00	0	24	0	1119879168	71	4901
2026-01-09 06:33:10.31	323.62	10.23	-52.4	-54.7	14.4	0.00e+00	0	24	0	1127219200	71	4554
2026-01-09 06:33:14.29	323.20	9.95	-52.1	-54.3	14.5	0.00e+00	0	24	0	1134559232	70	4634
2026-01-09 06:33:18.29	322.79	9.67	-52.3	-54.6	14.3	0.00e+00	0	24	0	1142947840	70	4771
2026-01-09 06:33:22.29	322.40	9.39	-52.8	-55.4	13.8	0.00e+00	0	24	0	1150287872	70	5248
2026-01-09 06:33:26.28	322.01	9.11	-53.1	-55.9	13.6	0.00e+00	0	24	0	1157627904	71	5265
2026-01-09 06:33:30.27	321.62	8.83	-53.3	-56.2	13.5	0.00e+00	0	24	0	1164967936	72	5135
2026-01-09 06:33:34.27	321.25	8.56	-53.3	-56.2	13.5	0.00e+00	0	24	0	1172307968	72	5136
2026-01-09 06:33:38.26	320.88	8.29	-53.3	-56.1	13.6	0.00e+00	0	24	0	1179648000	72	5053
2026-01-09 06:33:42.23	320.52	8.02	-53.4	-56.2	13.5	0.00e+00	0	24	0	1186988032	72	5149
2026-01-09 06:33:46.22	320.17	7.75	-53.6	-56.7	13.2	0.00e+00	0	24	0	1194328064	72	5452
2026-01-09 06:33:50.20	319.82	7.48	-53.9	-57.1	13.0	0.00e+00	0	24	0	1202716672	73	5395
2026-01-09 06:33:54.17	319.48	7.22	-53.9	-57.3	12.9	0.00e+00	0	24	0	1210056704	73	5478
2026-01-09 06:33:58.16	319.15	6.95	-53.5	-56.5	13.4	0.00e+00	0	24	0	1217396736	73	4988
2026-01-09 06:34:02.15	318.82	6.69	-52.9	-55.5	14.0	0.00e+00	0	24	0	1224736768	72	4719
2026-01-09 06:34:06.14	318.49	6.43	-52.6	-55.0	14.1	0.00e+00	0	24	0	1232076800	71	4740
2026-01-09 06:34:10.14	318.18	6.17	-52.7	-55.2	14.0	0.00e+00	0	24	0	1239416832	71	4842
2026-01-09 06:34:14.13	317.87	5.92	-53.2	-56.0	13.4	0.00e+00	0	24	0	1246756864	71	5313
2026-01-09 06:34:18.12	317.56	5.66	-53.5	-56.6	13.2	0.00e+00	0	24	0	1255145472	72	5360
2026-01-09 06:34:22.13	317.26	5.41	-54.0	-57.4	12.7	7.00e-07	0	24	0	1262485504	73	5587
2026-01-09 06:34:26.12	316.97	5.16	-54.2	-57.9	12.3	1.50e-06	0	24	0	1269825536	73	5894
2026-01-09 06:34:30.11	316.68	4.91	-58.2	-74.1	3.8	1.49e+00	0	24	104	1275068416	81	24086
2026-01-09 06:34:34.10	316.40	4.66	-59.1	-75.1	3.8	1.49e+00	0	24	104	1275068416	83	24051
2026-01-09 06:34:38.10	316.12	4.41	-59.7	-75.7	3.8	1.49e+00	0	24	104	1275068416	84	24234
2026-01-09 06:34:42.09	315.84	4.17	-59.9	-75.9	3.8	1.49e+00	0	24	104	1275068416	84	24977
2026-01-09 06:34:46.09	315.57	3.92	-60.0	-76.1	3.8	1.49e+00	0	24	104	1275068416	85	24044
2026-01-09 06:34:50.09	315.31	3.68	-60.0	-76.0	3.8	1.49e+00	0	24	104	1275068416	85	23833
2026-01-09 06:34:54.09	315.05	3.44	-59.9	-76.0	3.8	1.49e+00	0	24	104	1275068416	85	23638
2026-01-09 06:34:58.08	314.79	3.20	-59.8	-75.9	3.8	1.49e+00	0	24	104	1275068416	85	23495
2026-01-09 06:35:02.09	314.54	2.96	-59.8	-75.9	3.8	1.49e+00	0	24	104	1275068416	85	23426
2026-01-09 06:35:06.08	314.29	2.73	-59.8	-75.9	3.8	1.49e+00	0	24	104	1275068416	85	23327
2026-01-09 06:35:10.08	314.05	2.49	-59.8	-75.8	3.8	1.49e+00	0	24	104	1275068416	85	23311
2026-01-09 06:35:14.08	313.81	2.26	-59.7	-75.8	3.8	1.49e+00	0	24	104	1275068416	85	23173
2026-01-09 06:35:18.09	313.58	2.02	-59.7	-75.8	3.8	1.49e+00	0	24	104	1275068416	85	23161

#Closed at: 2026-01-09 06:35:19
#Recorded file [1275 MB]: D:/lorett/data/31004_260109_092223.dat