passes_logs/2026/01/09/R3.2S_Murmansk/R3.2S_Murmansk__20260109_050128_AQUA_rec.log

#Pass ID: 20260109_050128_AQUA
#Satellite: AQUA
#Configuration: AQUA
#almurnet v.1.7.20251203
#Start time: 2026-01-09 05:01:28

#Version: 2.2.20231116
#Station: R3.2S_Murmansk
#Location: 33.079688 lon 68.888172 lat
#TLE: 1 27424U 02022A   26004.96787593  .00001598  00000+0  32997-3 0  9996
#TLE: 2 27424  98.4069 331.2279 0002002  90.2377   0.6092 14.61798176259425

#Time	Az	El	Level	Level2	SNR	BER	BlckErr	Temp	State	Recorded	gain1	gain2
2026-01-09 05:01:28.33	37.21	1.98	-56.7	-76.0	3.8	7.48e-01	0	22	0	0	82	32773
2026-01-09 05:01:31.32	37.01	2.16	-56.6	-75.9	3.8	7.48e-01	0	22	104	0	80	36373
2026-01-09 05:01:34.31	36.81	2.34	-56.6	-75.9	3.8	7.48e-01	0	22	104	0	80	36445
2026-01-09 05:01:37.31	36.61	2.52	-56.6	-75.8	3.8	7.45e-01	0	22	104	0	80	36008
2026-01-09 05:01:40.30	36.40	2.70	-56.6	-75.7	3.8	7.48e-01	0	22	104	0	80	35496
2026-01-09 05:01:43.29	36.19	2.88	-56.6	-75.7	3.8	7.44e-01	0	22	104	0	80	35574
2026-01-09 05:01:46.30	35.98	3.07	-56.6	-75.7	3.8	7.45e-01	0	22	104	0	80	35353
2026-01-09 05:01:49.31	35.76	3.26	-56.6	-75.9	3.8	7.47e-01	0	22	104	0	80	36321
2026-01-09 05:01:52.30	35.55	3.44	-56.6	-75.8	3.8	7.47e-01	0	22	104	0	80	35790
2026-01-09 05:01:55.30	35.32	3.63	-56.6	-75.6	3.8	7.46e-01	0	22	104	0	80	34971
2026-01-09 05:01:58.30	35.10	3.82	-56.6	-75.7	3.8	7.44e-01	0	22	104	0	80	35672
2026-01-09 05:02:01.29	34.87	4.01	-56.6	-74.9	3.8	7.45e-01	0	23	104	0	80	32492
2026-01-09 05:02:04.29	34.64	4.20	-56.6	-75.3	3.8	7.46e-01	0	22	104	0	80	33847
2026-01-09 05:02:07.30	34.40	4.39	-56.6	-75.2	3.8	7.47e-01	0	23	104	0	80	33462
2026-01-09 05:02:10.31	34.16	4.58	-56.4	-68.8	5.9	6.84e-01	35	23	0	0	80	16001
2026-01-09 05:02:13.30	33.92	4.78	-55.9	-64.3	9.6	6.24e-01	0	23	0	5767168	80	9500
2026-01-09 05:02:16.31	33.67	4.97	-55.4	-61.9	11.7	6.06e-01	0	23	0	11534336	80	7206
2026-01-09 05:02:19.31	33.42	5.17	-54.0	-58.0	14.2	6.02e-01	0	23	0	16777216	76	5842
2026-01-09 05:02:22.31	33.17	5.37	-52.9	-56.1	14.8	6.02e-01	0	23	0	20971520	74	5237
2026-01-09 05:02:25.32	32.91	5.56	-51.3	-53.6	15.5	6.01e-01	0	23	0	26738688	71	4698
2026-01-09 05:02:28.31	32.65	5.76	-50.6	-52.7	15.8	6.02e-01	0	23	0	32505856	70	4479
2026-01-09 05:02:31.29	32.38	5.96	-50.4	-52.5	15.7	5.99e-01	0	23	0	37748736	69	4636
2026-01-09 05:02:34.29	32.11	6.16	-50.4	-52.5	15.6	5.99e-01	0	23	0	43515904	69	4646
2026-01-09 05:02:37.26	31.84	6.37	-50.3	-52.4	15.7	6.01e-01	0	23	0	49283072	69	4566
2026-01-09 05:02:40.26	31.56	6.57	-50.3	-52.3	15.7	6.00e-01	0	23	0	54525952	69	4535
2026-01-09 05:02:43.24	31.28	6.77	-50.4	-52.4	15.7	6.02e-01	0	23	0	60293120	69	4583
2026-01-09 05:02:46.23	30.99	6.98	-50.0	-52.0	15.9	6.01e-01	0	23	0	66060288	69	4374
2026-01-09 05:02:49.23	30.70	7.19	-49.9	-51.8	16.0	6.03e-01	0	23	0	71303168	69	4289
2026-01-09 05:02:52.23	30.40	7.40	-50.1	-52.1	15.9	6.00e-01	0	23	0	77070336	69	4407
2026-01-09 05:02:55.23	30.10	7.61	-49.8	-51.7	15.8	6.01e-01	0	23	0	82837504	68	4475
2026-01-09 05:02:58.23	29.80	7.82	-49.9	-51.8	15.8	6.03e-01	0	23	0	88604672	68	4537
2026-01-09 05:03:01.22	29.48	8.03	-49.8	-51.7	15.8	6.02e-01	0	23	0	93847552	68	4473
2026-01-09 05:03:04.22	29.17	8.24	-49.6	-51.5	15.9	6.04e-01	0	23	0	99614720	68	4359
2026-01-09 05:03:07.21	28.84	8.46	-49.6	-51.4	16.0	6.02e-01	0	23	0	105381888	68	4316
2026-01-09 05:03:10.22	28.52	8.67	-49.5	-51.3	16.0	6.00e-01	0	23	0	110624768	68	4283
2026-01-09 05:03:13.21	28.18	8.89	-49.3	-51.1	15.9	6.01e-01	0	23	0	116391936	67	4438
2026-01-09 05:03:16.20	27.85	9.11	-49.3	-51.2	15.9	6.02e-01	0	23	0	122159104	67	4443
2026-01-09 05:03:19.19	27.50	9.33	-49.5	-51.3	15.8	6.01e-01	0	23	0	127926272	67	4512
2026-01-09 05:03:22.19	27.15	9.55	-49.7	-59.1	12.1	6.02e-01	2	23	0	133169152	67	11135
2026-01-09 05:03:25.17	26.80	9.77	-49.8	-61.4	3.8	7.47e-01	0	23	104	133169152	67	14448
2026-01-09 05:03:28.16	26.44	9.99	-56.6	-72.5	3.9	7.44e-01	0	23	104	133169152	81	23231
2026-01-09 05:03:31.14	26.07	10.21	-51.8	-63.7	3.8	7.38e-01	0	23	104	133169152	72	14082
2026-01-09 05:03:34.13	25.69	10.44	-53.2	-65.5	3.7	7.50e-01	0	23	104	133169152	74	15439
2026-01-09 05:03:37.13	25.31	10.67	-51.2	-62.7	4.0	7.40e-01	0	23	104	133169152	71	13303
2026-01-09 05:03:40.12	24.93	10.89	-50.4	-61.9	3.7	7.57e-01	0	23	104	133169152	69	13641
2026-01-09 05:03:43.11	24.53	11.12	-57.3	-75.5	3.8	7.41e-01	0	23	104	133169152	82	30846
2026-01-09 05:03:46.11	24.13	11.35	-50.8	-62.4	3.8	7.47e-01	0	23	104	133169152	70	13679
2026-01-09 05:03:49.11	23.72	11.58	-50.3	-61.8	3.8	7.46e-01	0	24	104	133169152	69	13509
2026-01-09 05:03:52.09	23.31	11.81	-52.5	-64.4	3.8	7.44e-01	0	23	104	133169152	74	13680
2026-01-09 05:03:55.09	22.88	12.05	-52.5	-64.5	3.8	7.43e-01	0	23	104	133169152	74	13883
2026-01-09 05:03:58.09	22.45	12.28	-52.7	-64.8	3.8	7.43e-01	0	23	104	133169152	74	14246
2026-01-09 05:04:01.09	22.02	12.52	-50.7	-62.3	3.8	7.46e-01	0	23	104	133169152	70	13443
2026-01-09 05:04:04.07	21.57	12.75	-50.1	-61.6	3.8	7.47e-01	0	23	104	133169152	69	13174
2026-01-09 05:04:07.07	21.12	12.99	-57.4	-75.6	3.8	7.45e-01	0	24	104	133169152	82	31225
2026-01-09 05:04:10.07	20.66	13.22	-50.5	-62.0	3.8	7.45e-01	0	23	104	133169152	70	12976
2026-01-09 05:04:13.06	20.19	13.46	-49.5	-60.8	3.8	7.47e-01	0	24	104	133169152	68	12773
2026-01-09 05:04:16.07	19.71	13.70	-57.2	-73.9	3.8	7.43e-01	0	24	104	133169152	82	25595
2026-01-09 05:04:19.07	19.22	13.94	-50.4	-61.8	3.8	7.45e-01	0	24	104	133169152	70	12802
2026-01-09 05:04:22.07	18.72	14.18	-52.6	-64.6	3.8	7.45e-01	0	24	104	133169152	73	14837
2026-01-09 05:04:25.06	18.22	14.42	-50.2	-61.7	3.8	7.46e-01	0	23	104	133169152	69	13335
2026-01-09 05:04:28.05	17.71	14.66	-49.4	-60.7	3.8	7.47e-01	0	24	104	133169152	68	12565
2026-01-09 05:04:31.04	17.19	14.91	-57.5	-75.4	3.8	7.46e-01	0	24	104	133169152	82	30437
2026-01-09 05:04:34.04	16.65	15.15	-50.6	-62.2	3.8	7.46e-01	0	24	104	133169152	70	13340
2026-01-09 05:04:37.02	16.12	15.39	-50.5	-62.1	3.8	7.47e-01	0	23	104	133169152	68	14779
2026-01-09 05:04:40.01	15.57	15.63	-50.9	-62.5	3.8	7.44e-01	0	24	104	133169152	71	12964
2026-01-09 05:04:43.00	15.01	15.87	-50.5	-62.0	3.8	7.45e-01	0	24	104	133169152	70	13070
2026-01-09 05:04:46.00	14.44	16.11	-52.8	-64.6	3.8	7.45e-01	0	24	104	133169152	74	13897
2026-01-09 05:04:49.00	13.86	16.36	-50.5	-61.9	3.8	7.45e-01	0	24	104	133169152	70	12953
2026-01-09 05:04:52.00	13.26	16.60	-49.9	-61.3	3.8	7.46e-01	0	24	104	133169152	69	12698
2026-01-09 05:04:54.98	12.67	16.84	-56.8	-72.5	3.8	7.47e-01	0	24	104	133169152	81	23049
2026-01-09 05:04:57.98	12.05	17.08	-51.0	-62.5	3.8	7.46e-01	0	23	104	133169152	71	13082
2026-01-09 05:05:01.00	11.43	17.32	-55.4	-69.0	3.8	7.49e-01	0	24	104	133169152	78	18430
2026-01-09 05:05:03.99	10.80	17.56	-57.3	-73.9	3.8	7.44e-01	0	24	104	133169152	82	25644
2026-01-09 05:05:06.97	10.16	17.80	-50.2	-61.6	3.8	7.44e-01	0	24	104	133169152	69	13211
2026-01-09 05:05:09.96	9.50	18.04	-54.4	-67.1	3.8	7.39e-01	0	24	104	133169152	76	16565
2026-01-09 05:05:12.95	8.84	18.27	-57.4	-74.4	3.8	7.47e-01	0	24	104	133169152	82	27259
2026-01-09 05:05:15.96	8.16	18.51	-50.7	-62.3	3.8	7.43e-01	0	24	104	133169152	70	13434
2026-01-09 05:05:18.96	7.47	18.74	-57.5	-74.9	3.8	7.47e-01	0	24	104	133169152	82	28743
2026-01-09 05:05:21.96	6.77	18.97	-50.3	-61.7	3.8	7.47e-01	0	24	104	133169152	69	13290
2026-01-09 05:05:24.97	6.06	19.20	-49.6	-60.9	3.8	7.46e-01	0	24	104	133169152	68	12920
2026-01-09 05:05:27.96	5.34	19.43	-51.2	-62.8	3.9	7.45e-01	0	24	104	133169152	71	13450
2026-01-09 05:05:30.95	4.60	19.66	-51.0	-62.5	3.9	7.46e-01	0	24	104	133169152	71	13046
2026-01-09 05:05:33.95	3.86	19.88	-53.5	-65.7	3.9	7.45e-01	0	24	104	133169152	76	14154
2026-01-09 05:05:36.93	3.11	20.10	-50.1	-61.6	3.8	7.43e-01	0	24	104	133169152	69	13117
2026-01-09 05:05:39.92	2.34	20.31	-49.8	-61.2	3.8	7.45e-01	0	24	104	133169152	68	13285
2026-01-09 05:05:42.90	1.56	20.53	-57.1	-72.8	3.8	7.47e-01	0	24	104	133169152	81	24007
2026-01-09 05:05:45.89	0.77	20.73	-50.7	-62.2	3.9	7.47e-01	0	24	104	133169152	70	13393
2026-01-09 05:05:48.90	359.97	20.94	-57.0	-72.6	3.8	7.48e-01	0	24	104	133169152	81	23573
2026-01-09 05:05:51.90	359.15	21.14	-57.6	-74.4	3.8	7.46e-01	0	24	104	133169152	82	27295
2026-01-09 05:05:54.89	358.33	21.34	-49.9	-61.3	3.9	7.45e-01	0	24	104	133169152	69	12775
2026-01-09 05:05:57.89	357.49	21.53	-53.3	-65.5	3.9	7.46e-01	0	24	104	133169152	74	15445
2026-01-09 05:06:00.89	356.64	21.72	-50.2	-61.6	3.8	7.46e-01	0	24	104	133169152	69	13162
2026-01-09 05:06:03.90	355.78	21.91	-49.6	-61.0	3.9	7.46e-01	0	24	104	133169152	68	13067
2026-01-09 05:06:06.90	354.91	22.09	-57.3	-73.3	3.9	7.47e-01	0	24	104	133169152	82	23922
2026-01-09 05:06:09.89	354.03	22.26	-50.6	-62.1	3.8	7.43e-01	0	24	104	133169152	70	13208
2026-01-09 05:06:12.89	353.14	22.42	-57.5	-73.9	3.8	7.46e-01	0	24	104	133169152	82	25698
2026-01-09 05:06:15.88	352.24	22.58	-57.7	-74.9	3.9	7.45e-01	0	24	104	133169152	83	27166
2026-01-09 05:06:18.87	351.34	22.74	-50.0	-61.4	3.9	7.49e-01	0	24	104	133169152	69	12868
2026-01-09 05:06:21.86	350.42	22.89	-53.7	-66.1	3.8	7.45e-01	0	24	104	133169152	75	15690
2026-01-09 05:06:24.87	349.49	23.03	-57.1	-72.7	3.8	7.49e-01	0	24	104	133169152	81	23589
2026-01-09 05:06:27.88	348.55	23.16	-49.9	-61.2	3.8	7.45e-01	0	24	104	133169152	68	13376
2026-01-09 05:06:30.88	347.60	23.29	-57.6	-74.3	3.8	7.45e-01	0	24	104	133169152	82	26874
2026-01-09 05:06:33.88	346.65	23.41	-50.1	-61.5	3.8	7.43e-01	0	24	104	133169152	69	13009
2026-01-09 05:06:36.86	345.69	23.52	-50.0	-61.3	3.8	7.47e-01	0	24	104	133169152	68	13553
2026-01-09 05:06:39.86	344.72	23.62	-50.9	-62.5	3.9	7.43e-01	0	24	104	133169152	71	13017
2026-01-09 05:06:42.85	343.75	23.72	-50.2	-61.6	3.8	7.46e-01	0	24	104	133169152	69	13233
2026-01-09 05:06:45.84	342.77	23.80	-54.1	-66.7	3.8	7.44e-01	0	24	104	133169152	77	14885
2026-01-09 05:06:48.82	341.79	23.88	-50.4	-61.8	3.9	7.42e-01	0	24	104	133169152	70	12724
2026-01-09 05:06:51.83	340.80	23.95	-50.0	-61.4	3.9	7.47e-01	0	24	104	133169152	69	12830
2026-01-09 05:06:54.83	339.80	24.01	-57.5	-73.7	3.8	7.47e-01	0	24	104	133169152	82	25220
2026-01-09 05:06:57.84	338.80	24.07	-50.3	-61.5	3.8	7.47e-01	0	24	104	133169152	69	13018
2026-01-09 05:07:00.83	337.80	24.11	-57.6	-73.7	3.8	7.49e-01	0	24	104	133169152	82	25157
2026-01-09 05:07:03.83	336.80	24.14	-57.9	-75.1	3.8	7.46e-01	0	24	104	133169152	83	27892
2026-01-09 05:07:06.82	335.79	24.17	-50.1	-61.5	3.9	7.44e-01	0	24	104	133169152	69	13020
2026-01-09 05:07:09.83	334.78	24.18	-53.6	-65.9	3.8	7.50e-01	0	24	104	133169152	74	16234
2026-01-09 05:07:12.82	333.77	24.19	-57.1	-72.4	3.8	7.45e-01	0	24	104	133169152	81	22863
2026-01-09 05:07:15.82	332.77	24.19	-50.2	-61.6	3.8	7.44e-01	0	24	104	133169152	69	13256
2026-01-09 05:07:18.82	331.76	24.17	-57.6	-74.0	3.7	7.48e-01	0	24	104	133169152	82	26008
2026-01-09 05:07:21.81	330.75	24.15	-50.2	-61.6	3.8	7.45e-01	0	24	104	133169152	69	13253
2026-01-09 05:07:24.81	329.75	24.12	-51.3	-62.9	3.9	7.41e-01	0	24	104	133169152	70	14520
2026-01-09 05:07:27.81	328.74	24.08	-51.2	-62.7	3.8	7.43e-01	0	24	104	133169152	71	13267
2026-01-09 05:07:30.82	327.74	24.03	-51.0	-62.5	3.8	7.43e-01	0	24	104	133169152	70	13841
2026-01-09 05:07:33.81	326.74	23.97	-54.2	-66.7	3.8	7.43e-01	0	24	104	133169152	77	14964
2026-01-09 05:07:36.80	325.75	23.91	-50.6	-62.1	3.8	7.46e-01	0	24	104	133169152	70	13180
2026-01-09 05:07:39.79	324.77	23.83	-50.5	-61.9	3.8	7.46e-01	0	24	104	133169152	70	12821
2026-01-09 05:07:42.79	323.78	23.75	-57.7	-74.2	3.8	7.46e-01	0	24	104	133169152	83	25179
2026-01-09 05:07:45.78	322.81	23.65	-50.6	-62.0	3.9	7.44e-01	0	24	104	133169152	70	13029
2026-01-09 05:07:48.76	321.85	23.55	-55.3	-68.7	3.8	7.46e-01	0	24	104	133169152	78	17879
2026-01-09 05:07:51.76	320.88	23.45	-50.6	-62.4	3.9	7.44e-01	0	24	104	133169152	70	13671
2026-01-09 05:07:54.73	319.93	23.33	-50.3	-61.6	3.9	7.46e-01	0	24	104	133169152	69	13181
2026-01-09 05:07:57.74	318.98	23.20	-54.1	-66.1	3.9	7.45e-01	0	24	104	133169152	77	13978
2026-01-09 05:08:00.74	318.04	23.07	-50.6	-61.4	3.9	7.44e-01	0	24	104	133169152	70	12140
2026-01-09 05:08:03.75	317.10	22.93	-50.3	-61.5	3.9	7.44e-01	0	24	104	133169152	69	13100
2026-01-09 05:08:06.74	316.18	22.79	-57.5	-73.1	3.8	7.46e-01	0	24	104	133169152	82	23489
2026-01-09 05:08:09.74	315.27	22.64	-52.1	-63.6	3.8	7.49e-01	0	24	104	133169152	73	13169
2026-01-09 05:08:12.74	314.36	22.48	-58.4	-76.7	3.8	7.49e-01	0	24	104	133169152	84	31460
2026-01-09 05:08:15.73	313.47	22.31	-58.0	-75.6	3.8	7.46e-01	0	24	104	133169152	83	29348
2026-01-09 05:08:18.72	312.59	22.14	-50.0	-61.6	3.9	7.46e-01	0	24	104	133169152	69	13192
2026-01-09 05:08:21.73	311.71	21.96	-53.1	-65.4	3.8	7.45e-01	0	24	104	133169152	73	16263
2026-01-09 05:08:24.72	310.85	21.78	-50.8	-62.0	3.8	7.46e-01	0	24	104	133169152	70	13046
2026-01-09 05:08:27.73	309.99	21.59	-50.4	-61.6	3.9	7.46e-01	0	24	104	133169152	70	12379
2026-01-09 05:08:30.73	309.15	21.40	-57.6	-73.8	3.8	7.46e-01	0	24	104	133169152	82	25340
2026-01-09 05:08:33.72	308.32	21.21	-50.7	-62.1	3.8	7.45e-01	0	24	104	133169152	70	13232
2026-01-09 05:08:36.72	307.50	21.01	-54.7	-68.4	3.8	7.47e-01	0	24	104	133169152	77	18188
2026-01-09 05:08:39.72	306.69	20.80	-57.9	-74.9	3.8	7.49e-01	0	24	104	133169152	83	27344
2026-01-09 05:08:42.70	305.90	20.59	-50.8	-61.7	3.8	7.45e-01	0	24	104	133169152	69	13330
2026-01-09 05:08:45.69	305.12	20.38	-53.4	-65.1	3.8	7.43e-01	0	24	104	133169152	74	14812
2026-01-09 05:08:48.69	304.35	20.16	-56.6	-71.2	3.8	7.47e-01	0	24	104	133169152	80	21090
2026-01-09 05:08:51.69	303.58	19.95	-50.2	-61.5	3.8	7.45e-01	0	24	104	133169152	69	13063
2026-01-09 05:08:54.68	302.83	19.72	-57.4	-73.3	3.7	7.48e-01	0	24	104	133169152	82	23925
2026-01-09 05:08:57.67	302.10	19.50	-50.3	-61.6	3.9	7.45e-01	0	24	104	133169152	69	13131
2026-01-09 05:09:00.67	301.37	19.27	-50.4	-61.9	3.9	7.47e-01	0	24	104	133169152	69	13691
2026-01-09 05:09:03.67	300.65	19.04	-57.6	-73.8	3.8	7.46e-01	0	24	104	133169152	83	23943
2026-01-09 05:09:06.67	299.95	18.81	-50.6	-61.8	3.9	7.43e-01	0	24	104	133169152	70	12714
2026-01-09 05:09:09.67	299.25	18.58	-53.3	-64.9	3.8	7.43e-01	0	24	104	133169152	74	14530
2026-01-09 05:09:12.67	298.57	18.34	-56.5	-70.8	3.8	7.50e-01	0	24	104	133169152	80	20139
2026-01-09 05:09:15.66	297.90	18.11	-50.5	-61.9	3.8	7.48e-01	0	24	104	133169152	70	12834
2026-01-09 05:09:18.66	297.24	17.87	-57.3	-72.9	3.8	7.44e-01	0	24	104	133169152	82	22866
2026-01-09 05:09:21.66	296.59	17.63	-50.5	-62.2	3.8	7.47e-01	0	24	104	133169152	70	13350
2026-01-09 05:09:24.67	295.95	17.39	-51.6	-63.8	3.8	7.46e-01	0	24	104	133169152	70	15959
2026-01-09 05:09:27.67	295.32	17.15	-57.1	-72.5	3.8	7.46e-01	0	24	104	133169152	83	20569
2026-01-09 05:09:30.67	294.71	16.91	-50.7	-62.5	3.8	7.47e-01	0	24	104	133169152	70	13750
2026-01-09 05:09:33.66	294.10	16.67	-51.0	-62.7	3.8	7.50e-01	0	24	104	133169152	71	13290
2026-01-09 05:09:36.66	293.51	16.42	-51.0	-62.4	3.8	7.46e-01	0	24	104	133169152	70	13633
2026-01-09 05:09:39.64	292.93	16.18	-50.7	-61.9	3.8	7.45e-01	0	24	104	133169152	70	12838
2026-01-09 05:09:42.63	292.35	15.94	-57.3	-73.1	3.8	7.45e-01	0	24	104	133169152	82	23575
2026-01-09 05:09:45.62	291.79	15.70	-50.9	-62.6	3.9	7.41e-01	0	24	104	133169152	71	13222
2026-01-09 05:09:48.62	291.23	15.45	-50.6	-62.4	3.8	7.44e-01	0	24	104	133169152	70	13583
2026-01-09 05:09:51.63	290.69	15.21	-55.7	-68.9	3.8	7.44e-01	0	24	104	133169152	80	16169
2026-01-09 05:09:54.62	290.15	14.97	-50.9	-62.6	3.8	7.45e-01	0	24	104	133169152	71	13154
2026-01-09 05:09:57.62	289.62	14.73	-50.1	-51.9	15.6	6.05e-01	0	24	0	133693440	68	4591
2026-01-09 05:10:00.63	289.10	14.48	-51.4	-53.4	15.4	6.03e-01	0	24	0	138936320	70	4837
2026-01-09 05:10:03.63	288.60	14.24	-50.7	-52.7	15.5	6.01e-01	0	24	0	144703488	69	4718
2026-01-09 05:10:06.63	288.10	14.00	-49.7	-51.4	15.9	6.02e-01	0	24	0	150470656	68	4309
2026-01-09 05:10:09.63	287.60	13.76	-49.9	-51.7	15.8	6.02e-01	0	24	0	155713536	68	4465
2026-01-09 05:10:12.63	287.12	13.52	-49.5	-51.2	15.9	6.05e-01	0	24	0	161480704	68	4223
2026-01-09 05:10:15.63	286.65	13.28	-50.0	-51.8	15.8	6.04e-01	0	24	0	167247872	68	4520
2026-01-09 05:10:18.63	286.18	13.04	-49.6	-51.3	15.9	6.01e-01	0	24	0	173015040	68	4270
2026-01-09 05:10:21.63	285.72	12.80	-49.9	-51.7	15.7	6.05e-01	0	24	0	178257920	68	4491
2026-01-09 05:10:24.63	285.27	12.57	-49.9	-51.7	15.8	6.05e-01	0	24	0	184025088	68	4454
2026-01-09 05:10:27.63	284.83	12.33	-49.8	-51.6	15.8	6.01e-01	0	24	0	189792256	68	4394
2026-01-09 05:10:30.62	284.40	12.10	-49.9	-51.8	15.8	6.00e-01	0	24	0	195035136	68	4494
2026-01-09 05:10:33.63	283.97	11.86	-50.1	-52.0	15.7	6.04e-01	0	24	0	200802304	68	4607
2026-01-09 05:10:36.63	283.55	11.63	-50.0	-51.8	15.7	6.02e-01	0	24	0	206569472	68	4519
2026-01-09 05:10:39.63	283.14	11.40	-50.1	-52.0	15.7	6.04e-01	0	24	0	212336640	68	4622
2026-01-09 05:10:42.62	282.73	11.17	-50.1	-52.0	15.6	6.03e-01	0	24	0	217579520	68	4630
2026-01-09 05:10:45.62	282.34	10.94	-50.1	-51.9	15.7	6.02e-01	0	24	0	223346688	68	4581
2026-01-09 05:10:48.61	281.95	10.71	-50.2	-52.1	15.6	6.03e-01	0	24	0	229113856	68	4690
2026-01-09 05:10:51.61	281.56	10.48	-50.2	-52.1	15.6	6.01e-01	0	24	0	234356736	68	4660
2026-01-09 05:10:54.60	281.18	10.26	-50.1	-51.9	15.7	6.03e-01	0	24	0	240123904	68	4580
2026-01-09 05:10:57.58	280.82	10.03	-50.2	-52.1	15.6	6.02e-01	0	24	0	245891072	68	4698
2026-01-09 05:11:00.58	280.45	9.81	-50.2	-52.1	15.6	6.02e-01	0	24	0	251658240	68	4702
2026-01-09 05:11:03.58	280.09	9.59	-50.2	-52.1	15.6	6.02e-01	0	24	0	256901120	68	4697
2026-01-09 05:11:06.58	279.74	9.37	-50.4	-52.3	15.5	6.02e-01	0	24	0	262668288	68	4805
2026-01-09 05:11:09.58	279.39	9.14	-50.4	-52.4	15.5	6.02e-01	0	24	0	268435456	68	4851
2026-01-09 05:11:12.58	279.05	8.93	-50.4	-52.3	15.5	6.02e-01	0	24	0	273678336	68	4813
2026-01-09 05:11:15.59	278.71	8.71	-50.7	-52.8	15.5	6.03e-01	0	24	0	279445504	69	4781
2026-01-09 05:11:18.59	278.38	8.49	-50.6	-52.6	15.6	6.02e-01	0	24	0	285212672	69	4699
2026-01-09 05:11:21.59	278.05	8.27	-50.5	-52.5	15.7	6.05e-01	0	24	0	290979840	69	4617
2026-01-09 05:11:24.59	277.73	8.06	-50.6	-52.6	15.6	6.02e-01	0	24	0	296222720	69	4694
2026-01-09 05:11:27.59	277.42	7.85	-50.6	-52.7	15.6	6.02e-01	0	24	0	301989888	69	4710
2026-01-09 05:11:30.58	277.11	7.64	-50.8	-53.0	15.4	6.04e-01	0	24	0	307757056	69	4884
2026-01-09 05:11:33.59	276.80	7.42	-50.8	-52.9	15.4	6.05e-01	0	24	0	313524224	69	4858
2026-01-09 05:11:36.58	276.51	7.22	-50.7	-52.7	15.5	6.01e-01	0	24	0	318767104	69	4749
2026-01-09 05:11:39.57	276.21	7.01	-50.9	-53.0	15.4	6.04e-01	0	24	0	324534272	69	4911
2026-01-09 05:11:42.56	275.92	6.80	-50.8	-53.0	15.4	6.01e-01	0	24	0	330301440	69	4891
2026-01-09 05:11:45.56	275.64	6.60	-51.0	-53.2	15.3	6.01e-01	0	24	0	335544320	69	4984
2026-01-09 05:11:48.55	275.36	6.39	-50.9	-53.1	15.4	6.06e-01	0	24	0	341311488	69	4931
2026-01-09 05:11:51.55	275.08	6.19	-51.2	-53.5	15.4	6.02e-01	0	24	0	347078656	70	4901
2026-01-09 05:11:54.53	274.81	5.99	-51.3	-53.7	15.3	6.01e-01	0	24	0	352321536	70	4998
2026-01-09 05:11:57.53	274.54	5.79	-51.3	-53.7	15.3	6.04e-01	0	23	0	358088704	70	5001
2026-01-09 05:12:00.52	274.28	5.59	-51.2	-53.5	15.4	6.04e-01	0	24	0	363855872	70	4909
2026-01-09 05:12:03.52	274.02	5.39	-51.1	-53.4	15.4	6.04e-01	0	24	0	369623040	70	4846
2026-01-09 05:12:06.52	273.76	5.19	-51.4	-53.7	15.3	6.01e-01	0	24	0	374865920	70	5025
2026-01-09 05:12:09.52	273.51	4.99	-52.2	-55.1	15.0	6.03e-01	0	24	0	380633088	72	5233
2026-01-09 05:12:12.52	273.26	4.80	-58.0	-77.3	3.8	7.47e-01	0	24	104	381157376	83	35919
2026-01-09 05:12:15.51	273.01	4.60	-58.6	-77.9	3.8	7.45e-01	0	24	104	381157376	84	36378
2026-01-09 05:12:18.50	272.77	4.41	-58.9	-78.2	3.8	7.47e-01	0	24	104	381157376	85	35649
2026-01-09 05:12:21.50	272.54	4.22	-59.1	-78.4	3.8	7.44e-01	0	24	104	381157376	85	36405
2026-01-09 05:12:24.51	272.30	4.03	-59.3	-78.7	3.8	7.43e-01	0	24	104	381157376	86	35288
2026-01-09 05:12:27.51	272.07	3.84	-59.4	-78.8	3.8	7.45e-01	0	24	104	381157376	86	35951
2026-01-09 05:12:30.52	271.84	3.65	-59.4	-78.8	3.8	7.48e-01	0	24	104	381157376	86	35990
2026-01-09 05:12:33.52	271.62	3.46	-59.4	-78.7	3.8	7.49e-01	0	24	104	381157376	86	35655
2026-01-09 05:12:36.52	271.40	3.27	-59.3	-78.7	3.8	7.44e-01	0	24	104	381157376	86	35284
2026-01-09 05:12:39.51	271.18	3.09	-59.3	-78.6	3.8	7.45e-01	0	24	104	381157376	86	35177
2026-01-09 05:12:42.51	270.97	2.90	-59.2	-78.6	3.8	7.40e-01	0	24	104	381157376	86	35039
2026-01-09 05:12:45.50	270.76	2.72	-59.2	-78.6	3.8	7.46e-01	0	24	104	381157376	86	34977
2026-01-09 05:12:48.50	270.55	2.54	-59.2	-78.6	3.8	7.48e-01	0	24	104	381157376	86	34917
2026-01-09 05:12:51.51	270.34	2.35	-59.2	-78.5	3.8	7.45e-01	0	24	104	381157376	86	34731
2026-01-09 05:12:54.50	270.14	2.17	-59.1	-78.5	3.8	7.46e-01	0	24	104	381157376	86	34665
2026-01-09 05:12:57.49	269.94	1.99	-59.1	-78.5	3.8	7.45e-01	0	24	104	381157376	86	34625

#Closed at: 2026-01-09 05:13:00
#Recorded file [381 MB]: D:/lorett/data/31004_260109_080128.dat