passes_logs/2026/01/09/R3.2S_Murmansk/R3.2S_Murmansk__20260109_080113_SUOMI_NPP_rec.log

#Pass ID: 20260109_080113_SUOMI NPP
#Satellite: SUOMI NPP
#Configuration: NPP
#almurnet v.1.7.20251203
#Start time: 2026-01-09 08:01:13

#Version: 2.2.20231116
#Station: R3.2S_Murmansk
#Location: 33.079688 lon 68.888172 lat
#TLE: 1 37849U 11061A   26008.05542337  .00000108  00000+0  71976-4 0  9997
#TLE: 2 37849  98.7805 310.1641 0002540  75.6410 284.5048 14.19523335735721

#Time	Az	El	Level	Level2	SNR	BER	BlckErr	Temp	State	Recorded	gain1	gain2
2026-01-09 08:01:13.45	115.22	1.99	-57.4	-73.4	3.8	1.49e+00	0	21	0	0	81	22182
2026-01-09 08:01:17.47	115.08	2.25	-57.4	-73.4	3.8	1.49e+00	0	22	104	0	79	24735
2026-01-09 08:01:21.51	114.94	2.50	-57.4	-73.3	3.8	1.49e+00	0	22	104	0	79	24693
2026-01-09 08:01:25.54	114.79	2.75	-57.4	-73.3	3.8	1.49e+00	0	22	104	0	79	24431
2026-01-09 08:01:29.58	114.65	3.01	-57.4	-73.1	3.8	1.49e+00	0	22	104	0	79	24123
2026-01-09 08:01:33.61	114.49	3.27	-57.4	-72.9	3.8	1.49e+00	0	22	104	0	79	23515
2026-01-09 08:01:37.64	114.34	3.54	-57.4	-72.8	3.8	1.49e+00	0	22	104	0	79	23233
2026-01-09 08:01:41.67	114.18	3.80	-57.4	-73.4	3.8	1.49e+00	0	22	104	0	79	24817
2026-01-09 08:01:45.70	114.02	4.07	-57.3	-70.3	3.9	1.48e+00	0	23	104	0	79	17415
2026-01-09 08:01:49.74	113.86	4.34	-56.9	-66.0	6.1	3.61e-01	0	23	0	5242880	79	10553
2026-01-09 08:01:53.77	113.69	4.61	-56.3	-62.7	8.8	3.16e-02	0	23	0	13631488	79	7231
2026-01-09 08:01:57.81	113.52	4.88	-54.9	-58.9	11.9	3.43e-05	0	23	0	20971520	76	5547
2026-01-09 08:02:01.84	113.35	5.16	-56.3	-62.2	9.5	3.44e-03	0	23	0	28311552	78	7236
2026-01-09 08:02:05.87	113.17	5.44	-57.4	-67.8	5.3	2.26e-02	0	23	0	35651584	79	12972
2026-01-09 08:02:09.91	112.99	5.72	-57.4	-67.7	5.2	5.88e-01	0	23	0	42991616	80	12127
2026-01-09 08:02:13.94	112.81	6.01	-56.0	-61.1	10.5	1.09e-01	0	23	0	49283072	78	6355
2026-01-09 08:02:17.97	112.62	6.30	-55.0	-58.9	12.1	8.30e-06	0	23	0	55574528	76	5572
2026-01-09 08:02:22.00	112.43	6.59	-54.5	-57.9	12.7	7.00e-07	0	23	0	62914560	75	5245
2026-01-09 08:02:26.04	112.23	6.88	-54.7	-58.3	12.4	7.60e-06	0	23	0	70254592	75	5523
2026-01-09 08:02:30.08	112.03	7.18	-54.7	-58.2	12.3	1.50e-06	0	23	0	78643200	75	5460
2026-01-09 08:02:34.10	111.82	7.48	-54.4	-57.6	13.0	0.00e+00	0	23	0	85983232	75	5082
2026-01-09 08:02:38.14	111.61	7.78	-54.1	-57.3	13.1	7.00e-07	0	23	0	93323264	74	5165
2026-01-09 08:02:42.18	111.40	8.09	-53.5	-56.3	13.7	0.00e+00	0	23	0	100663296	73	4892
2026-01-09 08:02:46.21	111.18	8.40	-53.6	-56.4	13.6	0.00e+00	0	23	0	109051904	73	4927
2026-01-09 08:02:50.25	110.95	8.71	-53.1	-55.6	14.0	0.00e+00	0	23	0	116391936	72	4797
2026-01-09 08:02:54.28	110.72	9.03	-53.1	-55.6	14.0	0.00e+00	0	23	0	123731968	72	4782
2026-01-09 08:02:58.31	110.49	9.35	-53.1	-55.6	14.0	0.00e+00	0	23	0	131072000	72	4801
2026-01-09 08:03:02.34	110.25	9.67	-52.8	-55.2	14.3	0.00e+00	0	23	0	138412032	72	4561
2026-01-09 08:03:06.36	110.00	10.00	-53.4	-56.0	13.8	0.00e+00	0	23	0	146800640	72	5006
2026-01-09 08:03:10.39	109.75	10.33	-52.8	-55.4	14.1	0.00e+00	0	23	0	154140672	72	4696
2026-01-09 08:03:14.42	109.49	10.67	-52.5	-55.0	14.3	0.00e+00	0	23	0	161480704	71	4731
2026-01-09 08:03:18.46	109.23	11.01	-52.5	-55.1	14.2	0.00e+00	0	23	0	168820736	71	4783
2026-01-09 08:03:22.49	108.96	11.35	-52.6	-55.2	14.2	0.00e+00	0	23	0	176160768	71	4849
2026-01-09 08:03:26.53	108.68	11.70	-52.4	-54.9	14.4	0.00e+00	0	23	0	184549376	71	4677
2026-01-09 08:03:30.56	108.39	12.05	-52.8	-55.4	14.1	0.00e+00	0	23	0	191889408	71	4934
2026-01-09 08:03:34.60	108.10	12.41	-52.9	-55.6	14.0	0.00e+00	0	23	0	199229440	71	5046
2026-01-09 08:03:38.64	107.80	12.77	-52.8	-55.4	14.1	0.00e+00	0	24	0	206569472	71	4929
2026-01-09 08:03:42.67	107.49	13.14	-52.6	-55.1	14.3	0.00e+00	0	23	0	213909504	71	4768
2026-01-09 08:03:46.71	107.18	13.51	-53.0	-55.7	13.9	0.00e+00	0	23	0	222298112	71	5113
2026-01-09 08:03:50.74	106.85	13.88	-53.2	-56.1	13.6	0.00e+00	0	24	0	229638144	71	5376
2026-01-09 08:03:54.77	106.52	14.26	-53.7	-56.8	13.4	0.00e+00	0	24	0	236978176	72	5481
2026-01-09 08:03:58.81	106.18	14.65	-53.8	-57.0	13.2	0.00e+00	0	24	0	244318208	72	5636
2026-01-09 08:04:02.84	105.83	15.04	-54.6	-58.3	12.5	0.00e+00	0	24	0	252706816	74	5800
2026-01-09 08:04:06.87	105.47	15.43	-54.3	-57.7	13.0	0.00e+00	0	24	0	260046848	74	5415
2026-01-09 08:04:10.91	105.10	15.83	-54.4	-57.8	12.9	0.00e+00	0	23	0	267386880	74	5471
2026-01-09 08:04:14.95	104.71	16.24	-55.1	-59.0	12.2	3.80e-06	0	24	0	274726912	75	5944
2026-01-09 08:04:18.99	104.32	16.65	-55.8	-60.2	11.5	2.59e-05	0	24	0	282066944	76	6436
2026-01-09 08:04:23.02	103.92	17.07	-56.0	-60.7	11.1	7.01e-05	0	23	0	290455552	77	6463
2026-01-09 08:04:27.04	103.51	17.49	-56.6	-62.0	10.1	6.85e-04	0	24	0	297795584	78	7100
2026-01-09 08:04:31.07	103.08	17.92	-56.7	-62.3	9.9	3.23e-03	0	24	0	305135616	78	7327
2026-01-09 08:04:35.11	102.64	18.36	-57.0	-63.4	8.8	1.57e-02	0	24	0	312475648	79	7899
2026-01-09 08:04:39.15	102.18	18.80	-57.3	-64.4	8.0	3.48e-02	0	24	0	319815680	79	8846
2026-01-09 08:04:43.18	101.72	19.24	-57.5	-65.1	7.4	6.31e-02	0	24	0	328204288	80	8981
2026-01-09 08:04:47.21	101.24	19.69	-58.4	-74.0	3.8	1.49e+00	0	24	104	332398592	81	23704
2026-01-09 08:04:51.24	100.74	20.15	-58.3	-72.9	3.8	1.49e+00	0	24	104	332398592	81	21000
2026-01-09 08:04:55.28	100.23	20.62	-58.4	-73.7	3.8	1.49e+00	0	24	104	332398592	82	21710
2026-01-09 08:04:59.31	99.70	21.09	-58.4	-73.2	3.8	1.49e+00	0	24	104	332398592	82	20387
2026-01-09 08:05:03.34	99.16	21.57	-58.5	-74.5	3.8	1.49e+00	0	24	104	332398592	82	23633
2026-01-09 08:05:07.37	98.60	22.05	-58.4	-73.4	3.8	1.49e+00	0	24	104	332398592	82	20801
2026-01-09 08:05:11.40	98.02	22.54	-58.5	-74.1	3.8	1.49e+00	0	24	104	332398592	82	22543
2026-01-09 08:05:15.43	97.42	23.03	-58.5	-73.5	3.8	1.49e+00	0	24	104	332398592	82	21109
2026-01-09 08:05:19.47	96.80	23.53	-58.5	-74.5	3.8	1.49e+00	0	24	104	332398592	82	23798
2026-01-09 08:05:23.50	96.16	24.04	-58.5	-73.1	3.8	1.49e+00	0	24	104	332398592	82	20076
2026-01-09 08:05:27.53	95.50	24.55	-58.5	-74.5	3.8	1.49e+00	0	24	104	332398592	82	23817
2026-01-09 08:05:31.57	94.81	25.08	-58.5	-73.4	3.8	1.49e+00	0	24	104	332398592	82	20819
2026-01-09 08:05:35.61	94.11	25.60	-58.6	-74.5	3.8	1.49e+00	0	24	104	332398592	82	23844
2026-01-09 08:05:39.65	93.37	26.13	-58.5	-73.2	3.8	1.49e+00	0	24	104	332398592	82	20485
2026-01-09 08:05:43.68	92.62	26.67	-58.6	-73.9	3.8	1.49e+00	0	24	104	332398592	82	22179
2026-01-09 08:05:47.72	91.83	27.21	-58.6	-74.0	3.8	1.49e+00	0	24	104	332398592	82	22456
2026-01-09 08:05:51.75	91.02	27.75	-58.6	-74.1	3.8	1.49e+00	0	24	104	332398592	82	22601
2026-01-09 08:05:55.78	90.19	28.30	-58.6	-74.3	3.8	1.49e+00	0	24	104	332398592	82	23125
2026-01-09 08:05:59.81	89.32	28.86	-58.6	-74.4	3.8	1.49e+00	0	24	104	332398592	82	23333
2026-01-09 08:06:03.84	88.42	29.41	-58.6	-74.4	3.8	1.49e+00	0	24	104	332398592	82	23314
2026-01-09 08:06:07.87	87.49	29.97	-58.6	-74.5	3.8	1.49e+00	0	24	104	332398592	82	23645
2026-01-09 08:06:11.90	86.53	30.53	-58.6	-74.4	3.8	1.49e+00	0	24	104	332398592	82	23533
2026-01-09 08:06:15.93	85.53	31.09	-58.7	-74.6	3.8	1.49e+00	0	24	104	332398592	82	24014
2026-01-09 08:06:19.96	84.49	31.66	-58.6	-73.9	3.8	1.49e+00	0	24	104	332398592	82	22247
2026-01-09 08:06:23.99	83.42	32.22	-58.7	-74.5	3.8	1.49e+00	0	24	104	332398592	82	23633
2026-01-09 08:06:28.02	82.31	32.78	-58.7	-74.2	3.8	1.49e+00	0	24	104	332398592	82	22903
2026-01-09 08:06:32.05	81.17	33.34	-58.7	-74.7	3.8	1.49e+00	0	24	104	332398592	82	24238
2026-01-09 08:06:36.09	79.98	33.89	-58.7	-74.7	3.8	1.49e+00	0	24	104	332398592	82	24168
2026-01-09 08:06:40.12	78.75	34.45	-58.7	-74.2	3.8	1.49e+00	0	24	104	332398592	82	22912
2026-01-09 08:06:44.16	77.47	34.99	-58.7	-74.2	3.8	1.49e+00	0	24	104	332398592	82	23001
2026-01-09 08:06:48.19	76.16	35.53	-58.7	-74.5	3.8	1.49e+00	0	24	104	332398592	82	23640
2026-01-09 08:06:52.22	74.80	36.06	-58.7	-74.6	3.8	1.49e+00	0	24	104	332398592	82	23924
2026-01-09 08:06:56.26	73.39	36.58	-58.7	-74.7	3.8	1.49e+00	0	24	104	332398592	82	24379
2026-01-09 08:07:00.29	71.94	37.08	-58.8	-74.8	3.8	1.49e+00	0	24	104	332398592	82	24440
2026-01-09 08:07:04.32	70.45	37.57	-58.7	-74.7	3.8	1.49e+00	0	24	104	332398592	82	24376
2026-01-09 08:07:08.36	68.90	38.05	-58.8	-74.6	3.8	1.49e+00	0	24	104	332398592	82	23967
2026-01-09 08:07:12.39	67.32	38.51	-58.8	-74.5	3.8	1.49e+00	0	24	104	332398592	82	23803
2026-01-09 08:07:16.43	65.69	38.95	-58.8	-74.5	3.8	1.49e+00	0	24	104	332398592	82	23744
2026-01-09 08:07:20.46	64.02	39.36	-58.8	-74.6	3.8	1.49e+00	0	24	104	332398592	82	23927
2026-01-09 08:07:24.50	62.30	39.75	-58.8	-74.8	3.8	1.49e+00	0	24	104	332398592	82	24432
2026-01-09 08:07:28.53	60.54	40.12	-58.8	-74.8	3.8	1.49e+00	0	24	104	332398592	82	24424
2026-01-09 08:07:32.57	58.75	40.46	-58.8	-74.8	3.8	1.49e+00	0	24	104	332398592	82	24673
2026-01-09 08:07:36.60	56.92	40.77	-58.8	-74.9	3.8	1.49e+00	0	24	104	332398592	82	24714
2026-01-09 08:07:40.64	55.05	41.05	-58.9	-74.8	3.8	1.49e+00	0	24	104	332398592	82	24658
2026-01-09 08:07:44.68	53.15	41.29	-58.9	-74.8	3.8	1.49e+00	0	24	104	332398592	82	24486
2026-01-09 08:07:48.71	51.23	41.50	-58.9	-74.7	3.8	1.49e+00	0	24	104	332398592	82	24285
2026-01-09 08:07:52.74	49.29	41.67	-58.9	-74.6	3.8	1.49e+00	0	24	104	332398592	82	24082
2026-01-09 08:07:56.78	47.32	41.81	-58.8	-74.6	3.8	1.49e+00	0	24	104	332398592	82	23924
2026-01-09 08:08:00.81	45.34	41.91	-58.9	-74.7	3.8	1.49e+00	0	24	104	332398592	82	24247
2026-01-09 08:08:04.84	43.36	41.97	-58.9	-74.7	3.8	1.49e+00	0	24	104	332398592	82	24255
2026-01-09 08:08:08.88	41.36	41.99	-58.9	-74.7	3.8	1.49e+00	0	24	104	332398592	82	24375
2026-01-09 08:08:12.92	39.36	41.97	-58.9	-74.8	3.8	1.49e+00	0	24	104	332398592	82	24498
2026-01-09 08:08:16.94	37.38	41.91	-58.9	-74.9	3.8	1.49e+00	0	24	104	332398592	82	24752
2026-01-09 08:08:20.97	35.41	41.82	-58.9	-74.9	3.8	1.49e+00	0	24	104	332398592	82	24718
2026-01-09 08:08:25.00	33.44	41.68	-58.9	-74.9	3.8	1.49e+00	0	24	104	332398592	82	24747
2026-01-09 08:08:29.03	31.50	41.51	-58.9	-74.9	3.8	1.49e+00	0	24	104	332398592	82	24761
2026-01-09 08:08:33.06	29.58	41.30	-58.9	-74.9	3.8	1.49e+00	0	24	104	332398592	82	24770
2026-01-09 08:08:37.10	27.68	41.06	-58.9	-74.9	3.8	1.49e+00	0	24	104	332398592	82	24734
2026-01-09 08:08:41.13	25.82	40.79	-58.9	-74.8	3.8	1.49e+00	0	24	104	332398592	82	24688
2026-01-09 08:08:45.17	23.98	40.48	-58.9	-74.9	3.8	1.49e+00	0	24	104	332398592	82	24716
2026-01-09 08:08:49.20	22.19	40.14	-58.9	-74.8	3.8	1.49e+00	0	24	104	332398592	82	24538
2026-01-09 08:08:53.24	20.43	39.78	-58.9	-74.8	3.8	1.49e+00	0	24	104	332398592	82	24608
2026-01-09 08:08:57.27	18.72	39.39	-58.9	-74.8	3.8	1.49e+00	0	24	104	332398592	82	24427
2026-01-09 08:09:01.31	17.04	38.98	-58.9	-74.7	3.8	1.49e+00	0	24	104	332398592	82	24251
2026-01-09 08:09:05.34	15.41	38.54	-58.8	-74.8	3.8	1.49e+00	0	24	104	332398592	82	24449
2026-01-09 08:09:09.37	13.83	38.08	-58.8	-74.7	3.8	1.49e+00	0	24	104	332398592	82	24302
2026-01-09 08:09:13.40	12.29	37.61	-58.8	-74.7	3.8	1.49e+00	0	24	104	332398592	82	24386
2026-01-09 08:09:17.43	10.79	37.12	-58.8	-74.7	3.8	1.49e+00	0	24	104	332398592	82	24227
2026-01-09 08:09:21.47	9.34	36.62	-58.8	-74.8	3.8	1.49e+00	0	24	104	332398592	82	24516
2026-01-09 08:09:25.49	7.94	36.10	-58.8	-74.8	3.8	1.49e+00	0	24	104	332398592	82	24436
2026-01-09 08:09:29.53	6.58	35.57	-58.8	-74.7	3.8	1.49e+00	0	24	104	332398592	82	24347
2026-01-09 08:09:33.57	5.26	35.04	-58.8	-74.7	3.8	1.49e+00	0	24	104	332398592	82	24407
2026-01-09 08:09:37.59	3.99	34.50	-58.8	-74.8	3.8	1.49e+00	0	24	104	332398592	82	24445
2026-01-09 08:09:41.62	2.76	33.95	-58.8	-74.7	3.8	1.49e+00	0	24	104	332398592	82	24332
2026-01-09 08:09:45.66	1.57	33.39	-58.8	-74.8	3.8	1.49e+00	0	24	104	332398592	82	24502
2026-01-09 08:09:49.69	0.42	32.83	-58.8	-74.7	3.8	1.49e+00	0	24	104	332398592	82	24315
2026-01-09 08:09:53.73	359.31	32.27	-58.8	-74.8	3.8	1.49e+00	0	24	104	332398592	82	24468
2026-01-09 08:09:57.76	358.24	31.71	-58.7	-74.7	3.8	1.49e+00	0	24	104	332398592	82	24344
2026-01-09 08:10:01.80	357.20	31.15	-58.7	-74.7	3.8	1.49e+00	0	24	104	332398592	82	24242
2026-01-09 08:10:05.84	356.20	30.59	-58.7	-74.6	3.8	1.49e+00	0	24	104	332398592	82	24114
2026-01-09 08:10:09.87	355.24	30.03	-58.7	-74.7	3.8	1.49e+00	0	24	104	332398592	82	24211
2026-01-09 08:10:13.90	354.31	29.47	-58.7	-74.7	3.8	1.49e+00	0	24	104	332398592	82	24176
2026-01-09 08:10:17.94	353.41	28.92	-58.7	-74.7	3.8	1.49e+00	0	24	104	332398592	82	24176
2026-01-09 08:10:21.96	352.54	28.37	-58.7	-74.7	3.8	1.49e+00	0	24	104	332398592	82	24164
2026-01-09 08:10:26.00	351.70	27.82	-58.6	-74.6	3.8	1.49e+00	0	24	104	332398592	82	24023
2026-01-09 08:10:30.02	350.89	27.28	-58.6	-74.6	3.8	1.49e+00	0	24	104	332398592	82	24065
2026-01-09 08:10:34.06	350.11	26.74	-58.6	-74.6	3.8	1.49e+00	0	24	104	332398592	82	24064
2026-01-09 08:10:38.10	349.35	26.20	-58.6	-74.6	3.8	1.49e+00	0	24	104	332398592	82	23990
2026-01-09 08:10:42.13	348.62	25.67	-58.6	-74.6	3.8	1.49e+00	0	24	104	332398592	82	23905
2026-01-09 08:10:46.17	347.92	25.15	-58.6	-74.6	3.8	1.49e+00	0	24	104	332398592	82	23885
2026-01-09 08:10:50.21	347.23	24.63	-58.5	-74.5	3.8	1.49e+00	0	24	104	332398592	82	23811
2026-01-09 08:10:54.23	346.57	24.12	-58.5	-74.5	3.8	1.49e+00	0	24	104	332398592	82	23593
2026-01-09 08:10:58.27	345.93	23.61	-58.5	-74.4	3.8	1.49e+00	0	24	104	332398592	82	23470
2026-01-09 08:11:02.30	345.32	23.11	-58.5	-74.4	3.8	1.49e+00	0	24	104	332398592	82	23526
2026-01-09 08:11:06.34	344.72	22.61	-58.5	-74.4	3.8	1.49e+00	0	24	104	332398592	82	23370
2026-01-09 08:11:10.37	344.14	22.12	-58.4	-74.3	3.8	1.49e+00	0	24	104	332398592	82	23271
2026-01-09 08:11:14.41	343.58	21.64	-58.4	-74.3	3.8	1.49e+00	0	24	104	332398592	82	23203
2026-01-09 08:11:18.44	343.03	21.17	-58.4	-74.3	3.8	1.49e+00	0	24	104	332398592	82	23279
2026-01-09 08:11:22.47	342.51	20.70	-58.4	-74.3	3.8	1.49e+00	0	24	104	332398592	82	23091
2026-01-09 08:11:26.51	342.00	20.23	-58.4	-74.3	3.8	1.49e+00	0	24	104	332398592	82	23198
2026-01-09 08:11:30.54	341.50	19.77	-58.4	-74.4	3.8	1.49e+00	0	24	104	332398592	82	23326
2026-01-09 08:11:34.57	341.02	19.32	-58.4	-74.4	3.8	1.49e+00	0	24	104	332398592	82	23346
2026-01-09 08:11:38.60	340.56	18.88	-58.4	-74.4	3.8	1.49e+00	0	24	104	332398592	82	23366
2026-01-09 08:11:42.64	340.10	18.44	-58.3	-74.3	3.8	1.49e+00	0	24	104	332398592	82	23294
2026-01-09 08:11:46.67	339.66	18.00	-58.3	-74.3	3.8	1.49e+00	0	24	104	332398592	82	23167
2026-01-09 08:11:50.70	339.24	17.58	-58.3	-74.2	3.8	1.49e+00	0	24	104	332398592	82	23015
2026-01-09 08:11:54.73	338.82	17.15	-58.3	-74.2	3.8	1.49e+00	0	24	104	332398592	82	22910
2026-01-09 08:11:58.76	338.42	16.74	-58.3	-74.0	3.8	1.49e+00	0	24	104	332398592	82	22469
2026-01-09 08:12:02.81	338.03	16.33	-58.2	-73.9	3.8	1.49e+00	0	24	104	332398592	82	22069
2026-01-09 08:12:06.84	337.65	15.92	-58.2	-73.6	3.8	1.49e+00	0	24	104	332398592	82	21263
2026-01-09 08:12:10.87	337.28	15.52	-58.2	-74.1	3.8	1.49e+00	0	24	104	332398592	82	22629
2026-01-09 08:12:14.91	336.92	15.12	-58.1	-73.3	3.8	1.49e+00	0	24	104	332398592	82	20705
2026-01-09 08:12:18.95	336.57	14.73	-58.1	-73.8	3.8	1.49e+00	0	24	104	332398592	82	21889
2026-01-09 08:12:22.98	336.23	14.35	-58.1	-73.2	3.8	1.49e+00	0	24	104	332398592	82	20444
2026-01-09 08:12:27.01	335.90	13.97	-58.1	-73.9	3.8	1.49e+00	0	24	104	332398592	82	22121
2026-01-09 08:12:31.05	335.58	13.59	-58.0	-73.4	3.8	1.49e+00	0	24	104	332398592	82	20939
2026-01-09 08:12:35.09	335.26	13.22	-58.0	-73.8	3.8	1.49e+00	0	24	104	332398592	82	21893
2026-01-09 08:12:39.12	334.96	12.86	-58.0	-73.2	3.8	1.49e+00	0	24	104	332398592	82	20437
2026-01-09 08:12:43.16	334.66	12.50	-57.9	-73.8	3.8	1.49e+00	0	24	104	332398592	82	21892
2026-01-09 08:12:47.19	334.37	12.14	-57.9	-73.1	3.8	1.49e+00	0	24	104	332398592	82	20219
2026-01-09 08:12:51.23	334.08	11.79	-57.9	-73.8	3.8	1.49e+00	0	24	104	332398592	82	21964
2026-01-09 08:12:55.25	333.81	11.44	-57.8	-73.2	3.8	1.49e+00	0	24	104	332398592	82	20461
2026-01-09 08:12:59.28	333.54	11.10	-57.8	-73.7	3.8	1.49e+00	0	24	104	332398592	81	22882
2026-01-09 08:13:03.32	333.27	10.76	-57.7	-73.1	3.8	1.49e+00	0	24	104	332398592	81	21411
2026-01-09 08:13:07.35	333.02	10.42	-57.7	-73.6	3.8	1.49e+00	0	24	104	332398592	81	22676
2026-01-09 08:13:11.38	332.77	10.09	-57.7	-73.2	3.8	1.49e+00	0	24	104	332398592	81	21545
2026-01-09 08:13:15.42	332.52	9.77	-57.6	-73.1	3.8	1.49e+00	0	24	104	332398592	81	21472
2026-01-09 08:13:19.46	332.28	9.44	-57.6	-73.2	3.8	1.49e+00	0	24	104	332398592	81	21560
2026-01-09 08:13:23.48	332.05	9.12	-57.5	-73.1	3.8	1.49e+00	0	24	104	332398592	81	21427
2026-01-09 08:13:27.50	331.82	8.81	-57.5	-73.2	3.8	1.49e+00	0	24	104	332398592	81	21592
2026-01-09 08:13:31.53	331.60	8.49	-57.5	-73.1	3.8	1.49e+00	0	24	104	332398592	81	21492
2026-01-09 08:13:35.57	331.38	8.18	-57.4	-73.1	3.8	1.49e+00	0	24	104	332398592	80	22613
2026-01-09 08:13:39.61	331.17	7.88	-57.3	-73.1	3.8	1.49e+00	0	24	104	332398592	80	22528
2026-01-09 08:13:43.64	330.96	7.57	-57.2	-73.0	3.8	1.49e+00	0	24	104	332398592	80	22310
2026-01-09 08:13:47.68	330.76	7.27	-57.2	-72.9	3.8	1.49e+00	0	24	104	332398592	80	22254
2026-01-09 08:13:51.72	330.56	6.98	-57.1	-72.9	3.8	1.49e+00	0	24	104	332398592	80	22012
2026-01-09 08:13:55.75	330.36	6.68	-57.0	-72.8	3.8	1.49e+00	0	24	104	332398592	80	21949
2026-01-09 08:13:59.78	330.17	6.39	-56.8	-72.7	3.8	1.49e+00	0	24	104	332398592	79	22893
2026-01-09 08:14:03.81	329.99	6.10	-56.7	-72.6	3.8	1.49e+00	0	24	104	332398592	79	22695
2026-01-09 08:14:07.85	329.80	5.82	-56.6	-72.5	3.8	1.49e+00	0	24	104	332398592	79	22449
2026-01-09 08:14:11.87	329.62	5.54	-55.0	-70.9	3.8	1.49e+00	0	24	104	332398592	76	22057
2026-01-09 08:14:15.90	329.45	5.26	-55.0	-70.9	3.8	1.49e+00	0	24	104	332398592	76	22021
2026-01-09 08:14:19.88	329.28	4.99	-54.9	-70.7	3.8	1.49e+00	0	24	104	332398592	75	22881
2026-01-09 08:14:23.85	329.12	4.72	-54.9	-70.6	3.8	1.49e+00	0	24	104	332398592	75	22769
2026-01-09 08:14:27.83	328.95	4.45	-54.9	-70.8	3.8	1.49e+00	0	24	104	332398592	75	23088
2026-01-09 08:14:31.82	328.79	4.18	-54.9	-70.8	3.8	1.49e+00	0	24	104	332398592	75	23093
2026-01-09 08:14:35.84	328.64	3.91	-54.9	-70.8	3.8	1.49e+00	0	24	104	332398592	75	23192
2026-01-09 08:14:39.86	328.48	3.65	-54.9	-70.8	3.8	1.49e+00	0	24	104	332398592	75	23164
2026-01-09 08:14:43.90	328.33	3.39	-54.9	-70.7	3.8	1.49e+00	0	24	104	332398592	75	22889
2026-01-09 08:14:47.93	328.18	3.13	-54.9	-70.6	3.8	1.49e+00	0	24	104	332398592	75	22650
2026-01-09 08:14:51.96	328.03	2.87	-54.9	-70.7	3.8	1.49e+00	0	24	104	332398592	75	22877
2026-01-09 08:14:55.99	327.89	2.62	-54.9	-70.7	3.8	1.49e+00	0	24	104	332398592	75	22981
2026-01-09 08:15:00.03	327.75	2.36	-54.9	-70.8	3.8	1.49e+00	0	24	104	332398592	75	23072
2026-01-09 08:15:04.04	327.61	2.11	-54.9	-70.8	3.8	1.49e+00	0	24	104	332398592	75	23238

#Closed at: 2026-01-09 08:15:07
#Recorded file [332 MB]: D:/lorett/data/31004_260109_110113.dat