passes_logs/2026/01/09/R3.2S_Murmansk/R3.2S_Murmansk__20260109_030400_SUOMI_NPP_rec.log

#Pass ID: 20260109_030400_SUOMI NPP
#Satellite: SUOMI NPP
#Configuration: NPP
#almurnet v.1.7.20251203
#Start time: 2026-01-09 03:04:02

#Version: 2.2.20231116
#Station: R3.2S_Murmansk
#Location: 33.079688 lon 68.888172 lat
#TLE: 1 37849U 11061A   26008.05542337  .00000108  00000+0  71976-4 0  9997
#TLE: 2 37849  98.7805 310.1641 0002540  75.6410 284.5048 14.19523335735721

#Time	Az	El	Level	Level2	SNR	BER	BlckErr	Temp	State	Recorded	gain1	gain2
2026-01-09 03:04:02.21	37.55	2.11	-57.2	-73.1	3.8	1.49e+00	0	22	0	0	80	22731
2026-01-09 03:04:06.24	37.36	2.35	-57.2	-73.1	3.8	1.49e+00	0	22	104	0	79	24108
2026-01-09 03:04:10.23	37.17	2.59	-57.2	-73.2	3.8	1.49e+00	0	22	104	0	79	24182
2026-01-09 03:04:14.23	36.97	2.84	-57.1	-73.1	3.8	1.49e+00	0	22	104	0	79	24035
2026-01-09 03:04:18.22	36.77	3.09	-57.1	-73.0	3.8	1.49e+00	0	22	104	0	79	23761
2026-01-09 03:04:22.21	36.57	3.34	-57.1	-73.1	3.8	1.49e+00	0	22	104	0	79	24034
2026-01-09 03:04:26.22	36.36	3.59	-57.2	-73.1	3.8	1.49e+00	0	23	104	0	79	24105
2026-01-09 03:04:30.22	36.15	3.84	-57.2	-73.1	3.8	1.49e+00	0	23	104	0	79	24109
2026-01-09 03:04:34.22	35.94	4.09	-57.2	-73.0	3.8	1.49e+00	0	22	104	0	79	23604
2026-01-09 03:04:38.20	35.72	4.35	-57.1	-71.6	3.8	1.49e+00	0	22	104	0	79	20265
2026-01-09 03:04:42.19	35.50	4.61	-57.0	-69.5	4.2	1.41e+00	0	23	0	0	79	15935
2026-01-09 03:04:46.17	35.27	4.87	-56.8	-67.1	5.2	5.92e-01	0	23	0	6291456	79	12037
2026-01-09 03:04:50.16	35.04	5.13	-57.1	-69.7	4.2	1.29e+00	0	23	0	12582912	79	16189
2026-01-09 03:04:54.14	34.81	5.40	-55.9	-62.2	9.0	3.14e-03	0	23	0	17825792	77	7673
2026-01-09 03:04:58.15	34.56	5.66	-54.2	-58.1	12.4	1.29e-05	0	23	0	25165824	75	5387
2026-01-09 03:05:02.15	34.32	5.93	-53.9	-57.4	12.8	0.00e+00	0	23	0	32505856	74	5275
2026-01-09 03:05:06.14	34.07	6.20	-53.5	-56.7	13.3	0.00e+00	0	23	0	39845888	73	5125
2026-01-09 03:05:10.15	33.81	6.48	-53.5	-56.7	13.3	0.00e+00	0	23	0	48234496	73	5119
2026-01-09 03:05:14.15	33.55	6.76	-53.4	-56.4	13.5	0.00e+00	0	23	0	55574528	73	4970
2026-01-09 03:05:18.15	33.29	7.04	-53.3	-56.2	13.6	0.00e+00	0	23	0	62914560	73	4868
2026-01-09 03:05:22.13	33.02	7.32	-53.1	-56.0	13.6	0.00e+00	0	23	0	70254592	72	5032
2026-01-09 03:05:26.12	32.74	7.60	-53.2	-56.2	13.6	0.00e+00	0	23	0	77594624	72	5117
2026-01-09 03:05:30.10	32.46	7.88	-52.8	-55.6	13.9	0.00e+00	0	23	0	84934656	72	4809
2026-01-09 03:05:34.09	32.17	8.17	-52.8	-55.6	13.8	0.00e+00	0	23	0	92274688	71	5086
2026-01-09 03:05:38.08	31.88	8.46	-52.9	-55.7	13.8	0.00e+00	0	23	0	99614720	71	5142
2026-01-09 03:05:42.06	31.58	8.76	-52.6	-55.3	14.1	0.00e+00	0	23	0	108003328	71	4881
2026-01-09 03:05:46.05	31.27	9.05	-52.5	-55.2	14.1	0.00e+00	0	23	0	115343360	71	4863
2026-01-09 03:05:50.05	30.96	9.35	-52.6	-55.3	14.1	0.00e+00	0	23	0	122683392	71	4894
2026-01-09 03:05:54.04	30.64	9.65	-52.4	-55.0	14.2	0.00e+00	0	23	0	130023424	71	4752
2026-01-09 03:05:58.04	30.31	9.96	-52.4	-54.9	14.3	0.00e+00	0	23	0	137363456	71	4693
2026-01-09 03:06:02.03	29.98	10.27	-52.3	-54.8	14.4	0.00e+00	0	23	0	144703488	71	4650
2026-01-09 03:06:06.01	29.64	10.57	-52.3	-54.7	14.4	0.00e+00	0	23	0	152043520	71	4565
2026-01-09 03:06:10.01	29.29	10.89	-52.5	-55.0	14.2	0.00e+00	0	23	0	160432128	71	4718
2026-01-09 03:06:14.00	28.93	11.20	-52.6	-55.1	14.2	0.00e+00	0	23	0	167772160	71	4775
2026-01-09 03:06:18.00	28.56	11.52	-52.3	-54.7	14.4	0.00e+00	0	23	0	175112192	71	4561
2026-01-09 03:06:21.98	28.19	11.85	-52.4	-54.8	14.3	0.00e+00	0	23	0	182452224	71	4624
2026-01-09 03:06:25.97	27.81	12.17	-52.4	-54.9	14.3	0.00e+00	0	23	0	189792256	71	4679
2026-01-09 03:06:29.97	27.42	12.50	-52.0	-54.3	14.5	0.00e+00	0	23	0	197132288	70	4628
2026-01-09 03:06:33.97	27.01	12.83	-52.0	-54.3	14.5	0.00e+00	0	23	0	204472320	70	4613
2026-01-09 03:06:37.96	26.60	13.16	-52.0	-54.2	14.6	0.00e+00	0	23	0	212860928	70	4574
2026-01-09 03:06:41.94	26.19	13.50	-52.0	-54.2	14.5	0.00e+00	0	23	0	220200960	70	4547
2026-01-09 03:06:45.94	25.76	13.84	-51.6	-53.6	14.8	0.00e+00	0	23	0	227540992	69	4499
2026-01-09 03:06:49.92	25.32	14.18	-51.8	-53.9	14.6	0.00e+00	0	23	0	234881024	69	4655
2026-01-09 03:06:53.91	24.87	14.53	-51.8	-53.9	14.6	0.00e+00	0	24	0	242221056	69	4682
2026-01-09 03:06:57.90	24.40	14.88	-51.9	-54.0	14.5	0.00e+00	0	23	0	249561088	69	4724
2026-01-09 03:07:01.90	23.93	15.23	-51.8	-53.9	14.6	0.00e+00	0	23	0	256901120	69	4655
2026-01-09 03:07:05.90	23.44	15.59	-51.9	-54.2	14.4	0.00e+00	0	24	0	264241152	69	4843
2026-01-09 03:07:09.90	22.95	15.95	-51.7	-53.9	14.6	0.00e+00	0	24	0	272629760	69	4652
2026-01-09 03:07:13.89	22.44	16.31	-51.9	-54.1	14.5	0.00e+00	0	24	0	279969792	69	4802
2026-01-09 03:07:17.88	21.92	16.68	-52.0	-54.1	14.5	0.00e+00	0	24	0	287309824	69	4809
2026-01-09 03:07:21.88	21.38	17.05	-51.8	-53.8	14.6	0.00e+00	0	23	0	294649856	69	4644
2026-01-09 03:07:25.87	20.83	17.42	-52.1	-54.2	14.4	0.00e+00	0	23	0	301989888	69	4865
2026-01-09 03:07:29.87	20.27	17.79	-52.7	-55.2	14.1	0.00e+00	0	24	0	309329920	70	5104
2026-01-09 03:07:33.86	19.69	18.17	-52.8	-55.2	14.0	0.00e+00	0	24	0	316669952	70	5146
2026-01-09 03:07:37.86	19.09	18.55	-52.6	-55.0	14.1	0.00e+00	0	24	0	325058560	70	5023
2026-01-09 03:07:41.84	18.49	18.93	-52.1	-54.3	14.5	0.00e+00	0	24	0	332398592	70	4612
2026-01-09 03:07:45.82	17.87	19.31	-52.0	-54.2	14.6	0.00e+00	0	24	0	339738624	70	4559
2026-01-09 03:07:49.81	17.23	19.70	-52.1	-54.4	14.5	0.00e+00	0	24	0	347078656	70	4657
2026-01-09 03:07:53.79	16.57	20.08	-52.0	-54.1	14.7	0.00e+00	0	24	0	354418688	70	4508
2026-01-09 03:07:57.78	15.90	20.47	-52.1	-54.3	14.6	0.00e+00	0	24	0	361758720	70	4634
2026-01-09 03:08:01.78	15.21	20.87	-52.1	-54.2	14.6	0.00e+00	0	24	0	369098752	70	4571
2026-01-09 03:08:05.77	14.50	21.26	-52.3	-54.5	14.5	0.00e+00	0	24	0	377487360	70	4719
2026-01-09 03:08:09.77	13.77	21.66	-52.5	-54.9	14.3	0.00e+00	0	24	0	384827392	70	4936
2026-01-09 03:08:13.75	13.02	22.05	-52.4	-54.7	14.3	0.00e+00	0	24	0	392167424	70	4851
2026-01-09 03:08:17.75	12.25	22.45	-52.4	-54.7	14.4	0.00e+00	0	24	0	399507456	70	4852
2026-01-09 03:08:21.75	11.47	22.85	-51.8	-53.8	14.8	0.00e+00	0	24	0	406847488	70	4388
2026-01-09 03:08:25.73	10.66	23.24	-52.1	-54.2	14.7	0.00e+00	0	24	0	414187520	70	4546
2026-01-09 03:08:29.72	9.83	23.64	-52.0	-54.1	14.7	0.00e+00	0	24	0	421527552	70	4508
2026-01-09 03:08:33.72	8.98	24.04	-52.2	-54.4	14.5	0.00e+00	0	24	0	429916160	70	4675
2026-01-09 03:08:37.71	8.11	24.43	-51.9	-54.0	14.8	0.00e+00	0	24	0	437256192	70	4443
2026-01-09 03:08:41.70	7.21	24.83	-52.4	-54.7	14.4	0.00e+00	0	24	0	444596224	70	4836
2026-01-09 03:08:45.69	6.29	25.22	-52.1	-54.1	14.7	0.00e+00	0	24	0	451936256	70	4542
2026-01-09 03:08:49.66	5.36	25.61	-53.0	-55.4	14.2	0.00e+00	0	24	0	459276288	71	4936
2026-01-09 03:08:53.65	4.39	25.99	-51.9	-53.8	14.9	0.00e+00	0	24	0	466616320	70	4368
2026-01-09 03:08:57.65	3.40	26.38	-51.5	-53.4	14.9	0.00e+00	0	24	0	473956352	69	4436
2026-01-09 03:09:01.64	2.39	26.75	-50.9	-52.7	15.1	0.00e+00	0	24	0	481296384	68	4324
2026-01-09 03:09:05.63	1.35	27.13	-51.9	-54.0	14.6	0.00e+00	0	24	0	489684992	69	4759
2026-01-09 03:09:09.62	0.29	27.50	-52.0	-54.2	14.5	0.00e+00	0	24	0	497025024	69	4843
2026-01-09 03:09:13.61	359.21	27.86	-53.0	-55.6	14.0	0.00e+00	0	24	0	504365056	71	5087
2026-01-09 03:09:17.60	358.09	28.21	-52.3	-54.4	14.5	0.00e+00	0	24	0	511705088	70	4705
2026-01-09 03:09:21.59	356.96	28.56	-52.3	-54.7	14.3	0.00e+00	0	24	0	519045120	70	4826
2026-01-09 03:09:25.58	355.80	28.90	-53.0	-55.6	14.0	0.00e+00	0	24	0	526385152	71	5097
2026-01-09 03:09:29.58	354.61	29.22	-53.8	-56.9	13.4	0.00e+00	0	24	0	533725184	72	5585
2026-01-09 03:09:33.56	353.40	29.54	-54.7	-58.5	12.7	7.00e-07	0	24	0	542113792	75	5641
2026-01-09 03:09:37.56	352.17	29.85	-53.2	-55.8	14.2	0.00e+00	0	24	0	549453824	73	4611
2026-01-09 03:09:41.55	350.91	30.14	-53.4	-56.3	13.7	0.00e+00	0	24	0	556793856	72	5218
2026-01-09 03:09:45.53	349.63	30.42	-53.0	-55.8	14.0	0.00e+00	0	24	0	564133888	72	4926
2026-01-09 03:09:49.52	348.33	30.69	-52.9	-55.6	14.1	0.00e+00	0	24	0	571473920	72	4799
2026-01-09 03:09:53.51	347.01	30.94	-52.9	-55.6	14.1	0.00e+00	0	24	0	578813952	71	5046
2026-01-09 03:09:57.52	345.66	31.18	-52.6	-55.0	14.4	0.00e+00	0	24	0	586153984	71	4715
2026-01-09 03:10:01.49	344.30	31.40	-53.7	-56.9	13.4	0.00e+00	0	24	0	593494016	72	5543
2026-01-09 03:10:05.48	342.92	31.61	-52.3	-54.6	14.6	0.00e+00	0	24	0	601882624	71	4544
2026-01-09 03:10:09.47	341.52	31.79	-52.5	-54.9	14.3	0.00e+00	0	24	0	609222656	70	4957
2026-01-09 03:10:13.45	340.11	31.96	-52.1	-54.4	14.6	0.00e+00	0	24	0	616562688	70	4668
2026-01-09 03:10:17.44	338.68	32.11	-52.6	-55.1	14.2	0.00e+00	0	24	0	623902720	70	5068
2026-01-09 03:10:21.43	337.24	32.24	-52.0	-54.2	14.6	0.00e+00	0	24	0	631242752	69	4816
2026-01-09 03:10:25.43	335.79	32.35	-53.3	-56.1	14.0	0.00e+00	0	24	0	638582784	73	4798
2026-01-09 03:10:29.42	334.33	32.44	-53.0	-55.5	14.1	0.00e+00	0	24	0	645922816	71	5023
2026-01-09 03:10:33.41	332.86	32.50	-52.7	-55.1	14.5	0.00e+00	0	24	0	654311424	72	4496
2026-01-09 03:10:37.40	331.39	32.55	-52.5	-54.7	14.4	0.00e+00	0	24	0	661651456	70	4853
2026-01-09 03:10:41.39	329.91	32.58	-53.1	-55.7	14.0	0.00e+00	0	24	0	668991488	71	5155
2026-01-09 03:10:45.39	328.43	32.58	-53.8	-56.8	13.6	0.00e+00	0	24	0	676331520	73	5185
2026-01-09 03:10:49.37	326.96	32.56	-53.3	-56.0	14.1	0.00e+00	0	24	0	683671552	73	4710
2026-01-09 03:10:53.35	325.49	32.52	-52.7	-55.1	14.4	0.00e+00	0	24	0	691011584	71	4771
2026-01-09 03:10:57.33	324.02	32.46	-53.7	-56.6	13.7	0.00e+00	0	24	0	698351616	72	5348
2026-01-09 03:11:01.33	322.56	32.38	-53.7	-56.5	13.8	0.00e+00	0	24	0	706740224	73	5014
2026-01-09 03:11:05.32	321.10	32.27	-53.6	-56.4	13.9	0.00e+00	0	24	0	714080256	73	4962
2026-01-09 03:11:09.32	319.65	32.15	-52.4	-54.7	14.5	0.00e+00	0	24	0	721420288	71	4577
2026-01-09 03:11:13.31	318.22	32.01	-53.1	-55.8	14.0	0.00e+00	0	24	0	728760320	71	5163
2026-01-09 03:11:17.31	316.80	31.84	-52.8	-55.3	14.2	0.00e+00	0	24	0	736100352	71	4909
2026-01-09 03:11:21.29	315.40	31.66	-52.6	-55.1	14.2	0.00e+00	0	24	0	743440384	70	5049
2026-01-09 03:11:25.29	314.01	31.46	-52.8	-55.4	14.1	0.00e+00	0	24	0	750780416	71	4979
2026-01-09 03:11:29.29	312.64	31.24	-52.7	-55.3	14.2	0.00e+00	0	24	0	758120448	71	4907
2026-01-09 03:11:33.27	311.29	31.01	-51.9	-54.0	14.8	0.00e+00	0	24	0	766509056	70	4486
2026-01-09 03:11:37.26	309.96	30.76	-52.7	-55.2	14.2	0.00e+00	0	24	0	773849088	70	5146
2026-01-09 03:11:41.25	308.65	30.50	-53.3	-56.0	13.8	0.00e+00	0	24	0	781189120	71	5330
2026-01-09 03:11:45.23	307.36	30.22	-53.5	-56.4	13.6	0.00e+00	0	24	0	788529152	72	5232
2026-01-09 03:11:49.21	306.10	29.93	-54.4	-57.9	12.8	0.00e+00	0	24	0	795869184	73	5900
2026-01-09 03:11:53.20	304.86	29.63	-53.6	-56.4	13.8	0.00e+00	0	24	0	803209216	73	4962
2026-01-09 03:11:57.20	303.64	29.31	-53.4	-56.3	13.9	0.00e+00	0	24	0	810549248	73	4904
2026-01-09 03:12:01.16	302.45	28.99	-52.4	-54.7	14.5	0.00e+00	0	24	0	818937856	71	4596
2026-01-09 03:12:05.15	301.28	28.65	-51.4	-53.5	14.7	0.00e+00	0	24	0	826277888	68	4740
2026-01-09 03:12:09.13	300.14	28.31	-52.2	-54.5	14.3	0.00e+00	0	24	0	833617920	69	5028
2026-01-09 03:12:13.13	299.02	27.95	-52.3	-54.6	14.6	0.00e+00	0	24	0	840957952	71	4504
2026-01-09 03:12:17.12	297.92	27.60	-52.8	-55.4	14.1	0.00e+00	0	24	0	848297984	70	5223
2026-01-09 03:12:21.12	296.85	27.23	-54.0	-56.9	13.6	0.00e+00	0	24	0	855638016	73	5265
2026-01-09 03:12:25.12	295.80	26.85	-52.8	-55.2	14.5	0.00e+00	0	24	0	862978048	72	4561
2026-01-09 03:12:29.11	294.78	26.48	-52.5	-54.6	14.7	0.00e+00	0	24	0	870318080	71	4545
2026-01-09 03:12:33.10	293.79	26.09	-51.7	-53.6	14.8	0.00e+00	0	24	0	878706688	69	4527
2026-01-09 03:12:37.09	292.81	25.71	-51.6	-53.6	14.8	0.00e+00	0	24	0	886046720	69	4502
2026-01-09 03:12:41.09	291.86	25.32	-51.9	-54.0	14.6	0.00e+00	0	24	0	893386752	69	4757
2026-01-09 03:12:45.08	290.94	24.93	-51.9	-54.0	14.6	0.00e+00	0	24	0	900726784	69	4716
2026-01-09 03:12:49.07	290.03	24.53	-51.7	-53.7	14.8	0.00e+00	0	24	0	908066816	69	4568
2026-01-09 03:12:53.06	289.15	24.14	-51.4	-53.3	14.9	0.00e+00	0	24	0	915406848	69	4380
2026-01-09 03:12:57.04	288.30	23.74	-49.9	-51.5	15.3	0.00e+00	0	24	0	922746880	66	4222
2026-01-09 03:13:01.02	287.46	23.34	-50.6	-52.3	14.9	0.00e+00	0	24	0	931135488	66	4623
2026-01-09 03:13:05.01	286.65	22.95	-50.7	-52.5	15.0	0.00e+00	0	24	0	938475520	67	4454
2026-01-09 03:13:08.99	285.86	22.55	-50.7	-52.4	15.1	0.00e+00	0	24	0	945815552	67	4428
2026-01-09 03:13:13.00	285.08	22.15	-50.9	-52.7	14.9	0.00e+00	0	24	0	953155584	67	4590
2026-01-09 03:13:16.98	284.33	21.75	-51.1	-52.9	14.8	0.00e+00	0	24	0	960495616	67	4700
2026-01-09 03:13:20.95	283.59	21.36	-50.5	-52.2	15.1	0.00e+00	0	24	0	967835648	67	4306
2026-01-09 03:13:24.93	282.88	20.97	-50.8	-52.6	14.9	0.00e+00	0	24	0	975175680	67	4528
2026-01-09 03:13:28.92	282.18	20.57	-51.3	-53.2	14.6	0.00e+00	0	24	0	982515712	67	4861
2026-01-09 03:13:32.90	281.50	20.18	-50.7	-52.4	15.0	0.00e+00	0	24	0	989855744	67	4435
2026-01-09 03:13:36.90	280.84	19.79	-50.3	-52.0	15.2	0.00e+00	0	24	0	998244352	67	4200
2026-01-09 03:13:40.90	280.19	19.40	-51.2	-53.0	14.7	0.00e+00	0	24	0	1005584384	67	4738
2026-01-09 03:13:44.90	279.56	19.02	-52.5	-54.8	14.4	0.00e+00	0	24	0	1012924416	70	4874
2026-01-09 03:13:48.90	278.95	18.63	-51.6	-53.6	14.8	0.00e+00	0	24	0	1020264448	69	4509
2026-01-09 03:13:52.89	278.35	18.25	-51.6	-53.5	14.8	0.00e+00	0	24	0	1027604480	69	4485
2026-01-09 03:13:56.88	277.76	17.88	-52.2	-54.4	14.4	0.00e+00	0	24	0	1034944512	69	4943
2026-01-09 03:14:00.87	277.20	17.50	-51.8	-53.8	14.7	0.00e+00	0	24	0	1043333120	69	4631
2026-01-09 03:14:04.85	276.64	17.13	-51.1	-53.0	14.9	0.00e+00	0	24	0	1050673152	68	4465
2026-01-09 03:14:08.85	276.10	16.76	-51.3	-53.2	14.8	0.00e+00	0	24	0	1058013184	68	4581
2026-01-09 03:14:12.85	275.57	16.39	-51.7	-53.7	14.6	0.00e+00	0	24	0	1065353216	68	4822
2026-01-09 03:14:16.86	275.06	16.03	-51.5	-53.4	14.7	0.00e+00	0	24	0	1072693248	68	4701
2026-01-09 03:14:20.86	274.55	15.67	-51.1	-52.9	14.9	0.00e+00	0	24	0	1080033280	68	4434
2026-01-09 03:14:24.85	274.06	15.31	-52.1	-54.2	14.5	0.00e+00	0	24	0	1087373312	69	4816
2026-01-09 03:14:28.82	273.59	14.96	-53.3	-56.0	13.7	0.00e+00	0	24	0	1095761920	71	5333
2026-01-09 03:14:32.82	273.12	14.60	-52.5	-54.7	14.4	0.00e+00	0	24	0	1103101952	71	4595
2026-01-09 03:14:36.81	272.66	14.26	-51.1	-52.9	15.0	0.00e+00	0	24	0	1110441984	68	4430
2026-01-09 03:14:40.80	272.22	13.91	-51.4	-53.4	14.7	0.00e+00	0	24	0	1117782016	68	4654
2026-01-09 03:14:44.81	271.78	13.57	-52.7	-55.2	14.0	0.00e+00	0	24	0	1125122048	70	5121
2026-01-09 03:14:48.81	271.36	13.23	-53.3	-56.1	13.7	0.00e+00	0	24	0	1132462080	71	5347
2026-01-09 03:14:52.80	270.94	12.89	-53.3	-56.0	13.8	0.00e+00	0	24	0	1139802112	72	5013
2026-01-09 03:14:56.79	270.54	12.56	-53.2	-55.9	13.9	0.00e+00	0	24	0	1148190720	72	4927
2026-01-09 03:15:00.76	270.15	12.23	-53.0	-55.5	14.1	0.00e+00	0	24	0	1155530752	72	4754
2026-01-09 03:15:04.75	269.76	11.91	-53.1	-55.7	14.0	0.00e+00	0	24	0	1162870784	72	4829
2026-01-09 03:15:08.73	269.38	11.58	-53.2	-55.9	13.8	0.00e+00	0	24	0	1170210816	72	4938
2026-01-09 03:15:12.73	269.01	11.26	-53.0	-55.6	14.0	0.00e+00	0	24	0	1177550848	72	4774
2026-01-09 03:15:16.74	268.65	10.95	-52.7	-55.2	14.1	0.00e+00	0	24	0	1184890880	71	4823
2026-01-09 03:15:20.72	268.30	10.63	-53.0	-55.6	13.8	0.00e+00	0	24	0	1192230912	71	5068
2026-01-09 03:15:24.72	267.95	10.32	-53.1	-55.8	13.6	0.00e+00	0	24	0	1199570944	71	5200
2026-01-09 03:15:28.71	267.61	10.01	-53.7	-56.8	13.1	0.00e+00	0	24	0	1207959552	72	5502
2026-01-09 03:15:32.70	267.28	9.71	-54.7	-58.5	12.2	0.00e+00	0	24	0	1215299584	74	5956
2026-01-09 03:15:36.69	266.96	9.40	-55.0	-59.2	11.8	1.98e-05	0	24	0	1222639616	75	6063
2026-01-09 03:15:40.69	266.64	9.10	-54.2	-57.6	13.0	7.00e-07	0	24	0	1229979648	75	5064
2026-01-09 03:15:44.70	266.33	8.80	-53.4	-56.4	13.6	0.00e+00	0	24	0	1237319680	73	4928
2026-01-09 03:15:48.71	266.03	8.51	-53.3	-56.1	13.7	0.00e+00	0	24	0	1244659712	73	4811
2026-01-09 03:15:52.69	265.73	8.22	-53.4	-56.2	13.7	0.00e+00	0	24	0	1251999744	73	4852
2026-01-09 03:15:56.68	265.44	7.93	-53.2	-56.0	13.9	0.00e+00	0	24	0	1260388352	73	4710
2026-01-09 03:16:00.67	265.15	7.64	-53.2	-56.0	13.7	0.00e+00	0	24	0	1267728384	72	4990
2026-01-09 03:16:04.66	264.87	7.36	-53.5	-56.4	13.4	0.00e+00	0	24	0	1275068416	72	5272
2026-01-09 03:16:08.66	264.60	7.07	-53.7	-56.8	13.1	0.00e+00	0	24	0	1282408448	72	5509
2026-01-09 03:16:12.63	264.33	6.79	-54.1	-57.7	12.7	0.00e+00	0	24	0	1289748480	73	5737
2026-01-09 03:16:16.63	264.07	6.52	-54.1	-57.6	12.7	0.00e+00	0	24	0	1297088512	73	5710
2026-01-09 03:16:20.63	263.81	6.24	-54.2	-57.8	12.5	0.00e+00	0	24	0	1304428544	73	5794
2026-01-09 03:16:24.62	263.56	5.97	-54.0	-57.5	12.7	7.00e-07	0	24	0	1312817152	73	5596
2026-01-09 03:16:28.60	263.31	5.70	-53.9	-57.2	12.9	0.00e+00	0	24	0	1320157184	73	5424
2026-01-09 03:16:32.60	263.07	5.43	-54.0	-57.5	12.7	0.00e+00	0	24	0	1327497216	73	5596
2026-01-09 03:16:36.60	262.83	5.17	-54.2	-57.9	12.4	0.00e+00	0	24	0	1334837248	73	5878
2026-01-09 03:16:40.61	262.59	4.90	-56.5	-73.9	3.8	1.49e+00	0	24	104	1341128704	79	26328
2026-01-09 03:16:44.61	262.36	4.64	-59.0	-75.0	3.8	1.49e+00	0	24	104	1341128704	83	23775
2026-01-09 03:16:48.60	262.14	4.38	-59.3	-75.4	3.8	1.49e+00	0	24	104	1341128704	83	24862
2026-01-09 03:16:52.59	261.92	4.12	-59.7	-75.8	3.8	1.49e+00	0	24	104	1341128704	84	24541
2026-01-09 03:16:56.58	261.70	3.87	-59.9	-76.0	3.8	1.49e+00	0	24	104	1341128704	84	25059
2026-01-09 03:17:00.59	261.49	3.61	-60.0	-76.1	3.8	1.49e+00	0	24	104	1341128704	85	23858
2026-01-09 03:17:04.59	261.28	3.36	-59.9	-75.9	3.8	1.49e+00	0	24	104	1341128704	85	23545
2026-01-09 03:17:08.57	261.07	3.11	-59.8	-75.9	3.8	1.49e+00	0	24	104	1341128704	85	23369
2026-01-09 03:17:12.57	260.87	2.87	-59.8	-75.8	3.8	1.49e+00	0	24	104	1341128704	85	23283
2026-01-09 03:17:16.56	260.67	2.62	-59.8	-75.8	3.8	1.49e+00	0	24	104	1341128704	85	23211
2026-01-09 03:17:20.55	260.48	2.38	-59.7	-75.8	3.8	1.49e+00	0	24	104	1341128704	85	23128
2026-01-09 03:17:24.53	260.29	2.13	-59.7	-75.7	3.8	1.49e+00	0	24	104	1341128704	85	23016
2026-01-09 03:17:28.53	260.10	1.89	-59.7	-75.7	3.8	1.49e+00	0	24	104	1341128704	85	23004

#Closed at: 2026-01-09 03:17:29
#Recorded file [1341 MB]: D:/lorett/data/31004_260109_060402.dat