passes_logs/2026/01/09/R3.2S_Murmansk/R3.2S_Murmansk__20260109_064242_NOAA_20_JPSS-1_rec.log

#Pass ID: 20260109_064242_NOAA 20 (JPSS-1)
#Satellite: NOAA 20 (JPSS-1)
#Configuration: NOAA 20
#almurnet v.1.7.20251203
#Start time: 2026-01-09 06:42:43

#Version: 2.2.20231116
#Station: R3.2S_Murmansk
#Location: 33.079688 lon 68.888172 lat
#TLE: 1 43013U 17073A   26008.56343035  .00000133  00000+0  84205-4 0  9993
#TLE: 2 43013  98.7630 309.5710 0001731  48.5146 311.6178 14.19534569421822

#Time	Az	El	Level	Level2	SNR	BER	BlckErr	Temp	State	Recorded	gain1	gain2
2026-01-09 06:42:43.45	89.16	2.04	-57.3	-73.3	3.8	1.49e+00	0	21	0	0	81	21799
2026-01-09 06:42:47.45	88.94	2.27	-57.2	-73.2	3.8	1.49e+00	0	22	104	0	79	24213
2026-01-09 06:42:51.44	88.72	2.51	-57.2	-73.2	3.8	1.49e+00	0	22	104	0	79	24247
2026-01-09 06:42:55.44	88.49	2.75	-57.2	-73.2	3.8	1.49e+00	0	22	104	0	79	24250
2026-01-09 06:42:59.44	88.26	2.99	-57.2	-73.3	3.8	1.49e+00	0	22	104	0	79	24459
2026-01-09 06:43:03.44	88.02	3.23	-57.2	-73.2	3.8	1.49e+00	0	22	104	0	79	24239
2026-01-09 06:43:07.46	87.78	3.48	-57.2	-73.3	3.8	1.49e+00	0	22	104	0	79	24414
2026-01-09 06:43:11.44	87.54	3.72	-57.2	-73.2	3.8	1.49e+00	0	22	104	0	79	24188
2026-01-09 06:43:15.44	87.29	3.97	-57.2	-73.1	3.8	1.49e+00	0	22	104	0	79	23980
2026-01-09 06:43:19.44	87.04	4.22	-57.2	-73.1	3.8	1.49e+00	0	22	104	0	79	23891
2026-01-09 06:43:23.46	86.78	4.47	-57.1	-70.7	4.0	1.49e+00	0	23	104	0	79	18197
2026-01-09 06:43:27.48	86.52	4.73	-57.0	-68.6	4.6	9.38e-01	0	23	0	3145728	79	14226
2026-01-09 06:43:31.47	86.25	4.98	-56.8	-65.9	6.0	3.57e-01	0	23	0	10485760	79	10530
2026-01-09 06:43:35.47	85.98	5.24	-56.5	-64.1	7.4	6.29e-01	0	23	0	18874368	79	8470
2026-01-09 06:43:39.48	85.70	5.50	-55.4	-60.0	11.2	4.02e-04	0	23	0	23068672	77	5976
2026-01-09 06:43:43.46	85.42	5.76	-55.4	-60.0	11.2	3.11e-04	0	23	0	31457280	77	5972
2026-01-09 06:43:47.43	85.14	6.02	-55.0	-59.0	12.0	1.37e-05	0	23	0	38797312	76	5606
2026-01-09 06:43:51.42	84.84	6.28	-54.4	-58.0	12.7	0.00e+00	0	23	0	46137344	75	5286
2026-01-09 06:43:55.40	84.55	6.55	-53.9	-56.9	13.4	0.00e+00	0	23	0	53477376	74	4953
2026-01-09 06:43:59.39	84.24	6.81	-54.0	-57.1	13.2	0.00e+00	0	23	0	60817408	74	5076
2026-01-09 06:44:03.37	83.94	7.08	-53.7	-56.6	13.5	0.00e+00	0	23	0	68157440	73	5075
2026-01-09 06:44:07.37	83.62	7.36	-53.6	-56.4	13.6	0.00e+00	0	23	0	75497472	73	4939
2026-01-09 06:44:11.36	83.30	7.63	-53.6	-56.4	13.6	0.00e+00	0	23	0	82837504	73	4963
2026-01-09 06:44:15.36	82.97	7.91	-53.5	-56.2	13.7	0.00e+00	0	23	0	91226112	73	4862
2026-01-09 06:44:19.34	82.64	8.18	-53.4	-56.1	13.9	0.00e+00	0	23	0	98566144	73	4804
2026-01-09 06:44:23.32	82.30	8.46	-53.5	-56.2	13.8	0.00e+00	0	23	0	105906176	73	4836
2026-01-09 06:44:27.29	81.95	8.74	-53.4	-56.0	13.9	0.00e+00	0	23	0	113246208	73	4739
2026-01-09 06:44:31.28	81.60	9.03	-53.5	-56.1	13.8	0.00e+00	0	23	0	120586240	73	4791
2026-01-09 06:44:35.28	81.23	9.31	-53.5	-56.1	13.9	0.00e+00	0	23	0	127926272	73	4791
2026-01-09 06:44:39.28	80.86	9.60	-53.4	-56.0	14.0	0.00e+00	0	23	0	135266304	73	4707
2026-01-09 06:44:43.27	80.48	9.89	-53.3	-55.9	14.0	0.00e+00	0	23	0	143654912	73	4654
2026-01-09 06:44:47.24	80.10	10.19	-53.3	-55.8	14.1	0.00e+00	0	23	0	150994944	73	4641
2026-01-09 06:44:51.22	79.71	10.48	-53.3	-55.8	14.1	0.00e+00	0	23	0	158334976	73	4600
2026-01-09 06:44:55.21	79.31	10.78	-53.3	-55.8	14.1	0.00e+00	0	23	0	165675008	73	4650
2026-01-09 06:44:59.19	78.90	11.08	-53.2	-55.7	14.2	0.00e+00	0	24	0	173015040	73	4565
2026-01-09 06:45:03.18	78.48	11.38	-53.3	-55.8	14.1	0.00e+00	0	23	0	180355072	73	4625
2026-01-09 06:45:07.15	78.06	11.68	-53.3	-55.8	14.1	0.00e+00	0	23	0	187695104	73	4630
2026-01-09 06:45:11.15	77.62	11.99	-53.2	-55.7	14.2	0.00e+00	0	23	0	195035136	73	4559
2026-01-09 06:45:15.15	77.17	12.30	-53.0	-55.3	14.3	0.00e+00	0	23	0	202375168	72	4629
2026-01-09 06:45:19.14	76.72	12.61	-53.0	-55.4	14.2	0.00e+00	0	23	0	210763776	72	4669
2026-01-09 06:45:23.14	76.25	12.92	-53.1	-55.4	14.2	0.00e+00	0	24	0	218103808	72	4677
2026-01-09 06:45:27.15	75.77	13.24	-53.1	-55.5	14.2	0.00e+00	0	24	0	225443840	72	4739
2026-01-09 06:45:31.14	75.28	13.55	-53.0	-55.4	14.3	0.00e+00	0	24	0	232783872	72	4665
2026-01-09 06:45:35.15	74.78	13.87	-52.9	-55.2	14.4	0.00e+00	0	24	0	240123904	72	4568
2026-01-09 06:45:39.15	74.27	14.19	-52.9	-55.1	14.4	0.00e+00	0	24	0	247463936	72	4521
2026-01-09 06:45:43.14	73.75	14.52	-52.8	-55.0	14.4	0.00e+00	0	24	0	255852544	71	4723
2026-01-09 06:45:47.14	73.22	14.84	-52.6	-54.8	14.5	0.00e+00	0	24	0	263192576	71	4621
2026-01-09 06:45:51.14	72.68	15.17	-52.6	-54.7	14.5	0.00e+00	0	24	0	270532608	71	4562
2026-01-09 06:45:55.14	72.12	15.50	-52.5	-54.6	14.6	0.00e+00	0	23	0	277872640	71	4495
2026-01-09 06:45:59.13	71.55	15.83	-52.2	-54.2	14.8	0.00e+00	0	24	0	285212672	71	4327
2026-01-09 06:46:03.13	70.97	16.16	-52.3	-54.4	14.7	0.00e+00	0	24	0	292552704	71	4406
2026-01-09 06:46:07.11	70.37	16.49	-52.4	-54.4	14.7	0.00e+00	0	24	0	299892736	71	4437
2026-01-09 06:46:11.12	69.76	16.83	-52.3	-54.4	14.7	0.00e+00	0	24	0	308281344	71	4402
2026-01-09 06:46:15.11	69.14	17.16	-52.5	-54.5	14.7	0.00e+00	0	24	0	315621376	71	4473
2026-01-09 06:46:19.10	68.50	17.50	-52.4	-54.4	14.7	0.00e+00	0	24	0	322961408	71	4419
2026-01-09 06:46:23.09	67.85	17.83	-52.4	-54.4	14.7	0.00e+00	0	24	0	330301440	71	4435
2026-01-09 06:46:27.08	67.19	18.17	-52.7	-54.8	14.5	0.00e+00	0	24	0	337641472	71	4627
2026-01-09 06:46:31.06	66.51	18.51	-52.7	-54.8	14.5	0.00e+00	0	24	0	344981504	71	4632
2026-01-09 06:46:35.03	65.81	18.84	-52.7	-54.8	14.5	0.00e+00	0	24	0	352321536	71	4606
2026-01-09 06:46:39.01	65.10	19.18	-52.6	-54.7	14.6	0.00e+00	0	24	0	360710144	71	4595
2026-01-09 06:46:43.00	64.38	19.52	-52.4	-54.4	14.7	0.00e+00	0	24	0	368050176	71	4436
2026-01-09 06:46:46.99	63.63	19.86	-52.6	-54.7	14.6	0.00e+00	0	24	0	375390208	71	4568
2026-01-09 06:46:50.99	62.87	20.19	-52.5	-54.6	14.6	0.00e+00	0	24	0	382730240	71	4526
2026-01-09 06:46:54.99	62.09	20.53	-52.3	-54.2	14.9	0.00e+00	0	24	0	390070272	71	4336
2026-01-09 06:46:59.00	61.29	20.87	-52.1	-54.0	14.8	0.00e+00	0	24	0	397410304	70	4486
2026-01-09 06:47:03.00	60.47	21.20	-52.0	-53.9	14.9	0.00e+00	0	24	0	404750336	70	4422
2026-01-09 06:47:06.99	59.64	21.53	-51.6	-53.4	15.0	0.00e+00	0	24	0	412090368	69	4424
2026-01-09 06:47:10.98	58.79	21.86	-51.3	-53.0	15.2	0.00e+00	0	24	0	420478976	69	4232
2026-01-09 06:47:14.96	57.92	22.18	-51.5	-53.2	15.1	0.00e+00	0	24	0	427819008	69	4328
2026-01-09 06:47:18.94	57.04	22.51	-51.2	-52.8	15.0	0.00e+00	0	24	0	435159040	68	4386
2026-01-09 06:47:22.92	56.13	22.82	-51.1	-52.7	15.1	0.00e+00	0	24	0	442499072	68	4339
2026-01-09 06:47:26.92	55.21	23.14	-51.1	-52.8	15.1	0.00e+00	0	24	0	449839104	68	4362
2026-01-09 06:47:30.92	54.26	23.45	-51.1	-52.8	15.2	0.00e+00	0	24	0	457179136	68	4354
2026-01-09 06:47:34.89	53.31	23.76	-51.2	-52.9	15.1	0.00e+00	0	24	0	464519168	68	4400
2026-01-09 06:47:38.88	52.33	24.06	-51.1	-52.8	15.1	0.00e+00	0	24	0	472907776	68	4369
2026-01-09 06:47:42.87	51.33	24.35	-51.2	-52.9	15.1	0.00e+00	0	24	0	480247808	68	4404
2026-01-09 06:47:46.85	50.31	24.64	-51.3	-53.0	15.0	0.00e+00	0	24	0	487587840	68	4451
2026-01-09 06:47:50.83	49.28	24.92	-51.5	-53.3	14.9	0.00e+00	0	24	0	494927872	68	4605
2026-01-09 06:47:54.82	48.22	25.19	-51.2	-52.9	15.1	0.00e+00	0	24	0	502267904	68	4419
2026-01-09 06:47:58.80	47.15	25.46	-51.1	-52.8	15.2	0.00e+00	0	24	0	509607936	68	4352
2026-01-09 06:48:02.79	46.06	25.72	-51.0	-52.6	15.2	0.00e+00	0	24	0	516947968	68	4291
2026-01-09 06:48:06.77	44.95	25.96	-51.0	-52.7	15.2	0.00e+00	0	24	0	524288000	68	4309
2026-01-09 06:48:10.74	43.83	26.20	-51.0	-52.7	15.2	0.00e+00	0	24	0	531628032	68	4317
2026-01-09 06:48:14.72	42.69	26.43	-51.0	-52.7	15.2	0.00e+00	0	24	0	540016640	68	4308
2026-01-09 06:48:18.72	41.53	26.64	-51.4	-53.1	15.0	0.00e+00	0	24	0	547356672	68	4526
2026-01-09 06:48:22.70	40.35	26.85	-51.6	-53.4	14.9	0.00e+00	0	24	0	554696704	68	4688
2026-01-09 06:48:26.68	39.17	27.04	-52.0	-53.9	14.7	0.00e+00	0	24	0	562036736	69	4666
2026-01-09 06:48:30.67	37.96	27.22	-52.2	-54.1	14.6	0.00e+00	0	24	0	569376768	69	4778
2026-01-09 06:48:34.66	36.75	27.39	-52.2	-54.1	14.6	0.00e+00	0	24	0	576716800	69	4792
2026-01-09 06:48:38.64	35.52	27.54	-52.3	-54.2	14.6	0.00e+00	0	24	0	584056832	69	4870
2026-01-09 06:48:42.61	34.29	27.68	-52.5	-54.5	14.6	0.00e+00	0	24	0	592445440	70	4752
2026-01-09 06:48:46.60	33.03	27.81	-52.7	-54.7	14.5	0.00e+00	0	24	0	599785472	70	4870
2026-01-09 06:48:50.59	31.77	27.92	-52.7	-54.8	14.5	0.00e+00	0	24	0	607125504	70	4915
2026-01-09 06:48:54.58	30.51	28.01	-53.0	-55.1	14.4	0.00e+00	0	24	0	614465536	71	4798
2026-01-09 06:48:58.57	29.23	28.09	-53.1	-55.3	14.3	0.00e+00	0	24	0	621805568	71	4883
2026-01-09 06:49:02.55	27.95	28.16	-53.0	-55.1	14.4	0.00e+00	0	24	0	629145600	71	4796
2026-01-09 06:49:06.52	26.67	28.20	-53.1	-55.2	14.3	0.00e+00	0	24	0	636485632	71	4863
2026-01-09 06:49:10.51	25.38	28.24	-52.7	-54.8	14.6	0.00e+00	0	24	0	643825664	71	4613
2026-01-09 06:49:14.49	24.10	28.25	-52.7	-54.8	14.6	0.00e+00	0	24	0	651165696	71	4619
2026-01-09 06:49:18.48	22.80	28.25	-52.5	-54.5	14.8	0.00e+00	0	24	0	659554304	71	4461
2026-01-09 06:49:22.46	21.52	28.24	-52.7	-54.7	14.7	0.00e+00	0	24	0	666894336	71	4565
2026-01-09 06:49:26.45	20.23	28.21	-52.3	-54.2	14.9	0.00e+00	0	24	0	674234368	71	4330
2026-01-09 06:49:30.44	18.94	28.16	-52.3	-54.2	14.9	0.00e+00	0	24	0	681574400	71	4325
2026-01-09 06:49:34.43	17.66	28.09	-51.9	-53.6	15.1	0.00e+00	0	24	0	688914432	70	4285
2026-01-09 06:49:38.42	16.39	28.01	-51.6	-53.3	15.0	0.00e+00	0	24	0	696254464	69	4380
2026-01-09 06:49:42.40	15.12	27.92	-51.5	-53.2	15.1	0.00e+00	0	24	0	703594496	69	4319
2026-01-09 06:49:46.39	13.86	27.81	-51.5	-53.3	15.1	0.00e+00	0	24	0	711983104	69	4353
2026-01-09 06:49:50.39	12.61	27.68	-51.6	-53.3	15.1	0.00e+00	0	24	0	719323136	69	4350
2026-01-09 06:49:54.37	11.37	27.54	-51.6	-53.4	15.0	0.00e+00	0	24	0	726663168	69	4394
2026-01-09 06:49:58.35	10.15	27.39	-51.6	-53.3	15.1	0.00e+00	0	24	0	734003200	69	4366
2026-01-09 06:50:02.34	8.93	27.22	-52.2	-54.1	14.6	0.00e+00	0	24	0	741343232	69	4787
2026-01-09 06:50:06.31	7.73	27.04	-52.3	-54.2	14.6	0.00e+00	0	24	0	748683264	69	4856
2026-01-09 06:50:10.30	6.54	26.85	-52.5	-54.4	14.7	0.00e+00	0	24	0	756023296	70	4683
2026-01-09 06:50:14.27	5.38	26.65	-52.7	-54.8	14.5	0.00e+00	0	24	0	763363328	70	4886
2026-01-09 06:50:18.27	4.22	26.43	-52.7	-54.8	14.5	0.00e+00	0	24	0	771751936	70	4871
2026-01-09 06:50:22.26	3.07	26.20	-52.9	-55.0	14.4	0.00e+00	0	24	0	779091968	71	4748
2026-01-09 06:50:26.24	1.95	25.97	-53.0	-55.1	14.4	0.00e+00	0	24	0	786432000	71	4766
2026-01-09 06:50:30.23	0.84	25.72	-52.8	-54.9	14.5	0.00e+00	0	24	0	793772032	71	4679
2026-01-09 06:50:34.21	359.75	25.46	-52.9	-55.0	14.5	0.00e+00	0	24	0	801112064	71	4727
2026-01-09 06:50:38.20	358.68	25.20	-52.6	-54.5	14.7	0.00e+00	0	24	0	808452096	71	4493
2026-01-09 06:50:42.18	357.63	24.93	-52.6	-54.5	14.7	0.00e+00	0	24	0	815792128	71	4489
2026-01-09 06:50:46.16	356.60	24.65	-52.5	-54.4	14.8	0.00e+00	0	24	0	823132160	71	4413
2026-01-09 06:50:50.14	355.58	24.36	-52.2	-54.1	15.0	0.00e+00	0	24	0	831520768	71	4252
2026-01-09 06:50:54.11	354.59	24.07	-52.0	-53.9	14.9	0.00e+00	0	24	0	838860800	70	4411
2026-01-09 06:50:58.09	353.61	23.77	-51.9	-53.7	15.0	0.00e+00	0	24	0	846200832	70	4311
2026-01-09 06:51:02.10	352.65	23.46	-51.7	-53.4	15.2	0.00e+00	0	24	0	853540864	70	4170
2026-01-09 06:51:06.12	351.70	23.15	-51.3	-53.0	15.2	0.00e+00	0	24	0	860880896	69	4208
2026-01-09 06:51:10.13	350.77	22.83	-51.3	-53.0	15.2	0.00e+00	0	24	0	868220928	69	4210
2026-01-09 06:51:14.13	349.87	22.51	-51.2	-52.9	15.3	0.00e+00	0	24	0	875560960	69	4166
2026-01-09 06:51:18.13	348.98	22.19	-51.0	-52.6	15.3	0.00e+00	0	24	0	883949568	68	4255
2026-01-09 06:51:22.14	348.11	21.86	-50.8	-52.4	15.3	0.00e+00	0	24	0	891289600	68	4164
2026-01-09 06:51:26.15	347.26	21.53	-50.3	-51.9	15.4	0.00e+00	0	24	0	898629632	67	4158
2026-01-09 06:51:30.15	346.43	21.20	-50.1	-51.6	15.3	0.00e+00	0	24	0	905969664	66	4276
2026-01-09 06:51:34.15	345.61	20.87	-49.8	-51.2	15.5	0.00e+00	0	24	0	913309696	66	4075
2026-01-09 06:51:38.16	344.81	20.53	-49.9	-51.4	15.5	0.00e+00	0	24	0	920649728	66	4154
2026-01-09 06:51:42.16	344.04	20.20	-49.8	-51.3	15.5	0.00e+00	0	24	0	929038336	66	4104
2026-01-09 06:51:46.18	343.27	19.86	-49.9	-51.4	15.4	0.00e+00	0	24	0	936378368	66	4176
2026-01-09 06:51:50.19	342.52	19.52	-49.9	-51.4	15.5	0.00e+00	0	24	0	943718400	66	4147
2026-01-09 06:51:54.20	341.79	19.18	-50.0	-51.5	15.4	0.00e+00	0	24	0	951058432	66	4222
2026-01-09 06:51:58.21	341.08	18.84	-50.2	-51.7	15.3	0.00e+00	0	24	0	958398464	66	4329
2026-01-09 06:52:02.21	340.39	18.50	-50.4	-52.0	15.2	0.00e+00	0	24	0	965738496	66	4457
2026-01-09 06:52:06.23	339.70	18.16	-50.6	-52.2	15.1	0.00e+00	0	24	0	974127104	66	4549
2026-01-09 06:52:10.22	339.04	17.83	-50.9	-52.6	14.9	0.00e+00	0	24	0	981467136	66	4780
2026-01-09 06:52:14.23	338.39	17.49	-51.2	-53.0	14.8	0.00e+00	0	24	0	988807168	67	4710
2026-01-09 06:52:18.23	337.75	17.15	-51.2	-53.0	14.8	0.00e+00	0	24	0	996147200	67	4740
2026-01-09 06:52:22.23	337.13	16.82	-51.2	-53.0	14.9	0.00e+00	0	24	0	1003487232	67	4706
2026-01-09 06:52:26.23	336.52	16.49	-51.2	-53.0	14.8	0.00e+00	0	24	0	1010827264	67	4715
2026-01-09 06:52:30.24	335.93	16.15	-51.5	-53.3	14.9	0.00e+00	0	24	0	1018167296	68	4601
2026-01-09 06:52:34.22	335.35	15.82	-51.7	-53.6	14.7	0.00e+00	0	24	0	1026555904	68	4777
2026-01-09 06:52:38.22	334.78	15.49	-51.8	-53.6	14.7	0.00e+00	0	24	0	1033895936	68	4802
2026-01-09 06:52:42.21	334.23	15.17	-51.8	-53.7	14.6	0.00e+00	0	24	0	1041235968	68	4851
2026-01-09 06:52:46.19	333.69	14.84	-52.0	-53.9	14.7	0.00e+00	0	24	0	1048576000	69	4692
2026-01-09 06:52:50.19	333.16	14.52	-52.0	-54.0	14.6	0.00e+00	0	24	0	1055916032	69	4727
2026-01-09 06:52:54.18	332.64	14.20	-52.1	-54.0	14.6	0.00e+00	0	24	0	1063256064	69	4738
2026-01-09 06:52:58.17	332.14	13.88	-52.2	-54.2	14.5	0.00e+00	0	24	0	1070596096	69	4862
2026-01-09 06:53:02.16	331.64	13.56	-52.5	-54.6	14.5	0.00e+00	0	24	0	1078984704	70	4793
2026-01-09 06:53:06.15	331.16	13.24	-52.8	-55.0	14.2	0.00e+00	0	24	0	1086324736	70	5020
2026-01-09 06:53:10.12	330.68	12.93	-52.8	-55.0	14.2	0.00e+00	0	24	0	1093664768	70	5033
2026-01-09 06:53:14.09	330.22	12.62	-52.8	-55.0	14.2	0.00e+00	0	24	0	1101004800	70	4992
2026-01-09 06:53:18.09	329.77	12.31	-52.8	-55.0	14.2	0.00e+00	0	24	0	1108344832	70	5018
2026-01-09 06:53:22.06	329.33	12.00	-53.0	-55.3	14.2	0.00e+00	0	24	0	1115684864	71	4891
2026-01-09 06:53:26.03	328.89	11.70	-53.0	-55.3	14.1	0.00e+00	0	24	0	1123024896	71	4903
2026-01-09 06:53:30.03	328.47	11.40	-52.9	-55.2	14.2	0.00e+00	0	24	0	1130364928	71	4832
2026-01-09 06:53:34.02	328.05	11.09	-52.8	-55.0	14.3	0.00e+00	0	24	0	1138753536	71	4759
2026-01-09 06:53:38.01	327.64	10.80	-53.1	-55.5	14.0	0.00e+00	0	24	0	1146093568	71	5003
2026-01-09 06:53:41.99	327.24	10.50	-53.3	-55.8	13.8	0.00e+00	0	24	0	1153433600	71	5205
2026-01-09 06:53:45.99	326.85	10.20	-53.4	-55.9	13.8	0.00e+00	0	24	0	1160773632	71	5240
2026-01-09 06:53:49.98	326.47	9.91	-53.4	-56.0	13.8	0.00e+00	0	24	0	1168113664	72	5021
2026-01-09 06:53:53.97	326.09	9.62	-53.5	-56.2	13.7	0.00e+00	0	24	0	1175453696	72	5113
2026-01-09 06:53:57.96	325.73	9.33	-53.6	-56.3	13.6	0.00e+00	0	24	0	1182793728	72	5207
2026-01-09 06:54:01.94	325.37	9.05	-53.5	-56.1	13.7	0.00e+00	0	24	0	1190133760	72	5083
2026-01-09 06:54:05.93	325.01	8.77	-53.4	-56.0	13.7	0.00e+00	0	24	0	1198522368	72	5036
2026-01-09 06:54:09.93	324.67	8.48	-53.6	-56.2	13.6	0.00e+00	0	24	0	1205862400	72	5147
2026-01-09 06:54:13.92	324.33	8.20	-53.5	-56.1	13.7	0.00e+00	0	24	0	1213202432	72	5077
2026-01-09 06:54:17.90	324.00	7.93	-53.5	-56.2	13.6	0.00e+00	0	24	0	1220542464	72	5125
2026-01-09 06:54:21.87	323.67	7.65	-53.5	-56.2	13.6	0.00e+00	0	24	0	1227882496	72	5126
2026-01-09 06:54:25.86	323.35	7.38	-53.8	-56.7	13.3	0.00e+00	0	24	0	1235222528	72	5407
2026-01-09 06:54:29.84	323.04	7.11	-53.9	-56.8	13.1	0.00e+00	0	24	0	1242562560	72	5518
2026-01-09 06:54:33.84	322.73	6.84	-54.1	-57.2	13.1	0.00e+00	0	24	0	1250951168	73	5412
2026-01-09 06:54:37.82	322.43	6.57	-54.1	-57.3	12.9	0.00e+00	0	24	0	1258291200	73	5497
2026-01-09 06:54:41.82	322.14	6.31	-54.1	-57.3	12.9	0.00e+00	0	24	0	1265631232	73	5478
2026-01-09 06:54:45.82	321.84	6.04	-54.2	-57.5	12.7	0.00e+00	0	24	0	1272971264	73	5645
2026-01-09 06:54:49.81	321.56	5.78	-54.1	-57.3	12.9	0.00e+00	0	24	0	1280311296	73	5517
2026-01-09 06:54:53.79	321.28	5.52	-54.1	-57.3	12.9	0.00e+00	0	24	0	1287651328	73	5466
2026-01-09 06:54:57.78	321.01	5.27	-54.2	-57.5	12.7	0.00e+00	0	24	0	1294991360	73	5614
2026-01-09 06:55:01.76	320.74	5.01	-57.4	-68.0	5.2	5.18e-05	0	24	0	1302331392	79	13309
2026-01-09 06:55:05.75	320.47	4.76	-58.9	-74.9	3.8	1.49e+00	0	24	104	1303379968	82	24885
2026-01-09 06:55:09.75	320.21	4.50	-59.4	-75.5	3.8	1.49e+00	0	24	104	1303379968	83	24991
2026-01-09 06:55:13.76	319.96	4.25	-59.8	-75.9	3.8	1.49e+00	0	24	104	1303379968	84	24726
2026-01-09 06:55:17.77	319.71	4.00	-59.9	-76.0	3.8	1.49e+00	0	24	104	1303379968	84	25102
2026-01-09 06:55:21.76	319.46	3.76	-60.0	-76.0	3.8	1.49e+00	0	24	104	1303379968	85	23853
2026-01-09 06:55:25.75	319.22	3.51	-59.9	-75.9	3.8	1.49e+00	0	24	104	1303379968	85	23553
2026-01-09 06:55:29.75	318.98	3.27	-59.8	-75.9	3.8	1.49e+00	0	24	104	1303379968	85	23431
2026-01-09 06:55:33.74	318.75	3.02	-59.8	-75.8	3.8	1.49e+00	0	24	104	1303379968	85	23286
2026-01-09 06:55:37.73	318.52	2.78	-59.8	-75.8	3.8	1.49e+00	0	24	104	1303379968	85	23245
2026-01-09 06:55:41.73	318.29	2.55	-59.8	-75.8	3.8	1.49e+00	0	24	104	1303379968	85	23235
2026-01-09 06:55:45.72	318.07	2.31	-59.7	-75.8	3.8	1.49e+00	0	24	104	1303379968	85	23163
2026-01-09 06:55:49.71	317.85	2.07	-59.7	-75.8	3.8	1.49e+00	0	24	104	1303379968	85	23177

#Closed at: 2026-01-09 06:55:51
#Recorded file [1303 MB]: D:/lorett/data/31004_260109_094243.dat