passes_logs/2026/01/09/R3.2S_Murmansk/R3.2S_Murmansk__20260109_000413_NOAA_20_JPSS-1_rec.log

#Pass ID: 20260109_000413_NOAA 20 (JPSS-1)
#Satellite: NOAA 20 (JPSS-1)
#Configuration: NOAA 20
#almurnet v.1.7.20251203
#Start time: 2026-01-09 00:04:16

#Version: 2.2.20231116
#Station: R3.2S_Murmansk
#Location: 33.079688 lon 68.888172 lat
#TLE: 1 43013U 17073A   26008.56343035  .00000133  00000+0  84205-4 0  9993
#TLE: 2 43013  98.7630 309.5710 0001731  48.5146 311.6178 14.19534569421822

#Time	Az	El	Level	Level2	SNR	BER	BlckErr	Temp	State	Recorded	gain1	gain2
2026-01-09 00:04:16.03	22.46	2.15	-57.4	-72.8	3.8	1.49e+00	0	22	0	0	81	20597
2026-01-09 00:04:19.99	22.55	2.40	-57.3	-73.0	3.8	1.49e+00	0	22	104	0	79	23635
2026-01-09 00:04:23.95	22.63	2.65	-57.3	-72.2	3.8	1.49e+00	0	22	104	0	79	21696
2026-01-09 00:04:27.90	22.71	2.91	-57.3	-71.0	4.0	1.48e+00	0	22	104	0	79	18769
2026-01-09 00:04:31.89	22.80	3.17	-57.2	-70.3	4.1	1.41e+00	0	22	0	0	79	17344
2026-01-09 00:04:35.85	22.89	3.43	-57.1	-67.8	4.9	8.22e-01	0	23	0	3145728	79	13098
2026-01-09 00:04:39.82	22.98	3.70	-56.5	-63.9	7.7	6.35e-02	0	23	0	10485760	79	8330
2026-01-09 00:04:43.80	23.07	3.96	-55.5	-60.5	10.6	1.13e-03	0	23	0	17825792	77	6304
2026-01-09 00:04:47.78	23.16	4.23	-55.0	-59.3	11.6	5.49e-05	0	23	0	25165824	76	5806
2026-01-09 00:04:51.76	23.25	4.51	-55.4	-60.3	10.7	3.67e-04	0	23	0	32505856	76	6528
2026-01-09 00:04:55.73	23.34	4.78	-56.1	-62.6	8.7	9.44e-03	0	23	0	39845888	77	8062
2026-01-09 00:04:59.71	23.44	5.06	-54.7	-58.3	12.4	5.97e-02	0	23	0	48234496	76	5188
2026-01-09 00:05:03.70	23.54	5.34	-56.9	-67.1	5.4	6.62e-04	0	23	0	55574528	78	12772
2026-01-09 00:05:07.66	23.64	5.63	-54.4	-57.9	12.7	5.30e-06	0	23	0	60817408	75	5238
2026-01-09 00:05:11.64	23.74	5.91	-53.6	-56.4	13.5	0.00e+00	0	23	0	68157440	73	4966
2026-01-09 00:05:15.61	23.84	6.20	-52.9	-55.4	14.0	0.00e+00	0	23	0	75497472	72	4700
2026-01-09 00:05:19.58	23.94	6.50	-52.8	-55.3	14.2	0.00e+00	0	23	0	82837504	72	4608
2026-01-09 00:05:23.57	24.05	6.79	-52.9	-55.3	14.1	0.00e+00	0	23	0	90177536	72	4646
2026-01-09 00:05:27.53	24.15	7.09	-52.5	-54.8	14.3	0.00e+00	0	23	0	98566144	71	4638
2026-01-09 00:05:31.50	24.26	7.40	-52.6	-55.0	14.2	0.00e+00	0	23	0	105906176	71	4710
2026-01-09 00:05:35.47	24.37	7.70	-52.6	-54.9	14.3	0.00e+00	0	24	0	113246208	71	4683
2026-01-09 00:05:39.44	24.48	8.02	-52.5	-54.7	14.5	0.00e+00	0	24	0	120586240	71	4547
2026-01-09 00:05:43.44	24.60	8.33	-52.5	-54.7	14.4	0.00e+00	0	24	0	127926272	71	4588
2026-01-09 00:05:47.42	24.72	8.65	-52.4	-54.5	14.5	0.00e+00	0	24	0	135266304	71	4478
2026-01-09 00:05:51.40	24.84	8.98	-52.4	-54.5	14.6	0.00e+00	0	24	0	142606336	71	4479
2026-01-09 00:05:55.38	24.96	9.30	-52.3	-54.5	14.6	0.00e+00	0	24	0	149946368	71	4445
2026-01-09 00:05:59.35	25.08	9.63	-52.2	-54.2	14.7	0.00e+00	0	24	0	157286400	71	4336
2026-01-09 00:06:03.32	25.21	9.97	-52.3	-54.4	14.6	0.00e+00	0	24	0	165675008	71	4420
2026-01-09 00:06:07.29	25.34	10.31	-52.1	-54.1	14.6	0.00e+00	0	24	0	173015040	70	4513
2026-01-09 00:06:11.26	25.47	10.65	-52.0	-54.0	14.7	0.00e+00	0	23	0	180355072	70	4483
2026-01-09 00:06:15.21	25.60	11.00	-51.9	-53.8	14.8	0.00e+00	0	24	0	187695104	70	4381
2026-01-09 00:06:19.17	25.74	11.35	-51.8	-53.7	14.9	0.00e+00	0	24	0	195035136	70	4333
2026-01-09 00:06:23.15	25.88	11.71	-51.8	-53.8	14.8	0.00e+00	0	24	0	202375168	70	4342
2026-01-09 00:06:27.13	26.02	12.08	-51.9	-53.8	14.8	0.00e+00	0	24	0	209715200	70	4375
2026-01-09 00:06:31.10	26.17	12.45	-51.8	-53.7	14.9	0.00e+00	0	24	0	217055232	70	4293
2026-01-09 00:06:35.07	26.31	12.83	-51.8	-53.7	14.9	0.00e+00	0	24	0	224395264	70	4327
2026-01-09 00:06:39.04	26.47	13.21	-51.8	-53.7	14.9	0.00e+00	0	24	0	231735296	70	4292
2026-01-09 00:06:43.02	26.62	13.59	-51.8	-53.7	14.9	0.00e+00	0	24	0	240123904	70	4324
2026-01-09 00:06:47.00	26.78	13.99	-51.8	-53.7	15.0	0.00e+00	0	24	0	247463936	70	4295
2026-01-09 00:06:50.98	26.95	14.39	-51.8	-53.6	15.0	0.00e+00	0	24	0	254803968	70	4272
2026-01-09 00:06:54.97	27.12	14.80	-51.9	-53.8	14.8	0.00e+00	0	24	0	262144000	70	4376
2026-01-09 00:06:58.95	27.29	15.21	-51.8	-53.6	15.0	0.00e+00	0	24	0	269484032	70	4265
2026-01-09 00:07:02.93	27.46	15.63	-51.8	-53.6	15.0	0.00e+00	0	23	0	276824064	70	4286
2026-01-09 00:07:06.92	27.65	16.06	-51.9	-53.8	14.9	0.00e+00	0	24	0	284164096	70	4346
2026-01-09 00:07:10.90	27.83	16.50	-51.9	-53.7	14.9	0.00e+00	0	24	0	291504128	70	4328
2026-01-09 00:07:14.87	28.02	16.94	-51.9	-53.8	14.9	0.00e+00	0	24	0	298844160	70	4347
2026-01-09 00:07:18.84	28.22	17.39	-51.9	-53.8	14.9	0.00e+00	0	24	0	307232768	70	4348
2026-01-09 00:07:22.83	28.42	17.85	-51.9	-53.8	14.8	0.00e+00	0	24	0	314572800	70	4375
2026-01-09 00:07:26.79	28.63	18.32	-51.9	-53.8	14.9	0.00e+00	0	24	0	321912832	70	4361
2026-01-09 00:07:30.75	28.84	18.79	-51.9	-53.7	14.9	0.00e+00	0	24	0	329252864	70	4338
2026-01-09 00:07:34.74	29.06	19.28	-52.0	-53.9	14.8	0.00e+00	0	24	0	336592896	70	4422
2026-01-09 00:07:38.72	29.28	19.77	-52.0	-53.8	14.9	0.00e+00	0	24	0	343932928	70	4389
2026-01-09 00:07:42.70	29.52	20.28	-52.0	-53.8	14.9	0.00e+00	0	24	0	351272960	70	4384
2026-01-09 00:07:46.69	29.76	20.79	-51.9	-53.7	14.9	0.00e+00	0	24	0	358612992	70	4314
2026-01-09 00:07:50.68	30.01	21.32	-51.8	-53.6	15.0	0.00e+00	0	24	0	367001600	70	4290
2026-01-09 00:07:54.69	30.26	21.86	-51.9	-53.7	15.0	0.00e+00	0	24	0	374341632	70	4307
2026-01-09 00:07:58.67	30.53	22.40	-51.5	-53.3	15.0	0.00e+00	0	24	0	381681664	69	4358
2026-01-09 00:08:02.68	30.80	22.97	-51.4	-53.1	15.1	0.00e+00	0	24	0	389021696	69	4268
2026-01-09 00:08:06.66	31.09	23.54	-51.3	-53.0	15.2	0.00e+00	0	24	0	396361728	69	4226
2026-01-09 00:08:10.64	31.38	24.12	-51.4	-53.0	15.1	0.00e+00	0	24	0	403701760	69	4242
2026-01-09 00:08:14.64	31.68	24.71	-51.0	-52.6	15.2	0.00e+00	0	24	0	411041792	68	4288
2026-01-09 00:08:18.62	32.00	25.32	-50.8	-52.4	15.3	0.00e+00	0	24	0	418381824	68	4177
2026-01-09 00:08:22.59	32.32	25.94	-50.8	-52.4	15.2	0.00e+00	0	24	0	426770432	68	4165
2026-01-09 00:08:26.60	32.66	26.58	-50.9	-52.5	15.2	0.00e+00	0	24	0	434110464	68	4201
2026-01-09 00:08:30.60	33.02	27.23	-51.1	-52.7	15.1	0.00e+00	0	24	0	441450496	68	4333
2026-01-09 00:08:34.58	33.38	27.90	-51.5	-53.2	14.9	0.00e+00	0	24	0	448790528	68	4598
2026-01-09 00:08:38.55	33.76	28.57	-51.8	-53.5	14.7	0.00e+00	0	24	0	456130560	68	4757
2026-01-09 00:08:42.56	34.16	29.27	-52.1	-54.0	14.7	0.00e+00	0	24	0	463470592	69	4712
2026-01-09 00:08:46.55	34.58	29.99	-52.5	-54.5	14.6	0.00e+00	0	24	0	470810624	70	4727
2026-01-09 00:08:50.55	35.01	30.72	-53.1	-55.3	14.3	0.00e+00	0	24	0	479199232	71	4899
2026-01-09 00:08:54.56	35.46	31.47	-53.2	-55.4	14.2	0.00e+00	0	24	0	486539264	71	4965
2026-01-09 00:08:58.55	35.94	32.23	-53.5	-55.8	14.1	0.00e+00	0	24	0	493879296	72	4874
2026-01-09 00:09:02.53	36.43	33.01	-53.7	-56.1	14.0	0.00e+00	0	24	0	501219328	72	5078
2026-01-09 00:09:06.53	36.95	33.82	-54.0	-56.5	13.9	0.00e+00	0	24	0	508559360	73	5006
2026-01-09 00:09:10.54	37.50	34.64	-54.0	-56.5	13.9	0.00e+00	0	24	0	515899392	73	5002
2026-01-09 00:09:14.54	38.07	35.48	-53.9	-56.3	14.0	0.00e+00	0	24	0	524288000	73	4912
2026-01-09 00:09:18.53	38.67	36.34	-53.9	-56.3	14.0	0.00e+00	0	24	0	531628032	73	4919
2026-01-09 00:09:22.51	39.30	37.21	-54.0	-56.4	13.9	0.00e+00	0	24	0	538968064	73	4980
2026-01-09 00:09:26.49	39.97	38.11	-54.0	-56.5	13.9	0.00e+00	0	24	0	546308096	73	5003
2026-01-09 00:09:30.48	40.68	39.03	-54.1	-56.7	13.8	0.00e+00	0	24	0	553648128	73	5111
2026-01-09 00:09:34.47	41.42	39.97	-53.9	-56.3	14.0	0.00e+00	0	24	0	560988160	73	4875
2026-01-09 00:09:38.46	42.21	40.93	-53.2	-55.3	14.6	0.00e+00	0	24	0	568328192	73	4356
2026-01-09 00:09:42.46	43.05	41.91	-52.7	-54.7	14.8	0.00e+00	0	24	0	575668224	72	4320
2026-01-09 00:09:46.46	43.94	42.91	-52.5	-54.4	14.8	0.00e+00	0	24	0	584056832	71	4421
2026-01-09 00:09:50.46	44.89	43.93	-53.0	-55.0	14.5	0.00e+00	0	24	0	591396864	71	4727
2026-01-09 00:09:54.45	45.90	44.96	-53.1	-55.2	14.4	0.00e+00	0	24	0	598736896	71	4865
2026-01-09 00:09:58.45	46.97	46.02	-53.6	-55.8	14.2	0.00e+00	0	24	0	606076928	72	4923
2026-01-09 00:10:02.45	48.12	47.09	-54.5	-57.1	13.7	0.00e+00	0	24	0	613416960	74	5060
2026-01-09 00:10:06.44	49.35	48.18	-53.2	-55.3	14.7	0.00e+00	0	24	0	620756992	73	4342
2026-01-09 00:10:10.43	50.67	49.27	-53.1	-55.2	14.5	0.00e+00	0	24	0	628097024	72	4568
2026-01-09 00:10:14.42	52.09	50.38	-51.5	-53.2	15.1	0.00e+00	0	24	0	636485632	69	4308
2026-01-09 00:10:18.41	53.61	51.50	-49.6	-51.3	15.5	0.00e+00	0	24	0	643825664	66	4109
2026-01-09 00:10:22.39	55.24	52.61	-49.2	-50.6	15.6	0.00e+00	0	24	0	651165696	65	4011
2026-01-09 00:10:26.38	57.01	53.73	-49.4	-50.7	15.4	0.00e+00	0	24	0	658505728	64	4324
2026-01-09 00:10:30.37	58.92	54.85	-50.2	-51.7	15.1	0.00e+00	0	24	0	665845760	65	4557
2026-01-09 00:10:34.36	60.98	55.95	-51.5	-53.2	15.0	0.00e+00	0	24	0	673185792	68	4563
2026-01-09 00:10:38.36	63.21	57.04	-52.7	-54.7	14.5	0.00e+00	0	24	0	680525824	70	4815
2026-01-09 00:10:42.35	65.62	58.11	-52.7	-54.7	14.7	0.00e+00	0	24	0	688914432	71	4547
2026-01-09 00:10:46.34	68.23	59.14	-52.4	-54.2	14.9	0.00e+00	0	24	0	696254464	71	4334
2026-01-09 00:10:50.32	71.03	60.13	-51.5	-53.2	15.1	0.00e+00	0	24	0	703594496	69	4307
2026-01-09 00:10:54.32	74.07	61.08	-50.5	-52.0	15.2	0.00e+00	0	24	0	710934528	66	4480
2026-01-09 00:10:58.31	77.33	61.96	-50.3	-51.8	15.3	0.00e+00	0	24	0	718274560	66	4354
2026-01-09 00:11:02.30	80.82	62.77	-50.5	-52.0	15.1	0.00e+00	0	24	0	725614592	66	4489
2026-01-09 00:11:06.29	84.54	63.49	-50.9	-52.5	15.1	0.00e+00	0	24	0	732954624	67	4453
2026-01-09 00:11:10.30	88.50	64.12	-51.2	-52.8	14.9	0.00e+00	0	24	0	741343232	67	4630
2026-01-09 00:11:14.30	92.65	64.63	-52.2	-54.0	14.7	0.00e+00	0	24	0	748683264	69	4731
2026-01-09 00:11:18.30	96.97	65.03	-52.6	-54.6	14.6	0.00e+00	0	24	0	756023296	70	4760
2026-01-09 00:11:22.27	101.38	65.29	-52.3	-54.1	15.0	0.00e+00	0	24	0	763363328	71	4253
2026-01-09 00:11:26.26	105.90	65.42	-51.4	-53.0	15.2	0.00e+00	0	24	0	770703360	69	4197
2026-01-09 00:11:30.24	110.43	65.42	-51.6	-53.2	15.1	0.00e+00	0	24	0	778043392	69	4338
2026-01-09 00:11:34.24	114.95	65.27	-52.2	-54.0	14.7	0.00e+00	0	24	0	785383424	69	4733
2026-01-09 00:11:38.24	119.39	65.00	-51.3	-52.9	15.3	0.00e+00	0	24	0	792723456	69	4159
2026-01-09 00:11:42.22	123.68	64.59	-51.3	-52.9	15.1	0.00e+00	0	24	0	801112064	68	4405
2026-01-09 00:11:46.22	127.81	64.07	-50.2	-51.6	15.5	0.00e+00	0	24	0	808452096	67	4048
2026-01-09 00:11:50.22	131.75	63.43	-50.0	-51.4	15.4	0.00e+00	0	24	0	815792128	66	4193
2026-01-09 00:11:54.21	135.45	62.70	-48.9	-50.2	15.6	0.00e+00	0	24	0	823132160	64	4057
2026-01-09 00:11:58.20	138.93	61.89	-48.7	-50.0	15.5	0.00e+00	0	24	0	830472192	63	4225
2026-01-09 00:12:02.20	142.18	61.00	-49.2	-50.5	15.3	0.00e+00	0	24	0	837812224	63	4480
2026-01-09 00:12:06.20	145.20	60.04	-50.3	-51.7	15.3	0.00e+00	0	24	0	845152256	66	4324
2026-01-09 00:12:10.20	148.01	59.04	-51.3	-52.9	15.1	0.00e+00	0	24	0	853540864	68	4430
2026-01-09 00:12:14.20	150.60	58.00	-51.1	-52.7	15.2	0.00e+00	0	24	0	860880896	68	4307
2026-01-09 00:12:18.20	153.00	56.93	-49.5	-50.9	15.5	0.00e+00	0	24	0	868220928	65	4173
2026-01-09 00:12:22.19	155.22	55.83	-48.9	-50.2	15.6	0.00e+00	0	24	0	875560960	64	4079
2026-01-09 00:12:26.18	157.26	54.72	-48.8	-50.1	15.7	0.00e+00	0	24	0	882900992	64	4017
2026-01-09 00:12:30.17	159.16	53.61	-48.7	-50.0	15.5	0.00e+00	0	24	0	890241024	63	4216
2026-01-09 00:12:34.15	160.91	52.49	-50.2	-51.7	15.3	0.00e+00	0	24	0	897581056	66	4297
2026-01-09 00:12:38.14	162.54	51.36	-50.9	-52.5	15.1	0.00e+00	0	24	0	905969664	67	4476
2026-01-09 00:12:42.15	164.06	50.24	-52.9	-54.9	14.5	0.00e+00	0	24	0	913309696	71	4705
2026-01-09 00:12:46.15	165.47	49.13	-54.4	-57.0	13.6	0.00e+00	0	24	0	920649728	73	5322
2026-01-09 00:12:50.15	166.78	48.03	-54.9	-57.7	13.4	0.00e+00	0	24	0	927989760	75	5153
2026-01-09 00:12:54.15	168.00	46.94	-54.2	-56.7	13.9	0.00e+00	0	24	0	935329792	73	5140
2026-01-09 00:12:58.13	169.14	45.87	-53.0	-55.0	14.6	0.00e+00	0	24	0	942669824	72	4468
2026-01-09 00:13:02.10	170.21	44.82	-52.0	-53.8	14.8	0.00e+00	0	24	0	950009856	69	4647
2026-01-09 00:13:06.10	171.21	43.78	-52.5	-54.4	14.8	0.00e+00	0	24	0	958398464	71	4421
2026-01-09 00:13:10.09	172.15	42.76	-50.0	-51.5	15.4	0.00e+00	0	24	0	965738496	66	4199
2026-01-09 00:13:14.08	173.03	41.76	-52.2	-54.1	14.8	0.00e+00	0	24	0	973078528	70	4526
2026-01-09 00:13:18.07	173.87	40.78	-50.6	-52.2	15.2	0.00e+00	0	24	0	980418560	67	4292
2026-01-09 00:13:22.06	174.65	39.82	-52.5	-54.4	14.6	0.00e+00	0	24	0	987758592	70	4698
2026-01-09 00:13:26.04	175.39	38.88	-50.8	-52.4	15.3	0.00e+00	0	24	0	995098624	68	4161
2026-01-09 00:13:30.04	176.09	37.96	-50.4	-51.9	15.2	0.00e+00	0	24	0	1002438656	66	4401
2026-01-09 00:13:34.02	176.76	37.07	-52.6	-54.6	14.5	0.00e+00	0	24	0	1009778688	70	4769
2026-01-09 00:13:38.01	177.39	36.19	-51.0	-52.6	15.2	0.00e+00	0	24	0	1018167296	68	4259
2026-01-09 00:13:42.01	177.99	35.33	-50.5	-52.0	15.3	0.00e+00	0	24	0	1025507328	67	4233
2026-01-09 00:13:46.01	178.56	34.49	-52.1	-54.0	14.7	0.00e+00	0	24	0	1032847360	69	4734
2026-01-09 00:13:50.02	179.10	33.66	-52.6	-54.5	14.5	0.00e+00	0	24	0	1040187392	70	4758
2026-01-09 00:13:54.02	179.62	32.86	-52.7	-54.7	14.5	0.00e+00	0	24	0	1047527424	70	4868
2026-01-09 00:13:58.01	180.11	32.07	-52.3	-54.2	14.7	0.00e+00	0	24	0	1054867456	70	4594
2026-01-09 00:14:02.02	180.58	31.31	-52.4	-54.3	14.6	0.00e+00	0	24	0	1063256064	70	4651
2026-01-09 00:14:06.02	181.03	30.56	-53.1	-55.2	14.3	0.00e+00	0	24	0	1070596096	71	4840
2026-01-09 00:14:10.01	181.46	29.83	-52.9	-55.0	14.4	0.00e+00	0	24	0	1077936128	71	4741
2026-01-09 00:14:14.00	181.87	29.11	-52.2	-54.0	15.0	0.00e+00	0	24	0	1085276160	71	4238
2026-01-09 00:14:17.99	182.27	28.42	-51.5	-53.1	15.1	0.00e+00	0	24	0	1092616192	69	4289
2026-01-09 00:14:21.99	182.65	27.73	-51.7	-53.4	14.9	0.00e+00	0	24	0	1099956224	69	4433
2026-01-09 00:14:25.98	183.01	27.07	-52.1	-54.0	14.6	0.00e+00	0	24	0	1107296256	69	4750
2026-01-09 00:14:29.97	183.36	26.42	-52.0	-53.9	14.7	0.00e+00	0	24	0	1115684864	69	4681
2026-01-09 00:14:33.97	183.70	25.78	-51.2	-52.9	15.2	0.00e+00	0	24	0	1123024896	69	4166
2026-01-09 00:14:37.97	184.02	25.15	-50.7	-52.2	15.4	0.00e+00	0	24	0	1130364928	68	4077
2026-01-09 00:14:41.97	184.34	24.54	-50.6	-52.1	15.2	0.00e+00	0	24	0	1137704960	67	4290
2026-01-09 00:14:45.96	184.64	23.95	-50.7	-52.4	15.1	0.00e+00	0	24	0	1145044992	67	4407
2026-01-09 00:14:49.96	184.93	23.36	-50.6	-52.2	15.2	0.00e+00	0	24	0	1152385024	67	4331
2026-01-09 00:14:53.95	185.21	22.79	-50.4	-52.0	15.3	0.00e+00	0	24	0	1159725056	67	4213
2026-01-09 00:14:57.93	185.48	22.23	-50.4	-51.9	15.3	0.00e+00	0	24	0	1168113664	67	4171
2026-01-09 00:15:01.93	185.74	21.68	-50.5	-52.0	15.3	0.00e+00	0	24	0	1175453696	67	4223
2026-01-09 00:15:05.92	186.00	21.15	-50.3	-51.8	15.3	0.00e+00	0	24	0	1182793728	67	4126
2026-01-09 00:15:09.91	186.24	20.62	-50.4	-52.0	15.3	0.00e+00	0	24	0	1190133760	67	4194
2026-01-09 00:15:13.90	186.48	20.10	-50.6	-52.2	15.2	0.00e+00	0	24	0	1197473792	67	4302
2026-01-09 00:15:17.90	186.71	19.60	-50.7	-52.4	15.1	0.00e+00	0	24	0	1204813824	67	4401
2026-01-09 00:15:21.90	186.94	19.10	-50.5	-52.1	15.2	0.00e+00	0	24	0	1212153856	67	4275
2026-01-09 00:15:25.90	187.16	18.61	-50.6	-52.1	15.2	0.00e+00	0	24	0	1220542464	67	4290
2026-01-09 00:15:29.88	187.37	18.14	-50.6	-52.2	15.2	0.00e+00	0	24	0	1227882496	67	4302
2026-01-09 00:15:33.87	187.57	17.67	-50.7	-52.3	15.1	0.00e+00	0	24	0	1235222528	67	4388
2026-01-09 00:15:37.86	187.77	17.21	-51.0	-52.8	14.9	0.00e+00	0	24	0	1242562560	67	4599
2026-01-09 00:15:41.86	187.97	16.75	-51.3	-53.1	14.7	0.00e+00	0	24	0	1249902592	67	4794
2026-01-09 00:15:45.85	188.15	16.31	-51.7	-53.5	14.7	0.00e+00	0	24	0	1257242624	68	4758
2026-01-09 00:15:49.84	188.34	15.87	-51.8	-53.7	14.6	0.00e+00	0	24	0	1264582656	68	4848
2026-01-09 00:15:53.83	188.52	15.44	-51.9	-53.8	14.7	0.00e+00	0	24	0	1272971264	69	4639
2026-01-09 00:15:57.82	188.69	15.02	-51.9	-53.8	14.7	0.00e+00	0	24	0	1280311296	69	4615
2026-01-09 00:16:01.82	188.86	14.61	-51.9	-53.9	14.6	0.00e+00	0	24	0	1287651328	69	4666
2026-01-09 00:16:05.81	189.03	14.20	-51.9	-53.8	14.7	0.00e+00	0	24	0	1294991360	69	4621
2026-01-09 00:16:09.81	189.19	13.79	-51.9	-53.9	14.6	0.00e+00	0	24	0	1302331392	69	4675
2026-01-09 00:16:13.79	189.35	13.40	-52.1	-54.0	14.5	0.00e+00	0	24	0	1309671424	69	4756
2026-01-09 00:16:17.79	189.50	13.01	-52.1	-54.1	14.5	0.00e+00	0	24	0	1317011456	69	4773
2026-01-09 00:16:21.79	189.65	12.63	-52.1	-54.1	14.5	0.00e+00	0	24	0	1325400064	69	4792
2026-01-09 00:16:25.78	189.80	12.25	-52.2	-54.3	14.4	0.00e+00	0	24	0	1332740096	69	4873
2026-01-09 00:16:29.77	189.94	11.88	-52.2	-54.2	14.4	0.00e+00	0	24	0	1340080128	69	4848
2026-01-09 00:16:33.76	190.08	11.51	-52.1	-54.1	14.4	0.00e+00	0	24	0	1347420160	69	4806
2026-01-09 00:16:37.74	190.22	11.15	-52.0	-54.0	14.5	0.00e+00	0	24	0	1354760192	69	4709
2026-01-09 00:16:41.73	190.35	10.80	-51.9	-53.9	14.6	0.00e+00	0	24	0	1362100224	69	4676
2026-01-09 00:16:45.72	190.49	10.44	-51.8	-53.8	14.6	0.00e+00	0	24	0	1369440256	69	4616
2026-01-09 00:16:49.72	190.61	10.10	-51.8	-53.8	14.6	0.00e+00	0	24	0	1376780288	69	4622
2026-01-09 00:16:53.71	190.74	9.76	-51.9	-53.9	14.5	0.00e+00	0	24	0	1385168896	69	4673
2026-01-09 00:16:57.69	190.86	9.42	-51.8	-53.8	14.6	0.00e+00	0	24	0	1392508928	69	4619
2026-01-09 00:17:01.68	190.98	9.09	-51.8	-53.7	14.6	0.00e+00	0	24	0	1399848960	69	4571
2026-01-09 00:17:05.67	191.10	8.76	-51.9	-53.9	14.5	0.00e+00	0	24	0	1407188992	69	4670
2026-01-09 00:17:09.67	191.22	8.44	-51.9	-54.0	14.5	0.00e+00	0	24	0	1414529024	69	4710
2026-01-09 00:17:13.67	191.33	8.11	-52.0	-54.1	14.4	0.00e+00	0	24	0	1421869056	69	4796
2026-01-09 00:17:17.67	191.45	7.80	-52.2	-54.3	14.2	0.00e+00	0	24	0	1429209088	69	4924
2026-01-09 00:17:21.66	191.56	7.49	-52.3	-54.5	14.2	0.00e+00	0	24	0	1437597696	69	5020
2026-01-09 00:17:25.65	191.66	7.18	-52.5	-54.7	14.2	0.00e+00	0	24	0	1444937728	70	4862
2026-01-09 00:17:29.65	191.77	6.87	-52.6	-54.9	14.1	0.00e+00	0	24	0	1452277760	70	4971
2026-01-09 00:17:33.65	191.87	6.57	-52.7	-55.1	13.9	0.00e+00	0	24	0	1459617792	70	5078
2026-01-09 00:17:37.63	191.98	6.27	-53.0	-55.4	13.8	0.00e+00	0	24	0	1466957824	71	4983
2026-01-09 00:17:41.61	192.08	5.98	-53.1	-55.7	13.7	0.00e+00	0	24	0	1474297856	71	5106
2026-01-09 00:17:45.60	192.18	5.69	-53.0	-55.6	13.7	0.00e+00	0	24	0	1481637888	71	5052
2026-01-09 00:17:49.59	192.27	5.40	-53.1	-55.7	13.6	0.00e+00	0	24	0	1490026496	71	5150
2026-01-09 00:17:53.59	192.37	5.11	-53.1	-55.7	13.6	0.00e+00	0	24	0	1497366528	71	5146
2026-01-09 00:17:57.60	192.46	4.83	-58.5	-74.5	3.8	1.49e+00	0	24	104	1501560832	82	23799
2026-01-09 00:18:01.59	192.56	4.55	-59.0	-75.1	3.8	1.49e+00	0	24	104	1501560832	83	23947
2026-01-09 00:18:05.59	192.65	4.27	-59.3	-75.3	3.8	1.49e+00	0	24	104	1501560832	83	24566
2026-01-09 00:18:09.59	192.74	4.00	-59.4	-75.5	3.8	1.49e+00	0	24	104	1501560832	83	25064
2026-01-09 00:18:13.58	192.82	3.73	-59.7	-75.8	3.8	1.49e+00	0	24	104	1501560832	84	24497
2026-01-09 00:18:17.57	192.91	3.46	-59.8	-75.8	3.8	1.49e+00	0	24	104	1501560832	84	24688
2026-01-09 00:18:21.58	193.00	3.19	-59.7	-75.8	3.8	1.49e+00	0	24	104	1501560832	84	24501
2026-01-09 00:18:25.60	193.08	2.93	-59.7	-75.7	3.8	1.49e+00	0	24	104	1501560832	84	24373
2026-01-09 00:18:29.59	193.16	2.67	-59.6	-75.7	3.8	1.49e+00	0	24	104	1501560832	84	24343
2026-01-09 00:18:33.57	193.24	2.41	-59.6	-75.7	3.8	1.49e+00	0	24	104	1501560832	84	24218
2026-01-09 00:18:37.57	193.33	2.15	-59.6	-75.7	3.8	1.49e+00	0	24	104	1501560832	84	24156
2026-01-09 00:18:41.57	193.40	1.90	-59.6	-75.6	3.8	1.49e+00	0	24	104	1501560832	84	24111

#Closed at: 2026-01-09 00:18:42
#Recorded file [1501 MB]: D:/lorett/data/31004_260109_030415.dat