passes_logs/2026/01/09/R3.2S_Murmansk/R3.2S_Murmansk__20260109_220450_NOAA_20_JPSS-1_rec.log

#Pass ID: 20260109_220450_NOAA 20 (JPSS-1)
#Satellite: NOAA 20 (JPSS-1)
#Configuration: NOAA 20
#almurnet v.1.7.20251203
#Start time: 2026-01-09 22:04:50

#Version: 2.2.20231116
#Station: R3.2S_Murmansk
#Location: 33.079688 lon 68.888172 lat
#TLE: 1 43013U 17073A   26009.26828276  .00000112  00000+0  74203-4 0  9990
#TLE: 2 43013  98.7631 310.2683 0001700  47.4387 312.6933 14.19534764421920

#Time	Az	El	Level	Level2	SNR	BER	BlckErr	Temp	State	Recorded	gain1	gain2
2026-01-09 22:04:50.16	18.53	1.98	-57.3	-73.1	3.8	1.49e+00	0	21	0	0	81	21489
2026-01-09 22:04:53.16	18.77	2.14	-57.2	-73.1	3.8	1.49e+00	0	22	104	0	79	24115
2026-01-09 22:04:56.15	19.00	2.30	-57.2	-73.1	3.8	1.49e+00	0	21	104	0	79	24067
2026-01-09 22:04:59.16	19.24	2.46	-57.2	-73.1	3.8	1.49e+00	0	22	104	0	79	23880
2026-01-09 22:05:02.14	19.47	2.62	-57.2	-73.1	3.8	1.49e+00	0	22	104	0	79	24055
2026-01-09 22:05:05.15	19.71	2.78	-57.2	-73.2	3.8	1.49e+00	0	22	104	0	79	24288
2026-01-09 22:05:08.15	19.96	2.94	-57.2	-73.2	3.8	1.49e+00	0	22	104	0	79	24179
2026-01-09 22:05:11.16	20.21	3.10	-57.2	-73.2	3.8	1.49e+00	0	22	104	0	79	24339
2026-01-09 22:05:14.15	20.45	3.26	-57.2	-73.0	3.8	1.49e+00	0	22	104	0	79	23849
2026-01-09 22:05:17.14	20.70	3.42	-57.2	-72.4	3.8	1.49e+00	0	22	104	0	79	22255
2026-01-09 22:05:20.13	20.96	3.58	-57.2	-72.5	3.8	1.49e+00	0	22	104	0	79	22452
2026-01-09 22:05:23.11	21.21	3.75	-57.2	-72.1	3.8	1.49e+00	0	22	104	0	79	21502
2026-01-09 22:05:26.11	21.47	3.91	-57.1	-70.6	4.0	1.47e+00	0	22	0	0	79	17963
2026-01-09 22:05:29.11	21.73	4.08	-57.1	-70.6	3.9	1.48e+00	0	22	104	0	79	18004
2026-01-09 22:05:32.09	21.99	4.24	-56.9	-67.4	5.1	8.47e-01	0	22	0	2097152	79	12500
2026-01-09 22:05:35.08	22.26	4.40	-56.0	-62.1	9.2	2.67e-02	0	22	0	7340032	78	7198
2026-01-09 22:05:38.08	22.53	4.57	-55.2	-59.8	11.2	2.98e-04	0	23	0	12582912	77	5842
2026-01-09 22:05:41.08	22.80	4.74	-55.3	-60.1	10.8	2.72e-04	0	23	0	18874368	76	6405
2026-01-09 22:05:44.07	23.08	4.90	-56.1	-62.7	8.6	1.30e-02	0	23	0	24117248	77	8115
2026-01-09 22:05:47.07	23.36	5.07	-55.4	-60.2	11.0	3.63e-02	0	23	0	30408704	77	6121
2026-01-09 22:05:50.07	23.64	5.24	-54.4	-58.0	12.6	2.01e-03	0	23	0	34603008	75	5322
2026-01-09 22:05:53.07	23.93	5.41	-54.4	-58.0	12.6	7.00e-07	0	23	0	40894464	75	5293
2026-01-09 22:05:56.06	24.21	5.58	-54.0	-57.3	13.0	0.00e+00	0	23	0	46137344	74	5184
2026-01-09 22:05:59.06	24.51	5.75	-53.9	-57.0	13.3	0.00e+00	0	23	0	51380224	74	5026
2026-01-09 22:06:02.06	24.80	5.92	-53.7	-56.7	13.4	0.00e+00	0	23	0	57671680	73	5119
2026-01-09 22:06:05.06	25.10	6.09	-53.6	-56.6	13.4	0.00e+00	0	23	0	62914560	73	5084
2026-01-09 22:06:08.07	25.40	6.26	-53.6	-56.6	13.4	0.00e+00	0	23	0	69206016	73	5046
2026-01-09 22:06:11.06	25.71	6.43	-53.7	-56.6	13.4	0.00e+00	0	23	0	74448896	73	5084
2026-01-09 22:06:14.04	26.01	6.60	-53.5	-56.3	13.7	0.00e+00	0	23	0	79691776	73	4898
2026-01-09 22:06:17.04	26.32	6.77	-53.3	-56.0	13.9	0.00e+00	0	23	0	85983232	73	4725
2026-01-09 22:06:20.03	26.64	6.95	-53.3	-56.0	13.9	0.00e+00	0	23	0	91226112	73	4727
2026-01-09 22:06:23.02	26.96	7.12	-53.3	-56.0	13.9	0.00e+00	0	23	0	96468992	73	4745
2026-01-09 22:06:26.02	27.28	7.29	-53.3	-56.0	13.9	0.00e+00	0	23	0	102760448	73	4717
2026-01-09 22:06:29.01	27.60	7.47	-53.4	-56.1	13.8	0.00e+00	0	23	0	108003328	73	4796
2026-01-09 22:06:31.99	27.93	7.64	-53.3	-56.0	13.9	0.00e+00	0	23	0	113246208	73	4728
2026-01-09 22:06:34.97	28.26	7.82	-53.1	-55.6	14.0	0.00e+00	0	23	0	119537664	72	4807
2026-01-09 22:06:37.96	28.60	7.99	-53.1	-55.6	14.0	0.00e+00	0	23	0	124780544	72	4799
2026-01-09 22:06:40.96	28.94	8.17	-53.1	-55.6	14.0	0.00e+00	0	23	0	130023424	72	4778
2026-01-09 22:06:43.96	29.29	8.34	-53.1	-55.6	14.1	0.00e+00	0	23	0	136314880	72	4775
2026-01-09 22:06:46.96	29.64	8.52	-52.8	-55.2	14.3	0.00e+00	0	23	0	141557760	72	4555
2026-01-09 22:06:49.95	29.99	8.70	-52.7	-55.1	14.4	0.00e+00	0	23	0	146800640	72	4497
2026-01-09 22:06:52.95	30.35	8.87	-52.6	-54.9	14.3	0.00e+00	0	23	0	153092096	71	4655
2026-01-09 22:06:55.95	30.71	9.05	-52.7	-55.0	14.3	0.00e+00	0	23	0	158334976	71	4729
2026-01-09 22:06:58.94	31.07	9.23	-52.6	-54.8	14.4	0.00e+00	0	23	0	163577856	71	4629
2026-01-09 22:07:01.94	31.44	9.41	-52.7	-54.9	14.3	0.00e+00	0	23	0	169869312	71	4702
2026-01-09 22:07:04.93	31.82	9.59	-52.6	-54.9	14.4	0.00e+00	0	23	0	175112192	71	4682
2026-01-09 22:07:07.92	32.19	9.76	-52.8	-55.1	14.2	0.00e+00	0	23	0	181403648	71	4805
2026-01-09 22:07:10.92	32.58	9.94	-53.0	-55.4	14.1	0.00e+00	0	23	0	186646528	71	4946
2026-01-09 22:07:13.90	32.96	10.12	-52.9	-55.3	14.1	0.00e+00	0	23	0	191889408	71	4908
2026-01-09 22:07:16.90	33.36	10.30	-52.8	-55.1	14.2	0.00e+00	0	23	0	198180864	71	4797
2026-01-09 22:07:19.89	33.75	10.48	-52.7	-55.0	14.3	0.00e+00	0	23	0	203423744	71	4710
2026-01-09 22:07:22.91	34.16	10.66	-52.6	-54.9	14.4	0.00e+00	0	23	0	208666624	71	4673
2026-01-09 22:07:25.89	34.56	10.84	-52.8	-55.1	14.2	0.00e+00	0	23	0	214958080	71	4798
2026-01-09 22:07:28.90	34.97	11.02	-52.8	-55.1	14.3	0.00e+00	0	23	0	220200960	71	4762
2026-01-09 22:07:31.88	35.39	11.20	-52.6	-54.9	14.4	0.00e+00	0	23	0	225443840	71	4664
2026-01-09 22:07:34.87	35.81	11.38	-52.4	-54.5	14.6	0.00e+00	0	23	0	231735296	71	4475
2026-01-09 22:07:37.85	36.23	11.56	-52.3	-54.4	14.7	0.00e+00	0	23	0	236978176	71	4430
2026-01-09 22:07:40.85	36.66	11.74	-52.4	-54.5	14.6	0.00e+00	0	23	0	242221056	71	4472
2026-01-09 22:07:43.83	37.10	11.91	-52.5	-54.6	14.5	0.00e+00	0	23	0	248512512	71	4532
2026-01-09 22:07:46.82	37.54	12.09	-52.3	-54.5	14.7	0.00e+00	0	23	0	253755392	71	4442
2026-01-09 22:07:49.81	37.98	12.27	-52.3	-54.4	14.7	0.00e+00	0	23	0	258998272	71	4417
2026-01-09 22:07:52.80	38.43	12.45	-52.3	-54.3	14.8	0.00e+00	0	23	0	265289728	71	4380
2026-01-09 22:07:55.78	38.89	12.63	-52.4	-54.5	14.6	0.00e+00	0	23	0	270532608	71	4487
2026-01-09 22:07:58.77	39.35	12.80	-52.3	-54.3	14.8	0.00e+00	0	23	0	275775488	71	4385
2026-01-09 22:08:01.77	39.82	12.98	-52.1	-54.1	14.7	0.00e+00	0	23	0	282066944	70	4517
2026-01-09 22:08:04.76	40.29	13.16	-52.0	-54.0	14.8	0.00e+00	0	23	0	287309824	70	4489
2026-01-09 22:08:07.74	40.77	13.34	-51.9	-53.8	14.9	0.00e+00	0	23	0	292552704	70	4379
2026-01-09 22:08:10.73	41.25	13.51	-51.7	-53.6	15.0	0.00e+00	0	23	0	298844160	70	4279
2026-01-09 22:08:13.72	41.74	13.69	-51.7	-53.6	15.0	0.00e+00	0	23	0	304087040	70	4278
2026-01-09 22:08:16.71	42.23	13.86	-51.6	-53.5	14.9	0.00e+00	0	23	0	310378496	69	4459
2026-01-09 22:08:19.72	42.74	14.04	-51.5	-53.3	15.0	0.00e+00	0	23	0	315621376	69	4358
2026-01-09 22:08:22.72	43.25	14.21	-51.3	-53.1	15.1	0.00e+00	0	23	0	320864256	69	4267
2026-01-09 22:08:25.72	43.76	14.38	-51.3	-53.1	15.1	0.00e+00	0	23	0	327155712	69	4275
2026-01-09 22:08:28.70	44.28	14.55	-51.4	-53.2	15.1	0.00e+00	0	23	0	332398592	69	4301
2026-01-09 22:08:31.70	44.80	14.73	-51.4	-53.2	15.1	0.00e+00	0	23	0	337641472	69	4307
2026-01-09 22:08:34.68	45.33	14.89	-51.3	-53.1	15.1	0.00e+00	0	24	0	343932928	69	4246
2026-01-09 22:08:37.66	45.86	15.06	-51.3	-53.1	15.1	0.00e+00	0	23	0	349175808	69	4277
2026-01-09 22:08:40.67	46.41	15.23	-51.5	-53.4	15.0	0.00e+00	0	23	0	354418688	69	4400
2026-01-09 22:08:43.67	46.96	15.40	-51.6	-53.5	14.9	0.00e+00	0	23	0	360710144	69	4478
2026-01-09 22:08:46.67	47.51	15.56	-51.6	-53.5	14.9	0.00e+00	0	23	0	365953024	69	4443
2026-01-09 22:08:49.67	48.07	15.73	-51.6	-53.5	14.9	0.00e+00	0	23	0	371195904	69	4473
2026-01-09 22:08:52.67	48.64	15.89	-52.0	-53.9	14.7	0.00e+00	0	23	0	377487360	69	4697
2026-01-09 22:08:55.67	49.21	16.05	-52.1	-54.1	14.6	0.00e+00	0	23	0	382730240	69	4800
2026-01-09 22:08:58.67	49.79	16.21	-52.1	-54.1	14.6	0.00e+00	0	23	0	389021696	69	4762
2026-01-09 22:09:01.68	50.38	16.37	-52.0	-54.0	14.6	0.00e+00	0	23	0	394264576	69	4732
2026-01-09 22:09:04.68	50.97	16.52	-52.3	-54.4	14.4	0.00e+00	0	23	0	399507456	69	4943
2026-01-09 22:09:07.67	51.56	16.68	-52.4	-54.5	14.5	0.00e+00	0	24	0	405798912	70	4742
2026-01-09 22:09:10.68	52.17	16.83	-52.5	-54.6	14.4	0.00e+00	0	23	0	411041792	70	4799
2026-01-09 22:09:13.68	52.77	16.98	-52.5	-54.6	14.5	0.00e+00	0	23	0	416284672	70	4765
2026-01-09 22:09:16.68	53.39	17.13	-52.9	-55.2	14.1	0.00e+00	0	23	0	422576128	70	5128
2026-01-09 22:09:19.68	54.01	17.27	-53.2	-55.5	14.1	0.00e+00	0	23	0	427819008	71	5031
2026-01-09 22:09:22.69	54.64	17.41	-53.0	-55.3	14.2	0.00e+00	0	23	0	433061888	71	4883
2026-01-09 22:09:25.69	55.27	17.55	-52.6	-54.7	14.6	0.00e+00	0	23	0	439353344	71	4566
2026-01-09 22:09:28.69	55.91	17.69	-52.7	-54.8	14.5	0.00e+00	0	23	0	444596224	71	4631
2026-01-09 22:09:31.68	56.55	17.83	-52.6	-54.8	14.5	0.00e+00	0	23	0	450887680	71	4612
2026-01-09 22:09:34.67	57.19	17.96	-52.7	-54.8	14.5	0.00e+00	0	23	0	456130560	71	4625
2026-01-09 22:09:37.67	57.85	18.09	-52.3	-54.3	14.8	0.00e+00	0	23	0	461373440	71	4375
2026-01-09 22:09:40.66	58.51	18.21	-52.4	-54.4	14.7	0.00e+00	0	23	0	467664896	71	4432
2026-01-09 22:09:43.66	59.17	18.34	-52.3	-54.3	14.8	0.00e+00	0	23	0	472907776	71	4388
2026-01-09 22:09:46.67	59.84	18.46	-52.1	-54.1	14.8	0.00e+00	0	23	0	478150656	70	4497
2026-01-09 22:09:49.66	60.52	18.58	-52.1	-54.1	14.8	0.00e+00	0	23	0	484442112	70	4503
2026-01-09 22:09:52.66	61.20	18.69	-52.5	-54.6	14.5	0.00e+00	0	23	0	489684992	70	4764
2026-01-09 22:09:55.65	61.88	18.80	-52.5	-54.6	14.5	0.00e+00	0	23	0	494927872	70	4779
2026-01-09 22:09:58.65	62.57	18.91	-52.1	-54.0	14.8	0.00e+00	0	23	0	501219328	70	4459
2026-01-09 22:10:01.65	63.27	19.01	-52.1	-54.0	14.8	0.00e+00	0	23	0	506462208	70	4456
2026-01-09 22:10:04.65	63.96	19.11	-52.3	-54.3	14.6	0.00e+00	0	23	0	511705088	70	4638
2026-01-09 22:10:07.66	64.67	19.21	-52.3	-54.3	14.6	0.00e+00	0	23	0	517996544	70	4602
2026-01-09 22:10:10.66	65.38	19.30	-52.0	-53.9	14.8	0.00e+00	0	23	0	523239424	70	4433
2026-01-09 22:10:13.67	66.09	19.39	-52.0	-53.9	14.9	0.00e+00	0	23	0	529530880	70	4395
2026-01-09 22:10:16.66	66.81	19.47	-52.1	-54.1	14.8	0.00e+00	0	23	0	534773760	70	4496
2026-01-09 22:10:19.66	67.53	19.55	-52.1	-54.1	14.8	0.00e+00	0	23	0	540016640	70	4499
2026-01-09 22:10:22.66	68.25	19.62	-51.9	-53.7	14.9	0.00e+00	0	23	0	546308096	70	4336
2026-01-09 22:10:25.67	68.98	19.70	-51.7	-53.5	15.1	0.00e+00	0	23	0	551550976	70	4222
2026-01-09 22:10:28.66	69.71	19.76	-52.1	-54.1	14.8	0.00e+00	0	23	0	556793856	70	4516
2026-01-09 22:10:31.65	70.44	19.82	-52.6	-54.7	14.5	0.00e+00	0	23	0	563085312	70	4839
2026-01-09 22:10:34.64	71.17	19.88	-52.6	-54.7	14.4	0.00e+00	0	23	0	568328192	70	4851
2026-01-09 22:10:37.64	71.91	19.94	-52.2	-54.2	14.7	0.00e+00	0	23	0	574619648	70	4570
2026-01-09 22:10:40.63	72.65	19.98	-52.3	-54.3	14.7	0.00e+00	0	24	0	579862528	70	4610
2026-01-09 22:10:43.63	73.39	20.03	-52.5	-54.6	14.5	0.00e+00	0	23	0	585105408	70	4774
2026-01-09 22:10:46.63	74.14	20.07	-52.3	-54.3	14.6	0.00e+00	0	23	0	591396864	70	4648
2026-01-09 22:10:49.62	74.88	20.10	-52.3	-54.2	14.7	0.00e+00	0	23	0	596639744	70	4596
2026-01-09 22:10:52.64	75.64	20.13	-52.6	-54.7	14.4	0.00e+00	0	23	0	601882624	70	4835
2026-01-09 22:10:55.64	76.39	20.16	-53.2	-55.5	14.1	0.00e+00	0	23	0	608174080	71	5038
2026-01-09 22:10:58.63	77.14	20.18	-53.0	-55.2	14.3	0.00e+00	0	23	0	613416960	71	4870
2026-01-09 22:11:01.63	77.89	20.19	-52.6	-54.8	14.5	0.00e+00	0	24	0	618659840	71	4600
2026-01-09 22:11:04.64	78.65	20.21	-52.4	-54.4	14.7	0.00e+00	0	24	0	624951296	71	4420
2026-01-09 22:11:07.63	79.40	20.21	-52.3	-54.3	14.8	0.00e+00	0	23	0	630194176	71	4363
2026-01-09 22:11:10.63	80.15	20.21	-52.3	-54.3	14.8	0.00e+00	0	23	0	636485632	71	4375
2026-01-09 22:11:13.62	80.90	20.21	-52.4	-54.5	14.7	0.00e+00	0	23	0	641728512	71	4449
2026-01-09 22:11:16.62	81.66	20.20	-52.5	-54.5	14.7	0.00e+00	0	23	0	646971392	71	4482
2026-01-09 22:11:19.61	82.41	20.19	-52.2	-54.2	14.9	0.00e+00	0	23	0	653262848	71	4305
2026-01-09 22:11:22.61	83.16	20.17	-52.5	-54.5	14.7	0.00e+00	0	23	0	658505728	71	4491
2026-01-09 22:11:25.59	83.90	20.14	-52.8	-54.9	14.4	0.00e+00	0	23	0	663748608	71	4705
2026-01-09 22:11:28.60	84.66	20.12	-52.8	-55.0	14.4	0.00e+00	0	23	0	670040064	71	4756
2026-01-09 22:11:31.58	85.40	20.08	-52.8	-55.0	14.4	0.00e+00	0	23	0	675282944	71	4736
2026-01-09 22:11:34.58	86.15	20.05	-52.1	-54.0	14.8	0.00e+00	0	23	0	680525824	70	4474
2026-01-09 22:11:37.58	86.89	20.00	-52.0	-53.9	14.9	0.00e+00	0	23	0	686817280	70	4412
2026-01-09 22:11:40.57	87.63	19.96	-52.3	-54.3	14.6	0.00e+00	0	23	0	692060160	70	4634
2026-01-09 22:11:43.55	88.37	19.90	-52.3	-54.3	14.6	0.00e+00	0	23	0	697303040	70	4623
2026-01-09 22:11:46.54	89.10	19.85	-52.1	-54.0	14.8	0.00e+00	0	24	0	703594496	70	4469
2026-01-09 22:11:49.53	89.84	19.79	-51.7	-53.6	15.1	0.00e+00	0	23	0	708837376	70	4260
2026-01-09 22:11:52.54	90.57	19.72	-51.5	-53.3	15.0	0.00e+00	0	23	0	714080256	69	4353
2026-01-09 22:11:55.55	91.30	19.65	-51.6	-53.5	15.0	0.00e+00	0	23	0	720371712	69	4443
2026-01-09 22:11:58.55	92.03	19.58	-51.7	-53.5	14.9	0.00e+00	0	23	0	725614592	69	4479
2026-01-09 22:12:01.55	92.75	19.50	-51.7	-53.5	14.9	0.00e+00	0	23	0	731906048	69	4485
2026-01-09 22:12:04.54	93.47	19.42	-51.6	-53.4	15.0	0.00e+00	0	23	0	737148928	69	4427
2026-01-09 22:12:07.53	94.18	19.33	-51.3	-53.1	15.1	0.00e+00	0	24	0	742391808	69	4266
2026-01-09 22:12:10.52	94.89	19.24	-50.9	-52.6	15.2	0.00e+00	0	23	0	748683264	68	4259
2026-01-09 22:12:13.52	95.60	19.15	-51.2	-52.9	15.1	0.00e+00	0	23	0	753926144	68	4407
2026-01-09 22:12:16.52	96.30	19.05	-51.3	-53.0	15.0	0.00e+00	0	24	0	759169024	68	4474
2026-01-09 22:12:19.53	97.00	18.95	-51.2	-52.9	15.1	0.00e+00	0	23	0	765460480	68	4407
2026-01-09 22:12:22.52	97.69	18.84	-50.8	-52.5	15.3	0.00e+00	0	23	0	770703360	68	4194
2026-01-09 22:12:25.52	98.38	18.73	-50.3	-51.9	15.4	0.00e+00	0	24	0	775946240	67	4158
2026-01-09 22:12:28.53	99.07	18.62	-50.1	-51.7	15.3	0.00e+00	0	23	0	782237696	66	4292
2026-01-09 22:12:31.52	99.75	18.50	-50.1	-51.7	15.3	0.00e+00	0	24	0	787480576	66	4318
2026-01-09 22:12:34.52	100.42	18.38	-50.4	-52.0	15.1	0.00e+00	0	23	0	793772032	66	4477
2026-01-09 22:12:37.51	101.09	18.26	-50.9	-52.6	14.9	0.00e+00	0	24	0	799014912	66	4771
2026-01-09 22:12:40.50	101.75	18.14	-50.9	-52.7	15.0	0.00e+00	0	23	0	804257792	67	4549
2026-01-09 22:12:43.49	102.40	18.01	-51.0	-52.8	14.9	0.00e+00	0	24	0	810549248	67	4616
2026-01-09 22:12:46.48	103.05	17.88	-51.5	-53.4	14.8	0.00e+00	0	23	0	815792128	68	4661
2026-01-09 22:12:49.45	103.70	17.74	-51.6	-53.4	14.8	0.00e+00	0	24	0	821035008	68	4703
2026-01-09 22:12:52.45	104.34	17.61	-51.8	-53.7	14.6	0.00e+00	0	24	0	827326464	68	4847
2026-01-09 22:12:55.45	104.97	17.47	-52.0	-54.0	14.6	0.00e+00	0	24	0	832569344	69	4723
2026-01-09 22:12:58.45	105.60	17.32	-52.0	-54.0	14.6	0.00e+00	0	23	0	837812224	69	4713
2026-01-09 22:13:01.45	106.23	17.18	-52.0	-54.0	14.6	0.00e+00	0	24	0	844103680	69	4708
2026-01-09 22:13:04.44	106.85	17.03	-52.3	-54.3	14.5	0.00e+00	0	23	0	849346560	69	4925
2026-01-09 22:13:07.44	107.46	16.88	-52.2	-54.3	14.5	0.00e+00	0	23	0	854589440	69	4871
2026-01-09 22:13:10.44	108.06	16.73	-52.0	-54.0	14.6	0.00e+00	0	24	0	860880896	69	4739
2026-01-09 22:13:13.43	108.66	16.58	-52.0	-54.0	14.6	0.00e+00	0	24	0	866123776	69	4716
2026-01-09 22:13:16.43	109.26	16.42	-52.2	-54.2	14.5	0.00e+00	0	24	0	871366656	69	4859
2026-01-09 22:13:19.41	109.84	16.26	-52.2	-54.2	14.5	0.00e+00	0	23	0	877658112	69	4855
2026-01-09 22:13:22.41	110.43	16.11	-52.0	-53.9	14.6	0.00e+00	0	23	0	882900992	69	4683
2026-01-09 22:13:25.41	111.00	15.94	-51.5	-53.3	15.0	0.00e+00	0	23	0	889192448	69	4359
2026-01-09 22:13:28.40	111.57	15.78	-51.5	-53.2	15.0	0.00e+00	0	23	0	894435328	69	4336
2026-01-09 22:13:31.39	112.14	15.62	-51.5	-53.3	15.0	0.00e+00	0	23	0	899678208	69	4369
2026-01-09 22:13:34.39	112.70	15.45	-51.7	-53.6	14.8	0.00e+00	0	23	0	905969664	69	4525
2026-01-09 22:13:37.38	113.25	15.29	-52.5	-54.6	14.4	0.00e+00	0	23	0	911212544	70	4807
2026-01-09 22:13:40.35	113.79	15.12	-52.6	-54.7	14.4	0.00e+00	0	23	0	916455424	70	4849
2026-01-09 22:13:43.35	114.33	14.95	-52.0	-54.0	14.8	0.00e+00	0	23	0	922746880	70	4450
2026-01-09 22:13:46.34	114.86	14.78	-51.8	-53.7	14.8	0.00e+00	0	23	0	927989760	69	4551
2026-01-09 22:13:49.32	115.39	14.61	-52.1	-54.1	14.6	0.00e+00	0	23	0	933232640	69	4762
2026-01-09 22:13:52.31	115.91	14.44	-51.7	-53.6	14.8	0.00e+00	0	24	0	939524096	69	4536
2026-01-09 22:13:55.31	116.43	14.26	-51.7	-53.5	14.8	0.00e+00	0	23	0	944766976	69	4492
2026-01-09 22:13:58.30	116.94	14.09	-52.0	-54.0	14.6	0.00e+00	0	23	0	950009856	69	4751
2026-01-09 22:14:01.30	117.45	13.91	-51.9	-53.8	14.7	0.00e+00	0	23	0	956301312	69	4634
2026-01-09 22:14:04.29	117.94	13.74	-51.6	-53.5	14.9	0.00e+00	0	23	0	961544192	69	4475
2026-01-09 22:14:07.28	118.44	13.56	-51.9	-53.9	14.7	0.00e+00	0	24	0	966787072	69	4658
2026-01-09 22:14:10.27	118.92	13.39	-52.1	-54.2	14.5	0.00e+00	0	23	0	973078528	69	4844
2026-01-09 22:14:13.27	119.41	13.21	-51.8	-53.7	14.8	0.00e+00	0	23	0	978321408	69	4567
2026-01-09 22:14:16.27	119.88	13.03	-51.6	-53.5	14.8	0.00e+00	0	23	0	983564288	69	4466
2026-01-09 22:14:19.26	120.36	12.85	-51.9	-53.8	14.7	0.00e+00	0	23	0	989855744	69	4649
2026-01-09 22:14:22.26	120.82	12.67	-52.2	-54.3	14.4	0.00e+00	0	23	0	995098624	69	4906
2026-01-09 22:14:25.26	121.28	12.49	-52.0	-54.0	14.6	0.00e+00	0	24	0	1001390080	69	4740
2026-01-09 22:14:28.26	121.74	12.31	-51.8	-53.8	14.7	0.00e+00	0	24	0	1006632960	69	4644
2026-01-09 22:14:31.25	122.19	12.13	-52.1	-54.2	14.5	0.00e+00	0	23	0	1011875840	69	4841
2026-01-09 22:14:34.25	122.63	11.95	-52.2	-54.4	14.3	0.00e+00	0	24	0	1018167296	69	4939
2026-01-09 22:14:37.23	123.07	11.77	-51.9	-53.9	14.6	0.00e+00	0	23	0	1023410176	69	4696
2026-01-09 22:14:40.23	123.51	11.59	-51.9	-53.9	14.6	0.00e+00	0	24	0	1028653056	69	4681
2026-01-09 22:14:43.21	123.93	11.41	-52.1	-54.2	14.4	0.00e+00	0	23	0	1034944512	69	4870
2026-01-09 22:14:46.19	124.35	11.23	-52.5	-54.8	14.3	0.00e+00	0	23	0	1040187392	70	4880
2026-01-09 22:14:49.17	124.77	11.05	-52.4	-54.6	14.3	0.00e+00	0	23	0	1045430272	70	4813
2026-01-09 22:14:52.16	125.18	10.87	-52.2	-54.3	14.5	0.00e+00	0	24	0	1051721728	70	4614
2026-01-09 22:14:55.14	125.59	10.69	-52.4	-54.6	14.3	0.00e+00	0	24	0	1056964608	70	4793
2026-01-09 22:14:58.13	125.99	10.51	-52.5	-54.8	14.2	0.00e+00	0	23	0	1062207488	70	4880
2026-01-09 22:15:01.13	126.39	10.33	-52.6	-54.9	14.2	0.00e+00	0	24	0	1068498944	70	4959
2026-01-09 22:15:04.12	126.79	10.15	-52.5	-54.7	14.2	0.00e+00	0	23	0	1073741824	70	4866
2026-01-09 22:15:07.13	127.18	9.97	-52.6	-54.9	14.1	0.00e+00	0	23	0	1078984704	70	4960
2026-01-09 22:15:10.14	127.57	9.79	-53.0	-55.4	13.9	0.00e+00	0	24	0	1085276160	71	4977
2026-01-09 22:15:13.13	127.95	9.61	-53.1	-55.7	13.7	0.00e+00	0	23	0	1090519040	71	5157
2026-01-09 22:15:16.13	128.33	9.43	-53.1	-55.7	13.8	0.00e+00	0	23	0	1095761920	71	5151
2026-01-09 22:15:19.13	128.70	9.25	-52.7	-55.1	14.1	0.00e+00	0	24	0	1102053376	71	4779
2026-01-09 22:15:22.12	129.07	9.07	-52.6	-54.9	14.3	0.00e+00	0	24	0	1107296256	71	4655
2026-01-09 22:15:25.10	129.43	8.89	-52.7	-55.1	14.1	0.00e+00	0	24	0	1113587712	71	4810
2026-01-09 22:15:28.10	129.79	8.71	-53.0	-55.5	13.9	0.00e+00	0	23	0	1118830592	71	5014
2026-01-09 22:15:31.10	130.14	8.53	-53.1	-55.7	13.7	0.00e+00	0	23	0	1124073472	71	5130
2026-01-09 22:15:34.09	130.49	8.35	-53.1	-55.7	13.7	0.00e+00	0	24	0	1130364928	71	5134
2026-01-09 22:15:37.07	130.84	8.18	-53.2	-55.9	13.6	0.00e+00	0	23	0	1135607808	71	5262
2026-01-09 22:15:40.06	131.18	8.00	-53.5	-56.4	13.4	0.00e+00	0	24	0	1140850688	72	5247
2026-01-09 22:15:43.04	131.52	7.82	-53.5	-56.3	13.4	0.00e+00	0	24	0	1147142144	72	5188
2026-01-09 22:15:46.03	131.85	7.65	-53.3	-56.1	13.6	0.00e+00	0	24	0	1152385024	72	5060
2026-01-09 22:15:49.02	132.18	7.47	-53.2	-55.9	13.7	0.00e+00	0	23	0	1157627904	72	4936
2026-01-09 22:15:52.01	132.51	7.30	-53.2	-56.0	13.6	0.00e+00	0	23	0	1163919360	72	4985
2026-01-09 22:15:54.99	132.83	7.12	-53.5	-56.4	13.4	0.00e+00	0	24	0	1169162240	72	5220
2026-01-09 22:15:57.98	133.15	6.95	-53.6	-56.7	13.1	0.00e+00	0	23	0	1174405120	72	5405
2026-01-09 22:16:00.99	133.47	6.77	-53.8	-57.0	12.9	0.00e+00	0	24	0	1180696576	72	5597
2026-01-09 22:16:03.99	133.78	6.60	-53.9	-57.1	12.8	0.00e+00	0	23	0	1185939456	72	5696
2026-01-09 22:16:06.98	134.09	6.43	-54.0	-57.4	12.7	0.00e+00	0	24	0	1191182336	73	5563
2026-01-09 22:16:09.99	134.40	6.25	-54.1	-57.7	12.5	0.00e+00	0	24	0	1197473792	73	5768
2026-01-09 22:16:12.97	134.70	6.08	-53.9	-57.6	12.6	7.00e-07	0	23	0	1202716672	73	5664
2026-01-09 22:16:15.97	135.00	5.91	-53.9	-57.6	12.5	7.00e-07	0	23	0	1209008128	73	5692
2026-01-09 22:16:18.96	135.29	5.74	-54.1	-57.7	12.4	7.00e-07	0	24	0	1214251008	73	5780
2026-01-09 22:16:21.96	135.58	5.57	-54.2	-58.0	12.2	1.50e-06	0	24	0	1219493888	73	5930
2026-01-09 22:16:24.96	135.87	5.40	-54.1	-57.7	12.4	7.00e-07	0	24	0	1225785344	73	5740
2026-01-09 22:16:27.95	136.16	5.23	-54.1	-57.8	12.3	2.20e-06	0	23	0	1231028224	73	5819
2026-01-09 22:16:30.93	136.44	5.06	-53.8	-57.2	12.7	0.00e+00	0	24	0	1236271104	73	5447
2026-01-09 22:16:33.93	136.72	4.89	-58.1	-74.1	3.8	1.49e+00	0	23	104	1238368256	81	23956
2026-01-09 22:16:36.92	136.99	4.72	-58.6	-74.7	3.8	1.49e+00	0	24	104	1238368256	82	24179
2026-01-09 22:16:39.91	137.27	4.55	-58.9	-75.0	3.8	1.49e+00	0	23	104	1238368256	82	24992
2026-01-09 22:16:42.92	137.54	4.39	-59.1	-75.2	3.8	1.49e+00	0	23	104	1238368256	83	24218
2026-01-09 22:16:45.90	137.81	4.22	-59.3	-75.3	3.8	1.49e+00	0	24	104	1238368256	83	24579
2026-01-09 22:16:48.89	138.07	4.05	-59.4	-75.5	3.8	1.49e+00	0	24	104	1238368256	83	25037
2026-01-09 22:16:51.87	138.33	3.89	-59.7	-75.8	3.8	1.49e+00	0	23	104	1238368256	84	24423
2026-01-09 22:16:54.87	138.59	3.72	-59.7	-75.8	3.8	1.49e+00	0	24	104	1238368256	84	24460
2026-01-09 22:16:57.88	138.85	3.56	-59.7	-75.7	3.8	1.49e+00	0	24	104	1238368256	84	24399
2026-01-09 22:17:00.88	139.10	3.39	-59.7	-75.7	3.8	1.49e+00	0	24	104	1238368256	84	24315
2026-01-09 22:17:03.87	139.35	3.23	-59.6	-75.7	3.8	1.49e+00	0	24	104	1238368256	84	24237
2026-01-09 22:17:06.88	139.60	3.07	-59.6	-75.7	3.8	1.49e+00	0	24	104	1238368256	84	24201
2026-01-09 22:17:09.87	139.85	2.90	-59.6	-75.6	3.8	1.49e+00	0	24	104	1238368256	84	24077
2026-01-09 22:17:12.86	140.09	2.74	-59.6	-75.6	3.8	1.49e+00	0	24	104	1238368256	84	24048
2026-01-09 22:17:15.85	140.33	2.58	-59.6	-75.6	3.8	1.49e+00	0	24	104	1238368256	84	23989
2026-01-09 22:17:18.86	140.57	2.42	-59.6	-75.6	3.8	1.49e+00	0	24	104	1238368256	84	23962
2026-01-09 22:17:21.85	140.80	2.26	-59.5	-75.6	3.8	1.49e+00	0	24	104	1238368256	84	23950
2026-01-09 22:17:24.84	141.04	2.10	-59.5	-75.6	3.8	1.49e+00	0	24	104	1238368256	84	23953
2026-01-09 22:17:27.85	141.27	1.94	-59.5	-75.6	3.8	1.49e+00	0	24	104	1238368256	84	23861

#Closed at: 2026-01-09 22:17:28
#Recorded file [1238 MB]: D:/lorett/data/31004_260110_010449.dat