passes_logs/2026/01/09/R3.2S_Murmansk/R3.2S_Murmansk__20260109_110258_2024-110A_rec.log

#Pass ID: 20260109_110258_2024-110A
#Satellite: 2024-110A
#Configuration: 01B_900M
#almurnet v.1.7.20251203
#Start time: 2026-01-09 11:03:00

#Version: 2.2.20231116
#Station: R3.2S_Murmansk
#Location: 33.079688 lon 68.888172 lat
#TLE: 1 60012U 24110A   26008.58318696  .00008859  00000+0  53667-3 0  9998
#TLE: 2 60012  97.5753 101.6537 0010593  86.3973 273.8468 15.10775729 87797

#Time	Az	El	Level	Level2	SNR	BER	BlckErr	Temp	State	Recorded	gain1	gain2
2026-01-09 11:03:00.14	21.69	2.12	-58.5	-61.7	6.2	0.00e+00	0	24	0	0	82	22451
2026-01-09 11:03:03.10	21.65	2.33	-58.7	-61.9	6.2	0.00e+00	0	24	104	0	84	20462
2026-01-09 11:03:06.07	21.60	2.54	-58.7	-61.9	6.2	0.00e+00	0	24	104	0	84	20522
2026-01-09 11:03:09.02	21.55	2.74	-58.7	-61.9	6.2	0.00e+00	0	24	104	0	84	20472
2026-01-09 11:03:12.00	21.50	2.96	-58.7	-61.9	6.2	0.00e+00	0	25	104	0	84	20524
2026-01-09 11:03:14.96	21.46	3.17	-58.7	-61.9	6.2	0.00e+00	0	25	104	0	84	20544
2026-01-09 11:03:17.92	21.40	3.39	-58.7	-61.9	6.2	0.00e+00	0	24	104	0	84	20538
2026-01-09 11:03:20.90	21.35	3.61	-58.7	-61.9	6.2	0.00e+00	0	25	104	0	84	20561
2026-01-09 11:03:23.87	21.30	3.83	-58.7	-61.9	6.2	0.00e+00	0	25	104	0	84	20444
2026-01-09 11:03:26.84	21.25	4.05	-58.7	-61.9	6.2	0.00e+00	0	25	104	0	84	20551
2026-01-09 11:03:29.80	21.19	4.28	-58.7	-61.9	6.2	0.00e+00	0	25	104	0	84	20532
2026-01-09 11:03:32.77	21.13	4.51	-58.7	-61.9	6.2	0.00e+00	0	25	104	0	84	20474
2026-01-09 11:03:35.75	21.08	4.74	-58.7	-61.9	6.2	0.00e+00	0	25	104	0	84	20556
2026-01-09 11:03:38.73	21.02	4.97	-58.7	-61.9	6.2	0.00e+00	0	25	104	0	84	20591
2026-01-09 11:03:41.72	20.96	5.21	-58.7	-61.9	6.2	0.00e+00	0	25	104	0	84	20607
2026-01-09 11:03:44.70	20.89	5.45	-58.7	-61.9	6.2	0.00e+00	0	25	104	0	84	20603
2026-01-09 11:03:47.69	20.83	5.69	-58.7	-61.9	6.2	0.00e+00	0	25	104	0	84	20596
2026-01-09 11:03:50.64	20.76	5.94	-58.7	-62.0	6.2	0.00e+00	0	25	104	0	84	20677
2026-01-09 11:03:53.60	20.70	6.18	-58.7	-61.9	6.2	0.00e+00	0	26	104	0	84	20610
2026-01-09 11:03:56.57	20.63	6.43	-58.7	-61.9	6.2	0.00e+00	0	26	104	0	84	20622
2026-01-09 11:03:59.54	20.56	6.69	-58.7	-62.0	6.2	0.00e+00	0	26	104	0	84	20646
2026-01-09 11:04:02.51	20.49	6.94	-58.7	-62.0	6.2	0.00e+00	0	26	104	0	84	20666
2026-01-09 11:04:05.48	20.41	7.20	-58.7	-62.0	6.2	0.00e+00	0	26	104	0	84	20673
2026-01-09 11:04:08.46	20.33	7.47	-58.7	-61.9	6.2	0.00e+00	0	26	104	0	84	20582
2026-01-09 11:04:11.43	20.26	7.73	-58.7	-61.9	6.2	0.00e+00	0	26	104	0	84	20632
2026-01-09 11:04:14.40	20.18	8.01	-58.7	-61.9	6.2	0.00e+00	0	26	104	0	84	20602
2026-01-09 11:04:17.35	20.10	8.28	-58.7	-61.9	6.2	0.00e+00	0	26	104	0	84	20625
2026-01-09 11:04:20.31	20.01	8.56	-58.7	-62.0	6.2	0.00e+00	0	26	104	0	84	20654
2026-01-09 11:04:23.28	19.92	8.84	-58.7	-61.9	6.2	0.00e+00	0	26	104	0	84	20631
2026-01-09 11:04:26.25	19.83	9.13	-59.0	-62.2	6.2	0.00e+00	0	26	104	0	84	21179
2026-01-09 11:04:29.22	19.74	9.42	-59.0	-62.2	6.2	0.00e+00	0	26	104	0	84	21146
2026-01-09 11:04:32.19	19.65	9.71	-58.9	-62.1	6.2	0.00e+00	0	26	104	0	84	21035
2026-01-09 11:04:35.18	19.55	10.01	-59.0	-62.3	6.2	0.00e+00	0	26	104	0	84	21405
2026-01-09 11:04:38.17	19.45	10.32	-59.1	-62.3	6.2	0.00e+00	0	26	104	0	84	21390
2026-01-09 11:04:41.14	19.35	10.63	-59.1	-62.3	6.2	0.00e+00	0	26	104	0	84	21524
2026-01-09 11:04:44.12	19.24	10.94	-59.1	-62.3	6.2	0.00e+00	0	26	104	0	84	21396
2026-01-09 11:04:47.12	19.13	11.27	-59.0	-62.2	6.2	0.00e+00	0	26	104	0	84	21263
2026-01-09 11:04:50.12	19.02	11.60	-58.8	-62.0	6.2	0.00e+00	0	26	104	0	84	20835
2026-01-09 11:04:53.10	18.91	11.93	-58.5	-61.7	6.2	0.00e+00	0	26	104	0	84	20020
2026-01-09 11:04:56.09	18.79	12.27	-58.1	-61.3	6.2	0.00e+00	0	26	104	0	83	20213
2026-01-09 11:04:59.07	18.66	12.61	-58.0	-61.2	6.2	0.00e+00	0	26	104	0	83	20023
2026-01-09 11:05:02.04	18.54	12.96	-57.9	-61.2	6.2	0.00e+00	0	26	104	0	83	19971
2026-01-09 11:05:05.02	18.41	13.31	-58.0	-61.2	6.2	0.00e+00	0	26	104	0	83	20036
2026-01-09 11:05:07.99	18.27	13.68	-57.7	-60.8	6.2	0.00e+00	0	26	104	0	81	21427
2026-01-09 11:05:10.95	18.14	14.04	-57.0	-59.4	6.3	0.00e+00	0	26	104	0	81	18343
2026-01-09 11:05:13.90	17.99	14.42	-57.7	-60.7	6.2	0.00e+00	0	26	104	0	81	21257
2026-01-09 11:05:16.85	17.85	14.80	-55.0	-56.5	6.9	0.00e+00	0	26	104	0	77	16442
2026-01-09 11:05:19.81	17.70	15.18	-41.3	-41.5	13.2	3.62e-05	0	27	0	150994944	49	14679
2026-01-09 11:05:22.76	17.54	15.58	-41.2	-41.4	13.3	1.90e-05	0	27	0	486539264	49	14533
2026-01-09 11:05:25.74	17.38	15.99	-40.8	-41.0	13.4	1.33e-05	0	27	0	813694976	48	14758
2026-01-09 11:05:28.70	17.21	16.40	-40.6	-40.8	13.5	7.60e-06	0	27	0	1149239296	48	14356
2026-01-09 11:05:31.67	17.04	16.82	-40.7	-40.9	13.4	1.52e-05	0	27	0	1484783616	48	14592
2026-01-09 11:05:34.65	16.85	17.26	-40.5	-40.7	13.5	7.60e-06	0	27	0	1820327936	48	14272
2026-01-09 11:05:37.63	16.67	17.70	-39.5	-39.8	13.4	9.50e-06	0	27	0	2155872256	46	14289
2026-01-09 11:05:40.62	16.47	18.16	-39.4	-39.6	13.4	1.14e-05	0	27	0	2491416576	45	14878
2026-01-09 11:05:43.59	16.27	18.62	-39.0	-39.3	13.5	9.50e-06	0	27	0	2826960896	45	14278
2026-01-09 11:05:46.56	16.06	19.09	-38.8	-39.0	13.5	1.90e-06	0	27	0	3162505216	44	14720
2026-01-09 11:05:49.53	15.85	19.58	-38.7	-38.9	13.6	5.70e-06	0	27	0	3489660928	44	14537
2026-01-09 11:05:52.50	15.62	20.07	-38.4	-38.7	13.7	3.80e-06	0	27	0	3833593856	44	14136
2026-01-09 11:05:55.46	15.39	20.58	-38.3	-38.5	13.6	1.90e-06	0	27	0	4160749568	43	14674
2026-01-09 11:05:58.45	15.14	21.10	-38.1	-38.3	13.7	3.80e-06	0	27	0	4496293888	43	14384
2026-01-09 11:06:01.42	14.89	21.63	-37.9	-38.2	13.8	0.00e+00	0	27	0	4831838208	43	14120
2026-01-09 11:06:04.40	14.63	22.18	-37.7	-38.0	13.7	0.00e+00	0	27	0	5167382528	42	14650
2026-01-09 11:06:07.37	14.35	22.74	-37.7	-37.9	13.8	3.80e-06	0	27	0	5502926848	42	14500
2026-01-09 11:06:10.36	14.06	23.32	-37.2	-37.4	13.8	1.90e-06	0	27	0	5838471168	41	14486
2026-01-09 11:06:13.33	13.76	23.91	-37.1	-37.3	13.8	0.00e+00	0	27	0	6174015488	41	14419
2026-01-09 11:06:16.31	13.45	24.52	-36.8	-37.0	13.9	0.00e+00	0	27	0	6509559808	40	14706
2026-01-09 11:06:19.29	13.12	25.14	-36.6	-36.8	13.9	0.00e+00	0	27	0	6836715520	40	14326
2026-01-09 11:06:22.28	12.78	25.79	-36.5	-36.7	14.0	1.90e-06	0	27	0	7180648448	40	14146
2026-01-09 11:06:25.25	12.42	26.44	-36.2	-36.4	14.0	0.00e+00	0	27	0	7516192768	39	14576
2026-01-09 11:06:28.23	12.04	27.12	-36.0	-36.2	14.1	0.00e+00	0	27	0	7843348480	39	14235
2026-01-09 11:06:31.21	11.65	27.82	-35.8	-36.0	14.0	0.00e+00	0	27	0	8187281408	38	14651
2026-01-09 11:06:34.19	11.23	28.53	-35.6	-35.8	14.1	0.00e+00	0	27	0	8514437120	38	14332
2026-01-09 11:06:37.16	10.80	29.27	-35.4	-35.6	14.2	0.00e+00	0	27	0	8849981440	38	13992
2026-01-09 11:06:40.13	10.34	30.02	-35.1	-35.3	14.2	0.00e+00	0	27	0	9185525760	37	14305
2026-01-09 11:06:43.11	9.85	30.80	-34.8	-35.0	14.1	0.00e+00	0	27	0	9521070080	36	14729
2026-01-09 11:06:46.10	9.34	31.61	-34.5	-34.7	14.3	0.00e+00	0	27	0	9865003008	36	14144
2026-01-09 11:06:49.08	8.80	32.44	-31.7	-31.9	14.1	0.00e+00	0	27	0	10192158720	30	14518
2026-01-09 11:06:52.05	8.23	33.29	-31.5	-31.7	14.2	0.00e+00	0	27	0	10527703040	30	14241
2026-01-09 11:06:55.02	7.63	34.16	-31.2	-31.4	14.2	0.00e+00	0	27	0	10863247360	29	14500
2026-01-09 11:06:58.00	6.98	35.06	-30.9	-31.1	14.3	0.00e+00	0	27	0	11198791680	29	14001
2026-01-09 11:07:00.98	6.30	35.99	-30.7	-30.9	14.2	0.00e+00	0	27	0	11534336000	28	14489
2026-01-09 11:07:03.96	5.58	36.94	-30.4	-30.6	14.3	0.00e+00	0	27	0	11869880320	28	14086
2026-01-09 11:07:06.95	4.80	37.93	-30.3	-30.5	14.3	0.00e+00	0	27	0	12205424640	27	14659
2026-01-09 11:07:09.93	3.98	38.94	-30.0	-30.2	14.4	0.00e+00	0	27	0	12540968960	27	14234
2026-01-09 11:07:12.90	3.10	39.97	-29.7	-29.9	14.3	0.00e+00	0	27	0	12876513280	26	14491
2026-01-09 11:07:15.90	2.15	41.04	-29.6	-29.8	14.3	0.00e+00	0	28	0	13212057600	26	14347
2026-01-09 11:07:18.87	1.14	42.13	-29.2	-29.4	14.3	0.00e+00	0	27	0	13547601920	25	14605
2026-01-09 11:07:21.84	0.06	43.24	-29.0	-29.2	14.4	0.00e+00	0	27	0	13883146240	25	14228
2026-01-09 11:07:24.81	358.89	44.38	-28.8	-29.0	14.3	0.00e+00	0	27	0	14218690560	24	14754
2026-01-09 11:07:27.77	357.64	45.54	-28.6	-28.8	14.4	0.00e+00	0	28	0	14545846272	24	14318
2026-01-09 11:07:30.74	356.28	46.72	-28.4	-28.7	14.5	0.00e+00	0	27	0	14881390592	24	14112
2026-01-09 11:07:33.71	354.81	47.93	-28.2	-28.4	14.4	0.00e+00	0	28	0	15216934912	23	14554
2026-01-09 11:07:36.69	353.21	49.15	-28.0	-28.2	14.5	0.00e+00	0	28	0	15544090624	23	14230
2026-01-09 11:07:39.67	351.48	50.38	-27.8	-28.0	14.4	0.00e+00	0	27	0	15888023552	22	14728
2026-01-09 11:07:42.66	349.58	51.63	-27.8	-28.0	14.4	0.00e+00	0	28	0	16223567872	22	14681
2026-01-09 11:07:45.64	347.52	52.87	-27.7	-27.9	14.5	0.00e+00	0	28	0	16559112192	22	14477
2026-01-09 11:07:48.62	345.28	54.11	-27.7	-27.9	14.4	0.00e+00	0	27	0	16894656512	22	14488
2026-01-09 11:07:51.60	342.83	55.32	-27.5	-27.7	14.5	0.00e+00	0	27	0	17230200832	22	14249
2026-01-09 11:07:54.58	340.15	56.52	-27.2	-27.4	14.4	0.00e+00	0	27	0	17565745152	21	14588
2026-01-09 11:07:57.55	337.25	57.67	-27.1	-27.4	14.5	0.00e+00	0	28	0	17901289472	21	14454
2026-01-09 11:08:00.53	334.07	58.77	-27.0	-27.2	14.5	0.00e+00	0	28	0	18228445184	21	14235
2026-01-09 11:08:03.50	330.64	59.80	-27.0	-27.1	14.5	0.00e+00	0	27	0	18572378112	21	14111
2026-01-09 11:08:06.48	326.91	60.76	-26.9	-27.1	14.6	0.00e+00	0	27	0	18899533824	21	14045
2026-01-09 11:08:09.43	322.95	61.60	-26.9	-27.1	14.5	0.00e+00	0	27	0	19235078144	21	14073
2026-01-09 11:08:12.41	318.68	62.34	-26.8	-27.0	14.4	0.00e+00	0	28	0	19570622464	20	14702
2026-01-09 11:08:15.39	314.16	62.94	-26.8	-27.0	14.4	0.00e+00	0	28	0	19906166784	20	14752
2026-01-09 11:08:18.38	309.42	63.39	-26.8	-27.0	14.4	0.00e+00	0	27	0	20241711104	20	14694
2026-01-09 11:08:21.34	304.58	63.68	-26.9	-27.1	14.4	0.00e+00	0	28	0	20577255424	20	14875
2026-01-09 11:08:24.31	299.64	63.79	-26.8	-27.0	14.4	0.00e+00	0	28	0	20904411136	20	14736
2026-01-09 11:08:27.29	294.66	63.73	-26.8	-27.0	14.5	0.00e+00	0	28	0	21239955456	20	14622
2026-01-09 11:08:30.27	289.75	63.50	-26.8	-27.0	14.4	0.00e+00	0	28	0	21575499776	20	14653
2026-01-09 11:08:33.24	284.98	63.11	-26.9	-27.1	14.4	0.00e+00	0	28	0	21911044096	20	14811
2026-01-09 11:08:36.23	280.38	62.55	-26.9	-27.1	14.4	0.00e+00	0	28	0	22246588416	20	14922
2026-01-09 11:08:39.21	276.02	61.86	-26.9	-27.1	14.4	0.00e+00	0	28	0	22582132736	20	14905
2026-01-09 11:08:42.19	271.92	61.04	-27.0	-27.2	14.4	0.00e+00	0	28	0	22917677056	20	15022
2026-01-09 11:08:45.18	268.09	60.12	-27.0	-27.2	14.4	0.00e+00	0	28	0	23253221376	20	15069
2026-01-09 11:08:48.17	264.54	59.10	-27.1	-27.3	14.4	0.00e+00	0	28	0	23588765696	20	15170
2026-01-09 11:08:51.14	261.29	58.02	-27.3	-27.5	14.4	0.00e+00	0	28	0	23924310016	20	15589
2026-01-09 11:08:54.11	258.30	56.88	-27.3	-27.6	14.3	0.00e+00	0	28	0	24259854336	20	15663
2026-01-09 11:08:57.09	255.55	55.70	-27.4	-27.6	14.3	0.00e+00	0	28	0	24595398656	20	15823
2026-01-09 11:09:00.05	253.05	54.49	-27.4	-27.6	14.3	0.00e+00	0	27	0	24930942976	20	15827
2026-01-09 11:09:03.02	250.74	53.26	-27.7	-27.9	14.4	0.00e+00	0	28	0	25258098688	21	15367
2026-01-09 11:09:06.00	248.62	52.02	-27.7	-28.0	14.3	0.00e+00	0	28	0	25602031616	21	15487
2026-01-09 11:09:08.97	246.68	50.78	-27.9	-28.1	14.3	0.00e+00	0	28	0	25929187328	21	15785
2026-01-09 11:09:11.94	244.90	49.55	-28.0	-28.2	14.3	0.00e+00	0	28	0	26273120256	21	15929
2026-01-09 11:09:14.91	243.26	48.32	-28.1	-28.4	14.3	0.00e+00	0	27	0	26600275968	22	15328
2026-01-09 11:09:17.90	241.74	47.10	-28.3	-28.6	14.3	0.00e+00	0	28	0	26935820288	22	15692
2026-01-09 11:09:20.87	240.35	45.91	-28.6	-28.9	14.3	0.00e+00	0	28	0	27271364608	23	15334
2026-01-09 11:09:23.86	239.05	44.73	-58.2	-61.8	6.2	0.00e+00	0	27	104	27430748160	82	22702
2026-01-09 11:09:26.84	237.85	43.58	-58.8	-62.0	6.2	0.00e+00	0	27	104	27430748160	83	22017
2026-01-09 11:09:29.82	236.73	42.45	-58.4	-61.8	6.2	0.00e+00	0	27	104	27430748160	83	21568
2026-01-09 11:09:32.81	235.69	41.34	-58.7	-61.9	6.2	0.00e+00	0	27	104	27430748160	83	21827
2026-01-09 11:09:35.80	234.72	40.27	-58.7	-61.9	6.2	0.00e+00	0	27	104	27430748160	83	21847
2026-01-09 11:09:38.78	233.82	39.22	-58.7	-62.0	6.2	0.00e+00	0	27	104	27430748160	83	21858
2026-01-09 11:09:41.75	232.98	38.20	-58.6	-61.9	6.2	0.00e+00	0	27	104	27430748160	83	21719
2026-01-09 11:09:44.74	232.19	37.21	-58.6	-61.9	6.2	0.00e+00	0	27	104	27430748160	83	21674
2026-01-09 11:09:47.73	231.45	36.24	-58.6	-61.9	6.2	0.00e+00	0	27	104	27430748160	83	21654
2026-01-09 11:09:50.73	230.75	35.30	-58.6	-61.8	6.2	0.00e+00	0	27	104	27430748160	83	21598
2026-01-09 11:09:53.72	230.09	34.38	-58.5	-61.8	6.2	0.00e+00	0	27	104	27430748160	83	21403
2026-01-09 11:09:56.71	229.47	33.49	-58.5	-61.8	6.2	0.00e+00	0	27	104	27430748160	83	21457
2026-01-09 11:09:59.70	228.89	32.63	-58.6	-61.8	6.2	0.00e+00	0	27	104	27430748160	83	21408
2026-01-09 11:10:02.68	228.34	31.79	-58.5	-61.8	6.2	0.00e+00	0	27	104	27430748160	83	21399
2026-01-09 11:10:05.66	227.82	30.98	-58.5	-61.7	6.2	0.00e+00	0	27	104	27430748160	83	21204
2026-01-09 11:10:08.65	227.32	30.19	-58.5	-61.7	6.2	0.00e+00	0	27	104	27430748160	83	21279
2026-01-09 11:10:11.63	226.86	29.43	-58.5	-61.7	6.2	0.00e+00	0	27	104	27430748160	83	21269
2026-01-09 11:10:14.62	226.41	28.68	-58.5	-61.7	6.2	0.00e+00	0	27	104	27430748160	83	21173
2026-01-09 11:10:17.59	225.99	27.96	-58.4	-61.6	6.2	0.00e+00	0	27	104	27430748160	83	21054
2026-01-09 11:10:20.57	225.59	27.25	-58.4	-61.6	6.2	0.00e+00	0	27	104	27430748160	83	21062
2026-01-09 11:10:23.54	225.21	26.57	-58.4	-61.6	6.2	0.00e+00	0	27	104	27430748160	83	21030
2026-01-09 11:10:26.52	224.84	25.91	-58.4	-61.6	6.2	0.00e+00	0	27	104	27430748160	83	20985
2026-01-09 11:10:29.49	224.49	25.26	-58.3	-61.6	6.2	0.00e+00	0	27	104	27430748160	83	20914
2026-01-09 11:10:32.47	224.16	24.63	-58.3	-61.5	6.2	0.00e+00	0	27	104	27430748160	83	20865
2026-01-09 11:10:35.45	223.84	24.02	-58.3	-61.6	6.2	0.00e+00	0	27	104	27430748160	83	20894
2026-01-09 11:10:38.44	223.54	23.42	-58.3	-61.5	6.2	0.00e+00	0	27	104	27430748160	83	20790
2026-01-09 11:10:41.44	223.24	22.83	-58.3	-61.5	6.2	0.00e+00	0	27	104	27430748160	83	20721
2026-01-09 11:10:44.43	222.96	22.26	-58.3	-61.5	6.2	0.00e+00	0	27	104	27430748160	83	20726
2026-01-09 11:10:47.42	222.69	21.71	-58.3	-61.5	6.2	0.00e+00	0	27	104	27430748160	83	20672
2026-01-09 11:10:50.40	222.44	21.17	-58.2	-61.4	6.2	0.00e+00	0	27	104	27430748160	83	20536
2026-01-09 11:10:53.40	222.19	20.64	-58.2	-61.4	6.2	0.00e+00	0	27	104	27430748160	83	20577
2026-01-09 11:10:56.38	221.95	20.13	-58.2	-61.4	6.2	0.00e+00	0	27	104	27430748160	83	20476
2026-01-09 11:10:59.38	221.72	19.62	-58.2	-61.4	6.2	0.00e+00	0	27	104	27430748160	83	20616
2026-01-09 11:11:02.36	221.50	19.14	-58.1	-61.4	6.2	0.00e+00	0	27	104	27430748160	83	20461
2026-01-09 11:11:05.35	221.29	18.66	-58.2	-61.3	6.2	0.00e+00	0	27	104	27430748160	83	20390
2026-01-09 11:11:08.32	221.08	18.19	-58.1	-61.4	6.2	0.00e+00	0	27	104	27430748160	83	20410
2026-01-09 11:11:11.29	220.89	17.74	-58.1	-61.3	6.2	0.00e+00	0	27	104	27430748160	83	20363
2026-01-09 11:11:14.26	220.70	17.29	-58.1	-61.3	6.2	0.00e+00	0	27	104	27430748160	83	20391
2026-01-09 11:11:17.25	220.51	16.85	-58.1	-61.3	6.2	0.00e+00	0	27	104	27430748160	83	20296
2026-01-09 11:11:20.23	220.33	16.42	-58.0	-61.3	6.2	0.00e+00	0	27	104	27430748160	83	20211
2026-01-09 11:11:23.19	220.16	16.01	-58.1	-61.3	6.2	0.00e+00	0	27	104	27430748160	83	20225
2026-01-09 11:11:26.17	220.00	15.60	-58.0	-61.3	6.2	0.00e+00	0	27	104	27430748160	83	20190
2026-01-09 11:11:29.14	219.84	15.20	-58.0	-61.3	6.2	0.00e+00	0	27	104	27430748160	83	20230
2026-01-09 11:11:32.12	219.68	14.80	-58.0	-61.2	6.2	0.00e+00	0	27	104	27430748160	83	20074
2026-01-09 11:11:35.11	219.53	14.42	-58.0	-61.2	6.2	0.00e+00	0	27	104	27430748160	83	20103
2026-01-09 11:11:38.09	219.39	14.04	-58.0	-61.2	6.2	0.00e+00	0	27	104	27430748160	83	20030
2026-01-09 11:11:41.06	219.25	13.67	-58.0	-61.2	6.2	0.00e+00	0	27	104	27430748160	83	20020
2026-01-09 11:11:44.05	219.11	13.30	-57.9	-61.1	6.2	0.00e+00	0	27	104	27430748160	83	19873
2026-01-09 11:11:47.02	218.98	12.95	-57.9	-61.1	6.2	0.00e+00	0	27	104	27430748160	83	19879
2026-01-09 11:11:49.99	218.85	12.60	-57.9	-61.1	6.2	0.00e+00	0	27	104	27430748160	83	19824
2026-01-09 11:11:52.97	218.73	12.25	-57.9	-61.1	6.2	0.00e+00	0	27	104	27430748160	83	19854
2026-01-09 11:11:55.95	218.61	11.91	-57.8	-61.0	6.2	0.00e+00	0	27	104	27430748160	82	20847
2026-01-09 11:11:58.93	218.49	11.58	-57.8	-61.0	6.2	0.00e+00	0	27	104	27430748160	82	20812
2026-01-09 11:12:01.91	218.37	11.25	-57.8	-61.0	6.2	0.00e+00	0	27	104	27430748160	82	20765
2026-01-09 11:12:04.89	218.26	10.93	-57.8	-61.1	6.2	0.00e+00	0	27	104	27430748160	82	20886
2026-01-09 11:12:07.87	218.16	10.61	-57.7	-60.9	6.2	0.00e+00	0	27	104	27430748160	82	20616
2026-01-09 11:12:10.84	218.05	10.30	-57.7	-60.9	6.2	0.00e+00	0	27	104	27430748160	82	20598
2026-01-09 11:12:13.81	217.95	10.00	-57.7	-61.0	6.2	0.00e+00	0	27	104	27430748160	82	20639
2026-01-09 11:12:16.78	217.85	9.69	-57.7	-61.0	6.2	0.00e+00	0	27	104	27430748160	82	20642
2026-01-09 11:12:19.78	217.76	9.40	-57.7	-60.9	6.2	0.00e+00	0	27	104	27430748160	82	20466
2026-01-09 11:12:22.75	217.66	9.10	-57.6	-60.8	6.2	0.00e+00	0	27	104	27430748160	82	20374
2026-01-09 11:12:25.72	217.57	8.82	-57.6	-60.9	6.2	0.00e+00	0	27	104	27430748160	82	20427
2026-01-09 11:12:28.70	217.48	8.53	-57.6	-60.8	6.2	0.00e+00	0	27	104	27430748160	82	20333
2026-01-09 11:12:31.67	217.40	8.25	-57.5	-60.7	6.2	0.00e+00	0	27	104	27430748160	82	20108
2026-01-09 11:12:34.65	217.31	7.97	-57.5	-60.7	6.2	0.00e+00	0	27	104	27430748160	82	20156
2026-01-09 11:12:37.63	217.23	7.70	-57.5	-60.7	6.2	0.00e+00	0	27	104	27430748160	82	20143
2026-01-09 11:12:40.60	217.15	7.43	-57.5	-60.8	6.2	0.00e+00	0	27	104	27430748160	82	20169
2026-01-09 11:12:43.59	217.07	7.17	-57.4	-60.6	6.2	0.00e+00	0	27	104	27430748160	82	19894
2026-01-09 11:12:46.57	216.99	6.91	-57.4	-60.6	6.2	0.00e+00	0	27	104	27430748160	82	19818
2026-01-09 11:12:49.56	216.92	6.65	-57.4	-60.6	6.2	0.00e+00	0	27	104	27430748160	81	20949
2026-01-09 11:12:52.54	216.85	6.39	-57.3	-60.5	6.2	0.00e+00	0	27	104	27430748160	81	20833
2026-01-09 11:12:55.49	216.78	6.14	-57.2	-60.5	6.2	0.00e+00	0	27	104	27430748160	81	20681
2026-01-09 11:12:58.48	216.71	5.89	-57.2	-60.4	6.2	0.00e+00	0	27	104	27430748160	81	20551
2026-01-09 11:13:01.44	216.64	5.65	-57.3	-60.5	6.2	0.00e+00	0	27	104	27430748160	81	20656
2026-01-09 11:13:04.43	216.57	5.40	-57.2	-60.4	6.2	0.00e+00	0	27	104	27430748160	81	20529
2026-01-09 11:13:07.41	216.51	5.16	-57.1	-60.3	6.2	0.00e+00	0	27	104	27430748160	81	20228
2026-01-09 11:13:10.39	216.45	4.93	-57.6	-60.8	6.1	0.00e+00	0	27	104	27430748160	81	21457
2026-01-09 11:13:13.39	216.38	4.69	-58.2	-61.4	6.2	0.00e+00	0	27	104	27430748160	82	21830
2026-01-09 11:13:16.39	216.32	4.45	-58.5	-61.8	6.2	0.00e+00	0	27	104	27430748160	82	22640
2026-01-09 11:13:19.39	216.26	4.22	-58.7	-62.0	6.2	0.00e+00	0	27	104	27430748160	83	21884
2026-01-09 11:13:22.37	216.21	4.00	-58.8	-62.0	6.2	0.00e+00	0	27	104	27430748160	83	22068
2026-01-09 11:13:25.37	216.15	3.77	-59.0	-62.2	6.2	0.00e+00	0	27	104	27430748160	83	22410
2026-01-09 11:13:28.37	216.10	3.55	-59.0	-62.2	6.2	0.00e+00	0	27	104	27430748160	83	22568
2026-01-09 11:13:31.37	216.04	3.32	-59.1	-62.3	6.1	0.00e+00	0	27	104	27430748160	83	22795
2026-01-09 11:13:34.35	215.99	3.11	-59.0	-62.2	6.1	0.00e+00	0	27	104	27430748160	83	22601
2026-01-09 11:13:37.31	215.94	2.89	-59.0	-62.2	6.2	0.00e+00	0	27	104	27430748160	83	22530
2026-01-09 11:13:40.28	215.89	2.68	-59.0	-62.2	6.2	0.00e+00	0	27	104	27430748160	83	22497
2026-01-09 11:13:43.25	215.84	2.47	-58.9	-62.2	6.2	0.00e+00	0	27	104	27430748160	83	22433
2026-01-09 11:13:46.21	215.79	2.26	-58.9	-62.1	6.2	0.00e+00	0	27	104	27430748160	83	22299
2026-01-09 11:13:49.18	215.74	2.05	-58.9	-62.1	6.2	0.00e+00	0	27	104	27430748160	83	22301

#Closed at: 2026-01-09 11:13:50
#Recorded file [27430 MB]: D:/lorett/data/31004_260109_140259.dat