passes_logs/2026/01/09/R3.2S_Murmansk/R3.2S_Murmansk__20260109_230941_AQUA_rec.log

#Pass ID: 20260109_230941_AQUA
#Satellite: AQUA
#Configuration: AQUA
#almurnet v.1.7.20251203
#Start time: 2026-01-09 23:09:41

#Version: 2.2.20231116
#Station: R3.2S_Murmansk
#Location: 33.079688 lon 68.888172 lat
#TLE: 1 27424U 02022A   26009.00333547  .00001046  00000+0  21942-3 0  9998
#TLE: 2 27424  98.4075 335.3304 0002025  85.7625 349.1392 14.61808998260011

#Time	Az	El	Level	Level2	SNR	BER	BlckErr	Temp	State	Recorded	gain1	gain2
2026-01-09 23:09:41.32	22.41	1.99	-56.7	-75.6	3.8	7.45e-01	0	24	0	0	82	31436
2026-01-09 23:09:44.26	22.74	2.12	-56.6	-75.8	3.8	7.50e-01	0	24	104	0	80	35844
2026-01-09 23:09:47.22	23.07	2.25	-56.6	-75.8	3.8	7.44e-01	0	23	104	0	80	35876
2026-01-09 23:09:50.17	23.41	2.39	-56.6	-75.9	3.8	7.47e-01	0	23	104	0	80	36403
2026-01-09 23:09:53.13	23.74	2.52	-56.6	-75.9	3.8	7.43e-01	0	23	104	0	80	36117
2026-01-09 23:09:56.08	24.08	2.65	-56.6	-75.8	3.8	7.48e-01	0	24	104	0	80	35978
2026-01-09 23:09:59.04	24.43	2.79	-56.6	-75.7	3.8	7.45e-01	0	24	104	0	80	35337
2026-01-09 23:10:01.98	24.78	2.92	-56.6	-75.7	3.8	7.45e-01	0	24	104	0	80	35485
2026-01-09 23:10:04.93	25.13	3.05	-56.6	-75.7	3.8	7.50e-01	0	24	104	0	80	35511
2026-01-09 23:10:07.88	25.48	3.19	-56.6	-75.8	3.8	7.47e-01	0	23	104	0	80	35980
2026-01-09 23:10:10.82	25.84	3.32	-56.6	-75.7	3.8	7.45e-01	0	23	104	0	80	35497
2026-01-09 23:10:13.75	26.20	3.45	-56.6	-75.8	3.8	7.49e-01	0	24	104	0	80	36002
2026-01-09 23:10:16.70	26.56	3.59	-56.5	-75.3	3.8	7.47e-01	0	24	104	0	80	34026
2026-01-09 23:10:19.64	26.93	3.72	-56.5	-75.5	3.8	7.45e-01	0	24	104	0	80	34808
2026-01-09 23:10:22.59	27.30	3.85	-56.5	-75.7	3.8	7.47e-01	0	24	104	0	80	35533
2026-01-09 23:10:25.54	27.67	3.98	-56.5	-75.9	3.8	7.46e-01	0	23	104	0	80	36134
2026-01-09 23:10:28.48	28.05	4.11	-56.5	-75.5	3.8	7.45e-01	0	23	104	0	80	34703
2026-01-09 23:10:31.43	28.43	4.25	-56.5	-75.9	3.8	7.48e-01	0	23	104	0	80	36120
2026-01-09 23:10:34.38	28.82	4.38	-56.5	-73.2	3.9	7.44e-01	0	24	104	0	80	26751
2026-01-09 23:10:37.34	29.21	4.51	-56.4	-71.0	4.6	7.21e-01	0	24	104	0	80	20741
2026-01-09 23:10:40.31	29.60	4.64	-56.1	-66.2	7.8	6.41e-01	40	24	0	1572864	80	11842
2026-01-09 23:10:43.29	30.00	4.77	-54.6	-59.7	13.1	6.05e-01	0	24	0	6815744	78	6311
2026-01-09 23:10:46.26	30.41	4.91	-54.4	-59.3	13.2	6.02e-01	0	24	0	12582912	77	6420
2026-01-09 23:10:49.22	30.81	5.04	-55.4	-62.2	11.2	6.09e-01	0	24	0	18350080	78	8456
2026-01-09 23:10:52.19	31.22	5.17	-56.1	-66.3	7.6	6.47e-01	63	24	0	23592960	80	12073
2026-01-09 23:10:55.14	31.63	5.30	-51.7	-54.2	15.4	6.05e-01	0	23	0	29360128	72	4751
2026-01-09 23:10:58.11	32.05	5.43	-51.1	-53.4	15.6	6.03e-01	0	23	0	35127296	71	4556
2026-01-09 23:11:01.07	32.47	5.55	-51.0	-53.2	15.7	6.05e-01	0	23	0	40370176	71	4463
2026-01-09 23:11:04.03	32.90	5.68	-51.2	-53.4	15.6	6.04e-01	0	23	0	46137344	71	4593
2026-01-09 23:11:06.99	33.33	5.81	-51.1	-53.3	15.7	6.03e-01	0	24	0	51380224	71	4525
2026-01-09 23:11:09.94	33.76	5.94	-51.0	-53.2	15.7	6.02e-01	0	23	0	57147392	71	4450
2026-01-09 23:11:12.92	34.20	6.06	-51.3	-53.6	15.6	6.01e-01	0	23	0	62390272	71	4674
2026-01-09 23:11:15.92	34.65	6.19	-50.7	-52.9	15.7	6.01e-01	0	24	0	68157440	70	4557
2026-01-09 23:11:18.92	35.10	6.32	-50.7	-52.9	15.7	6.01e-01	0	23	0	73924608	70	4564
2026-01-09 23:11:21.92	35.55	6.44	-50.7	-52.8	15.7	6.03e-01	0	23	0	79691776	70	4510
2026-01-09 23:11:24.91	36.01	6.57	-50.7	-52.8	15.7	6.03e-01	0	24	0	84934656	70	4533
2026-01-09 23:11:27.90	36.47	6.69	-50.9	-53.1	15.6	6.03e-01	0	23	0	90701824	70	4661
2026-01-09 23:11:30.90	36.94	6.82	-50.5	-52.6	15.8	6.03e-01	0	23	0	96468992	70	4407
2026-01-09 23:11:33.90	37.41	6.94	-50.7	-52.9	15.7	6.04e-01	0	23	0	101711872	70	4552
2026-01-09 23:11:36.89	37.89	7.06	-50.4	-52.5	15.9	6.03e-01	0	23	0	107479040	70	4341
2026-01-09 23:11:39.90	38.37	7.18	-50.5	-52.5	15.8	6.02e-01	0	23	0	113246208	70	4372
2026-01-09 23:11:42.90	38.85	7.30	-50.4	-52.5	15.9	6.02e-01	0	23	0	119013376	70	4346
2026-01-09 23:11:45.90	39.34	7.42	-50.6	-52.6	15.8	6.03e-01	0	23	0	124256256	70	4422
2026-01-09 23:11:48.89	39.83	7.54	-50.4	-52.4	15.9	6.01e-01	0	23	0	130023424	70	4327
2026-01-09 23:11:51.89	40.33	7.66	-50.2	-52.2	15.8	6.04e-01	0	23	0	135790592	69	4465
2026-01-09 23:11:54.89	40.83	7.77	-50.3	-52.3	15.7	6.04e-01	0	23	0	141557760	69	4531
2026-01-09 23:11:57.88	41.33	7.89	-50.3	-52.3	15.7	6.01e-01	0	23	0	146800640	69	4495
2026-01-09 23:12:00.88	41.84	8.00	-50.1	-52.0	15.9	6.05e-01	0	23	0	152567808	69	4381
2026-01-09 23:12:03.88	42.36	8.11	-50.2	-52.2	15.8	6.04e-01	0	23	0	158334976	69	4448
2026-01-09 23:12:06.88	42.88	8.22	-50.1	-52.1	15.8	6.03e-01	0	23	0	163577856	69	4402
2026-01-09 23:12:09.86	43.39	8.33	-50.1	-52.0	15.8	6.03e-01	0	24	0	169345024	69	4379
2026-01-09 23:12:12.86	43.92	8.44	-50.2	-52.2	15.8	6.02e-01	0	23	0	175112192	69	4446
2026-01-09 23:12:15.86	44.45	8.55	-50.1	-52.1	15.8	6.03e-01	0	23	0	180355072	69	4415
2026-01-09 23:12:18.85	44.98	8.65	-50.2	-52.1	15.8	6.02e-01	0	23	0	186122240	69	4438
2026-01-09 23:12:21.86	45.52	8.76	-50.1	-52.0	15.8	6.02e-01	0	23	0	191889408	69	4386
2026-01-09 23:12:24.85	46.06	8.86	-50.0	-51.9	15.9	6.04e-01	0	23	0	197656576	69	4293
2026-01-09 23:12:27.84	46.61	8.96	-49.8	-51.7	15.8	6.03e-01	0	23	0	202899456	68	4471
2026-01-09 23:12:30.84	47.16	9.06	-49.7	-51.6	15.9	6.03e-01	0	23	0	208666624	68	4406
2026-01-09 23:12:33.86	47.72	9.15	-49.9	-51.8	15.8	6.04e-01	0	23	0	214433792	68	4523
2026-01-09 23:12:36.85	48.27	9.25	-49.9	-51.8	15.8	6.05e-01	0	23	0	220200960	68	4499
2026-01-09 23:12:39.85	48.84	9.34	-49.8	-51.7	15.8	6.04e-01	0	23	0	225443840	68	4461
2026-01-09 23:12:42.86	49.40	9.43	-49.8	-51.7	15.8	6.04e-01	0	23	0	231211008	68	4458
2026-01-09 23:12:45.84	49.97	9.52	-49.8	-51.7	15.8	6.03e-01	0	23	0	236978176	68	4483
2026-01-09 23:12:48.84	50.54	9.61	-49.8	-51.6	15.8	6.03e-01	0	24	0	242221056	68	4434
2026-01-09 23:12:51.84	51.12	9.69	-49.7	-51.6	15.9	6.04e-01	0	23	0	247988224	68	4396
2026-01-09 23:12:54.83	51.70	9.78	-49.7	-51.5	15.9	6.02e-01	0	23	0	253755392	68	4375
2026-01-09 23:12:57.80	52.28	9.86	-49.7	-51.5	15.9	6.04e-01	0	23	0	258998272	68	4383
2026-01-09 23:13:00.81	52.87	9.94	-49.7	-51.5	15.9	6.02e-01	0	23	0	264765440	68	4374
2026-01-09 23:13:03.80	53.45	10.01	-49.7	-51.5	15.9	6.04e-01	0	23	0	270532608	68	4382
2026-01-09 23:13:06.79	54.05	10.09	-49.6	-51.4	15.9	6.05e-01	0	23	0	276299776	68	4326
2026-01-09 23:13:09.79	54.64	10.16	-49.8	-51.6	15.8	6.02e-01	0	23	0	281542656	68	4428
2026-01-09 23:13:12.79	55.24	10.23	-49.5	-51.3	16.0	6.03e-01	0	23	0	287309824	68	4277
2026-01-09 23:13:15.79	55.85	10.30	-49.6	-51.4	15.9	6.02e-01	0	23	0	293076992	68	4303
2026-01-09 23:13:18.79	56.45	10.36	-49.4	-51.2	16.0	6.03e-01	0	23	0	298844160	68	4220
2026-01-09 23:13:21.78	57.06	10.42	-49.5	-51.3	16.0	6.02e-01	0	23	0	304087040	68	4250
2026-01-09 23:13:24.78	57.67	10.48	-49.5	-51.3	15.9	6.02e-01	0	23	0	309854208	68	4288
2026-01-09 23:13:27.77	58.28	10.54	-49.5	-51.3	16.0	6.04e-01	0	23	0	315621376	68	4277
2026-01-09 23:13:30.78	58.90	10.59	-49.5	-51.2	16.0	6.03e-01	0	23	0	320864256	68	4237
2026-01-09 23:13:33.77	59.52	10.65	-49.4	-51.2	16.0	6.04e-01	0	23	0	326631424	68	4210
2026-01-09 23:13:36.78	60.14	10.69	-49.6	-51.4	16.0	6.02e-01	0	23	0	332398592	68	4306
2026-01-09 23:13:39.76	60.76	10.74	-49.6	-51.5	15.9	6.03e-01	0	23	0	337641472	68	4355
2026-01-09 23:13:42.75	61.38	10.78	-49.4	-51.2	15.8	6.03e-01	0	23	0	343408640	67	4453
2026-01-09 23:13:45.75	62.01	10.83	-49.4	-51.2	15.8	6.03e-01	0	23	0	349175808	67	4490
2026-01-09 23:13:48.73	62.63	10.86	-49.4	-51.2	15.8	6.03e-01	0	23	0	354942976	67	4474
2026-01-09 23:13:51.71	63.26	10.90	-49.4	-51.2	15.8	6.04e-01	0	23	0	360185856	67	4446
2026-01-09 23:13:54.72	63.89	10.93	-49.5	-51.3	15.8	6.02e-01	0	23	0	365953024	67	4515
2026-01-09 23:13:57.70	64.52	10.96	-49.3	-51.1	15.8	6.02e-01	0	23	0	371720192	67	4436
2026-01-09 23:14:00.69	65.16	10.99	-49.4	-51.2	15.8	6.02e-01	0	24	0	376963072	67	4474
2026-01-09 23:14:03.69	65.79	11.01	-49.4	-51.2	15.8	6.03e-01	0	23	0	382730240	67	4455
2026-01-09 23:14:06.68	66.43	11.03	-49.4	-51.2	15.8	6.02e-01	0	23	0	388497408	67	4489
2026-01-09 23:14:09.68	67.07	11.05	-49.3	-51.1	15.8	6.03e-01	0	23	0	394264576	67	4409
2026-01-09 23:14:12.67	67.70	11.06	-49.4	-51.2	15.8	6.02e-01	0	23	0	399507456	67	4449
2026-01-09 23:14:15.66	68.34	11.08	-49.5	-51.3	15.8	6.05e-01	0	23	0	405274624	67	4501
2026-01-09 23:14:18.66	68.98	11.08	-49.3	-51.1	15.8	6.05e-01	0	23	0	411041792	67	4411
2026-01-09 23:14:21.66	69.62	11.09	-49.4	-51.2	15.8	6.03e-01	0	23	0	416284672	67	4445
2026-01-09 23:14:24.65	70.26	11.09	-49.4	-51.2	15.8	6.03e-01	0	24	0	422051840	67	4491
2026-01-09 23:14:27.66	70.90	11.09	-49.5	-51.3	15.8	6.05e-01	0	23	0	427819008	67	4503
2026-01-09 23:14:30.66	71.54	11.09	-49.4	-51.2	15.8	6.06e-01	0	23	0	433586176	67	4467
2026-01-09 23:14:33.67	72.19	11.08	-49.4	-51.2	15.8	6.03e-01	0	23	0	438829056	67	4476
2026-01-09 23:14:36.65	72.82	11.07	-49.3	-51.1	15.9	6.04e-01	0	23	0	444596224	67	4398
2026-01-09 23:14:39.65	73.46	11.06	-49.3	-51.1	15.9	6.03e-01	0	23	0	450363392	67	4438
2026-01-09 23:14:42.65	74.10	11.05	-49.3	-51.1	15.8	6.03e-01	0	23	0	455606272	67	4426
2026-01-09 23:14:45.64	74.74	11.03	-49.3	-51.1	15.9	6.05e-01	0	24	0	461373440	67	4393
2026-01-09 23:14:48.64	75.37	11.01	-49.5	-51.3	15.8	6.03e-01	0	23	0	467140608	67	4511
2026-01-09 23:14:51.63	76.01	10.98	-49.3	-51.1	15.9	6.03e-01	0	24	0	472907776	67	4407
2026-01-09 23:14:54.63	76.64	10.95	-49.3	-51.1	15.8	6.03e-01	0	23	0	478150656	67	4403
2026-01-09 23:14:57.63	77.28	10.92	-49.4	-51.3	15.8	6.01e-01	0	24	0	483917824	67	4502
2026-01-09 23:15:00.66	77.92	10.89	-49.3	-51.1	15.9	6.04e-01	0	24	0	489684992	67	4404
2026-01-09 23:15:03.66	78.55	10.86	-49.2	-51.0	15.9	6.04e-01	0	24	0	495452160	67	4378
2026-01-09 23:15:06.66	79.18	10.82	-49.5	-51.3	15.8	6.04e-01	0	24	0	500695040	67	4508
2026-01-09 23:15:09.65	79.80	10.77	-49.4	-51.2	15.8	6.05e-01	0	23	0	506462208	67	4455
2026-01-09 23:15:12.62	80.42	10.73	-49.4	-51.1	15.8	6.04e-01	0	23	0	512229376	67	4440
2026-01-09 23:15:15.61	81.05	10.68	-49.4	-51.2	15.8	6.03e-01	0	24	0	517472256	67	4460
2026-01-09 23:15:18.61	81.67	10.63	-49.3	-51.1	15.8	6.03e-01	0	23	0	523239424	67	4441
2026-01-09 23:15:21.60	82.28	10.58	-49.4	-51.2	15.8	6.02e-01	0	24	0	529006592	67	4481
2026-01-09 23:15:24.59	82.90	10.53	-49.5	-51.3	15.8	6.03e-01	0	23	0	534249472	67	4505
2026-01-09 23:15:27.59	83.51	10.47	-49.3	-51.1	15.8	6.04e-01	0	23	0	540016640	67	4433
2026-01-09 23:15:30.59	84.13	10.41	-49.5	-51.3	15.8	6.03e-01	0	23	0	545783808	67	4515
2026-01-09 23:15:33.58	84.73	10.34	-49.5	-51.4	15.7	6.03e-01	0	23	0	551550976	67	4570
2026-01-09 23:15:36.58	85.34	10.28	-49.5	-51.3	15.8	6.03e-01	0	24	0	556793856	67	4526
2026-01-09 23:15:39.57	85.94	10.21	-49.4	-51.2	15.8	6.04e-01	0	24	0	562561024	67	4486
2026-01-09 23:15:42.58	86.54	10.14	-49.4	-51.2	15.8	6.02e-01	0	24	0	568328192	67	4491
2026-01-09 23:15:45.58	87.14	10.07	-49.5	-51.3	15.8	6.01e-01	0	23	0	574095360	67	4505
2026-01-09 23:15:48.59	87.74	9.99	-49.5	-51.3	15.8	6.02e-01	0	23	0	579338240	67	4537
2026-01-09 23:15:51.57	88.33	9.92	-49.6	-51.5	15.7	6.03e-01	0	23	0	585105408	67	4604
2026-01-09 23:15:54.57	88.91	9.84	-49.3	-51.2	15.8	6.02e-01	0	23	0	590872576	67	4445
2026-01-09 23:15:57.57	89.50	9.75	-49.6	-51.5	15.7	6.03e-01	0	23	0	596115456	67	4605
2026-01-09 23:16:00.56	90.08	9.67	-49.6	-51.4	15.7	6.04e-01	0	23	0	601882624	67	4578
2026-01-09 23:16:03.56	90.66	9.58	-49.5	-51.3	15.8	6.03e-01	0	23	0	607649792	67	4516
2026-01-09 23:16:06.56	91.23	9.50	-49.5	-51.4	15.7	6.01e-01	0	24	0	613416960	67	4569
2026-01-09 23:16:09.55	91.80	9.41	-49.5	-51.4	15.7	6.02e-01	0	23	0	618659840	67	4548
2026-01-09 23:16:12.55	92.37	9.31	-49.5	-51.4	15.7	6.02e-01	0	23	0	624427008	67	4567
2026-01-09 23:16:15.56	92.93	9.22	-49.6	-51.5	15.7	6.02e-01	0	23	0	630194176	67	4614
2026-01-09 23:16:18.56	93.49	9.12	-49.6	-51.4	15.7	6.04e-01	0	23	0	635437056	67	4576
2026-01-09 23:16:21.56	94.05	9.03	-49.8	-51.7	15.6	6.04e-01	0	23	0	641204224	67	4721
2026-01-09 23:16:24.56	94.60	8.93	-49.7	-51.6	15.7	6.03e-01	0	23	0	646971392	67	4675
2026-01-09 23:16:27.55	95.14	8.83	-49.6	-51.5	15.7	6.04e-01	0	23	0	652738560	67	4640
2026-01-09 23:16:30.54	95.68	8.72	-49.6	-51.5	15.7	6.06e-01	0	24	0	657981440	67	4613
2026-01-09 23:16:33.54	96.22	8.62	-49.7	-51.5	15.7	6.04e-01	0	23	0	663748608	67	4650
2026-01-09 23:16:36.54	96.76	8.51	-50.0	-52.0	15.5	6.03e-01	0	23	0	669515776	67	4910
2026-01-09 23:16:39.54	97.29	8.40	-49.9	-51.9	15.7	6.03e-01	0	24	0	674758656	68	4555
2026-01-09 23:16:42.55	97.82	8.30	-49.8	-51.7	15.8	6.05e-01	0	23	0	680525824	68	4453
2026-01-09 23:16:45.54	98.34	8.19	-49.9	-51.8	15.8	6.03e-01	0	23	0	686292992	68	4529
2026-01-09 23:16:48.55	98.86	8.07	-49.9	-51.8	15.8	6.04e-01	0	23	0	692060160	68	4513
2026-01-09 23:16:51.55	99.38	7.96	-49.9	-51.9	15.8	6.04e-01	0	24	0	697303040	68	4550
2026-01-09 23:16:54.55	99.89	7.85	-49.9	-51.9	15.7	6.05e-01	0	23	0	703070208	68	4571
2026-01-09 23:16:57.55	100.39	7.73	-50.0	-52.0	15.7	6.05e-01	0	23	0	708837376	68	4607
2026-01-09 23:17:00.55	100.90	7.61	-50.0	-51.9	15.7	6.02e-01	0	23	0	714604544	68	4585
2026-01-09 23:17:03.55	101.39	7.49	-50.1	-52.1	15.6	6.03e-01	0	23	0	719847424	68	4663
2026-01-09 23:17:06.56	101.89	7.38	-50.1	-52.1	15.7	6.03e-01	0	24	0	725614592	68	4660
2026-01-09 23:17:09.56	102.38	7.25	-50.1	-52.0	15.7	6.03e-01	0	23	0	731381760	68	4651
2026-01-09 23:17:12.57	102.87	7.13	-50.0	-52.0	15.6	6.05e-01	0	23	0	737148928	68	4634
2026-01-09 23:17:15.57	103.35	7.01	-50.1	-52.1	15.6	6.02e-01	0	24	0	742391808	68	4696
2026-01-09 23:17:18.56	103.82	6.89	-50.2	-52.2	15.6	6.01e-01	0	23	0	748158976	68	4739
2026-01-09 23:17:21.55	104.29	6.76	-50.2	-52.3	15.6	6.04e-01	0	24	0	753926144	68	4800
2026-01-09 23:17:24.55	104.76	6.64	-50.2	-52.2	15.6	6.05e-01	0	23	0	759169024	68	4741
2026-01-09 23:17:27.54	105.22	6.51	-50.2	-52.2	15.6	6.02e-01	0	23	0	764936192	68	4758
2026-01-09 23:17:30.54	105.68	6.39	-50.2	-52.3	15.6	6.03e-01	0	23	0	770703360	68	4772
2026-01-09 23:17:33.54	106.14	6.26	-50.3	-52.4	15.5	6.01e-01	0	23	0	776470528	68	4861
2026-01-09 23:17:36.53	106.59	6.13	-50.4	-52.5	15.5	6.02e-01	0	23	0	781713408	68	4915
2026-01-09 23:17:39.53	107.04	6.00	-50.3	-52.5	15.5	6.04e-01	0	23	0	787480576	68	4872
2026-01-09 23:17:42.54	107.48	5.87	-50.4	-52.5	15.5	6.04e-01	0	24	0	793247744	68	4906
2026-01-09 23:17:45.56	107.92	5.74	-50.3	-52.4	15.5	6.04e-01	0	23	0	799014912	68	4853
2026-01-09 23:17:48.57	108.36	5.61	-50.5	-52.6	15.4	6.03e-01	0	23	0	804257792	68	4975
2026-01-09 23:17:51.57	108.79	5.48	-50.6	-52.7	15.5	6.04e-01	0	23	0	810024960	69	4750
2026-01-09 23:17:54.57	109.22	5.35	-50.7	-52.9	15.5	6.05e-01	0	24	0	815792128	69	4826
2026-01-09 23:17:57.56	109.64	5.22	-50.8	-53.1	15.4	6.03e-01	0	24	0	821559296	69	4955
2026-01-09 23:18:00.57	110.06	5.09	-50.8	-53.1	15.4	6.04e-01	0	23	0	826802176	69	4931
2026-01-09 23:18:03.59	110.48	4.95	-57.5	-76.5	3.8	7.48e-01	0	24	104	831520768	82	34602
2026-01-09 23:18:06.58	110.89	4.82	-58.0	-77.2	3.8	7.47e-01	0	24	104	831520768	83	35553
2026-01-09 23:18:09.56	111.29	4.69	-58.4	-77.7	3.8	7.47e-01	0	23	104	831520768	84	35560
2026-01-09 23:18:12.55	111.69	4.55	-58.5	-77.9	3.8	7.47e-01	0	23	104	831520768	84	36190
2026-01-09 23:18:15.54	112.09	4.42	-58.7	-78.0	3.8	7.42e-01	0	24	104	831520768	85	34701
2026-01-09 23:18:18.53	112.48	4.28	-58.7	-78.1	3.8	7.47e-01	0	24	104	831520768	85	34989
2026-01-09 23:18:21.53	112.88	4.15	-58.8	-78.2	3.8	7.48e-01	0	23	104	831520768	85	35321
2026-01-09 23:18:24.53	113.26	4.01	-58.9	-78.3	3.8	7.45e-01	0	24	104	831520768	85	35720
2026-01-09 23:18:27.54	113.65	3.88	-59.0	-78.3	3.9	7.45e-01	0	23	104	831520768	85	35957
2026-01-09 23:18:30.55	114.03	3.74	-59.1	-78.4	3.8	7.46e-01	0	24	104	831520768	85	36315
2026-01-09 23:18:33.55	114.41	3.60	-59.0	-78.4	3.8	7.46e-01	0	24	104	831520768	85	36273
2026-01-09 23:18:36.53	114.78	3.47	-59.0	-78.4	3.8	7.45e-01	0	24	104	831520768	85	36159
2026-01-09 23:18:39.53	115.15	3.33	-59.0	-78.3	3.8	7.48e-01	0	24	104	831520768	85	36079
2026-01-09 23:18:42.54	115.51	3.20	-59.0	-78.3	3.8	7.44e-01	0	24	104	831520768	85	36037
2026-01-09 23:18:45.52	115.87	3.06	-59.0	-78.3	3.8	7.45e-01	0	24	104	831520768	85	35821
2026-01-09 23:18:48.52	116.23	2.92	-59.0	-78.3	3.8	7.46e-01	0	24	104	831520768	85	35917
2026-01-09 23:18:51.52	116.59	2.79	-58.9	-78.3	3.8	7.44e-01	0	24	104	831520768	85	35749
2026-01-09 23:18:54.51	116.94	2.65	-58.9	-78.2	3.8	7.45e-01	0	24	104	831520768	85	35688
2026-01-09 23:18:57.50	117.29	2.51	-58.9	-78.2	3.8	7.47e-01	0	24	104	831520768	85	35657
2026-01-09 23:19:00.49	117.63	2.38	-58.9	-78.2	3.8	7.45e-01	0	24	104	831520768	85	35608
2026-01-09 23:19:03.49	117.97	2.24	-58.9	-78.2	3.8	7.45e-01	0	24	104	831520768	85	35567
2026-01-09 23:19:06.49	118.31	2.10	-58.9	-78.2	3.8	7.47e-01	0	24	104	831520768	85	35657
2026-01-09 23:19:09.50	118.65	1.97	-58.9	-78.2	3.8	7.43e-01	0	23	104	831520768	85	35648

#Closed at: 2026-01-09 23:19:09
#Recorded file [831 MB]: D:/lorett/data/31004_260110_020941.dat