passes_logs/2026/01/09/R3.2S_Murmansk/R3.2S_Murmansk__20260109_012354_SUOMI_NPP_rec.log

#Pass ID: 20260109_012354_SUOMI NPP
#Satellite: SUOMI NPP
#Configuration: NPP
#almurnet v.1.7.20251203
#Start time: 2026-01-09 01:23:54

#Version: 2.2.20231116
#Station: R3.2S_Murmansk
#Location: 33.079688 lon 68.888172 lat
#TLE: 1 37849U 11061A   26008.05542337  .00000108  00000+0  71976-4 0  9997
#TLE: 2 37849  98.7805 310.1641 0002540  75.6410 284.5048 14.19523335735721

#Time	Az	El	Level	Level2	SNR	BER	BlckErr	Temp	State	Recorded	gain1	gain2
2026-01-09 01:23:54.32	27.24	2.02	-57.1	-73.0	3.8	1.49e+00	0	22	0	0	80	22440
2026-01-09 01:23:58.30	27.19	2.27	-57.0	-73.0	3.8	1.49e+00	0	22	104	0	79	23764
2026-01-09 01:24:02.30	27.14	2.53	-57.0	-73.0	3.8	1.49e+00	0	22	104	0	79	23774
2026-01-09 01:24:06.31	27.09	2.79	-57.1	-73.0	3.8	1.49e+00	0	22	104	0	79	23676
2026-01-09 01:24:10.30	27.03	3.06	-57.0	-72.7	3.8	1.49e+00	0	22	104	0	79	22963
2026-01-09 01:24:14.31	26.98	3.32	-57.0	-72.1	3.8	1.49e+00	0	22	104	0	79	21477
2026-01-09 01:24:18.29	26.92	3.59	-57.0	-71.9	3.8	1.49e+00	0	22	104	0	79	20880
2026-01-09 01:24:22.28	26.86	3.86	-57.0	-72.3	3.8	1.49e+00	0	22	104	0	79	21770
2026-01-09 01:24:26.29	26.80	4.13	-57.0	-71.1	3.8	1.49e+00	0	23	104	0	79	19080
2026-01-09 01:24:30.29	26.74	4.41	-56.7	-67.4	5.0	8.57e-01	0	23	0	3145728	79	12401
2026-01-09 01:24:34.30	26.68	4.68	-56.4	-65.0	6.5	2.18e-01	0	23	0	10485760	79	9439
2026-01-09 01:24:38.30	26.61	4.97	-56.3	-64.4	7.0	1.24e-01	0	23	0	17825792	79	8783
2026-01-09 01:24:42.30	26.55	5.25	-56.5	-67.3	4.8	9.90e-01	0	23	0	25165824	79	12331
2026-01-09 01:24:46.28	26.48	5.54	-54.7	-58.8	12.0	3.96e-05	0	23	0	32505856	76	5493
2026-01-09 01:24:50.28	26.41	5.83	-53.7	-57.1	13.1	0.00e+00	0	23	0	39845888	74	5047
2026-01-09 01:24:54.34	26.34	6.12	-53.5	-56.7	13.3	0.00e+00	0	23	0	47185920	73	5120
2026-01-09 01:24:58.34	26.26	6.42	-52.9	-55.7	13.8	0.00e+00	0	23	0	54525952	72	4856
2026-01-09 01:25:02.34	26.19	6.72	-52.7	-55.4	13.9	0.00e+00	0	23	0	61865984	71	4956
2026-01-09 01:25:06.33	26.11	7.02	-52.6	-55.2	14.0	0.00e+00	0	23	0	69206016	71	4862
2026-01-09 01:25:10.32	26.03	7.33	-52.5	-55.1	14.1	0.00e+00	0	23	0	76546048	71	4781
2026-01-09 01:25:14.31	25.95	7.64	-52.4	-55.0	14.2	0.00e+00	0	23	0	84934656	71	4713
2026-01-09 01:25:18.29	25.87	7.95	-52.3	-54.8	14.3	0.00e+00	0	23	0	92274688	71	4604
2026-01-09 01:25:22.29	25.79	8.27	-52.4	-55.0	14.2	0.00e+00	0	23	0	99614720	71	4719
2026-01-09 01:25:26.28	25.70	8.60	-52.5	-54.9	14.1	0.00e+00	0	23	0	106954752	70	4972
2026-01-09 01:25:30.28	25.61	8.92	-52.2	-54.6	14.3	0.00e+00	0	23	0	114294784	70	4791
2026-01-09 01:25:34.26	25.52	9.25	-52.0	-54.3	14.5	0.00e+00	0	23	0	121634816	70	4606
2026-01-09 01:25:38.27	25.42	9.59	-51.9	-54.1	14.6	0.00e+00	0	23	0	128974848	70	4524
2026-01-09 01:25:42.27	25.33	9.93	-51.8	-54.1	14.6	0.00e+00	0	23	0	137363456	70	4501
2026-01-09 01:25:46.26	25.23	10.27	-51.7	-53.9	14.5	0.00e+00	0	23	0	144703488	69	4681
2026-01-09 01:25:50.25	25.13	10.62	-51.4	-53.5	14.7	0.00e+00	0	24	0	152043520	69	4479
2026-01-09 01:25:54.24	25.02	10.97	-51.2	-53.2	14.9	0.00e+00	0	23	0	159383552	69	4339
2026-01-09 01:25:58.24	24.91	11.33	-51.0	-53.0	14.9	0.00e+00	0	24	0	166723584	68	4452
2026-01-09 01:26:02.24	24.80	11.70	-50.9	-52.8	15.0	0.00e+00	0	24	0	174063616	68	4384
2026-01-09 01:26:06.22	24.69	12.06	-50.5	-52.4	15.0	0.00e+00	0	23	0	181403648	67	4419
2026-01-09 01:26:10.21	24.57	12.44	-50.4	-52.2	15.1	0.00e+00	0	24	0	189792256	67	4338
2026-01-09 01:26:14.19	24.45	12.82	-50.4	-52.2	15.1	0.00e+00	0	23	0	197132288	67	4309
2026-01-09 01:26:18.18	24.32	13.20	-50.3	-52.1	15.1	0.00e+00	0	23	0	204472320	67	4273
2026-01-09 01:26:22.17	24.19	13.60	-50.4	-52.2	15.1	0.00e+00	0	23	0	211812352	67	4330
2026-01-09 01:26:26.16	24.06	13.99	-50.3	-52.0	15.2	0.00e+00	0	24	0	219152384	67	4236
2026-01-09 01:26:30.14	23.93	14.40	-50.3	-52.1	15.1	0.00e+00	0	24	0	226492416	67	4283
2026-01-09 01:26:34.12	23.78	14.81	-50.4	-52.2	15.1	0.00e+00	0	24	0	233832448	67	4319
2026-01-09 01:26:38.12	23.64	15.23	-50.4	-52.3	15.1	0.00e+00	0	24	0	241172480	67	4358
2026-01-09 01:26:42.12	23.49	15.65	-50.4	-52.2	15.1	0.00e+00	0	24	0	249561088	67	4329
2026-01-09 01:26:46.11	23.33	16.09	-50.4	-52.3	15.1	0.00e+00	0	24	0	256901120	67	4351
2026-01-09 01:26:50.11	23.17	16.53	-50.4	-52.3	15.1	0.00e+00	0	24	0	264241152	67	4344
2026-01-09 01:26:54.11	23.01	16.98	-50.5	-52.4	15.0	0.00e+00	0	24	0	271581184	67	4392
2026-01-09 01:26:58.12	22.84	17.43	-50.5	-52.4	15.0	0.00e+00	0	24	0	278921216	67	4406
2026-01-09 01:27:02.10	22.66	17.90	-50.7	-52.5	15.0	0.00e+00	0	24	0	286261248	67	4489
2026-01-09 01:27:06.09	22.48	18.37	-50.4	-52.2	15.1	0.00e+00	0	24	0	294649856	67	4307
2026-01-09 01:27:10.10	22.29	18.86	-50.3	-52.1	15.2	0.00e+00	0	24	0	301989888	67	4265
2026-01-09 01:27:14.07	22.09	19.34	-50.3	-52.1	15.2	0.00e+00	0	24	0	309329920	67	4259
2026-01-09 01:27:18.07	21.89	19.85	-50.3	-52.0	15.1	0.00e+00	0	24	0	316669952	66	4472
2026-01-09 01:27:22.05	21.68	20.36	-50.2	-52.0	15.1	0.00e+00	0	24	0	324009984	66	4447
2026-01-09 01:27:26.03	21.46	20.87	-50.1	-51.8	15.2	0.00e+00	0	24	0	331350016	66	4347
2026-01-09 01:27:30.03	21.24	21.41	-50.2	-51.9	15.1	0.00e+00	0	24	0	338690048	66	4421
2026-01-09 01:27:34.03	21.00	21.95	-50.5	-52.3	14.9	0.00e+00	0	24	0	346030080	66	4610
2026-01-09 01:27:38.01	20.76	22.50	-50.6	-52.4	14.9	0.00e+00	0	24	0	354418688	66	4693
2026-01-09 01:27:42.01	20.51	23.07	-50.5	-52.2	15.1	0.00e+00	0	24	0	361758720	67	4320
2026-01-09 01:27:45.99	20.25	23.65	-50.5	-52.2	15.2	0.00e+00	0	24	0	369098752	67	4313
2026-01-09 01:27:49.99	19.97	24.24	-50.9	-52.8	14.9	0.00e+00	0	24	0	376438784	67	4605
2026-01-09 01:27:53.98	19.69	24.84	-51.7	-53.8	14.5	0.00e+00	0	24	0	383778816	68	4915
2026-01-09 01:27:57.96	19.39	25.45	-52.1	-54.3	14.6	0.00e+00	0	24	0	391118848	70	4635
2026-01-09 01:28:01.97	19.08	26.08	-52.0	-54.2	14.6	0.00e+00	0	24	0	398458880	70	4553
2026-01-09 01:28:05.97	18.76	26.73	-52.1	-54.2	14.6	0.00e+00	0	24	0	406847488	70	4598
2026-01-09 01:28:09.96	18.43	27.39	-52.3	-54.5	14.5	0.00e+00	0	24	0	414187520	70	4746
2026-01-09 01:28:13.95	18.08	28.06	-52.2	-54.4	14.5	0.00e+00	0	24	0	421527552	70	4659
2026-01-09 01:28:17.94	17.71	28.75	-52.1	-54.1	14.7	0.00e+00	0	24	0	428867584	70	4534
2026-01-09 01:28:21.93	17.33	29.45	-52.6	-55.0	14.2	0.00e+00	0	24	0	436207616	70	5002
2026-01-09 01:28:25.92	16.92	30.17	-53.1	-55.8	13.9	0.00e+00	0	24	0	443547648	71	5162
2026-01-09 01:28:29.93	16.50	30.92	-53.1	-55.7	14.0	0.00e+00	0	24	0	450887680	71	5114
2026-01-09 01:28:33.91	16.06	31.67	-53.3	-56.2	13.6	0.00e+00	0	24	0	459276288	71	5417
2026-01-09 01:28:37.90	15.60	32.44	-53.9	-57.5	13.1	0.00e+00	0	24	0	466616320	73	5632
2026-01-09 01:28:41.91	15.11	33.24	-54.3	-57.9	12.9	0.00e+00	0	24	0	473956352	73	5890
2026-01-09 01:28:45.89	14.60	34.04	-55.7	-60.3	11.7	2.28e-05	0	24	0	481296384	76	6496
2026-01-09 01:28:49.89	14.06	34.87	-55.7	-60.7	11.2	1.16e-04	0	24	0	488636416	77	6470
2026-01-09 01:28:53.87	13.49	35.72	-55.3	-60.0	11.7	1.40e-04	0	24	0	495976448	76	6326
2026-01-09 01:28:57.86	12.89	36.59	-54.4	-58.6	12.5	3.80e-06	0	24	0	503316480	75	5709
2026-01-09 01:29:01.86	12.25	37.48	-53.1	-56.2	13.8	0.00e+00	0	24	0	510656512	72	5127
2026-01-09 01:29:05.86	11.58	38.38	-53.1	-55.9	14.0	0.00e+00	0	24	0	519045120	72	4970
2026-01-09 01:29:09.85	10.87	39.31	-53.1	-55.9	14.0	0.00e+00	0	24	0	526385152	72	4954
2026-01-09 01:29:13.84	10.12	40.26	-53.8	-57.1	13.4	0.00e+00	0	24	0	533725184	72	5684
2026-01-09 01:29:17.83	9.32	41.22	-52.8	-55.3	14.4	0.00e+00	0	24	0	541065216	72	4631
2026-01-09 01:29:21.80	8.47	42.20	-52.1	-54.2	14.6	0.00e+00	0	24	0	548405248	70	4590
2026-01-09 01:29:25.80	7.56	43.21	-52.1	-54.3	14.5	0.00e+00	0	24	0	555745280	69	4875
2026-01-09 01:29:29.78	6.60	44.23	-52.5	-54.8	14.4	0.00e+00	0	24	0	563085312	70	4908
2026-01-09 01:29:33.79	5.56	45.28	-52.3	-54.6	14.4	0.00e+00	0	24	0	571473920	70	4800
2026-01-09 01:29:37.79	4.45	46.34	-50.7	-52.8	15.1	0.00e+00	0	24	0	578813952	68	4341
2026-01-09 01:29:41.78	3.27	47.41	-52.3	-54.9	14.2	0.00e+00	0	24	0	586153984	69	5256
2026-01-09 01:29:45.77	2.00	48.50	-51.5	-53.8	14.8	0.00e+00	0	24	0	593494016	69	4619
2026-01-09 01:29:49.76	0.64	49.59	-50.9	-52.9	15.0	0.00e+00	0	24	0	600834048	68	4395
2026-01-09 01:29:53.77	359.17	50.70	-50.5	-52.6	14.8	0.00e+00	0	24	0	608174080	66	4790
2026-01-09 01:29:57.77	357.59	51.81	-49.9	-51.7	15.3	0.00e+00	0	24	0	615514112	66	4293
2026-01-09 01:30:01.76	355.89	52.92	-51.0	-53.1	14.8	0.00e+00	0	24	0	623902720	67	4774
2026-01-09 01:30:05.76	354.04	54.03	-50.9	-52.8	14.9	0.00e+00	0	24	0	631242752	67	4634
2026-01-09 01:30:09.75	352.06	55.13	-52.0	-54.3	14.5	0.00e+00	0	24	0	638582784	69	4914
2026-01-09 01:30:13.74	349.91	56.21	-51.2	-53.3	14.9	0.00e+00	0	24	0	645922816	68	4616
2026-01-09 01:30:17.72	347.60	57.27	-51.6	-53.7	14.7	0.00e+00	0	24	0	653262848	68	4851
2026-01-09 01:30:21.72	345.09	58.31	-50.8	-52.7	14.9	0.00e+00	0	24	0	660602880	67	4571
2026-01-09 01:30:25.69	342.40	59.30	-50.8	-52.6	15.0	0.00e+00	0	24	0	667942912	67	4494
2026-01-09 01:30:29.69	339.48	60.24	-51.2	-53.2	14.8	0.00e+00	0	24	0	676331520	67	4821
2026-01-09 01:30:33.67	336.36	61.13	-52.2	-54.6	14.4	0.00e+00	0	24	0	683671552	69	5073
2026-01-09 01:30:37.66	333.01	61.95	-50.3	-52.0	15.1	0.00e+00	0	24	0	691011584	66	4470
2026-01-09 01:30:41.65	329.44	62.69	-49.9	-51.7	15.3	0.00e+00	0	24	0	698351616	66	4294
2026-01-09 01:30:45.65	325.64	63.33	-49.4	-51.0	15.3	0.00e+00	0	24	0	705691648	64	4479
2026-01-09 01:30:49.65	321.65	63.87	-49.0	-50.6	15.4	0.00e+00	0	24	0	713031680	64	4259
2026-01-09 01:30:53.64	317.50	64.30	-50.3	-52.1	14.9	0.00e+00	0	24	0	720371712	65	4789
2026-01-09 01:30:57.64	313.20	64.60	-49.6	-51.3	15.3	0.00e+00	0	24	0	728760320	65	4378
2026-01-09 01:31:01.63	308.83	64.77	-48.4	-49.9	15.6	0.00e+00	0	24	0	736100352	63	4153
2026-01-09 01:31:05.62	304.41	64.81	-48.7	-50.2	15.4	0.00e+00	0	24	0	743440384	63	4331
2026-01-09 01:31:09.62	299.99	64.71	-49.6	-51.3	15.1	0.00e+00	0	24	0	750780416	64	4603
2026-01-09 01:31:13.62	295.64	64.48	-48.1	-49.4	15.6	0.00e+00	0	24	0	758120448	62	4175
2026-01-09 01:31:17.62	291.40	64.12	-49.7	-51.3	15.1	0.00e+00	0	24	0	765460480	64	4642
2026-01-09 01:31:21.60	287.33	63.64	-49.8	-51.4	15.3	0.00e+00	0	24	0	772800512	65	4423
2026-01-09 01:31:25.59	283.43	63.06	-49.5	-51.1	15.4	0.00e+00	0	24	0	781189120	65	4262
2026-01-09 01:31:29.58	279.73	62.37	-48.7	-50.1	15.6	0.00e+00	0	24	0	788529152	64	4027
2026-01-09 01:31:33.58	276.25	61.59	-49.9	-51.6	15.2	0.00e+00	0	24	0	795869184	65	4499
2026-01-09 01:31:37.57	272.99	60.74	-53.2	-56.1	13.8	0.00e+00	0	24	0	803209216	71	5397
2026-01-09 01:31:41.56	269.96	59.82	-52.8	-55.2	14.4	0.00e+00	0	24	0	810549248	71	4831
2026-01-09 01:31:45.55	267.14	58.85	-54.3	-57.1	13.7	0.00e+00	0	24	0	817889280	74	5084
2026-01-09 01:31:49.56	264.51	57.83	-51.7	-53.5	15.1	0.00e+00	0	24	0	825229312	70	4195
2026-01-09 01:31:53.55	262.09	56.78	-52.0	-54.2	14.8	0.00e+00	0	24	0	833617920	70	4556
2026-01-09 01:31:57.54	259.85	55.71	-53.7	-56.9	13.5	0.00e+00	0	24	0	840957952	72	5591
2026-01-09 01:32:01.53	257.78	54.61	-52.8	-55.4	14.2	0.00e+00	0	24	0	848297984	71	4949
2026-01-09 01:32:05.52	255.87	53.51	-53.0	-55.7	14.1	0.00e+00	0	24	0	855638016	71	5133
2026-01-09 01:32:09.51	254.09	52.40	-52.2	-54.6	14.5	0.00e+00	0	24	0	862978048	70	4767
2026-01-09 01:32:13.51	252.44	51.28	-51.9	-54.1	14.6	0.00e+00	0	24	0	870318080	69	4778
2026-01-09 01:32:17.51	250.91	50.17	-50.9	-52.6	15.2	0.00e+00	0	24	0	877658112	68	4286
2026-01-09 01:32:21.50	249.49	49.07	-53.2	-55.8	14.0	0.00e+00	0	24	0	884998144	71	5198
2026-01-09 01:32:25.48	248.17	47.98	-54.3	-57.5	13.3	0.00e+00	0	24	0	893386752	73	5620
2026-01-09 01:32:29.47	246.94	46.90	-53.8	-56.8	13.6	0.00e+00	0	24	0	900726784	72	5488
2026-01-09 01:32:33.45	245.80	45.83	-53.0	-55.7	14.0	0.00e+00	0	24	0	908066816	71	5134
2026-01-09 01:32:37.45	244.72	44.77	-53.7	-57.0	13.4	7.00e-07	0	24	0	915406848	72	5626
2026-01-09 01:32:41.44	243.72	43.74	-53.6	-56.5	13.7	0.00e+00	0	24	0	922746880	72	5294
2026-01-09 01:32:45.44	242.78	42.72	-52.6	-55.0	14.4	1.50e-06	0	24	0	930086912	71	4728
2026-01-09 01:32:49.44	241.89	41.72	-53.9	-57.0	13.5	0.00e+00	0	24	0	937426944	73	5328
2026-01-09 01:32:53.44	241.06	40.74	-55.1	-59.1	12.5	0.00e+00	0	24	0	945815552	75	5996
2026-01-09 01:32:57.42	240.29	39.78	-54.8	-58.1	13.3	0.00e+00	0	24	0	953155584	76	5089
2026-01-09 01:33:01.41	239.55	38.84	-53.6	-56.2	14.1	0.00e+00	0	24	0	960495616	73	4854
2026-01-09 01:33:05.40	238.86	37.92	-54.3	-57.3	13.5	0.00e+00	0	24	0	967835648	74	5187
2026-01-09 01:33:09.40	238.20	37.02	-55.4	-59.4	12.3	0.00e+00	0	24	0	975175680	75	6234
2026-01-09 01:33:13.39	237.58	36.14	-55.4	-59.3	12.4	1.50e-06	0	24	0	982515712	76	5845
2026-01-09 01:33:17.39	236.99	35.28	-54.6	-57.8	13.3	0.00e+00	0	24	0	989855744	75	5181
2026-01-09 01:33:21.38	236.44	34.43	-54.1	-57.0	13.6	0.00e+00	0	24	0	998244352	74	5029
2026-01-09 01:33:25.38	235.91	33.61	-52.1	-54.1	14.7	0.00e+00	0	24	0	1005584384	70	4535
2026-01-09 01:33:29.36	235.41	32.81	-53.9	-56.8	13.6	0.00e+00	0	24	0	1012924416	73	5204
2026-01-09 01:33:33.36	234.93	32.02	-53.6	-56.4	13.9	0.00e+00	0	24	0	1020264448	73	4938
2026-01-09 01:33:37.33	234.48	31.26	-53.4	-56.1	14.1	0.00e+00	0	24	0	1027604480	73	4760
2026-01-09 01:33:41.32	234.04	30.51	-52.0	-53.9	14.9	0.00e+00	0	24	0	1034944512	70	4433
2026-01-09 01:33:45.33	233.63	29.78	-52.7	-54.9	14.4	0.00e+00	0	24	0	1042284544	70	4935
2026-01-09 01:33:49.34	233.23	29.06	-53.1	-55.5	14.1	0.00e+00	0	24	0	1050673152	71	5037
2026-01-09 01:33:53.34	232.85	28.36	-54.9	-58.6	12.6	0.00e+00	0	24	0	1058013184	75	5696
2026-01-09 01:33:57.33	232.49	27.68	-54.2	-57.1	13.5	0.00e+00	0	24	0	1065353216	74	5080
2026-01-09 01:34:01.33	232.15	27.01	-53.4	-55.9	14.2	0.00e+00	0	24	0	1072693248	73	4664
2026-01-09 01:34:05.30	231.82	26.36	-52.5	-54.6	14.6	0.00e+00	0	24	0	1080033280	71	4520
2026-01-09 01:34:09.29	231.50	25.72	-52.2	-54.2	14.7	0.00e+00	0	24	0	1087373312	70	4580
2026-01-09 01:34:13.29	231.20	25.09	-52.8	-55.2	14.1	0.00e+00	0	24	0	1094713344	70	5152
2026-01-09 01:34:17.29	230.90	24.48	-52.9	-55.3	14.2	0.00e+00	0	24	0	1103101952	71	4888
2026-01-09 01:34:21.28	230.62	23.88	-52.9	-55.3	14.2	0.00e+00	0	24	0	1110441984	71	4910
2026-01-09 01:34:25.27	230.35	23.30	-53.9	-57.0	13.5	0.00e+00	0	24	0	1117782016	73	5295
2026-01-09 01:34:29.26	230.09	22.73	-54.0	-57.1	13.4	0.00e+00	0	24	0	1125122048	73	5382
2026-01-09 01:34:33.25	229.84	22.17	-52.7	-55.1	14.5	0.00e+00	0	24	0	1132462080	72	4499
2026-01-09 01:34:37.24	229.60	21.62	-51.9	-53.9	14.8	0.00e+00	0	24	0	1139802112	70	4414
2026-01-09 01:34:41.23	229.37	21.08	-51.9	-53.9	14.8	0.00e+00	0	24	0	1147142144	70	4441
2026-01-09 01:34:45.23	229.15	20.55	-51.8	-53.9	14.8	0.00e+00	0	24	0	1155530752	70	4411
2026-01-09 01:34:49.22	228.93	20.03	-52.0	-54.1	14.7	0.00e+00	0	24	0	1162870784	70	4514
2026-01-09 01:34:53.23	228.72	19.52	-52.6	-55.0	14.2	0.00e+00	0	24	0	1170210816	70	4991
2026-01-09 01:34:57.22	228.52	19.03	-52.7	-55.0	14.2	0.00e+00	0	24	0	1177550848	70	5024
2026-01-09 01:35:01.22	228.33	18.54	-52.6	-55.0	14.2	0.00e+00	0	24	0	1184890880	70	5011
2026-01-09 01:35:05.23	228.14	18.06	-53.0	-55.6	14.0	0.00e+00	0	24	0	1192230912	71	5061
2026-01-09 01:35:09.21	227.96	17.59	-53.6	-56.4	13.6	0.00e+00	0	24	0	1199570944	72	5277
2026-01-09 01:35:13.21	227.78	17.13	-53.7	-56.6	13.5	0.00e+00	0	24	0	1207959552	72	5382
2026-01-09 01:35:17.21	227.61	16.67	-53.2	-55.8	13.9	0.00e+00	0	24	0	1215299584	72	4898
2026-01-09 01:35:21.20	227.45	16.23	-52.6	-54.8	14.4	0.00e+00	0	24	0	1222639616	71	4644
2026-01-09 01:35:25.18	227.29	15.79	-51.8	-53.9	14.7	0.00e+00	0	24	0	1229979648	70	4416
2026-01-09 01:35:29.16	227.14	15.36	-51.8	-53.9	14.7	0.00e+00	0	24	0	1237319680	70	4423
2026-01-09 01:35:33.16	226.99	14.94	-52.1	-54.3	14.5	0.00e+00	0	24	0	1244659712	70	4650
2026-01-09 01:35:37.16	226.84	14.52	-52.8	-55.3	14.0	0.00e+00	0	24	0	1251999744	70	5186
2026-01-09 01:35:41.15	226.70	14.11	-52.9	-55.6	13.9	0.00e+00	0	24	0	1259339776	71	5051
2026-01-09 01:35:45.15	226.56	13.71	-53.0	-55.7	13.9	0.00e+00	0	24	0	1267728384	71	5133
2026-01-09 01:35:49.14	226.43	13.31	-52.9	-55.5	13.9	0.00e+00	0	24	0	1275068416	71	5022
2026-01-09 01:35:53.13	226.30	12.92	-52.7	-55.2	14.1	0.00e+00	0	24	0	1282408448	71	4839
2026-01-09 01:35:57.13	226.18	12.54	-52.5	-54.9	14.3	0.00e+00	0	24	0	1289748480	71	4697
2026-01-09 01:36:01.13	226.05	12.16	-52.5	-54.8	14.3	0.00e+00	0	24	0	1297088512	71	4645
2026-01-09 01:36:05.14	225.93	11.79	-52.7	-55.1	14.2	0.00e+00	0	24	0	1304428544	71	4791
2026-01-09 01:36:09.14	225.82	11.42	-52.8	-55.2	14.0	0.00e+00	0	24	0	1312817152	71	4862
2026-01-09 01:36:13.13	225.71	11.06	-52.9	-55.4	14.0	0.00e+00	0	24	0	1320157184	71	4958
2026-01-09 01:36:17.13	225.60	10.70	-52.9	-55.4	14.0	0.00e+00	0	24	0	1327497216	71	4979
2026-01-09 01:36:21.11	225.49	10.35	-53.0	-55.6	13.9	0.00e+00	0	24	0	1334837248	71	5050
2026-01-09 01:36:25.10	225.39	10.00	-53.6	-56.1	13.7	0.00e+00	0	24	0	1342177280	72	5082
2026-01-09 01:36:29.09	225.29	9.66	-53.3	-55.7	13.9	0.00e+00	0	24	0	1349517312	72	4841
2026-01-09 01:36:33.08	225.19	9.32	-53.3	-55.7	13.9	0.00e+00	0	24	0	1356857344	72	4861
2026-01-09 01:36:37.05	225.10	8.99	-53.1	-55.5	14.1	0.00e+00	0	24	0	1364197376	72	4720
2026-01-09 01:36:41.02	225.00	8.66	-53.4	-55.9	13.8	0.00e+00	0	24	0	1371537408	72	4944
2026-01-09 01:36:45.01	224.91	8.34	-53.3	-55.8	13.8	0.00e+00	0	24	0	1379926016	72	4880
2026-01-09 01:36:48.99	224.83	8.02	-53.5	-56.1	13.7	0.00e+00	0	24	0	1387266048	72	5058
2026-01-09 01:36:52.98	224.74	7.70	-53.5	-56.2	13.6	0.00e+00	0	24	0	1394606080	72	5115
2026-01-09 01:36:56.97	224.66	7.39	-53.7	-56.4	13.4	0.00e+00	0	24	0	1401946112	72	5251
2026-01-09 01:37:00.98	224.57	7.08	-54.0	-56.9	13.2	0.00e+00	0	24	0	1409286144	73	5234
2026-01-09 01:37:04.96	224.49	6.78	-53.9	-56.7	13.3	0.00e+00	0	24	0	1416626176	73	5151
2026-01-09 01:37:08.95	224.42	6.48	-54.0	-57.0	13.1	0.00e+00	0	24	0	1423966208	73	5334
2026-01-09 01:37:12.95	224.34	6.18	-54.1	-57.1	13.0	0.00e+00	0	24	0	1432354816	73	5384
2026-01-09 01:37:16.95	224.26	5.88	-53.9	-56.9	13.2	0.00e+00	0	24	0	1439694848	73	5246
2026-01-09 01:37:20.94	224.19	5.59	-54.2	-57.5	12.7	0.00e+00	0	24	0	1447034880	73	5628
2026-01-09 01:37:24.95	224.12	5.30	-54.0	-57.1	13.0	0.00e+00	0	24	0	1454374912	73	5350
2026-01-09 01:37:28.94	224.05	5.01	-54.0	-57.1	12.9	0.00e+00	0	24	0	1461714944	73	5399
2026-01-09 01:37:32.93	223.98	4.73	-58.9	-74.9	3.8	1.49e+00	0	24	104	1463812096	82	24770
2026-01-09 01:37:36.92	223.92	4.45	-59.2	-75.3	3.8	1.49e+00	0	24	104	1463812096	83	24614
2026-01-09 01:37:40.91	223.85	4.17	-59.6	-75.7	3.8	1.49e+00	0	24	104	1463812096	84	24228
2026-01-09 01:37:44.91	223.79	3.90	-59.7	-75.8	3.8	1.49e+00	0	24	104	1463812096	84	24491
2026-01-09 01:37:48.89	223.73	3.63	-59.8	-75.9	3.8	1.49e+00	0	24	104	1463812096	84	24770
2026-01-09 01:37:52.88	223.67	3.36	-59.9	-76.0	3.8	1.49e+00	0	24	104	1463812096	85	23651
2026-01-09 01:37:56.88	223.61	3.09	-59.8	-75.9	3.8	1.49e+00	0	24	104	1463812096	85	23445
2026-01-09 01:38:00.89	223.55	2.83	-59.8	-75.9	3.8	1.49e+00	0	24	104	1463812096	85	23343
2026-01-09 01:38:04.88	223.49	2.57	-59.8	-75.8	3.8	1.49e+00	0	24	104	1463812096	85	23267
2026-01-09 01:38:08.88	223.44	2.31	-59.7	-75.8	3.8	1.49e+00	0	24	104	1463812096	85	23124
2026-01-09 01:38:12.88	223.38	2.05	-59.7	-75.8	3.8	1.49e+00	0	24	104	1463812096	85	23052

#Closed at: 2026-01-09 01:38:15
#Recorded file [1463 MB]: D:/lorett/data/31004_260109_042354.dat