passes_logs/2026/01/09/R3.2S_Murmansk/R3.2S_Murmansk__20260109_040416_FENGYUN_3D_rec.log

#Pass ID: 20260109_040416_FENGYUN 3D
#Satellite: FENGYUN 3D
#Configuration: FENGYUN 3D
#almurnet v.1.7.20251203
#Start time: 2026-01-09 04:04:16

#Version: 2.2.20231116
#Station: R3.2S_Murmansk
#Location: 33.079688 lon 68.888172 lat
#TLE: 1 43010U 17072A   26008.59015185 -.00000067  00000+0 -98204-5 0  9997
#TLE: 2 43010  98.9935 340.3069 0002117 119.1923 240.9464 14.19693468422340

#Time	Az	El	Level	Level2	SNR	BER	BlckErr	Temp	State	Recorded	gain1	gain2
2026-01-09 04:04:16.89	31.40	2.01	-57.1	-70.1	3.8	8.45e-01	0	21	0	0	80	16084
2026-01-09 04:04:20.88	31.29	2.26	-57.1	-70.1	3.8	8.45e-01	0	22	104	0	79	16947
2026-01-09 04:04:24.88	31.18	2.51	-57.1	-70.1	3.8	8.45e-01	0	22	104	0	79	17033
2026-01-09 04:04:28.87	31.07	2.77	-57.1	-70.1	3.8	8.46e-01	0	22	104	0	79	16974
2026-01-09 04:04:32.86	30.95	3.02	-57.1	-70.1	3.8	8.45e-01	0	22	104	0	79	16889
2026-01-09 04:04:36.86	30.83	3.28	-57.1	-70.0	3.8	8.46e-01	0	22	104	0	79	16710
2026-01-09 04:04:40.86	30.71	3.55	-57.1	-69.3	3.8	8.46e-01	0	22	104	0	79	15447
2026-01-09 04:04:44.85	30.58	3.81	-57.0	-68.2	3.8	8.44e-01	0	22	104	0	79	13698
2026-01-09 04:04:48.85	30.46	4.08	-56.9	-67.2	4.0	8.43e-01	0	22	104	0	79	12116
2026-01-09 04:04:52.85	30.33	4.35	-56.6	-65.3	4.6	8.14e-01	0	23	0	0	79	9725
2026-01-09 04:04:56.85	30.19	4.62	-55.9	-61.9	6.6	2.11e-01	0	23	0	10485760	78	7034
2026-01-09 04:05:00.84	30.06	4.89	-55.1	-59.6	8.6	2.28e-02	0	23	0	33554432	76	6037
2026-01-09 04:05:04.83	29.92	5.17	-56.3	-62.6	6.3	2.23e-01	0	23	0	55574528	77	8057
2026-01-09 04:05:08.82	29.78	5.45	-53.0	-55.5	12.1	4.21e-03	0	23	0	75497472	72	4715
2026-01-09 04:05:12.82	29.64	5.73	-49.1	-50.6	14.5	0.00e+00	0	23	0	97517568	64	4268
2026-01-09 04:05:16.81	29.49	6.02	-48.8	-50.2	14.8	0.00e+00	0	23	0	120586240	64	4088
2026-01-09 04:05:20.79	29.34	6.31	-48.9	-50.3	14.8	0.00e+00	0	23	0	142606336	64	4109
2026-01-09 04:05:24.77	29.18	6.60	-48.7	-50.1	14.7	0.00e+00	0	23	0	164626432	63	4259
2026-01-09 04:05:28.74	29.03	6.89	-48.8	-50.2	14.7	0.00e+00	0	23	0	187695104	63	4304
2026-01-09 04:05:32.75	28.87	7.19	-48.7	-50.1	14.7	0.00e+00	0	23	0	209715200	63	4269
2026-01-09 04:05:36.76	28.70	7.49	-48.9	-50.3	14.6	0.00e+00	0	23	0	232783872	63	4369
2026-01-09 04:05:40.75	28.53	7.80	-48.9	-50.3	14.6	0.00e+00	0	23	0	254803968	63	4373
2026-01-09 04:05:44.74	28.36	8.10	-49.0	-50.4	14.6	0.00e+00	0	23	0	277872640	63	4422
2026-01-09 04:05:48.75	28.18	8.42	-49.0	-50.4	14.6	0.00e+00	0	23	0	299892736	63	4427
2026-01-09 04:05:52.75	28.00	8.73	-48.7	-50.1	14.8	0.00e+00	0	23	0	322961408	63	4243
2026-01-09 04:05:56.74	27.82	9.05	-48.7	-50.0	14.8	0.00e+00	0	23	0	344981504	63	4237
2026-01-09 04:06:00.74	27.63	9.37	-48.3	-49.6	15.1	0.00e+00	0	23	0	367001600	63	4047
2026-01-09 04:06:04.73	27.43	9.70	-48.0	-49.3	15.0	0.00e+00	0	23	0	390070272	62	4130
2026-01-09 04:06:08.71	27.24	10.03	-48.1	-49.4	15.0	0.00e+00	0	23	0	412090368	62	4180
2026-01-09 04:06:12.69	27.03	10.36	-48.0	-49.3	15.0	0.00e+00	0	23	0	434110464	62	4124
2026-01-09 04:06:16.66	26.82	10.70	-47.8	-49.1	15.2	0.00e+00	0	23	0	457179136	62	4040
2026-01-09 04:06:20.65	26.61	11.04	-47.8	-49.1	15.2	0.00e+00	0	23	0	479199232	62	4005
2026-01-09 04:06:24.66	26.39	11.39	-47.6	-48.8	15.1	0.00e+00	0	23	0	502267904	61	4131
2026-01-09 04:06:28.66	26.16	11.74	-47.7	-48.9	15.1	0.00e+00	0	23	0	524288000	61	4188
2026-01-09 04:06:32.64	25.93	12.10	-47.5	-48.7	15.2	0.00e+00	0	23	0	547356672	61	4080
2026-01-09 04:06:36.64	25.70	12.46	-47.5	-48.7	15.2	0.00e+00	0	24	0	569376768	61	4087
2026-01-09 04:06:40.65	25.45	12.83	-47.5	-48.7	15.2	0.00e+00	0	24	0	592445440	61	4083
2026-01-09 04:06:44.63	25.20	13.20	-47.3	-48.5	15.3	0.00e+00	0	24	0	614465536	61	3996
2026-01-09 04:06:48.62	24.95	13.57	-47.1	-48.3	15.2	0.00e+00	0	24	0	636485632	60	4136
2026-01-09 04:06:52.61	24.68	13.95	-47.0	-48.2	15.3	0.00e+00	0	24	0	659554304	60	4084
2026-01-09 04:06:56.58	24.41	14.34	-46.9	-48.1	15.3	0.00e+00	0	23	0	681574400	60	4045
2026-01-09 04:07:00.57	24.13	14.73	-46.9	-48.1	15.3	0.00e+00	0	24	0	703594496	60	4033
2026-01-09 04:07:04.56	23.85	15.13	-47.0	-48.2	15.3	0.00e+00	0	24	0	726663168	60	4076
2026-01-09 04:07:08.57	23.55	15.53	-46.8	-48.0	15.4	0.00e+00	0	23	0	748683264	60	3976
2026-01-09 04:07:12.56	23.25	15.94	-46.7	-47.9	15.3	0.00e+00	0	23	0	771751936	59	4160
2026-01-09 04:07:16.55	22.94	16.36	-46.6	-47.8	15.4	0.00e+00	0	24	0	793772032	59	4113
2026-01-09 04:07:20.53	22.62	16.78	-46.6	-47.7	15.4	0.00e+00	0	24	0	815792128	59	4083
2026-01-09 04:07:24.52	22.28	17.21	-46.5	-47.6	15.5	0.00e+00	0	24	0	838860800	59	4039
2026-01-09 04:07:28.51	21.94	17.64	-46.5	-47.7	15.4	0.00e+00	0	24	0	860880896	59	4065
2026-01-09 04:07:32.51	21.59	18.09	-46.5	-47.6	15.5	0.00e+00	0	24	0	883949568	59	4037
2026-01-09 04:07:36.51	21.23	18.54	-46.4	-47.6	15.5	0.00e+00	0	24	0	905969664	59	4023
2026-01-09 04:07:40.51	20.85	18.99	-46.3	-47.5	15.5	0.00e+00	0	24	0	929038336	59	3963
2026-01-09 04:07:44.51	20.47	19.46	-46.4	-47.5	15.5	0.00e+00	0	24	0	951058432	59	4001
2026-01-09 04:07:48.50	20.07	19.93	-46.2	-47.3	15.5	0.00e+00	0	24	0	974127104	58	4122
2026-01-09 04:07:52.48	19.66	20.40	-45.8	-46.9	15.6	0.00e+00	0	24	0	996147200	58	3949
2026-01-09 04:07:56.47	19.23	20.89	-45.6	-46.7	15.6	0.00e+00	0	24	0	1018167296	57	4054
2026-01-09 04:08:00.47	18.79	21.38	-45.5	-46.6	15.6	0.00e+00	0	24	0	1041235968	57	4016
2026-01-09 04:08:04.47	18.34	21.88	-45.5	-46.6	15.6	0.00e+00	0	24	0	1063256064	57	4010
2026-01-09 04:08:08.45	17.87	22.39	-45.4	-46.5	15.6	0.00e+00	0	24	0	1086324736	57	3969
2026-01-09 04:08:12.44	17.38	22.91	-45.6	-46.7	15.6	0.00e+00	0	24	0	1108344832	57	4065
2026-01-09 04:08:16.44	16.88	23.44	-45.4	-46.5	15.6	0.00e+00	0	24	0	1130364928	57	3981
2026-01-09 04:08:20.43	16.36	23.97	-45.3	-46.4	15.7	0.00e+00	0	24	0	1153433600	57	3933
2026-01-09 04:08:24.42	15.82	24.51	-45.4	-46.5	15.7	0.00e+00	0	24	0	1175453696	57	3961
2026-01-09 04:08:28.40	15.26	25.06	-45.2	-46.3	15.7	0.00e+00	0	24	0	1198522368	57	3905
2026-01-09 04:08:32.40	14.68	25.62	-45.1	-46.2	15.6	0.00e+00	0	24	0	1220542464	56	4060
2026-01-09 04:08:36.40	14.08	26.19	-44.8	-45.8	15.7	0.00e+00	0	24	0	1243611136	56	3913
2026-01-09 04:08:40.40	13.46	26.76	-44.4	-45.5	15.7	0.00e+00	0	24	0	1265631232	55	3976
2026-01-09 04:08:44.41	12.81	27.35	-44.6	-45.6	15.6	0.00e+00	0	24	0	1287651328	55	4047
2026-01-09 04:08:48.40	12.14	27.94	-44.7	-45.8	15.6	0.00e+00	0	24	0	1310720000	55	4131
2026-01-09 04:08:52.41	11.44	28.55	-44.6	-45.6	15.6	0.00e+00	0	24	0	1332740096	55	4043
2026-01-09 04:08:56.41	10.71	29.16	-44.5	-45.5	15.7	0.00e+00	0	24	0	1355808768	55	3996
2026-01-09 04:09:00.41	9.95	29.78	-44.6	-45.7	15.6	0.00e+00	0	24	0	1377828864	55	4082
2026-01-09 04:09:04.40	9.17	30.40	-44.3	-45.3	15.8	0.00e+00	0	24	0	1400897536	55	3887
2026-01-09 04:09:08.39	8.35	31.03	-44.3	-45.4	15.7	0.00e+00	0	24	0	1422917632	55	3930
2026-01-09 04:09:12.39	7.50	31.68	-44.3	-45.4	15.7	0.00e+00	0	24	0	1444937728	55	3921
2026-01-09 04:09:16.36	6.62	32.32	-44.3	-45.4	15.7	0.00e+00	0	24	0	1468006400	55	3916
2026-01-09 04:09:20.35	5.70	32.97	-44.6	-45.6	15.6	0.00e+00	0	24	0	1490026496	55	4047
2026-01-09 04:09:24.33	4.75	33.62	-44.3	-45.3	15.6	0.00e+00	0	24	0	1513095168	54	4120
2026-01-09 04:09:28.34	3.74	34.29	-44.5	-45.5	15.6	0.00e+00	0	24	0	1535115264	54	4230
2026-01-09 04:09:32.33	2.70	34.95	-44.3	-45.3	15.6	0.00e+00	0	24	0	1557135360	54	4126
2026-01-09 04:09:36.32	1.62	35.62	-44.5	-45.6	15.6	0.00e+00	0	24	0	1580204032	54	4262
2026-01-09 04:09:40.31	0.49	36.29	-44.5	-45.6	15.6	0.00e+00	0	24	0	1602224128	54	4250
2026-01-09 04:09:44.31	359.30	36.96	-44.4	-45.5	15.6	0.00e+00	0	24	0	1625292800	54	4204
2026-01-09 04:09:48.30	358.08	37.63	-44.3	-45.3	15.6	0.00e+00	0	24	0	1647312896	54	4132
2026-01-09 04:09:52.29	356.79	38.30	-44.4	-45.4	15.6	0.00e+00	0	24	0	1669332992	54	4191
2026-01-09 04:09:56.29	355.46	38.97	-44.6	-45.7	15.6	0.00e+00	0	24	0	1692401664	54	4293
2026-01-09 04:10:00.29	354.06	39.63	-44.5	-45.6	15.6	0.00e+00	0	24	0	1714421760	54	4260
2026-01-09 04:10:04.29	352.61	40.28	-44.3	-45.3	15.6	0.00e+00	0	24	0	1737490432	54	4138
2026-01-09 04:10:08.29	351.10	40.92	-44.7	-45.8	15.6	0.00e+00	0	24	0	1759510528	54	4348
2026-01-09 04:10:12.27	349.53	41.54	-44.2	-45.2	15.6	0.00e+00	0	24	0	1782579200	54	4076
2026-01-09 04:10:16.26	347.90	42.16	-44.4	-45.4	15.6	0.00e+00	0	24	0	1804599296	54	4168
2026-01-09 04:10:20.24	346.21	42.75	-44.6	-45.7	15.6	0.00e+00	0	24	0	1826619392	54	4300
2026-01-09 04:10:24.22	344.46	43.32	-44.6	-45.6	15.6	0.00e+00	0	24	0	1849688064	54	4282
2026-01-09 04:10:28.21	342.64	43.87	-44.6	-45.7	15.6	0.00e+00	0	24	0	1871708160	54	4306
2026-01-09 04:10:32.21	340.75	44.40	-44.7	-45.8	15.5	0.00e+00	0	24	0	1894776832	54	4345
2026-01-09 04:10:36.19	338.81	44.90	-44.7	-45.8	15.6	0.00e+00	0	24	0	1916796928	54	4351
2026-01-09 04:10:40.18	336.80	45.36	-44.6	-45.6	15.6	0.00e+00	0	24	0	1938817024	54	4289
2026-01-09 04:10:44.19	334.73	45.79	-44.7	-45.7	15.6	0.00e+00	0	24	0	1961885696	54	4330
2026-01-09 04:10:48.19	332.61	46.18	-44.9	-45.9	15.6	0.00e+00	0	24	0	1983905792	55	4180
2026-01-09 04:10:52.18	330.44	46.53	-44.8	-45.9	15.6	0.00e+00	0	24	0	2006974464	55	4172
2026-01-09 04:10:56.17	328.22	46.84	-45.1	-46.1	15.5	0.00e+00	0	24	0	2028994560	55	4283
2026-01-09 04:11:00.16	325.97	47.10	-45.3	-46.3	15.5	0.00e+00	0	24	0	2052063232	55	4389
2026-01-09 04:11:04.16	323.67	47.31	-44.8	-45.9	15.6	0.00e+00	0	24	0	2074083328	55	4148
2026-01-09 04:11:08.14	321.36	47.47	-45.0	-46.1	15.6	0.00e+00	0	24	0	2096103424	55	4268
2026-01-09 04:11:12.11	319.03	47.58	-45.1	-46.2	15.5	0.00e+00	0	24	0	2119172096	55	4305
2026-01-09 04:11:16.10	316.68	47.64	-44.8	-45.9	15.6	0.00e+00	0	24	0	2141192192	55	4164
2026-01-09 04:11:20.09	314.32	47.65	-44.6	-45.7	15.6	0.00e+00	0	24	0	2163212288	55	4064
2026-01-09 04:11:24.07	311.97	47.60	-45.1	-46.1	15.5	0.00e+00	0	24	0	2186280960	55	4283
2026-01-09 04:11:28.06	309.63	47.50	-45.0	-46.0	15.6	0.00e+00	0	24	0	2208301056	55	4230
2026-01-09 04:11:32.05	307.30	47.35	-44.8	-45.8	15.6	0.00e+00	0	24	0	2231369728	55	4115
2026-01-09 04:11:36.04	305.00	47.15	-45.1	-46.2	15.5	0.00e+00	0	24	0	2253389824	55	4292
2026-01-09 04:11:40.04	302.73	46.90	-45.0	-46.0	15.6	0.00e+00	0	24	0	2275409920	55	4234
2026-01-09 04:11:44.03	300.51	46.60	-44.7	-45.8	15.6	0.00e+00	0	24	0	2298478592	55	4102
2026-01-09 04:11:48.02	298.32	46.26	-44.7	-45.7	15.6	0.00e+00	0	24	0	2320498688	55	4090
2026-01-09 04:11:52.01	296.19	45.88	-44.6	-45.7	15.6	0.00e+00	0	24	0	2343567360	55	4059
2026-01-09 04:11:56.02	294.10	45.45	-44.7	-45.7	15.7	0.00e+00	0	24	0	2365587456	55	4087
2026-01-09 04:12:00.02	292.08	45.00	-44.6	-45.6	15.6	0.00e+00	0	24	0	2388656128	55	4043
2026-01-09 04:12:04.02	290.11	44.50	-44.5	-45.6	15.7	0.00e+00	0	24	0	2410676224	55	4019
2026-01-09 04:12:08.01	288.21	43.98	-44.3	-45.3	15.7	0.00e+00	0	24	0	2433744896	55	3900
2026-01-09 04:12:12.00	286.38	43.44	-44.4	-45.4	15.7	0.00e+00	0	24	0	2455764992	55	3940
2026-01-09 04:12:15.99	284.60	42.86	-44.3	-45.4	15.7	0.00e+00	0	24	0	2477785088	55	3916
2026-01-09 04:12:19.98	282.90	42.27	-44.1	-45.2	15.7	0.00e+00	0	24	0	2500853760	54	4058
2026-01-09 04:12:23.97	281.25	41.66	-44.4	-45.5	15.6	0.00e+00	0	24	0	2522873856	54	4213
2026-01-09 04:12:27.95	279.67	41.04	-44.3	-45.3	15.6	0.00e+00	0	24	0	2545942528	54	4127
2026-01-09 04:12:31.94	278.14	40.40	-44.6	-45.6	15.6	0.00e+00	0	24	0	2567962624	54	4271
2026-01-09 04:12:35.92	276.68	39.75	-44.9	-46.0	15.5	0.00e+00	0	24	0	2589982720	54	4442
2026-01-09 04:12:39.92	275.27	39.09	-44.4	-45.5	15.6	0.00e+00	0	24	0	2613051392	54	4211
2026-01-09 04:12:43.93	273.92	38.43	-44.4	-45.4	15.6	0.00e+00	0	24	0	2635071488	54	4188
2026-01-09 04:12:47.92	272.62	37.76	-44.2	-45.2	15.6	0.00e+00	0	24	0	2658140160	54	4074
2026-01-09 04:12:51.92	271.38	37.08	-44.1	-45.2	15.7	0.00e+00	0	24	0	2680160256	54	4055
2026-01-09 04:12:55.92	270.18	36.41	-44.2	-45.3	15.6	0.00e+00	0	24	0	2703228928	54	4099
2026-01-09 04:12:59.91	269.04	35.74	-43.9	-44.9	15.7	0.00e+00	0	24	0	2725249024	54	3940
2026-01-09 04:13:03.90	267.94	35.07	-44.1	-45.1	15.6	0.00e+00	0	24	0	2748317696	54	4038
2026-01-09 04:13:07.90	266.89	34.40	-44.3	-45.3	15.6	0.00e+00	0	24	0	2770337792	54	4133
2026-01-09 04:13:11.91	265.87	33.73	-44.2	-45.3	15.6	0.00e+00	0	24	0	2792357888	54	4113
2026-01-09 04:13:15.90	264.90	33.07	-44.3	-45.3	15.6	0.00e+00	0	24	0	2815426560	54	4131
2026-01-09 04:13:19.90	263.97	32.41	-44.3	-45.4	15.6	0.00e+00	0	24	0	2837446656	54	4161
2026-01-09 04:13:23.89	263.08	31.77	-44.4	-45.4	15.6	0.00e+00	0	24	0	2860515328	54	4179
2026-01-09 04:13:27.89	262.22	31.12	-44.5	-45.5	15.6	0.00e+00	0	24	0	2882535424	54	4226
2026-01-09 04:13:31.88	261.39	30.49	-44.5	-45.5	15.6	0.00e+00	0	24	0	2904555520	54	4222
2026-01-09 04:13:35.89	260.60	29.86	-44.3	-45.4	15.6	0.00e+00	0	24	0	2927624192	54	4168
2026-01-09 04:13:39.88	259.84	29.24	-44.6	-45.6	15.6	0.00e+00	0	24	0	2949644288	54	4281
2026-01-09 04:13:43.86	259.11	28.62	-44.9	-46.0	15.5	0.00e+00	0	24	0	2972712960	55	4212
2026-01-09 04:13:47.87	258.40	28.02	-44.8	-45.9	15.5	0.00e+00	0	24	0	2994733056	55	4159
2026-01-09 04:13:51.86	257.72	27.42	-44.7	-45.8	15.6	0.00e+00	0	24	0	3017801728	55	4113
2026-01-09 04:13:55.86	257.06	26.83	-44.8	-45.8	15.6	0.00e+00	0	24	0	3039821824	55	4144
2026-01-09 04:13:59.86	256.43	26.25	-45.1	-46.1	15.5	0.00e+00	0	24	0	3062890496	55	4284
2026-01-09 04:14:03.85	255.83	25.68	-44.8	-45.9	15.5	0.00e+00	0	24	0	3084910592	55	4171
2026-01-09 04:14:07.84	255.24	25.12	-44.6	-45.7	15.6	0.00e+00	0	24	0	3106930688	55	4079
2026-01-09 04:14:11.84	254.68	24.56	-44.6	-45.7	15.6	0.00e+00	0	24	0	3129999360	55	4069
2026-01-09 04:14:15.85	254.13	24.02	-44.8	-45.9	15.5	0.00e+00	0	24	0	3152019456	55	4162
2026-01-09 04:14:19.84	253.60	23.48	-44.8	-45.9	15.5	0.00e+00	0	24	0	3175088128	55	4153
2026-01-09 04:14:23.84	253.09	22.95	-44.9	-46.0	15.5	0.00e+00	0	24	0	3197108224	55	4198
2026-01-09 04:14:27.82	252.60	22.43	-45.1	-46.2	15.5	0.00e+00	0	24	0	3220176896	55	4317
2026-01-09 04:14:31.83	252.13	21.92	-45.1	-46.2	15.5	0.00e+00	0	24	0	3242196992	55	4330
2026-01-09 04:14:35.81	251.67	21.42	-45.1	-46.2	15.5	0.00e+00	0	24	0	3265265664	55	4311
2026-01-09 04:14:39.81	251.23	20.92	-45.3	-46.4	15.4	0.00e+00	0	24	0	3287285760	55	4412
2026-01-09 04:14:43.83	250.79	20.43	-45.6	-46.7	15.4	0.00e+00	0	24	0	3309305856	56	4299
2026-01-09 04:14:47.84	250.38	19.95	-45.6	-46.7	15.4	0.00e+00	0	24	0	3332374528	56	4325
2026-01-09 04:14:51.84	249.97	19.47	-45.6	-46.7	15.4	0.00e+00	0	24	0	3354394624	56	4312
2026-01-09 04:14:55.83	249.58	19.01	-45.8	-47.0	15.4	0.00e+00	0	24	0	3377463296	56	4456
2026-01-09 04:14:59.85	249.20	18.54	-46.0	-47.2	15.4	0.00e+00	0	24	0	3400531968	57	4296
2026-01-09 04:15:03.85	248.84	18.09	-46.2	-47.4	15.4	0.00e+00	0	24	0	3422552064	57	4425
2026-01-09 04:15:07.85	248.48	17.65	-46.4	-47.5	15.3	0.00e+00	0	24	0	3444572160	57	4480
2026-01-09 04:15:11.84	248.13	17.21	-46.5	-47.7	15.3	0.00e+00	0	24	0	3467640832	58	4300
2026-01-09 04:15:15.83	247.80	16.78	-46.6	-47.8	15.3	0.00e+00	0	24	0	3489660928	58	4372
2026-01-09 04:15:19.82	247.47	16.36	-46.5	-47.7	15.3	0.00e+00	0	24	0	3512729600	58	4302
2026-01-09 04:15:23.83	247.16	15.94	-46.5	-47.6	15.3	0.00e+00	0	24	0	3534749696	58	4267
2026-01-09 04:15:27.81	246.85	15.53	-46.6	-47.8	15.3	0.00e+00	0	24	0	3556769792	58	4354
2026-01-09 04:15:31.80	246.55	15.12	-46.8	-48.0	15.2	0.00e+00	0	24	0	3579838464	58	4475
2026-01-09 04:15:35.78	246.26	14.72	-47.0	-48.2	15.2	0.00e+00	0	24	0	3601858560	59	4329
2026-01-09 04:15:39.79	245.98	14.33	-47.0	-48.2	15.2	0.00e+00	0	24	0	3624927232	59	4307
2026-01-09 04:15:43.79	245.71	13.94	-47.0	-48.2	15.2	0.00e+00	0	24	0	3646947328	59	4320
2026-01-09 04:15:47.79	245.44	13.55	-47.2	-48.4	15.2	0.00e+00	0	24	0	3668967424	59	4417
2026-01-09 04:15:51.78	245.18	13.17	-47.0	-48.2	15.3	0.00e+00	0	24	0	3692036096	60	4059
2026-01-09 04:15:55.77	244.93	12.80	-47.3	-48.5	15.2	0.00e+00	0	24	0	3714056192	60	4218
2026-01-09 04:15:59.76	244.68	12.43	-47.3	-48.6	15.1	0.00e+00	0	24	0	3737124864	60	4250
2026-01-09 04:16:03.75	244.44	12.07	-47.4	-48.7	15.1	0.00e+00	0	24	0	3759144960	60	4303
2026-01-09 04:16:07.75	244.21	11.71	-47.4	-48.6	15.1	0.00e+00	0	24	0	3782213632	60	4257
2026-01-09 04:16:11.73	243.98	11.36	-47.4	-48.6	15.1	0.00e+00	0	24	0	3804233728	60	4245
2026-01-09 04:16:15.73	243.76	11.01	-47.6	-48.8	15.0	0.00e+00	0	24	0	3826253824	60	4363
2026-01-09 04:16:19.74	243.54	10.67	-47.3	-48.5	15.1	0.00e+00	0	24	0	3849322496	60	4221
2026-01-09 04:16:23.73	243.33	10.33	-47.4	-48.6	15.1	0.00e+00	0	24	0	3871342592	60	4250
2026-01-09 04:16:27.72	243.12	9.99	-47.4	-48.7	15.1	0.00e+00	0	24	0	3894411264	60	4307
2026-01-09 04:16:31.69	242.92	9.66	-47.5	-48.7	15.1	0.00e+00	0	24	0	3916431360	60	4312
2026-01-09 04:16:35.66	242.72	9.34	-47.6	-48.9	15.0	0.00e+00	0	24	0	3938451456	60	4413
2026-01-09 04:16:39.64	242.53	9.01	-47.9	-49.2	14.8	0.00e+00	0	24	0	3961520128	60	4549
2026-01-09 04:16:43.64	242.34	8.69	-47.8	-49.1	15.0	0.00e+00	0	24	0	3983540224	61	4249
2026-01-09 04:16:47.63	242.16	8.38	-48.0	-49.3	14.9	0.00e+00	0	24	0	4006608896	61	4389
2026-01-09 04:16:51.62	241.98	8.07	-48.0	-49.3	14.9	0.00e+00	0	24	0	4028628992	61	4378
2026-01-09 04:16:55.62	241.81	7.76	-48.2	-49.5	14.8	0.00e+00	0	24	0	4050649088	61	4483
2026-01-09 04:16:59.62	241.63	7.45	-48.4	-49.7	14.7	0.00e+00	0	24	0	4073717760	61	4579
2026-01-09 04:17:03.61	241.47	7.15	-48.4	-49.8	14.8	0.00e+00	0	24	0	4095737856	62	4346
2026-01-09 04:17:07.59	241.30	6.85	-48.5	-49.9	14.7	0.00e+00	0	24	0	4118806528	62	4399
2026-01-09 04:17:11.59	241.14	6.55	-48.6	-50.0	14.6	0.00e+00	0	24	0	4140826624	62	4475
2026-01-09 04:17:15.60	240.99	6.26	-48.7	-50.1	14.6	0.00e+00	0	24	0	4163895296	62	4514
2026-01-09 04:17:19.60	240.83	5.97	-48.7	-50.1	14.6	0.00e+00	0	24	0	4185915392	62	4506
2026-01-09 04:17:23.59	240.68	5.68	-48.7	-50.1	14.5	0.00e+00	0	24	0	4207935488	62	4516
2026-01-09 04:17:27.58	240.53	5.40	-48.8	-50.2	14.6	0.00e+00	0	24	0	4231004160	63	4330
2026-01-09 04:17:31.57	240.39	5.12	-49.1	-50.5	14.4	0.00e+00	0	24	0	4253024256	63	4483
2026-01-09 04:17:35.56	240.25	4.84	-58.6	-71.6	3.8	8.45e-01	0	24	104	4265607168	82	17006
2026-01-09 04:17:39.55	240.11	4.57	-59.2	-72.2	3.8	8.46e-01	0	24	104	4265607168	83	17271
2026-01-09 04:17:43.53	239.98	4.30	-59.4	-72.5	3.8	8.46e-01	0	24	104	4265607168	83	17753
2026-01-09 04:17:47.52	239.84	4.03	-59.7	-72.8	3.8	8.45e-01	0	24	104	4265607168	84	17343
2026-01-09 04:17:51.54	239.71	3.76	-59.7	-72.8	3.8	8.46e-01	0	24	104	4265607168	84	17424
2026-01-09 04:17:55.54	239.59	3.49	-59.9	-73.0	3.8	8.46e-01	0	24	104	4265607168	84	17685
2026-01-09 04:17:59.55	239.46	3.23	-59.8	-72.9	3.8	8.46e-01	0	24	104	4265607168	84	17484
2026-01-09 04:18:03.55	239.34	2.97	-59.7	-72.8	3.8	8.45e-01	0	24	104	4265607168	84	17449
2026-01-09 04:18:07.56	239.22	2.71	-59.7	-72.8	3.8	8.47e-01	0	24	104	4265607168	84	17325
2026-01-09 04:18:11.55	239.10	2.45	-59.7	-72.7	3.8	8.45e-01	0	24	104	4265607168	84	17274
2026-01-09 04:18:15.55	238.98	2.20	-59.7	-72.7	3.8	8.44e-01	0	24	104	4265607168	84	17192
2026-01-09 04:18:19.56	238.87	1.94	-59.6	-72.7	3.8	8.46e-01	0	24	104	4265607168	84	17126

#Closed at: 2026-01-09 04:18:19
#Recorded file [4265 MB]: D:/lorett/data/31004_260109_070416.dat