passes_logs/2025/01/11/X_MFTI_01/X_MFTI_01__20250111_235318_NOAA_20_rec.log

#Pass ID: 20250111_235318_NOAA 20
#Satellite: NOAA 20
#Configuration: NOAA 20
#Start time: 2025-01-11 23:53:15

#Version: 1.5.20200625
#Station: X_MFTI_01
#Location: 37.5186 lon 55.9291 lat
#TLE: 1 43013U 17073A   23362.44808611  .00000160  00000+0  96626-4 0  9996
#TLE: 2 43013  98.7331 297.9536 0000783  57.5916 302.5335 14.19555620316533

#Time	Az	El	Level	Level2	SNR	BER	Gain	Gain2
2025-01-11 23:53:15.36	0.83	68.59	-71.5	-95.5	3.8	14940818	99	56941
2025-01-11 23:53:15.78	0.66	68.78	-71.6	-95.6	3.8	14914840	99	56808
2025-01-11 23:53:16.20	0.48	68.96	-71.6	-95.6	3.8	14900093	99	56751
2025-01-11 23:53:16.61	0.31	69.14	-71.6	-95.6	3.8	14916725	99	56745
2025-01-11 23:53:17.03	0.12	69.32	-71.6	-95.5	3.8	14916412	99	56584
2025-01-11 23:53:17.45	359.94	69.51	-71.6	-95.5	3.9	14916946	99	56463
2025-01-11 23:53:17.86	359.75	69.69	-71.6	-95.5	3.8	14904197	99	56511
2025-01-11 23:53:18.28	359.56	69.87	-71.6	-95.6	3.8	14906150	99	56581
2025-01-11 23:53:18.70	359.36	70.06	-71.6	-95.5	3.8	14905693	99	56547
2025-01-11 23:53:19.12	359.15	70.24	-71.6	-95.5	3.9	14899688	99	56361
2025-01-11 23:53:19.53	358.95	70.42	-71.6	-95.5	3.8	14908012	99	56228
2025-01-11 23:53:19.95	358.74	70.61	-71.5	-95.5	3.8	14905860	99	56733
2025-01-11 23:53:20.36	358.53	70.79	-71.6	-95.5	3.8	14916717	99	56638
2025-01-11 23:53:20.78	358.31	70.97	-71.6	-95.6	3.8	14903823	99	56711
2025-01-11 23:53:21.20	358.09	71.16	-71.6	-95.5	3.8	14903823	99	56833
2025-01-11 23:53:21.61	357.87	71.34	-71.6	-95.5	3.8	14914688	99	56587
2025-01-11 23:53:22.03	357.63	71.52	-71.6	-95.5	3.8	14914688	99	56487
2025-01-11 23:53:22.45	357.40	71.71	-71.6	-95.5	3.9	14909385	99	56463
2025-01-11 23:53:22.86	357.16	71.89	-71.6	-95.5	3.8	14898727	99	56695
2025-01-11 23:53:23.28	356.91	72.07	-71.6	-95.5	3.8	14908836	99	56520
2025-01-11 23:53:23.70	356.66	72.26	-71.6	-95.6	3.8	14912071	99	56635
2025-01-11 23:53:24.12	356.40	72.44	-71.6	-95.5	3.9	14905303	99	56241
2025-01-11 23:53:24.53	356.14	72.62	-71.6	-95.6	3.8	14903778	99	56954
2025-01-11 23:53:24.95	355.86	72.81	-71.6	-95.5	3.8	14920944	99	56740
2025-01-11 23:53:25.37	355.59	72.99	-71.6	-95.6	3.8	14912017	99	56808
2025-01-11 23:53:25.78	355.31	73.17	-71.6	-95.6	3.8	14897346	99	56810
2025-01-11 23:53:26.20	355.02	73.36	-71.6	-95.5	3.8	14906753	99	56911
2025-01-11 23:53:26.62	354.72	73.54	-71.6	-95.6	3.8	14904716	99	56813
2025-01-11 23:53:27.04	354.42	73.72	-71.6	-95.4	3.9	14913543	99	56160
2025-01-11 23:53:27.45	354.11	73.90	-71.6	-95.5	3.8	14911827	99	56325
2025-01-11 23:53:27.87	353.79	74.09	-71.6	-95.6	3.8	14900001	99	56782
2025-01-11 23:53:28.29	353.46	74.27	-71.7	-95.7	3.8	14924171	99	57155
2025-01-11 23:53:28.71	353.13	74.46	-71.6	-95.6	3.8	14905876	99	57131
2025-01-11 23:53:29.12	352.79	74.63	-71.7	-95.6	3.8	14905929	99	56481
2025-01-11 23:53:29.54	352.44	74.82	-71.6	-95.5	3.8	14900985	99	56731
2025-01-11 23:53:29.96	352.08	75.00	-71.6	-95.5	3.8	14913421	99	56564
2025-01-11 23:53:30.38	351.71	75.18	-71.5	-95.5	3.8	14901222	99	56619
2025-01-11 23:53:30.79	351.34	75.36	-71.6	-95.5	3.8	14901222	99	56719
2025-01-11 23:53:31.21	350.95	75.54	-71.5	-95.5	3.8	14915069	99	56758
2025-01-11 23:53:31.63	350.55	75.72	-71.6	-95.5	3.8	14903388	99	56669
2025-01-11 23:53:32.05	350.14	75.90	-71.6	-95.5	3.8	14900779	99	56621
2025-01-11 23:53:32.46	349.72	76.08	-71.6	-95.5	3.8	14898139	99	56690
2025-01-11 23:53:32.88	349.29	76.26	-71.5	-95.5	3.8	14907318	99	56659
2025-01-11 23:53:33.30	348.85	76.44	-71.6	-95.5	3.9	14911811	99	56310
2025-01-11 23:53:33.72	348.39	76.62	-71.6	-95.5	3.8	14900817	99	56705
2025-01-11 23:53:34.13	347.93	76.79	-71.6	-95.5	3.8	14912322	99	56644
2025-01-11 23:53:34.55	347.45	76.97	-71.6	-95.5	3.8	14911064	99	56724
2025-01-11 23:53:34.97	346.95	77.14	-71.6	-95.6	3.9	14907653	99	56600
2025-01-11 23:53:35.38	346.45	77.32	-71.6	-95.5	3.9	14902084	99	56474
2025-01-11 23:53:35.80	345.92	77.49	-71.5	-95.5	3.8	14910621	99	56770
2025-01-11 23:53:36.22	345.38	77.67	-71.6	-95.5	3.8	14920440	99	56781
2025-01-11 23:53:36.63	344.84	77.83	-71.6	-95.6	3.8	14905181	99	56797
2025-01-11 23:53:37.05	344.27	78.01	-71.6	-95.5	3.8	14908096	99	56852
2025-01-11 23:53:37.46	343.69	78.17	-71.6	-95.5	3.8	14913192	99	56824
2025-01-11 23:53:37.88	343.08	78.34	-71.6	-95.6	3.8	14918975	99	56705
2025-01-11 23:53:38.30	342.46	78.51	-71.6	-95.5	3.9	14901779	99	56544
2025-01-11 23:53:38.72	341.81	78.68	-71.6	-95.6	3.8	14903015	99	56762
2025-01-11 23:53:39.13	341.16	78.84	-71.6	-95.5	3.8	14907577	99	56817
2025-01-11 23:53:39.55	340.48	79.01	-71.7	-95.7	3.8	14907577	99	57441
2025-01-11 23:53:39.97	339.77	79.17	-71.6	-95.6	3.9	14906150	99	56992
2025-01-11 23:53:40.38	339.06	79.33	-71.5	-95.3	3.8	14906150	99	55880
2025-01-11 23:53:40.80	338.31	79.49	-71.6	-95.6	3.8	14900314	99	57067
2025-01-11 23:53:41.22	337.54	79.65	-71.6	-95.6	3.9	14905975	99	57174
2025-01-11 23:53:41.64	336.74	79.81	-71.6	-95.6	3.8	14904739	99	56898
2025-01-11 23:53:42.05	335.93	79.96	-71.6	-95.6	3.8	14905815	99	56835
2025-01-11 23:53:42.47	335.08	80.11	-71.6	-95.6	3.8	14901741	99	56791
2025-01-11 23:53:42.89	334.21	80.26	-71.7	-95.7	3.8	14916183	99	57337
2025-01-11 23:53:43.30	333.33	80.41	-71.6	-95.7	3.8	14920684	99	57446
2025-01-11 23:53:43.72	332.39	80.56	-71.6	-95.6	3.8	14902946	99	57350
2025-01-11 23:53:44.14	331.43	80.70	-71.6	-95.7	3.8	14917617	99	57381
2025-01-11 23:53:44.55	330.46	80.84	-71.6	-95.7	3.8	14909347	99	57401
2025-01-11 23:53:44.97	329.44	80.98	-71.7	-95.6	3.8	14892799	99	56837
2025-01-11 23:53:45.39	328.38	81.11	-71.6	-95.6	3.8	14901351	99	56972
2025-01-11 23:53:45.81	327.29	81.25	-71.6	-95.7	3.8	14915016	99	57470
2025-01-11 23:53:46.22	326.20	81.37	-71.6	-95.6	3.8	14912284	99	57038
2025-01-11 23:53:46.64	325.04	81.50	-73.4	-97.3	3.8	14900238	99	56608
2025-01-11 23:53:47.06	323.85	81.63	-71.6	-95.7	3.8	14917808	99	57421
2025-01-11 23:53:47.48	322.62	81.74	-71.7	-95.7	3.8	14910835	99	57412
2025-01-11 23:53:47.89	321.39	81.86	-71.6	-95.7	3.8	14908004	99	57404
2025-01-11 23:53:48.31	320.09	81.97	-71.6	-95.7	3.8	14903831	99	57311
2025-01-11 23:53:48.72	318.79	82.08	-71.6	-95.6	3.8	14910308	99	57335
2025-01-11 23:53:49.14	317.41	82.18	-71.6	-95.7	3.9	14910308	99	57309
2025-01-11 23:53:49.56	316.01	82.28	-71.6	-95.5	3.8	14911384	99	56422
2025-01-11 23:53:49.97	314.60	82.37	-71.6	-95.6	3.8	14915748	99	56839
2025-01-11 23:53:50.39	313.12	82.46	-71.6	-95.6	3.8	14914886	99	56934
2025-01-11 23:53:50.81	311.61	82.55	-71.6	-95.6	3.8	14909820	99	56897
2025-01-11 23:53:51.23	310.06	82.62	-71.6	-95.5	3.8	14909034	99	56432
2025-01-11 23:53:51.64	308.52	82.70	-71.6	-95.5	3.8	14895675	99	56819
2025-01-11 23:53:52.06	306.91	82.77	-71.6	-95.5	3.8	14901298	99	56890
2025-01-11 23:53:52.48	305.26	82.83	-71.6	-95.6	3.8	14905738	99	56872
2025-01-11 23:53:52.89	303.64	82.88	-71.6	-95.6	3.8	14906318	99	56697
2025-01-11 23:53:53.31	301.94	82.93	-71.6	-95.5	3.8	14905044	99	56792
2025-01-11 23:53:53.73	300.23	82.98	-71.6	-95.5	3.8	14925071	99	56548
2025-01-11 23:53:54.14	298.53	83.02	-71.6	-95.5	3.8	14906280	99	56777
2025-01-11 23:53:54.56	296.77	83.05	-71.5	-95.4	3.8	14905967	99	56216
2025-01-11 23:53:54.98	295.00	83.07	-71.5	-95.5	3.8	14896675	99	56797
2025-01-11 23:53:55.40	293.22	83.09	-71.6	-95.6	3.8	14914321	99	56827
2025-01-11 23:53:55.82	291.43	83.11	-71.6	-95.6	3.9	14901359	99	57074
2025-01-11 23:53:56.23	289.68	83.11	-71.6	-95.6	3.8	14912506	99	57403
2025-01-11 23:53:56.65	287.89	83.11	-71.6	-95.6	3.8	14904457	99	57410
2025-01-11 23:53:57.06	286.14	83.10	-71.6	-95.7	3.8	14905342	99	57493
2025-01-11 23:53:57.48	284.35	83.09	-71.6	-95.6	3.8	14904487	99	57332
2025-01-11 23:53:57.90	282.57	83.07	-71.6	-95.6	3.8	14904487	99	57373
2025-01-11 23:53:58.32	280.80	83.04	-71.6	-95.6	3.8	14905578	99	57395
2025-01-11 23:53:58.73	279.10	83.01	-71.6	-95.7	3.9	14905578	99	57219
2025-01-11 23:53:59.15	277.36	82.97	-71.6	-95.6	3.8	14909767	99	57030
2025-01-11 23:53:59.57	275.65	82.92	-71.6	-95.6	3.8	14908805	99	57472
2025-01-11 23:53:59.98	274.01	82.87	-71.6	-95.6	3.8	14903259	99	57383
2025-01-11 23:54:00.40	272.35	82.81	-71.6	-95.7	3.8	14912178	99	57456
2025-01-11 23:54:00.82	270.71	82.75	-71.5	-95.4	3.8	14907646	99	56183
2025-01-11 23:54:01.23	269.15	82.68	-71.5	-95.5	3.8	14904945	99	56579
2025-01-11 23:54:01.64	267.61	82.60	-71.6	-95.5	3.8	14916831	99	56620
2025-01-11 23:54:02.06	266.08	82.52	-71.6	-95.5	3.9	14911994	99	56349
2025-01-11 23:54:02.48	264.57	82.44	-71.4	-95.3	3.8	14900901	99	56074
2025-01-11 23:54:02.90	263.10	82.34	-71.6	-95.5	3.8	14904975	99	56621
2025-01-11 23:54:03.31	261.70	82.25	-71.5	-95.5	3.8	14909683	99	56640
2025-01-11 23:54:03.73	260.31	82.15	-71.6	-95.5	3.8	14907752	99	56710
2025-01-11 23:54:04.14	258.98	82.05	-71.5	-95.5	3.8	14898963	99	56611
2025-01-11 23:54:04.56	257.65	81.94	-71.5	-95.5	3.8	14911827	99	56751
2025-01-11 23:54:04.98	256.36	81.83	-71.5	-95.4	3.9	14917236	99	56500
2025-01-11 23:54:05.40	255.11	81.71	-71.6	-95.4	3.9	14900970	99	56266
2025-01-11 23:54:05.81	253.92	81.59	-71.6	-95.6	3.8	14894569	99	57284
2025-01-11 23:54:06.23	252.74	81.47	-71.6	-95.6	3.8	14907089	99	57411
2025-01-11 23:54:06.65	251.59	81.34	-71.6	-95.6	3.9	14908508	99	57199
2025-01-11 23:54:07.07	250.48	81.21	-71.6	-95.6	3.8	14906318	99	57254
2025-01-11 23:54:07.48	249.42	81.08	-71.6	-95.7	3.8	14906318	99	57465
2025-01-11 23:54:07.90	248.38	80.94	-71.6	-95.7	3.8	14911033	99	57368
2025-01-11 23:54:08.32	247.36	80.80	-71.7	-95.7	3.9	14918853	99	57217
2025-01-11 23:54:08.74	246.38	80.66	-71.6	-95.6	3.8	14894836	99	56846
2025-01-11 23:54:09.15	245.45	80.51	-71.6	-95.5	3.8	14904586	99	56779
2025-01-11 23:54:09.57	244.52	80.37	-71.6	-95.7	3.8	14915130	99	57477
2025-01-11 23:54:09.99	243.62	80.22	-71.6	-95.7	3.8	14905097	99	57531
2025-01-11 23:54:10.40	242.78	80.07	-71.6	-95.7	3.8	14904556	99	57407
2025-01-11 23:54:10.82	241.93	79.91	-71.5	-95.5	3.8	14904937	99	56710
2025-01-11 23:54:11.24	241.12	79.76	-71.6	-95.5	3.8	14911140	99	56430
2025-01-11 23:54:11.66	240.32	79.60	-71.6	-95.5	3.9	14910163	99	56533
2025-01-11 23:54:12.07	239.58	79.44	-71.5	-95.6	3.8	14911460	99	57125
2025-01-11 23:54:12.49	238.83	79.28	-71.6	-95.6	3.8	14915870	99	57144
2025-01-11 23:54:12.91	238.11	79.12	-71.6	-95.6	3.8	14907691	99	57182
2025-01-11 23:54:13.32	237.43	78.96	-71.7	-95.6	3.9	14907531	99	56873
2025-01-11 23:54:13.74	236.75	78.79	-71.5	-95.6	3.8	14908683	99	57265
2025-01-11 23:54:14.16	236.09	78.63	-71.6	-95.6	3.8	14908439	99	57265
2025-01-11 23:54:14.58	235.45	78.46	-71.5	-95.5	3.8	14905189	99	57197
2025-01-11 23:54:14.99	234.84	78.29	-71.6	-95.7	3.8	14911804	99	57400
2025-01-11 23:54:15.41	234.24	78.12	-71.6	-95.6	3.8	14905456	99	57097
2025-01-11 23:54:15.83	233.65	77.95	-71.6	-95.6	3.8	14904090	99	57163
2025-01-11 23:54:16.25	233.09	77.78	-71.6	-95.6	3.9	14904090	99	56911
2025-01-11 23:54:16.66	232.55	77.61	-71.6	-95.7	3.8	14909111	99	57355
2025-01-11 23:54:17.08	232.01	77.43	-71.6	-95.6	3.8	14909111	99	57230
2025-01-11 23:54:17.50	231.49	77.26	-71.6	-95.7	3.8	14903228	99	57398
2025-01-11 23:54:17.92	230.98	77.08	-71.6	-95.5	3.9	14926681	99	56559
2025-01-11 23:54:18.33	230.50	76.91	-71.6	-95.5	3.8	14897796	99	56370
2025-01-11 23:54:18.75	230.02	76.73	-71.6	-95.5	3.8	14911560	99	56844
2025-01-11 23:54:19.16	229.57	76.56	-71.6	-95.5	3.8	14921157	99	56806
2025-01-11 23:54:19.58	229.11	76.38	-71.5	-95.5	3.8	14908569	99	56849
2025-01-11 23:54:20.00	228.67	76.20	-71.6	-95.5	3.8	14901748	99	56625
2025-01-11 23:54:20.42	228.24	76.02	-71.6	-95.5	3.8	14899009	99	56552
2025-01-11 23:54:20.83	227.83	75.84	-71.6	-95.5	3.9	14921989	99	56644
2025-01-11 23:54:21.25	227.42	75.66	-71.6	-95.5	3.9	14910369	99	56299
2025-01-11 23:54:21.67	227.03	75.48	-71.5	-95.5	3.8	14903343	99	56798
2025-01-11 23:54:22.09	226.64	75.30	-71.5	-95.4	3.9	14908210	99	56498
2025-01-11 23:54:22.50	226.27	75.12	-71.6	-95.5	3.8	14917320	99	56456
2025-01-11 23:54:22.92	225.90	74.94	-71.6	-95.5	3.8	14907661	99	56327
2025-01-11 23:54:23.34	225.54	74.75	-71.5	-95.4	3.8	14894470	99	56210
2025-01-11 23:54:23.75	225.20	74.57	-71.5	-95.5	3.8	14916603	99	56774
2025-01-11 23:54:24.17	224.86	74.39	-71.6	-95.6	3.9	14906249	99	57222
2025-01-11 23:54:24.59	224.53	74.21	-71.6	-95.6	3.8	14915618	99	57125
2025-01-11 23:54:25.01	224.20	74.02	-71.5	-95.6	3.8	14904373	99	57333
2025-01-11 23:54:25.42	223.89	73.84	-71.6	-95.5	3.8	14918731	99	56725
2025-01-11 23:54:25.84	223.58	73.66	-71.6	-95.5	3.8	14918731	99	56577
2025-01-11 23:54:26.26	223.28	73.47	-71.6	-95.5	3.8	14910408	99	56454
2025-01-11 23:54:26.67	222.99	73.29	-71.5	-95.5	3.8	14906692	99	56804
2025-01-11 23:54:27.09	222.70	73.11	-71.6	-95.6	3.8	14903877	99	56896
2025-01-11 23:54:27.50	222.43	72.93	-71.5	-95.5	3.8	14911109	99	56931
2025-01-11 23:54:27.92	222.15	72.74	-71.5	-95.4	3.8	14906005	99	56319
2025-01-11 23:54:28.34	221.88	72.56	-71.6	-95.5	3.8	14907508	99	56876
2025-01-11 23:54:28.75	221.62	72.38	-71.6	-95.6	3.9	14910423	99	56658
2025-01-11 23:54:29.17	221.36	72.19	-71.6	-95.6	3.8	14906211	99	56900
2025-01-11 23:54:29.59	221.11	72.01	-71.5	-95.5	3.8	14909896	99	56817
2025-01-11 23:54:30.01	220.86	71.82	-71.5	-95.5	3.8	14904533	99	56878
2025-01-11 23:54:30.42	220.63	71.64	-71.6	-95.5	3.8	14905181	99	56587
2025-01-11 23:54:30.84	220.39	71.45	-71.6	-95.5	3.8	14908981	99	56678
2025-01-11 23:54:31.26	220.16	71.27	-71.5	-95.5	3.8	14906356	99	56721
2025-01-11 23:54:31.67	219.94	71.09	-71.4	-95.4	3.8	14913604	99	56522
2025-01-11 23:54:32.09	219.71	70.90	-71.5	-95.5	3.9	14912399	99	56516
2025-01-11 23:54:32.51	219.50	70.72	-71.5	-95.4	3.8	14902687	99	56455
2025-01-11 23:54:32.92	219.29	70.54	-71.5	-95.5	3.8	14907150	99	56672
2025-01-11 23:54:33.34	219.08	70.35	-71.5	-95.5	3.8	14908790	99	56773

#Closed at: 2025-01-11 23:54:33