passes_logs/2025/01/11/X_MFTI_01/X_MFTI_01__20250111_100246_NOAA_20_rec.log

#Pass ID: 20250111_100246_NOAA 20
#Satellite: NOAA 20
#Configuration: NOAA 20
#Start time: 2025-01-11 10:02:42

#Version: 1.5.20200625
#Station: X_MFTI_01
#Location: 37.5186 lon 55.9291 lat
#TLE: 1 43013U 17073A   23362.44808611  .00000160  00000+0  96626-4 0  9996
#TLE: 2 43013  98.7331 297.9536 0000783  57.5916 302.5335 14.19555620316533

#Time	Az	El	Level	Level2	SNR	BER	Gain	Gain2
2025-01-11 10:02:42.06	161.68	68.38	-71.5	-95.6	3.7	14944992	99	57597
2025-01-11 10:02:42.48	161.68	68.57	-71.5	-95.4	3.8	14916931	99	56773
2025-01-11 10:02:42.90	161.68	68.77	-71.4	-95.4	3.8	14903518	99	56776
2025-01-11 10:02:43.31	161.68	68.96	-71.3	-95.3	3.8	14901222	99	56654
2025-01-11 10:02:43.73	161.68	69.15	-71.4	-95.3	3.8	14905548	99	56618
2025-01-11 10:02:44.13	161.67	69.34	-71.4	-95.4	3.8	14918632	99	56877
2025-01-11 10:02:44.55	161.67	69.53	-71.4	-95.3	3.8	14903709	99	56862
2025-01-11 10:02:44.95	161.67	69.72	-71.4	-95.4	3.8	14905441	99	56817
2025-01-11 10:02:45.35	161.67	69.90	-71.4	-95.4	3.8	14917007	99	56782
2025-01-11 10:02:45.75	161.67	70.09	-71.3	-95.3	3.9	14909095	99	56734
2025-01-11 10:02:46.18	161.66	70.29	-71.4	-95.4	3.8	14906631	99	56965
2025-01-11 10:02:46.59	161.66	70.48	-71.4	-95.4	3.8	14900131	99	57058
2025-01-11 10:02:47.00	161.66	70.68	-71.4	-95.4	3.8	14900131	99	57391
2025-01-11 10:02:47.44	161.66	70.88	-71.4	-95.4	3.8	14912536	99	56930
2025-01-11 10:02:47.85	161.65	71.08	-71.4	-95.3	3.8	14912078	99	56499
2025-01-11 10:02:48.25	161.65	71.26	-71.3	-95.3	3.8	14905700	99	56830
2025-01-11 10:02:48.69	161.65	71.47	-71.4	-95.4	3.8	14914535	99	56934
2025-01-11 10:02:49.12	161.65	71.68	-71.4	-95.4	3.9	14913719	99	56555
2025-01-11 10:02:49.54	161.64	71.88	-71.4	-95.3	3.8	14911796	99	56850
2025-01-11 10:02:49.95	161.64	72.07	-71.4	-95.3	3.8	14906105	99	56742
2025-01-11 10:02:50.37	161.64	72.27	-71.4	-95.4	3.8	14922439	99	56793
2025-01-11 10:02:50.78	161.63	72.47	-71.4	-95.4	3.8	14900421	99	56924
2025-01-11 10:02:51.19	161.63	72.66	-71.4	-95.4	3.8	14903533	99	56891
2025-01-11 10:02:51.59	161.63	72.85	-71.4	-95.3	3.8	14924804	99	56864
2025-01-11 10:02:52.01	161.62	73.06	-71.4	-95.3	3.9	14912078	99	56480
2025-01-11 10:02:52.41	161.62	73.25	-71.4	-95.3	3.8	14905838	99	56533
2025-01-11 10:02:52.83	161.62	73.45	-71.4	-95.4	3.8	14907882	99	56937
2025-01-11 10:02:53.23	161.61	73.64	-71.5	-95.4	3.9	14914550	99	56872
2025-01-11 10:02:53.65	161.61	73.85	-71.4	-95.3	3.9	14913467	99	56584
2025-01-11 10:02:54.08	161.60	74.05	-71.4	-95.4	3.8	14902465	99	57011
2025-01-11 10:02:54.48	161.60	74.25	-71.4	-95.4	3.8	14915275	99	57085
2025-01-11 10:02:54.90	161.59	74.45	-71.4	-95.3	3.8	14911483	99	56777
2025-01-11 10:02:55.31	161.59	74.65	-71.4	-95.3	3.8	14911483	99	56519
2025-01-11 10:02:55.72	161.59	74.85	-71.4	-95.3	3.8	14902091	99	56612
2025-01-11 10:02:56.13	161.58	75.05	-71.3	-95.2	3.8	14910179	99	56662
2025-01-11 10:02:56.56	161.57	75.26	-71.4	-95.4	3.8	14922660	99	57022
2025-01-11 10:02:56.99	161.57	75.47	-71.4	-95.4	3.9	14903190	99	56510
2025-01-11 10:02:57.41	161.56	75.68	-71.4	-95.4	3.8	14913482	99	56976
2025-01-11 10:02:57.81	161.56	75.87	-71.4	-95.4	3.8	14916084	99	57032
2025-01-11 10:02:58.24	161.55	76.09	-71.4	-95.3	4.0	14925491	99	56705
2025-01-11 10:02:58.64	161.54	76.28	-71.4	-95.3	3.8	14907958	99	56381
2025-01-11 10:02:59.04	161.54	76.48	-71.4	-95.4	3.8	14909400	99	57021
2025-01-11 10:02:59.45	161.53	76.68	-71.4	-95.4	3.8	14907897	99	56833
2025-01-11 10:02:59.85	161.53	76.88	-71.4	-95.4	3.9	14904441	99	56725
2025-01-11 10:03:00.26	161.52	77.08	-71.5	-95.3	3.8	14910118	99	56364
2025-01-11 10:03:00.70	161.51	77.30	-71.3	-95.4	3.8	14911590	99	57356
2025-01-11 10:03:01.11	161.50	77.50	-71.4	-95.4	3.8	14905349	99	57461
2025-01-11 10:03:01.51	161.49	77.70	-71.4	-95.5	3.8	14904136	99	57553
2025-01-11 10:03:01.93	161.49	77.91	-71.3	-95.3	3.8	14902687	99	56783
2025-01-11 10:03:02.33	161.48	78.11	-71.4	-95.4	3.8	14912887	99	57172
2025-01-11 10:03:02.74	161.47	78.32	-71.4	-95.4	3.8	14912887	99	57484
2025-01-11 10:03:03.17	161.46	78.53	-71.4	-95.3	3.9	14905426	99	56921
2025-01-11 10:03:03.57	161.45	78.73	-71.3	-95.3	3.8	14905426	99	57405
2025-01-11 10:03:03.98	161.44	78.94	-71.3	-95.4	3.8	14907867	99	57522
2025-01-11 10:03:04.42	161.43	79.16	-71.5	-95.5	3.9	14919960	99	57459
2025-01-11 10:03:04.85	161.41	79.37	-71.4	-95.4	3.9	14901077	99	57206
2025-01-11 10:03:05.25	161.40	79.57	-71.4	-95.5	3.8	14908096	99	57576
2025-01-11 10:03:05.65	161.39	79.77	-71.4	-95.4	3.8	14916496	99	56998
2025-01-11 10:03:06.07	161.38	79.99	-71.4	-95.4	3.9	14920570	99	56722
2025-01-11 10:03:06.48	161.36	80.19	-71.4	-95.3	3.9	14908279	99	56417
2025-01-11 10:03:06.90	161.35	80.40	-71.4	-95.4	3.8	14909667	99	56984
2025-01-11 10:03:07.32	161.33	80.62	-71.4	-95.3	3.8	14919631	99	56822
2025-01-11 10:03:07.73	161.32	80.82	-71.4	-95.3	3.9	14913414	99	56662
2025-01-11 10:03:08.15	161.30	81.04	-71.3	-95.2	3.8	14904594	99	56230
2025-01-11 10:03:08.55	161.28	81.24	-71.4	-95.3	3.8	14913238	99	56611
2025-01-11 10:03:08.97	161.26	81.45	-71.4	-95.4	3.9	14913261	99	56869
2025-01-11 10:03:09.37	161.24	81.65	-71.4	-95.3	3.9	14919349	99	56705
2025-01-11 10:03:09.77	161.22	81.86	-71.3	-95.3	3.8	14901542	99	56882
2025-01-11 10:03:10.19	161.20	82.07	-71.3	-95.3	3.8	14901702	99	56843
2025-01-11 10:03:10.60	161.18	82.28	-71.4	-95.5	3.8	14901702	99	57774
2025-01-11 10:03:11.01	161.15	82.49	-71.3	-95.4	3.8	14906951	99	57652
2025-01-11 10:03:11.42	161.13	82.70	-71.4	-95.5	3.8	14903968	99	57693
2025-01-11 10:03:11.85	161.10	82.92	-71.4	-95.5	3.8	14912544	99	57686
2025-01-11 10:03:12.26	161.07	83.12	-71.4	-95.5	3.9	14912765	99	57511
2025-01-11 10:03:12.66	161.04	83.33	-71.4	-95.5	3.8	14907196	99	57650
2025-01-11 10:03:13.07	161.01	83.54	-71.4	-95.5	3.8	14908897	99	57728
2025-01-11 10:03:13.48	160.97	83.75	-71.4	-95.5	3.8	14910888	99	57526
2025-01-11 10:03:13.89	160.93	83.96	-71.3	-95.4	3.9	14914672	99	57442
2025-01-11 10:03:14.30	160.89	84.17	-71.4	-95.4	3.8	14900444	99	56929
2025-01-11 10:03:14.72	160.84	84.38	-71.4	-95.4	3.8	14911247	99	57266
2025-01-11 10:03:15.12	160.80	84.59	-71.4	-95.5	3.8	14922523	99	57415
2025-01-11 10:03:15.53	160.75	84.80	-71.4	-95.5	3.9	14901504	99	57514
2025-01-11 10:03:15.94	160.69	85.01	-71.4	-95.4	3.8	14901649	99	57212
2025-01-11 10:03:16.36	160.63	85.22	-71.4	-95.5	3.8	14899681	99	57746
2025-01-11 10:03:16.79	160.55	85.44	-71.4	-95.5	3.8	14909408	99	57564
2025-01-11 10:03:17.20	160.48	85.66	-71.4	-95.5	3.9	14902786	99	57444
2025-01-11 10:03:17.62	160.40	85.87	-71.4	-95.5	3.8	14905387	99	57509
2025-01-11 10:03:18.04	160.30	86.09	-71.4	-95.5	3.8	14905387	99	57604
2025-01-11 10:03:18.47	160.19	86.31	-71.4	-95.4	3.8	14894844	99	57535
2025-01-11 10:03:18.88	160.08	86.52	-71.4	-95.5	3.8	14894844	99	57514
2025-01-11 10:03:19.30	159.94	86.74	-71.3	-95.4	3.8	14911552	99	57596
2025-01-11 10:03:19.72	159.79	86.95	-71.4	-95.5	3.8	14913238	99	57501
2025-01-11 10:03:20.13	159.62	87.16	-71.4	-95.5	3.8	14902359	99	57684
2025-01-11 10:03:20.56	159.40	87.38	-71.4	-95.5	3.8	14913276	99	57698
2025-01-11 10:03:20.98	159.16	87.60	-71.3	-95.4	3.8	14909355	99	57604
2025-01-11 10:03:21.40	158.87	87.82	-71.4	-95.5	3.8	14906921	99	57721
2025-01-11 10:03:21.82	158.51	88.03	-71.4	-95.5	3.9	14899497	99	57203
2025-01-11 10:03:22.22	158.08	88.24	-71.4	-95.4	3.8	14903091	99	57524
2025-01-11 10:03:22.63	157.53	88.45	-71.4	-95.4	3.8	14905143	99	57307
2025-01-11 10:03:23.03	156.82	88.66	-71.4	-95.5	3.8	14908767	99	57440
2025-01-11 10:03:23.47	155.75	88.88	-71.4	-95.3	3.8	14913467	99	56937
2025-01-11 10:03:23.88	154.26	89.09	-71.3	-95.3	3.8	14906906	99	57086
2025-01-11 10:03:24.30	151.80	89.31	-71.4	-95.4	3.8	14906982	99	56935
2025-01-11 10:03:24.72	147.18	89.52	-71.4	-95.3	3.8	14908508	99	56735
2025-01-11 10:03:25.13	136.03	89.72	-71.3	-95.3	3.8	14905258	99	56855
2025-01-11 10:03:25.55	88.79	89.87	-71.4	-95.5	3.8	14908386	99	57234
2025-01-11 10:03:25.97	16.89	89.78	-71.4	-95.5	3.8	14910064	99	57684
2025-01-11 10:03:26.38	359.81	89.59	-71.5	-95.6	3.8	14906631	99	57639
2025-01-11 10:03:26.79	353.82	89.38	-71.5	-95.5	3.8	14900894	99	57499
2025-01-11 10:03:27.22	350.74	89.17	-71.4	-95.4	3.8	14899940	99	57072
2025-01-11 10:03:27.64	348.97	88.95	-71.5	-95.6	3.8	14899940	99	57596
2025-01-11 10:03:28.04	347.86	88.75	-71.4	-95.5	3.8	14911209	99	57630
2025-01-11 10:03:28.46	347.02	88.53	-71.4	-95.5	3.8	14913803	99	57604
2025-01-11 10:03:28.86	346.42	88.32	-71.4	-95.5	3.8	14915298	99	57776
2025-01-11 10:03:29.28	345.94	88.11	-71.3	-95.4	3.8	14905815	99	57558
2025-01-11 10:03:29.68	345.57	87.90	-71.4	-95.5	3.8	14910064	99	57719
2025-01-11 10:03:30.10	345.25	87.69	-71.4	-95.5	3.8	14905067	99	57633
2025-01-11 10:03:30.50	345.00	87.48	-71.3	-95.3	3.8	14907974	99	56938
2025-01-11 10:03:30.93	344.77	87.26	-71.4	-95.4	3.8	14914909	99	57031
2025-01-11 10:03:31.33	344.59	87.05	-71.3	-95.3	3.8	14892654	99	56958
2025-01-11 10:03:31.76	344.42	86.83	-71.4	-95.3	3.8	14913986	99	57026
2025-01-11 10:03:32.17	344.28	86.62	-71.3	-95.2	3.8	14916763	99	56600
2025-01-11 10:03:32.58	344.16	86.41	-71.4	-95.4	3.8	14914230	99	56947
2025-01-11 10:03:33.01	344.05	86.19	-71.3	-95.2	3.8	14908538	99	56373
2025-01-11 10:03:33.45	343.94	85.96	-71.4	-95.4	3.8	14904808	99	57181
2025-01-11 10:03:33.85	343.86	85.76	-71.4	-95.4	3.8	14918411	99	57017
2025-01-11 10:03:34.28	343.78	85.54	-71.4	-95.2	3.9	14900070	99	56346
2025-01-11 10:03:34.69	343.70	85.33	-71.3	-95.3	3.8	14901313	99	56908
2025-01-11 10:03:35.13	343.64	85.10	-71.4	-95.4	3.8	14907943	99	56976
2025-01-11 10:03:35.56	343.57	84.88	-71.4	-95.4	3.8	14905639	99	56877
2025-01-11 10:03:35.99	343.52	84.66	-71.4	-95.3	3.9	14900009	99	56454
2025-01-11 10:03:36.40	343.47	84.45	-71.3	-95.3	3.8	14912033	99	56828
2025-01-11 10:03:36.81	343.42	84.24	-71.4	-95.3	3.8	14912033	99	56826
2025-01-11 10:03:37.21	343.38	84.03	-71.4	-95.4	3.9	14916000	99	56777
2025-01-11 10:03:37.61	343.34	83.83	-71.4	-95.2	3.9	14910232	99	56318
2025-01-11 10:03:38.03	343.31	83.61	-71.3	-95.3	3.8	14908996	99	56752
2025-01-11 10:03:38.43	343.27	83.41	-71.4	-95.3	3.8	14904090	99	56580
2025-01-11 10:03:38.83	343.24	83.21	-71.4	-95.3	3.9	14915451	99	56485
2025-01-11 10:03:39.25	343.21	82.99	-71.4	-95.3	3.8	14906730	99	56579
2025-01-11 10:03:39.67	343.18	82.78	-71.4	-95.4	3.8	14901954	99	57130
2025-01-11 10:03:40.08	343.16	82.57	-71.4	-95.4	3.8	14910003	99	57220
2025-01-11 10:03:40.48	343.13	82.37	-71.4	-95.3	3.9	14907264	99	56332
2025-01-11 10:03:40.90	343.11	82.15	-71.2	-95.1	3.8	14907638	99	56180
2025-01-11 10:03:41.32	343.08	81.94	-71.3	-95.3	3.8	14909400	99	56579
2025-01-11 10:03:41.72	343.06	81.74	-71.4	-95.3	3.8	14914512	99	56716
2025-01-11 10:03:42.13	343.04	81.53	-71.4	-95.3	3.9	14910232	99	56511
2025-01-11 10:03:42.55	343.02	81.32	-71.4	-95.3	3.8	14901123	99	56438
2025-01-11 10:03:42.98	343.01	81.10	-71.3	-95.3	3.8	14911247	99	56923
2025-01-11 10:03:43.40	342.99	80.89	-71.4	-95.4	3.8	14892829	99	56763
2025-01-11 10:03:43.81	342.97	80.68	-71.4	-95.3	3.9	14892829	99	56505
2025-01-11 10:03:44.25	342.96	80.46	-71.4	-95.4	3.8	14921508	99	56755
2025-01-11 10:03:44.66	342.94	80.25	-71.4	-95.3	3.8	14915267	99	56724
2025-01-11 10:03:45.06	342.93	80.05	-71.4	-95.3	3.8	14919883	99	56835
2025-01-11 10:03:45.50	342.91	79.83	-71.4	-95.3	3.8	14908821	99	56741
2025-01-11 10:03:45.90	342.90	79.63	-71.4	-95.4	3.8	14918342	99	57066
2025-01-11 10:03:46.30	342.89	79.43	-71.4	-95.4	3.8	14911460	99	56915
2025-01-11 10:03:46.71	342.88	79.22	-71.4	-95.4	3.8	14910011	99	56902
2025-01-11 10:03:47.12	342.87	79.01	-71.4	-95.3	3.8	14900863	99	56428
2025-01-11 10:03:47.52	342.86	78.81	-71.4	-95.4	3.8	14904121	99	57070
2025-01-11 10:03:47.92	342.85	78.62	-71.4	-95.4	3.8	14911895	99	57011
2025-01-11 10:03:48.32	342.84	78.42	-71.4	-95.4	3.8	14904800	99	57008
2025-01-11 10:03:48.72	342.83	78.22	-71.4	-95.3	3.8	14904624	99	56491
2025-01-11 10:03:49.13	342.82	78.01	-71.4	-95.4	3.8	14902122	99	57023
2025-01-11 10:03:49.54	342.81	77.81	-71.4	-95.4	3.9	14916740	99	56768
2025-01-11 10:03:49.96	342.80	77.60	-71.4	-95.3	3.9	14899085	99	56610
2025-01-11 10:03:50.38	342.79	77.39	-71.4	-95.5	3.8	14894439	99	57325
2025-01-11 10:03:50.78	342.79	77.19	-71.4	-95.4	3.8	14894439	99	57380
2025-01-11 10:03:51.19	342.78	76.99	-71.4	-95.5	3.9	14911849	99	57348
2025-01-11 10:03:51.59	342.77	76.79	-71.4	-95.4	3.8	14908630	99	57201
2025-01-11 10:03:52.00	342.76	76.59	-71.5	-95.5	3.8	14913414	99	57591
2025-01-11 10:03:52.41	342.76	76.39	-71.4	-95.5	3.8	14916435	99	57689
2025-01-11 10:03:52.82	342.75	76.19	-71.4	-95.4	3.9	14912597	99	56872
2025-01-11 10:03:53.24	342.75	75.98	-71.4	-95.3	3.8	14906021	99	56446
2025-01-11 10:03:53.64	342.74	75.78	-71.4	-95.3	3.8	14901954	99	56586
2025-01-11 10:03:54.06	342.73	75.58	-71.4	-95.4	3.8	14916534	99	56851
2025-01-11 10:03:54.48	342.73	75.37	-71.4	-95.4	3.8	14911437	99	56879
2025-01-11 10:03:54.89	342.72	75.17	-71.4	-95.4	3.8	14894889	99	56926
2025-01-11 10:03:55.31	342.72	74.97	-71.4	-95.4	3.8	14901176	99	56995
2025-01-11 10:03:55.73	342.71	74.76	-71.4	-95.4	3.8	14922966	99	56985
2025-01-11 10:03:56.15	342.71	74.56	-71.4	-95.4	3.8	14906364	99	56988
2025-01-11 10:03:56.55	342.70	74.37	-71.4	-95.4	3.8	14905662	99	56836
2025-01-11 10:03:56.97	342.70	74.16	-71.4	-95.3	3.8	14913154	99	56447
2025-01-11 10:03:57.38	342.69	73.97	-71.4	-95.4	3.8	14907279	99	56958
2025-01-11 10:03:57.79	342.69	73.77	-71.4	-95.4	3.8	14907279	99	56932
2025-01-11 10:03:58.20	342.69	73.57	-71.4	-95.4	3.8	14916625	99	56939
2025-01-11 10:03:58.63	342.68	73.36	-71.4	-95.4	3.8	14903564	99	56984
2025-01-11 10:03:59.04	342.68	73.17	-71.4	-95.4	3.9	14924118	99	56672
2025-01-11 10:03:59.44	342.68	72.97	-71.4	-95.4	3.9	14900527	99	56594
2025-01-11 10:03:59.87	342.67	72.77	-71.4	-95.4	3.8	14903381	99	56979
2025-01-11 10:04:00.27	342.67	72.58	-71.4	-95.4	3.9	14917663	99	56693
2025-01-11 10:04:00.69	342.67	72.38	-71.4	-95.4	3.9	14913185	99	56862
2025-01-11 10:04:01.11	342.66	72.18	-71.4	-95.3	3.8	14903327	99	56398
2025-01-11 10:04:01.52	342.66	71.98	-71.4	-95.3	3.8	14901260	99	56784
2025-01-11 10:04:01.93	342.66	71.79	-71.4	-95.4	3.8	14913642	99	56895
2025-01-11 10:04:02.33	342.65	71.60	-71.4	-95.4	3.9	14908882	99	56660
2025-01-11 10:04:02.76	342.65	71.40	-71.4	-95.2	3.8	14898307	99	56327
2025-01-11 10:04:03.18	342.65	71.20	-71.3	-95.2	3.8	14902465	99	56372
2025-01-11 10:04:03.61	342.65	70.99	-71.4	-95.4	3.9	14914443	99	56709
2025-01-11 10:04:04.01	342.64	70.81	-71.4	-95.3	3.9	14905990	99	56598
2025-01-11 10:04:04.43	342.64	70.61	-71.3	-95.3	3.8	14910110	99	57052
2025-01-11 10:04:04.85	342.64	70.41	-71.4	-95.4	3.8	14918815	99	56938
2025-01-11 10:04:05.25	342.64	70.23	-71.4	-95.2	3.9	14907615	99	56241

#Closed at: 2025-01-11 10:04:05