passes_logs/2025/01/11/X_MFTI_01/X_MFTI_01__20250111_004251_AQUA_rec.log

#Pass ID: 20250111_004251_AQUA
#Satellite: AQUA
#Configuration: AQUA
#Start time: 2025-01-11 00:42:46

#Version: 1.5.20200625
#Station: X_MFTI_01
#Location: 37.5186 lon 55.9291 lat
#TLE: 1 27424U 02022A   23362.45420161  .00001617  00000+0  35675-3 0  9997
#TLE: 2 27424  98.3111 306.4798 0000768  48.9916  62.2296 14.58703046151674

#Time	Az	El	Level	Level2	SNR	BER	Gain	Gain2
2025-01-11 00:42:46.49	13.39	67.64	-77.4	-102.6	3.5	7596282	99	65535
2025-01-11 00:42:46.91	13.35	67.87	-77.4	-102.6	3.7	7540588	99	65534
2025-01-11 00:42:47.32	13.31	68.09	-77.5	-102.7	3.7	7571868	99	65535
2025-01-11 00:42:47.75	13.26	68.32	-77.5	-102.7	3.6	7521972	99	65535
2025-01-11 00:42:48.17	13.22	68.55	-77.2	-102.4	3.7	7566223	99	65532
2025-01-11 00:42:48.58	13.18	68.77	-77.3	-102.5	3.6	7570190	99	65535
2025-01-11 00:42:49.01	13.13	69.01	-77.3	-102.5	3.7	7555694	99	65535
2025-01-11 00:42:49.44	13.08	69.25	-77.3	-102.5	3.6	7552490	99	65535
2025-01-11 00:42:49.87	13.03	69.48	-77.5	-102.7	3.6	7561340	99	65534
2025-01-11 00:42:50.31	12.98	69.73	-77.5	-102.7	3.6	7581024	99	65534
2025-01-11 00:42:50.72	12.93	69.95	-77.4	-102.6	3.6	7623748	99	65535
2025-01-11 00:42:51.14	12.88	70.19	-77.2	-102.4	3.6	7509613	99	65535
2025-01-11 00:42:51.55	12.83	70.41	-77.4	-102.6	3.6	7546539	99	65535
2025-01-11 00:42:51.98	12.78	70.65	-77.3	-102.5	3.6	7486419	99	65534
2025-01-11 00:42:52.40	12.72	70.89	-77.5	-102.7	3.5	7499542	99	65534
2025-01-11 00:42:52.83	12.66	71.13	-77.3	-102.5	3.7	7537536	99	65535
2025-01-11 00:42:53.24	12.60	71.36	-77.3	-102.5	3.6	7538146	99	65534
2025-01-11 00:42:53.67	12.54	71.60	-77.4	-102.6	3.6	7507324	99	65535
2025-01-11 00:42:54.09	12.48	71.84	-77.5	-102.7	3.7	7509918	99	65535
2025-01-11 00:42:54.49	12.42	72.06	-77.4	-102.6	3.6	7508392	99	65535
2025-01-11 00:42:54.92	12.35	72.31	-77.3	-102.5	3.7	7563781	99	65535
2025-01-11 00:42:55.34	12.28	72.55	-77.3	-102.5	3.7	7549591	99	65533
2025-01-11 00:42:55.77	12.21	72.79	-77.5	-102.7	3.6	7558898	99	65535
2025-01-11 00:42:56.19	12.14	73.03	-77.3	-102.5	3.6	7531738	99	65535
2025-01-11 00:42:56.62	12.06	73.27	-77.4	-102.6	3.6	7580871	99	65535
2025-01-11 00:42:57.03	11.99	73.51	-77.5	-102.7	3.6	7541961	99	65535
2025-01-11 00:42:57.46	11.91	73.76	-77.5	-102.7	3.6	7531127	99	65534
2025-01-11 00:42:57.87	11.83	73.99	-77.4	-102.6	3.6	7568054	99	65533
2025-01-11 00:42:58.30	11.74	74.24	-77.3	-102.5	3.6	7559661	99	65535
2025-01-11 00:42:58.73	11.65	74.49	-77.3	-102.5	3.6	7559204	99	65534
2025-01-11 00:42:59.16	11.56	74.74	-77.3	-102.5	3.5	7560272	99	65535
2025-01-11 00:42:59.57	11.47	74.97	-77.4	-102.6	3.6	7549285	99	65535
2025-01-11 00:43:00.00	11.37	75.22	-77.4	-102.6	3.6	7563781	99	65535
2025-01-11 00:43:00.43	11.27	75.47	-77.3	-102.5	3.6	7559204	99	65534
2025-01-11 00:43:00.85	11.17	75.72	-77.3	-102.5	3.5	7526550	99	65535
2025-01-11 00:43:01.27	11.06	75.96	-77.3	-102.5	3.6	7545166	99	65535
2025-01-11 00:43:01.68	10.95	76.20	-77.6	-102.8	3.6	7558898	99	65534
2025-01-11 00:43:02.11	10.83	76.45	-77.5	-102.7	3.6	7536163	99	65535
2025-01-11 00:43:02.54	10.71	76.70	-77.4	-102.6	3.6	7538757	99	65535
2025-01-11 00:43:02.96	10.59	76.95	-77.3	-102.5	3.6	7528381	99	65535
2025-01-11 00:43:03.39	10.45	77.20	-77.3	-102.5	3.6	7579193	99	65534
2025-01-11 00:43:03.82	10.31	77.46	-77.5	-102.7	3.6	7553558	99	65535
2025-01-11 00:43:04.24	10.17	77.70	-77.3	-102.5	3.6	7554626	99	65535
2025-01-11 00:43:04.67	10.02	77.96	-77.2	-102.4	3.6	7526550	99	65533
2025-01-11 00:43:05.10	9.87	78.21	-77.4	-102.6	3.6	7500305	99	65533
2025-01-11 00:43:05.53	9.70	78.47	-77.4	-102.6	3.7	7520141	99	65535
2025-01-11 00:43:05.96	9.53	78.72	-77.3	-102.5	3.6	7528991	99	65535
2025-01-11 00:43:06.39	9.35	78.98	-77.5	-102.7	3.6	7507324	99	65535
2025-01-11 00:43:06.82	9.16	79.23	-77.5	-102.7	3.6	7479553	99	65535
2025-01-11 00:43:07.24	8.97	79.48	-77.3	-102.5	3.7	7531127	99	65535
2025-01-11 00:43:07.67	8.76	79.74	-77.3	-102.5	3.6	7537078	99	65535
2025-01-11 00:43:08.08	8.55	79.98	-77.4	-102.6	3.6	7503662	99	65534
2025-01-11 00:43:08.50	8.32	80.23	-77.3	-102.5	3.6	7537384	99	65535
2025-01-11 00:43:08.92	8.09	80.48	-77.4	-102.6	3.6	7531890	99	65534
2025-01-11 00:43:09.35	7.83	80.74	-77.5	-102.7	3.6	7526245	99	65535
2025-01-11 00:43:09.76	7.57	80.98	-77.3	-102.5	3.6	7534027	99	65534
2025-01-11 00:43:10.19	7.28	81.24	-77.4	-102.6	3.6	7536163	99	65535
2025-01-11 00:43:10.61	6.99	81.49	-77.5	-102.7	3.7	7576751	99	65535
2025-01-11 00:43:11.04	6.66	81.74	-77.3	-102.5	3.6	7543029	99	65535
2025-01-11 00:43:11.46	6.33	82.00	-76.7	-101.8	3.6	7537994	99	65325
2025-01-11 00:43:11.89	5.96	82.25	-77.3	-102.5	3.6	7519226	99	65534
2025-01-11 00:43:12.32	5.57	82.51	-77.5	-102.7	3.6	7546234	99	65535
2025-01-11 00:43:12.75	5.15	82.77	-77.3	-102.5	3.6	7521667	99	65535
2025-01-11 00:43:13.18	4.69	83.02	-76.9	-102.1	3.6	7544860	99	65380
2025-01-11 00:43:13.61	4.21	83.28	-77.5	-102.7	3.6	7516021	99	65534
2025-01-11 00:43:14.02	3.70	83.52	-77.3	-102.5	3.7	7540130	99	65534
2025-01-11 00:43:14.45	3.14	83.78	-77.4	-102.6	3.6	7527160	99	65534
2025-01-11 00:43:14.88	2.52	84.03	-77.3	-102.5	3.6	7520446	99	65535
2025-01-11 00:43:15.30	1.86	84.28	-77.5	-102.7	3.6	7534332	99	65535
2025-01-11 00:43:15.73	1.13	84.53	-77.4	-102.6	3.7	7571105	99	65535
2025-01-11 00:43:16.15	0.34	84.78	-77.3	-102.5	3.6	7568359	99	65534
2025-01-11 00:43:16.55	359.52	85.02	-77.3	-102.5	3.6	7523193	99	65534
2025-01-11 00:43:16.98	358.55	85.27	-77.4	-102.6	3.6	7513885	99	65535
2025-01-11 00:43:17.41	357.46	85.52	-77.5	-102.7	3.7	7498931	99	65534
2025-01-11 00:43:17.84	356.25	85.77	-77.4	-102.6	3.7	7543792	99	65530
2025-01-11 00:43:18.27	354.89	86.01	-77.5	-102.7	3.6	7534179	99	65535
2025-01-11 00:43:18.69	353.38	86.25	-77.5	-102.7	3.6	7534484	99	65535
2025-01-11 00:43:19.10	351.72	86.48	-77.2	-102.4	3.7	7524871	99	65533
2025-01-11 00:43:19.52	349.77	86.71	-77.4	-102.6	3.7	7527465	99	65533
2025-01-11 00:43:19.95	347.48	86.94	-77.4	-102.6	3.6	7520904	99	65535
2025-01-11 00:43:20.37	344.88	87.17	-77.4	-102.6	3.6	7558898	99	65535
2025-01-11 00:43:20.80	341.76	87.39	-77.3	-102.5	3.7	7555084	99	65531
2025-01-11 00:43:21.21	338.27	87.59	-77.5	-102.7	3.5	7566833	99	65535
2025-01-11 00:43:21.61	334.26	87.77	-77.4	-102.6	3.6	7529602	99	65535
2025-01-11 00:43:22.03	329.30	87.96	-77.5	-102.7	3.6	7562561	99	65533
2025-01-11 00:43:22.46	323.26	88.12	-77.5	-102.7	3.6	7559661	99	65534
2025-01-11 00:43:22.89	316.14	88.27	-77.3	-102.5	3.6	7538299	99	65535
2025-01-11 00:43:23.31	308.09	88.38	-77.3	-102.5	3.6	7568664	99	65535
2025-01-11 00:43:23.74	298.86	88.45	-77.4	-102.6	3.7	7546691	99	65535
2025-01-11 00:43:24.17	288.99	88.48	-77.3	-102.5	3.6	7534027	99	65535
2025-01-11 00:43:24.57	279.69	88.47	-77.5	-102.7	3.6	7513427	99	65535
2025-01-11 00:43:25.00	270.14	88.41	-77.4	-102.6	3.7	7527618	99	65535
2025-01-11 00:43:25.40	262.04	88.32	-77.3	-102.5	3.7	7569122	99	65534
2025-01-11 00:43:25.83	254.39	88.19	-77.3	-102.5	3.6	7535247	99	65534
2025-01-11 00:43:26.23	248.28	88.05	-77.5	-102.7	3.6	7509765	99	65535
2025-01-11 00:43:26.66	242.71	87.87	-77.5	-102.7	3.6	7536926	99	65535
2025-01-11 00:43:27.08	238.13	87.68	-77.3	-102.5	3.6	7552032	99	65535
2025-01-11 00:43:27.49	234.35	87.49	-77.3	-102.5	3.7	7554016	99	65535
2025-01-11 00:43:27.93	230.91	87.26	-77.5	-102.7	3.6	7543334	99	65533
2025-01-11 00:43:28.33	228.25	87.05	-77.3	-102.5	3.6	7571105	99	65535
2025-01-11 00:43:28.76	225.78	86.82	-77.3	-102.5	3.6	7533721	99	65533
2025-01-11 00:43:29.16	223.79	86.61	-75.3	-100.5	3.6	7526855	99	65237
2025-01-11 00:43:29.58	221.96	86.37	-77.5	-102.7	3.6	7525787	99	65534
2025-01-11 00:43:30.01	220.32	86.13	-77.5	-102.7	3.6	7603454	99	65535
2025-01-11 00:43:30.44	218.87	85.88	-77.3	-102.5	3.6	7559814	99	65535
2025-01-11 00:43:30.87	217.59	85.64	-77.3	-102.5	3.6	7544708	99	65535
2025-01-11 00:43:31.30	216.44	85.39	-77.5	-102.7	3.6	7558135	99	65535
2025-01-11 00:43:31.73	215.41	85.14	-77.3	-102.5	3.6	7563781	99	65534
2025-01-11 00:43:32.14	214.53	84.90	-77.5	-102.7	3.5	7581634	99	65535
2025-01-11 00:43:32.56	213.71	84.65	-77.3	-102.5	3.6	7552642	99	65534
2025-01-11 00:43:32.99	212.94	84.40	-77.4	-102.6	3.6	7548522	99	65535
2025-01-11 00:43:33.42	212.24	84.14	-77.4	-102.6	3.6	7570343	99	65535
2025-01-11 00:43:33.84	211.62	83.89	-77.5	-102.7	3.7	7549896	99	65535
2025-01-11 00:43:34.27	211.03	83.64	-77.5	-102.7	3.6	7486114	99	65534
2025-01-11 00:43:34.70	210.48	83.38	-77.3	-102.5	3.6	7551727	99	65534
2025-01-11 00:43:35.13	209.98	83.13	-77.5	-102.7	3.7	7510833	99	65535
2025-01-11 00:43:35.55	209.52	82.88	-77.2	-102.4	3.6	7548675	99	65392
2025-01-11 00:43:35.98	209.09	82.62	-77.4	-102.6	3.6	7526397	99	65534
2025-01-11 00:43:36.41	208.68	82.36	-77.3	-102.5	3.6	7502441	99	65535
2025-01-11 00:43:36.84	208.30	82.11	-77.4	-102.6	3.6	7576446	99	65535
2025-01-11 00:43:37.27	207.95	81.85	-77.3	-102.5	3.6	7532653	99	65534
2025-01-11 00:43:37.70	207.62	81.59	-77.5	-102.7	3.6	7534942	99	65535
2025-01-11 00:43:38.13	207.31	81.33	-77.4	-102.6	3.6	7562561	99	65535
2025-01-11 00:43:38.55	207.02	81.08	-77.3	-102.5	3.6	7536621	99	65534
2025-01-11 00:43:38.98	206.74	80.83	-77.5	-102.7	3.6	7509765	99	65535
2025-01-11 00:43:39.41	206.48	80.57	-77.3	-102.5	3.7	7570495	99	65534
2025-01-11 00:43:39.83	206.24	80.32	-77.3	-102.5	3.7	7537689	99	65535
2025-01-11 00:43:40.26	206.00	80.06	-77.3	-102.5	3.6	7561035	99	65535
2025-01-11 00:43:40.69	205.78	79.81	-77.3	-102.5	3.6	7497253	99	65535
2025-01-11 00:43:41.10	205.58	79.56	-77.4	-102.6	3.7	7521820	99	65535
2025-01-11 00:43:41.53	205.38	79.31	-77.5	-102.7	3.7	7574615	99	65534
2025-01-11 00:43:41.95	205.19	79.06	-77.4	-102.6	3.5	7545318	99	65535
2025-01-11 00:43:42.38	205.00	78.80	-77.3	-102.5	3.6	7539367	99	65535
2025-01-11 00:43:42.78	204.84	78.56	-77.5	-102.7	3.6	7578430	99	65535
2025-01-11 00:43:43.21	204.67	78.31	-77.5	-102.7	3.6	7557373	99	65535
2025-01-11 00:43:43.63	204.52	78.06	-77.5	-102.7	3.6	7558288	99	65535
2025-01-11 00:43:44.05	204.37	77.81	-77.5	-102.7	3.6	7543182	99	65535
2025-01-11 00:43:44.48	204.22	77.56	-77.3	-102.5	3.5	7536773	99	65535
2025-01-11 00:43:44.91	204.08	77.31	-77.3	-102.5	3.6	7537078	99	65535
2025-01-11 00:43:45.34	203.94	77.05	-77.3	-102.5	3.6	7568206	99	65535
2025-01-11 00:43:45.77	203.81	76.80	-77.4	-102.6	3.6	7544708	99	65535
2025-01-11 00:43:46.20	203.69	76.55	-77.5	-102.7	3.6	7549438	99	65535
2025-01-11 00:43:46.63	203.57	76.30	-77.5	-102.7	3.6	7539062	99	65534
2025-01-11 00:43:47.03	203.46	76.06	-77.3	-102.5	3.6	7564086	99	65535
2025-01-11 00:43:47.46	203.35	75.81	-77.3	-102.5	3.6	7566223	99	65534
2025-01-11 00:43:47.89	203.24	75.56	-77.3	-102.5	3.6	7580108	99	65531
2025-01-11 00:43:48.33	203.14	75.30	-77.2	-102.4	3.6	7572937	99	65535
2025-01-11 00:43:48.74	203.04	75.06	-77.3	-102.5	3.6	7557678	99	65535
2025-01-11 00:43:49.16	202.95	74.82	-77.3	-102.5	3.6	7533416	99	65535
2025-01-11 00:43:49.59	202.85	74.57	-77.5	-102.7	3.6	7549438	99	65535
2025-01-11 00:43:50.00	202.77	74.33	-77.3	-102.5	3.5	7541503	99	65532
2025-01-11 00:43:50.42	202.68	74.09	-77.3	-102.5	3.6	7527923	99	65535
2025-01-11 00:43:50.84	202.60	73.85	-77.4	-102.6	3.6	7575988	99	65534
2025-01-11 00:43:51.24	202.52	73.62	-77.5	-102.7	3.6	7539978	99	65535
2025-01-11 00:43:51.67	202.44	73.37	-77.6	-102.8	3.6	7548217	99	65535
2025-01-11 00:43:52.10	202.37	73.13	-77.3	-102.5	3.6	7541809	99	65535
2025-01-11 00:43:52.53	202.29	72.88	-77.3	-102.5	3.6	7539520	99	65535
2025-01-11 00:43:52.95	202.22	72.64	-77.3	-102.5	3.6	7553558	99	65535
2025-01-11 00:43:53.36	202.15	72.41	-77.3	-102.5	3.6	7553558	99	65535
2025-01-11 00:43:53.78	202.09	72.17	-77.4	-102.6	3.6	7532501	99	65535
2025-01-11 00:43:54.19	202.02	71.94	-77.3	-102.5	3.6	7550048	99	65535
2025-01-11 00:43:54.61	201.96	71.70	-77.3	-102.5	3.7	7518768	99	65535
2025-01-11 00:43:55.03	201.90	71.46	-77.5	-102.7	3.6	7564697	99	65535
2025-01-11 00:43:55.44	201.84	71.23	-77.3	-102.5	3.6	7540130	99	65531
2025-01-11 00:43:55.87	201.78	70.99	-76.9	-102.1	3.6	7539215	99	65535
2025-01-11 00:43:56.30	201.72	70.75	-77.4	-102.6	3.7	7516174	99	65535
2025-01-11 00:43:56.73	201.67	70.51	-77.4	-102.6	3.6	7541961	99	65534
2025-01-11 00:43:57.16	201.61	70.27	-77.5	-102.7	3.6	7527923	99	65535

#Closed at: 2025-01-11 00:43:57