passes_logs/2025/01/04/X_MFTI_02/X_MFTI_02__20250104_095200_SUOMI_NPP_rec.log

#Pass ID: 20250104_095200_SUOMI NPP
#Satellite: SUOMI NPP
#Configuration: NPP
#Start time: 2025-01-04 09:51:54

#Version: 1.5.20200625
#Station: X_MFTI_02
#Location: 37.5186 lon 55.9291 lat
#TLE: 1 37849U 11061A   23362.48341244  .00000167  00000+0  99749-4 0  9991
#TLE: 2 37849  98.7252 298.0509 0001500  77.1966 282.9377 14.19535461630502

#Time	Az	El	Level	Level2	SNR	BER	Gain	Gain2
2025-01-04 09:51:54.63	130.26	67.80	-62.0	-87.2	3.2	15515655	83	65535
2025-01-04 09:51:55.04	130.00	67.96	-62.3	-87.5	3.0	15648132	84	65535
2025-01-04 09:51:55.45	129.74	68.12	-62.1	-87.3	3.0	15696189	84	65535
2025-01-04 09:51:55.85	129.47	68.28	-62.1	-87.3	3.2	15679039	84	65535
2025-01-04 09:51:56.26	129.20	68.44	-62.1	-87.3	3.1	15691215	84	65535
2025-01-04 09:51:56.66	128.93	68.60	-62.0	-87.2	3.0	15675331	83	65535
2025-01-04 09:51:57.07	128.64	68.76	-62.0	-87.2	3.0	15691581	83	65535
2025-01-04 09:51:57.47	128.36	68.92	-62.3	-87.5	3.1	15680908	84	65535
2025-01-04 09:51:57.87	128.08	69.08	-62.1	-87.3	3.1	15682304	84	65535
2025-01-04 09:51:58.28	127.78	69.24	-62.0	-87.2	2.7	15682304	83	65535
2025-01-04 09:51:58.68	127.48	69.39	-62.1	-87.3	3.1	15679504	84	65535
2025-01-04 09:51:59.08	127.19	69.55	-62.3	-87.5	3.1	15686996	84	65535
2025-01-04 09:51:59.49	126.87	69.71	-62.1	-87.3	3.1	15683258	84	65535
2025-01-04 09:51:59.89	126.56	69.87	-62.0	-87.2	2.7	15673019	83	65535
2025-01-04 09:52:00.29	126.25	70.02	-61.9	-87.1	3.0	15684638	83	65535
2025-01-04 09:52:00.71	125.91	70.18	-62.0	-87.2	3.1	15681221	84	65535
2025-01-04 09:52:01.13	125.57	70.35	-62.0	-87.2	3.1	15670860	84	65535
2025-01-04 09:52:01.53	125.24	70.50	-60.4	-85.6	3.4	15663543	82	65535
2025-01-04 09:52:01.94	124.89	70.66	-61.9	-87.1	3.0	15676551	83	65535
2025-01-04 09:52:02.34	124.54	70.81	-62.1	-87.3	3.1	15684066	84	65535
2025-01-04 09:52:02.74	124.20	70.97	-62.3	-87.5	3.2	15678573	84	65535
2025-01-04 09:52:03.15	123.83	71.12	-62.1	-87.3	3.3	15665649	84	65535
2025-01-04 09:52:03.56	123.46	71.28	-62.0	-87.2	3.2	15683738	84	65535
2025-01-04 09:52:03.96	123.09	71.43	-62.1	-87.3	3.1	15683738	84	65535
2025-01-04 09:52:04.36	122.72	71.58	-62.0	-87.2	3.1	15673492	84	65535
2025-01-04 09:52:04.77	122.32	71.74	-62.0	-87.2	3.1	15666336	84	65535
2025-01-04 09:52:05.17	121.94	71.89	-62.1	-87.3	3.1	15672447	84	65535
2025-01-04 09:52:05.57	121.54	72.04	-62.0	-87.2	3.1	15681175	84	65535
2025-01-04 09:52:05.97	121.14	72.18	-62.0	-87.2	3.1	15670249	84	65535
2025-01-04 09:52:06.38	120.72	72.34	-62.1	-87.3	3.1	15665863	84	65535
2025-01-04 09:52:06.78	120.30	72.48	-62.1	-87.3	3.0	15683006	84	65535
2025-01-04 09:52:07.18	119.88	72.63	-62.0	-87.2	3.1	15675674	84	65535
2025-01-04 09:52:07.58	119.45	72.78	-62.1	-87.3	3.1	15663490	84	65535
2025-01-04 09:52:07.99	118.99	72.93	-62.0	-87.2	3.1	15666610	84	65535
2025-01-04 09:52:08.39	118.55	73.07	-62.0	-87.2	2.9	15662223	83	65535
2025-01-04 09:52:08.79	118.09	73.21	-62.0	-87.2	2.9	15700035	83	65535
2025-01-04 09:52:09.20	117.61	73.36	-62.1	-87.3	3.4	15672828	84	65535
2025-01-04 09:52:09.62	117.12	73.51	-62.0	-87.2	3.3	15672828	84	65535
2025-01-04 09:52:10.02	116.64	73.65	-62.0	-87.2	2.3	15671607	83	65535
2025-01-04 09:52:10.42	116.14	73.79	-62.1	-87.3	3.1	15688217	84	65535
2025-01-04 09:52:10.84	115.62	73.94	-62.2	-87.4	3.1	15692138	84	65535
2025-01-04 09:52:11.24	115.11	74.07	-62.3	-87.5	3.0	15677978	84	65535
2025-01-04 09:52:11.65	114.58	74.21	-62.0	-87.2	3.0	15678169	81	65535
2025-01-04 09:52:12.05	114.05	74.35	-62.1	-87.3	3.2	15681816	84	65535
2025-01-04 09:52:12.45	113.51	74.48	-62.0	-87.2	3.4	15679344	84	65535
2025-01-04 09:52:12.87	112.94	74.62	-62.2	-87.4	3.3	15668823	84	65535
2025-01-04 09:52:13.27	112.38	74.76	-62.0	-87.2	3.2	15672988	84	65535
2025-01-04 09:52:13.67	111.81	74.89	-62.1	-87.3	3.1	15680068	84	65535
2025-01-04 09:52:14.08	111.22	75.02	-62.1	-87.3	3.4	15679420	84	65535
2025-01-04 09:52:14.49	110.62	75.15	-62.0	-87.2	3.3	15662811	84	65535
2025-01-04 09:52:14.91	109.99	75.28	-62.1	-87.3	3.1	15670219	84	65535
2025-01-04 09:52:15.31	109.37	75.41	-62.1	-87.3	3.1	15670219	84	65535
2025-01-04 09:52:15.72	108.74	75.53	-62.2	-87.4	3.1	15689201	84	65535
2025-01-04 09:52:16.12	108.10	75.66	-62.0	-87.2	3.1	15657371	84	65535
2025-01-04 09:52:16.52	107.46	75.78	-62.0	-87.2	3.1	15664634	84	65535
2025-01-04 09:52:16.93	106.79	75.90	-62.0	-87.2	3.3	15673347	83	65535
2025-01-04 09:52:17.33	106.12	76.01	-62.1	-87.3	3.1	15686111	84	65535
2025-01-04 09:52:17.73	105.44	76.13	-62.0	-87.2	3.1	15667251	84	65535
2025-01-04 09:52:18.13	104.75	76.24	-62.1	-87.3	3.1	15681182	84	65535
2025-01-04 09:52:18.53	104.05	76.35	-62.1	-87.3	3.4	15674903	84	65535
2025-01-04 09:52:18.95	103.30	76.47	-62.0	-87.3	3.3	15668258	84	65535
2025-01-04 09:52:19.35	102.57	76.57	-61.9	-87.1	3.3	15663642	85	65535
2025-01-04 09:52:19.76	101.81	76.68	-62.1	-87.3	3.3	15648635	85	65535
2025-01-04 09:52:20.17	101.04	76.79	-62.3	-87.5	3.4	15648849	84	65535
2025-01-04 09:52:20.58	100.26	76.89	-62.2	-87.4	3.3	15648849	84	65535
2025-01-04 09:52:21.01	99.43	77.00	-62.1	-87.3	3.1	15681022	84	65535
2025-01-04 09:52:21.43	98.60	77.10	-62.1	-87.3	3.4	15681022	84	65535
2025-01-04 09:52:21.83	97.80	77.19	-62.2	-87.4	3.1	15658126	84	65535
2025-01-04 09:52:22.23	96.98	77.28	-62.3	-87.5	3.1	15664077	84	65535
2025-01-04 09:52:22.63	96.16	77.37	-62.2	-87.4	3.3	15664634	85	65535
2025-01-04 09:52:23.04	95.30	77.46	-62.2	-87.4	3.3	15642021	85	65535
2025-01-04 09:52:23.44	94.45	77.54	-62.1	-87.3	3.0	15646591	84	65535
2025-01-04 09:52:23.85	93.57	77.62	-62.1	-87.3	3.2	15660575	84	65535
2025-01-04 09:52:24.26	92.68	77.70	-62.1	-87.3	3.1	15660079	84	65535
2025-01-04 09:52:24.66	91.79	77.78	-62.0	-87.2	3.1	15676521	84	65535
2025-01-04 09:52:25.06	90.90	77.85	-60.6	-85.8	3.2	15673095	82	65535
2025-01-04 09:52:25.48	89.95	77.92	-62.0	-87.2	3.3	15678466	85	65535
2025-01-04 09:52:25.88	89.03	77.99	-62.1	-87.3	3.3	15656005	85	65535
2025-01-04 09:52:26.28	88.11	78.05	-62.2	-87.4	3.3	15654052	85	65535
2025-01-04 09:52:26.69	87.15	78.12	-61.9	-87.1	3.2	15646095	85	65535
2025-01-04 09:52:27.09	86.20	78.17	-62.1	-87.3	3.1	15646095	84	65535
2025-01-04 09:52:27.49	85.24	78.23	-62.0	-87.2	3.0	15686874	84	65535
2025-01-04 09:52:27.90	84.26	78.28	-62.2	-87.4	3.3	15688705	84	65535
2025-01-04 09:52:28.30	83.28	78.32	-62.1	-87.3	3.2	15677650	84	65535
2025-01-04 09:52:28.72	82.26	78.37	-62.2	-87.4	3.1	15679504	84	65535
2025-01-04 09:52:29.14	81.22	78.41	-62.1	-87.3	3.1	15688682	84	65535
2025-01-04 09:52:29.54	80.22	78.45	-62.0	-87.2	3.1	15671493	84	65535
2025-01-04 09:52:29.94	79.22	78.48	-62.2	-87.4	3.1	15672164	84	65535
2025-01-04 09:52:30.35	78.19	78.51	-62.2	-87.4	3.1	15689331	84	65535
2025-01-04 09:52:30.75	77.18	78.54	-62.2	-87.4	3.4	15673820	84	65535
2025-01-04 09:52:31.15	76.16	78.56	-62.1	-87.3	3.3	15664360	84	65535
2025-01-04 09:52:31.56	75.12	78.58	-62.1	-87.3	3.2	15673446	84	65535
2025-01-04 09:52:31.96	74.10	78.60	-62.1	-87.3	2.9	15678611	83	65535
2025-01-04 09:52:32.36	73.07	78.61	-62.1	-87.3	3.2	15678611	84	65535
2025-01-04 09:52:32.77	72.02	78.62	-62.1	-87.3	3.4	15681129	84	65535
2025-01-04 09:52:33.17	70.99	78.62	-62.2	-87.4	3.2	15667709	84	65535
2025-01-04 09:52:33.57	69.96	78.62	-62.0	-87.2	2.9	15657318	83	65535
2025-01-04 09:52:33.98	68.90	78.62	-62.1	-87.3	3.0	15674240	84	65535
2025-01-04 09:52:34.39	67.85	78.62	-62.1	-87.3	3.3	15665969	84	65535
2025-01-04 09:52:34.80	66.80	78.61	-62.1	-87.3	3.4	15676208	84	65535
2025-01-04 09:52:35.20	65.77	78.59	-62.0	-87.2	2.5	15671295	83	65535
2025-01-04 09:52:35.60	64.75	78.57	-62.2	-87.4	3.1	15683975	84	65535
2025-01-04 09:52:36.01	63.71	78.55	-62.1	-87.3	3.1	15671478	84	65535
2025-01-04 09:52:36.41	62.69	78.53	-62.2	-87.4	3.1	15679588	84	65535
2025-01-04 09:52:36.82	61.66	78.50	-60.2	-85.4	3.3	15673309	82	65535
2025-01-04 09:52:37.22	60.65	78.47	-62.1	-87.3	3.4	15684494	84	65535
2025-01-04 09:52:37.62	59.66	78.43	-62.1	-87.3	3.3	15666397	84	65535
2025-01-04 09:52:38.02	58.66	78.40	-62.0	-87.2	3.1	15666397	84	65535
2025-01-04 09:52:38.43	57.65	78.35	-62.1	-87.3	3.1	15671676	84	65535
2025-01-04 09:52:38.83	56.68	78.31	-62.2	-87.4	3.1	15677276	84	65535
2025-01-04 09:52:39.25	55.66	78.26	-62.2	-87.4	3.1	15670867	84	65535
2025-01-04 09:52:39.65	54.70	78.21	-62.2	-87.4	3.1	15668418	84	65535
2025-01-04 09:52:40.05	53.75	78.15	-62.1	-87.3	3.1	15686378	84	65535
2025-01-04 09:52:40.47	52.76	78.09	-62.1	-87.3	3.4	15686347	84	65535
2025-01-04 09:52:40.87	51.83	78.03	-62.2	-87.4	3.3	15678169	84	65535
2025-01-04 09:52:41.27	50.90	77.97	-62.1	-87.3	3.1	15669738	84	65535
2025-01-04 09:52:41.69	49.95	77.90	-62.3	-87.5	3.1	15679077	84	65535
2025-01-04 09:52:42.09	49.05	77.82	-62.0	-87.2	2.9	15680351	83	65535
2025-01-04 09:52:42.50	48.13	77.75	-62.2	-87.4	2.9	15684120	84	65535
2025-01-04 09:52:42.90	47.26	77.67	-62.1	-87.3	3.1	15690567	84	65535
2025-01-04 09:52:43.32	46.35	77.59	-62.1	-87.3	3.1	15682411	84	65535
2025-01-04 09:52:43.74	45.45	77.50	-62.1	-87.3	3.4	15685142	84	65535
2025-01-04 09:52:44.14	44.61	77.42	-62.1	-87.3	3.2	15683731	84	65535
2025-01-04 09:52:44.54	43.77	77.33	-62.0	-87.2	3.0	15683731	84	65535
2025-01-04 09:52:44.94	42.95	77.24	-62.1	-87.3	3.2	15691726	84	65535
2025-01-04 09:52:45.35	42.13	77.15	-62.1	-87.3	3.4	15677947	84	65535
2025-01-04 09:52:45.76	41.31	77.05	-62.1	-87.3	3.2	15687919	84	65535
2025-01-04 09:52:46.17	40.51	76.95	-62.1	-87.3	3.1	15674293	84	65535
2025-01-04 09:52:46.57	39.74	76.85	-62.1	-87.3	3.0	15689659	84	65535
2025-01-04 09:52:46.97	38.98	76.75	-62.0	-87.2	2.6	15674575	83	65535
2025-01-04 09:52:47.38	38.22	76.65	-62.1	-87.3	3.2	15684410	84	65535
2025-01-04 09:52:47.80	37.45	76.54	-62.1	-87.3	3.1	15682579	84	65535
2025-01-04 09:52:48.20	36.72	76.43	-62.2	-87.4	3.3	15667213	84	65535
2025-01-04 09:52:48.60	36.01	76.32	-62.0	-87.2	2.6	15661689	83	65535
2025-01-04 09:52:49.03	35.26	76.20	-62.0	-87.2	3.0	15680969	84	65535
2025-01-04 09:52:49.44	34.56	76.08	-62.1	-87.3	3.0	15682388	84	65535
2025-01-04 09:52:49.84	33.89	75.97	-62.2	-87.4	3.0	15677650	84	65535
2025-01-04 09:52:50.24	33.23	75.85	-60.5	-85.7	3.3	15677650	82	65535
2025-01-04 09:52:50.65	32.56	75.73	-62.1	-87.3	3.0	15688964	84	65535
2025-01-04 09:52:51.05	31.92	75.61	-62.3	-87.5	3.0	15688316	84	65535
2025-01-04 09:52:51.45	31.29	75.48	-62.2	-87.4	3.4	15688728	84	65535
2025-01-04 09:52:51.86	30.66	75.36	-62.1	-87.4	3.3	15678901	84	65535
2025-01-04 09:52:52.26	30.05	75.23	-62.1	-87.3	3.1	15684280	84	65535
2025-01-04 09:52:52.66	29.46	75.10	-62.1	-87.3	3.0	15683113	84	65535
2025-01-04 09:52:53.07	28.86	74.97	-62.1	-87.3	3.0	15673995	84	65535
2025-01-04 09:52:53.47	28.28	74.84	-62.1	-87.3	3.0	15677581	84	65535
2025-01-04 09:52:53.87	27.72	74.71	-62.0	-87.2	3.0	15673973	84	65535
2025-01-04 09:52:54.29	27.14	74.57	-62.2	-87.4	3.0	15698768	84	65535
2025-01-04 09:52:54.69	26.60	74.44	-62.2	-87.4	3.0	15673240	84	65535
2025-01-04 09:52:55.09	26.06	74.31	-62.1	-87.3	3.0	15667671	84	65535
2025-01-04 09:52:55.50	25.52	74.17	-62.0	-87.2	2.8	15667671	84	65535
2025-01-04 09:52:55.90	25.01	74.03	-62.4	-87.6	3.3	15681404	84	65535
2025-01-04 09:52:56.30	24.50	73.89	-62.0	-87.2	3.3	15673484	84	65535
2025-01-04 09:52:56.71	23.99	73.75	-62.0	-87.2	3.1	15673149	84	65535
2025-01-04 09:52:57.12	23.50	73.61	-62.0	-87.2	2.9	15671836	83	65535
2025-01-04 09:52:57.54	22.99	73.46	-62.0	-87.2	3.0	15698173	83	65535
2025-01-04 09:52:57.94	22.52	73.32	-62.3	-87.5	3.3	15702888	84	65535
2025-01-04 09:52:58.35	22.05	73.17	-62.0	-87.3	3.1	15677818	84	65535
2025-01-04 09:52:58.76	21.59	73.02	-62.1	-87.3	2.9	15683059	84	65535
2025-01-04 09:52:59.17	21.13	72.87	-62.1	-87.3	3.0	15687561	84	65535
2025-01-04 09:52:59.57	20.69	72.73	-62.1	-87.3	3.0	15680984	84	65535
2025-01-04 09:52:59.98	20.25	72.58	-62.0	-87.3	3.1	15683242	84	65535
2025-01-04 09:53:00.38	19.83	72.43	-62.1	-87.3	2.9	15676849	84	65535
2025-01-04 09:53:00.80	19.40	72.28	-62.1	-87.3	3.0	15690048	84	65535
2025-01-04 09:53:01.22	18.97	72.12	-62.1	-87.3	3.0	15685600	84	65535
2025-01-04 09:53:01.62	18.57	71.97	-62.0	-87.2	3.1	15685600	84	65535
2025-01-04 09:53:02.02	18.18	71.82	-60.4	-85.6	3.4	15672050	82	65535
2025-01-04 09:53:02.43	17.79	71.67	-62.0	-87.2	2.9	15686096	83	65535
2025-01-04 09:53:02.83	17.41	71.52	-62.1	-87.3	3.0	15694656	84	65535
2025-01-04 09:53:03.23	17.04	71.37	-62.1	-87.3	3.1	15678565	84	65535
2025-01-04 09:53:03.65	16.66	71.21	-61.5	-86.7	3.1	15666625	84	65535
2025-01-04 09:53:04.07	16.28	71.05	-62.1	-87.3	3.0	15677986	84	65535
2025-01-04 09:53:04.48	15.92	70.89	-62.0	-87.2	3.2	15674133	84	65535
2025-01-04 09:53:04.89	15.56	70.74	-62.1	-87.3	3.1	15674354	84	65535
2025-01-04 09:53:05.29	15.22	70.58	-62.3	-87.5	3.0	15674179	84	65535
2025-01-04 09:53:05.69	14.89	70.43	-62.3	-87.5	3.0	15677200	84	65535

#Closed at: 2025-01-04 09:53:05