passes_logs/2025/01/04/X_MFTI_02/X_MFTI_02__20250104_234226_SUOMI_NPP_rec.log

#Pass ID: 20250104_234226_SUOMI NPP
#Satellite: SUOMI NPP
#Configuration: NPP
#Start time: 2025-01-04 23:42:20

#Version: 1.5.20200625
#Station: X_MFTI_02
#Location: 37.5186 lon 55.9291 lat
#TLE: 1 37849U 11061A   23362.48341244  .00000167  00000+0  99749-4 0  9991
#TLE: 2 37849  98.7252 298.0509 0001500  77.1966 282.9377 14.19535461630502

#Time	Az	El	Level	Level2	SNR	BER	Gain	Gain2
2025-01-04 23:42:20.57	27.86	67.93	-62.3	-87.5	3.2	15485031	84	65535
2025-01-04 23:42:21.00	27.96	68.12	-62.4	-87.6	2.9	15664367	84	65535
2025-01-04 23:42:21.43	28.07	68.31	-62.4	-87.6	3.2	15693534	84	65535
2025-01-04 23:42:21.86	28.19	68.51	-62.3	-87.5	2.9	15688972	84	65535
2025-01-04 23:42:22.27	28.30	68.69	-62.3	-87.5	3.0	15685653	84	65535
2025-01-04 23:42:22.70	28.41	68.88	-62.4	-87.6	3.0	15688819	84	65535
2025-01-04 23:42:23.14	28.53	69.08	-62.3	-87.5	3.1	15686332	84	65535
2025-01-04 23:42:23.57	28.65	69.28	-62.3	-87.5	3.0	15683494	84	65535
2025-01-04 23:42:23.98	28.77	69.46	-62.1	-87.3	3.2	15685585	84	65535
2025-01-04 23:42:24.41	28.90	69.66	-62.4	-87.6	3.2	15692565	84	65535
2025-01-04 23:42:24.84	29.02	69.85	-62.0	-87.2	3.0	15677268	84	65535
2025-01-04 23:42:25.27	29.16	70.05	-62.3	-87.5	3.0	15685653	84	65535
2025-01-04 23:42:25.70	29.29	70.24	-62.3	-87.5	3.0	15689109	84	65535
2025-01-04 23:42:26.13	29.43	70.44	-62.4	-87.6	3.1	15685203	84	65535
2025-01-04 23:42:26.56	29.56	70.64	-62.3	-87.5	3.0	15684448	84	65535
2025-01-04 23:42:26.99	29.71	70.83	-62.3	-87.5	3.2	15689468	84	65535
2025-01-04 23:42:27.41	29.85	71.03	-62.4	-87.6	3.3	15677299	84	65535
2025-01-04 23:42:27.84	30.00	71.22	-62.3	-87.5	3.0	15690475	84	65535
2025-01-04 23:42:28.26	30.15	71.42	-62.3	-87.5	3.0	15684349	84	65535
2025-01-04 23:42:28.67	30.29	71.60	-62.0	-87.2	3.0	15692749	84	65535
2025-01-04 23:42:29.10	30.45	71.80	-62.4	-87.6	2.9	15673004	84	65535
2025-01-04 23:42:29.52	30.61	72.00	-62.2	-87.4	3.2	15690940	85	65535
2025-01-04 23:42:29.95	30.78	72.19	-62.3	-87.5	3.2	15664169	85	65535
2025-01-04 23:42:30.36	30.94	72.38	-62.2	-87.4	3.2	15657135	85	65535
2025-01-04 23:42:30.78	31.11	72.58	-62.2	-87.4	3.4	15661544	85	65535
2025-01-04 23:42:31.21	31.29	72.78	-62.0	-87.2	3.0	15661544	84	65535
2025-01-04 23:42:31.63	31.46	72.97	-62.3	-87.5	3.2	15690940	84	65535
2025-01-04 23:42:32.04	31.64	73.16	-62.1	-87.3	3.2	15690940	84	65535
2025-01-04 23:42:32.47	31.83	73.36	-61.6	-86.8	3.0	15678749	84	65535
2025-01-04 23:42:32.90	32.03	73.56	-62.3	-87.5	3.0	15687805	84	65535
2025-01-04 23:42:33.32	32.23	73.76	-62.4	-87.6	3.1	15691047	84	65535
2025-01-04 23:42:33.74	32.43	73.95	-62.3	-87.5	3.0	15690917	84	65535
2025-01-04 23:42:34.17	32.64	74.15	-62.3	-87.5	3.0	15681625	84	65535
2025-01-04 23:42:34.57	32.84	74.34	-62.3	-87.5	3.1	15700500	84	65535
2025-01-04 23:42:35.00	33.06	74.54	-62.1	-87.3	3.0	15688919	84	65535
2025-01-04 23:42:35.43	33.29	74.74	-62.3	-87.6	3.1	15670959	84	65535
2025-01-04 23:42:35.86	33.52	74.94	-62.2	-87.4	2.9	15680305	84	65535
2025-01-04 23:42:36.29	33.77	75.14	-62.4	-87.6	3.2	15698905	84	65535
2025-01-04 23:42:36.72	34.01	75.34	-62.4	-87.6	3.3	15695587	84	65535
2025-01-04 23:42:37.15	34.27	75.54	-62.3	-87.5	3.0	15688598	84	65535
2025-01-04 23:42:37.57	34.52	75.74	-61.4	-86.6	3.0	15684738	84	65535
2025-01-04 23:42:38.00	34.80	75.94	-62.4	-87.6	3.1	15695648	84	65535
2025-01-04 23:42:38.41	35.06	76.13	-62.3	-87.6	3.1	15684631	84	65535
2025-01-04 23:42:38.83	35.34	76.33	-62.3	-87.5	3.2	15686103	85	65535
2025-01-04 23:42:39.26	35.63	76.53	-60.6	-85.8	3.4	15673423	82	65535
2025-01-04 23:42:39.66	35.92	76.71	-62.3	-87.6	3.1	15689971	84	65535
2025-01-04 23:42:40.08	36.22	76.91	-62.4	-87.6	3.1	15698577	84	65535
2025-01-04 23:42:40.49	36.53	77.10	-62.0	-87.2	2.9	15693183	84	65535
2025-01-04 23:42:40.91	36.85	77.30	-61.7	-86.9	3.0	15710296	84	65535
2025-01-04 23:42:41.34	37.20	77.50	-62.4	-87.6	3.0	15684631	84	65535
2025-01-04 23:42:41.77	37.55	77.70	-62.4	-87.6	3.2	15692222	84	65535
2025-01-04 23:42:42.17	37.89	77.88	-62.3	-87.5	3.0	15688354	84	65535
2025-01-04 23:42:42.59	38.26	78.08	-61.0	-86.2	3.1	15689308	83	65535
2025-01-04 23:42:43.02	38.65	78.28	-62.4	-87.6	3.0	15689308	84	65535
2025-01-04 23:42:43.45	39.06	78.48	-62.3	-87.5	3.1	15682174	85	65535
2025-01-04 23:42:43.87	39.46	78.67	-62.3	-87.5	3.2	15682174	85	65535
2025-01-04 23:42:44.30	39.90	78.87	-60.7	-85.9	3.6	15663574	82	65535
2025-01-04 23:42:44.71	40.33	79.06	-62.4	-87.6	3.1	15652168	84	65535
2025-01-04 23:42:45.13	40.78	79.25	-62.3	-87.5	3.0	15688072	84	65535
2025-01-04 23:42:45.56	41.27	79.45	-62.3	-87.5	3.0	15685310	84	65535
2025-01-04 23:42:45.99	41.77	79.64	-61.5	-86.7	3.0	15675575	82	65535
2025-01-04 23:42:46.42	42.29	79.84	-62.3	-87.5	3.2	15697021	84	65535
2025-01-04 23:42:46.85	42.83	80.03	-62.3	-87.5	3.2	15695175	85	65535
2025-01-04 23:42:47.28	43.40	80.23	-62.3	-87.5	3.3	15665481	85	65535
2025-01-04 23:42:47.70	43.97	80.42	-62.3	-87.6	2.4	15663452	84	65535
2025-01-04 23:42:48.12	44.57	80.60	-62.3	-87.5	3.1	15675796	85	65535
2025-01-04 23:42:48.55	45.20	80.80	-62.3	-87.5	3.2	15679542	85	65535
2025-01-04 23:42:48.95	45.82	80.97	-62.3	-87.5	3.4	15668869	85	65535
2025-01-04 23:42:49.36	46.48	81.16	-60.7	-85.9	3.4	15654312	82	65535
2025-01-04 23:42:49.80	47.21	81.35	-62.3	-87.5	3.0	15676467	84	65535
2025-01-04 23:42:50.23	47.97	81.54	-62.0	-87.2	3.0	15685096	84	65535
2025-01-04 23:42:50.66	48.75	81.72	-62.4	-87.6	3.2	15684356	84	65535
2025-01-04 23:42:51.07	49.54	81.90	-62.4	-87.6	3.0	15692237	84	65535
2025-01-04 23:42:51.50	50.40	82.08	-62.3	-87.5	3.0	15690811	84	65535
2025-01-04 23:42:51.92	51.28	82.26	-62.2	-87.4	3.0	15698165	84	65535
2025-01-04 23:42:52.35	52.22	82.44	-62.3	-87.5	3.3	15678359	84	65535
2025-01-04 23:42:52.78	53.22	82.62	-62.3	-87.5	3.0	15694541	84	65535
2025-01-04 23:42:53.20	54.23	82.79	-62.0	-87.2	3.0	15704261	84	65535
2025-01-04 23:42:53.60	55.24	82.95	-62.3	-87.5	3.0	15679794	84	65535
2025-01-04 23:42:54.03	56.38	83.12	-62.4	-87.6	3.3	15680931	84	65535
2025-01-04 23:42:54.45	57.55	83.28	-62.8	-88.0	3.0	15678703	85	65535
2025-01-04 23:42:54.88	58.81	83.45	-62.0	-87.2	3.2	15666610	85	65535
2025-01-04 23:42:55.31	60.14	83.61	-62.3	-87.5	3.4	15654464	85	65535
2025-01-04 23:42:55.74	61.53	83.77	-62.3	-87.5	3.2	15652343	85	65535
2025-01-04 23:42:56.15	62.92	83.92	-62.3	-87.5	2.9	15659828	84	65535
2025-01-04 23:42:56.58	64.46	84.07	-62.4	-87.6	2.9	15698493	84	65535
2025-01-04 23:42:57.01	66.08	84.21	-62.4	-87.6	2.9	15682151	84	65535
2025-01-04 23:42:57.43	67.73	84.35	-62.3	-87.5	3.1	15688430	84	65535
2025-01-04 23:42:57.86	69.52	84.49	-62.1	-87.3	3.0	15688430	84	65535
2025-01-04 23:42:58.29	71.39	84.62	-62.4	-87.6	3.0	15693847	84	65535
2025-01-04 23:42:58.72	73.36	84.75	-62.3	-87.6	3.2	15693847	84	65535
2025-01-04 23:42:59.14	75.36	84.86	-62.3	-87.5	3.0	15693138	84	65535
2025-01-04 23:42:59.55	77.41	84.97	-62.3	-87.6	3.0	15688056	84	65535
2025-01-04 23:42:59.97	79.60	85.07	-62.4	-87.6	2.9	15689697	84	65535
2025-01-04 23:43:00.39	81.88	85.17	-62.4	-87.6	2.9	15672447	84	65535
2025-01-04 23:43:00.82	84.31	85.26	-62.4	-87.6	2.9	15694763	84	65535
2025-01-04 23:43:01.25	86.82	85.34	-62.3	-87.5	2.9	15698669	84	65535
2025-01-04 23:43:01.66	89.30	85.41	-62.4	-87.6	2.9	15688804	84	65535
2025-01-04 23:43:02.09	91.97	85.47	-62.4	-87.6	3.1	15676338	84	65535
2025-01-04 23:43:02.52	94.71	85.52	-62.3	-87.5	3.1	15691436	85	65535
2025-01-04 23:43:02.94	97.44	85.56	-62.4	-87.6	2.9	15661308	84	65535
2025-01-04 23:43:03.36	100.22	85.59	-62.4	-87.6	3.0	15681114	84	65535
2025-01-04 23:43:03.79	103.10	85.61	-62.3	-87.5	3.1	15676902	84	65535
2025-01-04 23:43:04.22	106.00	85.62	-62.4	-87.6	2.9	15693359	84	65535
2025-01-04 23:43:04.65	108.90	85.62	-62.4	-87.6	3.3	15690429	84	65535
2025-01-04 23:43:05.08	111.79	85.61	-62.4	-87.6	2.9	15690971	84	65535
2025-01-04 23:43:05.51	114.66	85.59	-62.4	-87.6	2.9	15692283	84	65535
2025-01-04 23:43:05.94	117.49	85.55	-62.4	-87.6	3.0	15698478	84	65535
2025-01-04 23:43:06.37	120.27	85.51	-62.4	-87.6	2.9	15696914	84	65535
2025-01-04 23:43:06.78	122.87	85.45	-62.2	-87.4	3.1	15687942	84	65535
2025-01-04 23:43:07.21	125.52	85.39	-62.1	-87.4	2.9	15682785	84	65535
2025-01-04 23:43:07.63	128.03	85.31	-62.1	-87.3	3.1	15689888	84	65535
2025-01-04 23:43:08.06	130.52	85.23	-62.3	-87.5	3.2	15693038	84	65535
2025-01-04 23:43:08.49	132.92	85.14	-62.1	-87.3	3.0	15701278	84	65535
2025-01-04 23:43:08.91	135.17	85.04	-62.1	-87.3	3.0	15684608	84	65535
2025-01-04 23:43:09.34	137.38	84.93	-62.1	-87.3	3.0	15683364	84	65535
2025-01-04 23:43:09.74	139.35	84.83	-62.2	-87.4	3.0	15700622	84	65535
2025-01-04 23:43:10.16	141.34	84.71	-62.3	-87.5	3.0	15691345	84	65535
2025-01-04 23:43:10.57	143.19	84.59	-62.4	-87.6	3.0	15691009	84	65535
2025-01-04 23:43:10.99	144.99	84.46	-62.4	-87.6	3.0	15681205	84	65535
2025-01-04 23:43:11.42	146.76	84.32	-62.4	-87.6	2.9	15681205	84	65535
2025-01-04 23:43:11.84	148.40	84.18	-62.3	-87.5	2.9	15691261	84	65535
2025-01-04 23:43:12.27	150.00	84.03	-62.3	-87.6	2.9	15691261	84	65535
2025-01-04 23:43:12.68	151.45	83.89	-62.1	-87.3	3.3	15685722	84	65535
2025-01-04 23:43:13.11	152.89	83.73	-62.3	-87.5	3.0	15691680	85	65535
2025-01-04 23:43:13.53	154.24	83.58	-62.3	-87.5	3.2	15689193	85	65535
2025-01-04 23:43:13.96	155.55	83.41	-62.3	-87.5	3.4	15668754	85	65535
2025-01-04 23:43:14.39	156.80	83.25	-62.3	-87.5	3.2	15656425	85	65535
2025-01-04 23:43:14.82	157.98	83.08	-62.3	-87.5	3.2	15661537	85	65535
2025-01-04 23:43:15.24	159.08	82.91	-62.3	-87.5	3.2	15666725	85	65535
2025-01-04 23:43:15.67	160.16	82.74	-62.3	-87.5	3.2	15662376	85	65535
2025-01-04 23:43:16.07	161.11	82.57	-62.4	-87.6	3.2	15656707	85	65535
2025-01-04 23:43:16.50	162.09	82.39	-62.3	-87.5	3.0	15655975	84	65535
2025-01-04 23:43:16.92	163.01	82.22	-62.4	-87.6	3.0	15690910	84	65535
2025-01-04 23:43:17.35	163.90	82.04	-62.3	-87.5	3.2	15693115	84	65535
2025-01-04 23:43:17.78	164.75	81.85	-62.0	-87.2	3.0	15684623	84	65535
2025-01-04 23:43:18.21	165.56	81.67	-62.3	-87.5	3.0	15689575	84	65535
2025-01-04 23:43:18.62	166.31	81.49	-62.3	-87.5	3.0	15687309	84	65535
2025-01-04 23:43:19.05	167.05	81.30	-62.4	-87.6	3.0	15687690	84	65535
2025-01-04 23:43:19.48	167.77	81.11	-62.3	-87.5	3.0	15685218	84	65535
2025-01-04 23:43:19.89	168.42	80.93	-62.3	-87.5	3.0	15680595	84	65535
2025-01-04 23:43:20.32	169.07	80.74	-62.0	-87.2	3.2	15683921	84	65535
2025-01-04 23:43:20.75	169.70	80.55	-62.4	-87.6	3.0	15683471	84	65535
2025-01-04 23:43:21.18	170.31	80.35	-62.2	-87.4	3.0	15683540	84	65535
2025-01-04 23:43:21.61	170.89	80.16	-62.2	-87.4	3.0	15697189	84	65535
2025-01-04 23:43:22.03	171.43	79.97	-62.2	-87.4	3.3	15676246	84	65535
2025-01-04 23:43:22.46	171.97	79.77	-62.2	-87.4	3.1	15688529	84	65535
2025-01-04 23:43:22.89	172.48	79.58	-62.4	-87.6	3.0	15693534	84	65535
2025-01-04 23:43:23.33	172.99	79.38	-62.3	-87.5	3.0	15682975	84	65535
2025-01-04 23:43:23.76	173.47	79.18	-62.4	-87.6	3.0	15676673	84	65535
2025-01-04 23:43:24.19	173.93	78.98	-62.3	-87.5	3.1	15683456	85	65535
2025-01-04 23:43:24.62	174.37	78.78	-62.1	-87.3	3.1	15679733	85	65535
2025-01-04 23:43:25.03	174.78	78.59	-62.0	-87.3	3.3	15680023	84	65535
2025-01-04 23:43:25.43	175.17	78.41	-62.4	-87.6	3.1	15688568	84	65535
2025-01-04 23:43:25.85	175.56	78.21	-62.4	-87.6	2.9	15694099	84	65535
2025-01-04 23:43:26.28	175.94	78.02	-61.7	-86.9	3.1	15688407	84	65535
2025-01-04 23:43:26.71	176.32	77.82	-62.1	-87.3	3.2	15684677	84	65535
2025-01-04 23:43:27.13	176.67	77.62	-62.4	-87.6	2.9	15683853	84	65535
2025-01-04 23:43:27.54	177.01	77.43	-62.2	-87.4	2.9	15683853	84	65535
2025-01-04 23:43:27.97	177.35	77.23	-60.9	-86.1	3.1	15704093	83	65535
2025-01-04 23:43:28.39	177.67	77.03	-62.1	-87.3	2.9	15689842	84	65535
2025-01-04 23:43:28.82	177.99	76.83	-62.4	-87.6	3.1	15683654	85	65535
2025-01-04 23:43:29.24	178.29	76.64	-62.4	-87.6	3.1	15676315	85	65535
2025-01-04 23:43:29.65	178.57	76.44	-62.4	-87.6	3.1	15657882	85	65535
2025-01-04 23:43:30.08	178.87	76.24	-62.3	-87.5	3.1	15666320	84	65535
2025-01-04 23:43:30.50	179.14	76.05	-62.3	-87.5	3.1	15691413	85	65535
2025-01-04 23:43:30.92	179.41	75.85	-62.4	-87.6	3.1	15682678	85	65535
2025-01-04 23:43:31.35	179.68	75.65	-61.6	-86.8	3.4	15664207	84	65535
2025-01-04 23:43:31.78	179.94	75.45	-62.1	-87.3	3.0	15669471	84	65535
2025-01-04 23:43:32.19	180.18	75.26	-62.0	-87.2	3.0	15703208	84	65535
2025-01-04 23:43:32.62	180.42	75.06	-62.3	-87.5	3.0	15685455	84	65535
2025-01-04 23:43:33.05	180.66	74.85	-60.3	-85.5	3.1	15685470	82	65535
2025-01-04 23:43:33.47	180.89	74.66	-62.3	-87.5	3.0	15689125	84	65535
2025-01-04 23:43:33.90	181.11	74.46	-62.1	-87.3	3.0	15683029	84	65535
2025-01-04 23:43:34.33	181.33	74.26	-62.4	-87.6	3.0	15669464	84	65535
2025-01-04 23:43:34.76	181.55	74.06	-60.5	-85.7	3.2	15685310	82	65535
2025-01-04 23:43:35.19	181.76	73.86	-62.0	-87.2	3.0	15691131	84	65535
2025-01-04 23:43:35.61	181.96	73.66	-62.3	-87.5	3.0	15681732	84	65535
2025-01-04 23:43:36.04	182.15	73.46	-62.0	-87.2	3.3	15682006	84	65535
2025-01-04 23:43:36.45	182.34	73.27	-62.2	-87.4	2.6	15684883	83	65535
2025-01-04 23:43:36.88	182.53	73.07	-62.4	-87.6	3.0	15691535	84	65535
2025-01-04 23:43:37.31	182.71	72.87	-62.3	-87.6	3.3	15702995	84	65535
2025-01-04 23:43:37.73	182.89	72.67	-62.4	-87.6	3.0	15690956	84	65535
2025-01-04 23:43:38.14	183.06	72.48	-62.4	-87.6	1.9	15682975	84	65535
2025-01-04 23:43:38.58	183.23	72.28	-62.4	-87.6	3.0	15696395	84	65535
2025-01-04 23:43:39.01	183.40	72.08	-62.3	-87.5	3.0	15686737	84	65535
2025-01-04 23:43:39.44	183.57	71.88	-62.3	-87.5	3.1	15674743	84	65535
2025-01-04 23:43:39.87	183.73	71.68	-62.3	-87.5	2.8	15678695	84	65535
2025-01-04 23:43:40.30	183.88	71.49	-62.4	-87.6	3.2	15681144	84	65535
2025-01-04 23:43:40.72	184.03	71.29	-62.4	-87.6	3.1	15676391	84	65535
2025-01-04 23:43:41.15	184.18	71.09	-62.4	-87.6	2.9	15685760	84	65535
2025-01-04 23:43:41.58	184.33	70.90	-62.3	-87.5	3.0	15698738	84	65535
2025-01-04 23:43:41.99	184.47	70.71	-62.0	-87.2	3.0	15684051	84	65535
2025-01-04 23:43:42.42	184.61	70.51	-62.4	-87.6	3.1	15685028	84	65535
2025-01-04 23:43:42.83	184.74	70.32	-62.3	-87.5	3.2	15685028	85	65535

#Closed at: 2025-01-04 23:43:43