passes_logs/2025/01/29/Regia/Regia__20250129_105635_AQUA_rec.log

#Pass ID: 20250129_105635_AQUA
#Satellite: AQUA
#Configuration: AQUA
#Start time: 2025-01-29 10:56:40.070091

#LorettStation: 1.0.0 05.05.2024
#Station: Regia
#Location: 37.494653 lon 55.929028 lat
#TLE: 1 27424U 02022A   25028.83695625  .00002371  00000+0  49578-3 0  9994
#TLE: 2 27424  98.3606 345.6276 0002142  96.0893 293.2776 14.60754973209609

#Time	Az	El	Level	SNR
2025-01-29 10:56:42.217951	155.7	15.3	-69.9	0.0
2025-01-29 10:56:43.332961	155.7	15.4	-70.1	0.0
2025-01-29 10:56:44.447816	155.7	15.5	-70.0	0.0
2025-01-29 10:56:45.563608	155.6	15.7	-69.8	0.0
2025-01-29 10:56:46.678489	155.6	15.8	-69.9	0.0
2025-01-29 10:56:47.793343	155.6	15.9	-69.7	0.0
2025-01-29 10:56:48.908202	155.6	16.1	-70.1	0.0
2025-01-29 10:56:50.023400	155.6	16.2	-70.0	0.0
2025-01-29 10:56:51.138386	155.5	16.3	-69.9	0.0
2025-01-29 10:56:52.254577	155.5	16.5	-69.9	0.0
2025-01-29 10:56:53.369681	155.5	16.6	-70.0	0.0
2025-01-29 10:56:54.484540	155.5	16.8	-70.0	0.0
2025-01-29 10:56:55.605760	155.5	16.9	-70.0	0.0
2025-01-29 10:56:56.720987	155.4	17.0	-70.1	0.0
2025-01-29 10:56:57.836688	155.4	17.2	-70.1	0.0
2025-01-29 10:56:58.952758	155.4	17.3	-70.2	0.0
2025-01-29 10:57:00.068616	155.4	17.5	-70.1	0.0
2025-01-29 10:57:01.183467	155.3	17.6	-70.1	0.0
2025-01-29 10:57:02.299217	155.3	17.8	-70.0	0.0
2025-01-29 10:57:03.415246	155.3	17.9	-69.9	0.0
2025-01-29 10:57:04.530098	155.3	18.1	-70.0	0.0
2025-01-29 10:57:05.645802	155.2	18.2	-70.1	0.0
2025-01-29 10:57:06.761843	155.2	18.4	-70.0	0.0
2025-01-29 10:57:07.877203	155.2	18.5	-70.0	0.0
2025-01-29 10:57:08.992053	155.2	18.7	-69.9	0.0
2025-01-29 10:57:10.107176	155.1	18.8	-70.1	0.0
2025-01-29 10:57:11.222309	155.1	19.0	-69.9	0.0
2025-01-29 10:57:12.337148	155.1	19.1	-69.9	0.0
2025-01-29 10:57:13.452008	155.1	19.3	-69.9	0.0
2025-01-29 10:57:14.566863	155.0	19.5	-69.9	0.0
2025-01-29 10:57:15.681720	155.0	19.6	-70.0	0.0
2025-01-29 10:57:16.796570	155.0	19.8	-70.0	0.0
2025-01-29 10:57:17.911573	154.9	19.9	-70.1	0.0
2025-01-29 10:57:19.027432	154.9	20.1	-70.1	0.0
2025-01-29 10:57:20.142291	154.9	20.3	-70.2	0.0
2025-01-29 10:57:21.257586	154.9	20.4	-70.0	0.0
2025-01-29 10:57:22.372534	154.8	20.6	-70.1	0.0
2025-01-29 10:57:23.487714	154.8	20.8	-70.0	0.0
2025-01-29 10:57:24.602953	154.8	20.9	-70.1	0.0
2025-01-29 10:57:25.717812	154.7	21.1	-70.0	0.0
2025-01-29 10:57:26.833665	154.7	21.3	-70.0	0.0
2025-01-29 10:57:27.948685	154.7	21.5	-69.9	0.0
2025-01-29 10:57:29.064545	154.6	21.6	-70.0	0.0
2025-01-29 10:57:30.181402	154.6	21.8	-69.9	0.0
2025-01-29 10:57:31.296252	154.6	22.0	-70.0	0.0
2025-01-29 10:57:32.411111	154.5	22.2	-69.9	0.0
2025-01-29 10:57:33.526968	154.5	22.3	-70.1	0.0
2025-01-29 10:57:34.641603	154.5	22.5	-70.0	0.0
2025-01-29 10:57:35.756319	154.4	22.7	-70.1	0.0
2025-01-29 10:57:36.870784	154.4	22.9	-70.0	0.0
2025-01-29 10:57:37.985643	154.4	23.1	-70.1	0.0
2025-01-29 10:57:39.101498	154.3	23.3	-69.9	0.0
2025-01-29 10:57:40.216352	154.3	23.5	-70.1	0.0
2025-01-29 10:57:41.331205	154.3	23.6	-70.1	0.0
2025-01-29 10:57:42.446018	154.2	23.8	-70.0	0.0
2025-01-29 10:57:43.560878	154.2	24.0	-70.1	0.0
2025-01-29 10:57:44.684765	154.1	24.2	-70.1	0.0
2025-01-29 10:57:45.799620	154.1	24.4	-69.9	0.0
2025-01-29 10:57:46.914474	154.1	24.6	-70.0	0.0
2025-01-29 10:57:48.029606	154.0	24.8	-69.9	0.0
2025-01-29 10:57:49.146469	154.0	25.0	-70.0	0.0
2025-01-29 10:57:50.261328	153.9	25.2	-70.0	0.0
2025-01-29 10:57:51.375775	153.9	25.4	-70.0	0.0
2025-01-29 10:57:52.490739	153.8	25.6	-70.0	0.0
2025-01-29 10:57:53.605592	153.8	25.8	-70.0	0.0
2025-01-29 10:57:54.720359	153.8	26.1	-70.2	0.0
2025-01-29 10:57:55.836223	153.7	26.3	-69.9	0.0
2025-01-29 10:57:56.952422	153.7	26.5	-70.1	0.0
2025-01-29 10:57:58.068355	153.6	26.7	-70.1	0.0
2025-01-29 10:57:59.184325	153.6	26.9	-70.0	0.0
2025-01-29 10:58:00.302508	153.5	27.1	-70.1	0.0
2025-01-29 10:58:01.417363	153.5	27.3	-70.1	0.0
2025-01-29 10:58:02.533234	153.4	27.6	-70.0	0.0
2025-01-29 10:58:03.647832	153.4	27.8	-70.1	0.0
2025-01-29 10:58:04.762794	153.3	28.0	-70.1	0.0
2025-01-29 10:58:05.877477	153.3	28.2	-70.0	0.0
2025-01-29 10:58:06.992502	153.2	28.5	-69.9	0.0
2025-01-29 10:58:08.107356	153.2	28.7	-69.9	0.0
2025-01-29 10:58:09.222216	153.1	28.9	-70.1	0.0
2025-01-29 10:58:10.338369	153.1	29.2	-69.9	0.0
2025-01-29 10:58:11.453098	153.0	29.4	-70.1	0.0
2025-01-29 10:58:12.567949	152.9	29.7	-70.1	0.0
2025-01-29 10:58:13.683807	152.9	29.9	-70.1	0.0
2025-01-29 10:58:14.798667	152.8	30.1	-69.9	0.0
2025-01-29 10:58:15.913351	152.8	30.4	-70.0	0.0
2025-01-29 10:58:17.028960	152.7	30.6	-70.0	0.0
2025-01-29 10:58:18.144812	152.7	30.9	-70.1	0.0
2025-01-29 10:58:19.259663	152.6	31.1	-70.0	0.0
2025-01-29 10:58:20.376097	152.5	31.4	-70.1	0.0
2025-01-29 10:58:21.490429	152.5	31.7	-69.9	0.0
2025-01-29 10:58:22.607363	152.4	31.9	-70.1	0.0
2025-01-29 10:58:23.722191	152.3	32.2	-70.0	0.0
2025-01-29 10:58:24.837402	152.3	32.5	-70.1	0.0
2025-01-29 10:58:25.952254	152.2	32.7	-70.2	0.0
2025-01-29 10:58:27.067114	152.1	33.0	-70.0	0.0
2025-01-29 10:58:28.182971	152.0	33.3	-70.0	0.0
2025-01-29 10:58:29.297825	152.0	33.5	-70.1	0.0
2025-01-29 10:58:30.412957	151.9	33.8	-70.2	0.0
2025-01-29 10:58:31.527795	151.8	34.1	-69.9	0.0
2025-01-29 10:58:32.643141	151.7	34.4	-70.1	0.0
2025-01-29 10:58:33.758001	151.7	34.7	-70.0	0.0
2025-01-29 10:58:34.872852	151.6	35.0	-70.0	0.0
2025-01-29 10:58:35.987704	151.5	35.3	-70.2	0.0
2025-01-29 10:58:37.102327	151.4	35.5	-69.8	0.0
2025-01-29 10:58:38.217079	151.3	35.8	-70.0	0.0
2025-01-29 10:58:39.332942	151.2	36.1	-70.1	0.0
2025-01-29 10:58:40.447794	151.2	36.4	-70.0	0.0
2025-01-29 10:58:41.562486	151.1	36.8	-69.6	0.0
2025-01-29 10:58:42.677338	151.0	37.1	-70.1	0.0
2025-01-29 10:58:43.792192	150.9	37.4	-70.0	0.0
2025-01-29 10:58:44.907213	150.8	37.7	-70.0	0.0
2025-01-29 10:58:46.023055	150.7	38.0	-70.1	0.0
2025-01-29 10:58:47.139160	150.6	38.3	-70.0	0.0
2025-01-29 10:58:48.254258	150.5	38.7	-69.9	0.0
2025-01-29 10:58:49.369109	150.4	39.0	-70.1	0.0
2025-01-29 10:58:50.483555	150.3	39.3	-70.0	0.0
2025-01-29 10:58:51.599872	150.2	39.7	-70.1	0.0
2025-01-29 10:58:52.715198	150.0	40.0	-70.2	0.0
2025-01-29 10:58:53.830053	149.9	40.3	-70.1	0.0
2025-01-29 10:58:54.944850	149.8	40.7	-69.9	0.0
2025-01-29 10:58:56.060119	149.7	41.0	-70.0	0.0
2025-01-29 10:58:57.176515	149.6	41.4	-70.1	0.0
2025-01-29 10:58:58.296251	149.5	41.7	-70.2	0.0
2025-01-29 10:58:59.411771	149.3	42.1	-70.2	0.0
2025-01-29 10:59:00.526622	149.2	42.4	-70.1	0.0
2025-01-29 10:59:01.641654	149.1	42.8	-70.0	0.0
2025-01-29 10:59:02.756500	148.9	43.2	-70.0	0.0
2025-01-29 10:59:03.871360	148.8	43.6	-70.0	0.0
2025-01-29 10:59:04.986214	148.6	43.9	-69.9	0.0
2025-01-29 10:59:06.101068	148.5	44.3	-70.0	0.0
2025-01-29 10:59:07.216075	148.3	44.7	-70.0	0.0
2025-01-29 10:59:08.331930	148.2	45.1	-70.0	0.0
2025-01-29 10:59:09.446784	148.0	45.5	-70.1	0.0
2025-01-29 10:59:10.561641	147.9	45.9	-70.2	0.0
2025-01-29 10:59:11.676495	147.7	46.3	-69.9	0.0
2025-01-29 10:59:12.791347	147.5	46.7	-70.0	0.0
2025-01-29 10:59:13.906586	147.3	47.1	-70.0	0.0
2025-01-29 10:59:15.021437	147.2	47.5	-70.1	0.0
2025-01-29 10:59:16.137301	147.0	47.9	-70.1	0.0
2025-01-29 10:59:17.252154	146.8	48.3	-70.1	0.0
2025-01-29 10:59:18.366869	146.6	48.7	-69.9	0.0
2025-01-29 10:59:19.482081	146.4	49.2	-70.1	0.0
2025-01-29 10:59:20.596933	146.2	49.6	-70.1	0.0
2025-01-29 10:59:21.711791	146.0	50.0	-70.1	0.0
2025-01-29 10:59:22.826643	145.7	50.5	-69.9	0.0
2025-01-29 10:59:23.942499	145.5	50.9	-70.1	0.0
2025-01-29 10:59:25.057254	145.3	51.3	-70.0	0.0
2025-01-29 10:59:26.172327	145.0	51.8	-70.1	0.0
2025-01-29 10:59:27.288186	144.8	52.2	-70.0	0.0
2025-01-29 10:59:28.403045	144.5	52.7	-70.0	0.0
2025-01-29 10:59:29.517899	144.3	53.2	-70.0	0.0
2025-01-29 10:59:30.632761	144.0	53.6	-70.1	0.0
2025-01-29 10:59:31.747801	143.7	54.1	-70.1	0.0
2025-01-29 10:59:32.862645	143.4	54.6	-70.1	0.0
2025-01-29 10:59:33.977516	143.1	55.0	-70.0	0.0
2025-01-29 10:59:35.093362	142.8	55.5	-70.0	0.0
2025-01-29 10:59:36.208146	142.5	56.0	-69.9	0.0
2025-01-29 10:59:37.322911	142.1	56.5	-70.1	0.0
2025-01-29 10:59:38.438769	141.8	57.0	-70.0	0.0
2025-01-29 10:59:39.554615	141.4	57.5	-70.1	0.0
2025-01-29 10:59:40.669475	141.1	58.0	-70.0	0.0
2025-01-29 10:59:41.784326	140.7	58.5	-70.0	0.0
2025-01-29 10:59:42.899178	140.3	59.0	-70.1	0.0
2025-01-29 10:59:44.014026	139.8	59.5	-70.1	0.0
2025-01-29 10:59:45.132206	139.4	60.0	-70.1	0.0
2025-01-29 10:59:46.248063	139.0	60.5	-70.0	0.0
2025-01-29 10:59:47.363292	138.5	61.0	-70.1	0.0
2025-01-29 10:59:48.478275	138.0	61.5	-70.2	0.0
2025-01-29 10:59:49.592848	137.5	62.0	-69.8	0.0
2025-01-29 10:59:50.707626	136.9	62.5	-69.9	0.0
2025-01-29 10:59:51.822478	136.4	63.1	-70.0	0.0
2025-01-29 10:59:52.937925	135.8	63.6	-70.0	0.0
2025-01-29 10:59:54.052819	135.2	64.1	-69.9	0.0
2025-01-29 10:59:55.168655	134.5	64.6	-70.1	0.0
2025-01-29 10:59:56.282995	133.9	65.2	-69.9	0.0
2025-01-29 10:59:57.398779	133.2	65.7	-70.1	0.0
2025-01-29 10:59:58.513638	132.4	66.2	-70.0	0.0
2025-01-29 10:59:59.628494	131.6	66.7	-70.0	0.0
2025-01-29 11:00:00.743349	130.8	67.3	-70.0	0.0
2025-01-29 11:00:01.858556	130.0	67.8	-70.0	0.0
2025-01-29 11:00:02.973684	129.1	68.3	-70.0	0.0
2025-01-29 11:00:04.088638	128.1	68.8	-70.2	0.0
2025-01-29 11:00:05.203497	127.1	69.3	-70.0	0.0
2025-01-29 11:00:06.318850	126.0	69.9	-70.2	0.0
2025-01-29 11:00:07.434993	124.9	70.4	-70.0	0.0
2025-01-29 11:00:08.549746	123.7	70.9	-70.1	0.0
2025-01-29 11:00:09.664878	122.5	71.4	-70.2	0.0
2025-01-29 11:00:10.780736	121.1	71.9	-70.1	0.0
2025-01-29 11:00:11.895593	119.7	72.3	-70.2	0.0
2025-01-29 11:00:13.010742	118.2	72.8	-69.9	0.0
2025-01-29 11:00:14.126597	116.7	73.3	-70.1	0.0
2025-01-29 11:00:15.242452	115.0	73.8	-70.1	0.0
2025-01-29 11:00:16.358304	113.2	74.2	-70.0	0.0
2025-01-29 11:00:17.474156	111.3	74.6	-70.2	0.0
2025-01-29 11:00:18.589007	109.4	75.0	-70.1	0.0
2025-01-29 11:00:19.709880	107.2	75.4	-70.1	0.0
2025-01-29 11:00:20.824851	105.0	75.8	-69.9	0.0
2025-01-29 11:00:21.940891	102.7	76.2	-70.0	0.0
2025-01-29 11:00:23.055841	100.2	76.5	-70.1	0.0
2025-01-29 11:00:24.171704	97.6	76.8	-70.2	0.0
2025-01-29 11:00:25.286795	94.9	77.1	-70.0	0.0
2025-01-29 11:00:26.401647	92.0	77.4	-70.0	0.0
2025-01-29 11:00:27.517504	89.1	77.6	-70.0	0.0
2025-01-29 11:00:28.632174	86.0	77.8	-70.2	0.0
2025-01-29 11:00:29.747033	82.9	77.9	-70.0	0.0
2025-01-29 11:00:30.862361	79.7	78.0	-70.0	0.0
2025-01-29 11:00:31.977217	76.4	78.1	-70.1	0.0
2025-01-29 11:00:33.092878	73.1	78.2	-70.0	0.0
2025-01-29 11:00:34.207237	69.8	78.2	-70.0	0.0
2025-01-29 11:00:35.323092	66.4	78.1	-70.0	0.0
2025-01-29 11:00:36.437952	63.2	78.1	-70.1	0.0
2025-01-29 11:00:37.553641	59.9	78.0	-69.9	0.0
2025-01-29 11:00:38.669388	56.8	77.8	-70.0	0.0
2025-01-29 11:00:39.785344	53.7	77.6	-70.0	0.0
2025-01-29 11:00:40.900199	50.7	77.4	-70.0	0.0
2025-01-29 11:00:42.015021	47.9	77.2	-70.1	0.0
2025-01-29 11:00:43.132889	45.1	76.9	-70.0	0.0
2025-01-29 11:00:44.247804	42.5	76.6	-70.1	0.0
2025-01-29 11:00:45.363617	40.0	76.2	-70.0	0.0
2025-01-29 11:00:46.479680	37.6	75.9	-70.1	0.0
2025-01-29 11:00:47.597161	35.4	75.5	-70.1	0.0
2025-01-29 11:00:48.712021	33.2	75.1	-70.0	0.0
2025-01-29 11:00:49.826874	31.2	74.7	-70.1	0.0
2025-01-29 11:00:50.941725	29.3	74.3	-70.0	0.0
2025-01-29 11:00:52.057582	27.5	73.8	-70.1	0.0
2025-01-29 11:00:53.172849	25.9	73.4	-70.1	0.0
2025-01-29 11:00:54.287708	24.3	72.9	-70.1	0.0
2025-01-29 11:00:55.402560	22.8	72.5	-70.1	0.0
2025-01-29 11:00:56.519396	21.3	72.0	-70.0	0.0
2025-01-29 11:00:57.635340	20.0	71.5	-69.9	0.0
2025-01-29 11:00:58.751103	18.7	71.0	-69.9	0.0
2025-01-29 11:00:59.865841	17.5	70.5	-70.0	0.0
2025-01-29 11:01:00.980692	16.4	70.0	-70.1	0.0
2025-01-29 11:01:02.096728	15.3	69.5	-70.0	0.0
2025-01-29 11:01:03.211476	14.3	68.9	-69.9	0.0
2025-01-29 11:01:04.326392	13.3	68.4	-70.3	0.0
2025-01-29 11:01:05.441922	12.4	67.9	-70.1	0.0
2025-01-29 11:01:06.556781	11.6	67.4	-70.1	0.0
2025-01-29 11:01:07.672636	10.7	66.9	-70.1	0.0
2025-01-29 11:01:08.787415	10.0	66.3	-70.1	0.0
2025-01-29 11:01:09.902461	9.2	65.8	-70.1	0.0
2025-01-29 11:01:11.017134	8.5	65.3	-70.0	0.0
2025-01-29 11:01:12.131791	7.8	64.8	-70.0	0.0
2025-01-29 11:01:13.247655	7.2	64.2	-70.0	0.0
2025-01-29 11:01:14.362588	6.6	63.7	-70.1	0.0
2025-01-29 11:01:15.477586	6.0	63.2	-70.0	0.0
2025-01-29 11:01:16.592442	5.4	62.7	-70.1	0.0
2025-01-29 11:01:17.707291	4.9	62.2	-70.0	0.0
2025-01-29 11:01:18.822151	4.3	61.6	-70.0	0.0
2025-01-29 11:01:19.937007	3.8	61.1	-70.1	0.0
2025-01-29 11:01:21.052764	3.4	60.6	-70.0	0.0
2025-01-29 11:01:22.167606	2.9	60.1	-70.1	0.0
2025-01-29 11:01:23.282455	2.5	59.6	-70.0	0.0
2025-01-29 11:01:24.398313	2.0	59.1	-70.1	0.0
2025-01-29 11:01:25.514173	1.6	58.6	-69.9	0.0
2025-01-29 11:01:26.631031	1.2	58.1	-70.1	0.0
2025-01-29 11:01:27.745742	0.9	57.6	-70.1	0.0
2025-01-29 11:01:28.860599	0.5	57.1	-70.0	0.0
2025-01-29 11:01:29.976454	0.1	56.6	-70.1	0.0
2025-01-29 11:01:31.091313	359.8	56.1	-70.1	0.0
2025-01-29 11:01:32.206375	359.5	55.7	-70.0	0.0
2025-01-29 11:01:33.321230	359.2	55.2	-70.1	0.0
2025-01-29 11:01:34.437089	358.9	54.7	-70.1	0.0
2025-01-29 11:01:35.551892	358.6	54.2	-70.1	0.0
2025-01-29 11:01:36.667751	358.3	53.8	-70.0	0.0
2025-01-29 11:01:37.784105	358.0	53.3	-70.2	0.0
2025-01-29 11:01:38.899458	357.7	52.8	-70.2	0.0
2025-01-29 11:01:40.014309	357.5	52.4	-70.1	0.0
2025-01-29 11:01:41.129161	357.2	51.9	-70.2	0.0
2025-01-29 11:01:42.247022	357.0	51.5	-70.0	0.0
2025-01-29 11:01:43.361882	356.8	51.0	-70.2	0.0
2025-01-29 11:01:44.476987	356.5	50.6	-70.0	0.0
2025-01-29 11:01:45.592839	356.3	50.2	-70.0	0.0
2025-01-29 11:01:46.708032	356.1	49.7	-70.2	0.0
2025-01-29 11:01:47.822883	355.9	49.3	-70.1	0.0
2025-01-29 11:01:48.938739	355.7	48.9	-70.0	0.0
2025-01-29 11:01:50.053599	355.5	48.5	-70.2	0.0
2025-01-29 11:01:51.169453	355.3	48.0	-70.2	0.0
2025-01-29 11:01:52.284767	355.1	47.6	-70.0	0.0
2025-01-29 11:01:53.400624	354.9	47.2	-70.1	0.0
2025-01-29 11:01:54.516480	354.7	46.8	-70.1	0.0
2025-01-29 11:01:55.630956	354.6	46.4	-70.0	0.0
2025-01-29 11:01:56.745811	354.4	46.0	-70.2	0.0
2025-01-29 11:01:57.861666	354.2	45.6	-69.9	0.0
2025-01-29 11:01:58.976616	354.1	45.2	-70.1	0.0
2025-01-29 11:02:00.091866	353.9	44.9	-70.1	0.0
2025-01-29 11:02:01.207726	353.8	44.5	-70.2	0.0
2025-01-29 11:02:02.324933	353.6	44.1	-70.0	0.0
2025-01-29 11:02:03.442798	353.5	43.7	-70.1	0.0
2025-01-29 11:02:04.557653	353.3	43.3	-70.1	0.0
2025-01-29 11:02:05.672507	353.2	43.0	-70.0	0.0
2025-01-29 11:02:06.787360	353.1	42.6	-70.0	0.0
2025-01-29 11:02:07.902215	352.9	42.2	-70.1	0.0
2025-01-29 11:02:09.017067	352.8	41.9	-69.9	0.0
2025-01-29 11:02:10.131920	352.7	41.5	-70.1	0.0
2025-01-29 11:02:11.247718	352.6	41.2	-70.1	0.0
2025-01-29 11:02:12.362945	352.4	40.8	-70.1	0.0
2025-01-29 11:02:13.478231	352.3	40.5	-70.1	0.0
2025-01-29 11:02:14.594094	352.2	40.2	-69.9	0.0
2025-01-29 11:02:15.709107	352.1	39.8	-70.1	0.0
2025-01-29 11:02:16.823962	352.0	39.5	-70.0	0.0
2025-01-29 11:02:17.938814	351.9	39.2	-69.8	0.0
2025-01-29 11:02:19.054670	351.8	38.8	-70.0	0.0
2025-01-29 11:02:20.170533	351.7	38.5	-69.9	0.0
2025-01-29 11:02:21.285369	351.6	38.2	-70.1	0.0
2025-01-29 11:02:22.401328	351.5	37.9	-69.9	0.0
2025-01-29 11:02:23.516182	351.4	37.5	-70.2	0.0
2025-01-29 11:02:24.630934	351.3	37.2	-70.1	0.0
2025-01-29 11:02:25.745790	351.2	36.9	-70.0	0.0
2025-01-29 11:02:26.860644	351.1	36.6	-70.1	0.0
2025-01-29 11:02:27.975735	351.0	36.3	-70.1	0.0
2025-01-29 11:02:29.091593	350.9	36.0	-70.1	0.0
2025-01-29 11:02:30.212387	350.8	35.7	-70.0	0.0
2025-01-29 11:02:31.329242	350.8	35.4	-70.0	0.0
2025-01-29 11:02:32.444097	350.7	35.1	-70.2	0.0
2025-01-29 11:02:33.559961	350.6	34.8	-70.0	0.0
2025-01-29 11:02:34.674813	350.5	34.6	-70.1	0.0
2025-01-29 11:02:35.790669	350.4	34.3	-70.0	0.0
2025-01-29 11:02:36.905521	350.4	34.0	-70.1	0.0
2025-01-29 11:02:38.020247	350.3	33.7	-70.1	0.0
2025-01-29 11:02:39.135106	350.2	33.4	-70.0	0.0
2025-01-29 11:02:40.251149	350.1	33.2	-69.9	0.0
2025-01-29 11:02:41.365582	350.1	32.9	-70.1	0.0
2025-01-29 11:02:42.480405	350.0	32.6	-70.0	0.0
2025-01-29 11:02:43.595031	349.9	32.4	-70.2	0.0
2025-01-29 11:02:44.710893	349.9	32.1	-70.1	0.0
2025-01-29 11:02:45.825705	349.8	31.8	-70.2	0.0
2025-01-29 11:02:46.940559	349.7	31.6	-70.2	0.0
2025-01-29 11:02:48.056416	349.7	31.3	-70.1	0.0
2025-01-29 11:02:49.171271	349.6	31.1	-70.1	0.0
2025-01-29 11:02:50.286331	349.5	30.8	-70.1	0.0
2025-01-29 11:02:51.401187	349.5	30.6	-70.1	0.0
2025-01-29 11:02:52.518038	349.4	30.3	-70.2	0.0
2025-01-29 11:02:53.632893	349.4	30.1	-70.1	0.0
2025-01-29 11:02:54.748751	349.3	29.8	-70.2	0.0
2025-01-29 11:02:55.863603	349.3	29.6	-70.1	0.0
2025-01-29 11:02:56.978463	349.2	29.4	-69.9	0.0
2025-01-29 11:02:58.093316	349.1	29.1	-70.1	0.0
2025-01-29 11:02:59.209371	349.1	28.9	-70.1	0.0
2025-01-29 11:03:00.325107	349.0	28.7	-69.9	0.0
2025-01-29 11:03:01.442168	349.0	28.4	-70.1	0.0
2025-01-29 11:03:02.557339	348.9	28.2	-70.0	0.0
2025-01-29 11:03:03.673202	348.9	28.0	-70.1	0.0
2025-01-29 11:03:04.788368	348.8	27.7	-70.1	0.0
2025-01-29 11:03:05.904224	348.8	27.5	-69.9	0.0
2025-01-29 11:03:07.019076	348.7	27.3	-70.1	0.0
2025-01-29 11:03:08.134925	348.7	27.1	-70.1	0.0
2025-01-29 11:03:09.255805	348.6	26.9	-70.1	0.0
2025-01-29 11:03:10.370454	348.6	26.7	-70.0	0.0
2025-01-29 11:03:11.485307	348.6	26.4	-70.0	0.0
2025-01-29 11:03:12.601044	348.5	26.2	-70.0	0.0
2025-01-29 11:03:13.715758	348.5	26.0	-70.1	0.0
2025-01-29 11:03:14.830612	348.4	25.8	-69.9	0.0
2025-01-29 11:03:15.945473	348.4	25.6	-70.1	0.0
2025-01-29 11:03:17.060327	348.3	25.4	-70.1	0.0
2025-01-29 11:03:18.175350	348.3	25.2	-70.1	0.0
2025-01-29 11:03:19.291682	348.3	25.0	-70.1	0.0
2025-01-29 11:03:20.407587	348.2	24.8	-70.0	0.0
2025-01-29 11:03:21.522445	348.2	24.6	-69.8	0.0
2025-01-29 11:03:22.637478	348.1	24.4	-70.2	0.0
2025-01-29 11:03:23.753331	348.1	24.2	-70.1	0.0
2025-01-29 11:03:24.868183	348.1	24.0	-70.1	0.0
2025-01-29 11:03:25.985042	348.0	23.8	-70.0	0.0
2025-01-29 11:03:27.104914	348.0	23.6	-70.1	0.0
2025-01-29 11:03:28.219774	347.9	23.5	-70.1	0.0
2025-01-29 11:03:29.335630	347.9	23.3	-70.1	0.0
2025-01-29 11:03:30.450793	347.9	23.1	-70.1	0.0
2025-01-29 11:03:31.565647	347.8	22.9	-70.2	0.0
2025-01-29 11:03:32.680265	347.8	22.7	-70.2	0.0
2025-01-29 11:03:33.795125	347.8	22.5	-70.1	0.0
2025-01-29 11:03:34.909928	347.7	22.4	-70.1	0.0
2025-01-29 11:03:36.025160	347.7	22.2	-70.0	0.0
2025-01-29 11:03:37.140012	347.7	22.0	-70.0	0.0
2025-01-29 11:03:38.255861	347.6	21.8	-70.0	0.0
2025-01-29 11:03:39.370722	347.6	21.7	-69.9	0.0
2025-01-29 11:03:40.485700	347.6	21.5	-70.0	0.0
2025-01-29 11:03:41.600947	347.5	21.3	-70.0	0.0
2025-01-29 11:03:42.715789	347.5	21.1	-70.1	0.0
2025-01-29 11:03:43.831924	347.5	21.0	-70.1	0.0
2025-01-29 11:03:44.949121	347.5	20.8	-70.0	0.0
2025-01-29 11:03:46.063980	347.4	20.6	-70.0	0.0
2025-01-29 11:03:47.179157	347.4	20.5	-70.0	0.0
2025-01-29 11:03:48.295516	347.4	20.3	-70.1	0.0
2025-01-29 11:03:49.411680	347.3	20.1	-70.1	0.0
2025-01-29 11:03:50.527606	347.3	20.0	-70.1	0.0
2025-01-29 11:03:51.642459	347.3	19.8	-70.1	0.0
2025-01-29 11:03:52.757325	347.3	19.7	-69.9	0.0
2025-01-29 11:03:53.873034	347.2	19.5	-70.1	0.0
2025-01-29 11:03:54.987588	347.2	19.3	-70.2	0.0
2025-01-29 11:03:56.102922	347.2	19.2	-70.0	0.0
2025-01-29 11:03:57.218112	347.2	19.0	-70.1	0.0
2025-01-29 11:03:58.333882	347.1	18.9	-70.1	0.0
2025-01-29 11:03:59.450744	347.1	18.7	-69.9	0.0
2025-01-29 11:04:00.566949	347.1	18.6	-70.0	0.0
2025-01-29 11:04:01.681805	347.1	18.4	-70.1	0.0
2025-01-29 11:04:02.796444	347.0	18.3	-70.0	0.0
2025-01-29 11:04:03.911469	347.0	18.1	-70.1	0.0
2025-01-29 11:04:05.026328	347.0	18.0	-70.1	0.0
2025-01-29 11:04:06.142186	347.0	17.8	-69.9	0.0
2025-01-29 11:04:07.257224	346.9	17.7	-70.0	0.0
2025-01-29 11:04:08.371939	346.9	17.5	-70.1	0.0
2025-01-29 11:04:09.488720	346.9	17.4	-70.1	0.0
2025-01-29 11:04:10.603579	346.9	17.2	-70.0	0.0
2025-01-29 11:04:11.721230	346.8	17.1	-69.9	0.0
2025-01-29 11:04:12.837449	346.8	17.0	-70.2	0.0
2025-01-29 11:04:13.953607	346.8	16.8	-69.9	0.0
2025-01-29 11:04:15.068711	346.8	16.7	-70.0	0.0
2025-01-29 11:04:16.183834	346.8	16.5	-70.1	0.0
2025-01-29 11:04:17.298693	346.7	16.4	-70.1	0.0
2025-01-29 11:04:18.413037	346.7	16.3	-69.9	0.0
2025-01-29 11:04:19.528377	346.7	16.1	-70.2	0.0
2025-01-29 11:04:20.643700	346.7	16.0	-70.0	0.0
2025-01-29 11:04:21.759051	346.7	15.8	-70.1	0.0
2025-01-29 11:04:22.873902	346.6	15.7	-70.2	0.0
2025-01-29 11:04:23.993779	346.6	15.6	-70.0	0.0
2025-01-29 11:04:25.108631	346.6	15.4	-70.0	0.0
2025-01-29 11:04:26.223882	346.6	15.3	-70.0	0.0
2025-01-29 11:04:27.338651	346.6	15.2	-70.0	0.0
2025-01-29 11:04:28.454445	346.5	15.1	-69.9	0.0
#Closed at: 2025-01-29 10:56:35.072395