passes_logs/2026/01/28/R3.2S_Murmansk/R3.2S_Murmansk__20260128_022716_AQUA_rec.log

#Pass ID: 20260128_022716_AQUA
#Satellite: AQUA
#Configuration: AQUA
#almurnet v.1.7.20251203
#Start time: 2026-01-28 02:27:17

#Version: 2.2.20231116
#Station: R3.2S_Murmansk
#Location: 33.079688 lon 68.888172 lat
#TLE: 1 27424U 02022A   26027.29059822  .00001896  00000+0  38917-3 0  9993
#TLE: 2 27424  98.4102 353.9260 0001849  63.9098  72.6772 14.61866390262689

#Time	Az	El	Level	Level2	SNR	BER	BlckErr	Temp	State	Recorded	gain1	gain2
2026-01-28 02:27:17.47	23.86	2.07	-55.4	-73.2	3.8	7.47e-01	0	41	0	0	81	29610
2026-01-28 02:27:21.50	23.86	2.34	-55.4	-73.2	3.8	7.43e-01	0	41	104	0	81	29562
2026-01-28 02:27:25.53	23.86	2.61	-55.4	-73.2	3.8	7.46e-01	0	41	104	0	81	29497
2026-01-28 02:27:29.55	23.86	2.88	-55.6	-73.4	3.8	7.44e-01	0	42	104	0	81	30188
2026-01-28 02:27:33.58	23.86	3.16	-55.6	-73.4	3.8	7.42e-01	0	42	104	0	81	30135
2026-01-28 02:27:37.62	23.86	3.44	-55.5	-73.3	3.8	7.44e-01	0	42	104	0	81	29816
2026-01-28 02:27:41.64	23.86	3.72	-55.3	-73.2	3.8	7.44e-01	0	42	104	0	81	29428
2026-01-28 02:27:45.68	23.86	4.01	-54.9	-72.8	3.8	7.46e-01	0	42	104	0	81	28085
2026-01-28 02:27:49.71	23.86	4.30	-53.9	-70.5	3.8	7.45e-01	0	42	104	0	79	24202
2026-01-28 02:27:53.74	23.86	4.60	-48.2	-50.4	20.1	6.01e-01	0	42	0	5242880	68	4509
2026-01-28 02:27:57.77	23.86	4.89	-49.3	-52.1	18.4	6.03e-01	0	42	0	12582912	69	5182
2026-01-28 02:28:01.80	23.86	5.19	-49.3	-52.0	18.5	5.99e-01	0	42	0	20447232	70	4818
2026-01-28 02:28:05.83	23.85	5.50	-47.0	-48.7	21.7	6.03e-01	0	42	0	26214400	66	4157
2026-01-28 02:28:09.86	23.85	5.81	-46.3	-47.9	22.7	6.03e-01	0	42	0	33554432	64	4278
2026-01-28 02:28:13.89	23.85	6.12	-46.1	-47.6	23.1	6.02e-01	0	42	0	41418752	63	4364
2026-01-28 02:28:17.93	23.84	6.44	-46.1	-47.6	23.2	6.03e-01	0	42	0	48758784	63	4382
2026-01-28 02:28:21.96	23.84	6.76	-46.1	-47.6	23.2	6.01e-01	0	43	0	56098816	63	4370
2026-01-28 02:28:26.00	23.83	7.09	-45.8	-47.3	23.6	6.00e-01	0	42	0	63963136	63	4230
2026-01-28 02:28:30.02	23.83	7.42	-45.9	-47.4	23.5	6.04e-01	0	43	0	71303168	63	4251
2026-01-28 02:28:34.05	23.82	7.76	-45.8	-47.2	23.7	6.04e-01	0	42	0	79167488	63	4171
2026-01-28 02:28:38.08	23.81	8.10	-45.7	-47.1	23.8	6.06e-01	0	42	0	86507520	62	4375
2026-01-28 02:28:42.11	23.81	8.44	-45.7	-47.2	23.8	6.04e-01	0	43	0	94371840	62	4395
2026-01-28 02:28:46.13	23.80	8.79	-45.5	-46.9	23.8	6.02e-01	0	42	0	101711872	62	4243
2026-01-28 02:28:50.16	23.79	9.15	-45.4	-46.7	23.2	6.02e-01	0	42	0	109051904	62	4186
2026-01-28 02:28:54.19	23.78	9.52	-45.2	-46.6	23.1	6.04e-01	0	43	0	116916224	62	4110
2026-01-28 02:28:58.22	23.77	9.88	-45.1	-46.4	23.4	6.01e-01	0	43	0	124256256	62	4030
2026-01-28 02:29:02.24	23.76	10.26	-45.2	-46.5	23.4	6.04e-01	0	43	0	132120576	62	4081
2026-01-28 02:29:06.27	23.75	10.64	-45.1	-46.4	23.5	6.02e-01	0	43	0	139460608	62	4038
2026-01-28 02:29:10.31	23.74	11.03	-44.6	-45.9	24.1	6.04e-01	0	43	0	147324928	61	4020
2026-01-28 02:29:14.33	23.72	11.42	-44.6	-45.9	24.5	6.05e-01	0	43	0	154664960	61	4024
2026-01-28 02:29:18.37	23.71	11.83	-44.5	-45.7	25.0	6.00e-01	0	43	0	162004992	61	3951
2026-01-28 02:29:22.40	23.69	12.24	-44.4	-45.7	25.2	6.05e-01	0	43	0	169869312	60	4164
2026-01-28 02:29:26.43	23.68	12.66	-44.5	-45.8	25.3	6.04e-01	0	43	0	177209344	60	4197
2026-01-28 02:29:30.46	23.66	13.08	-44.5	-45.7	25.2	6.03e-01	0	43	0	184549376	60	4177
2026-01-28 02:29:34.50	23.64	13.52	-44.4	-45.6	25.5	6.02e-01	0	43	0	192413696	60	4133
2026-01-28 02:29:38.52	23.62	13.96	-44.4	-45.6	25.5	6.03e-01	0	43	0	199753728	60	4108
2026-01-28 02:29:42.55	23.60	14.41	-44.3	-45.5	25.6	6.04e-01	0	43	0	207618048	60	4090
2026-01-28 02:29:46.58	23.58	14.87	-44.3	-45.5	25.6	6.06e-01	0	43	0	214958080	60	4094
2026-01-28 02:29:50.61	23.56	15.35	-44.2	-45.4	25.7	6.04e-01	0	43	0	222822400	60	4027
2026-01-28 02:29:54.64	23.53	15.83	-44.1	-45.2	25.9	6.03e-01	0	43	0	230162432	59	4186
2026-01-28 02:29:58.67	23.51	16.32	-44.1	-45.3	25.9	6.02e-01	0	43	0	238026752	59	4199
2026-01-28 02:30:02.70	23.48	16.83	-44.1	-45.2	25.9	6.04e-01	0	43	0	245366784	59	4188
2026-01-28 02:30:06.73	23.45	17.34	-44.2	-45.4	25.6	6.02e-01	0	43	0	252706816	59	4246
2026-01-28 02:30:10.76	23.42	17.87	-44.3	-45.5	25.3	6.03e-01	0	43	0	260571136	59	4296
2026-01-28 02:30:14.79	23.39	18.41	-44.2	-45.3	25.5	6.03e-01	0	43	0	267911168	59	4232
2026-01-28 02:30:18.82	23.35	18.97	-44.2	-45.3	25.7	6.05e-01	0	43	0	275775488	59	4240
2026-01-28 02:30:22.85	23.31	19.53	-44.3	-45.5	25.8	6.01e-01	0	43	0	283115520	59	4329
2026-01-28 02:30:26.88	23.28	20.12	-44.5	-45.7	25.5	6.02e-01	0	43	0	290455552	59	4419
2026-01-28 02:30:30.91	23.23	20.72	-44.5	-45.7	25.4	6.04e-01	0	43	0	298319872	59	4434
2026-01-28 02:30:34.94	23.19	21.33	-44.6	-45.8	25.4	6.05e-01	0	43	0	305659904	59	4477
2026-01-28 02:30:38.97	23.14	21.96	-44.7	-45.9	25.4	6.04e-01	0	43	0	313524224	60	4279
2026-01-28 02:30:43.01	23.09	22.61	-44.7	-45.9	25.4	6.04e-01	0	43	0	320864256	60	4257
2026-01-28 02:30:47.04	23.04	23.28	-44.7	-45.9	25.4	6.03e-01	0	43	0	328204288	60	4268
2026-01-28 02:30:51.06	22.99	23.96	-44.7	-45.9	25.5	6.03e-01	0	43	0	336068608	60	4253
2026-01-28 02:30:55.09	22.93	24.67	-44.8	-46.0	25.5	6.01e-01	0	43	0	343408640	60	4337
2026-01-28 02:30:59.12	22.87	25.40	-44.8	-46.0	25.6	6.07e-01	0	43	0	351272960	60	4309
2026-01-28 02:31:03.15	22.80	26.15	-44.6	-45.8	25.7	6.05e-01	0	43	0	358612992	60	4214
2026-01-28 02:31:07.18	22.73	26.92	-44.5	-45.7	25.8	6.03e-01	0	43	0	366477312	60	4179
2026-01-28 02:31:11.21	22.66	27.72	-44.2	-45.3	26.2	6.02e-01	0	43	0	373817344	60	3998
2026-01-28 02:31:15.23	22.58	28.54	-44.2	-45.3	26.2	6.03e-01	0	43	0	381157376	60	3989
2026-01-28 02:31:19.26	22.49	29.39	-44.4	-45.5	26.0	6.02e-01	0	43	0	389021696	60	4092
2026-01-28 02:31:23.30	22.40	30.27	-44.1	-45.2	26.3	6.03e-01	0	43	0	396361728	60	3958
2026-01-28 02:31:27.33	22.30	31.18	-44.0	-45.1	26.3	6.05e-01	0	43	0	404226048	59	4128
2026-01-28 02:31:31.36	22.20	32.12	-44.3	-45.5	26.0	6.03e-01	0	43	0	411566080	59	4300
2026-01-28 02:31:35.39	22.09	33.09	-44.3	-45.5	26.0	6.03e-01	0	43	0	418906112	59	4296
2026-01-28 02:31:39.42	21.97	34.10	-44.6	-45.8	25.8	6.04e-01	0	43	0	426770432	59	4474
2026-01-28 02:31:43.44	21.84	35.14	-44.8	-46.0	25.7	6.03e-01	0	43	0	434110464	60	4322
2026-01-28 02:31:47.47	21.70	36.22	-45.7	-47.0	24.8	6.03e-01	0	43	0	441450496	62	4298
2026-01-28 02:31:51.51	21.55	37.34	-45.9	-47.2	24.7	6.03e-01	0	43	0	449314816	62	4403
2026-01-28 02:31:55.54	21.39	38.50	-46.6	-48.0	24.0	6.01e-01	0	43	0	456654848	63	4571
2026-01-28 02:31:59.57	21.21	39.70	-46.3	-47.7	24.2	6.05e-01	0	43	0	464519168	63	4393
2026-01-28 02:32:03.60	21.02	40.95	-46.1	-47.4	24.6	6.04e-01	0	43	0	471859200	63	4275
2026-01-28 02:32:07.63	20.81	42.25	-45.9	-47.3	24.7	6.02e-01	0	43	0	479723520	63	4197
2026-01-28 02:32:11.66	20.58	43.59	-45.0	-46.3	25.7	6.02e-01	0	43	0	487063552	62	3961
2026-01-28 02:32:15.68	20.33	44.99	-44.7	-45.9	26.0	6.03e-01	0	43	0	494927872	61	4036
2026-01-28 02:32:19.71	20.06	46.43	-44.5	-45.7	26.2	6.00e-01	0	43	0	502267904	60	4159
2026-01-28 02:32:23.75	19.75	47.94	-44.8	-46.0	25.9	6.03e-01	0	43	0	509607936	61	4057
2026-01-28 02:32:27.78	19.41	49.50	-44.7	-45.8	26.0	6.03e-01	0	43	0	517472256	60	4228
2026-01-28 02:32:31.81	19.04	51.12	-44.2	-45.3	26.4	6.02e-01	0	43	0	524812288	59	4229
2026-01-28 02:32:35.85	18.61	52.80	-44.0	-45.1	26.6	6.05e-01	0	43	0	532152320	59	4134
2026-01-28 02:32:39.88	18.13	54.53	-44.2	-45.3	26.5	6.03e-01	0	43	0	540016640	59	4207
2026-01-28 02:32:43.91	17.59	56.33	-44.8	-45.9	26.0	6.02e-01	0	43	0	547356672	60	4289
2026-01-28 02:32:47.94	16.96	58.18	-45.1	-46.4	25.7	6.02e-01	0	43	0	555220992	60	4496
2026-01-28 02:32:51.97	16.24	60.10	-45.6	-46.9	25.2	6.03e-01	0	43	0	562561024	61	4515
2026-01-28 02:32:56.00	15.40	62.07	-46.7	-48.0	24.2	6.04e-01	0	43	0	570425344	63	4596
2026-01-28 02:33:00.03	14.40	64.09	-47.4	-49.0	23.4	6.03e-01	0	43	0	577765376	65	4550
2026-01-28 02:33:04.07	13.21	66.17	-48.1	-49.8	22.5	6.02e-01	0	43	0	585105408	66	4714
2026-01-28 02:33:08.10	11.75	68.29	-49.5	-51.5	20.8	6.05e-01	0	43	0	592969728	69	4855
2026-01-28 02:33:12.13	9.94	70.45	-49.0	-50.8	21.4	6.05e-01	0	43	0	600309760	69	4477
2026-01-28 02:33:16.16	7.64	72.64	-48.1	-49.7	22.5	6.04e-01	0	43	0	608174080	68	4173
2026-01-28 02:33:20.19	4.63	74.83	-48.0	-49.6	22.7	6.03e-01	0	43	0	615514112	67	4385
2026-01-28 02:33:24.22	0.55	77.01	-47.6	-49.2	23.2	6.04e-01	0	43	0	623378432	67	4147
2026-01-28 02:33:28.25	354.78	79.13	-46.9	-48.4	23.8	6.06e-01	0	43	0	630718464	65	4254
2026-01-28 02:33:32.29	346.25	81.11	-45.9	-47.2	25.0	6.02e-01	0	43	0	638582784	63	4187
2026-01-28 02:33:36.32	333.23	82.81	-46.1	-47.4	25.0	6.03e-01	0	43	0	645922816	63	4265
2026-01-28 02:33:40.35	313.84	83.94	-46.3	-47.7	24.6	6.05e-01	0	43	0	653262848	63	4408
2026-01-28 02:33:44.38	289.63	84.17	-45.8	-47.0	25.3	6.02e-01	0	43	0	661127168	63	4084
2026-01-28 02:33:48.41	267.62	83.38	-46.4	-47.7	24.7	6.02e-01	0	43	0	668467200	63	4419
2026-01-28 02:33:52.44	252.05	81.88	-45.3	-46.5	25.7	6.02e-01	0	43	0	675807232	62	4061
2026-01-28 02:33:56.47	241.88	79.99	-45.8	-47.0	25.3	6.03e-01	0	43	0	683671552	62	4328
2026-01-28 02:34:00.50	235.12	77.92	-47.5	-49.0	23.3	6.03e-01	0	43	0	691011584	65	4575
2026-01-28 02:34:04.53	230.42	75.76	-48.6	-50.4	22.1	6.01e-01	0	43	0	698875904	67	4764
2026-01-28 02:34:08.57	227.00	73.56	-48.4	-50.2	22.1	6.02e-01	0	43	0	706215936	68	4393
2026-01-28 02:34:12.60	224.43	71.36	-48.2	-49.8	22.6	6.06e-01	0	43	0	714080256	67	4450
2026-01-28 02:34:16.64	222.43	69.18	-49.0	-50.8	21.6	6.07e-01	0	43	0	721420288	69	4459
2026-01-28 02:34:20.67	220.84	67.04	-49.4	-51.3	21.0	6.04e-01	0	43	0	728760320	70	4483
2026-01-28 02:34:24.70	219.54	64.94	-48.2	-49.8	22.5	6.03e-01	0	43	0	736624640	68	4235
2026-01-28 02:34:28.72	218.47	62.90	-46.6	-48.0	24.3	6.03e-01	0	43	0	743964672	65	4054
2026-01-28 02:34:32.75	217.57	60.90	-46.2	-47.6	24.6	6.03e-01	0	43	0	751828992	64	4100
2026-01-28 02:34:36.77	216.80	58.96	-45.5	-46.8	24.8	6.05e-01	0	43	0	759169024	63	3977
2026-01-28 02:34:40.81	216.13	57.07	-45.2	-46.4	25.6	6.03e-01	0	43	0	767033344	62	4041
2026-01-28 02:34:44.84	215.56	55.25	-44.5	-45.6	26.5	6.03e-01	0	43	0	774373376	60	4118
2026-01-28 02:34:48.87	215.05	53.49	-44.1	-45.2	26.6	6.05e-01	0	43	0	781713408	59	4165
2026-01-28 02:34:52.91	214.60	51.78	-44.2	-45.3	26.5	6.03e-01	0	43	0	789577728	59	4232
2026-01-28 02:34:56.93	214.21	50.14	-44.6	-45.8	26.1	6.03e-01	0	43	0	796917760	59	4461
2026-01-28 02:35:00.96	213.85	48.55	-44.8	-45.9	26.0	6.04e-01	0	43	0	804257792	60	4291
2026-01-28 02:35:04.99	213.53	47.02	-44.7	-45.9	26.0	6.04e-01	0	43	0	812122112	60	4256
2026-01-28 02:35:09.02	213.24	45.54	-44.8	-46.0	25.9	6.08e-01	0	43	0	819462144	60	4327
2026-01-28 02:35:13.05	212.98	44.12	-44.5	-45.6	26.2	6.04e-01	0	43	0	827326464	60	4132
2026-01-28 02:35:17.08	212.74	42.75	-45.3	-46.5	25.4	6.03e-01	0	43	0	834666496	61	4336
2026-01-28 02:35:21.11	212.53	41.43	-45.4	-46.6	25.4	6.03e-01	0	43	0	842530816	61	4355
2026-01-28 02:35:25.14	212.33	40.16	-46.1	-47.4	24.6	6.03e-01	0	43	0	849870848	62	4529
2026-01-28 02:35:29.18	212.14	38.93	-46.0	-47.3	24.7	6.05e-01	0	43	0	857735168	63	4200
2026-01-28 02:35:33.22	211.97	37.75	-46.4	-47.8	24.2	6.02e-01	0	43	0	865075200	63	4492
2026-01-28 02:35:37.25	211.82	36.61	-46.2	-47.5	24.3	6.04e-01	0	43	0	872415232	63	4336
2026-01-28 02:35:41.28	211.67	35.51	-45.6	-46.9	25.0	6.01e-01	0	43	0	880279552	63	4010
2026-01-28 02:35:45.31	211.54	34.45	-44.9	-46.1	25.7	6.03e-01	0	43	0	887619584	61	4133
2026-01-28 02:35:49.34	211.42	33.42	-44.5	-45.6	26.1	6.03e-01	0	43	0	894959616	61	3910
2026-01-28 02:35:53.37	211.30	32.43	-44.1	-45.2	26.4	6.05e-01	0	43	0	902823936	60	3938
2026-01-28 02:35:57.39	211.19	31.48	-43.9	-45.0	26.5	6.02e-01	0	43	0	910163968	59	4068
2026-01-28 02:36:01.42	211.09	30.56	-43.9	-45.1	26.5	6.02e-01	0	43	0	918028288	59	4105
2026-01-28 02:36:05.44	211.00	29.67	-43.8	-44.9	26.6	6.02e-01	0	43	0	925368320	59	4011
2026-01-28 02:36:09.48	210.91	28.80	-44.0	-45.2	26.3	6.05e-01	0	43	0	933232640	59	4161
2026-01-28 02:36:13.51	210.82	27.97	-44.4	-45.6	25.9	6.02e-01	0	43	0	940572672	59	4362
2026-01-28 02:36:17.55	210.75	27.15	-44.7	-45.9	25.7	6.03e-01	0	43	0	947912704	60	4255
2026-01-28 02:36:21.58	210.67	26.37	-44.6	-45.8	25.8	6.06e-01	0	43	0	955777024	60	4209
2026-01-28 02:36:25.62	210.60	25.61	-44.4	-45.5	26.0	6.02e-01	0	43	0	963117056	60	4091
2026-01-28 02:36:29.65	210.54	24.87	-44.5	-45.7	25.8	6.01e-01	0	43	0	970981376	60	4182
2026-01-28 02:36:33.69	210.48	24.15	-44.6	-45.8	25.7	6.03e-01	0	43	0	978321408	60	4234
2026-01-28 02:36:37.72	210.42	23.45	-44.9	-46.1	25.5	6.05e-01	0	43	0	986185728	60	4374
2026-01-28 02:36:41.74	210.36	22.78	-45.0	-46.3	25.3	6.02e-01	0	43	0	993525760	60	4461
2026-01-28 02:36:45.77	210.31	22.12	-45.0	-46.3	25.2	6.05e-01	0	43	0	1000865792	60	4468
2026-01-28 02:36:49.80	210.26	21.48	-44.9	-46.2	25.3	6.02e-01	0	43	0	1008730112	60	4393
2026-01-28 02:36:53.83	210.22	20.86	-44.7	-46.0	25.5	6.01e-01	0	43	0	1016070144	60	4304
2026-01-28 02:36:57.86	210.17	20.25	-44.5	-45.7	25.7	6.02e-01	0	43	0	1023410176	60	4172
2026-01-28 02:37:01.89	210.13	19.66	-44.3	-45.5	25.9	6.04e-01	0	43	0	1031274496	60	4063
2026-01-28 02:37:05.92	210.09	19.09	-44.4	-45.6	25.8	6.02e-01	0	43	0	1038614528	60	4116
2026-01-28 02:37:09.96	210.06	18.53	-44.5	-45.8	25.6	6.03e-01	0	43	0	1046478848	60	4197
2026-01-28 02:37:13.98	210.02	17.98	-44.7	-46.0	25.4	6.03e-01	0	43	0	1053818880	60	4293
2026-01-28 02:37:18.01	209.99	17.45	-44.8	-46.1	25.3	6.01e-01	0	43	0	1061683200	60	4341
2026-01-28 02:37:22.04	209.96	16.92	-44.9	-46.2	25.2	6.02e-01	0	43	0	1069023232	60	4417
2026-01-28 02:37:26.07	209.93	16.41	-44.8	-46.1	25.2	6.02e-01	0	43	0	1076363264	60	4345
2026-01-28 02:37:30.10	209.90	15.92	-44.8	-46.1	25.2	6.04e-01	0	43	0	1084227584	60	4360
2026-01-28 02:37:34.13	209.87	15.43	-44.9	-46.2	25.0	6.03e-01	0	43	0	1091567616	60	4416
2026-01-28 02:37:38.16	209.85	14.95	-44.8	-46.1	25.0	6.03e-01	0	43	0	1099431936	60	4360
2026-01-28 02:37:42.19	209.82	14.48	-44.6	-45.9	25.2	6.04e-01	0	43	0	1106771968	60	4247
2026-01-28 02:37:46.21	209.80	14.03	-44.6	-45.8	25.2	6.03e-01	0	43	0	1114636288	60	4239
2026-01-28 02:37:50.24	209.78	13.58	-44.5	-45.7	25.4	6.02e-01	0	43	0	1121976320	60	4183
2026-01-28 02:37:54.28	209.76	13.14	-44.5	-45.7	25.4	6.03e-01	0	43	0	1129840640	60	4159
2026-01-28 02:37:58.30	209.74	12.71	-44.5	-45.8	25.3	6.01e-01	0	43	0	1137180672	60	4199
2026-01-28 02:38:02.33	209.72	12.29	-44.5	-45.7	25.3	6.00e-01	0	43	0	1144520704	60	4175
2026-01-28 02:38:06.36	209.70	11.88	-44.6	-45.9	25.2	6.05e-01	0	43	0	1151860736	60	4243
2026-01-28 02:38:10.39	209.68	11.47	-44.7	-46.0	25.0	6.05e-01	0	43	0	1159725056	60	4297
2026-01-28 02:38:14.41	209.67	11.07	-45.0	-46.3	24.7	6.04e-01	0	43	0	1167065088	60	4478
2026-01-28 02:38:18.44	209.65	10.68	-44.7	-46.0	25.0	6.05e-01	0	43	0	1174929408	60	4309
2026-01-28 02:38:22.47	209.64	10.29	-44.8	-46.1	24.8	6.02e-01	0	43	0	1182269440	60	4387
2026-01-28 02:38:26.49	209.62	9.92	-44.9	-46.2	24.7	6.01e-01	0	43	0	1190133760	60	4428
2026-01-28 02:38:30.53	209.61	9.54	-45.0	-46.3	23.0	6.04e-01	0	43	0	1197473792	60	4461
2026-01-28 02:38:34.55	209.60	9.18	-45.2	-46.5	24.3	6.03e-01	0	43	0	1204813824	60	4584
2026-01-28 02:38:38.59	209.59	8.82	-45.1	-46.4	24.4	6.02e-01	0	43	0	1212678144	61	4257
2026-01-28 02:38:42.63	209.58	8.46	-45.0	-46.3	24.4	6.01e-01	0	43	0	1220018176	61	4227
2026-01-28 02:38:46.65	209.57	8.11	-45.2	-46.5	24.2	6.01e-01	0	43	0	1227882496	61	4330
2026-01-28 02:38:50.68	209.56	7.77	-45.2	-46.5	24.2	6.03e-01	0	43	0	1235222528	61	4327
2026-01-28 02:38:54.70	209.55	7.43	-45.4	-46.7	24.0	6.02e-01	0	43	0	1243086848	61	4440
2026-01-28 02:38:58.72	209.54	7.10	-45.5	-46.9	23.8	6.03e-01	0	43	0	1250426880	61	4502
2026-01-28 02:39:02.75	209.53	6.77	-45.7	-47.1	23.6	6.06e-01	0	43	0	1257766912	61	4631
2026-01-28 02:39:06.78	209.53	6.45	-45.7	-47.1	23.6	6.02e-01	0	43	0	1265631232	62	4368
2026-01-28 02:39:10.81	209.52	6.13	-45.8	-47.3	23.4	6.03e-01	0	43	0	1272971264	62	4443
2026-01-28 02:39:14.84	209.51	5.81	-46.1	-47.6	23.0	6.06e-01	0	43	0	1280311296	62	4617
2026-01-28 02:39:18.87	209.51	5.50	-46.1	-47.6	23.0	6.04e-01	0	43	0	1288175616	62	4625
2026-01-28 02:39:22.89	209.50	5.19	-46.1	-47.6	22.9	6.01e-01	0	43	0	1295515648	62	4634
2026-01-28 02:39:26.92	209.50	4.89	-54.4	-72.2	3.8	7.47e-01	0	43	104	1300758528	79	29435
2026-01-28 02:39:30.95	209.49	4.59	-55.0	-72.8	3.8	7.44e-01	0	43	104	1300758528	80	29928
2026-01-28 02:39:34.98	209.49	4.29	-55.3	-73.0	3.8	7.44e-01	0	43	104	1300758528	81	28939
2026-01-28 02:39:39.01	209.49	4.00	-55.4	-73.2	3.8	7.50e-01	0	43	104	1300758528	81	29629
2026-01-28 02:39:43.04	209.48	3.71	-55.4	-73.2	3.8	7.46e-01	0	43	104	1300758528	81	29632
2026-01-28 02:39:47.06	209.48	3.43	-55.3	-73.2	3.8	7.44e-01	0	43	104	1300758528	81	29422
2026-01-28 02:39:51.09	209.48	3.15	-54.8	-72.6	3.8	7.47e-01	0	43	104	1300758528	81	27573
2026-01-28 02:39:55.12	209.48	2.87	-54.7	-72.6	3.8	7.46e-01	0	43	104	1300758528	81	27464
2026-01-28 02:39:59.15	209.47	2.59	-54.7	-72.6	3.8	7.47e-01	0	44	104	1300758528	81	27423
2026-01-28 02:40:03.17	209.47	2.32	-54.7	-72.5	3.8	7.46e-01	0	43	104	1300758528	81	27313
2026-01-28 02:40:07.20	209.47	2.05	-54.7	-72.5	3.8	7.47e-01	0	43	104	1300758528	81	27241

#Closed at: 2026-01-28 02:40:09
#Recorded file [1300 MB]: D:/lorett/data/31041_260128_052717.dat