passes_logs/2026/01/28/R3.2S_Murmansk/R3.2S_Murmansk__20260128_102523_SUOMI_NPP_rec.log

#Pass ID: 20260128_102523_SUOMI NPP
#Satellite: SUOMI NPP
#Configuration: NPP
#almurnet v.1.7.20251203
#Start time: 2026-01-28 10:25:25

#Version: 2.2.20231116
#Station: R3.2S_Murmansk
#Location: 33.079688 lon 68.888172 lat
#TLE: 1 37849U 11061A   26027.86188320  .00000172  00000+0  10275-3 0  9990
#TLE: 2 37849  98.7823 329.8005 0002088  41.4184 318.7150 14.19530883738530

#Time	Az	El	Level	Level2	SNR	BER	BlckErr	Temp	State	Recorded	gain1	gain2
2026-01-28 10:25:25.10	171.73	2.12	-52.2	-67.1	3.8	1.49e+00	0	41	0	0	76	19488
2026-01-28 10:25:29.13	171.84	2.38	-52.1	-67.0	3.8	1.49e+00	0	41	104	0	74	21749
2026-01-28 10:25:33.17	171.94	2.64	-52.1	-66.6	3.8	1.49e+00	0	41	104	0	74	20770
2026-01-28 10:25:37.19	172.05	2.90	-52.1	-66.5	3.8	1.49e+00	0	41	104	0	74	20432
2026-01-28 10:25:41.22	172.16	3.16	-52.1	-67.1	3.8	1.49e+00	0	42	104	0	74	21786
2026-01-28 10:25:45.25	172.27	3.43	-52.1	-66.7	3.8	1.49e+00	0	42	104	0	74	20795
2026-01-28 10:25:49.29	172.39	3.70	-52.1	-67.0	3.8	1.49e+00	0	42	104	0	74	21521
2026-01-28 10:25:53.32	172.50	3.97	-51.9	-62.9	4.4	1.38e+00	74	42	0	0	74	13426
2026-01-28 10:25:57.35	172.62	4.24	-50.4	-55.3	10.5	8.65e-03	0	42	0	7340032	72	6310
2026-01-28 10:26:01.38	172.74	4.52	-48.9	-52.0	14.0	3.80e-06	0	42	0	14680064	69	5129
2026-01-28 10:26:05.41	172.86	4.80	-48.5	-51.4	14.6	7.00e-07	0	42	0	22020096	68	5085
2026-01-28 10:26:09.44	172.99	5.08	-48.7	-51.6	15.3	5.87e-05	0	42	0	29360128	67	5521
2026-01-28 10:26:13.47	173.11	5.37	-47.3	-49.5	16.6	0.00e+00	0	42	0	34603008	66	4567
2026-01-28 10:26:17.49	173.24	5.65	-47.4	-49.6	16.3	0.00e+00	0	42	0	41943040	66	4626
2026-01-28 10:26:21.51	173.37	5.95	-47.4	-49.6	16.4	0.00e+00	0	42	0	49283072	66	4644
2026-01-28 10:26:25.54	173.50	6.24	-47.4	-49.5	16.6	0.00e+00	0	42	0	56623104	66	4590
2026-01-28 10:26:29.57	173.64	6.54	-47.1	-49.1	17.0	0.00e+00	0	42	0	63963136	66	4376
2026-01-28 10:26:33.60	173.77	6.84	-47.1	-49.1	17.1	0.00e+00	0	42	0	71303168	66	4381
2026-01-28 10:26:37.63	173.91	7.14	-46.8	-48.7	17.5	0.00e+00	0	42	0	79691776	65	4405
2026-01-28 10:26:41.66	174.06	7.45	-46.6	-48.4	17.8	0.00e+00	0	42	0	87031808	64	4538
2026-01-28 10:26:45.69	174.20	7.76	-46.7	-48.5	17.8	0.00e+00	0	42	0	94371840	64	4588
2026-01-28 10:26:49.73	174.35	8.08	-46.7	-48.5	17.8	0.00e+00	0	42	0	101711872	64	4564
2026-01-28 10:26:53.76	174.50	8.40	-46.6	-48.4	17.9	0.00e+00	0	43	0	110100480	64	4538
2026-01-28 10:26:57.79	174.66	8.72	-46.3	-48.0	18.4	0.00e+00	0	43	0	117440512	64	4308
2026-01-28 10:27:01.83	174.81	9.05	-46.2	-47.8	18.5	0.00e+00	0	42	0	124780544	64	4227
2026-01-28 10:27:05.86	174.97	9.38	-46.3	-47.9	18.5	0.00e+00	0	42	0	132120576	64	4275
2026-01-28 10:27:09.89	175.14	9.72	-46.1	-47.8	18.6	0.00e+00	0	42	0	139460608	64	4199
2026-01-28 10:27:13.92	175.31	10.06	-46.2	-47.8	18.7	0.00e+00	0	42	0	147849216	64	4208
2026-01-28 10:27:17.95	175.48	10.41	-46.1	-47.7	18.8	0.00e+00	0	43	0	155189248	64	4151
2026-01-28 10:27:21.98	175.65	10.76	-46.0	-47.6	18.9	0.00e+00	0	43	0	162529280	64	4101
2026-01-28 10:27:26.01	175.83	11.11	-46.2	-47.7	18.9	0.00e+00	0	43	0	169869312	63	4435
2026-01-28 10:27:30.04	176.01	11.47	-45.9	-47.4	19.1	0.00e+00	0	43	0	177209344	63	4291
2026-01-28 10:27:34.07	176.20	11.83	-46.1	-47.6	19.0	0.00e+00	0	43	0	185597952	63	4369
2026-01-28 10:27:38.10	176.39	12.20	-45.7	-47.2	19.4	0.00e+00	0	43	0	192937984	63	4174
2026-01-28 10:27:42.12	176.59	12.58	-45.8	-47.3	19.4	0.00e+00	0	43	0	200278016	63	4200
2026-01-28 10:27:46.15	176.79	12.96	-46.0	-47.5	19.2	0.00e+00	0	43	0	207618048	63	4305
2026-01-28 10:27:50.18	176.99	13.35	-45.8	-47.2	19.5	0.00e+00	0	43	0	214958080	63	4181
2026-01-28 10:27:54.20	177.20	13.74	-45.7	-47.1	19.6	0.00e+00	0	42	0	223346688	63	4132
2026-01-28 10:27:58.23	177.42	14.14	-45.3	-46.6	20.0	0.00e+00	0	43	0	230686720	62	4137
2026-01-28 10:28:02.24	177.64	14.54	-45.4	-46.8	19.9	0.00e+00	0	43	0	238026752	62	4194
2026-01-28 10:28:06.27	177.87	14.95	-45.2	-46.5	20.2	0.00e+00	0	43	0	245366784	62	4069
2026-01-28 10:28:10.29	178.10	15.37	-45.3	-46.6	20.1	0.00e+00	0	43	0	252706816	62	4123
2026-01-28 10:28:14.32	178.34	15.80	-45.3	-46.6	20.1	0.00e+00	0	43	0	261095424	62	4137
2026-01-28 10:28:18.36	178.58	16.23	-45.5	-46.9	19.8	0.00e+00	0	43	0	268435456	62	4275
2026-01-28 10:28:22.39	178.84	16.67	-45.8	-47.2	19.6	0.00e+00	0	43	0	275775488	62	4411
2026-01-28 10:28:26.43	179.10	17.12	-45.5	-46.9	20.0	0.00e+00	0	43	0	283115520	62	4243
2026-01-28 10:28:30.46	179.36	17.57	-45.7	-47.2	19.6	0.00e+00	0	43	0	290455552	62	4397
2026-01-28 10:28:34.49	179.64	18.04	-45.8	-47.3	19.6	0.00e+00	0	43	0	298844160	62	4445
2026-01-28 10:28:38.52	179.92	18.51	-46.1	-47.6	19.3	0.00e+00	0	43	0	306184192	62	4601
2026-01-28 10:28:42.55	180.21	18.99	-46.4	-48.0	18.9	0.00e+00	0	43	0	313524224	63	4569
2026-01-28 10:28:46.58	180.51	19.48	-46.3	-47.9	19.0	0.00e+00	0	43	0	320864256	63	4530
2026-01-28 10:28:50.61	180.82	19.97	-46.4	-48.0	18.9	0.00e+00	0	43	0	329252864	63	4551
2026-01-28 10:28:54.64	181.14	20.48	-46.2	-47.7	19.2	0.00e+00	0	43	0	336592896	63	4437
2026-01-28 10:28:58.67	181.47	21.00	-46.3	-47.8	19.2	0.00e+00	0	43	0	343932928	63	4474
2026-01-28 10:29:02.70	181.81	21.52	-45.6	-46.9	20.0	0.00e+00	0	43	0	351272960	62	4280
2026-01-28 10:29:06.73	182.16	22.06	-45.0	-46.2	20.6	0.00e+00	0	43	0	358612992	61	4179
2026-01-28 10:29:10.76	182.53	22.61	-44.7	-45.9	20.8	0.00e+00	0	43	0	367001600	61	4028
2026-01-28 10:29:14.79	182.90	23.17	-44.3	-45.4	21.4	0.00e+00	0	43	0	374341632	60	4023
2026-01-28 10:29:18.81	183.29	23.73	-44.2	-45.4	21.4	0.00e+00	0	43	0	381681664	60	4012
2026-01-28 10:29:22.84	183.69	24.31	-44.4	-45.6	21.3	0.00e+00	0	43	0	389021696	60	4100
2026-01-28 10:29:26.87	184.11	24.91	-44.3	-45.5	21.4	0.00e+00	0	43	0	396361728	60	4060
2026-01-28 10:29:30.90	184.54	25.51	-44.4	-45.5	21.3	0.00e+00	0	43	0	404750336	60	4069
2026-01-28 10:29:34.93	184.99	26.13	-44.0	-45.0	21.7	0.00e+00	0	43	0	412090368	60	3858
2026-01-28 10:29:38.96	185.46	26.76	-44.3	-45.4	21.7	0.00e+00	0	43	0	419430400	59	4250
2026-01-28 10:29:43.00	185.94	27.40	-44.2	-45.2	21.9	0.00e+00	0	43	0	426770432	59	4192
2026-01-28 10:29:47.03	186.45	28.05	-44.3	-45.4	21.8	0.00e+00	0	43	0	434110464	59	4268
2026-01-28 10:29:51.05	186.97	28.72	-44.5	-45.6	21.3	0.00e+00	0	43	0	442499072	60	4132
2026-01-28 10:29:55.08	187.52	29.40	-45.2	-46.4	20.6	0.00e+00	0	43	0	449839104	60	4515
2026-01-28 10:29:59.10	188.09	30.10	-45.9	-47.3	19.8	0.00e+00	0	43	0	457179136	62	4487
2026-01-28 10:30:03.13	188.68	30.81	-46.8	-48.4	18.7	0.00e+00	0	43	0	464519168	64	4526
2026-01-28 10:30:07.16	189.30	31.53	-47.2	-49.0	18.2	0.00e+00	0	43	0	471859200	65	4546
2026-01-28 10:30:11.20	189.95	32.27	-47.8	-49.7	17.6	0.00e+00	0	43	0	480247808	66	4663
2026-01-28 10:30:15.23	190.63	33.03	-47.4	-49.2	18.0	0.00e+00	0	43	0	487587840	66	4439
2026-01-28 10:30:19.26	191.34	33.80	-46.8	-48.4	18.8	0.00e+00	0	43	0	494927872	65	4264
2026-01-28 10:30:23.28	192.08	34.58	-46.8	-48.4	18.8	0.00e+00	0	43	0	502267904	65	4253
2026-01-28 10:30:27.32	192.86	35.38	-47.2	-48.9	18.4	0.00e+00	0	43	0	510656512	65	4494
2026-01-28 10:30:31.35	193.67	36.19	-46.9	-48.5	18.8	0.00e+00	0	43	0	517996544	65	4304
2026-01-28 10:30:35.38	194.53	37.02	-46.2	-47.5	19.6	0.00e+00	0	43	0	525336576	64	4098
2026-01-28 10:30:39.41	195.43	37.86	-46.2	-47.7	19.5	0.00e+00	0	43	0	532676608	64	4154
2026-01-28 10:30:43.43	196.38	38.71	-46.6	-48.1	19.1	0.00e+00	0	43	0	540016640	64	4356
2026-01-28 10:30:47.46	197.38	39.57	-46.6	-48.1	19.1	0.00e+00	0	43	0	547356672	64	4365
2026-01-28 10:30:51.49	198.43	40.45	-45.9	-47.3	19.9	0.00e+00	0	43	0	555745280	63	4218
2026-01-28 10:30:55.52	199.55	41.34	-45.5	-46.8	20.5	0.00e+00	0	43	0	563085312	62	4210
2026-01-28 10:30:59.55	200.72	42.24	-46.5	-48.0	19.4	0.00e+00	0	43	0	570425344	63	4590
2026-01-28 10:31:03.59	201.96	43.15	-46.0	-47.4	19.8	0.00e+00	0	43	0	577765376	64	4025
2026-01-28 10:31:07.62	203.27	44.06	-46.6	-48.1	19.2	0.00e+00	0	43	0	586153984	64	4377
2026-01-28 10:31:11.65	204.66	44.98	-46.3	-47.7	19.6	0.00e+00	0	43	0	593494016	64	4170
2026-01-28 10:31:15.68	206.13	45.89	-47.7	-49.5	17.9	0.00e+00	0	43	0	600834048	66	4579
2026-01-28 10:31:19.72	207.69	46.82	-47.3	-48.9	18.5	0.00e+00	0	43	0	608174080	66	4280
2026-01-28 10:31:23.75	209.34	47.73	-49.8	-52.5	15.1	0.00e+00	0	43	0	615514112	70	5152
2026-01-28 10:31:27.77	211.08	48.63	-49.8	-52.6	15.1	0.00e+00	0	43	0	623902720	71	4904
2026-01-28 10:31:31.80	212.93	49.53	-49.3	-51.8	15.8	0.00e+00	0	43	0	631242752	69	5014
2026-01-28 10:31:35.83	214.89	50.41	-47.9	-49.7	17.7	0.00e+00	0	43	0	638582784	67	4427
2026-01-28 10:31:39.86	216.96	51.27	-47.3	-48.9	18.6	0.00e+00	0	43	0	645922816	66	4270
2026-01-28 10:31:43.89	219.16	52.11	-46.1	-47.5	20.0	0.00e+00	0	43	0	653262848	63	4299
2026-01-28 10:31:47.92	221.48	52.91	-46.2	-47.6	19.9	0.00e+00	0	43	0	661651456	63	4358
2026-01-28 10:31:51.95	223.92	53.68	-44.9	-46.0	21.3	0.00e+00	0	43	0	668991488	61	4082
2026-01-28 10:31:55.97	226.49	54.40	-45.0	-46.2	21.1	0.00e+00	0	43	0	676331520	61	4159
2026-01-28 10:32:00.00	229.19	55.07	-45.6	-46.9	20.5	0.00e+00	0	43	0	683671552	62	4256
2026-01-28 10:32:04.03	232.01	55.69	-45.4	-46.6	20.8	0.00e+00	0	43	0	691011584	61	4368
2026-01-28 10:32:08.06	234.95	56.24	-45.6	-46.9	20.4	0.00e+00	0	43	0	699400192	62	4274
2026-01-28 10:32:12.08	238.00	56.72	-44.9	-46.1	21.3	0.00e+00	0	43	0	706740224	61	4110
2026-01-28 10:32:16.10	241.14	57.12	-45.8	-47.0	20.5	0.00e+00	0	43	0	714080256	63	4079
2026-01-28 10:32:20.14	244.39	57.45	-46.1	-47.4	20.0	0.00e+00	0	43	0	721420288	64	4029
2026-01-28 10:32:24.17	247.69	57.69	-47.9	-49.8	17.8	0.00e+00	0	43	0	728760320	66	4715
2026-01-28 10:32:28.19	251.03	57.84	-47.7	-49.4	18.2	0.00e+00	0	43	0	737148928	67	4287
2026-01-28 10:32:32.21	254.40	57.89	-47.0	-48.5	19.0	0.00e+00	0	43	0	744488960	66	4098
2026-01-28 10:32:36.24	257.78	57.86	-47.4	-49.0	18.6	0.00e+00	0	43	0	751828992	66	4319
2026-01-28 10:32:40.26	261.12	57.73	-45.0	-46.1	21.3	0.00e+00	0	43	0	759169024	62	3890
2026-01-28 10:32:44.30	264.45	57.52	-45.7	-47.0	20.5	0.00e+00	0	43	0	766509056	62	4317
2026-01-28 10:32:48.33	267.70	57.21	-46.0	-47.3	20.2	0.00e+00	0	43	0	774897664	62	4472
2026-01-28 10:32:52.36	270.87	56.83	-45.5	-46.7	20.8	0.00e+00	0	43	0	782237696	62	4151
2026-01-28 10:32:56.39	273.95	56.37	-47.0	-48.6	19.0	0.00e+00	0	43	0	789577728	64	4613
2026-01-28 10:33:00.42	276.91	55.83	-44.9	-46.1	21.3	0.00e+00	0	43	0	796917760	61	4116
2026-01-28 10:33:04.46	279.77	55.23	-44.8	-46.0	21.5	0.00e+00	0	43	0	804257792	60	4303
2026-01-28 10:33:08.49	282.50	54.57	-44.2	-45.3	22.1	0.00e+00	0	43	0	812646400	60	3966
2026-01-28 10:33:12.52	285.10	53.86	-44.9	-46.0	21.4	0.00e+00	0	43	0	819986432	61	4080
2026-01-28 10:33:16.54	287.56	53.11	-44.5	-45.6	21.7	0.00e+00	0	43	0	827326464	61	3900
2026-01-28 10:33:20.57	289.91	52.32	-48.4	-50.5	17.2	0.00e+00	0	43	0	834666496	67	4846
2026-01-28 10:33:24.59	292.12	51.49	-47.4	-49.0	18.5	0.00e+00	0	43	0	842006528	66	4306
2026-01-28 10:33:28.61	294.22	50.64	-47.3	-48.9	18.7	0.00e+00	0	43	0	850395136	66	4262
2026-01-28 10:33:32.64	296.20	49.77	-49.9	-52.6	15.3	7.00e-07	0	43	0	857735168	71	4885
2026-01-28 10:33:36.67	298.08	48.88	-46.7	-48.1	19.5	0.00e+00	0	43	0	865075200	64	4364
2026-01-28 10:33:40.70	299.84	47.98	-47.3	-48.9	18.6	0.00e+00	0	43	0	872415232	66	4277
2026-01-28 10:33:44.73	301.51	47.07	-45.9	-47.2	20.3	0.00e+00	0	43	0	880803840	62	4424
2026-01-28 10:33:48.75	303.09	46.16	-45.4	-46.5	21.0	0.00e+00	0	43	0	888143872	61	4338
2026-01-28 10:33:52.78	304.57	45.24	-46.8	-48.3	19.4	0.00e+00	0	43	0	895483904	64	4457
2026-01-28 10:33:56.80	305.98	44.33	-48.0	-49.8	17.8	0.00e+00	0	43	0	902823936	67	4475
2026-01-28 10:34:00.83	307.30	43.42	-49.9	-52.5	15.6	0.00e+00	0	43	0	910163968	70	5113
2026-01-28 10:34:04.87	308.56	42.51	-48.7	-50.7	17.0	0.00e+00	0	43	0	917504000	68	4692
2026-01-28 10:34:08.90	309.75	41.62	-52.4	-57.9	9.6	1.58e-01	0	43	0	925892608	76	6772
2026-01-28 10:34:12.93	310.88	40.73	-49.6	-52.1	15.5	0.00e+00	0	43	0	933232640	70	4915
2026-01-28 10:34:16.96	311.94	39.85	-51.1	-54.9	12.7	1.46e-04	0	43	0	940572672	73	5681
2026-01-28 10:34:20.99	312.96	38.99	-47.0	-48.6	18.8	0.00e+00	0	43	0	947912704	65	4355
2026-01-28 10:34:25.01	313.91	38.14	-48.9	-51.3	16.2	0.00e+00	0	43	0	956301312	69	4737
2026-01-28 10:34:29.04	314.83	37.30	-46.2	-47.6	19.8	0.00e+00	0	43	0	963641344	64	4124
2026-01-28 10:34:33.07	315.70	36.47	-49.8	-52.7	14.9	0.00e+00	0	43	0	970981376	70	5237
2026-01-28 10:34:37.09	316.52	35.66	-46.3	-47.7	19.6	0.00e+00	0	43	0	978321408	64	4151
2026-01-28 10:34:41.12	317.31	34.86	-46.7	-48.2	19.4	0.00e+00	0	43	0	985661440	63	4668
2026-01-28 10:34:45.15	318.06	34.08	-48.9	-51.1	16.4	0.00e+00	0	43	0	994050048	68	4914
2026-01-28 10:34:49.19	318.78	33.31	-46.1	-47.5	19.7	0.00e+00	0	43	0	1001390080	64	4082
2026-01-28 10:34:53.20	319.46	32.56	-45.8	-47.1	20.2	0.00e+00	0	43	0	1008730112	62	4363
2026-01-28 10:34:57.23	320.12	31.82	-48.4	-50.5	17.0	0.00e+00	0	43	0	1016070144	67	4827
2026-01-28 10:35:01.26	320.75	31.09	-46.2	-47.6	19.6	0.00e+00	0	43	0	1023410176	64	4138
2026-01-28 10:35:05.28	321.34	30.38	-45.8	-47.1	20.2	0.00e+00	0	43	0	1030750208	62	4373
2026-01-28 10:35:09.30	321.92	29.68	-48.9	-51.2	16.3	0.00e+00	0	43	0	1039138816	68	4948
2026-01-28 10:35:13.33	322.47	29.00	-46.9	-48.5	18.8	0.00e+00	0	43	0	1046478848	65	4298
2026-01-28 10:35:17.34	323.00	28.33	-45.4	-46.7	20.5	0.00e+00	0	43	0	1053818880	62	4184
2026-01-28 10:35:21.37	323.51	27.68	-45.8	-47.1	20.1	7.00e-07	0	43	0	1061158912	62	4387
2026-01-28 10:35:25.39	324.00	27.04	-46.4	-47.9	19.3	0.00e+00	0	43	0	1068498944	64	4284
2026-01-28 10:35:29.43	324.47	26.41	-46.2	-47.7	19.5	0.00e+00	0	43	0	1076887552	64	4166
2026-01-28 10:35:33.46	324.93	25.79	-46.2	-47.6	19.6	0.00e+00	0	43	0	1084227584	63	4348
2026-01-28 10:35:37.49	325.37	25.18	-46.8	-48.3	18.8	0.00e+00	0	43	0	1091567616	64	4470
2026-01-28 10:35:41.52	325.79	24.59	-46.2	-47.5	19.6	0.00e+00	0	43	0	1098907648	64	4093
2026-01-28 10:35:45.55	326.20	24.01	-45.8	-47.2	20.0	0.00e+00	0	43	0	1107296256	63	4150
2026-01-28 10:35:49.59	326.59	23.44	-46.8	-48.5	18.7	0.00e+00	0	43	0	1114636288	64	4563
2026-01-28 10:35:53.62	326.97	22.88	-46.9	-48.7	18.4	1.50e-06	0	43	0	1121976320	65	4408
2026-01-28 10:35:57.65	327.34	22.33	-45.7	-47.0	20.0	0.00e+00	0	43	0	1129316352	63	4096
2026-01-28 10:36:01.68	327.70	21.79	-45.0	-46.3	20.6	0.00e+00	0	43	0	1136656384	61	4213
2026-01-28 10:36:05.71	328.04	21.27	-45.7	-47.1	19.8	0.00e+00	0	43	0	1145044992	62	4374
2026-01-28 10:36:09.74	328.37	20.75	-45.6	-46.9	20.1	0.00e+00	0	43	0	1152385024	62	4261
2026-01-28 10:36:13.77	328.70	20.24	-45.2	-46.5	20.4	0.00e+00	0	43	0	1159725056	62	4072
2026-01-28 10:36:17.80	329.01	19.74	-44.4	-45.6	21.2	0.00e+00	0	43	0	1167065088	60	4107
2026-01-28 10:36:21.83	329.31	19.25	-44.5	-45.7	21.1	0.00e+00	0	43	0	1174405120	60	4154
2026-01-28 10:36:25.87	329.61	18.77	-44.9	-46.1	20.7	0.00e+00	0	43	0	1182793728	60	4369
2026-01-28 10:36:29.90	329.90	18.30	-45.6	-47.0	19.9	0.00e+00	0	43	0	1190133760	61	4556
2026-01-28 10:36:33.93	330.17	17.83	-46.2	-47.7	19.2	0.00e+00	0	43	0	1197473792	63	4428
2026-01-28 10:36:37.96	330.45	17.38	-46.6	-48.2	18.7	0.00e+00	0	43	0	1204813824	63	4703
2026-01-28 10:36:41.98	330.71	16.93	-46.5	-48.2	18.7	0.00e+00	0	43	0	1212153856	63	4661
2026-01-28 10:36:46.01	330.96	16.49	-46.5	-48.2	18.7	0.00e+00	0	43	0	1220542464	63	4655
2026-01-28 10:36:50.04	331.21	16.06	-46.0	-47.5	19.4	0.00e+00	0	43	0	1227882496	63	4313
2026-01-28 10:36:54.07	331.46	15.63	-45.8	-47.3	19.5	0.00e+00	0	43	0	1235222528	63	4220
2026-01-28 10:36:58.09	331.69	15.22	-45.6	-47.0	19.7	0.00e+00	0	43	0	1242562560	62	4297
2026-01-28 10:37:02.12	331.92	14.80	-45.3	-46.7	20.0	0.00e+00	0	43	0	1249902592	62	4154
2026-01-28 10:37:06.15	332.15	14.40	-45.2	-46.6	20.0	0.00e+00	0	43	0	1258291200	62	4107
2026-01-28 10:37:10.18	332.37	14.00	-45.4	-46.7	20.0	0.00e+00	0	43	0	1265631232	62	4172
2026-01-28 10:37:14.20	332.58	13.61	-45.4	-46.8	19.9	0.00e+00	0	43	0	1272971264	62	4197
2026-01-28 10:37:18.23	332.79	13.22	-45.7	-47.2	19.5	0.00e+00	0	43	0	1280311296	62	4408
2026-01-28 10:37:22.26	332.99	12.84	-45.8	-47.3	19.3	0.00e+00	0	43	0	1287651328	62	4456
2026-01-28 10:37:26.29	333.19	12.46	-45.9	-47.4	19.2	0.00e+00	0	43	0	1296039936	62	4544
2026-01-28 10:37:30.32	333.39	12.09	-45.9	-47.4	19.2	0.00e+00	0	43	0	1303379968	62	4504
2026-01-28 10:37:34.34	333.58	11.73	-45.6	-47.1	19.4	0.00e+00	0	43	0	1310720000	62	4360
2026-01-28 10:37:38.38	333.76	11.37	-45.6	-47.0	19.5	0.00e+00	0	43	0	1318060032	62	4332
2026-01-28 10:37:42.41	333.95	11.01	-45.5	-47.0	19.5	0.00e+00	0	43	0	1326448640	62	4294
2026-01-28 10:37:46.44	334.13	10.66	-45.3	-46.7	19.8	0.00e+00	0	43	0	1333788672	62	4163
2026-01-28 10:37:50.47	334.30	10.32	-45.5	-47.0	19.4	0.00e+00	0	43	0	1341128704	62	4317
2026-01-28 10:37:54.50	334.47	9.98	-45.5	-46.9	19.5	0.00e+00	0	43	0	1348468736	62	4259
2026-01-28 10:37:58.53	334.64	9.64	-45.7	-47.2	19.1	0.00e+00	0	43	0	1355808768	62	4419
2026-01-28 10:38:02.57	334.80	9.31	-46.0	-47.5	18.8	0.00e+00	0	43	0	1363148800	62	4591
2026-01-28 10:38:06.61	334.96	8.98	-46.0	-47.6	18.8	0.00e+00	0	43	0	1371537408	62	4611
2026-01-28 10:38:10.64	335.12	8.65	-46.4	-48.2	18.2	0.00e+00	0	43	0	1378877440	63	4653
2026-01-28 10:38:14.67	335.28	8.33	-46.6	-48.4	17.9	0.00e+00	0	43	0	1386217472	64	4517
2026-01-28 10:38:18.71	335.43	8.02	-46.7	-48.6	17.7	2.20e-06	0	43	0	1393557504	64	4624
2026-01-28 10:38:22.74	335.58	7.71	-47.0	-49.0	17.2	0.00e+00	0	43	0	1401946112	64	4834
2026-01-28 10:38:26.77	335.72	7.40	-47.3	-49.4	16.8	0.00e+00	0	43	0	1409286144	65	4796
2026-01-28 10:38:30.81	335.87	7.09	-47.5	-49.7	16.5	0.00e+00	0	43	0	1416626176	65	4953
2026-01-28 10:38:34.84	336.01	6.79	-47.6	-50.0	16.1	0.00e+00	0	43	0	1423966208	65	5156
2026-01-28 10:38:38.87	336.15	6.49	-47.4	-50.0	16.0	0.00e+00	0	43	0	1431306240	65	5115
2026-01-28 10:38:42.90	336.28	6.20	-47.4	-50.2	15.6	0.00e+00	0	43	0	1439694848	65	5276
2026-01-28 10:38:46.93	336.42	5.91	-47.6	-50.4	15.5	0.00e+00	0	43	0	1447034880	65	5376
2026-01-28 10:38:50.96	336.55	5.62	-48.2	-50.8	15.2	0.00e+00	0	43	0	1454374912	67	5019
2026-01-28 10:38:54.99	336.68	5.33	-48.1	-50.7	15.2	0.00e+00	0	43	0	1461714944	67	4978
2026-01-28 10:38:59.03	336.81	5.05	-48.2	-51.0	14.9	0.00e+00	0	43	0	1470103552	67	5143
2026-01-28 10:39:03.06	336.93	4.77	-53.1	-68.1	3.8	1.49e+00	0	43	104	1471152128	76	21895
2026-01-28 10:39:07.09	337.05	4.49	-53.5	-68.5	3.8	1.49e+00	0	43	104	1471152128	77	21558
2026-01-28 10:39:11.13	337.18	4.22	-53.4	-68.4	3.8	1.49e+00	0	43	104	1471152128	77	21326
2026-01-28 10:39:15.16	337.29	3.95	-53.3	-68.2	3.8	1.49e+00	0	43	104	1471152128	77	20912
2026-01-28 10:39:19.19	337.41	3.68	-53.4	-68.3	3.8	1.49e+00	0	43	104	1471152128	77	21231
2026-01-28 10:39:23.22	337.53	3.41	-53.2	-68.2	3.8	1.49e+00	0	43	104	1471152128	77	20841
2026-01-28 10:39:27.25	337.64	3.15	-53.2	-68.2	3.8	1.49e+00	0	43	104	1471152128	77	20810
2026-01-28 10:39:31.28	337.75	2.89	-53.2	-68.2	3.8	1.49e+00	0	43	104	1471152128	77	20793
2026-01-28 10:39:35.31	337.86	2.63	-53.2	-68.1	3.8	1.49e+00	0	43	104	1471152128	77	20677
2026-01-28 10:39:39.34	337.97	2.37	-53.1	-68.1	3.8	1.49e+00	0	43	104	1471152128	77	20627
2026-01-28 10:39:43.37	338.08	2.12	-53.1	-68.1	3.8	1.49e+00	0	43	104	1471152128	77	20589

#Closed at: 2026-01-28 10:39:45
#Recorded file [1471 MB]: D:/lorett/data/31041_260128_132524.dat