passes_logs/2026/01/28/R3.2S_Murmansk/R3.2S_Murmansk__20260128_132101_NOAA_21_JPSS-2_rec.log

#Pass ID: 20260128_132101_NOAA 21 (JPSS-2)
#Satellite: NOAA 21 (JPSS-2)
#Configuration: NOAA-21
#almurnet v.1.7.20251203
#Start time: 2026-01-28 13:21:01

#Version: 2.2.20231116
#Station: R3.2S_Murmansk
#Location: 33.079688 lon 68.888172 lat
#TLE: 1 54234U 22150A   26027.77052245  .00000166  00000+0  99439-4 0  9997
#TLE: 2 54234  98.7510 328.5165 0000872 203.6403 156.4733 14.19540252166628

#Time	Az	El	Level	Level2	SNR	BER	BlckErr	Temp	State	Recorded	gain1	gain2
2026-01-28 13:21:01.63	253.14	1.99	-54.1	-66.9	3.8	1.49e+00	0	41	0	0	79	15973
2026-01-28 13:21:04.65	253.46	2.11	-54.0	-66.8	3.8	1.49e+00	0	41	104	0	78	16852
2026-01-28 13:21:07.66	253.79	2.23	-54.0	-66.8	3.8	1.49e+00	0	40	104	0	78	16767
2026-01-28 13:21:10.68	254.11	2.36	-54.1	-66.9	3.8	1.49e+00	0	41	104	0	78	16975
2026-01-28 13:21:13.70	254.44	2.48	-54.4	-67.2	3.8	1.49e+00	0	41	104	0	79	16588
2026-01-28 13:21:16.71	254.78	2.60	-54.4	-67.1	3.8	1.49e+00	0	41	104	0	79	16456
2026-01-28 13:21:19.74	255.11	2.72	-54.2	-67.0	3.8	1.49e+00	0	41	104	0	79	16219
2026-01-28 13:21:22.76	255.45	2.84	-54.1	-66.9	3.8	1.49e+00	0	41	104	0	79	15949
2026-01-28 13:21:25.79	255.79	2.96	-53.8	-66.6	3.8	1.49e+00	0	41	104	0	79	15493
2026-01-28 13:21:28.80	256.14	3.07	-53.4	-66.2	3.8	1.49e+00	0	41	104	0	78	15590
2026-01-28 13:21:31.83	256.49	3.19	-52.5	-65.2	3.8	1.49e+00	0	41	104	0	77	14871
2026-01-28 13:21:34.85	256.83	3.31	-52.4	-65.1	3.8	1.49e+00	0	42	104	0	76	15532
2026-01-28 13:21:37.88	257.19	3.43	-52.3	-65.1	3.8	1.49e+00	0	42	104	0	76	15493
2026-01-28 13:21:40.90	257.54	3.55	-52.3	-65.1	3.8	1.49e+00	0	41	104	0	76	15429
2026-01-28 13:21:43.92	257.90	3.67	-52.3	-65.1	3.8	1.49e+00	0	42	104	0	76	15446
2026-01-28 13:21:46.95	258.26	3.78	-52.3	-65.1	3.8	1.49e+00	0	42	104	0	76	15460
2026-01-28 13:21:49.97	258.62	3.90	-52.3	-65.0	3.8	1.49e+00	0	42	104	0	76	15285
2026-01-28 13:21:52.99	258.99	4.02	-52.3	-65.0	3.8	1.49e+00	0	42	104	0	76	15324
2026-01-28 13:21:56.02	259.36	4.13	-52.3	-65.1	3.8	1.49e+00	0	42	104	0	76	15417
2026-01-28 13:21:59.05	259.73	4.25	-52.3	-65.0	3.8	1.49e+00	0	42	104	0	76	15299
2026-01-28 13:22:02.07	260.11	4.36	-52.3	-64.9	3.8	1.49e+00	0	42	104	0	76	15065
2026-01-28 13:22:05.09	260.48	4.48	-52.3	-64.9	3.8	1.49e+00	0	42	104	0	76	15160
2026-01-28 13:22:08.12	260.86	4.59	-52.3	-65.0	3.8	1.49e+00	0	42	104	0	76	15365
2026-01-28 13:22:11.14	261.25	4.70	-52.0	-61.9	4.1	1.48e+00	0	42	104	0	76	10695
2026-01-28 13:22:14.17	261.63	4.82	-51.7	-59.7	4.9	7.03e-01	0	42	0	4194304	75	8792
2026-01-28 13:22:17.19	262.02	4.93	-50.6	-55.4	8.3	1.09e-01	0	42	0	13631488	73	6011
2026-01-28 13:22:20.22	262.41	5.04	-47.7	-49.8	14.1	6.10e-06	0	42	0	23068672	67	4467
2026-01-28 13:22:23.24	262.81	5.15	-47.9	-50.2	13.7	1.50e-06	0	42	0	32505856	66	4977
2026-01-28 13:22:26.26	263.20	5.26	-45.5	-46.9	17.1	0.00e+00	0	42	0	39845888	62	4258
2026-01-28 13:22:29.29	263.60	5.37	-45.5	-47.0	17.0	0.00e+00	0	42	0	49283072	62	4309
2026-01-28 13:22:32.31	264.01	5.48	-45.6	-47.1	16.9	0.00e+00	0	42	0	58720256	62	4362
2026-01-28 13:22:35.33	264.41	5.59	-45.2	-46.6	17.4	0.00e+00	0	42	0	68157440	62	4116
2026-01-28 13:22:38.35	264.82	5.69	-45.5	-47.0	17.0	0.00e+00	0	42	0	77594624	62	4301
2026-01-28 13:22:41.37	265.23	5.80	-45.3	-46.7	17.4	0.00e+00	0	42	0	87031808	62	4162
2026-01-28 13:22:44.40	265.65	5.91	-45.3	-46.6	17.4	0.00e+00	0	42	0	96468992	62	4140
2026-01-28 13:22:47.43	266.06	6.01	-45.2	-46.6	17.5	0.00e+00	0	42	0	105906176	62	4103
2026-01-28 13:22:50.46	266.48	6.12	-45.2	-46.6	17.5	0.00e+00	0	42	0	115343360	62	4099
2026-01-28 13:22:53.49	266.91	6.22	-45.2	-46.6	17.5	0.00e+00	0	42	0	124780544	62	4103
2026-01-28 13:22:56.51	267.33	6.32	-44.6	-45.8	18.1	0.00e+00	0	42	0	134217728	61	3994
2026-01-28 13:22:59.54	267.76	6.42	-45.1	-46.5	17.4	0.00e+00	0	42	0	143654912	61	4311
2026-01-28 13:23:02.57	268.20	6.52	-46.8	-48.8	14.8	0.00e+00	0	42	0	153092096	64	4732
2026-01-28 13:23:05.59	268.63	6.62	-47.5	-49.8	13.6	6.80e-06	0	42	0	162529280	65	5015
2026-01-28 13:23:08.61	269.07	6.72	-47.8	-50.4	12.9	4.11e-05	0	42	0	171966464	66	5064
2026-01-28 13:23:11.63	269.51	6.82	-47.7	-50.1	13.3	1.90e-05	0	42	0	181403648	66	4906
2026-01-28 13:23:14.66	269.95	6.92	-47.3	-49.5	14.1	0.00e+00	0	42	0	190840832	66	4547
2026-01-28 13:23:17.68	270.40	7.01	-46.0	-47.7	15.8	0.00e+00	0	42	0	200278016	64	4172
2026-01-28 13:23:20.71	270.84	7.10	-45.1	-46.5	17.3	0.00e+00	0	43	0	209715200	62	4084
2026-01-28 13:23:23.73	271.30	7.20	-44.9	-46.2	17.8	0.00e+00	0	42	0	219152384	61	4159
2026-01-28 13:23:26.76	271.75	7.29	-44.8	-46.1	17.9	0.00e+00	0	42	0	228589568	61	4132
2026-01-28 13:23:29.78	272.21	7.38	-44.8	-46.0	18.0	0.00e+00	0	42	0	238026752	61	4093
2026-01-28 13:23:32.80	272.67	7.47	-44.6	-45.9	18.3	0.00e+00	0	42	0	247463936	61	4012
2026-01-28 13:23:35.83	273.13	7.56	-44.7	-45.9	18.2	0.00e+00	0	42	0	256901120	61	4043
2026-01-28 13:23:38.85	273.59	7.64	-44.7	-45.9	18.2	0.00e+00	0	42	0	266338304	60	4255
2026-01-28 13:23:41.88	274.06	7.73	-44.5	-45.7	18.5	0.00e+00	0	42	0	275775488	60	4150
2026-01-28 13:23:44.90	274.53	7.81	-44.5	-45.7	18.4	0.00e+00	0	42	0	285212672	60	4187
2026-01-28 13:23:47.93	275.00	7.90	-44.7	-45.9	18.2	0.00e+00	0	42	0	294649856	60	4286
2026-01-28 13:23:50.95	275.48	7.98	-44.7	-45.9	18.2	0.00e+00	0	42	0	304087040	60	4285
2026-01-28 13:23:53.98	275.96	8.06	-44.8	-46.0	18.2	0.00e+00	0	42	0	313524224	60	4315
2026-01-28 13:23:57.00	276.44	8.14	-44.7	-45.9	18.3	0.00e+00	0	42	0	322961408	60	4277
2026-01-28 13:24:00.03	276.92	8.21	-44.7	-45.9	18.3	0.00e+00	0	42	0	332398592	60	4263
2026-01-28 13:24:03.04	277.40	8.29	-44.6	-45.7	18.5	0.00e+00	0	42	0	341835776	60	4187
2026-01-28 13:24:06.06	277.89	8.36	-44.2	-45.3	18.8	0.00e+00	0	42	0	351272960	60	3993
2026-01-28 13:24:09.09	278.38	8.43	-44.5	-45.7	18.6	0.00e+00	0	43	0	360710144	60	4151
2026-01-28 13:24:12.12	278.87	8.51	-44.2	-45.3	18.9	0.00e+00	0	42	0	370147328	60	4001
2026-01-28 13:24:15.14	279.37	8.57	-44.3	-45.5	18.8	0.00e+00	0	42	0	379584512	60	4055
2026-01-28 13:24:18.17	279.87	8.64	-44.3	-45.5	18.8	0.00e+00	0	42	0	389021696	60	4052
2026-01-28 13:24:21.19	280.36	8.71	-44.3	-45.5	18.8	0.00e+00	0	42	0	398458880	60	4052
2026-01-28 13:24:24.21	280.86	8.77	-44.4	-45.5	18.8	0.00e+00	0	42	0	407896064	60	4069
2026-01-28 13:24:27.23	281.37	8.83	-44.5	-45.6	18.6	0.00e+00	0	42	0	417333248	60	4139
2026-01-28 13:24:30.25	281.87	8.89	-44.4	-45.5	18.8	0.00e+00	0	42	0	426770432	60	4081
2026-01-28 13:24:33.28	282.38	8.95	-44.4	-45.5	18.8	0.00e+00	0	42	0	436207616	60	4093
2026-01-28 13:24:36.31	282.89	9.01	-44.4	-45.5	18.8	0.00e+00	0	42	0	445644800	60	4074
2026-01-28 13:24:39.33	283.40	9.07	-44.6	-45.7	18.7	0.00e+00	0	42	0	455081984	60	4185
2026-01-28 13:24:42.36	283.91	9.12	-44.3	-45.4	18.9	0.00e+00	0	42	0	464519168	60	4044
2026-01-28 13:24:45.38	284.43	9.17	-44.4	-45.6	18.8	0.00e+00	0	42	0	473956352	60	4110
2026-01-28 13:24:48.41	284.94	9.22	-44.6	-45.8	18.7	0.00e+00	0	43	0	483393536	60	4197
2026-01-28 13:24:51.43	285.46	9.27	-44.7	-45.9	18.6	0.00e+00	0	42	0	492830720	60	4248
2026-01-28 13:24:54.46	285.98	9.31	-44.6	-45.8	18.7	0.00e+00	0	42	0	502267904	60	4223
2026-01-28 13:24:57.48	286.50	9.36	-44.5	-45.6	18.8	0.00e+00	0	42	0	511705088	60	4132
2026-01-28 13:25:00.51	287.03	9.40	-44.4	-45.5	19.0	0.00e+00	0	42	0	521142272	60	4063
2026-01-28 13:25:03.53	287.55	9.44	-44.5	-45.7	18.7	0.00e+00	0	42	0	530579456	60	4169
2026-01-28 13:25:06.54	288.07	9.48	-44.6	-45.7	18.8	0.00e+00	0	42	0	540016640	60	4189
2026-01-28 13:25:09.58	288.60	9.51	-44.4	-45.5	19.0	0.00e+00	0	42	0	549453824	60	4081
2026-01-28 13:25:12.60	289.13	9.54	-44.4	-45.5	18.9	0.00e+00	0	42	0	558891008	60	4090
2026-01-28 13:25:15.62	289.65	9.58	-44.5	-45.6	18.8	0.00e+00	0	42	0	568328192	60	4138
2026-01-28 13:25:18.65	290.19	9.61	-44.5	-45.6	18.9	0.00e+00	0	42	0	577765376	60	4136
2026-01-28 13:25:21.68	290.72	9.63	-44.4	-45.5	19.1	0.00e+00	0	42	0	587202560	60	4058
2026-01-28 13:25:24.70	291.25	9.66	-44.4	-45.5	19.1	0.00e+00	0	42	0	596639744	60	4056
2026-01-28 13:25:27.72	291.78	9.68	-44.5	-45.7	18.9	0.00e+00	0	42	0	606076928	60	4149
2026-01-28 13:25:30.75	292.31	9.70	-44.5	-45.7	18.9	0.00e+00	0	42	0	616562688	60	4155
2026-01-28 13:25:33.77	292.85	9.72	-44.4	-45.5	19.0	0.00e+00	0	42	0	624951296	60	4071
2026-01-28 13:25:36.80	293.38	9.74	-44.2	-45.2	19.2	0.00e+00	0	42	0	634388480	60	3958
2026-01-28 13:25:39.82	293.92	9.75	-44.2	-45.3	19.2	0.00e+00	0	42	0	643825664	60	3977
2026-01-28 13:25:42.85	294.45	9.76	-44.2	-45.3	19.1	0.00e+00	0	42	0	654311424	60	3976
2026-01-28 13:25:45.88	294.99	9.77	-44.2	-45.3	19.1	0.00e+00	0	42	0	663748608	60	3971
2026-01-28 13:25:48.90	295.52	9.78	-44.2	-45.3	19.1	0.00e+00	0	42	0	672137216	60	3967
2026-01-28 13:25:51.93	296.06	9.79	-44.0	-45.1	19.3	0.00e+00	0	42	0	682622976	60	3880
2026-01-28 13:25:54.96	296.60	9.79	-44.1	-45.2	19.2	0.00e+00	0	42	0	692060160	60	3917
2026-01-28 13:25:57.99	297.14	9.79	-44.4	-45.5	19.1	0.00e+00	0	42	0	701497344	59	4330
2026-01-28 13:26:01.01	297.67	9.79	-44.5	-45.7	19.0	0.00e+00	0	42	0	710934528	59	4402
2026-01-28 13:26:04.04	298.21	9.79	-44.5	-45.6	19.0	0.00e+00	0	43	0	720371712	59	4383
2026-01-28 13:26:07.05	298.74	9.78	-44.4	-45.6	19.0	0.00e+00	0	42	0	729808896	59	4349
2026-01-28 13:26:10.08	299.28	9.78	-44.5	-45.6	19.0	0.00e+00	0	42	0	739246080	59	4369
2026-01-28 13:26:13.10	299.82	9.77	-44.5	-45.7	19.0	0.00e+00	0	42	0	748683264	59	4399
2026-01-28 13:26:16.13	300.35	9.75	-44.3	-45.4	19.2	0.00e+00	0	42	0	758120448	59	4284
2026-01-28 13:26:19.15	300.89	9.74	-44.3	-45.4	19.2	0.00e+00	0	42	0	767557632	59	4287
2026-01-28 13:26:22.18	301.42	9.72	-44.4	-45.5	19.1	0.00e+00	0	42	0	776994816	59	4337
2026-01-28 13:26:25.21	301.96	9.71	-44.3	-45.4	19.3	0.00e+00	0	42	0	786432000	59	4253
2026-01-28 13:26:28.24	302.49	9.69	-44.3	-45.4	19.2	0.00e+00	0	42	0	795869184	59	4267
2026-01-28 13:26:31.25	303.02	9.66	-44.5	-45.6	19.1	0.00e+00	0	42	0	805306368	59	4355
2026-01-28 13:26:34.28	303.55	9.64	-44.2	-45.3	19.3	0.00e+00	0	42	0	814743552	59	4208
2026-01-28 13:26:37.31	304.08	9.61	-44.1	-45.2	19.3	0.00e+00	0	42	0	824180736	59	4186
2026-01-28 13:26:40.34	304.61	9.58	-44.3	-45.4	19.2	0.00e+00	0	42	0	833617920	59	4278
2026-01-28 13:26:43.37	305.14	9.55	-44.3	-45.4	19.2	0.00e+00	0	42	0	843055104	59	4249
2026-01-28 13:26:46.40	305.67	9.52	-44.1	-45.2	19.3	0.00e+00	0	42	0	852492288	59	4160
2026-01-28 13:26:49.42	306.20	9.48	-44.2	-45.3	19.2	0.00e+00	0	42	0	861929472	59	4223
2026-01-28 13:26:52.45	306.72	9.45	-44.3	-45.4	19.1	0.00e+00	0	42	0	871366656	59	4252
2026-01-28 13:26:55.47	307.24	9.41	-44.2	-45.3	19.3	0.00e+00	0	42	0	880803840	59	4195
2026-01-28 13:26:58.49	307.76	9.37	-44.1	-45.2	19.4	0.00e+00	0	43	0	890241024	59	4164
2026-01-28 13:27:01.52	308.29	9.32	-44.3	-45.5	19.1	0.00e+00	0	43	0	899678208	59	4300
2026-01-28 13:27:04.53	308.80	9.28	-44.6	-45.7	18.8	0.00e+00	0	42	0	909115392	59	4436
2026-01-28 13:27:07.56	309.32	9.23	-44.2	-45.3	18.9	0.00e+00	0	42	0	918552576	60	3970
2026-01-28 13:27:10.58	309.84	9.18	-44.2	-45.3	18.8	0.00e+00	0	42	0	927989760	60	3993
2026-01-28 13:27:13.61	310.35	9.13	-44.3	-45.5	18.7	0.00e+00	0	42	0	937426944	60	4075
2026-01-28 13:27:16.63	310.86	9.08	-44.3	-45.4	18.8	0.00e+00	0	42	0	946864128	60	4040
2026-01-28 13:27:19.66	311.37	9.03	-44.3	-45.5	18.7	0.00e+00	0	43	0	956301312	60	4053
2026-01-28 13:27:22.68	311.88	8.97	-44.3	-45.4	18.7	0.00e+00	0	42	0	965738496	60	4044
2026-01-28 13:27:25.70	312.39	8.91	-44.3	-45.5	18.7	0.00e+00	0	43	0	975175680	60	4054
2026-01-28 13:27:28.72	312.89	8.85	-44.4	-45.5	18.6	0.00e+00	0	42	0	984612864	60	4087
2026-01-28 13:27:31.75	313.39	8.79	-44.5	-45.7	18.5	0.00e+00	0	42	0	994050048	60	4157
2026-01-28 13:27:34.78	313.90	8.73	-44.2	-45.4	18.7	0.00e+00	0	42	0	1003487232	60	4024
2026-01-28 13:27:37.80	314.39	8.66	-44.1	-45.2	18.9	0.00e+00	0	43	0	1012924416	60	3933
2026-01-28 13:27:40.82	314.89	8.59	-44.3	-45.5	18.9	0.00e+00	0	42	0	1022361600	59	4300
2026-01-28 13:27:43.84	315.38	8.53	-44.2	-45.3	19.0	0.00e+00	0	42	0	1031798784	59	4240
2026-01-28 13:27:46.87	315.87	8.46	-44.3	-45.5	18.9	0.00e+00	0	42	0	1041235968	59	4292
2026-01-28 13:27:49.89	316.36	8.38	-44.4	-45.5	19.0	0.00e+00	0	42	0	1050673152	59	4314
2026-01-28 13:27:52.92	316.85	8.31	-44.4	-45.6	18.9	0.00e+00	0	42	0	1060110336	59	4351
2026-01-28 13:27:55.94	317.33	8.24	-44.4	-45.6	18.8	0.00e+00	0	42	0	1069547520	59	4344
2026-01-28 13:27:58.96	317.81	8.16	-44.2	-45.3	19.1	0.00e+00	0	42	0	1078984704	59	4214
2026-01-28 13:28:01.99	318.30	8.08	-44.3	-45.4	18.9	0.00e+00	0	42	0	1088421888	59	4291
2026-01-28 13:28:05.01	318.77	8.00	-44.4	-45.6	18.8	0.00e+00	0	42	0	1097859072	59	4362
2026-01-28 13:28:08.03	319.25	7.92	-44.4	-45.6	18.8	0.00e+00	0	42	0	1107296256	59	4361
2026-01-28 13:28:11.05	319.72	7.84	-44.6	-45.7	18.6	0.00e+00	0	42	0	1116733440	59	4431
2026-01-28 13:28:14.08	320.19	7.76	-44.6	-45.8	18.6	0.00e+00	0	43	0	1126170624	59	4452
2026-01-28 13:28:17.10	320.65	7.67	-44.3	-45.4	18.5	0.00e+00	0	42	0	1135607808	60	4038
2026-01-28 13:28:20.12	321.12	7.59	-44.2	-45.4	18.6	0.00e+00	0	42	0	1145044992	60	4027
2026-01-28 13:28:23.15	321.58	7.50	-44.1	-45.3	18.7	0.00e+00	0	42	0	1154482176	60	3970
2026-01-28 13:28:26.17	322.04	7.41	-44.3	-45.4	18.5	0.00e+00	0	42	0	1163919360	60	4050
2026-01-28 13:28:29.19	322.49	7.32	-44.3	-45.4	18.5	0.00e+00	0	42	0	1173356544	60	4046
2026-01-28 13:28:32.22	322.95	7.23	-44.2	-45.4	18.5	0.00e+00	0	42	0	1182793728	60	4013
2026-01-28 13:28:35.24	323.40	7.14	-44.4	-45.5	18.7	0.00e+00	0	42	0	1192230912	59	4338
2026-01-28 13:28:38.27	323.85	7.05	-44.4	-45.6	18.8	0.00e+00	0	42	0	1201668096	59	4343
2026-01-28 13:28:41.30	324.29	6.95	-44.3	-45.5	18.5	0.00e+00	0	42	0	1211105280	60	4081
2026-01-28 13:28:44.32	324.73	6.86	-44.2	-45.4	18.6	0.00e+00	0	42	0	1220542464	60	4032
2026-01-28 13:28:47.35	325.17	6.76	-44.4	-45.6	18.3	0.00e+00	0	42	0	1229979648	60	4133
2026-01-28 13:28:50.37	325.61	6.66	-44.7	-45.9	18.0	0.00e+00	0	42	0	1239416832	60	4281
2026-01-28 13:28:53.40	326.04	6.56	-44.4	-45.6	18.3	0.00e+00	0	42	0	1248854016	60	4107
2026-01-28 13:28:56.42	326.48	6.46	-44.4	-45.6	18.3	0.00e+00	0	42	0	1258291200	60	4119
2026-01-28 13:28:59.44	326.90	6.36	-44.4	-45.6	18.3	0.00e+00	0	42	0	1268776960	60	4102
2026-01-28 13:29:02.47	327.33	6.26	-44.3	-45.6	18.3	0.00e+00	0	43	0	1277165568	60	4099
2026-01-28 13:29:05.49	327.75	6.16	-44.6	-45.9	18.0	0.00e+00	0	42	0	1286602752	60	4251
2026-01-28 13:29:08.51	328.17	6.06	-45.0	-46.4	17.5	0.00e+00	0	42	0	1296039936	60	4510
2026-01-28 13:29:11.53	328.59	5.95	-45.2	-46.6	17.3	0.00e+00	0	42	0	1306525696	61	4346
2026-01-28 13:29:14.56	329.00	5.85	-44.9	-46.2	17.6	0.00e+00	0	42	0	1315962880	61	4180
2026-01-28 13:29:17.58	329.41	5.74	-44.9	-46.2	17.6	0.00e+00	0	42	0	1324351488	61	4163
2026-01-28 13:29:20.60	329.82	5.64	-44.8	-46.1	17.7	0.00e+00	0	43	0	1333788672	61	4140
2026-01-28 13:29:23.62	330.22	5.53	-44.8	-46.1	17.7	0.00e+00	0	43	0	1343225856	61	4121
2026-01-28 13:29:26.65	330.63	5.42	-45.1	-46.4	17.3	0.00e+00	0	43	0	1353711616	61	4288
2026-01-28 13:29:29.67	331.03	5.31	-45.1	-46.5	17.2	0.00e+00	0	42	0	1363148800	61	4302
2026-01-28 13:29:32.69	331.42	5.21	-45.1	-46.5	17.3	0.00e+00	0	42	0	1371537408	61	4310
2026-01-28 13:29:35.72	331.82	5.10	-45.1	-46.4	17.2	0.00e+00	0	42	0	1380974592	61	4285
2026-01-28 13:29:38.74	332.21	4.98	-51.5	-58.9	5.4	8.82e-03	0	42	0	1391460352	73	9024
2026-01-28 13:29:41.76	332.60	4.87	-53.0	-65.8	3.8	1.49e+00	0	43	104	1391460352	76	16750
2026-01-28 13:29:44.79	332.98	4.76	-53.3	-66.0	3.8	1.49e+00	0	43	104	1391460352	77	16298
2026-01-28 13:29:47.81	333.36	4.65	-53.3	-66.0	3.8	1.49e+00	0	43	104	1391460352	77	16273
2026-01-28 13:29:50.83	333.74	4.54	-53.1	-65.8	3.8	1.49e+00	0	43	104	1391460352	77	15831
2026-01-28 13:29:53.86	334.12	4.42	-53.2	-65.9	3.8	1.49e+00	0	43	104	1391460352	77	16057
2026-01-28 13:29:56.89	334.50	4.31	-53.3	-66.1	3.8	1.49e+00	0	43	104	1391460352	77	16356
2026-01-28 13:29:59.92	334.87	4.20	-53.3	-66.1	3.8	1.49e+00	0	43	104	1391460352	77	16355
2026-01-28 13:30:02.94	335.24	4.08	-53.2	-66.0	3.8	1.49e+00	0	43	104	1391460352	77	16129
2026-01-28 13:30:05.96	335.60	3.97	-53.2	-65.9	3.8	1.49e+00	0	43	104	1391460352	77	16125
2026-01-28 13:30:08.99	335.97	3.85	-53.2	-65.9	3.8	1.49e+00	0	43	104	1391460352	77	16120
2026-01-28 13:30:12.02	336.33	3.73	-53.2	-65.9	3.8	1.49e+00	0	43	104	1391460352	77	16038
2026-01-28 13:30:15.05	336.69	3.62	-53.2	-65.9	3.8	1.49e+00	0	43	104	1391460352	77	16046
2026-01-28 13:30:18.07	337.04	3.50	-53.2	-65.9	3.8	1.49e+00	0	43	104	1391460352	77	16029
2026-01-28 13:30:21.09	337.39	3.38	-53.1	-65.9	3.8	1.49e+00	0	43	104	1391460352	77	16023
2026-01-28 13:30:24.11	337.74	3.27	-53.1	-65.9	3.8	1.49e+00	0	43	104	1391460352	77	16021
2026-01-28 13:30:27.13	338.09	3.15	-53.1	-65.8	3.8	1.49e+00	0	43	104	1391460352	77	15920
2026-01-28 13:30:30.16	338.43	3.03	-53.1	-65.8	3.8	1.49e+00	0	43	104	1391460352	77	15938
2026-01-28 13:30:33.18	338.77	2.91	-53.1	-65.8	3.8	1.49e+00	0	43	104	1391460352	77	15892
2026-01-28 13:30:36.21	339.11	2.79	-53.1	-65.8	3.8	1.49e+00	0	43	104	1391460352	77	15911
2026-01-28 13:30:39.23	339.45	2.67	-53.1	-65.8	3.8	1.49e+00	0	43	104	1391460352	77	15924
2026-01-28 13:30:42.25	339.78	2.55	-53.1	-65.8	3.8	1.49e+00	0	43	104	1391460352	77	15900
2026-01-28 13:30:45.27	340.11	2.43	-53.1	-65.8	3.8	1.49e+00	0	43	104	1391460352	77	15886
2026-01-28 13:30:48.30	340.44	2.31	-53.1	-65.8	3.8	1.49e+00	0	43	104	1391460352	77	15891
2026-01-28 13:30:51.32	340.77	2.19	-53.1	-65.8	3.8	1.49e+00	0	43	104	1391460352	77	15845
2026-01-28 13:30:54.34	341.09	2.07	-53.1	-65.8	3.8	1.49e+00	0	43	104	1391460352	77	15867
2026-01-28 13:30:57.37	341.41	1.95	-53.1	-65.8	3.8	1.49e+00	0	43	104	1391460352	77	15839

#Closed at: 2026-01-28 13:30:57
#Recorded file [1391 MB]: D:/lorett/data/31041_260128_162101.dat