passes_logs/2026/01/28/R3.2S_Murmansk/R3.2S_Murmansk__20260128_054723_NOAA_20_JPSS-1_rec.log

#Pass ID: 20260128_054723_NOAA 20 (JPSS-1)
#Satellite: NOAA 20 (JPSS-1)
#Configuration: NOAA 20
#almurnet v.1.7.20251203
#Start time: 2026-01-28 05:47:24

#Version: 2.2.20231116
#Station: R3.2S_Murmansk
#Location: 33.079688 lon 68.888172 lat
#TLE: 1 43013U 17073A   26027.31247158  .00000160  00000+0  97001-4 0  9994
#TLE: 2 43013  98.7647 328.1226 0000969  21.9986 338.1231 14.19541059424489

#Time	Az	El	Level	Level2	SNR	BER	BlckErr	Temp	State	Recorded	gain1	gain2
2026-01-28 05:47:24.03	72.06	2.06	-54.0	-69.0	3.8	1.49e+00	0	41	0	0	79	20375
2026-01-28 05:47:27.04	71.87	2.23	-54.0	-68.9	3.8	1.49e+00	0	41	104	0	78	21491
2026-01-28 05:47:30.06	71.68	2.40	-54.2	-69.2	3.8	1.49e+00	0	41	104	0	78	22099
2026-01-28 05:47:33.08	71.48	2.58	-54.2	-69.2	3.8	1.49e+00	0	41	104	0	78	22065
2026-01-28 05:47:36.10	71.29	2.75	-54.1	-69.1	3.8	1.49e+00	0	41	104	0	78	21810
2026-01-28 05:47:39.13	71.09	2.93	-53.9	-68.8	3.8	1.49e+00	0	41	104	0	78	21250
2026-01-28 05:47:42.15	70.88	3.11	-53.8	-68.7	3.8	1.49e+00	0	41	104	0	78	20976
2026-01-28 05:47:45.18	70.68	3.28	-53.4	-68.3	3.8	1.49e+00	0	42	104	0	78	20007
2026-01-28 05:47:48.21	70.47	3.46	-52.8	-67.8	3.8	1.49e+00	0	42	104	0	77	19892
2026-01-28 05:47:51.23	70.26	3.64	-51.9	-66.8	3.8	1.49e+00	0	42	104	0	75	20011
2026-01-28 05:47:54.25	70.05	3.82	-51.9	-66.8	3.8	1.49e+00	0	42	104	0	75	19881
2026-01-28 05:47:57.26	69.84	4.00	-51.8	-66.0	3.8	1.49e+00	0	42	104	0	75	18100
2026-01-28 05:48:00.29	69.62	4.18	-51.7	-63.3	4.2	1.41e+00	0	42	0	0	75	13268
2026-01-28 05:48:03.31	69.40	4.36	-51.6	-62.2	4.5	1.18e+00	14	42	0	3145728	75	11793
2026-01-28 05:48:06.33	69.17	4.55	-51.7	-64.6	3.9	1.48e+00	0	42	104	5242880	75	15579
2026-01-28 05:48:09.35	68.95	4.73	-51.7	-64.9	3.8	1.49e+00	0	42	104	5242880	75	16021
2026-01-28 05:48:12.38	68.72	4.92	-51.5	-61.5	4.9	8.31e-01	0	42	0	7340032	75	10799
2026-01-28 05:48:15.40	68.48	5.10	-50.8	-57.3	7.9	4.86e-01	0	42	0	12582912	73	7482
2026-01-28 05:48:18.41	68.25	5.29	-49.4	-53.1	12.7	1.63e-01	0	42	0	15728640	71	5170
2026-01-28 05:48:21.43	68.01	5.48	-48.2	-50.9	15.1	1.50e-06	0	42	0	22020096	68	4785
2026-01-28 05:48:24.45	67.77	5.66	-48.2	-50.9	15.1	0.00e+00	0	42	0	27262976	68	4778
2026-01-28 05:48:27.47	67.52	5.85	-48.1	-50.8	15.2	0.00e+00	0	42	0	33554432	68	4724
2026-01-28 05:48:30.48	67.27	6.04	-48.0	-50.6	15.4	0.00e+00	0	42	0	38797312	67	4922
2026-01-28 05:48:33.49	67.02	6.23	-47.9	-50.4	15.6	0.00e+00	0	43	0	44040192	67	4783
2026-01-28 05:48:36.51	66.77	6.42	-47.8	-50.2	15.9	0.00e+00	0	42	0	50331648	67	4665
2026-01-28 05:48:39.54	66.51	6.62	-47.8	-50.1	16.0	0.00e+00	0	42	0	55574528	67	4641
2026-01-28 05:48:42.56	66.25	6.81	-47.7	-50.0	16.2	0.00e+00	0	42	0	61865984	67	4567
2026-01-28 05:48:45.58	65.98	7.00	-47.8	-50.2	16.0	0.00e+00	0	42	0	67108864	67	4668
2026-01-28 05:48:48.59	65.71	7.20	-48.0	-50.4	15.8	0.00e+00	0	42	0	72351744	67	4810
2026-01-28 05:48:51.60	65.44	7.39	-47.7	-50.0	16.2	0.00e+00	0	42	0	78643200	67	4573
2026-01-28 05:48:54.62	65.16	7.59	-47.8	-50.2	16.1	0.00e+00	0	42	0	83886080	67	4653
2026-01-28 05:48:57.64	64.88	7.79	-47.8	-50.1	16.2	0.00e+00	0	42	0	90177536	67	4629
2026-01-28 05:49:00.67	64.59	7.99	-47.8	-50.0	16.2	0.00e+00	0	42	0	95420416	67	4589
2026-01-28 05:49:03.70	64.30	8.19	-47.8	-50.1	16.2	0.00e+00	0	43	0	100663296	67	4627
2026-01-28 05:49:06.71	64.01	8.39	-47.6	-49.9	16.5	0.00e+00	0	43	0	106954752	67	4497
2026-01-28 05:49:09.74	63.71	8.59	-47.5	-49.7	16.6	0.00e+00	0	43	0	112197632	67	4419
2026-01-28 05:49:12.76	63.41	8.79	-47.4	-49.5	16.9	0.00e+00	0	43	0	118489088	66	4569
2026-01-28 05:49:15.77	63.10	8.99	-47.4	-49.4	16.9	0.00e+00	0	43	0	123731968	66	4537
2026-01-28 05:49:18.79	62.79	9.19	-47.2	-49.2	17.2	0.00e+00	0	43	0	128974848	66	4423
2026-01-28 05:49:21.81	62.48	9.40	-47.3	-49.3	17.2	0.00e+00	0	43	0	135266304	66	4463
2026-01-28 05:49:24.83	62.16	9.60	-47.2	-49.2	17.2	0.00e+00	0	43	0	140509184	66	4426
2026-01-28 05:49:27.85	61.83	9.81	-47.3	-49.3	17.1	0.00e+00	0	43	0	146800640	66	4455
2026-01-28 05:49:30.87	61.50	10.02	-47.3	-49.3	17.1	0.00e+00	0	43	0	152043520	66	4492
2026-01-28 05:49:33.89	61.17	10.22	-47.4	-49.5	17.0	0.00e+00	0	43	0	157286400	66	4580
2026-01-28 05:49:36.91	60.83	10.43	-47.4	-49.4	17.0	0.00e+00	0	43	0	163577856	66	4535
2026-01-28 05:49:39.92	60.49	10.64	-47.4	-49.5	17.1	0.00e+00	0	43	0	168820736	66	4548
2026-01-28 05:49:42.95	60.14	10.85	-47.4	-49.4	17.1	0.00e+00	0	43	0	175112192	66	4509
2026-01-28 05:49:45.97	59.78	11.06	-47.3	-49.2	17.2	0.00e+00	0	43	0	180355072	66	4429
2026-01-28 05:49:48.99	59.42	11.27	-47.1	-49.1	17.5	0.00e+00	0	43	0	185597952	66	4354
2026-01-28 05:49:52.01	59.06	11.48	-47.1	-49.0	17.5	0.00e+00	0	43	0	191889408	66	4309
2026-01-28 05:49:55.03	58.69	11.70	-47.0	-48.9	17.5	0.00e+00	0	43	0	197132288	66	4261
2026-01-28 05:49:58.04	58.31	11.91	-46.8	-48.7	17.5	0.00e+00	0	43	0	203423744	65	4401
2026-01-28 05:50:01.06	57.93	12.12	-46.8	-48.6	17.7	0.00e+00	0	43	0	208666624	65	4382
2026-01-28 05:50:04.08	57.54	12.34	-46.7	-48.5	18.0	0.00e+00	0	43	0	213909504	65	4321
2026-01-28 05:50:07.10	57.15	12.55	-46.8	-48.6	17.7	0.00e+00	0	43	0	220200960	65	4383
2026-01-28 05:50:10.11	56.75	12.77	-46.8	-48.5	17.9	0.00e+00	0	43	0	225443840	65	4328
2026-01-28 05:50:13.13	56.35	12.98	-46.6	-48.4	18.0	0.00e+00	0	43	0	231735296	65	4256
2026-01-28 05:50:16.15	55.94	13.20	-46.5	-48.2	18.0	0.00e+00	0	43	0	236978176	65	4182
2026-01-28 05:50:19.17	55.52	13.42	-46.5	-48.2	18.3	0.00e+00	0	43	0	242221056	65	4177
2026-01-28 05:50:22.19	55.10	13.63	-46.5	-48.2	18.3	0.00e+00	0	43	0	248512512	64	4407
2026-01-28 05:50:25.22	54.67	13.85	-46.2	-47.8	18.4	0.00e+00	0	43	0	253755392	64	4227
2026-01-28 05:50:28.24	54.23	14.07	-45.8	-47.7	14.0	0.00e+00	0	43	0	260046848	63	4408
2026-01-28 05:50:31.25	53.79	14.29	-38.3	-45.1	3.7	1.42e+00	0	43	104	264241152	48	7735
2026-01-28 05:50:34.27	53.34	14.51	-45.0	-48.4	7.8	2.09e-01	0	43	0	264241152	60	5675
2026-01-28 05:50:37.29	52.88	14.72	-50.6	-54.8	11.4	4.07e-01	0	43	0	267386880	73	5656
2026-01-28 05:50:40.32	52.42	14.94	-46.7	-48.4	18.0	0.00e+00	0	43	0	273678336	65	4288
2026-01-28 05:50:43.34	51.95	15.16	-46.7	-48.4	17.8	0.00e+00	0	43	0	278921216	65	4271
2026-01-28 05:50:46.37	51.47	15.38	-46.5	-48.2	18.5	0.00e+00	0	43	0	285212672	64	4416
2026-01-28 05:50:49.38	50.98	15.60	-46.7	-48.4	18.3	0.00e+00	0	43	0	290455552	64	4504
2026-01-28 05:50:52.41	50.49	15.82	-46.8	-48.5	18.2	0.00e+00	0	43	0	295698432	64	4583
2026-01-28 05:50:55.43	49.99	16.04	-46.7	-48.5	18.3	0.00e+00	0	43	0	301989888	64	4550
2026-01-28 05:50:58.44	49.49	16.25	-46.7	-48.4	18.3	0.00e+00	0	43	0	307232768	64	4522
2026-01-28 05:51:01.47	48.97	16.47	-46.8	-48.6	18.1	0.00e+00	0	43	0	313524224	64	4615
2026-01-28 05:51:04.48	48.45	16.69	-46.9	-48.6	18.0	0.00e+00	0	43	0	318767104	64	4638
2026-01-28 05:51:07.50	47.92	16.90	-46.9	-48.7	18.0	0.00e+00	0	43	0	324009984	64	4692
2026-01-28 05:51:10.52	47.39	17.12	-46.9	-48.7	18.1	0.00e+00	0	43	0	330301440	64	4674
2026-01-28 05:51:13.53	46.84	17.33	-46.9	-48.7	18.1	0.00e+00	0	43	0	335544320	64	4677
2026-01-28 05:51:16.55	46.29	17.55	-46.8	-48.4	18.3	0.00e+00	0	43	0	341835776	64	4545
2026-01-28 05:51:19.57	45.73	17.76	-46.7	-48.4	18.5	0.00e+00	0	43	0	347078656	64	4494
2026-01-28 05:51:22.59	45.16	17.97	-46.6	-48.2	18.6	0.00e+00	0	43	0	352321536	64	4420
2026-01-28 05:51:25.61	44.58	18.18	-46.6	-48.2	18.6	0.00e+00	0	43	0	358612992	64	4419
2026-01-28 05:51:28.63	44.00	18.39	-46.1	-47.7	19.1	0.00e+00	0	43	0	363855872	64	4152
2026-01-28 05:51:31.65	43.41	18.60	-46.0	-47.5	19.4	0.00e+00	0	43	0	370147328	63	4299
2026-01-28 05:51:34.68	42.80	18.81	-45.6	-46.9	20.0	0.00e+00	0	43	0	375390208	63	4046
2026-01-28 05:51:37.70	42.19	19.01	-45.3	-46.6	20.4	0.00e+00	0	43	0	380633088	62	4109
2026-01-28 05:51:40.72	41.57	19.22	-45.1	-46.4	20.5	0.00e+00	0	43	0	386924544	62	4035
2026-01-28 05:51:43.74	40.95	19.42	-45.0	-46.3	20.7	0.00e+00	0	43	0	392167424	61	4200
2026-01-28 05:51:46.77	40.31	19.62	-44.8	-46.0	20.9	0.00e+00	0	43	0	398458880	61	4098
2026-01-28 05:51:49.79	39.67	19.82	-44.8	-46.0	20.9	0.00e+00	0	43	0	403701760	61	4085
2026-01-28 05:51:52.81	39.02	20.01	-44.6	-45.9	21.1	0.00e+00	0	43	0	408944640	61	4007
2026-01-28 05:51:55.83	38.36	20.20	-44.6	-45.8	21.1	0.00e+00	0	43	0	415236096	61	3971
2026-01-28 05:51:58.85	37.69	20.39	-44.3	-45.5	21.4	0.00e+00	0	43	0	420478976	60	4072
2026-01-28 05:52:01.88	37.01	20.58	-44.5	-45.7	21.2	0.00e+00	0	43	0	426770432	60	4172
2026-01-28 05:52:04.89	36.33	20.76	-44.5	-45.7	21.2	0.00e+00	0	43	0	432013312	60	4174
2026-01-28 05:52:07.92	35.63	20.95	-44.5	-45.7	21.2	0.00e+00	0	43	0	437256192	60	4169
2026-01-28 05:52:10.94	34.93	21.12	-44.6	-45.8	21.1	0.00e+00	0	43	0	443547648	60	4239
2026-01-28 05:52:13.96	34.22	21.30	-44.6	-45.7	21.2	0.00e+00	0	43	0	448790528	60	4188
2026-01-28 05:52:16.98	33.50	21.47	-44.8	-46.0	20.9	0.00e+00	0	43	0	455081984	60	4300
2026-01-28 05:52:20.00	32.78	21.64	-44.6	-45.8	21.2	0.00e+00	0	43	0	460324864	60	4216
2026-01-28 05:52:23.02	32.05	21.80	-44.3	-45.4	21.5	0.00e+00	0	43	0	465567744	60	4051
2026-01-28 05:52:26.04	31.31	21.96	-44.3	-45.4	21.6	0.00e+00	0	43	0	471859200	60	4028
2026-01-28 05:52:29.05	30.56	22.11	-44.2	-45.3	21.6	0.00e+00	0	43	0	477102080	60	4003
2026-01-28 05:52:32.08	29.80	22.26	-44.3	-45.4	21.5	0.00e+00	0	43	0	483393536	60	4041
2026-01-28 05:52:35.09	29.04	22.41	-44.2	-45.3	21.6	0.00e+00	0	43	0	488636416	60	3993
2026-01-28 05:52:38.11	28.27	22.55	-44.3	-45.4	21.9	0.00e+00	0	43	0	493879296	59	4272
2026-01-28 05:52:41.13	27.49	22.69	-44.4	-45.6	21.7	0.00e+00	0	43	0	500170752	59	4353
2026-01-28 05:52:44.16	26.71	22.82	-44.5	-45.6	21.7	0.00e+00	0	43	0	505413632	59	4372
2026-01-28 05:52:47.18	25.92	22.94	-44.7	-45.9	21.5	0.00e+00	0	43	0	511705088	59	4514
2026-01-28 05:52:50.20	25.12	23.07	-44.3	-45.4	21.5	0.00e+00	0	43	0	516947968	60	4043
2026-01-28 05:52:53.22	24.32	23.18	-44.3	-45.4	21.6	0.00e+00	0	43	0	522190848	60	4031
2026-01-28 05:52:56.24	23.51	23.29	-44.6	-45.8	21.3	0.00e+00	0	43	0	528482304	60	4205
2026-01-28 05:52:59.26	22.69	23.39	-45.1	-46.3	20.7	0.00e+00	0	43	0	533725184	60	4482
2026-01-28 05:53:02.29	21.87	23.49	-45.5	-46.8	20.2	0.00e+00	0	43	0	540016640	61	4486
2026-01-28 05:53:05.31	21.05	23.59	-45.5	-46.8	20.3	0.00e+00	0	43	0	545259520	61	4469
2026-01-28 05:53:08.34	20.21	23.67	-45.8	-47.2	19.9	0.00e+00	0	43	0	550502400	62	4422
2026-01-28 05:53:11.36	19.38	23.75	-45.7	-47.0	20.1	0.00e+00	0	43	0	556793856	62	4336
2026-01-28 05:53:14.39	18.54	23.82	-46.0	-47.4	19.7	0.00e+00	0	43	0	562036736	62	4518
2026-01-28 05:53:17.41	17.70	23.89	-46.1	-47.6	19.5	0.00e+00	0	43	0	568328192	62	4626
2026-01-28 05:53:20.43	16.85	23.95	-46.4	-47.9	19.3	0.00e+00	0	43	0	573571072	63	4516
2026-01-28 05:53:23.45	16.00	24.00	-46.4	-47.9	19.3	0.00e+00	0	43	0	578813952	63	4539
2026-01-28 05:53:26.47	15.15	24.05	-46.1	-47.6	19.5	0.00e+00	0	43	0	585105408	63	4356
2026-01-28 05:53:29.50	14.30	24.09	-46.0	-47.4	19.7	0.00e+00	0	43	0	590348288	63	4268
2026-01-28 05:53:32.53	13.44	24.12	-46.2	-47.7	19.5	0.00e+00	0	43	0	596639744	63	4405
2026-01-28 05:53:35.54	12.58	24.15	-46.1	-47.5	19.6	0.00e+00	0	43	0	601882624	63	4319
2026-01-28 05:53:38.56	11.73	24.17	-46.1	-47.6	19.6	0.00e+00	0	43	0	607125504	63	4341
2026-01-28 05:53:41.58	10.87	24.18	-45.9	-47.3	19.8	0.00e+00	0	43	0	613416960	63	4240
2026-01-28 05:53:44.61	10.00	24.19	-46.1	-47.5	19.7	0.00e+00	0	43	0	618659840	63	4311
2026-01-28 05:53:47.63	9.14	24.18	-45.8	-47.2	20.0	0.00e+00	0	43	0	624951296	63	4175
2026-01-28 05:53:50.64	8.29	24.18	-45.4	-46.7	20.4	0.00e+00	0	43	0	630194176	62	4151
2026-01-28 05:53:53.66	7.43	24.16	-45.3	-46.6	20.5	0.00e+00	0	43	0	635437056	62	4127
2026-01-28 05:53:56.67	6.57	24.14	-44.9	-46.1	21.0	0.00e+00	0	43	0	641728512	61	4117
2026-01-28 05:53:59.70	5.72	24.11	-44.7	-45.9	21.2	0.00e+00	0	43	0	646971392	61	4036
2026-01-28 05:54:02.72	4.86	24.07	-44.3	-45.5	21.6	0.00e+00	0	43	0	653262848	60	4052
2026-01-28 05:54:05.74	4.01	24.03	-44.4	-45.5	21.9	0.00e+00	0	43	0	658505728	59	4304
2026-01-28 05:54:08.77	3.16	23.98	-44.4	-45.6	21.7	0.00e+00	0	43	0	663748608	59	4352
2026-01-28 05:54:11.80	2.31	23.92	-44.2	-45.3	22.1	0.00e+00	0	43	0	670040064	59	4202
2026-01-28 05:54:14.81	1.47	23.86	-44.0	-45.1	22.2	0.00e+00	0	43	0	675282944	59	4132
2026-01-28 05:54:17.83	0.63	23.78	-43.9	-45.0	22.4	0.00e+00	0	43	0	681574400	59	4068
2026-01-28 05:54:20.85	359.79	23.71	-44.2	-45.2	22.1	0.00e+00	0	43	0	686817280	59	4189
2026-01-28 05:54:23.88	358.96	23.62	-44.3	-45.4	22.0	0.00e+00	0	43	0	692060160	59	4262
2026-01-28 05:54:26.90	358.13	23.54	-44.5	-45.6	21.8	0.00e+00	0	43	0	698351616	59	4370
2026-01-28 05:54:29.92	357.31	23.44	-44.5	-45.6	21.7	0.00e+00	0	43	0	703594496	59	4386
2026-01-28 05:54:32.93	356.50	23.34	-44.5	-45.6	21.4	0.00e+00	0	43	0	709885952	60	4128
2026-01-28 05:54:35.96	355.68	23.23	-44.6	-45.7	21.3	0.00e+00	0	43	0	715128832	60	4192
2026-01-28 05:54:38.98	354.88	23.12	-44.9	-46.2	20.9	0.00e+00	0	43	0	720371712	60	4394
2026-01-28 05:54:42.00	354.08	23.00	-44.9	-46.2	20.9	0.00e+00	0	43	0	726663168	60	4396
2026-01-28 05:54:45.02	353.29	22.88	-45.0	-46.2	20.8	0.00e+00	0	43	0	731906048	60	4425
2026-01-28 05:54:48.04	352.50	22.75	-45.4	-46.7	20.3	0.00e+00	0	43	0	738197504	61	4437
2026-01-28 05:54:51.06	351.72	22.61	-45.7	-47.1	20.1	0.00e+00	0	43	0	743440384	62	4356
2026-01-28 05:54:54.08	350.95	22.47	-45.5	-46.9	20.2	0.00e+00	0	43	0	748683264	62	4254
2026-01-28 05:54:57.10	350.18	22.33	-45.6	-46.9	20.2	0.00e+00	0	43	0	754974720	62	4281
2026-01-28 05:55:00.12	349.42	22.18	-45.9	-47.3	19.8	0.00e+00	0	43	0	760217600	62	4465
2026-01-28 05:55:03.14	348.67	22.03	-46.1	-47.5	19.6	0.00e+00	0	43	0	766509056	62	4592
2026-01-28 05:55:06.16	347.93	21.87	-45.9	-47.3	19.8	0.00e+00	0	43	0	771751936	62	4458
2026-01-28 05:55:09.17	347.19	21.71	-45.7	-47.0	20.1	0.00e+00	0	43	0	776994816	62	4322
2026-01-28 05:55:12.20	346.46	21.55	-46.2	-47.7	19.4	0.00e+00	0	43	0	783286272	62	4669
2026-01-28 05:55:15.22	345.74	21.38	-46.1	-47.5	19.6	0.00e+00	0	43	0	788529152	62	4572
2026-01-28 05:55:18.24	345.03	21.20	-46.0	-47.4	19.7	0.00e+00	0	43	0	794820608	62	4509
2026-01-28 05:55:21.27	344.32	21.03	-45.8	-47.2	19.9	0.00e+00	0	43	0	800063488	62	4413
2026-01-28 05:55:24.29	343.63	20.85	-45.8	-47.2	19.8	0.00e+00	0	43	0	805306368	62	4428
2026-01-28 05:55:27.31	342.94	20.67	-45.5	-46.8	20.2	0.00e+00	0	43	0	811597824	62	4225
2026-01-28 05:55:30.33	342.26	20.48	-45.4	-46.7	20.4	0.00e+00	0	43	0	816840704	62	4165
2026-01-28 05:55:33.35	341.59	20.29	-45.4	-46.7	20.3	0.00e+00	0	43	0	823132160	62	4171
2026-01-28 05:55:36.37	340.92	20.10	-45.3	-46.7	20.4	0.00e+00	0	43	0	828375040	62	4148
2026-01-28 05:55:39.39	340.27	19.91	-45.5	-46.8	20.3	0.00e+00	0	43	0	833617920	62	4215
2026-01-28 05:55:42.41	339.62	19.71	-45.4	-46.8	20.2	0.00e+00	0	43	0	839909376	62	4205
2026-01-28 05:55:45.44	338.98	19.51	-45.4	-46.7	20.4	0.00e+00	0	43	0	845152256	62	4157
2026-01-28 05:55:48.46	338.35	19.31	-45.3	-46.6	20.4	0.00e+00	0	43	0	851443712	62	4126
2026-01-28 05:55:51.47	337.73	19.11	-45.5	-46.8	20.3	0.00e+00	0	43	0	856686592	62	4214
2026-01-28 05:55:54.49	337.12	18.91	-45.5	-46.9	20.1	0.00e+00	0	43	0	861929472	62	4262
2026-01-28 05:55:57.51	336.52	18.70	-45.7	-47.1	19.9	0.00e+00	0	43	0	868220928	62	4348
2026-01-28 05:56:00.53	335.92	18.49	-45.7	-47.1	19.9	0.00e+00	0	43	0	873463808	62	4344
2026-01-28 05:56:03.55	335.33	18.29	-45.6	-46.9	20.1	0.00e+00	0	43	0	879755264	62	4272
2026-01-28 05:56:06.58	334.75	18.07	-45.4	-46.8	20.2	0.00e+00	0	43	0	884998144	62	4204
2026-01-28 05:56:09.59	334.18	17.86	-45.3	-46.6	20.4	0.00e+00	0	43	0	890241024	62	4110
2026-01-28 05:56:12.61	333.62	17.65	-45.2	-46.5	20.5	0.00e+00	0	43	0	896532480	62	4060
2026-01-28 05:56:15.62	333.06	17.44	-45.2	-46.5	20.5	0.00e+00	0	43	0	901775360	62	4056
2026-01-28 05:56:18.64	332.52	17.22	-44.9	-46.1	20.7	0.00e+00	0	43	0	908066816	61	4139
2026-01-28 05:56:21.66	331.98	17.01	-44.7	-45.9	21.0	0.00e+00	0	43	0	913309696	61	4034
2026-01-28 05:56:24.67	331.45	16.79	-45.0	-46.3	20.6	0.00e+00	0	43	0	918552576	61	4220
2026-01-28 05:56:27.69	330.92	16.58	-44.8	-46.1	20.8	0.00e+00	0	43	0	924844032	61	4120
2026-01-28 05:56:30.70	330.41	16.36	-44.7	-45.9	21.0	0.00e+00	0	43	0	930086912	61	4048
2026-01-28 05:56:33.72	329.90	16.14	-44.5	-45.7	21.1	7.00e-07	0	43	0	936378368	61	3948
2026-01-28 05:56:36.73	329.40	15.93	-44.5	-45.7	21.1	0.00e+00	0	43	0	941621248	60	4191
2026-01-28 05:56:39.74	328.90	15.71	-44.8	-46.0	20.9	0.00e+00	0	43	0	946864128	60	4310
2026-01-28 05:56:42.76	328.42	15.49	-44.7	-46.0	20.9	0.00e+00	0	43	0	953155584	60	4309
2026-01-28 05:56:45.77	327.94	15.27	-44.7	-45.9	20.9	1.50e-06	0	43	0	958398464	60	4274
2026-01-28 05:56:48.79	327.46	15.06	-44.7	-46.0	20.9	0.00e+00	0	43	0	964689920	60	4296
2026-01-28 05:56:51.81	327.00	14.84	-44.7	-46.0	20.8	0.00e+00	0	43	0	969932800	60	4300
2026-01-28 05:56:54.83	326.54	14.62	-44.9	-46.1	20.7	0.00e+00	0	43	0	975175680	60	4381
2026-01-28 05:56:57.84	326.09	14.40	-45.1	-46.4	20.4	0.00e+00	0	43	0	981467136	60	4518
2026-01-28 05:57:00.85	325.64	14.18	-45.4	-46.8	20.0	0.00e+00	0	43	0	986710016	61	4449
2026-01-28 05:57:03.86	325.21	13.97	-45.4	-46.8	20.0	0.00e+00	0	43	0	993001472	61	4476
2026-01-28 05:57:06.88	324.77	13.75	-45.5	-46.9	19.9	0.00e+00	0	43	0	998244352	61	4528
2026-01-28 05:57:09.90	324.35	13.53	-45.4	-46.8	20.0	0.00e+00	0	43	0	1003487232	61	4449
2026-01-28 05:57:12.92	323.93	13.32	-45.3	-46.7	20.1	0.00e+00	0	43	0	1009778688	61	4410
2026-01-28 05:57:15.94	323.51	13.10	-45.6	-47.1	19.7	0.00e+00	0	43	0	1015021568	61	4599
2026-01-28 05:57:18.96	323.11	12.88	-45.8	-47.3	19.6	0.00e+00	0	43	0	1021313024	62	4445
2026-01-28 05:57:21.97	322.71	12.67	-45.8	-47.2	19.6	0.00e+00	0	43	0	1026555904	62	4421
2026-01-28 05:57:24.99	322.31	12.45	-45.9	-47.4	19.4	0.00e+00	0	43	0	1031798784	62	4504
2026-01-28 05:57:28.00	321.92	12.24	-45.9	-47.4	19.3	0.00e+00	0	43	0	1038090240	62	4533
2026-01-28 05:57:31.01	321.54	12.03	-45.9	-47.4	19.4	0.00e+00	0	43	0	1043333120	62	4501
2026-01-28 05:57:34.03	321.16	11.81	-45.9	-47.4	19.3	0.00e+00	0	43	0	1049624576	62	4519
2026-01-28 05:57:37.06	320.79	11.60	-46.1	-47.7	19.1	0.00e+00	0	43	0	1054867456	62	4652
2026-01-28 05:57:40.07	320.42	11.39	-46.2	-47.8	19.0	0.00e+00	0	43	0	1060110336	62	4714
2026-01-28 05:57:43.09	320.06	11.18	-46.4	-48.0	18.7	0.00e+00	0	43	0	1066401792	63	4597
2026-01-28 05:57:46.11	319.71	10.97	-46.4	-48.0	18.7	0.00e+00	0	43	0	1071644672	63	4592
2026-01-28 05:57:49.13	319.35	10.76	-46.4	-48.0	18.7	0.00e+00	0	43	0	1076887552	63	4591
2026-01-28 05:57:52.15	319.01	10.55	-46.3	-47.9	18.7	0.00e+00	0	43	0	1083179008	63	4540
2026-01-28 05:57:55.16	318.67	10.34	-46.3	-47.9	18.7	0.00e+00	0	43	0	1088421888	63	4545
2026-01-28 05:57:58.19	318.33	10.13	-46.4	-48.1	18.6	0.00e+00	0	43	0	1094713344	63	4626
2026-01-28 05:58:01.20	318.00	9.93	-46.7	-48.5	18.1	0.00e+00	0	43	0	1099956224	64	4546
2026-01-28 05:58:04.23	317.67	9.72	-46.9	-48.8	17.7	0.00e+00	0	43	0	1105199104	64	4740
2026-01-28 05:58:07.24	317.35	9.51	-46.9	-48.8	17.7	0.00e+00	0	43	0	1111490560	64	4731
2026-01-28 05:58:10.25	317.04	9.31	-47.0	-48.9	17.6	0.00e+00	0	43	0	1116733440	64	4787
2026-01-28 05:58:13.27	316.73	9.11	-47.1	-49.0	17.5	0.00e+00	0	43	0	1123024896	64	4862
2026-01-28 05:58:16.30	316.42	8.90	-47.2	-49.2	17.3	0.00e+00	0	43	0	1128267776	65	4654
2026-01-28 05:58:19.32	316.11	8.70	-47.4	-49.5	17.0	0.00e+00	0	43	0	1133510656	65	4838
2026-01-28 05:58:22.34	315.81	8.50	-47.3	-49.3	17.1	0.00e+00	0	43	0	1139802112	65	4730
2026-01-28 05:58:25.36	315.52	8.30	-47.3	-49.4	17.1	0.00e+00	0	43	0	1145044992	65	4767
2026-01-28 05:58:28.38	315.23	8.10	-47.1	-49.0	17.4	0.00e+00	0	43	0	1151336448	65	4583
2026-01-28 05:58:31.40	314.94	7.90	-47.1	-49.1	17.2	0.00e+00	0	43	0	1156579328	65	4630
2026-01-28 05:58:34.41	314.66	7.70	-47.2	-49.2	17.1	0.00e+00	0	43	0	1161822208	65	4684
2026-01-28 05:58:37.42	314.38	7.51	-47.3	-49.4	16.9	0.00e+00	0	43	0	1168113664	65	4782
2026-01-28 05:58:40.44	314.11	7.31	-47.6	-49.8	16.6	0.00e+00	0	43	0	1173356544	65	5012
2026-01-28 05:58:43.46	313.83	7.12	-47.5	-49.7	16.6	0.00e+00	0	43	0	1179648000	65	4938
2026-01-28 05:58:46.49	313.57	6.92	-47.6	-49.8	16.5	0.00e+00	0	43	0	1184890880	65	5017
2026-01-28 05:58:49.50	313.30	6.73	-47.6	-49.8	16.5	0.00e+00	0	43	0	1190133760	66	4712
2026-01-28 05:58:52.52	313.04	6.54	-47.6	-49.8	16.4	0.00e+00	0	43	0	1196425216	66	4758
2026-01-28 05:58:55.54	312.79	6.34	-47.8	-50.2	15.9	0.00e+00	0	43	0	1201668096	66	4970
2026-01-28 05:58:58.56	312.53	6.15	-48.0	-50.5	15.7	0.00e+00	0	43	0	1207959552	66	5142
2026-01-28 05:59:01.58	312.28	5.96	-48.2	-50.8	15.3	0.00e+00	0	43	0	1213202432	66	5308
2026-01-28 05:59:04.60	312.04	5.77	-48.1	-50.7	15.4	0.00e+00	0	43	0	1218445312	67	4969
2026-01-28 05:59:07.62	311.79	5.59	-48.1	-50.7	15.4	0.00e+00	0	43	0	1224736768	67	4944
2026-01-28 05:59:10.64	311.55	5.40	-48.1	-50.7	15.4	0.00e+00	0	43	0	1229979648	67	4931
2026-01-28 05:59:13.67	311.32	5.21	-48.1	-50.6	15.4	0.00e+00	0	43	0	1236271104	67	4920
2026-01-28 05:59:16.69	311.08	5.03	-48.1	-50.7	15.3	0.00e+00	0	43	0	1241513984	67	4974
2026-01-28 05:59:19.70	310.85	4.84	-52.5	-67.5	3.8	1.49e+00	0	43	104	1243611136	75	21561
2026-01-28 05:59:22.72	310.62	4.66	-52.6	-67.5	3.8	1.49e+00	0	43	104	1243611136	75	21605
2026-01-28 05:59:25.75	310.40	4.47	-52.8	-67.7	3.8	1.49e+00	0	43	104	1243611136	76	21015
2026-01-28 05:59:28.77	310.18	4.29	-53.0	-67.9	3.8	1.49e+00	0	43	104	1243611136	76	21495
2026-01-28 05:59:31.79	309.96	4.11	-53.2	-68.1	3.8	1.49e+00	0	43	104	1243611136	76	21912
2026-01-28 05:59:34.82	309.74	3.93	-53.3	-68.2	3.8	1.49e+00	0	43	104	1243611136	77	20917
2026-01-28 05:59:37.85	309.53	3.75	-53.2	-68.1	3.8	1.49e+00	0	43	104	1243611136	77	20753
2026-01-28 05:59:40.87	309.32	3.57	-53.2	-68.1	3.8	1.49e+00	0	43	104	1243611136	77	20668
2026-01-28 05:59:43.89	309.11	3.39	-53.1	-68.1	3.8	1.49e+00	0	43	104	1243611136	77	20651
2026-01-28 05:59:46.91	308.91	3.21	-53.1	-68.1	3.8	1.49e+00	0	43	104	1243611136	77	20637
2026-01-28 05:59:49.93	308.70	3.03	-53.1	-68.1	3.8	1.49e+00	0	43	104	1243611136	77	20579
2026-01-28 05:59:52.96	308.50	2.86	-53.1	-68.1	3.8	1.49e+00	0	43	104	1243611136	77	20543
2026-01-28 05:59:55.98	308.31	2.68	-53.1	-68.0	3.8	1.49e+00	0	43	104	1243611136	77	20538
2026-01-28 05:59:59.00	308.11	2.51	-53.1	-68.1	3.8	1.49e+00	0	43	104	1243611136	77	20541
2026-01-28 06:00:02.03	307.92	2.33	-53.1	-68.0	3.8	1.49e+00	0	43	104	1243611136	77	20460
2026-01-28 06:00:05.06	307.73	2.16	-53.1	-68.0	3.8	1.49e+00	0	43	104	1243611136	77	20465

#Closed at: 2026-01-28 06:00:07
#Recorded file [1243 MB]: D:/lorett/data/31041_260128_084723.dat