passes_logs/2026/01/28/R3.2S_Murmansk/R3.2S_Murmansk__20260128_004823_NOAA_20_JPSS-1_rec.log

#Pass ID: 20260128_004823_NOAA 20 (JPSS-1)
#Satellite: NOAA 20 (JPSS-1)
#Configuration: NOAA 20
#almurnet v.1.7.20251203
#Start time: 2026-01-28 00:48:23

#Version: 2.2.20231116
#Station: R3.2S_Murmansk
#Location: 33.079688 lon 68.888172 lat
#TLE: 1 43013U 17073A   26027.31247158  .00000160  00000+0  97001-4 0  9994
#TLE: 2 43013  98.7647 328.1226 0000969  21.9986 338.1231 14.19541059424489

#Time	Az	El	Level	Level2	SNR	BER	BlckErr	Temp	State	Recorded	gain1	gain2
2026-01-28 00:48:23.86	24.96	2.03	-53.9	-68.9	3.8	1.49e+00	0	41	0	0	78	21318
2026-01-28 00:48:27.89	24.96	2.29	-53.6	-68.5	3.8	1.49e+00	0	41	104	0	78	20521
2026-01-28 00:48:31.93	24.96	2.55	-52.9	-67.9	3.8	1.49e+00	0	41	104	0	77	20137
2026-01-28 00:48:35.95	24.97	2.81	-51.9	-66.7	3.8	1.49e+00	0	41	104	0	74	21002
2026-01-28 00:48:39.99	24.97	3.08	-51.9	-66.7	3.8	1.49e+00	0	41	104	0	74	21006
2026-01-28 00:48:44.02	24.97	3.35	-51.9	-66.7	3.8	1.49e+00	0	42	104	0	74	20931
2026-01-28 00:48:48.04	24.97	3.62	-51.8	-65.9	3.8	1.49e+00	0	42	104	0	74	19128
2026-01-28 00:48:52.07	24.97	3.89	-51.7	-64.0	4.0	1.48e+00	0	42	104	0	74	15310
2026-01-28 00:48:56.10	24.97	4.17	-51.2	-59.3	6.3	3.86e-01	0	42	0	4194304	73	9481
2026-01-28 00:49:00.12	24.97	4.45	-50.5	-56.3	9.2	2.35e-02	0	42	0	11534336	72	7046
2026-01-28 00:49:04.16	24.97	4.73	-50.1	-55.0	10.7	4.05e-03	0	42	0	19922944	70	6843
2026-01-28 00:49:08.19	24.97	5.01	-50.7	-56.9	8.8	2.33e-02	0	42	0	27262976	71	7994
2026-01-28 00:49:12.22	24.97	5.30	-48.9	-52.1	13.6	3.89e-05	0	42	0	32505856	69	5207
2026-01-28 00:49:16.25	24.97	5.59	-48.4	-51.3	14.6	7.00e-07	0	42	0	38797312	67	5283
2026-01-28 00:49:20.28	24.97	5.89	-48.3	-51.1	14.8	0.00e+00	0	42	0	47185920	67	5184
2026-01-28 00:49:24.31	24.97	6.19	-48.3	-51.0	14.9	0.00e+00	0	42	0	54525952	67	5150
2026-01-28 00:49:28.35	24.96	6.49	-48.2	-50.9	15.1	0.00e+00	0	42	0	61865984	67	5054
2026-01-28 00:49:32.38	24.96	6.80	-48.2	-50.8	15.2	0.00e+00	0	42	0	69206016	66	5294
2026-01-28 00:49:36.41	24.96	7.10	-48.1	-50.7	15.4	0.00e+00	0	42	0	77594624	66	5259
2026-01-28 00:49:40.45	24.95	7.42	-48.1	-50.6	15.5	0.00e+00	0	42	0	84934656	66	5213
2026-01-28 00:49:44.48	24.95	7.73	-47.9	-50.4	15.8	0.00e+00	0	42	0	92274688	66	5052
2026-01-28 00:49:48.51	24.94	8.05	-48.0	-50.4	15.8	0.00e+00	0	43	0	99614720	66	5088
2026-01-28 00:49:52.54	24.94	8.38	-47.9	-50.3	15.9	0.00e+00	0	43	0	106954752	66	4999
2026-01-28 00:49:56.57	24.93	8.71	-47.8	-50.2	16.1	0.00e+00	0	42	0	115343360	66	4927
2026-01-28 00:50:00.60	24.93	9.04	-47.7	-50.0	16.2	0.00e+00	0	43	0	122683392	66	4850
2026-01-28 00:50:04.63	24.92	9.38	-47.8	-50.1	16.2	0.00e+00	0	42	0	130023424	66	4871
2026-01-28 00:50:08.66	24.91	9.72	-47.6	-49.8	16.5	0.00e+00	0	43	0	137363456	65	4998
2026-01-28 00:50:12.69	24.90	10.07	-47.5	-49.7	16.6	0.00e+00	0	43	0	144703488	65	4956
2026-01-28 00:50:16.72	24.90	10.42	-47.5	-49.7	16.6	0.00e+00	0	43	0	153092096	65	4950
2026-01-28 00:50:20.75	24.89	10.78	-47.5	-49.6	16.7	0.00e+00	0	43	0	160432128	65	4897
2026-01-28 00:50:24.77	24.88	11.14	-47.3	-49.4	17.0	0.00e+00	0	43	0	167772160	65	4765
2026-01-28 00:50:28.81	24.87	11.51	-47.1	-49.1	17.3	0.00e+00	0	43	0	175112192	65	4628
2026-01-28 00:50:32.83	24.85	11.88	-47.1	-49.1	17.3	0.00e+00	0	43	0	182452224	65	4635
2026-01-28 00:50:36.86	24.84	12.26	-47.0	-48.9	17.5	0.00e+00	0	43	0	190840832	64	4802
2026-01-28 00:50:40.89	24.83	12.65	-47.0	-48.9	17.6	0.00e+00	0	43	0	198180864	64	4769
2026-01-28 00:50:44.93	24.82	13.04	-46.8	-48.6	17.9	0.00e+00	0	43	0	205520896	64	4632
2026-01-28 00:50:48.95	24.80	13.44	-46.9	-48.7	17.8	0.00e+00	0	43	0	212860928	64	4678
2026-01-28 00:50:52.98	24.79	13.84	-46.7	-48.5	18.1	0.00e+00	0	43	0	221249536	64	4549
2026-01-28 00:50:57.01	24.77	14.25	-46.5	-48.3	18.3	0.00e+00	0	43	0	228589568	64	4454
2026-01-28 00:51:01.03	24.75	14.67	-46.5	-48.2	18.5	0.00e+00	0	43	0	235929600	63	4681
2026-01-28 00:51:05.05	24.74	15.09	-46.5	-48.2	18.6	0.00e+00	0	43	0	243269632	63	4658
2026-01-28 00:51:09.08	24.72	15.53	-46.4	-48.1	18.7	0.00e+00	0	43	0	250609664	63	4613
2026-01-28 00:51:13.11	24.70	15.97	-46.3	-47.9	18.8	0.00e+00	0	43	0	257949696	63	4513
2026-01-28 00:51:17.14	24.67	16.42	-46.0	-47.6	19.2	0.00e+00	0	43	0	266338304	63	4343
2026-01-28 00:51:21.17	24.65	16.88	-45.9	-47.4	19.4	0.00e+00	0	43	0	273678336	62	4528
2026-01-28 00:51:25.21	24.63	17.34	-45.7	-47.2	19.6	0.00e+00	0	43	0	281018368	62	4394
2026-01-28 00:51:29.24	24.60	17.82	-45.8	-47.2	19.6	0.00e+00	0	43	0	288358400	62	4432
2026-01-28 00:51:33.27	24.58	18.30	-45.5	-46.9	19.9	0.00e+00	0	43	0	296747008	61	4502
2026-01-28 00:51:37.30	24.55	18.80	-45.4	-46.8	20.1	0.00e+00	0	43	0	304087040	61	4460
2026-01-28 00:51:41.33	24.52	19.30	-45.5	-46.9	20.0	0.00e+00	0	43	0	311427072	61	4520
2026-01-28 00:51:45.37	24.49	19.82	-45.4	-46.8	20.1	0.00e+00	0	43	0	318767104	61	4442
2026-01-28 00:51:49.40	24.46	20.35	-45.4	-46.7	20.2	0.00e+00	0	43	0	326107136	61	4429
2026-01-28 00:51:53.43	24.42	20.88	-45.4	-46.8	20.1	0.00e+00	0	43	0	334495744	61	4443
2026-01-28 00:51:57.46	24.39	21.43	-45.3	-46.7	20.2	0.00e+00	0	43	0	341835776	61	4408
2026-01-28 00:52:01.49	24.35	21.99	-45.3	-46.6	20.3	0.00e+00	0	43	0	349175808	61	4385
2026-01-28 00:52:05.52	24.31	22.57	-45.3	-46.6	20.4	0.00e+00	0	43	0	356515840	61	4369
2026-01-28 00:52:09.55	24.26	23.16	-45.2	-46.5	20.4	0.00e+00	0	43	0	363855872	61	4339
2026-01-28 00:52:13.59	24.22	23.76	-45.2	-46.5	20.5	0.00e+00	0	43	0	372244480	61	4339
2026-01-28 00:52:17.62	24.17	24.37	-45.3	-46.6	20.4	0.00e+00	0	43	0	379584512	61	4380
2026-01-28 00:52:21.65	24.12	25.00	-45.5	-46.8	20.2	0.00e+00	0	43	0	386924544	61	4478
2026-01-28 00:52:25.68	24.07	25.65	-45.6	-46.9	20.1	0.00e+00	0	43	0	394264576	61	4542
2026-01-28 00:52:29.71	24.02	26.31	-45.7	-47.1	20.0	0.00e+00	0	43	0	401604608	62	4370
2026-01-28 00:52:33.74	23.96	26.99	-45.9	-47.4	19.8	0.00e+00	0	43	0	409993216	62	4497
2026-01-28 00:52:37.77	23.90	27.68	-46.3	-47.8	19.4	0.00e+00	0	43	0	417333248	63	4448
2026-01-28 00:52:41.81	23.83	28.40	-46.8	-48.4	18.7	0.00e+00	0	43	0	424673280	64	4534
2026-01-28 00:52:45.83	23.76	29.13	-47.5	-49.4	17.7	0.00e+00	0	43	0	432013312	65	4786
2026-01-28 00:52:49.87	23.69	29.88	-48.3	-50.5	16.7	0.00e+00	0	43	0	440401920	67	4826
2026-01-28 00:52:53.90	23.61	30.66	-48.6	-50.9	16.3	0.00e+00	0	43	0	447741952	67	5072
2026-01-28 00:52:57.93	23.53	31.45	-48.5	-50.8	16.4	0.00e+00	0	43	0	455081984	67	5005
2026-01-28 00:53:01.96	23.44	32.26	-48.3	-50.5	16.7	0.00e+00	0	43	0	462422016	67	4839
2026-01-28 00:53:05.99	23.35	33.10	-48.1	-50.1	17.1	0.00e+00	0	43	0	469762048	67	4620
2026-01-28 00:53:10.02	23.25	33.96	-47.3	-49.0	18.3	0.00e+00	0	43	0	478150656	66	4329
2026-01-28 00:53:14.05	23.15	34.85	-46.3	-47.8	19.5	0.00e+00	0	43	0	485490688	63	4471
2026-01-28 00:53:18.08	23.04	35.76	-45.6	-46.9	20.4	0.00e+00	0	43	0	492830720	63	4032
2026-01-28 00:53:22.11	22.92	36.70	-44.6	-45.8	21.5	0.00e+00	0	43	0	500170752	61	3960
2026-01-28 00:53:26.15	22.79	37.67	-44.1	-45.2	22.0	0.00e+00	0	43	0	507510784	60	3945
2026-01-28 00:53:30.18	22.66	38.66	-44.4	-45.5	21.8	0.00e+00	0	43	0	515899392	60	4069
2026-01-28 00:53:34.22	22.51	39.69	-44.9	-46.1	21.3	0.00e+00	0	43	0	523239424	60	4349
2026-01-28 00:53:38.24	22.36	40.74	-45.1	-46.3	21.1	0.00e+00	0	43	0	530579456	61	4202
2026-01-28 00:53:42.26	22.19	41.83	-45.5	-46.8	20.6	0.00e+00	0	43	0	537919488	61	4472
2026-01-28 00:53:46.30	22.01	42.95	-45.7	-47.0	20.5	0.00e+00	0	43	0	545259520	61	4563
2026-01-28 00:53:50.33	21.82	44.11	-45.8	-47.1	20.3	0.00e+00	0	43	0	553648128	62	4385
2026-01-28 00:53:54.36	21.60	45.30	-46.6	-48.2	19.4	0.00e+00	0	43	0	560988160	63	4652
2026-01-28 00:53:58.39	21.38	46.52	-47.3	-48.9	18.5	0.00e+00	0	43	0	568328192	65	4543
2026-01-28 00:54:02.42	21.13	47.78	-48.6	-50.7	16.8	0.00e+00	0	43	0	575668224	67	4954
2026-01-28 00:54:06.44	20.86	49.08	-48.3	-50.2	17.4	0.00e+00	0	43	0	583008256	68	4436
2026-01-28 00:54:10.47	20.56	50.42	-47.1	-48.7	18.8	0.00e+00	0	43	0	591396864	66	4153
2026-01-28 00:54:14.50	20.23	51.79	-44.9	-46.1	21.3	0.00e+00	0	43	0	598736896	61	4122
2026-01-28 00:54:18.53	19.87	53.21	-44.2	-45.3	22.1	0.00e+00	0	43	0	606076928	60	3981
2026-01-28 00:54:22.56	19.47	54.66	-44.8	-46.0	21.5	0.00e+00	0	43	0	613416960	60	4298
2026-01-28 00:54:26.59	19.03	56.16	-46.6	-48.1	19.5	0.00e+00	0	43	0	621805568	63	4643
2026-01-28 00:54:30.63	18.53	57.70	-48.3	-50.2	17.3	0.00e+00	0	43	0	629145600	67	4691
2026-01-28 00:54:34.65	17.97	59.27	-48.4	-50.4	17.2	0.00e+00	0	43	0	636485632	68	4532
2026-01-28 00:54:38.68	17.33	60.89	-46.4	-47.9	19.7	0.00e+00	0	43	0	643825664	64	4249
2026-01-28 00:54:42.71	16.60	62.54	-45.7	-47.0	20.7	0.00e+00	0	43	0	651165696	63	4067
2026-01-28 00:54:46.74	15.77	64.23	-44.6	-45.7	21.8	0.00e+00	0	43	0	658505728	61	3941
2026-01-28 00:54:50.77	14.79	65.95	-46.7	-48.2	19.4	0.00e+00	0	43	0	666894336	64	4429
2026-01-28 00:54:54.80	13.65	67.70	-47.0	-48.5	19.1	0.00e+00	0	43	0	674234368	64	4581
2026-01-28 00:54:58.83	12.29	69.48	-46.7	-48.1	19.4	0.00e+00	0	43	0	681574400	64	4378
2026-01-28 00:55:02.86	10.64	71.28	-46.5	-47.9	19.7	0.00e+00	0	43	0	688914432	64	4274
2026-01-28 00:55:06.89	8.61	73.09	-46.3	-47.7	20.0	0.00e+00	0	43	0	697303040	64	4167
2026-01-28 00:55:10.93	6.06	74.91	-47.8	-49.6	18.1	0.00e+00	0	43	0	704643072	66	4611
2026-01-28 00:55:14.96	2.79	76.71	-46.9	-48.4	19.3	0.00e+00	0	43	0	711983104	64	4508
2026-01-28 00:55:18.98	358.46	78.48	-47.7	-49.4	18.3	0.00e+00	0	43	0	719323136	65	4781
2026-01-28 00:55:23.02	352.54	80.18	-45.7	-46.9	20.8	0.00e+00	0	43	0	726663168	63	4026
2026-01-28 00:55:27.05	344.22	81.74	-46.9	-48.4	19.2	0.00e+00	0	43	0	735051776	65	4266
2026-01-28 00:55:31.08	332.33	83.07	-46.6	-48.1	19.6	0.00e+00	0	43	0	742391808	65	4116
2026-01-28 00:55:35.11	315.88	83.98	-44.9	-46.0	21.6	0.00e+00	0	43	0	749731840	61	4097
2026-01-28 00:55:39.13	295.91	84.26	-46.8	-48.3	19.4	0.00e+00	0	43	0	757071872	64	4489
2026-01-28 00:55:43.17	276.35	83.82	-46.9	-48.4	19.3	0.00e+00	0	43	0	764411904	64	4517
2026-01-28 00:55:47.19	260.96	82.81	-48.0	-49.7	18.0	0.00e+00	0	43	0	772800512	66	4703
2026-01-28 00:55:51.23	249.93	81.41	-47.6	-49.3	18.5	0.00e+00	0	43	0	780140544	67	4196
2026-01-28 00:55:55.25	242.24	79.82	-46.0	-47.2	20.6	0.00e+00	0	43	0	787480576	63	4183
2026-01-28 00:55:59.28	236.72	78.10	-47.2	-48.8	19.0	0.00e+00	0	43	0	794820608	65	4485
2026-01-28 00:56:03.31	232.66	76.32	-47.0	-48.5	19.3	0.00e+00	0	43	0	802160640	65	4301
2026-01-28 00:56:07.34	229.56	74.51	-46.5	-47.9	19.8	0.00e+00	0	43	0	810549248	64	4283
2026-01-28 00:56:11.37	227.14	72.69	-45.6	-46.8	20.9	0.00e+00	0	43	0	817889280	63	3993
2026-01-28 00:56:15.39	225.21	70.88	-44.5	-45.5	22.1	0.00e+00	0	43	0	825229312	60	4085
2026-01-28 00:56:19.42	223.63	69.08	-46.9	-48.3	19.3	0.00e+00	0	43	0	832569344	64	4493
2026-01-28 00:56:23.45	222.32	67.31	-49.8	-52.5	15.5	0.00e+00	0	43	0	839909376	70	5102
2026-01-28 00:56:27.48	221.21	65.56	-47.6	-49.3	18.4	0.00e+00	0	43	0	848297984	67	4212
2026-01-28 00:56:31.51	220.27	63.84	-45.4	-46.6	21.0	0.00e+00	0	43	0	855638016	62	4145
2026-01-28 00:56:35.54	219.46	62.16	-44.2	-45.3	22.3	0.00e+00	0	43	0	862978048	60	3967
2026-01-28 00:56:39.57	218.75	60.51	-45.3	-46.5	21.1	0.00e+00	0	43	0	870318080	61	4334
2026-01-28 00:56:43.61	218.13	58.90	-47.0	-48.6	19.0	0.00e+00	0	43	0	877658112	65	4361
2026-01-28 00:56:47.64	217.58	57.33	-47.8	-49.6	18.0	0.00e+00	0	43	0	886046720	66	4628
2026-01-28 00:56:51.67	217.10	55.80	-46.1	-47.5	20.0	0.00e+00	0	43	0	893386752	64	4090
2026-01-28 00:56:55.70	216.66	54.31	-44.7	-45.8	21.7	0.00e+00	0	43	0	900726784	61	3978
2026-01-28 00:56:59.73	216.27	52.86	-45.0	-46.1	21.3	0.00e+00	0	43	0	908066816	61	4143
2026-01-28 00:57:03.75	215.92	51.45	-45.6	-46.8	20.7	0.00e+00	0	43	0	915406848	61	4485
2026-01-28 00:57:07.78	215.60	50.08	-47.4	-49.1	18.5	0.00e+00	0	43	0	923795456	65	4629
2026-01-28 00:57:11.81	215.30	48.75	-48.5	-50.6	17.0	0.00e+00	0	43	0	931135488	67	4907
2026-01-28 00:57:15.84	215.04	47.45	-48.7	-50.8	16.8	0.00e+00	0	43	0	938475520	69	4464
2026-01-28 00:57:19.86	214.79	46.20	-46.3	-47.7	19.7	0.00e+00	0	43	0	945815552	64	4158
2026-01-28 00:57:23.89	214.57	44.98	-48.2	-50.2	17.3	0.00e+00	0	43	0	954204160	66	4951
2026-01-28 00:57:27.92	214.36	43.79	-48.3	-50.3	17.2	0.00e+00	0	43	0	961544192	68	4469
2026-01-28 00:57:31.94	214.17	42.65	-47.1	-48.7	18.8	0.00e+00	0	43	0	968884224	66	4152
2026-01-28 00:57:35.97	213.99	41.53	-48.3	-50.4	17.1	0.00e+00	0	43	0	976224256	67	4778
2026-01-28 00:57:40.01	213.82	40.45	-48.7	-50.9	16.6	0.00e+00	0	43	0	983564288	68	4809
2026-01-28 00:57:44.04	213.67	39.39	-47.6	-49.3	18.1	0.00e+00	0	43	0	990904320	67	4240
2026-01-28 00:57:48.06	213.52	38.38	-48.0	-49.9	17.5	0.00e+00	0	43	0	999292928	66	4801
2026-01-28 00:57:52.09	213.39	37.38	-48.3	-50.4	17.0	0.00e+00	0	43	0	1006632960	67	4774
2026-01-28 00:57:56.12	213.26	36.42	-47.9	-49.9	17.5	0.00e+00	0	43	0	1013972992	67	4505
2026-01-28 00:58:00.15	213.15	35.49	-46.8	-48.4	18.9	0.00e+00	0	43	0	1021313024	65	4250
2026-01-28 00:58:04.18	213.04	34.58	-46.6	-48.2	19.1	0.00e+00	0	43	0	1029701632	65	4154
2026-01-28 00:58:08.21	212.93	33.69	-47.3	-49.0	18.3	0.00e+00	0	43	0	1037041664	65	4573
2026-01-28 00:58:12.24	212.83	32.84	-48.5	-50.7	16.6	0.00e+00	0	43	0	1044381696	67	4956
2026-01-28 00:58:16.28	212.74	32.00	-48.2	-50.2	17.1	0.00e+00	0	43	0	1051721728	67	4674
2026-01-28 00:58:20.31	212.66	31.19	-47.7	-49.6	17.7	0.00e+00	0	43	0	1059061760	67	4344
2026-01-28 00:58:24.34	212.57	30.40	-47.4	-49.2	18.0	0.00e+00	0	43	0	1067450368	66	4435
2026-01-28 00:58:28.37	212.50	29.63	-47.9	-49.8	17.4	0.00e+00	0	43	0	1074790400	66	4756
2026-01-28 00:58:32.40	212.42	28.88	-47.9	-49.9	17.3	0.00e+00	0	43	0	1082130432	66	4766
2026-01-28 00:58:36.43	212.35	28.15	-47.5	-49.3	17.9	0.00e+00	0	43	0	1089470464	66	4453
2026-01-28 00:58:40.46	212.29	27.44	-46.8	-48.4	18.7	0.00e+00	0	43	0	1096810496	65	4291
2026-01-28 00:58:44.49	212.23	26.74	-46.6	-48.2	18.9	0.00e+00	0	43	0	1105199104	65	4176
2026-01-28 00:58:48.52	212.17	26.07	-46.2	-47.7	19.4	0.00e+00	0	43	0	1112539136	64	4157
2026-01-28 00:58:52.55	212.11	25.41	-46.1	-47.6	19.5	0.00e+00	0	43	0	1119879168	64	4102
2026-01-28 00:58:56.58	212.06	24.77	-46.4	-48.0	19.1	0.00e+00	0	43	0	1127219200	64	4315
2026-01-28 00:59:00.61	212.01	24.14	-46.3	-47.9	19.1	0.00e+00	0	43	0	1134559232	64	4267
2026-01-28 00:59:04.64	211.96	23.52	-46.2	-47.7	19.3	0.00e+00	0	43	0	1142947840	64	4159
2026-01-28 00:59:08.67	211.91	22.93	-46.1	-47.6	19.4	0.00e+00	0	43	0	1150287872	64	4107
2026-01-28 00:59:12.71	211.87	22.34	-46.1	-47.6	19.5	0.00e+00	0	43	0	1157627904	63	4356
2026-01-28 00:59:16.74	211.83	21.77	-46.0	-47.5	19.6	0.00e+00	0	43	0	1164967936	63	4308
2026-01-28 00:59:20.78	211.79	21.20	-46.0	-47.4	19.6	0.00e+00	0	43	0	1173356544	63	4290
2026-01-28 00:59:24.80	211.75	20.66	-46.3	-47.9	19.2	0.00e+00	0	43	0	1180696576	63	4510
2026-01-28 00:59:28.83	211.72	20.12	-46.6	-48.3	18.7	0.00e+00	0	43	0	1188036608	63	4708
2026-01-28 00:59:32.87	211.68	19.60	-46.8	-48.5	18.5	0.00e+00	0	43	0	1195376640	64	4546
2026-01-28 00:59:36.90	211.65	19.08	-46.9	-48.7	18.2	0.00e+00	0	43	0	1202716672	64	4657
2026-01-28 00:59:40.93	211.62	18.58	-47.0	-48.8	18.1	0.00e+00	0	43	0	1211105280	64	4722
2026-01-28 00:59:44.97	211.59	18.08	-47.1	-48.9	18.0	0.00e+00	0	43	0	1218445312	64	4803
2026-01-28 00:59:48.99	211.56	17.60	-47.1	-48.9	17.9	0.00e+00	0	43	0	1225785344	64	4782
2026-01-28 00:59:53.03	211.54	17.13	-47.3	-49.1	17.8	0.00e+00	0	43	0	1233125376	65	4636
2026-01-28 00:59:57.06	211.51	16.66	-47.4	-49.3	17.6	0.00e+00	0	43	0	1240465408	65	4712
2026-01-28 01:00:01.09	211.49	16.20	-47.4	-49.4	17.5	0.00e+00	0	43	0	1248854016	65	4771
2026-01-28 01:00:05.12	211.46	15.75	-47.5	-49.5	17.3	0.00e+00	0	43	0	1256194048	65	4830
2026-01-28 01:00:09.15	211.44	15.31	-47.6	-49.7	17.1	0.00e+00	0	43	0	1263534080	65	4946
2026-01-28 01:00:13.18	211.42	14.88	-47.6	-49.6	17.2	0.00e+00	0	43	0	1270874112	66	4642
2026-01-28 01:00:17.21	211.40	14.46	-47.6	-49.7	17.1	0.00e+00	0	43	0	1278214144	66	4671
2026-01-28 01:00:21.23	211.38	14.04	-47.6	-49.7	17.1	0.00e+00	0	43	0	1286602752	66	4671
2026-01-28 01:00:25.26	211.36	13.63	-47.6	-49.6	17.1	0.00e+00	0	43	0	1293942784	66	4626
2026-01-28 01:00:29.30	211.35	13.23	-47.6	-49.7	17.0	0.00e+00	0	43	0	1301282816	66	4656
2026-01-28 01:00:33.34	211.33	12.83	-47.5	-49.5	17.2	0.00e+00	0	43	0	1308622848	66	4572
2026-01-28 01:00:37.37	211.31	12.44	-47.5	-49.5	17.2	0.00e+00	0	43	0	1317011456	66	4547
2026-01-28 01:00:41.39	211.30	12.05	-47.5	-49.5	17.2	0.00e+00	0	43	0	1324351488	66	4561
2026-01-28 01:00:45.42	211.28	11.67	-47.5	-49.6	17.1	0.00e+00	0	43	0	1331691520	66	4607
2026-01-28 01:00:49.45	211.27	11.30	-47.6	-49.7	16.9	0.00e+00	0	43	0	1339031552	66	4697
2026-01-28 01:00:53.49	211.26	10.93	-47.6	-49.7	16.8	0.00e+00	0	43	0	1346371584	66	4705
2026-01-28 01:00:57.53	211.25	10.57	-47.7	-49.8	16.7	0.00e+00	0	43	0	1353711616	66	4727
2026-01-28 01:01:01.56	211.23	10.21	-47.6	-49.7	16.8	0.00e+00	0	43	0	1362100224	66	4701
2026-01-28 01:01:05.59	211.22	9.86	-47.7	-49.9	16.5	0.00e+00	0	43	0	1369440256	66	4808
2026-01-28 01:01:09.62	211.21	9.51	-47.8	-50.0	16.5	0.00e+00	0	43	0	1376780288	66	4839
2026-01-28 01:01:13.65	211.20	9.17	-47.7	-49.9	16.5	0.00e+00	0	43	0	1384120320	66	4783
2026-01-28 01:01:17.68	211.19	8.84	-47.7	-49.9	16.5	0.00e+00	0	43	0	1392508928	66	4812
2026-01-28 01:01:21.70	211.18	8.50	-47.7	-50.0	16.3	0.00e+00	0	43	0	1399848960	66	4845
2026-01-28 01:01:25.73	211.18	8.18	-47.8	-50.1	16.2	0.00e+00	0	43	0	1407188992	66	4883
2026-01-28 01:01:29.76	211.17	7.85	-47.7	-50.0	16.3	0.00e+00	0	43	0	1414529024	66	4852
2026-01-28 01:01:33.79	211.16	7.53	-47.9	-50.3	16.0	0.00e+00	0	43	0	1421869056	66	4991
2026-01-28 01:01:37.82	211.15	7.21	-47.7	-50.0	16.3	0.00e+00	0	43	0	1430257664	66	4825
2026-01-28 01:01:41.85	211.15	6.90	-47.8	-50.1	16.1	0.00e+00	0	43	0	1437597696	66	4891
2026-01-28 01:01:45.89	211.14	6.59	-47.7	-50.0	16.1	0.00e+00	0	43	0	1444937728	66	4867
2026-01-28 01:01:49.92	211.14	6.29	-47.7	-50.1	16.0	0.00e+00	0	43	0	1452277760	66	4899
2026-01-28 01:01:53.95	211.13	5.99	-47.9	-50.4	15.7	0.00e+00	0	43	0	1459617792	66	5069
2026-01-28 01:01:57.98	211.13	5.69	-48.0	-50.6	15.4	0.00e+00	0	43	0	1468006400	66	5171
2026-01-28 01:02:02.01	211.12	5.39	-48.0	-50.6	15.3	0.00e+00	0	43	0	1475346432	66	5163
2026-01-28 01:02:06.04	211.12	5.10	-48.2	-51.0	14.9	7.00e-07	0	43	0	1482686464	67	5104
2026-01-28 01:02:10.07	211.11	4.81	-53.1	-68.0	3.8	1.49e+00	0	43	104	1485832192	76	21692
2026-01-28 01:02:14.10	211.11	4.53	-53.5	-68.4	3.8	1.49e+00	0	43	104	1485832192	77	21501
2026-01-28 01:02:18.13	211.11	4.25	-53.7	-68.7	3.8	1.49e+00	0	43	104	1485832192	77	22013
2026-01-28 01:02:22.17	211.11	3.97	-53.8	-68.8	3.8	1.49e+00	0	43	104	1485832192	78	21037
2026-01-28 01:02:26.21	211.10	3.69	-53.8	-68.8	3.8	1.49e+00	0	43	104	1485832192	78	21028
2026-01-28 01:02:30.24	211.10	3.42	-53.5	-68.5	3.8	1.49e+00	0	44	104	1485832192	78	20455
2026-01-28 01:02:34.27	211.10	3.15	-53.1	-68.1	3.8	1.49e+00	0	43	104	1485832192	78	19487
2026-01-28 01:02:38.30	211.10	2.88	-53.1	-68.0	3.8	1.49e+00	0	43	104	1485832192	78	19370
2026-01-28 01:02:42.34	211.10	2.61	-53.1	-68.1	3.8	1.49e+00	0	44	104	1485832192	78	19413
2026-01-28 01:02:46.37	211.09	2.35	-53.1	-68.0	3.8	1.49e+00	0	43	104	1485832192	77	20456
2026-01-28 01:02:50.40	211.09	2.09	-53.1	-68.0	3.8	1.49e+00	0	43	104	1485832192	77	20376

#Closed at: 2026-01-28 01:02:53
#Recorded file [1485 MB]: D:/lorett/data/31041_260128_034823.dat