passes_logs/2026/01/28/R3.2S_Murmansk/R3.2S_Murmansk__20260128_094229_FENGYUN_3D_rec.log

#Pass ID: 20260128_094229_FENGYUN 3D
#Satellite: FENGYUN 3D
#Configuration: FENGYUN 3D
#almurnet v.1.7.20251203
#Start time: 2026-01-28 09:42:29

#Version: 2.2.20231116
#Station: R3.2S_Murmansk
#Location: 33.079688 lon 68.888172 lat
#TLE: 1 43010U 17072A   26027.90082829  .00000305  00000+0  16579-3 0  9998
#TLE: 2 43010  98.9960 359.9183 0002511  88.1058 272.0405 14.19701796425082

#Time	Az	El	Level	Level2	SNR	BER	BlckErr	Temp	State	Recorded	gain1	gain2
2026-01-28 09:42:29.13	108.51	1.98	-53.9	-65.9	3.8	8.47e-01	0	41	0	0	79	14251
2026-01-28 09:42:33.17	108.35	2.23	-53.9	-65.9	3.8	8.45e-01	0	41	104	0	78	15163
2026-01-28 09:42:37.20	108.18	2.48	-54.1	-66.1	3.8	8.47e-01	0	41	104	0	78	15520
2026-01-28 09:42:41.23	108.02	2.73	-54.2	-66.2	3.8	8.46e-01	0	41	104	0	79	14759
2026-01-28 09:42:45.26	107.85	2.99	-54.1	-66.0	3.8	8.46e-01	0	41	104	0	79	14502
2026-01-28 09:42:49.29	107.68	3.24	-53.9	-65.9	3.8	8.46e-01	0	42	104	0	79	14307
2026-01-28 09:42:53.31	107.50	3.50	-53.8	-65.7	3.8	8.46e-01	0	42	104	0	79	13953
2026-01-28 09:42:57.34	107.32	3.76	-53.5	-65.5	3.8	8.46e-01	0	42	104	0	79	13666
2026-01-28 09:43:01.36	107.14	4.02	-53.2	-65.1	3.8	8.47e-01	0	42	104	0	78	13850
2026-01-28 09:43:05.39	106.95	4.29	-52.5	-64.2	3.8	8.46e-01	0	42	104	0	77	13196
2026-01-28 09:43:09.42	106.76	4.56	-51.1	-57.5	5.6	7.51e-01	0	42	0	0	74	7206
2026-01-28 09:43:13.45	106.57	4.83	-46.8	-48.8	14.1	2.28e-05	0	42	0	23068672	65	4456
2026-01-28 09:43:17.49	106.37	5.10	-44.5	-45.8	17.2	0.00e+00	0	42	0	45088768	61	3977
2026-01-28 09:43:21.51	106.17	5.37	-44.7	-46.0	17.7	0.00e+00	0	42	0	68157440	59	4578
2026-01-28 09:43:25.54	105.96	5.65	-43.3	-44.4	19.0	0.00e+00	0	42	0	90177536	58	4046
2026-01-28 09:43:29.57	105.75	5.93	-43.2	-44.4	19.1	0.00e+00	0	42	0	113246208	58	4010
2026-01-28 09:43:33.60	105.54	6.21	-43.3	-44.4	19.1	0.00e+00	0	42	0	135266304	58	4031
2026-01-28 09:43:37.63	105.32	6.50	-42.9	-44.0	19.4	0.00e+00	0	42	0	157286400	57	4088
2026-01-28 09:43:41.66	105.10	6.79	-43.1	-44.2	19.3	0.00e+00	0	42	0	180355072	57	4172
2026-01-28 09:43:45.69	104.87	7.08	-43.2	-44.3	19.2	0.00e+00	0	42	0	203423744	57	4208
2026-01-28 09:43:49.72	104.64	7.37	-43.1	-44.2	19.3	0.00e+00	0	42	0	225443840	57	4151
2026-01-28 09:43:53.76	104.40	7.67	-42.9	-44.0	19.5	0.00e+00	0	42	0	248512512	57	4082
2026-01-28 09:43:57.78	104.16	7.97	-42.9	-44.0	19.5	0.00e+00	0	42	0	271581184	57	4087
2026-01-28 09:44:01.81	103.91	8.27	-42.7	-43.8	19.8	0.00e+00	0	42	0	293601280	57	3973
2026-01-28 09:44:05.84	103.65	8.58	-42.7	-43.7	19.8	0.00e+00	0	43	0	316669952	57	3950
2026-01-28 09:44:09.87	103.39	8.89	-42.4	-43.4	20.1	0.00e+00	0	43	0	339738624	56	4015
2026-01-28 09:44:13.88	103.13	9.20	-42.3	-43.3	20.2	0.00e+00	0	43	0	361758720	56	4000
2026-01-28 09:44:17.91	102.86	9.52	-42.0	-43.0	20.6	0.00e+00	0	43	0	384827392	56	3845
2026-01-28 09:44:21.94	102.58	9.83	-42.2	-43.1	20.5	0.00e+00	0	43	0	407896064	56	3905
2026-01-28 09:44:25.98	102.29	10.16	-42.3	-43.2	20.4	0.00e+00	0	43	0	429916160	56	3950
2026-01-28 09:44:30.00	102.00	10.48	-42.1	-43.1	20.6	0.00e+00	0	43	0	452984832	56	3871
2026-01-28 09:44:34.03	101.71	10.81	-41.8	-42.7	20.8	0.00e+00	0	43	0	475004928	55	3944
2026-01-28 09:44:38.06	101.40	11.15	-41.7	-42.6	20.9	0.00e+00	0	43	0	498073600	55	3910
2026-01-28 09:44:42.10	101.09	11.49	-41.8	-42.8	20.8	0.00e+00	0	43	0	520093696	55	3974
2026-01-28 09:44:46.13	100.77	11.83	-41.9	-42.9	20.7	0.00e+00	0	43	0	543162368	55	4020
2026-01-28 09:44:50.16	100.44	12.17	-41.7	-42.7	20.9	0.00e+00	0	43	0	566231040	55	3928
2026-01-28 09:44:54.20	100.10	12.52	-41.4	-42.4	21.2	0.00e+00	0	43	0	588251136	54	4015
2026-01-28 09:44:58.23	99.76	12.87	-41.4	-42.3	21.3	0.00e+00	0	43	0	611319808	54	3979
2026-01-28 09:45:02.26	99.41	13.23	-41.3	-42.2	21.5	0.00e+00	0	43	0	634388480	54	3926
2026-01-28 09:45:06.29	99.04	13.59	-41.2	-42.1	21.5	0.00e+00	0	43	0	656408576	54	3910
2026-01-28 09:45:10.33	98.67	13.96	-41.1	-42.0	21.6	0.00e+00	0	43	0	679477248	54	3866
2026-01-28 09:45:14.36	98.29	14.33	-41.0	-41.9	21.8	0.00e+00	0	43	0	702545920	54	3782
2026-01-28 09:45:18.40	97.90	14.70	-40.9	-41.7	21.9	0.00e+00	0	43	0	724566016	53	3957
2026-01-28 09:45:22.42	97.50	15.08	-40.9	-41.7	21.9	0.00e+00	0	43	0	747634688	53	3953
2026-01-28 09:45:26.45	97.09	15.46	-40.9	-41.8	21.9	0.00e+00	0	43	0	770703360	53	3962
2026-01-28 09:45:30.47	96.67	15.85	-40.8	-41.7	21.9	0.00e+00	0	43	0	792723456	53	3933
2026-01-28 09:45:34.51	96.23	16.24	-40.5	-41.4	22.2	0.00e+00	0	43	0	815792128	53	3800
2026-01-28 09:45:38.55	95.78	16.64	-40.3	-41.1	22.8	0.00e+00	0	43	0	838860800	52	3881
2026-01-28 09:45:42.57	95.33	17.04	-40.3	-41.1	22.8	0.00e+00	0	43	0	860880896	52	3894
2026-01-28 09:45:46.61	94.85	17.45	-40.3	-41.0	22.8	0.00e+00	0	43	0	882900992	52	3865
2026-01-28 09:45:50.64	94.37	17.86	-40.2	-41.0	22.9	0.00e+00	0	43	0	905969664	52	3833
2026-01-28 09:45:54.67	93.87	18.27	-40.0	-40.8	23.1	0.00e+00	0	43	0	929038336	51	3992
2026-01-28 09:45:58.71	93.36	18.70	-39.9	-40.7	23.3	0.00e+00	0	43	0	951058432	51	3919
2026-01-28 09:46:02.74	92.83	19.12	-39.9	-40.6	23.3	0.00e+00	0	43	0	974127104	51	3912
2026-01-28 09:46:06.78	92.29	19.55	-39.8	-40.5	23.4	0.00e+00	0	43	0	997195776	51	3863
2026-01-28 09:46:10.82	91.73	19.99	-39.8	-40.6	23.4	0.00e+00	0	43	0	1019215872	51	3881
2026-01-28 09:46:14.85	91.15	20.43	-39.8	-40.6	23.4	0.00e+00	0	43	0	1042284544	51	3871
2026-01-28 09:46:18.87	90.56	20.87	-39.8	-40.6	23.4	0.00e+00	0	43	0	1065353216	51	3887
2026-01-28 09:46:22.91	89.95	21.32	-39.3	-40.0	23.9	0.00e+00	0	43	0	1087373312	50	3852
2026-01-28 09:46:26.94	89.32	21.77	-39.3	-40.0	24.0	0.00e+00	0	43	0	1110441984	50	3848
2026-01-28 09:46:30.96	88.68	22.23	-39.0	-39.8	24.2	0.00e+00	0	43	0	1133510656	50	3751
2026-01-28 09:46:34.99	88.01	22.69	-39.0	-39.7	24.2	0.00e+00	0	43	0	1155530752	49	3935
2026-01-28 09:46:39.02	87.32	23.15	-39.0	-39.7	24.2	0.00e+00	0	43	0	1178599424	49	3957
2026-01-28 09:46:43.05	86.61	23.62	-39.1	-39.8	24.1	0.00e+00	0	43	0	1201668096	49	4000
2026-01-28 09:46:47.09	85.88	24.09	-38.7	-39.4	24.6	0.00e+00	0	43	0	1223688192	49	3800
2026-01-28 09:46:51.12	85.13	24.57	-38.8	-39.6	24.4	0.00e+00	0	43	0	1245708288	49	3873
2026-01-28 09:46:55.15	84.35	25.05	-38.8	-39.6	24.4	0.00e+00	0	43	0	1268776960	49	3873
2026-01-28 09:46:59.18	83.55	25.53	-38.6	-39.4	24.6	0.00e+00	0	43	0	1291845632	49	3784
2026-01-28 09:47:03.21	82.73	26.01	-38.5	-39.2	24.8	0.00e+00	0	43	0	1313865728	48	3933
2026-01-28 09:47:07.24	81.87	26.50	-38.3	-39.0	24.9	0.00e+00	0	43	0	1336934400	48	3842
2026-01-28 09:47:11.27	80.99	26.99	-38.5	-39.2	24.8	0.00e+00	0	43	0	1360003072	48	3925
2026-01-28 09:47:15.31	80.09	27.48	-38.4	-39.1	24.8	0.00e+00	0	43	0	1382023168	48	3906
2026-01-28 09:47:19.34	79.15	27.96	-38.3	-39.0	25.0	0.00e+00	0	43	0	1405091840	48	3849
2026-01-28 09:47:23.37	78.19	28.45	-38.4	-39.1	24.9	0.00e+00	0	43	0	1428160512	48	3886
2026-01-28 09:47:27.40	77.19	28.94	-38.3	-39.0	25.0	0.00e+00	0	43	0	1450180608	48	3839
2026-01-28 09:47:31.43	76.17	29.43	-38.3	-39.0	25.0	0.00e+00	0	43	0	1473249280	48	3830
2026-01-28 09:47:35.46	75.11	29.91	-38.2	-38.9	25.1	0.00e+00	0	43	0	1496317952	48	3814
2026-01-28 09:47:39.48	74.03	30.39	-38.3	-39.0	25.0	0.00e+00	0	43	0	1518338048	48	3833
2026-01-28 09:47:43.52	72.90	30.87	-37.6	-38.3	25.2	0.00e+00	0	43	0	1541406720	47	3764
2026-01-28 09:47:47.55	71.75	31.34	-37.7	-38.4	25.1	0.00e+00	0	43	0	1564475392	47	3805
2026-01-28 09:47:51.57	70.56	31.80	-37.5	-38.2	25.3	0.00e+00	0	43	0	1586495488	47	3733
2026-01-28 09:47:55.60	69.34	32.26	-37.4	-38.1	25.3	0.00e+00	0	43	0	1609564160	46	3913
2026-01-28 09:47:59.63	68.08	32.71	-37.4	-38.1	25.3	0.00e+00	0	43	0	1631584256	46	3904
2026-01-28 09:48:03.66	66.78	33.15	-37.3	-38.0	25.5	0.00e+00	0	43	0	1654652928	46	3829
2026-01-28 09:48:07.68	65.46	33.58	-37.5	-38.3	25.2	0.00e+00	0	43	0	1676673024	46	3964
2026-01-28 09:48:11.71	64.09	33.99	-37.7	-38.4	25.1	0.00e+00	0	43	0	1699741696	46	4034
2026-01-28 09:48:15.75	62.69	34.40	-37.6	-38.4	25.2	0.00e+00	0	43	0	1722810368	46	4012
2026-01-28 09:48:19.77	61.26	34.79	-37.5	-38.2	25.3	0.00e+00	0	43	0	1744830464	46	3947
2026-01-28 09:48:23.79	59.80	35.16	-37.5	-38.1	25.4	0.00e+00	0	43	0	1767899136	46	3913
2026-01-28 09:48:27.82	58.30	35.51	-37.7	-38.4	25.1	0.00e+00	0	43	0	1789919232	46	4044
2026-01-28 09:48:31.84	56.77	35.85	-37.7	-38.4	25.1	0.00e+00	0	43	0	1812987904	46	4043
2026-01-28 09:48:35.86	55.21	36.16	-37.3	-37.9	25.6	0.00e+00	0	43	0	1836056576	46	3823
2026-01-28 09:48:39.89	53.61	36.45	-37.5	-38.2	25.4	0.00e+00	0	43	0	1858076672	46	3927
2026-01-28 09:48:43.92	51.99	36.72	-37.4	-38.1	25.5	0.00e+00	0	43	0	1881145344	46	3888
2026-01-28 09:48:47.96	50.34	36.97	-37.3	-38.0	25.5	0.00e+00	0	43	0	1904214016	46	3860
2026-01-28 09:48:51.97	48.68	37.18	-37.4	-38.1	25.4	0.00e+00	0	43	0	1926234112	46	3908
2026-01-28 09:48:55.99	46.99	37.37	-37.3	-37.9	25.6	0.00e+00	0	43	0	1949302784	46	3819
2026-01-28 09:49:00.03	45.27	37.54	-37.7	-38.4	25.2	0.00e+00	0	43	0	1971322880	46	4030
2026-01-28 09:49:04.06	43.55	37.67	-37.7	-38.4	25.2	0.00e+00	0	43	0	1994391552	46	4035
2026-01-28 09:49:08.08	41.81	37.78	-37.7	-38.4	25.2	0.00e+00	0	43	0	2016411648	46	4036
2026-01-28 09:49:12.10	40.07	37.86	-37.4	-38.1	25.5	0.00e+00	0	43	0	2039480320	46	3904
2026-01-28 09:49:16.13	38.31	37.90	-37.7	-38.4	25.2	0.00e+00	0	43	0	2061500416	46	4020
2026-01-28 09:49:20.16	36.56	37.92	-37.5	-38.2	25.4	0.00e+00	0	43	0	2084569088	46	3943
2026-01-28 09:49:24.20	34.79	37.90	-37.4	-38.1	25.5	0.00e+00	0	43	0	2107637760	46	3903
2026-01-28 09:49:28.23	33.04	37.85	-37.4	-38.1	25.5	0.00e+00	0	43	0	2129657856	46	3899
2026-01-28 09:49:32.26	31.29	37.78	-37.4	-38.1	25.5	0.00e+00	0	43	0	2152726528	46	3899
2026-01-28 09:49:36.29	29.55	37.67	-37.3	-38.0	25.6	0.00e+00	0	43	0	2175795200	46	3849
2026-01-28 09:49:40.32	27.83	37.53	-37.4	-38.2	25.4	0.00e+00	0	43	0	2197815296	46	3915
2026-01-28 09:49:44.36	26.12	37.37	-37.2	-37.9	25.7	0.00e+00	0	43	0	2220883968	46	3808
2026-01-28 09:49:48.39	24.43	37.17	-36.9	-37.6	25.9	0.00e+00	0	43	0	2243952640	45	3907
2026-01-28 09:49:52.42	22.76	36.95	-37.0	-37.6	25.9	0.00e+00	0	43	0	2265972736	45	3905
2026-01-28 09:49:56.46	21.11	36.71	-37.3	-38.0	25.6	0.00e+00	0	43	0	2289041408	45	4061
2026-01-28 09:50:00.50	19.49	36.43	-37.2	-37.9	25.7	0.00e+00	0	43	0	2312110080	45	4015
2026-01-28 09:50:04.53	17.90	36.14	-37.1	-37.7	25.8	0.00e+00	0	43	0	2334130176	45	3957
2026-01-28 09:50:08.56	16.34	35.83	-37.0	-37.6	25.9	0.00e+00	0	43	0	2357198848	45	3910
2026-01-28 09:50:12.59	14.81	35.49	-37.3	-38.0	25.6	0.00e+00	0	43	0	2379218944	45	4080
2026-01-28 09:50:16.62	13.31	35.13	-37.1	-37.8	25.8	0.00e+00	0	43	0	2402287616	45	3979
2026-01-28 09:50:20.66	11.84	34.76	-36.9	-37.6	25.9	0.00e+00	0	43	0	2425356288	45	3883
2026-01-28 09:50:24.69	10.42	34.37	-37.0	-37.7	25.8	0.00e+00	0	43	0	2447376384	45	3941
2026-01-28 09:50:28.71	9.02	33.97	-37.0	-37.7	25.8	0.00e+00	0	43	0	2470445056	45	3941
2026-01-28 09:50:32.74	7.66	33.55	-37.1	-37.8	25.7	0.00e+00	0	43	0	2493513728	45	3995
2026-01-28 09:50:36.77	6.34	33.12	-37.2	-37.9	25.7	0.00e+00	0	43	0	2515533824	45	4012
2026-01-28 09:50:40.81	5.05	32.68	-37.3	-38.1	25.5	0.00e+00	0	43	0	2538602496	45	4101
2026-01-28 09:50:44.83	3.80	32.23	-37.1	-37.7	25.7	0.00e+00	0	43	0	2560622592	45	3957
2026-01-28 09:50:48.87	2.57	31.78	-37.4	-38.1	25.4	0.00e+00	0	43	0	2583691264	45	4118
2026-01-28 09:50:52.90	1.39	31.31	-37.5	-38.2	25.3	0.00e+00	0	43	0	2606759936	45	4171
2026-01-28 09:50:56.91	0.25	30.84	-37.3	-38.0	25.5	0.00e+00	0	43	0	2628780032	45	4071
2026-01-28 09:51:00.95	359.13	30.37	-37.0	-37.6	25.8	0.00e+00	0	43	0	2651848704	45	3911
2026-01-28 09:51:04.97	358.04	29.89	-37.4	-38.1	25.4	0.00e+00	0	43	0	2674917376	45	4140
2026-01-28 09:51:08.99	356.99	29.41	-37.5	-38.3	25.2	0.00e+00	0	43	0	2696937472	45	4194
2026-01-28 09:51:13.03	355.97	28.92	-37.5	-38.2	25.3	0.00e+00	0	43	0	2718957568	45	4178
2026-01-28 09:51:17.06	354.98	28.43	-37.7	-38.4	25.1	0.00e+00	0	43	0	2742026240	46	4037
2026-01-28 09:51:21.09	354.02	27.95	-37.7	-38.4	25.1	0.00e+00	0	43	0	2765094912	46	4018
2026-01-28 09:51:25.13	353.09	27.46	-37.6	-38.3	25.2	0.00e+00	0	43	0	2787115008	46	3967
2026-01-28 09:51:29.15	352.19	26.97	-37.8	-38.5	25.0	0.00e+00	0	43	0	2810183680	46	4072
2026-01-28 09:51:33.19	351.31	26.48	-37.7	-38.4	25.0	0.00e+00	0	43	0	2833252352	46	4034
2026-01-28 09:51:37.22	350.47	26.00	-38.0	-38.7	24.8	0.00e+00	0	43	0	2855272448	46	4174
2026-01-28 09:51:41.25	349.64	25.52	-38.2	-38.9	24.6	0.00e+00	0	43	0	2878341120	46	4271
2026-01-28 09:51:45.28	348.85	25.04	-38.1	-38.9	24.7	0.00e+00	0	43	0	2901409792	47	4010
2026-01-28 09:51:49.30	348.08	24.56	-38.2	-38.9	24.6	0.00e+00	0	43	0	2923429888	47	4029
2026-01-28 09:51:53.33	347.33	24.09	-38.2	-38.9	24.6	0.00e+00	0	43	0	2946498560	47	4029
2026-01-28 09:51:57.36	346.60	23.62	-38.0	-38.7	24.8	0.00e+00	0	43	0	2969567232	47	3946
2026-01-28 09:52:01.39	345.89	23.15	-38.1	-38.8	24.7	0.00e+00	0	43	0	2991587328	47	3983
2026-01-28 09:52:05.42	345.21	22.68	-38.3	-39.1	24.5	0.00e+00	0	43	0	3014656000	47	4100
2026-01-28 09:52:09.44	344.55	22.23	-38.4	-39.1	24.4	0.00e+00	0	43	0	3037724672	47	4139
2026-01-28 09:52:13.47	343.91	21.77	-38.3	-39.0	24.5	0.00e+00	0	43	0	3059744768	47	4081
2026-01-28 09:52:17.49	343.28	21.32	-38.3	-39.0	24.4	0.00e+00	0	43	0	3081764864	47	4085
2026-01-28 09:52:21.53	342.67	20.87	-38.3	-39.1	24.4	0.00e+00	0	43	0	3104833536	47	4114
2026-01-28 09:52:25.56	342.08	20.43	-38.6	-39.4	24.1	0.00e+00	0	43	0	3127902208	47	4255
2026-01-28 09:52:29.59	341.51	19.99	-39.0	-39.7	24.2	0.00e+00	0	43	0	3149922304	48	4183
2026-01-28 09:52:33.61	340.96	19.56	-39.1	-39.8	24.1	0.00e+00	0	43	0	3172990976	48	4228
2026-01-28 09:52:37.64	340.42	19.13	-39.1	-39.9	24.1	0.00e+00	0	43	0	3196059648	48	4256
2026-01-28 09:52:41.67	339.89	18.71	-39.2	-40.0	24.0	0.00e+00	0	43	0	3218079744	49	4070
2026-01-28 09:52:45.71	339.38	18.29	-39.5	-40.3	23.8	0.00e+00	0	43	0	3241148416	49	4197
2026-01-28 09:52:49.74	338.89	17.88	-39.7	-40.4	23.6	0.00e+00	0	43	0	3264217088	49	4273
2026-01-28 09:52:53.77	338.40	17.47	-39.6	-40.4	23.6	0.00e+00	0	43	0	3286237184	50	4010
2026-01-28 09:52:57.80	337.94	17.06	-39.5	-40.3	23.7	0.00e+00	0	43	0	3309305856	50	3963
2026-01-28 09:53:01.83	337.48	16.66	-39.7	-40.5	23.4	0.00e+00	0	43	0	3331325952	50	4076
2026-01-28 09:53:05.85	337.04	16.27	-40.0	-40.8	23.2	0.00e+00	0	43	0	3354394624	50	4197
2026-01-28 09:53:09.88	336.61	15.88	-40.2	-41.0	23.0	0.00e+00	0	43	0	3377463296	51	4067
2026-01-28 09:53:13.92	336.18	15.49	-40.3	-41.1	22.9	0.00e+00	0	43	0	3399483392	51	4119
2026-01-28 09:53:17.94	335.78	15.11	-40.3	-41.1	22.8	0.00e+00	0	43	0	3422552064	51	4116
2026-01-28 09:53:21.97	335.38	14.73	-40.3	-41.1	22.8	0.00e+00	0	43	0	3444572160	51	4132
2026-01-28 09:53:26.00	334.99	14.36	-40.5	-41.3	22.7	0.00e+00	0	43	0	3467640832	51	4202
2026-01-28 09:53:30.04	334.61	13.99	-40.5	-41.3	22.5	0.00e+00	0	43	0	3490709504	52	3988
2026-01-28 09:53:34.07	334.24	13.62	-40.8	-41.6	22.3	0.00e+00	0	43	0	3512729600	52	4130
2026-01-28 09:53:38.09	333.88	13.26	-40.9	-41.8	22.0	0.00e+00	0	43	0	3535798272	52	4207
2026-01-28 09:53:42.12	333.53	12.91	-41.0	-41.9	21.9	0.00e+00	0	43	0	3557818368	52	4249
2026-01-28 09:53:46.15	333.19	12.55	-40.8	-41.6	22.2	0.00e+00	0	43	0	3580887040	52	4133
2026-01-28 09:53:50.18	332.85	12.21	-40.8	-41.6	22.2	0.00e+00	0	43	0	3603955712	52	4128
2026-01-28 09:53:54.20	332.53	11.86	-41.0	-41.8	22.0	0.00e+00	0	43	0	3625975808	52	4219
2026-01-28 09:53:58.23	332.21	11.52	-41.1	-42.0	21.8	0.00e+00	0	43	0	3649044480	52	4295
2026-01-28 09:54:02.27	331.90	11.19	-41.2	-42.1	21.6	2.17e-05	0	43	0	3672113152	53	4122
2026-01-28 09:54:06.30	331.60	10.85	-41.4	-42.3	21.5	0.00e+00	0	43	0	3694133248	53	4210
2026-01-28 09:54:10.32	331.30	10.52	-41.4	-42.2	21.4	0.00e+00	0	43	0	3717201920	53	4192
2026-01-28 09:54:14.35	331.01	10.20	-41.5	-42.4	21.2	0.00e+00	0	43	0	3740270592	53	4266
2026-01-28 09:54:18.38	330.73	9.88	-41.5	-42.4	21.2	0.00e+00	0	43	0	3762290688	53	4259
2026-01-28 09:54:22.41	330.46	9.56	-41.6	-42.5	21.1	0.00e+00	0	43	0	3784310784	53	4303
2026-01-28 09:54:26.44	330.19	9.24	-41.6	-42.5	21.1	0.00e+00	0	43	0	3807379456	54	4069
2026-01-28 09:54:30.47	329.92	8.93	-41.7	-42.7	20.9	0.00e+00	0	43	0	3830448128	54	4153
2026-01-28 09:54:34.50	329.67	8.62	-41.9	-42.8	20.7	0.00e+00	0	43	0	3852468224	54	4242
2026-01-28 09:54:38.52	329.41	8.32	-41.9	-42.9	20.6	0.00e+00	0	43	0	3875536896	54	4257
2026-01-28 09:54:42.55	329.17	8.01	-42.2	-43.1	20.4	0.00e+00	0	43	0	3898605568	55	4138
2026-01-28 09:54:46.57	328.93	7.72	-42.1	-43.1	20.4	0.00e+00	0	43	0	3920625664	55	4117
2026-01-28 09:54:50.61	328.69	7.42	-42.3	-43.2	20.2	0.00e+00	0	43	0	3943694336	55	4185
2026-01-28 09:54:54.64	328.46	7.13	-42.2	-43.2	20.2	0.00e+00	0	43	0	3966763008	55	4164
2026-01-28 09:54:58.66	328.23	6.84	-42.2	-43.2	20.2	0.00e+00	0	43	0	3988783104	55	4168
2026-01-28 09:55:02.69	328.01	6.55	-42.3	-43.2	20.1	0.00e+00	0	43	0	4011851776	55	4189
2026-01-28 09:55:06.73	327.80	6.26	-42.5	-43.4	19.9	0.00e+00	0	43	0	4033871872	55	4288
2026-01-28 09:55:10.75	327.59	5.98	-42.5	-43.5	19.8	0.00e+00	0	43	0	4056940544	55	4336
2026-01-28 09:55:14.78	327.38	5.70	-42.7	-43.7	19.6	0.00e+00	0	43	0	4080009216	56	4186
2026-01-28 09:55:18.80	327.17	5.43	-42.9	-43.9	19.4	0.00e+00	0	43	0	4102029312	56	4269
2026-01-28 09:55:22.83	326.98	5.15	-42.8	-43.9	19.4	0.00e+00	0	43	0	4124049408	57	4022
2026-01-28 09:55:26.87	326.78	4.88	-52.5	-64.5	3.8	8.47e-01	0	43	104	4141875200	75	15249
2026-01-28 09:55:30.90	326.59	4.61	-53.1	-65.1	3.8	8.46e-01	0	43	104	4141875200	76	15413
2026-01-28 09:55:34.93	326.40	4.34	-52.9	-64.9	3.8	8.46e-01	0	43	104	4141875200	76	15092
2026-01-28 09:55:38.96	326.22	4.08	-53.1	-65.0	3.8	8.46e-01	0	43	104	4141875200	76	15270
2026-01-28 09:55:42.98	326.04	3.81	-53.2	-65.1	3.8	8.45e-01	0	43	104	4141875200	77	14682
2026-01-28 09:55:47.01	325.86	3.55	-53.1	-65.1	3.8	8.47e-01	0	43	104	4141875200	77	14582
2026-01-28 09:55:51.04	325.69	3.30	-53.1	-65.0	3.8	8.47e-01	0	43	104	4141875200	77	14422
2026-01-28 09:55:55.08	325.51	3.04	-53.0	-64.9	3.8	8.46e-01	0	43	104	4141875200	77	14343
2026-01-28 09:55:59.11	325.35	2.78	-53.0	-64.9	3.8	8.46e-01	0	43	104	4141875200	77	14365
2026-01-28 09:56:03.15	325.18	2.53	-53.0	-65.0	3.8	8.46e-01	0	43	104	4141875200	77	14390
2026-01-28 09:56:07.18	325.02	2.28	-53.0	-64.9	3.8	8.46e-01	0	43	104	4141875200	77	14285
2026-01-28 09:56:11.21	324.86	2.03	-53.0	-64.9	3.8	8.46e-01	0	43	104	4141875200	77	14255

#Closed at: 2026-01-28 09:56:13
#Recorded file [4141 MB]: D:/lorett/data/31041_260128_124228.dat