passes_logs/2026/01/28/R3.2S_Murmansk/R3.2S_Murmansk__20260128_112156_FENGYUN_3D_rec.log

#Pass ID: 20260128_112156_FENGYUN 3D
#Satellite: FENGYUN 3D
#Configuration: FENGYUN 3D
#almurnet v.1.7.20251203
#Start time: 2026-01-28 11:21:58

#Version: 2.2.20231116
#Station: R3.2S_Murmansk
#Location: 33.079688 lon 68.888172 lat
#TLE: 1 43010U 17072A   26027.90082829  .00000305  00000+0  16579-3 0  9998
#TLE: 2 43010  98.9960 359.9183 0002511  88.1058 272.0405 14.19701796425082

#Time	Az	El	Level	Level2	SNR	BER	BlckErr	Temp	State	Recorded	gain1	gain2
2026-01-28 11:21:58.74	146.22	2.11	-51.7	-63.6	3.8	8.44e-01	0	41	0	0	75	13787
2026-01-28 11:22:02.76	146.21	2.37	-51.6	-63.5	3.8	8.47e-01	0	41	104	0	73	15325
2026-01-28 11:22:06.79	146.20	2.64	-51.6	-63.5	3.8	8.45e-01	0	41	104	0	73	15232
2026-01-28 11:22:10.82	146.19	2.90	-51.6	-63.3	3.8	8.46e-01	0	41	104	0	73	15034
2026-01-28 11:22:14.85	146.18	3.17	-51.6	-63.3	3.8	8.47e-01	0	41	104	0	73	14992
2026-01-28 11:22:18.88	146.17	3.44	-51.6	-63.5	3.8	8.45e-01	0	41	104	0	73	15257
2026-01-28 11:22:22.91	146.15	3.72	-51.4	-61.7	3.8	8.46e-01	0	41	104	0	73	12447
2026-01-28 11:22:26.94	146.14	3.99	-49.5	-53.6	8.7	7.67e-02	0	41	0	8388608	71	5482
2026-01-28 11:22:30.98	146.13	4.28	-45.3	-46.9	15.6	0.00e+00	0	41	0	31457280	62	4253
2026-01-28 11:22:35.01	146.11	4.56	-43.9	-45.2	17.6	0.00e+00	0	41	0	53477376	59	4153
2026-01-28 11:22:39.04	146.10	4.84	-44.1	-45.5	17.4	0.00e+00	0	41	0	76546048	58	4553
2026-01-28 11:22:43.07	146.09	5.13	-45.5	-47.1	15.7	0.00e+00	0	42	0	99614720	63	4105
2026-01-28 11:22:47.10	146.07	5.42	-45.0	-46.5	16.4	0.00e+00	0	42	0	116391936	60	4560
2026-01-28 11:22:51.13	146.05	5.72	-43.3	-44.5	18.8	0.00e+00	0	42	0	139460608	58	4060
2026-01-28 11:22:55.16	146.04	6.02	-43.3	-44.4	19.0	0.00e+00	0	42	0	162529280	58	4031
2026-01-28 11:22:59.21	146.02	6.32	-43.2	-44.4	19.0	0.00e+00	0	42	0	184549376	58	4012
2026-01-28 11:23:03.23	146.00	6.63	-42.9	-44.0	19.5	0.00e+00	0	42	0	207618048	57	4078
2026-01-28 11:23:07.27	145.99	6.94	-43.0	-44.1	19.4	0.00e+00	0	42	0	230686720	57	4103
2026-01-28 11:23:11.31	145.97	7.25	-42.8	-43.9	19.6	0.00e+00	0	42	0	252706816	57	4015
2026-01-28 11:23:15.34	145.95	7.57	-42.8	-43.8	19.7	0.00e+00	0	42	0	275775488	57	3990
2026-01-28 11:23:19.37	145.93	7.89	-42.6	-43.6	20.0	0.00e+00	0	42	0	298844160	57	3883
2026-01-28 11:23:23.41	145.90	8.21	-42.4	-43.5	20.1	0.00e+00	0	42	0	320864256	56	4060
2026-01-28 11:23:27.44	145.88	8.54	-42.3	-43.3	20.3	0.00e+00	0	42	0	343932928	56	3998
2026-01-28 11:23:31.48	145.86	8.88	-42.1	-43.1	20.6	0.00e+00	0	42	0	365953024	56	3888
2026-01-28 11:23:35.51	145.84	9.21	-42.1	-43.1	20.6	0.00e+00	0	42	0	389021696	56	3872
2026-01-28 11:23:39.55	145.81	9.56	-42.0	-43.0	20.7	0.00e+00	0	42	0	412090368	55	4054
2026-01-28 11:23:43.59	145.79	9.91	-41.9	-42.8	20.8	0.00e+00	0	42	0	434110464	55	3985
2026-01-28 11:23:47.62	145.76	10.26	-41.8	-42.7	20.9	0.00e+00	0	42	0	457179136	55	3943
2026-01-28 11:23:51.65	145.73	10.62	-41.7	-42.6	21.0	0.00e+00	0	42	0	480247808	55	3903
2026-01-28 11:23:55.69	145.70	10.98	-41.5	-42.4	21.2	0.00e+00	0	42	0	502267904	55	3824
2026-01-28 11:23:59.72	145.68	11.35	-41.6	-42.6	21.2	0.00e+00	0	42	0	525336576	55	3871
2026-01-28 11:24:03.75	145.64	11.72	-41.4	-42.3	21.4	0.00e+00	0	42	0	548405248	54	3972
2026-01-28 11:24:07.78	145.61	12.10	-41.4	-42.4	21.4	0.00e+00	0	42	0	570425344	54	4011
2026-01-28 11:24:11.81	145.58	12.49	-41.3	-42.2	21.5	0.00e+00	0	42	0	593494016	54	3932
2026-01-28 11:24:15.84	145.55	12.88	-41.2	-42.1	21.6	0.00e+00	0	42	0	616562688	54	3890
2026-01-28 11:24:19.87	145.51	13.28	-41.3	-42.2	21.5	0.00e+00	0	42	0	638582784	54	3936
2026-01-28 11:24:23.91	145.47	13.68	-41.0	-41.9	21.9	0.00e+00	0	42	0	661651456	54	3789
2026-01-28 11:24:27.94	145.44	14.10	-40.9	-41.7	22.0	0.00e+00	0	42	0	683671552	53	3958
2026-01-28 11:24:31.97	145.40	14.51	-40.8	-41.6	22.1	0.00e+00	0	42	0	706740224	53	3909
2026-01-28 11:24:36.00	145.35	14.94	-40.6	-41.5	22.2	0.00e+00	0	42	0	728760320	53	3837
2026-01-28 11:24:40.03	145.31	15.37	-40.6	-41.4	22.3	0.00e+00	0	42	0	751828992	53	3821
2026-01-28 11:24:44.05	145.27	15.82	-40.4	-41.3	22.4	0.00e+00	0	42	0	774897664	52	3977
2026-01-28 11:24:48.08	145.22	16.27	-40.4	-41.3	22.5	0.00e+00	0	42	0	796917760	52	3964
2026-01-28 11:24:52.11	145.17	16.72	-40.1	-41.0	22.8	0.00e+00	0	42	0	819986432	52	3828
2026-01-28 11:24:56.14	145.12	17.19	-40.1	-40.9	23.0	0.00e+00	0	43	0	842006528	51	4020
2026-01-28 11:25:00.18	145.07	17.67	-40.0	-40.8	23.0	0.00e+00	0	42	0	865075200	51	3977
2026-01-28 11:25:04.21	145.02	18.15	-39.7	-40.4	23.3	0.00e+00	0	42	0	888143872	51	3823
2026-01-28 11:25:08.24	144.96	18.65	-39.5	-40.3	23.5	0.00e+00	0	42	0	911212544	51	3752
2026-01-28 11:25:12.28	144.90	19.15	-39.4	-40.2	23.6	0.00e+00	0	42	0	933232640	50	3933
2026-01-28 11:25:16.31	144.84	19.67	-39.4	-40.2	23.5	0.00e+00	0	42	0	956301312	50	3946
2026-01-28 11:25:20.34	144.78	20.20	-39.5	-40.3	23.5	0.00e+00	0	42	0	978321408	50	3965
2026-01-28 11:25:24.37	144.71	20.74	-39.5	-40.3	23.5	0.00e+00	0	42	0	1001390080	50	3966
2026-01-28 11:25:28.41	144.64	21.29	-39.5	-40.3	23.5	0.00e+00	0	42	0	1024458752	50	3983
2026-01-28 11:25:32.43	144.57	21.85	-39.4	-40.2	23.6	0.00e+00	0	42	0	1046478848	50	3944
2026-01-28 11:25:36.47	144.49	22.42	-39.1	-39.9	23.9	0.00e+00	0	43	0	1069547520	50	3802
2026-01-28 11:25:40.51	144.41	23.01	-39.1	-39.9	24.0	0.00e+00	0	42	0	1091567616	50	3781
2026-01-28 11:25:44.54	144.33	23.61	-39.1	-39.9	23.9	0.00e+00	0	42	0	1114636288	49	4045
2026-01-28 11:25:48.58	144.24	24.23	-39.0	-39.7	24.0	0.00e+00	0	42	0	1137704960	49	3958
2026-01-28 11:25:52.61	144.15	24.86	-38.8	-39.5	24.2	0.00e+00	0	42	0	1159725056	49	3860
2026-01-28 11:25:56.65	144.06	25.51	-38.7	-39.5	24.3	0.00e+00	0	42	0	1182793728	49	3842
2026-01-28 11:26:00.68	143.96	26.17	-38.5	-39.3	24.5	0.00e+00	0	43	0	1205862400	49	3753
2026-01-28 11:26:04.72	143.85	26.85	-38.4	-39.1	24.6	0.00e+00	0	42	0	1227882496	48	3909
2026-01-28 11:26:08.76	143.74	27.55	-38.2	-38.9	24.8	0.00e+00	0	43	0	1250951168	48	3822
2026-01-28 11:26:12.79	143.63	28.26	-38.3	-39.1	24.7	0.00e+00	0	42	0	1274019840	48	3887
2026-01-28 11:26:16.83	143.51	29.00	-38.3	-39.1	24.7	0.00e+00	0	43	0	1296039936	48	3884
2026-01-28 11:26:20.86	143.38	29.75	-38.3	-39.1	24.7	0.00e+00	0	43	0	1319108608	48	3882
2026-01-28 11:26:24.89	143.24	30.52	-38.2	-38.9	24.8	0.00e+00	0	43	0	1342177280	48	3810
2026-01-28 11:26:28.92	143.10	31.31	-37.8	-38.6	24.6	0.00e+00	0	42	0	1364197376	47	3889
2026-01-28 11:26:32.96	142.95	32.13	-37.8	-38.5	24.7	0.00e+00	0	42	0	1387266048	47	3861
2026-01-28 11:26:36.99	142.79	32.97	-37.6	-38.3	24.8	0.00e+00	0	43	0	1410334720	47	3779
2026-01-28 11:26:41.03	142.63	33.83	-37.5	-38.2	25.0	0.00e+00	0	43	0	1432354816	47	3733
2026-01-28 11:26:45.06	142.45	34.72	-37.2	-37.9	25.2	0.00e+00	0	43	0	1455423488	46	3819
2026-01-28 11:26:49.09	142.26	35.63	-37.1	-37.9	25.3	0.00e+00	0	43	0	1477443584	45	4015
2026-01-28 11:26:53.12	142.06	36.56	-37.6	-38.4	24.8	0.00e+00	0	43	0	1500512256	45	4264
2026-01-28 11:26:57.15	141.85	37.53	-37.7	-38.4	25.2	0.00e+00	0	42	0	1523580928	46	4036
2026-01-28 11:27:01.18	141.62	38.52	-37.5	-38.2	25.4	0.00e+00	0	42	0	1545601024	46	3950
2026-01-28 11:27:05.21	141.38	39.54	-37.7	-38.4	25.3	0.00e+00	0	42	0	1568669696	46	4009
2026-01-28 11:27:09.25	141.12	40.60	-38.0	-38.8	24.9	0.00e+00	0	42	0	1591738368	46	4198
2026-01-28 11:27:13.27	140.84	41.68	-38.0	-38.7	25.0	0.00e+00	0	42	0	1613758464	46	4163
2026-01-28 11:27:17.31	140.54	42.80	-38.2	-39.0	24.8	0.00e+00	0	43	0	1636827136	47	4052
2026-01-28 11:27:21.34	140.22	43.95	-38.0	-38.7	25.0	0.00e+00	0	43	0	1658847232	47	3954
2026-01-28 11:27:25.37	139.87	45.13	-38.5	-39.2	24.6	0.00e+00	0	43	0	1681915904	47	4169
2026-01-28 11:27:29.41	139.50	46.35	-38.6	-39.3	25.0	0.00e+00	0	42	0	1704984576	48	3970
2026-01-28 11:27:33.42	139.09	47.60	-37.8	-38.5	25.3	0.00e+00	0	43	0	1727004672	47	3839
2026-01-28 11:27:37.46	138.65	48.89	-37.9	-38.6	25.1	0.00e+00	0	42	0	1750073344	47	3904
2026-01-28 11:27:41.49	138.16	50.21	-38.7	-39.4	24.4	0.00e+00	0	42	0	1773142016	47	4287
2026-01-28 11:27:45.53	137.63	51.58	-39.6	-40.3	24.2	0.00e+00	0	42	0	1795162112	49	4214
2026-01-28 11:27:49.55	137.05	52.97	-39.8	-40.6	23.9	0.00e+00	0	42	0	1818230784	50	4111
2026-01-28 11:27:53.58	136.41	54.41	-39.6	-40.3	24.2	0.00e+00	0	42	0	1840250880	50	3989
2026-01-28 11:27:57.61	135.69	55.88	-39.5	-40.2	24.3	0.00e+00	0	43	0	1863319552	50	3936
2026-01-28 11:28:01.64	134.90	57.39	-39.3	-40.1	24.4	0.00e+00	0	42	0	1885339648	50	3880
2026-01-28 11:28:05.66	134.01	58.93	-39.2	-40.0	24.5	0.00e+00	0	43	0	1908408320	50	3841
2026-01-28 11:28:09.70	133.00	60.50	-38.5	-39.1	25.2	0.00e+00	0	42	0	1931476992	49	3692
2026-01-28 11:28:13.73	131.86	62.11	-38.7	-39.4	25.1	0.00e+00	0	43	0	1953497088	48	4013
2026-01-28 11:28:17.76	130.56	63.74	-38.4	-39.1	25.3	0.00e+00	0	42	0	1976565760	48	3891
2026-01-28 11:28:21.79	129.05	65.40	-38.0	-38.7	25.7	0.00e+00	0	43	0	1999634432	48	3720
2026-01-28 11:28:25.82	127.30	67.07	-37.0	-37.7	26.0	0.00e+00	0	43	0	2021654528	46	3714
2026-01-28 11:28:29.85	125.24	68.75	-36.8	-37.5	26.2	0.00e+00	0	42	0	2044723200	45	3841
2026-01-28 11:28:33.87	122.81	70.43	-36.7	-37.4	26.3	0.00e+00	0	43	0	2067791872	45	3808
2026-01-28 11:28:37.90	119.87	72.10	-36.8	-37.5	26.2	0.00e+00	0	43	0	2089811968	45	3859
2026-01-28 11:28:41.93	116.29	73.74	-37.1	-37.9	26.0	0.00e+00	0	42	0	2112880640	45	4005
2026-01-28 11:28:45.97	111.87	75.33	-36.5	-37.1	26.6	0.00e+00	0	43	0	2135949312	45	3690
2026-01-28 11:28:49.99	106.39	76.83	-36.1	-36.7	26.8	0.00e+00	0	42	0	2157969408	44	3735
2026-01-28 11:28:54.03	99.49	78.20	-35.2	-35.9	27.5	0.00e+00	0	43	0	2179989504	42	3787
2026-01-28 11:28:58.06	90.91	79.37	-35.0	-35.7	27.6	0.00e+00	0	43	0	2203058176	41	3917
2026-01-28 11:29:02.09	80.47	80.25	-34.8	-35.4	27.8	0.00e+00	0	42	0	2226126848	41	3811
2026-01-28 11:29:06.12	68.40	80.76	-34.9	-35.5	27.7	0.00e+00	0	42	0	2248146944	41	3861
2026-01-28 11:29:10.15	55.55	80.83	-35.1	-35.7	27.6	0.00e+00	0	42	0	2271215616	41	3957
2026-01-28 11:29:14.19	43.10	80.45	-35.4	-36.1	27.3	0.00e+00	0	43	0	2294284288	41	4100
2026-01-28 11:29:18.23	32.09	79.67	-35.2	-35.9	27.5	0.00e+00	0	42	0	2316304384	41	4016
2026-01-28 11:29:22.27	22.94	78.57	-34.9	-35.6	27.7	0.00e+00	0	42	0	2339373056	41	3887
2026-01-28 11:29:26.30	15.58	77.26	-35.5	-36.2	27.3	0.00e+00	0	42	0	2362441728	41	4146
2026-01-28 11:29:30.33	9.70	75.80	-35.9	-36.5	27.0	0.00e+00	0	42	0	2384461824	42	4083
2026-01-28 11:29:34.36	5.00	74.23	-36.3	-37.0	26.6	0.00e+00	0	43	0	2407530496	43	4061
2026-01-28 11:29:38.39	1.19	72.61	-36.6	-37.2	26.4	0.00e+00	0	43	0	2430599168	43	4190
2026-01-28 11:29:42.41	358.08	70.95	-36.6	-37.3	26.5	0.00e+00	0	42	0	2452619264	44	3988
2026-01-28 11:29:46.44	355.50	69.27	-37.3	-38.0	25.9	0.00e+00	0	43	0	2475687936	45	4059
2026-01-28 11:29:50.46	353.34	67.60	-37.2	-37.9	26.0	0.00e+00	0	43	0	2498756608	45	4044
2026-01-28 11:29:54.49	351.51	65.92	-37.0	-37.7	26.2	0.00e+00	0	43	0	2520776704	45	3923
2026-01-28 11:29:58.52	349.93	64.26	-37.3	-38.0	25.9	0.00e+00	0	42	0	2542796800	45	4058
2026-01-28 11:30:02.55	348.57	62.63	-37.5	-38.1	25.8	0.00e+00	0	43	0	2565865472	45	4143
2026-01-28 11:30:06.58	347.39	61.02	-37.4	-38.1	25.8	0.00e+00	0	42	0	2588934144	45	4114
2026-01-28 11:30:10.61	346.34	59.44	-37.8	-38.5	25.4	0.00e+00	0	42	0	2610954240	46	4088
2026-01-28 11:30:14.64	345.42	57.89	-38.7	-39.4	24.6	0.00e+00	0	42	0	2634022912	47	4275
2026-01-28 11:30:18.67	344.60	56.37	-39.1	-39.8	24.9	0.00e+00	0	43	0	2657091584	49	3969
2026-01-28 11:30:22.70	343.86	54.89	-39.2	-39.9	24.8	0.00e+00	0	42	0	2679111680	49	4019
2026-01-28 11:30:26.73	343.20	53.45	-39.2	-39.9	24.7	0.00e+00	0	43	0	2702180352	49	4026
2026-01-28 11:30:30.76	342.60	52.04	-39.0	-39.8	24.8	0.00e+00	0	43	0	2725249024	49	3966
2026-01-28 11:30:34.80	342.05	50.67	-38.3	-39.0	25.5	0.00e+00	0	43	0	2747269120	48	3853
2026-01-28 11:30:38.83	341.56	49.33	-38.3	-39.0	25.5	0.00e+00	0	42	0	2770337792	48	3858
2026-01-28 11:30:42.86	341.10	48.04	-38.2	-38.9	25.5	0.00e+00	0	43	0	2793406464	48	3821
2026-01-28 11:30:46.89	340.69	46.78	-38.1	-38.8	25.7	0.00e+00	0	43	0	2815426560	48	3739
2026-01-28 11:30:50.91	340.30	45.56	-37.7	-38.3	25.5	0.00e+00	0	42	0	2838495232	46	4004
2026-01-28 11:30:54.95	339.95	44.36	-38.1	-38.8	25.1	0.00e+00	0	43	0	2861563904	46	4207
2026-01-28 11:30:58.98	339.62	43.21	-37.7	-38.5	24.4	0.00e+00	0	42	0	2883584000	46	4080
2026-01-28 11:31:03.01	339.32	42.08	-37.7	-38.5	24.5	0.00e+00	0	42	0	2905604096	46	4064
2026-01-28 11:31:07.04	339.03	40.99	-37.7	-38.4	23.4	0.00e+00	0	43	0	2928672768	46	4023
2026-01-28 11:31:11.07	338.77	39.93	-37.3	-38.0	23.6	0.00e+00	0	43	0	2951741440	46	3845
2026-01-28 11:31:15.11	338.52	38.90	-37.0	-37.7	25.2	0.00e+00	0	42	0	2973761536	46	3718
2026-01-28 11:31:19.14	338.29	37.90	-37.0	-37.7	26.0	0.00e+00	0	43	0	2996830208	45	3957
2026-01-28 11:31:23.18	338.07	36.93	-36.9	-37.6	26.1	0.00e+00	0	43	0	3019898880	45	3875
2026-01-28 11:31:27.21	337.87	35.99	-37.2	-37.9	25.8	0.00e+00	0	43	0	3041918976	45	4031
2026-01-28 11:31:31.23	337.68	35.07	-37.7	-38.4	25.4	0.00e+00	0	43	0	3064987648	45	4270
2026-01-28 11:31:35.27	337.50	34.18	-37.9	-38.6	25.2	0.00e+00	0	43	0	3088056320	46	4125
2026-01-28 11:31:39.30	337.33	33.31	-37.8	-38.5	25.3	0.00e+00	0	42	0	3110076416	46	4082
2026-01-28 11:31:43.32	337.17	32.47	-37.7	-38.4	25.3	0.00e+00	0	43	0	3133145088	46	4034
2026-01-28 11:31:47.35	337.02	31.65	-37.8	-38.5	25.2	0.00e+00	0	43	0	3156213760	46	4081
2026-01-28 11:31:51.38	336.88	30.85	-37.6	-38.4	25.4	0.00e+00	0	42	0	3178233856	46	4006
2026-01-28 11:31:55.41	336.74	30.08	-37.4	-38.0	25.6	0.00e+00	0	42	0	3201302528	46	3864
2026-01-28 11:31:59.43	336.61	29.32	-37.6	-38.3	25.4	0.00e+00	0	43	0	3223322624	46	3973
2026-01-28 11:32:03.47	336.49	28.58	-37.8	-38.5	25.2	0.00e+00	0	42	0	3246391296	46	4083
2026-01-28 11:32:07.50	336.38	27.87	-37.7	-38.4	25.2	0.00e+00	0	43	0	3268411392	46	4040
2026-01-28 11:32:11.53	336.27	27.17	-37.6	-38.3	25.3	0.00e+00	0	43	0	3291480064	46	3980
2026-01-28 11:32:15.56	336.16	26.48	-37.6	-38.3	25.3	0.00e+00	0	43	0	3314548736	46	3963
2026-01-28 11:32:19.59	336.06	25.82	-37.8	-38.5	25.1	0.00e+00	0	43	0	3336568832	46	4097
2026-01-28 11:32:23.63	335.97	25.17	-38.0	-38.8	24.9	0.00e+00	0	42	0	3359637504	46	4215
2026-01-28 11:32:27.66	335.88	24.53	-38.1	-38.9	24.8	0.00e+00	0	43	0	3382706176	47	4021
2026-01-28 11:32:31.69	335.79	23.91	-38.3	-39.0	24.6	0.00e+00	0	43	0	3404726272	47	4073
2026-01-28 11:32:35.72	335.71	23.31	-38.3	-39.0	24.6	0.00e+00	0	43	0	3427794944	47	4081
2026-01-28 11:32:39.75	335.63	22.72	-38.2	-39.0	24.7	0.00e+00	0	43	0	3450863616	47	4052
2026-01-28 11:32:43.79	335.55	22.14	-38.3	-39.1	24.5	0.00e+00	0	43	0	3472883712	47	4108
2026-01-28 11:32:47.82	335.48	21.57	-38.4	-39.2	24.4	0.00e+00	0	43	0	3495952384	47	4160
2026-01-28 11:32:51.85	335.41	21.02	-39.0	-39.8	24.4	0.00e+00	0	43	0	3519021056	48	4200
2026-01-28 11:32:55.89	335.35	20.48	-39.1	-39.9	24.2	0.00e+00	0	42	0	3541041152	48	4253
2026-01-28 11:32:59.91	335.28	19.95	-39.3	-40.1	24.1	0.00e+00	0	43	0	3564109824	49	4099
2026-01-28 11:33:03.95	335.22	19.43	-39.4	-40.1	24.0	0.00e+00	0	43	0	3587178496	49	4134
2026-01-28 11:33:07.98	335.17	18.92	-39.5	-40.3	23.8	0.00e+00	0	43	0	3609198592	49	4194
2026-01-28 11:33:12.01	335.11	18.43	-39.6	-40.4	23.7	0.00e+00	0	43	0	3631218688	49	4251
2026-01-28 11:33:16.04	335.06	17.94	-39.7	-40.4	23.7	0.00e+00	0	43	0	3654287360	50	4041
2026-01-28 11:33:20.07	335.01	17.46	-39.8	-40.6	23.5	1.10e-06	0	42	0	3677356032	50	4124
2026-01-28 11:33:24.10	334.96	16.99	-40.1	-40.9	23.2	0.00e+00	0	43	0	3699376128	50	4251
2026-01-28 11:33:28.13	334.91	16.53	-40.2	-41.0	23.1	0.00e+00	0	42	0	3722444800	50	4314
2026-01-28 11:33:32.16	334.87	16.08	-40.2	-41.0	23.1	0.00e+00	0	43	0	3745513472	51	4082
2026-01-28 11:33:36.19	334.82	15.64	-40.3	-41.1	23.0	0.00e+00	0	42	0	3767533568	51	4127
2026-01-28 11:33:40.23	334.78	15.20	-40.4	-41.2	22.9	0.00e+00	0	43	0	3790602240	51	4148
2026-01-28 11:33:44.26	334.74	14.77	-40.5	-41.3	22.7	0.00e+00	0	42	0	3813670912	51	4220
2026-01-28 11:33:48.29	334.70	14.35	-40.5	-41.3	22.7	0.00e+00	0	43	0	3835691008	51	4224
2026-01-28 11:33:52.32	334.67	13.94	-40.5	-41.3	22.7	0.00e+00	0	42	0	3858759680	51	4213
2026-01-28 11:33:56.35	334.63	13.53	-40.7	-41.5	22.5	0.00e+00	0	42	0	3881828352	51	4294
2026-01-28 11:34:00.38	334.60	13.13	-40.6	-41.4	22.4	0.00e+00	0	43	0	3903848448	52	4035
2026-01-28 11:34:04.42	334.57	12.74	-40.6	-41.4	22.4	0.00e+00	0	43	0	3926917120	52	4019
2026-01-28 11:34:08.45	334.53	12.35	-40.6	-41.4	22.4	0.00e+00	0	43	0	3949985792	52	4014
2026-01-28 11:34:12.48	334.50	11.97	-40.8	-41.6	22.2	0.00e+00	0	43	0	3972005888	52	4115
2026-01-28 11:34:16.51	334.48	11.59	-40.8	-41.6	22.1	0.00e+00	0	43	0	3994025984	52	4132
2026-01-28 11:34:20.54	334.45	11.22	-41.1	-41.9	21.8	0.00e+00	0	43	0	4017094656	52	4283
2026-01-28 11:34:24.57	334.42	10.86	-41.1	-42.0	21.8	0.00e+00	0	42	0	4040163328	53	4059
2026-01-28 11:34:28.60	334.40	10.50	-41.2	-42.0	21.7	0.00e+00	0	43	0	4062183424	53	4080
2026-01-28 11:34:32.63	334.37	10.15	-41.3	-42.2	21.5	0.00e+00	0	43	0	4085252096	53	4177
2026-01-28 11:34:36.66	334.35	9.80	-41.4	-42.3	21.3	0.00e+00	0	43	0	4108320768	53	4205
2026-01-28 11:34:40.69	334.33	9.46	-41.6	-42.5	21.1	1.10e-06	0	43	0	4130340864	54	4091
2026-01-28 11:34:44.73	334.31	9.12	-41.7	-42.6	21.1	0.00e+00	0	43	0	4153409536	54	4108
2026-01-28 11:34:48.77	334.29	8.78	-41.7	-42.6	21.0	0.00e+00	0	43	0	4176478208	54	4139
2026-01-28 11:34:52.81	334.27	8.45	-41.8	-42.7	20.9	0.00e+00	0	43	0	4198498304	54	4157
2026-01-28 11:34:56.85	334.25	8.12	-41.9	-42.8	20.8	0.00e+00	0	42	0	4221566976	54	4218
2026-01-28 11:35:00.88	334.23	7.80	-42.0	-42.9	20.6	0.00e+00	0	43	0	4244635648	54	4289
2026-01-28 11:35:04.92	334.21	7.48	-42.3	-43.3	20.3	0.00e+00	0	43	0	4266655744	55	4209
2026-01-28 11:35:08.94	334.19	7.17	-42.2	-43.1	20.4	0.00e+00	0	43	0	4289724416	55	4132
2026-01-28 11:35:12.98	334.18	6.86	-42.4	-43.4	20.1	0.00e+00	0	43	0	4312793088	55	4249
2026-01-28 11:35:17.02	334.16	6.55	-42.6	-43.6	19.8	0.00e+00	0	43	0	4334813184	55	4361
2026-01-28 11:35:21.05	334.15	6.25	-42.6	-43.7	19.8	0.00e+00	0	43	0	4357881856	56	4149
2026-01-28 11:35:25.09	334.14	5.95	-42.8	-43.8	19.6	0.00e+00	0	43	0	4379901952	56	4222
2026-01-28 11:35:29.13	334.12	5.65	-42.9	-43.9	19.5	0.00e+00	0	43	0	4402970624	56	4268
2026-01-28 11:35:33.16	334.11	5.36	-42.9	-43.9	19.3	0.00e+00	0	43	0	4426039296	56	4279
2026-01-28 11:35:37.20	334.10	5.07	-42.8	-43.9	19.1	0.00e+00	0	43	0	4448059392	57	4011
2026-01-28 11:35:41.23	334.09	4.78	-53.0	-64.9	3.8	8.47e-01	0	43	104	4457496576	76	15158
2026-01-28 11:35:45.26	334.08	4.50	-53.4	-65.3	3.8	8.45e-01	0	43	104	4457496576	77	15027
2026-01-28 11:35:49.29	334.07	4.22	-53.3	-65.2	3.8	8.46e-01	0	43	104	4457496576	77	14876
2026-01-28 11:35:53.33	334.06	3.94	-53.2	-65.1	3.8	8.46e-01	0	43	104	4457496576	77	14639
2026-01-28 11:35:57.36	334.05	3.67	-53.3	-65.2	3.8	8.46e-01	0	43	104	4457496576	77	14852
2026-01-28 11:36:01.39	334.04	3.40	-53.2	-65.1	3.8	8.45e-01	0	43	104	4457496576	77	14605
2026-01-28 11:36:05.42	334.03	3.13	-53.1	-65.0	3.8	8.46e-01	0	43	104	4457496576	77	14526
2026-01-28 11:36:09.45	334.02	2.86	-53.1	-65.0	3.8	8.46e-01	0	43	104	4457496576	77	14465
2026-01-28 11:36:13.49	334.01	2.60	-53.1	-65.0	3.8	8.45e-01	0	43	104	4457496576	77	14473
2026-01-28 11:36:17.53	334.01	2.34	-53.1	-65.0	3.8	8.46e-01	0	43	104	4457496576	77	14444
2026-01-28 11:36:21.55	334.00	2.08	-53.1	-65.0	3.8	8.46e-01	0	43	104	4457496576	77	14457

#Closed at: 2026-01-28 11:36:25
#Recorded file [4457 MB]: D:/lorett/data/31041_260128_142158.dat