passes_logs/2026/01/28/R3.2S_Murmansk/R3.2S_Murmansk__20260128_013825_NOAA_21_JPSS-2_rec.log

#Pass ID: 20260128_013825_NOAA 21 (JPSS-2)
#Satellite: NOAA 21 (JPSS-2)
#Configuration: NOAA-21
#almurnet v.1.7.20251203
#Start time: 2026-01-28 01:38:25

#Version: 2.2.20231116
#Station: R3.2S_Murmansk
#Location: 33.079688 lon 68.888172 lat
#TLE: 1 54234U 22150A   26027.27712747  .00000181  00000+0  10656-3 0  9992
#TLE: 2 54234  98.7510 328.0291 0000845 205.5277 154.5858 14.19540098166550

#Time	Az	El	Level	Level2	SNR	BER	BlckErr	Temp	State	Recorded	gain1	gain2
2026-01-28 01:38:25.87	28.73	2.04	-53.8	-66.5	3.8	1.49e+00	0	41	0	0	78	16189
2026-01-28 01:38:29.89	28.65	2.30	-52.2	-64.9	3.8	1.49e+00	0	41	104	0	76	15161
2026-01-28 01:38:33.93	28.56	2.56	-51.8	-64.4	3.8	1.49e+00	0	41	104	0	75	15104
2026-01-28 01:38:37.96	28.48	2.82	-51.8	-64.4	3.8	1.49e+00	0	41	104	0	75	15203
2026-01-28 01:38:41.99	28.39	3.08	-51.8	-64.5	3.8	1.49e+00	0	42	104	0	75	15382
2026-01-28 01:38:46.03	28.30	3.34	-51.6	-62.7	3.8	1.49e+00	0	42	104	0	75	12453
2026-01-28 01:38:50.05	28.21	3.61	-51.2	-59.2	4.9	7.71e-01	0	42	0	0	74	8762
2026-01-28 01:38:54.09	28.11	3.88	-51.0	-58.2	5.5	5.11e-01	0	42	0	12582912	74	7813
2026-01-28 01:38:58.11	28.02	4.15	-50.9	-57.4	6.0	3.19e-01	0	42	0	25165824	73	7624
2026-01-28 01:39:02.14	27.92	4.43	-50.4	-55.9	7.3	1.22e-01	0	42	0	37748736	72	6732
2026-01-28 01:39:06.17	27.82	4.71	-50.7	-56.8	6.5	2.09e-01	0	42	0	51380224	72	7519
2026-01-28 01:39:10.21	27.72	4.99	-51.3	-59.9	4.6	1.32e+00	2	42	104	61865984	73	10085
2026-01-28 01:39:14.23	27.62	5.27	-51.6	-63.7	3.8	1.49e+00	0	42	104	68157440	74	14795
2026-01-28 01:39:18.26	27.51	5.56	-45.5	-46.9	16.8	0.00e+00	0	42	0	71303168	62	4263
2026-01-28 01:39:22.29	27.40	5.85	-44.8	-46.1	17.7	0.00e+00	0	42	0	84934656	61	4102
2026-01-28 01:39:26.32	27.29	6.14	-44.8	-46.1	17.7	0.00e+00	0	42	0	96468992	61	4116
2026-01-28 01:39:30.35	27.18	6.44	-44.3	-45.5	18.3	0.00e+00	0	42	0	109051904	60	4081
2026-01-28 01:39:34.38	27.06	6.74	-44.4	-45.6	18.1	0.00e+00	0	42	0	122683392	60	4145
2026-01-28 01:39:38.41	26.94	7.04	-44.4	-45.6	18.3	0.00e+00	0	42	0	135266304	60	4112
2026-01-28 01:39:42.44	26.82	7.35	-44.2	-45.4	18.5	0.00e+00	0	42	0	146800640	60	4013
2026-01-28 01:39:46.48	26.69	7.66	-44.3	-45.5	18.8	0.00e+00	0	42	0	160432128	59	4297
2026-01-28 01:39:50.51	26.56	7.97	-44.3	-45.4	18.8	0.00e+00	0	42	0	173015040	59	4289
2026-01-28 01:39:54.55	26.43	8.29	-44.0	-45.1	19.2	0.00e+00	0	42	0	184549376	59	4113
2026-01-28 01:39:58.58	26.30	8.61	-44.0	-45.0	19.3	0.00e+00	0	42	0	198180864	59	4096
2026-01-28 01:40:02.62	26.16	8.93	-43.8	-44.9	19.4	0.00e+00	0	42	0	210763776	59	4023
2026-01-28 01:40:06.65	26.02	9.26	-43.8	-44.8	19.5	0.00e+00	0	43	0	223346688	59	3999
2026-01-28 01:40:10.68	25.87	9.60	-43.7	-44.7	19.7	0.00e+00	0	43	0	235929600	59	3944
2026-01-28 01:40:14.71	25.72	9.93	-43.5	-44.6	19.8	0.00e+00	0	43	0	248512512	59	3876
2026-01-28 01:40:18.74	25.57	10.28	-43.8	-44.9	19.5	0.00e+00	0	42	0	261095424	59	4016
2026-01-28 01:40:22.76	25.41	10.62	-43.5	-44.5	19.9	0.00e+00	0	43	0	273678336	58	4079
2026-01-28 01:40:26.80	25.25	10.97	-43.7	-44.7	19.7	0.00e+00	0	43	0	286261248	58	4185
2026-01-28 01:40:30.83	25.08	11.33	-43.7	-44.7	19.8	0.00e+00	0	43	0	298844160	58	4175
2026-01-28 01:40:34.87	24.91	11.69	-43.3	-44.3	20.1	0.00e+00	0	43	0	311427072	58	3986
2026-01-28 01:40:38.90	24.74	12.06	-43.2	-44.2	20.2	0.00e+00	0	43	0	324009984	58	3926
2026-01-28 01:40:42.93	24.56	12.43	-43.0	-44.0	20.4	0.00e+00	0	43	0	336592896	57	4073
2026-01-28 01:40:46.97	24.37	12.81	-43.0	-44.0	20.5	0.00e+00	0	43	0	349175808	57	4063
2026-01-28 01:40:51.00	24.18	13.19	-42.9	-43.9	20.6	0.00e+00	0	43	0	361758720	57	4012
2026-01-28 01:40:55.03	23.99	13.58	-43.0	-43.9	20.6	0.00e+00	0	43	0	374341632	57	4035
2026-01-28 01:40:59.06	23.79	13.97	-43.0	-43.9	20.6	0.00e+00	0	43	0	386924544	57	4049
2026-01-28 01:41:03.10	23.58	14.38	-42.8	-43.8	20.7	0.00e+00	0	43	0	399507456	57	3966
2026-01-28 01:41:07.13	23.37	14.78	-43.0	-43.9	20.7	0.00e+00	0	43	0	412090368	57	4026
2026-01-28 01:41:11.16	23.15	15.20	-42.9	-43.8	20.8	0.00e+00	0	43	0	424673280	57	3990
2026-01-28 01:41:15.19	22.92	15.61	-43.1	-44.0	20.6	0.00e+00	0	43	0	437256192	57	4083
2026-01-28 01:41:19.23	22.69	16.04	-43.2	-44.1	20.5	0.00e+00	0	43	0	449839104	57	4125
2026-01-28 01:41:23.26	22.45	16.48	-43.1	-44.1	20.6	0.00e+00	0	43	0	462422016	57	4110
2026-01-28 01:41:27.29	22.20	16.92	-43.1	-44.0	20.7	0.00e+00	0	43	0	475004928	57	4090
2026-01-28 01:41:31.33	21.94	17.37	-43.2	-44.2	20.5	0.00e+00	0	43	0	487587840	57	4155
2026-01-28 01:41:35.36	21.68	17.82	-43.1	-44.1	20.6	0.00e+00	0	43	0	500170752	57	4105
2026-01-28 01:41:39.39	21.40	18.29	-43.4	-44.4	20.3	0.00e+00	0	43	0	512753664	57	4269
2026-01-28 01:41:43.43	21.12	18.76	-43.3	-44.3	20.4	0.00e+00	0	43	0	525336576	57	4201
2026-01-28 01:41:47.46	20.83	19.24	-43.5	-44.5	20.3	0.00e+00	0	43	0	537919488	57	4308
2026-01-28 01:41:51.50	20.53	19.73	-43.2	-44.2	20.6	0.00e+00	0	43	0	550502400	57	4151
2026-01-28 01:41:55.53	20.22	20.23	-43.2	-44.1	20.6	0.00e+00	0	43	0	563085312	57	4139
2026-01-28 01:41:59.57	19.89	20.74	-42.6	-43.5	21.1	0.00e+00	0	43	0	575668224	57	3848
2026-01-28 01:42:03.60	19.56	21.25	-42.5	-43.4	21.3	0.00e+00	0	43	0	588251136	57	3790
2026-01-28 01:42:07.63	19.21	21.78	-42.1	-43.0	21.7	0.00e+00	0	43	0	600834048	56	3829
2026-01-28 01:42:11.67	18.85	22.32	-41.9	-42.7	21.8	0.00e+00	0	43	0	613416960	55	3946
2026-01-28 01:42:15.70	18.48	22.86	-41.6	-42.4	22.1	0.00e+00	0	43	0	625999872	55	3789
2026-01-28 01:42:19.74	18.10	23.42	-41.6	-42.4	22.1	0.00e+00	0	43	0	638582784	55	3797
2026-01-28 01:42:23.77	17.70	23.99	-41.6	-42.5	22.0	0.00e+00	0	43	0	651165696	55	3831
2026-01-28 01:42:27.80	17.28	24.57	-41.8	-42.6	21.9	0.00e+00	0	43	0	663748608	55	3910
2026-01-28 01:42:31.84	16.85	25.16	-42.0	-42.9	21.8	0.00e+00	0	43	0	676331520	55	4015
2026-01-28 01:42:35.86	16.40	25.76	-42.1	-42.9	21.8	0.00e+00	0	43	0	688914432	55	4045
2026-01-28 01:42:39.89	15.93	26.37	-42.1	-42.9	21.7	0.00e+00	0	43	0	701497344	55	4028
2026-01-28 01:42:43.93	15.45	27.00	-42.5	-43.3	21.3	0.00e+00	0	43	0	714080256	55	4231
2026-01-28 01:42:47.96	14.94	27.64	-42.9	-43.8	21.0	0.00e+00	0	43	0	726663168	56	4226
2026-01-28 01:42:51.99	14.41	28.29	-42.9	-43.8	21.1	0.00e+00	0	43	0	739246080	56	4213
2026-01-28 01:42:56.02	13.86	28.95	-43.0	-43.9	21.0	0.00e+00	0	43	0	751828992	56	4261
2026-01-28 01:43:00.06	13.28	29.62	-43.2	-44.1	20.9	0.00e+00	0	43	0	764411904	57	4119
2026-01-28 01:43:04.10	12.68	30.31	-43.2	-44.1	20.8	0.00e+00	0	43	0	778043392	57	4131
2026-01-28 01:43:08.13	12.06	31.02	-42.7	-43.6	21.4	0.00e+00	0	43	0	789577728	57	3881
2026-01-28 01:43:12.17	11.40	31.73	-42.7	-43.5	21.3	0.00e+00	0	43	0	802160640	57	3864
2026-01-28 01:43:16.20	10.71	32.46	-43.0	-44.0	21.0	0.00e+00	0	43	0	815792128	57	4057
2026-01-28 01:43:20.23	9.99	33.20	-43.0	-43.9	21.1	0.00e+00	0	43	0	828375040	57	4049
2026-01-28 01:43:24.25	9.24	33.95	-42.9	-43.8	21.3	0.00e+00	0	43	0	839909376	57	3970
2026-01-28 01:43:28.28	8.45	34.71	-43.2	-44.1	20.9	0.00e+00	0	43	0	853540864	57	4130
2026-01-28 01:43:32.32	7.62	35.49	-43.9	-44.8	20.2	0.00e+00	0	43	0	866123776	58	4237
2026-01-28 01:43:36.36	6.75	36.29	-43.9	-44.9	20.2	0.00e+00	0	43	0	878706688	58	4274
2026-01-28 01:43:40.39	5.84	37.09	-44.4	-45.4	19.6	0.00e+00	0	43	0	891289600	59	4276
2026-01-28 01:43:44.41	4.88	37.90	-44.5	-45.6	19.6	0.00e+00	0	43	0	903872512	59	4367
2026-01-28 01:43:48.45	3.86	38.72	-44.5	-45.5	19.5	0.00e+00	0	43	0	916455424	60	4085
2026-01-28 01:43:52.47	2.80	39.55	-44.3	-45.3	19.8	0.00e+00	0	43	0	929038336	60	3975
2026-01-28 01:43:56.51	1.68	40.40	-44.5	-45.6	19.5	0.00e+00	0	43	0	941621248	60	4118
2026-01-28 01:44:00.55	0.49	41.24	-44.5	-45.6	19.6	0.00e+00	0	43	0	954204160	60	4105
2026-01-28 01:44:04.59	359.24	42.10	-45.0	-46.1	19.0	0.00e+00	0	43	0	966787072	60	4381
2026-01-28 01:44:08.63	357.92	42.96	-45.1	-46.2	19.0	0.00e+00	0	43	0	979369984	61	4182
2026-01-28 01:44:12.66	356.53	43.81	-44.8	-45.8	19.3	0.00e+00	0	43	0	991952896	61	3988
2026-01-28 01:44:16.69	355.06	44.67	-45.5	-46.7	18.4	0.00e+00	0	43	0	1004535808	61	4423
2026-01-28 01:44:20.73	353.51	45.52	-45.1	-46.2	18.9	0.00e+00	0	43	0	1017118720	61	4179
2026-01-28 01:44:24.76	351.87	46.37	-45.1	-46.2	19.0	0.00e+00	0	43	0	1029701632	61	4175
2026-01-28 01:44:28.79	350.15	47.20	-45.0	-46.2	19.1	0.00e+00	0	43	0	1042284544	61	4155
2026-01-28 01:44:32.81	348.33	48.02	-44.8	-45.9	19.3	0.00e+00	0	43	0	1054867456	61	4019
2026-01-28 01:44:36.85	346.41	48.83	-45.1	-46.2	19.0	0.00e+00	0	43	0	1067450368	61	4163
2026-01-28 01:44:40.88	344.39	49.61	-44.3	-45.2	20.0	0.00e+00	0	43	0	1080033280	60	3945
2026-01-28 01:44:44.92	342.26	50.37	-44.5	-45.6	19.7	0.00e+00	0	43	0	1092616192	60	4111
2026-01-28 01:44:48.95	340.02	51.09	-44.4	-45.4	20.1	0.00e+00	0	43	0	1105199104	59	4248
2026-01-28 01:44:52.98	337.68	51.77	-43.6	-44.5	21.0	0.00e+00	0	43	0	1117782016	59	3864
2026-01-28 01:44:57.01	335.23	52.41	-43.5	-44.4	21.0	0.00e+00	0	43	0	1130364928	58	4035
2026-01-28 01:45:01.04	332.68	53.00	-43.7	-44.6	21.0	0.00e+00	0	43	0	1142947840	58	4108
2026-01-28 01:45:05.07	330.02	53.54	-43.5	-44.4	21.0	0.00e+00	0	43	0	1155530752	58	4045
2026-01-28 01:45:09.11	327.26	54.02	-44.2	-45.2	20.3	0.00e+00	0	43	0	1168113664	59	4190
2026-01-28 01:45:13.14	324.43	54.43	-43.5	-44.4	21.1	0.00e+00	0	43	0	1180696576	59	3817
2026-01-28 01:45:17.17	321.51	54.77	-43.1	-44.0	21.5	0.00e+00	0	43	0	1193279488	58	3827
2026-01-28 01:45:21.21	318.53	55.04	-42.9	-43.8	21.7	0.00e+00	0	43	0	1205862400	57	3964
2026-01-28 01:45:25.24	315.50	55.23	-43.5	-44.4	21.1	0.00e+00	0	43	0	1218445312	57	4254
2026-01-28 01:45:29.27	312.44	55.34	-43.3	-44.2	21.3	0.00e+00	0	43	0	1231028224	57	4176
2026-01-28 01:45:33.31	309.36	55.37	-43.2	-44.1	21.3	0.00e+00	0	43	0	1243611136	57	4102
2026-01-28 01:45:37.35	306.28	55.32	-44.2	-45.1	20.5	0.00e+00	0	43	0	1256194048	59	4144
2026-01-28 01:45:41.38	303.22	55.19	-43.8	-44.7	20.7	0.00e+00	0	43	0	1268776960	59	3953
2026-01-28 01:45:45.42	300.20	54.97	-43.8	-44.8	20.5	0.00e+00	0	43	0	1281359872	59	3978
2026-01-28 01:45:49.44	297.24	54.68	-44.0	-45.0	20.5	0.00e+00	0	43	0	1293942784	58	4309
2026-01-28 01:45:53.48	294.34	54.32	-43.5	-44.4	21.1	0.00e+00	0	43	0	1306525696	58	4031
2026-01-28 01:45:57.52	291.52	53.89	-43.2	-44.1	21.4	0.00e+00	0	43	0	1319108608	58	3885
2026-01-28 01:46:01.55	288.79	53.39	-44.2	-44.7	20.9	0.00e+00	0	43	0	1331691520	58	4172
2026-01-28 01:46:05.59	286.15	52.84	-43.9	-44.8	20.8	0.00e+00	0	43	0	1344274432	59	3975
2026-01-28 01:46:09.61	283.63	52.23	-44.1	-45.0	20.5	0.00e+00	0	43	0	1356857344	58	4339
2026-01-28 01:46:13.64	281.21	51.58	-43.3	-44.1	21.1	0.00e+00	0	43	0	1369440256	58	3898
2026-01-28 01:46:17.67	278.90	50.88	-44.4	-45.4	19.8	0.00e+00	0	43	0	1382023168	60	4036
2026-01-28 01:46:21.70	276.69	50.15	-44.5	-45.5	20.1	0.00e+00	0	43	0	1394606080	59	4320
2026-01-28 01:46:25.74	274.58	49.38	-44.3	-45.3	19.9	0.00e+00	0	43	0	1407188992	60	3973
2026-01-28 01:46:29.77	272.59	48.59	-44.9	-46.0	19.2	0.00e+00	0	43	0	1419771904	60	4321
2026-01-28 01:46:33.80	270.69	47.78	-44.9	-45.9	19.0	0.00e+00	0	43	0	1433403392	61	4047
2026-01-28 01:46:37.83	268.90	46.95	-44.4	-45.4	19.7	0.00e+00	0	43	0	1444937728	60	4037
2026-01-28 01:46:41.87	267.19	46.11	-45.9	-47.1	17.4	0.00e+00	0	43	0	1457520640	63	4129
2026-01-28 01:46:45.90	265.58	45.26	-44.4	-45.4	19.9	0.00e+00	0	43	0	1471152128	59	4245
2026-01-28 01:46:49.93	264.05	44.40	-46.5	-47.9	17.4	0.00e+00	0	43	0	1482686464	64	4253
2026-01-28 01:46:53.97	262.60	43.54	-44.1	-45.0	20.0	0.00e+00	0	43	0	1496317952	60	3863
2026-01-28 01:46:58.01	261.23	42.68	-45.5	-46.7	18.6	0.00e+00	0	43	0	1508900864	61	4420
2026-01-28 01:47:02.04	259.93	41.82	-44.2	-45.2	19.7	0.00e+00	0	43	0	1521483776	60	3924
2026-01-28 01:47:06.07	258.70	40.97	-45.9	-47.1	18.1	0.00e+00	0	43	0	1533018112	62	4390
2026-01-28 01:47:10.11	257.53	40.12	-44.9	-46.0	19.2	0.00e+00	0	43	0	1546649600	61	4077
2026-01-28 01:47:14.15	256.42	39.28	-43.4	-44.2	20.9	0.00e+00	0	43	0	1559232512	58	3949
2026-01-28 01:47:18.18	255.36	38.45	-45.1	-46.2	19.0	0.00e+00	0	43	0	1571815424	60	4418
2026-01-28 01:47:22.21	254.37	37.63	-44.7	-45.8	19.2	0.00e+00	0	43	0	1584398336	61	3978
2026-01-28 01:47:26.25	253.41	36.81	-44.5	-45.6	19.4	0.00e+00	0	43	0	1596981248	60	4102
2026-01-28 01:47:30.29	252.51	36.01	-44.2	-45.2	19.8	0.00e+00	0	43	0	1609564160	60	3932
2026-01-28 01:47:34.32	251.65	35.22	-44.6	-45.7	19.1	0.00e+00	0	43	0	1622147072	60	4177
2026-01-28 01:47:38.35	250.83	34.44	-43.7	-44.7	20.4	0.00e+00	0	43	0	1634729984	59	3918
2026-01-28 01:47:42.39	250.05	33.68	-44.0	-45.0	20.3	0.00e+00	0	43	0	1647312896	59	4068
2026-01-28 01:47:46.43	249.30	32.92	-43.8	-44.8	20.4	0.00e+00	0	43	0	1659895808	59	3963
2026-01-28 01:47:50.47	248.59	32.18	-43.1	-44.0	21.0	0.00e+00	0	43	0	1672478720	58	3865
2026-01-28 01:47:54.50	247.91	31.46	-43.2	-44.1	21.0	0.00e+00	0	43	0	1685061632	58	3871
2026-01-28 01:47:58.53	247.26	30.75	-43.8	-44.8	20.4	0.00e+00	0	43	0	1697644544	58	4199
2026-01-28 01:48:02.57	246.64	30.04	-43.6	-44.6	20.5	0.00e+00	0	43	0	1710227456	58	4104
2026-01-28 01:48:06.61	246.04	29.36	-42.7	-43.5	21.4	0.00e+00	0	43	0	1722810368	57	3855
2026-01-28 01:48:10.64	245.47	28.68	-42.4	-43.3	21.6	0.00e+00	0	43	0	1735393280	56	3966
2026-01-28 01:48:14.68	244.93	28.02	-42.8	-43.7	21.2	0.00e+00	0	43	0	1747976192	56	4187
2026-01-28 01:48:18.71	244.40	27.37	-42.7	-43.5	21.4	0.00e+00	0	43	0	1760559104	56	4092
2026-01-28 01:48:22.74	243.90	26.74	-42.5	-43.3	21.5	0.00e+00	0	43	0	1773142016	56	3996
2026-01-28 01:48:26.78	243.42	26.11	-42.6	-43.4	21.4	0.00e+00	0	43	0	1785724928	56	4036
2026-01-28 01:48:30.81	242.96	25.50	-42.6	-43.5	21.4	0.00e+00	0	43	0	1798307840	56	4083
2026-01-28 01:48:34.84	242.51	24.90	-42.6	-43.5	21.4	0.00e+00	0	43	0	1810890752	56	4058
2026-01-28 01:48:38.88	242.08	24.31	-42.1	-42.9	21.9	0.00e+00	0	43	0	1823473664	56	3813
2026-01-28 01:48:42.91	241.67	23.74	-42.3	-43.1	21.7	0.00e+00	0	43	0	1836056576	56	3886
2026-01-28 01:48:46.94	241.27	23.17	-42.8	-43.7	21.2	0.00e+00	0	43	0	1848639488	56	4152
2026-01-28 01:48:50.97	240.89	22.62	-43.3	-44.3	20.6	0.00e+00	0	43	0	1861222400	57	4196
2026-01-28 01:48:55.00	240.52	22.07	-43.2	-44.2	20.5	0.00e+00	0	43	0	1873805312	57	4167
2026-01-28 01:48:59.03	240.16	21.54	-42.6	-43.5	21.1	0.00e+00	0	43	0	1886388224	57	3843
2026-01-28 01:49:03.06	239.82	21.01	-42.1	-42.9	21.6	0.00e+00	0	43	0	1898971136	56	3798
2026-01-28 01:49:07.10	239.49	20.50	-41.8	-42.6	21.9	0.00e+00	0	43	0	1911554048	55	3889
2026-01-28 01:49:11.13	239.16	19.99	-41.7	-42.6	21.9	0.00e+00	0	43	0	1924136960	55	3869
2026-01-28 01:49:15.17	238.85	19.49	-41.9	-42.7	21.8	0.00e+00	0	43	0	1937768448	55	3928
2026-01-28 01:49:19.21	238.55	19.00	-42.1	-42.9	21.5	0.00e+00	0	43	0	1949302784	55	4033
2026-01-28 01:49:23.24	238.26	18.52	-42.3	-43.2	21.3	0.00e+00	0	43	0	1961885696	55	4169
2026-01-28 01:49:27.28	237.98	18.05	-42.6	-43.5	21.1	0.00e+00	0	43	0	1975517184	55	4294
2026-01-28 01:49:31.32	237.71	17.59	-43.0	-44.0	20.8	0.00e+00	0	43	0	1987051520	56	4296
2026-01-28 01:49:35.35	237.45	17.13	-43.3	-44.3	20.4	0.00e+00	0	43	0	1999634432	57	4226
2026-01-28 01:49:39.39	237.19	16.69	-43.5	-44.6	20.2	0.00e+00	0	43	0	2013265920	57	4342
2026-01-28 01:49:43.42	236.94	16.25	-43.5	-44.5	20.1	0.00e+00	0	43	0	2025848832	57	4314
2026-01-28 01:49:47.45	236.70	15.81	-43.4	-44.3	20.2	0.00e+00	0	43	0	2037383168	57	4236
2026-01-28 01:49:51.49	236.47	15.39	-43.4	-44.4	20.2	0.00e+00	0	43	0	2051014656	57	4263
2026-01-28 01:49:55.52	236.24	14.97	-43.1	-44.1	20.5	0.00e+00	0	43	0	2063597568	57	4103
2026-01-28 01:49:59.56	236.02	14.56	-43.1	-44.0	20.5	0.00e+00	0	43	0	2076180480	57	4089
2026-01-28 01:50:03.59	235.81	14.15	-43.1	-44.1	20.5	0.00e+00	0	43	0	2088763392	57	4113
2026-01-28 01:50:07.62	235.60	13.75	-43.2	-44.2	20.4	0.00e+00	0	43	0	2101346304	57	4166
2026-01-28 01:50:11.66	235.40	13.36	-43.3	-44.3	20.2	0.00e+00	0	43	0	2113929216	57	4225
2026-01-28 01:50:15.70	235.20	12.97	-43.4	-44.4	20.2	0.00e+00	0	43	0	2126512128	57	4254
2026-01-28 01:50:19.73	235.01	12.59	-43.5	-44.5	20.1	0.00e+00	0	43	0	2139095040	57	4294
2026-01-28 01:50:23.76	234.83	12.21	-43.5	-44.5	20.0	0.00e+00	0	43	0	2151677952	57	4337
2026-01-28 01:50:27.79	234.65	11.84	-43.7	-44.7	19.9	0.00e+00	0	43	0	2164260864	58	4158
2026-01-28 01:50:31.82	234.47	11.47	-43.8	-44.8	19.8	0.00e+00	0	43	0	2176843776	58	4221
2026-01-28 01:50:35.85	234.30	11.11	-43.8	-44.9	19.7	0.00e+00	0	43	0	2189426688	58	4255
2026-01-28 01:50:39.88	234.14	10.76	-43.8	-44.9	19.7	0.00e+00	0	43	0	2202009600	58	4246
2026-01-28 01:50:43.91	233.97	10.41	-44.0	-45.1	19.5	0.00e+00	0	43	0	2214592512	58	4343
2026-01-28 01:50:47.94	233.81	10.06	-43.9	-45.0	19.5	0.00e+00	0	43	0	2227175424	58	4320
2026-01-28 01:50:51.97	233.66	9.72	-44.1	-45.2	19.3	0.00e+00	0	43	0	2239758336	58	4392
2026-01-28 01:50:56.00	233.51	9.38	-44.1	-45.2	19.3	0.00e+00	0	43	0	2252341248	58	4419
2026-01-28 01:51:00.03	233.36	9.05	-44.3	-45.5	19.0	0.00e+00	0	43	0	2264924160	59	4292
2026-01-28 01:51:04.06	233.22	8.72	-44.4	-45.6	18.9	0.00e+00	0	43	0	2277507072	59	4375
2026-01-28 01:51:08.10	233.08	8.40	-44.4	-45.5	18.9	0.00e+00	0	43	0	2290089984	59	4340
2026-01-28 01:51:12.13	232.94	8.08	-44.3	-45.5	18.6	0.00e+00	0	43	0	2302672896	60	4071
2026-01-28 01:51:16.16	232.81	7.76	-44.6	-45.8	18.3	0.00e+00	0	43	0	2315255808	60	4219
2026-01-28 01:51:20.19	232.68	7.45	-44.7	-46.0	18.1	0.00e+00	0	43	0	2327838720	60	4302
2026-01-28 01:51:24.22	232.55	7.14	-44.7	-46.0	18.0	0.00e+00	0	43	0	2340421632	60	4321
2026-01-28 01:51:28.26	232.43	6.83	-44.9	-46.3	17.7	0.00e+00	0	43	0	2353004544	60	4450
2026-01-28 01:51:32.29	232.31	6.53	-45.2	-46.5	17.4	0.00e+00	0	43	0	2365587456	60	4598
2026-01-28 01:51:36.32	232.19	6.23	-45.3	-46.7	17.3	0.00e+00	0	43	0	2378170368	61	4406
2026-01-28 01:51:40.35	232.07	5.93	-45.8	-47.3	16.7	0.00e+00	0	43	0	2390753280	62	4458
2026-01-28 01:51:44.39	231.96	5.64	-45.3	-46.7	17.2	0.00e+00	0	43	0	2403336192	62	4169
2026-01-28 01:51:48.41	231.85	5.35	-45.7	-47.2	16.7	0.00e+00	0	43	0	2415919104	62	4401
2026-01-28 01:51:52.45	231.74	5.07	-45.8	-47.4	16.4	0.00e+00	0	43	0	2428502016	62	4510
2026-01-28 01:51:56.47	231.64	4.78	-50.5	-63.2	3.8	1.49e+00	0	43	104	2432696320	73	14757
2026-01-28 01:52:00.50	231.53	4.50	-50.5	-63.1	3.8	1.49e+00	0	43	104	2432696320	72	15552
2026-01-28 01:52:04.53	231.43	4.22	-50.5	-63.2	3.8	1.49e+00	0	44	104	2432696320	72	15595
2026-01-28 01:52:08.56	231.33	3.95	-50.5	-63.2	3.8	1.49e+00	0	44	104	2432696320	72	15651
2026-01-28 01:52:12.59	231.23	3.68	-50.5	-63.2	3.8	1.49e+00	0	43	104	2432696320	72	15581
2026-01-28 01:52:16.62	231.14	3.41	-50.5	-63.2	3.8	1.49e+00	0	43	104	2432696320	72	15587
2026-01-28 01:52:20.65	231.05	3.14	-50.5	-63.2	3.8	1.49e+00	0	43	104	2432696320	72	15607
2026-01-28 01:52:24.68	230.95	2.88	-50.5	-63.1	3.8	1.49e+00	0	44	104	2432696320	72	15515
2026-01-28 01:52:28.71	230.86	2.61	-50.4	-63.1	3.8	1.49e+00	0	43	104	2432696320	72	15519
2026-01-28 01:52:32.75	230.78	2.35	-50.4	-63.1	3.8	1.49e+00	0	43	104	2432696320	72	15499
2026-01-28 01:52:36.78	230.69	2.10	-50.4	-63.1	3.8	1.49e+00	0	43	104	2432696320	72	15525

#Closed at: 2026-01-28 01:52:40
#Recorded file [2432 MB]: D:/lorett/data/31041_260128_043825.dat