passes_logs/2026/01/28/R3.2S_Murmansk/R3.2S_Murmansk__20260128_134700_AQUA_rec.log

#Pass ID: 20260128_134700_AQUA
#Satellite: AQUA
#Configuration: AQUA
#almurnet v.1.7.20251203
#Start time: 2026-01-28 13:47:02

#Version: 2.2.20231116
#Station: R3.2S_Murmansk
#Location: 33.079688 lon 68.888172 lat
#TLE: 1 27424U 02022A   26027.88561574  .00001798  00000+0  36942-3 0  9997
#TLE: 2 27424  98.4102 354.5311 0001840  63.5604 322.5877 14.61868111262779

#Time	Az	El	Level	Level2	SNR	BER	BlckErr	Temp	State	Recorded	gain1	gain2
2026-01-28 13:47:02.46	218.58	2.10	-55.4	-73.3	3.8	7.46e-01	0	40	0	0	82	28051
2026-01-28 13:47:05.48	218.85	2.27	-55.4	-73.2	3.8	7.49e-01	0	40	104	0	81	29506
2026-01-28 13:47:08.51	219.12	2.43	-55.6	-73.5	3.8	7.43e-01	0	40	104	0	81	30434
2026-01-28 13:47:11.53	219.39	2.60	-55.8	-73.6	3.8	7.47e-01	0	40	104	0	82	29258
2026-01-28 13:47:14.55	219.67	2.77	-55.7	-73.6	3.8	7.45e-01	0	41	104	0	82	29090
2026-01-28 13:47:17.58	219.95	2.94	-55.6	-73.4	3.8	7.46e-01	0	41	104	0	82	28665
2026-01-28 13:47:20.61	220.23	3.11	-55.5	-73.3	3.8	7.47e-01	0	41	104	0	82	28159
2026-01-28 13:47:23.64	220.52	3.28	-55.3	-73.1	3.8	7.45e-01	0	41	104	0	82	27455
2026-01-28 13:47:26.66	220.81	3.45	-55.0	-72.8	3.8	7.45e-01	0	41	104	0	82	26622
2026-01-28 13:47:29.69	221.11	3.62	-54.2	-71.9	3.8	7.48e-01	0	41	104	0	80	26800
2026-01-28 13:47:32.71	221.40	3.80	-54.0	-71.1	3.8	7.46e-01	0	41	104	0	79	25992
2026-01-28 13:47:35.73	221.70	3.97	-53.9	-71.2	3.8	7.44e-01	0	41	104	0	79	26217
2026-01-28 13:47:38.76	222.01	4.14	-53.9	-71.5	3.8	7.49e-01	0	41	104	0	79	27345
2026-01-28 13:47:41.79	222.32	4.32	-53.8	-66.9	4.6	7.18e-01	0	41	104	0	79	16057
2026-01-28 13:47:44.81	222.63	4.49	-53.1	-61.0	9.5	6.30e-01	0	41	0	4194304	78	8591
2026-01-28 13:47:47.84	222.95	4.67	-52.8	-59.7	10.8	6.16e-01	0	41	0	9961472	77	7865
2026-01-28 13:47:50.87	223.27	4.84	-51.4	-55.6	15.0	6.06e-01	0	42	0	15728640	74	5836
2026-01-28 13:47:53.89	223.59	5.02	-50.1	-53.1	17.6	6.07e-01	0	41	0	21495808	72	4907
2026-01-28 13:47:56.91	223.92	5.20	-51.9	-56.9	14.2	6.10e-01	0	42	0	26738688	74	6735
2026-01-28 13:47:59.93	224.25	5.37	-47.1	-48.8	22.1	6.06e-01	0	41	0	30932992	66	4205
2026-01-28 13:48:02.95	224.59	5.55	-46.9	-48.6	22.3	6.07e-01	0	42	0	36700160	65	4381
2026-01-28 13:48:05.97	224.93	5.73	-46.7	-48.4	22.4	6.07e-01	0	41	0	42467328	65	4261
2026-01-28 13:48:08.99	225.27	5.91	-46.8	-48.5	22.5	6.06e-01	0	41	0	48234496	65	4322
2026-01-28 13:48:12.01	225.62	6.09	-47.2	-49.0	22.0	6.07e-01	0	42	0	53477376	65	4575
2026-01-28 13:48:15.04	225.98	6.27	-47.2	-48.9	22.1	6.08e-01	0	41	0	59244544	65	4520
2026-01-28 13:48:18.07	226.34	6.45	-46.5	-48.1	22.9	6.04e-01	0	42	0	65011712	65	4118
2026-01-28 13:48:21.09	226.70	6.63	-46.6	-48.2	22.8	6.09e-01	0	41	0	70778880	64	4436
2026-01-28 13:48:24.11	227.07	6.82	-46.7	-48.3	22.8	6.06e-01	0	42	0	76546048	64	4463
2026-01-28 13:48:27.13	227.44	7.00	-46.5	-48.1	23.0	6.08e-01	0	42	0	81788928	64	4357
2026-01-28 13:48:30.16	227.82	7.18	-46.5	-48.1	23.0	6.07e-01	0	42	0	87556096	64	4357
2026-01-28 13:48:33.18	228.21	7.37	-46.5	-48.1	23.0	6.05e-01	0	42	0	93323264	64	4370
2026-01-28 13:48:36.21	228.60	7.55	-46.4	-48.0	23.2	6.07e-01	0	42	0	99090432	64	4294
2026-01-28 13:48:39.23	228.99	7.73	-46.5	-48.1	23.0	6.06e-01	0	42	0	104857600	64	4358
2026-01-28 13:48:42.25	229.39	7.92	-46.5	-48.0	23.1	6.07e-01	0	42	0	110100480	64	4333
2026-01-28 13:48:45.28	229.80	8.11	-46.4	-47.9	23.3	6.03e-01	0	42	0	115867648	64	4255
2026-01-28 13:48:48.30	230.20	8.29	-46.4	-47.9	23.3	6.06e-01	0	42	0	121634816	64	4260
2026-01-28 13:48:51.33	230.62	8.48	-46.2	-47.7	23.5	6.05e-01	0	42	0	127401984	64	4146
2026-01-28 13:48:54.35	231.04	8.66	-46.1	-47.5	23.7	6.06e-01	0	42	0	133169152	63	4331
2026-01-28 13:48:57.38	231.47	8.85	-46.2	-47.6	23.7	6.04e-01	0	42	0	138936320	63	4380
2026-01-28 13:49:00.40	231.90	9.04	-46.1	-47.5	23.8	6.04e-01	0	42	0	144179200	63	4338
2026-01-28 13:49:03.42	232.34	9.22	-46.1	-47.5	23.8	6.06e-01	0	42	0	149946368	63	4331
2026-01-28 13:49:06.44	232.78	9.41	-45.9	-47.4	24.0	6.06e-01	0	42	0	155713536	63	4251
2026-01-28 13:49:09.47	233.23	9.60	-45.8	-47.2	24.1	6.07e-01	0	42	0	161480704	63	4189
2026-01-28 13:49:12.49	233.69	9.79	-45.8	-47.1	24.1	6.04e-01	0	42	0	167247872	63	4142
2026-01-28 13:49:15.53	234.16	9.97	-45.7	-47.1	24.3	6.07e-01	0	42	0	172490752	63	4108
2026-01-28 13:49:18.54	234.62	10.16	-45.7	-47.1	24.2	6.08e-01	0	42	0	178257920	63	4129
2026-01-28 13:49:21.57	235.10	10.35	-45.6	-47.0	24.3	6.07e-01	0	42	0	184025088	63	4053
2026-01-28 13:49:24.59	235.58	10.54	-45.7	-47.1	24.3	6.06e-01	0	42	0	189792256	63	4110
2026-01-28 13:49:27.62	236.07	10.72	-45.5	-46.9	24.5	6.06e-01	0	42	0	195559424	63	4010
2026-01-28 13:49:30.64	236.56	10.91	-45.5	-46.9	24.4	6.05e-01	0	42	0	200802304	62	4255
2026-01-28 13:49:33.66	237.06	11.10	-45.5	-46.8	24.5	6.05e-01	0	42	0	206569472	62	4218
2026-01-28 13:49:36.68	237.57	11.28	-45.5	-46.8	24.5	6.05e-01	0	42	0	212336640	62	4241
2026-01-28 13:49:39.70	238.08	11.47	-45.4	-46.7	24.6	6.05e-01	0	42	0	218103808	62	4179
2026-01-28 13:49:42.73	238.61	11.66	-45.4	-46.7	24.6	6.07e-01	0	42	0	223870976	62	4181
2026-01-28 13:49:45.75	239.13	11.84	-45.4	-46.7	24.7	6.05e-01	0	42	0	229113856	62	4169
2026-01-28 13:49:48.77	239.67	12.03	-45.1	-46.4	25.0	6.06e-01	0	42	0	234881024	62	4023
2026-01-28 13:49:51.79	240.21	12.21	-45.3	-46.6	24.7	6.05e-01	0	42	0	240648192	62	4133
2026-01-28 13:49:54.82	240.76	12.39	-45.2	-46.5	24.8	6.05e-01	0	42	0	246415360	62	4066
2026-01-28 13:49:57.84	241.32	12.58	-45.3	-46.6	24.8	6.06e-01	0	42	0	252182528	62	4106
2026-01-28 13:50:00.87	241.88	12.76	-45.1	-46.3	25.0	6.05e-01	0	42	0	257949696	62	3995
2026-01-28 13:50:03.89	242.45	12.94	-45.4	-56.2	3.8	7.45e-01	0	42	104	259522560	62	12513
2026-01-28 13:50:06.91	243.03	13.12	-53.3	-68.1	3.8	7.47e-01	0	42	104	259522560	77	20655
2026-01-28 13:50:09.94	243.62	13.30	-45.9	-56.8	3.8	7.46e-01	0	42	104	259522560	63	12647
2026-01-28 13:50:12.97	244.21	13.48	-45.4	-56.1	3.9	7.40e-01	0	42	104	259522560	62	12331
2026-01-28 13:50:15.99	244.81	13.65	-53.4	-68.1	3.9	7.41e-01	0	42	104	259522560	77	20630
2026-01-28 13:50:19.02	245.42	13.83	-46.4	-57.1	4.3	7.27e-01	0	42	104	259522560	64	12368
2026-01-28 13:50:22.04	246.04	14.00	-47.2	-58.3	3.8	7.45e-01	0	42	104	259522560	66	12661
2026-01-28 13:50:25.07	246.66	14.18	-46.4	-57.4	3.8	7.43e-01	0	42	104	259522560	63	13421
2026-01-28 13:50:28.09	247.29	14.35	-45.4	-56.2	3.8	7.44e-01	0	42	104	259522560	62	12410
2026-01-28 13:50:31.12	247.93	14.51	-51.9	-65.0	3.8	7.43e-01	0	42	104	259522560	75	16272
2026-01-28 13:50:34.14	248.58	14.68	-46.3	-57.2	3.8	7.45e-01	0	42	104	259522560	64	12405
2026-01-28 13:50:37.16	249.23	14.85	-45.8	-56.6	3.8	7.45e-01	0	42	104	259522560	63	12288
2026-01-28 13:50:40.19	249.89	15.01	-51.0	-63.4	3.9	7.45e-01	0	42	104	259522560	74	14210
2026-01-28 13:50:43.22	250.56	15.17	-45.5	-56.3	3.8	7.43e-01	0	42	104	259522560	62	12650
2026-01-28 13:50:46.24	251.23	15.33	-47.2	-58.3	3.9	7.43e-01	0	42	104	259522560	66	12628
2026-01-28 13:50:49.26	251.92	15.48	-47.2	-58.2	3.8	7.45e-01	0	42	104	259522560	65	13137
2026-01-28 13:50:52.29	252.61	15.64	-46.0	-56.9	3.8	7.49e-01	0	42	104	259522560	63	12679
2026-01-28 13:50:55.31	253.31	15.79	-52.0	-65.2	3.8	7.46e-01	0	42	104	259522560	76	15634
2026-01-28 13:50:58.34	254.01	15.93	-45.4	-56.3	3.8	7.42e-01	0	42	104	259522560	62	12565
2026-01-28 13:51:01.36	254.72	16.08	-45.2	-56.0	3.8	7.41e-01	0	42	104	259522560	62	12206
2026-01-28 13:51:04.38	255.44	16.22	-49.2	-60.7	3.9	7.42e-01	0	42	104	259522560	70	13223
2026-01-28 13:51:07.41	256.17	16.36	-45.9	-56.8	3.8	7.43e-01	0	42	104	259522560	63	12626
2026-01-28 13:51:10.43	256.90	16.49	-46.4	-57.3	3.8	7.45e-01	0	42	104	259522560	64	12559
2026-01-28 13:51:13.46	257.64	16.62	-45.4	-56.1	3.8	7.43e-01	0	42	104	259522560	62	12369
2026-01-28 13:51:16.48	258.39	16.75	-45.2	-56.0	3.8	7.47e-01	0	42	104	259522560	62	12190
2026-01-28 13:51:19.51	259.14	16.87	-51.4	-64.0	3.8	7.49e-01	0	42	104	259522560	74	15251
2026-01-28 13:51:22.53	259.90	16.99	-45.4	-56.1	3.8	7.46e-01	0	42	104	259522560	62	12313
2026-01-28 13:51:25.55	260.66	17.11	-47.5	-58.6	3.8	7.45e-01	0	42	104	259522560	65	13743
2026-01-28 13:51:28.58	261.43	17.22	-45.6	-56.5	3.8	7.48e-01	0	42	104	259522560	63	12181
2026-01-28 13:51:31.60	262.21	17.33	-45.3	-56.1	3.8	7.45e-01	0	42	104	259522560	62	12295
2026-01-28 13:51:34.62	262.99	17.43	-50.2	-62.0	3.8	7.46e-01	0	42	104	259522560	70	15279
2026-01-28 13:51:37.65	263.78	17.53	-45.9	-56.7	3.9	7.42e-01	0	42	104	259522560	63	12452
2026-01-28 13:51:40.67	264.57	17.62	-46.0	-56.9	3.8	7.45e-01	0	42	104	259522560	62	13510
2026-01-28 13:51:43.69	265.37	17.71	-52.9	-66.7	3.8	7.41e-01	0	42	104	259522560	76	18528
2026-01-28 13:51:46.71	266.17	17.80	-45.4	-56.3	3.8	7.42e-01	0	42	104	259522560	62	12569
2026-01-28 13:51:49.73	266.98	17.88	-46.3	-57.2	3.8	7.48e-01	0	42	104	259522560	63	13199
2026-01-28 13:51:52.75	267.79	17.95	-45.6	-56.5	3.8	7.44e-01	0	42	104	259522560	63	12116
2026-01-28 13:51:55.78	268.60	18.02	-45.6	-56.4	3.8	7.42e-01	0	42	104	259522560	63	12038
2026-01-28 13:51:58.80	269.42	18.09	-52.1	-65.1	3.8	7.46e-01	0	42	104	259522560	74	17465
2026-01-28 13:52:01.83	270.25	18.14	-45.3	-56.1	3.8	7.44e-01	0	42	104	259522560	62	12317
2026-01-28 13:52:04.84	271.07	18.20	-45.2	-56.1	3.8	7.44e-01	0	42	104	259522560	62	12244
2026-01-28 13:52:07.86	271.89	18.25	-52.2	-65.4	3.8	7.46e-01	0	42	104	259522560	75	17027
2026-01-28 13:52:10.88	272.72	18.29	-45.5	-56.3	3.8	7.45e-01	0	42	104	259522560	63	11884
2026-01-28 13:52:13.91	273.56	18.33	-47.8	-58.9	3.8	7.43e-01	0	42	104	259522560	66	13473
2026-01-28 13:52:16.93	274.39	18.36	-45.5	-56.3	3.8	7.46e-01	0	42	104	259522560	62	12547
2026-01-28 13:52:19.95	275.23	18.38	-45.3	-56.1	3.8	7.42e-01	0	42	104	259522560	62	12247
2026-01-28 13:52:22.98	276.07	18.40	-54.3	-70.3	3.8	7.47e-01	0	43	104	259522560	79	23834
2026-01-28 13:52:26.00	276.90	18.42	-45.6	-56.3	3.8	7.43e-01	0	42	104	259522560	63	11947
2026-01-28 13:52:29.03	277.74	18.43	-46.3	-57.3	3.8	7.43e-01	0	42	104	259522560	63	13370
2026-01-28 13:52:32.05	278.58	18.43	-53.8	-68.5	3.8	7.45e-01	0	43	104	259522560	78	20474
2026-01-28 13:52:35.06	279.42	18.43	-45.5	-56.4	3.8	7.44e-01	0	43	104	259522560	62	12666
2026-01-28 13:52:38.09	280.26	18.42	-47.3	-58.4	3.8	7.48e-01	0	42	104	259522560	65	13522
2026-01-28 13:52:41.11	281.10	18.40	-46.0	-56.9	3.9	7.46e-01	0	42	104	259522560	63	12757
2026-01-28 13:52:44.13	281.93	18.38	-45.3	-56.1	3.8	7.46e-01	0	42	104	259522560	62	12302
2026-01-28 13:52:47.15	282.77	18.36	-52.5	-65.6	3.8	7.42e-01	0	42	104	259522560	75	17467
2026-01-28 13:52:50.18	283.60	18.33	-45.7	-56.5	3.8	7.40e-01	0	42	104	259522560	63	12104
2026-01-28 13:52:53.20	284.43	18.29	-46.2	-57.2	3.9	7.43e-01	0	42	104	259522560	64	12396
2026-01-28 13:52:56.23	285.26	18.25	-52.2	-65.1	3.8	7.45e-01	0	43	104	259522560	76	15437
2026-01-28 13:52:59.25	286.09	18.20	-45.3	-56.1	3.8	7.46e-01	0	42	104	259522560	62	12294
2026-01-28 13:53:02.28	286.92	18.15	-45.7	-56.5	3.8	7.42e-01	0	42	104	259522560	63	12137
2026-01-28 13:53:05.30	287.74	18.09	-46.6	-57.4	3.8	7.43e-01	0	42	104	259522560	64	12806
2026-01-28 13:53:08.33	288.56	18.02	-45.6	-56.5	3.8	7.48e-01	0	42	104	259522560	63	12145
2026-01-28 13:53:11.36	289.37	17.96	-53.8	-68.2	3.8	7.48e-01	0	42	104	259522560	78	19656
2026-01-28 13:53:14.38	290.18	17.88	-45.6	-56.4	3.9	7.46e-01	0	43	104	259522560	63	11965
2026-01-28 13:53:17.41	290.99	17.80	-45.5	-56.4	3.8	7.46e-01	0	42	104	259522560	63	12072
2026-01-28 13:53:20.43	291.79	17.72	-46.0	-56.7	3.9	7.43e-01	0	42	104	259522560	64	11802
2026-01-28 13:53:23.46	292.59	17.63	-45.2	-56.0	3.8	7.43e-01	0	42	104	259522560	62	12198
2026-01-28 13:53:26.49	293.38	17.54	-49.1	-60.4	3.8	7.44e-01	0	42	104	259522560	68	14265
2026-01-28 13:53:29.52	294.17	17.44	-46.5	-57.4	3.9	7.42e-01	0	42	104	259522560	65	12093
2026-01-28 13:53:32.54	294.94	17.34	-46.4	-57.3	3.8	7.44e-01	0	42	104	259522560	63	13404
2026-01-28 13:53:35.57	295.72	17.23	-49.3	-60.7	3.9	7.43e-01	0	42	104	259522560	70	13110
2026-01-28 13:53:38.60	296.49	17.12	-45.4	-56.2	3.8	7.42e-01	0	43	104	259522560	62	12497
2026-01-28 13:53:41.63	297.26	17.00	-45.6	-56.4	3.8	7.46e-01	0	42	104	259522560	63	11986
2026-01-28 13:53:44.66	298.01	16.88	-46.0	-56.7	3.8	7.45e-01	0	42	104	259522560	63	12438
2026-01-28 13:53:47.68	298.76	16.76	-45.5	-56.3	3.8	7.45e-01	0	42	104	259522560	63	11887
2026-01-28 13:53:50.70	299.51	16.63	-54.0	-69.0	3.8	7.46e-01	0	42	104	259522560	78	21563
2026-01-28 13:53:53.73	300.25	16.50	-45.9	-56.8	3.8	7.42e-01	0	43	104	259522560	63	12590
2026-01-28 13:53:56.75	300.98	16.37	-47.3	-58.7	3.8	7.43e-01	0	42	104	259522560	65	13938
2026-01-28 13:53:59.78	301.70	16.23	-48.1	-59.3	3.8	7.47e-01	0	42	104	259522560	68	12521
2026-01-28 13:54:02.81	302.42	16.09	-45.6	-56.4	3.8	7.44e-01	0	42	104	259522560	63	12064
2026-01-28 13:54:05.83	303.13	15.95	-45.6	-56.4	3.8	7.44e-01	0	42	104	259522560	62	12785
2026-01-28 13:54:08.86	303.83	15.80	-47.9	-59.2	3.8	7.43e-01	0	42	104	259522560	66	13975
2026-01-28 13:54:11.88	304.53	15.65	-45.1	-55.7	3.8	7.44e-01	0	43	104	259522560	62	11813
2026-01-28 13:54:14.91	305.22	15.50	-54.6	-71.9	3.7	7.47e-01	0	43	104	259522560	79	28391
2026-01-28 13:54:17.94	305.90	15.34	-45.3	-56.1	3.8	7.43e-01	0	42	104	259522560	62	12333
2026-01-28 13:54:20.96	306.57	15.19	-48.7	-60.2	3.8	7.41e-01	0	42	104	259522560	68	13972
2026-01-28 13:54:23.99	307.24	15.03	-46.6	-57.4	3.8	7.45e-01	0	43	104	259522560	65	12064
2026-01-28 13:54:27.01	307.89	14.87	-45.1	-56.1	3.8	7.44e-01	0	43	104	259522560	62	12244
2026-01-28 13:54:30.03	308.54	14.70	-46.6	-57.5	3.8	7.44e-01	0	43	104	259522560	63	13586
2026-01-28 13:54:33.06	309.19	14.54	-49.9	-61.7	3.8	7.48e-01	0	43	104	259522560	70	14846
2026-01-28 13:54:36.08	309.82	14.37	-44.9	-55.6	3.8	7.43e-01	0	42	104	259522560	61	12356
2026-01-28 13:54:39.11	310.45	14.20	-50.7	-62.9	3.8	7.45e-01	0	42	104	259522560	72	15185
2026-01-28 13:54:42.13	311.07	14.03	-45.2	-56.1	3.8	7.44e-01	0	42	104	259522560	62	12276
2026-01-28 13:54:45.15	311.69	13.86	-44.8	-55.6	3.8	7.42e-01	0	42	104	259522560	61	12337
2026-01-28 13:54:48.18	312.29	13.68	-45.4	-56.1	3.9	7.44e-01	0	43	104	259522560	62	12317
2026-01-28 13:54:51.21	312.89	13.51	-45.1	-55.9	3.8	7.43e-01	0	43	104	259522560	62	12070
2026-01-28 13:54:54.23	313.48	13.33	-45.9	-56.8	3.9	7.44e-01	0	42	104	259522560	63	12613
2026-01-28 13:54:57.26	314.07	13.15	-49.6	-61.3	3.8	7.42e-01	0	42	104	259522560	71	13389
2026-01-28 13:55:00.29	314.65	12.97	-45.1	-55.9	3.8	7.47e-01	0	42	104	259522560	61	12670
2026-01-28 13:55:03.31	315.22	12.80	-52.6	-66.4	4.0	7.40e-01	0	42	104	259522560	77	16967
2026-01-28 13:55:06.33	315.78	12.61	-45.1	-55.8	3.8	7.43e-01	0	42	104	259522560	62	11937
2026-01-28 13:55:09.36	316.33	12.43	-47.7	-59.0	3.8	7.41e-01	0	42	104	259522560	67	12893
2026-01-28 13:55:12.38	316.88	12.25	-48.0	-59.3	3.9	7.43e-01	0	42	104	259522560	68	12606
2026-01-28 13:55:15.41	317.42	12.07	-45.6	-56.5	3.8	7.43e-01	0	42	104	259522560	63	12102
2026-01-28 13:55:18.43	317.95	11.88	-46.1	-57.0	3.8	7.43e-01	0	42	104	259522560	63	12871
2026-01-28 13:55:21.45	318.48	11.70	-47.6	-58.8	3.9	7.45e-01	0	43	104	259522560	67	12645
2026-01-28 13:55:24.47	319.00	11.52	-46.2	-57.2	3.8	7.46e-01	0	42	104	259522560	62	13887
2026-01-28 13:55:27.50	319.51	11.33	-48.1	-59.5	3.9	7.42e-01	0	42	104	259522560	68	12858
2026-01-28 13:55:30.52	320.02	11.15	-45.3	-56.2	3.9	7.45e-01	0	42	104	259522560	62	12426
2026-01-28 13:55:33.55	320.52	10.96	-45.5	-56.4	3.8	7.46e-01	0	42	104	259522560	63	11976
2026-01-28 13:55:36.57	321.01	10.77	-47.6	-58.7	3.8	7.42e-01	0	43	104	259522560	65	14018
2026-01-28 13:55:39.59	321.50	10.59	-45.2	-56.1	3.8	7.43e-01	0	42	104	259522560	62	12300
2026-01-28 13:55:42.62	321.98	10.40	-50.8	-63.0	3.8	7.48e-01	0	43	104	259522560	71	16255
2026-01-28 13:55:45.64	322.45	10.22	-46.0	-56.8	3.8	7.45e-01	0	42	104	259522560	63	12614
2026-01-28 13:55:48.67	322.92	10.03	-48.6	-60.1	3.8	7.43e-01	0	43	104	259522560	67	14583
2026-01-28 13:55:51.69	323.38	9.84	-53.6	-69.3	3.8	7.48e-01	0	42	104	259522560	77	23758
2026-01-28 13:55:54.72	323.84	9.66	-45.4	-56.2	3.8	7.45e-01	0	43	104	259522560	62	12500
2026-01-28 13:55:57.75	324.29	9.47	-46.5	-57.6	3.8	7.42e-01	0	43	104	259522560	63	13749
2026-01-28 13:56:00.76	324.73	9.29	-49.2	-60.9	3.8	7.49e-01	0	43	104	259522560	68	15170
2026-01-28 13:56:03.79	325.17	9.10	-45.6	-56.6	3.8	7.45e-01	0	42	104	259522560	63	12259
2026-01-28 13:56:06.81	325.60	8.92	-53.7	-70.0	3.8	7.47e-01	0	43	104	259522560	77	25728
2026-01-28 13:56:09.84	326.03	8.73	-45.7	-56.6	3.9	7.45e-01	0	43	104	259522560	63	12282
2026-01-28 13:56:12.86	326.44	8.55	-47.9	-59.2	3.8	7.44e-01	0	42	104	259522560	66	13907
2026-01-28 13:56:15.89	326.86	8.36	-46.3	-57.3	3.8	7.45e-01	0	43	104	259522560	64	12639
2026-01-28 13:56:18.91	327.27	8.18	-45.8	-56.7	3.8	7.45e-01	0	42	104	259522560	63	12475
2026-01-28 13:56:21.93	327.67	7.99	-47.9	-59.2	3.8	7.47e-01	0	42	104	259522560	67	13203
2026-01-28 13:56:24.95	328.07	7.81	-50.9	-63.5	3.8	7.47e-01	0	43	104	259522560	72	16250
2026-01-28 13:56:27.97	328.46	7.63	-46.0	-56.9	3.8	7.43e-01	0	43	104	259522560	63	12809
2026-01-28 13:56:30.99	328.85	7.44	-53.8	-71.5	3.8	7.44e-01	0	42	104	259522560	78	28801
2026-01-28 13:56:34.02	329.24	7.26	-45.7	-47.8	5.3	7.05e-01	0	43	104	259522560	63	4471
2026-01-28 13:56:37.04	329.61	7.08	-45.5	-46.9	23.9	6.02e-01	0	43	0	264241152	62	4269
2026-01-28 13:56:40.07	329.99	6.90	-45.6	-47.0	23.8	6.01e-01	0	42	0	270008320	62	4319
2026-01-28 13:56:43.09	330.36	6.72	-45.7	-47.2	23.6	6.04e-01	0	42	0	275251200	62	4403
2026-01-28 13:56:46.12	330.72	6.54	-45.8	-47.3	23.4	6.02e-01	0	42	0	281018368	62	4474
2026-01-28 13:56:49.14	331.08	6.36	-45.8	-47.3	23.3	6.02e-01	0	42	0	286785536	62	4467
2026-01-28 13:56:52.17	331.43	6.18	-45.8	-47.2	23.4	6.03e-01	0	43	0	292552704	62	4434
2026-01-28 13:56:55.20	331.78	6.00	-46.0	-47.5	23.2	6.03e-01	0	42	0	298319872	62	4559
2026-01-28 13:56:58.23	332.13	5.82	-46.1	-47.6	23.0	6.02e-01	0	43	0	303562752	62	4635
2026-01-28 13:57:01.25	332.47	5.64	-45.8	-47.3	23.1	6.02e-01	0	42	0	309329920	62	4479
2026-01-28 13:57:04.27	332.81	5.47	-46.1	-47.7	23.0	6.04e-01	0	42	0	315097088	63	4394
2026-01-28 13:57:07.29	333.14	5.29	-46.0	-47.5	23.1	6.05e-01	0	43	0	320864256	63	4315
2026-01-28 13:57:10.31	333.47	5.11	-46.0	-47.6	22.8	6.04e-01	0	42	0	326631424	63	4378
2026-01-28 13:57:13.33	333.79	4.94	-53.9	-71.4	3.8	7.46e-01	0	43	104	331350016	78	28484
2026-01-28 13:57:16.35	334.11	4.77	-54.6	-72.2	3.8	7.44e-01	0	42	104	331350016	79	29571
2026-01-28 13:57:19.37	334.43	4.59	-54.8	-72.7	3.8	7.48e-01	0	43	104	331350016	80	29445
2026-01-28 13:57:22.39	334.74	4.42	-54.8	-72.7	3.8	7.44e-01	0	43	104	331350016	80	29423
2026-01-28 13:57:25.42	335.05	4.24	-54.6	-72.5	3.8	7.45e-01	0	43	104	331350016	80	28739
2026-01-28 13:57:28.45	335.36	4.07	-54.7	-72.6	3.8	7.45e-01	0	43	104	331350016	80	29016
2026-01-28 13:57:31.47	335.66	3.90	-54.8	-72.6	3.8	7.43e-01	0	43	104	331350016	80	29297
2026-01-28 13:57:34.50	335.96	3.73	-54.8	-72.6	3.8	7.46e-01	0	43	104	331350016	80	29195
2026-01-28 13:57:37.52	336.25	3.56	-54.7	-72.5	3.8	7.46e-01	0	43	104	331350016	80	28978
2026-01-28 13:57:40.53	336.54	3.39	-54.7	-72.5	3.8	7.45e-01	0	43	104	331350016	80	28936
2026-01-28 13:57:43.56	336.83	3.22	-54.7	-72.5	3.8	7.43e-01	0	43	104	331350016	80	28887
2026-01-28 13:57:46.58	337.11	3.05	-54.7	-72.5	3.8	7.45e-01	0	42	104	331350016	80	28886
2026-01-28 13:57:49.61	337.39	2.88	-54.7	-72.5	3.8	7.48e-01	0	43	104	331350016	80	28866
2026-01-28 13:57:52.64	337.67	2.72	-54.7	-72.5	3.8	7.42e-01	0	43	104	331350016	80	28811
2026-01-28 13:57:55.66	337.94	2.55	-54.7	-72.5	3.8	7.47e-01	0	43	104	331350016	80	28750
2026-01-28 13:57:58.68	338.21	2.38	-54.6	-72.5	3.8	7.45e-01	0	43	104	331350016	80	28729
2026-01-28 13:58:01.71	338.48	2.22	-54.6	-72.5	3.8	7.47e-01	0	43	104	331350016	80	28700
2026-01-28 13:58:04.74	338.75	2.05	-54.6	-72.4	3.8	7.42e-01	0	42	104	331350016	80	28677

#Closed at: 2026-01-28 13:58:07
#Recorded file [331 MB]: D:/lorett/data/31041_260128_164702.dat