passes_logs/2026/01/28/R3.2S_Murmansk/R3.2S_Murmansk__20260128_081531_NOAA_21_JPSS-2_rec.log

#Pass ID: 20260128_081531_NOAA 21 (JPSS-2)
#Satellite: NOAA 21 (JPSS-2)
#Configuration: NOAA-21
#almurnet v.1.7.20251203
#Start time: 2026-01-28 08:16:22

#Version: 2.2.20231116
#Station: R3.2S_Murmansk
#Location: 33.079688 lon 68.888172 lat
#TLE: 1 54234U 22150A   26027.77052245  .00000166  00000+0  99439-4 0  9997
#TLE: 2 54234  98.7510 328.5165 0000872 203.6403 156.4733 14.19540252166628

#Time	Az	El	Level	Level2	SNR	BER	BlckErr	Temp	State	Recorded	gain1	gain2
2026-01-28 08:16:22.56	120.54	5.36	-48.7	-50.8	6.2	0.00e+00	0	44	0	0	69	17940
2026-01-28 08:16:25.57	120.43	5.58	-47.6	-60.2	3.8	1.49e+00	0	45	104	0	65	16652
2026-01-28 08:16:28.60	120.31	5.79	-47.6	-60.2	3.8	1.49e+00	0	45	104	0	65	16645
2026-01-28 08:16:31.62	120.20	6.01	-47.6	-60.2	3.8	1.49e+00	0	45	104	0	65	16599
2026-01-28 08:16:34.64	120.09	6.23	-47.6	-60.2	3.8	1.49e+00	0	44	104	0	65	16621
2026-01-28 08:16:37.67	119.97	6.45	-47.6	-60.2	3.8	1.49e+00	0	45	104	0	65	16613
2026-01-28 08:16:40.69	119.85	6.67	-47.6	-60.2	3.8	1.49e+00	0	44	104	0	65	16635
2026-01-28 08:16:43.72	119.73	6.90	-47.6	-60.2	3.8	1.49e+00	0	44	104	0	65	16617
2026-01-28 08:16:46.74	119.61	7.12	-47.6	-60.2	3.8	1.49e+00	0	44	104	0	65	16644
2026-01-28 08:16:49.77	119.48	7.35	-47.6	-60.3	3.8	1.49e+00	0	44	104	0	65	16716
2026-01-28 08:16:52.79	119.35	7.58	-47.6	-60.3	3.8	1.49e+00	0	44	104	0	65	16713
2026-01-28 08:16:55.81	119.22	7.81	-47.6	-60.2	3.8	1.49e+00	0	44	104	0	65	16612
2026-01-28 08:16:58.84	119.09	8.05	-47.6	-60.2	3.8	1.49e+00	0	44	104	0	65	16610
2026-01-28 08:17:01.86	118.96	8.28	-47.6	-60.2	3.8	1.49e+00	0	44	104	0	65	16631
2026-01-28 08:17:04.89	118.82	8.52	-47.6	-60.2	3.8	1.49e+00	0	44	104	0	65	16604
2026-01-28 08:17:07.91	118.68	8.76	-47.6	-60.2	3.8	1.49e+00	0	44	104	0	65	16638
2026-01-28 08:17:10.93	118.54	9.00	-47.6	-60.2	3.8	1.49e+00	0	44	104	0	65	16628
2026-01-28 08:17:13.96	118.40	9.25	-47.6	-60.2	3.8	1.49e+00	0	44	104	0	65	16620
2026-01-28 08:17:16.98	118.25	9.49	-47.6	-60.2	3.8	1.49e+00	0	44	104	0	65	16641
2026-01-28 08:17:20.01	118.10	9.74	-47.6	-60.2	3.8	1.49e+00	0	44	104	0	65	16659
2026-01-28 08:17:23.03	117.95	9.99	-47.6	-60.2	3.8	1.49e+00	0	44	104	0	65	16646
2026-01-28 08:17:26.05	117.80	10.25	-47.6	-60.2	3.8	1.49e+00	0	44	104	0	65	16624
2026-01-28 08:17:29.07	117.64	10.50	-47.6	-60.2	3.8	1.49e+00	0	44	104	0	65	16598
2026-01-28 08:17:32.09	117.48	10.76	-47.6	-60.2	3.8	1.49e+00	0	44	104	0	65	16619
2026-01-28 08:17:35.12	117.31	11.02	-47.6	-60.2	3.8	1.49e+00	0	44	104	0	65	16661
2026-01-28 08:17:38.14	117.15	11.28	-47.6	-60.2	3.8	1.49e+00	0	43	104	0	65	16622
2026-01-28 08:17:41.17	116.98	11.55	-47.6	-60.2	3.8	1.49e+00	0	43	104	0	65	16597
2026-01-28 08:17:44.20	116.80	11.82	-47.6	-60.2	3.8	1.49e+00	0	44	104	0	65	16672
2026-01-28 08:17:47.23	116.63	12.09	-47.6	-60.2	3.8	1.49e+00	0	44	104	0	65	16612
2026-01-28 08:17:50.25	116.45	12.36	-47.6	-60.2	3.8	1.49e+00	0	44	104	0	65	16636
2026-01-28 08:17:53.28	116.26	12.64	-47.6	-60.2	3.8	1.49e+00	0	44	104	0	65	16627
2026-01-28 08:17:56.31	116.08	12.92	-47.6	-60.2	3.8	1.49e+00	0	43	104	0	65	16570
2026-01-28 08:17:59.33	115.88	13.20	-47.6	-60.2	3.8	1.49e+00	0	43	104	0	65	16635
2026-01-28 08:18:02.36	115.69	13.49	-47.6	-60.2	3.8	1.49e+00	0	43	104	0	65	16594
2026-01-28 08:18:05.38	115.49	13.78	-47.6	-60.2	3.8	1.49e+00	0	43	104	0	65	16642
2026-01-28 08:18:08.40	115.29	14.07	-47.6	-60.2	3.8	1.49e+00	0	43	104	0	65	16613
2026-01-28 08:18:11.43	115.08	14.37	-47.6	-60.2	3.8	1.49e+00	0	43	104	0	65	16610
2026-01-28 08:18:14.44	114.87	14.66	-47.6	-60.2	3.8	1.49e+00	0	43	104	0	65	16663
2026-01-28 08:18:17.46	114.65	14.96	-47.6	-60.2	3.8	1.49e+00	0	43	104	0	65	16620
2026-01-28 08:18:20.49	114.43	15.27	-47.6	-60.2	3.8	1.49e+00	0	44	104	0	65	16658
2026-01-28 08:18:23.51	114.21	15.58	-47.6	-60.2	3.8	1.49e+00	0	43	104	0	65	16636
2026-01-28 08:18:26.53	113.98	15.89	-47.6	-60.2	3.8	1.49e+00	0	43	104	0	65	16671
2026-01-28 08:18:29.56	113.74	16.20	-47.6	-60.2	3.8	1.49e+00	0	43	104	0	65	16656
2026-01-28 08:18:32.58	113.50	16.52	-47.6	-60.2	3.8	1.49e+00	0	43	104	0	65	16536
2026-01-28 08:18:35.61	113.25	16.85	-47.6	-60.2	3.8	1.49e+00	0	43	104	0	65	16627
2026-01-28 08:18:38.63	113.00	17.17	-47.6	-60.2	3.8	1.49e+00	0	43	104	0	65	16599
2026-01-28 08:18:41.66	112.75	17.50	-47.6	-60.2	3.8	1.49e+00	0	43	104	0	65	16613
2026-01-28 08:18:44.69	112.48	17.84	-47.6	-60.2	3.8	1.49e+00	0	43	104	0	65	16585
2026-01-28 08:18:47.71	112.21	18.17	-47.6	-60.2	3.8	1.49e+00	0	43	104	0	65	16671
2026-01-28 08:18:50.73	111.94	18.51	-47.6	-60.2	3.8	1.49e+00	0	43	104	0	65	16627
2026-01-28 08:18:53.76	111.65	18.86	-47.6	-60.2	3.8	1.49e+00	0	43	104	0	65	16626
2026-01-28 08:18:56.78	111.37	19.21	-47.6	-60.2	3.8	1.49e+00	0	43	104	0	65	16624
2026-01-28 08:18:59.81	111.07	19.56	-47.6	-60.2	3.8	1.49e+00	0	43	104	0	65	16664
2026-01-28 08:19:02.83	110.77	19.92	-47.6	-60.2	3.8	1.49e+00	0	43	104	0	65	16659
2026-01-28 08:19:05.85	110.46	20.28	-47.6	-60.2	3.8	1.49e+00	0	43	104	0	65	16593
2026-01-28 08:19:08.87	110.14	20.65	-47.6	-60.2	3.8	1.49e+00	0	43	104	0	65	16563
2026-01-28 08:19:11.90	109.81	21.02	-47.6	-60.2	3.8	1.49e+00	0	43	104	0	65	16565
2026-01-28 08:19:14.92	109.48	21.40	-47.6	-60.2	3.8	1.49e+00	0	43	104	0	65	16643
2026-01-28 08:19:17.94	109.14	21.78	-47.6	-60.2	3.8	1.49e+00	0	43	104	0	65	16633
2026-01-28 08:19:20.97	108.79	22.16	-47.6	-60.2	3.8	1.49e+00	0	43	104	0	65	16692
2026-01-28 08:19:23.99	108.43	22.55	-47.6	-60.2	3.8	1.49e+00	0	43	104	0	65	16604
2026-01-28 08:19:27.01	108.06	22.95	-47.6	-60.2	3.8	1.49e+00	0	43	104	0	65	16569
2026-01-28 08:19:30.04	107.68	23.35	-47.6	-60.2	3.8	1.49e+00	0	43	104	0	65	16614
2026-01-28 08:19:33.07	107.29	23.75	-47.6	-60.2	3.8	1.49e+00	0	43	104	0	65	16645
2026-01-28 08:19:36.09	106.89	24.16	-47.6	-60.2	3.8	1.49e+00	0	43	104	0	65	16596
2026-01-28 08:19:39.12	106.47	24.57	-47.6	-60.2	3.8	1.49e+00	0	43	104	0	65	16616
2026-01-28 08:19:42.14	106.05	24.99	-47.6	-60.2	3.8	1.49e+00	0	43	104	0	65	16610
2026-01-28 08:19:45.17	105.62	25.41	-47.6	-60.2	3.8	1.49e+00	0	43	104	0	65	16610
2026-01-28 08:19:48.20	105.17	25.84	-47.6	-60.2	3.8	1.49e+00	0	43	104	0	65	16627
2026-01-28 08:19:51.22	104.71	26.28	-47.6	-60.2	3.8	1.49e+00	0	43	104	0	65	16628
2026-01-28 08:19:54.25	104.24	26.72	-47.6	-60.2	3.8	1.49e+00	0	43	104	0	65	16571
2026-01-28 08:19:57.27	103.76	27.16	-47.6	-60.2	3.8	1.49e+00	0	43	104	0	65	16620
2026-01-28 08:20:00.29	103.26	27.61	-47.6	-60.2	3.8	1.49e+00	0	43	104	0	65	16638
2026-01-28 08:20:03.32	102.75	28.06	-47.6	-60.2	3.8	1.49e+00	0	43	104	0	65	16579
2026-01-28 08:20:06.34	102.22	28.52	-47.6	-60.2	3.8	1.49e+00	0	43	104	0	65	16641
2026-01-28 08:20:09.36	101.67	28.98	-47.6	-60.2	3.8	1.49e+00	0	43	104	0	65	16602
2026-01-28 08:20:12.38	101.12	29.44	-47.6	-60.2	3.8	1.49e+00	0	43	104	0	65	16576
2026-01-28 08:20:15.41	100.54	29.92	-47.6	-60.2	3.8	1.49e+00	0	43	104	0	65	16658
2026-01-28 08:20:18.43	99.94	30.39	-47.6	-60.2	3.8	1.49e+00	0	43	104	0	65	16630
2026-01-28 08:20:21.45	99.33	30.87	-47.6	-60.2	3.8	1.49e+00	0	43	104	0	65	16617
2026-01-28 08:20:24.47	98.70	31.35	-47.6	-60.2	3.8	1.49e+00	0	43	104	0	65	16607
2026-01-28 08:20:27.49	98.05	31.84	-47.6	-60.2	3.8	1.49e+00	0	43	104	0	65	16595
2026-01-28 08:20:30.52	97.38	32.34	-47.6	-60.2	3.8	1.49e+00	0	43	104	0	65	16633
2026-01-28 08:20:33.54	96.69	32.83	-47.6	-60.2	3.8	1.49e+00	0	43	104	0	65	16579
2026-01-28 08:20:36.57	95.98	33.33	-47.6	-60.2	3.8	1.49e+00	0	43	104	0	65	16598
2026-01-28 08:20:39.59	95.24	33.83	-47.6	-60.2	3.8	1.49e+00	0	43	104	0	65	16590
2026-01-28 08:20:42.62	94.48	34.34	-47.6	-60.2	3.8	1.49e+00	0	43	104	0	65	16606
2026-01-28 08:20:45.65	93.70	34.84	-47.6	-60.2	3.8	1.49e+00	0	43	104	0	65	16593
2026-01-28 08:20:48.67	92.89	35.35	-47.6	-60.2	3.8	1.49e+00	0	43	104	0	65	16607
2026-01-28 08:20:51.70	92.05	35.86	-47.6	-60.2	3.8	1.49e+00	0	43	104	0	65	16582
2026-01-28 08:20:54.72	91.19	36.37	-47.6	-60.2	3.8	1.49e+00	0	43	104	0	65	16615
2026-01-28 08:20:57.74	90.31	36.88	-47.6	-60.2	3.8	1.49e+00	0	43	104	0	65	16632
2026-01-28 08:21:00.77	89.39	37.39	-47.6	-60.2	3.8	1.49e+00	0	43	104	0	65	16619
2026-01-28 08:21:03.79	88.44	37.90	-47.6	-60.2	3.8	1.49e+00	0	43	104	0	65	16660
2026-01-28 08:21:06.81	87.47	38.41	-47.6	-60.2	3.8	1.49e+00	0	43	104	0	65	16630
2026-01-28 08:21:09.84	86.46	38.92	-47.6	-60.2	3.8	1.49e+00	0	43	104	0	65	16633
2026-01-28 08:21:12.87	85.42	39.42	-47.6	-60.2	3.8	1.49e+00	0	43	104	0	65	16586
2026-01-28 08:21:15.89	84.35	39.92	-47.6	-60.2	3.8	1.49e+00	0	43	104	0	65	16612
2026-01-28 08:21:18.92	83.24	40.42	-47.6	-60.2	3.8	1.49e+00	0	43	104	0	65	16629
2026-01-28 08:21:21.94	82.10	40.90	-47.6	-60.2	3.8	1.49e+00	0	43	104	0	65	16592
2026-01-28 08:21:24.97	80.92	41.39	-47.6	-60.2	3.8	1.49e+00	0	43	104	0	65	16646
2026-01-28 08:21:27.99	79.72	41.86	-47.6	-60.2	3.8	1.49e+00	0	43	104	0	65	16637
2026-01-28 08:21:31.01	78.47	42.32	-47.6	-60.2	3.8	1.49e+00	0	43	104	0	65	16619
2026-01-28 08:21:34.04	77.19	42.78	-47.6	-60.2	3.8	1.49e+00	0	43	104	0	65	16633
2026-01-28 08:21:37.06	75.87	43.22	-47.6	-60.2	3.8	1.49e+00	0	43	104	0	65	16555
2026-01-28 08:21:40.09	74.51	43.65	-47.6	-60.2	3.8	1.49e+00	0	43	104	0	65	16571
2026-01-28 08:21:43.12	73.12	44.07	-47.6	-60.2	3.8	1.49e+00	0	43	104	0	65	16612
2026-01-28 08:21:46.14	71.69	44.47	-47.6	-60.2	3.8	1.49e+00	0	43	104	0	65	16611
2026-01-28 08:21:49.16	70.23	44.86	-47.6	-60.2	3.8	1.49e+00	0	43	104	0	65	16577
2026-01-28 08:21:52.18	68.73	45.23	-47.6	-60.2	3.8	1.49e+00	0	43	104	0	65	16587
2026-01-28 08:21:55.21	67.19	45.57	-47.6	-60.2	3.8	1.49e+00	0	43	104	0	65	16607
2026-01-28 08:21:58.23	65.63	45.90	-47.6	-60.2	3.8	1.49e+00	0	43	104	0	65	16602
2026-01-28 08:22:01.25	64.03	46.21	-47.6	-60.2	3.8	1.49e+00	0	43	104	0	65	16601
2026-01-28 08:22:04.28	62.40	46.49	-47.6	-60.2	3.8	1.49e+00	0	43	104	0	65	16599
2026-01-28 08:22:07.31	60.74	46.75	-47.6	-60.2	3.8	1.49e+00	0	43	104	0	65	16607
2026-01-28 08:22:10.33	59.06	46.98	-47.6	-60.2	3.8	1.49e+00	0	43	104	0	65	16647
2026-01-28 08:22:13.36	57.34	47.19	-47.6	-60.2	3.8	1.49e+00	0	43	104	0	65	16630
2026-01-28 08:22:16.38	55.62	47.37	-47.6	-60.2	3.8	1.49e+00	0	43	104	0	65	16573
2026-01-28 08:22:19.40	53.87	47.52	-47.6	-60.2	3.8	1.49e+00	0	43	104	0	65	16540
2026-01-28 08:22:22.43	52.11	47.64	-47.6	-60.2	3.8	1.49e+00	0	43	104	0	65	16604
2026-01-28 08:22:25.45	50.33	47.74	-47.6	-60.2	3.8	1.49e+00	0	43	104	0	65	16574
2026-01-28 08:22:28.46	48.56	47.80	-47.6	-60.2	3.8	1.49e+00	0	43	104	0	65	16591
2026-01-28 08:22:31.49	46.76	47.83	-47.6	-60.2	3.8	1.49e+00	0	43	104	0	65	16553
2026-01-28 08:22:34.51	44.97	47.83	-47.6	-60.2	3.8	1.49e+00	0	43	104	0	65	16550
2026-01-28 08:22:37.54	43.18	47.81	-47.6	-60.2	3.8	1.49e+00	0	43	104	0	65	16616
2026-01-28 08:22:40.56	41.40	47.75	-47.6	-60.2	3.8	1.49e+00	0	43	104	0	65	16638
2026-01-28 08:22:43.58	39.62	47.66	-47.6	-60.2	3.8	1.49e+00	0	43	104	0	65	16596
2026-01-28 08:22:46.61	37.86	47.54	-47.6	-60.2	3.8	1.49e+00	0	43	104	0	65	16601
2026-01-28 08:22:49.64	36.10	47.39	-47.6	-60.2	3.8	1.49e+00	0	43	104	0	65	16563
2026-01-28 08:22:52.66	34.38	47.22	-47.6	-60.2	3.8	1.49e+00	0	43	104	0	65	16619
2026-01-28 08:22:55.69	32.66	47.01	-47.6	-60.2	3.8	1.49e+00	0	43	104	0	65	16561
2026-01-28 08:22:58.72	30.97	46.78	-47.6	-60.2	3.8	1.49e+00	0	43	104	0	65	16617
2026-01-28 08:23:01.75	29.31	46.53	-47.6	-60.2	3.8	1.49e+00	0	43	104	0	65	16592
2026-01-28 08:23:04.77	27.68	46.25	-47.6	-60.2	3.8	1.49e+00	0	43	104	0	65	16527
2026-01-28 08:23:07.80	26.08	45.94	-47.6	-60.2	3.8	1.49e+00	0	43	104	0	65	16579
2026-01-28 08:23:10.82	24.51	45.62	-47.6	-60.2	3.8	1.49e+00	0	43	104	0	65	16641
2026-01-28 08:23:13.84	22.97	45.28	-47.6	-60.2	3.8	1.49e+00	0	43	104	0	65	16587
2026-01-28 08:23:16.87	21.47	44.91	-47.6	-60.2	3.8	1.49e+00	0	43	104	0	65	16560
2026-01-28 08:23:19.89	20.00	44.53	-47.6	-60.2	3.8	1.49e+00	0	43	104	0	65	16592
2026-01-28 08:23:22.92	18.57	44.13	-47.6	-60.2	3.8	1.49e+00	0	43	104	0	65	16564
2026-01-28 08:23:25.95	17.17	43.71	-47.6	-60.2	3.8	1.49e+00	0	43	104	0	65	16534
2026-01-28 08:23:28.97	15.81	43.29	-47.6	-60.2	3.8	1.49e+00	0	43	104	0	65	16543
2026-01-28 08:23:32.00	14.49	42.84	-47.6	-60.2	3.8	1.49e+00	0	43	104	0	65	16585
2026-01-28 08:23:35.03	13.20	42.39	-47.6	-60.2	3.8	1.49e+00	0	43	104	0	65	16626
2026-01-28 08:23:38.05	11.96	41.93	-47.6	-60.2	3.8	1.49e+00	0	43	104	0	65	16580
2026-01-28 08:23:41.08	10.74	41.46	-47.6	-60.2	3.8	1.49e+00	0	43	104	0	65	16610
2026-01-28 08:23:44.11	9.56	40.97	-47.6	-60.2	3.8	1.49e+00	0	43	104	0	65	16600
2026-01-28 08:23:47.13	8.42	40.49	-47.6	-60.2	3.8	1.49e+00	0	43	104	0	65	16572
2026-01-28 08:23:50.15	7.31	40.00	-47.6	-60.2	3.8	1.49e+00	0	43	104	0	65	16598
2026-01-28 08:23:53.17	6.24	39.50	-47.6	-60.2	3.8	1.49e+00	0	43	104	0	65	16550
2026-01-28 08:23:56.20	5.20	39.00	-47.6	-60.2	3.8	1.49e+00	0	43	104	0	65	16582
2026-01-28 08:23:59.22	4.19	38.49	-47.6	-60.2	3.8	1.49e+00	0	43	104	0	65	16566
2026-01-28 08:24:02.25	3.21	37.99	-47.6	-60.2	3.8	1.49e+00	0	43	104	0	65	16580
2026-01-28 08:24:05.27	2.26	37.48	-47.6	-60.2	3.8	1.49e+00	0	43	104	0	65	16584
2026-01-28 08:24:08.29	1.34	36.97	-47.6	-60.2	3.8	1.49e+00	0	43	104	0	65	16554
2026-01-28 08:24:11.32	0.45	36.46	-47.5	-60.2	3.8	1.49e+00	0	43	104	0	65	16571
2026-01-28 08:24:14.34	359.59	35.95	-47.6	-60.2	3.8	1.49e+00	0	43	104	0	65	16577
2026-01-28 08:24:17.37	358.75	35.44	-47.6	-60.2	3.8	1.49e+00	0	43	104	0	65	16568
2026-01-28 08:24:20.39	357.94	34.93	-47.6	-60.2	3.8	1.49e+00	0	43	104	0	65	16586
2026-01-28 08:24:23.41	357.16	34.43	-47.6	-60.2	3.8	1.49e+00	0	43	104	0	65	16607
2026-01-28 08:24:26.44	356.40	33.92	-47.6	-60.2	3.8	1.49e+00	0	43	104	0	65	16540
2026-01-28 08:24:29.46	355.66	33.42	-47.6	-60.2	3.8	1.49e+00	0	43	104	0	65	16573
2026-01-28 08:24:32.48	354.95	32.93	-47.6	-60.2	3.8	1.49e+00	0	43	104	0	65	16590
2026-01-28 08:24:35.51	354.26	32.43	-47.6	-60.2	3.8	1.49e+00	0	43	104	0	65	16534
2026-01-28 08:24:38.54	353.58	31.94	-47.5	-60.2	3.8	1.49e+00	0	43	104	0	65	16534
2026-01-28 08:24:41.56	352.93	31.45	-47.6	-60.2	3.8	1.49e+00	0	43	104	0	65	16571
2026-01-28 08:24:44.59	352.30	30.97	-47.6	-60.2	3.8	1.49e+00	0	43	104	0	65	16576
2026-01-28 08:24:47.62	351.68	30.49	-47.6	-60.2	3.8	1.49e+00	0	43	104	0	65	16580
2026-01-28 08:24:50.64	351.09	30.01	-47.6	-60.2	3.8	1.49e+00	0	43	104	0	65	16583
2026-01-28 08:24:53.67	350.51	29.54	-47.6	-60.2	3.8	1.49e+00	0	43	104	0	65	16562
2026-01-28 08:24:56.69	349.95	29.08	-47.6	-60.2	3.8	1.49e+00	0	43	104	0	65	16561
2026-01-28 08:24:59.71	349.41	28.61	-47.5	-60.2	3.8	1.49e+00	0	43	104	0	65	16594
2026-01-28 08:25:02.73	348.88	28.16	-47.6	-60.2	3.8	1.49e+00	0	43	104	0	65	16559
2026-01-28 08:25:05.76	348.37	27.70	-47.6	-60.2	3.8	1.49e+00	0	43	104	0	65	16583
2026-01-28 08:25:08.78	347.87	27.26	-47.6	-60.2	3.8	1.49e+00	0	43	104	0	65	16561
2026-01-28 08:25:11.81	347.38	26.81	-47.6	-60.2	3.8	1.49e+00	0	43	104	0	65	16595
2026-01-28 08:25:14.83	346.91	26.38	-47.6	-60.2	3.8	1.49e+00	0	43	104	0	65	16575
2026-01-28 08:25:17.85	346.45	25.95	-47.5	-60.2	3.8	1.49e+00	0	43	104	0	65	16575
2026-01-28 08:25:20.88	346.01	25.52	-47.6	-60.2	3.8	1.49e+00	0	43	104	0	65	16601
2026-01-28 08:25:23.90	345.57	25.09	-47.6	-60.2	3.8	1.49e+00	0	43	104	0	65	16565
2026-01-28 08:25:26.93	345.15	24.68	-47.6	-60.2	3.8	1.49e+00	0	43	104	0	65	16593
2026-01-28 08:25:29.95	344.74	24.26	-47.6	-60.2	3.8	1.49e+00	0	43	104	0	65	16591
2026-01-28 08:25:32.98	344.34	23.85	-47.6	-60.2	3.8	1.49e+00	0	43	104	0	65	16576
2026-01-28 08:25:36.01	343.95	23.45	-47.6	-60.2	3.8	1.49e+00	0	43	104	0	65	16558
2026-01-28 08:25:39.04	343.57	23.05	-47.6	-60.2	3.8	1.49e+00	0	43	104	0	65	16568
2026-01-28 08:25:42.06	343.20	22.66	-47.6	-60.2	3.8	1.49e+00	0	43	104	0	65	16631
2026-01-28 08:25:45.09	342.84	22.27	-47.6	-60.2	3.8	1.49e+00	0	43	104	0	65	16590
2026-01-28 08:25:48.11	342.49	21.88	-47.6	-60.2	3.8	1.49e+00	0	43	104	0	65	16546
2026-01-28 08:25:51.14	342.14	21.50	-47.5	-60.2	3.8	1.49e+00	0	43	104	0	65	16560
2026-01-28 08:25:54.17	341.81	21.13	-47.6	-60.2	3.8	1.49e+00	0	43	104	0	65	16538
2026-01-28 08:25:57.19	341.48	20.76	-47.5	-60.2	3.8	1.49e+00	0	43	104	0	65	16622
2026-01-28 08:26:00.21	341.17	20.39	-47.5	-60.2	3.8	1.49e+00	0	43	104	0	65	16610
2026-01-28 08:26:03.24	340.86	20.03	-47.6	-60.2	3.8	1.49e+00	0	43	104	0	65	16647
2026-01-28 08:26:06.26	340.55	19.67	-47.5	-60.2	3.8	1.49e+00	0	43	104	0	65	16564
2026-01-28 08:26:09.29	340.26	19.31	-47.6	-60.2	3.8	1.49e+00	0	43	104	0	65	16556
2026-01-28 08:26:12.32	339.97	18.96	-47.5	-60.2	3.8	1.49e+00	0	43	104	0	65	16607
2026-01-28 08:26:15.34	339.69	18.62	-47.6	-60.2	3.8	1.49e+00	0	43	104	0	65	16571
2026-01-28 08:26:18.37	339.41	18.28	-47.5	-60.2	3.8	1.49e+00	0	43	104	0	65	16599
2026-01-28 08:26:21.39	339.14	17.94	-47.5	-60.2	3.8	1.49e+00	0	43	104	0	65	16558
2026-01-28 08:26:24.42	338.88	17.61	-47.5	-60.2	3.8	1.49e+00	0	43	104	0	65	16514
2026-01-28 08:26:27.44	338.62	17.28	-47.5	-60.2	3.8	1.49e+00	0	43	104	0	65	16577
2026-01-28 08:26:30.47	338.37	16.95	-47.6	-60.2	3.8	1.49e+00	0	43	104	0	65	16559
2026-01-28 08:26:33.49	338.13	16.63	-47.5	-60.2	3.8	1.49e+00	0	43	104	0	65	16566
2026-01-28 08:26:36.51	337.89	16.31	-47.6	-60.2	3.8	1.49e+00	0	43	104	0	65	16579
2026-01-28 08:26:39.54	337.65	16.00	-47.5	-60.2	3.8	1.49e+00	0	43	104	0	65	16562
2026-01-28 08:26:42.57	337.42	15.68	-47.5	-60.2	3.8	1.49e+00	0	43	104	0	65	16522
2026-01-28 08:26:45.59	337.20	15.38	-47.6	-60.2	3.8	1.49e+00	0	43	104	0	65	16589
2026-01-28 08:26:48.61	336.98	15.07	-47.5	-60.2	3.8	1.49e+00	0	43	104	0	65	16578
2026-01-28 08:26:51.64	336.76	14.77	-47.6	-60.2	3.8	1.49e+00	0	43	104	0	65	16578
2026-01-28 08:26:54.66	336.55	14.47	-47.6	-60.2	3.8	1.49e+00	0	43	104	0	65	16586
2026-01-28 08:26:57.68	336.35	14.18	-47.6	-60.2	3.8	1.49e+00	0	43	104	0	65	16522
2026-01-28 08:27:00.71	336.14	13.89	-47.6	-60.2	3.8	1.49e+00	0	43	104	0	65	16528
2026-01-28 08:27:03.74	335.95	13.60	-47.5	-60.2	3.8	1.49e+00	0	43	104	0	65	16566
2026-01-28 08:27:06.76	335.75	13.31	-47.5	-60.2	3.8	1.49e+00	0	43	104	0	65	16601
2026-01-28 08:27:09.79	335.56	13.03	-47.6	-60.2	3.8	1.49e+00	0	43	104	0	65	16594
2026-01-28 08:27:12.81	335.38	12.75	-47.6	-60.2	3.8	1.49e+00	0	43	104	0	65	16566
2026-01-28 08:27:15.84	335.19	12.47	-47.5	-60.2	3.8	1.49e+00	0	43	104	0	65	16539
2026-01-28 08:27:18.86	335.01	12.20	-47.5	-60.2	3.8	1.49e+00	0	43	104	0	65	16613
2026-01-28 08:27:21.88	334.84	11.93	-47.6	-60.2	3.8	1.49e+00	0	43	104	0	65	16579
2026-01-28 08:27:24.91	334.67	11.66	-47.5	-60.2	3.8	1.49e+00	0	43	104	0	65	16566
2026-01-28 08:27:27.94	334.50	11.39	-47.6	-60.2	3.8	1.49e+00	0	43	104	0	65	16610
2026-01-28 08:27:30.96	334.33	11.13	-47.6	-60.2	3.8	1.49e+00	0	43	104	0	65	16600
2026-01-28 08:27:33.99	334.17	10.87	-47.5	-60.2	3.8	1.49e+00	0	43	104	0	65	16564
2026-01-28 08:27:37.01	334.01	10.61	-47.6	-60.2	3.8	1.49e+00	0	43	104	0	65	16590
2026-01-28 08:27:40.04	333.85	10.35	-47.5	-60.2	3.8	1.49e+00	0	43	104	0	65	16622
2026-01-28 08:27:43.07	333.70	10.10	-47.5	-60.2	3.8	1.49e+00	0	43	104	0	65	16537
2026-01-28 08:27:46.09	333.55	9.85	-47.6	-60.2	3.8	1.49e+00	0	43	104	0	65	16594
2026-01-28 08:27:49.12	333.40	9.60	-47.5	-60.2	3.8	1.49e+00	0	43	104	0	65	16578
2026-01-28 08:27:52.14	333.26	9.35	-47.5	-60.2	3.8	1.49e+00	0	43	104	0	65	16556
2026-01-28 08:27:55.17	333.11	9.11	-47.6	-60.2	3.8	1.49e+00	0	43	104	0	65	16561
2026-01-28 08:27:58.19	332.97	8.87	-47.5	-60.2	3.8	1.49e+00	0	43	104	0	65	16577
2026-01-28 08:28:01.22	332.84	8.63	-47.5	-60.2	3.8	1.49e+00	0	43	104	0	65	16541
2026-01-28 08:28:04.24	332.70	8.39	-47.6	-60.2	3.8	1.49e+00	0	43	104	0	65	16583
2026-01-28 08:28:07.26	332.57	8.15	-47.6	-60.2	3.8	1.49e+00	0	43	104	0	65	16558
2026-01-28 08:28:10.28	332.44	7.92	-47.5	-60.2	3.8	1.49e+00	0	43	104	0	65	16562
2026-01-28 08:28:13.31	332.31	7.69	-47.6	-60.2	3.8	1.49e+00	0	43	104	0	65	16572
2026-01-28 08:28:16.33	332.18	7.46	-47.5	-60.2	3.8	1.49e+00	0	43	104	0	65	16561
2026-01-28 08:28:19.36	332.06	7.23	-47.5	-60.2	3.8	1.49e+00	0	43	104	0	65	16597
2026-01-28 08:28:22.38	331.94	7.01	-47.6	-60.2	3.8	1.49e+00	0	43	104	0	65	16577
2026-01-28 08:28:25.41	331.82	6.78	-47.5	-60.2	3.8	1.49e+00	0	43	104	0	65	16531
2026-01-28 08:28:28.43	331.70	6.56	-47.5	-60.2	3.8	1.49e+00	0	43	104	0	65	16568
2026-01-28 08:28:31.45	331.59	6.34	-47.5	-60.2	3.8	1.49e+00	0	43	104	0	65	16547
2026-01-28 08:28:34.47	331.47	6.12	-47.6	-60.2	3.8	1.49e+00	0	43	104	0	65	16566
2026-01-28 08:28:37.50	331.36	5.90	-47.6	-60.2	3.8	1.49e+00	0	43	104	0	65	16559
2026-01-28 08:28:40.53	331.25	5.69	-47.6	-60.2	3.8	1.49e+00	0	43	104	0	65	16562
2026-01-28 08:28:43.55	331.14	5.47	-47.6	-60.2	3.8	1.49e+00	0	43	104	0	65	16608
2026-01-28 08:28:46.58	331.03	5.26	-47.5	-60.2	3.8	1.49e+00	0	43	104	0	65	16526
2026-01-28 08:28:49.61	330.93	5.05	-47.5	-60.2	3.8	1.49e+00	0	43	104	0	65	16582
2026-01-28 08:28:52.63	330.83	4.84	-47.6	-60.2	3.8	1.49e+00	0	43	104	0	65	16566
2026-01-28 08:28:55.66	330.73	4.63	-47.6	-60.2	3.8	1.49e+00	0	43	104	0	65	16554
2026-01-28 08:28:58.68	330.63	4.43	-47.5	-60.2	3.8	1.49e+00	0	43	104	0	65	16523
2026-01-28 08:29:01.71	330.53	4.22	-47.6	-60.2	3.8	1.49e+00	0	43	104	0	65	16578
2026-01-28 08:29:04.73	330.43	4.02	-47.6	-60.2	3.8	1.49e+00	0	43	104	0	65	16591
2026-01-28 08:29:07.75	330.34	3.82	-47.6	-60.2	3.8	1.49e+00	0	43	104	0	65	16551
2026-01-28 08:29:10.77	330.24	3.62	-47.5	-60.2	3.8	1.49e+00	0	43	104	0	65	16591
2026-01-28 08:29:13.80	330.15	3.42	-47.6	-60.2	3.8	1.49e+00	0	43	104	0	65	16616
2026-01-28 08:29:16.83	330.06	3.22	-47.5	-60.2	3.8	1.49e+00	0	43	104	0	65	16562
2026-01-28 08:29:19.85	329.97	3.02	-47.6	-60.2	3.8	1.49e+00	0	43	104	0	65	16578
2026-01-28 08:29:22.87	329.88	2.83	-47.5	-60.2	3.8	1.49e+00	0	43	104	0	65	16591
2026-01-28 08:29:25.90	329.79	2.63	-47.6	-60.2	3.8	1.49e+00	0	43	104	0	65	16562
2026-01-28 08:29:28.92	329.71	2.44	-47.6	-60.2	3.8	1.49e+00	0	43	104	0	65	16575
2026-01-28 08:29:31.95	329.62	2.25	-47.5	-60.2	3.8	1.49e+00	0	43	104	0	65	16511
2026-01-28 08:29:34.97	329.54	2.06	-47.5	-60.2	3.8	1.49e+00	0	43	104	0	65	16596

#Closed at: 2026-01-28 08:29:37
#Recorded file [0 MB]: D:/lorett/data/31041_260128_111622.dat