passes_logs/2026/01/28/R3.2S_Murmansk/R3.2S_Murmansk__20260128_040443_AQUA_rec.log

#Pass ID: 20260128_040443_AQUA
#Satellite: AQUA
#Configuration: AQUA
#almurnet v.1.7.20251203
#Start time: 2026-01-28 04:04:45

#Version: 2.2.20231116
#Station: R3.2S_Murmansk
#Location: 33.079688 lon 68.888172 lat
#TLE: 1 27424U 02022A   26027.29059822  .00001896  00000+0  38917-3 0  9993
#TLE: 2 27424  98.4102 353.9260 0001849  63.9098  72.6772 14.61866390262689

#Time	Az	El	Level	Level2	SNR	BER	BlckErr	Temp	State	Recorded	gain1	gain2
2026-01-28 04:04:45.98	30.37	2.13	-54.5	-72.4	3.8	7.46e-01	0	41	0	0	79	30148
2026-01-28 04:04:49.00	30.23	2.33	-54.5	-72.4	3.8	7.47e-01	0	41	104	0	79	30176
2026-01-28 04:04:52.02	30.08	2.52	-54.5	-72.4	3.8	7.47e-01	0	41	104	0	79	30133
2026-01-28 04:04:55.05	29.94	2.71	-54.5	-72.4	3.8	7.46e-01	0	42	104	0	79	30155
2026-01-28 04:04:58.07	29.79	2.91	-54.5	-72.4	3.8	7.43e-01	0	41	104	0	79	30109
2026-01-28 04:05:01.09	29.64	3.11	-54.5	-72.4	3.8	7.45e-01	0	42	104	0	79	30174
2026-01-28 04:05:04.11	29.49	3.31	-54.5	-72.4	3.8	7.44e-01	0	42	104	0	79	30107
2026-01-28 04:05:07.13	29.33	3.51	-54.5	-72.4	3.8	7.45e-01	0	42	104	0	79	30040
2026-01-28 04:05:10.16	29.18	3.71	-54.5	-72.4	3.8	7.44e-01	0	42	104	0	79	30111
2026-01-28 04:05:13.19	29.02	3.91	-54.5	-72.4	3.8	7.48e-01	0	42	104	0	79	30190
2026-01-28 04:05:16.22	28.85	4.12	-54.5	-72.4	3.8	7.45e-01	0	42	104	0	79	30173
2026-01-28 04:05:19.24	28.69	4.32	-54.5	-72.4	3.8	7.44e-01	0	42	104	0	79	30134
2026-01-28 04:05:22.26	28.52	4.53	-54.5	-72.4	3.8	7.45e-01	0	42	104	0	79	30131
2026-01-28 04:05:25.29	28.35	4.74	-54.5	-72.4	3.8	7.41e-01	0	42	104	0	79	30106
2026-01-28 04:05:28.31	28.18	4.95	-54.5	-72.4	3.8	7.47e-01	0	42	104	0	79	30135
2026-01-28 04:05:31.34	28.00	5.17	-54.5	-72.4	3.8	7.45e-01	0	42	104	0	79	30096
2026-01-28 04:05:34.36	27.82	5.38	-54.5	-72.4	3.8	7.45e-01	0	42	104	0	79	30136
2026-01-28 04:05:37.38	27.64	5.60	-54.5	-72.4	3.8	7.44e-01	0	42	104	0	79	30116
2026-01-28 04:05:40.41	27.45	5.81	-54.5	-72.4	3.8	7.46e-01	0	42	104	0	79	30107
2026-01-28 04:05:43.43	27.26	6.03	-54.5	-72.4	3.8	7.47e-01	0	42	104	0	79	30122
2026-01-28 04:05:46.46	27.07	6.25	-54.5	-72.4	3.8	7.48e-01	0	42	104	0	79	30077
2026-01-28 04:05:49.49	26.87	6.48	-54.5	-72.4	3.8	7.46e-01	0	42	104	0	79	30183
2026-01-28 04:05:52.51	26.67	6.70	-54.5	-72.4	3.8	7.46e-01	0	43	104	0	79	30124
2026-01-28 04:05:55.53	26.47	6.93	-54.5	-72.4	3.8	7.44e-01	0	43	104	0	79	30079
2026-01-28 04:05:58.55	26.27	7.16	-54.5	-72.4	3.8	7.45e-01	0	43	104	0	79	30080
2026-01-28 04:06:01.57	26.05	7.39	-54.5	-72.4	3.8	7.45e-01	0	43	104	0	79	30160
2026-01-28 04:06:04.59	25.84	7.62	-54.5	-72.4	3.8	7.44e-01	0	42	104	0	79	30077
2026-01-28 04:06:07.61	25.62	7.85	-54.5	-72.4	3.8	7.43e-01	0	43	104	0	79	30091
2026-01-28 04:06:10.64	25.40	8.09	-54.5	-72.4	3.8	7.45e-01	0	43	104	0	79	30135
2026-01-28 04:06:13.66	25.17	8.33	-54.5	-72.4	3.8	7.46e-01	0	43	104	0	79	30118
2026-01-28 04:06:16.69	24.94	8.57	-54.5	-72.4	3.8	7.45e-01	0	43	104	0	79	30065
2026-01-28 04:06:19.71	24.71	8.81	-54.5	-72.4	3.8	7.43e-01	0	43	104	0	79	30120
2026-01-28 04:06:22.73	24.47	9.06	-54.5	-72.4	3.8	7.45e-01	0	43	104	0	79	30093
2026-01-28 04:06:25.76	24.22	9.31	-54.5	-72.4	3.8	7.40e-01	0	43	104	0	79	30095
2026-01-28 04:06:28.79	23.97	9.56	-54.5	-72.4	3.8	7.43e-01	0	43	104	0	79	30112
2026-01-28 04:06:31.81	23.72	9.81	-54.5	-72.4	3.8	7.41e-01	0	43	104	0	79	30075
2026-01-28 04:06:34.84	23.46	10.06	-54.5	-72.3	3.8	7.48e-01	0	43	104	0	79	30028
2026-01-28 04:06:37.86	23.20	10.32	-54.5	-72.4	3.8	7.47e-01	0	43	104	0	79	30089
2026-01-28 04:06:40.88	22.93	10.58	-54.5	-72.4	3.8	7.44e-01	0	43	104	0	79	30055
2026-01-28 04:06:43.91	22.65	10.84	-54.5	-72.4	3.8	7.45e-01	0	43	104	0	79	30119
2026-01-28 04:06:46.93	22.37	11.10	-54.5	-72.4	3.8	7.45e-01	0	43	104	0	79	30121
2026-01-28 04:06:49.95	22.09	11.37	-54.5	-72.4	3.8	7.46e-01	0	43	104	0	79	30109
2026-01-28 04:06:52.97	21.79	11.64	-54.5	-72.4	3.8	7.45e-01	0	43	104	0	79	30116
2026-01-28 04:06:56.00	21.49	11.91	-54.5	-72.3	3.8	7.46e-01	0	43	104	0	79	30020
2026-01-28 04:06:59.03	21.19	12.19	-54.5	-72.4	3.8	7.44e-01	0	43	104	0	79	30072
2026-01-28 04:07:02.06	20.88	12.46	-54.5	-72.3	3.8	7.49e-01	0	43	104	0	79	29990
2026-01-28 04:07:05.08	20.56	12.74	-54.5	-72.4	3.8	7.45e-01	0	43	104	0	79	30075
2026-01-28 04:07:08.11	20.24	13.03	-54.5	-72.3	3.8	7.48e-01	0	43	104	0	79	30009
2026-01-28 04:07:11.13	19.90	13.31	-54.5	-72.4	3.8	7.46e-01	0	43	104	0	79	30088
2026-01-28 04:07:14.16	19.57	13.60	-54.5	-72.4	3.8	7.46e-01	0	43	104	0	79	30065
2026-01-28 04:07:17.19	19.22	13.89	-54.5	-72.4	3.8	7.42e-01	0	43	104	0	79	30073
2026-01-28 04:07:20.21	18.87	14.18	-54.5	-72.3	3.8	7.47e-01	0	43	104	0	79	30016
2026-01-28 04:07:23.24	18.50	14.48	-54.5	-72.4	3.8	7.47e-01	0	43	104	0	79	30073
2026-01-28 04:07:26.26	18.14	14.78	-54.5	-72.4	3.8	7.45e-01	0	43	104	0	79	30064
2026-01-28 04:07:29.28	17.76	15.08	-54.5	-72.4	3.8	7.44e-01	0	43	104	0	79	30104
2026-01-28 04:07:32.31	17.37	15.39	-54.5	-72.3	3.8	7.47e-01	0	43	104	0	79	30011
2026-01-28 04:07:35.34	16.98	15.70	-54.5	-72.3	3.8	7.45e-01	0	43	104	0	79	29994
2026-01-28 04:07:38.36	16.57	16.01	-54.5	-72.4	3.8	7.45e-01	0	43	104	0	79	30041
2026-01-28 04:07:41.38	16.16	16.32	-54.5	-72.4	3.8	7.46e-01	0	43	104	0	79	30091
2026-01-28 04:07:44.40	15.74	16.64	-54.5	-72.4	3.8	7.45e-01	0	43	104	0	79	30073
2026-01-28 04:07:47.43	15.30	16.96	-54.5	-72.4	3.8	7.46e-01	0	43	104	0	79	30059
2026-01-28 04:07:50.45	14.86	17.28	-54.5	-72.3	3.8	7.48e-01	0	43	104	0	79	29948
2026-01-28 04:07:53.48	14.41	17.61	-54.5	-72.4	3.8	7.41e-01	0	43	104	0	79	30044
2026-01-28 04:07:56.50	13.94	17.94	-54.5	-72.3	3.8	7.47e-01	0	43	104	0	79	30024
2026-01-28 04:07:59.53	13.47	18.27	-54.5	-72.4	3.8	7.45e-01	0	43	104	0	79	30038
2026-01-28 04:08:02.55	12.98	18.60	-54.5	-72.3	3.8	7.46e-01	0	43	104	0	79	30004
2026-01-28 04:08:05.57	12.48	18.94	-54.5	-72.3	3.8	7.44e-01	0	43	104	0	79	29984
2026-01-28 04:08:08.60	11.97	19.28	-54.5	-72.3	3.8	7.43e-01	0	43	104	0	79	29992
2026-01-28 04:08:11.61	11.45	19.62	-54.5	-72.3	3.8	7.50e-01	0	43	104	0	79	30017
2026-01-28 04:08:14.64	10.91	19.97	-54.5	-72.4	3.8	7.45e-01	0	43	104	0	79	30053
2026-01-28 04:08:17.66	10.37	20.32	-54.5	-72.3	3.8	7.46e-01	0	43	104	0	79	30007
2026-01-28 04:08:20.69	9.80	20.67	-54.5	-72.3	3.8	7.46e-01	0	43	104	0	79	29941
2026-01-28 04:08:23.72	9.23	21.03	-54.5	-72.3	3.8	7.44e-01	0	43	104	0	79	29955
2026-01-28 04:08:26.74	8.63	21.38	-54.5	-72.3	3.8	7.46e-01	0	43	104	0	79	29973
2026-01-28 04:08:29.77	8.03	21.74	-54.5	-72.3	3.8	7.45e-01	0	43	104	0	79	29997
2026-01-28 04:08:32.79	7.41	22.10	-54.5	-72.3	3.8	7.43e-01	0	43	104	0	79	29993
2026-01-28 04:08:35.81	6.77	22.46	-54.5	-72.3	3.8	7.43e-01	0	43	104	0	79	29961
2026-01-28 04:08:38.84	6.12	22.83	-54.5	-72.4	3.8	7.46e-01	0	43	104	0	79	30034
2026-01-28 04:08:41.86	5.45	23.20	-54.5	-72.3	3.8	7.47e-01	0	43	104	0	79	29991
2026-01-28 04:08:44.88	4.77	23.56	-54.5	-72.3	3.8	7.45e-01	0	43	104	0	79	29997
2026-01-28 04:08:47.91	4.06	23.93	-54.5	-72.3	3.8	7.45e-01	0	43	104	0	79	29966
2026-01-28 04:08:50.93	3.34	24.30	-54.5	-72.4	3.8	7.46e-01	0	43	104	0	79	30059
2026-01-28 04:08:53.95	2.60	24.67	-54.5	-72.4	3.8	7.46e-01	0	43	104	0	79	30051
2026-01-28 04:08:56.97	1.85	25.05	-54.5	-72.4	3.8	7.45e-01	0	43	104	0	79	30046
2026-01-28 04:09:00.00	1.07	25.42	-54.5	-72.3	3.8	7.47e-01	0	43	104	0	79	30017
2026-01-28 04:09:02.99	0.28	25.79	-54.5	-72.3	3.8	7.43e-01	0	43	104	0	79	30011
2026-01-28 04:09:06.01	359.47	26.16	-54.5	-72.4	3.8	7.42e-01	0	43	104	0	79	30049
2026-01-28 04:09:09.04	358.63	26.53	-54.5	-72.3	3.8	7.48e-01	0	43	104	0	79	29967
2026-01-28 04:09:12.06	357.77	26.90	-54.5	-72.3	3.8	7.46e-01	0	43	104	0	79	30020
2026-01-28 04:09:15.09	356.89	27.27	-54.5	-72.4	3.8	7.45e-01	0	43	104	0	79	30047
2026-01-28 04:09:18.11	355.99	27.63	-54.5	-72.4	3.8	7.44e-01	0	43	104	0	79	30084
2026-01-28 04:09:21.13	355.07	27.99	-54.5	-72.3	3.8	7.46e-01	0	43	104	0	79	30024
2026-01-28 04:09:24.16	354.13	28.35	-54.5	-72.4	3.8	7.45e-01	0	43	104	0	79	30067
2026-01-28 04:09:27.18	353.16	28.71	-54.5	-72.4	3.8	7.43e-01	0	43	104	0	79	30075
2026-01-28 04:09:30.20	352.18	29.06	-54.5	-72.4	3.8	7.44e-01	0	43	104	0	79	30060
2026-01-28 04:09:33.23	351.16	29.41	-54.5	-72.4	3.8	7.48e-01	0	43	104	0	79	30106
2026-01-28 04:09:36.26	350.13	29.75	-54.5	-72.4	3.8	7.45e-01	0	43	104	0	79	30064
2026-01-28 04:09:39.29	349.07	30.09	-54.5	-72.4	3.8	7.44e-01	0	43	104	0	79	30119
2026-01-28 04:09:42.31	347.99	30.41	-54.5	-72.4	3.8	7.49e-01	0	43	104	0	79	30119
2026-01-28 04:09:45.34	346.89	30.74	-54.5	-72.4	3.8	7.44e-01	0	43	104	0	79	30074
2026-01-28 04:09:48.36	345.76	31.05	-54.5	-72.4	3.8	7.45e-01	0	43	104	0	79	30122
2026-01-28 04:09:51.39	344.62	31.35	-54.5	-72.4	3.8	7.46e-01	0	43	104	0	79	30035
2026-01-28 04:09:54.41	343.45	31.65	-54.5	-72.3	3.8	7.42e-01	0	43	104	0	79	30009
2026-01-28 04:09:57.43	342.26	31.93	-54.5	-72.4	3.8	7.44e-01	0	43	104	0	79	30121
2026-01-28 04:10:00.45	341.05	32.20	-54.5	-72.4	3.8	7.46e-01	0	43	104	0	79	30129
2026-01-28 04:10:03.47	339.81	32.46	-54.5	-72.4	3.8	7.44e-01	0	43	104	0	79	30101
2026-01-28 04:10:06.50	338.56	32.71	-54.5	-72.4	3.8	7.49e-01	0	43	104	0	79	30105
2026-01-28 04:10:09.52	337.28	32.95	-54.5	-72.4	3.8	7.46e-01	0	43	104	0	79	30043
2026-01-28 04:10:12.55	335.99	33.17	-54.5	-72.4	3.8	7.47e-01	0	43	104	0	79	30125
2026-01-28 04:10:15.57	334.68	33.38	-54.5	-72.4	3.8	7.48e-01	0	43	104	0	79	30037
2026-01-28 04:10:18.59	333.36	33.57	-54.5	-72.4	3.8	7.43e-01	0	43	104	0	79	30085
2026-01-28 04:10:21.62	332.01	33.74	-54.5	-72.3	3.8	7.46e-01	0	43	104	0	79	30022
2026-01-28 04:10:24.63	330.66	33.90	-54.5	-72.3	3.8	7.45e-01	0	43	104	0	79	30029
2026-01-28 04:10:27.66	329.29	34.04	-54.5	-72.4	3.8	7.40e-01	0	43	104	0	79	30051
2026-01-28 04:10:30.68	327.91	34.16	-54.5	-72.4	3.8	7.48e-01	0	43	104	0	79	30146
2026-01-28 04:10:33.71	326.52	34.27	-54.5	-72.4	3.8	7.48e-01	0	43	104	0	79	30116
2026-01-28 04:10:36.74	325.11	34.35	-54.5	-72.4	3.8	7.48e-01	0	43	104	0	79	30049
2026-01-28 04:10:39.77	323.70	34.42	-54.5	-72.4	3.8	7.44e-01	0	43	104	0	79	30047
2026-01-28 04:10:42.79	322.29	34.47	-54.5	-72.3	3.8	7.41e-01	0	43	104	0	79	29990
2026-01-28 04:10:45.82	320.88	34.50	-54.5	-72.3	3.8	7.46e-01	0	43	104	0	79	30025
2026-01-28 04:10:48.85	319.46	34.51	-54.5	-72.3	3.8	7.50e-01	0	43	104	0	79	29962
2026-01-28 04:10:51.87	318.04	34.50	-54.5	-72.3	3.8	7.45e-01	0	43	104	0	79	29997
2026-01-28 04:10:54.90	316.62	34.47	-54.5	-72.3	3.8	7.48e-01	0	43	104	0	79	29948
2026-01-28 04:10:57.93	315.21	34.42	-54.5	-72.3	3.8	7.45e-01	0	43	104	0	79	30029
2026-01-28 04:11:00.94	313.81	34.35	-54.5	-72.4	3.8	7.43e-01	0	43	104	0	79	30035
2026-01-28 04:11:03.97	312.41	34.26	-54.5	-72.4	3.8	7.45e-01	0	43	104	0	79	30033
2026-01-28 04:11:06.99	311.02	34.16	-54.5	-72.3	3.8	7.46e-01	0	43	104	0	79	29980
2026-01-28 04:11:10.01	309.64	34.03	-54.5	-72.3	3.8	7.44e-01	0	43	104	0	79	29961
2026-01-28 04:11:13.03	308.27	33.89	-54.5	-72.3	3.8	7.48e-01	0	43	104	0	79	29918
2026-01-28 04:11:16.06	306.91	33.73	-54.5	-72.4	3.8	7.45e-01	0	43	104	0	79	30063
2026-01-28 04:11:19.09	305.56	33.56	-54.5	-72.3	3.8	7.42e-01	0	43	104	0	79	29918
2026-01-28 04:11:22.12	304.23	33.36	-54.5	-72.3	3.8	7.45e-01	0	43	104	0	79	29973
2026-01-28 04:11:25.14	302.93	33.16	-54.5	-72.4	3.8	7.46e-01	0	43	104	0	79	30039
2026-01-28 04:11:28.16	301.63	32.94	-54.5	-72.3	3.8	7.42e-01	0	43	104	0	79	29992
2026-01-28 04:11:31.19	300.36	32.70	-54.5	-72.3	3.8	7.47e-01	0	43	104	0	79	29887
2026-01-28 04:11:34.21	299.10	32.45	-54.5	-72.3	3.8	7.46e-01	0	43	104	0	79	29916
2026-01-28 04:11:37.23	297.87	32.19	-54.5	-72.3	3.8	7.44e-01	0	43	104	0	79	29914
2026-01-28 04:11:40.25	296.66	31.91	-54.5	-72.3	3.8	7.47e-01	0	43	104	0	79	29906
2026-01-28 04:11:43.28	295.47	31.63	-54.5	-72.3	3.8	7.49e-01	0	43	104	0	79	29890
2026-01-28 04:11:46.30	294.30	31.33	-54.5	-72.3	3.8	7.43e-01	0	43	104	0	79	29956
2026-01-28 04:11:49.33	293.15	31.03	-54.5	-72.3	3.8	7.44e-01	0	43	104	0	79	29999
2026-01-28 04:11:52.35	292.02	30.71	-54.5	-72.3	3.8	7.43e-01	0	43	104	0	79	29781
2026-01-28 04:11:55.38	290.92	30.39	-54.5	-72.3	3.8	7.44e-01	0	43	104	0	79	29754
2026-01-28 04:11:58.40	289.84	30.06	-54.5	-72.3	3.8	7.44e-01	0	43	104	0	79	29903
2026-01-28 04:12:01.43	288.78	29.72	-54.5	-72.3	3.8	7.45e-01	0	43	104	0	79	29950
2026-01-28 04:12:04.45	287.75	29.38	-54.5	-72.3	3.8	7.47e-01	0	43	104	0	79	29945
2026-01-28 04:12:07.48	286.73	29.03	-54.5	-72.3	3.8	7.44e-01	0	43	104	0	79	29777
2026-01-28 04:12:10.50	285.75	28.68	-54.5	-72.3	3.8	7.44e-01	0	43	104	0	79	29986
2026-01-28 04:12:13.52	284.78	28.32	-54.5	-72.3	3.8	7.44e-01	0	43	104	0	79	29688
2026-01-28 04:12:16.54	283.84	27.96	-54.5	-72.1	3.8	7.46e-01	0	43	104	0	79	29206
2026-01-28 04:12:19.56	282.92	27.60	-54.5	-72.2	3.8	7.46e-01	0	43	104	0	79	29468
2026-01-28 04:12:22.58	282.02	27.23	-54.5	-72.3	3.8	7.45e-01	0	43	104	0	79	29964
2026-01-28 04:12:25.60	281.14	26.87	-54.5	-72.3	3.8	7.45e-01	0	43	104	0	79	29779
2026-01-28 04:12:28.63	280.28	26.50	-54.5	-72.3	3.8	7.48e-01	0	43	104	0	79	29981
2026-01-28 04:12:31.65	279.44	26.12	-54.5	-72.3	3.8	7.47e-01	0	43	104	0	79	29816
2026-01-28 04:12:34.68	278.63	25.75	-54.5	-72.3	3.8	7.46e-01	0	43	104	0	79	30018
2026-01-28 04:12:37.71	277.83	25.38	-54.5	-72.3	3.8	7.42e-01	0	43	104	0	79	29725
2026-01-28 04:12:40.73	277.05	25.01	-54.5	-72.3	3.8	7.47e-01	0	43	104	0	79	29872
2026-01-28 04:12:43.76	276.29	24.63	-54.5	-72.3	3.8	7.46e-01	0	43	104	0	79	29883
2026-01-28 04:12:46.78	275.55	24.26	-54.5	-72.3	3.8	7.47e-01	0	43	104	0	79	29875
2026-01-28 04:12:49.80	274.83	23.89	-54.5	-72.3	3.8	7.45e-01	0	43	104	0	79	29934
2026-01-28 04:12:52.83	274.13	23.52	-54.5	-72.3	3.8	7.45e-01	0	43	104	0	79	29994
2026-01-28 04:12:55.86	273.44	23.15	-54.5	-72.3	3.8	7.47e-01	0	43	104	0	79	29931
2026-01-28 04:12:58.88	272.77	22.78	-54.5	-72.3	3.8	7.47e-01	0	43	104	0	79	29864
2026-01-28 04:13:01.91	272.12	22.42	-54.5	-72.3	3.8	7.44e-01	0	43	104	0	79	29910
2026-01-28 04:13:04.93	271.48	22.05	-54.5	-72.3	3.8	7.46e-01	0	43	104	0	79	29965
2026-01-28 04:13:07.95	270.86	21.69	-54.5	-72.3	3.8	7.48e-01	0	43	104	0	79	29951
2026-01-28 04:13:10.98	270.25	21.33	-54.5	-72.3	3.8	7.44e-01	0	43	104	0	79	29905
2026-01-28 04:13:14.00	269.66	20.97	-54.5	-72.3	3.8	7.45e-01	0	43	104	0	79	30006
2026-01-28 04:13:17.03	269.08	20.62	-54.5	-72.3	3.8	7.43e-01	0	43	104	0	79	29884
2026-01-28 04:13:20.05	268.52	20.27	-54.5	-72.3	3.8	7.47e-01	0	43	104	0	79	29838
2026-01-28 04:13:23.07	267.97	19.92	-54.5	-72.3	3.8	7.44e-01	0	43	104	0	79	29767
2026-01-28 04:13:26.10	267.43	19.57	-54.5	-72.3	3.8	7.44e-01	0	43	104	0	79	29842
2026-01-28 04:13:29.12	266.91	19.23	-54.5	-72.3	3.8	7.44e-01	0	43	104	0	79	29973
2026-01-28 04:13:32.15	266.40	18.88	-54.5	-72.3	3.8	7.45e-01	0	43	104	0	79	29923
2026-01-28 04:13:35.17	265.90	18.55	-54.5	-72.1	3.8	7.45e-01	0	43	104	0	79	29307
2026-01-28 04:13:38.20	265.41	18.21	-54.5	-72.1	3.8	7.44e-01	0	43	104	0	79	29280
2026-01-28 04:13:41.22	264.94	17.88	-54.5	-72.3	3.8	7.43e-01	0	43	104	0	79	29861
2026-01-28 04:13:44.24	264.47	17.55	-54.5	-72.3	3.8	7.45e-01	0	43	104	0	79	29935
2026-01-28 04:13:47.27	264.02	17.22	-54.5	-72.3	3.8	7.44e-01	0	43	104	0	79	29853
2026-01-28 04:13:50.29	263.57	16.90	-54.5	-71.6	3.8	7.45e-01	0	43	104	0	79	27458
2026-01-28 04:13:53.32	263.14	16.58	-54.5	-71.8	3.8	7.44e-01	0	43	104	0	79	28217
2026-01-28 04:13:56.35	262.71	16.26	-54.5	-72.2	3.8	7.44e-01	0	43	104	0	79	29412
2026-01-28 04:13:59.37	262.30	15.94	-54.5	-72.0	3.8	7.41e-01	0	43	104	0	79	28744
2026-01-28 04:14:02.39	261.90	15.63	-54.5	-71.6	3.8	7.43e-01	0	43	104	0	79	27441
2026-01-28 04:14:05.41	261.50	15.32	-54.5	-72.2	3.8	7.44e-01	0	43	104	0	79	29503
2026-01-28 04:14:08.44	261.11	15.02	-54.5	-72.2	3.8	7.42e-01	0	43	104	0	79	29393
2026-01-28 04:14:11.46	260.74	14.72	-54.5	-72.3	3.8	7.42e-01	0	43	104	0	79	29837
2026-01-28 04:14:14.49	260.36	14.41	-54.5	-72.2	3.8	7.48e-01	0	43	104	0	79	29659
2026-01-28 04:14:17.51	260.00	14.12	-54.5	-72.3	3.8	7.46e-01	0	43	104	0	79	29813
2026-01-28 04:14:20.53	259.65	13.82	-54.5	-72.3	3.8	7.43e-01	0	43	104	0	79	29761
2026-01-28 04:14:23.55	259.30	13.53	-54.5	-72.3	3.8	7.47e-01	0	43	104	0	79	29750
2026-01-28 04:14:26.58	258.96	13.24	-54.5	-72.3	3.8	7.44e-01	0	43	104	0	79	29817
2026-01-28 04:14:29.61	258.63	12.96	-54.5	-72.1	3.8	7.46e-01	0	43	104	0	79	29171
2026-01-28 04:14:32.63	258.30	12.68	-54.5	-72.3	3.8	7.43e-01	0	43	104	0	79	29692
2026-01-28 04:14:35.66	257.99	12.40	-54.5	-72.3	3.8	7.47e-01	0	43	104	0	79	29860
2026-01-28 04:14:38.69	257.67	12.12	-54.5	-72.3	3.8	7.44e-01	0	43	104	0	79	29938
2026-01-28 04:14:41.71	257.37	11.84	-54.5	-72.3	3.8	7.49e-01	0	43	104	0	79	29729
2026-01-28 04:14:44.73	257.07	11.57	-54.5	-72.2	3.8	7.43e-01	0	43	104	0	79	29362
2026-01-28 04:14:47.75	256.78	11.30	-54.5	-72.2	3.8	7.46e-01	0	43	104	0	79	29489
2026-01-28 04:14:50.78	256.49	11.04	-54.5	-72.3	3.8	7.48e-01	0	43	104	0	79	29760
2026-01-28 04:14:53.81	256.21	10.77	-54.5	-72.2	3.8	7.45e-01	0	43	104	0	79	29590
2026-01-28 04:14:56.84	255.93	10.51	-54.5	-72.2	3.8	7.47e-01	0	44	104	0	79	29636
2026-01-28 04:14:59.86	255.66	10.25	-54.5	-72.3	3.8	7.45e-01	0	43	104	0	79	29738
2026-01-28 04:15:02.88	255.39	9.99	-54.5	-72.3	3.8	7.46e-01	0	43	104	0	79	29950
2026-01-28 04:15:05.91	255.13	9.74	-54.5	-72.3	3.8	7.45e-01	0	43	104	0	79	29924
2026-01-28 04:15:08.94	254.88	9.49	-54.5	-72.3	3.8	7.43e-01	0	43	104	0	79	29780
2026-01-28 04:15:11.96	254.63	9.24	-54.5	-72.2	3.8	7.44e-01	0	43	104	0	79	29574
2026-01-28 04:15:14.98	254.38	8.99	-54.5	-72.2	3.8	7.45e-01	0	43	104	0	79	29367
2026-01-28 04:15:18.01	254.14	8.74	-54.5	-72.0	3.8	7.43e-01	0	43	104	0	79	28831
2026-01-28 04:15:21.03	253.90	8.50	-54.5	-72.0	3.8	7.45e-01	0	43	104	0	79	28801
2026-01-28 04:15:24.06	253.67	8.26	-54.5	-72.0	3.8	7.46e-01	0	43	104	0	79	28888
2026-01-28 04:15:27.09	253.44	8.02	-54.5	-72.1	3.8	7.42e-01	0	43	104	0	79	29039
2026-01-28 04:15:30.10	253.22	7.78	-54.5	-72.2	3.8	7.45e-01	0	43	104	0	79	29447
2026-01-28 04:15:33.12	253.00	7.55	-54.5	-72.3	3.8	7.43e-01	0	43	104	0	79	29800
2026-01-28 04:15:36.15	252.79	7.31	-54.5	-72.3	3.8	7.48e-01	0	43	104	0	79	29739
2026-01-28 04:15:39.17	252.57	7.08	-54.5	-72.3	3.8	7.47e-01	0	43	104	0	79	29763
2026-01-28 04:15:42.19	252.37	6.86	-54.5	-72.3	3.8	7.48e-01	0	43	104	0	79	29914
2026-01-28 04:15:45.22	252.16	6.63	-54.5	-72.3	3.8	7.47e-01	0	43	104	0	79	29943
2026-01-28 04:15:48.24	251.96	6.40	-54.5	-72.3	3.8	7.44e-01	0	43	104	0	79	29888
2026-01-28 04:15:51.27	251.76	6.18	-54.5	-72.3	3.8	7.47e-01	0	43	104	0	79	29839
2026-01-28 04:15:54.29	251.57	5.96	-54.5	-72.3	3.8	7.45e-01	0	43	104	0	79	29920
2026-01-28 04:15:57.32	251.38	5.74	-54.5	-72.3	3.8	7.45e-01	0	44	104	0	79	29876
2026-01-28 04:16:00.34	251.19	5.52	-54.5	-72.3	3.8	7.42e-01	0	43	104	0	79	29954
2026-01-28 04:16:03.37	251.01	5.30	-54.5	-72.3	3.8	7.47e-01	0	43	104	0	79	29866
2026-01-28 04:16:06.39	250.83	5.09	-54.5	-72.3	3.8	7.43e-01	0	43	104	0	79	29848
2026-01-28 04:16:09.42	250.65	4.88	-54.5	-72.3	3.8	7.43e-01	0	43	104	0	79	29908
2026-01-28 04:16:12.45	250.47	4.66	-54.5	-72.3	3.8	7.48e-01	0	43	104	0	79	29961
2026-01-28 04:16:15.47	250.30	4.46	-54.5	-72.3	3.8	7.46e-01	0	43	104	0	79	29908
2026-01-28 04:16:18.50	250.13	4.25	-54.5	-72.3	3.8	7.47e-01	0	43	104	0	79	29877
2026-01-28 04:16:21.52	249.97	4.04	-54.5	-72.3	3.8	7.48e-01	0	43	104	0	79	29962
2026-01-28 04:16:24.55	249.80	3.83	-54.5	-72.3	3.8	7.48e-01	0	43	104	0	79	29924
2026-01-28 04:16:27.58	249.64	3.63	-54.5	-72.3	3.8	7.42e-01	0	43	104	0	79	29910
2026-01-28 04:16:30.61	249.48	3.43	-54.5	-72.3	3.8	7.44e-01	0	43	104	0	79	29944
2026-01-28 04:16:33.64	249.32	3.23	-54.5	-72.3	3.8	7.48e-01	0	43	104	0	79	29922
2026-01-28 04:16:36.65	249.17	3.03	-54.5	-72.3	3.8	7.43e-01	0	43	104	0	79	29763
2026-01-28 04:16:39.68	249.02	2.83	-54.5	-72.3	3.8	7.47e-01	0	43	104	0	79	29819
2026-01-28 04:16:42.71	248.87	2.63	-54.5	-72.3	3.8	7.42e-01	0	43	104	0	79	29832
2026-01-28 04:16:45.73	248.72	2.44	-54.5	-72.3	3.8	7.44e-01	0	43	104	0	79	29854
2026-01-28 04:16:48.76	248.58	2.25	-54.5	-72.3	3.8	7.46e-01	0	43	104	0	79	29842
2026-01-28 04:16:51.78	248.44	2.05	-54.5	-72.3	3.8	7.43e-01	0	43	104	0	79	29778

#Closed at: 2026-01-28 04:16:54
#Recorded file [0 MB]: D:/lorett/data/31041_260128_070445.dat