passes_logs/2026/01/28/R3.2S_Murmansk/R3.2S_Murmansk__20260128_002749_SUOMI_NPP_rec.log

#Pass ID: 20260128_002749_SUOMI NPP
#Satellite: SUOMI NPP
#Configuration: NPP
#almurnet v.1.7.20251203
#Start time: 2026-01-28 00:27:48

#Version: 2.2.20231116
#Station: R3.2S_Murmansk
#Location: 33.079688 lon 68.888172 lat
#TLE: 1 37849U 11061A   26027.29799992  .00000188  00000+0  11027-3 0  9993
#TLE: 2 37849  98.7822 329.2414 0002113  42.5791 317.5548 14.19530708738457

#Time	Az	El	Level	Level2	SNR	BER	BlckErr	Temp	State	Recorded	gain1	gain2
2026-01-28 00:27:48.59	23.46	1.97	-53.7	-68.7	3.8	1.49e+00	0	41	0	0	78	20846
2026-01-28 00:27:52.62	23.51	2.22	-54.0	-69.0	3.8	1.49e+00	0	41	104	0	78	21573
2026-01-28 00:27:56.65	23.56	2.48	-54.0	-68.9	3.8	1.49e+00	0	41	104	0	78	21478
2026-01-28 00:28:00.68	23.61	2.75	-53.9	-68.9	3.8	1.49e+00	0	41	104	0	78	21267
2026-01-28 00:28:04.71	23.66	3.01	-53.6	-68.6	3.8	1.49e+00	0	41	104	0	78	20557
2026-01-28 00:28:08.75	23.71	3.28	-53.0	-68.0	3.8	1.49e+00	0	41	104	0	78	19232
2026-01-28 00:28:12.78	23.76	3.55	-51.9	-65.7	3.8	1.49e+00	0	42	104	0	75	17638
2026-01-28 00:28:16.81	23.81	3.82	-51.5	-61.2	5.1	7.84e-01	0	42	0	2097152	75	10474
2026-01-28 00:28:20.84	23.86	4.09	-50.5	-55.9	9.6	2.76e-02	0	42	0	9437184	72	6801
2026-01-28 00:28:24.87	23.92	4.37	-49.5	-53.4	12.4	2.09e-04	0	42	0	16777216	71	5344
2026-01-28 00:28:28.90	23.97	4.65	-48.9	-52.3	13.5	1.83e-05	0	42	0	24117248	69	5300
2026-01-28 00:28:32.93	24.02	4.93	-50.1	-54.8	10.8	1.40e-03	0	42	0	31457280	70	6715
2026-01-28 00:28:36.96	24.08	5.22	-51.8	-63.1	4.3	2.79e-01	112	42	0	39845888	74	13797
2026-01-28 00:28:40.99	24.14	5.51	-47.6	-49.9	15.8	0.00e+00	0	42	0	44040192	67	4543
2026-01-28 00:28:45.02	24.19	5.80	-47.9	-50.5	15.4	0.00e+00	0	42	0	52428800	67	4829
2026-01-28 00:28:49.05	24.25	6.10	-47.4	-49.7	16.2	0.00e+00	0	43	0	59768832	66	4680
2026-01-28 00:28:53.08	24.31	6.40	-47.3	-49.5	16.5	0.00e+00	0	42	0	67108864	66	4577
2026-01-28 00:28:57.10	24.37	6.70	-47.2	-49.3	16.7	0.00e+00	0	42	0	74448896	66	4477
2026-01-28 00:29:01.13	24.43	7.01	-46.9	-48.9	17.2	0.00e+00	0	42	0	81788928	65	4501
2026-01-28 00:29:05.16	24.49	7.32	-46.9	-48.9	17.2	0.00e+00	0	43	0	89128960	65	4495
2026-01-28 00:29:09.19	24.55	7.63	-46.8	-48.7	17.4	0.00e+00	0	42	0	97517568	65	4413
2026-01-28 00:29:13.22	24.61	7.95	-46.7	-48.6	17.5	0.00e+00	0	42	0	104857600	65	4354
2026-01-28 00:29:17.25	24.68	8.27	-46.5	-48.4	17.8	0.00e+00	0	42	0	112197632	64	4503
2026-01-28 00:29:21.28	24.74	8.60	-46.4	-48.2	17.9	0.00e+00	0	42	0	119537664	64	4411
2026-01-28 00:29:25.32	24.81	8.93	-46.2	-47.9	18.3	0.00e+00	0	43	0	127926272	64	4260
2026-01-28 00:29:29.35	24.87	9.26	-46.2	-47.9	18.3	0.00e+00	0	42	0	135266304	64	4244
2026-01-28 00:29:33.38	24.94	9.60	-46.1	-47.8	18.5	0.00e+00	0	42	0	142606336	63	4460
2026-01-28 00:29:37.41	25.01	9.95	-46.1	-47.7	18.6	0.00e+00	0	43	0	149946368	63	4439
2026-01-28 00:29:41.44	25.08	10.30	-45.9	-47.5	18.8	0.00e+00	0	43	0	157286400	63	4318
2026-01-28 00:29:45.47	25.16	10.65	-45.9	-47.4	18.9	0.00e+00	0	43	0	165675008	63	4278
2026-01-28 00:29:49.51	25.23	11.01	-45.8	-47.3	19.1	0.00e+00	0	43	0	173015040	63	4233
2026-01-28 00:29:53.53	25.30	11.37	-45.6	-47.1	19.3	0.00e+00	0	43	0	180355072	63	4122
2026-01-28 00:29:57.56	25.38	11.74	-45.5	-46.9	19.4	0.00e+00	0	43	0	187695104	62	4285
2026-01-28 00:30:01.59	25.46	12.12	-45.1	-46.4	19.9	0.00e+00	0	43	0	195035136	62	4045
2026-01-28 00:30:05.61	25.54	12.50	-44.9	-46.3	20.1	0.00e+00	0	43	0	203423744	61	4194
2026-01-28 00:30:09.63	25.62	12.89	-44.9	-46.2	20.2	0.00e+00	0	43	0	210763776	61	4153
2026-01-28 00:30:13.67	25.70	13.28	-44.8	-46.0	20.3	0.00e+00	0	43	0	218103808	61	4095
2026-01-28 00:30:17.70	25.78	13.68	-44.9	-46.1	20.3	0.00e+00	0	43	0	225443840	61	4143
2026-01-28 00:30:21.73	25.87	14.09	-44.7	-45.9	20.5	0.00e+00	0	43	0	232783872	61	4039
2026-01-28 00:30:25.75	25.96	14.50	-44.6	-45.9	20.5	0.00e+00	0	43	0	241172480	61	4009
2026-01-28 00:30:29.79	26.05	14.92	-44.6	-45.9	20.5	0.00e+00	0	43	0	248512512	61	4015
2026-01-28 00:30:33.82	26.14	15.35	-44.7	-45.9	20.5	0.00e+00	0	43	0	255852544	61	4051
2026-01-28 00:30:37.85	26.23	15.79	-44.6	-45.9	20.5	0.00e+00	0	43	0	263192576	61	4030
2026-01-28 00:30:41.88	26.33	16.23	-44.8	-46.1	20.4	0.00e+00	0	43	0	270532608	61	4122
2026-01-28 00:30:45.91	26.43	16.68	-44.9	-46.1	20.4	0.00e+00	0	43	0	278921216	61	4141
2026-01-28 00:30:49.94	26.53	17.14	-45.2	-46.6	20.0	0.00e+00	0	43	0	286261248	61	4362
2026-01-28 00:30:53.97	26.63	17.61	-45.5	-46.9	19.7	0.00e+00	0	43	0	293601280	61	4545
2026-01-28 00:30:57.99	26.74	18.09	-45.7	-47.1	19.5	0.00e+00	0	43	0	300941312	62	4362
2026-01-28 00:31:02.02	26.85	18.57	-45.8	-47.3	19.4	0.00e+00	0	43	0	308281344	62	4450
2026-01-28 00:31:06.05	26.96	19.07	-46.2	-47.7	19.0	0.00e+00	0	43	0	316669952	62	4694
2026-01-28 00:31:10.08	27.08	19.58	-46.5	-48.1	18.7	0.00e+00	0	43	0	324009984	63	4610
2026-01-28 00:31:14.11	27.20	20.10	-46.5	-48.1	18.6	0.00e+00	0	43	0	331350016	64	4386
2026-01-28 00:31:18.14	27.32	20.63	-46.5	-48.2	18.6	0.00e+00	0	43	0	338690048	64	4398
2026-01-28 00:31:22.16	27.44	21.16	-46.4	-48.0	18.8	0.00e+00	0	43	0	346030080	64	4311
2026-01-28 00:31:26.19	27.57	21.72	-46.5	-48.1	18.7	0.00e+00	0	43	0	354418688	64	4358
2026-01-28 00:31:30.22	27.71	22.28	-46.5	-48.1	18.7	0.00e+00	0	43	0	361758720	64	4361
2026-01-28 00:31:34.25	27.85	22.86	-46.0	-47.5	19.2	0.00e+00	0	43	0	369098752	64	4061
2026-01-28 00:31:38.28	27.99	23.45	-46.2	-47.6	19.2	0.00e+00	0	43	0	376438784	63	4383
2026-01-28 00:31:42.31	28.14	24.05	-46.2	-47.7	19.3	0.00e+00	0	43	0	384827392	63	4398
2026-01-28 00:31:46.34	28.29	24.67	-46.1	-47.5	19.4	0.00e+00	0	43	0	392167424	63	4330
2026-01-28 00:31:50.37	28.45	25.30	-45.6	-47.0	19.9	0.00e+00	0	43	0	399507456	63	4063
2026-01-28 00:31:54.39	28.62	25.95	-45.4	-46.7	20.2	0.00e+00	0	43	0	406847488	62	4170
2026-01-28 00:31:58.42	28.79	26.61	-45.6	-47.0	19.8	0.00e+00	0	43	0	414187520	62	4318
2026-01-28 00:32:02.45	28.96	27.29	-45.7	-47.0	19.8	0.00e+00	0	43	0	421527552	62	4340
2026-01-28 00:32:06.48	29.15	27.99	-45.8	-47.2	19.8	0.00e+00	0	43	0	429916160	62	4398
2026-01-28 00:32:10.51	29.34	28.70	-46.1	-47.6	19.4	0.00e+00	0	43	0	437256192	63	4359
2026-01-28 00:32:14.54	29.54	29.44	-46.4	-47.9	19.1	0.00e+00	0	43	0	444596224	63	4513
2026-01-28 00:32:18.57	29.75	30.19	-46.1	-47.5	19.5	0.00e+00	0	43	0	451936256	63	4307
2026-01-28 00:32:22.60	29.97	30.96	-46.5	-48.0	19.0	0.00e+00	0	43	0	460324864	64	4326
2026-01-28 00:32:26.62	30.19	31.75	-47.0	-48.6	18.4	0.00e+00	0	43	0	467664896	65	4378
2026-01-28 00:32:30.66	30.43	32.57	-46.9	-48.5	18.5	0.00e+00	0	43	0	475004928	65	4328
2026-01-28 00:32:34.69	30.68	33.41	-47.3	-49.1	17.8	0.00e+00	0	43	0	482344960	65	4607
2026-01-28 00:32:38.72	30.95	34.27	-47.3	-49.0	18.0	0.00e+00	0	43	0	489684992	65	4582
2026-01-28 00:32:42.76	31.22	35.15	-47.0	-48.6	18.5	0.00e+00	0	43	0	498073600	65	4382
2026-01-28 00:32:46.79	31.51	36.06	-46.9	-48.6	18.5	0.00e+00	0	43	0	505413632	65	4376
2026-01-28 00:32:50.82	31.82	37.00	-47.8	-49.7	17.5	0.00e+00	0	43	0	512753664	66	4702
2026-01-28 00:32:54.85	32.15	37.96	-47.6	-49.5	17.7	0.00e+00	0	43	0	520093696	66	4574
2026-01-28 00:32:58.88	32.49	38.94	-46.8	-48.4	18.8	0.00e+00	0	43	0	527433728	65	4247
2026-01-28 00:33:02.91	32.85	39.96	-46.5	-48.0	19.3	0.00e+00	0	43	0	535822336	63	4562
2026-01-28 00:33:06.95	33.24	41.01	-47.7	-49.5	17.9	0.00e+00	0	43	0	543162368	65	4826
2026-01-28 00:33:10.98	33.65	42.09	-48.3	-50.4	17.0	0.00e+00	0	43	0	550502400	67	4766
2026-01-28 00:33:15.01	34.09	43.19	-47.3	-49.1	18.3	0.00e+00	0	43	0	557842432	66	4347
2026-01-28 00:33:19.04	34.56	44.33	-46.7	-48.2	19.0	0.00e+00	0	43	0	565182464	64	4418
2026-01-28 00:33:23.07	35.06	45.50	-47.6	-49.4	17.9	0.00e+00	0	43	0	573571072	66	4519
2026-01-28 00:33:27.10	35.61	46.70	-47.5	-49.3	18.0	0.00e+00	0	43	0	580911104	67	4212
2026-01-28 00:33:31.12	36.19	47.93	-47.9	-49.9	17.5	0.00e+00	0	43	0	588251136	66	4785
2026-01-28 00:33:35.15	36.82	49.20	-46.6	-48.1	19.1	0.00e+00	0	43	0	595591168	65	4144
2026-01-28 00:33:39.18	37.51	50.50	-44.9	-46.1	21.0	0.00e+00	0	43	0	602931200	61	4101
2026-01-28 00:33:43.21	38.25	51.84	-44.0	-45.0	22.3	0.00e+00	0	43	0	611319808	59	4083
2026-01-28 00:33:47.24	39.07	53.21	-44.4	-45.5	21.9	0.00e+00	0	43	0	618659840	59	4315
2026-01-28 00:33:51.27	39.96	54.61	-43.8	-44.9	22.4	0.00e+00	0	43	0	625999872	59	4017
2026-01-28 00:33:55.30	40.95	56.04	-42.8	-43.8	23.3	0.00e+00	0	43	0	633339904	57	3971
2026-01-28 00:33:59.33	42.04	57.50	-43.7	-44.7	22.6	0.00e+00	0	43	0	641728512	58	4188
2026-01-28 00:34:03.36	43.26	58.98	-43.7	-44.7	22.6	0.00e+00	0	43	0	649068544	58	4161
2026-01-28 00:34:07.39	44.62	60.50	-43.7	-44.7	22.5	0.00e+00	0	43	0	656408576	58	4184
2026-01-28 00:34:11.42	46.16	62.03	-42.3	-43.1	23.8	0.00e+00	0	43	0	663748608	56	3913
2026-01-28 00:34:15.44	47.89	63.57	-43.0	-44.0	23.1	0.00e+00	0	43	0	671088640	56	4324
2026-01-28 00:34:19.48	49.88	65.13	-43.1	-44.1	23.1	0.00e+00	0	43	0	678428672	57	4106
2026-01-28 00:34:23.50	52.15	66.69	-44.5	-45.6	21.9	0.00e+00	0	43	0	686817280	59	4387
2026-01-28 00:34:27.53	54.78	68.24	-46.7	-48.2	19.4	0.00e+00	0	43	0	694157312	63	4670
2026-01-28 00:34:31.56	57.84	69.77	-47.1	-48.7	18.8	0.00e+00	0	43	0	701497344	66	4147
2026-01-28 00:34:35.60	61.45	71.26	-48.3	-50.3	17.3	0.00e+00	0	43	0	708837376	68	4454
2026-01-28 00:34:39.63	65.69	72.69	-49.2	-51.5	16.1	0.00e+00	0	43	0	717225984	70	4551
2026-01-28 00:34:43.66	70.71	74.03	-45.8	-47.0	20.3	0.00e+00	0	43	0	724566016	63	4081
2026-01-28 00:34:47.69	76.64	75.25	-46.5	-48.0	19.6	0.00e+00	0	43	0	731906048	63	4567
2026-01-28 00:34:51.73	83.61	76.30	-48.0	-49.8	17.6	0.00e+00	0	43	0	739246080	67	4477
2026-01-28 00:34:55.75	91.59	77.12	-47.0	-48.5	18.9	0.00e+00	0	43	0	746586112	65	4337
2026-01-28 00:34:59.78	100.53	77.68	-49.2	-51.5	16.0	0.00e+00	0	43	0	754974720	70	4583
2026-01-28 00:35:03.81	110.08	77.92	-50.6	-53.8	13.8	2.05e-05	0	43	0	762314752	72	5336
2026-01-28 00:35:07.84	119.75	77.83	-47.6	-49.3	18.1	0.00e+00	0	43	0	769654784	67	4199
2026-01-28 00:35:11.87	129.03	77.42	-50.4	-53.7	13.7	4.11e-05	0	43	0	776994816	72	5225
2026-01-28 00:35:15.90	137.49	76.71	-49.0	-51.3	16.4	0.00e+00	0	43	0	785383424	68	4989
2026-01-28 00:35:19.93	144.93	75.75	-47.2	-48.8	18.6	0.00e+00	0	43	0	792723456	66	4213
2026-01-28 00:35:23.96	151.33	74.61	-47.2	-48.9	18.5	0.00e+00	0	43	0	800063488	66	4244
2026-01-28 00:35:27.99	156.76	73.32	-45.4	-46.6	20.7	0.00e+00	0	43	0	807403520	62	4124
2026-01-28 00:35:32.02	161.34	71.93	-47.4	-49.2	18.2	0.00e+00	0	43	0	814743552	65	4671
2026-01-28 00:35:36.05	165.22	70.46	-50.5	-54.0	13.4	4.73e-05	0	43	0	822083584	72	5411
2026-01-28 00:35:40.08	168.52	68.94	-47.3	-49.0	18.4	0.00e+00	0	43	0	830472192	65	4583
2026-01-28 00:35:44.11	171.35	67.40	-45.7	-47.0	20.3	0.00e+00	0	43	0	837812224	62	4295
2026-01-28 00:35:48.13	173.77	65.85	-42.9	-43.8	23.2	0.00e+00	0	43	0	845152256	57	3988
2026-01-28 00:35:52.16	175.88	64.28	-42.2	-43.1	23.9	0.00e+00	0	43	0	852492288	56	3876
2026-01-28 00:35:56.20	177.73	62.72	-44.2	-45.3	22.0	0.00e+00	0	43	0	860880896	59	4240
2026-01-28 00:36:00.23	179.36	61.18	-44.2	-45.3	22.1	0.00e+00	0	43	0	868220928	59	4200
2026-01-28 00:36:04.26	180.79	59.65	-45.1	-46.2	20.8	0.00e+00	0	43	0	875560960	62	3957
2026-01-28 00:36:08.29	182.08	58.15	-46.1	-47.6	19.7	0.00e+00	0	43	0	882900992	62	4599
2026-01-28 00:36:12.32	183.22	56.68	-44.1	-45.2	22.1	0.00e+00	0	43	0	890241024	59	4168
2026-01-28 00:36:16.35	184.26	55.23	-45.5	-46.9	20.3	0.00e+00	0	43	0	898629632	61	4533
2026-01-28 00:36:20.37	185.19	53.81	-45.4	-46.7	20.5	0.00e+00	0	43	0	905969664	61	4396
2026-01-28 00:36:24.40	186.04	52.43	-44.5	-45.6	21.3	0.00e+00	0	43	0	913309696	60	4107
2026-01-28 00:36:28.44	186.82	51.07	-47.1	-48.7	18.4	0.00e+00	0	43	0	920649728	65	4428
2026-01-28 00:36:32.47	187.53	49.75	-46.1	-47.5	19.6	0.00e+00	0	43	0	927989760	64	4087
2026-01-28 00:36:36.49	188.19	48.47	-47.9	-49.7	17.7	0.00e+00	0	43	0	935329792	66	4690
2026-01-28 00:36:40.52	188.79	47.22	-46.2	-47.6	19.6	0.00e+00	0	43	0	943718400	63	4380
2026-01-28 00:36:44.55	189.35	45.99	-50.9	-55.0	12.4	1.81e-04	0	43	0	951058432	73	5732
2026-01-28 00:36:48.58	189.87	44.81	-46.2	-47.6	19.4	0.00e+00	0	43	0	958398464	64	4123
2026-01-28 00:36:52.61	190.36	43.65	-45.9	-47.3	19.9	0.00e+00	0	43	0	965738496	62	4468
2026-01-28 00:36:56.64	190.81	42.53	-47.6	-49.5	17.8	0.00e+00	0	43	0	974127104	67	4336
2026-01-28 00:37:00.67	191.23	41.44	-44.3	-45.4	21.6	0.00e+00	0	43	0	981467136	60	4009
2026-01-28 00:37:04.70	191.63	40.37	-45.8	-47.2	19.9	0.00e+00	0	43	0	988807168	63	4170
2026-01-28 00:37:08.74	192.00	39.34	-45.2	-46.4	20.5	0.00e+00	0	43	0	996147200	61	4281
2026-01-28 00:37:12.76	192.35	38.34	-47.4	-49.2	17.9	0.00e+00	0	43	0	1003487232	65	4680
2026-01-28 00:37:16.79	192.69	37.36	-47.4	-49.2	17.9	0.00e+00	0	43	0	1011875840	65	4678
2026-01-28 00:37:20.81	193.00	36.42	-46.9	-48.6	18.3	0.00e+00	0	43	0	1019215872	65	4384
2026-01-28 00:37:24.84	193.30	35.49	-46.7	-48.3	18.7	0.00e+00	0	43	0	1026555904	65	4203
2026-01-28 00:37:28.87	193.58	34.60	-44.9	-46.0	20.8	0.00e+00	0	43	0	1033895936	60	4332
2026-01-28 00:37:32.90	193.85	33.72	-47.7	-49.6	17.4	0.00e+00	0	43	0	1041235968	65	4903
2026-01-28 00:37:36.93	194.10	32.87	-49.0	-51.4	15.8	0.00e+00	0	43	0	1049624576	69	4787
2026-01-28 00:37:40.96	194.34	32.05	-47.9	-49.8	17.2	0.00e+00	0	43	0	1056964608	67	4479
2026-01-28 00:37:44.99	194.58	31.24	-46.5	-48.0	19.0	0.00e+00	0	43	0	1064304640	64	4298
2026-01-28 00:37:49.03	194.80	30.45	-45.3	-46.5	20.3	0.00e+00	0	43	0	1071644672	62	4088
2026-01-28 00:37:53.06	195.01	29.69	-45.3	-46.6	20.2	0.00e+00	0	43	0	1078984704	61	4376
2026-01-28 00:37:57.09	195.21	28.95	-46.7	-48.3	18.7	0.00e+00	0	43	0	1087373312	63	4733
2026-01-28 00:38:01.12	195.41	28.22	-48.4	-50.7	16.2	0.00e+00	0	43	0	1094713344	67	4972
2026-01-28 00:38:05.15	195.59	27.52	-47.5	-49.4	17.4	0.00e+00	0	43	0	1102053376	67	4267
2026-01-28 00:38:09.19	195.77	26.82	-46.0	-47.4	19.4	0.00e+00	0	43	0	1109393408	63	4272
2026-01-28 00:38:13.22	195.95	26.15	-45.1	-46.4	20.2	0.00e+00	0	43	0	1117782016	62	4045
2026-01-28 00:38:17.24	196.11	25.50	-44.8	-46.0	20.6	0.00e+00	0	43	0	1125122048	61	4095
2026-01-28 00:38:21.26	196.27	24.86	-44.7	-45.9	20.6	0.00e+00	0	43	0	1132462080	61	4032
2026-01-28 00:38:25.29	196.42	24.23	-44.0	-45.1	21.4	0.00e+00	0	43	0	1139802112	60	3898
2026-01-28 00:38:29.32	196.57	23.62	-43.7	-44.7	22.0	0.00e+00	0	43	0	1147142144	59	3957
2026-01-28 00:38:33.34	196.72	23.03	-44.0	-45.1	21.6	0.00e+00	0	43	0	1154482176	59	4140
2026-01-28 00:38:37.38	196.86	22.44	-44.4	-45.6	20.9	0.00e+00	0	43	0	1162870784	60	4117
2026-01-28 00:38:41.40	196.99	21.87	-45.2	-46.5	20.1	0.00e+00	0	43	0	1170210816	60	4589
2026-01-28 00:38:45.43	197.12	21.31	-44.8	-46.1	20.4	0.00e+00	0	43	0	1177550848	61	4110
2026-01-28 00:38:49.46	197.25	20.77	-44.4	-45.8	20.0	6.63e-05	0	43	0	1184890880	60	4205
2026-01-28 00:38:53.49	197.37	20.23	-44.8	-46.1	20.5	0.00e+00	0	43	0	1192230912	60	4342
2026-01-28 00:38:57.53	197.49	19.70	-45.0	-46.3	20.2	0.00e+00	0	43	0	1200619520	60	4475
2026-01-28 00:39:01.55	197.60	19.19	-44.9	-46.2	20.3	0.00e+00	0	43	0	1207959552	60	4412
2026-01-28 00:39:05.58	197.72	18.69	-44.6	-45.9	20.5	0.00e+00	0	43	0	1215299584	60	4277
2026-01-28 00:39:09.61	197.83	18.20	-44.5	-45.7	20.6	0.00e+00	0	43	0	1222639616	60	4189
2026-01-28 00:39:13.63	197.93	17.71	-44.7	-46.0	20.4	0.00e+00	0	43	0	1231028224	60	4296
2026-01-28 00:39:17.66	198.03	17.24	-44.7	-46.0	20.3	0.00e+00	0	43	0	1238368256	60	4334
2026-01-28 00:39:21.69	198.14	16.78	-45.0	-46.4	20.0	0.00e+00	0	43	0	1245708288	60	4512
2026-01-28 00:39:25.73	198.23	16.32	-45.0	-46.3	20.1	0.00e+00	0	43	0	1253048320	60	4486
2026-01-28 00:39:29.76	198.33	15.87	-45.2	-46.6	19.8	0.00e+00	0	43	0	1260388352	61	4357
2026-01-28 00:39:33.79	198.42	15.43	-45.2	-46.6	19.7	0.00e+00	0	43	0	1267728384	61	4391
2026-01-28 00:39:37.82	198.51	15.00	-45.6	-47.1	19.3	0.00e+00	0	43	0	1276116992	61	4601
2026-01-28 00:39:41.85	198.60	14.57	-45.6	-47.1	19.3	0.00e+00	0	43	0	1283457024	62	4354
2026-01-28 00:39:45.88	198.69	14.15	-45.3	-47.2	18.3	1.05e-02	0	43	0	1290797056	62	4410
2026-01-28 00:39:49.91	198.77	13.74	-45.3	-47.1	18.3	1.09e-02	0	43	0	1298137088	62	4383
2026-01-28 00:39:53.94	198.86	13.34	-45.5	-47.1	18.3	1.07e-02	0	43	0	1306525696	62	4385
2026-01-28 00:39:57.97	198.94	12.94	-45.5	-47.0	19.4	0.00e+00	0	43	0	1313865728	62	4293
2026-01-28 00:40:02.00	199.02	12.55	-45.4	-46.8	19.4	0.00e+00	0	43	0	1321205760	62	4241
2026-01-28 00:40:06.04	199.09	12.17	-45.4	-46.8	19.4	0.00e+00	0	43	0	1328545792	62	4233
2026-01-28 00:40:10.07	199.17	11.79	-45.4	-46.9	19.4	0.00e+00	0	43	0	1335885824	62	4248
2026-01-28 00:40:14.10	199.24	11.41	-45.6	-47.1	19.1	0.00e+00	0	43	0	1344274432	62	4391
2026-01-28 00:40:18.12	199.32	11.05	-45.6	-47.2	19.1	0.00e+00	0	43	0	1351614464	62	4397
2026-01-28 00:40:22.15	199.39	10.69	-45.6	-47.1	19.1	0.00e+00	0	43	0	1358954496	62	4356
2026-01-28 00:40:26.18	199.46	10.33	-45.9	-47.5	18.8	0.00e+00	0	43	0	1366294528	62	4557
2026-01-28 00:40:30.21	199.53	9.98	-45.9	-47.5	18.7	0.00e+00	0	43	0	1374683136	62	4566
2026-01-28 00:40:34.25	199.59	9.63	-45.9	-47.5	18.6	0.00e+00	0	43	0	1382023168	62	4584
2026-01-28 00:40:38.28	199.66	9.29	-46.0	-47.6	18.5	0.00e+00	0	43	0	1389363200	62	4651
2026-01-28 00:40:42.31	199.72	8.95	-46.1	-47.7	18.4	0.00e+00	0	43	0	1396703232	63	4421
2026-01-28 00:40:46.34	199.79	8.62	-46.1	-47.8	18.4	0.00e+00	0	43	0	1404043264	63	4449
2026-01-28 00:40:50.37	199.85	8.29	-46.1	-47.7	18.3	0.00e+00	0	43	0	1411383296	63	4437
2026-01-28 00:40:54.40	199.91	7.96	-46.2	-47.9	18.2	0.00e+00	0	43	0	1419771904	63	4524
2026-01-28 00:40:58.43	199.97	7.64	-46.2	-47.9	18.2	0.00e+00	0	43	0	1427111936	63	4517
2026-01-28 00:41:02.46	200.03	7.33	-46.3	-48.0	18.0	0.00e+00	0	43	0	1434451968	63	4596
2026-01-28 00:41:06.49	200.09	7.01	-46.1	-47.8	18.2	0.00e+00	0	43	0	1441792000	63	4478
2026-01-28 00:41:10.51	200.15	6.71	-46.4	-48.2	17.8	0.00e+00	0	43	0	1450180608	63	4659
2026-01-28 00:41:14.54	200.21	6.40	-46.5	-48.3	17.7	0.00e+00	0	43	0	1457520640	63	4737
2026-01-28 00:41:18.57	200.26	6.10	-46.6	-48.5	17.3	0.00e+00	0	43	0	1464860672	64	4575
2026-01-28 00:41:22.61	200.32	5.80	-46.7	-48.7	17.1	0.00e+00	0	43	0	1472200704	64	4676
2026-01-28 00:41:26.63	200.37	5.51	-46.6	-48.6	17.3	0.00e+00	0	43	0	1479540736	64	4628
2026-01-28 00:41:30.67	200.42	5.22	-51.4	-65.9	3.8	1.49e+00	0	43	104	1480589312	74	19020
2026-01-28 00:41:34.69	200.48	4.93	-52.2	-67.1	3.8	1.49e+00	0	43	104	1480589312	75	20597
2026-01-28 00:41:38.73	200.53	4.64	-53.3	-68.2	3.8	1.49e+00	0	43	104	1480589312	77	20946
2026-01-28 00:41:42.76	200.58	4.36	-53.6	-68.5	3.8	1.49e+00	0	43	104	1480589312	77	21655
2026-01-28 00:41:46.79	200.63	4.08	-53.6	-68.6	3.8	1.49e+00	0	44	104	1480589312	77	21839
2026-01-28 00:41:50.82	200.68	3.80	-53.6	-68.6	3.8	1.49e+00	0	44	104	1480589312	77	21779
2026-01-28 00:41:54.85	200.73	3.53	-53.3	-68.3	3.9	1.49e+00	0	43	104	1480589312	77	21148
2026-01-28 00:41:58.88	200.78	3.26	-53.3	-68.3	3.8	1.49e+00	0	43	104	1480589312	77	21029
2026-01-28 00:42:02.91	200.82	2.99	-52.7	-67.6	3.8	1.49e+00	0	43	104	1480589312	77	19529
2026-01-28 00:42:06.94	200.87	2.72	-52.6	-67.5	3.8	1.49e+00	0	43	104	1480589312	77	19251
2026-01-28 00:42:10.98	200.92	2.46	-52.6	-67.5	3.8	1.49e+00	0	44	104	1480589312	76	20410
2026-01-28 00:42:15.01	200.96	2.20	-52.5	-67.5	3.8	1.49e+00	0	43	104	1480589312	76	20315
2026-01-28 00:42:19.04	201.01	1.94	-52.5	-67.4	3.8	1.49e+00	0	44	104	1480589312	76	20292

#Closed at: 2026-01-28 00:42:21
#Recorded file [1480 MB]: D:/lorett/data/31041_260128_032748.dat