passes_logs/2026/01/28/R3.2S_Murmansk/R3.2S_Murmansk__20260128_235007_AQUA_rec.log

#Pass ID: 20260128_235007_AQUA
#Satellite: AQUA
#Configuration: AQUA
#almurnet v.1.7.20251203
#Start time: 2026-01-28 23:50:09

#Version: 2.2.20231116
#Station: R3.2S_Murmansk
#Location: 33.079688 lon 68.888172 lat
#TLE: 1 27424U 02022A   26027.96263068  .00001625  00000+0  33481-3 0  9997
#TLE: 2 27424  98.4102 354.6095 0001839  63.4368   7.7786 14.61867353262782

#Time	Az	El	Level	Level2	SNR	BER	BlckErr	Temp	State	Recorded	gain1	gain2
2026-01-28 23:50:09.53	21.46	2.11	-53.4	-71.2	3.8	7.44e-01	0	40	0	0	78	27835
2026-01-28 23:50:12.54	21.73	2.27	-53.4	-71.1	3.8	7.46e-01	0	40	104	0	77	29083
2026-01-28 23:50:15.55	22.01	2.43	-53.4	-70.8	3.8	7.46e-01	0	40	104	0	77	28302
2026-01-28 23:50:18.57	22.29	2.60	-53.3	-70.8	3.8	7.47e-01	0	40	104	0	77	28186
2026-01-28 23:50:21.60	22.58	2.76	-53.3	-70.7	3.8	7.48e-01	0	40	104	0	77	27907
2026-01-28 23:50:24.62	22.87	2.92	-53.3	-70.6	3.8	7.43e-01	0	40	104	0	77	27473
2026-01-28 23:50:27.64	23.16	3.09	-53.3	-70.0	3.8	7.44e-01	0	41	104	0	77	25566
2026-01-28 23:50:30.67	23.46	3.25	-53.3	-69.9	3.8	7.45e-01	0	41	104	0	77	25392
2026-01-28 23:50:33.69	23.75	3.42	-53.3	-69.8	3.8	7.42e-01	0	41	104	0	77	25014
2026-01-28 23:50:36.71	24.06	3.58	-53.3	-69.1	3.9	7.44e-01	0	41	104	0	77	23086
2026-01-28 23:50:39.73	24.36	3.75	-53.3	-69.3	3.8	7.46e-01	0	41	104	0	77	23736
2026-01-28 23:50:42.76	24.67	3.92	-53.3	-69.5	3.8	7.47e-01	0	41	104	0	77	24407
2026-01-28 23:50:45.78	24.99	4.08	-53.3	-69.6	3.8	7.45e-01	0	41	104	0	77	24443
2026-01-28 23:50:48.81	25.31	4.25	-53.1	-65.8	4.9	7.14e-01	0	41	104	0	77	15880
2026-01-28 23:50:51.83	25.63	4.42	-52.9	-63.2	6.6	6.67e-01	184	41	0	1572864	77	11729
2026-01-28 23:50:54.85	25.95	4.59	-50.6	-54.6	15.4	6.01e-01	0	41	0	6815744	73	5497
2026-01-28 23:50:57.88	26.28	4.76	-46.6	-48.4	21.7	5.99e-01	0	41	0	12582912	65	4267
2026-01-28 23:51:00.90	26.62	4.93	-47.0	-49.0	21.3	6.00e-01	0	41	0	18350080	64	4815
2026-01-28 23:51:03.92	26.95	5.10	-50.0	-53.2	17.5	5.99e-01	0	41	0	23592960	70	5560
2026-01-28 23:51:06.95	27.30	5.27	-47.3	-49.2	21.1	6.05e-01	0	41	0	27787264	66	4431
2026-01-28 23:51:09.98	27.64	5.44	-47.3	-49.2	21.2	6.03e-01	0	41	0	33554432	66	4394
2026-01-28 23:51:13.00	27.99	5.61	-46.8	-48.5	21.9	6.02e-01	0	41	0	38797312	64	4594
2026-01-28 23:51:16.02	28.35	5.78	-46.3	-47.9	22.5	6.04e-01	0	41	0	44564480	64	4268
2026-01-28 23:51:19.04	28.70	5.96	-46.3	-47.9	22.4	6.04e-01	0	41	0	50331648	64	4269
2026-01-28 23:51:22.07	29.07	6.13	-46.1	-47.7	22.8	6.04e-01	0	41	0	56098816	64	4155
2026-01-28 23:51:25.09	29.44	6.30	-46.1	-47.7	22.7	6.02e-01	0	41	0	61865984	64	4187
2026-01-28 23:51:28.11	29.81	6.48	-46.2	-47.8	22.6	6.03e-01	0	41	0	67108864	64	4209
2026-01-28 23:51:31.13	30.18	6.65	-46.2	-47.8	22.8	6.04e-01	0	41	0	72876032	64	4196
2026-01-28 23:51:34.15	30.57	6.82	-45.9	-47.5	23.1	6.02e-01	0	41	0	78643200	63	4298
2026-01-28 23:51:37.18	30.95	7.00	-46.2	-47.8	22.8	6.03e-01	0	42	0	84410368	63	4453
2026-01-28 23:51:40.20	31.34	7.17	-46.0	-47.5	23.2	6.06e-01	0	42	0	90177536	63	4309
2026-01-28 23:51:43.23	31.74	7.35	-45.9	-47.5	23.2	6.04e-01	0	41	0	95944704	63	4297
2026-01-28 23:51:46.26	32.14	7.53	-45.8	-47.3	23.3	6.03e-01	0	41	0	101187584	63	4216
2026-01-28 23:51:49.28	32.55	7.70	-45.7	-47.2	23.3	6.02e-01	0	41	0	106954752	63	4191
2026-01-28 23:51:52.30	32.96	7.88	-45.9	-47.4	23.3	6.04e-01	0	42	0	112721920	63	4279
2026-01-28 23:51:55.33	33.38	8.05	-45.9	-47.4	23.3	6.06e-01	0	42	0	118489088	63	4256
2026-01-28 23:51:58.36	33.80	8.23	-45.4	-46.9	23.7	6.05e-01	0	42	0	124256256	62	4254
2026-01-28 23:52:01.38	34.23	8.41	-45.6	-47.0	23.7	6.03e-01	0	42	0	129499136	62	4325
2026-01-28 23:52:04.40	34.66	8.58	-45.4	-46.8	24.0	6.02e-01	0	42	0	135266304	62	4205
2026-01-28 23:52:07.42	35.10	8.76	-45.5	-47.0	23.8	6.03e-01	0	42	0	141033472	62	4296
2026-01-28 23:52:10.45	35.55	8.94	-45.5	-46.9	23.8	6.03e-01	0	42	0	146800640	62	4256
2026-01-28 23:52:13.47	36.00	9.11	-45.4	-46.8	24.0	6.03e-01	0	42	0	152567808	62	4209
2026-01-28 23:52:16.48	36.45	9.29	-45.3	-46.7	24.1	6.03e-01	0	42	0	157810688	62	4149
2026-01-28 23:52:19.51	36.91	9.47	-45.3	-46.7	24.1	6.04e-01	0	42	0	163577856	62	4163
2026-01-28 23:52:22.53	37.38	9.64	-45.3	-46.7	24.1	6.03e-01	0	42	0	169345024	62	4187
2026-01-28 23:52:25.57	37.85	9.82	-45.2	-46.5	24.3	6.03e-01	0	42	0	175112192	62	4098
2026-01-28 23:52:28.59	38.33	9.99	-45.1	-46.5	24.4	6.03e-01	0	42	0	180879360	62	4054
2026-01-28 23:52:31.61	38.82	10.17	-45.1	-46.5	24.3	6.04e-01	0	42	0	186122240	62	4074
2026-01-28 23:52:34.64	39.31	10.35	-45.1	-46.4	24.4	6.03e-01	0	42	0	192413696	62	4046
2026-01-28 23:52:37.65	39.81	10.52	-45.1	-46.4	24.4	6.03e-01	0	42	0	197656576	62	4048
2026-01-28 23:52:40.68	40.31	10.69	-44.9	-46.2	24.6	6.03e-01	0	42	0	203423744	61	4190
2026-01-28 23:52:43.70	40.82	10.87	-44.8	-46.1	24.8	6.03e-01	0	42	0	209190912	61	4113
2026-01-28 23:52:46.73	41.34	11.04	-44.8	-46.1	24.8	6.03e-01	0	42	0	214958080	61	4125
2026-01-28 23:52:49.75	41.86	11.21	-44.8	-46.1	24.6	6.03e-01	0	42	0	220725248	61	4143
2026-01-28 23:52:52.78	42.39	11.39	-44.8	-46.1	24.8	6.04e-01	0	42	0	225968128	61	4131
2026-01-28 23:52:55.81	42.93	11.56	-44.7	-46.0	24.9	6.02e-01	0	42	0	231735296	61	4081
2026-01-28 23:52:58.83	43.47	11.73	-44.6	-45.8	25.1	6.05e-01	0	42	0	237502464	61	3998
2026-01-28 23:53:01.85	44.02	11.90	-44.7	-46.0	24.9	6.04e-01	0	42	0	243269632	61	4057
2026-01-28 23:53:04.87	44.58	12.07	-44.6	-45.8	25.0	6.02e-01	0	42	0	249036800	61	4003
2026-01-28 23:53:07.89	45.14	12.24	-44.6	-45.9	25.0	6.05e-01	0	42	0	254279680	61	4024
2026-01-28 23:53:10.92	45.71	12.40	-44.4	-45.6	25.3	6.03e-01	0	42	0	260046848	60	4137
2026-01-28 23:53:13.93	46.28	12.57	-44.4	-45.7	25.2	6.05e-01	0	42	0	265814016	60	4164
2026-01-28 23:53:16.96	46.87	12.73	-44.4	-45.6	25.3	6.03e-01	0	42	0	271581184	60	4132
2026-01-28 23:53:19.98	47.46	12.89	-44.3	-45.5	25.3	6.03e-01	0	42	0	277348352	60	4095
2026-01-28 23:53:23.00	48.05	13.06	-44.4	-45.7	25.3	6.03e-01	0	42	0	282591232	60	4151
2026-01-28 23:53:26.02	48.66	13.22	-44.4	-45.6	25.3	6.05e-01	0	42	0	288358400	60	4128
2026-01-28 23:53:29.04	49.27	13.37	-44.3	-45.5	25.4	6.04e-01	0	42	0	294125568	60	4079
2026-01-28 23:53:32.07	49.88	13.53	-44.4	-45.7	25.2	6.06e-01	0	42	0	299892736	60	4178
2026-01-28 23:53:35.09	50.51	13.69	-44.4	-45.7	25.2	6.04e-01	0	42	0	305659904	60	4164
2026-01-28 23:53:38.12	51.14	13.84	-44.5	-45.7	25.2	6.04e-01	0	42	0	310902784	60	4185
2026-01-28 23:53:41.13	51.77	13.99	-44.2	-45.4	25.4	6.02e-01	0	42	0	316669952	60	4022
2026-01-28 23:53:44.15	52.42	14.14	-44.2	-45.5	25.5	6.05e-01	0	42	0	322437120	60	4053
2026-01-28 23:53:47.18	53.07	14.28	-44.2	-45.4	25.4	6.02e-01	0	42	0	328204288	60	4031
2026-01-28 23:53:50.20	53.73	14.43	-44.2	-45.4	25.5	6.06e-01	0	42	0	333971456	60	4031
2026-01-28 23:53:53.22	54.39	14.57	-44.1	-45.4	25.6	6.02e-01	0	42	0	339214336	60	4005
2026-01-28 23:53:56.24	55.06	14.71	-44.1	-45.3	25.6	6.05e-01	0	42	0	344981504	60	3975
2026-01-28 23:53:59.26	55.74	14.85	-44.1	-45.3	25.5	6.05e-01	0	42	0	350748672	60	4001
2026-01-28 23:54:02.28	56.42	14.98	-44.1	-45.3	25.6	6.04e-01	0	42	0	356515840	60	4000
2026-01-28 23:54:05.31	57.11	15.11	-44.0	-45.2	25.7	6.04e-01	0	42	0	362283008	60	3951
2026-01-28 23:54:08.33	57.81	15.24	-44.3	-45.5	25.4	6.01e-01	0	42	0	368050176	59	4324
2026-01-28 23:54:11.36	58.51	15.36	-44.2	-45.5	25.4	6.04e-01	0	42	0	373293056	59	4293
2026-01-28 23:54:14.38	59.22	15.49	-44.2	-45.4	25.4	6.05e-01	0	42	0	379060224	59	4261
2026-01-28 23:54:17.40	59.94	15.60	-44.2	-45.5	25.3	6.02e-01	0	42	0	384827392	59	4299
2026-01-28 23:54:20.42	60.66	15.72	-44.2	-45.4	25.4	6.03e-01	0	42	0	390594560	59	4266
2026-01-28 23:54:23.45	61.39	15.83	-44.3	-45.5	25.3	6.03e-01	0	42	0	396361728	59	4325
2026-01-28 23:54:26.46	62.11	15.94	-44.2	-45.4	25.4	6.05e-01	0	42	0	401604608	59	4266
2026-01-28 23:54:29.48	62.85	16.04	-44.1	-45.3	25.5	6.01e-01	0	42	0	407371776	59	4206
2026-01-28 23:54:32.51	63.60	16.14	-44.2	-45.4	25.4	6.03e-01	0	42	0	413138944	59	4257
2026-01-28 23:54:35.53	64.34	16.24	-44.2	-45.5	25.4	6.05e-01	0	42	0	418906112	59	4295
2026-01-28 23:54:38.55	65.10	16.33	-44.2	-45.5	25.4	6.02e-01	0	42	0	424673280	59	4302
2026-01-28 23:54:41.58	65.86	16.42	-44.2	-45.4	25.5	6.04e-01	0	42	0	429916160	59	4248
2026-01-28 23:54:44.60	66.62	16.50	-44.2	-45.4	25.4	6.02e-01	0	42	0	435683328	59	4287
2026-01-28 23:54:47.62	67.38	16.58	-44.2	-45.4	25.6	6.03e-01	0	42	0	441450496	59	4248
2026-01-28 23:54:50.64	68.15	16.66	-44.1	-45.3	25.6	6.03e-01	0	42	0	447217664	59	4226
2026-01-28 23:54:53.67	68.93	16.73	-44.1	-45.3	25.5	6.02e-01	0	42	0	452984832	59	4228
2026-01-28 23:54:56.69	69.71	16.80	-44.2	-45.4	25.5	6.02e-01	0	42	0	458227712	59	4289
2026-01-28 23:54:59.72	70.49	16.86	-44.1	-45.4	25.5	6.03e-01	0	42	0	463994880	59	4244
2026-01-28 23:55:02.74	71.28	16.91	-44.1	-45.3	24.9	6.03e-01	0	42	0	469762048	59	4218
2026-01-28 23:55:05.76	72.06	16.97	-44.1	-45.3	25.6	6.04e-01	0	42	0	475529216	59	4195
2026-01-28 23:55:08.78	72.85	17.01	-44.1	-45.3	25.6	6.02e-01	0	42	0	481296384	59	4197
2026-01-28 23:55:11.80	73.65	17.06	-44.2	-45.4	25.5	6.05e-01	0	42	0	486539264	59	4258
2026-01-28 23:55:14.82	74.44	17.09	-44.3	-45.5	25.4	6.05e-01	0	42	0	492306432	59	4316
2026-01-28 23:55:17.84	75.24	17.13	-44.1	-45.3	25.6	6.02e-01	0	42	0	498073600	59	4226
2026-01-28 23:55:20.86	76.04	17.15	-44.1	-45.3	25.6	6.03e-01	0	42	0	503840768	59	4212
2026-01-28 23:55:23.89	76.84	17.17	-44.1	-45.3	25.6	6.06e-01	0	42	0	509607936	59	4209
2026-01-28 23:55:26.91	77.64	17.19	-44.1	-45.3	25.6	6.04e-01	0	42	0	514850816	59	4213
2026-01-28 23:55:29.93	78.44	17.20	-44.1	-45.3	25.7	6.03e-01	0	42	0	521142272	59	4218
2026-01-28 23:55:32.95	79.25	17.21	-44.1	-45.3	25.6	6.03e-01	0	42	0	526385152	59	4237
2026-01-28 23:55:35.97	80.05	17.21	-44.1	-45.2	25.7	6.02e-01	0	42	0	532152320	59	4192
2026-01-28 23:55:39.00	80.86	17.21	-44.0	-45.2	25.7	6.03e-01	0	42	0	537919488	59	4184
2026-01-28 23:55:42.02	81.66	17.20	-44.1	-45.3	25.6	6.04e-01	0	42	0	543162368	59	4228
2026-01-28 23:55:45.05	82.46	17.19	-44.1	-45.3	25.6	6.02e-01	0	42	0	549453824	59	4213
2026-01-28 23:55:48.07	83.26	17.17	-44.0	-45.2	25.7	6.04e-01	0	42	0	554696704	59	4159
2026-01-28 23:55:51.09	84.06	17.14	-44.2	-45.4	25.5	6.04e-01	0	42	0	560463872	59	4264
2026-01-28 23:55:54.12	84.87	17.11	-44.0	-45.2	25.7	6.03e-01	0	42	0	566231040	59	4151
2026-01-28 23:55:57.14	85.66	17.08	-44.0	-45.2	25.7	6.02e-01	0	42	0	571998208	59	4164
2026-01-28 23:56:00.16	86.46	17.04	-43.9	-45.1	25.7	6.05e-01	0	42	0	577765376	59	4140
2026-01-28 23:56:03.19	87.25	16.99	-44.1	-45.3	25.6	6.04e-01	0	42	0	583008256	59	4205
2026-01-28 23:56:06.21	88.04	16.94	-44.0	-45.2	25.7	6.04e-01	0	42	0	588775424	59	4166
2026-01-28 23:56:09.23	88.83	16.89	-43.9	-45.1	25.7	6.04e-01	0	42	0	594542592	59	4129
2026-01-28 23:56:12.25	89.61	16.83	-44.0	-45.2	25.7	6.05e-01	0	42	0	600309760	59	4158
2026-01-28 23:56:15.27	90.40	16.77	-43.8	-45.0	25.8	6.03e-01	0	42	0	606076928	59	4079
2026-01-28 23:56:18.30	91.18	16.70	-44.1	-45.3	25.5	6.02e-01	0	42	0	611319808	59	4205
2026-01-28 23:56:21.32	91.95	16.63	-44.0	-45.2	25.6	6.05e-01	0	42	0	617086976	59	4156
2026-01-28 23:56:24.35	92.72	16.55	-43.9	-45.1	25.7	6.05e-01	0	42	0	622854144	59	4123
2026-01-28 23:56:27.37	93.49	16.47	-43.8	-45.0	25.8	6.06e-01	0	42	0	628621312	59	4090
2026-01-28 23:56:30.40	94.25	16.38	-43.9	-45.1	25.8	6.05e-01	0	42	0	634388480	59	4116
2026-01-28 23:56:33.42	95.01	16.29	-43.9	-45.1	25.8	6.04e-01	0	42	0	639631360	59	4118
2026-01-28 23:56:36.45	95.76	16.20	-44.0	-45.2	25.7	6.04e-01	0	42	0	645398528	59	4152
2026-01-28 23:56:39.47	96.51	16.10	-43.8	-45.0	25.8	6.01e-01	0	42	0	651165696	59	4090
2026-01-28 23:56:42.49	97.25	16.00	-43.8	-45.0	25.8	6.03e-01	0	42	0	656932864	59	4079
2026-01-28 23:56:45.51	97.99	15.89	-44.0	-45.2	25.6	6.04e-01	0	42	0	662700032	59	4192
2026-01-28 23:56:48.53	98.72	15.78	-44.0	-45.2	25.8	6.03e-01	0	42	0	668467200	59	4176
2026-01-28 23:56:51.56	99.45	15.67	-43.8	-45.0	25.9	6.05e-01	0	42	0	673710080	59	4077
2026-01-28 23:56:54.58	100.17	15.55	-43.9	-45.1	25.8	6.02e-01	0	42	0	679477248	59	4138
2026-01-28 23:56:57.61	100.88	15.43	-44.0	-45.2	25.8	6.03e-01	0	42	0	685244416	59	4165
2026-01-28 23:57:00.63	101.59	15.30	-43.8	-45.0	25.8	6.02e-01	0	42	0	691011584	59	4082
2026-01-28 23:57:03.66	102.29	15.18	-44.0	-45.2	25.7	6.02e-01	0	42	0	696778752	59	4167
2026-01-28 23:57:06.68	102.99	15.05	-44.0	-45.2	25.7	6.02e-01	0	42	0	702021632	59	4155
2026-01-28 23:57:09.71	103.68	14.91	-44.1	-45.3	25.6	6.03e-01	0	42	0	707788800	59	4237
2026-01-28 23:57:12.73	104.36	14.78	-44.1	-45.3	25.5	6.02e-01	0	42	0	713555968	59	4221
2026-01-28 23:57:15.75	105.04	14.64	-44.3	-45.6	25.4	6.02e-01	0	42	0	719323136	59	4350
2026-01-28 23:57:18.78	105.71	14.50	-44.1	-45.3	25.6	6.03e-01	0	42	0	725090304	59	4194
2026-01-28 23:57:21.80	106.38	14.35	-44.1	-45.3	25.6	6.04e-01	0	42	0	730333184	59	4207
2026-01-28 23:57:24.83	107.03	14.21	-44.0	-45.2	25.6	6.05e-01	0	42	0	736100352	59	4178
2026-01-28 23:57:27.85	107.68	14.06	-44.1	-45.4	25.5	6.04e-01	0	42	0	741867520	59	4248
2026-01-28 23:57:30.88	108.33	13.91	-44.1	-45.3	25.5	6.00e-01	0	42	0	747634688	59	4236
2026-01-28 23:57:33.90	108.96	13.76	-44.1	-45.3	25.5	6.05e-01	0	42	0	753401856	59	4201
2026-01-28 23:57:36.92	109.59	13.60	-44.2	-45.4	25.4	6.05e-01	0	42	0	758644736	59	4270
2026-01-28 23:57:39.94	110.22	13.45	-44.1	-45.4	25.5	6.04e-01	0	42	0	764411904	59	4248
2026-01-28 23:57:42.97	110.83	13.29	-44.1	-45.3	25.5	6.03e-01	0	42	0	770179072	59	4223
2026-01-28 23:57:45.99	111.44	13.13	-44.2	-45.4	25.5	6.03e-01	0	42	0	775946240	59	4254
2026-01-28 23:57:49.01	112.04	12.97	-44.3	-45.6	25.2	6.02e-01	0	42	0	781713408	59	4358
2026-01-28 23:57:52.04	112.64	12.80	-44.3	-45.6	25.3	6.04e-01	0	42	0	787480576	59	4347
2026-01-28 23:57:55.06	113.23	12.64	-44.3	-45.5	25.4	6.04e-01	0	42	0	792723456	59	4333
2026-01-28 23:57:58.09	113.81	12.47	-44.4	-45.6	25.3	6.04e-01	0	42	0	798490624	59	4384
2026-01-28 23:58:01.11	114.39	12.30	-44.4	-45.7	25.3	6.04e-01	0	42	0	804257792	59	4402
2026-01-28 23:58:04.13	114.96	12.14	-44.5	-45.8	25.1	6.03e-01	0	42	0	810024960	59	4460
2026-01-28 23:58:07.16	115.52	11.97	-44.4	-45.6	25.1	6.03e-01	0	42	0	815792128	59	4386
2026-01-28 23:58:10.18	116.07	11.80	-44.4	-45.6	25.2	6.04e-01	0	42	0	821035008	59	4364
2026-01-28 23:58:13.20	116.62	11.63	-44.6	-45.8	25.0	6.05e-01	0	42	0	826802176	59	4488
2026-01-28 23:58:16.23	117.16	11.45	-44.6	-45.9	24.9	6.05e-01	0	42	0	832569344	59	4526
2026-01-28 23:58:19.25	117.70	11.28	-44.6	-45.9	25.0	6.03e-01	0	42	0	838336512	60	4259
2026-01-28 23:58:22.27	118.23	11.11	-44.5	-45.7	25.1	6.04e-01	0	42	0	844103680	60	4182
2026-01-28 23:58:25.29	118.75	10.93	-44.5	-45.8	25.1	6.05e-01	0	42	0	849346560	60	4204
2026-01-28 23:58:28.31	119.26	10.76	-44.4	-45.7	25.0	6.04e-01	0	42	0	855113728	60	4177
2026-01-28 23:58:31.33	119.77	10.58	-44.4	-45.7	25.0	6.05e-01	0	42	0	860880896	60	4167
2026-01-28 23:58:34.35	120.27	10.41	-44.5	-45.8	24.8	6.05e-01	0	42	0	866648064	60	4218
2026-01-28 23:58:37.38	120.77	10.23	-44.5	-45.8	24.7	6.02e-01	0	42	0	872415232	60	4212
2026-01-28 23:58:40.40	121.26	10.05	-44.5	-45.9	24.6	6.03e-01	0	42	0	877658112	60	4244
2026-01-28 23:58:43.42	121.74	9.88	-44.5	-45.8	24.7	6.04e-01	0	42	0	883425280	60	4229
2026-01-28 23:58:46.44	122.22	9.70	-44.4	-45.7	24.6	6.04e-01	0	42	0	889192448	60	4189
2026-01-28 23:58:49.47	122.69	9.52	-44.6	-46.0	24.4	6.03e-01	0	42	0	894959616	60	4299
2026-01-28 23:58:52.49	123.16	9.34	-44.8	-46.1	24.4	6.04e-01	0	42	0	900726784	60	4383
2026-01-28 23:58:55.51	123.62	9.17	-44.8	-46.2	24.2	6.03e-01	0	42	0	905969664	60	4392
2026-01-28 23:58:58.54	124.07	8.99	-44.7	-46.1	23.9	6.04e-01	0	42	0	912261120	60	4362
2026-01-28 23:59:01.56	124.52	8.81	-44.6	-46.0	23.7	6.06e-01	0	42	0	917504000	60	4310
2026-01-28 23:59:04.58	124.97	8.63	-44.7	-46.0	23.7	6.04e-01	0	42	0	923271168	60	4310
2026-01-28 23:59:07.61	125.40	8.45	-44.7	-46.1	23.9	6.03e-01	0	42	0	929038336	60	4344
2026-01-28 23:59:10.63	125.83	8.28	-44.8	-46.2	24.1	6.05e-01	0	42	0	934805504	60	4409
2026-01-28 23:59:13.65	126.26	8.10	-44.8	-46.2	24.2	6.05e-01	0	42	0	940572672	60	4423
2026-01-28 23:59:16.68	126.68	7.92	-44.8	-46.2	24.1	6.04e-01	0	42	0	945815552	60	4436
2026-01-28 23:59:19.70	127.10	7.74	-44.8	-46.2	24.1	6.06e-01	0	42	0	951582720	60	4400
2026-01-28 23:59:22.72	127.51	7.57	-44.9	-46.3	23.8	6.05e-01	0	42	0	957349888	60	4462
2026-01-28 23:59:25.74	127.91	7.39	-45.1	-46.5	23.6	6.04e-01	0	42	0	963117056	60	4575
2026-01-28 23:59:28.76	128.31	7.21	-45.3	-46.8	23.3	6.03e-01	0	42	0	968884224	61	4478
2026-01-28 23:59:31.79	128.71	7.04	-45.3	-46.8	23.3	6.05e-01	0	42	0	974127104	61	4466
2026-01-28 23:59:34.81	129.10	6.86	-45.1	-46.6	23.5	6.05e-01	0	42	0	979894272	61	4368
2026-01-28 23:59:37.84	129.48	6.69	-45.3	-46.8	23.3	6.06e-01	0	42	0	985661440	61	4463
2026-01-28 23:59:40.86	129.86	6.51	-45.2	-46.7	23.4	6.04e-01	0	42	0	991428608	61	4427
2026-01-28 23:59:43.88	130.24	6.33	-45.6	-47.1	23.0	6.05e-01	0	42	0	997195776	61	4621
2026-01-28 23:59:46.90	130.61	6.16	-45.4	-46.9	23.2	6.04e-01	0	42	0	1002438656	61	4501
2026-01-28 23:59:49.92	130.97	5.99	-45.5	-47.1	23.0	6.04e-01	0	42	0	1008205824	61	4610
2026-01-28 23:59:52.95	131.34	5.81	-45.6	-47.1	23.0	6.03e-01	0	42	0	1013972992	62	4389
2026-01-28 23:59:55.97	131.69	5.64	-45.5	-47.0	23.1	6.05e-01	0	42	0	1019740160	62	4330
2026-01-28 23:59:58.98	132.04	5.47	-45.4	-47.0	23.1	6.03e-01	0	42	0	1025507328	62	4293
2026-01-29 00:00:02.00	132.39	5.29	-45.6	-47.3	22.7	6.03e-01	0	42	0	1030750208	62	4461
2026-01-29 00:00:05.03	132.74	5.12	-45.6	-47.2	22.6	6.05e-01	0	42	0	1036517376	62	4430
2026-01-29 00:00:08.05	133.08	4.95	-53.0	-70.5	3.7	7.53e-01	0	42	104	1041760256	76	28975
2026-01-29 00:00:11.08	133.41	4.78	-52.1	-71.7	3.8	7.47e-01	0	42	104	1041760256	74	37248
2026-01-29 00:00:14.10	133.74	4.61	-51.9	-72.4	3.9	7.47e-01	0	42	104	1041760256	74	40118
2026-01-29 00:00:17.12	134.07	4.44	-54.0	-72.8	3.8	7.45e-01	0	42	104	1041760256	79	31624
2026-01-29 00:00:20.15	134.39	4.27	-52.6	-72.8	3.8	7.44e-01	0	42	104	1041760256	75	39974
2026-01-29 00:00:23.17	134.71	4.10	-55.4	-73.2	3.8	7.48e-01	0	42	104	1041760256	81	29568
2026-01-29 00:00:26.20	135.03	3.93	-55.6	-73.4	3.8	7.48e-01	0	42	104	1041760256	81	30294
2026-01-29 00:00:29.22	135.34	3.76	-55.6	-73.5	3.8	7.45e-01	0	42	104	1041760256	81	30399
2026-01-29 00:00:32.24	135.65	3.59	-55.7	-73.5	3.8	7.48e-01	0	42	104	1041760256	81	30592
2026-01-29 00:00:35.26	135.95	3.42	-55.9	-73.7	3.8	7.42e-01	0	42	104	1041760256	82	29578
2026-01-29 00:00:38.29	136.26	3.26	-55.8	-73.7	3.8	7.44e-01	0	42	104	1041760256	82	29531
2026-01-29 00:00:41.32	136.55	3.09	-55.8	-73.6	3.8	7.46e-01	0	42	104	1041760256	82	29347
2026-01-29 00:00:44.34	136.85	2.92	-55.8	-73.6	3.8	7.48e-01	0	42	104	1041760256	82	29122
2026-01-29 00:00:47.37	137.14	2.76	-55.7	-73.5	3.8	7.45e-01	0	42	104	1041760256	82	28741
2026-01-29 00:00:50.40	137.43	2.59	-55.5	-73.4	3.8	7.43e-01	0	42	104	1041760256	82	28409
2026-01-29 00:00:53.43	137.71	2.43	-55.4	-73.2	3.8	7.43e-01	0	42	104	1041760256	82	27957
2026-01-29 00:00:56.45	137.99	2.27	-55.2	-73.0	3.8	7.46e-01	0	42	104	1041760256	82	27163
2026-01-29 00:00:59.47	138.27	2.10	-54.7	-72.5	3.8	7.45e-01	0	42	104	1041760256	81	27321

#Closed at: 2026-01-29 00:01:02
#Recorded file [1041 MB]: D:/lorett/data/31041_260129_025009.dat