passes_logs/2026/01/28/R3.2S_Murmansk/R3.2S_Murmansk__20260128_073454_KANOPUS-V_5_rec.log

#Pass ID: 20260128_073454_KANOPUS-V 5
#Satellite: KANOPUS-V 5
#Configuration: KANOPUS-V_8320
#almurnet v.1.7.20251203
#Start time: 2026-01-28 07:34:55

#Version: 2.2.20231116
#Station: R3.2S_Murmansk
#Location: 33.079688 lon 68.888172 lat
#TLE: 1 43876U 18111A   26027.84700365  .00004960  00000+0  21036-3 0  9993
#TLE: 2 43876  97.3676 296.1288 0001839  89.0677 271.0771 15.23563804393425

#Time	Az	El	Level	Level2	SNR	BER	BlckErr	Temp	State	Recorded	gain1	gain2
2026-01-28 07:34:55.84	154.16	2.11	-54.8	-63.6	3.8	7.46e-01	0	41	0	0	80	10359
2026-01-28 07:34:58.86	154.16	2.33	-54.8	-63.6	3.8	7.44e-01	0	41	104	0	80	10366
2026-01-28 07:35:01.89	154.16	2.55	-54.8	-63.6	3.8	7.45e-01	0	41	104	0	80	10372
2026-01-28 07:35:04.91	154.15	2.77	-55.0	-63.8	3.8	7.46e-01	0	41	104	0	80	10613
2026-01-28 07:35:07.93	154.15	2.99	-54.9	-63.7	3.8	7.45e-01	0	42	104	0	80	10474
2026-01-28 07:35:10.96	154.15	3.21	-54.8	-63.6	3.8	7.45e-01	0	41	104	0	80	10322
2026-01-28 07:35:13.99	154.14	3.44	-54.6	-63.5	3.8	7.45e-01	0	41	104	0	80	10240
2026-01-28 07:35:17.01	154.14	3.67	-54.4	-63.2	3.8	7.46e-01	0	42	104	0	80	9938
2026-01-28 07:35:20.04	154.13	3.90	-54.1	-63.0	3.8	7.44e-01	0	42	104	0	80	9612
2026-01-28 07:35:23.06	154.12	4.13	-53.7	-62.5	3.8	7.44e-01	0	42	104	0	79	9706
2026-01-28 07:35:26.09	154.12	4.37	-48.8	-52.0	8.6	6.20e-01	0	42	0	10485760	69	5158
2026-01-28 07:35:29.12	154.11	4.61	-46.6	-49.3	11.4	5.96e-01	0	42	0	56623104	65	4713
2026-01-28 07:35:32.14	154.11	4.85	-45.8	-48.2	12.5	5.79e-01	0	42	0	102760448	63	4667
2026-01-28 07:35:35.16	154.10	5.10	-46.7	-49.4	11.2	6.11e-01	0	42	0	150994944	64	5045
2026-01-28 07:35:38.18	154.09	5.35	-47.3	-49.9	10.9	6.02e-01	0	43	0	197132288	66	4807
2026-01-28 07:35:41.21	154.08	5.60	-45.6	-48.0	12.6	6.00e-01	0	42	0	243269632	62	4827
2026-01-28 07:35:44.23	154.08	5.85	-45.4	-47.7	13.0	5.96e-01	0	42	0	289406976	62	4654
2026-01-28 07:35:47.26	154.07	6.11	-45.1	-47.4	13.3	6.05e-01	0	42	0	335544320	62	4501
2026-01-28 07:35:50.28	154.06	6.38	-45.0	-47.2	13.4	6.06e-01	0	42	0	381681664	62	4434
2026-01-28 07:35:53.30	154.05	6.64	-44.9	-47.2	13.5	6.00e-01	0	43	0	427819008	61	4652
2026-01-28 07:35:56.33	154.04	6.91	-44.9	-47.1	13.6	6.01e-01	0	42	0	473956352	61	4635
2026-01-28 07:35:59.36	154.03	7.18	-44.7	-46.8	13.9	6.02e-01	0	43	0	522190848	61	4467
2026-01-28 07:36:02.38	154.02	7.46	-44.6	-46.7	14.0	6.00e-01	0	42	0	568328192	61	4401
2026-01-28 07:36:05.41	154.01	7.74	-44.4	-46.5	14.2	6.05e-01	0	43	0	614465536	60	4588
2026-01-28 07:36:08.43	153.99	8.03	-44.3	-46.3	14.4	6.00e-01	0	43	0	660602880	60	4492
2026-01-28 07:36:11.45	153.98	8.32	-44.1	-46.2	14.6	5.99e-01	0	43	0	706740224	60	4394
2026-01-28 07:36:14.48	153.97	8.62	-44.0	-46.0	14.7	5.98e-01	0	43	0	752877568	60	4328
2026-01-28 07:36:17.50	153.96	8.91	-44.0	-46.0	14.7	6.05e-01	0	43	0	799014912	59	4594
2026-01-28 07:36:20.53	153.94	9.22	-44.0	-46.1	14.7	6.07e-01	0	43	0	845152256	59	4607
2026-01-28 07:36:23.56	153.93	9.53	-43.8	-45.9	15.0	6.03e-01	0	43	0	893386752	59	4498
2026-01-28 07:36:26.58	153.91	9.84	-43.8	-45.8	15.0	6.05e-01	0	43	0	939524096	59	4468
2026-01-28 07:36:29.61	153.89	10.17	-43.8	-45.8	15.0	6.03e-01	0	43	0	985661440	59	4480
2026-01-28 07:36:32.63	153.88	10.49	-43.7	-45.7	15.1	6.05e-01	0	43	0	1031798784	59	4404
2026-01-28 07:36:35.65	153.86	10.82	-43.6	-45.6	15.2	6.03e-01	0	43	0	1080033280	59	4348
2026-01-28 07:36:38.68	153.84	11.16	-43.4	-45.4	15.4	6.05e-01	0	43	0	1126170624	58	4515
2026-01-28 07:36:41.70	153.82	11.50	-43.4	-45.4	15.4	6.03e-01	0	43	0	1172307968	58	4522
2026-01-28 07:36:44.73	153.80	11.86	-43.3	-45.3	15.5	6.04e-01	0	43	0	1218445312	58	4464
2026-01-28 07:36:47.76	153.78	12.21	-43.1	-45.2	15.7	6.00e-01	0	43	0	1264582656	58	4394
2026-01-28 07:36:50.78	153.76	12.58	-43.0	-45.0	15.8	5.98e-01	0	43	0	1310720000	57	4564
2026-01-28 07:36:53.81	153.73	12.95	-42.8	-44.8	15.9	6.01e-01	0	43	0	1356857344	57	4492
2026-01-28 07:36:56.84	153.71	13.33	-42.7	-44.8	16.0	6.05e-01	0	43	0	1402994688	57	4445
2026-01-28 07:36:59.87	153.68	13.72	-42.6	-44.6	16.2	6.00e-01	0	43	0	1451229184	57	4349
2026-01-28 07:37:02.89	153.66	14.12	-42.5	-44.5	16.3	6.03e-01	0	43	0	1497366528	56	4556
2026-01-28 07:37:05.91	153.63	14.52	-42.1	-44.1	16.6	6.02e-01	0	43	0	1543503872	56	4352
2026-01-28 07:37:08.94	153.60	14.94	-41.9	-43.9	16.8	6.02e-01	0	43	0	1589641216	55	4534
2026-01-28 07:37:11.96	153.57	15.36	-41.9	-43.9	16.8	5.99e-01	0	43	0	1637875712	55	4511
2026-01-28 07:37:14.99	153.54	15.79	-41.5	-43.4	17.2	6.03e-01	0	43	0	1684013056	54	4528
2026-01-28 07:37:18.02	153.50	16.24	-41.2	-43.1	17.5	6.01e-01	0	43	0	1730150400	54	4377
2026-01-28 07:37:21.04	153.47	16.69	-41.2	-43.1	17.5	6.03e-01	0	43	0	1776287744	54	4385
2026-01-28 07:37:24.07	153.43	17.16	-41.1	-43.0	17.6	5.96e-01	0	43	0	1822425088	54	4325
2026-01-28 07:37:27.09	153.39	17.63	-41.1	-43.0	17.6	6.01e-01	0	43	0	1868562432	54	4328
2026-01-28 07:37:30.12	153.35	18.12	-41.2	-43.1	17.6	5.97e-01	0	43	0	1914699776	54	4357
2026-01-28 07:37:33.14	153.31	18.62	-41.1	-43.0	17.6	6.00e-01	0	43	0	1960837120	54	4298
2026-01-28 07:37:36.16	153.27	19.14	-41.0	-42.9	17.7	5.98e-01	0	43	0	2009071616	54	4265
2026-01-28 07:37:39.18	153.22	19.67	-40.9	-42.7	17.8	5.97e-01	0	43	0	2055208960	53	4434
2026-01-28 07:37:42.20	153.17	20.21	-40.7	-42.5	18.0	5.94e-01	0	43	0	2101346304	53	4333
2026-01-28 07:37:45.22	153.12	20.77	-40.4	-42.2	18.2	6.02e-01	0	43	0	2147483648	52	4416
2026-01-28 07:37:48.24	153.07	21.34	-40.3	-42.1	18.3	5.97e-01	0	43	0	2193620992	52	4344
2026-01-28 07:37:51.27	153.01	21.94	-39.9	-41.7	18.7	5.88e-01	0	43	0	2239758336	51	4401
2026-01-28 07:37:54.29	152.95	22.55	-40.1	-41.8	18.6	5.93e-01	0	43	0	2285895680	51	4475
2026-01-28 07:37:57.31	152.89	23.17	-40.0	-41.8	18.6	5.92e-01	0	43	0	2332033024	51	4451
2026-01-28 07:38:00.33	152.82	23.82	-40.3	-42.0	18.4	6.01e-01	0	43	0	2378170368	51	4575
2026-01-28 07:38:03.36	152.75	24.49	-40.5	-42.3	18.3	5.93e-01	0	43	0	2426404864	51	4740
2026-01-28 07:38:06.38	152.67	25.18	-40.6	-42.4	18.2	5.94e-01	0	43	0	2472542208	51	4802
2026-01-28 07:38:09.41	152.59	25.89	-40.5	-42.3	18.3	5.99e-01	0	43	0	2518679552	51	4739
2026-01-28 07:38:12.43	152.51	26.63	-40.5	-42.2	18.4	5.99e-01	0	43	0	2564816896	51	4679
2026-01-28 07:38:15.46	152.42	27.39	-40.3	-42.0	18.5	5.99e-01	0	43	0	2613051392	51	4590
2026-01-28 07:38:18.48	152.33	28.18	-40.5	-42.2	18.4	5.99e-01	0	43	0	2659188736	51	4665
2026-01-28 07:38:21.51	152.23	28.99	-40.3	-42.0	18.6	6.03e-01	0	43	0	2705326080	51	4555
2026-01-28 07:38:24.53	152.12	29.84	-40.1	-41.9	18.6	5.95e-01	0	43	0	2751463424	51	4502
2026-01-28 07:38:27.56	152.01	30.71	-40.2	-42.0	18.5	5.97e-01	0	43	0	2797600768	51	4570
2026-01-28 07:38:30.59	151.89	31.62	-40.5	-42.4	18.3	5.94e-01	0	43	0	2843738112	51	4786
2026-01-28 07:38:33.61	151.76	32.56	-40.6	-42.7	18.0	6.01e-01	0	43	0	2889875456	52	4671
2026-01-28 07:38:36.63	151.62	33.54	-40.2	-42.4	18.2	6.03e-01	0	43	0	2936012800	52	4512
2026-01-28 07:38:39.65	151.47	34.56	-40.1	-42.2	18.4	5.97e-01	0	44	0	2984247296	52	4392
2026-01-28 07:38:42.68	151.31	35.61	-39.8	-41.8	18.7	5.99e-01	0	43	0	3030384640	51	4462
2026-01-28 07:38:45.70	151.14	36.71	-39.1	-41.1	19.1	5.99e-01	0	43	0	3076521984	50	4343
2026-01-28 07:38:48.73	150.96	37.85	-38.8	-41.1	19.1	5.98e-01	0	43	0	3122659328	49	4612
2026-01-28 07:38:51.76	150.75	39.04	-38.9	-41.2	19.0	5.99e-01	0	43	0	3170893824	49	4675
2026-01-28 07:38:54.78	150.54	40.27	-38.2	-40.5	19.4	5.98e-01	0	43	0	3217031168	48	4593
2026-01-28 07:38:57.80	150.30	41.56	-38.0	-40.4	19.5	5.97e-01	0	43	0	3261071360	48	4497
2026-01-28 07:39:00.83	150.04	42.90	-36.9	-39.1	19.3	6.01e-01	0	43	0	3307208704	45	4601
2026-01-28 07:39:03.85	149.75	44.29	-36.4	-38.6	19.6	5.91e-01	0	43	0	3355443200	44	4622
2026-01-28 07:39:06.88	149.44	45.74	-36.3	-38.4	19.7	6.00e-01	0	43	0	3401580544	44	4517
2026-01-28 07:39:09.90	149.09	47.25	-36.2	-38.3	19.8	6.00e-01	0	43	0	3447717888	44	4464
2026-01-28 07:39:12.93	148.71	48.82	-36.2	-38.3	19.8	6.01e-01	0	43	0	3493855232	44	4443
2026-01-28 07:39:15.96	148.28	50.46	-36.3	-38.5	19.7	5.99e-01	0	44	0	3542089728	44	4546
2026-01-28 07:39:18.98	147.80	52.16	-36.9	-38.9	19.4	6.01e-01	0	43	0	3588227072	44	4779
2026-01-28 07:39:22.01	147.25	53.92	-37.1	-39.1	19.4	5.89e-01	0	44	0	3634364416	44	4908
2026-01-28 07:39:25.04	146.63	55.76	-37.9	-40.0	18.9	5.88e-01	0	43	0	3680501760	46	4866
2026-01-28 07:39:28.06	145.92	57.65	-37.9	-40.1	18.8	5.89e-01	0	43	0	3726639104	46	4905
2026-01-28 07:39:31.08	145.09	59.61	-37.9	-39.9	18.9	5.88e-01	0	43	0	3772776448	46	4787
2026-01-28 07:39:34.11	144.13	61.64	-37.6	-39.5	19.2	5.88e-01	0	43	0	3818913792	46	4562
2026-01-28 07:39:37.14	142.98	63.73	-39.6	-40.3	19.8	5.90e-01	0	43	0	3865051136	50	3986
2026-01-28 07:39:40.16	141.60	65.87	-54.6	-63.5	3.8	7.45e-01	0	43	104	3871342592	79	10814
2026-01-28 07:39:43.19	139.91	68.06	-54.7	-63.5	3.8	7.46e-01	0	44	104	3871342592	79	10812
2026-01-28 07:39:46.21	137.81	70.29	-54.7	-63.5	3.8	7.46e-01	0	43	104	3871342592	79	10824
2026-01-28 07:39:49.24	135.11	72.54	-54.7	-63.5	3.8	7.43e-01	0	43	104	3871342592	80	10263
2026-01-28 07:39:52.26	131.56	74.79	-54.7	-63.5	3.8	7.45e-01	0	44	104	3871342592	80	10219
2026-01-28 07:39:55.29	126.72	77.01	-54.7	-63.5	3.8	7.46e-01	0	43	104	3871342592	80	10261
2026-01-28 07:39:58.31	119.88	79.13	-54.7	-63.5	3.8	7.44e-01	0	44	104	3871342592	80	10257
2026-01-28 07:40:01.33	109.84	81.05	-54.7	-63.6	3.8	7.46e-01	0	43	104	3871342592	80	10298
2026-01-28 07:40:04.35	94.97	82.57	-54.8	-63.6	3.8	7.45e-01	0	43	104	3871342592	80	10340
2026-01-28 07:40:07.38	74.49	83.39	-54.8	-63.6	3.8	7.45e-01	0	44	104	3871342592	80	10332
2026-01-28 07:40:10.40	51.95	83.23	-54.7	-63.6	3.8	7.46e-01	0	43	104	3871342592	80	10311
2026-01-28 07:40:13.43	33.09	82.16	-54.7	-63.6	3.8	7.45e-01	0	43	104	3871342592	80	10338
2026-01-28 07:40:16.46	19.87	80.48	-54.8	-63.7	3.8	7.45e-01	0	43	104	3871342592	80	10444
2026-01-28 07:40:19.48	11.00	78.48	-54.8	-63.7	3.8	7.45e-01	0	44	104	3871342592	80	10465
2026-01-28 07:40:22.51	4.88	76.32	-54.8	-63.6	3.8	7.44e-01	0	43	104	3871342592	80	10379
2026-01-28 07:40:25.53	0.52	74.09	-54.8	-63.6	3.8	7.44e-01	0	44	104	3871342592	80	10395
2026-01-28 07:40:28.56	357.27	71.84	-54.8	-63.7	3.8	7.44e-01	0	43	104	3871342592	80	10445
2026-01-28 07:40:31.59	354.79	69.59	-54.9	-63.7	3.8	7.45e-01	0	43	104	3871342592	80	10447
2026-01-28 07:40:34.61	352.83	67.38	-54.8	-63.7	3.8	7.45e-01	0	44	104	3871342592	80	10443
2026-01-28 07:40:37.63	351.25	65.21	-54.8	-63.6	3.8	7.43e-01	0	43	104	3871342592	80	10364
2026-01-28 07:40:40.66	349.95	63.09	-54.8	-63.6	3.8	7.47e-01	0	43	104	3871342592	80	10406
2026-01-28 07:40:43.68	348.87	61.03	-54.8	-63.7	3.8	7.46e-01	0	43	104	3871342592	80	10434
2026-01-28 07:40:46.71	347.95	59.02	-54.8	-63.6	3.8	7.44e-01	0	44	104	3871342592	80	10366
2026-01-28 07:40:49.73	347.17	57.09	-54.7	-63.6	3.8	7.45e-01	0	43	104	3871342592	80	10325
2026-01-28 07:40:52.75	346.49	55.22	-54.8	-63.6	3.8	7.47e-01	0	43	104	3871342592	80	10355
2026-01-28 07:40:55.78	345.89	53.41	-54.7	-63.6	3.8	7.46e-01	0	43	104	3871342592	80	10337
2026-01-28 07:40:58.80	345.37	51.67	-54.7	-63.5	3.8	7.45e-01	0	43	104	3871342592	80	10261
2026-01-28 07:41:01.82	344.90	50.00	-54.7	-63.5	3.8	7.45e-01	0	43	104	3871342592	80	10210
2026-01-28 07:41:04.85	344.49	48.39	-54.7	-63.5	3.8	7.45e-01	0	43	104	3871342592	80	10262
2026-01-28 07:41:07.87	344.12	46.84	-54.7	-63.5	3.8	7.44e-01	0	44	104	3871342592	80	10264
2026-01-28 07:41:10.90	343.78	45.35	-54.6	-63.4	3.8	7.45e-01	0	43	104	3871342592	80	10174
2026-01-28 07:41:13.92	343.48	43.92	-54.6	-63.4	3.8	7.45e-01	0	44	104	3871342592	80	10141
2026-01-28 07:41:16.95	343.20	42.55	-54.6	-63.4	3.8	7.44e-01	0	43	104	3871342592	80	10168
2026-01-28 07:41:19.97	342.95	41.23	-54.6	-63.4	3.8	7.46e-01	0	44	104	3871342592	80	10167
2026-01-28 07:41:22.99	342.72	39.97	-54.6	-63.4	3.8	7.45e-01	0	44	104	3871342592	80	10103
2026-01-28 07:41:26.02	342.50	38.75	-54.5	-63.4	3.8	7.46e-01	0	43	104	3871342592	80	10111
2026-01-28 07:41:29.05	342.31	37.58	-54.5	-63.3	3.8	7.47e-01	0	44	104	3871342592	80	10059
2026-01-28 07:41:32.07	342.13	36.46	-54.5	-63.3	3.8	7.45e-01	0	43	104	3871342592	80	10019
2026-01-28 07:41:35.09	341.96	35.38	-54.4	-63.3	3.8	7.45e-01	0	43	104	3871342592	80	9952
2026-01-28 07:41:38.12	341.81	34.33	-54.4	-63.3	3.8	7.47e-01	0	43	104	3871342592	80	9969
2026-01-28 07:41:41.14	341.66	33.33	-54.4	-63.3	3.8	7.44e-01	0	44	104	3871342592	80	9960
2026-01-28 07:41:44.17	341.53	32.37	-54.4	-63.2	3.8	7.44e-01	0	44	104	3871342592	80	9899
2026-01-28 07:41:47.19	341.40	31.44	-54.3	-63.2	3.8	7.43e-01	0	44	104	3871342592	80	9845
2026-01-28 07:41:50.21	341.28	30.55	-54.3	-63.1	3.8	7.46e-01	0	44	104	3871342592	80	9824
2026-01-28 07:41:53.23	341.17	29.68	-54.3	-63.1	3.8	7.46e-01	0	44	104	3871342592	80	9799
2026-01-28 07:41:56.26	341.07	28.85	-54.3	-63.1	3.8	7.45e-01	0	44	104	3871342592	80	9789
2026-01-28 07:41:59.29	340.97	28.04	-54.2	-63.0	3.8	7.44e-01	0	44	104	3871342592	80	9699
2026-01-28 07:42:02.31	340.88	27.26	-54.2	-63.0	3.8	7.43e-01	0	44	104	3871342592	80	9697
2026-01-28 07:42:05.33	340.79	26.51	-54.2	-63.0	3.8	7.47e-01	0	43	104	3871342592	80	9716
2026-01-28 07:42:08.36	340.71	25.78	-54.2	-63.0	3.8	7.46e-01	0	43	104	3871342592	80	9706
2026-01-28 07:42:11.39	340.64	25.08	-54.2	-63.0	3.8	7.47e-01	0	43	104	3871342592	80	9688
2026-01-28 07:42:14.41	340.56	24.40	-54.1	-63.0	3.8	7.44e-01	0	44	104	3871342592	80	9637
2026-01-28 07:42:17.44	340.49	23.74	-54.1	-62.9	3.8	7.46e-01	0	43	104	3871342592	80	9598
2026-01-28 07:42:20.47	340.43	23.10	-54.1	-62.9	3.8	7.46e-01	0	44	104	3871342592	80	9593
2026-01-28 07:42:23.49	340.37	22.47	-54.1	-62.9	3.8	7.45e-01	0	44	104	3871342592	80	9516
2026-01-28 07:42:26.52	340.31	21.87	-54.0	-62.9	3.8	7.45e-01	0	44	104	3871342592	80	9504
2026-01-28 07:42:29.54	340.25	21.29	-54.0	-62.9	3.8	7.45e-01	0	43	104	3871342592	80	9515
2026-01-28 07:42:32.56	340.20	20.72	-54.0	-62.8	3.8	7.44e-01	0	43	104	3871342592	80	9447
2026-01-28 07:42:35.58	340.15	20.17	-54.0	-62.9	3.8	7.47e-01	0	44	104	3871342592	79	10064
2026-01-28 07:42:38.61	340.10	19.63	-54.0	-62.8	3.8	7.46e-01	0	44	104	3871342592	79	10044
2026-01-28 07:42:41.64	340.06	19.10	-54.0	-62.8	3.8	7.45e-01	0	43	104	3871342592	79	10054
2026-01-28 07:42:44.66	340.02	18.59	-54.0	-62.8	3.8	7.46e-01	0	43	104	3871342592	79	9998
2026-01-28 07:42:47.69	339.98	18.09	-53.9	-62.8	3.8	7.45e-01	0	44	104	3871342592	79	9962
2026-01-28 07:42:50.71	339.94	17.61	-53.9	-62.7	3.8	7.46e-01	0	44	104	3871342592	79	9928
2026-01-28 07:42:53.73	339.90	17.14	-53.9	-62.8	3.8	7.47e-01	0	44	104	3871342592	79	9969
2026-01-28 07:42:56.75	339.87	16.68	-53.9	-62.7	3.8	7.44e-01	0	43	104	3871342592	79	9882
2026-01-28 07:42:59.78	339.83	16.23	-53.9	-62.7	3.8	7.46e-01	0	44	104	3871342592	79	9862
2026-01-28 07:43:02.80	339.80	15.79	-53.8	-62.6	3.8	7.46e-01	0	43	104	3871342592	79	9816
2026-01-28 07:43:05.83	339.77	15.36	-53.8	-62.6	3.8	7.45e-01	0	44	104	3871342592	79	9830
2026-01-28 07:43:08.85	339.74	14.94	-53.8	-62.6	3.8	7.44e-01	0	44	104	3871342592	79	9739
2026-01-28 07:43:11.88	339.71	14.53	-53.7	-62.6	3.8	7.44e-01	0	43	104	3871342592	79	9757
2026-01-28 07:43:14.90	339.69	14.13	-53.7	-62.5	3.8	7.46e-01	0	44	104	3871342592	79	9675
2026-01-28 07:43:17.92	339.66	13.73	-53.7	-62.6	3.8	7.44e-01	0	43	104	3871342592	79	9728
2026-01-28 07:43:20.95	339.64	13.35	-53.7	-62.5	3.8	7.45e-01	0	44	104	3871342592	79	9645
2026-01-28 07:43:23.97	339.62	12.97	-53.6	-62.4	3.8	7.45e-01	0	44	104	3871342592	79	9603
2026-01-28 07:43:27.00	339.59	12.60	-53.6	-62.5	3.8	7.46e-01	0	43	104	3871342592	79	9623
2026-01-28 07:43:30.03	339.57	12.24	-53.6	-62.5	3.8	7.45e-01	0	44	104	3871342592	79	9609
2026-01-28 07:43:33.05	339.55	11.88	-53.5	-62.4	3.8	7.43e-01	0	44	104	3871342592	79	9520
2026-01-28 07:43:36.07	339.53	11.54	-53.5	-62.3	3.8	7.45e-01	0	44	104	3871342592	79	9477
2026-01-28 07:43:39.10	339.52	11.19	-53.5	-62.3	3.8	7.44e-01	0	43	104	3871342592	79	9444
2026-01-28 07:43:42.13	339.50	10.86	-53.5	-62.3	3.8	7.46e-01	0	44	104	3871342592	78	10007
2026-01-28 07:43:45.15	339.48	10.53	-53.4	-62.2	3.8	7.44e-01	0	44	104	3871342592	78	9928
2026-01-28 07:43:48.18	339.47	10.20	-53.4	-62.2	3.8	7.45e-01	0	44	104	3871342592	78	9926
2026-01-28 07:43:51.20	339.45	9.89	-53.4	-62.2	3.8	7.46e-01	0	44	104	3871342592	78	9879
2026-01-28 07:43:54.22	339.44	9.57	-53.4	-62.2	3.8	7.48e-01	0	43	104	3871342592	78	9922
2026-01-28 07:43:57.25	339.42	9.27	-53.3	-62.2	3.8	7.45e-01	0	44	104	3871342592	78	9836
2026-01-28 07:44:00.27	339.41	8.96	-53.3	-62.1	3.8	7.44e-01	0	44	104	3871342592	78	9793
2026-01-28 07:44:03.30	339.40	8.67	-53.3	-62.1	3.8	7.45e-01	0	44	104	3871342592	78	9758
2026-01-28 07:44:06.32	339.39	8.37	-53.3	-62.1	3.8	7.46e-01	0	44	104	3871342592	78	9791
2026-01-28 07:44:09.35	339.38	8.08	-53.3	-62.1	3.8	7.45e-01	0	44	104	3871342592	78	9784
2026-01-28 07:44:12.37	339.37	7.80	-53.2	-62.0	3.8	7.46e-01	0	43	104	3871342592	78	9714
2026-01-28 07:44:15.40	339.36	7.52	-53.2	-62.0	3.8	7.46e-01	0	44	104	3871342592	78	9665
2026-01-28 07:44:18.42	339.35	7.24	-53.2	-62.0	3.8	7.46e-01	0	44	104	3871342592	78	9692
2026-01-28 07:44:21.44	339.34	6.97	-53.2	-62.0	3.8	7.47e-01	0	43	104	3871342592	78	9620
2026-01-28 07:44:24.46	339.33	6.70	-53.1	-61.9	3.8	7.46e-01	0	44	104	3871342592	78	9527
2026-01-28 07:44:27.49	339.32	6.44	-53.0	-61.9	3.8	7.47e-01	0	44	104	3871342592	78	9515
2026-01-28 07:44:30.51	339.32	6.18	-53.0	-61.9	3.8	7.45e-01	0	44	104	3871342592	77	10061
2026-01-28 07:44:33.53	339.31	5.92	-53.0	-61.8	3.8	7.45e-01	0	44	104	3871342592	77	10008
2026-01-28 07:44:36.55	339.30	5.67	-52.8	-61.7	3.8	7.45e-01	0	44	104	3871342592	77	9869
2026-01-28 07:44:39.57	339.30	5.42	-52.8	-61.7	3.8	7.46e-01	0	43	104	3871342592	77	9854
2026-01-28 07:44:42.59	339.29	5.17	-52.8	-61.6	3.8	7.45e-01	0	43	104	3871342592	77	9797
2026-01-28 07:44:45.61	339.29	4.93	-53.3	-62.1	3.8	7.44e-01	0	44	104	3871342592	77	10342
2026-01-28 07:44:48.63	339.28	4.69	-54.0	-62.8	3.8	7.45e-01	0	44	104	3871342592	78	10616
2026-01-28 07:44:51.66	339.28	4.45	-54.3	-63.2	3.8	7.44e-01	0	44	104	3871342592	79	10440
2026-01-28 07:44:54.68	339.27	4.21	-54.4	-63.2	3.8	7.45e-01	0	44	104	3871342592	79	10488
2026-01-28 07:44:57.71	339.27	3.98	-54.2	-63.1	3.8	7.44e-01	0	43	104	3871342592	79	10328
2026-01-28 07:45:00.73	339.27	3.75	-54.1	-63.0	3.8	7.47e-01	0	44	104	3871342592	79	10184
2026-01-28 07:45:03.76	339.26	3.52	-54.2	-63.1	3.8	7.45e-01	0	44	104	3871342592	79	10307
2026-01-28 07:45:06.78	339.26	3.29	-54.2	-63.0	3.8	7.46e-01	0	44	104	3871342592	79	10237
2026-01-28 07:45:09.81	339.26	3.07	-54.1	-63.0	3.8	7.46e-01	0	44	104	3871342592	79	10178
2026-01-28 07:45:12.83	339.26	2.85	-54.1	-62.9	3.8	7.46e-01	0	44	104	3871342592	79	10152
2026-01-28 07:45:15.85	339.26	2.63	-54.1	-62.9	3.8	7.45e-01	0	44	104	3871342592	79	10095
2026-01-28 07:45:18.88	339.25	2.42	-54.1	-62.9	3.8	7.46e-01	0	44	104	3871342592	79	10110
2026-01-28 07:45:21.90	339.25	2.20	-54.0	-62.9	3.8	7.45e-01	0	44	104	3871342592	79	10112

#Closed at: 2026-01-28 07:45:24
#Recorded file [3871 MB]: D:/lorett/data/31041_260128_103455.dat