passes_logs/2026/01/28/R3.2S_Murmansk/R3.2S_Murmansk__20260128_044508_FENGYUN_3D_rec.log

#Pass ID: 20260128_044508_FENGYUN 3D
#Satellite: FENGYUN 3D
#Configuration: FENGYUN 3D
#almurnet v.1.7.20251203
#Start time: 2026-01-28 04:45:09

#Version: 2.2.20231116
#Station: R3.2S_Murmansk
#Location: 33.079688 lon 68.888172 lat
#TLE: 1 43010U 17072A   26027.26653803  .00000472  00000+0  24513-3 0  9995
#TLE: 2 43010  98.9961 359.2743 0002530  88.0161 272.1305 14.19701760424993

#Time	Az	El	Level	Level2	SNR	BER	BlckErr	Temp	State	Recorded	gain1	gain2
2026-01-28 04:45:09.12	35.60	2.05	-52.9	-64.8	3.8	8.46e-01	0	41	0	0	76	14994
2026-01-28 04:45:12.13	35.47	2.23	-52.9	-64.8	3.8	8.46e-01	0	41	104	0	76	14994
2026-01-28 04:45:15.16	35.35	2.42	-52.9	-64.8	3.8	8.46e-01	0	41	104	0	76	14959
2026-01-28 04:45:18.18	35.22	2.61	-52.9	-64.8	3.8	8.46e-01	0	41	104	0	76	15002
2026-01-28 04:45:21.20	35.10	2.80	-52.9	-64.8	3.8	8.46e-01	0	41	104	0	76	14944
2026-01-28 04:45:24.23	34.97	2.99	-52.9	-64.8	3.8	8.45e-01	0	41	104	0	76	14999
2026-01-28 04:45:27.26	34.84	3.18	-52.9	-64.8	3.8	8.46e-01	0	42	104	0	76	14954
2026-01-28 04:45:30.28	34.71	3.37	-52.9	-64.8	3.8	8.45e-01	0	42	104	0	76	14989
2026-01-28 04:45:33.31	34.57	3.56	-52.9	-64.8	3.8	8.47e-01	0	42	104	0	76	14959
2026-01-28 04:45:36.33	34.43	3.76	-52.9	-64.8	3.8	8.46e-01	0	42	104	0	76	14940
2026-01-28 04:45:39.35	34.30	3.95	-52.9	-64.8	3.8	8.46e-01	0	42	104	0	76	14980
2026-01-28 04:45:42.37	34.16	4.15	-52.9	-64.8	3.8	8.45e-01	0	42	104	0	76	15006
2026-01-28 04:45:45.40	34.01	4.35	-52.9	-64.8	3.8	8.47e-01	0	42	104	0	76	14983
2026-01-28 04:45:48.42	33.87	4.55	-52.9	-64.8	3.8	8.45e-01	0	42	104	0	76	14990
2026-01-28 04:45:51.45	33.72	4.75	-52.9	-64.8	3.8	8.46e-01	0	42	104	0	76	14959
2026-01-28 04:45:54.47	33.57	4.95	-52.9	-64.8	3.8	8.46e-01	0	42	104	0	76	14960
2026-01-28 04:45:57.50	33.42	5.16	-52.9	-64.8	3.8	8.46e-01	0	42	104	0	76	14962
2026-01-28 04:46:00.52	33.27	5.36	-52.9	-64.8	3.8	8.47e-01	0	42	104	0	76	14988
2026-01-28 04:46:03.53	33.11	5.57	-52.9	-64.8	3.8	8.46e-01	0	42	104	0	76	14973
2026-01-28 04:46:06.55	32.95	5.78	-52.9	-64.8	3.8	8.46e-01	0	42	104	0	76	14982
2026-01-28 04:46:09.58	32.79	5.99	-52.9	-64.8	3.8	8.45e-01	0	42	104	0	76	14966
2026-01-28 04:46:12.60	32.63	6.20	-52.9	-64.8	3.8	8.46e-01	0	42	104	0	76	15000
2026-01-28 04:46:15.63	32.46	6.41	-52.9	-64.8	3.8	8.46e-01	0	42	104	0	76	14974
2026-01-28 04:46:18.65	32.29	6.62	-52.9	-64.8	3.8	8.46e-01	0	42	104	0	76	14975
2026-01-28 04:46:21.68	32.12	6.84	-52.9	-64.8	3.8	8.47e-01	0	43	104	0	76	15019
2026-01-28 04:46:24.70	31.95	7.05	-52.9	-64.8	3.8	8.46e-01	0	43	104	0	76	14966
2026-01-28 04:46:27.72	31.77	7.27	-52.9	-64.8	3.8	8.46e-01	0	43	104	0	76	14929
2026-01-28 04:46:30.74	31.59	7.49	-52.9	-64.8	3.8	8.47e-01	0	43	104	0	76	14965
2026-01-28 04:46:33.76	31.41	7.71	-52.9	-64.8	3.8	8.45e-01	0	42	104	0	76	14950
2026-01-28 04:46:36.79	31.22	7.94	-52.9	-64.8	3.8	8.46e-01	0	43	104	0	76	14974
2026-01-28 04:46:39.80	31.04	8.16	-52.9	-64.8	3.8	8.47e-01	0	43	104	0	76	14976
2026-01-28 04:46:42.82	30.84	8.39	-52.9	-64.8	3.8	8.45e-01	0	43	104	0	76	15018
2026-01-28 04:46:45.84	30.65	8.62	-52.9	-64.8	3.8	8.44e-01	0	43	104	0	76	14940
2026-01-28 04:46:48.86	30.45	8.85	-52.9	-64.8	3.8	8.45e-01	0	43	104	0	76	14965
2026-01-28 04:46:51.89	30.25	9.08	-52.9	-64.8	3.8	8.47e-01	0	43	104	0	76	14995
2026-01-28 04:46:54.91	30.05	9.31	-52.9	-64.8	3.8	8.46e-01	0	43	104	0	76	14999
2026-01-28 04:46:57.93	29.84	9.55	-52.9	-64.8	3.8	8.46e-01	0	43	104	0	76	14942
2026-01-28 04:47:00.96	29.62	9.79	-52.9	-64.8	3.8	8.46e-01	0	43	104	0	76	14976
2026-01-28 04:47:03.99	29.41	10.03	-52.9	-64.8	3.8	8.46e-01	0	43	104	0	76	14971
2026-01-28 04:47:07.02	29.19	10.27	-52.9	-64.8	3.8	8.47e-01	0	43	104	0	76	14964
2026-01-28 04:47:10.04	28.97	10.51	-52.9	-64.8	3.8	8.46e-01	0	43	104	0	76	14967
2026-01-28 04:47:13.06	28.74	10.75	-52.9	-64.8	3.8	8.46e-01	0	43	104	0	76	14982
2026-01-28 04:47:16.09	28.51	11.00	-52.9	-64.8	3.8	8.46e-01	0	43	104	0	76	14956
2026-01-28 04:47:19.11	28.27	11.25	-52.9	-64.8	3.8	8.46e-01	0	43	104	0	76	14942
2026-01-28 04:47:22.13	28.03	11.50	-52.9	-64.8	3.8	8.47e-01	0	43	104	0	76	14982
2026-01-28 04:47:25.15	27.79	11.76	-52.9	-64.8	3.8	8.46e-01	0	43	104	0	76	14946
2026-01-28 04:47:28.17	27.54	12.01	-52.9	-64.8	3.8	8.46e-01	0	43	104	0	76	14987
2026-01-28 04:47:31.20	27.29	12.27	-52.9	-64.8	3.8	8.45e-01	0	43	104	0	76	14970
2026-01-28 04:47:34.22	27.03	12.53	-52.9	-64.8	3.8	8.47e-01	0	43	104	0	76	15003
2026-01-28 04:47:37.24	26.77	12.79	-52.9	-64.8	3.8	8.46e-01	0	43	104	0	76	14965
2026-01-28 04:47:40.27	26.50	13.05	-52.9	-64.8	3.8	8.47e-01	0	43	104	0	76	14936
2026-01-28 04:47:43.29	26.23	13.32	-52.9	-64.8	3.8	8.46e-01	0	43	104	0	76	14980
2026-01-28 04:47:46.32	25.95	13.59	-52.9	-64.8	3.8	8.47e-01	0	43	104	0	76	14992
2026-01-28 04:47:49.34	25.66	13.86	-52.9	-64.8	3.8	8.46e-01	0	43	104	0	76	14924
2026-01-28 04:47:52.36	25.38	14.13	-52.9	-64.8	3.8	8.45e-01	0	43	104	0	76	14986
2026-01-28 04:47:55.39	25.08	14.41	-52.9	-64.8	3.8	8.46e-01	0	43	104	0	76	14975
2026-01-28 04:47:58.41	24.78	14.69	-52.9	-64.8	3.8	8.46e-01	0	43	104	0	76	14963
2026-01-28 04:48:01.43	24.48	14.97	-52.9	-64.8	3.8	8.45e-01	0	43	104	0	76	14965
2026-01-28 04:48:04.45	24.17	15.25	-52.9	-64.8	3.8	8.46e-01	0	43	104	0	76	14928
2026-01-28 04:48:07.47	23.85	15.53	-52.9	-64.8	3.8	8.46e-01	0	43	104	0	76	14996
2026-01-28 04:48:10.50	23.52	15.82	-52.9	-64.8	3.8	8.46e-01	0	43	104	0	76	15001
2026-01-28 04:48:13.53	23.19	16.11	-52.9	-64.8	3.8	8.47e-01	0	43	104	0	76	14974
2026-01-28 04:48:16.55	22.85	16.40	-52.9	-64.8	3.8	8.47e-01	0	43	104	0	76	14997
2026-01-28 04:48:19.57	22.51	16.70	-52.9	-64.8	3.8	8.46e-01	0	43	104	0	76	14944
2026-01-28 04:48:22.59	22.16	16.99	-52.9	-64.8	3.8	8.46e-01	0	43	104	0	76	15017
2026-01-28 04:48:25.62	21.80	17.29	-52.9	-64.8	3.8	8.46e-01	0	43	104	0	76	14966
2026-01-28 04:48:28.64	21.43	17.60	-52.9	-64.8	3.8	8.46e-01	0	43	104	0	76	14946
2026-01-28 04:48:31.67	21.06	17.90	-52.9	-64.8	3.8	8.45e-01	0	43	104	0	76	14977
2026-01-28 04:48:34.69	20.68	18.21	-52.9	-64.8	3.8	8.47e-01	0	43	104	0	76	14965
2026-01-28 04:48:37.72	20.29	18.52	-52.9	-64.8	3.8	8.47e-01	0	43	104	0	76	14983
2026-01-28 04:48:40.73	19.89	18.83	-52.9	-64.8	3.8	8.47e-01	0	43	104	0	76	14980
2026-01-28 04:48:43.76	19.48	19.15	-52.9	-64.8	3.8	8.47e-01	0	43	104	0	76	14965
2026-01-28 04:48:46.78	19.07	19.46	-52.9	-64.8	3.8	8.46e-01	0	43	104	0	76	14943
2026-01-28 04:48:49.80	18.65	19.78	-52.9	-64.8	3.8	8.46e-01	0	43	104	0	76	14943
2026-01-28 04:48:52.83	18.21	20.10	-52.9	-64.8	3.8	8.47e-01	0	43	104	0	76	14968
2026-01-28 04:48:55.85	17.77	20.43	-52.9	-64.8	3.8	8.46e-01	0	43	104	0	76	14980
2026-01-28 04:48:58.88	17.32	20.76	-52.9	-64.8	3.8	8.45e-01	0	43	104	0	76	14966
2026-01-28 04:49:01.90	16.85	21.08	-52.9	-64.8	3.8	8.46e-01	0	43	104	0	76	14926
2026-01-28 04:49:04.92	16.38	21.41	-52.9	-64.8	3.8	8.47e-01	0	43	104	0	76	14977
2026-01-28 04:49:07.95	15.90	21.75	-52.9	-64.8	3.8	8.47e-01	0	43	104	0	76	14928
2026-01-28 04:49:10.97	15.40	22.08	-52.9	-64.8	3.8	8.46e-01	0	43	104	0	76	14964
2026-01-28 04:49:14.00	14.90	22.42	-52.9	-64.8	3.8	8.47e-01	0	43	104	0	76	14975
2026-01-28 04:49:17.02	14.38	22.76	-52.9	-64.8	3.8	8.45e-01	0	43	104	0	76	14986
2026-01-28 04:49:20.05	13.85	23.10	-52.9	-64.8	3.8	8.47e-01	0	43	104	0	76	14977
2026-01-28 04:49:23.07	13.32	23.45	-52.9	-64.8	3.8	8.47e-01	0	43	104	0	76	14992
2026-01-28 04:49:26.10	12.76	23.79	-52.9	-64.8	3.8	8.46e-01	0	43	104	0	76	14986
2026-01-28 04:49:29.12	12.20	24.14	-52.9	-64.8	3.8	8.46e-01	0	43	104	0	76	14945
2026-01-28 04:49:32.14	11.62	24.49	-52.9	-64.8	3.8	8.46e-01	0	43	104	0	76	14971
2026-01-28 04:49:35.16	11.03	24.84	-52.9	-64.8	3.8	8.45e-01	0	43	104	0	76	15008
2026-01-28 04:49:38.19	10.43	25.19	-52.9	-64.8	3.8	8.46e-01	0	43	104	0	76	14943
2026-01-28 04:49:41.22	9.81	25.54	-52.9	-64.8	3.8	8.47e-01	0	43	104	0	76	14977
2026-01-28 04:49:44.24	9.18	25.90	-52.9	-64.8	3.8	8.46e-01	0	43	104	0	76	14967
2026-01-28 04:49:47.26	8.53	26.25	-52.9	-64.8	3.8	8.46e-01	0	43	104	0	76	15014
2026-01-28 04:49:50.29	7.87	26.60	-52.9	-64.8	3.8	8.46e-01	0	43	104	0	76	14933
2026-01-28 04:49:53.31	7.19	26.96	-52.9	-64.8	3.8	8.46e-01	0	43	104	0	76	14955
2026-01-28 04:49:56.33	6.50	27.31	-52.9	-64.8	3.8	8.46e-01	0	44	104	0	76	14940
2026-01-28 04:49:59.36	5.79	27.67	-52.9	-64.8	3.8	8.47e-01	0	43	104	0	76	14932
2026-01-28 04:50:02.38	5.07	28.02	-52.9	-64.8	3.8	8.46e-01	0	43	104	0	76	14904
2026-01-28 04:50:05.41	4.33	28.38	-52.9	-64.8	3.8	8.46e-01	0	43	104	0	76	14921
2026-01-28 04:50:08.43	3.57	28.73	-52.9	-64.8	3.8	8.46e-01	0	43	104	0	76	14985
2026-01-28 04:50:11.45	2.80	29.08	-52.9	-64.8	3.8	8.46e-01	0	43	104	0	76	14989
2026-01-28 04:50:14.47	2.01	29.43	-52.9	-64.8	3.8	8.46e-01	0	43	104	0	76	14952
2026-01-28 04:50:17.50	1.20	29.78	-52.9	-64.8	3.8	8.45e-01	0	44	104	0	76	14966
2026-01-28 04:50:20.53	0.37	30.12	-52.9	-64.8	3.8	8.47e-01	0	43	104	0	76	15036
2026-01-28 04:50:23.55	359.53	30.46	-52.9	-64.8	3.8	8.46e-01	0	43	104	0	76	14961
2026-01-28 04:50:26.57	358.66	30.80	-52.9	-64.8	3.8	8.45e-01	0	43	104	0	76	14957
2026-01-28 04:50:29.60	357.78	31.14	-52.9	-64.8	3.8	8.46e-01	0	43	104	0	76	14953
2026-01-28 04:50:32.62	356.88	31.47	-52.9	-64.8	3.8	8.46e-01	0	43	104	0	76	14958
2026-01-28 04:50:35.65	355.96	31.80	-52.9	-64.8	3.8	8.46e-01	0	43	104	0	76	14984
2026-01-28 04:50:38.67	355.03	32.12	-52.9	-64.8	3.8	8.45e-01	0	43	104	0	76	14980
2026-01-28 04:50:41.69	354.07	32.43	-52.9	-64.8	3.8	8.46e-01	0	43	104	0	76	14998
2026-01-28 04:50:44.72	353.10	32.75	-52.9	-64.8	3.8	8.45e-01	0	43	104	0	76	14915
2026-01-28 04:50:47.75	352.10	33.05	-52.9	-64.8	3.8	8.46e-01	0	43	104	0	76	14955
2026-01-28 04:50:50.76	351.09	33.35	-52.9	-64.8	3.8	8.45e-01	0	43	104	0	76	14928
2026-01-28 04:50:53.79	350.06	33.64	-52.9	-64.8	3.8	8.46e-01	0	43	104	0	76	14946
2026-01-28 04:50:56.82	349.01	33.92	-52.9	-64.8	3.8	8.46e-01	0	43	104	0	76	14965
2026-01-28 04:50:59.84	347.94	34.19	-52.9	-64.8	3.8	8.45e-01	0	43	104	0	76	14962
2026-01-28 04:51:02.86	346.86	34.46	-52.9	-64.8	3.8	8.46e-01	0	43	104	0	76	14962
2026-01-28 04:51:05.88	345.76	34.71	-52.9	-64.8	3.8	8.46e-01	0	43	104	0	76	14958
2026-01-28 04:51:08.90	344.64	34.95	-52.9	-64.8	3.8	8.48e-01	0	43	104	0	76	14891
2026-01-28 04:51:11.93	343.50	35.19	-52.9	-64.8	3.8	8.46e-01	0	43	104	0	76	14934
2026-01-28 04:51:14.95	342.35	35.41	-52.9	-64.8	3.8	8.46e-01	0	43	104	0	76	14971
2026-01-28 04:51:17.98	341.18	35.62	-52.9	-64.8	3.8	8.46e-01	0	44	104	0	76	14948
2026-01-28 04:51:21.01	339.99	35.81	-52.9	-64.8	3.8	8.46e-01	0	43	104	0	76	14969
2026-01-28 04:51:24.02	338.80	36.00	-52.9	-64.8	3.8	8.46e-01	0	44	104	0	76	14941
2026-01-28 04:51:27.05	337.59	36.17	-52.9	-64.8	3.8	8.46e-01	0	43	104	0	76	14944
2026-01-28 04:51:30.07	336.37	36.32	-52.9	-64.8	3.8	8.46e-01	0	43	104	0	76	14981
2026-01-28 04:51:33.09	335.13	36.47	-52.9	-64.8	3.8	8.46e-01	0	43	104	0	76	14958
2026-01-28 04:51:36.12	333.89	36.59	-52.9	-64.8	3.8	8.45e-01	0	43	104	0	76	14946
2026-01-28 04:51:39.14	332.64	36.71	-52.9	-64.8	3.8	8.46e-01	0	43	104	0	76	14949
2026-01-28 04:51:42.16	331.38	36.80	-52.9	-64.8	3.8	8.46e-01	0	43	104	0	76	14888
2026-01-28 04:51:45.18	330.11	36.88	-52.9	-64.8	3.8	8.44e-01	0	43	104	0	76	14967
2026-01-28 04:51:48.20	328.84	36.95	-52.9	-64.8	3.8	8.45e-01	0	43	104	0	76	14947
2026-01-28 04:51:51.23	327.55	37.00	-52.9	-64.8	3.8	8.46e-01	0	43	104	0	76	14960
2026-01-28 04:51:54.25	326.27	37.03	-52.9	-64.8	3.8	8.45e-01	0	43	104	0	76	14924
2026-01-28 04:51:57.28	324.99	37.05	-52.9	-64.8	3.8	8.47e-01	0	44	104	0	76	14985
2026-01-28 04:52:00.30	323.70	37.05	-52.9	-64.8	3.8	8.45e-01	0	43	104	0	76	14921
2026-01-28 04:52:03.32	322.42	37.03	-52.9	-64.8	3.8	8.46e-01	0	43	104	0	76	14930
2026-01-28 04:52:06.34	321.14	37.00	-52.9	-64.8	3.8	8.47e-01	0	43	104	0	76	14902
2026-01-28 04:52:09.37	319.86	36.95	-52.9	-64.8	3.8	8.46e-01	0	44	104	0	76	14941
2026-01-28 04:52:12.39	318.58	36.89	-52.9	-64.8	3.8	8.46e-01	0	43	104	0	76	14933
2026-01-28 04:52:15.42	317.31	36.81	-52.9	-64.8	3.8	8.48e-01	0	44	104	0	76	14930
2026-01-28 04:52:18.44	316.05	36.71	-52.9	-64.8	3.8	8.46e-01	0	43	104	0	76	14963
2026-01-28 04:52:21.46	314.80	36.60	-52.9	-64.8	3.8	8.46e-01	0	43	104	0	76	14901
2026-01-28 04:52:24.48	313.55	36.47	-52.9	-64.8	3.8	8.46e-01	0	43	104	0	76	14915
2026-01-28 04:52:27.51	312.32	36.33	-52.9	-64.8	3.8	8.46e-01	0	44	104	0	76	14943
2026-01-28 04:52:30.53	311.10	36.17	-52.9	-64.8	3.8	8.46e-01	0	43	104	0	76	14940
2026-01-28 04:52:33.55	309.89	36.00	-52.9	-64.8	3.8	8.46e-01	0	43	104	0	76	14946
2026-01-28 04:52:36.58	308.68	35.82	-52.9	-64.8	3.8	8.46e-01	0	43	104	0	76	14986
2026-01-28 04:52:39.60	307.50	35.62	-52.9	-64.8	3.8	8.46e-01	0	43	104	0	76	14984
2026-01-28 04:52:42.62	306.33	35.41	-52.9	-64.8	3.8	8.46e-01	0	43	104	0	76	14944
2026-01-28 04:52:45.64	305.18	35.19	-52.9	-64.8	3.8	8.46e-01	0	43	104	0	76	14941
2026-01-28 04:52:48.67	304.04	34.96	-52.9	-64.8	3.8	8.47e-01	0	43	104	0	76	14932
2026-01-28 04:52:51.69	302.92	34.71	-52.9	-64.8	3.8	8.47e-01	0	43	104	0	76	14924
2026-01-28 04:52:54.72	301.81	34.46	-52.9	-64.8	3.8	8.45e-01	0	43	104	0	76	14930
2026-01-28 04:52:57.74	300.73	34.19	-52.9	-64.8	3.8	8.47e-01	0	43	104	0	76	14909
2026-01-28 04:53:00.76	299.66	33.92	-52.9	-64.8	3.8	8.46e-01	0	43	104	0	76	14900
2026-01-28 04:53:03.78	298.61	33.64	-52.9	-64.7	3.8	8.46e-01	0	43	104	0	76	14823
2026-01-28 04:53:06.81	297.58	33.35	-52.9	-64.8	3.8	8.46e-01	0	43	104	0	76	14898
2026-01-28 04:53:09.83	296.56	33.05	-52.9	-64.8	3.8	8.45e-01	0	43	104	0	76	14923
2026-01-28 04:53:12.85	295.57	32.75	-52.9	-64.8	3.8	8.46e-01	0	43	104	0	76	14908
2026-01-28 04:53:15.88	294.59	32.44	-52.9	-64.8	3.8	8.46e-01	0	43	104	0	76	14891
2026-01-28 04:53:18.90	293.63	32.12	-52.9	-64.8	3.8	8.47e-01	0	43	104	0	76	14934
2026-01-28 04:53:21.92	292.70	31.80	-52.9	-64.7	3.8	8.47e-01	0	43	104	0	76	14848
2026-01-28 04:53:24.94	291.78	31.47	-52.8	-64.6	3.8	8.46e-01	0	43	104	0	76	14701
2026-01-28 04:53:27.97	290.87	31.14	-52.9	-64.7	3.8	8.46e-01	0	43	104	0	76	14790
2026-01-28 04:53:30.99	289.99	30.80	-52.8	-64.7	3.8	8.47e-01	0	43	104	0	76	14795
2026-01-28 04:53:34.02	289.13	30.46	-52.9	-64.7	3.8	8.46e-01	0	43	104	0	76	14854
2026-01-28 04:53:37.04	288.28	30.12	-52.8	-64.7	3.8	8.46e-01	0	43	104	0	76	14810
2026-01-28 04:53:40.06	287.45	29.77	-52.9	-64.7	3.8	8.46e-01	0	43	104	0	76	14849
2026-01-28 04:53:43.09	286.64	29.42	-52.9	-64.8	3.8	8.47e-01	0	43	104	0	76	14893
2026-01-28 04:53:46.11	285.85	29.07	-52.9	-64.8	3.8	8.47e-01	0	43	104	0	76	14922
2026-01-28 04:53:49.14	285.07	28.72	-52.8	-64.7	3.8	8.46e-01	0	44	104	0	76	14737
2026-01-28 04:53:52.16	284.31	28.37	-52.9	-64.8	3.8	8.45e-01	0	43	104	0	76	14884
2026-01-28 04:53:55.19	283.57	28.01	-52.9	-64.8	3.8	8.45e-01	0	43	104	0	76	14918
2026-01-28 04:53:58.21	282.85	27.66	-52.9	-64.7	3.8	8.47e-01	0	43	104	0	76	14759
2026-01-28 04:54:01.24	282.13	27.30	-52.9	-64.8	3.8	8.46e-01	0	43	104	0	76	14902
2026-01-28 04:54:04.26	281.44	26.95	-52.9	-64.8	3.8	8.47e-01	0	43	104	0	76	14885
2026-01-28 04:54:07.28	280.76	26.59	-52.9	-64.8	3.8	8.45e-01	0	44	104	0	76	14907
2026-01-28 04:54:10.31	280.10	26.24	-52.8	-64.8	3.8	8.47e-01	0	43	104	0	76	14934
2026-01-28 04:54:13.33	279.45	25.88	-52.9	-64.8	3.8	8.46e-01	0	43	104	0	76	14904
2026-01-28 04:54:16.35	278.82	25.53	-52.9	-64.8	3.8	8.46e-01	0	43	104	0	76	14913
2026-01-28 04:54:19.38	278.20	25.18	-52.9	-64.8	3.8	8.46e-01	0	43	104	0	76	14900
2026-01-28 04:54:22.41	277.59	24.82	-52.9	-64.8	3.8	8.45e-01	0	43	104	0	76	14917
2026-01-28 04:54:25.44	277.00	24.47	-52.9	-64.8	3.8	8.45e-01	0	43	104	0	76	14906
2026-01-28 04:54:28.45	276.42	24.12	-52.9	-64.8	3.8	8.46e-01	0	43	104	0	76	14927
2026-01-28 04:54:31.48	275.85	23.78	-52.9	-64.8	3.8	8.47e-01	0	43	104	0	76	14941
2026-01-28 04:54:34.50	275.30	23.43	-52.9	-64.8	3.8	8.45e-01	0	43	104	0	76	14881
2026-01-28 04:54:37.53	274.76	23.09	-52.9	-64.8	3.8	8.46e-01	0	43	104	0	76	14917
2026-01-28 04:54:40.55	274.23	22.74	-52.9	-64.8	3.8	8.45e-01	0	43	104	0	76	14970
2026-01-28 04:54:43.58	273.71	22.40	-52.9	-64.8	3.8	8.46e-01	0	43	104	0	76	14914
2026-01-28 04:54:46.60	273.20	22.06	-52.9	-64.8	3.8	8.45e-01	0	43	104	0	76	14960
2026-01-28 04:54:49.62	272.71	21.73	-52.9	-64.8	3.8	8.46e-01	0	43	104	0	76	14948
2026-01-28 04:54:52.65	272.22	21.39	-52.8	-64.8	3.8	8.46e-01	0	43	104	0	76	14905
2026-01-28 04:54:55.68	271.75	21.06	-52.9	-64.8	3.8	8.46e-01	0	43	104	0	76	14949
2026-01-28 04:54:58.70	271.29	20.73	-52.9	-64.8	3.8	8.46e-01	0	43	104	0	76	14931
2026-01-28 04:55:01.73	270.83	20.40	-52.9	-64.8	3.8	8.46e-01	0	43	104	0	76	14886
2026-01-28 04:55:04.75	270.39	20.08	-52.8	-64.8	3.8	8.48e-01	0	43	104	0	76	14967
2026-01-28 04:55:07.78	269.95	19.75	-52.9	-64.8	3.8	8.46e-01	0	43	104	0	76	14901
2026-01-28 04:55:10.81	269.52	19.43	-52.9	-64.8	3.8	8.45e-01	0	43	104	0	76	14953
2026-01-28 04:55:13.83	269.11	19.12	-52.9	-64.8	3.8	8.45e-01	0	43	104	0	76	14918
2026-01-28 04:55:16.85	268.70	18.80	-52.9	-64.8	3.8	8.45e-01	0	43	104	0	76	14957
2026-01-28 04:55:19.88	268.30	18.49	-52.9	-64.8	3.8	8.46e-01	0	43	104	0	76	14937
2026-01-28 04:55:22.91	267.91	18.18	-52.8	-64.8	3.8	8.46e-01	0	43	104	0	76	14903
2026-01-28 04:55:25.93	267.53	17.87	-52.8	-64.8	3.8	8.47e-01	0	43	104	0	76	14891
2026-01-28 04:55:28.96	267.15	17.56	-52.8	-64.8	3.8	8.46e-01	0	43	104	0	76	14942
2026-01-28 04:55:31.97	266.78	17.26	-52.9	-64.8	3.8	8.46e-01	0	43	104	0	76	14943
2026-01-28 04:55:35.00	266.42	16.96	-52.9	-64.8	3.8	8.46e-01	0	43	104	0	76	14886
2026-01-28 04:55:38.03	266.07	16.66	-52.9	-64.8	3.8	8.48e-01	0	43	104	0	76	14967
2026-01-28 04:55:41.05	265.72	16.37	-52.8	-64.8	3.8	8.47e-01	0	43	104	0	76	14912
2026-01-28 04:55:44.08	265.39	16.07	-52.8	-64.8	3.8	8.46e-01	0	43	104	0	76	14914
2026-01-28 04:55:47.10	265.05	15.78	-52.8	-64.8	3.8	8.45e-01	0	43	104	0	76	14947
2026-01-28 04:55:50.12	264.73	15.50	-52.9	-64.8	3.8	8.46e-01	0	43	104	0	76	14907
2026-01-28 04:55:53.14	264.41	15.21	-52.9	-64.8	3.8	8.47e-01	0	43	104	0	76	14880
2026-01-28 04:55:56.16	264.10	14.93	-52.9	-64.7	3.8	8.46e-01	0	44	104	0	76	14871
2026-01-28 04:55:59.19	263.79	14.65	-52.9	-64.8	3.8	8.46e-01	0	43	104	0	76	14962
2026-01-28 04:56:02.21	263.49	14.37	-52.8	-64.8	3.8	8.47e-01	0	43	104	0	76	14913
2026-01-28 04:56:05.24	263.19	14.09	-52.9	-64.8	3.8	8.46e-01	0	43	104	0	76	14899
2026-01-28 04:56:08.26	262.90	13.82	-52.8	-64.8	3.8	8.46e-01	0	43	104	0	76	14898
2026-01-28 04:56:11.28	262.62	13.55	-52.9	-64.8	3.8	8.47e-01	0	44	104	0	76	14954
2026-01-28 04:56:14.30	262.34	13.28	-52.8	-64.8	3.8	8.47e-01	0	43	104	0	76	14886
2026-01-28 04:56:17.33	262.07	13.01	-52.9	-64.8	3.8	8.46e-01	0	44	104	0	76	14954
2026-01-28 04:56:20.35	261.80	12.75	-52.8	-64.8	3.8	8.47e-01	0	43	104	0	76	14903
2026-01-28 04:56:23.38	261.53	12.48	-52.9	-64.8	3.8	8.46e-01	0	43	104	0	76	14928
2026-01-28 04:56:26.40	261.27	12.22	-52.8	-64.8	3.8	8.46e-01	0	44	104	0	76	14949
2026-01-28 04:56:29.42	261.02	11.97	-52.8	-64.7	3.8	8.47e-01	0	43	104	0	76	14876
2026-01-28 04:56:32.45	260.77	11.71	-52.9	-64.8	3.8	8.47e-01	0	43	104	0	76	14938
2026-01-28 04:56:35.47	260.52	11.46	-52.8	-64.7	3.8	8.46e-01	0	43	104	0	76	14855
2026-01-28 04:56:38.49	260.28	11.21	-52.9	-64.8	3.8	8.46e-01	0	43	104	0	76	14903
2026-01-28 04:56:41.52	260.05	10.95	-52.8	-64.7	3.8	8.45e-01	0	43	104	0	76	14876
2026-01-28 04:56:44.55	259.81	10.71	-52.8	-64.8	3.8	8.47e-01	0	44	104	0	76	14907
2026-01-28 04:56:47.57	259.58	10.46	-52.9	-64.8	3.8	8.46e-01	0	44	104	0	76	14927
2026-01-28 04:56:50.60	259.36	10.22	-52.8	-64.7	3.8	8.46e-01	0	43	104	0	76	14874
2026-01-28 04:56:53.62	259.14	9.98	-52.9	-64.8	3.8	8.46e-01	0	43	104	0	76	14891
2026-01-28 04:56:56.65	258.92	9.74	-52.9	-64.8	3.8	8.46e-01	0	44	104	0	76	14932
2026-01-28 04:56:59.67	258.71	9.50	-52.9	-64.8	3.8	8.47e-01	0	43	104	0	76	14937
2026-01-28 04:57:02.70	258.50	9.26	-52.8	-64.8	3.8	8.46e-01	0	44	104	0	76	14892
2026-01-28 04:57:05.73	258.29	9.03	-52.9	-64.8	3.8	8.46e-01	0	44	104	0	76	14909
2026-01-28 04:57:08.75	258.09	8.80	-52.8	-64.8	3.8	8.46e-01	0	43	104	0	76	14928
2026-01-28 04:57:11.77	257.89	8.57	-52.8	-64.7	3.8	8.46e-01	0	44	104	0	76	14861
2026-01-28 04:57:14.80	257.69	8.34	-52.9	-64.8	3.8	8.46e-01	0	43	104	0	76	14925
2026-01-28 04:57:17.82	257.50	8.11	-52.8	-64.7	3.8	8.46e-01	0	43	104	0	76	14865
2026-01-28 04:57:20.85	257.31	7.88	-52.8	-64.8	3.8	8.45e-01	0	43	104	0	76	14906
2026-01-28 04:57:23.87	257.12	7.66	-52.9	-64.8	3.8	8.47e-01	0	43	104	0	76	14886
2026-01-28 04:57:26.89	256.94	7.44	-52.8	-64.8	3.8	8.45e-01	0	43	104	0	76	14892
2026-01-28 04:57:29.91	256.76	7.22	-52.8	-64.8	3.8	8.45e-01	0	44	104	0	76	14925
2026-01-28 04:57:32.93	256.58	7.00	-52.9	-64.7	3.8	8.47e-01	0	44	104	0	76	14870
2026-01-28 04:57:35.96	256.40	6.78	-52.8	-64.8	3.8	8.46e-01	0	43	104	0	76	14889
2026-01-28 04:57:38.99	256.23	6.57	-52.8	-64.7	3.8	8.46e-01	0	43	104	0	76	14876
2026-01-28 04:57:42.01	256.06	6.35	-52.8	-64.8	3.8	8.45e-01	0	43	104	0	76	14914
2026-01-28 04:57:45.03	255.89	6.14	-52.8	-64.8	3.8	8.45e-01	0	43	104	0	76	14881
2026-01-28 04:57:48.05	255.73	5.93	-52.8	-64.8	3.8	8.46e-01	0	43	104	0	76	14918
2026-01-28 04:57:51.08	255.57	5.72	-52.8	-64.8	3.8	8.47e-01	0	43	104	0	76	14932
2026-01-28 04:57:54.11	255.40	5.51	-52.8	-64.8	3.8	8.46e-01	0	43	104	0	76	14915
2026-01-28 04:57:57.13	255.25	5.30	-52.8	-64.8	3.8	8.46e-01	0	43	104	0	76	14936
2026-01-28 04:58:00.16	255.09	5.10	-52.8	-64.8	3.8	8.46e-01	0	43	104	0	76	14920
2026-01-28 04:58:03.18	254.94	4.89	-52.8	-64.8	3.8	8.46e-01	0	43	104	0	76	14938
2026-01-28 04:58:06.20	254.79	4.69	-52.8	-64.8	3.8	8.47e-01	0	43	104	0	76	14908
2026-01-28 04:58:09.23	254.64	4.49	-52.8	-64.8	3.8	8.45e-01	0	43	104	0	76	14896
2026-01-28 04:58:12.25	254.49	4.29	-52.9	-64.8	3.8	8.45e-01	0	43	104	0	76	14927
2026-01-28 04:58:15.28	254.35	4.09	-52.8	-64.8	3.8	8.46e-01	0	43	104	0	76	14919
2026-01-28 04:58:18.31	254.21	3.89	-52.8	-64.8	3.8	8.45e-01	0	43	104	0	76	14936
2026-01-28 04:58:21.33	254.07	3.70	-52.8	-64.8	3.8	8.47e-01	0	43	104	0	76	14898
2026-01-28 04:58:24.36	253.93	3.50	-52.8	-64.8	3.8	8.46e-01	0	43	104	0	76	14915
2026-01-28 04:58:27.38	253.79	3.31	-52.8	-64.8	3.8	8.46e-01	0	44	104	0	76	14917
2026-01-28 04:58:30.41	253.66	3.12	-52.8	-64.8	3.8	8.47e-01	0	43	104	0	76	14952
2026-01-28 04:58:33.43	253.53	2.93	-52.8	-64.8	3.8	8.45e-01	0	43	104	0	76	14892
2026-01-28 04:58:36.45	253.40	2.74	-52.8	-64.7	3.8	8.46e-01	0	43	104	0	76	14865
2026-01-28 04:58:39.48	253.27	2.55	-52.8	-64.8	3.8	8.46e-01	0	43	104	0	76	14929
2026-01-28 04:58:42.50	253.14	2.36	-52.8	-64.8	3.8	8.46e-01	0	43	104	0	76	14890
2026-01-28 04:58:45.52	253.02	2.17	-52.8	-64.8	3.8	8.47e-01	0	43	104	0	76	14925
2026-01-28 04:58:48.54	252.89	1.99	-52.8	-64.8	3.8	8.46e-01	0	43	104	0	76	14913

#Closed at: 2026-01-28 04:58:50
#Recorded file [0 MB]: D:/lorett/data/31041_260128_074508.dat