passes_logs/2026/01/28/R3.2S_Murmansk/R3.2S_Murmansk__20260128_173042_TY-39_rec.log

#Pass ID: 20260128_173042_TY-39
#Satellite: TY-39
#Configuration: TY-39
#almurnet v.1.7.20251203
#Start time: 2026-01-28 17:30:43

#Version: 2.2.20231116
#Station: R3.2S_Murmansk
#Location: 33.079688 lon 68.888172 lat
#TLE: 1 51832U 22019J   26027.53500954  .00003458  00000-0  16483-3 0  9996
#TLE: 2 51832  97.3625  93.9185 0008876  12.4294 347.7158 15.19733854216436

#Time	Az	El	Level	Level2	SNR	BER	BlckErr	Temp	State	Recorded	gain1	gain2
2026-01-28 17:30:43.14	137.59	2.06	-54.4	-56.5	3.7	0.00e+00	0	45	0	0	79	19345
2026-01-28 17:30:46.15	137.51	2.27	-54.5	-56.7	3.7	0.00e+00	0	46	104	0	80	18605
2026-01-28 17:30:49.17	137.42	2.48	-54.5	-56.6	3.7	0.00e+00	0	46	104	0	80	18475
2026-01-28 17:30:52.20	137.33	2.70	-54.3	-56.5	3.7	0.00e+00	0	46	104	0	80	18225
2026-01-28 17:30:55.22	137.23	2.91	-54.2	-56.3	3.7	0.00e+00	0	46	104	0	80	17897
2026-01-28 17:30:58.24	137.14	3.13	-54.0	-56.1	3.7	0.00e+00	0	46	104	0	80	17525
2026-01-28 17:31:01.26	137.04	3.36	-53.7	-55.9	3.7	0.00e+00	0	46	104	0	79	17999
2026-01-28 17:31:04.29	136.94	3.58	-53.1	-55.3	3.7	0.00e+00	0	46	104	0	78	17780
2026-01-28 17:31:07.31	136.84	3.81	-52.2	-54.3	3.7	0.00e+00	0	47	104	0	76	17961
2026-01-28 17:31:10.33	136.74	4.04	-52.1	-54.3	3.7	0.00e+00	0	46	104	0	76	17833
2026-01-28 17:31:13.35	136.64	4.27	-52.1	-54.2	3.7	0.00e+00	0	47	104	0	76	17761
2026-01-28 17:31:16.37	136.53	4.50	-52.1	-54.3	3.7	0.00e+00	0	47	104	0	76	17791
2026-01-28 17:31:19.39	136.42	4.74	-52.1	-54.3	3.7	0.00e+00	0	47	104	0	76	17826
2026-01-28 17:31:22.41	136.31	4.98	-52.1	-54.3	3.7	0.00e+00	0	47	104	0	76	17807
2026-01-28 17:31:25.43	136.19	5.22	-52.3	-54.4	3.7	0.00e+00	0	47	104	0	76	18107
2026-01-28 17:31:28.45	136.07	5.47	-52.2	-54.3	3.7	0.00e+00	0	47	104	0	76	17907
2026-01-28 17:31:31.46	135.95	5.71	-52.3	-54.5	3.7	0.00e+00	0	47	104	0	75	19295
2026-01-28 17:31:34.48	135.83	5.96	-52.3	-54.5	3.7	0.00e+00	0	47	104	0	75	19274
2026-01-28 17:31:37.50	135.70	6.22	-52.4	-54.5	3.7	0.00e+00	0	47	104	0	75	19382
2026-01-28 17:31:40.52	135.57	6.48	-52.4	-54.5	3.7	0.00e+00	0	48	104	0	75	19369
2026-01-28 17:31:43.54	135.44	6.74	-52.4	-54.6	3.7	0.00e+00	0	47	104	0	75	19532
2026-01-28 17:31:46.55	135.31	7.00	-52.5	-54.6	3.7	0.00e+00	0	48	104	0	75	19587
2026-01-28 17:31:49.57	135.17	7.27	-52.5	-54.6	3.7	0.00e+00	0	48	104	0	75	19664
2026-01-28 17:31:52.60	135.02	7.54	-52.5	-54.7	3.7	0.00e+00	0	48	104	0	75	19740
2026-01-28 17:31:55.62	134.88	7.82	-52.5	-54.7	3.7	0.00e+00	0	48	104	0	75	19722
2026-01-28 17:31:58.65	134.73	8.10	-52.6	-54.7	3.7	0.00e+00	0	48	104	0	75	19900
2026-01-28 17:32:01.66	134.57	8.38	-52.6	-54.7	3.7	0.00e+00	0	48	104	0	75	19797
2026-01-28 17:32:04.67	134.42	8.66	-52.6	-54.8	3.7	0.00e+00	0	48	104	0	75	19973
2026-01-28 17:32:07.69	134.26	8.96	-52.6	-54.8	3.7	0.00e+00	0	48	104	0	75	19938
2026-01-28 17:32:10.71	134.09	9.25	-52.7	-54.9	3.7	0.00e+00	0	48	104	0	75	20231
2026-01-28 17:32:13.74	133.92	9.55	-52.7	-54.8	3.7	0.00e+00	0	48	104	0	76	19006
2026-01-28 17:32:16.75	133.74	9.86	-52.8	-54.9	3.7	0.00e+00	0	48	104	0	76	19113
2026-01-28 17:32:19.78	133.56	10.17	-52.7	-54.9	3.7	0.00e+00	0	48	104	0	76	19057
2026-01-28 17:32:22.80	133.38	10.48	-52.8	-54.9	3.7	0.00e+00	0	48	104	0	76	19244
2026-01-28 17:32:25.83	133.19	10.80	-52.8	-54.9	3.7	0.00e+00	0	48	104	0	76	19181
2026-01-28 17:32:28.85	132.99	11.13	-52.8	-55.0	3.7	0.00e+00	0	48	104	0	76	19291
2026-01-28 17:32:31.86	132.79	11.46	-52.8	-54.9	3.7	0.00e+00	0	48	104	0	76	19147
2026-01-28 17:32:34.88	132.58	11.80	-52.9	-55.0	3.7	0.00e+00	0	48	104	0	76	19419
2026-01-28 17:32:37.90	132.37	12.14	-52.8	-55.0	3.7	0.00e+00	0	48	104	0	76	19270
2026-01-28 17:32:40.92	132.15	12.49	-52.9	-55.0	3.7	0.00e+00	0	48	104	0	76	19442
2026-01-28 17:32:43.94	131.92	12.84	-52.9	-55.0	3.7	0.00e+00	0	48	104	0	76	19394
2026-01-28 17:32:46.96	131.69	13.20	-53.0	-55.1	3.7	0.00e+00	0	48	104	0	76	19573
2026-01-28 17:32:49.97	131.45	13.57	-52.9	-55.0	3.7	0.00e+00	0	49	104	0	76	19293
2026-01-28 17:32:53.00	131.20	13.94	-53.0	-55.1	3.7	0.00e+00	0	48	104	0	76	19593
2026-01-28 17:32:56.02	130.95	14.33	-53.0	-55.1	3.7	0.00e+00	0	49	104	0	76	19560
2026-01-28 17:32:59.04	130.68	14.72	-53.1	-55.2	3.7	0.00e+00	0	49	104	0	76	19739
2026-01-28 17:33:02.06	130.41	15.11	-53.0	-55.1	3.6	0.00e+00	0	48	104	0	76	19670
2026-01-28 17:33:05.07	130.13	15.52	-53.1	-55.2	3.7	0.00e+00	0	49	104	0	76	19782
2026-01-28 17:33:08.08	129.84	15.93	-53.1	-55.3	3.7	0.00e+00	0	48	104	0	76	19967
2026-01-28 17:33:11.11	129.53	16.35	-53.2	-55.3	3.7	0.00e+00	0	49	104	0	76	20040
2026-01-28 17:33:14.12	129.22	16.78	-53.1	-55.2	3.7	0.00e+00	0	49	104	0	76	19899
2026-01-28 17:33:17.14	128.90	17.22	-53.2	-55.3	3.7	0.00e+00	0	49	104	0	77	19019
2026-01-28 17:33:20.16	128.56	17.67	-53.2	-55.3	3.7	0.00e+00	0	48	104	0	77	18998
2026-01-28 17:33:23.18	128.22	18.13	-53.3	-55.4	3.7	0.00e+00	0	49	104	0	77	19124
2026-01-28 17:33:26.19	127.86	18.59	-53.2	-55.4	3.7	0.00e+00	0	49	104	0	77	19036
2026-01-28 17:33:29.21	127.49	19.07	-53.3	-55.4	3.7	0.00e+00	0	49	104	0	77	19226
2026-01-28 17:33:32.23	127.10	19.56	-53.4	-55.5	3.7	0.00e+00	0	48	104	0	77	19373
2026-01-28 17:33:35.24	126.70	20.06	-53.4	-55.5	3.7	0.00e+00	0	49	104	0	77	19438
2026-01-28 17:33:38.27	126.28	20.57	-53.4	-55.5	3.7	0.00e+00	0	49	104	0	77	19386
2026-01-28 17:33:41.29	125.85	21.10	-53.4	-55.5	3.7	0.00e+00	0	49	104	0	77	19476
2026-01-28 17:33:44.31	125.39	21.63	-53.4	-55.6	3.7	0.00e+00	0	49	104	0	77	19496
2026-01-28 17:33:47.33	124.92	22.18	-53.5	-55.6	3.7	0.00e+00	0	49	104	0	77	19616
2026-01-28 17:33:50.35	124.43	22.74	-53.5	-55.6	3.7	0.00e+00	0	49	104	0	77	19632
2026-01-28 17:33:53.36	123.92	23.32	-53.5	-55.7	3.7	0.00e+00	0	49	104	0	77	19714
2026-01-28 17:33:56.37	123.39	23.90	-53.6	-55.7	3.7	0.00e+00	0	49	104	0	77	19902
2026-01-28 17:33:59.38	122.84	24.50	-53.7	-55.8	3.7	0.00e+00	0	49	104	0	77	20014
2026-01-28 17:34:02.39	122.26	25.12	-53.6	-55.8	3.7	0.00e+00	0	49	104	0	77	19958
2026-01-28 17:34:05.41	121.65	25.75	-53.7	-55.8	3.7	0.00e+00	0	49	104	0	77	19958
2026-01-28 17:34:08.42	121.02	26.39	-53.7	-55.8	3.7	0.00e+00	0	49	104	0	77	20013
2026-01-28 17:34:11.44	120.35	27.06	-53.7	-55.8	3.7	0.00e+00	0	49	104	0	77	20056
2026-01-28 17:34:14.45	119.66	27.73	-53.7	-55.8	3.7	0.00e+00	0	49	104	0	77	20159
2026-01-28 17:34:17.46	118.93	28.42	-53.7	-55.9	3.7	0.00e+00	0	49	104	0	78	19122
2026-01-28 17:34:20.48	118.17	29.13	-53.7	-55.9	3.7	0.00e+00	0	49	104	0	78	19101
2026-01-28 17:34:23.50	117.36	29.86	-53.8	-55.9	3.7	0.00e+00	0	49	104	0	78	19200
2026-01-28 17:34:26.51	116.52	30.59	-53.8	-56.0	3.7	0.00e+00	0	49	104	0	78	19262
2026-01-28 17:34:29.52	115.64	31.35	-53.8	-55.9	3.7	0.00e+00	0	49	104	0	78	19226
2026-01-28 17:34:32.54	114.70	32.12	-53.8	-55.9	3.7	0.00e+00	0	49	104	0	78	19195
2026-01-28 17:34:35.54	113.72	32.90	-53.8	-56.0	3.7	0.00e+00	0	49	104	0	78	19318
2026-01-28 17:34:38.56	112.68	33.70	-53.8	-56.0	3.7	0.00e+00	0	49	104	0	78	19327
2026-01-28 17:34:41.57	111.59	34.52	-35.4	-35.2	14.7	5.76e-04	0	49	0	25165824	42	14006
2026-01-28 17:34:44.58	110.44	35.34	-28.4	-28.2	16.0	0.00e+00	0	50	0	159383552	28	14057
2026-01-28 17:34:47.59	109.23	36.18	-28.0	-27.9	16.2	0.00e+00	0	50	0	385875968	27	14281
2026-01-28 17:34:50.62	107.93	37.04	-27.4	-27.3	16.3	0.00e+00	0	50	0	612368384	26	14250
2026-01-28 17:34:53.64	106.57	37.90	-27.3	-27.2	16.4	0.00e+00	0	50	0	830472192	26	14088
2026-01-28 17:34:56.65	105.14	38.76	-27.1	-27.0	16.4	0.00e+00	0	50	0	1065353216	26	13727
2026-01-28 17:34:59.67	103.61	39.63	-27.1	-27.0	16.4	0.00e+00	0	50	0	1291845632	26	13636
2026-01-28 17:35:02.69	102.00	40.51	-26.9	-26.8	16.5	0.00e+00	0	50	0	1518338048	25	14158
2026-01-28 17:35:05.72	100.29	41.38	-26.7	-26.6	16.5	0.00e+00	0	50	0	1744830464	25	13871
2026-01-28 17:35:08.74	98.48	42.24	-26.5	-26.4	16.5	0.00e+00	0	50	0	1971322880	25	13607
2026-01-28 17:35:11.76	96.57	43.10	-26.4	-26.3	16.6	0.00e+00	0	50	0	2197815296	24	14219
2026-01-28 17:35:14.79	94.55	43.94	-26.3	-26.2	16.6	0.00e+00	0	50	0	2424307712	24	14069
2026-01-28 17:35:17.81	92.42	44.76	-26.3	-26.2	16.6	0.00e+00	0	50	0	2650800128	24	14004
2026-01-28 17:35:20.83	90.18	45.55	-26.1	-26.0	16.6	0.00e+00	0	50	0	2877292544	24	13742
2026-01-28 17:35:23.86	87.82	46.31	-26.1	-26.0	16.6	0.00e+00	0	50	0	3103784960	24	13716
2026-01-28 17:35:26.88	85.34	47.03	-25.9	-25.8	16.6	0.00e+00	0	50	0	3330277376	23	14268
2026-01-28 17:35:29.90	82.75	47.70	-25.8	-25.7	16.6	0.00e+00	0	50	0	3556769792	23	14091
2026-01-28 17:35:32.92	80.04	48.31	-25.7	-25.6	16.7	0.00e+00	0	50	0	3783262208	23	13882
2026-01-28 17:35:35.94	77.23	48.87	-25.8	-25.7	16.7	0.00e+00	0	51	0	4009754624	23	13964
2026-01-28 17:35:38.96	74.32	49.36	-25.6	-25.5	16.7	0.00e+00	0	51	0	4236247040	23	13742
2026-01-28 17:35:41.99	71.31	49.77	-25.5	-25.4	16.7	0.00e+00	0	51	0	4462739456	23	13601
2026-01-28 17:35:44.96	68.28	50.09	-25.6	-25.5	16.7	0.00e+00	0	51	0	4689231872	23	13757
2026-01-28 17:35:47.99	65.14	50.34	-25.4	-25.3	16.8	0.00e+00	0	51	0	4915724288	22	14247
2026-01-28 17:35:50.90	62.07	50.50	-25.5	-25.4	16.7	0.00e+00	0	51	0	5133828096	22	14349
2026-01-28 17:35:53.99	58.80	50.56	-25.4	-25.3	16.7	0.00e+00	0	51	0	5368709120	22	14208
2026-01-28 17:35:56.87	55.74	50.54	-25.5	-25.4	16.8	0.00e+00	0	51	0	5578424320	22	14306
2026-01-28 17:35:59.85	52.59	50.43	-25.6	-25.5	16.6	0.00e+00	0	51	0	5804916736	22	14503
2026-01-28 17:36:02.88	49.42	50.23	-25.5	-25.4	16.7	0.00e+00	0	51	0	6031409152	22	14374
2026-01-28 17:36:05.90	46.32	49.94	-25.5	-25.4	16.7	0.00e+00	0	51	0	6257901568	22	14321
2026-01-28 17:36:08.93	43.27	49.56	-25.6	-25.5	16.7	0.00e+00	0	51	0	6484393984	22	14466
2026-01-28 17:36:11.95	40.32	49.11	-25.6	-25.5	16.7	0.00e+00	0	51	0	6710886400	22	14521
2026-01-28 17:36:14.98	37.46	48.59	-25.6	-25.5	16.7	0.00e+00	0	51	0	6937378816	22	14576
2026-01-28 17:36:17.99	34.72	48.00	-25.7	-25.6	16.7	0.00e+00	0	51	0	7163871232	22	14737
2026-01-28 17:36:21.01	32.08	47.36	-25.8	-25.7	16.6	0.00e+00	0	51	0	7390363648	22	14909
2026-01-28 17:36:24.03	29.55	46.66	-25.9	-25.8	16.6	0.00e+00	0	51	0	7616856064	22	14968
2026-01-28 17:36:27.05	27.15	45.93	-26.2	-26.1	16.5	0.00e+00	0	51	0	7843348480	22	15506
2026-01-28 17:36:30.06	24.86	45.16	-26.2	-26.1	16.6	0.00e+00	0	51	0	8069840896	22	15492
2026-01-28 17:36:33.08	22.69	44.36	-26.2	-26.1	16.6	0.00e+00	0	51	0	8296333312	23	14696
2026-01-28 17:36:36.09	20.63	43.53	-26.4	-26.3	16.6	0.00e+00	0	51	0	8522825728	23	14952
2026-01-28 17:36:39.11	18.68	42.69	-26.6	-26.5	16.5	0.00e+00	0	51	0	8749318144	23	15358
2026-01-28 17:36:42.12	16.83	41.84	-26.6	-26.5	16.5	0.00e+00	0	51	0	8975810560	23	15467
2026-01-28 17:36:45.15	15.08	40.97	-26.7	-26.6	16.5	0.00e+00	0	51	0	9202302976	24	14712
2026-01-28 17:36:48.17	13.43	40.11	-26.8	-26.7	16.4	0.00e+00	0	51	0	9428795392	24	14929
2026-01-28 17:36:51.19	11.87	39.24	-26.9	-26.8	16.4	0.00e+00	0	51	0	9655287808	24	15022
2026-01-28 17:36:54.20	10.39	38.38	-27.0	-26.9	16.4	0.00e+00	0	51	0	9881780224	24	15278
2026-01-28 17:36:57.22	9.00	37.52	-27.2	-27.1	16.4	0.00e+00	0	51	0	10108272640	24	15555
2026-01-28 17:37:00.24	7.68	36.67	-27.5	-27.4	16.3	0.00e+00	0	51	0	10334765056	25	15131
2026-01-28 17:37:03.26	6.43	35.83	-27.5	-27.4	16.3	0.00e+00	0	51	0	10561257472	25	15283
2026-01-28 17:37:06.29	5.24	34.99	-27.7	-27.6	16.2	0.00e+00	0	51	0	10787749888	25	15522
2026-01-28 17:37:09.30	4.13	34.18	-27.8	-27.7	16.2	0.00e+00	0	51	0	11014242304	26	14913
2026-01-28 17:37:12.32	3.07	33.37	-28.0	-27.9	16.1	0.00e+00	0	51	0	11240734720	26	15252
2026-01-28 17:37:15.35	2.06	32.58	-28.2	-28.1	16.1	0.00e+00	0	51	0	11467227136	27	14690
2026-01-28 17:37:18.37	1.10	31.81	-28.3	-28.2	16.1	0.00e+00	0	51	0	11693719552	27	14835
2026-01-28 17:37:21.40	0.19	31.04	-28.4	-28.3	16.0	0.00e+00	0	51	0	11920211968	27	15104
2026-01-28 17:37:24.42	359.33	30.30	-28.5	-28.4	16.0	0.00e+00	0	51	0	12146704384	27	15251
2026-01-28 17:37:27.44	358.51	29.57	-28.7	-28.6	15.9	0.00e+00	0	51	0	12373196800	28	14624
2026-01-28 17:37:30.46	357.73	28.86	-28.9	-28.8	15.8	0.00e+00	0	51	0	12599689216	28	15104
2026-01-28 17:37:33.49	356.98	28.16	-28.9	-28.8	15.8	0.00e+00	0	51	0	12826181632	28	15120
2026-01-28 17:37:36.51	356.27	27.48	-29.1	-29.0	15.8	0.00e+00	0	51	0	13052674048	28	15416
2026-01-28 17:37:39.52	355.60	26.82	-29.2	-29.1	15.7	0.00e+00	0	51	0	13279166464	29	14700
2026-01-28 17:37:42.53	354.95	26.17	-29.3	-29.2	15.7	0.00e+00	0	51	0	13505658880	29	14937
2026-01-28 17:37:45.55	354.34	25.53	-29.5	-29.4	15.6	0.00e+00	0	51	0	13732151296	29	15270
2026-01-28 17:37:48.57	353.75	24.91	-29.8	-29.7	15.5	0.00e+00	0	51	0	13958643712	30	14809
2026-01-28 17:37:51.59	353.18	24.31	-29.9	-29.8	15.5	0.00e+00	0	51	0	14185136128	30	15034
2026-01-28 17:37:54.61	352.64	23.72	-30.0	-29.9	15.5	0.00e+00	0	51	0	14411628544	30	15163
2026-01-28 17:37:57.63	352.12	23.14	-30.1	-30.0	15.4	0.00e+00	0	51	0	14638120960	30	15377
2026-01-28 17:38:00.65	351.62	22.58	-30.2	-30.2	15.4	0.00e+00	0	51	0	14864613376	31	14784
2026-01-28 17:38:03.67	351.15	22.02	-30.4	-30.3	15.3	0.00e+00	0	51	0	15091105792	31	15092
2026-01-28 17:38:06.69	350.69	21.48	-30.5	-30.4	15.2	0.00e+00	0	51	0	15317598208	31	15288
2026-01-28 17:38:09.71	350.25	20.96	-30.6	-30.5	15.1	0.00e+00	0	51	0	15544090624	32	14577
2026-01-28 17:38:12.71	349.83	20.45	-30.8	-30.7	15.0	0.00e+00	0	51	0	15770583040	32	14848
2026-01-28 17:38:15.73	349.42	19.94	-30.7	-30.7	15.1	0.00e+00	0	51	0	15988686848	32	14787
2026-01-28 17:38:18.75	349.03	19.45	-30.9	-30.8	15.0	0.00e+00	0	51	0	16223567872	32	15016
2026-01-28 17:38:21.77	348.65	18.97	-31.2	-31.1	14.9	0.00e+00	0	51	0	16450060288	32	15532
2026-01-28 17:38:24.80	348.29	18.50	-31.1	-31.0	14.9	0.00e+00	0	51	0	16676552704	32	15453
2026-01-28 17:38:27.81	347.94	18.04	-31.2	-31.2	14.8	0.00e+00	0	51	0	16903045120	33	14791
2026-01-28 17:38:30.83	347.60	17.59	-31.5	-31.5	14.7	0.00e+00	0	51	0	17121148928	33	15316
2026-01-28 17:38:33.85	347.27	17.15	-31.5	-31.5	14.7	0.00e+00	0	51	0	17356029952	33	15334
2026-01-28 17:38:36.87	346.96	16.71	-31.7	-31.7	14.6	0.00e+00	0	51	0	17582522368	34	14800
2026-01-28 17:38:39.89	346.65	16.29	-31.9	-31.8	14.5	0.00e+00	0	51	0	17809014784	34	15012
2026-01-28 17:38:42.92	346.36	15.87	-31.9	-31.9	14.5	0.00e+00	0	51	0	18035507200	34	15159
2026-01-28 17:38:45.94	346.07	15.47	-32.0	-32.0	14.4	0.00e+00	0	51	0	18261999616	34	15308
2026-01-28 17:38:48.97	345.79	15.07	-32.2	-32.2	14.3	0.00e+00	0	51	0	18488492032	35	14801
2026-01-28 17:38:51.99	345.53	14.68	-32.4	-32.3	14.2	0.00e+00	0	52	0	18714984448	35	15002
2026-01-28 17:38:55.01	345.27	14.29	-32.5	-32.4	14.2	0.00e+00	0	51	0	18941476864	35	15192
2026-01-28 17:38:58.03	345.02	13.92	-32.5	-32.4	14.1	0.00e+00	0	52	0	19167969280	35	15282
2026-01-28 17:39:01.05	344.78	13.55	-32.7	-32.6	14.0	6.90e-06	0	51	0	19394461696	35	15546
2026-01-28 17:39:04.08	344.54	13.18	-35.2	-35.1	14.7	0.00e+00	0	52	0	19620954112	41	14756
2026-01-28 17:39:07.10	344.31	12.83	-35.3	-35.2	14.6	0.00e+00	0	51	0	19847446528	41	14849
2026-01-28 17:39:10.13	344.09	12.48	-35.5	-35.4	14.5	0.00e+00	0	51	0	20073938944	41	15216
2026-01-28 17:39:13.15	343.88	12.13	-35.5	-35.4	14.5	0.00e+00	0	52	0	20300431360	41	15282
2026-01-28 17:39:16.17	343.67	11.79	-35.7	-35.6	14.4	0.00e+00	0	52	0	20526923776	42	14753
2026-01-28 17:39:19.19	343.47	11.46	-35.8	-35.8	14.3	0.00e+00	0	52	0	20753416192	42	14951
2026-01-28 17:39:22.21	343.27	11.14	-35.8	-35.7	14.3	0.00e+00	0	52	0	20979908608	42	14864
2026-01-28 17:39:25.24	343.08	10.81	-35.9	-35.8	14.2	0.00e+00	0	51	0	21206401024	42	15056
2026-01-28 17:39:28.26	342.89	10.50	-36.0	-36.0	14.1	0.00e+00	0	51	0	21432893440	42	15325
2026-01-28 17:39:31.28	342.71	10.19	-36.1	-36.1	14.1	0.00e+00	0	52	0	21659385856	42	15506
2026-01-28 17:39:34.30	342.54	9.88	-36.2	-36.2	14.0	6.90e-06	0	51	0	21885878272	43	14817
2026-01-28 17:39:37.32	342.36	9.58	-36.4	-36.3	13.9	0.00e+00	0	52	0	22112370688	43	15054
2026-01-28 17:39:40.34	342.20	9.28	-36.4	-36.3	13.9	0.00e+00	0	52	0	22347251712	43	15063
2026-01-28 17:39:43.37	342.04	8.99	-36.5	-36.4	13.8	0.00e+00	0	52	0	22565355520	43	15283
2026-01-28 17:39:46.39	341.88	8.70	-36.6	-36.6	13.7	6.90e-06	0	52	0	22791847936	44	14640
2026-01-28 17:39:49.41	341.72	8.42	-36.7	-36.6	13.7	0.00e+00	0	52	0	23018340352	44	14670
2026-01-28 17:39:52.44	341.57	8.14	-36.9	-36.8	13.5	1.38e-05	0	52	0	23253221376	44	15094
2026-01-28 17:39:55.47	341.43	7.86	-37.0	-37.0	13.4	0.00e+00	0	52	0	23479713792	44	15329
2026-01-28 17:39:58.48	341.29	7.59	-37.1	-37.1	13.3	0.00e+00	0	52	0	23697817600	44	15490
2026-01-28 17:40:01.50	341.15	7.32	-37.2	-37.1	13.3	0.00e+00	0	52	0	23924310016	45	14716
2026-01-28 17:40:04.52	341.01	7.05	-37.2	-37.1	13.3	1.38e-05	0	52	0	24150802432	45	14707
2026-01-28 17:40:07.53	340.88	6.79	-37.2	-37.2	13.2	0.00e+00	0	52	0	24377294848	45	14827
2026-01-28 17:40:10.56	340.75	6.53	-37.6	-37.6	12.9	1.38e-05	0	52	0	24612175872	45	15543
2026-01-28 17:40:13.59	340.62	6.28	-37.4	-37.4	13.0	1.38e-05	0	51	0	24830279680	46	14352
2026-01-28 17:40:16.61	340.50	6.03	-37.6	-37.6	12.9	6.24e-05	0	52	0	25056772096	46	14618
2026-01-28 17:40:19.63	340.38	5.78	-37.8	-37.7	12.8	3.46e-05	0	52	0	25283264512	46	14894
2026-01-28 17:40:22.65	340.26	5.53	-37.8	-37.8	12.7	2.08e-05	0	52	0	25518145536	46	14998
2026-01-28 17:40:25.68	340.15	5.29	-52.4	-54.6	3.7	4.85e-05	0	51	104	25618808832	75	19578
2026-01-28 17:40:28.69	340.04	5.05	-52.2	-54.4	3.7	4.85e-05	0	51	104	25618808832	75	19083
2026-01-28 17:40:31.71	339.93	4.81	-53.1	-55.2	3.7	4.85e-05	0	51	104	25618808832	76	19885
2026-01-28 17:40:34.74	339.82	4.58	-53.6	-55.7	3.7	4.85e-05	0	50	104	25618808832	77	19923
2026-01-28 17:40:37.76	339.72	4.35	-53.9	-56.0	3.7	4.85e-05	0	51	104	25618808832	78	19459
2026-01-28 17:40:40.79	339.61	4.12	-53.9	-56.0	3.7	4.85e-05	0	50	104	25618808832	78	19419
2026-01-28 17:40:43.84	339.51	3.89	-53.6	-55.7	3.7	4.85e-05	0	50	104	25618808832	78	18699
2026-01-28 17:40:46.85	339.42	3.66	-53.6	-55.8	3.7	4.85e-05	0	50	104	25618808832	78	18851
2026-01-28 17:40:49.87	339.32	3.44	-53.7	-55.8	3.7	4.85e-05	0	50	104	25618808832	78	18889
2026-01-28 17:40:52.88	339.23	3.22	-53.5	-55.7	3.7	4.85e-05	0	50	104	25618808832	78	18645
2026-01-28 17:40:55.91	339.14	3.00	-53.5	-55.7	3.7	4.85e-05	0	50	104	25618808832	78	18610
2026-01-28 17:40:58.93	339.05	2.79	-53.5	-55.6	3.7	4.85e-05	0	50	104	25618808832	78	18556
2026-01-28 17:41:01.94	338.96	2.57	-53.5	-55.6	3.7	4.85e-05	0	50	104	25618808832	78	18475
2026-01-28 17:41:04.97	338.87	2.36	-53.4	-55.6	3.6	4.85e-05	0	50	104	25618808832	78	18425
2026-01-28 17:41:07.99	338.79	2.15	-53.4	-55.6	3.7	4.85e-05	0	50	104	25618808832	78	18397
2026-01-28 17:41:11.02	338.71	1.94	-53.4	-55.5	3.7	4.85e-05	0	50	104	25618808832	78	18356

#Closed at: 2026-01-28 17:41:11
#Recorded file [25618 MB]: D:/lorett/data/31041_260128_203042.dat