passes_logs/2026/01/28/R3.2S_Murmansk/R3.2S_Murmansk__20260128_144550_FENGYUN_3D_rec.log

#Pass ID: 20260128_144550_FENGYUN 3D
#Satellite: FENGYUN 3D
#Configuration: FENGYUN 3D
#almurnet v.1.7.20251203
#Start time: 2026-01-28 14:45:51

#Version: 2.2.20231116
#Station: R3.2S_Murmansk
#Location: 33.079688 lon 68.888172 lat
#TLE: 1 43010U 17072A   26027.90082829  .00000305  00000+0  16579-3 0  9998
#TLE: 2 43010  98.9960 359.9183 0002511  88.1058 272.0405 14.19701796425082

#Time	Az	El	Level	Level2	SNR	BER	BlckErr	Temp	State	Recorded	gain1	gain2
2026-01-28 14:45:51.79	234.00	2.07	-53.5	-65.5	3.8	8.46e-01	0	40	0	0	79	13627
2026-01-28 14:45:54.82	234.28	2.22	-52.5	-64.4	3.8	8.47e-01	0	40	104	0	76	14274
2026-01-28 14:45:57.84	234.57	2.36	-52.4	-64.3	3.8	8.46e-01	0	41	104	0	76	14194
2026-01-28 14:46:00.87	234.85	2.51	-52.4	-64.3	3.8	8.47e-01	0	41	104	0	76	14167
2026-01-28 14:46:03.90	235.14	2.65	-52.4	-64.3	3.8	8.46e-01	0	41	104	0	76	14185
2026-01-28 14:46:06.92	235.43	2.80	-52.4	-64.3	3.8	8.46e-01	0	41	104	0	76	14131
2026-01-28 14:46:09.94	235.73	2.94	-52.4	-64.3	3.8	8.47e-01	0	41	104	0	76	14152
2026-01-28 14:46:12.96	236.02	3.09	-52.4	-64.3	3.8	8.46e-01	0	41	104	0	76	14128
2026-01-28 14:46:15.99	236.32	3.23	-52.4	-64.3	3.8	8.46e-01	0	41	104	0	76	14141
2026-01-28 14:46:19.01	236.62	3.38	-52.4	-64.2	3.8	8.46e-01	0	41	104	0	76	14032
2026-01-28 14:46:22.04	236.93	3.53	-52.4	-64.3	3.8	8.46e-01	0	41	104	0	76	14069
2026-01-28 14:46:25.06	237.24	3.67	-52.4	-64.3	3.8	8.47e-01	0	41	104	0	76	14070
2026-01-28 14:46:28.09	237.55	3.82	-52.4	-64.2	3.8	8.47e-01	0	41	104	0	76	14045
2026-01-28 14:46:31.11	237.86	3.97	-52.3	-63.8	3.8	8.46e-01	0	41	104	0	76	13406
2026-01-28 14:46:34.13	238.18	4.11	-52.3	-64.1	3.8	8.47e-01	0	41	104	0	76	13840
2026-01-28 14:46:37.15	238.50	4.26	-52.3	-64.0	3.8	8.46e-01	0	41	104	0	76	13672
2026-01-28 14:46:40.17	238.82	4.40	-52.3	-64.2	3.8	8.45e-01	0	42	104	0	76	13957
2026-01-28 14:46:43.19	239.15	4.55	-51.8	-59.9	4.4	8.38e-01	0	42	0	0	75	9017
2026-01-28 14:46:46.22	239.48	4.70	-51.7	-59.3	4.7	7.92e-01	0	42	0	0	75	8453
2026-01-28 14:46:49.24	239.81	4.84	-49.9	-53.6	9.4	6.51e-02	0	42	0	7340032	71	5495
2026-01-28 14:46:52.27	240.15	4.99	-45.3	-46.7	16.6	0.00e+00	0	42	0	24117248	62	4151
2026-01-28 14:46:55.29	240.49	5.14	-48.0	-50.3	12.9	6.61e-03	0	42	0	40894464	68	4442
2026-01-28 14:46:58.32	240.83	5.28	-44.3	-45.6	17.8	0.00e+00	0	42	0	58720256	60	4102
2026-01-28 14:47:01.34	241.17	5.43	-43.4	-44.4	19.2	0.00e+00	0	42	0	75497472	58	4039
2026-01-28 14:47:04.36	241.52	5.58	-43.7	-44.8	18.9	0.00e+00	0	42	0	92274688	58	4205
2026-01-28 14:47:07.39	241.88	5.72	-43.4	-44.5	19.2	0.00e+00	0	42	0	109051904	58	4081
2026-01-28 14:47:10.41	242.23	5.87	-43.4	-44.5	19.3	0.00e+00	0	42	0	126877696	58	4056
2026-01-28 14:47:13.44	242.59	6.02	-43.2	-44.3	19.4	0.00e+00	0	42	0	143654912	58	3976
2026-01-28 14:47:16.46	242.95	6.16	-43.2	-44.3	19.5	0.00e+00	0	42	0	160432128	57	4209
2026-01-28 14:47:19.49	243.32	6.31	-42.9	-43.9	19.8	0.00e+00	0	42	0	177209344	57	4038
2026-01-28 14:47:22.52	243.69	6.46	-43.0	-44.1	19.7	0.00e+00	0	42	0	193986560	57	4100
2026-01-28 14:47:25.54	244.06	6.60	-43.1	-44.1	19.7	0.00e+00	0	42	0	211812352	57	4123
2026-01-28 14:47:28.58	244.44	6.75	-43.1	-44.1	19.7	0.00e+00	0	42	0	228589568	57	4121
2026-01-28 14:47:31.60	244.82	6.89	-42.8	-43.8	20.0	0.00e+00	0	42	0	245366784	57	3973
2026-01-28 14:47:34.63	245.21	7.04	-42.9	-43.9	19.9	0.00e+00	0	42	0	262144000	57	4015
2026-01-28 14:47:37.65	245.60	7.18	-42.7	-43.7	20.1	0.00e+00	0	42	0	278921216	57	3948
2026-01-28 14:47:40.68	245.99	7.33	-42.8	-43.8	20.0	0.00e+00	0	42	0	296747008	57	3984
2026-01-28 14:47:43.71	246.39	7.47	-42.8	-43.8	20.1	0.00e+00	0	42	0	313524224	57	3978
2026-01-28 14:47:46.73	246.78	7.62	-42.8	-43.8	20.1	0.00e+00	0	42	0	330301440	57	3970
2026-01-28 14:47:49.76	247.19	7.76	-42.6	-43.5	20.3	0.00e+00	0	42	0	347078656	57	3867
2026-01-28 14:47:52.78	247.59	7.90	-42.6	-43.6	20.3	0.00e+00	0	42	0	363855872	57	3888
2026-01-28 14:47:55.80	248.00	8.05	-42.4	-43.4	20.5	0.00e+00	0	42	0	381681664	56	4017
2026-01-28 14:47:58.82	248.42	8.19	-42.3	-43.2	20.7	0.00e+00	0	42	0	398458880	56	3941
2026-01-28 14:48:01.85	248.84	8.33	-42.3	-43.3	20.6	0.00e+00	0	42	0	415236096	56	3968
2026-01-28 14:48:04.87	249.26	8.47	-42.4	-43.3	20.5	0.00e+00	0	42	0	432013312	56	3997
2026-01-28 14:48:07.89	249.69	8.61	-42.3	-43.2	20.7	0.00e+00	0	42	0	448790528	56	3942
2026-01-28 14:48:10.92	250.12	8.75	-42.2	-43.1	20.8	0.00e+00	0	42	0	466616320	56	3909
2026-01-28 14:48:13.95	250.55	8.89	-42.3	-43.3	20.7	0.00e+00	0	42	0	483393536	56	3963
2026-01-28 14:48:16.97	250.99	9.03	-42.4	-43.4	20.6	0.00e+00	0	42	0	500170752	56	4014
2026-01-28 14:48:19.99	251.43	9.17	-42.3	-43.2	20.7	0.00e+00	0	42	0	516947968	56	3945
2026-01-28 14:48:23.02	251.88	9.31	-42.2	-43.1	20.9	0.00e+00	0	42	0	534773760	56	3885
2026-01-28 14:48:26.05	252.33	9.44	-42.1	-43.0	21.0	0.00e+00	0	42	0	551550976	56	3844
2026-01-28 14:48:29.08	252.79	9.58	-42.1	-43.0	21.0	0.00e+00	0	42	0	568328192	56	3833
2026-01-28 14:48:32.11	253.25	9.72	-41.9	-42.8	21.1	0.00e+00	0	43	0	586153984	55	3982
2026-01-28 14:48:35.13	253.71	9.85	-41.7	-42.5	21.3	0.00e+00	0	42	0	602931200	55	3866
2026-01-28 14:48:38.16	254.18	9.98	-41.8	-42.7	21.2	0.00e+00	0	42	0	619708416	55	3926
2026-01-28 14:48:41.19	254.65	10.12	-41.9	-42.8	21.1	0.00e+00	0	43	0	636485632	55	3965
2026-01-28 14:48:44.21	255.12	10.25	-41.7	-42.5	21.4	0.00e+00	0	42	0	654311424	55	3865
2026-01-28 14:48:47.24	255.60	10.38	-41.6	-42.5	21.4	0.00e+00	0	42	0	671088640	55	3840
2026-01-28 14:48:50.26	256.09	10.51	-41.8	-42.6	21.3	0.00e+00	0	42	0	687865856	55	3912
2026-01-28 14:48:53.29	256.57	10.64	-41.5	-42.4	21.6	0.00e+00	0	42	0	704643072	55	3787
2026-01-28 14:48:56.31	257.07	10.76	-41.6	-42.5	21.4	0.00e+00	0	42	0	722468864	54	4063
2026-01-28 14:48:59.34	257.56	10.89	-41.4	-42.2	21.7	0.00e+00	0	42	0	739246080	54	3953
2026-01-28 14:49:02.36	258.06	11.01	-41.5	-42.3	21.6	0.00e+00	0	42	0	756023296	54	3993
2026-01-28 14:49:05.39	258.57	11.14	-41.3	-42.1	21.8	0.00e+00	0	42	0	772800512	54	3890
2026-01-28 14:49:08.42	259.08	11.26	-41.3	-42.2	21.7	0.00e+00	0	42	0	790626304	54	3935
2026-01-28 14:49:11.45	259.59	11.38	-41.1	-41.9	22.0	0.00e+00	0	42	0	807403520	54	3817
2026-01-28 14:49:14.47	260.10	11.50	-41.1	-41.9	22.0	0.00e+00	0	42	0	824180736	54	3817
2026-01-28 14:49:17.49	260.62	11.61	-41.1	-41.9	22.0	0.00e+00	0	43	0	840957952	54	3804
2026-01-28 14:49:20.51	261.15	11.73	-41.2	-42.0	21.9	0.00e+00	0	42	0	857735168	54	3860
2026-01-28 14:49:23.54	261.68	11.84	-41.4	-42.2	21.7	0.00e+00	0	43	0	875560960	54	3957
2026-01-28 14:49:26.57	262.21	11.96	-41.3	-42.1	21.8	0.00e+00	0	42	0	892338176	54	3908
2026-01-28 14:49:29.60	262.75	12.07	-41.3	-42.1	21.9	0.00e+00	0	42	0	909115392	54	3901
2026-01-28 14:49:32.63	263.29	12.18	-41.1	-42.0	22.0	0.00e+00	0	42	0	925892608	54	3834
2026-01-28 14:49:35.65	263.83	12.28	-41.1	-42.0	22.0	0.00e+00	0	42	0	942669824	53	4063
2026-01-28 14:49:38.68	264.38	12.39	-41.3	-42.1	21.8	0.00e+00	0	42	0	960495616	53	4137
2026-01-28 14:49:41.70	264.93	12.49	-41.2	-42.1	21.9	0.00e+00	0	42	0	977272832	53	4121
2026-01-28 14:49:44.73	265.49	12.60	-41.0	-41.8	22.2	0.00e+00	0	42	0	994050048	53	3978
2026-01-28 14:49:47.75	266.04	12.69	-40.8	-41.6	22.4	0.00e+00	0	42	0	1010827264	53	3876
2026-01-28 14:49:50.77	266.61	12.79	-41.0	-41.8	22.2	0.00e+00	0	42	0	1027604480	53	3994
2026-01-28 14:49:53.80	267.17	12.89	-41.1	-42.0	22.0	0.00e+00	0	42	0	1045430272	53	4057
2026-01-28 14:49:56.82	267.74	12.98	-41.2	-42.0	22.0	0.00e+00	0	42	0	1062207488	53	4077
2026-01-28 14:49:59.83	268.31	13.07	-40.6	-41.4	22.5	0.00e+00	0	42	0	1078984704	53	3811
2026-01-28 14:50:02.86	268.89	13.16	-40.7	-41.5	22.4	0.00e+00	0	43	0	1095761920	53	3863
2026-01-28 14:50:05.89	269.47	13.25	-40.9	-41.7	22.2	0.00e+00	0	43	0	1112539136	53	3954
2026-01-28 14:50:08.92	270.05	13.33	-40.9	-41.7	22.2	0.00e+00	0	42	0	1130364928	53	3957
2026-01-28 14:50:11.94	270.64	13.41	-41.0	-41.8	22.2	0.00e+00	0	42	0	1147142144	53	3991
2026-01-28 14:50:14.96	271.23	13.49	-40.9	-41.8	22.2	0.00e+00	0	42	0	1163919360	53	3973
2026-01-28 14:50:17.97	271.81	13.57	-40.8	-41.6	22.4	0.00e+00	0	42	0	1180696576	53	3900
2026-01-28 14:50:21.00	272.41	13.64	-40.9	-41.7	22.3	0.00e+00	0	42	0	1198522368	53	3957
2026-01-28 14:50:24.03	273.01	13.71	-40.9	-41.8	22.2	0.00e+00	0	42	0	1215299584	53	3963
2026-01-28 14:50:27.05	273.61	13.78	-40.6	-41.4	22.6	0.00e+00	0	43	0	1232076800	53	3818
2026-01-28 14:50:30.08	274.21	13.85	-40.6	-41.4	22.6	0.00e+00	0	42	0	1248854016	53	3809
2026-01-28 14:50:33.10	274.82	13.91	-40.8	-41.7	22.4	0.00e+00	0	43	0	1266679808	53	3920
2026-01-28 14:50:36.12	275.42	13.97	-40.6	-41.5	22.6	0.00e+00	0	43	0	1283457024	53	3835
2026-01-28 14:50:39.14	276.03	14.03	-40.6	-41.4	22.6	0.00e+00	0	43	0	1300234240	53	3782
2026-01-28 14:50:42.17	276.65	14.08	-40.6	-41.4	22.6	0.00e+00	0	42	0	1317011456	53	3793
2026-01-28 14:50:45.20	277.26	14.13	-40.8	-41.6	22.5	0.00e+00	0	43	0	1334837248	53	3897
2026-01-28 14:50:48.22	277.88	14.18	-41.0	-41.9	22.3	0.00e+00	0	42	0	1351614464	53	4011
2026-01-28 14:50:51.24	278.50	14.23	-41.1	-42.0	22.2	0.00e+00	0	43	0	1368391680	53	4058
2026-01-28 14:50:54.27	279.12	14.27	-40.9	-41.7	22.4	0.00e+00	0	42	0	1385168896	53	3947
2026-01-28 14:50:57.29	279.74	14.31	-40.8	-41.6	22.5	0.00e+00	0	42	0	1401946112	53	3879
2026-01-28 14:51:00.31	280.36	14.35	-41.0	-41.9	22.3	0.00e+00	0	43	0	1419771904	53	4009
2026-01-28 14:51:03.33	280.98	14.38	-40.9	-41.7	22.5	0.00e+00	0	43	0	1436549120	53	3927
2026-01-28 14:51:06.36	281.61	14.41	-40.9	-41.7	22.5	0.00e+00	0	43	0	1453326336	53	3934
2026-01-28 14:51:09.38	282.24	14.44	-40.9	-41.7	22.5	0.00e+00	0	43	0	1470103552	53	3927
2026-01-28 14:51:12.40	282.87	14.46	-40.7	-41.5	22.7	0.00e+00	0	43	0	1487929344	53	3838
2026-01-28 14:51:15.43	283.50	14.48	-40.7	-41.5	22.7	0.00e+00	0	43	0	1504706560	53	3856
2026-01-28 14:51:18.45	284.12	14.50	-40.9	-41.7	22.5	0.00e+00	0	42	0	1521483776	53	3918
2026-01-28 14:51:21.48	284.76	14.52	-40.9	-41.7	22.5	0.00e+00	0	43	0	1538260992	53	3942
2026-01-28 14:51:24.50	285.39	14.53	-41.0	-41.8	22.4	0.00e+00	0	42	0	1556086784	53	3993
2026-01-28 14:51:27.52	286.02	14.54	-41.0	-41.9	22.4	0.00e+00	0	42	0	1572864000	53	4017
2026-01-28 14:51:30.55	286.65	14.54	-41.0	-41.9	22.4	0.00e+00	0	43	0	1589641216	53	4014
2026-01-28 14:51:33.58	287.28	14.54	-41.0	-41.8	22.5	0.00e+00	0	43	0	1606418432	53	3994
2026-01-28 14:51:36.60	287.91	14.54	-41.0	-41.8	22.5	0.00e+00	0	43	0	1624244224	53	3984
2026-01-28 14:51:39.62	288.54	14.54	-41.1	-41.9	22.4	0.00e+00	0	43	0	1641021440	53	4020
2026-01-28 14:51:42.64	289.17	14.53	-41.2	-42.0	22.3	0.00e+00	0	42	0	1657798656	53	4063
2026-01-28 14:51:45.67	289.81	14.52	-41.1	-41.9	22.4	0.00e+00	0	42	0	1674575872	53	4036
2026-01-28 14:51:48.69	290.44	14.50	-41.2	-42.0	22.3	0.00e+00	0	43	0	1691353088	53	4093
2026-01-28 14:51:51.71	291.06	14.49	-41.3	-42.1	22.3	0.00e+00	0	43	0	1709178880	53	4118
2026-01-28 14:51:54.74	291.69	14.47	-41.3	-42.2	22.3	0.00e+00	0	42	0	1725956096	53	4149
2026-01-28 14:51:57.76	292.32	14.44	-41.1	-42.0	22.4	0.00e+00	0	43	0	1742733312	53	4066
2026-01-28 14:52:00.78	292.95	14.42	-41.1	-41.9	22.5	0.00e+00	0	42	0	1759510528	53	4033
2026-01-28 14:52:03.80	293.57	14.39	-41.1	-41.9	22.4	0.00e+00	0	43	0	1776287744	53	4027
2026-01-28 14:52:06.83	294.20	14.35	-41.1	-41.9	22.5	0.00e+00	0	43	0	1794113536	53	4027
2026-01-28 14:52:09.85	294.82	14.32	-41.3	-42.1	22.2	0.00e+00	0	42	0	1810890752	53	4126
2026-01-28 14:52:12.87	295.44	14.28	-41.2	-42.1	22.3	0.00e+00	0	43	0	1827667968	53	4105
2026-01-28 14:52:15.89	296.06	14.24	-41.1	-41.9	22.3	0.00e+00	0	42	0	1844445184	53	4049
2026-01-28 14:52:18.92	296.68	14.19	-41.0	-41.9	22.4	0.00e+00	0	42	0	1861222400	53	4008
2026-01-28 14:52:21.95	297.30	14.14	-41.0	-41.8	22.5	0.00e+00	0	43	0	1879048192	53	3990
2026-01-28 14:52:24.97	297.91	14.09	-41.0	-41.9	22.4	0.00e+00	0	42	0	1895825408	53	4015
2026-01-28 14:52:28.00	298.52	14.04	-41.0	-41.8	22.3	0.00e+00	0	42	0	1912602624	53	3987
2026-01-28 14:52:31.02	299.13	13.98	-40.9	-41.7	22.5	0.00e+00	0	42	0	1929379840	53	3944
2026-01-28 14:52:34.05	299.74	13.92	-41.1	-41.9	22.2	0.00e+00	0	42	0	1946157056	53	4029
2026-01-28 14:52:37.06	300.34	13.86	-41.1	-42.0	22.2	0.00e+00	0	43	0	1963982848	53	4058
2026-01-28 14:52:40.09	300.94	13.79	-41.0	-41.9	22.2	0.00e+00	0	42	0	1980760064	53	4020
2026-01-28 14:52:43.11	301.54	13.73	-41.1	-41.9	22.2	0.00e+00	0	42	0	1997537280	53	4047
2026-01-28 14:52:46.14	302.14	13.65	-41.2	-42.1	22.1	0.00e+00	0	43	0	2014314496	53	4099
2026-01-28 14:52:49.17	302.74	13.58	-41.3	-42.2	21.9	0.00e+00	0	42	0	2031091712	53	4148
2026-01-28 14:52:52.20	303.33	13.51	-41.2	-42.1	22.1	0.00e+00	0	42	0	2048917504	53	4109
2026-01-28 14:52:55.22	303.91	13.43	-41.4	-42.3	21.9	0.00e+00	0	43	0	2065694720	53	4203
2026-01-28 14:52:58.24	304.50	13.35	-41.3	-42.1	22.0	0.00e+00	0	43	0	2082471936	53	4116
2026-01-28 14:53:01.27	305.08	13.26	-41.3	-42.1	22.0	0.00e+00	0	43	0	2099249152	53	4126
2026-01-28 14:53:04.30	305.66	13.18	-41.2	-42.1	22.0	0.00e+00	0	43	0	2117074944	53	4099
2026-01-28 14:53:07.32	306.24	13.09	-41.0	-41.9	22.2	0.00e+00	0	42	0	2133852160	53	4022
2026-01-28 14:53:10.34	306.81	13.00	-41.1	-42.0	22.1	0.00e+00	0	42	0	2150629376	53	4062
2026-01-28 14:53:13.37	307.38	12.91	-41.3	-42.1	21.9	0.00e+00	0	43	0	2167406592	53	4139
2026-01-28 14:53:16.40	307.94	12.81	-41.1	-42.0	22.1	0.00e+00	0	43	0	2185232384	53	4066
2026-01-28 14:53:19.42	308.50	12.72	-41.2	-42.0	22.0	0.00e+00	0	43	0	2202009600	53	4080
2026-01-28 14:53:22.45	309.06	12.62	-41.3	-42.1	21.8	0.00e+00	0	42	0	2218786816	53	4134
2026-01-28 14:53:25.48	309.62	12.52	-41.1	-42.0	22.0	0.00e+00	0	42	0	2235564032	53	4066
2026-01-28 14:53:28.51	310.17	12.42	-41.3	-42.1	21.9	0.00e+00	0	43	0	2253389824	53	4121
2026-01-28 14:53:31.54	310.72	12.31	-41.3	-42.2	21.8	0.00e+00	0	43	0	2270167040	53	4153
2026-01-28 14:53:34.56	311.26	12.20	-41.3	-42.2	21.8	0.00e+00	0	42	0	2286944256	53	4153
2026-01-28 14:53:37.58	311.80	12.10	-41.3	-42.1	21.9	0.00e+00	0	42	0	2303721472	53	4131
2026-01-28 14:53:40.60	312.33	11.99	-41.3	-42.2	21.7	0.00e+00	0	42	0	2321547264	53	4179
2026-01-28 14:53:43.62	312.86	11.88	-41.4	-42.3	21.7	0.00e+00	0	42	0	2338324480	53	4203
2026-01-28 14:53:46.64	313.39	11.76	-41.4	-42.3	21.6	0.00e+00	0	43	0	2355101696	53	4197
2026-01-28 14:53:49.67	313.91	11.65	-41.7	-42.5	21.4	0.00e+00	0	42	0	2371878912	53	4340
2026-01-28 14:53:52.69	314.43	11.53	-41.7	-42.6	21.4	0.00e+00	0	42	0	2388656128	54	4113
2026-01-28 14:53:55.72	314.95	11.41	-41.5	-42.3	21.6	0.00e+00	0	42	0	2406481920	54	3992
2026-01-28 14:53:58.74	315.46	11.29	-41.5	-42.4	21.5	0.00e+00	0	43	0	2423259136	54	4018
2026-01-28 14:54:01.76	315.96	11.17	-41.6	-42.5	21.4	0.00e+00	0	42	0	2440036352	54	4083
2026-01-28 14:54:04.79	316.47	11.05	-41.7	-42.6	21.3	0.00e+00	0	42	0	2457862144	54	4140
2026-01-28 14:54:07.81	316.96	10.93	-41.6	-42.5	21.4	0.00e+00	0	43	0	2474639360	54	4057
2026-01-28 14:54:10.83	317.46	10.80	-41.5	-42.3	21.5	0.00e+00	0	42	0	2491416576	54	3990
2026-01-28 14:54:13.85	317.95	10.68	-41.6	-42.5	21.4	0.00e+00	0	42	0	2508193792	54	4076
2026-01-28 14:54:16.87	318.44	10.55	-41.6	-42.5	21.3	0.00e+00	0	43	0	2524971008	54	4069
2026-01-28 14:54:19.90	318.92	10.42	-41.8	-42.7	21.2	0.00e+00	0	42	0	2542796800	54	4162
2026-01-28 14:54:22.93	319.40	10.29	-42.0	-42.9	21.0	0.00e+00	0	43	0	2559574016	54	4265
2026-01-28 14:54:25.94	319.87	10.16	-42.0	-42.9	20.9	0.00e+00	0	43	0	2576351232	54	4272
2026-01-28 14:54:28.97	320.34	10.03	-42.0	-42.9	20.9	0.00e+00	0	43	0	2593128448	54	4259
2026-01-28 14:54:31.99	320.81	9.90	-41.9	-42.9	20.9	0.00e+00	0	43	0	2609905664	54	4243
2026-01-28 14:54:35.01	321.27	9.77	-41.9	-42.9	20.9	0.00e+00	0	42	0	2627731456	54	4244
2026-01-28 14:54:38.04	321.73	9.63	-41.9	-42.8	20.9	0.00e+00	0	43	0	2644508672	54	4227
2026-01-28 14:54:41.07	322.18	9.50	-42.1	-43.0	20.7	0.00e+00	0	43	0	2661285888	54	4313
2026-01-28 14:54:44.09	322.63	9.36	-41.9	-42.9	20.8	0.00e+00	0	43	0	2678063104	54	4252
2026-01-28 14:54:47.12	323.08	9.23	-42.0	-42.9	20.8	0.00e+00	0	42	0	2694840320	54	4268
2026-01-28 14:54:50.14	323.52	9.09	-41.9	-42.9	20.8	0.00e+00	0	42	0	2712666112	54	4248
2026-01-28 14:54:53.17	323.96	8.95	-41.9	-42.8	20.8	0.00e+00	0	42	0	2729443328	54	4201
2026-01-28 14:54:56.19	324.39	8.81	-41.9	-42.8	20.8	0.00e+00	0	42	0	2746220544	54	4232
2026-01-28 14:54:59.22	324.82	8.67	-42.3	-43.3	20.4	0.00e+00	0	42	0	2762997760	55	4203
2026-01-28 14:55:02.25	325.25	8.53	-42.4	-43.3	20.3	0.00e+00	0	42	0	2779774976	55	4239
2026-01-28 14:55:05.27	325.67	8.39	-42.3	-43.3	20.4	0.00e+00	0	43	0	2797600768	55	4218
2026-01-28 14:55:08.30	326.09	8.25	-42.2	-43.2	20.4	0.00e+00	0	42	0	2814377984	55	4154
2026-01-28 14:55:11.32	326.50	8.11	-42.4	-43.3	20.3	0.00e+00	0	43	0	2831155200	55	4239
2026-01-28 14:55:14.34	326.91	7.97	-42.5	-43.5	20.1	0.00e+00	0	42	0	2847932416	55	4327
2026-01-28 14:55:17.37	327.32	7.83	-42.6	-43.5	20.1	0.00e+00	0	43	0	2864709632	55	4332
2026-01-28 14:55:20.40	327.73	7.69	-42.6	-43.6	20.0	0.00e+00	0	43	0	2882535424	55	4364
2026-01-28 14:55:23.42	328.12	7.54	-42.8	-43.8	19.9	0.00e+00	0	43	0	2899312640	56	4211
2026-01-28 14:55:26.45	328.52	7.40	-42.6	-43.7	19.9	0.00e+00	0	43	0	2916089856	56	4155
2026-01-28 14:55:29.47	328.91	7.26	-42.6	-43.6	20.0	0.00e+00	0	42	0	2932867072	56	4130
2026-01-28 14:55:32.50	329.30	7.11	-42.8	-43.8	19.8	0.00e+00	0	43	0	2950692864	56	4223
2026-01-28 14:55:35.52	329.68	6.97	-42.7	-43.8	19.9	0.00e+00	0	43	0	2967470080	56	4194
2026-01-28 14:55:38.53	330.06	6.83	-42.8	-43.8	19.8	0.00e+00	0	43	0	2984247296	56	4221
2026-01-28 14:55:41.56	330.44	6.68	-42.9	-44.0	19.6	0.00e+00	0	42	0	3001024512	56	4292
2026-01-28 14:55:44.59	330.81	6.54	-43.0	-44.1	19.5	0.00e+00	0	42	0	3017801728	56	4362
2026-01-28 14:55:47.61	331.18	6.39	-43.1	-44.2	19.3	0.00e+00	0	42	0	3035627520	56	4406
2026-01-28 14:55:50.64	331.55	6.25	-43.1	-44.2	19.3	0.00e+00	0	42	0	3052404736	56	4403
2026-01-28 14:55:53.66	331.91	6.10	-43.0	-44.1	19.4	0.00e+00	0	43	0	3069181952	57	4108
2026-01-28 14:55:56.68	332.27	5.96	-43.0	-44.0	19.4	0.00e+00	0	42	0	3085959168	57	4096
2026-01-28 14:55:59.70	332.63	5.81	-43.2	-44.3	19.1	0.00e+00	0	43	0	3103784960	57	4198
2026-01-28 14:56:02.72	332.98	5.67	-43.2	-44.3	19.0	0.00e+00	0	43	0	3120562176	57	4212
2026-01-28 14:56:05.75	333.33	5.52	-43.3	-44.4	18.9	0.00e+00	0	43	0	3137339392	57	4252
2026-01-28 14:56:08.78	333.68	5.37	-43.4	-44.5	18.8	0.00e+00	0	42	0	3154116608	57	4306
2026-01-28 14:56:11.80	334.02	5.23	-43.5	-44.7	18.5	0.00e+00	0	42	0	3171942400	57	4403
2026-01-28 14:56:14.83	334.36	5.08	-43.7	-45.0	17.8	0.00e+00	0	43	0	3188719616	58	4313
2026-01-28 14:56:17.85	334.70	4.94	-52.6	-64.4	3.8	8.47e-01	0	43	104	3199205376	75	15220
2026-01-28 14:56:20.88	335.03	4.79	-53.2	-65.1	3.8	8.46e-01	0	43	104	3199205376	76	15554
2026-01-28 14:56:23.91	335.36	4.65	-53.4	-65.4	3.8	8.46e-01	0	43	104	3199205376	77	15053
2026-01-28 14:56:26.93	335.69	4.50	-53.4	-65.3	3.8	8.46e-01	0	43	104	3199205376	77	14942
2026-01-28 14:56:29.96	336.01	4.36	-53.2	-65.1	3.8	8.46e-01	0	42	104	3199205376	77	14601
2026-01-28 14:56:32.98	336.33	4.21	-53.3	-65.2	3.8	8.46e-01	0	43	104	3199205376	77	14838
2026-01-28 14:56:36.00	336.65	4.07	-53.4	-65.3	3.8	8.46e-01	0	43	104	3199205376	77	14936
2026-01-28 14:56:39.03	336.96	3.92	-53.3	-65.2	3.8	8.45e-01	0	43	104	3199205376	77	14800
2026-01-28 14:56:42.05	337.27	3.77	-53.3	-65.2	3.8	8.45e-01	0	42	104	3199205376	77	14769
2026-01-28 14:56:45.07	337.58	3.63	-53.2	-65.2	3.8	8.46e-01	0	42	104	3199205376	77	14746
2026-01-28 14:56:48.10	337.89	3.49	-53.2	-65.1	3.8	8.46e-01	0	43	104	3199205376	77	14706
2026-01-28 14:56:51.13	338.19	3.34	-53.2	-65.1	3.8	8.47e-01	0	43	104	3199205376	77	14680
2026-01-28 14:56:54.15	338.49	3.20	-53.2	-65.1	3.8	8.46e-01	0	43	104	3199205376	77	14598
2026-01-28 14:56:57.18	338.79	3.05	-53.2	-65.1	3.8	8.47e-01	0	43	104	3199205376	77	14613
2026-01-28 14:57:00.21	339.09	2.91	-53.2	-65.1	3.8	8.46e-01	0	43	104	3199205376	77	14601
2026-01-28 14:57:03.23	339.38	2.76	-53.2	-65.1	3.8	8.46e-01	0	43	104	3199205376	77	14574
2026-01-28 14:57:06.26	339.67	2.62	-53.1	-65.1	3.8	8.46e-01	0	43	104	3199205376	77	14554
2026-01-28 14:57:09.28	339.95	2.48	-53.1	-65.1	3.8	8.46e-01	0	43	104	3199205376	77	14592
2026-01-28 14:57:12.31	340.24	2.33	-53.1	-65.0	3.8	8.46e-01	0	43	104	3199205376	77	14519
2026-01-28 14:57:15.33	340.52	2.19	-53.1	-65.1	3.8	8.47e-01	0	43	104	3199205376	77	14554
2026-01-28 14:57:18.36	340.80	2.04	-53.1	-65.0	3.8	8.46e-01	0	43	104	3199205376	77	14539

#Closed at: 2026-01-28 14:57:20
#Recorded file [3199 MB]: D:/lorett/data/31041_260128_174551.dat