passes_logs/2026/01/28/R3.2S_Murmansk/R3.2S_Murmansk__20260128_042953_KANOPUS-V_5_rec.log

#Pass ID: 20260128_042953_KANOPUS-V 5
#Satellite: KANOPUS-V 5
#Configuration: KANOPUS-V_8320
#almurnet v.1.7.20251203
#Start time: 2026-01-28 04:29:55

#Version: 2.2.20231116
#Station: R3.2S_Murmansk
#Location: 33.079688 lon 68.888172 lat
#TLE: 1 43876U 18111A   26027.32158080  .00005009  00000+0  21245-3 0  9994
#TLE: 2 43876  97.3675 295.6129 0001827  89.1739 270.9707 15.23558826393345

#Time	Az	El	Level	Level2	SNR	BER	BlckErr	Temp	State	Recorded	gain1	gain2
2026-01-28 04:29:55.36	75.10	2.13	-53.7	-62.6	3.8	7.44e-01	0	41	0	0	78	10356
2026-01-28 04:29:57.37	74.87	2.24	-53.7	-62.6	3.8	7.47e-01	0	42	104	0	78	10345
2026-01-28 04:29:59.38	74.64	2.36	-53.7	-62.6	3.8	7.44e-01	0	42	104	0	78	10321
2026-01-28 04:30:01.40	74.41	2.47	-53.8	-62.6	3.8	7.46e-01	0	42	104	0	78	10360
2026-01-28 04:30:03.42	74.18	2.59	-53.7	-62.6	3.8	7.45e-01	0	42	104	0	78	10336
2026-01-28 04:30:05.43	73.94	2.70	-53.7	-62.6	3.8	7.44e-01	0	42	104	0	78	10307
2026-01-28 04:30:07.45	73.70	2.82	-53.7	-62.6	3.8	7.45e-01	0	42	104	0	78	10354
2026-01-28 04:30:09.46	73.46	2.93	-53.7	-62.6	3.8	7.45e-01	0	42	104	0	78	10384
2026-01-28 04:30:11.48	73.21	3.05	-53.7	-62.6	3.8	7.44e-01	0	42	104	0	78	10321
2026-01-28 04:30:13.49	72.97	3.16	-53.8	-62.6	3.8	7.45e-01	0	42	104	0	78	10382
2026-01-28 04:30:15.51	72.72	3.28	-53.7	-62.6	3.8	7.46e-01	0	42	104	0	78	10319
2026-01-28 04:30:17.53	72.47	3.39	-53.8	-62.6	3.8	7.44e-01	0	42	104	0	78	10327
2026-01-28 04:30:19.55	72.21	3.51	-53.7	-62.6	3.8	7.45e-01	0	42	104	0	78	10319
2026-01-28 04:30:21.57	71.95	3.63	-53.7	-62.6	3.8	7.45e-01	0	42	104	0	78	10338
2026-01-28 04:30:23.59	71.69	3.74	-53.7	-62.5	3.8	7.43e-01	0	42	104	0	78	10281
2026-01-28 04:30:25.60	71.43	3.86	-53.7	-62.6	3.8	7.46e-01	0	42	104	0	78	10330
2026-01-28 04:30:27.62	71.16	3.98	-53.7	-62.6	3.8	7.46e-01	0	42	104	0	78	10313
2026-01-28 04:30:29.63	70.90	4.10	-53.7	-62.6	3.8	7.46e-01	0	42	104	0	78	10329
2026-01-28 04:30:31.65	70.63	4.21	-53.7	-62.6	3.8	7.46e-01	0	42	104	0	78	10333
2026-01-28 04:30:33.66	70.35	4.33	-53.8	-62.6	3.8	7.46e-01	0	42	104	0	78	10312
2026-01-28 04:30:35.68	70.07	4.45	-53.7	-62.6	3.8	7.45e-01	0	42	104	0	78	10341
2026-01-28 04:30:37.69	69.80	4.57	-53.7	-62.6	3.8	7.46e-01	0	43	104	0	78	10342
2026-01-28 04:30:39.71	69.51	4.69	-53.8	-62.6	3.8	7.43e-01	0	43	104	0	78	10356
2026-01-28 04:30:41.72	69.23	4.80	-53.7	-62.6	3.8	7.45e-01	0	43	104	0	78	10332
2026-01-28 04:30:43.74	68.94	4.92	-53.7	-62.6	3.8	7.44e-01	0	42	104	0	78	10340
2026-01-28 04:30:45.76	68.65	5.04	-53.7	-62.6	3.8	7.45e-01	0	42	104	0	78	10353
2026-01-28 04:30:47.77	68.35	5.16	-53.7	-62.6	3.8	7.45e-01	0	43	104	0	78	10339
2026-01-28 04:30:49.79	68.05	5.28	-53.7	-62.6	3.8	7.44e-01	0	43	104	0	78	10337
2026-01-28 04:30:51.81	67.75	5.40	-53.7	-62.6	3.8	7.46e-01	0	43	104	0	78	10319
2026-01-28 04:30:53.83	67.45	5.52	-53.7	-62.6	3.8	7.43e-01	0	43	104	0	78	10327
2026-01-28 04:30:55.84	67.14	5.64	-53.7	-62.6	3.8	7.43e-01	0	43	104	0	78	10350
2026-01-28 04:30:57.86	66.83	5.76	-53.8	-62.6	3.8	7.46e-01	0	43	104	0	78	10361
2026-01-28 04:30:59.88	66.51	5.88	-53.7	-62.6	3.8	7.47e-01	0	43	104	0	78	10341
2026-01-28 04:31:01.89	66.20	6.00	-53.7	-62.6	3.8	7.45e-01	0	43	104	0	78	10347
2026-01-28 04:31:03.91	65.88	6.11	-53.7	-62.6	3.8	7.46e-01	0	43	104	0	78	10317
2026-01-28 04:31:05.93	65.55	6.23	-53.8	-62.6	3.8	7.47e-01	0	43	104	0	78	10346
2026-01-28 04:31:07.95	65.22	6.35	-53.7	-62.6	3.8	7.45e-01	0	43	104	0	78	10312
2026-01-28 04:31:09.97	64.89	6.47	-53.7	-62.6	3.8	7.45e-01	0	43	104	0	78	10346
2026-01-28 04:31:11.98	64.56	6.59	-53.7	-62.6	3.8	7.46e-01	0	43	104	0	78	10302
2026-01-28 04:31:14.00	64.22	6.71	-53.8	-62.6	3.8	7.44e-01	0	43	104	0	78	10375
2026-01-28 04:31:16.01	63.88	6.83	-53.8	-62.6	3.8	7.46e-01	0	43	104	0	78	10347
2026-01-28 04:31:18.03	63.53	6.95	-53.7	-62.6	3.8	7.46e-01	0	43	104	0	78	10343
2026-01-28 04:31:20.04	63.18	7.07	-53.7	-62.6	3.8	7.44e-01	0	43	104	0	78	10371
2026-01-28 04:31:22.06	62.83	7.19	-53.7	-62.6	3.8	7.44e-01	0	43	104	0	78	10337
2026-01-28 04:31:24.07	62.47	7.31	-53.7	-62.6	3.8	7.44e-01	0	43	104	0	78	10319
2026-01-28 04:31:26.08	62.11	7.43	-53.8	-62.6	3.8	7.45e-01	0	43	104	0	78	10387
2026-01-28 04:31:28.10	61.75	7.55	-53.8	-62.6	3.8	7.45e-01	0	43	104	0	78	10346
2026-01-28 04:31:30.12	61.38	7.67	-53.7	-62.6	3.8	7.46e-01	0	43	104	0	78	10336
2026-01-28 04:31:32.13	61.01	7.78	-53.8	-62.6	3.8	7.47e-01	0	43	104	0	78	10337
2026-01-28 04:31:34.15	60.63	7.90	-53.8	-62.6	3.8	7.46e-01	0	43	104	0	78	10337
2026-01-28 04:31:36.17	60.25	8.02	-53.7	-62.6	3.8	7.46e-01	0	43	104	0	78	10325
2026-01-28 04:31:38.19	59.87	8.14	-53.8	-62.6	3.8	7.46e-01	0	44	104	0	78	10316
2026-01-28 04:31:40.20	59.48	8.26	-53.7	-62.6	3.8	7.45e-01	0	43	104	0	78	10318
2026-01-28 04:31:42.22	59.09	8.37	-53.8	-62.6	3.8	7.45e-01	0	43	104	0	78	10355
2026-01-28 04:31:44.23	58.70	8.49	-53.8	-62.6	3.8	7.44e-01	0	43	104	0	78	10337
2026-01-28 04:31:46.25	58.30	8.61	-53.7	-62.6	3.8	7.44e-01	0	43	104	0	78	10361
2026-01-28 04:31:48.26	57.90	8.72	-53.7	-62.6	3.8	7.45e-01	0	44	104	0	78	10326
2026-01-28 04:31:50.27	57.49	8.84	-53.8	-62.6	3.8	7.46e-01	0	43	104	0	78	10385
2026-01-28 04:31:52.29	57.08	8.95	-53.7	-62.6	3.8	7.45e-01	0	43	104	0	78	10355
2026-01-28 04:31:54.31	56.66	9.07	-53.8	-62.6	3.8	7.43e-01	0	43	104	0	78	10354
2026-01-28 04:31:56.32	56.24	9.18	-53.8	-62.6	3.8	7.46e-01	0	43	104	0	78	10334
2026-01-28 04:31:58.34	55.82	9.30	-53.8	-62.6	3.8	7.45e-01	0	44	104	0	78	10343
2026-01-28 04:32:00.35	55.39	9.41	-53.8	-62.6	3.8	7.46e-01	0	44	104	0	78	10350
2026-01-28 04:32:02.37	54.96	9.52	-53.7	-62.6	3.8	7.44e-01	0	43	104	0	78	10305
2026-01-28 04:32:04.39	54.52	9.63	-53.7	-62.6	3.8	7.46e-01	0	44	104	0	78	10361
2026-01-28 04:32:06.41	54.08	9.74	-53.7	-62.6	3.8	7.45e-01	0	44	104	0	78	10353
2026-01-28 04:32:08.42	53.64	9.85	-53.8	-62.6	3.8	7.44e-01	0	44	104	0	78	10334
2026-01-28 04:32:10.44	53.19	9.96	-53.8	-62.6	3.8	7.46e-01	0	43	104	0	78	10319
2026-01-28 04:32:12.45	52.74	10.07	-53.8	-62.6	3.8	7.46e-01	0	43	104	0	78	10362
2026-01-28 04:32:14.47	52.28	10.18	-53.8	-62.6	3.8	7.46e-01	0	43	104	0	78	10358
2026-01-28 04:32:16.49	51.82	10.29	-53.8	-62.6	3.8	7.45e-01	0	43	104	0	78	10359
2026-01-28 04:32:18.50	51.35	10.39	-53.8	-62.6	3.8	7.43e-01	0	43	104	0	78	10345
2026-01-28 04:32:20.51	50.88	10.50	-53.8	-62.6	3.8	7.44e-01	0	43	104	0	78	10314
2026-01-28 04:32:22.53	50.41	10.60	-53.8	-62.6	3.8	7.44e-01	0	44	104	0	78	10373
2026-01-28 04:32:24.55	49.93	10.71	-53.8	-62.6	3.8	7.45e-01	0	44	104	0	78	10346
2026-01-28 04:32:26.56	49.45	10.81	-53.8	-62.6	3.8	7.45e-01	0	44	104	0	78	10349
2026-01-28 04:32:28.57	48.96	10.91	-53.8	-62.6	3.8	7.44e-01	0	44	104	0	78	10323
2026-01-28 04:32:30.59	48.47	11.01	-53.8	-62.6	3.8	7.47e-01	0	43	104	0	78	10323
2026-01-28 04:32:32.61	47.98	11.11	-53.8	-62.6	3.8	7.44e-01	0	43	104	0	78	10357
2026-01-28 04:32:34.63	47.48	11.21	-53.8	-62.6	3.8	7.46e-01	0	44	104	0	78	10343
2026-01-28 04:32:36.64	46.98	11.30	-53.8	-62.6	3.8	7.46e-01	0	44	104	0	78	10332
2026-01-28 04:32:38.65	46.47	11.40	-53.8	-62.6	3.8	7.44e-01	0	43	104	0	78	10347
2026-01-28 04:32:40.66	45.96	11.49	-53.8	-62.6	3.8	7.45e-01	0	44	104	0	78	10323
2026-01-28 04:32:42.68	45.45	11.58	-53.8	-62.6	3.8	7.45e-01	0	43	104	0	78	10346
2026-01-28 04:32:44.69	44.93	11.67	-53.8	-62.6	3.8	7.44e-01	0	44	104	0	78	10360
2026-01-28 04:32:46.71	44.41	11.76	-53.8	-62.6	3.8	7.43e-01	0	43	104	0	78	10377
2026-01-28 04:32:48.73	43.88	11.85	-53.8	-62.6	3.8	7.45e-01	0	44	104	0	78	10327
2026-01-28 04:32:50.73	43.35	11.93	-53.8	-62.6	3.8	7.45e-01	0	44	104	0	78	10342
2026-01-28 04:32:52.75	42.82	12.02	-53.8	-62.6	3.8	7.45e-01	0	44	104	0	78	10348
2026-01-28 04:32:54.77	42.28	12.10	-53.8	-62.6	3.8	7.46e-01	0	44	104	0	78	10377
2026-01-28 04:32:56.78	41.74	12.18	-53.8	-62.6	3.8	7.45e-01	0	44	104	0	78	10347
2026-01-28 04:32:58.80	41.19	12.26	-53.8	-62.6	3.8	7.44e-01	0	44	104	0	78	10331
2026-01-28 04:33:00.81	40.65	12.34	-53.8	-62.6	3.8	7.45e-01	0	44	104	0	78	10333
2026-01-28 04:33:02.83	40.09	12.41	-53.8	-62.6	3.8	7.46e-01	0	44	104	0	78	10344
2026-01-28 04:33:04.85	39.54	12.49	-53.8	-62.6	3.8	7.45e-01	0	44	104	0	78	10350
2026-01-28 04:33:06.87	38.98	12.56	-53.8	-62.6	3.8	7.47e-01	0	44	104	0	78	10367
2026-01-28 04:33:08.88	38.42	12.63	-53.8	-62.6	3.8	7.45e-01	0	44	104	0	78	10339
2026-01-28 04:33:10.89	37.85	12.69	-53.8	-62.6	3.8	7.44e-01	0	44	104	0	78	10344
2026-01-28 04:33:12.91	37.28	12.76	-53.8	-62.6	3.8	7.44e-01	0	44	104	0	78	10344
2026-01-28 04:33:14.93	36.71	12.82	-53.8	-62.6	3.8	7.46e-01	0	44	104	0	78	10327
2026-01-28 04:33:16.94	36.14	12.88	-53.8	-62.6	3.8	7.45e-01	0	44	104	0	78	10333
2026-01-28 04:33:18.96	35.56	12.94	-53.8	-62.6	3.8	7.46e-01	0	44	104	0	78	10354
2026-01-28 04:33:20.98	34.98	13.00	-53.8	-62.6	3.8	7.45e-01	0	44	104	0	78	10372
2026-01-28 04:33:23.00	34.40	13.05	-53.8	-62.6	3.8	7.46e-01	0	44	104	0	78	10353
2026-01-28 04:33:25.01	33.81	13.10	-53.8	-62.6	3.8	7.46e-01	0	44	104	0	78	10343
2026-01-28 04:33:27.03	33.22	13.15	-53.8	-62.6	3.8	7.45e-01	0	44	104	0	78	10369
2026-01-28 04:33:29.05	32.63	13.20	-53.8	-62.6	3.8	7.44e-01	0	44	104	0	78	10366
2026-01-28 04:33:31.06	32.04	13.24	-53.8	-62.6	3.8	7.45e-01	0	44	104	0	78	10324
2026-01-28 04:33:33.08	31.45	13.28	-53.8	-62.6	3.8	7.46e-01	0	44	104	0	78	10385
2026-01-28 04:33:35.09	30.86	13.32	-53.8	-62.6	3.8	7.46e-01	0	44	104	0	78	10327
2026-01-28 04:33:37.11	30.26	13.36	-53.8	-62.6	3.8	7.45e-01	0	44	104	0	78	10310
2026-01-28 04:33:39.13	29.66	13.39	-53.8	-62.6	3.8	7.47e-01	0	44	104	0	78	10363
2026-01-28 04:33:41.15	29.05	13.42	-53.8	-62.6	3.8	7.45e-01	0	44	104	0	78	10370
2026-01-28 04:33:43.16	28.45	13.45	-53.8	-62.6	3.8	7.47e-01	0	44	104	0	78	10371
2026-01-28 04:33:45.17	27.85	13.48	-53.8	-62.6	3.8	7.44e-01	0	44	104	0	78	10373
2026-01-28 04:33:47.18	27.25	13.50	-53.8	-62.6	3.8	7.46e-01	0	44	104	0	78	10322
2026-01-28 04:33:49.20	26.64	13.52	-53.8	-62.6	3.8	7.45e-01	0	44	104	0	78	10341
2026-01-28 04:33:51.21	26.04	13.54	-53.8	-62.6	3.8	7.45e-01	0	44	104	0	78	10376
2026-01-28 04:33:53.23	25.43	13.55	-53.8	-62.6	3.8	7.45e-01	0	44	104	0	78	10323
2026-01-28 04:33:55.24	24.82	13.57	-53.8	-62.6	3.8	7.46e-01	0	44	104	0	78	10361
2026-01-28 04:33:57.25	24.22	13.58	-53.8	-62.6	3.8	7.48e-01	0	44	104	0	78	10364
2026-01-28 04:33:59.27	23.60	13.58	-53.8	-62.6	3.8	7.44e-01	0	44	104	0	78	10328
2026-01-28 04:34:01.28	23.00	13.59	-53.8	-62.6	3.8	7.46e-01	0	44	104	0	78	10355
2026-01-28 04:34:03.30	22.39	13.59	-53.8	-62.6	3.8	7.47e-01	0	44	104	0	78	10321
2026-01-28 04:34:05.31	21.78	13.59	-53.8	-62.6	3.8	7.45e-01	0	44	104	0	78	10347
2026-01-28 04:34:07.33	21.17	13.59	-53.8	-62.6	3.8	7.44e-01	0	44	104	0	78	10358
2026-01-28 04:34:09.35	20.56	13.58	-53.8	-62.6	3.8	7.45e-01	0	44	104	0	78	10344
2026-01-28 04:34:11.37	19.95	13.57	-53.8	-62.6	3.8	7.45e-01	0	44	104	0	78	10349
2026-01-28 04:34:13.38	19.34	13.56	-53.8	-62.6	3.8	7.44e-01	0	44	104	0	78	10346
2026-01-28 04:34:15.39	18.73	13.54	-53.8	-62.6	3.8	7.46e-01	0	44	104	0	78	10330
2026-01-28 04:34:17.41	18.13	13.52	-53.8	-62.6	3.8	7.45e-01	0	44	104	0	78	10378
2026-01-28 04:34:19.43	17.52	13.50	-53.8	-62.6	3.8	7.47e-01	0	44	104	0	78	10355
2026-01-28 04:34:21.44	16.92	13.48	-53.8	-62.6	3.8	7.45e-01	0	44	104	0	78	10342
2026-01-28 04:34:23.46	16.31	13.46	-53.8	-62.6	3.8	7.43e-01	0	44	104	0	78	10375
2026-01-28 04:34:25.48	15.71	13.43	-53.8	-62.6	3.8	7.45e-01	0	44	104	0	78	10332
2026-01-28 04:34:27.49	15.11	13.40	-53.8	-62.6	3.8	7.46e-01	0	44	104	0	78	10336
2026-01-28 04:34:29.50	14.51	13.36	-53.8	-62.6	3.8	7.44e-01	0	44	104	0	78	10367
2026-01-28 04:34:31.52	13.91	13.33	-53.8	-62.6	3.8	7.44e-01	0	44	104	0	78	10362
2026-01-28 04:34:33.53	13.32	13.29	-53.8	-62.6	3.8	7.45e-01	0	44	104	0	78	10335
2026-01-28 04:34:35.55	12.73	13.25	-53.8	-62.6	3.8	7.43e-01	0	44	104	0	78	10337
2026-01-28 04:34:37.56	12.14	13.20	-53.8	-62.6	3.8	7.45e-01	0	44	104	0	78	10362
2026-01-28 04:34:39.58	11.55	13.16	-53.8	-62.6	3.8	7.46e-01	0	44	104	0	78	10377
2026-01-28 04:34:41.60	10.96	13.11	-53.8	-62.6	3.8	7.46e-01	0	44	104	0	78	10358
2026-01-28 04:34:43.61	10.38	13.06	-53.8	-62.6	3.8	7.46e-01	0	44	104	0	78	10397
2026-01-28 04:34:45.63	9.79	13.00	-53.8	-62.6	3.8	7.44e-01	0	44	104	0	78	10363
2026-01-28 04:34:47.65	9.21	12.95	-53.8	-62.6	3.8	7.45e-01	0	44	104	0	78	10344
2026-01-28 04:34:49.66	8.64	12.89	-53.8	-62.6	3.8	7.45e-01	0	44	104	0	78	10369
2026-01-28 04:34:51.68	8.06	12.83	-53.8	-62.6	3.8	7.44e-01	0	44	104	0	78	10379
2026-01-28 04:34:53.69	7.49	12.77	-53.8	-62.6	3.8	7.45e-01	0	44	104	0	78	10363
2026-01-28 04:34:55.71	6.92	12.70	-53.8	-62.6	3.8	7.45e-01	0	44	104	0	78	10361
2026-01-28 04:34:57.72	6.36	12.64	-53.8	-62.6	3.8	7.46e-01	0	44	104	0	78	10355
2026-01-28 04:34:59.74	5.80	12.57	-53.8	-62.6	3.8	7.46e-01	0	44	104	0	78	10357
2026-01-28 04:35:01.75	5.24	12.50	-53.8	-62.6	3.8	7.44e-01	0	44	104	0	78	10326
2026-01-28 04:35:03.77	4.68	12.42	-53.8	-62.6	3.8	7.47e-01	0	44	104	0	78	10340
2026-01-28 04:35:05.78	4.13	12.35	-53.8	-62.6	3.8	7.44e-01	0	44	104	0	78	10369
2026-01-28 04:35:07.79	3.59	12.27	-53.8	-62.6	3.8	7.46e-01	0	44	104	0	78	10360
2026-01-28 04:35:09.81	3.04	12.19	-53.8	-62.6	3.8	7.45e-01	0	44	104	0	78	10362
2026-01-28 04:35:11.83	2.50	12.11	-53.8	-62.6	3.8	7.46e-01	0	44	104	0	78	10352
2026-01-28 04:35:13.85	1.96	12.03	-53.8	-62.6	3.8	7.45e-01	0	44	104	0	78	10341
2026-01-28 04:35:15.86	1.43	11.95	-53.8	-62.6	3.8	7.46e-01	0	44	104	0	78	10352
2026-01-28 04:35:17.88	0.90	11.86	-53.8	-62.6	3.8	7.45e-01	0	44	104	0	78	10335
2026-01-28 04:35:19.90	0.37	11.78	-53.8	-62.6	3.8	7.43e-01	0	44	104	0	78	10301
2026-01-28 04:35:21.92	359.85	11.69	-53.8	-62.7	3.8	7.45e-01	0	44	104	0	78	10414
2026-01-28 04:35:23.93	359.33	11.60	-53.8	-62.6	3.8	7.46e-01	0	44	104	0	78	10364
2026-01-28 04:35:25.94	358.82	11.51	-53.8	-62.6	3.8	7.45e-01	0	44	104	0	78	10408
2026-01-28 04:35:27.95	358.31	11.41	-53.8	-62.6	3.8	7.44e-01	0	44	104	0	78	10340
2026-01-28 04:35:29.97	357.80	11.32	-53.8	-62.6	3.8	7.44e-01	0	44	104	0	78	10358
2026-01-28 04:35:31.99	357.30	11.22	-53.8	-62.6	3.8	7.44e-01	0	44	104	0	78	10395
2026-01-28 04:35:34.01	356.80	11.13	-53.8	-62.6	3.8	7.45e-01	0	44	104	0	78	10335
2026-01-28 04:35:36.02	356.31	11.03	-53.8	-62.6	3.8	7.43e-01	0	44	104	0	78	10341
2026-01-28 04:35:38.04	355.82	10.93	-53.8	-62.6	3.8	7.45e-01	0	43	104	0	78	10356
2026-01-28 04:35:40.05	355.33	10.83	-53.8	-62.6	3.8	7.46e-01	0	44	104	0	78	10386
2026-01-28 04:35:42.07	354.85	10.73	-53.8	-62.6	3.8	7.45e-01	0	44	104	0	78	10412
2026-01-28 04:35:44.09	354.37	10.62	-53.8	-62.6	3.8	7.45e-01	0	44	104	0	78	10390
2026-01-28 04:35:46.10	353.90	10.52	-53.8	-62.6	3.8	7.44e-01	0	44	104	0	78	10363
2026-01-28 04:35:48.12	353.43	10.41	-53.8	-62.6	3.8	7.46e-01	0	44	104	0	78	10397
2026-01-28 04:35:50.13	352.96	10.31	-53.8	-62.6	3.8	7.47e-01	0	44	104	0	78	10382
2026-01-28 04:35:52.15	352.50	10.20	-53.8	-62.6	3.8	7.43e-01	0	44	104	0	78	10345
2026-01-28 04:35:54.16	352.05	10.09	-53.8	-62.6	3.8	7.44e-01	0	44	104	0	78	10355
2026-01-28 04:35:56.18	351.59	9.98	-53.8	-62.6	3.8	7.46e-01	0	44	104	0	78	10344
2026-01-28 04:35:58.20	351.14	9.88	-53.8	-62.6	3.8	7.45e-01	0	44	104	0	78	10403
2026-01-28 04:36:00.21	350.70	9.77	-53.8	-62.6	3.8	7.44e-01	0	44	104	0	78	10387
2026-01-28 04:36:02.23	350.26	9.65	-53.8	-62.6	3.8	7.44e-01	0	44	104	0	78	10373
2026-01-28 04:36:04.25	349.82	9.54	-53.8	-62.6	3.8	7.44e-01	0	44	104	0	78	10396
2026-01-28 04:36:06.26	349.39	9.43	-53.8	-62.6	3.8	7.45e-01	0	44	104	0	78	10370
2026-01-28 04:36:08.28	348.97	9.32	-53.8	-62.6	3.8	7.46e-01	0	44	104	0	78	10382
2026-01-28 04:36:10.29	348.54	9.21	-53.8	-62.6	3.8	7.47e-01	0	44	104	0	78	10350
2026-01-28 04:36:12.31	348.12	9.09	-53.8	-62.6	3.8	7.44e-01	0	44	104	0	78	10355
2026-01-28 04:36:14.32	347.71	8.98	-53.8	-62.6	3.8	7.46e-01	0	44	104	0	78	10369
2026-01-28 04:36:16.34	347.30	8.86	-53.8	-62.6	3.8	7.45e-01	0	44	104	0	78	10362
2026-01-28 04:36:18.36	346.89	8.75	-53.8	-62.6	3.8	7.44e-01	0	44	104	0	78	10385
2026-01-28 04:36:20.37	346.49	8.63	-53.8	-62.6	3.8	7.43e-01	0	44	104	0	78	10392
2026-01-28 04:36:22.38	346.09	8.52	-53.8	-62.6	3.8	7.45e-01	0	44	104	0	78	10374
2026-01-28 04:36:24.40	345.70	8.40	-53.8	-62.6	3.8	7.45e-01	0	44	104	0	78	10381
2026-01-28 04:36:26.41	345.31	8.28	-53.8	-62.6	3.8	7.46e-01	0	44	104	0	78	10347
2026-01-28 04:36:28.43	344.92	8.16	-53.8	-62.6	3.8	7.45e-01	0	44	104	0	78	10394
2026-01-28 04:36:30.45	344.54	8.05	-53.8	-62.6	3.8	7.44e-01	0	44	104	0	78	10401
2026-01-28 04:36:32.47	344.16	7.93	-53.8	-62.6	3.8	7.45e-01	0	44	104	0	78	10388
2026-01-28 04:36:34.48	343.78	7.81	-53.8	-62.6	3.8	7.45e-01	0	44	104	0	78	10358
2026-01-28 04:36:36.50	343.41	7.69	-53.8	-62.6	3.8	7.45e-01	0	44	104	0	78	10345
2026-01-28 04:36:38.51	343.04	7.57	-53.8	-62.6	3.8	7.47e-01	0	44	104	0	78	10366
2026-01-28 04:36:40.53	342.68	7.46	-53.8	-62.6	3.8	7.47e-01	0	44	104	0	78	10347
2026-01-28 04:36:42.54	342.32	7.34	-53.8	-62.6	3.8	7.45e-01	0	44	104	0	78	10361
2026-01-28 04:36:44.56	341.96	7.22	-53.8	-62.6	3.8	7.46e-01	0	44	104	0	78	10381
2026-01-28 04:36:46.58	341.61	7.10	-53.8	-62.6	3.8	7.44e-01	0	44	104	0	78	10384
2026-01-28 04:36:48.59	341.26	6.98	-53.8	-62.6	3.8	7.46e-01	0	44	104	0	78	10398
2026-01-28 04:36:50.60	340.92	6.86	-53.8	-62.6	3.8	7.45e-01	0	44	104	0	78	10386
2026-01-28 04:36:52.62	340.58	6.74	-53.8	-62.6	3.8	7.44e-01	0	44	104	0	78	10373
2026-01-28 04:36:54.63	340.24	6.62	-53.8	-62.6	3.8	7.45e-01	0	44	104	0	78	10348
2026-01-28 04:36:56.65	339.91	6.50	-53.8	-62.6	3.8	7.46e-01	0	44	104	0	78	10371
2026-01-28 04:36:58.66	339.58	6.38	-53.8	-62.6	3.8	7.45e-01	0	44	104	0	78	10370
2026-01-28 04:37:00.68	339.25	6.26	-53.8	-62.6	3.8	7.44e-01	0	44	104	0	78	10364
2026-01-28 04:37:02.69	338.92	6.15	-53.8	-62.6	3.8	7.44e-01	0	44	104	0	78	10352
2026-01-28 04:37:04.71	338.60	6.03	-53.8	-62.6	3.8	7.45e-01	0	44	104	0	78	10368
2026-01-28 04:37:06.73	338.29	5.91	-53.8	-62.6	3.8	7.44e-01	0	44	104	0	78	10356
2026-01-28 04:37:08.75	337.97	5.79	-53.8	-62.6	3.8	7.45e-01	0	44	104	0	78	10384
2026-01-28 04:37:10.76	337.66	5.67	-53.8	-62.6	3.8	7.45e-01	0	44	104	0	78	10402
2026-01-28 04:37:12.77	337.36	5.55	-53.8	-62.6	3.8	7.44e-01	0	44	104	0	78	10401
2026-01-28 04:37:14.79	337.05	5.43	-53.8	-62.6	3.8	7.45e-01	0	44	104	0	78	10379
2026-01-28 04:37:16.80	336.75	5.31	-53.8	-62.6	3.8	7.47e-01	0	44	104	0	78	10387
2026-01-28 04:37:18.82	336.45	5.19	-53.8	-62.6	3.8	7.44e-01	0	44	104	0	78	10382
2026-01-28 04:37:20.84	336.16	5.07	-53.8	-62.6	3.8	7.46e-01	0	44	104	0	78	10374
2026-01-28 04:37:22.85	335.87	4.96	-53.8	-62.6	3.8	7.46e-01	0	44	104	0	78	10364
2026-01-28 04:37:24.87	335.58	4.84	-53.8	-62.6	3.8	7.45e-01	0	44	104	0	78	10390
2026-01-28 04:37:26.88	335.29	4.72	-53.8	-62.6	3.8	7.45e-01	0	44	104	0	78	10376
2026-01-28 04:37:28.90	335.01	4.60	-53.8	-62.6	3.8	7.45e-01	0	44	104	0	78	10375
2026-01-28 04:37:30.92	334.73	4.48	-53.8	-62.6	3.8	7.45e-01	0	44	104	0	78	10372
2026-01-28 04:37:32.93	334.46	4.37	-53.8	-62.6	3.8	7.44e-01	0	44	104	0	78	10347
2026-01-28 04:37:34.94	334.18	4.25	-53.8	-62.6	3.8	7.46e-01	0	44	104	0	78	10402
2026-01-28 04:37:36.96	333.91	4.13	-53.8	-62.7	3.8	7.46e-01	0	44	104	0	78	10436
2026-01-28 04:37:38.98	333.64	4.01	-53.8	-62.6	3.8	7.47e-01	0	44	104	0	78	10351
2026-01-28 04:37:41.00	333.38	3.90	-53.8	-62.6	3.8	7.44e-01	0	44	104	0	78	10389
2026-01-28 04:37:43.01	333.12	3.78	-53.8	-62.6	3.8	7.45e-01	0	44	104	0	78	10391
2026-01-28 04:37:45.02	332.86	3.66	-53.8	-62.6	3.8	7.47e-01	0	44	104	0	78	10382
2026-01-28 04:37:47.04	332.60	3.55	-53.8	-62.6	3.8	7.45e-01	0	44	104	0	78	10393
2026-01-28 04:37:49.05	332.35	3.43	-53.8	-62.6	3.8	7.46e-01	0	44	104	0	78	10398
2026-01-28 04:37:51.07	332.10	3.31	-53.8	-62.6	3.8	7.46e-01	0	44	104	0	78	10368
2026-01-28 04:37:53.09	331.85	3.20	-53.8	-62.6	3.8	7.45e-01	0	44	104	0	78	10386
2026-01-28 04:37:55.11	331.60	3.08	-53.8	-62.6	3.8	7.44e-01	0	44	104	0	78	10371
2026-01-28 04:37:57.12	331.36	2.97	-53.8	-62.6	3.8	7.44e-01	0	44	104	0	78	10347
2026-01-28 04:37:59.14	331.12	2.85	-53.8	-62.6	3.8	7.44e-01	0	44	104	0	78	10406
2026-01-28 04:38:01.15	330.88	2.74	-53.8	-62.6	3.8	7.44e-01	0	44	104	0	78	10373
2026-01-28 04:38:03.16	330.64	2.62	-53.8	-62.6	3.8	7.44e-01	0	44	104	0	78	10378
2026-01-28 04:38:05.18	330.41	2.51	-53.8	-62.6	3.8	7.45e-01	0	44	104	0	78	10345
2026-01-28 04:38:07.19	330.18	2.40	-53.8	-62.6	3.8	7.45e-01	0	44	104	0	78	10385
2026-01-28 04:38:09.21	329.95	2.28	-53.8	-62.6	3.8	7.46e-01	0	44	104	0	78	10401
2026-01-28 04:38:11.23	329.72	2.17	-53.8	-62.6	3.8	7.45e-01	0	44	104	0	78	10392
2026-01-28 04:38:13.24	329.50	2.06	-53.8	-62.6	3.8	7.45e-01	0	44	104	0	78	10395

#Closed at: 2026-01-28 04:38:14
#Recorded file [0 MB]: D:/lorett/data/31041_260128_072955.dat