passes_logs/2026/01/28/R3.2S_Murmansk/R3.2S_Murmansk__20260128_060157_KANOPUS-V_5_rec.log

#Pass ID: 20260128_060157_KANOPUS-V 5
#Satellite: KANOPUS-V 5
#Configuration: KANOPUS-V_8320
#almurnet v.1.7.20251203
#Start time: 2026-01-28 06:01:58

#Version: 2.2.20231116
#Station: R3.2S_Murmansk
#Location: 33.079688 lon 68.888172 lat
#TLE: 1 43876U 18111A   26027.32158080  .00005009  00000+0  21245-3 0  9994
#TLE: 2 43876  97.3675 295.6129 0001827  89.1739 270.9707 15.23558826393345

#Time	Az	El	Level	Level2	SNR	BER	BlckErr	Temp	State	Recorded	gain1	gain2
2026-01-28 06:01:58.27	112.57	2.08	-54.8	-63.7	3.8	7.45e-01	0	43	0	0	80	10426
2026-01-28 06:02:01.29	112.37	2.28	-54.8	-63.6	3.8	7.45e-01	0	43	104	0	80	10398
2026-01-28 06:02:04.31	112.16	2.48	-54.8	-63.6	3.8	7.45e-01	0	43	104	0	80	10322
2026-01-28 06:02:07.34	111.94	2.68	-54.7	-63.6	3.8	7.44e-01	0	43	104	0	80	10316
2026-01-28 06:02:10.36	111.73	2.89	-54.9	-63.8	3.8	7.46e-01	0	43	104	0	80	10593
2026-01-28 06:02:13.38	111.50	3.09	-54.9	-63.8	3.8	7.46e-01	0	43	104	0	80	10560
2026-01-28 06:02:16.40	111.28	3.30	-54.9	-63.7	3.8	7.44e-01	0	43	104	0	80	10476
2026-01-28 06:02:19.42	111.05	3.51	-54.8	-63.6	3.8	7.45e-01	0	43	104	0	80	10380
2026-01-28 06:02:22.45	110.81	3.72	-54.7	-63.5	3.8	7.46e-01	0	43	104	0	80	10274
2026-01-28 06:02:25.46	110.57	3.93	-54.6	-63.5	3.8	7.46e-01	0	43	104	0	80	10186
2026-01-28 06:02:28.49	110.33	4.15	-54.5	-63.3	3.8	7.46e-01	0	43	104	0	80	10042
2026-01-28 06:02:31.51	110.08	4.36	-54.3	-63.2	3.8	7.46e-01	0	43	104	0	80	9845
2026-01-28 06:02:34.53	109.83	4.58	-54.1	-63.0	3.8	7.45e-01	0	43	104	0	80	9617
2026-01-28 06:02:37.56	109.57	4.80	-53.8	-62.6	3.8	7.44e-01	0	43	104	0	79	9819
2026-01-28 06:02:40.58	109.30	5.02	-47.0	-49.6	11.2	6.08e-01	0	43	0	10485760	66	4615
2026-01-28 06:02:43.60	109.03	5.25	-47.9	-50.7	10.3	6.05e-01	0	43	0	56623104	66	5273
2026-01-28 06:02:46.63	108.76	5.48	-46.2	-48.6	12.2	6.04e-01	0	43	0	102760448	64	4618
2026-01-28 06:02:49.65	108.48	5.70	-45.6	-47.8	13.0	6.03e-01	0	43	0	148897792	63	4484
2026-01-28 06:02:52.67	108.19	5.93	-45.2	-47.5	13.2	6.06e-01	0	43	0	197132288	62	4564
2026-01-28 06:02:55.70	107.90	6.17	-45.0	-47.2	13.5	6.06e-01	0	43	0	243269632	62	4400
2026-01-28 06:02:58.73	107.60	6.40	-45.1	-47.4	13.4	6.06e-01	0	43	0	289406976	61	4766
2026-01-28 06:03:01.75	107.29	6.64	-44.9	-47.1	13.6	6.08e-01	0	43	0	333447168	61	4617
2026-01-28 06:03:04.78	106.98	6.88	-44.8	-47.0	13.7	6.07e-01	0	43	0	381681664	61	4564
2026-01-28 06:03:07.80	106.66	7.12	-44.8	-46.9	13.7	6.00e-01	0	43	0	427819008	61	4543
2026-01-28 06:03:10.82	106.33	7.37	-44.7	-46.8	13.9	6.07e-01	0	43	0	473956352	61	4485
2026-01-28 06:03:13.85	106.00	7.62	-44.6	-46.7	14.0	6.08e-01	0	43	0	520093696	60	4677
2026-01-28 06:03:16.87	105.66	7.87	-44.4	-46.6	14.1	6.07e-01	0	43	0	566231040	60	4606
2026-01-28 06:03:19.89	105.31	8.12	-44.3	-46.4	14.2	6.09e-01	0	44	0	614465536	60	4538
2026-01-28 06:03:22.90	104.96	8.37	-44.1	-46.3	14.4	6.03e-01	0	43	0	660602880	60	4453
2026-01-28 06:03:25.93	104.59	8.63	-44.1	-46.3	14.4	6.07e-01	0	43	0	706740224	60	4467
2026-01-28 06:03:28.94	104.22	8.89	-43.9	-46.1	14.6	6.01e-01	0	44	0	752877568	59	4612
2026-01-28 06:03:31.97	103.84	9.15	-43.9	-46.1	14.7	5.78e-01	0	43	0	799014912	59	4604
2026-01-28 06:03:35.00	103.45	9.42	-43.7	-45.9	14.9	5.78e-01	0	43	0	845152256	59	4507
2026-01-28 06:03:38.03	103.05	9.68	-43.8	-45.9	14.9	5.78e-01	0	43	0	891289600	59	4534
2026-01-28 06:03:41.04	102.65	9.95	-43.6	-45.7	15.0	5.79e-01	0	44	0	937426944	59	4420
2026-01-28 06:03:44.06	102.23	10.23	-43.4	-45.5	15.2	5.77e-01	0	43	0	983564288	58	4551
2026-01-28 06:03:47.08	101.80	10.50	-43.3	-45.4	15.3	5.78e-01	0	43	0	1031798784	58	4510
2026-01-28 06:03:50.10	101.36	10.78	-43.3	-45.4	15.3	5.78e-01	0	44	0	1077936128	58	4502
2026-01-28 06:03:53.12	100.92	11.06	-43.3	-45.3	15.4	5.78e-01	0	44	0	1124073472	58	4493
2026-01-28 06:03:56.15	100.45	11.35	-42.8	-44.9	15.7	5.78e-01	0	44	0	1170210816	57	4539
2026-01-28 06:03:59.17	99.98	11.64	-42.7	-44.7	15.8	5.77e-01	0	44	0	1216348160	57	4441
2026-01-28 06:04:02.20	99.50	11.93	-42.5	-44.5	16.1	5.78e-01	0	44	0	1264582656	57	4338
2026-01-28 06:04:05.22	99.01	12.22	-42.5	-44.5	16.1	5.78e-01	0	44	0	1310720000	56	4554
2026-01-28 06:04:08.25	98.50	12.52	-42.4	-44.3	16.3	5.78e-01	0	44	0	1356857344	56	4455
2026-01-28 06:04:11.27	97.98	12.81	-42.3	-44.1	16.4	5.78e-01	0	44	0	1402994688	56	4381
2026-01-28 06:04:14.29	97.45	13.12	-42.1	-44.0	16.6	5.77e-01	0	44	0	1449132032	55	4597
2026-01-28 06:04:17.32	96.90	13.42	-42.0	-43.9	16.8	5.78e-01	0	44	0	1495269376	55	4535
2026-01-28 06:04:20.34	96.34	13.73	-42.0	-43.9	16.7	5.78e-01	0	44	0	1541406720	55	4541
2026-01-28 06:04:23.35	95.77	14.04	-41.6	-43.5	17.1	5.78e-01	0	44	0	1587544064	55	4324
2026-01-28 06:04:26.37	95.18	14.35	-41.5	-43.4	17.1	5.78e-01	0	44	0	1633681408	54	4526
2026-01-28 06:04:29.39	94.58	14.66	-41.5	-43.4	17.1	5.78e-01	0	44	0	1681915904	54	4544
2026-01-28 06:04:32.42	93.96	14.98	-41.3	-43.2	17.2	5.78e-01	0	44	0	1728053248	54	4432
2026-01-28 06:04:35.44	93.32	15.30	-41.4	-43.3	17.3	5.78e-01	0	44	0	1774190592	54	4457
2026-01-28 06:04:38.46	92.67	15.63	-41.4	-43.2	17.3	5.77e-01	0	44	0	1820327936	54	4412
2026-01-28 06:04:41.48	92.00	15.95	-41.1	-42.9	17.6	5.78e-01	0	44	0	1866465280	54	4278
2026-01-28 06:04:44.51	91.31	16.28	-41.1	-43.0	17.4	6.00e-01	0	44	0	1912602624	54	4297
2026-01-28 06:04:47.53	90.60	16.61	-40.9	-42.9	17.4	5.97e-01	0	44	0	1958739968	53	4521
2026-01-28 06:04:50.55	89.88	16.94	-40.7	-42.6	17.7	5.99e-01	0	44	0	2004877312	53	4370
2026-01-28 06:04:53.57	89.14	17.27	-40.5	-42.4	17.8	5.99e-01	0	44	0	2051014656	53	4268
2026-01-28 06:04:56.59	88.38	17.60	-40.6	-42.4	17.9	6.01e-01	0	44	0	2099249152	53	4257
2026-01-28 06:04:59.61	87.59	17.94	-40.4	-42.3	18.0	5.97e-01	0	44	0	2145386496	52	4445
2026-01-28 06:05:02.64	86.79	18.27	-40.7	-42.6	17.7	6.02e-01	0	44	0	2191523840	52	4625
2026-01-28 06:05:05.67	85.96	18.61	-40.6	-42.4	17.9	6.00e-01	0	44	0	2237661184	52	4530
2026-01-28 06:05:08.69	85.12	18.95	-40.4	-42.4	18.0	6.01e-01	0	44	0	2285895680	52	4495
2026-01-28 06:05:11.71	84.25	19.28	-40.2	-42.1	18.1	6.02e-01	0	44	0	2332033024	52	4388
2026-01-28 06:05:14.74	83.36	19.62	-40.0	-41.9	18.3	6.01e-01	0	44	0	2378170368	52	4288
2026-01-28 06:05:17.75	82.45	19.95	-40.1	-41.9	18.3	6.04e-01	0	44	0	2424307712	51	4544
2026-01-28 06:05:20.78	81.51	20.29	-40.0	-41.8	18.4	6.02e-01	0	44	0	2470445056	51	4455
2026-01-28 06:05:23.81	80.54	20.62	-40.1	-41.9	18.4	6.01e-01	0	44	0	2516582400	51	4530
2026-01-28 06:05:26.83	79.56	20.95	-40.2	-42.0	18.3	6.01e-01	0	44	0	2562719744	51	4577
2026-01-28 06:05:29.85	78.55	21.28	-40.2	-42.1	18.2	6.01e-01	0	44	0	2608857088	51	4619
2026-01-28 06:05:32.88	77.52	21.60	-39.9	-41.9	18.4	6.04e-01	0	44	0	2657091584	51	4529
2026-01-28 06:05:35.90	76.46	21.92	-39.8	-41.8	18.4	6.01e-01	0	44	0	2703228928	51	4456
2026-01-28 06:05:38.92	75.38	22.23	-39.9	-41.7	18.5	5.99e-01	0	44	0	2749366272	51	4439
2026-01-28 06:05:41.94	74.27	22.54	-40.0	-41.9	18.4	5.99e-01	0	44	0	2795503616	51	4542
2026-01-28 06:05:44.97	73.14	22.85	-40.1	-42.1	18.3	5.99e-01	0	44	0	2841640960	51	4614
2026-01-28 06:05:47.99	71.98	23.14	-40.1	-42.1	18.3	6.02e-01	0	44	0	2889875456	51	4600
2026-01-28 06:05:51.02	70.80	23.43	-40.0	-42.0	18.4	5.99e-01	0	44	0	2933915648	51	4550
2026-01-28 06:05:54.04	69.59	23.71	-39.9	-42.0	18.3	5.96e-01	0	44	0	2980052992	51	4552
2026-01-28 06:05:57.07	68.36	23.99	-40.1	-42.1	18.3	6.00e-01	0	44	0	3026190336	51	4636
2026-01-28 06:06:00.09	67.10	24.25	-40.1	-42.0	18.4	6.00e-01	0	44	0	3074424832	51	4559
2026-01-28 06:06:03.11	65.83	24.50	-40.0	-41.9	18.4	6.02e-01	0	44	0	3120562176	51	4537
2026-01-28 06:06:06.14	64.52	24.74	-39.9	-42.1	18.2	6.00e-01	0	44	0	3166699520	51	4599
2026-01-28 06:06:09.15	63.21	24.96	-40.0	-41.9	18.4	6.00e-01	0	44	0	3212836864	51	4534
2026-01-28 06:06:12.17	61.86	25.18	-40.0	-41.9	18.4	5.99e-01	0	44	0	3261071360	51	4544
2026-01-28 06:06:15.20	60.50	25.38	-40.1	-42.2	18.3	6.01e-01	0	44	0	3307208704	51	4658
2026-01-28 06:06:18.22	59.12	25.56	-40.2	-42.3	18.1	6.05e-01	0	44	0	3353346048	51	4736
2026-01-28 06:06:21.25	57.72	25.73	-40.0	-42.0	18.4	6.01e-01	0	44	0	3399483392	51	4582
2026-01-28 06:06:24.27	56.31	25.89	-40.4	-42.5	18.0	5.96e-01	0	44	0	3445620736	51	4859
2026-01-28 06:06:27.29	54.88	26.03	-40.4	-42.4	18.1	6.02e-01	0	44	0	3491758080	51	4808
2026-01-28 06:06:30.31	53.44	26.15	-40.3	-42.5	18.0	6.01e-01	0	44	0	3537895424	51	4866
2026-01-28 06:06:33.33	51.99	26.25	-40.4	-42.7	17.9	6.04e-01	0	44	0	3584032768	51	4934
2026-01-28 06:06:36.35	50.53	26.33	-40.5	-42.7	17.8	5.98e-01	0	44	0	3630170112	51	4982
2026-01-28 06:06:39.37	49.06	26.40	-40.5	-42.8	17.8	5.99e-01	0	44	0	3678404608	51	5007
2026-01-28 06:06:42.40	47.58	26.44	-40.9	-43.4	17.4	6.00e-01	0	44	0	3724541952	52	5064
2026-01-28 06:06:45.43	46.10	26.47	-40.9	-43.3	17.4	6.00e-01	0	44	0	3770679296	52	4995
2026-01-28 06:06:48.45	44.62	26.48	-40.9	-43.3	17.3	6.03e-01	0	44	0	3816816640	52	5035
2026-01-28 06:06:51.47	43.14	26.47	-40.9	-43.3	17.4	6.00e-01	0	44	0	3865051136	52	5030
2026-01-28 06:06:54.49	41.66	26.44	-40.9	-43.5	17.2	6.01e-01	0	44	0	3911188480	52	5136
2026-01-28 06:06:57.51	40.19	26.39	-41.0	-43.4	17.2	5.99e-01	0	44	0	3957325824	52	5087
2026-01-28 06:07:00.53	38.72	26.32	-41.0	-43.4	17.3	6.00e-01	0	44	0	4003463168	52	5092
2026-01-28 06:07:03.55	37.27	26.23	-40.8	-43.2	17.4	6.03e-01	0	44	0	4047503360	52	4937
2026-01-28 06:07:06.57	35.82	26.13	-40.9	-43.4	17.3	6.02e-01	0	44	0	4095737856	52	5049
2026-01-28 06:07:09.60	34.38	26.01	-41.2	-43.6	17.2	6.00e-01	0	44	0	4141875200	53	4874
2026-01-28 06:07:12.62	32.95	25.87	-41.0	-43.3	17.4	6.00e-01	0	44	0	4188012544	53	4759
2026-01-28 06:07:15.64	31.54	25.71	-41.2	-43.5	17.2	5.98e-01	0	44	0	4234149888	53	4851
2026-01-28 06:07:18.66	30.15	25.54	-41.1	-43.3	17.3	6.02e-01	0	44	0	4280287232	53	4749
2026-01-28 06:07:21.68	28.78	25.35	-40.8	-43.1	17.6	6.00e-01	0	44	0	4328521728	53	4614
2026-01-28 06:07:24.70	27.42	25.15	-40.6	-42.9	17.6	6.00e-01	0	44	0	4374659072	53	4528
2026-01-28 06:07:27.72	26.09	24.93	-40.7	-42.9	17.6	6.01e-01	0	44	0	4420796416	53	4531
2026-01-28 06:07:30.74	24.77	24.70	-40.9	-43.3	17.3	6.01e-01	0	44	0	4466933760	53	4735
2026-01-28 06:07:33.76	23.48	24.46	-41.0	-43.2	17.4	6.00e-01	0	44	0	4513071104	53	4676
2026-01-28 06:07:36.77	22.21	24.21	-40.8	-43.1	17.5	6.00e-01	0	44	0	4559208448	53	4608
2026-01-28 06:07:39.79	20.97	23.95	-41.1	-43.5	17.2	6.00e-01	0	44	0	4605345792	53	4828
2026-01-28 06:07:42.81	19.74	23.68	-41.1	-43.3	17.3	6.03e-01	0	44	0	4651483136	53	4755
2026-01-28 06:07:45.84	18.54	23.40	-41.1	-43.3	17.3	6.03e-01	0	44	0	4697620480	53	4747
2026-01-28 06:07:48.86	17.36	23.11	-41.2	-43.4	17.2	6.01e-01	0	44	0	4743757824	53	4807
2026-01-28 06:07:51.88	16.21	22.81	-40.9	-43.1	17.5	6.02e-01	0	44	0	4791992320	53	4649
2026-01-28 06:07:54.89	15.09	22.51	-40.8	-43.1	17.5	6.04e-01	0	44	0	4838129664	53	4613
2026-01-28 06:07:57.91	13.99	22.20	-40.9	-43.2	17.4	6.02e-01	0	44	0	4884267008	53	4658
2026-01-28 06:08:00.93	12.92	21.89	-40.9	-43.1	17.4	6.02e-01	0	44	0	4930404352	53	4637
2026-01-28 06:08:03.95	11.87	21.57	-40.9	-43.1	17.5	5.98e-01	0	44	0	4976541696	53	4615
2026-01-28 06:08:06.97	10.84	21.25	-40.9	-43.1	17.5	6.01e-01	0	44	0	5022679040	53	4607
2026-01-28 06:08:10.00	9.84	20.92	-41.0	-43.2	17.4	6.02e-01	0	44	0	5070913536	53	4672
2026-01-28 06:08:13.02	8.86	20.59	-41.1	-43.4	17.2	6.01e-01	0	44	0	5117050880	53	4774
2026-01-28 06:08:16.03	7.91	20.26	-41.0	-43.3	17.3	6.02e-01	0	44	0	5161091072	53	4707
2026-01-28 06:08:19.06	6.98	19.93	-40.9	-43.1	17.4	5.99e-01	0	44	0	5207228416	53	4639
2026-01-28 06:08:22.07	6.07	19.60	-41.0	-43.2	17.4	6.02e-01	0	44	0	5253365760	53	4660
2026-01-28 06:08:25.09	5.19	19.26	-41.1	-43.4	17.2	6.01e-01	0	44	0	5301600256	53	4774
2026-01-28 06:08:28.12	4.32	18.93	-41.2	-43.4	17.2	6.02e-01	0	44	0	5347737600	53	4799
2026-01-28 06:08:31.13	3.49	18.59	-41.2	-43.4	17.2	6.01e-01	0	44	0	5393874944	53	4762
2026-01-28 06:08:34.16	2.67	18.26	-41.3	-43.5	17.1	5.95e-01	0	44	0	5440012288	53	4867
2026-01-28 06:08:37.18	1.87	17.92	-41.4	-43.6	17.1	6.02e-01	0	44	0	5488246784	53	4873
2026-01-28 06:08:40.20	1.09	17.59	-41.4	-43.6	16.9	6.02e-01	0	44	0	5534384128	53	4902
2026-01-28 06:08:43.23	0.33	17.26	-41.5	-43.8	16.8	6.01e-01	0	44	0	5580521472	53	4985
2026-01-28 06:08:46.25	359.59	16.93	-41.6	-43.8	16.8	6.01e-01	0	44	0	5626658816	53	5004
2026-01-28 06:08:49.27	358.88	16.60	-41.6	-43.9	16.8	5.79e-01	0	44	0	5672796160	53	5070
2026-01-28 06:08:52.29	358.18	16.27	-41.8	-44.2	16.6	5.80e-01	0	44	0	5718933504	54	4931
2026-01-28 06:08:55.32	357.49	15.94	-41.9	-44.3	16.5	5.78e-01	0	44	0	5765070848	54	5006
2026-01-28 06:08:58.34	356.83	15.62	-42.0	-44.4	16.4	5.78e-01	0	44	0	5811208192	54	5049
2026-01-28 06:09:01.36	356.18	15.30	-42.1	-44.4	16.4	5.80e-01	0	44	0	5857345536	54	5097
2026-01-28 06:09:04.37	355.55	14.98	-43.4	-44.3	16.4	5.80e-01	0	44	0	5903482880	57	4213
2026-01-28 06:09:07.39	354.94	14.67	-53.6	-62.5	3.8	7.45e-01	0	44	104	5920260096	77	10860
2026-01-28 06:09:10.42	354.33	14.35	-53.6	-62.4	3.8	7.44e-01	0	44	104	5920260096	77	10777
2026-01-28 06:09:13.45	353.75	14.04	-53.6	-62.4	3.8	7.44e-01	0	44	104	5920260096	77	10729
2026-01-28 06:09:16.46	353.18	13.73	-53.6	-62.5	3.8	7.46e-01	0	44	104	5920260096	77	10804
2026-01-28 06:09:19.48	352.62	13.43	-53.6	-62.4	3.8	7.45e-01	0	44	104	5920260096	77	10731
2026-01-28 06:09:22.50	352.08	13.12	-53.6	-62.4	3.8	7.45e-01	0	44	104	5920260096	77	10710
2026-01-28 06:09:25.51	351.56	12.82	-53.5	-62.3	3.8	7.46e-01	0	44	104	5920260096	77	10655
2026-01-28 06:09:28.54	351.04	12.53	-53.5	-62.3	3.8	7.47e-01	0	44	104	5920260096	77	10624
2026-01-28 06:09:31.55	350.54	12.23	-53.5	-62.3	3.8	7.45e-01	0	44	104	5920260096	77	10534
2026-01-28 06:09:34.56	350.05	11.94	-53.5	-62.3	3.8	7.46e-01	0	44	104	5920260096	77	10563
2026-01-28 06:09:37.58	349.57	11.65	-53.4	-62.3	3.8	7.44e-01	0	44	104	5920260096	77	10547
2026-01-28 06:09:40.60	349.10	11.37	-53.4	-62.2	3.8	7.45e-01	0	44	104	5920260096	77	10501
2026-01-28 06:09:43.63	348.65	11.08	-53.4	-62.2	3.8	7.45e-01	0	44	104	5920260096	77	10459
2026-01-28 06:09:46.63	348.21	10.80	-53.4	-62.2	3.8	7.44e-01	0	44	104	5920260096	77	10513
2026-01-28 06:09:49.65	347.77	10.53	-53.4	-62.2	3.8	7.46e-01	0	44	104	5920260096	77	10448
2026-01-28 06:09:52.68	347.35	10.25	-53.3	-62.1	3.8	7.44e-01	0	44	104	5920260096	77	10368
2026-01-28 06:09:55.69	346.93	9.98	-53.3	-62.1	3.8	7.46e-01	0	44	104	5920260096	77	10374
2026-01-28 06:09:58.70	346.53	9.71	-53.3	-62.1	3.8	7.44e-01	0	44	104	5920260096	77	10410
2026-01-28 06:10:01.68	346.14	9.45	-53.3	-62.1	3.8	7.46e-01	0	44	104	5920260096	77	10368
2026-01-28 06:10:04.71	345.75	9.18	-53.2	-62.0	3.8	7.44e-01	0	44	104	5920260096	77	10260
2026-01-28 06:10:07.72	345.37	8.92	-53.2	-62.0	3.8	7.47e-01	0	44	104	5920260096	77	10217
2026-01-28 06:10:10.74	345.01	8.67	-53.2	-62.0	3.8	7.46e-01	0	44	104	5920260096	77	10264
2026-01-28 06:10:13.76	344.64	8.41	-53.2	-62.0	3.8	7.44e-01	0	44	104	5920260096	77	10202
2026-01-28 06:10:16.78	344.29	8.16	-53.1	-61.9	3.8	7.47e-01	0	44	104	5920260096	77	10120
2026-01-28 06:10:19.81	343.95	7.91	-53.1	-61.9	3.8	7.46e-01	0	44	104	5920260096	77	10074
2026-01-28 06:10:22.83	343.61	7.66	-53.1	-61.9	3.8	7.46e-01	0	44	104	5920260096	77	10169
2026-01-28 06:10:25.85	343.28	7.41	-53.1	-61.9	3.8	7.44e-01	0	44	104	5920260096	77	10146
2026-01-28 06:10:28.87	342.95	7.17	-53.0	-61.8	3.8	7.47e-01	0	44	104	5920260096	77	9996
2026-01-28 06:10:31.89	342.64	6.93	-52.9	-61.8	3.8	7.45e-01	0	44	104	5920260096	77	9986
2026-01-28 06:10:34.90	342.33	6.69	-53.0	-61.8	3.8	7.45e-01	0	44	104	5920260096	77	10028
2026-01-28 06:10:37.93	342.03	6.45	-53.0	-61.8	3.8	7.46e-01	0	44	104	5920260096	77	9980
2026-01-28 06:10:40.95	341.73	6.22	-52.9	-61.7	3.8	7.45e-01	0	44	104	5920260096	77	9865
2026-01-28 06:10:43.97	341.44	5.98	-52.8	-61.6	3.8	7.46e-01	0	44	104	5920260096	77	9760
2026-01-28 06:10:46.99	341.15	5.75	-52.9	-61.7	3.8	7.47e-01	0	44	104	5920260096	77	9921
2026-01-28 06:10:50.01	340.88	5.53	-52.8	-61.7	3.8	7.44e-01	0	44	104	5920260096	77	9879
2026-01-28 06:10:53.02	340.60	5.30	-52.7	-61.5	3.8	7.44e-01	0	44	104	5920260096	77	9664
2026-01-28 06:10:56.04	340.34	5.08	-52.6	-61.5	3.8	7.46e-01	0	44	104	5920260096	77	9623
2026-01-28 06:10:59.05	340.08	4.86	-53.3	-62.2	3.8	7.45e-01	0	44	104	5920260096	77	10463
2026-01-28 06:11:02.07	339.82	4.64	-54.0	-62.8	3.8	7.46e-01	0	44	104	5920260096	78	10635
2026-01-28 06:11:05.09	339.57	4.42	-54.3	-63.1	3.8	7.46e-01	0	44	104	5920260096	79	10391
2026-01-28 06:11:08.12	339.32	4.20	-54.3	-63.1	3.8	7.45e-01	0	44	104	5920260096	79	10372
2026-01-28 06:11:11.14	339.08	3.99	-54.1	-62.9	3.8	7.44e-01	0	44	104	5920260096	79	10168
2026-01-28 06:11:14.16	338.84	3.78	-54.0	-62.9	3.8	7.45e-01	0	44	104	5920260096	79	10065
2026-01-28 06:11:17.18	338.61	3.57	-54.1	-63.0	3.8	7.45e-01	0	44	104	5920260096	79	10176
2026-01-28 06:11:20.21	338.38	3.36	-54.1	-62.9	3.8	7.45e-01	0	44	104	5920260096	79	10096
2026-01-28 06:11:23.23	338.15	3.15	-54.0	-62.9	3.8	7.46e-01	0	44	104	5920260096	79	10067
2026-01-28 06:11:26.25	337.93	2.95	-54.0	-62.8	3.8	7.44e-01	0	44	104	5920260096	79	9983
2026-01-28 06:11:29.28	337.72	2.74	-54.0	-62.8	3.8	7.46e-01	0	44	104	5920260096	79	9979
2026-01-28 06:11:32.30	337.51	2.54	-53.9	-62.8	3.8	7.46e-01	0	44	104	5920260096	79	9950
2026-01-28 06:11:35.33	337.30	2.34	-53.9	-62.7	3.8	7.45e-01	0	44	104	5920260096	79	9918
2026-01-28 06:11:38.35	337.09	2.14	-53.9	-62.7	3.8	7.46e-01	0	44	104	5920260096	79	9935
2026-01-28 06:11:41.37	336.89	1.94	-53.9	-62.7	3.8	7.47e-01	0	44	104	5920260096	79	9940

#Closed at: 2026-01-28 06:11:42
#Recorded file [5920 MB]: D:/lorett/data/31041_260128_090158.dat