passes_logs/2026/01/28/R3.2S_Murmansk/R3.2S_Murmansk__20260128_070558_SUOMI_NPP_rec.log

#Pass ID: 20260128_070558_SUOMI NPP
#Satellite: SUOMI NPP
#Configuration: NPP
#almurnet v.1.7.20251203
#Start time: 2026-01-28 07:05:59

#Version: 2.2.20231116
#Station: R3.2S_Murmansk
#Location: 33.079688 lon 68.888172 lat
#TLE: 1 37849U 11061A   26027.86188320  .00000172  00000+0  10275-3 0  9990
#TLE: 2 37849  98.7823 329.8005 0002088  41.4184 318.7150 14.19530883738530

#Time	Az	El	Level	Level2	SNR	BER	BlckErr	Temp	State	Recorded	gain1	gain2
2026-01-28 07:05:59.36	95.36	2.04	-53.3	-68.2	3.8	1.49e+00	0	41	0	0	78	19732
2026-01-28 07:06:03.38	95.16	2.29	-52.2	-67.1	3.8	1.49e+00	0	41	104	0	76	19587
2026-01-28 07:06:07.41	94.95	2.53	-52.0	-66.9	3.8	1.49e+00	0	41	104	0	76	19157
2026-01-28 07:06:11.44	94.74	2.77	-52.0	-67.0	3.8	1.49e+00	0	41	104	0	76	19169
2026-01-28 07:06:15.48	94.52	3.02	-52.0	-66.8	3.8	1.49e+00	0	41	104	0	76	18849
2026-01-28 07:06:19.50	94.30	3.27	-52.0	-66.9	3.8	1.49e+00	0	42	104	0	76	19077
2026-01-28 07:06:23.54	94.08	3.52	-52.0	-66.9	3.8	1.49e+00	0	41	104	0	76	19105
2026-01-28 07:06:27.57	93.85	3.77	-52.0	-66.8	3.8	1.49e+00	0	41	104	0	75	19986
2026-01-28 07:06:31.61	93.62	4.03	-51.9	-64.9	3.9	1.49e+00	0	42	104	0	75	16043
2026-01-28 07:06:35.64	93.38	4.28	-51.7	-62.8	4.4	1.34e+00	129	42	0	0	75	12591
2026-01-28 07:06:39.67	93.14	4.54	-51.8	-64.5	3.8	1.43e+00	0	42	104	3145728	75	15308
2026-01-28 07:06:43.70	92.89	4.80	-51.6	-62.1	4.6	1.13e+00	0	42	0	3145728	75	11563
2026-01-28 07:06:47.73	92.64	5.06	-50.1	-54.6	11.2	7.75e-02	0	42	0	10485760	72	5811
2026-01-28 07:06:51.76	92.39	5.33	-48.1	-50.7	15.3	3.85e-02	0	42	0	15728640	68	4665
2026-01-28 07:06:55.79	92.13	5.59	-47.8	-50.3	15.6	0.00e+00	0	42	0	23068672	67	4727
2026-01-28 07:06:59.82	91.86	5.86	-47.5	-49.8	16.1	0.00e+00	0	42	0	30408704	66	4739
2026-01-28 07:07:03.85	91.59	6.13	-47.5	-49.8	16.3	0.00e+00	0	42	0	38797312	66	4710
2026-01-28 07:07:07.88	91.32	6.41	-47.3	-49.5	16.6	0.00e+00	0	42	0	46137344	66	4572
2026-01-28 07:07:11.91	91.04	6.68	-47.6	-49.8	16.2	0.00e+00	0	42	0	53477376	66	4754
2026-01-28 07:07:15.93	90.75	6.96	-47.6	-49.8	16.2	0.00e+00	0	42	0	60817408	66	4733
2026-01-28 07:07:19.97	90.46	7.24	-47.6	-49.9	16.2	0.00e+00	0	42	0	69206016	66	4779
2026-01-28 07:07:24.00	90.16	7.52	-47.7	-49.9	16.2	0.00e+00	0	42	0	76546048	66	4813
2026-01-28 07:07:28.03	89.85	7.80	-47.6	-49.8	16.3	0.00e+00	0	42	0	83886080	66	4753
2026-01-28 07:07:32.06	89.54	8.09	-47.4	-49.7	16.4	0.00e+00	0	42	0	91226112	66	4680
2026-01-28 07:07:36.09	89.23	8.38	-47.5	-49.8	16.4	0.00e+00	0	42	0	98566144	66	4721
2026-01-28 07:07:40.13	88.90	8.67	-47.2	-49.4	16.7	0.00e+00	0	42	0	106954752	66	4543
2026-01-28 07:07:44.16	88.57	8.97	-46.9	-49.0	17.2	0.00e+00	0	42	0	114294784	65	4553
2026-01-28 07:07:48.19	88.24	9.26	-46.9	-48.9	17.3	0.00e+00	0	42	0	121634816	65	4526
2026-01-28 07:07:52.22	87.89	9.56	-46.7	-48.7	17.4	0.00e+00	0	42	0	128974848	65	4432
2026-01-28 07:07:56.25	87.54	9.86	-46.5	-48.4	17.7	0.00e+00	0	42	0	136314880	64	4509
2026-01-28 07:08:00.28	87.18	10.17	-46.8	-48.9	17.3	0.00e+00	0	42	0	144703488	64	4773
2026-01-28 07:08:04.31	86.81	10.47	-46.7	-48.7	17.5	0.00e+00	0	43	0	152043520	64	4699
2026-01-28 07:08:08.34	86.44	10.78	-46.5	-48.4	17.8	0.00e+00	0	43	0	159383552	64	4545
2026-01-28 07:08:12.37	86.05	11.10	-46.6	-48.5	17.8	0.00e+00	0	43	0	166723584	64	4561
2026-01-28 07:08:16.40	85.66	11.41	-46.4	-48.3	17.9	0.00e+00	0	42	0	174063616	64	4469
2026-01-28 07:08:20.44	85.26	11.73	-46.4	-48.2	18.1	0.00e+00	0	43	0	182452224	64	4400
2026-01-28 07:08:24.47	84.85	12.05	-46.5	-48.3	17.9	0.00e+00	0	43	0	189792256	64	4492
2026-01-28 07:08:28.51	84.43	12.37	-46.4	-48.2	18.1	0.00e+00	0	43	0	197132288	64	4422
2026-01-28 07:08:32.53	84.00	12.70	-46.4	-48.3	18.0	0.00e+00	0	42	0	204472320	64	4461
2026-01-28 07:08:36.56	83.56	13.03	-46.6	-48.4	17.9	0.00e+00	0	42	0	212860928	64	4541
2026-01-28 07:08:40.59	83.11	13.36	-47.0	-49.0	17.3	0.00e+00	0	43	0	220200960	64	4862
2026-01-28 07:08:44.62	82.65	13.69	-46.6	-48.5	17.8	0.00e+00	0	42	0	227540992	64	4571
2026-01-28 07:08:48.65	82.18	14.03	-46.4	-48.2	18.3	0.00e+00	0	43	0	234881024	63	4678
2026-01-28 07:08:52.69	81.70	14.37	-46.2	-47.9	18.5	0.00e+00	0	43	0	242221056	63	4537
2026-01-28 07:08:56.72	81.20	14.71	-45.9	-47.5	18.9	0.00e+00	0	42	0	250609664	63	4333
2026-01-28 07:09:00.76	80.70	15.06	-46.3	-48.1	18.3	0.00e+00	0	43	0	257949696	63	4626
2026-01-28 07:09:04.80	80.18	15.41	-46.7	-48.5	18.0	0.00e+00	0	43	0	265289728	63	4855
2026-01-28 07:09:08.83	79.65	15.76	-47.4	-49.5	17.0	0.00e+00	0	43	0	272629760	65	4855
2026-01-28 07:09:12.86	79.11	16.11	-46.7	-48.5	18.0	0.00e+00	0	43	0	279969792	64	4578
2026-01-28 07:09:16.89	78.55	16.46	-46.8	-48.8	17.7	0.00e+00	0	43	0	288358400	64	4717
2026-01-28 07:09:20.92	77.98	16.82	-46.4	-48.2	18.3	0.00e+00	0	43	0	295698432	64	4392
2026-01-28 07:09:24.95	77.40	17.18	-46.3	-48.1	18.4	0.00e+00	0	43	0	303038464	64	4351
2026-01-28 07:09:28.98	76.80	17.54	-46.0	-47.7	19.0	0.00e+00	0	43	0	310378496	63	4392
2026-01-28 07:09:33.01	76.19	17.90	-45.6	-47.1	19.4	0.00e+00	0	43	0	317718528	63	4133
2026-01-28 07:09:37.04	75.56	18.27	-45.8	-47.4	19.2	0.00e+00	0	43	0	326107136	62	4495
2026-01-28 07:09:41.07	74.92	18.64	-46.3	-48.0	18.6	0.00e+00	0	43	0	333447168	63	4550
2026-01-28 07:09:45.10	74.26	19.00	-46.5	-48.3	18.2	0.00e+00	0	43	0	340787200	64	4478
2026-01-28 07:09:49.12	73.58	19.37	-46.4	-48.1	18.4	0.00e+00	0	43	0	348127232	64	4356
2026-01-28 07:09:53.15	72.89	19.74	-46.0	-47.6	18.9	0.00e+00	0	43	0	355467264	63	4383
2026-01-28 07:09:57.17	72.18	20.12	-45.5	-46.9	19.6	0.00e+00	0	43	0	363855872	62	4274
2026-01-28 07:10:01.20	71.46	20.49	-45.6	-47.1	19.4	0.00e+00	0	43	0	371195904	62	4374
2026-01-28 07:10:05.23	70.71	20.86	-46.2	-47.8	18.8	0.00e+00	0	42	0	378535936	63	4482
2026-01-28 07:10:09.26	69.95	21.24	-45.9	-47.5	19.2	0.00e+00	0	43	0	385875968	63	4294
2026-01-28 07:10:13.29	69.17	21.61	-45.9	-47.5	19.1	0.00e+00	0	43	0	393216000	63	4308
2026-01-28 07:10:17.32	68.36	21.98	-46.3	-48.0	18.6	0.00e+00	0	42	0	401604608	63	4584
2026-01-28 07:10:21.35	67.54	22.35	-46.2	-47.9	18.9	0.00e+00	0	43	0	408944640	63	4498
2026-01-28 07:10:25.38	66.70	22.73	-45.7	-47.3	19.5	0.00e+00	0	43	0	416284672	63	4197
2026-01-28 07:10:29.42	65.84	23.10	-46.0	-47.5	19.1	0.00e+00	0	43	0	423624704	63	4337
2026-01-28 07:10:33.45	64.95	23.47	-45.8	-47.3	19.3	0.00e+00	0	43	0	430964736	63	4225
2026-01-28 07:10:37.47	64.05	23.83	-45.3	-46.7	20.0	0.00e+00	0	43	0	439353344	62	4176
2026-01-28 07:10:41.50	63.13	24.19	-44.5	-45.7	20.9	0.00e+00	0	43	0	446693376	60	4176
2026-01-28 07:10:45.53	62.18	24.55	-44.6	-45.9	20.7	0.00e+00	0	42	0	454033408	60	4269
2026-01-28 07:10:49.56	61.21	24.91	-44.7	-46.0	20.6	0.00e+00	0	43	0	461373440	60	4321
2026-01-28 07:10:53.60	60.22	25.26	-45.4	-46.9	19.8	0.00e+00	0	43	0	469762048	61	4536
2026-01-28 07:10:57.63	59.20	25.60	-45.3	-46.7	20.0	0.00e+00	0	43	0	477102080	61	4405
2026-01-28 07:11:01.61	58.18	25.94	-45.2	-46.6	20.1	0.00e+00	0	43	0	484442112	61	4360
2026-01-28 07:11:05.63	57.12	26.27	-45.2	-46.6	20.1	0.00e+00	0	43	0	491782144	61	4363
2026-01-28 07:11:09.66	56.04	26.60	-44.5	-45.8	20.8	0.00e+00	0	43	0	499122176	61	3966
2026-01-28 07:11:13.69	54.94	26.92	-45.3	-46.6	20.0	0.00e+00	0	43	0	507510784	61	4387
2026-01-28 07:11:17.72	53.82	27.23	-46.0	-47.5	19.3	0.00e+00	0	43	0	514850816	63	4327
2026-01-28 07:11:21.75	52.67	27.53	-45.7	-47.1	19.6	0.00e+00	0	43	0	522190848	63	4139
2026-01-28 07:11:25.78	51.50	27.83	-45.7	-47.1	19.7	0.00e+00	0	43	0	529530880	63	4136
2026-01-28 07:11:29.81	50.31	28.11	-45.3	-46.6	20.1	0.00e+00	0	43	0	536870912	62	4130
2026-01-28 07:11:33.83	49.10	28.38	-45.9	-47.5	19.3	0.00e+00	0	43	0	544210944	62	4586
2026-01-28 07:11:37.86	47.87	28.63	-46.3	-47.9	18.9	0.00e+00	0	43	0	552599552	63	4524
2026-01-28 07:11:41.89	46.62	28.88	-45.6	-47.1	19.7	0.00e+00	0	43	0	559939584	63	4123
2026-01-28 07:11:45.92	45.35	29.11	-44.9	-46.2	20.5	0.00e+00	0	43	0	567279616	61	4169
2026-01-28 07:11:49.95	44.07	29.33	-45.5	-46.9	19.8	0.00e+00	0	43	0	574619648	61	4517
2026-01-28 07:11:53.99	42.76	29.53	-44.5	-45.6	21.0	0.00e+00	0	43	0	583008256	60	4139
2026-01-28 07:11:58.01	41.44	29.72	-45.2	-46.6	20.2	0.00e+00	0	43	0	590348288	61	4344
2026-01-28 07:12:02.04	40.11	29.89	-46.6	-48.3	18.6	0.00e+00	0	43	0	597688320	63	4742
2026-01-28 07:12:06.08	38.75	30.05	-47.4	-49.5	17.4	0.00e+00	0	43	0	605028352	65	4816
2026-01-28 07:12:10.10	37.40	30.18	-47.0	-48.8	18.0	0.00e+00	0	43	0	612368384	65	4491
2026-01-28 07:12:14.13	36.03	30.30	-46.0	-47.6	19.2	0.00e+00	0	43	0	620756992	64	4101
2026-01-28 07:12:18.15	34.65	30.40	-46.2	-47.8	19.1	0.00e+00	0	43	0	628097024	63	4455
2026-01-28 07:12:22.17	33.26	30.49	-46.6	-48.4	18.3	0.00e+00	0	43	0	635437056	64	4495
2026-01-28 07:12:26.20	31.87	30.55	-47.1	-49.1	17.7	0.00e+00	0	43	0	642777088	64	4925
2026-01-28 07:12:30.22	30.47	30.59	-45.9	-47.4	19.4	0.00e+00	0	43	0	650117120	63	4280
2026-01-28 07:12:34.25	29.07	30.62	-46.3	-47.9	19.0	0.00e+00	0	43	0	657457152	63	4528
2026-01-28 07:12:38.27	27.67	30.63	-47.3	-49.3	17.6	0.00e+00	0	43	0	665845760	65	4734
2026-01-28 07:12:42.30	26.26	30.61	-46.3	-47.9	18.9	0.00e+00	0	43	0	673185792	64	4268
2026-01-28 07:12:46.33	24.86	30.58	-46.2	-47.8	19.2	0.00e+00	0	43	0	680525824	63	4473
2026-01-28 07:12:50.36	23.47	30.53	-46.0	-47.6	19.3	0.00e+00	0	43	0	687865856	64	4104
2026-01-28 07:12:54.39	22.07	30.46	-46.2	-47.8	19.2	0.00e+00	0	43	0	696254464	63	4485
2026-01-28 07:12:58.42	20.69	30.37	-46.2	-47.7	19.1	0.00e+00	0	43	0	703594496	64	4190
2026-01-28 07:13:02.44	19.31	30.26	-46.2	-47.8	19.2	0.00e+00	0	43	0	710934528	63	4482
2026-01-28 07:13:06.47	17.95	30.14	-45.8	-47.3	19.5	0.00e+00	0	43	0	718274560	63	4199
2026-01-28 07:13:10.50	16.59	29.99	-45.7	-47.2	19.7	0.00e+00	0	43	0	725614592	62	4394
2026-01-28 07:13:14.53	15.25	29.83	-45.7	-47.1	19.8	0.00e+00	0	43	0	734003200	62	4372
2026-01-28 07:13:18.56	13.92	29.66	-46.5	-48.2	18.7	0.00e+00	0	43	0	741343232	64	4405
2026-01-28 07:13:22.59	12.61	29.46	-46.0	-47.5	19.5	0.00e+00	0	43	0	748683264	63	4316
2026-01-28 07:13:26.62	11.31	29.25	-45.9	-47.4	19.5	0.00e+00	0	43	0	756023296	63	4261
2026-01-28 07:13:30.65	10.03	29.03	-46.0	-47.6	19.4	0.00e+00	0	43	0	763363328	63	4346
2026-01-28 07:13:34.68	8.77	28.80	-46.4	-48.0	18.8	0.00e+00	0	43	0	771751936	64	4323
2026-01-28 07:13:38.71	7.53	28.55	-47.6	-49.7	17.3	0.00e+00	0	43	0	779091968	65	4960
2026-01-28 07:13:42.75	6.30	28.28	-48.3	-50.8	16.2	0.00e+00	0	43	0	786432000	67	5013
2026-01-28 07:13:46.77	5.11	28.01	-47.8	-50.1	16.9	0.00e+00	0	43	0	793772032	67	4608
2026-01-28 07:13:50.79	3.93	27.73	-46.4	-48.1	18.7	0.00e+00	0	43	0	801112064	64	4369
2026-01-28 07:13:54.82	2.77	27.43	-44.9	-46.1	20.6	0.00e+00	0	43	0	809500672	61	4129
2026-01-28 07:13:58.85	1.63	27.13	-45.1	-46.4	20.3	0.00e+00	0	43	0	816840704	61	4280
2026-01-28 07:14:02.89	0.51	26.81	-46.3	-48.0	18.9	0.00e+00	0	43	0	824180736	63	4566
2026-01-28 07:14:06.92	359.42	26.49	-45.9	-47.4	19.4	0.00e+00	0	43	0	831520768	63	4288
2026-01-28 07:14:10.94	358.35	26.16	-47.6	-49.7	17.3	0.00e+00	0	43	0	838860800	65	4974
2026-01-28 07:14:14.97	357.31	25.83	-46.7	-48.5	18.3	0.00e+00	0	43	0	847249408	65	4310
2026-01-28 07:14:19.01	356.28	25.48	-45.5	-46.9	19.9	0.00e+00	0	43	0	854589440	62	4258
2026-01-28 07:14:23.04	355.27	25.14	-44.5	-45.7	21.0	0.00e+00	0	43	0	861929472	61	3950
2026-01-28 07:14:27.08	354.29	24.78	-44.4	-45.7	21.0	0.00e+00	0	43	0	869269504	60	4158
2026-01-28 07:14:31.12	353.33	24.43	-44.4	-45.7	20.9	0.00e+00	0	43	0	876609536	60	4160
2026-01-28 07:14:35.15	352.39	24.07	-45.0	-46.3	20.3	0.00e+00	0	43	0	884998144	60	4455
2026-01-28 07:14:39.18	351.48	23.70	-44.8	-46.2	20.5	0.00e+00	0	43	0	892338176	60	4398
2026-01-28 07:14:43.22	350.58	23.34	-44.7	-46.0	20.7	0.00e+00	0	43	0	899678208	60	4305
2026-01-28 07:14:47.25	349.71	22.97	-44.3	-45.5	21.1	0.00e+00	0	43	0	907018240	60	4072
2026-01-28 07:14:51.28	348.86	22.60	-43.5	-44.6	22.1	0.00e+00	0	43	0	915406848	58	4133
2026-01-28 07:14:55.32	348.02	22.23	-44.5	-45.8	21.2	0.00e+00	0	43	0	922746880	59	4465
2026-01-28 07:14:59.35	347.21	21.86	-44.3	-45.5	21.2	0.00e+00	0	43	0	930086912	59	4326
2026-01-28 07:15:03.38	346.42	21.48	-44.5	-45.7	21.2	0.00e+00	0	43	0	937426944	59	4410
2026-01-28 07:15:07.41	345.64	21.11	-44.8	-46.1	20.6	0.00e+00	0	43	0	944766976	60	4344
2026-01-28 07:15:11.44	344.89	20.74	-44.8	-46.1	20.6	0.00e+00	0	43	0	953155584	60	4369
2026-01-28 07:15:15.47	344.15	20.37	-44.1	-45.3	21.6	0.00e+00	0	43	0	960495616	59	4195
2026-01-28 07:15:19.51	343.43	19.99	-44.5	-45.7	20.8	0.00e+00	0	43	0	967835648	60	4173
2026-01-28 07:15:23.53	342.74	19.62	-45.1	-46.4	20.3	0.00e+00	0	43	0	975175680	61	4269
2026-01-28 07:15:27.57	342.05	19.25	-44.2	-45.3	21.2	0.00e+00	0	43	0	983564288	60	4000
2026-01-28 07:15:31.60	341.38	18.88	-44.3	-45.5	21.3	0.00e+00	0	43	0	990904320	59	4327
2026-01-28 07:15:35.63	340.73	18.52	-45.1	-46.5	20.2	0.00e+00	0	43	0	998244352	60	4561
2026-01-28 07:15:39.66	340.10	18.15	-45.8	-47.3	19.4	0.00e+00	0	43	0	1005584384	62	4448
2026-01-28 07:15:43.69	339.48	17.79	-45.1	-46.5	20.1	0.00e+00	0	43	0	1012924416	62	4071
2026-01-28 07:15:47.72	338.87	17.43	-45.7	-47.2	19.5	0.00e+00	0	43	0	1020264448	62	4432
2026-01-28 07:15:51.75	338.28	17.07	-46.3	-48.0	18.7	0.00e+00	0	43	0	1028653056	63	4565
2026-01-28 07:15:55.79	337.71	16.71	-45.6	-47.1	19.5	0.00e+00	0	43	0	1035993088	62	4349
2026-01-28 07:15:59.82	337.14	16.35	-44.8	-46.1	20.4	0.00e+00	0	43	0	1043333120	61	4118
2026-01-28 07:16:03.85	336.59	16.00	-44.9	-46.2	20.3	0.00e+00	0	43	0	1050673152	61	4193
2026-01-28 07:16:07.88	336.06	15.65	-45.4	-46.9	19.7	0.00e+00	0	43	0	1059061760	61	4495
2026-01-28 07:16:11.91	335.54	15.30	-45.1	-46.4	20.0	0.00e+00	0	43	0	1066401792	61	4291
2026-01-28 07:16:15.93	335.03	14.96	-45.0	-46.4	20.0	0.00e+00	0	43	0	1073741824	61	4268
2026-01-28 07:16:19.97	334.53	14.61	-46.2	-47.8	18.7	0.00e+00	0	43	0	1081081856	63	4490
2026-01-28 07:16:24.00	334.04	14.27	-47.1	-49.0	17.5	0.00e+00	0	43	0	1088421888	64	4851
2026-01-28 07:16:28.03	333.56	13.94	-45.7	-47.2	19.2	0.00e+00	0	43	0	1096810496	63	4188
2026-01-28 07:16:32.06	333.10	13.60	-44.9	-46.2	20.1	0.00e+00	0	43	0	1104150528	61	4191
2026-01-28 07:16:36.09	332.65	13.27	-45.4	-46.9	19.5	0.00e+00	0	43	0	1111490560	61	4526
2026-01-28 07:16:40.13	332.20	12.94	-46.8	-48.7	17.8	0.00e+00	0	43	0	1118830592	64	4674
2026-01-28 07:16:44.16	331.77	12.61	-46.9	-48.9	17.6	0.00e+00	0	43	0	1126170624	65	4500
2026-01-28 07:16:48.19	331.34	12.29	-46.9	-48.9	17.5	0.00e+00	0	43	0	1134559232	65	4517
2026-01-28 07:16:52.21	330.93	11.97	-46.8	-48.6	17.8	0.00e+00	0	43	0	1141899264	65	4386
2026-01-28 07:16:56.25	330.52	11.65	-46.7	-48.6	17.9	0.00e+00	0	43	0	1149239296	65	4352
2026-01-28 07:17:00.28	330.13	11.33	-47.2	-49.2	17.2	0.00e+00	0	43	0	1156579328	65	4675
2026-01-28 07:17:04.31	329.74	11.02	-47.3	-49.4	17.0	0.00e+00	0	43	0	1163919360	65	4806
2026-01-28 07:17:08.34	329.36	10.71	-46.7	-48.6	17.8	0.00e+00	0	43	0	1172307968	65	4344
2026-01-28 07:17:12.37	328.99	10.40	-46.1	-47.7	18.6	0.00e+00	0	43	0	1179648000	63	4425
2026-01-28 07:17:16.41	328.63	10.09	-45.8	-47.4	19.0	0.00e+00	0	43	0	1186988032	63	4247
2026-01-28 07:17:20.44	328.27	9.79	-46.4	-48.1	18.2	0.00e+00	0	43	0	1194328064	63	4631
2026-01-28 07:17:24.47	327.92	9.49	-47.1	-49.2	17.1	0.00e+00	0	43	0	1202716672	64	4928
2026-01-28 07:17:28.50	327.58	9.19	-47.8	-50.2	16.0	0.00e+00	0	43	0	1210056704	66	4965
2026-01-28 07:17:32.53	327.25	8.90	-47.9	-50.4	15.8	0.00e+00	0	43	0	1217396736	66	5083
2026-01-28 07:17:36.56	326.92	8.61	-47.9	-50.4	15.8	0.00e+00	0	43	0	1224736768	66	5079
2026-01-28 07:17:40.59	326.61	8.32	-47.8	-50.2	16.0	0.00e+00	0	43	0	1232076800	66	4958
2026-01-28 07:17:44.62	326.29	8.03	-47.6	-50.0	16.2	0.00e+00	0	43	0	1239416832	66	4835
2026-01-28 07:17:48.65	325.99	7.74	-47.3	-49.4	16.7	0.00e+00	0	43	0	1247805440	66	4535
2026-01-28 07:17:52.68	325.69	7.46	-47.1	-49.2	16.9	0.00e+00	0	43	0	1255145472	66	4395
2026-01-28 07:17:56.72	325.39	7.18	-47.2	-49.4	16.5	0.00e+00	0	43	0	1262485504	65	4809
2026-01-28 07:18:00.75	325.10	6.90	-47.6	-50.1	15.9	0.00e+00	0	43	0	1269825536	65	5171
2026-01-28 07:18:04.78	324.82	6.63	-48.1	-50.8	15.2	0.00e+00	0	43	0	1278214144	66	5283
2026-01-28 07:18:08.81	324.54	6.35	-48.3	-51.1	14.7	7.00e-07	0	43	0	1285554176	67	5201
2026-01-28 07:18:12.85	324.27	6.08	-48.3	-51.2	14.6	7.00e-07	0	43	0	1292894208	67	5258
2026-01-28 07:18:16.89	324.00	5.81	-48.2	-51.0	14.8	0.00e+00	0	43	0	1300234240	67	5149
2026-01-28 07:18:20.92	323.74	5.54	-48.3	-51.2	14.6	0.00e+00	0	43	0	1307574272	67	5230
2026-01-28 07:18:24.95	323.49	5.28	-48.4	-51.4	14.3	1.50e-06	0	43	0	1315962880	67	5380
2026-01-28 07:18:28.98	323.24	5.01	-48.4	-51.5	14.2	2.20e-06	0	43	0	1323302912	67	5432
2026-01-28 07:18:33.01	322.99	4.75	-52.9	-67.8	3.8	1.49e+00	0	43	104	1324351488	76	21144
2026-01-28 07:18:37.05	322.75	4.49	-53.0	-67.9	3.8	1.49e+00	0	43	104	1324351488	76	21406
2026-01-28 07:18:41.08	322.51	4.24	-53.0	-67.9	3.8	1.49e+00	0	43	104	1324351488	76	21432
2026-01-28 07:18:45.11	322.28	3.98	-53.2	-68.1	3.8	1.49e+00	0	43	104	1324351488	76	21995
2026-01-28 07:18:49.15	322.05	3.73	-53.3	-68.2	3.8	1.49e+00	0	43	104	1324351488	77	20924
2026-01-28 07:18:53.18	321.82	3.48	-53.2	-68.1	3.8	1.49e+00	0	43	104	1324351488	77	20701
2026-01-28 07:18:57.21	321.60	3.23	-53.1	-68.1	3.8	1.49e+00	0	43	104	1324351488	77	20634
2026-01-28 07:19:01.23	321.39	2.98	-53.1	-68.1	3.8	1.49e+00	0	43	104	1324351488	77	20576
2026-01-28 07:19:05.27	321.17	2.74	-53.1	-68.0	3.8	1.49e+00	0	43	104	1324351488	77	20498
2026-01-28 07:19:09.31	320.96	2.49	-53.1	-68.0	3.8	1.49e+00	0	43	104	1324351488	77	20455
2026-01-28 07:19:13.34	320.76	2.25	-53.1	-68.0	3.8	1.49e+00	0	43	104	1324351488	77	20484
2026-01-28 07:19:17.37	320.56	2.01	-53.0	-68.0	3.8	1.49e+00	0	43	104	1324351488	77	20497

#Closed at: 2026-01-28 07:19:17
#Recorded file [1324 MB]: D:/lorett/data/31041_260128_100559.dat