passes_logs/2026/01/28/R3.2S_Murmansk/R3.2S_Murmansk__20260128_030458_FENGYUN_3D_rec.log

#Pass ID: 20260128_030458_FENGYUN 3D
#Satellite: FENGYUN 3D
#Configuration: FENGYUN 3D
#almurnet v.1.7.20251203
#Start time: 2026-01-28 03:04:58

#Version: 2.2.20231116
#Station: R3.2S_Murmansk
#Location: 33.079688 lon 68.888172 lat
#TLE: 1 43010U 17072A   26027.26653803  .00000472  00000+0  24513-3 0  9995
#TLE: 2 43010  98.9961 359.2743 0002530  88.0161 272.1305 14.19701760424993

#Time	Az	El	Level	Level2	SNR	BER	BlckErr	Temp	State	Recorded	gain1	gain2
2026-01-28 03:04:58.03	26.27	1.98	-52.9	-64.8	3.8	8.46e-01	0	41	0	0	77	14122
2026-01-28 03:05:02.05	26.26	2.24	-52.0	-63.9	3.8	8.46e-01	0	41	104	0	74	15053
2026-01-28 03:05:06.08	26.25	2.50	-52.0	-63.8	3.8	8.46e-01	0	42	104	0	74	14981
2026-01-28 03:05:10.12	26.23	2.76	-52.0	-63.8	3.8	8.46e-01	0	41	104	0	74	14958
2026-01-28 03:05:14.15	26.22	3.03	-51.9	-63.7	3.8	8.47e-01	0	41	104	0	74	14864
2026-01-28 03:05:18.18	26.20	3.30	-51.9	-63.0	3.8	8.46e-01	0	42	104	0	74	13726
2026-01-28 03:05:22.21	26.19	3.57	-51.8	-61.9	3.8	8.45e-01	0	42	104	0	74	12026
2026-01-28 03:05:26.24	26.17	3.84	-51.2	-58.4	4.9	7.93e-01	0	42	0	0	74	8026
2026-01-28 03:05:30.27	26.15	4.12	-48.9	-52.0	10.7	6.68e-03	0	42	0	18874368	69	5130
2026-01-28 03:05:34.31	26.14	4.40	-46.5	-48.4	14.4	1.10e-06	0	42	0	40894464	64	4502
2026-01-28 03:05:38.35	26.12	4.68	-46.0	-47.7	15.2	0.00e+00	0	42	0	63963136	63	4405
2026-01-28 03:05:42.38	26.10	4.96	-47.4	-49.6	13.1	1.60e-05	0	42	0	87031808	65	4898
2026-01-28 03:05:46.42	26.08	5.25	-50.6	-56.2	4.6	8.47e-01	0	42	104	99614720	73	6590
2026-01-28 03:05:50.45	26.06	5.54	-43.6	-44.7	18.7	0.00e+00	0	42	0	118489088	58	4161
2026-01-28 03:05:54.48	26.03	5.84	-43.6	-44.8	18.7	0.00e+00	0	42	0	140509184	58	4198
2026-01-28 03:05:58.52	26.01	6.14	-43.6	-44.7	18.8	0.00e+00	0	42	0	163577856	58	4191
2026-01-28 03:06:02.55	25.99	6.44	-43.2	-44.3	19.3	0.00e+00	0	42	0	186646528	58	3981
2026-01-28 03:06:06.58	25.96	6.74	-43.4	-44.5	19.1	0.00e+00	0	42	0	208666624	58	4052
2026-01-28 03:06:10.62	25.94	7.05	-43.0	-44.0	19.6	0.00e+00	0	42	0	231735296	57	4095
2026-01-28 03:06:14.66	25.91	7.37	-43.3	-44.3	19.3	0.00e+00	0	43	0	254803968	57	4221
2026-01-28 03:06:18.69	25.89	7.68	-42.6	-43.6	20.1	0.00e+00	0	42	0	276824064	57	3874
2026-01-28 03:06:22.73	25.86	8.00	-42.6	-43.6	20.1	0.00e+00	0	42	0	299892736	57	3886
2026-01-28 03:06:26.76	25.83	8.33	-42.4	-43.4	20.3	0.00e+00	0	43	0	322961408	56	4019
2026-01-28 03:06:30.80	25.80	8.66	-42.3	-43.2	20.5	0.00e+00	0	43	0	344981504	56	3945
2026-01-28 03:06:34.83	25.77	8.99	-42.1	-43.0	20.7	0.00e+00	0	43	0	368050176	56	3866
2026-01-28 03:06:38.87	25.74	9.33	-42.0	-43.0	20.9	0.00e+00	0	43	0	391118848	56	3828
2026-01-28 03:06:42.89	25.70	9.67	-41.8	-42.7	21.0	0.00e+00	0	43	0	413138944	55	3943
2026-01-28 03:06:46.93	25.67	10.01	-41.7	-42.6	21.2	0.00e+00	0	43	0	436207616	55	3895
2026-01-28 03:06:50.97	25.63	10.37	-41.5	-42.4	21.4	0.00e+00	0	43	0	459276288	55	3810
2026-01-28 03:06:54.99	25.60	10.72	-41.5	-42.3	21.4	0.00e+00	0	43	0	481296384	54	4001
2026-01-28 03:06:59.02	25.56	11.08	-41.6	-42.4	21.4	0.00e+00	0	43	0	503316480	54	4050
2026-01-28 03:07:03.05	25.52	11.45	-41.5	-42.4	21.5	0.00e+00	0	43	0	526385152	54	4010
2026-01-28 03:07:07.09	25.48	11.83	-41.4	-42.3	21.6	0.00e+00	0	43	0	549453824	54	3963
2026-01-28 03:07:11.12	25.43	12.20	-41.4	-42.2	21.6	0.00e+00	0	43	0	571473920	54	3951
2026-01-28 03:07:15.15	25.39	12.59	-41.5	-42.4	21.5	0.00e+00	0	43	0	594542592	54	4034
2026-01-28 03:07:19.18	25.34	12.98	-41.4	-42.3	21.6	0.00e+00	0	43	0	617611264	54	3970
2026-01-28 03:07:23.22	25.30	13.38	-41.2	-42.1	21.9	0.00e+00	0	43	0	639631360	54	3875
2026-01-28 03:07:27.26	25.25	13.78	-41.0	-41.9	22.1	0.00e+00	0	43	0	662700032	53	4009
2026-01-28 03:07:31.30	25.19	14.19	-40.9	-41.7	22.2	0.00e+00	0	43	0	685768704	53	3950
2026-01-28 03:07:35.33	25.14	14.61	-40.8	-41.6	22.3	0.00e+00	0	43	0	707788800	53	3886
2026-01-28 03:07:39.37	25.09	15.04	-40.4	-41.2	22.8	0.00e+00	0	43	0	730857472	52	3924
2026-01-28 03:07:43.40	25.03	15.47	-40.2	-41.0	22.9	0.00e+00	0	43	0	753926144	52	3862
2026-01-28 03:07:47.43	24.97	15.91	-40.2	-41.0	23.0	0.00e+00	0	43	0	775946240	52	3832
2026-01-28 03:07:51.47	24.91	16.36	-40.1	-40.9	23.1	0.00e+00	0	43	0	799014912	52	3788
2026-01-28 03:07:55.50	24.84	16.81	-40.0	-40.8	23.2	0.00e+00	0	43	0	822083584	51	3987
2026-01-28 03:07:59.53	24.78	17.28	-39.9	-40.7	23.4	0.00e+00	0	43	0	844103680	51	3914
2026-01-28 03:08:03.55	24.71	17.75	-39.7	-40.5	23.6	0.00e+00	0	43	0	867172352	51	3842
2026-01-28 03:08:07.58	24.63	18.23	-39.4	-40.1	23.9	0.00e+00	0	43	0	889192448	50	3908
2026-01-28 03:08:11.61	24.56	18.73	-39.2	-40.0	24.0	0.00e+00	0	43	0	912261120	50	3832
2026-01-28 03:08:15.64	24.48	19.23	-39.1	-39.8	24.2	0.00e+00	0	43	0	935329792	50	3754
2026-01-28 03:08:19.67	24.40	19.74	-39.1	-39.8	24.2	0.00e+00	0	43	0	957349888	50	3776
2026-01-28 03:08:23.71	24.31	20.27	-39.2	-39.9	24.1	0.00e+00	0	43	0	980418560	50	3798
2026-01-28 03:08:27.75	24.23	20.81	-39.3	-40.1	24.0	0.00e+00	0	43	0	1003487232	50	3869
2026-01-28 03:08:31.78	24.13	21.35	-39.4	-40.1	24.0	0.00e+00	0	43	0	1025507328	50	3903
2026-01-28 03:08:35.81	24.04	21.91	-39.3	-40.1	24.0	0.00e+00	0	43	0	1048576000	50	3876
2026-01-28 03:08:39.85	23.94	22.48	-39.3	-40.0	24.1	0.00e+00	0	43	0	1071644672	50	3856
2026-01-28 03:08:43.87	23.83	23.07	-39.2	-40.0	24.1	0.00e+00	0	43	0	1093664768	50	3826
2026-01-28 03:08:47.91	23.72	23.67	-38.9	-39.6	24.4	0.00e+00	0	43	0	1116733440	49	3903
2026-01-28 03:08:51.94	23.61	24.28	-38.8	-39.5	24.6	0.00e+00	0	43	0	1139802112	49	3837
2026-01-28 03:08:55.97	23.49	24.90	-38.8	-39.5	24.6	0.00e+00	0	43	0	1161822208	49	3845
2026-01-28 03:09:00.00	23.36	25.55	-38.6	-39.3	24.8	0.00e+00	0	43	0	1184890880	49	3753
2026-01-28 03:09:04.03	23.23	26.20	-38.4	-39.1	24.9	0.00e+00	0	43	0	1207959552	48	3898
2026-01-28 03:09:08.07	23.10	26.88	-38.2	-38.9	25.1	0.00e+00	0	43	0	1229979648	48	3819
2026-01-28 03:09:12.11	22.95	27.57	-38.1	-38.8	25.3	0.00e+00	0	43	0	1251999744	48	3756
2026-01-28 03:09:16.15	22.80	28.28	-38.2	-38.9	25.2	0.00e+00	0	43	0	1275068416	48	3805
2026-01-28 03:09:20.18	22.64	29.01	-38.3	-39.0	25.1	0.00e+00	0	43	0	1298137088	48	3841
2026-01-28 03:09:24.21	22.47	29.75	-38.4	-39.1	25.0	0.00e+00	0	43	0	1320157184	48	3900
2026-01-28 03:09:28.24	22.30	30.52	-38.3	-39.0	25.1	0.00e+00	0	43	0	1343225856	48	3853
2026-01-28 03:09:32.28	22.11	31.30	-38.1	-38.8	25.3	0.00e+00	0	43	0	1366294528	48	3773
2026-01-28 03:09:36.31	21.92	32.11	-37.6	-38.3	25.3	0.00e+00	0	43	0	1388314624	47	3763
2026-01-28 03:09:40.35	21.71	32.94	-37.7	-38.4	25.2	0.00e+00	0	43	0	1411383296	47	3821
2026-01-28 03:09:44.38	21.49	33.80	-37.8	-38.6	25.1	0.00e+00	0	43	0	1434451968	47	3876
2026-01-28 03:09:48.42	21.26	34.67	-37.6	-38.3	25.4	0.00e+00	0	43	0	1456472064	47	3756
2026-01-28 03:09:52.45	21.02	35.57	-37.1	-37.8	25.8	0.00e+00	0	43	0	1479540736	46	3751
2026-01-28 03:09:56.49	20.76	36.50	-37.5	-38.2	25.4	0.00e+00	0	43	0	1502609408	46	3935
2026-01-28 03:10:00.52	20.48	37.46	-37.6	-38.3	25.3	0.00e+00	0	43	0	1524629504	46	4002
2026-01-28 03:10:04.56	20.19	38.44	-37.5	-38.2	25.4	0.00e+00	0	43	0	1547698176	46	3945
2026-01-28 03:10:08.60	19.87	39.45	-37.2	-37.8	25.8	0.00e+00	0	43	0	1570766848	46	3769
2026-01-28 03:10:12.63	19.54	40.49	-37.8	-38.5	25.3	0.00e+00	0	43	0	1592786944	46	4062
2026-01-28 03:10:16.65	19.18	41.55	-37.9	-38.6	25.2	0.00e+00	0	43	0	1615855616	46	4127
2026-01-28 03:10:20.68	18.80	42.65	-38.1	-38.8	25.0	0.00e+00	0	43	0	1637875712	46	4222
2026-01-28 03:10:24.71	18.38	43.78	-37.9	-38.6	25.2	0.00e+00	0	43	0	1660944384	46	4142
2026-01-28 03:10:28.75	17.94	44.95	-38.4	-39.2	24.7	0.00e+00	0	43	0	1684013056	47	4149
2026-01-28 03:10:32.78	17.46	46.14	-38.6	-39.3	24.6	0.00e+00	0	43	0	1706033152	47	4228
2026-01-28 03:10:36.81	16.94	47.37	-37.7	-38.4	25.4	0.00e+00	0	43	0	1729101824	47	3801
2026-01-28 03:10:40.85	16.37	48.63	-38.1	-38.8	25.0	0.00e+00	0	43	0	1752170496	47	3998
2026-01-28 03:10:44.88	15.76	49.93	-38.3	-39.0	24.9	0.00e+00	0	43	0	1774190592	47	4084
2026-01-28 03:10:48.91	15.08	51.26	-39.0	-39.7	24.8	0.00e+00	0	43	0	1797259264	48	4174
2026-01-28 03:10:52.95	14.35	52.63	-39.9	-40.6	24.0	0.00e+00	0	43	0	1820327936	50	4144
2026-01-28 03:10:56.99	13.53	54.03	-39.4	-40.1	24.5	0.00e+00	0	43	0	1842348032	50	3902
2026-01-28 03:11:01.02	12.64	55.46	-39.9	-40.7	24.0	0.00e+00	0	43	0	1865416704	50	4155
2026-01-28 03:11:05.05	11.64	56.92	-39.0	-39.8	24.8	0.00e+00	0	43	0	1888485376	50	3738
2026-01-28 03:11:09.09	10.53	58.41	-38.7	-39.4	25.1	0.00e+00	0	43	0	1910505472	48	4023
2026-01-28 03:11:13.12	9.28	59.93	-38.8	-39.5	25.0	0.00e+00	0	43	0	1933574144	48	4088
2026-01-28 03:11:17.15	7.88	61.47	-38.2	-38.9	25.6	0.00e+00	0	43	0	1956642816	48	3783
2026-01-28 03:11:21.17	6.29	63.03	-37.5	-38.2	25.7	0.00e+00	0	43	0	1978662912	46	3917
2026-01-28 03:11:25.21	4.47	64.61	-38.1	-38.8	25.2	0.00e+00	0	43	0	2000683008	47	3994
2026-01-28 03:11:29.24	2.37	66.19	-37.6	-38.3	25.6	0.00e+00	0	43	0	2023751680	47	3774
2026-01-28 03:11:33.28	359.94	67.77	-37.8	-38.5	25.5	0.00e+00	0	43	0	2046820352	47	3828
2026-01-28 03:11:37.31	357.11	69.33	-37.3	-38.0	25.9	0.00e+00	0	43	0	2068840448	46	3839
2026-01-28 03:11:41.34	353.78	70.86	-36.7	-37.4	26.4	0.00e+00	0	43	0	2091909120	45	3810
2026-01-28 03:11:45.37	349.84	72.34	-37.0	-37.7	26.2	0.00e+00	0	43	0	2114977792	44	4147
2026-01-28 03:11:49.41	345.14	73.75	-36.9	-37.6	26.3	0.00e+00	0	43	0	2136997888	44	4111
2026-01-28 03:11:53.44	339.55	75.05	-36.7	-37.4	26.5	0.00e+00	0	43	0	2160066560	44	4014
2026-01-28 03:11:57.47	332.92	76.20	-36.3	-37.0	26.8	0.00e+00	0	43	0	2183135232	44	3834
2026-01-28 03:12:01.50	325.17	77.14	-35.7	-36.4	27.2	0.00e+00	0	43	0	2205155328	43	3797
2026-01-28 03:12:05.54	316.33	77.82	-35.6	-36.2	27.3	0.00e+00	0	43	0	2228224000	43	3723
2026-01-28 03:12:09.56	306.71	78.19	-35.6	-36.3	27.2	0.00e+00	0	43	0	2251292672	42	3973
2026-01-28 03:12:13.59	296.72	78.22	-35.2	-35.9	27.6	0.00e+00	0	43	0	2273312768	42	3800
2026-01-28 03:12:17.63	286.96	77.90	-35.5	-36.2	27.4	0.00e+00	0	43	0	2296381440	42	3915
2026-01-28 03:12:21.67	277.96	77.26	-35.8	-36.5	27.1	0.00e+00	0	43	0	2319450112	42	4079
2026-01-28 03:12:25.69	270.05	76.36	-36.1	-36.8	26.8	0.00e+00	0	43	0	2341470208	42	4233
2026-01-28 03:12:29.73	263.22	75.24	-36.2	-36.9	26.8	0.00e+00	0	43	0	2364538880	43	4027
2026-01-28 03:12:33.77	257.46	73.96	-36.8	-37.5	26.4	0.00e+00	0	43	0	2386558976	44	4096
2026-01-28 03:12:37.81	252.63	72.57	-37.0	-37.7	26.3	0.00e+00	0	43	0	2409627648	44	4148
2026-01-28 03:12:41.84	248.57	71.09	-36.9	-37.6	26.3	0.00e+00	0	43	0	2432696320	44	4103
2026-01-28 03:12:45.87	245.15	69.56	-37.3	-38.0	25.9	0.00e+00	0	43	0	2454716416	45	4085
2026-01-28 03:12:49.91	242.24	68.00	-37.6	-38.3	25.7	0.00e+00	0	43	0	2477785088	46	3970
2026-01-28 03:12:53.94	239.75	66.42	-37.6	-38.3	25.7	0.00e+00	0	43	0	2500853760	47	3762
2026-01-28 03:12:57.97	237.61	64.84	-37.9	-38.6	25.5	0.00e+00	0	43	0	2522873856	46	4130
2026-01-28 03:13:02.00	235.75	63.26	-37.6	-38.3	25.8	0.00e+00	0	43	0	2545942528	46	3983
2026-01-28 03:13:06.03	234.13	61.70	-37.8	-38.5	25.5	0.00e+00	0	43	0	2567962624	46	4078
2026-01-28 03:13:10.07	232.69	60.15	-37.9	-38.6	25.5	0.00e+00	0	43	0	2591031296	46	4116
2026-01-28 03:13:14.10	231.42	58.62	-38.6	-39.4	24.8	0.00e+00	0	43	0	2614099968	47	4249
2026-01-28 03:13:18.13	230.29	57.12	-39.2	-39.9	24.8	0.00e+00	0	43	0	2637168640	48	4263
2026-01-28 03:13:22.18	229.27	55.65	-39.8	-40.5	24.2	0.00e+00	0	43	0	2659188736	50	4073
2026-01-28 03:13:26.21	228.36	54.21	-39.4	-40.1	24.6	0.00e+00	0	43	0	2682257408	50	3900
2026-01-28 03:13:30.24	227.54	52.80	-38.7	-39.4	25.2	0.00e+00	0	43	0	2705326080	49	3810
2026-01-28 03:13:34.27	226.79	51.43	-38.7	-39.4	25.2	0.00e+00	0	43	0	2727346176	49	3784
2026-01-28 03:13:38.30	226.11	50.09	-38.8	-39.5	25.0	0.00e+00	0	43	0	2749366272	48	4087
2026-01-28 03:13:42.33	225.48	48.79	-38.7	-39.4	25.1	0.00e+00	0	43	0	2772434944	48	4026
2026-01-28 03:13:46.36	224.91	47.52	-38.7	-39.4	25.1	0.00e+00	0	43	0	2795503616	48	4030
2026-01-28 03:13:50.39	224.38	46.28	-38.2	-38.9	25.5	0.00e+00	0	43	0	2817523712	48	3812
2026-01-28 03:13:54.42	223.90	45.08	-38.5	-39.2	25.3	0.00e+00	0	43	0	2840592384	48	3955
2026-01-28 03:13:58.46	223.44	43.91	-38.1	-38.8	25.6	0.00e+00	0	43	0	2863661056	48	3759
2026-01-28 03:14:02.49	223.02	42.77	-38.4	-39.1	25.3	0.00e+00	0	43	0	2885681152	48	3896
2026-01-28 03:14:06.53	222.63	41.66	-38.2	-38.9	25.5	0.00e+00	0	43	0	2908749824	48	3799
2026-01-28 03:14:10.56	222.27	40.58	-37.5	-38.2	25.5	0.00e+00	0	43	0	2931818496	46	3956
2026-01-28 03:14:14.59	221.93	39.54	-37.1	-37.8	25.9	0.00e+00	0	43	0	2953838592	46	3743
2026-01-28 03:14:18.63	221.61	38.52	-37.3	-38.0	25.7	0.00e+00	0	43	0	2976907264	46	3863
2026-01-28 03:14:22.67	221.31	37.53	-37.4	-38.1	25.7	0.00e+00	0	43	0	2999975936	46	3872
2026-01-28 03:14:26.70	221.04	36.57	-37.6	-38.2	25.5	0.00e+00	0	43	0	3021996032	46	3958
2026-01-28 03:14:30.73	220.77	35.64	-37.7	-38.4	25.4	0.00e+00	0	43	0	3045064704	46	4011
2026-01-28 03:14:34.77	220.52	34.73	-37.8	-38.5	25.2	0.00e+00	0	43	0	3068133376	46	4093
2026-01-28 03:14:38.80	220.29	33.85	-38.0	-38.7	25.0	0.00e+00	0	43	0	3090153472	46	4161
2026-01-28 03:14:42.84	220.07	32.99	-38.0	-38.7	25.0	0.00e+00	0	43	0	3113222144	46	4167
2026-01-28 03:14:46.87	219.86	32.16	-38.0	-38.7	25.0	0.00e+00	0	43	0	3135242240	46	4188
2026-01-28 03:14:50.90	219.66	31.34	-38.1	-38.8	24.9	0.00e+00	0	43	0	3158310912	46	4238
2026-01-28 03:14:54.94	219.47	30.55	-38.1	-38.8	24.9	0.00e+00	0	43	0	3181379584	46	4235
2026-01-28 03:14:58.97	219.29	29.78	-37.9	-38.7	25.0	0.00e+00	0	43	0	3203399680	46	4153
2026-01-28 03:15:03.00	219.12	29.03	-37.7	-38.4	25.2	0.00e+00	0	43	0	3226468352	46	4031
2026-01-28 03:15:07.04	218.96	28.30	-37.6	-38.3	25.3	0.00e+00	0	43	0	3249537024	46	3981
2026-01-28 03:15:11.07	218.81	27.59	-37.7	-38.4	25.2	0.00e+00	0	43	0	3271557120	46	4019
2026-01-28 03:15:15.11	218.66	26.89	-37.9	-38.7	24.9	0.00e+00	0	43	0	3294625792	46	4159
2026-01-28 03:15:19.14	218.52	26.21	-38.1	-38.8	24.8	0.00e+00	0	43	0	3317694464	46	4232
2026-01-28 03:15:23.17	218.39	25.55	-38.0	-38.8	24.8	0.00e+00	0	43	0	3339714560	46	4205
2026-01-28 03:15:27.21	218.26	24.91	-38.2	-38.9	24.7	0.00e+00	0	43	0	3362783232	47	4030
2026-01-28 03:15:31.24	218.14	24.28	-38.1	-38.9	24.7	0.00e+00	0	43	0	3385851904	47	4009
2026-01-28 03:15:35.27	218.02	23.66	-38.5	-39.2	24.4	0.00e+00	0	43	0	3407872000	47	4180
2026-01-28 03:15:39.30	217.91	23.06	-38.6	-39.4	24.2	0.00e+00	0	43	0	3430940672	47	4269
2026-01-28 03:15:43.33	217.81	22.47	-39.1	-39.9	24.3	0.00e+00	0	43	0	3454009344	48	4250
2026-01-28 03:15:47.37	217.70	21.90	-39.2	-40.0	24.2	0.00e+00	0	43	0	3476029440	49	4064
2026-01-28 03:15:51.40	217.60	21.33	-39.3	-40.0	24.1	0.00e+00	0	43	0	3498049536	49	4081
2026-01-28 03:15:55.43	217.51	20.78	-39.4	-40.2	24.0	0.00e+00	0	43	0	3521118208	49	4154
2026-01-28 03:15:59.46	217.42	20.25	-39.2	-40.0	24.2	0.00e+00	0	43	0	3544186880	49	4059
2026-01-28 03:16:03.49	217.33	19.72	-39.3	-40.0	24.1	0.00e+00	0	43	0	3566206976	49	4080
2026-01-28 03:16:07.53	217.25	19.20	-39.3	-40.1	24.0	0.00e+00	0	43	0	3589275648	49	4106
2026-01-28 03:16:11.57	217.17	18.70	-39.4	-40.1	24.0	0.00e+00	0	43	0	3612344320	49	4120
2026-01-28 03:16:15.60	217.09	18.20	-39.4	-40.2	23.9	0.00e+00	0	43	0	3634364416	49	4152
2026-01-28 03:16:19.64	217.02	17.71	-39.5	-40.3	23.8	0.00e+00	0	43	0	3657433088	49	4196
2026-01-28 03:16:23.66	216.95	17.24	-39.6	-40.3	23.7	0.00e+00	0	43	0	3680501760	50	4002
2026-01-28 03:16:27.69	216.88	16.77	-39.9	-40.6	23.4	0.00e+00	0	43	0	3702521856	50	4136
2026-01-28 03:16:31.73	216.81	16.31	-40.1	-40.9	23.2	0.00e+00	0	43	0	3725590528	50	4248
2026-01-28 03:16:35.76	216.75	15.86	-40.3	-41.1	23.0	0.00e+00	0	43	0	3748659200	51	4115
2026-01-28 03:16:39.79	216.68	15.42	-40.5	-41.3	22.8	0.00e+00	0	43	0	3770679296	51	4207
2026-01-28 03:16:43.81	216.62	14.99	-40.6	-41.4	22.6	0.00e+00	0	43	0	3793747968	51	4280
2026-01-28 03:16:47.84	216.57	14.56	-40.7	-41.5	22.4	0.00e+00	0	43	0	3816816640	52	4085
2026-01-28 03:16:51.88	216.51	14.14	-40.7	-41.6	22.4	0.00e+00	0	43	0	3838836736	52	4101
2026-01-28 03:16:55.91	216.46	13.73	-40.9	-41.7	22.2	0.00e+00	0	43	0	3860856832	52	4167
2026-01-28 03:16:59.94	216.40	13.32	-40.9	-41.7	22.2	0.00e+00	0	43	0	3883925504	52	4192
2026-01-28 03:17:03.97	216.35	12.92	-41.0	-41.8	22.1	0.00e+00	0	43	0	3906994176	52	4221
2026-01-28 03:17:08.01	216.31	12.53	-41.1	-41.9	22.0	0.00e+00	0	43	0	3929014272	52	4270
2026-01-28 03:17:12.05	216.26	12.14	-41.2	-42.0	21.9	0.00e+00	0	43	0	3952082944	52	4319
2026-01-28 03:17:16.08	216.21	11.76	-41.3	-42.2	21.6	0.00e+00	0	43	0	3975151616	53	4169
2026-01-28 03:17:20.12	216.17	11.39	-41.4	-42.2	21.6	0.00e+00	0	43	0	3997171712	53	4172
2026-01-28 03:17:24.15	216.13	11.02	-41.6	-42.4	21.4	0.00e+00	0	43	0	4020240384	53	4282
2026-01-28 03:17:28.18	216.09	10.66	-41.6	-42.5	21.3	0.00e+00	0	43	0	4043309056	53	4309
2026-01-28 03:17:32.22	216.05	10.30	-41.7	-42.6	21.2	0.00e+00	0	43	0	4065329152	53	4358
2026-01-28 03:17:36.26	216.01	9.95	-41.7	-42.6	21.2	0.00e+00	0	43	0	4088397824	54	4133
2026-01-28 03:17:40.29	215.97	9.60	-41.8	-42.8	21.0	0.00e+00	0	43	0	4111466496	54	4195
2026-01-28 03:17:44.33	215.94	9.25	-42.0	-43.0	20.8	0.00e+00	0	43	0	4133486592	54	4294
2026-01-28 03:17:48.36	215.90	8.92	-42.0	-42.9	20.8	0.00e+00	0	43	0	4156555264	54	4286
2026-01-28 03:17:52.40	215.87	8.58	-42.1	-43.1	20.6	0.00e+00	0	43	0	4179623936	54	4348
2026-01-28 03:17:56.43	215.83	8.25	-42.2	-43.2	20.5	0.00e+00	0	43	0	4202692608	55	4149
2026-01-28 03:18:00.47	215.80	7.93	-42.3	-43.3	20.4	0.00e+00	0	43	0	4224712704	55	4208
2026-01-28 03:18:04.51	215.77	7.60	-42.5	-43.4	20.2	0.00e+00	0	43	0	4246732800	55	4288
2026-01-28 03:18:08.54	215.74	7.29	-42.5	-43.5	20.1	0.00e+00	0	43	0	4269801472	55	4329
2026-01-28 03:18:12.58	215.71	6.97	-42.9	-43.9	19.7	0.00e+00	0	43	0	4292870144	56	4275
2026-01-28 03:18:16.61	215.69	6.66	-42.8	-43.8	19.7	0.00e+00	0	43	0	4314890240	56	4238
2026-01-28 03:18:20.64	215.66	6.36	-43.0	-44.0	19.5	0.00e+00	0	44	0	4337958912	56	4320
2026-01-28 03:18:24.67	215.63	6.05	-43.0	-44.0	19.5	0.00e+00	0	43	0	4361027584	56	4322
2026-01-28 03:18:28.71	215.61	5.76	-42.9	-44.0	19.5	0.00e+00	0	43	0	4383047680	56	4318
2026-01-28 03:18:32.75	215.58	5.46	-43.2	-44.3	19.1	0.00e+00	0	43	0	4406116352	57	4217
2026-01-28 03:18:36.79	215.56	5.17	-43.3	-44.4	19.0	0.00e+00	0	43	0	4429185024	57	4287
2026-01-28 03:18:40.83	215.54	4.88	-52.8	-64.8	3.8	8.46e-01	0	43	104	4444913664	76	14981
2026-01-28 03:18:44.86	215.51	4.59	-53.5	-65.4	3.8	8.46e-01	0	43	104	4444913664	77	15165
2026-01-28 03:18:48.90	215.49	4.31	-53.8	-65.7	3.8	8.46e-01	0	43	104	4444913664	78	14768
2026-01-28 03:18:52.94	215.47	4.03	-53.8	-65.8	3.8	8.46e-01	0	43	104	4444913664	78	14894
2026-01-28 03:18:56.97	215.45	3.75	-53.8	-65.8	3.8	8.46e-01	0	43	104	4444913664	78	14907
2026-01-28 03:19:01.00	215.43	3.48	-53.6	-65.5	3.8	8.47e-01	0	43	104	4444913664	78	14533
2026-01-28 03:19:05.03	215.41	3.20	-53.3	-65.2	3.8	8.47e-01	0	43	104	4444913664	78	13967
2026-01-28 03:19:09.07	215.39	2.94	-53.2	-65.2	3.8	8.46e-01	0	43	104	4444913664	78	13910
2026-01-28 03:19:13.09	215.37	2.67	-53.2	-65.1	3.8	8.46e-01	0	43	104	4444913664	78	13860
2026-01-28 03:19:17.12	215.36	2.41	-53.2	-65.1	3.8	8.46e-01	0	43	104	4444913664	78	13853
2026-01-28 03:19:21.16	215.34	2.14	-53.2	-65.1	3.8	8.46e-01	0	43	104	4444913664	78	13836

#Closed at: 2026-01-28 03:19:24
#Recorded file [4444 MB]: D:/lorett/data/31041_260128_060457.dat