passes_logs/2026/01/28/R3.2S_Murmansk/R3.2S_Murmansk__20260128_063636_NOAA_21_JPSS-2_rec.log

#Pass ID: 20260128_063636_NOAA 21 (JPSS-2)
#Satellite: NOAA 21 (JPSS-2)
#Configuration: NOAA-21
#almurnet v.1.7.20251203
#Start time: 2026-01-28 06:36:37

#Version: 2.2.20231116
#Station: R3.2S_Murmansk
#Location: 33.079688 lon 68.888172 lat
#TLE: 1 54234U 22150A   26027.27712747  .00000181  00000+0  10656-3 0  9992
#TLE: 2 54234  98.7510 328.0291 0000845 205.5277 154.5858 14.19540098166550

#Time	Az	El	Level	Level2	SNR	BER	BlckErr	Temp	State	Recorded	gain1	gain2
2026-01-28 06:36:37.19	87.12	2.06	-52.1	-64.8	3.8	1.49e+00	0	41	0	0	76	14968
2026-01-28 06:36:41.20	86.90	2.30	-52.0	-64.7	3.8	1.49e+00	0	41	104	0	74	16635
2026-01-28 06:36:45.23	86.67	2.54	-52.0	-64.7	3.8	1.49e+00	0	41	104	0	74	16611
2026-01-28 06:36:49.26	86.43	2.78	-52.0	-64.7	3.8	1.49e+00	0	41	104	0	74	16557
2026-01-28 06:36:53.28	86.20	3.02	-52.0	-64.7	3.8	1.49e+00	0	41	104	0	74	16589
2026-01-28 06:36:57.32	85.95	3.26	-52.0	-64.5	3.8	1.49e+00	0	41	104	0	74	16219
2026-01-28 06:37:01.34	85.71	3.50	-52.0	-64.7	3.8	1.49e+00	0	42	104	0	74	16586
2026-01-28 06:37:05.36	85.46	3.75	-52.0	-64.6	3.8	1.49e+00	0	42	104	0	74	16443
2026-01-28 06:37:09.40	85.20	4.00	-51.9	-64.0	3.8	1.49e+00	0	42	104	0	74	15383
2026-01-28 06:37:13.43	84.94	4.25	-51.5	-59.6	4.8	1.17e+00	0	42	104	0	74	9192
2026-01-28 06:37:17.45	84.68	4.50	-51.3	-58.6	5.3	5.25e-01	0	42	0	10485760	74	8233
2026-01-28 06:37:21.47	84.41	4.75	-51.5	-59.8	4.7	1.21e+00	2	42	104	15728640	74	9448
2026-01-28 06:37:25.51	84.13	5.01	-49.8	-53.7	9.8	2.88e-02	0	42	0	25165824	71	5577
2026-01-28 06:37:29.53	83.85	5.27	-46.5	-48.2	15.2	6.80e-04	0	42	0	32505856	65	4187
2026-01-28 06:37:33.55	83.57	5.53	-44.9	-46.2	17.6	0.00e+00	0	42	0	40894464	61	4192
2026-01-28 06:37:37.58	83.28	5.79	-44.9	-46.3	17.6	0.00e+00	0	42	0	53477376	61	4201
2026-01-28 06:37:41.61	82.98	6.05	-45.2	-46.5	17.4	0.00e+00	0	42	0	67108864	61	4328
2026-01-28 06:37:45.63	82.68	6.31	-44.6	-45.9	18.0	0.00e+00	0	42	0	78643200	61	4029
2026-01-28 06:37:49.66	82.38	6.58	-44.9	-46.2	17.8	0.00e+00	0	42	0	91226112	61	4164
2026-01-28 06:37:53.69	82.06	6.85	-44.9	-46.2	17.8	0.00e+00	0	42	0	103809024	61	4151
2026-01-28 06:37:57.72	81.74	7.12	-44.6	-45.8	18.1	0.00e+00	0	42	0	117440512	60	4217
2026-01-28 06:38:01.74	81.42	7.39	-44.4	-45.7	18.3	0.00e+00	0	42	0	128974848	60	4156
2026-01-28 06:38:05.76	81.09	7.66	-44.8	-46.0	18.0	0.00e+00	0	42	0	141557760	60	4323
2026-01-28 06:38:09.79	80.75	7.94	-44.4	-45.5	18.5	0.00e+00	0	42	0	154140672	60	4096
2026-01-28 06:38:13.81	80.40	8.22	-44.2	-45.4	18.6	0.00e+00	0	42	0	166723584	60	4020
2026-01-28 06:38:17.84	80.05	8.50	-44.1	-45.3	18.8	0.00e+00	0	43	0	179306496	60	3975
2026-01-28 06:38:21.87	79.69	8.78	-44.2	-45.4	19.0	0.00e+00	0	42	0	191889408	59	4249
2026-01-28 06:38:25.90	79.33	9.07	-44.2	-45.4	19.1	0.00e+00	0	42	0	205520896	59	4244
2026-01-28 06:38:29.93	78.95	9.35	-44.1	-45.2	19.2	0.00e+00	0	42	0	217055232	59	4164
2026-01-28 06:38:33.96	78.57	9.64	-44.0	-45.1	19.4	0.00e+00	0	42	0	229638144	59	4111
2026-01-28 06:38:37.97	78.18	9.93	-43.8	-44.9	19.5	0.00e+00	0	42	0	242221056	59	4032
2026-01-28 06:38:41.99	77.79	10.23	-43.6	-44.6	19.9	0.00e+00	0	42	0	255852544	59	3895
2026-01-28 06:38:46.02	77.38	10.52	-43.5	-44.5	20.0	0.00e+00	0	43	0	267386880	59	3847
2026-01-28 06:38:50.05	76.97	10.82	-43.3	-44.3	20.2	0.00e+00	0	43	0	279969792	58	3965
2026-01-28 06:38:54.07	76.55	11.12	-43.2	-44.2	20.3	0.00e+00	0	43	0	292552704	58	3939
2026-01-28 06:38:58.10	76.11	11.42	-43.1	-44.0	20.4	0.00e+00	0	43	0	306184192	58	3858
2026-01-28 06:39:02.13	75.67	11.72	-43.0	-44.0	20.5	0.00e+00	0	43	0	317718528	57	4065
2026-01-28 06:39:06.16	75.22	12.03	-43.0	-43.9	20.5	0.00e+00	0	43	0	330301440	57	4032
2026-01-28 06:39:10.19	74.76	12.34	-42.8	-43.7	20.7	0.00e+00	0	43	0	342884352	57	3951
2026-01-28 06:39:14.21	74.29	12.64	-42.8	-43.7	20.7	0.00e+00	0	43	0	356515840	57	3940
2026-01-28 06:39:18.23	73.81	12.96	-42.9	-43.8	20.7	0.00e+00	0	42	0	368050176	57	4004
2026-01-28 06:39:22.27	73.32	13.27	-42.8	-43.7	20.8	0.00e+00	0	43	0	380633088	57	3951
2026-01-28 06:39:26.29	72.82	13.58	-42.8	-43.7	20.8	0.00e+00	0	43	0	394264576	57	3933
2026-01-28 06:39:30.33	72.30	13.90	-42.8	-43.7	20.8	0.00e+00	0	43	0	405798912	57	3919
2026-01-28 06:39:34.35	71.78	14.22	-42.8	-43.8	20.8	0.00e+00	0	43	0	418381824	57	3963
2026-01-28 06:39:38.39	71.24	14.54	-42.9	-43.9	20.7	0.00e+00	0	42	0	430964736	57	4010
2026-01-28 06:39:42.42	70.69	14.87	-42.9	-43.8	20.8	0.00e+00	0	43	0	444596224	57	3970
2026-01-28 06:39:46.44	70.13	15.19	-42.9	-43.9	20.7	0.00e+00	0	43	0	456130560	57	4007
2026-01-28 06:39:50.47	69.56	15.51	-43.1	-44.0	20.6	0.00e+00	0	42	0	468713472	57	4086
2026-01-28 06:39:54.49	68.98	15.84	-43.0	-43.9	20.7	0.00e+00	0	43	0	482344960	57	4048
2026-01-28 06:39:58.52	68.38	16.17	-42.9	-43.8	20.8	0.00e+00	0	43	0	494927872	57	3982
2026-01-28 06:40:02.55	67.77	16.50	-43.2	-44.1	20.5	0.00e+00	0	43	0	506462208	57	4131
2026-01-28 06:40:06.58	67.14	16.83	-43.3	-44.2	20.5	0.00e+00	0	43	0	519045120	57	4174
2026-01-28 06:40:10.62	66.50	17.16	-43.4	-44.3	20.3	0.00e+00	0	43	0	532676608	57	4223
2026-01-28 06:40:14.65	65.84	17.49	-43.3	-44.3	20.3	0.00e+00	0	42	0	545259520	57	4219
2026-01-28 06:40:18.67	65.17	17.82	-43.0	-44.0	20.7	0.00e+00	0	43	0	556793856	57	4058
2026-01-28 06:40:22.71	64.49	18.16	-42.9	-43.9	20.8	0.00e+00	0	43	0	570425344	57	4009
2026-01-28 06:40:26.74	63.79	18.49	-42.7	-43.6	21.0	0.00e+00	0	43	0	583008256	57	3900
2026-01-28 06:40:30.76	63.07	18.82	-42.8	-43.7	21.0	0.00e+00	0	43	0	594542592	57	3919
2026-01-28 06:40:34.80	62.34	19.15	-42.7	-43.6	21.0	0.00e+00	0	43	0	608174080	57	3898
2026-01-28 06:40:38.83	61.59	19.48	-42.5	-43.4	21.2	0.00e+00	0	43	0	620756992	57	3812
2026-01-28 06:40:42.86	60.83	19.82	-42.5	-43.4	21.3	0.00e+00	0	43	0	633339904	56	4035
2026-01-28 06:40:46.90	60.04	20.15	-42.3	-43.1	21.5	0.00e+00	0	43	0	645922816	56	3906
2026-01-28 06:40:50.93	59.24	20.47	-42.0	-42.8	21.8	0.00e+00	0	43	0	658505728	56	3778
2026-01-28 06:40:54.96	58.43	20.80	-42.3	-43.2	21.5	0.00e+00	0	43	0	671088640	56	3924
2026-01-28 06:40:59.00	57.59	21.12	-42.1	-43.0	21.7	0.00e+00	0	43	0	683671552	56	3831
2026-01-28 06:41:03.03	56.74	21.45	-42.3	-43.2	21.5	0.00e+00	0	43	0	696254464	56	3927
2026-01-28 06:41:07.06	55.87	21.77	-42.1	-43.0	21.7	0.00e+00	0	43	0	708837376	56	3837
2026-01-28 06:41:11.10	54.98	22.08	-41.9	-42.7	21.8	0.00e+00	0	43	0	721420288	55	3955
2026-01-28 06:41:15.14	54.07	22.39	-42.0	-42.8	21.8	0.00e+00	0	43	0	734003200	55	3992
2026-01-28 06:41:19.17	53.15	22.70	-42.1	-42.9	21.7	0.00e+00	0	43	0	746586112	55	4028
2026-01-28 06:41:23.20	52.20	23.00	-42.2	-43.1	21.6	0.00e+00	0	43	0	759169024	55	4116
2026-01-28 06:41:27.23	51.24	23.30	-42.1	-43.0	21.6	0.00e+00	0	43	0	771751936	55	4063
2026-01-28 06:41:31.25	50.26	23.59	-42.2	-43.1	21.6	0.00e+00	0	43	0	784334848	55	4113
2026-01-28 06:41:35.28	49.27	23.88	-42.5	-43.3	21.4	0.00e+00	0	43	0	796917760	55	4238
2026-01-28 06:41:39.30	48.25	24.16	-42.6	-43.5	21.2	0.00e+00	0	43	0	809500672	55	4325
2026-01-28 06:41:43.33	47.22	24.43	-42.6	-43.5	21.2	0.00e+00	0	43	0	822083584	55	4321
2026-01-28 06:41:47.36	46.16	24.70	-42.5	-43.3	21.4	0.00e+00	0	43	0	834666496	55	4230
2026-01-28 06:41:51.39	45.09	24.95	-42.4	-43.2	21.4	0.00e+00	0	43	0	847249408	55	4179
2026-01-28 06:41:55.41	44.01	25.20	-42.5	-43.3	21.4	0.00e+00	0	43	0	859832320	55	4230
2026-01-28 06:41:59.44	42.90	25.44	-42.9	-43.8	21.0	0.00e+00	0	43	0	872415232	56	4205
2026-01-28 06:42:03.47	41.78	25.67	-42.7	-43.5	21.3	0.00e+00	0	43	0	884998144	56	4093
2026-01-28 06:42:07.49	40.65	25.89	-42.6	-43.4	21.4	0.00e+00	0	43	0	897581056	56	4045
2026-01-28 06:42:11.52	39.49	26.10	-42.3	-43.2	21.7	0.00e+00	0	43	0	910163968	56	3915
2026-01-28 06:42:15.55	38.32	26.29	-41.9	-42.7	21.9	0.00e+00	0	43	0	922746880	55	3951
2026-01-28 06:42:19.58	37.14	26.48	-42.1	-42.9	21.8	0.00e+00	0	43	0	935329792	55	4030
2026-01-28 06:42:23.61	35.95	26.65	-42.0	-42.8	21.9	0.00e+00	0	43	0	947912704	55	3983
2026-01-28 06:42:27.63	34.74	26.81	-42.0	-42.8	21.9	0.00e+00	0	43	0	960495616	55	3994
2026-01-28 06:42:31.67	33.52	26.95	-42.0	-42.8	21.9	0.00e+00	0	43	0	973078528	55	4000
2026-01-28 06:42:35.69	32.29	27.09	-42.0	-42.8	21.9	0.00e+00	0	43	0	985661440	55	3978
2026-01-28 06:42:39.73	31.05	27.20	-42.2	-43.0	21.7	0.00e+00	0	43	0	998244352	55	4082
2026-01-28 06:42:43.76	29.80	27.31	-42.3	-43.2	21.6	0.00e+00	0	43	0	1010827264	55	4146
2026-01-28 06:42:47.79	28.54	27.40	-42.2	-43.0	21.7	0.00e+00	0	43	0	1023410176	55	4089
2026-01-28 06:42:51.82	27.28	27.47	-42.7	-43.6	21.3	0.00e+00	0	43	0	1035993088	55	4343
2026-01-28 06:42:55.85	26.01	27.53	-42.4	-43.2	21.5	0.00e+00	0	43	0	1048576000	55	4185
2026-01-28 06:42:59.89	24.74	27.57	-42.2	-43.1	21.7	0.00e+00	0	43	0	1061158912	55	4104
2026-01-28 06:43:03.91	23.47	27.60	-42.0	-42.9	21.9	0.00e+00	0	43	0	1073741824	55	4012
2026-01-28 06:43:07.94	22.19	27.61	-42.1	-42.9	21.8	0.00e+00	0	43	0	1086324736	55	4034
2026-01-28 06:43:11.97	20.91	27.60	-42.1	-42.9	21.8	0.00e+00	0	43	0	1098907648	55	4049
2026-01-28 06:43:16.00	19.64	27.58	-41.8	-42.6	22.1	0.00e+00	0	43	0	1111490560	55	3906
2026-01-28 06:43:20.03	18.37	27.54	-41.8	-42.6	22.2	0.00e+00	0	43	0	1124073472	55	3880
2026-01-28 06:43:24.06	17.10	27.49	-42.0	-42.9	21.9	0.00e+00	0	43	0	1136656384	55	4007
2026-01-28 06:43:28.09	15.83	27.42	-42.2	-43.1	21.7	0.00e+00	0	43	0	1149239296	55	4104
2026-01-28 06:43:32.12	14.57	27.34	-42.3	-43.2	21.6	0.00e+00	0	43	0	1161822208	55	4164
2026-01-28 06:43:36.15	13.32	27.24	-42.1	-43.0	21.8	0.00e+00	0	43	0	1174405120	55	4066
2026-01-28 06:43:40.18	12.08	27.13	-42.2	-43.0	21.7	0.00e+00	0	43	0	1186988032	55	4087
2026-01-28 06:43:44.22	10.84	27.01	-42.2	-43.0	21.6	0.00e+00	0	43	0	1199570944	55	4094
2026-01-28 06:43:48.25	9.62	26.86	-42.3	-43.2	21.6	0.00e+00	0	43	0	1212153856	55	4159
2026-01-28 06:43:52.28	8.41	26.71	-42.1	-42.9	21.8	0.00e+00	0	43	0	1224736768	55	4018
2026-01-28 06:43:56.32	7.21	26.54	-42.4	-43.3	21.5	0.00e+00	0	43	0	1237319680	55	4204
2026-01-28 06:44:00.35	6.02	26.36	-42.6	-43.4	21.4	0.00e+00	0	43	0	1249902592	55	4291
2026-01-28 06:44:04.38	4.85	26.17	-42.5	-43.4	21.5	0.00e+00	0	43	0	1262485504	55	4250
2026-01-28 06:44:08.41	3.69	25.97	-42.4	-43.3	21.6	0.00e+00	0	43	0	1275068416	55	4205
2026-01-28 06:44:12.45	2.54	25.75	-42.4	-43.2	21.6	0.00e+00	0	43	0	1287651328	55	4192
2026-01-28 06:44:16.49	1.41	25.53	-42.2	-43.0	21.7	0.00e+00	0	43	0	1300234240	55	4093
2026-01-28 06:44:20.52	0.30	25.29	-42.3	-43.1	21.6	0.00e+00	0	43	0	1312817152	55	4131
2026-01-28 06:44:24.55	359.21	25.05	-41.8	-42.6	22.0	0.00e+00	0	43	0	1325400064	55	3900
2026-01-28 06:44:28.59	358.13	24.79	-42.2	-43.1	21.7	0.00e+00	0	43	0	1339031552	55	4118
2026-01-28 06:44:32.62	357.07	24.53	-42.4	-43.2	21.4	0.00e+00	0	43	0	1350565888	55	4182
2026-01-28 06:44:36.64	356.04	24.26	-41.4	-42.2	22.4	0.00e+00	0	43	0	1363148800	54	3927
2026-01-28 06:44:40.68	355.01	23.98	-41.8	-42.5	22.1	0.00e+00	0	43	0	1375731712	54	4097
2026-01-28 06:44:44.71	354.01	23.70	-41.8	-42.6	22.0	0.00e+00	0	43	0	1388314624	54	4119
2026-01-28 06:44:48.74	353.02	23.41	-42.2	-43.0	21.7	0.00e+00	0	43	0	1400897536	54	4333
2026-01-28 06:44:52.78	352.05	23.11	-42.0	-42.9	21.9	0.00e+00	0	43	0	1413480448	55	4011
2026-01-28 06:44:56.81	351.11	22.81	-42.1	-42.9	21.8	0.00e+00	0	43	0	1427111936	55	4033
2026-01-28 06:45:00.85	350.17	22.51	-42.9	-43.8	21.1	0.00e+00	0	43	0	1438646272	56	4198
2026-01-28 06:45:04.88	349.26	22.20	-42.5	-43.4	21.5	0.00e+00	0	43	0	1451229184	56	4013
2026-01-28 06:45:08.92	348.37	21.88	-42.6	-43.5	21.3	0.00e+00	0	43	0	1464860672	56	4089
2026-01-28 06:45:12.95	347.49	21.56	-42.5	-43.4	21.4	0.00e+00	0	43	0	1477443584	56	4017
2026-01-28 06:45:16.98	346.64	21.24	-42.2	-43.0	21.7	0.00e+00	0	43	0	1488977920	56	3865
2026-01-28 06:45:21.01	345.80	20.92	-42.6	-43.4	21.3	0.00e+00	0	43	0	1502609408	56	4042
2026-01-28 06:45:25.04	344.98	20.60	-42.2	-43.1	21.6	0.00e+00	0	43	0	1515192320	56	3880
2026-01-28 06:45:29.07	344.17	20.27	-42.3	-43.2	21.6	0.00e+00	0	43	0	1527775232	56	3921
2026-01-28 06:45:33.09	343.39	19.94	-42.5	-43.4	21.4	0.00e+00	0	43	0	1540358144	56	4033
2026-01-28 06:45:37.12	342.62	19.61	-42.5	-43.4	21.3	0.00e+00	0	43	0	1552941056	56	4024
2026-01-28 06:45:41.15	341.86	19.28	-42.6	-43.4	21.3	0.00e+00	0	43	0	1565523968	56	4041
2026-01-28 06:45:45.18	341.13	18.95	-42.5	-43.3	21.3	0.00e+00	0	43	0	1577058304	56	3995
2026-01-28 06:45:49.22	340.41	18.62	-42.3	-43.1	21.5	0.00e+00	0	43	0	1590689792	56	3911
2026-01-28 06:45:53.25	339.70	18.28	-42.5	-43.3	21.3	0.00e+00	0	43	0	1603272704	56	3999
2026-01-28 06:45:57.28	339.01	17.95	-42.5	-43.4	21.3	0.00e+00	0	43	0	1615855616	56	4006
2026-01-28 06:46:01.30	338.34	17.62	-42.8	-43.7	21.1	0.00e+00	0	43	0	1628438528	56	4149
2026-01-28 06:46:05.32	337.68	17.29	-42.8	-43.7	21.1	0.00e+00	0	43	0	1641021440	56	4169
2026-01-28 06:46:09.35	337.04	16.96	-42.6	-43.5	21.2	0.00e+00	0	43	0	1653604352	56	4056
2026-01-28 06:46:13.38	336.41	16.63	-42.6	-43.5	21.2	0.00e+00	0	43	0	1666187264	56	4052
2026-01-28 06:46:17.40	335.79	16.30	-43.1	-44.0	20.7	0.00e+00	0	43	0	1678770176	56	4313
2026-01-28 06:46:21.43	335.19	15.97	-42.8	-43.7	20.9	0.00e+00	0	43	0	1691353088	56	4188
2026-01-28 06:46:25.45	334.60	15.65	-42.7	-43.6	21.0	0.00e+00	0	43	0	1703936000	56	4126
2026-01-28 06:46:29.49	334.02	15.32	-42.9	-43.8	20.8	0.00e+00	0	43	0	1716518912	56	4238
2026-01-28 06:46:33.52	333.46	15.00	-43.3	-44.2	20.5	0.00e+00	0	43	0	1729101824	57	4174
2026-01-28 06:46:37.55	332.91	14.67	-43.2	-44.2	20.4	0.00e+00	0	43	0	1741684736	57	4153
2026-01-28 06:46:41.58	332.37	14.35	-42.8	-43.7	20.9	0.00e+00	0	43	0	1754267648	57	3956
2026-01-28 06:46:45.60	331.84	14.03	-43.0	-43.9	20.7	0.00e+00	0	43	0	1766850560	57	4031
2026-01-28 06:46:49.64	331.33	13.71	-43.4	-44.4	20.2	0.00e+00	0	43	0	1779433472	57	4266
2026-01-28 06:46:53.67	330.82	13.40	-43.1	-44.1	20.5	0.00e+00	0	43	0	1792016384	57	4099
2026-01-28 06:46:57.70	330.33	13.09	-42.8	-43.8	20.8	0.00e+00	0	43	0	1804599296	57	3959
2026-01-28 06:47:01.72	329.85	12.77	-42.7	-43.6	20.9	0.00e+00	0	43	0	1817182208	57	3889
2026-01-28 06:47:05.76	329.37	12.46	-43.3	-44.2	20.4	0.00e+00	0	43	0	1829765120	57	4191
2026-01-28 06:47:09.78	328.91	12.16	-43.8	-44.8	19.8	0.00e+00	0	43	0	1842348032	58	4230
2026-01-28 06:47:13.80	328.46	11.85	-43.6	-44.6	19.9	0.00e+00	0	43	0	1854930944	58	4129
2026-01-28 06:47:17.83	328.01	11.55	-43.3	-44.3	20.2	0.00e+00	0	43	0	1867513856	58	3983
2026-01-28 06:47:21.85	327.58	11.25	-43.2	-44.2	20.3	0.00e+00	0	43	0	1880096768	58	3933
2026-01-28 06:47:25.88	327.16	10.95	-43.6	-44.6	19.9	0.00e+00	0	43	0	1892679680	58	4139
2026-01-28 06:47:29.90	326.74	10.65	-44.1	-45.2	19.4	0.00e+00	0	43	0	1905262592	58	4420
2026-01-28 06:47:33.93	326.33	10.35	-44.1	-45.2	19.4	0.00e+00	0	43	0	1917845504	59	4147
2026-01-28 06:47:37.97	325.93	10.06	-44.2	-45.3	19.2	0.00e+00	0	43	0	1930428416	59	4211
2026-01-28 06:47:41.98	325.54	9.77	-44.1	-45.2	19.3	0.00e+00	0	43	0	1943011328	59	4146
2026-01-28 06:47:46.00	325.16	9.48	-44.1	-45.2	19.3	0.00e+00	0	43	0	1955594240	59	4165
2026-01-28 06:47:50.03	324.79	9.19	-44.4	-45.5	19.0	0.00e+00	0	43	0	1968177152	59	4332
2026-01-28 06:47:54.07	324.42	8.91	-44.6	-45.8	18.7	0.00e+00	0	43	0	1980760064	59	4477
2026-01-28 06:47:58.10	324.06	8.62	-44.4	-45.5	18.6	0.00e+00	0	43	0	1993342976	60	4098
2026-01-28 06:48:02.13	323.70	8.34	-44.5	-45.7	18.4	0.00e+00	0	43	0	2005925888	60	4153
2026-01-28 06:48:06.17	323.36	8.06	-44.6	-45.8	18.3	0.00e+00	0	43	0	2018508800	60	4206
2026-01-28 06:48:10.20	323.02	7.78	-44.2	-45.3	18.6	0.00e+00	0	43	0	2031091712	60	4003
2026-01-28 06:48:14.23	322.68	7.51	-44.4	-45.6	18.5	0.00e+00	0	43	0	2043674624	60	4113
2026-01-28 06:48:18.25	322.36	7.24	-44.6	-45.9	18.1	0.00e+00	0	43	0	2056257536	60	4248
2026-01-28 06:48:22.27	322.04	6.97	-44.9	-46.2	17.8	0.00e+00	0	43	0	2068840448	60	4438
2026-01-28 06:48:26.31	321.72	6.70	-45.1	-46.4	17.5	0.00e+00	0	43	0	2081423360	60	4542
2026-01-28 06:48:30.34	321.42	6.43	-45.1	-46.4	17.5	0.00e+00	0	43	0	2094006272	61	4280
2026-01-28 06:48:34.37	321.11	6.17	-45.1	-46.5	17.4	0.00e+00	0	43	0	2106589184	61	4318
2026-01-28 06:48:38.39	320.82	5.90	-45.0	-46.3	17.5	0.00e+00	0	43	0	2119172096	61	4223
2026-01-28 06:48:42.41	320.53	5.64	-44.9	-46.2	17.6	0.00e+00	0	43	0	2131755008	61	4166
2026-01-28 06:48:46.44	320.24	5.38	-44.7	-46.0	17.7	0.00e+00	0	43	0	2144337920	61	4083
2026-01-28 06:48:50.48	319.96	5.12	-45.2	-46.6	17.1	0.00e+00	0	43	0	2156920832	61	4378
2026-01-28 06:48:54.51	319.69	4.87	-52.7	-65.5	3.8	1.49e+00	0	43	104	2164260864	75	17095
2026-01-28 06:48:58.55	319.42	4.61	-52.9	-65.6	3.8	1.49e+00	0	43	104	2164260864	76	16460
2026-01-28 06:49:02.58	319.15	4.36	-52.9	-65.6	3.8	1.49e+00	0	43	104	2164260864	76	16439
2026-01-28 06:49:06.62	318.89	4.11	-53.1	-65.8	3.8	1.49e+00	0	43	104	2164260864	76	16840
2026-01-28 06:49:10.65	318.63	3.86	-53.3	-66.0	3.8	1.49e+00	0	43	104	2164260864	77	16204
2026-01-28 06:49:14.67	318.38	3.61	-53.2	-65.9	3.8	1.49e+00	0	43	104	2164260864	77	16108
2026-01-28 06:49:18.71	318.14	3.37	-53.2	-65.9	3.8	1.49e+00	0	43	104	2164260864	77	16043
2026-01-28 06:49:22.74	317.89	3.13	-53.1	-65.8	3.8	1.49e+00	0	43	104	2164260864	77	15936
2026-01-28 06:49:26.77	317.65	2.88	-53.1	-65.8	3.8	1.49e+00	0	43	104	2164260864	77	15904
2026-01-28 06:49:30.80	317.42	2.64	-53.1	-65.8	3.8	1.49e+00	0	43	104	2164260864	77	15920
2026-01-28 06:49:34.83	317.19	2.40	-53.1	-65.8	3.8	1.49e+00	0	43	104	2164260864	77	15888
2026-01-28 06:49:38.87	316.96	2.17	-53.1	-65.8	3.8	1.49e+00	0	43	104	2164260864	77	15844

#Closed at: 2026-01-28 06:49:42
#Recorded file [2164 MB]: D:/lorett/data/31041_260128_093637.dat