passes_logs/2026/01/28/R3.2S_Murmansk/R3.2S_Murmansk__20260128_211751_JL1KF02B03_rec.log

#Pass ID: 20260128_211751_JL1KF02B03
#Satellite: JL1KF02B03
#Configuration: 01B_900M
#almurnet v.1.7.20251203
#Start time: 2026-01-28 21:17:51

#Version: 2.2.20231116
#Station: R3.2S_Murmansk
#Location: 33.079688 lon 68.888172 lat
#TLE: 1 61190U 24169B   26027.81783714  .00006906  00000+0  43277-3 0  9991
#TLE: 2 61190  97.5613 118.7682 0015007 139.5313 220.7035 15.09576175 74658

#Time	Az	El	Level	Level2	SNR	BER	BlckErr	Temp	State	Recorded	gain1	gain2
2026-01-28 21:17:51.64	197.76	2.03	-54.2	-56.2	6.2	0.00e+00	0	43	0	0	79	18774
2026-01-28 21:17:54.65	197.97	2.23	-54.1	-56.2	6.2	0.00e+00	0	43	104	0	79	18708
2026-01-28 21:17:57.68	198.19	2.42	-54.1	-56.2	6.2	0.00e+00	0	43	104	0	79	18617
2026-01-28 21:18:00.69	198.41	2.62	-54.2	-56.3	6.2	0.00e+00	0	43	104	0	79	18879
2026-01-28 21:18:03.71	198.63	2.81	-54.4	-56.5	6.2	0.00e+00	0	43	104	0	79	19297
2026-01-28 21:18:06.73	198.86	3.01	-54.3	-56.5	6.2	0.00e+00	0	43	104	0	79	19291
2026-01-28 21:18:09.75	199.09	3.21	-54.3	-56.4	6.2	0.00e+00	0	43	104	0	79	19171
2026-01-28 21:18:12.77	199.33	3.41	-54.2	-56.3	6.2	0.00e+00	0	43	104	0	79	18907
2026-01-28 21:18:15.80	199.57	3.62	-54.1	-56.2	6.2	0.00e+00	0	44	104	0	79	18650
2026-01-28 21:18:18.81	199.81	3.82	-53.8	-55.9	6.2	0.00e+00	0	44	104	0	79	18076
2026-01-28 21:18:21.84	200.06	4.03	-53.4	-55.5	6.2	0.00e+00	0	44	104	0	78	18205
2026-01-28 21:18:24.86	200.32	4.24	-52.7	-54.8	6.2	0.00e+00	0	44	104	0	77	17916
2026-01-28 21:18:27.88	200.57	4.45	-52.7	-54.8	6.2	0.00e+00	0	44	104	0	77	17837
2026-01-28 21:18:30.90	200.83	4.66	-52.7	-54.8	6.2	0.00e+00	0	44	104	0	77	17816
2026-01-28 21:18:33.92	201.10	4.87	-52.6	-54.7	6.2	0.00e+00	0	44	104	0	77	17694
2026-01-28 21:18:36.93	201.37	5.09	-52.7	-54.8	6.2	0.00e+00	0	44	104	0	77	17803
2026-01-28 21:18:39.96	201.64	5.30	-52.6	-54.7	6.2	0.00e+00	0	44	104	0	77	17653
2026-01-28 21:18:42.98	201.92	5.52	-52.7	-54.7	6.2	0.00e+00	0	44	104	0	77	17763
2026-01-28 21:18:46.00	202.21	5.74	-52.7	-54.8	6.2	0.00e+00	0	44	104	0	77	17952
2026-01-28 21:18:49.02	202.50	5.97	-52.8	-54.9	6.2	0.00e+00	0	44	104	0	77	18077
2026-01-28 21:18:52.04	202.79	6.19	-52.6	-54.7	6.2	0.00e+00	0	44	104	0	77	17690
2026-01-28 21:18:55.06	203.09	6.42	-52.7	-54.7	6.2	0.00e+00	0	44	104	0	77	17715
2026-01-28 21:18:58.07	203.40	6.64	-52.8	-54.8	6.2	0.00e+00	0	44	104	0	77	17950
2026-01-28 21:19:01.09	203.71	6.87	-52.8	-54.9	6.2	0.00e+00	0	45	104	0	77	18102
2026-01-28 21:19:04.11	204.02	7.11	-52.7	-54.7	6.2	0.00e+00	0	45	104	0	77	17755
2026-01-28 21:19:07.12	204.35	7.34	-52.7	-54.8	6.2	0.00e+00	0	44	104	0	77	17840
2026-01-28 21:19:10.14	204.68	7.58	-52.8	-54.9	6.2	0.00e+00	0	45	104	0	77	18033
2026-01-28 21:19:13.16	205.01	7.82	-52.9	-55.0	6.2	0.00e+00	0	45	104	0	77	18210
2026-01-28 21:19:16.18	205.35	8.06	-52.7	-54.8	6.2	0.00e+00	0	45	104	0	77	17950
2026-01-28 21:19:19.20	205.70	8.30	-52.8	-54.9	6.2	0.00e+00	0	45	104	0	77	18047
2026-01-28 21:19:22.23	206.06	8.55	-52.9	-54.9	6.2	0.00e+00	0	45	104	0	77	18172
2026-01-28 21:19:25.23	206.42	8.79	-52.9	-55.0	6.2	0.00e+00	0	45	104	0	77	18275
2026-01-28 21:19:28.24	206.79	9.04	-52.8	-54.9	6.2	0.00e+00	0	45	104	0	77	18076
2026-01-28 21:19:31.26	207.17	9.30	-46.5	-49.8	6.2	0.00e+00	0	45	104	0	63	22574
2026-01-28 21:19:34.28	207.55	9.55	-35.1	-34.9	14.4	5.30e-04	0	45	0	159383552	41	14293
2026-01-28 21:19:37.30	207.95	9.81	-33.2	-33.0	14.4	4.02e-04	0	45	0	494927872	38	13657
2026-01-28 21:19:40.32	208.35	10.07	-33.0	-32.8	14.4	5.23e-04	0	45	0	830472192	37	14189
2026-01-28 21:19:43.34	208.76	10.33	-32.8	-32.6	14.2	5.17e-04	0	45	0	1174405120	37	13901
2026-01-28 21:19:46.37	209.18	10.59	-32.7	-32.5	14.3	4.16e-04	0	45	0	1518338048	37	13645
2026-01-28 21:19:49.39	209.60	10.86	-32.6	-32.4	14.3	4.63e-04	0	45	0	1853882368	37	13578
2026-01-28 21:19:52.41	210.04	11.13	-32.6	-32.4	14.4	4.23e-04	0	45	0	2197815296	37	13600
2026-01-28 21:19:55.43	210.49	11.40	-32.6	-32.4	14.4	4.39e-04	0	45	0	2533359616	37	13548
2026-01-28 21:19:58.45	210.94	11.68	-32.4	-32.2	14.3	5.23e-04	0	46	0	2877292544	36	14109
2026-01-28 21:20:01.48	211.41	11.96	-32.3	-32.1	14.3	4.88e-04	0	45	0	3221225472	36	13930
2026-01-28 21:20:04.50	211.89	12.24	-32.3	-32.1	14.3	3.99e-04	0	45	0	3556769792	36	13857
2026-01-28 21:20:07.52	212.37	12.52	-32.2	-32.0	14.3	4.71e-04	0	45	0	3892314112	36	13667
2026-01-28 21:20:10.53	212.87	12.80	-32.0	-31.8	14.3	4.39e-04	0	46	0	4227858432	36	13435
2026-01-28 21:20:13.55	213.38	13.09	-32.0	-31.8	14.3	4.84e-04	0	45	0	4580179968	36	13374
2026-01-28 21:20:16.57	213.90	13.38	-29.6	-29.4	14.3	5.55e-04	0	45	0	4915724288	31	13486
2026-01-28 21:20:19.58	214.43	13.67	-29.6	-29.4	14.4	5.63e-04	0	46	0	5251268608	31	13542
2026-01-28 21:20:22.60	214.97	13.97	-29.5	-29.3	14.4	4.96e-04	0	46	0	5595201536	31	13459
2026-01-28 21:20:25.62	215.52	14.26	-29.3	-29.1	14.3	4.48e-04	0	45	0	5930745856	30	13932
2026-01-28 21:20:28.64	216.09	14.56	-29.2	-29.0	14.3	4.69e-04	0	46	0	6266290176	30	13732
2026-01-28 21:20:31.66	216.68	14.86	-29.2	-29.0	14.3	4.96e-04	0	46	0	6618611712	30	13731
2026-01-28 21:20:34.68	217.27	15.17	-29.1	-28.9	14.3	5.47e-04	0	46	0	6954156032	30	13499
2026-01-28 21:20:37.70	217.88	15.47	-29.0	-28.8	14.2	4.54e-04	0	46	0	7289700352	29	14174
2026-01-28 21:20:40.73	218.51	15.78	-29.0	-28.8	14.3	4.84e-04	0	46	0	7625244672	29	14205
2026-01-28 21:20:43.75	219.15	16.09	-28.9	-28.7	14.3	4.77e-04	0	46	0	7977566208	29	14053
2026-01-28 21:20:46.77	219.80	16.41	-28.8	-28.6	14.3	4.69e-04	0	46	0	8313110528	29	13862
2026-01-28 21:20:49.78	220.47	16.72	-28.6	-28.4	14.4	4.00e-04	0	46	0	8648654848	29	13615
2026-01-28 21:20:52.80	221.15	17.03	-28.5	-28.3	14.2	4.90e-04	0	46	0	8992587776	29	13387
2026-01-28 21:20:55.82	221.86	17.35	-28.4	-28.2	14.3	4.06e-04	0	46	0	9328132096	28	13993
2026-01-28 21:20:58.84	222.57	17.67	-28.4	-28.2	14.3	4.96e-04	0	46	0	9672065024	28	14083
2026-01-28 21:21:01.87	223.31	17.99	-28.3	-28.1	14.3	4.08e-04	0	46	0	10015997952	28	13791
2026-01-28 21:21:04.89	224.07	18.31	-28.3	-28.1	14.3	5.49e-04	0	46	0	10351542272	28	13842
2026-01-28 21:21:07.91	224.84	18.63	-28.0	-27.8	14.3	4.16e-04	0	46	0	10687086592	28	13423
2026-01-28 21:21:10.93	225.63	18.95	-28.0	-27.8	14.3	3.95e-04	0	46	0	11022630912	27	14218
2026-01-28 21:21:13.94	226.43	19.28	-28.0	-27.8	14.3	3.68e-04	0	46	0	11374952448	27	14117
2026-01-28 21:21:16.97	227.26	19.60	-28.0	-27.8	14.3	4.35e-04	0	46	0	11710496768	27	14216
2026-01-28 21:21:19.99	228.11	19.92	-27.8	-27.6	14.3	3.97e-04	0	46	0	12046041088	27	13900
2026-01-28 21:21:23.01	228.98	20.24	-27.8	-27.6	14.3	3.36e-04	0	46	0	12389974016	27	13814
2026-01-28 21:21:26.03	229.86	20.56	-27.6	-27.4	14.3	3.66e-04	0	46	0	12725518336	27	13616
2026-01-28 21:21:29.05	230.77	20.88	-27.8	-27.6	14.3	3.97e-04	0	46	0	13069451264	27	13799
2026-01-28 21:21:32.08	231.70	21.20	-27.7	-27.5	14.3	3.85e-04	0	46	0	13413384192	27	13703
2026-01-28 21:21:35.09	232.65	21.51	-27.4	-27.2	14.2	3.89e-04	0	46	0	13748928512	26	13957
2026-01-28 21:21:38.12	233.62	21.82	-27.4	-27.2	14.2	3.68e-04	0	46	0	14084472832	26	14002
2026-01-28 21:21:41.14	234.61	22.13	-27.3	-27.1	14.3	3.85e-04	0	46	0	14420017152	26	13814
2026-01-28 21:21:44.15	235.63	22.43	-27.2	-27.0	14.2	3.91e-04	0	46	0	14772338688	26	13669
2026-01-28 21:21:47.16	236.66	22.73	-27.3	-27.1	14.2	4.37e-04	0	46	0	15107883008	26	13817
2026-01-28 21:21:50.18	237.72	23.03	-27.1	-26.9	14.3	3.53e-04	0	46	0	15443427328	26	13559
2026-01-28 21:21:53.21	238.80	23.32	-27.0	-26.8	14.3	3.89e-04	0	46	0	15787360256	25	14137
2026-01-28 21:21:56.23	239.90	23.61	-26.9	-26.7	14.2	3.66e-04	0	46	0	16122904576	25	14010
2026-01-28 21:21:59.25	241.02	23.88	-26.9	-26.6	14.2	3.55e-04	0	46	0	16466837504	25	13945
2026-01-28 21:22:02.27	242.17	24.15	-26.8	-26.6	14.3	3.49e-04	0	46	0	16810770432	25	13919
2026-01-28 21:22:05.29	243.33	24.42	-26.7	-26.5	14.2	3.81e-04	0	46	0	17146314752	25	13737
2026-01-28 21:22:08.32	244.52	24.67	-26.7	-26.5	14.2	4.33e-04	0	46	0	17481859072	25	13663
2026-01-28 21:22:11.34	245.73	24.92	-26.5	-26.3	14.2	3.68e-04	0	46	0	17834180608	25	13435
2026-01-28 21:22:14.36	246.96	25.15	-26.7	-26.5	14.3	3.64e-04	0	46	0	18169724928	25	13640
2026-01-28 21:22:17.38	248.21	25.37	-26.5	-26.3	14.1	4.23e-04	0	46	0	18505269248	24	14272
2026-01-28 21:22:20.40	249.47	25.59	-26.5	-26.3	14.2	3.03e-04	0	46	0	18840813568	24	14243
2026-01-28 21:22:23.42	250.75	25.79	-26.4	-26.2	14.2	2.71e-04	0	46	0	19184746496	24	14033
2026-01-28 21:22:26.44	252.06	25.98	-26.4	-26.2	14.2	2.67e-04	0	46	0	19528679424	24	14006
2026-01-28 21:22:29.47	253.38	26.15	-26.5	-26.3	14.3	3.07e-04	0	46	0	19864223744	24	14172
2026-01-28 21:22:32.49	254.71	26.31	-26.3	-26.1	14.1	3.34e-04	0	46	0	20208156672	24	13936
2026-01-28 21:22:35.52	256.06	26.46	-26.3	-26.1	14.1	3.49e-04	0	46	0	20543700992	24	13928
2026-01-28 21:22:38.54	257.42	26.59	-26.4	-26.2	14.2	3.17e-04	0	46	0	20887633920	24	14023
2026-01-28 21:22:41.56	258.79	26.71	-26.3	-26.0	14.2	3.24e-04	0	46	0	21231566848	24	13786
2026-01-28 21:22:44.58	260.17	26.81	-26.2	-26.0	14.1	3.95e-04	0	46	0	21567111168	24	13785
2026-01-28 21:22:47.60	261.56	26.90	-26.3	-26.0	14.1	3.41e-04	0	46	0	21902655488	24	13777
2026-01-28 21:22:50.62	262.96	26.96	-26.3	-26.1	14.2	3.20e-04	0	46	0	22238199808	24	13904
2026-01-28 21:22:53.64	264.36	27.02	-26.3	-26.1	14.2	3.30e-04	0	46	0	22582132736	24	13818
2026-01-28 21:22:56.66	265.76	27.05	-26.3	-26.1	14.2	3.51e-04	0	46	0	22926065664	24	13838
2026-01-28 21:22:59.68	267.17	27.07	-26.3	-26.1	14.2	2.80e-04	0	46	0	23261609984	24	13846
2026-01-28 21:23:02.68	268.57	27.07	-26.3	-26.1	14.1	2.96e-04	0	46	0	23605542912	24	13842
2026-01-28 21:23:05.70	269.98	27.05	-26.4	-26.2	14.2	2.76e-04	0	46	0	23941087232	24	14051
2026-01-28 21:23:08.71	271.38	27.02	-26.3	-26.1	14.1	2.88e-04	0	46	0	24276631552	24	13927
2026-01-28 21:23:11.74	272.79	26.97	-26.4	-26.2	14.1	3.49e-04	0	46	0	24628953088	24	13985
2026-01-28 21:23:14.76	274.19	26.90	-26.4	-26.2	14.2	2.92e-04	0	46	0	24964497408	24	13965
2026-01-28 21:23:17.79	275.58	26.81	-26.3	-26.1	14.2	2.84e-04	0	46	0	25300041728	24	13928
2026-01-28 21:23:20.81	276.96	26.71	-26.4	-26.2	14.2	2.88e-04	0	46	0	25635586048	24	14071
2026-01-28 21:23:23.82	278.33	26.60	-26.4	-26.2	14.2	2.78e-04	0	46	0	25979518976	24	14076
2026-01-28 21:23:26.85	279.69	26.46	-26.4	-26.2	14.2	2.55e-04	0	46	0	26323451904	24	14065
2026-01-28 21:23:29.87	281.04	26.32	-26.5	-26.3	14.2	2.27e-04	0	46	0	26667384832	24	14257
2026-01-28 21:23:32.89	282.37	26.16	-26.5	-26.3	14.1	3.18e-04	0	46	0	27002929152	24	14155
2026-01-28 21:23:35.91	283.69	25.98	-26.7	-26.5	14.0	3.17e-04	0	46	0	27338473472	24	14471
2026-01-28 21:23:38.93	284.99	25.79	-26.6	-26.4	14.1	2.84e-04	0	46	0	27674017792	24	14342
2026-01-28 21:23:41.95	286.27	25.59	-26.7	-26.5	14.0	2.82e-04	0	46	0	28026339328	24	14452
2026-01-28 21:23:44.97	287.54	25.38	-26.7	-26.5	14.0	2.50e-04	0	46	0	28361883648	24	14607
2026-01-28 21:23:47.99	288.79	25.16	-26.9	-26.7	13.9	2.71e-04	0	46	0	28697427968	24	14872
2026-01-28 21:23:51.01	290.01	24.92	-27.0	-26.8	13.9	3.53e-04	0	46	0	29032972288	24	14970
2026-01-28 21:23:54.03	291.22	24.68	-27.1	-26.9	13.9	3.01e-04	0	46	0	29376905216	24	15139
2026-01-28 21:23:57.05	292.41	24.43	-27.0	-26.8	13.9	3.17e-04	0	46	0	29720838144	24	15066
2026-01-28 21:24:00.08	293.58	24.16	-27.1	-27.0	13.9	3.47e-04	0	46	0	30064771072	24	15296
2026-01-28 21:24:03.09	294.72	23.89	-27.1	-26.9	13.8	3.11e-04	0	46	0	30400315392	24	15191
2026-01-28 21:24:06.12	295.85	23.61	-27.3	-27.1	13.8	3.51e-04	0	46	0	30735859712	25	14660
2026-01-28 21:24:09.13	296.95	23.33	-27.3	-27.1	13.8	3.30e-04	0	46	0	31071404032	25	14693
2026-01-28 21:24:12.15	298.03	23.04	-27.5	-27.3	13.8	3.18e-04	0	46	0	31423725568	25	15007
2026-01-28 21:24:15.18	299.09	22.75	-27.4	-27.2	13.8	2.97e-04	0	46	0	31759269888	25	14811
2026-01-28 21:24:18.20	300.13	22.45	-27.5	-27.3	13.8	3.15e-04	0	46	0	32094814208	25	15111
2026-01-28 21:24:21.22	301.14	22.14	-27.5	-27.3	13.8	3.22e-04	0	46	0	32430358528	25	15098
2026-01-28 21:24:24.25	302.14	21.83	-27.7	-27.5	13.8	3.68e-04	0	46	0	32782680064	25	15394
2026-01-28 21:24:27.27	303.11	21.52	-27.7	-27.5	13.7	2.94e-04	0	46	0	33118224384	26	14584
2026-01-28 21:24:30.28	304.06	21.21	-27.7	-27.5	13.8	2.97e-04	0	46	0	33462157312	26	14511
2026-01-28 21:24:33.30	304.98	20.89	-27.8	-27.6	13.7	3.18e-04	0	46	0	33797701632	26	14759
2026-01-28 21:24:36.32	305.89	20.57	-27.9	-27.7	13.7	3.28e-04	0	46	0	34133245952	26	14811
2026-01-28 21:24:39.33	306.78	20.25	-28.0	-27.8	13.7	3.32e-04	0	46	0	34468790272	26	15021
2026-01-28 21:24:42.35	307.65	19.93	-28.1	-27.9	13.7	3.36e-04	0	46	0	34821111808	26	15148
2026-01-28 21:24:45.38	308.50	19.61	-28.2	-28.0	13.7	2.92e-04	0	46	0	35156656128	27	14500
2026-01-28 21:24:48.40	309.33	19.29	-28.3	-28.1	13.7	3.20e-04	0	46	0	35492200448	27	14620
2026-01-28 21:24:51.42	310.13	18.97	-28.4	-28.2	13.7	2.82e-04	0	46	0	35827744768	27	14779
2026-01-28 21:24:54.44	310.93	18.65	-28.5	-28.3	13.7	3.01e-04	0	46	0	36180066304	27	15065
2026-01-28 21:24:57.46	311.70	18.33	-28.5	-28.3	13.8	2.96e-04	0	46	0	36515610624	27	15071
2026-01-28 21:25:00.47	312.45	18.01	-28.6	-28.4	13.7	3.41e-04	0	46	0	36859543552	27	15234
2026-01-28 21:25:03.49	313.19	17.69	-28.7	-28.5	13.7	3.58e-04	0	46	0	37195087872	28	14551
2026-01-28 21:25:06.50	313.90	17.37	-28.7	-28.5	13.8	3.34e-04	0	46	0	37530632192	28	14562
2026-01-28 21:25:09.52	314.61	17.05	-28.8	-28.7	13.7	3.87e-04	0	46	0	37866176512	28	14784
2026-01-28 21:25:12.53	315.29	16.74	-28.9	-28.7	13.8	3.22e-04	0	46	0	38201720832	28	14897
2026-01-28 21:25:15.55	315.96	16.42	-29.0	-28.8	13.9	4.02e-04	0	46	0	38554042368	28	15027
2026-01-28 21:25:18.57	316.62	16.11	-29.1	-28.9	13.8	4.56e-04	0	46	0	38889586688	29	14429
2026-01-28 21:25:21.59	317.26	15.80	-29.3	-29.1	13.8	4.46e-04	0	46	0	39225131008	29	14665
2026-01-28 21:25:24.62	317.88	15.49	-29.3	-29.1	13.8	4.79e-04	0	46	0	39569063936	29	14691
2026-01-28 21:25:27.63	318.49	15.19	-29.5	-29.3	13.8	4.54e-04	0	46	0	39904608256	29	15036
2026-01-28 21:25:30.65	319.09	14.88	-29.5	-29.4	13.8	4.86e-04	0	46	0	40256929792	29	15122
2026-01-28 21:25:33.67	319.67	14.58	-29.7	-29.5	13.8	4.88e-04	0	46	0	40592474112	30	14512
2026-01-28 21:25:36.69	320.25	14.28	-29.7	-29.5	13.8	5.36e-04	0	46	0	40928018432	30	14551
2026-01-28 21:25:39.71	320.80	13.99	-29.7	-29.5	13.8	4.81e-04	0	46	0	41263562752	30	14607
2026-01-28 21:25:42.73	321.35	13.69	-29.8	-29.6	13.8	4.86e-04	0	46	0	41599107072	30	14661
2026-01-28 21:25:45.75	321.88	13.40	-30.0	-29.8	13.8	5.28e-04	0	46	0	41951428608	30	15049
2026-01-28 21:25:48.78	322.40	13.11	-30.0	-29.8	13.9	5.11e-04	0	46	0	42286972928	30	15008
2026-01-28 21:25:51.80	322.91	12.82	-30.1	-29.9	13.8	5.87e-04	0	46	0	42622517248	30	15222
2026-01-28 21:25:54.82	323.41	12.54	-30.2	-30.0	13.9	5.78e-04	0	46	0	42966450176	31	14569
2026-01-28 21:25:57.84	323.90	12.25	-52.8	-54.6	6.2	0.00e+00	0	46	104	43209719808	76	18437
2026-01-28 21:26:00.85	324.38	11.98	-53.5	-55.6	6.2	0.00e+00	0	46	104	43209719808	77	19505
2026-01-28 21:26:03.87	324.84	11.70	-53.5	-55.6	6.2	0.00e+00	0	46	104	43209719808	77	19636
2026-01-28 21:26:06.88	325.30	11.43	-53.5	-55.6	6.2	0.00e+00	0	46	104	43209719808	77	19548
2026-01-28 21:26:09.90	325.75	11.15	-53.5	-55.6	6.2	0.00e+00	0	46	104	43209719808	77	19546
2026-01-28 21:26:12.93	326.19	10.88	-53.4	-55.5	6.2	0.00e+00	0	46	104	43209719808	77	19326
2026-01-28 21:26:15.95	326.61	10.62	-53.4	-55.5	6.2	0.00e+00	0	46	104	43209719808	77	19266
2026-01-28 21:26:18.97	327.03	10.35	-53.3	-55.4	6.2	0.00e+00	0	46	104	43209719808	77	19188
2026-01-28 21:26:21.98	327.44	10.09	-53.3	-55.4	6.2	0.00e+00	0	46	104	43209719808	77	19185
2026-01-28 21:26:25.00	327.85	9.83	-53.2	-55.3	6.2	0.00e+00	0	46	104	43209719808	77	18884
2026-01-28 21:26:28.02	328.24	9.57	-53.2	-55.2	6.2	0.00e+00	0	46	104	43209719808	77	18757
2026-01-28 21:26:31.04	328.63	9.32	-53.1	-55.2	6.2	0.00e+00	0	46	104	43209719808	77	18727
2026-01-28 21:26:34.06	329.01	9.07	-53.1	-55.2	6.2	0.00e+00	0	46	104	43209719808	77	18801
2026-01-28 21:26:37.08	329.38	8.82	-53.0	-55.1	6.2	0.00e+00	0	46	104	43209719808	77	18539
2026-01-28 21:26:40.10	329.74	8.57	-52.9	-55.1	6.2	0.00e+00	0	46	104	43209719808	77	18441
2026-01-28 21:26:43.12	330.10	8.32	-52.9	-55.0	6.2	0.00e+00	0	46	104	43209719808	77	18389
2026-01-28 21:26:46.13	330.45	8.08	-53.0	-55.0	6.2	0.00e+00	0	46	104	43209719808	77	18386
2026-01-28 21:26:49.16	330.80	7.84	-52.9	-54.9	6.2	0.00e+00	0	46	104	43209719808	77	18150
2026-01-28 21:26:52.18	331.13	7.60	-52.8	-54.9	6.2	0.00e+00	0	46	104	43209719808	77	18080
2026-01-28 21:26:55.20	331.47	7.36	-52.8	-54.9	6.2	0.00e+00	0	46	104	43209719808	77	18047
2026-01-28 21:26:58.22	331.79	7.13	-52.8	-54.9	6.2	0.00e+00	0	46	104	43209719808	77	18124
2026-01-28 21:27:01.24	332.11	6.90	-52.7	-54.8	6.2	0.00e+00	0	45	104	43209719808	77	17866
2026-01-28 21:27:04.26	332.42	6.67	-52.7	-54.8	6.2	0.00e+00	0	45	104	43209719808	77	17871
2026-01-28 21:27:07.28	332.73	6.44	-52.7	-54.8	6.2	0.00e+00	0	46	104	43209719808	77	17774
2026-01-28 21:27:10.29	333.03	6.21	-52.7	-54.8	6.2	0.00e+00	0	46	104	43209719808	77	17865
2026-01-28 21:27:13.32	333.33	5.99	-52.6	-54.6	6.2	0.00e+00	0	46	104	43209719808	77	17537
2026-01-28 21:27:16.34	333.62	5.77	-52.5	-54.6	6.2	0.00e+00	0	45	104	43209719808	77	17494
2026-01-28 21:27:19.35	333.91	5.55	-52.4	-54.5	6.2	0.00e+00	0	46	104	43209719808	76	18300
2026-01-28 21:27:22.36	334.19	5.33	-52.4	-54.4	6.2	0.00e+00	0	45	104	43209719808	76	18157
2026-01-28 21:27:25.38	334.46	5.11	-52.1	-54.2	6.2	0.00e+00	0	46	104	43209719808	75	18634
2026-01-28 21:27:28.41	334.73	4.90	-53.4	-55.5	6.2	0.00e+00	0	45	104	43209719808	77	19359
2026-01-28 21:27:31.43	335.00	4.68	-53.9	-56.0	6.2	0.00e+00	0	45	104	43209719808	78	19295
2026-01-28 21:27:34.45	335.26	4.47	-53.9	-55.9	6.2	0.00e+00	0	46	104	43209719808	78	19251
2026-01-28 21:27:37.47	335.52	4.26	-53.7	-55.8	6.2	0.00e+00	0	45	104	43209719808	78	18918
2026-01-28 21:27:40.49	335.78	4.05	-53.5	-55.6	6.2	0.00e+00	0	46	104	43209719808	78	18591
2026-01-28 21:27:43.51	336.03	3.85	-53.6	-55.7	6.2	0.00e+00	0	45	104	43209719808	78	18694
2026-01-28 21:27:46.54	336.27	3.64	-53.7	-55.8	6.2	0.00e+00	0	46	104	43209719808	78	18846
2026-01-28 21:27:49.57	336.52	3.44	-53.6	-55.7	6.2	0.00e+00	0	45	104	43209719808	78	18701
2026-01-28 21:27:52.59	336.75	3.24	-53.6	-55.7	6.2	0.00e+00	0	45	104	43209719808	78	18603
2026-01-28 21:27:55.60	336.99	3.04	-53.5	-55.6	6.2	0.00e+00	0	46	104	43209719808	78	18557
2026-01-28 21:27:58.63	337.22	2.84	-53.5	-55.6	6.2	0.00e+00	0	46	104	43209719808	78	18526
2026-01-28 21:28:01.65	337.45	2.64	-53.5	-55.6	6.2	0.00e+00	0	46	104	43209719808	78	18451
2026-01-28 21:28:04.68	337.67	2.45	-53.4	-55.5	6.2	0.00e+00	0	46	104	43209719808	78	18339
2026-01-28 21:28:07.69	337.89	2.25	-53.4	-55.5	6.2	0.00e+00	0	46	104	43209719808	78	18266
2026-01-28 21:28:10.71	338.11	2.06	-53.3	-55.4	6.2	0.00e+00	0	45	104	43209719808	78	18168
2026-01-28 21:28:13.73	338.32	1.87	-53.3	-55.4	6.2	0.00e+00	0	45	104	43209719808	78	18085

#Closed at: 2026-01-28 21:28:14
#Recorded file [43209 MB]: D:/lorett/data/31041_260129_001751.dat