passes_logs/2026/01/28/R3.2S_Murmansk/R3.2S_Murmansk__20260128_120744_AQUA_rec.log

#Pass ID: 20260128_120744_AQUA
#Satellite: AQUA
#Configuration: AQUA
#almurnet v.1.7.20251203
#Start time: 2026-01-28 12:07:45

#Version: 2.2.20231116
#Station: R3.2S_Murmansk
#Location: 33.079688 lon 68.888172 lat
#TLE: 1 27424U 02022A   26027.88561574  .00001798  00000+0  36942-3 0  9997
#TLE: 2 27424  98.4102 354.5311 0001840  63.5604 322.5877 14.61868111262779

#Time	Az	El	Level	Level2	SNR	BER	BlckErr	Temp	State	Recorded	gain1	gain2
2026-01-28 12:07:45.98	173.32	2.09	-53.9	-71.6	3.8	7.46e-01	0	40	0	0	79	27663
2026-01-28 12:07:50.02	173.44	2.36	-53.8	-71.6	3.8	7.43e-01	0	41	104	0	78	29144
2026-01-28 12:07:54.05	173.57	2.62	-53.8	-70.4	3.8	7.43e-01	0	41	104	0	78	25346
2026-01-28 12:07:58.09	173.69	2.90	-53.8	-69.6	3.9	7.42e-01	0	41	104	0	78	23159
2026-01-28 12:08:02.12	173.82	3.17	-53.8	-71.4	3.8	7.47e-01	0	41	104	0	78	28370
2026-01-28 12:08:06.15	173.95	3.45	-53.8	-70.1	3.8	7.44e-01	0	41	104	0	78	24417
2026-01-28 12:08:10.18	174.09	3.73	-53.8	-71.2	3.8	7.44e-01	0	41	104	0	78	27796
2026-01-28 12:08:14.21	174.22	4.01	-53.1	-61.4	9.0	6.35e-01	0	41	0	2097152	78	8969
2026-01-28 12:08:18.24	174.36	4.30	-50.2	-53.4	17.1	6.07e-01	0	41	0	9961472	72	5062
2026-01-28 12:08:22.27	174.50	4.59	-48.4	-50.7	20.0	6.04e-01	0	41	0	17301504	68	4654
2026-01-28 12:08:26.31	174.65	4.88	-49.5	-52.2	18.5	6.08e-01	0	41	0	24641536	69	5240
2026-01-28 12:08:30.34	174.80	5.18	-53.1	-61.6	7.6	6.45e-01	144	41	0	31981568	77	9786
2026-01-28 12:08:34.37	174.95	5.48	-47.7	-49.6	21.2	6.04e-01	0	41	0	39321600	67	4375
2026-01-28 12:08:38.40	175.10	5.78	-46.9	-48.6	22.3	6.05e-01	0	41	0	47185920	65	4350
2026-01-28 12:08:42.43	175.26	6.09	-46.6	-48.2	22.7	6.05e-01	0	42	0	54525952	64	4410
2026-01-28 12:08:46.46	175.41	6.40	-46.3	-47.8	23.1	6.04e-01	0	42	0	61865984	64	4219
2026-01-28 12:08:50.49	175.58	6.72	-46.0	-47.5	23.5	6.05e-01	0	42	0	69730304	64	4065
2026-01-28 12:08:54.52	175.74	7.04	-46.1	-47.6	23.5	6.07e-01	0	42	0	77070336	63	4344
2026-01-28 12:08:58.55	175.91	7.36	-46.0	-47.5	23.6	6.06e-01	0	42	0	84934656	63	4300
2026-01-28 12:09:02.58	176.09	7.69	-46.2	-47.7	23.5	6.06e-01	0	42	0	92274688	63	4392
2026-01-28 12:09:06.61	176.27	8.02	-45.9	-47.3	23.8	6.06e-01	0	42	0	100139008	63	4240
2026-01-28 12:09:10.63	176.45	8.36	-45.8	-47.2	24.0	6.04e-01	0	42	0	107479040	63	4166
2026-01-28 12:09:14.66	176.64	8.70	-46.0	-47.4	23.8	6.06e-01	0	42	0	114819072	63	4271
2026-01-28 12:09:18.70	176.83	9.05	-45.8	-47.2	24.0	6.05e-01	0	42	0	122683392	63	4169
2026-01-28 12:09:22.73	177.02	9.41	-45.7	-47.0	24.2	6.08e-01	0	42	0	130023424	63	4096
2026-01-28 12:09:26.76	177.22	9.77	-45.5	-46.8	24.5	6.04e-01	0	42	0	137363456	63	3999
2026-01-28 12:09:30.79	177.43	10.13	-45.4	-46.7	24.6	6.06e-01	0	42	0	145227776	62	4178
2026-01-28 12:09:34.81	177.64	10.50	-45.5	-46.8	24.5	6.04e-01	0	42	0	152567808	62	4220
2026-01-28 12:09:38.84	177.86	10.88	-45.4	-46.7	24.6	6.08e-01	0	42	0	160432128	62	4181
2026-01-28 12:09:42.87	178.08	11.26	-45.3	-46.7	24.7	6.04e-01	0	42	0	167772160	62	4147
2026-01-28 12:09:46.90	178.31	11.65	-45.3	-46.7	24.7	6.06e-01	0	42	0	175636480	62	4147
2026-01-28 12:09:50.93	178.54	12.04	-45.3	-46.6	24.8	6.05e-01	0	42	0	182976512	62	4112
2026-01-28 12:09:54.96	178.78	12.45	-45.2	-46.5	24.9	6.06e-01	0	42	0	190316544	62	4085
2026-01-28 12:09:59.00	179.03	12.86	-45.2	-46.5	24.9	6.05e-01	0	42	0	198180864	62	4067
2026-01-28 12:10:03.03	179.28	13.27	-45.0	-46.3	25.1	6.05e-01	0	42	0	205520896	62	3971
2026-01-28 12:10:07.06	179.54	13.70	-44.9	-46.1	25.2	6.04e-01	0	42	0	213385216	61	4144
2026-01-28 12:10:11.10	179.81	14.13	-44.9	-46.1	25.3	6.06e-01	0	42	0	220725248	61	4138
2026-01-28 12:10:15.13	180.09	14.57	-44.8	-46.1	25.3	6.06e-01	0	42	0	228589568	61	4109
2026-01-28 12:10:19.17	180.38	15.02	-44.8	-46.0	25.4	6.05e-01	0	42	0	235929600	61	4075
2026-01-28 12:10:23.20	180.67	15.48	-44.9	-46.1	25.3	6.05e-01	0	42	0	243793920	61	4122
2026-01-28 12:10:27.23	180.98	15.95	-44.7	-45.9	25.5	6.03e-01	0	42	0	251133952	61	4037
2026-01-28 12:10:31.27	181.29	16.43	-44.6	-45.9	25.6	6.06e-01	0	42	0	258473984	61	4010
2026-01-28 12:10:35.30	181.62	16.91	-44.6	-45.9	25.6	6.06e-01	0	42	0	266338304	61	4011
2026-01-28 12:10:39.33	181.95	17.41	-44.6	-45.8	25.6	6.05e-01	0	42	0	273678336	61	3992
2026-01-28 12:10:43.36	182.30	17.91	-44.5	-45.7	25.7	6.04e-01	0	42	0	281018368	61	3956
2026-01-28 12:10:47.38	182.66	18.43	-44.5	-45.6	25.8	6.04e-01	0	42	0	288882688	60	4145
2026-01-28 12:10:51.41	183.03	18.96	-44.7	-45.9	25.6	6.06e-01	0	42	0	296222720	60	4253
2026-01-28 12:10:55.44	183.41	19.50	-44.4	-45.6	25.9	6.03e-01	0	42	0	304087040	60	4113
2026-01-28 12:10:59.47	183.81	20.05	-44.6	-45.8	25.7	6.07e-01	0	42	0	311427072	60	4240
2026-01-28 12:11:03.50	184.23	20.62	-44.7	-45.9	25.7	6.05e-01	0	42	0	319291392	60	4257
2026-01-28 12:11:07.53	184.66	21.19	-44.6	-45.8	25.7	6.05e-01	0	42	0	326631424	60	4229
2026-01-28 12:11:11.56	185.10	21.78	-44.8	-46.1	25.5	6.05e-01	0	42	0	333971456	60	4343
2026-01-28 12:11:15.58	185.57	22.39	-44.8	-46.0	25.6	6.05e-01	0	43	0	341835776	60	4303
2026-01-28 12:11:19.62	186.05	23.00	-44.9	-46.1	25.6	6.06e-01	0	42	0	349175808	60	4354
2026-01-28 12:11:23.65	186.55	23.64	-45.0	-46.2	25.4	6.06e-01	0	42	0	357040128	60	4410
2026-01-28 12:11:27.67	187.07	24.28	-45.0	-46.2	25.4	6.06e-01	0	42	0	364380160	60	4426
2026-01-28 12:11:31.71	187.62	24.95	-45.1	-46.3	25.4	6.05e-01	0	42	0	371720192	60	4477
2026-01-28 12:11:35.74	188.19	25.63	-45.2	-46.4	25.3	6.06e-01	0	42	0	379584512	61	4274
2026-01-28 12:11:39.77	188.79	26.32	-45.0	-46.2	25.5	6.05e-01	0	42	0	386924544	61	4177
2026-01-28 12:11:43.81	189.41	27.03	-44.9	-46.1	25.6	6.03e-01	0	42	0	394788864	61	4140
2026-01-28 12:11:47.84	190.06	27.76	-44.4	-45.6	26.0	6.06e-01	0	42	0	402128896	60	4114
2026-01-28 12:11:51.86	190.75	28.51	-44.7	-45.9	25.8	6.03e-01	0	42	0	409468928	60	4282
2026-01-28 12:11:55.89	191.46	29.27	-49.0	-60.5	3.8	7.44e-01	0	42	104	411566080	68	14378
2026-01-28 12:11:59.92	192.21	30.05	-49.6	-61.1	3.8	7.47e-01	0	42	104	411566080	69	14625
2026-01-28 12:12:03.95	193.00	30.85	-47.2	-58.1	3.8	7.47e-01	0	42	104	411566080	64	13782
2026-01-28 12:12:07.97	193.83	31.66	-50.2	-61.8	3.7	7.44e-01	0	42	104	411566080	70	14926
2026-01-28 12:12:12.00	194.70	32.50	-47.4	-58.1	4.1	7.35e-01	0	42	104	411566080	65	13078
2026-01-28 12:12:16.03	195.62	33.35	-50.7	-62.7	3.8	7.45e-01	0	42	104	411566080	71	15696
2026-01-28 12:12:20.07	196.60	34.22	-49.8	-61.6	3.9	7.49e-01	0	42	104	411566080	70	14665
2026-01-28 12:12:24.10	197.62	35.11	-50.6	-62.6	3.8	7.45e-01	0	42	104	411566080	71	15402
2026-01-28 12:12:28.13	198.71	36.02	-51.0	-63.2	3.8	7.41e-01	0	43	104	411566080	74	13964
2026-01-28 12:12:32.15	199.85	36.93	-50.5	-62.4	3.8	7.44e-01	0	42	104	411566080	71	15156
2026-01-28 12:12:36.19	201.06	37.87	-49.8	-61.4	3.9	7.45e-01	0	43	104	411566080	71	13544
2026-01-28 12:12:40.22	202.35	38.82	-49.9	-61.6	3.9	7.47e-01	0	42	104	411566080	71	13841
2026-01-28 12:12:44.25	203.71	39.78	-48.3	-59.5	3.8	7.44e-01	0	42	104	411566080	68	12947
2026-01-28 12:12:48.28	205.16	40.75	-49.0	-60.5	3.8	7.45e-01	0	42	104	411566080	69	13643
2026-01-28 12:12:52.31	206.70	41.73	-46.8	-57.8	3.8	7.48e-01	0	42	104	411566080	65	12571
2026-01-28 12:12:56.35	208.34	42.71	-47.7	-58.8	3.8	7.44e-01	0	42	104	411566080	67	12641
2026-01-28 12:13:00.38	210.08	43.69	-44.8	-55.5	3.8	7.45e-01	0	43	104	411566080	61	12191
2026-01-28 12:13:04.41	211.92	44.67	-45.1	-55.8	3.8	7.47e-01	0	42	104	411566080	62	11913
2026-01-28 12:13:08.44	213.89	45.63	-47.1	-58.2	3.8	7.46e-01	0	43	104	411566080	66	12398
2026-01-28 12:13:12.48	215.98	46.59	-46.0	-56.9	3.9	7.44e-01	0	42	104	411566080	64	11985
2026-01-28 12:13:16.51	218.20	47.52	-45.2	-55.8	3.8	7.42e-01	0	43	104	411566080	62	11949
2026-01-28 12:13:20.54	220.55	48.43	-46.0	-56.9	3.8	7.47e-01	0	43	104	411566080	63	12694
2026-01-28 12:13:24.57	223.04	49.30	-46.6	-57.5	3.8	7.47e-01	0	43	104	411566080	63	13578
2026-01-28 12:13:28.61	225.68	50.13	-44.9	-55.6	3.9	7.49e-01	0	42	104	411566080	61	12320
2026-01-28 12:13:32.64	228.46	50.90	-45.8	-56.9	3.8	7.46e-01	0	42	104	411566080	62	13439
2026-01-28 12:13:36.67	231.38	51.62	-45.4	-56.3	3.8	7.42e-01	0	43	104	411566080	62	12521
2026-01-28 12:13:40.70	234.44	52.27	-48.2	-59.4	3.8	7.44e-01	0	42	104	411566080	67	13553
2026-01-28 12:13:44.73	237.62	52.83	-45.3	-55.9	3.8	7.47e-01	0	43	104	411566080	62	12076
2026-01-28 12:13:48.75	240.92	53.32	-46.7	-57.4	3.8	7.46e-01	0	42	104	411566080	64	12806
2026-01-28 12:13:52.78	244.32	53.71	-45.8	-56.7	3.8	7.46e-01	0	43	104	411566080	63	12421
2026-01-28 12:13:56.80	247.79	54.00	-48.8	-60.1	3.8	7.45e-01	0	42	104	411566080	69	13099
2026-01-28 12:14:00.82	251.32	54.18	-45.9	-56.8	3.8	7.46e-01	0	43	104	411566080	63	12572
2026-01-28 12:14:04.86	254.90	54.26	-47.3	-58.4	3.8	7.46e-01	0	43	104	411566080	65	13456
2026-01-28 12:14:08.88	258.47	54.22	-46.2	-57.1	3.8	7.46e-01	0	42	104	411566080	64	12291
2026-01-28 12:14:12.92	262.03	54.08	-49.0	-60.2	3.8	7.39e-01	0	43	104	411566080	70	12457
2026-01-28 12:14:16.95	265.54	53.83	-45.9	-56.7	3.8	7.46e-01	0	43	104	411566080	63	12408
2026-01-28 12:14:20.99	268.98	53.48	-47.7	-58.5	3.8	7.45e-01	0	43	104	411566080	65	13652
2026-01-28 12:14:25.03	272.33	53.03	-45.7	-56.5	3.8	7.46e-01	0	42	104	411566080	63	12154
2026-01-28 12:14:29.06	275.56	52.50	-47.7	-58.8	3.8	7.45e-01	0	43	104	411566080	65	14054
2026-01-28 12:14:33.08	278.65	51.88	-45.7	-56.4	3.8	7.41e-01	0	43	104	411566080	63	12028
2026-01-28 12:14:37.11	281.62	51.19	-47.9	-59.0	3.8	7.43e-01	0	43	104	411566080	66	13573
2026-01-28 12:14:41.14	284.45	50.44	-45.9	-56.7	3.8	7.43e-01	0	43	104	411566080	63	12487
2026-01-28 12:14:45.17	287.14	49.64	-48.0	-59.2	3.8	7.44e-01	0	43	104	411566080	66	13982
2026-01-28 12:14:49.21	289.69	48.78	-46.1	-57.0	3.8	7.45e-01	0	43	104	411566080	63	12871
2026-01-28 12:14:53.24	292.09	47.89	-47.4	-58.3	3.9	7.44e-01	0	43	104	411566080	66	12585
2026-01-28 12:14:57.28	294.36	46.97	-46.4	-57.2	3.8	7.46e-01	0	43	104	411566080	64	12502
2026-01-28 12:15:01.29	296.48	46.03	-47.2	-58.0	3.8	7.46e-01	0	43	104	411566080	65	12880
2026-01-28 12:15:05.33	298.50	45.07	-45.8	-56.5	3.8	7.39e-01	0	43	104	411566080	63	12128
2026-01-28 12:15:09.36	300.39	44.10	-47.5	-58.4	3.8	7.45e-01	0	43	104	411566080	66	12751
2026-01-28 12:15:13.40	302.17	43.12	-45.9	-56.9	3.8	7.43e-01	0	42	104	411566080	63	12765
2026-01-28 12:15:17.42	303.84	42.15	-48.7	-59.9	3.8	7.49e-01	0	43	104	411566080	67	14289
2026-01-28 12:15:21.45	305.41	41.17	-46.0	-56.6	3.8	7.42e-01	0	43	104	411566080	63	12312
2026-01-28 12:15:25.48	306.89	40.21	-48.6	-59.9	3.8	7.45e-01	0	43	104	411566080	67	14364
2026-01-28 12:15:29.51	308.28	39.25	-45.9	-56.6	3.9	7.43e-01	0	43	104	411566080	63	12344
2026-01-28 12:15:33.54	309.60	38.30	-50.9	-63.1	3.8	7.45e-01	0	42	104	411566080	72	15455
2026-01-28 12:15:37.57	310.84	37.36	-45.8	-56.5	3.8	7.45e-01	0	43	104	411566080	63	12218
2026-01-28 12:15:41.60	312.01	36.44	-53.1	-66.2	3.8	7.46e-01	0	43	104	411566080	76	17493
2026-01-28 12:15:45.63	313.11	35.53	-45.2	-56.0	3.8	7.44e-01	0	43	104	411566080	62	12139
2026-01-28 12:15:49.66	314.16	34.64	-52.8	-65.7	3.8	7.48e-01	0	43	104	411566080	75	17526
2026-01-28 12:15:53.69	315.15	33.77	-44.7	-55.4	3.8	7.46e-01	0	42	104	411566080	61	12038
2026-01-28 12:15:57.72	316.09	32.91	-53.8	-67.9	3.8	7.47e-01	0	43	104	411566080	78	19020
2026-01-28 12:16:01.76	316.98	32.07	-44.1	-54.9	3.8	7.47e-01	0	43	104	411566080	60	12085
2026-01-28 12:16:05.79	317.83	31.25	-54.0	-68.3	3.8	7.46e-01	0	43	104	411566080	78	19846
2026-01-28 12:16:09.81	318.63	30.45	-44.0	-54.6	3.8	7.41e-01	0	42	104	411566080	60	11578
2026-01-28 12:16:13.84	319.40	29.66	-54.1	-68.7	3.8	7.45e-01	0	43	104	411566080	78	20892
2026-01-28 12:16:17.87	320.13	28.89	-44.3	-55.0	3.8	7.42e-01	0	43	104	411566080	60	12131
2026-01-28 12:16:21.89	320.82	28.15	-54.1	-68.7	3.8	7.46e-01	0	43	104	411566080	78	20883
2026-01-28 12:16:25.92	321.49	27.41	-44.8	-55.4	3.8	7.41e-01	0	42	104	411566080	61	11985
2026-01-28 12:16:29.95	322.12	26.70	-54.2	-69.2	3.8	7.47e-01	0	43	104	411566080	79	20947
2026-01-28 12:16:33.98	322.73	26.00	-45.1	-55.8	3.8	7.46e-01	0	43	104	411566080	62	11941
2026-01-28 12:16:38.01	323.31	25.32	-54.3	-69.4	3.8	7.48e-01	0	43	104	411566080	79	21416
2026-01-28 12:16:42.04	323.86	24.65	-45.3	-56.1	3.8	7.46e-01	0	42	104	411566080	62	12298
2026-01-28 12:16:46.06	324.39	24.00	-54.3	-69.7	3.8	7.44e-01	0	43	104	411566080	79	22170
2026-01-28 12:16:50.10	324.91	23.37	-45.1	-55.8	3.8	7.43e-01	0	43	104	411566080	62	11849
2026-01-28 12:16:54.13	325.40	22.74	-54.3	-69.9	3.8	7.45e-01	0	43	104	411566080	79	22733
2026-01-28 12:16:58.16	325.87	22.14	-45.0	-55.8	3.8	7.44e-01	0	43	104	411566080	62	11858
2026-01-28 12:17:02.18	326.32	21.54	-54.2	-69.6	3.8	7.42e-01	0	43	104	411566080	79	21951
2026-01-28 12:17:06.21	326.76	20.96	-44.9	-55.8	3.8	7.45e-01	0	43	104	411566080	61	12548
2026-01-28 12:17:10.24	327.18	20.40	-54.1	-69.6	3.8	7.47e-01	0	42	104	411566080	79	21861
2026-01-28 12:17:14.28	327.59	19.84	-44.8	-55.4	3.9	7.42e-01	0	43	104	411566080	61	12048
2026-01-28 12:17:18.31	327.98	19.30	-52.9	-66.2	3.9	7.43e-01	0	43	104	411566080	77	16557
2026-01-28 12:17:22.34	328.36	18.77	-44.5	-55.2	3.8	7.45e-01	0	43	104	411566080	61	11742
2026-01-28 12:17:26.37	328.72	18.25	-52.8	-66.4	3.9	7.45e-01	0	43	104	411566080	77	16977
2026-01-28 12:17:30.39	329.08	17.74	-44.6	-55.4	3.8	7.41e-01	0	43	104	411566080	61	12019
2026-01-28 12:17:34.43	329.42	17.24	-51.0	-63.5	3.9	7.45e-01	0	42	104	411566080	74	14534
2026-01-28 12:17:38.46	329.75	16.75	-44.7	-55.5	3.8	7.44e-01	0	43	104	411566080	61	12233
2026-01-28 12:17:42.49	330.07	16.27	-49.5	-61.2	3.9	7.47e-01	0	43	104	411566080	71	13248
2026-01-28 12:17:46.52	330.38	15.80	-44.6	-55.3	3.8	7.48e-01	0	43	104	411566080	61	11906
2026-01-28 12:17:50.55	330.68	15.34	-50.9	-62.9	3.8	7.43e-01	0	43	104	411566080	73	14245
2026-01-28 12:17:54.58	330.97	14.89	-45.3	-56.0	3.9	7.44e-01	0	43	104	411566080	62	12158
2026-01-28 12:17:58.62	331.25	14.45	-50.1	-62.0	3.8	7.45e-01	0	43	104	411566080	72	13621
2026-01-28 12:18:02.65	331.53	14.01	-45.5	-56.3	3.8	7.46e-01	0	43	104	411566080	62	12537
2026-01-28 12:18:06.67	331.79	13.59	-50.1	-62.1	3.8	7.48e-01	0	43	104	411566080	72	13734
2026-01-28 12:18:10.70	332.05	13.17	-45.3	-56.1	3.8	7.46e-01	0	43	104	411566080	62	12300
2026-01-28 12:18:14.73	332.30	12.76	-49.9	-61.6	3.9	7.47e-01	0	43	104	411566080	71	13812
2026-01-28 12:18:18.76	332.55	12.35	-45.7	-56.5	3.8	7.45e-01	0	43	104	411566080	63	12192
2026-01-28 12:18:22.79	332.79	11.96	-49.7	-61.5	3.8	7.42e-01	0	43	104	411566080	71	13585
2026-01-28 12:18:26.82	333.02	11.56	-45.9	-56.8	3.8	7.45e-01	0	42	104	411566080	63	12650
2026-01-28 12:18:30.85	333.25	11.18	-48.0	-49.9	21.0	6.02e-01	0	43	0	415236096	68	4273
2026-01-28 12:18:34.88	333.47	10.80	-45.3	-46.7	24.3	6.03e-01	0	42	0	423100416	62	4151
2026-01-28 12:18:38.91	333.68	10.43	-45.0	-46.3	24.6	6.01e-01	0	43	0	430440448	61	4207
2026-01-28 12:18:42.95	333.89	10.06	-44.7	-45.9	25.0	6.01e-01	0	42	0	437780480	61	4046
2026-01-28 12:18:46.97	334.10	9.70	-44.8	-46.1	24.8	6.02e-01	0	43	0	445644800	61	4113
2026-01-28 12:18:50.99	334.30	9.35	-44.8	-46.1	24.8	6.04e-01	0	43	0	452984832	61	4125
2026-01-28 12:18:55.02	334.49	9.00	-45.0	-46.4	24.5	6.03e-01	0	42	0	460849152	61	4248
2026-01-28 12:18:59.05	334.68	8.66	-45.1	-46.4	24.5	6.01e-01	0	43	0	468189184	61	4284
2026-01-28 12:19:03.07	334.87	8.32	-45.0	-46.4	24.4	6.02e-01	0	43	0	475529216	61	4255
2026-01-28 12:19:07.09	335.05	7.98	-45.1	-46.5	24.3	6.03e-01	0	43	0	483393536	61	4317
2026-01-28 12:19:11.13	335.23	7.65	-45.4	-46.7	24.1	6.03e-01	0	43	0	490733568	61	4438
2026-01-28 12:19:15.16	335.40	7.33	-45.5	-46.9	24.0	6.04e-01	0	42	0	498073600	61	4511
2026-01-28 12:19:19.19	335.57	7.01	-45.4	-46.9	23.8	6.03e-01	0	42	0	505937920	61	4507
2026-01-28 12:19:23.22	335.74	6.69	-45.8	-47.3	23.5	6.02e-01	0	42	0	513277952	62	4442
2026-01-28 12:19:27.25	335.90	6.38	-45.7	-47.2	23.6	6.03e-01	0	42	0	521142272	62	4393
2026-01-28 12:19:31.28	336.06	6.07	-45.9	-47.4	23.3	6.04e-01	0	42	0	528482304	62	4499
2026-01-28 12:19:35.31	336.22	5.76	-45.8	-47.3	23.3	6.04e-01	0	43	0	536346624	62	4460
2026-01-28 12:19:39.35	336.38	5.46	-45.9	-47.5	23.1	6.02e-01	0	43	0	543686656	62	4561
2026-01-28 12:19:43.38	336.53	5.17	-46.1	-47.6	22.9	6.00e-01	0	42	0	551026688	63	4384
2026-01-28 12:19:47.41	336.68	4.87	-54.3	-68.5	4.1	7.35e-01	0	43	104	555745280	79	19235
2026-01-28 12:19:51.44	336.82	4.58	-54.9	-72.7	3.8	7.45e-01	0	43	104	555745280	80	29538
2026-01-28 12:19:55.47	336.96	4.30	-55.0	-72.9	3.8	7.48e-01	0	43	104	555745280	80	30068
2026-01-28 12:19:59.49	337.10	4.01	-54.8	-72.6	3.8	7.42e-01	0	43	104	555745280	80	29126
2026-01-28 12:20:03.52	337.24	3.73	-54.9	-72.6	3.8	7.45e-01	0	43	104	555745280	80	29255
2026-01-28 12:20:07.55	337.38	3.45	-54.8	-72.7	3.8	7.47e-01	0	43	104	555745280	80	29362
2026-01-28 12:20:11.59	337.51	3.18	-54.7	-72.6	3.8	7.45e-01	0	43	104	555745280	80	29047
2026-01-28 12:20:15.61	337.64	2.91	-54.7	-72.5	3.8	7.46e-01	0	43	104	555745280	80	28876
2026-01-28 12:20:19.65	337.77	2.64	-54.7	-72.5	3.8	7.44e-01	0	43	104	555745280	80	28811
2026-01-28 12:20:23.68	337.89	2.37	-54.7	-72.5	3.8	7.44e-01	0	43	104	555745280	80	28759
2026-01-28 12:20:27.71	338.02	2.11	-54.7	-72.5	3.8	7.44e-01	0	43	104	555745280	80	28779

#Closed at: 2026-01-28 12:20:30
#Recorded file [555 MB]: D:/lorett/data/31041_260128_150745.dat