passes_logs/2026/01/28/R3.2S_Murmansk/R3.2S_Murmansk__20260128_113705_NOAA_21_JPSS-2_rec.log

#Pass ID: 20260128_113705_NOAA 21 (JPSS-2)
#Satellite: NOAA 21 (JPSS-2)
#Configuration: NOAA-21
#almurnet v.1.7.20251203
#Start time: 2026-01-28 11:37:06

#Version: 2.2.20231116
#Station: R3.2S_Murmansk
#Location: 33.079688 lon 68.888172 lat
#TLE: 1 54234U 22150A   26027.77052245  .00000166  00000+0  99439-4 0  9997
#TLE: 2 54234  98.7510 328.5165 0000872 203.6403 156.4733 14.19540252166628

#Time	Az	El	Level	Level2	SNR	BER	BlckErr	Temp	State	Recorded	gain1	gain2
2026-01-28 11:37:06.26	204.23	2.04	-54.4	-67.1	3.8	1.49e+00	0	43	0	0	79	16498
2026-01-28 11:37:10.28	204.49	2.27	-54.3	-67.0	3.8	1.49e+00	0	43	104	0	79	16296
2026-01-28 11:37:14.31	204.74	2.51	-54.1	-66.9	3.8	1.49e+00	0	43	104	0	79	15968
2026-01-28 11:37:18.35	205.00	2.74	-53.9	-66.6	3.8	1.49e+00	0	43	104	0	79	15521
2026-01-28 11:37:22.37	205.26	2.98	-53.2	-66.0	3.8	1.49e+00	0	43	104	0	78	15256
2026-01-28 11:37:26.41	205.53	3.22	-52.4	-65.0	3.8	1.49e+00	0	43	104	0	76	15260
2026-01-28 11:37:30.45	205.80	3.46	-52.4	-65.1	3.8	1.49e+00	0	43	104	0	76	15415
2026-01-28 11:37:34.48	206.08	3.70	-52.4	-65.1	3.8	1.49e+00	0	43	104	0	76	15414
2026-01-28 11:37:38.51	206.36	3.94	-52.2	-63.8	3.8	1.49e+00	0	43	104	0	76	13390
2026-01-28 11:37:42.54	206.65	4.19	-51.9	-60.8	4.4	1.43e+00	0	43	104	0	75	9997
2026-01-28 11:37:46.57	206.93	4.43	-51.7	-59.7	4.9	1.11e+00	0	43	104	0	75	8836
2026-01-28 11:37:50.60	207.23	4.68	-49.9	-53.6	10.3	7.39e-03	0	43	0	11534336	71	5489
2026-01-28 11:37:54.63	207.53	4.93	-48.8	-51.6	12.4	1.55e-04	0	43	0	24117248	69	4889
2026-01-28 11:37:58.66	207.83	5.18	-46.2	-47.8	15.7	8.64e-01	0	43	104	33554432	64	4217
2026-01-28 11:38:02.69	208.14	5.43	-45.3	-46.6	17.5	0.00e+00	0	43	0	45088768	62	4129
2026-01-28 11:38:06.72	208.45	5.69	-45.2	-46.6	17.5	0.00e+00	0	43	0	57671680	62	4110
2026-01-28 11:38:10.75	208.77	5.95	-45.0	-46.3	17.8	0.00e+00	0	43	0	70254592	62	3998
2026-01-28 11:38:14.78	209.09	6.20	-44.9	-46.2	18.0	0.00e+00	0	43	0	82837504	61	4170
2026-01-28 11:38:18.81	209.42	6.46	-44.8	-46.0	18.1	0.00e+00	0	43	0	95420416	61	4089
2026-01-28 11:38:22.85	209.76	6.73	-44.9	-46.1	18.1	0.00e+00	0	43	0	108003328	61	4132
2026-01-28 11:38:26.89	210.10	6.99	-45.1	-46.3	17.9	0.00e+00	0	43	0	120586240	61	4233
2026-01-28 11:38:30.92	210.45	7.26	-44.7	-45.9	18.3	0.00e+00	0	43	0	133169152	61	4017
2026-01-28 11:38:34.95	210.80	7.53	-44.8	-46.1	18.2	0.00e+00	0	43	0	145752064	61	4111
2026-01-28 11:38:38.99	211.16	7.80	-44.9	-46.2	18.1	0.00e+00	0	43	0	158334976	61	4175
2026-01-28 11:38:43.02	211.53	8.07	-44.9	-46.2	18.2	0.00e+00	0	43	0	170917888	61	4152
2026-01-28 11:38:47.06	211.90	8.34	-45.0	-46.2	18.1	0.00e+00	0	43	0	184549376	61	4184
2026-01-28 11:38:51.08	212.28	8.62	-44.5	-45.7	18.7	0.00e+00	0	43	0	196083712	61	3932
2026-01-28 11:38:55.12	212.67	8.90	-44.5	-45.7	18.7	0.00e+00	0	43	0	208666624	60	4170
2026-01-28 11:38:59.16	213.06	9.18	-44.4	-45.5	18.9	0.00e+00	0	43	0	222298112	60	4084
2026-01-28 11:39:03.19	213.46	9.46	-44.3	-45.4	19.0	0.00e+00	0	42	0	234881024	60	4049
2026-01-28 11:39:07.22	213.87	9.74	-44.3	-45.4	19.4	0.00e+00	0	43	0	246415360	59	4253
2026-01-28 11:39:11.26	214.29	10.03	-44.3	-45.4	19.4	0.00e+00	0	43	0	260046848	59	4254
2026-01-28 11:39:15.29	214.71	10.31	-44.1	-45.1	19.6	0.00e+00	0	43	0	272629760	59	4139
2026-01-28 11:39:19.32	215.14	10.60	-44.0	-45.1	19.7	0.00e+00	0	42	0	285212672	59	4101
2026-01-28 11:39:23.35	215.58	10.90	-43.9	-45.0	19.8	0.00e+00	0	43	0	296747008	59	4062
2026-01-28 11:39:27.38	216.03	11.19	-43.9	-44.9	19.9	0.00e+00	0	43	0	310378496	59	4034
2026-01-28 11:39:31.41	216.49	11.48	-43.8	-44.8	20.0	0.00e+00	0	43	0	322961408	59	3974
2026-01-28 11:39:35.44	216.95	11.78	-43.8	-44.9	20.0	0.00e+00	0	43	0	335544320	59	4009
2026-01-28 11:39:39.48	217.43	12.08	-43.6	-44.6	20.2	0.00e+00	0	43	0	348127232	59	3892
2026-01-28 11:39:43.51	217.91	12.38	-43.5	-44.5	20.3	0.00e+00	0	43	0	360710144	59	3852
2026-01-28 11:39:47.53	218.41	12.69	-43.5	-44.5	20.3	0.00e+00	0	43	0	373293056	58	4065
2026-01-28 11:39:51.57	218.91	12.99	-43.3	-44.3	20.5	0.00e+00	0	43	0	385875968	58	3965
2026-01-28 11:39:55.61	219.43	13.30	-43.3	-44.2	20.6	0.00e+00	0	43	0	398458880	58	3946
2026-01-28 11:39:59.63	219.95	13.61	-43.4	-44.4	20.4	0.00e+00	0	43	0	411041792	58	4036
2026-01-28 11:40:03.67	220.49	13.92	-43.6	-44.6	20.3	0.00e+00	0	43	0	423624704	58	4105
2026-01-28 11:40:07.70	221.03	14.23	-43.6	-44.6	20.2	0.00e+00	0	43	0	436207616	58	4140
2026-01-28 11:40:11.73	221.59	14.55	-43.8	-44.8	20.1	0.00e+00	0	43	0	448790528	58	4203
2026-01-28 11:40:15.76	222.16	14.86	-43.7	-44.7	20.2	0.00e+00	0	43	0	461373440	58	4180
2026-01-28 11:40:19.80	222.74	15.18	-43.9	-44.9	20.0	0.00e+00	0	43	0	473956352	58	4266
2026-01-28 11:40:23.83	223.34	15.50	-43.7	-44.6	20.3	0.00e+00	0	43	0	486539264	58	4138
2026-01-28 11:40:27.87	223.94	15.82	-43.7	-44.7	20.3	0.00e+00	0	43	0	499122176	58	4181
2026-01-28 11:40:31.90	224.56	16.14	-43.7	-44.7	20.2	0.00e+00	0	43	0	511705088	58	4184
2026-01-28 11:40:35.94	225.19	16.46	-43.8	-44.8	20.2	0.00e+00	0	43	0	524288000	58	4214
2026-01-28 11:40:39.97	225.84	16.78	-43.8	-44.8	20.1	0.00e+00	0	43	0	536870912	58	4241
2026-01-28 11:40:44.01	226.50	17.11	-43.9	-45.0	20.1	0.00e+00	0	43	0	549453824	58	4292
2026-01-28 11:40:48.04	227.17	17.43	-44.1	-45.2	19.9	0.00e+00	0	43	0	562036736	58	4394
2026-01-28 11:40:52.07	227.85	17.75	-44.1	-45.2	19.9	0.00e+00	0	43	0	574619648	59	4172
2026-01-28 11:40:56.10	228.55	18.08	-43.9	-44.9	20.1	0.00e+00	0	43	0	587202560	59	4037
2026-01-28 11:41:00.14	229.27	18.40	-44.0	-45.0	20.0	0.00e+00	0	42	0	599785472	59	4061
2026-01-28 11:41:04.17	230.00	18.73	-43.8	-44.8	20.3	0.00e+00	0	43	0	612368384	59	3961
2026-01-28 11:41:08.21	230.74	19.05	-43.5	-44.5	20.5	0.00e+00	0	43	0	624951296	59	3827
2026-01-28 11:41:12.24	231.50	19.38	-43.3	-44.2	20.7	0.00e+00	0	43	0	637534208	58	3939
2026-01-28 11:41:16.26	232.28	19.70	-43.2	-44.1	20.8	0.00e+00	0	42	0	650117120	58	3897
2026-01-28 11:41:20.30	233.07	20.02	-43.1	-44.0	21.0	0.00e+00	0	43	0	662700032	58	3847
2026-01-28 11:41:24.33	233.88	20.34	-43.1	-44.0	21.0	0.00e+00	0	43	0	675282944	58	3856
2026-01-28 11:41:28.36	234.71	20.66	-42.8	-43.7	21.2	0.00e+00	0	43	0	687865856	57	3929
2026-01-28 11:41:32.39	235.55	20.98	-42.6	-43.4	21.4	0.00e+00	0	43	0	700448768	57	3820
2026-01-28 11:41:36.43	236.41	21.30	-42.3	-43.1	21.7	0.00e+00	0	42	0	713031680	56	3906
2026-01-28 11:41:40.45	237.28	21.61	-42.1	-42.9	21.9	0.00e+00	0	42	0	725614592	56	3810
2026-01-28 11:41:44.49	238.18	21.92	-41.8	-42.6	22.1	0.00e+00	0	43	0	738197504	55	3905
2026-01-28 11:41:48.52	239.09	22.22	-41.9	-42.7	22.1	0.00e+00	0	42	0	750780416	55	3926
2026-01-28 11:41:52.55	240.01	22.52	-41.9	-42.7	22.1	0.00e+00	0	43	0	763363328	55	3932
2026-01-28 11:41:56.59	240.96	22.82	-41.9	-42.8	22.0	0.00e+00	0	42	0	775946240	55	3965
2026-01-28 11:42:00.62	241.92	23.12	-42.1	-42.9	21.8	0.00e+00	0	43	0	788529152	55	4035
2026-01-28 11:42:04.65	242.90	23.40	-42.1	-42.9	21.8	0.00e+00	0	43	0	801112064	55	4029
2026-01-28 11:42:08.68	243.90	23.69	-42.1	-43.0	21.8	0.00e+00	0	43	0	813694976	55	4074
2026-01-28 11:42:12.72	244.92	23.96	-42.3	-43.1	21.7	0.00e+00	0	43	0	826277888	55	4144
2026-01-28 11:42:16.75	245.95	24.23	-42.5	-43.4	21.4	0.00e+00	0	43	0	838860800	55	4258
2026-01-28 11:42:20.79	247.01	24.50	-42.6	-43.5	21.4	0.00e+00	0	43	0	851443712	56	4083
2026-01-28 11:42:24.82	248.07	24.75	-42.5	-43.3	21.5	0.00e+00	0	43	0	864026624	56	3997
2026-01-28 11:42:28.85	249.16	25.00	-42.6	-43.5	21.4	0.00e+00	0	43	0	876609536	56	4076
2026-01-28 11:42:32.88	250.26	25.24	-42.7	-43.6	21.4	0.00e+00	0	43	0	890241024	56	4103
2026-01-28 11:42:36.91	251.37	25.47	-42.8	-43.7	21.2	0.00e+00	0	43	0	901775360	56	4175
2026-01-28 11:42:40.95	252.51	25.69	-42.9	-43.8	21.2	0.00e+00	0	43	0	914358272	56	4212
2026-01-28 11:42:44.99	253.66	25.90	-42.6	-43.5	21.4	0.00e+00	0	43	0	927989760	56	4067
2026-01-28 11:42:49.02	254.82	26.10	-42.6	-43.5	21.5	0.00e+00	0	43	0	940572672	56	4078
2026-01-28 11:42:53.05	256.00	26.29	-42.7	-43.6	21.4	0.00e+00	0	42	0	952107008	56	4131
2026-01-28 11:42:57.08	257.19	26.46	-42.8	-43.7	21.3	0.00e+00	0	43	0	965738496	56	4152
2026-01-28 11:43:01.12	258.39	26.63	-42.7	-43.5	21.4	0.00e+00	0	43	0	978321408	56	4092
2026-01-28 11:43:05.16	259.61	26.78	-42.8	-43.6	21.3	0.00e+00	0	43	0	989855744	56	4142
2026-01-28 11:43:09.18	260.83	26.92	-42.7	-43.6	21.4	0.00e+00	0	42	0	1003487232	56	4102
2026-01-28 11:43:13.22	262.06	27.05	-42.6	-43.4	21.6	0.00e+00	0	43	0	1016070144	56	4037
2026-01-28 11:43:17.25	263.31	27.16	-42.5	-43.4	21.6	0.00e+00	0	42	0	1028653056	56	4015
2026-01-28 11:43:21.28	264.56	27.26	-42.4	-43.2	21.8	0.00e+00	0	43	0	1041235968	56	3936
2026-01-28 11:43:25.32	265.82	27.35	-42.6	-43.4	21.6	0.00e+00	0	43	0	1053818880	56	4037
2026-01-28 11:43:29.35	267.08	27.42	-42.6	-43.5	21.5	0.00e+00	0	43	0	1066401792	56	4063
2026-01-28 11:43:33.38	268.35	27.47	-42.5	-43.4	21.7	0.00e+00	0	43	0	1078984704	56	4016
2026-01-28 11:43:37.42	269.63	27.51	-42.7	-43.6	21.5	0.00e+00	0	43	0	1091567616	56	4120
2026-01-28 11:43:41.45	270.90	27.54	-42.5	-43.4	21.7	0.00e+00	0	43	0	1104150528	56	4005
2026-01-28 11:43:45.48	272.18	27.55	-42.8	-43.6	21.5	0.00e+00	0	42	0	1116733440	56	4131
2026-01-28 11:43:49.51	273.45	27.55	-42.7	-43.6	21.5	0.00e+00	0	42	0	1129316352	56	4126
2026-01-28 11:43:53.55	274.73	27.53	-42.7	-43.5	21.5	0.00e+00	0	43	0	1141899264	56	4097
2026-01-28 11:43:57.58	276.01	27.49	-42.4	-43.2	21.8	0.00e+00	0	43	0	1154482176	56	3949
2026-01-28 11:44:01.61	277.28	27.44	-42.5	-43.4	21.7	0.00e+00	0	43	0	1167065088	56	4016
2026-01-28 11:44:05.64	278.54	27.38	-42.5	-43.3	21.7	0.00e+00	0	43	0	1179648000	56	3991
2026-01-28 11:44:09.67	279.80	27.30	-42.5	-43.3	21.8	0.00e+00	0	43	0	1192230912	56	3991
2026-01-28 11:44:13.70	281.05	27.21	-42.6	-43.4	21.7	0.00e+00	0	43	0	1204813824	56	4046
2026-01-28 11:44:17.74	282.30	27.11	-42.4	-43.2	21.9	0.00e+00	0	43	0	1217396736	56	3946
2026-01-28 11:44:21.77	283.54	26.99	-42.4	-43.3	21.8	0.00e+00	0	43	0	1229979648	56	3967
2026-01-28 11:44:25.81	284.77	26.85	-42.4	-43.3	21.8	0.00e+00	0	43	0	1242562560	56	3960
2026-01-28 11:44:29.85	285.99	26.71	-42.4	-43.3	21.8	0.00e+00	0	43	0	1255145472	56	3968
2026-01-28 11:44:33.88	287.19	26.55	-42.5	-43.4	21.8	0.00e+00	0	43	0	1267728384	56	4012
2026-01-28 11:44:37.91	288.39	26.38	-42.6	-43.4	21.7	0.00e+00	0	43	0	1280311296	56	4040
2026-01-28 11:44:41.94	289.57	26.19	-42.7	-43.5	21.7	0.00e+00	0	43	0	1292894208	56	4081
2026-01-28 11:44:45.97	290.73	26.00	-42.9	-43.7	21.5	0.00e+00	0	43	0	1305477120	56	4189
2026-01-28 11:44:50.02	291.89	25.79	-42.9	-43.8	21.4	0.00e+00	0	43	0	1318060032	56	4223
2026-01-28 11:44:54.04	293.02	25.58	-42.9	-43.8	21.4	0.00e+00	0	43	0	1330642944	56	4229
2026-01-28 11:44:58.08	294.15	25.36	-42.6	-43.4	21.8	0.00e+00	0	43	0	1343225856	56	4039
2026-01-28 11:45:02.12	295.26	25.12	-42.4	-43.2	21.9	0.00e+00	0	43	0	1355808768	56	3928
2026-01-28 11:45:06.15	296.34	24.88	-42.5	-43.3	21.8	0.00e+00	0	43	0	1368391680	56	3990
2026-01-28 11:45:10.19	297.42	24.63	-42.4	-43.2	21.9	0.00e+00	0	43	0	1380974592	56	3956
2026-01-28 11:45:14.23	298.48	24.37	-42.2	-43.0	21.9	0.00e+00	0	43	0	1393557504	56	3862
2026-01-28 11:45:18.26	299.52	24.10	-42.1	-42.9	22.2	0.00e+00	0	43	0	1406140416	56	3792
2026-01-28 11:45:22.30	300.54	23.83	-42.2	-43.0	22.0	0.00e+00	0	43	0	1418723328	55	4064
2026-01-28 11:45:26.33	301.54	23.55	-42.5	-43.4	21.6	0.00e+00	0	43	0	1431306240	55	4251
2026-01-28 11:45:30.37	302.53	23.27	-42.4	-43.2	21.7	0.00e+00	0	43	0	1444937728	55	4184
2026-01-28 11:45:34.41	303.50	22.98	-42.4	-43.2	21.7	0.00e+00	0	43	0	1456472064	55	4185
2026-01-28 11:45:38.44	304.45	22.69	-42.6	-43.4	21.5	0.00e+00	0	43	0	1469054976	55	4286
2026-01-28 11:45:42.48	305.39	22.39	-42.6	-43.4	21.6	0.00e+00	0	43	0	1482686464	56	4028
2026-01-28 11:45:46.52	306.31	22.08	-42.3	-43.2	21.8	0.00e+00	0	43	0	1494220800	56	3923
2026-01-28 11:45:50.55	307.21	21.78	-42.4	-43.3	21.7	0.00e+00	0	42	0	1506803712	56	3967
2026-01-28 11:45:54.59	308.09	21.47	-42.4	-43.3	21.7	0.00e+00	0	43	0	1520435200	56	3959
2026-01-28 11:45:58.62	308.95	21.16	-42.3	-43.2	21.7	0.00e+00	0	43	0	1533018112	56	3934
2026-01-28 11:46:02.66	309.80	20.84	-42.6	-43.5	21.5	0.00e+00	0	43	0	1545601024	56	4062
2026-01-28 11:46:06.70	310.63	20.52	-42.6	-43.5	21.5	0.00e+00	0	42	0	1558183936	56	4062
2026-01-28 11:46:10.73	311.45	20.21	-42.5	-43.3	21.6	0.00e+00	0	43	0	1570766848	56	3980
2026-01-28 11:46:14.77	312.25	19.89	-42.5	-43.3	21.6	0.00e+00	0	42	0	1583349760	56	4001
2026-01-28 11:46:18.80	313.03	19.57	-42.6	-43.4	21.5	0.00e+00	0	43	0	1595932672	56	4041
2026-01-28 11:46:22.83	313.79	19.24	-42.7	-43.5	21.3	0.00e+00	0	43	0	1608515584	56	4090
2026-01-28 11:46:26.87	314.55	18.92	-42.5	-43.3	21.6	0.00e+00	0	43	0	1621098496	56	3990
2026-01-28 11:46:30.91	315.28	18.60	-42.6	-43.4	21.4	0.00e+00	0	43	0	1633681408	56	4049
2026-01-28 11:46:34.94	316.00	18.28	-42.8	-43.7	21.1	0.00e+00	0	43	0	1646264320	56	4180
2026-01-28 11:46:38.97	316.71	17.95	-42.9	-43.8	21.0	0.00e+00	0	43	0	1658847232	56	4228
2026-01-28 11:46:43.01	317.40	17.63	-42.9	-43.8	21.1	0.00e+00	0	43	0	1671430144	56	4219
2026-01-28 11:46:47.04	318.08	17.31	-42.8	-43.6	21.1	0.00e+00	0	43	0	1684013056	56	4145
2026-01-28 11:46:51.07	318.74	16.99	-43.1	-44.1	20.8	0.00e+00	0	43	0	1696595968	56	4353
2026-01-28 11:46:55.09	319.39	16.67	-43.0	-44.0	20.8	0.00e+00	0	43	0	1709178880	56	4297
2026-01-28 11:46:59.12	320.02	16.35	-43.0	-43.9	20.9	0.00e+00	0	43	0	1721761792	56	4262
2026-01-28 11:47:03.15	320.64	16.03	-42.8	-43.7	21.1	0.00e+00	0	43	0	1734344704	56	4151
2026-01-28 11:47:07.18	321.25	15.71	-43.3	-44.2	20.5	0.00e+00	0	43	0	1746927616	57	4190
2026-01-28 11:47:11.21	321.85	15.39	-43.6	-44.6	20.2	0.00e+00	0	43	0	1759510528	57	4345
2026-01-28 11:47:15.24	322.44	15.08	-43.4	-44.3	20.5	0.00e+00	0	43	0	1772093440	57	4222
2026-01-28 11:47:19.27	323.01	14.76	-43.0	-43.9	20.8	0.00e+00	0	43	0	1784676352	57	4022
2026-01-28 11:47:23.30	323.57	14.45	-43.1	-44.0	20.7	0.00e+00	0	43	0	1797259264	57	4092
2026-01-28 11:47:27.33	324.12	14.14	-43.4	-44.3	20.4	0.00e+00	0	43	0	1809842176	57	4240
2026-01-28 11:47:31.35	324.66	13.83	-43.6	-44.7	20.1	0.00e+00	0	43	0	1822425088	57	4397
2026-01-28 11:47:35.39	325.19	13.52	-43.6	-44.6	20.1	0.00e+00	0	43	0	1835008000	57	4365
2026-01-28 11:47:39.42	325.71	13.22	-43.6	-44.6	20.1	0.00e+00	0	43	0	1847590912	58	4110
2026-01-28 11:47:43.45	326.22	12.91	-43.7	-44.7	20.0	0.00e+00	0	43	0	1860173824	58	4169
2026-01-28 11:47:47.47	326.72	12.61	-43.8	-44.8	19.9	0.00e+00	0	43	0	1872756736	58	4210
2026-01-28 11:47:51.51	327.21	12.31	-43.9	-44.9	19.8	0.00e+00	0	43	0	1885339648	58	4272
2026-01-28 11:47:55.54	327.69	12.01	-43.8	-44.8	19.9	0.00e+00	0	43	0	1897922560	58	4212
2026-01-28 11:47:59.58	328.16	11.71	-43.8	-44.9	19.7	0.00e+00	0	43	0	1910505472	58	4260
2026-01-28 11:48:03.61	328.62	11.42	-43.9	-45.0	19.6	0.00e+00	0	42	0	1923088384	58	4310
2026-01-28 11:48:07.65	329.08	11.13	-43.9	-44.9	19.7	0.00e+00	0	43	0	1935671296	58	4265
2026-01-28 11:48:11.69	329.52	10.84	-43.9	-44.9	19.6	0.00e+00	0	43	0	1948254208	58	4275
2026-01-28 11:48:15.72	329.96	10.55	-44.1	-45.2	19.4	0.00e+00	0	42	0	1960837120	58	4425
2026-01-28 11:48:19.75	330.39	10.26	-44.3	-45.4	19.2	0.00e+00	0	43	0	1973420032	59	4268
2026-01-28 11:48:23.78	330.81	9.98	-44.3	-45.4	19.1	0.00e+00	0	43	0	1986002944	59	4285
2026-01-28 11:48:27.81	331.22	9.69	-44.1	-45.2	19.3	0.00e+00	0	43	0	1998585856	59	4172
2026-01-28 11:48:31.85	331.62	9.41	-44.2	-45.3	19.2	0.00e+00	0	43	0	2011168768	59	4200
2026-01-28 11:48:35.88	332.02	9.13	-44.3	-45.5	19.0	0.00e+00	0	43	0	2023751680	59	4293
2026-01-28 11:48:39.91	332.41	8.86	-44.6	-45.8	18.7	0.00e+00	0	43	0	2036334592	59	4444
2026-01-28 11:48:43.95	332.80	8.58	-44.4	-45.6	18.5	0.00e+00	0	43	0	2048917504	60	4104
2026-01-28 11:48:47.99	333.17	8.31	-44.4	-45.6	18.5	0.00e+00	0	43	0	2061500416	60	4109
2026-01-28 11:48:52.03	333.54	8.03	-44.5	-45.7	18.3	0.00e+00	0	43	0	2074083328	60	4188
2026-01-28 11:48:56.07	333.91	7.77	-44.5	-45.7	18.3	0.00e+00	0	43	0	2087714816	60	4162
2026-01-28 11:49:00.10	334.27	7.50	-44.5	-45.8	18.2	0.00e+00	0	43	0	2099249152	60	4203
2026-01-28 11:49:04.13	334.62	7.23	-44.6	-45.8	18.1	0.00e+00	0	43	0	2111832064	60	4238
2026-01-28 11:49:08.17	334.96	6.97	-44.7	-46.0	18.0	0.00e+00	0	43	0	2125463552	60	4293
2026-01-28 11:49:12.20	335.30	6.71	-44.8	-46.1	17.8	0.00e+00	0	43	0	2138046464	60	4375
2026-01-28 11:49:16.24	335.64	6.45	-45.0	-46.3	17.6	0.00e+00	0	43	0	2149580800	60	4453
2026-01-28 11:49:20.27	335.97	6.19	-44.9	-46.2	17.7	0.00e+00	0	43	0	2163212288	60	4408
2026-01-28 11:49:24.30	336.29	5.93	-45.1	-46.4	17.4	0.00e+00	0	43	0	2175795200	60	4544
2026-01-28 11:49:28.34	336.61	5.68	-45.2	-46.6	17.2	1.06e-05	0	43	0	2187329536	61	4360
2026-01-28 11:49:32.37	336.92	5.43	-45.5	-46.9	16.8	0.00e+00	0	43	0	2200961024	61	4537
2026-01-28 11:49:36.41	337.23	5.18	-45.2	-46.7	17.1	0.00e+00	0	43	0	2213543936	61	4402
2026-01-28 11:49:40.45	337.53	4.93	-52.5	-65.2	3.8	1.49e+00	0	43	104	2224029696	75	16545
2026-01-28 11:49:44.47	337.83	4.68	-53.3	-66.1	3.8	1.49e+00	0	43	104	2224029696	77	16363
2026-01-28 11:49:48.50	338.12	4.43	-53.5	-66.2	3.8	1.49e+00	0	43	104	2224029696	77	16694
2026-01-28 11:49:52.54	338.41	4.19	-53.3	-66.0	3.8	1.49e+00	0	43	104	2224029696	77	16227
2026-01-28 11:49:56.57	338.70	3.95	-53.3	-66.1	3.8	1.49e+00	0	43	104	2224029696	77	16331
2026-01-28 11:50:00.61	338.98	3.71	-53.4	-66.1	3.8	1.49e+00	0	43	104	2224029696	77	16411
2026-01-28 11:50:04.64	339.25	3.47	-53.2	-66.0	3.8	1.49e+00	0	43	104	2224029696	77	16206
2026-01-28 11:50:08.67	339.53	3.23	-53.2	-65.9	3.8	1.49e+00	0	43	104	2224029696	77	16103
2026-01-28 11:50:12.70	339.79	2.99	-53.2	-65.9	3.8	1.49e+00	0	43	104	2224029696	77	16100
2026-01-28 11:50:16.73	340.06	2.76	-53.2	-65.9	3.8	1.49e+00	0	43	104	2224029696	77	16057
2026-01-28 11:50:20.76	340.32	2.53	-53.1	-65.9	3.8	1.49e+00	0	43	104	2224029696	77	16030
2026-01-28 11:50:24.79	340.57	2.30	-53.1	-65.9	3.8	1.49e+00	0	43	104	2224029696	77	15987
2026-01-28 11:50:28.83	340.83	2.07	-53.1	-65.8	3.8	1.49e+00	0	43	104	2224029696	77	15914

#Closed at: 2026-01-28 11:50:32
#Recorded file [2224 MB]: D:/lorett/data/31041_260128_143706.dat