passes_logs/2026/01/28/R3.2S_Murmansk/R3.2S_Murmansk__20260128_122852_NOAA_20_JPSS-1_rec.log

#Pass ID: 20260128_122852_NOAA 20 (JPSS-1)
#Satellite: NOAA 20 (JPSS-1)
#Configuration: NOAA 20
#almurnet v.1.7.20251203
#Start time: 2026-01-28 12:28:54

#Version: 2.2.20231116
#Station: R3.2S_Murmansk
#Location: 33.079688 lon 68.888172 lat
#TLE: 1 43013U 17073A   26027.80586608  .00000156  00000+0  94940-4 0  9998
#TLE: 2 43013  98.7647 328.6108 0000947  21.3465 338.7750 14.19541216424550

#Time	Az	El	Level	Level2	SNR	BER	BlckErr	Temp	State	Recorded	gain1	gain2
2026-01-28 12:28:54.50	227.82	2.12	-53.6	-68.5	3.8	1.49e+00	0	40	0	0	79	19284
2026-01-28 12:28:57.53	228.08	2.27	-52.4	-67.4	3.8	1.49e+00	0	41	104	0	76	20134
2026-01-28 12:29:00.55	228.34	2.42	-52.4	-67.4	3.8	1.49e+00	0	41	104	0	76	20111
2026-01-28 12:29:03.57	228.61	2.57	-52.4	-67.3	3.8	1.49e+00	0	41	104	0	76	20044
2026-01-28 12:29:06.60	228.88	2.73	-52.4	-67.3	3.8	1.49e+00	0	41	104	0	76	20026
2026-01-28 12:29:09.62	229.15	2.88	-52.4	-67.3	3.8	1.49e+00	0	41	104	0	76	19995
2026-01-28 12:29:12.64	229.42	3.04	-52.4	-67.3	3.8	1.49e+00	0	41	104	0	76	20044
2026-01-28 12:29:15.67	229.70	3.19	-52.4	-67.3	3.8	1.49e+00	0	41	104	0	76	20016
2026-01-28 12:29:18.69	229.98	3.34	-52.4	-67.3	3.8	1.49e+00	0	41	104	0	76	19951
2026-01-28 12:29:21.71	230.27	3.50	-52.4	-67.3	3.8	1.49e+00	0	41	104	0	76	19955
2026-01-28 12:29:24.73	230.55	3.65	-52.4	-67.3	3.8	1.49e+00	0	41	104	0	76	19909
2026-01-28 12:29:27.75	230.84	3.81	-52.3	-67.1	3.8	1.49e+00	0	41	104	0	76	19581
2026-01-28 12:29:30.78	231.13	3.97	-52.3	-67.2	3.8	1.49e+00	0	42	104	0	76	19729
2026-01-28 12:29:33.81	231.43	4.12	-52.3	-67.2	3.8	1.49e+00	0	42	104	0	76	19683
2026-01-28 12:29:36.83	231.73	4.28	-52.3	-67.3	3.8	1.49e+00	0	42	104	0	76	19931
2026-01-28 12:29:39.85	232.03	4.44	-52.2	-65.5	3.8	1.49e+00	0	42	104	0	76	16132
2026-01-28 12:29:42.87	232.33	4.59	-52.2	-64.6	4.0	1.48e+00	0	42	104	0	76	14564
2026-01-28 12:29:45.90	232.64	4.75	-51.9	-61.6	5.1	9.05e-01	0	42	0	1048576	75	10986
2026-01-28 12:29:48.92	232.95	4.91	-50.1	-54.2	11.9	9.87e-04	0	42	0	6291456	72	5580
2026-01-28 12:29:51.94	233.26	5.07	-49.5	-53.0	13.4	3.00e-06	0	42	0	11534336	69	5730
2026-01-28 12:29:54.97	233.58	5.22	-51.8	-61.4	5.2	1.56e-03	0	42	0	17825792	74	11337
2026-01-28 12:29:57.99	233.90	5.38	-48.3	-50.8	15.6	0.00e+00	0	42	0	23068672	68	4742
2026-01-28 12:30:01.02	234.22	5.54	-48.3	-50.9	15.6	0.00e+00	0	42	0	29360128	68	4762
2026-01-28 12:30:04.04	234.55	5.70	-48.2	-50.6	15.8	0.00e+00	0	42	0	34603008	68	4648
2026-01-28 12:30:07.06	234.88	5.86	-47.9	-50.2	16.1	0.00e+00	0	42	0	39845888	67	4680
2026-01-28 12:30:10.08	235.21	6.02	-48.1	-50.5	15.9	0.00e+00	0	42	0	46137344	67	4867
2026-01-28 12:30:13.10	235.55	6.18	-48.0	-50.3	16.1	0.00e+00	0	42	0	51380224	67	4751
2026-01-28 12:30:16.13	235.89	6.34	-47.9	-50.2	16.3	0.00e+00	0	42	0	57671680	67	4665
2026-01-28 12:30:19.14	236.23	6.49	-47.4	-49.5	16.9	0.00e+00	0	42	0	62914560	66	4576
2026-01-28 12:30:22.17	236.58	6.65	-47.4	-49.4	17.0	0.00e+00	0	42	0	68157440	66	4532
2026-01-28 12:30:25.19	236.93	6.81	-47.2	-49.1	17.4	0.00e+00	0	42	0	74448896	66	4365
2026-01-28 12:30:28.21	237.29	6.97	-47.0	-48.9	17.6	0.00e+00	0	42	0	79691776	66	4277
2026-01-28 12:30:31.24	237.65	7.13	-47.1	-49.0	17.5	0.00e+00	0	42	0	85983232	65	4563
2026-01-28 12:30:34.26	238.01	7.29	-47.0	-48.9	17.6	0.00e+00	0	42	0	91226112	65	4511
2026-01-28 12:30:37.29	238.38	7.45	-47.1	-49.0	17.5	0.00e+00	0	42	0	96468992	65	4562
2026-01-28 12:30:40.31	238.75	7.61	-46.8	-48.7	17.9	0.00e+00	0	42	0	102760448	65	4393
2026-01-28 12:30:43.34	239.12	7.77	-46.9	-48.8	17.8	0.00e+00	0	42	0	108003328	65	4456
2026-01-28 12:30:46.36	239.50	7.93	-47.0	-48.8	17.7	0.00e+00	0	42	0	114294784	65	4487
2026-01-28 12:30:49.39	239.89	8.10	-47.1	-49.0	17.6	0.00e+00	0	42	0	119537664	65	4554
2026-01-28 12:30:52.42	240.27	8.26	-46.9	-48.7	17.9	0.00e+00	0	42	0	125829120	65	4429
2026-01-28 12:30:55.43	240.66	8.41	-46.8	-48.6	17.9	0.00e+00	0	42	0	131072000	65	4387
2026-01-28 12:30:58.46	241.06	8.57	-46.6	-48.4	18.2	0.00e+00	0	42	0	136314880	65	4248
2026-01-28 12:31:01.48	241.46	8.73	-46.7	-48.5	18.1	0.00e+00	0	42	0	142606336	65	4301
2026-01-28 12:31:04.51	241.86	8.89	-46.7	-48.5	18.2	0.00e+00	0	42	0	147849216	65	4310
2026-01-28 12:31:07.53	242.27	9.05	-46.8	-48.5	18.1	0.00e+00	0	42	0	154140672	65	4320
2026-01-28 12:31:10.55	242.68	9.21	-46.7	-48.5	18.1	0.00e+00	0	42	0	159383552	65	4310
2026-01-28 12:31:13.58	243.10	9.37	-46.8	-48.5	18.1	0.00e+00	0	42	0	164626432	65	4340
2026-01-28 12:31:16.61	243.52	9.53	-46.7	-48.5	18.2	0.00e+00	0	42	0	170917888	65	4292
2026-01-28 12:31:19.63	243.94	9.69	-46.8	-48.5	18.2	0.00e+00	0	42	0	176160768	65	4316
2026-01-28 12:31:22.65	244.37	9.84	-46.6	-48.3	18.4	0.00e+00	0	42	0	182452224	65	4234
2026-01-28 12:31:25.68	244.80	10.00	-46.6	-48.2	18.5	0.00e+00	0	42	0	187695104	65	4183
2026-01-28 12:31:28.70	245.24	10.16	-46.4	-48.1	18.6	0.00e+00	0	42	0	192937984	64	4360
2026-01-28 12:31:31.72	245.68	10.31	-46.4	-48.0	18.7	0.00e+00	0	42	0	199229440	64	4327
2026-01-28 12:31:34.74	246.13	10.47	-46.2	-47.8	18.9	0.00e+00	0	42	0	204472320	64	4215
2026-01-28 12:31:37.76	246.58	10.62	-46.1	-47.6	19.1	0.00e+00	0	42	0	210763776	64	4145
2026-01-28 12:31:40.79	247.04	10.78	-46.0	-47.5	19.3	0.00e+00	0	42	0	216006656	63	4323
2026-01-28 12:31:43.81	247.50	10.93	-45.9	-47.4	19.4	0.00e+00	0	42	0	222298112	63	4258
2026-01-28 12:31:46.83	247.97	11.08	-45.9	-47.4	19.5	0.00e+00	0	42	0	227540992	63	4244
2026-01-28 12:31:49.86	248.44	11.24	-45.8	-47.2	19.6	0.00e+00	0	42	0	232783872	63	4167
2026-01-28 12:31:52.88	248.91	11.39	-45.7	-47.1	19.7	0.00e+00	0	42	0	239075328	63	4111
2026-01-28 12:31:55.90	249.39	11.54	-45.7	-47.2	19.7	0.00e+00	0	42	0	244318208	63	4148
2026-01-28 12:31:58.92	249.88	11.69	-45.8	-47.3	19.6	0.00e+00	0	42	0	250609664	63	4199
2026-01-28 12:32:01.94	250.37	11.84	-45.7	-47.1	19.8	0.00e+00	0	42	0	255852544	63	4113
2026-01-28 12:32:04.96	250.86	11.99	-45.8	-47.2	19.7	0.00e+00	0	42	0	261095424	63	4176
2026-01-28 12:32:07.98	251.36	12.13	-45.8	-47.2	19.7	0.00e+00	0	42	0	267386880	63	4167
2026-01-28 12:32:11.01	251.86	12.28	-45.7	-47.1	19.7	0.00e+00	0	42	0	272629760	63	4141
2026-01-28 12:32:14.03	252.37	12.42	-45.7	-47.2	19.7	0.00e+00	0	42	0	278921216	63	4152
2026-01-28 12:32:17.05	252.88	12.57	-45.6	-47.0	19.9	0.00e+00	0	42	0	284164096	63	4078
2026-01-28 12:32:20.08	253.40	12.71	-45.7	-47.1	19.7	0.00e+00	0	42	0	289406976	63	4142
2026-01-28 12:32:23.10	253.93	12.85	-45.9	-47.3	19.6	0.00e+00	0	42	0	295698432	63	4221
2026-01-28 12:32:26.12	254.45	12.99	-45.9	-47.3	19.6	0.00e+00	0	42	0	300941312	63	4230
2026-01-28 12:32:29.14	254.99	13.13	-45.9	-47.4	19.5	0.00e+00	0	42	0	307232768	63	4264
2026-01-28 12:32:32.17	255.53	13.26	-46.1	-47.7	19.3	0.00e+00	0	42	0	312475648	63	4394
2026-01-28 12:32:35.19	256.07	13.40	-46.4	-47.9	19.0	0.00e+00	0	42	0	317718528	63	4531
2026-01-28 12:32:38.21	256.61	13.53	-46.6	-48.2	18.8	0.00e+00	0	42	0	324009984	63	4655
2026-01-28 12:32:41.23	257.17	13.66	-46.7	-48.4	18.5	0.00e+00	0	42	0	329252864	64	4506
2026-01-28 12:32:44.26	257.72	13.80	-46.9	-48.6	18.3	0.00e+00	0	43	0	335544320	64	4612
2026-01-28 12:32:47.29	258.29	13.92	-47.1	-49.0	18.0	0.00e+00	0	42	0	340787200	64	4818
2026-01-28 12:32:50.31	258.85	14.05	-47.1	-48.9	18.0	0.00e+00	0	42	0	346030080	64	4801
2026-01-28 12:32:53.32	259.42	14.17	-47.2	-49.1	17.9	0.00e+00	0	43	0	352321536	65	4602
2026-01-28 12:32:56.35	260.00	14.30	-47.4	-49.2	17.7	0.00e+00	0	43	0	357564416	65	4689
2026-01-28 12:32:59.37	260.58	14.42	-47.6	-49.6	17.3	0.00e+00	0	42	0	363855872	65	4904
2026-01-28 12:33:02.40	261.16	14.54	-47.7	-49.7	17.3	0.00e+00	0	42	0	369098752	66	4691
2026-01-28 12:33:05.42	261.75	14.65	-47.6	-49.6	17.4	0.00e+00	0	42	0	374341632	66	4623
2026-01-28 12:33:08.44	262.34	14.76	-47.8	-49.8	17.2	0.00e+00	0	42	0	380633088	66	4739
2026-01-28 12:33:11.47	262.94	14.88	-47.8	-49.9	17.1	0.00e+00	0	42	0	385875968	66	4776
2026-01-28 12:33:14.48	263.54	14.98	-47.9	-49.9	17.1	0.00e+00	0	43	0	392167424	66	4791
2026-01-28 12:33:17.51	264.15	15.09	-47.6	-49.5	17.4	0.00e+00	0	42	0	397410304	66	4595
2026-01-28 12:33:20.52	264.76	15.20	-47.0	-48.8	18.2	0.00e+00	0	42	0	402653184	66	4214
2026-01-28 12:33:23.54	265.37	15.30	-46.9	-48.6	18.3	0.00e+00	0	43	0	408944640	65	4380
2026-01-28 12:33:26.57	265.99	15.40	-46.8	-48.5	18.4	0.00e+00	0	42	0	414187520	65	4327
2026-01-28 12:33:29.59	266.61	15.49	-46.6	-48.3	18.6	0.00e+00	0	42	0	420478976	65	4202
2026-01-28 12:33:32.62	267.24	15.58	-46.3	-47.9	19.1	0.00e+00	0	43	0	425721856	64	4257
2026-01-28 12:33:35.63	267.86	15.67	-46.0	-47.5	19.6	0.00e+00	0	42	0	430964736	63	4306
2026-01-28 12:33:38.65	268.50	15.76	-45.8	-47.2	19.8	0.00e+00	0	43	0	437256192	63	4180
2026-01-28 12:33:41.68	269.14	15.85	-46.0	-47.5	19.6	0.00e+00	0	42	0	442499072	63	4300
2026-01-28 12:33:44.71	269.78	15.93	-46.2	-47.7	19.5	0.00e+00	0	43	0	448790528	63	4394
2026-01-28 12:33:47.73	270.42	16.01	-46.3	-47.8	19.2	0.00e+00	0	42	0	454033408	63	4484
2026-01-28 12:33:50.75	271.07	16.08	-46.3	-47.9	19.3	0.00e+00	0	42	0	459276288	63	4494
2026-01-28 12:33:53.78	271.72	16.15	-46.4	-47.9	19.2	0.00e+00	0	42	0	465567744	63	4524
2026-01-28 12:33:56.80	272.37	16.22	-46.6	-48.1	19.0	0.00e+00	0	42	0	470810624	63	4635
2026-01-28 12:33:59.81	273.02	16.28	-46.6	-48.2	18.8	0.00e+00	0	43	0	477102080	64	4420
2026-01-28 12:34:02.83	273.68	16.35	-46.6	-48.2	18.8	0.00e+00	0	42	0	482344960	64	4437
2026-01-28 12:34:05.85	274.34	16.40	-46.7	-48.3	18.8	0.00e+00	0	42	0	487587840	64	4466
2026-01-28 12:34:08.87	275.00	16.46	-46.6	-48.2	18.8	0.00e+00	0	43	0	493879296	64	4424
2026-01-28 12:34:11.88	275.66	16.51	-46.6	-48.2	18.9	0.00e+00	0	42	0	499122176	64	4410
2026-01-28 12:34:14.91	276.33	16.56	-46.6	-48.1	19.0	0.00e+00	0	42	0	505413632	64	4383
2026-01-28 12:34:17.93	277.00	16.60	-46.7	-48.3	18.8	0.00e+00	0	42	0	510656512	64	4468
2026-01-28 12:34:20.95	277.67	16.64	-46.7	-48.2	18.8	0.00e+00	0	42	0	515899392	64	4438
2026-01-28 12:34:23.96	278.34	16.68	-46.2	-47.7	19.3	0.00e+00	0	42	0	522190848	64	4167
2026-01-28 12:34:26.98	279.01	16.71	-46.2	-47.7	19.4	0.00e+00	0	42	0	527433728	64	4169
2026-01-28 12:34:30.01	279.69	16.74	-46.5	-48.0	19.1	0.00e+00	0	42	0	533725184	64	4335
2026-01-28 12:34:33.03	280.37	16.77	-46.8	-48.5	18.7	0.00e+00	0	42	0	538968064	64	4548
2026-01-28 12:34:36.05	281.04	16.79	-47.0	-48.7	18.5	0.00e+00	0	43	0	544210944	64	4692
2026-01-28 12:34:39.07	281.72	16.81	-47.0	-48.6	18.6	0.00e+00	0	42	0	550502400	64	4637
2026-01-28 12:34:42.09	282.40	16.82	-46.7	-48.3	19.0	0.00e+00	0	42	0	555745280	64	4442
2026-01-28 12:34:45.11	283.08	16.83	-46.5	-48.1	19.1	0.00e+00	0	43	0	562036736	64	4358
2026-01-28 12:34:48.13	283.76	16.84	-46.6	-48.2	19.0	0.00e+00	0	43	0	567279616	64	4416
2026-01-28 12:34:51.15	284.44	16.84	-46.8	-48.4	18.8	0.00e+00	0	43	0	572522496	64	4505
2026-01-28 12:34:54.18	285.12	16.84	-46.6	-48.2	19.0	0.00e+00	0	42	0	578813952	64	4430
2026-01-28 12:34:57.20	285.80	16.83	-46.5	-48.1	19.0	0.00e+00	0	42	0	584056832	64	4349
2026-01-28 12:35:00.22	286.48	16.83	-46.4	-47.8	19.4	0.00e+00	0	42	0	590348288	64	4238
2026-01-28 12:35:03.25	287.16	16.81	-46.3	-47.8	19.3	0.00e+00	0	43	0	595591168	64	4227
2026-01-28 12:35:06.27	287.84	16.80	-46.5	-48.0	19.2	0.00e+00	0	43	0	600834048	64	4317
2026-01-28 12:35:09.29	288.51	16.78	-46.3	-47.7	19.5	0.00e+00	0	43	0	607125504	64	4189
2026-01-28 12:35:12.32	289.19	16.75	-46.3	-47.8	19.4	0.00e+00	0	42	0	612368384	64	4216
2026-01-28 12:35:15.34	289.87	16.72	-46.2	-47.7	19.6	0.00e+00	0	43	0	618659840	64	4149
2026-01-28 12:35:18.37	290.54	16.69	-46.2	-47.6	19.7	0.00e+00	0	42	0	623902720	64	4134
2026-01-28 12:35:21.40	291.22	16.66	-46.4	-47.9	19.4	0.00e+00	0	42	0	629145600	64	4255
2026-01-28 12:35:24.42	291.89	16.62	-46.4	-47.9	19.4	0.00e+00	0	42	0	635437056	64	4253
2026-01-28 12:35:27.44	292.56	16.58	-46.2	-47.6	19.6	0.00e+00	0	42	0	640679936	64	4133
2026-01-28 12:35:30.46	293.22	16.53	-45.8	-47.2	20.1	0.00e+00	0	43	0	646971392	63	4162
2026-01-28 12:35:33.49	293.89	16.48	-45.9	-47.3	19.6	0.00e+00	0	42	0	652214272	63	4213
2026-01-28 12:35:36.51	294.55	16.43	-46.0	-47.3	19.7	0.00e+00	0	43	0	658505728	63	4237
2026-01-28 12:35:39.53	295.21	16.37	-45.8	-47.1	20.1	0.00e+00	0	42	0	663748608	63	4144
2026-01-28 12:35:42.56	295.87	16.31	-45.7	-47.1	20.2	0.00e+00	0	42	0	668991488	63	4108
2026-01-28 12:35:45.58	296.52	16.25	-45.9	-47.2	20.1	0.00e+00	0	42	0	675282944	63	4174
2026-01-28 12:35:48.60	297.18	16.18	-45.6	-46.9	20.3	0.00e+00	0	42	0	680525824	63	4049
2026-01-28 12:35:51.62	297.82	16.11	-45.6	-46.9	20.3	0.00e+00	0	42	0	686817280	63	4027
2026-01-28 12:35:54.64	298.47	16.04	-45.4	-46.7	20.5	0.00e+00	0	42	0	692060160	62	4172
2026-01-28 12:35:57.66	299.11	15.96	-45.2	-46.5	20.5	0.00e+00	0	42	0	697303040	62	4056
2026-01-28 12:36:00.68	299.75	15.88	-45.5	-46.8	20.1	0.00e+00	0	42	0	703594496	62	4241
2026-01-28 12:36:03.71	300.39	15.80	-45.7	-47.0	20.0	0.00e+00	0	42	0	708837376	62	4331
2026-01-28 12:36:06.73	301.02	15.71	-45.3	-46.7	19.5	0.00e+00	0	42	0	715128832	62	4152
2026-01-28 12:36:09.75	301.65	15.62	-45.1	-46.4	20.4	0.00e+00	0	43	0	720371712	62	4033
2026-01-28 12:36:12.77	302.28	15.53	-44.9	-46.1	20.6	0.00e+00	0	42	0	725614592	61	4142
2026-01-28 12:36:15.79	302.90	15.44	-44.9	-46.2	18.5	0.00e+00	0	42	0	731906048	61	4170
2026-01-28 12:36:18.80	303.51	15.34	-44.9	-46.2	19.7	0.00e+00	0	43	0	737148928	61	4168
2026-01-28 12:36:21.83	304.13	15.24	-45.2	-46.5	19.2	0.00e+00	0	43	0	743440384	61	4315
2026-01-28 12:36:24.84	304.74	15.14	-45.1	-46.4	20.6	0.00e+00	0	42	0	748683264	61	4279
2026-01-28 12:36:27.86	305.34	15.04	-44.8	-46.0	20.8	0.00e+00	0	43	0	753926144	61	4092
2026-01-28 12:36:30.89	305.95	14.93	-44.6	-45.8	21.0	0.00e+00	0	42	0	760217600	61	3992
2026-01-28 12:36:33.91	306.54	14.82	-44.7	-45.9	21.1	0.00e+00	0	43	0	765460480	61	4008
2026-01-28 12:36:36.92	307.13	14.71	-45.2	-46.4	20.5	0.00e+00	0	42	0	771751936	61	4286
2026-01-28 12:36:39.95	307.72	14.59	-45.5	-46.8	20.1	0.00e+00	0	43	0	776994816	61	4493
2026-01-28 12:36:42.97	308.31	14.48	-45.4	-46.8	20.2	0.00e+00	0	43	0	782237696	61	4448
2026-01-28 12:36:45.99	308.89	14.36	-45.5	-46.9	20.1	0.00e+00	0	42	0	788529152	61	4494
2026-01-28 12:36:49.01	309.46	14.24	-45.5	-46.8	19.9	0.00e+00	0	42	0	793772032	61	4490
2026-01-28 12:36:52.03	310.03	14.11	-45.3	-46.6	20.3	0.00e+00	0	42	0	800063488	61	4373
2026-01-28 12:36:55.05	310.60	13.99	-45.6	-46.9	20.0	0.00e+00	0	43	0	805306368	61	4539
2026-01-28 12:36:58.07	311.16	13.86	-46.3	-47.9	19.1	0.00e+00	0	42	0	810549248	63	4508
2026-01-28 12:37:01.08	311.71	13.73	-47.0	-48.7	18.2	0.00e+00	0	43	0	816840704	64	4688
2026-01-28 12:37:04.11	312.26	13.60	-47.3	-49.2	17.8	0.00e+00	0	42	0	822083584	65	4657
2026-01-28 12:37:07.13	312.81	13.47	-47.4	-49.3	17.6	0.00e+00	0	42	0	828375040	65	4723
2026-01-28 12:37:10.15	313.35	13.34	-47.5	-49.4	17.5	0.00e+00	0	43	0	833617920	65	4797
2026-01-28 12:37:13.17	313.89	13.20	-47.2	-49.0	17.9	0.00e+00	0	42	0	838860800	65	4562
2026-01-28 12:37:16.19	314.42	13.07	-46.7	-48.3	18.5	0.00e+00	0	43	0	845152256	65	4223
2026-01-28 12:37:19.20	314.95	12.93	-46.7	-48.4	18.4	0.00e+00	0	43	0	850395136	65	4283
2026-01-28 12:37:22.22	315.47	12.79	-47.2	-49.0	17.8	0.00e+00	0	42	0	856686592	65	4576
2026-01-28 12:37:25.24	315.99	12.65	-47.5	-49.5	17.3	0.00e+00	0	43	0	861929472	65	4832
2026-01-28 12:37:28.25	316.50	12.51	-47.7	-49.8	17.0	0.00e+00	0	43	0	867172352	66	4711
2026-01-28 12:37:31.27	317.01	12.37	-47.6	-49.5	17.3	0.00e+00	0	42	0	873463808	66	4592
2026-01-28 12:37:34.29	317.51	12.22	-47.5	-49.4	17.4	0.00e+00	0	43	0	878706688	66	4519
2026-01-28 12:37:37.31	318.01	12.08	-47.3	-49.3	17.6	0.00e+00	0	43	0	884998144	66	4446
2026-01-28 12:37:40.34	318.51	11.93	-46.9	-48.6	18.1	0.00e+00	0	42	0	890241024	65	4383
2026-01-28 12:37:43.36	319.00	11.78	-46.2	-47.8	18.9	0.00e+00	0	43	0	895483904	64	4220
2026-01-28 12:37:46.39	319.48	11.63	-46.2	-47.7	19.0	0.00e+00	0	43	0	901775360	64	4182
2026-01-28 12:37:49.41	319.96	11.48	-46.4	-48.1	18.6	0.00e+00	0	42	0	907018240	64	4355
2026-01-28 12:37:52.43	320.44	11.33	-46.6	-48.4	18.4	0.00e+00	0	43	0	913309696	64	4498
2026-01-28 12:37:55.45	320.91	11.18	-46.7	-48.5	18.2	0.00e+00	0	43	0	918552576	64	4548
2026-01-28 12:37:58.47	321.37	11.03	-46.9	-48.8	17.9	0.00e+00	0	42	0	923795456	64	4709
2026-01-28 12:38:01.49	321.84	10.88	-46.8	-48.6	18.1	0.00e+00	0	43	0	930086912	64	4606
2026-01-28 12:38:04.51	322.29	10.73	-46.0	-47.5	19.2	0.00e+00	0	43	0	935329792	63	4328
2026-01-28 12:38:07.53	322.74	10.57	-45.6	-47.0	19.7	0.00e+00	0	43	0	941621248	63	4081
2026-01-28 12:38:10.55	323.19	10.42	-45.9	-47.4	19.3	0.00e+00	0	43	0	946864128	63	4262
2026-01-28 12:38:13.57	323.63	10.27	-46.2	-47.8	19.0	0.00e+00	0	43	0	952107008	63	4451
2026-01-28 12:38:16.59	324.07	10.11	-46.4	-48.1	18.7	0.00e+00	0	43	0	958398464	63	4601
2026-01-28 12:38:19.61	324.51	9.96	-46.2	-47.7	18.9	0.00e+00	0	43	0	963641344	63	4436
2026-01-28 12:38:22.64	324.94	9.80	-46.3	-47.9	18.7	0.00e+00	0	43	0	969932800	63	4524
2026-01-28 12:38:25.67	325.36	9.64	-46.5	-48.1	18.5	0.00e+00	0	42	0	975175680	63	4636
2026-01-28 12:38:28.69	325.78	9.49	-46.4	-48.0	18.6	0.00e+00	0	43	0	980418560	63	4584
2026-01-28 12:38:31.72	326.20	9.33	-46.1	-47.7	18.9	0.00e+00	0	42	0	986710016	63	4428
2026-01-28 12:38:34.74	326.61	9.17	-46.5	-48.2	18.4	0.00e+00	0	43	0	991952896	63	4663
2026-01-28 12:38:37.77	327.02	9.01	-46.6	-48.3	18.2	0.00e+00	0	42	0	998244352	63	4750
2026-01-28 12:38:40.79	327.43	8.86	-46.5	-48.2	18.3	0.00e+00	0	42	0	1003487232	63	4670
2026-01-28 12:38:43.81	327.83	8.70	-46.1	-47.7	18.8	0.00e+00	0	43	0	1009778688	63	4433
2026-01-28 12:38:46.84	328.22	8.54	-46.1	-47.6	18.8	0.00e+00	0	43	0	1015021568	63	4391
2026-01-28 12:38:49.86	328.61	8.38	-46.4	-48.1	18.3	0.00e+00	0	42	0	1020264448	63	4648
2026-01-28 12:38:52.86	329.00	8.22	-46.5	-48.3	18.0	0.00e+00	0	43	0	1026555904	64	4486
2026-01-28 12:38:55.88	329.38	8.07	-46.3	-48.0	18.3	0.00e+00	0	43	0	1031798784	64	4340
2026-01-28 12:38:58.90	329.76	7.91	-46.3	-48.0	18.3	0.00e+00	0	43	0	1037041664	64	4319
2026-01-28 12:39:01.93	330.14	7.75	-46.3	-48.0	18.3	0.00e+00	0	42	0	1043333120	64	4339
2026-01-28 12:39:04.94	330.51	7.59	-46.6	-48.4	17.9	0.00e+00	0	42	0	1048576000	64	4505
2026-01-28 12:39:07.97	330.87	7.43	-46.7	-48.6	17.6	0.00e+00	0	43	0	1054867456	64	4625
2026-01-28 12:39:10.99	331.24	7.27	-46.9	-48.9	17.4	0.00e+00	0	43	0	1060110336	64	4769
2026-01-28 12:39:14.01	331.60	7.11	-47.0	-48.9	17.3	0.00e+00	0	43	0	1066401792	64	4809
2026-01-28 12:39:17.04	331.96	6.96	-47.0	-49.0	17.2	0.00e+00	0	42	0	1071644672	64	4844
2026-01-28 12:39:20.07	332.31	6.80	-47.1	-49.2	17.0	0.00e+00	0	42	0	1076887552	64	4937
2026-01-28 12:39:23.09	332.66	6.64	-47.4	-49.6	16.6	0.00e+00	0	42	0	1083179008	65	4882
2026-01-28 12:39:26.11	333.00	6.48	-47.4	-49.6	16.6	0.00e+00	0	42	0	1088421888	65	4880
2026-01-28 12:39:29.13	333.34	6.32	-47.1	-49.2	16.9	0.00e+00	0	42	0	1094713344	65	4660
2026-01-28 12:39:32.17	333.68	6.16	-47.4	-49.7	16.4	0.00e+00	0	43	0	1099956224	65	4940
2026-01-28 12:39:35.19	334.02	6.01	-47.5	-49.8	16.3	0.00e+00	0	42	0	1105199104	65	5005
2026-01-28 12:39:38.21	334.35	5.85	-47.7	-50.1	16.0	0.00e+00	0	43	0	1111490560	65	5163
2026-01-28 12:39:41.23	334.68	5.69	-47.5	-49.8	16.1	1.50e-06	0	42	0	1116733440	65	5030
2026-01-28 12:39:44.25	335.00	5.53	-47.5	-49.9	16.1	0.00e+00	0	43	0	1123024896	66	4766
2026-01-28 12:39:47.28	335.32	5.38	-47.4	-49.7	16.3	0.00e+00	0	43	0	1128267776	66	4671
2026-01-28 12:39:50.30	335.64	5.22	-47.5	-49.9	16.0	0.00e+00	0	43	0	1133510656	66	4775
2026-01-28 12:39:53.32	335.96	5.06	-47.7	-50.1	15.8	0.00e+00	0	42	0	1139802112	66	4901
2026-01-28 12:39:56.34	336.27	4.91	-52.8	-67.8	3.8	1.49e+00	0	42	104	1141899264	76	21074
2026-01-28 12:39:59.36	336.58	4.75	-53.3	-68.3	3.8	1.49e+00	0	43	104	1141899264	77	21083
2026-01-28 12:40:02.38	336.88	4.60	-53.5	-68.5	3.8	1.49e+00	0	43	104	1141899264	77	21535
2026-01-28 12:40:05.41	337.19	4.44	-53.4	-68.4	3.8	1.49e+00	0	43	104	1141899264	77	21340
2026-01-28 12:40:08.43	337.48	4.28	-53.2	-68.1	3.8	1.49e+00	0	43	104	1141899264	77	20774
2026-01-28 12:40:11.45	337.78	4.13	-53.3	-68.3	3.8	1.49e+00	0	43	104	1141899264	77	21094
2026-01-28 12:40:14.48	338.07	3.97	-53.4	-68.4	3.8	1.49e+00	0	43	104	1141899264	77	21264
2026-01-28 12:40:17.50	338.36	3.82	-53.3	-68.3	3.8	1.49e+00	0	43	104	1141899264	77	21073
2026-01-28 12:40:20.53	338.65	3.67	-53.3	-68.2	3.8	1.49e+00	0	43	104	1141899264	77	20943
2026-01-28 12:40:23.55	338.94	3.51	-53.3	-68.2	3.8	1.49e+00	0	43	104	1141899264	77	20944
2026-01-28 12:40:26.58	339.22	3.36	-53.2	-68.2	3.8	1.49e+00	0	43	104	1141899264	77	20904
2026-01-28 12:40:29.61	339.50	3.20	-53.2	-68.2	3.8	1.49e+00	0	43	104	1141899264	77	20816
2026-01-28 12:40:32.63	339.78	3.05	-53.2	-68.2	3.8	1.49e+00	0	43	104	1141899264	77	20823
2026-01-28 12:40:35.65	340.05	2.90	-53.2	-68.2	3.8	1.49e+00	0	43	104	1141899264	77	20811
2026-01-28 12:40:38.68	340.32	2.75	-53.2	-68.1	3.8	1.49e+00	0	43	104	1141899264	77	20751
2026-01-28 12:40:41.71	340.59	2.59	-53.2	-68.1	3.8	1.49e+00	0	43	104	1141899264	77	20702
2026-01-28 12:40:44.73	340.86	2.44	-53.2	-68.1	3.8	1.49e+00	0	43	104	1141899264	77	20689
2026-01-28 12:40:47.75	341.12	2.29	-53.2	-68.1	3.8	1.49e+00	0	43	104	1141899264	77	20682
2026-01-28 12:40:50.77	341.38	2.14	-53.1	-68.1	3.8	1.49e+00	0	43	104	1141899264	77	20677
2026-01-28 12:40:53.79	341.64	1.99	-53.1	-68.1	3.8	1.49e+00	0	43	104	1141899264	77	20650

#Closed at: 2026-01-28 12:40:56
#Recorded file [1141 MB]: D:/lorett/data/31041_260128_152854.dat