passes_logs/2026/01/28/R3.2S_Murmansk/R3.2S_Murmansk__20260128_104610_NOAA_20_JPSS-1_rec.log

#Pass ID: 20260128_104610_NOAA 20 (JPSS-1)
#Satellite: NOAA 20 (JPSS-1)
#Configuration: NOAA 20
#almurnet v.1.7.20251203
#Start time: 2026-01-28 10:46:12

#Version: 2.2.20231116
#Station: R3.2S_Murmansk
#Location: 33.079688 lon 68.888172 lat
#TLE: 1 43013U 17073A   26027.80586608  .00000156  00000+0  94940-4 0  9998
#TLE: 2 43013  98.7647 328.6108 0000947  21.3465 338.7750 14.19541216424550

#Time	Az	El	Level	Level2	SNR	BER	BlckErr	Temp	State	Recorded	gain1	gain2
2026-01-28 10:46:12.43	182.28	2.11	-52.3	-67.2	3.8	1.49e+00	0	41	0	0	76	19810
2026-01-28 10:46:16.46	182.44	2.36	-52.3	-67.2	3.8	1.49e+00	0	41	104	0	75	20822
2026-01-28 10:46:20.49	182.59	2.61	-52.3	-67.2	3.8	1.49e+00	0	41	104	0	75	20900
2026-01-28 10:46:24.53	182.75	2.87	-52.2	-67.0	3.8	1.49e+00	0	41	104	0	75	20498
2026-01-28 10:46:28.55	182.91	3.13	-52.2	-66.9	3.8	1.49e+00	0	41	104	0	75	20258
2026-01-28 10:46:32.58	183.08	3.39	-52.2	-67.2	3.8	1.49e+00	0	41	104	0	75	20805
2026-01-28 10:46:36.61	183.24	3.65	-52.2	-66.3	3.8	1.49e+00	0	41	104	0	75	18917
2026-01-28 10:46:40.64	183.41	3.91	-52.2	-66.9	3.8	1.49e+00	0	41	104	0	75	20231
2026-01-28 10:46:44.67	183.59	4.18	-51.8	-61.2	5.2	8.69e-01	0	41	0	1048576	75	10505
2026-01-28 10:46:48.71	183.76	4.45	-50.4	-55.2	10.7	6.70e-03	0	42	0	8388608	72	6227
2026-01-28 10:46:52.74	183.94	4.72	-49.5	-53.1	13.0	5.87e-05	0	42	0	15728640	71	5183
2026-01-28 10:46:56.76	184.12	4.99	-50.2	-54.7	11.3	6.02e-04	0	42	0	23068672	71	6268
2026-01-28 10:47:00.79	184.30	5.27	-49.1	-52.1	14.4	0.00e+00	0	42	0	28311552	68	5480
2026-01-28 10:47:04.81	184.49	5.55	-48.3	-50.9	15.4	0.00e+00	0	42	0	36700160	68	4774
2026-01-28 10:47:08.84	184.68	5.83	-48.2	-50.6	15.7	0.00e+00	0	42	0	44040192	68	4644
2026-01-28 10:47:12.87	184.88	6.12	-47.8	-50.1	16.2	0.00e+00	0	42	0	51380224	67	4640
2026-01-28 10:47:16.90	185.08	6.41	-47.9	-50.2	16.2	0.00e+00	0	42	0	58720256	67	4675
2026-01-28 10:47:20.93	185.28	6.70	-47.7	-50.0	16.4	0.00e+00	0	42	0	66060288	67	4557
2026-01-28 10:47:24.95	185.48	6.99	-47.8	-50.0	16.5	0.00e+00	0	42	0	74448896	67	4579
2026-01-28 10:47:28.98	185.69	7.29	-47.7	-49.9	16.6	0.00e+00	0	42	0	81788928	67	4507
2026-01-28 10:47:33.01	185.91	7.59	-47.6	-49.7	16.8	0.00e+00	0	42	0	89128960	67	4410
2026-01-28 10:47:37.04	186.12	7.89	-47.5	-49.6	16.9	0.00e+00	0	42	0	96468992	67	4373
2026-01-28 10:47:41.07	186.35	8.20	-47.7	-49.9	16.7	0.00e+00	0	42	0	103809024	67	4509
2026-01-28 10:47:45.09	186.57	8.51	-47.4	-49.4	17.2	0.00e+00	0	42	0	112197632	66	4510
2026-01-28 10:47:49.11	186.80	8.82	-47.3	-49.3	17.3	0.00e+00	0	42	0	119537664	66	4477
2026-01-28 10:47:53.15	187.04	9.14	-47.0	-48.9	17.7	0.00e+00	0	42	0	126877696	66	4266
2026-01-28 10:47:57.18	187.28	9.46	-47.0	-48.8	17.8	0.00e+00	0	42	0	134217728	65	4485
2026-01-28 10:48:01.20	187.52	9.79	-46.7	-48.5	18.2	0.00e+00	0	42	0	141557760	65	4298
2026-01-28 10:48:05.24	187.78	10.12	-46.8	-48.5	18.2	0.00e+00	0	42	0	149946368	65	4313
2026-01-28 10:48:09.26	188.03	10.45	-46.6	-48.3	18.5	0.00e+00	0	42	0	157286400	65	4211
2026-01-28 10:48:13.29	188.29	10.79	-46.4	-48.0	18.8	0.00e+00	0	42	0	164626432	64	4315
2026-01-28 10:48:17.31	188.56	11.13	-46.3	-47.9	18.8	0.00e+00	0	42	0	171966464	64	4249
2026-01-28 10:48:21.35	188.83	11.47	-46.1	-47.6	19.2	0.00e+00	0	42	0	179306496	64	4123
2026-01-28 10:48:25.38	189.11	11.82	-46.1	-47.5	19.4	0.00e+00	0	43	0	187695104	63	4337
2026-01-28 10:48:29.41	189.40	12.18	-46.0	-47.4	19.5	0.00e+00	0	42	0	195035136	63	4282
2026-01-28 10:48:33.43	189.69	12.54	-46.0	-47.5	19.4	0.00e+00	0	42	0	202375168	63	4312
2026-01-28 10:48:37.45	189.99	12.90	-46.0	-47.5	19.5	0.00e+00	0	43	0	209715200	63	4306
2026-01-28 10:48:41.49	190.30	13.27	-46.1	-47.5	19.4	0.00e+00	0	43	0	217055232	63	4328
2026-01-28 10:48:45.52	190.61	13.64	-45.8	-47.3	19.7	0.00e+00	0	43	0	225443840	63	4195
2026-01-28 10:48:49.54	190.93	14.02	-45.7	-47.1	19.9	0.00e+00	0	43	0	232783872	63	4115
2026-01-28 10:48:53.56	191.26	14.40	-45.7	-47.1	19.9	0.00e+00	0	43	0	240123904	63	4118
2026-01-28 10:48:57.59	191.60	14.79	-45.6	-46.9	20.1	0.00e+00	0	43	0	247463936	63	4038
2026-01-28 10:49:01.62	191.94	15.18	-45.5	-46.8	20.2	0.00e+00	0	43	0	254803968	62	4239
2026-01-28 10:49:05.65	192.30	15.58	-45.4	-46.8	20.3	0.00e+00	0	43	0	263192576	62	4203
2026-01-28 10:49:09.68	192.66	15.99	-45.4	-46.7	20.3	0.00e+00	0	43	0	270532608	62	4180
2026-01-28 10:49:13.71	193.04	16.40	-45.4	-46.8	20.3	0.00e+00	0	43	0	277872640	62	4200
2026-01-28 10:49:17.73	193.42	16.82	-45.5	-46.8	20.3	0.00e+00	0	43	0	285212672	62	4213
2026-01-28 10:49:21.75	193.81	17.24	-45.6	-46.9	20.2	0.00e+00	0	43	0	292552704	62	4277
2026-01-28 10:49:25.79	194.22	17.67	-45.6	-47.0	20.1	0.00e+00	0	43	0	300941312	62	4317
2026-01-28 10:49:29.82	194.64	18.11	-45.8	-47.2	19.9	0.00e+00	0	43	0	308281344	62	4415
2026-01-28 10:49:33.84	195.06	18.55	-45.8	-47.2	19.9	0.00e+00	0	43	0	315621376	62	4422
2026-01-28 10:49:37.87	195.50	19.00	-45.9	-47.3	19.8	0.00e+00	0	43	0	322961408	62	4486
2026-01-28 10:49:41.90	195.95	19.45	-46.0	-47.4	19.7	0.00e+00	0	43	0	330301440	62	4542
2026-01-28 10:49:45.94	196.42	19.91	-46.0	-47.4	19.8	0.00e+00	0	43	0	338690048	62	4520
2026-01-28 10:49:49.97	196.90	20.38	-46.1	-47.5	19.6	0.00e+00	0	43	0	346030080	62	4594
2026-01-28 10:49:54.00	197.40	20.86	-46.1	-47.5	19.7	0.00e+00	0	43	0	353370112	62	4576
2026-01-28 10:49:58.03	197.91	21.34	-46.0	-47.4	19.9	0.00e+00	0	43	0	360710144	62	4500
2026-01-28 10:50:02.06	198.43	21.83	-45.9	-47.2	20.0	0.00e+00	0	43	0	369098752	62	4434
2026-01-28 10:50:06.09	198.97	22.33	-45.8	-47.2	20.1	0.00e+00	0	43	0	376438784	62	4406
2026-01-28 10:50:10.12	199.53	22.83	-45.9	-47.3	20.0	0.00e+00	0	43	0	383778816	62	4465
2026-01-28 10:50:14.15	200.11	23.34	-46.1	-47.5	19.8	0.00e+00	0	43	0	391118848	62	4589
2026-01-28 10:50:18.19	200.70	23.86	-45.9	-47.3	20.0	0.00e+00	0	43	0	398458880	63	4194
2026-01-28 10:50:22.21	201.31	24.39	-45.8	-47.1	20.1	0.00e+00	0	43	0	406847488	63	4140
2026-01-28 10:50:26.24	201.95	24.92	-45.8	-47.1	20.2	0.00e+00	0	43	0	414187520	63	4136
2026-01-28 10:50:30.27	202.61	25.46	-45.9	-47.2	20.1	0.00e+00	0	43	0	421527552	63	4175
2026-01-28 10:50:34.29	203.28	26.01	-45.9	-47.3	20.0	0.00e+00	0	43	0	428867584	63	4209
2026-01-28 10:50:38.32	203.98	26.56	-46.1	-47.5	19.8	0.00e+00	0	43	0	436207616	63	4335
2026-01-28 10:50:42.35	204.71	27.12	-46.5	-47.9	19.4	0.00e+00	0	43	0	444596224	63	4542
2026-01-28 10:50:46.38	205.46	27.69	-46.9	-48.5	18.8	0.00e+00	0	43	0	451936256	64	4572
2026-01-28 10:50:50.41	206.24	28.26	-46.9	-48.5	18.8	0.00e+00	0	43	0	459276288	64	4581
2026-01-28 10:50:54.45	207.05	28.85	-47.2	-48.9	18.5	0.00e+00	0	43	0	466616320	64	4760
2026-01-28 10:50:58.48	207.88	29.43	-47.8	-49.7	17.7	0.00e+00	0	43	0	473956352	66	4686
2026-01-28 10:51:02.51	208.74	30.03	-47.8	-49.6	17.7	0.00e+00	0	43	0	482344960	66	4630
2026-01-28 10:51:06.53	209.64	30.62	-47.4	-49.2	18.2	0.00e+00	0	43	0	489684992	66	4397
2026-01-28 10:51:10.57	210.57	31.23	-47.1	-48.8	18.6	0.00e+00	0	43	0	497025024	66	4206
2026-01-28 10:51:14.60	211.54	31.83	-47.1	-48.7	18.7	0.00e+00	0	43	0	504365056	65	4425
2026-01-28 10:51:18.63	212.54	32.44	-46.8	-48.4	19.0	0.00e+00	0	43	0	511705088	65	4268
2026-01-28 10:51:22.66	213.57	33.06	-46.9	-48.6	18.8	0.00e+00	0	43	0	520093696	65	4344
2026-01-28 10:51:26.68	214.65	33.67	-46.8	-48.3	19.0	0.00e+00	0	43	0	527433728	65	4234
2026-01-28 10:51:30.71	215.77	34.28	-46.9	-48.5	18.9	0.00e+00	0	43	0	534773760	65	4306
2026-01-28 10:51:34.75	216.93	34.90	-47.1	-48.8	18.6	0.00e+00	0	43	0	542113792	65	4473
2026-01-28 10:51:38.78	218.13	35.52	-46.5	-48.0	19.3	0.00e+00	0	43	0	549453824	65	4085
2026-01-28 10:51:42.81	219.38	36.13	-45.7	-47.0	20.5	0.00e+00	0	43	0	557842432	63	4072
2026-01-28 10:51:46.83	220.67	36.73	-46.2	-47.6	19.9	0.00e+00	0	43	0	565182464	63	4389
2026-01-28 10:51:50.87	222.02	37.34	-46.2	-47.6	20.0	0.00e+00	0	43	0	572522496	63	4341
2026-01-28 10:51:54.90	223.41	37.93	-46.4	-47.9	19.7	0.00e+00	0	43	0	579862528	63	4503
2026-01-28 10:51:58.93	224.85	38.52	-47.3	-49.0	18.4	0.00e+00	0	43	0	587202560	65	4549
2026-01-28 10:52:02.96	226.35	39.09	-47.4	-49.1	18.4	0.00e+00	0	43	0	595591168	65	4630
2026-01-28 10:52:06.99	227.90	39.66	-48.0	-49.8	17.7	0.00e+00	0	43	0	602931200	66	4755
2026-01-28 10:52:11.01	229.49	40.20	-47.2	-48.8	18.6	0.00e+00	0	43	0	610271232	66	4236
2026-01-28 10:52:15.04	231.15	40.73	-47.3	-49.0	18.5	0.00e+00	0	43	0	617611264	65	4576
2026-01-28 10:52:19.08	232.86	41.24	-47.0	-48.6	18.8	0.00e+00	0	43	0	625999872	65	4381
2026-01-28 10:52:23.11	234.62	41.73	-48.1	-50.1	17.4	0.00e+00	0	43	0	633339904	66	4890
2026-01-28 10:52:27.14	236.43	42.20	-48.3	-50.2	17.4	0.00e+00	0	43	0	640679936	67	4702
2026-01-28 10:52:31.17	238.29	42.64	-49.0	-51.3	16.3	0.00e+00	0	43	0	648019968	68	5037
2026-01-28 10:52:35.20	240.20	43.05	-48.4	-50.3	17.3	0.00e+00	0	43	0	655360000	68	4492
2026-01-28 10:52:39.23	242.16	43.42	-48.3	-50.2	17.4	0.00e+00	0	43	0	662700032	68	4416
2026-01-28 10:52:43.26	244.16	43.77	-47.7	-49.5	18.1	0.00e+00	0	43	0	671088640	67	4302
2026-01-28 10:52:47.29	246.20	44.07	-47.3	-48.9	18.7	0.00e+00	0	43	0	678428672	66	4270
2026-01-28 10:52:51.32	248.28	44.34	-47.0	-48.6	19.0	0.00e+00	0	43	0	685768704	65	4346
2026-01-28 10:52:55.35	250.39	44.57	-47.9	-49.7	17.9	0.00e+00	0	43	0	693108736	66	4669
2026-01-28 10:52:59.38	252.53	44.76	-47.7	-49.5	18.1	0.00e+00	0	43	0	701497344	66	4556
2026-01-28 10:53:03.42	254.69	44.91	-47.8	-49.6	18.0	0.00e+00	0	43	0	708837376	67	4388
2026-01-28 10:53:07.44	256.87	45.01	-47.1	-48.7	18.9	0.00e+00	0	43	0	716177408	66	4181
2026-01-28 10:53:11.47	259.05	45.06	-47.0	-48.5	19.0	0.00e+00	0	43	0	723517440	65	4334
2026-01-28 10:53:15.51	261.25	45.07	-46.8	-48.3	19.2	0.00e+00	0	43	0	730857472	65	4222
2026-01-28 10:53:19.54	263.44	45.04	-46.1	-47.5	20.1	0.00e+00	0	43	0	739246080	64	4055
2026-01-28 10:53:23.57	265.62	44.96	-46.6	-48.1	19.5	0.00e+00	0	43	0	746586112	64	4345
2026-01-28 10:53:27.60	267.79	44.83	-47.0	-48.5	19.1	0.00e+00	0	43	0	753926144	64	4577
2026-01-28 10:53:31.63	269.94	44.67	-46.8	-48.3	19.4	0.00e+00	0	43	0	761266176	64	4442
2026-01-28 10:53:35.66	272.06	44.46	-46.9	-48.4	19.3	0.00e+00	0	43	0	769654784	64	4504
2026-01-28 10:53:39.70	274.16	44.20	-47.9	-49.9	17.8	0.00e+00	0	43	0	776994816	67	4508
2026-01-28 10:53:43.73	276.21	43.92	-48.3	-50.3	17.4	0.00e+00	0	43	0	784334848	67	4712
2026-01-28 10:53:47.76	278.23	43.59	-46.4	-47.8	19.8	0.00e+00	0	43	0	791674880	64	4209
2026-01-28 10:53:51.79	280.21	43.23	-47.0	-48.5	19.1	0.00e+00	0	43	0	799014912	65	4320
2026-01-28 10:53:55.83	282.14	42.83	-47.4	-49.0	18.6	0.00e+00	0	43	0	806354944	65	4592
2026-01-28 10:53:59.86	284.02	42.41	-46.1	-47.4	20.3	0.00e+00	0	43	0	814743552	63	4257
2026-01-28 10:54:03.89	285.85	41.96	-45.2	-46.3	21.3	0.00e+00	0	43	0	822083584	62	3997
2026-01-28 10:54:07.92	287.63	41.48	-46.0	-47.3	20.4	0.00e+00	0	43	0	829423616	63	4211
2026-01-28 10:54:11.95	289.36	40.98	-45.5	-46.7	21.0	0.00e+00	0	43	0	836763648	61	4419
2026-01-28 10:54:15.98	291.04	40.46	-44.8	-45.9	21.8	0.00e+00	0	43	0	845152256	61	4013
2026-01-28 10:54:20.02	292.66	39.92	-45.1	-46.3	21.4	0.00e+00	0	43	0	852492288	61	4221
2026-01-28 10:54:24.05	294.23	39.37	-45.8	-47.1	20.6	0.00e+00	0	43	0	859832320	62	4360
2026-01-28 10:54:28.08	295.74	38.80	-45.4	-46.6	21.1	0.00e+00	0	43	0	867172352	62	4118
2026-01-28 10:54:32.11	297.21	38.22	-45.8	-47.0	20.7	0.00e+00	0	43	0	874512384	62	4331
2026-01-28 10:54:36.14	298.62	37.63	-46.0	-47.3	20.5	0.00e+00	0	43	0	882900992	62	4449
2026-01-28 10:54:40.15	299.98	37.04	-46.2	-47.5	20.2	0.00e+00	0	43	0	890241024	64	4091
2026-01-28 10:54:44.18	301.29	36.44	-44.8	-45.9	21.7	0.00e+00	0	43	0	897581056	61	4022
2026-01-28 10:54:48.21	302.56	35.83	-46.4	-47.9	18.5	0.00e+00	0	43	0	904921088	63	4499
2026-01-28 10:54:52.25	303.78	35.22	-46.3	-47.8	18.5	0.00e+00	0	43	0	912261120	63	4446
2026-01-28 10:54:56.27	304.96	34.61	-46.4	-47.8	19.4	0.00e+00	0	43	0	920649728	64	4202
2026-01-28 10:55:00.30	306.09	34.00	-47.4	-49.1	18.5	0.00e+00	0	43	0	927989760	65	4605
2026-01-28 10:55:04.34	307.19	33.38	-45.6	-46.8	20.7	0.00e+00	0	43	0	935329792	63	3986
2026-01-28 10:55:08.37	308.24	32.77	-48.1	-50.0	17.4	0.00e+00	0	43	0	942669824	66	4870
2026-01-28 10:55:12.40	309.26	32.17	-47.0	-48.6	19.0	0.00e+00	0	43	0	950009856	66	4104
2026-01-28 10:55:16.43	310.24	31.56	-48.1	-50.0	17.6	0.00e+00	0	43	0	958398464	66	4843
2026-01-28 10:55:20.46	311.18	30.96	-46.3	-47.7	19.8	0.00e+00	0	43	0	965738496	64	4160
2026-01-28 10:55:24.49	312.09	30.36	-46.4	-47.8	19.8	0.00e+00	0	43	0	973078528	63	4461
2026-01-28 10:55:28.53	312.97	29.77	-47.2	-48.8	18.7	0.00e+00	0	43	0	980418560	66	4233
2026-01-28 10:55:32.57	313.82	29.18	-45.6	-46.9	20.6	0.00e+00	0	43	0	988807168	63	4023
2026-01-28 10:55:36.59	314.64	28.60	-48.0	-50.0	17.5	0.00e+00	0	43	0	996147200	66	4830
2026-01-28 10:55:40.61	315.42	28.03	-46.8	-48.3	19.2	0.00e+00	0	43	0	1003487232	65	4202
2026-01-28 10:55:44.65	316.19	27.46	-46.3	-47.7	19.8	0.00e+00	0	43	0	1010827264	63	4414
2026-01-28 10:55:48.68	316.92	26.90	-46.7	-48.3	19.1	0.00e+00	0	43	0	1018167296	64	4461
2026-01-28 10:55:52.71	317.64	26.34	-45.5	-46.8	20.6	0.00e+00	0	43	0	1025507328	63	3966
2026-01-28 10:55:56.74	318.32	25.79	-45.3	-46.5	20.8	0.00e+00	0	43	0	1033895936	61	4337
2026-01-28 10:56:00.77	318.99	25.25	-46.4	-47.9	19.6	0.00e+00	0	43	0	1041235968	63	4495
2026-01-28 10:56:04.81	319.64	24.72	-45.9	-47.2	20.2	0.00e+00	0	43	0	1048576000	63	4168
2026-01-28 10:56:08.84	320.26	24.19	-45.1	-46.3	21.0	0.00e+00	0	43	0	1055916032	62	4001
2026-01-28 10:56:12.86	320.86	23.67	-45.5	-46.8	20.5	0.00e+00	0	43	0	1064304640	62	4218
2026-01-28 10:56:16.89	321.45	23.16	-45.6	-46.9	20.4	0.00e+00	0	43	0	1071644672	62	4259
2026-01-28 10:56:20.92	322.01	22.66	-45.4	-46.6	20.6	0.00e+00	0	43	0	1078984704	62	4143
2026-01-28 10:56:24.95	322.56	22.16	-45.5	-46.8	20.5	0.00e+00	0	43	0	1086324736	62	4198
2026-01-28 10:56:28.98	323.09	21.67	-45.9	-47.3	20.0	0.00e+00	0	43	0	1093664768	62	4471
2026-01-28 10:56:33.00	323.61	21.19	-46.4	-47.9	19.4	0.00e+00	0	43	0	1102053376	63	4494
2026-01-28 10:56:37.02	324.11	20.71	-46.3	-47.7	19.5	0.00e+00	0	43	0	1109393408	63	4424
2026-01-28 10:56:41.05	324.60	20.24	-45.9	-47.3	19.9	0.00e+00	0	43	0	1116733440	63	4236
2026-01-28 10:56:45.09	325.07	19.78	-46.0	-47.5	19.7	0.00e+00	0	43	0	1124073472	63	4300
2026-01-28 10:56:49.13	325.53	19.32	-46.4	-47.9	19.3	0.00e+00	0	43	0	1131413504	63	4519
2026-01-28 10:56:53.16	325.98	18.87	-46.2	-47.6	19.5	0.00e+00	0	43	0	1139802112	63	4377
2026-01-28 10:56:57.19	326.41	18.43	-45.8	-47.1	20.0	0.00e+00	0	43	0	1147142144	63	4137
2026-01-28 10:57:01.22	326.84	17.99	-45.7	-47.0	20.1	0.00e+00	0	43	0	1154482176	63	4082
2026-01-28 10:57:05.26	327.25	17.56	-46.2	-47.6	19.5	0.00e+00	0	43	0	1161822208	63	4389
2026-01-28 10:57:09.29	327.65	17.14	-46.6	-48.2	18.7	0.00e+00	0	43	0	1169162240	64	4426
2026-01-28 10:57:13.32	328.04	16.72	-46.8	-48.5	18.5	0.00e+00	0	43	0	1177550848	64	4555
2026-01-28 10:57:17.35	328.42	16.30	-46.6	-48.2	18.8	0.00e+00	0	43	0	1184890880	64	4411
2026-01-28 10:57:21.38	328.79	15.90	-46.4	-48.0	18.9	0.00e+00	0	43	0	1192230912	64	4340
2026-01-28 10:57:25.41	329.15	15.50	-46.2	-47.7	19.2	0.00e+00	0	43	0	1199570944	64	4191
2026-01-28 10:57:29.44	329.50	15.10	-46.0	-47.5	19.3	0.00e+00	0	43	0	1207959552	64	4089
2026-01-28 10:57:33.46	329.84	14.71	-46.1	-47.6	19.3	0.00e+00	0	43	0	1215299584	64	4123
2026-01-28 10:57:37.49	330.18	14.33	-46.3	-47.8	19.0	0.00e+00	0	43	0	1222639616	64	4227
2026-01-28 10:57:41.52	330.50	13.95	-46.4	-48.0	18.8	0.00e+00	0	43	0	1229979648	64	4305
2026-01-28 10:57:45.55	330.82	13.58	-46.7	-48.4	18.5	0.00e+00	0	43	0	1237319680	64	4509
2026-01-28 10:57:49.58	331.13	13.21	-46.9	-48.6	18.2	0.00e+00	0	43	0	1245708288	64	4631
2026-01-28 10:57:53.61	331.44	12.84	-46.7	-48.4	18.3	0.00e+00	0	43	0	1253048320	64	4538
2026-01-28 10:57:57.64	331.74	12.48	-47.0	-48.8	18.0	3.80e-06	0	43	0	1260388352	64	4720
2026-01-28 10:58:01.66	332.03	12.13	-47.3	-49.2	17.5	0.00e+00	0	43	0	1267728384	65	4669
2026-01-28 10:58:05.69	332.31	11.78	-47.1	-49.0	17.7	0.00e+00	0	43	0	1275068416	65	4558
2026-01-28 10:58:09.72	332.59	11.43	-46.9	-48.7	18.0	0.00e+00	0	43	0	1282408448	65	4440
2026-01-28 10:58:13.75	332.86	11.09	-46.7	-48.4	18.2	0.00e+00	0	43	0	1290797056	65	4272
2026-01-28 10:58:17.78	333.13	10.75	-46.5	-48.2	18.4	2.28e-05	0	43	0	1298137088	65	4153
2026-01-28 10:58:21.81	333.39	10.42	-46.4	-48.1	18.4	0.00e+00	0	43	0	1305477120	64	4341
2026-01-28 10:58:25.84	333.64	10.09	-46.6	-48.3	18.2	0.00e+00	0	43	0	1312817152	64	4483
2026-01-28 10:58:29.88	333.89	9.76	-46.8	-48.6	17.9	0.00e+00	0	43	0	1321205760	64	4621
2026-01-28 10:58:33.91	334.14	9.44	-47.3	-49.3	17.3	0.00e+00	0	43	0	1328545792	65	4707
2026-01-28 10:58:37.94	334.38	9.12	-47.5	-49.6	16.9	0.00e+00	0	43	0	1335885824	65	4896
2026-01-28 10:58:41.97	334.61	8.81	-47.8	-50.1	16.4	0.00e+00	0	43	0	1343225856	66	4877
2026-01-28 10:58:46.01	334.85	8.50	-48.1	-50.5	15.9	0.00e+00	0	43	0	1350565888	66	5154
2026-01-28 10:58:50.03	335.07	8.19	-48.1	-50.5	15.8	0.00e+00	0	43	0	1358954496	66	5153
2026-01-28 10:58:54.07	335.29	7.88	-48.0	-50.4	16.0	0.00e+00	0	43	0	1366294528	66	5051
2026-01-28 10:58:58.09	335.51	7.58	-47.8	-50.0	16.3	0.00e+00	0	43	0	1373634560	66	4866
2026-01-28 10:59:02.12	335.73	7.29	-47.8	-50.1	16.3	0.00e+00	0	43	0	1380974592	66	4880
2026-01-28 10:59:06.15	335.94	6.99	-47.6	-49.8	16.5	0.00e+00	0	43	0	1388314624	66	4744
2026-01-28 10:59:10.18	336.14	6.70	-47.6	-49.8	16.5	0.00e+00	0	43	0	1396703232	66	4726
2026-01-28 10:59:14.21	336.34	6.41	-47.6	-49.8	16.4	0.00e+00	0	43	0	1404043264	66	4741
2026-01-28 10:59:18.23	336.54	6.13	-47.6	-49.8	16.3	0.00e+00	0	43	0	1411383296	66	4747
2026-01-28 10:59:22.26	336.74	5.85	-47.6	-49.9	16.2	0.00e+00	0	43	0	1418723328	66	4788
2026-01-28 10:59:26.28	336.93	5.57	-48.0	-50.6	15.5	0.00e+00	0	43	0	1426063360	66	5162
2026-01-28 10:59:30.31	337.12	5.29	-47.8	-50.3	15.7	0.00e+00	0	43	0	1434451968	66	5018
2026-01-28 10:59:34.34	337.30	5.01	-48.6	-51.6	14.6	0.00e+00	0	43	0	1441792000	67	5503
2026-01-28 10:59:38.37	337.49	4.74	-53.2	-68.2	3.8	1.49e+00	0	43	104	1442840576	76	22024
2026-01-28 10:59:42.41	337.67	4.47	-53.5	-68.5	3.8	1.49e+00	0	43	104	1442840576	77	21611
2026-01-28 10:59:46.44	337.84	4.21	-53.4	-68.4	3.8	1.49e+00	0	43	104	1442840576	77	21294
2026-01-28 10:59:50.47	338.02	3.94	-53.3	-68.2	3.8	1.49e+00	0	43	104	1442840576	77	21003
2026-01-28 10:59:54.50	338.19	3.68	-53.4	-68.3	3.8	1.49e+00	0	43	104	1442840576	77	21184
2026-01-28 10:59:58.53	338.36	3.42	-53.2	-68.2	3.8	1.49e+00	0	43	104	1442840576	77	20901
2026-01-28 11:00:02.56	338.52	3.16	-53.2	-68.1	3.8	1.49e+00	0	43	104	1442840576	77	20757
2026-01-28 11:00:06.60	338.69	2.91	-53.2	-68.1	3.8	1.49e+00	0	43	104	1442840576	77	20766
2026-01-28 11:00:10.63	338.85	2.65	-53.2	-68.1	3.8	1.49e+00	0	43	104	1442840576	77	20696
2026-01-28 11:00:14.66	339.01	2.40	-53.1	-68.1	3.8	1.49e+00	0	43	104	1442840576	77	20662
2026-01-28 11:00:18.70	339.16	2.15	-53.1	-68.1	3.8	1.49e+00	0	43	104	1442840576	77	20654
2026-01-28 11:00:22.73	339.32	1.91	-53.1	-68.1	3.8	1.49e+00	0	43	104	1442840576	77	20551

#Closed at: 2026-01-28 11:00:23
#Recorded file [1442 MB]: D:/lorett/data/31041_260128_134612.dat