passes_logs/2026/01/28/R3.2S_Murmansk/R3.2S_Murmansk__20260128_130251_FENGYUN_3D_rec.log

#Pass ID: 20260128_130251_FENGYUN 3D
#Satellite: FENGYUN 3D
#Configuration: FENGYUN 3D
#almurnet v.1.7.20251203
#Start time: 2026-01-28 13:02:53

#Version: 2.2.20231116
#Station: R3.2S_Murmansk
#Location: 33.079688 lon 68.888172 lat
#TLE: 1 43010U 17072A   26027.90082829  .00000305  00000+0  16579-3 0  9998
#TLE: 2 43010  98.9960 359.9183 0002511  88.1058 272.0405 14.19701796425082

#Time	Az	El	Level	Level2	SNR	BER	BlckErr	Temp	State	Recorded	gain1	gain2
2026-01-28 13:02:53.49	187.67	2.12	-54.0	-66.0	3.8	8.46e-01	0	41	0	0	79	14429
2026-01-28 13:02:57.51	187.85	2.37	-54.2	-66.2	3.8	8.46e-01	0	41	104	0	79	14780
2026-01-28 13:03:01.54	188.04	2.62	-54.1	-66.1	3.8	8.47e-01	0	41	104	0	79	14605
2026-01-28 13:03:05.58	188.23	2.87	-54.0	-65.9	3.8	8.47e-01	0	41	104	0	79	14341
2026-01-28 13:03:09.61	188.42	3.12	-53.7	-65.7	3.8	8.45e-01	0	41	104	0	79	13943
2026-01-28 13:03:13.64	188.61	3.38	-53.2	-65.1	3.8	8.46e-01	0	41	104	0	78	13809
2026-01-28 13:03:17.67	188.81	3.63	-52.4	-63.9	3.8	8.46e-01	0	41	104	0	76	13437
2026-01-28 13:03:21.71	189.01	3.89	-52.4	-64.3	3.8	8.46e-01	0	41	104	0	76	14127
2026-01-28 13:03:25.74	189.21	4.16	-52.2	-62.0	4.0	8.43e-01	0	41	104	0	76	10837
2026-01-28 13:03:29.77	189.42	4.42	-52.3	-63.2	3.8	8.47e-01	0	41	104	0	76	12409
2026-01-28 13:03:33.80	189.63	4.69	-50.1	-54.1	8.9	5.29e-02	0	41	0	8388608	72	5469
2026-01-28 13:03:37.82	189.84	4.95	-46.1	-47.8	15.5	0.00e+00	0	42	0	30408704	64	4196
2026-01-28 13:03:41.86	190.06	5.23	-44.9	-46.2	17.2	2.97e-05	0	42	0	53477376	61	4162
2026-01-28 13:03:45.89	190.28	5.50	-43.6	-44.7	18.9	0.00e+00	0	42	0	76546048	59	3952
2026-01-28 13:03:49.92	190.51	5.78	-43.5	-44.6	19.0	0.00e+00	0	42	0	98566144	58	4130
2026-01-28 13:03:53.95	190.74	6.05	-43.4	-44.5	19.2	0.00e+00	0	42	0	121634816	58	4061
2026-01-28 13:03:57.99	190.98	6.34	-43.4	-44.5	19.2	0.00e+00	0	42	0	144703488	58	4082
2026-01-28 13:04:02.02	191.21	6.62	-43.1	-44.2	19.5	0.00e+00	0	42	0	166723584	58	3941
2026-01-28 13:04:06.05	191.46	6.91	-43.1	-44.2	19.6	0.00e+00	0	42	0	189792256	57	4170
2026-01-28 13:04:10.09	191.70	7.20	-42.9	-44.0	19.8	0.00e+00	0	42	0	212860928	57	4056
2026-01-28 13:04:14.13	191.96	7.49	-42.7	-43.7	20.1	0.00e+00	0	42	0	234881024	57	3926
2026-01-28 13:04:18.17	192.21	7.79	-42.4	-43.4	20.4	0.00e+00	0	42	0	257949696	56	4042
2026-01-28 13:04:22.21	192.48	8.09	-42.3	-43.3	20.5	0.00e+00	0	42	0	281018368	56	3979
2026-01-28 13:04:26.24	192.74	8.39	-42.5	-43.5	20.4	0.00e+00	0	42	0	303038464	56	4070
2026-01-28 13:04:30.28	193.02	8.69	-42.2	-43.1	20.7	0.00e+00	0	42	0	326107136	56	3913
2026-01-28 13:04:34.30	193.29	9.00	-42.2	-43.2	20.7	0.00e+00	0	42	0	349175808	56	3918
2026-01-28 13:04:38.34	193.58	9.31	-42.1	-43.0	20.9	0.00e+00	0	42	0	371195904	56	3852
2026-01-28 13:04:42.36	193.87	9.63	-42.1	-43.1	20.8	0.00e+00	0	42	0	393216000	56	3891
2026-01-28 13:04:46.38	194.16	9.95	-42.1	-43.1	20.9	0.00e+00	0	42	0	416284672	56	3875
2026-01-28 13:04:50.41	194.46	10.27	-42.1	-43.1	20.9	0.00e+00	0	42	0	439353344	56	3888
2026-01-28 13:04:54.43	194.77	10.59	-41.9	-42.8	21.1	0.00e+00	0	42	0	461373440	55	3980
2026-01-28 13:04:58.46	195.08	10.92	-41.9	-42.8	21.1	0.00e+00	0	42	0	484442112	55	3989
2026-01-28 13:05:02.49	195.40	11.25	-42.0	-42.9	21.1	0.00e+00	0	42	0	507510784	55	4032
2026-01-28 13:05:06.52	195.73	11.59	-41.8	-42.8	21.2	0.00e+00	0	42	0	529530880	55	3970
2026-01-28 13:05:10.55	196.07	11.93	-41.8	-42.8	21.2	0.00e+00	0	42	0	552599552	55	3969
2026-01-28 13:05:14.58	196.41	12.27	-41.7	-42.6	21.3	0.00e+00	0	42	0	574619648	55	3907
2026-01-28 13:05:18.61	196.76	12.62	-41.5	-42.4	21.6	0.00e+00	0	42	0	597688320	54	4031
2026-01-28 13:05:22.64	197.12	12.97	-41.3	-42.2	21.8	0.00e+00	0	42	0	620756992	54	3917
2026-01-28 13:05:26.67	197.49	13.33	-41.2	-42.1	21.9	0.00e+00	0	42	0	642777088	54	3870
2026-01-28 13:05:30.71	197.86	13.69	-41.1	-42.0	22.0	0.00e+00	0	42	0	665845760	54	3844
2026-01-28 13:05:34.74	198.25	14.06	-41.1	-42.0	22.0	0.00e+00	0	42	0	688914432	54	3827
2026-01-28 13:05:38.78	198.64	14.43	-41.0	-41.9	22.1	0.00e+00	0	42	0	710934528	54	3799
2026-01-28 13:05:42.81	199.04	14.80	-40.8	-41.7	22.3	0.00e+00	0	42	0	734003200	53	3922
2026-01-28 13:05:46.85	199.46	15.18	-40.8	-41.6	22.3	0.00e+00	0	43	0	756023296	53	3895
2026-01-28 13:05:50.89	199.88	15.56	-40.8	-41.7	22.3	0.00e+00	0	42	0	779091968	53	3924
2026-01-28 13:05:54.92	200.32	15.95	-40.5	-41.3	22.6	0.00e+00	0	42	0	802160640	53	3773
2026-01-28 13:05:58.95	200.76	16.34	-40.2	-41.0	23.1	0.00e+00	0	42	0	824180736	52	3842
2026-01-28 13:06:02.98	201.22	16.74	-40.1	-40.8	23.2	0.00e+00	0	42	0	847249408	52	3779
2026-01-28 13:06:07.01	201.68	17.14	-40.0	-40.7	23.4	0.00e+00	0	43	0	870318080	51	3955
2026-01-28 13:06:11.04	202.16	17.55	-40.0	-40.7	23.5	0.00e+00	0	42	0	892338176	51	3940
2026-01-28 13:06:15.07	202.66	17.96	-39.9	-40.7	23.5	0.00e+00	0	42	0	915406848	51	3931
2026-01-28 13:06:19.10	203.16	18.38	-40.1	-40.9	23.4	0.00e+00	0	42	0	938475520	51	4025
2026-01-28 13:06:23.13	203.68	18.80	-40.2	-41.0	23.2	0.00e+00	0	42	0	960495616	51	4082
2026-01-28 13:06:27.16	204.22	19.23	-39.8	-40.6	23.6	0.00e+00	0	42	0	983564288	51	3892
2026-01-28 13:06:31.19	204.76	19.66	-39.3	-40.1	24.1	0.00e+00	0	42	0	1006632960	50	3883
2026-01-28 13:06:35.22	205.33	20.10	-39.1	-39.9	24.3	0.00e+00	0	42	0	1028653056	50	3786
2026-01-28 13:06:39.26	205.91	20.54	-39.3	-40.1	24.1	0.00e+00	0	43	0	1051721728	50	3872
2026-01-28 13:06:43.29	206.51	20.98	-39.5	-40.3	23.9	0.00e+00	0	42	0	1074790400	50	3978
2026-01-28 13:06:47.32	207.12	21.44	-39.5	-40.3	24.0	0.00e+00	0	42	0	1096810496	50	3959
2026-01-28 13:06:51.35	207.75	21.89	-39.3	-40.0	24.2	0.00e+00	0	42	0	1118830592	50	3861
2026-01-28 13:06:55.39	208.40	22.35	-39.2	-39.9	24.3	0.00e+00	0	42	0	1141899264	50	3805
2026-01-28 13:06:59.42	209.07	22.82	-38.9	-39.6	24.6	0.00e+00	0	42	0	1164967936	49	3886
2026-01-28 13:07:03.45	209.76	23.29	-38.8	-39.6	24.6	0.00e+00	0	42	0	1186988032	49	3875
2026-01-28 13:07:07.49	210.47	23.77	-38.9	-39.6	24.6	0.00e+00	0	42	0	1210056704	49	3903
2026-01-28 13:07:11.53	211.20	24.25	-38.8	-39.5	24.7	0.00e+00	0	42	0	1233125376	49	3855
2026-01-28 13:07:15.56	211.95	24.73	-38.9	-39.7	24.6	0.00e+00	0	43	0	1255145472	49	3923
2026-01-28 13:07:19.59	212.72	25.22	-38.7	-39.4	24.7	0.00e+00	0	42	0	1278214144	49	3820
2026-01-28 13:07:23.62	213.52	25.71	-38.7	-39.4	24.8	0.00e+00	0	43	0	1301282816	49	3817
2026-01-28 13:07:27.66	214.35	26.20	-38.8	-39.5	24.7	0.00e+00	0	42	0	1323302912	49	3836
2026-01-28 13:07:31.69	215.19	26.70	-38.4	-39.1	25.1	0.00e+00	0	43	0	1346371584	48	3876
2026-01-28 13:07:35.73	216.07	27.20	-38.4	-39.1	25.1	0.00e+00	0	43	0	1369440256	48	3899
2026-01-28 13:07:39.76	216.97	27.70	-38.4	-39.1	25.1	0.00e+00	0	43	0	1391460352	48	3873
2026-01-28 13:07:43.79	217.90	28.20	-38.3	-39.0	25.2	0.00e+00	0	43	0	1414529024	48	3851
2026-01-28 13:07:47.83	218.86	28.70	-38.3	-39.0	25.2	0.00e+00	0	42	0	1437597696	48	3832
2026-01-28 13:07:51.86	219.85	29.20	-38.3	-39.0	25.2	0.00e+00	0	42	0	1459617792	48	3857
2026-01-28 13:07:55.89	220.87	29.71	-38.1	-38.8	25.3	0.00e+00	0	42	0	1482686464	48	3773
2026-01-28 13:07:59.93	221.92	30.21	-38.0	-38.7	25.4	0.00e+00	0	42	0	1504706560	48	3734
2026-01-28 13:08:03.96	223.01	30.71	-38.2	-38.9	25.3	0.00e+00	0	42	0	1527775232	48	3818
2026-01-28 13:08:07.99	224.12	31.21	-38.2	-38.8	25.3	0.00e+00	0	43	0	1550843904	48	3780
2026-01-28 13:08:12.03	225.28	31.70	-37.7	-38.4	25.3	0.00e+00	0	42	0	1572864000	47	3782
2026-01-28 13:08:16.07	226.46	32.19	-37.6	-38.3	25.3	0.00e+00	0	43	0	1595932672	47	3770
2026-01-28 13:08:20.11	227.69	32.67	-37.7	-38.4	25.3	0.00e+00	0	43	0	1619001344	46	4024
2026-01-28 13:08:24.14	228.94	33.15	-38.0	-38.7	25.0	0.00e+00	0	43	0	1641021440	46	4160
2026-01-28 13:08:28.18	230.24	33.62	-37.8	-38.5	25.2	0.00e+00	0	43	0	1664090112	46	4089
2026-01-28 13:08:32.21	231.57	34.08	-37.8	-38.5	25.2	0.00e+00	0	42	0	1687158784	46	4076
2026-01-28 13:08:36.25	232.94	34.53	-37.7	-38.4	25.3	0.00e+00	0	43	0	1709178880	46	4030
2026-01-28 13:08:40.28	234.34	34.96	-37.7	-38.4	25.2	0.00e+00	0	42	0	1732247552	46	4047
2026-01-28 13:08:44.31	235.78	35.38	-37.8	-38.5	25.2	0.00e+00	0	43	0	1755316224	46	4079
2026-01-28 13:08:48.35	237.26	35.79	-37.9	-38.7	25.1	0.00e+00	0	43	0	1777336320	46	4151
2026-01-28 13:08:52.38	238.77	36.18	-37.6	-38.3	25.4	0.00e+00	0	42	0	1800404992	46	3981
2026-01-28 13:08:56.41	240.32	36.56	-37.6	-38.3	25.4	0.00e+00	0	42	0	1823473664	46	3992
2026-01-28 13:09:00.45	241.90	36.91	-37.5	-38.3	25.5	0.00e+00	0	43	0	1845493760	46	3959
2026-01-28 13:09:04.48	243.52	37.24	-37.5	-38.2	25.5	0.00e+00	0	43	0	1867513856	46	3948
2026-01-28 13:09:08.51	245.17	37.56	-37.6	-38.3	25.5	0.00e+00	0	42	0	1890582528	46	3960
2026-01-28 13:09:12.54	246.84	37.84	-37.4	-38.1	25.6	0.00e+00	0	43	0	1913651200	46	3883
2026-01-28 13:09:16.58	248.55	38.10	-37.6	-38.3	25.5	0.00e+00	0	42	0	1935671296	46	3961
2026-01-28 13:09:20.61	250.28	38.34	-37.6	-38.3	25.4	0.00e+00	0	42	0	1958739968	46	3981
2026-01-28 13:09:24.65	252.04	38.55	-37.4	-38.1	25.6	0.00e+00	0	43	0	1981808640	46	3876
2026-01-28 13:09:28.68	253.81	38.72	-37.3	-38.0	25.7	0.00e+00	0	43	0	2003828736	46	3857
2026-01-28 13:09:32.72	255.61	38.87	-37.3	-38.1	25.7	0.00e+00	0	43	0	2026897408	46	3873
2026-01-28 13:09:36.75	257.41	38.99	-37.6	-38.3	25.5	0.00e+00	0	43	0	2049966080	46	3971
2026-01-28 13:09:40.79	259.23	39.08	-37.5	-38.2	25.5	0.00e+00	0	43	0	2071986176	46	3952
2026-01-28 13:09:44.82	261.06	39.13	-37.4	-38.2	25.6	0.00e+00	0	42	0	2095054848	46	3914
2026-01-28 13:09:48.85	262.89	39.16	-37.4	-38.2	25.6	0.00e+00	0	43	0	2118123520	46	3914
2026-01-28 13:09:52.89	264.72	39.15	-37.7	-38.4	25.4	0.00e+00	0	43	0	2140143616	46	4041
2026-01-28 13:09:56.92	266.55	39.10	-37.3	-38.0	25.7	0.00e+00	0	42	0	2163212288	46	3849
2026-01-28 13:10:00.94	268.36	39.03	-37.5	-38.2	25.6	0.00e+00	0	42	0	2186280960	46	3919
2026-01-28 13:10:04.96	270.17	38.93	-37.6	-38.3	25.5	0.00e+00	0	43	0	2208301056	46	3971
2026-01-28 13:10:09.00	271.97	38.79	-37.6	-38.3	25.5	0.00e+00	0	43	0	2231369728	46	3966
2026-01-28 13:10:13.02	273.74	38.63	-37.6	-38.3	25.5	0.00e+00	0	42	0	2253389824	46	3975
2026-01-28 13:10:17.05	275.51	38.43	-37.6	-38.3	25.5	0.00e+00	0	42	0	2276458496	46	3981
2026-01-28 13:10:21.08	277.24	38.21	-37.6	-38.3	25.5	0.00e+00	0	43	0	2298478592	46	3992
2026-01-28 13:10:25.12	278.96	37.96	-37.4	-38.2	25.7	0.00e+00	0	42	0	2321547264	46	3915
2026-01-28 13:10:29.16	280.65	37.68	-37.8	-38.5	25.3	0.00e+00	0	42	0	2344615936	46	4075
2026-01-28 13:10:33.20	282.31	37.38	-37.4	-38.1	25.7	0.00e+00	0	43	0	2367684608	46	3902
2026-01-28 13:10:37.23	283.94	37.06	-37.6	-38.3	25.6	0.00e+00	0	43	0	2389704704	46	3970
2026-01-28 13:10:41.26	285.53	36.72	-37.4	-38.1	25.7	0.00e+00	0	43	0	2412773376	46	3895
2026-01-28 13:10:45.29	287.09	36.35	-37.7	-38.4	25.4	0.00e+00	0	42	0	2435842048	46	4041
2026-01-28 13:10:49.32	288.62	35.97	-37.8	-38.5	25.4	0.00e+00	0	43	0	2457862144	46	4085
2026-01-28 13:10:53.35	290.10	35.57	-37.7	-38.4	25.4	0.00e+00	0	43	0	2480930816	46	4049
2026-01-28 13:10:57.37	291.55	35.16	-37.8	-38.5	25.4	0.00e+00	0	42	0	2502950912	46	4058
2026-01-28 13:11:01.40	292.97	34.73	-37.8	-38.5	25.4	0.00e+00	0	43	0	2526019584	46	4060
2026-01-28 13:11:05.44	294.35	34.29	-37.8	-38.5	25.4	0.00e+00	0	43	0	2549088256	46	4078
2026-01-28 13:11:09.47	295.69	33.84	-38.0	-38.8	25.2	0.00e+00	0	42	0	2571108352	46	4196
2026-01-28 13:11:13.51	297.00	33.37	-37.9	-38.6	25.3	0.00e+00	0	43	0	2594177024	46	4121
2026-01-28 13:11:17.54	298.27	32.90	-38.1	-38.9	25.1	0.00e+00	0	43	0	2616197120	46	4247
2026-01-28 13:11:21.56	299.50	32.43	-38.2	-38.9	25.1	0.00e+00	0	42	0	2639265792	46	4262
2026-01-28 13:11:25.59	300.70	31.94	-38.1	-38.8	25.2	0.00e+00	0	42	0	2662334464	47	3980
2026-01-28 13:11:29.62	301.86	31.45	-38.0	-38.7	25.2	0.00e+00	0	42	0	2684354560	47	3917
2026-01-28 13:11:33.65	302.99	30.96	-38.2	-38.9	25.0	0.00e+00	0	42	0	2707423232	47	4041
2026-01-28 13:11:37.69	304.09	30.46	-38.3	-39.0	24.9	0.00e+00	0	43	0	2729443328	47	4076
2026-01-28 13:11:41.72	305.15	29.96	-38.1	-38.8	25.1	0.00e+00	0	42	0	2752512000	47	3987
2026-01-28 13:11:45.76	306.19	29.46	-38.3	-39.0	24.8	0.00e+00	0	43	0	2775580672	47	4092
2026-01-28 13:11:49.79	307.18	28.96	-38.2	-38.9	24.9	0.00e+00	0	43	0	2797600768	47	4050
2026-01-28 13:11:53.82	308.15	28.46	-38.6	-39.3	24.6	0.00e+00	0	43	0	2820669440	47	4217
2026-01-28 13:11:57.86	309.10	27.96	-38.9	-39.6	24.7	0.00e+00	0	43	0	2843738112	48	4145
2026-01-28 13:12:01.89	310.01	27.46	-38.3	-39.0	25.3	0.00e+00	0	43	0	2866806784	48	3854
2026-01-28 13:12:05.93	310.90	26.97	-38.6	-39.4	24.9	0.00e+00	0	42	0	2888826880	48	4015
2026-01-28 13:12:09.97	311.76	26.47	-38.5	-39.2	25.1	0.00e+00	0	43	0	2911895552	48	3944
2026-01-28 13:12:14.00	312.59	25.98	-38.5	-39.2	25.1	0.00e+00	0	43	0	2934964224	48	3914
2026-01-28 13:12:18.04	313.40	25.49	-38.8	-39.5	24.8	0.00e+00	0	43	0	2956984320	48	4064
2026-01-28 13:12:22.07	314.18	25.00	-38.7	-39.4	24.9	0.00e+00	0	43	0	2979004416	48	4048
2026-01-28 13:12:26.10	314.94	24.52	-38.7	-39.4	24.9	0.00e+00	0	42	0	3002073088	48	4045
2026-01-28 13:12:30.14	315.68	24.04	-39.0	-39.7	24.5	0.00e+00	0	42	0	3025141760	48	4193
2026-01-28 13:12:34.18	316.40	23.57	-38.9	-39.6	24.6	0.00e+00	0	42	0	3047161856	48	4141
2026-01-28 13:12:38.21	317.10	23.10	-38.9	-39.6	24.7	0.00e+00	0	42	0	3070230528	48	4120
2026-01-28 13:12:42.23	317.77	22.63	-39.1	-39.8	24.4	0.00e+00	0	43	0	3093299200	48	4242
2026-01-28 13:12:46.27	318.43	22.17	-39.2	-39.9	24.3	0.00e+00	0	43	0	3115319296	49	4043
2026-01-28 13:12:50.31	319.07	21.71	-39.2	-39.9	24.3	0.00e+00	0	43	0	3138387968	49	4028
2026-01-28 13:12:54.34	319.69	21.26	-39.5	-40.2	24.0	0.00e+00	0	43	0	3161456640	49	4176
2026-01-28 13:12:58.38	320.30	20.81	-39.7	-40.5	23.8	0.00e+00	0	42	0	3183476736	50	4074
2026-01-28 13:13:02.41	320.88	20.37	-39.8	-40.6	23.7	0.00e+00	0	43	0	3206545408	50	4099
2026-01-28 13:13:06.44	321.45	19.94	-39.6	-40.4	23.8	0.00e+00	0	42	0	3229614080	50	4022
2026-01-28 13:13:10.47	322.01	19.50	-40.1	-40.9	23.3	0.00e+00	0	42	0	3251634176	50	4284
2026-01-28 13:13:14.50	322.55	19.08	-40.1	-40.9	23.3	0.00e+00	0	43	0	3274702848	51	4043
2026-01-28 13:13:18.54	323.08	18.65	-40.1	-40.8	23.4	0.00e+00	0	43	0	3297771520	51	4003
2026-01-28 13:13:22.58	323.59	18.24	-40.0	-40.7	23.4	0.00e+00	0	43	0	3319791616	51	3958
2026-01-28 13:13:26.60	324.09	17.83	-40.1	-40.8	23.3	0.00e+00	0	43	0	3342860288	51	3999
2026-01-28 13:13:30.64	324.58	17.42	-40.3	-41.1	23.1	0.00e+00	0	43	0	3364880384	51	4116
2026-01-28 13:13:34.67	325.05	17.02	-40.2	-41.0	23.1	0.00e+00	0	43	0	3387949056	51	4091
2026-01-28 13:13:38.71	325.51	16.62	-40.3	-41.1	23.1	0.00e+00	0	43	0	3411017728	51	4101
2026-01-28 13:13:42.74	325.96	16.23	-40.4	-41.3	22.9	0.00e+00	0	42	0	3433037824	51	4198
2026-01-28 13:13:46.77	326.40	15.84	-40.5	-41.3	22.7	0.00e+00	0	42	0	3456106496	51	4241
2026-01-28 13:13:50.80	326.83	15.45	-40.5	-41.3	22.7	2.20e-06	0	42	0	3479175168	52	3991
2026-01-28 13:13:54.82	327.25	15.08	-40.6	-41.4	22.7	0.00e+00	0	43	0	3501195264	52	4008
2026-01-28 13:13:58.85	327.66	14.70	-40.7	-41.5	22.5	0.00e+00	0	43	0	3524263936	52	4082
2026-01-28 13:14:02.87	328.05	14.33	-41.0	-41.8	22.2	0.00e+00	0	43	0	3546284032	52	4225
2026-01-28 13:14:06.90	328.44	13.97	-41.1	-42.0	22.0	0.00e+00	0	43	0	3569352704	52	4305
2026-01-28 13:14:10.93	328.82	13.61	-41.2	-42.1	21.9	0.00e+00	0	42	0	3592421376	53	4116
2026-01-28 13:14:14.97	329.20	13.25	-41.3	-42.1	21.8	0.00e+00	0	43	0	3614441472	53	4132
2026-01-28 13:14:18.99	329.56	12.90	-41.3	-42.2	21.7	0.00e+00	0	43	0	3637510144	53	4172
2026-01-28 13:14:23.03	329.92	12.55	-41.4	-42.3	21.6	0.00e+00	0	43	0	3660578816	53	4232
2026-01-28 13:14:27.07	330.27	12.20	-41.4	-42.3	21.6	0.00e+00	0	43	0	3682598912	54	3978
2026-01-28 13:14:31.10	330.61	11.86	-41.6	-42.5	21.4	0.00e+00	0	43	0	3705667584	54	4076
2026-01-28 13:14:35.12	330.94	11.53	-42.0	-42.9	21.0	0.00e+00	0	43	0	3727687680	54	4250
2026-01-28 13:14:39.15	331.26	11.19	-41.6	-42.5	21.3	0.00e+00	0	43	0	3750756352	54	4086
2026-01-28 13:14:43.18	331.58	10.87	-41.8	-42.8	21.1	0.00e+00	0	43	0	3772776448	54	4194
2026-01-28 13:14:47.20	331.89	10.54	-41.8	-42.7	21.0	0.00e+00	0	43	0	3795845120	54	4191
2026-01-28 13:14:51.24	332.20	10.22	-41.8	-42.7	21.1	0.00e+00	0	42	0	3818913792	54	4171
2026-01-28 13:14:55.27	332.50	9.90	-41.9	-42.8	20.9	0.00e+00	0	43	0	3840933888	54	4223
2026-01-28 13:14:59.30	332.79	9.59	-42.0	-42.9	20.8	0.00e+00	0	43	0	3864002560	54	4275
2026-01-28 13:15:03.33	333.08	9.27	-42.1	-43.1	20.6	0.00e+00	0	42	0	3887071232	54	4364
2026-01-28 13:15:07.37	333.37	8.96	-42.5	-43.4	20.3	0.00e+00	0	42	0	3909091328	55	4280
2026-01-28 13:15:11.40	333.64	8.66	-42.4	-43.4	20.3	0.00e+00	0	42	0	3932160000	55	4251
2026-01-28 13:15:15.43	333.91	8.36	-42.4	-43.4	20.2	0.00e+00	0	42	0	3955228672	55	4263
2026-01-28 13:15:19.45	334.18	8.06	-42.4	-43.4	20.2	0.00e+00	0	43	0	3977248768	55	4250
2026-01-28 13:15:23.48	334.44	7.76	-42.4	-43.4	20.1	0.00e+00	0	43	0	4000317440	55	4271
2026-01-28 13:15:27.51	334.70	7.47	-42.3	-43.3	20.2	0.00e+00	0	43	0	4023386112	55	4214
2026-01-28 13:15:31.54	334.95	7.18	-42.5	-43.5	20.0	2.20e-06	0	43	0	4045406208	55	4316
2026-01-28 13:15:35.58	335.20	6.89	-42.6	-43.6	20.0	5.70e-06	0	43	0	4067426304	56	4124
2026-01-28 13:15:39.61	335.44	6.61	-42.8	-43.9	19.7	0.00e+00	0	43	0	4090494976	56	4245
2026-01-28 13:15:43.64	335.68	6.33	-43.0	-44.1	19.5	0.00e+00	0	42	0	4113563648	56	4343
2026-01-28 13:15:47.67	335.91	6.05	-43.1	-44.2	19.3	0.00e+00	0	43	0	4135583744	57	4163
2026-01-28 13:15:51.71	336.14	5.77	-43.0	-44.1	19.3	0.00e+00	0	43	0	4158652416	57	4104
2026-01-28 13:15:55.74	336.37	5.50	-43.3	-44.4	19.0	0.00e+00	0	43	0	4181721088	57	4253
2026-01-28 13:15:59.77	336.59	5.23	-43.3	-44.4	19.0	0.00e+00	0	43	0	4203741184	57	4247
2026-01-28 13:16:03.77	336.81	4.96	-51.1	-57.5	5.8	0.00e+00	0	43	0	4226809856	72	8121
2026-01-28 13:16:07.81	337.02	4.69	-53.2	-64.9	3.8	8.47e-01	0	43	104	4226809856	76	15182
2026-01-28 13:16:11.84	337.24	4.43	-53.5	-65.4	3.8	8.47e-01	0	43	104	4226809856	77	15174
2026-01-28 13:16:15.87	337.44	4.17	-53.4	-65.3	3.8	8.46e-01	0	43	104	4226809856	77	14977
2026-01-28 13:16:19.90	337.65	3.91	-53.3	-65.2	3.8	8.46e-01	0	43	104	4226809856	77	14807
2026-01-28 13:16:23.93	337.85	3.65	-53.4	-65.3	3.8	8.47e-01	0	43	104	4226809856	77	14992
2026-01-28 13:16:27.96	338.05	3.40	-53.2	-65.2	3.8	8.46e-01	0	43	104	4226809856	77	14756
2026-01-28 13:16:31.99	338.25	3.14	-53.2	-65.1	3.8	8.46e-01	0	43	104	4226809856	77	14670
2026-01-28 13:16:36.02	338.44	2.89	-53.2	-65.1	3.8	8.46e-01	0	43	104	4226809856	77	14669
2026-01-28 13:16:40.06	338.63	2.64	-53.1	-65.1	3.8	8.46e-01	0	43	104	4226809856	77	14607
2026-01-28 13:16:44.09	338.81	2.40	-53.1	-65.1	3.8	8.47e-01	0	43	104	4226809856	77	14566
2026-01-28 13:16:48.11	339.00	2.15	-53.1	-65.0	3.8	8.47e-01	0	43	104	4226809856	77	14536
2026-01-28 13:16:52.14	339.18	1.91	-53.1	-65.0	3.8	8.46e-01	0	43	104	4226809856	77	14511

#Closed at: 2026-01-28 13:16:53
#Recorded file [4226 MB]: D:/lorett/data/31041_260128_160253.dat