passes_logs/2026/01/28/R3.2S_Murmansk/R3.2S_Murmansk__20260128_084505_SUOMI_NPP_rec.log

#Pass ID: 20260128_084505_SUOMI NPP
#Satellite: SUOMI NPP
#Configuration: NPP
#almurnet v.1.7.20251203
#Start time: 2026-01-28 08:45:06

#Version: 2.2.20231116
#Station: R3.2S_Murmansk
#Location: 33.079688 lon 68.888172 lat
#TLE: 1 37849U 11061A   26027.86188320  .00000172  00000+0  10275-3 0  9990
#TLE: 2 37849  98.7823 329.8005 0002088  41.4184 318.7150 14.19530883738530

#Time	Az	El	Level	Level2	SNR	BER	BlckErr	Temp	State	Recorded	gain1	gain2
2026-01-28 08:45:06.64	131.59	2.10	-47.5	-62.4	3.8	1.49e+00	0	41	0	0	65	21361
2026-01-28 08:45:10.67	131.51	2.36	-47.5	-62.4	3.8	1.49e+00	0	41	104	0	65	21348
2026-01-28 08:45:14.70	131.44	2.62	-47.5	-62.4	3.8	1.49e+00	0	41	104	0	65	21308
2026-01-28 08:45:18.74	131.36	2.89	-47.5	-62.4	3.8	1.49e+00	0	41	104	0	65	21304
2026-01-28 08:45:22.77	131.28	3.15	-47.5	-62.4	3.8	1.49e+00	0	41	104	0	65	21299
2026-01-28 08:45:26.81	131.19	3.42	-47.5	-62.4	3.8	1.49e+00	0	41	104	0	65	21380
2026-01-28 08:45:30.84	131.11	3.69	-47.5	-62.4	3.8	1.49e+00	0	41	104	0	65	21369
2026-01-28 08:45:34.87	131.02	3.96	-47.5	-62.4	3.8	1.49e+00	0	42	104	0	65	21318
2026-01-28 08:45:38.90	130.93	4.24	-47.5	-62.4	3.8	1.49e+00	0	42	104	0	65	21407
2026-01-28 08:45:42.93	130.84	4.52	-47.5	-62.4	3.8	1.49e+00	0	42	104	0	65	21319
2026-01-28 08:45:46.96	130.75	4.80	-47.5	-62.4	3.8	1.49e+00	0	42	104	0	65	21309
2026-01-28 08:45:50.99	130.66	5.09	-47.5	-62.4	3.8	1.49e+00	0	42	104	0	65	21328
2026-01-28 08:45:55.03	130.56	5.37	-47.5	-62.4	3.8	1.49e+00	0	42	104	0	65	21416
2026-01-28 08:45:59.06	130.46	5.66	-47.5	-62.4	3.8	1.49e+00	0	42	104	0	65	21281
2026-01-28 08:46:03.09	130.36	5.96	-47.5	-62.4	3.8	1.49e+00	0	42	104	0	65	21333
2026-01-28 08:46:07.12	130.26	6.26	-47.5	-62.4	3.8	1.49e+00	0	42	104	0	65	21344
2026-01-28 08:46:11.15	130.15	6.56	-47.5	-62.4	3.8	1.49e+00	0	42	104	0	65	21383
2026-01-28 08:46:15.19	130.04	6.86	-47.5	-62.4	3.8	1.49e+00	0	42	104	0	65	21319
2026-01-28 08:46:19.23	129.93	7.17	-47.5	-62.4	3.8	1.49e+00	0	42	104	0	65	21302
2026-01-28 08:46:23.26	129.82	7.48	-47.5	-62.4	3.8	1.49e+00	0	42	104	0	65	21302
2026-01-28 08:46:27.30	129.70	7.80	-47.5	-62.4	3.8	1.49e+00	0	42	104	0	65	21321
2026-01-28 08:46:31.33	129.58	8.11	-47.5	-62.4	3.8	1.49e+00	0	42	104	0	65	21379
2026-01-28 08:46:35.37	129.46	8.44	-47.5	-62.4	3.8	1.49e+00	0	42	104	0	65	21335
2026-01-28 08:46:39.40	129.33	8.76	-47.5	-62.4	3.8	1.49e+00	0	42	104	0	65	21345
2026-01-28 08:46:43.43	129.21	9.09	-47.5	-62.4	3.8	1.49e+00	0	42	104	0	65	21366
2026-01-28 08:46:47.46	129.07	9.43	-47.5	-62.4	3.8	1.49e+00	0	42	104	0	65	21323
2026-01-28 08:46:51.49	128.94	9.77	-47.5	-62.4	3.8	1.49e+00	0	42	104	0	65	21370
2026-01-28 08:46:55.52	128.80	10.11	-47.5	-62.4	3.8	1.49e+00	0	42	104	0	65	21299
2026-01-28 08:46:59.55	128.66	10.46	-47.5	-62.4	3.8	1.49e+00	0	42	104	0	65	21307
2026-01-28 08:47:03.58	128.51	10.81	-47.5	-62.4	3.8	1.49e+00	0	42	104	0	65	21348
2026-01-28 08:47:07.61	128.36	11.17	-47.5	-62.4	3.8	1.49e+00	0	43	104	0	65	21352
2026-01-28 08:47:11.64	128.21	11.54	-47.5	-62.4	3.8	1.49e+00	0	42	104	0	65	21332
2026-01-28 08:47:15.67	128.05	11.91	-47.5	-62.4	3.8	1.49e+00	0	42	104	0	65	21349
2026-01-28 08:47:19.71	127.89	12.28	-47.5	-62.4	3.8	1.49e+00	0	42	104	0	65	21351
2026-01-28 08:47:23.74	127.72	12.66	-47.5	-62.4	3.8	1.49e+00	0	43	104	0	65	21362
2026-01-28 08:47:27.77	127.55	13.05	-47.5	-62.4	3.8	1.49e+00	0	42	104	0	65	21369
2026-01-28 08:47:31.80	127.38	13.44	-47.5	-62.4	3.8	1.49e+00	0	42	104	0	65	21347
2026-01-28 08:47:35.83	127.19	13.83	-47.5	-62.4	3.8	1.49e+00	0	43	104	0	65	21364
2026-01-28 08:47:39.86	127.01	14.24	-47.5	-62.4	3.8	1.49e+00	0	43	104	0	65	21307
2026-01-28 08:47:43.90	126.81	14.65	-47.5	-62.4	3.8	1.49e+00	0	43	104	0	65	21404
2026-01-28 08:47:47.93	126.62	15.07	-47.5	-62.4	3.8	1.49e+00	0	43	104	0	65	21369
2026-01-28 08:47:51.95	126.41	15.49	-47.5	-62.4	3.8	1.49e+00	0	43	104	0	65	21352
2026-01-28 08:47:55.99	126.20	15.92	-47.5	-62.4	3.8	1.49e+00	0	43	104	0	65	21333
2026-01-28 08:48:00.01	125.99	16.36	-47.5	-62.4	3.8	1.49e+00	0	43	104	0	65	21342
2026-01-28 08:48:04.04	125.76	16.80	-47.5	-62.4	3.8	1.49e+00	0	43	104	0	65	21364
2026-01-28 08:48:08.08	125.53	17.26	-47.5	-62.4	3.8	1.49e+00	0	43	104	0	65	21364
2026-01-28 08:48:12.11	125.29	17.72	-47.5	-62.4	3.8	1.49e+00	0	43	104	0	65	21388
2026-01-28 08:48:16.14	125.05	18.19	-47.5	-62.4	3.8	1.49e+00	0	43	104	0	65	21375
2026-01-28 08:48:20.17	124.79	18.67	-47.5	-62.4	3.8	1.49e+00	0	43	104	0	65	21334
2026-01-28 08:48:24.21	124.53	19.16	-47.5	-62.4	3.8	1.49e+00	0	43	104	0	65	21326
2026-01-28 08:48:28.24	124.25	19.65	-47.5	-62.3	3.8	1.49e+00	0	43	104	0	65	21237
2026-01-28 08:48:32.28	123.97	20.16	-47.5	-62.3	3.8	1.49e+00	0	43	104	0	65	21248
2026-01-28 08:48:36.31	123.68	20.67	-47.5	-62.3	3.8	1.49e+00	0	43	104	0	65	21259
2026-01-28 08:48:40.34	123.38	21.20	-47.5	-62.4	3.8	1.49e+00	0	43	104	0	65	21342
2026-01-28 08:48:44.37	123.06	21.73	-47.5	-62.4	3.8	1.49e+00	0	43	104	0	65	21346
2026-01-28 08:48:48.41	122.74	22.28	-47.5	-62.4	3.8	1.49e+00	0	43	104	0	65	21390
2026-01-28 08:48:52.44	122.40	22.84	-47.5	-62.4	3.8	1.49e+00	0	43	104	0	65	21351
2026-01-28 08:48:56.48	122.05	23.41	-47.5	-62.4	3.8	1.49e+00	0	43	104	0	65	21332
2026-01-28 08:49:00.50	121.69	23.98	-47.5	-62.4	3.8	1.49e+00	0	43	104	0	65	21395
2026-01-28 08:49:04.53	121.31	24.58	-47.6	-62.4	3.8	1.49e+00	0	43	104	0	65	21360
2026-01-28 08:49:08.56	120.92	25.18	-47.6	-62.4	3.8	1.49e+00	0	43	104	0	65	21390
2026-01-28 08:49:12.60	120.51	25.80	-47.6	-62.4	3.8	1.49e+00	0	43	104	0	65	21370
2026-01-28 08:49:16.63	120.09	26.42	-47.5	-62.4	3.8	1.49e+00	0	43	104	0	65	21388
2026-01-28 08:49:20.66	119.64	27.06	-47.6	-62.4	3.8	1.49e+00	0	43	104	0	65	21316
2026-01-28 08:49:24.70	119.18	27.72	-47.5	-62.4	3.8	1.49e+00	0	43	104	0	65	21375
2026-01-28 08:49:28.72	118.70	28.39	-47.6	-62.4	3.8	1.49e+00	0	43	104	0	65	21390
2026-01-28 08:49:32.75	118.20	29.07	-47.5	-62.4	3.8	1.49e+00	0	43	104	0	65	21388
2026-01-28 08:49:36.79	117.67	29.77	-47.5	-62.4	3.8	1.49e+00	0	43	104	0	65	21375
2026-01-28 08:49:40.82	117.12	30.48	-47.5	-62.4	3.8	1.49e+00	0	43	104	0	65	21383
2026-01-28 08:49:44.85	116.54	31.20	-47.6	-62.4	3.8	1.49e+00	0	43	104	0	65	21409
2026-01-28 08:49:48.88	115.94	31.94	-47.5	-62.4	3.8	1.49e+00	0	43	104	0	65	21394
2026-01-28 08:49:52.91	115.31	32.70	-47.6	-62.4	3.8	1.49e+00	0	43	104	0	65	21429
2026-01-28 08:49:56.95	114.65	33.47	-47.6	-62.4	3.8	1.49e+00	0	43	104	0	65	21346
2026-01-28 08:50:00.98	113.95	34.26	-47.6	-62.4	3.8	1.49e+00	0	43	104	0	65	21415
2026-01-28 08:50:05.00	113.22	35.06	-47.5	-62.4	3.8	1.49e+00	0	43	104	0	65	21373
2026-01-28 08:50:09.03	112.45	35.87	-47.6	-62.4	3.8	1.49e+00	0	43	104	0	65	21384
2026-01-28 08:50:13.07	111.64	36.70	-47.5	-62.4	3.8	1.49e+00	0	43	104	0	65	21380
2026-01-28 08:50:17.10	110.79	37.55	-47.5	-62.4	3.8	1.49e+00	0	43	104	0	65	21448
2026-01-28 08:50:21.13	109.89	38.41	-47.5	-62.4	3.8	1.49e+00	0	43	104	0	65	21422
2026-01-28 08:50:25.17	108.94	39.28	-47.6	-62.4	3.8	1.49e+00	0	43	104	0	65	21459
2026-01-28 08:50:29.21	107.94	40.17	-47.6	-62.4	3.8	1.49e+00	0	43	104	0	65	21376
2026-01-28 08:50:33.23	106.89	41.07	-47.6	-62.4	3.8	1.49e+00	0	43	104	0	65	21413
2026-01-28 08:50:37.27	105.76	41.98	-47.5	-62.4	3.8	1.49e+00	0	43	104	0	65	21417
2026-01-28 08:50:41.31	104.58	42.89	-47.5	-62.4	3.8	1.49e+00	0	43	104	0	65	21432
2026-01-28 08:50:45.34	103.32	43.82	-47.5	-62.4	3.8	1.49e+00	0	43	104	0	65	21409
2026-01-28 08:50:49.38	101.98	44.75	-47.5	-62.4	3.8	1.49e+00	0	43	104	0	65	21342
2026-01-28 08:50:53.41	100.57	45.69	-47.6	-62.4	3.8	1.49e+00	0	43	104	0	65	21389
2026-01-28 08:50:57.45	99.07	46.62	-47.5	-62.4	3.8	1.49e+00	0	43	104	0	65	21408
2026-01-28 08:51:01.49	97.47	47.56	-47.6	-62.4	3.8	1.49e+00	0	43	104	0	65	21403
2026-01-28 08:51:05.52	95.78	48.48	-47.6	-62.4	3.8	1.49e+00	0	43	104	0	65	21450
2026-01-28 08:51:09.54	93.99	49.40	-47.6	-62.4	3.8	1.49e+00	0	43	104	0	65	21385
2026-01-28 08:51:13.58	92.08	50.31	-47.6	-62.4	3.8	1.49e+00	0	43	104	0	65	21381
2026-01-28 08:51:17.62	90.05	51.19	-47.6	-62.4	3.8	1.49e+00	0	43	104	0	65	21389
2026-01-28 08:51:21.65	87.90	52.05	-47.5	-62.4	3.8	1.49e+00	0	43	104	0	65	21370
2026-01-28 08:51:25.68	85.63	52.89	-47.6	-62.4	3.8	1.49e+00	0	43	104	0	65	21432
2026-01-28 08:51:29.72	83.22	53.68	-47.5	-62.4	3.8	1.49e+00	0	43	104	0	65	21382
2026-01-28 08:51:33.75	80.68	54.44	-47.5	-62.4	3.8	1.49e+00	0	43	104	0	65	21420
2026-01-28 08:51:37.78	78.01	55.14	-47.5	-62.4	3.8	1.49e+00	0	43	104	0	65	21412
2026-01-28 08:51:41.81	75.21	55.79	-47.5	-62.4	3.8	1.49e+00	0	43	104	0	65	21363
2026-01-28 08:51:45.84	72.29	56.37	-47.5	-62.4	3.8	1.49e+00	0	43	104	0	65	21398
2026-01-28 08:51:49.88	69.24	56.89	-47.6	-62.4	3.8	1.49e+00	0	43	104	0	65	21380
2026-01-28 08:51:53.90	66.09	57.32	-47.6	-62.4	3.8	1.49e+00	0	43	104	0	65	21384
2026-01-28 08:51:57.93	62.85	57.68	-47.6	-62.4	3.8	1.49e+00	0	43	104	0	65	21353
2026-01-28 08:52:01.97	59.52	57.94	-47.5	-62.4	3.8	1.49e+00	0	43	104	0	65	21396
2026-01-28 08:52:06.00	56.14	58.12	-47.5	-62.4	3.8	1.49e+00	0	43	104	0	65	21356
2026-01-28 08:52:10.02	52.74	58.20	-47.5	-62.4	3.8	1.49e+00	0	43	104	0	65	21455
2026-01-28 08:52:14.06	49.32	58.18	-47.5	-62.4	3.8	1.49e+00	0	43	104	0	65	21415
2026-01-28 08:52:18.09	45.92	58.07	-47.6	-62.4	3.8	1.49e+00	0	43	104	0	65	21426
2026-01-28 08:52:22.13	42.55	57.87	-47.5	-62.4	3.8	1.49e+00	0	43	104	0	65	21346
2026-01-28 08:52:26.16	39.25	57.58	-47.5	-62.4	3.8	1.49e+00	0	43	104	0	65	21413
2026-01-28 08:52:30.19	36.04	57.20	-47.6	-62.4	3.8	1.49e+00	0	43	104	0	65	21359
2026-01-28 08:52:34.22	32.92	56.73	-47.6	-62.4	3.8	1.49e+00	0	43	104	0	65	21376
2026-01-28 08:52:38.26	29.91	56.20	-47.5	-62.4	3.8	1.49e+00	0	43	104	0	65	21447
2026-01-28 08:52:42.29	27.03	55.59	-47.6	-62.4	3.8	1.49e+00	0	43	104	0	65	21415
2026-01-28 08:52:46.32	24.27	54.93	-47.5	-62.4	3.8	1.49e+00	0	43	104	0	65	21402
2026-01-28 08:52:50.36	21.64	54.21	-47.5	-62.4	3.8	1.49e+00	0	43	104	0	65	21407
2026-01-28 08:52:54.40	19.14	53.44	-47.6	-62.4	3.8	1.49e+00	0	43	104	0	65	21386
2026-01-28 08:52:58.43	16.79	52.63	-47.5	-62.4	3.8	1.49e+00	0	43	104	0	65	21354
2026-01-28 08:53:02.46	14.56	51.79	-47.5	-62.4	3.8	1.49e+00	0	43	104	0	65	21416
2026-01-28 08:53:06.49	12.45	50.93	-47.6	-62.4	3.8	1.49e+00	0	43	104	0	65	21401
2026-01-28 08:53:10.51	10.47	50.04	-47.5	-62.4	3.8	1.49e+00	0	43	104	0	65	21425
2026-01-28 08:53:14.55	8.60	49.13	-47.5	-62.4	3.8	1.49e+00	0	43	104	0	65	21402
2026-01-28 08:53:18.58	6.84	48.21	-47.6	-62.4	3.8	1.49e+00	0	43	104	0	65	21438
2026-01-28 08:53:22.61	5.18	47.29	-47.5	-62.4	3.8	1.49e+00	0	43	104	0	65	21388
2026-01-28 08:53:26.65	3.62	46.35	-47.5	-62.4	3.8	1.49e+00	0	43	104	0	65	21363
2026-01-28 08:53:30.69	2.15	45.42	-47.6	-62.4	3.8	1.49e+00	0	43	104	0	65	21351
2026-01-28 08:53:34.72	0.76	44.49	-47.6	-62.4	3.8	1.49e+00	0	43	104	0	65	21372
2026-01-28 08:53:38.75	359.46	43.56	-47.5	-62.4	3.8	1.49e+00	0	43	104	0	65	21432
2026-01-28 08:53:42.78	358.23	42.64	-47.6	-62.4	3.8	1.49e+00	0	43	104	0	65	21356
2026-01-28 08:53:46.81	357.07	41.73	-47.6	-62.4	3.8	1.49e+00	0	43	104	0	65	21375
2026-01-28 08:53:50.84	355.97	40.83	-47.5	-62.4	3.8	1.49e+00	0	43	104	0	65	21376
2026-01-28 08:53:54.87	354.93	39.94	-47.6	-62.4	3.8	1.49e+00	0	43	104	0	65	21385
2026-01-28 08:53:58.90	353.95	39.06	-47.6	-62.4	3.8	1.49e+00	0	43	104	0	65	21383
2026-01-28 08:54:02.93	353.02	38.19	-47.6	-62.4	3.8	1.49e+00	0	43	104	0	65	21412
2026-01-28 08:54:06.96	352.14	37.34	-47.5	-62.4	3.8	1.49e+00	0	43	104	0	65	21373
2026-01-28 08:54:11.00	351.30	36.50	-47.5	-62.4	3.8	1.49e+00	0	43	104	0	65	21394
2026-01-28 08:54:15.03	350.50	35.68	-47.6	-62.4	3.8	1.49e+00	0	43	104	0	65	21398
2026-01-28 08:54:19.07	349.75	34.87	-47.5	-62.4	3.8	1.49e+00	0	43	104	0	65	21344
2026-01-28 08:54:23.09	349.03	34.08	-47.5	-62.4	3.8	1.49e+00	0	43	104	0	65	21372
2026-01-28 08:54:27.12	348.35	33.30	-47.5	-62.4	3.8	1.49e+00	0	43	104	0	65	21438
2026-01-28 08:54:31.16	347.70	32.53	-47.5	-62.4	3.8	1.49e+00	0	43	104	0	65	21362
2026-01-28 08:54:35.19	347.07	31.78	-47.5	-62.4	3.8	1.49e+00	0	43	104	0	65	21381
2026-01-28 08:54:39.21	346.48	31.05	-47.6	-62.4	3.8	1.49e+00	0	43	104	0	65	21420
2026-01-28 08:54:43.24	345.92	30.33	-47.5	-62.4	3.8	1.49e+00	0	43	104	0	65	21359
2026-01-28 08:54:47.28	345.38	29.63	-47.5	-62.4	3.8	1.49e+00	0	43	104	0	65	21367
2026-01-28 08:54:51.32	344.86	28.93	-47.5	-62.4	3.8	1.49e+00	0	43	104	0	65	21391
2026-01-28 08:54:55.35	344.36	28.26	-47.5	-62.4	3.8	1.49e+00	0	43	104	0	65	21400
2026-01-28 08:54:59.38	343.89	27.60	-47.6	-62.4	3.8	1.49e+00	0	43	104	0	65	21404
2026-01-28 08:55:03.41	343.44	26.95	-47.6	-62.4	3.8	1.49e+00	0	43	104	0	65	21395
2026-01-28 08:55:07.44	343.00	26.31	-47.6	-62.4	3.8	1.49e+00	0	43	104	0	65	21437
2026-01-28 08:55:11.48	342.58	25.69	-47.6	-62.4	3.8	1.49e+00	0	43	104	0	65	21389
2026-01-28 08:55:15.51	342.18	25.08	-47.6	-62.4	3.8	1.49e+00	0	43	104	0	65	21365
2026-01-28 08:55:19.54	341.79	24.48	-47.6	-62.4	3.8	1.49e+00	0	43	104	0	65	21435
2026-01-28 08:55:23.57	341.42	23.90	-47.5	-62.4	3.8	1.49e+00	0	43	104	0	65	21433
2026-01-28 08:55:27.60	341.06	23.32	-47.5	-62.4	3.8	1.49e+00	0	43	104	0	65	21382
2026-01-28 08:55:31.63	340.72	22.76	-47.5	-62.4	3.8	1.49e+00	0	43	104	0	65	21420
2026-01-28 08:55:35.66	340.39	22.21	-47.5	-62.4	3.8	1.49e+00	0	43	104	0	65	21413
2026-01-28 08:55:39.70	340.07	21.66	-47.5	-62.4	3.8	1.49e+00	0	43	104	0	65	21405
2026-01-28 08:55:43.74	339.76	21.13	-47.5	-62.4	3.8	1.49e+00	0	43	104	0	65	21402
2026-01-28 08:55:47.77	339.46	20.61	-47.5	-62.4	3.8	1.49e+00	0	43	104	0	65	21333
2026-01-28 08:55:51.80	339.17	20.10	-47.5	-62.4	3.8	1.49e+00	0	43	104	0	65	21416
2026-01-28 08:55:55.83	338.90	19.60	-47.5	-62.4	3.8	1.49e+00	0	43	104	0	65	21369
2026-01-28 08:55:59.86	338.63	19.11	-47.5	-62.4	3.8	1.49e+00	0	43	104	0	65	21359
2026-01-28 08:56:03.89	338.37	18.62	-47.5	-62.4	3.8	1.49e+00	0	43	104	0	65	21313
2026-01-28 08:56:07.92	338.12	18.15	-47.5	-62.4	3.8	1.49e+00	0	43	104	0	65	21316
2026-01-28 08:56:11.95	337.88	17.68	-47.5	-62.4	3.8	1.49e+00	0	43	104	0	65	21364
2026-01-28 08:56:15.98	337.64	17.23	-47.5	-62.4	3.8	1.49e+00	0	43	104	0	65	21357
2026-01-28 08:56:20.02	337.42	16.77	-47.5	-62.4	3.8	1.49e+00	0	43	104	0	65	21370
2026-01-28 08:56:24.05	337.20	16.33	-47.5	-62.4	3.8	1.49e+00	0	43	104	0	65	21373
2026-01-28 08:56:28.09	336.98	15.90	-47.5	-62.4	3.8	1.49e+00	0	43	104	0	65	21440
2026-01-28 08:56:32.12	336.78	15.47	-47.5	-62.4	3.8	1.49e+00	0	43	104	0	65	21369
2026-01-28 08:56:36.14	336.58	15.05	-47.5	-62.4	3.8	1.49e+00	0	43	104	0	65	21401
2026-01-28 08:56:40.17	336.38	14.63	-47.5	-62.4	3.8	1.49e+00	0	43	104	0	65	21398
2026-01-28 08:56:44.21	336.19	14.23	-47.6	-62.4	3.8	1.49e+00	0	43	104	0	65	21378
2026-01-28 08:56:48.24	336.01	13.83	-47.5	-62.4	3.8	1.49e+00	0	43	104	0	65	21387
2026-01-28 08:56:52.28	335.83	13.43	-47.5	-62.4	3.8	1.49e+00	0	43	104	0	65	21419
2026-01-28 08:56:56.30	335.66	13.04	-47.5	-62.4	3.8	1.49e+00	0	43	104	0	65	21418
2026-01-28 08:57:00.33	335.49	12.66	-47.5	-62.4	3.8	1.49e+00	0	43	104	0	65	21388
2026-01-28 08:57:04.36	335.33	12.28	-47.5	-62.4	3.8	1.49e+00	0	43	104	0	65	21354
2026-01-28 08:57:08.40	335.17	11.91	-47.5	-62.4	3.8	1.49e+00	0	43	104	0	65	21373
2026-01-28 08:57:12.43	335.01	11.54	-47.5	-62.4	3.8	1.49e+00	0	43	104	0	65	21372
2026-01-28 08:57:16.46	334.86	11.18	-47.5	-62.4	3.8	1.49e+00	0	43	104	0	65	21377
2026-01-28 08:57:20.50	334.72	10.82	-47.5	-62.4	3.8	1.49e+00	0	43	104	0	65	21402
2026-01-28 08:57:24.53	334.58	10.47	-47.5	-62.4	3.8	1.49e+00	0	43	104	0	65	21423
2026-01-28 08:57:28.57	334.44	10.13	-47.5	-62.4	3.8	1.49e+00	0	43	104	0	65	21383
2026-01-28 08:57:32.60	334.30	9.78	-47.5	-62.4	3.8	1.49e+00	0	43	104	0	65	21349
2026-01-28 08:57:36.63	334.17	9.45	-47.5	-62.4	3.8	1.49e+00	0	43	104	0	65	21441
2026-01-28 08:57:40.66	334.04	9.11	-47.5	-62.4	3.8	1.49e+00	0	43	104	0	65	21351
2026-01-28 08:57:44.70	333.92	8.78	-47.5	-62.4	3.8	1.49e+00	0	43	104	0	65	21418
2026-01-28 08:57:48.72	333.80	8.46	-47.5	-62.4	3.8	1.49e+00	0	43	104	0	65	21408
2026-01-28 08:57:52.76	333.68	8.14	-47.5	-62.4	3.8	1.49e+00	0	43	104	0	65	21382
2026-01-28 08:57:56.79	333.56	7.82	-47.5	-62.4	3.8	1.49e+00	0	43	104	0	65	21364
2026-01-28 08:58:00.82	333.45	7.51	-47.5	-62.4	3.8	1.49e+00	0	43	104	0	65	21416
2026-01-28 08:58:04.85	333.34	7.20	-47.5	-62.4	3.8	1.49e+00	0	43	104	0	65	21374
2026-01-28 08:58:08.88	333.23	6.89	-47.5	-62.4	3.8	1.49e+00	0	43	104	0	65	21407
2026-01-28 08:58:12.92	333.12	6.59	-47.5	-62.4	3.8	1.49e+00	0	43	104	0	65	21367
2026-01-28 08:58:16.95	333.02	6.29	-47.5	-62.4	3.8	1.49e+00	0	43	104	0	65	21459
2026-01-28 08:58:20.98	332.92	5.99	-47.5	-62.4	3.8	1.49e+00	0	43	104	0	65	21337
2026-01-28 08:58:25.01	332.82	5.70	-47.6	-62.4	3.8	1.49e+00	0	43	104	0	65	21395
2026-01-28 08:58:29.04	332.73	5.41	-47.5	-62.4	3.8	1.49e+00	0	43	104	0	65	21360
2026-01-28 08:58:33.07	332.64	5.13	-47.5	-62.4	3.8	1.49e+00	0	43	104	0	65	21372
2026-01-28 08:58:37.10	332.54	4.84	-47.5	-62.4	3.8	1.49e+00	0	43	104	0	65	21371
2026-01-28 08:58:41.13	332.46	4.56	-47.5	-62.4	3.8	1.49e+00	0	43	104	0	65	21381
2026-01-28 08:58:45.17	332.37	4.28	-47.5	-62.4	3.8	1.49e+00	0	43	104	0	65	21415
2026-01-28 08:58:49.20	332.28	4.01	-47.5	-62.4	3.8	1.49e+00	0	43	104	0	65	21372
2026-01-28 08:58:53.24	332.20	3.74	-47.5	-62.4	3.8	1.49e+00	0	43	104	0	65	21366
2026-01-28 08:58:57.28	332.12	3.47	-47.5	-62.4	3.8	1.49e+00	0	43	104	0	65	21424
2026-01-28 08:59:01.31	332.04	3.20	-47.6	-62.4	3.8	1.49e+00	0	43	104	0	65	21372
2026-01-28 08:59:05.34	331.96	2.94	-47.5	-62.4	3.8	1.49e+00	0	43	104	0	65	21414
2026-01-28 08:59:09.37	331.88	2.67	-47.5	-62.4	3.8	1.49e+00	0	43	104	0	65	21388
2026-01-28 08:59:13.40	331.81	2.41	-47.5	-62.4	3.8	1.49e+00	0	43	104	0	65	21442
2026-01-28 08:59:17.43	331.74	2.16	-47.5	-62.4	3.8	1.49e+00	0	43	104	0	65	21404

#Closed at: 2026-01-28 08:59:21
#Recorded file [0 MB]: D:/lorett/data/31041_260128_114506.dat