passes_logs/2026/01/28/R3.2S_Murmansk/R3.2S_Murmansk__20260128_233023_KANOPUS-V_5_rec.log

#Pass ID: 20260128_233023_KANOPUS-V 5
#Satellite: KANOPUS-V 5
#Configuration: KANOPUS-V_8320
#almurnet v.1.7.20251203
#Start time: 2026-01-28 23:30:25

#Version: 2.2.20231116
#Station: R3.2S_Murmansk
#Location: 33.079688 lon 68.888172 lat
#TLE: 1 43876U 18111A   26027.97835917  .00004614  00000+0  19590-3 0  9997
#TLE: 2 43876  97.3677 296.2578 0001834  88.9595 271.1852 15.23564197393440

#Time	Az	El	Level	Level2	SNR	BER	BlckErr	Temp	State	Recorded	gain1	gain2
2026-01-28 23:30:25.11	21.93	2.12	-54.4	-63.2	3.8	7.46e-01	0	41	0	0	80	9895
2026-01-28 23:30:28.12	21.78	2.32	-54.4	-63.2	3.8	7.43e-01	0	40	104	0	80	9878
2026-01-28 23:30:31.14	21.62	2.53	-54.6	-63.4	3.8	7.46e-01	0	41	104	0	80	10121
2026-01-28 23:30:34.16	21.46	2.74	-54.7	-63.5	3.8	7.45e-01	0	41	104	0	80	10285
2026-01-28 23:30:37.19	21.30	2.95	-54.7	-63.6	3.8	7.45e-01	0	41	104	0	80	10295
2026-01-28 23:30:40.22	21.13	3.16	-54.7	-63.5	3.8	7.45e-01	0	41	104	0	80	10274
2026-01-28 23:30:43.24	20.96	3.38	-54.7	-63.5	3.8	7.46e-01	0	41	104	0	80	10273
2026-01-28 23:30:46.26	20.79	3.59	-54.5	-63.3	3.8	7.44e-01	0	41	104	0	80	9988
2026-01-28 23:30:49.29	20.61	3.81	-54.1	-62.9	3.8	7.46e-01	0	41	104	0	80	9588
2026-01-28 23:30:52.31	20.43	4.03	-53.4	-62.2	3.8	7.45e-01	0	41	104	0	78	9876
2026-01-28 23:30:55.34	20.25	4.25	-52.8	-61.7	3.8	7.47e-01	0	41	104	0	77	9860
2026-01-28 23:30:58.36	20.06	4.48	-52.8	-61.6	3.8	7.44e-01	0	41	104	0	77	9803
2026-01-28 23:31:01.39	19.86	4.71	-52.8	-61.6	3.8	7.46e-01	0	41	104	0	77	9784
2026-01-28 23:31:04.41	19.67	4.94	-52.8	-61.6	3.8	7.45e-01	0	41	104	0	77	9754
2026-01-28 23:31:07.43	19.47	5.17	-52.9	-61.7	3.8	7.45e-01	0	41	104	0	77	9893
2026-01-28 23:31:10.45	19.26	5.40	-52.8	-61.7	3.8	7.44e-01	0	42	104	0	77	9851
2026-01-28 23:31:13.47	19.05	5.64	-52.8	-61.6	3.8	7.45e-01	0	42	104	0	77	9800
2026-01-28 23:31:16.50	18.84	5.88	-52.8	-61.6	3.8	7.45e-01	0	42	104	0	77	9823
2026-01-28 23:31:19.52	18.62	6.12	-52.8	-61.6	3.8	7.46e-01	0	42	104	0	77	9803
2026-01-28 23:31:22.54	18.39	6.37	-52.9	-61.7	3.8	7.45e-01	0	42	104	0	77	9877
2026-01-28 23:31:25.57	18.16	6.61	-52.9	-61.7	3.8	7.44e-01	0	42	104	0	77	9915
2026-01-28 23:31:28.60	17.93	6.87	-52.9	-61.7	3.8	7.44e-01	0	42	104	0	77	9939
2026-01-28 23:31:31.62	17.69	7.12	-53.0	-61.8	3.8	7.46e-01	0	42	104	0	77	9987
2026-01-28 23:31:34.65	17.44	7.38	-52.9	-61.8	3.8	7.46e-01	0	42	104	0	77	9972
2026-01-28 23:31:37.68	17.19	7.64	-53.0	-61.8	3.8	7.44e-01	0	42	104	0	77	10044
2026-01-28 23:31:40.70	16.93	7.90	-53.0	-61.8	3.8	7.43e-01	0	42	104	0	77	10015
2026-01-28 23:31:43.73	16.67	8.17	-53.0	-61.9	3.8	7.47e-01	0	42	104	0	77	10086
2026-01-28 23:31:46.75	16.40	8.43	-53.0	-61.8	3.8	7.45e-01	0	42	104	0	77	10021
2026-01-28 23:31:49.78	16.12	8.71	-53.1	-61.9	3.8	7.46e-01	0	42	104	0	77	10166
2026-01-28 23:31:52.80	15.84	8.98	-53.1	-61.9	3.8	7.46e-01	0	42	104	0	77	10080
2026-01-28 23:31:55.83	15.55	9.26	-53.1	-62.0	3.8	7.45e-01	0	42	104	0	77	10218
2026-01-28 23:31:58.85	15.25	9.55	-53.1	-61.9	3.8	7.44e-01	0	42	104	0	77	10082
2026-01-28 23:32:01.88	14.94	9.84	-53.2	-62.0	3.8	7.43e-01	0	42	104	0	77	10208
2026-01-28 23:32:04.89	14.63	10.13	-53.1	-62.0	3.8	7.45e-01	0	42	104	0	77	10201
2026-01-28 23:32:07.92	14.31	10.42	-53.2	-62.1	3.8	7.45e-01	0	42	104	0	77	10306
2026-01-28 23:32:10.95	13.98	10.72	-53.2	-62.0	3.8	7.43e-01	0	42	104	0	77	10277
2026-01-28 23:32:13.97	13.64	11.02	-53.3	-62.1	3.8	7.44e-01	0	42	104	0	77	10365
2026-01-28 23:32:16.99	13.29	11.33	-53.2	-62.0	3.8	7.46e-01	0	42	104	0	77	10234
2026-01-28 23:32:20.01	12.93	11.64	-53.3	-62.1	3.8	7.44e-01	0	42	104	0	77	10350
2026-01-28 23:32:23.03	12.57	11.96	-53.2	-62.1	3.8	7.45e-01	0	42	104	0	77	10331
2026-01-28 23:32:26.06	12.19	12.28	-53.3	-62.2	3.8	7.46e-01	0	42	104	0	77	10448
2026-01-28 23:32:29.09	11.80	12.60	-53.3	-62.1	3.8	7.46e-01	0	42	104	0	77	10336
2026-01-28 23:32:32.11	11.40	12.93	-53.4	-62.2	3.8	7.46e-01	0	42	104	0	77	10432
2026-01-28 23:32:35.14	10.99	13.27	-53.3	-62.1	3.8	7.46e-01	0	42	104	0	77	10397
2026-01-28 23:32:38.17	10.57	13.61	-53.4	-62.2	3.8	7.47e-01	0	42	104	0	77	10523
2026-01-28 23:32:41.19	10.14	13.95	-53.3	-62.1	3.8	7.43e-01	0	42	104	0	77	10410
2026-01-28 23:32:44.21	9.69	14.30	-53.4	-62.2	3.8	7.45e-01	0	42	104	0	77	10497
2026-01-28 23:32:47.24	9.23	14.65	-53.4	-62.2	3.8	7.46e-01	0	42	104	0	77	10532
2026-01-28 23:32:50.26	8.76	15.01	-53.5	-62.3	3.8	7.45e-01	0	43	104	0	77	10589
2026-01-28 23:32:53.29	8.27	15.38	-53.4	-62.2	3.8	7.46e-01	0	42	104	0	77	10486
2026-01-28 23:32:56.31	7.77	15.75	-53.5	-62.3	3.8	7.45e-01	0	42	104	0	77	10581
2026-01-28 23:32:59.33	7.26	16.12	-53.5	-62.3	3.8	7.46e-01	0	42	104	0	77	10616
2026-01-28 23:33:02.36	6.72	16.50	-53.5	-62.3	3.8	7.45e-01	0	43	104	0	77	10639
2026-01-28 23:33:05.38	6.17	16.89	-53.5	-62.3	3.8	7.46e-01	0	43	104	0	77	10628
2026-01-28 23:33:08.41	5.61	17.28	-53.5	-62.4	3.8	7.43e-01	0	42	104	0	77	10662
2026-01-28 23:33:11.44	5.02	17.68	-53.5	-62.4	3.8	7.44e-01	0	43	104	0	77	10718
2026-01-28 23:33:14.46	4.42	18.08	-53.6	-62.4	3.8	7.46e-01	0	42	104	0	77	10755
2026-01-28 23:33:17.48	3.80	18.49	-53.6	-62.4	3.8	7.47e-01	0	43	104	0	77	10724
2026-01-28 23:33:20.51	3.15	18.91	-53.6	-62.4	3.8	7.45e-01	0	42	104	0	77	10753
2026-01-28 23:33:23.53	2.49	19.33	-53.6	-62.5	3.8	7.47e-01	0	42	104	0	77	10795
2026-01-28 23:33:26.55	1.80	19.75	-53.7	-62.5	3.8	7.45e-01	0	43	104	0	77	10823
2026-01-28 23:33:29.58	1.09	20.18	-53.7	-62.5	3.8	7.43e-01	0	43	104	0	77	10795
2026-01-28 23:33:32.60	0.36	20.62	-53.7	-62.5	3.8	7.45e-01	0	42	104	0	78	10255
2026-01-28 23:33:35.62	359.61	21.06	-53.7	-62.6	3.8	7.45e-01	0	43	104	0	78	10327
2026-01-28 23:33:38.65	358.82	21.50	-53.8	-62.6	3.8	7.47e-01	0	43	104	0	78	10343
2026-01-28 23:33:41.67	358.02	21.95	-53.8	-62.6	3.8	7.45e-01	0	43	104	0	78	10378
2026-01-28 23:33:44.69	357.18	22.41	-53.8	-62.6	3.8	7.44e-01	0	43	104	0	78	10322
2026-01-28 23:33:47.71	356.32	22.86	-53.8	-62.6	3.8	7.46e-01	0	43	104	0	78	10386
2026-01-28 23:33:50.74	355.42	23.33	-53.8	-62.6	3.8	7.46e-01	0	43	104	0	78	10393
2026-01-28 23:33:53.77	354.50	23.79	-53.9	-62.7	3.8	7.46e-01	0	43	104	0	78	10489
2026-01-28 23:33:56.79	353.54	24.26	-53.9	-62.7	3.8	7.46e-01	0	43	104	0	78	10454
2026-01-28 23:33:59.81	352.55	24.73	-53.9	-62.7	3.8	7.44e-01	0	43	104	0	78	10513
2026-01-28 23:34:02.83	351.53	25.20	-53.9	-62.8	3.8	7.46e-01	0	43	104	0	78	10559
2026-01-28 23:34:05.86	350.47	25.68	-54.0	-62.8	3.8	7.45e-01	0	42	104	0	78	10584
2026-01-28 23:34:08.88	349.38	26.15	-54.0	-62.8	3.8	7.48e-01	0	43	104	0	78	10623
2026-01-28 23:34:11.91	348.24	26.62	-54.1	-62.9	3.8	7.46e-01	0	43	104	0	78	10684
2026-01-28 23:34:14.93	347.08	27.09	-54.0	-62.8	3.8	7.46e-01	0	43	104	0	78	10633
2026-01-28 23:34:17.95	345.87	27.56	-54.1	-62.9	3.8	7.44e-01	0	42	104	0	78	10694
2026-01-28 23:34:20.97	344.62	28.02	-54.0	-62.9	3.8	7.46e-01	0	43	104	0	78	10669
2026-01-28 23:34:24.00	343.33	28.48	-54.1	-62.9	3.8	7.45e-01	0	43	104	0	78	10772
2026-01-28 23:34:27.02	342.01	28.94	-54.1	-62.9	3.8	7.44e-01	0	43	104	0	78	10727
2026-01-28 23:34:30.04	340.64	29.38	-54.2	-63.0	3.8	7.45e-01	0	43	104	0	78	10809
2026-01-28 23:34:33.06	339.23	29.81	-54.1	-63.0	3.8	7.45e-01	0	43	104	0	78	10806
2026-01-28 23:34:36.09	337.77	30.24	-54.2	-63.1	3.8	7.45e-01	0	43	104	0	79	10304
2026-01-28 23:34:39.10	336.28	30.65	-54.3	-63.1	3.8	7.45e-01	0	43	104	0	79	10328
2026-01-28 23:34:42.13	334.74	31.05	-54.3	-63.1	3.8	7.45e-01	0	43	104	0	79	10381
2026-01-28 23:34:45.15	333.17	31.43	-54.3	-63.1	3.8	7.47e-01	0	43	104	0	79	10321
2026-01-28 23:34:48.17	331.55	31.79	-54.3	-63.2	3.8	7.44e-01	0	43	104	0	79	10418
2026-01-28 23:34:51.19	329.89	32.14	-54.3	-63.1	3.8	7.46e-01	0	43	104	0	79	10370
2026-01-28 23:34:54.22	328.20	32.46	-54.3	-63.2	3.8	7.45e-01	0	43	104	0	79	10456
2026-01-28 23:34:57.25	326.46	32.76	-54.3	-63.2	3.8	7.46e-01	0	43	104	0	79	10418
2026-01-28 23:35:00.26	324.71	33.03	-54.4	-63.2	3.8	7.43e-01	0	43	104	0	79	10464
2026-01-28 23:35:03.29	322.91	33.28	-54.4	-63.2	3.8	7.45e-01	0	43	104	0	79	10447
2026-01-28 23:35:06.31	321.09	33.50	-54.4	-63.2	3.8	7.46e-01	0	43	104	0	79	10500
2026-01-28 23:35:09.34	319.24	33.69	-54.4	-63.2	3.8	7.46e-01	0	43	104	0	79	10456
2026-01-28 23:35:12.37	317.37	33.85	-54.4	-63.2	3.8	7.46e-01	0	43	104	0	79	10513
2026-01-28 23:35:15.40	315.48	33.97	-54.5	-63.3	3.8	7.47e-01	0	42	104	0	79	10537
2026-01-28 23:35:18.43	313.58	34.07	-54.5	-63.3	3.8	7.45e-01	0	43	104	0	79	10618
2026-01-28 23:35:21.45	311.67	34.13	-54.4	-63.3	3.8	7.46e-01	0	43	104	0	79	10568
2026-01-28 23:35:24.48	309.75	34.15	-54.5	-63.3	3.8	7.45e-01	0	43	104	0	79	10594
2026-01-28 23:35:27.50	307.84	34.14	-54.5	-63.3	3.8	7.45e-01	0	43	104	0	79	10641
2026-01-28 23:35:30.53	305.92	34.10	-54.5	-63.4	3.8	7.46e-01	0	43	104	0	79	10668
2026-01-28 23:35:33.56	304.01	34.02	-54.6	-63.4	3.8	7.44e-01	0	43	104	0	79	10685
2026-01-28 23:35:36.58	302.12	33.91	-54.6	-63.4	3.8	7.44e-01	0	43	104	0	79	10685
2026-01-28 23:35:39.60	300.25	33.77	-54.6	-63.4	3.8	7.45e-01	0	43	104	0	79	10709
2026-01-28 23:35:42.63	298.38	33.59	-54.6	-63.4	3.8	7.46e-01	0	43	104	0	79	10730
2026-01-28 23:35:45.66	296.54	33.39	-54.6	-63.4	3.8	7.44e-01	0	43	104	0	79	10762
2026-01-28 23:35:48.68	294.74	33.15	-54.6	-63.4	3.8	7.44e-01	0	43	104	0	79	10730
2026-01-28 23:35:51.71	292.95	32.89	-54.6	-63.4	3.8	7.45e-01	0	43	104	0	79	10724
2026-01-28 23:35:54.73	291.21	32.60	-54.6	-63.4	3.8	7.45e-01	0	43	104	0	79	10708
2026-01-28 23:35:57.75	289.50	32.29	-54.6	-63.4	3.8	7.44e-01	0	43	104	0	79	10707
2026-01-28 23:36:00.78	287.81	31.96	-54.6	-63.4	3.8	7.45e-01	0	43	104	0	79	10690
2026-01-28 23:36:03.80	286.18	31.60	-54.6	-63.4	3.8	7.44e-01	0	43	104	0	79	10681
2026-01-28 23:36:06.82	284.58	31.23	-54.5	-63.4	3.8	7.44e-01	0	42	104	0	79	10661
2026-01-28 23:36:09.85	283.02	30.83	-54.5	-63.3	3.8	7.47e-01	0	43	104	0	79	10655
2026-01-28 23:36:12.87	281.50	30.43	-54.5	-63.3	3.8	7.45e-01	0	43	104	0	79	10583
2026-01-28 23:36:15.90	280.02	30.01	-54.4	-63.2	3.8	7.45e-01	0	43	104	0	79	10532
2026-01-28 23:36:18.92	278.59	29.58	-54.4	-63.3	3.8	7.45e-01	0	43	104	0	79	10540
2026-01-28 23:36:21.95	277.19	29.13	-54.4	-63.2	3.8	7.46e-01	0	43	104	0	79	10497
2026-01-28 23:36:24.97	275.84	28.68	-54.4	-63.2	3.8	7.44e-01	0	43	104	0	79	10434
2026-01-28 23:36:27.99	274.53	28.23	-54.3	-63.1	3.8	7.45e-01	0	43	104	0	79	10401
2026-01-28 23:36:31.01	273.26	27.76	-54.3	-63.1	3.8	7.46e-01	0	43	104	0	79	10324
2026-01-28 23:36:34.04	272.03	27.29	-54.2	-63.0	3.8	7.46e-01	0	43	104	0	79	10277
2026-01-28 23:36:37.06	270.84	26.82	-54.2	-63.1	3.8	7.46e-01	0	43	104	0	79	10322
2026-01-28 23:36:40.08	269.69	26.35	-54.2	-63.1	3.8	7.44e-01	0	43	104	0	79	10302
2026-01-28 23:36:43.10	268.58	25.88	-54.2	-63.0	3.8	7.44e-01	0	43	104	0	79	10228
2026-01-28 23:36:46.13	267.50	25.40	-54.2	-63.0	3.8	7.46e-01	0	43	104	0	79	10237
2026-01-28 23:36:49.16	266.45	24.93	-54.1	-63.0	3.8	7.46e-01	0	43	104	0	79	10189
2026-01-28 23:36:52.18	265.45	24.45	-54.1	-62.9	3.8	7.45e-01	0	43	104	0	79	10169
2026-01-28 23:36:55.20	264.47	23.98	-54.1	-62.9	3.8	7.45e-01	0	43	104	0	79	10123
2026-01-28 23:36:58.23	263.53	23.51	-54.0	-62.9	3.8	7.45e-01	0	43	104	0	79	10112
2026-01-28 23:37:01.25	262.62	23.05	-54.0	-62.9	3.8	7.46e-01	0	43	104	0	79	10060
2026-01-28 23:37:04.28	261.73	22.58	-54.0	-62.8	3.8	7.44e-01	0	43	104	0	79	10035
2026-01-28 23:37:07.30	260.88	22.13	-54.0	-62.8	3.8	7.45e-01	0	43	104	0	79	10007
2026-01-28 23:37:10.32	260.06	21.67	-53.9	-62.8	3.8	7.45e-01	0	43	104	0	79	9962
2026-01-28 23:37:13.34	259.27	21.22	-53.9	-62.7	3.8	7.44e-01	0	43	104	0	79	9913
2026-01-28 23:37:16.36	258.50	20.78	-53.9	-62.7	3.8	7.46e-01	0	43	104	0	79	9916
2026-01-28 23:37:19.39	257.75	20.34	-53.9	-62.7	3.8	7.45e-01	0	43	104	0	79	9918
2026-01-28 23:37:22.42	257.02	19.90	-53.8	-62.7	3.8	7.45e-01	0	43	104	0	79	9834
2026-01-28 23:37:25.44	256.33	19.48	-53.8	-62.7	3.8	7.46e-01	0	43	104	0	79	9833
2026-01-28 23:37:28.46	255.65	19.05	-53.8	-62.6	3.8	7.46e-01	0	43	104	0	79	9788
2026-01-28 23:37:31.49	255.00	18.63	-53.7	-62.6	3.8	7.46e-01	0	43	104	0	79	9733
2026-01-28 23:37:34.50	254.36	18.22	-53.7	-62.5	3.8	7.43e-01	0	43	104	0	79	9697
2026-01-28 23:37:37.53	253.75	17.81	-53.7	-62.5	3.8	7.44e-01	0	43	104	0	79	9660
2026-01-28 23:37:40.55	253.15	17.41	-53.7	-62.5	3.8	7.45e-01	0	43	104	0	79	9652
2026-01-28 23:37:43.58	252.58	17.02	-53.7	-62.5	3.8	7.45e-01	0	43	104	0	79	9617
2026-01-28 23:37:46.61	252.02	16.63	-53.6	-62.5	3.8	7.43e-01	0	43	104	0	79	9628
2026-01-28 23:37:49.63	251.47	16.24	-53.6	-62.4	3.8	7.44e-01	0	43	104	0	79	9596
2026-01-28 23:37:52.66	250.95	15.86	-53.6	-62.4	3.8	7.46e-01	0	43	104	0	79	9547
2026-01-28 23:37:55.68	250.44	15.49	-53.6	-62.4	3.8	7.45e-01	0	43	104	0	79	9548
2026-01-28 23:37:58.71	249.94	15.12	-53.6	-62.4	3.8	7.45e-01	0	43	104	0	79	9568
2026-01-28 23:38:01.73	249.46	14.76	-53.6	-62.4	3.8	7.46e-01	0	43	104	0	79	9525
2026-01-28 23:38:04.75	248.99	14.40	-53.6	-62.4	3.8	7.46e-01	0	43	104	0	79	9528
2026-01-28 23:38:07.78	248.54	14.05	-53.6	-62.4	3.8	7.46e-01	0	43	104	0	79	9544
2026-01-28 23:38:10.81	248.10	13.70	-53.5	-62.4	3.8	7.45e-01	0	43	104	0	79	9511
2026-01-28 23:38:13.83	247.67	13.36	-53.5	-62.4	3.8	7.46e-01	0	43	104	0	79	9506
2026-01-28 23:38:16.86	247.25	13.02	-53.5	-62.3	3.8	7.44e-01	0	43	104	0	78	9984
2026-01-28 23:38:19.88	246.85	12.69	-53.4	-62.3	3.8	7.44e-01	0	43	104	0	78	9952
2026-01-28 23:38:22.90	246.45	12.36	-53.4	-62.2	3.8	7.47e-01	0	43	104	0	78	9899
2026-01-28 23:38:25.92	246.07	12.04	-53.4	-62.2	3.8	7.45e-01	0	43	104	0	78	9887
2026-01-28 23:38:28.94	245.70	11.72	-53.4	-62.2	3.8	7.45e-01	0	43	104	0	78	9883
2026-01-28 23:38:31.96	245.33	11.40	-53.3	-62.1	3.8	7.46e-01	0	43	104	0	78	9799
2026-01-28 23:38:34.99	244.98	11.09	-53.3	-62.1	3.8	7.45e-01	0	43	104	0	78	9768
2026-01-28 23:38:38.01	244.63	10.79	-53.3	-62.1	3.8	7.46e-01	0	43	104	0	78	9794
2026-01-28 23:38:41.04	244.30	10.48	-53.3	-62.1	3.8	7.46e-01	0	43	104	0	78	9771
2026-01-28 23:38:44.05	243.97	10.19	-53.2	-62.0	3.8	7.44e-01	0	43	104	0	78	9688
2026-01-28 23:38:47.08	243.65	9.89	-53.2	-62.0	3.8	7.45e-01	0	43	104	0	78	9657
2026-01-28 23:38:50.10	243.34	9.60	-53.2	-62.0	3.8	7.46e-01	0	43	104	0	78	9703
2026-01-28 23:38:53.12	243.04	9.32	-53.3	-62.1	3.8	7.46e-01	0	43	104	0	78	9768
2026-01-28 23:38:56.14	242.74	9.04	-53.1	-62.0	3.8	7.46e-01	0	43	104	0	78	9642
2026-01-28 23:38:59.17	242.45	8.76	-53.1	-61.9	3.8	7.45e-01	0	43	104	0	78	9591
2026-01-28 23:39:02.19	242.17	8.48	-53.1	-62.0	3.8	7.46e-01	0	43	104	0	78	9640
2026-01-28 23:39:05.21	241.90	8.21	-53.1	-61.9	3.8	7.44e-01	0	43	104	0	78	9561
2026-01-28 23:39:08.23	241.63	7.94	-53.0	-61.8	3.8	7.43e-01	0	43	104	0	78	9489
2026-01-28 23:39:11.26	241.37	7.68	-52.9	-61.8	3.8	7.44e-01	0	43	104	0	77	9953
2026-01-28 23:39:14.28	241.11	7.42	-53.0	-61.8	3.8	7.46e-01	0	43	104	0	77	9973
2026-01-28 23:39:17.31	240.86	7.16	-53.0	-61.8	3.8	7.46e-01	0	43	104	0	77	10047
2026-01-28 23:39:20.33	240.62	6.90	-52.9	-61.7	3.8	7.45e-01	0	43	104	0	77	9927
2026-01-28 23:39:23.34	240.38	6.65	-52.8	-61.6	3.8	7.45e-01	0	43	104	0	77	9790
2026-01-28 23:39:26.37	240.14	6.40	-52.8	-61.6	3.8	7.44e-01	0	43	104	0	77	9816
2026-01-28 23:39:29.39	239.92	6.15	-52.8	-61.6	3.8	7.45e-01	0	43	104	0	77	9820
2026-01-28 23:39:32.41	239.69	5.91	-52.7	-61.5	3.8	7.45e-01	0	43	104	0	77	9704
2026-01-28 23:39:35.43	239.47	5.67	-52.6	-61.4	3.8	7.45e-01	0	43	104	0	77	9530
2026-01-28 23:39:38.45	239.26	5.43	-52.6	-61.5	3.8	7.46e-01	0	43	104	0	77	9607
2026-01-28 23:39:41.48	239.05	5.19	-52.6	-61.4	3.8	7.44e-01	0	43	104	0	77	9598
2026-01-28 23:39:44.50	238.85	4.96	-52.9	-61.7	3.8	7.46e-01	0	43	104	0	76	10507
2026-01-28 23:39:47.52	238.65	4.73	-53.6	-62.5	3.8	7.45e-01	0	43	104	0	77	10802
2026-01-28 23:39:50.55	238.45	4.50	-53.8	-62.7	3.8	7.47e-01	0	43	104	0	78	10450
2026-01-28 23:39:53.57	238.26	4.27	-53.9	-62.7	3.8	7.46e-01	0	43	104	0	78	10461
2026-01-28 23:39:56.59	238.07	4.05	-53.8	-62.6	3.8	7.45e-01	0	43	104	0	78	10362
2026-01-28 23:39:59.62	237.88	3.83	-53.7	-62.5	3.8	7.46e-01	0	43	104	0	78	10232
2026-01-28 23:40:02.64	237.70	3.61	-53.8	-62.7	3.8	7.45e-01	0	43	104	0	78	10446
2026-01-28 23:40:05.67	237.53	3.39	-53.9	-62.8	3.8	7.45e-01	0	43	104	0	78	10578
2026-01-28 23:40:08.69	237.35	3.17	-53.9	-62.7	3.8	7.44e-01	0	43	104	0	78	10485
2026-01-28 23:40:11.72	237.18	2.96	-53.9	-62.7	3.8	7.45e-01	0	43	104	0	78	10448
2026-01-28 23:40:14.74	237.02	2.75	-53.8	-62.7	3.8	7.47e-01	0	43	104	0	78	10428
2026-01-28 23:40:17.76	236.85	2.54	-53.8	-62.6	3.8	7.45e-01	0	43	104	0	78	10401
2026-01-28 23:40:20.78	236.69	2.33	-53.8	-62.6	3.8	7.45e-01	0	43	104	0	78	10393
2026-01-28 23:40:23.81	236.53	2.12	-53.8	-62.6	3.8	7.46e-01	0	43	104	0	78	10340

#Closed at: 2026-01-28 23:40:26
#Recorded file [0 MB]: D:/lorett/data/31041_260129_023024.dat