passes_logs/2026/01/28/R3.2S_Murmansk/R3.2S_Murmansk__20260128_034801_SUOMI_NPP_rec.log

#Pass ID: 20260128_034801_SUOMI NPP
#Satellite: SUOMI NPP
#Configuration: NPP
#almurnet v.1.7.20251203
#Start time: 2026-01-28 03:48:02

#Version: 2.2.20231116
#Station: R3.2S_Murmansk
#Location: 33.079688 lon 68.888172 lat
#TLE: 1 37849U 11061A   26027.29799992  .00000188  00000+0  11027-3 0  9993
#TLE: 2 37849  98.7822 329.2414 0002113  42.5791 317.5548 14.19530708738457

#Time	Az	El	Level	Level2	SNR	BER	BlckErr	Temp	State	Recorded	gain1	gain2
2026-01-28 03:48:02.30	44.16	2.06	-52.8	-68.6	3.8	1.49e+00	0	41	0	0	76	23051
2026-01-28 03:48:06.32	43.93	2.29	-51.9	-66.9	3.8	1.49e+00	0	41	104	0	75	20134
2026-01-28 03:48:10.35	43.69	2.53	-51.9	-66.9	3.8	1.49e+00	0	41	104	0	75	20109
2026-01-28 03:48:14.39	43.46	2.77	-51.9	-66.8	3.8	1.49e+00	0	41	104	0	75	19976
2026-01-28 03:48:18.42	43.22	3.01	-51.9	-66.7	3.8	1.49e+00	0	41	104	0	75	19841
2026-01-28 03:48:22.45	42.97	3.25	-51.9	-66.8	3.8	1.49e+00	0	41	104	0	75	19965
2026-01-28 03:48:26.49	42.72	3.50	-51.9	-66.8	3.8	1.49e+00	0	42	104	0	75	19869
2026-01-28 03:48:30.53	42.47	3.74	-51.9	-66.7	3.8	1.49e+00	0	41	104	0	75	19712
2026-01-28 03:48:34.55	42.21	3.99	-51.7	-63.8	4.1	1.48e+00	0	42	104	0	75	14088
2026-01-28 03:48:38.58	41.95	4.24	-51.5	-61.8	4.8	8.73e-01	0	42	0	4194304	75	11179
2026-01-28 03:48:42.61	41.68	4.49	-51.7	-64.5	3.9	1.46e+00	0	42	104	9437184	75	15298
2026-01-28 03:48:46.64	41.41	4.74	-51.8	-64.8	3.8	1.49e+00	0	42	104	9437184	75	15785
2026-01-28 03:48:50.68	41.13	5.00	-51.7	-63.4	4.1	1.37e+00	0	42	0	9437184	75	13492
2026-01-28 03:48:54.71	40.85	5.25	-50.9	-57.3	5.1	1.49e+00	0	42	104	9437184	73	7459
2026-01-28 03:48:58.73	40.56	5.51	-48.9	-52.3	13.6	6.10e-06	0	42	0	15728640	69	5326
2026-01-28 03:49:02.77	40.27	5.77	-48.6	-51.7	14.2	1.60e-05	0	42	0	23068672	69	4946
2026-01-28 03:49:06.80	39.97	6.03	-48.1	-50.8	15.2	0.00e+00	0	42	0	30408704	68	4724
2026-01-28 03:49:10.82	39.66	6.29	-47.9	-50.6	15.5	0.00e+00	0	42	0	37748736	67	4882
2026-01-28 03:49:14.85	39.35	6.56	-48.1	-50.8	15.3	0.00e+00	0	42	0	46137344	67	5009
2026-01-28 03:49:18.89	39.03	6.83	-47.9	-50.4	15.6	0.00e+00	0	42	0	53477376	67	4801
2026-01-28 03:49:22.92	38.71	7.09	-47.5	-49.9	16.2	0.00e+00	0	42	0	60817408	66	4782
2026-01-28 03:49:26.95	38.38	7.36	-46.9	-49.0	17.1	0.00e+00	0	42	0	68157440	65	4548
2026-01-28 03:49:30.98	38.05	7.64	-47.0	-49.1	17.0	0.00e+00	0	42	0	75497472	65	4607
2026-01-28 03:49:35.01	37.71	7.91	-46.9	-49.0	17.1	0.00e+00	0	42	0	83886080	65	4585
2026-01-28 03:49:39.04	37.36	8.19	-47.0	-49.1	17.0	0.00e+00	0	43	0	91226112	65	4624
2026-01-28 03:49:43.07	37.00	8.47	-47.2	-49.3	16.8	0.00e+00	0	43	0	98566144	65	4753
2026-01-28 03:49:47.10	36.64	8.75	-47.2	-49.4	16.9	0.00e+00	0	43	0	105906176	65	4769
2026-01-28 03:49:51.13	36.27	9.03	-47.0	-49.1	17.1	0.00e+00	0	43	0	114294784	65	4605
2026-01-28 03:49:55.15	35.89	9.31	-47.2	-49.3	17.0	0.00e+00	0	43	0	121634816	65	4740
2026-01-28 03:49:59.18	35.51	9.60	-47.2	-49.3	17.1	0.00e+00	0	43	0	128974848	65	4717
2026-01-28 03:50:03.21	35.11	9.89	-47.1	-49.3	17.1	0.00e+00	0	43	0	136314880	65	4709
2026-01-28 03:50:07.24	34.71	10.18	-47.0	-49.1	17.3	0.00e+00	0	42	0	143654912	65	4607
2026-01-28 03:50:11.27	34.30	10.47	-47.2	-49.3	17.1	0.00e+00	0	43	0	150994944	65	4744
2026-01-28 03:50:15.30	33.88	10.77	-46.9	-49.0	17.4	0.00e+00	0	43	0	159383552	65	4564
2026-01-28 03:50:19.33	33.46	11.06	-47.2	-49.3	17.1	0.00e+00	0	43	0	166723584	65	4740
2026-01-28 03:50:23.36	33.02	11.36	-46.9	-48.9	17.5	0.00e+00	0	43	0	174063616	65	4529
2026-01-28 03:50:27.39	32.57	11.66	-47.1	-49.2	17.2	0.00e+00	0	43	0	181403648	65	4688
2026-01-28 03:50:31.41	32.12	11.96	-47.3	-49.3	17.1	0.00e+00	0	43	0	189792256	65	4750
2026-01-28 03:50:35.44	31.65	12.27	-46.5	-48.4	18.0	0.00e+00	0	43	0	197132288	64	4501
2026-01-28 03:50:39.47	31.18	12.57	-46.4	-48.2	18.3	0.00e+00	0	43	0	204472320	64	4405
2026-01-28 03:50:43.50	30.69	12.88	-46.5	-48.3	18.2	0.00e+00	0	43	0	211812352	64	4473
2026-01-28 03:50:47.52	30.20	13.19	-46.6	-48.4	18.0	0.00e+00	0	43	0	219152384	64	4534
2026-01-28 03:50:51.54	29.69	13.50	-47.0	-49.0	17.5	0.00e+00	0	43	0	227540992	64	4845
2026-01-28 03:50:55.58	29.18	13.82	-47.0	-49.0	17.5	0.00e+00	0	43	0	234881024	64	4824
2026-01-28 03:50:59.61	28.65	14.13	-46.9	-48.8	17.7	0.00e+00	0	43	0	242221056	64	4731
2026-01-28 03:51:03.65	28.10	14.45	-46.7	-48.6	17.9	0.00e+00	0	43	0	249561088	64	4617
2026-01-28 03:51:07.69	27.55	14.77	-46.0	-47.6	18.9	0.00e+00	0	43	0	256901120	63	4388
2026-01-28 03:51:11.72	26.99	15.09	-46.1	-47.8	18.8	0.00e+00	0	42	0	265289728	63	4447
2026-01-28 03:51:15.75	26.41	15.41	-45.9	-47.4	19.2	0.00e+00	0	43	0	272629760	63	4283
2026-01-28 03:51:19.79	25.82	15.73	-46.0	-47.5	19.0	0.00e+00	0	43	0	279969792	63	4340
2026-01-28 03:51:23.82	25.21	16.05	-45.9	-47.5	19.2	0.00e+00	0	43	0	287309824	63	4300
2026-01-28 03:51:27.85	24.60	16.38	-46.1	-47.7	18.9	0.00e+00	0	43	0	294649856	63	4423
2026-01-28 03:51:31.88	23.97	16.70	-45.9	-47.5	19.2	0.00e+00	0	43	0	303038464	63	4292
2026-01-28 03:51:35.91	23.32	17.03	-46.1	-47.7	18.9	0.00e+00	0	43	0	310378496	63	4436
2026-01-28 03:51:39.94	22.66	17.35	-46.0	-47.6	19.0	0.00e+00	0	43	0	317718528	63	4368
2026-01-28 03:51:43.97	21.99	17.68	-46.5	-48.2	18.5	0.00e+00	0	43	0	325058560	63	4693
2026-01-28 03:51:48.00	21.30	18.01	-46.6	-48.4	18.4	0.00e+00	0	43	0	333447168	63	4766
2026-01-28 03:51:52.03	20.60	18.33	-46.5	-48.2	18.5	0.00e+00	0	43	0	340787200	64	4419
2026-01-28 03:51:56.06	19.88	18.66	-46.3	-48.0	18.7	0.00e+00	0	43	0	348127232	64	4315
2026-01-28 03:52:00.10	19.14	18.98	-46.5	-48.2	18.3	0.00e+00	0	43	0	355467264	64	4414
2026-01-28 03:52:04.12	18.39	19.31	-46.4	-48.1	18.5	0.00e+00	0	43	0	362807296	64	4363
2026-01-28 03:52:08.15	17.62	19.63	-46.4	-48.1	18.5	0.00e+00	0	43	0	371195904	64	4364
2026-01-28 03:52:12.17	16.84	19.95	-46.1	-47.7	19.0	0.00e+00	0	43	0	378535936	64	4175
2026-01-28 03:52:16.20	16.04	20.27	-45.5	-47.0	19.8	0.00e+00	0	43	0	385875968	63	4058
2026-01-28 03:52:20.23	15.22	20.59	-45.9	-47.5	19.3	0.00e+00	0	43	0	393216000	62	4558
2026-01-28 03:52:24.26	14.39	20.91	-46.7	-48.4	18.4	0.00e+00	0	43	0	400556032	63	4810
2026-01-28 03:52:28.29	13.53	21.22	-46.1	-47.7	19.1	0.00e+00	0	43	0	407896064	63	4418
2026-01-28 03:52:32.33	12.66	21.53	-45.0	-46.3	20.3	0.00e+00	0	43	0	416284672	62	3986
2026-01-28 03:52:36.36	11.77	21.84	-45.2	-46.7	20.0	0.00e+00	0	43	0	423624704	61	4419
2026-01-28 03:52:40.39	10.87	22.14	-45.0	-46.4	20.3	0.00e+00	0	43	0	430964736	61	4246
2026-01-28 03:52:44.42	9.94	22.44	-44.5	-45.7	20.9	0.00e+00	0	43	0	438304768	61	3941
2026-01-28 03:52:48.45	9.00	22.73	-44.7	-46.0	20.7	0.00e+00	0	43	0	446693376	60	4293
2026-01-28 03:52:52.48	8.04	23.02	-44.4	-45.6	21.0	0.00e+00	0	43	0	454033408	60	4145
2026-01-28 03:52:56.51	7.06	23.30	-44.5	-45.7	21.2	0.00e+00	0	43	0	461373440	59	4416
2026-01-28 03:53:00.54	6.07	23.58	-44.6	-45.9	21.0	0.00e+00	0	43	0	468713472	59	4512
2026-01-28 03:53:04.58	5.05	23.85	-44.4	-45.6	21.1	0.00e+00	0	43	0	476053504	60	4101
2026-01-28 03:53:08.60	4.02	24.11	-44.9	-46.2	20.5	0.00e+00	0	43	0	484442112	60	4438
2026-01-28 03:53:12.64	2.97	24.37	-44.7	-46.0	20.8	0.00e+00	0	43	0	491782144	60	4309
2026-01-28 03:53:16.67	1.91	24.62	-44.7	-46.0	20.8	0.00e+00	0	43	0	499122176	60	4324
2026-01-28 03:53:20.70	0.83	24.85	-44.4	-45.6	21.1	0.00e+00	0	43	0	506462208	60	4135
2026-01-28 03:53:24.73	359.73	25.08	-44.4	-45.6	21.1	0.00e+00	0	43	0	513802240	60	4132
2026-01-28 03:53:28.77	358.61	25.30	-44.6	-45.8	20.9	0.00e+00	0	43	0	522190848	60	4236
2026-01-28 03:53:32.80	357.48	25.51	-44.1	-45.2	21.5	0.00e+00	0	43	0	529530880	60	3949
2026-01-28 03:53:36.83	356.34	25.71	-44.3	-45.5	21.2	0.00e+00	0	43	0	536870912	60	4077
2026-01-28 03:53:40.86	355.18	25.89	-44.6	-45.8	21.3	0.00e+00	0	43	0	544210944	59	4487
2026-01-28 03:53:44.89	354.01	26.07	-44.6	-45.8	20.9	0.00e+00	0	43	0	551550976	60	4228
2026-01-28 03:53:48.92	352.82	26.23	-46.0	-47.5	19.4	0.00e+00	0	43	0	559939584	62	4590
2026-01-28 03:53:52.95	351.63	26.38	-46.4	-48.1	18.9	0.00e+00	0	43	0	567279616	63	4608
2026-01-28 03:53:56.98	350.42	26.52	-45.6	-47.1	19.9	0.00e+00	0	43	0	574619648	63	4099
2026-01-28 03:54:01.01	349.20	26.64	-46.3	-47.9	19.1	0.00e+00	0	43	0	581959680	63	4542
2026-01-28 03:54:05.03	347.98	26.75	-46.4	-48.1	18.8	0.00e+00	0	43	0	590348288	64	4355
2026-01-28 03:54:09.06	346.75	26.84	-46.1	-47.7	19.1	0.00e+00	0	43	0	597688320	64	4171
2026-01-28 03:54:13.09	345.50	26.93	-46.3	-48.0	18.9	0.00e+00	0	43	0	605028352	64	4311
2026-01-28 03:54:17.12	344.26	26.99	-46.0	-47.6	19.4	0.00e+00	0	43	0	612368384	63	4359
2026-01-28 03:54:21.15	343.01	27.04	-46.3	-48.0	19.0	0.00e+00	0	43	0	619708416	63	4562
2026-01-28 03:54:25.18	341.75	27.08	-47.0	-48.9	18.1	0.00e+00	0	43	0	627048448	65	4497
2026-01-28 03:54:29.21	340.49	27.10	-46.0	-47.6	19.3	0.00e+00	0	43	0	635437056	64	4107
2026-01-28 03:54:33.24	339.24	27.10	-45.9	-47.4	19.6	0.00e+00	0	43	0	642777088	63	4244
2026-01-28 03:54:37.27	337.98	27.09	-46.7	-48.4	18.5	0.00e+00	0	43	0	650117120	64	4529
2026-01-28 03:54:41.30	336.72	27.07	-46.3	-47.8	19.1	0.00e+00	0	43	0	657457152	64	4242
2026-01-28 03:54:45.34	335.47	27.03	-45.9	-47.3	19.6	0.00e+00	0	43	0	665845760	63	4233
2026-01-28 03:54:49.37	334.22	26.97	-46.3	-47.9	19.1	0.00e+00	0	43	0	673185792	63	4534
2026-01-28 03:54:53.39	332.97	26.90	-45.3	-46.7	20.3	0.00e+00	0	43	0	680525824	62	4149
2026-01-28 03:54:57.42	331.73	26.81	-44.4	-45.6	21.3	0.00e+00	0	43	0	687865856	60	4120
2026-01-28 03:55:01.45	330.50	26.71	-44.6	-45.8	21.1	0.00e+00	0	43	0	695205888	60	4207
2026-01-28 03:55:05.48	329.28	26.60	-45.1	-46.4	20.5	0.00e+00	0	43	0	703594496	60	4543
2026-01-28 03:55:09.51	328.06	26.47	-45.5	-46.8	20.2	0.00e+00	0	43	0	710934528	62	4213
2026-01-28 03:55:13.54	326.86	26.33	-45.4	-46.7	20.3	0.00e+00	0	43	0	718274560	62	4154
2026-01-28 03:55:17.57	325.67	26.18	-46.5	-48.0	19.2	0.00e+00	0	43	0	725614592	63	4567
2026-01-28 03:55:21.60	324.49	26.01	-46.2	-47.6	19.5	0.00e+00	0	43	0	734003200	63	4371
2026-01-28 03:55:25.64	323.32	25.83	-46.0	-47.4	19.7	0.00e+00	0	43	0	741343232	63	4269
2026-01-28 03:55:29.67	322.16	25.64	-46.6	-48.2	19.0	0.00e+00	0	43	0	748683264	63	4664
2026-01-28 03:55:33.70	321.02	25.44	-46.9	-48.7	18.4	0.00e+00	0	43	0	756023296	64	4652
2026-01-28 03:55:37.73	319.90	25.23	-47.7	-49.7	17.4	0.00e+00	0	43	0	763363328	66	4690
2026-01-28 03:55:41.77	318.79	25.00	-47.8	-49.8	17.3	0.00e+00	0	43	0	770703360	66	4725
2026-01-28 03:55:45.81	317.69	24.77	-48.3	-50.5	16.6	0.00e+00	0	43	0	779091968	67	4849
2026-01-28 03:55:49.84	316.61	24.53	-47.4	-49.2	17.8	0.00e+00	0	43	0	786432000	66	4425
2026-01-28 03:55:53.87	315.55	24.28	-46.9	-48.7	18.4	0.00e+00	0	43	0	793772032	65	4393
2026-01-28 03:55:57.91	314.51	24.02	-47.3	-49.2	17.8	0.00e+00	0	43	0	801112064	65	4696
2026-01-28 03:56:01.93	313.48	23.76	-46.8	-48.5	18.5	0.00e+00	0	43	0	809500672	64	4592
2026-01-28 03:56:05.96	312.48	23.48	-47.9	-50.1	16.9	0.00e+00	0	43	0	816840704	66	4908
2026-01-28 03:56:09.99	311.49	23.20	-47.7	-49.8	17.3	0.00e+00	0	43	0	824180736	67	4456
2026-01-28 03:56:14.02	310.51	22.92	-46.3	-47.9	19.1	0.00e+00	0	43	0	831520768	64	4291
2026-01-28 03:56:18.05	309.56	22.63	-47.2	-49.1	17.9	0.00e+00	0	43	0	838860800	64	4871
2026-01-28 03:56:22.08	308.62	22.33	-47.2	-49.1	17.9	0.00e+00	0	43	0	847249408	65	4638
2026-01-28 03:56:26.11	307.70	22.03	-46.0	-47.5	19.4	0.00e+00	0	43	0	854589440	64	4088
2026-01-28 03:56:30.14	306.80	21.73	-46.5	-48.1	19.0	0.00e+00	0	43	0	861929472	63	4615
2026-01-28 03:56:34.17	305.92	21.42	-46.3	-47.9	19.1	0.00e+00	0	43	0	869269504	63	4499
2026-01-28 03:56:38.21	305.05	21.11	-46.1	-47.6	19.4	0.00e+00	0	43	0	876609536	63	4354
2026-01-28 03:56:42.24	304.20	20.79	-46.1	-47.7	19.3	0.00e+00	0	43	0	884998144	63	4405
2026-01-28 03:56:46.28	303.37	20.48	-46.4	-48.1	19.0	0.00e+00	0	43	0	892338176	63	4617
2026-01-28 03:56:50.31	302.56	20.16	-46.9	-48.8	18.2	0.00e+00	0	43	0	899678208	64	4721
2026-01-28 03:56:54.34	301.76	19.84	-46.3	-47.9	19.0	0.00e+00	0	43	0	907018240	64	4257
2026-01-28 03:56:58.37	300.98	19.51	-46.5	-48.2	18.8	0.00e+00	0	43	0	914358272	64	4396
2026-01-28 03:57:02.41	300.22	19.19	-45.5	-46.9	20.1	0.00e+00	0	43	0	922746880	63	4006
2026-01-28 03:57:06.43	299.47	18.86	-45.6	-47.0	20.0	0.00e+00	0	43	0	930086912	62	4311
2026-01-28 03:57:10.46	298.74	18.54	-46.1	-47.6	19.5	0.00e+00	0	43	0	937426944	62	4607
2026-01-28 03:57:14.49	298.03	18.21	-45.9	-47.3	19.7	0.00e+00	0	43	0	944766976	63	4212
2026-01-28 03:57:18.52	297.33	17.89	-45.9	-47.3	19.7	0.00e+00	0	43	0	953155584	63	4236
2026-01-28 03:57:22.55	296.65	17.56	-46.3	-47.8	19.3	0.00e+00	0	43	0	960495616	63	4478
2026-01-28 03:57:26.57	295.98	17.23	-46.4	-48.0	19.1	0.00e+00	0	43	0	967835648	63	4567
2026-01-28 03:57:30.61	295.32	16.91	-45.6	-47.0	20.0	0.00e+00	0	43	0	975175680	63	4089
2026-01-28 03:57:34.64	294.68	16.58	-45.9	-47.4	19.6	0.00e+00	0	43	0	982515712	62	4498
2026-01-28 03:57:38.67	294.05	16.26	-46.8	-48.5	18.5	0.00e+00	0	43	0	989855744	64	4568
2026-01-28 03:57:42.70	293.44	15.93	-46.4	-48.0	18.9	0.00e+00	0	43	0	998244352	64	4321
2026-01-28 03:57:46.73	292.84	15.61	-46.3	-47.9	19.0	0.00e+00	0	43	0	1005584384	64	4246
2026-01-28 03:57:50.75	292.26	15.29	-46.4	-47.9	19.0	0.00e+00	0	43	0	1012924416	64	4280
2026-01-28 03:57:54.79	291.68	14.97	-47.1	-48.9	18.1	0.00e+00	0	43	0	1020264448	65	4531
2026-01-28 03:57:58.81	291.12	14.65	-47.2	-49.1	18.0	0.00e+00	0	43	0	1028653056	65	4601
2026-01-28 03:58:02.85	290.57	14.33	-46.0	-47.5	19.4	0.00e+00	0	43	0	1035993088	64	4085
2026-01-28 03:58:06.88	290.03	14.01	-46.5	-48.0	18.9	0.00e+00	0	43	0	1043333120	63	4594
2026-01-28 03:58:10.91	289.51	13.70	-46.6	-48.3	18.6	0.00e+00	0	43	0	1050673152	64	4464
2026-01-28 03:58:14.95	288.99	13.39	-46.5	-48.1	18.8	0.00e+00	0	43	0	1058013184	64	4360
2026-01-28 03:58:18.98	288.49	13.08	-46.7	-48.4	18.4	0.00e+00	0	43	0	1066401792	64	4513
2026-01-28 03:58:23.02	287.99	12.76	-46.9	-48.7	18.1	0.00e+00	0	43	0	1073741824	64	4675
2026-01-28 03:58:27.05	287.51	12.46	-47.4	-49.4	17.5	0.00e+00	0	43	0	1081081856	65	4774
2026-01-28 03:58:31.08	287.04	12.15	-47.9	-50.0	16.9	0.00e+00	0	43	0	1088421888	66	4831
2026-01-28 03:58:35.11	286.57	11.85	-47.8	-49.9	17.0	0.00e+00	0	43	0	1096810496	66	4767
2026-01-28 03:58:39.14	286.12	11.55	-47.5	-49.4	17.3	0.00e+00	0	43	0	1104150528	66	4531
2026-01-28 03:58:43.17	285.68	11.25	-47.7	-49.8	16.9	0.00e+00	0	43	0	1111490560	66	4727
2026-01-28 03:58:47.20	285.24	10.95	-48.5	-50.9	15.8	0.00e+00	0	43	0	1118830592	67	5094
2026-01-28 03:58:51.23	284.82	10.65	-48.7	-51.2	15.6	0.00e+00	0	43	0	1126170624	68	4946
2026-01-28 03:58:55.27	284.40	10.36	-48.2	-50.5	16.3	0.00e+00	0	43	0	1133510656	68	4584
2026-01-28 03:58:59.29	283.99	10.07	-48.0	-50.2	16.5	0.00e+00	0	43	0	1141899264	67	4665
2026-01-28 03:59:03.32	283.59	9.78	-48.6	-51.1	15.5	0.00e+00	0	43	0	1149239296	67	5208
2026-01-28 03:59:07.36	283.20	9.49	-49.5	-52.6	14.1	1.50e-06	0	43	0	1156579328	69	5502
2026-01-28 03:59:11.39	282.82	9.20	-50.0	-53.6	13.1	1.37e-05	0	43	0	1163919360	70	5819
2026-01-28 03:59:15.42	282.44	8.92	-50.1	-53.9	12.7	9.53e-05	0	43	0	1172307968	71	5688
2026-01-28 03:59:19.44	282.07	8.64	-50.2	-54.0	12.6	9.61e-05	0	43	0	1179648000	71	5784
2026-01-28 03:59:23.47	281.71	8.36	-50.3	-54.3	12.3	1.46e-04	0	43	0	1186988032	71	5935
2026-01-28 03:59:27.50	281.36	8.08	-50.4	-54.5	12.0	2.92e-04	0	43	0	1194328064	71	6112
2026-01-28 03:59:31.53	281.01	7.80	-50.7	-55.4	11.0	1.71e-03	0	43	0	1201668096	72	6353
2026-01-28 03:59:35.56	280.67	7.53	-50.9	-55.9	10.4	4.68e-03	0	43	0	1210056704	72	6797
2026-01-28 03:59:39.59	280.34	7.26	-50.8	-55.8	10.4	4.31e-03	0	43	0	1217396736	72	6714
2026-01-28 03:59:43.62	280.01	6.98	-50.6	-55.2	11.1	1.80e-03	0	43	0	1224736768	72	6230
2026-01-28 03:59:47.65	279.69	6.72	-50.2	-54.4	11.9	4.76e-04	0	43	0	1232076800	72	5687
2026-01-28 03:59:51.68	279.37	6.45	-50.2	-54.4	11.9	4.20e-04	0	43	0	1239416832	72	5690
2026-01-28 03:59:55.71	279.06	6.19	-50.4	-54.9	11.3	1.07e-03	0	43	0	1247805440	72	6044
2026-01-28 03:59:59.74	278.76	5.92	-50.7	-55.9	10.2	5.24e-03	0	43	0	1255145472	72	6747
2026-01-28 04:00:03.77	278.46	5.66	-51.0	-56.8	9.3	1.50e-02	0	43	0	1262485504	72	7485
2026-01-28 04:00:07.80	278.17	5.40	-51.1	-57.2	8.7	3.32e-02	0	43	0	1269825536	72	7853
2026-01-28 04:00:11.83	277.88	5.15	-51.2	-57.6	8.3	5.01e-02	0	43	0	1277165568	72	8225
2026-01-28 04:00:15.86	277.60	4.89	-52.2	-67.1	3.8	1.49e+00	0	43	104	1282408448	74	21916
2026-01-28 04:00:19.89	277.32	4.64	-52.7	-67.6	3.8	1.49e+00	0	43	104	1282408448	75	21938
2026-01-28 04:00:23.90	277.05	4.39	-53.0	-67.9	3.8	1.49e+00	0	43	104	1282408448	76	21463
2026-01-28 04:00:27.93	276.78	4.14	-53.1	-68.0	3.8	1.49e+00	0	43	104	1282408448	76	21728
2026-01-28 04:00:31.96	276.52	3.89	-53.2	-68.2	3.8	1.49e+00	0	43	104	1282408448	77	20871
2026-01-28 04:00:35.99	276.26	3.64	-53.2	-68.1	3.8	1.49e+00	0	43	104	1282408448	77	20693
2026-01-28 04:00:40.02	276.01	3.40	-53.2	-68.1	3.8	1.49e+00	0	43	104	1282408448	77	20686
2026-01-28 04:00:44.06	275.76	3.15	-53.1	-68.1	3.8	1.49e+00	0	43	104	1282408448	77	20568
2026-01-28 04:00:48.10	275.51	2.91	-53.1	-68.1	3.8	1.49e+00	0	43	104	1282408448	77	20677
2026-01-28 04:00:52.13	275.27	2.67	-53.1	-68.1	3.8	1.49e+00	0	43	104	1282408448	77	20621
2026-01-28 04:00:56.16	275.04	2.43	-53.1	-68.1	3.8	1.49e+00	0	43	104	1282408448	77	20617
2026-01-28 04:01:00.19	274.81	2.20	-53.1	-68.1	3.8	1.49e+00	0	43	104	1282408448	77	20618
2026-01-28 04:01:04.22	274.58	1.96	-53.1	-68.1	3.8	1.49e+00	0	43	104	1282408448	77	20583

#Closed at: 2026-01-28 04:01:04
#Recorded file [1282 MB]: D:/lorett/data/31041_260128_064802.dat