passes_logs/2026/01/28/R3.2S_Murmansk/R3.2S_Murmansk__20260128_052713_SUOMI_NPP_rec.log

#Pass ID: 20260128_052713_SUOMI NPP
#Satellite: SUOMI NPP
#Configuration: NPP
#almurnet v.1.7.20251203
#Start time: 2026-01-28 05:27:12

#Version: 2.2.20231116
#Station: R3.2S_Murmansk
#Location: 33.079688 lon 68.888172 lat
#TLE: 1 37849U 11061A   26027.29799992  .00000188  00000+0  11027-3 0  9993
#TLE: 2 37849  98.7822 329.2414 0002113  42.5791 317.5548 14.19530708738457

#Time	Az	El	Level	Level2	SNR	BER	BlckErr	Temp	State	Recorded	gain1	gain2
2026-01-28 05:27:12.97	65.43	1.99	-54.0	-69.0	3.8	1.49e+00	0	41	0	0	79	20432
2026-01-28 05:27:15.98	65.23	2.16	-54.0	-69.0	3.8	1.49e+00	0	41	104	0	78	21627
2026-01-28 05:27:19.01	65.04	2.33	-54.2	-69.2	3.8	1.49e+00	0	41	104	0	78	22117
2026-01-28 05:27:22.03	64.84	2.50	-54.2	-69.2	3.8	1.49e+00	0	41	104	0	78	22092
2026-01-28 05:27:25.06	64.64	2.68	-54.1	-69.0	3.8	1.49e+00	0	41	104	0	78	21726
2026-01-28 05:27:28.08	64.44	2.85	-53.9	-68.8	3.8	1.49e+00	0	41	104	0	78	21232
2026-01-28 05:27:31.10	64.23	3.03	-53.7	-68.6	3.8	1.49e+00	0	41	104	0	78	20749
2026-01-28 05:27:34.13	64.02	3.20	-53.4	-68.3	3.8	1.49e+00	0	42	104	0	78	19995
2026-01-28 05:27:37.15	63.81	3.38	-52.8	-67.8	3.8	1.49e+00	0	42	104	0	77	19871
2026-01-28 05:27:40.18	63.60	3.56	-52.0	-66.9	3.8	1.49e+00	0	42	104	0	76	19007
2026-01-28 05:27:43.20	63.38	3.74	-52.0	-66.9	3.8	1.49e+00	0	42	104	0	75	20156
2026-01-28 05:27:46.22	63.17	3.92	-51.9	-66.8	3.8	1.49e+00	0	42	104	0	75	20000
2026-01-28 05:27:49.25	62.94	4.10	-51.9	-66.5	3.8	1.49e+00	0	42	104	0	75	19184
2026-01-28 05:27:52.28	62.72	4.28	-51.8	-63.5	4.1	1.47e+00	0	42	104	0	75	13702
2026-01-28 05:27:55.30	62.49	4.46	-51.6	-61.7	4.8	8.41e-01	0	42	0	3145728	75	11048
2026-01-28 05:27:58.32	62.26	4.64	-51.7	-63.3	4.2	1.33e+00	0	42	0	8388608	75	13352
2026-01-28 05:28:01.34	62.03	4.82	-51.7	-63.2	4.2	1.40e+00	0	42	0	8388608	75	13228
2026-01-28 05:28:04.37	61.79	5.01	-51.1	-58.7	6.9	2.19e-01	0	42	0	13631488	74	8274
2026-01-28 05:28:07.39	61.55	5.19	-49.8	-54.2	12.1	5.30e-06	0	42	0	18874368	70	6207
2026-01-28 05:28:10.41	61.31	5.38	-48.5	-51.6	14.2	2.20e-06	0	42	0	22020096	68	5166
2026-01-28 05:28:13.44	61.06	5.56	-47.8	-50.4	15.4	0.00e+00	0	42	0	28311552	67	4793
2026-01-28 05:28:16.46	60.81	5.75	-47.8	-50.4	15.5	0.00e+00	0	42	0	33554432	67	4809
2026-01-28 05:28:19.49	60.56	5.94	-47.4	-49.8	16.1	0.00e+00	0	42	0	39845888	66	4744
2026-01-28 05:28:22.52	60.30	6.13	-47.8	-50.4	15.5	0.00e+00	0	42	0	45088768	66	5081
2026-01-28 05:28:25.54	60.04	6.32	-47.8	-50.4	15.6	0.00e+00	0	42	0	50331648	66	5050
2026-01-28 05:28:28.57	59.78	6.51	-47.6	-50.1	15.9	0.00e+00	0	42	0	56623104	66	4873
2026-01-28 05:28:31.59	59.51	6.70	-47.8	-50.3	15.7	0.00e+00	0	42	0	61865984	66	5004
2026-01-28 05:28:34.61	59.24	6.89	-48.1	-50.9	15.2	0.00e+00	0	42	0	68157440	67	5074
2026-01-28 05:28:37.63	58.97	7.08	-48.0	-50.7	15.3	0.00e+00	0	43	0	73400320	67	4939
2026-01-28 05:28:40.66	58.69	7.28	-47.7	-50.2	16.0	0.00e+00	0	43	0	78643200	67	4653
2026-01-28 05:28:43.69	58.41	7.47	-47.6	-50.0	16.1	0.00e+00	0	42	0	84934656	66	4826
2026-01-28 05:28:46.71	58.12	7.67	-47.6	-50.0	16.2	0.00e+00	0	42	0	90177536	66	4829
2026-01-28 05:28:49.73	57.84	7.86	-47.2	-49.5	16.6	0.00e+00	0	42	0	96468992	66	4547
2026-01-28 05:28:52.75	57.54	8.06	-46.9	-49.0	17.1	0.00e+00	0	43	0	101711872	65	4573
2026-01-28 05:28:55.78	57.24	8.26	-47.0	-49.0	17.0	0.00e+00	0	43	0	106954752	65	4588
2026-01-28 05:28:58.80	56.94	8.46	-46.9	-48.9	17.0	0.00e+00	0	43	0	113246208	65	4528
2026-01-28 05:29:01.83	56.64	8.66	-46.8	-48.8	17.2	0.00e+00	0	43	0	118489088	65	4482
2026-01-28 05:29:04.85	56.32	8.86	-46.9	-48.9	17.3	0.00e+00	0	43	0	124780544	65	4537
2026-01-28 05:29:07.87	56.01	9.06	-46.9	-48.9	17.3	0.00e+00	0	43	0	130023424	65	4526
2026-01-28 05:29:10.90	55.69	9.26	-47.0	-49.1	17.1	0.00e+00	0	43	0	135266304	65	4626
2026-01-28 05:29:13.92	55.37	9.46	-47.4	-49.5	16.8	0.00e+00	0	43	0	141557760	65	4858
2026-01-28 05:29:16.95	55.04	9.66	-47.3	-49.5	16.8	0.00e+00	0	43	0	146800640	65	4859
2026-01-28 05:29:19.97	54.70	9.87	-47.6	-49.9	16.5	0.00e+00	0	43	0	153092096	65	5052
2026-01-28 05:29:22.99	54.37	10.07	-47.7	-50.0	16.3	0.00e+00	0	43	0	158334976	66	4827
2026-01-28 05:29:26.02	54.02	10.28	-47.3	-49.5	16.9	0.00e+00	0	43	0	163577856	66	4562
2026-01-28 05:29:29.04	53.67	10.48	-47.3	-49.4	17.0	0.00e+00	0	43	0	169869312	66	4521
2026-01-28 05:29:32.06	53.32	10.69	-47.1	-49.1	17.2	0.00e+00	0	43	0	175112192	66	4345
2026-01-28 05:29:35.09	52.96	10.90	-47.0	-49.0	17.3	0.00e+00	0	43	0	181403648	66	4312
2026-01-28 05:29:38.11	52.60	11.10	-46.8	-48.7	17.6	0.00e+00	0	43	0	186646528	65	4432
2026-01-28 05:29:41.14	52.23	11.31	-46.8	-48.7	17.7	0.00e+00	0	43	0	191889408	65	4411
2026-01-28 05:29:44.17	51.85	11.52	-46.6	-48.4	17.9	0.00e+00	0	43	0	198180864	65	4284
2026-01-28 05:29:47.19	51.47	11.73	-46.4	-48.1	18.2	0.00e+00	0	43	0	203423744	64	4374
2026-01-28 05:29:50.21	51.09	11.94	-46.4	-48.2	18.2	0.00e+00	0	43	0	209715200	64	4410
2026-01-28 05:29:53.23	50.70	12.15	-46.4	-48.1	18.3	0.00e+00	0	43	0	214958080	64	4388
2026-01-28 05:29:56.26	50.30	12.36	-46.2	-48.0	18.5	0.00e+00	0	43	0	220200960	64	4300
2026-01-28 05:29:59.29	49.90	12.57	-46.1	-47.8	18.7	0.00e+00	0	43	0	226492416	63	4475
2026-01-28 05:30:02.32	49.49	12.79	-46.4	-48.1	18.4	0.00e+00	0	43	0	231735296	63	4644
2026-01-28 05:30:05.34	49.07	13.00	-46.4	-48.1	18.4	0.00e+00	0	43	0	238026752	63	4639
2026-01-28 05:30:08.37	48.65	13.21	-46.6	-48.5	18.1	0.00e+00	0	43	0	243269632	63	4821
2026-01-28 05:30:11.39	48.22	13.42	-46.4	-48.2	18.4	0.00e+00	0	43	0	249561088	63	4657
2026-01-28 05:30:14.42	47.79	13.64	-46.5	-48.4	18.2	0.00e+00	0	43	0	254803968	63	4781
2026-01-28 05:30:17.44	47.35	13.85	-46.4	-48.2	18.3	0.00e+00	0	43	0	260046848	63	4693
2026-01-28 05:30:20.46	46.90	14.06	-46.5	-48.3	18.2	0.00e+00	0	43	0	266338304	63	4743
2026-01-28 05:30:23.49	46.45	14.28	-46.7	-48.7	17.8	0.00e+00	0	43	0	271581184	64	4659
2026-01-28 05:30:26.51	45.99	14.49	-46.2	-47.9	18.5	0.00e+00	0	43	0	277872640	64	4282
2026-01-28 05:30:29.53	45.52	14.70	-46.5	-48.3	18.3	0.00e+00	0	43	0	283115520	64	4490
2026-01-28 05:30:32.56	45.05	14.92	-46.5	-48.4	18.1	0.00e+00	0	43	0	288358400	64	4514
2026-01-28 05:30:35.58	44.57	15.13	-46.9	-49.0	17.5	0.00e+00	0	43	0	294649856	64	4822
2026-01-28 05:30:38.61	44.08	15.34	-47.1	-49.2	17.4	0.00e+00	0	43	0	299892736	65	4701
2026-01-28 05:30:41.64	43.58	15.56	-46.6	-48.4	18.1	0.00e+00	0	43	0	306184192	65	4291
2026-01-28 05:30:44.66	43.08	15.77	-46.7	-48.6	17.9	0.00e+00	0	43	0	311427072	65	4357
2026-01-28 05:30:47.68	42.57	15.98	-46.4	-48.2	18.3	0.00e+00	0	43	0	317718528	64	4421
2026-01-28 05:30:50.71	42.06	16.19	-46.7	-48.5	18.1	0.00e+00	0	43	0	322961408	64	4579
2026-01-28 05:30:53.74	41.53	16.40	-46.5	-48.3	18.2	0.00e+00	0	43	0	328204288	64	4466
2026-01-28 05:30:56.76	41.00	16.61	-46.2	-47.9	18.6	0.00e+00	0	43	0	334495744	64	4269
2026-01-28 05:30:59.79	40.46	16.82	-46.5	-48.3	18.2	0.00e+00	0	43	0	339738624	64	4447
2026-01-28 05:31:02.81	39.92	17.03	-46.9	-48.9	17.7	0.00e+00	0	43	0	346030080	64	4790
2026-01-28 05:31:05.83	39.36	17.24	-46.8	-48.7	17.9	0.00e+00	0	43	0	351272960	64	4681
2026-01-28 05:31:08.86	38.80	17.44	-46.2	-47.9	18.7	0.00e+00	0	43	0	356515840	64	4254
2026-01-28 05:31:11.88	38.23	17.65	-46.1	-47.7	19.0	0.00e+00	0	43	0	362807296	63	4416
2026-01-28 05:31:14.91	37.65	17.85	-46.0	-47.7	19.0	0.00e+00	0	43	0	368050176	63	4408
2026-01-28 05:31:17.93	37.07	18.06	-46.0	-47.7	18.9	0.00e+00	0	43	0	374341632	63	4414
2026-01-28 05:31:20.95	36.47	18.26	-45.6	-47.2	19.4	0.00e+00	0	43	0	379584512	63	4160
2026-01-28 05:31:23.98	35.87	18.46	-45.4	-47.0	19.6	0.00e+00	0	43	0	384827392	62	4299
2026-01-28 05:31:27.00	35.26	18.65	-45.3	-46.7	19.8	0.00e+00	0	43	0	391118848	62	4193
2026-01-28 05:31:30.03	34.64	18.85	-45.3	-46.7	19.8	0.00e+00	0	43	0	396361728	62	4185
2026-01-28 05:31:33.05	34.02	19.04	-45.2	-46.7	19.9	0.00e+00	0	43	0	402653184	62	4172
2026-01-28 05:31:36.08	33.38	19.24	-45.0	-46.5	20.2	0.00e+00	0	43	0	407896064	61	4296
2026-01-28 05:31:39.10	32.74	19.43	-44.7	-46.0	20.4	0.00e+00	0	43	0	413138944	61	4085
2026-01-28 05:31:42.13	32.09	19.61	-44.8	-46.1	20.4	0.00e+00	0	43	0	419430400	61	4135
2026-01-28 05:31:45.15	31.43	19.80	-44.9	-46.2	20.2	0.00e+00	0	43	0	424673280	61	4186
2026-01-28 05:31:48.17	30.77	19.98	-44.9	-46.4	20.2	0.00e+00	0	43	0	430964736	61	4262
2026-01-28 05:31:51.20	30.09	20.16	-44.5	-45.8	20.7	0.00e+00	0	43	0	436207616	60	4223
2026-01-28 05:31:54.23	29.41	20.33	-44.6	-45.9	20.6	0.00e+00	0	43	0	441450496	60	4258
2026-01-28 05:31:57.25	28.72	20.51	-44.4	-45.7	20.8	0.00e+00	0	43	0	447741952	60	4170
2026-01-28 05:32:00.27	28.03	20.68	-44.3	-45.5	21.0	0.00e+00	0	43	0	452984832	60	4090
2026-01-28 05:32:03.29	27.32	20.84	-44.1	-45.3	21.2	0.00e+00	0	43	0	459276288	60	3982
2026-01-28 05:32:06.31	26.61	21.01	-44.3	-45.5	21.3	0.00e+00	0	43	0	464519168	59	4336
2026-01-28 05:32:09.33	25.89	21.16	-44.4	-45.6	21.2	0.00e+00	0	43	0	469762048	59	4386
2026-01-28 05:32:12.35	25.16	21.32	-44.5	-45.8	21.2	0.00e+00	0	43	0	476053504	59	4448
2026-01-28 05:32:15.37	24.43	21.47	-44.4	-45.7	20.9	0.00e+00	0	43	0	481296384	60	4152
2026-01-28 05:32:18.39	23.69	21.62	-44.4	-45.6	20.8	0.00e+00	0	43	0	487587840	60	4127
2026-01-28 05:32:21.40	22.94	21.76	-44.3	-45.5	21.1	0.00e+00	0	43	0	492830720	60	4068
2026-01-28 05:32:24.42	22.19	21.90	-44.6	-45.9	20.8	0.00e+00	0	43	0	498073600	60	4243
2026-01-28 05:32:27.44	21.43	22.03	-44.1	-45.3	21.2	0.00e+00	0	43	0	504365056	60	3981
2026-01-28 05:32:30.46	20.66	22.16	-44.5	-45.8	21.1	0.00e+00	0	43	0	509607936	59	4464
2026-01-28 05:32:33.49	19.88	22.28	-44.3	-45.5	21.4	0.00e+00	0	43	0	515899392	59	4313
2026-01-28 05:32:36.51	19.10	22.40	-44.3	-45.5	21.4	0.00e+00	0	43	0	521142272	59	4311
2026-01-28 05:32:39.52	18.32	22.51	-44.4	-45.6	21.0	0.00e+00	0	43	0	526385152	60	4125
2026-01-28 05:32:42.55	17.52	22.62	-45.1	-46.4	20.3	0.00e+00	0	43	0	532676608	60	4538
2026-01-28 05:32:45.57	16.73	22.72	-46.0	-47.6	19.2	0.00e+00	0	43	0	537919488	62	4621
2026-01-28 05:32:48.59	15.92	22.82	-45.8	-47.2	19.5	0.00e+00	0	43	0	544210944	62	4438
2026-01-28 05:32:51.62	15.11	22.91	-45.5	-46.9	19.9	0.00e+00	0	43	0	549453824	62	4274
2026-01-28 05:32:54.65	14.30	22.99	-45.4	-46.8	20.0	0.00e+00	0	43	0	554696704	62	4227
2026-01-28 05:32:57.67	13.48	23.07	-45.3	-46.7	20.1	0.00e+00	0	43	0	560988160	62	4172
2026-01-28 05:33:00.69	12.66	23.15	-45.5	-46.9	19.9	0.00e+00	0	43	0	566231040	62	4267
2026-01-28 05:33:03.72	11.83	23.21	-46.0	-47.5	19.3	0.00e+00	0	43	0	572522496	62	4584
2026-01-28 05:33:06.74	11.01	23.27	-45.9	-47.4	19.4	0.00e+00	0	43	0	577765376	62	4512
2026-01-28 05:33:09.76	10.18	23.33	-46.5	-48.1	18.7	0.00e+00	0	43	0	583008256	63	4645
2026-01-28 05:33:12.78	9.34	23.38	-46.3	-47.9	18.9	0.00e+00	0	43	0	589299712	63	4537
2026-01-28 05:33:15.81	8.51	23.42	-46.0	-47.6	19.2	0.00e+00	0	43	0	594542592	63	4386
2026-01-28 05:33:18.84	7.66	23.45	-46.5	-48.2	18.7	0.00e+00	0	43	0	600834048	63	4681
2026-01-28 05:33:21.86	6.83	23.48	-46.9	-48.8	18.0	0.00e+00	0	43	0	606076928	64	4717
2026-01-28 05:33:24.88	5.99	23.50	-46.5	-48.2	18.5	0.00e+00	0	43	0	612368384	64	4416
2026-01-28 05:33:27.90	5.14	23.51	-45.8	-47.3	19.4	0.00e+00	0	43	0	617611264	63	4233
2026-01-28 05:33:30.92	4.30	23.52	-45.6	-47.1	19.7	0.00e+00	0	43	0	622854144	62	4343
2026-01-28 05:33:33.94	3.46	23.52	-45.8	-47.4	19.4	0.00e+00	0	43	0	629145600	62	4537
2026-01-28 05:33:36.96	2.62	23.52	-45.5	-47.0	19.7	0.00e+00	0	43	0	634388480	62	4324
2026-01-28 05:33:39.99	1.77	23.51	-45.6	-47.1	19.7	0.00e+00	0	43	0	640679936	62	4345
2026-01-28 05:33:43.01	0.93	23.49	-45.3	-46.7	20.1	0.00e+00	0	43	0	645922816	62	4162
2026-01-28 05:33:46.04	0.09	23.46	-45.3	-46.7	20.0	0.00e+00	0	43	0	651165696	62	4181
2026-01-28 05:33:49.06	359.25	23.43	-44.8	-46.1	20.5	0.00e+00	0	43	0	657457152	61	4135
2026-01-28 05:33:52.08	358.41	23.39	-45.2	-46.6	20.2	0.00e+00	0	43	0	662700032	61	4353
2026-01-28 05:33:55.09	357.58	23.35	-44.8	-46.1	20.7	0.00e+00	0	43	0	668991488	61	4108
2026-01-28 05:33:58.12	356.75	23.29	-44.6	-45.9	20.8	0.00e+00	0	43	0	674234368	60	4259
2026-01-28 05:34:01.14	355.92	23.24	-44.4	-45.7	21.0	0.00e+00	0	43	0	679477248	60	4153
2026-01-28 05:34:04.16	355.10	23.17	-44.3	-45.5	21.5	0.00e+00	0	43	0	685768704	59	4301
2026-01-28 05:34:07.19	354.27	23.10	-44.4	-45.6	21.4	0.00e+00	0	43	0	691011584	59	4341
2026-01-28 05:34:10.21	353.45	23.02	-44.6	-45.8	21.2	0.00e+00	0	43	0	697303040	59	4486
2026-01-28 05:34:13.23	352.64	22.94	-44.5	-45.8	21.0	0.00e+00	0	43	0	702545920	60	4195
2026-01-28 05:34:16.25	351.83	22.85	-44.6	-45.8	20.9	0.00e+00	0	43	0	707788800	60	4220
2026-01-28 05:34:19.28	351.02	22.76	-44.1	-45.2	21.4	0.00e+00	0	43	0	714080256	60	3955
2026-01-28 05:34:22.30	350.23	22.66	-44.8	-46.0	20.7	0.00e+00	0	43	0	719323136	60	4333
2026-01-28 05:34:25.32	349.43	22.55	-44.6	-45.9	20.8	0.00e+00	0	43	0	725614592	60	4256
2026-01-28 05:34:28.34	348.64	22.44	-44.5	-45.7	21.0	0.00e+00	0	43	0	730857472	60	4160
2026-01-28 05:34:31.37	347.86	22.32	-44.6	-45.9	20.8	0.00e+00	0	43	0	736100352	60	4263
2026-01-28 05:34:34.39	347.08	22.20	-45.4	-46.8	20.0	0.00e+00	0	43	0	742391808	61	4466
2026-01-28 05:34:37.41	346.31	22.08	-46.1	-47.6	19.1	0.00e+00	0	43	0	747634688	62	4646
2026-01-28 05:34:40.43	345.55	21.95	-46.2	-47.8	19.0	0.00e+00	0	43	0	753926144	63	4459
2026-01-28 05:34:43.45	344.79	21.81	-45.7	-47.2	19.6	0.00e+00	0	43	0	759169024	63	4174
2026-01-28 05:34:46.48	344.04	21.67	-45.6	-47.1	19.6	0.00e+00	0	43	0	765460480	62	4379
2026-01-28 05:34:49.50	343.30	21.52	-46.1	-47.6	19.1	0.00e+00	0	43	0	770703360	62	4650
2026-01-28 05:34:52.52	342.56	21.37	-45.4	-46.9	19.8	0.00e+00	0	43	0	775946240	62	4256
2026-01-28 05:34:55.54	341.83	21.22	-45.5	-46.9	19.8	0.00e+00	0	43	0	782237696	62	4268
2026-01-28 05:34:58.56	341.11	21.06	-45.1	-46.4	20.2	0.00e+00	0	43	0	787480576	62	4050
2026-01-28 05:35:01.58	340.39	20.90	-45.6	-47.1	19.7	0.00e+00	0	43	0	793772032	62	4349
2026-01-28 05:35:04.60	339.69	20.74	-46.3	-48.0	18.8	0.00e+00	0	43	0	799014912	63	4558
2026-01-28 05:35:07.62	338.99	20.57	-46.2	-47.8	19.0	0.00e+00	0	43	0	804257792	63	4475
2026-01-28 05:35:10.64	338.30	20.40	-46.7	-48.6	18.2	0.00e+00	0	43	0	810549248	64	4604
2026-01-28 05:35:13.67	337.61	20.22	-47.8	-50.2	16.6	0.00e+00	0	43	0	815792128	66	4939
2026-01-28 05:35:16.69	336.94	20.05	-46.9	-48.8	17.9	0.00e+00	0	43	0	822083584	65	4470
2026-01-28 05:35:19.70	336.27	19.87	-45.8	-47.3	19.4	0.00e+00	0	43	0	827326464	63	4239
2026-01-28 05:35:22.73	335.61	19.68	-45.2	-46.7	19.9	0.00e+00	0	43	0	832569344	62	4146
2026-01-28 05:35:25.74	334.96	19.50	-44.8	-46.2	20.4	0.00e+00	0	43	0	838860800	61	4165
2026-01-28 05:35:28.76	334.32	19.31	-44.8	-46.1	20.4	0.00e+00	0	43	0	844103680	61	4145
2026-01-28 05:35:31.78	333.68	19.12	-44.6	-45.8	20.7	0.00e+00	0	43	0	850395136	61	3996
2026-01-28 05:35:34.81	333.05	18.92	-44.4	-45.7	20.8	0.00e+00	0	43	0	855638016	60	4146
2026-01-28 05:35:37.82	332.44	18.73	-45.5	-47.0	19.6	0.00e+00	0	43	0	860880896	61	4598
2026-01-28 05:35:40.84	331.82	18.53	-46.2	-48.0	18.7	0.00e+00	0	43	0	867172352	63	4556
2026-01-28 05:35:43.86	331.22	18.34	-46.3	-48.1	18.6	0.00e+00	0	43	0	872415232	63	4606
2026-01-28 05:35:46.87	330.63	18.14	-45.7	-47.3	19.4	0.00e+00	0	43	0	878706688	63	4205
2026-01-28 05:35:49.90	330.04	17.93	-45.0	-46.4	20.1	0.00e+00	0	43	0	883949568	62	4041
2026-01-28 05:35:52.92	329.46	17.73	-44.7	-46.0	20.5	7.00e-07	0	43	0	889192448	61	4068
2026-01-28 05:35:55.93	328.89	17.53	-44.7	-46.1	20.4	0.00e+00	0	43	0	895483904	60	4362
2026-01-28 05:35:58.95	328.33	17.32	-45.7	-47.3	19.3	0.00e+00	0	43	0	900726784	61	4725
2026-01-28 05:36:01.97	327.77	17.12	-45.6	-47.1	19.5	0.00e+00	0	43	0	907018240	62	4377
2026-01-28 05:36:05.00	327.22	16.91	-45.7	-47.3	19.4	0.00e+00	0	43	0	912261120	62	4442
2026-01-28 05:36:08.01	326.68	16.70	-45.9	-47.6	19.0	0.00e+00	0	43	0	917504000	62	4605
2026-01-28 05:36:11.03	326.15	16.49	-45.7	-47.3	19.3	5.30e-06	0	43	0	923795456	62	4477
2026-01-28 05:36:14.05	325.62	16.28	-45.8	-47.4	19.3	1.50e-06	0	43	0	929038336	62	4501
2026-01-28 05:36:17.07	325.10	16.07	-45.2	-46.6	19.9	0.00e+00	0	43	0	935329792	62	4132
2026-01-28 05:36:20.09	324.59	15.86	-44.9	-46.3	20.3	0.00e+00	0	43	0	940572672	61	4201
2026-01-28 05:36:23.11	324.09	15.65	-45.0	-46.3	20.1	0.00e+00	0	43	0	945815552	61	4228
2026-01-28 05:36:26.14	323.59	15.43	-44.4	-45.6	20.8	0.00e+00	0	43	0	952107008	60	4122
2026-01-28 05:36:29.16	323.10	15.22	-44.2	-45.4	21.3	0.00e+00	0	43	0	957349888	59	4256
2026-01-28 05:36:32.18	322.62	15.01	-44.5	-45.7	21.0	0.00e+00	0	43	0	963641344	59	4435
2026-01-28 05:36:35.19	322.15	14.80	-44.7	-46.0	20.5	0.00e+00	0	43	0	968884224	60	4296
2026-01-28 05:36:38.22	321.68	14.58	-44.9	-46.3	20.2	0.00e+00	0	43	0	974127104	60	4470
2026-01-28 05:36:41.25	321.21	14.37	-44.6	-45.9	20.5	0.00e+00	0	43	0	980418560	60	4276
2026-01-28 05:36:44.27	320.76	14.16	-44.1	-45.3	21.1	0.00e+00	0	43	0	985661440	60	3976
2026-01-28 05:36:47.30	320.31	13.94	-44.5	-45.8	20.6	0.00e+00	0	43	0	991952896	60	4213
2026-01-28 05:36:50.31	319.87	13.73	-45.3	-46.8	19.8	0.00e+00	0	43	0	997195776	61	4446
2026-01-28 05:36:53.34	319.43	13.52	-45.6	-47.1	19.4	0.00e+00	0	43	0	1002438656	61	4626
2026-01-28 05:36:56.36	319.00	13.30	-45.5	-47.0	19.5	0.00e+00	0	43	0	1008730112	61	4560
2026-01-28 05:36:59.37	318.58	13.09	-45.4	-46.9	19.5	0.00e+00	0	43	0	1013972992	61	4537
2026-01-28 05:37:02.39	318.16	12.88	-44.8	-46.2	20.2	0.00e+00	0	43	0	1020264448	61	4159
2026-01-28 05:37:05.41	317.75	12.67	-44.7	-46.0	20.3	0.00e+00	0	43	0	1025507328	60	4320
2026-01-28 05:37:08.42	317.35	12.46	-45.3	-46.8	19.7	0.00e+00	0	43	0	1030750208	61	4454
2026-01-28 05:37:11.44	316.95	12.25	-46.1	-47.8	18.7	0.00e+00	0	43	0	1037041664	62	4729
2026-01-28 05:37:14.46	316.56	12.04	-46.3	-48.0	18.5	0.00e+00	0	43	0	1042284544	63	4581
2026-01-28 05:37:17.49	316.17	11.83	-45.7	-47.2	19.2	0.00e+00	0	43	0	1048576000	63	4193
2026-01-28 05:37:20.51	315.79	11.62	-45.5	-47.0	19.4	0.00e+00	0	43	0	1053818880	62	4336
2026-01-28 05:37:23.52	315.41	11.41	-45.4	-46.9	19.5	0.00e+00	0	43	0	1059061760	62	4279
2026-01-28 05:37:26.55	315.04	11.20	-45.6	-47.1	19.4	0.00e+00	0	43	0	1065353216	62	4372
2026-01-28 05:37:29.57	314.68	10.99	-45.5	-47.0	19.4	0.00e+00	0	43	0	1070596096	62	4319
2026-01-28 05:37:32.59	314.32	10.79	-45.7	-47.3	19.1	0.00e+00	0	43	0	1076887552	62	4444
2026-01-28 05:37:35.62	313.96	10.58	-46.0	-47.6	18.7	0.00e+00	0	43	0	1082130432	62	4635
2026-01-28 05:37:38.65	313.61	10.37	-46.2	-47.9	18.5	0.00e+00	0	43	0	1087373312	63	4519
2026-01-28 05:37:41.66	313.27	10.17	-45.9	-47.6	18.8	0.00e+00	0	43	0	1093664768	63	4346
2026-01-28 05:37:44.68	312.93	9.97	-46.3	-48.1	18.3	0.00e+00	0	43	0	1098907648	63	4623
2026-01-28 05:37:47.69	312.59	9.76	-46.6	-48.5	17.8	0.00e+00	0	43	0	1105199104	64	4582
2026-01-28 05:37:50.70	312.26	9.56	-47.0	-49.0	17.4	0.00e+00	0	43	0	1110441984	64	4828
2026-01-28 05:37:53.73	311.94	9.36	-46.7	-48.6	17.8	0.00e+00	0	43	0	1115684864	64	4620
2026-01-28 05:37:56.74	311.62	9.16	-46.4	-48.2	18.1	0.00e+00	0	43	0	1121976320	64	4394
2026-01-28 05:37:59.77	311.30	8.96	-46.2	-47.8	18.5	0.00e+00	0	43	0	1127219200	63	4488
2026-01-28 05:38:02.79	310.99	8.76	-46.1	-47.8	18.4	0.00e+00	0	43	0	1133510656	63	4480
2026-01-28 05:38:05.81	310.68	8.56	-46.5	-48.3	18.0	0.00e+00	0	43	0	1138753536	63	4756
2026-01-28 05:38:08.83	310.38	8.36	-46.8	-48.7	17.5	0.00e+00	0	43	0	1143996416	64	4690
2026-01-28 05:38:11.85	310.08	8.16	-46.6	-48.5	17.7	0.00e+00	0	43	0	1150287872	64	4579
2026-01-28 05:38:14.88	309.78	7.96	-46.4	-48.3	17.9	0.00e+00	0	43	0	1155530752	64	4448
2026-01-28 05:38:17.90	309.49	7.77	-46.4	-48.2	18.0	0.00e+00	0	43	0	1161822208	64	4420
2026-01-28 05:38:20.91	309.21	7.57	-46.4	-48.2	18.0	0.00e+00	0	43	0	1167065088	64	4392
2026-01-28 05:38:23.93	308.92	7.38	-46.5	-48.3	17.8	0.00e+00	0	43	0	1172307968	64	4482
2026-01-28 05:38:26.96	308.64	7.18	-46.8	-48.8	17.4	0.00e+00	0	43	0	1178599424	64	4723
2026-01-28 05:38:29.97	308.37	6.99	-47.3	-49.5	16.7	0.00e+00	0	43	0	1183842304	65	4817
2026-01-28 05:38:32.99	308.10	6.80	-47.5	-49.9	16.3	0.00e+00	0	43	0	1190133760	65	5053
2026-01-28 05:38:36.01	307.83	6.61	-47.9	-50.4	15.7	0.00e+00	0	43	0	1195376640	66	5084
2026-01-28 05:38:39.04	307.57	6.42	-48.1	-50.7	15.4	0.00e+00	0	43	0	1200619520	66	5222
2026-01-28 05:38:42.06	307.30	6.23	-48.1	-50.7	15.3	0.00e+00	0	43	0	1206910976	67	4978
2026-01-28 05:38:45.07	307.05	6.04	-47.9	-50.4	15.7	0.00e+00	0	43	0	1212153856	67	4763
2026-01-28 05:38:48.10	306.79	5.85	-47.7	-50.1	15.9	0.00e+00	0	43	0	1218445312	67	4644
2026-01-28 05:38:51.12	306.54	5.66	-47.8	-50.2	15.7	0.00e+00	0	43	0	1223688192	67	4693
2026-01-28 05:38:54.14	306.30	5.48	-48.1	-50.7	15.2	0.00e+00	0	43	0	1228931072	67	4963
2026-01-28 05:38:57.15	306.05	5.29	-48.1	-50.9	15.1	0.00e+00	0	43	0	1235222528	67	5043
2026-01-28 05:39:00.17	305.81	5.11	-48.3	-51.2	14.8	0.00e+00	0	43	0	1240465408	67	5236
2026-01-28 05:39:03.19	305.58	4.92	-52.3	-67.3	3.8	1.49e+00	0	43	104	1243611136	75	21137
2026-01-28 05:39:06.21	305.34	4.74	-52.5	-67.5	3.8	1.49e+00	0	43	104	1243611136	75	21643
2026-01-28 05:39:09.24	305.11	4.56	-52.8	-67.7	3.8	1.49e+00	0	43	104	1243611136	76	20967
2026-01-28 05:39:12.26	304.88	4.38	-53.0	-67.9	3.8	1.49e+00	0	43	104	1243611136	76	21466
2026-01-28 05:39:15.28	304.66	4.20	-53.1	-68.1	3.8	1.49e+00	0	43	104	1243611136	76	21800
2026-01-28 05:39:18.30	304.43	4.02	-53.2	-68.2	3.8	1.49e+00	0	43	104	1243611136	77	20858
2026-01-28 05:39:21.33	304.21	3.84	-53.2	-68.1	3.8	1.49e+00	0	43	104	1243611136	77	20760
2026-01-28 05:39:24.35	304.00	3.66	-53.2	-68.1	3.8	1.49e+00	0	43	104	1243611136	77	20745
2026-01-28 05:39:27.37	303.78	3.48	-53.1	-68.1	3.8	1.49e+00	0	43	104	1243611136	77	20648
2026-01-28 05:39:30.39	303.57	3.30	-53.1	-68.1	3.8	1.49e+00	0	43	104	1243611136	77	20603
2026-01-28 05:39:33.41	303.36	3.13	-53.1	-68.1	3.8	1.49e+00	0	44	104	1243611136	77	20622
2026-01-28 05:39:36.44	303.16	2.95	-53.1	-68.1	3.8	1.49e+00	0	43	104	1243611136	77	20577
2026-01-28 05:39:39.46	302.95	2.78	-53.1	-68.1	3.8	1.49e+00	0	44	104	1243611136	77	20543
2026-01-28 05:39:42.48	302.75	2.60	-53.1	-68.0	3.8	1.49e+00	0	43	104	1243611136	77	20489
2026-01-28 05:39:45.50	302.55	2.43	-53.1	-68.0	3.8	1.49e+00	0	43	104	1243611136	77	20450
2026-01-28 05:39:48.53	302.36	2.26	-53.1	-68.0	3.8	1.49e+00	0	43	104	1243611136	77	20485
2026-01-28 05:39:51.55	302.16	2.09	-53.1	-68.0	3.8	1.49e+00	0	43	104	1243611136	77	20508

#Closed at: 2026-01-28 05:39:54
#Recorded file [1243 MB]: D:/lorett/data/31041_260128_082712.dat