passes_logs/2026/01/28/R3.2S_Murmansk/R3.2S_Murmansk__20260128_224901_NOAA_20_JPSS-1_rec.log

#Pass ID: 20260128_224901_NOAA 20 (JPSS-1)
#Satellite: NOAA 20 (JPSS-1)
#Configuration: NOAA 20
#almurnet v.1.7.20251203
#Start time: 2026-01-28 22:49:03

#Version: 2.2.20231116
#Station: R3.2S_Murmansk
#Location: 33.079688 lon 68.888172 lat
#TLE: 1 43013U 17073A   26027.94683596  .00000137  00000+0  85741-4 0  9995
#TLE: 2 43013  98.7648 328.7503 0000940  21.3928 338.7287 14.19541154424576

#Time	Az	El	Level	Level2	SNR	BER	BlckErr	Temp	State	Recorded	gain1	gain2
2026-01-28 22:49:03.41	19.55	2.09	-53.6	-68.6	3.8	1.49e+00	0	40	0	0	78	20735
2026-01-28 22:49:07.45	19.78	2.33	-54.0	-69.0	3.8	1.49e+00	0	40	104	0	78	21520
2026-01-28 22:49:11.48	20.02	2.57	-54.0	-68.9	3.8	1.49e+00	0	40	104	0	78	21502
2026-01-28 22:49:15.52	20.25	2.81	-54.0	-69.0	3.8	1.49e+00	0	40	104	0	78	21562
2026-01-28 22:49:19.54	20.49	3.05	-53.8	-68.8	3.8	1.49e+00	0	41	104	0	78	21128
2026-01-28 22:49:23.57	20.74	3.29	-53.3	-68.3	3.8	1.49e+00	0	41	104	0	78	19859
2026-01-28 22:49:27.61	20.99	3.53	-52.0	-67.0	3.8	1.49e+00	0	41	104	0	76	19178
2026-01-28 22:49:31.64	21.24	3.78	-51.9	-66.8	3.8	1.49e+00	0	41	104	0	75	19960
2026-01-28 22:49:35.68	21.49	4.03	-51.7	-63.6	4.1	1.48e+00	0	41	104	0	75	13756
2026-01-28 22:49:39.71	21.75	4.28	-50.0	-54.7	10.9	1.27e-02	0	41	0	6291456	72	5879
2026-01-28 22:49:43.74	22.02	4.53	-48.4	-51.4	14.4	1.50e-06	0	41	0	13631488	68	5056
2026-01-28 22:49:47.76	22.28	4.78	-48.6	-51.6	14.2	0.00e+00	0	41	0	22020096	68	5208
2026-01-28 22:49:51.80	22.56	5.04	-50.8	-57.3	8.2	3.48e-02	0	41	0	29360128	72	7984
2026-01-28 22:49:55.83	22.83	5.29	-48.9	-52.1	13.7	1.32e-01	0	41	0	35651584	69	5184
2026-01-28 22:49:59.87	23.12	5.55	-48.0	-50.6	15.4	0.00e+00	0	42	0	39845888	68	4625
2026-01-28 22:50:03.90	23.40	5.81	-46.9	-49.0	16.9	0.00e+00	0	42	0	47185920	65	4570
2026-01-28 22:50:07.93	23.69	6.08	-46.8	-48.9	17.1	0.00e+00	0	42	0	54525952	65	4495
2026-01-28 22:50:11.97	23.99	6.34	-46.8	-48.8	17.2	0.00e+00	0	42	0	62914560	65	4458
2026-01-28 22:50:16.00	24.29	6.61	-46.6	-48.5	17.5	0.00e+00	0	42	0	70254592	65	4321
2026-01-28 22:50:20.02	24.60	6.88	-46.5	-48.3	17.7	0.00e+00	0	42	0	77594624	64	4487
2026-01-28 22:50:24.05	24.91	7.15	-46.3	-48.1	18.0	0.00e+00	0	42	0	84934656	64	4382
2026-01-28 22:50:28.09	25.23	7.42	-46.2	-48.0	18.1	0.00e+00	0	42	0	92274688	64	4314
2026-01-28 22:50:32.12	25.55	7.70	-46.2	-47.9	18.2	0.00e+00	0	42	0	100663296	64	4287
2026-01-28 22:50:36.15	25.88	7.98	-46.2	-47.8	18.4	0.00e+00	0	42	0	108003328	63	4488
2026-01-28 22:50:40.17	26.21	8.26	-46.1	-47.8	18.5	0.00e+00	0	42	0	115343360	63	4457
2026-01-28 22:50:44.20	26.55	8.54	-46.0	-47.6	18.7	0.00e+00	0	42	0	122683392	63	4358
2026-01-28 22:50:48.22	26.90	8.83	-46.1	-47.8	18.6	0.00e+00	0	42	0	131072000	63	4447
2026-01-28 22:50:52.26	27.25	9.12	-45.9	-47.6	18.8	0.00e+00	0	42	0	138412032	63	4345
2026-01-28 22:50:56.29	27.61	9.41	-46.0	-47.6	18.8	0.00e+00	0	42	0	145752064	63	4364
2026-01-28 22:51:00.32	27.98	9.70	-45.9	-47.5	18.9	0.00e+00	0	42	0	153092096	63	4302
2026-01-28 22:51:04.35	28.35	9.99	-45.7	-47.2	19.1	0.00e+00	0	42	0	160432128	63	4190
2026-01-28 22:51:08.38	28.73	10.29	-45.7	-47.2	19.2	0.00e+00	0	42	0	167772160	63	4173
2026-01-28 22:51:12.41	29.12	10.59	-45.7	-47.3	19.2	0.00e+00	0	42	0	176160768	63	4195
2026-01-28 22:51:16.45	29.52	10.90	-45.6	-47.1	19.4	0.00e+00	0	42	0	183500800	63	4125
2026-01-28 22:51:20.48	29.92	11.20	-45.4	-46.9	19.6	0.00e+00	0	42	0	190840832	62	4250
2026-01-28 22:51:24.51	30.34	11.51	-45.4	-46.8	19.7	0.00e+00	0	42	0	198180864	62	4215
2026-01-28 22:51:28.55	30.76	11.82	-45.3	-46.8	19.7	0.00e+00	0	42	0	206569472	62	4194
2026-01-28 22:51:32.58	31.19	12.13	-45.5	-47.0	19.5	0.00e+00	0	42	0	213909504	62	4315
2026-01-28 22:51:36.62	31.63	12.45	-45.7	-47.1	19.4	0.00e+00	0	42	0	221249536	62	4384
2026-01-28 22:51:40.65	32.07	12.77	-45.7	-47.2	19.2	0.00e+00	0	42	0	228589568	62	4426
2026-01-28 22:51:44.67	32.53	13.09	-45.6	-47.1	19.4	0.00e+00	0	42	0	235929600	62	4374
2026-01-28 22:51:48.70	32.99	13.41	-45.7	-47.2	19.3	0.00e+00	0	42	0	244318208	62	4431
2026-01-28 22:51:52.73	33.47	13.74	-45.7	-47.2	19.4	0.00e+00	0	42	0	251658240	62	4415
2026-01-28 22:51:56.75	33.96	14.07	-45.7	-47.2	19.4	0.00e+00	0	42	0	258998272	62	4401
2026-01-28 22:52:00.79	34.45	14.40	-45.7	-47.1	19.5	0.00e+00	0	42	0	266338304	62	4378
2026-01-28 22:52:04.82	34.96	14.74	-45.5	-46.9	19.7	0.00e+00	0	42	0	273678336	62	4287
2026-01-28 22:52:08.85	35.48	15.07	-45.7	-47.2	19.4	0.00e+00	0	42	0	282066944	62	4406
2026-01-28 22:52:12.88	36.01	15.41	-45.5	-47.0	19.7	0.00e+00	0	42	0	289406976	62	4299
2026-01-28 22:52:16.91	36.55	15.76	-45.4	-46.8	19.9	0.00e+00	0	42	0	296747008	62	4197
2026-01-28 22:52:20.93	37.11	16.10	-45.5	-46.9	19.8	0.00e+00	0	42	0	304087040	62	4257
2026-01-28 22:52:24.96	37.67	16.45	-45.7	-47.2	19.5	0.00e+00	0	42	0	311427072	62	4421
2026-01-28 22:52:28.99	38.25	16.80	-45.6	-47.0	19.8	0.00e+00	0	42	0	319815680	62	4310
2026-01-28 22:52:33.03	38.85	17.15	-45.6	-47.1	19.7	0.00e+00	0	42	0	327155712	62	4349
2026-01-28 22:52:37.06	39.45	17.50	-45.5	-47.0	19.8	0.00e+00	0	42	0	334495744	62	4292
2026-01-28 22:52:41.09	40.07	17.86	-45.1	-46.5	20.2	0.00e+00	0	42	0	341835776	62	4060
2026-01-28 22:52:45.12	40.71	18.22	-44.4	-45.7	21.0	0.00e+00	0	42	0	350224384	60	4152
2026-01-28 22:52:49.15	41.36	18.58	-44.4	-45.7	21.0	0.00e+00	0	42	0	357564416	60	4148
2026-01-28 22:52:53.18	42.02	18.94	-44.5	-45.7	21.0	0.00e+00	0	42	0	364904448	60	4186
2026-01-28 22:52:57.21	42.70	19.30	-44.2	-45.4	21.3	0.00e+00	0	42	0	372244480	60	4011
2026-01-28 22:53:01.23	43.39	19.66	-44.4	-45.6	21.2	0.00e+00	0	42	0	379584512	60	4117
2026-01-28 22:53:05.25	44.10	20.03	-44.4	-45.6	21.2	0.00e+00	0	42	0	387973120	60	4099
2026-01-28 22:53:09.29	44.83	20.40	-44.0	-45.2	21.5	0.00e+00	0	42	0	395313152	60	3924
2026-01-28 22:53:13.32	45.58	20.76	-44.0	-45.1	21.6	0.00e+00	0	42	0	402653184	60	3907
2026-01-28 22:53:17.35	46.34	21.13	-44.3	-45.4	21.6	0.00e+00	0	42	0	409993216	59	4269
2026-01-28 22:53:21.38	47.12	21.50	-43.9	-45.0	22.0	0.00e+00	0	42	0	417333248	59	4089
2026-01-28 22:53:25.41	47.92	21.87	-43.9	-45.0	22.1	0.00e+00	0	42	0	424673280	59	4078
2026-01-28 22:53:29.43	48.74	22.23	-43.9	-45.0	22.0	0.00e+00	0	42	0	433061888	59	4088
2026-01-28 22:53:33.47	49.58	22.60	-44.1	-45.2	21.9	0.00e+00	0	42	0	440401920	59	4165
2026-01-28 22:53:37.50	50.44	22.97	-44.4	-45.6	21.2	0.00e+00	0	42	0	447741952	60	4113
2026-01-28 22:53:41.53	51.31	23.33	-44.1	-45.2	21.6	0.00e+00	0	42	0	455081984	60	3950
2026-01-28 22:53:45.57	52.21	23.70	-44.4	-45.6	21.6	0.00e+00	0	42	0	463470592	59	4360
2026-01-28 22:53:49.60	53.13	24.06	-44.6	-45.9	21.0	0.00e+00	0	42	0	470810624	60	4243
2026-01-28 22:53:53.62	54.06	24.41	-44.6	-45.8	21.1	0.00e+00	0	42	0	478150656	60	4217
2026-01-28 22:53:57.66	55.03	24.77	-45.1	-46.4	20.5	0.00e+00	0	42	0	485490688	60	4508
2026-01-28 22:54:01.69	56.01	25.12	-45.3	-46.6	20.3	0.00e+00	0	42	0	492830720	61	4353
2026-01-28 22:54:05.71	57.01	25.47	-45.0	-46.3	20.7	0.00e+00	0	42	0	501219328	61	4197
2026-01-28 22:54:09.75	58.03	25.81	-45.3	-46.6	20.4	0.00e+00	0	42	0	508559360	61	4356
2026-01-28 22:54:13.78	59.08	26.15	-45.6	-47.0	20.0	0.00e+00	0	42	0	515899392	61	4560
2026-01-28 22:54:17.82	60.15	26.48	-46.4	-48.0	19.0	0.00e+00	0	42	0	523239424	63	4566
2026-01-28 22:54:21.84	61.23	26.80	-46.6	-48.2	18.9	0.00e+00	0	42	0	530579456	63	4662
2026-01-28 22:54:25.87	62.34	27.12	-46.9	-48.6	18.3	0.00e+00	0	42	0	538968064	64	4651
2026-01-28 22:54:29.89	63.47	27.43	-47.3	-49.2	17.8	0.00e+00	0	42	0	546308096	65	4666
2026-01-28 22:54:33.92	64.63	27.73	-46.6	-48.3	18.7	0.00e+00	0	42	0	553648128	65	4205
2026-01-28 22:54:37.95	65.80	28.02	-46.8	-48.5	18.5	0.00e+00	0	42	0	560988160	65	4332
2026-01-28 22:54:41.97	67.00	28.30	-46.3	-47.8	19.2	0.00e+00	0	42	0	568328192	64	4210
2026-01-28 22:54:46.01	68.21	28.57	-46.5	-48.1	18.8	0.00e+00	0	42	0	576716800	64	4384
2026-01-28 22:54:50.04	69.45	28.83	-46.7	-48.3	18.6	0.00e+00	0	42	0	584056832	64	4491
2026-01-28 22:54:54.07	70.71	29.08	-47.3	-49.1	18.0	0.00e+00	0	42	0	591396864	65	4645
2026-01-28 22:54:58.10	71.98	29.32	-48.2	-50.3	16.7	0.00e+00	0	42	0	598736896	66	5011
2026-01-28 22:55:02.13	73.27	29.54	-48.4	-50.6	16.4	0.00e+00	0	42	0	607125504	67	4922
2026-01-28 22:55:06.17	74.59	29.74	-48.4	-50.6	16.5	0.00e+00	0	42	0	614465536	67	4908
2026-01-28 22:55:10.20	75.91	29.94	-47.8	-49.8	17.2	0.00e+00	0	42	0	621805568	67	4478
2026-01-28 22:55:14.23	77.25	30.11	-48.0	-50.1	17.0	0.00e+00	0	42	0	629145600	67	4618
2026-01-28 22:55:18.26	78.61	30.27	-47.9	-50.0	17.1	0.00e+00	0	42	0	636485632	67	4560
2026-01-28 22:55:22.29	79.98	30.42	-47.3	-49.1	18.0	0.00e+00	0	42	0	643825664	66	4348
2026-01-28 22:55:26.32	81.36	30.54	-47.5	-49.3	17.7	0.00e+00	0	42	0	652214272	66	4467
2026-01-28 22:55:30.35	82.74	30.65	-46.8	-48.4	18.6	0.00e+00	0	42	0	659554304	65	4268
2026-01-28 22:55:34.38	84.14	30.75	-47.3	-49.1	18.0	0.00e+00	0	42	0	666894336	65	4602
2026-01-28 22:55:38.41	85.55	30.82	-47.7	-49.6	17.5	0.00e+00	0	42	0	674234368	66	4639
2026-01-28 22:55:42.44	86.96	30.88	-46.9	-48.6	18.5	0.00e+00	0	42	0	682622976	65	4380
2026-01-28 22:55:46.47	88.37	30.91	-46.7	-48.3	18.8	0.00e+00	0	42	0	689963008	65	4205
2026-01-28 22:55:50.51	89.79	30.93	-46.2	-47.8	19.3	0.00e+00	0	42	0	697303040	64	4196
2026-01-28 22:55:54.54	91.21	30.93	-46.3	-47.8	19.3	0.00e+00	0	42	0	704643072	64	4198
2026-01-28 22:55:58.57	92.63	30.91	-47.2	-49.0	18.1	0.00e+00	0	42	0	711983104	65	4548
2026-01-28 22:56:02.60	94.04	30.87	-47.4	-49.3	17.8	0.00e+00	0	42	0	720371712	65	4718
2026-01-28 22:56:06.63	95.45	30.81	-47.3	-49.0	18.1	0.00e+00	0	42	0	727711744	65	4597
2026-01-28 22:56:10.66	96.86	30.73	-47.0	-48.7	18.3	0.00e+00	0	42	0	735051776	65	4441
2026-01-28 22:56:14.69	98.26	30.64	-48.0	-50.0	17.1	0.00e+00	0	42	0	742391808	66	4853
2026-01-28 22:56:18.72	99.64	30.53	-48.2	-50.3	16.8	0.00e+00	0	42	0	750780416	67	4742
2026-01-28 22:56:22.75	101.02	30.40	-47.6	-49.5	17.6	0.00e+00	0	42	0	758120448	67	4314
2026-01-28 22:56:26.78	102.39	30.25	-48.0	-50.0	17.2	0.00e+00	0	43	0	765460480	66	4827
2026-01-28 22:56:30.80	103.74	30.09	-47.9	-49.9	17.2	0.00e+00	0	42	0	772800512	67	4538
2026-01-28 22:56:34.84	105.09	29.91	-47.1	-48.8	18.3	0.00e+00	0	42	0	780140544	66	4229
2026-01-28 22:56:38.87	106.41	29.71	-46.4	-47.9	19.2	0.00e+00	0	42	0	787480576	64	4276
2026-01-28 22:56:42.90	107.72	29.50	-46.8	-48.4	18.7	0.00e+00	0	42	0	795869184	64	4515
2026-01-28 22:56:46.94	109.02	29.28	-46.1	-47.5	19.5	0.00e+00	0	42	0	803209216	64	4095
2026-01-28 22:56:50.97	110.29	29.04	-46.3	-47.8	19.3	0.00e+00	0	42	0	810549248	63	4489
2026-01-28 22:56:55.00	111.55	28.79	-47.1	-48.8	18.3	0.00e+00	0	42	0	817889280	64	4728
2026-01-28 22:56:59.04	112.79	28.53	-47.7	-49.7	17.4	0.00e+00	0	42	0	826277888	66	4660
2026-01-28 22:57:03.07	114.00	28.25	-47.0	-48.7	18.4	0.00e+00	0	42	0	833617920	65	4398
2026-01-28 22:57:07.10	115.20	27.97	-47.0	-48.8	18.3	0.00e+00	0	42	0	840957952	65	4459
2026-01-28 22:57:11.13	116.37	27.68	-47.5	-49.4	17.6	0.00e+00	0	42	0	848297984	65	4792
2026-01-28 22:57:15.16	117.53	27.37	-47.1	-48.9	18.2	0.00e+00	0	42	0	855638016	65	4494
2026-01-28 22:57:19.19	118.66	27.06	-46.9	-48.6	18.5	0.00e+00	0	42	0	864026624	65	4349
2026-01-28 22:57:23.22	119.77	26.74	-46.2	-47.6	19.4	0.00e+00	0	42	0	871366656	64	4141
2026-01-28 22:57:27.24	120.86	26.41	-45.6	-46.9	20.2	0.00e+00	0	42	0	878706688	62	4278
2026-01-28 22:57:31.28	121.92	26.08	-46.4	-47.9	19.2	0.00e+00	0	42	0	886046720	63	4524
2026-01-28 22:57:35.31	122.97	25.74	-46.7	-48.3	18.7	0.00e+00	0	42	0	893386752	64	4493
2026-01-28 22:57:39.34	123.99	25.39	-46.1	-47.5	19.6	0.00e+00	0	42	0	901775360	63	4308
2026-01-28 22:57:43.37	124.99	25.05	-46.1	-47.6	19.5	0.00e+00	0	42	0	909115392	63	4374
2026-01-28 22:57:47.40	125.97	24.69	-46.0	-47.4	19.7	0.00e+00	0	42	0	916455424	63	4260
2026-01-28 22:57:51.43	126.93	24.33	-47.4	-49.3	17.8	0.00e+00	0	42	0	923795456	65	4717
2026-01-28 22:57:55.47	127.87	23.97	-46.2	-47.7	19.2	0.00e+00	0	42	0	931135488	64	4165
2026-01-28 22:57:59.50	128.79	23.61	-46.5	-48.1	18.7	0.00e+00	0	42	0	939524096	64	4385
2026-01-28 22:58:03.53	129.68	23.24	-45.3	-46.7	20.2	0.00e+00	0	42	0	946864128	62	4147
2026-01-28 22:58:07.56	130.56	22.88	-46.3	-47.8	19.1	0.00e+00	0	42	0	954204160	63	4475
2026-01-28 22:58:11.59	131.41	22.51	-45.5	-46.9	20.0	0.00e+00	0	42	0	961544192	63	4031
2026-01-28 22:58:15.60	132.25	22.14	-46.6	-48.3	18.5	0.00e+00	0	42	0	968884224	64	4472
2026-01-28 22:58:19.64	133.07	21.77	-45.2	-46.6	20.2	0.00e+00	0	42	0	977272832	62	4109
2026-01-28 22:58:23.67	133.86	21.40	-45.4	-46.8	20.0	0.00e+00	0	42	0	984612864	62	4210
2026-01-28 22:58:27.71	134.65	21.03	-44.7	-46.0	20.8	0.00e+00	0	42	0	991952896	61	4058
2026-01-28 22:58:31.73	135.41	20.66	-45.4	-46.8	19.9	0.00e+00	0	42	0	999292928	61	4490
2026-01-28 22:58:35.76	136.15	20.29	-44.9	-46.2	20.5	0.00e+00	0	42	0	1006632960	61	4174
2026-01-28 22:58:39.80	136.88	19.92	-44.5	-45.7	20.9	0.00e+00	0	42	0	1015021568	60	4172
2026-01-28 22:58:43.83	137.59	19.55	-44.3	-45.5	21.1	0.00e+00	0	42	0	1022361600	60	4065
2026-01-28 22:58:47.85	138.28	19.19	-44.0	-45.2	21.4	0.00e+00	0	42	0	1029701632	60	3917
2026-01-28 22:58:51.88	138.96	18.82	-44.4	-45.6	21.1	0.00e+00	0	42	0	1037041664	60	4101
2026-01-28 22:58:55.91	139.63	18.46	-44.6	-45.9	20.7	0.00e+00	0	42	0	1045430272	60	4271
2026-01-28 22:58:59.94	140.27	18.10	-44.7	-45.9	20.7	0.00e+00	0	42	0	1052770304	60	4282
2026-01-28 22:59:03.97	140.91	17.74	-44.3	-45.5	21.0	0.00e+00	0	42	0	1060110336	60	4095
2026-01-28 22:59:08.00	141.52	17.38	-44.8	-46.1	20.5	0.00e+00	0	42	0	1067450368	60	4374
2026-01-28 22:59:12.03	142.13	17.03	-45.0	-46.3	20.3	0.00e+00	0	42	0	1074790400	60	4466
2026-01-28 22:59:16.06	142.72	16.67	-45.1	-46.5	20.1	0.00e+00	0	42	0	1083179008	60	4568
2026-01-28 22:59:20.09	143.30	16.32	-45.2	-46.6	20.0	0.00e+00	0	42	0	1090519040	61	4376
2026-01-28 22:59:24.12	143.86	15.97	-45.4	-46.8	19.7	0.00e+00	0	42	0	1097859072	61	4477
2026-01-28 22:59:28.14	144.41	15.63	-45.6	-47.1	19.5	0.00e+00	0	42	0	1105199104	61	4600
2026-01-28 22:59:32.17	144.96	15.28	-46.1	-47.7	18.8	0.00e+00	0	43	0	1112539136	62	4698
2026-01-28 22:59:36.21	145.49	14.94	-46.2	-47.9	18.7	0.00e+00	0	42	0	1119879168	63	4506
2026-01-28 22:59:40.24	146.00	14.60	-46.3	-48.0	18.5	0.00e+00	0	42	0	1128267776	63	4587
2026-01-28 22:59:44.26	146.51	14.27	-45.6	-47.1	19.4	0.00e+00	0	42	0	1135607808	63	4132
2026-01-28 22:59:48.29	147.00	13.93	-45.6	-47.1	19.4	0.00e+00	0	42	0	1142947840	63	4125
2026-01-28 22:59:52.32	147.49	13.60	-45.9	-47.5	18.9	0.00e+00	0	42	0	1150287872	63	4328
2026-01-28 22:59:56.35	147.96	13.27	-46.3	-48.0	18.4	0.00e+00	0	42	0	1158676480	63	4593
2026-01-28 23:00:00.38	148.43	12.95	-45.7	-47.2	19.2	0.00e+00	0	42	0	1166016512	63	4158
2026-01-28 23:00:04.42	148.88	12.63	-45.5	-47.0	19.4	0.00e+00	0	42	0	1173356544	62	4304
2026-01-28 23:00:08.45	149.33	12.30	-45.7	-47.2	19.1	0.00e+00	0	42	0	1180696576	62	4435
2026-01-28 23:00:12.49	149.76	11.99	-46.0	-47.7	18.7	0.00e+00	0	42	0	1188036608	62	4663
2026-01-28 23:00:16.52	150.19	11.67	-46.0	-47.6	18.8	0.00e+00	0	42	0	1196425216	62	4612
2026-01-28 23:00:20.56	150.61	11.36	-45.6	-47.1	19.2	0.00e+00	0	42	0	1203765248	62	4378
2026-01-28 23:00:24.59	151.02	11.05	-45.5	-47.0	19.3	0.00e+00	0	42	0	1211105280	62	4306
2026-01-28 23:00:28.63	151.42	10.74	-45.6	-47.1	19.2	0.00e+00	0	42	0	1218445312	62	4376
2026-01-28 23:00:32.66	151.82	10.44	-45.9	-47.5	18.8	0.00e+00	0	42	0	1226833920	62	4575
2026-01-28 23:00:36.69	152.20	10.14	-45.8	-47.4	18.9	0.00e+00	0	42	0	1234173952	62	4497
2026-01-28 23:00:40.73	152.58	9.84	-45.7	-47.2	19.0	0.00e+00	0	42	0	1241513984	62	4431
2026-01-28 23:00:44.76	152.95	9.54	-45.6	-47.2	19.0	0.00e+00	0	42	0	1248854016	62	4422
2026-01-28 23:00:48.79	153.32	9.25	-45.8	-47.4	18.8	0.00e+00	0	42	0	1256194048	62	4505
2026-01-28 23:00:52.82	153.68	8.95	-46.0	-47.7	18.5	0.00e+00	0	42	0	1264582656	62	4663
2026-01-28 23:00:56.86	154.03	8.66	-46.1	-47.8	18.4	0.00e+00	0	42	0	1271922688	62	4721
2026-01-28 23:01:00.89	154.37	8.38	-46.2	-48.0	18.1	0.00e+00	0	42	0	1279262720	63	4569
2026-01-28 23:01:04.92	154.71	8.09	-46.0	-47.7	18.4	0.00e+00	0	42	0	1286602752	63	4423
2026-01-28 23:01:08.95	155.04	7.81	-46.2	-48.0	18.1	0.00e+00	0	42	0	1293942784	63	4567
2026-01-28 23:01:12.99	155.37	7.53	-46.5	-48.4	17.7	0.00e+00	0	42	0	1302331392	63	4769
2026-01-28 23:01:17.01	155.69	7.25	-46.6	-48.5	17.5	0.00e+00	0	42	0	1309671424	63	4862
2026-01-28 23:01:21.05	156.00	6.98	-46.8	-48.9	17.0	0.00e+00	0	42	0	1317011456	64	4773
2026-01-28 23:01:25.09	156.31	6.71	-46.8	-48.9	17.0	0.00e+00	0	42	0	1324351488	64	4767
2026-01-28 23:01:29.12	156.62	6.43	-46.8	-48.9	16.9	0.00e+00	0	42	0	1332740096	64	4786
2026-01-28 23:01:33.15	156.91	6.17	-46.9	-49.0	16.8	0.00e+00	0	42	0	1340080128	64	4846
2026-01-28 23:01:37.19	157.21	5.90	-46.8	-48.9	16.9	0.00e+00	0	42	0	1347420160	64	4768
2026-01-28 23:01:41.22	157.50	5.64	-47.0	-49.2	16.5	0.00e+00	0	42	0	1354760192	64	4931
2026-01-28 23:01:45.24	157.78	5.37	-47.1	-49.4	16.2	0.00e+00	0	42	0	1362100224	64	5075
2026-01-28 23:01:49.28	158.06	5.11	-47.5	-50.1	15.5	0.00e+00	0	42	0	1369440256	65	5183
2026-01-28 23:01:53.31	158.33	4.86	-52.6	-67.6	3.8	1.49e+00	0	43	104	1374683136	75	21762
2026-01-28 23:01:57.34	158.60	4.60	-53.4	-68.3	3.8	1.49e+00	0	42	104	1374683136	77	21225
2026-01-28 23:02:01.37	158.86	4.35	-53.8	-68.7	3.8	1.49e+00	0	43	104	1374683136	78	20942
2026-01-28 23:02:05.41	159.13	4.09	-54.1	-69.1	3.8	1.49e+00	0	42	104	1374683136	78	21760
2026-01-28 23:02:09.43	159.38	3.84	-54.3	-69.3	3.8	1.49e+00	0	42	104	1374683136	79	21230
2026-01-28 23:02:13.46	159.63	3.59	-54.4	-69.4	3.8	1.49e+00	0	43	104	1374683136	79	21401
2026-01-28 23:02:17.49	159.88	3.35	-54.4	-69.4	3.8	1.49e+00	0	42	104	1374683136	79	21414
2026-01-28 23:02:21.52	160.13	3.10	-54.3	-69.3	3.8	1.49e+00	0	42	104	1374683136	79	21098
2026-01-28 23:02:25.55	160.37	2.86	-54.2	-69.1	3.8	1.49e+00	0	43	104	1374683136	79	20763
2026-01-28 23:02:29.58	160.60	2.62	-53.9	-68.9	3.8	1.49e+00	0	42	104	1374683136	79	20234
2026-01-28 23:02:33.62	160.84	2.38	-53.5	-68.4	3.8	1.49e+00	0	43	104	1374683136	78	20225
2026-01-28 23:02:37.65	161.07	2.14	-53.0	-68.0	3.8	1.49e+00	0	43	104	1374683136	78	19368

#Closed at: 2026-01-28 23:02:41
#Recorded file [1374 MB]: D:/lorett/data/31041_260129_014903.dat