passes_logs/2026/01/28/R3.2S_Murmansk/R3.2S_Murmansk__20260128_205917_TY-42_rec.log

#Pass ID: 20260128_205917_TY-42
#Satellite: TY-42
#Configuration: TY-42_900M
#almurnet v.1.7.20251203
#Start time: 2026-01-28 20:59:19

#Version: 2.2.20231116
#Station: R3.2S_Murmansk
#Location: 33.079688 lon 68.888172 lat
#TLE: 1 64048U 25103A   26028.60844907  .00008011  00000-0  38191-3 0 09994
#TLE: 2 64048 097.4119 103.7705 0001778 092.6266 304.9547 15.19172955 38886

#Time	Az	El	Level	Level2	SNR	BER	BlckErr	Temp	State	Recorded	gain1	gain2
2026-01-28 20:59:19.78	221.05	2.14	-54.1	-56.2	6.3	0.00e+00	0	49	0	0	79	18666
2026-01-28 20:59:22.81	221.38	2.31	-54.0	-56.2	6.2	0.00e+00	0	49	104	0	79	18686
2026-01-28 20:59:25.83	221.72	2.49	-54.2	-56.3	6.2	0.00e+00	0	49	104	0	79	19022
2026-01-28 20:59:28.85	222.06	2.66	-54.5	-56.7	6.2	0.00e+00	0	49	104	0	79	19728
2026-01-28 20:59:31.87	222.41	2.83	-54.5	-56.6	6.2	0.00e+00	0	50	104	0	79	19672
2026-01-28 20:59:34.89	222.76	3.01	-54.4	-56.5	6.2	0.00e+00	0	50	104	0	79	19463
2026-01-28 20:59:37.91	223.12	3.18	-54.2	-56.4	6.2	0.00e+00	0	50	104	0	79	19088
2026-01-28 20:59:40.94	223.49	3.36	-54.1	-56.2	6.2	0.00e+00	0	50	104	0	79	18696
2026-01-28 20:59:43.97	223.86	3.54	-53.8	-56.0	6.2	0.00e+00	0	50	104	0	79	18247
2026-01-28 20:59:46.99	224.23	3.71	-53.2	-55.3	6.2	0.00e+00	0	50	104	0	78	17938
2026-01-28 20:59:50.01	224.61	3.89	-52.7	-54.8	6.2	0.00e+00	0	51	104	0	77	17885
2026-01-28 20:59:53.03	224.99	4.07	-52.6	-54.8	6.2	0.00e+00	0	51	104	0	77	17829
2026-01-28 20:59:56.06	225.39	4.25	-52.6	-54.7	6.2	0.00e+00	0	51	104	0	77	17723
2026-01-28 20:59:59.08	225.78	4.43	-52.6	-54.7	6.2	0.00e+00	0	51	104	0	77	17736
2026-01-28 21:00:02.10	226.19	4.61	-52.6	-54.7	6.2	0.00e+00	0	51	104	0	77	17739
2026-01-28 21:00:05.12	226.60	4.79	-52.6	-54.8	6.2	0.00e+00	0	51	104	0	77	17768
2026-01-28 21:00:08.14	227.01	4.97	-52.6	-54.7	6.2	0.00e+00	0	51	104	0	77	17699
2026-01-28 21:00:11.17	227.43	5.16	-52.5	-54.7	6.2	0.00e+00	0	51	104	0	77	17570
2026-01-28 21:00:14.19	227.86	5.34	-52.5	-54.7	6.2	0.00e+00	0	51	104	0	77	17610
2026-01-28 21:00:17.22	228.30	5.52	-52.6	-54.7	6.2	0.00e+00	0	52	104	0	77	17658
2026-01-28 21:00:20.23	228.74	5.71	-52.7	-54.8	6.2	0.00e+00	0	52	104	0	77	17885
2026-01-28 21:00:23.25	229.19	5.89	-52.5	-54.6	6.2	0.00e+00	0	52	104	0	77	17558
2026-01-28 21:00:26.27	229.64	6.08	-52.5	-54.7	6.2	0.00e+00	0	52	104	0	77	17635
2026-01-28 21:00:29.29	230.10	6.26	-52.6	-54.7	6.2	0.00e+00	0	52	104	0	77	17759
2026-01-28 21:00:32.31	230.57	6.45	-52.7	-54.9	6.2	0.00e+00	0	52	104	0	77	17996
2026-01-28 21:00:35.34	231.05	6.64	-52.6	-54.7	6.2	0.00e+00	0	52	104	0	77	17712
2026-01-28 21:00:38.36	231.54	6.82	-52.6	-54.7	6.2	0.00e+00	0	52	104	0	77	17725
2026-01-28 21:00:41.38	232.03	7.01	-52.7	-54.8	6.2	0.00e+00	0	52	104	0	77	17873
2026-01-28 21:00:44.40	232.53	7.20	-52.7	-54.8	6.2	0.00e+00	0	52	104	0	77	17971
2026-01-28 21:00:47.42	233.03	7.38	-52.7	-54.8	6.2	0.00e+00	0	52	104	0	77	17823
2026-01-28 21:00:50.44	233.55	7.57	-52.7	-54.8	6.2	0.00e+00	0	52	104	0	77	17843
2026-01-28 21:00:53.46	234.07	7.76	-52.7	-54.8	6.2	0.00e+00	0	52	104	0	77	17945
2026-01-28 21:00:56.48	234.60	7.95	-52.8	-54.9	6.2	0.00e+00	0	52	104	0	77	18073
2026-01-28 21:00:59.50	235.14	8.13	-52.7	-54.9	6.2	0.00e+00	0	53	104	0	77	17985
2026-01-28 21:01:02.52	235.69	8.32	-52.7	-54.8	6.2	0.00e+00	0	52	104	0	77	17913
2026-01-28 21:01:05.54	236.25	8.51	-52.7	-54.9	6.2	0.00e+00	0	52	104	0	77	18057
2026-01-28 21:01:08.56	236.81	8.70	-52.8	-54.9	6.2	0.00e+00	0	53	104	0	77	18125
2026-01-28 21:01:11.58	237.38	8.88	-52.8	-54.9	6.2	0.00e+00	0	52	104	0	77	18150
2026-01-28 21:01:14.60	237.97	9.07	-52.7	-54.9	6.2	0.00e+00	0	53	104	0	77	18041
2026-01-28 21:01:17.62	238.56	9.26	-52.8	-54.9	6.2	0.00e+00	0	53	104	0	77	18146
2026-01-28 21:01:20.64	239.16	9.44	-52.8	-54.9	6.2	0.00e+00	0	53	104	0	77	18144
2026-01-28 21:01:23.67	239.77	9.63	-52.8	-55.0	6.2	0.00e+00	0	53	104	0	77	18181
2026-01-28 21:01:26.69	240.39	9.81	-52.8	-54.9	6.2	0.00e+00	0	53	104	0	77	18159
2026-01-28 21:01:29.70	241.02	10.00	-52.8	-54.9	6.2	0.00e+00	0	53	104	0	77	18170
2026-01-28 21:01:32.71	241.65	10.18	-52.9	-55.0	6.2	0.00e+00	0	53	104	0	77	18319
2026-01-28 21:01:35.72	242.30	10.36	-52.9	-55.0	6.2	0.00e+00	0	53	104	0	77	18358
2026-01-28 21:01:38.75	242.96	10.54	-52.9	-55.0	6.2	0.00e+00	0	53	104	0	77	18297
2026-01-28 21:01:41.76	243.62	10.72	-52.9	-55.0	6.2	0.00e+00	0	53	104	0	77	18358
2026-01-28 21:01:44.78	244.30	10.90	-52.9	-55.0	6.2	0.00e+00	0	53	104	0	77	18363
2026-01-28 21:01:47.80	244.98	11.07	-53.0	-55.1	6.2	0.00e+00	0	53	104	0	77	18480
2026-01-28 21:01:50.81	245.68	11.25	-52.9	-55.0	6.2	0.00e+00	0	53	104	0	77	18360
2026-01-28 21:01:53.82	246.38	11.42	-52.9	-55.0	6.2	0.00e+00	0	53	104	0	77	18377
2026-01-28 21:01:56.84	247.09	11.59	-52.9	-55.1	6.2	0.00e+00	0	53	104	0	77	18430
2026-01-28 21:01:59.86	247.82	11.76	-53.0	-55.1	6.2	0.00e+00	0	53	104	0	77	18459
2026-01-28 21:02:02.88	248.55	11.93	-52.9	-55.1	6.2	0.00e+00	0	53	104	0	77	18407
2026-01-28 21:02:05.89	249.30	12.10	-52.9	-55.1	6.2	0.00e+00	0	53	104	0	77	18434
2026-01-28 21:02:08.91	250.05	12.26	-53.0	-55.1	6.2	0.00e+00	0	53	104	0	77	18488
2026-01-28 21:02:11.94	250.82	12.42	-53.0	-55.2	6.2	0.00e+00	0	53	104	0	77	18642
2026-01-28 21:02:14.95	251.59	12.58	-53.0	-55.1	6.2	0.00e+00	0	53	104	0	77	18555
2026-01-28 21:02:17.97	252.37	12.73	-53.0	-55.2	6.2	0.00e+00	0	53	104	0	77	18626
2026-01-28 21:02:21.00	253.17	12.88	-51.1	-52.4	6.5	3.44e-02	0	54	104	134217728	73	17004
2026-01-28 21:02:24.02	253.97	13.03	-32.3	-32.2	15.9	2.57e-02	0	55	0	385875968	36	14065
2026-01-28 21:02:27.05	254.79	13.18	-32.3	-32.2	15.9	1.53e-03	0	55	0	721420288	36	14078
2026-01-28 21:02:30.06	255.61	13.32	-32.4	-32.3	15.9	1.46e-03	0	55	0	1056964608	36	14162
2026-01-28 21:02:33.08	256.44	13.46	-32.2	-32.2	16.0	1.51e-03	0	55	0	1409286144	36	13953
2026-01-28 21:02:36.10	257.28	13.59	-32.2	-32.1	16.0	1.50e-03	0	56	0	1744830464	36	13907
2026-01-28 21:02:39.11	258.12	13.72	-32.3	-32.2	16.0	1.45e-03	0	56	0	2080374784	36	13964
2026-01-28 21:02:42.13	258.98	13.85	-32.2	-32.1	15.8	1.26e-03	0	56	0	2415919104	36	13880
2026-01-28 21:02:45.16	259.84	13.97	-32.1	-32.0	15.8	1.20e-03	0	56	0	2759852032	36	13753
2026-01-28 21:02:48.18	260.72	14.08	-32.2	-32.1	15.8	1.20e-03	0	56	0	3095396352	36	13874
2026-01-28 21:02:51.20	261.60	14.19	-32.2	-32.1	15.8	7.30e-04	0	56	0	3439329280	36	13878
2026-01-28 21:02:54.21	262.48	14.30	-32.1	-32.0	15.9	1.26e-03	0	56	0	3783262208	36	13707
2026-01-28 21:02:57.23	263.38	14.40	-32.0	-31.9	15.9	9.44e-04	0	56	0	4118806528	36	13606
2026-01-28 21:03:00.25	264.28	14.50	-32.1	-32.0	15.8	9.25e-04	0	56	0	4454350848	36	13704
2026-01-28 21:03:03.27	265.19	14.59	-32.3	-32.2	15.8	1.06e-03	0	56	0	4789895168	36	13980
2026-01-28 21:03:06.29	266.10	14.67	-32.2	-32.1	15.8	1.24e-03	0	56	0	5142216704	36	13811
2026-01-28 21:03:09.31	267.02	14.75	-32.2	-32.1	15.8	1.25e-03	0	56	0	5477761024	36	13806
2026-01-28 21:03:12.33	267.95	14.83	-32.1	-32.0	15.8	1.01e-03	0	56	0	5813305344	36	13737
2026-01-28 21:03:15.34	268.88	14.90	-32.2	-32.1	15.8	1.28e-03	0	57	0	6157238272	36	13941
2026-01-28 21:03:18.36	269.81	14.96	-32.2	-32.1	15.8	1.21e-03	0	57	0	6492782592	36	13913
2026-01-28 21:03:21.38	270.75	15.01	-32.2	-32.1	15.8	1.61e-03	0	57	0	6836715520	36	13854
2026-01-28 21:03:24.40	271.70	15.06	-32.3	-32.2	15.8	9.58e-04	0	57	0	7180648448	36	14044
2026-01-28 21:03:27.42	272.64	15.10	-32.2	-32.1	15.8	1.61e-03	0	57	0	7516192768	36	13877
2026-01-28 21:03:30.44	273.59	15.14	-32.4	-32.3	15.7	1.14e-03	0	57	0	7851737088	36	14184
2026-01-28 21:03:33.46	274.54	15.17	-32.3	-32.2	15.9	1.08e-03	0	57	0	8187281408	36	13955
2026-01-28 21:03:36.48	275.50	15.19	-32.3	-32.2	15.9	6.48e-04	0	57	0	8539602944	36	14031
2026-01-28 21:03:39.50	276.45	15.21	-32.3	-32.3	15.7	7.15e-04	0	57	0	8875147264	36	14112
2026-01-28 21:03:42.51	277.41	15.22	-32.3	-32.2	15.7	9.35e-04	0	57	0	9210691584	36	14088
2026-01-28 21:03:45.53	278.36	15.22	-32.3	-32.2	15.7	8.87e-04	0	57	0	9554624512	36	14023
2026-01-28 21:03:48.55	279.32	15.22	-32.3	-32.2	15.9	8.01e-04	0	57	0	9890168832	36	14052
2026-01-28 21:03:51.58	280.28	15.21	-32.4	-32.3	15.7	6.68e-04	0	57	0	10234101760	36	14126
2026-01-28 21:03:54.60	281.23	15.19	-32.4	-32.4	15.7	6.87e-04	0	58	0	10578034688	36	14282
2026-01-28 21:03:57.61	282.18	15.17	-32.5	-32.4	15.7	8.77e-04	0	57	0	10913579008	36	14381
2026-01-28 21:04:00.63	283.13	15.14	-32.5	-32.4	15.7	8.06e-04	0	57	0	11249123328	36	14408
2026-01-28 21:04:03.65	284.08	15.11	-32.6	-32.5	15.8	9.20e-04	0	58	0	11584667648	36	14445
2026-01-28 21:04:06.67	285.03	15.06	-32.6	-32.5	15.6	8.34e-04	0	58	0	11928600576	36	14593
2026-01-28 21:04:09.69	285.97	15.02	-32.6	-32.5	15.6	1.08e-03	0	58	0	12272533504	36	14565
2026-01-28 21:04:12.71	286.91	14.96	-32.7	-32.6	15.6	1.07e-03	0	58	0	12608077824	36	14647
2026-01-28 21:04:15.73	287.84	14.90	-32.8	-32.7	15.6	8.39e-04	0	58	0	12952010752	36	14780
2026-01-28 21:04:18.75	288.77	14.83	-32.7	-32.6	15.6	9.82e-04	0	57	0	13287555072	36	14752
2026-01-28 21:04:21.77	289.70	14.76	-32.8	-32.7	15.6	9.73e-04	0	58	0	13623099392	36	14831
2026-01-28 21:04:24.79	290.61	14.68	-32.8	-32.7	15.6	8.44e-04	0	58	0	13975420928	36	14819
2026-01-28 21:04:27.81	291.53	14.59	-32.9	-32.8	15.6	8.30e-04	0	58	0	14310965248	36	15016
2026-01-28 21:04:30.83	292.43	14.50	-33.0	-32.9	15.7	1.07e-03	0	58	0	14646509568	36	15169
2026-01-28 21:04:33.85	293.33	14.41	-32.6	-32.5	15.8	6.53e-04	0	58	0	14982053888	36	14589
2026-01-28 21:04:36.87	294.23	14.31	-32.7	-32.6	15.8	5.34e-04	0	58	0	15325986816	36	14746
2026-01-28 21:04:39.89	295.11	14.20	-32.8	-32.7	15.8	6.20e-04	0	58	0	15669919744	36	14853
2026-01-28 21:04:42.90	295.99	14.09	-32.8	-32.7	15.8	5.86e-04	0	58	0	16005464064	36	14843
2026-01-28 21:04:45.91	296.85	13.98	-32.8	-32.7	15.8	5.67e-04	0	58	0	16349396992	36	14885
2026-01-28 21:04:48.93	297.72	13.86	-32.8	-32.7	15.9	6.48e-04	0	58	0	16684941312	36	14832
2026-01-28 21:04:51.95	298.57	13.73	-32.9	-32.8	15.9	6.10e-04	0	58	0	17020485632	36	14960
2026-01-28 21:04:54.96	299.41	13.60	-32.9	-32.8	15.8	6.29e-04	0	58	0	17356029952	36	15021
2026-01-28 21:04:57.98	300.25	13.47	-32.9	-32.8	15.8	6.10e-04	0	58	0	17708351488	36	14959
2026-01-28 21:05:01.01	301.08	13.33	-32.8	-32.7	15.9	6.48e-04	0	58	0	18043895808	36	14874
2026-01-28 21:05:04.02	301.90	13.19	-33.0	-32.9	15.8	6.44e-04	0	58	0	18379440128	36	15131
2026-01-28 21:05:07.04	302.71	13.05	-33.0	-32.9	15.8	6.63e-04	0	58	0	18723373056	36	15269
2026-01-28 21:05:10.06	303.51	12.90	-33.2	-33.1	15.8	7.58e-04	0	58	0	19058917376	36	15615
2026-01-28 21:05:13.08	304.30	12.75	-33.2	-33.1	15.8	7.25e-04	0	58	0	19402850304	37	14651
2026-01-28 21:05:16.11	305.08	12.60	-33.1	-33.0	15.9	7.87e-04	0	58	0	19746783232	37	14484
2026-01-28 21:05:19.12	305.85	12.44	-33.1	-33.0	15.9	8.11e-04	0	58	0	20082327552	37	14565
2026-01-28 21:05:22.15	306.61	12.28	-33.1	-33.0	15.9	8.01e-04	0	58	0	20417871872	37	14504
2026-01-28 21:05:25.17	307.36	12.12	-33.2	-33.1	15.9	8.49e-04	0	58	0	20753416192	37	14701
2026-01-28 21:05:28.18	308.10	11.96	-33.2	-33.1	15.9	9.39e-04	0	58	0	21105737728	37	14715
2026-01-28 21:05:31.20	308.84	11.79	-33.4	-33.3	15.8	9.44e-04	0	58	0	21441282048	37	15038
2026-01-28 21:05:34.23	309.56	11.62	-33.4	-33.3	15.8	1.14e-03	0	58	0	21776826368	37	15033
2026-01-28 21:05:37.24	310.27	11.45	-33.5	-33.4	15.8	1.13e-03	0	58	0	22120759296	37	15174
2026-01-28 21:05:40.26	310.97	11.28	-33.6	-33.4	15.7	1.07e-03	0	58	0	22456303616	37	15293
2026-01-28 21:05:43.28	311.67	11.10	-33.4	-33.3	15.8	1.36e-03	0	58	0	22800236544	37	15103
2026-01-28 21:05:46.31	312.35	10.93	-33.6	-33.5	15.7	1.34e-03	0	58	0	23144169472	37	15433
2026-01-28 21:05:49.33	313.03	10.75	-33.7	-33.6	15.7	1.43e-03	0	58	0	23479713792	37	15508
2026-01-28 21:05:52.35	313.69	10.57	-33.7	-33.6	15.7	1.86e-03	0	58	0	23815258112	38	14707
2026-01-28 21:05:55.36	314.34	10.39	-33.8	-33.7	15.7	1.84e-03	0	58	0	24150802432	38	14837
2026-01-28 21:05:58.39	314.99	10.21	-33.8	-33.7	15.6	1.86e-03	0	58	0	24503123968	38	14839
2026-01-28 21:06:01.41	315.62	10.03	-33.8	-33.6	15.7	1.91e-03	0	58	0	24838668288	38	14766
2026-01-28 21:06:04.42	316.25	9.85	-33.9	-33.8	15.6	2.06e-03	0	58	0	25174212608	38	14962
2026-01-28 21:06:07.43	316.86	9.67	-33.8	-33.7	15.6	2.35e-03	0	58	0	25518145536	38	14912
2026-01-28 21:06:10.45	317.47	9.48	-33.9	-33.8	15.6	2.23e-03	0	58	0	25853689856	38	15012
2026-01-28 21:06:13.47	318.07	9.30	-33.9	-33.8	15.6	2.63e-03	0	59	0	26189234176	38	15044
2026-01-28 21:06:16.49	318.66	9.11	-33.8	-33.7	15.6	2.66e-03	0	58	0	26541555712	38	14907
2026-01-28 21:06:19.51	319.24	8.93	-34.0	-33.9	15.5	2.38e-03	0	59	0	26877100032	38	15246
2026-01-28 21:06:22.53	319.81	8.74	-33.9	-33.8	15.5	2.59e-03	0	58	0	27212644352	38	15081
2026-01-28 21:06:25.55	320.37	8.56	-33.9	-33.8	15.5	2.84e-03	0	59	0	27548188672	38	15101
2026-01-28 21:06:28.57	320.93	8.37	-34.0	-33.9	15.5	2.84e-03	0	58	0	27892121600	38	15160
2026-01-28 21:06:31.59	321.47	8.19	-34.1	-34.0	15.4	2.80e-03	0	59	0	28236054528	38	15389
2026-01-28 21:06:34.61	322.01	8.00	-34.2	-34.1	15.4	3.25e-03	0	58	0	28571598848	39	14670
2026-01-28 21:06:37.64	322.54	7.81	-34.3	-34.2	15.2	3.55e-03	0	59	0	28915531776	39	14939
2026-01-28 21:06:40.65	323.06	7.63	-34.3	-34.2	15.3	4.27e-03	0	59	0	29251076096	39	14793
2026-01-28 21:06:43.67	323.57	7.44	-34.4	-34.3	15.2	3.91e-03	0	59	0	29586620416	39	14972
2026-01-28 21:06:46.69	324.08	7.26	-34.5	-34.4	15.1	4.21e-03	0	58	0	29938941952	39	15179
2026-01-28 21:06:49.71	324.58	7.07	-34.6	-34.5	15.1	4.42e-03	0	58	0	30274486272	39	15331
2026-01-28 21:06:52.73	325.07	6.88	-34.6	-34.5	15.1	4.46e-03	0	59	0	30610030592	39	15351
2026-01-28 21:06:55.75	325.55	6.70	-34.6	-34.5	15.0	4.96e-03	0	58	0	30945574912	39	15428
2026-01-28 21:06:58.78	326.03	6.51	-34.6	-34.5	15.0	5.60e-03	0	58	0	31289507840	40	14557
2026-01-28 21:07:01.79	326.49	6.33	-34.6	-34.5	14.9	5.97e-03	0	59	0	31633440768	40	14515
2026-01-28 21:07:04.80	326.95	6.15	-34.8	-34.7	14.8	7.03e-03	0	59	0	31968985088	40	14888
2026-01-28 21:07:07.83	327.41	5.96	-35.0	-34.9	14.7	7.56e-03	0	58	0	32312918016	40	15162
2026-01-28 21:07:10.85	327.86	5.78	-35.0	-34.9	14.7	8.57e-03	0	59	0	32648462336	40	15164
2026-01-28 21:07:13.87	328.30	5.60	-34.9	-34.9	14.7	8.71e-03	0	58	0	32984006656	40	15124
2026-01-28 21:07:16.89	328.73	5.41	-35.1	-35.1	14.6	9.87e-03	0	59	0	33336328192	40	15513
2026-01-28 21:07:19.91	329.16	5.23	-35.2	-35.1	14.6	9.87e-03	0	58	0	33671872512	41	14630
2026-01-28 21:07:22.93	329.58	5.05	-35.4	-35.3	14.4	1.16e-02	0	59	0	34007416832	41	15028
2026-01-28 21:07:25.96	329.99	4.87	-53.1	-55.2	6.2	2.55e-02	0	57	104	34108080128	76	19880
2026-01-28 21:07:28.97	330.40	4.69	-53.4	-55.6	6.2	2.55e-02	0	57	104	34108080128	77	19484
2026-01-28 21:07:32.00	330.80	4.51	-53.5	-55.6	6.2	0.00e+00	0	57	104	34108080128	77	19596
2026-01-28 21:07:35.02	331.20	4.33	-53.3	-55.4	6.2	0.00e+00	0	57	104	34108080128	77	19181
2026-01-28 21:07:38.04	331.59	4.16	-53.5	-55.6	6.2	0.00e+00	0	57	104	34108080128	77	19600
2026-01-28 21:07:41.08	331.98	3.98	-53.6	-55.7	6.2	0.00e+00	0	57	104	34108080128	77	19744
2026-01-28 21:07:44.09	332.36	3.80	-53.6	-55.7	6.2	0.00e+00	0	57	104	34108080128	77	19909
2026-01-28 21:07:47.12	332.73	3.62	-53.5	-55.6	6.2	0.00e+00	0	56	104	34108080128	77	19553
2026-01-28 21:07:50.14	333.10	3.45	-53.5	-55.6	6.2	0.00e+00	0	56	104	34108080128	77	19516
2026-01-28 21:07:53.17	333.46	3.27	-53.4	-55.5	6.2	0.00e+00	0	56	104	34108080128	77	19463
2026-01-28 21:07:56.19	333.82	3.10	-53.4	-55.5	6.2	0.00e+00	0	56	104	34108080128	77	19375
2026-01-28 21:07:59.22	334.18	2.93	-53.4	-55.5	6.2	0.00e+00	0	56	104	34108080128	77	19323
2026-01-28 21:08:02.25	334.52	2.75	-53.4	-55.5	6.2	0.00e+00	0	56	104	34108080128	77	19294
2026-01-28 21:08:05.27	334.87	2.58	-53.3	-55.5	6.2	0.00e+00	0	56	104	34108080128	77	19286
2026-01-28 21:08:08.29	335.20	2.41	-53.3	-55.5	6.2	0.00e+00	0	56	104	34108080128	77	19276
2026-01-28 21:08:11.31	335.54	2.24	-53.3	-55.4	6.2	0.00e+00	0	56	104	34108080128	77	19217
2026-01-28 21:08:14.33	335.87	2.07	-53.3	-55.4	6.2	0.00e+00	0	56	104	34108080128	77	19191
2026-01-28 21:08:17.35	336.19	1.90	-53.3	-55.4	6.2	0.00e+00	0	56	104	34108080128	77	19207

#Closed at: 2026-01-28 21:08:18
#Recorded file [34108 MB]: D:/lorett/data/31041_260128_235919.dat