passes_logs/2026/01/28/R3.2S_Murmansk/R3.2S_Murmansk__20260128_222826_SUOMI_NPP_rec.log

#Pass ID: 20260128_222826_SUOMI NPP
#Satellite: SUOMI NPP
#Configuration: NPP
#almurnet v.1.7.20251203
#Start time: 2026-01-28 22:28:27

#Version: 2.2.20231116
#Station: R3.2S_Murmansk
#Location: 33.079688 lon 68.888172 lat
#TLE: 1 37849U 11061A   26027.93236865  .00000148  00000+0  91411-4 0  9991
#TLE: 2 37849  98.7823 329.8704 0002085  41.3231 318.8102 14.19530777738546

#Time	Az	El	Level	Level2	SNR	BER	BlckErr	Temp	State	Recorded	gain1	gain2
2026-01-28 22:28:27.72	19.00	2.06	-51.9	-66.8	3.8	1.49e+00	0	40	0	0	75	20000
2026-01-28 22:28:31.75	19.27	2.29	-51.8	-66.8	3.8	1.49e+00	0	40	104	0	74	21040
2026-01-28 22:28:35.79	19.56	2.51	-51.8	-66.7	3.8	1.49e+00	0	40	104	0	74	20907
2026-01-28 22:28:39.82	19.84	2.74	-51.8	-66.7	3.8	1.49e+00	0	41	104	0	74	20879
2026-01-28 22:28:43.85	20.13	2.96	-51.8	-66.6	3.8	1.49e+00	0	41	104	0	74	20650
2026-01-28 22:28:47.88	20.43	3.19	-51.8	-66.5	3.8	1.49e+00	0	41	104	0	74	20370
2026-01-28 22:28:51.91	20.73	3.42	-51.8	-66.6	3.8	1.49e+00	0	41	104	0	74	20626
2026-01-28 22:28:55.94	21.03	3.65	-51.8	-66.5	3.8	1.49e+00	0	41	104	0	74	20490
2026-01-28 22:28:59.97	21.34	3.89	-51.8	-66.0	3.8	1.49e+00	0	41	104	0	74	19384
2026-01-28 22:29:04.00	21.65	4.12	-51.5	-62.6	4.4	1.48e+00	66	41	104	0	74	13062
2026-01-28 22:29:08.03	21.97	4.35	-48.8	-52.2	13.4	2.23e-04	0	41	0	7340032	69	5256
2026-01-28 22:29:12.05	22.29	4.59	-46.6	-48.6	16.9	0.00e+00	0	41	0	14680064	65	4370
2026-01-28 22:29:16.09	22.62	4.83	-47.8	-50.6	15.1	0.00e+00	0	41	0	22020096	66	5165
2026-01-28 22:29:20.11	22.95	5.07	-47.1	-49.3	16.4	7.00e-07	0	41	0	29360128	66	4460
2026-01-28 22:29:24.15	23.29	5.31	-50.0	-54.4	11.3	2.20e-06	0	41	0	34603008	70	6388
2026-01-28 22:29:28.18	23.63	5.55	-47.0	-49.2	16.5	0.00e+00	0	41	0	41943040	66	4412
2026-01-28 22:29:32.21	23.98	5.79	-46.6	-48.6	17.1	0.00e+00	0	41	0	49283072	65	4353
2026-01-28 22:29:36.24	24.33	6.04	-46.7	-48.7	17.0	0.00e+00	0	41	0	56623104	65	4437
2026-01-28 22:29:40.27	24.69	6.29	-46.8	-48.9	16.9	0.00e+00	0	42	0	65011712	65	4520
2026-01-28 22:29:44.30	25.05	6.53	-46.7	-48.7	17.1	0.00e+00	0	42	0	72351744	65	4405
2026-01-28 22:29:48.33	25.42	6.78	-46.6	-48.5	17.4	0.00e+00	0	41	0	79691776	65	4322
2026-01-28 22:29:52.36	25.80	7.03	-46.3	-48.2	17.7	0.00e+00	0	42	0	87031808	64	4402
2026-01-28 22:29:56.38	26.18	7.29	-46.1	-47.9	18.0	0.00e+00	0	42	0	94371840	64	4273
2026-01-28 22:30:00.41	26.57	7.54	-46.2	-47.9	18.1	0.00e+00	0	42	0	101711872	63	4538
2026-01-28 22:30:04.43	26.97	7.79	-46.3	-48.1	17.9	0.00e+00	0	42	0	110100480	63	4615
2026-01-28 22:30:08.46	27.37	8.05	-46.3	-48.0	18.0	0.00e+00	0	42	0	117440512	63	4581
2026-01-28 22:30:12.50	27.78	8.31	-46.5	-48.3	17.7	0.00e+00	0	42	0	124780544	63	4756
2026-01-28 22:30:16.53	28.20	8.57	-46.7	-48.7	17.3	0.00e+00	0	42	0	132120576	64	4679
2026-01-28 22:30:20.56	28.62	8.83	-47.0	-49.1	16.9	0.00e+00	0	42	0	140509184	64	4905
2026-01-28 22:30:24.59	29.05	9.09	-46.8	-48.7	17.4	0.00e+00	0	42	0	147849216	64	4687
2026-01-28 22:30:28.61	29.49	9.36	-46.5	-48.4	17.7	0.00e+00	0	42	0	155189248	64	4512
2026-01-28 22:30:32.64	29.93	9.62	-46.5	-48.3	17.8	0.00e+00	0	42	0	162529280	64	4472
2026-01-28 22:30:36.67	30.39	9.89	-46.4	-48.1	18.0	0.00e+00	0	42	0	169869312	64	4386
2026-01-28 22:30:40.70	30.85	10.16	-45.9	-47.5	18.7	0.00e+00	0	42	0	178257920	63	4311
2026-01-28 22:30:44.74	31.32	10.43	-45.6	-47.2	19.0	0.00e+00	0	42	0	185597952	63	4165
2026-01-28 22:30:48.76	31.80	10.70	-45.6	-47.2	19.0	0.00e+00	0	42	0	192937984	62	4397
2026-01-28 22:30:52.79	32.28	10.97	-45.3	-46.7	19.5	0.00e+00	0	42	0	200278016	62	4179
2026-01-28 22:30:56.83	32.78	11.24	-45.4	-46.8	19.4	0.00e+00	0	42	0	207618048	62	4227
2026-01-28 22:31:00.86	33.28	11.52	-45.5	-47.0	19.2	0.00e+00	0	42	0	216006656	62	4334
2026-01-28 22:31:04.89	33.80	11.79	-45.7	-47.2	19.1	0.00e+00	0	42	0	223346688	62	4410
2026-01-28 22:31:08.92	34.32	12.07	-45.5	-46.9	19.3	0.00e+00	0	42	0	230686720	62	4287
2026-01-28 22:31:12.95	34.85	12.34	-45.6	-47.0	19.1	0.00e+00	0	42	0	238026752	62	4338
2026-01-28 22:31:16.98	35.39	12.62	-45.6	-47.1	19.2	0.00e+00	0	42	0	245366784	62	4375
2026-01-28 22:31:21.01	35.95	12.90	-45.3	-46.7	19.6	0.00e+00	0	42	0	253755392	62	4189
2026-01-28 22:31:25.04	36.51	13.18	-45.0	-46.3	19.9	0.00e+00	0	42	0	261095424	61	4228
2026-01-28 22:31:29.07	37.08	13.46	-44.5	-45.8	20.5	0.00e+00	0	42	0	268435456	60	4200
2026-01-28 22:31:33.11	37.67	13.74	-44.6	-45.8	20.4	0.00e+00	0	42	0	275775488	60	4237
2026-01-28 22:31:37.15	38.26	14.03	-44.8	-46.1	20.2	0.00e+00	0	42	0	284164096	60	4346
2026-01-28 22:31:41.17	38.87	14.31	-44.9	-46.3	20.0	0.00e+00	0	42	0	291504128	60	4452
2026-01-28 22:31:45.21	39.48	14.59	-45.1	-46.5	19.8	0.00e+00	0	42	0	298844160	60	4569
2026-01-28 22:31:49.24	40.11	14.88	-45.4	-46.8	19.6	0.00e+00	0	42	0	306184192	61	4475
2026-01-28 22:31:53.27	40.75	15.16	-45.3	-46.7	19.7	0.00e+00	0	42	0	313524224	61	4425
2026-01-28 22:31:57.31	41.40	15.44	-45.2	-46.6	19.8	0.00e+00	0	42	0	320864256	61	4375
2026-01-28 22:32:01.33	42.07	15.73	-45.2	-46.6	19.8	0.00e+00	0	42	0	329252864	61	4352
2026-01-28 22:32:05.36	42.74	16.01	-44.9	-46.2	20.2	0.00e+00	0	42	0	336592896	61	4148
2026-01-28 22:32:09.39	43.43	16.29	-44.5	-45.8	20.5	0.00e+00	0	42	0	343932928	61	3987
2026-01-28 22:32:13.42	44.13	16.57	-44.5	-45.8	20.5	0.00e+00	0	42	0	351272960	60	4214
2026-01-28 22:32:17.45	44.84	16.85	-44.7	-46.0	20.3	0.00e+00	0	42	0	359661568	60	4337
2026-01-28 22:32:21.47	45.57	17.13	-44.8	-46.2	20.2	0.00e+00	0	42	0	367001600	60	4394
2026-01-28 22:32:25.51	46.31	17.41	-44.5	-45.8	20.6	0.00e+00	0	42	0	374341632	60	4210
2026-01-28 22:32:29.54	47.06	17.69	-45.0	-46.3	20.1	0.00e+00	0	42	0	381681664	60	4470
2026-01-28 22:32:33.57	47.83	17.96	-44.8	-46.2	20.3	0.00e+00	0	42	0	389021696	60	4399
2026-01-28 22:32:37.60	48.61	18.24	-44.7	-46.0	20.4	0.00e+00	0	42	0	397410304	60	4320
2026-01-28 22:32:41.63	49.40	18.51	-44.7	-45.9	20.4	0.00e+00	0	42	0	404750336	60	4290
2026-01-28 22:32:45.66	50.21	18.78	-44.7	-45.9	20.5	0.00e+00	0	42	0	412090368	60	4271
2026-01-28 22:32:49.69	51.03	19.04	-45.3	-46.6	19.8	0.00e+00	0	42	0	419430400	61	4389
2026-01-28 22:32:53.72	51.87	19.30	-44.8	-46.1	20.3	0.00e+00	0	42	0	426770432	61	4141
2026-01-28 22:32:57.74	52.72	19.56	-45.6	-47.1	19.5	0.00e+00	0	42	0	435159040	61	4613
2026-01-28 22:33:01.78	53.58	19.82	-45.1	-46.4	20.0	0.00e+00	0	42	0	442499072	61	4291
2026-01-28 22:33:05.80	54.46	20.07	-46.1	-47.7	18.9	0.00e+00	0	42	0	449839104	62	4654
2026-01-28 22:33:09.83	55.35	20.32	-45.9	-47.4	19.2	0.00e+00	0	42	0	457179136	63	4250
2026-01-28 22:33:13.86	56.26	20.57	-45.3	-46.7	19.9	0.00e+00	0	42	0	464519168	62	4163
2026-01-28 22:33:17.89	57.18	20.80	-45.3	-46.6	19.9	0.00e+00	0	42	0	472907776	62	4137
2026-01-28 22:33:21.92	58.11	21.04	-45.8	-47.3	19.3	0.00e+00	0	42	0	480247808	62	4463
2026-01-28 22:33:25.94	59.06	21.27	-45.1	-46.4	20.0	0.00e+00	0	42	0	487587840	62	4040
2026-01-28 22:33:29.98	60.02	21.49	-44.7	-45.9	20.5	0.00e+00	0	42	0	494927872	61	4034
2026-01-28 22:33:34.01	61.00	21.71	-45.2	-46.6	20.0	0.00e+00	0	42	0	502267904	61	4357
2026-01-28 22:33:38.04	61.99	21.91	-46.3	-47.9	18.7	0.00e+00	0	42	0	510656512	63	4538
2026-01-28 22:33:42.06	62.99	22.12	-45.2	-46.6	20.0	0.00e+00	0	42	0	517996544	61	4345
2026-01-28 22:33:46.09	64.00	22.31	-45.8	-47.3	19.3	0.00e+00	0	42	0	525336576	62	4490
2026-01-28 22:33:50.12	65.03	22.50	-45.6	-47.1	19.6	0.00e+00	0	42	0	532676608	62	4341
2026-01-28 22:33:54.15	66.07	22.68	-45.5	-46.9	19.7	0.00e+00	0	42	0	541065216	62	4249
2026-01-28 22:33:58.18	67.12	22.85	-45.6	-47.0	19.6	0.00e+00	0	42	0	548405248	62	4326
2026-01-28 22:34:02.21	68.18	23.01	-46.4	-48.1	18.5	0.00e+00	0	42	0	555745280	64	4381
2026-01-28 22:34:06.24	69.25	23.17	-45.7	-47.1	19.5	0.00e+00	0	42	0	563085312	63	4123
2026-01-28 22:34:10.28	70.33	23.31	-46.2	-47.8	18.9	0.00e+00	0	42	0	570425344	63	4460
2026-01-28 22:34:14.32	71.43	23.44	-46.6	-48.3	18.4	0.00e+00	0	42	0	577765376	64	4466
2026-01-28 22:34:18.35	72.53	23.57	-47.2	-49.1	17.6	0.00e+00	0	42	0	586153984	65	4599
2026-01-28 22:34:22.38	73.64	23.68	-46.2	-47.8	18.7	0.00e+00	0	42	0	593494016	64	4230
2026-01-28 22:34:26.41	74.75	23.79	-45.3	-46.7	20.0	0.00e+00	0	42	0	600834048	62	4156
2026-01-28 22:34:30.44	75.88	23.88	-45.1	-46.4	20.2	0.00e+00	0	42	0	608174080	61	4263
2026-01-28 22:34:34.47	77.01	23.96	-46.1	-47.6	18.9	0.00e+00	0	42	0	616562688	63	4391
2026-01-28 22:34:38.51	78.14	24.03	-45.2	-46.5	20.1	0.00e+00	0	42	0	623902720	61	4332
2026-01-28 22:34:42.54	79.28	24.09	-45.6	-47.0	19.7	0.00e+00	0	42	0	631242752	62	4297
2026-01-28 22:34:46.56	80.42	24.13	-46.0	-47.5	19.1	0.00e+00	0	42	0	638582784	62	4571
2026-01-28 22:34:50.59	81.57	24.17	-44.8	-46.1	20.4	0.00e+00	0	42	0	645922816	61	4118
2026-01-28 22:34:54.63	82.72	24.19	-45.1	-46.5	20.1	0.00e+00	0	42	0	654311424	61	4298
2026-01-28 22:34:58.66	83.87	24.21	-44.9	-46.1	20.4	0.00e+00	0	42	0	661651456	61	4129
2026-01-28 22:35:02.70	85.03	24.21	-44.7	-45.9	20.7	0.00e+00	0	42	0	668991488	60	4255
2026-01-28 22:35:06.73	86.18	24.19	-45.0	-46.3	20.2	0.00e+00	0	42	0	676331520	60	4462
2026-01-28 22:35:10.77	87.33	24.17	-44.6	-45.9	20.7	0.00e+00	0	42	0	683671552	61	4006
2026-01-28 22:35:14.80	88.48	24.13	-44.6	-45.8	20.7	0.00e+00	0	42	0	692060160	60	4226
2026-01-28 22:35:18.82	89.62	24.09	-44.9	-46.2	20.3	0.00e+00	0	42	0	699400192	60	4425
2026-01-28 22:35:22.85	90.76	24.03	-45.1	-46.4	20.1	0.00e+00	0	42	0	706740224	61	4271
2026-01-28 22:35:26.88	91.89	23.96	-44.5	-45.8	20.7	0.00e+00	0	42	0	714080256	61	3962
2026-01-28 22:35:30.91	93.02	23.88	-44.5	-45.8	20.8	0.00e+00	0	42	0	721420288	60	4205
2026-01-28 22:35:34.94	94.15	23.78	-44.3	-45.4	21.3	0.00e+00	0	42	0	729808896	59	4284
2026-01-28 22:35:38.97	95.27	23.68	-44.6	-45.8	21.0	0.00e+00	0	42	0	737148928	59	4491
2026-01-28 22:35:43.01	96.38	23.57	-43.9	-45.1	21.7	0.00e+00	0	42	0	744488960	59	4101
2026-01-28 22:35:47.04	97.48	23.44	-44.2	-45.4	21.4	0.00e+00	0	42	0	751828992	59	4266
2026-01-28 22:35:51.06	98.57	23.31	-44.3	-45.5	21.0	0.00e+00	0	42	0	760217600	60	4076
2026-01-28 22:35:55.09	99.65	23.16	-44.1	-45.3	21.5	0.00e+00	0	42	0	767557632	59	4213
2026-01-28 22:35:59.13	100.73	23.01	-43.8	-44.9	21.9	0.00e+00	0	42	0	774897664	59	4021
2026-01-28 22:36:03.15	101.79	22.85	-42.7	-43.7	22.8	0.00e+00	0	42	0	782237696	57	3914
2026-01-28 22:36:07.18	102.84	22.67	-43.6	-44.7	22.0	0.00e+00	0	42	0	789577728	57	4404
2026-01-28 22:36:11.21	103.88	22.49	-43.0	-44.0	22.6	0.00e+00	0	42	0	796917760	58	3861
2026-01-28 22:36:15.23	104.91	22.31	-43.7	-44.8	21.9	0.00e+00	0	42	0	805306368	57	4443
2026-01-28 22:36:19.27	105.93	22.11	-43.8	-44.8	21.8	0.00e+00	0	42	0	812646400	58	4242
2026-01-28 22:36:23.29	106.93	21.91	-43.6	-44.7	22.0	0.00e+00	0	42	0	819986432	58	4187
2026-01-28 22:36:27.33	107.92	21.70	-44.0	-45.2	21.6	0.00e+00	0	42	0	827326464	59	4161
2026-01-28 22:36:31.35	108.90	21.48	-44.1	-45.2	21.5	0.00e+00	0	42	0	835715072	59	4186
2026-01-28 22:36:35.38	109.86	21.26	-44.6	-45.8	21.0	0.00e+00	0	42	0	843055104	59	4481
2026-01-28 22:36:39.40	110.81	21.03	-44.9	-46.2	20.4	0.00e+00	0	42	0	850395136	60	4404
2026-01-28 22:36:43.43	111.75	20.79	-44.2	-45.4	21.4	0.00e+00	0	42	0	857735168	59	4266
2026-01-28 22:36:47.46	112.67	20.55	-44.7	-45.9	20.9	0.00e+00	0	42	0	865075200	59	4526
2026-01-28 22:36:51.49	113.58	20.31	-45.1	-46.5	20.1	0.00e+00	0	42	0	873463808	61	4303
2026-01-28 22:36:55.52	114.48	20.06	-44.6	-45.8	20.7	0.00e+00	0	42	0	880803840	61	3980
2026-01-28 22:36:59.55	115.36	19.80	-44.4	-45.6	20.9	0.00e+00	0	42	0	888143872	60	4113
2026-01-28 22:37:03.57	116.22	19.55	-45.3	-46.7	19.9	0.00e+00	0	42	0	895483904	61	4415
2026-01-28 22:37:07.61	117.08	19.28	-45.1	-46.5	20.1	0.00e+00	0	42	0	902823936	61	4295
2026-01-28 22:37:11.64	117.91	19.02	-45.5	-46.9	19.6	0.00e+00	0	42	0	911212544	61	4540
2026-01-28 22:37:15.67	118.74	18.75	-45.2	-46.6	19.9	0.00e+00	0	42	0	918552576	61	4355
2026-01-28 22:37:19.70	119.55	18.48	-45.4	-46.9	19.6	0.00e+00	0	42	0	925892608	61	4508
2026-01-28 22:37:23.73	120.34	18.21	-44.7	-46.0	20.4	0.00e+00	0	42	0	933232640	61	4073
2026-01-28 22:37:27.76	121.13	17.93	-45.1	-46.4	20.1	0.00e+00	0	42	0	940572672	60	4523
2026-01-28 22:37:31.79	121.89	17.66	-45.2	-46.5	19.9	0.00e+00	0	42	0	948961280	61	4338
2026-01-28 22:37:35.83	122.65	17.38	-45.6	-47.1	19.5	0.00e+00	0	42	0	956301312	61	4625
2026-01-28 22:37:39.86	123.39	17.10	-46.2	-47.8	18.6	0.00e+00	0	42	0	963641344	63	4479
2026-01-28 22:37:43.89	124.12	16.82	-44.8	-46.1	20.3	0.00e+00	0	42	0	970981376	61	4100
2026-01-28 22:37:47.92	124.84	16.53	-44.9	-46.3	20.0	0.00e+00	0	42	0	978321408	60	4469
2026-01-28 22:37:51.95	125.54	16.25	-44.9	-46.2	20.0	0.00e+00	0	42	0	986710016	61	4187
2026-01-28 22:37:55.98	126.23	15.97	-44.7	-46.1	20.2	0.00e+00	0	42	0	994050048	60	4345
2026-01-28 22:38:00.01	126.90	15.68	-45.4	-46.8	19.4	0.00e+00	0	42	0	1001390080	61	4485
2026-01-28 22:38:04.03	127.57	15.40	-44.7	-46.0	20.1	0.00e+00	0	42	0	1008730112	61	4092
2026-01-28 22:38:08.06	128.22	15.11	-45.1	-46.6	19.7	0.00e+00	0	42	0	1017118720	61	4345
2026-01-28 22:38:12.09	128.86	14.83	-44.9	-46.2	19.9	0.00e+00	0	42	0	1024458752	61	4190
2026-01-28 22:38:16.12	129.49	14.54	-44.7	-46.1	20.0	0.00e+00	0	42	0	1031798784	60	4351
2026-01-28 22:38:20.15	130.11	14.26	-46.3	-48.0	18.3	0.00e+00	0	42	0	1039138816	63	4570
2026-01-28 22:38:24.18	130.71	13.97	-46.1	-47.8	18.5	0.00e+00	0	42	0	1046478848	63	4458
2026-01-28 22:38:28.22	131.31	13.69	-45.4	-46.9	19.2	0.00e+00	0	42	0	1053818880	62	4291
2026-01-28 22:38:32.25	131.89	13.41	-44.7	-46.1	20.0	0.00e+00	0	42	0	1062207488	61	4104
2026-01-28 22:38:36.27	132.46	13.13	-44.3	-45.6	20.4	0.00e+00	0	42	0	1069547520	60	4121
2026-01-28 22:38:40.31	133.03	12.84	-44.4	-45.7	20.2	0.00e+00	0	42	0	1076887552	60	4189
2026-01-28 22:38:44.33	133.58	12.56	-45.3	-46.8	19.3	0.00e+00	0	42	0	1084227584	61	4454
2026-01-28 22:38:48.35	134.12	12.28	-45.6	-47.2	18.9	0.00e+00	0	42	0	1092616192	61	4669
2026-01-28 22:38:52.37	134.65	12.00	-45.1	-46.5	19.5	0.00e+00	0	42	0	1099956224	61	4321
2026-01-28 22:38:56.40	135.18	11.73	-45.1	-46.6	19.4	0.00e+00	0	42	0	1107296256	61	4382
2026-01-28 22:39:00.43	135.69	11.45	-45.2	-46.7	19.3	0.00e+00	0	42	0	1114636288	61	4411
2026-01-28 22:39:04.46	136.19	11.17	-45.2	-46.7	19.3	0.00e+00	0	42	0	1121976320	61	4399
2026-01-28 22:39:08.48	136.69	10.90	-45.1	-46.5	19.4	0.00e+00	0	42	0	1130364928	61	4314
2026-01-28 22:39:12.51	137.18	10.63	-45.7	-47.3	18.6	0.00e+00	0	42	0	1137704960	61	4716
2026-01-28 22:39:16.55	137.65	10.35	-46.2	-48.0	18.0	0.00e+00	0	42	0	1145044992	63	4557
2026-01-28 22:39:20.57	138.12	10.08	-46.7	-48.7	17.2	0.00e+00	0	42	0	1152385024	64	4666
2026-01-28 22:39:24.60	138.58	9.81	-46.5	-48.4	17.5	0.00e+00	0	42	0	1159725056	64	4521
2026-01-28 22:39:28.63	139.04	9.54	-46.1	-47.8	18.0	0.00e+00	0	43	0	1168113664	63	4490
2026-01-28 22:39:32.66	139.48	9.28	-45.7	-47.4	18.5	0.00e+00	0	42	0	1175453696	63	4252
2026-01-28 22:39:36.69	139.92	9.01	-45.5	-47.1	18.7	0.00e+00	0	42	0	1182793728	62	4387
2026-01-28 22:39:40.72	140.35	8.75	-45.4	-47.0	18.8	0.00e+00	0	42	0	1190133760	62	4315
2026-01-28 22:39:44.75	140.77	8.48	-45.6	-47.2	18.6	0.00e+00	0	42	0	1197473792	62	4416
2026-01-28 22:39:48.77	141.19	8.22	-46.4	-48.3	17.5	0.00e+00	0	42	0	1205862400	63	4738
2026-01-28 22:39:52.80	141.60	7.96	-46.7	-48.8	16.9	0.00e+00	0	42	0	1213202432	64	4708
2026-01-28 22:39:56.83	142.00	7.71	-46.6	-48.6	17.1	0.00e+00	0	42	0	1220542464	64	4603
2026-01-28 22:40:00.86	142.39	7.45	-46.1	-47.9	17.7	0.00e+00	0	42	0	1227882496	64	4282
2026-01-28 22:40:04.90	142.78	7.19	-45.9	-47.6	18.0	0.00e+00	0	42	0	1235222528	63	4373
2026-01-28 22:40:08.93	143.16	6.94	-46.3	-48.2	17.5	0.00e+00	0	42	0	1243611136	63	4671
2026-01-28 22:40:12.97	143.54	6.69	-47.0	-49.2	16.4	0.00e+00	0	42	0	1250951168	64	4961
2026-01-28 22:40:17.00	143.91	6.44	-47.1	-49.5	16.0	0.00e+00	0	42	0	1258291200	65	4844
2026-01-28 22:40:21.03	144.27	6.19	-46.9	-49.1	16.4	0.00e+00	0	42	0	1265631232	65	4638
2026-01-28 22:40:25.07	144.63	5.94	-46.3	-48.4	17.1	0.00e+00	0	42	0	1272971264	64	4515
2026-01-28 22:40:29.11	144.98	5.69	-46.4	-48.5	16.9	0.00e+00	0	42	0	1281359872	64	4555
2026-01-28 22:40:33.14	145.33	5.44	-46.2	-48.2	17.2	0.00e+00	0	42	0	1288699904	63	4688
2026-01-28 22:40:37.17	145.67	5.20	-46.6	-48.7	16.6	0.00e+00	0	42	0	1296039936	63	4960
2026-01-28 22:40:41.20	146.01	4.96	-51.9	-66.8	3.8	1.23e+00	0	42	104	1302331392	74	21222
2026-01-28 22:40:45.24	146.34	4.72	-53.0	-68.0	3.8	1.49e+00	0	42	104	1302331392	76	21632
2026-01-28 22:40:49.27	146.66	4.48	-53.5	-68.5	3.8	1.49e+00	0	42	104	1302331392	77	21617
2026-01-28 22:40:53.30	146.98	4.24	-53.8	-68.8	3.8	1.49e+00	0	43	104	1302331392	78	21213
2026-01-28 22:40:57.34	147.30	4.00	-54.1	-69.1	3.8	1.49e+00	0	42	104	1302331392	78	21768
2026-01-28 22:41:01.37	147.61	3.77	-54.2	-69.2	3.8	1.49e+00	0	42	104	1302331392	78	22094
2026-01-28 22:41:05.40	147.92	3.53	-54.3	-69.3	3.8	1.49e+00	0	42	104	1302331392	79	21115
2026-01-28 22:41:09.43	148.22	3.30	-54.3	-69.3	3.8	1.49e+00	0	42	104	1302331392	79	21067
2026-01-28 22:41:13.46	148.51	3.07	-54.1	-69.2	3.8	1.49e+00	0	42	104	1302331392	79	20875
2026-01-28 22:41:17.49	148.81	2.84	-54.1	-69.1	3.8	1.49e+00	0	43	104	1302331392	79	20610
2026-01-28 22:41:21.52	149.09	2.61	-53.9	-68.9	3.8	1.49e+00	0	42	104	1302331392	79	20105
2026-01-28 22:41:25.56	149.38	2.38	-53.5	-68.5	3.8	1.49e+00	0	42	104	1302331392	79	19270
2026-01-28 22:41:29.57	149.66	2.16	-52.9	-67.9	3.8	1.49e+00	0	42	104	1302331392	77	20229

#Closed at: 2026-01-28 22:41:32
#Recorded file [1302 MB]: D:/lorett/data/31041_260129_012827.dat