passes_logs/2026/01/28/R3.2S_Murmansk/R3.2S_Murmansk__20260128_215343_JL1KF02B02_rec.log

#Pass ID: 20260128_215343_JL1KF02B02
#Satellite: JL1KF02B02
#Configuration: 01B_900M
#almurnet v.1.7.20251203
#Start time: 2026-01-28 21:53:43

#Version: 2.2.20231116
#Station: R3.2S_Murmansk
#Location: 33.079688 lon 68.888172 lat
#TLE: 1 61193U 24169E   26027.77639749  .00007697  00000+0  47839-3 0  9993
#TLE: 2 61193  97.5622 119.4851 0013901  93.9222 266.3597 15.09851074 74653

#Time	Az	El	Level	Level2	SNR	BER	BlckErr	Temp	State	Recorded	gain1	gain2
2026-01-28 21:53:43.66	214.33	2.02	-54.1	-56.2	6.2	0.00e+00	0	43	0	0	79	18648
2026-01-28 21:53:46.57	214.61	2.19	-54.0	-56.1	6.2	0.00e+00	0	43	104	0	79	18555
2026-01-28 21:53:49.48	214.90	2.36	-54.1	-56.2	6.2	0.00e+00	0	43	104	0	79	18687
2026-01-28 21:53:52.40	215.19	2.53	-54.1	-56.1	6.2	0.00e+00	0	43	104	0	79	18582
2026-01-28 21:53:55.32	215.48	2.71	-54.1	-56.1	6.2	0.00e+00	0	43	104	0	79	18588
2026-01-28 21:53:58.23	215.78	2.88	-54.0	-56.1	6.2	0.00e+00	0	43	104	0	79	18527
2026-01-28 21:54:01.14	216.09	3.06	-54.2	-56.3	6.2	0.00e+00	0	43	104	0	79	18902
2026-01-28 21:54:04.05	216.39	3.23	-54.3	-56.4	6.2	0.00e+00	0	43	104	0	79	19105
2026-01-28 21:54:06.97	216.71	3.41	-54.2	-56.3	6.2	0.00e+00	0	43	104	0	79	18951
2026-01-28 21:54:09.88	217.02	3.59	-54.2	-56.3	6.2	0.00e+00	0	43	104	0	79	18893
2026-01-28 21:54:12.79	217.34	3.77	-54.1	-56.2	6.2	0.00e+00	0	44	104	0	79	18753
2026-01-28 21:54:15.70	217.67	3.95	-54.0	-56.1	6.2	0.00e+00	0	44	104	0	79	18449
2026-01-28 21:54:18.61	218.00	4.13	-53.8	-55.9	6.2	0.00e+00	0	44	104	0	79	18027
2026-01-28 21:54:21.53	218.34	4.31	-53.4	-55.5	6.2	0.00e+00	0	44	104	0	78	18224
2026-01-28 21:54:24.45	218.68	4.49	-52.7	-54.8	6.2	0.00e+00	0	44	104	0	77	17898
2026-01-28 21:54:27.37	219.03	4.68	-52.7	-54.8	6.2	0.00e+00	0	44	104	0	77	17844
2026-01-28 21:54:30.28	219.38	4.86	-52.7	-54.8	6.2	0.00e+00	0	44	104	0	77	17830
2026-01-28 21:54:33.20	219.74	5.05	-52.7	-54.8	6.2	0.00e+00	0	44	104	0	77	17828
2026-01-28 21:54:36.11	220.10	5.23	-52.8	-54.9	6.2	0.00e+00	0	44	104	0	77	17979
2026-01-28 21:54:39.03	220.47	5.42	-52.6	-54.7	6.2	0.00e+00	0	44	104	0	77	17585
2026-01-28 21:54:41.94	220.84	5.61	-52.6	-54.7	6.2	0.00e+00	0	44	104	0	77	17653
2026-01-28 21:54:44.85	221.22	5.80	-52.7	-54.8	6.2	0.00e+00	0	44	104	0	77	17815
2026-01-28 21:54:47.77	221.60	5.99	-52.7	-54.8	6.2	0.00e+00	0	44	104	0	77	17861
2026-01-28 21:54:50.69	222.00	6.18	-52.6	-54.7	6.2	0.00e+00	0	44	104	0	77	17669
2026-01-28 21:54:53.60	222.39	6.37	-52.7	-54.8	6.2	0.00e+00	0	44	104	0	77	17842
2026-01-28 21:54:56.52	222.80	6.56	-52.7	-54.8	6.2	0.00e+00	0	44	104	0	77	17924
2026-01-28 21:54:59.43	223.21	6.75	-52.6	-54.7	6.2	0.00e+00	0	44	104	0	77	17703
2026-01-28 21:55:02.34	223.62	6.95	-52.6	-54.7	6.2	0.00e+00	0	45	104	0	77	17703
2026-01-28 21:55:05.25	224.05	7.14	-52.7	-54.8	6.2	0.00e+00	0	44	104	0	77	17816
2026-01-28 21:55:08.16	224.48	7.34	-52.8	-54.9	6.2	0.00e+00	0	45	104	0	77	17977
2026-01-28 21:55:11.09	224.91	7.53	-52.6	-54.7	6.2	0.00e+00	0	44	104	0	77	17689
2026-01-28 21:55:14.01	225.36	7.73	-52.7	-54.8	6.2	0.00e+00	0	45	104	0	77	17773
2026-01-28 21:55:16.93	225.81	7.93	-52.7	-54.8	6.2	0.00e+00	0	45	104	0	77	17921
2026-01-28 21:55:19.83	226.27	8.13	-52.8	-54.8	6.2	0.00e+00	0	45	104	0	77	17969
2026-01-28 21:55:22.74	226.73	8.33	-52.7	-54.8	6.2	0.00e+00	0	45	104	0	77	17806
2026-01-28 21:55:25.66	227.21	8.53	-52.7	-54.8	6.2	0.00e+00	0	45	104	0	77	17935
2026-01-28 21:55:28.58	227.69	8.73	-52.8	-54.9	6.2	0.00e+00	0	45	104	0	77	18020
2026-01-28 21:55:31.49	228.18	8.93	-52.7	-54.8	6.2	0.00e+00	0	45	104	0	77	17835
2026-01-28 21:55:34.41	228.68	9.13	-52.7	-54.8	6.2	0.00e+00	0	45	104	0	77	17869
2026-01-28 21:55:37.32	229.18	9.33	-52.7	-54.9	6.2	0.00e+00	0	45	104	0	77	17973
2026-01-28 21:55:40.23	229.69	9.53	-52.8	-54.9	6.2	0.00e+00	0	45	104	0	77	18032
2026-01-28 21:55:43.14	230.21	9.73	-52.7	-54.8	6.2	0.00e+00	0	45	104	0	77	17937
2026-01-28 21:55:46.06	230.74	9.94	-52.8	-54.8	6.2	0.00e+00	0	45	104	0	77	17969
2026-01-28 21:55:48.97	231.28	10.14	-52.8	-54.9	6.2	0.00e+00	0	45	104	0	77	18045
2026-01-28 21:55:51.88	231.83	10.34	-52.8	-54.9	6.2	0.00e+00	0	45	104	0	77	18094
2026-01-28 21:55:54.80	232.39	10.55	-52.8	-54.8	6.2	0.00e+00	0	45	104	0	77	17971
2026-01-28 21:55:57.71	232.95	10.75	-52.8	-54.9	6.2	0.00e+00	0	45	104	0	77	18019
2026-01-28 21:56:00.62	233.53	10.95	-52.8	-54.9	6.2	0.00e+00	0	45	104	0	77	18069
2026-01-28 21:56:03.54	234.11	11.15	-52.8	-54.9	6.2	0.00e+00	0	45	104	0	77	18005
2026-01-28 21:56:06.45	234.70	11.36	-52.3	-54.0	6.2	0.00e+00	0	45	104	0	76	17342
2026-01-28 21:56:09.36	235.31	11.56	-52.3	-54.1	6.2	0.00e+00	0	45	104	0	76	17518
2026-01-28 21:56:12.28	235.92	11.76	-52.5	-54.4	6.2	0.00e+00	0	45	104	0	76	18060
2026-01-28 21:56:15.19	236.54	11.96	-52.2	-53.9	6.2	0.00e+00	0	45	104	0	76	17031
2026-01-28 21:56:18.10	237.18	12.16	-52.7	-54.7	6.2	0.00e+00	0	45	104	0	76	18744
2026-01-28 21:56:21.01	237.82	12.36	-52.2	-53.9	6.2	0.00e+00	0	45	104	0	76	17111
2026-01-28 21:56:23.93	238.47	12.56	-52.2	-54.0	6.2	0.00e+00	0	45	104	0	76	17179
2026-01-28 21:56:26.84	239.13	12.76	-52.1	-53.7	6.2	0.00e+00	0	45	104	0	76	16713
2026-01-28 21:56:29.75	239.81	12.96	-52.3	-54.0	6.2	0.00e+00	0	45	104	0	76	17351
2026-01-28 21:56:32.67	240.49	13.16	-52.3	-54.1	6.2	0.00e+00	0	45	104	0	76	17383
2026-01-28 21:56:35.59	241.19	13.35	-52.8	-54.9	6.2	0.00e+00	0	45	104	0	76	19141
2026-01-28 21:56:38.50	241.89	13.54	-52.1	-53.8	6.3	0.00e+00	0	45	104	0	76	16798
2026-01-28 21:56:41.41	242.61	13.74	-52.0	-53.6	6.3	0.00e+00	0	45	104	0	76	16572
2026-01-28 21:56:44.32	243.33	13.92	-53.0	-55.0	6.2	0.00e+00	0	45	104	0	76	19433
2026-01-28 21:56:47.24	244.07	14.11	-52.0	-53.6	6.3	0.00e+00	0	45	104	0	76	16545
2026-01-28 21:56:50.16	244.82	14.30	-52.0	-53.7	6.3	0.00e+00	0	45	104	0	76	16594
2026-01-28 21:56:53.08	245.58	14.48	-52.7	-54.7	6.2	0.00e+00	0	45	104	0	76	18641
2026-01-28 21:56:55.98	246.34	14.66	-52.1	-53.7	6.3	0.00e+00	0	45	104	0	76	16704
2026-01-28 21:56:58.90	247.13	14.84	-52.8	-54.9	6.2	0.00e+00	0	45	104	0	76	19036
2026-01-28 21:57:01.81	247.92	15.02	-53.1	-55.2	6.2	0.00e+00	0	45	104	0	76	19908
2026-01-28 21:57:04.72	248.72	15.19	-52.5	-54.3	6.2	0.00e+00	0	45	104	0	76	17910
2026-01-28 21:57:07.64	249.53	15.36	-53.1	-55.1	6.2	0.00e+00	0	45	104	0	76	19583
2026-01-28 21:57:10.55	250.35	15.52	-52.4	-54.1	6.2	0.00e+00	0	45	104	0	76	17394
2026-01-28 21:57:13.47	251.18	15.69	-52.2	-53.8	6.3	0.00e+00	0	45	104	0	76	16807
2026-01-28 21:57:16.39	252.03	15.85	-53.0	-55.0	6.2	0.00e+00	0	45	104	0	76	19406
2026-01-28 21:57:19.31	252.88	16.00	-53.0	-55.0	6.2	0.00e+00	0	45	104	0	76	19267
2026-01-28 21:57:22.23	253.74	16.15	-53.1	-55.2	6.2	0.00e+00	0	45	104	0	76	19737
2026-01-28 21:57:25.15	254.62	16.30	-53.0	-55.1	6.2	0.00e+00	0	45	104	0	76	19488
2026-01-28 21:57:28.06	255.50	16.44	-53.0	-55.1	6.2	0.00e+00	0	45	104	0	76	19541
2026-01-28 21:57:30.98	256.39	16.57	-53.0	-55.1	6.2	0.00e+00	0	45	104	0	76	19485
2026-01-28 21:57:33.89	257.29	16.70	-53.1	-55.1	6.2	0.00e+00	0	45	104	0	76	19671
2026-01-28 21:57:36.81	258.20	16.83	-53.0	-55.0	6.2	0.00e+00	0	45	104	0	76	19389
2026-01-28 21:57:39.72	259.11	16.95	-53.0	-55.0	6.2	0.00e+00	0	45	104	0	76	19408
2026-01-28 21:57:42.64	260.04	17.06	-53.1	-55.1	6.2	0.00e+00	0	45	104	0	76	19570
2026-01-28 21:57:45.55	260.97	17.17	-53.0	-55.1	6.2	0.00e+00	0	45	104	0	76	19564
2026-01-28 21:57:48.46	261.91	17.28	-53.0	-55.0	6.2	0.00e+00	0	45	104	0	76	19387
2026-01-28 21:57:51.39	262.86	17.37	-53.1	-55.1	6.2	0.00e+00	0	45	104	0	76	19540
2026-01-28 21:57:54.30	263.81	17.46	-53.2	-55.3	6.2	0.00e+00	0	45	104	0	76	19971
2026-01-28 21:57:57.22	264.77	17.55	-53.0	-55.1	6.2	0.00e+00	0	45	104	0	76	19598
2026-01-28 21:58:00.14	265.74	17.62	-53.1	-55.2	6.2	0.00e+00	0	45	104	0	77	18626
2026-01-28 21:58:03.06	266.71	17.69	-53.3	-55.3	6.2	0.00e+00	0	45	104	0	77	18987
2026-01-28 21:58:05.97	267.69	17.75	-53.3	-55.4	6.2	0.00e+00	0	45	104	0	77	19170
2026-01-28 21:58:08.88	268.66	17.81	-53.2	-55.2	6.2	0.00e+00	0	45	104	0	77	18769
2026-01-28 21:58:11.79	269.65	17.86	-53.2	-55.2	6.2	0.00e+00	0	45	104	0	77	18762
2026-01-28 21:58:14.70	270.63	17.90	-53.3	-55.4	6.2	0.00e+00	0	45	104	0	77	19175
2026-01-28 21:58:17.62	271.62	17.93	-53.4	-55.4	6.2	0.00e+00	0	45	104	0	77	19230
2026-01-28 21:58:20.54	272.61	17.96	-53.3	-55.4	6.2	0.00e+00	0	45	104	0	77	19105
2026-01-28 21:58:23.46	273.61	17.98	-53.4	-55.5	6.2	0.00e+00	0	45	104	0	77	19314
2026-01-28 21:58:26.38	274.60	17.99	-53.4	-55.5	6.2	0.00e+00	0	45	104	0	77	19289
2026-01-28 21:58:29.29	275.60	17.99	-53.4	-55.5	6.2	0.00e+00	0	45	104	0	77	19259
2026-01-28 21:58:32.21	276.59	17.99	-53.4	-55.4	6.2	0.00e+00	0	45	104	0	77	19069
2026-01-28 21:58:35.12	277.58	17.98	-53.6	-55.7	6.2	0.00e+00	0	45	104	0	77	19744
2026-01-28 21:58:38.03	278.58	17.96	-53.7	-55.8	6.2	0.00e+00	0	45	104	0	77	20010
2026-01-28 21:58:40.95	279.57	17.93	-53.5	-55.6	6.2	0.00e+00	0	45	104	0	77	19502
2026-01-28 21:58:43.86	280.55	17.90	-53.7	-55.7	6.2	0.00e+00	0	45	104	0	78	18707
2026-01-28 21:58:46.79	281.54	17.86	-53.6	-55.6	6.2	0.00e+00	0	46	104	0	78	18437
2026-01-28 21:58:49.71	282.53	17.81	-53.7	-55.7	6.2	0.00e+00	0	45	104	0	78	18706
2026-01-28 21:58:52.61	283.50	17.75	-53.7	-55.8	6.2	0.00e+00	0	45	104	0	78	18849
2026-01-28 21:58:55.52	284.47	17.69	-53.7	-55.7	6.2	0.00e+00	0	45	104	0	78	18759
2026-01-28 21:58:58.43	285.44	17.62	-53.7	-55.7	6.2	0.00e+00	0	45	104	0	78	18803
2026-01-28 21:59:01.34	286.40	17.54	-53.6	-55.7	6.2	0.00e+00	0	45	104	0	78	18686
2026-01-28 21:59:04.25	287.36	17.46	-53.6	-55.6	6.2	0.00e+00	0	45	104	0	78	18545
2026-01-28 21:59:07.17	288.31	17.37	-53.7	-55.7	6.2	0.00e+00	0	45	104	0	78	18652
2026-01-28 21:59:10.09	289.26	17.27	-53.6	-55.6	6.2	0.00e+00	0	45	104	0	78	18576
2026-01-28 21:59:13.00	290.20	17.17	-53.7	-55.6	6.2	0.00e+00	0	45	104	0	78	18573
2026-01-28 21:59:15.91	291.13	17.06	-53.5	-55.4	6.2	0.00e+00	0	45	104	0	78	18123
2026-01-28 21:59:18.83	292.05	16.95	-53.3	-55.0	6.2	0.00e+00	0	45	104	0	78	17330
2026-01-28 21:59:21.75	292.97	16.83	-53.5	-55.3	6.2	0.00e+00	0	45	104	0	78	17882
2026-01-28 21:59:24.67	293.87	16.70	-53.5	-55.3	6.2	0.00e+00	0	45	104	0	78	17968
2026-01-28 21:59:27.59	294.77	16.57	-53.1	-54.8	6.2	0.00e+00	0	45	104	0	78	16808
2026-01-28 21:59:30.51	295.66	16.43	-53.0	-54.7	6.2	0.00e+00	0	45	104	0	78	16621
2026-01-28 21:59:33.43	296.54	16.29	-53.0	-54.6	6.2	0.00e+00	0	45	104	0	77	17462
2026-01-28 21:59:36.36	297.42	16.15	-53.2	-55.1	6.2	0.00e+00	0	46	104	0	77	18422
2026-01-28 21:59:39.27	298.28	16.00	-53.4	-55.2	6.2	0.00e+00	0	45	104	0	77	18721
2026-01-28 21:59:42.19	299.13	15.84	-52.1	-53.4	6.3	0.00e+00	0	45	104	0	76	16043
2026-01-28 21:59:45.11	299.97	15.69	-52.5	-54.0	6.3	0.00e+00	0	45	104	0	76	17252
2026-01-28 21:59:48.03	300.80	15.52	-53.1	-54.9	6.2	0.00e+00	0	45	104	0	76	19066
2026-01-28 21:59:50.94	301.62	15.36	-52.5	-54.0	6.3	0.00e+00	0	45	104	0	77	16357
2026-01-28 21:59:53.85	302.43	15.19	-53.3	-55.2	6.2	0.00e+00	0	45	104	0	77	18611
2026-01-28 21:59:56.76	303.22	15.02	-52.6	-54.1	6.3	0.00e+00	0	45	104	0	77	16544
2026-01-28 21:59:59.67	304.01	14.84	-52.9	-54.6	6.3	0.00e+00	0	45	104	0	77	17507
2026-01-28 22:00:02.58	304.79	14.67	-53.5	-55.6	6.2	0.00e+00	0	45	104	0	77	19560
2026-01-28 22:00:05.51	305.56	14.48	-53.5	-55.5	6.2	0.00e+00	0	45	104	0	77	19259
2026-01-28 22:00:08.43	306.31	14.30	-52.8	-54.5	6.2	0.00e+00	0	45	104	0	77	17311
2026-01-28 22:00:11.34	307.06	14.12	-53.2	-55.1	6.2	0.00e+00	0	45	104	0	77	18472
2026-01-28 22:00:14.27	307.80	13.93	-53.6	-55.7	6.2	0.00e+00	0	45	104	0	77	19820
2026-01-28 22:00:17.19	308.52	13.74	-53.0	-54.8	6.2	0.00e+00	0	45	104	0	77	17836
2026-01-28 22:00:20.11	309.24	13.55	-53.3	-55.1	6.2	0.00e+00	0	45	104	0	77	18543
2026-01-28 22:00:23.03	309.94	13.35	-53.0	-54.8	6.2	0.00e+00	0	46	104	0	77	17773
2026-01-28 22:00:25.95	310.63	13.16	-52.8	-54.5	6.2	0.00e+00	0	45	104	0	77	17274
2026-01-28 22:00:28.87	311.32	12.96	-53.4	-55.4	6.2	0.00e+00	0	45	104	0	77	19173
2026-01-28 22:00:31.79	311.99	12.77	-53.0	-54.8	6.2	0.00e+00	0	45	104	0	77	17778
2026-01-28 22:00:34.71	312.65	12.57	-53.0	-54.8	6.2	0.00e+00	0	45	104	0	77	17835
2026-01-28 22:00:37.63	313.30	12.37	-52.9	-54.7	6.2	0.00e+00	0	45	104	0	77	17708
2026-01-28 22:00:40.54	313.94	12.17	-52.7	-54.4	6.2	0.00e+00	0	45	104	0	77	17044
2026-01-28 22:00:43.46	314.57	11.97	-53.3	-55.3	6.2	0.00e+00	0	45	104	0	77	18987
2026-01-28 22:00:46.38	315.20	11.77	-53.0	-54.7	6.2	0.00e+00	0	45	104	0	77	17742
2026-01-28 22:00:49.29	315.81	11.57	-52.3	-53.8	6.3	0.00e+00	0	45	104	0	76	16784
2026-01-28 22:00:52.21	316.41	11.37	-53.2	-55.2	6.2	0.00e+00	0	45	104	0	77	18620
2026-01-28 22:00:55.13	317.00	11.17	-52.1	-53.5	6.3	0.00e+00	0	46	104	0	76	16335
2026-01-28 22:00:58.04	317.58	10.96	-52.1	-53.7	6.3	0.00e+00	0	45	104	0	75	17603
2026-01-28 22:01:00.96	318.16	10.76	-52.0	-53.4	6.3	0.00e+00	0	45	104	0	76	16028
2026-01-28 22:01:03.87	318.72	10.56	-51.9	-53.3	6.3	0.00e+00	0	45	104	0	75	16779
2026-01-28 22:01:06.79	319.27	10.36	-52.4	-54.0	6.3	0.00e+00	0	45	104	0	75	18255
2026-01-28 22:01:09.70	319.82	10.16	-53.1	-55.1	6.2	0.00e+00	0	45	104	0	76	19503
2026-01-28 22:01:12.61	320.36	9.95	-51.8	-53.1	6.3	0.00e+00	0	45	104	0	75	16543
2026-01-28 22:01:15.51	320.88	9.75	-52.8	-54.7	6.2	0.00e+00	0	45	104	0	76	18669
2026-01-28 22:01:18.43	321.40	9.55	-53.0	-54.9	6.2	0.00e+00	0	45	104	0	77	18158
2026-01-28 22:01:21.34	321.91	9.35	-51.9	-53.4	6.3	0.00e+00	0	45	104	0	75	17036
2026-01-28 22:01:24.25	322.42	9.15	-52.8	-54.7	6.2	0.00e+00	0	45	104	0	76	18622
2026-01-28 22:01:27.17	322.91	8.95	-51.8	-53.2	6.3	0.00e+00	0	45	104	0	75	16770
2026-01-28 22:01:30.08	323.40	8.75	-53.0	-55.0	6.2	0.00e+00	0	45	104	0	76	19430
2026-01-28 22:01:33.00	323.88	8.55	-53.2	-55.3	6.2	0.00e+00	0	46	104	0	77	18842
2026-01-28 22:01:35.91	324.35	8.35	-53.2	-55.3	6.2	0.00e+00	0	45	104	0	77	18890
2026-01-28 22:01:38.83	324.82	8.16	-53.0	-55.1	6.2	0.00e+00	0	45	104	0	77	18485
2026-01-28 22:01:41.74	325.27	7.96	-53.0	-55.0	6.2	0.00e+00	0	45	104	0	77	18363
2026-01-28 22:01:44.65	325.72	7.76	-52.9	-55.0	6.2	0.00e+00	0	45	104	0	77	18375
2026-01-28 22:01:47.56	326.17	7.57	-52.9	-55.0	6.2	0.00e+00	0	45	104	0	77	18341
2026-01-28 22:01:50.47	326.60	7.37	-52.8	-54.9	6.2	0.00e+00	0	45	104	0	77	18112
2026-01-28 22:01:53.39	327.03	7.18	-52.8	-54.9	6.2	0.00e+00	0	45	104	0	77	17996
2026-01-28 22:01:56.30	327.45	6.99	-52.9	-55.0	6.2	0.00e+00	0	45	104	0	77	18180
2026-01-28 22:01:59.21	327.87	6.79	-52.7	-54.8	6.2	0.00e+00	0	45	104	0	77	17965
2026-01-28 22:02:02.13	328.28	6.60	-52.7	-54.8	6.2	0.00e+00	0	45	104	0	77	17877
2026-01-28 22:02:05.04	328.68	6.41	-52.7	-54.8	6.2	0.00e+00	0	45	104	0	77	17874
2026-01-28 22:02:07.95	329.08	6.22	-52.8	-54.9	6.2	0.00e+00	0	45	104	0	77	18044
2026-01-28 22:02:10.87	329.47	6.03	-52.6	-54.7	6.2	0.00e+00	0	45	104	0	77	17583
2026-01-28 22:02:13.78	329.85	5.84	-52.6	-54.7	6.2	0.00e+00	0	45	104	0	77	17686
2026-01-28 22:02:16.69	330.23	5.65	-52.5	-54.6	6.2	0.00e+00	0	45	104	0	77	17513
2026-01-28 22:02:19.61	330.61	5.47	-52.6	-54.7	6.2	0.00e+00	0	45	104	0	76	18647
2026-01-28 22:02:22.53	330.97	5.28	-52.4	-54.5	6.2	0.00e+00	0	45	104	0	76	18269
2026-01-28 22:02:25.45	331.34	5.09	-52.4	-54.5	6.2	0.00e+00	0	45	104	0	76	18360
2026-01-28 22:02:28.36	331.69	4.91	-53.3	-55.4	6.2	0.00e+00	0	45	104	0	77	19202
2026-01-28 22:02:31.28	332.05	4.73	-53.7	-55.8	6.2	0.00e+00	0	45	104	0	77	20020
2026-01-28 22:02:34.19	332.39	4.54	-53.7	-55.8	6.2	0.00e+00	0	45	104	0	77	19969
2026-01-28 22:02:37.11	332.73	4.36	-53.4	-55.6	6.2	0.00e+00	0	45	104	0	77	19484
2026-01-28 22:02:40.01	333.07	4.18	-53.4	-55.5	6.2	0.00e+00	0	45	104	0	77	19345
2026-01-28 22:02:42.92	333.40	4.00	-53.5	-55.6	6.2	0.00e+00	0	45	104	0	77	19551
2026-01-28 22:02:45.83	333.72	3.82	-53.5	-55.6	6.2	0.00e+00	0	45	104	0	77	19626
2026-01-28 22:02:48.75	334.05	3.65	-53.5	-55.6	6.2	0.00e+00	0	45	104	0	77	19630
2026-01-28 22:02:51.66	334.36	3.47	-53.5	-55.5	6.2	0.00e+00	0	45	104	0	77	19474
2026-01-28 22:02:54.58	334.68	3.29	-53.4	-55.5	6.2	0.00e+00	0	45	104	0	77	19388
2026-01-28 22:02:57.48	334.98	3.12	-53.4	-55.5	6.2	0.00e+00	0	45	104	0	77	19378
2026-01-28 22:03:00.40	335.29	2.94	-53.4	-55.4	6.2	0.00e+00	0	45	104	0	77	19250
2026-01-28 22:03:03.31	335.59	2.77	-53.4	-55.4	6.2	0.00e+00	0	46	104	0	77	19241
2026-01-28 22:03:06.22	335.88	2.60	-53.3	-55.4	6.2	0.00e+00	0	45	104	0	77	19144
2026-01-28 22:03:09.13	336.17	2.43	-53.3	-55.4	6.2	0.00e+00	0	45	104	0	77	19132
2026-01-28 22:03:12.05	336.46	2.25	-53.3	-55.4	6.2	0.00e+00	0	45	104	0	77	19091
2026-01-28 22:03:14.96	336.75	2.08	-53.3	-55.3	6.2	0.00e+00	0	45	104	0	77	19032
2026-01-28 22:03:17.88	337.03	1.91	-53.2	-55.3	6.2	0.00e+00	0	45	104	0	77	18842

#Closed at: 2026-01-28 22:03:18
#Recorded file [0 MB]: D:/lorett/data/31041_260129_005343.dat