passes_logs/2026/01/28/R3.2S_Murmansk/R3.2S_Murmansk__20260128_020809_SUOMI_NPP_rec.log

#Pass ID: 20260128_020809_SUOMI NPP
#Satellite: SUOMI NPP
#Configuration: NPP
#almurnet v.1.7.20251203
#Start time: 2026-01-28 02:08:09

#Version: 2.2.20231116
#Station: R3.2S_Murmansk
#Location: 33.079688 lon 68.888172 lat
#TLE: 1 37849U 11061A   26027.29799992  .00000188  00000+0  11027-3 0  9993
#TLE: 2 37849  98.7822 329.2414 0002113  42.5791 317.5548 14.19530708738457

#Time	Az	El	Level	Level2	SNR	BER	BlckErr	Temp	State	Recorded	gain1	gain2
2026-01-28 02:08:09.25	31.12	2.00	-54.0	-69.0	3.8	1.49e+00	0	41	0	0	79	20484
2026-01-28 02:08:13.27	31.00	2.26	-54.2	-69.2	3.8	1.49e+00	0	41	104	0	78	22052
2026-01-28 02:08:17.31	30.88	2.51	-54.2	-69.1	3.8	1.49e+00	0	41	104	0	78	21970
2026-01-28 02:08:21.33	30.76	2.77	-54.1	-69.0	3.8	1.49e+00	0	41	104	0	78	21712
2026-01-28 02:08:25.36	30.63	3.03	-54.0	-68.9	3.8	1.49e+00	0	41	104	0	78	21459
2026-01-28 02:08:29.39	30.50	3.29	-53.6	-68.6	3.8	1.49e+00	0	41	104	0	78	20658
2026-01-28 02:08:33.43	30.37	3.55	-52.9	-67.9	3.8	1.49e+00	0	41	104	0	77	20140
2026-01-28 02:08:37.46	30.24	3.82	-51.6	-61.5	4.9	7.69e-01	0	42	0	2097152	75	10887
2026-01-28 02:08:41.50	30.10	4.09	-51.4	-60.0	5.8	3.80e-01	0	42	0	9437184	74	9687
2026-01-28 02:08:45.53	29.96	4.36	-51.0	-58.1	7.4	1.29e-01	0	42	0	16777216	74	7769
2026-01-28 02:08:49.56	29.82	4.63	-50.1	-55.1	10.5	8.05e-03	0	42	0	25165824	72	6147
2026-01-28 02:08:53.59	29.67	4.91	-49.7	-54.0	11.8	5.51e-04	0	42	0	32505856	71	5741
2026-01-28 02:08:57.63	29.52	5.19	-50.5	-55.9	10.2	2.86e-03	0	42	0	39845888	71	7203
2026-01-28 02:09:01.65	29.37	5.47	-46.8	-48.9	16.9	0.00e+00	0	42	0	42991616	65	4500
2026-01-28 02:09:05.69	29.22	5.75	-46.9	-48.9	16.9	0.00e+00	0	42	0	50331648	65	4541
2026-01-28 02:09:09.72	29.06	6.04	-46.3	-48.2	17.8	0.00e+00	0	42	0	57671680	64	4401
2026-01-28 02:09:13.75	28.90	6.33	-46.5	-48.4	17.5	0.00e+00	0	42	0	65011712	64	4526
2026-01-28 02:09:17.78	28.73	6.62	-46.4	-48.2	17.7	0.00e+00	0	42	0	73400320	64	4435
2026-01-28 02:09:21.80	28.56	6.92	-46.2	-48.0	17.9	0.00e+00	0	42	0	80740352	64	4337
2026-01-28 02:09:25.83	28.39	7.22	-46.2	-48.0	18.1	0.00e+00	0	42	0	88080384	64	4309
2026-01-28 02:09:29.86	28.22	7.52	-46.3	-48.0	18.1	0.00e+00	0	42	0	95420416	63	4598
2026-01-28 02:09:33.89	28.03	7.83	-46.2	-47.9	18.2	0.00e+00	0	42	0	102760448	63	4530
2026-01-28 02:09:37.93	27.85	8.14	-46.0	-47.7	18.6	0.00e+00	0	42	0	111149056	63	4400
2026-01-28 02:09:41.95	27.66	8.45	-46.0	-47.7	18.5	0.00e+00	0	42	0	118489088	63	4405
2026-01-28 02:09:45.99	27.47	8.77	-45.9	-47.5	18.8	0.00e+00	0	43	0	125829120	63	4318
2026-01-28 02:09:50.01	27.27	9.09	-46.1	-47.8	18.5	0.00e+00	0	43	0	133169152	63	4460
2026-01-28 02:09:54.04	27.06	9.41	-45.8	-47.4	18.8	0.00e+00	0	43	0	140509184	63	4289
2026-01-28 02:09:58.07	26.86	9.74	-45.7	-47.3	19.0	0.00e+00	0	43	0	148897792	63	4205
2026-01-28 02:10:02.11	26.64	10.07	-45.8	-47.4	19.0	0.00e+00	0	43	0	156237824	63	4258
2026-01-28 02:10:06.14	26.42	10.41	-45.8	-47.4	19.0	0.00e+00	0	43	0	163577856	63	4268
2026-01-28 02:10:10.17	26.20	10.75	-45.7	-47.2	19.1	0.00e+00	0	43	0	170917888	63	4179
2026-01-28 02:10:14.20	25.97	11.09	-45.5	-47.0	19.3	0.00e+00	0	43	0	178257920	62	4323
2026-01-28 02:10:18.23	25.74	11.44	-45.4	-46.9	19.4	0.00e+00	0	42	0	186646528	62	4265
2026-01-28 02:10:22.27	25.49	11.80	-45.5	-47.1	19.4	0.00e+00	0	43	0	193986560	62	4344
2026-01-28 02:10:26.29	25.25	12.15	-45.4	-46.8	19.5	0.00e+00	0	43	0	201326592	62	4233
2026-01-28 02:10:30.33	24.99	12.52	-45.4	-46.8	19.6	0.00e+00	0	43	0	208666624	62	4237
2026-01-28 02:10:34.34	24.73	12.88	-45.5	-47.0	19.5	0.00e+00	0	43	0	216006656	62	4300
2026-01-28 02:10:38.37	24.46	13.26	-45.4	-46.9	19.5	0.00e+00	0	43	0	224395264	62	4268
2026-01-28 02:10:42.40	24.19	13.63	-45.4	-46.9	19.6	0.00e+00	0	43	0	231735296	62	4260
2026-01-28 02:10:46.44	23.90	14.02	-45.6	-47.1	19.4	0.00e+00	0	43	0	239075328	62	4390
2026-01-28 02:10:50.47	23.61	14.41	-45.7	-47.3	19.2	0.00e+00	0	43	0	246415360	62	4454
2026-01-28 02:10:54.50	23.31	14.80	-45.5	-47.1	19.4	0.00e+00	0	43	0	254803968	62	4355
2026-01-28 02:10:58.53	23.00	15.20	-45.5	-47.0	19.5	0.00e+00	0	43	0	262144000	62	4327
2026-01-28 02:11:02.56	22.69	15.61	-45.6	-47.1	19.5	0.00e+00	0	43	0	269484032	62	4387
2026-01-28 02:11:06.58	22.36	16.02	-45.7	-47.2	19.4	0.00e+00	0	43	0	276824064	62	4421
2026-01-28 02:11:10.61	22.03	16.43	-45.8	-47.3	19.4	0.00e+00	0	43	0	284164096	62	4453
2026-01-28 02:11:14.64	21.68	16.86	-45.6	-47.1	19.6	0.00e+00	0	43	0	291504128	62	4347
2026-01-28 02:11:18.66	21.33	17.28	-45.5	-46.9	19.7	0.00e+00	0	43	0	299892736	62	4285
2026-01-28 02:11:22.69	20.96	17.72	-45.3	-46.7	19.9	0.00e+00	0	43	0	307232768	62	4175
2026-01-28 02:11:26.72	20.59	18.16	-44.9	-46.3	20.2	0.00e+00	0	43	0	314572800	61	4201
2026-01-28 02:11:30.75	20.20	18.61	-45.1	-46.5	20.1	0.00e+00	0	43	0	321912832	61	4323
2026-01-28 02:11:34.79	19.79	19.07	-45.3	-46.7	19.9	0.00e+00	0	43	0	330301440	61	4423
2026-01-28 02:11:38.82	19.38	19.53	-45.7	-47.2	19.5	0.00e+00	0	43	0	337641472	62	4426
2026-01-28 02:11:42.85	18.95	20.00	-45.9	-47.5	19.3	0.00e+00	0	43	0	344981504	62	4548
2026-01-28 02:11:46.88	18.51	20.48	-46.3	-47.9	18.9	0.00e+00	0	43	0	352321536	63	4532
2026-01-28 02:11:50.91	18.06	20.96	-46.3	-48.0	18.9	0.00e+00	0	43	0	359661568	63	4550
2026-01-28 02:11:54.93	17.59	21.45	-46.0	-47.5	19.4	0.00e+00	0	43	0	368050176	63	4294
2026-01-28 02:11:58.96	17.10	21.95	-45.9	-47.4	19.5	0.00e+00	0	43	0	375390208	63	4258
2026-01-28 02:12:02.99	16.60	22.46	-46.3	-47.9	19.0	0.00e+00	0	43	0	382730240	63	4522
2026-01-28 02:12:07.01	16.08	22.97	-46.5	-48.2	18.7	0.00e+00	0	43	0	390070272	63	4658
2026-01-28 02:12:11.04	15.54	23.50	-46.5	-48.2	18.6	0.00e+00	0	43	0	397410304	64	4392
2026-01-28 02:12:15.08	14.98	24.03	-46.3	-47.9	19.0	0.00e+00	0	43	0	405798912	63	4520
2026-01-28 02:12:19.11	14.41	24.57	-46.6	-48.3	18.6	0.00e+00	0	43	0	413138944	63	4732
2026-01-28 02:12:23.14	13.81	25.11	-46.6	-48.4	18.5	0.00e+00	0	43	0	420478976	64	4512
2026-01-28 02:12:27.16	13.19	25.67	-46.4	-48.1	18.7	0.00e+00	0	43	0	427819008	64	4376
2026-01-28 02:12:31.19	12.55	26.23	-46.0	-47.5	19.4	0.00e+00	0	43	0	435159040	63	4330
2026-01-28 02:12:35.22	11.88	26.80	-46.2	-47.8	19.1	0.00e+00	0	43	0	443547648	63	4446
2026-01-28 02:12:39.25	11.19	27.37	-45.8	-47.3	19.5	0.00e+00	0	43	0	450887680	63	4215
2026-01-28 02:12:43.29	10.47	27.96	-46.0	-47.5	19.4	0.00e+00	0	43	0	458227712	63	4337
2026-01-28 02:12:47.32	9.73	28.55	-46.4	-47.9	19.0	0.00e+00	0	43	0	465567744	63	4537
2026-01-28 02:12:51.36	8.96	29.15	-46.3	-47.9	19.0	0.00e+00	0	43	0	473956352	64	4281
2026-01-28 02:12:55.39	8.15	29.76	-47.0	-48.8	18.1	0.00e+00	0	43	0	481296384	64	4751
2026-01-28 02:12:59.42	7.32	30.37	-47.0	-48.8	18.2	0.00e+00	0	43	0	488636416	65	4453
2026-01-28 02:13:03.45	6.45	30.99	-47.5	-49.4	17.6	0.00e+00	0	43	0	495976448	65	4804
2026-01-28 02:13:07.48	5.55	31.61	-47.4	-49.3	17.7	0.00e+00	0	43	0	503316480	65	4740
2026-01-28 02:13:11.51	4.61	32.24	-47.4	-49.2	17.9	0.00e+00	0	43	0	511705088	65	4689
2026-01-28 02:13:15.54	3.64	32.87	-46.9	-48.5	18.6	0.00e+00	0	43	0	519045120	65	4319
2026-01-28 02:13:19.57	2.63	33.51	-47.4	-49.3	17.8	0.00e+00	0	43	0	526385152	65	4706
2026-01-28 02:13:23.60	1.57	34.14	-47.8	-49.9	17.2	0.00e+00	0	43	0	533725184	66	4774
2026-01-28 02:13:27.62	0.48	34.78	-48.5	-50.9	16.3	0.00e+00	0	43	0	541065216	67	5042
2026-01-28 02:13:31.65	359.33	35.42	-49.0	-51.6	15.7	0.00e+00	0	43	0	549453824	69	4907
2026-01-28 02:13:35.69	358.14	36.06	-47.4	-49.2	18.0	0.00e+00	0	43	0	556793856	66	4441
2026-01-28 02:13:39.71	356.91	36.70	-47.2	-48.9	18.3	0.00e+00	0	43	0	564133888	66	4280
2026-01-28 02:13:43.74	355.62	37.34	-47.6	-49.5	17.7	0.00e+00	0	43	0	571473920	65	4853
2026-01-28 02:13:47.77	354.28	37.96	-48.6	-51.1	16.3	0.00e+00	0	43	0	578813952	68	4877
2026-01-28 02:13:51.80	352.89	38.59	-47.6	-49.5	17.7	0.00e+00	0	43	0	587202560	67	4329
2026-01-28 02:13:55.82	351.45	39.20	-47.2	-49.0	18.1	0.00e+00	0	43	0	594542592	65	4573
2026-01-28 02:13:59.86	349.95	39.80	-48.9	-51.6	15.8	0.00e+00	0	43	0	601882624	68	5192
2026-01-28 02:14:03.89	348.39	40.39	-45.8	-47.1	20.0	0.00e+00	0	43	0	609222656	63	4136
2026-01-28 02:14:07.92	346.78	40.96	-47.3	-49.3	18.0	0.00e+00	0	43	0	616562688	65	4713
2026-01-28 02:14:11.96	345.10	41.52	-46.3	-47.9	19.3	0.00e+00	0	43	0	624951296	64	4257
2026-01-28 02:14:16.00	343.37	42.06	-46.3	-48.0	19.2	0.00e+00	0	43	0	632291328	64	4295
2026-01-28 02:14:20.03	341.58	42.57	-45.8	-47.3	19.8	0.00e+00	0	43	0	639631360	63	4200
2026-01-28 02:14:24.05	339.74	43.06	-45.7	-47.1	20.1	0.00e+00	0	43	0	646971392	63	4131
2026-01-28 02:14:28.09	337.84	43.51	-45.7	-47.2	20.0	0.00e+00	0	43	0	654311424	62	4409
2026-01-28 02:14:32.12	335.88	43.94	-45.9	-47.5	19.7	0.00e+00	0	43	0	662700032	62	4588
2026-01-28 02:14:36.15	333.88	44.33	-47.0	-48.9	18.3	0.00e+00	0	43	0	670040064	65	4537
2026-01-28 02:14:40.17	331.83	44.69	-47.5	-49.5	17.7	0.00e+00	0	43	0	677380096	66	4584
2026-01-28 02:14:44.21	329.73	45.00	-45.5	-46.8	20.3	0.00e+00	0	43	0	684720128	62	4225
2026-01-28 02:14:48.24	327.59	45.28	-46.5	-48.1	19.0	0.00e+00	0	43	0	692060160	64	4377
2026-01-28 02:14:52.27	325.42	45.51	-48.5	-50.9	16.4	0.00e+00	0	43	0	700448768	67	5055
2026-01-28 02:14:56.31	323.22	45.70	-47.1	-48.9	18.3	0.00e+00	0	43	0	707788800	65	4520
2026-01-28 02:15:00.33	321.00	45.84	-47.3	-49.2	18.1	0.00e+00	0	43	0	715128832	65	4666
2026-01-28 02:15:04.36	318.76	45.93	-47.8	-49.9	17.4	0.00e+00	0	43	0	722468864	66	4808
2026-01-28 02:15:08.39	316.51	45.97	-47.8	-50.0	17.2	0.00e+00	0	43	0	730857472	66	4859
2026-01-28 02:15:12.42	314.26	45.97	-47.7	-50.1	17.2	0.00e+00	0	43	0	738197504	65	5172
2026-01-28 02:15:16.45	312.01	45.91	-45.0	-46.3	20.7	0.00e+00	0	43	0	745537536	61	4198
2026-01-28 02:15:20.48	309.77	45.81	-47.0	-48.9	18.1	0.00e+00	0	43	0	752877568	65	4545
2026-01-28 02:15:24.51	307.55	45.66	-46.7	-48.6	18.7	0.00e+00	0	43	0	760217600	64	4604
2026-01-28 02:15:28.54	305.35	45.46	-48.0	-50.4	16.9	0.00e+00	0	43	0	767557632	67	4802
2026-01-28 02:15:32.57	303.19	45.22	-47.6	-49.6	17.7	0.00e+00	0	43	0	775946240	67	4390
2026-01-28 02:15:36.60	301.06	44.94	-46.9	-48.7	18.4	0.00e+00	0	43	0	783286272	65	4419
2026-01-28 02:15:40.63	298.97	44.61	-46.9	-48.8	18.4	0.00e+00	0	43	0	790626304	64	4729
2026-01-28 02:15:44.66	296.93	44.25	-46.4	-48.1	19.0	0.00e+00	0	43	0	797966336	64	4380
2026-01-28 02:15:48.68	294.94	43.85	-46.9	-48.9	18.3	0.00e+00	0	43	0	806354944	64	4775
2026-01-28 02:15:52.72	292.99	43.41	-45.4	-46.7	20.3	0.00e+00	0	43	0	813694976	62	4188
2026-01-28 02:15:56.75	291.10	42.95	-46.5	-48.3	18.8	0.00e+00	0	43	0	821035008	64	4490
2026-01-28 02:16:00.77	289.27	42.46	-45.6	-46.9	20.3	0.00e+00	0	43	0	828375040	62	4290
2026-01-28 02:16:04.80	287.49	41.94	-44.1	-45.2	21.7	0.00e+00	0	43	0	835715072	60	3950
2026-01-28 02:16:08.84	285.77	41.40	-43.5	-44.5	22.5	0.00e+00	0	43	0	844103680	58	4094
2026-01-28 02:16:12.87	284.11	40.84	-43.6	-44.7	22.5	0.00e+00	0	43	0	851443712	58	4167
2026-01-28 02:16:16.90	282.50	40.26	-43.6	-44.7	22.5	0.00e+00	0	43	0	858783744	59	3937
2026-01-28 02:16:20.93	280.96	39.66	-44.4	-45.6	21.4	0.00e+00	0	43	0	866123776	60	4122
2026-01-28 02:16:24.96	279.47	39.06	-45.4	-46.7	20.6	0.00e+00	0	43	0	874512384	62	4152
2026-01-28 02:16:28.99	278.03	38.44	-45.6	-46.9	20.4	0.00e+00	0	43	0	881852416	62	4258
2026-01-28 02:16:33.01	276.65	37.82	-46.2	-47.7	19.6	0.00e+00	0	43	0	889192448	63	4404
2026-01-28 02:16:37.05	275.32	37.19	-45.4	-46.7	20.5	0.00e+00	0	43	0	896532480	62	4189
2026-01-28 02:16:41.07	274.05	36.55	-45.6	-47.0	20.3	0.00e+00	0	43	0	903872512	61	4552
2026-01-28 02:16:45.10	272.82	35.91	-47.2	-49.0	18.3	0.00e+00	0	43	0	911212544	64	4834
2026-01-28 02:16:49.13	271.64	35.27	-46.3	-47.7	19.4	0.00e+00	0	43	0	919601152	64	4176
2026-01-28 02:16:53.16	270.50	34.63	-47.2	-49.0	18.3	0.00e+00	0	43	0	926941184	65	4574
2026-01-28 02:16:57.19	269.41	33.99	-49.2	-51.8	15.5	0.00e+00	0	43	0	934281216	69	5016
2026-01-28 02:17:01.23	268.36	33.35	-48.8	-51.2	16.2	0.00e+00	0	43	0	941621248	68	4940
2026-01-28 02:17:05.26	267.35	32.71	-48.9	-51.4	15.9	0.00e+00	0	43	0	950009856	69	4771
2026-01-28 02:17:09.29	266.39	32.08	-47.9	-49.8	17.5	0.00e+00	0	43	0	957349888	67	4491
2026-01-28 02:17:13.31	265.46	31.45	-47.6	-49.4	17.8	0.00e+00	0	43	0	964689920	66	4530
2026-01-28 02:17:17.35	264.56	30.83	-46.6	-48.3	18.9	0.00e+00	0	43	0	972029952	65	4201
2026-01-28 02:17:21.37	263.70	30.21	-48.0	-50.1	17.1	0.00e+00	0	43	0	979369984	66	4894
2026-01-28 02:17:25.41	262.87	29.60	-47.1	-48.9	18.4	0.00e+00	0	43	0	987758592	65	4496
2026-01-28 02:17:29.44	262.07	28.99	-47.0	-48.8	18.3	0.00e+00	0	43	0	995098624	65	4447
2026-01-28 02:17:33.47	261.30	28.39	-46.8	-48.5	18.6	0.00e+00	0	43	0	1002438656	65	4332
2026-01-28 02:17:37.49	260.57	27.80	-46.6	-48.3	18.8	0.00e+00	0	43	0	1009778688	65	4206
2026-01-28 02:17:41.53	259.85	27.22	-46.3	-47.8	19.2	0.00e+00	0	43	0	1017118720	64	4238
2026-01-28 02:17:45.56	259.17	26.64	-46.8	-48.5	18.5	0.00e+00	0	43	0	1025507328	64	4550
2026-01-28 02:17:49.59	258.50	26.07	-47.8	-49.8	17.2	0.00e+00	0	43	0	1032847360	66	4755
2026-01-28 02:17:53.61	257.87	25.51	-46.1	-47.6	19.4	0.00e+00	0	43	0	1040187392	63	4342
2026-01-28 02:17:57.64	257.25	24.96	-45.8	-47.2	19.7	0.00e+00	0	43	0	1047527424	62	4439
2026-01-28 02:18:01.67	256.66	24.41	-46.6	-48.3	18.7	0.00e+00	0	43	0	1054867456	64	4451
2026-01-28 02:18:05.70	256.08	23.87	-46.9	-48.6	18.2	0.00e+00	0	43	0	1063256064	64	4646
2026-01-28 02:18:09.74	255.53	23.34	-47.8	-49.9	17.1	0.00e+00	0	43	0	1070596096	66	4760
2026-01-28 02:18:13.77	254.99	22.82	-47.1	-48.8	18.2	0.00e+00	0	43	0	1077936128	66	4212
2026-01-28 02:18:17.79	254.47	22.31	-46.0	-47.4	19.6	0.00e+00	0	43	0	1085276160	63	4278
2026-01-28 02:18:21.82	253.97	21.80	-45.9	-47.3	19.7	0.00e+00	0	43	0	1092616192	63	4194
2026-01-28 02:18:25.85	253.49	21.30	-46.2	-47.7	19.3	0.00e+00	0	43	0	1101004800	63	4412
2026-01-28 02:18:29.87	253.02	20.81	-46.4	-48.0	19.0	0.00e+00	0	43	0	1108344832	63	4553
2026-01-28 02:18:33.89	252.57	20.33	-46.0	-47.5	19.4	0.00e+00	0	43	0	1115684864	63	4312
2026-01-28 02:18:37.93	252.13	19.85	-46.3	-47.9	19.1	0.00e+00	0	43	0	1123024896	63	4499
2026-01-28 02:18:41.95	251.70	19.38	-47.3	-49.2	17.7	0.00e+00	0	43	0	1130364928	65	4661
2026-01-28 02:18:45.99	251.29	18.92	-47.6	-49.6	17.4	0.00e+00	0	43	0	1138753536	66	4633
2026-01-28 02:18:50.02	250.89	18.47	-47.4	-49.2	17.7	0.00e+00	0	43	0	1146093568	66	4437
2026-01-28 02:18:54.04	250.50	18.02	-47.3	-49.2	17.7	0.00e+00	0	43	0	1153433600	66	4417
2026-01-28 02:18:58.08	250.12	17.57	-46.6	-48.3	18.5	0.00e+00	0	43	0	1160773632	65	4207
2026-01-28 02:19:02.11	249.76	17.14	-46.6	-48.2	18.5	0.00e+00	0	43	0	1168113664	64	4440
2026-01-28 02:19:06.13	249.40	16.71	-47.0	-48.8	18.0	0.00e+00	0	43	0	1176502272	64	4724
2026-01-28 02:19:10.17	249.06	16.29	-47.0	-48.9	18.0	0.00e+00	0	43	0	1183842304	65	4497
2026-01-28 02:19:14.20	248.72	15.87	-46.8	-48.5	18.2	0.00e+00	0	43	0	1191182336	65	4306
2026-01-28 02:19:18.23	248.40	15.46	-46.6	-48.3	18.4	0.00e+00	0	43	0	1198522368	65	4242
2026-01-28 02:19:22.26	248.08	15.06	-47.3	-49.2	17.6	0.00e+00	0	43	0	1206910976	65	4667
2026-01-28 02:19:26.29	247.77	14.66	-48.0	-50.2	16.5	0.00e+00	0	43	0	1214251008	66	4968
2026-01-28 02:19:30.32	247.47	14.26	-48.1	-50.3	16.5	0.00e+00	0	43	0	1221591040	67	4744
2026-01-28 02:19:34.36	247.18	13.88	-47.6	-49.7	17.1	0.00e+00	0	43	0	1228931072	67	4409
2026-01-28 02:19:38.39	246.90	13.49	-47.2	-49.0	17.6	0.00e+00	0	43	0	1236271104	66	4327
2026-01-28 02:19:42.41	246.62	13.12	-46.8	-48.5	18.1	0.00e+00	0	43	0	1243611136	65	4330
2026-01-28 02:19:46.44	246.35	12.74	-46.7	-48.5	18.1	0.00e+00	0	43	0	1251999744	65	4297
2026-01-28 02:19:50.47	246.09	12.38	-46.9	-48.7	17.8	0.00e+00	0	43	0	1259339776	65	4430
2026-01-28 02:19:54.50	245.84	12.01	-47.1	-49.0	17.6	0.00e+00	0	43	0	1266679808	65	4557
2026-01-28 02:19:58.53	245.59	11.66	-47.2	-49.2	17.4	0.00e+00	0	43	0	1274019840	65	4659
2026-01-28 02:20:02.56	245.35	11.30	-47.6	-49.7	16.8	0.00e+00	0	43	0	1282408448	65	4946
2026-01-28 02:20:06.58	245.11	10.96	-47.6	-49.6	16.8	0.00e+00	0	43	0	1289748480	65	4916
2026-01-28 02:20:10.62	244.88	10.61	-47.5	-49.5	17.0	0.00e+00	0	43	0	1297088512	66	4566
2026-01-28 02:20:14.65	244.66	10.27	-47.6	-49.8	16.6	0.00e+00	0	43	0	1304428544	66	4720
2026-01-28 02:20:18.68	244.44	9.94	-47.6	-49.8	16.5	0.00e+00	0	43	0	1311768576	66	4726
2026-01-28 02:20:22.72	244.22	9.60	-48.0	-50.3	16.0	0.00e+00	0	43	0	1320157184	66	5009
2026-01-28 02:20:26.75	244.01	9.28	-47.9	-50.2	16.2	0.00e+00	0	43	0	1327497216	66	4929
2026-01-28 02:20:30.78	243.81	8.95	-48.0	-50.3	16.1	0.00e+00	0	43	0	1334837248	66	5011
2026-01-28 02:20:34.81	243.61	8.63	-47.7	-50.0	16.4	0.00e+00	0	43	0	1342177280	66	4830
2026-01-28 02:20:38.83	243.41	8.32	-47.9	-50.2	16.1	0.00e+00	0	43	0	1349517312	66	4950
2026-01-28 02:20:42.87	243.22	8.00	-47.8	-50.0	16.3	0.00e+00	0	43	0	1357905920	66	4861
2026-01-28 02:20:46.90	243.04	7.69	-47.7	-50.0	16.3	0.00e+00	0	43	0	1365245952	66	4834
2026-01-28 02:20:50.93	242.86	7.39	-48.0	-50.4	15.9	0.00e+00	0	43	0	1372585984	66	5071
2026-01-28 02:20:54.96	242.68	7.09	-48.2	-50.7	15.5	0.00e+00	0	43	0	1379926016	66	5248
2026-01-28 02:20:58.99	242.50	6.79	-48.3	-50.9	15.3	0.00e+00	0	43	0	1387266048	67	5087
2026-01-28 02:21:03.02	242.33	6.49	-48.2	-50.8	15.3	0.00e+00	0	43	0	1395654656	67	5031
2026-01-28 02:21:07.05	242.17	6.20	-48.5	-51.2	14.9	0.00e+00	0	43	0	1402994688	67	5264
2026-01-28 02:21:11.08	242.00	5.91	-48.5	-51.3	14.8	0.00e+00	0	43	0	1410334720	67	5325
2026-01-28 02:21:15.11	241.84	5.62	-48.6	-51.4	14.7	0.00e+00	0	43	0	1417674752	68	5074
2026-01-28 02:21:19.14	241.69	5.34	-48.7	-51.7	14.4	1.50e-06	0	43	0	1425014784	68	5230
2026-01-28 02:21:23.17	241.53	5.06	-48.7	-51.8	14.2	4.50e-06	0	43	0	1433403392	68	5287
2026-01-28 02:21:27.21	241.38	4.78	-53.0	-68.0	3.8	1.49e+00	0	43	104	1434451968	76	21622
2026-01-28 02:21:31.23	241.24	4.50	-53.2	-68.2	3.8	1.49e+00	0	43	104	1434451968	77	20907
2026-01-28 02:21:35.26	241.09	4.23	-53.1	-68.1	3.8	1.49e+00	0	43	104	1434451968	77	20616
2026-01-28 02:21:39.29	240.95	3.96	-53.0	-67.9	3.8	1.49e+00	0	43	104	1434451968	77	20292
2026-01-28 02:21:43.32	240.81	3.69	-53.2	-68.1	3.8	1.49e+00	0	43	104	1434451968	77	20724
2026-01-28 02:21:47.36	240.68	3.42	-53.2	-68.1	3.8	1.49e+00	0	43	104	1434451968	77	20685
2026-01-28 02:21:51.39	240.55	3.16	-53.1	-68.1	3.8	1.49e+00	0	43	104	1434451968	77	20609
2026-01-28 02:21:55.42	240.42	2.90	-53.1	-68.1	3.8	1.49e+00	0	43	104	1434451968	77	20540
2026-01-28 02:21:59.45	240.29	2.64	-53.1	-68.0	3.8	1.49e+00	0	43	104	1434451968	77	20472
2026-01-28 02:22:03.49	240.16	2.38	-53.1	-68.0	3.8	1.49e+00	0	43	104	1434451968	77	20496
2026-01-28 02:22:07.51	240.04	2.13	-53.1	-68.0	3.8	1.49e+00	0	43	104	1434451968	77	20477
2026-01-28 02:22:11.54	239.92	1.88	-53.0	-68.0	3.8	1.49e+00	0	44	104	1434451968	77	20409

#Closed at: 2026-01-28 02:22:11
#Recorded file [1434 MB]: D:/lorett/data/31041_260128_050809.dat