passes_logs/2026/01/28/R3.2S_Murmansk/R3.2S_Murmansk__20260128_100457_TY-42_rec.log

#Pass ID: 20260128_100457_TY-42
#Satellite: TY-42
#Configuration: TY-42_900M
#almurnet v.1.7.20251203
#Start time: 2026-01-28 10:04:59

#Version: 2.2.20231116
#Station: R3.2S_Murmansk
#Location: 33.079688 lon 68.888172 lat
#TLE: 1 64048U 25103A   26027.88263889  .00008008  00000-0  38191-3 0 09993
#TLE: 2 64048 097.4119 103.0583 0001740 093.1169 297.5293 15.19162476 38770

#Time	Az	El	Level	Level2	SNR	BER	BlckErr	Temp	State	Recorded	gain1	gain2
2026-01-28 10:04:59.03	21.37	2.08	-54.4	-56.5	6.2	0.00e+00	0	49	0	0	79	19418
2026-01-28 10:05:02.06	21.29	2.29	-54.3	-56.5	6.2	0.00e+00	0	50	104	0	80	18206
2026-01-28 10:05:05.09	21.21	2.50	-54.5	-56.6	6.2	0.00e+00	0	50	104	0	80	18481
2026-01-28 10:05:08.12	21.13	2.71	-54.6	-56.7	6.2	0.00e+00	0	50	104	0	80	18686
2026-01-28 10:05:11.14	21.04	2.93	-54.5	-56.6	6.2	0.00e+00	0	50	104	0	80	18589
2026-01-28 10:05:14.16	20.96	3.15	-54.4	-56.5	6.2	0.00e+00	0	50	104	0	80	18330
2026-01-28 10:05:17.18	20.87	3.37	-54.4	-56.5	6.2	0.00e+00	0	50	104	0	80	18257
2026-01-28 10:05:20.20	20.78	3.59	-54.1	-56.3	6.2	0.00e+00	0	50	104	0	80	17836
2026-01-28 10:05:23.23	20.68	3.81	-53.9	-56.0	6.2	0.00e+00	0	51	104	0	79	18245
2026-01-28 10:05:26.25	20.59	4.04	-53.1	-55.2	6.2	0.00e+00	0	51	104	0	77	18726
2026-01-28 10:05:29.28	20.49	4.27	-52.5	-54.6	6.2	0.00e+00	0	51	104	0	77	17512
2026-01-28 10:05:32.30	20.39	4.50	-52.5	-54.6	6.2	0.00e+00	0	51	104	0	77	17478
2026-01-28 10:05:35.33	20.29	4.74	-52.5	-54.6	6.2	0.00e+00	0	51	104	0	77	17471
2026-01-28 10:05:38.34	20.19	4.97	-52.5	-54.6	6.2	0.00e+00	0	51	104	0	76	18471
2026-01-28 10:05:41.37	20.08	5.21	-48.7	-50.8	6.2	0.00e+00	0	52	104	0	69	17966
2026-01-28 10:05:44.39	19.98	5.46	-48.6	-50.8	6.2	0.00e+00	0	52	104	0	69	17786
2026-01-28 10:05:47.41	19.87	5.70	-48.6	-50.7	6.2	0.00e+00	0	52	104	0	69	17616
2026-01-28 10:05:50.43	19.75	5.95	-48.6	-50.7	6.2	0.00e+00	0	52	104	0	69	17722
2026-01-28 10:05:53.45	19.64	6.20	-48.6	-50.7	6.2	0.00e+00	0	52	104	0	69	17694
2026-01-28 10:05:56.48	19.52	6.46	-48.6	-50.7	6.2	0.00e+00	0	52	104	0	69	17699
2026-01-28 10:05:59.51	19.39	6.72	-48.5	-50.7	6.2	0.00e+00	0	52	104	0	69	17633
2026-01-28 10:06:02.53	19.27	6.98	-48.6	-50.7	6.2	0.00e+00	0	52	104	0	69	17591
2026-01-28 10:06:05.55	19.14	7.24	-48.6	-50.7	6.2	0.00e+00	0	52	104	0	69	17696
2026-01-28 10:06:08.58	19.01	7.51	-48.6	-50.7	6.2	0.00e+00	0	52	104	0	69	17725
2026-01-28 10:06:11.60	18.88	7.78	-48.6	-50.7	6.2	0.00e+00	0	52	104	0	69	17695
2026-01-28 10:06:14.62	18.74	8.06	-48.6	-50.7	6.2	0.00e+00	0	52	104	0	69	17681
2026-01-28 10:06:17.64	18.60	8.34	-48.6	-50.7	6.2	0.00e+00	0	52	104	0	69	17715
2026-01-28 10:06:20.66	18.45	8.62	-48.6	-50.7	6.2	0.00e+00	0	52	104	0	69	17732
2026-01-28 10:06:23.69	18.30	8.91	-48.6	-50.7	6.2	0.00e+00	0	53	104	0	69	17754
2026-01-28 10:06:26.71	18.15	9.20	-48.6	-50.7	6.2	0.00e+00	0	53	104	0	69	17764
2026-01-28 10:06:29.74	17.99	9.50	-49.1	-51.2	6.2	0.00e+00	0	53	104	0	69	18803
2026-01-28 10:06:32.76	17.83	9.80	-52.1	-54.2	6.2	0.00e+00	0	53	104	0	74	19786
2026-01-28 10:06:35.79	17.66	10.11	-52.7	-54.7	6.2	0.00e+00	0	53	104	0	76	18794
2026-01-28 10:06:38.80	17.49	10.42	-52.7	-54.7	6.2	0.00e+00	0	53	104	0	76	18654
2026-01-28 10:06:41.83	17.32	10.73	-52.7	-54.6	6.2	0.00e+00	0	53	104	0	76	18596
2026-01-28 10:06:44.85	17.13	11.06	-52.9	-55.0	6.2	0.00e+00	0	53	104	0	76	19358
2026-01-28 10:06:47.87	16.95	11.38	-52.9	-55.1	6.2	0.00e+00	0	53	104	0	76	19509
2026-01-28 10:06:50.89	16.76	11.71	-52.9	-55.1	6.2	0.00e+00	0	53	104	0	76	19480
2026-01-28 10:06:53.91	16.56	12.05	-52.9	-55.0	6.2	0.00e+00	0	53	104	0	76	19441
2026-01-28 10:06:56.93	16.36	12.39	-52.9	-55.0	6.2	0.00e+00	0	53	104	0	76	19373
2026-01-28 10:06:59.96	16.15	12.74	-52.9	-55.0	6.2	0.00e+00	0	53	104	0	76	19309
2026-01-28 10:07:02.99	15.93	13.10	-52.9	-55.0	6.2	0.00e+00	0	53	104	0	76	19436
2026-01-28 10:07:06.01	15.71	13.46	-52.9	-55.0	6.2	0.00e+00	0	53	104	0	76	19399
2026-01-28 10:07:09.03	15.48	13.83	-52.8	-54.9	6.2	0.00e+00	0	53	104	0	76	19236
2026-01-28 10:07:12.06	15.24	14.21	-52.9	-55.0	6.2	0.00e+00	0	53	104	0	76	19319
2026-01-28 10:07:15.09	15.00	14.59	-52.9	-55.0	6.2	0.00e+00	0	53	104	0	76	19356
2026-01-28 10:07:18.11	14.75	14.99	-52.9	-55.0	6.2	0.00e+00	0	53	104	0	76	19432
2026-01-28 10:07:21.13	14.49	15.38	-52.9	-55.0	6.2	0.00e+00	0	53	104	0	76	19305
2026-01-28 10:07:24.15	14.22	15.79	-52.9	-55.0	6.2	0.00e+00	0	53	104	0	76	19295
2026-01-28 10:07:27.18	13.94	16.21	-52.9	-55.0	6.2	0.00e+00	0	53	104	0	76	19375
2026-01-28 10:07:30.20	13.65	16.63	-52.8	-55.0	6.2	0.00e+00	0	53	104	0	76	19257
2026-01-28 10:07:33.22	13.35	17.06	-52.9	-55.0	6.2	0.00e+00	0	53	104	0	76	19303
2026-01-28 10:07:36.24	13.04	17.50	-52.8	-55.0	6.2	0.00e+00	0	53	104	0	76	19258
2026-01-28 10:07:39.27	12.72	17.96	-52.9	-55.0	6.2	0.00e+00	0	53	104	0	76	19344
2026-01-28 10:07:42.29	12.39	18.42	-52.9	-55.0	6.2	0.00e+00	0	53	104	0	76	19377
2026-01-28 10:07:45.31	12.05	18.89	-52.9	-55.0	6.2	0.00e+00	0	53	104	0	76	19411
2026-01-28 10:07:48.33	11.69	19.37	-53.0	-55.2	6.2	0.00e+00	0	53	104	0	76	19730
2026-01-28 10:07:51.36	11.32	19.86	-53.8	-56.0	6.2	0.00e+00	0	53	104	0	78	19322
2026-01-28 10:07:54.37	10.93	20.37	-54.2	-56.3	6.2	0.00e+00	0	53	104	0	78	20070
2026-01-28 10:07:57.39	10.53	20.88	-54.4	-56.6	6.2	0.00e+00	0	53	104	0	79	19595
2026-01-28 10:08:00.41	10.12	21.41	-54.6	-56.7	6.2	0.00e+00	0	54	104	0	79	19850
2026-01-28 10:08:03.43	9.68	21.95	-54.5	-56.6	6.2	0.00e+00	0	53	104	0	79	19692
2026-01-28 10:08:06.45	9.23	22.50	-54.5	-56.7	6.2	0.00e+00	0	54	104	0	79	19725
2026-01-28 10:08:09.47	8.76	23.07	-54.7	-56.8	6.2	0.00e+00	0	54	104	0	79	20002
2026-01-28 10:08:12.49	8.27	23.65	-54.7	-56.9	6.2	0.00e+00	0	53	104	0	79	20176
2026-01-28 10:08:15.51	7.76	24.24	-54.7	-56.8	6.2	0.00e+00	0	54	104	0	80	18986
2026-01-28 10:08:18.54	7.22	24.85	-54.6	-56.8	6.2	0.00e+00	0	54	104	0	80	18858
2026-01-28 10:08:21.56	6.66	25.48	-54.7	-56.8	6.2	0.00e+00	0	54	104	0	80	19018
2026-01-28 10:08:24.58	6.08	26.11	-54.6	-56.7	6.2	0.00e+00	0	54	104	0	80	18775
2026-01-28 10:08:27.60	5.47	26.77	-54.6	-56.7	6.2	0.00e+00	0	54	104	0	80	18688
2026-01-28 10:08:30.63	4.82	27.44	-54.5	-56.7	6.2	0.00e+00	0	54	104	0	80	18612
2026-01-28 10:08:33.65	4.15	28.13	-54.5	-56.7	6.2	0.00e+00	0	54	104	0	80	18644
2026-01-28 10:08:36.67	3.45	28.83	-54.5	-56.6	6.2	0.00e+00	0	53	104	0	80	18523
2026-01-28 10:08:39.70	2.70	29.55	-54.5	-56.6	6.2	0.00e+00	0	53	104	0	80	18518
2026-01-28 10:08:42.73	1.92	30.29	-54.5	-56.6	6.2	0.00e+00	0	54	104	0	80	18536
2026-01-28 10:08:45.75	1.10	31.04	-54.5	-56.6	6.2	0.00e+00	0	54	104	0	80	18533
2026-01-28 10:08:48.77	0.24	31.81	-54.5	-56.6	6.2	0.00e+00	0	54	104	0	80	18460
2026-01-28 10:08:51.80	359.33	32.60	-54.5	-56.6	6.2	0.00e+00	0	54	104	0	80	18458
2026-01-28 10:08:54.82	358.37	33.41	-54.5	-56.6	6.2	0.00e+00	0	54	104	0	80	18484
2026-01-28 10:08:57.85	357.36	34.23	-54.5	-56.6	6.2	0.00e+00	0	54	104	0	80	18465
2026-01-28 10:09:00.87	356.29	35.06	-54.4	-56.6	6.2	0.00e+00	0	53	104	0	80	18434
2026-01-28 10:09:03.89	355.16	35.91	-54.4	-56.6	6.2	0.00e+00	0	54	104	0	80	18450
2026-01-28 10:09:06.92	353.97	36.78	-54.4	-56.6	6.2	0.00e+00	0	54	104	0	80	18465
2026-01-28 10:09:09.94	352.70	37.65	-54.4	-56.6	6.2	0.00e+00	0	54	104	0	80	18426
2026-01-28 10:09:12.96	351.36	38.54	-54.4	-56.6	6.2	0.00e+00	0	54	104	0	80	18415
2026-01-28 10:09:15.98	349.95	39.43	-54.4	-56.6	6.2	0.00e+00	0	54	104	0	80	18436
2026-01-28 10:09:19.01	348.44	40.34	-54.4	-56.6	6.2	0.00e+00	0	54	104	0	80	18421
2026-01-28 10:09:22.03	346.84	41.24	-54.4	-56.6	6.2	0.00e+00	0	54	104	0	80	18410
2026-01-28 10:09:25.05	345.15	42.14	-54.4	-56.5	6.2	0.00e+00	0	54	104	0	80	18374
2026-01-28 10:09:28.07	343.36	43.04	-54.4	-56.6	6.2	0.00e+00	0	54	104	0	80	18410
2026-01-28 10:09:31.10	341.45	43.94	-54.4	-56.6	6.2	0.00e+00	0	54	104	0	80	18393
2026-01-28 10:09:34.12	339.44	44.81	-54.4	-56.5	6.2	0.00e+00	0	54	104	0	80	18313
2026-01-28 10:09:37.14	337.31	45.67	-54.4	-56.6	6.2	0.00e+00	0	54	104	0	80	18413
2026-01-28 10:09:40.16	335.06	46.51	-54.4	-56.5	6.2	0.00e+00	0	54	104	0	80	18389
2026-01-28 10:09:43.18	332.68	47.31	-54.4	-56.5	6.2	0.00e+00	0	54	104	0	80	18352
2026-01-28 10:09:46.20	330.17	48.07	-54.4	-56.6	6.2	0.00e+00	0	54	104	0	80	18438
2026-01-28 10:09:49.22	327.54	48.78	-54.4	-56.5	6.2	0.00e+00	0	54	104	0	80	18335
2026-01-28 10:09:52.25	324.78	49.44	-54.4	-56.5	6.2	0.00e+00	0	54	104	0	80	18342
2026-01-28 10:09:55.27	321.90	50.04	-54.4	-56.5	6.2	0.00e+00	0	54	104	0	80	18322
2026-01-28 10:09:58.29	318.91	50.57	-54.4	-56.5	6.2	0.00e+00	0	54	104	0	80	18293
2026-01-28 10:10:01.32	315.81	51.02	-54.4	-56.5	6.2	0.00e+00	0	54	104	0	80	18324
2026-01-28 10:10:04.33	312.65	51.38	-54.4	-56.5	6.2	0.00e+00	0	54	104	0	80	18295
2026-01-28 10:10:07.35	309.40	51.66	-54.4	-56.5	6.2	0.00e+00	0	54	104	0	80	18304
2026-01-28 10:10:10.38	306.09	51.84	-54.4	-56.5	6.2	0.00e+00	0	54	104	0	80	18340
2026-01-28 10:10:13.39	302.77	51.92	-54.4	-56.5	6.2	0.00e+00	0	54	104	0	80	18315
2026-01-28 10:10:16.42	299.42	51.91	-54.4	-56.5	6.2	0.00e+00	0	54	104	0	80	18288
2026-01-28 10:10:19.43	296.11	51.79	-54.3	-56.5	6.2	0.00e+00	0	54	104	0	80	18202
2026-01-28 10:10:22.45	292.82	51.58	-54.3	-56.5	6.2	0.00e+00	0	54	104	0	80	18191
2026-01-28 10:10:25.48	289.58	51.28	-54.3	-56.5	6.2	0.00e+00	0	54	104	0	80	18205
2026-01-28 10:10:28.51	286.42	50.88	-54.3	-56.5	6.2	0.00e+00	0	54	104	0	80	18208
2026-01-28 10:10:31.53	283.36	50.41	-54.3	-56.5	6.2	0.00e+00	0	54	104	0	80	18220
2026-01-28 10:10:34.55	280.40	49.86	-54.3	-56.4	6.2	0.00e+00	0	54	104	0	80	18150
2026-01-28 10:10:37.57	277.56	49.24	-54.3	-56.4	6.2	0.00e+00	0	54	104	0	80	18137
2026-01-28 10:10:40.59	274.84	48.56	-54.3	-56.4	6.2	0.00e+00	0	54	104	0	80	18177
2026-01-28 10:10:43.61	272.25	47.83	-54.3	-56.4	6.2	0.00e+00	0	54	104	0	80	18178
2026-01-28 10:10:46.64	269.77	47.05	-54.3	-56.4	6.2	0.00e+00	0	54	104	0	80	18125
2026-01-28 10:10:49.66	267.43	46.23	-54.3	-56.4	6.2	0.00e+00	0	54	104	0	80	18167
2026-01-28 10:10:52.68	265.21	45.39	-54.3	-56.4	6.2	0.00e+00	0	54	104	0	80	18137
2026-01-28 10:10:55.70	263.11	44.52	-54.3	-56.4	6.2	0.00e+00	0	54	104	0	80	18163
2026-01-28 10:10:58.72	261.13	43.64	-54.3	-56.4	6.2	0.00e+00	0	54	104	0	80	18158
2026-01-28 10:11:01.74	259.26	42.74	-54.3	-56.4	6.2	0.00e+00	0	54	104	0	80	18151
2026-01-28 10:11:04.77	257.49	41.83	-54.3	-56.5	6.2	0.00e+00	0	54	104	0	80	18200
2026-01-28 10:11:07.80	255.83	40.92	-54.3	-56.4	6.2	0.00e+00	0	54	104	0	80	18118
2026-01-28 10:11:10.82	254.26	40.02	-54.3	-56.4	6.2	0.00e+00	0	54	104	0	80	18150
2026-01-28 10:11:13.85	252.78	39.11	-54.3	-56.4	6.2	0.00e+00	0	54	104	0	80	18084
2026-01-28 10:11:16.86	251.39	38.22	-54.3	-56.4	6.2	0.00e+00	0	54	104	0	80	18149
2026-01-28 10:11:19.89	250.07	37.33	-54.3	-56.4	6.2	0.00e+00	0	54	104	0	80	18131
2026-01-28 10:11:22.91	248.82	36.46	-54.3	-56.4	6.2	0.00e+00	0	54	104	0	80	18070
2026-01-28 10:11:25.94	247.64	35.59	-54.3	-56.4	6.2	0.00e+00	0	54	104	0	80	18121
2026-01-28 10:11:28.96	246.53	34.75	-54.3	-56.4	6.2	0.00e+00	0	54	104	0	80	18116
2026-01-28 10:11:31.99	245.48	33.91	-54.3	-56.4	6.2	0.00e+00	0	54	104	0	80	18128
2026-01-28 10:11:35.01	244.48	33.09	-54.3	-56.4	6.2	0.00e+00	0	54	104	0	80	18099
2026-01-28 10:11:38.04	243.54	32.29	-54.3	-56.4	6.2	0.00e+00	0	54	104	0	80	18096
2026-01-28 10:11:41.06	242.64	31.51	-54.3	-56.4	6.2	0.00e+00	0	54	104	0	80	18130
2026-01-28 10:11:44.08	241.79	30.74	-54.3	-56.4	6.2	0.00e+00	0	54	104	0	80	18063
2026-01-28 10:11:47.11	240.98	29.99	-54.3	-56.4	6.2	0.00e+00	0	54	104	0	80	18060
2026-01-28 10:11:50.13	240.22	29.25	-54.3	-56.4	6.2	0.00e+00	0	54	104	0	80	18054
2026-01-28 10:11:53.15	239.49	28.54	-54.3	-56.4	6.2	0.00e+00	0	54	104	0	80	18038
2026-01-28 10:11:56.17	238.79	27.84	-54.3	-56.4	6.2	0.00e+00	0	54	104	0	80	18045
2026-01-28 10:11:59.20	238.12	27.15	-54.3	-56.4	6.2	0.00e+00	0	54	104	0	80	18057
2026-01-28 10:12:02.22	237.49	26.49	-54.3	-56.4	6.2	0.00e+00	0	54	104	0	80	18030
2026-01-28 10:12:05.24	236.89	25.83	-54.3	-56.4	6.2	0.00e+00	0	54	104	0	80	18062
2026-01-28 10:12:08.27	236.31	25.20	-54.3	-56.4	6.2	0.00e+00	0	54	104	0	80	18031
2026-01-28 10:12:11.29	235.75	24.58	-54.3	-56.4	6.2	0.00e+00	0	54	104	0	80	18069
2026-01-28 10:12:14.31	235.23	23.97	-54.2	-56.4	6.2	0.00e+00	0	54	104	0	80	18026
2026-01-28 10:12:17.34	234.72	23.38	-54.2	-56.4	6.2	0.00e+00	0	54	104	0	80	17994
2026-01-28 10:12:20.36	234.23	22.80	-54.3	-56.4	6.2	0.00e+00	0	54	104	0	80	18042
2026-01-28 10:12:23.39	233.77	22.24	-54.2	-56.4	6.2	0.00e+00	0	54	104	0	80	18028
2026-01-28 10:12:26.41	233.32	21.69	-54.2	-56.4	6.2	0.00e+00	0	54	104	0	80	18021
2026-01-28 10:12:29.43	232.89	21.15	-54.2	-56.4	6.2	0.00e+00	0	54	104	0	80	18068
2026-01-28 10:12:32.45	232.48	20.62	-54.2	-56.4	6.2	0.00e+00	0	54	104	0	80	18010
2026-01-28 10:12:35.48	232.08	20.11	-54.2	-56.4	6.2	0.00e+00	0	54	104	0	80	18004
2026-01-28 10:12:38.50	231.70	19.61	-54.3	-56.4	6.2	0.00e+00	0	54	104	0	80	18036
2026-01-28 10:12:41.53	231.33	19.12	-54.2	-56.4	6.2	0.00e+00	0	54	104	0	80	18043
2026-01-28 10:12:44.55	230.98	18.64	-54.2	-56.4	6.2	0.00e+00	0	54	104	0	80	18020
2026-01-28 10:12:47.58	230.63	18.17	-54.2	-56.4	6.2	0.00e+00	0	54	104	0	80	18011
2026-01-28 10:12:50.60	230.30	17.71	-54.2	-56.4	6.2	0.00e+00	0	54	104	0	80	17992
2026-01-28 10:12:53.63	229.99	17.26	-54.2	-56.4	6.2	0.00e+00	0	54	104	0	80	17985
2026-01-28 10:12:56.65	229.68	16.82	-54.2	-56.4	6.2	0.00e+00	0	54	104	0	80	18033
2026-01-28 10:12:59.68	229.38	16.39	-54.2	-56.3	6.2	0.00e+00	0	54	104	0	80	17971
2026-01-28 10:13:02.70	229.10	15.96	-54.2	-56.4	6.2	0.00e+00	0	54	104	0	80	17981
2026-01-28 10:13:05.72	228.82	15.55	-54.2	-56.3	6.2	0.00e+00	0	54	104	0	80	17936
2026-01-28 10:13:08.74	228.55	15.15	-54.2	-56.3	6.2	0.00e+00	0	54	104	0	80	17936
2026-01-28 10:13:11.76	228.29	14.75	-54.2	-56.3	6.2	0.00e+00	0	54	104	0	80	17931
2026-01-28 10:13:14.78	228.04	14.36	-54.2	-56.4	6.2	0.00e+00	0	54	104	0	80	17973
2026-01-28 10:13:17.80	227.80	13.98	-54.2	-56.4	6.2	0.00e+00	0	54	104	0	80	18004
2026-01-28 10:13:20.82	227.57	13.60	-54.2	-56.3	6.2	0.00e+00	0	54	104	0	80	17925
2026-01-28 10:13:23.84	227.34	13.24	-54.2	-56.3	6.2	0.00e+00	0	54	104	0	80	17905
2026-01-28 10:13:26.87	227.12	12.87	-54.2	-56.3	6.2	0.00e+00	0	54	104	0	80	17899
2026-01-28 10:13:29.88	226.90	12.52	-54.2	-56.4	6.2	0.00e+00	0	54	104	0	80	17981
2026-01-28 10:13:32.90	226.69	12.17	-54.2	-56.3	6.2	0.00e+00	0	54	104	0	80	17936
2026-01-28 10:13:35.92	226.49	11.83	-54.2	-56.3	6.2	0.00e+00	0	54	104	0	80	17824
2026-01-28 10:13:38.95	226.29	11.49	-54.2	-56.3	6.2	0.00e+00	0	54	104	0	80	17903
2026-01-28 10:13:41.97	226.10	11.16	-54.2	-56.3	6.2	0.00e+00	0	54	104	0	80	17837
2026-01-28 10:13:44.99	225.92	10.84	-54.1	-56.3	6.2	0.00e+00	0	54	104	0	80	17814
2026-01-28 10:13:48.02	225.74	10.52	-54.1	-56.3	6.2	0.00e+00	0	54	104	0	80	17782
2026-01-28 10:13:51.04	225.56	10.20	-54.1	-56.2	6.2	0.00e+00	0	54	104	0	80	17749
2026-01-28 10:13:54.06	225.39	9.89	-54.1	-56.3	6.2	0.00e+00	0	54	104	0	80	17773
2026-01-28 10:13:57.07	225.23	9.59	-54.1	-56.2	6.2	0.00e+00	0	54	104	0	80	17710
2026-01-28 10:14:00.09	225.06	9.29	-54.1	-56.3	6.2	0.00e+00	0	54	104	0	80	17783
2026-01-28 10:14:03.10	224.91	8.99	-54.1	-56.2	6.2	0.00e+00	0	54	104	0	80	17742
2026-01-28 10:14:06.13	224.75	8.70	-54.1	-56.2	6.2	0.00e+00	0	54	104	0	80	17739
2026-01-28 10:14:09.15	224.60	8.42	-54.1	-56.2	6.2	0.00e+00	0	54	104	0	80	17731
2026-01-28 10:14:12.18	224.46	8.13	-54.1	-56.2	6.2	0.00e+00	0	54	104	0	80	17696
2026-01-28 10:14:15.19	224.32	7.85	-54.1	-56.2	6.2	0.00e+00	0	54	104	0	80	17703
2026-01-28 10:14:18.21	224.18	7.58	-54.1	-56.2	6.2	0.00e+00	0	54	104	0	80	17748
2026-01-28 10:14:21.24	224.04	7.31	-54.1	-56.2	6.2	0.00e+00	0	54	104	0	80	17703
2026-01-28 10:14:24.26	223.91	7.04	-54.1	-56.2	6.2	0.00e+00	0	54	104	0	80	17677
2026-01-28 10:14:27.28	223.78	6.77	-54.1	-56.2	6.2	0.00e+00	0	54	104	0	80	17725
2026-01-28 10:14:30.31	223.66	6.51	-54.1	-56.2	6.2	0.00e+00	0	54	104	0	80	17719
2026-01-28 10:14:33.33	223.53	6.26	-54.1	-56.2	6.2	0.00e+00	0	54	104	0	80	17694
2026-01-28 10:14:36.35	223.41	6.00	-54.1	-56.2	6.2	0.00e+00	0	54	104	0	80	17676
2026-01-28 10:14:39.38	223.30	5.75	-54.1	-56.2	6.2	0.00e+00	0	54	104	0	80	17715
2026-01-28 10:14:42.41	223.18	5.50	-54.1	-56.2	6.2	0.00e+00	0	54	104	0	80	17710
2026-01-28 10:14:45.43	223.07	5.26	-54.1	-56.2	6.2	0.00e+00	0	54	104	0	80	17635
2026-01-28 10:14:48.46	222.96	5.01	-54.1	-56.2	6.2	0.00e+00	0	54	104	0	80	17709
2026-01-28 10:14:51.48	222.86	4.77	-54.1	-56.2	6.2	0.00e+00	0	54	104	0	80	17643
2026-01-28 10:14:54.50	222.75	4.54	-54.1	-56.2	6.2	0.00e+00	0	54	104	0	80	17692
2026-01-28 10:14:57.53	222.65	4.30	-54.1	-56.2	6.2	0.00e+00	0	54	104	0	80	17646
2026-01-28 10:15:00.55	222.55	4.07	-54.1	-56.2	6.2	0.00e+00	0	54	104	0	80	17630
2026-01-28 10:15:03.57	222.45	3.84	-54.1	-56.2	6.2	0.00e+00	0	54	104	0	80	17619
2026-01-28 10:15:06.59	222.36	3.62	-54.1	-56.2	6.2	0.00e+00	0	54	104	0	80	17666
2026-01-28 10:15:09.62	222.26	3.39	-54.1	-56.2	6.2	0.00e+00	0	54	104	0	80	17609
2026-01-28 10:15:12.64	222.17	3.17	-54.1	-56.2	6.2	0.00e+00	0	54	104	0	80	17661
2026-01-28 10:15:15.67	222.08	2.95	-54.1	-56.2	6.2	0.00e+00	0	54	104	0	80	17626
2026-01-28 10:15:18.69	221.99	2.73	-54.1	-56.2	6.2	0.00e+00	0	54	104	0	80	17614
2026-01-28 10:15:21.71	221.91	2.52	-54.1	-56.2	6.2	0.00e+00	0	54	104	0	80	17623
2026-01-28 10:15:24.74	221.82	2.30	-54.0	-56.2	6.2	0.00e+00	0	54	104	0	80	17614
2026-01-28 10:15:27.76	221.74	2.09	-54.1	-56.2	6.2	0.00e+00	0	54	104	0	80	17608

#Closed at: 2026-01-28 10:15:30
#Recorded file [0 MB]: D:/lorett/data/31041_260128_130458.dat