passes_logs/2026/01/28/R3.2S_Murmansk/R3.2S_Murmansk__20260128_204037_TY-39_rec.log

#Pass ID: 20260128_204037_TY-39
#Satellite: TY-39
#Configuration: TY-39
#almurnet v.1.7.20251203
#Start time: 2026-01-28 20:40:38

#Version: 2.2.20231116
#Station: R3.2S_Murmansk
#Location: 33.079688 lon 68.888172 lat
#TLE: 1 51832U 22019J   26027.53500954  .00003458  00000-0  16483-3 0  9996
#TLE: 2 51832  97.3625  93.9185 0008876  12.4294 347.7158 15.19733854216436

#Time	Az	El	Level	Level2	SNR	BER	BlckErr	Temp	State	Recorded	gain1	gain2
2026-01-28 20:40:38.99	230.00	2.09	-54.2	-56.3	3.7	0.00e+00	0	45	0	0	79	18882
2026-01-28 20:40:42.00	230.37	2.25	-54.4	-56.6	3.7	0.00e+00	0	46	104	0	80	18449
2026-01-28 20:40:45.03	230.75	2.41	-54.4	-56.5	3.7	0.00e+00	0	46	104	0	80	18307
2026-01-28 20:40:48.04	231.13	2.57	-54.3	-56.4	3.7	0.00e+00	0	46	104	0	80	18054
2026-01-28 20:40:51.07	231.52	2.73	-54.1	-56.2	3.7	0.00e+00	0	46	104	0	80	17678
2026-01-28 20:40:54.08	231.91	2.89	-53.9	-56.1	3.7	0.00e+00	0	46	104	0	79	18427
2026-01-28 20:40:57.10	232.31	3.05	-53.7	-55.8	3.7	0.00e+00	0	46	104	0	79	17831
2026-01-28 20:41:00.12	232.71	3.22	-53.0	-55.2	3.7	0.00e+00	0	46	104	0	78	17583
2026-01-28 20:41:03.15	233.12	3.38	-52.6	-54.7	3.7	0.00e+00	0	47	104	0	77	17748
2026-01-28 20:41:06.17	233.54	3.54	-52.6	-54.7	3.7	0.00e+00	0	47	104	0	77	17719
2026-01-28 20:41:09.19	233.96	3.70	-52.6	-54.7	3.7	0.00e+00	0	47	104	0	77	17737
2026-01-28 20:41:12.21	234.38	3.87	-52.6	-54.7	3.7	0.00e+00	0	47	104	0	77	17679
2026-01-28 20:41:15.23	234.82	4.03	-52.5	-54.7	3.7	0.00e+00	0	47	104	0	77	17604
2026-01-28 20:41:18.25	235.25	4.19	-52.5	-54.7	3.7	0.00e+00	0	47	104	0	77	17649
2026-01-28 20:41:21.28	235.70	4.36	-52.5	-54.7	3.7	0.00e+00	0	47	104	0	77	17594
2026-01-28 20:41:24.30	236.15	4.52	-52.5	-54.7	3.7	0.00e+00	0	47	104	0	77	17620
2026-01-28 20:41:27.32	236.61	4.68	-52.5	-54.7	3.7	0.00e+00	0	47	104	0	77	17583
2026-01-28 20:41:30.34	237.07	4.85	-52.5	-54.7	3.7	0.00e+00	0	47	104	0	77	17594
2026-01-28 20:41:33.37	237.54	5.01	-52.5	-54.7	3.7	0.00e+00	0	47	104	0	77	17587
2026-01-28 20:41:36.38	238.01	5.18	-52.6	-54.7	3.7	0.00e+00	0	48	104	0	77	17673
2026-01-28 20:41:39.40	238.49	5.34	-52.6	-54.7	3.7	0.00e+00	0	48	104	0	76	18808
2026-01-28 20:41:42.41	238.98	5.50	-52.5	-54.6	3.7	0.00e+00	0	48	104	0	76	18561
2026-01-28 20:41:45.43	239.48	5.67	-52.5	-54.6	3.7	0.00e+00	0	48	104	0	76	18475
2026-01-28 20:41:48.44	239.98	5.83	-52.5	-54.7	3.7	0.00e+00	0	48	104	0	76	18611
2026-01-28 20:41:51.45	240.48	5.99	-52.6	-54.7	3.7	0.00e+00	0	48	104	0	76	18797
2026-01-28 20:41:54.47	241.00	6.15	-52.5	-54.6	3.7	0.00e+00	0	48	104	0	76	18601
2026-01-28 20:41:57.49	241.52	6.32	-52.5	-54.6	3.7	0.00e+00	0	48	104	0	76	18557
2026-01-28 20:42:00.51	242.05	6.48	-52.6	-54.7	3.7	0.00e+00	0	48	104	0	76	18712
2026-01-28 20:42:03.53	242.59	6.64	-52.6	-54.8	3.7	0.00e+00	0	48	104	0	76	18852
2026-01-28 20:42:06.55	243.13	6.80	-45.8	-45.9	7.3	1.48e-01	1628	50	0	50331648	63	14429
2026-01-28 20:42:09.57	243.68	6.96	-44.1	-44.1	8.9	4.73e-02	0	49	0	276824064	60	13906
2026-01-28 20:42:12.60	244.24	7.12	-40.2	-40.1	12.2	2.22e-04	0	49	0	511705088	52	13897
2026-01-28 20:42:15.62	244.81	7.28	-39.1	-39.0	13.1	0.00e+00	0	49	0	738197504	50	13716
2026-01-28 20:42:18.64	245.38	7.44	-38.0	-37.9	13.7	0.00e+00	0	49	0	956301312	48	13608
2026-01-28 20:42:21.65	245.96	7.60	-37.1	-37.1	13.3	0.00e+00	0	49	0	1182793728	46	13854
2026-01-28 20:42:24.68	246.56	7.75	-37.0	-36.9	13.4	6.90e-06	0	49	0	1409286144	46	13613
2026-01-28 20:42:27.70	247.15	7.91	-37.4	-37.3	13.1	6.90e-06	0	50	0	1644167168	46	14269
2026-01-28 20:42:30.72	247.76	8.06	-36.9	-36.8	13.5	6.90e-06	0	50	0	1870659584	45	14260
2026-01-28 20:42:33.74	248.37	8.22	-36.8	-36.7	13.6	0.00e+00	0	50	0	2088763392	45	14037
2026-01-28 20:42:36.75	248.99	8.37	-36.8	-36.8	13.6	1.38e-05	0	50	0	2315255808	45	14128
2026-01-28 20:42:39.77	249.61	8.52	-36.6	-36.6	13.7	0.00e+00	0	50	0	2541748224	45	13830
2026-01-28 20:42:42.79	250.25	8.67	-36.6	-36.6	13.7	0.00e+00	0	50	0	2776629248	45	13834
2026-01-28 20:42:45.81	250.89	8.82	-36.6	-36.6	13.7	6.90e-06	0	50	0	3003121664	45	13806
2026-01-28 20:42:48.83	251.54	8.96	-36.5	-36.4	13.8	0.00e+00	0	50	0	3221225472	44	14372
2026-01-28 20:42:51.86	252.20	9.11	-36.5	-36.4	13.8	0.00e+00	0	50	0	3447717888	44	14418
2026-01-28 20:42:54.88	252.87	9.25	-36.5	-36.4	13.8	6.90e-06	0	50	0	3674210304	44	14346
2026-01-28 20:42:57.90	253.55	9.39	-36.4	-36.3	13.7	0.00e+00	0	50	0	3909091328	44	14242
2026-01-28 20:43:00.93	254.23	9.53	-36.3	-36.2	13.8	0.00e+00	0	50	0	4135583744	44	14089
2026-01-28 20:43:03.95	254.92	9.67	-36.2	-36.1	13.9	0.00e+00	0	50	0	4362076160	44	13899
2026-01-28 20:43:06.98	255.62	9.81	-36.2	-36.1	13.9	0.00e+00	0	50	0	4580179968	44	13950
2026-01-28 20:43:09.99	256.32	9.94	-36.3	-36.2	13.9	0.00e+00	0	50	0	4815060992	44	14056
2026-01-28 20:43:13.01	257.04	10.07	-36.2	-36.2	13.9	1.38e-05	0	50	0	5041553408	44	13973
2026-01-28 20:43:16.02	257.75	10.20	-36.1	-36.0	14.0	0.00e+00	0	51	0	5268045824	44	13759
2026-01-28 20:43:19.05	258.48	10.32	-36.0	-35.9	14.1	0.00e+00	0	51	0	5494538240	44	13555
2026-01-28 20:43:22.07	259.22	10.45	-36.2	-36.1	14.0	0.00e+00	0	50	0	5712642048	43	14707
2026-01-28 20:43:25.10	259.96	10.57	-36.2	-36.1	14.0	0.00e+00	0	51	0	5947523072	43	14721
2026-01-28 20:43:28.12	260.71	10.68	-36.1	-36.0	14.1	0.00e+00	0	51	0	6174015488	43	14567
2026-01-28 20:43:31.14	261.47	10.80	-36.0	-36.0	14.1	0.00e+00	0	50	0	6400507904	43	14454
2026-01-28 20:43:34.17	262.23	10.91	-36.1	-36.0	14.1	0.00e+00	0	51	0	6627000320	43	14482
2026-01-28 20:43:37.18	263.00	11.01	-35.9	-35.9	14.2	0.00e+00	0	51	0	6845104128	43	14296
2026-01-28 20:43:40.19	263.77	11.12	-36.1	-36.0	14.1	0.00e+00	0	51	0	7079985152	43	14487
2026-01-28 20:43:43.21	264.56	11.22	-36.0	-35.9	14.2	0.00e+00	0	51	0	7306477568	43	14402
2026-01-28 20:43:46.23	265.35	11.31	-35.9	-35.8	14.2	0.00e+00	0	51	0	7532969984	43	14214
2026-01-28 20:43:49.25	266.14	11.40	-36.0	-35.9	14.2	0.00e+00	0	51	0	7759462400	43	14358
2026-01-28 20:43:52.27	266.94	11.49	-35.8	-35.7	14.3	0.00e+00	0	51	0	7977566208	43	14054
2026-01-28 20:43:55.30	267.75	11.58	-36.0	-35.9	14.2	0.00e+00	0	51	0	8212447232	43	14400
2026-01-28 20:43:58.32	268.56	11.66	-35.7	-35.6	14.3	0.00e+00	0	51	0	8438939648	43	13881
2026-01-28 20:44:01.35	269.38	11.73	-35.8	-35.7	14.3	0.00e+00	0	51	0	8665432064	43	14021
2026-01-28 20:44:04.37	270.20	11.81	-35.8	-35.7	14.3	0.00e+00	0	51	0	8891924480	43	14087
2026-01-28 20:44:07.39	271.03	11.87	-35.7	-35.6	14.4	0.00e+00	0	51	0	9110028288	43	13831
2026-01-28 20:44:10.41	271.86	11.94	-35.6	-35.5	14.4	0.00e+00	0	51	0	9344909312	43	13775
2026-01-28 20:44:13.43	272.69	12.00	-35.7	-35.7	14.3	0.00e+00	0	51	0	9571401728	43	13965
2026-01-28 20:44:16.45	273.53	12.05	-35.8	-35.7	14.3	0.00e+00	0	51	0	9797894144	43	14097
2026-01-28 20:44:19.48	274.37	12.10	-35.7	-35.6	14.4	0.00e+00	0	51	0	10024386560	43	13910
2026-01-28 20:44:22.49	275.21	12.14	-35.6	-35.6	14.4	0.00e+00	0	51	0	10250878976	43	13802
2026-01-28 20:44:25.52	276.06	12.18	-35.7	-35.6	14.4	0.00e+00	0	51	0	10477371392	43	13860
2026-01-28 20:44:28.54	276.91	12.22	-35.7	-35.6	14.4	0.00e+00	0	51	0	10703863808	43	13912
2026-01-28 20:44:31.56	277.76	12.25	-35.7	-35.6	14.4	0.00e+00	0	51	0	10930356224	43	13934
2026-01-28 20:44:34.58	278.61	12.27	-35.7	-35.6	14.4	0.00e+00	0	51	0	11156848640	43	13891
2026-01-28 20:44:37.61	279.47	12.29	-35.7	-35.6	14.4	0.00e+00	0	51	0	11383341056	43	13912
2026-01-28 20:44:40.63	280.33	12.31	-35.8	-35.7	14.4	0.00e+00	0	51	0	11609833472	43	13987
2026-01-28 20:44:43.64	281.18	12.32	-35.8	-35.7	14.4	0.00e+00	0	51	0	11836325888	43	13977
2026-01-28 20:44:46.66	282.04	12.32	-35.7	-35.6	14.4	0.00e+00	0	51	0	12062818304	43	13916
2026-01-28 20:44:49.67	282.89	12.32	-35.8	-35.7	14.4	0.00e+00	0	51	0	12289310720	43	14075
2026-01-28 20:44:52.69	283.74	12.31	-35.7	-35.7	14.4	0.00e+00	0	51	0	12515803136	43	13981
2026-01-28 20:44:55.71	284.60	12.30	-35.9	-35.8	14.4	0.00e+00	0	51	0	12742295552	43	14140
2026-01-28 20:44:58.73	285.45	12.29	-35.8	-35.8	14.4	0.00e+00	0	51	0	12968787968	43	14122
2026-01-28 20:45:01.75	286.31	12.27	-35.9	-35.9	14.3	0.00e+00	0	51	0	13195280384	43	14310
2026-01-28 20:45:04.77	287.16	12.24	-35.8	-35.7	14.4	0.00e+00	0	51	0	13421772800	43	14091
2026-01-28 20:45:07.80	288.01	12.21	-35.9	-35.8	14.4	0.00e+00	0	51	0	13648265216	43	14185
2026-01-28 20:45:10.82	288.86	12.18	-35.9	-35.8	14.4	0.00e+00	0	51	0	13874757632	43	14165
2026-01-28 20:45:13.84	289.70	12.14	-35.9	-35.8	14.4	0.00e+00	0	51	0	14101250048	43	14274
2026-01-28 20:45:16.86	290.54	12.09	-35.9	-35.8	14.4	0.00e+00	0	51	0	14327742464	43	14230
2026-01-28 20:45:19.87	291.38	12.04	-35.9	-35.8	14.4	0.00e+00	0	51	0	14554234880	43	14237
2026-01-28 20:45:22.89	292.21	11.99	-35.9	-35.8	14.4	0.00e+00	0	51	0	14780727296	43	14261
2026-01-28 20:45:25.91	293.04	11.93	-36.0	-35.9	14.3	0.00e+00	0	51	0	15007219712	43	14424
2026-01-28 20:45:28.93	293.87	11.86	-35.9	-35.8	14.4	0.00e+00	0	51	0	15233712128	43	14228
2026-01-28 20:45:31.95	294.69	11.80	-36.1	-36.0	14.3	0.00e+00	0	51	0	15460204544	43	14581
2026-01-28 20:45:34.98	295.51	11.72	-36.1	-36.0	14.3	0.00e+00	0	51	0	15678308352	43	14587
2026-01-28 20:45:38.01	296.32	11.65	-35.9	-35.9	14.3	0.00e+00	0	51	0	15913189376	43	14281
2026-01-28 20:45:41.03	297.13	11.57	-36.0	-35.9	14.3	0.00e+00	0	51	0	16139681792	43	14402
2026-01-28 20:45:44.04	297.93	11.48	-36.0	-36.0	14.2	0.00e+00	0	51	0	16366174208	43	14454
2026-01-28 20:45:47.06	298.72	11.39	-36.1	-36.0	14.2	0.00e+00	0	51	0	16592666624	43	14516
2026-01-28 20:45:50.08	299.51	11.30	-36.1	-36.0	14.1	0.00e+00	0	51	0	16819159040	43	14485
2026-01-28 20:45:53.10	300.30	11.20	-36.2	-36.1	14.0	0.00e+00	0	51	0	17045651456	43	14652
2026-01-28 20:45:56.13	301.08	11.10	-36.1	-36.0	14.1	0.00e+00	0	51	0	17272143872	43	14567
2026-01-28 20:45:59.14	301.84	11.00	-36.1	-36.1	14.1	0.00e+00	0	51	0	17498636288	43	14625
2026-01-28 20:46:02.17	302.61	10.89	-36.1	-36.1	14.1	0.00e+00	0	51	0	17725128704	43	14650
2026-01-28 20:46:05.19	303.37	10.79	-36.2	-36.1	14.1	0.00e+00	0	51	0	17951621120	43	14667
2026-01-28 20:46:08.21	304.12	10.67	-36.2	-36.1	14.0	0.00e+00	0	51	0	18178113536	43	14720
2026-01-28 20:46:11.23	304.86	10.56	-36.3	-36.2	14.0	0.00e+00	0	51	0	18404605952	43	14921
2026-01-28 20:46:14.25	305.60	10.44	-36.3	-36.2	14.0	0.00e+00	0	51	0	18631098368	43	14905
2026-01-28 20:46:17.27	306.33	10.32	-36.3	-36.2	14.0	0.00e+00	0	51	0	18857590784	43	14869
2026-01-28 20:46:20.28	307.05	10.19	-36.3	-36.3	14.0	0.00e+00	0	51	0	19084083200	43	14962
2026-01-28 20:46:23.30	307.76	10.06	-36.3	-36.2	14.0	0.00e+00	0	51	0	19310575616	43	14917
2026-01-28 20:46:26.31	308.46	9.94	-36.3	-36.3	13.9	6.90e-06	0	51	0	19537068032	43	15000
2026-01-28 20:46:29.33	309.16	9.80	-36.5	-36.4	13.8	0.00e+00	0	51	0	19763560448	43	15237
2026-01-28 20:46:32.36	309.86	9.67	-36.5	-36.4	13.8	0.00e+00	0	51	0	19990052864	43	15211
2026-01-28 20:46:35.38	310.54	9.53	-36.6	-36.5	13.7	0.00e+00	0	51	0	20216545280	43	15376
2026-01-28 20:46:38.40	311.21	9.39	-36.5	-36.4	13.8	0.00e+00	0	51	0	20443037696	43	15243
2026-01-28 20:46:41.42	311.88	9.25	-36.5	-36.5	13.8	6.90e-06	0	51	0	20669530112	43	15311
2026-01-28 20:46:44.43	312.54	9.11	-36.6	-36.5	13.7	0.00e+00	0	51	0	20896022528	43	15428
2026-01-28 20:46:47.45	313.19	8.97	-36.6	-36.6	13.6	0.00e+00	0	51	0	21122514944	44	14639
2026-01-28 20:46:50.48	313.84	8.82	-36.6	-36.5	13.6	0.00e+00	0	51	0	21349007360	44	14535
2026-01-28 20:46:53.49	314.47	8.68	-36.6	-36.6	13.6	0.00e+00	0	51	0	21575499776	44	14627
2026-01-28 20:46:56.51	315.10	8.53	-36.7	-36.6	13.6	0.00e+00	0	51	0	21801992192	44	14687
2026-01-28 20:46:59.52	315.72	8.38	-36.7	-36.6	13.6	0.00e+00	0	51	0	22028484608	44	14676
2026-01-28 20:47:02.54	316.34	8.23	-36.7	-36.6	13.5	0.00e+00	0	52	0	22254977024	44	14772
2026-01-28 20:47:05.56	316.94	8.08	-36.7	-36.6	13.5	0.00e+00	0	51	0	22481469440	44	14737
2026-01-28 20:47:08.57	317.54	7.92	-36.8	-36.7	13.5	0.00e+00	0	52	0	22699573248	44	14892
2026-01-28 20:47:11.59	318.13	7.77	-36.9	-36.8	13.4	6.90e-06	0	51	0	22926065664	44	15100
2026-01-28 20:47:14.60	318.71	7.62	-36.9	-36.9	13.3	0.00e+00	0	52	0	23160946688	44	15163
2026-01-28 20:47:17.62	319.29	7.46	-37.0	-37.0	13.2	0.00e+00	0	52	0	23387439104	44	15375
2026-01-28 20:47:20.64	319.85	7.30	-37.0	-37.0	13.2	2.08e-05	0	52	0	23613931520	44	15361
2026-01-28 20:47:23.66	320.41	7.15	-37.1	-37.0	13.2	0.00e+00	0	51	0	23832035328	44	15394
2026-01-28 20:47:26.68	320.97	6.99	-37.3	-37.3	13.0	6.90e-06	0	52	0	24058527744	45	15011
2026-01-28 20:47:29.70	321.51	6.83	-37.1	-37.1	13.2	1.38e-05	0	52	0	24293408768	45	14681
2026-01-28 20:47:32.73	322.05	6.67	-37.3	-37.3	13.1	0.00e+00	0	52	0	24519901184	45	14960
2026-01-28 20:47:35.75	322.58	6.51	-37.3	-37.3	13.0	6.90e-06	0	52	0	24746393600	45	14968
2026-01-28 20:47:38.76	323.11	6.35	-37.3	-37.3	13.0	6.90e-06	0	52	0	24964497408	45	14989
2026-01-28 20:47:41.78	323.62	6.19	-37.5	-37.5	12.9	1.38e-05	0	52	0	25190989824	45	15377
2026-01-28 20:47:44.81	324.14	6.03	-37.6	-37.6	12.8	2.77e-05	0	52	0	25425870848	45	15491
2026-01-28 20:47:47.83	324.64	5.87	-37.7	-37.6	12.8	4.16e-05	0	52	0	25652363264	45	15628
2026-01-28 20:47:50.84	325.14	5.71	-37.8	-37.7	12.7	1.38e-05	0	51	0	25878855680	46	14916
2026-01-28 20:47:53.86	325.63	5.54	-37.8	-37.8	12.7	2.77e-05	0	52	0	26096959488	46	14987
2026-01-28 20:47:56.89	326.11	5.38	-37.9	-37.9	12.5	3.46e-05	0	52	0	26323451904	46	15217
2026-01-28 20:47:59.91	326.59	5.22	-37.9	-37.8	12.6	4.16e-05	0	52	0	26558332928	46	15068
2026-01-28 20:48:02.93	327.06	5.06	-37.9	-37.8	12.5	2.77e-05	0	52	0	26784825344	46	15080
2026-01-28 20:48:05.95	327.52	4.90	-52.8	-55.0	3.7	0.00e+00	0	51	104	26919043072	76	19263
2026-01-28 20:48:08.97	327.98	4.74	-53.3	-55.5	3.7	0.00e+00	0	51	104	26919043072	77	19262
2026-01-28 20:48:12.00	328.43	4.57	-53.4	-55.5	3.7	0.00e+00	0	51	104	26919043072	77	19413
2026-01-28 20:48:15.02	328.88	4.41	-53.1	-55.3	3.7	0.00e+00	0	51	104	26919043072	77	18830
2026-01-28 20:48:18.04	329.32	4.25	-53.3	-55.4	3.7	0.00e+00	0	50	104	26919043072	77	19255
2026-01-28 20:48:21.07	329.75	4.09	-53.5	-55.6	3.7	0.00e+00	0	51	104	26919043072	77	19579
2026-01-28 20:48:24.09	330.18	3.93	-53.6	-55.7	3.7	0.00e+00	0	50	104	26919043072	77	19787
2026-01-28 20:48:27.11	330.61	3.77	-53.5	-55.6	3.7	0.00e+00	0	50	104	26919043072	77	19592
2026-01-28 20:48:30.13	331.02	3.61	-53.4	-55.6	3.7	0.00e+00	0	50	104	26919043072	77	19503
2026-01-28 20:48:33.16	331.43	3.44	-53.4	-55.5	3.7	0.00e+00	0	50	104	26919043072	77	19413
2026-01-28 20:48:36.18	331.84	3.28	-53.4	-55.5	3.7	0.00e+00	0	50	104	26919043072	77	19452
2026-01-28 20:48:39.20	332.24	3.12	-53.4	-55.5	3.7	0.00e+00	0	50	104	26919043072	77	19265
2026-01-28 20:48:42.22	332.63	2.96	-53.3	-55.5	3.7	0.00e+00	0	50	104	26919043072	77	19281
2026-01-28 20:48:45.24	333.02	2.80	-53.3	-55.5	3.7	0.00e+00	0	50	104	26919043072	77	19258
2026-01-28 20:48:48.26	333.41	2.65	-53.3	-55.4	3.7	0.00e+00	0	50	104	26919043072	77	19182
2026-01-28 20:48:51.28	333.79	2.49	-53.3	-55.4	3.7	0.00e+00	0	50	104	26919043072	77	19143
2026-01-28 20:48:54.31	334.16	2.33	-53.3	-55.4	3.7	0.00e+00	0	50	104	26919043072	77	19197
2026-01-28 20:48:57.33	334.53	2.17	-53.3	-55.4	3.7	0.00e+00	0	50	104	26919043072	77	19196
2026-01-28 20:49:00.36	334.90	2.01	-53.3	-55.4	3.7	0.00e+00	0	50	104	26919043072	77	19140

#Closed at: 2026-01-28 20:49:01
#Recorded file [26919 MB]: D:/lorett/data/31041_260128_234038.dat