passes_logs/2026/01/28/R3.2S_Murmansk/R3.2S_Murmansk__20260128_090921_KANOPUS-V_5_rec.log

#Pass ID: 20260128_090921_KANOPUS-V 5
#Satellite: KANOPUS-V 5
#Configuration: KANOPUS-V_8320
#almurnet v.1.7.20251203
#Start time: 2026-01-28 09:09:20

#Version: 2.2.20231116
#Station: R3.2S_Murmansk
#Location: 33.079688 lon 68.888172 lat
#TLE: 1 43876U 18111A   26027.84700365  .00004960  00000+0  21036-3 0  9993
#TLE: 2 43876  97.3676 296.1288 0001839  89.0677 271.0771 15.23563804393425

#Time	Az	El	Level	Level2	SNR	BER	BlckErr	Temp	State	Recorded	gain1	gain2
2026-01-28 09:09:20.72	199.27	1.98	-53.2	-62.1	3.8	7.47e-01	0	41	0	0	78	9726
2026-01-28 09:09:23.74	199.50	2.17	-53.2	-62.1	3.8	7.46e-01	0	41	104	0	77	10311
2026-01-28 09:09:26.77	199.74	2.37	-53.2	-62.0	3.8	7.46e-01	0	41	104	0	77	10284
2026-01-28 09:09:29.79	199.98	2.56	-53.2	-62.0	3.8	7.42e-01	0	41	104	0	77	10283
2026-01-28 09:09:32.81	200.22	2.76	-53.2	-62.0	3.8	7.44e-01	0	42	104	0	77	10281
2026-01-28 09:09:35.84	200.47	2.96	-53.2	-62.0	3.8	7.46e-01	0	42	104	0	77	10265
2026-01-28 09:09:38.86	200.72	3.17	-53.2	-62.1	3.8	7.47e-01	0	42	104	0	77	10312
2026-01-28 09:09:41.88	200.98	3.37	-53.2	-62.0	3.8	7.45e-01	0	42	104	0	77	10176
2026-01-28 09:09:44.91	201.24	3.58	-53.2	-62.0	3.8	7.45e-01	0	42	104	0	77	10198
2026-01-28 09:09:47.93	201.51	3.78	-53.2	-62.0	3.8	7.45e-01	0	42	104	0	77	10221
2026-01-28 09:09:50.95	201.78	3.99	-53.2	-62.0	3.8	7.46e-01	0	42	104	0	77	10223
2026-01-28 09:09:53.98	202.05	4.20	-52.9	-61.1	3.8	7.44e-01	0	42	104	0	77	9238
2026-01-28 09:09:57.00	202.33	4.41	-52.6	-59.9	3.8	7.43e-01	0	42	104	0	77	8002
2026-01-28 09:10:00.02	202.62	4.63	-51.9	-57.8	4.0	7.39e-01	0	42	104	0	75	7090
2026-01-28 09:10:03.05	202.91	4.84	-48.0	-51.0	9.8	5.92e-01	0	42	0	39845888	68	4842
2026-01-28 09:10:06.08	203.21	5.06	-46.9	-49.6	11.3	5.82e-01	0	42	0	85983232	65	4888
2026-01-28 09:10:09.10	203.51	5.28	-50.5	-54.7	6.3	6.66e-01	0	42	0	98566144	71	6257
2026-01-28 09:10:12.12	203.81	5.50	-45.5	-48.0	12.8	6.01e-01	0	42	0	134217728	62	4856
2026-01-28 09:10:15.15	204.13	5.73	-45.1	-47.5	13.3	5.99e-01	0	42	0	182452224	62	4583
2026-01-28 09:10:18.18	204.45	5.95	-45.2	-47.7	13.2	5.98e-01	0	42	0	228589568	62	4677
2026-01-28 09:10:21.20	204.77	6.18	-45.0	-47.5	13.4	5.97e-01	0	42	0	274726912	62	4549
2026-01-28 09:10:24.22	205.10	6.41	-44.7	-47.1	13.7	5.97e-01	0	43	0	320864256	61	4627
2026-01-28 09:10:27.24	205.44	6.64	-44.7	-47.1	13.8	5.94e-01	0	43	0	369098752	61	4610
2026-01-28 09:10:30.27	205.78	6.88	-44.5	-46.8	14.0	5.99e-01	0	43	0	415236096	60	4736
2026-01-28 09:10:33.29	206.13	7.11	-44.4	-46.7	14.1	6.01e-01	0	43	0	461373440	60	4689
2026-01-28 09:10:36.32	206.49	7.35	-44.2	-46.5	14.4	5.96e-01	0	43	0	507510784	60	4550
2026-01-28 09:10:39.34	206.86	7.59	-44.2	-46.5	14.4	5.98e-01	0	43	0	553648128	60	4558
2026-01-28 09:10:42.37	207.23	7.83	-44.1	-46.4	14.5	5.96e-01	0	43	0	599785472	60	4502
2026-01-28 09:10:45.39	207.61	8.08	-44.2	-46.4	14.5	5.98e-01	0	43	0	645922816	59	4801
2026-01-28 09:10:48.42	208.00	8.33	-44.1	-46.3	14.5	5.98e-01	0	43	0	692060160	59	4756
2026-01-28 09:10:51.44	208.39	8.58	-43.9	-46.2	14.7	5.99e-01	0	43	0	740294656	59	4661
2026-01-28 09:10:54.45	208.79	8.83	-44.0	-46.2	14.7	5.97e-01	0	43	0	786432000	59	4669
2026-01-28 09:10:57.47	209.21	9.08	-43.9	-46.1	14.8	6.01e-01	0	43	0	832569344	59	4617
2026-01-28 09:11:00.50	209.63	9.34	-43.9	-46.1	14.8	6.01e-01	0	43	0	878706688	59	4620
2026-01-28 09:11:03.51	210.06	9.60	-43.8	-45.9	15.0	6.07e-01	0	43	0	924844032	59	4508
2026-01-28 09:11:06.53	210.50	9.86	-43.8	-45.8	15.1	6.02e-01	0	43	0	970981376	59	4481
2026-01-28 09:11:09.56	210.95	10.12	-43.7	-45.7	15.2	6.06e-01	0	43	0	1017118720	59	4425
2026-01-28 09:11:12.58	211.40	10.39	-43.6	-45.6	15.3	6.05e-01	0	43	0	1063256064	59	4387
2026-01-28 09:11:15.61	211.88	10.66	-43.6	-45.8	15.2	6.04e-01	0	43	0	1109393408	59	4442
2026-01-28 09:11:18.63	212.35	10.93	-43.5	-45.6	15.4	6.04e-01	0	43	0	1157627904	58	4606
2026-01-28 09:11:21.66	212.85	11.20	-43.4	-45.4	15.5	6.02e-01	0	43	0	1203765248	58	4516
2026-01-28 09:11:24.69	213.35	11.48	-43.1	-45.1	15.8	5.98e-01	0	43	0	1249902592	58	4384
2026-01-28 09:11:27.71	213.86	11.76	-43.2	-45.3	15.7	5.97e-01	0	43	0	1296039936	58	4469
2026-01-28 09:11:30.72	214.38	12.04	-43.1	-45.3	15.7	5.99e-01	0	43	0	1342177280	58	4452
2026-01-28 09:11:33.75	214.92	12.32	-43.1	-45.2	15.7	5.97e-01	0	43	0	1390411776	58	4417
2026-01-28 09:11:36.77	215.47	12.61	-43.0	-45.0	15.9	5.97e-01	0	43	0	1436549120	57	4590
2026-01-28 09:11:39.79	216.03	12.90	-43.0	-45.0	15.9	6.01e-01	0	43	0	1482686464	57	4598
2026-01-28 09:11:42.81	216.60	13.19	-42.7	-44.8	16.1	5.93e-01	0	43	0	1528823808	57	4472
2026-01-28 09:11:45.84	217.19	13.48	-42.9	-44.9	16.1	5.93e-01	0	43	0	1574961152	57	4538
2026-01-28 09:11:48.86	217.79	13.78	-42.8	-44.9	16.1	5.93e-01	0	43	0	1621098496	57	4521
2026-01-28 09:11:51.88	218.41	14.08	-42.8	-44.9	16.1	5.93e-01	0	43	0	1667235840	57	4502
2026-01-28 09:11:54.91	219.04	14.38	-42.8	-44.8	16.2	5.93e-01	0	43	0	1713373184	57	4454
2026-01-28 09:11:57.93	219.69	14.68	-42.8	-44.8	16.2	5.93e-01	0	43	0	1761607680	57	4480
2026-01-28 09:12:00.95	220.35	14.98	-42.8	-44.9	16.1	5.93e-01	0	43	0	1807745024	57	4535
2026-01-28 09:12:03.98	221.02	15.29	-42.8	-44.9	16.1	5.94e-01	0	43	0	1853882368	57	4511
2026-01-28 09:12:07.01	221.72	15.60	-42.8	-44.8	16.2	5.93e-01	0	43	0	1900019712	57	4473
2026-01-28 09:12:10.03	222.43	15.90	-42.5	-44.4	16.6	5.94e-01	0	43	0	1948254208	57	4265
2026-01-28 09:12:13.06	223.16	16.22	-42.4	-44.3	16.6	5.91e-01	0	43	0	1994391552	56	4456
2026-01-28 09:12:16.08	223.90	16.53	-42.6	-44.5	16.4	5.98e-01	0	44	0	2040528896	56	4579
2026-01-28 09:12:19.11	224.67	16.84	-42.7	-44.6	16.3	6.00e-01	0	43	0	2086666240	56	4643
2026-01-28 09:12:22.13	225.45	17.15	-42.6	-44.6	16.3	6.03e-01	0	43	0	2132803584	56	4628
2026-01-28 09:12:25.16	226.25	17.47	-42.6	-44.5	16.4	6.01e-01	0	43	0	2178940928	56	4576
2026-01-28 09:12:28.18	227.07	17.78	-42.9	-44.9	16.1	6.00e-01	0	44	0	2225078272	56	4790
2026-01-28 09:12:31.21	227.91	18.09	-43.0	-45.0	16.0	6.02e-01	0	43	0	2271215616	56	4850
2026-01-28 09:12:34.23	228.77	18.41	-42.9	-44.8	16.2	6.01e-01	0	43	0	2319450112	56	4707
2026-01-28 09:12:37.25	229.64	18.72	-42.9	-44.8	16.2	6.01e-01	0	43	0	2365587456	56	4738
2026-01-28 09:12:40.28	230.55	19.03	-42.9	-44.9	16.1	6.02e-01	0	44	0	2411724800	56	4803
2026-01-28 09:12:43.31	231.47	19.34	-43.1	-45.0	16.0	5.99e-01	0	43	0	2457862144	56	4840
2026-01-28 09:12:46.33	232.41	19.65	-43.2	-45.0	16.1	6.03e-01	0	43	0	2503999488	56	4861
2026-01-28 09:12:49.35	233.37	19.96	-43.3	-45.1	16.0	6.00e-01	0	44	0	2550136832	57	4643
2026-01-28 09:12:52.38	234.36	20.26	-43.1	-45.0	16.1	6.00e-01	0	43	0	2596274176	57	4554
2026-01-28 09:12:55.41	235.37	20.56	-43.2	-45.2	16.0	6.02e-01	0	44	0	2642411520	57	4652
2026-01-28 09:12:58.43	236.40	20.86	-43.3	-45.3	15.9	6.00e-01	0	43	0	2690646016	57	4709
2026-01-28 09:13:01.42	237.44	21.15	-43.4	-45.5	15.7	6.01e-01	0	43	0	2734686208	57	4850
2026-01-28 09:13:04.45	238.52	21.44	-43.4	-45.6	15.6	6.00e-01	0	44	0	2782920704	57	4912
2026-01-28 09:13:07.48	239.62	21.72	-43.4	-45.4	15.8	6.00e-01	0	43	0	2829058048	57	4812
2026-01-28 09:13:10.51	240.74	22.00	-43.2	-45.2	16.0	6.01e-01	0	44	0	2875195392	57	4652
2026-01-28 09:13:13.53	241.88	22.27	-43.3	-45.4	15.7	6.01e-01	0	44	0	2923429888	57	4808
2026-01-28 09:13:16.55	243.04	22.53	-43.4	-45.5	15.7	6.00e-01	0	43	0	2969567232	57	4863
2026-01-28 09:13:19.57	244.22	22.79	-43.2	-45.4	15.8	6.01e-01	0	43	0	3015704576	57	4795
2026-01-28 09:13:22.60	245.43	23.03	-43.1	-45.2	15.9	6.03e-01	0	43	0	3061841920	57	4691
2026-01-28 09:13:25.62	246.66	23.27	-43.2	-45.4	15.8	6.02e-01	0	43	0	3107979264	57	4809
2026-01-28 09:13:28.65	247.90	23.50	-43.3	-45.7	15.5	6.03e-01	0	44	0	3154116608	57	4939
2026-01-28 09:13:31.67	249.17	23.72	-43.3	-45.9	15.4	6.02e-01	0	43	0	3200253952	57	5053
2026-01-28 09:13:34.69	250.45	23.92	-43.2	-45.4	15.8	6.02e-01	0	43	0	3246391296	57	4805
2026-01-28 09:13:37.71	251.76	24.12	-42.8	-44.9	16.2	6.03e-01	0	44	0	3292528640	57	4511
2026-01-28 09:13:40.74	253.08	24.30	-42.8	-44.9	16.2	6.01e-01	0	43	0	3340763136	57	4523
2026-01-28 09:13:43.76	254.41	24.46	-42.7	-44.8	16.3	6.00e-01	0	43	0	3386900480	57	4474
2026-01-28 09:13:46.79	255.77	24.62	-42.7	-44.8	16.3	6.00e-01	0	43	0	3433037824	57	4486
2026-01-28 09:13:49.81	257.13	24.76	-42.4	-44.6	16.4	6.01e-01	0	43	0	3479175168	56	4646
2026-01-28 09:13:52.83	258.51	24.88	-42.4	-44.7	16.4	6.01e-01	0	43	0	3527409664	56	4662
2026-01-28 09:13:55.85	259.90	24.99	-42.3	-44.4	16.6	5.99e-01	0	44	0	3573547008	56	4522
2026-01-28 09:13:58.88	261.30	25.09	-42.4	-44.8	16.3	5.99e-01	0	44	0	3617587200	56	4716
2026-01-28 09:14:01.91	262.71	25.16	-42.2	-44.5	16.6	5.99e-01	0	44	0	3663724544	56	4559
2026-01-28 09:14:04.93	264.12	25.22	-42.6	-44.9	16.2	5.97e-01	0	43	0	3711959040	56	4813
2026-01-28 09:14:07.95	265.54	25.27	-42.5	-44.7	16.4	6.01e-01	0	43	0	3758096384	56	4703
2026-01-28 09:14:10.97	266.96	25.29	-42.6	-45.2	16.1	6.01e-01	0	44	0	3804233728	56	4946
2026-01-28 09:14:14.00	268.39	25.31	-42.6	-44.9	16.2	6.00e-01	0	43	0	3850371072	56	4793
2026-01-28 09:14:17.02	269.81	25.30	-42.4	-44.8	16.4	5.98e-01	0	43	0	3896508416	56	4716
2026-01-28 09:14:20.05	271.23	25.27	-42.4	-44.7	16.5	6.01e-01	0	44	0	3944742912	56	4661
2026-01-28 09:14:23.07	272.65	25.23	-42.6	-45.1	16.2	6.01e-01	0	44	0	3990880256	56	4886
2026-01-28 09:14:26.10	274.07	25.18	-42.6	-45.0	16.3	6.01e-01	0	43	0	4037017600	56	4829
2026-01-28 09:14:29.12	275.47	25.10	-42.5	-44.7	16.5	6.02e-01	0	43	0	4083154944	56	4705
2026-01-28 09:14:32.14	276.87	25.01	-42.6	-44.9	16.3	6.01e-01	0	43	0	4129292288	56	4788
2026-01-28 09:14:35.16	278.26	24.91	-42.7	-44.9	16.4	6.02e-01	0	43	0	4175429632	56	4776
2026-01-28 09:14:38.18	279.64	24.79	-42.5	-44.5	16.7	5.99e-01	0	43	0	4221566976	56	4593
2026-01-28 09:14:41.21	281.00	24.65	-42.4	-44.5	16.7	6.00e-01	0	44	0	4267704320	56	4551
2026-01-28 09:14:44.23	282.36	24.50	-42.4	-44.5	16.7	6.00e-01	0	44	0	4315938816	56	4582
2026-01-28 09:14:47.26	283.70	24.33	-42.6	-44.9	16.4	6.00e-01	0	44	0	4362076160	56	4784
2026-01-28 09:14:50.28	285.02	24.16	-43.1	-45.2	16.2	5.99e-01	0	43	0	4408213504	56	4974
2026-01-28 09:14:53.30	286.32	23.97	-42.9	-45.2	16.2	6.01e-01	0	44	0	4454350848	56	4947
2026-01-28 09:14:56.33	287.61	23.76	-42.9	-45.0	16.3	6.01e-01	0	43	0	4502585344	56	4859
2026-01-28 09:14:59.35	288.87	23.55	-42.8	-44.9	16.5	5.99e-01	0	44	0	4548722688	56	4778
2026-01-28 09:15:02.36	290.11	23.33	-42.7	-44.7	16.6	6.01e-01	0	43	0	4594860032	56	4699
2026-01-28 09:15:05.38	291.34	23.09	-43.1	-45.3	16.2	6.02e-01	0	43	0	4640997376	56	4996
2026-01-28 09:15:08.41	292.55	22.85	-43.1	-45.2	16.2	6.02e-01	0	43	0	4685037568	56	4972
2026-01-28 09:15:11.43	293.73	22.60	-43.2	-45.2	16.2	5.99e-01	0	43	0	4733272064	57	4703
2026-01-28 09:15:14.45	294.90	22.34	-43.3	-45.2	16.2	6.01e-01	0	43	0	4779409408	57	4696
2026-01-28 09:15:17.48	296.04	22.07	-42.8	-44.9	16.4	5.98e-01	0	43	0	4825546752	57	4522
2026-01-28 09:15:20.51	297.16	21.80	-43.0	-45.0	16.4	6.02e-01	0	43	0	4871684096	57	4568
2026-01-28 09:15:23.53	298.26	21.52	-42.7	-44.6	16.6	6.00e-01	0	44	0	4919918592	57	4374
2026-01-28 09:15:26.55	299.33	21.23	-42.9	-44.7	16.5	6.01e-01	0	43	0	4966055936	57	4411
2026-01-28 09:15:29.58	300.39	20.94	-42.5	-44.3	16.7	6.01e-01	0	44	0	5012193280	56	4490
2026-01-28 09:15:32.61	301.42	20.64	-42.6	-44.6	16.5	6.01e-01	0	43	0	5058330624	56	4639
2026-01-28 09:15:35.64	302.43	20.35	-42.6	-44.5	16.6	6.01e-01	0	44	0	5104467968	56	4594
2026-01-28 09:15:38.66	303.42	20.04	-42.5	-44.3	16.7	6.00e-01	0	43	0	5150605312	56	4461
2026-01-28 09:15:41.69	304.38	19.74	-42.3	-44.1	16.8	5.97e-01	0	44	0	5196742656	56	4364
2026-01-28 09:15:44.71	305.32	19.43	-42.2	-44.1	16.9	6.01e-01	0	43	0	5242880000	56	4342
2026-01-28 09:15:47.74	306.25	19.12	-42.4	-44.3	16.7	6.01e-01	0	43	0	5291114496	56	4477
2026-01-28 09:15:50.77	307.15	18.81	-42.2	-44.3	16.7	5.99e-01	0	43	0	5337251840	56	4455
2026-01-28 09:15:53.79	308.03	18.50	-42.3	-44.4	16.6	6.02e-01	0	43	0	5383389184	56	4529
2026-01-28 09:15:56.82	308.89	18.19	-42.3	-44.4	16.5	6.03e-01	0	44	0	5429526528	56	4541
2026-01-28 09:15:59.85	309.73	17.88	-42.3	-44.4	16.6	6.03e-01	0	44	0	5477761024	56	4498
2026-01-28 09:16:02.87	310.55	17.57	-42.2	-44.1	16.7	6.03e-01	0	44	0	5523898368	56	4349
2026-01-28 09:16:05.89	311.35	17.26	-42.3	-44.2	16.7	6.02e-01	0	44	0	5570035712	56	4419
2026-01-28 09:16:08.92	312.13	16.95	-42.1	-44.0	16.8	6.03e-01	0	44	0	5616173056	56	4333
2026-01-28 09:16:11.94	312.90	16.64	-42.1	-44.0	16.7	6.03e-01	0	44	0	5662310400	56	4333
2026-01-28 09:16:14.97	313.64	16.33	-42.0	-44.0	16.7	6.03e-01	0	43	0	5708447744	56	4331
2026-01-28 09:16:17.99	314.37	16.02	-42.2	-44.3	16.5	6.04e-01	0	43	0	5754585088	56	4444
2026-01-28 09:16:21.02	315.08	15.71	-42.3	-44.5	16.4	5.98e-01	0	44	0	5800722432	56	4547
2026-01-28 09:16:24.05	315.78	15.40	-42.2	-44.3	16.5	5.93e-01	0	44	0	5848956928	56	4487
2026-01-28 09:16:27.07	316.46	15.10	-42.2	-44.2	16.6	5.93e-01	0	43	0	5895094272	56	4418
2026-01-28 09:16:30.09	317.12	14.80	-42.2	-44.3	16.5	5.92e-01	0	44	0	5941231616	56	4467
2026-01-28 09:16:33.12	317.77	14.50	-42.3	-44.3	16.5	5.93e-01	0	43	0	5987368960	56	4490
2026-01-28 09:16:36.14	318.40	14.20	-53.9	-62.8	3.8	7.45e-01	0	43	104	6023020544	78	10585
2026-01-28 09:16:39.16	319.02	13.90	-53.9	-62.7	3.8	7.45e-01	0	44	104	6023020544	78	10490
2026-01-28 09:16:42.19	319.62	13.61	-53.9	-62.7	3.8	7.46e-01	0	44	104	6023020544	78	10493
2026-01-28 09:16:45.22	320.21	13.32	-53.8	-62.7	3.8	7.44e-01	0	43	104	6023020544	78	10473
2026-01-28 09:16:48.24	320.78	13.03	-53.8	-62.7	3.8	7.46e-01	0	43	104	6023020544	78	10446
2026-01-28 09:16:51.26	321.35	12.74	-53.8	-62.6	3.8	7.46e-01	0	43	104	6023020544	78	10352
2026-01-28 09:16:54.28	321.90	12.45	-53.7	-62.5	3.8	7.45e-01	0	44	104	6023020544	78	10266
2026-01-28 09:16:57.30	322.43	12.17	-53.7	-62.5	3.8	7.46e-01	0	44	104	6023020544	78	10280
2026-01-28 09:17:00.32	322.96	11.89	-53.7	-62.5	3.8	7.44e-01	0	44	104	6023020544	78	10257
2026-01-28 09:17:03.34	323.47	11.62	-53.6	-62.5	3.8	7.46e-01	0	43	104	6023020544	78	10240
2026-01-28 09:17:06.37	323.97	11.34	-53.6	-62.4	3.8	7.46e-01	0	44	104	6023020544	78	10144
2026-01-28 09:17:09.39	324.47	11.07	-53.6	-62.4	3.8	7.45e-01	0	44	104	6023020544	78	10125
2026-01-28 09:17:12.41	324.95	10.80	-53.6	-62.4	3.8	7.44e-01	0	44	104	6023020544	78	10164
2026-01-28 09:17:15.43	325.42	10.53	-53.6	-62.4	3.8	7.44e-01	0	43	104	6023020544	78	10067
2026-01-28 09:17:18.45	325.88	10.26	-53.5	-62.3	3.8	7.46e-01	0	43	104	6023020544	78	10048
2026-01-28 09:17:21.47	326.33	10.00	-53.5	-62.3	3.8	7.46e-01	0	43	104	6023020544	78	10041
2026-01-28 09:17:24.50	326.77	9.74	-53.5	-62.3	3.8	7.44e-01	0	43	104	6023020544	78	9981
2026-01-28 09:17:27.53	327.20	9.48	-53.4	-62.3	3.8	7.45e-01	0	44	104	6023020544	78	9984
2026-01-28 09:17:30.55	327.62	9.23	-53.4	-62.2	3.8	7.45e-01	0	44	104	6023020544	78	9868
2026-01-28 09:17:33.56	328.03	8.97	-53.3	-62.1	3.8	7.44e-01	0	43	104	6023020544	78	9818
2026-01-28 09:17:36.58	328.44	8.72	-53.3	-62.1	3.8	7.44e-01	0	43	104	6023020544	78	9830
2026-01-28 09:17:39.60	328.84	8.48	-53.3	-62.1	3.8	7.44e-01	0	43	104	6023020544	78	9811
2026-01-28 09:17:42.62	329.22	8.23	-53.2	-62.1	3.8	7.46e-01	0	44	104	6023020544	78	9738
2026-01-28 09:17:45.65	329.61	7.98	-53.2	-62.1	3.8	7.43e-01	0	43	104	6023020544	78	9730
2026-01-28 09:17:48.67	329.98	7.74	-53.2	-62.0	3.8	7.44e-01	0	43	104	6023020544	78	9707
2026-01-28 09:17:51.69	330.35	7.50	-53.2	-62.1	3.8	7.45e-01	0	43	104	6023020544	78	9737
2026-01-28 09:17:54.70	330.70	7.27	-53.1	-62.0	3.8	7.46e-01	0	43	104	6023020544	78	9624
2026-01-28 09:17:57.72	331.06	7.03	-53.1	-62.0	3.8	7.44e-01	0	43	104	6023020544	78	9658
2026-01-28 09:18:00.75	331.40	6.80	-53.1	-61.9	3.8	7.45e-01	0	43	104	6023020544	78	9548
2026-01-28 09:18:03.77	331.74	6.57	-53.1	-62.0	3.8	7.43e-01	0	43	104	6023020544	78	9636
2026-01-28 09:18:06.79	332.07	6.34	-53.0	-61.8	3.8	7.45e-01	0	43	104	6023020544	78	9410
2026-01-28 09:18:09.80	332.40	6.11	-53.0	-61.8	3.8	7.45e-01	0	44	104	6023020544	77	10047
2026-01-28 09:18:12.83	332.72	5.89	-52.9	-61.7	3.8	7.44e-01	0	43	104	6023020544	77	9894
2026-01-28 09:18:15.85	333.03	5.67	-53.0	-61.8	3.8	7.46e-01	0	43	104	6023020544	77	10026
2026-01-28 09:18:18.87	333.34	5.45	-52.8	-61.6	3.8	7.44e-01	0	44	104	6023020544	77	9726
2026-01-28 09:18:21.89	333.64	5.23	-52.8	-61.7	3.8	7.45e-01	0	44	104	6023020544	77	9848
2026-01-28 09:18:24.91	333.94	5.01	-52.1	-60.9	3.8	7.46e-01	0	44	104	6023020544	76	9556
2026-01-28 09:18:27.93	334.23	4.80	-53.6	-62.4	3.8	7.45e-01	0	43	104	6023020544	77	10753
2026-01-28 09:18:30.96	334.52	4.58	-54.0	-62.9	3.8	7.44e-01	0	44	104	6023020544	78	10688
2026-01-28 09:18:33.98	334.80	4.37	-54.2	-63.0	3.8	7.45e-01	0	44	104	6023020544	78	10858
2026-01-28 09:18:37.00	335.08	4.16	-54.0	-62.9	3.8	7.45e-01	0	44	104	6023020544	78	10689
2026-01-28 09:18:40.03	335.35	3.95	-54.0	-62.8	3.8	7.46e-01	0	43	104	6023020544	78	10624
2026-01-28 09:18:43.05	335.62	3.75	-54.1	-63.0	3.8	7.45e-01	0	44	104	6023020544	78	10791
2026-01-28 09:18:46.08	335.88	3.54	-54.2	-63.0	3.8	7.44e-01	0	43	104	6023020544	78	10844
2026-01-28 09:18:49.11	336.14	3.34	-54.0	-62.9	3.8	7.44e-01	0	44	104	6023020544	78	10711
2026-01-28 09:18:52.13	336.40	3.14	-54.0	-62.9	3.8	7.45e-01	0	43	104	6023020544	78	10684
2026-01-28 09:18:55.16	336.65	2.94	-54.0	-62.8	3.8	7.44e-01	0	43	104	6023020544	78	10647
2026-01-28 09:18:58.18	336.89	2.74	-54.0	-62.9	3.8	7.45e-01	0	43	104	6023020544	78	10659
2026-01-28 09:19:01.21	337.14	2.54	-54.0	-62.8	3.8	7.44e-01	0	44	104	6023020544	78	10639
2026-01-28 09:19:04.23	337.38	2.34	-54.0	-62.8	3.8	7.45e-01	0	43	104	6023020544	78	10630
2026-01-28 09:19:07.25	337.61	2.15	-54.0	-62.8	3.8	7.44e-01	0	43	104	6023020544	78	10615
2026-01-28 09:19:10.27	337.84	1.96	-53.9	-62.8	3.8	7.45e-01	0	44	104	6023020544	78	10593

#Closed at: 2026-01-28 09:19:10
#Recorded file [6023 MB]: D:/lorett/data/31041_260128_120920.dat