passes_logs/2025/01/17/X_MFTI_02/X_MFTI_02__20250117_112216_FENGYUN_3D_rec.log

#Pass ID: 20250117_112216_FENGYUN 3D
#Satellite: FENGYUN 3D
#Configuration: FENGYUN 3D
#Start time: 2025-01-17 11:22:11

#Version: 1.5.20200625
#Station: X_MFTI_02
#Location: 37.5186 lon 55.9291 lat
#TLE: 1 43010U 17072A   23362.50642187  .00000183  00000+0  10870-3 0  9994
#TLE: 2 43010  98.8887 311.3857 0002475  98.0400 262.1057 14.19259665317063

#Time	Az	El	Level	Level2	SNR	BER	Gain	Gain2
2025-01-17 11:22:13.87	163.92	69.18	
2025-01-17 11:22:14.07	163.93	69.27	
2025-01-17 11:22:14.28	163.95	69.37	
2025-01-17 11:22:14.48	163.96	69.46	
2025-01-17 11:22:14.68	163.97	69.55	
2025-01-17 11:22:14.88	163.98	69.64	
2025-01-17 11:22:15.08	163.99	69.74	
2025-01-17 11:22:15.28	164.00	69.83	
2025-01-17 11:22:15.49	164.01	69.93	
2025-01-17 11:22:15.69	164.02	70.02	
2025-01-17 11:22:15.89	164.03	70.11	
2025-01-17 11:22:16.10	164.05	70.21	
2025-01-17 11:22:16.30	164.06	70.31	
2025-01-17 11:22:16.51	164.07	70.40	
2025-01-17 11:22:16.71	164.08	70.50	
2025-01-17 11:22:16.92	164.10	70.60	
2025-01-17 11:22:17.12	164.11	70.69	
2025-01-17 11:22:17.33	164.12	70.79	
2025-01-17 11:22:17.53	164.13	70.88	
2025-01-17 11:22:17.73	164.14	70.98	
2025-01-17 11:22:17.94	164.16	71.08	
2025-01-17 11:22:18.14	164.17	71.17	
2025-01-17 11:22:18.34	164.18	71.27	
2025-01-17 11:22:18.54	164.20	71.36	
2025-01-17 11:22:18.75	164.21	71.46	
2025-01-17 11:22:18.96	164.22	71.56	
2025-01-17 11:22:19.16	164.24	71.65	
2025-01-17 11:22:19.37	164.25	71.75	
2025-01-17 11:22:19.57	164.27	71.85	
2025-01-17 11:22:19.77	164.28	71.94	
2025-01-17 11:22:19.98	164.29	72.04	
2025-01-17 11:22:20.18	164.31	72.14	
2025-01-17 11:22:20.39	164.32	72.24	
2025-01-17 11:22:20.59	164.34	72.33	
2025-01-17 11:22:20.80	164.35	72.43	
2025-01-17 11:22:21.00	164.37	72.53	
2025-01-17 11:22:21.20	164.38	72.62	
2025-01-17 11:22:21.41	164.40	72.73	
2025-01-17 11:22:21.61	164.41	72.82	
2025-01-17 11:22:21.81	164.43	72.92	
2025-01-17 11:22:22.02	164.45	73.02	
2025-01-17 11:22:22.22	164.46	73.11	
2025-01-17 11:22:22.43	164.48	73.21	
2025-01-17 11:22:22.64	164.50	73.32	
2025-01-17 11:22:22.85	164.51	73.42	
2025-01-17 11:22:23.05	164.53	73.51	
2025-01-17 11:22:23.25	164.55	73.61	
2025-01-17 11:22:23.45	164.56	73.71	
2025-01-17 11:22:23.66	164.58	73.81	
2025-01-17 11:22:23.86	164.60	73.90	
2025-01-17 11:22:24.06	164.62	74.00	
2025-01-17 11:22:24.27	164.64	74.10	
2025-01-17 11:22:24.48	164.65	74.20	
2025-01-17 11:22:24.68	164.67	74.30	
2025-01-17 11:22:24.89	164.69	74.40	
2025-01-17 11:22:25.09	164.71	74.50	
2025-01-17 11:22:25.29	164.73	74.60	
2025-01-17 11:22:25.50	164.75	74.70	
2025-01-17 11:22:25.71	164.77	74.80	
2025-01-17 11:22:25.92	164.79	74.90	
2025-01-17 11:22:26.12	164.81	75.00	
2025-01-17 11:22:26.33	164.83	75.10	
2025-01-17 11:22:26.53	164.85	75.20	
2025-01-17 11:22:26.74	164.88	75.30	
2025-01-17 11:22:26.94	164.90	75.40	
2025-01-17 11:22:27.14	164.92	75.50	
2025-01-17 11:22:27.34	164.94	75.60	
2025-01-17 11:22:27.56	164.96	75.71	
2025-01-17 11:22:27.76	164.99	75.80	
2025-01-17 11:22:27.97	165.01	75.91	
2025-01-17 11:22:28.17	165.03	76.00	
2025-01-17 11:22:28.38	165.06	76.11	
2025-01-17 11:22:28.58	165.08	76.21	
2025-01-17 11:22:28.79	165.11	76.31	
2025-01-17 11:22:29.00	165.13	76.41	
2025-01-17 11:22:29.20	165.16	76.51	
2025-01-17 11:22:29.41	165.18	76.61	
2025-01-17 11:22:29.61	165.21	76.71	
2025-01-17 11:22:29.81	165.24	76.81	
2025-01-17 11:22:30.02	165.26	76.92	
2025-01-17 11:22:30.22	165.29	77.01	
2025-01-17 11:22:30.43	165.32	77.12	
2025-01-17 11:22:30.64	165.35	77.22	
2025-01-17 11:22:30.85	165.38	77.33	
2025-01-17 11:22:31.05	165.41	77.43	
2025-01-17 11:22:31.25	165.43	77.52	
2025-01-17 11:22:31.45	165.46	77.62	
2025-01-17 11:22:31.65	165.49	77.72	
2025-01-17 11:22:31.86	165.53	77.83	
2025-01-17 11:22:32.07	165.56	77.93	
2025-01-17 11:22:32.28	165.59	78.04	
2025-01-17 11:22:32.48	165.62	78.14	
2025-01-17 11:22:32.69	165.66	78.24	
2025-01-17 11:22:32.89	165.69	78.34	
2025-01-17 11:22:33.10	165.73	78.44	
2025-01-17 11:22:33.31	165.76	78.55	
2025-01-17 11:22:33.51	165.80	78.65	
2025-01-17 11:22:33.72	165.84	78.75	
2025-01-17 11:22:33.92	165.87	78.85	
2025-01-17 11:22:34.13	165.91	78.96	
2025-01-17 11:22:34.34	165.95	79.06	
2025-01-17 11:22:34.54	165.99	79.16	
2025-01-17 11:22:34.75	166.03	79.27	
2025-01-17 11:22:34.96	166.07	79.37	
2025-01-17 11:22:35.17	166.11	79.48	
2025-01-17 11:22:35.37	166.16	79.58	
2025-01-17 11:22:35.58	166.20	79.69	
2025-01-17 11:22:35.78	166.24	79.79	
2025-01-17 11:22:35.98	166.29	79.89	
2025-01-17 11:22:36.19	166.34	79.99	
2025-01-17 11:22:36.39	166.38	80.09	
2025-01-17 11:22:36.59	166.43	80.19	
2025-01-17 11:22:36.80	166.48	80.30	
2025-01-17 11:22:37.00	166.53	80.40	
2025-01-17 11:22:37.20	166.58	80.50	
2025-01-17 11:22:37.41	166.63	80.61	
2025-01-17 11:22:37.62	166.69	80.71	
2025-01-17 11:22:37.83	166.74	80.82	
2025-01-17 11:22:38.04	166.80	80.92	
2025-01-17 11:22:38.24	166.85	81.02	
2025-01-17 11:22:38.44	166.91	81.12	
2025-01-17 11:22:38.64	166.97	81.23	
2025-01-17 11:22:38.85	167.03	81.33	
2025-01-17 11:22:39.05	167.09	81.43	
2025-01-17 11:22:39.25	167.16	81.53	
2025-01-17 11:22:39.45	167.22	81.64	
2025-01-17 11:22:39.66	167.29	81.74	
2025-01-17 11:22:39.86	167.36	81.84	
2025-01-17 11:22:40.07	167.43	81.95	
2025-01-17 11:22:40.27	167.50	82.05	
2025-01-17 11:22:40.47	167.58	82.15	
2025-01-17 11:22:40.68	167.65	82.26	
2025-01-17 11:22:40.88	167.73	82.36	
2025-01-17 11:22:41.08	167.81	82.46	
2025-01-17 11:22:41.29	167.90	82.57	
2025-01-17 11:22:41.49	167.98	82.67	
2025-01-17 11:22:41.69	168.07	82.77	
2025-01-17 11:22:41.90	168.16	82.88	
2025-01-17 11:22:42.11	168.25	82.98	
2025-01-17 11:22:42.32	168.35	83.09	
2025-01-17 11:22:42.52	168.45	83.19	
2025-01-17 11:22:42.72	168.55	83.29	
2025-01-17 11:22:42.94	168.66	83.40	
2025-01-17 11:22:43.14	168.77	83.51	
2025-01-17 11:22:43.35	168.88	83.61	
2025-01-17 11:22:43.55	169.00	83.71	
2025-01-17 11:22:43.76	169.12	83.82	
2025-01-17 11:22:43.96	169.24	83.92	
2025-01-17 11:22:44.17	169.37	84.03	
2025-01-17 11:22:44.37	169.50	84.13	
2025-01-17 11:22:44.57	169.64	84.23	
2025-01-17 11:22:44.78	169.79	84.34	
2025-01-17 11:22:44.98	169.93	84.44	
2025-01-17 11:22:45.19	170.09	84.55	
2025-01-17 11:22:45.40	170.25	84.65	
2025-01-17 11:22:45.61	170.42	84.76	
2025-01-17 11:22:45.81	170.59	84.86	
2025-01-17 11:22:46.01	170.77	84.96	
2025-01-17 11:22:46.22	170.96	85.07	
2025-01-17 11:22:46.42	171.15	85.17	
2025-01-17 11:22:46.63	171.36	85.28	
2025-01-17 11:22:46.83	171.57	85.38	
2025-01-17 11:22:47.04	171.80	85.49	
2025-01-17 11:22:47.25	172.04	85.59	
2025-01-17 11:22:47.45	172.28	85.69	
2025-01-17 11:22:47.67	172.56	85.80	
2025-01-17 11:22:47.87	172.82	85.91	
2025-01-17 11:22:48.08	173.12	86.01	
2025-01-17 11:22:48.29	173.43	86.12	
2025-01-17 11:22:48.50	173.75	86.22	
2025-01-17 11:22:48.72	174.11	86.33	
2025-01-17 11:22:48.92	174.46	86.43	
2025-01-17 11:22:49.12	174.83	86.54	
2025-01-17 11:22:49.34	175.26	86.65	
2025-01-17 11:22:49.55	175.70	86.75	
2025-01-17 11:22:49.75	176.15	86.85	
2025-01-17 11:22:49.95	176.62	86.95	
2025-01-17 11:22:50.15	177.13	87.05	
2025-01-17 11:22:50.36	177.70	87.15	
2025-01-17 11:22:50.56	178.28	87.25	
2025-01-17 11:22:50.78	178.98	87.36	
2025-01-17 11:22:50.98	179.66	87.46	
2025-01-17 11:22:51.19	180.43	87.56	
2025-01-17 11:22:51.39	181.23	87.66	
2025-01-17 11:22:51.59	182.10	87.76	
2025-01-17 11:22:51.80	183.10	87.86	
2025-01-17 11:22:52.00	184.14	87.96	
2025-01-17 11:22:52.21	185.35	88.06	
2025-01-17 11:22:52.41	186.62	88.15	
2025-01-17 11:22:52.62	188.10	88.25	
2025-01-17 11:22:52.83	189.75	88.35	
2025-01-17 11:22:53.03	191.51	88.44	
2025-01-17 11:22:53.23	193.49	88.53	
2025-01-17 11:22:53.44	195.84	88.62	
2025-01-17 11:22:53.64	198.37	88.70	
2025-01-17 11:22:53.85	201.41	88.79	
2025-01-17 11:22:54.05	204.72	88.86	
2025-01-17 11:22:54.27	208.92	88.95	
2025-01-17 11:22:54.48	213.53	89.02	
2025-01-17 11:22:54.68	218.56	89.08	
2025-01-17 11:22:54.89	224.55	89.13	
2025-01-17 11:22:55.10	231.26	89.18	
2025-01-17 11:22:55.30	238.26	89.21	
2025-01-17 11:22:55.51	246.08	89.23	
2025-01-17 11:22:55.72	254.13	89.23	
2025-01-17 11:22:55.93	262.10	89.22	
2025-01-17 11:22:56.14	269.70	89.19	
2025-01-17 11:22:56.34	276.39	89.15	
2025-01-17 11:22:56.56	283.01	89.10	
2025-01-17 11:22:56.76	288.33	89.04	
2025-01-17 11:22:56.97	293.23	88.98	
2025-01-17 11:22:57.18	297.49	88.90	
2025-01-17 11:22:57.39	301.20	88.82	
2025-01-17 11:22:57.59	304.28	88.74	
2025-01-17 11:22:57.79	306.98	88.66	
2025-01-17 11:22:58.00	309.48	88.57	
2025-01-17 11:22:58.20	311.58	88.48	
2025-01-17 11:22:58.41	313.53	88.39	
2025-01-17 11:22:58.61	315.19	88.30	
2025-01-17 11:22:58.81	316.68	88.20	
2025-01-17 11:22:59.03	318.14	88.10	
2025-01-17 11:22:59.23	319.35	88.00	
2025-01-17 11:22:59.43	320.44	87.91	
2025-01-17 11:22:59.64	321.48	87.81	
2025-01-17 11:22:59.84	322.39	87.71	
2025-01-17 11:23:00.04	323.23	87.61	
2025-01-17 11:23:00.25	324.03	87.51	
2025-01-17 11:23:00.45	324.74	87.41	
2025-01-17 11:23:00.65	325.39	87.31	
2025-01-17 11:23:00.86	326.03	87.21	
2025-01-17 11:23:01.06	326.60	87.11	
2025-01-17 11:23:01.28	327.18	87.00	
2025-01-17 11:23:01.48	327.67	86.90	
2025-01-17 11:23:01.69	328.15	86.80	
2025-01-17 11:23:01.90	328.60	86.69	
2025-01-17 11:23:02.10	329.01	86.59	
2025-01-17 11:23:02.31	329.41	86.49	
2025-01-17 11:23:02.51	329.76	86.39	
2025-01-17 11:23:02.71	330.10	86.28	
2025-01-17 11:23:02.92	330.44	86.18	
2025-01-17 11:23:03.12	330.74	86.08	
2025-01-17 11:23:03.33	331.05	85.97	
2025-01-17 11:23:03.53	331.32	85.87	
2025-01-17 11:23:03.74	331.59	85.76	
2025-01-17 11:23:03.94	331.84	85.66	
2025-01-17 11:23:04.15	332.09	85.56	
2025-01-17 11:23:04.36	332.33	85.45	
2025-01-17 11:23:04.57	332.55	85.34	
2025-01-17 11:23:04.77	332.76	85.24	
2025-01-17 11:23:04.97	332.96	85.14	
2025-01-17 11:23:05.18	333.16	85.04	
2025-01-17 11:23:05.38	333.34	84.93	
2025-01-17 11:23:05.58	333.51	84.83	
2025-01-17 11:23:05.79	333.69	84.73	
2025-01-17 11:23:05.99	333.85	84.62	
2025-01-17 11:23:06.20	334.01	84.52	
2025-01-17 11:23:06.40	334.16	84.42	
2025-01-17 11:23:06.60	334.30	84.31	
2025-01-17 11:23:06.81	334.45	84.21	
2025-01-17 11:23:07.01	334.58	84.11	
2025-01-17 11:23:07.22	334.72	84.00	
2025-01-17 11:23:07.43	334.85	83.89	
2025-01-17 11:23:07.63	334.97	83.79	
2025-01-17 11:23:07.83	335.08	83.69	
2025-01-17 11:23:08.04	335.20	83.58	
2025-01-17 11:23:08.25	335.31	83.48	
2025-01-17 11:23:08.45	335.42	83.38	
2025-01-17 11:23:08.66	335.53	83.27	
2025-01-17 11:23:08.86	335.63	83.17	
2025-01-17 11:23:09.07	335.73	83.06	
2025-01-17 11:23:09.27	335.82	82.96	
2025-01-17 11:23:09.47	335.91	82.86	
2025-01-17 11:23:09.68	336.00	82.75	
2025-01-17 11:23:09.88	336.09	82.65	
2025-01-17 11:23:10.09	336.18	82.54	
2025-01-17 11:23:10.29	336.26	82.44	
2025-01-17 11:23:10.50	336.34	82.34	
2025-01-17 11:23:10.71	336.42	82.23	
2025-01-17 11:23:10.91	336.49	82.13	
2025-01-17 11:23:11.13	336.57	82.02	
2025-01-17 11:23:11.33	336.64	81.92	
2025-01-17 11:23:11.54	336.72	81.81	
2025-01-17 11:23:11.74	336.78	81.71	
2025-01-17 11:23:11.95	336.85	81.60	
2025-01-17 11:23:12.15	336.92	81.50	
2025-01-17 11:23:12.36	336.98	81.40	
2025-01-17 11:23:12.56	337.04	81.30	
2025-01-17 11:23:12.76	337.10	81.20	
2025-01-17 11:23:12.98	337.17	81.08	
2025-01-17 11:23:13.18	337.22	80.98	
2025-01-17 11:23:13.39	337.28	80.88	
2025-01-17 11:23:13.59	337.33	80.78	
2025-01-17 11:23:13.79	337.39	80.68	
2025-01-17 11:23:13.99	337.44	80.58	
2025-01-17 11:23:14.21	337.49	80.46	
2025-01-17 11:23:14.41	337.54	80.36	
2025-01-17 11:23:14.62	337.60	80.26	
2025-01-17 11:23:14.83	337.65	80.15	
2025-01-17 11:23:15.03	337.69	80.05	
2025-01-17 11:23:15.24	337.74	79.95	
2025-01-17 11:23:15.44	337.78	79.85	
2025-01-17 11:23:15.65	337.83	79.74	
2025-01-17 11:23:15.86	337.87	79.64	
2025-01-17 11:23:16.06	337.92	79.54	
2025-01-17 11:23:16.26	337.96	79.44	
2025-01-17 11:23:16.47	338.00	79.33	
2025-01-17 11:23:16.67	338.04	79.23	
2025-01-17 11:23:16.89	338.08	79.12	
2025-01-17 11:23:17.09	338.12	79.02	
2025-01-17 11:23:17.30	338.16	78.92	
2025-01-17 11:23:17.51	338.20	78.81	
2025-01-17 11:23:17.71	338.23	78.71	
2025-01-17 11:23:17.91	338.27	78.61	
2025-01-17 11:23:18.11	338.30	78.51	
2025-01-17 11:23:18.32	338.34	78.41	
2025-01-17 11:23:18.53	338.38	78.30	
2025-01-17 11:23:18.74	338.41	78.20	
2025-01-17 11:23:18.94	338.44	78.10	
2025-01-17 11:23:19.15	338.48	78.00	
2025-01-17 11:23:19.36	338.51	77.89	
2025-01-17 11:23:19.57	338.54	77.79	
2025-01-17 11:23:19.77	338.57	77.69	
2025-01-17 11:23:19.97	338.60	77.59	
2025-01-17 11:23:20.17	338.63	77.49	
2025-01-17 11:23:20.38	338.66	77.39	
2025-01-17 11:23:20.58	338.69	77.29	
2025-01-17 11:23:20.78	338.72	77.19	
2025-01-17 11:23:20.99	338.75	77.08	
2025-01-17 11:23:21.19	338.77	76.98	
2025-01-17 11:23:21.39	338.80	76.89	
2025-01-17 11:23:21.60	338.83	76.78	
2025-01-17 11:23:21.80	338.85	76.68	
2025-01-17 11:23:22.00	338.88	76.59	
2025-01-17 11:23:22.22	338.91	76.48	
2025-01-17 11:23:22.42	338.93	76.38	
2025-01-17 11:23:22.63	338.96	76.28	
2025-01-17 11:23:22.83	338.98	76.18	
2025-01-17 11:23:23.04	339.00	76.07	
2025-01-17 11:23:23.24	339.03	75.98	
2025-01-17 11:23:23.45	339.05	75.87	
2025-01-17 11:23:23.66	339.08	75.77	
2025-01-17 11:23:23.87	339.10	75.67	
2025-01-17 11:23:24.07	339.12	75.57	
2025-01-17 11:23:24.27	339.14	75.47	
2025-01-17 11:23:24.48	339.17	75.37	
2025-01-17 11:23:24.69	339.19	75.27	
2025-01-17 11:23:24.89	339.21	75.17	
2025-01-17 11:23:25.09	339.23	75.07	
2025-01-17 11:23:25.30	339.25	74.97	
2025-01-17 11:23:25.51	339.27	74.87	
2025-01-17 11:23:25.71	339.29	74.77	
2025-01-17 11:23:25.92	339.31	74.67	
2025-01-17 11:23:26.12	339.33	74.57	
2025-01-17 11:23:26.33	339.35	74.47	
2025-01-17 11:23:26.53	339.37	74.37	
2025-01-17 11:23:26.74	339.39	74.27	
2025-01-17 11:23:26.95	339.41	74.17	
2025-01-17 11:23:27.16	339.43	74.07	
2025-01-17 11:23:27.36	339.44	73.97	
2025-01-17 11:23:27.57	339.46	73.87	
2025-01-17 11:23:27.78	339.48	73.77	
2025-01-17 11:23:27.99	339.50	73.67	
2025-01-17 11:23:28.20	339.52	73.57	
2025-01-17 11:23:28.41	339.53	73.47	
2025-01-17 11:23:28.61	339.55	73.37	
2025-01-17 11:23:28.82	339.57	73.27	
2025-01-17 11:23:29.03	339.58	73.17	
2025-01-17 11:23:29.23	339.60	73.07	
2025-01-17 11:23:29.45	339.62	72.97	
2025-01-17 11:23:29.65	339.63	72.87	
2025-01-17 11:23:29.86	339.65	72.77	
2025-01-17 11:23:30.07	339.67	72.67	
2025-01-17 11:23:30.27	339.68	72.57	
2025-01-17 11:23:30.48	339.70	72.47	
2025-01-17 11:23:30.69	339.71	72.37	
2025-01-17 11:23:30.90	339.73	72.27	
2025-01-17 11:23:31.10	339.74	72.18	
2025-01-17 11:23:31.31	339.76	72.08	
2025-01-17 11:23:31.51	339.77	71.98	
2025-01-17 11:23:31.72	339.78	71.89	
2025-01-17 11:23:31.92	339.80	71.79	
2025-01-17 11:23:32.12	339.81	71.70	
2025-01-17 11:23:32.33	339.83	71.60	
2025-01-17 11:23:32.53	339.84	71.50	
2025-01-17 11:23:32.75	339.85	71.40	
2025-01-17 11:23:32.95	339.87	71.30	
2025-01-17 11:23:33.16	339.88	71.20	
2025-01-17 11:23:33.36	339.89	71.11	
2025-01-17 11:23:33.56	339.91	71.02	
2025-01-17 11:23:33.77	339.92	70.92	
2025-01-17 11:23:33.97	339.93	70.82	
2025-01-17 11:23:34.19	339.95	70.72	
2025-01-17 11:23:34.39	339.96	70.63	
2025-01-17 11:23:34.60	339.97	70.53	
2025-01-17 11:23:34.81	339.98	70.43	
2025-01-17 11:23:35.01	339.99	70.34	
2025-01-17 11:23:35.21	340.01	70.24	
2025-01-17 11:23:35.42	340.02	70.15	

#Closed at: 2025-01-17 11:23:35