passes_logs/2025/01/17/X_MFTI_02/X_MFTI_02__20250117_094929_NOAA_20_rec.log

#Pass ID: 20250117_094929_NOAA 20
#Satellite: NOAA 20
#Configuration: NOAA 20
#Start time: 2025-01-17 09:49:26

#Version: 1.5.20200625
#Station: X_MFTI_02
#Location: 37.5186 lon 55.9291 lat
#TLE: 1 43013U 17073A   23362.44808611  .00000160  00000+0  96626-4 0  9996
#TLE: 2 43013  98.7331 297.9536 0000783  57.5916 302.5335 14.19555620316533

#Time	Az	El	Level	Level2	SNR	BER	Gain	Gain2
2025-01-17 09:49:28.91	110.36	69.78	
2025-01-17 09:49:29.12	110.13	69.84	
2025-01-17 09:49:29.32	109.92	69.90	
2025-01-17 09:49:29.53	109.69	69.97	
2025-01-17 09:49:29.74	109.46	70.03	
2025-01-17 09:49:29.95	109.23	70.09	
2025-01-17 09:49:30.16	109.00	70.16	
2025-01-17 09:49:30.36	108.78	70.22	
2025-01-17 09:49:30.56	108.55	70.28	
2025-01-17 09:49:30.77	108.32	70.34	
2025-01-17 09:49:30.97	108.09	70.40	
2025-01-17 09:49:31.17	107.86	70.46	
2025-01-17 09:49:31.38	107.62	70.52	
2025-01-17 09:49:31.58	107.39	70.58	
2025-01-17 09:49:31.79	107.15	70.64	
2025-01-17 09:49:32.00	106.90	70.70	
2025-01-17 09:49:32.21	106.65	70.76	
2025-01-17 09:49:32.41	106.41	70.81	
2025-01-17 09:49:32.61	106.18	70.87	
2025-01-17 09:49:32.82	105.92	70.93	
2025-01-17 09:49:33.03	105.67	70.99	
2025-01-17 09:49:33.23	105.42	71.04	
2025-01-17 09:49:33.44	105.17	71.10	
2025-01-17 09:49:33.64	104.92	71.16	
2025-01-17 09:49:33.84	104.67	71.21	
2025-01-17 09:49:34.05	104.41	71.27	
2025-01-17 09:49:34.26	104.15	71.33	
2025-01-17 09:49:34.46	103.89	71.38	
2025-01-17 09:49:34.67	103.63	71.44	
2025-01-17 09:49:34.87	103.37	71.49	
2025-01-17 09:49:35.07	103.11	71.54	
2025-01-17 09:49:35.28	102.84	71.60	
2025-01-17 09:49:35.48	102.58	71.65	
2025-01-17 09:49:35.69	102.30	71.71	
2025-01-17 09:49:35.91	102.01	71.76	
2025-01-17 09:49:36.11	101.74	71.81	
2025-01-17 09:49:36.31	101.48	71.86	
2025-01-17 09:49:36.52	101.19	71.92	
2025-01-17 09:49:36.72	100.92	71.97	
2025-01-17 09:49:36.92	100.65	72.02	
2025-01-17 09:49:37.13	100.36	72.07	
2025-01-17 09:49:37.33	100.09	72.12	
2025-01-17 09:49:37.53	99.81	72.17	
2025-01-17 09:49:37.74	99.52	72.22	
2025-01-17 09:49:37.95	99.22	72.27	
2025-01-17 09:49:38.15	98.94	72.31	
2025-01-17 09:49:38.35	98.66	72.36	
2025-01-17 09:49:38.56	98.36	72.41	
2025-01-17 09:49:38.77	98.05	72.46	
2025-01-17 09:49:38.97	97.77	72.51	
2025-01-17 09:49:39.18	97.46	72.55	
2025-01-17 09:49:39.38	97.17	72.60	
2025-01-17 09:49:39.59	96.86	72.64	
2025-01-17 09:49:39.80	96.55	72.69	
2025-01-17 09:49:40.01	96.24	72.74	
2025-01-17 09:49:40.21	95.94	72.78	
2025-01-17 09:49:40.42	95.62	72.82	
2025-01-17 09:49:40.62	95.32	72.87	
2025-01-17 09:49:40.83	95.00	72.91	
2025-01-17 09:49:41.04	94.68	72.95	
2025-01-17 09:49:41.26	94.35	73.00	
2025-01-17 09:49:41.46	94.04	73.04	
2025-01-17 09:49:41.67	93.71	73.08	
2025-01-17 09:49:41.87	93.40	73.12	
2025-01-17 09:49:42.08	93.07	73.16	
2025-01-17 09:49:42.28	92.76	73.20	
2025-01-17 09:49:42.49	92.42	73.24	
2025-01-17 09:49:42.69	92.11	73.28	
2025-01-17 09:49:42.89	91.79	73.32	
2025-01-17 09:49:43.10	91.45	73.35	
2025-01-17 09:49:43.30	91.13	73.39	
2025-01-17 09:49:43.51	90.79	73.43	
2025-01-17 09:49:43.71	90.46	73.46	
2025-01-17 09:49:43.92	90.12	73.50	
2025-01-17 09:49:44.12	89.79	73.53	
2025-01-17 09:49:44.33	89.45	73.57	
2025-01-17 09:49:44.53	89.11	73.60	
2025-01-17 09:49:44.74	88.77	73.63	
2025-01-17 09:49:44.95	88.41	73.67	
2025-01-17 09:49:45.16	88.06	73.70	
2025-01-17 09:49:45.36	87.73	73.73	
2025-01-17 09:49:45.56	87.39	73.76	
2025-01-17 09:49:45.77	87.03	73.79	
2025-01-17 09:49:45.97	86.69	73.82	
2025-01-17 09:49:46.17	86.35	73.85	
2025-01-17 09:49:46.37	86.01	73.88	
2025-01-17 09:49:46.58	85.64	73.91	
2025-01-17 09:49:46.78	85.30	73.93	
2025-01-17 09:49:46.99	84.93	73.96	
2025-01-17 09:49:47.19	84.59	73.99	
2025-01-17 09:49:47.41	84.20	74.02	
2025-01-17 09:49:47.61	83.85	74.04	
2025-01-17 09:49:47.81	83.50	74.06	
2025-01-17 09:49:48.03	83.11	74.09	
2025-01-17 09:49:48.23	82.76	74.11	
2025-01-17 09:49:48.43	82.40	74.14	
2025-01-17 09:49:48.63	82.05	74.16	
2025-01-17 09:49:48.84	81.67	74.18	
2025-01-17 09:49:49.05	81.29	74.20	
2025-01-17 09:49:49.25	80.93	74.22	
2025-01-17 09:49:49.46	80.56	74.24	
2025-01-17 09:49:49.66	80.20	74.26	
2025-01-17 09:49:49.87	79.82	74.28	
2025-01-17 09:49:50.08	79.43	74.30	
2025-01-17 09:49:50.29	79.05	74.31	
2025-01-17 09:49:50.50	78.67	74.33	
2025-01-17 09:49:50.71	78.29	74.35	
2025-01-17 09:49:50.91	77.92	74.36	
2025-01-17 09:49:51.11	77.55	74.38	
2025-01-17 09:49:51.33	77.15	74.39	
2025-01-17 09:49:51.53	76.78	74.40	
2025-01-17 09:49:51.74	76.39	74.42	
2025-01-17 09:49:51.95	76.01	74.43	
2025-01-17 09:49:52.15	75.64	74.44	
2025-01-17 09:49:52.36	75.25	74.45	
2025-01-17 09:49:52.57	74.86	74.46	
2025-01-17 09:49:52.77	74.49	74.47	
2025-01-17 09:49:52.98	74.10	74.48	
2025-01-17 09:49:53.18	73.72	74.49	
2025-01-17 09:49:53.39	73.33	74.49	
2025-01-17 09:49:53.59	72.96	74.50	
2025-01-17 09:49:53.80	72.57	74.51	
2025-01-17 09:49:54.01	72.17	74.51	
2025-01-17 09:49:54.22	71.78	74.52	
2025-01-17 09:49:54.42	71.41	74.52	
2025-01-17 09:49:54.63	71.01	74.52	
2025-01-17 09:49:54.83	70.64	74.53	
2025-01-17 09:49:55.04	70.25	74.53	
2025-01-17 09:49:55.24	69.87	74.53	
2025-01-17 09:49:55.44	69.50	74.53	
2025-01-17 09:49:55.65	69.10	74.53	
2025-01-17 09:49:55.85	68.73	74.53	
2025-01-17 09:49:56.05	68.35	74.53	
2025-01-17 09:49:56.26	67.96	74.53	
2025-01-17 09:49:56.46	67.59	74.52	
2025-01-17 09:49:56.66	67.21	74.52	
2025-01-17 09:49:56.87	66.82	74.52	
2025-01-17 09:49:57.07	66.45	74.51	
2025-01-17 09:49:57.28	66.05	74.51	
2025-01-17 09:49:57.49	65.66	74.50	
2025-01-17 09:49:57.70	65.27	74.49	
2025-01-17 09:49:57.90	64.90	74.48	
2025-01-17 09:49:58.10	64.53	74.48	
2025-01-17 09:49:58.31	64.14	74.47	
2025-01-17 09:49:58.51	63.76	74.46	
2025-01-17 09:49:58.72	63.37	74.45	
2025-01-17 09:49:58.92	63.00	74.44	
2025-01-17 09:49:59.13	62.62	74.43	
2025-01-17 09:49:59.33	62.25	74.41	
2025-01-17 09:49:59.53	61.88	74.40	
2025-01-17 09:49:59.74	61.49	74.39	
2025-01-17 09:49:59.94	61.12	74.37	
2025-01-17 09:50:00.15	60.74	74.36	
2025-01-17 09:50:00.36	60.36	74.34	
2025-01-17 09:50:00.56	59.99	74.33	
2025-01-17 09:50:00.77	59.61	74.31	
2025-01-17 09:50:00.97	59.24	74.30	
2025-01-17 09:50:01.19	58.85	74.28	
2025-01-17 09:50:01.39	58.48	74.26	
2025-01-17 09:50:01.60	58.10	74.24	
2025-01-17 09:50:01.81	57.73	74.22	
2025-01-17 09:50:02.02	57.35	74.20	
2025-01-17 09:50:02.22	56.99	74.18	
2025-01-17 09:50:02.44	56.60	74.15	
2025-01-17 09:50:02.64	56.24	74.13	
2025-01-17 09:50:02.85	55.87	74.11	
2025-01-17 09:50:03.06	55.50	74.08	
2025-01-17 09:50:03.26	55.15	74.06	
2025-01-17 09:50:03.46	54.80	74.04	
2025-01-17 09:50:03.67	54.43	74.01	
2025-01-17 09:50:03.89	54.04	73.98	
2025-01-17 09:50:04.09	53.70	73.96	
2025-01-17 09:50:04.30	53.33	73.93	
2025-01-17 09:50:04.52	52.95	73.90	
2025-01-17 09:50:04.72	52.61	73.87	
2025-01-17 09:50:04.92	52.27	73.84	
2025-01-17 09:50:05.13	51.91	73.81	
2025-01-17 09:50:05.33	51.57	73.78	
2025-01-17 09:50:05.53	51.23	73.75	
2025-01-17 09:50:05.74	50.87	73.72	
2025-01-17 09:50:05.94	50.54	73.69	
2025-01-17 09:50:06.14	50.20	73.66	
2025-01-17 09:50:06.34	49.87	73.63	
2025-01-17 09:50:06.55	49.52	73.59	
2025-01-17 09:50:06.75	49.19	73.56	
2025-01-17 09:50:06.95	48.86	73.53	
2025-01-17 09:50:07.16	48.52	73.49	
2025-01-17 09:50:07.36	48.19	73.46	
2025-01-17 09:50:07.57	47.85	73.42	
2025-01-17 09:50:07.77	47.53	73.38	
2025-01-17 09:50:07.97	47.21	73.35	
2025-01-17 09:50:08.19	46.85	73.31	
2025-01-17 09:50:08.39	46.53	73.27	
2025-01-17 09:50:08.59	46.22	73.23	
2025-01-17 09:50:08.80	45.89	73.19	
2025-01-17 09:50:09.00	45.57	73.15	
2025-01-17 09:50:09.21	45.24	73.11	
2025-01-17 09:50:09.42	44.92	73.07	
2025-01-17 09:50:09.62	44.61	73.03	
2025-01-17 09:50:09.82	44.30	72.99	
2025-01-17 09:50:10.03	43.98	72.95	
2025-01-17 09:50:10.24	43.66	72.90	
2025-01-17 09:50:10.45	43.34	72.86	
2025-01-17 09:50:10.67	43.01	72.81	
2025-01-17 09:50:10.88	42.69	72.77	
2025-01-17 09:50:11.09	42.38	72.72	
2025-01-17 09:50:11.29	42.09	72.68	
2025-01-17 09:50:11.50	41.78	72.63	
2025-01-17 09:50:11.70	41.48	72.59	
2025-01-17 09:50:11.91	41.18	72.54	
2025-01-17 09:50:12.11	40.89	72.50	
2025-01-17 09:50:12.32	40.58	72.45	
2025-01-17 09:50:12.53	40.28	72.40	
2025-01-17 09:50:12.73	40.00	72.35	
2025-01-17 09:50:12.95	39.69	72.30	
2025-01-17 09:50:13.15	39.41	72.25	
2025-01-17 09:50:13.36	39.11	72.20	
2025-01-17 09:50:13.57	38.82	72.15	
2025-01-17 09:50:13.77	38.54	72.10	
2025-01-17 09:50:13.98	38.25	72.05	
2025-01-17 09:50:14.18	37.98	72.00	
2025-01-17 09:50:14.39	37.70	71.95	
2025-01-17 09:50:14.59	37.43	71.90	
2025-01-17 09:50:14.79	37.16	71.85	
2025-01-17 09:50:15.00	36.88	71.80	
2025-01-17 09:50:15.20	36.61	71.75	
2025-01-17 09:50:15.40	36.35	71.69	
2025-01-17 09:50:15.61	36.07	71.64	
2025-01-17 09:50:15.81	35.81	71.59	
2025-01-17 09:50:16.03	35.53	71.53	
2025-01-17 09:50:16.23	35.27	71.48	
2025-01-17 09:50:16.44	35.00	71.42	
2025-01-17 09:50:16.64	34.75	71.37	
2025-01-17 09:50:16.84	34.50	71.31	
2025-01-17 09:50:17.05	34.23	71.26	
2025-01-17 09:50:17.25	33.98	71.20	
2025-01-17 09:50:17.46	33.72	71.14	
2025-01-17 09:50:17.67	33.47	71.09	
2025-01-17 09:50:17.88	33.21	71.03	
2025-01-17 09:50:18.09	32.95	70.97	
2025-01-17 09:50:18.29	32.71	70.91	
2025-01-17 09:50:18.49	32.47	70.86	
2025-01-17 09:50:18.70	32.22	70.80	
2025-01-17 09:50:18.91	31.97	70.74	
2025-01-17 09:50:19.11	31.74	70.68	
2025-01-17 09:50:19.32	31.49	70.62	
2025-01-17 09:50:19.53	31.25	70.56	
2025-01-17 09:50:19.73	31.02	70.50	
2025-01-17 09:50:19.93	30.79	70.44	
2025-01-17 09:50:20.14	30.55	70.38	
2025-01-17 09:50:20.35	30.31	70.32	
2025-01-17 09:50:20.55	30.09	70.26	
2025-01-17 09:50:20.76	29.86	70.20	

#Closed at: 2025-01-17 09:50:20