passes_logs/2025/01/17/X_MFTI_02/X_MFTI_02__20250117_233950_NOAA_20_rec.log

#Pass ID: 20250117_233950_NOAA 20
#Satellite: NOAA 20
#Configuration: NOAA 20
#Start time: 2025-01-17 23:39:45

#Version: 1.5.20200625
#Station: X_MFTI_02
#Location: 37.5186 lon 55.9291 lat
#TLE: 1 43013U 17073A   23362.44808611  .00000160  00000+0  96626-4 0  9996
#TLE: 2 43013  98.7331 297.9536 0000783  57.5916 302.5335 14.19555620316533

#Time	Az	El	Level	Level2	SNR	BER	Gain	Gain2
2025-01-17 23:39:47.92	40.84	69.50	
2025-01-17 23:39:48.13	40.97	69.59	
2025-01-17 23:39:48.34	41.09	69.68	
2025-01-17 23:39:48.55	41.22	69.77	
2025-01-17 23:39:48.75	41.34	69.85	
2025-01-17 23:39:48.95	41.46	69.94	
2025-01-17 23:39:49.16	41.59	70.02	
2025-01-17 23:39:49.37	41.72	70.11	
2025-01-17 23:39:49.57	41.84	70.20	
2025-01-17 23:39:49.77	41.97	70.28	
2025-01-17 23:39:49.98	42.10	70.37	
2025-01-17 23:39:50.18	42.23	70.45	
2025-01-17 23:39:50.39	42.37	70.54	
2025-01-17 23:39:50.59	42.50	70.62	
2025-01-17 23:39:50.80	42.64	70.71	
2025-01-17 23:39:51.00	42.77	70.79	
2025-01-17 23:39:51.20	42.91	70.88	
2025-01-17 23:39:51.42	43.06	70.97	
2025-01-17 23:39:51.62	43.20	71.05	
2025-01-17 23:39:51.83	43.34	71.14	
2025-01-17 23:39:52.03	43.48	71.23	
2025-01-17 23:39:52.24	43.63	71.31	
2025-01-17 23:39:52.45	43.78	71.40	
2025-01-17 23:39:52.65	43.92	71.48	
2025-01-17 23:39:52.86	44.08	71.57	
2025-01-17 23:39:53.06	44.22	71.66	
2025-01-17 23:39:53.27	44.38	71.74	
2025-01-17 23:39:53.47	44.53	71.83	
2025-01-17 23:39:53.68	44.69	71.91	
2025-01-17 23:39:53.88	44.84	72.00	
2025-01-17 23:39:54.08	45.00	72.08	
2025-01-17 23:39:54.29	45.16	72.17	
2025-01-17 23:39:54.50	45.33	72.25	
2025-01-17 23:39:54.70	45.49	72.34	
2025-01-17 23:39:54.90	45.65	72.42	
2025-01-17 23:39:55.11	45.82	72.51	
2025-01-17 23:39:55.32	45.99	72.59	
2025-01-17 23:39:55.53	46.16	72.68	
2025-01-17 23:39:55.74	46.34	72.77	
2025-01-17 23:39:55.94	46.51	72.85	
2025-01-17 23:39:56.14	46.68	72.93	
2025-01-17 23:39:56.35	46.86	73.02	
2025-01-17 23:39:56.56	47.05	73.10	
2025-01-17 23:39:56.76	47.22	73.19	
2025-01-17 23:39:56.97	47.41	73.27	
2025-01-17 23:39:57.17	47.59	73.36	
2025-01-17 23:39:57.37	47.77	73.44	
2025-01-17 23:39:57.57	47.96	73.52	
2025-01-17 23:39:57.78	48.15	73.60	
2025-01-17 23:39:57.98	48.34	73.69	
2025-01-17 23:39:58.19	48.54	73.77	
2025-01-17 23:39:58.39	48.73	73.85	
2025-01-17 23:39:58.60	48.94	73.94	
2025-01-17 23:39:58.80	49.13	74.02	
2025-01-17 23:39:59.01	49.34	74.10	
2025-01-17 23:39:59.21	49.54	74.18	
2025-01-17 23:39:59.42	49.76	74.27	
2025-01-17 23:39:59.62	49.96	74.35	
2025-01-17 23:39:59.83	50.18	74.43	
2025-01-17 23:40:00.03	50.39	74.51	
2025-01-17 23:40:00.24	50.61	74.60	
2025-01-17 23:40:00.44	50.82	74.68	
2025-01-17 23:40:00.65	51.05	74.76	
2025-01-17 23:40:00.85	51.27	74.84	
2025-01-17 23:40:01.06	51.50	74.92	
2025-01-17 23:40:01.26	51.73	75.00	
2025-01-17 23:40:01.46	51.95	75.08	
2025-01-17 23:40:01.66	52.18	75.16	
2025-01-17 23:40:01.87	52.43	75.24	
2025-01-17 23:40:02.07	52.66	75.32	
2025-01-17 23:40:02.29	52.92	75.41	
2025-01-17 23:40:02.50	53.17	75.49	
2025-01-17 23:40:02.70	53.42	75.57	
2025-01-17 23:40:02.90	53.66	75.65	
2025-01-17 23:40:03.11	53.92	75.73	
2025-01-17 23:40:03.31	54.17	75.81	
2025-01-17 23:40:03.51	54.43	75.88	
2025-01-17 23:40:03.72	54.70	75.96	
2025-01-17 23:40:03.93	54.97	76.04	
2025-01-17 23:40:04.14	55.24	76.12	
2025-01-17 23:40:04.34	55.51	76.20	
2025-01-17 23:40:04.54	55.78	76.28	
2025-01-17 23:40:04.75	56.07	76.35	
2025-01-17 23:40:04.95	56.34	76.43	
2025-01-17 23:40:05.15	56.62	76.50	
2025-01-17 23:40:05.36	56.91	76.58	
2025-01-17 23:40:05.56	57.20	76.66	
2025-01-17 23:40:05.77	57.50	76.74	
2025-01-17 23:40:05.97	57.79	76.81	
2025-01-17 23:40:06.17	58.09	76.88	
2025-01-17 23:40:06.38	58.40	76.96	
2025-01-17 23:40:06.58	58.71	77.03	
2025-01-17 23:40:06.78	59.01	77.11	
2025-01-17 23:40:06.99	59.34	77.18	
2025-01-17 23:40:07.20	59.67	77.26	
2025-01-17 23:40:07.41	60.00	77.33	
2025-01-17 23:40:07.61	60.32	77.40	
2025-01-17 23:40:07.81	60.64	77.47	
2025-01-17 23:40:08.02	60.99	77.55	
2025-01-17 23:40:08.22	61.32	77.62	
2025-01-17 23:40:08.43	61.67	77.69	
2025-01-17 23:40:08.64	62.03	77.76	
2025-01-17 23:40:08.85	62.39	77.84	
2025-01-17 23:40:09.05	62.74	77.90	
2025-01-17 23:40:09.25	63.09	77.97	
2025-01-17 23:40:09.45	63.45	78.04	
2025-01-17 23:40:09.66	63.83	78.11	
2025-01-17 23:40:09.87	64.21	78.18	
2025-01-17 23:40:10.07	64.58	78.25	
2025-01-17 23:40:10.27	64.96	78.31	
2025-01-17 23:40:10.47	65.34	78.38	
2025-01-17 23:40:10.68	65.74	78.45	
2025-01-17 23:40:10.88	66.12	78.51	
2025-01-17 23:40:11.09	66.54	78.58	
2025-01-17 23:40:11.29	66.93	78.64	
2025-01-17 23:40:11.49	67.33	78.70	
2025-01-17 23:40:11.70	67.76	78.77	
2025-01-17 23:40:11.90	68.17	78.83	
2025-01-17 23:40:12.11	68.61	78.90	
2025-01-17 23:40:12.32	69.05	78.96	
2025-01-17 23:40:12.53	69.49	79.02	
2025-01-17 23:40:12.74	69.94	79.09	
2025-01-17 23:40:12.94	70.38	79.14	
2025-01-17 23:40:13.14	70.82	79.20	
2025-01-17 23:40:13.35	71.29	79.26	
2025-01-17 23:40:13.55	71.74	79.32	
2025-01-17 23:40:13.75	72.19	79.38	
2025-01-17 23:40:13.96	72.67	79.44	
2025-01-17 23:40:14.16	73.14	79.49	
2025-01-17 23:40:14.37	73.63	79.55	
2025-01-17 23:40:14.58	74.13	79.60	
2025-01-17 23:40:14.78	74.61	79.66	
2025-01-17 23:40:14.98	75.09	79.71	
2025-01-17 23:40:15.18	75.58	79.76	
2025-01-17 23:40:15.39	76.10	79.81	
2025-01-17 23:40:15.59	76.60	79.86	
2025-01-17 23:40:15.80	77.14	79.92	
2025-01-17 23:40:16.00	77.65	79.96	
2025-01-17 23:40:16.20	78.16	80.01	
2025-01-17 23:40:16.41	78.71	80.06	
2025-01-17 23:40:16.61	79.23	80.11	
2025-01-17 23:40:16.82	79.79	80.15	
2025-01-17 23:40:17.02	80.33	80.20	
2025-01-17 23:40:17.23	80.89	80.24	
2025-01-17 23:40:17.44	81.47	80.29	
2025-01-17 23:40:17.64	82.02	80.33	
2025-01-17 23:40:17.84	82.57	80.37	
2025-01-17 23:40:18.05	83.16	80.41	
2025-01-17 23:40:18.25	83.73	80.45	
2025-01-17 23:40:18.46	84.33	80.49	
2025-01-17 23:40:18.66	84.90	80.53	
2025-01-17 23:40:18.86	85.48	80.57	
2025-01-17 23:40:19.07	86.09	80.60	
2025-01-17 23:40:19.28	86.71	80.64	
2025-01-17 23:40:19.49	87.34	80.67	
2025-01-17 23:40:19.70	87.96	80.71	
2025-01-17 23:40:19.90	88.56	80.74	
2025-01-17 23:40:20.10	89.17	80.77	
2025-01-17 23:40:20.31	89.81	80.80	
2025-01-17 23:40:20.51	90.42	80.83	
2025-01-17 23:40:20.72	91.07	80.86	
2025-01-17 23:40:20.92	91.69	80.88	
2025-01-17 23:40:21.13	92.35	80.91	
2025-01-17 23:40:21.34	93.01	80.93	
2025-01-17 23:40:21.54	93.64	80.95	
2025-01-17 23:40:21.75	94.31	80.98	
2025-01-17 23:40:21.95	94.95	81.00	
2025-01-17 23:40:22.17	95.65	81.02	
2025-01-17 23:40:22.37	96.30	81.04	
2025-01-17 23:40:22.58	96.98	81.05	
2025-01-17 23:40:22.78	97.63	81.07	
2025-01-17 23:40:22.99	98.31	81.09	
2025-01-17 23:40:23.19	98.96	81.10	
2025-01-17 23:40:23.40	99.65	81.11	
2025-01-17 23:40:23.60	100.31	81.12	
2025-01-17 23:40:23.80	100.97	81.13	
2025-01-17 23:40:24.01	101.66	81.14	
2025-01-17 23:40:24.23	102.39	81.15	
2025-01-17 23:40:24.43	103.05	81.16	
2025-01-17 23:40:24.64	103.75	81.16	
2025-01-17 23:40:24.84	104.41	81.17	
2025-01-17 23:40:25.04	105.08	81.17	
2025-01-17 23:40:25.24	105.74	81.17	
2025-01-17 23:40:25.45	106.44	81.17	
2025-01-17 23:40:25.66	107.14	81.17	
2025-01-17 23:40:25.86	107.80	81.17	
2025-01-17 23:40:26.08	108.53	81.16	
2025-01-17 23:40:26.28	109.20	81.16	
2025-01-17 23:40:26.49	109.89	81.15	
2025-01-17 23:40:26.69	110.56	81.15	
2025-01-17 23:40:26.90	111.25	81.14	
2025-01-17 23:40:27.10	111.91	81.13	
2025-01-17 23:40:27.30	112.57	81.12	
2025-01-17 23:40:27.51	113.26	81.10	
2025-01-17 23:40:27.72	113.94	81.09	
2025-01-17 23:40:27.94	114.66	81.08	
2025-01-17 23:40:28.14	115.31	81.06	
2025-01-17 23:40:28.34	115.96	81.04	
2025-01-17 23:40:28.56	116.67	81.02	
2025-01-17 23:40:28.76	117.31	81.01	
2025-01-17 23:40:28.98	118.02	80.98	
2025-01-17 23:40:29.19	118.68	80.96	
2025-01-17 23:40:29.39	119.32	80.94	
2025-01-17 23:40:29.59	119.95	80.92	
2025-01-17 23:40:29.80	120.60	80.89	
2025-01-17 23:40:30.01	121.26	80.86	
2025-01-17 23:40:30.21	121.88	80.84	
2025-01-17 23:40:30.42	122.52	80.81	
2025-01-17 23:40:30.62	123.14	80.78	
2025-01-17 23:40:30.82	123.74	80.75	
2025-01-17 23:40:31.03	124.38	80.72	
2025-01-17 23:40:31.23	124.98	80.69	
2025-01-17 23:40:31.44	125.60	80.65	
2025-01-17 23:40:31.64	126.19	80.62	
2025-01-17 23:40:31.85	126.81	80.58	
2025-01-17 23:40:32.05	127.39	80.54	
2025-01-17 23:40:32.26	127.99	80.51	
2025-01-17 23:40:32.46	128.57	80.47	
2025-01-17 23:40:32.66	129.13	80.43	
2025-01-17 23:40:32.87	129.72	80.39	
2025-01-17 23:40:33.07	130.28	80.35	
2025-01-17 23:40:33.28	130.86	80.30	
2025-01-17 23:40:33.48	131.41	80.26	
2025-01-17 23:40:33.68	131.95	80.22	
2025-01-17 23:40:33.88	132.49	80.17	
2025-01-17 23:40:34.09	133.05	80.13	
2025-01-17 23:40:34.29	133.58	80.08	
2025-01-17 23:40:34.50	134.13	80.03	
2025-01-17 23:40:34.71	134.67	79.98	
2025-01-17 23:40:34.91	135.19	79.94	
2025-01-17 23:40:35.12	135.72	79.88	
2025-01-17 23:40:35.32	136.22	79.83	
2025-01-17 23:40:35.53	136.74	79.78	
2025-01-17 23:40:35.74	137.26	79.73	
2025-01-17 23:40:35.94	137.75	79.68	
2025-01-17 23:40:36.15	138.25	79.62	
2025-01-17 23:40:36.36	138.76	79.56	
2025-01-17 23:40:36.57	139.25	79.51	
2025-01-17 23:40:36.78	139.74	79.45	
2025-01-17 23:40:36.98	140.20	79.39	
2025-01-17 23:40:37.19	140.68	79.33	
2025-01-17 23:40:37.40	141.15	79.27	
2025-01-17 23:40:37.60	141.60	79.22	
2025-01-17 23:40:37.80	142.04	79.16	
2025-01-17 23:40:38.01	142.50	79.10	
2025-01-17 23:40:38.22	142.95	79.04	
2025-01-17 23:40:38.43	143.40	78.97	
2025-01-17 23:40:38.64	143.84	78.91	
2025-01-17 23:40:38.84	144.26	78.85	
2025-01-17 23:40:39.05	144.69	78.78	
2025-01-17 23:40:39.26	145.12	78.72	
2025-01-17 23:40:39.46	145.52	78.65	
2025-01-17 23:40:39.67	145.94	78.59	
2025-01-17 23:40:39.88	146.35	78.52	
2025-01-17 23:40:40.08	146.74	78.46	
2025-01-17 23:40:40.28	147.12	78.39	
2025-01-17 23:40:40.49	147.52	78.32	
2025-01-17 23:40:40.69	147.90	78.26	
2025-01-17 23:40:40.89	148.27	78.19	
2025-01-17 23:40:41.10	148.65	78.12	
2025-01-17 23:40:41.30	149.01	78.05	
2025-01-17 23:40:41.50	149.37	77.99	
2025-01-17 23:40:41.71	149.74	77.91	
2025-01-17 23:40:41.92	150.11	77.84	
2025-01-17 23:40:42.13	150.47	77.77	
2025-01-17 23:40:42.33	150.81	77.70	
2025-01-17 23:40:42.54	151.17	77.63	
2025-01-17 23:40:42.74	151.50	77.56	
2025-01-17 23:40:42.95	151.85	77.48	
2025-01-17 23:40:43.15	152.17	77.41	
2025-01-17 23:40:43.35	152.49	77.34	
2025-01-17 23:40:43.55	152.81	77.27	
2025-01-17 23:40:43.76	153.14	77.19	
2025-01-17 23:40:43.96	153.45	77.12	
2025-01-17 23:40:44.16	153.76	77.05	
2025-01-17 23:40:44.37	154.08	76.97	
2025-01-17 23:40:44.57	154.38	76.90	
2025-01-17 23:40:44.77	154.67	76.83	
2025-01-17 23:40:44.98	154.98	76.75	
2025-01-17 23:40:45.18	155.27	76.67	
2025-01-17 23:40:45.38	155.56	76.60	
2025-01-17 23:40:45.59	155.85	76.52	
2025-01-17 23:40:45.79	156.13	76.45	
2025-01-17 23:40:46.00	156.42	76.37	
2025-01-17 23:40:46.20	156.70	76.29	
2025-01-17 23:40:46.41	156.98	76.21	
2025-01-17 23:40:46.61	157.25	76.14	
2025-01-17 23:40:46.81	157.51	76.06	
2025-01-17 23:40:47.02	157.78	75.98	
2025-01-17 23:40:47.23	158.05	75.90	
2025-01-17 23:40:47.43	158.31	75.82	
2025-01-17 23:40:47.64	158.57	75.74	
2025-01-17 23:40:47.85	158.83	75.66	
2025-01-17 23:40:48.05	159.08	75.58	
2025-01-17 23:40:48.25	159.32	75.50	
2025-01-17 23:40:48.46	159.58	75.42	
2025-01-17 23:40:48.66	159.81	75.34	
2025-01-17 23:40:48.87	160.06	75.26	
2025-01-17 23:40:49.07	160.29	75.18	
2025-01-17 23:40:49.28	160.53	75.10	
2025-01-17 23:40:49.48	160.76	75.02	
2025-01-17 23:40:49.69	161.00	74.94	
2025-01-17 23:40:49.89	161.22	74.86	
2025-01-17 23:40:50.10	161.45	74.77	
2025-01-17 23:40:50.30	161.67	74.69	
2025-01-17 23:40:50.51	161.89	74.61	
2025-01-17 23:40:50.71	162.11	74.53	
2025-01-17 23:40:50.92	162.33	74.44	
2025-01-17 23:40:51.12	162.53	74.36	
2025-01-17 23:40:51.32	162.74	74.28	
2025-01-17 23:40:51.53	162.95	74.20	
2025-01-17 23:40:51.73	163.16	74.12	
2025-01-17 23:40:51.93	163.35	74.04	
2025-01-17 23:40:52.14	163.56	73.95	
2025-01-17 23:40:52.35	163.77	73.87	
2025-01-17 23:40:52.56	163.97	73.78	
2025-01-17 23:40:52.76	164.16	73.70	
2025-01-17 23:40:52.98	164.37	73.61	
2025-01-17 23:40:53.18	164.55	73.53	
2025-01-17 23:40:53.39	164.75	73.44	
2025-01-17 23:40:53.59	164.93	73.36	
2025-01-17 23:40:53.80	165.12	73.27	
2025-01-17 23:40:54.01	165.31	73.19	
2025-01-17 23:40:54.21	165.48	73.11	
2025-01-17 23:40:54.42	165.67	73.02	
2025-01-17 23:40:54.63	165.85	72.93	
2025-01-17 23:40:54.83	166.02	72.85	
2025-01-17 23:40:55.03	166.19	72.77	
2025-01-17 23:40:55.24	166.37	72.68	
2025-01-17 23:40:55.44	166.53	72.60	
2025-01-17 23:40:55.64	166.70	72.51	
2025-01-17 23:40:55.85	166.87	72.43	
2025-01-17 23:40:56.05	167.03	72.34	
2025-01-17 23:40:56.26	167.20	72.26	
2025-01-17 23:40:56.47	167.36	72.17	
2025-01-17 23:40:56.67	167.52	72.09	
2025-01-17 23:40:56.87	167.68	72.00	
2025-01-17 23:40:57.07	167.83	71.92	
2025-01-17 23:40:57.28	167.99	71.83	
2025-01-17 23:40:57.48	168.14	71.75	
2025-01-17 23:40:57.69	168.30	71.66	
2025-01-17 23:40:57.90	168.45	71.57	
2025-01-17 23:40:58.11	168.60	71.49	
2025-01-17 23:40:58.31	168.75	71.40	
2025-01-17 23:40:58.52	168.90	71.31	
2025-01-17 23:40:58.72	169.04	71.23	
2025-01-17 23:40:58.92	169.18	71.15	
2025-01-17 23:40:59.13	169.33	71.06	
2025-01-17 23:40:59.33	169.47	70.97	
2025-01-17 23:40:59.54	169.61	70.89	
2025-01-17 23:40:59.74	169.74	70.80	
2025-01-17 23:40:59.94	169.88	70.72	
2025-01-17 23:41:00.15	170.02	70.63	
2025-01-17 23:41:00.36	170.16	70.54	
2025-01-17 23:41:00.57	170.29	70.45	
2025-01-17 23:41:00.77	170.42	70.37	
2025-01-17 23:41:00.97	170.55	70.29	

#Closed at: 2025-01-17 23:41:01