passes_logs/2025/01/02/PPK-1/PPK-1__20250102_094830_TY-39_rec.log

#Pass ID: 20250102_094830_TY-39
#Satellite: TY-39
#Configuration: TY-39
#almurnet v.1.7.20230919.trace
#Start time: 2025-01-02 09:48:28

#Version: 2.2.20231116
#Station: PPK-1
#Location: 158.6 lon 53.06666 lat
#TLE: 1 51832U 22019J   25001.87306147  .00016884  00000+0  85944-3 0  9996
#TLE: 2 51832  97.4114  72.3715 0007701 287.3887  72.6504 15.16856801157154

#Time	Az	El	Level	Level2	SNR	BER	BlckErr	Temp	State
2025-01-02 09:48:28.47	123.57	7.86	-66.5	-72.0	3.4	0.00e+00	0	46	0
2025-01-02 09:48:30.36	123.35	8.02	-66.4	-71.9	3.4	0.00e+00	0	46	104
2025-01-02 09:48:32.26	123.12	8.17	-66.4	-72.0	3.5	0.00e+00	0	47	104
2025-01-02 09:48:34.16	122.89	8.33	-65.9	-71.5	3.7	0.00e+00	0	47	104
2025-01-02 09:48:36.06	122.66	8.48	-65.7	-71.3	3.7	0.00e+00	0	47	104
2025-01-02 09:48:37.96	122.42	8.64	-65.9	-71.5	3.6	0.00e+00	0	47	104
2025-01-02 09:48:39.86	122.18	8.80	-66.1	-71.5	3.5	0.00e+00	0	48	104
2025-01-02 09:48:41.76	121.94	8.96	-66.1	-71.5	3.5	0.00e+00	0	48	104
2025-01-02 09:48:43.66	121.70	9.12	-65.8	-71.2	3.5	0.00e+00	0	48	104
2025-01-02 09:48:45.56	121.45	9.28	-66.7	-72.5	3.7	0.00e+00	0	49	104
2025-01-02 09:48:47.46	121.19	9.44	-67.0	-72.6	3.7	0.00e+00	0	49	104
2025-01-02 09:48:49.35	120.94	9.61	-67.0	-72.6	3.6	0.00e+00	0	49	104
2025-01-02 09:48:51.25	120.68	9.77	-67.1	-72.8	3.6	0.00e+00	0	50	104
2025-01-02 09:48:53.15	120.42	9.93	-67.0	-72.6	3.5	0.00e+00	0	50	104
2025-01-02 09:48:55.05	120.15	10.10	-66.7	-71.9	3.5	0.00e+00	0	50	104
2025-01-02 09:48:56.95	119.88	10.27	-66.7	-71.9	3.7	0.00e+00	0	51	104
2025-01-02 09:48:58.85	119.61	10.43	-66.8	-72.2	3.7	0.00e+00	0	51	104
2025-01-02 09:49:00.75	119.33	10.60	-66.9	-72.4	3.6	0.00e+00	0	51	104
2025-01-02 09:49:02.65	119.04	10.77	-67.2	-72.9	3.6	0.00e+00	0	51	104
2025-01-02 09:49:04.55	118.76	10.94	-67.2	-73.1	3.6	0.00e+00	0	52	104
2025-01-02 09:49:06.45	118.47	11.12	-67.2	-73.1	3.6	0.00e+00	0	52	104
2025-01-02 09:49:08.35	118.17	11.29	-67.2	-73.3	3.7	0.00e+00	0	52	104
2025-01-02 09:49:10.25	117.88	11.46	-67.2	-73.2	3.7	0.00e+00	0	52	104
2025-01-02 09:49:12.14	117.57	11.64	-67.2	-73.2	3.6	0.00e+00	0	53	104
2025-01-02 09:49:14.04	117.27	11.81	-67.3	-72.7	3.6	0.00e+00	0	53	104
2025-01-02 09:49:15.93	116.96	11.99	-67.1	-72.2	3.6	0.00e+00	0	53	104
2025-01-02 09:49:17.83	116.64	12.16	-66.8	-71.6	3.5	0.00e+00	0	53	104
2025-01-02 09:49:19.73	116.32	12.34	-67.0	-72.0	3.7	0.00e+00	0	54	104
2025-01-02 09:49:21.63	115.99	12.52	-67.0	-71.9	3.7	0.00e+00	0	54	104
2025-01-02 09:49:23.53	115.66	12.70	-66.9	-71.8	3.6	0.00e+00	0	54	104
2025-01-02 09:49:25.43	115.33	12.88	-67.3	-72.8	3.6	0.00e+00	0	54	104
2025-01-02 09:49:27.33	114.99	13.06	-67.2	-72.4	3.6	0.00e+00	0	55	104
2025-01-02 09:49:29.23	114.64	13.25	-67.2	-72.4	3.6	0.00e+00	0	55	104
2025-01-02 09:49:31.13	114.29	13.43	-67.2	-72.5	3.7	0.00e+00	0	55	104
2025-01-02 09:49:33.02	113.94	13.61	-67.4	-73.0	3.7	0.00e+00	0	55	104
2025-01-02 09:49:34.92	113.58	13.80	-67.1	-72.2	3.7	0.00e+00	0	55	104
2025-01-02 09:49:36.82	113.21	13.98	-66.9	-71.9	3.6	0.00e+00	0	56	104
2025-01-02 09:49:38.71	112.84	14.17	-66.7	-71.5	3.6	0.00e+00	0	56	104
2025-01-02 09:49:40.61	112.46	14.36	-66.8	-71.8	3.5	0.00e+00	0	56	104
2025-01-02 09:49:42.51	112.08	14.55	-53.6	-56.1	5.7	0.00e+00	0	56	104
2025-01-02 09:49:44.41	111.69	14.74	-53.7	-56.6	12.4	1.25e-04	0	57	0
2025-01-02 09:49:46.31	111.29	14.92	-53.4	-56.0	13.0	2.77e-05	0	57	0
2025-01-02 09:49:48.20	110.90	15.11	-53.2	-55.6	12.4	1.66e-04	0	57	0
2025-01-02 09:49:50.10	110.49	15.31	-53.1	-55.9	12.8	6.93e-05	0	57	0
2025-01-02 09:49:51.99	110.08	15.50	-53.0	-55.7	13.0	2.77e-05	0	58	0
2025-01-02 09:49:53.89	109.66	15.69	-53.0	-55.7	12.7	8.32e-05	0	58	0
2025-01-02 09:49:55.79	109.23	15.88	-53.0	-55.8	12.8	2.77e-05	0	58	0
2025-01-02 09:49:57.69	108.80	16.07	-53.0	-55.6	12.7	2.77e-05	0	58	0
2025-01-02 09:49:59.58	108.36	16.27	-53.1	-56.0	12.6	5.54e-05	0	58	0
2025-01-02 09:50:01.48	107.92	16.46	-53.4	-56.5	12.3	9.71e-05	0	59	0
2025-01-02 09:50:03.37	107.47	16.66	-53.3	-56.4	12.6	9.71e-05	0	59	0
2025-01-02 09:50:05.27	107.01	16.85	-53.5	-56.6	12.4	4.16e-05	0	59	0
2025-01-02 09:50:07.17	106.54	17.05	-53.4	-56.6	12.0	1.73e-04	0	59	0
2025-01-02 09:50:09.06	106.07	17.24	-53.1	-56.0	12.3	1.39e-04	0	59	0
2025-01-02 09:50:10.96	105.59	17.44	-53.0	-55.8	12.1	1.94e-04	0	59	0
2025-01-02 09:50:12.85	105.11	17.63	-52.8	-55.3	12.6	1.11e-04	0	60	0
2025-01-02 09:50:14.75	104.61	17.83	-52.7	-55.1	12.7	2.77e-05	0	60	0
2025-01-02 09:50:16.65	104.11	18.02	-52.5	-55.3	12.3	1.25e-04	0	60	0
2025-01-02 09:50:18.55	103.60	18.22	-52.4	-55.2	12.4	1.32e-04	0	60	0
2025-01-02 09:50:20.45	103.08	18.41	-52.2	-54.8	12.5	9.71e-05	0	60	0
2025-01-02 09:50:22.34	102.56	18.61	-52.4	-55.0	12.8	3.46e-05	0	60	0
2025-01-02 09:50:24.24	102.03	18.80	-52.5	-55.3	13.2	1.38e-05	0	61	0
2025-01-02 09:50:26.14	101.49	19.00	-52.6	-55.3	12.9	0.00e+00	0	61	0
2025-01-02 09:50:28.04	100.94	19.19	-52.4	-55.0	12.7	2.08e-05	0	61	0
2025-01-02 09:50:29.94	100.38	19.39	-52.3	-54.9	12.7	4.85e-05	0	61	0
2025-01-02 09:50:31.83	99.82	19.58	-52.3	-54.9	12.9	1.38e-05	0	61	0
2025-01-02 09:50:33.73	99.25	19.77	-52.2	-54.7	13.1	0.00e+00	0	62	0
2025-01-02 09:50:35.63	98.67	19.96	-51.9	-54.6	13.2	6.90e-06	0	62	0
2025-01-02 09:50:37.52	98.08	20.15	-51.8	-54.2	13.2	1.38e-05	0	62	0
2025-01-02 09:50:39.42	97.49	20.34	-51.7	-54.1	13.3	1.38e-05	0	62	0
2025-01-02 09:50:41.31	96.88	20.52	-51.7	-54.1	13.4	1.38e-05	0	62	0
2025-01-02 09:50:43.20	96.27	20.71	-51.6	-54.3	13.8	0.00e+00	0	62	0
2025-01-02 09:50:45.10	95.65	20.90	-51.4	-54.0	13.9	6.90e-06	0	62	0
2025-01-02 09:50:47.00	95.02	21.08	-51.4	-53.9	13.9	0.00e+00	0	62	0
2025-01-02 09:50:48.89	94.38	21.26	-51.4	-54.0	13.7	0.00e+00	0	62	0
2025-01-02 09:50:50.79	93.74	21.44	-51.4	-54.0	13.9	0.00e+00	0	62	0
2025-01-02 09:50:52.69	93.08	21.62	-51.3	-53.8	14.0	0.00e+00	0	63	0
2025-01-02 09:50:54.58	92.42	21.79	-51.2	-53.6	14.3	0.00e+00	0	62	0
2025-01-02 09:50:56.48	91.75	21.96	-51.1	-54.0	14.4	0.00e+00	0	63	0
2025-01-02 09:50:58.38	91.06	22.14	-50.9	-53.5	14.7	0.00e+00	0	63	0
2025-01-02 09:51:00.27	90.38	22.30	-50.6	-52.9	14.6	0.00e+00	0	63	0
2025-01-02 09:51:02.17	89.68	22.47	-50.4	-53.0	14.7	0.00e+00	0	63	0
2025-01-02 09:51:04.07	88.97	22.63	-50.4	-53.0	15.0	0.00e+00	0	63	0
2025-01-02 09:51:05.97	88.26	22.79	-50.1	-52.4	15.1	0.00e+00	0	63	0
2025-01-02 09:51:07.87	87.54	22.95	-50.0	-52.7	15.1	0.00e+00	0	64	0
2025-01-02 09:51:09.77	86.81	23.10	-49.9	-52.6	15.1	0.00e+00	0	64	0
2025-01-02 09:51:11.67	86.07	23.25	-49.9	-52.5	15.3	0.00e+00	0	64	0
2025-01-02 09:51:13.57	85.32	23.40	-49.8	-52.3	15.3	0.00e+00	0	64	0
2025-01-02 09:51:15.47	84.57	23.54	-49.7	-52.1	15.2	0.00e+00	0	64	0
2025-01-02 09:51:17.37	83.81	23.68	-49.9	-52.5	15.1	0.00e+00	0	64	0
2025-01-02 09:51:19.26	83.04	23.81	-49.9	-52.5	15.1	0.00e+00	0	64	0
2025-01-02 09:51:21.16	82.27	23.94	-50.0	-52.7	14.9	0.00e+00	0	64	0
2025-01-02 09:51:23.06	81.49	24.06	-49.9	-52.6	14.5	0.00e+00	0	64	0
2025-01-02 09:51:24.96	80.70	24.18	-49.9	-52.6	14.5	0.00e+00	0	64	0
2025-01-02 09:51:26.86	79.90	24.30	-50.0	-52.8	14.4	0.00e+00	0	64	0
2025-01-02 09:51:28.76	79.10	24.41	-49.9	-52.6	14.6	0.00e+00	0	65	0
2025-01-02 09:51:30.66	78.29	24.52	-50.1	-52.8	14.9	0.00e+00	0	65	0
2025-01-02 09:51:32.56	77.48	24.62	-49.9	-52.6	15.1	0.00e+00	0	65	0
2025-01-02 09:51:34.46	76.66	24.71	-49.9	-52.4	15.2	0.00e+00	0	65	0
2025-01-02 09:51:36.36	75.83	24.80	-49.9	-52.4	15.3	0.00e+00	0	65	0
2025-01-02 09:51:38.26	75.00	24.89	-49.8	-52.4	15.3	0.00e+00	0	65	0
2025-01-02 09:51:40.15	74.17	24.96	-49.8	-52.2	15.3	0.00e+00	0	65	0
2025-01-02 09:51:42.05	73.33	25.04	-49.8	-52.4	15.3	0.00e+00	0	65	0
2025-01-02 09:51:43.95	72.49	25.10	-49.7	-52.1	15.3	0.00e+00	0	65	0
2025-01-02 09:51:45.85	71.64	25.16	-49.7	-52.1	15.3	0.00e+00	0	65	0
2025-01-02 09:51:47.75	70.79	25.22	-49.5	-52.3	15.3	0.00e+00	0	66	0
2025-01-02 09:51:49.65	69.94	25.27	-49.7	-52.5	15.2	0.00e+00	0	66	0
2025-01-02 09:51:51.55	69.09	25.31	-49.9	-53.0	15.2	0.00e+00	0	66	0
2025-01-02 09:51:53.44	68.23	25.34	-49.8	-52.8	15.2	0.00e+00	0	66	0
2025-01-02 09:51:55.34	67.37	25.37	-49.7	-52.7	15.2	0.00e+00	0	66	0
2025-01-02 09:51:57.24	66.51	25.40	-49.8	-52.9	15.3	0.00e+00	0	66	0
2025-01-02 09:51:59.14	65.65	25.41	-49.7	-52.5	15.4	0.00e+00	0	66	0
2025-01-02 09:52:01.04	64.79	25.42	-50.0	-53.3	15.2	0.00e+00	0	66	0
2025-01-02 09:52:02.93	63.93	25.43	-50.1	-53.4	15.2	0.00e+00	0	67	0
2025-01-02 09:52:04.83	63.07	25.42	-49.9	-53.1	15.0	0.00e+00	0	66	0
2025-01-02 09:52:06.73	62.21	25.41	-50.2	-53.2	15.0	0.00e+00	0	66	0
2025-01-02 09:52:08.63	61.34	25.40	-50.2	-53.1	15.1	0.00e+00	0	67	0
2025-01-02 09:52:10.52	60.49	25.37	-50.2	-53.0	15.0	0.00e+00	0	67	0
2025-01-02 09:52:12.42	59.63	25.34	-50.2	-53.2	15.1	0.00e+00	0	66	0
2025-01-02 09:52:14.32	58.77	25.31	-50.3	-53.4	15.0	0.00e+00	0	67	0
2025-01-02 09:52:16.22	57.92	25.27	-50.2	-53.0	15.1	0.00e+00	0	67	0
2025-01-02 09:52:18.12	57.07	25.22	-50.3	-53.2	15.0	0.00e+00	0	67	0
2025-01-02 09:52:20.02	56.22	25.17	-50.2	-53.1	15.0	0.00e+00	0	67	0
2025-01-02 09:52:21.92	55.37	25.11	-50.4	-53.5	14.9	0.00e+00	0	67	0
2025-01-02 09:52:23.82	54.53	25.04	-50.5	-53.6	14.9	0.00e+00	0	67	0
2025-01-02 09:52:25.72	53.70	24.97	-50.6	-54.0	14.6	0.00e+00	0	67	0
2025-01-02 09:52:27.61	52.87	24.89	-50.6	-53.8	14.9	0.00e+00	0	67	0
2025-01-02 09:52:29.51	52.04	24.81	-50.8	-54.2	14.8	0.00e+00	0	67	0
2025-01-02 09:52:31.40	51.22	24.72	-50.8	-53.7	14.8	0.00e+00	0	67	0
2025-01-02 09:52:33.30	50.41	24.62	-50.6	-53.4	14.9	0.00e+00	0	67	0
2025-01-02 09:52:35.20	49.60	24.52	-50.9	-54.0	14.7	0.00e+00	0	67	0
2025-01-02 09:52:37.10	48.79	24.42	-51.3	-54.3	14.6	0.00e+00	0	67	0
2025-01-02 09:52:39.00	47.99	24.31	-51.1	-53.8	14.7	0.00e+00	0	67	0
2025-01-02 09:52:40.90	47.20	24.19	-51.0	-53.8	14.5	0.00e+00	0	68	0
2025-01-02 09:52:42.80	46.41	24.07	-51.0	-53.8	14.5	0.00e+00	0	68	0
2025-01-02 09:52:44.70	45.63	23.95	-51.4	-54.4	13.8	0.00e+00	0	68	0
2025-01-02 09:52:46.60	44.86	23.82	-51.2	-54.2	13.9	0.00e+00	0	68	0
2025-01-02 09:52:48.50	44.10	23.69	-51.5	-54.6	14.1	0.00e+00	0	68	0
2025-01-02 09:52:50.40	43.34	23.55	-51.1	-54.0	14.3	0.00e+00	0	68	0
2025-01-02 09:52:52.29	42.59	23.41	-51.0	-53.7	14.6	0.00e+00	0	68	0
2025-01-02 09:52:54.19	41.85	23.27	-51.1	-54.0	14.5	0.00e+00	0	68	0
2025-01-02 09:52:56.09	41.11	23.12	-51.4	-54.5	14.4	0.00e+00	0	68	0
2025-01-02 09:52:57.99	40.39	22.96	-51.4	-54.4	14.3	0.00e+00	0	68	0
2025-01-02 09:52:59.89	39.67	22.81	-51.2	-54.2	14.4	0.00e+00	0	68	0
2025-01-02 09:53:01.79	38.96	22.65	-51.3	-54.3	14.0	6.90e-06	0	68	0
2025-01-02 09:53:03.69	38.26	22.49	-51.2	-54.1	14.2	0.00e+00	0	68	0
2025-01-02 09:53:05.59	37.56	22.33	-51.8	-54.8	13.6	1.38e-05	0	68	0
2025-01-02 09:53:07.49	36.88	22.16	-52.0	-55.3	13.9	0.00e+00	0	68	0
2025-01-02 09:53:09.39	36.20	21.99	-52.2	-55.5	14.1	0.00e+00	0	68	0
2025-01-02 09:53:11.29	35.53	21.82	-52.6	-55.9	13.9	0.00e+00	0	68	0
2025-01-02 09:53:13.18	34.88	21.64	-52.4	-55.5	13.7	6.90e-06	0	68	0
2025-01-02 09:53:15.08	34.22	21.47	-52.6	-55.9	13.4	1.38e-05	0	69	0
2025-01-02 09:53:16.98	33.58	21.29	-52.8	-55.9	13.4	1.38e-05	0	68	0
2025-01-02 09:53:18.88	32.94	21.11	-52.6	-55.3	13.6	0.00e+00	0	69	0
2025-01-02 09:53:20.77	32.32	20.93	-52.6	-55.4	13.4	6.90e-06	0	69	0
2025-01-02 09:53:22.67	31.70	20.75	-52.7	-55.6	13.5	2.08e-05	0	69	0
2025-01-02 09:53:24.57	31.09	20.56	-52.4	-55.0	13.7	0.00e+00	0	68	0
2025-01-02 09:53:26.47	30.49	20.37	-52.8	-55.9	13.4	6.90e-06	0	69	0
2025-01-02 09:53:28.37	29.90	20.19	-53.0	-56.1	13.5	0.00e+00	0	69	0
2025-01-02 09:53:30.27	29.31	20.00	-53.0	-56.2	13.6	0.00e+00	0	69	0
2025-01-02 09:53:32.17	28.74	19.81	-53.2	-56.6	13.2	1.38e-05	0	69	0
2025-01-02 09:53:34.07	28.17	19.62	-53.5	-56.8	13.3	1.38e-05	0	69	0
2025-01-02 09:53:35.96	27.61	19.43	-53.7	-57.2	13.0	2.08e-05	0	69	0
2025-01-02 09:53:37.86	27.06	19.24	-54.0	-57.3	12.9	6.90e-06	0	69	0
2025-01-02 09:53:39.75	26.52	19.05	-54.1	-57.5	12.6	4.16e-05	0	69	0
2025-01-02 09:53:41.65	25.98	18.85	-53.9	-57.0	12.7	9.71e-05	0	69	0
2025-01-02 09:53:43.55	25.45	18.66	-54.0	-56.8	13.0	2.77e-05	0	69	0
2025-01-02 09:53:45.45	24.93	18.47	-53.8	-56.3	13.1	1.38e-05	0	69	0
2025-01-02 09:53:47.35	24.42	18.27	-54.0	-57.2	12.8	6.90e-06	0	69	0
2025-01-02 09:53:49.25	23.91	18.08	-53.5	-56.2	13.0	1.38e-05	0	69	0
2025-01-02 09:53:51.15	23.42	17.88	-53.9	-57.0	13.1	6.90e-06	0	69	0
2025-01-02 09:53:53.05	22.93	17.69	-53.9	-57.1	13.1	2.77e-05	0	69	0
2025-01-02 09:53:54.95	22.44	17.50	-54.3	-57.4	12.8	2.08e-05	0	69	0
2025-01-02 09:53:56.85	21.97	17.30	-54.7	-58.2	12.0	1.87e-04	0	69	0
2025-01-02 09:53:58.75	21.50	17.11	-55.0	-58.2	12.2	1.32e-04	0	70	0
2025-01-02 09:54:00.64	21.04	16.92	-54.8	-57.8	12.1	1.94e-04	0	70	0
2025-01-02 09:54:02.54	20.58	16.72	-55.1	-58.1	11.8	3.54e-04	0	70	0
2025-01-02 09:54:04.44	20.13	16.53	-55.4	-58.7	11.9	3.05e-04	0	70	0
2025-01-02 09:54:06.34	19.69	16.34	-55.5	-58.7	11.8	3.19e-04	0	70	0
2025-01-02 09:54:08.24	19.26	16.15	-56.0	-59.2	12.0	4.16e-04	0	69	0
2025-01-02 09:54:10.14	18.83	15.95	-55.3	-57.9	12.3	9.71e-05	0	70	0
2025-01-02 09:54:12.04	18.41	15.76	-54.9	-57.5	12.2	1.46e-04	0	70	0
2025-01-02 09:54:13.94	17.99	15.57	-54.7	-57.7	12.5	9.71e-05	0	70	0
2025-01-02 09:54:15.84	17.58	15.38	-55.2	-58.7	11.8	2.29e-04	0	70	0
2025-01-02 09:54:17.74	17.18	15.19	-55.3	-58.4	12.1	2.64e-04	0	70	0
2025-01-02 09:54:19.64	16.78	15.00	-55.6	-59.0	11.7	3.26e-04	0	70	0
2025-01-02 09:54:21.53	16.39	14.82	-55.3	-58.5	11.7	6.24e-04	0	70	0
2025-01-02 09:54:23.43	16.01	14.63	-55.7	-59.1	11.3	7.56e-04	0	70	0
2025-01-02 09:54:25.33	15.63	14.44	-55.7	-59.2	9.9	1.07e-02	0	70	0
2025-01-02 09:54:27.23	15.25	14.26	-56.2	-59.2	10.0	1.56e-02	0	70	0
2025-01-02 09:54:29.13	14.88	14.07	-56.2	-59.1	11.6	2.44e-03	0	70	0
2025-01-02 09:54:31.03	14.52	13.89	-57.0	-60.3	10.4	2.66e-03	0	70	0
2025-01-02 09:54:32.93	14.16	13.70	-56.9	-60.1	10.8	4.84e-03	0	71	0
2025-01-02 09:54:34.83	13.81	13.52	-56.2	-58.7	11.8	4.99e-04	0	70	0
2025-01-02 09:54:36.73	13.46	13.34	-55.9	-58.7	11.4	9.15e-04	0	71	0
2025-01-02 09:54:38.63	13.12	13.16	-55.8	-58.3	11.1	2.45e-03	0	71	0
2025-01-02 09:54:40.53	12.79	12.98	-55.5	-58.4	10.9	3.69e-03	0	71	0
2025-01-02 09:54:42.42	12.46	12.80	-55.8	-58.9	10.6	5.67e-03	0	71	0
2025-01-02 09:54:44.32	12.13	12.62	-56.3	-59.3	11.0	4.86e-03	0	71	0
2025-01-02 09:54:46.22	11.81	12.44	-56.6	-59.6	11.2	1.02e-03	0	71	0
2025-01-02 09:54:48.11	11.49	12.27	-56.5	-59.4	10.9	2.06e-03	0	71	0
2025-01-02 09:54:50.01	11.18	12.09	-67.0	-72.5	3.6	2.06e-03	0	70	104
2025-01-02 09:54:51.91	10.87	11.92	-67.0	-72.3	3.5	2.06e-03	0	70	104
2025-01-02 09:54:53.81	10.56	11.74	-67.2	-73.0	3.7	2.06e-03	0	70	104
2025-01-02 09:54:55.71	10.26	11.57	-67.4	-73.5	3.7	2.06e-03	0	70	104
2025-01-02 09:54:57.61	9.97	11.40	-67.0	-72.5	3.6	2.06e-03	0	70	104
2025-01-02 09:54:59.51	9.68	11.23	-66.5	-71.4	3.5	2.06e-03	0	70	104
2025-01-02 09:55:01.41	9.39	11.06	-66.3	-70.9	3.4	2.06e-03	0	70	104
2025-01-02 09:55:03.31	9.11	10.89	-66.3	-71.1	3.5	2.06e-03	0	70	104
2025-01-02 09:55:05.20	8.83	10.72	-66.5	-71.6	3.7	2.06e-03	0	70	104
2025-01-02 09:55:07.10	8.55	10.55	-66.8	-72.2	3.7	2.06e-03	0	70	104
2025-01-02 09:55:08.99	8.28	10.39	-67.0	-72.8	3.7	2.06e-03	0	70	104
2025-01-02 09:55:10.89	8.02	10.22	-67.5	-73.3	3.6	2.06e-03	0	70	104
2025-01-02 09:55:12.79	7.75	10.06	-67.3	-72.8	3.6	2.06e-03	0	70	104
2025-01-02 09:55:14.69	7.49	9.89	-66.9	-71.6	3.5	2.06e-03	0	70	104
2025-01-02 09:55:16.59	7.24	9.73	-66.8	-71.4	3.7	2.06e-03	0	70	104
2025-01-02 09:55:18.49	6.98	9.57	-67.2	-72.4	3.7	2.06e-03	0	70	104
2025-01-02 09:55:20.39	6.73	9.41	-67.5	-73.3	3.7	2.06e-03	0	70	104
2025-01-02 09:55:22.29	6.49	9.25	-67.6	-73.5	3.6	2.06e-03	0	70	104
2025-01-02 09:55:24.19	6.24	9.09	-67.5	-73.3	3.6	2.06e-03	0	70	104
2025-01-02 09:55:26.09	6.00	8.93	-67.2	-72.8	3.6	3.47e-04	0	70	104
2025-01-02 09:55:27.99	5.77	8.77	-66.9	-72.0	3.7	3.47e-04	0	70	104
2025-01-02 09:55:29.88	5.54	8.62	-66.5	-71.3	3.7	3.47e-04	0	70	104
2025-01-02 09:55:31.78	5.31	8.46	-66.2	-70.5	3.5	3.47e-04	0	70	104
2025-01-02 09:55:33.68	5.08	8.31	-66.2	-70.4	3.4	3.47e-04	0	70	104
2025-01-02 09:55:35.58	4.86	8.15	-66.4	-70.9	3.4	3.47e-04	0	70	104
2025-01-02 09:55:37.48	4.64	8.00	-67.3	-72.9	3.6	3.47e-04	0	70	104

#Closed at: 2025-01-02 09:55:38
#Recorded file [22892 MB]: D:/data/31015_250102_215448.dat