passes_logs/2026/01/14/T1/T1__20260114_014559_AQUA_rec.log

#Pass ID: 20260114_014559_AQUA
#Satellite: AQUA
#Configuration: AQUA
#almurnet v.1.7.20251203
#Start time: 2026-01-14 01:46:01

#Version: 2.0.20230620
#Station: T1
#Location: 37.570604 lon 55.790049 lat
#TLE: 1 27424U 02022A   26013.25278823  .00000890  00000+0  18808-3 0  9998
#TLE: 2 27424  98.4079 339.6508 0002047  80.3961  24.1839 14.61818714260637

#Time	Az	El	Level	Level2	SNR	BER	BlckErr	Temp	State	Recorded	gain1	gain2
2026-01-14 01:46:01.16	12.34	5.14	-48.3	-71.0	3.8	7.43e-01	0	40	0	0	67	51043
2026-01-14 01:46:04.13	12.27	5.36	-48.3	-71.4	3.8	7.44e-01	0	40	104	0	67	53909
2026-01-14 01:46:07.11	12.20	5.58	-48.3	-71.2	3.8	7.49e-01	0	40	104	0	67	52533
2026-01-14 01:46:10.09	12.12	5.81	-48.3	-70.6	3.8	7.40e-01	0	40	104	0	67	48783
2026-01-14 01:46:13.07	12.05	6.04	-48.3	-70.0	3.8	7.47e-01	0	40	104	0	67	45843
2026-01-14 01:46:16.05	11.98	6.27	-48.3	-68.9	4.1	7.38e-01	0	40	104	0	67	40189
2026-01-14 01:46:19.03	11.90	6.50	-48.3	-68.8	3.8	7.42e-01	0	40	104	0	67	39657
2026-01-14 01:46:22.01	11.82	6.74	-48.3	-69.9	3.9	7.47e-01	0	40	104	0	67	45425
2026-01-14 01:46:24.99	11.74	6.98	-48.3	-71.7	3.8	7.46e-01	0	40	104	0	67	55368
2026-01-14 01:46:27.96	11.66	7.22	-48.2	-64.6	6.0	6.84e-01	0	40	0	0	67	24619
2026-01-14 01:46:30.95	11.57	7.46	-47.9	-59.3	11.3	6.09e-01	0	40	0	5767168	67	13362
2026-01-14 01:46:33.93	11.49	7.71	-47.4	-56.5	14.2	6.02e-01	0	40	0	11010048	66	10200
2026-01-14 01:46:36.91	11.40	7.95	-47.1	-55.1	15.5	6.00e-01	0	40	0	16777216	66	8742
2026-01-14 01:46:39.89	11.31	8.21	-47.0	-54.8	15.9	6.02e-01	0	40	0	22544384	66	8371
2026-01-14 01:46:42.87	11.22	8.46	-47.1	-55.1	15.6	6.00e-01	0	40	0	27787264	66	8725
2026-01-14 01:46:45.85	11.13	8.72	-47.4	-56.8	14.0	6.01e-01	0	40	0	33554432	66	10541
2026-01-14 01:46:48.83	11.03	8.97	-47.9	-61.0	9.6	6.24e-01	0	40	0	39321600	66	17088
2026-01-14 01:46:51.81	10.94	9.24	-47.7	-56.5	14.4	6.00e-01	0	40	0	44564480	66	10187
2026-01-14 01:46:54.79	10.84	9.50	-46.7	-52.3	18.0	6.03e-01	0	40	0	47185920	65	6669
2026-01-14 01:46:57.78	10.74	9.77	-46.0	-51.1	19.6	6.04e-01	0	40	0	52953088	63	6511
2026-01-14 01:47:00.76	10.63	10.04	-45.5	-50.1	20.5	6.01e-01	0	40	0	58720256	63	5840
2026-01-14 01:47:03.74	10.53	10.32	-45.5	-49.7	20.9	6.06e-01	0	40	0	63963136	62	5921
2026-01-14 01:47:06.73	10.42	10.60	-45.6	-49.7	21.0	6.04e-01	0	40	0	69730304	62	5865
2026-01-14 01:47:09.74	10.31	10.88	-45.6	-49.6	21.1	6.03e-01	0	40	0	75497472	62	5828
2026-01-14 01:47:12.77	10.19	11.17	-45.8	-49.7	21.0	6.04e-01	0	40	0	81264640	62	5890
2026-01-14 01:47:15.88	10.07	11.47	-45.8	-49.6	21.1	6.02e-01	0	40	0	87031808	62	5839
2026-01-14 01:47:18.72	9.95	11.75	-45.9	-49.6	21.1	6.01e-01	0	40	0	92274688	62	5834
2026-01-14 01:47:21.88	9.83	12.07	-45.9	-49.6	21.1	6.03e-01	0	40	0	98041856	62	5814
2026-01-14 01:47:24.87	9.70	12.37	-45.9	-49.5	21.2	6.02e-01	0	40	0	103809024	62	5787
2026-01-14 01:47:27.85	9.57	12.67	-46.0	-49.6	21.1	6.07e-01	0	40	0	109576192	62	5824
2026-01-14 01:47:30.83	9.44	12.98	-45.9	-49.5	21.3	6.02e-01	0	40	0	114819072	62	5733
2026-01-14 01:47:33.83	9.31	13.29	-45.9	-49.4	21.3	6.04e-01	0	41	0	120586240	62	5678
2026-01-14 01:47:36.81	9.17	13.61	-45.8	-49.4	21.4	6.02e-01	0	41	0	126353408	62	5664
2026-01-14 01:47:39.79	9.03	13.93	-45.9	-49.3	21.4	6.03e-01	0	40	0	131596288	62	5646
2026-01-14 01:47:42.77	8.88	14.26	-45.7	-49.1	21.6	6.03e-01	0	40	0	137363456	62	5493
2026-01-14 01:47:45.77	8.73	14.59	-45.6	-49.0	21.8	6.03e-01	0	40	0	143130624	62	5411
2026-01-14 01:47:48.71	8.58	14.92	-45.7	-49.0	21.7	6.03e-01	0	40	0	148373504	62	5442
2026-01-14 01:47:51.84	8.42	15.28	-45.7	-49.0	21.7	6.07e-01	0	40	0	154140672	62	5444
2026-01-14 01:47:54.68	8.26	15.61	-45.6	-48.8	21.9	6.02e-01	0	40	0	159907840	62	5331
2026-01-14 01:47:57.81	8.09	15.98	-45.6	-48.7	22.0	6.02e-01	0	40	0	165675008	62	5278
2026-01-14 01:48:00.70	7.92	16.33	-45.7	-48.8	22.0	6.01e-01	0	40	0	170917888	62	5286
2026-01-14 01:48:03.96	7.73	16.73	-45.7	-48.8	22.0	6.01e-01	0	40	0	177209344	62	5293
2026-01-14 01:48:06.87	7.56	17.09	-45.8	-49.0	21.8	6.03e-01	0	40	0	182452224	62	5403
2026-01-14 01:48:10.11	7.36	17.49	-45.6	-49.0	21.8	6.04e-01	0	41	0	188743680	62	5432
2026-01-14 01:48:12.95	7.18	17.86	-45.6	-49.0	21.8	6.04e-01	0	40	0	193986560	62	5440
2026-01-14 01:48:16.03	6.97	18.26	-45.2	-49.0	21.8	6.06e-01	0	41	0	199753728	62	5449
2026-01-14 01:48:19.01	6.77	18.65	-45.1	-48.8	22.0	6.03e-01	0	40	0	205520896	62	5293
2026-01-14 01:48:22.00	6.56	19.05	-44.9	-48.6	22.2	6.01e-01	0	40	0	210763776	61	5492
2026-01-14 01:48:24.98	6.35	19.46	-45.0	-48.6	22.2	6.05e-01	0	40	0	216530944	61	5466
2026-01-14 01:48:27.97	6.13	19.88	-45.0	-48.7	22.1	6.03e-01	0	40	0	222298112	61	5543
2026-01-14 01:48:30.95	5.90	20.30	-45.2	-48.8	22.0	6.03e-01	0	41	0	227540992	61	5606
2026-01-14 01:48:33.94	5.67	20.73	-45.2	-49.0	21.9	6.03e-01	0	40	0	233308160	61	5731
2026-01-14 01:48:36.92	5.43	21.17	-45.3	-48.9	21.9	6.02e-01	0	40	0	239075328	61	5703
2026-01-14 01:48:39.91	5.18	21.61	-45.4	-49.1	21.7	6.02e-01	0	40	0	244318208	61	5799
2026-01-14 01:48:42.83	4.92	22.06	-45.5	-49.1	21.8	6.01e-01	0	40	0	250085376	61	5810
2026-01-14 01:48:45.95	4.65	22.54	-45.6	-49.2	21.7	6.00e-01	0	40	0	255852544	61	5885
2026-01-14 01:48:48.80	4.38	22.99	-45.7	-49.1	21.8	6.02e-01	0	40	0	261095424	61	5822
2026-01-14 01:48:51.92	4.09	23.49	-45.9	-49.3	21.7	6.01e-01	0	40	0	266862592	62	5597
2026-01-14 01:48:54.77	3.81	23.96	-46.1	-49.3	21.6	6.04e-01	0	40	0	272105472	62	5628
2026-01-14 01:48:58.09	3.47	24.51	-45.9	-48.9	21.9	6.03e-01	0	40	0	278396928	63	5100
2026-01-14 01:49:00.79	3.18	24.97	-45.9	-48.8	22.1	6.05e-01	0	40	0	283639808	63	5021
2026-01-14 01:49:04.08	2.82	25.54	-46.0	-49.0	21.9	6.02e-01	0	41	0	289931264	63	5148
2026-01-14 01:49:06.92	2.50	26.04	-46.2	-49.3	21.7	6.04e-01	0	40	0	295174144	63	5290
2026-01-14 01:49:10.25	2.11	26.64	-46.0	-48.9	22.0	6.03e-01	0	40	0	301465600	63	5070
2026-01-14 01:49:13.09	1.76	27.17	-46.0	-48.8	22.1	6.03e-01	0	40	0	306708480	63	5016
2026-01-14 01:49:16.22	1.36	27.76	-45.6	-48.4	22.5	6.01e-01	0	40	0	312475648	63	4766
2026-01-14 01:49:19.06	0.99	28.30	-45.8	-48.7	22.2	6.03e-01	0	40	0	317718528	63	4960
2026-01-14 01:49:22.19	0.56	28.91	-45.9	-48.8	22.1	6.02e-01	0	40	0	323485696	63	5035
2026-01-14 01:49:25.05	0.15	29.48	-45.5	-48.3	22.6	6.03e-01	0	40	0	329252864	62	4997
2026-01-14 01:49:28.27	359.68	30.14	-45.4	-48.1	22.8	6.04e-01	0	40	0	335020032	62	4903
2026-01-14 01:49:31.11	359.24	30.73	-45.5	-48.1	22.8	6.03e-01	0	41	0	340262912	62	4912
2026-01-14 01:49:34.24	358.73	31.39	-45.5	-48.2	22.7	6.03e-01	0	40	0	346554368	62	4929
2026-01-14 01:49:37.31	358.22	32.05	-45.6	-48.4	22.6	6.03e-01	0	40	0	352321536	62	5043
2026-01-14 01:49:40.69	357.63	32.80	-45.7	-48.4	22.5	6.04e-01	0	40	0	358612992	62	5097
2026-01-14 01:49:43.41	357.13	33.41	-45.5	-48.4	22.6	6.03e-01	0	40	0	363331584	62	5056
2026-01-14 01:49:46.68	356.50	34.16	-46.1	-49.3	21.7	6.02e-01	0	40	0	369623040	62	5648
2026-01-14 01:49:49.60	355.91	34.84	-46.2	-49.2	21.8	6.05e-01	0	40	0	375390208	63	5236
2026-01-14 01:49:52.59	355.29	35.56	-46.4	-49.8	21.3	6.04e-01	0	40	0	380633088	63	5593
2026-01-14 01:49:55.58	354.63	36.28	-46.5	-50.0	21.1	6.02e-01	0	40	0	386400256	63	5765
2026-01-14 01:49:58.56	353.94	37.02	-46.9	-50.4	20.7	6.00e-01	0	40	0	392167424	64	5666
2026-01-14 01:50:01.55	353.22	37.77	-47.0	-50.4	20.7	6.01e-01	0	40	0	397410304	64	5658
2026-01-14 01:50:04.53	352.46	38.53	-47.5	-51.3	19.8	6.01e-01	0	40	0	403177472	65	5978
2026-01-14 01:50:07.52	351.67	39.31	-47.3	-50.7	20.4	6.02e-01	0	40	0	408944640	65	5550
2026-01-14 01:50:10.50	350.84	40.10	-47.3	-50.8	20.2	6.04e-01	0	40	0	414187520	65	5619
2026-01-14 01:50:13.51	349.95	40.90	-47.3	-50.9	20.2	6.03e-01	0	40	0	419954688	65	5714
2026-01-14 01:50:16.49	349.03	41.71	-47.2	-50.6	20.5	6.04e-01	0	41	0	425721856	65	5468
2026-01-14 01:50:19.48	348.05	42.54	-47.0	-50.3	20.7	6.04e-01	0	40	0	430964736	65	5324
2026-01-14 01:50:22.47	347.02	43.37	-46.7	-49.9	21.1	6.03e-01	0	40	0	436731904	65	5098
2026-01-14 01:50:25.45	345.94	44.21	-46.4	-49.9	21.2	6.03e-01	0	40	0	442499072	64	5350
2026-01-14 01:50:28.44	344.80	45.05	-46.4	-49.4	21.6	6.01e-01	0	40	0	447741952	64	5086
2026-01-14 01:50:31.48	343.57	45.92	-46.7	-49.8	21.2	6.02e-01	0	40	0	453509120	64	5296
2026-01-14 01:50:34.53	342.26	46.80	-46.4	-49.4	21.6	6.05e-01	0	40	0	459276288	64	5090
2026-01-14 01:50:37.37	340.97	47.62	-46.6	-49.7	21.4	5.99e-01	0	40	0	464519168	64	5225
2026-01-14 01:50:40.50	339.47	48.52	-46.5	-49.6	21.4	6.02e-01	0	40	0	470810624	64	5214
2026-01-14 01:50:43.34	338.03	49.33	-46.2	-49.2	21.8	6.01e-01	0	40	0	476053504	64	4931
2026-01-14 01:50:46.57	336.30	50.25	-46.3	-49.4	21.6	6.03e-01	0	40	0	481820672	64	5042
2026-01-14 01:50:49.42	334.68	51.06	-46.3	-49.5	21.6	6.01e-01	0	40	0	487587840	63	5421
2026-01-14 01:50:52.54	332.80	51.92	-46.2	-49.0	22.0	5.99e-01	0	40	0	493355008	63	5126
2026-01-14 01:50:55.39	330.98	52.70	-45.9	-48.8	22.2	6.03e-01	0	40	0	498597888	63	5010
2026-01-14 01:50:58.51	328.88	53.53	-45.7	-48.8	22.1	6.01e-01	0	40	0	504365056	63	5036
2026-01-14 01:51:01.35	326.86	54.26	-45.7	-48.5	22.4	6.02e-01	0	40	0	509607936	62	5159
2026-01-14 01:51:04.48	324.51	55.03	-45.8	-48.6	22.3	6.03e-01	0	40	0	515375104	62	5217
2026-01-14 01:51:07.39	322.21	55.72	-45.8	-48.7	22.3	6.03e-01	0	40	0	521142272	62	5273
2026-01-14 01:51:10.37	319.74	56.38	-46.4	-49.4	21.6	6.01e-01	0	40	0	526385152	63	5395
2026-01-14 01:51:13.36	317.14	56.99	-46.4	-49.5	21.5	6.04e-01	0	40	0	532152320	63	5448
2026-01-14 01:51:16.34	314.44	57.56	-46.7	-49.8	21.2	6.02e-01	0	40	0	537919488	64	5338
2026-01-14 01:51:19.28	311.66	58.05	-46.7	-50.0	21.1	6.04e-01	0	40	0	543162368	64	5417
2026-01-14 01:51:22.57	308.44	58.54	-47.4	-50.8	20.2	6.02e-01	0	40	0	549453824	65	5628
2026-01-14 01:51:25.27	305.71	58.87	-47.4	-50.8	20.4	6.04e-01	0	40	0	554696704	66	5317
2026-01-14 01:51:28.54	302.32	59.20	-47.0	-50.3	20.7	6.02e-01	0	40	0	560988160	65	5307
2026-01-14 01:51:31.26	299.44	59.40	-46.9	-50.2	20.9	6.04e-01	0	40	0	565706752	65	5219
2026-01-14 01:51:34.62	295.83	59.56	-47.0	-50.3	20.7	6.03e-01	0	40	0	571998208	65	5305
2026-01-14 01:51:37.68	292.52	59.61	-47.4	-50.8	20.4	6.03e-01	0	40	0	577765376	65	5622
2026-01-14 01:51:40.84	289.09	59.58	-47.2	-50.6	20.5	6.04e-01	0	40	0	583532544	65	5526
2026-01-14 01:51:43.82	285.88	59.46	-46.9	-50.4	20.7	6.05e-01	0	40	0	589299712	65	5352
2026-01-14 01:51:46.80	282.71	59.26	-47.1	-50.4	20.6	6.05e-01	0	40	0	595066880	65	5396
2026-01-14 01:51:49.79	279.59	58.98	-47.3	-50.9	20.3	6.01e-01	0	40	0	600309760	65	5661
2026-01-14 01:51:52.87	276.45	58.62	-47.4	-50.8	20.3	6.01e-01	0	40	0	606076928	65	5610
2026-01-14 01:51:55.72	273.63	58.21	-47.4	-50.7	20.4	6.01e-01	0	40	0	611844096	65	5549
2026-01-14 01:51:58.86	270.63	57.70	-46.8	-50.0	21.0	6.03e-01	0	40	0	617611264	65	5143
2026-01-14 01:52:01.84	267.89	57.15	-46.6	-49.6	21.4	6.06e-01	0	40	0	623378432	65	4882
2026-01-14 01:52:04.83	265.25	56.55	-46.7	-49.9	21.1	6.03e-01	0	40	0	628621312	65	5072
2026-01-14 01:52:07.81	262.74	55.90	-47.1	-50.3	20.7	6.03e-01	0	40	0	634388480	64	5641
2026-01-14 01:52:10.89	260.27	55.18	-46.4	-49.5	21.5	6.02e-01	0	40	0	640155648	63	5418
2026-01-14 01:52:13.83	258.04	54.46	-46.1	-49.0	21.9	6.01e-01	0	40	0	645398528	63	5153
2026-01-14 01:52:16.95	255.78	53.66	-45.7	-48.5	22.4	6.03e-01	0	40	0	651689984	63	4829
2026-01-14 01:52:19.80	253.84	52.91	-45.4	-48.2	22.8	6.03e-01	0	40	0	656932864	62	4936
2026-01-14 01:52:22.93	251.81	52.06	-45.3	-47.9	22.9	6.02e-01	0	40	0	662700032	62	4810
2026-01-14 01:52:25.77	250.08	51.27	-45.5	-48.3	22.6	6.01e-01	0	40	0	667942912	62	5002
2026-01-14 01:52:29.10	248.15	50.33	-45.5	-48.2	22.7	6.02e-01	0	40	0	674234368	62	4952
2026-01-14 01:52:32.21	246.47	49.44	-45.8	-48.7	22.2	6.02e-01	0	40	0	680001536	62	5235
2026-01-14 01:52:35.08	245.00	48.62	-45.6	-48.3	22.6	6.01e-01	0	40	0	685244416	62	5025
2026-01-14 01:52:38.20	243.49	47.72	-45.8	-48.5	22.4	6.00e-01	0	40	0	691535872	62	5152
2026-01-14 01:52:41.14	242.14	46.87	-45.7	-48.4	22.5	6.03e-01	0	40	0	696778752	62	5067
2026-01-14 01:52:44.12	240.85	46.01	-46.1	-49.0	21.9	6.03e-01	0	40	0	702545920	63	5140
2026-01-14 01:52:47.44	239.50	45.06	-46.3	-49.2	21.8	6.06e-01	0	40	0	708313088	63	5242
2026-01-14 01:52:50.34	238.38	44.23	-46.1	-48.9	22.0	6.01e-01	0	40	0	714080256	63	5100
2026-01-14 01:52:54.54	236.86	43.05	-46.5	-49.5	21.5	6.04e-01	0	40	0	721944576	63	5405
2026-01-14 01:52:57.39	235.90	42.25	-46.2	-49.2	21.7	6.03e-01	0	40	0	727187456	64	4945
2026-01-14 01:53:01.54	234.57	41.11	-46.6	-49.6	21.3	6.04e-01	0	40	0	735051776	64	5188
2026-01-14 01:53:04.69	233.63	40.26	-46.7	-50.1	20.8	6.04e-01	0	40	0	740818944	64	5468
2026-01-14 01:53:08.60	232.52	39.22	-47.4	-50.9	20.1	6.02e-01	0	40	0	748158976	65	5661
2026-01-14 01:53:11.59	231.73	38.44	-47.4	-50.8	20.2	6.04e-01	0	40	0	753926144	65	5629
2026-01-14 01:53:14.58	230.97	37.67	-47.4	-50.8	20.2	6.01e-01	0	40	0	759693312	65	5607
2026-01-14 01:53:17.56	230.25	36.92	-47.1	-50.4	20.6	6.07e-01	0	40	0	764936192	65	5358
2026-01-14 01:53:20.54	229.56	36.18	-47.1	-50.5	20.4	6.01e-01	0	40	0	770703360	65	5419
2026-01-14 01:53:23.53	228.90	35.45	-46.6	-49.9	21.0	5.99e-01	0	40	0	776470528	65	5061
2026-01-14 01:53:26.54	228.27	34.73	-46.7	-49.9	21.0	6.01e-01	0	40	0	782237696	65	5082
2026-01-14 01:53:29.55	227.67	34.03	-46.6	-49.7	21.2	6.04e-01	0	40	0	787480576	64	5253
2026-01-14 01:53:32.53	227.09	33.34	-46.3	-49.2	21.6	6.02e-01	0	40	0	793247744	64	4976
2026-01-14 01:53:35.52	226.54	32.67	-46.1	-49.1	21.8	6.03e-01	0	40	0	799014912	64	4887
2026-01-14 01:53:38.50	226.02	32.01	-45.8	-48.7	22.2	6.04e-01	0	40	0	804257792	63	4944
2026-01-14 01:53:41.49	225.51	31.36	-46.0	-48.8	22.0	6.03e-01	0	40	0	810024960	63	5034
2026-01-14 01:53:44.48	225.03	30.72	-45.8	-48.6	22.2	6.06e-01	0	40	0	815792128	63	4926
2026-01-14 01:53:47.46	224.56	30.10	-45.8	-48.6	22.2	6.04e-01	0	40	0	821035008	63	4926
2026-01-14 01:53:50.44	224.12	29.49	-45.8	-48.6	22.3	6.03e-01	0	40	0	826802176	63	4894
2026-01-14 01:53:53.42	223.69	28.89	-46.0	-48.8	22.0	6.02e-01	0	40	0	832569344	63	5038
2026-01-14 01:53:56.41	223.27	28.30	-46.0	-48.9	22.0	6.05e-01	0	40	0	837812224	63	5046
2026-01-14 01:53:59.39	222.88	27.73	-45.9	-48.9	21.9	6.01e-01	0	40	0	843579392	63	5073
2026-01-14 01:54:02.44	222.49	27.15	-45.9	-48.9	21.9	6.03e-01	0	40	0	849346560	63	5088
2026-01-14 01:54:05.42	222.12	26.60	-46.0	-49.0	21.9	6.00e-01	0	40	0	854589440	63	5116
2026-01-14 01:54:08.55	221.75	26.03	-46.1	-49.1	21.7	6.04e-01	0	40	0	860880896	63	5206
2026-01-14 01:54:11.39	221.42	25.52	-46.1	-49.1	21.8	6.04e-01	0	40	0	866123776	63	5167
2026-01-14 01:54:14.52	221.07	24.98	-46.4	-49.4	21.5	6.02e-01	0	40	0	871890944	63	5369
2026-01-14 01:54:17.37	220.77	24.49	-46.6	-49.7	21.2	6.02e-01	0	40	0	877133824	63	5568
2026-01-14 01:54:20.57	220.44	23.95	-46.4	-49.5	21.3	6.05e-01	0	40	0	883425280	64	5123
2026-01-14 01:54:23.41	220.15	23.48	-46.3	-49.4	21.3	6.04e-01	0	40	0	888668160	64	5100
2026-01-14 01:54:26.54	219.85	22.97	-46.3	-49.4	21.4	6.02e-01	0	40	0	894435328	64	5081
2026-01-14 01:54:29.38	219.59	22.52	-46.3	-49.4	21.3	6.01e-01	0	40	0	899678208	64	5099
2026-01-14 01:54:32.51	219.30	22.03	-46.2	-49.4	21.3	6.02e-01	0	40	0	905445376	64	5098
2026-01-14 01:54:35.35	219.05	21.60	-46.3	-49.5	21.2	6.03e-01	0	40	0	911212544	64	5133
2026-01-14 01:54:38.48	218.79	21.13	-46.4	-49.7	21.1	6.04e-01	0	40	0	916979712	64	5222
2026-01-14 01:54:41.32	218.56	20.71	-46.3	-49.5	21.3	6.02e-01	0	40	0	922222592	64	5101
2026-01-14 01:54:44.45	218.31	20.25	-46.3	-49.4	21.3	6.01e-01	0	40	0	927989760	64	5075
2026-01-14 01:54:47.30	218.09	19.85	-46.2	-49.3	21.4	6.03e-01	0	40	0	933232640	64	5019
2026-01-14 01:54:50.43	217.85	19.41	-46.3	-49.4	21.3	6.00e-01	0	40	0	938999808	64	5059
2026-01-14 01:54:53.37	217.64	19.01	-46.3	-49.4	21.3	6.02e-01	0	40	0	944766976	64	5052
2026-01-14 01:54:56.49	217.42	18.58	-46.3	-49.5	21.2	6.04e-01	0	40	0	950534144	64	5113
2026-01-14 01:54:59.34	217.22	18.20	-46.3	-49.5	21.1	6.02e-01	0	40	0	955777024	64	5129
2026-01-14 01:55:02.46	217.01	17.80	-46.2	-49.4	21.3	6.04e-01	0	40	0	961544192	64	5059
2026-01-14 01:55:05.31	216.83	17.43	-46.1	-49.4	21.3	6.04e-01	0	40	0	967311360	64	5048
2026-01-14 01:55:08.50	216.62	17.02	-46.2	-49.4	21.3	6.02e-01	0	40	0	973078528	64	5047
2026-01-14 01:55:11.34	216.45	16.67	-46.3	-49.6	21.1	6.01e-01	0	40	0	978321408	64	5161
2026-01-14 01:55:14.61	216.26	16.27	-46.3	-49.6	21.1	6.03e-01	0	40	0	984612864	64	5167
2026-01-14 01:55:17.34	216.10	15.94	-46.2	-49.4	21.2	6.03e-01	0	40	0	989855744	64	5099
2026-01-14 01:55:20.63	215.91	15.55	-46.2	-49.4	21.2	6.03e-01	0	40	0	995622912	64	5096
2026-01-14 01:55:23.50	215.75	15.21	-46.1	-49.4	21.2	6.04e-01	0	40	0	1001390080	64	5086
2026-01-14 01:55:26.63	215.58	14.85	-46.2	-49.4	21.1	6.03e-01	0	40	0	1007157248	64	5090
2026-01-14 01:55:29.82	215.42	14.49	-46.2	-49.4	21.1	6.03e-01	0	40	0	1012924416	64	5092
2026-01-14 01:55:32.81	215.27	14.16	-46.1	-49.3	21.2	6.05e-01	0	40	0	1018691584	64	5035
2026-01-14 01:55:35.79	215.12	13.83	-46.0	-49.4	21.2	6.05e-01	0	40	0	1024458752	63	5347
2026-01-14 01:55:38.77	214.97	13.51	-46.0	-49.4	21.2	6.03e-01	0	40	0	1029701632	63	5349
2026-01-14 01:55:42.04	214.82	13.16	-46.1	-49.3	21.2	6.03e-01	0	40	0	1035993088	63	5327
2026-01-14 01:55:44.97	214.68	12.85	-46.2	-49.5	21.1	6.01e-01	0	40	0	1041235968	63	5428
2026-01-14 01:55:48.26	214.54	12.51	-46.3	-49.5	21.0	6.00e-01	0	40	0	1047527424	63	5446
2026-01-14 01:55:50.97	214.42	12.23	-46.3	-49.6	20.9	6.01e-01	0	40	0	1052770304	63	5522
2026-01-14 01:55:54.24	214.28	11.90	-46.3	-49.8	20.6	6.04e-01	0	40	0	1059061760	63	5643
2026-01-14 01:55:56.96	214.16	11.63	-46.6	-50.2	20.3	6.02e-01	0	40	0	1063780352	63	5891
2026-01-14 01:56:00.47	214.02	11.28	-46.5	-49.9	20.5	6.03e-01	0	40	0	1070596096	64	5387
2026-01-14 01:56:03.18	213.91	11.02	-46.6	-50.0	20.4	6.04e-01	0	40	0	1075838976	64	5462
2026-01-14 01:56:06.45	213.79	10.71	-46.4	-49.9	20.5	6.04e-01	0	40	0	1081606144	64	5389
2026-01-14 01:56:09.17	213.68	10.45	-46.4	-49.9	20.5	6.05e-01	0	40	0	1086849024	64	5378
2026-01-14 01:56:12.52	213.56	10.14	-46.5	-50.1	20.3	6.03e-01	0	40	0	1093140480	64	5479
2026-01-14 01:56:15.25	213.46	9.88	-46.6	-50.1	20.3	6.02e-01	0	40	0	1098383360	64	5497
2026-01-14 01:56:18.77	213.33	9.56	-46.4	-50.0	20.3	6.04e-01	0	40	0	1104674816	64	5456
2026-01-14 01:56:21.47	213.24	9.32	-46.5	-50.2	20.1	6.04e-01	0	40	0	1109917696	64	5561
2026-01-14 01:56:24.75	213.13	9.03	-46.7	-50.4	19.9	6.03e-01	0	40	0	1116209152	64	5667
2026-01-14 01:56:27.56	213.03	8.78	-51.7	-71.5	3.9	7.47e-01	0	40	104	1118306304	74	36494
2026-01-14 01:56:30.84	212.93	8.49	-51.9	-72.2	3.8	7.42e-01	0	40	104	1118306304	75	37348
2026-01-14 01:56:33.54	212.84	8.26	-52.4	-72.3	3.8	7.47e-01	0	40	104	1118306304	75	37669
2026-01-14 01:56:36.82	212.74	7.98	-52.4	-72.3	3.8	7.49e-01	0	40	104	1118306304	75	37798
2026-01-14 01:56:39.51	212.65	7.76	-52.2	-72.4	3.8	7.46e-01	0	40	104	1118306304	75	38011
2026-01-14 01:56:42.84	212.55	7.48	-51.8	-72.4	3.8	7.50e-01	0	40	104	1118306304	75	37867
2026-01-14 01:56:45.54	212.47	7.26	-52.0	-72.3	3.8	7.45e-01	0	40	104	1118306304	75	37739
2026-01-14 01:56:48.80	212.38	6.99	-51.8	-72.3	3.8	7.44e-01	0	40	104	1118306304	75	37582
2026-01-14 01:56:51.50	212.30	6.77	-51.8	-72.3	3.8	7.47e-01	0	40	104	1118306304	75	37597
2026-01-14 01:56:54.77	212.21	6.51	-51.7	-72.3	3.8	7.47e-01	0	40	104	1118306304	75	37407
2026-01-14 01:56:57.46	212.14	6.30	-51.7	-72.3	3.8	7.48e-01	0	40	104	1118306304	75	37436
2026-01-14 01:57:00.74	212.05	6.04	-51.7	-72.3	3.8	7.45e-01	0	40	104	1118306304	75	37436
2026-01-14 01:57:03.44	211.98	5.83	-51.7	-72.3	3.8	7.46e-01	0	40	104	1118306304	75	37516
2026-01-14 01:57:06.70	211.90	5.58	-51.7	-72.3	3.8	7.45e-01	0	40	104	1118306304	75	37415
2026-01-14 01:57:09.43	211.83	5.38	-51.7	-72.3	3.8	7.47e-01	0	40	104	1118306304	75	37438
2026-01-14 01:57:12.71	211.75	5.13	-51.7	-72.3	3.8	7.45e-01	0	40	104	1118306304	75	37412

#Closed at: 2026-01-14 01:57:15
#Recorded file [1118 MB]: D:/Data/31040_260114_044601.dat