passes_logs/2026/01/14/T1/T1__20260114_013437_SUOMI_NPP_rec.log

#Pass ID: 20260114_013437_SUOMI NPP
#Satellite: SUOMI NPP
#Configuration: NPP
#almurnet v.1.7.20251203
#Start time: 2026-01-14 01:34:39

#Version: 2.0.20230620
#Station: T1
#Location: 37.570604 lon 55.790049 lat
#TLE: 1 37849U 11061A   26013.27136842  .00000065  00000+0  51889-4 0  9990
#TLE: 2 37849  98.7808 315.3349 0002489  66.6776 293.4661 14.19524902736466

#Time	Az	El	Level	Level2	SNR	BER	BlckErr	Temp	State	Recorded	gain1	gain2
2026-01-14 01:34:39.29	5.62	5.13	-49.7	-65.9	3.8	1.49e+00	0	39	0	0	71	22620
2026-01-14 01:34:42.27	5.36	5.31	-49.3	-65.7	3.8	1.49e+00	0	39	104	0	70	23374
2026-01-14 01:34:45.25	5.10	5.48	-49.3	-65.7	3.8	1.49e+00	0	39	104	0	70	23513
2026-01-14 01:34:48.23	4.84	5.66	-49.3	-65.7	3.8	1.49e+00	0	39	104	0	70	23514
2026-01-14 01:34:51.21	4.57	5.84	-49.3	-65.7	3.8	1.49e+00	0	39	104	0	70	23383
2026-01-14 01:34:54.19	4.29	6.01	-49.3	-65.6	3.8	1.49e+00	0	39	104	0	70	23261
2026-01-14 01:34:57.16	4.02	6.19	-49.3	-65.6	3.8	1.49e+00	0	40	104	0	70	23261
2026-01-14 01:35:00.14	3.74	6.37	-49.3	-65.7	3.8	1.49e+00	0	40	104	0	70	23364
2026-01-14 01:35:03.12	3.46	6.55	-49.3	-65.7	3.8	1.49e+00	0	40	104	0	70	23357
2026-01-14 01:35:06.10	3.17	6.73	-49.3	-65.6	3.8	1.49e+00	0	40	104	0	70	23151
2026-01-14 01:35:09.08	2.88	6.91	-49.3	-65.6	3.8	1.49e+00	0	40	104	0	70	23206
2026-01-14 01:35:12.06	2.58	7.09	-49.3	-65.5	3.8	1.49e+00	0	40	104	0	70	22898
2026-01-14 01:35:15.04	2.29	7.27	-49.3	-65.1	3.8	1.49e+00	0	40	104	0	70	21998
2026-01-14 01:35:18.01	1.99	7.46	-49.3	-64.7	3.8	1.49e+00	0	40	104	0	70	20899
2026-01-14 01:35:21.00	1.68	7.64	-49.3	-64.4	3.8	1.49e+00	0	40	104	0	70	20187
2026-01-14 01:35:23.98	1.37	7.82	-49.3	-65.2	3.8	1.49e+00	0	40	104	0	70	22186
2026-01-14 01:35:26.95	1.06	8.01	-49.3	-64.9	3.8	1.49e+00	0	40	104	0	70	21306
2026-01-14 01:35:29.93	0.74	8.19	-48.9	-60.2	5.0	9.92e-01	0	40	0	1048576	69	13215
2026-01-14 01:35:32.91	0.42	8.37	-48.5	-57.2	7.1	1.66e-01	0	40	0	7340032	69	9379
2026-01-14 01:35:35.89	0.09	8.56	-48.0	-54.9	9.4	2.60e-02	0	41	0	12582912	68	7598
2026-01-14 01:35:38.87	359.76	8.75	-47.8	-54.5	9.7	1.28e-02	0	41	0	17825792	67	7681
2026-01-14 01:35:41.85	359.42	8.93	-48.1	-56.0	8.2	3.91e-02	0	41	0	24117248	67	9124
2026-01-14 01:35:44.84	359.08	9.12	-48.1	-55.1	9.3	5.75e-01	0	40	0	29360128	68	7777
2026-01-14 01:35:47.82	358.74	9.31	-45.9	-51.5	12.8	5.07e-01	0	41	0	33554432	63	6834
2026-01-14 01:35:50.99	358.37	9.50	-45.2	-51.2	13.2	2.51e-05	0	41	0	39845888	62	6961
2026-01-14 01:35:53.83	358.03	9.68	-45.6	-51.4	12.9	4.57e-05	0	41	0	45088768	62	7170
2026-01-14 01:35:56.96	357.65	9.88	-45.9	-51.8	12.6	7.47e-05	0	40	0	50331648	62	7515
2026-01-14 01:35:59.80	357.31	10.06	-45.9	-51.5	12.8	6.63e-05	0	41	0	55574528	62	7277
2026-01-14 01:36:02.93	356.92	10.26	-45.9	-51.5	12.9	4.65e-05	0	41	0	61865984	62	7248
2026-01-14 01:36:05.77	356.57	10.44	-45.8	-51.5	13.0	4.73e-05	0	41	0	67108864	62	7206
2026-01-14 01:36:09.04	356.15	10.65	-45.8	-51.3	13.1	2.82e-05	0	41	0	73400320	62	7073
2026-01-14 01:36:11.76	355.80	10.82	-45.7	-50.9	13.5	1.37e-05	0	41	0	78643200	62	6776
2026-01-14 01:36:15.04	355.37	11.03	-45.5	-50.4	14.1	1.50e-06	0	41	0	84934656	62	6362
2026-01-14 01:36:17.75	355.02	11.20	-45.5	-50.4	14.1	7.00e-07	0	41	0	89128960	62	6360
2026-01-14 01:36:21.02	354.58	11.41	-45.7	-50.8	13.7	3.00e-06	0	41	0	95420416	62	6700
2026-01-14 01:36:23.75	354.21	11.58	-45.6	-50.7	13.8	5.30e-06	0	41	0	100663296	62	6621
2026-01-14 01:36:27.03	353.76	11.79	-45.4	-50.3	14.2	1.50e-06	0	41	0	106954752	62	6277
2026-01-14 01:36:29.95	353.35	11.98	-45.4	-50.7	13.8	3.00e-06	0	41	0	112197632	62	6638
2026-01-14 01:36:33.20	352.89	12.19	-45.0	-51.4	13.1	1.52e-05	0	41	0	118489088	62	7125
2026-01-14 01:36:36.19	352.46	12.38	-44.7	-51.1	13.5	7.60e-06	0	41	0	123731968	61	7289
2026-01-14 01:36:39.18	352.03	12.57	-44.5	-50.5	14.0	3.00e-06	0	41	0	130023424	61	6833
2026-01-14 01:36:42.24	351.58	12.76	-45.1	-50.7	13.9	1.50e-06	0	41	0	135266304	61	6969
2026-01-14 01:36:45.21	351.13	12.95	-45.8	-50.7	13.8	5.30e-06	0	41	0	140509184	62	6637
2026-01-14 01:36:48.56	350.63	13.16	-46.2	-50.6	14.0	3.00e-06	0	41	0	146800640	62	6519
2026-01-14 01:36:51.28	350.21	13.34	-46.6	-50.7	13.9	1.50e-06	0	41	0	152043520	63	6222
2026-01-14 01:36:54.54	349.71	13.54	-46.7	-50.9	13.7	6.10e-06	0	41	0	158334976	63	6378
2026-01-14 01:36:57.26	349.28	13.71	-46.8	-51.4	13.0	3.05e-05	0	41	0	163577856	64	6420
2026-01-14 01:37:00.53	348.76	13.92	-46.3	-50.9	13.5	9.90e-06	0	41	0	169869312	64	6057
2026-01-14 01:37:03.37	348.30	14.10	-45.9	-50.4	14.2	2.20e-06	0	41	0	175112192	63	6013
2026-01-14 01:37:06.96	347.71	14.32	-46.5	-51.3	13.3	8.30e-06	0	41	0	181403648	63	6658
2026-01-14 01:37:09.70	347.25	14.49	-46.8	-51.2	13.3	1.75e-05	0	41	0	186646528	64	6263
2026-01-14 01:37:12.96	346.71	14.70	-46.6	-50.7	13.8	3.80e-06	0	41	0	192937984	64	5860
2026-01-14 01:37:15.70	346.24	14.87	-46.2	-50.2	14.2	1.50e-06	0	41	0	198180864	64	5572
2026-01-14 01:37:19.03	345.67	15.07	-46.2	-50.9	13.6	8.30e-06	0	41	0	204472320	64	6026
2026-01-14 01:37:21.72	345.20	15.23	-46.0	-51.0	13.6	9.90e-06	0	41	0	209715200	63	6438
2026-01-14 01:37:25.25	344.57	15.45	-46.1	-50.7	13.8	2.20e-06	0	41	0	216006656	63	6231
2026-01-14 01:37:28.03	344.07	15.62	-46.4	-51.3	13.2	1.29e-05	0	41	0	221249536	63	6691
2026-01-14 01:37:31.29	343.48	15.81	-46.0	-51.1	13.4	1.67e-05	0	41	0	227540992	63	6502
2026-01-14 01:37:34.02	342.98	15.97	-45.5	-50.2	14.4	1.50e-06	0	41	0	232783872	63	5860
2026-01-14 01:37:37.67	342.30	16.19	-45.3	-49.5	15.0	0.00e+00	0	41	0	239075328	62	5752
2026-01-14 01:37:40.54	341.76	16.36	-45.7	-49.9	14.6	7.00e-07	0	41	0	244318208	62	6015
2026-01-14 01:37:44.25	341.05	16.57	-45.7	-49.3	15.2	0.00e+00	0	41	0	251658240	62	5613
2026-01-14 01:37:46.95	340.53	16.73	-45.5	-48.9	15.6	0.00e+00	0	41	0	256901120	62	5347
2026-01-14 01:37:50.22	339.89	16.91	-46.0	-49.6	14.9	0.00e+00	0	41	0	263192576	62	5828
2026-01-14 01:37:53.06	339.33	17.07	-45.2	-48.4	16.0	0.00e+00	0	41	0	268435456	62	5092
2026-01-14 01:37:56.48	338.64	17.26	-44.7	-48.0	16.4	0.00e+00	0	41	0	274726912	61	5120
2026-01-14 01:37:59.26	338.08	17.41	-45.1	-48.4	16.1	0.00e+00	0	41	0	279969792	61	5343
2026-01-14 01:38:02.44	337.43	17.58	-45.1	-48.4	16.0	0.00e+00	0	41	0	285212672	61	5374
2026-01-14 01:38:05.28	336.84	17.73	-44.3	-47.8	16.6	0.00e+00	0	41	0	291504128	60	5300
2026-01-14 01:38:08.40	336.19	17.89	-44.8	-48.5	15.9	0.00e+00	0	41	0	296747008	60	5783
2026-01-14 01:38:11.35	335.57	18.04	-45.6	-49.1	15.3	0.00e+00	0	41	0	301989888	61	5823
2026-01-14 01:38:14.62	334.87	18.21	-45.1	-48.4	16.1	0.00e+00	0	41	0	308281344	61	5372
2026-01-14 01:38:17.32	334.28	18.34	-44.9	-48.3	16.2	0.00e+00	0	41	0	313524224	61	5299
2026-01-14 01:38:20.61	333.57	18.50	-45.1	-48.5	16.0	0.00e+00	0	41	0	319815680	61	5404
2026-01-14 01:38:23.30	332.98	18.63	-44.8	-47.8	16.6	0.00e+00	0	41	0	325058560	61	5010
2026-01-14 01:38:26.85	332.19	18.79	-44.3	-47.2	17.1	0.00e+00	0	41	0	331350016	60	4979
2026-01-14 01:38:29.79	331.53	18.93	-44.3	-47.2	17.2	0.00e+00	0	41	0	336592896	60	4967
2026-01-14 01:38:32.95	330.81	19.06	-44.3	-47.1	17.3	0.00e+00	0	41	0	342884352	60	4874
2026-01-14 01:38:35.79	330.16	19.19	-44.7	-47.6	16.8	0.00e+00	0	41	0	348127232	60	5198
2026-01-14 01:38:38.92	329.44	19.32	-45.1	-48.3	16.2	0.00e+00	0	41	0	354418688	60	5606
2026-01-14 01:38:41.76	328.78	19.43	-44.7	-47.8	16.6	0.00e+00	0	41	0	359661568	60	5324
2026-01-14 01:38:44.89	328.05	19.55	-44.5	-47.5	16.9	0.00e+00	0	41	0	364904448	60	5154
2026-01-14 01:38:47.73	327.38	19.66	-44.8	-47.9	16.6	0.00e+00	0	41	0	370147328	60	5376
2026-01-14 01:38:50.86	326.64	19.77	-44.6	-47.5	17.0	0.00e+00	0	41	0	376438784	60	5115
2026-01-14 01:38:53.70	325.96	19.87	-44.1	-46.8	17.6	0.00e+00	0	41	0	381681664	60	4720
2026-01-14 01:38:56.91	325.19	19.98	-44.6	-47.5	17.0	0.00e+00	0	41	0	387973120	60	5117
2026-01-14 01:38:59.75	324.50	20.07	-44.3	-47.1	17.4	0.00e+00	0	41	0	393216000	60	4890
2026-01-14 01:39:02.99	323.71	20.17	-44.4	-47.3	17.1	0.00e+00	0	41	0	399507456	60	5014
2026-01-14 01:39:06.30	322.90	20.26	-45.5	-48.7	15.9	0.00e+00	0	41	0	405798912	61	5529
2026-01-14 01:39:09.14	322.20	20.34	-45.3	-48.5	16.0	0.00e+00	0	41	0	411041792	61	5418
2026-01-14 01:39:12.27	321.42	20.42	-45.3	-48.5	16.0	0.00e+00	0	41	0	416284672	61	5448
2026-01-14 01:39:15.19	320.69	20.49	-45.7	-49.1	15.5	0.00e+00	0	41	0	422576128	62	5501
2026-01-14 01:39:18.40	319.89	20.56	-45.8	-49.2	15.3	0.00e+00	0	41	0	427819008	62	5585
2026-01-14 01:39:21.24	319.17	20.62	-45.2	-48.4	16.1	0.00e+00	0	41	0	433061888	62	5089
2026-01-14 01:39:24.36	318.38	20.68	-45.6	-49.0	15.6	0.00e+00	0	41	0	439353344	62	5447
2026-01-14 01:39:27.38	317.62	20.73	-46.4	-50.2	14.4	1.50e-06	0	41	0	444596224	63	5895
2026-01-14 01:39:30.84	316.74	20.78	-45.9	-49.4	15.1	0.00e+00	0	41	0	451936256	63	5398
2026-01-14 01:39:33.54	316.05	20.82	-45.9	-49.4	15.2	0.00e+00	0	41	0	456130560	63	5357
2026-01-14 01:39:36.81	315.21	20.85	-45.8	-49.3	15.2	0.00e+00	0	41	0	462422016	63	5310
2026-01-14 01:39:39.60	314.50	20.88	-45.8	-49.3	15.2	0.00e+00	0	41	0	467664896	63	5312
2026-01-14 01:39:42.94	313.64	20.91	-45.9	-49.4	15.1	0.00e+00	0	41	0	473956352	63	5373
2026-01-14 01:39:45.81	312.90	20.92	-46.0	-49.7	14.9	0.00e+00	0	41	0	479199232	63	5539
2026-01-14 01:39:48.93	312.10	20.94	-46.3	-50.1	14.5	0.00e+00	0	41	0	485490688	63	5809
2026-01-14 01:39:51.77	311.37	20.94	-46.3	-50.1	14.5	1.50e-06	0	41	0	490733568	63	5813
2026-01-14 01:39:54.90	310.56	20.94	-46.1	-49.8	14.8	1.50e-06	0	41	0	497025024	63	5599
2026-01-14 01:39:57.87	309.79	20.94	-45.5	-48.8	15.8	0.00e+00	0	41	0	502267904	62	5296
2026-01-14 01:40:01.00	308.99	20.93	-45.0	-48.1	16.4	0.00e+00	0	41	0	508559360	62	4883
2026-01-14 01:40:03.84	308.26	20.92	-45.3	-48.5	16.0	0.00e+00	0	41	0	513802240	61	5403
2026-01-14 01:40:06.98	307.45	20.89	-45.9	-49.4	15.2	0.00e+00	0	41	0	519045120	62	5697
2026-01-14 01:40:09.86	306.71	20.87	-46.2	-49.8	14.8	7.00e-07	0	41	0	524288000	63	5612
2026-01-14 01:40:12.98	305.91	20.84	-45.9	-49.4	15.2	0.00e+00	0	41	0	530579456	63	5354
2026-01-14 01:40:15.86	305.17	20.80	-45.4	-48.4	16.1	0.00e+00	0	41	0	535822336	62	5097
2026-01-14 01:40:18.99	304.38	20.76	-44.8	-47.7	16.8	0.00e+00	0	41	0	542113792	61	4947
2026-01-14 01:40:21.83	303.65	20.71	-45.0	-47.8	16.7	0.00e+00	0	41	0	547356672	61	5036
2026-01-14 01:40:24.97	302.86	20.66	-44.6	-47.3	17.1	0.00e+00	0	41	0	552599552	61	4748
2026-01-14 01:40:27.81	302.14	20.60	-44.6	-47.4	17.1	0.00e+00	0	41	0	557842432	60	5046
2026-01-14 01:40:30.93	301.36	20.54	-44.6	-47.4	17.1	0.00e+00	0	41	0	564133888	60	5048
2026-01-14 01:40:33.78	300.64	20.47	-44.4	-47.2	17.3	0.00e+00	0	41	0	569376768	60	4927
2026-01-14 01:40:36.90	299.86	20.40	-44.3	-47.0	17.5	0.00e+00	0	41	0	575668224	60	4825
2026-01-14 01:40:39.81	299.14	20.32	-44.8	-47.6	16.9	0.00e+00	0	41	0	580911104	60	5204
2026-01-14 01:40:43.00	298.35	20.23	-45.1	-48.1	16.4	0.00e+00	0	41	0	587202560	61	5182
2026-01-14 01:40:45.84	297.66	20.15	-45.0	-47.9	16.6	0.00e+00	0	41	0	592445440	61	5082
2026-01-14 01:40:48.97	296.89	20.05	-45.0	-47.9	16.6	0.00e+00	0	41	0	597688320	61	5059
2026-01-14 01:40:51.81	296.20	19.96	-44.9	-47.7	16.8	0.00e+00	0	41	0	602931200	61	4980
2026-01-14 01:40:54.97	295.44	19.86	-45.6	-48.8	15.8	0.00e+00	0	41	0	609222656	61	5595
2026-01-14 01:40:57.83	294.76	19.76	-46.0	-49.4	15.2	0.00e+00	0	41	0	614465536	62	5694
2026-01-14 01:41:01.12	293.97	19.64	-45.7	-48.9	15.7	0.00e+00	0	41	0	620756992	62	5358
2026-01-14 01:41:03.84	293.33	19.53	-45.7	-48.9	15.6	0.00e+00	0	41	0	625999872	62	5385
2026-01-14 01:41:07.11	292.57	19.40	-46.0	-49.4	15.2	0.00e+00	0	41	0	632291328	63	5400
2026-01-14 01:41:09.81	291.94	19.30	-46.1	-49.6	15.0	0.00e+00	0	41	0	637534208	63	5501
2026-01-14 01:41:13.14	291.17	19.16	-46.4	-50.0	14.6	0.00e+00	0	41	0	643825664	63	5756
2026-01-14 01:41:16.19	290.47	19.02	-45.9	-49.2	15.4	0.00e+00	0	41	0	649068544	63	5240
2026-01-14 01:41:19.13	289.81	18.89	-45.7	-49.0	15.6	7.00e-07	0	41	0	654311424	63	5111
2026-01-14 01:41:22.16	289.13	18.76	-45.8	-49.2	15.4	0.00e+00	0	41	0	660602880	63	5235
2026-01-14 01:41:25.08	288.48	18.62	-45.7	-48.8	15.7	0.00e+00	0	41	0	665845760	63	5041
2026-01-14 01:41:28.07	287.82	18.48	-45.2	-48.2	16.3	0.00e+00	0	41	0	671088640	62	4955
2026-01-14 01:41:31.18	287.14	18.33	-45.0	-47.9	16.6	0.00e+00	0	41	0	677380096	62	4794
2026-01-14 01:41:35.04	286.31	18.14	-44.9	-47.7	16.8	0.00e+00	0	41	0	684720128	61	4957
2026-01-14 01:41:37.89	285.70	17.99	-45.3	-48.4	16.1	0.00e+00	0	41	0	689963008	61	5361
2026-01-14 01:41:41.86	284.86	17.79	-46.6	-50.4	14.2	0.00e+00	0	41	0	697303040	63	6039
2026-01-14 01:41:44.72	284.26	17.64	-46.3	-49.9	14.7	7.00e-07	0	41	0	702545920	63	5676
2026-01-14 01:41:48.27	283.53	17.44	-46.7	-50.6	13.9	2.20e-06	0	41	0	708837376	64	5824
2026-01-14 01:41:51.28	282.92	17.28	-47.1	-51.5	13.0	2.82e-05	0	41	0	715128832	65	6115
2026-01-14 01:41:54.55	282.26	17.10	-46.6	-50.5	14.0	3.00e-06	0	41	0	721420288	64	5763
2026-01-14 01:41:57.27	281.72	16.95	-45.8	-49.2	15.4	0.00e+00	0	41	0	725614592	63	5231
2026-01-14 01:42:00.60	281.06	16.76	-45.6	-48.8	15.7	0.00e+00	0	41	0	731906048	62	5316
2026-01-14 01:42:03.55	280.49	16.59	-45.6	-48.9	15.6	0.00e+00	0	41	0	738197504	62	5370
2026-01-14 01:42:06.53	279.91	16.42	-46.2	-49.7	14.8	0.00e+00	0	41	0	743440384	62	5917
2026-01-14 01:42:09.52	279.35	16.24	-46.3	-49.9	14.6	0.00e+00	0	41	0	748683264	63	5706
2026-01-14 01:42:12.50	278.79	16.07	-45.5	-48.7	15.7	0.00e+00	0	41	0	754974720	63	4979
2026-01-14 01:42:15.48	278.23	15.89	-45.6	-49.0	15.6	0.00e+00	0	41	0	760217600	62	5422
2026-01-14 01:42:18.47	277.68	15.71	-46.4	-50.3	14.2	0.00e+00	0	41	0	765460480	63	5944
2026-01-14 01:42:21.45	277.14	15.53	-46.9	-51.2	13.2	1.67e-05	0	41	0	771751936	64	6223
2026-01-14 01:42:24.44	276.61	15.35	-46.9	-51.1	13.3	2.82e-05	0	41	0	776994816	64	6155
2026-01-14 01:42:27.71	276.03	15.15	-46.5	-50.5	14.0	2.20e-06	0	41	0	783286272	64	5724
2026-01-14 01:42:30.41	275.56	14.99	-46.4	-50.3	14.2	2.20e-06	0	41	0	788529152	64	5593
2026-01-14 01:42:33.69	274.99	14.78	-46.3	-50.1	14.3	1.50e-06	0	41	0	794820608	64	5522
2026-01-14 01:42:36.49	274.51	14.61	-46.2	-49.9	14.5	2.20e-06	0	41	0	800063488	64	5397
2026-01-14 01:42:39.61	273.99	14.42	-46.7	-50.8	13.6	2.20e-06	0	41	0	805306368	64	5964
2026-01-14 01:42:42.99	273.43	14.20	-46.6	-50.6	13.8	7.60e-06	0	41	0	811597824	64	5850
2026-01-14 01:42:45.83	272.96	14.03	-46.0	-49.6	14.8	0.00e+00	0	41	0	816840704	64	5185
2026-01-14 01:42:48.96	272.46	13.83	-45.9	-49.3	15.2	0.00e+00	0	41	0	823132160	63	5317
2026-01-14 01:42:51.80	272.01	13.65	-46.2	-49.7	14.7	0.00e+00	0	41	0	828375040	63	5579
2026-01-14 01:42:54.92	271.51	13.45	-46.3	-50.0	14.5	7.00e-07	0	41	0	834666496	63	5742
2026-01-14 01:42:57.77	271.07	13.27	-46.1	-49.8	14.6	7.00e-07	0	41	0	839909376	63	5639
2026-01-14 01:43:01.10	270.56	13.06	-46.0	-49.5	15.0	7.00e-07	0	41	0	846200832	63	5424
2026-01-14 01:43:03.83	270.15	12.88	-45.8	-49.1	15.4	0.00e+00	0	41	0	850395136	63	5169
2026-01-14 01:43:07.08	269.66	12.68	-45.6	-48.7	15.7	0.00e+00	0	41	0	856686592	63	4961
2026-01-14 01:43:10.06	269.22	12.49	-45.1	-48.0	16.3	0.00e+00	0	41	0	862978048	62	4865
2026-01-14 01:43:13.04	268.79	12.30	-44.7	-47.5	16.8	0.00e+00	0	41	0	868220928	61	4859
2026-01-14 01:43:16.03	268.36	12.10	-44.9	-47.8	16.5	0.00e+00	0	41	0	873463808	61	5040
2026-01-14 01:43:19.01	267.94	11.91	-45.4	-48.6	15.8	0.00e+00	0	41	0	879755264	61	5500
2026-01-14 01:43:22.00	267.52	11.72	-45.7	-49.0	15.4	0.00e+00	0	41	0	884998144	62	5429
2026-01-14 01:43:24.98	267.11	11.53	-45.7	-48.9	15.4	0.00e+00	0	41	0	890241024	62	5374
2026-01-14 01:43:27.96	266.70	11.34	-45.4	-48.5	15.8	0.00e+00	0	40	0	896532480	62	5146
2026-01-14 01:43:30.95	266.30	11.15	-45.3	-48.3	16.0	0.00e+00	0	41	0	901775360	62	4998
2026-01-14 01:43:34.00	265.89	10.96	-45.3	-48.4	15.9	0.00e+00	0	41	0	907018240	62	5090
2026-01-14 01:43:37.00	265.50	10.76	-45.4	-48.6	15.7	0.00e+00	0	41	0	913309696	62	5198
2026-01-14 01:43:39.98	265.12	10.57	-45.7	-49.1	15.2	0.00e+00	0	41	0	918552576	62	5496
2026-01-14 01:43:42.96	264.74	10.38	-46.1	-49.6	14.8	0.00e+00	0	41	0	923795456	62	5801
2026-01-14 01:43:45.95	264.36	10.19	-46.3	-50.0	14.3	7.00e-07	0	41	0	930086912	63	5729
2026-01-14 01:43:48.98	263.98	10.00	-45.9	-49.7	14.5	0.00e+00	0	41	0	935329792	63	5585
2026-01-14 01:43:51.93	263.62	9.81	-45.4	-49.3	15.0	0.00e+00	0	41	0	940572672	62	5624
2026-01-14 01:43:54.91	263.26	9.63	-45.0	-48.4	15.8	0.00e+00	0	41	0	946864128	61	5399
2026-01-14 01:43:57.90	262.91	9.44	-45.4	-48.8	15.4	0.00e+00	0	41	0	952107008	61	5628
2026-01-14 01:44:00.88	262.55	9.25	-46.1	-49.7	14.6	0.00e+00	0	40	0	957349888	62	5859
2026-01-14 01:44:03.96	262.20	9.06	-46.5	-50.3	14.0	7.00e-07	0	41	0	963641344	63	5942
2026-01-14 01:44:06.97	261.85	8.87	-50.7	-65.9	3.8	1.49e+00	0	41	104	965738496	72	21502
2026-01-14 01:44:09.95	261.51	8.68	-50.7	-66.1	3.8	1.49e+00	0	41	104	965738496	72	21969
2026-01-14 01:44:12.93	261.18	8.49	-51.0	-66.3	3.8	1.49e+00	0	41	104	965738496	72	22303
2026-01-14 01:44:15.91	260.85	8.31	-51.0	-66.3	3.8	1.49e+00	0	41	104	965738496	72	22330
2026-01-14 01:44:18.89	260.53	8.12	-51.0	-66.3	3.8	1.49e+00	0	41	104	965738496	72	22317
2026-01-14 01:44:21.87	260.21	7.94	-51.0	-66.3	3.8	1.49e+00	0	40	104	965738496	72	22483
2026-01-14 01:44:24.85	259.89	7.75	-50.9	-66.3	3.8	1.49e+00	0	41	104	965738496	72	22310
2026-01-14 01:44:27.83	259.58	7.57	-50.8	-66.2	3.8	1.49e+00	0	41	104	965738496	72	22220
2026-01-14 01:44:30.81	259.27	7.39	-50.8	-66.2	3.8	1.49e+00	0	41	104	965738496	72	22097
2026-01-14 01:44:33.79	258.97	7.20	-50.8	-66.2	3.8	1.49e+00	0	41	104	965738496	72	22082
2026-01-14 01:44:36.77	258.67	7.02	-50.8	-66.2	3.8	1.49e+00	0	41	104	965738496	72	22142
2026-01-14 01:44:39.75	258.37	6.84	-50.8	-66.2	3.8	1.49e+00	0	41	104	965738496	72	22181
2026-01-14 01:44:42.73	258.08	6.66	-50.8	-66.2	3.8	1.49e+00	0	41	104	965738496	72	22107
2026-01-14 01:44:45.71	257.79	6.48	-50.8	-66.2	3.8	1.49e+00	0	41	104	965738496	72	22092
2026-01-14 01:44:48.69	257.50	6.30	-50.8	-66.2	3.8	1.49e+00	0	41	104	965738496	72	22051
2026-01-14 01:44:51.67	257.22	6.12	-50.8	-66.1	3.8	1.49e+00	0	41	104	965738496	72	22006
2026-01-14 01:44:54.65	256.94	5.94	-50.8	-66.2	3.8	1.49e+00	0	41	104	965738496	72	22101
2026-01-14 01:44:57.63	256.67	5.76	-50.7	-66.2	3.8	1.49e+00	0	41	104	965738496	72	22072
2026-01-14 01:45:00.61	256.40	5.59	-50.8	-66.1	3.8	1.49e+00	0	41	104	965738496	72	21971
2026-01-14 01:45:03.59	256.13	5.41	-50.8	-66.2	3.8	1.49e+00	0	41	104	965738496	72	22058
2026-01-14 01:45:06.57	255.86	5.23	-50.7	-66.2	3.8	1.49e+00	0	41	104	965738496	72	22015
2026-01-14 01:45:09.55	255.60	5.06	-50.7	-66.1	3.8	1.49e+00	0	41	104	965738496	72	21990

#Closed at: 2026-01-14 01:45:11
#Recorded file [965 MB]: D:/Data/31040_260114_043439.dat