passes_logs/2026/01/14/T1/T1__20260114_005315_FENGYUN_3D_rec.log

#Pass ID: 20260114_005315_FENGYUN 3D
#Satellite: FENGYUN 3D
#Configuration: FENGYUN 3D
#almurnet v.1.7.20251203
#Start time: 2026-01-14 00:53:15

#Version: 2.0.20230620
#Station: T1
#Location: 37.570604 lon 55.790049 lat
#TLE: 1 43010U 17072A   26013.31211337  .00000452  00000+0  23563-3 0  9990
#TLE: 2 43010  98.9934 345.1024 0002270 111.0315 249.1103 14.19696845423017

#Time	Az	El	Level	Level2	SNR	BER	BlckErr	Temp	State	Recorded	gain1	gain2
2026-01-14 00:53:15.94	23.52	5.05	-51.2	-64.0	3.8	8.48e-01	0	41	0	0	74	15341
2026-01-14 00:53:18.92	23.68	5.25	-51.2	-63.9	3.8	8.48e-01	0	41	104	0	72	16994
2026-01-14 00:53:21.90	23.84	5.45	-51.1	-63.9	3.8	8.47e-01	0	41	104	0	72	16914
2026-01-14 00:53:24.87	24.00	5.65	-51.1	-63.8	3.8	8.46e-01	0	42	104	0	72	16696
2026-01-14 00:53:27.85	24.16	5.86	-51.1	-63.7	3.8	8.46e-01	0	42	104	0	72	16567
2026-01-14 00:53:30.83	24.33	6.06	-51.1	-63.7	3.8	8.48e-01	0	42	104	0	72	16682
2026-01-14 00:53:33.81	24.50	6.27	-51.1	-63.9	3.8	8.47e-01	0	42	104	0	72	16922
2026-01-14 00:53:36.79	24.67	6.48	-51.2	-63.9	3.8	8.46e-01	0	42	104	0	72	16949
2026-01-14 00:53:39.77	24.84	6.69	-51.2	-63.9	3.8	8.47e-01	0	42	104	0	72	16986
2026-01-14 00:53:42.75	25.01	6.90	-51.2	-63.9	3.8	8.46e-01	0	42	104	0	72	16976
2026-01-14 00:53:45.73	25.19	7.11	-51.2	-63.9	3.8	8.48e-01	0	42	104	0	72	16939
2026-01-14 00:53:48.71	25.37	7.33	-51.1	-63.3	3.8	8.47e-01	0	42	104	0	72	15901
2026-01-14 00:53:51.69	25.55	7.54	-51.1	-62.7	3.8	8.46e-01	0	42	104	0	72	14858
2026-01-14 00:53:54.67	25.74	7.76	-51.0	-62.7	3.8	8.46e-01	0	42	104	0	72	14742
2026-01-14 00:53:57.65	25.93	7.98	-51.0	-62.6	3.8	8.47e-01	0	43	104	0	72	14559
2026-01-14 00:54:00.63	26.12	8.20	-51.0	-62.2	3.8	8.46e-01	0	42	104	0	72	13990
2026-01-14 00:54:03.61	26.31	8.42	-51.1	-62.8	3.8	8.46e-01	0	43	104	0	72	15006
2026-01-14 00:54:06.59	26.50	8.65	-51.1	-62.8	3.8	8.47e-01	0	43	104	0	72	14952
2026-01-14 00:54:09.57	26.70	8.87	-50.9	-61.4	3.8	8.44e-01	0	43	104	0	72	12755
2026-01-14 00:54:12.55	26.90	9.10	-48.9	-53.6	9.1	7.95e-01	0	43	0	1048576	69	6193
2026-01-14 00:54:15.53	27.11	9.33	-48.2	-52.3	10.4	3.64e-04	0	43	0	9437184	66	6332
2026-01-14 00:54:18.52	27.31	9.56	-46.6	-49.7	13.0	1.83e-05	0	43	0	26214400	64	5260
2026-01-14 00:54:21.51	27.53	9.80	-45.3	-47.9	14.9	0.00e+00	0	43	0	42991616	62	4801
2026-01-14 00:54:24.49	27.74	10.03	-44.4	-46.7	16.1	0.00e+00	0	43	0	59768832	60	4683
2026-01-14 00:54:27.47	27.96	10.27	-44.3	-46.7	16.2	0.00e+00	0	43	0	76546048	60	4669
2026-01-14 00:54:30.46	28.18	10.51	-43.6	-45.8	17.0	0.00e+00	0	43	0	93323264	59	4460
2026-01-14 00:54:33.40	28.40	10.75	-43.3	-45.4	17.4	0.00e+00	0	43	0	110100480	58	4530
2026-01-14 00:54:36.52	28.63	11.01	-43.3	-45.4	17.4	0.00e+00	0	43	0	127926272	58	4539
2026-01-14 00:54:39.36	28.85	11.24	-43.3	-45.4	17.4	0.00e+00	0	43	0	143654912	58	4542
2026-01-14 00:54:42.52	29.10	11.50	-43.2	-45.4	17.4	0.00e+00	0	43	0	161480704	58	4536
2026-01-14 00:54:45.42	29.33	11.75	-43.2	-45.3	17.5	0.00e+00	0	43	0	177209344	58	4493
2026-01-14 00:54:48.68	29.60	12.02	-43.1	-45.3	17.6	0.00e+00	0	43	0	196083712	58	4457
2026-01-14 00:54:51.52	29.83	12.26	-43.1	-45.1	17.7	0.00e+00	0	43	0	211812352	58	4388
2026-01-14 00:54:54.65	30.10	12.53	-43.0	-45.0	17.8	0.00e+00	0	43	0	229638144	57	4569
2026-01-14 00:54:57.49	30.34	12.78	-43.0	-45.0	17.8	0.00e+00	0	44	0	245366784	57	4580
2026-01-14 00:55:00.62	30.61	13.05	-42.9	-44.9	18.0	0.00e+00	0	43	0	263192576	57	4517
2026-01-14 00:55:03.46	30.86	13.31	-42.9	-45.0	17.9	0.00e+00	0	43	0	278921216	57	4546
2026-01-14 00:55:06.59	31.14	13.59	-42.9	-44.8	18.0	0.00e+00	0	43	0	296747008	57	4487
2026-01-14 00:55:09.43	31.40	13.84	-42.7	-44.7	18.2	0.00e+00	0	43	0	312475648	57	4415
2026-01-14 00:55:12.55	31.69	14.12	-42.6	-44.6	18.3	0.00e+00	0	44	0	330301440	57	4366
2026-01-14 00:55:15.40	31.96	14.39	-42.6	-44.5	18.4	0.00e+00	0	44	0	346030080	57	4330
2026-01-14 00:55:18.52	32.26	14.67	-42.7	-44.7	18.2	0.00e+00	0	44	0	363855872	57	4407
2026-01-14 00:55:21.36	32.54	14.94	-42.6	-44.6	18.3	0.00e+00	0	44	0	379584512	57	4365
2026-01-14 00:55:24.60	32.87	15.25	-42.4	-44.3	18.6	0.00e+00	0	43	0	398458880	56	4470
2026-01-14 00:55:27.44	33.16	15.52	-42.2	-44.2	18.7	0.00e+00	0	44	0	414187520	56	4408
2026-01-14 00:55:30.57	33.48	15.82	-42.0	-44.0	18.8	0.00e+00	0	44	0	432013312	56	4328
2026-01-14 00:55:33.41	33.78	16.09	-40.9	-44.0	18.4	0.00e+00	0	44	0	447741952	52	5403
2026-01-14 00:55:36.54	34.12	16.40	-42.0	-44.0	18.7	0.00e+00	0	43	0	465567744	54	4820
2026-01-14 00:55:39.38	34.43	16.68	-42.0	-44.0	18.7	0.00e+00	0	44	0	481296384	54	4852
2026-01-14 00:55:42.51	34.78	16.99	-42.0	-44.0	18.8	0.00e+00	0	43	0	499122176	54	4822
2026-01-14 00:55:45.35	35.10	17.28	-42.0	-43.9	18.9	0.00e+00	0	44	0	514850816	54	4775
2026-01-14 00:55:48.47	35.46	17.59	-41.9	-43.8	19.0	0.00e+00	0	44	0	532676608	54	4734
2026-01-14 00:55:51.31	35.80	17.88	-41.8	-43.7	19.1	0.00e+00	0	44	0	548405248	54	4677
2026-01-14 00:55:54.44	36.18	18.21	-41.9	-43.8	18.9	0.00e+00	0	44	0	565182464	54	4759
2026-01-14 00:55:57.36	36.53	18.51	-41.8	-43.7	19.0	0.00e+00	0	44	0	581959680	54	4688
2026-01-14 00:56:00.61	36.94	18.85	-41.7	-43.6	19.2	0.00e+00	0	44	0	600834048	54	4601
2026-01-14 00:56:03.40	37.30	19.15	-41.6	-43.5	19.3	0.00e+00	0	43	0	616562688	54	4551
2026-01-14 00:56:06.53	37.71	19.49	-41.4	-43.2	19.5	0.00e+00	0	44	0	633339904	54	4420
2026-01-14 00:56:09.37	38.09	19.79	-41.1	-43.0	19.7	0.00e+00	0	44	0	650117120	54	4303
2026-01-14 00:56:12.50	38.52	20.14	-41.2	-43.0	19.7	0.00e+00	0	44	0	667942912	54	4308
2026-01-14 00:56:15.34	38.91	20.45	-41.2	-43.0	19.7	0.00e+00	0	44	0	683671552	54	4337
2026-01-14 00:56:18.61	39.38	20.81	-41.1	-42.9	19.8	0.00e+00	0	44	0	701497344	54	4278
2026-01-14 00:56:21.34	39.77	21.12	-41.0	-42.8	19.9	0.00e+00	0	44	0	717225984	54	4231
2026-01-14 00:56:24.62	40.26	21.49	-41.1	-42.9	19.8	0.00e+00	0	44	0	735051776	54	4283
2026-01-14 00:56:27.34	40.67	21.80	-41.2	-43.0	19.8	0.00e+00	0	44	0	750780416	54	4321
2026-01-14 00:56:30.62	41.18	22.18	-41.1	-42.9	19.9	0.00e+00	0	44	0	769654784	54	4260
2026-01-14 00:56:33.66	41.66	22.53	-40.8	-42.7	20.0	0.00e+00	0	43	0	786432000	53	4392
2026-01-14 00:56:37.22	42.24	22.95	-40.5	-42.3	20.4	0.00e+00	0	44	0	806354944	52	4459
2026-01-14 00:56:39.98	42.69	23.27	-40.4	-42.1	20.5	0.00e+00	0	44	0	822083584	52	4375
2026-01-14 00:56:43.25	43.25	23.66	-40.3	-42.0	20.7	0.00e+00	0	44	0	840957952	52	4315
2026-01-14 00:56:46.00	43.73	23.99	-40.4	-42.2	20.5	0.00e+00	0	44	0	855638016	52	4405
2026-01-14 00:56:49.27	44.31	24.39	-40.5	-42.2	20.4	0.00e+00	0	44	0	874512384	52	4426
2026-01-14 00:56:52.09	44.82	24.73	-40.4	-42.2	20.5	0.00e+00	0	44	0	890241024	52	4412
2026-01-14 00:56:55.33	45.42	25.13	-40.4	-42.1	20.6	0.00e+00	0	44	0	908066816	52	4377
2026-01-14 00:56:58.25	45.98	25.49	-40.4	-42.2	20.5	0.00e+00	0	44	0	924844032	52	4413
2026-01-14 00:57:01.23	46.56	25.86	-40.3	-42.1	20.5	0.00e+00	0	44	0	941621248	52	4378
2026-01-14 00:57:04.22	47.15	26.23	-40.3	-42.1	20.6	0.00e+00	0	44	0	958398464	52	4355
2026-01-14 00:57:07.27	47.77	26.61	-40.2	-42.0	20.7	0.00e+00	0	44	0	975175680	52	4304
2026-01-14 00:57:10.25	48.40	26.99	-40.1	-41.8	20.8	0.00e+00	0	44	0	991952896	52	4220
2026-01-14 00:57:13.24	49.03	27.37	-40.2	-42.0	20.7	0.00e+00	0	44	0	1008730112	52	4305
2026-01-14 00:57:16.56	49.76	27.79	-40.0	-41.7	21.0	0.00e+00	0	44	0	1027604480	51	4439
2026-01-14 00:57:19.26	50.37	28.13	-39.9	-41.7	20.8	0.00e+00	0	43	0	1043333120	51	4394
2026-01-14 00:57:22.54	51.12	28.55	-39.9	-41.7	20.7	0.00e+00	0	44	0	1061158912	51	4438
2026-01-14 00:57:25.27	51.76	28.90	-39.8	-41.6	20.8	0.00e+00	0	43	0	1076887552	51	4386
2026-01-14 00:57:28.65	52.57	29.33	-39.9	-41.6	20.8	0.00e+00	0	44	0	1095761920	51	4390
2026-01-14 00:57:31.70	53.32	29.73	-39.8	-41.6	20.8	0.00e+00	0	44	0	1112539136	51	4357
2026-01-14 00:57:34.98	54.15	30.15	-40.1	-41.9	20.6	0.00e+00	0	44	0	1131413504	51	4507
2026-01-14 00:57:37.68	54.85	30.49	-39.9	-41.7	20.8	0.00e+00	0	44	0	1146093568	51	4416
2026-01-14 00:57:40.95	55.72	30.91	-39.5	-41.2	21.2	0.00e+00	0	44	0	1164967936	51	4186
2026-01-14 00:57:43.66	56.45	31.26	-39.7	-41.5	20.9	0.00e+00	0	44	0	1180696576	50	4560
2026-01-14 00:57:47.16	57.43	31.71	-39.5	-41.3	21.1	0.00e+00	0	43	0	1199570944	50	4447
2026-01-14 00:57:49.93	58.22	32.06	-39.7	-41.5	20.9	0.00e+00	0	44	0	1215299584	50	4574
2026-01-14 00:57:53.25	59.18	32.48	-39.9	-41.7	20.8	0.00e+00	0	44	0	1234173952	50	4661
2026-01-14 00:57:55.98	60.00	32.82	-39.7	-41.5	20.9	0.00e+00	0	44	0	1249902592	50	4578
2026-01-14 00:57:59.26	61.00	33.23	-39.8	-41.6	20.9	0.00e+00	0	44	0	1267728384	50	4601
2026-01-14 00:58:02.08	61.88	33.57	-39.8	-41.5	20.8	0.00e+00	0	44	0	1283457024	50	4598
2026-01-14 00:58:05.72	63.04	34.01	-39.5	-41.3	21.1	0.00e+00	0	44	0	1304428544	50	4463
2026-01-14 00:58:08.44	63.93	34.34	-39.6	-41.4	21.1	0.00e+00	0	44	0	1319108608	50	4494
2026-01-14 00:58:11.71	65.03	34.73	-39.8	-41.6	20.9	0.00e+00	0	44	0	1337982976	50	4599
2026-01-14 00:58:14.42	65.95	35.04	-39.5	-41.3	21.1	0.00e+00	0	44	0	1352663040	50	4465
2026-01-14 00:58:17.71	67.10	35.42	-39.5	-41.2	21.1	0.00e+00	0	44	0	1371537408	50	4434
2026-01-14 00:58:20.58	68.12	35.74	-39.7	-41.5	20.9	0.00e+00	0	44	0	1387266048	50	4580
2026-01-14 00:58:23.72	69.26	36.08	-39.6	-41.4	21.0	0.00e+00	0	44	0	1405091840	50	4503
2026-01-14 00:58:26.86	70.43	36.41	-39.8	-41.6	20.9	0.00e+00	0	44	0	1422917632	50	4608
2026-01-14 00:58:29.85	71.56	36.72	-39.6	-41.4	21.1	0.00e+00	0	44	0	1439694848	50	4499
2026-01-14 00:58:32.83	72.71	37.02	-39.4	-41.2	21.2	0.00e+00	0	44	0	1456472064	50	4398
2026-01-14 00:58:35.83	73.89	37.31	-39.4	-41.2	21.2	0.00e+00	0	44	0	1473249280	50	4420
2026-01-14 00:58:38.83	75.09	37.59	-39.3	-41.1	21.3	0.00e+00	0	44	0	1490026496	50	4353
2026-01-14 00:58:41.81	76.30	37.85	-39.5	-41.3	21.1	0.00e+00	0	44	0	1506803712	50	4483
2026-01-14 00:58:44.80	77.53	38.10	-39.1	-40.8	21.5	0.00e+00	0	44	0	1524629504	50	4219
2026-01-14 00:58:47.78	78.78	38.34	-39.3	-41.1	21.3	0.00e+00	0	44	0	1540358144	50	4345
2026-01-14 00:58:50.76	80.04	38.57	-39.4	-41.2	21.2	0.00e+00	0	44	0	1557135360	50	4404
2026-01-14 00:58:53.73	81.32	38.78	-39.3	-41.1	21.3	0.00e+00	0	44	0	1573912576	50	4351
2026-01-14 00:58:57.23	82.85	39.01	-39.3	-41.1	21.3	0.00e+00	0	44	0	1593835520	50	4373
2026-01-14 00:58:59.95	84.05	39.17	-39.3	-41.1	21.3	0.00e+00	0	44	0	1609564160	50	4356
2026-01-14 00:59:03.23	85.51	39.35	-39.3	-41.0	21.3	0.00e+00	0	44	0	1627389952	50	4334
2026-01-14 00:59:05.94	86.73	39.49	-39.1	-40.9	21.4	0.00e+00	0	44	0	1643118592	50	4253
2026-01-14 00:59:09.22	88.22	39.63	-39.6	-41.4	21.0	0.00e+00	0	44	0	1660944384	50	4507
2026-01-14 00:59:11.94	89.47	39.73	-39.4	-41.2	21.2	0.00e+00	0	44	0	1676673024	50	4433
2026-01-14 00:59:15.21	90.97	39.84	-39.6	-41.3	21.1	0.00e+00	0	44	0	1695547392	50	4485
2026-01-14 00:59:17.92	92.23	39.91	-39.5	-41.3	21.1	0.00e+00	0	44	0	1710227456	50	4447
2026-01-14 00:59:21.19	93.75	39.97	-39.6	-41.3	21.1	0.00e+00	0	44	0	1729101824	50	4476
2026-01-14 00:59:23.92	95.02	40.01	-39.8	-41.5	20.9	0.00e+00	0	44	0	1743781888	50	4592
2026-01-14 00:59:27.20	96.56	40.03	-39.6	-41.4	21.0	0.00e+00	0	44	0	1762656256	50	4524
2026-01-14 00:59:30.11	97.92	40.03	-39.5	-41.3	21.0	0.00e+00	0	44	0	1779433472	50	4485
2026-01-14 00:59:33.60	99.55	40.01	-39.7	-41.5	20.9	0.00e+00	0	44	0	1798307840	50	4562
2026-01-14 00:59:36.30	100.81	39.98	-39.6	-41.3	21.1	0.00e+00	0	44	0	1814036480	50	4488
2026-01-14 00:59:39.85	102.46	39.91	-39.6	-41.4	21.0	0.00e+00	0	44	0	1833959424	50	4528
2026-01-14 00:59:42.55	103.72	39.84	-39.7	-41.5	20.9	0.00e+00	0	44	0	1848639488	50	4596
2026-01-14 00:59:45.81	105.22	39.74	-39.9	-41.7	20.8	0.00e+00	0	44	0	1867513856	50	4652
2026-01-14 00:59:48.52	106.46	39.64	-39.4	-41.1	21.2	0.00e+00	0	44	0	1882193920	50	4386
2026-01-14 00:59:51.99	108.04	39.48	-39.5	-41.3	21.1	0.00e+00	0	44	0	1902116864	50	4452
2026-01-14 00:59:54.72	109.27	39.35	-39.4	-41.2	21.2	0.00e+00	0	44	0	1917845504	50	4416
2026-01-14 00:59:58.00	110.74	39.17	-39.4	-41.2	21.2	0.00e+00	0	44	0	1935671296	50	4413
2026-01-14 01:00:00.73	111.94	39.00	-39.5	-41.3	21.1	0.00e+00	0	44	0	1951399936	50	4472
2026-01-14 01:00:04.01	113.38	38.79	-39.9	-41.6	20.8	0.00e+00	0	44	0	1969225728	50	4651
2026-01-14 01:00:06.96	114.65	38.58	-39.5	-41.2	21.2	0.00e+00	0	44	0	1986002944	50	4436
2026-01-14 01:00:10.26	116.05	38.33	-39.4	-41.2	21.2	0.00e+00	0	44	0	2004877312	50	4407
2026-01-14 01:00:12.96	117.19	38.11	-39.6	-41.4	21.0	0.00e+00	0	44	0	2019557376	50	4496
2026-01-14 01:00:16.26	118.55	37.83	-39.6	-41.4	21.0	0.00e+00	0	44	0	2038431744	50	4514
2026-01-14 01:00:19.10	119.70	37.57	-39.5	-41.3	21.1	0.00e+00	0	44	0	2054160384	50	4466
2026-01-14 01:00:22.33	121.00	37.27	-39.4	-41.2	21.2	0.00e+00	0	44	0	2073034752	50	4421
2026-01-14 01:00:25.47	122.23	36.97	-39.7	-41.4	21.0	0.00e+00	0	44	0	2090860544	50	4539
2026-01-14 01:00:28.31	123.32	36.68	-39.6	-41.4	21.0	0.00e+00	0	44	0	2106589184	50	4522
2026-01-14 01:00:31.44	124.51	36.35	-39.6	-41.4	21.1	0.00e+00	0	44	0	2124414976	50	4494
2026-01-14 01:00:34.28	125.56	36.05	-39.4	-41.2	21.0	0.00e+00	0	44	0	2140143616	50	4424
2026-01-14 01:00:37.41	126.70	35.71	-39.1	-40.8	21.1	0.00e+00	0	44	0	2157969408	50	4236
2026-01-14 01:00:40.32	127.74	35.38	-39.2	-41.1	20.8	0.00e+00	0	44	0	2173698048	50	4356
2026-01-14 01:00:43.64	128.90	35.00	-39.0	-40.7	20.9	0.00e+00	0	44	0	2192572416	49	4435
2026-01-14 01:00:46.34	129.83	34.68	-38.8	-40.6	21.0	0.00e+00	0	44	0	2207252480	49	4355
2026-01-14 01:00:49.61	130.92	34.29	-38.8	-40.6	21.0	0.00e+00	0	44	0	2226126848	49	4371
2026-01-14 01:00:52.47	131.86	33.95	-39.1	-40.9	20.7	0.00e+00	0	44	0	2241855488	49	4505
2026-01-14 01:00:55.59	132.86	33.57	-39.1	-41.0	20.6	0.00e+00	0	44	0	2259681280	49	4553
2026-01-14 01:00:58.72	133.84	33.18	-38.9	-40.7	20.8	0.00e+00	0	44	0	2277507072	49	4433
2026-01-14 01:01:01.84	134.79	32.79	-38.9	-40.7	20.8	0.00e+00	0	44	0	2295332864	49	4421
2026-01-14 01:01:04.69	135.64	32.43	-38.9	-40.7	20.8	0.00e+00	0	44	0	2311061504	49	4412
2026-01-14 01:01:07.94	136.59	32.02	-38.7	-40.5	20.9	0.00e+00	0	44	0	2328887296	49	4313
2026-01-14 01:01:10.78	137.40	31.65	-38.9	-40.7	20.7	0.00e+00	0	44	0	2345664512	49	4408
2026-01-14 01:01:14.08	138.32	31.23	-39.1	-41.0	20.5	0.00e+00	0	44	0	2363490304	49	4551
2026-01-14 01:01:17.28	139.19	30.82	-39.0	-40.8	20.6	0.00e+00	0	44	0	2381316096	49	4488
2026-01-14 01:01:20.12	139.95	30.45	-38.9	-40.7	20.7	0.00e+00	0	44	0	2398093312	49	4418
2026-01-14 01:01:23.29	140.77	30.04	-39.3	-41.1	20.3	0.00e+00	0	44	0	2415919104	49	4643
2026-01-14 01:01:26.18	141.50	29.67	-39.2	-41.1	20.3	0.00e+00	0	44	0	2431647744	49	4613
2026-01-14 01:01:29.65	142.36	29.22	-39.1	-40.9	20.4	0.00e+00	0	44	0	2451570688	49	4531
2026-01-14 01:01:32.43	143.03	28.86	-39.1	-41.0	20.4	0.00e+00	0	44	0	2467299328	49	4559
2026-01-14 01:01:35.76	143.81	28.43	-39.2	-41.0	20.3	0.00e+00	0	44	0	2486173696	49	4590
2026-01-14 01:01:38.48	144.43	28.08	-39.2	-41.0	20.4	0.00e+00	0	44	0	2500853760	49	4577
2026-01-14 01:01:41.76	145.17	27.66	-39.1	-40.9	20.4	0.00e+00	0	44	0	2519728128	49	4517
2026-01-14 01:01:44.48	145.76	27.31	-39.2	-41.0	20.3	0.00e+00	0	44	0	2534408192	49	4586
2026-01-14 01:01:47.75	146.46	26.90	-39.1	-40.9	20.4	0.00e+00	0	44	0	2553282560	49	4534
2026-01-14 01:01:50.81	147.10	26.51	-39.2	-41.0	20.3	0.00e+00	0	44	0	2570059776	49	4570
2026-01-14 01:01:54.28	147.81	26.07	-39.0	-40.8	20.5	0.00e+00	0	44	0	2589982720	49	4459
2026-01-14 01:01:57.00	148.35	25.73	-39.2	-41.1	20.2	0.00e+00	0	44	0	2605711360	49	4638
2026-01-14 01:02:00.27	148.98	25.32	-39.3	-41.2	20.2	0.00e+00	0	44	0	2623537152	49	4656
2026-01-14 01:02:02.99	149.50	24.98	-39.2	-41.1	20.2	0.00e+00	0	44	0	2639265792	49	4634
2026-01-14 01:02:06.61	150.17	24.54	-39.2	-41.1	20.2	0.00e+00	0	44	0	2659188736	49	4623
2026-01-14 01:02:09.34	150.66	24.20	-39.2	-41.1	20.2	0.00e+00	0	44	0	2674917376	49	4606
2026-01-14 01:02:12.61	151.24	23.81	-39.3	-41.1	20.2	0.00e+00	0	44	0	2692743168	49	4630
2026-01-14 01:02:15.33	151.71	23.48	-39.5	-41.3	19.9	0.00e+00	0	44	0	2708471808	49	4756
2026-01-14 01:02:18.61	152.27	23.09	-39.5	-41.3	19.9	0.00e+00	0	44	0	2726297600	49	4750
2026-01-14 01:02:21.65	152.77	22.73	-39.5	-41.4	19.9	0.00e+00	0	44	0	2744123392	49	4773
2026-01-14 01:02:25.15	153.33	22.31	-39.6	-41.5	19.8	0.00e+00	0	44	0	2764046336	50	4554
2026-01-14 01:02:27.91	153.77	21.99	-39.7	-41.6	19.7	0.00e+00	0	44	0	2778726400	50	4638
2026-01-14 01:02:31.28	154.28	21.60	-39.8	-41.7	19.6	0.00e+00	0	44	0	2797600768	50	4698
2026-01-14 01:02:34.26	154.73	21.26	-39.8	-41.7	19.6	0.00e+00	0	44	0	2814377984	50	4690
2026-01-14 01:02:37.25	155.17	20.92	-40.0	-41.9	19.5	0.00e+00	0	44	0	2832203776	50	4769
2026-01-14 01:02:40.36	155.62	20.57	-40.3	-42.3	19.1	0.00e+00	0	44	0	2848980992	51	4715
2026-01-14 01:02:43.21	156.02	20.25	-40.4	-42.4	19.0	0.00e+00	0	44	0	2864709632	51	4786
2026-01-14 01:02:46.33	156.45	19.91	-40.4	-42.4	19.0	0.00e+00	0	44	0	2882535424	51	4788
2026-01-14 01:02:49.17	156.84	19.60	-40.4	-42.4	19.0	0.00e+00	0	44	0	2898264064	51	4766
2026-01-14 01:02:52.33	157.26	19.25	-40.4	-42.3	19.0	0.00e+00	0	44	0	2916089856	51	4754
2026-01-14 01:02:55.25	157.64	18.94	-40.4	-42.3	19.0	0.00e+00	0	44	0	2932867072	51	4755
2026-01-14 01:02:58.38	158.03	18.60	-40.4	-42.4	18.9	0.00e+00	0	44	0	2950692864	51	4807
2026-01-14 01:03:01.22	158.39	18.30	-40.6	-42.5	18.8	0.00e+00	0	44	0	2966421504	51	4862
2026-01-14 01:03:04.35	158.77	17.97	-40.7	-42.6	18.7	0.00e+00	0	44	0	2984247296	51	4921
2026-01-14 01:03:07.33	159.13	17.67	-40.6	-42.6	18.6	0.00e+00	0	44	0	3001024512	52	4650
2026-01-14 01:03:10.32	159.48	17.36	-40.8	-42.8	18.5	0.00e+00	0	44	0	3017801728	52	4744
2026-01-14 01:03:13.30	159.82	17.05	-40.9	-43.0	18.3	0.00e+00	0	44	0	3034578944	52	4821
2026-01-14 01:03:16.29	160.16	16.75	-40.9	-42.9	18.4	0.00e+00	0	44	0	3051356160	52	4807
2026-01-14 01:03:19.35	160.50	16.45	-40.9	-42.9	18.4	0.00e+00	0	44	0	3068133376	52	4795
2026-01-14 01:03:22.23	160.81	16.16	-41.0	-43.0	18.2	0.00e+00	0	44	0	3084910592	52	4864
2026-01-14 01:03:25.36	161.14	15.85	-40.9	-42.9	18.3	0.00e+00	0	44	0	3102736384	52	4801
2026-01-14 01:03:28.20	161.44	15.58	-40.9	-43.0	18.2	0.00e+00	0	44	0	3118465024	52	4842
2026-01-14 01:03:31.32	161.76	15.28	-41.2	-43.4	17.9	0.00e+00	0	44	0	3135242240	53	4762
2026-01-14 01:03:34.16	162.05	15.01	-41.1	-43.2	18.0	0.00e+00	0	44	0	3152019456	53	4701
2026-01-14 01:03:37.48	162.37	14.69	-41.1	-43.2	18.1	0.00e+00	0	44	0	3169845248	53	4657
2026-01-14 01:03:40.19	162.64	14.44	-41.1	-43.2	18.0	0.00e+00	0	44	0	3185573888	53	4664
2026-01-14 01:03:43.49	162.95	14.13	-41.1	-43.2	18.0	0.00e+00	0	44	0	3204448256	53	4657
2026-01-14 01:03:46.22	163.21	13.88	-41.2	-43.3	17.9	0.00e+00	0	44	0	3219128320	53	4741
2026-01-14 01:03:49.49	163.51	13.58	-41.5	-43.7	17.5	0.00e+00	0	44	0	3238002688	53	4943
2026-01-14 01:03:52.20	163.75	13.34	-41.6	-43.8	17.4	0.00e+00	0	44	0	3253731328	53	5026
2026-01-14 01:03:55.63	164.06	13.03	-41.8	-44.1	17.2	0.00e+00	0	44	0	3272605696	54	4877
2026-01-14 01:03:58.38	164.30	12.79	-41.9	-44.1	17.2	0.00e+00	0	44	0	3288334336	54	4889
2026-01-14 01:04:01.96	164.60	12.47	-41.9	-44.1	17.2	0.00e+00	0	44	0	3308257280	54	4885
2026-01-14 01:04:04.71	164.83	12.23	-41.9	-44.1	17.2	0.00e+00	0	44	0	3323985920	54	4874
2026-01-14 01:04:08.01	165.11	11.95	-41.9	-44.1	17.2	0.00e+00	0	44	0	3341811712	54	4890
2026-01-14 01:04:10.72	165.33	11.72	-41.9	-44.2	17.1	0.00e+00	0	44	0	3357540352	54	4937
2026-01-14 01:04:14.07	165.59	11.43	-42.1	-44.3	16.9	0.00e+00	0	44	0	3376414720	54	5015
2026-01-14 01:04:16.78	165.81	11.20	-42.1	-44.4	16.9	0.00e+00	0	44	0	3391094784	55	4797
2026-01-14 01:04:20.23	166.07	10.92	-42.1	-44.4	16.8	1.03e-02	0	44	0	3411017728	55	4779
2026-01-14 01:04:22.92	166.28	10.69	-42.0	-44.5	16.7	9.70e-03	0	44	0	3425697792	55	4840
2026-01-14 01:04:26.22	166.52	10.42	-41.9	-44.4	16.8	0.00e+00	0	44	0	3444572160	55	4803
2026-01-14 01:04:28.95	166.72	10.20	-41.9	-44.5	16.6	0.00e+00	0	44	0	3460300800	55	4851
2026-01-14 01:04:32.25	166.96	9.94	-41.9	-44.5	16.7	0.00e+00	0	44	0	3478126592	55	4841
2026-01-14 01:04:35.09	167.17	9.71	-42.0	-44.6	16.6	0.00e+00	0	44	0	3493855232	55	4898
2026-01-14 01:04:38.55	167.41	9.44	-42.4	-45.0	16.4	0.00e+00	0	44	0	3513778176	56	4827
2026-01-14 01:04:41.25	167.59	9.23	-42.6	-45.2	16.1	0.00e+00	0	44	0	3529506816	56	4947
2026-01-14 01:04:44.53	167.82	8.97	-42.9	-45.5	15.8	0.00e+00	0	44	0	3547332608	56	5137
2026-01-14 01:04:47.23	168.00	8.76	-50.6	-63.1	3.8	8.47e-01	0	44	104	3549429760	72	15514
2026-01-14 01:04:50.59	168.22	8.50	-51.1	-63.3	3.8	8.47e-01	0	44	104	3549429760	73	14969
2026-01-14 01:04:53.35	168.40	8.30	-51.3	-63.4	3.8	8.46e-01	0	44	104	3549429760	73	15197
2026-01-14 01:04:56.74	168.61	8.04	-51.3	-63.5	3.8	8.47e-01	0	44	104	3549429760	73	15281
2026-01-14 01:04:59.50	168.79	7.83	-51.3	-63.4	3.8	8.48e-01	0	44	104	3549429760	73	15170
2026-01-14 01:05:02.83	169.00	7.59	-51.3	-63.5	3.8	8.46e-01	0	44	104	3549429760	73	15265
2026-01-14 01:05:05.52	169.16	7.39	-51.3	-63.5	3.8	8.47e-01	0	44	104	3549429760	73	15236
2026-01-14 01:05:08.80	169.36	7.15	-51.3	-63.4	3.8	8.47e-01	0	44	104	3549429760	73	15224
2026-01-14 01:05:11.50	169.52	6.95	-51.1	-63.4	3.8	8.46e-01	0	44	104	3549429760	73	15209
2026-01-14 01:05:14.78	169.71	6.72	-51.0	-63.4	3.8	8.46e-01	0	44	104	3549429760	73	15137
2026-01-14 01:05:17.48	169.87	6.52	-51.0	-63.4	3.8	8.46e-01	0	44	104	3549429760	73	15112
2026-01-14 01:05:20.74	170.05	6.29	-51.0	-63.4	3.8	8.47e-01	0	44	104	3549429760	73	15093
2026-01-14 01:05:23.43	170.20	6.10	-51.0	-63.4	3.8	8.48e-01	0	44	104	3549429760	73	15097
2026-01-14 01:05:26.70	170.38	5.88	-51.0	-63.4	3.8	8.47e-01	0	44	104	3549429760	73	15057
2026-01-14 01:05:29.41	170.53	5.69	-51.0	-63.4	3.8	8.46e-01	0	44	104	3549429760	73	15063
2026-01-14 01:05:32.71	170.71	5.46	-51.0	-63.4	3.8	8.47e-01	0	44	104	3549429760	73	15090
2026-01-14 01:05:35.42	170.86	5.28	-51.0	-63.3	3.8	8.47e-01	0	44	104	3549429760	73	15038
2026-01-14 01:05:38.70	171.03	5.05	-51.0	-63.4	3.8	8.47e-01	0	44	104	3549429760	73	15098

#Closed at: 2026-01-14 01:05:40
#Recorded file [3549 MB]: D:/Data/31040_260114_035315.dat