passes_logs/2026/01/14/T1/T1__20260114_221547_NOAA_20_JPSS-1_rec.log

#Pass ID: 20260114_221547_NOAA 20 (JPSS-1)
#Satellite: NOAA 20 (JPSS-1)
#Configuration: NOAA 20
#almurnet v.1.7.20251203
#Start time: 2026-01-14 22:15:47

#Version: 2.0.20230620
#Station: T1
#Location: 37.570604 lon 55.790049 lat
#TLE: 1 43013U 17073A   26014.13176244  .00000049  00000+0  44136-4 0  9994
#TLE: 2 43013  98.7634 315.0803 0001538  40.6488 319.4803 14.19535812422619

#Time	Az	El	Level	Level2	SNR	BER	BlckErr	Temp	State	Recorded	gain1	gain2
2026-01-14 22:15:47.99	28.59	5.01	-48.6	-65.4	3.8	1.49e+00	0	37	0	0	69	23880
2026-01-14 22:15:50.97	28.84	5.19	-48.5	-65.2	3.8	1.49e+00	0	37	104	0	67	26403
2026-01-14 22:15:53.95	29.09	5.37	-48.5	-65.2	3.8	1.49e+00	0	37	104	0	67	26253
2026-01-14 22:15:56.93	29.34	5.55	-48.4	-65.2	3.8	1.49e+00	0	37	104	0	67	26233
2026-01-14 22:15:59.91	29.60	5.73	-48.4	-65.0	3.8	1.49e+00	0	37	104	0	67	25726
2026-01-14 22:16:02.89	29.86	5.91	-48.4	-65.0	3.8	1.49e+00	0	38	104	0	67	25802
2026-01-14 22:16:05.87	30.12	6.09	-48.4	-65.0	3.8	1.49e+00	0	38	104	0	67	25591
2026-01-14 22:16:08.85	30.38	6.27	-48.5	-65.0	3.8	1.49e+00	0	38	104	0	67	25681
2026-01-14 22:16:11.83	30.65	6.45	-48.4	-65.1	3.8	1.49e+00	0	38	104	0	67	25874
2026-01-14 22:16:14.86	30.93	6.64	-48.4	-65.1	3.8	1.49e+00	0	38	104	0	67	25867
2026-01-14 22:16:17.98	31.21	6.84	-48.4	-65.0	3.8	1.49e+00	0	38	104	0	67	25632
2026-01-14 22:16:20.82	31.48	7.01	-48.4	-65.0	3.8	1.49e+00	0	38	104	0	67	25644
2026-01-14 22:16:23.94	31.77	7.21	-48.4	-65.0	3.8	1.49e+00	0	38	104	0	67	25607
2026-01-14 22:16:26.78	32.04	7.39	-48.4	-65.1	3.8	1.49e+00	0	38	104	0	67	25879
2026-01-14 22:16:29.91	32.35	7.59	-48.4	-65.0	3.8	1.49e+00	0	39	104	0	67	25811
2026-01-14 22:16:32.75	32.63	7.77	-48.4	-65.1	3.8	1.49e+00	0	39	104	0	67	26015
2026-01-14 22:16:35.87	32.93	7.96	-48.4	-65.1	3.8	1.49e+00	0	39	104	0	67	26128
2026-01-14 22:16:38.71	33.22	8.15	-48.4	-65.2	3.8	1.49e+00	0	38	104	0	67	26158
2026-01-14 22:16:41.83	33.54	8.35	-48.4	-65.0	3.8	1.49e+00	0	39	104	0	67	25792
2026-01-14 22:16:44.67	33.83	8.53	-48.4	-65.1	3.8	1.49e+00	0	39	104	0	67	26020
2026-01-14 22:16:47.80	34.16	8.73	-48.4	-64.7	3.8	1.49e+00	0	39	104	0	67	24753
2026-01-14 22:16:50.63	34.45	8.92	-48.4	-63.3	3.8	1.49e+00	0	39	104	0	67	21170
2026-01-14 22:16:53.76	34.79	9.12	-49.1	-64.2	3.8	1.49e+00	0	39	104	0	68	22051
2026-01-14 22:16:56.61	35.10	9.31	-48.2	-53.9	10.1	7.76e-02	0	39	0	2097152	68	6750
2026-01-14 22:16:59.69	35.44	9.51	-46.8	-51.1	13.0	6.25e-05	0	39	0	8388608	65	5806
2026-01-14 22:17:02.67	35.77	9.71	-46.7	-51.1	12.9	4.04e-05	0	39	0	13631488	65	5828
2026-01-14 22:17:05.66	36.10	9.91	-46.1	-50.1	14.0	3.80e-06	0	39	0	18874368	64	5512
2026-01-14 22:17:08.64	36.44	10.11	-45.6	-49.5	14.7	0.00e+00	0	39	0	25165824	63	5429
2026-01-14 22:17:11.54	36.78	10.30	-45.5	-49.3	14.8	0.00e+00	0	39	0	30408704	62	5635
2026-01-14 22:17:14.94	37.18	10.53	-45.5	-49.4	14.8	0.00e+00	0	39	0	36700160	62	5682
2026-01-14 22:17:17.70	37.50	10.71	-45.7	-49.3	15.0	7.00e-07	0	39	0	41943040	62	5597
2026-01-14 22:17:20.98	37.90	10.94	-45.8	-49.3	15.0	0.00e+00	0	39	0	48234496	62	5627
2026-01-14 22:17:23.77	38.24	11.13	-45.7	-49.3	14.9	0.00e+00	0	39	0	53477376	62	5635
2026-01-14 22:17:26.90	38.63	11.34	-45.6	-49.1	15.1	0.00e+00	0	39	0	58720256	62	5507
2026-01-14 22:17:29.75	38.98	11.53	-45.6	-48.9	15.3	0.00e+00	0	39	0	65011712	62	5398
2026-01-14 22:17:33.00	39.40	11.76	-45.6	-49.0	15.3	0.00e+00	0	39	0	70254592	62	5433
2026-01-14 22:17:35.89	39.77	11.95	-45.7	-49.0	15.3	0.00e+00	0	40	0	76546048	62	5455
2026-01-14 22:17:39.24	40.21	12.19	-45.6	-48.8	15.5	0.00e+00	0	39	0	82837504	62	5322
2026-01-14 22:17:42.23	40.60	12.39	-45.6	-48.8	15.5	0.00e+00	0	39	0	88080384	62	5307
2026-01-14 22:17:45.22	41.00	12.60	-45.5	-48.7	15.6	0.00e+00	0	39	0	93323264	62	5275
2026-01-14 22:17:48.53	41.45	12.83	-45.7	-48.9	15.4	0.00e+00	0	39	0	99614720	62	5360
2026-01-14 22:17:51.47	41.86	13.03	-45.6	-48.9	15.5	0.00e+00	0	39	0	104857600	62	5342
2026-01-14 22:17:54.83	42.33	13.27	-45.6	-48.9	15.5	0.00e+00	0	39	0	111149056	62	5341
2026-01-14 22:17:57.56	42.72	13.46	-45.5	-48.7	15.6	0.00e+00	0	39	0	116391936	62	5264
2026-01-14 22:18:01.05	43.22	13.70	-45.5	-48.6	15.8	0.00e+00	0	39	0	122683392	62	5171
2026-01-14 22:18:04.06	43.66	13.92	-45.6	-48.8	15.6	0.00e+00	0	40	0	128974848	62	5300
2026-01-14 22:18:07.69	44.20	14.17	-45.5	-48.6	15.8	0.00e+00	0	39	0	135266304	62	5180
2026-01-14 22:18:10.64	44.65	14.38	-45.6	-48.8	15.6	0.00e+00	0	40	0	141557760	62	5285
2026-01-14 22:18:14.02	45.17	14.62	-45.5	-48.6	15.8	0.00e+00	0	39	0	147849216	62	5193
2026-01-14 22:18:16.87	45.61	14.82	-45.5	-48.7	15.7	0.00e+00	0	39	0	153092096	62	5235
2026-01-14 22:18:20.00	46.10	15.04	-45.5	-48.6	15.8	0.00e+00	0	39	0	158334976	62	5183
2026-01-14 22:18:22.84	46.55	15.24	-45.4	-48.6	15.9	0.00e+00	0	40	0	163577856	62	5172
2026-01-14 22:18:26.08	47.08	15.47	-45.4	-48.6	15.8	0.00e+00	0	39	0	169869312	62	5186
2026-01-14 22:18:28.92	47.55	15.67	-45.4	-48.5	15.8	0.00e+00	0	40	0	175112192	62	5151
2026-01-14 22:18:32.05	48.07	15.89	-45.4	-48.4	16.0	0.00e+00	0	40	0	181403648	62	5074
2026-01-14 22:18:35.04	48.57	16.10	-45.4	-48.4	16.0	0.00e+00	0	40	0	186646528	62	5092
2026-01-14 22:18:38.02	49.08	16.31	-45.4	-48.4	16.0	0.00e+00	0	40	0	192937984	62	5063
2026-01-14 22:18:41.01	49.60	16.52	-45.2	-48.1	16.3	0.00e+00	0	39	0	198180864	62	4900
2026-01-14 22:18:43.98	50.12	16.73	-45.1	-48.1	16.3	0.00e+00	0	40	0	203423744	62	4893
2026-01-14 22:18:47.14	50.69	16.95	-45.3	-48.3	16.1	0.00e+00	0	39	0	209715200	62	5033
2026-01-14 22:18:50.10	51.22	17.15	-45.2	-48.1	16.3	0.00e+00	0	39	0	214958080	62	4904
2026-01-14 22:18:53.46	51.84	17.39	-44.8	-47.6	16.8	0.00e+00	0	40	0	221249536	61	4918
2026-01-14 22:18:56.43	52.39	17.59	-44.7	-47.5	16.8	0.00e+00	0	40	0	227540992	61	4858
2026-01-14 22:18:59.70	53.01	17.82	-44.8	-47.6	16.8	0.00e+00	0	40	0	232783872	61	4908
2026-01-14 22:19:02.41	53.52	18.00	-44.6	-47.3	17.0	0.00e+00	0	39	0	238026752	61	4736
2026-01-14 22:19:05.69	54.16	18.23	-44.6	-47.3	17.0	0.00e+00	0	40	0	244318208	61	4753
2026-01-14 22:19:08.68	54.75	18.43	-44.7	-47.4	16.9	0.00e+00	0	40	0	249561088	61	4813
2026-01-14 22:19:12.32	55.47	18.68	-44.8	-47.6	16.8	0.00e+00	0	39	0	256901120	61	4883
2026-01-14 22:19:15.16	56.04	18.87	-44.7	-47.5	16.9	0.00e+00	0	40	0	262144000	61	4827
2026-01-14 22:19:19.42	56.92	19.15	-45.1	-48.0	16.4	0.00e+00	0	40	0	270532608	61	5145
2026-01-14 22:19:22.27	57.51	19.34	-45.5	-48.5	15.9	0.00e+00	0	40	0	275775488	61	5446
2026-01-14 22:19:26.25	58.35	19.59	-45.5	-48.6	15.9	0.00e+00	0	39	0	283115520	61	5469
2026-01-14 22:19:29.06	58.95	19.77	-45.5	-48.6	15.9	0.00e+00	0	40	0	288358400	61	5493
2026-01-14 22:19:33.10	59.83	20.03	-46.1	-49.5	15.0	0.00e+00	0	40	0	295698432	62	5739
2026-01-14 22:19:35.80	60.43	20.20	-46.4	-50.0	14.5	0.00e+00	0	40	0	300941312	63	5753
2026-01-14 22:19:39.08	61.16	20.40	-46.5	-50.0	14.5	0.00e+00	0	40	0	307232768	63	5781
2026-01-14 22:19:42.07	61.83	20.58	-46.0	-49.4	15.1	7.00e-07	0	39	0	312475648	63	5341
2026-01-14 22:19:45.07	62.52	20.76	-46.0	-49.3	15.3	0.00e+00	0	40	0	317718528	63	5303
2026-01-14 22:19:48.02	63.20	20.94	-46.0	-49.3	15.2	0.00e+00	0	39	0	324009984	63	5293
2026-01-14 22:19:51.43	63.99	21.14	-45.9	-49.1	15.4	0.00e+00	0	40	0	330301440	63	5204
2026-01-14 22:19:54.16	64.64	21.29	-45.5	-48.7	15.8	0.00e+00	0	39	0	335544320	63	4940
2026-01-14 22:19:57.74	65.49	21.49	-45.4	-48.3	16.2	0.00e+00	0	40	0	341835776	62	5011
2026-01-14 22:20:00.76	66.22	21.65	-45.6	-48.7	15.8	0.00e+00	0	40	0	348127232	62	5246
2026-01-14 22:20:03.98	67.01	21.83	-46.0	-49.3	15.2	0.00e+00	0	40	0	353370112	62	5631
2026-01-14 22:20:06.82	67.71	21.97	-45.9	-49.1	15.4	0.00e+00	0	40	0	358612992	62	5490
2026-01-14 22:20:09.98	68.50	22.13	-45.8	-48.9	15.6	0.00e+00	0	40	0	364904448	62	5358
2026-01-14 22:20:12.83	69.22	22.27	-45.7	-48.8	15.7	0.00e+00	0	40	0	370147328	62	5290
2026-01-14 22:20:16.06	70.04	22.43	-45.7	-48.8	15.7	0.00e+00	0	40	0	376438784	62	5322
2026-01-14 22:20:18.91	70.77	22.56	-45.6	-48.7	15.8	0.00e+00	0	40	0	381681664	62	5248
2026-01-14 22:20:22.03	71.57	22.70	-45.4	-48.4	16.1	0.00e+00	0	40	0	387973120	62	5059
2026-01-14 22:20:25.11	72.38	22.84	-45.3	-48.2	16.3	0.00e+00	0	39	0	393216000	62	4968
2026-01-14 22:20:28.10	73.16	22.96	-45.4	-48.4	16.1	0.00e+00	0	40	0	398458880	62	5083
2026-01-14 22:20:31.09	73.96	23.08	-45.6	-48.6	15.9	0.00e+00	0	40	0	404750336	62	5185
2026-01-14 22:20:34.08	74.75	23.19	-45.7	-48.8	15.7	0.00e+00	0	40	0	409993216	62	5337
2026-01-14 22:20:37.16	75.58	23.31	-45.9	-49.1	15.4	0.00e+00	0	39	0	416284672	62	5520
2026-01-14 22:20:40.17	76.40	23.41	-46.0	-49.4	15.2	0.00e+00	0	40	0	421527552	62	5657
2026-01-14 22:20:43.33	77.26	23.52	-46.1	-49.5	15.1	0.00e+00	0	40	0	427819008	62	5726
2026-01-14 22:20:46.17	78.04	23.60	-46.0	-49.3	15.2	0.00e+00	0	40	0	433061888	63	5304
2026-01-14 22:20:49.83	79.05	23.71	-45.6	-48.7	15.8	0.00e+00	0	40	0	439353344	63	4949
2026-01-14 22:20:52.53	79.80	23.78	-45.3	-48.2	16.3	0.00e+00	0	40	0	444596224	62	4980
2026-01-14 22:20:55.81	80.71	23.86	-45.3	-48.3	16.3	0.00e+00	0	39	0	450887680	62	4998
2026-01-14 22:20:58.79	81.54	23.93	-45.1	-48.1	16.4	0.00e+00	0	40	0	456130560	62	4920
2026-01-14 22:21:01.77	82.38	23.99	-45.0	-48.0	16.5	0.00e+00	0	39	0	462422016	61	5125
2026-01-14 22:21:04.76	83.23	24.05	-45.6	-48.8	15.7	0.00e+00	0	39	0	467664896	61	5634
2026-01-14 22:21:07.75	84.07	24.10	-45.5	-48.7	15.8	0.00e+00	0	40	0	472907776	61	5587
2026-01-14 22:21:10.72	84.92	24.14	-45.1	-48.1	16.4	0.00e+00	0	39	0	479199232	61	5186
2026-01-14 22:21:13.85	85.81	24.18	-45.1	-48.2	16.3	0.00e+00	0	40	0	484442112	61	5220
2026-01-14 22:21:16.69	86.62	24.21	-45.3	-48.5	16.0	0.00e+00	0	40	0	489684992	61	5423
2026-01-14 22:21:19.82	87.52	24.23	-45.4	-48.6	15.9	0.00e+00	0	40	0	495976448	61	5490
2026-01-14 22:21:22.66	88.33	24.25	-45.1	-48.1	16.3	0.00e+00	0	40	0	501219328	61	5212
2026-01-14 22:21:26.07	89.31	24.26	-45.5	-48.6	15.9	0.00e+00	0	40	0	507510784	61	5523
2026-01-14 22:21:28.77	90.08	24.26	-45.6	-48.8	15.7	0.00e+00	0	40	0	512753664	61	5624
2026-01-14 22:21:32.44	91.13	24.26	-45.6	-48.7	15.8	0.00e+00	0	40	0	520093696	61	5563
2026-01-14 22:21:35.28	91.95	24.25	-45.0	-47.9	16.6	0.00e+00	0	40	0	525336576	61	5072
2026-01-14 22:21:39.25	93.09	24.22	-45.4	-48.4	16.1	0.00e+00	0	40	0	532676608	61	5393
2026-01-14 22:21:42.08	93.89	24.20	-45.7	-48.8	15.7	0.00e+00	0	40	0	537919488	62	5321
2026-01-14 22:21:45.73	94.94	24.16	-45.7	-48.8	15.8	0.00e+00	0	40	0	544210944	62	5304
2026-01-14 22:21:48.57	95.74	24.12	-45.5	-48.5	16.0	0.00e+00	0	40	0	549453824	62	5137
2026-01-14 22:21:51.88	96.68	24.07	-45.5	-48.6	16.0	0.00e+00	0	40	0	555745280	62	5184
2026-01-14 22:21:54.58	97.45	24.02	-45.9	-49.0	15.5	0.00e+00	0	40	0	560988160	62	5462
2026-01-14 22:21:58.23	98.48	23.95	-45.6	-48.7	15.9	0.00e+00	0	40	0	568328192	62	5225
2026-01-14 22:22:01.23	99.32	23.88	-45.4	-48.4	16.1	0.00e+00	0	40	0	573571072	62	5089
2026-01-14 22:22:04.53	100.24	23.80	-45.1	-48.0	16.5	0.00e+00	0	40	0	579862528	62	4819
2026-01-14 22:22:07.33	101.02	23.72	-44.8	-47.5	16.9	0.00e+00	0	40	0	585105408	61	4868
2026-01-14 22:22:10.46	101.89	23.63	-44.8	-47.5	16.9	0.00e+00	0	40	0	590348288	61	4869
2026-01-14 22:22:13.30	102.67	23.55	-44.8	-47.6	16.8	0.00e+00	0	40	0	596639744	61	4910
2026-01-14 22:22:16.42	103.53	23.45	-44.7	-47.4	17.1	0.00e+00	0	40	0	601882624	61	4790
2026-01-14 22:22:19.26	104.30	23.35	-44.4	-47.1	17.4	0.00e+00	0	40	0	607125504	60	4871
2026-01-14 22:22:22.38	105.14	23.24	-44.2	-46.9	17.5	0.00e+00	0	40	0	613416960	60	4793
2026-01-14 22:22:25.30	105.93	23.13	-44.0	-46.6	17.8	0.00e+00	0	40	0	618659840	60	4601
2026-01-14 22:22:28.52	106.78	23.00	-43.6	-46.0	18.3	0.00e+00	0	40	0	624951296	59	4575
2026-01-14 22:22:31.42	107.55	22.88	-43.8	-46.2	18.1	0.00e+00	0	40	0	630194176	59	4700
2026-01-14 22:22:34.61	108.39	22.74	-43.6	-46.1	18.2	0.00e+00	0	39	0	636485632	59	4603
2026-01-14 22:22:37.47	109.13	22.62	-43.8	-46.3	18.0	0.00e+00	0	39	0	641728512	59	4734
2026-01-14 22:22:40.67	109.96	22.47	-44.4	-47.1	17.3	0.00e+00	0	40	0	646971392	59	5167
2026-01-14 22:22:43.54	110.69	22.33	-44.2	-46.7	17.6	0.00e+00	0	40	0	653262848	59	4980
2026-01-14 22:22:46.68	111.49	22.18	-43.9	-46.5	17.9	0.00e+00	0	40	0	658505728	59	4823
2026-01-14 22:22:49.61	112.22	22.03	-44.1	-46.6	17.7	0.00e+00	0	40	0	663748608	59	4917
2026-01-14 22:22:52.74	113.00	21.87	-44.5	-47.2	17.2	0.00e+00	0	40	0	670040064	59	5236
2026-01-14 22:22:55.58	113.70	21.72	-45.2	-48.2	16.3	0.00e+00	0	40	0	675282944	61	5257
2026-01-14 22:22:58.70	114.46	21.55	-45.4	-48.4	16.0	0.00e+00	0	40	0	681574400	61	5398
2026-01-14 22:23:01.54	115.14	21.39	-45.4	-48.5	16.0	0.00e+00	0	40	0	686817280	61	5425
2026-01-14 22:23:04.66	115.89	21.21	-44.9	-47.7	16.7	0.00e+00	0	40	0	692060160	61	4982
2026-01-14 22:23:07.50	116.56	21.05	-44.6	-47.4	17.0	0.00e+00	0	40	0	697303040	61	4780
2026-01-14 22:23:10.62	117.29	20.87	-45.0	-47.9	16.6	0.00e+00	0	40	0	703594496	61	5061
2026-01-14 22:23:13.46	117.94	20.70	-45.3	-48.2	16.3	0.00e+00	0	40	0	708837376	61	5255
2026-01-14 22:23:16.69	118.68	20.50	-45.3	-48.3	16.1	0.00e+00	0	40	0	715128832	61	5322
2026-01-14 22:23:19.61	119.34	20.32	-45.1	-48.0	16.4	0.00e+00	0	40	0	720371712	61	5131
2026-01-14 22:23:22.73	120.03	20.13	-44.9	-47.7	16.8	0.00e+00	0	39	0	726663168	61	4940
2026-01-14 22:23:25.57	120.66	19.95	-45.1	-47.9	16.5	0.00e+00	0	40	0	731906048	61	5072
2026-01-14 22:23:28.69	121.34	19.75	-44.9	-47.8	16.6	0.00e+00	0	40	0	737148928	61	5030
2026-01-14 22:23:31.54	121.95	19.56	-44.9	-47.8	16.6	0.00e+00	0	40	0	742391808	61	4999
2026-01-14 22:23:34.66	122.61	19.36	-45.2	-48.1	16.3	0.00e+00	0	40	0	748683264	61	5194
2026-01-14 22:23:37.59	123.23	19.16	-45.2	-48.1	16.3	0.00e+00	0	39	0	753926144	61	5216
2026-01-14 22:23:40.72	123.88	18.96	-45.6	-49.1	15.4	0.00e+00	0	40	0	760217600	62	5475
2026-01-14 22:23:43.55	124.45	18.77	-45.7	-49.2	15.3	0.00e+00	0	39	0	765460480	63	5244
2026-01-14 22:23:46.68	125.09	18.55	-45.1	-48.0	16.4	0.00e+00	0	40	0	771751936	62	4870
2026-01-14 22:23:49.79	125.71	18.34	-45.5	-48.7	15.7	0.00e+00	0	40	0	776994816	62	5253
2026-01-14 22:23:52.63	126.26	18.15	-45.9	-49.2	15.3	0.00e+00	0	40	0	782237696	62	5571
2026-01-14 22:23:55.75	126.87	17.93	-45.2	-48.2	16.3	0.00e+00	0	40	0	788529152	62	4938
2026-01-14 22:23:58.59	127.41	17.74	-45.4	-48.5	15.9	0.00e+00	0	39	0	793772032	62	5151
2026-01-14 22:24:01.71	128.00	17.52	-45.8	-49.1	15.4	0.00e+00	0	40	0	799014912	62	5475
2026-01-14 22:24:04.72	128.56	17.31	-45.6	-48.7	15.8	0.00e+00	0	40	0	805306368	62	5233
2026-01-14 22:24:07.71	129.11	17.10	-45.8	-49.1	15.4	0.00e+00	0	40	0	810549248	62	5486
2026-01-14 22:24:10.68	129.65	16.89	-46.0	-49.4	15.1	0.00e+00	0	40	0	815792128	62	5660
2026-01-14 22:24:13.67	130.18	16.68	-45.2	-48.2	16.2	0.00e+00	0	40	0	822083584	62	4973
2026-01-14 22:24:16.65	130.71	16.47	-45.3	-48.4	16.0	0.00e+00	0	40	0	827326464	62	5052
2026-01-14 22:24:19.63	131.23	16.26	-46.4	-49.9	14.5	1.50e-06	0	40	0	832569344	63	5712
2026-01-14 22:24:22.61	131.74	16.05	-46.1	-49.7	14.7	0.00e+00	0	40	0	838860800	63	5531
2026-01-14 22:24:25.59	132.24	15.83	-45.6	-48.8	15.5	0.00e+00	0	40	0	844103680	63	5033
2026-01-14 22:24:28.62	132.75	15.62	-45.8	-49.2	15.3	0.00e+00	0	39	0	850395136	63	5221
2026-01-14 22:24:31.55	133.23	15.41	-45.9	-49.3	15.1	0.00e+00	0	40	0	855638016	63	5299
2026-01-14 22:24:34.53	133.72	15.20	-45.6	-48.7	15.7	0.00e+00	0	40	0	860880896	63	4945
2026-01-14 22:24:37.52	134.20	14.99	-45.5	-48.6	15.8	0.00e+00	0	40	0	866123776	62	5202
2026-01-14 22:24:40.50	134.67	14.77	-46.0	-49.5	14.9	0.00e+00	0	40	0	872415232	62	5723
2026-01-14 22:24:43.54	135.14	14.56	-46.0	-49.4	15.0	0.00e+00	0	40	0	877658112	62	5681
2026-01-14 22:24:46.44	135.59	14.35	-45.7	-49.0	15.4	0.00e+00	0	40	0	882900992	62	5416
2026-01-14 22:24:49.42	136.04	14.14	-45.8	-49.1	15.3	0.00e+00	0	40	0	889192448	62	5510
2026-01-14 22:24:52.40	136.48	13.93	-46.0	-49.4	15.0	0.00e+00	0	40	0	894435328	62	5700
2026-01-14 22:24:55.38	136.92	13.72	-46.0	-49.3	15.0	0.00e+00	0	40	0	899678208	62	5643
2026-01-14 22:24:58.36	137.36	13.50	-45.7	-49.0	15.3	0.00e+00	0	39	0	905969664	62	5449
2026-01-14 22:25:01.34	137.78	13.29	-45.6	-48.9	15.4	0.00e+00	0	40	0	911212544	62	5349
2026-01-14 22:25:04.43	138.22	13.08	-45.8	-49.1	15.2	0.00e+00	0	40	0	917504000	62	5492
2026-01-14 22:25:07.55	138.66	12.86	-45.9	-49.2	15.1	0.00e+00	0	40	0	922746880	62	5588
2026-01-14 22:25:10.39	139.05	12.66	-46.0	-49.4	14.9	0.00e+00	0	40	0	927989760	62	5675
2026-01-14 22:25:13.52	139.47	12.44	-46.0	-49.5	14.8	0.00e+00	0	39	0	934281216	62	5739
2026-01-14 22:25:16.36	139.85	12.24	-46.3	-49.9	14.2	0.00e+00	0	39	0	939524096	63	5676
2026-01-14 22:25:19.67	140.29	12.01	-46.4	-50.1	14.2	7.00e-07	0	39	0	945815552	63	5809
2026-01-14 22:25:22.57	140.67	11.81	-46.3	-49.9	14.4	0.00e+00	0	39	0	951058432	63	5704
2026-01-14 22:25:25.69	141.07	11.59	-46.1	-49.7	14.6	0.00e+00	0	40	0	957349888	63	5558
2026-01-14 22:25:28.53	141.43	11.39	-46.2	-49.8	14.4	0.00e+00	0	40	0	962592768	63	5652
2026-01-14 22:25:31.65	141.82	11.18	-46.4	-50.1	14.2	1.50e-06	0	40	0	967835648	63	5826
2026-01-14 22:25:34.49	142.17	10.98	-46.7	-50.6	13.6	5.30e-06	0	39	0	973078528	64	5818
2026-01-14 22:25:37.61	142.54	10.77	-46.9	-51.0	13.1	3.05e-05	0	39	0	979369984	64	6117
2026-01-14 22:25:40.46	142.89	10.58	-47.1	-51.5	12.6	6.25e-05	0	40	0	984612864	64	6436
2026-01-14 22:25:43.58	143.26	10.36	-47.1	-51.4	12.7	8.54e-05	0	40	0	990904320	64	6405
2026-01-14 22:25:46.42	143.59	10.17	-46.9	-51.3	12.8	5.11e-05	0	40	0	996147200	64	6293
2026-01-14 22:25:49.54	143.95	9.96	-47.0	-51.3	12.8	6.56e-05	0	40	0	1001390080	64	6299
2026-01-14 22:25:52.38	144.27	9.77	-47.0	-51.3	12.8	4.65e-05	0	39	0	1006632960	64	6303
2026-01-14 22:25:55.50	144.62	9.56	-46.8	-51.1	13.0	5.03e-05	0	40	0	1012924416	64	6171
2026-01-14 22:25:58.45	144.95	9.36	-46.6	-50.9	13.1	2.13e-05	0	40	0	1018167296	64	6037
2026-01-14 22:26:01.57	145.29	9.16	-46.6	-50.8	13.3	1.37e-05	0	40	0	1024458752	64	5958
2026-01-14 22:26:04.42	145.59	8.97	-50.2	-65.0	3.8	1.46e+00	0	40	104	1028653056	71	20413
2026-01-14 22:26:07.54	145.93	8.76	-50.6	-65.9	3.8	1.49e+00	0	40	104	1028653056	71	22689
2026-01-14 22:26:10.44	146.23	8.57	-50.6	-66.0	3.8	1.49e+00	0	40	104	1028653056	72	21600
2026-01-14 22:26:13.72	146.57	8.36	-50.8	-66.0	3.8	1.49e+00	0	40	104	1028653056	72	21750
2026-01-14 22:26:16.56	146.86	8.17	-50.7	-66.1	3.8	1.49e+00	0	40	104	1028653056	72	21904
2026-01-14 22:26:19.69	147.18	7.97	-50.7	-66.1	3.8	1.49e+00	0	40	104	1028653056	72	21833
2026-01-14 22:26:22.53	147.46	7.79	-50.8	-66.1	3.8	1.49e+00	0	40	104	1028653056	72	21891
2026-01-14 22:26:25.65	147.77	7.59	-50.6	-66.1	3.8	1.49e+00	0	40	104	1028653056	72	21787
2026-01-14 22:26:28.54	148.05	7.40	-50.6	-66.0	3.8	1.49e+00	0	40	104	1028653056	72	21718
2026-01-14 22:26:31.73	148.35	7.20	-50.6	-66.0	3.8	1.49e+00	0	40	104	1028653056	72	21669
2026-01-14 22:26:34.57	148.62	7.02	-50.6	-66.0	3.8	1.49e+00	0	40	104	1028653056	72	21742
2026-01-14 22:26:37.69	148.91	6.82	-50.6	-66.0	3.8	1.49e+00	0	40	104	1028653056	72	21691
2026-01-14 22:26:40.53	149.18	6.64	-50.6	-66.0	3.8	1.49e+00	0	40	104	1028653056	72	21702
2026-01-14 22:26:43.65	149.46	6.45	-50.6	-66.0	3.8	1.49e+00	0	40	104	1028653056	72	21692
2026-01-14 22:26:46.49	149.72	6.27	-50.6	-66.0	3.8	1.49e+00	0	40	104	1028653056	72	21742
2026-01-14 22:26:49.62	150.00	6.08	-50.6	-66.0	3.8	1.49e+00	0	40	104	1028653056	72	21626
2026-01-14 22:26:52.45	150.25	5.90	-50.6	-66.0	3.8	1.49e+00	0	40	104	1028653056	72	21649
2026-01-14 22:26:55.58	150.52	5.71	-50.6	-66.0	3.8	1.49e+00	0	39	104	1028653056	72	21664
2026-01-14 22:26:58.42	150.76	5.53	-50.6	-66.0	3.8	1.49e+00	0	40	104	1028653056	72	21695
2026-01-14 22:27:01.70	151.04	5.33	-50.6	-66.0	3.8	1.49e+00	0	40	104	1028653056	72	21729
2026-01-14 22:27:04.60	151.28	5.16	-50.6	-66.0	3.8	1.49e+00	0	40	104	1028653056	72	21645
2026-01-14 22:27:07.72	151.54	4.97	-50.6	-66.0	3.8	1.49e+00	0	40	104	1028653056	72	21630

#Closed at: 2026-01-14 22:27:08
#Recorded file [1028 MB]: D:/Data/31040_260115_011547.dat