passes_logs/2026/01/14/T1/T1__20260114_155051_FENGYUN_3E_rec.log

#Pass ID: 20260114_155051_FENGYUN 3E
#Satellite: FENGYUN 3E
#Configuration: FENGYUN 3E
#almurnet v.1.7.20251203
#Start time: 2026-01-14 15:50:52

#Version: 2.0.20230620
#Station: T1
#Location: 37.570604 lon 55.790049 lat
#TLE: 1 49008U 21062A   26013.59634448 -.00000226  00000+0 -85925-4 0  9991
#TLE: 2 49008  98.7491  18.7414 0001953 139.1941 220.9382 14.19884160234649

#Time	Az	El	Level	Level2	SNR	BER	BlckErr	Temp	State	Recorded	gain1	gain2
2026-01-14 15:50:52.89	214.58	5.05	-47.0	-59.5	3.8	8.46e-01	0	40	0	0	63	16068
2026-01-14 15:50:55.87	214.85	5.22	-46.9	-59.4	3.8	8.46e-01	0	40	104	0	64	14984
2026-01-14 15:50:58.85	215.13	5.39	-46.8	-59.4	3.8	8.47e-01	0	40	104	0	64	15011
2026-01-14 15:51:01.83	215.41	5.57	-46.9	-59.4	3.8	8.47e-01	0	41	104	0	64	15031
2026-01-14 15:51:04.81	215.69	5.74	-46.8	-59.4	3.8	8.47e-01	0	41	104	0	64	14995
2026-01-14 15:51:07.79	215.98	5.91	-46.9	-59.4	3.8	8.47e-01	0	41	104	0	64	14997
2026-01-14 15:51:10.78	216.27	6.09	-46.9	-59.5	3.8	8.46e-01	0	41	104	0	64	15057
2026-01-14 15:51:13.76	216.57	6.26	-46.9	-59.5	3.8	8.47e-01	0	41	104	0	64	15120
2026-01-14 15:51:16.74	216.86	6.44	-46.8	-59.5	3.8	8.49e-01	0	41	104	0	64	15082
2026-01-14 15:51:19.72	217.17	6.61	-46.8	-59.4	3.8	8.47e-01	0	41	104	0	64	15024
2026-01-14 15:51:22.70	217.47	6.79	-46.9	-59.4	3.8	8.45e-01	0	41	104	0	64	15033
2026-01-14 15:51:25.68	217.78	6.97	-46.9	-59.4	3.8	8.47e-01	0	41	104	0	64	15049
2026-01-14 15:51:28.67	218.09	7.15	-46.8	-59.5	3.8	8.47e-01	0	41	104	0	64	15091
2026-01-14 15:51:31.65	218.41	7.33	-46.8	-59.5	3.8	8.47e-01	0	41	104	0	64	15126
2026-01-14 15:51:34.63	218.73	7.50	-46.9	-59.5	3.8	8.48e-01	0	42	104	0	64	15097
2026-01-14 15:51:37.61	219.05	7.68	-46.9	-59.5	3.8	8.47e-01	0	42	104	0	64	15069
2026-01-14 15:51:40.59	219.38	7.86	-46.8	-59.4	3.8	8.45e-01	0	42	104	0	64	14974
2026-01-14 15:51:43.57	219.71	8.04	-46.8	-59.5	3.8	8.46e-01	0	42	104	0	64	15079
2026-01-14 15:51:46.55	220.04	8.22	-46.9	-59.4	3.8	8.46e-01	0	42	104	0	64	15000
2026-01-14 15:51:49.61	220.39	8.41	-46.8	-59.4	3.8	8.47e-01	0	42	104	0	64	15034
2026-01-14 15:51:52.45	220.72	8.58	-46.9	-59.5	3.8	8.47e-01	0	42	104	0	64	15095
2026-01-14 15:51:55.58	221.08	8.78	-46.9	-59.5	3.8	8.46e-01	0	42	104	0	64	15080
2026-01-14 15:51:58.42	221.42	8.95	-46.9	-59.5	3.8	8.46e-01	0	42	104	0	64	15086
2026-01-14 15:52:01.54	221.79	9.14	-46.9	-59.5	3.8	8.46e-01	0	42	104	0	64	15095
2026-01-14 15:52:04.38	222.13	9.32	-46.8	-59.4	3.8	8.48e-01	0	42	104	0	64	14999
2026-01-14 15:52:07.51	222.51	9.51	-46.8	-59.4	3.8	8.47e-01	0	42	104	0	64	15025
2026-01-14 15:52:10.35	222.87	9.68	-46.9	-59.4	3.8	8.48e-01	0	42	104	0	64	14988
2026-01-14 15:52:13.47	223.26	9.88	-46.9	-59.4	3.8	8.47e-01	0	42	104	0	64	15030
2026-01-14 15:52:16.31	223.62	10.05	-46.8	-59.4	3.8	8.47e-01	0	42	104	0	64	15048
2026-01-14 15:52:19.43	224.02	10.25	-46.9	-59.4	3.8	8.47e-01	0	43	104	0	64	14968
2026-01-14 15:52:22.27	224.39	10.42	-46.9	-59.4	3.8	8.47e-01	0	42	104	0	64	15004
2026-01-14 15:52:25.40	224.80	10.62	-46.9	-59.5	3.8	8.47e-01	0	42	104	0	64	15071
2026-01-14 15:52:28.33	225.19	10.80	-46.9	-59.5	3.8	8.46e-01	0	42	104	0	64	15129
2026-01-14 15:52:31.60	225.63	11.00	-46.9	-59.5	3.8	8.47e-01	0	43	104	0	64	15088
2026-01-14 15:52:34.44	226.02	11.18	-46.9	-59.4	3.8	8.47e-01	0	42	104	0	64	15022
2026-01-14 15:52:37.73	226.47	11.39	-46.9	-59.4	3.8	8.46e-01	0	43	104	0	64	14990
2026-01-14 15:52:40.64	226.88	11.57	-46.9	-59.4	3.8	8.47e-01	0	43	104	0	64	15020
2026-01-14 15:52:43.76	227.32	11.76	-46.9	-59.5	3.8	8.47e-01	0	42	104	0	64	15088
2026-01-14 15:52:46.60	227.73	11.94	-46.9	-59.5	3.8	8.46e-01	0	43	104	0	64	15084
2026-01-14 15:52:49.73	228.19	12.14	-46.8	-59.5	3.8	8.47e-01	0	43	104	0	64	15071
2026-01-14 15:52:52.57	228.61	12.31	-46.9	-59.4	3.8	8.47e-01	0	43	104	0	64	15046
2026-01-14 15:52:55.77	229.08	12.51	-46.9	-59.5	3.8	8.47e-01	0	43	104	0	64	15083
2026-01-14 15:52:58.61	229.51	12.69	-46.9	-59.4	3.8	8.46e-01	0	43	104	0	64	15045
2026-01-14 15:53:01.73	229.99	12.89	-46.9	-59.5	3.8	8.45e-01	0	43	104	0	64	15084
2026-01-14 15:53:04.57	230.43	13.06	-46.8	-59.5	3.8	8.47e-01	0	43	104	0	64	15080
2026-01-14 15:53:07.70	230.92	13.26	-46.8	-59.4	3.8	8.46e-01	0	43	104	0	64	14994
2026-01-14 15:53:10.54	231.37	13.43	-46.9	-59.4	3.8	8.47e-01	0	43	104	0	64	15019
2026-01-14 15:53:13.71	231.88	13.63	-46.9	-59.5	3.8	8.46e-01	0	43	104	0	64	15112
2026-01-14 15:53:16.55	232.34	13.81	-46.9	-59.5	3.8	8.47e-01	0	43	104	0	64	15056
2026-01-14 15:53:19.67	232.85	14.00	-46.8	-59.4	3.8	8.47e-01	0	43	104	0	64	14955
2026-01-14 15:53:22.51	233.32	14.17	-46.9	-59.5	3.8	8.49e-01	0	43	104	0	64	15104
2026-01-14 15:53:25.64	233.85	14.36	-46.9	-59.5	3.8	8.48e-01	0	43	104	0	64	15114
2026-01-14 15:53:28.48	234.33	14.54	-46.8	-59.4	3.8	8.47e-01	0	43	104	0	64	14940
2026-01-14 15:53:31.60	234.87	14.73	-46.8	-59.4	3.8	8.47e-01	0	43	104	0	64	15005
2026-01-14 15:53:34.44	235.37	14.90	-46.9	-59.4	3.8	8.47e-01	0	43	104	0	64	14966
2026-01-14 15:53:37.57	235.92	15.09	-46.9	-59.4	3.8	8.46e-01	0	43	104	0	64	15001
2026-01-14 15:53:40.41	236.43	15.25	-46.8	-59.5	3.8	8.49e-01	0	43	104	0	64	15058
2026-01-14 15:53:43.54	236.99	15.44	-46.8	-59.4	3.8	8.46e-01	0	43	104	0	64	14911
2026-01-14 15:53:46.38	237.51	15.61	-46.8	-59.4	3.8	8.46e-01	0	43	104	0	64	15022
2026-01-14 15:53:49.50	238.09	15.79	-46.9	-59.4	3.8	8.47e-01	0	43	104	0	64	15034
2026-01-14 15:53:52.34	238.62	15.96	-46.9	-59.4	3.8	8.47e-01	0	43	104	0	64	15039
2026-01-14 15:53:55.46	239.21	16.14	-46.9	-59.4	3.8	8.47e-01	0	43	104	0	64	14894
2026-01-14 15:53:58.30	239.75	16.30	-46.9	-59.4	3.8	8.47e-01	0	43	104	0	64	14978
2026-01-14 15:54:01.58	240.39	16.49	-46.8	-59.4	3.8	8.47e-01	0	43	104	0	64	15002
2026-01-14 15:54:04.28	240.92	16.64	-46.8	-59.4	3.8	8.48e-01	0	43	104	0	64	14946
2026-01-14 15:54:07.57	241.57	16.82	-46.8	-59.4	3.8	8.45e-01	0	43	104	0	64	14977
2026-01-14 15:54:10.29	242.11	16.97	-46.8	-59.4	3.8	8.47e-01	0	43	104	0	64	14968
2026-01-14 15:54:13.57	242.77	17.15	-46.9	-59.4	3.8	8.48e-01	0	43	104	0	64	15029
2026-01-14 15:54:16.38	243.35	17.30	-46.8	-59.4	3.8	8.47e-01	0	43	104	0	64	14944
2026-01-14 15:54:19.69	244.03	17.48	-46.8	-59.4	3.8	8.47e-01	0	43	104	0	64	14955
2026-01-14 15:54:22.39	244.59	17.62	-46.9	-59.5	3.8	8.46e-01	0	43	104	0	64	15125
2026-01-14 15:54:25.67	245.28	17.79	-46.8	-59.4	3.8	8.46e-01	0	43	104	0	64	14906
2026-01-14 15:54:28.37	245.85	17.92	-46.8	-59.4	3.8	8.46e-01	0	43	104	0	64	15025
2026-01-14 15:54:31.64	246.56	18.08	-46.8	-59.4	3.8	8.46e-01	0	43	104	0	64	15008
2026-01-14 15:54:34.34	247.14	18.22	-46.9	-59.4	3.8	8.47e-01	0	43	104	0	64	15033
2026-01-14 15:54:37.63	247.86	18.37	-46.8	-59.4	3.8	8.46e-01	0	43	104	0	64	15008
2026-01-14 15:54:40.34	248.46	18.50	-46.8	-59.4	3.8	8.47e-01	0	43	104	0	64	15041
2026-01-14 15:54:43.62	249.19	18.65	-46.8	-59.4	3.8	8.47e-01	0	43	104	0	64	15037
2026-01-14 15:54:46.32	249.79	18.78	-46.9	-59.4	3.8	8.46e-01	0	43	104	0	64	15041
2026-01-14 15:54:49.58	250.53	18.92	-46.9	-59.5	3.8	8.47e-01	0	43	104	0	64	15180
2026-01-14 15:54:52.30	251.15	19.04	-46.8	-59.4	3.8	8.46e-01	0	43	104	0	64	15003
2026-01-14 15:54:55.67	251.93	19.18	-46.8	-59.4	3.8	8.47e-01	0	43	104	0	64	14957
2026-01-14 15:54:58.45	252.57	19.29	-46.8	-59.5	3.8	8.47e-01	0	43	104	0	64	15084
2026-01-14 15:55:01.72	253.34	19.42	-46.8	-59.4	3.8	8.47e-01	0	43	104	0	64	15023
2026-01-14 15:55:04.43	253.98	19.52	-46.9	-59.4	3.8	8.48e-01	0	43	104	0	64	15003
2026-01-14 15:55:07.71	254.76	19.64	-46.9	-59.4	3.8	8.47e-01	0	43	104	0	64	14998
2026-01-14 15:55:10.41	255.40	19.74	-46.8	-59.4	3.8	8.47e-01	0	43	104	0	64	15002
2026-01-14 15:55:13.70	256.19	19.85	-46.9	-59.4	3.8	8.47e-01	0	43	104	0	64	15017
2026-01-14 15:55:16.50	256.87	19.94	-46.8	-59.4	3.8	8.47e-01	0	43	104	0	64	15013
2026-01-14 15:55:19.86	257.69	20.05	-46.9	-59.4	3.8	8.47e-01	0	43	104	0	64	14961
2026-01-14 15:55:22.57	258.35	20.13	-46.8	-59.4	3.8	8.47e-01	0	43	104	0	64	14947
2026-01-14 15:55:25.85	259.16	20.22	-46.8	-59.4	3.8	8.46e-01	0	44	104	0	64	15004
2026-01-14 15:55:28.58	259.84	20.30	-46.9	-59.5	3.8	8.47e-01	0	43	104	0	64	15089
2026-01-14 15:55:31.84	260.65	20.38	-46.8	-59.4	3.8	8.48e-01	0	43	104	0	64	15027
2026-01-14 15:55:34.54	261.32	20.45	-46.9	-59.4	3.8	8.47e-01	0	43	104	0	64	15036
2026-01-14 15:55:37.82	262.15	20.52	-46.8	-59.4	3.8	8.47e-01	0	44	104	0	64	15032
2026-01-14 15:55:40.55	262.84	20.58	-46.9	-59.4	3.8	8.47e-01	0	43	104	0	64	15039
2026-01-14 15:55:43.88	263.68	20.64	-46.8	-59.4	3.8	8.47e-01	0	43	104	0	64	14903
2026-01-14 15:55:46.58	264.36	20.69	-46.8	-59.4	3.8	8.48e-01	0	43	104	0	64	14975
2026-01-14 15:55:49.87	265.20	20.74	-46.8	-59.4	3.8	8.45e-01	0	43	104	0	64	14954
2026-01-14 15:55:52.59	265.90	20.78	-46.8	-59.4	3.8	8.47e-01	0	43	104	0	64	14908
2026-01-14 15:55:55.87	266.74	20.82	-46.8	-59.4	3.8	8.47e-01	0	43	104	0	64	14925
2026-01-14 15:55:58.58	267.43	20.85	-46.8	-59.4	3.8	8.46e-01	0	43	104	0	64	15049
2026-01-14 15:56:01.86	268.28	20.88	-46.9	-59.4	3.8	8.47e-01	0	43	104	0	64	14966
2026-01-14 15:56:04.56	268.97	20.90	-46.9	-59.4	3.8	8.47e-01	0	43	104	0	64	15010
2026-01-14 15:56:07.82	269.81	20.92	-46.8	-59.4	3.8	8.48e-01	0	43	104	0	64	15035
2026-01-14 15:56:10.52	270.51	20.93	-46.8	-59.5	3.8	8.47e-01	0	43	104	0	64	15068
2026-01-14 15:56:13.80	271.36	20.93	-46.8	-59.4	3.8	8.47e-01	0	43	104	0	64	15015
2026-01-14 15:56:16.52	272.06	20.94	-46.8	-59.5	3.8	8.47e-01	0	43	104	0	64	15099
2026-01-14 15:56:19.78	272.90	20.93	-46.8	-59.4	3.8	8.47e-01	0	43	104	0	64	14997
2026-01-14 15:56:22.61	273.63	20.92	-46.8	-59.5	3.8	8.47e-01	0	43	104	0	64	15082
2026-01-14 15:56:25.89	274.48	20.91	-46.9	-59.4	3.8	8.47e-01	0	43	104	0	64	15025
2026-01-14 15:56:28.59	275.17	20.89	-46.8	-59.4	3.8	8.47e-01	0	43	104	0	64	15023
2026-01-14 15:56:31.88	276.02	20.86	-46.8	-59.5	3.8	8.47e-01	0	43	104	0	64	15127
2026-01-14 15:56:34.59	276.71	20.84	-46.8	-59.4	3.8	8.47e-01	0	43	104	0	64	15009
2026-01-14 15:56:37.89	277.56	20.80	-46.9	-59.4	3.8	8.48e-01	0	43	104	0	64	15032
2026-01-14 15:56:40.59	278.25	20.76	-46.8	-59.5	3.8	8.47e-01	0	43	104	0	64	15145
2026-01-14 15:56:43.86	279.08	20.71	-46.9	-59.4	3.8	8.46e-01	0	43	104	0	64	15047
2026-01-14 15:56:46.56	279.77	20.67	-46.8	-59.4	3.8	8.47e-01	0	43	104	0	64	15009
2026-01-14 15:56:49.84	280.60	20.61	-46.9	-59.4	3.8	8.46e-01	0	43	104	0	64	14961
2026-01-14 15:56:52.53	281.28	20.55	-46.9	-59.4	3.8	8.48e-01	0	43	104	0	64	15018
2026-01-14 15:56:55.90	282.13	20.48	-46.9	-59.4	3.8	8.46e-01	0	43	104	0	64	15034
2026-01-14 15:56:58.59	282.80	20.42	-46.9	-59.5	3.8	8.47e-01	0	43	104	0	64	15132
2026-01-14 15:57:01.86	283.61	20.34	-46.9	-59.5	3.8	8.47e-01	0	43	104	0	64	15111
2026-01-14 15:57:04.56	284.28	20.27	-46.9	-59.5	3.8	8.47e-01	0	43	104	0	64	15091
2026-01-14 15:57:07.83	285.09	20.18	-46.9	-59.5	3.8	8.47e-01	0	43	104	0	64	15136
2026-01-14 15:57:10.67	285.78	20.10	-46.9	-59.5	3.8	8.47e-01	0	43	104	0	64	15065
2026-01-14 15:57:13.79	286.55	20.00	-46.8	-59.5	3.8	8.47e-01	0	43	104	0	64	15091
2026-01-14 15:57:16.63	287.23	19.91	-46.8	-59.4	3.8	8.48e-01	0	43	104	0	64	15042
2026-01-14 15:57:19.75	287.98	19.81	-46.8	-59.5	3.8	8.47e-01	0	43	104	0	64	15113
2026-01-14 15:57:22.59	288.66	19.71	-46.8	-59.5	3.8	8.47e-01	0	43	104	0	64	15092
2026-01-14 15:57:25.71	289.40	19.60	-46.9	-59.5	3.8	8.47e-01	0	43	104	0	64	15060
2026-01-14 15:57:28.55	290.07	19.49	-46.9	-59.5	3.8	8.47e-01	0	43	104	0	64	15116
2026-01-14 15:57:31.68	290.81	19.37	-46.9	-59.4	3.8	8.46e-01	0	43	104	0	64	15036
2026-01-14 15:57:34.52	291.47	19.26	-46.9	-59.4	3.8	8.47e-01	0	43	104	0	64	15011
2026-01-14 15:57:37.64	292.19	19.13	-46.9	-59.5	3.8	8.49e-01	0	43	104	0	64	15062
2026-01-14 15:57:40.48	292.84	19.01	-46.7	-59.5	3.8	8.47e-01	0	43	104	0	64	15053
2026-01-14 15:57:43.60	293.55	18.88	-46.9	-59.5	3.8	8.47e-01	0	43	104	0	64	15091
2026-01-14 15:57:46.44	294.18	18.75	-47.0	-59.5	3.8	8.46e-01	0	43	104	0	64	15195
2026-01-14 15:57:49.71	294.91	18.60	-46.8	-59.5	3.8	8.47e-01	0	43	104	0	64	15090
2026-01-14 15:57:52.55	295.54	18.47	-46.9	-59.5	3.8	8.47e-01	0	43	104	0	64	15089
2026-01-14 15:57:55.67	296.23	18.33	-46.8	-59.5	3.8	8.47e-01	0	43	104	0	64	15096
2026-01-14 15:57:58.51	296.84	18.19	-46.9	-59.5	3.8	8.47e-01	0	43	104	0	64	15069
2026-01-14 15:58:01.63	297.51	18.04	-46.8	-59.5	3.8	8.47e-01	0	43	104	0	64	15152
2026-01-14 15:58:04.47	298.12	17.90	-46.8	-59.5	3.8	8.46e-01	0	43	104	0	64	15116
2026-01-14 15:58:07.83	298.83	17.73	-46.9	-59.5	3.8	8.49e-01	0	43	104	0	64	15084
2026-01-14 15:58:10.53	299.39	17.59	-47.0	-59.4	3.8	8.46e-01	0	43	104	0	64	15021
2026-01-14 15:58:13.80	300.07	17.42	-46.9	-59.5	3.8	8.48e-01	0	43	104	0	64	15095
2026-01-14 15:58:16.50	300.62	17.27	-46.9	-59.5	3.8	8.47e-01	0	43	104	0	64	15148
2026-01-14 15:58:19.84	301.30	17.10	-46.8	-59.5	3.8	8.48e-01	0	43	104	0	64	15143
2026-01-14 15:58:22.62	301.85	16.94	-46.9	-59.5	3.8	8.47e-01	0	43	104	0	64	15163
2026-01-14 15:58:25.90	302.50	16.76	-46.9	-59.5	3.8	8.48e-01	0	43	104	0	64	15083
2026-01-14 15:58:28.61	303.03	16.61	-46.9	-59.5	3.8	8.47e-01	0	43	104	0	64	15113
2026-01-14 15:58:31.88	303.67	16.43	-46.9	-59.5	3.8	8.48e-01	0	43	104	0	64	15134
2026-01-14 15:58:34.59	304.19	16.28	-46.9	-59.5	3.8	8.47e-01	0	43	104	0	64	15175
2026-01-14 15:58:37.85	304.81	16.09	-46.9	-59.5	3.8	8.47e-01	0	44	104	0	64	15135
2026-01-14 15:58:40.57	305.32	15.94	-46.9	-59.5	3.8	8.48e-01	0	43	104	0	64	15146
2026-01-14 15:58:43.83	305.92	15.75	-46.8	-59.5	3.8	8.46e-01	0	43	104	0	64	15168
2026-01-14 15:58:46.55	306.42	15.59	-46.8	-59.5	3.8	8.46e-01	0	43	104	0	64	15172
2026-01-14 15:58:49.83	307.01	15.40	-46.8	-59.5	3.8	8.47e-01	0	43	104	0	64	15109
2026-01-14 15:58:52.77	307.54	15.22	-46.9	-59.5	3.8	8.47e-01	0	43	104	0	64	15177
2026-01-14 15:58:55.76	308.07	15.05	-46.8	-59.5	3.8	8.47e-01	0	44	104	0	64	15138
2026-01-14 15:58:58.74	308.59	14.87	-46.8	-59.5	3.8	8.47e-01	0	44	104	0	64	15115
2026-01-14 15:59:01.72	309.11	14.69	-46.8	-59.5	3.8	8.46e-01	0	44	104	0	64	15109
2026-01-14 15:59:04.70	309.62	14.51	-46.9	-59.5	3.8	8.47e-01	0	43	104	0	64	15139
2026-01-14 15:59:07.68	310.12	14.33	-46.9	-59.5	3.8	8.46e-01	0	43	104	0	64	15082
2026-01-14 15:59:10.66	310.62	14.15	-46.9	-59.5	3.8	8.47e-01	0	43	104	0	64	15148
2026-01-14 15:59:13.64	311.11	13.97	-46.9	-59.5	3.8	8.46e-01	0	43	104	0	64	15079
2026-01-14 15:59:16.62	311.60	13.79	-46.9	-59.5	3.8	8.46e-01	0	43	104	0	64	15155
2026-01-14 15:59:19.61	312.08	13.60	-46.9	-59.5	3.8	8.48e-01	0	43	104	0	64	15116
2026-01-14 15:59:22.59	312.55	13.42	-46.8	-59.5	3.8	8.46e-01	0	43	104	0	64	15153
2026-01-14 15:59:25.57	313.02	13.24	-46.9	-59.5	3.8	8.47e-01	0	43	104	0	64	15069
2026-01-14 15:59:28.55	313.49	13.05	-46.9	-59.5	3.8	8.48e-01	0	43	104	0	64	15071
2026-01-14 15:59:31.53	313.94	12.87	-46.9	-59.6	3.8	8.47e-01	0	43	104	0	64	15231
2026-01-14 15:59:34.58	314.41	12.68	-46.8	-59.5	3.8	8.47e-01	0	43	104	0	64	15144
2026-01-14 15:59:37.42	314.83	12.51	-46.9	-59.5	3.8	8.47e-01	0	43	104	0	64	15128
2026-01-14 15:59:40.54	315.29	12.31	-46.9	-59.5	3.8	8.47e-01	0	43	104	0	64	15120
2026-01-14 15:59:43.38	315.71	12.14	-46.9	-59.4	3.8	8.47e-01	0	44	104	0	64	15032
2026-01-14 15:59:46.61	316.18	11.94	-46.9	-59.5	3.8	8.47e-01	0	43	104	0	64	15146
2026-01-14 15:59:49.53	316.59	11.76	-46.9	-59.5	3.8	8.47e-01	0	43	104	0	64	15095
2026-01-14 15:59:52.70	317.04	11.56	-46.8	-59.5	3.8	8.47e-01	0	44	104	0	64	15072
2026-01-14 15:59:55.54	317.43	11.38	-46.9	-59.5	3.8	8.47e-01	0	43	104	0	64	15062
2026-01-14 15:59:58.66	317.86	11.19	-46.9	-59.5	3.8	8.47e-01	0	44	104	0	64	15095
2026-01-14 16:00:01.50	318.25	11.02	-46.9	-59.5	3.8	8.47e-01	0	43	104	0	64	15152
2026-01-14 16:00:04.63	318.67	10.82	-46.8	-59.5	3.8	8.48e-01	0	44	104	0	64	15181
2026-01-14 16:00:07.47	319.05	10.65	-46.8	-59.5	3.8	8.46e-01	0	44	104	0	64	15070
2026-01-14 16:00:10.59	319.45	10.46	-46.9	-59.5	3.8	8.47e-01	0	43	104	0	64	15120
2026-01-14 16:00:13.43	319.82	10.28	-46.8	-59.5	3.8	8.48e-01	0	43	104	0	64	15059
2026-01-14 16:00:16.55	320.22	10.09	-46.9	-59.5	3.8	8.48e-01	0	44	104	0	64	15138
2026-01-14 16:00:19.47	320.59	9.91	-46.8	-59.5	3.8	8.48e-01	0	43	104	0	64	15099
2026-01-14 16:00:22.59	320.98	9.72	-46.8	-59.5	3.8	8.46e-01	0	44	104	0	64	15128
2026-01-14 16:00:25.43	321.33	9.54	-46.9	-59.5	3.8	8.46e-01	0	43	104	0	64	15176
2026-01-14 16:00:28.55	321.71	9.35	-46.9	-59.4	3.8	8.47e-01	0	44	104	0	64	15043
2026-01-14 16:00:31.39	322.05	9.18	-46.9	-59.5	3.8	8.46e-01	0	44	104	0	64	15128
2026-01-14 16:00:34.56	322.43	8.99	-46.9	-59.5	3.8	8.47e-01	0	43	104	0	64	15157
2026-01-14 16:00:37.47	322.77	8.81	-46.9	-59.5	3.8	8.47e-01	0	44	104	0	64	15176
2026-01-14 16:00:40.68	323.14	8.62	-46.9	-59.5	3.8	8.47e-01	0	44	104	0	64	15205
2026-01-14 16:00:43.52	323.47	8.45	-46.9	-59.5	3.8	8.47e-01	0	43	104	0	64	15084
2026-01-14 16:00:46.65	323.82	8.26	-46.9	-59.5	3.8	8.48e-01	0	44	104	0	64	15137
2026-01-14 16:00:49.49	324.14	8.09	-46.9	-59.5	3.8	8.46e-01	0	43	104	0	64	15187
2026-01-14 16:00:52.61	324.49	7.90	-46.9	-59.5	3.8	8.46e-01	0	43	104	0	64	15132
2026-01-14 16:00:55.45	324.80	7.73	-46.8	-59.5	3.8	8.47e-01	0	44	104	0	64	15162
2026-01-14 16:00:58.58	325.14	7.55	-46.9	-59.4	3.8	8.48e-01	0	43	104	0	64	15049
2026-01-14 16:01:01.42	325.44	7.38	-46.9	-59.5	3.8	8.48e-01	0	44	104	0	64	15169
2026-01-14 16:01:04.54	325.77	7.19	-46.9	-59.5	3.8	8.47e-01	0	44	104	0	64	15204
2026-01-14 16:01:07.38	326.07	7.03	-46.9	-59.5	3.8	8.47e-01	0	43	104	0	64	15120
2026-01-14 16:01:10.58	326.40	6.84	-46.9	-59.5	3.8	8.47e-01	0	44	104	0	64	15063
2026-01-14 16:01:13.42	326.69	6.67	-46.9	-59.5	3.8	8.47e-01	0	44	104	0	64	15206
2026-01-14 16:01:16.55	327.00	6.49	-46.9	-59.5	3.8	8.47e-01	0	44	104	0	64	15152
2026-01-14 16:01:19.39	327.28	6.32	-46.9	-59.5	3.8	8.47e-01	0	44	104	0	64	15205
2026-01-14 16:01:22.51	327.59	6.14	-46.9	-59.5	3.8	8.48e-01	0	44	104	0	64	15170
2026-01-14 16:01:25.46	327.88	5.97	-46.9	-59.5	3.8	8.48e-01	0	43	104	0	64	15196
2026-01-14 16:01:28.59	328.18	5.79	-46.9	-59.5	3.8	8.46e-01	0	43	104	0	64	15116
2026-01-14 16:01:31.43	328.45	5.63	-46.9	-59.5	3.8	8.46e-01	0	44	104	0	64	15151
2026-01-14 16:01:34.55	328.75	5.45	-46.9	-59.5	3.8	8.46e-01	0	44	104	0	64	15145
2026-01-14 16:01:37.39	329.01	5.28	-46.9	-59.5	3.8	8.47e-01	0	44	104	0	64	15173
2026-01-14 16:01:40.52	329.30	5.11	-46.8	-59.5	3.8	8.47e-01	0	44	104	0	64	15164

#Closed at: 2026-01-14 16:01:43
#Recorded file [0 MB]: D:/Data/31040_260114_185052.dat