passes_logs/2026/01/14/T1/T1__20260114_105539_NOAA_21_JPSS-2_rec.log

#Pass ID: 20260114_105539_NOAA 21 (JPSS-2)
#Satellite: NOAA 21 (JPSS-2)
#Configuration: NOAA 21
#almurnet v.1.7.20251203
#Start time: 2026-01-14 10:55:41

#Version: 2.0.20230620
#Station: T1
#Location: 37.570604 lon 55.790049 lat
#TLE: 1 54234U 22150A   26013.18009385  .00000056  00000+0  47387-4 0  9997
#TLE: 2 54234  98.7496 314.1019 0000691 303.8246  56.2864 14.19534466164559

#Time	Az	El	Level	Level2	SNR	BER	BlckErr	Temp	State	Recorded	gain1	gain2
2026-01-14 10:55:41.67	192.41	5.12	-51.4	-64.9	3.8	1.49e+00	0	36	0	0	73	17947
2026-01-14 10:55:44.66	192.59	5.32	-51.4	-64.9	3.8	1.49e+00	0	37	104	0	74	17048
2026-01-14 10:55:47.66	192.76	5.52	-51.4	-64.7	3.8	1.49e+00	0	37	104	0	74	16682
2026-01-14 10:55:50.66	192.94	5.73	-51.3	-64.4	3.8	1.49e+00	0	37	104	0	74	16051
2026-01-14 10:55:53.65	193.12	5.93	-51.3	-64.5	3.8	1.49e+00	0	37	104	0	74	16218
2026-01-14 10:55:56.65	193.30	6.14	-51.3	-64.4	3.8	1.49e+00	0	37	104	0	74	16126
2026-01-14 10:55:59.64	193.49	6.35	-51.3	-64.0	3.8	1.49e+00	0	37	104	0	74	15283
2026-01-14 10:56:02.63	193.67	6.55	-51.2	-63.3	3.8	1.49e+00	0	37	104	0	74	14174
2026-01-14 10:56:05.62	193.86	6.76	-51.2	-63.1	3.8	1.48e+00	0	37	104	0	74	13732
2026-01-14 10:56:08.62	194.05	6.98	-51.2	-62.6	4.0	1.48e+00	0	38	104	0	74	13060
2026-01-14 10:56:11.62	194.25	7.19	-51.2	-63.3	3.8	1.49e+00	0	37	104	0	74	14143
2026-01-14 10:56:14.62	194.45	7.41	-51.4	-64.8	3.8	1.49e+00	0	37	104	0	74	16870
2026-01-14 10:56:17.61	194.65	7.62	-50.8	-60.1	4.6	1.42e+00	0	38	104	0	73	10305
2026-01-14 10:56:20.60	194.85	7.84	-48.8	-53.3	10.3	1.19e-02	0	38	0	0	69	5962
2026-01-14 10:56:23.60	195.06	8.06	-46.5	-49.5	14.0	7.00e-07	0	38	0	0	65	4834
2026-01-14 10:56:26.59	195.27	8.28	-45.6	-48.2	15.4	0.00e+00	0	38	0	0	63	4672
2026-01-14 10:56:29.58	195.48	8.51	-46.0	-48.6	14.9	0.00e+00	0	38	0	0	63	4925
2026-01-14 10:56:32.57	195.69	8.73	-47.3	-50.6	12.9	3.43e-05	0	38	0	0	65	5494
2026-01-14 10:56:35.57	195.91	8.96	-49.0	-53.7	9.9	5.18e-03	0	38	0	0	68	6577
2026-01-14 10:56:38.57	196.14	9.19	-47.9	-52.2	11.3	4.79e-02	0	38	0	0	68	5553
2026-01-14 10:56:41.56	196.36	9.42	-47.7	-51.1	12.5	9.58e-04	0	38	0	0	67	5183
2026-01-14 10:56:44.57	196.59	9.65	-47.3	-50.5	13.0	4.57e-05	0	38	0	0	66	5151
2026-01-14 10:56:47.57	196.82	9.88	-46.0	-48.7	14.7	1.50e-06	0	38	0	0	63	4958
2026-01-14 10:56:50.57	197.06	10.12	-44.9	-47.4	15.3	0.00e+00	0	38	0	0	61	4773
2026-01-14 10:56:53.57	197.30	10.36	-44.3	-47.2	13.8	3.80e-06	0	38	0	0	60	4942
2026-01-14 10:56:56.57	197.54	10.60	-43.7	-47.0	12.1	1.95e-04	0	39	0	0	59	5129
2026-01-14 10:56:59.58	197.79	10.84	-42.7	-46.8	10.1	5.90e-03	0	39	0	0	57	5606
2026-01-14 10:57:02.58	198.04	11.08	-40.5	-46.2	7.1	1.06e-01	0	38	0	0	52	7025
2026-01-14 10:57:05.58	198.30	11.33	-41.4	-47.3	7.0	1.77e-01	0	38	0	0	53	7478
2026-01-14 10:57:08.59	198.56	11.58	-41.9	-49.1	5.5	9.64e-01	0	38	104	0	54	8748
2026-01-14 10:57:11.59	198.82	11.83	-40.1	-47.7	5.1	6.72e-01	0	38	0	0	51	8796
2026-01-14 10:57:14.59	199.09	12.08	-42.1	-48.1	6.8	3.39e-02	0	39	0	0	56	6947
2026-01-14 10:57:17.60	199.37	12.33	-44.4	-49.4	8.2	2.49e-01	0	39	0	0	59	6779
2026-01-14 10:57:20.61	199.64	12.59	-46.3	-49.5	12.8	3.50e-05	0	39	0	0	63	5425
2026-01-14 10:57:23.61	199.93	12.85	-46.1	-48.8	14.1	2.20e-06	0	38	0	0	63	5037
2026-01-14 10:57:26.62	200.22	13.11	-45.6	-48.2	14.6	1.50e-06	0	39	0	0	63	4666
2026-01-14 10:57:29.62	200.51	13.37	-44.9	-47.2	16.0	0.00e+00	0	39	0	0	61	4657
2026-01-14 10:57:32.63	200.81	13.64	-44.3	-46.4	16.9	0.00e+00	0	39	0	0	60	4536
2026-01-14 10:57:35.63	201.11	13.90	-44.2	-46.3	17.1	0.00e+00	0	39	0	0	60	4473
2026-01-14 10:57:38.63	201.42	14.17	-44.2	-46.3	17.4	0.00e+00	0	39	0	0	60	4455
2026-01-14 10:57:41.64	201.73	14.44	-44.2	-46.3	17.4	0.00e+00	0	39	0	0	60	4478
2026-01-14 10:57:44.64	202.05	14.72	-44.3	-46.4	17.3	0.00e+00	0	39	0	0	60	4529
2026-01-14 10:57:47.64	202.37	14.99	-44.4	-46.4	17.3	0.00e+00	0	39	0	0	60	4544
2026-01-14 10:57:50.64	202.70	15.27	-44.4	-46.4	17.4	0.00e+00	0	39	0	0	60	4537
2026-01-14 10:57:53.65	203.04	15.55	-44.5	-46.5	17.2	0.00e+00	0	39	0	0	60	4593
2026-01-14 10:57:56.65	203.38	15.83	-44.4	-46.4	17.4	0.00e+00	0	39	0	0	60	4521
2026-01-14 10:57:59.65	203.73	16.12	-44.4	-46.5	17.2	0.00e+00	0	39	0	0	60	4568
2026-01-14 10:58:02.66	204.09	16.41	-44.5	-46.5	17.2	0.00e+00	0	39	0	0	60	4581
2026-01-14 10:58:05.66	204.45	16.69	-44.5	-46.5	17.3	0.00e+00	0	39	0	0	60	4589
2026-01-14 10:58:08.66	204.82	16.99	-44.5	-46.6	17.3	0.00e+00	0	39	0	0	60	4608
2026-01-14 10:58:11.67	205.19	17.28	-44.6	-46.6	17.2	0.00e+00	0	39	0	0	60	4638
2026-01-14 10:58:14.67	205.58	17.58	-44.6	-46.7	17.2	0.00e+00	0	39	0	0	60	4657
2026-01-14 10:58:17.67	205.97	17.88	-44.7	-46.8	17.1	0.00e+00	0	39	0	0	60	4747
2026-01-14 10:58:20.67	206.37	18.18	-44.8	-46.9	17.0	0.00e+00	0	39	0	0	60	4768
2026-01-14 10:58:23.68	206.77	18.48	-44.8	-46.9	16.9	0.00e+00	0	39	0	0	60	4814
2026-01-14 10:58:26.68	207.19	18.79	-44.7	-46.8	17.1	0.00e+00	0	39	0	0	60	4749
2026-01-14 10:58:29.69	207.61	19.10	-44.7	-46.9	17.1	0.00e+00	0	39	0	0	60	4764
2026-01-14 10:58:32.69	208.04	19.41	-44.8	-46.8	17.1	0.00e+00	0	39	0	0	60	4746
2026-01-14 10:58:35.70	208.48	19.72	-44.6	-46.6	17.3	0.00e+00	0	39	0	0	60	4616
2026-01-14 10:58:38.70	208.93	20.04	-44.4	-46.4	17.5	0.00e+00	0	39	0	0	60	4529
2026-01-14 10:58:41.70	209.38	20.36	-44.4	-46.4	17.5	0.00e+00	0	39	0	0	60	4532
2026-01-14 10:58:44.71	209.85	20.68	-44.2	-46.2	17.7	0.00e+00	0	39	0	0	60	4430
2026-01-14 10:58:47.71	210.33	21.00	-44.1	-46.1	17.8	0.00e+00	0	39	0	0	60	4354
2026-01-14 10:58:50.71	210.81	21.32	-44.2	-46.2	17.7	0.00e+00	0	39	0	0	60	4401
2026-01-14 10:58:53.71	211.31	21.65	-44.1	-46.1	17.8	0.00e+00	0	39	0	0	60	4361
2026-01-14 10:58:56.71	211.81	21.98	-44.0	-45.9	18.0	0.00e+00	0	39	0	0	59	4513
2026-01-14 10:58:59.71	212.33	22.31	-43.7	-45.6	18.2	0.00e+00	0	39	0	0	59	4380
2026-01-14 10:59:02.71	212.86	22.64	-43.8	-45.7	18.1	0.00e+00	0	39	0	0	59	4426
2026-01-14 10:59:05.71	213.39	22.98	-43.6	-45.5	18.3	0.00e+00	0	39	0	0	59	4305
2026-01-14 10:59:08.71	213.94	23.31	-43.5	-45.4	18.5	0.00e+00	0	39	0	0	58	4504
2026-01-14 10:59:11.71	214.50	23.65	-43.6	-45.5	18.3	0.00e+00	0	39	0	0	58	4583
2026-01-14 10:59:14.72	215.08	23.99	-43.6	-45.5	18.3	0.00e+00	0	39	0	0	58	4567
2026-01-14 10:59:17.72	215.67	24.33	-43.6	-45.5	18.3	0.00e+00	0	39	0	0	58	4575
2026-01-14 10:59:20.73	216.27	24.67	-43.6	-45.4	18.4	0.00e+00	0	39	0	0	58	4520
2026-01-14 10:59:23.73	216.88	25.02	-43.8	-45.7	18.2	0.00e+00	0	39	0	0	58	4656
2026-01-14 10:59:26.74	217.50	25.36	-43.8	-45.7	18.2	0.00e+00	0	39	0	0	58	4683
2026-01-14 10:59:29.74	218.14	25.71	-43.7	-45.6	18.3	0.00e+00	0	39	0	0	58	4611
2026-01-14 10:59:32.75	218.79	26.05	-43.8	-45.7	18.2	0.00e+00	0	39	0	0	58	4656
2026-01-14 10:59:35.75	219.46	26.40	-43.9	-45.8	18.1	0.00e+00	0	39	0	0	58	4716
2026-01-14 10:59:38.75	220.14	26.75	-44.1	-46.0	17.9	0.00e+00	0	39	0	0	58	4851
2026-01-14 10:59:41.75	220.83	27.09	-44.3	-46.2	17.7	0.00e+00	0	39	0	0	59	4695
2026-01-14 10:59:44.76	221.54	27.44	-44.4	-46.3	17.6	0.00e+00	0	39	0	0	59	4748
2026-01-14 10:59:47.76	222.27	27.79	-44.4	-46.4	17.5	0.00e+00	0	39	0	0	59	4785
2026-01-14 10:59:50.77	223.01	28.14	-44.2	-46.2	17.7	0.00e+00	0	39	0	0	59	4678
2026-01-14 10:59:53.78	223.77	28.48	-44.2	-46.2	17.7	0.00e+00	0	39	0	0	59	4670
2026-01-14 10:59:56.78	224.54	28.82	-44.1	-46.0	17.9	0.00e+00	0	39	0	0	59	4591
2026-01-14 10:59:59.79	225.33	29.17	-43.8	-45.7	18.1	0.00e+00	0	39	0	0	59	4424
2026-01-14 11:00:02.79	226.13	29.51	-44.1	-46.0	17.9	0.00e+00	0	39	0	0	59	4567
2026-01-14 11:00:05.79	226.96	29.85	-43.9	-45.8	18.0	0.00e+00	0	40	0	0	59	4489
2026-01-14 11:00:08.79	227.79	30.18	-43.8	-45.7	18.2	0.00e+00	0	39	0	0	59	4425
2026-01-14 11:00:11.79	228.65	30.52	-43.9	-45.8	18.1	0.00e+00	0	39	0	0	59	4486
2026-01-14 11:00:14.80	229.53	30.85	-44.0	-46.0	17.9	0.00e+00	0	39	0	0	59	4559
2026-01-14 11:00:17.80	230.42	31.17	-44.1	-46.1	17.7	0.00e+00	0	39	0	0	59	4636
2026-01-14 11:00:20.80	231.32	31.49	-44.3	-46.2	17.6	0.00e+00	0	39	0	0	59	4705
2026-01-14 11:00:23.81	232.25	31.81	-44.4	-46.4	17.5	0.00e+00	0	39	0	0	59	4770
2026-01-14 11:00:26.81	233.20	32.13	-44.4	-46.4	17.5	0.00e+00	0	39	0	0	59	4794
2026-01-14 11:00:29.81	234.16	32.43	-44.8	-46.9	17.1	0.00e+00	0	39	0	0	60	4787
2026-01-14 11:00:32.81	235.14	32.73	-45.0	-47.1	17.0	0.00e+00	0	39	0	0	60	4908
2026-01-14 11:00:35.82	236.14	33.03	-44.9	-47.0	17.0	0.00e+00	0	39	0	0	60	4848
2026-01-14 11:00:38.82	237.15	33.32	-45.2	-47.4	16.7	0.00e+00	0	39	0	0	61	4773
2026-01-14 11:00:41.82	238.19	33.60	-45.3	-47.4	16.6	0.00e+00	0	39	0	0	61	4784
2026-01-14 11:00:44.83	239.24	33.87	-45.2	-47.3	16.7	0.00e+00	0	39	0	0	61	4743
2026-01-14 11:00:47.83	240.31	34.14	-45.2	-47.3	16.7	0.00e+00	0	39	0	0	61	4759
2026-01-14 11:00:50.83	241.39	34.39	-45.2	-47.3	16.7	0.00e+00	0	39	0	0	61	4734
2026-01-14 11:00:53.83	242.49	34.64	-45.1	-47.2	16.8	0.00e+00	0	39	0	0	61	4683
2026-01-14 11:00:56.84	243.61	34.88	-44.9	-46.9	17.1	0.00e+00	0	39	0	0	61	4535
2026-01-14 11:00:59.84	244.75	35.10	-45.1	-47.3	16.6	0.00e+00	0	39	0	0	61	4741
2026-01-14 11:01:02.84	245.89	35.32	-44.9	-47.0	17.0	0.00e+00	0	39	0	0	61	4572
2026-01-14 11:01:05.84	247.06	35.52	-45.2	-47.3	16.7	0.00e+00	0	40	0	0	61	4751
2026-01-14 11:01:08.85	248.24	35.71	-45.4	-47.6	16.5	0.00e+00	0	39	0	0	61	4874
2026-01-14 11:01:11.85	249.42	35.89	-45.0	-47.1	16.9	0.00e+00	0	39	0	0	61	4623
2026-01-14 11:01:14.86	250.63	36.06	-45.1	-47.2	16.9	0.00e+00	0	40	0	0	61	4685
2026-01-14 11:01:17.86	251.84	36.21	-45.2	-47.3	16.7	0.00e+00	0	39	0	0	61	4730
2026-01-14 11:01:20.86	253.07	36.35	-45.3	-47.6	16.4	0.00e+00	0	39	0	0	61	4875
2026-01-14 11:01:23.86	254.30	36.48	-45.2	-47.4	16.7	0.00e+00	0	39	0	0	61	4765
2026-01-14 11:01:26.86	255.54	36.59	-45.9	-48.2	15.9	0.00e+00	0	39	0	0	62	4980
2026-01-14 11:01:29.87	256.80	36.69	-45.5	-47.7	16.4	0.00e+00	0	40	0	0	62	4652
2026-01-14 11:01:32.87	258.06	36.77	-45.4	-47.6	16.4	0.00e+00	0	39	0	0	62	4640
2026-01-14 11:01:35.88	259.32	36.84	-45.5	-47.6	16.4	0.00e+00	0	39	0	0	62	4649
2026-01-14 11:01:38.88	260.59	36.89	-45.3	-47.5	16.6	0.00e+00	0	39	0	0	62	4575
2026-01-14 11:01:41.87	261.86	36.92	-45.3	-47.5	16.5	0.00e+00	0	40	0	0	62	4569
2026-01-14 11:01:44.88	263.13	36.95	-45.2	-47.4	16.6	0.00e+00	0	40	0	0	62	4496
2026-01-14 11:01:47.88	264.40	36.95	-45.1	-47.3	16.7	0.00e+00	0	39	0	0	62	4455
2026-01-14 11:01:50.89	265.68	36.94	-45.6	-47.8	16.3	0.00e+00	0	40	0	0	62	4747
2026-01-14 11:01:53.89	266.95	36.91	-45.0	-47.1	16.9	0.00e+00	0	39	0	0	62	4383
2026-01-14 11:01:56.89	268.22	36.87	-45.2	-47.4	16.7	0.00e+00	0	39	0	0	62	4497
2026-01-14 11:01:59.89	269.49	36.81	-45.2	-47.4	16.7	0.00e+00	0	39	0	0	62	4509
2026-01-14 11:02:02.90	270.75	36.74	-45.5	-47.8	16.3	0.00e+00	0	39	0	0	62	4716
2026-01-14 11:02:05.90	272.00	36.65	-45.5	-47.7	16.3	0.00e+00	0	40	0	0	62	4703
2026-01-14 11:02:08.90	273.25	36.55	-45.5	-47.7	16.4	0.00e+00	0	39	0	0	62	4680
2026-01-14 11:02:11.90	274.49	36.44	-45.5	-47.9	16.3	0.00e+00	0	39	0	0	62	4761
2026-01-14 11:02:14.91	275.72	36.30	-45.5	-47.7	16.4	0.00e+00	0	39	0	0	62	4687
2026-01-14 11:02:17.90	276.93	36.16	-45.6	-47.9	16.2	0.00e+00	0	40	0	0	62	4781
2026-01-14 11:02:20.90	278.14	36.00	-45.5	-47.7	16.4	0.00e+00	0	40	0	0	62	4679
2026-01-14 11:02:23.91	279.34	35.83	-45.2	-47.4	16.7	0.00e+00	0	39	0	0	62	4537
2026-01-14 11:02:26.91	280.52	35.65	-45.5	-47.8	16.4	0.00e+00	0	40	0	0	62	4709
2026-01-14 11:02:29.91	281.69	35.45	-45.6	-47.9	16.2	0.00e+00	0	40	0	0	62	4792
2026-01-14 11:02:32.91	282.84	35.25	-45.5	-47.8	16.4	0.00e+00	0	40	0	0	62	4709
2026-01-14 11:02:35.91	283.98	35.03	-45.3	-47.5	16.6	0.00e+00	0	40	0	0	62	4575
2026-01-14 11:02:38.92	285.11	34.80	-45.3	-47.6	16.6	0.00e+00	0	40	0	0	62	4601
2026-01-14 11:02:41.92	286.22	34.56	-45.0	-47.1	16.9	0.00e+00	0	40	0	0	61	4643
2026-01-14 11:02:44.92	287.31	34.31	-44.7	-46.8	17.3	0.00e+00	0	40	0	0	61	4466
2026-01-14 11:02:47.92	288.38	34.05	-45.2	-47.4	16.6	0.00e+00	0	40	0	0	61	4808
2026-01-14 11:02:50.93	289.44	33.79	-44.8	-47.0	17.0	0.00e+00	0	39	0	0	61	4548
2026-01-14 11:02:53.93	290.49	33.51	-44.7	-46.8	17.2	0.00e+00	0	40	0	0	61	4483
2026-01-14 11:02:56.94	291.51	33.23	-44.8	-47.0	17.1	0.00e+00	0	40	0	0	61	4567
2026-01-14 11:02:59.94	292.52	32.94	-44.5	-46.8	17.3	0.00e+00	0	40	0	0	60	4714
2026-01-14 11:03:02.94	293.50	32.64	-44.2	-46.4	17.6	0.00e+00	0	40	0	0	60	4542
2026-01-14 11:03:05.95	294.48	32.34	-44.4	-46.6	17.4	0.00e+00	0	40	0	0	60	4639
2026-01-14 11:03:08.95	295.43	32.03	-44.4	-46.6	17.5	0.00e+00	0	40	0	0	60	4603
2026-01-14 11:03:11.96	296.37	31.72	-44.1	-46.6	17.4	0.00e+00	0	40	0	0	60	4599
2026-01-14 11:03:14.96	297.28	31.40	-44.1	-46.2	17.8	0.00e+00	0	40	0	0	60	4395
2026-01-14 11:03:17.97	298.18	31.08	-44.1	-46.2	17.8	0.00e+00	0	40	0	0	60	4417
2026-01-14 11:03:20.97	299.07	30.75	-44.2	-46.4	17.7	0.00e+00	0	40	0	0	60	4497
2026-01-14 11:03:23.98	299.93	30.43	-43.8	-46.0	17.9	0.00e+00	0	40	0	0	59	4574
2026-01-14 11:03:26.97	300.78	30.09	-44.0	-46.2	17.7	0.00e+00	0	40	0	0	59	4670
2026-01-14 11:03:29.97	301.60	29.76	-44.2	-46.3	17.6	0.00e+00	0	40	0	0	59	4750
2026-01-14 11:03:32.98	302.42	29.42	-43.8	-46.0	17.8	0.00e+00	0	40	0	0	59	4598
2026-01-14 11:03:35.98	303.22	29.08	-43.6	-45.6	18.1	0.00e+00	0	40	0	0	59	4375
2026-01-14 11:03:38.98	303.99	28.74	-43.5	-45.4	18.4	0.00e+00	0	40	0	0	58	4535
2026-01-14 11:03:41.98	304.76	28.40	-43.3	-45.3	18.5	0.00e+00	0	40	0	0	58	4474
2026-01-14 11:03:44.98	305.51	28.06	-43.7	-45.6	18.1	0.00e+00	0	40	0	0	58	4642
2026-01-14 11:03:47.99	306.24	27.71	-43.9	-46.0	17.9	0.00e+00	0	40	0	0	58	4825
2026-01-14 11:03:50.99	306.96	27.37	-43.7	-45.7	18.1	0.00e+00	0	40	0	0	58	4672
2026-01-14 11:03:53.99	307.66	27.03	-43.7	-45.6	18.1	0.00e+00	0	40	0	0	58	4645
2026-01-14 11:03:57.00	308.35	26.68	-43.5	-45.6	18.2	0.00e+00	0	40	0	0	58	4621
2026-01-14 11:04:00.00	309.02	26.34	-43.6	-45.6	18.1	0.00e+00	0	40	0	0	58	4649
2026-01-14 11:04:03.01	309.68	25.99	-43.7	-45.7	18.1	0.00e+00	0	40	0	0	58	4657
2026-01-14 11:04:06.00	310.32	25.65	-43.7	-45.6	18.2	0.00e+00	0	40	0	0	58	4611
2026-01-14 11:04:09.01	310.95	25.31	-43.8	-45.8	18.1	0.00e+00	0	40	0	0	58	4708
2026-01-14 11:04:12.01	311.57	24.97	-43.8	-45.8	18.1	0.00e+00	0	40	0	0	58	4713
2026-01-14 11:04:15.01	312.18	24.63	-43.6	-45.5	18.3	0.00e+00	0	40	0	0	58	4589
2026-01-14 11:04:18.01	312.77	24.29	-43.5	-45.4	18.3	0.00e+00	0	40	0	0	58	4522
2026-01-14 11:04:21.01	313.35	23.95	-43.6	-45.5	18.3	0.00e+00	0	40	0	0	58	4565
2026-01-14 11:04:24.01	313.92	23.62	-43.6	-45.5	18.3	0.00e+00	0	40	0	0	58	4574
2026-01-14 11:04:27.01	314.47	23.28	-43.8	-45.7	18.1	0.00e+00	0	40	0	0	58	4672
2026-01-14 11:04:30.02	315.02	22.95	-43.8	-45.7	18.0	0.00e+00	0	40	0	0	58	4686
2026-01-14 11:04:33.02	315.55	22.62	-44.0	-45.9	17.8	0.00e+00	0	40	0	0	58	4808
2026-01-14 11:04:36.02	316.07	22.29	-43.9	-45.9	17.9	0.00e+00	0	40	0	0	58	4791
2026-01-14 11:04:39.03	316.59	21.96	-44.0	-46.0	17.9	0.00e+00	0	40	0	0	58	4815
2026-01-14 11:04:42.03	317.09	21.63	-44.1	-46.1	17.8	0.00e+00	0	40	0	0	58	4907
2026-01-14 11:04:45.04	317.58	21.31	-44.2	-46.2	17.7	0.00e+00	0	40	0	0	59	4656
2026-01-14 11:04:48.04	318.06	20.99	-44.1	-46.1	17.8	0.00e+00	0	40	0	0	59	4616
2026-01-14 11:04:51.04	318.53	20.67	-43.9	-45.9	17.9	0.00e+00	0	40	0	0	59	4533
2026-01-14 11:04:54.05	319.00	20.35	-43.9	-45.9	17.9	0.00e+00	0	40	0	0	59	4495
2026-01-14 11:04:57.05	319.45	20.04	-44.1	-46.1	17.7	0.00e+00	0	40	0	0	59	4608
2026-01-14 11:05:00.06	319.90	19.72	-44.0	-46.0	17.8	0.00e+00	0	40	0	0	59	4577
2026-01-14 11:05:03.06	320.33	19.41	-43.8	-45.8	18.0	0.00e+00	0	40	0	0	59	4451
2026-01-14 11:05:06.06	320.76	19.11	-43.8	-45.8	17.9	0.00e+00	0	40	0	0	59	4454
2026-01-14 11:05:09.07	321.18	18.80	-44.0	-46.0	17.8	0.00e+00	0	40	0	0	59	4546
2026-01-14 11:05:12.06	321.59	18.50	-44.1	-46.0	17.7	0.00e+00	0	40	0	0	59	4586
2026-01-14 11:05:15.07	321.99	18.20	-44.1	-46.1	17.7	0.00e+00	0	40	0	0	59	4627
2026-01-14 11:05:18.07	322.39	17.90	-44.0	-46.0	17.7	0.00e+00	0	40	0	0	59	4589
2026-01-14 11:05:21.07	322.78	17.60	-44.1	-46.1	17.7	0.00e+00	0	40	0	0	59	4621
2026-01-14 11:05:24.08	323.16	17.31	-44.0	-46.0	17.8	0.00e+00	0	40	0	0	59	4551
2026-01-14 11:05:27.09	323.53	17.02	-44.1	-46.0	17.7	0.00e+00	0	40	0	0	59	4594
2026-01-14 11:05:30.09	323.90	16.73	-44.3	-46.4	17.4	0.00e+00	0	40	0	0	59	4766
2026-01-14 11:05:33.10	324.26	16.44	-44.7	-46.8	17.0	0.00e+00	0	40	0	0	59	4985
2026-01-14 11:05:36.10	324.61	16.16	-44.6	-46.8	17.1	0.00e+00	0	40	0	0	60	4713
2026-01-14 11:05:39.10	324.96	15.87	-44.6	-47.0	16.9	0.00e+00	0	40	0	0	60	4836
2026-01-14 11:05:42.11	325.30	15.59	-44.6	-47.1	16.8	0.00e+00	0	40	0	0	60	4905
2026-01-14 11:05:45.11	325.64	15.32	-44.7	-47.1	16.7	0.00e+00	0	40	0	0	60	4914
2026-01-14 11:05:48.11	325.97	15.04	-44.9	-47.2	16.6	0.00e+00	0	40	0	0	60	4970
2026-01-14 11:05:51.11	326.29	14.77	-44.8	-47.1	16.8	0.00e+00	0	40	0	0	60	4888
2026-01-14 11:05:54.11	326.61	14.50	-44.7	-46.9	16.9	0.00e+00	0	40	0	0	60	4811
2026-01-14 11:05:57.11	326.92	14.23	-44.8	-47.1	16.8	0.00e+00	0	40	0	0	60	4883
2026-01-14 11:06:00.11	327.23	13.97	-44.8	-47.1	16.7	0.00e+00	0	40	0	0	60	4907
2026-01-14 11:06:03.11	327.53	13.70	-45.0	-47.3	16.6	0.00e+00	0	40	0	0	60	5005
2026-01-14 11:06:06.12	327.83	13.44	-45.1	-47.4	16.4	0.00e+00	0	40	0	0	60	5073
2026-01-14 11:06:09.12	328.12	13.18	-45.1	-47.3	16.5	0.00e+00	0	40	0	0	60	5034
2026-01-14 11:06:12.13	328.41	12.92	-45.0	-47.2	16.6	0.00e+00	0	40	0	0	60	4968
2026-01-14 11:06:15.12	328.69	12.67	-45.1	-47.4	16.4	0.00e+00	0	40	0	0	60	5065
2026-01-14 11:06:18.11	328.96	12.42	-45.1	-47.4	16.4	0.00e+00	0	40	0	0	60	5046
2026-01-14 11:06:21.09	329.24	12.17	-45.0	-47.3	16.5	0.00e+00	0	40	0	0	60	5012
2026-01-14 11:06:24.08	329.50	11.92	-44.9	-47.2	16.6	0.00e+00	0	40	0	0	60	4961
2026-01-14 11:06:27.46	329.80	11.64	-44.8	-47.1	16.7	0.00e+00	0	40	0	0	60	4912
2026-01-14 11:06:30.41	330.06	11.40	-44.8	-47.1	16.6	0.00e+00	0	40	0	0	60	4911
2026-01-14 11:06:34.20	330.38	11.09	-44.7	-46.9	16.9	0.00e+00	0	40	0	0	60	4779
2026-01-14 11:06:37.03	330.62	10.86	-44.9	-47.2	16.6	0.00e+00	0	40	0	0	60	4952
2026-01-14 11:06:40.15	330.87	10.62	-45.0	-47.3	16.4	0.00e+00	0	40	0	0	60	5002
2026-01-14 11:06:43.00	331.10	10.39	-45.2	-47.5	16.1	0.00e+00	0	40	0	0	61	4858
2026-01-14 11:06:46.12	331.35	10.15	-45.4	-47.9	15.8	0.00e+00	0	40	0	0	61	5049
2026-01-14 11:06:49.09	331.59	9.92	-45.4	-48.0	15.7	0.00e+00	0	40	0	0	61	5122
2026-01-14 11:06:52.15	331.82	9.68	-45.3	-47.9	15.8	0.00e+00	0	40	0	0	61	5075
2026-01-14 11:06:55.44	332.08	9.43	-45.2	-47.8	15.9	0.00e+00	0	40	0	0	61	4992
2026-01-14 11:06:58.36	332.30	9.21	-45.4	-47.9	15.7	0.00e+00	0	40	0	0	61	5079
2026-01-14 11:07:01.66	332.54	8.96	-46.2	-48.9	14.9	0.00e+00	0	40	0	0	62	5388
2026-01-14 11:07:04.36	332.74	8.76	-51.4	-65.4	3.8	1.49e+00	0	40	104	0	74	17896
2026-01-14 11:07:07.62	332.97	8.51	-52.2	-65.5	3.8	1.49e+00	0	40	104	0	75	17268
2026-01-14 11:07:10.32	333.16	8.32	-52.5	-65.7	3.8	1.49e+00	0	40	104	0	75	17490
2026-01-14 11:07:13.60	333.39	8.08	-52.4	-65.7	3.8	1.49e+00	0	40	104	0	76	16647
2026-01-14 11:07:16.30	333.58	7.88	-52.7	-65.7	3.8	1.49e+00	0	40	104	0	76	16578
2026-01-14 11:07:19.56	333.80	7.65	-52.8	-65.7	3.8	1.49e+00	0	40	104	0	76	16614
2026-01-14 11:07:22.26	333.98	7.45	-52.6	-65.7	3.8	1.49e+00	0	40	104	0	76	16592
2026-01-14 11:07:25.64	334.20	7.21	-52.4	-65.6	3.8	1.49e+00	0	40	104	0	76	16496
2026-01-14 11:07:28.40	334.38	7.02	-52.4	-65.7	3.8	1.49e+00	0	40	104	0	76	16553
2026-01-14 11:07:31.82	334.60	6.78	-52.4	-65.6	3.8	1.49e+00	0	40	104	0	76	16454
2026-01-14 11:07:34.51	334.78	6.59	-52.4	-65.6	3.8	1.49e+00	0	40	104	0	76	16442
2026-01-14 11:07:37.79	334.98	6.36	-52.4	-65.7	3.8	1.49e+00	0	40	104	0	76	16504
2026-01-14 11:07:40.49	335.15	6.18	-52.4	-65.6	3.8	1.49e+00	0	40	104	0	76	16460
2026-01-14 11:07:43.79	335.35	5.95	-52.4	-65.6	3.8	1.49e+00	0	40	104	0	76	16458
2026-01-14 11:07:46.48	335.51	5.77	-52.4	-65.6	3.8	1.49e+00	0	40	104	0	76	16466
2026-01-14 11:07:49.75	335.71	5.55	-52.4	-65.6	3.8	1.49e+00	0	40	104	0	76	16428
2026-01-14 11:07:52.46	335.87	5.37	-52.4	-65.6	3.8	1.49e+00	0	40	104	0	76	16453
2026-01-14 11:07:55.73	336.06	5.16	-52.4	-65.6	3.8	1.49e+00	0	40	104	0	76	16474
2026-01-14 11:07:58.43	336.21	4.98	-52.4	-65.6	3.8	1.49e+00	0	40	104	0	76	16465

#Closed at: 2026-01-14 11:07:59
#Recorded file [0 MB]: D:/Data/31040_260114_135541.dat