passes_logs/2026/01/14/T1/T1__20260114_082616_NOAA_20_JPSS-1_rec.log

#Pass ID: 20260114_082616_NOAA 20 (JPSS-1)
#Satellite: NOAA 20 (JPSS-1)
#Configuration: NOAA 20
#almurnet v.1.7.20251203
#Start time: 2026-01-14 08:26:18

#Version: 2.0.20230620
#Station: T1
#Location: 37.570604 lon 55.790049 lat
#TLE: 1 43013U 17073A   26013.21545503  .00000073  00000+0  55630-4 0  9998
#TLE: 2 43013  98.7633 314.1737 0001580  41.9966 318.1331 14.19535680422486

#Time	Az	El	Level	Level2	SNR	BER	BlckErr	Temp	State	Recorded	gain1	gain2
2026-01-14 08:26:18.30	112.94	5.12	-51.2	-66.4	3.8	1.49e+00	0	41	0	0	74	20099
2026-01-14 08:26:21.28	112.72	5.31	-51.2	-66.4	3.8	1.49e+00	0	41	104	0	74	20084
2026-01-14 08:26:24.26	112.49	5.50	-51.1	-66.3	3.8	1.49e+00	0	41	104	0	74	19944
2026-01-14 08:26:27.24	112.25	5.69	-51.2	-66.3	3.8	1.49e+00	0	41	104	0	74	19847
2026-01-14 08:26:30.22	112.02	5.88	-51.2	-66.2	3.8	1.49e+00	0	41	104	0	74	19736
2026-01-14 08:26:33.20	111.78	6.07	-51.1	-66.2	3.8	1.49e+00	0	42	104	0	74	19781
2026-01-14 08:26:36.18	111.53	6.26	-51.1	-66.2	3.8	1.49e+00	0	42	104	0	74	19720
2026-01-14 08:26:39.16	111.29	6.45	-51.1	-66.1	3.8	1.49e+00	0	42	104	0	74	19474
2026-01-14 08:26:42.14	111.04	6.65	-51.1	-66.0	3.8	1.49e+00	0	42	104	0	74	19347
2026-01-14 08:26:45.12	110.78	6.84	-51.1	-66.2	3.8	1.49e+00	0	42	104	0	74	19722
2026-01-14 08:26:48.09	110.53	7.03	-51.1	-66.3	3.8	1.49e+00	0	42	104	0	74	19978
2026-01-14 08:26:51.07	110.27	7.23	-51.1	-66.3	3.8	1.49e+00	0	42	104	0	74	19851
2026-01-14 08:26:54.05	110.00	7.43	-51.1	-65.5	3.8	1.49e+00	0	42	104	0	74	18217
2026-01-14 08:26:57.03	109.74	7.63	-51.0	-64.5	3.8	1.49e+00	0	42	104	0	74	16297
2026-01-14 08:27:00.01	109.47	7.82	-51.1	-66.2	3.8	1.49e+00	0	42	104	0	74	19712
2026-01-14 08:27:02.99	109.19	8.02	-50.8	-61.8	4.5	1.37e+00	0	43	0	0	73	12658
2026-01-14 08:27:05.97	108.91	8.23	-49.6	-55.9	9.1	3.08e-02	0	43	0	5242880	71	7185
2026-01-14 08:27:08.95	108.63	8.43	-48.9	-54.0	11.1	1.81e-03	0	42	0	10485760	69	6427
2026-01-14 08:27:11.93	108.34	8.63	-49.5	-55.4	9.6	6.11e-03	0	43	0	16777216	69	7628
2026-01-14 08:27:14.91	108.05	8.83	-50.8	-61.8	4.5	6.41e-01	0	43	0	22020096	72	13336
2026-01-14 08:27:17.89	107.76	9.04	-51.2	-66.3	3.8	1.49e+00	0	43	104	23068672	73	21192
2026-01-14 08:27:20.87	107.46	9.24	-51.1	-65.6	3.8	1.49e+00	0	43	104	25165824	73	19483
2026-01-14 08:27:24.07	107.13	9.47	-51.1	-65.4	3.8	1.49e+00	0	43	104	25165824	73	19017
2026-01-14 08:27:26.93	106.83	9.67	-51.1	-65.4	3.8	1.49e+00	0	43	104	25165824	73	19005
2026-01-14 08:27:29.98	106.51	9.88	-51.1	-63.6	3.9	1.49e+00	0	43	104	25165824	73	15463
2026-01-14 08:27:32.96	106.20	10.09	-50.2	-57.3	7.8	1.49e+00	0	43	0	26214400	72	7940
2026-01-14 08:27:35.95	105.87	10.30	-49.4	-54.8	10.6	7.18e-03	0	43	0	31457280	70	6674
2026-01-14 08:27:38.93	105.55	10.51	-48.7	-53.2	12.2	3.33e-04	0	43	0	36700160	69	5871
2026-01-14 08:27:41.95	105.21	10.73	-48.4	-52.7	12.8	6.25e-05	0	43	0	42991616	68	5867
2026-01-14 08:27:44.93	104.87	10.94	-48.2	-52.3	13.2	2.05e-05	0	43	0	48234496	68	5623
2026-01-14 08:27:47.91	104.53	11.15	-48.2	-52.2	13.3	1.75e-05	0	43	0	53477376	68	5588
2026-01-14 08:27:50.90	104.18	11.37	-48.2	-52.2	13.4	1.29e-05	0	43	0	59768832	68	5535
2026-01-14 08:27:53.88	103.83	11.58	-48.0	-51.8	13.7	4.50e-06	0	43	0	65011712	68	5340
2026-01-14 08:27:56.83	103.48	11.80	-48.1	-51.9	13.6	1.60e-05	0	43	0	70254592	68	5400
2026-01-14 08:28:00.14	103.07	12.04	-48.0	-51.8	13.8	4.50e-06	0	43	0	76546048	68	5310
2026-01-14 08:28:02.87	102.73	12.24	-47.7	-51.4	14.1	2.20e-06	0	43	0	81788928	67	5360
2026-01-14 08:28:06.14	102.32	12.48	-47.7	-51.3	14.2	0.00e+00	0	43	0	88080384	67	5292
2026-01-14 08:28:08.97	101.96	12.69	-47.7	-51.3	14.2	0.00e+00	0	43	0	93323264	67	5320
2026-01-14 08:28:12.09	101.56	12.92	-47.7	-51.2	14.3	1.50e-06	0	43	0	99614720	67	5277
2026-01-14 08:28:15.23	101.14	13.15	-47.7	-51.4	14.2	1.50e-06	0	43	0	104857600	67	5341
2026-01-14 08:28:18.08	100.76	13.36	-47.6	-51.2	14.4	0.00e+00	0	43	0	110100480	67	5224
2026-01-14 08:28:21.21	100.34	13.60	-47.4	-50.8	14.8	0.00e+00	0	43	0	116391936	66	5311
2026-01-14 08:28:24.05	99.95	13.81	-47.4	-50.7	14.9	0.00e+00	0	43	0	121634816	66	5263
2026-01-14 08:28:27.37	99.48	14.06	-47.2	-50.5	15.1	0.00e+00	0	43	0	127926272	66	5149
2026-01-14 08:28:30.09	99.10	14.26	-47.2	-50.5	15.1	0.00e+00	0	43	0	133169152	66	5120
2026-01-14 08:28:33.36	98.62	14.51	-47.3	-50.6	15.0	0.00e+00	0	43	0	139460608	66	5203
2026-01-14 08:28:36.29	98.19	14.73	-47.4	-50.7	14.9	0.00e+00	0	43	0	144703488	66	5276
2026-01-14 08:28:39.27	97.75	14.96	-47.6	-51.0	14.6	0.00e+00	0	43	0	149946368	66	5449
2026-01-14 08:28:42.26	97.30	15.18	-47.6	-51.0	14.6	0.00e+00	0	43	0	156237824	66	5451
2026-01-14 08:28:45.29	96.83	15.41	-47.7	-51.2	14.5	0.00e+00	0	43	0	161480704	66	5541
2026-01-14 08:28:48.21	96.38	15.63	-47.6	-51.1	14.6	1.50e-06	0	43	0	166723584	66	5470
2026-01-14 08:28:51.20	95.90	15.86	-47.6	-51.1	14.6	7.00e-07	0	43	0	171966464	66	5496
2026-01-14 08:28:54.22	95.42	16.09	-47.8	-51.4	14.3	0.00e+00	0	43	0	178257920	66	5691
2026-01-14 08:28:58.10	94.78	16.39	-47.8	-51.4	14.3	1.50e-06	0	43	0	185597952	66	5713
2026-01-14 08:29:00.95	94.31	16.60	-47.8	-51.4	14.4	7.00e-07	0	43	0	190840832	66	5663
2026-01-14 08:29:05.04	93.61	16.91	-47.9	-51.5	14.2	1.50e-06	0	44	0	198180864	66	5762
2026-01-14 08:29:08.04	93.09	17.14	-48.0	-51.7	14.1	0.00e+00	0	43	0	204472320	66	5863
2026-01-14 08:29:11.34	92.52	17.39	-47.8	-51.5	14.3	0.00e+00	0	43	0	210763776	66	5770
2026-01-14 08:29:14.07	92.03	17.60	-47.8	-51.5	14.3	0.00e+00	0	43	0	214958080	66	5756
2026-01-14 08:29:17.43	91.42	17.85	-47.9	-51.4	14.4	7.00e-07	0	43	0	221249536	66	5713
2026-01-14 08:29:20.15	90.92	18.06	-47.8	-51.3	14.5	7.00e-07	0	43	0	226492416	66	5632
2026-01-14 08:29:23.42	90.31	18.30	-47.7	-51.2	14.6	0.00e+00	0	43	0	232783872	66	5561
2026-01-14 08:29:26.13	89.80	18.50	-47.4	-50.9	14.9	0.00e+00	0	43	0	238026752	66	5367
2026-01-14 08:29:30.25	89.01	18.81	-47.4	-50.7	15.1	0.00e+00	0	43	0	245366784	66	5273
2026-01-14 08:29:33.10	88.45	19.02	-46.9	-50.2	15.6	0.00e+00	0	43	0	250609664	65	5226
2026-01-14 08:29:37.07	87.66	19.31	-46.4	-49.4	16.4	0.00e+00	0	43	0	258998272	64	5076
2026-01-14 08:29:40.06	87.05	19.53	-46.2	-49.2	16.6	0.00e+00	0	43	0	264241152	64	4954
2026-01-14 08:29:43.88	86.27	19.81	-46.1	-49.0	16.8	0.00e+00	0	43	0	271581184	64	4824
2026-01-14 08:29:46.82	85.65	20.02	-46.0	-48.9	16.9	0.00e+00	0	43	0	276824064	64	4770
2026-01-14 08:29:50.95	84.78	20.31	-46.1	-48.9	16.9	0.00e+00	0	43	0	284164096	64	4797
2026-01-14 08:29:53.80	84.16	20.51	-46.0	-48.8	17.1	0.00e+00	0	43	0	289406976	63	5023
2026-01-14 08:29:57.78	83.29	20.79	-45.9	-48.6	17.2	0.00e+00	0	43	0	297795584	63	4922
2026-01-14 08:30:00.62	82.65	20.98	-45.8	-48.5	17.4	0.00e+00	0	43	0	303038464	63	4820
2026-01-14 08:30:05.12	81.64	21.29	-46.0	-48.8	17.1	0.00e+00	0	43	0	311427072	63	4984
2026-01-14 08:30:08.02	80.97	21.48	-46.0	-48.6	17.2	0.00e+00	0	43	0	316669952	63	4920
2026-01-14 08:30:11.00	80.27	21.67	-46.1	-48.8	17.1	0.00e+00	0	43	0	321912832	63	5024
2026-01-14 08:30:13.99	79.57	21.87	-46.0	-48.7	17.2	0.00e+00	0	44	0	328204288	63	4967
2026-01-14 08:30:16.97	78.86	22.05	-46.2	-48.9	17.0	0.00e+00	0	43	0	333447168	63	5077
2026-01-14 08:30:19.95	78.14	22.24	-46.2	-48.9	17.0	0.00e+00	0	43	0	338690048	63	5084
2026-01-14 08:30:22.93	77.41	22.42	-46.0	-48.7	17.3	0.00e+00	0	43	0	344981504	63	4951
2026-01-14 08:30:25.87	76.68	22.60	-45.9	-48.5	17.4	0.00e+00	0	43	0	350224384	63	4863
2026-01-14 08:30:29.00	75.90	22.78	-46.0	-48.7	17.3	0.00e+00	0	43	0	355467264	63	4927
2026-01-14 08:30:31.84	75.18	22.94	-45.9	-48.5	17.4	0.00e+00	0	43	0	360710144	63	4868
2026-01-14 08:30:35.00	74.37	23.12	-45.8	-48.4	17.5	0.00e+00	0	44	0	367001600	63	4800
2026-01-14 08:30:37.84	73.63	23.27	-45.5	-48.0	17.9	0.00e+00	0	43	0	372244480	63	4576
2026-01-14 08:30:41.09	72.79	23.44	-45.5	-48.0	17.9	0.00e+00	0	43	0	378535936	63	4563
2026-01-14 08:30:44.22	71.96	23.60	-45.7	-48.2	17.8	0.00e+00	0	43	0	384827392	63	4705
2026-01-14 08:30:47.06	71.20	23.74	-46.1	-48.7	17.3	0.00e+00	0	44	0	390070272	63	4975
2026-01-14 08:30:50.19	70.36	23.89	-46.2	-48.9	17.2	0.00e+00	0	44	0	395313152	63	5065
2026-01-14 08:30:53.03	69.59	24.01	-46.2	-48.9	17.2	0.00e+00	0	43	0	400556032	63	5061
2026-01-14 08:30:56.33	68.69	24.16	-46.4	-49.1	17.0	0.00e+00	0	43	0	406847488	63	5174
2026-01-14 08:30:59.31	67.86	24.28	-46.7	-49.5	16.4	0.00e+00	0	44	0	413138944	64	5148
2026-01-14 08:31:02.30	67.03	24.40	-46.8	-49.7	16.3	0.00e+00	0	43	0	418381824	64	5262
2026-01-14 08:31:05.28	66.20	24.51	-47.0	-49.9	16.1	0.00e+00	0	43	0	423624704	64	5393
2026-01-14 08:31:08.27	65.35	24.62	-47.2	-50.2	15.8	0.00e+00	0	43	0	429916160	64	5561
2026-01-14 08:31:11.60	64.41	24.73	-47.3	-50.4	15.6	0.00e+00	0	43	0	436207616	65	5383
2026-01-14 08:31:14.30	63.63	24.81	-47.3	-50.4	15.6	0.00e+00	0	44	0	440401920	65	5382
2026-01-14 08:31:17.57	62.69	24.90	-47.3	-50.4	15.7	0.00e+00	0	43	0	446693376	65	5373
2026-01-14 08:31:20.30	61.91	24.98	-47.6	-50.9	15.2	0.00e+00	0	44	0	451936256	65	5674
2026-01-14 08:31:23.65	60.93	25.06	-47.6	-50.8	15.2	0.00e+00	0	43	0	458227712	66	5324
2026-01-14 08:31:26.71	60.04	25.12	-47.4	-50.6	15.5	0.00e+00	0	44	0	464519168	66	5177
2026-01-14 08:31:29.56	59.21	25.18	-47.4	-50.5	15.5	0.00e+00	0	43	0	469762048	66	5146
2026-01-14 08:31:32.68	58.29	25.23	-47.5	-50.7	15.4	0.00e+00	0	43	0	475004928	66	5242
2026-01-14 08:31:35.52	57.45	25.27	-47.6	-50.8	15.2	0.00e+00	0	43	0	480247808	66	5333
2026-01-14 08:31:38.65	56.53	25.31	-47.4	-50.6	15.4	0.00e+00	0	44	0	486539264	66	5205
2026-01-14 08:31:41.72	55.62	25.33	-47.0	-49.9	16.1	0.00e+00	0	44	0	491782144	66	4809
2026-01-14 08:31:44.83	54.70	25.36	-47.2	-50.2	15.8	0.00e+00	0	44	0	498073600	65	5258
2026-01-14 08:31:47.84	53.81	25.37	-46.8	-49.8	16.2	0.00e+00	0	44	0	503316480	65	4986
2026-01-14 08:31:50.83	52.92	25.37	-46.7	-49.6	16.5	0.00e+00	0	43	0	509607936	65	4888
2026-01-14 08:31:53.81	52.03	25.37	-46.5	-49.3	16.7	0.00e+00	0	43	0	514850816	65	4722
2026-01-14 08:31:56.80	51.15	25.36	-46.2	-48.9	17.0	0.00e+00	0	43	0	520093696	64	4801
2026-01-14 08:31:59.84	50.25	25.34	-46.0	-48.6	17.3	0.00e+00	0	44	0	526385152	64	4649
2026-01-14 08:32:02.83	49.36	25.32	-46.2	-48.8	17.3	0.00e+00	0	43	0	531628032	63	5011
2026-01-14 08:32:05.96	48.44	25.28	-45.8	-48.3	17.8	0.00e+00	0	44	0	537919488	63	4710
2026-01-14 08:32:08.80	47.60	25.24	-45.7	-48.2	17.8	0.00e+00	0	44	0	543162368	63	4705
2026-01-14 08:32:11.93	46.68	25.19	-45.6	-48.1	18.0	0.00e+00	0	43	0	548405248	63	4608
2026-01-14 08:32:14.85	45.82	25.14	-45.7	-48.2	17.9	0.00e+00	0	43	0	554696704	63	4656
2026-01-14 08:32:17.98	44.91	25.08	-45.8	-48.4	17.7	0.00e+00	0	44	0	559939584	63	4761
2026-01-14 08:32:20.82	44.09	25.01	-46.0	-48.6	17.5	0.00e+00	0	44	0	565182464	63	4885
2026-01-14 08:32:23.95	43.18	24.93	-46.0	-48.6	17.5	0.00e+00	0	44	0	571473920	63	4901
2026-01-14 08:32:26.79	42.36	24.85	-46.0	-48.6	17.5	0.00e+00	0	44	0	576716800	63	4920
2026-01-14 08:32:30.03	41.44	24.76	-46.4	-49.1	17.0	0.00e+00	0	43	0	583008256	63	5199
2026-01-14 08:32:32.93	40.61	24.66	-46.4	-49.2	17.0	0.00e+00	0	44	0	588251136	63	5220
2026-01-14 08:32:36.06	39.73	24.56	-46.6	-49.4	16.7	0.00e+00	0	44	0	594542592	63	5370
2026-01-14 08:32:38.91	38.93	24.45	-46.6	-49.5	16.6	0.00e+00	0	44	0	599785472	64	5137
2026-01-14 08:32:42.03	38.06	24.33	-46.8	-49.6	16.4	0.00e+00	0	44	0	605028352	64	5210
2026-01-14 08:32:44.88	37.27	24.22	-47.0	-50.0	16.1	0.00e+00	0	44	0	610271232	64	5421
2026-01-14 08:32:48.05	36.41	24.08	-47.0	-50.0	16.1	0.00e+00	0	44	0	616562688	64	5407
2026-01-14 08:32:50.96	35.61	23.95	-47.1	-50.1	15.9	0.00e+00	0	43	0	621805568	64	5518
2026-01-14 08:32:54.08	34.77	23.81	-47.1	-50.3	15.8	0.00e+00	0	44	0	628097024	65	5330
2026-01-14 08:32:56.94	34.01	23.67	-47.4	-50.7	15.4	0.00e+00	0	44	0	633339904	65	5570
2026-01-14 08:33:00.00	33.20	23.52	-47.1	-50.3	15.8	0.00e+00	0	43	0	638582784	65	5294
2026-01-14 08:33:03.13	32.38	23.36	-47.2	-50.4	15.7	0.00e+00	0	44	0	644874240	65	5363
2026-01-14 08:33:06.34	31.55	23.19	-47.2	-50.4	15.6	0.00e+00	0	44	0	651165696	65	5402
2026-01-14 08:33:09.18	30.82	23.03	-47.5	-50.8	15.3	0.00e+00	0	43	0	656408576	65	5624
2026-01-14 08:33:12.31	30.03	22.86	-47.4	-50.6	15.5	0.00e+00	0	43	0	661651456	65	5483
2026-01-14 08:33:15.15	29.32	22.69	-47.3	-50.5	15.6	0.00e+00	0	44	0	666894336	65	5412
2026-01-14 08:33:18.42	28.51	22.50	-47.3	-50.5	15.6	0.00e+00	0	44	0	673185792	65	5432
2026-01-14 08:33:21.12	27.84	22.34	-47.1	-50.2	15.9	0.00e+00	0	44	0	678428672	65	5252
2026-01-14 08:33:25.03	26.90	22.10	-46.9	-49.9	16.2	0.00e+00	0	44	0	685768704	65	5044
2026-01-14 08:33:27.87	26.22	21.92	-46.7	-49.7	16.4	0.00e+00	0	44	0	691011584	65	4951
2026-01-14 08:33:31.96	25.26	21.66	-46.3	-49.4	16.7	0.00e+00	0	44	0	699400192	64	5047
2026-01-14 08:33:34.80	24.60	21.47	-46.4	-49.3	16.7	0.00e+00	0	44	0	704643072	64	5018
2026-01-14 08:33:39.18	23.60	21.18	-46.4	-49.3	16.7	0.00e+00	0	43	0	711983104	64	5030
2026-01-14 08:33:42.13	22.94	20.98	-46.4	-49.3	16.8	0.00e+00	0	43	0	718274560	64	4996
2026-01-14 08:33:46.11	22.06	20.71	-46.5	-49.4	16.6	0.00e+00	0	44	0	725614592	64	5099
2026-01-14 08:33:48.96	21.44	20.51	-46.6	-49.6	16.5	0.00e+00	0	44	0	730857472	64	5160
2026-01-14 08:33:52.72	20.64	20.25	-46.5	-49.3	16.8	0.00e+00	0	44	0	738197504	64	4990
2026-01-14 08:33:55.43	20.06	20.06	-46.3	-49.1	16.9	0.00e+00	0	44	0	743440384	64	4924
2026-01-14 08:33:58.85	19.35	19.81	-46.2	-49.0	17.0	0.00e+00	0	44	0	749731840	64	4844
2026-01-14 08:34:01.54	18.80	19.62	-46.0	-48.8	17.2	0.00e+00	0	44	0	753926144	64	4732
2026-01-14 08:34:04.83	18.14	19.38	-46.0	-48.7	17.4	0.00e+00	0	44	0	760217600	63	4956
2026-01-14 08:34:07.53	17.60	19.18	-46.0	-48.7	17.3	0.00e+00	0	44	0	765460480	63	4973
2026-01-14 08:34:10.80	16.96	18.94	-45.8	-48.4	17.6	0.00e+00	0	44	0	771751936	63	4794
2026-01-14 08:34:13.52	16.43	18.74	-45.7	-48.3	17.8	0.00e+00	0	44	0	776994816	63	4717
2026-01-14 08:34:16.81	15.80	18.50	-45.8	-48.4	17.7	0.00e+00	0	43	0	783286272	63	4760
2026-01-14 08:34:19.57	15.29	18.29	-45.8	-48.4	17.6	0.00e+00	0	44	0	788529152	63	4778
2026-01-14 08:34:22.86	14.68	18.05	-45.6	-48.2	17.8	0.00e+00	0	43	0	794820608	63	4693
2026-01-14 08:34:25.61	14.18	17.84	-45.6	-48.2	17.8	0.00e+00	0	43	0	800063488	63	4701
2026-01-14 08:34:29.25	13.52	17.57	-45.7	-48.5	17.6	0.00e+00	0	44	0	806354944	63	4827
2026-01-14 08:34:32.29	12.99	17.34	-45.6	-48.4	17.6	0.00e+00	0	43	0	811597824	63	4799
2026-01-14 08:34:35.42	12.45	17.10	-45.7	-48.4	17.6	0.00e+00	0	43	0	817889280	63	4813
2026-01-14 08:34:38.26	11.96	16.89	-45.9	-48.5	17.5	0.00e+00	0	44	0	823132160	63	4863
2026-01-14 08:34:41.39	11.43	16.65	-45.8	-48.7	17.4	0.00e+00	0	44	0	829423616	63	4932
2026-01-14 08:34:44.23	10.96	16.44	-45.7	-48.7	17.3	0.00e+00	0	44	0	834666496	63	4949
2026-01-14 08:34:47.36	10.45	16.20	-46.0	-48.9	17.1	0.00e+00	0	44	0	839909376	63	5083
2026-01-14 08:34:50.20	10.00	15.98	-46.3	-49.4	16.6	0.00e+00	0	43	0	845152256	63	5383
2026-01-14 08:34:53.33	9.50	15.75	-46.3	-49.7	16.3	0.00e+00	0	44	0	851443712	63	5589
2026-01-14 08:34:56.17	9.06	15.53	-46.4	-49.7	16.4	0.00e+00	0	44	0	856686592	63	5543
2026-01-14 08:34:59.44	8.56	15.29	-46.5	-49.5	16.5	0.00e+00	0	44	0	862978048	64	5119
2026-01-14 08:35:02.35	8.12	15.07	-46.6	-49.8	16.2	0.00e+00	0	44	0	868220928	64	5287
2026-01-14 08:35:05.54	7.64	14.83	-46.7	-49.9	16.1	0.00e+00	0	44	0	874512384	64	5367
2026-01-14 08:35:08.38	7.23	14.61	-46.7	-49.8	16.2	0.00e+00	0	44	0	879755264	64	5285
2026-01-14 08:35:11.51	6.78	14.38	-46.7	-49.9	16.1	0.00e+00	0	44	0	886046720	64	5365
2026-01-14 08:35:14.35	6.37	14.17	-46.4	-50.0	16.0	0.00e+00	0	44	0	891289600	64	5436
2026-01-14 08:35:17.48	5.94	13.93	-46.6	-50.3	15.7	0.00e+00	0	44	0	896532480	64	5602
2026-01-14 08:35:20.32	5.55	13.72	-46.8	-50.2	15.8	0.00e+00	0	44	0	901775360	64	5551
2026-01-14 08:35:23.50	5.12	13.48	-46.8	-50.2	15.7	0.00e+00	0	44	0	908066816	64	5584
2026-01-14 08:35:26.34	4.74	13.27	-46.8	-50.5	15.5	0.00e+00	0	44	0	913309696	64	5762
2026-01-14 08:35:29.47	4.33	13.04	-47.1	-50.7	15.3	0.00e+00	0	43	0	919601152	64	5879
2026-01-14 08:35:32.31	3.96	12.83	-47.2	-50.5	15.4	0.00e+00	0	44	0	924844032	65	5459
2026-01-14 08:35:35.44	3.56	12.60	-47.3	-50.6	15.4	0.00e+00	0	44	0	930086912	65	5472
2026-01-14 08:35:38.28	3.20	12.39	-47.5	-50.9	15.1	7.00e-07	0	44	0	935329792	65	5660
2026-01-14 08:35:41.46	2.81	12.16	-47.4	-51.0	14.9	0.00e+00	0	44	0	941621248	65	5763
2026-01-14 08:35:44.29	2.47	11.96	-47.5	-51.2	14.7	0.00e+00	0	44	0	946864128	65	5900
2026-01-14 08:35:47.42	2.09	11.73	-47.6	-51.4	14.5	7.00e-07	0	44	0	953155584	65	6011
2026-01-14 08:35:50.27	1.76	11.52	-47.3	-51.7	14.2	3.00e-06	0	44	0	958398464	65	6239
2026-01-14 08:35:53.40	1.39	11.30	-47.2	-51.9	14.0	3.00e-06	0	44	0	963641344	65	6419
2026-01-14 08:35:56.28	1.06	11.09	-47.6	-51.9	14.0	1.50e-06	0	44	0	969932800	65	6420
2026-01-14 08:35:59.46	0.70	10.86	-48.0	-52.0	14.0	7.00e-07	0	44	0	975175680	66	6069
2026-01-14 08:36:02.31	0.39	10.66	-48.0	-51.9	14.0	1.50e-06	0	44	0	980418560	66	6031
2026-01-14 08:36:05.56	0.03	10.43	-47.9	-52.0	13.9	3.80e-06	0	44	0	986710016	66	6074
2026-01-14 08:36:08.42	359.73	10.23	-47.7	-52.0	13.9	3.00e-06	0	44	0	991952896	66	6095
2026-01-14 08:36:11.54	359.39	10.01	-47.7	-51.9	14.0	2.20e-06	0	44	0	998244352	66	6030
2026-01-14 08:36:14.38	359.10	9.81	-47.9	-52.0	13.9	1.50e-06	0	44	0	1003487232	66	6113
2026-01-14 08:36:17.51	358.77	9.60	-47.6	-52.0	13.9	3.00e-06	0	44	0	1009778688	66	6092
2026-01-14 08:36:20.42	358.48	9.40	-47.2	-52.2	13.7	2.20e-06	0	44	0	1015021568	66	6206
2026-01-14 08:36:23.55	358.17	9.18	-46.9	-52.3	13.5	6.80e-06	0	44	0	1020264448	65	6709
2026-01-14 08:36:26.39	357.89	8.98	-47.0	-52.9	12.9	4.04e-05	0	44	0	1025507328	65	7184
2026-01-14 08:36:29.51	357.58	8.77	-52.1	-67.5	3.8	1.49e+00	0	44	104	1027604480	74	22984
2026-01-14 08:36:32.35	357.31	8.58	-51.3	-67.7	3.8	1.49e+00	0	44	104	1027604480	74	23518
2026-01-14 08:36:35.50	357.01	8.37	-52.4	-67.8	3.8	1.49e+00	0	44	104	1027604480	75	22263
2026-01-14 08:36:38.45	356.74	8.17	-52.6	-67.8	3.8	1.49e+00	0	44	104	1027604480	75	22432
2026-01-14 08:36:41.63	356.45	7.95	-52.7	-67.8	3.8	1.49e+00	0	44	104	1027604480	76	21165
2026-01-14 08:36:44.47	356.19	7.77	-52.6	-67.8	3.8	1.49e+00	0	44	104	1027604480	76	21224
2026-01-14 08:36:47.60	355.91	7.56	-52.8	-67.9	3.8	1.49e+00	0	44	104	1027604480	76	21301
2026-01-14 08:36:50.44	355.66	7.37	-52.7	-67.9	3.8	1.49e+00	0	44	104	1027604480	76	21359
2026-01-14 08:36:53.56	355.39	7.17	-52.6	-67.9	3.8	1.49e+00	0	44	104	1027604480	76	21348
2026-01-14 08:36:56.44	355.15	6.98	-52.4	-67.8	3.8	1.49e+00	0	44	104	1027604480	76	21169
2026-01-14 08:36:59.66	354.88	6.77	-52.4	-67.8	3.8	1.49e+00	0	44	104	1027604480	76	21140
2026-01-14 08:37:02.50	354.64	6.58	-52.4	-67.8	3.8	1.49e+00	0	44	104	1027604480	76	21176
2026-01-14 08:37:05.62	354.39	6.38	-52.4	-67.8	3.8	1.49e+00	0	44	104	1027604480	76	21128
2026-01-14 08:37:08.46	354.16	6.20	-52.4	-67.8	3.8	1.49e+00	0	44	104	1027604480	76	21185
2026-01-14 08:37:11.58	353.91	6.00	-52.4	-67.8	3.8	1.49e+00	0	44	104	1027604480	76	21122
2026-01-14 08:37:14.42	353.69	5.82	-52.4	-67.8	3.8	1.49e+00	0	44	104	1027604480	76	21046
2026-01-14 08:37:17.54	353.44	5.62	-52.4	-67.8	3.8	1.49e+00	0	44	104	1027604480	76	21132
2026-01-14 08:37:20.39	353.23	5.44	-52.4	-67.8	3.8	1.49e+00	0	44	104	1027604480	76	21116
2026-01-14 08:37:23.51	352.99	5.25	-52.4	-67.8	3.8	1.49e+00	0	44	104	1027604480	76	21033
2026-01-14 08:37:26.34	352.78	5.07	-52.4	-67.8	3.8	1.49e+00	0	44	104	1027604480	76	21042

#Closed at: 2026-01-14 08:37:28
#Recorded file [1027 MB]: D:/Data/31040_260114_112618.dat