passes_logs/2026/01/14/T1/T1__20260114_055918_FENGYUN_3E_rec.log

#Pass ID: 20260114_055918_FENGYUN 3E
#Satellite: FENGYUN 3E
#Configuration: FENGYUN 3E
#almurnet v.1.7.20251203
#Start time: 2026-01-14 05:59:20

#Version: 2.0.20230620
#Station: T1
#Location: 37.570604 lon 55.790049 lat
#TLE: 1 49008U 21062A   26013.31447241  .00000001  00000+0  21294-4 0  9992
#TLE: 2 49008  98.7491  18.4630 0001950 139.8565 220.2756 14.19884983234609

#Time	Az	El	Level	Level2	SNR	BER	BlckErr	Temp	State	Recorded	gain1	gain2
2026-01-14 05:59:20.93	4.31	5.12	-49.3	-63.1	3.8	8.47e-01	0	37	0	0	68	18186
2026-01-14 05:59:23.92	4.02	5.29	-49.0	-62.8	3.8	8.48e-01	0	38	104	0	67	18597
2026-01-14 05:59:26.91	3.73	5.45	-49.0	-62.8	3.8	8.47e-01	0	37	104	0	67	18613
2026-01-14 05:59:29.90	3.44	5.62	-49.0	-62.7	3.8	8.48e-01	0	38	104	0	67	18497
2026-01-14 05:59:32.89	3.14	5.79	-49.0	-62.8	3.8	8.47e-01	0	38	104	0	67	18530
2026-01-14 05:59:35.88	2.84	5.95	-49.0	-62.8	3.8	8.46e-01	0	38	104	0	67	18554
2026-01-14 05:59:38.86	2.54	6.12	-49.0	-62.8	3.8	8.47e-01	0	38	104	0	67	18652
2026-01-14 05:59:41.85	2.23	6.29	-49.0	-62.8	3.8	8.46e-01	0	38	104	0	67	18650
2026-01-14 05:59:44.84	1.92	6.46	-49.0	-62.8	3.8	8.47e-01	0	39	104	0	67	18685
2026-01-14 05:59:47.83	1.60	6.63	-49.0	-62.8	3.8	8.48e-01	0	39	104	0	67	18688
2026-01-14 05:59:50.82	1.29	6.80	-49.1	-62.7	3.8	8.48e-01	0	39	104	0	67	18432
2026-01-14 05:59:53.81	0.96	6.97	-49.1	-62.6	3.8	8.46e-01	0	39	104	0	67	18260
2026-01-14 05:59:56.80	0.63	7.13	-49.0	-62.0	3.8	8.46e-01	0	39	104	0	67	16924
2026-01-14 05:59:59.79	0.30	7.30	-49.0	-61.9	3.8	8.46e-01	0	39	104	0	67	16849
2026-01-14 06:00:02.77	359.97	7.47	-49.1	-62.4	3.8	8.46e-01	0	39	104	0	67	17835
2026-01-14 06:00:05.76	359.63	7.64	-49.1	-62.0	3.8	8.46e-01	0	39	104	0	67	16993
2026-01-14 06:00:08.75	359.29	7.81	-49.1	-62.2	3.8	8.46e-01	0	39	104	0	67	17433
2026-01-14 06:00:11.74	358.94	7.99	-49.1	-62.0	3.8	8.46e-01	0	39	104	0	67	17051
2026-01-14 06:00:14.73	358.59	8.16	-49.1	-62.7	3.8	8.46e-01	0	39	104	0	67	18311
2026-01-14 06:00:17.73	358.23	8.33	-48.8	-58.6	4.4	8.38e-01	0	39	0	0	67	11482
2026-01-14 06:00:20.72	357.87	8.50	-47.6	-53.1	8.5	5.79e-02	0	39	0	13631488	66	6457
2026-01-14 06:00:23.72	357.51	8.67	-46.6	-50.7	11.0	1.53e-03	0	39	0	35651584	64	5477
2026-01-14 06:00:26.70	357.14	8.84	-45.9	-49.2	12.6	6.63e-05	0	40	0	57671680	62	5191
2026-01-14 06:00:29.69	356.76	9.01	-46.2	-49.7	12.1	1.41e-04	0	40	0	78643200	62	5490
2026-01-14 06:00:32.69	356.38	9.18	-44.2	-46.6	15.0	1.38e-01	0	40	0	93323264	59	4587
2026-01-14 06:00:35.68	356.00	9.35	-43.1	-45.4	16.2	3.40e-06	0	40	0	114294784	57	4481
2026-01-14 06:00:38.68	355.61	9.52	-42.9	-45.1	16.6	0.00e+00	0	40	0	136314880	56	4595
2026-01-14 06:00:41.67	355.22	9.70	-43.2	-45.4	16.4	0.00e+00	0	40	0	158334976	56	4710
2026-01-14 06:00:44.66	354.82	9.87	-43.5	-45.9	15.9	0.00e+00	0	40	0	179306496	56	4991
2026-01-14 06:00:47.65	354.42	10.04	-43.6	-45.6	16.1	0.00e+00	0	40	0	201326592	56	4866
2026-01-14 06:00:50.63	354.02	10.21	-43.5	-45.3	16.5	0.00e+00	0	40	0	223346688	56	4653
2026-01-14 06:00:53.62	353.61	10.38	-43.5	-45.0	16.8	0.00e+00	0	40	0	244318208	56	4525
2026-01-14 06:00:56.61	353.19	10.55	-43.3	-44.8	17.0	0.00e+00	0	40	0	266338304	56	4408
2026-01-14 06:00:59.61	352.77	10.72	-43.0	-44.7	17.1	0.00e+00	0	40	0	287309824	56	4363
2026-01-14 06:01:02.59	352.34	10.88	-42.8	-44.6	17.2	0.00e+00	0	40	0	309329920	56	4301
2026-01-14 06:01:05.58	351.91	11.05	-42.8	-44.5	17.2	0.00e+00	0	40	0	330301440	56	4272
2026-01-14 06:01:08.58	351.47	11.22	-42.8	-44.5	17.2	0.00e+00	0	40	0	352321536	56	4283
2026-01-14 06:01:11.57	351.03	11.39	-43.1	-44.7	17.1	0.00e+00	0	40	0	374341632	56	4359
2026-01-14 06:01:14.56	350.59	11.56	-43.3	-44.8	17.0	0.00e+00	0	40	0	395313152	56	4435
2026-01-14 06:01:17.55	350.13	11.72	-43.3	-44.9	16.9	0.00e+00	0	40	0	417333248	56	4465
2026-01-14 06:01:20.55	349.68	11.89	-43.1	-44.8	17.0	0.00e+00	0	40	0	439353344	56	4414
2026-01-14 06:01:23.55	349.21	12.05	-42.8	-44.6	17.2	0.00e+00	0	40	0	460324864	56	4316
2026-01-14 06:01:26.55	348.74	12.22	-42.9	-44.7	17.1	0.00e+00	0	40	0	482344960	56	4372
2026-01-14 06:01:29.56	348.27	12.38	-42.7	-44.4	17.4	0.00e+00	0	40	0	504365056	56	4224
2026-01-14 06:01:32.56	347.79	12.55	-42.8	-44.4	17.4	0.00e+00	0	40	0	525336576	56	4229
2026-01-14 06:01:35.57	347.30	12.71	-43.1	-44.5	17.3	0.00e+00	0	40	0	547356672	56	4263
2026-01-14 06:01:38.57	346.81	12.87	-43.1	-44.5	17.4	0.00e+00	0	40	0	568328192	56	4258
2026-01-14 06:01:41.57	346.31	13.03	-42.9	-44.3	17.6	0.00e+00	0	40	0	590348288	56	4148
2026-01-14 06:01:44.57	345.81	13.19	-42.8	-44.1	17.8	0.00e+00	0	40	0	612368384	56	4058
2026-01-14 06:01:47.57	345.30	13.35	-42.8	-44.0	17.8	0.00e+00	0	40	0	633339904	56	4032
2026-01-14 06:01:50.57	344.79	13.51	-43.0	-44.2	17.6	0.00e+00	0	40	0	655360000	56	4125
2026-01-14 06:01:53.58	344.27	13.66	-42.7	-44.0	17.8	0.00e+00	0	40	0	677380096	56	4033
2026-01-14 06:01:56.58	343.74	13.82	-42.3	-43.7	18.0	0.00e+00	0	40	0	699400192	55	4110
2026-01-14 06:01:59.58	343.21	13.97	-42.1	-43.4	18.2	0.00e+00	0	40	0	720371712	54	4235
2026-01-14 06:02:02.59	342.67	14.12	-42.1	-43.4	18.3	0.00e+00	0	40	0	742391808	54	4224
2026-01-14 06:02:05.60	342.13	14.27	-42.1	-43.4	18.3	0.00e+00	0	40	0	764411904	54	4221
2026-01-14 06:02:08.61	341.58	14.42	-42.2	-43.5	18.2	0.00e+00	0	40	0	785383424	54	4244
2026-01-14 06:02:11.62	341.03	14.57	-42.2	-43.5	18.2	0.00e+00	0	40	0	807403520	54	4269
2026-01-14 06:02:14.62	340.47	14.71	-42.2	-43.4	18.3	0.00e+00	0	40	0	829423616	54	4216
2026-01-14 06:02:17.62	339.91	14.85	-42.2	-43.3	18.4	0.00e+00	0	40	0	850395136	54	4184
2026-01-14 06:02:20.62	339.34	14.99	-42.3	-43.4	18.3	0.00e+00	0	40	0	872415232	54	4220
2026-01-14 06:02:23.63	338.76	15.13	-42.0	-43.2	18.5	0.00e+00	0	40	0	894435328	54	4112
2026-01-14 06:02:26.63	338.18	15.27	-42.0	-43.2	18.5	0.00e+00	0	40	0	915406848	54	4105
2026-01-14 06:02:29.64	337.59	15.40	-42.0	-43.1	18.6	0.00e+00	0	40	0	937426944	54	4052
2026-01-14 06:02:32.65	337.00	15.53	-42.1	-43.3	18.4	0.00e+00	0	40	0	959447040	54	4170
2026-01-14 06:02:35.65	336.41	15.66	-42.3	-43.4	18.4	0.00e+00	0	40	0	981467136	54	4211
2026-01-14 06:02:38.65	335.80	15.79	-42.3	-43.4	18.3	0.00e+00	0	40	0	1002438656	54	4241
2026-01-14 06:02:41.66	335.20	15.91	-42.1	-43.4	18.4	0.00e+00	0	40	0	1024458752	54	4195
2026-01-14 06:02:44.66	334.58	16.04	-42.0	-43.2	18.6	0.00e+00	0	40	0	1046478848	54	4107
2026-01-14 06:02:47.67	333.97	16.16	-42.1	-43.2	18.6	0.00e+00	0	40	0	1067450368	54	4119
2026-01-14 06:02:50.67	333.34	16.27	-41.9	-43.1	18.7	0.00e+00	0	40	0	1089470464	54	4053
2026-01-14 06:02:53.67	332.72	16.38	-41.4	-42.6	19.1	0.00e+00	0	40	0	1110441984	53	4068
2026-01-14 06:02:56.68	332.09	16.49	-41.5	-42.6	19.1	0.00e+00	0	40	0	1132462080	53	4083
2026-01-14 06:02:59.68	331.45	16.60	-41.7	-42.7	19.0	0.00e+00	0	40	0	1154482176	53	4141
2026-01-14 06:03:02.69	330.81	16.71	-41.7	-42.8	19.0	0.00e+00	0	40	0	1176502272	53	4156
2026-01-14 06:03:05.69	330.16	16.81	-41.7	-42.9	18.9	0.00e+00	0	40	0	1197473792	53	4195
2026-01-14 06:03:08.69	329.51	16.90	-41.8	-42.9	18.9	0.00e+00	0	40	0	1219493888	53	4200
2026-01-14 06:03:11.69	328.86	17.00	-42.0	-43.1	18.7	0.00e+00	0	40	0	1241513984	53	4301
2026-01-14 06:03:14.69	328.20	17.09	-41.9	-43.0	18.8	0.00e+00	0	40	0	1262485504	53	4275
2026-01-14 06:03:17.70	327.54	17.18	-41.7	-42.8	18.9	0.00e+00	0	40	0	1284505600	53	4183
2026-01-14 06:03:20.70	326.87	17.26	-41.7	-42.8	19.0	0.00e+00	0	40	0	1306525696	53	4180
2026-01-14 06:03:23.70	326.21	17.34	-41.5	-42.7	19.1	0.00e+00	0	40	0	1327497216	53	4108
2026-01-14 06:03:26.70	325.53	17.41	-41.6	-42.7	19.0	0.00e+00	0	40	0	1349517312	53	4143
2026-01-14 06:03:29.71	324.86	17.49	-41.7	-42.8	19.0	0.00e+00	0	40	0	1371537408	53	4154
2026-01-14 06:03:32.72	324.17	17.55	-41.4	-42.5	19.3	0.00e+00	0	40	0	1392508928	53	4015
2026-01-14 06:03:35.72	323.49	17.62	-41.4	-42.4	19.4	0.00e+00	0	40	0	1414529024	53	3974
2026-01-14 06:03:38.73	322.81	17.68	-41.2	-42.2	19.5	0.00e+00	0	40	0	1436549120	53	3906
2026-01-14 06:03:41.73	322.12	17.73	-41.2	-42.2	19.5	0.00e+00	0	40	0	1457520640	53	3881
2026-01-14 06:03:44.74	321.43	17.79	-41.1	-42.1	19.6	0.00e+00	0	40	0	1479540736	53	3848
2026-01-14 06:03:47.75	320.73	17.83	-41.1	-42.2	19.6	0.00e+00	0	40	0	1501560832	53	3871
2026-01-14 06:03:50.75	320.04	17.88	-41.3	-42.3	19.4	0.00e+00	0	40	0	1523580928	53	3946
2026-01-14 06:03:53.76	319.34	17.92	-41.3	-42.4	19.4	0.00e+00	0	40	0	1544552448	53	3959
2026-01-14 06:03:56.76	318.64	17.95	-41.2	-42.3	19.5	0.00e+00	0	40	0	1566572544	53	3925
2026-01-14 06:03:59.77	317.94	17.98	-41.2	-42.3	19.5	0.00e+00	0	40	0	1588592640	53	3920
2026-01-14 06:04:02.77	317.24	18.01	-41.1	-42.1	19.6	0.00e+00	0	40	0	1609564160	52	4083
2026-01-14 06:04:05.77	316.53	18.03	-40.9	-41.9	19.8	0.00e+00	0	40	0	1631584256	52	3993
2026-01-14 06:04:08.78	315.83	18.05	-41.0	-42.0	19.8	0.00e+00	0	40	0	1652555776	52	4017
2026-01-14 06:04:11.78	315.12	18.06	-40.9	-41.8	19.9	0.00e+00	0	40	0	1674575872	52	3953
2026-01-14 06:04:14.78	314.42	18.07	-41.0	-42.0	19.7	0.00e+00	0	40	0	1696595968	52	4030
2026-01-14 06:04:17.78	313.71	18.07	-41.2	-42.2	19.6	0.00e+00	0	40	0	1717567488	52	4106
2026-01-14 06:04:20.79	313.01	18.07	-41.1	-42.1	19.6	0.00e+00	0	40	0	1739587584	52	4077
2026-01-14 06:04:23.79	312.30	18.06	-41.2	-42.2	19.5	0.00e+00	0	40	0	1761607680	52	4110
2026-01-14 06:04:26.79	311.60	18.05	-41.3	-42.3	19.4	0.00e+00	0	40	0	1783627776	52	4165
2026-01-14 06:04:29.80	310.89	18.04	-41.2	-42.2	19.5	0.00e+00	0	40	0	1804599296	52	4133
2026-01-14 06:04:32.80	310.19	18.02	-41.2	-42.3	19.5	0.00e+00	0	40	0	1826619392	52	4146
2026-01-14 06:04:35.81	309.48	18.00	-41.2	-42.2	19.6	0.00e+00	0	40	0	1848639488	52	4118
2026-01-14 06:04:38.81	308.78	17.97	-41.3	-42.3	19.5	0.00e+00	0	40	0	1869611008	52	4159
2026-01-14 06:04:41.82	308.08	17.94	-41.3	-42.3	19.4	0.00e+00	0	40	0	1891631104	52	4173
2026-01-14 06:04:44.82	307.38	17.90	-41.0	-42.0	19.7	0.00e+00	0	40	0	1913651200	52	4051
2026-01-14 06:04:47.82	306.68	17.86	-41.1	-42.1	19.6	0.00e+00	0	40	0	1934622720	52	4079
2026-01-14 06:04:50.81	305.99	17.82	-41.2	-42.2	19.6	0.00e+00	0	40	0	1956642816	52	4101
2026-01-14 06:04:53.82	305.30	17.77	-41.2	-42.2	19.5	0.00e+00	0	40	0	1978662912	52	4136
2026-01-14 06:04:56.82	304.61	17.72	-41.2	-42.2	19.5	0.00e+00	0	40	0	1999634432	52	4144
2026-01-14 06:04:59.82	303.92	17.66	-41.2	-42.2	19.5	0.00e+00	0	40	0	2021654528	52	4139
2026-01-14 06:05:02.82	303.23	17.60	-41.2	-42.3	19.5	0.00e+00	0	40	0	2043674624	52	4147
2026-01-14 06:05:05.81	302.55	17.53	-41.3	-42.3	19.5	0.00e+00	0	40	0	2064646144	52	4149
2026-01-14 06:05:08.81	301.87	17.46	-41.3	-42.3	19.4	0.00e+00	0	40	0	2086666240	52	4178
2026-01-14 06:05:11.81	301.20	17.39	-41.3	-42.3	19.4	0.00e+00	0	40	0	2108686336	52	4178
2026-01-14 06:05:14.81	300.53	17.31	-41.4	-42.4	19.3	0.00e+00	0	40	0	2129657856	52	4241
2026-01-14 06:05:17.81	299.86	17.23	-41.6	-42.6	19.1	0.00e+00	0	40	0	2151677952	52	4310
2026-01-14 06:05:20.80	299.19	17.15	-41.5	-42.6	19.1	0.00e+00	0	40	0	2172649472	52	4298
2026-01-14 06:05:23.79	298.53	17.06	-41.4	-42.4	19.2	0.00e+00	0	40	0	2194669568	52	4238
2026-01-14 06:05:26.79	297.87	16.97	-41.5	-42.5	19.2	0.00e+00	0	40	0	2216689664	52	4278
2026-01-14 06:05:29.79	297.22	16.87	-41.3	-42.3	19.4	0.00e+00	0	40	0	2237661184	52	4190
2026-01-14 06:05:32.79	296.57	16.78	-41.5	-42.5	19.2	0.00e+00	0	40	0	2259681280	52	4281
2026-01-14 06:05:35.80	295.92	16.67	-41.7	-42.8	18.9	0.00e+00	0	40	0	2281701376	52	4401
2026-01-14 06:05:38.80	295.28	16.57	-41.8	-42.9	18.8	0.00e+00	0	40	0	2302672896	53	4196
2026-01-14 06:05:41.80	294.65	16.46	-41.5	-42.5	19.0	0.00e+00	0	40	0	2324692992	53	4035
2026-01-14 06:05:44.80	294.01	16.35	-41.3	-42.3	19.1	0.00e+00	0	40	0	2346713088	53	3941
2026-01-14 06:05:47.80	293.39	16.24	-41.4	-42.5	18.8	0.00e+00	0	40	0	2367684608	53	4005
2026-01-14 06:05:50.80	292.77	16.12	-41.5	-42.6	18.7	0.00e+00	0	40	0	2389704704	53	4072
2026-01-14 06:05:53.80	292.15	16.00	-41.5	-42.6	18.7	0.00e+00	0	40	0	2411724800	53	4060
2026-01-14 06:05:56.79	291.54	15.88	-41.4	-42.4	18.8	0.00e+00	0	40	0	2432696320	53	3984
2026-01-14 06:05:59.79	290.93	15.75	-41.2	-42.3	18.8	0.00e+00	0	40	0	2454716416	53	3931
2026-01-14 06:06:02.80	290.33	15.62	-41.3	-42.3	18.7	0.00e+00	0	40	0	2476736512	53	3949
2026-01-14 06:06:05.80	289.73	15.49	-41.3	-42.4	18.7	0.00e+00	0	40	0	2497708032	53	3987
2026-01-14 06:06:08.80	289.14	15.36	-41.2	-42.3	18.7	0.00e+00	0	40	0	2519728128	53	3926
2026-01-14 06:06:11.80	288.55	15.23	-41.3	-42.4	18.6	0.00e+00	0	40	0	2541748224	53	3970
2026-01-14 06:06:14.79	287.97	15.09	-41.1	-42.2	18.8	0.00e+00	0	40	0	2562719744	53	3880
2026-01-14 06:06:17.79	287.40	14.95	-41.2	-42.3	18.7	0.00e+00	0	40	0	2584739840	53	3921
2026-01-14 06:06:20.77	286.83	14.81	-41.3	-42.3	18.6	0.00e+00	0	40	0	2605711360	53	3949
2026-01-14 06:06:23.76	286.27	14.67	-41.1	-42.2	18.7	0.00e+00	0	40	0	2627731456	53	3891
2026-01-14 06:06:26.74	285.71	14.52	-41.2	-42.3	18.5	0.00e+00	0	40	0	2649751552	53	3938
2026-01-14 06:06:29.74	285.16	14.37	-41.2	-42.2	18.6	0.00e+00	0	40	0	2670723072	52	4136
2026-01-14 06:06:32.73	284.61	14.23	-41.2	-42.3	18.5	0.00e+00	0	40	0	2692743168	52	4177
2026-01-14 06:06:35.74	284.07	14.07	-41.1	-42.2	18.6	0.00e+00	0	40	0	2713714688	52	4122
2026-01-14 06:06:38.73	283.53	13.92	-41.0	-42.1	18.7	0.00e+00	0	40	0	2735734784	52	4053
2026-01-14 06:06:41.71	283.01	13.77	-41.1	-42.2	18.6	0.00e+00	0	40	0	2756706304	52	4106
2026-01-14 06:06:44.70	282.48	13.62	-41.1	-42.2	18.5	0.00e+00	0	40	0	2778726400	52	4120
2026-01-14 06:06:47.71	281.96	13.46	-41.2	-42.4	18.3	0.00e+00	0	40	0	2800746496	52	4195
2026-01-14 06:06:50.71	281.44	13.30	-41.3	-42.4	18.2	0.00e+00	0	40	0	2821718016	52	4238
2026-01-14 06:06:53.71	280.93	13.14	-41.6	-42.7	18.0	0.00e+00	0	40	0	2843738112	52	4370
2026-01-14 06:06:56.71	280.43	12.98	-41.5	-42.7	17.9	0.00e+00	0	40	0	2865758208	52	4361
2026-01-14 06:06:59.71	279.93	12.82	-41.5	-42.7	17.9	0.00e+00	0	40	0	2886729728	52	4361
2026-01-14 06:07:02.72	279.44	12.66	-41.3	-42.4	18.2	0.00e+00	0	40	0	2908749824	52	4220
2026-01-14 06:07:05.72	278.95	12.50	-41.2	-42.4	18.2	0.00e+00	0	40	0	2930769920	52	4213
2026-01-14 06:07:08.72	278.47	12.33	-41.4	-42.5	18.0	0.00e+00	0	40	0	2951741440	52	4288
2026-01-14 06:07:11.72	277.99	12.17	-41.3	-42.4	18.1	0.00e+00	0	40	0	2973761536	52	4222
2026-01-14 06:07:14.73	277.52	12.00	-41.4	-42.5	18.0	0.00e+00	0	40	0	2995781632	52	4287
2026-01-14 06:07:17.73	277.05	11.83	-41.3	-42.5	18.0	0.00e+00	0	40	0	3017801728	52	4270
2026-01-14 06:07:20.74	276.59	11.67	-41.4	-42.6	17.9	0.00e+00	0	40	0	3038773248	52	4296
2026-01-14 06:07:23.73	276.14	11.50	-41.5	-42.7	17.8	0.00e+00	0	40	0	3060793344	52	4367
2026-01-14 06:07:26.73	275.69	11.33	-41.6	-42.8	17.7	0.00e+00	0	40	0	3081764864	52	4414
2026-01-14 06:07:29.74	275.24	11.16	-41.6	-42.8	17.6	0.00e+00	0	40	0	3103784960	52	4439
2026-01-14 06:07:32.73	274.80	10.99	-41.5	-42.7	17.7	0.00e+00	0	40	0	3125805056	53	4118
2026-01-14 06:07:35.73	274.37	10.82	-41.7	-42.9	17.5	0.00e+00	0	40	0	3147825152	53	4225
2026-01-14 06:07:38.73	273.94	10.65	-41.9	-43.1	17.3	0.00e+00	0	40	0	3168796672	53	4318
2026-01-14 06:07:41.74	273.51	10.48	-41.8	-43.1	17.3	0.00e+00	0	40	0	3190816768	53	4321
2026-01-14 06:07:44.74	273.09	10.31	-41.6	-42.9	17.5	0.00e+00	0	40	0	3211788288	53	4208
2026-01-14 06:07:47.75	272.68	10.14	-41.4	-42.6	17.7	0.00e+00	0	40	0	3233808384	53	4082
2026-01-14 06:07:50.75	272.27	9.97	-41.4	-42.6	17.7	0.00e+00	0	40	0	3255828480	53	4079
2026-01-14 06:07:53.75	271.86	9.80	-41.5	-42.9	17.4	0.00e+00	0	40	0	3276800000	53	4221
2026-01-14 06:07:56.74	271.47	9.62	-41.8	-43.1	17.2	0.00e+00	0	40	0	3298820096	53	4333
2026-01-14 06:07:59.74	271.07	9.45	-42.0	-43.3	17.0	0.00e+00	0	40	0	3320840192	53	4433
2026-01-14 06:08:02.74	270.68	9.28	-42.0	-43.3	17.0	0.00e+00	0	40	0	3341811712	53	4424
2026-01-14 06:08:05.75	270.29	9.11	-42.0	-43.2	17.1	0.00e+00	0	40	0	3363831808	53	4377
2026-01-14 06:08:08.75	269.91	8.94	-51.0	-61.0	3.8	8.46e-01	0	40	104	3380609024	71	12060
2026-01-14 06:08:11.74	269.54	8.76	-51.2	-62.3	3.8	8.47e-01	0	40	104	3380609024	72	13119
2026-01-14 06:08:14.73	269.17	8.59	-51.4	-62.3	3.8	8.47e-01	0	40	104	3380609024	72	13193
2026-01-14 06:08:17.72	268.80	8.42	-51.5	-62.4	3.8	8.47e-01	0	40	104	3380609024	72	13320
2026-01-14 06:08:20.71	268.44	8.25	-51.5	-62.3	3.8	8.46e-01	0	40	104	3380609024	72	13182
2026-01-14 06:08:23.70	268.08	8.08	-51.5	-62.4	3.8	8.47e-01	0	40	104	3380609024	72	13280
2026-01-14 06:08:26.70	267.72	7.91	-51.6	-62.3	3.8	8.47e-01	0	40	104	3380609024	72	13231
2026-01-14 06:08:29.68	267.38	7.74	-51.6	-62.4	3.8	8.47e-01	0	40	104	3380609024	72	13337
