passes_logs/2026/01/14/T1/T1__20260114_140855_FENGYUN_3E_rec.log

#Pass ID: 20260114_140855_FENGYUN 3E
#Satellite: FENGYUN 3E
#Configuration: FENGYUN 3E
#almurnet v.1.7.20251203
#Start time: 2026-01-14 14:08:56

#Version: 2.0.20230620
#Station: T1
#Location: 37.570604 lon 55.790049 lat
#TLE: 1 49008U 21062A   26013.59634448 -.00000226  00000+0 -85925-4 0  9991
#TLE: 2 49008  98.7491  18.7414 0001953 139.1941 220.9382 14.19884160234649

#Time	Az	El	Level	Level2	SNR	BER	BlckErr	Temp	State	Recorded	gain1	gain2
2026-01-14 14:08:56.62	158.39	5.06	-48.8	-61.3	3.8	8.46e-01	0	38	0	0	67	15637
2026-01-14 14:08:59.60	158.38	5.28	-48.9	-61.4	3.8	8.46e-01	0	38	104	0	68	14961
2026-01-14 14:09:02.58	158.38	5.49	-49.0	-61.4	3.8	8.46e-01	0	38	104	0	68	15046
2026-01-14 14:09:05.56	158.37	5.71	-49.0	-61.4	3.8	8.46e-01	0	38	104	0	68	14900
2026-01-14 14:09:08.54	158.37	5.93	-49.0	-61.4	3.8	8.47e-01	0	38	104	0	68	15014
2026-01-14 14:09:11.52	158.36	6.15	-48.9	-61.5	3.8	8.46e-01	0	38	104	0	68	15097
2026-01-14 14:09:14.50	158.36	6.38	-48.9	-61.5	3.8	8.47e-01	0	38	104	0	68	15053
2026-01-14 14:09:17.52	158.35	6.61	-48.9	-61.4	3.8	8.47e-01	0	39	104	0	68	15037
2026-01-14 14:09:20.58	158.34	6.84	-49.0	-61.4	3.8	8.45e-01	0	39	104	0	68	14984
2026-01-14 14:09:23.42	158.34	7.06	-48.9	-61.4	3.8	8.46e-01	0	39	104	0	68	14923
2026-01-14 14:09:26.55	158.33	7.31	-48.9	-61.4	3.8	8.47e-01	0	39	104	0	68	15045
2026-01-14 14:09:29.38	158.32	7.53	-48.9	-61.5	3.8	8.47e-01	0	39	104	0	68	15113
2026-01-14 14:09:32.51	158.31	7.78	-48.9	-61.4	3.8	8.46e-01	0	39	104	0	68	15048
2026-01-14 14:09:35.35	158.31	8.01	-49.0	-61.5	3.8	8.47e-01	0	39	104	0	68	15069
2026-01-14 14:09:38.44	158.30	8.26	-49.0	-61.4	3.8	8.47e-01	0	39	104	0	68	15003
2026-01-14 14:09:41.42	158.29	8.50	-48.9	-61.5	3.8	8.48e-01	0	39	104	0	68	15081
2026-01-14 14:09:44.41	158.28	8.75	-49.0	-61.5	3.8	8.47e-01	0	39	104	0	68	15154
2026-01-14 14:09:47.39	158.27	9.00	-48.9	-61.4	3.8	8.47e-01	0	39	104	0	68	15044
2026-01-14 14:09:50.46	158.26	9.26	-49.0	-61.4	3.8	8.46e-01	0	39	104	0	68	14959
2026-01-14 14:09:53.30	158.25	9.50	-49.0	-61.5	3.8	8.47e-01	0	40	104	0	68	15084
2026-01-14 14:09:56.42	158.24	9.77	-48.9	-61.4	3.8	8.46e-01	0	39	104	0	68	15000
2026-01-14 14:09:59.26	158.23	10.02	-48.9	-61.5	3.8	8.47e-01	0	39	104	0	68	15074
2026-01-14 14:10:02.47	158.22	10.30	-49.0	-61.4	3.8	8.46e-01	0	39	104	0	68	15047
2026-01-14 14:10:05.39	158.21	10.56	-48.9	-61.4	3.8	8.48e-01	0	40	104	0	68	15001
2026-01-14 14:10:08.64	158.20	10.85	-49.0	-61.5	3.8	8.46e-01	0	40	104	0	68	15106
2026-01-14 14:10:11.54	158.19	11.11	-49.0	-61.5	3.8	8.47e-01	0	40	104	0	68	15083
2026-01-14 14:10:14.73	158.18	11.41	-49.0	-61.4	3.8	8.47e-01	0	40	104	0	68	15030
2026-01-14 14:10:17.57	158.17	11.67	-49.0	-61.4	3.8	8.47e-01	0	40	104	0	68	15006
2026-01-14 14:10:21.00	158.15	11.99	-49.0	-61.5	3.8	8.46e-01	0	40	104	0	68	15056
2026-01-14 14:10:23.72	158.14	12.25	-48.9	-61.5	3.8	8.46e-01	0	40	104	0	68	15096
2026-01-14 14:10:27.03	158.12	12.57	-49.0	-61.4	3.8	8.47e-01	0	40	104	0	68	15013
2026-01-14 14:10:29.85	158.11	12.85	-49.0	-61.4	3.8	8.46e-01	0	40	104	0	68	15051
2026-01-14 14:10:33.18	158.09	13.18	-48.9	-61.5	3.8	8.46e-01	0	40	104	0	68	15079
2026-01-14 14:10:36.16	158.08	13.48	-49.0	-61.4	3.8	8.47e-01	0	40	104	0	68	14997
2026-01-14 14:10:39.35	158.06	13.80	-49.0	-61.5	3.8	8.46e-01	0	40	104	0	68	15100
2026-01-14 14:10:42.19	158.05	14.09	-49.0	-61.5	3.8	8.47e-01	0	40	104	0	68	15098
2026-01-14 14:10:45.31	158.03	14.42	-49.0	-61.5	3.8	8.47e-01	0	40	104	0	68	15150
2026-01-14 14:10:48.15	158.02	14.72	-49.0	-61.4	3.8	8.47e-01	0	40	104	0	68	14975
2026-01-14 14:10:51.28	158.00	15.05	-48.9	-61.4	3.8	8.46e-01	0	40	104	0	68	15013
2026-01-14 14:10:54.20	157.98	15.37	-49.0	-61.5	3.8	8.46e-01	0	40	104	0	68	15059
2026-01-14 14:10:57.18	157.96	15.69	-48.9	-61.5	3.8	8.47e-01	0	40	104	0	68	15108
2026-01-14 14:11:00.16	157.94	16.02	-48.9	-61.5	3.8	8.47e-01	0	40	104	0	68	15057
2026-01-14 14:11:03.14	157.92	16.36	-48.9	-61.4	3.8	8.48e-01	0	40	104	0	68	14986
2026-01-14 14:11:06.22	157.90	16.71	-48.9	-61.5	3.8	8.46e-01	0	40	104	0	68	15114
2026-01-14 14:11:09.27	157.88	17.06	-49.0	-61.4	3.8	8.46e-01	0	40	104	0	68	15025
2026-01-14 14:11:12.26	157.86	17.42	-49.0	-61.5	3.8	8.47e-01	0	40	104	0	68	15052
2026-01-14 14:11:15.23	157.84	17.77	-49.0	-61.5	3.8	8.47e-01	0	40	104	0	68	15078
2026-01-14 14:11:18.22	157.81	18.13	-49.0	-61.5	3.8	8.47e-01	0	40	104	0	68	15118
2026-01-14 14:11:21.20	157.79	18.50	-49.0	-61.5	3.8	8.47e-01	0	40	104	0	68	15059
2026-01-14 14:11:24.18	157.76	18.87	-49.0	-61.5	3.8	8.46e-01	0	40	104	0	68	15078
2026-01-14 14:11:27.32	157.74	19.27	-49.0	-61.5	3.8	8.48e-01	0	40	104	0	68	15055
2026-01-14 14:11:30.21	157.71	19.64	-49.0	-61.5	3.8	8.48e-01	0	40	104	0	68	15157
2026-01-14 14:11:33.47	157.68	20.07	-48.9	-61.5	3.8	8.46e-01	0	40	104	0	68	15115
2026-01-14 14:11:36.19	157.66	20.43	-48.9	-61.4	3.8	8.48e-01	0	40	104	0	68	15041
2026-01-14 14:11:39.47	157.62	20.87	-48.9	-61.4	3.8	8.47e-01	0	40	104	0	68	15021
2026-01-14 14:11:42.23	157.60	21.25	-48.9	-61.4	3.8	8.47e-01	0	40	104	0	68	15017
2026-01-14 14:11:45.62	157.56	21.72	-49.0	-61.4	3.8	8.47e-01	0	40	104	0	68	15025
2026-01-14 14:11:48.32	157.53	22.11	-49.0	-61.5	3.8	8.47e-01	0	40	104	0	68	15151
2026-01-14 14:11:51.59	157.50	22.58	-48.9	-61.4	3.8	8.46e-01	0	40	104	0	68	15026
2026-01-14 14:11:54.29	157.46	22.97	-48.9	-61.4	3.8	8.47e-01	0	40	104	0	68	15007
2026-01-14 14:11:57.55	157.42	23.46	-49.0	-61.4	3.8	8.46e-01	0	40	104	0	68	15043
2026-01-14 14:12:00.29	157.39	23.88	-49.0	-61.5	3.8	8.48e-01	0	40	104	0	68	15077
2026-01-14 14:12:03.58	157.35	24.39	-49.0	-61.4	3.8	8.47e-01	0	41	104	0	68	14923
2026-01-14 14:12:06.29	157.31	24.81	-49.0	-61.4	3.8	8.46e-01	0	40	104	0	68	15040
2026-01-14 14:12:09.56	157.27	25.34	-48.9	-61.4	3.8	8.47e-01	0	40	104	0	68	15039
2026-01-14 14:12:12.27	157.23	25.78	-49.0	-61.5	3.8	8.47e-01	0	40	104	0	68	15063
2026-01-14 14:12:15.53	157.18	26.32	-49.0	-61.4	3.8	8.47e-01	0	41	104	0	68	14961
2026-01-14 14:12:18.28	157.13	26.79	-49.0	-61.4	3.8	8.46e-01	0	40	104	0	68	14986
2026-01-14 14:12:21.66	157.08	27.37	-49.0	-61.5	3.8	8.47e-01	0	40	104	0	68	15065
2026-01-14 14:12:24.35	157.03	27.85	-49.0	-61.4	3.8	8.46e-01	0	40	104	0	68	15026
2026-01-14 14:12:27.62	156.98	28.43	-48.9	-61.5	3.8	8.46e-01	0	40	104	0	68	15061
2026-01-14 14:12:30.32	156.93	28.93	-49.0	-61.5	3.8	8.48e-01	0	40	104	0	68	15055
2026-01-14 14:12:33.58	156.87	29.54	-49.0	-61.4	3.8	8.47e-01	0	40	104	0	68	15049
2026-01-14 14:12:36.31	156.81	30.06	-49.0	-61.5	3.8	8.48e-01	0	40	104	0	68	15096
2026-01-14 14:12:39.65	156.74	30.70	-49.0	-61.4	3.8	8.46e-01	0	40	104	0	68	14979
2026-01-14 14:12:42.37	156.68	31.24	-49.0	-61.4	3.8	8.46e-01	0	40	104	0	68	15047
2026-01-14 14:12:45.66	156.61	31.91	-49.0	-61.4	3.8	8.47e-01	0	40	104	0	68	15024
2026-01-14 14:12:48.36	156.55	32.47	-49.0	-61.4	3.8	8.47e-01	0	40	104	0	68	15051
2026-01-14 14:12:51.65	156.47	33.16	-48.9	-61.4	3.8	8.47e-01	0	40	104	0	68	14971
2026-01-14 14:12:54.37	156.40	33.75	-49.0	-61.4	3.8	8.47e-01	0	40	104	0	68	14978
2026-01-14 14:12:57.65	156.31	34.47	-49.0	-61.5	3.8	8.47e-01	0	40	104	0	68	15078
2026-01-14 14:13:00.34	156.24	35.07	-49.0	-61.5	3.8	8.47e-01	0	40	104	0	68	15069
2026-01-14 14:13:03.61	156.14	35.83	-49.0	-61.5	3.8	8.47e-01	0	40	104	0	68	15078
2026-01-14 14:13:06.36	156.06	36.47	-49.0	-61.5	3.8	8.45e-01	0	41	104	0	68	15068
2026-01-14 14:13:09.64	155.95	37.26	-49.0	-61.5	3.8	8.46e-01	0	40	104	0	68	15087
2026-01-14 14:13:12.33	155.86	37.92	-49.1	-61.4	3.8	8.46e-01	0	41	104	0	68	14999
2026-01-14 14:13:15.60	155.75	38.74	-49.0	-61.5	3.8	8.46e-01	0	40	104	0	68	15060
2026-01-14 14:13:18.32	155.64	39.43	-49.0	-61.5	3.8	8.46e-01	0	41	104	0	68	15147
2026-01-14 14:13:21.60	155.52	40.29	-49.0	-61.4	3.8	8.49e-01	0	40	104	0	68	15042
2026-01-14 14:13:24.29	155.40	41.01	-49.0	-61.4	3.8	8.47e-01	0	40	104	0	68	15038
2026-01-14 14:13:27.56	155.26	41.91	-49.0	-61.5	3.8	8.47e-01	0	40	104	0	68	15089
2026-01-14 14:13:30.29	155.14	42.67	-49.0	-61.5	3.8	8.47e-01	0	40	104	0	68	15065
2026-01-14 14:13:33.62	154.97	43.62	-49.0	-61.5	3.8	8.47e-01	0	40	104	0	68	15090
2026-01-14 14:13:36.31	154.84	44.41	-49.0	-61.4	3.8	8.47e-01	0	40	104	0	68	15027
2026-01-14 14:13:39.61	154.65	45.40	-49.0	-61.4	3.8	8.46e-01	0	40	104	0	68	15003
2026-01-14 14:13:42.32	154.50	46.23	-48.9	-61.5	3.8	8.48e-01	0	40	104	0	68	15117
2026-01-14 14:13:45.59	154.29	47.25	-49.0	-61.5	3.8	8.47e-01	0	40	104	0	68	15070
2026-01-14 14:13:48.29	154.12	48.11	-49.0	-61.5	3.8	8.47e-01	0	40	104	0	68	15110
2026-01-14 14:13:51.55	153.89	49.18	-49.0	-61.4	3.8	8.46e-01	0	40	104	0	68	14999
2026-01-14 14:13:54.26	153.68	50.09	-49.0	-61.4	3.8	8.47e-01	0	40	104	0	68	14957
2026-01-14 14:13:57.55	153.42	51.21	-48.9	-61.4	3.8	8.47e-01	0	40	104	0	68	15001
2026-01-14 14:14:00.39	153.17	52.20	-49.0	-61.5	3.8	8.46e-01	0	40	104	0	68	15060
2026-01-14 14:14:03.51	152.88	53.31	-49.0	-61.5	3.8	8.46e-01	0	40	104	0	68	15122
2026-01-14 14:14:06.35	152.60	54.34	-49.0	-61.4	3.8	8.47e-01	0	41	104	0	68	15026
2026-01-14 14:14:09.47	152.26	55.50	-49.0	-61.4	3.8	8.47e-01	0	40	104	0	68	14966
2026-01-14 14:14:12.31	151.92	56.58	-49.0	-61.5	3.8	8.47e-01	0	40	104	0	68	15057
2026-01-14 14:14:15.43	151.52	57.78	-48.9	-61.5	3.8	8.47e-01	0	40	104	0	68	15075
2026-01-14 14:14:18.27	151.12	58.90	-49.0	-61.5	3.8	8.47e-01	0	40	104	0	68	15059
2026-01-14 14:14:21.42	150.63	60.16	-48.9	-61.5	3.8	8.46e-01	0	40	104	0	68	15064
2026-01-14 14:14:24.33	150.14	61.34	-49.0	-61.5	3.8	8.48e-01	0	40	104	0	68	15052
2026-01-14 14:14:27.51	149.54	62.66	-48.9	-61.5	3.8	8.47e-01	0	40	104	0	68	15061
2026-01-14 14:14:30.45	148.93	63.90	-49.0	-61.4	3.8	8.47e-01	0	40	104	0	68	15040
2026-01-14 14:14:33.76	148.15	65.32	-49.0	-61.4	3.8	8.46e-01	0	40	104	0	68	15009
2026-01-14 14:14:36.60	147.39	66.55	-49.0	-61.4	3.8	8.47e-01	0	40	104	0	68	14972
2026-01-14 14:14:39.73	146.45	67.93	-49.0	-61.5	3.8	8.47e-01	0	40	104	0	68	15088
2026-01-14 14:14:42.57	145.48	69.19	-48.9	-61.4	3.8	8.46e-01	0	40	104	0	68	14998
2026-01-14 14:14:45.69	144.25	70.58	-49.0	-61.3	3.8	8.48e-01	0	40	104	0	68	14878
2026-01-14 14:14:48.53	142.96	71.86	-49.0	-61.4	3.8	8.46e-01	0	40	104	0	68	14986
2026-01-14 14:14:51.78	141.22	73.34	-49.0	-61.5	3.8	8.46e-01	0	40	104	0	68	15087
2026-01-14 14:14:54.58	139.43	74.61	-48.9	-61.5	3.8	8.47e-01	0	40	104	0	68	15151
2026-01-14 14:14:57.70	137.04	76.01	-49.0	-61.4	3.8	8.46e-01	0	40	104	0	68	14980
2026-01-14 14:15:00.54	134.39	77.28	-48.9	-61.5	3.8	8.48e-01	0	40	104	0	68	15057
2026-01-14 14:15:03.66	130.77	78.65	-49.0	-61.4	3.8	8.47e-01	0	40	104	0	68	15011
2026-01-14 14:15:06.51	126.61	79.86	-48.9	-61.4	3.8	8.48e-01	0	41	104	0	68	14952
2026-01-14 14:15:09.71	120.59	81.14	-49.0	-61.5	3.8	8.47e-01	0	40	104	0	68	15061
2026-01-14 14:15:12.54	113.65	82.18	-49.0	-61.4	3.8	8.46e-01	0	40	104	0	68	15046
2026-01-14 14:15:15.67	103.67	83.15	-49.0	-61.4	3.8	8.47e-01	0	40	104	0	68	15024
2026-01-14 14:15:18.51	92.17	83.81	-48.9	-61.4	3.8	8.47e-01	0	41	104	0	68	15020
2026-01-14 14:15:21.63	77.22	84.19	-49.0	-61.5	3.8	8.46e-01	0	40	104	0	68	15059
2026-01-14 14:15:24.47	62.80	84.16	-49.0	-61.4	3.8	8.46e-01	0	41	104	0	68	14968
2026-01-14 14:15:27.60	48.09	83.72	-49.0	-61.4	3.8	8.48e-01	0	41	104	0	68	15029
2026-01-14 14:15:30.44	36.99	83.02	-48.9	-61.4	3.8	8.46e-01	0	40	104	0	68	15015
2026-01-14 14:15:33.56	27.44	82.02	-48.9	-61.5	3.8	8.47e-01	0	40	104	0	68	15053
2026-01-14 14:15:36.40	20.76	80.96	-48.9	-61.4	3.8	8.47e-01	0	40	104	0	68	14998
2026-01-14 14:15:39.65	14.90	79.64	-48.9	-61.4	3.8	8.47e-01	0	40	104	0	68	15038
2026-01-14 14:15:42.56	10.84	78.40	-48.9	-61.5	3.8	8.48e-01	0	41	104	0	68	15060
2026-01-14 14:15:45.74	7.32	77.00	-49.0	-61.4	3.8	8.47e-01	0	41	104	0	68	15047
2026-01-14 14:15:48.58	4.78	75.73	-48.9	-61.4	3.8	8.48e-01	0	40	104	0	68	14979
2026-01-14 14:15:51.70	2.49	74.32	-49.0	-61.5	3.8	8.46e-01	0	40	104	0	68	15061
2026-01-14 14:15:54.54	0.75	73.04	-48.8	-61.3	3.8	8.48e-01	0	41	104	0	67	15627
2026-01-14 14:15:57.67	359.13	71.63	-48.8	-61.3	3.8	8.47e-01	0	41	104	0	67	15666
2026-01-14 14:16:00.51	357.87	70.35	-48.8	-61.3	3.8	8.47e-01	0	40	104	0	67	15629
2026-01-14 14:16:03.63	356.68	68.96	-48.8	-61.3	3.8	8.47e-01	0	41	104	0	67	15662
2026-01-14 14:16:06.47	355.73	67.70	-48.7	-61.2	3.8	8.47e-01	0	40	104	0	67	15573
2026-01-14 14:16:09.60	354.81	66.33	-48.7	-61.3	3.8	8.48e-01	0	40	104	0	67	15649
2026-01-14 14:16:12.44	354.07	65.10	-48.8	-61.3	3.8	8.46e-01	0	40	104	0	67	15660
2026-01-14 14:16:15.66	353.33	63.73	-48.8	-61.3	3.8	8.48e-01	0	41	104	0	67	15585
2026-01-14 14:16:18.59	352.73	62.50	-48.8	-61.4	3.8	8.47e-01	0	40	104	0	67	15794
2026-01-14 14:16:21.71	352.15	61.22	-48.8	-61.3	3.8	8.47e-01	0	41	104	0	67	15640
2026-01-14 14:16:24.55	351.68	60.06	-48.8	-61.3	3.8	8.46e-01	0	40	104	0	67	15722
2026-01-14 14:16:27.67	351.20	58.82	-48.8	-61.3	3.8	8.47e-01	0	40	104	0	67	15617
2026-01-14 14:16:30.51	350.81	57.71	-48.8	-61.3	3.8	8.47e-01	0	40	104	0	67	15685
2026-01-14 14:16:33.69	350.40	56.49	-48.8	-61.3	3.8	8.47e-01	0	40	104	0	67	15650
2026-01-14 14:16:36.57	350.07	55.40	-48.8	-61.3	3.8	8.47e-01	0	41	104	0	67	15644
2026-01-14 14:16:39.69	349.73	54.25	-48.8	-61.3	3.8	8.46e-01	0	41	104	0	67	15648
2026-01-14 14:16:42.53	349.45	53.23	-48.8	-61.3	3.8	8.47e-01	0	40	104	0	67	15587
2026-01-14 14:16:45.66	349.16	52.12	-48.8	-61.3	3.8	8.47e-01	0	40	104	0	67	15627
2026-01-14 14:16:48.50	348.92	51.13	-48.8	-61.3	3.8	8.49e-01	0	41	104	0	67	15604
2026-01-14 14:16:51.62	348.67	50.07	-48.8	-61.3	3.8	8.47e-01	0	40	104	0	67	15691
2026-01-14 14:16:54.46	348.46	49.13	-48.8	-61.3	3.8	8.46e-01	0	40	104	0	67	15692
2026-01-14 14:16:57.59	348.24	48.11	-48.8	-61.3	3.8	8.47e-01	0	41	104	0	67	15636
2026-01-14 14:17:00.43	348.05	47.21	-48.8	-61.3	3.8	8.46e-01	0	41	104	0	67	15600
2026-01-14 14:17:03.55	347.86	46.24	-48.8	-61.3	3.8	8.46e-01	0	40	104	0	67	15603
2026-01-14 14:17:06.39	347.70	45.37	-48.8	-61.3	3.8	8.47e-01	0	41	104	0	67	15603
2026-01-14 14:17:09.71	347.52	44.39	-48.7	-61.2	3.8	8.47e-01	0	40	104	0	67	15540
2026-01-14 14:17:12.41	347.38	43.60	-48.8	-61.3	3.8	8.47e-01	0	40	104	0	67	15615
2026-01-14 14:17:15.69	347.23	42.67	-48.7	-61.3	3.8	8.47e-01	0	40	104	0	67	15661
2026-01-14 14:17:18.39	347.10	41.92	-48.8	-61.3	3.8	8.47e-01	0	40	104	0	67	15609
2026-01-14 14:17:21.65	346.96	41.03	-48.8	-61.3	3.8	8.46e-01	0	40	104	0	67	15669
2026-01-14 14:17:24.52	346.85	40.26	-48.8	-61.3	3.8	8.46e-01	0	40	104	0	67	15678
2026-01-14 14:17:27.86	346.72	39.40	-48.8	-61.3	3.8	8.46e-01	0	40	104	0	67	15626
2026-01-14 14:17:30.56	346.62	38.71	-48.8	-61.3	3.8	8.47e-01	0	40	104	0	67	15637
2026-01-14 14:17:33.83	346.51	37.90	-48.8	-61.2	3.8	8.47e-01	0	40	104	0	67	15574
2026-01-14 14:17:36.67	346.41	37.20	-48.8	-61.3	3.8	8.47e-01	0	40	104	0	67	15667
2026-01-14 14:17:39.79	346.32	36.46	-48.8	-61.3	3.8	8.47e-01	0	40	104	0	67	15674
2026-01-14 14:17:42.63	346.23	35.80	-48.8	-61.3	3.8	8.47e-01	0	40	104	0	67	15622
2026-01-14 14:17:45.76	346.14	35.09	-48.8	-61.3	3.8	8.47e-01	0	40	104	0	67	15600
2026-01-14 14:17:48.60	346.06	34.45	-48.8	-61.3	3.8	8.47e-01	0	41	104	0	67	15645
2026-01-14 14:17:51.73	345.98	33.77	-48.8	-61.3	3.8	8.46e-01	0	41	104	0	67	15631
2026-01-14 14:17:54.57	345.91	33.16	-48.8	-61.3	3.8	8.46e-01	0	40	104	0	67	15612
2026-01-14 14:17:57.69	345.84	32.51	-48.8	-61.3	3.8	8.46e-01	0	41	104	0	67	15600
2026-01-14 14:18:00.53	345.77	31.92	-48.8	-61.3	3.8	8.48e-01	0	40	104	0	67	15669
2026-01-14 14:18:03.65	345.71	31.30	-48.8	-61.3	3.8	8.47e-01	0	40	104	0	67	15640
2026-01-14 14:18:06.49	345.65	30.74	-48.8	-61.3	3.8	8.47e-01	0	40	104	0	67	15657
2026-01-14 14:18:09.69	345.58	30.12	-48.8	-61.2	3.8	8.46e-01	0	40	104	0	67	15580
2026-01-14 14:18:12.60	345.53	29.57	-48.8	-61.3	3.8	8.46e-01	0	40	104	0	67	15626
2026-01-14 14:18:15.72	345.47	28.99	-48.8	-61.3	3.8	8.46e-01	0	41	104	0	67	15715
2026-01-14 14:18:18.56	345.42	28.47	-48.8	-61.4	3.8	8.46e-01	0	40	104	0	67	15784
2026-01-14 14:18:21.68	345.37	27.91	-48.8	-61.3	3.8	8.47e-01	0	41	104	0	67	15613
2026-01-14 14:18:24.52	345.32	27.42	-48.8	-61.3	3.8	8.47e-01	0	40	104	0	67	15619
2026-01-14 14:18:27.65	345.27	26.88	-48.9	-61.3	3.8	8.47e-01	0	40	104	0	67	15757
2026-01-14 14:18:30.49	345.23	26.40	-48.8	-61.3	3.8	8.46e-01	0	41	104	0	67	15599
2026-01-14 14:18:33.61	345.19	25.88	-48.8	-61.3	3.8	8.48e-01	0	40	104	0	67	15651
2026-01-14 14:18:36.45	345.15	25.42	-48.9	-61.3	3.8	8.47e-01	0	40	104	0	67	15659
2026-01-14 14:18:39.58	345.10	24.92	-48.8	-61.3	3.8	8.46e-01	0	40	104	0	67	15674
2026-01-14 14:18:42.41	345.07	24.48	-48.9	-61.3	3.8	8.47e-01	0	40	104	0	67	15737
2026-01-14 14:18:45.63	345.03	23.98	-48.8	-61.3	3.8	8.47e-01	0	40	104	0	67	15626
2026-01-14 14:18:48.54	344.99	23.54	-48.8	-61.3	3.8	8.47e-01	0	40	104	0	67	15682
2026-01-14 14:18:51.72	344.96	23.07	-48.8	-61.3	3.8	8.46e-01	0	41	104	0	67	15646
2026-01-14 14:18:54.57	344.93	22.65	-48.8	-61.3	3.8	8.47e-01	0	40	104	0	67	15642
2026-01-14 14:18:57.69	344.89	22.21	-48.8	-61.3	3.8	8.47e-01	0	40	104	0	67	15677
2026-01-14 14:19:00.53	344.87	21.80	-48.8	-61.3	3.8	8.46e-01	0	41	104	0	67	15611
2026-01-14 14:19:03.65	344.84	21.37	-48.8	-61.3	3.8	8.47e-01	0	41	104	0	67	15601
2026-01-14 14:19:06.49	344.81	20.98	-48.8	-61.3	3.8	8.47e-01	0	41	104	0	67	15670
2026-01-14 14:19:09.71	344.78	20.55	-48.8	-61.3	3.8	8.46e-01	0	41	104	0	67	15675
2026-01-14 14:19:12.61	344.75	20.17	-48.8	-61.3	3.8	8.46e-01	0	40	104	0	67	15724
2026-01-14 14:19:15.74	344.73	19.76	-48.8	-61.3	3.8	8.48e-01	0	41	104	0	67	15655
2026-01-14 14:19:18.58	344.70	19.40	-48.8	-61.3	3.8	8.47e-01	0	40	104	0	67	15709
2026-01-14 14:19:21.70	344.68	19.00	-48.9	-61.3	3.8	8.47e-01	0	41	104	0	67	15627
2026-01-14 14:19:24.54	344.66	18.65	-48.8	-61.3	3.8	8.47e-01	0	40	104	0	67	15709
2026-01-14 14:19:27.67	344.64	18.26	-48.8	-61.3	3.8	8.47e-01	0	41	104	0	67	15699
2026-01-14 14:19:30.50	344.62	17.92	-48.8	-61.3	3.8	8.46e-01	0	40	104	0	67	15671
2026-01-14 14:19:33.63	344.60	17.55	-48.8	-61.3	3.8	8.47e-01	0	40	104	0	67	15622
2026-01-14 14:19:36.47	344.58	17.22	-48.8	-61.3	3.8	8.47e-01	0	40	104	0	67	15692
2026-01-14 14:19:39.59	344.56	16.86	-48.8	-61.3	3.8	8.47e-01	0	40	104	0	67	15679
2026-01-14 14:19:42.43	344.54	16.53	-48.8	-61.3	3.8	8.47e-01	0	40	104	0	67	15700
2026-01-14 14:19:45.73	344.52	16.16	-48.8	-61.3	3.8	8.47e-01	0	41	104	0	67	15635
2026-01-14 14:19:48.57	344.51	15.85	-48.8	-61.2	3.8	8.47e-01	0	40	104	0	67	15568
2026-01-14 14:19:51.69	344.49	15.51	-48.8	-61.3	3.8	8.46e-01	0	40	104	0	67	15617
2026-01-14 14:19:54.72	344.47	15.18	-48.9	-61.3	3.8	8.46e-01	0	40	104	0	67	15738
2026-01-14 14:19:57.70	344.46	14.86	-48.8	-61.3	3.8	8.46e-01	0	40	104	0	67	15605
2026-01-14 14:20:00.68	344.44	14.55	-48.8	-61.3	3.8	8.47e-01	0	40	104	0	67	15692
2026-01-14 14:20:03.66	344.43	14.24	-48.8	-61.3	3.8	8.47e-01	0	40	104	0	67	15740
2026-01-14 14:20:06.64	344.42	13.94	-48.8	-61.3	3.8	8.47e-01	0	41	104	0	67	15640
2026-01-14 14:20:09.72	344.41	13.62	-48.8	-61.3	3.8	8.48e-01	0	41	104	0	67	15688
2026-01-14 14:20:12.56	344.39	13.34	-48.8	-61.3	3.8	8.48e-01	0	41	104	0	67	15705
2026-01-14 14:20:15.68	344.38	13.03	-48.8	-61.3	3.8	8.47e-01	0	41	104	0	67	15715
2026-01-14 14:20:18.52	344.37	12.76	-48.8	-61.2	3.8	8.46e-01	0	40	104	0	67	15576
2026-01-14 14:20:21.64	344.36	12.46	-48.8	-61.3	3.8	8.46e-01	0	41	104	0	67	15650
2026-01-14 14:20:24.48	344.35	12.19	-48.8	-61.3	3.8	8.45e-01	0	40	104	0	67	15644
2026-01-14 14:20:27.61	344.34	11.89	-48.8	-61.3	3.8	8.47e-01	0	40	104	0	67	15742
2026-01-14 14:20:30.45	344.33	11.63	-48.8	-61.3	3.8	8.46e-01	0	41	104	0	67	15654
2026-01-14 14:20:33.57	344.32	11.34	-48.7	-61.3	3.8	8.47e-01	0	41	104	0	67	15697
2026-01-14 14:20:36.41	344.31	11.08	-48.8	-61.3	3.8	8.47e-01	0	40	104	0	67	15701
2026-01-14 14:20:39.68	344.30	10.79	-48.8	-61.3	3.8	8.47e-01	0	40	104	0	67	15721
2026-01-14 14:20:42.59	344.30	10.53	-48.8	-61.3	3.8	8.46e-01	0	40	104	0	67	15667
2026-01-14 14:20:45.71	344.29	10.25	-48.8	-61.3	3.8	8.47e-01	0	40	104	0	67	15625
2026-01-14 14:20:48.55	344.28	10.01	-48.8	-61.3	3.8	8.48e-01	0	41	104	0	67	15673
2026-01-14 14:20:51.67	344.28	9.74	-48.8	-61.3	3.8	8.46e-01	0	41	104	0	67	15610
2026-01-14 14:20:54.51	344.27	9.50	-48.8	-61.3	3.8	8.48e-01	0	40	104	0	67	15670
2026-01-14 14:20:57.73	344.26	9.22	-48.8	-61.3	3.8	8.47e-01	0	41	104	0	67	15682
2026-01-14 14:21:00.57	344.26	8.99	-48.8	-61.3	3.8	8.46e-01	0	40	104	0	67	15674
2026-01-14 14:21:03.69	344.25	8.73	-48.8	-61.3	3.8	8.45e-01	0	41	104	0	67	15637
2026-01-14 14:21:06.53	344.25	8.50	-48.8	-61.3	3.8	8.47e-01	0	41	104	0	67	15630
2026-01-14 14:21:09.65	344.24	8.24	-48.8	-61.3	3.8	8.47e-01	0	40	104	0	67	15597
2026-01-14 14:21:12.49	344.24	8.02	-48.8	-61.3	3.8	8.46e-01	0	41	104	0	67	15684
2026-01-14 14:21:15.71	344.23	7.76	-48.8	-61.3	3.8	8.46e-01	0	40	104	0	67	15676
2026-01-14 14:21:18.55	344.23	7.54	-48.8	-61.3	3.8	8.48e-01	0	40	104	0	67	15595
2026-01-14 14:21:21.67	344.22	7.29	-48.6	-61.2	3.8	8.47e-01	0	40	104	0	67	15560
2026-01-14 14:21:24.51	344.22	7.07	-48.8	-61.3	3.8	8.47e-01	0	40	104	0	67	15682
2026-01-14 14:21:27.64	344.22	6.83	-48.6	-61.2	3.8	8.47e-01	0	41	104	0	67	15463
2026-01-14 14:21:30.48	344.21	6.62	-48.6	-61.2	3.8	8.47e-01	0	40	104	0	67	15527
2026-01-14 14:21:33.74	344.21	6.37	-48.8	-61.3	3.8	8.49e-01	0	40	104	0	67	15624
2026-01-14 14:21:36.59	344.21	6.16	-48.8	-61.3	3.8	8.47e-01	0	41	104	0	67	15635
2026-01-14 14:21:39.71	344.21	5.93	-48.8	-61.3	3.8	8.48e-01	0	40	104	0	67	15646
2026-01-14 14:21:42.55	344.21	5.72	-48.8	-61.3	3.8	8.46e-01	0	40	104	0	67	15586
2026-01-14 14:21:45.67	344.20	5.49	-48.8	-61.3	3.8	8.47e-01	0	40	104	0	67	15619
2026-01-14 14:21:48.51	344.20	5.29	-48.9	-61.3	3.8	8.47e-01	0	40	104	0	67	15678
2026-01-14 14:21:51.73	344.20	5.06	-48.8	-61.3	3.8	8.47e-01	0	40	104	0	67	15602

#Closed at: 2026-01-14 14:21:53
#Recorded file [0 MB]: D:/Data/31040_260114_170856.dat