passes_logs/2026/01/14/T1/T1__20260114_122400_FENGYUN_3D_rec.log

#Pass ID: 20260114_122400_FENGYUN 3D
#Satellite: FENGYUN 3D
#Configuration: FENGYUN 3D
#almurnet v.1.7.20251203
#Start time: 2026-01-14 12:24:00

#Version: 2.0.20230620
#Station: T1
#Location: 37.570604 lon 55.790049 lat
#TLE: 1 43010U 17072A   26013.31211337  .00000452  00000+0  23563-3 0  9990
#TLE: 2 43010  98.9934 345.1024 0002270 111.0315 249.1103 14.19696845423017

#Time	Az	El	Level	Level2	SNR	BER	BlckErr	Temp	State	Recorded	gain1	gain2
2026-01-14 12:24:00.85	173.63	5.03	-52.2	-64.6	3.8	8.47e-01	0	40	0	0	76	14629
2026-01-14 12:24:03.82	173.71	5.24	-49.9	-64.0	3.8	8.46e-01	0	41	104	0	70	19325
2026-01-14 12:24:06.81	173.79	5.45	-49.8	-63.7	3.8	8.48e-01	0	41	104	0	70	18603
2026-01-14 12:24:09.79	173.87	5.67	-49.8	-63.2	3.8	8.46e-01	0	41	104	0	70	17583
2026-01-14 12:24:12.77	173.95	5.89	-49.9	-62.9	3.8	8.46e-01	0	41	104	0	70	17045
2026-01-14 12:24:15.75	174.03	6.10	-50.0	-63.0	3.8	8.46e-01	0	41	104	0	70	17280
2026-01-14 12:24:18.73	174.11	6.33	-50.0	-63.4	3.8	8.47e-01	0	41	104	0	70	17898
2026-01-14 12:24:21.71	174.19	6.55	-50.1	-63.9	3.8	8.47e-01	0	41	104	0	70	19060
2026-01-14 12:24:24.70	174.28	6.77	-49.9	-64.0	3.8	8.47e-01	0	41	104	0	70	19235
2026-01-14 12:24:27.68	174.37	7.00	-49.7	-60.4	4.2	8.40e-01	0	42	0	0	70	12774
2026-01-14 12:24:30.66	174.45	7.23	-48.5	-54.9	7.9	1.45e-01	0	42	0	7340032	69	7134
2026-01-14 12:24:33.64	174.54	7.46	-46.6	-50.7	11.9	1.17e-03	0	42	0	24117248	65	5564
2026-01-14 12:24:36.62	174.63	7.69	-45.2	-48.4	14.4	2.20e-06	0	42	0	40894464	62	5057
2026-01-14 12:24:39.60	174.72	7.93	-44.5	-47.5	15.2	0.00e+00	0	42	0	57671680	60	5102
2026-01-14 12:24:42.58	174.82	8.16	-44.7	-47.8	14.9	1.10e-06	0	42	0	74448896	60	5292
2026-01-14 12:24:45.56	174.91	8.40	-46.0	-49.6	13.1	2.05e-05	0	42	0	91226112	62	5839
2026-01-14 12:24:48.55	175.01	8.64	-47.8	-53.2	9.4	1.02e-02	0	42	0	108003328	66	7008
2026-01-14 12:24:51.53	175.10	8.89	-49.5	-59.1	4.7	7.76e-01	0	42	0	120586240	69	11588
2026-01-14 12:24:54.51	175.20	9.13	-48.2	-56.1	6.6	8.43e-01	0	42	104	120586240	68	8702
2026-01-14 12:24:57.50	175.30	9.38	-48.3	-57.1	5.9	6.06e-01	0	42	0	125829120	68	9758
2026-01-14 12:25:00.52	175.40	9.64	-48.8	-56.7	6.3	3.68e-01	0	42	0	142606336	68	9368
2026-01-14 12:25:03.50	175.51	9.89	-48.9	-55.3	7.4	1.26e-01	0	42	0	159383552	68	7923
2026-01-14 12:25:06.74	175.62	10.17	-48.3	-53.0	9.8	4.25e-01	0	42	0	165675008	68	6064
2026-01-14 12:25:09.63	175.72	10.42	-46.9	-50.5	12.2	2.92e-04	0	43	0	174063616	65	5450
2026-01-14 12:25:13.14	175.85	10.73	-43.7	-46.2	16.5	0.00e+00	0	43	0	193986560	59	4681
2026-01-14 12:25:15.86	175.95	10.97	-43.5	-46.0	16.7	0.00e+00	0	43	0	208666624	58	4865
2026-01-14 12:25:19.13	176.08	11.26	-43.3	-45.7	17.0	0.00e+00	0	43	0	227540992	58	4704
2026-01-14 12:25:21.85	176.18	11.51	-43.2	-45.5	17.2	0.00e+00	0	43	0	242221056	58	4586
2026-01-14 12:25:25.12	176.31	11.81	-43.4	-45.7	17.1	0.00e+00	0	43	0	261095424	58	4653
2026-01-14 12:25:28.10	176.43	12.08	-43.4	-45.6	17.1	0.00e+00	0	43	0	277872640	58	4630
2026-01-14 12:25:31.09	176.55	12.36	-43.5	-45.7	17.1	0.00e+00	0	43	0	294649856	58	4667
2026-01-14 12:25:34.07	176.67	12.65	-43.3	-45.5	17.2	0.00e+00	0	43	0	311427072	58	4591
2026-01-14 12:25:37.07	176.80	12.93	-43.2	-45.4	17.3	0.00e+00	0	43	0	328204288	58	4511
2026-01-14 12:25:40.14	176.93	13.23	-43.1	-45.3	17.5	0.00e+00	0	43	0	344981504	58	4450
2026-01-14 12:25:42.98	177.05	13.51	-43.1	-45.3	17.5	0.00e+00	0	43	0	361758720	58	4454
2026-01-14 12:25:46.11	177.19	13.82	-43.0	-45.1	17.6	0.00e+00	0	43	0	379584512	57	4649
2026-01-14 12:25:49.24	177.33	14.14	-42.8	-44.9	17.8	0.00e+00	0	43	0	396361728	57	4538
2026-01-14 12:25:52.22	177.47	14.44	-42.8	-44.9	17.8	0.00e+00	0	43	0	413138944	57	4532
2026-01-14 12:25:55.21	177.61	14.75	-42.8	-44.9	17.9	0.00e+00	0	43	0	429916160	57	4498
2026-01-14 12:25:58.20	177.75	15.06	-42.7	-44.8	18.0	0.00e+00	0	43	0	446693376	57	4469
2026-01-14 12:26:01.24	177.90	15.38	-42.3	-44.3	18.4	0.00e+00	0	43	0	464519168	56	4468
2026-01-14 12:26:04.22	178.05	15.70	-42.1	-44.1	18.6	0.00e+00	0	43	0	481296384	56	4382
2026-01-14 12:26:07.21	178.20	16.02	-42.0	-44.0	18.7	0.00e+00	0	43	0	498073600	56	4325
2026-01-14 12:26:10.20	178.35	16.35	-41.7	-43.7	18.9	0.00e+00	0	43	0	514850816	55	4415
2026-01-14 12:26:13.18	178.51	16.68	-41.6	-43.5	19.0	0.00e+00	0	43	0	531628032	55	4333
2026-01-14 12:26:16.15	178.67	17.01	-41.5	-43.4	19.1	0.00e+00	0	43	0	548405248	55	4271
2026-01-14 12:26:19.14	178.84	17.36	-41.4	-43.4	19.2	0.00e+00	0	43	0	565182464	54	4495
2026-01-14 12:26:22.13	179.01	17.70	-41.3	-43.3	19.2	1.36e-04	0	43	0	581959680	54	4457
2026-01-14 12:26:25.11	179.18	18.05	-41.3	-43.3	19.3	3.20e-05	0	43	0	598736896	54	4444
2026-01-14 12:26:28.10	179.35	18.41	-41.4	-43.4	19.2	0.00e+00	0	43	0	615514112	54	4498
2026-01-14 12:26:31.37	179.55	18.80	-41.4	-43.3	19.2	0.00e+00	0	43	0	633339904	54	4457
2026-01-14 12:26:34.07	179.72	19.13	-41.4	-43.4	19.1	0.00e+00	0	43	0	649068544	54	4515
2026-01-14 12:26:38.00	179.96	19.62	-41.3	-43.3	19.3	0.00e+00	0	43	0	671088640	54	4445
2026-01-14 12:26:40.86	180.15	19.98	-41.1	-43.1	19.4	0.00e+00	0	43	0	686817280	54	4354
2026-01-14 12:26:44.88	180.42	20.49	-41.0	-42.9	19.3	0.00e+00	0	43	0	709885952	54	4285
2026-01-14 12:26:47.73	180.61	20.87	-41.1	-43.1	19.4	0.00e+00	0	43	0	725614592	54	4352
2026-01-14 12:26:51.71	180.89	21.39	-41.1	-43.0	19.5	0.00e+00	0	43	0	747634688	54	4333
2026-01-14 12:26:54.54	181.10	21.78	-40.8	-42.7	19.7	0.00e+00	0	43	0	763363328	53	4420
2026-01-14 12:26:58.52	181.40	22.32	-40.7	-42.6	19.8	0.00e+00	0	43	0	786432000	53	4384
2026-01-14 12:27:01.35	181.61	22.72	-40.8	-42.7	19.7	0.00e+00	0	43	0	802160640	53	4414
2026-01-14 12:27:05.52	181.94	23.31	-40.4	-42.2	20.2	0.00e+00	0	43	0	825229312	52	4437
2026-01-14 12:27:08.50	182.19	23.74	-40.4	-42.2	20.1	0.00e+00	0	43	0	843055104	52	4439
2026-01-14 12:27:11.83	182.47	24.23	-40.4	-42.2	20.2	0.00e+00	0	43	0	860880896	52	4440
2026-01-14 12:27:14.89	182.73	24.69	-40.3	-42.1	20.3	0.00e+00	0	43	0	878706688	52	4386
2026-01-14 12:27:18.17	183.02	25.19	-40.2	-42.0	20.4	0.00e+00	0	43	0	896532480	52	4321
2026-01-14 12:27:20.88	183.27	25.61	-40.2	-42.0	20.4	0.00e+00	0	43	0	912261120	52	4332
2026-01-14 12:27:24.17	183.58	26.13	-40.3	-42.2	20.3	0.00e+00	0	43	0	931135488	52	4394
2026-01-14 12:27:27.20	183.87	26.61	-40.2	-42.1	20.4	0.00e+00	0	43	0	947912704	52	4341
2026-01-14 12:27:31.10	184.27	27.25	-40.2	-42.0	20.4	0.00e+00	0	43	0	969932800	52	4308
2026-01-14 12:27:33.94	184.56	27.72	-40.0	-41.8	20.6	0.00e+00	0	43	0	985661440	51	4476
2026-01-14 12:27:38.14	185.01	28.43	-40.0	-41.8	20.6	0.00e+00	0	43	0	1008730112	51	4485
2026-01-14 12:27:40.99	185.33	28.93	-40.1	-42.0	20.5	0.00e+00	0	43	0	1025507328	51	4549
2026-01-14 12:27:45.17	185.82	29.66	-40.4	-42.3	20.3	0.00e+00	0	43	0	1048576000	51	4708
2026-01-14 12:27:48.33	186.20	30.23	-40.2	-42.0	20.5	0.00e+00	0	43	0	1066401792	51	4563
2026-01-14 12:27:52.30	186.69	30.96	-40.0	-41.8	20.7	0.00e+00	0	43	0	1089470464	51	4459
2026-01-14 12:27:55.15	187.06	31.49	-40.1	-41.9	20.6	0.00e+00	0	43	0	1105199104	51	4528
2026-01-14 12:27:59.13	187.60	32.25	-40.1	-41.9	20.6	0.00e+00	0	43	0	1127219200	51	4504
2026-01-14 12:28:01.94	188.00	32.79	-39.8	-41.6	20.8	0.00e+00	0	43	0	1142947840	51	4362
2026-01-14 12:28:05.11	188.46	33.42	-39.8	-41.6	20.8	0.00e+00	0	43	0	1160773632	51	4368
2026-01-14 12:28:07.95	188.89	33.99	-39.8	-41.6	20.8	0.00e+00	0	43	0	1176502272	51	4357
2026-01-14 12:28:11.19	189.39	34.65	-40.0	-41.8	20.7	0.00e+00	0	43	0	1195376640	51	4463
2026-01-14 12:28:14.13	189.87	35.26	-39.8	-41.6	20.9	0.00e+00	0	43	0	1211105280	51	4347
2026-01-14 12:28:17.47	190.43	35.96	-39.4	-41.2	21.2	0.00e+00	0	43	0	1229979648	50	4396
2026-01-14 12:28:20.20	190.91	36.55	-39.4	-41.2	21.2	0.00e+00	0	43	0	1245708288	50	4413
2026-01-14 12:28:23.47	191.51	37.26	-39.5	-41.2	21.1	0.00e+00	0	43	0	1264582656	50	4432
2026-01-14 12:28:26.18	192.03	37.86	-39.8	-41.6	20.8	0.00e+00	0	43	0	1279262720	50	4622
2026-01-14 12:28:29.51	192.69	38.61	-39.7	-41.5	21.0	0.00e+00	0	43	0	1298137088	50	4549
2026-01-14 12:28:32.56	193.32	39.30	-39.3	-41.0	21.4	0.00e+00	0	43	0	1314914304	50	4332
2026-01-14 12:28:35.86	194.03	40.07	-39.7	-41.5	21.0	0.00e+00	0	43	0	1333788672	50	4576
2026-01-14 12:28:38.57	194.64	40.70	-39.9	-41.7	20.8	0.00e+00	0	43	0	1349517312	50	4655
2026-01-14 12:28:41.85	195.41	41.48	-39.9	-41.7	20.8	0.00e+00	0	43	0	1367343104	50	4658
2026-01-14 12:28:44.55	196.07	42.14	-39.9	-41.7	20.8	0.00e+00	0	43	0	1383071744	50	4689
2026-01-14 12:28:47.85	196.92	42.94	-40.2	-42.0	20.6	0.00e+00	0	43	0	1401946112	51	4552
2026-01-14 12:28:50.56	197.65	43.61	-40.1	-41.9	20.6	0.00e+00	0	43	0	1416626176	51	4539
2026-01-14 12:28:53.82	198.57	44.42	-40.1	-41.9	20.7	0.00e+00	0	43	0	1434451968	51	4501
2026-01-14 12:28:56.79	199.44	45.17	-40.0	-41.8	20.7	0.00e+00	0	43	0	1451229184	51	4471
2026-01-14 12:29:00.08	200.46	46.01	-40.0	-41.8	20.8	0.00e+00	0	43	0	1470103552	51	4444
2026-01-14 12:29:02.89	201.38	46.73	-40.1	-41.9	20.7	0.00e+00	0	44	0	1485832192	51	4514
2026-01-14 12:29:06.01	202.44	47.53	-40.1	-41.9	20.7	0.00e+00	0	43	0	1503657984	51	4527
2026-01-14 12:29:08.86	203.46	48.27	-40.7	-42.5	20.1	0.00e+00	0	43	0	1519386624	52	4597
2026-01-14 12:29:11.99	204.64	49.09	-40.4	-42.2	20.4	0.00e+00	0	43	0	1537212416	52	4432
2026-01-14 12:29:14.97	205.83	49.86	-40.5	-42.3	20.3	0.00e+00	0	44	0	1553989632	52	4459
2026-01-14 12:29:17.95	207.07	50.64	-40.3	-42.1	20.4	0.00e+00	0	43	0	1570766848	52	4378
2026-01-14 12:29:20.94	208.38	51.42	-40.6	-42.4	20.2	0.00e+00	0	43	0	1587544064	52	4499
2026-01-14 12:29:23.92	209.76	52.19	-40.5	-42.3	20.3	0.00e+00	0	43	0	1604321280	52	4484
2026-01-14 12:29:26.85	211.19	52.94	-40.6	-42.4	20.2	0.00e+00	0	44	0	1621098496	52	4503
2026-01-14 12:29:30.17	212.89	53.79	-40.9	-42.8	19.9	0.00e+00	0	43	0	1638924288	52	4729
2026-01-14 12:29:33.14	214.50	54.53	-40.7	-42.5	20.1	0.00e+00	0	44	0	1655701504	53	4306
2026-01-14 12:29:36.54	216.45	55.37	-40.4	-42.2	20.4	0.00e+00	0	43	0	1675624448	52	4405
2026-01-14 12:29:39.26	218.09	56.02	-40.7	-42.5	20.1	0.00e+00	0	43	0	1690304512	52	4577
2026-01-14 12:29:42.68	220.26	56.82	-40.6	-42.5	20.2	0.00e+00	0	44	0	1710227456	52	4550
2026-01-14 12:29:45.40	222.08	57.44	-40.5	-42.3	20.3	0.00e+00	0	43	0	1724907520	52	4476
2026-01-14 12:29:48.69	224.39	58.15	-40.3	-42.1	20.5	0.00e+00	0	43	0	1743781888	52	4361
2026-01-14 12:29:51.47	226.44	58.72	-40.3	-42.1	20.5	0.00e+00	0	44	0	1759510528	52	4373
2026-01-14 12:29:55.40	229.49	59.49	-39.9	-41.6	21.0	0.00e+00	0	43	0	1781530624	51	4390
2026-01-14 12:29:58.24	231.79	59.99	-39.8	-41.5	21.0	0.00e+00	0	43	0	1797259264	51	4326
2026-01-14 12:30:02.22	235.18	60.64	-39.9	-41.7	20.9	0.00e+00	0	43	0	1819279360	51	4411
2026-01-14 12:30:05.07	237.70	61.05	-39.4	-41.1	21.3	0.00e+00	0	43	0	1836056576	50	4369
2026-01-14 12:30:09.14	241.44	61.55	-39.8	-41.6	20.9	0.00e+00	0	43	0	1858076672	50	4626
2026-01-14 12:30:12.16	244.30	61.85	-40.0	-41.8	20.8	0.00e+00	0	43	0	1875902464	50	4715
2026-01-14 12:30:15.46	247.50	62.11	-39.7	-41.4	21.1	0.00e+00	0	43	0	1893728256	50	4544
2026-01-14 12:30:18.17	250.17	62.27	-39.9	-41.6	20.9	0.00e+00	0	44	0	1909456896	50	4645
2026-01-14 12:30:21.44	253.44	62.39	-39.4	-41.2	21.3	0.00e+00	0	44	0	1927282688	50	4399
2026-01-14 12:30:24.15	256.16	62.43	-39.4	-41.1	21.3	0.00e+00	0	44	0	1943011328	50	4370
2026-01-14 12:30:27.44	259.47	62.41	-39.5	-41.2	21.3	0.00e+00	0	43	0	1961885696	50	4425
2026-01-14 12:30:30.16	262.19	62.33	-39.6	-41.4	21.1	0.00e+00	0	43	0	1976565760	50	4521
2026-01-14 12:30:33.48	265.48	62.16	-39.5	-41.3	21.2	0.00e+00	0	43	0	1995440128	50	4467
2026-01-14 12:30:36.27	268.20	61.96	-39.6	-41.3	21.2	0.00e+00	0	43	0	2011168768	50	4466
2026-01-14 12:30:39.40	271.19	61.67	-39.6	-41.3	21.2	0.00e+00	0	43	0	2028994560	50	4484
2026-01-14 12:30:42.62	274.19	61.31	-39.9	-41.7	20.9	0.00e+00	0	44	0	2046820352	50	4674
2026-01-14 12:30:45.61	276.89	60.91	-39.9	-41.7	20.9	0.00e+00	0	43	0	2063597568	50	4652
2026-01-14 12:30:48.97	279.82	60.41	-39.5	-41.3	21.3	0.00e+00	0	43	0	2082471936	50	4442
2026-01-14 12:30:51.69	282.11	59.95	-40.0	-41.8	20.8	0.00e+00	0	43	0	2098200576	50	4717
2026-01-14 12:30:55.65	285.28	59.23	-40.2	-42.0	20.6	0.00e+00	0	44	0	2120220672	51	4591
2026-01-14 12:30:58.49	287.45	58.68	-40.1	-41.8	20.8	0.00e+00	0	43	0	2135949312	51	4485
2026-01-14 12:31:02.21	290.16	57.90	-40.4	-42.1	20.5	0.00e+00	0	43	0	2156920832	51	4650
2026-01-14 12:31:05.21	292.23	57.24	-40.4	-42.2	20.5	0.00e+00	0	44	0	2173698048	51	4655
2026-01-14 12:31:08.49	294.37	56.49	-40.4	-42.2	20.4	0.00e+00	0	43	0	2192572416	51	4698
2026-01-14 12:31:11.23	296.08	55.85	-40.6	-42.4	20.3	0.00e+00	0	43	0	2208301056	51	4806
2026-01-14 12:31:14.50	298.02	55.06	-40.6	-42.4	20.1	0.00e+00	0	43	0	2226126848	52	4533
2026-01-14 12:31:17.56	299.73	54.30	-40.7	-42.5	20.1	0.00e+00	0	43	0	2243952640	52	4567
2026-01-14 12:31:20.69	301.39	53.51	-40.6	-42.4	20.1	0.00e+00	0	43	0	2260729856	52	4532
2026-01-14 12:31:23.53	302.83	52.79	-40.5	-42.3	20.3	0.00e+00	0	43	0	2277507072	52	4461
2026-01-14 12:31:26.66	304.33	51.99	-40.8	-42.5	20.3	0.00e+00	0	44	0	2294284288	52	4595
2026-01-14 12:31:29.50	305.62	51.25	-40.6	-42.4	20.4	0.00e+00	0	44	0	2311061504	52	4501
2026-01-14 12:31:32.63	306.97	50.44	-40.2	-41.9	20.8	0.00e+00	0	44	0	2327838720	52	4262
2026-01-14 12:31:35.48	308.14	49.70	-39.8	-41.5	21.2	0.00e+00	0	43	0	2344615936	51	4323
2026-01-14 12:31:38.97	309.50	48.80	-39.9	-41.6	21.1	0.00e+00	0	43	0	2363490304	51	4361
2026-01-14 12:31:41.69	310.51	48.09	-39.8	-41.4	21.3	0.00e+00	0	43	0	2379218944	51	4285
2026-01-14 12:31:44.91	311.64	47.26	-39.8	-41.5	21.3	0.00e+00	0	43	0	2397044736	51	4307
2026-01-14 12:31:47.75	312.60	46.53	-39.6	-41.3	21.4	0.00e+00	0	43	0	2412773376	51	4222
2026-01-14 12:31:50.88	313.60	45.74	-39.8	-41.5	21.3	0.00e+00	0	43	0	2430599168	51	4303
2026-01-14 12:31:53.72	314.46	45.02	-39.9	-41.6	21.1	0.00e+00	0	43	0	2447376384	51	4386
2026-01-14 12:31:57.07	315.43	44.18	-40.0	-41.7	21.0	0.00e+00	0	43	0	2465202176	51	4440
2026-01-14 12:32:00.20	316.30	43.41	-39.7	-41.4	21.3	0.00e+00	0	43	0	2483027968	51	4281
2026-01-14 12:32:03.04	317.05	42.71	-39.8	-41.5	21.2	0.00e+00	0	43	0	2498756608	51	4324
2026-01-14 12:32:06.23	317.85	41.94	-39.9	-41.6	21.2	0.00e+00	0	44	0	2517630976	51	4371
2026-01-14 12:32:09.14	318.55	41.25	-39.9	-41.7	21.1	0.00e+00	0	44	0	2533359616	51	4393
2026-01-14 12:32:12.37	319.30	40.49	-39.4	-41.1	21.6	0.00e+00	0	44	0	2552233984	50	4341
2026-01-14 12:32:15.27	319.94	39.81	-39.4	-41.1	21.5	0.00e+00	0	44	0	2567962624	50	4376
2026-01-14 12:32:18.76	320.68	39.01	-39.4	-41.1	21.5	0.00e+00	0	44	0	2587885568	50	4385
2026-01-14 12:32:21.46	321.23	38.41	-39.3	-41.0	21.7	0.00e+00	0	44	0	2602565632	50	4300
2026-01-14 12:32:24.86	321.89	37.65	-39.1	-40.8	21.8	0.00e+00	0	43	0	2622488576	50	4207
2026-01-14 12:32:27.59	322.40	37.05	-39.3	-41.0	21.6	0.00e+00	0	44	0	2637168640	50	4308
2026-01-14 12:32:31.16	323.04	36.29	-39.5	-41.3	21.4	0.00e+00	0	44	0	2657091584	50	4453
2026-01-14 12:32:34.19	323.56	35.65	-39.6	-41.3	21.4	0.00e+00	0	43	0	2673868800	50	4487
2026-01-14 12:32:37.63	324.13	34.93	-39.6	-41.3	21.4	0.00e+00	0	44	0	2693791744	50	4450
2026-01-14 12:32:40.83	324.63	34.28	-39.5	-41.3	21.4	0.00e+00	0	44	0	2711617536	50	4442
2026-01-14 12:32:44.02	325.12	33.64	-39.4	-41.1	21.6	0.00e+00	0	44	0	2729443328	50	4358
2026-01-14 12:32:46.86	325.54	33.08	-39.4	-41.1	21.5	0.00e+00	0	43	0	2746220544	50	4369
2026-01-14 12:32:50.08	325.99	32.45	-39.6	-41.3	21.4	0.00e+00	0	43	0	2764046336	50	4480
2026-01-14 12:32:52.93	326.38	31.91	-39.7	-41.4	21.3	0.00e+00	0	44	0	2779774976	50	4509
2026-01-14 12:32:56.20	326.82	31.30	-39.8	-41.5	21.2	0.00e+00	0	43	0	2798649344	50	4569
2026-01-14 12:32:59.45	327.23	30.70	-39.7	-41.4	21.3	0.00e+00	0	43	0	2816475136	50	4506
2026-01-14 12:33:03.07	327.68	30.04	-39.7	-41.4	21.3	0.00e+00	0	43	0	2837446656	50	4527
2026-01-14 12:33:05.98	328.02	29.53	-39.7	-41.4	21.2	0.00e+00	0	43	0	2853175296	50	4539
2026-01-14 12:33:08.97	328.37	29.01	-39.6	-41.3	21.3	0.00e+00	0	44	0	2869952512	50	4470
2026-01-14 12:33:11.95	328.70	28.49	-39.6	-41.3	21.3	0.00e+00	0	43	0	2886729728	50	4473
2026-01-14 12:33:14.94	329.02	27.99	-39.7	-41.4	21.2	0.00e+00	0	44	0	2903506944	50	4533
2026-01-14 12:33:17.93	329.34	27.49	-39.9	-41.6	21.1	0.00e+00	0	44	0	2920284160	50	4640
2026-01-14 12:33:20.91	329.64	27.01	-39.9	-41.7	21.0	0.00e+00	0	44	0	2937061376	50	4658
2026-01-14 12:33:23.95	329.94	26.52	-39.8	-41.6	21.1	0.00e+00	0	43	0	2953838592	50	4625
2026-01-14 12:33:27.04	330.24	26.03	-39.9	-41.6	21.0	0.00e+00	0	43	0	2971664384	50	4626
2026-01-14 12:33:29.92	330.51	25.58	-39.9	-41.7	21.0	0.00e+00	0	43	0	2988441600	50	4655
2026-01-14 12:33:33.29	330.81	25.06	-40.0	-41.8	20.9	0.00e+00	0	43	0	3007315968	50	4740
2026-01-14 12:33:36.26	331.08	24.62	-40.1	-41.9	20.8	0.00e+00	0	43	0	3024093184	51	4524
2026-01-14 12:33:39.54	331.36	24.13	-40.2	-41.9	20.8	0.00e+00	0	44	0	3041918976	51	4541
2026-01-14 12:33:42.24	331.58	23.74	-40.2	-42.0	20.7	0.00e+00	0	43	0	3057647616	51	4555
2026-01-14 12:33:45.83	331.87	23.22	-40.3	-42.1	20.6	0.00e+00	0	43	0	3077570560	51	4624
2026-01-14 12:33:48.74	332.10	22.81	-40.5	-42.3	20.4	0.00e+00	0	44	0	3093299200	51	4729
2026-01-14 12:33:52.23	332.37	22.33	-40.7	-42.5	20.3	0.00e+00	0	43	0	3113222144	51	4834
2026-01-14 12:33:55.16	332.59	21.93	-40.7	-42.5	20.2	0.00e+00	0	43	0	3129999360	52	4596
2026-01-14 12:33:59.65	332.92	21.33	-40.7	-42.5	20.1	0.00e+00	0	43	0	3155165184	52	4583
2026-01-14 12:34:02.48	333.12	20.96	-40.7	-42.5	20.2	0.00e+00	0	44	0	3170893824	52	4573
2026-01-14 12:34:06.45	333.39	20.44	-40.8	-42.7	20.0	0.00e+00	0	43	0	3192913920	52	4654
2026-01-14 12:34:09.29	333.58	20.08	-40.9	-42.8	19.9	0.00e+00	0	43	0	3209691136	52	4710
2026-01-14 12:34:13.33	333.84	19.58	-41.2	-43.0	19.7	0.00e+00	0	43	0	3231711232	52	4853
2026-01-14 12:34:16.16	334.02	19.23	-41.2	-43.1	19.6	0.00e+00	0	44	0	3248488448	53	4611
2026-01-14 12:34:20.14	334.27	18.75	-41.3	-43.2	19.5	0.00e+00	0	44	0	3270508544	53	4704
2026-01-14 12:34:22.92	334.43	18.41	-41.4	-43.4	19.4	0.00e+00	0	44	0	3286237184	53	4777
2026-01-14 12:34:26.19	334.63	18.03	-41.5	-43.4	19.3	0.00e+00	0	44	0	3304062976	53	4814
2026-01-14 12:34:28.90	334.78	17.72	-41.7	-43.5	19.2	0.00e+00	0	44	0	3319791616	53	4869
2026-01-14 12:34:32.17	334.97	17.34	-41.7	-43.6	19.1	0.00e+00	0	43	0	3337617408	54	4630
2026-01-14 12:34:34.90	335.12	17.03	-41.7	-43.6	19.1	0.00e+00	0	43	0	3353346048	54	4647
2026-01-14 12:34:38.17	335.30	16.67	-41.7	-43.7	19.0	0.00e+00	0	44	0	3372220416	54	4681
2026-01-14 12:34:40.89	335.44	16.37	-41.7	-43.7	19.0	0.00e+00	0	44	0	3386900480	54	4693
2026-01-14 12:34:44.16	335.61	16.01	-41.7	-43.7	19.0	0.00e+00	0	44	0	3405774848	54	4674
2026-01-14 12:34:47.00	335.76	15.71	-41.9	-43.8	18.9	0.00e+00	0	44	0	3421503488	54	4746
2026-01-14 12:34:50.36	335.93	15.36	-42.0	-43.9	18.8	0.00e+00	0	44	0	3440377856	54	4789
2026-01-14 12:34:53.41	336.07	15.04	-42.1	-44.0	18.7	0.00e+00	0	43	0	3457155072	54	4869
2026-01-14 12:34:56.55	336.23	14.71	-42.3	-44.3	18.5	0.00e+00	0	43	0	3474980864	55	4715
2026-01-14 12:34:59.39	336.36	14.42	-42.3	-44.3	18.4	0.00e+00	0	44	0	3490709504	55	4755
2026-01-14 12:35:02.52	336.50	14.11	-42.5	-44.5	18.2	0.00e+00	0	44	0	3508535296	55	4841
2026-01-14 12:35:05.37	336.63	13.83	-42.5	-44.6	18.1	0.00e+00	0	43	0	3525312512	55	4911
2026-01-14 12:35:08.50	336.77	13.52	-42.6	-44.7	18.0	0.00e+00	0	43	0	3542089728	55	4976
2026-01-14 12:35:11.34	336.90	13.24	-42.5	-44.7	18.0	0.00e+00	0	44	0	3557818368	55	4940
2026-01-14 12:35:14.86	337.05	12.91	-42.8	-45.0	17.9	0.00e+00	0	43	0	3578789888	56	4829
2026-01-14 12:35:17.59	337.16	12.65	-42.9	-45.0	17.9	0.00e+00	0	44	0	3593469952	56	4842
2026-01-14 12:35:20.88	337.30	12.34	-42.9	-45.1	17.8	0.00e+00	0	44	0	3612344320	56	4871
2026-01-14 12:35:23.59	337.41	12.09	-43.0	-45.1	17.7	0.00e+00	0	44	0	3627024384	56	4912
2026-01-14 12:35:26.88	337.54	11.79	-43.2	-45.4	17.5	0.00e+00	0	43	0	3645898752	56	5051
2026-01-14 12:35:29.58	337.65	11.54	-43.1	-45.3	17.5	0.00e+00	0	44	0	3660578816	57	4753
2026-01-14 12:35:33.04	337.79	11.23	-43.2	-45.4	17.4	0.00e+00	0	44	0	3680501760	57	4799
2026-01-14 12:35:36.12	337.90	10.96	-43.3	-45.5	17.3	0.00e+00	0	44	0	3698327552	57	4856
2026-01-14 12:35:39.48	338.03	10.66	-43.4	-45.7	17.1	0.00e+00	0	44	0	3716153344	57	4936
2026-01-14 12:35:42.20	338.13	10.43	-43.5	-45.8	17.0	0.00e+00	0	44	0	3731881984	57	4990
2026-01-14 12:35:45.48	338.25	10.15	-43.6	-45.8	17.0	0.00e+00	0	44	0	3750756352	57	5012
2026-01-14 12:35:48.19	338.35	9.92	-43.5	-45.7	17.1	0.00e+00	0	44	0	3765436416	57	4971
2026-01-14 12:35:51.48	338.46	9.64	-43.7	-46.0	16.8	0.00e+00	0	44	0	3784310784	58	4823
2026-01-14 12:35:54.44	338.56	9.39	-43.7	-46.0	16.8	0.00e+00	0	44	0	3801088000	58	4828
2026-01-14 12:35:57.84	338.68	9.11	-43.7	-45.9	16.8	0.00e+00	0	44	0	3819962368	58	4797
2026-01-14 12:36:00.56	338.77	8.89	-51.0	-64.2	3.8	8.47e-01	0	44	104	3831496704	73	16639
2026-01-14 12:36:03.82	338.88	8.63	-52.2	-64.5	3.8	8.48e-01	0	43	104	3831496704	75	15344
2026-01-14 12:36:06.54	338.97	8.41	-52.1	-64.7	3.8	8.47e-01	0	44	104	3831496704	74	16634
2026-01-14 12:36:09.82	339.07	8.15	-52.5	-64.8	3.8	8.46e-01	0	44	104	3831496704	75	15922
2026-01-14 12:36:12.55	339.16	7.93	-52.8	-64.9	3.8	8.48e-01	0	44	104	3831496704	76	15121
2026-01-14 12:36:15.81	339.26	7.68	-52.8	-64.9	3.8	8.47e-01	0	44	104	3831496704	76	15202
2026-01-14 12:36:18.52	339.35	7.47	-52.8	-64.9	3.8	8.47e-01	0	44	104	3831496704	76	15098
2026-01-14 12:36:21.79	339.45	7.22	-52.7	-64.9	3.8	8.47e-01	0	44	104	3831496704	76	15111
2026-01-14 12:36:24.48	339.53	7.02	-52.5	-64.9	3.8	8.47e-01	0	44	104	3831496704	76	15104
2026-01-14 12:36:27.75	339.63	6.77	-52.5	-64.9	3.8	8.47e-01	0	44	104	3831496704	76	15094
2026-01-14 12:36:30.45	339.70	6.57	-52.5	-64.9	3.8	8.47e-01	0	44	104	3831496704	76	15098
2026-01-14 12:36:33.81	339.80	6.32	-52.5	-64.9	3.8	8.45e-01	0	44	104	3831496704	76	15116
2026-01-14 12:36:36.52	339.88	6.12	-52.5	-64.8	3.8	8.47e-01	0	44	104	3831496704	76	15046
2026-01-14 12:36:39.78	339.97	5.89	-52.5	-64.8	3.8	8.46e-01	0	43	104	3831496704	76	15018
2026-01-14 12:36:42.50	340.05	5.69	-52.5	-64.8	3.8	8.48e-01	0	44	104	3831496704	76	15011
2026-01-14 12:36:45.78	340.14	5.45	-52.5	-64.8	3.8	8.46e-01	0	44	104	3831496704	76	14998
2026-01-14 12:36:48.51	340.21	5.26	-52.5	-64.9	3.8	8.47e-01	0	44	104	3831496704	76	15060
2026-01-14 12:36:51.79	340.30	5.03	-52.5	-64.8	3.8	8.48e-01	0	44	104	3831496704	76	14995

#Closed at: 2026-01-14 12:36:53
#Recorded file [3831 MB]: D:/Data/31040_260114_152400.dat