passes_logs/2026/01/14/T1/T1__20260114_001437_NOAA_20_JPSS-1_rec.log

#Pass ID: 20260114_001437_NOAA 20 (JPSS-1)
#Satellite: NOAA 20 (JPSS-1)
#Configuration: NOAA 20
#almurnet v.1.7.20251203
#Start time: 2026-01-14 00:14:36

#Version: 2.0.20230620
#Station: T1
#Location: 37.570604 lon 55.790049 lat
#TLE: 1 43013U 17073A   26013.21545503  .00000073  00000+0  55630-4 0  9998
#TLE: 2 43013  98.7633 314.1737 0001580  41.9966 318.1331 14.19535680422486

#Time	Az	El	Level	Level2	SNR	BER	BlckErr	Temp	State	Recorded	gain1	gain2
2026-01-14 00:14:36.60	12.90	4.96	-52.4	-67.6	3.8	1.49e+00	0	41	0	0	75	21850
2026-01-14 00:14:39.58	12.83	5.17	-52.4	-67.6	3.8	1.49e+00	0	41	104	0	76	20755
2026-01-14 00:14:42.56	12.75	5.38	-52.4	-67.6	3.8	1.49e+00	0	41	104	0	76	20750
2026-01-14 00:14:45.54	12.67	5.60	-52.4	-67.6	3.8	1.49e+00	0	41	104	0	76	20742
2026-01-14 00:14:48.52	12.59	5.81	-52.4	-67.6	3.8	1.49e+00	0	41	104	0	76	20745
2026-01-14 00:14:51.50	12.51	6.03	-52.4	-67.6	3.8	1.49e+00	0	42	104	0	76	20754
2026-01-14 00:14:54.48	12.43	6.24	-52.4	-67.7	3.8	1.49e+00	0	42	104	0	76	20871
2026-01-14 00:14:57.47	12.34	6.46	-52.4	-67.6	3.8	1.49e+00	0	42	104	0	76	20754
2026-01-14 00:15:00.45	12.26	6.69	-52.4	-67.6	3.8	1.49e+00	0	42	104	0	76	20718
2026-01-14 00:15:03.43	12.17	6.91	-52.4	-67.6	3.8	1.49e+00	0	42	104	0	76	20741
2026-01-14 00:15:06.41	12.08	7.13	-52.4	-67.7	3.8	1.49e+00	0	42	104	0	76	20820
2026-01-14 00:15:09.39	11.99	7.36	-52.4	-67.6	3.8	1.49e+00	0	42	104	0	76	20635
2026-01-14 00:15:12.37	11.90	7.59	-52.4	-67.6	3.8	1.49e+00	0	42	104	0	76	20764
2026-01-14 00:15:15.35	11.81	7.82	-52.4	-67.7	3.8	1.49e+00	0	42	104	0	76	20784
2026-01-14 00:15:18.33	11.71	8.05	-52.4	-67.6	3.8	1.49e+00	0	42	104	0	76	20673
2026-01-14 00:15:21.31	11.61	8.29	-52.4	-67.7	3.8	1.49e+00	0	42	104	0	76	20843
2026-01-14 00:15:24.29	11.51	8.53	-52.4	-67.7	3.8	1.49e+00	0	42	104	0	76	20854
2026-01-14 00:15:27.27	11.41	8.77	-52.4	-67.7	3.8	1.49e+00	0	42	104	0	76	20801
2026-01-14 00:15:30.25	11.31	9.01	-52.4	-67.6	3.8	1.49e+00	0	43	104	0	76	20769
2026-01-14 00:15:33.23	11.21	9.25	-52.4	-67.6	3.8	1.49e+00	0	43	104	0	76	20749
2026-01-14 00:15:36.21	11.10	9.50	-52.4	-67.6	3.8	1.49e+00	0	43	104	0	76	20723
2026-01-14 00:15:39.19	10.99	9.75	-52.4	-67.6	3.8	1.49e+00	0	43	104	0	76	20735
2026-01-14 00:15:42.17	10.88	10.00	-52.4	-67.6	3.8	1.49e+00	0	43	104	0	76	20725
2026-01-14 00:15:45.15	10.77	10.25	-52.4	-67.7	3.8	1.49e+00	0	43	104	0	76	20813
2026-01-14 00:15:48.13	10.65	10.51	-52.4	-67.6	3.8	1.49e+00	0	43	104	0	76	20678
2026-01-14 00:15:51.11	10.54	10.76	-52.4	-67.6	3.8	1.49e+00	0	43	104	0	76	20750
2026-01-14 00:15:54.09	10.42	11.03	-52.4	-67.6	3.8	1.49e+00	0	43	104	0	76	20729
2026-01-14 00:15:57.06	10.29	11.29	-52.4	-67.6	3.8	1.49e+00	0	43	104	0	76	20714
2026-01-14 00:16:00.04	10.17	11.55	-52.4	-67.6	3.8	1.49e+00	0	43	104	0	76	20716
2026-01-14 00:16:03.02	10.04	11.82	-52.4	-67.6	3.8	1.49e+00	0	43	104	0	76	20613
2026-01-14 00:16:06.00	9.91	12.10	-52.4	-67.6	3.8	1.49e+00	0	43	104	0	76	20758
2026-01-14 00:16:08.98	9.78	12.37	-52.4	-67.7	3.8	1.49e+00	0	43	104	0	76	20792
2026-01-14 00:16:11.96	9.65	12.65	-52.4	-67.7	3.8	1.49e+00	0	43	104	0	76	20784
2026-01-14 00:16:14.94	9.51	12.93	-52.4	-67.7	3.8	1.49e+00	0	43	104	0	76	20826
2026-01-14 00:16:17.92	9.37	13.21	-52.4	-67.6	3.8	1.49e+00	0	43	104	0	76	20759
2026-01-14 00:16:20.90	9.23	13.50	-52.4	-67.6	3.8	1.49e+00	0	43	104	0	76	20745
2026-01-14 00:16:23.88	9.08	13.79	-52.4	-67.7	3.8	1.49e+00	0	43	104	0	76	20806
2026-01-14 00:16:26.86	8.93	14.08	-52.4	-67.6	3.8	1.49e+00	0	43	104	0	76	20747
2026-01-14 00:16:29.84	8.78	14.38	-52.4	-67.6	3.8	1.49e+00	0	43	104	0	76	20752
2026-01-14 00:16:32.82	8.62	14.68	-52.4	-67.7	3.8	1.49e+00	0	43	104	0	76	20820
2026-01-14 00:16:35.80	8.46	14.99	-52.4	-67.6	3.8	1.49e+00	0	43	104	0	76	20741
2026-01-14 00:16:38.78	8.30	15.29	-52.4	-67.6	3.8	1.49e+00	0	43	104	0	76	20734
2026-01-14 00:16:41.76	8.13	15.61	-52.4	-67.7	3.8	1.49e+00	0	43	104	0	76	20930
2026-01-14 00:16:44.74	7.96	15.92	-52.4	-67.6	3.8	1.49e+00	0	43	104	0	76	20739
2026-01-14 00:16:47.72	7.79	16.24	-52.4	-67.6	3.8	1.49e+00	0	43	104	0	76	20750
2026-01-14 00:16:50.70	7.61	16.56	-52.4	-67.7	3.8	1.49e+00	0	43	104	0	76	20777
2026-01-14 00:16:53.68	7.43	16.89	-52.4	-67.6	3.8	1.49e+00	0	43	104	0	76	20751
2026-01-14 00:16:56.66	7.24	17.22	-52.4	-67.6	3.8	1.49e+00	0	43	104	0	76	20686
2026-01-14 00:16:59.64	7.05	17.56	-52.4	-67.7	3.8	1.49e+00	0	43	104	0	76	20796
2026-01-14 00:17:02.62	6.85	17.90	-52.4	-67.6	3.8	1.49e+00	0	43	104	0	76	20769
2026-01-14 00:17:05.60	6.65	18.24	-52.4	-67.6	3.8	1.49e+00	0	43	104	0	76	20760
2026-01-14 00:17:08.58	6.45	18.59	-52.4	-67.6	3.8	1.49e+00	0	43	104	0	76	20749
2026-01-14 00:17:11.56	6.24	18.94	-52.4	-67.6	3.8	1.49e+00	0	43	104	0	76	20765
2026-01-14 00:17:14.54	6.02	19.30	-52.4	-67.6	3.8	1.49e+00	0	43	104	0	76	20754
2026-01-14 00:17:17.53	5.80	19.66	-52.4	-67.6	3.8	1.49e+00	0	43	104	0	76	20718
2026-01-14 00:17:20.50	5.57	20.03	-52.4	-67.6	3.8	1.49e+00	0	43	104	0	76	20698
2026-01-14 00:17:23.48	5.34	20.40	-52.4	-67.6	3.8	1.49e+00	0	43	104	0	76	20694
2026-01-14 00:17:26.46	5.10	20.78	-52.4	-67.7	3.8	1.49e+00	0	43	104	0	76	20789
2026-01-14 00:17:29.44	4.86	21.16	-52.4	-67.7	3.8	1.49e+00	0	43	104	0	76	20785
2026-01-14 00:17:32.41	4.61	21.55	-52.4	-67.7	3.8	1.49e+00	0	43	104	0	76	20794
2026-01-14 00:17:35.39	4.35	21.94	-52.4	-67.6	3.8	1.49e+00	0	43	104	0	76	20771
2026-01-14 00:17:38.37	4.08	22.34	-52.4	-67.6	3.8	1.49e+00	0	43	104	0	76	20765
2026-01-14 00:17:41.34	3.81	22.74	-52.4	-67.7	3.8	1.49e+00	0	43	104	0	76	20870
2026-01-14 00:17:44.32	3.53	23.15	-52.4	-67.7	3.8	1.49e+00	0	44	104	0	76	20782
2026-01-14 00:17:47.30	3.25	23.57	-52.4	-67.6	3.8	1.49e+00	0	43	104	0	76	20764
2026-01-14 00:17:50.28	2.95	23.99	-52.4	-67.6	3.8	1.49e+00	0	43	104	0	76	20691
2026-01-14 00:17:53.26	2.65	24.42	-52.4	-67.7	3.8	1.49e+00	0	43	104	0	76	20823
2026-01-14 00:17:56.24	2.34	24.85	-52.4	-67.7	3.8	1.49e+00	0	44	104	0	76	20802
2026-01-14 00:17:59.22	2.01	25.29	-52.4	-67.6	3.8	1.49e+00	0	43	104	0	76	20733
2026-01-14 00:18:02.20	1.68	25.74	-52.4	-67.7	3.8	1.49e+00	0	43	104	0	76	20805
2026-01-14 00:18:05.18	1.34	26.19	-52.4	-67.6	3.8	1.49e+00	0	44	104	0	76	20768
2026-01-14 00:18:08.15	0.99	26.65	-52.4	-67.6	3.8	1.49e+00	0	44	104	0	76	20713
2026-01-14 00:18:11.14	0.63	27.12	-52.4	-67.7	3.8	1.49e+00	0	43	104	0	76	20862
2026-01-14 00:18:14.11	0.26	27.59	-52.4	-67.6	3.8	1.49e+00	0	44	104	0	76	20733
2026-01-14 00:18:17.09	359.87	28.07	-52.4	-67.6	3.8	1.49e+00	0	44	104	0	76	20756
2026-01-14 00:18:20.07	359.48	28.56	-52.4	-67.7	3.8	1.49e+00	0	43	104	0	76	20796
2026-01-14 00:18:23.05	359.07	29.05	-52.4	-67.6	3.8	1.49e+00	0	44	104	0	76	20769
2026-01-14 00:18:26.03	358.64	29.56	-52.4	-67.7	3.8	1.49e+00	0	44	104	0	76	20807
2026-01-14 00:18:29.01	358.21	30.06	-52.4	-67.7	3.8	1.49e+00	0	44	104	0	76	20833
2026-01-14 00:18:31.99	357.76	30.58	-52.4	-67.7	3.8	1.49e+00	0	44	104	0	76	20799
2026-01-14 00:18:34.97	357.29	31.10	-52.4	-67.7	3.8	1.49e+00	0	44	104	0	76	20797
2026-01-14 00:18:37.95	356.81	31.63	-52.4	-67.7	3.8	1.49e+00	0	44	104	0	76	20844
2026-01-14 00:18:40.93	356.31	32.17	-52.4	-67.6	3.8	1.49e+00	0	44	104	0	76	20757
2026-01-14 00:18:43.91	355.80	32.72	-52.4	-67.6	3.8	1.49e+00	0	44	104	0	76	20719
2026-01-14 00:18:46.89	355.27	33.27	-52.4	-67.6	3.8	1.49e+00	0	43	104	0	76	20758
2026-01-14 00:18:49.87	354.71	33.83	-52.4	-67.6	3.8	1.49e+00	0	44	104	0	76	20723
2026-01-14 00:18:52.85	354.14	34.40	-52.4	-67.7	3.8	1.49e+00	0	44	104	0	76	20808
2026-01-14 00:18:55.83	353.55	34.97	-52.4	-67.7	3.8	1.49e+00	0	44	104	0	76	20834
2026-01-14 00:18:58.81	352.94	35.55	-52.4	-67.7	3.8	1.49e+00	0	44	104	0	76	20808
2026-01-14 00:19:01.79	352.30	36.14	-52.4	-67.6	3.8	1.49e+00	0	44	104	0	76	20770
2026-01-14 00:19:04.77	351.64	36.73	-52.4	-67.7	3.8	1.49e+00	0	44	104	0	76	20860
2026-01-14 00:19:07.75	350.95	37.33	-52.4	-67.7	3.8	1.49e+00	0	44	104	0	76	20910
2026-01-14 00:19:10.73	350.24	37.94	-52.4	-67.7	3.8	1.49e+00	0	44	104	0	76	20792
2026-01-14 00:19:13.71	349.50	38.55	-52.4	-67.7	3.8	1.49e+00	0	44	104	0	76	20783
2026-01-14 00:19:16.69	348.73	39.17	-52.4	-67.7	3.8	1.49e+00	0	44	104	0	76	20863
2026-01-14 00:19:19.67	347.93	39.79	-52.4	-67.7	3.8	1.49e+00	0	44	104	0	76	20805
2026-01-14 00:19:22.65	347.10	40.42	-52.4	-67.7	3.8	1.49e+00	0	44	104	0	76	20833
2026-01-14 00:19:25.63	346.24	41.05	-52.4	-67.7	3.8	1.49e+00	0	43	104	0	76	20788
2026-01-14 00:19:28.61	345.34	41.69	-52.4	-67.7	3.8	1.49e+00	0	44	104	0	76	20819
2026-01-14 00:19:31.59	344.40	42.33	-52.4	-67.7	3.8	1.49e+00	0	44	104	0	76	20816
2026-01-14 00:19:34.57	343.43	42.96	-52.4	-67.6	3.8	1.49e+00	0	44	104	0	76	20684
2026-01-14 00:19:37.55	342.42	43.61	-52.4	-67.6	3.8	1.49e+00	0	44	104	0	76	20756
2026-01-14 00:19:40.53	341.36	44.25	-52.4	-67.6	3.8	1.49e+00	0	44	104	0	76	20760
2026-01-14 00:19:43.51	340.26	44.89	-52.4	-67.7	3.8	1.49e+00	0	44	104	0	76	20785
2026-01-14 00:19:46.50	339.11	45.53	-52.4	-67.7	3.8	1.49e+00	0	44	104	0	76	20883
2026-01-14 00:19:49.48	337.92	46.16	-52.4	-67.6	3.8	1.49e+00	0	44	104	0	76	20716
2026-01-14 00:19:52.45	336.69	46.79	-52.4	-67.7	3.8	1.49e+00	0	44	104	0	76	20826
2026-01-14 00:19:55.43	335.39	47.42	-52.4	-67.7	3.8	1.49e+00	0	44	104	0	76	20792
2026-01-14 00:19:58.41	334.05	48.03	-52.4	-67.7	3.8	1.49e+00	0	44	104	0	76	20784
2026-01-14 00:20:01.39	332.65	48.64	-52.4	-67.7	3.8	1.49e+00	0	44	104	0	76	20817
2026-01-14 00:20:04.37	331.19	49.24	-52.4	-67.7	3.8	1.49e+00	0	44	104	0	76	20826
2026-01-14 00:20:07.35	329.68	49.82	-52.4	-67.6	3.8	1.49e+00	0	44	104	0	76	20751
2026-01-14 00:20:10.33	328.10	50.39	-52.4	-67.6	3.8	1.49e+00	0	44	104	0	76	20765
2026-01-14 00:20:13.31	326.47	50.95	-52.4	-67.7	3.8	1.49e+00	0	44	104	0	76	20792
2026-01-14 00:20:16.29	324.78	51.48	-52.4	-67.7	3.8	1.49e+00	0	44	104	0	76	20886
2026-01-14 00:20:19.27	323.02	51.99	-52.4	-67.7	3.8	1.49e+00	0	44	104	0	76	20788
2026-01-14 00:20:22.25	321.21	52.48	-52.4	-67.7	3.8	1.49e+00	0	44	104	0	76	20923
2026-01-14 00:20:25.23	319.33	52.94	-52.4	-67.7	3.8	1.49e+00	0	44	104	0	76	20848
2026-01-14 00:20:28.21	317.40	53.37	-52.4	-67.7	3.8	1.49e+00	0	43	104	0	76	20868
2026-01-14 00:20:31.19	315.41	53.78	-52.4	-67.6	3.8	1.49e+00	0	44	104	0	76	20719
2026-01-14 00:20:34.17	313.36	54.15	-52.4	-67.7	3.8	1.49e+00	0	44	104	0	76	20881
2026-01-14 00:20:37.15	311.27	54.48	-52.4	-67.7	3.8	1.49e+00	0	44	104	0	76	20867
2026-01-14 00:20:40.13	309.12	54.78	-52.4	-67.7	3.8	1.49e+00	0	44	104	0	76	20824
2026-01-14 00:20:43.11	306.94	55.04	-52.4	-67.7	3.8	1.49e+00	0	43	104	0	76	20826
2026-01-14 00:20:46.08	304.72	55.25	-52.4	-67.6	3.8	1.49e+00	0	44	104	0	76	20719
2026-01-14 00:20:49.06	302.47	55.43	-52.4	-67.7	3.8	1.49e+00	0	44	104	0	76	20865
2026-01-14 00:20:52.04	300.19	55.56	-52.4	-67.7	3.8	1.49e+00	0	44	104	0	76	20817
2026-01-14 00:20:55.02	297.90	55.64	-52.4	-67.6	3.8	1.49e+00	0	44	104	0	76	20727
2026-01-14 00:20:58.00	295.59	55.68	-52.4	-67.7	3.8	1.49e+00	0	44	104	0	76	20780
2026-01-14 00:21:00.98	293.28	55.68	-52.4	-67.7	3.8	1.49e+00	0	44	104	0	76	20857
2026-01-14 00:21:03.96	290.97	55.63	-52.4	-67.7	3.8	1.49e+00	0	44	104	0	76	20786
2026-01-14 00:21:06.94	288.68	55.53	-52.4	-67.7	3.8	1.49e+00	0	44	104	0	76	20781
2026-01-14 00:21:09.91	286.41	55.39	-52.4	-67.7	3.8	1.49e+00	0	43	104	0	76	20865
2026-01-14 00:21:12.89	284.17	55.20	-52.4	-67.7	3.8	1.49e+00	0	44	104	0	76	20812
2026-01-14 00:21:15.87	281.95	54.98	-52.4	-67.7	3.8	1.49e+00	0	44	104	0	76	20817
2026-01-14 00:21:18.85	279.77	54.71	-52.4	-67.7	3.8	1.49e+00	0	43	104	0	76	20881
2026-01-14 00:21:21.83	277.64	54.40	-52.4	-67.7	3.8	1.49e+00	0	44	104	0	76	20795
2026-01-14 00:21:24.81	275.55	54.06	-52.4	-67.6	3.8	1.49e+00	0	44	104	0	76	20743
2026-01-14 00:21:27.79	273.52	53.68	-52.4	-67.7	3.8	1.49e+00	0	44	104	0	76	20804
2026-01-14 00:21:30.77	271.54	53.27	-52.4	-67.7	3.8	1.49e+00	0	44	104	0	76	20907
2026-01-14 00:21:33.75	269.62	52.82	-52.4	-67.7	3.8	1.49e+00	0	44	104	0	76	20843
2026-01-14 00:21:36.73	267.76	52.35	-52.4	-67.7	3.8	1.49e+00	0	44	104	0	76	20824
2026-01-14 00:21:39.71	265.95	51.86	-52.4	-67.7	3.8	1.49e+00	0	44	104	0	76	20867
2026-01-14 00:21:42.69	264.21	51.34	-52.4	-67.7	3.8	1.49e+00	0	44	104	0	76	20813
2026-01-14 00:21:45.67	262.53	50.80	-52.4	-67.6	3.8	1.49e+00	0	44	104	0	76	20773
2026-01-14 00:21:48.65	260.91	50.24	-52.4	-67.7	3.8	1.49e+00	0	44	104	0	76	20798
2026-01-14 00:21:51.63	259.35	49.67	-52.4	-67.6	3.8	1.49e+00	0	44	104	0	76	20732
2026-01-14 00:21:54.61	257.84	49.08	-52.4	-67.7	3.8	1.49e+00	0	44	104	0	76	20821
2026-01-14 00:21:57.59	256.40	48.48	-52.4	-67.7	3.8	1.49e+00	0	44	104	0	76	20856
2026-01-14 00:22:00.57	255.01	47.86	-52.4	-67.7	3.8	1.49e+00	0	44	104	0	76	20782
2026-01-14 00:22:03.55	253.67	47.24	-52.4	-67.7	3.8	1.49e+00	0	44	104	0	76	20875
2026-01-14 00:22:06.53	252.39	46.61	-52.4	-67.6	3.8	1.49e+00	0	43	104	0	76	20758
2026-01-14 00:22:09.51	251.16	45.98	-52.4	-67.7	3.8	1.49e+00	0	44	104	0	76	20831
2026-01-14 00:22:12.49	249.97	45.34	-52.4	-67.6	3.8	1.49e+00	0	44	104	0	76	20738
2026-01-14 00:22:15.47	248.84	44.70	-52.4	-67.7	3.8	1.49e+00	0	44	104	0	76	20836
2026-01-14 00:22:18.45	247.75	44.06	-52.4	-67.7	3.8	1.49e+00	0	44	104	0	76	20810
2026-01-14 00:22:21.43	246.70	43.41	-52.4	-67.6	3.8	1.49e+00	0	44	104	0	76	20758
2026-01-14 00:22:24.41	245.69	42.77	-52.4	-67.6	3.8	1.49e+00	0	44	104	0	76	20721
2026-01-14 00:22:27.39	244.73	42.13	-52.4	-67.7	3.8	1.49e+00	0	44	104	0	76	20828
2026-01-14 00:22:30.37	243.80	41.49	-52.4	-67.7	3.8	1.49e+00	0	44	104	0	76	20809
2026-01-14 00:22:33.35	242.91	40.85	-52.4	-67.7	3.8	1.49e+00	0	44	104	0	76	20808
2026-01-14 00:22:36.33	242.05	40.22	-52.4	-67.6	3.8	1.49e+00	0	44	104	0	76	20767
2026-01-14 00:22:39.31	241.23	39.59	-52.4	-67.7	3.8	1.49e+00	0	44	104	0	76	20823
2026-01-14 00:22:42.29	240.43	38.96	-52.4	-67.7	3.8	1.49e+00	0	44	104	0	76	20849
2026-01-14 00:22:45.27	239.67	38.35	-52.4	-67.7	3.8	1.49e+00	0	44	104	0	76	20804
2026-01-14 00:22:48.25	238.93	37.73	-52.4	-67.7	3.8	1.49e+00	0	44	104	0	76	20833
2026-01-14 00:22:51.22	238.23	37.13	-52.4	-67.7	3.8	1.49e+00	0	44	104	0	76	20789
2026-01-14 00:22:54.20	237.55	36.53	-52.4	-67.6	3.8	1.49e+00	0	44	104	0	76	20763
2026-01-14 00:22:57.18	236.89	35.93	-52.4	-67.7	3.8	1.49e+00	0	44	104	0	76	20854
2026-01-14 00:23:00.16	236.26	35.34	-52.4	-67.7	3.8	1.49e+00	0	44	104	0	76	20798
2026-01-14 00:23:03.14	235.65	34.76	-52.4	-67.7	3.8	1.49e+00	0	44	104	0	76	20782
2026-01-14 00:23:06.12	235.06	34.19	-52.4	-67.6	3.8	1.49e+00	0	44	104	0	76	20734
2026-01-14 00:23:09.10	234.49	33.62	-52.4	-67.7	3.8	1.49e+00	0	44	104	0	76	20816
2026-01-14 00:23:12.08	233.94	33.06	-52.4	-67.7	3.8	1.49e+00	0	44	104	0	76	20878
2026-01-14 00:23:15.06	233.41	32.51	-52.4	-67.7	3.8	1.49e+00	0	44	104	0	76	20797
2026-01-14 00:23:18.03	232.90	31.96	-52.4	-67.7	3.8	1.49e+00	0	44	104	0	76	20795
2026-01-14 00:23:21.01	232.40	31.43	-52.4	-67.7	3.8	1.49e+00	0	44	104	0	76	20809
2026-01-14 00:23:24.00	231.92	30.89	-52.4	-67.7	3.8	1.49e+00	0	44	104	0	76	20829
2026-01-14 00:23:26.97	231.46	30.37	-52.4	-67.6	3.8	1.49e+00	0	44	104	0	76	20727
2026-01-14 00:23:29.95	231.01	29.86	-52.4	-67.6	3.8	1.49e+00	0	44	104	0	76	20753
2026-01-14 00:23:32.93	230.57	29.35	-52.4	-67.7	3.8	1.49e+00	0	44	104	0	76	20817
2026-01-14 00:23:35.91	230.15	28.84	-52.4	-67.7	3.8	1.49e+00	0	44	104	0	76	20813
2026-01-14 00:23:38.89	229.75	28.35	-52.4	-67.7	3.8	1.49e+00	0	44	104	0	76	20858
2026-01-14 00:23:41.87	229.35	27.86	-52.4	-67.7	3.8	1.49e+00	0	44	104	0	76	20789
2026-01-14 00:23:44.85	228.97	27.38	-52.4	-67.7	3.8	1.49e+00	0	44	104	0	76	20827
2026-01-14 00:23:47.82	228.60	26.91	-52.4	-67.6	3.8	1.49e+00	0	44	104	0	76	20749
2026-01-14 00:23:50.80	228.23	26.44	-52.4	-67.6	3.8	1.49e+00	0	44	104	0	76	20721
2026-01-14 00:23:53.78	227.88	25.98	-52.4	-67.7	3.8	1.49e+00	0	44	104	0	76	20839
2026-01-14 00:23:56.76	227.54	25.53	-52.4	-67.6	3.8	1.49e+00	0	44	104	0	76	20761
2026-01-14 00:23:59.74	227.21	25.08	-52.4	-67.6	3.8	1.49e+00	0	44	104	0	76	20775
2026-01-14 00:24:02.72	226.89	24.64	-52.4	-67.7	3.8	1.49e+00	0	44	104	0	76	20796
2026-01-14 00:24:05.70	226.58	24.21	-52.4	-67.7	3.8	1.49e+00	0	44	104	0	76	20836
2026-01-14 00:24:08.68	226.28	23.78	-52.4	-67.7	3.8	1.49e+00	0	44	104	0	76	20841
2026-01-14 00:24:11.66	225.98	23.36	-52.4	-67.7	3.8	1.49e+00	0	44	104	0	76	20780
2026-01-14 00:24:14.64	225.69	22.94	-52.4	-67.7	3.8	1.49e+00	0	44	104	0	76	20824
2026-01-14 00:24:17.62	225.41	22.53	-52.4	-67.7	3.8	1.49e+00	0	44	104	0	76	20903
2026-01-14 00:24:20.60	225.14	22.13	-52.4	-67.6	3.8	1.49e+00	0	44	104	0	76	20759
2026-01-14 00:24:23.58	224.88	21.73	-52.4	-67.7	3.8	1.49e+00	0	44	104	0	76	20852
2026-01-14 00:24:26.56	224.62	21.34	-52.4	-67.6	3.8	1.49e+00	0	44	104	0	76	20669
2026-01-14 00:24:29.54	224.37	20.95	-52.4	-67.7	3.8	1.49e+00	0	44	104	0	76	20835
2026-01-14 00:24:32.52	224.12	20.57	-52.4	-67.7	3.8	1.49e+00	0	44	104	0	76	20894
2026-01-14 00:24:35.50	223.88	20.19	-52.4	-67.6	3.8	1.49e+00	0	44	104	0	76	20728
2026-01-14 00:24:38.48	223.65	19.82	-52.4	-67.6	3.8	1.49e+00	0	44	104	0	76	20737
2026-01-14 00:24:41.46	223.42	19.45	-52.4	-67.6	3.8	1.49e+00	0	44	104	0	76	20754
2026-01-14 00:24:44.44	223.20	19.09	-52.4	-67.7	3.8	1.49e+00	0	44	104	0	76	20785
2026-01-14 00:24:47.42	222.98	18.73	-52.4	-67.7	3.8	1.49e+00	0	44	104	0	76	20855
2026-01-14 00:24:50.40	222.77	18.38	-52.4	-67.7	3.8	1.49e+00	0	44	104	0	76	20835
2026-01-14 00:24:53.38	222.56	18.03	-52.4	-67.7	3.8	1.49e+00	0	44	104	0	76	20777
2026-01-14 00:24:56.36	222.36	17.68	-52.4	-67.6	3.8	1.49e+00	0	44	104	0	76	20772
2026-01-14 00:24:59.34	222.17	17.34	-52.4	-67.7	3.8	1.49e+00	0	44	104	0	76	20790
2026-01-14 00:25:02.32	221.97	17.01	-52.4	-67.7	3.8	1.49e+00	0	44	104	0	76	20781
2026-01-14 00:25:05.30	221.78	16.68	-52.4	-67.6	3.8	1.49e+00	0	44	104	0	76	20773
2026-01-14 00:25:08.28	221.60	16.35	-52.4	-67.7	3.8	1.49e+00	0	44	104	0	76	20788
2026-01-14 00:25:11.26	221.42	16.03	-52.4	-67.6	3.8	1.49e+00	0	44	104	0	76	20754
2026-01-14 00:25:14.24	221.25	15.71	-52.4	-67.6	3.8	1.49e+00	0	44	104	0	76	20663
2026-01-14 00:25:17.22	221.07	15.39	-52.4	-67.7	3.8	1.49e+00	0	44	104	0	76	20880
2026-01-14 00:25:20.20	220.90	15.08	-52.4	-67.6	3.8	1.49e+00	0	44	104	0	76	20771
2026-01-14 00:25:23.18	220.74	14.78	-52.4	-67.6	3.8	1.49e+00	0	44	104	0	76	20707
2026-01-14 00:25:26.16	220.58	14.47	-52.4	-67.7	3.8	1.49e+00	0	44	104	0	76	20820
2026-01-14 00:25:29.13	220.42	14.17	-52.4	-67.6	3.8	1.49e+00	0	44	104	0	76	20700
2026-01-14 00:25:32.11	220.27	13.88	-52.4	-67.6	3.8	1.49e+00	0	44	104	0	76	20716
2026-01-14 00:25:35.09	220.12	13.58	-52.4	-67.7	3.8	1.49e+00	0	44	104	0	76	20788
2026-01-14 00:25:38.07	219.97	13.29	-52.4	-67.7	3.8	1.49e+00	0	44	104	0	76	20805
2026-01-14 00:25:41.05	219.82	13.00	-52.4	-67.6	3.8	1.49e+00	0	44	104	0	76	20729
2026-01-14 00:25:44.03	219.68	12.72	-52.4	-67.6	3.8	1.49e+00	0	44	104	0	76	20712
2026-01-14 00:25:47.01	219.54	12.44	-52.4	-67.7	3.8	1.49e+00	0	44	104	0	76	20782
2026-01-14 00:25:49.99	219.40	12.16	-52.4	-67.7	3.8	1.49e+00	0	44	104	0	76	20862
2026-01-14 00:25:52.97	219.27	11.89	-52.4	-67.7	3.8	1.49e+00	0	44	104	0	76	20793
2026-01-14 00:25:55.95	219.14	11.62	-52.4	-67.6	3.8	1.49e+00	0	44	104	0	76	20674
2026-01-14 00:25:58.93	219.01	11.35	-52.4	-67.6	3.8	1.49e+00	0	44	104	0	76	20732
2026-01-14 00:26:01.91	218.88	11.08	-52.4	-67.6	3.8	1.49e+00	0	44	104	0	76	20763
2026-01-14 00:26:04.89	218.76	10.82	-52.4	-67.7	3.8	1.49e+00	0	44	104	0	76	20799
2026-01-14 00:26:07.86	218.64	10.56	-52.4	-67.6	3.8	1.49e+00	0	44	104	0	76	20728
2026-01-14 00:26:10.84	218.52	10.30	-52.4	-67.6	3.8	1.49e+00	0	44	104	0	76	20764
2026-01-14 00:26:13.82	218.40	10.04	-52.4	-67.6	3.8	1.49e+00	0	44	104	0	76	20684
2026-01-14 00:26:16.80	218.29	9.79	-52.4	-67.6	3.8	1.49e+00	0	44	104	0	76	20737
2026-01-14 00:26:19.78	218.17	9.54	-52.4	-67.7	3.8	1.49e+00	0	44	104	0	76	20790
2026-01-14 00:26:22.76	218.06	9.29	-52.4	-67.7	3.8	1.49e+00	0	44	104	0	76	20823
2026-01-14 00:26:25.74	217.95	9.04	-52.4	-67.6	3.8	1.49e+00	0	44	104	0	76	20755
2026-01-14 00:26:28.72	217.85	8.80	-52.4	-67.7	3.8	1.49e+00	0	44	104	0	76	20814
2026-01-14 00:26:31.70	217.74	8.56	-52.4	-67.6	3.8	1.49e+00	0	44	104	0	76	20740
2026-01-14 00:26:34.68	217.64	8.32	-52.4	-67.6	3.8	1.49e+00	0	44	104	0	76	20758
2026-01-14 00:26:37.66	217.54	8.08	-52.4	-67.7	3.8	1.49e+00	0	44	104	0	76	20797
2026-01-14 00:26:40.64	217.44	7.85	-52.4	-67.6	3.8	1.49e+00	0	44	104	0	76	20758
2026-01-14 00:26:43.62	217.34	7.61	-52.4	-67.6	3.8	1.49e+00	0	44	104	0	76	20628
2026-01-14 00:26:46.60	217.24	7.38	-52.4	-67.7	3.8	1.49e+00	0	44	104	0	76	20856
2026-01-14 00:26:49.58	217.15	7.15	-52.4	-67.6	3.8	1.49e+00	0	44	104	0	76	20727
2026-01-14 00:26:52.56	217.05	6.93	-52.4	-67.6	3.8	1.49e+00	0	44	104	0	76	20718
2026-01-14 00:26:55.54	216.96	6.70	-52.4	-67.7	3.8	1.49e+00	0	44	104	0	76	20870
2026-01-14 00:26:58.52	216.87	6.48	-52.4	-67.7	3.8	1.49e+00	0	44	104	0	76	20826
2026-01-14 00:27:01.50	216.78	6.26	-52.4	-67.6	3.8	1.49e+00	0	44	104	0	76	20762
2026-01-14 00:27:04.48	216.70	6.04	-52.4	-67.6	3.8	1.49e+00	0	44	104	0	76	20706
2026-01-14 00:27:07.46	216.61	5.82	-52.4	-67.6	3.8	1.49e+00	0	44	104	0	76	20699
2026-01-14 00:27:10.44	216.53	5.60	-52.4	-67.6	3.8	1.49e+00	0	44	104	0	76	20722
2026-01-14 00:27:13.42	216.44	5.39	-52.4	-67.6	3.8	1.49e+00	0	44	104	0	76	20748
2026-01-14 00:27:16.40	216.36	5.18	-52.4	-67.6	3.8	1.49e+00	0	44	104	0	76	20723
2026-01-14 00:27:19.38	216.28	4.97	-52.4	-67.6	3.8	1.49e+00	0	44	104	0	76	20621

#Closed at: 2026-01-14 00:27:20
#Recorded file [0 MB]: D:/Data/31040_260114_031436.dat