passes_logs/2026/01/14/T1/T1__20260114_072301_KHAYYAM_rec.log

#Pass ID: 20260114_072301_KHAYYAM
#Satellite: KHAYYAM
#Configuration: KHAYYAM_480M
#almurnet v.1.7.20251203
#Start time: 2026-01-14 07:23:01

#Version: 2.0.20230620
#Station: T1
#Location: 37.570604 lon 55.790049 lat
#TLE: 1 53370U 22096A   26013.38155384  .00004483  00000+0  18449-3 0  9993
#TLE: 2 53370  97.3561 280.4211 0001451 103.9169 256.2230 15.24640855190997

#Time	Az	El	Level	Level2	SNR	BER	BlckErr	Temp	State	Recorded	gain1	gain2
2026-01-14 07:23:01.96	146.13	4.00	-54.5	-59.2	3.6	0.00e+00	0	44	0	0	80	24874
2026-01-14 07:23:03.94	146.05	4.15	-54.6	-59.2	3.7	0.00e+00	0	45	104	0	79	26549
2026-01-14 07:23:05.92	145.96	4.30	-54.6	-59.3	3.7	0.00e+00	0	45	104	0	79	26665
2026-01-14 07:23:07.91	145.88	4.46	-54.6	-59.3	3.7	0.00e+00	0	45	104	0	79	26661
2026-01-14 07:23:09.90	145.79	4.61	-54.6	-59.3	3.7	0.00e+00	0	45	104	0	79	26662
2026-01-14 07:23:11.88	145.70	4.77	-54.6	-59.3	3.7	0.00e+00	0	45	104	0	79	26672
2026-01-14 07:23:13.87	145.61	4.93	-54.6	-59.2	3.7	0.00e+00	0	46	104	0	79	26566
2026-01-14 07:23:15.85	145.52	5.08	-54.6	-59.3	3.7	0.00e+00	0	46	104	0	79	26587
2026-01-14 07:23:17.84	145.43	5.24	-54.6	-59.2	3.7	0.00e+00	0	46	104	0	79	26495
2026-01-14 07:23:19.83	145.34	5.41	-54.6	-59.2	3.7	0.00e+00	0	46	104	0	79	26430
2026-01-14 07:23:21.81	145.25	5.57	-54.6	-59.2	3.7	0.00e+00	0	46	104	0	79	26534
2026-01-14 07:23:23.80	145.15	5.73	-54.6	-59.2	3.7	0.00e+00	0	46	104	0	79	26493
2026-01-14 07:23:25.79	145.05	5.90	-54.6	-59.3	3.7	0.00e+00	0	47	104	0	79	26646
2026-01-14 07:23:27.77	144.95	6.06	-54.6	-59.3	3.7	0.00e+00	0	47	104	0	79	26591
2026-01-14 07:23:29.76	144.85	6.23	-54.6	-59.3	3.7	0.00e+00	0	47	104	0	79	26646
2026-01-14 07:23:31.75	144.75	6.40	-54.6	-59.2	3.7	0.00e+00	0	47	104	0	79	26558
2026-01-14 07:23:33.73	144.65	6.57	-54.6	-59.2	3.7	0.00e+00	0	47	104	0	79	26572
2026-01-14 07:23:35.72	144.54	6.74	-54.6	-59.2	3.7	0.00e+00	0	47	104	0	79	26581
2026-01-14 07:23:37.71	144.44	6.92	-54.6	-59.3	3.7	0.00e+00	0	47	104	0	79	26608
2026-01-14 07:23:39.69	144.33	7.09	-54.6	-59.3	3.7	0.00e+00	0	47	104	0	79	26596
2026-01-14 07:23:41.68	144.22	7.27	-54.6	-59.3	3.7	0.00e+00	0	47	104	0	79	26655
2026-01-14 07:23:43.67	144.11	7.45	-54.6	-59.3	3.7	0.00e+00	0	47	104	0	79	26593
2026-01-14 07:23:45.65	143.99	7.63	-54.6	-59.3	3.7	0.00e+00	0	48	104	0	79	26634
2026-01-14 07:23:47.64	143.88	7.81	-54.6	-59.3	3.7	0.00e+00	0	48	104	0	79	26635
2026-01-14 07:23:49.63	143.76	7.99	-54.6	-59.2	3.7	0.00e+00	0	48	104	0	79	26575
2026-01-14 07:23:51.61	143.64	8.18	-54.6	-59.3	3.7	0.00e+00	0	48	104	0	79	26594
2026-01-14 07:23:53.60	143.52	8.36	-54.6	-59.3	3.7	0.00e+00	0	48	104	0	79	26607
2026-01-14 07:23:55.59	143.40	8.55	-54.6	-59.3	3.7	0.00e+00	0	48	104	0	79	26604
2026-01-14 07:23:57.57	143.27	8.74	-54.6	-59.3	3.7	0.00e+00	0	48	104	0	79	26604
2026-01-14 07:23:59.56	143.14	8.93	-54.6	-59.3	3.7	0.00e+00	0	48	104	0	79	26624
2026-01-14 07:24:01.55	143.01	9.13	-54.6	-59.1	3.7	0.00e+00	0	48	104	0	80	24720
2026-01-14 07:24:03.53	142.88	9.32	-54.6	-59.2	3.7	0.00e+00	0	48	104	0	80	24890
2026-01-14 07:24:05.52	142.75	9.52	-54.4	-59.0	3.7	0.00e+00	0	48	104	0	80	24361
2026-01-14 07:24:07.51	142.61	9.72	-54.4	-59.0	3.7	0.00e+00	0	48	104	0	80	24470
2026-01-14 07:24:09.50	142.47	9.92	-54.6	-59.2	3.7	0.00e+00	0	48	104	0	80	24840
2026-01-14 07:24:11.49	142.33	10.13	-54.8	-59.3	3.7	0.00e+00	0	48	104	0	80	25206
2026-01-14 07:24:13.48	142.18	10.34	-55.0	-59.5	3.7	0.00e+00	0	48	104	0	80	25794
2026-01-14 07:24:15.47	142.04	10.54	-55.0	-59.5	3.7	0.00e+00	0	48	104	0	80	25848
2026-01-14 07:24:17.46	141.88	10.76	-55.1	-59.6	3.7	0.00e+00	0	48	104	0	80	25994
2026-01-14 07:24:19.45	141.73	10.97	-55.1	-59.6	3.7	0.00e+00	0	49	104	0	80	26211
2026-01-14 07:24:21.44	141.58	11.18	-55.0	-59.5	3.7	0.00e+00	0	49	104	0	80	25770
2026-01-14 07:24:23.43	141.42	11.40	-55.0	-59.6	3.7	0.00e+00	0	49	104	0	80	26040
2026-01-14 07:24:25.42	141.26	11.62	-54.8	-59.3	3.7	0.00e+00	0	49	104	0	80	25281
2026-01-14 07:24:27.41	141.09	11.85	-54.8	-59.3	3.7	0.00e+00	0	49	104	0	80	25179
2026-01-14 07:24:29.40	140.92	12.07	-54.9	-59.4	3.7	0.00e+00	0	49	104	0	80	25542
2026-01-14 07:24:31.33	140.76	12.29	-54.8	-59.4	3.7	0.00e+00	0	49	104	0	80	25553
2026-01-14 07:24:33.31	140.58	12.52	-54.9	-59.4	3.7	0.00e+00	0	49	104	0	80	25452
2026-01-14 07:24:35.30	140.41	12.76	-54.9	-59.4	3.7	0.00e+00	0	49	104	0	80	25558
2026-01-14 07:24:37.29	140.22	12.99	-54.8	-59.3	3.7	0.00e+00	0	49	104	0	80	25103
2026-01-14 07:24:39.28	140.04	13.23	-54.8	-59.3	3.7	0.00e+00	0	49	104	0	80	25351
2026-01-14 07:24:41.27	139.85	13.47	-54.8	-59.3	3.7	0.00e+00	0	49	104	0	80	25177
2026-01-14 07:24:43.26	139.66	13.72	-54.8	-59.2	3.7	0.00e+00	0	49	104	0	80	25081
2026-01-14 07:24:45.25	139.46	13.97	-54.7	-59.2	3.7	0.00e+00	0	49	104	0	80	24928
2026-01-14 07:24:47.33	139.25	14.23	-54.8	-59.2	3.7	0.00e+00	0	49	104	0	80	25007
2026-01-14 07:24:49.37	139.04	14.49	-55.0	-59.5	3.7	0.00e+00	0	49	104	0	80	25709
2026-01-14 07:24:51.36	138.83	14.75	-54.9	-59.4	3.7	0.00e+00	0	49	104	0	80	25653
2026-01-14 07:24:53.35	138.62	15.01	-55.1	-59.5	3.7	0.00e+00	0	49	104	0	80	25907
2026-01-14 07:24:55.34	138.40	15.27	-55.1	-59.6	3.7	0.00e+00	0	49	104	0	80	26004
2026-01-14 07:24:57.33	138.17	15.54	-55.0	-59.3	3.7	0.00e+00	0	49	104	0	80	25304
2026-01-14 07:24:59.32	137.94	15.81	-55.1	-59.4	3.7	0.00e+00	0	49	104	0	80	25589
2026-01-14 07:25:01.31	137.71	16.08	-55.1	-59.5	3.7	0.00e+00	0	49	104	0	80	25923
2026-01-14 07:25:03.30	137.47	16.36	-55.2	-59.6	3.7	0.00e+00	0	49	104	0	81	24596
2026-01-14 07:25:05.29	137.23	16.65	-55.1	-59.5	3.7	0.00e+00	0	49	104	0	81	24326
2026-01-14 07:25:07.28	136.98	16.93	-55.1	-59.6	3.7	0.00e+00	0	49	104	0	81	24638
2026-01-14 07:25:09.47	136.69	17.25	-54.9	-59.4	3.7	0.00e+00	0	49	104	0	81	24010
2026-01-14 07:25:11.46	136.43	17.54	-54.8	-58.9	3.7	0.00e+00	0	49	104	0	81	22706
2026-01-14 07:25:13.47	136.16	17.85	-54.5	-58.3	3.7	0.00e+00	0	50	104	0	80	22419
2026-01-14 07:25:15.47	135.88	18.15	-54.4	-57.9	3.7	0.00e+00	0	49	104	0	80	21465
2026-01-14 07:25:17.48	135.60	18.46	-54.3	-57.7	3.7	0.00e+00	0	50	104	0	80	21035
2026-01-14 07:25:19.50	135.31	18.77	-54.2	-57.7	3.7	0.00e+00	0	49	104	0	80	20992
2026-01-14 07:25:21.49	135.01	19.09	-54.6	-58.5	3.7	0.00e+00	0	50	104	0	80	22993
2026-01-14 07:25:23.49	134.71	19.41	-55.0	-59.0	3.7	0.00e+00	0	49	104	0	80	24407
2026-01-14 07:25:25.48	134.39	19.74	-54.6	-58.3	3.7	0.00e+00	0	49	104	0	80	22484
2026-01-14 07:25:27.50	134.07	20.07	-54.5	-58.3	3.7	0.00e+00	0	49	104	0	80	22574
2026-01-14 07:25:29.51	133.74	20.41	-54.8	-59.0	3.7	0.00e+00	0	50	104	0	80	24348
2026-01-14 07:25:31.50	133.41	20.75	-54.3	-58.3	3.7	0.00e+00	0	50	104	0	80	22492
2026-01-14 07:25:33.50	133.06	21.09	-54.2	-58.1	3.7	0.00e+00	0	49	104	0	80	22049
2026-01-14 07:25:35.50	132.70	21.44	-54.3	-58.2	3.7	0.00e+00	0	49	104	0	80	22151
2026-01-14 07:25:37.59	132.32	21.81	-55.1	-59.4	3.7	0.00e+00	0	50	104	0	80	25542
2026-01-14 07:25:39.79	131.91	22.21	-54.9	-59.3	3.7	0.00e+00	0	49	104	0	80	25167
2026-01-14 07:25:41.70	131.54	22.56	-55.2	-59.5	3.7	0.00e+00	0	49	104	0	80	25911
2026-01-14 07:25:43.69	131.15	22.93	-55.1	-59.5	3.7	0.00e+00	0	50	104	0	81	24333
2026-01-14 07:25:45.67	130.75	23.30	-55.0	-59.3	3.7	0.00e+00	0	50	104	0	81	23807
2026-01-14 07:25:47.66	130.33	23.68	-55.3	-59.6	3.7	0.00e+00	0	50	104	0	81	24710
2026-01-14 07:25:49.65	129.90	24.07	-55.3	-59.7	3.7	0.00e+00	0	50	104	0	81	24818
2026-01-14 07:25:51.64	129.46	24.46	-55.4	-59.5	3.7	0.00e+00	0	50	104	0	81	24520
2026-01-14 07:25:53.71	128.99	24.87	-55.4	-59.7	3.7	0.00e+00	0	50	104	0	81	24876
2026-01-14 07:25:56.14	128.42	25.37	-54.9	-59.6	3.7	0.00e+00	0	50	104	0	81	24646
2026-01-14 07:25:58.19	127.92	25.79	-54.9	-59.6	3.7	0.00e+00	0	50	104	0	81	24795
2026-01-14 07:26:00.20	127.42	26.21	-55.0	-59.7	3.7	0.00e+00	0	50	104	0	81	25002
2026-01-14 07:26:02.19	126.91	26.63	-55.1	-59.7	3.7	0.00e+00	0	50	104	0	81	24971
2026-01-14 07:26:04.19	126.38	27.06	-55.5	-59.9	3.7	0.00e+00	0	50	104	0	81	25616
2026-01-14 07:26:06.19	125.83	27.50	-55.4	-59.9	3.7	0.00e+00	0	50	104	0	81	25528
2026-01-14 07:26:08.20	125.26	27.94	-55.4	-59.9	3.7	0.00e+00	0	50	104	0	81	25395
2026-01-14 07:26:10.20	124.68	28.39	-55.5	-59.9	3.7	0.00e+00	0	50	104	0	81	25541
2026-01-14 07:26:12.29	124.06	28.86	-55.5	-59.8	3.7	0.00e+00	0	50	104	0	81	25316
2026-01-14 07:26:14.28	123.44	29.31	-55.6	-59.9	3.7	0.00e+00	0	50	104	0	81	25642
2026-01-14 07:26:16.42	122.76	29.81	-55.5	-59.9	3.7	0.00e+00	0	50	104	0	81	25470
2026-01-14 07:26:18.48	122.07	30.29	-55.6	-60.0	3.7	0.00e+00	0	50	104	0	81	25805
2026-01-14 07:26:20.48	121.39	30.77	-55.5	-60.1	3.7	0.00e+00	0	50	104	0	81	25982
2026-01-14 07:26:22.47	120.69	31.24	-55.2	-59.7	3.7	0.00e+00	0	50	104	0	81	25038
2026-01-14 07:26:24.49	119.96	31.73	-55.0	-59.6	3.7	0.00e+00	0	50	104	0	81	24725
2026-01-14 07:26:26.50	119.20	32.22	-55.0	-59.6	3.7	0.00e+00	0	50	104	0	81	24675
2026-01-14 07:26:28.50	118.42	32.71	-55.3	-59.7	3.7	0.00e+00	0	50	104	0	81	24872
2026-01-14 07:26:30.57	117.59	33.23	-55.3	-59.7	3.7	0.00e+00	0	50	104	0	81	25042
2026-01-14 07:26:32.74	116.69	33.77	-55.2	-59.8	3.7	0.00e+00	0	50	104	0	81	25213
2026-01-14 07:26:34.73	115.83	34.27	-55.2	-59.8	3.7	0.00e+00	0	50	104	0	81	25344
2026-01-14 07:26:36.72	114.94	34.77	-55.1	-59.8	3.7	0.00e+00	0	50	104	0	81	25334
2026-01-14 07:26:38.72	114.02	35.28	-55.3	-59.8	3.7	0.00e+00	0	50	104	0	81	25362
2026-01-14 07:26:40.71	113.08	35.78	-54.8	-59.6	3.7	0.00e+00	0	50	104	0	81	24534
2026-01-14 07:26:42.70	112.10	36.29	-55.4	-59.8	3.7	0.00e+00	0	50	104	0	81	25365
2026-01-14 07:26:44.67	111.10	36.79	-55.6	-60.0	3.7	0.00e+00	0	50	104	0	81	25774
2026-01-14 07:26:46.66	110.06	37.29	-55.4	-59.8	3.7	0.00e+00	0	50	104	0	81	25343
2026-01-14 07:26:48.65	108.98	37.79	-55.6	-59.9	3.7	0.00e+00	0	50	104	0	81	25432
2026-01-14 07:26:50.94	107.69	38.37	-55.5	-59.8	3.7	0.00e+00	0	50	104	0	81	25325
2026-01-14 07:26:52.96	106.52	38.87	-55.6	-59.9	3.7	0.00e+00	0	50	104	0	81	25678
2026-01-14 07:26:54.97	105.31	39.37	-55.5	-59.8	3.7	0.00e+00	0	50	104	0	81	25282
2026-01-14 07:26:56.98	104.06	39.86	-55.5	-59.8	3.7	0.00e+00	0	50	104	0	81	25216
2026-01-14 07:26:58.98	102.79	40.33	-54.8	-59.5	3.7	0.00e+00	0	50	104	0	81	24495
2026-01-14 07:27:00.97	101.47	40.80	-55.3	-59.8	3.6	0.00e+00	0	50	104	0	81	25337
2026-01-14 07:27:02.97	100.11	41.26	-55.3	-59.9	3.7	0.00e+00	0	50	104	0	81	25523
2026-01-14 07:27:04.97	98.71	41.71	-55.4	-60.0	3.6	0.00e+00	0	50	104	0	81	25918
2026-01-14 07:27:07.23	97.08	42.20	-55.5	-60.0	3.7	0.00e+00	0	50	104	0	81	25807
2026-01-14 07:27:09.26	95.58	42.63	-55.4	-60.0	3.7	0.00e+00	0	50	104	0	81	25696
2026-01-14 07:27:11.26	94.05	43.03	-55.5	-60.0	3.7	0.00e+00	0	50	104	0	81	25897
2026-01-14 07:27:13.25	92.49	43.41	-55.5	-60.0	3.7	0.00e+00	0	50	104	0	81	25693
2026-01-14 07:27:15.23	90.90	43.77	-55.4	-59.9	3.7	0.00e+00	0	50	104	0	81	25541
2026-01-14 07:27:17.24	89.25	44.12	-55.5	-59.9	3.7	0.00e+00	0	50	104	0	81	25542
2026-01-14 07:27:19.25	87.57	44.44	-54.9	-59.7	3.7	0.00e+00	0	50	104	0	81	24963
2026-01-14 07:27:21.25	85.86	44.74	-54.8	-59.6	3.7	0.00e+00	0	50	104	0	81	24781
2026-01-14 07:27:23.24	84.12	45.01	-55.0	-59.7	3.7	0.00e+00	0	50	104	0	81	25046
2026-01-14 07:27:25.23	82.36	45.25	-54.1	-59.3	3.7	0.00e+00	0	50	104	0	80	25097
2026-01-14 07:27:27.22	80.57	45.47	-55.3	-60.0	3.7	0.00e+00	0	50	104	0	81	25898
2026-01-14 07:27:29.21	78.76	45.65	-55.3	-60.0	3.7	0.00e+00	0	50	104	0	81	25866
2026-01-14 07:27:31.31	76.82	45.81	-55.5	-60.1	3.7	0.00e+00	0	50	104	0	81	26084
2026-01-14 07:27:33.30	74.97	45.94	-55.5	-60.1	3.7	0.00e+00	0	50	104	0	81	26071
2026-01-14 07:27:35.43	72.97	46.03	-55.2	-59.9	3.7	0.00e+00	0	50	104	0	81	25677
2026-01-14 07:27:37.42	71.10	46.09	-55.6	-60.0	3.7	0.00e+00	0	50	104	0	81	25888
2026-01-14 07:27:39.72	68.93	46.11	-55.4	-60.0	3.7	0.00e+00	0	50	104	0	82	24477
2026-01-14 07:27:41.79	66.97	46.10	-55.4	-59.5	3.7	0.00e+00	0	50	104	0	82	23127
2026-01-14 07:27:43.78	65.10	46.05	-55.7	-60.2	3.7	0.00e+00	0	50	104	0	82	24898
2026-01-14 07:27:45.78	63.22	45.96	-55.8	-60.2	3.7	0.00e+00	0	50	104	0	82	24902
2026-01-14 07:27:47.77	61.37	45.85	-55.5	-60.1	3.7	0.00e+00	0	50	104	0	82	24652
2026-01-14 07:27:49.76	59.53	45.71	-55.7	-60.1	3.7	0.00e+00	0	50	104	0	82	24717
2026-01-14 07:27:51.77	57.69	45.53	-55.7	-60.2	3.7	0.00e+00	0	50	104	0	82	25060
2026-01-14 07:27:53.75	55.91	45.32	-55.4	-59.9	3.7	0.00e+00	0	50	104	0	82	24009
2026-01-14 07:27:55.74	54.14	45.09	-55.7	-60.2	3.7	0.00e+00	0	50	104	0	82	24911
2026-01-14 07:27:57.75	52.38	44.83	-55.4	-60.0	3.7	0.00e+00	0	50	104	0	82	24263
2026-01-14 07:27:59.75	50.66	44.54	-55.6	-60.1	3.7	0.00e+00	0	50	104	0	82	24778
2026-01-14 07:28:01.79	48.94	44.22	-55.3	-59.8	3.7	0.00e+00	0	50	104	0	82	23892
2026-01-14 07:28:03.78	47.30	43.88	-55.7	-60.1	3.7	0.00e+00	0	50	104	0	82	24582
2026-01-14 07:28:05.77	45.70	43.53	-55.6	-60.1	3.7	0.00e+00	0	50	104	0	82	24788
2026-01-14 07:28:07.76	44.13	43.15	-55.6	-59.9	3.7	0.00e+00	0	50	104	0	82	24081
2026-01-14 07:28:09.77	42.59	42.75	-55.7	-60.0	3.7	0.00e+00	0	50	104	0	82	24442
2026-01-14 07:28:11.76	41.10	42.34	-55.7	-60.1	3.6	0.00e+00	0	50	104	0	82	24586
2026-01-14 07:28:13.76	39.65	41.92	-55.3	-59.5	3.7	0.00e+00	0	50	104	0	82	23094
2026-01-14 07:28:15.77	38.23	41.47	-55.0	-59.1	3.7	0.00e+00	0	50	104	0	82	22075
2026-01-14 07:28:17.77	36.85	41.02	-55.3	-59.5	3.7	0.00e+00	0	50	104	0	81	24377
2026-01-14 07:28:19.78	35.52	40.55	-55.3	-59.5	3.7	0.00e+00	0	50	104	0	81	24348
2026-01-14 07:28:21.78	34.22	40.08	-55.2	-59.4	3.7	0.00e+00	0	50	104	0	81	24003
2026-01-14 07:28:23.77	32.98	39.60	-54.8	-58.6	3.7	0.00e+00	0	50	104	0	81	21953
2026-01-14 07:28:25.78	31.76	39.11	-54.7	-58.9	3.7	0.00e+00	0	50	104	0	80	24041
2026-01-14 07:28:27.80	30.57	38.61	-54.2	-58.3	3.7	0.00e+00	0	50	104	0	80	22460
2026-01-14 07:28:30.06	29.29	38.05	-55.0	-59.3	3.7	0.00e+00	0	50	104	0	80	25158
2026-01-14 07:28:32.26	28.08	37.50	-54.3	-57.6	3.7	0.00e+00	0	50	104	0	80	20776
2026-01-14 07:28:34.25	27.03	37.00	-55.5	-59.8	3.7	0.00e+00	0	50	104	0	81	25366
2026-01-14 07:28:36.27	26.00	36.49	-55.4	-59.7	3.7	0.00e+00	0	50	104	0	81	25001
2026-01-14 07:28:38.29	25.00	35.98	-55.1	-59.5	3.7	0.00e+00	0	50	104	0	81	24479
2026-01-14 07:28:40.27	24.05	35.48	-55.1	-59.6	3.7	0.00e+00	0	50	104	0	81	24647
2026-01-14 07:28:42.28	23.12	34.97	-54.5	-59.2	3.7	0.00e+00	0	50	104	0	81	23549
2026-01-14 07:28:44.27	22.22	34.47	-54.0	-59.1	3.7	0.00e+00	0	50	104	0	80	24602
2026-01-14 07:28:46.23	21.37	33.98	-54.7	-59.7	3.7	0.00e+00	0	50	104	0	80	26377
2026-01-14 07:28:48.22	20.54	33.48	-55.2	-59.5	3.7	0.00e+00	0	50	104	0	81	24452
2026-01-14 07:28:50.21	19.73	32.99	-55.2	-59.6	3.7	0.00e+00	0	50	104	0	81	24728
2026-01-14 07:28:52.22	18.94	32.50	-55.4	-59.9	3.7	0.00e+00	0	50	104	0	81	25564
2026-01-14 07:28:54.30	18.15	31.99	-55.4	-59.8	3.7	0.00e+00	0	50	104	0	81	25285
2026-01-14 07:28:56.29	17.42	31.51	-55.3	-59.8	3.7	0.00e+00	0	50	104	0	81	25272
2026-01-14 07:28:58.28	16.71	31.03	-55.3	-59.5	3.7	0.00e+00	0	50	104	0	81	24472
2026-01-14 07:29:00.27	16.02	30.56	-54.7	-59.1	3.7	0.00e+00	0	50	104	0	81	23397
2026-01-14 07:29:02.26	15.36	30.10	-54.7	-59.0	3.7	0.00e+00	0	50	104	0	81	23070
2026-01-14 07:29:04.27	14.71	29.63	-54.7	-59.3	3.7	0.00e+00	0	50	104	0	81	23789
2026-01-14 07:29:06.25	14.09	29.18	-54.5	-59.2	3.7	0.00e+00	0	50	104	0	80	25048
2026-01-14 07:29:08.24	13.48	28.73	-54.5	-59.1	3.7	0.00e+00	0	50	104	0	80	24622
2026-01-14 07:29:10.23	12.89	28.28	-55.4	-59.6	3.7	0.00e+00	0	50	104	0	81	24774
2026-01-14 07:29:12.22	12.33	27.84	-55.5	-59.8	3.7	0.00e+00	0	50	104	0	81	25216
2026-01-14 07:29:14.24	11.77	27.40	-54.7	-59.3	3.7	0.00e+00	0	50	104	0	81	23712
2026-01-14 07:29:16.30	11.21	26.96	-54.8	-59.6	3.7	0.00e+00	0	50	104	0	81	24754
2026-01-14 07:29:18.28	10.70	26.54	-54.1	-57.8	3.7	0.00e+00	0	50	104	0	80	21279
2026-01-14 07:29:20.27	10.19	26.12	-54.3	-58.0	3.7	0.00e+00	0	50	104	0	80	21748
2026-01-14 07:29:22.26	9.70	25.71	-55.0	-58.9	3.7	0.00e+00	0	50	104	0	80	24037
2026-01-14 07:29:24.25	9.23	25.30	-55.3	-59.5	3.7	0.00e+00	0	50	104	0	81	24405
2026-01-14 07:29:26.24	8.76	24.90	-55.2	-59.6	3.7	0.00e+00	0	51	104	0	81	24594
2026-01-14 07:29:28.23	8.32	24.51	-54.9	-59.6	3.7	0.00e+00	0	50	104	0	81	24583
2026-01-14 07:29:30.23	7.88	24.12	-55.0	-59.7	3.7	0.00e+00	0	50	104	0	81	24906
2026-01-14 07:29:32.21	7.45	23.74	-55.3	-59.6	3.7	0.00e+00	0	50	104	0	81	24767
2026-01-14 07:29:34.22	7.04	23.35	-55.4	-59.7	3.7	0.00e+00	0	50	104	0	81	24964
2026-01-14 07:29:36.21	6.64	22.98	-55.0	-59.2	3.7	0.00e+00	0	50	104	0	81	23655
2026-01-14 07:29:38.20	6.25	22.61	-54.9	-59.0	3.7	0.00e+00	0	50	104	0	81	23139
2026-01-14 07:29:40.18	5.87	22.25	-54.0	-58.5	3.6	0.00e+00	0	50	104	0	79	24336
2026-01-14 07:29:42.17	5.50	21.90	-53.1	-57.8	3.7	0.00e+00	0	50	104	0	78	23914
2026-01-14 07:29:44.16	5.14	21.54	-53.4	-58.4	3.7	0.00e+00	0	50	104	0	78	25464
2026-01-14 07:29:46.15	4.78	21.20	-53.4	-58.4	3.7	0.00e+00	0	50	104	0	78	25519
2026-01-14 07:29:48.17	4.44	20.85	-53.2	-57.5	3.7	0.00e+00	0	50	104	0	78	23092
2026-01-14 07:29:50.20	4.10	20.51	-53.2	-57.6	3.7	0.00e+00	0	50	104	0	78	23276
2026-01-14 07:29:52.17	3.78	20.18	-53.4	-57.9	3.7	0.00e+00	0	50	104	0	78	23988
2026-01-14 07:29:54.16	3.46	19.85	-53.9	-58.4	3.7	0.00e+00	0	50	104	0	78	25601
2026-01-14 07:29:56.15	3.15	19.53	-54.5	-59.0	3.7	0.00e+00	0	50	104	0	79	25937
2026-01-14 07:29:58.14	2.85	19.21	-55.0	-59.6	3.7	0.00e+00	0	50	104	0	80	26016
2026-01-14 07:30:00.13	2.55	18.89	-55.1	-59.6	3.7	0.00e+00	0	50	104	0	80	26025
2026-01-14 07:30:02.12	2.27	18.59	-55.0	-59.6	3.7	0.00e+00	0	50	104	0	80	26110
2026-01-14 07:30:04.53	1.93	18.22	-55.0	-59.5	3.7	0.00e+00	0	50	104	0	80	25746
2026-01-14 07:30:06.54	1.65	17.91	-54.6	-59.2	3.7	0.00e+00	0	50	104	0	80	25046
2026-01-14 07:30:08.53	1.39	17.62	-53.4	-58.8	3.7	0.00e+00	0	50	104	0	78	26753
2026-01-14 07:30:10.55	1.12	17.32	-53.9	-59.3	3.7	0.00e+00	0	50	104	0	78	28244
2026-01-14 07:30:12.54	0.87	17.03	-54.6	-59.6	3.7	0.00e+00	0	50	104	0	80	26222
2026-01-14 07:30:14.53	0.62	16.75	-53.4	-58.9	3.7	0.00e+00	0	51	104	0	78	27186
2026-01-14 07:30:16.52	0.38	16.47	-54.4	-59.6	3.7	0.00e+00	0	50	104	0	79	27682
2026-01-14 07:30:18.52	0.14	16.19	-54.2	-59.1	3.7	0.00e+00	0	50	104	0	79	26135
2026-01-14 07:30:20.75	359.88	15.88	-54.5	-59.1	3.7	0.00e+00	0	50	104	0	79	26032
2026-01-14 07:30:22.74	359.65	15.61	-54.0	-58.8	3.7	0.00e+00	0	51	104	0	79	25326
2026-01-14 07:30:24.75	359.43	15.35	-52.9	-58.3	3.7	0.00e+00	0	50	104	0	77	26640
2026-01-14 07:30:26.75	359.21	15.08	-52.8	-58.2	3.7	0.00e+00	0	50	104	0	77	26370
2026-01-14 07:30:28.75	359.00	14.82	-53.3	-58.5	3.7	0.00e+00	0	50	104	0	77	27426
2026-01-14 07:30:30.74	358.79	14.57	-54.1	-59.2	3.6	0.00e+00	0	50	104	0	78	27849
2026-01-14 07:30:32.76	358.59	14.31	-53.6	-58.8	3.7	0.00e+00	0	51	104	0	79	25326
2026-01-14 07:30:34.82	358.38	14.05	-54.3	-59.0	3.7	0.00e+00	0	51	104	0	79	25872
2026-01-14 07:30:36.82	358.19	13.80	-54.5	-59.5	3.7	0.00e+00	0	51	104	0	79	27412
2026-01-14 07:30:38.78	358.00	13.56	-54.5	-59.6	3.7	0.00e+00	0	50	104	0	79	27528
2026-01-14 07:30:40.77	357.81	13.32	-54.4	-59.6	3.7	0.00e+00	0	50	104	0	79	27612
2026-01-14 07:30:42.72	357.63	13.09	-55.0	-59.7	3.7	0.00e+00	0	50	104	0	81	24863
2026-01-14 07:30:44.71	357.45	12.86	-54.1	-58.4	3.7	0.00e+00	0	51	104	0	80	22866
2026-01-14 07:30:46.70	357.28	12.62	-52.7	-57.0	3.7	0.00e+00	0	51	104	0	76	24518
2026-01-14 07:30:48.69	357.11	12.39	-51.3	-56.0	3.7	0.00e+00	0	50	104	0	73	25715
2026-01-14 07:30:50.70	356.93	12.16	-52.9	-58.6	3.7	0.00e+00	0	50	104	0	76	29429
2026-01-14 07:30:52.72	356.77	11.94	-53.1	-58.7	3.7	0.00e+00	0	50	104	0	76	29803
2026-01-14 07:30:54.71	356.60	11.72	-50.0	-56.5	3.8	0.00e+00	0	51	104	0	71	30612
2026-01-14 07:30:56.97	356.42	11.47	-50.4	-57.0	3.7	0.00e+00	0	50	104	0	71	32344
2026-01-14 07:30:58.99	356.27	11.25	-51.7	-57.6	3.7	0.00e+00	0	50	104	0	73	31016
2026-01-14 07:31:00.98	356.11	11.03	-49.7	-56.4	3.8	0.00e+00	0	50	104	0	71	30276
2026-01-14 07:31:02.98	355.96	10.82	-50.0	-56.7	3.7	0.00e+00	0	50	104	0	72	29514
2026-01-14 07:31:04.98	355.81	10.61	-50.8	-57.3	3.7	0.00e+00	0	50	104	0	72	31702
2026-01-14 07:31:06.99	355.67	10.40	-52.0	-58.0	3.7	0.00e+00	0	50	104	0	75	28836
2026-01-14 07:31:08.98	355.52	10.20	-51.3	-56.3	3.7	0.00e+00	0	50	104	0	74	25310
2026-01-14 07:31:11.00	355.38	9.99	-51.4	-56.4	3.7	0.00e+00	0	50	104	0	73	27006
2026-01-14 07:31:13.00	355.25	9.79	-48.3	-54.6	3.8	0.00e+00	0	50	104	0	68	29185
2026-01-14 07:31:15.01	355.11	9.59	-49.0	-55.2	3.8	0.00e+00	0	50	104	0	68	31332
2026-01-14 07:31:17.00	354.98	9.39	-48.9	-55.5	3.9	0.00e+00	0	51	104	0	69	30616
2026-01-14 07:31:19.02	354.85	9.19	-49.2	-55.7	3.9	0.00e+00	0	51	104	0	70	29493
2026-01-14 07:31:21.00	354.72	9.00	-49.6	-56.1	3.8	0.00e+00	0	50	104	0	71	29155
2026-01-14 07:31:22.99	354.59	8.81	-53.2	-59.2	3.7	0.00e+00	0	50	104	0	76	31398
2026-01-14 07:31:24.99	354.47	8.62	-54.5	-59.6	3.6	0.00e+00	0	50	104	0	80	26023
2026-01-14 07:31:26.99	354.35	8.43	-53.7	-59.1	3.7	0.00e+00	0	50	104	0	79	26119
2026-01-14 07:31:28.98	354.23	8.25	-55.5	-60.1	3.7	0.00e+00	0	50	104	0	82	24535
2026-01-14 07:31:31.01	354.11	8.06	-54.5	-59.5	3.7	0.00e+00	0	50	104	0	81	24385
2026-01-14 07:31:33.06	353.99	7.87	-55.6	-60.2	3.7	0.00e+00	0	50	104	0	82	25081
2026-01-14 07:31:35.11	353.88	7.68	-55.8	-60.3	3.7	0.00e+00	0	50	104	0	82	25276
2026-01-14 07:31:37.16	353.76	7.50	-54.9	-59.8	3.7	0.00e+00	0	50	104	0	81	25291
2026-01-14 07:31:39.37	353.64	7.30	-55.8	-60.2	3.7	0.00e+00	0	50	104	0	82	24912
2026-01-14 07:31:41.62	353.52	7.11	-55.7	-60.4	3.7	0.00e+00	0	50	104	0	82	25411
2026-01-14 07:31:43.90	353.40	6.91	-55.9	-60.5	3.7	0.00e+00	0	51	104	0	82	25707
2026-01-14 07:31:46.17	353.28	6.71	-55.6	-60.2	3.7	0.00e+00	0	50	104	0	82	25012
2026-01-14 07:31:48.47	353.16	6.51	-55.5	-60.0	3.7	0.00e+00	0	51	104	0	82	24435
2026-01-14 07:31:50.85	353.04	6.31	-55.0	-59.5	3.7	0.00e+00	0	50	104	0	82	22958
2026-01-14 07:31:52.98	352.94	6.13	-55.0	-59.5	3.7	0.00e+00	0	51	104	0	82	22954

#Closed at: 2026-01-14 07:31:54
#Recorded file [0 MB]: D:/Data/31040_260114_102301.dat