passes_logs/2026/01/14/T1/T1__20260114_233505_SUOMI_NPP_rec.log

#Pass ID: 20260114_233505_SUOMI NPP
#Satellite: SUOMI NPP
#Configuration: NPP
#almurnet v.1.7.20251203
#Start time: 2026-01-14 23:35:06

#Version: 2.0.20230620
#Station: T1
#Location: 37.570604 lon 55.790049 lat
#TLE: 1 37849U 11061A   26014.11719687  .00000048  00000+0  43625-4 0  9998
#TLE: 2 37849  98.7809 316.1734 0002474  65.2440 294.8994 14.19525043736585

#Time	Az	El	Level	Level2	SNR	BER	BlckErr	Temp	State	Recorded	gain1	gain2
2026-01-14 23:35:06.57	17.63	5.07	-50.4	-65.8	3.8	1.49e+00	0	39	0	0	71	22450
2026-01-14 23:35:09.55	17.67	5.28	-50.4	-65.8	3.8	1.49e+00	0	40	104	0	72	21033
2026-01-14 23:35:12.53	17.71	5.50	-50.4	-65.8	3.8	1.49e+00	0	40	104	0	72	21102
2026-01-14 23:35:15.56	17.76	5.72	-50.4	-65.8	3.8	1.49e+00	0	40	104	0	72	21095
2026-01-14 23:35:18.47	17.80	5.93	-50.4	-65.8	3.8	1.49e+00	0	40	104	0	72	21111
2026-01-14 23:35:21.60	17.84	6.16	-50.4	-65.8	3.8	1.49e+00	0	40	104	0	72	21025
2026-01-14 23:35:24.44	17.88	6.37	-50.4	-65.8	3.8	1.49e+00	0	40	104	0	72	21115
2026-01-14 23:35:27.56	17.93	6.60	-50.4	-65.8	3.8	1.49e+00	0	40	104	0	72	21127
2026-01-14 23:35:30.40	17.97	6.82	-50.4	-65.8	3.8	1.49e+00	0	41	104	0	72	21044
2026-01-14 23:35:33.52	18.02	7.06	-50.4	-65.8	3.8	1.49e+00	0	41	104	0	72	21131
2026-01-14 23:35:36.36	18.06	7.28	-50.4	-65.8	3.8	1.49e+00	0	41	104	0	72	21093
2026-01-14 23:35:39.48	18.11	7.52	-50.4	-65.8	3.8	1.49e+00	0	41	104	0	72	21126
2026-01-14 23:35:42.32	18.16	7.74	-50.4	-65.8	3.8	1.49e+00	0	41	104	0	72	21061
2026-01-14 23:35:45.56	18.21	8.00	-50.4	-65.8	3.8	1.49e+00	0	41	104	0	72	21021
2026-01-14 23:35:48.46	18.25	8.23	-50.4	-65.8	3.8	1.49e+00	0	41	104	0	72	21042
2026-01-14 23:35:51.73	18.31	8.49	-50.4	-65.8	3.8	1.49e+00	0	41	104	0	72	21074
2026-01-14 23:35:54.56	18.35	8.72	-50.4	-65.8	3.8	1.49e+00	0	41	104	0	72	21096
2026-01-14 23:35:57.69	18.40	8.98	-50.4	-65.8	3.8	1.49e+00	0	41	104	0	72	21090
2026-01-14 23:36:00.53	18.45	9.22	-50.4	-65.8	3.8	1.49e+00	0	41	104	0	72	21149
2026-01-14 23:36:03.65	18.51	9.48	-50.4	-65.8	3.8	1.49e+00	0	41	104	0	72	21134
2026-01-14 23:36:06.50	18.55	9.72	-50.4	-65.8	3.8	1.49e+00	0	41	104	0	72	21085
2026-01-14 23:36:09.75	18.61	10.00	-50.4	-65.8	3.8	1.49e+00	0	41	104	0	72	21023
2026-01-14 23:36:12.59	18.66	10.24	-50.4	-65.8	3.8	1.49e+00	0	41	104	0	72	21098
2026-01-14 23:36:15.71	18.72	10.52	-50.4	-65.8	3.8	1.49e+00	0	42	104	0	72	21146
2026-01-14 23:36:18.55	18.77	10.77	-50.4	-65.8	3.8	1.49e+00	0	42	104	0	72	21103
2026-01-14 23:36:21.68	18.83	11.05	-50.4	-65.8	3.8	1.49e+00	0	42	104	0	72	21041
2026-01-14 23:36:24.52	18.88	11.30	-50.4	-65.8	3.8	1.49e+00	0	41	104	0	72	21087
2026-01-14 23:36:27.64	18.94	11.59	-50.4	-65.8	3.8	1.49e+00	0	41	104	0	72	21122
2026-01-14 23:36:30.48	18.99	11.85	-50.4	-65.8	3.8	1.49e+00	0	42	104	0	72	21087
2026-01-14 23:36:33.60	19.06	12.14	-50.4	-65.8	3.8	1.49e+00	0	42	104	0	72	21141
2026-01-14 23:36:36.44	19.11	12.41	-50.4	-65.8	3.8	1.49e+00	0	42	104	0	72	21130
2026-01-14 23:36:39.56	19.17	12.71	-50.4	-65.8	3.8	1.49e+00	0	42	104	0	72	21161
2026-01-14 23:36:42.40	19.23	12.98	-50.4	-65.8	3.8	1.49e+00	0	42	104	0	72	21073
2026-01-14 23:36:45.68	19.30	13.31	-50.4	-65.8	3.8	1.49e+00	0	42	104	0	72	21163
2026-01-14 23:36:48.58	19.36	13.59	-50.4	-65.8	3.8	1.49e+00	0	42	104	0	72	21063
2026-01-14 23:36:51.71	19.43	13.91	-50.4	-65.8	3.8	1.49e+00	0	42	104	0	72	21125
2026-01-14 23:36:54.55	19.49	14.20	-50.4	-65.8	3.8	1.49e+00	0	42	104	0	72	21115
2026-01-14 23:36:57.67	19.56	14.52	-50.4	-65.8	3.8	1.49e+00	0	42	104	0	72	21148
2026-01-14 23:37:00.51	19.63	14.81	-50.4	-65.8	3.8	1.49e+00	0	42	104	0	72	21105
2026-01-14 23:37:03.70	19.70	15.15	-50.4	-65.8	3.8	1.49e+00	0	42	104	0	72	21081
2026-01-14 23:37:06.54	19.76	15.45	-50.4	-65.8	3.8	1.49e+00	0	42	104	0	72	21093
2026-01-14 23:37:09.66	19.84	15.79	-50.4	-65.8	3.8	1.49e+00	0	42	104	0	72	21123
2026-01-14 23:37:12.50	19.91	16.10	-50.4	-65.8	3.8	1.49e+00	0	42	104	0	72	21168
2026-01-14 23:37:15.62	19.98	16.45	-50.4	-65.8	3.8	1.49e+00	0	42	104	0	72	21104
2026-01-14 23:37:18.46	20.06	16.77	-50.4	-65.8	3.8	1.49e+00	0	42	104	0	72	21114
2026-01-14 23:37:21.58	20.14	17.13	-50.4	-65.8	3.8	1.49e+00	0	42	104	0	72	21110
2026-01-14 23:37:24.42	20.21	17.46	-50.4	-65.8	3.8	1.49e+00	0	42	104	0	72	21149
2026-01-14 23:37:27.54	20.29	17.83	-50.4	-65.8	3.8	1.49e+00	0	42	104	0	72	21130
2026-01-14 23:37:30.38	20.37	18.17	-50.4	-65.8	3.8	1.49e+00	0	42	104	0	72	21060
2026-01-14 23:37:33.54	20.46	18.55	-50.4	-65.8	3.8	1.49e+00	0	42	104	0	72	21111
2026-01-14 23:37:36.46	20.54	18.91	-50.4	-65.8	3.8	1.49e+00	0	42	104	0	72	21113
2026-01-14 23:37:39.71	20.63	19.31	-50.4	-65.8	3.8	1.49e+00	0	42	104	0	72	21217
2026-01-14 23:37:42.55	20.72	19.67	-50.4	-65.8	3.8	1.49e+00	0	42	104	0	72	21137
2026-01-14 23:37:45.67	20.81	20.08	-50.4	-65.8	3.8	1.49e+00	0	42	104	0	72	21213
2026-01-14 23:37:48.51	20.90	20.45	-50.4	-65.8	3.8	1.49e+00	0	42	104	0	72	21139
2026-01-14 23:37:51.63	21.00	20.86	-50.4	-65.8	3.8	1.49e+00	0	42	104	0	72	21079
2026-01-14 23:37:54.47	21.09	21.24	-50.4	-65.8	3.8	1.49e+00	0	42	104	0	72	21169
2026-01-14 23:37:57.59	21.19	21.67	-50.4	-65.8	3.8	1.49e+00	0	42	104	0	72	21170
2026-01-14 23:38:00.43	21.29	22.07	-50.4	-65.8	3.8	1.49e+00	0	42	104	0	72	21130
2026-01-14 23:38:03.56	21.40	22.51	-50.4	-65.8	3.8	1.49e+00	0	42	104	0	72	21143
2026-01-14 23:38:06.39	21.50	22.92	-50.4	-65.8	3.8	1.49e+00	0	42	104	0	72	21152
2026-01-14 23:38:09.52	21.61	23.38	-50.4	-65.8	3.8	1.49e+00	0	42	104	0	72	21195
2026-01-14 23:38:12.36	21.72	23.80	-50.4	-65.8	3.8	1.49e+00	0	42	104	0	72	21165
2026-01-14 23:38:15.48	21.84	24.27	-50.4	-65.8	3.8	1.49e+00	0	43	104	0	72	21196
2026-01-14 23:38:18.32	21.95	24.71	-50.4	-65.8	3.8	1.49e+00	0	42	104	0	72	21156
2026-01-14 23:38:21.44	22.07	25.20	-50.4	-65.8	3.8	1.49e+00	0	42	104	0	72	21193
2026-01-14 23:38:24.28	22.19	25.65	-50.4	-65.8	3.8	1.49e+00	0	42	104	0	72	21138
2026-01-14 23:38:27.51	22.33	26.18	-50.4	-65.8	3.8	1.49e+00	0	42	104	0	72	21133
2026-01-14 23:38:30.42	22.46	26.66	-50.4	-65.8	3.8	1.49e+00	0	42	104	0	72	21154
2026-01-14 23:38:33.66	22.60	27.21	-50.4	-65.8	3.8	1.49e+00	0	42	104	0	72	21193
2026-01-14 23:38:36.58	22.74	27.71	-50.4	-65.8	3.8	1.49e+00	0	42	104	0	72	21179
2026-01-14 23:38:39.70	22.89	28.26	-50.4	-65.8	3.8	1.49e+00	0	42	104	0	72	21179
2026-01-14 23:38:42.54	23.03	28.77	-50.4	-65.8	3.8	1.49e+00	0	42	104	0	72	21202
2026-01-14 23:38:45.67	23.19	29.34	-50.4	-65.8	3.8	1.49e+00	0	42	104	0	72	21130
2026-01-14 23:38:48.51	23.34	29.86	-50.4	-65.8	3.8	1.49e+00	0	42	104	0	72	21131
2026-01-14 23:38:51.63	23.51	30.45	-50.4	-65.8	3.8	1.49e+00	0	43	104	0	72	21058
2026-01-14 23:38:54.47	23.66	31.00	-50.4	-65.8	3.8	1.49e+00	0	42	104	0	72	21149
2026-01-14 23:38:57.80	23.86	31.66	-50.4	-65.8	3.8	1.49e+00	0	42	104	0	72	21180
2026-01-14 23:39:00.49	24.02	32.20	-50.4	-65.8	3.8	1.49e+00	0	42	104	0	72	21172
2026-01-14 23:39:03.76	24.22	32.87	-50.4	-65.8	3.8	1.49e+00	0	43	104	0	72	21105
2026-01-14 23:39:06.47	24.40	33.43	-50.4	-65.8	3.8	1.49e+00	0	42	104	0	72	21089
2026-01-14 23:39:09.73	24.61	34.13	-50.4	-65.8	3.8	1.49e+00	0	42	104	0	72	21166
2026-01-14 23:39:12.43	24.80	34.72	-50.4	-65.8	3.8	1.49e+00	0	42	104	0	72	21198
2026-01-14 23:39:15.71	25.04	35.45	-50.4	-65.8	3.8	1.49e+00	0	42	104	0	72	21155
2026-01-14 23:39:18.41	25.24	36.06	-50.4	-65.8	3.8	1.49e+00	0	42	104	0	72	21213
2026-01-14 23:39:21.69	25.50	36.82	-50.4	-65.8	3.8	1.49e+00	0	43	104	0	72	21089
2026-01-14 23:39:24.48	25.72	37.48	-50.4	-65.8	3.8	1.49e+00	0	42	104	0	72	21113
2026-01-14 23:39:27.84	26.01	38.29	-50.4	-65.8	3.8	1.49e+00	0	42	104	0	72	21131
2026-01-14 23:39:30.55	26.25	38.96	-50.4	-65.8	3.8	1.49e+00	0	42	104	0	72	21201
2026-01-14 23:39:33.83	26.55	39.79	-50.4	-65.8	3.8	1.49e+00	0	42	104	0	72	21173
2026-01-14 23:39:36.53	26.81	40.48	-50.4	-65.8	3.8	1.49e+00	0	42	104	0	72	21174
2026-01-14 23:39:39.81	27.15	41.34	-50.4	-65.8	3.8	1.49e+00	0	42	104	0	72	21147
2026-01-14 23:39:42.51	27.43	42.07	-50.4	-65.8	3.8	1.49e+00	0	42	104	0	72	21207
2026-01-14 23:39:45.79	27.80	42.97	-50.4	-65.9	3.8	1.49e+00	0	42	104	0	72	21271
2026-01-14 23:39:48.50	28.12	43.73	-50.4	-65.8	3.8	1.49e+00	0	42	104	0	72	21163
2026-01-14 23:39:51.77	28.52	44.66	-50.4	-65.8	3.8	1.49e+00	0	42	104	0	72	21203
2026-01-14 23:39:54.46	28.87	45.44	-50.4	-65.9	3.8	1.49e+00	0	42	104	0	72	21284
2026-01-14 23:39:57.73	29.32	46.42	-50.4	-65.8	3.8	1.49e+00	0	42	104	0	72	21224
2026-01-14 23:40:00.44	29.71	47.24	-50.4	-65.8	3.8	1.49e+00	0	42	104	0	72	21205
2026-01-14 23:40:03.72	30.22	48.25	-50.4	-65.8	3.8	1.49e+00	0	42	104	0	72	21211
2026-01-14 23:40:06.42	30.66	49.11	-50.4	-65.8	3.8	1.49e+00	0	42	104	0	72	21219
2026-01-14 23:40:09.71	31.23	50.17	-50.4	-65.8	3.8	1.49e+00	0	43	104	0	72	21185
2026-01-14 23:40:12.41	31.73	51.05	-50.4	-65.8	3.8	1.49e+00	0	42	104	0	72	21209
2026-01-14 23:40:15.68	32.37	52.14	-50.4	-65.8	3.8	1.49e+00	0	43	104	0	72	21194
2026-01-14 23:40:18.39	32.94	53.07	-50.4	-65.8	3.8	1.49e+00	0	42	104	0	72	21185
2026-01-14 23:40:21.67	33.68	54.20	-50.4	-65.8	3.8	1.49e+00	0	43	104	0	72	21137
2026-01-14 23:40:24.37	34.34	55.15	-50.4	-65.8	3.8	1.49e+00	0	43	104	0	72	21118
2026-01-14 23:40:27.66	35.20	56.32	-50.4	-65.8	3.8	1.49e+00	0	42	104	0	72	21258
2026-01-14 23:40:30.36	35.96	57.30	-50.4	-65.8	3.8	1.49e+00	0	43	104	0	72	21206
2026-01-14 23:40:33.77	37.00	58.55	-50.4	-65.8	3.8	1.49e+00	0	43	104	0	72	21219
2026-01-14 23:40:36.54	37.92	59.58	-50.5	-65.8	3.8	1.49e+00	0	42	104	0	72	21123
2026-01-14 23:40:39.86	39.13	60.83	-50.4	-65.8	3.8	1.49e+00	0	43	104	0	72	21196
2026-01-14 23:40:42.56	40.20	61.86	-50.4	-65.8	3.8	1.49e+00	0	43	104	0	72	21238
2026-01-14 23:40:45.82	41.61	63.10	-50.4	-65.8	3.8	1.49e+00	0	43	104	0	72	21242
2026-01-14 23:40:48.53	42.91	64.14	-50.4	-65.8	3.8	1.49e+00	0	43	104	0	72	21191
2026-01-14 23:40:51.80	44.64	65.40	-50.4	-65.8	3.8	1.49e+00	0	43	104	0	72	21203
2026-01-14 23:40:54.49	46.21	66.43	-50.4	-65.8	3.8	1.49e+00	0	43	104	0	72	21193
2026-01-14 23:40:57.78	48.35	67.69	-50.4	-65.8	3.8	1.49e+00	0	43	104	0	72	21211
2026-01-14 23:41:00.47	50.31	68.71	-50.4	-65.8	3.8	1.49e+00	0	42	104	0	72	21160
2026-01-14 23:41:03.74	52.97	69.93	-50.4	-65.8	3.8	1.49e+00	0	43	104	0	72	21193
2026-01-14 23:41:06.44	55.44	70.92	-50.4	-65.8	3.8	1.49e+00	0	43	104	0	72	21142
2026-01-14 23:41:09.70	58.80	72.07	-50.4	-65.8	3.8	1.49e+00	0	43	104	0	72	21164
2026-01-14 23:41:12.42	61.97	72.99	-50.4	-65.8	3.8	1.49e+00	0	42	104	0	72	21188
2026-01-14 23:41:15.89	66.55	74.09	-50.4	-65.8	3.8	1.49e+00	0	42	104	0	72	21175
2026-01-14 23:41:18.60	70.59	74.88	-50.4	-65.8	3.8	1.49e+00	0	43	104	0	72	21073
2026-01-14 23:41:21.88	76.08	75.73	-50.4	-65.8	3.8	1.49e+00	0	42	104	0	72	21147
2026-01-14 23:41:24.59	81.11	76.34	-50.4	-65.8	3.8	1.49e+00	0	42	104	0	72	21176
2026-01-14 23:41:27.87	87.78	76.92	-50.4	-65.8	3.8	1.49e+00	0	42	104	0	72	21170
2026-01-14 23:41:30.57	93.68	77.27	-50.4	-65.8	3.8	1.49e+00	0	42	104	0	72	21172
2026-01-14 23:41:33.84	101.17	77.50	-50.4	-65.8	3.8	1.49e+00	0	43	104	0	72	21215
2026-01-14 23:41:36.53	107.46	77.53	-50.4	-65.8	3.8	1.49e+00	0	43	104	0	72	21210
2026-01-14 23:41:39.81	115.06	77.37	-50.4	-65.8	3.8	1.49e+00	0	42	104	0	72	21176
2026-01-14 23:41:42.51	121.09	77.08	-50.4	-65.8	3.8	1.49e+00	0	42	104	0	72	21227
2026-01-14 23:41:45.78	127.94	76.56	-50.4	-65.8	3.8	1.49e+00	0	43	104	0	72	21191
2026-01-14 23:41:48.47	133.13	76.01	-50.4	-65.8	3.8	1.49e+00	0	43	104	0	72	21188
2026-01-14 23:41:51.74	138.84	75.20	-50.4	-65.8	3.8	1.49e+00	0	42	104	0	72	21187
2026-01-14 23:41:54.46	143.09	74.44	-50.4	-65.8	3.8	1.49e+00	0	42	104	0	72	21161
2026-01-14 23:41:57.73	147.64	73.43	-50.4	-65.8	3.8	1.49e+00	0	43	104	0	72	21159
2026-01-14 23:42:00.50	151.04	72.51	-50.5	-65.8	3.8	1.49e+00	0	43	104	0	72	21110
2026-01-14 23:42:03.77	154.60	71.38	-50.4	-65.8	3.8	1.49e+00	0	43	104	0	72	21204
2026-01-14 23:42:06.53	157.26	70.38	-50.4	-65.9	3.8	1.49e+00	0	43	104	0	72	21282
2026-01-14 23:42:09.94	160.17	69.12	-50.4	-65.8	3.8	1.49e+00	0	43	104	0	72	21195
2026-01-14 23:42:12.63	162.21	68.10	-50.4	-65.8	3.8	1.49e+00	0	43	104	0	72	21244
2026-01-14 23:42:15.90	164.43	66.85	-50.4	-65.8	3.8	1.49e+00	0	42	104	0	72	21228
2026-01-14 23:42:18.61	166.08	65.81	-50.4	-65.8	3.8	1.49e+00	0	42	104	0	72	21086
2026-01-14 23:42:21.88	167.88	64.55	-50.4	-65.8	3.8	1.49e+00	0	43	104	0	72	21171
2026-01-14 23:42:24.58	169.22	63.51	-50.4	-65.8	3.8	1.49e+00	0	43	104	0	72	21174
2026-01-14 23:42:27.86	170.69	62.25	-50.4	-65.9	3.8	1.49e+00	0	43	104	0	72	21262
2026-01-14 23:42:30.56	171.80	61.22	-50.4	-65.8	3.8	1.49e+00	0	43	104	0	72	21214
2026-01-14 23:42:33.84	173.03	59.98	-50.4	-65.8	3.8	1.49e+00	0	43	104	0	72	21208
2026-01-14 23:42:36.55	173.96	58.96	-50.4	-65.8	3.8	1.49e+00	0	43	104	0	72	21224
2026-01-14 23:42:39.81	174.99	57.75	-50.4	-65.8	3.8	1.49e+00	0	43	104	0	72	21131
2026-01-14 23:42:42.54	175.79	56.76	-50.4	-65.8	3.8	1.49e+00	0	43	104	0	72	21105
2026-01-14 23:42:45.80	176.67	55.58	-50.4	-65.8	3.8	1.49e+00	0	43	104	0	72	21171
2026-01-14 23:42:48.53	177.35	54.61	-50.4	-65.9	3.8	1.49e+00	0	43	104	0	72	21262
2026-01-14 23:42:51.80	178.11	53.47	-50.4	-65.8	3.8	1.49e+00	0	43	104	0	72	21188
2026-01-14 23:42:54.50	178.70	52.54	-50.4	-65.8	3.8	1.49e+00	0	42	104	0	72	21190
2026-01-14 23:42:57.76	179.36	51.44	-50.4	-65.8	3.8	1.49e+00	0	43	104	0	72	21251
2026-01-14 23:43:00.49	179.88	50.53	-50.4	-65.8	3.8	1.49e+00	0	42	104	0	72	21145
2026-01-14 23:43:03.87	180.48	49.43	-50.4	-65.8	3.8	1.49e+00	0	43	104	0	72	21125
2026-01-14 23:43:06.58	180.93	48.57	-50.5	-65.8	3.8	1.49e+00	0	42	104	0	72	21238
2026-01-14 23:43:09.84	181.45	47.55	-50.4	-65.8	3.8	1.49e+00	0	43	104	0	72	21237
2026-01-14 23:43:12.54	181.85	46.72	-50.4	-65.8	3.8	1.49e+00	0	43	104	0	72	21227
2026-01-14 23:43:15.81	182.31	45.73	-50.4	-65.9	3.8	1.49e+00	0	43	104	0	72	21293
2026-01-14 23:43:18.52	182.67	44.93	-50.4	-65.8	3.8	1.49e+00	0	43	104	0	72	21178
2026-01-14 23:43:21.89	183.09	43.96	-50.4	-65.8	3.8	1.49e+00	0	43	104	0	72	21198
2026-01-14 23:43:24.64	183.42	43.18	-50.4	-65.8	3.8	1.49e+00	0	43	104	0	72	21197
2026-01-14 23:43:27.90	183.79	42.28	-50.4	-65.8	3.8	1.49e+00	0	43	104	0	72	21215
2026-01-14 23:43:30.61	184.08	41.54	-50.4	-65.8	3.8	1.49e+00	0	43	104	0	72	21235
2026-01-14 23:43:33.88	184.42	40.67	-50.5	-65.9	3.8	1.49e+00	0	43	104	0	72	21268
2026-01-14 23:43:36.59	184.68	39.97	-50.4	-65.8	3.8	1.49e+00	0	43	104	0	72	21220
2026-01-14 23:43:39.85	184.99	39.14	-50.5	-65.8	3.8	1.49e+00	0	43	104	0	72	21210
2026-01-14 23:43:42.56	185.23	38.46	-50.5	-65.8	3.8	1.49e+00	0	43	104	0	72	21195
2026-01-14 23:43:45.83	185.51	37.66	-50.4	-65.8	3.8	1.49e+00	0	43	104	0	72	21220
2026-01-14 23:43:48.54	185.74	37.01	-50.4	-65.8	3.8	1.49e+00	0	43	104	0	72	21230
2026-01-14 23:43:51.81	185.99	36.25	-50.5	-65.9	3.8	1.49e+00	0	43	104	0	72	21274
2026-01-14 23:43:54.50	186.20	35.63	-50.5	-65.8	3.8	1.49e+00	0	43	104	0	72	21240
2026-01-14 23:43:57.89	186.44	34.87	-50.5	-65.8	3.8	1.49e+00	0	43	104	0	72	21187
2026-01-14 23:44:00.62	186.64	34.26	-50.4	-65.9	3.8	1.49e+00	0	43	104	0	72	21274
2026-01-14 23:44:03.88	186.86	33.56	-50.5	-65.9	3.8	1.49e+00	0	43	104	0	72	21269
2026-01-14 23:44:06.60	187.03	32.99	-50.5	-65.9	3.8	1.49e+00	0	43	104	0	72	21298
2026-01-14 23:44:09.86	187.24	32.31	-50.5	-65.8	3.8	1.49e+00	0	43	104	0	72	21234
2026-01-14 23:44:12.56	187.40	31.76	-50.5	-65.9	3.8	1.49e+00	0	43	104	0	72	21311
2026-01-14 23:44:15.82	187.59	31.11	-50.5	-65.9	3.8	1.49e+00	0	43	104	0	72	21281
2026-01-14 23:44:18.55	187.74	30.58	-50.5	-65.8	3.8	1.49e+00	0	43	104	0	72	21241
2026-01-14 23:44:21.81	187.92	29.96	-50.5	-65.8	3.8	1.49e+00	0	43	104	0	72	21236
2026-01-14 23:44:24.54	188.06	29.44	-50.4	-65.9	3.8	1.49e+00	0	43	104	0	72	21264
2026-01-14 23:44:27.81	188.23	28.84	-50.5	-65.8	3.8	1.49e+00	0	43	104	0	72	21230
2026-01-14 23:44:30.50	188.36	28.35	-50.5	-65.9	3.8	1.49e+00	0	43	104	0	72	21316
2026-01-14 23:44:33.78	188.52	27.77	-50.5	-65.8	3.8	1.49e+00	0	43	104	0	72	21246
2026-01-14 23:44:36.48	188.65	27.30	-50.5	-65.9	3.8	1.49e+00	0	43	104	0	72	21271
2026-01-14 23:44:39.75	188.79	26.75	-50.5	-65.9	3.8	1.49e+00	0	43	104	0	72	21271
2026-01-14 23:44:42.44	188.91	26.29	-50.5	-65.8	3.8	1.49e+00	0	43	104	0	72	21258
2026-01-14 23:44:45.71	189.05	25.76	-50.5	-65.9	3.8	1.49e+00	0	43	104	0	72	21322
2026-01-14 23:44:48.42	189.16	25.32	-50.5	-65.8	3.8	1.49e+00	0	43	104	0	72	21259
2026-01-14 23:44:51.70	189.30	24.80	-50.5	-65.9	3.8	1.49e+00	0	43	104	0	72	21261
2026-01-14 23:44:54.40	189.40	24.38	-50.5	-65.9	3.8	1.49e+00	0	43	104	0	72	21320
2026-01-14 23:44:57.68	189.53	23.87	-50.5	-65.9	3.8	1.49e+00	0	43	104	0	72	21313
2026-01-14 23:45:00.58	189.63	23.44	-50.5	-65.8	3.8	1.49e+00	0	43	104	0	72	21196
2026-01-14 23:45:03.56	189.74	22.99	-50.5	-65.9	3.8	1.49e+00	0	43	104	0	72	21375
2026-01-14 23:45:06.56	189.85	22.56	-50.5	-65.9	3.8	1.49e+00	0	43	104	0	72	21272
2026-01-14 23:45:09.64	189.95	22.12	-50.5	-65.8	3.8	1.49e+00	0	43	104	0	72	21247
2026-01-14 23:45:12.62	190.05	21.70	-50.5	-65.9	3.8	1.49e+00	0	43	104	0	72	21261
2026-01-14 23:45:15.60	190.15	21.28	-50.5	-65.9	3.8	1.49e+00	0	43	104	0	72	21361
2026-01-14 23:45:18.58	190.25	20.88	-50.5	-65.9	3.8	1.49e+00	0	43	104	0	72	21273
2026-01-14 23:45:21.56	190.34	20.48	-50.5	-65.9	3.8	1.49e+00	0	43	104	0	72	21328
2026-01-14 23:45:24.54	190.43	20.08	-50.5	-65.8	3.8	1.49e+00	0	43	104	0	72	21258
2026-01-14 23:45:27.52	190.52	19.70	-50.5	-65.9	3.8	1.49e+00	0	43	104	0	72	21303
2026-01-14 23:45:30.50	190.61	19.31	-50.5	-65.9	3.8	1.49e+00	0	43	104	0	72	21382
2026-01-14 23:45:33.48	190.69	18.94	-50.5	-65.9	3.8	1.49e+00	0	43	104	0	72	21385
2026-01-14 23:45:36.47	190.77	18.57	-50.5	-65.9	3.8	1.49e+00	0	43	104	0	72	21319
2026-01-14 23:45:39.51	190.86	18.19	-50.5	-65.9	3.8	1.49e+00	0	43	104	0	72	21345
2026-01-14 23:45:42.55	190.94	17.83	-50.5	-65.9	3.8	1.49e+00	0	43	104	0	72	21319
2026-01-14 23:45:45.61	191.02	17.46	-50.5	-65.9	3.8	1.49e+00	0	43	104	0	72	21332
2026-01-14 23:45:48.45	191.09	17.13	-50.5	-65.9	3.8	1.49e+00	0	43	104	0	72	21345
2026-01-14 23:45:51.57	191.17	16.77	-50.5	-65.9	3.8	1.49e+00	0	43	104	0	72	21442
2026-01-14 23:45:54.41	191.24	16.45	-50.5	-65.9	3.8	1.49e+00	0	43	104	0	72	21352
2026-01-14 23:45:57.53	191.31	16.10	-50.5	-65.9	3.8	1.49e+00	0	43	104	0	72	21268
2026-01-14 23:46:00.42	191.38	15.78	-50.5	-65.8	3.8	1.49e+00	0	43	104	0	72	21241
2026-01-14 23:46:03.53	191.45	15.43	-50.5	-65.9	3.8	1.49e+00	0	43	104	0	72	21388
2026-01-14 23:46:06.37	191.52	15.13	-50.5	-65.9	3.8	1.49e+00	0	43	104	0	72	21291
2026-01-14 23:46:09.49	191.59	14.80	-50.5	-65.9	3.8	1.49e+00	0	43	104	0	72	21346
2026-01-14 23:46:12.33	191.65	14.50	-50.5	-65.9	3.8	1.49e+00	0	43	104	0	72	21341
2026-01-14 23:46:15.45	191.72	14.17	-50.5	-65.9	3.8	1.49e+00	0	43	104	0	72	21365
2026-01-14 23:46:18.29	191.78	13.88	-50.5	-65.9	3.8	1.49e+00	0	43	104	0	72	21364
2026-01-14 23:46:21.41	191.84	13.57	-50.5	-65.9	3.8	1.49e+00	0	43	104	0	72	21341
2026-01-14 23:46:24.25	191.90	13.28	-50.5	-65.9	3.8	1.49e+00	0	43	104	0	72	21339
2026-01-14 23:46:27.46	191.96	12.96	-50.5	-65.9	3.8	1.49e+00	0	43	104	0	72	21323
2026-01-14 23:46:30.36	192.02	12.68	-50.5	-65.9	3.8	1.49e+00	0	43	104	0	72	21354
2026-01-14 23:46:33.61	192.08	12.37	-50.5	-65.9	3.8	1.49e+00	0	43	104	0	72	21335
2026-01-14 23:46:36.51	192.14	12.09	-50.5	-65.9	3.8	1.49e+00	0	43	104	0	72	21409
2026-01-14 23:46:39.70	192.20	11.79	-50.5	-65.9	3.8	1.49e+00	0	43	104	0	72	21368
2026-01-14 23:46:42.54	192.25	11.53	-50.5	-65.9	3.8	1.49e+00	0	43	104	0	72	21363
2026-01-14 23:46:45.66	192.31	11.24	-50.5	-65.9	3.8	1.49e+00	0	43	104	0	72	21439
2026-01-14 23:46:48.50	192.36	10.98	-50.5	-65.9	3.8	1.49e+00	0	43	104	0	72	21445
2026-01-14 23:46:51.66	192.41	10.70	-50.5	-65.9	3.8	1.49e+00	0	43	104	0	72	21356
2026-01-14 23:46:54.54	192.46	10.44	-50.5	-65.9	3.8	1.49e+00	0	43	104	0	72	21382
2026-01-14 23:46:57.74	192.52	10.16	-50.5	-65.9	3.8	1.49e+00	0	43	104	0	72	21342
2026-01-14 23:47:00.59	192.57	9.91	-50.5	-65.9	3.8	1.49e+00	0	43	104	0	72	21311
2026-01-14 23:47:03.71	192.62	9.64	-50.5	-65.9	3.8	1.49e+00	0	43	104	0	72	21304
