passes_logs/2026/01/14/T1/T1__20260114_230528_NOAA_21_JPSS-2_rec.log

#Pass ID: 20260114_230528_NOAA 21 (JPSS-2)
#Satellite: NOAA 21 (JPSS-2)
#Configuration: NOAA 21
#almurnet v.1.7.20251203
#Start time: 2026-01-14 23:05:29

#Version: 2.0.20230620
#Station: T1
#Location: 37.570604 lon 55.790049 lat
#TLE: 1 54234U 22150A   26014.16688770  .00000052  00000+0  45394-4 0  9999
#TLE: 2 54234  98.7497 315.0767 0000655 297.6997  62.4113 14.19534648164696

#Time	Az	El	Level	Level2	SNR	BER	BlckErr	Temp	State	Recorded	gain1	gain2
2026-01-14 23:05:30.00	20.67	5.10	-50.4	-63.6	3.8	1.49e+00	0	37	0	0	71	17478
2026-01-14 23:05:32.97	20.77	5.30	-50.4	-63.6	3.8	1.49e+00	0	37	104	0	72	16440
2026-01-14 23:05:35.95	20.89	5.51	-50.4	-63.6	3.8	1.49e+00	0	37	104	0	72	16407
2026-01-14 23:05:38.93	21.00	5.72	-50.4	-63.6	3.8	1.49e+00	0	37	104	0	72	16369
2026-01-14 23:05:41.91	21.11	5.93	-50.4	-63.6	3.8	1.49e+00	0	37	104	0	72	16472
2026-01-14 23:05:44.90	21.23	6.15	-50.4	-63.6	3.8	1.49e+00	0	38	104	0	72	16330
2026-01-14 23:05:47.88	21.35	6.36	-50.4	-63.6	3.8	1.49e+00	0	38	104	0	72	16439
2026-01-14 23:05:50.86	21.46	6.58	-50.4	-63.6	3.8	1.49e+00	0	38	104	0	72	16476
2026-01-14 23:05:53.84	21.58	6.80	-50.4	-63.6	3.8	1.49e+00	0	38	104	0	72	16450
2026-01-14 23:05:56.82	21.71	7.02	-50.4	-63.6	3.8	1.49e+00	0	38	104	0	72	16458
2026-01-14 23:05:59.80	21.83	7.24	-50.4	-63.6	3.8	1.49e+00	0	38	104	0	72	16484
2026-01-14 23:06:02.78	21.95	7.46	-50.4	-63.6	3.8	1.49e+00	0	38	104	0	72	16447
2026-01-14 23:06:05.76	22.08	7.69	-50.4	-63.6	3.8	1.49e+00	0	38	104	0	72	16432
2026-01-14 23:06:08.74	22.21	7.92	-50.4	-63.6	3.8	1.49e+00	0	38	104	0	72	16442
2026-01-14 23:06:11.72	22.34	8.15	-50.4	-63.6	3.8	1.49e+00	0	38	104	0	72	16464
2026-01-14 23:06:14.70	22.47	8.38	-50.4	-63.6	3.8	1.49e+00	0	39	104	0	72	16425
2026-01-14 23:06:17.68	22.61	8.61	-50.4	-63.6	3.8	1.49e+00	0	39	104	0	72	16427
2026-01-14 23:06:20.66	22.74	8.85	-50.4	-63.6	3.8	1.49e+00	0	39	104	0	72	16448
2026-01-14 23:06:23.65	22.88	9.09	-50.4	-63.6	3.8	1.49e+00	0	39	104	0	72	16486
2026-01-14 23:06:26.63	23.02	9.33	-50.4	-63.6	3.8	1.49e+00	0	39	104	0	72	16434
2026-01-14 23:06:29.61	23.16	9.57	-50.4	-63.6	3.8	1.49e+00	0	39	104	0	72	16395
2026-01-14 23:06:32.59	23.31	9.81	-50.4	-63.6	3.8	1.49e+00	0	39	104	0	72	16429
2026-01-14 23:06:35.57	23.45	10.06	-50.4	-63.6	3.8	1.49e+00	0	39	104	0	72	16413
2026-01-14 23:06:38.55	23.60	10.31	-50.4	-63.6	3.8	1.49e+00	0	39	104	0	72	16464
2026-01-14 23:06:41.53	23.76	10.56	-50.4	-63.6	3.8	1.49e+00	0	39	104	0	72	16444
2026-01-14 23:06:44.52	23.91	10.82	-50.4	-63.6	3.8	1.49e+00	0	39	104	0	72	16358
2026-01-14 23:06:47.50	24.07	11.07	-50.4	-63.6	3.8	1.49e+00	0	39	104	0	72	16484
2026-01-14 23:06:50.48	24.22	11.33	-50.4	-63.6	3.8	1.49e+00	0	39	104	0	72	16401
2026-01-14 23:06:53.48	24.39	11.60	-50.4	-63.6	3.8	1.49e+00	0	39	104	0	72	16423
2026-01-14 23:06:56.55	24.56	11.87	-50.4	-63.6	3.8	1.49e+00	0	39	104	0	72	16390
2026-01-14 23:06:59.60	24.73	12.14	-50.4	-63.6	3.8	1.49e+00	0	39	104	0	72	16383
2026-01-14 23:07:02.58	24.90	12.41	-50.4	-63.6	3.8	1.49e+00	0	39	104	0	72	16420
2026-01-14 23:07:05.56	25.07	12.69	-50.4	-63.6	3.8	1.49e+00	0	39	104	0	72	16409
2026-01-14 23:07:08.54	25.25	12.96	-50.4	-63.6	3.8	1.49e+00	0	39	104	0	72	16460
2026-01-14 23:07:11.52	25.42	13.24	-50.4	-63.6	3.8	1.49e+00	0	39	104	0	72	16416
2026-01-14 23:07:14.60	25.61	13.53	-50.4	-63.6	3.8	1.49e+00	0	39	104	0	72	16383
2026-01-14 23:07:17.61	25.80	13.82	-50.4	-63.6	3.8	1.49e+00	0	39	104	0	72	16424
2026-01-14 23:07:20.60	25.99	14.11	-50.4	-63.6	3.8	1.49e+00	0	40	104	0	72	16382
2026-01-14 23:07:23.58	26.18	14.40	-50.4	-63.6	3.8	1.49e+00	0	40	104	0	72	16426
2026-01-14 23:07:26.56	26.38	14.69	-50.4	-63.6	3.8	1.49e+00	0	39	104	0	72	16384
2026-01-14 23:07:29.54	26.58	14.99	-50.4	-63.6	3.8	1.49e+00	0	40	104	0	72	16392
2026-01-14 23:07:32.52	26.78	15.29	-50.4	-63.6	3.8	1.49e+00	0	39	104	0	72	16396
2026-01-14 23:07:35.50	26.99	15.60	-50.4	-63.6	3.8	1.49e+00	0	40	104	0	72	16417
2026-01-14 23:07:38.48	27.20	15.91	-50.4	-63.6	3.8	1.49e+00	0	39	104	0	72	16426
2026-01-14 23:07:41.46	27.41	16.22	-50.4	-63.6	3.8	1.49e+00	0	40	104	0	72	16430
2026-01-14 23:07:44.46	27.63	16.54	-50.4	-63.6	3.8	1.49e+00	0	40	104	0	72	16477
2026-01-14 23:07:47.53	27.87	16.87	-50.4	-63.6	3.8	1.49e+00	0	40	104	0	72	16412
2026-01-14 23:07:50.61	28.10	17.20	-50.4	-63.6	3.8	1.49e+00	0	40	104	0	72	16414
2026-01-14 23:07:53.62	28.34	17.53	-50.4	-63.6	3.8	1.49e+00	0	40	104	0	72	16395
2026-01-14 23:07:56.61	28.58	17.86	-50.4	-63.6	3.8	1.49e+00	0	40	104	0	72	16387
2026-01-14 23:07:59.59	28.82	18.20	-50.4	-63.6	3.8	1.49e+00	0	40	104	0	72	16365
2026-01-14 23:08:02.57	29.07	18.54	-50.4	-63.6	3.8	1.49e+00	0	40	104	0	72	16472
2026-01-14 23:08:05.55	29.32	18.88	-50.4	-63.6	3.8	1.49e+00	0	40	104	0	72	16398
2026-01-14 23:08:08.53	29.58	19.23	-50.4	-63.6	3.8	1.49e+00	0	40	104	0	72	16423
2026-01-14 23:08:11.51	29.85	19.58	-50.4	-63.6	3.8	1.49e+00	0	40	104	0	72	16405
2026-01-14 23:08:14.49	30.12	19.94	-50.4	-63.6	3.8	1.49e+00	0	40	104	0	72	16400
2026-01-14 23:08:17.47	30.40	20.30	-50.4	-63.6	3.8	1.49e+00	0	40	104	0	72	16362
2026-01-14 23:08:20.45	30.68	20.67	-50.4	-63.6	3.8	1.49e+00	0	40	104	0	72	16406
2026-01-14 23:08:23.43	30.97	21.04	-50.4	-63.6	3.8	1.49e+00	0	40	104	0	72	16428
2026-01-14 23:08:26.42	31.27	21.42	-50.4	-63.6	3.8	1.49e+00	0	40	104	0	72	16471
2026-01-14 23:08:29.40	31.57	21.80	-50.4	-63.6	3.8	1.49e+00	0	40	104	0	72	16389
2026-01-14 23:08:32.38	31.89	22.19	-50.4	-63.6	3.8	1.49e+00	0	40	104	0	72	16454
2026-01-14 23:08:35.40	32.21	22.58	-50.4	-63.6	3.8	1.49e+00	0	40	104	0	72	16391
2026-01-14 23:08:38.47	32.55	22.99	-50.4	-63.6	3.8	1.49e+00	0	40	104	0	72	16324
2026-01-14 23:08:41.52	32.89	23.40	-50.4	-63.6	3.8	1.49e+00	0	40	104	0	72	16414
2026-01-14 23:08:44.78	33.27	23.85	-50.4	-63.6	3.8	1.49e+00	0	40	104	0	72	16435
2026-01-14 23:08:47.48	33.59	24.22	-50.4	-63.6	3.8	1.49e+00	0	40	104	0	72	16434
2026-01-14 23:08:50.76	33.99	24.69	-50.4	-63.6	3.8	1.49e+00	0	40	104	0	72	16404
2026-01-14 23:08:53.46	34.32	25.07	-50.4	-63.6	3.8	1.49e+00	0	40	104	0	72	16375
2026-01-14 23:08:56.80	34.75	25.55	-50.4	-63.6	3.8	1.49e+00	0	40	104	0	72	16410
2026-01-14 23:08:59.58	35.12	25.96	-50.4	-63.6	3.8	1.49e+00	0	40	104	0	72	16462
2026-01-14 23:09:02.89	35.57	26.45	-50.4	-63.6	3.8	1.49e+00	0	40	104	0	72	16367
2026-01-14 23:09:05.59	35.94	26.86	-50.4	-63.6	3.8	1.49e+00	0	40	104	0	72	16358
2026-01-14 23:09:08.88	36.41	27.36	-50.4	-63.6	3.8	1.49e+00	0	40	104	0	72	16407
2026-01-14 23:09:11.59	36.81	27.78	-50.4	-63.6	3.8	1.49e+00	0	40	104	0	72	16323
2026-01-14 23:09:14.86	37.31	28.29	-50.4	-63.6	3.8	1.49e+00	0	40	104	0	72	16412
2026-01-14 23:09:17.55	37.72	28.71	-50.4	-63.6	3.8	1.49e+00	0	40	104	0	72	16462
2026-01-14 23:09:20.82	38.25	29.24	-50.4	-63.6	3.8	1.49e+00	0	40	104	0	72	16362
2026-01-14 23:09:23.52	38.69	29.68	-50.4	-63.6	3.8	1.49e+00	0	40	104	0	72	16441
2026-01-14 23:09:26.79	39.25	30.22	-50.4	-63.6	3.8	1.49e+00	0	40	104	0	72	16345
2026-01-14 23:09:29.51	39.73	30.67	-50.4	-63.6	3.8	1.49e+00	0	40	104	0	72	16386
2026-01-14 23:09:32.78	40.32	31.22	-50.4	-63.6	3.8	1.49e+00	0	40	104	0	72	16412
2026-01-14 23:09:35.48	40.82	31.68	-50.4	-63.6	3.8	1.49e+00	0	40	104	0	72	16398
2026-01-14 23:09:38.76	41.45	32.25	-50.4	-63.6	3.8	1.49e+00	0	40	104	0	72	16407
2026-01-14 23:09:41.46	41.98	32.72	-50.4	-63.6	3.8	1.49e+00	0	40	104	0	72	16428
2026-01-14 23:09:44.76	42.66	33.31	-50.4	-63.6	3.8	1.49e+00	0	40	104	0	72	16337
2026-01-14 23:09:47.52	43.24	33.80	-50.4	-63.6	3.8	1.49e+00	0	40	104	0	72	16394
2026-01-14 23:09:50.93	43.99	34.42	-50.4	-63.6	3.8	1.49e+00	0	40	104	0	72	16439
2026-01-14 23:09:53.62	44.59	34.91	-50.4	-63.6	3.8	1.49e+00	0	40	104	0	72	16386
2026-01-14 23:09:56.89	45.36	35.51	-50.4	-63.6	3.8	1.49e+00	0	40	104	0	72	16388
2026-01-14 23:09:59.58	46.01	36.01	-50.4	-63.6	3.8	1.49e+00	0	40	104	0	72	16384
2026-01-14 23:10:02.86	46.83	36.62	-50.4	-63.6	3.8	1.49e+00	0	40	104	0	72	16400
2026-01-14 23:10:05.56	47.52	37.13	-50.4	-63.6	3.8	1.49e+00	0	41	104	0	72	16444
2026-01-14 23:10:08.83	48.40	37.76	-50.4	-63.6	3.8	1.49e+00	0	40	104	0	72	16338
2026-01-14 23:10:11.54	49.15	38.27	-50.4	-63.6	3.8	1.49e+00	0	40	104	0	72	16410
2026-01-14 23:10:14.80	50.08	38.90	-50.4	-63.6	3.8	1.49e+00	0	40	104	0	72	16448
2026-01-14 23:10:17.50	50.88	39.42	-50.4	-63.6	3.8	1.49e+00	0	41	104	0	72	16437
2026-01-14 23:10:20.78	51.89	40.06	-50.4	-63.6	3.8	1.49e+00	0	40	104	0	72	16373
2026-01-14 23:10:23.57	52.77	40.60	-50.4	-63.6	3.8	1.49e+00	0	40	104	0	72	16405
2026-01-14 23:10:26.84	53.85	41.24	-50.3	-63.6	3.8	1.49e+00	0	41	104	0	72	16396
2026-01-14 23:10:29.53	54.77	41.76	-50.4	-63.6	3.8	1.49e+00	0	40	104	0	72	16379
2026-01-14 23:10:32.83	55.94	42.40	-50.4	-63.6	3.8	1.49e+00	0	40	104	0	72	16446
2026-01-14 23:10:35.54	56.94	42.92	-50.4	-63.6	3.8	1.49e+00	0	40	104	0	72	16399
2026-01-14 23:10:38.82	58.18	43.55	-50.4	-63.6	3.8	1.49e+00	0	40	104	0	72	16392
2026-01-14 23:10:41.61	59.28	44.09	-50.4	-63.6	3.8	1.49e+00	0	41	104	0	72	16361
2026-01-14 23:10:44.89	60.62	44.71	-50.4	-63.6	3.8	1.49e+00	0	40	104	0	72	16409
2026-01-14 23:10:47.59	61.77	45.21	-50.4	-63.6	3.8	1.49e+00	0	40	104	0	72	16354
2026-01-14 23:10:50.89	63.21	45.82	-50.4	-63.6	3.8	1.49e+00	0	41	104	0	72	16431
2026-01-14 23:10:53.60	64.44	46.31	-50.4	-63.6	3.8	1.49e+00	0	40	104	0	72	16416
2026-01-14 23:10:56.88	65.98	46.89	-50.4	-63.6	3.8	1.49e+00	0	40	104	0	72	16431
2026-01-14 23:10:59.57	67.29	47.36	-50.4	-63.6	3.8	1.49e+00	0	40	104	0	72	16370
2026-01-14 23:11:02.87	68.94	47.92	-50.4	-63.6	3.8	1.49e+00	0	40	104	0	72	16390
2026-01-14 23:11:05.57	70.34	48.36	-50.4	-63.6	3.8	1.49e+00	0	40	104	0	72	16447
2026-01-14 23:11:08.85	72.09	48.88	-50.4	-63.6	3.8	1.49e+00	0	40	104	0	72	16496
2026-01-14 23:11:11.56	73.58	49.29	-50.4	-63.6	3.8	1.49e+00	0	40	104	0	72	16384
2026-01-14 23:11:14.82	75.43	49.76	-50.4	-63.6	3.8	1.49e+00	0	40	104	0	72	16393
2026-01-14 23:11:17.54	77.01	50.13	-50.4	-63.6	3.8	1.49e+00	0	40	104	0	72	16410
2026-01-14 23:11:20.80	78.96	50.55	-50.4	-63.6	3.8	1.49e+00	0	41	104	0	72	16363
2026-01-14 23:11:23.50	80.61	50.87	-50.4	-63.6	3.8	1.49e+00	0	40	104	0	72	16453
2026-01-14 23:11:26.78	82.66	51.23	-50.4	-63.6	3.8	1.49e+00	0	41	104	0	72	16356
2026-01-14 23:11:29.48	84.39	51.50	-50.4	-63.6	3.8	1.49e+00	0	41	104	0	72	16377
2026-01-14 23:11:32.87	86.60	51.81	-50.4	-63.6	3.8	1.49e+00	0	40	104	0	72	16420
2026-01-14 23:11:35.57	88.39	52.02	-50.4	-63.6	3.8	1.49e+00	0	40	104	0	72	16486
2026-01-14 23:11:38.83	90.58	52.23	-50.4	-63.6	3.8	1.49e+00	0	41	104	0	72	16389
2026-01-14 23:11:41.53	92.42	52.38	-50.4	-63.6	3.8	1.49e+00	0	41	104	0	72	16448
2026-01-14 23:11:44.79	94.66	52.52	-50.4	-63.6	3.8	1.49e+00	0	40	104	0	72	16451
2026-01-14 23:11:47.49	96.53	52.60	-50.4	-63.6	3.8	1.49e+00	0	41	104	0	72	16396
2026-01-14 23:11:50.76	98.81	52.66	-50.4	-63.6	3.8	1.49e+00	0	41	104	0	72	16398
2026-01-14 23:11:53.47	100.70	52.67	-50.4	-63.6	3.8	1.49e+00	0	41	104	0	72	16429
2026-01-14 23:11:56.74	102.98	52.64	-50.4	-63.6	3.8	1.49e+00	0	41	104	0	72	16461
2026-01-14 23:11:59.45	104.87	52.59	-50.4	-63.6	3.8	1.49e+00	0	41	104	0	72	16417
2026-01-14 23:12:02.71	107.12	52.48	-50.4	-63.6	3.8	1.49e+00	0	41	104	0	72	16445
2026-01-14 23:12:05.41	108.98	52.35	-50.4	-63.6	3.8	1.49e+00	0	41	104	0	72	16398
2026-01-14 23:12:08.80	111.28	52.15	-50.3	-63.6	3.8	1.49e+00	0	41	104	0	72	16400
2026-01-14 23:12:11.58	113.14	51.96	-50.4	-63.6	3.8	1.49e+00	0	41	104	0	72	16458
2026-01-14 23:12:14.89	115.33	51.68	-50.4	-63.6	3.8	1.49e+00	0	41	104	0	72	16376
2026-01-14 23:12:17.59	117.08	51.43	-50.4	-63.6	3.8	1.49e+00	0	40	104	0	72	16462
2026-01-14 23:12:20.85	119.15	51.09	-50.4	-63.6	3.8	1.49e+00	0	41	104	0	72	16420
2026-01-14 23:12:23.55	120.83	50.79	-50.4	-63.6	3.8	1.49e+00	0	41	104	0	72	16397
2026-01-14 23:12:26.81	122.81	50.39	-50.4	-63.7	3.8	1.49e+00	0	41	104	0	72	16504
2026-01-14 23:12:29.53	124.43	50.03	-50.4	-63.6	3.8	1.49e+00	0	41	104	0	72	16467
2026-01-14 23:12:32.81	126.32	49.57	-50.4	-63.6	3.8	1.49e+00	0	41	104	0	72	16432
2026-01-14 23:12:35.52	127.84	49.17	-50.4	-63.6	3.8	1.49e+00	0	41	104	0	72	16422
2026-01-14 23:12:38.78	129.62	48.67	-50.4	-63.6	3.8	1.49e+00	0	41	104	0	72	16430
2026-01-14 23:12:41.50	131.06	48.23	-50.4	-63.6	3.8	1.49e+00	0	40	104	0	72	16425
2026-01-14 23:12:44.76	132.74	47.69	-50.4	-63.6	3.8	1.49e+00	0	41	104	0	72	16457
2026-01-14 23:12:47.47	134.08	47.23	-50.4	-63.6	3.8	1.49e+00	0	41	104	0	72	16439
2026-01-14 23:12:50.75	135.66	46.65	-50.4	-63.6	3.8	1.49e+00	0	41	104	0	72	16430
2026-01-14 23:12:53.45	136.92	46.16	-50.4	-63.6	3.8	1.49e+00	0	41	104	0	72	16476
2026-01-14 23:12:56.72	138.39	45.57	-50.4	-63.6	3.8	1.49e+00	0	41	104	0	72	16410
2026-01-14 23:12:59.45	139.57	45.06	-50.4	-63.6	3.8	1.49e+00	0	41	104	0	72	16496
2026-01-14 23:13:02.85	141.00	44.42	-50.4	-63.6	3.8	1.49e+00	0	41	104	0	72	16498
2026-01-14 23:13:05.56	142.10	43.90	-50.4	-63.6	3.8	1.49e+00	0	41	104	0	72	16444
2026-01-14 23:13:08.83	143.37	43.27	-50.4	-63.6	3.8	1.49e+00	0	41	104	0	72	16427
2026-01-14 23:13:11.56	144.40	42.74	-50.4	-63.6	3.8	1.49e+00	0	41	104	0	72	16464
2026-01-14 23:13:14.82	145.58	42.11	-50.4	-63.6	3.8	1.49e+00	0	41	104	0	72	16421
2026-01-14 23:13:17.56	146.54	41.57	-50.4	-63.6	3.8	1.49e+00	0	41	104	0	72	16452
2026-01-14 23:13:20.83	147.65	40.93	-50.4	-63.6	3.8	1.49e+00	0	41	104	0	72	16439
2026-01-14 23:13:23.53	148.53	40.40	-50.4	-63.6	3.8	1.49e+00	0	41	104	0	72	16474
2026-01-14 23:13:26.79	149.56	39.77	-50.4	-63.6	3.8	1.49e+00	0	41	104	0	72	16441
2026-01-14 23:13:29.51	150.39	39.24	-50.4	-63.6	3.8	1.49e+00	0	41	104	0	72	16425
2026-01-14 23:13:32.77	151.34	38.60	-50.4	-63.6	3.8	1.49e+00	0	41	104	0	72	16445
2026-01-14 23:13:35.47	152.11	38.08	-50.4	-63.6	3.8	1.49e+00	0	41	104	0	72	16481
2026-01-14 23:13:38.75	153.01	37.45	-50.4	-63.6	3.8	1.49e+00	0	41	104	0	72	16407
2026-01-14 23:13:41.46	153.73	36.94	-50.4	-63.6	3.8	1.49e+00	0	41	104	0	72	16469
2026-01-14 23:13:44.72	154.56	36.32	-50.4	-63.6	3.8	1.49e+00	0	41	104	0	72	16474
2026-01-14 23:13:47.42	155.23	35.81	-50.4	-63.6	3.8	1.49e+00	0	41	104	0	72	16495
2026-01-14 23:13:50.69	156.01	35.20	-50.4	-63.6	3.8	1.49e+00	0	41	104	0	72	16450
2026-01-14 23:13:53.38	156.63	34.70	-50.4	-63.6	3.8	1.49e+00	0	41	104	0	72	16484
2026-01-14 23:13:56.66	157.36	34.10	-50.4	-63.7	3.8	1.49e+00	0	41	104	0	72	16511
2026-01-14 23:13:59.38	157.95	33.61	-50.4	-63.6	3.8	1.49e+00	0	41	104	0	72	16465
2026-01-14 23:14:02.64	158.64	33.03	-50.4	-63.6	3.8	1.49e+00	0	41	104	0	72	16457
2026-01-14 23:14:05.35	159.19	32.55	-50.4	-63.6	3.8	1.49e+00	0	41	104	0	72	16474
2026-01-14 23:14:08.62	159.83	31.97	-50.4	-63.6	3.8	1.49e+00	0	41	104	0	72	16456
2026-01-14 23:14:11.33	160.35	31.50	-50.4	-63.6	3.8	1.49e+00	0	41	104	0	72	16472
2026-01-14 23:14:14.60	160.95	30.94	-50.4	-63.6	3.8	1.49e+00	0	41	104	0	72	16382
2026-01-14 23:14:17.30	161.43	30.49	-50.4	-63.7	3.8	1.49e+00	0	41	104	0	72	16513
2026-01-14 23:14:20.58	162.00	29.94	-50.4	-63.6	3.8	1.49e+00	0	41	104	0	72	16478
2026-01-14 23:14:23.29	162.46	29.49	-50.4	-63.7	3.8	1.49e+00	0	41	104	0	72	16518
2026-01-14 23:14:26.56	163.00	28.96	-50.4	-63.6	3.8	1.49e+00	0	41	104	0	72	16500
2026-01-14 23:14:29.30	163.43	28.52	-50.4	-63.6	3.8	1.49e+00	0	41	104	0	72	16469
2026-01-14 23:14:32.57	163.94	28.00	-50.4	-63.6	3.8	1.49e+00	0	41	104	0	72	16502
2026-01-14 23:14:35.26	164.34	27.57	-50.4	-63.6	3.8	1.49e+00	0	41	104	0	72	16484
2026-01-14 23:14:38.53	164.82	27.07	-50.4	-63.7	3.8	1.49e+00	0	41	104	0	72	16512
2026-01-14 23:14:41.23	165.20	26.66	-50.4	-63.7	3.8	1.49e+00	0	41	104	0	72	16512
2026-01-14 23:14:44.50	165.65	26.16	-50.4	-63.6	3.8	1.49e+00	0	41	104	0	72	16478
2026-01-14 23:14:47.42	166.04	25.73	-50.4	-63.6	3.8	1.49e+00	0	41	104	0	72	16472
2026-01-14 23:14:51.40	166.56	25.15	-50.4	-63.7	3.8	1.49e+00	0	41	104	0	72	16518
2026-01-14 23:14:54.23	166.92	24.74	-50.4	-63.7	3.8	1.49e+00	0	41	104	0	72	16507
2026-01-14 23:14:58.21	167.40	24.17	-50.4	-63.6	3.8	1.49e+00	0	41	104	0	72	16497
2026-01-14 23:15:01.05	167.74	23.78	-50.4	-63.6	3.8	1.49e+00	0	41	104	0	72	16500
2026-01-14 23:15:05.28	168.23	23.19	-50.4	-63.6	3.8	1.49e+00	0	41	104	0	72	16461
2026-01-14 23:15:08.11	168.55	22.81	-50.4	-63.6	3.8	1.49e+00	0	41	104	0	72	16480
2026-01-14 23:15:12.09	168.98	22.28	-50.4	-63.7	3.8	1.49e+00	0	41	104	0	72	16532
2026-01-14 23:15:14.92	169.28	21.91	-50.4	-63.6	3.8	1.49e+00	0	41	104	0	72	16438
2026-01-14 23:15:18.90	169.69	21.39	-50.4	-63.6	3.8	1.49e+00	0	41	104	0	72	16450
2026-01-14 23:15:21.80	169.98	21.02	-50.4	-63.7	3.8	1.49e+00	0	41	104	0	72	16557
2026-01-14 23:15:25.77	170.36	20.52	-50.4	-63.7	3.8	1.49e+00	0	41	104	0	72	16550
2026-01-14 23:15:28.61	170.63	20.17	-50.4	-63.6	3.8	1.49e+00	0	41	104	0	72	16460
2026-01-14 23:15:32.59	171.00	19.69	-50.4	-63.7	3.8	1.49e+00	0	41	104	0	72	16521
2026-01-14 23:15:35.43	171.26	19.35	-50.5	-63.7	3.8	1.49e+00	0	41	104	0	72	16521
2026-01-14 23:15:39.40	171.61	18.88	-50.4	-63.7	3.8	1.49e+00	0	41	104	0	72	16507
2026-01-14 23:15:42.24	171.85	18.54	-50.4	-63.7	3.8	1.49e+00	0	41	104	0	72	16512
2026-01-14 23:15:46.22	172.18	18.09	-50.5	-63.7	3.8	1.49e+00	0	41	104	0	72	16567
2026-01-14 23:15:49.05	172.41	17.77	-50.4	-63.6	3.8	1.49e+00	0	41	104	0	72	16463
2026-01-14 23:15:53.08	172.73	17.31	-50.4	-63.7	3.8	1.49e+00	0	41	104	0	72	16543
2026-01-14 23:15:56.04	172.96	16.99	-50.4	-63.7	3.8	1.49e+00	0	41	104	0	72	16510
2026-01-14 23:15:59.51	173.22	16.61	-50.5	-63.7	3.8	1.49e+00	0	41	104	0	72	16521
2026-01-14 23:16:02.48	173.45	16.29	-50.4	-63.7	3.8	1.49e+00	0	41	104	0	72	16593
2026-01-14 23:16:05.46	173.66	15.97	-50.4	-63.7	3.8	1.49e+00	0	41	104	0	72	16562
2026-01-14 23:16:08.44	173.87	15.66	-50.4	-63.6	3.8	1.49e+00	0	41	104	0	72	16470
2026-01-14 23:16:11.42	174.08	15.35	-50.5	-63.7	3.8	1.49e+00	0	41	104	0	72	16512
2026-01-14 23:16:14.40	174.29	15.05	-50.4	-63.7	3.8	1.49e+00	0	41	104	0	72	16571
2026-01-14 23:16:17.38	174.49	14.75	-50.4	-63.7	3.8	1.49e+00	0	41	104	0	72	16527
2026-01-14 23:16:20.36	174.68	14.45	-50.4	-63.7	3.8	1.49e+00	0	41	104	0	72	16607
2026-01-14 23:16:23.35	174.88	14.15	-50.4	-63.7	3.8	1.49e+00	0	41	104	0	72	16532
2026-01-14 23:16:26.32	175.07	13.86	-50.4	-63.7	3.8	1.49e+00	0	41	104	0	72	16560
2026-01-14 23:16:29.37	175.26	13.56	-50.4	-63.7	3.8	1.49e+00	0	41	104	0	72	16505
2026-01-14 23:16:32.22	175.43	13.29	-50.5	-63.6	3.8	1.49e+00	0	41	104	0	72	16487
2026-01-14 23:16:35.68	175.64	12.96	-50.5	-63.7	3.8	1.49e+00	0	41	104	0	72	16557
2026-01-14 23:16:38.58	175.81	12.69	-50.4	-63.7	3.8	1.49e+00	0	41	104	0	72	16605
2026-01-14 23:16:41.86	176.00	12.39	-50.5	-63.7	3.8	1.49e+00	0	41	104	0	72	16547
2026-01-14 23:16:44.59	176.15	12.14	-50.4	-63.7	3.8	1.49e+00	0	41	104	0	72	16524
2026-01-14 23:16:47.85	176.34	11.84	-50.5	-63.7	3.8	1.49e+00	0	41	104	0	72	16541
2026-01-14 23:16:50.56	176.48	11.60	-50.5	-63.7	3.8	1.49e+00	0	41	104	0	72	16554
2026-01-14 23:16:53.83	176.66	11.31	-50.4	-63.7	3.8	1.49e+00	0	41	104	0	72	16554
2026-01-14 23:16:56.54	176.80	11.07	-50.5	-63.7	3.8	1.49e+00	0	41	104	0	72	16581
2026-01-14 23:16:59.81	176.97	10.78	-50.5	-63.7	3.8	1.49e+00	0	41	104	0	72	16545
2026-01-14 23:17:02.51	177.11	10.55	-50.5	-63.6	3.8	1.49e+00	0	41	104	0	72	16476
2026-01-14 23:17:05.77	177.28	10.27	-50.5	-63.7	3.8	1.49e+00	0	41	104	0	72	16533
2026-01-14 23:17:08.48	177.41	10.04	-50.4	-63.7	3.8	1.49e+00	0	41	104	0	72	16516
2026-01-14 23:17:11.76	177.57	9.77	-50.5	-63.7	3.8	1.49e+00	0	41	104	0	72	16541
2026-01-14 23:17:14.47	177.70	9.54	-50.5	-63.7	3.8	1.49e+00	0	41	104	0	72	16551
2026-01-14 23:17:17.74	177.86	9.27	-50.5	-63.6	3.8	1.49e+00	0	41	104	0	72	16496
2026-01-14 23:17:20.46	177.98	9.05	-50.5	-63.7	3.8	1.49e+00	0	41	104	0	72	16553
2026-01-14 23:17:23.72	178.13	8.79	-50.4	-63.7	3.8	1.49e+00	0	41	104	0	72	16571
2026-01-14 23:17:26.42	178.25	8.57	-50.5	-63.7	3.8	1.49e+00	0	41	104	0	72	16569
2026-01-14 23:17:29.78	178.40	8.31	-50.5	-63.7	3.8	1.49e+00	0	41	104	0	72	16572
2026-01-14 23:17:32.52	178.52	8.09	-50.4	-63.7	3.8	1.49e+00	0	41	104	0	72	16535
2026-01-14 23:17:35.87	178.67	7.83	-50.5	-63.7	3.8	1.49e+00	0	41	104	0	72	16528
2026-01-14 23:17:38.57	178.78	7.62	-50.4	-63.7	3.8	1.49e+00	0	41	104	0	72	16555
2026-01-14 23:17:41.83	178.92	7.37	-50.5	-63.7	3.8	1.49e+00	0	41	104	0	72	16505
2026-01-14 23:17:44.66	179.04	7.16	-50.5	-63.7	3.8	1.49e+00	0	41	104	0	72	16574
2026-01-14 23:17:47.78	179.16	6.92	-50.4	-63.6	3.8	1.49e+00	0	41	104	0	72	16494
2026-01-14 23:17:50.62	179.28	6.71	-50.4	-63.6	3.8	1.49e+00	0	42	104	0	72	16502
2026-01-14 23:17:53.74	179.40	6.48	-50.5	-63.7	3.8	1.49e+00	0	41	104	0	72	16535
2026-01-14 23:17:56.58	179.51	6.27	-50.4	-63.7	3.8	1.49e+00	0	41	104	0	72	16532
2026-01-14 23:17:59.70	179.63	6.04	-50.4	-63.7	3.8	1.49e+00	0	41	104	0	72	16542
2026-01-14 23:18:02.54	179.74	5.84	-50.4	-63.7	3.8	1.49e+00	0	41	104	0	72	16565
2026-01-14 23:18:05.66	179.85	5.62	-50.4	-63.7	3.8	1.49e+00	0	41	104	0	72	16531
2026-01-14 23:18:08.50	179.96	5.41	-50.4	-63.6	3.8	1.49e+00	0	41	104	0	72	16502
2026-01-14 23:18:11.63	180.07	5.19	-50.4	-63.6	3.8	1.49e+00	0	41	104	0	72	16462
2026-01-14 23:18:14.46	180.18	4.99	-50.4	-63.7	3.8	1.49e+00	0	41	104	0	72	16557

#Closed at: 2026-01-14 23:18:15
#Recorded file [0 MB]: D:/Data/31040_260115_020529.dat