passes_logs/2026/01/14/T1/T1__20260114_022641_FENGYUN_3G_rec.log

#Pass ID: 20260114_022641_FENGYUN 3G
#Satellite: FENGYUN 3G
#Configuration: FENGYUN 3G
#almurnet v.1.7.20251203
#Start time: 2026-01-14 02:26:42

#Version: 2.0.20230620
#Station: T1
#Location: 37.570604 lon 55.790049 lat
#TLE: 1 56232U 23055A   26013.24803668  .00022566  00000+0  35531-3 0  9992
#TLE: 2 56232  49.9941  64.9712 0004217  19.4523 340.6605 15.53433909155921

#Time	Az	El	Level	Level2	SNR	BER	BlckErr	Temp	State	Recorded	gain1	gain2
2026-01-14 02:26:42.09	255.65	4.97	-49.9	-69.3	3.8	8.47e-01	0	36	0	0	71	33407
2026-01-14 02:26:44.07	255.33	5.08	-49.9	-69.3	3.8	8.47e-01	0	36	104	0	71	33327
2026-01-14 02:26:46.06	255.00	5.20	-49.9	-69.3	3.8	8.48e-01	0	36	104	0	71	33377
2026-01-14 02:26:48.04	254.68	5.31	-49.9	-69.3	3.8	8.48e-01	0	36	104	0	71	33313
2026-01-14 02:26:50.03	254.35	5.43	-49.9	-69.2	3.8	8.48e-01	0	36	104	0	71	33173
2026-01-14 02:26:52.01	254.02	5.54	-49.9	-69.2	3.8	8.46e-01	0	36	104	0	71	32975
2026-01-14 02:26:54.00	253.68	5.66	-49.8	-69.2	3.8	8.46e-01	0	36	104	0	71	32956
2026-01-14 02:26:55.99	253.33	5.78	-49.9	-69.2	3.8	8.46e-01	0	37	104	0	71	33161
2026-01-14 02:26:57.97	252.99	5.89	-49.9	-69.2	3.8	8.48e-01	0	37	104	0	71	33247
2026-01-14 02:26:59.96	252.64	6.01	-49.9	-69.2	3.8	8.48e-01	0	37	104	0	71	33029
2026-01-14 02:27:01.95	252.29	6.12	-49.9	-69.1	3.8	8.48e-01	0	37	104	0	71	32556
2026-01-14 02:27:03.93	251.93	6.24	-49.9	-69.1	3.8	8.47e-01	0	37	104	0	71	32733
2026-01-14 02:27:05.92	251.57	6.35	-49.9	-69.2	3.8	8.46e-01	0	37	104	0	71	33105
2026-01-14 02:27:07.90	251.20	6.47	-49.9	-69.2	3.8	8.46e-01	0	37	104	0	71	33012
2026-01-14 02:27:09.89	250.83	6.58	-49.9	-69.0	3.8	8.46e-01	0	37	104	0	71	32386
2026-01-14 02:27:11.88	250.46	6.70	-49.9	-68.8	3.8	8.47e-01	0	37	104	0	71	31456
2026-01-14 02:27:13.86	250.08	6.81	-49.8	-68.9	3.8	8.47e-01	0	37	104	0	71	32043
2026-01-14 02:27:15.85	249.70	6.93	-49.9	-69.2	3.8	8.47e-01	0	37	104	0	71	32970
2026-01-14 02:27:17.84	249.31	7.05	-49.9	-69.2	3.8	8.48e-01	0	37	104	0	71	33136
2026-01-14 02:27:19.82	248.92	7.16	-49.9	-69.1	3.8	8.48e-01	0	37	104	0	71	32800
2026-01-14 02:27:21.81	248.53	7.27	-49.9	-69.0	3.8	8.47e-01	0	37	104	0	71	32354
2026-01-14 02:27:23.80	248.13	7.39	-49.8	-69.0	3.8	8.47e-01	0	38	104	0	71	32520
2026-01-14 02:27:25.78	247.72	7.50	-49.8	-68.9	3.8	8.47e-01	0	37	104	0	71	31811
2026-01-14 02:27:27.77	247.32	7.62	-49.9	-69.0	3.8	8.47e-01	0	38	104	0	71	32275
2026-01-14 02:27:29.76	246.90	7.73	-49.9	-69.1	3.8	8.47e-01	0	38	104	0	71	32684
2026-01-14 02:27:31.74	246.49	7.84	-49.8	-68.9	3.8	8.47e-01	0	38	104	0	71	31924
2026-01-14 02:27:33.73	246.06	7.96	-49.8	-68.9	3.8	8.47e-01	0	38	104	0	71	31925
2026-01-14 02:27:35.72	245.64	8.07	-49.8	-68.8	3.8	8.46e-01	0	38	104	0	71	31738
2026-01-14 02:27:37.71	245.20	8.18	-49.8	-68.2	3.8	8.46e-01	0	38	104	0	71	29666
2026-01-14 02:27:39.69	244.77	8.29	-49.8	-68.1	3.8	8.47e-01	0	38	104	0	71	29045
2026-01-14 02:27:41.68	244.33	8.41	-49.9	-68.9	3.8	8.47e-01	0	38	104	0	71	31987
2026-01-14 02:27:43.67	243.88	8.52	-49.9	-69.1	3.8	8.47e-01	0	38	104	0	71	32565
2026-01-14 02:27:45.65	243.44	8.63	-49.9	-68.9	3.8	8.46e-01	0	38	104	0	71	31877
2026-01-14 02:27:47.64	242.98	8.74	-49.8	-67.6	3.8	8.47e-01	0	38	104	0	71	27563
2026-01-14 02:27:49.63	242.52	8.85	-49.6	-63.2	5.1	8.43e-01	0	38	0	0	71	16666
2026-01-14 02:27:51.61	242.06	8.95	-48.7	-56.3	11.5	5.20e-01	0	38	0	0	69	8454
2026-01-14 02:27:53.60	241.59	9.06	-46.6	-51.2	16.6	1.14e-05	0	38	0	0	65	5872
2026-01-14 02:27:55.59	241.12	9.17	-47.3	-52.1	16.0	0.00e+00	0	38	0	0	65	6501
2026-01-14 02:27:57.58	240.64	9.28	-47.1	-51.7	15.7	0.00e+00	0	38	0	0	66	5923
2026-01-14 02:27:59.57	240.16	9.38	-45.6	-49.1	18.8	0.00e+00	0	38	0	0	63	5201
2026-01-14 02:28:01.56	239.67	9.49	-44.8	-48.0	19.8	0.00e+00	0	38	0	0	61	5103
2026-01-14 02:28:03.55	239.17	9.59	-44.1	-47.1	20.8	0.00e+00	0	38	0	0	60	4880
2026-01-14 02:28:05.54	238.68	9.69	-43.8	-46.7	21.2	0.00e+00	0	38	0	0	59	4936
2026-01-14 02:28:07.53	238.17	9.80	-43.9	-46.8	21.0	0.00e+00	0	38	0	0	59	5026
2026-01-14 02:28:09.52	237.67	9.90	-44.1	-47.0	20.9	0.00e+00	0	38	0	0	59	5151
2026-01-14 02:28:11.51	237.16	10.00	-44.2	-47.2	20.7	0.00e+00	0	38	0	0	59	5243
2026-01-14 02:28:13.50	236.64	10.09	-44.3	-47.3	20.6	0.00e+00	0	38	0	0	59	5287
2026-01-14 02:28:15.55	236.10	10.20	-44.3	-47.2	20.7	0.00e+00	0	38	0	0	59	5244
2026-01-14 02:28:17.55	235.57	10.29	-44.3	-47.2	20.7	0.00e+00	0	38	0	0	59	5274
2026-01-14 02:28:19.54	235.04	10.39	-44.1	-47.0	20.9	0.00e+00	0	38	0	0	59	5129
2026-01-14 02:28:21.53	234.51	10.48	-44.0	-46.8	21.0	0.00e+00	0	38	0	0	59	5027
2026-01-14 02:28:23.52	233.97	10.57	-43.7	-46.5	21.4	0.00e+00	0	38	0	0	59	4839
2026-01-14 02:28:25.51	233.42	10.66	-43.7	-46.5	21.4	0.00e+00	0	38	0	0	59	4853
2026-01-14 02:28:27.50	232.87	10.75	-43.7	-46.5	21.3	0.00e+00	0	38	0	0	59	4865
2026-01-14 02:28:29.60	232.29	10.85	-43.5	-46.2	21.6	0.00e+00	0	38	0	0	58	4952
2026-01-14 02:28:31.58	231.73	10.93	-43.7	-46.4	21.5	0.00e+00	0	38	0	0	58	5088
2026-01-14 02:28:33.57	231.17	11.02	-43.6	-46.2	21.6	0.00e+00	0	38	0	0	58	4983
2026-01-14 02:28:35.56	230.60	11.10	-43.4	-46.0	21.8	0.00e+00	0	38	0	0	58	4840
2026-01-14 02:28:37.55	230.03	11.18	-43.2	-45.8	22.0	0.00e+00	0	38	0	0	58	4708
2026-01-14 02:28:39.54	229.46	11.26	-43.2	-45.8	22.1	0.00e+00	0	38	0	0	58	4734
2026-01-14 02:28:41.53	228.88	11.34	-43.2	-45.8	22.0	0.00e+00	0	38	0	0	58	4722
2026-01-14 02:28:43.52	228.29	11.41	-42.9	-45.5	22.3	0.00e+00	0	38	0	0	57	4828
2026-01-14 02:28:45.51	227.71	11.49	-42.7	-45.1	22.6	0.00e+00	0	38	0	0	57	4641
2026-01-14 02:28:47.51	227.11	11.56	-42.8	-45.2	22.5	0.00e+00	0	38	0	0	57	4701
2026-01-14 02:28:49.50	226.52	11.63	-42.8	-45.4	22.4	0.00e+00	0	38	0	0	57	4767
2026-01-14 02:28:51.50	225.92	11.70	-42.8	-45.4	22.3	0.00e+00	0	38	0	0	57	4776
2026-01-14 02:28:53.49	225.31	11.76	-42.9	-45.5	22.3	0.00e+00	0	39	0	0	57	4835
2026-01-14 02:28:55.70	224.64	11.83	-42.9	-45.4	22.3	0.00e+00	0	38	0	0	57	4774
2026-01-14 02:28:57.70	224.03	11.89	-42.9	-45.4	22.3	0.00e+00	0	38	0	0	57	4803
2026-01-14 02:28:59.70	223.41	11.95	-42.9	-45.5	22.3	0.00e+00	0	38	0	0	57	4820
2026-01-14 02:29:01.69	222.79	12.01	-42.8	-45.3	22.3	0.00e+00	0	38	0	0	57	4714
2026-01-14 02:29:03.68	222.17	12.06	-42.7	-45.2	22.6	0.00e+00	0	38	0	0	57	4655
2026-01-14 02:29:05.70	221.54	12.11	-42.6	-45.1	22.6	0.00e+00	0	38	0	0	57	4633
2026-01-14 02:29:07.69	220.92	12.16	-42.7	-45.2	22.6	0.00e+00	0	38	0	0	57	4655
2026-01-14 02:29:09.68	220.29	12.21	-42.6	-45.1	22.6	0.00e+00	0	39	0	0	57	4608
2026-01-14 02:29:11.99	219.56	12.26	-42.7	-45.1	22.6	0.00e+00	0	38	0	0	57	4643
2026-01-14 02:29:13.98	218.92	12.30	-42.7	-45.2	22.5	0.00e+00	0	38	0	0	57	4690
2026-01-14 02:29:15.97	218.29	12.34	-43.0	-45.6	22.2	0.00e+00	0	38	0	0	57	4904
2026-01-14 02:29:17.98	217.65	12.37	-43.1	-45.7	22.1	0.00e+00	0	38	0	0	57	4949
2026-01-14 02:29:20.00	217.00	12.40	-42.8	-45.4	22.4	0.00e+00	0	38	0	0	57	4762
2026-01-14 02:29:22.06	216.33	12.44	-42.7	-45.2	22.5	0.00e+00	0	38	0	0	57	4696
2026-01-14 02:29:24.13	215.66	12.46	-42.8	-45.3	22.4	0.00e+00	0	38	0	0	57	4758
2026-01-14 02:29:26.12	215.02	12.49	-42.8	-45.2	22.5	0.00e+00	0	38	0	0	57	4702
2026-01-14 02:29:28.46	214.26	12.51	-42.3	-44.7	22.9	0.00e+00	0	38	0	0	56	4702
2026-01-14 02:29:30.86	213.48	12.53	-42.1	-44.4	23.2	0.00e+00	0	38	0	0	56	4537
2026-01-14 02:29:33.13	212.74	12.55	-42.2	-44.6	23.1	0.00e+00	0	38	0	0	56	4599
2026-01-14 02:29:35.41	212.00	12.56	-42.6	-45.1	22.6	0.00e+00	0	39	0	0	56	4893
2026-01-14 02:29:37.68	211.25	12.57	-43.2	-45.8	22.0	0.00e+00	0	38	0	0	57	4990
2026-01-14 02:29:40.08	210.47	12.58	-42.9	-45.4	22.3	0.00e+00	0	38	0	0	57	4808
2026-01-14 02:29:42.67	209.62	12.58	-42.9	-45.4	22.4	0.00e+00	0	39	0	0	57	4790
2026-01-14 02:29:44.94	208.88	12.57	-42.5	-45.0	22.7	0.00e+00	0	39	0	0	57	4563
2026-01-14 02:29:47.22	208.14	12.57	-42.6	-45.0	22.7	0.00e+00	0	38	0	0	57	4584
2026-01-14 02:29:49.49	207.40	12.56	-42.7	-45.1	22.6	0.00e+00	0	38	0	0	57	4641
2026-01-14 02:29:51.76	206.66	12.54	-42.5	-45.0	22.7	0.00e+00	0	38	0	0	56	4839
2026-01-14 02:29:54.03	205.92	12.52	-43.1	-45.7	22.1	0.00e+00	0	38	0	0	56	5244
2026-01-14 02:29:56.30	205.18	12.50	-43.2	-45.8	22.1	0.00e+00	0	38	0	0	57	4984
2026-01-14 02:29:58.48	204.47	12.48	-43.0	-45.5	22.2	0.00e+00	0	38	0	0	57	4866
2026-01-14 02:30:00.55	203.80	12.45	-42.5	-45.0	22.7	0.00e+00	0	38	0	0	57	4561
2026-01-14 02:30:02.54	203.16	12.42	-42.3	-44.7	22.9	0.00e+00	0	39	0	0	56	4698
2026-01-14 02:30:04.53	202.52	12.39	-42.4	-44.9	22.8	0.00e+00	0	38	0	0	56	4767
2026-01-14 02:30:06.52	201.88	12.36	-42.5	-45.0	22.7	0.00e+00	0	38	0	0	56	4852
2026-01-14 02:30:08.55	201.23	12.32	-42.7	-45.3	22.5	0.00e+00	0	39	0	0	56	4987
2026-01-14 02:30:10.54	200.59	12.28	-42.4	-44.8	22.9	0.00e+00	0	39	0	0	56	4734
2026-01-14 02:30:12.54	199.96	12.24	-42.3	-44.7	22.9	0.00e+00	0	39	0	0	56	4699
2026-01-14 02:30:14.64	199.29	12.20	-42.3	-44.7	22.9	0.00e+00	0	39	0	0	56	4689
2026-01-14 02:30:16.63	198.66	12.15	-42.9	-45.5	22.3	0.00e+00	0	39	0	0	56	5112
2026-01-14 02:30:18.84	197.97	12.09	-42.9	-45.5	22.2	0.00e+00	0	39	0	0	56	5131
2026-01-14 02:30:20.83	197.35	12.04	-42.9	-45.5	22.2	0.00e+00	0	39	0	0	56	5154
2026-01-14 02:30:22.83	196.72	11.99	-42.8	-45.4	22.4	0.00e+00	0	39	0	0	56	5062
2026-01-14 02:30:24.82	196.11	11.93	-42.7	-45.2	22.5	0.00e+00	0	39	0	0	56	4949
2026-01-14 02:30:26.80	195.50	11.87	-42.8	-45.4	22.3	0.00e+00	0	39	0	0	56	5071
2026-01-14 02:30:28.79	194.89	11.81	-43.4	-46.1	21.7	0.00e+00	0	38	0	0	57	5195
2026-01-14 02:30:30.89	194.25	11.74	-43.2	-45.8	21.9	0.00e+00	0	39	0	0	57	5018
2026-01-14 02:30:33.04	193.60	11.67	-43.0	-45.6	22.0	0.00e+00	0	39	0	0	57	4913
2026-01-14 02:30:35.24	192.94	11.60	-42.6	-45.1	22.6	0.00e+00	0	39	0	0	56	4892
2026-01-14 02:30:37.23	192.34	11.53	-43.0	-45.6	22.1	0.00e+00	0	39	0	0	56	5214
2026-01-14 02:30:39.16	191.77	11.46	-43.5	-46.2	21.5	0.00e+00	0	39	0	0	57	5273
2026-01-14 02:30:41.15	191.18	11.38	-43.4	-46.3	21.5	0.00e+00	0	39	0	0	57	5280
2026-01-14 02:30:43.15	190.60	11.30	-43.0	-45.7	22.1	0.00e+00	0	39	0	0	57	4945
2026-01-14 02:30:45.23	189.99	11.22	-42.9	-45.6	22.2	0.00e+00	0	39	0	0	57	4875
2026-01-14 02:30:47.22	189.42	11.14	-42.9	-45.6	22.1	0.00e+00	0	39	0	0	57	4889
2026-01-14 02:30:49.23	188.84	11.06	-43.4	-46.3	21.4	0.00e+00	0	39	0	0	57	5328
2026-01-14 02:30:51.22	188.28	10.98	-43.8	-46.7	21.1	0.00e+00	0	39	0	0	58	5275
2026-01-14 02:30:53.21	187.71	10.89	-43.8	-46.6	21.3	0.00e+00	0	39	0	0	58	5207
2026-01-14 02:30:55.20	187.16	10.80	-43.1	-45.7	22.0	0.00e+00	0	39	0	0	58	4691
2026-01-14 02:30:57.20	186.60	10.71	-42.7	-45.3	22.4	0.00e+00	0	39	0	0	57	4711
2026-01-14 02:30:59.19	186.05	10.62	-42.8	-45.4	22.2	0.00e+00	0	39	0	0	57	4809
2026-01-14 02:31:01.19	185.51	10.53	-43.4	-46.1	21.6	0.00e+00	0	39	0	0	57	5217
2026-01-14 02:31:03.18	184.97	10.44	-43.9	-46.8	21.0	0.00e+00	0	38	0	0	58	5328
2026-01-14 02:31:05.28	184.40	10.34	-44.0	-47.1	20.8	0.00e+00	0	39	0	0	58	5491
2026-01-14 02:31:07.34	183.86	10.24	-43.9	-47.0	20.8	0.00e+00	0	39	0	0	58	5406
2026-01-14 02:31:09.66	183.24	10.13	-43.8	-46.8	21.0	0.00e+00	0	39	0	0	58	5307
2026-01-14 02:31:11.76	182.70	10.02	-43.7	-46.7	21.1	0.00e+00	0	39	0	0	58	5279
2026-01-14 02:31:13.75	182.18	9.92	-43.6	-46.4	21.3	0.00e+00	0	39	0	0	58	5096
2026-01-14 02:31:15.74	181.67	9.82	-43.8	-46.7	21.0	0.00e+00	0	39	0	0	58	5278
2026-01-14 02:31:17.73	181.17	9.72	-44.2	-47.3	20.5	0.00e+00	0	39	0	0	59	5307
2026-01-14 02:31:19.72	180.67	9.62	-43.9	-47.0	20.9	0.00e+00	0	39	0	0	59	5116
2026-01-14 02:31:21.71	180.17	9.51	-43.6	-46.6	21.1	0.00e+00	0	39	0	0	59	4925
2026-01-14 02:31:23.70	179.68	9.41	-43.5	-46.5	21.2	0.00e+00	0	39	0	0	58	5155
2026-01-14 02:31:25.69	179.19	9.30	-43.5	-46.7	21.1	4.92e-05	0	39	0	0	58	5260
2026-01-14 02:31:27.80	178.68	9.19	-43.9	-47.3	20.6	1.39e-03	0	39	0	0	58	5620
2026-01-14 02:31:29.85	178.19	9.08	-44.3	-47.9	19.9	0.00e+00	0	39	0	0	59	5715
2026-01-14 02:31:31.84	177.72	8.97	-45.8	-50.9	17.8	0.00e+00	0	39	0	0	62	6754
2026-01-14 02:31:33.82	177.26	8.86	-50.2	-68.9	3.8	8.13e-01	0	39	104	0	71	31885
2026-01-14 02:31:35.81	176.80	8.75	-50.3	-69.5	3.8	8.47e-01	0	39	104	0	71	34230
2026-01-14 02:31:37.80	176.34	8.64	-50.6	-69.6	3.8	8.48e-01	0	39	104	0	72	32738
2026-01-14 02:31:39.78	175.89	8.53	-50.8	-69.6	3.8	8.47e-01	0	39	104	0	72	32888
2026-01-14 02:31:41.77	175.44	8.42	-50.7	-69.7	3.8	8.47e-01	0	39	104	0	72	32952
2026-01-14 02:31:43.76	175.00	8.31	-50.9	-69.7	3.8	8.47e-01	0	39	104	0	72	33029
2026-01-14 02:31:45.74	174.56	8.20	-51.0	-69.7	3.8	8.48e-01	0	39	104	0	72	33111
2026-01-14 02:31:47.73	174.13	8.09	-50.7	-69.7	3.8	8.47e-01	0	39	104	0	72	33225
2026-01-14 02:31:49.72	173.70	7.97	-51.0	-69.7	3.8	8.47e-01	0	39	104	0	72	33248
2026-01-14 02:31:51.71	173.27	7.86	-50.7	-69.7	3.8	8.47e-01	0	39	104	0	72	33252
2026-01-14 02:31:53.69	172.86	7.75	-50.9	-69.7	3.8	8.46e-01	0	39	104	0	72	33252
2026-01-14 02:31:55.68	172.44	7.63	-50.9	-69.7	3.8	8.47e-01	0	39	104	0	72	33281
2026-01-14 02:31:57.67	172.03	7.52	-50.9	-69.7	3.8	8.45e-01	0	39	104	0	72	33221
2026-01-14 02:31:59.66	171.62	7.40	-50.7	-69.7	3.8	8.48e-01	0	39	104	0	72	33271
2026-01-14 02:32:01.64	171.22	7.29	-50.7	-69.7	3.8	8.47e-01	0	39	104	0	72	33034
2026-01-14 02:32:03.63	170.83	7.17	-50.7	-69.7	3.8	8.47e-01	0	39	104	0	72	33037
2026-01-14 02:32:05.62	170.43	7.06	-50.7	-69.7	3.8	8.47e-01	0	39	104	0	72	33048
2026-01-14 02:32:07.60	170.04	6.94	-50.7	-69.7	3.8	8.47e-01	0	39	104	0	72	32989
2026-01-14 02:32:09.59	169.66	6.83	-50.7	-69.7	3.8	8.47e-01	0	39	104	0	72	33074
2026-01-14 02:32:11.58	169.28	6.71	-50.7	-69.7	3.8	8.45e-01	0	39	104	0	72	33044
2026-01-14 02:32:13.57	168.90	6.60	-50.7	-69.6	3.8	8.47e-01	0	39	104	0	72	32922
2026-01-14 02:32:15.55	168.53	6.48	-50.7	-69.7	3.8	8.48e-01	0	39	104	0	72	33085
2026-01-14 02:32:17.54	168.16	6.37	-50.7	-69.7	3.8	8.47e-01	0	39	104	0	72	33038
2026-01-14 02:32:19.52	167.80	6.25	-50.7	-69.7	3.8	8.48e-01	0	39	104	0	72	32981
2026-01-14 02:32:21.51	167.44	6.13	-50.7	-69.7	3.8	8.46e-01	0	39	104	0	72	33102
2026-01-14 02:32:23.50	167.08	6.02	-50.7	-69.7	3.8	8.48e-01	0	39	104	0	72	33060
2026-01-14 02:32:25.49	166.73	5.90	-50.7	-69.7	3.8	8.47e-01	0	39	104	0	72	33079
2026-01-14 02:32:27.47	166.39	5.79	-50.7	-69.7	3.8	8.48e-01	0	39	104	0	72	33037
2026-01-14 02:32:29.46	166.04	5.67	-50.7	-69.6	3.8	8.47e-01	0	39	104	0	72	32903
2026-01-14 02:32:31.45	165.70	5.56	-50.7	-69.7	3.8	8.47e-01	0	39	104	0	72	33024
2026-01-14 02:32:33.44	165.36	5.44	-50.7	-69.7	3.8	8.46e-01	0	39	104	0	72	32930
2026-01-14 02:32:35.42	165.03	5.32	-50.7	-69.7	3.8	8.46e-01	0	39	104	0	72	32987
2026-01-14 02:32:37.41	164.70	5.21	-50.7	-69.7	3.8	8.47e-01	0	39	104	0	72	32960
2026-01-14 02:32:39.40	164.38	5.09	-50.7	-69.7	3.8	8.47e-01	0	39	104	0	72	32956

#Closed at: 2026-01-14 02:32:41
#Recorded file [0 MB]: D:/Data/31040_260114_052642.dat