passes_logs/2026/01/14/T1/T1__20260114_201703_KHAYYAM_rec.log

#Pass ID: 20260114_201703_KHAYYAM
#Satellite: KHAYYAM
#Configuration: KHAYYAM_480M
#almurnet v.1.7.20251203
#Start time: 2026-01-14 20:17:05

#Version: 2.0.20230620
#Station: T1
#Location: 37.570604 lon 55.790049 lat
#TLE: 1 53370U 22096A   26013.51281675  .00004651  00000+0  19126-3 0  9991
#TLE: 2 53370  97.3561 280.5500 0001428 104.1884 255.9512 15.24640906191010

#Time	Az	El	Level	Level2	SNR	BER	BlckErr	Temp	State	Recorded	gain1	gain2
2026-01-14 20:17:05.03	28.61	3.85	-49.2	-55.0	3.5	0.00e+00	0	45	0	0	69	28927
2026-01-14 20:17:07.01	28.81	3.98	-49.2	-55.0	3.7	0.00e+00	0	46	104	0	69	28885
2026-01-14 20:17:09.00	29.01	4.12	-49.1	-54.9	3.7	0.00e+00	0	46	104	0	69	28775
2026-01-14 20:17:10.99	29.21	4.25	-49.2	-54.9	3.7	0.00e+00	0	46	104	0	69	28792
2026-01-14 20:17:12.97	29.41	4.38	-49.2	-55.0	3.7	0.00e+00	0	46	104	0	69	28848
2026-01-14 20:17:14.96	29.62	4.52	-49.2	-54.9	3.7	0.00e+00	0	47	104	0	69	28763
2026-01-14 20:17:16.95	29.83	4.65	-49.2	-55.0	3.7	0.00e+00	0	47	104	0	69	28985
2026-01-14 20:17:18.94	30.04	4.79	-49.2	-55.0	3.7	0.00e+00	0	47	104	0	69	28851
2026-01-14 20:17:20.93	30.25	4.93	-49.2	-55.0	3.7	0.00e+00	0	47	104	0	69	28876
2026-01-14 20:17:22.91	30.47	5.07	-49.2	-54.9	3.7	0.00e+00	0	47	104	0	69	28716
2026-01-14 20:17:24.90	30.68	5.20	-49.2	-55.0	3.7	0.00e+00	0	47	104	0	69	28909
2026-01-14 20:17:26.89	30.91	5.34	-49.1	-55.0	3.7	0.00e+00	0	47	104	0	69	28858
2026-01-14 20:17:28.88	31.13	5.48	-49.2	-55.0	3.7	0.00e+00	0	47	104	0	69	28846
2026-01-14 20:17:30.86	31.35	5.62	-49.1	-55.0	3.7	0.00e+00	0	48	104	0	69	28897
2026-01-14 20:17:32.84	31.58	5.76	-49.1	-55.0	3.7	0.00e+00	0	48	104	0	69	28896
2026-01-14 20:17:34.82	31.81	5.91	-49.1	-55.0	3.7	0.00e+00	0	48	104	0	69	28905
2026-01-14 20:17:36.81	32.05	6.05	-49.1	-55.0	3.7	0.00e+00	0	48	104	0	69	28868
2026-01-14 20:17:38.80	32.29	6.19	-49.1	-54.9	3.7	0.00e+00	0	48	104	0	69	28774
2026-01-14 20:17:40.79	32.53	6.34	-49.1	-54.9	3.7	0.00e+00	0	48	104	0	69	28804
2026-01-14 20:17:42.77	32.77	6.48	-49.2	-55.0	3.7	0.00e+00	0	48	104	0	69	28884
2026-01-14 20:17:44.76	33.01	6.63	-49.1	-55.0	3.7	0.00e+00	0	48	104	0	69	28913
2026-01-14 20:17:46.75	33.26	6.77	-49.1	-54.9	3.6	0.00e+00	0	48	104	0	69	28800
2026-01-14 20:17:48.73	33.52	6.92	-49.1	-55.0	3.7	0.00e+00	0	49	104	0	69	28829
2026-01-14 20:17:50.72	33.77	7.07	-49.1	-55.0	3.7	0.00e+00	0	49	104	0	69	28874
2026-01-14 20:17:52.71	34.03	7.22	-49.2	-55.0	3.7	0.00e+00	0	49	104	0	69	28878
2026-01-14 20:17:54.69	34.29	7.36	-49.2	-55.0	3.7	0.00e+00	0	49	104	0	69	28862
2026-01-14 20:17:56.68	34.56	7.51	-49.1	-55.0	3.7	0.00e+00	0	49	104	0	69	28877
2026-01-14 20:17:58.79	34.84	7.67	-49.2	-55.0	3.7	0.00e+00	0	49	104	0	69	28822
2026-01-14 20:18:00.78	35.11	7.83	-49.1	-55.0	3.7	0.00e+00	0	49	104	0	69	28862
2026-01-14 20:18:02.77	35.39	7.98	-49.1	-55.0	3.7	0.00e+00	0	49	104	0	69	28824
2026-01-14 20:18:04.76	35.67	8.13	-49.1	-54.9	3.7	0.00e+00	0	49	104	0	69	28797
2026-01-14 20:18:06.75	35.95	8.29	-49.2	-55.0	3.7	0.00e+00	0	49	104	0	69	28823
2026-01-14 20:18:08.73	36.24	8.44	-49.1	-55.0	3.7	0.00e+00	0	49	104	0	69	28896
2026-01-14 20:18:10.74	36.53	8.60	-49.1	-54.9	3.7	0.00e+00	0	49	104	0	69	28776
2026-01-14 20:18:12.73	36.82	8.76	-49.1	-55.0	3.7	0.00e+00	0	49	104	0	69	28825
2026-01-14 20:18:14.71	37.12	8.91	-49.1	-54.9	3.7	0.00e+00	0	49	104	0	69	28727
2026-01-14 20:18:16.70	37.42	9.07	-49.1	-55.0	3.7	0.00e+00	0	50	104	0	69	28876
2026-01-14 20:18:18.69	37.73	9.23	-49.1	-55.0	3.7	0.00e+00	0	50	104	0	69	28813
2026-01-14 20:18:20.68	38.04	9.39	-49.1	-54.9	3.7	0.00e+00	0	49	104	0	69	28736
2026-01-14 20:18:22.67	38.35	9.55	-49.1	-54.9	3.7	0.00e+00	0	50	104	0	69	28783
2026-01-14 20:18:24.66	38.67	9.71	-49.1	-54.9	3.7	0.00e+00	0	50	104	0	69	28748
2026-01-14 20:18:26.64	38.99	9.87	-49.1	-54.9	3.7	0.00e+00	0	50	104	0	69	28804
2026-01-14 20:18:28.63	39.32	10.03	-49.1	-55.0	3.7	0.00e+00	0	50	104	0	69	28895
2026-01-14 20:18:30.62	39.65	10.20	-49.1	-55.0	3.7	0.00e+00	0	50	104	0	69	28845
2026-01-14 20:18:32.60	39.99	10.36	-49.1	-54.9	3.7	0.00e+00	0	50	104	0	69	28740
2026-01-14 20:18:34.59	40.33	10.53	-49.1	-54.9	3.7	0.00e+00	0	50	104	0	69	28671
2026-01-14 20:18:36.58	40.67	10.69	-49.1	-54.9	3.7	0.00e+00	0	50	104	0	69	28526
2026-01-14 20:18:38.57	41.02	10.86	-49.1	-54.9	3.7	0.00e+00	0	50	104	0	69	28531
2026-01-14 20:18:40.59	41.38	11.03	-49.1	-55.0	3.7	0.00e+00	0	50	104	0	69	28821
2026-01-14 20:18:42.64	41.75	11.20	-49.2	-55.0	3.7	0.00e+00	0	50	104	0	69	28910
2026-01-14 20:18:44.69	42.13	11.37	-49.1	-54.9	3.7	0.00e+00	0	50	104	0	69	28786
2026-01-14 20:18:46.76	42.52	11.55	-49.2	-54.9	3.7	0.00e+00	0	50	104	0	69	28785
2026-01-14 20:18:48.74	42.89	11.72	-49.1	-54.9	3.7	0.00e+00	0	50	104	0	69	28811
2026-01-14 20:18:50.73	43.27	11.89	-49.2	-54.9	3.7	0.00e+00	0	50	104	0	69	28770
2026-01-14 20:18:52.72	43.66	12.06	-49.1	-54.9	3.7	0.00e+00	0	50	104	0	69	28709
2026-01-14 20:18:54.71	44.05	12.23	-49.2	-54.9	3.7	0.00e+00	0	50	104	0	69	28804
2026-01-14 20:18:56.70	44.45	12.40	-49.2	-55.0	3.7	0.00e+00	0	50	104	0	69	28850
2026-01-14 20:18:58.69	44.85	12.58	-49.2	-54.9	3.7	0.00e+00	0	50	104	0	69	28745
2026-01-14 20:19:00.68	45.26	12.75	-49.1	-54.9	3.7	0.00e+00	0	50	104	0	69	28747
2026-01-14 20:19:02.66	45.67	12.92	-49.1	-55.0	3.7	0.00e+00	0	50	104	0	69	28879
2026-01-14 20:19:04.65	46.09	13.10	-49.2	-55.0	3.7	0.00e+00	0	50	104	0	69	28905
2026-01-14 20:19:06.83	46.56	13.29	-49.2	-55.0	3.7	0.00e+00	0	50	104	0	69	28893
2026-01-14 20:19:08.82	46.99	13.46	-49.1	-55.0	3.7	0.00e+00	0	50	104	0	69	28914
2026-01-14 20:19:10.80	47.42	13.64	-49.2	-54.9	3.7	0.00e+00	0	51	104	0	69	28749
2026-01-14 20:19:12.79	47.87	13.81	-49.1	-54.9	3.7	0.00e+00	0	50	104	0	69	28807
2026-01-14 20:19:14.78	48.32	13.99	-49.2	-55.0	3.7	0.00e+00	0	50	104	0	69	28858
2026-01-14 20:19:16.78	48.78	14.17	-49.2	-54.9	3.7	0.00e+00	0	50	104	0	69	28788
2026-01-14 20:19:18.77	49.24	14.34	-49.2	-55.0	3.7	0.00e+00	0	50	104	0	69	28895
2026-01-14 20:19:20.76	49.71	14.52	-49.2	-55.0	3.7	0.00e+00	0	50	104	0	69	28925
2026-01-14 20:19:22.76	50.19	14.70	-49.2	-55.0	3.7	0.00e+00	0	50	104	0	69	28894
2026-01-14 20:19:24.75	50.68	14.88	-49.2	-55.0	3.7	0.00e+00	0	50	104	0	69	28928
2026-01-14 20:19:26.73	51.17	15.05	-49.2	-55.0	3.7	0.00e+00	0	50	104	0	69	28879
2026-01-14 20:19:28.72	51.66	15.23	-49.1	-54.7	3.7	0.00e+00	0	51	104	0	69	28093
2026-01-14 20:19:30.71	52.17	15.40	-49.2	-55.0	3.7	0.00e+00	0	51	104	0	69	28913
2026-01-14 20:19:32.78	52.70	15.59	-49.2	-54.9	3.7	0.00e+00	0	51	104	0	69	28810
2026-01-14 20:19:34.83	53.24	15.77	-49.1	-55.0	3.7	0.00e+00	0	50	104	0	69	28910
2026-01-14 20:19:36.89	53.78	15.95	-49.2	-54.9	3.7	0.00e+00	0	50	104	0	69	28744
2026-01-14 20:19:38.90	54.32	16.13	-49.2	-55.0	3.7	0.00e+00	0	50	104	0	69	28853
2026-01-14 20:19:40.88	54.86	16.30	-49.2	-55.0	3.7	0.00e+00	0	51	104	0	69	28823
2026-01-14 20:19:42.87	55.41	16.48	-49.2	-55.0	3.7	0.00e+00	0	51	104	0	69	28892
2026-01-14 20:19:44.87	55.97	16.65	-49.2	-55.0	3.7	0.00e+00	0	50	104	0	69	28970
2026-01-14 20:19:46.88	56.54	16.83	-49.2	-55.0	3.7	0.00e+00	0	51	104	0	69	28944
2026-01-14 20:19:48.86	57.11	17.00	-49.1	-55.0	3.7	0.00e+00	0	51	104	0	69	28884
2026-01-14 20:19:50.85	57.68	17.17	-49.2	-55.0	3.7	0.00e+00	0	51	104	0	69	28934
2026-01-14 20:19:52.84	58.27	17.34	-49.2	-55.0	3.7	0.00e+00	0	51	104	0	69	28968
2026-01-14 20:19:54.83	58.87	17.51	-49.1	-55.0	3.7	0.00e+00	0	51	104	0	69	28976
2026-01-14 20:19:56.82	59.47	17.68	-49.2	-55.0	3.7	0.00e+00	0	50	104	0	69	28958
2026-01-14 20:19:58.82	60.08	17.85	-49.2	-55.0	3.7	0.00e+00	0	51	104	0	69	28938
2026-01-14 20:20:00.81	60.70	18.02	-49.2	-55.0	3.6	0.00e+00	0	51	104	0	69	28992
2026-01-14 20:20:02.79	61.32	18.18	-49.2	-55.0	3.7	0.00e+00	0	50	104	0	69	28943
2026-01-14 20:20:04.78	61.95	18.34	-49.2	-55.0	3.7	0.00e+00	0	51	104	0	69	28947
2026-01-14 20:20:06.85	62.62	18.51	-49.2	-55.0	3.7	0.00e+00	0	51	104	0	69	28984
2026-01-14 20:20:08.84	63.27	18.67	-49.2	-55.0	3.7	0.00e+00	0	51	104	0	69	28958
2026-01-14 20:20:10.83	63.93	18.83	-49.2	-55.0	3.7	0.00e+00	0	51	104	0	69	28982
2026-01-14 20:20:12.83	64.60	18.98	-49.2	-55.0	3.7	0.00e+00	0	51	104	0	69	28893
2026-01-14 20:20:14.81	65.27	19.14	-49.2	-55.0	3.7	0.00e+00	0	51	104	0	69	28936
2026-01-14 20:20:16.82	65.95	19.29	-49.2	-55.0	3.7	0.00e+00	0	51	104	0	69	29033
2026-01-14 20:20:18.81	66.64	19.44	-49.2	-55.0	3.7	0.00e+00	0	51	104	0	69	28960
2026-01-14 20:20:20.79	67.34	19.58	-49.2	-55.0	3.7	0.00e+00	0	51	104	0	69	28956
2026-01-14 20:20:22.80	68.05	19.73	-49.2	-55.0	3.7	0.00e+00	0	51	104	0	69	28939
2026-01-14 20:20:24.90	68.80	19.87	-49.2	-55.0	3.7	0.00e+00	0	51	104	0	69	29027
2026-01-14 20:20:26.88	69.51	20.01	-49.2	-55.0	3.7	0.00e+00	0	51	104	0	69	28929
2026-01-14 20:20:28.90	70.25	20.15	-49.2	-55.0	3.7	0.00e+00	0	51	104	0	69	28873
2026-01-14 20:20:30.89	70.98	20.28	-49.2	-55.0	3.7	0.00e+00	0	51	104	0	69	28899
2026-01-14 20:20:32.88	71.72	20.40	-49.1	-55.0	3.7	0.00e+00	0	51	104	0	69	28917
2026-01-14 20:20:34.88	72.48	20.53	-49.2	-55.0	3.7	0.00e+00	0	51	104	0	69	28972
2026-01-14 20:20:36.87	73.23	20.65	-49.2	-55.0	3.7	0.00e+00	0	51	104	0	69	28863
2026-01-14 20:20:38.85	73.99	20.76	-49.1	-55.0	3.7	0.00e+00	0	51	104	0	69	28939
2026-01-14 20:20:40.86	74.76	20.88	-49.2	-55.0	3.7	0.00e+00	0	51	104	0	69	28918
2026-01-14 20:20:42.84	75.53	20.99	-49.2	-55.0	3.7	0.00e+00	0	51	104	0	69	28948
2026-01-14 20:20:44.83	76.31	21.09	-49.1	-55.0	3.7	0.00e+00	0	51	104	0	69	28975
2026-01-14 20:20:46.82	77.10	21.19	-49.2	-55.0	3.7	0.00e+00	0	51	104	0	69	29063
2026-01-14 20:20:48.81	77.89	21.28	-49.2	-55.0	3.7	0.00e+00	0	51	104	0	69	29052
2026-01-14 20:20:50.79	78.68	21.37	-49.2	-55.0	3.7	0.00e+00	0	51	104	0	69	28980
2026-01-14 20:20:52.80	79.49	21.46	-49.2	-55.0	3.7	0.00e+00	0	51	104	0	69	28957
2026-01-14 20:20:54.78	80.30	21.54	-49.2	-55.0	3.7	0.00e+00	0	51	104	0	69	28993
2026-01-14 20:20:56.83	81.13	21.62	-49.2	-55.0	3.7	0.00e+00	0	51	104	0	69	29055
2026-01-14 20:20:58.89	81.98	21.69	-49.2	-55.0	3.7	0.00e+00	0	51	104	0	69	28981
2026-01-14 20:21:00.87	82.79	21.76	-49.2	-55.0	3.7	0.00e+00	0	51	104	0	69	29059
2026-01-14 20:21:02.86	83.62	21.82	-49.2	-55.0	3.7	0.00e+00	0	51	104	0	69	28946
2026-01-14 20:21:04.86	84.45	21.88	-49.2	-55.0	3.7	0.00e+00	0	51	104	0	69	28957
2026-01-14 20:21:06.85	85.28	21.93	-49.2	-55.0	3.7	0.00e+00	0	51	104	0	69	29013
2026-01-14 20:21:08.85	86.12	21.97	-49.2	-55.0	3.7	0.00e+00	0	51	104	0	69	29095
2026-01-14 20:21:10.84	86.96	22.01	-49.2	-55.0	3.7	0.00e+00	0	51	104	0	69	29005
2026-01-14 20:21:12.82	87.79	22.04	-49.2	-55.0	3.7	0.00e+00	0	51	104	0	69	28943
2026-01-14 20:21:14.81	88.63	22.07	-49.2	-55.0	3.7	0.00e+00	0	51	104	0	69	28944
2026-01-14 20:21:16.80	89.48	22.09	-49.2	-55.0	3.7	0.00e+00	0	51	104	0	69	28964
2026-01-14 20:21:18.79	90.32	22.11	-49.3	-55.0	3.7	0.00e+00	0	51	104	0	69	29024
2026-01-14 20:21:20.79	91.17	22.12	-49.2	-55.0	3.7	0.00e+00	0	51	104	0	69	29113
2026-01-14 20:21:22.79	92.02	22.12	-49.2	-55.0	3.7	0.00e+00	0	51	104	0	69	29018
2026-01-14 20:21:24.78	92.87	22.12	-49.2	-55.0	3.7	0.00e+00	0	51	104	0	69	29015
2026-01-14 20:21:26.77	93.71	22.12	-49.2	-55.0	3.7	0.00e+00	0	51	104	0	69	28972
2026-01-14 20:21:28.76	94.56	22.10	-49.2	-55.0	3.7	0.00e+00	0	51	104	0	69	29012
2026-01-14 20:21:30.75	95.40	22.09	-49.2	-55.0	3.7	0.00e+00	0	51	104	0	69	29021
2026-01-14 20:21:32.85	96.29	22.06	-49.2	-55.0	3.7	0.00e+00	0	51	104	0	69	28992
2026-01-14 20:21:34.89	97.15	22.03	-49.2	-55.0	3.7	0.00e+00	0	51	104	0	69	28991
2026-01-14 20:21:36.96	98.02	21.99	-49.2	-55.0	3.7	0.00e+00	0	51	104	0	69	29010
2026-01-14 20:21:38.95	98.86	21.95	-49.2	-55.0	3.7	0.00e+00	0	51	104	0	69	28850
2026-01-14 20:21:40.94	99.70	21.90	-49.2	-55.0	3.7	0.00e+00	0	51	104	0	69	28986
2026-01-14 20:21:42.93	100.53	21.85	-49.1	-55.0	3.7	0.00e+00	0	51	104	0	69	28944
2026-01-14 20:21:44.92	101.36	21.79	-49.2	-55.0	3.7	0.00e+00	0	51	104	0	69	29117
2026-01-14 20:21:46.92	102.18	21.73	-49.2	-55.0	3.7	0.00e+00	0	51	104	0	69	29141
2026-01-14 20:21:48.91	103.00	21.66	-49.2	-55.0	3.7	0.00e+00	0	51	104	0	69	29037
2026-01-14 20:21:50.90	103.82	21.59	-49.2	-55.0	3.7	0.00e+00	0	51	104	0	69	28951
2026-01-14 20:21:52.90	104.64	21.51	-49.2	-55.0	3.7	0.00e+00	0	51	104	0	69	29033
2026-01-14 20:21:54.89	105.45	21.43	-49.3	-55.0	3.7	0.00e+00	0	51	104	0	69	28996
2026-01-14 20:21:56.88	106.25	21.34	-49.2	-55.0	3.7	0.00e+00	0	51	104	0	69	28971
2026-01-14 20:21:58.86	107.04	21.25	-49.2	-55.0	3.7	0.00e+00	0	51	104	0	69	29083
2026-01-14 20:22:00.85	107.83	21.15	-49.2	-55.0	3.7	0.00e+00	0	51	104	0	69	29006
2026-01-14 20:22:02.84	108.62	21.05	-49.2	-55.0	3.7	0.00e+00	0	51	104	0	69	28994
2026-01-14 20:22:04.84	109.40	20.94	-49.2	-55.0	3.7	0.00e+00	0	51	104	0	69	28981
2026-01-14 20:22:06.83	110.18	20.83	-49.3	-55.0	3.7	0.00e+00	0	51	104	0	69	29019
2026-01-14 20:22:08.82	110.95	20.71	-49.3	-55.0	3.7	0.00e+00	0	51	104	0	69	29091
2026-01-14 20:22:10.81	111.71	20.60	-49.2	-55.0	3.7	0.00e+00	0	51	104	0	69	29042
2026-01-14 20:22:12.79	112.46	20.47	-49.3	-55.0	3.7	0.00e+00	0	51	104	0	69	28949
2026-01-14 20:22:14.78	113.21	20.35	-49.2	-55.0	3.7	0.00e+00	0	51	104	0	69	28994
2026-01-14 20:22:16.80	113.96	20.22	-49.2	-55.0	3.7	0.00e+00	0	51	104	0	69	29032
2026-01-14 20:22:18.79	114.69	20.08	-49.3	-55.0	3.7	0.00e+00	0	51	104	0	69	28876
2026-01-14 20:22:20.78	115.42	19.95	-49.3	-55.0	3.7	0.00e+00	0	51	104	0	69	28996
2026-01-14 20:22:22.77	116.14	19.81	-49.3	-55.0	3.7	0.00e+00	0	51	104	0	69	29026
2026-01-14 20:22:24.75	116.85	19.67	-49.3	-55.0	3.7	0.00e+00	0	51	104	0	69	29075
2026-01-14 20:22:26.85	117.59	19.51	-49.3	-55.0	3.7	0.00e+00	0	51	104	0	69	28999
2026-01-14 20:22:28.90	118.31	19.36	-49.2	-55.0	3.7	0.00e+00	0	51	104	0	69	29022
2026-01-14 20:22:30.89	119.00	19.21	-49.2	-55.0	3.6	0.00e+00	0	51	104	0	69	28928
2026-01-14 20:22:32.88	119.68	19.06	-49.2	-55.0	3.7	0.00e+00	0	51	104	0	69	28887
2026-01-14 20:22:34.87	120.35	18.90	-49.2	-55.0	3.7	0.00e+00	0	51	104	0	69	29050
2026-01-14 20:22:36.85	121.01	18.75	-49.2	-55.0	3.7	0.00e+00	0	51	104	0	69	29135
2026-01-14 20:22:38.84	121.67	18.59	-49.2	-55.0	3.7	0.00e+00	0	51	104	0	69	29004
2026-01-14 20:22:40.84	122.33	18.43	-49.3	-55.0	3.7	0.00e+00	0	51	104	0	69	29065
2026-01-14 20:22:42.83	122.97	18.26	-49.3	-55.0	3.7	0.00e+00	0	51	104	0	69	28967
2026-01-14 20:22:44.82	123.60	18.10	-49.2	-55.0	3.7	0.00e+00	0	51	104	0	69	29008
2026-01-14 20:22:46.81	124.23	17.93	-49.3	-55.0	3.7	0.00e+00	0	51	104	0	69	29056
2026-01-14 20:22:48.79	124.84	17.76	-49.3	-55.0	3.7	0.00e+00	0	51	104	0	69	29125
2026-01-14 20:22:50.78	125.45	17.59	-49.3	-55.0	3.7	0.00e+00	0	51	104	0	69	28999
2026-01-14 20:22:52.77	126.06	17.42	-49.3	-55.0	3.7	0.00e+00	0	51	104	0	69	29038
2026-01-14 20:22:54.77	126.65	17.25	-49.2	-55.0	3.7	0.00e+00	0	51	104	0	69	28871
2026-01-14 20:22:56.76	127.24	17.08	-49.2	-55.0	3.7	0.00e+00	0	51	104	0	69	28954
2026-01-14 20:22:58.75	127.82	16.90	-49.2	-55.0	3.7	0.00e+00	0	51	104	0	69	29054
2026-01-14 20:23:00.74	128.39	16.73	-49.2	-55.0	3.7	0.00e+00	0	51	104	0	69	29117
2026-01-14 20:23:02.74	128.96	16.55	-49.2	-55.0	3.7	0.00e+00	0	51	104	0	69	29063
2026-01-14 20:23:04.73	129.52	16.38	-49.3	-55.0	3.7	0.00e+00	0	51	104	0	69	29051
2026-01-14 20:23:06.72	130.07	16.20	-49.2	-55.0	3.7	0.00e+00	0	51	104	0	69	28867
2026-01-14 20:23:08.72	130.61	16.02	-49.2	-55.0	3.7	0.00e+00	0	51	104	0	69	28984
2026-01-14 20:23:10.71	131.15	15.85	-49.3	-55.0	3.7	0.00e+00	0	51	104	0	69	29111
2026-01-14 20:23:12.69	131.67	15.67	-49.2	-55.0	3.7	0.00e+00	0	51	104	0	69	29054
2026-01-14 20:23:14.78	132.22	15.48	-49.2	-55.0	3.7	0.00e+00	0	51	104	0	69	29015
2026-01-14 20:23:16.83	132.74	15.30	-49.2	-55.0	3.7	0.00e+00	0	51	104	0	69	29046
2026-01-14 20:23:18.88	133.26	15.11	-49.2	-55.0	3.7	0.00e+00	0	51	104	0	69	29041
2026-01-14 20:23:20.87	133.76	14.94	-49.3	-55.0	3.7	0.00e+00	0	51	104	0	69	29074
2026-01-14 20:23:22.87	134.25	14.76	-49.3	-55.0	3.7	0.00e+00	0	51	104	0	69	29098
2026-01-14 20:23:24.86	134.74	14.58	-49.2	-55.0	3.7	0.00e+00	0	51	104	0	69	28974
2026-01-14 20:23:26.86	135.22	14.40	-49.2	-55.0	3.7	0.00e+00	0	51	104	0	69	29100
2026-01-14 20:23:28.85	135.69	14.22	-49.2	-55.0	3.7	0.00e+00	0	51	104	0	69	29068
2026-01-14 20:23:30.85	136.16	14.04	-49.3	-55.0	3.7	0.00e+00	0	51	104	0	69	28984
2026-01-14 20:23:32.85	136.62	13.86	-49.2	-55.0	3.7	0.00e+00	0	51	104	0	69	29062
2026-01-14 20:23:34.84	137.07	13.68	-49.2	-55.0	3.7	0.00e+00	0	51	104	0	69	29028
2026-01-14 20:23:36.83	137.51	13.51	-49.2	-55.0	3.7	0.00e+00	0	51	104	0	69	29074
2026-01-14 20:23:38.83	137.95	13.33	-49.2	-55.0	3.7	0.00e+00	0	51	104	0	69	29031
2026-01-14 20:23:40.83	138.39	13.15	-49.2	-55.0	3.7	0.00e+00	0	51	104	0	69	29004
2026-01-14 20:23:42.82	138.81	12.98	-49.2	-55.0	3.7	0.00e+00	0	51	104	0	69	28926
2026-01-14 20:23:44.82	139.23	12.80	-49.2	-55.0	3.7	0.00e+00	0	51	104	0	69	28956
2026-01-14 20:23:46.83	139.65	12.62	-49.2	-55.0	3.7	0.00e+00	0	51	104	0	69	28946
2026-01-14 20:23:48.81	140.06	12.45	-49.2	-55.0	3.7	0.00e+00	0	51	104	0	69	29110
2026-01-14 20:23:50.80	140.46	12.27	-49.2	-55.0	3.7	0.00e+00	0	51	104	0	69	29030
2026-01-14 20:23:52.79	140.86	12.10	-49.3	-55.0	3.7	0.00e+00	0	51	104	0	69	29026
2026-01-14 20:23:54.78	141.25	11.93	-49.2	-55.0	3.7	0.00e+00	0	51	104	0	69	29016
2026-01-14 20:23:56.78	141.64	11.75	-49.3	-55.0	3.7	0.00e+00	0	51	104	0	69	29024
2026-01-14 20:23:58.76	142.02	11.58	-49.2	-55.0	3.7	0.00e+00	0	51	104	0	69	29080
2026-01-14 20:24:00.77	142.40	11.41	-49.2	-55.0	3.7	0.00e+00	0	51	104	0	69	29045
2026-01-14 20:24:02.75	142.77	11.24	-49.3	-55.0	3.7	0.00e+00	0	51	104	0	69	29029
2026-01-14 20:24:04.74	143.13	11.07	-49.2	-55.0	3.7	0.00e+00	0	51	104	0	69	28993
2026-01-14 20:24:06.79	143.50	10.89	-49.2	-55.0	3.7	0.00e+00	0	51	104	0	69	29008
2026-01-14 20:24:08.84	143.87	10.72	-49.3	-55.0	3.7	0.00e+00	0	51	104	0	69	29027
2026-01-14 20:24:10.91	144.23	10.55	-49.2	-55.0	3.7	0.00e+00	0	51	104	0	69	28971
2026-01-14 20:24:12.89	144.58	10.38	-49.3	-55.0	3.7	0.00e+00	0	51	104	0	69	29109
2026-01-14 20:24:15.01	144.94	10.20	-49.3	-55.0	3.7	0.00e+00	0	51	104	0	69	29039
2026-01-14 20:24:17.00	145.27	10.04	-49.3	-55.0	3.7	0.00e+00	0	51	104	0	69	28986
2026-01-14 20:24:18.99	145.61	9.87	-49.3	-55.0	3.7	0.00e+00	0	51	104	0	69	29091
2026-01-14 20:24:20.99	145.93	9.71	-49.3	-55.0	3.7	0.00e+00	0	51	104	0	69	28970
2026-01-14 20:24:22.99	146.26	9.54	-49.2	-55.0	3.7	0.00e+00	0	51	104	0	69	29108
2026-01-14 20:24:24.98	146.58	9.38	-49.2	-55.0	3.7	0.00e+00	0	51	104	0	69	29125
2026-01-14 20:24:26.97	146.89	9.22	-49.3	-55.0	3.7	0.00e+00	0	51	104	0	69	29046
2026-01-14 20:24:28.95	147.20	9.06	-49.2	-55.0	3.7	0.00e+00	0	51	104	0	69	28965
2026-01-14 20:24:30.96	147.51	8.90	-49.3	-55.0	3.7	0.00e+00	0	51	104	0	69	28991
2026-01-14 20:24:32.96	147.81	8.74	-49.3	-55.0	3.7	0.00e+00	0	51	104	0	69	28955
2026-01-14 20:24:34.95	148.11	8.58	-49.3	-55.0	3.7	0.00e+00	0	51	104	0	69	28985
2026-01-14 20:24:36.95	148.40	8.42	-49.2	-55.1	3.7	0.00e+00	0	51	104	0	69	29155
2026-01-14 20:24:38.94	148.69	8.27	-49.3	-55.0	3.7	0.00e+00	0	51	104	0	69	29086
2026-01-14 20:24:40.93	148.98	8.11	-49.2	-55.0	3.7	0.00e+00	0	51	104	0	69	29100
2026-01-14 20:24:42.92	149.26	7.95	-49.2	-55.0	3.7	0.00e+00	0	51	104	0	69	29042
2026-01-14 20:24:44.92	149.54	7.80	-49.2	-55.0	3.7	0.00e+00	0	51	104	0	69	29012
2026-01-14 20:24:46.90	149.81	7.65	-49.2	-55.0	3.7	0.00e+00	0	51	104	0	69	28986
2026-01-14 20:24:48.89	150.08	7.49	-49.2	-55.0	3.7	0.00e+00	0	51	104	0	69	29143
2026-01-14 20:24:50.88	150.35	7.34	-49.2	-55.0	3.7	0.00e+00	0	51	104	0	69	29076
2026-01-14 20:24:52.88	150.62	7.19	-49.3	-55.0	3.7	0.00e+00	0	51	104	0	69	29024
2026-01-14 20:24:54.87	150.88	7.04	-49.3	-55.0	3.7	0.00e+00	0	51	104	0	69	28917
2026-01-14 20:24:56.86	151.14	6.89	-49.2	-55.0	3.7	0.00e+00	0	51	104	0	69	29005
2026-01-14 20:24:58.86	151.39	6.74	-49.2	-55.0	3.7	0.00e+00	0	51	104	0	69	28916
2026-01-14 20:25:00.82	151.64	6.59	-49.2	-55.0	3.7	0.00e+00	0	51	104	0	69	28927
2026-01-14 20:25:02.81	151.89	6.44	-49.2	-55.0	3.7	0.00e+00	0	51	104	
