passes_logs/2026/01/14/T1/T1__20260114_080626_SUOMI_NPP_rec.log

#Pass ID: 20260114_080626_SUOMI NPP
#Satellite: SUOMI NPP
#Configuration: NPP
#almurnet v.1.7.20251203
#Start time: 2026-01-14 08:06:27

#Version: 2.0.20230620
#Station: T1
#Location: 37.570604 lon 55.790049 lat
#TLE: 1 37849U 11061A   26013.27136842  .00000065  00000+0  51889-4 0  9990
#TLE: 2 37849  98.7808 315.3349 0002489  66.6776 293.4661 14.19524902736466

#Time	Az	El	Level	Level2	SNR	BER	BlckErr	Temp	State	Recorded	gain1	gain2
2026-01-14 08:06:27.34	99.64	5.04	-51.7	-66.9	3.8	1.49e+00	0	40	0	0	75	20179
2026-01-14 08:06:30.32	99.36	5.21	-51.7	-66.8	3.8	1.49e+00	0	41	104	0	75	20057
2026-01-14 08:06:33.30	99.07	5.38	-51.7	-66.8	3.8	1.49e+00	0	41	104	0	75	19962
2026-01-14 08:06:36.28	98.79	5.55	-51.7	-66.9	3.8	1.49e+00	0	41	104	0	75	20103
2026-01-14 08:06:39.26	98.50	5.72	-51.7	-66.9	3.8	1.49e+00	0	41	104	0	75	20094
2026-01-14 08:06:42.24	98.20	5.89	-51.7	-66.9	3.8	1.49e+00	0	41	104	0	75	20082
2026-01-14 08:06:45.22	97.91	6.06	-51.7	-66.8	3.8	1.49e+00	0	41	104	0	75	20054
2026-01-14 08:06:48.20	97.60	6.24	-51.7	-66.8	3.8	1.49e+00	0	41	104	0	75	19995
2026-01-14 08:06:51.17	97.30	6.41	-51.7	-66.7	3.8	1.49e+00	0	41	104	0	75	19727
2026-01-14 08:06:54.16	96.99	6.58	-51.7	-66.6	3.8	1.49e+00	0	41	104	0	75	19476
2026-01-14 08:06:57.14	96.68	6.75	-51.6	-66.6	3.8	1.49e+00	0	42	104	0	75	19408
2026-01-14 08:07:00.12	96.36	6.93	-51.7	-66.5	3.8	1.49e+00	0	42	104	0	75	19250
2026-01-14 08:07:03.10	96.04	7.10	-51.6	-66.1	3.8	1.49e+00	0	42	104	0	75	18389
2026-01-14 08:07:06.08	95.72	7.27	-51.6	-66.3	3.8	1.49e+00	0	42	104	0	75	18847
2026-01-14 08:07:09.05	95.39	7.45	-51.7	-66.8	3.8	1.49e+00	0	42	104	0	75	19890
2026-01-14 08:07:12.03	95.06	7.62	-51.7	-66.9	3.8	1.49e+00	0	42	104	0	75	20140
2026-01-14 08:07:15.01	94.72	7.79	-51.6	-66.6	3.8	1.49e+00	0	42	104	0	75	19492
2026-01-14 08:07:17.99	94.38	7.97	-51.6	-65.1	3.8	1.49e+00	0	42	104	0	75	16371
2026-01-14 08:07:20.97	94.04	8.14	-51.7	-66.6	3.8	1.49e+00	0	42	104	0	75	19567
2026-01-14 08:07:23.95	93.69	8.32	-51.3	-61.8	4.7	1.32e+00	0	42	0	0	74	11883
2026-01-14 08:07:26.93	93.34	8.50	-50.2	-56.7	8.8	4.32e-02	0	42	0	5242880	72	7391
2026-01-14 08:07:29.90	92.98	8.67	-50.3	-56.9	8.6	3.11e-02	0	43	0	11534336	72	7593
2026-01-14 08:07:32.88	92.62	8.85	-51.3	-62.1	4.6	5.25e-01	0	42	0	16777216	73	13029
2026-01-14 08:07:35.86	92.26	9.02	-51.7	-66.9	3.8	1.49e+00	0	42	104	17825792	73	22539
2026-01-14 08:07:38.81	91.89	9.20	-51.4	-65.5	3.8	1.49e+00	0	43	104	18874368	74	18269
2026-01-14 08:07:41.94	91.50	9.38	-50.6	-58.0	7.4	1.44e+00	0	42	0	19922944	73	8106
2026-01-14 08:07:44.78	91.13	9.55	-49.4	-54.3	11.5	8.22e-04	0	42	0	25165824	70	6304
2026-01-14 08:07:47.91	90.73	9.74	-49.2	-54.0	11.8	5.04e-04	0	42	0	30408704	70	6066
2026-01-14 08:07:50.75	90.36	9.90	-49.0	-53.4	12.3	1.59e-04	0	42	0	35651584	69	6053
2026-01-14 08:07:54.07	89.92	10.10	-48.9	-53.4	12.5	1.33e-04	0	43	0	41943040	69	5999
2026-01-14 08:07:56.78	89.56	10.26	-48.6	-52.9	13.0	5.26e-05	0	43	0	47185920	69	5659
2026-01-14 08:08:00.06	89.11	10.45	-48.4	-52.3	13.5	1.14e-05	0	43	0	53477376	68	5636
2026-01-14 08:08:02.77	88.74	10.61	-48.4	-52.3	13.6	9.10e-06	0	43	0	58720256	68	5610
2026-01-14 08:08:06.04	88.29	10.81	-48.4	-52.3	13.5	1.22e-05	0	43	0	65011712	68	5644
2026-01-14 08:08:08.85	87.89	10.97	-48.2	-52.1	13.8	7.60e-06	0	43	0	70254592	68	5487
2026-01-14 08:08:12.12	87.43	11.16	-48.6	-52.8	13.1	2.05e-05	0	43	0	76546048	68	5964
2026-01-14 08:08:15.10	87.00	11.34	-48.3	-52.2	13.7	9.90e-06	0	43	0	81788928	68	5553
2026-01-14 08:08:18.09	86.56	11.51	-48.6	-52.9	13.0	2.59e-05	0	43	0	87031808	68	6046
2026-01-14 08:08:21.04	86.12	11.69	-48.8	-53.3	12.7	7.62e-05	0	43	0	92274688	68	6293
2026-01-14 08:08:24.17	85.66	11.87	-48.9	-53.6	12.3	1.31e-04	0	43	0	98566144	68	6532
2026-01-14 08:08:27.23	85.19	12.05	-48.5	-52.9	13.0	3.96e-05	0	43	0	104857600	68	6045
2026-01-14 08:08:30.07	84.76	12.21	-48.4	-52.7	13.3	9.10e-06	0	43	0	110100480	68	5879
2026-01-14 08:08:33.20	84.27	12.39	-48.1	-52.1	13.8	4.50e-06	0	43	0	115343360	68	5493
2026-01-14 08:08:36.40	83.77	12.58	-48.1	-52.2	13.7	3.80e-06	0	43	0	121634816	67	5856
2026-01-14 08:08:39.25	83.32	12.74	-48.1	-52.0	13.8	4.50e-06	0	43	0	126877696	67	5738
2026-01-14 08:08:42.37	82.82	12.92	-47.6	-51.2	14.6	7.00e-07	0	43	0	133169152	67	5253
2026-01-14 08:08:45.21	82.35	13.08	-47.8	-51.5	14.3	7.00e-07	0	43	0	138412032	67	5455
2026-01-14 08:08:48.34	81.84	13.26	-47.3	-50.6	15.1	0.00e+00	0	43	0	143654912	66	5211
2026-01-14 08:08:51.18	81.37	13.42	-47.1	-50.4	15.4	0.00e+00	0	43	0	148897792	66	5056
2026-01-14 08:08:54.31	80.84	13.59	-47.0	-50.1	15.6	0.00e+00	0	43	0	155189248	65	5197
2026-01-14 08:08:57.15	80.36	13.75	-47.0	-50.1	15.6	0.00e+00	0	43	0	160432128	65	5205
2026-01-14 08:09:00.28	79.82	13.92	-46.9	-49.9	15.8	0.00e+00	0	43	0	166723584	65	5087
2026-01-14 08:09:03.20	79.31	14.08	-46.8	-49.8	15.9	0.00e+00	0	43	0	171966464	65	5040
2026-01-14 08:09:06.36	78.75	14.25	-47.0	-50.0	15.7	0.00e+00	0	43	0	178257920	65	5145
2026-01-14 08:09:09.30	78.23	14.41	-47.3	-50.5	15.3	0.00e+00	0	43	0	183500800	65	5432
2026-01-14 08:09:12.29	77.69	14.57	-47.3	-50.6	15.2	0.00e+00	0	43	0	188743680	65	5467
2026-01-14 08:09:15.56	77.09	14.74	-47.5	-50.9	14.9	0.00e+00	0	43	0	195035136	65	5693
2026-01-14 08:09:18.27	76.60	14.89	-46.8	-49.9	15.9	0.00e+00	0	43	0	200278016	65	5074
2026-01-14 08:09:21.60	75.98	15.06	-46.7	-49.6	16.2	0.00e+00	0	43	0	206569472	65	4881
2026-01-14 08:09:24.36	75.46	15.20	-46.4	-49.2	16.6	0.00e+00	0	43	0	211812352	64	4946
2026-01-14 08:09:27.77	74.81	15.37	-46.5	-49.4	16.4	0.00e+00	0	43	0	218103808	64	5046
2026-01-14 08:09:30.53	74.28	15.51	-46.9	-50.0	15.8	0.00e+00	0	43	0	223346688	64	5432
2026-01-14 08:09:33.80	73.65	15.67	-46.8	-49.7	16.0	0.00e+00	0	43	0	229638144	64	5271
2026-01-14 08:09:36.52	73.11	15.80	-46.6	-49.7	16.1	0.00e+00	0	43	0	233832448	64	5225
2026-01-14 08:09:39.79	72.47	15.96	-46.1	-49.0	16.6	0.00e+00	0	43	0	240123904	64	4840
2026-01-14 08:09:42.63	71.90	16.09	-46.4	-49.5	16.2	0.00e+00	0	43	0	245366784	64	5109
2026-01-14 08:09:45.74	71.27	16.23	-46.4	-49.4	16.3	0.00e+00	0	43	0	251658240	64	5063
2026-01-14 08:09:48.87	70.64	16.37	-46.3	-49.3	16.4	0.00e+00	0	43	0	257949696	64	4992
2026-01-14 08:09:51.71	70.05	16.50	-46.5	-49.5	16.2	0.00e+00	0	43	0	263192576	64	5128
2026-01-14 08:09:54.88	69.40	16.64	-46.7	-49.7	16.0	0.00e+00	0	43	0	268435456	64	5265
2026-01-14 08:09:57.84	68.78	16.76	-46.9	-50.2	15.6	0.00e+00	0	43	0	274726912	64	5529
2026-01-14 08:10:01.10	68.09	16.90	-46.5	-49.5	16.2	0.00e+00	0	43	0	279969792	64	5105
2026-01-14 08:10:03.83	67.51	17.01	-46.1	-48.9	16.7	0.00e+00	0	43	0	285212672	64	4813
2026-01-14 08:10:07.10	66.81	17.14	-46.0	-48.7	17.0	0.00e+00	0	43	0	291504128	63	4965
2026-01-14 08:10:09.87	66.21	17.25	-45.8	-48.4	17.3	0.00e+00	0	43	0	296747008	63	4786
2026-01-14 08:10:13.11	65.51	17.37	-46.0	-48.7	17.1	0.00e+00	0	43	0	303038464	63	4952
2026-01-14 08:10:16.23	64.83	17.48	-46.1	-48.9	16.9	0.00e+00	0	43	0	308281344	63	5073
2026-01-14 08:10:19.07	64.20	17.58	-46.3	-49.2	16.6	0.00e+00	0	43	0	314572800	63	5243
2026-01-14 08:10:22.20	63.50	17.69	-46.4	-49.4	16.4	0.00e+00	0	43	0	319815680	63	5352
2026-01-14 08:10:25.05	62.87	17.78	-46.5	-49.5	16.3	0.00e+00	0	43	0	325058560	63	5414
2026-01-14 08:10:28.17	62.16	17.88	-46.5	-49.5	16.2	0.00e+00	0	43	0	331350016	64	5124
2026-01-14 08:10:31.23	61.47	17.97	-46.7	-49.8	16.0	0.00e+00	0	43	0	336592896	64	5311
2026-01-14 08:10:34.29	60.77	18.06	-46.9	-50.1	15.6	0.00e+00	0	43	0	342884352	64	5519
2026-01-14 08:10:37.34	60.07	18.14	-46.7	-49.7	16.1	0.00e+00	0	43	0	348127232	64	5238
2026-01-14 08:10:40.68	59.30	18.23	-46.5	-49.4	16.3	0.00e+00	0	43	0	354418688	64	5079
2026-01-14 08:10:43.39	58.68	18.30	-46.7	-49.8	15.9	0.00e+00	0	43	0	359661568	64	5328
2026-01-14 08:10:46.66	57.92	18.37	-46.7	-49.8	15.9	0.00e+00	0	43	0	365953024	64	5337
2026-01-14 08:10:49.71	57.20	18.44	-46.6	-49.7	16.0	0.00e+00	0	43	0	371195904	64	5242
2026-01-14 08:10:52.84	56.47	18.50	-47.2	-50.6	15.1	0.00e+00	0	43	0	377487360	65	5479
2026-01-14 08:10:55.68	55.80	18.56	-47.7	-51.3	14.5	7.00e-07	0	43	0	382730240	66	5649
2026-01-14 08:10:58.81	55.06	18.61	-47.6	-51.2	14.6	1.50e-06	0	43	0	389021696	66	5575
2026-01-14 08:11:01.65	54.38	18.66	-47.0	-50.4	15.4	0.00e+00	0	43	0	394264576	66	5072
2026-01-14 08:11:04.97	53.59	18.70	-47.1	-50.4	15.3	0.00e+00	0	43	0	400556032	65	5401
2026-01-14 08:11:07.93	52.89	18.74	-47.0	-50.3	15.4	0.00e+00	0	43	0	405798912	65	5326
2026-01-14 08:11:11.14	52.12	18.78	-46.6	-49.8	16.0	0.00e+00	0	43	0	412090368	65	4986
2026-01-14 08:11:14.31	51.36	18.81	-46.4	-49.4	16.3	0.00e+00	0	43	0	417333248	64	5063
2026-01-14 08:11:17.16	50.67	18.83	-46.6	-49.7	16.1	0.00e+00	0	43	0	422576128	64	5250
2026-01-14 08:11:20.50	49.87	18.85	-46.9	-50.1	15.6	0.00e+00	0	43	0	428867584	64	5483
2026-01-14 08:11:23.20	49.22	18.87	-46.8	-49.9	15.8	0.00e+00	0	43	0	434110464	64	5396
2026-01-14 08:11:26.84	48.34	18.88	-46.7	-49.8	15.9	0.00e+00	0	43	0	441450496	64	5336
2026-01-14 08:11:29.74	47.64	18.88	-46.8	-50.0	15.7	0.00e+00	0	43	0	446693376	64	5420
2026-01-14 08:11:33.23	46.80	18.88	-47.3	-50.9	14.9	0.00e+00	0	43	0	452984832	65	5657
2026-01-14 08:11:35.93	46.15	18.88	-47.6	-51.2	14.6	2.20e-06	0	43	0	458227712	65	5904
2026-01-14 08:11:39.26	45.35	18.87	-47.1	-50.5	15.3	0.00e+00	0	43	0	464519168	65	5411
2026-01-14 08:11:41.99	44.69	18.85	-46.4	-49.4	16.3	0.00e+00	0	43	0	469762048	64	5063
2026-01-14 08:11:45.30	43.89	18.83	-46.2	-49.1	16.6	0.00e+00	0	43	0	476053504	64	4890
2026-01-14 08:11:48.00	43.24	18.81	-46.3	-49.2	16.5	0.00e+00	0	43	0	481296384	64	4959
2026-01-14 08:11:51.29	42.46	18.78	-46.2	-49.0	16.7	0.00e+00	0	43	0	486539264	63	5138
2026-01-14 08:11:54.00	41.81	18.75	-46.3	-49.3	16.6	0.00e+00	0	43	0	491782144	63	5281
2026-01-14 08:11:57.28	41.02	18.71	-45.9	-48.6	17.1	0.00e+00	0	43	0	498073600	63	4907
2026-01-14 08:12:00.01	40.38	18.67	-45.7	-48.4	17.3	0.00e+00	0	43	0	503316480	63	4800
2026-01-14 08:12:03.30	39.59	18.62	-45.6	-48.3	17.5	0.00e+00	0	43	0	509607936	63	4710
2026-01-14 08:12:06.02	38.95	18.57	-46.0	-48.7	17.0	0.00e+00	0	43	0	514850816	63	4981
2026-01-14 08:12:09.30	38.18	18.51	-46.2	-49.0	16.8	0.00e+00	0	43	0	521142272	63	5148
2026-01-14 08:12:12.19	37.50	18.45	-46.4	-49.4	16.5	0.00e+00	0	43	0	526385152	63	5355
2026-01-14 08:12:15.57	36.71	18.38	-46.1	-49.0	16.8	0.00e+00	0	43	0	532676608	63	5118
2026-01-14 08:12:18.27	36.08	18.31	-46.5	-49.6	16.3	0.00e+00	0	43	0	537919488	63	5487
2026-01-14 08:12:21.54	35.33	18.23	-47.2	-50.6	15.1	0.00e+00	0	43	0	544210944	65	5506
2026-01-14 08:12:24.27	34.70	18.16	-47.4	-51.0	14.8	0.00e+00	0	43	0	548405248	65	5750
2026-01-14 08:12:27.64	33.93	18.07	-47.2	-50.8	15.0	0.00e+00	0	43	0	554696704	65	5620
2026-01-14 08:12:30.47	33.28	17.99	-47.2	-50.7	15.0	7.00e-07	0	43	0	560988160	65	5572
2026-01-14 08:12:33.76	32.54	17.89	-46.9	-50.2	15.5	0.00e+00	0	43	0	566231040	65	5237
2026-01-14 08:12:36.47	31.93	17.81	-47.3	-50.7	15.0	0.00e+00	0	43	0	571473920	65	5586
2026-01-14 08:12:39.74	31.20	17.70	-47.2	-50.6	15.2	1.50e-06	0	43	0	577765376	65	5483
2026-01-14 08:12:42.45	30.60	17.61	-46.8	-50.0	15.7	0.00e+00	0	43	0	583008256	65	5156
2026-01-14 08:12:45.98	29.82	17.49	-46.8	-50.0	15.7	0.00e+00	0	43	0	589299712	65	5149
2026-01-14 08:12:48.68	29.23	17.39	-46.7	-49.9	15.9	0.00e+00	0	43	0	594542592	65	5053
2026-01-14 08:12:51.97	28.51	17.27	-46.6	-49.8	15.9	0.00e+00	0	43	0	600834048	65	5039
2026-01-14 08:12:54.84	27.89	17.16	-46.1	-49.2	16.5	0.00e+00	0	43	0	606076928	64	4946
2026-01-14 08:12:58.22	27.17	17.03	-45.9	-49.0	16.9	0.00e+00	0	43	0	612368384	63	5118
2026-01-14 08:13:00.95	26.59	16.92	-46.0	-49.0	16.8	0.00e+00	0	43	0	617611264	63	5141
2026-01-14 08:13:04.23	25.90	16.78	-46.5	-49.8	16.1	0.00e+00	0	43	0	623902720	63	5598
2026-01-14 08:13:06.93	25.34	16.67	-47.3	-51.0	14.8	0.00e+00	0	43	0	629145600	65	5758
2026-01-14 08:13:10.20	24.67	16.53	-47.3	-50.9	14.9	7.00e-07	0	43	0	635437056	65	5711
2026-01-14 08:13:12.90	24.11	16.41	-47.3	-51.0	14.9	1.50e-06	0	44	0	639631360	65	5730
2026-01-14 08:13:16.11	23.46	16.26	-47.4	-51.1	14.7	7.00e-07	0	43	0	645922816	65	5852
2026-01-14 08:13:19.77	22.73	16.10	-47.2	-50.8	15.0	0.00e+00	0	43	0	653262848	65	5641
2026-01-14 08:13:22.53	22.18	15.97	-46.7	-50.0	15.7	0.00e+00	0	43	0	658505728	65	5132
2026-01-14 08:13:26.10	21.47	15.80	-46.5	-49.7	16.0	0.00e+00	0	43	0	664797184	64	5226
2026-01-14 08:13:29.14	20.88	15.65	-46.5	-49.8	16.0	0.00e+00	0	43	0	670040064	64	5293
2026-01-14 08:13:32.67	20.20	15.48	-47.0	-50.7	15.1	0.00e+00	0	44	0	677380096	64	5909
2026-01-14 08:13:35.44	19.67	15.34	-47.1	-51.0	14.8	7.00e-07	0	44	0	682622976	65	5752
2026-01-14 08:13:38.84	19.03	15.17	-46.6	-49.9	15.8	0.00e+00	0	43	0	688914432	65	5069
2026-01-14 08:13:41.56	18.53	15.03	-46.8	-50.0	15.7	0.00e+00	0	43	0	694157312	65	5149
2026-01-14 08:13:44.84	17.92	14.86	-47.6	-51.2	14.6	0.00e+00	0	43	0	699400192	65	5889
2026-01-14 08:13:47.58	17.42	14.72	-48.2	-52.4	13.4	1.14e-05	0	43	0	704643072	67	6004
2026-01-14 08:13:50.90	16.82	14.54	-47.8	-52.4	13.4	1.22e-05	0	43	0	710934528	67	6021
2026-01-14 08:13:53.81	16.30	14.39	-47.4	-51.8	14.0	3.00e-06	0	43	0	717225984	66	5958
2026-01-14 08:13:57.44	15.66	14.19	-47.2	-51.6	14.2	2.20e-06	0	43	0	723517440	66	5800
2026-01-14 08:14:00.15	15.19	14.04	-46.9	-51.1	14.6	0.00e+00	0	43	0	728760320	65	5855
2026-01-14 08:14:03.44	14.62	13.86	-47.0	-51.1	14.7	7.00e-07	0	43	0	735051776	65	5807
2026-01-14 08:14:06.14	14.16	13.72	-47.6	-51.6	14.2	0.00e+00	0	43	0	740294656	65	6181
2026-01-14 08:14:09.41	13.61	13.53	-47.5	-51.4	14.4	7.00e-07	0	43	0	745537536	66	5683
2026-01-14 08:14:12.17	13.15	13.38	-47.0	-50.8	15.0	0.00e+00	0	43	0	750780416	66	5309
2026-01-14 08:14:16.06	12.51	13.16	-46.9	-50.6	15.2	0.00e+00	0	43	0	758120448	65	5475
2026-01-14 08:14:18.91	12.04	13.00	-46.9	-51.0	14.7	0.00e+00	0	43	0	763363328	65	5772
2026-01-14 08:14:22.89	11.41	12.77	-46.8	-51.4	14.3	1.50e-06	0	43	0	771751936	65	6044
2026-01-14 08:14:25.73	10.96	12.61	-46.9	-51.1	14.6	0.00e+00	0	43	0	776994816	65	5845
2026-01-14 08:14:29.82	10.32	12.38	-47.1	-50.8	14.9	7.00e-07	0	43	0	784334848	65	5644
2026-01-14 08:14:32.75	9.87	12.21	-46.8	-50.4	15.4	0.00e+00	0	43	0	789577728	65	5375
2026-01-14 08:14:36.71	9.27	11.98	-46.0	-49.2	16.5	0.00e+00	0	43	0	796917760	64	4948
2026-01-14 08:14:39.55	8.84	11.81	-45.9	-48.9	16.7	0.00e+00	0	43	0	802160640	63	5086
2026-01-14 08:14:43.52	8.26	11.58	-46.0	-49.4	16.3	0.00e+00	0	43	0	809500672	63	5379
2026-01-14 08:14:46.66	7.80	11.40	-46.3	-50.0	15.7	0.00e+00	0	43	0	815792128	63	5783
2026-01-14 08:14:50.92	7.19	11.15	-46.4	-49.9	15.9	0.00e+00	0	43	0	824180736	63	5669
2026-01-14 08:14:53.85	6.78	10.98	-46.0	-49.7	16.0	0.00e+00	0	43	0	829423616	63	5575
2026-01-14 08:14:57.83	6.22	10.75	-45.8	-49.5	16.2	0.00e+00	0	43	0	836763648	63	5427
2026-01-14 08:15:00.91	5.80	10.56	-46.2	-49.9	15.9	0.00e+00	0	43	0	843055104	63	5688
2026-01-14 08:15:04.04	5.38	10.38	-46.5	-50.1	15.5	1.50e-06	0	44	0	848297984	64	5505
2026-01-14 08:15:06.88	5.00	10.21	-46.9	-50.6	15.1	0.00e+00	0	43	0	853540864	64	5797
2026-01-14 08:15:10.01	4.58	10.03	-47.1	-50.9	14.8	7.00e-07	0	43	0	859832320	64	6035
2026-01-14 08:15:12.85	4.21	9.86	-47.1	-50.7	14.9	0.00e+00	0	43	0	865075200	65	5583
2026-01-14 08:15:15.97	3.81	9.68	-46.5	-49.8	15.8	0.00e+00	0	43	0	870318080	65	5026
2026-01-14 08:15:18.82	3.45	9.51	-45.9	-49.7	16.0	0.00e+00	0	43	0	876609536	63	5540
2026-01-14 08:15:21.95	3.05	9.32	-46.1	-50.1	15.6	0.00e+00	0	43	0	881852416	63	5795
2026-01-14 08:15:24.79	2.70	9.16	-46.9	-50.9	14.8	0.00e+00	0	43	0	887095296	64	6027
2026-01-14 08:15:27.92	2.32	8.97	-48.9	-57.6	8.6	9.10e-06	0	43	0	893386752	68	10323
2026-01-14 08:15:30.76	1.97	8.81	-51.8	-67.5	3.8	1.49e+00	0	43	104	893386752	74	22859
2026-01-14 08:15:33.88	1.60	8.62	-52.3	-67.6	3.8	1.49e+00	0	43	104	893386752	75	21929
2026-01-14 08:15:36.72	1.26	8.46	-52.2	-67.7	3.8	1.49e+00	0	43	104	893386752	75	22142
2026-01-14 08:15:39.84	0.90	8.27	-52.3	-67.7	3.8	1.49e+00	0	43	104	893386752	75	22226
2026-01-14 08:15:42.68	0.57	8.11	-52.3	-67.8	3.8	1.49e+00	0	43	104	893386752	75	22291
2026-01-14 08:15:45.80	0.22	7.92	-52.6	-67.7	3.8	1.49e+00	0	43	104	893386752	75	22230
2026-01-14 08:15:48.64	359.90	7.76	-52.6	-67.8	3.8	1.49e+00	0	43	104	893386752	76	21145
2026-01-14 08:15:51.76	359.55	7.58	-52.5	-67.8	3.8	1.49e+00	0	43	104	893386752	76	21114
2026-01-14 08:15:54.61	359.24	7.41	-52.5	-67.8	3.8	1.49e+00	0	43	104	893386752	76	21041
2026-01-14 08:15:57.73	358.90	7.23	-52.3	-67.7	3.8	1.49e+00	0	43	104	893386752	76	20987
2026-01-14 08:16:00.57	358.60	7.06	-52.3	-67.7	3.8	1.49e+00	0	43	104	893386752	76	20917
2026-01-14 08:16:03.69	358.27	6.88	-52.3	-67.7	3.8	1.49e+00	0	43	104	893386752	76	20984
2026-01-14 08:16:06.53	357.97	6.72	-52.3	-67.7	3.8	1.49e+00	0	44	104	893386752	76	20893
2026-01-14 08:16:09.65	357.65	6.54	-52.3	-67.7	3.8	1.49e+00	0	43	104	893386752	76	20892
2026-01-14 08:16:12.49	357.36	6.37	-52.3	-67.7	3.8	1.49e+00	0	44	104	893386752	76	20928
2026-01-14 08:16:15.61	357.05	6.20	-52.3	-67.7	3.8	1.49e+00	0	43	104	893386752	76	20831
2026-01-14 08:16:18.45	356.76	6.03	-52.3	-67.7	3.8	1.49e+00	0	43	104	893386752	76	20794
2026-01-14 08:16:21.57	356.46	5.85	-52.3	-67.7	3.8	1.49e+00	0	43	104	893386752	76	20847
2026-01-14 08:16:24.41	356.18	5.69	-52.3	-67.7	3.8	1.49e+00	0	43	104	893386752	76	20843
2026-01-14 08:16:27.53	355.88	5.51	-52.3	-67.7	3.8	1.49e+00	0	43	104	893386752	76	20868
2026-01-14 08:16:30.37	355.61	5.35	-52.3	-67.7	3.8	1.49e+00	0	43	104	893386752	76	20833
2026-01-14 08:16:33.50	355.32	5.18	-52.3	-67.7	3.8	1.49e+00	0	43	104	893386752	76	20909
2026-01-14 08:16:36.33	355.06	5.02	-52.3	-67.7	3.8	1.49e+00	0	43	104	893386752	76	20858

#Closed at: 2026-01-14 08:16:38
#Recorded file [893 MB]: D:/Data/31040_260114_110627.dat