passes_logs/2026/01/14/T1/T1__20260114_235546_NOAA_20_JPSS-1_rec.log

#Pass ID: 20260114_235546_NOAA 20 (JPSS-1)
#Satellite: NOAA 20 (JPSS-1)
#Configuration: NOAA 20
#almurnet v.1.7.20251203
#Start time: 2026-01-14 23:55:46

#Version: 2.0.20230620
#Station: T1
#Location: 37.570604 lon 55.790049 lat
#TLE: 1 43013U 17073A   26014.13176244  .00000049  00000+0  44136-4 0  9994
#TLE: 2 43013  98.7634 315.0803 0001538  40.6488 319.4803 14.19535812422619

#Time	Az	El	Level	Level2	SNR	BER	BlckErr	Temp	State	Recorded	gain1	gain2
2026-01-14 23:55:46.99	14.81	5.01	-50.5	-65.9	3.8	1.49e+00	0	40	0	0	71	22624
2026-01-14 23:55:49.97	14.78	5.22	-50.5	-65.9	3.8	1.49e+00	0	40	104	0	72	21293
2026-01-14 23:55:52.95	14.75	5.44	-50.5	-65.9	3.8	1.49e+00	0	40	104	0	72	21317
2026-01-14 23:55:55.93	14.72	5.65	-50.5	-65.9	3.8	1.49e+00	0	41	104	0	72	21319
2026-01-14 23:55:58.91	14.70	5.87	-50.5	-65.8	3.8	1.49e+00	0	41	104	0	72	21256
2026-01-14 23:56:01.89	14.67	6.09	-50.5	-65.8	3.8	1.49e+00	0	41	104	0	72	21244
2026-01-14 23:56:04.88	14.64	6.31	-50.5	-65.9	3.8	1.49e+00	0	41	104	0	72	21310
2026-01-14 23:56:07.86	14.61	6.54	-50.5	-65.9	3.8	1.49e+00	0	41	104	0	72	21340
2026-01-14 23:56:10.84	14.57	6.76	-50.5	-65.9	3.8	1.49e+00	0	41	104	0	72	21344
2026-01-14 23:56:13.82	14.54	6.99	-50.5	-65.9	3.8	1.49e+00	0	41	104	0	72	21280
2026-01-14 23:56:16.80	14.51	7.22	-50.5	-65.9	3.8	1.49e+00	0	41	104	0	72	21304
2026-01-14 23:56:19.78	14.48	7.45	-50.5	-65.9	3.8	1.49e+00	0	42	104	0	72	21443
2026-01-14 23:56:22.76	14.44	7.68	-50.5	-65.9	3.8	1.49e+00	0	41	104	0	72	21267
2026-01-14 23:56:25.74	14.41	7.92	-50.5	-65.9	3.8	1.49e+00	0	42	104	0	72	21324
2026-01-14 23:56:28.72	14.37	8.16	-50.5	-65.9	3.8	1.49e+00	0	42	104	0	72	21320
2026-01-14 23:56:31.70	14.34	8.40	-50.5	-65.9	3.8	1.49e+00	0	42	104	0	72	21355
2026-01-14 23:56:34.68	14.30	8.64	-50.5	-65.9	3.8	1.49e+00	0	42	104	0	72	21298
2026-01-14 23:56:37.66	14.26	8.88	-50.5	-65.9	3.8	1.49e+00	0	42	104	0	72	21269
2026-01-14 23:56:40.64	14.22	9.13	-50.5	-65.8	3.8	1.49e+00	0	42	104	0	72	21211
2026-01-14 23:56:43.63	14.18	9.38	-50.5	-65.8	3.8	1.49e+00	0	42	104	0	72	21247
2026-01-14 23:56:46.61	14.14	9.63	-50.5	-65.9	3.8	1.49e+00	0	42	104	0	72	21310
2026-01-14 23:56:49.59	14.10	9.89	-50.5	-65.9	3.8	1.49e+00	0	42	104	0	72	21307
2026-01-14 23:56:52.57	14.06	10.14	-50.5	-65.9	3.8	1.49e+00	0	42	104	0	72	21282
2026-01-14 23:56:55.63	14.01	10.41	-50.5	-65.9	3.8	1.49e+00	0	42	104	0	72	21261
2026-01-14 23:56:58.61	13.97	10.67	-50.5	-65.9	3.8	1.49e+00	0	42	104	0	72	21337
2026-01-14 23:57:01.59	13.92	10.94	-50.5	-65.9	3.8	1.49e+00	0	42	104	0	72	21290
2026-01-14 23:57:04.57	13.88	11.21	-50.5	-65.8	3.8	1.49e+00	0	42	104	0	72	21260
2026-01-14 23:57:07.55	13.83	11.48	-50.5	-65.8	3.8	1.49e+00	0	42	104	0	72	21238
2026-01-14 23:57:10.54	13.78	11.75	-50.5	-65.9	3.8	1.49e+00	0	43	104	0	72	21336
2026-01-14 23:57:13.51	13.73	12.03	-50.5	-65.9	3.8	1.49e+00	0	43	104	0	72	21357
2026-01-14 23:57:16.50	13.68	12.31	-50.5	-65.8	3.8	1.49e+00	0	42	104	0	72	21235
2026-01-14 23:57:19.48	13.62	12.60	-50.5	-65.8	3.8	1.49e+00	0	42	104	0	72	21234
2026-01-14 23:57:22.46	13.57	12.88	-50.5	-65.8	3.8	1.49e+00	0	42	104	0	72	21214
2026-01-14 23:57:25.44	13.52	13.17	-50.5	-65.8	3.8	1.49e+00	0	43	104	0	72	21254
2026-01-14 23:57:28.42	13.46	13.47	-50.5	-65.9	3.8	1.49e+00	0	43	104	0	72	21331
2026-01-14 23:57:31.41	13.40	13.77	-50.5	-65.9	3.8	1.49e+00	0	43	104	0	72	21331
2026-01-14 23:57:34.39	13.34	14.07	-50.5	-65.9	3.8	1.49e+00	0	42	104	0	72	21446
2026-01-14 23:57:37.37	13.28	14.37	-50.5	-65.9	3.8	1.49e+00	0	43	104	0	72	21344
2026-01-14 23:57:40.35	13.22	14.68	-50.5	-65.8	3.8	1.49e+00	0	43	104	0	72	21235
2026-01-14 23:57:43.33	13.16	15.00	-50.5	-65.9	3.8	1.49e+00	0	43	104	0	72	21292
2026-01-14 23:57:46.31	13.09	15.31	-50.5	-65.9	3.8	1.49e+00	0	43	104	0	72	21280
2026-01-14 23:57:49.29	13.02	15.63	-50.5	-65.9	3.8	1.49e+00	0	43	104	0	72	21302
2026-01-14 23:57:52.61	12.95	16.00	-50.5	-65.9	3.8	1.49e+00	0	43	104	0	72	21375
2026-01-14 23:57:55.32	12.88	16.30	-50.5	-65.9	3.8	1.49e+00	0	43	104	0	72	21329
2026-01-14 23:57:58.60	12.80	16.66	-50.5	-65.8	3.8	1.49e+00	0	43	104	0	72	21245
2026-01-14 23:58:01.31	12.73	16.97	-50.5	-65.9	3.8	1.49e+00	0	43	104	0	72	21375
2026-01-14 23:58:04.59	12.65	17.35	-50.5	-65.9	3.8	1.49e+00	0	43	104	0	72	21308
2026-01-14 23:58:07.29	12.58	17.67	-50.5	-65.9	3.8	1.49e+00	0	43	104	0	72	21327
2026-01-14 23:58:11.15	12.47	18.13	-50.5	-65.9	3.8	1.49e+00	0	43	104	0	72	21408
2026-01-14 23:58:13.99	12.40	18.47	-50.5	-65.9	3.8	1.49e+00	0	43	104	0	72	21314
2026-01-14 23:58:18.06	12.28	18.97	-50.5	-65.9	3.8	1.49e+00	0	43	104	0	72	21359
2026-01-14 23:58:21.04	12.19	19.34	-50.5	-65.9	3.8	1.49e+00	0	43	104	0	72	21324
2026-01-14 23:58:24.24	12.09	19.75	-50.5	-65.9	3.8	1.49e+00	0	43	104	0	72	21293
2026-01-14 23:58:27.22	12.00	20.13	-50.5	-65.9	3.8	1.49e+00	0	43	104	0	72	21324
2026-01-14 23:58:30.20	11.90	20.52	-50.5	-65.9	3.8	1.49e+00	0	43	104	0	72	21379
2026-01-14 23:58:33.18	11.80	20.92	-50.5	-65.9	3.8	1.49e+00	0	43	104	0	72	21346
2026-01-14 23:58:36.16	11.70	21.32	-50.5	-65.9	3.8	1.49e+00	0	43	104	0	72	21379
2026-01-14 23:58:39.14	11.59	21.73	-50.5	-65.9	3.8	1.49e+00	0	43	104	0	72	21323
2026-01-14 23:58:42.12	11.48	22.14	-50.5	-65.9	3.8	1.49e+00	0	43	104	0	72	21380
2026-01-14 23:58:45.10	11.37	22.57	-50.5	-65.9	3.8	1.49e+00	0	43	104	0	72	21413
2026-01-14 23:58:48.08	11.26	23.00	-50.5	-65.9	3.8	1.49e+00	0	43	104	0	72	21358
2026-01-14 23:58:51.30	11.13	23.47	-50.5	-65.9	3.8	1.49e+00	0	43	104	0	72	21308
2026-01-14 23:58:54.14	11.01	23.89	-50.5	-65.9	3.8	1.49e+00	0	43	104	0	72	21316
2026-01-14 23:58:57.26	10.88	24.36	-50.5	-65.9	3.8	1.49e+00	0	43	104	0	72	21355
2026-01-14 23:59:00.10	10.75	24.80	-50.5	-65.9	3.8	1.49e+00	0	43	104	0	72	21360
2026-01-14 23:59:03.33	10.61	25.31	-50.5	-65.9	3.8	1.49e+00	0	43	104	0	72	21374
2026-01-14 23:59:06.46	10.46	25.81	-50.5	-65.8	3.8	1.49e+00	0	43	104	0	72	21241
2026-01-14 23:59:09.30	10.32	26.27	-50.5	-65.9	3.8	1.49e+00	0	43	104	0	72	21288
2026-01-14 23:59:12.53	10.16	26.81	-50.5	-65.9	3.8	1.49e+00	0	43	104	0	72	21385
2026-01-14 23:59:15.43	10.01	27.30	-50.5	-65.9	3.8	1.49e+00	0	43	104	0	72	21346
2026-01-14 23:59:18.68	9.84	27.86	-50.5	-65.9	3.8	1.49e+00	0	43	104	0	72	21313
2026-01-14 23:59:21.59	9.67	28.37	-50.5	-65.9	3.8	1.49e+00	0	43	104	0	72	21341
2026-01-14 23:59:24.71	9.49	28.92	-50.5	-65.9	3.8	1.49e+00	0	43	104	0	72	21329
2026-01-14 23:59:27.55	9.32	29.44	-50.5	-65.9	3.8	1.49e+00	0	43	104	0	72	21344
2026-01-14 23:59:30.68	9.13	30.02	-50.5	-65.9	3.8	1.49e+00	0	43	104	0	72	21373
2026-01-14 23:59:33.52	8.95	30.56	-50.5	-65.9	3.8	1.49e+00	0	43	104	0	72	21423
2026-01-14 23:59:36.72	8.73	31.17	-50.5	-65.9	3.8	1.49e+00	0	43	104	0	72	21386
2026-01-14 23:59:39.62	8.53	31.74	-50.5	-65.9	3.8	1.49e+00	0	43	104	0	72	21346
2026-01-14 23:59:42.75	8.31	32.37	-50.5	-65.9	3.8	1.49e+00	0	43	104	0	72	21357
2026-01-14 23:59:45.58	8.09	32.95	-50.5	-65.9	3.8	1.49e+00	0	43	104	0	72	21345
2026-01-14 23:59:48.71	7.85	33.60	-50.5	-65.9	3.8	1.49e+00	0	43	104	0	72	21402
2026-01-14 23:59:51.55	7.62	34.20	-50.5	-65.9	3.8	1.49e+00	0	43	104	0	72	21410
2026-01-14 23:59:54.67	7.35	34.88	-50.5	-65.9	3.8	1.49e+00	0	43	104	0	72	21409
2026-01-14 23:59:57.60	7.10	35.53	-50.5	-65.9	3.8	1.49e+00	0	43	104	0	72	21371
2026-01-15 00:00:00.73	6.81	36.23	-50.5	-65.9	3.8	1.49e+00	0	43	104	0	72	21329
2026-01-15 00:00:03.57	6.53	36.89	-50.5	-65.9	3.8	1.49e+00	0	43	104	0	72	21293
2026-01-15 00:00:06.69	6.22	37.62	-50.5	-65.9	3.8	1.49e+00	0	43	104	0	72	21437
2026-01-15 00:00:09.53	5.92	38.30	-50.5	-65.9	3.8	1.49e+00	0	43	104	0	72	21414
2026-01-15 00:00:12.65	5.58	39.06	-50.5	-65.9	3.8	1.49e+00	0	43	104	0	72	21364
2026-01-15 00:00:15.60	5.24	39.80	-50.5	-65.9	3.8	1.49e+00	0	43	104	0	72	21381
2026-01-15 00:00:18.73	4.86	40.59	-50.5	-65.9	3.8	1.49e+00	0	43	104	0	72	21371
2026-01-15 00:00:21.67	4.48	41.35	-50.5	-65.9	3.8	1.49e+00	0	43	104	0	72	21399
2026-01-15 00:00:24.65	4.08	42.14	-50.5	-65.9	3.8	1.49e+00	0	43	104	0	72	21382
2026-01-15 00:00:27.64	3.66	42.95	-50.5	-65.9	3.8	1.49e+00	0	43	104	0	72	21448
2026-01-15 00:00:30.62	3.22	43.77	-50.5	-65.9	3.8	1.49e+00	0	43	104	0	72	21395
2026-01-15 00:00:33.65	2.75	44.62	-50.5	-65.9	3.8	1.49e+00	0	43	104	0	72	21441
2026-01-15 00:00:36.63	2.25	45.47	-50.5	-65.9	3.8	1.49e+00	0	43	104	0	72	21267
2026-01-15 00:00:39.61	1.73	46.33	-50.5	-65.9	3.8	1.49e+00	0	43	104	0	72	21420
2026-01-15 00:00:42.59	1.18	47.22	-50.5	-65.9	3.8	1.49e+00	0	43	104	0	72	21427
2026-01-15 00:00:45.57	0.60	48.12	-50.5	-65.9	3.8	1.49e+00	0	43	104	0	72	21430
2026-01-15 00:00:48.55	359.98	49.03	-50.5	-65.9	3.8	1.49e+00	0	43	104	0	72	21462
2026-01-15 00:00:51.61	359.30	49.99	-50.5	-65.9	3.8	1.49e+00	0	43	104	0	72	21457
2026-01-15 00:00:54.59	358.60	50.93	-50.5	-65.9	3.8	1.49e+00	0	43	104	0	72	21393
2026-01-15 00:00:57.57	357.85	51.89	-50.5	-65.9	3.8	1.49e+00	0	43	104	0	72	21396
2026-01-15 00:01:00.56	357.05	52.87	-50.5	-65.9	3.8	1.49e+00	0	43	104	0	72	21430
2026-01-15 00:01:03.54	356.19	53.85	-50.5	-65.9	3.8	1.49e+00	0	43	104	0	72	21419
2026-01-15 00:01:06.56	355.26	54.87	-50.5	-65.9	3.8	1.49e+00	0	43	104	0	72	21397
2026-01-15 00:01:09.55	354.27	55.88	-50.5	-65.9	3.8	1.49e+00	0	43	104	0	72	21410
2026-01-15 00:01:12.53	353.21	56.90	-50.5	-65.9	3.8	1.49e+00	0	43	104	0	72	21442
2026-01-15 00:01:15.51	352.06	57.93	-50.5	-65.9	3.8	1.49e+00	0	43	104	0	72	21452
2026-01-15 00:01:18.49	350.82	58.96	-50.5	-65.9	3.8	1.49e+00	0	43	104	0	72	21424
2026-01-15 00:01:21.52	349.46	60.02	-50.5	-65.9	3.8	1.49e+00	0	43	104	0	72	21416
2026-01-15 00:01:24.61	347.95	61.10	-50.5	-65.9	3.8	1.49e+00	0	43	104	0	72	21443
2026-01-15 00:01:27.62	346.34	62.15	-50.5	-65.9	3.8	1.49e+00	0	43	104	0	72	21425
2026-01-15 00:01:30.60	344.61	63.19	-50.5	-65.9	3.8	1.49e+00	0	43	104	0	72	21382
2026-01-15 00:01:33.58	342.72	64.21	-50.5	-65.9	3.8	1.49e+00	0	43	104	0	72	21361
2026-01-15 00:01:36.57	340.65	65.23	-50.5	-65.9	3.8	1.49e+00	0	43	104	0	72	21492
2026-01-15 00:01:39.55	338.38	66.22	-50.5	-65.9	3.8	1.49e+00	0	43	104	0	72	21388
2026-01-15 00:01:42.53	335.91	67.19	-50.5	-65.9	3.8	1.49e+00	0	43	104	0	72	21441
2026-01-15 00:01:45.51	333.19	68.13	-50.5	-65.9	3.8	1.49e+00	0	43	104	0	72	21391
2026-01-15 00:01:48.49	330.21	69.03	-50.5	-65.9	3.8	1.49e+00	0	43	104	0	72	21350
2026-01-15 00:01:51.47	326.95	69.87	-50.5	-65.9	3.8	1.49e+00	0	43	104	0	72	21451
2026-01-15 00:01:54.48	323.36	70.67	-50.5	-65.9	3.8	1.49e+00	0	43	104	0	72	21407
2026-01-15 00:01:57.45	319.51	71.38	-50.5	-65.9	3.8	1.49e+00	0	43	104	0	72	21486
2026-01-15 00:02:00.75	314.86	72.08	-50.5	-65.9	3.8	1.49e+00	0	43	104	0	72	21375
2026-01-15 00:02:03.45	310.79	72.56	-50.5	-66.0	3.8	1.49e+00	0	43	104	0	72	21530
2026-01-15 00:02:06.71	305.59	73.03	-50.5	-65.9	3.8	1.49e+00	0	43	104	0	72	21407
2026-01-15 00:02:09.57	300.80	73.32	-50.5	-65.9	3.8	1.49e+00	0	43	104	0	72	21417
2026-01-15 00:02:12.69	295.41	73.51	-50.5	-65.9	3.8	1.49e+00	0	43	104	0	72	21358
2026-01-15 00:02:15.57	290.36	73.56	-50.5	-65.9	3.8	1.49e+00	0	43	104	0	72	21370
2026-01-15 00:02:18.70	284.88	73.48	-50.5	-65.9	3.8	1.49e+00	0	43	104	0	72	21383
2026-01-15 00:02:21.54	280.00	73.28	-50.5	-65.9	3.8	1.49e+00	0	43	104	0	72	21395
2026-01-15 00:02:24.66	274.82	72.93	-50.5	-65.9	3.8	1.49e+00	0	43	104	0	72	21338
2026-01-15 00:02:27.50	270.33	72.50	-50.5	-65.9	3.8	1.49e+00	0	43	104	0	72	21416
2026-01-15 00:02:30.62	265.68	71.93	-50.5	-65.9	3.8	1.49e+00	0	43	104	0	72	21369
2026-01-15 00:02:33.46	261.73	71.31	-50.5	-65.9	3.8	1.49e+00	0	43	104	0	72	21422
2026-01-15 00:02:36.58	257.72	70.55	-50.5	-65.9	3.8	1.49e+00	0	43	104	0	72	21362
2026-01-15 00:02:39.42	254.36	69.79	-50.5	-65.9	3.8	1.49e+00	0	43	104	0	72	21366
2026-01-15 00:02:42.55	250.97	68.89	-50.5	-65.9	3.8	1.49e+00	0	43	104	0	72	21369
2026-01-15 00:02:45.47	248.09	68.01	-50.5	-66.0	3.8	1.49e+00	0	43	104	0	72	21511
2026-01-15 00:02:48.72	245.16	66.98	-50.5	-65.9	3.8	1.49e+00	0	43	104	0	72	21378
2026-01-15 00:02:51.56	242.84	66.05	-50.5	-65.9	3.8	1.49e+00	0	43	104	0	72	21407
2026-01-15 00:02:54.68	240.51	65.00	-50.5	-65.9	3.8	1.49e+00	0	43	104	0	72	21444
2026-01-15 00:02:57.52	238.57	64.03	-50.5	-65.9	3.8	1.49e+00	0	43	104	0	72	21365
2026-01-15 00:03:00.64	236.62	62.95	-50.5	-65.9	3.8	1.49e+00	0	43	104	0	72	21302
2026-01-15 00:03:03.48	235.00	61.96	-50.5	-65.9	3.8	1.49e+00	0	43	104	0	72	21363
2026-01-15 00:03:06.70	233.31	60.83	-50.5	-65.9	3.8	1.49e+00	0	43	104	0	72	21365
2026-01-15 00:03:09.54	231.94	59.84	-50.5	-65.9	3.8	1.49e+00	0	43	104	0	72	21432
2026-01-15 00:03:12.66	230.55	58.75	-50.5	-65.9	3.8	1.49e+00	0	43	104	0	72	21442
2026-01-15 00:03:15.50	229.38	57.76	-50.5	-65.9	3.8	1.49e+00	0	43	104	0	72	21425
2026-01-15 00:03:18.62	228.19	56.68	-50.5	-65.9	3.8	1.49e+00	0	43	104	0	72	21431
2026-01-15 00:03:21.46	227.19	55.70	-50.5	-65.9	3.8	1.49e+00	0	43	104	0	72	21486
2026-01-15 00:03:24.58	226.17	54.65	-50.5	-65.9	3.8	1.49e+00	0	43	104	0	72	21422
2026-01-15 00:03:27.45	225.29	53.68	-50.5	-65.9	3.8	1.49e+00	0	43	104	0	72	21351
2026-01-15 00:03:30.72	224.36	52.60	-50.5	-65.9	3.8	1.49e+00	0	43	104	0	72	21356
2026-01-15 00:03:33.43	223.64	51.71	-50.5	-65.9	3.8	1.49e+00	0	43	104	0	72	21384
2026-01-15 00:03:36.69	222.83	50.66	-50.5	-65.9	3.8	1.49e+00	0	43	104	0	72	21419
2026-01-15 00:03:39.42	222.19	49.80	-50.5	-65.9	3.8	1.49e+00	0	43	104	0	72	21442
2026-01-15 00:03:42.83	221.45	48.73	-50.5	-65.9	3.8	1.49e+00	0	43	104	0	72	21308
2026-01-15 00:03:45.59	220.88	47.89	-50.5	-65.9	3.8	1.49e+00	0	43	104	0	72	21287
2026-01-15 00:03:48.85	220.25	46.90	-50.5	-65.9	3.8	1.49e+00	0	43	104	0	72	21409
2026-01-15 00:03:51.55	219.76	46.10	-50.5	-65.9	3.8	1.49e+00	0	43	104	0	72	21446
2026-01-15 00:03:54.83	219.19	45.15	-50.5	-65.9	3.8	1.49e+00	0	43	104	0	72	21359
2026-01-15 00:03:57.53	218.75	44.38	-50.5	-65.9	3.8	1.49e+00	0	43	104	0	72	21432
2026-01-15 00:04:00.79	218.24	43.47	-50.5	-65.9	3.8	1.49e+00	0	43	104	0	72	21434
2026-01-15 00:04:03.57	217.83	42.70	-50.5	-65.9	3.8	1.49e+00	0	43	104	0	72	21506
2026-01-15 00:04:06.90	217.37	41.81	-50.5	-65.9	3.8	1.49e+00	0	43	104	0	72	21346
2026-01-15 00:04:09.72	217.00	41.06	-50.5	-65.9	3.8	1.49e+00	0	43	104	0	72	21395
2026-01-15 00:04:12.99	216.58	40.22	-50.5	-65.9	3.8	1.49e+00	0	43	104	0	72	21454
2026-01-15 00:04:15.70	216.26	39.53	-50.5	-65.9	3.8	1.49e+00	0	43	104	0	72	21435
2026-01-15 00:04:18.97	215.89	38.72	-50.5	-65.9	3.8	1.49e+00	0	43	104	0	72	21398
2026-01-15 00:04:21.69	215.59	38.05	-50.5	-65.9	3.8	1.49e+00	0	43	104	0	72	21417
2026-01-15 00:04:24.99	215.24	37.27	-50.5	-65.9	3.8	1.49e+00	0	43	104	0	72	21417
2026-01-15 00:04:27.70	214.97	36.63	-50.5	-65.9	3.8	1.49e+00	0	43	104	0	72	21484
2026-01-15 00:04:30.97	214.66	35.88	-50.5	-65.9	3.8	1.49e+00	0	43	104	0	72	21413
2026-01-15 00:04:33.68	214.41	35.27	-50.5	-65.9	3.8	1.49e+00	0	43	104	0	72	21461
2026-01-15 00:04:36.95	214.13	34.55	-50.5	-65.9	3.8	1.49e+00	0	43	104	0	72	21401
2026-01-15 00:04:39.66	213.90	33.97	-50.5	-65.9	3.8	1.49e+00	0	43	104	0	72	21452
2026-01-15 00:04:42.94	213.63	33.27	-50.5	-65.9	3.8	1.49e+00	0	43	104	0	72	21448
2026-01-15 00:04:45.66	213.42	32.71	-50.6	-65.9	3.8	1.49e+00	0	43	104	0	72	21466
2026-01-15 00:04:48.93	213.18	32.04	-50.5	-65.9	3.8	1.49e+00	0	43	104	0	72	21421
2026-01-15 00:04:51.63	212.98	31.50	-50.5	-65.9	3.8	1.49e+00	0	43	104	0	72	21394
2026-01-15 00:04:54.91	212.76	30.86	-50.5	-65.9	3.8	1.49e+00	0	43	104	0	72	21466
2026-01-15 00:04:57.61	212.58	30.34	-50.5	-66.0	3.8	1.49e+00	0	43	104	0	72	21513
2026-01-15 00:05:00.89	212.37	29.72	-50.5	-65.9	3.8	1.49e+00	0	43	104	0	72	21389
2026-01-15 00:05:03.60	212.20	29.22	-50.5	-65.9	3.8	1.49e+00	0	43	104	0	72	21436
2026-01-15 00:05:06.88	212.00	28.62	-50.5	-65.9	3.8	1.49e+00	0	43	104	0	72	21443
2026-01-15 00:05:09.57	211.85	28.14	-50.5	-65.9	3.8	1.49e+00	0	43	104	0	72	21497
2026-01-15 00:05:12.84	211.66	27.57	-50.5	-65.9	3.8	1.49e+00	0	43	104	0	72	21439
2026-01-15 00:05:15.54	211.52	27.11	-50.5	-65.9	3.8	1.49e+00	0	43	104	0	72	21454
2026-01-15 00:05:18.88	211.34	26.54	-50.5	-66.0	3.8	1.49e+00	0	43	104	0	72	21513
2026-01-15 00:05:21.58	211.21	26.09	-50.5	-66.0	3.8	1.49e+00	0	43	104	0	72	21533
2026-01-15 00:05:24.85	211.05	25.56	-50.5	-66.0	3.8	1.49e+00	0	43	104	0	72	21570
2026-01-15 00:05:27.54	210.92	25.13	-50.5	-66.0	3.8	1.49e+00	0	43	104	0	72	21573
2026-01-15 00:05:30.82	210.77	24.62	-50.5	-65.9	3.8	1.49e+00	0	44	104	0	72	21475
2026-01-15 00:05:33.52	210.65	24.20	-50.6	-65.9	3.8	1.49e+00	0	43	104	0	72	21479
2026-01-15 00:05:36.88	210.51	23.69	-50.6	-66.0	3.8	1.49e+00	0	43	104	0	72	21529
2026-01-15 00:05:39.58	210.39	23.29	-50.5	-66.0	3.8	1.49e+00	0	43	104	0	72	21537
2026-01-15 00:05:42.84	210.26	22.81	-50.6	-66.0	3.8	1.49e+00	0	43	104	0	72	21511
2026-01-15 00:05:45.55	210.16	22.42	-50.6	-65.9	3.8	1.49e+00	0	43	104	0	72	21424
2026-01-15 00:05:48.83	210.03	21.95	-50.6	-65.9	3.8	1.49e+00	0	43	104	0	72	21431
2026-01-15 00:05:51.55	209.93	21.57	-50.5	-66.0	3.8	1.49e+00	0	43	104	0	72	21558
2026-01-15 00:05:54.91	209.81	21.11	-50.6	-66.0	3.8	1.49e+00	0	43	104	0	72	21557
2026-01-15 00:05:57.62	209.71	20.74	-50.6	-66.0	3.8	1.49e+00	0	43	104	0	72	21520
2026-01-15 00:06:00.89	209.60	20.31	-50.6	-65.9	3.8	1.49e+00	0	43	104	0	72	21501
2026-01-15 00:06:03.60	209.51	19.95	-50.6	-65.9	3.8	1.49e+00	0	43	104	0	72	21464
2026-01-15 00:06:06.88	209.41	19.53	-50.6	-66.0	3.8	1.49e+00	0	43	104	0	72	21590
2026-01-15 00:06:09.61	209.32	19.18	-50.6	-66.0	3.8	1.49e+00	0	43	104	0	72	21602
2026-01-15 00:06:12.88	209.22	18.77	-50.6	-66.0	3.8	1.49e+00	0	43	104	0	72	21509
2026-01-15 00:06:15.58	209.14	18.44	-50.6	-66.0	3.8	1.49e+00	0	43	104	0	72	21533
2026-01-15 00:06:18.86	209.05	18.04	-50.6	-66.0	3.8	1.49e+00	0	44	104	0	72	21517
2026-01-15 00:06:21.57	208.97	17.72	-50.6	-66.0	3.8	1.49e+00	0	44	104	0	72	21544
2026-01-15 00:06:24.84	208.88	17.33	-50.6	-66.0	3.8	1.49e+00	0	44	104	0	72	21604
2026-01-15 00:06:27.54	208.81	17.02	-50.6	-66.0	3.8	1.49e+00	0	43	104	0	72	21565
2026-01-15 00:06:30.90	208.72	16.63	-50.6	-66.0	3.8	1.49e+00	0	44	104	0	72	21639
2026-01-15 00:06:33.59	208.65	16.33	-50.6	-65.9	3.8	1.49e+00	0	44	104	0	72	21502
2026-01-15 00:06:36.87	208.57	15.96	-50.6	-66.0	3.8	1.49e+00	0	43	104	0	72	21571
2026-01-15 00:06:39.57	208.51	15.66	-50.6	-66.0	3.8	1.49e+00	0	44	104	0	72	21566
2026-01-15 00:06:42.87	208.43	15.30	-50.6	-66.0	3.8	1.49e+00	0	43	104	0	72	21630
2026-01-15 00:06:45.64	208.37	15.01	-50.6	-66.0	3.8	1.49e+00	0	43	104	0	72	21569
2026-01-15 00:06:48.91	208.29	14.66	-50.6	-66.0	3.8	1.49e+00	0	44	104	0	72	21591
2026-01-15 00:06:51.60	208.23	14.38	-50.6	-66.0	3.8	1.49e+00	0	43	104	0	72	21565
2026-01-15 00:06:54.88	208.16	14.04	-50.6	-66.0	3.8	1.49e+00	0	43	104	0	72	21544
2026-01-15 00:06:57.59	208.11	13.76	-50.6	-66.0	3.8	1.49e+00	0	43	104	0	72	21633
2026-01-15 00:07:00.89	208.04	13.43	-50.6	-66.0	3.8	1.49e+00	0	43	104	0	72	21596
2026-01-15 00:07:03.61	207.98	13.16	-50.6	-66.0	3.8	1.49e+00	0	43	104	0	72	21529
2026-01-15 00:07:06.89	207.92	12.84	-50.6	-66.0	3.8	1.49e+00	0	43	104	0	72	21540
2026-01-15 00:07:09.59	207.87	12.58	-50.6	-66.0	3.8	1.49e+00	0	43	104	0	72	21587
2026-01-15 00:07:12.86	207.81	12.26	-50.6	-66.0	3.8	1.49e+00	0	43	104	0	72	21646
2026-01-15 00:07:15.56	207.76	12.01	-50.6	-66.0	3.8	1.49e+00	0	43	104	0	72	21525
2026-01-15 00:07:18.82	207.70	11.70	-50.6	-66.0	3.8	1.49e+00	0	44	104	0	72	21557
2026-01-15 00:07:21.61	207.65	11.44	-50.6	-66.0	3.8	1.49e+00	0	43	104	0	72	21595
2026-01-15 00:07:24.89	207.59	11.14	-50.6	-66.0	3.8	1.49e+00	0	43	104	0	72	21590
2026-01-15 00:07:27.61	207.55	10.89	-50.6	-66.0	3.8	1.49e+00	0	43	104	0	72	21556
2026-01-15 00:07:30.89	207.49	10.60	-50.6	-66.0	3.8	1.49e+00	0	43	104	0	72	21583
2026-01-15 00:07:33.60	207.45	10.36	-50.6	-65.9	3.8	1.49e+00	0	43	104	0	72	21487
2026-01-15 00:07:36.88	207.40	10.07	-50.6	-66.0	3.8	1.49e+00	0	43	104	0	72	21627
2026-01-15 00:07:39.59	207.36	9.84	-50.6	-66.0	3.8	1.49e+00	0	43	104	0	72	21583
2026-01-15 00:07:42.85	207.31	9.56	-50.6	-66.0	3.8	1.49e+00	0	43	104	0	72	21702
2026-01-15 00:07:45.55	207.27	9.33	-50.6	-66.0	3.8	1.49e+00	0	43	104	0	72	21576
2026-01-15 00:07:48.83	207.22	9.05	-50.6	-66.0	3.8	1.49e+00	0	43	104	0	72	21625
2026-01-15 00:07:51.53	207.18	8.82	-50.6	-66.0	3.8	1.49e+00	0	43	104	0	72	21627
2026-01-15 00:07:54.79	207.14	8.56	-50.6	-66.0	3.8	1.49e+00	0	43	104	0	72	21634
2026-01-15 00:07:57.60	207.10	8.33	-50.6	-66.0	3.8	1.49e+00	0	44	104	0	72	21571
2026-01-15 00:08:00.88	207.05	8.06	-50.6	-66.0	3.8	1.49e+00	0	43	104	0	72	21682
2026-01-15 00:08:03.58	207.02	7.84	-50.6	-66.0	3.8	1.49e+00	0	43	104	0	72	21662
2026-01-15 00:08:06.86	206.98	7.58	-50.6	-66.0	3.8	1.49e+00	0	43	104	0	72	21717
2026-01-15 00:08:09.56	206.94	7.37	-50.6	-66.0	3.8	1.49e+00	0	43	104	0	72	21716
2026-01-15 00:08:12.82	206.90	7.12	-50.6	-66.0	3.8	1.49e+00	0	43	104	0	72	21650
2026-01-15 00:08:15.52	206.87	6.91	-50.6	-66.0	3.8	1.49e+00	0	43	104	0	72	21682
2026-01-15 00:08:18.78	206.83	6.66	-50.6	-66.0	3.8	1.49e+00	0	43	104	0	72	21660
2026-01-15 00:08:21.49	206.80	6.45	-50.6	-66.0	3.8	1.49e+00	0	44	104	0	72	21672
2026-01-15 00:08:24.76	206.76	6.20	-50.6	-66.1	3.8	1.49e+00	0	43	104	0	72	21799
2026-01-15 00:08:27.47	206.73	6.00	-50.6	-66.0	3.8	1.49e+00	0	43	104	0	72	21692
2026-01-15 00:08:30.86	206.69	5.75	-50.6	-66.0	3.8	1.49e+00	0	43	104	0	72	21684
2026-01-15 00:08:33.56	206.66	5.55	-50.6	-66.0	3.8	1.49e+00	0	43	104	0	72	21705
2026-01-15 00:08:36.84	206.63	5.31	-50.6	-66.0	3.8	1.49e+00	0	44	104	0	72	21653
2026-01-15 00:08:39.54	206.60	5.12	-50.6	-66.0	3.8	1.49e+00	0	44	104	0	72	21726

#Closed at: 2026-01-15 00:08:42
#Recorded file [0 MB]: D:/Data/31040_260115_025546.dat