passes_logs/2026/01/14/T1/T1__20260114_111944_AQUA_rec.log

#Pass ID: 20260114_111944_AQUA
#Satellite: AQUA
#Configuration: AQUA
#almurnet v.1.7.20251203
#Start time: 2026-01-14 11:19:45

#Version: 2.0.20230620
#Station: T1
#Location: 37.570604 lon 55.790049 lat
#TLE: 1 27424U 02022A   26013.25278823  .00000890  00000+0  18808-3 0  9998
#TLE: 2 27424  98.4079 339.6508 0002047  80.3961  24.1839 14.61818714260637

#Time	Az	El	Level	Level2	SNR	BER	BlckErr	Temp	State	Recorded	gain1	gain2
2026-01-14 11:19:45.33	149.37	5.10	-53.2	-73.0	3.8	7.46e-01	0	39	0	0	78	34171
2026-01-14 11:19:48.30	149.30	5.32	-53.2	-72.7	3.8	7.46e-01	0	39	104	0	76	37321
2026-01-14 11:19:51.28	149.24	5.55	-53.2	-73.2	3.8	7.46e-01	0	39	104	0	76	39389
2026-01-14 11:19:54.34	149.16	5.78	-53.1	-72.1	3.8	7.45e-01	0	39	104	0	76	34643
2026-01-14 11:19:57.45	149.09	6.02	-53.1	-69.8	3.9	7.41e-01	0	39	104	0	76	26566
2026-01-14 11:20:00.54	149.02	6.26	-53.0	-67.9	5.1	7.06e-01	0	39	0	0	76	21330
2026-01-14 11:20:03.55	148.94	6.50	-53.0	-67.0	5.6	6.96e-01	0	40	0	1048576	76	19254
2026-01-14 11:20:06.53	148.87	6.74	-52.8	-65.2	7.1	6.63e-01	0	40	0	6291456	76	15639
2026-01-14 11:20:09.51	148.79	6.98	-52.5	-62.3	9.9	6.26e-01	0	40	0	11534336	76	11267
2026-01-14 11:20:12.49	148.71	7.23	-51.8	-59.2	13.1	6.09e-01	0	40	0	17301504	75	8345
2026-01-14 11:20:15.51	148.63	7.47	-50.8	-56.3	16.1	6.08e-01	0	40	0	23068672	73	6649
2026-01-14 11:20:18.52	148.55	7.73	-49.7	-54.0	18.4	6.09e-01	0	40	0	28835840	71	5743
2026-01-14 11:20:21.50	148.46	7.98	-49.1	-52.9	19.4	6.07e-01	0	40	0	34078720	70	5379
2026-01-14 11:20:24.48	148.38	8.23	-49.4	-53.5	18.9	6.05e-01	0	40	0	39845888	70	5725
2026-01-14 11:20:27.46	148.29	8.49	-50.7	-56.1	16.3	6.08e-01	0	40	0	45613056	72	6948
2026-01-14 11:20:30.45	148.20	8.75	-52.4	-61.8	10.6	6.23e-01	0	40	0	50855936	75	11181
2026-01-14 11:20:33.41	148.11	9.01	-53.1	-71.0	4.0	7.39e-01	0	40	104	54001664	76	30721
2026-01-14 11:20:36.54	148.02	9.29	-53.1	-72.1	3.5	7.50e-01	0	40	104	56623104	76	34606
2026-01-14 11:20:39.39	147.93	9.55	-52.6	-61.3	10.9	6.18e-01	0	40	0	58720256	76	10046
2026-01-14 11:20:43.06	147.81	9.88	-52.3	-59.9	12.6	6.11e-01	0	40	0	65536000	76	8511
2026-01-14 11:20:45.77	147.72	10.13	-50.6	-55.5	13.6	6.08e-01	0	40	0	70254592	73	6081
2026-01-14 11:20:49.05	147.60	10.44	-49.6	-53.7	18.9	6.07e-01	0	40	0	76546048	71	5544
2026-01-14 11:20:51.76	147.51	10.70	-49.1	-52.9	19.6	6.06e-01	0	41	0	81788928	70	5362
2026-01-14 11:20:55.06	147.39	11.01	-48.1	-51.4	21.0	6.08e-01	0	40	0	88080384	68	5088
2026-01-14 11:20:57.92	147.29	11.29	-48.0	-51.2	21.2	6.06e-01	0	41	0	93323264	68	4935
2026-01-14 11:21:01.00	147.17	11.60	-48.1	-51.3	21.1	6.05e-01	0	40	0	99090432	68	5033
2026-01-14 11:21:04.28	147.05	11.93	-47.8	-50.9	21.4	6.08e-01	0	41	0	105381888	67	5094
2026-01-14 11:21:07.57	146.92	12.26	-47.7	-50.8	21.6	6.07e-01	0	41	0	111149056	67	5011
2026-01-14 11:21:10.41	146.80	12.55	-47.6	-50.7	21.7	6.07e-01	0	41	0	116916224	67	4942
2026-01-14 11:21:13.53	146.68	12.88	-47.6	-50.7	21.6	6.09e-01	0	41	0	122683392	67	4960
2026-01-14 11:21:16.38	146.56	13.18	-47.5	-50.7	21.7	6.07e-01	0	41	0	127926272	67	4957
2026-01-14 11:21:19.50	146.42	13.52	-47.5	-50.7	21.6	6.07e-01	0	41	0	133693440	67	4960
2026-01-14 11:21:22.39	146.29	13.83	-47.6	-50.7	21.7	6.07e-01	0	41	0	139460608	67	4938
2026-01-14 11:21:25.93	146.13	14.22	-47.7	-50.7	21.7	6.08e-01	0	41	0	145752064	67	4977
2026-01-14 11:21:28.68	146.00	14.53	-47.7	-50.7	21.8	6.09e-01	0	41	0	150994944	67	4930
2026-01-14 11:21:32.01	145.84	14.91	-47.5	-50.4	21.9	6.06e-01	0	41	0	157286400	67	4805
2026-01-14 11:21:34.75	145.71	15.23	-47.4	-50.2	22.1	6.05e-01	0	41	0	162529280	66	4973
2026-01-14 11:21:38.03	145.54	15.61	-47.4	-50.3	22.1	6.10e-01	0	41	0	168296448	66	5009
2026-01-14 11:21:40.77	145.40	15.94	-47.2	-50.0	22.4	6.09e-01	0	41	0	173539328	66	4824
2026-01-14 11:21:44.01	145.23	16.33	-47.1	-49.8	22.5	6.09e-01	0	41	0	179830784	66	4751
2026-01-14 11:21:46.85	145.07	16.69	-47.1	-49.8	22.6	6.06e-01	0	41	0	185073664	66	4721
2026-01-14 11:21:50.02	144.89	17.08	-47.2	-50.0	22.4	6.07e-01	0	41	0	190840832	66	4831
2026-01-14 11:21:52.91	144.73	17.45	-47.3	-50.2	22.2	6.07e-01	0	41	0	196608000	66	4940
2026-01-14 11:21:56.10	144.54	17.86	-47.3	-50.3	22.2	6.07e-01	0	41	0	202375168	66	4990
2026-01-14 11:21:59.00	144.36	18.25	-47.4	-50.4	22.1	6.07e-01	0	41	0	207618048	66	5051
2026-01-14 11:22:02.29	144.15	18.69	-47.4	-50.4	22.0	6.08e-01	0	41	0	213909504	66	5096
2026-01-14 11:22:05.14	143.96	19.08	-47.3	-50.3	22.1	6.07e-01	0	41	0	219152384	66	5039
2026-01-14 11:22:08.34	143.75	19.52	-47.3	-50.2	22.2	6.08e-01	0	41	0	225443840	66	4970
2026-01-14 11:22:11.23	143.55	19.93	-47.3	-50.2	22.2	6.07e-01	0	41	0	230686720	66	4977
2026-01-14 11:22:14.31	143.33	20.38	-47.5	-50.4	22.1	6.08e-01	0	41	0	236453888	66	5043
2026-01-14 11:22:17.87	143.06	20.90	-47.7	-50.6	21.9	6.09e-01	0	41	0	243269632	66	5216
2026-01-14 11:22:20.62	142.85	21.31	-47.9	-50.8	21.7	6.07e-01	0	41	0	248512512	66	5328
2026-01-14 11:22:23.90	142.60	21.81	-47.9	-50.8	21.7	6.06e-01	0	41	0	254279680	66	5330
2026-01-14 11:22:27.14	142.33	22.32	-47.5	-50.4	22.1	6.08e-01	0	41	0	260571136	66	5080
2026-01-14 11:22:30.19	142.07	22.80	-47.4	-50.4	22.2	6.07e-01	0	41	0	266338304	66	5049
2026-01-14 11:22:33.49	141.78	23.34	-47.7	-50.8	21.8	6.09e-01	0	41	0	272629760	66	5288
2026-01-14 11:22:36.20	141.54	23.79	-47.7	-50.8	21.8	6.06e-01	0	41	0	277348352	66	5280
2026-01-14 11:22:39.53	141.23	24.35	-47.7	-50.7	21.9	6.07e-01	0	41	0	283639808	66	5219
2026-01-14 11:22:42.34	140.95	24.83	-47.8	-50.7	21.9	6.07e-01	0	41	0	288882688	66	5220
2026-01-14 11:22:45.77	140.61	25.43	-47.7	-50.6	22.0	6.06e-01	0	41	0	295698432	66	5213
2026-01-14 11:22:48.77	140.29	25.97	-47.7	-50.6	22.0	6.08e-01	0	41	0	300941312	66	5210
2026-01-14 11:22:52.90	139.84	26.73	-47.7	-50.7	21.9	6.08e-01	0	41	0	308805632	66	5222
2026-01-14 11:22:55.74	139.52	27.27	-47.4	-50.2	22.4	6.08e-01	0	41	0	314048512	66	4937
2026-01-14 11:22:59.72	139.04	28.03	-47.5	-50.3	22.3	6.07e-01	0	41	0	321912832	66	4995
2026-01-14 11:23:02.60	138.68	28.60	-47.2	-50.0	22.5	6.06e-01	0	41	0	327155712	66	4836
2026-01-14 11:23:06.24	138.21	29.33	-47.1	-49.8	22.7	6.10e-01	0	41	0	333971456	66	4729
2026-01-14 11:23:09.18	137.81	29.94	-47.1	-49.8	22.7	6.07e-01	0	41	0	339214336	66	4743
2026-01-14 11:23:12.59	137.32	30.66	-46.9	-49.6	22.9	6.09e-01	0	41	0	346030080	65	4907
2026-01-14 11:23:15.59	136.88	31.31	-47.1	-49.8	22.7	6.08e-01	0	41	0	351272960	65	5038
2026-01-14 11:23:19.49	136.27	32.17	-47.2	-50.0	22.6	6.07e-01	0	41	0	358612992	65	5134
2026-01-14 11:23:22.34	135.81	32.81	-47.2	-50.0	22.6	6.07e-01	0	41	0	364380160	65	5123
2026-01-14 11:23:26.31	135.12	33.73	-47.5	-50.6	22.1	6.07e-01	0	41	0	371720192	65	5466
2026-01-14 11:23:29.16	134.61	34.40	-47.5	-50.5	22.1	6.07e-01	0	41	0	376963072	65	5446
2026-01-14 11:23:33.67	133.74	35.50	-48.0	-51.0	21.7	6.09e-01	0	41	0	385351680	66	5427
2026-01-14 11:23:36.65	133.14	36.24	-48.5	-51.6	21.1	6.07e-01	0	41	0	391118848	67	5520
2026-01-14 11:23:39.92	132.44	37.07	-48.7	-52.0	20.9	6.05e-01	0	41	0	396886016	68	5412
2026-01-14 11:23:43.25	131.69	37.93	-49.3	-52.8	20.1	6.10e-01	0	41	0	403177472	69	5640
2026-01-14 11:23:46.08	131.02	38.68	-48.9	-52.2	20.7	6.07e-01	0	41	0	408420352	69	5266
2026-01-14 11:23:49.52	130.16	39.61	-48.8	-52.1	20.7	6.07e-01	0	41	0	415236096	69	5209
2026-01-14 11:23:52.25	129.44	40.36	-49.2	-52.6	20.2	6.05e-01	0	41	0	419954688	69	5498
2026-01-14 11:23:55.53	128.53	41.27	-48.7	-51.9	21.0	6.05e-01	0	41	0	426246144	69	5060
2026-01-14 11:23:58.25	127.74	42.05	-48.8	-52.2	20.7	6.06e-01	0	41	0	431489024	69	5237
2026-01-14 11:24:01.63	126.69	43.02	-48.4	-51.4	21.4	6.06e-01	0	42	0	437780480	68	5097
2026-01-14 11:24:04.34	125.80	43.81	-48.2	-51.4	21.3	6.08e-01	0	41	0	443023360	67	5386
2026-01-14 11:24:07.62	124.67	44.78	-47.8	-50.7	22.0	6.07e-01	0	41	0	448790528	67	4961
2026-01-14 11:24:10.41	123.64	45.61	-47.9	-50.8	21.9	6.09e-01	0	41	0	454033408	67	5012
2026-01-14 11:24:13.65	122.38	46.59	-47.9	-51.0	21.8	6.06e-01	0	41	0	460324864	67	5101
2026-01-14 11:24:16.65	121.14	47.51	-47.9	-51.2	21.6	6.06e-01	0	42	0	466092032	67	5234
2026-01-14 11:24:19.64	119.83	48.42	-48.1	-51.1	21.6	6.06e-01	0	42	0	471334912	67	5200
2026-01-14 11:24:22.62	118.44	49.34	-48.0	-50.9	21.8	6.07e-01	0	42	0	477102080	67	5088
2026-01-14 11:24:25.61	116.96	50.25	-47.8	-50.7	21.9	6.05e-01	0	41	0	482869248	67	4963
2026-01-14 11:24:28.59	115.38	51.17	-47.8	-50.7	22.0	6.07e-01	0	41	0	488112128	67	4978
2026-01-14 11:24:31.88	113.53	52.17	-47.8	-50.6	22.0	6.05e-01	0	42	0	494403584	66	5205
2026-01-14 11:24:34.60	111.91	52.99	-47.6	-50.5	22.2	6.08e-01	0	41	0	499646464	66	5104
2026-01-14 11:24:37.81	109.86	53.94	-47.4	-50.2	22.4	6.06e-01	0	42	0	505413632	66	4983
2026-01-14 11:24:41.03	107.67	54.87	-47.5	-50.3	22.4	6.06e-01	0	41	0	511705088	66	5031
2026-01-14 11:24:43.95	105.56	55.70	-47.8	-50.6	22.1	6.04e-01	0	41	0	516947968	66	5201
2026-01-14 11:24:47.44	102.87	56.64	-48.0	-51.0	21.8	6.07e-01	0	42	0	523763712	66	5416
2026-01-14 11:24:50.70	100.19	57.48	-48.6	-51.8	21.0	6.07e-01	0	42	0	529530880	67	5607
2026-01-14 11:24:53.73	97.54	58.22	-48.6	-51.8	21.1	6.06e-01	0	42	0	535298048	68	5328
2026-01-14 11:24:57.00	94.52	58.95	-49.1	-52.5	20.4	6.07e-01	0	42	0	541589504	69	5435
2026-01-14 11:24:59.92	91.69	59.55	-49.1	-52.7	20.2	6.07e-01	0	42	0	546832384	69	5571
2026-01-14 11:25:03.90	87.62	60.27	-49.0	-52.5	20.5	6.07e-01	0	41	0	554696704	69	5410
2026-01-14 11:25:06.75	84.58	60.70	-48.6	-52.3	20.7	6.06e-01	0	42	0	559939584	69	5283
2026-01-14 11:25:10.73	80.16	61.19	-49.2	-52.6	20.4	6.05e-01	0	41	0	567279616	69	5494
2026-01-14 11:25:13.52	76.98	61.44	-49.3	-52.7	20.3	6.07e-01	0	42	0	572522496	69	5581
2026-01-14 11:25:16.65	73.34	61.63	-49.7	-53.3	19.7	6.08e-01	0	42	0	578289664	70	5627
2026-01-14 11:25:19.49	70.00	61.72	-49.4	-53.0	20.0	6.06e-01	0	42	0	583532544	70	5463
2026-01-14 11:25:22.62	66.31	61.72	-49.7	-53.2	19.9	6.08e-01	0	42	0	589824000	70	5539
2026-01-14 11:25:25.46	62.97	61.63	-49.5	-53.0	20.0	6.08e-01	0	42	0	595066880	70	5420
2026-01-14 11:25:28.59	59.34	61.43	-49.7	-53.4	19.7	6.06e-01	0	42	0	600834048	70	5666
2026-01-14 11:25:31.43	56.10	61.17	-49.8	-53.4	19.7	6.08e-01	0	42	0	606076928	70	5684
2026-01-14 11:25:34.64	52.54	60.78	-49.8	-53.6	19.6	6.07e-01	0	42	0	612368384	70	5793
2026-01-14 11:25:37.55	49.41	60.35	-49.1	-52.3	20.7	6.06e-01	0	42	0	617611264	70	5019
2026-01-14 11:25:41.34	45.51	59.68	-48.9	-52.1	20.9	6.08e-01	0	41	0	624951296	69	5199
2026-01-14 11:25:44.09	42.81	59.14	-48.8	-52.0	20.9	6.07e-01	0	42	0	629669888	69	5136
2026-01-14 11:25:47.37	39.75	58.42	-48.9	-52.1	20.8	6.04e-01	0	42	0	635961344	69	5192
2026-01-14 11:25:50.08	37.35	57.77	-49.0	-52.4	20.6	6.07e-01	0	42	0	641204224	69	5360
2026-01-14 11:25:53.45	34.52	56.93	-48.4	-51.7	21.2	6.04e-01	0	42	0	647495680	67	5532
2026-01-14 11:25:56.18	32.36	56.20	-47.9	-50.9	21.8	6.08e-01	0	42	0	652738560	67	5091
2026-01-14 11:25:59.45	29.92	55.30	-47.2	-50.0	22.7	6.08e-01	0	42	0	658505728	66	4832
2026-01-14 11:26:02.19	27.99	54.52	-47.2	-49.9	22.7	6.07e-01	0	42	0	663748608	66	4796
2026-01-14 11:26:05.84	25.59	53.45	-47.1	-49.9	22.8	6.08e-01	0	42	0	670564352	66	4773
2026-01-14 11:26:08.73	23.81	52.59	-47.1	-50.1	22.6	6.09e-01	0	42	0	676331520	65	5172
2026-01-14 11:26:12.22	21.81	51.53	-47.0	-49.8	22.8	6.05e-01	0	42	0	682622976	65	5022
2026-01-14 11:26:15.44	20.08	50.55	-47.3	-50.1	22.6	6.07e-01	0	42	0	688914432	65	5213
2026-01-14 11:26:18.28	18.64	49.68	-47.2	-49.9	22.7	6.06e-01	0	42	0	694157312	65	5076
2026-01-14 11:26:21.58	17.08	48.67	-47.1	-49.9	22.7	6.08e-01	0	42	0	700448768	66	4782
2026-01-14 11:26:24.29	15.87	47.85	-47.4	-50.1	22.6	6.06e-01	0	42	0	705167360	66	4900
2026-01-14 11:26:27.54	14.51	46.86	-47.2	-49.9	22.7	6.05e-01	0	42	0	711458816	66	4794
2026-01-14 11:26:30.64	13.28	45.93	-47.9	-50.9	21.8	6.07e-01	0	41	0	717225984	67	5052
2026-01-14 11:26:33.62	12.18	45.04	-47.3	-50.1	22.6	6.07e-01	0	42	0	722468864	66	4884
2026-01-14 11:26:36.60	11.13	44.15	-47.7	-50.5	22.2	6.06e-01	0	42	0	728236032	66	5150
2026-01-14 11:26:39.59	10.14	43.28	-47.7	-50.6	22.1	6.07e-01	0	42	0	734003200	66	5204
2026-01-14 11:26:42.57	9.20	42.42	-47.6	-50.7	22.1	6.06e-01	0	42	0	739246080	66	5227
2026-01-14 11:26:45.56	8.31	41.58	-48.5	-51.9	21.0	6.07e-01	0	42	0	745013248	67	5677
2026-01-14 11:26:48.55	7.47	40.74	-48.5	-51.6	21.2	6.08e-01	0	42	0	750780416	67	5508
2026-01-14 11:26:51.53	6.67	39.92	-48.8	-51.9	21.0	6.05e-01	0	42	0	756547584	68	5363
2026-01-14 11:26:54.56	5.90	39.10	-49.0	-52.4	20.6	6.06e-01	0	42	0	761790464	68	5682
2026-01-14 11:26:57.55	5.18	38.31	-48.9	-52.2	20.8	6.07e-01	0	42	0	767557632	68	5537
2026-01-14 11:27:00.53	4.50	37.53	-49.1	-52.6	20.4	6.08e-01	0	42	0	773324800	69	5490
2026-01-14 11:27:03.92	3.76	36.67	-48.6	-51.9	20.9	6.07e-01	0	42	0	779616256	69	5095
2026-01-14 11:27:07.07	3.11	35.88	-48.5	-51.7	21.2	6.09e-01	0	42	0	785383424	68	5224
2026-01-14 11:27:10.35	2.47	35.08	-47.7	-51.0	21.7	6.07e-01	0	42	0	791674880	67	5116
2026-01-14 11:27:13.30	1.92	34.37	-47.9	-51.1	21.6	6.06e-01	0	42	0	796917760	67	5170
2026-01-14 11:27:16.29	1.38	33.67	-47.5	-50.4	22.3	6.07e-01	0	42	0	802684928	67	4778
2026-01-14 11:27:19.27	0.87	32.98	-47.3	-50.0	22.6	6.07e-01	0	42	0	808452096	66	4863
2026-01-14 11:27:22.25	0.39	32.31	-47.3	-50.0	22.6	6.06e-01	0	42	0	813694976	66	4837
2026-01-14 11:27:25.24	359.92	31.65	-47.1	-49.9	22.7	6.06e-01	0	42	0	819462144	66	4783
2026-01-14 11:27:28.22	359.47	31.01	-47.2	-49.9	22.7	6.07e-01	0	42	0	825229312	66	4782
2026-01-14 11:27:31.20	359.04	30.37	-46.9	-49.6	22.9	6.08e-01	0	42	0	830472192	65	4900
2026-01-14 11:27:34.58	358.57	29.67	-47.0	-49.8	22.7	6.08e-01	0	42	0	837287936	65	5002
2026-01-14 11:27:37.28	358.22	29.13	-47.2	-50.0	22.6	6.05e-01	0	42	0	842006528	65	5141
2026-01-14 11:27:40.60	357.80	28.46	-47.3	-50.1	22.5	6.05e-01	0	42	0	848297984	65	5178
2026-01-14 11:27:43.44	357.45	27.91	-47.4	-50.1	22.5	6.06e-01	0	42	0	853540864	65	5195
2026-01-14 11:27:46.60	357.08	27.31	-47.3	-50.0	22.5	6.05e-01	0	42	0	859832320	65	5157
2026-01-14 11:27:49.44	356.76	26.78	-47.5	-50.4	22.2	6.07e-01	0	42	0	865075200	65	5365
2026-01-14 11:27:52.69	356.40	26.18	-47.4	-50.5	22.1	6.09e-01	0	42	0	870842368	65	5417
2026-01-14 11:27:55.53	356.10	25.67	-47.1	-50.6	22.0	6.06e-01	0	42	0	876609536	65	5506
2026-01-14 11:27:58.66	355.79	25.12	-47.1	-50.9	21.8	6.06e-01	0	42	0	882376704	65	5660
2026-01-14 11:28:01.74	355.49	24.59	-47.3	-50.8	21.8	6.08e-01	0	42	0	888143872	65	5642
2026-01-14 11:28:05.02	355.18	24.04	-47.6	-50.9	21.7	6.07e-01	0	42	0	893911040	65	5693
2026-01-14 11:28:07.88	354.92	23.56	-47.6	-50.8	21.8	6.06e-01	0	42	0	899678208	66	5306
2026-01-14 11:28:11.00	354.65	23.06	-47.6	-50.7	21.9	6.06e-01	0	42	0	905445376	66	5271
2026-01-14 11:28:13.99	354.39	22.58	-47.6	-50.6	22.0	6.09e-01	0	42	0	911212544	66	5218
2026-01-14 11:28:16.97	354.15	22.12	-47.9	-50.9	21.7	6.07e-01	0	42	0	916455424	66	5362
2026-01-14 11:28:19.95	353.91	21.66	-47.9	-50.9	21.7	6.05e-01	0	42	0	922222592	66	5393
2026-01-14 11:28:22.97	353.68	21.20	-47.7	-50.7	21.9	6.04e-01	0	42	0	927989760	66	5268
2026-01-14 11:28:26.05	353.45	20.75	-47.8	-50.8	21.8	6.06e-01	0	42	0	933756928	66	5312
2026-01-14 11:28:29.00	353.24	20.32	-47.6	-50.7	21.9	6.05e-01	0	42	0	938999808	66	5249
2026-01-14 11:28:31.99	353.03	19.90	-47.4	-50.8	21.7	6.01e-01	0	42	0	944766976	66	5326
2026-01-14 11:28:34.97	352.83	19.48	-47.1	-50.8	21.8	6.04e-01	0	42	0	950009856	66	5303
2026-01-14 11:28:37.96	352.63	19.07	-47.2	-50.7	21.8	6.04e-01	0	42	0	955777024	66	5274
2026-01-14 11:28:40.94	352.44	18.66	-47.5	-50.9	21.7	6.02e-01	0	42	0	961544192	66	5383
2026-01-14 11:28:44.29	352.23	18.22	-47.3	-50.8	21.7	6.04e-01	0	42	0	967835648	66	5305
2026-01-14 11:28:47.16	352.06	17.84	-47.5	-50.8	21.7	6.03e-01	0	42	0	973078528	66	5336
2026-01-14 11:28:50.65	351.86	17.40	-47.8	-50.9	21.7	6.07e-01	0	42	0	979894272	66	5344
2026-01-14 11:28:53.71	351.69	17.01	-47.7	-50.8	21.7	6.04e-01	0	42	0	985137152	66	5318
2026-01-14 11:28:57.01	351.51	16.60	-47.4	-50.8	21.8	6.02e-01	0	42	0	991428608	66	5281
2026-01-14 11:28:59.98	351.35	16.24	-47.2	-50.8	21.7	6.03e-01	0	42	0	997195776	66	5338
2026-01-14 11:29:03.31	351.18	15.84	-47.5	-50.9	21.6	6.06e-01	0	42	0	1003487232	66	5367
2026-01-14 11:29:06.01	351.04	15.52	-47.5	-50.8	21.7	6.04e-01	0	42	0	1008205824	66	5305
2026-01-14 11:29:09.32	350.88	15.14	-47.3	-50.7	21.7	6.04e-01	0	42	0	1014497280	66	5257
2026-01-14 11:29:12.08	350.75	14.82	-47.0	-50.6	21.8	6.00e-01	0	42	0	1019740160	66	5215
2026-01-14 11:29:15.99	350.57	14.38	-47.2	-50.5	21.9	6.04e-01	0	42	0	1027080192	66	5146
2026-01-14 11:29:18.77	350.44	14.08	-47.5	-50.7	21.8	6.05e-01	0	42	0	1032323072	66	5246
2026-01-14 11:29:22.07	350.30	13.72	-47.5	-50.7	21.7	6.06e-01	0	42	0	1038614528	66	5261
2026-01-14 11:29:24.79	350.18	13.43	-47.1	-50.9	21.6	6.02e-01	0	42	0	1043857408	66	5356
2026-01-14 11:29:28.16	350.04	13.07	-46.2	-51.0	21.4	6.05e-01	0	42	0	1050148864	64	6073
2026-01-14 11:29:30.93	349.93	12.78	-45.9	-51.0	21.5	6.02e-01	0	42	0	1055391744	63	6423
2026-01-14 11:29:34.57	349.79	12.41	-45.9	-51.0	21.4	6.04e-01	0	42	0	1062207488	63	6488
2026-01-14 11:29:37.26	349.68	12.13	-46.2	-51.0	21.4	6.03e-01	0	42	0	1066926080	63	6478
2026-01-14 11:29:40.58	349.56	11.80	-46.4	-51.3	21.2	6.05e-01	0	42	0	1073217536	63	6654
2026-01-14 11:29:43.34	349.46	11.53	-46.3	-51.2	21.3	6.04e-01	0	42	0	1078460416	63	6609
2026-01-14 11:29:46.78	349.34	11.19	-46.1	-51.3	21.1	6.04e-01	0	42	0	1084751872	63	6722
2026-01-14 11:29:49.50	349.24	10.93	-45.7	-51.5	21.0	6.04e-01	0	42	0	1089994752	63	6834
2026-01-14 11:29:52.78	349.13	10.62	-45.4	-51.3	21.1	6.03e-01	0	42	0	1096286208	62	7111
2026-01-14 11:29:55.51	349.04	10.36	-45.4	-51.4	21.0	6.02e-01	0	42	0	1101529088	62	7187
2026-01-14 11:29:58.78	348.93	10.06	-46.1	-51.4	21.0	6.02e-01	0	42	0	1107296256	62	7131
2026-01-14 11:30:02.05	348.83	9.76	-46.7	-51.3	21.0	6.03e-01	0	42	0	1113587712	64	6345
2026-01-14 11:30:04.92	348.74	9.50	-48.0	-51.8	20.6	6.02e-01	0	42	0	1118830592	66	5926
2026-01-14 11:30:08.04	348.65	9.23	-48.0	-51.5	20.8	6.02e-01	0	42	0	1124597760	66	5752
2026-01-14 11:30:10.88	348.56	8.98	-48.9	-59.9	14.1	6.07e-01	0	42	0	1130364928	69	12751
2026-01-14 11:30:14.00	348.47	8.70	-50.6	-74.0	3.8	7.45e-01	0	42	104	1130364928	72	54303
2026-01-14 11:30:16.84	348.39	8.46	-54.2	-74.3	3.8	7.49e-01	0	42	104	1130364928	78	39916
2026-01-14 11:30:19.96	348.30	8.19	-54.2	-74.5	3.8	7.45e-01	0	42	104	1130364928	79	38497
2026-01-14 11:30:22.80	348.23	7.95	-54.2	-74.4	3.8	7.48e-01	0	42	104	1130364928	78	40186
2026-01-14 11:30:25.92	348.14	7.69	-54.4	-74.4	3.8	7.45e-01	0	42	104	1130364928	79	37991
2026-01-14 11:30:28.78	348.07	7.46	-54.2	-74.4	3.8	7.46e-01	0	42	104	1130364928	79	38132
2026-01-14 11:30:31.90	347.99	7.20	-54.5	-74.4	3.8	7.47e-01	0	42	104	1130364928	79	38209
2026-01-14 11:30:34.74	347.92	6.97	-54.1	-74.4	3.8	7.47e-01	0	42	104	1130364928	79	38140
2026-01-14 11:30:37.86	347.84	6.72	-54.0	-74.4	3.8	7.50e-01	0	42	104	1130364928	79	38086
2026-01-14 11:30:40.71	347.78	6.50	-53.6	-74.4	3.8	7.46e-01	0	42	104	1130364928	79	37848
2026-01-14 11:30:43.83	347.70	6.25	-53.6	-74.4	3.8	7.46e-01	0	42	104	1130364928	79	37946
2026-01-14 11:30:46.67	347.64	6.03	-53.6	-74.4	3.8	7.45e-01	0	42	104	1130364928	79	37834
2026-01-14 11:30:49.79	347.57	5.79	-53.6	-74.4	3.8	7.46e-01	0	42	104	1130364928	79	37830
2026-01-14 11:30:52.63	347.51	5.58	-53.6	-74.3	3.8	7.47e-01	0	42	104	1130364928	79	37750
2026-01-14 11:30:55.75	347.44	5.34	-53.6	-74.3	3.8	7.46e-01	0	42	104	1130364928	79	37691
2026-01-14 11:30:58.59	347.38	5.13	-53.6	-74.3	3.8	7.45e-01	0	42	104	1130364928	79	37700

#Closed at: 2026-01-14 11:31:01
#Recorded file [1130 MB]: D:/Data/31040_260114_141945.dat