passes_logs/2026/01/14/T1/T1__20260114_100507_NOAA_20_JPSS-1_rec.log

#Pass ID: 20260114_100507_NOAA 20 (JPSS-1)
#Satellite: NOAA 20 (JPSS-1)
#Configuration: NOAA 20
#almurnet v.1.7.20251203
#Start time: 2026-01-14 10:05:07

#Version: 2.0.20230620
#Station: T1
#Location: 37.570604 lon 55.790049 lat
#TLE: 1 43013U 17073A   26013.21545503  .00000073  00000+0  55630-4 0  9998
#TLE: 2 43013  98.7633 314.1737 0001580  41.9966 318.1331 14.19535680422486

#Time	Az	El	Level	Level2	SNR	BER	BlckErr	Temp	State	Recorded	gain1	gain2
2026-01-14 10:05:07.61	165.18	4.98	-52.1	-67.4	3.8	1.49e+00	0	37	0	0	75	21446
2026-01-14 10:05:11.60	165.22	5.27	-50.9	-67.1	3.8	1.49e+00	0	37	104	0	73	23104
2026-01-14 10:05:15.60	165.27	5.56	-50.9	-67.1	3.8	1.49e+00	0	37	104	0	73	23277
2026-01-14 10:05:19.58	165.31	5.85	-50.9	-66.9	3.8	1.49e+00	0	37	104	0	73	22737
2026-01-14 10:05:23.57	165.35	6.15	-50.9	-66.4	3.8	1.49e+00	0	38	104	0	73	21333
2026-01-14 10:05:27.55	165.39	6.45	-50.8	-65.2	3.8	1.49e+00	0	38	104	0	73	18573
2026-01-14 10:05:31.54	165.44	6.75	-50.8	-63.1	4.3	1.36e+00	0	38	0	0	73	14629
2026-01-14 10:05:35.53	165.48	7.06	-50.5	-60.6	5.6	5.40e-01	0	38	0	7340032	72	11607
2026-01-14 10:05:39.51	165.53	7.37	-50.0	-58.2	7.6	1.30e-01	0	38	0	14680064	72	8786
2026-01-14 10:05:43.50	165.58	7.69	-49.6	-56.3	9.4	1.64e-02	0	38	0	22020096	71	7539
2026-01-14 10:05:47.50	165.62	8.01	-49.4	-55.8	10.0	7.60e-03	0	39	0	29360128	70	7515
2026-01-14 10:05:51.49	165.67	8.33	-49.8	-57.1	8.7	2.86e-02	0	39	0	36700160	70	8732
2026-01-14 10:05:55.50	165.72	8.66	-50.5	-61.2	5.2	4.44e-01	0	39	0	44040192	71	13180
2026-01-14 10:05:59.49	165.77	8.99	-51.2	-66.9	3.8	1.49e+00	0	39	104	47185920	72	24039
2026-01-14 10:06:03.47	165.82	9.33	-50.2	-60.9	5.3	1.49e+00	0	39	104	47185920	72	11960
2026-01-14 10:06:07.47	165.88	9.67	-48.0	-53.6	12.4	1.23e-03	0	39	0	50331648	68	6520
2026-01-14 10:06:11.46	165.93	10.02	-47.3	-52.4	13.4	1.18e-02	0	39	0	57671680	66	6401
2026-01-14 10:06:15.46	165.98	10.37	-47.5	-52.3	13.6	1.50e-06	0	39	0	66060288	66	6318
2026-01-14 10:06:19.46	166.04	10.72	-47.8	-52.0	13.9	4.50e-06	0	39	0	73400320	66	6129
2026-01-14 10:06:23.45	166.09	11.09	-48.0	-52.0	13.9	7.00e-07	0	39	0	80740352	66	6083
2026-01-14 10:06:27.43	166.15	11.45	-48.0	-51.8	14.1	1.50e-06	0	39	0	88080384	66	5963
2026-01-14 10:06:31.42	166.21	11.82	-48.0	-51.8	14.2	7.00e-07	0	39	0	95420416	66	5942
2026-01-14 10:06:35.41	166.27	12.20	-47.9	-51.7	14.3	0.00e+00	0	39	0	102760448	66	5882
2026-01-14 10:06:39.41	166.33	12.59	-47.9	-51.6	14.3	0.00e+00	0	39	0	110100480	66	5830
2026-01-14 10:06:43.40	166.39	12.98	-47.7	-51.4	14.6	0.00e+00	0	39	0	118489088	66	5706
2026-01-14 10:06:47.39	166.46	13.37	-47.8	-51.3	14.6	0.00e+00	0	39	0	125829120	66	5655
2026-01-14 10:06:51.38	166.52	13.77	-47.6	-51.2	14.8	0.00e+00	0	39	0	133169152	66	5538
2026-01-14 10:06:55.38	166.59	14.18	-47.5	-50.9	15.1	0.00e+00	0	39	0	140509184	66	5364
2026-01-14 10:06:59.37	166.66	14.60	-47.3	-50.5	15.5	0.00e+00	0	39	0	147849216	66	5153
2026-01-14 10:07:03.36	166.73	15.02	-47.4	-50.7	15.4	1.75e-05	0	39	0	155189248	66	5232
2026-01-14 10:07:07.35	166.80	15.46	-47.4	-50.5	15.5	0.00e+00	0	39	0	162529280	66	5150
2026-01-14 10:07:11.34	166.87	15.90	-47.5	-50.7	15.4	0.00e+00	0	40	0	170917888	66	5226
2026-01-14 10:07:15.33	166.94	16.34	-47.3	-50.5	15.5	0.00e+00	0	39	0	178257920	66	5148
2026-01-14 10:07:19.33	167.02	16.80	-47.3	-50.5	15.6	0.00e+00	0	39	0	185597952	66	5130
2026-01-14 10:07:23.33	167.10	17.26	-47.3	-50.6	15.5	0.00e+00	0	39	0	192937984	66	5165
2026-01-14 10:07:27.32	167.18	17.74	-47.1	-50.2	15.9	0.00e+00	0	40	0	200278016	66	4932
2026-01-14 10:07:31.31	167.27	18.22	-46.9	-50.0	16.1	0.00e+00	0	39	0	207618048	65	5136
2026-01-14 10:07:35.30	167.35	18.71	-46.9	-50.0	16.1	0.00e+00	0	40	0	214958080	65	5113
2026-01-14 10:07:39.30	167.44	19.21	-46.8	-49.8	16.3	0.00e+00	0	39	0	222298112	65	5010
2026-01-14 10:07:43.29	167.53	19.73	-46.7	-49.6	16.4	0.00e+00	0	40	0	230686720	65	4915
2026-01-14 10:07:47.28	167.62	20.25	-46.8	-49.7	16.4	0.00e+00	0	39	0	238026752	65	4955
2026-01-14 10:07:51.27	167.72	20.78	-46.8	-49.8	16.3	0.00e+00	0	40	0	245366784	65	5031
2026-01-14 10:07:55.26	167.82	21.33	-46.9	-49.9	16.2	0.00e+00	0	40	0	252706816	65	5050
2026-01-14 10:07:59.25	167.92	21.89	-46.9	-49.8	16.3	0.00e+00	0	39	0	260046848	65	5015
2026-01-14 10:08:03.24	168.03	22.46	-46.8	-49.8	16.3	0.00e+00	0	40	0	267386880	65	4995
2026-01-14 10:08:07.24	168.14	23.04	-46.9	-49.8	16.3	0.00e+00	0	39	0	274726912	65	5029
2026-01-14 10:08:11.24	168.25	23.64	-47.0	-50.0	16.1	0.00e+00	0	40	0	283115520	65	5125
2026-01-14 10:08:15.23	168.37	24.25	-47.1	-50.2	15.9	0.00e+00	0	39	0	290455552	65	5243
2026-01-14 10:08:19.24	168.49	24.88	-47.2	-50.3	15.9	0.00e+00	0	40	0	297795584	65	5284
2026-01-14 10:08:23.24	168.61	25.52	-47.3	-50.5	15.7	0.00e+00	0	40	0	305135616	65	5421
2026-01-14 10:08:27.23	168.74	26.18	-47.4	-50.5	15.7	0.00e+00	0	39	0	312475648	65	5435
2026-01-14 10:08:31.22	168.88	26.85	-47.5	-50.7	15.5	0.00e+00	0	39	0	319815680	65	5533
2026-01-14 10:08:35.21	169.02	27.54	-47.8	-51.0	15.2	7.00e-07	0	39	0	328204288	66	5408
2026-01-14 10:08:39.20	169.16	28.24	-48.1	-51.5	14.7	7.00e-07	0	39	0	335544320	66	5729
2026-01-14 10:08:43.19	169.32	28.97	-48.4	-52.0	14.2	2.20e-06	0	39	0	342884352	67	5748
2026-01-14 10:08:47.18	169.48	29.71	-48.5	-52.2	14.0	7.00e-07	0	40	0	350224384	67	5876
2026-01-14 10:08:51.17	169.64	30.48	-48.5	-52.3	14.0	0.00e+00	0	40	0	357564416	67	5925
2026-01-14 10:08:55.16	169.81	31.26	-48.7	-52.5	13.9	5.30e-06	0	40	0	364904448	68	5757
2026-01-14 10:08:59.15	170.00	32.07	-48.9	-52.7	13.6	6.80e-06	0	40	0	372244480	68	5923
2026-01-14 10:09:03.14	170.19	32.90	-48.8	-52.6	13.8	6.10e-06	0	40	0	379584512	68	5791
2026-01-14 10:09:07.13	170.39	33.75	-48.6	-52.3	14.1	7.00e-07	0	40	0	387973120	68	5614
2026-01-14 10:09:11.13	170.60	34.62	-47.5	-50.6	15.6	0.00e+00	0	40	0	395313152	67	4919
2026-01-14 10:09:15.12	170.82	35.52	-47.2	-50.2	16.1	0.00e+00	0	40	0	402653184	66	4927
2026-01-14 10:09:19.11	171.05	36.45	-46.9	-49.7	16.4	0.00e+00	0	40	0	409993216	65	4968
2026-01-14 10:09:23.10	171.29	37.40	-46.6	-49.4	16.8	0.00e+00	0	40	0	417333248	65	4775
2026-01-14 10:09:27.10	171.55	38.38	-46.5	-49.3	17.0	0.00e+00	0	39	0	424673280	64	4984
2026-01-14 10:09:31.09	171.83	39.39	-46.8	-49.6	16.6	0.00e+00	0	40	0	432013312	64	5174
2026-01-14 10:09:35.08	172.12	40.43	-47.1	-50.0	16.2	0.00e+00	0	40	0	440401920	65	5152
2026-01-14 10:09:39.07	172.43	41.49	-47.6	-50.7	15.6	0.00e+00	0	39	0	447741952	66	5255
2026-01-14 10:09:43.07	172.76	42.59	-47.9	-51.1	15.2	0.00e+00	0	40	0	455081984	66	5484
2026-01-14 10:09:47.06	173.12	43.73	-47.7	-50.8	15.5	0.00e+00	0	40	0	462422016	66	5316
2026-01-14 10:09:51.05	173.50	44.89	-47.8	-51.0	15.3	0.00e+00	0	40	0	469762048	66	5424
2026-01-14 10:09:55.05	173.90	46.09	-48.6	-52.2	14.1	7.00e-07	0	40	0	477102080	67	5901
2026-01-14 10:09:59.03	174.34	47.32	-48.9	-52.7	13.8	1.50e-06	0	40	0	484442112	68	5866
2026-01-14 10:10:03.02	174.82	48.59	-49.1	-53.0	13.5	1.44e-05	0	40	0	492830720	69	5748
2026-01-14 10:10:07.01	175.33	49.89	-48.2	-51.5	15.0	0.00e+00	0	40	0	500170752	68	5129
2026-01-14 10:10:11.00	175.89	51.23	-46.9	-49.8	16.4	0.00e+00	0	40	0	507510784	65	4993
2026-01-14 10:10:14.99	176.50	52.60	-46.0	-48.5	17.8	0.00e+00	0	40	0	514850816	63	4865
2026-01-14 10:10:18.97	177.17	54.01	-45.3	-47.7	18.6	0.00e+00	0	39	0	522190848	62	4682
2026-01-14 10:10:22.97	177.91	55.45	-45.0	-47.3	18.9	0.00e+00	0	40	0	529530880	62	4452
2026-01-14 10:10:26.96	178.73	56.93	-46.1	-48.6	17.7	0.00e+00	0	39	0	536870912	62	5177
2026-01-14 10:10:30.96	179.64	58.45	-45.8	-48.3	18.0	0.00e+00	0	40	0	544210944	62	5008
2026-01-14 10:10:34.95	180.66	60.00	-46.0	-48.5	17.8	0.00e+00	0	40	0	552599552	63	4841
2026-01-14 10:10:38.95	181.82	61.57	-45.4	-47.8	18.5	0.00e+00	0	40	0	559939584	62	4706
2026-01-14 10:10:42.94	183.12	63.18	-45.3	-47.7	18.6	0.00e+00	0	40	0	567279616	62	4655
2026-01-14 10:10:46.93	184.62	64.80	-47.2	-50.1	16.2	0.00e+00	0	40	0	574619648	65	5218
2026-01-14 10:10:50.92	186.34	66.44	-47.2	-50.2	16.1	0.00e+00	0	40	0	581959680	65	5227
2026-01-14 10:10:54.92	188.36	68.10	-47.5	-50.6	15.7	0.00e+00	0	40	0	589299712	66	5169
2026-01-14 10:10:58.92	190.73	69.76	-47.1	-50.0	16.2	0.00e+00	0	40	0	597688320	65	5138
2026-01-14 10:11:02.91	193.55	71.40	-47.3	-50.2	16.1	0.00e+00	0	39	0	605028352	65	5251
2026-01-14 10:11:06.90	196.94	73.02	-48.1	-51.5	14.9	0.00e+00	0	40	0	612368384	67	5420
2026-01-14 10:11:10.90	201.08	74.60	-48.9	-52.7	13.8	4.50e-06	0	40	0	619708416	69	5581
2026-01-14 10:11:14.88	206.15	76.10	-49.0	-52.8	13.7	3.80e-06	0	40	0	627048448	68	5932
2026-01-14 10:11:18.87	212.45	77.48	-49.7	-54.0	12.4	2.27e-04	0	40	0	634388480	70	6074
2026-01-14 10:11:22.86	220.24	78.69	-47.7	-50.8	15.6	0.00e+00	0	40	0	641728512	67	5003
2026-01-14 10:11:26.86	229.74	79.66	-47.3	-50.3	16.1	0.00e+00	0	40	0	649068544	66	4987
2026-01-14 10:11:30.85	240.83	80.30	-48.0	-51.3	15.0	0.00e+00	0	40	0	657457152	66	5629
2026-01-14 10:11:34.84	253.00	80.54	-47.3	-50.4	15.9	0.00e+00	0	40	0	664797184	66	5088
2026-01-14 10:11:38.83	265.23	80.35	-47.0	-49.8	16.4	0.00e+00	0	40	0	672137216	66	4752
2026-01-14 10:11:42.82	276.51	79.76	-47.4	-50.4	15.9	0.00e+00	0	39	0	679477248	65	5393
2026-01-14 10:11:46.81	286.22	78.84	-46.7	-49.4	16.9	0.00e+00	0	40	0	686817280	64	5090
2026-01-14 10:11:50.81	294.24	77.65	-48.6	-52.2	14.1	7.00e-07	0	39	0	694157312	67	5921
2026-01-14 10:11:54.80	300.72	76.29	-49.9	-54.6	12.0	1.74e-04	0	39	0	701497344	70	6501
2026-01-14 10:11:58.80	305.96	74.81	-48.5	-52.1	14.4	5.30e-06	0	40	0	709885952	69	5176
2026-01-14 10:12:02.79	310.20	73.25	-48.8	-52.4	14.2	2.20e-06	0	39	0	717225984	68	5663
2026-01-14 10:12:06.78	313.68	71.63	-48.2	-51.5	15.1	0.00e+00	0	40	0	724566016	68	5104
2026-01-14 10:12:10.77	316.57	69.99	-48.1	-51.5	14.8	0.00e+00	0	40	0	731906048	67	5412
2026-01-14 10:12:14.76	318.99	68.34	-48.7	-52.4	14.2	1.50e-06	0	40	0	739246080	68	5660
2026-01-14 10:12:18.76	321.04	66.69	-47.6	-50.7	15.7	0.00e+00	0	40	0	746586112	67	4940
2026-01-14 10:12:22.75	322.80	65.05	-47.6	-50.7	15.7	0.00e+00	0	40	0	753926144	66	5233
2026-01-14 10:12:26.74	324.33	63.43	-46.2	-48.8	17.5	0.00e+00	0	40	0	762314752	63	5035
2026-01-14 10:12:30.73	325.66	61.83	-45.2	-47.5	18.7	0.00e+00	0	40	0	769654784	61	4825
2026-01-14 10:12:34.72	326.83	60.26	-47.7	-51.0	15.4	0.00e+00	0	39	0	776994816	66	5403
2026-01-14 10:12:38.71	327.86	58.71	-48.4	-52.0	14.4	0.00e+00	0	39	0	784334848	67	5724
2026-01-14 10:12:42.70	328.79	57.20	-47.4	-50.4	15.9	0.00e+00	0	40	0	791674880	66	5074
2026-01-14 10:12:46.69	329.62	55.72	-46.6	-49.3	17.0	0.00e+00	0	40	0	799014912	64	5011
2026-01-14 10:12:50.68	330.37	54.27	-45.3	-47.7	18.6	0.00e+00	0	40	0	806354944	62	4681
2026-01-14 10:12:54.67	331.05	52.87	-46.6	-49.3	17.2	0.00e+00	0	40	0	813694976	63	5288
2026-01-14 10:12:58.66	331.67	51.49	-48.4	-52.0	14.4	0.00e+00	0	40	0	822083584	67	5734
2026-01-14 10:13:02.65	332.24	50.15	-50.3	-56.1	10.4	6.11e-03	0	40	0	829423616	71	7311
2026-01-14 10:13:06.63	332.76	48.85	-50.3	-55.3	11.2	1.73e-03	0	40	0	836763648	71	6715
2026-01-14 10:13:10.64	333.24	47.58	-48.5	-52.0	14.5	1.50e-06	0	40	0	844103680	69	5142
2026-01-14 10:13:14.62	333.68	46.35	-48.8	-52.5	14.0	4.50e-06	0	40	0	851443712	69	5444
2026-01-14 10:13:18.62	334.10	45.15	-46.8	-49.5	16.8	0.00e+00	0	40	0	858783744	65	4852
2026-01-14 10:13:22.61	334.48	43.99	-46.4	-49.0	17.3	0.00e+00	0	40	0	866123776	64	4845
2026-01-14 10:13:26.61	334.84	42.85	-48.0	-51.6	14.8	7.00e-07	0	40	0	874512384	66	5794
2026-01-14 10:13:30.60	335.18	41.76	-46.2	-49.0	17.3	0.00e+00	0	40	0	881852416	64	4831
2026-01-14 10:13:34.58	335.49	40.69	-47.4	-50.6	15.7	0.00e+00	0	40	0	889192448	65	5474
2026-01-14 10:13:38.56	335.79	39.66	-48.7	-52.5	14.1	3.80e-06	0	40	0	896532480	68	5731
2026-01-14 10:13:42.56	336.07	38.65	-47.7	-50.9	15.4	0.00e+00	0	40	0	903872512	67	5096
2026-01-14 10:13:46.55	336.33	37.67	-48.0	-51.4	14.9	0.00e+00	0	40	0	911212544	66	5700
2026-01-14 10:13:50.55	336.58	36.71	-49.5	-53.9	12.6	6.25e-05	0	40	0	918552576	69	6358
2026-01-14 10:13:54.53	336.81	35.79	-48.3	-51.9	14.5	2.20e-06	0	40	0	925892608	68	5392
2026-01-14 10:13:58.52	337.04	34.89	-47.7	-50.9	15.4	0.00e+00	0	40	0	934281216	67	5087
2026-01-14 10:14:02.52	337.25	34.01	-47.9	-51.4	14.9	0.00e+00	0	39	0	941621248	67	5390
2026-01-14 10:14:06.51	337.45	33.16	-49.2	-53.7	12.9	4.50e-05	0	40	0	948961280	68	6588
2026-01-14 10:14:10.52	337.65	32.33	-49.0	-53.4	13.1	3.43e-05	0	40	0	956301312	69	6026
2026-01-14 10:14:14.52	337.83	31.52	-48.7	-53.1	13.4	1.52e-05	0	40	0	963641344	69	5795
2026-01-14 10:14:18.51	338.01	30.74	-48.6	-52.8	13.7	6.80e-06	0	39	0	970981376	69	5604
2026-01-14 10:14:22.51	338.18	29.97	-48.0	-51.6	14.8	0.00e+00	0	40	0	978321408	68	5206
2026-01-14 10:14:26.50	338.34	29.23	-47.3	-50.5	15.8	0.00e+00	0	39	0	986710016	66	5117
2026-01-14 10:14:30.50	338.50	28.50	-47.4	-50.5	15.8	0.00e+00	0	40	0	994050048	66	5112
2026-01-14 10:14:34.50	338.64	27.79	-47.3	-50.4	15.9	0.00e+00	0	40	0	1001390080	66	5074
2026-01-14 10:14:38.49	338.79	27.10	-46.9	-49.8	16.4	0.00e+00	0	40	0	1008730112	65	5038
2026-01-14 10:14:42.48	338.93	26.43	-46.7	-49.6	16.6	0.00e+00	0	40	0	1016070144	65	4906
2026-01-14 10:14:46.48	339.06	25.77	-46.8	-49.7	16.5	0.00e+00	0	40	0	1023410176	65	4955
2026-01-14 10:14:50.48	339.19	25.13	-46.6	-49.5	16.7	0.00e+00	0	40	0	1031798784	65	4845
2026-01-14 10:14:54.48	339.31	24.51	-46.6	-49.4	16.8	0.00e+00	0	40	0	1039138816	65	4767
2026-01-14 10:14:58.48	339.43	23.89	-46.3	-49.0	17.2	0.00e+00	0	40	0	1046478848	64	4848
2026-01-14 10:15:02.48	339.55	23.30	-46.2	-49.0	17.1	0.00e+00	0	40	0	1053818880	64	4865
2026-01-14 10:15:06.48	339.66	22.71	-45.9	-48.6	17.6	0.00e+00	0	40	0	1061158912	63	4904
2026-01-14 10:15:10.48	339.77	22.14	-45.9	-48.5	17.7	0.00e+00	0	40	0	1068498944	63	4840
2026-01-14 10:15:14.48	339.88	21.58	-45.8	-48.6	17.6	0.00e+00	0	40	0	1075838976	63	4889
2026-01-14 10:15:18.49	339.98	21.03	-45.7	-48.8	17.4	0.00e+00	0	40	0	1084227584	63	4999
2026-01-14 10:15:22.49	340.08	20.50	-46.0	-49.2	17.1	0.00e+00	0	40	0	1091567616	63	5219
2026-01-14 10:15:26.49	340.17	19.97	-46.4	-49.3	16.9	0.00e+00	0	40	0	1098907648	63	5331
2026-01-14 10:15:30.49	340.27	19.46	-46.6	-49.5	16.7	0.00e+00	0	40	0	1106247680	63	5453
2026-01-14 10:15:34.48	340.36	18.96	-46.5	-49.6	16.5	0.00e+00	0	40	0	1113587712	64	5192
2026-01-14 10:15:38.48	340.45	18.47	-46.7	-49.7	16.4	0.00e+00	0	40	0	1120927744	64	5270
2026-01-14 10:15:42.48	340.54	17.98	-46.9	-49.9	16.2	0.00e+00	0	40	0	1129316352	64	5361
2026-01-14 10:15:46.48	340.62	17.51	-46.9	-49.9	16.2	0.00e+00	0	40	0	1136656384	64	5366
2026-01-14 10:15:50.48	340.70	17.05	-47.0	-50.1	16.0	0.00e+00	0	40	0	1143996416	64	5523
2026-01-14 10:15:54.49	340.78	16.59	-47.1	-50.2	15.9	0.00e+00	0	40	0	1151336448	65	5261
2026-01-14 10:15:58.49	340.86	16.14	-47.1	-50.2	15.9	0.00e+00	0	40	0	1158676480	65	5244
2026-01-14 10:16:02.50	340.94	15.70	-47.1	-50.3	15.7	0.00e+00	0	40	0	1166016512	65	5337
2026-01-14 10:16:06.49	341.01	15.27	-46.9	-50.2	15.8	0.00e+00	0	40	0	1173356544	65	5275
2026-01-14 10:16:10.49	341.09	14.84	-46.8	-50.3	15.8	0.00e+00	0	39	0	1181745152	65	5327
2026-01-14 10:16:14.49	341.16	14.43	-46.8	-50.4	15.7	0.00e+00	0	40	0	1189085184	65	5378
2026-01-14 10:16:18.50	341.23	14.02	-46.8	-50.4	15.7	0.00e+00	0	40	0	1196425216	65	5351
2026-01-14 10:16:22.50	341.30	13.61	-46.6	-50.4	15.6	0.00e+00	0	40	0	1203765248	65	5400
2026-01-14 10:16:26.51	341.37	13.22	-46.4	-50.6	15.5	0.00e+00	0	40	0	1211105280	64	5801
2026-01-14 10:16:30.52	341.43	12.82	-46.2	-50.5	15.5	0.00e+00	0	40	0	1218445312	64	5765
2026-01-14 10:16:34.52	341.50	12.44	-46.1	-50.4	15.6	0.00e+00	0	40	0	1226833920	64	5695
2026-01-14 10:16:38.53	341.56	12.06	-46.2	-50.3	15.7	0.00e+00	0	40	0	1234173952	64	5631
2026-01-14 10:16:42.53	341.62	11.69	-46.5	-50.4	15.6	0.00e+00	0	40	0	1241513984	64	5675
2026-01-14 10:16:46.52	341.69	11.32	-46.7	-50.4	15.6	0.00e+00	0	40	0	1248854016	64	5678
2026-01-14 10:16:50.52	341.75	10.96	-47.0	-50.6	15.3	0.00e+00	0	40	0	1256194048	64	5822
2026-01-14 10:16:54.53	341.80	10.61	-47.0	-50.5	15.4	0.00e+00	0	40	0	1263534080	64	5788
2026-01-14 10:16:58.53	341.86	10.25	-46.9	-50.6	15.3	0.00e+00	0	40	0	1271922688	64	5834
2026-01-14 10:17:02.53	341.92	9.91	-46.6	-50.5	15.4	0.00e+00	0	40	0	1279262720	64	5785
2026-01-14 10:17:06.54	341.98	9.57	-46.6	-50.6	15.3	0.00e+00	0	40	0	1286602752	64	5816
2026-01-14 10:17:10.53	342.03	9.23	-46.6	-50.6	15.2	0.00e+00	0	40	0	1293942784	64	5848
2026-01-14 10:17:14.53	342.09	8.90	-49.9	-67.3	3.8	5.33e-01	0	40	104	1300234240	71	26490
2026-01-14 10:17:18.51	342.14	8.57	-52.1	-67.7	3.8	1.49e+00	0	40	104	1300234240	75	22027
2026-01-14 10:17:22.50	342.19	8.25	-52.5	-67.8	3.8	1.49e+00	0	40	104	1300234240	75	22461
2026-01-14 10:17:26.48	342.24	7.93	-52.7	-67.9	3.8	1.49e+00	0	40	104	1300234240	76	21344
2026-01-14 10:17:30.46	342.30	7.62	-52.7	-67.9	3.8	1.49e+00	0	40	104	1300234240	76	21385
2026-01-14 10:17:34.45	342.35	7.31	-52.8	-67.9	3.8	1.49e+00	0	40	104	1300234240	76	21381
2026-01-14 10:17:38.45	342.40	7.00	-52.8	-67.9	3.8	1.49e+00	0	40	104	1300234240	76	21290
2026-01-14 10:17:42.44	342.45	6.69	-52.5	-67.8	3.8	1.49e+00	0	40	104	1300234240	76	21208
2026-01-14 10:17:46.43	342.49	6.39	-52.5	-67.9	3.8	1.49e+00	0	40	104	1300234240	76	21290
2026-01-14 10:17:50.42	342.54	6.10	-52.5	-67.8	3.8	1.49e+00	0	40	104	1300234240	76	21249
2026-01-14 10:17:54.41	342.59	5.80	-52.4	-67.8	3.8	1.49e+00	0	40	104	1300234240	76	21170
