passes_logs/2026/01/14/T1/T1__20260114_125809_AQUA_rec.log

#Pass ID: 20260114_125809_AQUA
#Satellite: AQUA
#Configuration: AQUA
#almurnet v.1.7.20251203
#Start time: 2026-01-14 12:58:11

#Version: 2.0.20230620
#Station: T1
#Location: 37.570604 lon 55.790049 lat
#TLE: 1 27424U 02022A   26013.58555111  .00000773  00000+0  16469-3 0  9993
#TLE: 2 27424  98.4079 339.9892 0002045  80.0365 334.6894 14.61818766260681

#Time	Az	El	Level	Level2	SNR	BER	BlckErr	Temp	State	Recorded	gain1	gain2
2026-01-14 12:58:11.49	206.49	5.13	-53.1	-73.4	3.8	7.44e-01	0	41	104	0	77	38126
2026-01-14 12:58:14.53	206.77	5.32	-53.2	-73.5	3.8	7.47e-01	0	41	104	0	77	38548
2026-01-14 12:58:17.54	207.04	5.52	-53.2	-73.4	3.8	7.48e-01	0	41	104	0	77	38088
2026-01-14 12:58:20.52	207.33	5.72	-53.1	-73.4	3.8	7.49e-01	0	41	104	0	77	37843
2026-01-14 12:58:23.50	207.61	5.91	-53.1	-73.1	3.8	7.43e-01	0	41	104	0	77	36924
2026-01-14 12:58:26.48	207.90	6.11	-53.1	-73.2	3.8	7.45e-01	0	41	104	0	77	37123
2026-01-14 12:58:29.47	208.19	6.31	-53.2	-73.2	3.8	7.47e-01	0	42	104	0	77	37248
2026-01-14 12:58:32.52	208.49	6.51	-53.2	-72.8	3.8	7.41e-01	0	42	104	0	77	35566
2026-01-14 12:58:35.40	208.78	6.71	-53.1	-70.3	4.1	7.36e-01	0	42	104	0	77	26713
2026-01-14 12:58:38.53	209.11	6.92	-53.1	-71.1	3.9	7.41e-01	0	42	104	0	77	29168
2026-01-14 12:58:41.36	209.40	7.11	-53.1	-72.9	3.8	7.46e-01	0	42	104	0	77	35797
2026-01-14 12:58:44.49	209.73	7.32	-53.1	-70.6	4.0	7.38e-01	0	42	104	0	77	27641
2026-01-14 12:58:47.37	210.04	7.52	-53.0	-68.8	4.1	7.19e-01	0	42	104	0	77	22350
2026-01-14 12:58:50.57	210.39	7.74	-53.0	-69.1	4.5	7.26e-01	0	42	104	0	77	23258
2026-01-14 12:58:53.42	210.70	7.94	-53.1	-72.9	3.8	7.46e-01	0	42	104	0	77	35889
2026-01-14 12:58:56.54	211.05	8.16	-52.5	-62.5	9.7	6.28e-01	0	42	0	1572864	77	10788
2026-01-14 12:58:59.38	211.37	8.36	-50.2	-55.0	17.2	6.06e-01	0	42	0	6815744	72	6121
2026-01-14 12:59:02.55	211.74	8.59	-48.9	-52.7	19.0	6.06e-01	0	43	0	12582912	69	5573
2026-01-14 12:59:05.47	212.08	8.79	-49.8	-54.2	18.2	6.06e-01	0	42	0	18350080	70	6272
2026-01-14 12:59:08.66	212.46	9.02	-51.5	-58.4	14.0	6.07e-01	0	43	0	24117248	73	8486
2026-01-14 12:59:11.50	212.81	9.23	-51.4	-58.2	14.5	6.09e-01	0	43	0	29360128	73	8305
2026-01-14 12:59:14.91	213.22	9.47	-50.7	-55.8	16.5	6.05e-01	0	43	0	36175872	73	6317
2026-01-14 12:59:17.63	213.56	9.67	-50.6	-55.8	16.7	6.07e-01	0	43	0	40894464	73	6284
2026-01-14 12:59:20.96	213.99	9.91	-49.8	-54.2	18.2	6.05e-01	0	43	0	47185920	71	5896
2026-01-14 12:59:23.68	214.34	10.11	-49.3	-53.4	19.0	6.08e-01	0	43	0	52428800	70	5715
2026-01-14 12:59:26.95	214.77	10.35	-48.6	-52.2	20.2	6.07e-01	0	43	0	58720256	69	5241
2026-01-14 12:59:29.67	215.13	10.56	-48.5	-52.0	20.4	6.06e-01	0	43	0	63438848	68	5441
2026-01-14 12:59:33.03	215.58	10.81	-48.5	-52.0	20.4	6.06e-01	0	43	0	69730304	68	5431
2026-01-14 12:59:35.87	215.97	11.02	-48.5	-52.0	20.4	6.06e-01	0	43	0	74973184	68	5426
2026-01-14 12:59:39.26	216.45	11.28	-48.4	-51.8	20.6	6.06e-01	0	43	0	81788928	68	5333
2026-01-14 12:59:41.96	216.83	11.48	-48.3	-51.6	20.8	6.06e-01	0	43	0	86507520	68	5204
2026-01-14 12:59:45.23	217.31	11.73	-48.4	-51.7	20.7	6.05e-01	0	43	0	92798976	68	5259
2026-01-14 12:59:47.94	217.70	11.94	-48.4	-51.7	20.8	6.05e-01	0	43	0	98041856	68	5235
2026-01-14 12:59:51.22	218.19	12.19	-48.2	-51.6	20.9	6.06e-01	0	43	0	103809024	68	5160
2026-01-14 12:59:53.94	218.61	12.40	-48.3	-51.7	20.8	6.07e-01	0	43	0	109051904	68	5234
2026-01-14 12:59:57.19	219.11	12.65	-48.3	-51.5	20.9	6.07e-01	0	43	0	115343360	68	5134
2026-01-14 13:00:00.17	219.57	12.88	-48.3	-51.5	20.9	6.07e-01	0	43	0	120586240	68	5151
2026-01-14 13:00:03.22	220.06	13.11	-48.2	-51.4	21.1	6.06e-01	0	43	0	126353408	68	5078
2026-01-14 13:00:06.13	220.53	13.34	-48.2	-51.3	21.2	6.07e-01	0	43	0	132120576	68	5009
2026-01-14 13:00:09.46	221.08	13.60	-48.2	-51.4	21.1	6.05e-01	0	43	0	138412032	68	5085
2026-01-14 13:00:12.19	221.54	13.82	-48.2	-51.5	21.0	6.07e-01	0	43	0	143130624	68	5105
2026-01-14 13:00:15.49	222.10	14.08	-48.1	-51.3	21.2	6.08e-01	0	43	0	149422080	68	5008
2026-01-14 13:00:18.18	222.57	14.29	-48.1	-51.2	21.3	6.09e-01	0	43	0	154664960	68	4976
2026-01-14 13:00:21.47	223.15	14.55	-48.1	-51.2	21.3	6.07e-01	0	43	0	160956416	68	4947
2026-01-14 13:00:24.25	223.65	14.77	-47.8	-50.9	21.5	6.08e-01	0	43	0	166199296	67	5052
2026-01-14 13:00:27.53	224.25	15.03	-47.9	-50.9	21.5	6.04e-01	0	43	0	171966464	67	5092
2026-01-14 13:00:30.42	224.78	15.26	-48.0	-51.0	21.4	6.07e-01	0	43	0	177733632	67	5140
2026-01-14 13:00:33.83	225.43	15.53	-47.8	-50.7	21.7	6.07e-01	0	43	0	184025088	67	4980
2026-01-14 13:00:36.55	225.95	15.74	-47.9	-50.8	21.6	6.07e-01	0	43	0	189267968	67	5028
2026-01-14 13:00:39.82	226.59	16.00	-47.9	-50.9	21.6	6.08e-01	0	43	0	195035136	67	5054
2026-01-14 13:00:42.56	227.13	16.22	-48.0	-51.0	21.5	6.08e-01	0	43	0	200278016	67	5122
2026-01-14 13:00:45.84	227.79	16.48	-47.8	-50.8	21.7	6.06e-01	0	43	0	206569472	67	4995
2026-01-14 13:00:49.08	228.46	16.73	-47.9	-50.9	21.6	6.08e-01	0	43	0	212336640	67	5067
2026-01-14 13:00:52.00	229.07	16.96	-47.8	-50.8	21.7	6.08e-01	0	43	0	218103808	67	5006
2026-01-14 13:00:56.00	229.92	17.28	-47.7	-50.7	21.8	6.08e-01	0	43	0	225443840	67	4959
2026-01-14 13:00:58.92	230.55	17.50	-47.8	-50.8	21.7	6.09e-01	0	43	0	231211008	67	4992
2026-01-14 13:01:01.91	231.21	17.74	-47.7	-50.7	21.8	6.08e-01	0	43	0	236453888	67	4950
2026-01-14 13:01:04.90	231.88	17.97	-47.8	-50.8	21.7	6.06e-01	0	43	0	242221056	67	4990
2026-01-14 13:01:08.15	232.61	18.22	-47.8	-50.7	21.8	6.07e-01	0	43	0	248512512	67	4965
2026-01-14 13:01:11.13	233.30	18.45	-47.7	-50.8	21.7	6.08e-01	0	43	0	253755392	67	5000
2026-01-14 13:01:14.67	234.13	18.72	-47.7	-50.8	21.7	6.09e-01	0	43	0	260571136	67	5013
2026-01-14 13:01:17.70	234.86	18.94	-47.9	-50.8	21.7	6.05e-01	0	43	0	266338304	67	5032
2026-01-14 13:01:21.79	235.85	19.25	-47.8	-50.7	21.7	6.07e-01	0	43	0	273678336	67	4979
2026-01-14 13:01:24.63	236.56	19.46	-47.8	-50.7	21.8	6.07e-01	0	43	0	278921216	67	4974
2026-01-14 13:01:28.61	237.56	19.75	-47.8	-50.8	21.7	6.07e-01	0	43	0	286785536	67	5027
2026-01-14 13:01:31.45	238.29	19.95	-47.7	-50.8	21.8	6.07e-01	0	43	0	292028416	67	4996
2026-01-14 13:01:35.44	239.32	20.23	-47.8	-50.8	21.7	6.07e-01	0	43	0	299368448	67	5024
2026-01-14 13:01:38.31	240.08	20.43	-47.9	-50.9	21.6	6.07e-01	0	43	0	304611328	67	5066
2026-01-14 13:01:42.01	241.08	20.68	-47.8	-50.8	21.7	6.08e-01	0	43	0	311951360	67	5007
2026-01-14 13:01:44.99	241.89	20.88	-48.0	-50.9	21.6	6.06e-01	0	43	0	317194240	67	5094
2026-01-14 13:01:48.56	242.88	21.11	-48.0	-50.9	21.6	6.06e-01	0	43	0	324009984	67	5097
2026-01-14 13:01:51.68	243.75	21.31	-48.2	-51.2	21.4	6.07e-01	0	43	0	329777152	67	5227
2026-01-14 13:01:54.52	244.56	21.48	-48.0	-50.9	21.6	6.08e-01	0	43	0	335020032	67	5084
2026-01-14 13:01:57.65	245.46	21.67	-47.9	-50.9	21.6	6.05e-01	0	44	0	341311488	67	5088
2026-01-14 13:02:00.60	246.31	21.85	-48.0	-51.1	21.5	6.09e-01	0	43	0	346554368	67	5160
2026-01-14 13:02:03.77	247.25	22.03	-48.0	-51.0	21.6	6.09e-01	0	43	0	352321536	67	5103
2026-01-14 13:02:06.73	248.13	22.19	-48.0	-51.2	21.5	6.07e-01	0	43	0	358088704	67	5223
2026-01-14 13:02:09.95	249.10	22.36	-47.9	-51.1	21.5	6.08e-01	0	43	0	364380160	67	5169
2026-01-14 13:02:12.86	249.98	22.51	-48.1	-51.1	21.5	6.07e-01	0	44	0	369623040	67	5164
2026-01-14 13:02:16.39	251.06	22.68	-48.1	-51.1	21.5	6.06e-01	0	44	0	376438784	67	5172
2026-01-14 13:02:19.17	251.93	22.81	-47.9	-51.0	21.6	6.08e-01	0	44	0	381681664	67	5106
2026-01-14 13:02:22.53	252.98	22.96	-48.0	-51.0	21.6	6.07e-01	0	44	0	387448832	67	5147
2026-01-14 13:02:25.29	253.85	23.07	-47.9	-50.9	21.6	6.06e-01	0	43	0	392691712	67	5076
2026-01-14 13:02:28.78	254.96	23.21	-48.0	-51.0	21.6	6.08e-01	0	43	0	399507456	67	5109
2026-01-14 13:02:31.48	255.83	23.31	-48.0	-51.1	21.5	6.06e-01	0	44	0	404226048	67	5208
2026-01-14 13:02:34.75	256.89	23.42	-48.0	-51.2	21.4	6.07e-01	0	43	0	410517504	67	5264
2026-01-14 13:02:37.47	257.77	23.51	-47.9	-51.0	21.6	6.06e-01	0	43	0	415760384	67	5112
2026-01-14 13:02:40.75	258.84	23.60	-48.2	-51.3	21.3	6.07e-01	0	43	0	422051840	67	5303
2026-01-14 13:02:43.48	259.74	23.67	-48.0	-50.9	21.6	6.07e-01	0	43	0	426770432	67	5096
2026-01-14 13:02:46.99	260.90	23.76	-48.0	-51.1	21.5	6.09e-01	0	43	0	433586176	67	5214
2026-01-14 13:02:49.72	261.81	23.81	-47.9	-50.9	21.7	6.07e-01	0	44	0	438829056	67	5072
2026-01-14 13:02:52.98	262.89	23.87	-48.0	-51.1	21.5	6.08e-01	0	43	0	444596224	67	5173
2026-01-14 13:02:55.71	263.81	23.91	-48.0	-51.0	21.6	6.06e-01	0	43	0	449839104	67	5147
2026-01-14 13:02:59.12	264.95	23.95	-48.1	-51.1	21.5	6.08e-01	0	44	0	456130560	67	5167
2026-01-14 13:03:01.82	265.85	23.97	-50.2	-72.5	3.9	7.43e-01	0	44	104	459276288	71	48682
2026-01-14 13:03:05.26	267.01	23.99	-49.9	-72.1	3.8	7.45e-01	0	43	104	459276288	71	46206
2026-01-14 13:03:07.98	267.93	24.00	-49.8	-72.1	3.8	7.47e-01	0	44	104	459276288	71	46233
2026-01-14 13:03:11.35	269.06	24.00	-49.8	-72.1	3.8	7.49e-01	0	43	104	459276288	71	46289
2026-01-14 13:03:14.05	269.97	23.99	-49.8	-72.1	3.8	7.50e-01	0	44	104	459276288	71	46239
2026-01-14 13:03:17.31	271.06	23.97	-49.8	-72.1	3.8	7.45e-01	0	44	104	459276288	71	46215
2026-01-14 13:03:20.16	272.02	23.95	-49.8	-72.1	3.8	7.45e-01	0	44	104	459276288	71	46059
2026-01-14 13:03:23.54	273.15	23.91	-49.8	-72.1	3.8	7.48e-01	0	44	104	459276288	71	46236
2026-01-14 13:03:26.30	274.07	23.86	-49.8	-72.1	3.8	7.46e-01	0	44	104	459276288	71	46257
2026-01-14 13:03:29.61	275.17	23.81	-49.8	-72.1	3.8	7.45e-01	0	44	104	459276288	71	46102
2026-01-14 13:03:32.31	276.07	23.75	-49.8	-72.1	3.8	7.43e-01	0	44	104	459276288	71	46222
2026-01-14 13:03:35.59	277.15	23.67	-49.9	-72.1	3.8	7.47e-01	0	44	104	459276288	71	46181
2026-01-14 13:03:38.29	278.04	23.60	-49.8	-72.0	3.8	7.49e-01	0	44	104	459276288	71	45893
2026-01-14 13:03:41.57	279.11	23.51	-49.8	-72.1	3.8	7.47e-01	0	43	104	459276288	71	46199
2026-01-14 13:03:44.28	279.99	23.42	-49.8	-72.1	3.8	7.45e-01	0	44	104	459276288	70	48773
2026-01-14 13:03:47.59	281.05	23.31	-48.8	-71.6	3.8	7.46e-01	0	44	104	459276288	69	49210
2026-01-14 13:03:50.31	281.92	23.21	-49.2	-72.1	3.8	7.44e-01	0	44	104	459276288	70	48841
2026-01-14 13:03:53.65	282.98	23.08	-49.3	-72.1	3.8	7.53e-01	0	44	104	459276288	69	51987
2026-01-14 13:03:56.35	283.83	22.96	-47.6	-72.2	3.8	7.46e-01	0	44	104	459276288	70	49525
2026-01-14 13:03:59.64	284.86	22.82	-49.0	-71.8	3.8	7.46e-01	0	44	104	459276288	69	50163
2026-01-14 13:04:02.34	285.70	22.69	-49.4	-71.6	3.8	7.44e-01	0	44	104	459276288	69	49056
2026-01-14 13:04:05.61	286.70	22.54	-49.6	-72.2	3.8	7.50e-01	0	44	104	459276288	70	49277
2026-01-14 13:04:08.30	287.52	22.40	-48.4	-71.4	3.8	7.46e-01	0	44	104	459276288	68	50612
2026-01-14 13:04:11.57	288.50	22.23	-49.0	-71.0	3.8	7.52e-01	0	44	104	459276288	67	51437
2026-01-14 13:04:14.27	289.30	22.08	-49.2	-72.1	3.8	7.47e-01	0	44	104	459276288	70	49187
2026-01-14 13:04:17.53	290.26	21.90	-48.8	-71.7	3.9	7.48e-01	0	44	104	459276288	69	49685
2026-01-14 13:04:20.26	291.05	21.74	-49.6	-72.1	3.8	7.46e-01	0	44	104	459276288	70	48728
2026-01-14 13:04:23.56	292.00	21.55	-49.5	-72.1	3.8	7.44e-01	0	44	104	459276288	70	49089
2026-01-14 13:04:26.26	292.77	21.38	-49.8	-71.7	3.8	7.45e-01	0	44	104	459276288	69	49644
2026-01-14 13:04:29.52	293.68	21.18	-49.4	-71.8	3.8	7.45e-01	0	44	104	459276288	69	49984
2026-01-14 13:04:32.22	294.43	21.01	-49.8	-71.6	3.8	7.43e-01	0	44	104	459276288	69	49135
2026-01-14 13:04:35.53	295.33	20.79	-49.7	-72.1	3.8	7.48e-01	0	44	104	459276288	70	48847
2026-01-14 13:04:38.31	296.08	20.61	-49.5	-72.2	3.9	7.47e-01	0	44	104	459276288	70	49521
2026-01-14 13:04:41.59	296.96	20.38	-49.6	-72.1	3.8	7.46e-01	0	44	104	459276288	70	48749
2026-01-14 13:04:44.30	297.67	20.20	-49.8	-72.1	3.8	7.49e-01	0	44	104	459276288	70	49046
2026-01-14 13:04:47.87	298.59	19.95	-49.3	-72.1	3.8	7.44e-01	0	44	104	459276288	70	48995
2026-01-14 13:04:50.56	299.27	19.75	-49.8	-72.1	3.9	7.48e-01	0	44	104	459276288	70	48941
2026-01-14 13:04:53.83	300.09	19.52	-49.8	-72.1	3.8	7.46e-01	0	44	104	459276288	70	48854
2026-01-14 13:04:56.64	300.79	19.31	-49.8	-72.2	3.8	7.50e-01	0	44	104	459276288	70	49764
2026-01-14 13:04:59.97	301.60	19.07	-49.6	-72.2	3.8	7.48e-01	0	44	104	459276288	70	49471
2026-01-14 13:05:02.68	302.25	18.87	-49.6	-72.3	3.8	7.46e-01	0	44	104	459276288	70	49897
2026-01-14 13:05:06.20	303.08	18.60	-49.7	-72.1	3.8	7.46e-01	0	44	104	459276288	70	48761
2026-01-14 13:05:09.10	303.75	18.39	-49.8	-72.1	3.8	7.48e-01	0	44	104	459276288	70	49112
2026-01-14 13:05:12.87	304.61	18.10	-49.3	-72.0	3.8	7.47e-01	0	44	104	459276288	70	48668
2026-01-14 13:05:15.57	305.22	17.89	-49.7	-72.1	3.8	7.45e-01	0	44	104	459276288	70	48828
2026-01-14 13:05:18.84	305.94	17.64	-49.8	-72.1	3.8	7.47e-01	0	44	104	459276288	70	49021
2026-01-14 13:05:21.53	306.52	17.43	-49.5	-72.2	3.9	7.47e-01	0	44	104	459276288	70	49371
2026-01-14 13:05:24.82	307.23	17.18	-49.8	-72.1	3.8	7.46e-01	0	44	104	459276288	70	48718
2026-01-14 13:05:27.51	307.79	16.97	-49.8	-72.1	3.8	7.46e-01	0	44	104	459276288	70	48841
2026-01-14 13:05:30.78	308.47	16.71	-49.7	-72.1	3.8	7.45e-01	0	44	104	459276288	70	48943
2026-01-14 13:05:33.48	309.02	16.50	-49.8	-72.2	3.8	7.44e-01	0	44	104	459276288	70	49296
2026-01-14 13:05:36.74	309.67	16.24	-49.8	-72.1	3.8	7.45e-01	0	44	104	459276288	70	48999
2026-01-14 13:05:39.68	310.25	16.01	-49.8	-71.9	3.8	7.45e-01	0	44	104	459276288	69	50605
2026-01-14 13:05:42.66	310.83	15.78	-48.7	-72.1	3.7	7.47e-01	0	44	104	459276288	70	48870
2026-01-14 13:05:45.64	311.40	15.55	-49.7	-72.0	3.8	7.47e-01	0	44	104	459276288	70	48619
2026-01-14 13:05:48.62	311.96	15.31	-49.6	-71.9	3.8	7.46e-01	0	44	104	459276288	69	50771
2026-01-14 13:05:51.60	312.51	15.08	-49.8	-72.1	3.8	7.49e-01	0	44	104	459276288	70	48816
2026-01-14 13:05:54.58	313.05	14.84	-49.7	-72.1	3.8	7.47e-01	0	44	104	459276288	70	48853
2026-01-14 13:05:57.56	313.58	14.61	-49.8	-72.3	3.9	7.50e-01	0	44	104	459276288	70	50248
2026-01-14 13:06:00.55	314.11	14.38	-49.6	-72.1	3.8	7.41e-01	0	44	104	459276288	70	48719
2026-01-14 13:06:03.48	314.61	14.15	-50.0	-72.3	3.8	7.42e-01	0	44	104	459276288	70	50008
2026-01-14 13:06:06.61	315.15	13.90	-49.6	-72.1	3.9	7.42e-01	0	44	104	459276288	70	49232
2026-01-14 13:06:09.44	315.62	13.68	-49.5	-72.1	3.8	7.42e-01	0	44	104	459276288	70	48774
2026-01-14 13:06:12.57	316.14	13.44	-49.1	-72.2	3.8	7.45e-01	0	44	104	459276288	70	49320
2026-01-14 13:06:15.41	316.60	13.22	-49.8	-72.1	3.8	7.49e-01	0	44	104	459276288	70	48762
2026-01-14 13:06:18.53	317.09	12.98	-49.8	-72.1	3.8	7.43e-01	0	44	104	459276288	70	49177
2026-01-14 13:06:21.37	317.54	12.76	-49.2	-72.2	3.8	7.46e-01	0	44	104	459276288	70	49450
2026-01-14 13:06:24.49	318.02	12.53	-48.9	-72.0	3.8	7.45e-01	0	44	104	459276288	70	48586
2026-01-14 13:06:27.33	318.45	12.31	-49.5	-72.1	3.8	7.43e-01	0	44	104	459276288	70	49180
2026-01-14 13:06:30.50	318.92	12.07	-49.6	-72.1	3.8	7.45e-01	0	44	104	459276288	70	48786
2026-01-14 13:06:33.44	319.36	11.85	-49.8	-72.1	3.8	7.44e-01	0	44	104	459276288	70	49240
2026-01-14 13:06:36.69	319.83	11.60	-49.5	-72.1	3.9	7.47e-01	0	44	104	459276288	70	48810
2026-01-14 13:06:39.60	320.24	11.38	-49.8	-72.1	3.8	7.47e-01	0	44	104	459276288	70	48727
2026-01-14 13:06:42.72	320.68	11.15	-49.1	-71.3	3.8	7.43e-01	0	44	104	459276288	68	50174
2026-01-14 13:06:45.56	321.07	10.94	-49.6	-72.0	3.8	7.45e-01	0	44	104	459276288	70	48613
2026-01-14 13:06:48.68	321.49	10.71	-49.8	-72.1	3.8	7.51e-01	0	44	104	459276288	70	49023
2026-01-14 13:06:51.53	321.87	10.50	-49.5	-72.0	3.8	7.45e-01	0	44	104	459276288	70	48658
2026-01-14 13:06:54.70	322.29	10.27	-49.4	-72.1	3.9	7.50e-01	0	44	104	459276288	70	49089
2026-01-14 13:06:57.60	322.66	10.06	-49.0	-71.9	3.7	7.48e-01	0	44	104	459276288	68	53772
2026-01-14 13:07:00.72	323.06	9.83	-49.4	-72.1	3.8	7.46e-01	0	44	104	459276288	70	48860
2026-01-14 13:07:03.57	323.42	9.62	-49.7	-71.9	3.6	7.45e-01	0	44	104	459276288	68	53516
2026-01-14 13:07:06.69	323.80	9.40	-49.8	-72.0	3.8	7.47e-01	0	44	104	459276288	70	48640
2026-01-14 13:07:09.53	324.15	9.20	-49.8	-72.2	3.8	7.46e-01	0	44	104	459276288	70	49320
2026-01-14 13:07:12.65	324.52	8.98	-44.5	-72.2	3.8	7.45e-01	0	44	104	459276288	70	49378
2026-01-14 13:07:15.49	324.85	8.77	-49.3	-72.2	3.8	7.50e-01	0	44	104	459276288	70	49489
2026-01-14 13:07:18.62	325.22	8.55	-49.4	-72.2	3.8	7.48e-01	0	44	104	459276288	70	49499
2026-01-14 13:07:21.46	325.54	8.36	-49.2	-72.1	3.8	7.46e-01	0	44	104	459276288	70	48933
2026-01-14 13:07:24.58	325.90	8.14	-49.8	-72.1	3.9	7.44e-01	0	44	104	459276288	70	48824
2026-01-14 13:07:27.44	326.21	7.94	-49.8	-72.1	3.8	7.47e-01	0	44	104	459276288	70	49133
2026-01-14 13:07:30.70	326.57	7.72	-49.8	-72.1	3.8	7.47e-01	0	44	104	459276288	70	48835
2026-01-14 13:07:33.61	326.88	7.52	-49.0	-71.6	3.8	7.46e-01	0	44	104	459276288	69	48717
2026-01-14 13:07:36.73	327.21	7.31	-49.7	-72.2	3.8	7.48e-01	0	44	104	459276288	70	49693
2026-01-14 13:07:39.65	327.52	7.11	-48.4	-71.7	3.8	7.44e-01	0	44	104	459276288	69	49429
2026-01-14 13:07:42.93	327.86	6.89	-49.8	-72.2	3.9	7.45e-01	0	44	104	459276288	70	49468
2026-01-14 13:07:45.69	328.14	6.70	-49.8	-72.2	3.7	7.45e-01	0	44	104	459276288	70	49637
2026-01-14 13:07:48.91	328.46	6.49	-49.7	-71.7	3.7	7.45e-01	0	44	104	459276288	69	49809
2026-01-14 13:07:51.75	328.74	6.30	-49.1	-72.2	3.9	7.44e-01	0	44	104	459276288	70	49319
2026-01-14 13:07:54.87	329.05	6.10	-49.7	-72.2	3.9	7.48e-01	0	44	104	459276288	70	49820
2026-01-14 13:07:57.72	329.32	5.91	-49.1	-72.2	3.8	7.50e-01	0	44	104	459276288	70	49779
2026-01-14 13:08:00.84	329.62	5.71	-49.8	-72.2	3.8	7.44e-01	0	44	104	459276288	70	49611
2026-01-14 13:08:03.76	329.89	5.52	-49.8	-72.1	3.9	7.46e-01	0	44	104	459276288	70	49103
2026-01-14 13:08:06.74	330.16	5.33	-49.8	-71.7	3.8	7.48e-01	0	44	104	459276288	69	49453
2026-01-14 13:08:09.83	330.44	5.13	-49.8	-72.1	3.8	7.42e-01	0	44	104	459276288	70	49041

#Closed at: 2026-01-14 13:08:13
#Recorded file [459 MB]: D:/Data/31040_260114_155811.dat