passes_logs/2026/01/14/T1/T1__20260114_094431_SUOMI_NPP_rec.log

#Pass ID: 20260114_094431_SUOMI NPP
#Satellite: SUOMI NPP
#Configuration: NPP
#almurnet v.1.7.20251203
#Start time: 2026-01-14 09:44:32

#Version: 2.0.20230620
#Station: T1
#Location: 37.570604 lon 55.790049 lat
#TLE: 1 37849U 11061A   26013.27136842  .00000065  00000+0  51889-4 0  9990
#TLE: 2 37849  98.7808 315.3349 0002489  66.6776 293.4661 14.19524902736466

#Time	Az	El	Level	Level2	SNR	BER	BlckErr	Temp	State	Recorded	gain1	gain2
2026-01-14 09:44:32.44	152.12	5.08	-51.8	-66.9	3.8	1.49e+00	0	38	0	0	75	20186
2026-01-14 09:44:36.43	152.07	5.37	-51.7	-67.1	3.8	1.49e+00	0	38	104	0	75	20770
2026-01-14 09:44:40.42	152.02	5.66	-51.7	-67.0	3.8	1.49e+00	0	38	104	0	75	20408
2026-01-14 09:44:44.41	151.97	5.96	-51.7	-66.3	3.8	1.49e+00	0	38	104	0	75	18928
2026-01-14 09:44:48.40	151.91	6.26	-51.7	-65.5	3.8	1.49e+00	0	38	104	0	75	17165
2026-01-14 09:44:52.39	151.86	6.56	-51.5	-63.6	4.2	1.42e+00	0	39	0	0	75	13823
2026-01-14 09:44:56.38	151.80	6.86	-51.2	-60.6	5.6	5.64e-01	0	39	0	5242880	74	10349
2026-01-14 09:45:00.37	151.74	7.17	-50.5	-57.5	8.2	8.88e-02	0	39	0	13631488	73	7696
2026-01-14 09:45:04.36	151.68	7.48	-49.6	-54.8	11.1	2.32e-03	0	39	0	20971520	71	6289
2026-01-14 09:45:08.35	151.62	7.80	-48.6	-52.8	13.1	3.58e-05	0	39	0	28311552	69	5594
2026-01-14 09:45:12.34	151.56	8.12	-48.4	-52.4	13.4	2.05e-05	0	39	0	35651584	68	5695
2026-01-14 09:45:16.34	151.49	8.44	-49.4	-54.4	11.4	5.39e-04	0	39	0	42991616	69	6744
2026-01-14 09:45:20.33	151.43	8.77	-51.0	-59.7	6.3	1.79e-01	0	39	0	50331648	72	10414
2026-01-14 09:45:24.32	151.36	9.11	-51.7	-65.7	3.8	1.49e+00	0	39	104	53477376	74	18557
2026-01-14 09:45:28.33	151.29	9.44	-50.7	-57.9	7.8	1.46e+00	0	39	0	55574528	73	8052
2026-01-14 09:45:32.32	151.22	9.79	-49.0	-53.5	12.4	7.46e-04	0	39	0	62914560	70	5768
2026-01-14 09:45:36.32	151.14	10.13	-47.3	-50.7	15.2	0.00e+00	0	40	0	70254592	66	5222
2026-01-14 09:45:40.33	151.07	10.49	-47.0	-50.1	15.7	0.00e+00	0	39	0	77594624	66	4894
2026-01-14 09:45:44.33	150.99	10.84	-46.7	-49.7	16.0	0.00e+00	0	39	0	84934656	65	4976
2026-01-14 09:45:48.32	150.91	11.21	-46.4	-49.2	16.6	0.00e+00	0	40	0	92274688	64	4972
2026-01-14 09:45:52.32	150.83	11.57	-46.4	-49.3	16.4	0.00e+00	0	40	0	99614720	64	5029
2026-01-14 09:45:56.31	150.74	11.95	-46.6	-49.7	16.1	0.00e+00	0	40	0	108003328	64	5238
2026-01-14 09:46:00.30	150.65	12.32	-46.6	-49.6	16.3	0.00e+00	0	40	0	115343360	64	5166
2026-01-14 09:46:04.29	150.56	12.71	-46.0	-48.7	17.1	0.00e+00	0	40	0	122683392	64	4685
2026-01-14 09:46:08.28	150.47	13.10	-45.9	-48.5	17.4	0.00e+00	0	40	0	130023424	63	4820
2026-01-14 09:46:12.27	150.38	13.50	-46.0	-48.7	17.3	0.00e+00	0	40	0	137363456	63	4929
2026-01-14 09:46:16.26	150.28	13.90	-46.4	-49.2	16.8	0.00e+00	0	40	0	144703488	63	5237
2026-01-14 09:46:20.25	150.18	14.31	-46.5	-49.3	16.7	0.00e+00	0	40	0	152043520	63	5287
2026-01-14 09:46:24.24	150.07	14.72	-46.2	-48.9	17.0	0.00e+00	0	40	0	160432128	63	5070
2026-01-14 09:46:28.24	149.96	15.15	-45.9	-48.6	17.3	0.00e+00	0	40	0	167772160	63	4907
2026-01-14 09:46:32.23	149.85	15.58	-46.4	-49.4	16.6	0.00e+00	0	40	0	175112192	63	5342
2026-01-14 09:46:36.21	149.74	16.02	-46.5	-49.4	16.6	0.00e+00	0	40	0	182452224	63	5386
2026-01-14 09:46:40.21	149.62	16.47	-46.1	-48.8	17.2	0.00e+00	0	40	0	189792256	63	5001
2026-01-14 09:46:44.20	149.50	16.92	-46.0	-48.6	17.4	0.00e+00	0	40	0	197132288	63	4877
2026-01-14 09:46:48.19	149.37	17.39	-46.4	-49.1	16.9	0.00e+00	0	40	0	204472320	63	5183
2026-01-14 09:46:52.18	149.24	17.86	-46.5	-49.4	16.5	0.00e+00	0	40	0	212860928	64	5081
2026-01-14 09:46:56.18	149.10	18.34	-46.1	-48.8	17.2	0.00e+00	0	40	0	220200960	64	4752
2026-01-14 09:47:00.17	148.96	18.83	-46.2	-48.9	17.1	0.00e+00	0	40	0	227540992	63	5067
2026-01-14 09:47:04.16	148.82	19.33	-46.5	-49.3	16.8	0.00e+00	0	40	0	234881024	63	5303
2026-01-14 09:47:08.15	148.67	19.84	-46.3	-49.0	17.1	0.00e+00	0	40	0	242221056	63	5123
2026-01-14 09:47:12.14	148.51	20.36	-45.9	-48.4	17.6	0.00e+00	0	40	0	249561088	63	4769
2026-01-14 09:47:16.13	148.35	20.90	-45.9	-48.4	17.6	0.00e+00	0	40	0	256901120	63	4795
2026-01-14 09:47:20.13	148.18	21.44	-46.1	-48.7	17.4	0.00e+00	0	40	0	264241152	63	4945
2026-01-14 09:47:24.13	148.01	22.00	-46.2	-48.8	17.3	0.00e+00	0	40	0	272629760	63	5040
2026-01-14 09:47:28.13	147.83	22.57	-46.5	-49.3	16.8	0.00e+00	0	40	0	279969792	64	5006
2026-01-14 09:47:32.11	147.64	23.14	-46.1	-48.9	17.2	0.00e+00	0	40	0	287309824	64	4790
2026-01-14 09:47:36.10	147.44	23.74	-46.0	-48.7	17.4	0.00e+00	0	40	0	294649856	63	4946
2026-01-14 09:47:40.10	147.24	24.35	-46.4	-49.2	17.0	0.00e+00	0	40	0	301989888	63	5224
2026-01-14 09:47:44.09	147.03	24.97	-47.3	-50.4	15.7	0.00e+00	0	40	0	309329920	65	5402
2026-01-14 09:47:48.09	146.80	25.60	-47.2	-50.3	15.8	0.00e+00	0	40	0	317718528	65	5326
2026-01-14 09:47:52.08	146.57	26.25	-47.6	-50.8	15.4	0.00e+00	0	40	0	325058560	65	5622
2026-01-14 09:47:56.08	146.33	26.92	-47.5	-50.8	15.5	0.00e+00	0	40	0	332398592	66	5294
2026-01-14 09:48:00.08	146.08	27.60	-48.2	-51.9	14.4	7.00e-07	0	40	0	339738624	67	5658
2026-01-14 09:48:04.06	145.81	28.30	-47.9	-51.4	14.9	0.00e+00	0	40	0	347078656	67	5347
2026-01-14 09:48:08.06	145.54	29.01	-47.6	-50.8	15.4	0.00e+00	0	40	0	354418688	66	5288
2026-01-14 09:48:12.05	145.25	29.75	-48.5	-52.2	14.0	1.50e-06	0	40	0	361758720	67	5919
2026-01-14 09:48:16.04	144.94	30.50	-48.8	-52.6	13.8	2.20e-06	0	40	0	370147328	68	5796
2026-01-14 09:48:20.03	144.63	31.27	-48.3	-51.8	14.6	0.00e+00	0	40	0	377487360	68	5299
2026-01-14 09:48:24.03	144.29	32.06	-49.5	-53.8	12.6	3.43e-05	0	40	0	384827392	69	6307
2026-01-14 09:48:28.02	143.94	32.87	-49.4	-53.5	13.0	1.22e-05	0	40	0	392167424	69	6075
2026-01-14 09:48:32.01	143.57	33.70	-49.9	-54.6	11.8	3.15e-04	0	40	0	399507456	70	6515
2026-01-14 09:48:36.00	143.17	34.55	-49.6	-53.9	12.5	1.44e-04	0	40	0	406847488	70	6010
2026-01-14 09:48:39.99	142.76	35.43	-49.4	-53.5	12.9	3.43e-05	0	40	0	414187520	69	6110
2026-01-14 09:48:43.98	142.32	36.33	-50.0	-54.8	11.7	5.00e-04	0	40	0	422576128	70	6660
2026-01-14 09:48:47.97	141.86	37.25	-49.8	-54.3	12.2	1.93e-03	0	40	0	429916160	71	5963
2026-01-14 09:48:51.97	141.37	38.20	-49.0	-52.8	13.6	4.50e-06	0	40	0	437256192	69	5612
2026-01-14 09:48:55.96	140.85	39.17	-49.1	-53.2	13.2	3.89e-05	0	40	0	444596224	69	5866
2026-01-14 09:48:59.95	140.29	40.16	-49.4	-53.6	12.9	4.27e-05	0	40	0	451936256	69	6157
2026-01-14 09:49:03.94	139.70	41.18	-49.4	-53.6	12.9	1.29e-05	0	40	0	459276288	69	6142
2026-01-14 09:49:07.93	139.07	42.23	-48.4	-51.9	14.5	7.00e-07	0	40	0	466616320	68	5363
2026-01-14 09:49:11.93	138.40	43.30	-48.3	-51.8	14.6	0.00e+00	0	40	0	473956352	68	5284
2026-01-14 09:49:15.92	137.68	44.40	-47.7	-50.8	15.4	0.00e+00	0	40	0	482344960	67	5010
2026-01-14 09:49:19.91	136.90	45.53	-47.0	-49.9	16.3	0.00e+00	0	40	0	489684992	66	4769
2026-01-14 09:49:23.90	136.07	46.68	-47.7	-50.8	15.5	0.00e+00	0	40	0	497025024	66	5338
2026-01-14 09:49:27.89	135.17	47.85	-47.7	-51.0	15.3	0.00e+00	0	40	0	504365056	66	5423
2026-01-14 09:49:31.88	134.20	49.05	-46.9	-49.8	16.4	0.00e+00	0	40	0	511705088	65	5032
2026-01-14 09:49:35.88	133.15	50.28	-46.1	-48.7	17.5	0.00e+00	0	40	0	519045120	64	4667
2026-01-14 09:49:39.87	132.01	51.52	-47.1	-50.1	16.2	0.00e+00	0	40	0	526385152	64	5468
2026-01-14 09:49:43.87	130.77	52.79	-46.5	-49.2	17.0	0.00e+00	0	40	0	534773760	64	4929
2026-01-14 09:49:47.86	129.41	54.07	-47.3	-50.5	15.8	0.00e+00	0	40	0	542113792	65	5458
2026-01-14 09:49:51.85	127.93	55.37	-46.7	-49.5	16.7	0.00e+00	0	40	0	549453824	64	5113
2026-01-14 09:49:55.84	126.30	56.67	-47.0	-49.8	16.4	0.00e+00	0	40	0	556793856	65	5041
2026-01-14 09:49:59.83	124.51	57.98	-49.1	-53.0	13.5	9.10e-06	0	40	0	564133888	69	5763
2026-01-14 09:50:03.82	122.53	59.30	-48.0	-51.3	15.2	0.00e+00	0	40	0	571473920	68	4998
2026-01-14 09:50:07.81	120.35	60.60	-47.3	-50.2	16.0	0.00e+00	0	40	0	578813952	66	4967
2026-01-14 09:50:11.80	117.93	61.89	-46.9	-49.7	16.6	0.00e+00	0	40	0	587202560	64	5255
2026-01-14 09:50:15.79	115.24	63.16	-47.5	-50.7	15.6	0.00e+00	0	40	0	594542592	65	5530
2026-01-14 09:50:19.78	112.25	64.39	-46.1	-48.6	17.7	0.00e+00	0	40	0	601882624	63	4900
2026-01-14 09:50:23.77	108.93	65.57	-46.3	-48.9	17.4	0.00e+00	0	40	0	609222656	63	5048
2026-01-14 09:50:27.77	105.24	66.68	-48.8	-52.5	13.9	0.00e+00	0	40	0	616562688	68	5773
2026-01-14 09:50:31.76	101.16	67.71	-46.6	-49.4	16.8	0.00e+00	0	40	0	623902720	64	5063
2026-01-14 09:50:35.76	96.67	68.64	-48.4	-52.0	14.4	0.00e+00	0	40	0	631242752	67	5725
2026-01-14 09:50:39.75	91.77	69.44	-47.6	-50.8	15.6	0.00e+00	0	40	0	638582784	66	5294
2026-01-14 09:50:43.73	86.51	70.09	-48.5	-52.2	14.3	7.00e-07	0	40	0	646971392	68	5564
2026-01-14 09:50:47.73	80.88	70.58	-50.1	-55.0	11.4	1.46e-03	0	40	0	654311424	71	6463
2026-01-14 09:50:51.73	75.00	70.88	-48.9	-52.7	13.9	0.00e+00	0	40	0	661651456	68	5873
2026-01-14 09:50:55.73	68.98	70.99	-49.5	-53.6	13.0	3.12e-05	0	40	0	668991488	69	6165
2026-01-14 09:50:59.72	62.98	70.90	-48.9	-52.8	13.8	9.10e-06	0	40	0	676331520	69	5635
2026-01-14 09:51:03.72	57.08	70.62	-49.2	-53.2	13.4	6.10e-06	0	40	0	683671552	69	5864
2026-01-14 09:51:07.70	51.45	70.15	-48.5	-51.8	14.6	3.00e-06	0	40	0	691011584	68	5311
2026-01-14 09:51:11.69	46.13	69.52	-48.7	-52.2	14.2	2.20e-06	0	40	0	699400192	69	5262
2026-01-14 09:51:15.69	41.18	68.74	-49.2	-53.0	13.5	1.37e-05	0	40	0	706740224	69	5761
2026-01-14 09:51:19.68	36.65	67.83	-48.9	-52.5	14.1	0.00e+00	0	40	0	714080256	68	5767
2026-01-14 09:51:23.67	32.53	66.81	-47.7	-50.8	15.6	0.00e+00	0	40	0	721420288	67	5016
2026-01-14 09:51:27.65	28.82	65.71	-48.1	-51.4	14.9	0.00e+00	0	40	0	728760320	67	5386
2026-01-14 09:51:31.64	25.46	64.54	-47.2	-50.2	16.1	0.00e+00	0	40	0	736100352	66	4947
2026-01-14 09:51:35.64	22.43	63.32	-46.1	-48.7	17.6	0.00e+00	0	40	0	743440384	63	4943
2026-01-14 09:51:39.62	19.72	62.07	-46.2	-48.8	17.5	0.00e+00	0	40	0	751828992	63	5017
2026-01-14 09:51:43.60	17.27	60.78	-47.0	-49.9	16.5	0.00e+00	0	40	0	759169024	65	5070
2026-01-14 09:51:47.59	15.06	59.48	-47.9	-51.0	15.4	0.00e+00	0	40	0	766509056	66	5449
2026-01-14 09:51:51.58	13.07	58.18	-47.2	-50.2	16.1	0.00e+00	0	40	0	773849088	65	5245
2026-01-14 09:51:55.57	11.26	56.87	-47.9	-51.1	15.3	0.00e+00	0	40	0	781189120	66	5497
2026-01-14 09:51:59.57	9.61	55.56	-45.6	-48.0	18.3	0.00e+00	0	40	0	788529152	62	4837
2026-01-14 09:52:03.57	8.11	54.26	-47.1	-50.0	16.3	0.00e+00	0	40	0	795869184	65	5145
2026-01-14 09:52:07.56	6.74	52.99	-49.1	-53.0	13.1	6.80e-06	0	40	0	803209216	69	5783
2026-01-14 09:52:11.56	5.49	51.72	-47.5	-50.7	15.6	0.00e+00	0	40	0	811597824	66	5229
2026-01-14 09:52:15.56	4.33	50.47	-46.6	-49.3	16.9	0.00e+00	0	40	0	818937856	65	4706
2026-01-14 09:52:19.55	3.27	49.25	-48.2	-51.5	14.8	0.00e+00	0	40	0	826277888	67	5454
2026-01-14 09:52:23.55	2.30	48.05	-49.1	-53.0	13.6	7.00e-07	0	40	0	833617920	69	5738
2026-01-14 09:52:27.54	1.39	46.88	-50.4	-55.7	10.9	1.30e-04	0	40	0	840957952	71	6998
2026-01-14 09:52:31.53	0.55	45.73	-48.5	-51.9	14.8	0.00e+00	0	40	0	848297984	68	5398
2026-01-14 09:52:35.53	359.77	44.61	-48.0	-51.5	14.8	7.00e-07	0	40	0	856686592	67	5411
2026-01-14 09:52:39.52	359.05	43.51	-48.7	-52.4	13.9	1.60e-05	0	40	0	864026624	69	5396
2026-01-14 09:52:43.51	358.37	42.44	-48.9	-52.6	13.9	2.20e-06	0	40	0	871366656	69	5514
2026-01-14 09:52:47.49	357.74	41.39	-49.1	-53.0	13.3	6.33e-05	0	40	0	878706688	69	5766
2026-01-14 09:52:51.49	357.14	40.37	-49.4	-53.6	12.9	1.17e-04	0	40	0	886046720	70	5809
2026-01-14 09:52:55.47	356.59	39.38	-50.9	-57.0	8.9	3.21e-02	0	40	0	893386752	73	7267
2026-01-14 09:52:59.46	356.07	38.41	-47.8	-51.1	15.3	0.00e+00	0	40	0	900726784	67	5178
2026-01-14 09:53:03.46	355.57	37.46	-47.3	-50.4	16.0	0.00e+00	0	40	0	908066816	66	5046
2026-01-14 09:53:07.46	355.11	36.54	-49.8	-54.9	11.7	1.97e-04	0	40	0	916455424	70	6728
2026-01-14 09:53:11.46	354.67	35.64	-49.4	-53.9	12.8	9.15e-05	0	40	0	923795456	70	6060
2026-01-14 09:53:15.45	354.25	34.77	-50.1	-55.2	11.4	6.30e-04	0	40	0	931135488	70	6971
2026-01-14 09:53:19.43	353.86	33.92	-49.6	-54.0	12.5	8.55e-04	0	40	0	938475520	71	5758
2026-01-14 09:53:23.43	353.49	33.08	-48.5	-52.0	14.5	0.00e+00	0	40	0	945815552	68	5417
2026-01-14 09:53:27.42	353.14	32.27	-48.2	-51.7	14.6	0.00e+00	0	40	0	953155584	67	5565
2026-01-14 09:53:31.41	352.80	31.48	-49.9	-54.4	12.2	1.28e-04	0	40	0	960495616	70	6377
2026-01-14 09:53:35.41	352.48	30.71	-50.2	-55.5	11.0	4.10e-03	0	40	0	968884224	72	6425
2026-01-14 09:53:39.39	352.18	29.96	-49.0	-53.0	13.5	2.28e-05	0	40	0	976224256	70	5414
2026-01-14 09:53:43.38	351.89	29.23	-48.9	-52.6	13.9	7.00e-07	0	40	0	983564288	69	5479
2026-01-14 09:53:47.37	351.62	28.52	-48.1	-51.4	15.1	0.00e+00	0	40	0	990904320	68	5069
2026-01-14 09:53:51.36	351.36	27.82	-47.3	-50.3	15.9	0.00e+00	0	40	0	998244352	66	5033
2026-01-14 09:53:55.35	351.10	27.14	-48.4	-52.4	13.9	7.00e-07	0	40	0	1005584384	67	6012
2026-01-14 09:53:59.34	350.86	26.47	-49.6	-54.2	12.3	1.72e-04	0	40	0	1012924416	69	6571
2026-01-14 09:54:03.34	350.63	25.82	-47.6	-51.0	15.3	0.00e+00	0	40	0	1021313024	67	5115
2026-01-14 09:54:07.33	350.41	25.19	-46.8	-50.2	16.0	0.00e+00	0	40	0	1028653056	65	5247
2026-01-14 09:54:11.33	350.20	24.57	-46.9	-50.3	15.9	0.00e+00	0	40	0	1035993088	65	5325
2026-01-14 09:54:15.33	350.00	23.96	-47.2	-50.4	15.8	0.00e+00	0	40	0	1043333120	65	5386
2026-01-14 09:54:19.31	349.80	23.37	-47.4	-50.6	15.6	0.00e+00	0	40	0	1050673152	65	5500
2026-01-14 09:54:23.29	349.62	22.79	-47.7	-51.2	15.1	7.00e-07	0	40	0	1058013184	66	5552
2026-01-14 09:54:27.28	349.44	22.22	-47.9	-51.3	15.0	0.00e+00	0	40	0	1065353216	66	5627
2026-01-14 09:54:31.28	349.27	21.67	-48.0	-51.3	14.9	0.00e+00	0	40	0	1073741824	67	5336
2026-01-14 09:54:35.27	349.10	21.12	-48.1	-51.7	14.5	1.50e-06	0	40	0	1081081856	67	5577
2026-01-14 09:54:39.27	348.94	20.59	-48.2	-51.8	14.4	1.50e-06	0	40	0	1088421888	67	5651
2026-01-14 09:54:43.26	348.79	20.07	-48.0	-51.5	14.7	7.00e-07	0	40	0	1095761920	67	5434
2026-01-14 09:54:47.26	348.64	19.56	-47.5	-51.2	15.0	0.00e+00	0	40	0	1103101952	66	5568
2026-01-14 09:54:51.26	348.49	19.05	-46.7	-50.3	15.8	0.00e+00	0	40	0	1110441984	65	5326
2026-01-14 09:54:55.25	348.36	18.56	-46.7	-50.2	16.0	0.00e+00	0	40	0	1117782016	65	5224
2026-01-14 09:54:59.25	348.22	18.08	-47.3	-51.1	15.2	0.00e+00	0	40	0	1125122048	65	5815
2026-01-14 09:55:03.24	348.10	17.61	-47.8	-52.1	14.2	7.00e-07	0	40	0	1133510656	66	6136
2026-01-14 09:55:07.24	347.97	17.14	-48.6	-53.3	12.9	4.73e-05	0	40	0	1140850688	67	6715
2026-01-14 09:55:11.23	347.85	16.69	-48.8	-53.4	13.0	5.03e-05	0	40	0	1148190720	68	6363
2026-01-14 09:55:15.23	347.74	16.24	-48.8	-53.5	12.9	5.64e-05	0	40	0	1155530752	68	6431
2026-01-14 09:55:19.22	347.62	15.80	-48.8	-53.2	13.1	5.49e-05	0	40	0	1162870784	68	6243
2026-01-14 09:55:23.21	347.51	15.37	-49.0	-53.6	12.7	7.70e-05	0	40	0	1170210816	68	6551
2026-01-14 09:55:27.20	347.41	14.95	-49.3	-54.0	12.3	1.60e-04	0	40	0	1177550848	69	6484
2026-01-14 09:55:31.19	347.31	14.53	-49.2	-53.8	12.5	1.07e-04	0	40	0	1185939456	69	6316
2026-01-14 09:55:35.18	347.21	14.12	-49.1	-54.0	12.3	1.94e-04	0	40	0	1193279488	69	6424
2026-01-14 09:55:39.18	347.12	13.72	-48.7	-53.5	12.8	4.73e-05	0	40	0	1200619520	69	6063
2026-01-14 09:55:43.18	347.02	13.32	-48.6	-52.8	13.4	1.14e-05	0	40	0	1207959552	68	5983
2026-01-14 09:55:47.17	346.93	12.93	-48.5	-52.6	13.6	6.10e-06	0	40	0	1215299584	68	5833
2026-01-14 09:55:51.16	346.85	12.55	-47.8	-51.9	14.2	7.00e-07	0	40	0	1222639616	67	5710
2026-01-14 09:55:55.16	346.76	12.17	-47.7	-52.1	13.9	4.50e-06	0	40	0	1229979648	67	5843
2026-01-14 09:55:59.14	346.68	11.80	-47.2	-52.2	13.9	3.00e-06	0	40	0	1238368256	66	6232
2026-01-14 09:56:03.14	346.60	11.43	-46.9	-52.0	14.0	5.30e-06	0	40	0	1245708288	65	6452
2026-01-14 09:56:07.14	346.53	11.07	-46.8	-52.3	13.7	3.80e-06	0	40	0	1253048320	65	6649
2026-01-14 09:56:11.13	346.45	10.71	-46.6	-52.2	13.8	4.50e-06	0	40	0	1260388352	65	6582
2026-01-14 09:56:15.12	346.38	10.36	-46.2	-52.2	13.8	7.60e-06	0	40	0	1267728384	64	6977
2026-01-14 09:56:19.12	346.31	10.01	-45.8	-52.4	13.6	3.80e-06	0	40	0	1275068416	63	7564
2026-01-14 09:56:23.12	346.24	9.67	-45.4	-52.2	13.8	6.10e-06	0	40	0	1282408448	62	7864
2026-01-14 09:56:27.11	346.17	9.33	-45.2	-52.2	13.7	3.00e-06	0	40	0	1290797056	62	7872
2026-01-14 09:56:31.10	346.11	9.00	-45.4	-52.5	13.5	1.37e-05	0	40	0	1298137088	62	8116
2026-01-14 09:56:35.10	346.05	8.67	-52.4	-67.7	3.8	1.49e+00	0	40	104	1299185664	75	22091
2026-01-14 09:56:39.10	345.99	8.35	-52.2	-67.8	3.8	1.49e+00	0	40	104	1299185664	75	22479
2026-01-14 09:56:43.09	345.93	8.03	-52.5	-67.9	3.8	1.49e+00	0	40	104	1299185664	76	21493
2026-01-14 09:56:47.09	345.87	7.71	-52.6	-68.0	3.8	1.49e+00	0	40	104	1299185664	76	21563
2026-01-14 09:56:51.08	345.81	7.40	-52.9	-68.0	3.8	1.49e+00	0	40	104	1299185664	76	21537
2026-01-14 09:56:55.07	345.76	7.09	-52.7	-68.0	3.8	1.49e+00	0	40	104	1299185664	76	21537
2026-01-14 09:56:59.06	345.71	6.78	-52.7	-67.9	3.8	1.49e+00	0	40	104	1299185664	76	21500
2026-01-14 09:57:03.05	345.66	6.48	-52.6	-67.9	3.8	1.49e+00	0	40	104	1299185664	76	21342
2026-01-14 09:57:07.04	345.61	6.19	-52.5	-67.9	3.8	1.49e+00	0	40	104	1299185664	76	21355
2026-01-14 09:57:11.03	345.56	5.89	-52.5	-67.9	3.8	1.49e+00	0	40	104	1299185664	76	21298
2026-01-14 09:57:15.03	345.51	5.60	-52.5	-67.8	3.8	1.49e+00	0	40	104	1299185664	76	21232
2026-01-14 09:57:19.02	345.46	5.31	-52.5	-67.9	3.8	1.49e+00	0	40	104	1299185664	76	21356
2026-01-14 09:57:23.01	345.42	5.03	-52.5	-67.9	3.8	1.49e+00	0	40	104	1299185664	76	21318

#Closed at: 2026-01-14 09:57:25
#Recorded file [1299 MB]: D:/Data/31040_260114_124432.dat