passes_logs/2026/01/14/T1/T1__20260114_041831_FENGYUN_3E_rec.log

#Pass ID: 20260114_041831_FENGYUN 3E
#Satellite: FENGYUN 3E
#Configuration: FENGYUN 3E
#almurnet v.1.7.20251203
#Start time: 2026-01-14 04:18:33

#Version: 2.0.20230620
#Station: T1
#Location: 37.570604 lon 55.790049 lat
#TLE: 1 49008U 21062A   26013.31447241  .00000001  00000+0  21294-4 0  9992
#TLE: 2 49008  98.7491  18.4630 0001950 139.8565 220.2756 14.19884983234609

#Time	Az	El	Level	Level2	SNR	BER	BlckErr	Temp	State	Recorded	gain1	gain2
2026-01-14 04:18:33.06	14.13	5.08	-50.0	-61.1	3.8	8.46e-01	0	41	0	0	70	12893
2026-01-14 04:18:37.03	14.07	5.36	-50.1	-61.5	3.8	8.46e-01	0	41	104	0	70	13471
2026-01-14 04:18:41.00	14.01	5.65	-50.1	-61.2	3.8	8.47e-01	0	41	104	0	70	12987
2026-01-14 04:18:44.97	13.95	5.94	-50.0	-60.9	3.8	8.47e-01	0	41	104	0	70	12643
2026-01-14 04:18:48.94	13.89	6.23	-50.0	-60.4	3.8	8.46e-01	0	42	104	0	70	11955
2026-01-14 04:18:52.91	13.82	6.53	-50.0	-60.6	3.8	8.46e-01	0	42	104	0	70	12098
2026-01-14 04:18:56.89	13.76	6.83	-50.1	-61.5	3.8	8.47e-01	0	42	104	0	70	13541
2026-01-14 04:19:00.86	13.69	7.13	-49.6	-58.1	4.2	8.42e-01	0	42	104	0	70	9132
2026-01-14 04:19:04.83	13.62	7.44	-48.1	-52.8	7.5	1.33e-01	0	42	0	12582912	67	5858
2026-01-14 04:19:08.81	13.55	7.75	-46.8	-50.0	10.4	5.44e-03	0	42	0	41943040	64	5056
2026-01-14 04:19:12.78	13.48	8.06	-46.0	-48.6	11.9	5.40e-04	0	42	0	70254592	62	4838
2026-01-14 04:19:16.75	13.40	8.38	-45.9	-48.5	12.0	2.99e-04	0	43	0	98566144	62	4785
2026-01-14 04:19:20.73	13.32	8.70	-46.8	-49.9	10.5	2.97e-03	0	43	0	127926272	63	5338
2026-01-14 04:19:24.70	13.24	9.03	-48.7	-54.5	6.0	3.05e-01	0	43	0	156237824	66	7571
2026-01-14 04:19:28.68	13.16	9.36	-49.9	-61.1	3.8	8.48e-01	0	43	104	165675008	69	13719
2026-01-14 04:19:32.66	13.08	9.70	-43.8	-45.7	14.8	0.00e+00	0	43	0	184549376	58	4346
2026-01-14 04:19:36.64	12.99	10.04	-42.1	-43.6	16.7	0.00e+00	0	43	0	213909504	55	4093
2026-01-14 04:19:40.60	12.90	10.38	-41.7	-43.2	17.2	0.00e+00	0	43	0	242221056	54	4114
2026-01-14 04:19:44.61	12.81	10.73	-41.3	-42.6	17.7	0.00e+00	0	43	0	271581184	53	4092
2026-01-14 04:19:48.80	12.71	11.11	-41.0	-42.3	18.0	0.00e+00	0	43	0	300941312	52	4189
2026-01-14 04:19:53.35	12.60	11.52	-41.0	-42.3	18.1	0.00e+00	0	43	0	334495744	52	4152
2026-01-14 04:19:57.96	12.49	11.94	-40.9	-42.3	18.1	0.00e+00	0	43	0	368050176	52	4152
2026-01-14 04:20:01.94	12.38	12.31	-41.0	-42.3	18.1	0.00e+00	0	43	0	396361728	52	4181
2026-01-14 04:20:05.92	12.28	12.69	-41.0	-42.3	18.1	0.00e+00	0	43	0	424673280	52	4180
2026-01-14 04:20:09.93	12.17	13.08	-41.0	-42.3	18.2	0.00e+00	0	43	0	454033408	52	4153
2026-01-14 04:20:14.01	12.05	13.48	-41.0	-42.3	18.2	0.00e+00	0	43	0	483393536	52	4158
2026-01-14 04:20:17.99	11.93	13.88	-40.8	-42.0	18.4	0.00e+00	0	43	0	511705088	52	4029
2026-01-14 04:20:21.97	11.81	14.28	-40.8	-42.0	18.5	0.00e+00	0	43	0	541065216	51	4275
2026-01-14 04:20:25.98	11.69	14.69	-40.7	-41.9	18.6	0.00e+00	0	43	0	569376768	51	4216
2026-01-14 04:20:29.93	11.56	15.11	-40.6	-41.8	18.7	0.00e+00	0	43	0	597688320	51	4173
2026-01-14 04:20:33.98	11.43	15.54	-40.4	-41.6	19.0	0.00e+00	0	43	0	627048448	51	4059
2026-01-14 04:20:38.08	11.29	15.98	-40.3	-41.5	19.0	0.00e+00	0	43	0	657457152	51	4034
2026-01-14 04:20:42.21	11.14	16.44	-40.1	-41.2	19.3	0.00e+00	0	44	0	686817280	50	4133
2026-01-14 04:20:46.39	10.99	16.91	-40.0	-41.1	19.4	0.00e+00	0	43	0	717225984	50	4058
2026-01-14 04:20:50.92	10.82	17.43	-39.8	-40.9	19.6	0.00e+00	0	44	0	749731840	50	3973
2026-01-14 04:20:55.05	10.65	17.91	-39.6	-40.7	19.7	0.00e+00	0	44	0	779091968	50	3882
2026-01-14 04:20:59.16	10.49	18.40	-39.6	-40.6	19.9	0.00e+00	0	43	0	809500672	49	4065
2026-01-14 04:21:03.14	10.32	18.88	-39.3	-40.3	20.1	0.00e+00	0	44	0	837812224	49	3933
2026-01-14 04:21:07.16	10.14	19.38	-39.3	-40.2	20.2	0.00e+00	0	44	0	867172352	49	3895
2026-01-14 04:21:11.25	9.95	19.90	-39.1	-40.1	20.4	0.00e+00	0	44	0	896532480	48	4056
2026-01-14 04:21:15.29	9.76	20.42	-39.1	-40.1	20.4	0.00e+00	0	44	0	925892608	48	4057
2026-01-14 04:21:19.29	9.57	20.94	-39.0	-39.9	20.4	0.00e+00	0	44	0	954204160	48	3989
2026-01-14 04:21:23.29	9.37	21.48	-39.1	-40.1	20.4	0.00e+00	0	44	0	983564288	48	4062
2026-01-14 04:21:27.27	9.16	22.03	-39.0	-39.9	20.5	0.00e+00	0	44	0	1011875840	48	3988
2026-01-14 04:21:31.66	8.92	22.64	-39.0	-40.0	20.5	0.00e+00	0	44	0	1044381696	48	4016
2026-01-14 04:21:35.69	8.69	23.22	-39.2	-40.1	20.4	0.00e+00	0	43	0	1072693248	48	4075
2026-01-14 04:21:39.67	8.45	23.80	-39.3	-40.2	20.3	0.00e+00	0	44	0	1102053376	48	4120
2026-01-14 04:21:43.64	8.20	24.40	-39.1	-40.0	20.5	0.00e+00	0	44	0	1130364928	48	4047
2026-01-14 04:21:47.84	7.93	25.04	-39.1	-40.1	20.4	0.00e+00	0	44	0	1160773632	48	4070
2026-01-14 04:21:51.82	7.66	25.67	-39.1	-40.0	20.5	0.00e+00	0	44	0	1189085184	48	4048
2026-01-14 04:21:55.80	7.39	26.30	-39.0	-39.9	20.6	0.00e+00	0	44	0	1217396736	48	3983
2026-01-14 04:21:59.78	7.09	26.96	-38.8	-39.7	20.8	0.00e+00	0	44	0	1246756864	48	3910
2026-01-14 04:22:04.30	6.75	27.72	-38.7	-39.7	20.8	0.00e+00	0	44	0	1279262720	48	3878
2026-01-14 04:22:08.30	6.43	28.41	-38.1	-39.0	21.2	0.00e+00	0	44	0	1308622848	46	4021
2026-01-14 04:22:12.36	6.08	29.12	-38.0	-38.9	21.3	0.00e+00	0	44	0	1337982976	46	3977
2026-01-14 04:22:16.50	5.72	29.87	-38.0	-38.9	21.2	0.00e+00	0	44	0	1367343104	46	3996
2026-01-14 04:22:20.48	5.35	30.61	-38.1	-39.0	21.2	0.00e+00	0	44	0	1396703232	46	4029
2026-01-14 04:22:24.46	4.96	31.36	-38.3	-39.2	21.0	0.00e+00	0	44	0	1425014784	46	4123
2026-01-14 04:22:28.57	4.54	32.16	-38.5	-39.4	20.8	0.00e+00	0	44	0	1454374912	46	4224
2026-01-14 04:22:32.69	4.10	32.98	-38.5	-39.5	20.8	0.00e+00	0	44	0	1484783616	46	4251
2026-01-14 04:22:36.75	3.64	33.81	-38.6	-39.5	20.8	0.00e+00	0	44	0	1513095168	46	4265
2026-01-14 04:22:40.76	3.16	34.65	-38.1	-39.0	21.2	0.00e+00	0	44	0	1542455296	46	4007
2026-01-14 04:22:44.79	2.65	35.52	-37.8	-38.7	21.4	0.00e+00	0	44	0	1571815424	46	3911
2026-01-14 04:22:48.77	2.12	36.39	-38.3	-39.3	21.0	0.00e+00	0	44	0	1600126976	46	4157
2026-01-14 04:22:52.77	1.56	37.30	-38.4	-39.4	20.9	0.00e+00	0	44	0	1629487104	46	4199
2026-01-14 04:22:56.75	0.97	38.21	-38.5	-39.4	20.8	0.00e+00	0	44	0	1657798656	46	4234
2026-01-14 04:23:00.75	0.33	39.16	-39.0	-40.0	20.4	0.00e+00	0	44	0	1687158784	47	4244
2026-01-14 04:23:04.71	359.67	40.12	-38.8	-39.7	20.6	0.00e+00	0	44	0	1715470336	47	4124
2026-01-14 04:23:08.83	358.93	41.14	-38.4	-39.3	21.0	0.00e+00	0	44	0	1744830464	47	3934
2026-01-14 04:23:12.86	358.16	42.16	-38.4	-39.3	21.0	0.00e+00	0	44	0	1774190592	47	3927
2026-01-14 04:23:16.84	357.35	43.19	-38.7	-39.6	20.7	0.00e+00	0	44	0	1802502144	47	4073
2026-01-14 04:23:20.86	356.48	44.25	-38.7	-39.7	20.6	0.00e+00	0	44	0	1831862272	47	4124
2026-01-14 04:23:24.98	355.52	45.36	-38.6	-39.6	20.8	0.00e+00	0	44	0	1862270976	47	4058
2026-01-14 04:23:28.96	354.53	46.46	-39.2	-40.1	20.2	0.00e+00	0	44	0	1890582528	47	4339
2026-01-14 04:23:33.01	353.44	47.59	-39.9	-40.9	19.9	0.00e+00	0	44	0	1919942656	49	4198
2026-01-14 04:23:37.00	352.29	48.72	-39.8	-40.7	20.0	0.00e+00	0	43	0	1948254208	49	4138
2026-01-14 04:23:41.18	350.98	49.93	-39.8	-40.8	20.0	0.00e+00	0	44	0	1978662912	50	3933
2026-01-14 04:23:45.27	349.60	51.12	-39.9	-40.9	19.9	0.00e+00	0	44	0	2008023040	50	3964
2026-01-14 04:23:49.27	348.13	52.30	-40.5	-41.5	19.3	0.00e+00	0	44	0	2037383168	50	4275
2026-01-14 04:23:53.37	346.50	53.52	-40.0	-41.0	19.8	0.00e+00	0	44	0	2066743296	50	4012
2026-01-14 04:23:57.41	344.76	54.72	-40.2	-41.2	19.6	0.00e+00	0	44	0	2096103424	50	4111
2026-01-14 04:24:01.42	342.87	55.91	-39.7	-40.7	20.1	0.00e+00	0	44	0	2125463552	50	3888
2026-01-14 04:24:05.48	340.79	57.11	-39.8	-40.8	20.0	0.00e+00	0	44	0	2153775104	49	4148
2026-01-14 04:24:09.72	338.40	58.35	-40.2	-41.2	19.6	0.00e+00	0	44	0	2185232384	50	4123
2026-01-14 04:24:13.79	335.90	59.51	-39.8	-40.7	20.0	0.00e+00	0	44	0	2214592512	50	3906
2026-01-14 04:24:17.77	333.23	60.62	-39.9	-40.9	20.0	0.00e+00	0	44	0	2242904064	50	3977
2026-01-14 04:24:21.75	330.32	61.68	-39.9	-40.9	19.9	0.00e+00	0	44	0	2271215616	49	4211
2026-01-14 04:24:25.75	327.14	62.70	-39.8	-40.8	20.0	0.00e+00	0	44	0	2300575744	49	4168
2026-01-14 04:24:29.87	323.57	63.67	-38.5	-39.4	21.0	0.00e+00	0	44	0	2329935872	47	3974
2026-01-14 04:24:33.96	319.74	64.56	-39.3	-40.2	20.5	0.00e+00	0	44	0	2360344576	48	4145
2026-01-14 04:24:37.95	315.72	65.32	-38.6	-39.5	21.1	0.00e+00	0	44	0	2388656128	48	3798
2026-01-14 04:24:41.96	311.41	65.98	-38.8	-39.7	20.7	0.00e+00	0	44	0	2418016256	47	4114
2026-01-14 04:24:45.96	306.87	66.50	-38.5	-39.4	21.0	0.00e+00	0	44	0	2446327808	47	3971
2026-01-14 04:24:49.98	302.11	66.90	-38.7	-39.6	20.8	0.00e+00	0	44	0	2475687936	47	4095
2026-01-14 04:24:53.96	297.25	67.13	-38.6	-39.5	20.9	0.00e+00	0	44	0	2503999488	47	4028
2026-01-14 04:24:57.95	292.30	67.22	-38.5	-39.4	20.9	0.00e+00	0	44	0	2532311040	47	3996
2026-01-14 04:25:02.09	287.16	67.14	-38.6	-39.5	20.9	0.00e+00	0	44	0	2562719744	46	4282
2026-01-14 04:25:06.21	282.12	66.90	-38.3	-39.2	21.1	0.00e+00	0	44	0	2593128448	47	3897
2026-01-14 04:25:10.19	277.40	66.52	-38.6	-39.5	20.9	0.00e+00	0	44	0	2621440000	47	4017
2026-01-14 04:25:14.17	272.87	66.00	-39.0	-39.9	20.5	0.00e+00	0	44	0	2649751552	47	4219
2026-01-14 04:25:18.23	268.49	65.34	-38.6	-39.5	20.9	0.00e+00	0	44	0	2679111680	47	4035
2026-01-14 04:25:22.21	264.47	64.58	-38.3	-39.2	21.2	0.00e+00	0	44	0	2708471808	47	3882
2026-01-14 04:25:26.19	260.72	63.72	-39.5	-40.4	20.4	0.00e+00	0	44	0	2736783360	48	4235
2026-01-14 04:25:30.41	257.05	62.72	-39.1	-40.0	20.7	0.00e+00	0	44	0	2767192064	48	4022
2026-01-14 04:25:34.43	253.84	61.70	-40.0	-41.0	19.9	0.00e+00	0	44	0	2796552192	49	4249
2026-01-14 04:25:38.69	250.72	60.56	-39.8	-40.7	20.1	0.00e+00	0	44	0	2826960896	49	4131
2026-01-14 04:25:42.73	248.02	59.43	-39.5	-40.4	20.3	0.00e+00	0	44	0	2856321024	49	3991
2026-01-14 04:25:46.72	245.57	58.29	-40.3	-41.3	19.6	0.00e+00	0	44	0	2884632576	50	4165
2026-01-14 04:25:50.69	243.34	57.12	-39.7	-40.7	20.1	0.00e+00	0	44	0	2913992704	50	3891
2026-01-14 04:25:54.71	241.27	55.93	-40.0	-41.0	19.8	0.00e+00	0	44	0	2942304256	49	4273
2026-01-14 04:25:58.89	239.29	54.69	-40.1	-41.1	19.8	0.00e+00	0	44	0	2972712960	49	4294
2026-01-14 04:26:02.98	237.52	53.46	-39.9	-40.9	20.0	0.00e+00	0	44	0	3002073088	50	3973
2026-01-14 04:26:06.98	235.93	52.27	-40.4	-41.4	19.5	0.00e+00	0	44	0	3031433216	50	4206
2026-01-14 04:26:10.99	234.46	51.09	-40.0	-41.0	19.8	0.00e+00	0	44	0	3059744768	50	4038
2026-01-14 04:26:15.32	232.99	49.82	-40.3	-41.3	19.5	0.00e+00	0	44	0	3091202048	50	4160
2026-01-14 04:26:19.71	231.63	48.55	-40.1	-41.1	19.6	0.00e+00	0	44	0	3123707904	50	4072
2026-01-14 04:26:23.69	230.48	47.41	-39.6	-40.6	20.2	0.00e+00	0	44	0	3152019456	50	3833
2026-01-14 04:26:27.67	229.42	46.30	-39.0	-40.0	20.7	0.00e+00	0	44	0	3180331008	48	4006
2026-01-14 04:26:31.71	228.41	45.18	-39.2	-40.1	20.6	0.00e+00	0	44	0	3209691136	48	4066
2026-01-14 04:26:35.96	227.43	44.04	-38.9	-39.9	20.8	0.00e+00	0	44	0	3240099840	48	3966
2026-01-14 04:26:40.29	226.50	42.89	-38.8	-39.7	20.6	0.00e+00	0	44	0	3271557120	47	4116
2026-01-14 04:26:44.30	225.69	41.85	-39.1	-40.1	20.3	0.00e+00	0	44	0	3300917248	47	4300
2026-01-14 04:26:48.48	224.91	40.80	-38.8	-39.7	20.6	0.00e+00	0	44	0	3331325952	47	4144
2026-01-14 04:26:52.75	224.15	39.74	-39.1	-40.1	20.3	0.00e+00	0	44	0	3361734656	47	4296
2026-01-14 04:26:56.88	223.47	38.75	-39.0	-39.9	20.4	0.00e+00	0	44	0	3391094784	47	4240
2026-01-14 04:27:00.86	222.85	37.81	-38.5	-39.5	20.8	0.00e+00	0	44	0	3420454912	47	4005
2026-01-14 04:27:04.84	222.27	36.89	-38.6	-39.6	20.8	0.00e+00	0	44	0	3448766464	47	4055
2026-01-14 04:27:08.86	221.71	35.99	-38.5	-39.4	20.9	0.00e+00	0	44	0	3478126592	47	3970
2026-01-14 04:27:12.87	221.18	35.11	-38.5	-39.4	20.9	0.00e+00	0	44	0	3506438144	47	3980
2026-01-14 04:27:16.85	220.69	34.26	-38.5	-39.5	20.8	0.00e+00	0	44	0	3535798272	47	4014
2026-01-14 04:27:20.85	220.22	33.43	-38.2	-39.1	21.2	0.00e+00	0	44	0	3564109824	47	3835
2026-01-14 04:27:24.85	219.77	32.61	-38.5	-39.5	20.8	0.00e+00	0	44	0	3593469952	47	4010
2026-01-14 04:27:28.84	219.34	31.82	-38.8	-39.7	20.5	0.00e+00	0	44	0	3621781504	47	4130
2026-01-14 04:27:32.85	218.94	31.04	-38.5	-39.4	20.9	0.00e+00	0	44	0	3651141632	47	3985
2026-01-14 04:27:36.84	218.55	30.29	-38.4	-39.3	20.9	0.00e+00	0	44	0	3679453184	47	3950
2026-01-14 04:27:40.83	218.19	29.55	-38.5	-39.4	20.8	0.00e+00	0	44	0	3708813312	47	3976
2026-01-14 04:27:44.82	217.83	28.83	-38.5	-39.4	20.8	0.00e+00	0	44	0	3737124864	47	3996
2026-01-14 04:27:48.80	217.50	28.13	-38.6	-39.5	20.7	0.00e+00	0	44	0	3766484992	47	4022
2026-01-14 04:27:52.80	217.18	27.44	-38.7	-39.6	20.6	0.00e+00	0	44	0	3794796544	47	4090
2026-01-14 04:27:56.82	216.87	26.77	-38.6	-39.5	20.7	0.00e+00	0	44	0	3824156672	47	4036
2026-01-14 04:28:00.83	216.58	26.11	-38.7	-39.6	20.6	0.00e+00	0	44	0	3853516800	47	4094
2026-01-14 04:28:04.84	216.29	25.46	-38.7	-39.7	20.6	0.00e+00	0	44	0	3881828352	47	4102
2026-01-14 04:28:08.82	216.02	24.84	-38.9	-39.8	20.4	0.00e+00	0	44	0	3911188480	47	4172
2026-01-14 04:28:12.84	215.76	24.22	-38.9	-39.9	20.3	0.00e+00	0	44	0	3939500032	47	4207
2026-01-14 04:28:17.17	215.49	23.57	-39.1	-40.0	20.2	0.00e+00	0	44	0	3970957312	47	4289
2026-01-14 04:28:21.34	215.24	22.96	-39.1	-40.0	20.2	0.00e+00	0	44	0	4001366016	47	4280
2026-01-14 04:28:25.32	215.02	22.39	-39.0	-40.0	20.3	0.00e+00	0	44	0	4029677568	47	4243
2026-01-14 04:28:29.29	214.80	21.83	-39.1	-40.0	20.2	0.00e+00	0	44	0	4057989120	47	4280
2026-01-14 04:28:33.28	214.58	21.29	-39.1	-40.1	20.1	0.00e+00	0	44	0	4087349248	47	4300
2026-01-14 04:28:37.58	214.36	20.71	-39.2	-40.2	20.0	0.00e+00	0	44	0	4118806528	47	4355
2026-01-14 04:28:41.78	214.16	20.15	-39.5	-40.5	20.0	0.00e+00	0	44	0	4148166656	48	4278
2026-01-14 04:28:45.81	213.97	19.64	-39.7	-40.7	19.8	0.00e+00	0	44	0	4177526784	48	4357
2026-01-14 04:28:49.81	213.78	19.13	-39.9	-40.9	19.6	0.00e+00	0	44	0	4206886912	49	4206
2026-01-14 04:28:54.09	213.59	18.60	-39.9	-40.9	19.5	0.00e+00	0	44	0	4237295616	49	4223
2026-01-14 04:28:58.22	213.42	18.10	-40.0	-41.0	19.5	0.00e+00	0	44	0	4267704320	49	4271
2026-01-14 04:29:02.20	213.25	17.63	-40.1	-41.1	19.4	0.00e+00	0	44	0	4296015872	49	4336
2026-01-14 04:29:06.21	213.09	17.16	-40.2	-41.2	19.3	0.00e+00	0	44	0	4325376000	49	4375
2026-01-14 04:29:10.36	212.93	16.68	-40.4	-41.4	19.0	0.00e+00	0	44	0	4354736128	50	4222
2026-01-14 04:29:14.60	212.77	16.21	-40.4	-41.5	18.9	0.00e+00	0	44	0	4385144832	50	4273
2026-01-14 04:29:18.58	212.63	15.77	-40.5	-41.6	18.9	0.00e+00	0	44	0	4414504960	50	4292
2026-01-14 04:29:22.57	212.49	15.33	-40.6	-41.7	18.8	0.00e+00	0	44	0	4442816512	50	4348
2026-01-14 04:29:26.56	212.36	14.91	-40.6	-41.7	18.8	0.00e+00	0	44	0	4472176640	50	4371
2026-01-14 04:29:30.68	212.22	14.48	-40.6	-41.7	18.8	0.00e+00	0	44	0	4501536768	50	4343
2026-01-14 04:29:34.73	212.09	14.06	-40.6	-41.7	18.8	0.00e+00	0	44	0	4530896896	50	4352
2026-01-14 04:29:38.71	211.97	13.66	-40.7	-41.8	18.6	0.00e+00	0	44	0	4560257024	50	4415
2026-01-14 04:29:42.75	211.85	13.25	-40.8	-41.8	18.6	0.00e+00	0	44	0	4588568576	51	4189
2026-01-14 04:29:46.73	211.73	12.86	-40.9	-41.9	18.5	0.00e+00	0	44	0	4617928704	51	4229
2026-01-14 04:29:50.85	211.61	12.46	-41.1	-42.2	18.2	0.00e+00	0	44	0	4647288832	51	4377
2026-01-14 04:29:54.83	211.50	12.09	-41.2	-42.3	18.0	0.00e+00	0	44	0	4675600384	52	4157
2026-01-14 04:29:58.81	211.40	11.71	-41.3	-42.5	17.8	0.00e+00	0	44	0	4704960512	52	4261
2026-01-14 04:30:02.88	211.29	11.34	-41.6	-42.7	17.6	0.00e+00	0	44	0	4734320640	52	4383
2026-01-14 04:30:06.93	211.19	10.97	-41.6	-42.8	17.5	0.00e+00	0	44	0	4763680768	52	4420
2026-01-14 04:30:10.91	211.09	10.61	-41.7	-42.9	17.3	0.00e+00	0	44	0	4791992320	53	4231
2026-01-14 04:30:14.89	210.99	10.26	-41.8	-43.1	17.2	0.00e+00	0	44	0	4820303872	53	4299
2026-01-14 04:30:18.89	210.90	9.91	-42.0	-43.2	17.0	0.00e+00	0	44	0	4849664000	53	4377
2026-01-14 04:30:22.98	210.81	9.56	-42.0	-43.3	16.9	0.00e+00	0	44	0	4879024128	53	4418
2026-01-14 04:30:26.96	210.72	9.23	-42.1	-43.4	16.8	0.00e+00	0	44	0	4908384256	53	4457
2026-01-14 04:30:30.94	210.63	8.89	-50.8	-60.9	3.8	8.46e-01	0	44	104	4929355776	71	11889
2026-01-14 04:30:34.91	210.55	8.57	-51.4	-62.3	3.8	8.46e-01	0	44	104	4929355776	72	13135
2026-01-14 04:30:38.88	210.47	8.24	-51.6	-62.4	3.8	8.45e-01	0	44	104	4929355776	72	13290
2026-01-14 04:30:42.85	210.39	7.92	-51.6	-62.4	3.8	8.46e-01	0	44	104	4929355776	72	13338
2026-01-14 04:30:46.83	210.31	7.61	-51.6	-62.3	3.8	8.47e-01	0	44	104	4929355776	72	13208
2026-01-14 04:30:50.80	210.24	7.29	-51.2	-62.3	3.8	8.47e-01	0	44	104	4929355776	72	13148
2026-01-14 04:30:54.77	210.16	6.99	-51.2	-62.3	3.8	8.47e-01	0	44	104	4929355776	72	13120
2026-01-14 04:30:58.75	210.09	6.68	-51.2	-62.3	3.8	8.47e-01	0	44	104	4929355776	72	13115
2026-01-14 04:31:02.72	210.02	6.38	-51.2	-62.2	3.8	8.47e-01	0	44	104	4929355776	72	13010
2026-01-14 04:31:06.69	209.95	6.08	-51.2	-62.2	3.8	8.46e-01	0	44	104	4929355776	72	13073
2026-01-14 04:31:10.67	209.88	5.79	-51.2	-62.2	3.8	8.47e-01	0	44	104	4929355776	72	13007
2026-01-14 04:31:14.64	209.82	5.50	-51.2	-62.2	3.8	8.46e-01	0	44	104	4929355776	72	13045
2026-01-14 04:31:18.61	209.75	5.21	-51.2	-62.2	3.8	8.47e-01	0	44	104	4929355776	72	13051

#Closed at: 2026-01-14 04:31:22
#Recorded file [4929 MB]: D:/Data/31040_260114_071833.dat