passes_logs/2026/01/14/T1/T1__20260114_091508_NOAA_21_JPSS-2_rec.log

#Pass ID: 20260114_091508_NOAA 21 (JPSS-2)
#Satellite: NOAA 21 (JPSS-2)
#Configuration: NOAA 21
#almurnet v.1.7.20251203
#Start time: 2026-01-14 09:15:08

#Version: 2.0.20230620
#Station: T1
#Location: 37.570604 lon 55.790049 lat
#TLE: 1 54234U 22150A   26013.18009385  .00000056  00000+0  47387-4 0  9997
#TLE: 2 54234  98.7496 314.1019 0000691 303.8246  56.2864 14.19534466164559

#Time	Az	El	Level	Level2	SNR	BER	BlckErr	Temp	State	Recorded	gain1	gain2
2026-01-14 09:15:08.05	139.17	4.99	-51.9	-64.9	3.8	1.49e+00	0	40	0	0	75	16119
2026-01-14 09:15:11.03	139.07	5.20	-51.9	-64.7	3.8	1.49e+00	0	40	104	0	75	15727
2026-01-14 09:15:14.03	138.96	5.41	-51.9	-64.5	3.8	1.49e+00	0	41	104	0	75	15313
2026-01-14 09:15:17.02	138.86	5.62	-51.8	-63.9	3.8	1.49e+00	0	41	104	0	75	14241
2026-01-14 09:15:20.01	138.75	5.84	-51.7	-63.2	3.8	1.49e+00	0	41	104	0	75	13179
2026-01-14 09:15:23.00	138.64	6.05	-51.7	-62.4	4.0	1.48e+00	0	41	104	0	75	12071
2026-01-14 09:15:25.98	138.53	6.27	-51.7	-62.9	3.9	1.48e+00	0	41	104	0	75	12803
2026-01-14 09:15:28.98	138.41	6.49	-51.8	-63.9	3.8	1.49e+00	0	41	104	0	75	14252
2026-01-14 09:15:31.97	138.30	6.71	-51.8	-64.4	3.8	1.49e+00	0	41	104	0	75	15070
2026-01-14 09:15:34.96	138.18	6.94	-51.7	-63.2	3.9	1.49e+00	0	41	104	0	75	13242
2026-01-14 09:15:37.95	138.06	7.16	-51.2	-59.5	4.9	1.12e+00	0	42	104	0	74	9105
2026-01-14 09:15:40.95	137.94	7.39	-50.0	-55.2	8.4	6.70e-02	0	41	0	0	72	6213
2026-01-14 09:15:43.94	137.81	7.62	-48.2	-51.6	12.1	3.62e-04	0	41	0	0	68	5187
2026-01-14 09:15:46.94	137.68	7.85	-46.5	-49.2	14.3	7.00e-07	0	41	0	0	65	4702
2026-01-14 09:15:49.93	137.56	8.08	-46.0	-48.5	15.1	0.00e+00	0	42	0	0	63	4850
2026-01-14 09:15:52.92	137.43	8.32	-46.7	-49.4	14.3	0.00e+00	0	42	0	0	63	5357
2026-01-14 09:15:55.91	137.29	8.55	-48.4	-52.1	11.5	3.70e-04	0	42	0	0	67	5797
2026-01-14 09:15:58.91	137.16	8.79	-50.8	-57.5	6.3	1.98e-01	0	42	0	0	72	8137
2026-01-14 09:16:01.90	137.02	9.04	-51.9	-64.3	3.8	1.49e+00	0	42	104	0	74	15937
2026-01-14 09:16:04.90	136.88	9.28	-51.8	-64.7	3.8	1.49e+00	0	42	104	0	74	16532
2026-01-14 09:16:07.89	136.74	9.53	-49.6	-54.1	6.0	1.47e+00	0	42	104	0	71	5848
2026-01-14 09:16:10.89	136.59	9.77	-48.0	-51.2	12.6	2.02e-04	0	42	0	0	68	4983
2026-01-14 09:16:13.88	136.45	10.02	-46.2	-48.7	15.1	7.00e-07	0	42	0	0	64	4662
2026-01-14 09:16:16.88	136.30	10.28	-45.8	-48.1	15.7	0.00e+00	0	42	0	0	63	4635
2026-01-14 09:16:19.88	136.14	10.53	-45.2	-47.4	16.4	0.00e+00	0	42	0	0	62	4517
2026-01-14 09:16:22.87	135.99	10.79	-45.2	-47.4	16.4	0.00e+00	0	42	0	0	62	4519
2026-01-14 09:16:25.86	135.83	11.05	-45.0	-47.2	16.6	0.00e+00	0	42	0	0	62	4399
2026-01-14 09:16:28.86	135.67	11.31	-45.0	-47.1	16.7	0.00e+00	0	42	0	0	62	4372
2026-01-14 09:16:31.85	135.50	11.58	-44.9	-47.0	16.8	0.00e+00	0	42	0	0	61	4580
2026-01-14 09:16:34.84	135.34	11.85	-45.0	-47.1	16.6	0.00e+00	0	42	0	0	61	4647
2026-01-14 09:16:37.84	135.16	12.12	-44.9	-47.0	16.8	0.00e+00	0	42	0	0	61	4565
2026-01-14 09:16:40.85	134.99	12.39	-44.8	-46.9	16.9	0.00e+00	0	42	0	0	61	4539
2026-01-14 09:16:43.85	134.81	12.67	-44.9	-47.0	16.8	0.00e+00	0	42	0	0	61	4561
2026-01-14 09:16:46.85	134.63	12.95	-44.8	-46.9	17.0	0.00e+00	0	43	0	0	61	4510
2026-01-14 09:16:49.86	134.44	13.23	-44.8	-46.9	17.0	0.00e+00	0	42	0	0	61	4503
2026-01-14 09:16:52.86	134.25	13.52	-44.8	-46.9	17.0	0.00e+00	0	42	0	0	61	4512
2026-01-14 09:16:55.86	134.06	13.81	-44.7	-46.8	17.1	0.00e+00	0	43	0	0	61	4442
2026-01-14 09:16:58.86	133.86	14.10	-44.5	-46.5	17.4	0.00e+00	0	43	0	0	61	4330
2026-01-14 09:17:01.86	133.66	14.40	-44.5	-46.6	17.3	0.00e+00	0	42	0	0	60	4599
2026-01-14 09:17:04.87	133.46	14.70	-44.6	-46.6	17.3	0.00e+00	0	42	0	0	60	4648
2026-01-14 09:17:07.87	133.25	15.00	-44.6	-46.6	17.3	0.00e+00	0	42	0	0	60	4641
2026-01-14 09:17:10.87	133.03	15.30	-44.7	-46.8	17.2	0.00e+00	0	42	0	0	60	4712
2026-01-14 09:17:13.87	132.81	15.61	-44.7	-46.8	17.1	0.00e+00	0	42	0	0	60	4742
2026-01-14 09:17:16.88	132.59	15.92	-44.9	-47.0	17.0	0.00e+00	0	42	0	0	60	4821
2026-01-14 09:17:19.88	132.36	16.24	-44.7	-46.8	17.1	0.00e+00	0	43	0	0	60	4745
2026-01-14 09:17:22.88	132.13	16.56	-44.7	-46.8	17.2	0.00e+00	0	42	0	0	60	4749
2026-01-14 09:17:25.88	131.89	16.88	-44.8	-46.8	17.2	0.00e+00	0	43	0	0	60	4757
2026-01-14 09:17:28.89	131.65	17.21	-44.7	-46.8	17.2	0.00e+00	0	42	0	0	60	4717
2026-01-14 09:17:31.87	131.40	17.54	-44.6	-46.6	17.4	0.00e+00	0	42	0	0	60	4623
2026-01-14 09:17:34.86	131.14	17.87	-44.6	-46.7	17.3	0.00e+00	0	42	0	0	60	4667
2026-01-14 09:17:37.85	130.88	18.21	-44.7	-46.7	17.3	0.00e+00	0	42	0	0	60	4689
2026-01-14 09:17:40.85	130.62	18.55	-44.8	-46.9	17.1	0.00e+00	0	42	0	0	60	4784
2026-01-14 09:17:43.84	130.35	18.90	-44.8	-46.9	17.1	0.00e+00	0	42	0	0	60	4789
2026-01-14 09:17:46.84	130.07	19.25	-44.8	-46.8	17.2	0.00e+00	0	42	0	0	60	4754
2026-01-14 09:17:49.83	129.78	19.60	-44.6	-46.6	17.3	0.00e+00	0	43	0	0	60	4641
2026-01-14 09:17:52.82	129.49	19.96	-44.5	-46.5	17.5	0.00e+00	0	43	0	0	60	4561
2026-01-14 09:17:55.82	129.19	20.33	-44.4	-46.4	17.5	0.00e+00	0	42	0	0	60	4541
2026-01-14 09:17:58.82	128.88	20.69	-44.3	-46.2	17.7	0.00e+00	0	42	0	0	60	4434
2026-01-14 09:18:01.81	128.57	21.07	-44.2	-46.1	17.8	0.00e+00	0	42	0	0	60	4378
2026-01-14 09:18:04.82	128.24	21.44	-44.0	-45.9	18.0	0.00e+00	0	42	0	0	59	4512
2026-01-14 09:18:07.82	127.91	21.83	-43.9	-45.8	18.0	0.00e+00	0	42	0	0	59	4478
2026-01-14 09:18:10.82	127.57	22.21	-43.8	-45.7	18.2	0.00e+00	0	42	0	0	59	4413
2026-01-14 09:18:13.81	127.22	22.60	-43.6	-45.5	18.3	0.00e+00	0	42	0	0	59	4334
2026-01-14 09:18:16.80	126.87	23.00	-43.4	-45.3	18.6	0.00e+00	0	42	0	0	58	4447
2026-01-14 09:18:19.80	126.50	23.40	-43.3	-45.2	18.7	0.00e+00	0	42	0	0	58	4395
2026-01-14 09:18:22.79	126.12	23.81	-43.3	-45.1	18.7	0.00e+00	0	42	0	0	58	4382
2026-01-14 09:18:25.79	125.74	24.22	-43.3	-45.1	18.8	0.00e+00	0	42	0	0	58	4357
2026-01-14 09:18:28.78	125.34	24.63	-43.4	-45.3	18.6	0.00e+00	0	42	0	0	58	4442
2026-01-14 09:18:31.78	124.93	25.06	-43.6	-45.5	18.4	0.00e+00	0	42	0	0	58	4551
2026-01-14 09:18:34.77	124.51	25.48	-43.7	-45.6	18.3	0.00e+00	0	42	0	0	58	4624
2026-01-14 09:18:37.77	124.08	25.91	-43.8	-45.7	18.3	0.00e+00	0	42	0	0	58	4658
2026-01-14 09:18:40.76	123.64	26.35	-43.9	-45.8	18.2	0.00e+00	0	42	0	0	58	4718
2026-01-14 09:18:43.76	123.18	26.79	-44.0	-45.9	18.1	0.00e+00	0	42	0	0	58	4787
2026-01-14 09:18:46.75	122.72	27.24	-44.0	-45.9	18.0	0.00e+00	0	42	0	0	58	4803
2026-01-14 09:18:49.74	122.23	27.69	-44.2	-46.1	17.8	0.00e+00	0	42	0	0	59	4639
2026-01-14 09:18:52.74	121.74	28.15	-44.5	-46.5	17.5	0.00e+00	0	42	0	0	59	4833
2026-01-14 09:18:55.73	121.23	28.61	-44.4	-46.4	17.6	0.00e+00	0	42	0	0	59	4772
2026-01-14 09:18:58.73	120.70	29.08	-44.1	-46.0	17.9	0.00e+00	0	42	0	0	59	4583
2026-01-14 09:19:01.72	120.16	29.55	-44.3	-46.2	17.7	0.00e+00	0	43	0	0	59	4683
2026-01-14 09:19:04.72	119.60	30.03	-44.6	-46.6	17.3	0.00e+00	0	42	0	0	59	4899
2026-01-14 09:19:07.71	119.03	30.51	-44.5	-46.6	17.5	0.00e+00	0	42	0	0	59	4882
2026-01-14 09:19:10.70	118.44	31.00	-44.4	-46.3	17.7	0.00e+00	0	42	0	0	59	4747
2026-01-14 09:19:13.70	117.82	31.49	-44.5	-46.5	17.5	0.00e+00	0	42	0	0	59	4841
2026-01-14 09:19:16.69	117.19	31.99	-44.7	-46.7	17.4	0.00e+00	0	42	0	0	60	4680
2026-01-14 09:19:19.69	116.54	32.49	-44.6	-46.6	17.5	0.00e+00	0	42	0	0	60	4626
2026-01-14 09:19:22.68	115.87	32.99	-44.6	-46.6	17.5	0.00e+00	0	42	0	0	60	4645
2026-01-14 09:19:25.68	115.18	33.50	-44.8	-46.9	17.2	0.00e+00	0	42	0	0	60	4782
2026-01-14 09:19:28.68	114.47	34.01	-44.9	-47.0	17.1	0.00e+00	0	42	0	0	60	4862
2026-01-14 09:19:31.68	113.73	34.53	-45.2	-47.3	16.8	0.00e+00	0	42	0	0	60	5037
2026-01-14 09:19:34.68	112.96	35.05	-45.3	-47.5	16.5	0.00e+00	0	42	0	0	61	4844
2026-01-14 09:19:37.68	112.18	35.57	-45.6	-47.8	16.3	0.00e+00	0	42	0	0	61	5015
2026-01-14 09:19:40.68	111.36	36.09	-45.8	-48.1	16.1	0.00e+00	0	42	0	0	62	4887
2026-01-14 09:19:43.68	110.52	36.62	-45.7	-48.0	16.2	0.00e+00	0	42	0	0	62	4852
2026-01-14 09:19:46.67	109.66	37.14	-45.7	-47.9	16.3	0.00e+00	0	42	0	0	62	4809
2026-01-14 09:19:49.67	108.76	37.67	-45.8	-48.0	16.2	0.00e+00	0	42	0	0	62	4843
2026-01-14 09:19:52.66	107.84	38.20	-45.7	-48.0	16.3	0.00e+00	0	42	0	0	62	4817
2026-01-14 09:19:55.66	106.88	38.72	-45.7	-48.0	16.2	0.00e+00	0	42	0	0	62	4847
2026-01-14 09:19:58.65	105.90	39.25	-45.5	-47.7	16.4	0.00e+00	0	42	0	0	62	4691
2026-01-14 09:20:01.66	104.88	39.77	-45.6	-47.9	16.4	0.00e+00	0	42	0	0	62	4761
2026-01-14 09:20:04.65	103.83	40.29	-46.0	-48.4	15.8	0.00e+00	0	42	0	0	62	5078
2026-01-14 09:20:07.65	102.74	40.81	-46.4	-48.8	15.5	0.00e+00	0	42	0	0	63	4996
2026-01-14 09:20:10.65	101.61	41.32	-46.7	-49.2	15.1	0.00e+00	0	42	0	0	63	5226
2026-01-14 09:20:13.64	100.46	41.82	-46.7	-49.3	14.9	0.00e+00	0	42	0	0	64	5005
2026-01-14 09:20:16.63	99.27	42.32	-46.8	-49.4	14.8	0.00e+00	0	42	0	0	64	5089
2026-01-14 09:20:19.63	98.03	42.81	-46.7	-49.3	14.9	0.00e+00	0	42	0	0	64	4995
2026-01-14 09:20:22.62	96.77	43.29	-46.2	-48.5	15.6	0.00e+00	0	42	0	0	64	4589
2026-01-14 09:20:25.62	95.46	43.76	-46.3	-48.7	15.4	0.00e+00	0	42	0	0	64	4703
2026-01-14 09:20:28.62	94.11	44.22	-46.7	-49.3	14.8	7.00e-07	0	42	0	0	64	5000
2026-01-14 09:20:31.62	92.72	44.67	-46.8	-49.4	14.8	0.00e+00	0	42	0	0	64	5073
2026-01-14 09:20:34.62	91.29	45.10	-46.0	-48.3	15.9	0.00e+00	0	43	0	0	63	4736
2026-01-14 09:20:37.61	89.83	45.52	-46.2	-48.6	15.7	0.00e+00	0	43	0	0	63	4892
2026-01-14 09:20:40.62	88.33	45.92	-45.9	-48.3	15.8	0.00e+00	0	42	0	0	63	4741
2026-01-14 09:20:43.61	86.79	46.30	-46.4	-49.0	15.1	0.00e+00	0	42	0	0	63	5110
2026-01-14 09:20:46.60	85.22	46.66	-46.6	-49.2	15.0	0.00e+00	0	42	0	0	63	5229
2026-01-14 09:20:49.60	83.60	47.00	-46.2	-48.7	15.4	0.00e+00	0	42	0	0	64	4689
2026-01-14 09:20:52.60	81.96	47.31	-46.5	-49.1	15.0	7.00e-07	0	42	0	0	64	4902
2026-01-14 09:20:55.59	80.28	47.61	-46.1	-48.4	15.7	0.00e+00	0	42	0	0	64	4537
2026-01-14 09:20:58.58	78.58	47.87	-45.5	-47.7	16.6	0.00e+00	0	42	0	0	63	4418
2026-01-14 09:21:01.57	76.84	48.11	-45.7	-47.9	16.4	0.00e+00	0	42	0	0	62	4779
2026-01-14 09:21:04.56	75.09	48.32	-45.8	-48.0	16.2	0.00e+00	0	42	0	0	62	4851
2026-01-14 09:21:07.55	73.31	48.50	-46.5	-49.0	15.3	0.00e+00	0	43	0	0	63	5131
2026-01-14 09:21:10.55	71.50	48.66	-46.4	-48.8	15.2	0.00e+00	0	42	0	0	64	4750
2026-01-14 09:21:13.55	69.68	48.78	-46.5	-49.0	15.2	0.00e+00	0	42	0	0	64	4835
2026-01-14 09:21:16.54	67.85	48.87	-46.3	-48.7	15.4	0.00e+00	0	42	0	0	64	4684
2026-01-14 09:21:19.53	66.01	48.93	-45.8	-48.1	16.1	0.00e+00	0	42	0	0	63	4600
2026-01-14 09:21:22.53	64.16	48.96	-46.3	-48.7	15.6	0.00e+00	0	43	0	0	63	4928
2026-01-14 09:21:25.52	62.32	48.96	-45.4	-47.5	16.6	0.00e+00	0	42	0	0	62	4586
2026-01-14 09:21:28.52	60.47	48.92	-45.5	-47.7	16.5	0.00e+00	0	42	0	0	62	4684
2026-01-14 09:21:31.52	58.63	48.85	-46.3	-48.7	15.5	0.00e+00	0	42	0	0	63	4938
2026-01-14 09:21:34.51	56.80	48.76	-46.4	-48.8	15.4	0.00e+00	0	42	0	0	63	5023
2026-01-14 09:21:37.51	54.99	48.63	-46.6	-49.1	15.1	7.00e-07	0	42	0	0	64	4915
2026-01-14 09:21:40.50	53.19	48.47	-45.9	-48.2	16.0	0.00e+00	0	42	0	0	63	4672
2026-01-14 09:21:43.50	51.41	48.28	-45.8	-48.0	16.2	0.00e+00	0	42	0	0	63	4591
2026-01-14 09:21:46.50	49.66	48.06	-46.4	-48.8	15.3	0.00e+00	0	42	0	0	63	5024
2026-01-14 09:21:49.49	47.93	47.81	-45.9	-48.1	16.0	0.00e+00	0	42	0	0	63	4630
2026-01-14 09:21:52.49	46.23	47.54	-45.9	-48.1	16.1	0.00e+00	0	42	0	0	63	4641
2026-01-14 09:21:55.49	44.56	47.24	-46.4	-48.8	15.3	0.00e+00	0	42	0	0	63	5015
2026-01-14 09:21:58.48	42.93	46.92	-46.2	-48.5	15.7	0.00e+00	0	42	0	0	63	4865
2026-01-14 09:22:01.48	41.33	46.58	-46.7	-49.3	15.0	0.00e+00	0	42	0	0	64	4988
2026-01-14 09:22:04.48	39.76	46.21	-45.8	-48.1	16.1	0.00e+00	0	42	0	0	63	4613
2026-01-14 09:22:07.47	38.24	45.83	-47.0	-49.6	14.6	7.00e-07	0	42	0	0	64	5214
2026-01-14 09:22:10.47	36.75	45.43	-46.0	-48.4	15.7	0.00e+00	0	42	0	0	64	4525
2026-01-14 09:22:13.46	35.30	45.01	-46.4	-49.0	15.4	0.00e+00	0	42	0	0	63	5104
2026-01-14 09:22:16.46	33.89	44.58	-46.5	-49.1	14.8	1.50e-06	0	42	0	0	65	4618
2026-01-14 09:22:19.46	32.51	44.13	-45.4	-47.5	16.6	0.00e+00	0	42	0	0	62	4577
2026-01-14 09:22:22.44	31.19	43.67	-47.7	-50.6	13.6	7.00e-07	0	42	0	0	65	5527
2026-01-14 09:22:25.43	29.89	43.20	-46.7	-49.2	14.4	3.00e-06	0	42	0	0	65	4699
2026-01-14 09:22:28.43	28.63	42.72	-46.5	-49.0	15.2	0.00e+00	0	42	0	0	64	4841
2026-01-14 09:22:31.43	27.41	42.23	-47.0	-49.8	14.5	0.00e+00	0	42	0	0	64	5298
2026-01-14 09:22:34.42	26.23	41.73	-45.5	-47.7	16.5	0.00e+00	0	42	0	0	63	4403
2026-01-14 09:22:37.41	25.09	41.22	-46.7	-49.2	15.1	0.00e+00	0	42	0	0	64	4968
2026-01-14 09:22:40.40	23.98	40.72	-47.1	-49.8	14.3	3.00e-06	0	42	0	0	65	5000
2026-01-14 09:22:43.40	22.90	40.20	-46.4	-48.8	15.4	7.00e-07	0	42	0	0	64	4718
2026-01-14 09:22:46.40	21.86	39.68	-46.6	-49.2	15.1	0.00e+00	0	42	0	0	64	4953
2026-01-14 09:22:49.39	20.86	39.16	-46.8	-49.4	14.8	7.00e-07	0	42	0	0	64	5094
2026-01-14 09:22:52.38	19.88	38.64	-45.6	-47.8	16.4	0.00e+00	0	42	0	0	63	4488
2026-01-14 09:22:55.38	18.93	38.12	-46.1	-48.5	15.8	0.00e+00	0	42	0	0	62	5141
2026-01-14 09:22:58.38	18.02	37.59	-46.1	-48.7	15.6	0.00e+00	0	42	0	0	63	4963
2026-01-14 09:23:01.38	17.13	37.07	-45.8	-48.1	16.2	0.00e+00	0	42	0	0	63	4616
2026-01-14 09:23:04.37	16.28	36.54	-45.3	-47.5	16.8	0.00e+00	0	42	0	0	62	4579
2026-01-14 09:23:07.37	15.45	36.02	-45.7	-47.9	16.4	0.00e+00	0	42	0	0	62	4807
2026-01-14 09:23:10.37	14.64	35.50	-44.8	-46.9	17.3	0.00e+00	0	42	0	0	61	4500
2026-01-14 09:23:13.36	13.87	34.98	-44.8	-46.8	17.5	0.00e+00	0	42	0	0	61	4454
2026-01-14 09:23:16.36	13.11	34.47	-44.8	-46.8	17.4	0.00e+00	0	42	0	0	61	4463
2026-01-14 09:23:19.35	12.38	33.96	-44.9	-47.0	17.2	0.00e+00	0	42	0	0	61	4563
2026-01-14 09:23:22.34	11.68	33.45	-45.3	-47.5	16.6	0.00e+00	0	42	0	0	61	4817
2026-01-14 09:23:25.34	10.99	32.94	-44.9	-46.9	17.2	0.00e+00	0	42	0	0	61	4529
2026-01-14 09:23:28.33	10.33	32.44	-44.7	-46.8	17.4	0.00e+00	0	42	0	0	61	4475
2026-01-14 09:23:31.33	9.69	31.94	-45.0	-47.2	17.0	0.00e+00	0	42	0	0	61	4661
2026-01-14 09:23:34.33	9.06	31.45	-45.1	-47.2	17.0	0.00e+00	0	42	0	0	61	4653
2026-01-14 09:23:37.33	8.46	30.96	-44.6	-46.6	17.7	0.00e+00	0	42	0	0	61	4348
2026-01-14 09:23:40.32	7.87	30.48	-44.8	-46.8	17.4	0.00e+00	0	42	0	0	61	4468
2026-01-14 09:23:43.32	7.30	30.00	-44.7	-46.7	17.5	0.00e+00	0	42	0	0	61	4429
2026-01-14 09:23:46.31	6.75	29.52	-44.7	-46.7	17.4	0.00e+00	0	42	0	0	61	4441
2026-01-14 09:23:49.31	6.21	29.05	-44.9	-47.1	17.1	0.00e+00	0	42	0	0	61	4601
2026-01-14 09:23:52.30	5.70	28.59	-44.4	-46.4	17.7	0.00e+00	0	42	0	0	60	4504
2026-01-14 09:23:55.30	5.19	28.13	-44.3	-46.3	17.8	0.00e+00	0	42	0	0	60	4457
2026-01-14 09:23:58.30	4.70	27.67	-44.2	-46.1	17.9	0.00e+00	0	42	0	0	60	4391
2026-01-14 09:24:01.29	4.22	27.23	-44.3	-46.3	17.9	0.00e+00	0	42	0	0	60	4448
2026-01-14 09:24:04.29	3.76	26.78	-44.2	-46.1	18.0	0.00e+00	0	42	0	0	60	4362
2026-01-14 09:24:07.29	3.31	26.34	-44.1	-46.0	18.0	0.00e+00	0	42	0	0	60	4332
2026-01-14 09:24:10.28	2.87	25.91	-43.7	-45.6	18.4	0.00e+00	0	42	0	0	59	4362
2026-01-14 09:24:13.28	2.44	25.48	-43.9	-45.8	18.2	0.00e+00	0	42	0	0	59	4470
2026-01-14 09:24:16.27	2.03	25.06	-44.0	-45.9	18.2	0.00e+00	0	42	0	0	59	4497
2026-01-14 09:24:19.26	1.63	24.64	-44.1	-46.1	17.9	0.00e+00	0	42	0	0	59	4618
2026-01-14 09:24:22.26	1.24	24.23	-44.3	-46.4	17.7	0.00e+00	0	42	0	0	59	4786
2026-01-14 09:24:25.25	0.86	23.82	-44.4	-46.6	17.5	0.00e+00	0	42	0	0	59	4897
2026-01-14 09:24:28.26	0.48	23.41	-44.7	-46.8	17.2	0.00e+00	0	42	0	0	59	5040
2026-01-14 09:24:31.25	0.12	23.02	-44.6	-46.7	17.4	0.00e+00	0	42	0	0	60	4691
2026-01-14 09:24:34.24	359.77	22.62	-44.4	-46.5	17.6	0.00e+00	0	42	0	0	60	4582
2026-01-14 09:24:37.24	359.42	22.23	-44.3	-46.3	17.8	0.00e+00	0	42	0	0	60	4469
2026-01-14 09:24:40.23	359.09	21.85	-44.3	-46.3	17.8	0.00e+00	0	42	0	0	60	4484
2026-01-14 09:24:43.22	358.76	21.47	-44.3	-46.3	17.8	0.00e+00	0	42	0	0	60	4491
2026-01-14 09:24:46.22	358.44	21.10	-44.3	-46.4	17.8	0.00e+00	0	42	0	0	60	4499
2026-01-14 09:24:49.21	358.13	20.73	-44.3	-46.3	17.7	0.00e+00	0	42	0	0	60	4493
2026-01-14 09:24:52.21	357.83	20.36	-44.3	-46.3	17.8	0.00e+00	0	42	0	0	60	4447
2026-01-14 09:24:55.21	357.53	20.00	-44.1	-46.1	17.9	0.00e+00	0	42	0	0	60	4355
2026-01-14 09:24:58.20	357.25	19.64	-44.1	-46.1	17.9	0.00e+00	0	42	0	0	60	4357
2026-01-14 09:25:01.19	356.96	19.29	-43.8	-45.9	18.0	0.00e+00	0	42	0	0	59	4501
2026-01-14 09:25:04.18	356.69	18.94	-43.9	-45.9	18.0	0.00e+00	0	42	0	0	59	4522
2026-01-14 09:25:07.18	356.42	18.60	-43.9	-45.9	18.0	0.00e+00	0	42	0	0	59	4505
2026-01-14 09:25:10.17	356.16	18.26	-44.1	-46.1	17.9	0.00e+00	0	42	0	0	59	4600
2026-01-14 09:25:13.16	355.90	17.93	-44.1	-46.1	17.8	0.00e+00	0	42	0	0	59	4649
2026-01-14 09:25:16.15	355.65	17.59	-44.4	-46.4	17.6	0.00e+00	0	42	0	0	59	4791
2026-01-14 09:25:19.15	355.41	17.27	-44.6	-46.7	17.3	0.00e+00	0	42	0	0	59	4952
2026-01-14 09:25:22.15	355.17	16.94	-44.9	-47.0	17.1	0.00e+00	0	42	0	0	60	4858
2026-01-14 09:25:25.14	354.93	16.62	-44.8	-47.1	17.0	0.00e+00	0	42	0	0	60	4900
2026-01-14 09:25:28.14	354.70	16.30	-44.9	-47.3	16.8	0.00e+00	0	42	0	0	60	5000
2026-01-14 09:25:31.14	354.48	15.99	-45.1	-47.4	16.7	0.00e+00	0	41	0	0	60	5065
2026-01-14 09:25:34.13	354.26	15.68	-45.1	-47.4	16.7	0.00e+00	0	42	0	0	60	5054
2026-01-14 09:25:37.11	354.05	15.38	-44.9	-47.1	16.9	0.00e+00	0	42	0	0	60	4917
2026-01-14 09:25:40.10	353.84	15.07	-44.8	-47.1	16.9	0.00e+00	0	42	0	0	60	4897
2026-01-14 09:25:43.10	353.63	14.77	-44.8	-47.0	17.0	0.00e+00	0	42	0	0	60	4847
2026-01-14 09:25:46.10	353.43	14.48	-44.9	-47.0	16.9	0.00e+00	0	42	0	0	60	4869
2026-01-14 09:25:49.08	353.23	14.18	-44.7	-46.9	17.1	0.00e+00	0	42	0	0	60	4803
2026-01-14 09:25:52.08	353.04	13.89	-44.8	-47.0	16.9	0.00e+00	0	42	0	0	60	4855
2026-01-14 09:25:55.08	352.85	13.61	-44.6	-46.9	17.1	0.00e+00	0	42	0	0	60	4808
2026-01-14 09:25:58.08	352.66	13.32	-44.5	-47.0	17.0	0.00e+00	0	42	0	0	60	4869
2026-01-14 09:26:01.09	352.48	13.04	-44.5	-47.1	16.9	0.00e+00	0	42	0	0	60	4915
2026-01-14 09:26:04.08	352.30	12.76	-44.4	-47.2	16.8	0.00e+00	0	42	0	0	60	4952
2026-01-14 09:26:07.07	352.13	12.49	-44.4	-47.3	16.8	0.00e+00	0	42	0	0	60	4985
2026-01-14 09:26:10.07	351.96	12.22	-44.7	-47.4	16.6	0.00e+00	0	42	0	0	60	5062
2026-01-14 09:26:13.07	351.79	11.95	-44.8	-47.4	16.6	0.00e+00	0	42	0	0	60	5070
2026-01-14 09:26:16.07	351.62	11.68	-45.0	-47.5	16.5	0.00e+00	0	41	0	0	60	5124
2026-01-14 09:26:19.06	351.46	11.41	-44.8	-47.5	16.5	0.00e+00	0	42	0	0	60	5112
2026-01-14 09:26:22.05	351.31	11.15	-44.6	-47.5	16.5	0.00e+00	0	42	0	0	60	5116
2026-01-14 09:26:25.04	351.15	10.89	-44.5	-47.4	16.5	0.00e+00	0	42	0	0	60	5092
2026-01-14 09:26:28.04	351.00	10.64	-44.7	-47.6	16.4	0.00e+00	0	42	0	0	60	5170
2026-01-14 09:26:31.03	350.85	10.38	-44.8	-47.5	16.4	0.00e+00	0	42	0	0	60	5159
2026-01-14 09:26:34.02	350.70	10.13	-45.1	-47.5	16.4	0.00e+00	0	42	0	0	60	5128
2026-01-14 09:26:37.02	350.56	9.88	-45.3	-47.6	16.3	0.00e+00	0	42	0	0	61	4897
2026-01-14 09:26:40.02	350.42	9.63	-45.5	-47.9	16.0	0.00e+00	0	42	0	0	61	5073
2026-01-14 09:26:43.01	350.28	9.39	-45.3	-47.9	16.0	0.00e+00	0	42	0	0	61	5060
2026-01-14 09:26:46.01	350.14	9.15	-45.2	-48.0	15.9	0.00e+00	0	42	0	0	61	5102
2026-01-14 09:26:49.00	350.01	8.91	-50.1	-65.1	3.8	1.49e+00	0	42	104	0	70	21914
2026-01-14 09:26:52.00	349.87	8.67	-52.5	-65.6	3.8	1.49e+00	0	42	104	0	75	17286
2026-01-14 09:26:55.00	349.75	8.43	-52.7	-65.7	3.8	1.49e+00	0	42	104	0	76	16608
2026-01-14 09:26:57.99	349.62	8.20	-52.7	-65.8	3.8	1.49e+00	0	42	104	0	76	16798
2026-01-14 09:27:00.99	349.49	7.96	-52.8	-65.8	3.8	1.49e+00	0	42	104	0	76	16806
2026-01-14 09:27:03.98	349.37	7.74	-52.6	-65.8	3.8	1.49e+00	0	42	104	0	76	16884
2026-01-14 09:27:06.97	349.25	7.51	-52.8	-65.9	3.8	1.49e+00	0	42	104	0	76	16917
2026-01-14 09:27:09.97	349.13	7.28	-52.8	-65.9	3.8	1.49e+00	0	42	104	0	76	16893
2026-01-14 09:27:12.96	349.02	7.06	-52.9	-65.8	3.8	1.49e+00	0	42	104	0	76	16845
2026-01-14 09:27:15.96	348.90	6.83	-52.7	-65.8	3.8	1.49e+00	0	42	104	0	76	16822
2026-01-14 09:27:18.95	348.79	6.61	-52.6	-65.8	3.8	1.49e+00	0	42	104	0	76	16758
2026-01-14 09:27:21.94	348.68	6.39	-52.6	-65.8	3.8	1.49e+00	0	42	104	0	76	16728
2026-01-14 09:27:24.95	348.57	6.18	-52.6	-65.8	3.8	1.49e+00	0	42	104	0	76	16722
2026-01-14 09:27:27.94	348.46	5.96	-52.6	-65.8	3.8	1.49e+00	0	42	104	0	76	16778
2026-01-14 09:27:30.94	348.36	5.75	-52.6	-65.8	3.8	1.49e+00	0	42	104	0	76	16811
2026-01-14 09:27:33.93	348.25	5.53	-52.6	-65.8	3.8	1.49e+00	0	42	104	0	76	16713
2026-01-14 09:27:36.93	348.15	5.32	-52.6	-65.8	3.8	1.49e+00	0	42	104	0	76	16745
2026-01-14 09:27:39.93	348.05	5.11	-52.5	-65.8	3.8	1.49e+00	0	42	104	0	76	16720

#Closed at: 2026-01-14 09:27:42
#Recorded file [0 MB]: D:/Data/31040_260114_121508.dat