passes_logs/2026/01/14/T1/T1__20260114_023331_FENGYUN_3D_rec.log

#Pass ID: 20260114_023331_FENGYUN 3D
#Satellite: FENGYUN 3D
#Configuration: FENGYUN 3D
#almurnet v.1.7.20251203
#Start time: 2026-01-14 02:33:33

#Version: 2.0.20230620
#Station: T1
#Location: 37.570604 lon 55.790049 lat
#TLE: 1 43010U 17072A   26013.31211337  .00000452  00000+0  23563-3 0  9990
#TLE: 2 43010  98.9934 345.1024 0002270 111.0315 249.1103 14.19696845423017

#Time	Az	El	Level	Level2	SNR	BER	BlckErr	Temp	State	Recorded	gain1	gain2
2026-01-14 02:33:33.16	11.92	5.08	-47.9	-62.2	3.8	8.47e-01	0	39	0	0	67	18688
2026-01-14 02:33:36.13	11.80	5.29	-47.9	-62.1	3.8	8.47e-01	0	39	104	0	66	19509
2026-01-14 02:33:39.11	11.69	5.50	-47.9	-61.9	3.8	8.47e-01	0	39	104	0	66	19147
2026-01-14 02:33:42.09	11.57	5.71	-47.8	-61.7	3.8	8.47e-01	0	39	104	0	66	18676
2026-01-14 02:33:45.07	11.45	5.92	-47.9	-61.5	3.8	8.47e-01	0	39	104	0	66	18279
2026-01-14 02:33:48.05	11.33	6.13	-47.8	-61.3	3.8	8.47e-01	0	39	104	0	66	17766
2026-01-14 02:33:51.03	11.21	6.34	-47.8	-60.8	3.8	8.45e-01	0	39	104	0	66	16766
2026-01-14 02:33:54.01	11.09	6.56	-47.7	-60.4	3.8	8.47e-01	0	39	104	0	66	16007
2026-01-14 02:33:56.99	10.96	6.78	-47.8	-61.0	3.8	8.46e-01	0	39	104	0	66	17109
2026-01-14 02:33:59.97	10.83	7.00	-47.9	-62.2	3.8	8.47e-01	0	39	104	0	66	19737
2026-01-14 02:34:02.95	10.70	7.22	-47.8	-60.2	3.8	8.47e-01	0	39	104	0	66	15613
2026-01-14 02:34:05.93	10.57	7.44	-47.1	-55.4	5.8	7.15e-01	0	39	0	0	66	9025
2026-01-14 02:34:08.91	10.43	7.67	-46.2	-52.2	8.6	5.92e-02	0	39	0	16777216	64	6989
2026-01-14 02:34:11.89	10.30	7.89	-45.4	-50.2	10.8	4.42e-03	0	39	0	33554432	62	6252
2026-01-14 02:34:14.87	10.16	8.12	-44.7	-48.8	12.2	3.24e-04	0	39	0	50331648	61	5617
2026-01-14 02:34:17.85	10.01	8.35	-44.3	-48.0	13.0	6.17e-05	0	39	0	67108864	60	5464
2026-01-14 02:34:20.83	9.87	8.59	-44.4	-48.3	12.8	8.81e-05	0	39	0	83886080	60	5613
2026-01-14 02:34:23.81	9.72	8.82	-45.5	-50.2	10.7	2.82e-03	0	39	0	100663296	61	6637
2026-01-14 02:34:26.79	9.57	9.06	-46.9	-54.8	6.2	2.24e-01	0	39	0	117440512	64	9413
2026-01-14 02:34:29.85	9.42	9.30	-46.3	-51.7	9.1	6.20e-01	0	39	0	121634816	64	6626
2026-01-14 02:34:32.84	9.26	9.54	-45.2	-49.2	11.8	4.93e-02	0	39	0	134217728	62	5584
2026-01-14 02:34:35.82	9.10	9.79	-43.0	-45.7	15.4	1.10e-06	0	39	0	152043520	58	4705
2026-01-14 02:34:38.81	8.94	10.03	-42.3	-44.8	16.3	0.00e+00	0	39	0	168820736	56	4738
2026-01-14 02:34:41.79	8.78	10.28	-41.6	-44.1	16.8	0.00e+00	0	39	0	184549376	55	4640
2026-01-14 02:34:44.78	8.61	10.53	-41.6	-44.1	16.9	0.00e+00	0	39	0	202375168	55	4599
2026-01-14 02:34:47.89	8.43	10.79	-41.5	-44.0	17.0	0.00e+00	0	39	0	219152384	55	4557
2026-01-14 02:34:50.78	8.26	11.04	-41.3	-43.8	17.2	0.00e+00	0	39	0	235929600	54	4740
2026-01-14 02:34:54.25	8.06	11.34	-41.3	-43.7	17.2	0.00e+00	0	39	0	254803968	54	4705
2026-01-14 02:34:57.24	7.88	11.60	-41.3	-43.8	17.1	0.00e+00	0	39	0	271581184	54	4750
2026-01-14 02:35:00.22	7.69	11.86	-41.3	-43.8	17.2	0.00e+00	0	39	0	288358400	54	4752
2026-01-14 02:35:03.50	7.49	12.15	-41.3	-43.8	17.2	0.00e+00	0	39	0	307232768	54	4735
2026-01-14 02:35:06.21	7.31	12.40	-41.4	-43.9	17.1	0.00e+00	0	39	0	322961408	54	4796
2026-01-14 02:35:09.48	7.10	12.69	-41.1	-43.6	17.4	0.00e+00	0	39	0	340787200	54	4618
2026-01-14 02:35:12.20	6.92	12.94	-41.2	-43.6	17.4	0.00e+00	0	39	0	356515840	54	4620
2026-01-14 02:35:15.49	6.69	13.24	-41.0	-43.4	17.6	0.00e+00	0	39	0	374341632	54	4527
2026-01-14 02:35:18.23	6.50	13.50	-41.0	-43.3	17.7	0.00e+00	0	39	0	390070272	53	4740
2026-01-14 02:35:21.50	6.27	13.81	-40.9	-43.2	17.8	0.00e+00	0	39	0	407896064	53	4660
2026-01-14 02:35:24.22	6.08	14.07	-41.0	-43.2	17.8	0.00e+00	0	39	0	423624704	53	4690
2026-01-14 02:35:27.74	5.82	14.41	-40.8	-43.1	17.9	0.00e+00	0	39	0	443547648	53	4634
2026-01-14 02:35:30.44	5.61	14.67	-40.8	-43.1	17.9	0.00e+00	0	39	0	458227712	53	4614
2026-01-14 02:35:33.71	5.36	14.99	-40.8	-43.0	18.0	0.00e+00	0	39	0	477102080	53	4577
2026-01-14 02:35:36.48	5.14	15.27	-40.7	-43.0	18.0	0.00e+00	0	39	0	492830720	53	4548
2026-01-14 02:35:39.76	4.88	15.59	-40.5	-42.6	18.4	0.00e+00	0	39	0	511705088	53	4378
2026-01-14 02:35:42.83	4.63	15.91	-40.3	-42.4	18.6	0.00e+00	0	39	0	528482304	52	4521
2026-01-14 02:35:46.10	4.35	16.24	-40.4	-42.4	18.6	0.00e+00	0	39	0	546308096	52	4544
2026-01-14 02:35:48.87	4.12	16.53	-40.4	-42.4	18.7	0.00e+00	0	39	0	562036736	52	4500
2026-01-14 02:35:52.14	3.83	16.87	-40.5	-42.5	18.6	0.00e+00	0	39	0	580911104	52	4549
2026-01-14 02:35:54.99	3.57	17.18	-40.5	-42.4	18.6	0.00e+00	0	39	0	596639744	52	4534
2026-01-14 02:35:58.12	3.29	17.51	-40.3	-42.2	18.8	0.00e+00	0	39	0	614465536	52	4416
2026-01-14 02:36:00.96	3.02	17.82	-40.1	-42.0	19.0	0.00e+00	0	39	0	630194176	52	4336
2026-01-14 02:36:04.09	2.72	18.16	-40.2	-42.1	18.9	0.00e+00	0	39	0	648019968	52	4361
2026-01-14 02:36:07.01	2.43	18.49	-40.1	-41.9	19.1	0.00e+00	0	39	0	664797184	52	4290
2026-01-14 02:36:10.00	2.13	18.82	-40.1	-42.0	19.1	0.00e+00	0	39	0	681574400	52	4307
2026-01-14 02:36:12.99	1.83	19.16	-40.1	-42.0	19.0	0.00e+00	0	39	0	698351616	52	4336
2026-01-14 02:36:15.97	1.51	19.50	-40.0	-41.9	19.1	0.00e+00	0	39	0	715128832	52	4280
2026-01-14 02:36:18.96	1.19	19.85	-40.0	-41.9	19.2	0.00e+00	0	39	0	731906048	52	4254
2026-01-14 02:36:21.94	0.87	20.20	-39.7	-41.6	19.5	0.00e+00	0	39	0	748683264	51	4351
2026-01-14 02:36:24.92	0.53	20.55	-39.8	-41.7	19.5	0.00e+00	0	39	0	765460480	51	4400
2026-01-14 02:36:27.91	0.18	20.91	-39.5	-41.3	19.8	0.00e+00	0	39	0	782237696	51	4239
2026-01-14 02:36:30.93	359.83	21.28	-39.6	-41.4	19.7	0.00e+00	0	39	0	799014912	50	4542
2026-01-14 02:36:33.96	359.46	21.65	-39.6	-41.5	19.7	0.00e+00	0	39	0	815792128	50	4549
2026-01-14 02:36:36.99	359.08	22.03	-39.5	-41.4	19.8	0.00e+00	0	39	0	832569344	50	4513
2026-01-14 02:36:39.98	358.70	22.40	-39.2	-41.1	20.0	0.00e+00	0	39	0	850395136	50	4356
2026-01-14 02:36:42.96	358.31	22.78	-39.2	-41.0	20.1	0.00e+00	0	39	0	867172352	50	4317
2026-01-14 02:36:45.95	357.91	23.16	-39.1	-40.9	20.2	0.00e+00	0	39	0	882900992	50	4271
2026-01-14 02:36:48.98	357.50	23.56	-39.1	-40.9	20.2	0.00e+00	0	39	0	900726784	49	4510
2026-01-14 02:36:51.96	357.08	23.95	-38.9	-40.7	20.4	0.00e+00	0	39	0	917504000	49	4404
2026-01-14 02:36:54.94	356.65	24.34	-38.9	-40.7	20.4	0.00e+00	0	39	0	934281216	49	4428
2026-01-14 02:36:57.93	356.20	24.74	-38.8	-40.7	20.4	0.00e+00	0	39	0	951058432	49	4402
2026-01-14 02:37:00.91	355.75	25.15	-38.6	-40.4	20.7	0.00e+00	0	39	0	967835648	49	4277
2026-01-14 02:37:03.93	355.28	25.56	-38.6	-40.5	20.6	0.00e+00	0	39	0	984612864	49	4301
2026-01-14 02:37:06.91	354.80	25.97	-38.7	-40.6	20.5	0.00e+00	0	39	0	1001390080	49	4345
2026-01-14 02:37:09.89	354.31	26.39	-38.4	-40.2	20.9	0.00e+00	0	39	0	1018167296	48	4414
2026-01-14 02:37:12.88	353.80	26.81	-38.3	-40.0	21.0	0.00e+00	0	39	0	1034944512	48	4339
2026-01-14 02:37:15.88	353.28	27.24	-38.4	-40.2	20.9	0.00e+00	0	39	0	1051721728	48	4425
2026-01-14 02:37:18.83	352.75	27.66	-38.5	-40.3	20.8	0.00e+00	0	39	0	1068498944	48	4475
2026-01-14 02:37:21.83	352.20	28.09	-38.5	-40.2	20.9	0.00e+00	0	39	0	1085276160	48	4428
2026-01-14 02:37:24.82	351.63	28.53	-38.3	-40.0	21.1	0.00e+00	0	39	0	1102053376	48	4328
2026-01-14 02:37:27.81	351.05	28.97	-38.3	-40.1	21.0	0.00e+00	0	39	0	1118830592	48	4353
2026-01-14 02:37:30.84	350.45	29.42	-38.5	-40.2	20.9	0.00e+00	0	39	0	1135607808	48	4441
2026-01-14 02:37:33.93	349.81	29.89	-38.5	-40.3	20.8	0.00e+00	0	39	0	1153433600	48	4457
2026-01-14 02:37:36.84	349.20	30.33	-38.4	-40.1	20.9	0.00e+00	0	39	0	1169162240	48	4389
2026-01-14 02:37:40.11	348.48	30.82	-38.5	-40.2	20.9	0.00e+00	0	39	0	1188036608	48	4416
2026-01-14 02:37:42.88	347.86	31.25	-38.3	-40.1	21.0	0.00e+00	0	39	0	1203765248	48	4349
2026-01-14 02:37:46.10	347.12	31.74	-38.1	-39.8	21.3	0.00e+00	0	39	0	1221591040	48	4227
2026-01-14 02:37:48.94	346.44	32.18	-38.2	-39.9	21.1	0.00e+00	0	39	0	1237319680	48	4277
2026-01-14 02:37:52.32	345.61	32.71	-38.0	-39.8	21.3	0.00e+00	0	39	0	1257242624	48	4197
2026-01-14 02:37:55.30	344.86	33.17	-37.8	-39.5	21.3	0.00e+00	0	39	0	1272971264	47	4321
2026-01-14 02:37:58.29	344.08	33.64	-38.1	-39.8	21.0	0.00e+00	0	39	0	1290797056	47	4472
2026-01-14 02:38:01.27	343.28	34.10	-38.0	-39.8	21.1	0.00e+00	0	39	0	1307574272	47	4459
2026-01-14 02:38:04.26	342.46	34.57	-38.3	-40.1	20.8	0.00e+00	0	39	0	1323302912	47	4616
2026-01-14 02:38:07.24	341.61	35.04	-38.1	-39.8	21.0	0.00e+00	0	39	0	1341128704	47	4493
2026-01-14 02:38:10.22	340.74	35.51	-37.8	-39.6	21.2	0.00e+00	0	39	0	1357905920	47	4351
2026-01-14 02:38:13.21	339.84	35.98	-38.1	-39.8	21.1	0.00e+00	0	39	0	1373634560	47	4471
2026-01-14 02:38:16.27	338.89	36.45	-37.8	-39.5	21.3	0.00e+00	0	39	0	1391460352	47	4325
2026-01-14 02:38:19.54	337.85	36.96	-38.0	-39.7	21.1	0.00e+00	0	39	0	1410334720	47	4427
2026-01-14 02:38:22.25	336.96	37.38	-37.9	-39.6	21.2	0.00e+00	0	39	0	1425014784	47	4388
2026-01-14 02:38:25.52	335.85	37.88	-37.9	-39.7	21.2	0.00e+00	0	39	0	1443889152	47	4404
2026-01-14 02:38:28.25	334.90	38.29	-38.2	-39.9	20.9	0.00e+00	0	39	0	1458569216	47	4543
2026-01-14 02:38:31.62	333.70	38.80	-38.1	-39.8	21.0	0.00e+00	0	39	0	1477443584	47	4467
2026-01-14 02:38:34.71	332.56	39.26	-38.2	-39.9	21.0	0.00e+00	0	39	0	1495269376	47	4528
2026-01-14 02:38:37.84	331.37	39.71	-38.3	-40.0	20.8	0.00e+00	0	39	0	1513095168	47	4586
2026-01-14 02:38:40.68	330.26	40.12	-38.1	-39.9	21.0	0.00e+00	0	39	0	1528823808	47	4536
2026-01-14 02:38:43.91	328.97	40.57	-38.0	-39.7	21.1	0.00e+00	0	39	0	1546649600	47	4435
2026-01-14 02:38:46.83	327.77	40.97	-38.1	-39.8	21.0	0.00e+00	0	39	0	1563426816	47	4471
2026-01-14 02:38:50.07	326.40	41.40	-37.9	-39.7	21.2	0.00e+00	0	39	0	1581252608	47	4392
2026-01-14 02:38:52.95	325.16	41.77	-37.8	-39.5	21.3	0.00e+00	0	39	0	1598029824	47	4332
2026-01-14 02:38:56.12	323.75	42.16	-38.0	-39.8	21.1	0.00e+00	0	39	0	1615855616	47	4456
2026-01-14 02:38:59.41	322.26	42.55	-37.8	-39.5	21.3	0.00e+00	0	39	0	1634729984	47	4314
2026-01-14 02:39:02.15	320.99	42.87	-37.8	-39.6	21.2	0.00e+00	0	39	0	1649410048	47	4349
2026-01-14 02:39:05.42	319.44	43.22	-37.5	-39.2	21.5	0.00e+00	0	39	0	1668284416	47	4181
2026-01-14 02:39:08.18	318.10	43.50	-37.6	-39.3	21.5	0.00e+00	0	39	0	1684013056	46	4457
2026-01-14 02:39:11.94	316.25	43.86	-37.9	-39.6	21.3	0.00e+00	0	39	0	1704984576	46	4610
2026-01-14 02:39:14.63	314.89	44.10	-37.7	-39.5	21.3	0.00e+00	0	39	0	1719664640	46	4549
2026-01-14 02:39:17.93	313.21	44.37	-37.7	-39.4	21.4	0.00e+00	0	39	0	1738539008	46	4511
2026-01-14 02:39:20.63	311.81	44.57	-37.8	-39.5	21.3	0.00e+00	0	39	0	1753219072	46	4580
2026-01-14 02:39:23.91	310.08	44.79	-38.1	-39.8	21.0	0.00e+00	0	39	0	1772093440	46	4756
2026-01-14 02:39:26.61	308.64	44.95	-38.1	-39.8	21.0	0.00e+00	0	39	0	1787822080	46	4741
2026-01-14 02:39:29.89	306.88	45.12	-38.0	-39.7	21.1	0.00e+00	0	39	0	1805647872	46	4692
2026-01-14 02:39:32.63	305.39	45.24	-38.0	-39.8	21.1	0.00e+00	0	39	0	1821376512	46	4710
2026-01-14 02:39:35.90	303.61	45.35	-37.9	-39.7	21.2	0.00e+00	0	39	0	1839202304	46	4658
2026-01-14 02:39:38.76	302.03	45.42	-37.8	-39.5	21.3	0.00e+00	0	39	0	1855979520	46	4593
2026-01-14 02:39:42.11	300.18	45.48	-37.8	-39.6	21.2	0.00e+00	0	39	0	1874853888	46	4600
2026-01-14 02:39:44.94	298.62	45.50	-37.8	-39.5	21.3	0.00e+00	0	39	0	1890582528	46	4574
2026-01-14 02:39:48.22	296.80	45.49	-37.5	-39.2	21.5	0.00e+00	0	39	0	1908408320	46	4405
2026-01-14 02:39:50.95	295.29	45.46	-37.8	-39.5	21.3	0.00e+00	0	39	0	1924136960	46	4557
2026-01-14 02:39:54.23	293.48	45.40	-37.8	-39.5	21.3	0.00e+00	0	39	0	1943011328	46	4572
2026-01-14 02:39:56.95	291.99	45.32	-37.9	-39.6	21.2	0.00e+00	0	39	0	1957691392	46	4599
2026-01-14 02:40:00.47	290.07	45.19	-37.5	-39.2	21.6	0.00e+00	0	39	0	1977614336	46	4410
2026-01-14 02:40:03.22	288.58	45.06	-37.9	-39.6	21.3	0.00e+00	0	39	0	1993342976	46	4617
2026-01-14 02:40:07.14	286.48	44.84	-37.7	-39.4	21.4	0.00e+00	0	39	0	2015363072	46	4536
2026-01-14 02:40:09.95	284.99	44.66	-37.8	-39.6	21.3	0.00e+00	0	39	0	2031091712	46	4599
2026-01-14 02:40:13.36	283.22	44.42	-37.6	-39.3	21.5	0.00e+00	0	39	0	2049966080	46	4445
2026-01-14 02:40:16.09	281.81	44.20	-37.8	-39.5	21.3	0.00e+00	0	39	0	2065694720	46	4561
2026-01-14 02:40:19.38	280.15	43.91	-37.7	-39.4	21.4	0.00e+00	0	39	0	2083520512	46	4507
2026-01-14 02:40:22.09	278.80	43.66	-37.4	-39.1	21.6	0.00e+00	0	39	0	2099249152	46	4372
2026-01-14 02:40:25.44	277.16	43.32	-37.5	-39.2	21.6	0.00e+00	0	39	0	2118123520	46	4419
2026-01-14 02:40:28.15	275.86	43.03	-37.5	-39.2	21.6	0.00e+00	0	39	0	2132803584	46	4408
2026-01-14 02:40:31.42	274.33	42.67	-37.4	-39.1	21.6	0.00e+00	0	39	0	2151677952	46	4379
2026-01-14 02:40:34.16	273.07	42.35	-37.5	-39.2	21.5	0.00e+00	0	39	0	2167406592	46	4432
2026-01-14 02:40:37.98	271.36	41.88	-37.6	-39.3	21.5	0.00e+00	0	39	0	2188378112	46	4455
2026-01-14 02:40:40.82	270.12	41.52	-37.6	-39.3	21.4	0.00e+00	0	39	0	2205155328	46	4490
2026-01-14 02:40:44.93	268.37	40.97	-37.6	-39.3	21.5	0.00e+00	0	39	0	2228224000	46	4443
2026-01-14 02:40:47.75	267.21	40.59	-37.4	-39.1	21.7	0.00e+00	0	39	0	2243952640	46	4346
2026-01-14 02:40:51.51	265.70	40.06	-37.5	-39.2	21.6	0.00e+00	0	39	0	2264924160	46	4405
2026-01-14 02:40:54.50	264.53	39.63	-37.4	-39.1	21.6	0.00e+00	0	39	0	2281701376	46	4366
2026-01-14 02:40:57.48	263.40	39.19	-37.4	-39.1	21.6	0.00e+00	0	39	0	2298478592	46	4374
2026-01-14 02:41:00.44	262.31	38.75	-37.6	-39.3	21.4	0.00e+00	0	39	0	2315255808	46	4475
2026-01-14 02:41:03.42	261.24	38.30	-37.7	-39.3	21.4	0.00e+00	0	39	0	2332033024	46	4489
2026-01-14 02:41:06.41	260.20	37.85	-37.5	-39.2	21.5	0.00e+00	0	39	0	2348810240	46	4427
2026-01-14 02:41:09.39	259.18	37.39	-37.7	-39.4	21.3	0.00e+00	0	39	0	2365587456	46	4541
2026-01-14 02:41:12.60	258.12	36.89	-37.4	-39.1	21.6	0.00e+00	0	39	0	2383413248	46	4370
2026-01-14 02:41:15.44	257.22	36.45	-37.5	-39.2	21.5	0.00e+00	0	39	0	2399141888	46	4436
2026-01-14 02:41:18.57	256.24	35.96	-37.7	-39.4	21.3	0.00e+00	0	39	0	2416967680	46	4543
2026-01-14 02:41:21.41	255.38	35.51	-37.4	-39.0	21.7	0.00e+00	0	39	0	2432696320	46	4329
2026-01-14 02:41:24.54	254.46	35.02	-37.2	-38.9	21.8	0.00e+00	0	39	0	2450522112	46	4259
2026-01-14 02:41:27.43	253.64	34.57	-37.3	-38.9	21.8	0.00e+00	0	39	0	2467299328	46	4281
2026-01-14 02:41:30.56	252.77	34.07	-37.4	-39.1	21.6	0.00e+00	0	39	0	2484076544	46	4345
2026-01-14 02:41:33.40	252.01	33.63	-37.6	-39.4	21.4	0.00e+00	0	39	0	2499805184	46	4497
2026-01-14 02:41:36.53	251.19	33.13	-37.6	-39.2	21.5	0.00e+00	0	39	0	2517630976	46	4440
2026-01-14 02:41:39.37	250.47	32.69	-37.4	-39.1	21.6	0.00e+00	0	39	0	2534408192	46	4375
2026-01-14 02:41:42.50	249.69	32.20	-37.5	-39.2	21.6	0.00e+00	0	39	0	2551185408	46	4395
2026-01-14 02:41:45.34	249.01	31.76	-37.4	-39.1	21.6	0.00e+00	0	39	0	2567962624	46	4360
2026-01-14 02:41:48.47	248.28	31.28	-37.7	-39.4	21.3	0.00e+00	0	39	0	2584739840	46	4526
2026-01-14 02:41:51.31	247.64	30.84	-37.9	-39.6	21.2	0.00e+00	0	39	0	2601517056	46	4632
2026-01-14 02:41:54.44	246.95	30.36	-37.9	-39.6	21.1	0.00e+00	0	39	0	2618294272	46	4628
2026-01-14 02:41:57.28	246.34	29.93	-37.6	-39.3	21.4	0.00e+00	0	39	0	2635071488	46	4463
2026-01-14 02:42:00.45	245.69	29.45	-37.7	-39.4	21.4	0.00e+00	0	39	0	2652897280	46	4506
2026-01-14 02:42:03.31	245.11	29.02	-37.8	-39.5	21.2	0.00e+00	0	39	0	2668625920	46	4580
2026-01-14 02:42:06.61	244.46	28.53	-38.0	-39.8	21.0	0.00e+00	0	39	0	2687500288	46	4714
2026-01-14 02:42:09.33	243.94	28.13	-38.1	-39.8	21.0	0.00e+00	0	39	0	2702180352	46	4734
2026-01-14 02:42:12.63	243.33	27.65	-38.0	-39.8	21.0	0.00e+00	0	39	0	2721054720	46	4713
2026-01-14 02:42:15.86	242.75	27.19	-38.3	-40.1	20.8	0.00e+00	0	39	0	2738880512	47	4599
2026-01-14 02:42:18.75	242.24	26.77	-38.3	-40.0	20.8	0.00e+00	0	39	0	2755657728	47	4575
2026-01-14 02:42:22.29	241.64	26.27	-38.2	-40.0	20.8	0.00e+00	0	39	0	2775580672	47	4550
2026-01-14 02:42:25.27	241.14	25.85	-38.4	-40.1	20.6	0.00e+00	0	39	0	2792357888	47	4641
2026-01-14 02:42:28.54	240.62	25.40	-38.2	-40.0	20.8	0.00e+00	0	39	0	2810183680	47	4547
2026-01-14 02:42:31.24	240.20	25.03	-38.2	-39.9	20.8	0.00e+00	0	39	0	2825912320	47	4529
2026-01-14 02:42:34.62	239.68	24.57	-38.2	-40.0	20.8	0.00e+00	0	39	0	2844786688	47	4546
2026-01-14 02:42:37.66	239.23	24.16	-38.2	-39.9	20.8	0.00e+00	0	39	0	2861563904	47	4541
2026-01-14 02:42:40.94	238.76	23.73	-38.1	-39.9	20.8	0.00e+00	0	39	0	2880438272	47	4500
2026-01-14 02:42:43.67	238.37	23.37	-38.3	-40.0	20.7	0.00e+00	0	39	0	2896166912	47	4597
2026-01-14 02:42:47.03	237.91	22.93	-38.5	-40.3	20.4	0.00e+00	0	39	0	2915041280	47	4745
2026-01-14 02:42:50.03	237.51	22.55	-38.6	-40.4	20.4	0.00e+00	0	39	0	2931818496	47	4768
2026-01-14 02:42:53.01	237.12	22.17	-38.8	-40.6	20.5	0.00e+00	0	39	0	2948595712	48	4605
2026-01-14 02:42:56.00	236.74	21.80	-38.9	-40.6	20.4	0.00e+00	0	39	0	2965372928	48	4645
2026-01-14 02:42:58.99	236.37	21.43	-38.8	-40.6	20.4	0.00e+00	0	39	0	2982150144	48	4633
2026-01-14 02:43:01.97	236.01	21.06	-38.8	-40.5	20.5	0.00e+00	0	39	0	2998927360	48	4591
2026-01-14 02:43:04.96	235.66	20.70	-38.8	-40.6	20.4	0.00e+00	0	39	0	3015704576	48	4609
2026-01-14 02:43:07.94	235.32	20.34	-38.9	-40.7	20.3	0.00e+00	0	39	0	3032481792	48	4697
2026-01-14 02:43:10.96	234.98	19.98	-39.3	-41.1	19.9	0.00e+00	0	39	0	3049259008	49	4614
2026-01-14 02:43:13.98	234.64	19.63	-39.4	-41.2	19.8	0.00e+00	0	39	0	3066036224	49	4701
2026-01-14 02:43:16.96	234.32	19.28	-39.5	-41.4	19.7	0.00e+00	0	39	0	3082813440	49	4775
2026-01-14 02:43:19.95	234.01	18.94	-39.4	-41.2	19.8	0.00e+00	0	39	0	3099590656	49	4698
2026-01-14 02:43:22.93	233.71	18.60	-39.6	-41.4	19.6	0.00e+00	0	39	0	3116367872	49	4785
2026-01-14 02:43:25.91	233.41	18.27	-39.7	-41.5	19.5	0.00e+00	0	39	0	3133145088	50	4589
2026-01-14 02:43:28.96	233.11	17.93	-39.8	-41.7	19.4	0.00e+00	0	39	0	3150970880	50	4653
2026-01-14 02:43:31.95	232.82	17.60	-39.8	-41.7	19.4	0.00e+00	0	39	0	3166699520	50	4658
2026-01-14 02:43:34.94	232.54	17.28	-39.8	-41.7	19.3	0.00e+00	0	39	0	3183476736	50	4683
2026-01-14 02:43:37.92	232.27	16.96	-39.8	-41.7	19.3	0.00e+00	0	39	0	3201302528	50	4675
2026-01-14 02:43:40.91	232.00	16.64	-39.9	-41.7	19.3	0.00e+00	0	39	0	3218079744	50	4696
2026-01-14 02:43:43.94	231.73	16.32	-40.0	-41.8	19.2	0.00e+00	0	40	0	3234856960	50	4740
2026-01-14 02:43:46.87	231.48	16.02	-40.0	-41.9	19.1	0.00e+00	0	39	0	3251634176	50	4779
2026-01-14 02:43:50.00	231.22	15.69	-40.1	-42.0	19.0	0.00e+00	0	39	0	3268411392	51	4591
2026-01-14 02:43:52.84	230.98	15.41	-40.2	-42.0	19.0	0.00e+00	0	39	0	3284140032	51	4590
2026-01-14 02:43:56.02	230.73	15.09	-40.2	-42.1	18.9	0.00e+00	0	39	0	3303014400	51	4623
2026-01-14 02:43:58.89	230.50	14.80	-40.3	-42.2	18.8	0.00e+00	0	40	0	3318743040	51	4673
2026-01-14 02:44:02.08	230.25	14.49	-40.5	-42.4	18.6	0.00e+00	0	40	0	3336568832	51	4798
2026-01-14 02:44:04.92	230.04	14.21	-40.6	-42.6	18.3	0.00e+00	0	40	0	3352297472	52	4618
2026-01-14 02:44:08.05	229.80	13.91	-40.6	-42.6	18.4	0.00e+00	0	40	0	3370123264	52	4602
2026-01-14 02:44:10.90	229.60	13.64	-40.7	-42.6	18.3	0.00e+00	0	40	0	3385851904	52	4644
2026-01-14 02:44:14.02	229.37	13.34	-40.7	-42.7	18.2	0.00e+00	0	40	0	3403677696	52	4665
2026-01-14 02:44:16.98	229.16	13.07	-40.7	-42.6	18.3	0.00e+00	0	39	0	3420454912	52	4621
2026-01-14 02:44:20.15	228.95	12.77	-40.8	-42.7	18.2	0.00e+00	0	39	0	3438280704	52	4688
2026-01-14 02:44:23.03	228.75	12.51	-40.8	-42.7	18.2	0.00e+00	0	40	0	3454009344	52	4679
2026-01-14 02:44:26.15	228.55	12.23	-40.9	-42.9	18.0	0.00e+00	0	40	0	3471835136	52	4807
2026-01-14 02:44:29.25	228.35	11.95	-41.1	-43.1	17.8	0.00e+00	0	40	0	3489660928	52	4904
2026-01-14 02:44:32.31	228.15	11.68	-41.1	-43.1	17.8	0.00e+00	0	40	0	3506438144	52	4895
2026-01-14 02:44:35.36	227.96	11.41	-41.1	-43.1	17.8	0.00e+00	0	39	0	3523215360	52	4897
2026-01-14 02:44:38.69	227.76	11.12	-41.1	-43.1	17.7	0.00e+00	0	40	0	3542089728	52	4919
2026-01-14 02:44:41.41	227.60	10.88	-41.1	-43.1	17.7	0.00e+00	0	40	0	3557818368	53	4646
2026-01-14 02:44:44.68	227.40	10.60	-41.2	-43.3	17.6	0.00e+00	0	40	0	3576692736	53	4715
2026-01-14 02:44:47.70	227.23	10.35	-41.2	-43.3	17.5	0.00e+00	0	39	0	3593469952	53	4735
2026-01-14 02:44:50.68	227.06	10.10	-41.2	-43.3	17.5	0.00e+00	0	40	0	3610247168	53	4744
2026-01-14 02:44:53.67	226.89	9.85	-41.3	-43.5	17.3	0.00e+00	0	39	0	3627024384	53	4822
2026-01-14 02:44:56.66	226.73	9.60	-41.6	-43.8	17.0	0.00e+00	0	40	0	3643801600	53	4992
2026-01-14 02:44:59.64	226.57	9.36	-41.5	-43.6	17.1	0.00e+00	0	39	0	3660578816	53	4892
2026-01-14 02:45:02.75	226.40	9.11	-41.7	-43.8	16.9	0.00e+00	0	40	0	3677356032	54	4756
2026-01-14 02:45:05.63	226.25	8.88	-50.2	-61.9	3.8	8.45e-01	0	40	104	3689938944	71	14323
2026-01-14 02:45:08.75	226.09	8.63	-50.6	-62.8	3.8	8.46e-01	0	40	104	3689938944	71	15930
2026-01-14 02:45:11.59	225.95	8.41	-50.8	-63.0	3.8	8.47e-01	0	40	104	3689938944	72	15237
2026-01-14 02:45:14.71	225.80	8.16	-50.8	-62.9	3.8	8.46e-01	0	40	104	3689938944	72	15222
2026-01-14 02:45:17.55	225.66	7.94	-50.7	-63.0	3.8	8.47e-01	0	40	104	3689938944	72	15323
2026-01-14 02:45:20.67	225.51	7.70	-50.8	-63.0	3.8	8.47e-01	0	40	104	3689938944	72	15286
2026-01-14 02:45:23.51	225.38	7.49	-50.7	-62.9	3.8	8.48e-01	0	40	104	3689938944	72	15186
2026-01-14 02:45:26.63	225.23	7.25	-50.6	-63.0	3.8	8.47e-01	0	40	104	3689938944	72	15269
2026-01-14 02:45:29.47	225.10	7.04	-50.6	-62.9	3.8	8.46e-01	0	40	104	3689938944	72	15129
2026-01-14 02:45:32.60	224.96	6.81	-50.6	-62.9	3.8	8.47e-01	0	40	104	3689938944	72	15146
2026-01-14 02:45:35.43	224.84	6.60	-50.6	-62.9	3.8	8.46e-01	0	40	104	3689938944	72	15093
2026-01-14 02:45:38.56	224.70	6.37	-50.6	-62.9	3.8	8.46e-01	0	40	104	3689938944	72	15111
2026-01-14 02:45:41.39	224.58	6.16	-50.6	-62.9	3.8	8.48e-01	0	40	104	3689938944	72	15090
2026-01-14 02:45:44.52	224.45	5.94	-50.6	-62.9	3.8	8.47e-01	0	40	104	3689938944	72	15109
2026-01-14 02:45:47.35	224.33	5.73	-50.6	-62.9	3.8	8.47e-01	0	40	104	3689938944	72	15102
2026-01-14 02:45:50.48	224.21	5.51	-50.6	-62.9	3.8	8.46e-01	0	40	104	3689938944	72	15104
2026-01-14 02:45:53.31	224.09	5.31	-50.6	-62.9	3.8	8.47e-01	0	40	104	3689938944	72	15106
2026-01-14 02:45:56.44	223.97	5.09	-50.6	-62.9	3.8	8.47e-01	0	40	104	3689938944	72	15063

#Closed at: 2026-01-14 02:45:59
#Recorded file [3689 MB]: D:/Data/31040_260114_053333.dat