passes_logs/2026/01/14/T1/T1__20260114_032409_AQUA_rec.log

#Pass ID: 20260114_032409_AQUA
#Satellite: AQUA
#Configuration: AQUA
#almurnet v.1.7.20251203
#Start time: 2026-01-14 03:24:10

#Version: 2.0.20230620
#Station: T1
#Location: 37.570604 lon 55.790049 lat
#TLE: 1 27424U 02022A   26013.25278823  .00000890  00000+0  18808-3 0  9998
#TLE: 2 27424  98.4079 339.6508 0002047  80.3961  24.1839 14.61818714260637

#Time	Az	El	Level	Level2	SNR	BER	BlckErr	Temp	State	Recorded	gain1	gain2
2026-01-14 03:24:10.30	358.31	5.03	-50.4	-71.7	3.8	7.47e-01	0	40	0	0	72	41471
2026-01-14 03:24:12.28	358.08	5.13	-45.3	-70.1	3.4	7.63e-01	0	40	104	0	61	65535
2026-01-14 03:24:14.27	357.83	5.24	-45.3	-70.1	3.4	7.64e-01	0	40	104	0	61	65535
2026-01-14 03:24:16.26	357.59	5.34	-45.2	-70.1	3.4	7.64e-01	0	40	104	0	61	65535
2026-01-14 03:24:18.24	357.35	5.45	-45.2	-70.1	3.4	7.64e-01	0	40	104	0	61	65535
2026-01-14 03:24:20.23	357.10	5.55	-45.2	-70.1	3.4	7.67e-01	0	40	104	0	61	65535
2026-01-14 03:24:22.21	356.85	5.66	-45.2	-70.1	3.4	7.64e-01	0	40	104	0	61	65535
2026-01-14 03:24:24.20	356.60	5.77	-45.2	-70.1	3.4	7.62e-01	0	40	104	0	61	65535
2026-01-14 03:24:26.19	356.35	5.87	-45.2	-70.1	3.4	7.62e-01	0	40	104	0	61	65535
2026-01-14 03:24:28.17	356.09	5.98	-45.3	-70.1	3.4	7.63e-01	0	40	104	0	61	65535
2026-01-14 03:24:30.16	355.83	6.08	-45.2	-70.1	3.4	7.60e-01	0	40	104	0	61	65535
2026-01-14 03:24:32.15	355.58	6.19	-45.2	-70.1	3.4	7.64e-01	0	41	104	0	61	65535
2026-01-14 03:24:34.13	355.31	6.29	-45.2	-70.1	3.4	7.65e-01	0	40	104	0	61	65535
2026-01-14 03:24:36.12	355.05	6.40	-45.2	-70.1	3.4	7.63e-01	0	41	104	0	61	65535
2026-01-14 03:24:38.10	354.79	6.50	-45.2	-70.1	3.4	7.62e-01	0	41	104	0	61	65535
2026-01-14 03:24:40.09	354.52	6.61	-45.2	-70.1	3.4	7.61e-01	0	41	104	0	61	65535
2026-01-14 03:24:42.08	354.25	6.71	-45.2	-70.1	3.4	7.65e-01	0	41	104	0	61	65535
2026-01-14 03:24:44.06	353.98	6.82	-45.2	-70.1	3.4	7.61e-01	0	41	104	0	61	65535
2026-01-14 03:24:46.05	353.70	6.92	-45.2	-70.1	3.4	7.64e-01	0	41	104	0	61	65535
2026-01-14 03:24:48.03	353.43	7.03	-45.2	-70.1	3.4	7.62e-01	0	41	104	0	61	65535
2026-01-14 03:24:50.02	353.15	7.13	-45.2	-70.1	3.4	7.62e-01	0	41	104	0	61	65535
2026-01-14 03:24:52.01	352.87	7.24	-45.1	-70.1	3.4	7.65e-01	0	41	104	0	61	65535
2026-01-14 03:24:53.99	352.58	7.34	-45.1	-70.1	3.4	7.65e-01	0	41	104	0	61	65535
2026-01-14 03:24:55.98	352.30	7.45	-45.1	-70.1	3.4	7.67e-01	0	41	104	0	61	65535
2026-01-14 03:24:57.97	352.01	7.55	-45.1	-70.1	3.4	7.66e-01	0	41	104	0	61	65535
2026-01-14 03:24:59.95	351.72	7.66	-45.1	-70.1	3.4	7.62e-01	0	41	104	0	61	65535
2026-01-14 03:25:01.94	351.43	7.76	-45.1	-70.1	3.4	7.62e-01	0	41	104	0	61	65535
2026-01-14 03:25:03.92	351.13	7.86	-45.1	-70.1	3.4	7.62e-01	0	41	104	0	61	65535
2026-01-14 03:25:05.91	350.84	7.97	-45.1	-70.1	3.4	7.62e-01	0	41	104	0	61	65535
2026-01-14 03:25:07.90	350.54	8.07	-45.1	-70.1	3.4	7.60e-01	0	42	104	0	61	65535
2026-01-14 03:25:09.89	350.23	8.17	-45.1	-70.1	3.4	7.64e-01	0	42	104	0	61	65535
2026-01-14 03:25:11.87	349.93	8.28	-45.1	-70.1	3.4	7.61e-01	0	42	104	0	61	65535
2026-01-14 03:25:13.86	349.62	8.38	-45.1	-70.1	3.4	7.65e-01	0	42	104	0	61	65535
2026-01-14 03:25:15.84	349.32	8.48	-45.1	-70.1	3.4	7.63e-01	0	42	104	0	61	65534
2026-01-14 03:25:17.83	349.00	8.58	-45.1	-70.1	3.6	7.54e-01	0	42	104	0	61	65535
2026-01-14 03:25:19.82	348.69	8.68	-45.1	-70.0	3.8	7.42e-01	0	42	104	0	61	64628
2026-01-14 03:25:21.81	348.37	8.79	-45.0	-68.8	3.8	7.45e-01	0	41	104	0	61	56015
2026-01-14 03:25:23.79	348.05	8.89	-44.9	-67.7	3.8	7.48e-01	0	42	104	0	61	49452
2026-01-14 03:25:25.78	347.73	8.99	-44.7	-65.6	3.8	7.46e-01	0	42	104	0	61	38755
2026-01-14 03:25:27.77	347.41	9.09	-44.1	-61.7	3.8	7.45e-01	0	42	104	0	60	26418
2026-01-14 03:25:29.76	347.08	9.19	-44.0	-62.3	3.8	7.48e-01	0	42	104	0	59	29973
2026-01-14 03:25:31.75	346.75	9.29	-43.6	-64.2	3.9	7.43e-01	0	42	104	0	59	37138
2026-01-14 03:25:33.78	346.41	9.39	-45.3	-70.1	3.4	7.65e-01	0	42	104	0	61	65535
2026-01-14 03:25:35.76	346.08	9.49	-45.2	-70.1	3.5	7.60e-01	0	42	104	0	61	65535
2026-01-14 03:25:37.73	345.75	9.58	-45.3	-70.6	3.7	7.51e-01	0	42	104	0	62	65535
2026-01-14 03:25:39.78	345.40	9.69	-45.8	-62.7	3.7	7.44e-01	0	42	104	0	62	26162
2026-01-14 03:25:41.83	345.05	9.79	-44.6	-50.4	20.2	6.00e-01	0	42	0	2621440	60	7150
2026-01-14 03:25:43.82	344.70	9.88	-45.0	-50.6	20.0	6.03e-01	0	42	0	6291456	60	7325
2026-01-14 03:25:45.81	344.36	9.98	-45.4	-50.6	20.1	6.02e-01	0	42	0	9961472	61	6917
2026-01-14 03:25:47.80	344.01	10.08	-45.9	-50.6	20.0	6.01e-01	0	42	0	13631488	62	6519
2026-01-14 03:25:49.79	343.65	10.17	-46.4	-50.5	20.2	6.03e-01	0	42	0	17301504	63	6084
2026-01-14 03:25:51.78	343.30	10.27	-46.4	-50.3	20.3	6.02e-01	0	42	0	20971520	63	5980
2026-01-14 03:25:53.77	342.94	10.36	-46.2	-50.4	20.3	6.02e-01	0	42	0	25165824	63	6020
2026-01-14 03:25:55.85	342.57	10.46	-46.3	-50.3	20.3	6.01e-01	0	42	0	28835840	63	5948
2026-01-14 03:25:57.92	342.19	10.55	-46.5	-50.3	20.4	6.04e-01	0	42	0	32505856	63	5990
2026-01-14 03:25:59.91	341.83	10.65	-46.3	-50.0	20.6	6.03e-01	0	42	0	36700160	63	5774
2026-01-14 03:26:01.90	341.46	10.74	-46.0	-50.1	20.6	6.02e-01	0	42	0	40370176	63	5791
2026-01-14 03:26:03.89	341.09	10.83	-45.3	-49.8	20.8	6.02e-01	0	42	0	44040192	62	5979
2026-01-14 03:26:05.88	340.72	10.92	-44.7	-49.6	20.9	6.03e-01	0	42	0	47710208	61	6166
2026-01-14 03:26:07.87	340.34	11.01	-44.5	-49.4	21.1	6.03e-01	0	42	0	51380224	61	6055
2026-01-14 03:26:09.86	339.96	11.10	-44.7	-49.5	21.0	6.02e-01	0	42	0	55050240	61	6130
2026-01-14 03:26:11.86	339.58	11.18	-45.2	-49.6	21.0	6.04e-01	0	42	0	58720256	61	6168
2026-01-14 03:26:13.85	339.20	11.27	-45.5	-49.4	21.2	6.02e-01	0	42	0	62390272	61	6047
2026-01-14 03:26:15.91	338.80	11.36	-45.8	-49.5	21.1	6.05e-01	0	42	0	66584576	62	5741
2026-01-14 03:26:17.93	338.41	11.45	-45.9	-49.4	21.2	6.04e-01	0	42	0	70254592	62	5685
2026-01-14 03:26:19.94	338.01	11.53	-45.8	-49.5	21.1	6.01e-01	0	42	0	73924608	62	5736
2026-01-14 03:26:21.93	337.62	11.61	-45.9	-49.4	21.2	6.00e-01	0	42	0	77594624	62	5707
2026-01-14 03:26:23.95	337.22	11.70	-45.8	-49.4	21.2	6.02e-01	0	42	0	81264640	62	5707
2026-01-14 03:26:25.96	336.82	11.78	-45.7	-49.4	21.2	6.03e-01	0	42	0	85458944	62	5689
2026-01-14 03:26:28.10	336.39	11.87	-45.3	-49.3	21.3	6.03e-01	0	42	0	89128960	62	5636
2026-01-14 03:26:30.09	335.99	11.95	-45.5	-49.5	20.7	6.03e-01	0	42	0	92798976	62	5754
2026-01-14 03:26:32.08	335.58	12.02	-45.7	-49.3	21.3	6.01e-01	0	42	0	96993280	62	5630
2026-01-14 03:26:34.07	335.18	12.10	-45.9	-49.4	21.3	6.04e-01	0	42	0	100663296	62	5688
2026-01-14 03:26:36.06	334.77	12.18	-46.0	-49.4	21.2	6.02e-01	0	42	0	104333312	62	5705
2026-01-14 03:26:38.13	334.34	12.26	-46.0	-49.3	21.3	6.01e-01	0	42	0	108003328	62	5626
2026-01-14 03:26:40.12	333.92	12.33	-46.1	-49.3	21.3	6.01e-01	0	42	0	111673344	62	5642
2026-01-14 03:26:42.11	333.51	12.40	-45.9	-49.3	21.3	6.03e-01	0	42	0	115343360	62	5621
2026-01-14 03:26:44.13	333.08	12.48	-45.8	-49.4	21.2	6.01e-01	0	42	0	119537664	62	5697
2026-01-14 03:26:46.34	332.62	12.55	-45.5	-49.2	21.4	6.03e-01	0	42	0	123207680	62	5576
2026-01-14 03:26:48.63	332.13	12.63	-46.0	-49.3	21.4	6.04e-01	0	42	0	127926272	62	5617
2026-01-14 03:26:50.67	331.69	12.70	-46.2	-49.3	21.3	6.03e-01	0	42	0	131596288	63	5326
2026-01-14 03:26:53.13	331.16	12.78	-46.0	-49.4	21.2	6.03e-01	0	42	0	136314880	63	5392
2026-01-14 03:26:55.12	330.73	12.85	-45.6	-49.3	21.4	6.02e-01	0	42	0	139984896	63	5285
2026-01-14 03:26:57.11	330.30	12.91	-45.7	-49.3	21.4	6.02e-01	0	42	0	143654912	63	5287
2026-01-14 03:26:59.10	329.87	12.97	-46.2	-49.4	21.3	6.03e-01	0	42	0	147324928	63	5367
2026-01-14 03:27:01.13	329.42	13.04	-46.1	-49.4	21.3	6.03e-01	0	42	0	150994944	63	5355
2026-01-14 03:27:03.12	328.98	13.10	-45.8	-49.2	21.5	6.02e-01	0	42	0	155189248	63	5252
2026-01-14 03:27:05.12	328.54	13.15	-45.9	-49.3	21.4	6.04e-01	0	42	0	158859264	63	5295
2026-01-14 03:27:07.32	328.05	13.22	-46.1	-49.3	21.4	6.00e-01	0	42	0	163053568	63	5302
2026-01-14 03:27:09.52	327.56	13.28	-46.0	-49.2	21.4	6.02e-01	0	42	0	166723584	63	5275
2026-01-14 03:27:11.67	327.08	13.33	-46.0	-49.3	21.3	6.03e-01	0	42	0	170917888	63	5336
2026-01-14 03:27:13.68	326.62	13.39	-46.1	-49.4	21.3	6.03e-01	0	42	0	174587904	63	5381
2026-01-14 03:27:15.68	326.17	13.44	-45.8	-49.5	21.2	6.04e-01	0	42	0	178257920	63	5443
2026-01-14 03:27:17.72	325.71	13.49	-45.5	-49.4	21.3	6.01e-01	0	42	0	182452224	62	5686
2026-01-14 03:27:19.74	325.25	13.53	-45.4	-49.4	21.3	6.03e-01	0	42	0	186122240	62	5722
2026-01-14 03:27:22.06	324.72	13.59	-45.2	-49.2	21.4	6.04e-01	0	42	0	190316544	62	5566
2026-01-14 03:27:24.08	324.26	13.63	-45.3	-49.2	21.4	6.01e-01	0	42	0	193986560	62	5586
2026-01-14 03:27:26.10	323.79	13.67	-45.8	-49.4	21.3	6.03e-01	0	42	0	198180864	62	5674
2026-01-14 03:27:28.10	323.33	13.71	-46.2	-49.3	21.3	6.04e-01	0	42	0	201850880	63	5318
2026-01-14 03:27:30.09	322.87	13.75	-46.2	-49.2	21.4	6.03e-01	0	42	0	205520896	63	5277
2026-01-14 03:27:32.40	322.33	13.79	-46.3	-49.4	21.2	6.03e-01	0	42	0	209715200	63	5399
2026-01-14 03:27:34.73	321.79	13.83	-46.4	-49.5	21.2	6.03e-01	0	42	0	214433792	63	5430
2026-01-14 03:27:36.98	321.26	13.87	-46.3	-49.5	21.1	6.06e-01	0	42	0	218628096	63	5451
2026-01-14 03:27:38.97	320.80	13.90	-46.1	-49.4	21.4	6.02e-01	0	43	0	222298112	63	5361
2026-01-14 03:27:40.96	320.33	13.93	-46.1	-49.5	21.2	6.01e-01	0	42	0	225968128	63	5414
2026-01-14 03:27:42.96	319.86	13.96	-46.1	-49.3	21.4	6.01e-01	0	42	0	229638144	63	5288
2026-01-14 03:27:45.17	319.34	13.99	-46.3	-49.4	21.2	6.04e-01	0	42	0	233832448	63	5401
2026-01-14 03:27:47.17	318.87	14.01	-46.1	-49.3	21.3	6.04e-01	0	42	0	237502464	63	5328
2026-01-14 03:27:49.16	318.40	14.03	-46.0	-49.3	21.1	6.03e-01	0	42	0	241172480	63	5302
2026-01-14 03:27:51.15	317.93	14.05	-45.7	-49.1	21.6	6.01e-01	0	42	0	244842496	63	5175
2026-01-14 03:27:53.15	317.45	14.07	-45.5	-49.1	21.4	6.03e-01	0	42	0	249036800	63	5197
2026-01-14 03:27:55.14	316.98	14.09	-45.4	-49.2	21.4	6.04e-01	0	42	0	252706816	62	5584
2026-01-14 03:27:57.18	316.49	14.10	-45.7	-49.3	21.3	6.05e-01	0	42	0	256376832	62	5655
2026-01-14 03:27:59.20	316.01	14.11	-45.7	-49.0	21.5	6.04e-01	0	42	0	260046848	62	5450
2026-01-14 03:28:01.19	315.54	14.13	-46.2	-49.4	20.6	5.99e-01	0	42	0	263716864	63	5341
2026-01-14 03:28:03.18	315.06	14.13	-46.6	-49.9	20.0	6.06e-01	0	42	0	267386880	63	5674
2026-01-14 03:28:05.16	314.59	14.14	-46.6	-49.9	20.4	6.03e-01	0	42	0	271056896	64	5378
2026-01-14 03:28:07.17	314.11	14.15	-46.8	-50.1	20.3	6.03e-01	0	42	0	275251200	64	5527
2026-01-14 03:28:09.16	313.64	14.15	-46.7	-50.1	20.6	6.02e-01	0	42	0	278921216	64	5481
2026-01-14 03:28:11.16	313.16	14.15	-46.6	-49.9	20.9	5.99e-01	0	42	0	282591232	64	5376
2026-01-14 03:28:13.15	312.68	14.15	-46.4	-49.8	20.9	6.03e-01	0	42	0	286261248	64	5289
2026-01-14 03:28:15.14	312.21	14.15	-46.0	-49.2	21.5	6.02e-01	0	42	0	289931264	63	5252
2026-01-14 03:28:17.26	311.70	14.14	-45.9	-49.2	21.6	6.02e-01	0	43	0	294125568	63	5228
2026-01-14 03:28:19.24	311.23	14.14	-46.0	-49.2	21.5	6.03e-01	0	42	0	297795584	63	5247
2026-01-14 03:28:21.36	310.72	14.13	-46.1	-49.3	21.4	6.03e-01	0	43	0	301465600	63	5300
2026-01-14 03:28:23.69	310.17	14.12	-46.1	-49.3	21.4	6.00e-01	0	42	0	306184192	63	5324
2026-01-14 03:28:25.84	309.65	14.11	-46.0	-49.5	21.1	5.99e-01	0	42	0	309854208	63	5456
2026-01-14 03:28:27.85	309.18	14.09	-45.9	-49.0	21.6	6.02e-01	0	42	0	313524224	63	5139
2026-01-14 03:28:29.84	308.70	14.08	-45.9	-48.9	21.8	6.03e-01	0	43	0	317718528	63	5050
2026-01-14 03:28:31.83	308.23	14.06	-46.1	-49.2	21.5	6.01e-01	0	42	0	321388544	64	4950
2026-01-14 03:28:33.81	307.76	14.04	-46.1	-49.2	21.4	6.03e-01	0	42	0	325058560	64	4957
2026-01-14 03:28:35.80	307.29	14.02	-46.3	-49.6	21.1	6.02e-01	0	42	0	328728576	63	5514
2026-01-14 03:28:37.79	306.82	13.99	-46.7	-50.1	20.7	6.01e-01	0	42	0	332398592	63	5851
2026-01-14 03:28:39.83	306.34	13.97	-46.5	-49.8	20.9	6.00e-01	0	42	0	336068608	64	5311
2026-01-14 03:28:41.82	305.87	13.94	-46.2	-49.5	21.2	6.02e-01	0	42	0	340262912	64	5131
2026-01-14 03:28:43.81	305.40	13.91	-46.5	-49.8	20.9	6.03e-01	0	43	0	343932928	64	5303
2026-01-14 03:28:45.79	304.94	13.88	-46.6	-49.9	20.8	6.02e-01	0	42	0	347602944	64	5342
2026-01-14 03:28:47.78	304.47	13.85	-46.8	-50.1	20.7	6.02e-01	0	43	0	351272960	64	5487
2026-01-14 03:28:49.77	304.00	13.82	-46.7	-50.0	20.7	6.03e-01	0	43	0	354942976	64	5460
2026-01-14 03:28:51.75	303.54	13.78	-46.6	-50.0	20.8	6.01e-01	0	42	0	358612992	63	5765
2026-01-14 03:28:53.78	303.07	13.75	-46.6	-49.8	21.0	5.99e-01	0	42	0	362283008	63	5629
2026-01-14 03:28:55.77	302.61	13.71	-46.6	-49.8	20.9	6.00e-01	0	42	0	365953024	64	5313
2026-01-14 03:28:57.83	302.13	13.67	-46.9	-50.4	20.4	6.03e-01	0	42	0	370147328	64	5684
2026-01-14 03:28:59.82	301.68	13.62	-46.7	-50.1	20.7	6.01e-01	0	43	0	373817344	64	5473
2026-01-14 03:29:01.86	301.21	13.58	-46.6	-50.0	20.8	6.03e-01	0	43	0	377487360	64	5409
2026-01-14 03:29:03.85	300.75	13.53	-47.2	-50.7	20.0	6.03e-01	0	42	0	381157376	65	5537
2026-01-14 03:29:05.87	300.29	13.49	-47.0	-50.3	20.4	6.04e-01	0	43	0	385351680	64	5609
2026-01-14 03:29:07.93	299.82	13.44	-46.6	-49.9	20.9	6.01e-01	0	43	0	389021696	64	5354
2026-01-14 03:29:09.98	299.36	13.38	-47.5	-51.3	19.2	6.04e-01	0	42	0	392691712	65	5977
2026-01-14 03:29:12.16	298.87	13.33	-47.6	-51.4	19.5	6.01e-01	0	42	0	396886016	65	6008
2026-01-14 03:29:14.36	298.37	13.27	-46.7	-49.9	20.9	6.04e-01	0	42	0	401080320	65	5059
2026-01-14 03:29:16.55	297.88	13.21	-46.8	-50.2	20.5	6.02e-01	0	42	0	405274624	65	5264
2026-01-14 03:29:18.54	297.44	13.15	-46.5	-49.6	21.1	6.02e-01	0	43	0	408944640	64	5190
2026-01-14 03:29:20.52	297.00	13.09	-46.6	-49.9	20.7	6.00e-01	0	42	0	412614656	65	5064
2026-01-14 03:29:22.51	296.56	13.03	-47.3	-51.0	19.9	6.02e-01	0	42	0	416284672	65	5739
2026-01-14 03:29:24.52	296.12	12.97	-46.4	-49.6	21.1	6.04e-01	0	42	0	419954688	64	5186
2026-01-14 03:29:26.51	295.68	12.91	-46.8	-50.2	20.6	6.01e-01	0	43	0	423624704	64	5546
2026-01-14 03:29:28.51	295.24	12.85	-46.9	-50.2	20.6	6.02e-01	0	42	0	427819008	64	5535
2026-01-14 03:29:30.50	294.81	12.78	-47.1	-50.5	20.3	6.05e-01	0	43	0	431489024	65	5412
2026-01-14 03:29:32.63	294.35	12.71	-46.8	-50.1	20.7	6.06e-01	0	43	0	435159040	65	5174
2026-01-14 03:29:34.62	293.93	12.64	-46.6	-49.9	20.9	6.03e-01	0	42	0	438829056	65	5078
2026-01-14 03:29:36.77	293.47	12.57	-46.7	-50.0	20.7	6.06e-01	0	43	0	443023360	65	5135
2026-01-14 03:29:38.76	293.04	12.50	-47.0	-50.5	20.3	6.03e-01	0	42	0	446693376	65	5439
2026-01-14 03:29:40.78	292.62	12.43	-46.7	-49.9	20.8	6.03e-01	0	42	0	450363392	65	5095
2026-01-14 03:29:42.77	292.20	12.35	-46.9	-50.3	20.5	6.01e-01	0	42	0	454557696	65	5288
2026-01-14 03:29:44.75	291.78	12.28	-47.0	-50.6	20.2	6.01e-01	0	42	0	458227712	65	5499
2026-01-14 03:29:46.79	291.36	12.20	-47.0	-50.5	20.3	6.02e-01	0	43	0	461897728	65	5430
2026-01-14 03:29:48.78	290.95	12.13	-46.9	-50.2	20.6	6.02e-01	0	42	0	465567744	65	5243
2026-01-14 03:29:50.77	290.54	12.05	-46.9	-50.3	20.5	6.02e-01	0	42	0	469237760	65	5319
2026-01-14 03:29:52.76	290.13	11.97	-46.8	-50.5	20.3	6.03e-01	0	43	0	472907776	65	5426
2026-01-14 03:29:54.81	289.71	11.89	-46.2	-50.1	20.7	6.04e-01	0	42	0	477102080	64	5498
2026-01-14 03:29:56.80	289.31	11.81	-46.5	-50.7	20.1	6.04e-01	0	42	0	480772096	64	5861
2026-01-14 03:29:58.79	288.91	11.73	-46.6	-50.0	20.7	6.01e-01	0	42	0	484442112	64	5448
2026-01-14 03:30:00.80	288.51	11.64	-47.1	-50.7	20.0	6.02e-01	0	43	0	488112128	65	5574
2026-01-14 03:30:02.78	288.12	11.56	-46.7	-50.0	20.7	6.01e-01	0	42	0	491782144	65	5145
2026-01-14 03:30:04.79	287.72	11.48	-47.0	-50.5	20.2	6.00e-01	0	42	0	495452160	65	5464
2026-01-14 03:30:06.73	287.34	11.39	-46.8	-50.2	20.6	6.03e-01	0	42	0	499122176	65	5224
2026-01-14 03:30:08.91	286.92	11.30	-47.1	-50.6	20.2	6.03e-01	0	42	0	503316480	65	5478
2026-01-14 03:30:10.84	286.54	11.22	-46.8	-50.1	20.6	6.04e-01	0	43	0	506986496	65	5193
2026-01-14 03:30:12.82	286.16	11.13	-47.0	-50.4	20.3	6.02e-01	0	43	0	510656512	65	5387
2026-01-14 03:30:14.82	285.78	11.04	-47.0	-50.5	20.3	6.01e-01	0	43	0	514326528	65	5417
2026-01-14 03:30:16.81	285.40	10.95	-46.9	-50.2	20.5	6.03e-01	0	43	0	517996544	65	5267
2026-01-14 03:30:18.79	285.03	10.86	-47.1	-50.5	20.3	6.04e-01	0	43	0	521666560	65	5410
2026-01-14 03:30:20.88	284.64	10.77	-46.9	-50.2	20.5	6.03e-01	0	43	0	525860864	65	5267
2026-01-14 03:30:22.87	284.27	10.67	-46.8	-50.3	20.5	6.05e-01	0	43	0	529530880	65	5297
2026-01-14 03:30:24.98	283.88	10.58	-46.9	-50.3	20.5	6.04e-01	0	43	0	533200896	65	5303
2026-01-14 03:30:26.97	283.51	10.48	-47.0	-50.3	20.4	6.02e-01	0	43	0	537395200	65	5328
2026-01-14 03:30:28.96	283.15	10.39	-47.0	-50.4	20.3	6.00e-01	0	42	0	541065216	65	5361
2026-01-14 03:30:30.95	282.79	10.30	-47.0	-50.4	20.3	6.02e-01	0	43	0	544735232	65	5352
2026-01-14 03:30:32.94	282.43	10.20	-46.8	-50.3	20.4	6.01e-01	0	43	0	548405248	65	5288
2026-01-14 03:30:35.01	282.06	10.10	-46.7	-50.2	20.5	6.01e-01	0	43	0	552075264	65	5256
2026-01-14 03:30:37.00	281.71	10.01	-46.9	-50.5	20.2	6.04e-01	0	42	0	555745280	65	5438
2026-01-14 03:30:38.99	281.36	9.91	-46.9	-50.4	20.3	6.01e-01	0	42	0	559939584	65	5370
2026-01-14 03:30:40.98	281.01	9.81	-47.1	-50.5	20.2	6.04e-01	0	43	0	563609600	65	5433
2026-01-14 03:30:42.97	280.67	9.72	-47.0	-50.5	20.2	6.02e-01	0	43	0	567279616	65	5423
2026-01-14 03:30:44.95	280.33	9.62	-46.9	-50.4	20.2	6.04e-01	0	42	0	570949632	65	5402
2026-01-14 03:30:46.95	279.99	9.52	-46.8	-50.4	20.2	6.05e-01	0	42	0	574619648	65	5384
2026-01-14 03:30:48.93	279.65	9.42	-46.9	-50.6	20.2	6.01e-01	0	43	0	578289664	65	5465
2026-01-14 03:30:50.92	279.32	9.32	-47.0	-50.6	20.1	6.03e-01	0	43	0	581959680	65	5499
2026-01-14 03:30:53.04	278.96	9.21	-46.9	-50.4	20.3	6.01e-01	0	42	0	586153984	65	5386
2026-01-14 03:30:55.08	278.63	9.11	-47.0	-50.5	20.1	6.03e-01	0	43	0	589824000	65	5464
2026-01-14 03:30:57.07	278.30	9.01	-47.0	-50.6	20.1	6.03e-01	0	43	0	593494016	65	5497
2026-01-14 03:30:59.06	277.97	8.91	-51.9	-72.2	3.8	7.48e-01	0	43	104	595066880	74	39157
2026-01-14 03:31:01.04	277.65	8.81	-52.1	-72.4	3.8	7.46e-01	0	43	104	595066880	75	38068
2026-01-14 03:31:03.03	277.33	8.71	-52.2	-72.5	3.8	7.48e-01	0	43	104	595066880	75	38397
2026-01-14 03:31:05.01	277.02	8.61	-52.3	-72.6	3.8	7.46e-01	0	43	104	595066880	75	38713
2026-01-14 03:31:07.00	276.70	8.50	-52.6	-72.6	3.8	7.41e-01	0	43	104	595066880	76	36905
2026-01-14 03:31:08.99	276.39	8.40	-52.6	-72.6	3.8	7.44e-01	0	43	104	595066880	76	36926
2026-01-14 03:31:10.97	276.08	8.30	-52.5	-72.7	3.8	7.46e-01	0	43	104	595066880	76	37029
2026-01-14 03:31:12.96	275.78	8.20	-52.2	-72.7	3.8	7.47e-01	0	43	104	595066880	76	37014
2026-01-14 03:31:14.95	275.47	8.09	-52.1	-72.7	3.8	7.45e-01	0	43	104	595066880	76	37034
2026-01-14 03:31:16.94	275.17	7.99	-52.0	-72.7	3.8	7.47e-01	0	43	104	595066880	76	37080
2026-01-14 03:31:18.92	274.87	7.89	-52.2	-72.6	3.8	7.45e-01	0	43	104	595066880	76	36829
2026-01-14 03:31:20.91	274.57	7.78	-51.9	-72.5	3.8	7.46e-01	0	42	104	595066880	75	38595
2026-01-14 03:31:22.89	274.28	7.68	-51.9	-72.5	3.8	7.45e-01	0	43	104	595066880	75	38479
2026-01-14 03:31:24.88	273.98	7.57	-51.9	-72.5	3.8	7.48e-01	0	43	104	595066880	75	38533
2026-01-14 03:31:26.87	273.69	7.47	-51.9	-72.5	3.8	7.46e-01	0	43	104	595066880	75	38476
2026-01-14 03:31:28.85	273.40	7.36	-51.9	-72.5	3.8	7.48e-01	0	43	104	595066880	75	38487
2026-01-14 03:31:30.84	273.12	7.26	-51.9	-72.5	3.8	7.48e-01	0	43	104	595066880	75	38476
2026-01-14 03:31:32.83	272.83	7.15	-51.9	-72.5	3.8	7.45e-01	0	43	104	595066880	75	38359
2026-01-14 03:31:34.81	272.55	7.05	-51.9	-72.5	3.8	7.46e-01	0	42	104	595066880	75	38433
2026-01-14 03:31:36.80	272.27	6.94	-51.9	-72.5	3.8	7.46e-01	0	43	104	595066880	75	38275
2026-01-14 03:31:38.79	271.99	6.84	-51.9	-72.5	3.8	7.43e-01	0	43	104	595066880	75	38321
2026-01-14 03:31:40.77	271.72	6.73	-51.9	-72.5	3.8	7.49e-01	0	43	104	595066880	75	38326
2026-01-14 03:31:42.76	271.45	6.63	-51.9	-72.5	3.8	7.46e-01	0	43	104	595066880	75	38351
2026-01-14 03:31:44.75	271.18	6.52	-51.9	-72.5	3.8	7.47e-01	0	43	104	595066880	75	38332
2026-01-14 03:31:46.73	270.91	6.42	-51.9	-72.5	3.8	7.47e-01	0	43	104	595066880	75	38447
2026-01-14 03:31:48.72	270.64	6.31	-51.9	-72.5	3.8	7.46e-01	0	43	104	595066880	75	38344
2026-01-14 03:31:50.71	270.38	6.20	-51.9	-72.4	3.8	7.47e-01	0	43	104	595066880	75	38228
2026-01-14 03:31:52.69	270.12	6.10	-51.8	-72.5	3.8	7.48e-01	0	43	104	595066880	75	38403
2026-01-14 03:31:54.68	269.86	5.99	-51.8	-72.5	3.8	7.47e-01	0	43	104	595066880	75	38294
2026-01-14 03:31:56.67	269.60	5.89	-51.8	-72.5	3.8	7.45e-01	0	43	104	595066880	75	38274
2026-01-14 03:31:58.65	269.34	5.78	-51.9	-72.5	3.8	7.44e-01	0	43	104	595066880	75	38257
2026-01-14 03:32:00.64	269.09	5.67	-51.9	-72.5	3.8	7.48e-01	0	43	104	595066880	75	38302
2026-01-14 03:32:02.62	268.84	5.57	-51.9	-72.5	3.8	7.45e-01	0	43	104	595066880	75	38266
2026-01-14 03:32:04.61	268.59	5.46	-51.8	-72.5	3.8	7.47e-01	0	43	104	595066880	75	38276
2026-01-14 03:32:06.60	268.34	5.36	-51.9	-72.4	3.8	7.46e-01	0	43	104	595066880	75	38195
2026-01-14 03:32:08.59	268.09	5.25	-51.8	-72.4	3.8	7.47e-01	0	43	104	595066880	75	38208
2026-01-14 03:32:10.57	267.85	5.14	-51.8	-72.4	3.8	7.44e-01	0	43	104	595066880	75	38174
2026-01-14 03:32:12.56	267.61	5.04	-51.8	-72.4	3.8	7.46e-01	0	43	104	595066880	75	38157

#Closed at: 2026-01-14 03:32:14
#Recorded file [595 MB]: D:/Data/31040_260114_062410.dat