passes_logs/2026/01/14/T1/T1__20260114_215530_SUOMI_NPP_rec.log

#Pass ID: 20260114_215530_SUOMI NPP
#Satellite: SUOMI NPP
#Configuration: NPP
#almurnet v.1.7.20251203
#Start time: 2026-01-14 21:55:32

#Version: 2.0.20230620
#Station: T1
#Location: 37.570604 lon 55.790049 lat
#TLE: 1 37849U 11061A   26014.11719687  .00000048  00000+0  43625-4 0  9998
#TLE: 2 37849  98.7809 316.1734 0002474  65.2440 294.8994 14.19525043736585

#Time	Az	El	Level	Level2	SNR	BER	BlckErr	Temp	State	Recorded	gain1	gain2
2026-01-14 21:55:32.11	34.49	5.11	-50.0	-65.4	3.8	1.49e+00	0	38	0	0	72	20226
2026-01-14 21:55:35.08	34.80	5.26	-50.1	-65.5	3.8	1.49e+00	0	38	104	0	70	22874
2026-01-14 21:55:38.07	35.12	5.41	-50.1	-65.5	3.8	1.49e+00	0	38	104	0	70	22868
2026-01-14 21:55:41.05	35.44	5.56	-50.1	-65.5	3.8	1.49e+00	0	38	104	0	70	22865
2026-01-14 21:55:44.03	35.77	5.72	-50.1	-65.4	3.8	1.49e+00	0	38	104	0	70	22775
2026-01-14 21:55:47.01	36.10	5.87	-50.1	-65.4	3.8	1.49e+00	0	38	104	0	70	22706
2026-01-14 21:55:49.99	36.43	6.02	-50.1	-65.4	3.8	1.49e+00	0	39	104	0	70	22751
2026-01-14 21:55:52.97	36.77	6.18	-50.1	-65.5	3.8	1.49e+00	0	39	104	0	70	22899
2026-01-14 21:55:55.96	37.11	6.33	-50.1	-65.5	3.8	1.49e+00	0	39	104	0	70	22841
2026-01-14 21:55:58.94	37.45	6.48	-50.1	-65.4	3.8	1.49e+00	0	39	104	0	70	22690
2026-01-14 21:56:01.92	37.80	6.64	-50.1	-65.4	3.8	1.49e+00	0	39	104	0	70	22768
2026-01-14 21:56:04.90	38.15	6.79	-50.1	-65.5	3.8	1.49e+00	0	39	104	0	70	22804
2026-01-14 21:56:07.88	38.50	6.95	-50.0	-65.4	3.8	1.49e+00	0	39	104	0	70	22647
2026-01-14 21:56:10.86	38.86	7.10	-50.1	-65.4	3.8	1.49e+00	0	39	104	0	70	22569
2026-01-14 21:56:13.84	39.22	7.25	-50.0	-65.4	3.8	1.49e+00	0	39	104	0	70	22641
2026-01-14 21:56:16.83	39.58	7.41	-50.1	-65.4	3.8	1.49e+00	0	39	104	0	70	22673
2026-01-14 21:56:19.81	39.95	7.56	-50.1	-65.4	3.8	1.49e+00	0	39	104	0	70	22693
2026-01-14 21:56:22.79	40.32	7.72	-50.1	-65.4	3.8	1.49e+00	0	39	104	0	70	22754
2026-01-14 21:56:25.77	40.70	7.87	-50.1	-65.5	3.8	1.49e+00	0	40	104	0	70	22849
2026-01-14 21:56:28.75	41.08	8.02	-50.0	-65.4	3.8	1.49e+00	0	40	104	0	70	22592
2026-01-14 21:56:31.74	41.46	8.18	-50.1	-65.4	3.8	1.49e+00	0	40	104	0	70	22533
2026-01-14 21:56:34.80	41.86	8.33	-50.1	-65.4	3.8	1.49e+00	0	39	104	0	70	22654
2026-01-14 21:56:37.92	42.27	8.49	-50.0	-65.3	3.8	1.49e+00	0	40	104	0	70	22375
2026-01-14 21:56:40.76	42.64	8.64	-50.1	-65.3	3.8	1.49e+00	0	40	104	0	70	22327
2026-01-14 21:56:43.88	43.06	8.80	-50.0	-65.0	3.8	1.49e+00	0	40	104	0	70	21516
2026-01-14 21:56:46.72	43.45	8.94	-50.0	-64.0	3.8	1.49e+00	0	40	104	0	70	19214
2026-01-14 21:56:49.87	43.88	9.11	-50.1	-64.2	3.8	1.49e+00	0	40	104	0	70	19737
2026-01-14 21:56:52.81	44.28	9.26	-47.3	-51.9	11.8	1.46e+00	0	40	104	0	66	6023
2026-01-14 21:56:55.80	44.70	9.41	-46.0	-49.4	14.7	0.00e+00	0	40	0	5242880	63	5370
2026-01-14 21:56:58.78	45.12	9.56	-45.8	-49.1	15.0	0.00e+00	0	40	0	10485760	63	5207
2026-01-14 21:57:01.77	45.55	9.71	-45.7	-49.0	15.2	0.00e+00	0	40	0	15728640	63	5117
2026-01-14 21:57:04.83	45.99	9.86	-45.4	-48.6	15.5	0.00e+00	0	40	0	22020096	62	5188
2026-01-14 21:57:07.74	46.41	10.01	-45.6	-48.8	15.4	0.00e+00	0	40	0	27262976	62	5329
2026-01-14 21:57:11.23	46.92	10.18	-45.7	-49.1	15.1	0.00e+00	0	40	0	33554432	62	5493
2026-01-14 21:57:13.96	47.33	10.32	-45.7	-49.0	15.2	0.00e+00	0	40	0	38797312	62	5453
2026-01-14 21:57:17.25	47.82	10.48	-45.5	-48.8	15.4	0.00e+00	0	40	0	45088768	62	5323
2026-01-14 21:57:19.96	48.23	10.62	-45.5	-48.7	15.5	0.00e+00	0	40	0	50331648	62	5234
2026-01-14 21:57:23.23	48.73	10.78	-45.6	-48.9	15.3	0.00e+00	0	40	0	56623104	62	5391
2026-01-14 21:57:25.95	49.15	10.91	-45.5	-48.7	15.5	0.00e+00	0	40	0	61865984	62	5256
2026-01-14 21:57:29.23	49.66	11.07	-45.4	-48.6	15.6	0.00e+00	0	40	0	68157440	62	5164
2026-01-14 21:57:32.05	50.10	11.21	-45.5	-48.8	15.4	0.00e+00	0	40	0	73400320	62	5280
2026-01-14 21:57:35.40	50.64	11.37	-45.8	-49.1	15.2	0.00e+00	0	40	0	79691776	62	5490
2026-01-14 21:57:38.48	51.13	11.52	-45.7	-48.9	15.3	0.00e+00	0	40	0	84934656	62	5377
2026-01-14 21:57:41.60	51.64	11.66	-45.6	-48.8	15.5	0.00e+00	0	40	0	91226112	62	5291
2026-01-14 21:57:44.45	52.10	11.80	-45.7	-49.0	15.2	0.00e+00	0	40	0	96468992	62	5447
2026-01-14 21:57:47.70	52.64	11.95	-45.8	-49.2	15.1	0.00e+00	0	40	0	102760448	62	5558
2026-01-14 21:57:50.62	53.13	12.09	-45.8	-49.2	15.1	0.00e+00	0	40	0	108003328	62	5565
2026-01-14 21:57:53.86	53.67	12.24	-45.8	-49.1	15.2	0.00e+00	0	40	0	114294784	62	5519
2026-01-14 21:57:56.77	54.17	12.37	-45.8	-49.2	15.1	0.00e+00	0	40	0	119537664	62	5563
2026-01-14 21:58:00.02	54.72	12.51	-46.0	-49.5	14.8	7.00e-07	0	40	0	125829120	62	5740
2026-01-14 21:58:02.93	55.23	12.64	-46.0	-49.5	14.9	0.00e+00	0	40	0	131072000	62	5730
2026-01-14 21:58:06.19	55.80	12.79	-46.3	-49.8	14.5	0.00e+00	0	40	0	137363456	63	5624
2026-01-14 21:58:09.12	56.31	12.92	-46.4	-49.9	14.4	0.00e+00	0	40	0	142606336	63	5699
2026-01-14 21:58:12.37	56.89	13.06	-46.5	-50.2	14.2	1.50e-06	0	40	0	148897792	63	5878
2026-01-14 21:58:15.14	57.39	13.17	-46.8	-50.6	13.7	4.50e-06	0	40	0	154140672	64	5830
2026-01-14 21:58:18.42	57.98	13.31	-46.7	-50.5	13.7	5.30e-06	0	40	0	160432128	64	5754
2026-01-14 21:58:21.15	58.48	13.43	-46.8	-50.7	13.6	1.22e-05	0	40	0	164626432	64	5898
2026-01-14 21:58:25.27	59.24	13.59	-47.0	-51.0	13.3	1.60e-05	0	41	0	173015040	64	6070
2026-01-14 21:58:28.12	59.77	13.71	-46.9	-50.8	13.5	1.75e-05	0	40	0	178257920	64	5942
2026-01-14 21:58:32.10	60.51	13.87	-46.6	-50.4	13.9	1.50e-06	0	40	0	185597952	64	5680
2026-01-14 21:58:35.10	61.08	13.98	-46.8	-50.8	13.5	1.06e-05	0	40	0	190840832	64	5967
2026-01-14 21:58:39.19	61.86	14.14	-46.8	-50.7	13.6	3.80e-06	0	40	0	199229440	64	5881
2026-01-14 21:58:41.98	62.40	14.24	-46.5	-50.2	14.1	3.00e-06	0	40	0	204472320	64	5574
2026-01-14 21:58:45.96	63.17	14.38	-46.2	-49.7	14.8	0.00e+00	0	40	0	211812352	63	5539
2026-01-14 21:58:48.80	63.73	14.48	-45.6	-48.7	15.7	0.00e+00	0	40	0	217055232	63	4960
2026-01-14 21:58:52.77	64.51	14.62	-45.3	-48.3	16.0	0.00e+00	0	40	0	224395264	62	5026
2026-01-14 21:58:55.69	65.09	14.72	-45.4	-48.5	15.9	0.00e+00	0	40	0	229638144	62	5117
2026-01-14 21:58:58.68	65.69	14.82	-45.5	-48.6	15.7	0.00e+00	0	40	0	235929600	62	5213
2026-01-14 21:59:01.67	66.29	14.91	-45.8	-48.9	15.5	0.00e+00	0	40	0	241172480	62	5378
2026-01-14 21:59:04.65	66.89	15.00	-45.2	-48.2	16.2	0.00e+00	0	40	0	246415360	62	4940
2026-01-14 21:59:07.64	67.50	15.09	-45.5	-48.6	15.8	0.00e+00	0	40	0	252706816	62	5195
2026-01-14 21:59:10.63	68.12	15.18	-45.8	-49.0	15.4	0.00e+00	0	40	0	257949696	62	5423
2026-01-14 21:59:13.61	68.73	15.26	-45.4	-48.4	16.0	0.00e+00	0	40	0	263192576	62	5079
2026-01-14 21:59:16.60	69.35	15.35	-45.4	-48.4	16.0	0.00e+00	0	40	0	269484032	62	5070
2026-01-14 21:59:19.52	69.96	15.42	-46.1	-49.5	15.0	0.00e+00	0	40	0	274726912	62	5725
2026-01-14 21:59:22.65	70.61	15.50	-45.9	-49.2	15.2	0.00e+00	0	40	0	279969792	62	5581
2026-01-14 21:59:25.68	71.25	15.58	-46.4	-50.0	14.5	0.00e+00	0	40	0	286261248	63	5728
2026-01-14 21:59:29.15	71.99	15.66	-46.2	-49.7	14.6	0.00e+00	0	40	0	292552704	64	5245
2026-01-14 21:59:31.94	72.58	15.72	-45.6	-48.7	15.6	0.00e+00	0	40	0	297795584	63	4977
2026-01-14 21:59:35.34	73.31	15.79	-45.7	-48.9	15.5	0.00e+00	0	40	0	304087040	62	5368
2026-01-14 21:59:38.13	73.90	15.85	-45.9	-49.2	15.2	0.00e+00	0	40	0	309329920	62	5577
2026-01-14 21:59:41.53	74.64	15.91	-45.1	-48.0	16.4	0.00e+00	0	40	0	315621376	62	4838
2026-01-14 21:59:44.24	75.22	15.96	-45.3	-48.3	16.1	0.00e+00	0	40	0	320864256	62	4999
2026-01-14 21:59:47.68	75.97	16.01	-45.6	-48.7	15.7	0.00e+00	0	40	0	327155712	62	5259
2026-01-14 21:59:50.38	76.55	16.06	-45.5	-48.6	15.8	0.00e+00	0	40	0	332398592	62	5194
2026-01-14 21:59:53.86	77.31	16.11	-46.1	-49.5	14.9	0.00e+00	0	40	0	338690048	62	5755
2026-01-14 21:59:56.61	77.92	16.14	-46.0	-49.3	15.1	0.00e+00	0	40	0	343932928	62	5634
2026-01-14 22:00:00.05	78.67	16.18	-46.1	-49.5	14.8	0.00e+00	0	40	0	350224384	62	5779
2026-01-14 22:00:03.08	79.34	16.21	-46.2	-49.7	14.8	0.00e+00	0	40	0	356515840	63	5539
2026-01-14 22:00:06.37	80.06	16.24	-45.8	-49.0	15.3	0.00e+00	0	40	0	362807296	63	5155
2026-01-14 22:00:09.11	80.67	16.27	-45.8	-49.1	15.3	0.00e+00	0	40	0	367001600	63	5211
2026-01-14 22:00:12.46	81.41	16.29	-45.6	-48.8	15.6	0.00e+00	0	40	0	373293056	63	5019
2026-01-14 22:00:15.17	82.01	16.31	-45.6	-48.9	15.5	0.00e+00	0	40	0	378535936	63	5045
2026-01-14 22:00:18.44	82.73	16.32	-45.6	-48.9	15.5	0.00e+00	0	40	0	384827392	63	5069
2026-01-14 22:00:21.67	83.45	16.33	-45.2	-48.3	16.1	0.00e+00	0	40	0	391118848	62	5006
2026-01-14 22:00:25.32	84.26	16.34	-45.5	-48.8	15.6	0.00e+00	0	40	0	397410304	62	5313
2026-01-14 22:00:28.16	84.89	16.34	-45.4	-48.7	15.8	0.00e+00	0	40	0	403701760	62	5229
2026-01-14 22:00:32.17	85.78	16.33	-45.3	-48.6	15.8	0.00e+00	0	40	0	411041792	62	5193
2026-01-14 22:00:35.10	86.43	16.33	-45.5	-48.8	15.6	0.00e+00	0	40	0	416284672	62	5295
2026-01-14 22:00:38.93	87.28	16.31	-45.0	-48.1	16.2	0.00e+00	0	40	0	423624704	62	4904
2026-01-14 22:00:41.81	87.92	16.30	-45.4	-48.6	15.7	0.00e+00	0	40	0	428867584	62	5187
2026-01-14 22:00:44.91	88.61	16.28	-45.9	-49.3	15.1	0.00e+00	0	40	0	434110464	62	5612
2026-01-14 22:00:48.22	89.34	16.25	-45.3	-48.6	15.8	0.00e+00	0	40	0	440401920	62	5187
2026-01-14 22:00:51.13	89.98	16.23	-45.2	-48.3	16.1	0.00e+00	0	40	0	446693376	62	4995
2026-01-14 22:00:54.12	90.64	16.20	-45.3	-48.3	16.0	0.00e+00	0	40	0	451936256	62	5010
2026-01-14 22:00:57.45	91.37	16.16	-45.4	-48.6	15.8	0.00e+00	0	40	0	458227712	62	5178
2026-01-14 22:01:00.28	91.99	16.12	-45.4	-48.5	15.8	0.00e+00	0	40	0	463470592	62	5129
2026-01-14 22:01:03.40	92.68	16.08	-45.4	-48.5	15.8	0.00e+00	0	40	0	468713472	62	5122
2026-01-14 22:01:06.32	93.31	16.04	-45.6	-48.6	15.8	0.00e+00	0	40	0	475004928	62	5200
2026-01-14 22:01:09.52	94.01	15.98	-44.7	-47.5	16.7	0.00e+00	0	40	0	480247808	61	4835
2026-01-14 22:01:12.36	94.63	15.94	-44.8	-47.7	16.6	0.00e+00	0	40	0	486539264	61	4941
2026-01-14 22:01:15.70	95.35	15.87	-44.7	-47.5	16.8	0.00e+00	0	40	0	491782144	61	4823
2026-01-14 22:01:18.40	95.93	15.82	-44.9	-47.7	16.6	0.00e+00	0	40	0	497025024	61	4939
2026-01-14 22:01:22.32	96.77	15.74	-45.3	-48.2	16.1	0.00e+00	0	40	0	504365056	61	5275
2026-01-14 22:01:25.16	97.38	15.68	-45.1	-48.0	16.3	0.00e+00	0	40	0	509607936	61	5113
2026-01-14 22:01:28.90	98.17	15.59	-45.4	-48.4	15.9	0.00e+00	0	40	0	516947968	61	5387
2026-01-14 22:01:31.91	98.81	15.52	-45.1	-48.1	16.2	0.00e+00	0	40	0	522190848	61	5166
2026-01-14 22:01:34.99	99.45	15.44	-44.6	-47.4	16.8	0.00e+00	0	40	0	528482304	61	4780
2026-01-14 22:01:38.49	100.19	15.35	-44.3	-46.9	17.3	0.00e+00	0	40	0	534773760	60	4783
2026-01-14 22:01:41.19	100.75	15.28	-44.5	-47.3	16.9	0.00e+00	0	40	0	540016640	60	5003
2026-01-14 22:01:44.41	101.41	15.19	-44.7	-47.5	16.7	0.00e+00	0	40	0	546308096	60	5128
2026-01-14 22:01:47.25	102.00	15.10	-44.6	-47.4	16.8	0.00e+00	0	40	0	551550976	60	5065
2026-01-14 22:01:50.38	102.64	15.01	-45.1	-48.0	16.3	0.00e+00	0	40	0	557842432	60	5454
2026-01-14 22:01:53.33	103.24	14.92	-45.0	-47.9	16.4	0.00e+00	0	40	0	563085312	60	5359
2026-01-14 22:01:56.47	103.87	14.82	-44.7	-47.6	16.6	0.00e+00	0	40	0	568328192	60	5163
2026-01-14 22:01:59.31	104.44	14.72	-44.6	-47.4	16.8	0.00e+00	0	40	0	574619648	60	5054
2026-01-14 22:02:02.44	105.07	14.62	-44.7	-47.5	16.7	0.00e+00	0	40	0	579862528	60	5109
2026-01-14 22:02:05.28	105.63	14.52	-44.7	-47.6	16.6	0.00e+00	0	40	0	585105408	60	5181
2026-01-14 22:02:08.41	106.25	14.41	-45.1	-48.0	16.3	0.00e+00	0	40	0	591396864	60	5419
2026-01-14 22:02:11.28	106.81	14.31	-45.3	-48.4	15.9	0.00e+00	0	40	0	596639744	61	5349
2026-01-14 22:02:14.60	107.45	14.18	-46.0	-49.4	15.0	0.00e+00	0	40	0	602931200	62	5673
2026-01-14 22:02:17.36	107.99	14.08	-45.9	-49.2	15.1	7.00e-07	0	40	0	608174080	62	5589
2026-01-14 22:02:20.94	108.67	13.94	-45.6	-48.7	15.6	0.00e+00	0	40	0	614465536	62	5240
2026-01-14 22:02:24.49	109.34	13.80	-45.9	-49.2	15.1	0.00e+00	0	40	0	621805568	62	5564
2026-01-14 22:02:27.23	109.86	13.69	-46.1	-49.6	14.7	0.00e+00	0	40	0	625999872	62	5809
2026-01-14 22:02:30.50	110.47	13.56	-45.9	-49.3	15.0	0.00e+00	0	40	0	632291328	63	5300
2026-01-14 22:02:33.24	110.97	13.45	-46.0	-49.4	14.9	0.00e+00	0	40	0	637534208	63	5372
2026-01-14 22:02:36.56	111.58	13.31	-46.3	-50.0	14.3	7.00e-07	0	40	0	643825664	63	5779
2026-01-14 22:02:39.61	112.14	13.18	-46.5	-50.3	13.9	1.50e-06	0	40	0	650117120	63	5986
2026-01-14 22:02:43.69	112.87	13.01	-46.8	-50.8	13.4	1.44e-05	0	40	0	657457152	64	5972
2026-01-14 22:02:46.60	113.39	12.88	-46.6	-50.4	13.9	4.50e-06	0	40	0	662700032	64	5662
2026-01-14 22:02:49.63	113.93	12.75	-46.0	-49.4	14.7	0.00e+00	0	41	0	667942912	64	5091
2026-01-14 22:02:52.62	114.45	12.61	-46.2	-49.8	14.5	7.00e-07	0	40	0	674234368	63	5607
2026-01-14 22:02:55.60	114.97	12.48	-46.6	-50.3	14.0	7.00e-07	0	40	0	679477248	63	5941
2026-01-14 22:02:58.59	115.48	12.34	-46.5	-50.2	13.9	3.00e-06	0	40	0	684720128	64	5587
2026-01-14 22:03:01.57	115.99	12.21	-46.5	-50.3	13.9	6.80e-06	0	40	0	691011584	64	5606
2026-01-14 22:03:04.56	116.50	12.07	-46.3	-50.0	14.2	3.00e-06	0	40	0	696254464	64	5415
2026-01-14 22:03:07.55	117.00	11.93	-46.3	-50.1	14.1	7.00e-07	0	40	0	701497344	64	5471
2026-01-14 22:03:10.53	117.49	11.79	-46.4	-50.1	14.1	0.00e+00	0	40	0	707788800	64	5498
2026-01-14 22:03:13.52	117.98	11.64	-46.3	-50.0	14.2	1.50e-06	0	40	0	713031680	64	5428
2026-01-14 22:03:17.17	118.58	11.47	-45.9	-49.3	14.9	0.00e+00	0	40	0	720371712	63	5312
2026-01-14 22:03:20.19	119.06	11.32	-45.7	-49.0	15.2	0.00e+00	0	40	0	725614592	63	5140
2026-01-14 22:03:24.15	119.69	11.13	-45.6	-48.8	15.3	0.00e+00	0	40	0	732954624	62	5329
2026-01-14 22:03:26.99	120.14	10.99	-44.9	-48.8	15.3	0.00e+00	0	40	0	738197504	61	5648
2026-01-14 22:03:30.80	120.73	10.80	-45.5	-48.7	15.5	0.00e+00	0	40	0	745537536	61	5532
2026-01-14 22:03:33.59	121.16	10.67	-45.8	-49.1	15.1	0.00e+00	0	40	0	750780416	62	5507
2026-01-14 22:03:36.72	121.64	10.51	-45.8	-49.5	14.7	0.00e+00	0	40	0	757071872	62	5742
2026-01-14 22:03:39.95	122.13	10.35	-45.2	-48.9	15.2	7.00e-07	0	41	0	762314752	62	5372
2026-01-14 22:03:43.00	122.58	10.19	-44.8	-48.2	15.9	0.00e+00	0	40	0	768606208	61	5241
2026-01-14 22:03:46.27	123.07	10.03	-45.1	-48.1	16.0	0.00e+00	0	40	0	774897664	61	5164
2026-01-14 22:03:49.00	123.47	9.89	-45.4	-48.6	15.5	0.00e+00	0	40	0	780140544	61	5473
2026-01-14 22:03:52.20	123.93	9.73	-45.5	-48.7	15.3	0.00e+00	0	40	0	785383424	61	5582
2026-01-14 22:03:55.18	124.36	9.58	-45.8	-49.2	14.9	0.00e+00	0	41	0	791674880	62	5564
2026-01-14 22:03:58.17	124.78	9.42	-45.9	-49.4	14.6	0.00e+00	0	40	0	796917760	62	5711
2026-01-14 22:04:01.22	125.21	9.27	-46.1	-49.6	14.4	0.00e+00	0	40	0	803209216	62	5855
2026-01-14 22:04:04.12	125.62	9.12	-45.5	-49.4	14.6	0.00e+00	0	40	0	808452096	62	5682
2026-01-14 22:04:07.67	126.10	8.93	-50.5	-65.5	3.8	1.49e+00	0	40	104	813694976	71	21578
2026-01-14 22:04:10.45	126.48	8.79	-50.6	-65.9	3.8	1.49e+00	0	40	104	813694976	72	21482
2026-01-14 22:04:13.71	126.92	8.62	-50.7	-66.0	3.8	1.49e+00	0	41	104	813694976	72	21666
2026-01-14 22:04:16.41	127.28	8.48	-50.8	-66.1	3.8	1.49e+00	0	40	104	813694976	72	21814
2026-01-14 22:04:19.69	127.72	8.31	-50.7	-66.1	3.8	1.49e+00	0	40	104	813694976	72	21975
2026-01-14 22:04:22.59	128.09	8.16	-50.5	-66.1	3.8	1.49e+00	0	40	104	813694976	72	21908
2026-01-14 22:04:25.58	128.48	8.01	-50.5	-66.1	3.8	1.49e+00	0	40	104	813694976	72	21898
2026-01-14 22:04:28.56	128.86	7.85	-50.7	-66.1	3.8	1.49e+00	0	40	104	813694976	72	21839
2026-01-14 22:04:31.54	129.24	7.70	-50.7	-66.1	3.8	1.49e+00	0	40	104	813694976	72	21799
2026-01-14 22:04:34.57	129.62	7.54	-50.6	-66.0	3.8	1.49e+00	0	40	104	813694976	72	21730
2026-01-14 22:04:37.55	129.99	7.38	-50.6	-66.0	3.8	1.49e+00	0	40	104	813694976	72	21717
2026-01-14 22:04:40.53	130.35	7.23	-50.6	-66.0	3.8	1.49e+00	0	40	104	813694976	72	21657
2026-01-14 22:04:43.52	130.72	7.07	-50.6	-66.0	3.8	1.49e+00	0	40	104	813694976	72	21702
2026-01-14 22:04:46.50	131.08	6.91	-50.6	-66.0	3.8	1.49e+00	0	40	104	813694976	72	21698
2026-01-14 22:04:49.54	131.44	6.76	-50.6	-66.0	3.8	1.49e+00	0	40	104	813694976	72	21671
2026-01-14 22:04:52.40	131.77	6.61	-50.6	-66.0	3.8	1.49e+00	0	40	104	813694976	72	21661
2026-01-14 22:04:55.52	132.14	6.44	-50.6	-66.0	3.8	1.49e+00	0	40	104	813694976	72	21568
2026-01-14 22:04:58.36	132.47	6.30	-50.6	-66.0	3.8	1.49e+00	0	40	104	813694976	72	21709
2026-01-14 22:05:01.53	132.83	6.13	-50.6	-66.0	3.8	1.49e+00	0	40	104	813694976	72	21587
2026-01-14 22:05:04.37	133.15	5.98	-50.6	-66.0	3.8	1.49e+00	0	40	104	813694976	72	21616
2026-01-14 22:05:07.49	133.50	5.82	-50.6	-66.0	3.8	1.49e+00	0	40	104	813694976	72	21607
2026-01-14 22:05:10.34	133.81	5.67	-50.6	-66.0	3.8	1.49e+00	0	40	104	813694976	72	21616
2026-01-14 22:05:13.46	134.15	5.51	-50.6	-66.0	3.8	1.49e+00	0	40	104	813694976	72	21697
2026-01-14 22:05:16.30	134.46	5.36	-50.6	-66.0	3.8	1.49e+00	0	40	104	813694976	72	21601
2026-01-14 22:05:19.53	134.81	5.19	-50.6	-66.0	3.8	1.49e+00	0	40	104	813694976	72	21582
2026-01-14 22:05:22.45	135.12	5.04	-50.6	-66.0	3.8	1.49e+00	0	40	104	813694976	72	21578

#Closed at: 2026-01-14 22:05:24
#Recorded file [813 MB]: D:/Data/31040_260115_005532.dat