passes_logs/2026/01/14/T1/T1__20260114_114740_NOAA_20_JPSS-1_rec.log

#Pass ID: 20260114_114740_NOAA 20 (JPSS-1)
#Satellite: NOAA 20 (JPSS-1)
#Configuration: NOAA 20
#almurnet v.1.7.20251203
#Start time: 2026-01-14 11:47:39

#Version: 2.0.20230620
#Station: T1
#Location: 37.570604 lon 55.790049 lat
#TLE: 1 43013U 17073A   26013.21545503  .00000073  00000+0  55630-4 0  9998
#TLE: 2 43013  98.7633 314.1737 0001580  41.9966 318.1331 14.19535680422486

#Time	Az	El	Level	Level2	SNR	BER	BlckErr	Temp	State	Recorded	gain1	gain2
2026-01-14 11:47:39.98	223.02	4.98	-51.9	-67.3	3.8	1.49e+00	0	40	0	0	75	21032
2026-01-14 11:47:42.96	223.33	5.14	-51.8	-67.2	3.8	1.49e+00	0	40	104	0	75	20953
2026-01-14 11:47:45.94	223.64	5.29	-51.7	-67.2	3.8	1.49e+00	0	40	104	0	75	20890
2026-01-14 11:47:48.91	223.96	5.45	-51.7	-67.2	3.8	1.49e+00	0	40	104	0	75	20995
2026-01-14 11:47:51.90	224.28	5.61	-51.7	-67.2	3.8	1.49e+00	0	40	104	0	75	20872
2026-01-14 11:47:54.88	224.60	5.77	-51.8	-67.2	3.8	1.49e+00	0	40	104	0	75	20968
2026-01-14 11:47:57.86	224.92	5.93	-51.8	-67.1	3.8	1.49e+00	0	40	104	0	75	20688
2026-01-14 11:48:00.84	225.25	6.09	-51.8	-67.2	3.8	1.49e+00	0	41	104	0	75	20796
2026-01-14 11:48:03.82	225.59	6.24	-51.8	-67.2	3.8	1.49e+00	0	41	104	0	75	20988
2026-01-14 11:48:06.80	225.92	6.40	-51.8	-67.2	3.8	1.49e+00	0	41	104	0	75	20874
2026-01-14 11:48:09.78	226.26	6.56	-51.8	-67.2	3.8	1.49e+00	0	41	104	0	75	20787
2026-01-14 11:48:12.76	226.60	6.72	-51.8	-67.1	3.8	1.49e+00	0	41	104	0	75	20695
2026-01-14 11:48:15.74	226.95	6.88	-51.8	-67.0	3.8	1.49e+00	0	41	104	0	75	20429
2026-01-14 11:48:18.73	227.30	7.04	-51.7	-67.0	3.8	1.49e+00	0	41	104	0	75	20364
2026-01-14 11:48:21.71	227.65	7.20	-51.8	-67.1	3.8	1.49e+00	0	41	104	0	75	20644
2026-01-14 11:48:24.69	228.01	7.36	-51.6	-66.7	3.8	1.49e+00	0	41	104	0	75	19791
2026-01-14 11:48:27.67	228.37	7.52	-51.8	-66.9	3.8	1.49e+00	0	41	104	0	75	20174
2026-01-14 11:48:30.65	228.74	7.68	-51.8	-66.9	3.8	1.49e+00	0	41	104	0	75	20144
2026-01-14 11:48:33.64	229.11	7.84	-51.8	-66.3	3.8	1.49e+00	0	42	104	0	75	18753
2026-01-14 11:48:36.62	229.48	8.00	-51.7	-66.4	3.8	1.49e+00	0	42	104	0	75	19101
2026-01-14 11:48:39.60	229.86	8.16	-51.8	-66.0	3.8	1.49e+00	0	42	104	0	75	18138
2026-01-14 11:48:42.58	230.24	8.32	-51.7	-67.0	3.8	1.49e+00	0	42	104	0	75	20385
2026-01-14 11:48:45.57	230.63	8.48	-50.7	-58.2	7.6	1.47e-01	0	42	0	2097152	73	8289
2026-01-14 11:48:48.55	231.02	8.64	-48.9	-53.3	12.7	2.49e-04	0	42	0	7340032	69	5938
2026-01-14 11:48:51.53	231.41	8.80	-48.6	-52.7	13.3	1.44e-05	0	42	0	13631488	68	5885
2026-01-14 11:48:54.51	231.81	8.96	-49.8	-55.2	10.7	1.24e-03	0	42	0	18874368	70	7014
2026-01-14 11:48:57.49	232.21	9.12	-49.8	-55.0	10.8	8.90e-02	0	42	0	24117248	71	6446
2026-01-14 11:49:00.48	232.62	9.28	-49.7	-54.9	10.9	2.34e-02	0	42	0	30408704	71	6350
2026-01-14 11:49:03.46	233.03	9.44	-49.4	-54.1	11.9	5.32e-04	0	42	0	35651584	70	6185
2026-01-14 11:49:06.45	233.44	9.60	-48.5	-52.4	13.7	1.14e-05	0	42	0	40894464	68	5695
2026-01-14 11:49:09.46	233.87	9.76	-48.5	-52.4	13.7	1.29e-05	0	42	0	47185920	68	5671
2026-01-14 11:49:12.52	234.30	9.92	-48.1	-51.7	14.4	0.00e+00	0	42	0	52428800	68	5223
2026-01-14 11:49:15.38	234.71	10.07	-48.1	-51.7	14.4	1.50e-06	0	42	0	57671680	68	5255
2026-01-14 11:49:18.47	235.16	10.23	-48.0	-51.6	14.5	0.00e+00	0	42	0	63963136	68	5201
2026-01-14 11:49:21.45	235.60	10.39	-47.8	-51.3	14.7	0.00e+00	0	42	0	69206016	67	5330
2026-01-14 11:49:24.43	236.04	10.55	-47.8	-51.2	14.8	0.00e+00	0	42	0	75497472	67	5239
2026-01-14 11:49:27.42	236.49	10.70	-47.8	-51.2	14.8	0.00e+00	0	42	0	80740352	67	5230
2026-01-14 11:49:30.41	236.94	10.86	-47.6	-50.9	15.1	7.00e-07	0	42	0	85983232	67	5082
2026-01-14 11:49:33.55	237.42	11.02	-47.5	-50.8	15.2	0.00e+00	0	42	0	92274688	67	4998
2026-01-14 11:49:36.39	237.86	11.17	-47.4	-50.6	15.4	0.00e+00	0	42	0	97517568	66	5184
2026-01-14 11:49:39.52	238.35	11.33	-47.2	-50.3	15.7	0.00e+00	0	42	0	103809024	66	4995
2026-01-14 11:49:42.36	238.79	11.47	-47.1	-50.2	15.8	0.00e+00	0	42	0	109051904	66	4952
2026-01-14 11:49:45.56	239.30	11.63	-47.2	-50.3	15.8	0.00e+00	0	42	0	114294784	66	4988
2026-01-14 11:49:48.40	239.76	11.78	-47.1	-50.1	15.9	0.00e+00	0	42	0	119537664	66	4891
2026-01-14 11:49:51.53	240.27	11.93	-47.0	-50.0	16.0	0.00e+00	0	42	0	125829120	65	5118
2026-01-14 11:49:54.37	240.73	12.08	-47.2	-50.2	15.8	0.00e+00	0	42	0	131072000	65	5269
2026-01-14 11:49:57.50	241.25	12.23	-46.9	-50.0	16.0	0.00e+00	0	42	0	137363456	65	5120
2026-01-14 11:50:00.34	241.73	12.37	-46.9	-49.9	16.1	0.00e+00	0	42	0	142606336	65	5060
2026-01-14 11:50:03.47	242.26	12.52	-46.9	-49.9	16.1	0.00e+00	0	42	0	147849216	65	5059
2026-01-14 11:50:06.39	242.75	12.67	-47.0	-50.0	16.0	0.00e+00	0	42	0	154140672	65	5136
2026-01-14 11:50:09.37	243.27	12.81	-46.9	-49.9	16.1	0.00e+00	0	42	0	159383552	65	5090
2026-01-14 11:50:12.36	243.79	12.95	-46.8	-49.7	16.3	0.00e+00	0	42	0	164626432	65	4962
2026-01-14 11:50:15.34	244.31	13.09	-46.9	-49.8	16.2	0.00e+00	0	43	0	170917888	65	5010
2026-01-14 11:50:18.42	244.85	13.24	-47.1	-50.1	16.0	0.00e+00	0	42	0	176160768	65	5160
2026-01-14 11:50:21.38	245.38	13.37	-47.1	-50.2	15.8	0.00e+00	0	43	0	181403648	65	5266
2026-01-14 11:50:24.91	246.02	13.53	-47.1	-50.2	15.8	0.00e+00	0	42	0	188743680	65	5232
2026-01-14 11:50:27.61	246.51	13.66	-47.3	-50.5	15.6	0.00e+00	0	42	0	193986560	65	5436
2026-01-14 11:50:30.89	247.11	13.80	-47.6	-50.9	15.1	7.00e-07	0	43	0	199229440	65	5709
2026-01-14 11:50:33.61	247.62	13.92	-47.7	-50.9	15.1	0.00e+00	0	43	0	204472320	66	5396
2026-01-14 11:50:36.89	248.23	14.06	-47.8	-51.2	14.9	0.00e+00	0	42	0	210763776	66	5532
2026-01-14 11:50:39.86	248.79	14.19	-48.0	-51.5	14.6	0.00e+00	0	42	0	216006656	66	5756
2026-01-14 11:50:42.85	249.36	14.32	-48.1	-51.7	14.4	0.00e+00	0	42	0	222298112	67	5562
2026-01-14 11:50:45.91	249.94	14.44	-48.2	-51.7	14.3	1.50e-06	0	42	0	227540992	67	5585
2026-01-14 11:50:48.78	250.50	14.56	-48.3	-51.9	14.1	7.00e-07	0	42	0	232783872	67	5712
2026-01-14 11:50:51.90	251.11	14.68	-48.4	-52.0	14.1	3.00e-06	0	43	0	239075328	67	5765
2026-01-14 11:50:54.75	251.67	14.80	-48.6	-52.4	13.7	5.30e-06	0	42	0	244318208	67	6004
2026-01-14 11:50:57.88	252.28	14.92	-48.7	-52.6	13.5	8.30e-06	0	42	0	250609664	67	6184
2026-01-14 11:51:00.72	252.85	15.02	-48.6	-52.4	13.6	9.10e-06	0	43	0	255852544	67	6043
2026-01-14 11:51:04.02	253.51	15.14	-48.9	-52.8	13.4	8.30e-06	0	42	0	262144000	68	5973
2026-01-14 11:51:06.93	254.10	15.25	-48.8	-52.7	13.5	6.80e-06	0	42	0	267386880	68	5908
2026-01-14 11:51:10.21	254.77	15.37	-48.7	-52.6	13.6	8.30e-06	0	42	0	273678336	68	5809
2026-01-14 11:51:12.93	255.33	15.46	-48.5	-52.3	14.0	1.50e-06	0	42	0	278921216	68	5595
2026-01-14 11:51:16.21	256.00	15.57	-48.1	-51.6	14.7	0.00e+00	0	42	0	284164096	68	5171
2026-01-14 11:51:18.96	256.57	15.66	-47.8	-51.2	14.9	0.00e+00	0	42	0	289406976	67	5237
2026-01-14 11:51:22.19	257.25	15.76	-47.6	-51.0	15.1	0.00e+00	0	42	0	295698432	67	5142
2026-01-14 11:51:25.18	257.88	15.85	-47.5	-50.7	15.4	0.00e+00	0	43	0	300941312	67	4967
2026-01-14 11:51:28.16	258.51	15.94	-47.0	-50.0	16.0	0.00e+00	0	43	0	307232768	66	4859
2026-01-14 11:51:31.15	259.14	16.02	-46.9	-49.8	16.2	0.00e+00	0	42	0	312475648	65	5011
2026-01-14 11:51:34.13	259.78	16.11	-47.0	-50.0	16.1	0.00e+00	0	42	0	318767104	65	5134
2026-01-14 11:51:37.34	260.47	16.19	-47.2	-50.2	15.8	0.00e+00	0	42	0	324009984	65	5278
2026-01-14 11:51:40.27	261.10	16.26	-47.2	-50.4	15.7	0.00e+00	0	43	0	329252864	65	5363
2026-01-14 11:51:43.26	261.75	16.34	-47.3	-50.4	15.6	0.00e+00	0	43	0	335544320	65	5393
2026-01-14 11:51:46.24	262.40	16.41	-47.3	-50.4	15.7	0.00e+00	0	43	0	340787200	65	5370
2026-01-14 11:51:49.23	263.06	16.47	-47.4	-50.6	15.5	0.00e+00	0	43	0	346030080	65	5491
2026-01-14 11:51:52.21	263.71	16.53	-47.5	-50.7	15.4	0.00e+00	0	43	0	352321536	65	5542
2026-01-14 11:51:55.19	264.37	16.59	-47.6	-50.8	15.2	0.00e+00	0	43	0	357564416	65	5655
2026-01-14 11:51:58.29	265.06	16.65	-47.6	-50.8	15.3	0.00e+00	0	43	0	363855872	66	5323
2026-01-14 11:52:01.56	265.78	16.71	-47.6	-50.9	15.2	0.00e+00	0	43	0	370147328	66	5345
2026-01-14 11:52:04.27	266.39	16.75	-47.6	-50.9	15.2	0.00e+00	0	43	0	374341632	66	5370
2026-01-14 11:52:07.65	267.14	16.80	-47.6	-50.8	15.3	0.00e+00	0	43	0	380633088	66	5307
2026-01-14 11:52:10.42	267.76	16.84	-47.6	-50.9	15.2	0.00e+00	0	43	0	385875968	66	5373
2026-01-14 11:52:13.82	268.53	16.88	-47.7	-51.1	15.0	0.00e+00	0	42	0	392167424	66	5483
2026-01-14 11:52:16.87	269.22	16.91	-47.4	-50.5	15.6	0.00e+00	0	43	0	398458880	66	5137
2026-01-14 11:52:20.59	270.06	16.95	-47.4	-50.6	15.5	0.00e+00	0	43	0	405798912	66	5209
2026-01-14 11:52:23.31	270.67	16.97	-47.6	-50.9	15.2	0.00e+00	0	42	0	409993216	66	5362
2026-01-14 11:52:26.72	271.45	17.00	-48.0	-51.5	14.7	0.00e+00	0	43	0	417333248	66	5725
2026-01-14 11:52:29.55	272.09	17.01	-47.9	-51.3	14.8	0.00e+00	0	43	0	422576128	66	5656
2026-01-14 11:52:32.82	272.83	17.03	-47.5	-50.7	15.3	7.00e-07	0	43	0	427819008	66	5271
2026-01-14 11:52:35.71	273.49	17.03	-47.4	-50.6	15.5	0.00e+00	0	43	0	434110464	66	5165
2026-01-14 11:52:39.12	274.26	17.04	-47.5	-50.7	15.5	0.00e+00	0	43	0	440401920	66	5229
2026-01-14 11:52:42.14	274.95	17.04	-47.6	-50.8	15.3	0.00e+00	0	43	0	445644800	66	5331
2026-01-14 11:52:45.84	275.79	17.04	-47.7	-51.0	15.2	0.00e+00	0	43	0	452984832	66	5407
2026-01-14 11:52:48.67	276.43	17.03	-47.4	-50.6	15.6	0.00e+00	0	43	0	458227712	66	5182
2026-01-14 11:52:52.72	277.35	17.01	-47.3	-50.4	15.7	0.00e+00	0	42	0	465567744	66	5064
2026-01-14 11:52:55.63	278.01	16.99	-47.3	-50.4	15.7	0.00e+00	0	43	0	470810624	66	5080
2026-01-14 11:52:58.82	278.73	16.97	-47.4	-50.6	15.6	0.00e+00	0	43	0	477102080	66	5174
2026-01-14 11:53:02.27	279.51	16.94	-47.3	-50.4	15.7	0.00e+00	0	43	0	483393536	66	5063
2026-01-14 11:53:05.00	280.13	16.92	-47.3	-50.4	15.7	0.00e+00	0	43	0	488636416	66	5089
2026-01-14 11:53:08.64	280.95	16.88	-47.3	-50.4	15.8	0.00e+00	0	43	0	495976448	66	5052
2026-01-14 11:53:11.50	281.59	16.84	-47.2	-50.2	15.9	0.00e+00	0	43	0	501219328	66	4980
2026-01-14 11:53:14.78	282.33	16.80	-47.4	-50.6	15.6	0.00e+00	0	43	0	506462208	66	5175
2026-01-14 11:53:17.55	282.95	16.76	-47.5	-50.6	15.5	0.00e+00	0	43	0	511705088	66	5210
2026-01-14 11:53:20.96	283.70	16.70	-47.1	-50.1	16.0	0.00e+00	0	42	0	519045120	66	4911
2026-01-14 11:53:23.71	284.31	16.65	-46.9	-49.8	16.2	0.00e+00	0	43	0	523239424	65	5035
2026-01-14 11:53:27.23	285.09	16.59	-47.2	-50.2	15.9	0.00e+00	0	43	0	530579456	65	5246
2026-01-14 11:53:30.07	285.72	16.53	-47.0	-50.0	16.1	0.00e+00	0	43	0	535822336	65	5127
2026-01-14 11:53:33.65	286.50	16.46	-46.9	-49.8	16.2	0.00e+00	0	43	0	542113792	65	5032
2026-01-14 11:53:36.49	287.12	16.40	-47.0	-49.9	16.1	0.00e+00	0	42	0	547356672	65	5092
2026-01-14 11:53:39.77	287.83	16.32	-46.9	-49.8	16.2	0.00e+00	0	43	0	553648128	65	5015
2026-01-14 11:53:42.49	288.42	16.25	-46.8	-49.7	16.3	0.00e+00	0	43	0	558891008	65	4978
2026-01-14 11:53:45.78	289.13	16.17	-46.8	-49.7	16.3	0.00e+00	0	43	0	565182464	65	4967
2026-01-14 11:53:48.59	289.73	16.09	-46.8	-49.6	16.4	0.00e+00	0	43	0	570425344	65	4918
2026-01-14 11:53:51.86	290.43	16.00	-46.8	-49.7	16.3	0.00e+00	0	43	0	576716800	65	4956
2026-01-14 11:53:54.77	291.04	15.92	-47.1	-50.1	16.0	0.00e+00	0	43	0	581959680	65	5165
2026-01-14 11:53:57.75	291.67	15.83	-47.0	-50.0	16.1	0.00e+00	0	43	0	587202560	65	5101
2026-01-14 11:54:00.75	292.30	15.74	-46.6	-49.4	16.6	0.00e+00	0	43	0	593494016	65	4802
2026-01-14 11:54:03.84	292.94	15.64	-46.5	-49.3	16.8	0.00e+00	0	43	0	598736896	65	4711
2026-01-14 11:54:06.68	293.53	15.55	-46.3	-49.0	17.0	0.00e+00	0	43	0	603979776	64	4866
2026-01-14 11:54:09.80	294.17	15.45	-46.4	-49.2	16.8	0.00e+00	0	43	0	610271232	64	4930
2026-01-14 11:54:12.65	294.75	15.35	-46.7	-49.5	16.5	0.00e+00	0	43	0	615514112	64	5136
2026-01-14 11:54:15.85	295.40	15.24	-46.8	-49.6	16.4	0.00e+00	0	43	0	621805568	64	5216
2026-01-14 11:54:18.70	295.97	15.13	-46.7	-49.5	16.5	0.00e+00	0	43	0	627048448	64	5146
2026-01-14 11:54:22.06	296.64	15.01	-46.5	-49.3	16.6	0.00e+00	0	42	0	633339904	64	5028
2026-01-14 11:54:24.78	297.18	14.91	-46.4	-49.1	16.8	0.00e+00	0	43	0	638582784	64	4919
2026-01-14 11:54:28.71	297.95	14.76	-46.8	-49.7	16.2	0.00e+00	0	43	0	645922816	64	5264
2026-01-14 11:54:31.53	298.50	14.65	-47.2	-50.3	15.7	0.00e+00	0	43	0	651165696	65	5295
2026-01-14 11:54:34.94	299.16	14.51	-47.1	-50.2	15.8	0.00e+00	0	43	0	657457152	65	5244
2026-01-14 11:54:37.72	299.69	14.40	-47.1	-50.2	15.8	0.00e+00	0	43	0	662700032	65	5242
2026-01-14 11:54:41.00	300.31	14.26	-47.2	-50.2	15.7	0.00e+00	0	43	0	668991488	65	5259
2026-01-14 11:54:43.96	300.87	14.14	-47.1	-50.1	15.8	0.00e+00	0	43	0	674234368	65	5217
2026-01-14 11:54:47.22	301.48	14.00	-47.2	-50.3	15.7	0.00e+00	0	43	0	680525824	65	5280
2026-01-14 11:54:49.95	301.98	13.88	-47.8	-51.1	14.9	0.00e+00	0	43	0	685768704	66	5499
2026-01-14 11:54:53.23	302.59	13.74	-48.3	-52.1	13.9	1.50e-06	0	43	0	692060160	67	5796
2026-01-14 11:54:55.95	303.08	13.62	-48.4	-52.3	13.7	7.60e-06	0	43	0	696254464	67	5957
2026-01-14 11:54:59.41	303.70	13.46	-48.5	-52.5	13.4	1.60e-05	0	43	0	703594496	67	6112
2026-01-14 11:55:02.14	304.19	13.34	-48.6	-52.5	13.4	1.90e-05	0	43	0	707788800	67	6122
2026-01-14 11:55:05.66	304.82	13.17	-48.2	-51.9	14.1	4.50e-06	0	43	0	715128832	67	5685
2026-01-14 11:55:08.71	305.35	13.03	-48.1	-51.7	14.3	2.20e-06	0	43	0	720371712	67	5555
2026-01-14 11:55:12.32	305.98	12.86	-48.2	-51.9	14.1	7.00e-07	0	43	0	727711744	67	5671
2026-01-14 11:55:15.04	306.44	12.73	-48.5	-52.4	13.6	3.80e-06	0	43	0	732954624	67	6015
2026-01-14 11:55:18.54	307.04	12.57	-48.9	-53.2	12.9	4.04e-05	0	43	0	739246080	68	6214
2026-01-14 11:55:21.27	307.50	12.43	-49.0	-53.2	12.9	5.87e-05	0	43	0	744488960	68	6271
2026-01-14 11:55:24.69	308.07	12.27	-48.6	-52.4	13.7	1.14e-05	0	43	0	750780416	68	5705
2026-01-14 11:55:27.41	308.52	12.13	-48.5	-52.3	13.8	2.20e-06	0	43	0	756023296	68	5632
2026-01-14 11:55:30.70	309.05	11.97	-48.5	-52.4	13.7	1.06e-05	0	43	0	762314752	68	5685
2026-01-14 11:55:33.67	309.53	11.82	-48.2	-52.0	14.1	5.30e-06	0	43	0	767557632	68	5438
2026-01-14 11:55:37.13	310.09	11.65	-47.8	-51.3	14.6	7.00e-07	0	43	0	773849088	67	5309
2026-01-14 11:55:39.85	310.52	11.52	-47.9	-51.5	14.3	0.00e+00	0	43	0	779091968	67	5457
2026-01-14 11:55:43.12	311.03	11.35	-47.9	-51.6	14.3	2.20e-06	0	43	0	785383424	67	5474
2026-01-14 11:55:45.90	311.46	11.21	-47.9	-51.7	14.2	0.00e+00	0	43	0	790626304	67	5573
2026-01-14 11:55:49.21	311.97	11.04	-48.1	-52.0	13.9	1.50e-06	0	43	0	796917760	67	5731
2026-01-14 11:55:51.93	312.38	10.90	-48.1	-51.9	13.9	3.00e-06	0	43	0	801112064	67	5716
2026-01-14 11:55:55.23	312.88	10.73	-47.5	-51.1	14.7	0.00e+00	0	43	0	807403520	67	5202
2026-01-14 11:55:58.26	313.33	10.57	-47.1	-50.6	15.2	0.00e+00	0	43	0	813694976	66	5204
2026-01-14 11:56:01.21	313.77	10.42	-47.2	-50.5	15.4	0.00e+00	0	43	0	818937856	66	5104
2026-01-14 11:56:04.23	314.21	10.26	-47.6	-51.0	14.9	7.00e-07	0	43	0	824180736	66	5413
2026-01-14 11:56:07.25	314.64	10.11	-47.6	-51.0	14.8	7.00e-07	0	43	0	830472192	66	5441
2026-01-14 11:56:10.23	315.07	9.95	-47.5	-50.9	14.9	0.00e+00	0	43	0	835715072	66	5352
2026-01-14 11:56:13.66	315.55	9.77	-47.5	-50.9	14.9	0.00e+00	0	43	0	842006528	66	5365
2026-01-14 11:56:16.51	315.95	9.62	-47.6	-51.1	14.7	1.50e-06	0	43	0	847249408	66	5524
2026-01-14 11:56:19.78	316.40	9.45	-47.4	-51.0	14.8	7.00e-07	0	43	0	853540864	66	5453
2026-01-14 11:56:22.74	316.81	9.29	-47.2	-50.8	15.0	7.00e-07	0	43	0	859832320	66	5299
2026-01-14 11:56:26.02	317.25	9.12	-47.2	-51.0	14.8	7.00e-07	0	43	0	865075200	66	5406
2026-01-14 11:56:28.74	317.62	8.98	-50.6	-59.6	7.2	0.00e+00	0	43	0	870318080	71	10948
2026-01-14 11:56:32.02	318.05	8.80	-52.3	-67.6	3.8	1.49e+00	0	43	104	870318080	75	21976
2026-01-14 11:56:34.72	318.40	8.66	-52.5	-67.7	3.8	1.49e+00	0	43	104	870318080	75	22238
2026-01-14 11:56:37.98	318.83	8.49	-52.6	-67.8	3.8	1.49e+00	0	43	104	870318080	76	21249
2026-01-14 11:56:40.71	319.18	8.34	-52.8	-67.9	3.8	1.49e+00	0	43	104	870318080	76	21336
2026-01-14 11:56:43.97	319.59	8.17	-52.7	-67.9	3.8	1.49e+00	0	43	104	870318080	76	21338
2026-01-14 11:56:46.68	319.93	8.03	-52.6	-67.9	3.8	1.49e+00	0	43	104	870318080	76	21286
2026-01-14 11:56:49.95	320.34	7.85	-52.4	-67.8	3.8	1.49e+00	0	43	104	870318080	76	21206
2026-01-14 11:56:52.66	320.67	7.71	-52.4	-67.9	3.8	1.49e+00	0	43	104	870318080	76	21268
2026-01-14 11:56:55.92	321.07	7.54	-52.4	-67.8	3.8	1.49e+00	0	43	104	870318080	76	21082
2026-01-14 11:56:58.62	321.40	7.39	-52.4	-67.8	3.8	1.49e+00	0	43	104	870318080	76	21074
2026-01-14 11:57:01.89	321.79	7.22	-52.4	-67.8	3.8	1.49e+00	0	43	104	870318080	76	21020
2026-01-14 11:57:04.59	322.10	7.08	-52.4	-67.8	3.8	1.49e+00	0	43	104	870318080	76	21092
2026-01-14 11:57:07.85	322.49	6.91	-52.4	-67.8	3.8	1.49e+00	0	43	104	870318080	76	21019
2026-01-14 11:57:10.55	322.80	6.76	-52.4	-67.8	3.8	1.49e+00	0	43	104	870318080	76	21168
2026-01-14 11:57:13.81	323.17	6.59	-52.4	-67.8	3.8	1.49e+00	0	43	104	870318080	76	21087
2026-01-14 11:57:16.53	323.48	6.45	-52.4	-67.8	3.8	1.49e+00	0	43	104	870318080	76	21200
2026-01-14 11:57:19.79	323.84	6.28	-52.4	-67.8	3.8	1.49e+00	0	43	104	870318080	76	21079
2026-01-14 11:57:22.51	324.15	6.13	-52.4	-67.8	3.8	1.49e+00	0	43	104	870318080	76	21072
2026-01-14 11:57:25.79	324.51	5.96	-52.4	-67.8	3.8	1.49e+00	0	43	104	870318080	76	21028
2026-01-14 11:57:28.50	324.80	5.82	-52.4	-67.7	3.8	1.49e+00	0	43	104	870318080	76	20960
2026-01-14 11:57:31.77	325.15	5.65	-52.4	-67.7	3.8	1.49e+00	0	43	104	870318080	76	21004
2026-01-14 11:57:34.48	325.44	5.50	-52.4	-67.7	3.8	1.49e+00	0	43	104	870318080	76	20998
2026-01-14 11:57:37.75	325.78	5.33	-52.4	-67.8	3.8	1.49e+00	0	43	104	870318080	76	21089
2026-01-14 11:57:40.47	326.07	5.19	-52.4	-67.7	3.8	1.49e+00	0	43	104	870318080	76	20970
2026-01-14 11:57:43.74	326.41	5.02	-52.4	-67.8	3.8	1.49e+00	0	43	104	870318080	76	21046

#Closed at: 2026-01-14 11:57:45
#Recorded file [870 MB]: D:/Data/31040_260114_144739.dat