passes_logs/2026/01/14/T1/T1__20260114_073749_NOAA_21_JPSS-2_rec.log

#Pass ID: 20260114_073749_NOAA 21 (JPSS-2)
#Satellite: NOAA 21 (JPSS-2)
#Configuration: NOAA 21
#almurnet v.1.7.20251203
#Start time: 2026-01-14 07:37:51

#Version: 2.0.20230620
#Station: T1
#Location: 37.570604 lon 55.790049 lat
#TLE: 1 54234U 22150A   26013.18009385  .00000056  00000+0  47387-4 0  9997
#TLE: 2 54234  98.7496 314.1019 0000691 303.8246  56.2864 14.19534466164559

#Time	Az	El	Level	Level2	SNR	BER	BlckErr	Temp	State	Recorded	gain1	gain2
2026-01-14 07:37:51.92	85.68	5.10	-51.8	-64.8	3.8	1.49e+00	0	40	0	0	75	15925
2026-01-14 07:37:53.90	85.46	5.20	-51.8	-64.8	3.8	1.49e+00	0	40	104	0	75	15812
2026-01-14 07:37:55.89	85.23	5.30	-51.8	-64.8	3.8	1.49e+00	0	41	104	0	75	15866
2026-01-14 07:37:57.88	85.01	5.40	-51.8	-64.8	3.8	1.49e+00	0	41	104	0	75	15863
2026-01-14 07:37:59.86	84.79	5.50	-51.8	-64.8	3.8	1.49e+00	0	41	104	0	75	15768
2026-01-14 07:38:01.85	84.56	5.59	-51.8	-64.8	3.8	1.49e+00	0	41	104	0	75	15877
2026-01-14 07:38:03.84	84.33	5.69	-51.8	-64.8	3.8	1.49e+00	0	41	104	0	75	15879
2026-01-14 07:38:05.82	84.10	5.79	-51.8	-64.8	3.8	1.49e+00	0	41	104	0	75	15889
2026-01-14 07:38:07.81	83.87	5.89	-51.8	-64.8	3.8	1.49e+00	0	41	104	0	75	15886
2026-01-14 07:38:09.80	83.64	5.99	-51.8	-64.8	3.8	1.49e+00	0	41	104	0	75	15879
2026-01-14 07:38:11.78	83.41	6.08	-51.8	-64.8	3.8	1.49e+00	0	41	104	0	75	15883
2026-01-14 07:38:13.77	83.17	6.18	-51.8	-64.8	3.8	1.49e+00	0	41	104	0	75	15784
2026-01-14 07:38:15.76	82.94	6.28	-51.8	-64.7	3.8	1.49e+00	0	41	104	0	75	15668
2026-01-14 07:38:17.74	82.70	6.38	-51.8	-64.7	3.8	1.49e+00	0	41	104	0	75	15698
2026-01-14 07:38:19.73	82.46	6.47	-51.8	-64.6	3.8	1.49e+00	0	41	104	0	75	15515
2026-01-14 07:38:21.72	82.21	6.57	-51.8	-64.6	3.8	1.49e+00	0	41	104	0	75	15566
2026-01-14 07:38:23.70	81.97	6.67	-51.8	-64.7	3.8	1.49e+00	0	42	104	0	75	15659
2026-01-14 07:38:25.69	81.73	6.77	-51.8	-64.6	3.8	1.49e+00	0	41	104	0	75	15532
2026-01-14 07:38:27.68	81.48	6.86	-51.8	-64.6	3.8	1.49e+00	0	41	104	0	75	15556
2026-01-14 07:38:29.66	81.23	6.96	-51.8	-64.6	3.8	1.49e+00	0	42	104	0	75	15517
2026-01-14 07:38:31.65	80.98	7.06	-51.8	-64.6	3.8	1.49e+00	0	42	104	0	75	15408
2026-01-14 07:38:33.64	80.73	7.15	-51.8	-64.5	3.8	1.49e+00	0	42	104	0	75	15300
2026-01-14 07:38:35.62	80.48	7.25	-51.8	-64.5	3.8	1.49e+00	0	42	104	0	75	15265
2026-01-14 07:38:37.61	80.22	7.34	-51.8	-64.5	3.8	1.49e+00	0	42	104	0	75	15366
2026-01-14 07:38:39.60	79.96	7.44	-51.8	-64.5	3.8	1.49e+00	0	42	104	0	75	15376
2026-01-14 07:38:41.58	79.70	7.54	-51.8	-64.5	3.8	1.49e+00	0	42	104	0	75	15227
2026-01-14 07:38:43.57	79.44	7.63	-51.7	-64.3	3.8	1.49e+00	0	42	104	0	75	14967
2026-01-14 07:38:45.56	79.18	7.73	-51.7	-64.0	3.8	1.49e+00	0	42	104	0	75	14435
2026-01-14 07:38:47.54	78.92	7.82	-51.7	-63.9	3.8	1.49e+00	0	42	104	0	75	14355
2026-01-14 07:38:49.53	78.65	7.92	-51.8	-64.3	3.8	1.49e+00	0	42	104	0	75	14984
2026-01-14 07:38:51.51	78.38	8.01	-51.8	-64.5	3.8	1.49e+00	0	42	104	0	75	15364
2026-01-14 07:38:53.50	78.11	8.11	-51.8	-64.7	3.8	1.49e+00	0	42	104	0	75	15620
2026-01-14 07:38:55.49	77.84	8.20	-51.7	-64.1	3.8	1.49e+00	0	42	104	0	75	14653
2026-01-14 07:38:57.48	77.57	8.30	-51.5	-62.6	3.8	1.48e+00	0	42	104	0	75	12265
2026-01-14 07:38:59.46	77.30	8.39	-51.6	-63.1	3.9	1.49e+00	0	42	104	0	75	12993
2026-01-14 07:39:01.45	77.02	8.48	-51.7	-63.8	3.8	1.49e+00	0	42	104	0	75	14125
2026-01-14 07:39:03.44	76.74	8.58	-50.5	-56.9	6.6	3.98e-01	0	42	0	0	73	7184
2026-01-14 07:39:05.42	76.46	8.67	-49.2	-53.5	10.0	1.19e-02	0	42	0	0	70	5777
2026-01-14 07:39:07.41	76.18	8.76	-49.0	-53.2	10.3	4.62e-03	0	42	0	0	69	5892
2026-01-14 07:39:09.40	75.90	8.85	-50.4	-56.4	7.1	8.08e-02	0	42	0	0	71	7556
2026-01-14 07:39:11.38	75.61	8.94	-51.6	-62.9	3.9	1.49e+00	0	42	104	0	73	14318
2026-01-14 07:39:13.37	75.32	9.04	-51.4	-61.3	3.9	1.49e+00	0	42	104	0	74	11226
2026-01-14 07:39:15.36	75.03	9.13	-51.7	-63.9	3.8	1.30e+00	0	42	104	0	74	15222
2026-01-14 07:39:17.35	74.74	9.22	-50.2	-55.7	8.1	1.08e-02	0	42	0	0	70	7372
2026-01-14 07:39:19.34	74.45	9.31	-49.3	-53.7	9.8	1.54e-02	0	42	0	0	70	5919
2026-01-14 07:39:21.33	74.15	9.40	-48.1	-51.4	12.3	2.72e-04	0	42	0	0	68	5088
2026-01-14 07:39:23.32	73.86	9.49	-47.8	-51.1	12.5	1.27e-04	0	42	0	0	67	5181
2026-01-14 07:39:25.36	73.55	9.58	-47.0	-50.0	13.6	1.83e-05	0	42	0	0	66	4817
2026-01-14 07:39:27.35	73.25	9.67	-46.7	-49.4	14.1	7.00e-07	0	42	0	0	65	4790
2026-01-14 07:39:29.34	72.95	9.76	-46.3	-48.9	14.6	7.00e-07	0	42	0	0	64	4801
2026-01-14 07:39:31.32	72.64	9.85	-45.8	-48.2	15.4	0.00e+00	0	43	0	0	63	4704
2026-01-14 07:39:33.31	72.34	9.93	-45.5	-47.9	15.7	0.00e+00	0	43	0	0	63	4518
2026-01-14 07:39:35.30	72.03	10.02	-45.5	-47.9	15.8	0.00e+00	0	42	0	0	62	4764
2026-01-14 07:39:37.29	71.72	10.11	-45.4	-47.7	15.9	0.00e+00	0	42	0	0	62	4697
2026-01-14 07:39:39.28	71.41	10.19	-45.4	-47.7	15.9	0.00e+00	0	42	0	0	62	4683
2026-01-14 07:39:41.27	71.10	10.28	-45.3	-47.6	16.0	0.00e+00	0	42	0	0	62	4628
2026-01-14 07:39:43.23	70.78	10.36	-45.3	-47.5	16.1	0.00e+00	0	42	0	0	62	4584
2026-01-14 07:39:45.25	70.46	10.45	-45.2	-47.5	16.1	0.00e+00	0	42	0	0	62	4554
2026-01-14 07:39:47.27	70.14	10.53	-45.2	-47.4	16.1	0.00e+00	0	42	0	0	62	4534
2026-01-14 07:39:49.26	69.82	10.62	-45.3	-47.6	16.0	0.00e+00	0	42	0	0	62	4629
2026-01-14 07:39:51.25	69.49	10.70	-45.3	-47.6	15.9	0.00e+00	0	42	0	0	62	4630
2026-01-14 07:39:53.24	69.17	10.78	-45.5	-47.9	15.7	0.00e+00	0	42	0	0	62	4765
2026-01-14 07:39:55.23	68.84	10.86	-45.5	-47.8	15.9	0.00e+00	0	42	0	0	62	4730
2026-01-14 07:39:57.22	68.51	10.94	-45.4	-47.7	16.0	0.00e+00	0	42	0	0	62	4692
2026-01-14 07:39:59.26	68.18	11.03	-45.4	-47.7	15.9	0.00e+00	0	42	0	0	62	4704
2026-01-14 07:40:01.33	67.83	11.11	-45.4	-47.7	16.0	0.00e+00	0	42	0	0	62	4692
2026-01-14 07:40:03.65	67.44	11.20	-45.3	-47.6	16.1	0.00e+00	0	42	0	0	62	4644
2026-01-14 07:40:05.64	67.10	11.28	-45.4	-47.6	16.0	0.00e+00	0	43	0	0	62	4651
2026-01-14 07:40:07.62	66.77	11.36	-45.3	-47.6	16.1	0.00e+00	0	42	0	0	62	4620
2026-01-14 07:40:09.62	66.43	11.43	-45.3	-47.5	16.2	0.00e+00	0	43	0	0	62	4592
2026-01-14 07:40:11.62	66.08	11.51	-45.1	-47.3	16.4	0.00e+00	0	42	0	0	62	4469
2026-01-14 07:40:13.60	65.74	11.58	-45.2	-47.4	16.3	0.00e+00	0	42	0	0	62	4523
2026-01-14 07:40:15.59	65.40	11.66	-45.1	-47.3	16.4	0.00e+00	0	43	0	0	62	4473
2026-01-14 07:40:17.59	65.05	11.73	-45.0	-47.2	16.4	0.00e+00	0	43	0	0	62	4430
2026-01-14 07:40:19.78	64.67	11.81	-45.2	-47.4	16.3	0.00e+00	0	42	0	0	62	4512
2026-01-14 07:40:21.94	64.29	11.89	-45.3	-47.6	16.1	0.00e+00	0	43	0	0	62	4608
2026-01-14 07:40:24.58	63.82	11.98	-45.5	-47.8	15.9	0.00e+00	0	43	0	0	62	4722
2026-01-14 07:40:27.05	63.38	12.07	-45.4	-47.6	16.1	0.00e+00	0	43	0	0	62	4651
2026-01-14 07:40:29.08	63.01	12.14	-45.3	-47.6	16.1	0.00e+00	0	43	0	0	62	4628
2026-01-14 07:40:31.03	62.66	12.21	-45.4	-47.7	16.0	0.00e+00	0	43	0	0	62	4667
2026-01-14 07:40:33.01	62.30	12.27	-45.4	-47.7	16.0	0.00e+00	0	43	0	0	62	4678
2026-01-14 07:40:35.01	61.94	12.34	-45.3	-47.6	16.1	0.00e+00	0	43	0	0	62	4618
2026-01-14 07:40:37.00	61.58	12.40	-45.2	-47.5	16.2	0.00e+00	0	43	0	0	62	4571
2026-01-14 07:40:39.12	61.19	12.47	-45.3	-47.6	16.1	0.00e+00	0	42	0	0	62	4629
2026-01-14 07:40:41.09	60.83	12.54	-45.2	-47.4	16.3	0.00e+00	0	43	0	0	62	4544
2026-01-14 07:40:43.08	60.46	12.60	-45.2	-47.4	16.3	0.00e+00	0	42	0	0	62	4511
2026-01-14 07:40:45.07	60.09	12.66	-45.2	-47.5	16.3	0.00e+00	0	43	0	0	62	4554
2026-01-14 07:40:47.05	59.72	12.72	-45.4	-47.7	16.0	0.00e+00	0	43	0	0	62	4674
2026-01-14 07:40:49.04	59.35	12.78	-45.2	-47.4	16.3	0.00e+00	0	43	0	0	62	4539
2026-01-14 07:40:51.04	58.97	12.83	-45.3	-47.5	16.2	0.00e+00	0	43	0	0	62	4587
2026-01-14 07:40:53.02	58.60	12.89	-45.4	-47.7	16.0	0.00e+00	0	43	0	0	62	4694
2026-01-14 07:40:55.01	58.22	12.95	-45.4	-47.7	16.0	0.00e+00	0	43	0	0	62	4689
2026-01-14 07:40:57.00	57.84	13.00	-45.4	-47.6	16.1	0.00e+00	0	43	0	0	62	4633
2026-01-14 07:40:59.10	57.44	13.06	-45.5	-47.7	16.0	0.00e+00	0	43	0	0	62	4699
2026-01-14 07:41:01.05	57.07	13.11	-45.5	-47.7	16.0	0.00e+00	0	42	0	0	62	4696
2026-01-14 07:41:03.23	56.65	13.17	-45.4	-47.7	16.0	0.00e+00	0	42	0	0	62	4668
2026-01-14 07:41:05.22	56.26	13.22	-45.4	-47.7	16.1	0.00e+00	0	43	0	0	62	4680
2026-01-14 07:41:07.24	55.87	13.26	-45.3	-47.6	16.2	0.00e+00	0	43	0	0	62	4631
2026-01-14 07:41:09.23	55.49	13.31	-45.3	-47.5	16.2	0.00e+00	0	43	0	0	62	4583
2026-01-14 07:41:11.22	55.10	13.36	-45.2	-47.4	16.3	0.00e+00	0	43	0	0	62	4534
2026-01-14 07:41:13.25	54.70	13.40	-45.2	-47.4	16.3	0.00e+00	0	43	0	0	62	4537
2026-01-14 07:41:15.45	54.27	13.45	-45.1	-47.3	16.4	0.00e+00	0	43	0	0	62	4487
2026-01-14 07:41:17.44	53.88	13.50	-45.2	-47.4	16.3	0.00e+00	0	43	0	0	62	4544
2026-01-14 07:41:19.43	53.49	13.54	-45.2	-47.4	16.3	0.00e+00	0	43	0	0	62	4518
2026-01-14 07:41:21.42	53.09	13.58	-45.2	-47.4	16.3	0.00e+00	0	43	0	0	62	4536
2026-01-14 07:41:23.41	52.70	13.62	-45.0	-47.2	16.5	0.00e+00	0	43	0	0	62	4414
2026-01-14 07:41:25.40	52.30	13.65	-45.0	-47.3	16.5	0.00e+00	0	43	0	0	62	4443
2026-01-14 07:41:27.43	51.90	13.69	-45.2	-47.4	16.3	0.00e+00	0	43	0	0	62	4510
2026-01-14 07:41:29.42	51.50	13.72	-45.2	-47.4	16.3	0.00e+00	0	43	0	0	62	4517
2026-01-14 07:41:31.41	51.10	13.76	-45.0	-47.2	16.5	0.00e+00	0	43	0	0	62	4423
2026-01-14 07:41:33.59	50.67	13.79	-45.1	-47.3	16.5	0.00e+00	0	43	0	0	62	4452
2026-01-14 07:41:35.59	50.26	13.82	-45.1	-47.3	16.4	0.00e+00	0	43	0	0	62	4477
2026-01-14 07:41:37.59	49.86	13.85	-45.1	-47.3	16.4	0.00e+00	0	43	0	0	62	4451
2026-01-14 07:41:39.58	49.46	13.88	-45.0	-47.2	16.5	0.00e+00	0	43	0	0	62	4431
2026-01-14 07:41:41.57	49.06	13.91	-45.0	-47.2	16.5	0.00e+00	0	43	0	0	62	4416
2026-01-14 07:41:43.59	48.65	13.93	-45.1	-47.3	16.4	0.00e+00	0	43	0	0	62	4484
2026-01-14 07:41:45.58	48.24	13.96	-45.1	-47.3	16.5	0.00e+00	0	43	0	0	62	4477
2026-01-14 07:41:47.62	47.83	13.98	-45.2	-47.4	16.4	0.00e+00	0	43	0	0	62	4509
2026-01-14 07:41:49.67	47.41	14.00	-44.9	-47.1	16.6	0.00e+00	0	43	0	0	61	4639
2026-01-14 07:41:51.96	46.94	14.02	-45.0	-47.1	16.6	0.00e+00	0	43	0	0	61	4648
2026-01-14 07:41:53.95	46.54	14.04	-44.9	-47.1	16.6	0.00e+00	0	43	0	0	61	4614
2026-01-14 07:41:55.94	46.13	14.06	-44.6	-46.7	17.0	0.00e+00	0	43	0	0	61	4423
2026-01-14 07:41:57.97	45.71	14.07	-44.6	-46.7	16.9	0.00e+00	0	43	0	0	61	4441
2026-01-14 07:41:59.96	45.31	14.09	-44.7	-46.8	16.9	0.00e+00	0	43	0	0	61	4462
2026-01-14 07:42:02.01	44.89	14.10	-44.9	-47.1	16.6	0.00e+00	0	43	0	0	61	4630
2026-01-14 07:42:04.03	44.47	14.11	-45.0	-47.2	16.5	0.00e+00	0	43	0	0	61	4692
2026-01-14 07:42:06.07	44.05	14.12	-45.0	-47.2	16.5	0.00e+00	0	43	0	0	61	4705
2026-01-14 07:42:08.37	43.58	14.13	-45.0	-47.2	16.5	0.00e+00	0	43	0	0	61	4681
2026-01-14 07:42:10.39	43.17	14.13	-45.0	-47.2	16.5	0.00e+00	0	43	0	0	61	4682
2026-01-14 07:42:12.76	42.68	14.14	-45.1	-47.2	16.5	0.00e+00	0	43	0	0	61	4692
2026-01-14 07:42:15.04	42.21	14.14	-45.1	-47.3	16.4	0.00e+00	0	43	0	0	61	4746
2026-01-14 07:42:17.31	41.74	14.14	-45.0	-47.2	16.5	0.00e+00	0	43	0	0	61	4683
2026-01-14 07:42:19.59	41.27	14.14	-45.0	-47.2	16.5	0.00e+00	0	43	0	0	61	4667
2026-01-14 07:42:21.61	40.86	14.14	-45.0	-47.2	16.5	0.00e+00	0	43	0	0	61	4657
2026-01-14 07:42:23.61	40.45	14.14	-45.0	-47.2	16.5	0.00e+00	0	43	0	0	61	4666
2026-01-14 07:42:25.62	40.03	14.13	-45.0	-47.2	16.5	0.00e+00	0	43	0	0	61	4663
2026-01-14 07:42:27.61	39.63	14.13	-44.8	-47.0	16.7	0.00e+00	0	43	0	0	61	4583
2026-01-14 07:42:29.59	39.22	14.12	-44.8	-47.0	16.8	0.00e+00	0	43	0	0	61	4548
2026-01-14 07:42:31.58	38.81	14.11	-45.0	-47.2	16.5	0.00e+00	0	43	0	0	61	4679
2026-01-14 07:42:33.57	38.40	14.10	-44.9	-47.1	16.6	0.00e+00	0	43	0	0	61	4649
2026-01-14 07:42:35.56	38.00	14.09	-44.9	-47.1	16.6	0.00e+00	0	43	0	0	61	4631
2026-01-14 07:42:37.55	37.59	14.07	-44.9	-47.2	16.5	0.00e+00	0	43	0	0	61	4657
2026-01-14 07:42:39.54	37.18	14.06	-44.9	-47.1	16.6	0.00e+00	0	43	0	0	61	4641
2026-01-14 07:42:41.53	36.77	14.04	-44.9	-47.2	16.5	0.00e+00	0	43	0	0	61	4663
2026-01-14 07:42:43.51	36.37	14.02	-44.9	-47.2	16.4	0.00e+00	0	43	0	0	61	4686
2026-01-14 07:42:45.50	35.97	14.00	-44.9	-47.2	16.5	0.00e+00	0	43	0	0	61	4669
2026-01-14 07:42:47.50	35.56	13.98	-45.0	-47.2	16.5	0.00e+00	0	43	0	0	61	4676
2026-01-14 07:42:49.48	35.16	13.96	-44.9	-47.2	16.6	0.00e+00	0	43	0	0	61	4652
2026-01-14 07:42:51.47	34.75	13.94	-45.1	-47.4	16.3	0.00e+00	0	43	0	0	61	4765
2026-01-14 07:42:53.46	34.35	13.91	-45.0	-47.2	16.4	0.00e+00	0	43	0	0	61	4683
2026-01-14 07:42:55.45	33.95	13.88	-45.0	-47.2	16.5	0.00e+00	0	43	0	0	61	4691
2026-01-14 07:42:57.44	33.55	13.86	-44.9	-47.0	16.7	0.00e+00	0	43	0	0	61	4597
2026-01-14 07:42:59.43	33.15	13.83	-45.0	-47.2	16.6	0.00e+00	0	43	0	0	61	4653
2026-01-14 07:43:01.42	32.75	13.80	-45.0	-47.2	16.5	0.00e+00	0	43	0	0	61	4698
2026-01-14 07:43:03.44	32.34	13.76	-45.0	-47.3	16.5	0.00e+00	0	43	0	0	61	4719
2026-01-14 07:43:05.44	31.94	13.73	-45.0	-47.2	16.5	0.00e+00	0	43	0	0	61	4666
2026-01-14 07:43:07.43	31.54	13.70	-44.9	-47.0	16.6	0.00e+00	0	43	0	0	61	4597
2026-01-14 07:43:09.42	31.15	13.66	-44.9	-47.0	16.7	0.00e+00	0	43	0	0	61	4571
2026-01-14 07:43:11.41	30.75	13.62	-44.8	-47.0	16.7	0.00e+00	0	43	0	0	61	4558
2026-01-14 07:43:13.40	30.36	13.59	-44.7	-46.8	16.8	0.00e+00	0	43	0	0	61	4490
2026-01-14 07:43:15.39	29.97	13.55	-44.8	-47.0	16.8	0.00e+00	0	43	0	0	61	4548
2026-01-14 07:43:17.38	29.57	13.51	-44.9	-47.2	16.5	0.00e+00	0	43	0	0	61	4668
2026-01-14 07:43:19.37	29.18	13.46	-44.9	-47.3	16.4	0.00e+00	0	43	0	0	61	4726
2026-01-14 07:43:21.36	28.79	13.42	-45.1	-47.5	16.3	0.00e+00	0	43	0	0	61	4825
2026-01-14 07:43:23.36	28.40	13.37	-45.1	-47.5	16.3	0.00e+00	0	43	0	0	61	4829
2026-01-14 07:43:25.32	28.02	13.33	-44.9	-47.3	16.5	0.00e+00	0	43	0	0	61	4717
2026-01-14 07:43:27.34	27.63	13.28	-44.8	-47.1	16.6	0.00e+00	0	43	0	0	61	4615
2026-01-14 07:43:29.36	27.24	13.23	-44.9	-47.3	16.4	0.00e+00	0	43	0	0	61	4728
2026-01-14 07:43:31.35	26.85	13.18	-44.8	-47.1	16.6	0.00e+00	0	43	0	0	61	4651
2026-01-14 07:43:33.34	26.47	13.13	-44.9	-47.2	16.5	0.00e+00	0	43	0	0	61	4689
2026-01-14 07:43:35.33	26.09	13.08	-44.9	-47.2	16.5	0.00e+00	0	43	0	0	61	4687
2026-01-14 07:43:37.32	25.71	13.03	-44.8	-47.1	16.6	0.00e+00	0	43	0	0	61	4605
2026-01-14 07:43:39.37	25.32	12.97	-44.7	-46.9	16.8	0.00e+00	0	43	0	0	61	4504
2026-01-14 07:43:41.36	24.95	12.92	-44.8	-47.1	16.6	0.00e+00	0	43	0	0	61	4603
2026-01-14 07:43:43.68	24.51	12.85	-44.8	-47.0	16.7	0.00e+00	0	43	0	0	61	4584
2026-01-14 07:43:45.73	24.13	12.79	-45.0	-47.3	16.5	0.00e+00	0	43	0	0	61	4717
2026-01-14 07:43:47.78	23.74	12.73	-45.0	-47.3	16.4	0.00e+00	0	43	0	0	61	4734
2026-01-14 07:43:49.77	23.37	12.67	-45.0	-47.3	16.4	0.00e+00	0	43	0	0	61	4719
2026-01-14 07:43:51.76	23.00	12.61	-45.1	-47.4	16.3	0.00e+00	0	43	0	0	61	4786
2026-01-14 07:43:53.75	22.64	12.55	-45.2	-47.6	16.2	0.00e+00	0	43	0	0	61	4871
2026-01-14 07:43:55.74	22.27	12.49	-45.1	-47.5	16.2	0.00e+00	0	43	0	0	61	4833
2026-01-14 07:43:57.78	21.90	12.42	-45.0	-47.5	16.2	0.00e+00	0	43	0	0	61	4849
2026-01-14 07:43:59.83	21.52	12.36	-44.8	-47.4	16.3	0.00e+00	0	43	0	0	61	4791
2026-01-14 07:44:01.82	21.16	12.29	-44.9	-47.4	16.3	0.00e+00	0	43	0	0	61	4806
2026-01-14 07:44:03.81	20.80	12.22	-44.9	-47.4	16.3	0.00e+00	0	43	0	0	61	4795
2026-01-14 07:44:05.90	20.43	12.15	-45.1	-47.5	16.3	0.00e+00	0	43	0	0	61	4819
2026-01-14 07:44:07.89	20.07	12.08	-45.0	-47.5	16.3	0.00e+00	0	43	0	0	61	4820
2026-01-14 07:44:09.88	19.72	12.02	-45.1	-47.5	16.2	0.00e+00	0	43	0	0	61	4849
2026-01-14 07:44:11.87	19.37	11.95	-45.0	-47.4	16.3	0.00e+00	0	43	0	0	61	4790
2026-01-14 07:44:13.85	19.02	11.87	-45.0	-47.2	16.5	0.00e+00	0	43	0	0	61	4671
2026-01-14 07:44:15.84	18.67	11.80	-45.1	-47.3	16.4	0.00e+00	0	43	0	0	61	4734
2026-01-14 07:44:17.87	18.32	11.73	-44.9	-47.2	16.5	0.00e+00	0	43	0	0	61	4682
2026-01-14 07:44:19.95	17.96	11.65	-45.1	-47.5	16.2	0.00e+00	0	43	0	0	61	4828
2026-01-14 07:44:21.97	17.61	11.58	-45.3	-47.8	15.9	0.00e+00	0	43	0	0	61	4986
2026-01-14 07:44:23.96	17.27	11.50	-45.2	-47.8	15.8	0.00e+00	0	43	0	0	61	5024
2026-01-14 07:44:25.95	16.93	11.43	-45.2	-48.0	15.7	0.00e+00	0	43	0	0	61	5110
2026-01-14 07:44:27.94	16.59	11.35	-45.0	-47.7	15.9	0.00e+00	0	43	0	0	61	4979
2026-01-14 07:44:29.93	16.25	11.27	-44.9	-47.7	16.0	0.00e+00	0	43	0	0	61	4950
2026-01-14 07:44:31.92	15.92	11.19	-44.9	-47.6	16.0	0.00e+00	0	43	0	0	61	4918
2026-01-14 07:44:34.02	15.57	11.11	-45.1	-47.8	15.9	0.00e+00	0	43	0	0	61	4998
2026-01-14 07:44:36.07	15.23	11.03	-45.3	-47.9	15.8	0.00e+00	0	43	0	0	61	5054
2026-01-14 07:44:38.06	14.90	10.95	-45.3	-47.8	15.9	0.00e+00	0	43	0	0	61	4996
2026-01-14 07:44:40.08	14.57	10.87	-45.1	-47.5	16.2	0.00e+00	0	43	0	0	61	4820
2026-01-14 07:44:42.07	14.24	10.79	-45.1	-47.5	16.2	0.00e+00	0	43	0	0	61	4824
2026-01-14 07:44:44.14	13.90	10.70	-45.0	-47.5	16.2	0.00e+00	0	43	0	0	61	4817
2026-01-14 07:44:46.18	13.57	10.62	-45.0	-47.6	16.1	0.00e+00	0	43	0	0	61	4881
2026-01-14 07:44:48.18	13.25	10.53	-45.1	-47.7	15.9	0.00e+00	0	43	0	0	61	4982
2026-01-14 07:44:50.27	12.92	10.44	-45.0	-47.9	15.8	0.00e+00	0	43	0	0	61	5070
2026-01-14 07:44:52.26	12.61	10.36	-45.0	-48.0	15.7	0.00e+00	0	43	0	0	61	5109
2026-01-14 07:44:54.26	12.29	10.28	-44.9	-47.9	15.8	0.00e+00	0	43	0	0	61	5072
2026-01-14 07:44:56.44	11.95	10.18	-45.1	-48.0	15.6	0.00e+00	0	43	0	0	61	5156
2026-01-14 07:44:58.49	11.63	10.09	-45.3	-48.2	15.5	0.00e+00	0	43	0	0	61	5232
2026-01-14 07:45:00.50	11.32	10.01	-45.4	-48.3	15.4	0.00e+00	0	43	0	0	61	5315
2026-01-14 07:45:02.51	11.01	9.92	-45.4	-48.5	15.2	0.00e+00	0	43	0	0	61	5423
2026-01-14 07:45:04.52	10.70	9.83	-45.3	-48.4	15.3	0.00e+00	0	43	0	0	61	5394
2026-01-14 07:45:06.53	10.40	9.74	-45.3	-48.6	15.1	0.00e+00	0	43	0	0	61	5501
2026-01-14 07:45:08.52	10.10	9.65	-45.6	-48.8	14.9	0.00e+00	0	43	0	0	61	5618
2026-01-14 07:45:10.52	9.80	9.56	-45.8	-48.9	14.9	0.00e+00	0	43	0	0	62	5342
2026-01-14 07:45:12.67	9.48	9.47	-45.8	-48.9	14.8	0.00e+00	0	43	0	0	62	5341
2026-01-14 07:45:14.82	9.16	9.37	-45.7	-48.7	15.0	0.00e+00	0	43	0	0	62	5258
2026-01-14 07:45:16.81	8.87	9.28	-45.5	-48.4	15.2	0.00e+00	0	43	0	0	62	5097
2026-01-14 07:45:18.91	8.56	9.18	-45.6	-48.4	15.3	7.00e-07	0	43	0	0	62	5059
2026-01-14 07:45:20.90	8.27	9.09	-45.4	-48.1	15.5	0.00e+00	0	43	0	0	62	4918
2026-01-14 07:45:22.89	7.98	9.00	-48.6	-54.3	9.5	1.50e-06	0	43	0	0	67	7511
2026-01-14 07:45:24.87	7.70	8.91	-51.2	-65.2	3.9	1.49e+00	0	43	104	0	73	18611
2026-01-14 07:45:26.86	7.42	8.82	-52.1	-65.4	3.8	1.49e+00	0	43	104	0	74	18037
2026-01-14 07:45:28.85	7.13	8.73	-52.4	-65.5	3.8	1.49e+00	0	43	104	0	75	17193
2026-01-14 07:45:30.83	6.86	8.63	-52.5	-65.6	3.8	1.49e+00	0	43	104	0	75	17312
2026-01-14 07:45:32.82	6.58	8.54	-52.0	-65.6	3.8	1.49e+00	0	43	104	0	75	17350
2026-01-14 07:45:34.81	6.30	8.45	-52.6	-65.7	3.8	1.49e+00	0	43	104	0	75	17500
2026-01-14 07:45:36.79	6.03	8.35	-52.6	-65.7	3.8	1.49e+00	0	43	104	0	76	16579
2026-01-14 07:45:38.78	5.76	8.26	-52.6	-65.7	3.8	1.49e+00	0	43	104	0	76	16618
2026-01-14 07:45:40.76	5.49	8.17	-52.5	-65.7	3.8	1.49e+00	0	43	104	0	76	16550
2026-01-14 07:45:42.75	5.22	8.07	-52.7	-65.7	3.8	1.49e+00	0	43	104	0	76	16522
2026-01-14 07:45:44.74	4.95	7.98	-52.7	-65.7	3.8	1.49e+00	0	43	104	0	76	16575
2026-01-14 07:45:46.73	4.69	7.88	-52.6	-65.7	3.8	1.49e+00	0	43	104	0	76	16506
2026-01-14 07:45:48.71	4.43	7.79	-52.6	-65.6	3.8	1.49e+00	0	43	104	0	76	16498
2026-01-14 07:45:50.70	4.16	7.69	-52.4	-65.6	3.8	1.49e+00	0	43	104	0	76	16477
2026-01-14 07:45:52.69	3.90	7.60	-52.4	-65.6	3.8	1.49e+00	0	43	104	0	76	16490
2026-01-14 07:45:54.67	3.65	7.50	-52.4	-65.6	3.8	1.49e+00	0	43	104	0	76	16426
2026-01-14 07:45:56.66	3.39	7.41	-52.3	-65.6	3.8	1.49e+00	0	43	104	0	76	16422
2026-01-14 07:45:58.64	3.14	7.31	-52.4	-65.6	3.8	1.49e+00	0	43	104	0	76	16399
2026-01-14 07:46:00.63	2.88	7.22	-52.3	-65.6	3.8	1.49e+00	0	43	104	0	76	16403
2026-01-14 07:46:02.62	2.63	7.12	-52.3	-65.6	3.8	1.49e+00	0	43	104	0	76	16462
2026-01-14 07:46:04.60	2.38	7.02	-52.3	-65.6	3.8	1.49e+00	0	43	104	0	76	16391
2026-01-14 07:46:06.59	2.14	6.93	-52.3	-65.6	3.8	1.49e+00	0	43	104	0	76	16400
2026-01-14 07:46:08.58	1.89	6.83	-52.3	-65.6	3.8	1.49e+00	0	43	104	0	76	16432
2026-01-14 07:46:10.56	1.65	6.73	-52.3	-65.6	3.8	1.49e+00	0	43	104	0	76	16389
2026-01-14 07:46:12.55	1.40	6.64	-52.3	-65.6	3.8	1.49e+00	0	43	104	0	76	16405
2026-01-14 07:46:14.54	1.16	6.54	-52.3	-65.6	3.8	1.49e+00	0	43	104	0	76	16362
2026-01-14 07:46:16.52	0.92	6.44	-52.3	-65.6	3.8	1.49e+00	0	43	104	0	76	16399
2026-01-14 07:46:18.51	0.69	6.35	-52.3	-65.6	3.8	1.49e+00	0	43	104	0	76	16402
2026-01-14 07:46:20.50	0.45	6.25	-52.3	-65.6	3.8	1.49e+00	0	43	104	0	76	16410
2026-01-14 07:46:22.49	0.21	6.15	-52.3	-65.6	3.8	1.49e+00	0	43	104	0	76	16397
2026-01-14 07:46:24.47	359.98	6.05	-52.3	-65.6	3.8	1.49e+00	0	43	104	0	76	16398
2026-01-14 07:46:26.46	359.75	5.96	-52.3	-65.6	3.8	1.49e+00	0	43	104	0	76	16397
2026-01-14 07:46:28.45	359.52	5.86	-52.3	-65.6	3.8	1.49e+00	0	43	104	0	76	16371
2026-01-14 07:46:30.43	359.29	5.76	-52.3	-65.6	3.8	1.49e+00	0	43	104	0	76	16375
2026-01-14 07:46:32.42	359.07	5.66	-52.3	-65.6	3.8	1.49e+00	0	43	104	0	76	16402
2026-01-14 07:46:34.41	358.84	5.57	-52.3	-65.6	3.8	1.49e+00	0	43	104	0	76	16350
2026-01-14 07:46:36.39	358.62	5.47	-52.3	-65.6	3.8	1.49e+00	0	43	104	0	76	16413
2026-01-14 07:46:38.38	358.40	5.37	-52.3	-65.6	3.8	1.49e+00	0	43	104	0	76	16381
2026-01-14 07:46:40.37	358.18	5.27	-52.3	-65.6	3.8	1.49e+00	0	43	104	0	76	16355
2026-01-14 07:46:42.35	357.96	5.17	-52.3	-65.6	3.8	1.49e+00	0	43	104	0	76	16380
2026-01-14 07:46:44.34	357.74	5.08	-52.3	-65.6	3.8	1.49e+00	0	43	104	0	76	16351
2026-01-14 07:46:46.33	357.52	4.98	-52.3	-65.6	3.8	1.49e+00	0	43	104	0	76	16326

#Closed at: 2026-01-14 07:46:47
#Recorded file [0 MB]: D:/Data/31040_260114_103751.dat