passes_logs/2025/01/15/planumMaritime01/planumMaritime01__20250115_074849_NOAA_18_rec.log

#Pass ID: 20250115_074849_NOAA 18
#Satellite: NOAA 18
#Configuration: NOAA 18
#Start time: 2025-01-15 07:48:54.296890

#LorettStation: 1.0.0 05.05.2024
#Station: planumMaritime01
#Location: 37.49445 lon 55.92918 lat
#TLE: 1 28654U 05018A   25014.17177243  .00000313  00000+0  18955-3 0  9990
#TLE: 2 28654  98.8569  95.2344 0014326 181.4762 178.6370 14.13485757 13061

#Time	Az	El	Level	SNR
2025-01-15 07:48:56.467345	32.6	10.2	-81.7	0.0
2025-01-15 07:48:58.715490	32.8	10.3	-81.7	0.0
2025-01-15 07:49:00.962812	33.0	10.5	-81.9	0.0
2025-01-15 07:49:03.207223	33.3	10.6	-81.8	0.0
2025-01-15 07:49:05.453945	33.5	10.8	-81.9	0.0
2025-01-15 07:49:07.701077	33.7	11.0	-81.7	0.0
2025-01-15 07:49:09.949732	34.0	11.1	-82.0	0.0
2025-01-15 07:49:12.196734	34.2	11.3	-81.9	0.0
2025-01-15 07:49:14.443765	34.4	11.5	-82.0	0.0
2025-01-15 07:49:16.693516	34.7	11.6	-82.1	0.0
2025-01-15 07:49:18.939687	34.9	11.8	-81.8	0.0
2025-01-15 07:49:21.186755	35.2	12.0	-81.9	0.0
2025-01-15 07:49:23.433544	35.4	12.1	-82.0	0.0
2025-01-15 07:49:25.681039	35.7	12.3	-81.9	0.0
2025-01-15 07:49:27.926850	35.9	12.5	-82.0	0.0
2025-01-15 07:49:30.171332	36.2	12.7	-81.9	0.0
2025-01-15 07:49:32.418536	36.4	12.8	-81.8	0.0
2025-01-15 07:49:34.666010	36.7	13.0	-82.0	0.0
2025-01-15 07:49:36.911527	36.9	13.2	-81.7	0.0
2025-01-15 07:49:39.157891	37.2	13.4	-82.0	0.0
2025-01-15 07:49:41.403509	37.5	13.5	-82.3	0.0
2025-01-15 07:49:43.652048	37.8	13.7	-81.5	0.0
2025-01-15 07:49:45.898922	38.0	13.9	-82.0	0.0
2025-01-15 07:49:48.147549	38.3	14.1	-81.9	0.0
2025-01-15 07:49:50.398582	38.6	14.2	-82.1	0.0
2025-01-15 07:49:52.643300	38.9	14.4	-82.1	0.0
2025-01-15 07:49:54.889467	39.2	14.6	-81.7	0.0
2025-01-15 07:49:57.133961	39.5	14.8	-82.0	0.0
2025-01-15 07:49:59.381540	39.8	15.0	-82.0	0.0
2025-01-15 07:50:01.624991	40.1	15.1	-82.0	0.0
2025-01-15 07:50:03.873154	40.4	15.3	-81.9	0.0
2025-01-15 07:50:06.119666	40.7	15.5	-82.0	0.0
2025-01-15 07:50:08.367311	41.0	15.7	-82.0	0.0
2025-01-15 07:50:10.614385	41.3	15.9	-82.0	0.0
2025-01-15 07:50:12.862309	41.6	16.0	-81.9	0.0
2025-01-15 07:50:15.110370	42.0	16.2	-82.0	0.0
2025-01-15 07:50:17.355553	42.3	16.4	-81.9	0.0
2025-01-15 07:50:19.605882	42.6	16.6	-82.2	0.0
2025-01-15 07:50:21.852127	42.9	16.8	-82.1	0.0
2025-01-15 07:50:24.101329	43.3	17.0	-81.6	0.0
2025-01-15 07:50:26.349106	43.6	17.2	-82.1	0.0
2025-01-15 07:50:28.596537	44.0	17.3	-82.4	0.0
2025-01-15 07:50:30.843774	44.3	17.5	-82.1	0.0
2025-01-15 07:50:33.088300	44.7	17.7	-82.2	0.0
2025-01-15 07:50:35.341005	45.0	17.9	-82.3	0.0
2025-01-15 07:50:37.588181	45.4	18.1	-82.4	0.0
2025-01-15 07:50:39.834972	45.8	18.3	-82.5	0.0
2025-01-15 07:50:42.080353	46.1	18.5	-82.3	0.0
2025-01-15 07:50:44.327110	46.5	18.7	-82.5	0.0
2025-01-15 07:50:46.577469	46.9	18.9	-82.3	0.0
2025-01-15 07:50:48.825331	47.3	19.1	-82.6	0.0
2025-01-15 07:50:51.071407	47.7	19.2	-82.5	0.0
2025-01-15 07:50:53.318088	48.1	19.4	-82.2	0.0
2025-01-15 07:50:55.564382	48.5	19.6	-82.5	0.0
2025-01-15 07:50:57.812258	48.9	19.8	-82.6	0.0
2025-01-15 07:51:00.058344	49.3	20.0	-82.5	0.0
2025-01-15 07:51:02.304913	49.7	20.2	-82.3	0.0
2025-01-15 07:51:04.550695	50.1	20.4	-82.3	0.0
2025-01-15 07:51:06.800682	50.6	20.6	-82.3	0.0
2025-01-15 07:51:09.049173	51.0	20.8	-81.6	0.0
2025-01-15 07:51:11.295894	51.4	21.0	-82.2	0.0
2025-01-15 07:51:13.540588	51.9	21.2	-81.9	0.0
2025-01-15 07:51:15.786104	52.3	21.3	-82.3	0.0
2025-01-15 07:51:18.037499	52.8	21.5	-82.4	0.0
2025-01-15 07:51:20.283524	53.2	21.7	-82.3	0.0
2025-01-15 07:51:22.531466	53.7	21.9	-82.3	0.0
2025-01-15 07:51:24.777701	54.2	22.1	-82.3	0.0
2025-01-15 07:51:27.024022	54.6	22.3	-82.6	0.0
2025-01-15 07:51:29.272977	55.1	22.5	-82.5	0.0
2025-01-15 07:51:31.519659	55.6	22.7	-82.3	0.0
2025-01-15 07:51:33.767510	56.1	22.9	-82.3	0.0
2025-01-15 07:51:36.018626	56.6	23.0	-82.1	0.0
2025-01-15 07:51:38.262398	57.1	23.2	-82.4	0.0
2025-01-15 07:51:40.511873	57.6	23.4	-82.2	0.0
2025-01-15 07:51:42.755317	58.1	23.6	-82.2	0.0
2025-01-15 07:51:45.000879	58.7	23.8	-82.4	0.0
2025-01-15 07:51:47.247677	59.2	23.9	-82.4	0.0
2025-01-15 07:51:49.492185	59.7	24.1	-82.6	0.0
2025-01-15 07:51:51.741190	60.3	24.3	-82.6	0.0
2025-01-15 07:51:53.987625	60.8	24.5	-82.5	0.0
2025-01-15 07:51:56.233055	61.4	24.7	-82.3	0.0
2025-01-15 07:51:58.478436	61.9	24.8	-82.4	0.0
2025-01-15 07:52:00.724685	62.5	25.0	-82.1	0.0
2025-01-15 07:52:02.971735	63.0	25.2	-82.3	0.0
2025-01-15 07:52:05.216524	63.6	25.3	-82.4	0.0
2025-01-15 07:52:07.462676	64.2	25.5	-82.4	0.0
2025-01-15 07:52:09.711049	64.8	25.7	-82.5	0.0
2025-01-15 07:52:11.954112	65.4	25.8	-82.7	0.0
2025-01-15 07:52:14.201949	66.0	26.0	-82.1	0.0
2025-01-15 07:52:16.448243	66.6	26.1	-82.4	0.0
2025-01-15 07:52:18.693460	67.2	26.3	-82.6	0.0
2025-01-15 07:52:20.942271	67.8	26.4	-82.4	0.0
2025-01-15 07:52:23.189037	68.4	26.6	-82.5	0.0
2025-01-15 07:52:25.435453	69.1	26.7	-82.3	0.0
2025-01-15 07:52:27.683715	69.7	26.9	-82.7	0.0
2025-01-15 07:52:29.930224	70.3	27.0	-82.4	0.0
2025-01-15 07:52:32.176960	71.0	27.2	-82.6	0.0
2025-01-15 07:52:34.425804	71.6	27.3	-82.5	0.0
2025-01-15 07:52:36.671424	72.3	27.4	-82.6	0.0
2025-01-15 07:52:38.921592	73.0	27.6	-82.3	0.0
2025-01-15 07:52:41.169521	73.6	27.7	-82.5	0.0
2025-01-15 07:52:43.417805	74.3	27.8	-82.5	0.0
2025-01-15 07:52:45.664696	75.0	27.9	-82.5	0.0
2025-01-15 07:52:47.912441	75.6	28.0	-82.3	0.0
2025-01-15 07:52:50.157195	76.3	28.1	-82.5	0.0
2025-01-15 07:52:52.406567	77.0	28.2	-82.4	0.0
2025-01-15 07:52:54.653161	77.7	28.3	-82.2	0.0
2025-01-15 07:52:56.901898	78.4	28.4	-82.5	0.0
2025-01-15 07:52:59.148582	79.1	28.5	-82.4	0.0
2025-01-15 07:53:01.394109	79.8	28.6	-82.3	0.0
2025-01-15 07:53:03.641223	80.5	28.7	-82.4	0.0
2025-01-15 07:53:05.889553	81.3	28.8	-82.3	0.0
2025-01-15 07:53:08.134936	82.0	28.9	-82.3	0.0
2025-01-15 07:53:10.381612	82.7	28.9	-82.5	0.0
2025-01-15 07:53:12.630558	83.4	29.0	-82.4	0.0
2025-01-15 07:53:14.878507	84.2	29.1	-82.5	0.0
2025-01-15 07:53:17.128042	84.9	29.1	-82.5	0.0
2025-01-15 07:53:19.371841	85.6	29.2	-82.4	0.0
2025-01-15 07:53:21.619993	86.3	29.2	-82.8	0.0
2025-01-15 07:53:23.864433	87.1	29.2	-82.3	0.0
2025-01-15 07:53:26.111222	87.8	29.3	-82.6	0.0
2025-01-15 07:53:28.358830	88.6	29.3	-82.6	0.0
2025-01-15 07:53:30.603980	89.3	29.3	-82.1	0.0
2025-01-15 07:53:32.849694	90.0	29.4	-82.5	0.0
2025-01-15 07:53:35.095458	90.8	29.4	-82.5	0.0
2025-01-15 07:53:37.341167	91.5	29.4	-82.7	0.0
2025-01-15 07:53:39.586691	92.3	29.4	-82.6	0.0
2025-01-15 07:53:41.832158	93.0	29.4	-82.5	0.0
2025-01-15 07:53:44.083809	93.8	29.4	-82.5	0.0
2025-01-15 07:53:46.330949	94.5	29.4	-82.9	0.0
2025-01-15 07:53:48.577851	95.3	29.4	-82.7	0.0
2025-01-15 07:53:50.821830	96.0	29.3	-82.7	0.0
2025-01-15 07:53:53.066134	96.7	29.3	-82.5	0.0
2025-01-15 07:53:55.313004	97.5	29.3	-82.8	0.0
2025-01-15 07:53:57.556871	98.2	29.2	-82.8	0.0
2025-01-15 07:53:59.806104	99.0	29.2	-82.8	0.0
2025-01-15 07:54:02.052852	99.7	29.2	-82.7	0.0
2025-01-15 07:54:04.297060	100.4	29.1	-82.8	0.0
2025-01-15 07:54:06.542289	101.2	29.0	-82.4	0.0
2025-01-15 07:54:08.787140	101.9	29.0	-82.8	0.0
2025-01-15 07:54:11.034347	102.6	28.9	-82.4	0.0
2025-01-15 07:54:13.282805	103.3	28.8	-82.4	0.0
2025-01-15 07:54:15.531721	104.1	28.8	-82.7	0.0
2025-01-15 07:54:17.775702	104.8	28.7	-82.7	0.0
2025-01-15 07:54:20.021164	105.5	28.6	-82.7	0.0
2025-01-15 07:54:22.266733	106.2	28.5	-82.7	0.0
2025-01-15 07:54:24.519066	106.9	28.4	-82.7	0.0
2025-01-15 07:54:26.766214	107.6	28.3	-82.8	0.0
2025-01-15 07:54:29.011132	108.3	28.2	-82.6	0.0
2025-01-15 07:54:31.253865	109.0	28.1	-82.6	0.0
2025-01-15 07:54:33.499377	109.7	28.0	-82.5	0.0
2025-01-15 07:54:35.745600	110.4	27.9	-82.6	0.0
2025-01-15 07:54:37.993928	111.0	27.8	-82.7	0.0
2025-01-15 07:54:40.238139	111.7	27.7	-82.7	0.0
2025-01-15 07:54:42.484320	112.4	27.5	-82.7	0.0
2025-01-15 07:54:44.728274	113.1	27.4	-82.8	0.0
2025-01-15 07:54:46.972848	113.7	27.3	-82.4	0.0
2025-01-15 07:54:49.218040	114.4	27.1	-82.5	0.0
2025-01-15 07:54:51.469223	115.0	27.0	-82.7	0.0
2025-01-15 07:54:53.715248	115.7	26.9	-82.6	0.0
2025-01-15 07:54:55.962134	116.3	26.7	-82.6	0.0
2025-01-15 07:54:58.209317	116.9	26.6	-82.6	0.0
2025-01-15 07:55:00.457033	117.6	26.4	-82.7	0.0
2025-01-15 07:55:02.702339	118.2	26.3	-82.8	0.0
2025-01-15 07:55:04.952747	118.8	26.1	-82.8	0.0
2025-01-15 07:55:07.199025	119.4	25.9	-82.5	0.0
2025-01-15 07:55:09.447928	120.0	25.8	-82.7	0.0
2025-01-15 07:55:11.694643	120.6	25.6	-82.9	0.0
2025-01-15 07:55:13.940381	121.2	25.5	-82.8	0.0
2025-01-15 07:55:16.187077	121.8	25.3	-82.8	0.0
2025-01-15 07:55:18.433859	122.3	25.1	-82.5	0.0
2025-01-15 07:55:20.682984	122.9	24.9	-82.7	0.0
2025-01-15 07:55:22.931651	123.5	24.8	-82.8	0.0
2025-01-15 07:55:25.178526	124.0	24.6	-82.7	0.0
2025-01-15 07:55:27.424183	124.6	24.4	-82.8	0.0
2025-01-15 07:55:29.672874	125.1	24.2	-82.7	0.0
2025-01-15 07:55:31.920851	125.7	24.1	-82.7	0.0
2025-01-15 07:55:34.168030	126.2	23.9	-82.6	0.0
2025-01-15 07:55:36.417392	126.8	23.7	-82.6	0.0
2025-01-15 07:55:38.663021	127.3	23.5	-82.6	0.0
2025-01-15 07:55:40.907480	127.8	23.3	-82.5	0.0
2025-01-15 07:55:43.154723	128.3	23.1	-82.7	0.0
2025-01-15 07:55:45.402870	128.8	23.0	-82.1	0.0
2025-01-15 07:55:47.647325	129.3	22.8	-82.5	0.0
2025-01-15 07:55:49.893658	129.8	22.6	-82.4	0.0
2025-01-15 07:55:52.142278	130.3	22.4	-82.5	0.0
2025-01-15 07:55:54.386546	130.8	22.2	-82.5	0.0
2025-01-15 07:55:56.634934	131.3	22.0	-82.5	0.0
2025-01-15 07:55:58.885054	131.7	21.8	-82.4	0.0
2025-01-15 07:56:01.130658	132.2	21.6	-82.2	0.0
2025-01-15 07:56:03.378489	132.7	21.4	-82.4	0.0
2025-01-15 07:56:05.626051	133.1	21.2	-82.2	0.0
2025-01-15 07:56:07.873741	133.6	21.1	-82.3	0.0
2025-01-15 07:56:10.120873	134.0	20.9	-82.2	0.0
2025-01-15 07:56:12.365626	134.5	20.7	-82.6	0.0
2025-01-15 07:56:14.611408	134.9	20.5	-82.3	0.0
2025-01-15 07:56:16.854614	135.3	20.3	-82.8	0.0
2025-01-15 07:56:19.100710	135.7	20.1	-82.4	0.0
2025-01-15 07:56:21.347513	136.2	19.9	-82.3	0.0
2025-01-15 07:56:23.594985	136.6	19.7	-82.8	0.0
2025-01-15 07:56:25.841665	137.0	19.5	-82.8	0.0
2025-01-15 07:56:28.085700	137.4	19.3	-82.8	0.0
2025-01-15 07:56:30.332144	137.8	19.1	-82.5	0.0
2025-01-15 07:56:32.577869	138.2	18.9	-82.7	0.0
2025-01-15 07:56:34.823465	138.6	18.7	-82.7	0.0
2025-01-15 07:56:37.069892	138.9	18.5	-82.4	0.0
2025-01-15 07:56:39.314873	139.3	18.3	-82.6	0.0
2025-01-15 07:56:41.562903	139.7	18.2	-82.6	0.0
2025-01-15 07:56:43.810082	140.1	18.0	-83.0	0.0
2025-01-15 07:56:46.054733	140.4	17.8	-82.6	0.0
2025-01-15 07:56:48.302069	140.8	17.6	-82.7	0.0
2025-01-15 07:56:50.546628	141.1	17.4	-82.7	0.0
2025-01-15 07:56:52.796101	141.5	17.2	-82.9	0.0
2025-01-15 07:56:55.039080	141.8	17.0	-82.6	0.0
2025-01-15 07:56:57.284524	142.2	16.8	-82.8	0.0
2025-01-15 07:56:59.530341	142.5	16.6	-82.5	0.0
2025-01-15 07:57:01.777952	142.9	16.4	-82.4	0.0
2025-01-15 07:57:04.025373	143.2	16.3	-82.4	0.0
2025-01-15 07:57:06.273659	143.5	16.1	-82.5	0.0
2025-01-15 07:57:08.520242	143.9	15.9	-82.1	0.0
2025-01-15 07:57:10.765912	144.2	15.7	-82.2	0.0
2025-01-15 07:57:13.014853	144.5	15.5	-82.4	0.0
2025-01-15 07:57:15.262007	144.8	15.3	-82.3	0.0
2025-01-15 07:57:17.509862	145.1	15.1	-82.7	0.0
2025-01-15 07:57:19.757972	145.4	15.0	-82.4	0.0
2025-01-15 07:57:22.006676	145.7	14.8	-82.5	0.0
2025-01-15 07:57:24.252497	146.0	14.6	-82.8	0.0
2025-01-15 07:57:26.500234	146.3	14.4	-82.7	0.0
2025-01-15 07:57:28.745521	146.6	14.2	-82.5	0.0
2025-01-15 07:57:30.993798	146.9	14.0	-82.7	0.0
2025-01-15 07:57:33.238773	147.2	13.9	-82.7	0.0
2025-01-15 07:57:35.487011	147.5	13.7	-82.6	0.0
2025-01-15 07:57:37.735884	147.7	13.5	-82.7	0.0
2025-01-15 07:57:39.981470	148.0	13.3	-82.9	0.0
2025-01-15 07:57:42.227745	148.3	13.1	-82.9	0.0
2025-01-15 07:57:44.473547	148.5	13.0	-82.8	0.0
2025-01-15 07:57:46.723135	148.8	12.8	-82.4	0.0
2025-01-15 07:57:48.970732	149.1	12.6	-82.7	0.0
2025-01-15 07:57:51.219673	149.3	12.4	-82.9	0.0
2025-01-15 07:57:53.468113	149.6	12.3	-82.6	0.0
2025-01-15 07:57:55.714587	149.8	12.1	-82.9	0.0
2025-01-15 07:57:57.958458	150.1	11.9	-83.0	0.0
2025-01-15 07:58:00.204674	150.3	11.8	-82.8	0.0
2025-01-15 07:58:02.450313	150.6	11.6	-82.8	0.0
2025-01-15 07:58:04.696047	150.8	11.4	-83.0	0.0
2025-01-15 07:58:06.942179	151.1	11.2	-82.9	0.0
2025-01-15 07:58:09.189800	151.3	11.1	-82.9	0.0
2025-01-15 07:58:11.437671	151.5	10.9	-82.8	0.0
2025-01-15 07:58:13.683291	151.8	10.7	-82.6	0.0
2025-01-15 07:58:15.928666	152.0	10.6	-83.0	0.0
2025-01-15 07:58:18.172623	152.2	10.4	-82.8	0.0
2025-01-15 07:58:20.420872	152.4	10.2	-82.6	0.0
2025-01-15 07:58:22.669095	152.7	10.1	-82.9	0.0
#Closed at: 2025-01-15 07:48:49.301770