passes_logs/2025/01/15/planumMaritime01/planumMaritime01__20250115_105901_METEOR-M2_4_rec.log

#Pass ID: 20250115_105901_METEOR-M2 4
#Satellite: METEOR-M2 4
#Configuration: METEOR-M2 4
#Start time: 2025-01-15 10:59:06.627175

#LorettStation: 1.0.0 05.05.2024
#Station: planumMaritime01
#Location: 37.49445 lon 55.92918 lat
#TLE: 1 59051U 24039A   25013.90238722  .00000050  00000+0  41715-4 0  9998
#TLE: 2 59051  98.6291 336.9363 0006151 228.5277 131.5373 14.22324781 45440

#Time	Az	El	Level	SNR
2025-01-15 10:59:08.790854	145.2	10.2	-80.8	0.0
2025-01-15 10:59:11.038053	145.1	10.4	-80.9	0.0
2025-01-15 10:59:13.282665	145.1	10.6	-80.8	0.0
2025-01-15 10:59:15.532221	145.0	10.8	-81.3	0.0
2025-01-15 10:59:17.778653	144.9	11.0	-81.5	0.0
2025-01-15 10:59:20.023453	144.8	11.2	-81.4	0.0
2025-01-15 10:59:22.269280	144.8	11.4	-81.4	0.0
2025-01-15 10:59:24.517439	144.7	11.6	-81.8	0.0
2025-01-15 10:59:26.762706	144.6	11.8	-81.7	0.0
2025-01-15 10:59:29.008446	144.5	12.0	-81.7	0.0
2025-01-15 10:59:31.256772	144.4	12.2	-81.7	0.0
2025-01-15 10:59:33.501028	144.3	12.4	-81.9	0.0
2025-01-15 10:59:35.747525	144.3	12.6	-81.7	0.0
2025-01-15 10:59:37.996044	144.2	12.9	-81.8	0.0
2025-01-15 10:59:40.242221	144.1	13.1	-81.7	0.0
2025-01-15 10:59:42.487945	144.0	13.3	-81.8	0.0
2025-01-15 10:59:44.733411	143.9	13.5	-81.6	0.0
2025-01-15 10:59:46.980985	143.8	13.7	-81.4	0.0
2025-01-15 10:59:49.228091	143.7	14.0	-81.7	0.0
2025-01-15 10:59:51.472307	143.6	14.2	-81.2	0.0
2025-01-15 10:59:53.718367	143.5	14.4	-81.7	0.0
2025-01-15 10:59:55.962304	143.4	14.7	-81.9	0.0
2025-01-15 10:59:58.208434	143.3	14.9	-81.6	0.0
2025-01-15 11:00:00.450158	143.2	15.1	-81.8	0.0
2025-01-15 11:00:02.694031	143.1	15.4	-81.8	0.0
2025-01-15 11:00:04.939392	143.0	15.6	-81.7	0.0
2025-01-15 11:00:07.188020	142.9	15.8	-81.4	0.0
2025-01-15 11:00:09.431490	142.8	16.1	-81.9	0.0
2025-01-15 11:00:11.677171	142.7	16.3	-81.9	0.0
2025-01-15 11:00:13.922970	142.6	16.6	-81.7	0.0
2025-01-15 11:00:16.167371	142.5	16.8	-82.0	0.0
2025-01-15 11:00:18.411850	142.3	17.1	-81.8	0.0
2025-01-15 11:00:20.658550	142.2	17.4	-81.5	0.0
2025-01-15 11:00:22.904059	142.1	17.6	-82.1	0.0
2025-01-15 11:00:25.149728	142.0	17.9	-81.7	0.0
2025-01-15 11:00:27.397060	141.8	18.1	-82.1	0.0
2025-01-15 11:00:29.646417	141.7	18.4	-81.8	0.0
2025-01-15 11:00:31.893401	141.6	18.7	-81.8	0.0
2025-01-15 11:00:34.139290	141.5	19.0	-82.1	0.0
2025-01-15 11:00:36.385023	141.3	19.2	-82.0	0.0
2025-01-15 11:00:38.634311	141.2	19.5	-82.1	0.0
2025-01-15 11:00:40.880628	141.0	19.8	-82.0	0.0
2025-01-15 11:00:43.124792	140.9	20.1	-82.1	0.0
2025-01-15 11:00:45.371843	140.7	20.4	-82.2	0.0
2025-01-15 11:00:47.616525	140.6	20.7	-81.7	0.0
2025-01-15 11:00:49.866224	140.4	21.0	-82.3	0.0
2025-01-15 11:00:52.110879	140.3	21.3	-81.8	0.0
2025-01-15 11:00:54.355856	140.1	21.6	-81.9	0.0
2025-01-15 11:00:56.599929	140.0	21.9	-81.8	0.0
2025-01-15 11:00:58.844619	139.8	22.2	-81.8	0.0
2025-01-15 11:01:01.088766	139.6	22.5	-82.1	0.0
2025-01-15 11:01:03.335555	139.5	22.8	-82.2	0.0
2025-01-15 11:01:05.582132	139.3	23.1	-82.3	0.0
2025-01-15 11:01:07.827472	139.1	23.4	-82.0	0.0
2025-01-15 11:01:10.074402	138.9	23.8	-82.4	0.0
2025-01-15 11:01:12.318704	138.7	24.1	-81.8	0.0
2025-01-15 11:01:14.563242	138.5	24.4	-82.2	0.0
2025-01-15 11:01:16.809978	138.3	24.8	-82.0	0.0
2025-01-15 11:01:19.056435	138.1	25.1	-82.1	0.0
2025-01-15 11:01:21.304110	137.9	25.5	-81.9	0.0
2025-01-15 11:01:23.552291	137.7	25.8	-82.1	0.0
2025-01-15 11:01:25.796885	137.5	26.2	-82.1	0.0
2025-01-15 11:01:28.039961	137.3	26.5	-81.9	0.0
2025-01-15 11:01:30.286457	137.1	26.9	-82.2	0.0
2025-01-15 11:01:32.534990	136.8	27.3	-82.4	0.0
2025-01-15 11:01:34.778269	136.6	27.6	-82.3	0.0
2025-01-15 11:01:37.022476	136.4	28.0	-82.4	0.0
2025-01-15 11:01:39.268100	136.1	28.4	-82.3	0.0
2025-01-15 11:01:41.516655	135.8	28.8	-82.3	0.0
2025-01-15 11:01:43.759549	135.6	29.2	-82.3	0.0
2025-01-15 11:01:46.005330	135.3	29.6	-82.0	0.0
2025-01-15 11:01:48.249879	135.0	30.0	-82.1	0.0
2025-01-15 11:01:50.494919	134.8	30.4	-82.1	0.0
2025-01-15 11:01:52.739626	134.5	30.8	-82.1	0.0
2025-01-15 11:01:54.986999	134.2	31.2	-82.2	0.0
2025-01-15 11:01:57.230470	133.9	31.6	-82.2	0.0
2025-01-15 11:01:59.476487	133.6	32.1	-81.8	0.0
2025-01-15 11:02:01.720541	133.2	32.5	-82.3	0.0
2025-01-15 11:02:03.969455	132.9	32.9	-82.3	0.0
2025-01-15 11:02:06.218413	132.6	33.4	-82.1	0.0
2025-01-15 11:02:08.466326	132.2	33.8	-82.4	0.0
2025-01-15 11:02:10.712894	131.9	34.3	-82.1	0.0
2025-01-15 11:02:12.957570	131.5	34.7	-81.9	0.0
2025-01-15 11:02:15.202868	131.1	35.2	-82.1	0.0
2025-01-15 11:02:17.447762	130.7	35.7	-82.4	0.0
2025-01-15 11:02:19.691938	130.3	36.1	-82.4	0.0
2025-01-15 11:02:21.938555	129.9	36.6	-82.4	0.0
2025-01-15 11:02:24.186391	129.5	37.1	-82.4	0.0
2025-01-15 11:02:26.431631	129.1	37.6	-82.1	0.0
2025-01-15 11:02:28.678793	128.6	38.1	-82.3	0.0
2025-01-15 11:02:30.924118	128.1	38.6	-82.2	0.0
2025-01-15 11:02:33.168410	127.7	39.1	-81.9	0.0
2025-01-15 11:02:35.412241	127.2	39.6	-82.4	0.0
2025-01-15 11:02:37.656089	126.6	40.1	-82.4	0.0
2025-01-15 11:02:39.901012	126.1	40.6	-82.1	0.0
2025-01-15 11:02:42.147906	125.6	41.2	-82.4	0.0
2025-01-15 11:02:44.390396	125.0	41.7	-82.3	0.0
2025-01-15 11:02:46.637287	124.4	42.2	-82.3	0.0
2025-01-15 11:02:48.887286	123.8	42.8	-82.3	0.0
2025-01-15 11:02:51.132418	123.2	43.3	-81.9	0.0
2025-01-15 11:02:53.376814	122.5	43.9	-82.3	0.0
2025-01-15 11:02:55.621536	121.9	44.4	-82.1	0.0
2025-01-15 11:02:57.867538	121.2	45.0	-82.0	0.0
2025-01-15 11:03:00.114500	120.4	45.5	-82.2	0.0
2025-01-15 11:03:02.358318	119.7	46.1	-81.8	0.0
2025-01-15 11:03:04.603663	118.9	46.6	-82.1	0.0
2025-01-15 11:03:06.848792	118.1	47.2	-81.8	0.0
2025-01-15 11:03:09.095893	117.3	47.8	-82.2	0.0
2025-01-15 11:03:11.344036	116.4	48.3	-82.2	0.0
2025-01-15 11:03:13.587837	115.5	48.9	-81.9	0.0
2025-01-15 11:03:15.834792	114.6	49.5	-82.0	0.0
2025-01-15 11:03:18.079969	113.6	50.0	-82.0	0.0
2025-01-15 11:03:20.324942	112.6	50.6	-81.9	0.0
2025-01-15 11:03:22.573790	111.6	51.1	-81.9	0.0
2025-01-15 11:03:24.820657	110.5	51.7	-82.2	0.0
2025-01-15 11:03:27.068504	109.4	52.2	-82.4	0.0
2025-01-15 11:03:29.313964	108.2	52.8	-82.4	0.0
2025-01-15 11:03:31.558953	107.0	53.3	-82.5	0.0
2025-01-15 11:03:33.805655	105.8	53.8	-82.3	0.0
2025-01-15 11:03:36.049763	104.5	54.4	-82.3	0.0
2025-01-15 11:03:38.294397	103.2	54.9	-82.1	0.0
2025-01-15 11:03:40.538570	101.8	55.4	-82.0	0.0
2025-01-15 11:03:42.783452	100.3	55.9	-82.6	0.0
2025-01-15 11:03:45.028260	98.8	56.3	-82.6	0.0
2025-01-15 11:03:47.274684	97.3	56.8	-82.3	0.0
2025-01-15 11:03:49.521472	95.7	57.2	-82.7	0.0
2025-01-15 11:03:51.768471	94.1	57.6	-82.3	0.0
2025-01-15 11:03:54.011004	92.4	58.0	-82.4	0.0
2025-01-15 11:03:56.257580	90.6	58.4	-82.3	0.0
2025-01-15 11:03:58.500420	88.8	58.8	-82.7	0.0
2025-01-15 11:04:00.747427	87.0	59.1	-82.3	0.0
2025-01-15 11:04:02.994193	85.1	59.4	-82.3	0.0
2025-01-15 11:04:05.239351	83.2	59.7	-82.3	0.0
2025-01-15 11:04:07.485958	81.2	59.9	-82.2	0.0
2025-01-15 11:04:09.729086	79.2	60.1	-81.9	0.0
2025-01-15 11:04:11.972535	77.2	60.3	-82.0	0.0
2025-01-15 11:04:14.216731	75.1	60.5	-81.8	0.0
2025-01-15 11:04:16.461773	73.0	60.6	-81.6	0.0
2025-01-15 11:04:18.704563	70.9	60.7	-82.2	0.0
2025-01-15 11:04:20.948032	68.8	60.7	-81.5	0.0
2025-01-15 11:04:23.193407	66.7	60.8	-81.8	0.0
2025-01-15 11:04:25.439416	64.6	60.7	-82.1	0.0
2025-01-15 11:04:27.683959	62.5	60.7	-81.5	0.0
2025-01-15 11:04:29.928176	60.4	60.6	-82.0	0.0
2025-01-15 11:04:32.175715	58.3	60.5	-81.9	0.0
2025-01-15 11:04:34.423704	56.2	60.3	-81.9	0.0
2025-01-15 11:04:36.670116	54.2	60.1	-82.1	0.0
2025-01-15 11:04:38.916106	52.2	59.9	-82.3	0.0
2025-01-15 11:04:41.162069	50.2	59.7	-82.2	0.0
2025-01-15 11:04:43.411655	48.3	59.4	-82.4	0.0
2025-01-15 11:04:45.658970	46.4	59.1	-82.2	0.0
2025-01-15 11:04:47.908240	44.6	58.8	-82.3	0.0
2025-01-15 11:04:50.156371	42.8	58.4	-81.9	0.0
2025-01-15 11:04:52.401225	41.1	58.0	-81.9	0.0
2025-01-15 11:04:54.647074	39.4	57.6	-81.9	0.0
2025-01-15 11:04:56.894321	37.7	57.2	-82.4	0.0
2025-01-15 11:04:59.139709	36.1	56.8	-82.5	0.0
2025-01-15 11:05:01.383715	34.6	56.3	-82.4	0.0
2025-01-15 11:05:03.628938	33.1	55.9	-82.6	0.0
2025-01-15 11:05:05.874150	31.7	55.4	-82.7	0.0
2025-01-15 11:05:08.118594	30.3	54.9	-82.3	0.0
2025-01-15 11:05:10.366781	28.9	54.4	-82.5	0.0
2025-01-15 11:05:12.612289	27.6	53.9	-82.8	0.0
2025-01-15 11:05:14.856906	26.4	53.3	-82.0	0.0
2025-01-15 11:05:17.103325	25.2	52.8	-82.6	0.0
2025-01-15 11:05:19.350400	24.0	52.3	-82.7	0.0
2025-01-15 11:05:21.597220	22.9	51.7	-82.7	0.0
2025-01-15 11:05:23.847272	21.9	51.2	-82.6	0.0
2025-01-15 11:05:26.092118	20.8	50.6	-82.6	0.0
2025-01-15 11:05:28.339181	19.8	50.0	-82.4	0.0
2025-01-15 11:05:30.587952	18.9	49.5	-82.6	0.0
2025-01-15 11:05:32.834336	17.9	48.9	-82.7	0.0
2025-01-15 11:05:35.084698	17.0	48.4	-82.5	0.0
2025-01-15 11:05:37.330214	16.2	47.8	-82.6	0.0
2025-01-15 11:05:39.578968	15.3	47.2	-82.7	0.0
2025-01-15 11:05:41.826409	14.5	46.7	-83.1	0.0
2025-01-15 11:05:44.074337	13.8	46.1	-82.8	0.0
2025-01-15 11:05:46.320753	13.0	45.6	-82.9	0.0
2025-01-15 11:05:48.566333	12.3	45.0	-82.8	0.0
2025-01-15 11:05:50.810902	11.6	44.4	-83.0	0.0
2025-01-15 11:05:53.057292	10.9	43.9	-82.9	0.0
2025-01-15 11:05:55.304283	10.3	43.4	-82.8	0.0
2025-01-15 11:05:57.549844	9.7	42.8	-82.3	0.0
2025-01-15 11:05:59.794313	9.1	42.3	-82.7	0.0
2025-01-15 11:06:02.041751	8.5	41.7	-82.9	0.0
2025-01-15 11:06:04.290603	7.9	41.2	-83.0	0.0
2025-01-15 11:06:06.537176	7.4	40.7	-82.6	0.0
2025-01-15 11:06:08.784388	6.8	40.2	-82.7	0.0
2025-01-15 11:06:11.032429	6.3	39.7	-82.5	0.0
2025-01-15 11:06:13.278971	5.8	39.1	-82.9	0.0
2025-01-15 11:06:15.526043	5.4	38.6	-82.2	0.0
2025-01-15 11:06:17.771762	4.9	38.1	-82.1	0.0
2025-01-15 11:06:20.017363	4.4	37.6	-82.8	0.0
2025-01-15 11:06:22.262164	4.0	37.2	-82.5	0.0
2025-01-15 11:06:24.507302	3.6	36.7	-82.8	0.0
2025-01-15 11:06:26.752493	3.2	36.2	-82.6	0.0
2025-01-15 11:06:28.997846	2.8	35.7	-82.8	0.0
2025-01-15 11:06:31.243565	2.4	35.3	-82.8	0.0
2025-01-15 11:06:33.492147	2.0	34.8	-82.3	0.0
2025-01-15 11:06:35.737416	1.6	34.3	-82.2	0.0
2025-01-15 11:06:37.983638	1.3	33.9	-82.7	0.0
2025-01-15 11:06:40.227814	0.9	33.4	-82.2	0.0
2025-01-15 11:06:42.472259	0.6	33.0	-82.4	0.0
2025-01-15 11:06:44.720719	0.3	32.6	-82.9	0.0
2025-01-15 11:06:46.964793	359.9	32.1	-83.1	0.0
2025-01-15 11:06:49.210913	359.6	31.7	-82.9	0.0
2025-01-15 11:06:51.453083	359.3	31.3	-82.9	0.0
2025-01-15 11:06:53.698768	359.0	30.9	-82.7	0.0
2025-01-15 11:06:55.943215	358.7	30.5	-82.9	0.0
2025-01-15 11:06:58.188891	358.5	30.1	-82.8	0.0
2025-01-15 11:07:00.433696	358.2	29.7	-82.6	0.0
2025-01-15 11:07:02.679113	357.9	29.3	-82.8	0.0
2025-01-15 11:07:04.922730	357.7	28.9	-82.5	0.0
2025-01-15 11:07:07.164498	357.4	28.5	-82.2	0.0
2025-01-15 11:07:09.406245	357.2	28.1	-82.5	0.0
2025-01-15 11:07:11.649313	356.9	27.7	-82.4	0.0
2025-01-15 11:07:13.894245	356.7	27.4	-82.5	0.0
2025-01-15 11:07:16.138412	356.5	27.0	-82.2	0.0
2025-01-15 11:07:18.383220	356.2	26.6	-82.7	0.0
2025-01-15 11:07:20.627751	356.0	26.3	-82.6	0.0
2025-01-15 11:07:22.874656	355.8	25.9	-82.6	0.0
2025-01-15 11:07:25.120623	355.6	25.6	-82.7	0.0
2025-01-15 11:07:27.366475	355.4	25.2	-82.8	0.0
2025-01-15 11:07:29.610163	355.2	24.9	-82.9	0.0
2025-01-15 11:07:31.855200	355.0	24.6	-82.9	0.0
2025-01-15 11:07:34.098937	354.8	24.2	-82.9	0.0
2025-01-15 11:07:36.343514	354.6	23.9	-82.2	0.0
2025-01-15 11:07:38.592886	354.4	23.6	-82.6	0.0
2025-01-15 11:07:40.837585	354.3	23.2	-82.7	0.0
2025-01-15 11:07:43.083088	354.1	22.9	-82.6	0.0
2025-01-15 11:07:45.331329	353.9	22.6	-82.4	0.0
2025-01-15 11:07:47.577698	353.8	22.3	-82.7	0.0
2025-01-15 11:07:49.824056	353.6	22.0	-82.8	0.0
2025-01-15 11:07:52.070105	353.4	21.7	-82.6	0.0
2025-01-15 11:07:54.316385	353.3	21.4	-82.6	0.0
2025-01-15 11:07:56.562281	353.1	21.1	-82.9	0.0
2025-01-15 11:07:58.809169	353.0	20.8	-82.7	0.0
2025-01-15 11:08:01.056915	352.8	20.5	-82.7	0.0
2025-01-15 11:08:03.302552	352.7	20.2	-82.9	0.0
2025-01-15 11:08:05.547597	352.5	19.9	-82.8	0.0
2025-01-15 11:08:07.793337	352.4	19.6	-82.4	0.0
2025-01-15 11:08:10.038527	352.3	19.4	-82.6	0.0
2025-01-15 11:08:12.283256	352.1	19.1	-82.2	0.0
2025-01-15 11:08:14.529475	352.0	18.8	-82.5	0.0
2025-01-15 11:08:16.774852	351.9	18.5	-82.3	0.0
2025-01-15 11:08:19.022833	351.7	18.3	-82.2	0.0
2025-01-15 11:08:21.268742	351.6	18.0	-82.2	0.0
2025-01-15 11:08:23.515688	351.5	17.8	-82.8	0.0
2025-01-15 11:08:25.763309	351.4	17.5	-82.5	0.0
2025-01-15 11:08:28.011594	351.2	17.2	-82.7	0.0
2025-01-15 11:08:30.256878	351.1	17.0	-82.8	0.0
2025-01-15 11:08:32.501401	351.0	16.7	-82.8	0.0
2025-01-15 11:08:34.747768	350.9	16.5	-82.9	0.0
2025-01-15 11:08:36.993123	350.8	16.2	-82.5	0.0
2025-01-15 11:08:39.236198	350.7	16.0	-82.9	0.0
2025-01-15 11:08:41.482142	350.6	15.7	-82.5	0.0
2025-01-15 11:08:43.729667	350.5	15.5	-82.4	0.0
2025-01-15 11:08:45.974948	350.4	15.3	-82.7	0.0
2025-01-15 11:08:48.220815	350.3	15.0	-82.7	0.0
2025-01-15 11:08:50.466247	350.2	14.8	-82.5	0.0
2025-01-15 11:08:52.713070	350.1	14.6	-82.3	0.0
2025-01-15 11:08:54.958682	350.0	14.3	-82.6	0.0
2025-01-15 11:08:57.205823	349.9	14.1	-82.8	0.0
2025-01-15 11:08:59.451237	349.8	13.9	-82.9	0.0
2025-01-15 11:09:01.694800	349.7	13.7	-82.8	0.0
2025-01-15 11:09:03.938019	349.6	13.4	-82.7	0.0
2025-01-15 11:09:06.183807	349.5	13.2	-82.9	0.0
2025-01-15 11:09:08.429001	349.4	13.0	-82.6	0.0
2025-01-15 11:09:10.675879	349.4	12.8	-82.6	0.0
2025-01-15 11:09:12.921552	349.3	12.6	-82.3	0.0
2025-01-15 11:09:15.167361	349.2	12.4	-82.8	0.0
2025-01-15 11:09:17.415305	349.1	12.2	-82.6	0.0
2025-01-15 11:09:19.658000	349.0	11.9	-83.1	0.0
2025-01-15 11:09:21.903175	349.0	11.7	-82.9	0.0
2025-01-15 11:09:24.151919	348.9	11.5	-82.9	0.0
2025-01-15 11:09:26.398271	348.8	11.3	-82.7	0.0
2025-01-15 11:09:28.641648	348.7	11.1	-82.9	0.0
2025-01-15 11:09:30.890191	348.6	10.9	-82.7	0.0
2025-01-15 11:09:33.133655	348.6	10.7	-82.4	0.0
2025-01-15 11:09:35.377459	348.5	10.5	-82.2	0.0
2025-01-15 11:09:37.622816	348.4	10.3	-82.6	0.0
2025-01-15 11:09:39.867463	348.4	10.1	-82.7	0.0
#Closed at: 2025-01-15 10:59:01.629915