passes_logs/2025/01/15/planumMaritime01/planumMaritime01__20250115_174313_NOAA_18_rec.log

#Pass ID: 20250115_174313_NOAA 18
#Satellite: NOAA 18
#Configuration: NOAA 18
#Start time: 2025-01-15 17:43:18.984957

#LorettStation: 1.0.0 05.05.2024
#Station: planumMaritime01
#Location: 37.49445 lon 55.92918 lat
#TLE: 1 28654U 05018A   25015.16278545  .00000300  00000+0  18295-3 0  9990
#TLE: 2 28654  98.8567  96.2156 0014367 178.7074 181.4138 14.13486503 13201

#Time	Az	El	Level	SNR
2025-01-15 17:43:21.148206	105.0	10.1	-80.2	0.0
2025-01-15 17:43:23.397901	104.8	10.3	-80.4	0.0
2025-01-15 17:43:25.644024	104.5	10.5	-80.2	0.0
2025-01-15 17:43:27.890804	104.3	10.6	-80.1	0.0
2025-01-15 17:43:30.136018	104.0	10.8	-80.2	0.0
2025-01-15 17:43:32.381059	103.8	10.9	-80.4	0.0
2025-01-15 17:43:34.625470	103.5	11.1	-80.7	0.0
2025-01-15 17:43:36.875983	103.3	11.3	-79.8	0.0
2025-01-15 17:43:39.122246	103.0	11.4	-79.8	0.0
2025-01-15 17:43:41.369189	102.8	11.6	-80.1	0.0
2025-01-15 17:43:43.618978	102.5	11.7	-79.8	0.0
2025-01-15 17:43:45.867440	102.2	11.9	-80.5	0.0
2025-01-15 17:43:48.114910	102.0	12.0	-80.6	0.0
2025-01-15 17:43:50.359289	101.7	12.2	-80.1	0.0
2025-01-15 17:43:52.608387	101.4	12.4	-80.6	0.0
2025-01-15 17:43:54.854962	101.1	12.5	-80.1	0.0
2025-01-15 17:43:57.102575	100.9	12.7	-80.4	0.0
2025-01-15 17:43:59.351777	100.6	12.9	-80.2	0.0
2025-01-15 17:44:01.599928	100.3	13.0	-80.3	0.0
2025-01-15 17:44:03.846882	100.0	13.2	-80.3	0.0
2025-01-15 17:44:06.092848	99.7	13.4	-80.2	0.0
2025-01-15 17:44:08.338487	99.4	13.5	-80.3	0.0
2025-01-15 17:44:10.586386	99.1	13.7	-80.0	0.0
2025-01-15 17:44:12.831649	98.8	13.8	-80.6	0.0
2025-01-15 17:44:15.075744	98.5	14.0	-80.5	0.0
2025-01-15 17:44:17.321783	98.2	14.2	-80.8	0.0
2025-01-15 17:44:19.569890	97.9	14.3	-81.0	0.0
2025-01-15 17:44:21.813090	97.6	14.5	-80.9	0.0
2025-01-15 17:44:24.059717	97.2	14.7	-80.7	0.0
2025-01-15 17:44:26.305122	96.9	14.8	-80.9	0.0
2025-01-15 17:44:28.549684	96.6	15.0	-80.7	0.0
2025-01-15 17:44:30.795488	96.2	15.2	-80.7	0.0
2025-01-15 17:44:33.042109	95.9	15.3	-80.9	0.0
2025-01-15 17:44:35.289672	95.6	15.5	-80.7	0.0
2025-01-15 17:44:37.533603	95.2	15.7	-81.0	0.0
2025-01-15 17:44:39.779046	94.9	15.8	-81.1	0.0
2025-01-15 17:44:42.024633	94.5	16.0	-81.0	0.0
2025-01-15 17:44:44.272536	94.2	16.2	-80.7	0.0
2025-01-15 17:44:46.519565	93.8	16.3	-80.9	0.0
2025-01-15 17:44:48.766528	93.5	16.5	-80.7	0.0
2025-01-15 17:44:51.013453	93.1	16.7	-80.7	0.0
2025-01-15 17:44:53.258154	92.7	16.8	-81.1	0.0
2025-01-15 17:44:55.507334	92.3	17.0	-80.6	0.0
2025-01-15 17:44:57.754923	92.0	17.2	-80.0	0.0
2025-01-15 17:45:00.002983	91.6	17.3	-80.9	0.0
2025-01-15 17:45:02.247660	91.2	17.5	-80.9	0.0
2025-01-15 17:45:04.492961	90.8	17.7	-80.8	0.0
2025-01-15 17:45:06.740041	90.4	17.8	-80.8	0.0
2025-01-15 17:45:08.985816	90.0	18.0	-80.5	0.0
2025-01-15 17:45:11.229435	89.6	18.2	-80.9	0.0
2025-01-15 17:45:13.478814	89.2	18.3	-80.7	0.0
2025-01-15 17:45:15.725017	88.8	18.5	-80.6	0.0
2025-01-15 17:45:17.968947	88.4	18.7	-80.6	0.0
2025-01-15 17:45:20.213537	87.9	18.8	-80.6	0.0
2025-01-15 17:45:22.461998	87.5	19.0	-81.0	0.0
2025-01-15 17:45:24.707885	87.1	19.1	-80.5	0.0
2025-01-15 17:45:26.957544	86.6	19.3	-80.8	0.0
2025-01-15 17:45:29.202542	86.2	19.5	-80.8	0.0
2025-01-15 17:45:31.450571	85.7	19.6	-80.9	0.0
2025-01-15 17:45:33.697235	85.3	19.8	-80.9	0.0
2025-01-15 17:45:35.942167	84.8	19.9	-80.4	0.0
2025-01-15 17:45:38.186561	84.4	20.1	-80.6	0.0
2025-01-15 17:45:40.430108	83.9	20.2	-80.8	0.0
2025-01-15 17:45:42.676461	83.4	20.4	-80.8	0.0
2025-01-15 17:45:44.922558	83.0	20.5	-80.9	0.0
2025-01-15 17:45:47.169774	82.5	20.7	-80.8	0.0
2025-01-15 17:45:49.414673	82.0	20.9	-81.2	0.0
2025-01-15 17:45:51.662139	81.5	21.0	-80.8	0.0
2025-01-15 17:45:53.910783	81.0	21.1	-80.9	0.0
2025-01-15 17:45:56.157929	80.5	21.3	-81.1	0.0
2025-01-15 17:45:58.403351	80.0	21.4	-81.0	0.0
2025-01-15 17:46:00.648964	79.5	21.6	-81.0	0.0
2025-01-15 17:46:02.893495	79.0	21.7	-80.6	0.0
2025-01-15 17:46:05.139072	78.5	21.9	-81.2	0.0
2025-01-15 17:46:07.384813	78.0	22.0	-81.0	0.0
2025-01-15 17:46:09.629729	77.4	22.1	-80.7	0.0
2025-01-15 17:46:11.876143	76.9	22.3	-81.0	0.0
2025-01-15 17:46:14.122731	76.4	22.4	-80.9	0.0
2025-01-15 17:46:16.369694	75.8	22.5	-80.6	0.0
2025-01-15 17:46:18.617703	75.3	22.7	-80.8	0.0
2025-01-15 17:46:20.862188	74.7	22.8	-80.9	0.0
2025-01-15 17:46:23.111518	74.2	22.9	-80.8	0.0
2025-01-15 17:46:25.357373	73.6	23.0	-80.9	0.0
2025-01-15 17:46:27.604030	73.1	23.2	-80.8	0.0
2025-01-15 17:46:29.850174	72.5	23.3	-81.2	0.0
2025-01-15 17:46:32.096590	71.9	23.4	-80.6	0.0
2025-01-15 17:46:34.341383	71.4	23.5	-80.7	0.0
2025-01-15 17:46:36.588368	70.8	23.6	-81.2	0.0
2025-01-15 17:46:38.830950	70.2	23.7	-81.1	0.0
2025-01-15 17:46:41.075788	69.6	23.8	-81.1	0.0
2025-01-15 17:46:43.323892	69.0	23.9	-80.7	0.0
2025-01-15 17:46:45.569629	68.4	24.0	-80.8	0.0
2025-01-15 17:46:47.817748	67.8	24.1	-80.9	0.0
2025-01-15 17:46:50.063552	67.2	24.2	-80.1	0.0
2025-01-15 17:46:52.311866	66.6	24.3	-80.6	0.0
2025-01-15 17:46:54.557374	66.0	24.4	-80.8	0.0
2025-01-15 17:46:56.799879	65.4	24.5	-80.8	0.0
2025-01-15 17:46:59.044355	64.8	24.5	-80.9	0.0
2025-01-15 17:47:01.290380	64.2	24.6	-80.2	0.0
2025-01-15 17:47:03.536928	63.6	24.7	-80.8	0.0
2025-01-15 17:47:05.782600	62.9	24.7	-80.9	0.0
2025-01-15 17:47:08.029892	62.3	24.8	-80.9	0.0
2025-01-15 17:47:10.276906	61.7	24.9	-80.4	0.0
2025-01-15 17:47:12.523853	61.1	24.9	-80.9	0.0
2025-01-15 17:47:14.771103	60.4	25.0	-81.0	0.0
2025-01-15 17:47:17.020236	59.8	25.0	-80.9	0.0
2025-01-15 17:47:19.271106	59.1	25.1	-81.1	0.0
2025-01-15 17:47:21.516998	58.5	25.1	-80.6	0.0
2025-01-15 17:47:23.764781	57.9	25.2	-81.0	0.0
2025-01-15 17:47:26.011539	57.2	25.2	-81.0	0.0
2025-01-15 17:47:28.257039	56.6	25.2	-80.9	0.0
2025-01-15 17:47:30.499629	55.9	25.3	-80.9	0.0
2025-01-15 17:47:32.742570	55.3	25.3	-81.1	0.0
2025-01-15 17:47:34.990593	54.7	25.3	-81.1	0.0
2025-01-15 17:47:37.238614	54.0	25.3	-80.9	0.0
2025-01-15 17:47:39.483328	53.4	25.3	-81.1	0.0
2025-01-15 17:47:41.727370	52.7	25.3	-81.1	0.0
2025-01-15 17:47:43.972544	52.1	25.3	-81.4	0.0
2025-01-15 17:47:46.219101	51.4	25.3	-81.3	0.0
2025-01-15 17:47:48.466336	50.8	25.3	-80.9	0.0
2025-01-15 17:47:50.712040	50.1	25.3	-80.8	0.0
2025-01-15 17:47:52.958220	49.5	25.3	-80.6	0.0
2025-01-15 17:47:55.201247	48.8	25.3	-80.7	0.0
2025-01-15 17:47:57.447223	48.2	25.3	-81.0	0.0
2025-01-15 17:47:59.689492	47.5	25.2	-80.9	0.0
2025-01-15 17:48:01.932792	46.9	25.2	-80.5	0.0
2025-01-15 17:48:04.177976	46.3	25.2	-81.0	0.0
2025-01-15 17:48:06.425860	45.6	25.1	-81.0	0.0
2025-01-15 17:48:08.672133	45.0	25.1	-80.9	0.0
2025-01-15 17:48:10.918956	44.3	25.0	-80.6	0.0
2025-01-15 17:48:13.162452	43.7	25.0	-80.9	0.0
2025-01-15 17:48:15.407107	43.1	24.9	-80.8	0.0
2025-01-15 17:48:17.652037	42.4	24.9	-81.2	0.0
2025-01-15 17:48:19.896136	41.8	24.8	-81.0	0.0
2025-01-15 17:48:22.139415	41.2	24.8	-81.0	0.0
2025-01-15 17:48:24.383615	40.6	24.7	-81.1	0.0
2025-01-15 17:48:26.632064	39.9	24.6	-81.0	0.0
2025-01-15 17:48:28.879050	39.3	24.6	-80.5	0.0
2025-01-15 17:48:31.125325	38.7	24.5	-81.0	0.0
2025-01-15 17:48:33.370174	38.1	24.4	-81.2	0.0
2025-01-15 17:48:35.613906	37.5	24.3	-80.9	0.0
2025-01-15 17:48:37.856525	36.9	24.2	-80.7	0.0
2025-01-15 17:48:40.104360	36.3	24.1	-80.8	0.0
2025-01-15 17:48:42.351589	35.7	24.0	-80.8	0.0
2025-01-15 17:48:44.597408	35.1	23.9	-80.6	0.0
2025-01-15 17:48:46.844097	34.5	23.9	-80.9	0.0
2025-01-15 17:48:49.089677	33.9	23.7	-80.9	0.0
2025-01-15 17:48:51.335432	33.3	23.6	-81.0	0.0
2025-01-15 17:48:53.583308	32.8	23.5	-80.6	0.0
2025-01-15 17:48:55.828476	32.2	23.4	-80.9	0.0
2025-01-15 17:48:58.073584	31.6	23.3	-80.7	0.0
2025-01-15 17:49:00.320132	31.0	23.2	-81.0	0.0
2025-01-15 17:49:02.568503	30.5	23.1	-80.8	0.0
2025-01-15 17:49:04.812001	29.9	23.0	-80.8	0.0
2025-01-15 17:49:07.061345	29.4	22.8	-81.2	0.0
2025-01-15 17:49:09.308248	28.8	22.7	-81.1	0.0
2025-01-15 17:49:11.555388	28.3	22.6	-81.1	0.0
2025-01-15 17:49:13.801669	27.7	22.4	-80.5	0.0
2025-01-15 17:49:16.048507	27.2	22.3	-80.7	0.0
2025-01-15 17:49:18.298102	26.7	22.2	-80.5	0.0
2025-01-15 17:49:20.544198	26.1	22.0	-80.7	0.0
2025-01-15 17:49:22.788855	25.6	21.9	-80.8	0.0
2025-01-15 17:49:25.033628	25.1	21.8	-80.8	0.0
2025-01-15 17:49:27.281040	24.6	21.6	-80.9	0.0
2025-01-15 17:49:29.527963	24.1	21.5	-81.0	0.0
2025-01-15 17:49:31.775998	23.6	21.3	-81.1	0.0
2025-01-15 17:49:34.023155	23.1	21.2	-81.4	0.0
2025-01-15 17:49:36.268540	22.6	21.0	-80.8	0.0
2025-01-15 17:49:38.514638	22.1	20.9	-81.2	0.0
2025-01-15 17:49:40.758787	21.6	20.7	-80.9	0.0
2025-01-15 17:49:43.003560	21.1	20.6	-80.7	0.0
2025-01-15 17:49:45.252223	20.6	20.4	-80.9	0.0
2025-01-15 17:49:47.499649	20.2	20.3	-80.8	0.0
2025-01-15 17:49:49.747270	19.7	20.1	-80.7	0.0
2025-01-15 17:49:51.991817	19.2	20.0	-80.8	0.0
2025-01-15 17:49:54.234759	18.8	19.8	-80.8	0.0
2025-01-15 17:49:56.480379	18.3	19.7	-80.9	0.0
2025-01-15 17:49:58.725764	17.9	19.5	-80.7	0.0
2025-01-15 17:50:00.970145	17.4	19.3	-80.7	0.0
2025-01-15 17:50:03.219390	17.0	19.2	-81.3	0.0
2025-01-15 17:50:05.468714	16.6	19.0	-80.6	0.0
2025-01-15 17:50:07.716890	16.1	18.9	-81.0	0.0
2025-01-15 17:50:09.963049	15.7	18.7	-80.9	0.0
2025-01-15 17:50:12.210668	15.3	18.5	-81.0	0.0
2025-01-15 17:50:14.457482	14.9	18.4	-80.9	0.0
2025-01-15 17:50:16.705912	14.5	18.2	-80.9	0.0
2025-01-15 17:50:18.951756	14.1	18.0	-80.5	0.0
2025-01-15 17:50:21.196740	13.7	17.9	-80.9	0.0
2025-01-15 17:50:23.447026	13.3	17.7	-80.7	0.0
2025-01-15 17:50:25.693036	12.9	17.5	-80.7	0.0
2025-01-15 17:50:27.934952	12.5	17.4	-80.5	0.0
2025-01-15 17:50:30.184568	12.1	17.2	-81.3	0.0
2025-01-15 17:50:32.431524	11.7	17.1	-80.8	0.0
2025-01-15 17:50:34.677450	11.3	16.9	-80.5	0.0
2025-01-15 17:50:36.921766	11.0	16.7	-81.2	0.0
2025-01-15 17:50:39.164465	10.6	16.6	-81.0	0.0
2025-01-15 17:50:41.411085	10.2	16.4	-81.3	0.0
2025-01-15 17:50:43.659294	9.9	16.2	-81.1	0.0
2025-01-15 17:50:45.908603	9.5	16.1	-81.0	0.0
2025-01-15 17:50:48.152684	9.2	15.9	-81.1	0.0
2025-01-15 17:50:50.401833	8.8	15.7	-81.2	0.0
2025-01-15 17:50:52.646010	8.5	15.6	-81.1	0.0
2025-01-15 17:50:54.891815	8.1	15.4	-81.1	0.0
2025-01-15 17:50:57.137747	7.8	15.2	-81.0	0.0
2025-01-15 17:50:59.384666	7.5	15.1	-80.7	0.0
2025-01-15 17:51:01.631225	7.2	14.9	-80.6	0.0
2025-01-15 17:51:03.876680	6.8	14.7	-80.7	0.0
2025-01-15 17:51:06.121803	6.5	14.6	-80.9	0.0
2025-01-15 17:51:08.369447	6.2	14.4	-80.6	0.0
2025-01-15 17:51:10.616784	5.9	14.2	-80.7	0.0
2025-01-15 17:51:12.862420	5.6	14.1	-81.0	0.0
2025-01-15 17:51:15.108796	5.3	13.9	-81.1	0.0
2025-01-15 17:51:17.354018	5.0	13.7	-81.1	0.0
2025-01-15 17:51:19.601966	4.7	13.6	-80.7	0.0
2025-01-15 17:51:21.845711	4.4	13.4	-81.0	0.0
2025-01-15 17:51:24.088738	4.1	13.2	-81.2	0.0
2025-01-15 17:51:26.333793	3.8	13.1	-81.0	0.0
2025-01-15 17:51:28.580214	3.5	12.9	-80.8	0.0
2025-01-15 17:51:30.826906	3.2	12.7	-81.0	0.0
2025-01-15 17:51:33.075902	2.9	12.6	-80.6	0.0
2025-01-15 17:51:35.323475	2.6	12.4	-80.7	0.0
2025-01-15 17:51:37.569965	2.4	12.3	-80.4	0.0
2025-01-15 17:51:39.817391	2.1	12.1	-80.8	0.0
2025-01-15 17:51:42.060810	1.8	11.9	-81.0	0.0
2025-01-15 17:51:44.308044	1.6	11.8	-81.1	0.0
2025-01-15 17:51:46.552526	1.3	11.6	-81.3	0.0
2025-01-15 17:51:48.800796	1.0	11.5	-80.9	0.0
2025-01-15 17:51:51.047470	0.8	11.3	-80.8	0.0
2025-01-15 17:51:53.294135	0.5	11.1	-80.8	0.0
2025-01-15 17:51:55.541741	0.3	11.0	-80.8	0.0
2025-01-15 17:51:57.788779	0.0	10.8	-81.3	0.0
2025-01-15 17:52:00.036462	359.8	10.7	-81.4	0.0
2025-01-15 17:52:02.281853	359.5	10.5	-81.2	0.0
2025-01-15 17:52:04.528933	359.3	10.3	-80.8	0.0
2025-01-15 17:52:06.775465	359.1	10.2	-81.0	0.0
2025-01-15 17:52:09.023552	358.8	10.0	-81.0	0.0
#Closed at: 2025-01-15 17:43:13.988190