passes_logs/2025/01/15/planumMaritime01/planumMaritime01__20250115_192212_NOAA_18_rec.log

#Pass ID: 20250115_192212_NOAA 18
#Satellite: NOAA 18
#Configuration: NOAA 18
#Start time: 2025-01-15 19:22:17.818066

#LorettStation: 1.0.0 05.05.2024
#Station: planumMaritime01
#Location: 37.49445 lon 55.92918 lat
#TLE: 1 28654U 05018A   25015.16278545  .00000300  00000+0  18295-3 0  9990
#TLE: 2 28654  98.8567  96.2156 0014367 178.7074 181.4138 14.13486503 13201

#Time	Az	El	Level	SNR
2025-01-15 19:22:19.970985	164.0	10.2	-80.1	0.0
2025-01-15 19:22:22.218579	164.0	10.4	-80.1	0.0
2025-01-15 19:22:24.465194	164.1	10.6	-79.8	0.0
2025-01-15 19:22:26.713526	164.1	10.8	-80.2	0.0
2025-01-15 19:22:28.959876	164.1	11.0	-79.4	0.0
2025-01-15 19:22:31.206940	164.1	11.2	-79.7	0.0
2025-01-15 19:22:33.455469	164.2	11.4	-80.3	0.0
2025-01-15 19:22:35.700324	164.2	11.6	-79.9	0.0
2025-01-15 19:22:37.951834	164.2	11.8	-80.2	0.0
2025-01-15 19:22:40.200353	164.2	12.0	-80.5	0.0
2025-01-15 19:22:42.447387	164.2	12.2	-80.1	0.0
2025-01-15 19:22:44.691704	164.3	12.4	-80.4	0.0
2025-01-15 19:22:46.938789	164.3	12.6	-80.4	0.0
2025-01-15 19:22:49.183085	164.3	12.9	-79.8	0.0
2025-01-15 19:22:51.430112	164.3	13.1	-80.3	0.0
2025-01-15 19:22:53.672906	164.4	13.3	-80.3	0.0
2025-01-15 19:22:55.917800	164.4	13.5	-80.3	0.0
2025-01-15 19:22:58.163670	164.4	13.7	-80.2	0.0
2025-01-15 19:23:00.406749	164.4	14.0	-79.9	0.0
2025-01-15 19:23:02.651150	164.5	14.2	-80.2	0.0
2025-01-15 19:23:04.896572	164.5	14.4	-79.8	0.0
2025-01-15 19:23:07.140252	164.5	14.6	-80.1	0.0
2025-01-15 19:23:09.388147	164.6	14.9	-80.1	0.0
2025-01-15 19:23:11.632773	164.6	15.1	-80.1	0.0
2025-01-15 19:23:13.878620	164.6	15.4	-80.2	0.0
2025-01-15 19:23:16.125515	164.6	15.6	-80.9	0.0
2025-01-15 19:23:18.370648	164.7	15.8	-80.7	0.0
2025-01-15 19:23:20.614642	164.7	16.1	-80.5	0.0
2025-01-15 19:23:22.861360	164.7	16.3	-80.4	0.0
2025-01-15 19:23:25.106812	164.8	16.6	-80.5	0.0
2025-01-15 19:23:27.353146	164.8	16.8	-80.7	0.0
2025-01-15 19:23:29.598987	164.8	17.1	-80.2	0.0
2025-01-15 19:23:31.848167	164.8	17.4	-79.8	0.0
2025-01-15 19:23:34.094937	164.9	17.6	-80.4	0.0
2025-01-15 19:23:36.340547	164.9	17.9	-80.0	0.0
2025-01-15 19:23:38.585838	164.9	18.1	-80.4	0.0
2025-01-15 19:23:40.834968	165.0	18.4	-80.2	0.0
2025-01-15 19:23:43.082310	165.0	18.7	-80.1	0.0
2025-01-15 19:23:45.328131	165.0	19.0	-80.1	0.0
2025-01-15 19:23:47.573545	165.1	19.2	-80.5	0.0
2025-01-15 19:23:49.818595	165.1	19.5	-80.5	0.0
2025-01-15 19:23:52.064872	165.1	19.8	-80.4	0.0
2025-01-15 19:23:54.312042	165.2	20.1	-80.5	0.0
2025-01-15 19:23:56.559789	165.2	20.4	-80.4	0.0
2025-01-15 19:23:58.806078	165.2	20.7	-80.6	0.0
2025-01-15 19:24:01.052656	165.3	21.0	-80.9	0.0
2025-01-15 19:24:03.298706	165.3	21.3	-80.7	0.0
2025-01-15 19:24:05.542583	165.4	21.6	-80.4	0.0
2025-01-15 19:24:07.786925	165.4	21.9	-80.3	0.0
2025-01-15 19:24:10.033570	165.4	22.2	-80.3	0.0
2025-01-15 19:24:12.275034	165.5	22.5	-80.2	0.0
2025-01-15 19:24:14.521934	165.5	22.8	-80.7	0.0
2025-01-15 19:24:16.768875	165.6	23.2	-80.5	0.0
2025-01-15 19:24:19.012151	165.6	23.5	-80.5	0.0
2025-01-15 19:24:21.257163	165.6	23.8	-80.7	0.0
2025-01-15 19:24:23.502670	165.7	24.2	-80.7	0.0
2025-01-15 19:24:25.752009	165.7	24.5	-80.8	0.0
2025-01-15 19:24:27.995234	165.8	24.8	-80.8	0.0
2025-01-15 19:24:30.240639	165.8	25.2	-81.0	0.0
2025-01-15 19:24:32.488933	165.9	25.6	-80.8	0.0
2025-01-15 19:24:34.735280	165.9	25.9	-80.8	0.0
2025-01-15 19:24:36.981756	166.0	26.3	-80.9	0.0
2025-01-15 19:24:39.227518	166.0	26.6	-80.7	0.0
2025-01-15 19:24:41.474477	166.1	27.0	-80.4	0.0
2025-01-15 19:24:43.721388	166.1	27.4	-80.7	0.0
2025-01-15 19:24:45.964368	166.2	27.8	-81.0	0.0
2025-01-15 19:24:48.209258	166.2	28.2	-80.4	0.0
2025-01-15 19:24:50.455563	166.3	28.6	-80.8	0.0
2025-01-15 19:24:52.702768	166.3	29.0	-80.8	0.0
2025-01-15 19:24:54.948737	166.4	29.4	-80.3	0.0
2025-01-15 19:24:57.199747	166.5	29.8	-80.7	0.0
2025-01-15 19:24:59.442058	166.5	30.2	-79.9	0.0
2025-01-15 19:25:01.687085	166.6	30.6	-80.7	0.0
2025-01-15 19:25:03.933744	166.6	31.1	-81.1	0.0
2025-01-15 19:25:06.179512	166.7	31.5	-80.8	0.0
2025-01-15 19:25:08.427721	166.8	31.9	-80.9	0.0
2025-01-15 19:25:10.672436	166.8	32.4	-80.8	0.0
2025-01-15 19:25:12.917506	166.9	32.8	-80.8	0.0
2025-01-15 19:25:15.165762	167.0	33.3	-80.4	0.0
2025-01-15 19:25:17.411218	167.1	33.8	-80.7	0.0
2025-01-15 19:25:19.656025	167.1	34.3	-80.9	0.0
2025-01-15 19:25:21.903307	167.2	34.7	-80.5	0.0
2025-01-15 19:25:24.148756	167.3	35.2	-80.6	0.0
2025-01-15 19:25:26.393922	167.4	35.7	-80.8	0.0
2025-01-15 19:25:28.640314	167.5	36.2	-80.7	0.0
2025-01-15 19:25:30.887917	167.5	36.8	-80.6	0.0
2025-01-15 19:25:33.134325	167.6	37.3	-80.9	0.0
2025-01-15 19:25:35.378721	167.7	37.8	-80.6	0.0
2025-01-15 19:25:37.625538	167.8	38.4	-80.7	0.0
2025-01-15 19:25:39.870104	167.9	38.9	-80.9	0.0
2025-01-15 19:25:42.118183	168.0	39.5	-80.7	0.0
2025-01-15 19:25:44.367926	168.1	40.0	-80.7	0.0
2025-01-15 19:25:46.613900	168.2	40.6	-80.5	0.0
2025-01-15 19:25:48.860095	168.3	41.2	-80.4	0.0
2025-01-15 19:25:51.106413	168.5	41.8	-80.3	0.0
2025-01-15 19:25:53.354340	168.6	42.4	-80.5	0.0
2025-01-15 19:25:55.598334	168.7	43.0	-80.3	0.4
2025-01-15 19:25:57.844746	168.8	43.6	-80.5	0.0
2025-01-15 19:26:00.092818	169.0	44.3	-80.4	0.9
2025-01-15 19:26:02.338328	169.1	44.9	-80.0	0.0
2025-01-15 19:26:04.584181	169.2	45.6	-80.4	1.5
2025-01-15 19:26:06.831430	169.4	46.2	-80.2	2.5
2025-01-15 19:26:09.079824	169.6	46.9	-80.1	3.4
2025-01-15 19:26:11.322170	169.7	47.6	-79.8	3.9
2025-01-15 19:26:13.567014	169.9	48.3	-80.0	3.8
2025-01-15 19:26:15.812618	170.1	49.0	-80.1	3.1
2025-01-15 19:26:18.056732	170.2	49.7	-80.3	3.0
2025-01-15 19:26:20.304040	170.4	50.5	-79.7	3.9
2025-01-15 19:26:22.549600	170.6	51.2	-80.0	3.2
2025-01-15 19:26:24.795930	170.9	52.0	-80.1	2.7
2025-01-15 19:26:27.040071	171.1	52.7	-80.2	2.3
2025-01-15 19:26:29.284285	171.3	53.5	-80.4	0.0
2025-01-15 19:26:31.531853	171.6	54.3	-80.1	0.0
2025-01-15 19:26:33.776963	171.8	55.1	-80.5	0.0
2025-01-15 19:26:36.025784	172.1	55.9	-80.3	0.0
2025-01-15 19:26:38.270330	172.4	56.7	-80.7	0.0
2025-01-15 19:26:40.515718	172.7	57.6	-80.2	0.0
2025-01-15 19:26:42.762391	173.0	58.4	-81.0	0.0
2025-01-15 19:26:45.011249	173.4	59.3	-81.0	0.0
2025-01-15 19:26:47.257128	173.7	60.2	-80.4	0.0
2025-01-15 19:26:49.503825	174.1	61.0	-81.0	0.0
2025-01-15 19:26:51.751781	174.6	61.9	-80.5	0.0
2025-01-15 19:26:53.999573	175.0	62.8	-80.7	2.1
2025-01-15 19:26:56.246502	175.5	63.7	-80.0	2.1
2025-01-15 19:26:58.492157	176.1	64.7	-79.5	5.7
2025-01-15 19:27:00.739219	176.6	65.6	-78.9	7.9
2025-01-15 19:27:02.986616	177.3	66.5	-78.1	9.1
2025-01-15 19:27:05.233848	178.0	67.5	-78.2	10.8
2025-01-15 19:27:07.478952	178.7	68.4	-77.3	12.0
2025-01-15 19:27:09.726965	179.5	69.4	-77.0	12.8
2025-01-15 19:27:11.975032	180.5	70.4	-76.9	13.2
2025-01-15 19:27:14.221998	181.5	71.3	-77.0	14.3
2025-01-15 19:27:16.468092	182.6	72.3	-76.3	15.1
2025-01-15 19:27:18.713866	183.9	73.3	-76.5	14.7
2025-01-15 19:27:20.960876	185.3	74.3	-76.7	14.0
2025-01-15 19:27:23.208218	187.0	75.2	-76.5	13.9
2025-01-15 19:27:25.454328	188.8	76.2	-76.2	14.2
2025-01-15 19:27:27.702006	191.0	77.1	-76.7	14.8
2025-01-15 19:27:29.949875	193.5	78.1	-77.0	13.9
2025-01-15 19:27:32.194717	196.5	79.0	-76.8	14.0
2025-01-15 19:27:34.438740	199.9	79.9	-77.4	13.2
2025-01-15 19:27:36.682764	204.1	80.7	-77.8	13.0
2025-01-15 19:27:38.928246	209.1	81.5	-77.7	12.3
2025-01-15 19:27:41.174870	215.0	82.3	-78.3	11.2
2025-01-15 19:27:43.420088	222.2	82.9	-77.9	11.6
2025-01-15 19:27:45.665057	230.5	83.4	-77.9	11.7
2025-01-15 19:27:47.908254	240.0	83.7	-77.9	11.0
2025-01-15 19:27:50.152629	250.2	83.9	-78.3	9.9
2025-01-15 19:27:52.398979	260.7	83.8	-78.6	9.7
2025-01-15 19:27:54.646362	270.7	83.6	-78.8	10.2
2025-01-15 19:27:56.892877	279.6	83.2	-79.3	7.7
2025-01-15 19:27:59.139394	287.4	82.6	-79.2	7.1
2025-01-15 19:28:01.385275	294.0	81.9	-79.8	5.9
2025-01-15 19:28:03.628468	299.5	81.2	-80.4	3.2
2025-01-15 19:28:05.875463	304.0	80.4	-80.4	0.0
2025-01-15 19:28:08.120328	307.8	79.5	-81.0	0.0
2025-01-15 19:28:10.366899	311.1	78.6	-80.9	0.0
2025-01-15 19:28:12.612682	313.8	77.7	-81.4	0.0
2025-01-15 19:28:14.859784	316.1	76.7	-81.3	0.0
2025-01-15 19:28:17.107245	318.2	75.7	-81.2	0.0
2025-01-15 19:28:19.352394	319.9	74.8	-81.1	0.0
2025-01-15 19:28:21.596943	321.4	73.8	-81.3	0.0
2025-01-15 19:28:23.842661	322.8	72.8	-81.0	0.0
2025-01-15 19:28:26.086990	324.0	71.9	-80.8	0.0
2025-01-15 19:28:28.332692	325.1	70.9	-80.5	0.0
2025-01-15 19:28:30.578360	326.1	69.9	-80.6	0.0
2025-01-15 19:28:32.823864	326.9	69.0	-80.7	0.0
2025-01-15 19:28:35.070741	327.7	68.0	-80.6	0.0
2025-01-15 19:28:37.314468	328.4	67.0	-80.8	0.0
2025-01-15 19:28:39.561919	329.1	66.1	-80.9	0.0
2025-01-15 19:28:41.808232	329.7	65.2	-81.3	0.0
2025-01-15 19:28:44.055551	330.3	64.2	-81.2	0.0
2025-01-15 19:28:46.301356	330.8	63.3	-80.9	0.0
2025-01-15 19:28:48.547468	331.3	62.4	-80.6	0.0
2025-01-15 19:28:50.793643	331.7	61.5	-81.0	0.0
2025-01-15 19:28:53.039957	332.1	60.6	-81.1	0.0
2025-01-15 19:28:55.285942	332.5	59.8	-81.1	0.0
2025-01-15 19:28:57.533003	332.9	58.9	-81.3	0.0
2025-01-15 19:28:59.778200	333.2	58.0	-81.3	0.0
2025-01-15 19:29:02.028149	333.5	57.2	-81.5	0.0
2025-01-15 19:29:04.270666	333.8	56.4	-81.3	0.0
2025-01-15 19:29:06.520715	334.1	55.6	-81.0	0.0
2025-01-15 19:29:08.764518	334.4	54.8	-81.3	0.0
2025-01-15 19:29:11.011578	334.6	54.0	-81.0	0.0
2025-01-15 19:29:13.257541	334.9	53.2	-81.1	0.0
2025-01-15 19:29:15.502671	335.1	52.4	-81.3	0.0
2025-01-15 19:29:17.749703	335.3	51.6	-81.3	0.0
2025-01-15 19:29:19.998804	335.5	50.9	-81.3	0.0
2025-01-15 19:29:22.241923	335.7	50.2	-81.2	0.0
2025-01-15 19:29:24.487454	335.9	49.4	-81.1	0.0
2025-01-15 19:29:26.733879	336.1	48.7	-81.2	0.0
2025-01-15 19:29:28.977155	336.3	48.0	-81.1	0.0
2025-01-15 19:29:31.222120	336.4	47.3	-81.1	0.0
2025-01-15 19:29:33.470111	336.6	46.6	-81.4	0.0
2025-01-15 19:29:35.716078	336.8	46.0	-81.2	0.0
2025-01-15 19:29:37.961529	336.9	45.3	-81.5	0.0
2025-01-15 19:29:40.204521	337.0	44.7	-81.5	0.0
2025-01-15 19:29:42.456325	337.2	44.0	-81.5	0.0
2025-01-15 19:29:44.701340	337.3	43.4	-81.5	0.0
2025-01-15 19:29:46.947014	337.4	42.8	-81.6	0.0
2025-01-15 19:29:49.191516	337.6	42.2	-81.0	0.0
2025-01-15 19:29:51.439515	337.7	41.6	-81.4	0.0
2025-01-15 19:29:53.687518	337.8	41.0	-80.9	0.0
2025-01-15 19:29:55.934770	337.9	40.4	-81.2	0.0
2025-01-15 19:29:58.178115	338.0	39.8	-81.1	0.0
2025-01-15 19:30:00.425992	338.1	39.2	-81.0	0.0
2025-01-15 19:30:02.672069	338.2	38.7	-81.0	0.0
2025-01-15 19:30:04.918400	338.3	38.2	-81.2	0.0
2025-01-15 19:30:07.161050	338.4	37.6	-81.1	0.0
2025-01-15 19:30:09.408786	338.5	37.1	-81.0	0.0
2025-01-15 19:30:11.654722	338.6	36.6	-80.8	0.0
2025-01-15 19:30:13.900363	338.7	36.1	-81.3	0.0
2025-01-15 19:30:16.146124	338.8	35.5	-80.9	0.0
2025-01-15 19:30:18.392857	338.8	35.1	-81.4	0.0
2025-01-15 19:30:20.636298	338.9	34.6	-81.5	0.0
2025-01-15 19:30:22.881480	339.0	34.1	-81.0	0.0
2025-01-15 19:30:25.128749	339.1	33.6	-81.4	0.0
2025-01-15 19:30:27.374523	339.2	33.1	-81.3	0.0
2025-01-15 19:30:29.621446	339.2	32.7	-80.7	0.0
2025-01-15 19:30:31.867802	339.3	32.2	-80.9	0.0
2025-01-15 19:30:34.109747	339.4	31.8	-81.2	0.0
2025-01-15 19:30:36.355556	339.4	31.3	-81.1	0.0
2025-01-15 19:30:38.601242	339.5	30.9	-81.1	0.0
2025-01-15 19:30:40.850220	339.6	30.5	-81.3	0.0
2025-01-15 19:30:43.097606	339.6	30.1	-81.0	0.0
2025-01-15 19:30:45.341513	339.7	29.6	-81.4	0.0
2025-01-15 19:30:47.592031	339.7	29.2	-81.4	0.0
2025-01-15 19:30:49.845254	339.8	28.8	-81.4	0.0
2025-01-15 19:30:52.088957	339.9	28.4	-81.4	0.0
2025-01-15 19:30:54.333627	339.9	28.0	-81.5	0.0
2025-01-15 19:30:56.581778	340.0	27.7	-81.6	0.0
2025-01-15 19:30:58.827191	340.0	27.3	-81.7	0.0
2025-01-15 19:31:01.072072	340.1	26.9	-81.4	0.0
2025-01-15 19:31:03.319178	340.1	26.5	-81.3	0.0
2025-01-15 19:31:05.565982	340.2	26.2	-81.8	0.0
2025-01-15 19:31:07.810948	340.2	25.8	-81.6	0.0
2025-01-15 19:31:10.057965	340.3	25.4	-81.3	0.0
2025-01-15 19:31:12.303433	340.3	25.1	-81.3	0.0
2025-01-15 19:31:14.547301	340.4	24.7	-81.4	0.0
2025-01-15 19:31:16.794697	340.4	24.4	-81.4	0.0
2025-01-15 19:31:19.042584	340.5	24.1	-81.3	0.0
2025-01-15 19:31:21.284717	340.5	23.7	-81.5	0.0
2025-01-15 19:31:23.534401	340.6	23.4	-81.3	0.0
2025-01-15 19:31:25.777921	340.6	23.1	-81.3	0.0
2025-01-15 19:31:28.024476	340.6	22.7	-81.4	0.0
2025-01-15 19:31:30.271485	340.7	22.4	-81.7	0.0
2025-01-15 19:31:32.517783	340.7	22.1	-81.3	0.0
2025-01-15 19:31:34.761696	340.8	21.8	-81.4	0.0
2025-01-15 19:31:37.010917	340.8	21.5	-81.4	0.0
2025-01-15 19:31:39.260099	340.8	21.2	-81.1	0.0
2025-01-15 19:31:41.506178	340.9	20.9	-81.7	0.0
2025-01-15 19:31:43.752620	340.9	20.6	-81.7	0.0
2025-01-15 19:31:46.001160	341.0	20.3	-81.5	0.0
2025-01-15 19:31:48.246750	341.0	20.0	-81.2	0.0
2025-01-15 19:31:50.490493	341.0	19.7	-81.4	0.0
2025-01-15 19:31:52.734228	341.1	19.4	-81.4	0.0
2025-01-15 19:31:54.982071	341.1	19.2	-81.3	0.0
2025-01-15 19:31:57.227953	341.1	18.9	-81.6	0.0
2025-01-15 19:31:59.476296	341.2	18.6	-81.4	0.0
2025-01-15 19:32:01.722629	341.2	18.3	-81.1	0.0
2025-01-15 19:32:03.965613	341.2	18.1	-81.1	0.0
2025-01-15 19:32:06.209833	341.3	17.8	-81.5	0.0
2025-01-15 19:32:08.457091	341.3	17.6	-81.2	0.0
2025-01-15 19:32:10.703121	341.3	17.3	-81.4	0.0
2025-01-15 19:32:12.947632	341.4	17.0	-81.5	0.0
2025-01-15 19:32:15.197149	341.4	16.8	-81.6	0.0
2025-01-15 19:32:17.443577	341.4	16.5	-81.3	0.0
2025-01-15 19:32:19.691597	341.5	16.3	-81.7	0.0
2025-01-15 19:32:21.933843	341.5	16.0	-81.5	0.0
2025-01-15 19:32:24.176321	341.5	15.8	-81.4	0.0
2025-01-15 19:32:26.421645	341.6	15.5	-81.7	0.0
2025-01-15 19:32:28.669145	341.6	15.3	-81.6	0.0
2025-01-15 19:32:30.917837	341.6	15.1	-81.4	0.0
2025-01-15 19:32:33.166682	341.7	14.8	-81.1	0.0
2025-01-15 19:32:35.413738	341.7	14.6	-81.1	0.0
2025-01-15 19:32:37.662678	341.7	14.4	-81.4	0.0
2025-01-15 19:32:39.908646	341.7	14.1	-81.3	0.0
2025-01-15 19:32:42.154461	341.8	13.9	-81.1	0.0
2025-01-15 19:32:44.402217	341.8	13.7	-81.3	0.0
2025-01-15 19:32:46.651352	341.8	13.5	-81.2	0.0
2025-01-15 19:32:48.897201	341.8	13.2	-81.5	0.0
2025-01-15 19:32:51.142393	341.9	13.0	-81.3	0.0
2025-01-15 19:32:53.387525	341.9	12.8	-81.4	0.0
2025-01-15 19:32:55.630052	341.9	12.6	-81.7	0.0
2025-01-15 19:32:57.876679	342.0	12.4	-81.5	0.0
2025-01-15 19:33:00.122820	342.0	12.2	-81.4	0.0
2025-01-15 19:33:02.367764	342.0	12.0	-81.8	0.0
2025-01-15 19:33:04.614393	342.0	11.8	-81.2	0.0
2025-01-15 19:33:06.860380	342.1	11.6	-81.4	0.0
2025-01-15 19:33:09.108748	342.1	11.4	-81.3	0.0
2025-01-15 19:33:11.353294	342.1	11.1	-81.7	0.0
2025-01-15 19:33:13.600201	342.1	10.9	-81.8	0.0
2025-01-15 19:33:15.846689	342.2	10.7	-81.5	0.0
2025-01-15 19:33:18.093381	342.2	10.6	-81.6	0.0
2025-01-15 19:33:20.338476	342.2	10.4	-81.7	0.0
2025-01-15 19:33:22.583388	342.2	10.2	-81.6	0.0
2025-01-15 19:33:24.829051	342.3	10.0	-81.7	0.0
#Closed at: 2025-01-15 19:22:12.819800