passes_logs/2025/01/15/planumMaritime01/planumMaritime01__20250115_020703_METEOR-M2_2_rec.log

#Pass ID: 20250115_020703_METEOR-M2 2
#Satellite: METEOR-M2 2
#Configuration: METEOR-M2 2
#Start time: 2025-01-15 02:07:08.085685

#LorettStation: 1.0.0 05.05.2024
#Station: planumMaritime01
#Location: 37.49445 lon 55.92918 lat
#TLE: 1 44387U 19038A   25013.94389374  .00000226  00000+0  11773-3 0  9996
#TLE: 2 44387  98.8563 350.3347 0002292  80.4075 279.7362 14.24116310287388

#Time	Az	El	Level	SNR
2025-01-15 02:07:10.251650	16.4	10.2	-80.9	0.0
2025-01-15 02:07:12.498627	16.4	10.4	-80.9	0.0
2025-01-15 02:07:14.745161	16.4	10.6	-80.9	0.0
2025-01-15 02:07:16.990180	16.4	10.8	-81.1	0.0
2025-01-15 02:07:19.238355	16.4	11.0	-81.1	0.0
2025-01-15 02:07:21.487984	16.4	11.2	-81.2	0.0
2025-01-15 02:07:23.738100	16.4	11.4	-81.2	0.0
2025-01-15 02:07:25.981413	16.4	11.6	-81.2	0.0
2025-01-15 02:07:28.226565	16.4	11.8	-81.4	0.0
2025-01-15 02:07:30.473236	16.4	12.0	-81.3	0.0
2025-01-15 02:07:32.720412	16.4	12.2	-81.0	0.0
2025-01-15 02:07:34.964574	16.4	12.5	-81.3	0.0
2025-01-15 02:07:37.213322	16.4	12.7	-81.4	0.0
2025-01-15 02:07:39.463395	16.4	12.9	-81.1	0.0
2025-01-15 02:07:41.709349	16.4	13.1	-81.2	0.0
2025-01-15 02:07:43.954269	16.4	13.3	-81.4	0.0
2025-01-15 02:07:46.197860	16.4	13.6	-81.2	0.0
2025-01-15 02:07:48.444665	16.4	13.8	-81.2	0.0
2025-01-15 02:07:50.691702	16.4	14.0	-80.6	0.0
2025-01-15 02:07:52.936678	16.4	14.3	-81.4	0.0
2025-01-15 02:07:55.184685	16.4	14.5	-81.5	0.0
2025-01-15 02:07:57.429186	16.4	14.7	-81.3	0.0
2025-01-15 02:07:59.675004	16.4	15.0	-81.5	0.0
2025-01-15 02:08:01.922662	16.4	15.2	-81.4	0.0
2025-01-15 02:08:04.166495	16.4	15.5	-81.5	0.0
2025-01-15 02:08:06.413358	16.4	15.7	-81.4	0.0
2025-01-15 02:08:08.659491	16.4	16.0	-81.5	0.0
2025-01-15 02:08:10.906196	16.3	16.2	-81.2	0.0
2025-01-15 02:08:13.150937	16.3	16.5	-81.5	0.0
2025-01-15 02:08:15.403320	16.3	16.7	-81.3	0.0
2025-01-15 02:08:17.651120	16.3	17.0	-81.4	0.0
2025-01-15 02:08:19.897517	16.3	17.3	-81.4	0.0
2025-01-15 02:08:22.144803	16.3	17.5	-81.4	0.0
2025-01-15 02:08:24.391861	16.3	17.8	-81.6	0.0
2025-01-15 02:08:26.637601	16.3	18.1	-81.4	0.0
2025-01-15 02:08:28.883770	16.3	18.3	-81.4	0.0
2025-01-15 02:08:31.128205	16.3	18.6	-81.5	0.0
2025-01-15 02:08:33.377027	16.3	18.9	-81.7	0.0
2025-01-15 02:08:35.625445	16.3	19.2	-81.4	0.0
2025-01-15 02:08:37.872263	16.3	19.5	-81.5	0.0
2025-01-15 02:08:40.118780	16.3	19.8	-81.7	0.0
2025-01-15 02:08:42.366401	16.3	20.1	-81.6	0.0
2025-01-15 02:08:44.612903	16.3	20.4	-81.5	0.0
2025-01-15 02:08:46.859926	16.3	20.7	-81.6	0.0
2025-01-15 02:08:49.103700	16.3	21.0	-81.5	0.0
2025-01-15 02:08:51.350152	16.3	21.3	-81.5	0.0
2025-01-15 02:08:53.594985	16.2	21.6	-81.7	0.0
2025-01-15 02:08:55.843781	16.2	21.9	-81.5	0.0
2025-01-15 02:08:58.087415	16.2	22.2	-81.5	0.0
2025-01-15 02:09:00.334398	16.2	22.6	-81.6	0.0
2025-01-15 02:09:02.576613	16.2	22.9	-81.6	0.0
2025-01-15 02:09:04.823265	16.2	23.2	-81.7	0.0
2025-01-15 02:09:07.069314	16.2	23.6	-81.7	0.0
2025-01-15 02:09:09.316232	16.2	23.9	-81.7	0.0
2025-01-15 02:09:11.561386	16.2	24.3	-81.5	0.0
2025-01-15 02:09:13.808397	16.2	24.6	-81.6	0.0
2025-01-15 02:09:16.051220	16.1	25.0	-81.7	0.0
2025-01-15 02:09:18.301319	16.1	25.3	-81.5	0.0
2025-01-15 02:09:20.548976	16.1	25.7	-81.4	0.0
2025-01-15 02:09:22.794289	16.1	26.1	-81.4	0.0
2025-01-15 02:09:25.043692	16.1	26.4	-81.5	0.0
2025-01-15 02:09:27.289522	16.1	26.8	-81.6	0.0
2025-01-15 02:09:29.537563	16.1	27.2	-81.7	0.0
2025-01-15 02:09:31.782745	16.0	27.6	-81.7	0.0
2025-01-15 02:09:34.029830	16.0	28.0	-81.6	0.0
2025-01-15 02:09:36.272782	16.0	28.4	-81.8	0.0
2025-01-15 02:09:38.518055	16.0	28.8	-81.6	0.0
2025-01-15 02:09:40.762664	16.0	29.3	-81.6	0.0
2025-01-15 02:09:43.008857	15.9	29.7	-81.5	0.0
2025-01-15 02:09:45.256303	15.9	30.1	-81.7	0.0
2025-01-15 02:09:47.501069	15.9	30.6	-81.8	0.0
2025-01-15 02:09:49.747669	15.9	31.0	-81.7	0.0
2025-01-15 02:09:51.993136	15.9	31.5	-81.7	0.0
2025-01-15 02:09:54.239819	15.8	31.9	-81.7	0.0
2025-01-15 02:09:56.486774	15.8	32.4	-81.7	0.0
2025-01-15 02:09:58.732697	15.8	32.9	-82.0	0.0
2025-01-15 02:10:00.981087	15.8	33.3	-81.8	0.0
2025-01-15 02:10:03.226099	15.7	33.8	-81.7	0.0
2025-01-15 02:10:05.472606	15.7	34.3	-81.6	0.0
2025-01-15 02:10:07.718058	15.7	34.8	-81.8	0.0
2025-01-15 02:10:09.970123	15.6	35.4	-81.9	0.0
2025-01-15 02:10:12.216999	15.6	35.9	-82.0	0.0
2025-01-15 02:10:14.462331	15.6	36.4	-81.9	0.0
2025-01-15 02:10:16.710250	15.5	37.0	-81.8	0.0
2025-01-15 02:10:18.959667	15.5	37.5	-81.8	0.0
2025-01-15 02:10:21.205524	15.5	38.1	-81.6	0.0
2025-01-15 02:10:23.448687	15.4	38.6	-81.8	0.0
2025-01-15 02:10:25.696176	15.4	39.2	-81.6	0.0
2025-01-15 02:10:27.942250	15.3	39.8	-81.8	0.0
2025-01-15 02:10:30.187093	15.3	40.4	-81.7	0.0
2025-01-15 02:10:32.435641	15.3	41.0	-81.6	0.0
2025-01-15 02:10:34.683980	15.2	41.6	-81.7	0.0
2025-01-15 02:10:36.931150	15.2	42.3	-81.8	0.0
2025-01-15 02:10:39.179169	15.1	42.9	-81.9	0.0
2025-01-15 02:10:41.427229	15.0	43.6	-81.9	0.0
2025-01-15 02:10:43.675388	15.0	44.2	-81.7	0.0
2025-01-15 02:10:45.920179	14.9	44.9	-81.8	0.0
2025-01-15 02:10:48.167538	14.9	45.6	-81.8	0.0
2025-01-15 02:10:50.413447	14.8	46.3	-81.8	0.0
2025-01-15 02:10:52.660116	14.7	47.0	-82.0	0.0
2025-01-15 02:10:54.909725	14.6	47.8	-81.7	0.0
2025-01-15 02:10:57.154460	14.6	48.5	-81.7	0.0
2025-01-15 02:10:59.400964	14.5	49.2	-81.8	0.0
2025-01-15 02:11:01.647575	14.4	50.0	-82.0	0.0
2025-01-15 02:11:03.895909	14.3	50.8	-81.8	0.0
2025-01-15 02:11:06.140879	14.2	51.6	-82.0	0.0
2025-01-15 02:11:08.389612	14.1	52.4	-81.9	0.0
2025-01-15 02:11:10.637341	14.0	53.2	-81.8	0.0
2025-01-15 02:11:12.879749	13.9	54.0	-81.8	0.0
2025-01-15 02:11:15.127046	13.7	54.9	-81.9	0.0
2025-01-15 02:11:17.370397	13.6	55.7	-82.0	0.0
2025-01-15 02:11:19.617816	13.4	56.6	-81.9	0.0
2025-01-15 02:11:21.864338	13.3	57.5	-82.1	0.0
2025-01-15 02:11:24.109308	13.1	58.4	-81.9	0.0
2025-01-15 02:11:26.354149	12.9	59.3	-81.9	0.0
2025-01-15 02:11:28.602027	12.8	60.2	-81.9	0.0
2025-01-15 02:11:30.845996	12.5	61.2	-82.1	0.0
2025-01-15 02:11:33.090859	12.3	62.1	-81.9	0.0
2025-01-15 02:11:35.336238	12.1	63.1	-81.6	0.0
2025-01-15 02:11:37.581008	11.8	64.1	-81.9	0.0
2025-01-15 02:11:39.826769	11.5	65.1	-82.1	0.0
2025-01-15 02:11:42.074123	11.2	66.1	-81.9	0.0
2025-01-15 02:11:44.318121	10.9	67.1	-82.1	0.0
2025-01-15 02:11:46.564490	10.5	68.1	-82.1	0.0
2025-01-15 02:11:48.811137	10.1	69.2	-81.9	0.0
2025-01-15 02:11:51.055776	9.6	70.2	-81.9	0.0
2025-01-15 02:11:53.302191	9.0	71.3	-81.9	0.0
2025-01-15 02:11:55.546914	8.4	72.3	-81.8	0.0
2025-01-15 02:11:57.791399	7.8	73.4	-82.1	0.0
2025-01-15 02:12:00.038352	7.0	74.5	-82.2	0.0
2025-01-15 02:12:02.287732	6.1	75.6	-82.1	0.0
2025-01-15 02:12:04.535333	5.0	76.7	-81.9	0.0
2025-01-15 02:12:06.781216	3.7	77.8	-82.0	0.0
2025-01-15 02:12:09.027017	2.2	78.9	-82.1	0.0
2025-01-15 02:12:11.272551	0.3	80.0	-81.9	0.0
2025-01-15 02:12:13.516387	357.9	81.1	-81.9	0.0
2025-01-15 02:12:15.760807	354.9	82.2	-81.9	0.0
2025-01-15 02:12:18.004890	350.9	83.2	-82.0	0.0
2025-01-15 02:12:20.251491	345.5	84.2	-81.9	0.0
2025-01-15 02:12:22.496432	337.9	85.2	-81.9	0.0
2025-01-15 02:12:24.744366	326.8	86.0	-81.7	0.0
2025-01-15 02:12:26.990550	311.0	86.6	-82.1	0.0
2025-01-15 02:12:29.240241	290.8	86.8	-82.1	0.0
2025-01-15 02:12:31.484395	270.0	86.7	-81.8	0.0
2025-01-15 02:12:33.731551	253.2	86.1	-82.2	0.0
2025-01-15 02:12:35.978235	241.3	85.3	-82.2	0.0
2025-01-15 02:12:38.226015	233.0	84.4	-81.9	0.0
2025-01-15 02:12:40.472456	227.2	83.4	-82.0	0.0
2025-01-15 02:12:42.723437	223.0	82.4	-82.1	0.0
2025-01-15 02:12:44.970237	219.8	81.3	-82.1	0.0
2025-01-15 02:12:47.214563	217.3	80.2	-82.1	0.0
2025-01-15 02:12:49.461056	215.4	79.1	-81.9	0.0
2025-01-15 02:12:51.707884	213.8	78.0	-82.1	0.0
2025-01-15 02:12:53.952226	212.4	76.9	-81.9	0.0
2025-01-15 02:12:56.197142	211.3	75.8	-81.9	0.0
2025-01-15 02:12:58.446259	210.4	74.7	-81.9	0.0
2025-01-15 02:13:00.693804	209.6	73.6	-82.1	0.0
2025-01-15 02:13:02.938900	208.9	72.5	-82.1	0.0
2025-01-15 02:13:05.182422	208.2	71.5	-82.1	0.0
2025-01-15 02:13:07.430279	207.7	70.4	-82.1	0.0
2025-01-15 02:13:09.674554	207.2	69.3	-82.0	0.0
2025-01-15 02:13:11.918742	206.8	68.3	-81.8	0.0
2025-01-15 02:13:14.166597	206.4	67.3	-82.1	0.0
2025-01-15 02:13:16.412992	206.0	66.2	-82.0	0.0
2025-01-15 02:13:18.659917	205.7	65.2	-82.0	0.0
2025-01-15 02:13:20.907162	205.4	64.2	-82.0	0.0
2025-01-15 02:13:23.150371	205.1	63.2	-82.0	0.0
2025-01-15 02:13:25.394098	204.9	62.3	-82.0	0.0
2025-01-15 02:13:27.638243	204.7	61.3	-82.2	0.0
2025-01-15 02:13:29.885415	204.5	60.4	-82.0	0.0
2025-01-15 02:13:32.131696	204.3	59.4	-82.1	0.0
2025-01-15 02:13:34.380682	204.1	58.5	-82.0	0.0
2025-01-15 02:13:36.626920	203.9	57.6	-81.9	0.0
2025-01-15 02:13:38.872262	203.8	56.7	-82.1	0.0
2025-01-15 02:13:41.119786	203.6	55.8	-82.1	0.0
2025-01-15 02:13:43.362381	203.5	55.0	-82.0	0.0
2025-01-15 02:13:45.604796	203.3	54.1	-81.9	0.0
2025-01-15 02:13:47.850739	203.2	53.3	-81.9	0.0
2025-01-15 02:13:50.097263	203.1	52.5	-82.0	0.0
2025-01-15 02:13:52.339764	203.0	51.7	-82.0	0.0
2025-01-15 02:13:54.587329	202.9	50.9	-82.1	0.0
2025-01-15 02:13:56.834787	202.8	50.1	-82.1	0.0
2025-01-15 02:13:59.079944	202.7	49.3	-82.2	0.0
2025-01-15 02:14:01.324111	202.6	48.6	-82.1	0.0
2025-01-15 02:14:03.569502	202.5	47.8	-81.9	0.0
2025-01-15 02:14:05.818073	202.5	47.1	-82.3	0.0
2025-01-15 02:14:08.064367	202.4	46.4	-82.3	0.0
2025-01-15 02:14:10.312323	202.3	45.7	-82.0	0.0
2025-01-15 02:14:12.557041	202.3	45.0	-81.9	0.0
2025-01-15 02:14:14.804230	202.2	44.3	-82.2	0.0
2025-01-15 02:14:17.050288	202.1	43.6	-82.1	0.0
2025-01-15 02:14:19.297065	202.1	43.0	-82.1	0.0
2025-01-15 02:14:21.541634	202.0	42.3	-82.1	0.0
2025-01-15 02:14:23.787774	202.0	41.7	-82.1	0.0
2025-01-15 02:14:26.036420	201.9	41.1	-82.2	0.0
2025-01-15 02:14:28.283065	201.9	40.4	-82.0	0.0
2025-01-15 02:14:30.526974	201.8	39.8	-82.0	0.0
2025-01-15 02:14:32.771490	201.8	39.2	-82.1	0.0
2025-01-15 02:14:35.014644	201.7	38.7	-82.2	0.0
2025-01-15 02:14:37.260904	201.7	38.1	-82.2	0.0
2025-01-15 02:14:39.507143	201.7	37.5	-81.8	0.0
2025-01-15 02:14:41.753208	201.6	37.0	-82.0	0.0
2025-01-15 02:14:44.000774	201.6	36.4	-82.0	0.0
2025-01-15 02:14:46.246971	201.5	35.9	-82.2	0.0
2025-01-15 02:14:48.490793	201.5	35.4	-82.1	0.0
2025-01-15 02:14:50.735234	201.5	34.8	-82.2	0.0
2025-01-15 02:14:52.983498	201.4	34.3	-82.2	0.0
2025-01-15 02:14:55.228225	201.4	33.8	-82.2	0.0
2025-01-15 02:14:57.473458	201.4	33.3	-82.3	0.0
2025-01-15 02:14:59.719236	201.4	32.8	-82.2	0.0
2025-01-15 02:15:01.964743	201.3	32.4	-82.1	0.0
2025-01-15 02:15:04.212311	201.3	31.9	-81.9	0.0
2025-01-15 02:15:06.456229	201.3	31.4	-82.0	0.0
2025-01-15 02:15:08.701119	201.3	31.0	-82.3	0.0
2025-01-15 02:15:10.947342	201.2	30.5	-82.0	0.0
2025-01-15 02:15:13.192653	201.2	30.1	-82.0	0.0
2025-01-15 02:15:15.440775	201.2	29.6	-82.0	0.0
2025-01-15 02:15:17.689391	201.2	29.2	-82.0	0.0
2025-01-15 02:15:19.939770	201.2	28.8	-82.3	0.0
2025-01-15 02:15:22.185722	201.1	28.4	-82.1	0.0
2025-01-15 02:15:24.433348	201.1	28.0	-82.2	0.0
2025-01-15 02:15:26.678415	201.1	27.6	-82.1	0.0
2025-01-15 02:15:28.921999	201.1	27.2	-82.0	0.0
2025-01-15 02:15:31.165959	201.1	26.8	-82.0	0.0
2025-01-15 02:15:33.410691	201.0	26.4	-82.1	0.0
2025-01-15 02:15:35.654808	201.0	26.0	-82.0	0.0
2025-01-15 02:15:37.899343	201.0	25.6	-82.1	0.0
2025-01-15 02:15:40.144820	201.0	25.3	-82.2	0.0
2025-01-15 02:15:42.391076	201.0	24.9	-82.1	0.0
2025-01-15 02:15:44.637840	201.0	24.5	-82.1	0.0
2025-01-15 02:15:46.885210	201.0	24.2	-82.0	0.0
2025-01-15 02:15:49.130519	200.9	23.8	-82.0	0.0
2025-01-15 02:15:51.374204	200.9	23.5	-82.1	0.0
2025-01-15 02:15:53.618511	200.9	23.1	-82.2	0.0
2025-01-15 02:15:55.864754	200.9	22.8	-82.3	0.0
2025-01-15 02:15:58.112896	200.9	22.5	-82.4	0.0
2025-01-15 02:16:00.360024	200.9	22.1	-82.3	0.0
2025-01-15 02:16:02.603163	200.9	21.8	-82.3	0.0
2025-01-15 02:16:04.850476	200.9	21.5	-82.3	0.0
2025-01-15 02:16:07.098988	200.9	21.2	-82.0	0.0
2025-01-15 02:16:09.340843	200.8	20.9	-82.1	0.0
2025-01-15 02:16:11.588151	200.8	20.6	-82.3	0.0
2025-01-15 02:16:13.833593	200.8	20.3	-82.2	0.0
2025-01-15 02:16:16.075824	200.8	20.0	-82.2	0.0
2025-01-15 02:16:18.320051	200.8	19.7	-82.0	0.0
2025-01-15 02:16:20.565115	200.8	19.4	-82.2	0.0
2025-01-15 02:16:22.809684	200.8	19.1	-82.2	0.0
2025-01-15 02:16:25.053420	200.8	18.8	-82.1	0.0
2025-01-15 02:16:27.299988	200.8	18.5	-82.1	0.0
2025-01-15 02:16:29.549124	200.8	18.2	-82.1	0.0
2025-01-15 02:16:31.797055	200.8	18.0	-82.1	0.0
2025-01-15 02:16:34.043429	200.8	17.7	-82.1	0.0
2025-01-15 02:16:36.289717	200.8	17.4	-82.3	0.0
2025-01-15 02:16:38.535223	200.8	17.1	-82.2	0.0
2025-01-15 02:16:40.782365	200.7	16.9	-82.3	0.0
2025-01-15 02:16:43.030372	200.7	16.6	-82.1	0.0
2025-01-15 02:16:45.276189	200.7	16.4	-82.2	0.0
2025-01-15 02:16:47.520764	200.7	16.1	-82.1	0.0
2025-01-15 02:16:49.768099	200.7	15.8	-82.1	0.0
2025-01-15 02:16:52.013919	200.7	15.6	-82.1	0.0
2025-01-15 02:16:54.257548	200.7	15.3	-82.1	0.0
2025-01-15 02:16:56.505113	200.7	15.1	-82.2	0.0
2025-01-15 02:16:58.751542	200.7	14.9	-82.1	0.0
2025-01-15 02:17:00.997871	200.7	14.6	-82.3	0.0
2025-01-15 02:17:03.244670	200.7	14.4	-82.1	0.0
2025-01-15 02:17:05.488412	200.7	14.1	-82.2	0.0
2025-01-15 02:17:07.735247	200.7	13.9	-82.0	0.0
2025-01-15 02:17:09.983830	200.7	13.7	-82.3	0.0
2025-01-15 02:17:12.228141	200.7	13.4	-82.1	0.0
2025-01-15 02:17:14.472776	200.7	13.2	-82.3	0.0
2025-01-15 02:17:16.719785	200.7	13.0	-82.3	0.0
2025-01-15 02:17:18.965275	200.7	12.8	-82.3	0.0
2025-01-15 02:17:21.209104	200.7	12.6	-82.2	0.0
2025-01-15 02:17:23.453582	200.7	12.3	-82.2	0.0
2025-01-15 02:17:25.703663	200.7	12.1	-82.2	0.0
2025-01-15 02:17:27.949989	200.7	11.9	-82.2	0.0
2025-01-15 02:17:30.195167	200.7	11.7	-82.3	0.0
2025-01-15 02:17:32.439657	200.7	11.5	-82.2	0.0
2025-01-15 02:17:34.687245	200.7	11.3	-82.0	0.0
2025-01-15 02:17:36.932827	200.7	11.1	-82.2	0.0
2025-01-15 02:17:39.179970	200.7	10.9	-82.2	0.0
2025-01-15 02:17:41.430239	200.7	10.7	-82.2	0.0
2025-01-15 02:17:43.676686	200.7	10.4	-82.2	0.0
2025-01-15 02:17:45.924539	200.7	10.2	-82.2	0.0
#Closed at: 2025-01-15 02:07:03.088379