passes_logs/2025/01/15/planumMaritime01/planumMaritime01__20250115_124003_METEOR-M2_4_rec.log

#Pass ID: 20250115_124003_METEOR-M2 4
#Satellite: METEOR-M2 4
#Configuration: METEOR-M2 4
#Start time: 2025-01-15 12:40:08.613699

#LorettStation: 1.0.0 05.05.2024
#Station: planumMaritime01
#Location: 37.49445 lon 55.92918 lat
#TLE: 1 59051U 24039A   25013.90238722  .00000050  00000+0  41715-4 0  9998
#TLE: 2 59051  98.6291 336.9363 0006151 228.5277 131.5373 14.22324781 45440

#Time	Az	El	Level	SNR
2025-01-15 12:40:10.777708	207.3	10.2	-81.6	0.0
2025-01-15 12:40:13.025031	207.5	10.3	-81.2	0.0
2025-01-15 12:40:15.270704	207.7	10.5	-81.4	0.0
2025-01-15 12:40:17.514722	207.9	10.7	-81.5	0.0
2025-01-15 12:40:19.761975	208.2	10.8	-81.6	0.0
2025-01-15 12:40:22.010473	208.4	11.0	-81.6	0.0
2025-01-15 12:40:24.257690	208.6	11.2	-81.5	0.0
2025-01-15 12:40:26.504844	208.9	11.3	-81.7	0.0
2025-01-15 12:40:28.751217	209.1	11.5	-81.9	0.0
2025-01-15 12:40:30.996549	209.4	11.7	-82.0	0.0
2025-01-15 12:40:33.243284	209.6	11.9	-81.8	0.0
2025-01-15 12:40:35.491221	209.9	12.0	-81.7	0.0
2025-01-15 12:40:37.736947	210.1	12.2	-81.8	0.0
2025-01-15 12:40:39.982448	210.4	12.4	-81.9	0.0
2025-01-15 12:40:42.226568	210.6	12.6	-81.8	0.0
2025-01-15 12:40:44.474275	210.9	12.7	-82.1	0.0
2025-01-15 12:40:46.718847	211.2	12.9	-81.8	0.0
2025-01-15 12:40:48.965678	211.4	13.1	-81.9	0.0
2025-01-15 12:40:51.209381	211.7	13.3	-81.8	0.0
2025-01-15 12:40:53.456742	212.0	13.4	-81.9	0.0
2025-01-15 12:40:55.703177	212.3	13.6	-81.8	0.0
2025-01-15 12:40:57.955577	212.5	13.8	-81.5	0.0
2025-01-15 12:41:00.205293	212.8	14.0	-81.6	0.0
2025-01-15 12:41:02.450446	213.1	14.2	-81.9	0.0
2025-01-15 12:41:04.696683	213.4	14.4	-81.9	0.0
2025-01-15 12:41:06.942248	213.7	14.5	-81.9	0.0
2025-01-15 12:41:09.191777	214.0	14.7	-82.0	0.0
2025-01-15 12:41:11.442906	214.3	14.9	-81.8	0.0
2025-01-15 12:41:13.689790	214.6	15.1	-81.9	0.0
2025-01-15 12:41:15.933346	214.9	15.3	-82.2	0.0
2025-01-15 12:41:18.181356	215.2	15.5	-81.4	0.0
2025-01-15 12:41:20.427492	215.6	15.7	-82.4	0.0
2025-01-15 12:41:22.672196	215.9	15.9	-82.2	0.0
2025-01-15 12:41:24.918821	216.2	16.0	-82.3	0.0
2025-01-15 12:41:27.164122	216.5	16.2	-81.8	0.0
2025-01-15 12:41:29.411008	216.9	16.4	-81.9	0.0
2025-01-15 12:41:31.655663	217.2	16.6	-81.8	0.0
2025-01-15 12:41:33.902571	217.6	16.8	-82.2	0.0
2025-01-15 12:41:36.148692	217.9	17.0	-82.0	0.0
2025-01-15 12:41:38.395765	218.3	17.2	-81.9	0.0
2025-01-15 12:41:40.638276	218.6	17.4	-82.2	0.0
2025-01-15 12:41:42.885032	219.0	17.6	-82.0	0.0
2025-01-15 12:41:45.128286	219.3	17.8	-81.9	0.0
2025-01-15 12:41:47.373542	219.7	18.0	-82.1	0.0
2025-01-15 12:41:49.617939	220.1	18.2	-82.0	0.0
2025-01-15 12:41:51.867694	220.5	18.4	-82.1	0.0
2025-01-15 12:41:54.116044	220.8	18.6	-82.2	0.0
2025-01-15 12:41:56.364154	221.2	18.7	-82.3	0.0
2025-01-15 12:41:58.609822	221.6	18.9	-81.7	0.0
2025-01-15 12:42:00.856482	222.0	19.1	-82.2	0.0
2025-01-15 12:42:03.100997	222.4	19.3	-82.5	0.0
2025-01-15 12:42:05.345639	222.8	19.5	-82.3	0.0
2025-01-15 12:42:07.592540	223.2	19.7	-82.2	0.0
2025-01-15 12:42:09.836754	223.7	19.9	-82.2	0.0
2025-01-15 12:42:12.083396	224.1	20.1	-82.2	0.0
2025-01-15 12:42:14.331131	224.5	20.3	-82.1	0.0
2025-01-15 12:42:16.579150	225.0	20.5	-82.1	0.0
2025-01-15 12:42:18.824588	225.4	20.7	-81.5	0.0
2025-01-15 12:42:21.068330	225.8	20.9	-81.9	0.0
2025-01-15 12:42:23.314366	226.3	21.1	-82.1	0.0
2025-01-15 12:42:25.560019	226.8	21.3	-82.0	0.0
2025-01-15 12:42:27.807661	227.2	21.5	-81.6	0.0
2025-01-15 12:42:30.053844	227.7	21.7	-82.0	0.0
2025-01-15 12:42:32.299995	228.2	21.9	-82.0	0.0
2025-01-15 12:42:34.549857	228.6	22.1	-82.3	0.0
2025-01-15 12:42:36.798125	229.1	22.3	-82.1	0.0
2025-01-15 12:42:39.042557	229.6	22.5	-81.7	0.0
2025-01-15 12:42:41.288729	230.1	22.7	-82.1	0.0
2025-01-15 12:42:43.535032	230.6	22.9	-81.8	0.0
2025-01-15 12:42:45.782304	231.1	23.1	-81.9	0.0
2025-01-15 12:42:48.029508	231.6	23.2	-82.0	0.0
2025-01-15 12:42:50.273057	232.2	23.4	-81.9	0.0
2025-01-15 12:42:52.520788	232.7	23.6	-81.9	0.0
2025-01-15 12:42:54.768438	233.2	23.8	-81.8	0.0
2025-01-15 12:42:57.017554	233.8	24.0	-82.4	0.0
2025-01-15 12:42:59.266566	234.3	24.2	-82.0	0.0
2025-01-15 12:43:01.511704	234.9	24.4	-82.3	0.0
2025-01-15 12:43:03.755854	235.4	24.5	-82.6	0.0
2025-01-15 12:43:06.002794	236.0	24.7	-82.4	0.0
2025-01-15 12:43:08.246334	236.6	24.9	-82.5	0.0
2025-01-15 12:43:10.492871	237.2	25.1	-81.8	0.0
2025-01-15 12:43:12.741172	237.7	25.3	-82.3	0.0
2025-01-15 12:43:14.986932	238.3	25.4	-82.7	0.0
2025-01-15 12:43:17.231461	238.9	25.6	-82.6	0.0
2025-01-15 12:43:19.478919	239.5	25.8	-82.1	0.0
2025-01-15 12:43:21.725941	240.1	25.9	-82.4	0.0
2025-01-15 12:43:23.971822	240.8	26.1	-82.3	0.0
2025-01-15 12:43:26.215419	241.4	26.3	-82.3	0.0
2025-01-15 12:43:28.462573	242.0	26.4	-82.3	0.0
2025-01-15 12:43:30.708799	242.6	26.6	-82.3	0.0
2025-01-15 12:43:32.954088	243.3	26.7	-82.3	0.0
2025-01-15 12:43:35.199324	243.9	26.9	-82.3	0.0
2025-01-15 12:43:37.445054	244.6	27.0	-82.4	0.0
2025-01-15 12:43:39.694564	245.2	27.2	-82.0	0.0
2025-01-15 12:43:41.940281	245.9	27.3	-82.4	0.0
2025-01-15 12:43:44.185815	246.6	27.4	-82.7	0.0
2025-01-15 12:43:46.432473	247.3	27.6	-82.2	0.0
2025-01-15 12:43:48.678845	247.9	27.7	-82.7	0.0
2025-01-15 12:43:50.925785	248.6	27.8	-82.5	0.0
2025-01-15 12:43:53.171450	249.3	27.9	-82.6	0.0
2025-01-15 12:43:55.416720	250.0	28.1	-82.2	0.0
2025-01-15 12:43:57.662760	250.7	28.2	-82.2	0.0
2025-01-15 12:43:59.907925	251.4	28.3	-82.1	0.0
2025-01-15 12:44:02.155270	252.1	28.4	-82.1	0.0
2025-01-15 12:44:04.399734	252.9	28.5	-82.2	0.0
2025-01-15 12:44:06.642343	253.6	28.6	-82.4	0.0
2025-01-15 12:44:08.888544	254.3	28.7	-82.3	0.0
2025-01-15 12:44:11.134507	255.0	28.8	-82.2	0.0
2025-01-15 12:44:13.382137	255.8	28.9	-82.6	0.0
2025-01-15 12:44:15.628484	256.5	28.9	-82.8	0.0
2025-01-15 12:44:17.875590	257.2	29.0	-82.5	0.0
2025-01-15 12:44:20.120848	258.0	29.1	-82.2	0.0
2025-01-15 12:44:22.367179	258.7	29.1	-82.6	0.0
2025-01-15 12:44:24.614622	259.5	29.2	-82.4	0.0
2025-01-15 12:44:26.863342	260.2	29.3	-82.4	0.0
2025-01-15 12:44:29.109534	261.0	29.3	-81.9	0.0
2025-01-15 12:44:31.360455	261.7	29.3	-82.3	0.0
2025-01-15 12:44:33.607454	262.5	29.4	-82.7	0.0
2025-01-15 12:44:35.853040	263.3	29.4	-82.5	0.0
2025-01-15 12:44:38.100798	264.0	29.4	-82.3	0.0
2025-01-15 12:44:40.343612	264.8	29.5	-81.8	0.0
2025-01-15 12:44:42.591938	265.5	29.5	-81.8	0.0
2025-01-15 12:44:44.837439	266.3	29.5	-81.4	0.0
2025-01-15 12:44:47.084980	267.1	29.5	-82.3	0.0
2025-01-15 12:44:49.330116	267.8	29.5	-82.7	0.0
2025-01-15 12:44:51.578625	268.6	29.5	-82.4	0.0
2025-01-15 12:44:53.826557	269.3	29.5	-82.5	0.0
2025-01-15 12:44:56.075986	270.1	29.5	-82.5	0.0
2025-01-15 12:44:58.324227	270.9	29.4	-82.4	0.0
2025-01-15 12:45:00.570896	271.6	29.4	-81.9	0.0
2025-01-15 12:45:02.814802	272.4	29.4	-82.4	0.0
2025-01-15 12:45:05.060712	273.1	29.3	-82.2	0.0
2025-01-15 12:45:07.309678	273.9	29.3	-81.9	0.0
2025-01-15 12:45:09.560323	274.7	29.2	-82.0	0.0
2025-01-15 12:45:11.805727	275.4	29.2	-82.1	0.0
2025-01-15 12:45:14.049460	276.2	29.1	-82.0	0.0
2025-01-15 12:45:16.295244	276.9	29.1	-82.4	0.0
2025-01-15 12:45:18.539058	277.6	29.0	-82.4	0.0
2025-01-15 12:45:20.787582	278.4	28.9	-81.6	0.0
2025-01-15 12:45:23.036753	279.1	28.8	-82.4	0.0
2025-01-15 12:45:25.279829	279.8	28.8	-82.2	0.0
2025-01-15 12:45:27.530775	280.6	28.7	-82.7	0.0
2025-01-15 12:45:29.774507	281.3	28.6	-82.8	0.0
2025-01-15 12:45:32.019157	282.0	28.5	-82.4	0.0
2025-01-15 12:45:34.264574	282.7	28.4	-82.7	0.0
2025-01-15 12:45:36.506650	283.4	28.3	-82.5	0.0
2025-01-15 12:45:38.752828	284.1	28.2	-82.6	0.0
2025-01-15 12:45:40.998867	284.8	28.1	-82.3	0.0
2025-01-15 12:45:43.246432	285.5	27.9	-82.6	0.0
2025-01-15 12:45:45.493139	286.2	27.8	-82.4	0.0
2025-01-15 12:45:47.736655	286.9	27.7	-82.4	0.0
2025-01-15 12:45:49.983617	287.6	27.6	-82.3	0.0
2025-01-15 12:45:52.231864	288.3	27.4	-82.5	0.0
2025-01-15 12:45:54.475357	288.9	27.3	-82.5	0.0
2025-01-15 12:45:56.726413	289.6	27.2	-82.5	0.0
2025-01-15 12:45:58.969984	290.2	27.0	-82.4	0.0
2025-01-15 12:46:01.215826	290.9	26.9	-82.1	0.0
2025-01-15 12:46:03.465599	291.5	26.7	-82.8	0.0
2025-01-15 12:46:05.712581	292.2	26.6	-82.8	0.0
2025-01-15 12:46:07.958737	292.8	26.4	-82.2	0.0
2025-01-15 12:46:10.202318	293.4	26.2	-82.5	0.0
2025-01-15 12:46:12.447872	294.1	26.1	-82.7	0.0
2025-01-15 12:46:14.694900	294.7	25.9	-82.3	0.0
2025-01-15 12:46:16.941811	295.3	25.8	-82.9	0.0
2025-01-15 12:46:19.189040	295.9	25.6	-82.7	0.0
2025-01-15 12:46:21.433872	296.5	25.4	-82.5	0.0
2025-01-15 12:46:23.679983	297.1	25.3	-82.6	0.0
2025-01-15 12:46:25.923844	297.6	25.1	-82.5	0.0
2025-01-15 12:46:28.170962	298.2	24.9	-82.2	0.0
2025-01-15 12:46:30.417015	298.8	24.7	-82.4	0.0
2025-01-15 12:46:32.662923	299.4	24.5	-82.3	0.0
2025-01-15 12:46:34.909858	299.9	24.4	-82.4	0.0
2025-01-15 12:46:37.154177	300.5	24.2	-82.6	0.0
2025-01-15 12:46:39.397888	301.0	24.0	-82.6	0.0
2025-01-15 12:46:41.644726	301.5	23.8	-82.5	0.0
2025-01-15 12:46:43.891268	302.1	23.6	-82.9	0.0
2025-01-15 12:46:46.138401	302.6	23.4	-82.6	0.0
2025-01-15 12:46:48.383553	303.1	23.3	-82.8	0.0
2025-01-15 12:46:50.632822	303.6	23.1	-82.6	0.0
2025-01-15 12:46:52.878467	304.1	22.9	-82.5	0.0
2025-01-15 12:46:55.125436	304.7	22.7	-82.6	0.0
2025-01-15 12:46:57.369796	305.1	22.5	-82.5	0.0
2025-01-15 12:46:59.619255	305.6	22.3	-82.5	0.0
2025-01-15 12:47:01.864649	306.1	22.1	-82.1	0.0
2025-01-15 12:47:04.109783	306.6	21.9	-82.3	0.0
2025-01-15 12:47:06.353012	307.1	21.7	-82.3	0.0
2025-01-15 12:47:08.598420	307.5	21.5	-82.3	0.0
2025-01-15 12:47:10.839554	308.0	21.3	-82.3	0.0
2025-01-15 12:47:13.085886	308.5	21.1	-82.5	0.0
2025-01-15 12:47:15.332810	308.9	20.9	-82.6	0.0
2025-01-15 12:47:17.578888	309.3	20.7	-82.8	0.0
2025-01-15 12:47:19.824925	309.8	20.6	-82.2	0.0
2025-01-15 12:47:22.074095	310.2	20.4	-82.1	0.0
2025-01-15 12:47:24.322429	310.6	20.2	-82.6	0.0
2025-01-15 12:47:26.566746	311.1	20.0	-82.0	0.0
2025-01-15 12:47:28.811791	311.5	19.8	-82.5	0.0
2025-01-15 12:47:31.057553	311.9	19.6	-82.3	0.0
2025-01-15 12:47:33.305946	312.3	19.4	-82.6	0.0
2025-01-15 12:47:35.546122	312.7	19.2	-82.6	0.0
2025-01-15 12:47:37.792923	313.1	19.0	-82.5	0.0
2025-01-15 12:47:40.039354	313.5	18.8	-82.6	0.0
2025-01-15 12:47:42.284158	313.9	18.6	-82.5	0.0
2025-01-15 12:47:44.528937	314.3	18.4	-82.5	0.0
2025-01-15 12:47:46.774463	314.6	18.2	-82.6	0.0
2025-01-15 12:47:49.018240	315.0	18.0	-82.8	0.0
2025-01-15 12:47:51.264024	315.4	17.8	-82.6	0.0
2025-01-15 12:47:53.508518	315.7	17.6	-82.6	0.0
2025-01-15 12:47:55.752603	316.1	17.4	-82.7	0.0
2025-01-15 12:47:57.998508	316.5	17.3	-82.9	0.0
2025-01-15 12:48:00.243234	316.8	17.1	-82.7	0.0
2025-01-15 12:48:02.490365	317.2	16.9	-82.6	0.0
2025-01-15 12:48:04.740393	317.5	16.7	-82.2	0.0
2025-01-15 12:48:06.985646	317.8	16.5	-82.4	0.0
2025-01-15 12:48:09.231671	318.2	16.3	-82.7	0.0
2025-01-15 12:48:11.481673	318.5	16.1	-82.5	0.0
2025-01-15 12:48:13.728046	318.8	15.9	-82.6	0.0
2025-01-15 12:48:15.973349	319.1	15.7	-82.9	0.0
2025-01-15 12:48:18.220495	319.5	15.6	-82.8	0.0
2025-01-15 12:48:20.465615	319.8	15.4	-82.7	0.0
2025-01-15 12:48:22.710336	320.1	15.2	-82.1	0.0
2025-01-15 12:48:24.954350	320.4	15.0	-82.6	0.0
2025-01-15 12:48:27.200937	320.7	14.8	-82.5	0.0
2025-01-15 12:48:29.447699	321.0	14.6	-82.8	0.0
2025-01-15 12:48:31.693975	321.3	14.4	-82.7	0.0
2025-01-15 12:48:33.939689	321.6	14.3	-82.5	0.0
2025-01-15 12:48:36.186856	321.9	14.1	-82.1	0.0
2025-01-15 12:48:38.432738	322.2	13.9	-82.3	0.0
2025-01-15 12:48:40.680181	322.4	13.7	-82.6	0.0
2025-01-15 12:48:42.928222	322.7	13.5	-82.0	0.0
2025-01-15 12:48:45.175391	323.0	13.4	-82.1	0.0
2025-01-15 12:48:47.418193	323.3	13.2	-82.4	0.0
2025-01-15 12:48:49.666620	323.5	13.0	-82.8	0.0
2025-01-15 12:48:51.913473	323.8	12.8	-82.3	0.0
2025-01-15 12:48:54.160078	324.1	12.7	-82.4	0.0
2025-01-15 12:48:56.405032	324.3	12.5	-83.2	0.0
2025-01-15 12:48:58.649922	324.6	12.3	-83.0	0.0
2025-01-15 12:49:00.897519	324.8	12.1	-82.9	0.0
2025-01-15 12:49:03.141189	325.1	12.0	-82.9	0.0
2025-01-15 12:49:05.387576	325.3	11.8	-82.7	0.0
2025-01-15 12:49:07.637632	325.6	11.6	-82.6	0.0
2025-01-15 12:49:09.883168	325.8	11.5	-83.0	0.0
2025-01-15 12:49:12.129636	326.1	11.3	-83.0	0.0
2025-01-15 12:49:14.377229	326.3	11.1	-83.2	0.0
2025-01-15 12:49:16.623551	326.5	10.9	-82.7	0.0
2025-01-15 12:49:18.870358	326.8	10.8	-82.9	0.0
2025-01-15 12:49:21.119235	327.0	10.6	-82.7	0.0
2025-01-15 12:49:23.368871	327.2	10.4	-82.3	0.0
2025-01-15 12:49:25.612892	327.5	10.3	-82.5	0.0
2025-01-15 12:49:27.856125	327.7	10.1	-82.7	0.0
#Closed at: 2025-01-15 12:40:03.616829