passes_logs/2025/01/15/planumMaritime01/planumMaritime01__20250115_063426_METOP-B_rec.log

#Pass ID: 20250115_063426_METOP-B
#Satellite: METOP-B
#Configuration: METOP-B
#Start time: 2025-01-15 06:34:31.483904

#LorettStation: 1.0.0 05.05.2024
#Station: planumMaritime01
#Location: 37.49445 lon 55.92918 lat
#TLE: 1 38771U 12049A   25014.12680384  .00000206  00000+0  11403-3 0  9995
#TLE: 2 38771  98.6012  72.3074 0001783  83.0486 277.0894 14.21409549639515

#Time	Az	El	Level	SNR
2025-01-15 06:34:33.636537	27.9	10.2	-82.0	0.0
2025-01-15 06:34:35.885896	28.0	10.3	-81.7	0.0
2025-01-15 06:34:38.131990	28.2	10.5	-81.7	0.0
2025-01-15 06:34:40.377966	28.4	10.7	-81.9	0.0
2025-01-15 06:34:42.623921	28.6	10.9	-82.2	0.0
2025-01-15 06:34:44.867515	28.8	11.1	-81.9	0.0
2025-01-15 06:34:47.113836	28.9	11.3	-81.8	0.0
2025-01-15 06:34:49.357393	29.1	11.4	-82.0	0.0
2025-01-15 06:34:51.601662	29.3	11.6	-82.1	0.0
2025-01-15 06:34:53.847630	29.5	11.8	-81.9	0.0
2025-01-15 06:34:56.092558	29.7	12.0	-82.0	0.0
2025-01-15 06:34:58.339010	29.9	12.2	-81.9	0.0
2025-01-15 06:35:00.587802	30.1	12.4	-82.2	0.0
2025-01-15 06:35:02.834704	30.3	12.6	-82.1	0.0
2025-01-15 06:35:05.080522	30.5	12.8	-82.2	0.0
2025-01-15 06:35:07.326664	30.7	13.0	-82.2	0.0
2025-01-15 06:35:09.573907	30.9	13.2	-82.3	0.0
2025-01-15 06:35:11.819046	31.1	13.4	-82.2	0.0
2025-01-15 06:35:14.062569	31.3	13.6	-82.0	0.0
2025-01-15 06:35:16.307624	31.5	13.8	-82.3	0.0
2025-01-15 06:35:18.551904	31.8	14.0	-82.2	0.0
2025-01-15 06:35:20.796999	32.0	14.2	-82.4	0.0
2025-01-15 06:35:23.042927	32.2	14.4	-82.4	0.0
2025-01-15 06:35:25.288416	32.4	14.6	-82.4	0.0
2025-01-15 06:35:27.535012	32.7	14.8	-82.5	0.0
2025-01-15 06:35:29.779971	32.9	15.0	-82.5	0.0
2025-01-15 06:35:32.028644	33.1	15.2	-82.5	0.0
2025-01-15 06:35:34.273167	33.4	15.4	-82.4	0.0
2025-01-15 06:35:36.521813	33.6	15.6	-82.5	0.0
2025-01-15 06:35:38.767416	33.9	15.8	-82.4	0.0
2025-01-15 06:35:41.012713	34.1	16.0	-82.4	0.0
2025-01-15 06:35:43.261015	34.4	16.3	-82.3	0.0
2025-01-15 06:35:45.509953	34.6	16.5	-82.4	0.0
2025-01-15 06:35:47.753414	34.9	16.7	-82.0	0.0
2025-01-15 06:35:49.998366	35.1	16.9	-82.1	0.0
2025-01-15 06:35:52.245911	35.4	17.1	-82.4	0.0
2025-01-15 06:35:54.493093	35.7	17.4	-82.4	0.0
2025-01-15 06:35:56.738482	36.0	17.6	-82.1	0.0
2025-01-15 06:35:58.984604	36.2	17.8	-82.5	0.0
2025-01-15 06:36:01.228832	36.5	18.0	-82.4	0.0
2025-01-15 06:36:03.474167	36.8	18.3	-82.3	0.0
2025-01-15 06:36:05.718749	37.1	18.5	-82.3	0.0
2025-01-15 06:36:07.963173	37.4	18.7	-82.2	0.0
2025-01-15 06:36:10.211794	37.7	19.0	-82.4	0.0
2025-01-15 06:36:12.457000	38.0	19.2	-82.5	0.0
2025-01-15 06:36:14.704867	38.3	19.4	-82.6	0.0
2025-01-15 06:36:16.950007	38.6	19.7	-82.2	0.0
2025-01-15 06:36:19.193897	39.0	19.9	-82.4	0.0
2025-01-15 06:36:21.441972	39.3	20.2	-82.5	0.0
2025-01-15 06:36:23.687324	39.6	20.4	-82.1	0.0
2025-01-15 06:36:25.932918	39.9	20.6	-82.3	0.0
2025-01-15 06:36:28.177715	40.3	20.9	-82.1	0.0
2025-01-15 06:36:30.425354	40.6	21.1	-82.3	0.0
2025-01-15 06:36:32.668981	41.0	21.4	-82.3	0.0
2025-01-15 06:36:34.915930	41.3	21.6	-82.5	0.0
2025-01-15 06:36:37.159954	41.7	21.9	-82.2	0.0
2025-01-15 06:36:39.405494	42.1	22.1	-82.3	0.0
2025-01-15 06:36:41.651436	42.4	22.4	-82.5	0.0
2025-01-15 06:36:43.898117	42.8	22.6	-82.3	0.0
2025-01-15 06:36:46.146364	43.2	22.9	-82.9	0.0
2025-01-15 06:36:48.390986	43.6	23.2	-82.4	0.0
2025-01-15 06:36:50.634871	44.0	23.4	-82.3	0.0
2025-01-15 06:36:52.879468	44.4	23.7	-82.4	0.0
2025-01-15 06:36:55.124605	44.8	23.9	-82.5	0.0
2025-01-15 06:36:57.372330	45.2	24.2	-82.3	0.0
2025-01-15 06:36:59.621786	45.7	24.5	-82.3	0.0
2025-01-15 06:37:01.866355	46.1	24.7	-82.6	0.0
2025-01-15 06:37:04.109578	46.5	25.0	-82.5	0.0
2025-01-15 06:37:06.354177	47.0	25.3	-82.6	0.0
2025-01-15 06:37:08.604512	47.4	25.5	-82.3	0.0
2025-01-15 06:37:10.850511	47.9	25.8	-82.3	0.0
2025-01-15 06:37:13.097024	48.4	26.1	-82.7	0.0
2025-01-15 06:37:15.343406	48.8	26.3	-82.7	0.0
2025-01-15 06:37:17.587966	49.3	26.6	-82.5	0.0
2025-01-15 06:37:19.834407	49.8	26.9	-82.4	0.0
2025-01-15 06:37:22.080769	50.3	27.2	-82.8	0.0
2025-01-15 06:37:24.328399	50.8	27.4	-82.6	0.0
2025-01-15 06:37:26.576020	51.4	27.7	-82.6	0.0
2025-01-15 06:37:28.831543	51.9	28.0	-82.6	0.0
2025-01-15 06:37:31.076119	52.4	28.2	-82.6	0.0
2025-01-15 06:37:33.323691	53.0	28.5	-82.4	0.0
2025-01-15 06:37:35.569091	53.5	28.8	-82.7	0.0
2025-01-15 06:37:37.817021	54.1	29.1	-82.6	0.0
2025-01-15 06:37:40.061473	54.7	29.3	-82.6	0.0
2025-01-15 06:37:42.308076	55.3	29.6	-82.5	0.0
2025-01-15 06:37:44.552867	55.8	29.9	-82.5	0.0
2025-01-15 06:37:46.797439	56.4	30.2	-82.4	0.0
2025-01-15 06:37:49.043667	57.1	30.4	-82.4	0.0
2025-01-15 06:37:51.290099	57.7	30.7	-82.4	0.0
2025-01-15 06:37:53.538683	58.3	31.0	-82.3	0.0
2025-01-15 06:37:55.784931	59.0	31.2	-82.3	0.0
2025-01-15 06:37:58.031026	59.6	31.5	-82.5	0.0
2025-01-15 06:38:00.280523	60.3	31.8	-82.7	0.0
2025-01-15 06:38:02.525033	61.0	32.0	-82.2	0.0
2025-01-15 06:38:04.772372	61.7	32.3	-82.5	0.0
2025-01-15 06:38:07.019079	62.4	32.5	-82.4	0.0
2025-01-15 06:38:09.263008	63.1	32.8	-82.4	0.0
2025-01-15 06:38:11.507887	63.8	33.0	-82.5	0.0
2025-01-15 06:38:13.753907	64.5	33.3	-82.1	0.0
2025-01-15 06:38:15.999320	65.3	33.5	-82.2	0.0
2025-01-15 06:38:18.245577	66.0	33.8	-82.1	0.0
2025-01-15 06:38:20.491411	66.8	34.0	-82.1	0.0
2025-01-15 06:38:22.736983	67.5	34.2	-82.3	0.0
2025-01-15 06:38:24.981445	68.3	34.5	-82.2	0.0
2025-01-15 06:38:27.228975	69.1	34.7	-82.1	0.0
2025-01-15 06:38:29.474934	69.9	34.9	-82.2	0.0
2025-01-15 06:38:31.723469	70.8	35.1	-82.5	0.0
2025-01-15 06:38:33.972338	71.6	35.3	-82.6	0.0
2025-01-15 06:38:36.218001	72.4	35.6	-82.4	0.0
2025-01-15 06:38:38.462061	73.3	35.8	-82.4	0.0
2025-01-15 06:38:40.710464	74.1	35.9	-82.6	0.0
2025-01-15 06:38:42.958475	75.0	36.1	-82.1	0.0
2025-01-15 06:38:45.205851	75.9	36.3	-82.3	0.0
2025-01-15 06:38:47.450902	76.8	36.5	-82.2	0.0
2025-01-15 06:38:49.695475	77.7	36.7	-82.4	0.0
2025-01-15 06:38:51.945416	78.6	36.8	-82.4	0.0
2025-01-15 06:38:54.192381	79.5	37.0	-82.4	0.0
2025-01-15 06:38:56.439098	80.5	37.1	-82.2	0.0
2025-01-15 06:38:58.687417	81.4	37.3	-82.0	0.0
2025-01-15 06:39:00.931009	82.3	37.4	-82.2	0.0
2025-01-15 06:39:03.178664	83.3	37.5	-82.0	0.0
2025-01-15 06:39:05.424321	84.2	37.6	-82.2	0.0
2025-01-15 06:39:07.671149	85.2	37.8	-82.2	0.0
2025-01-15 06:39:09.920057	86.2	37.9	-82.6	0.0
2025-01-15 06:39:12.169543	87.2	37.9	-82.4	0.0
2025-01-15 06:39:14.414599	88.1	38.0	-82.5	0.0
2025-01-15 06:39:16.657238	89.1	38.1	-82.5	0.0
2025-01-15 06:39:18.901455	90.1	38.2	-82.4	0.0
2025-01-15 06:39:21.148084	91.1	38.2	-82.3	0.0
2025-01-15 06:39:23.392276	92.1	38.3	-82.4	0.0
2025-01-15 06:39:25.641284	93.1	38.3	-82.4	0.0
2025-01-15 06:39:27.888582	94.1	38.3	-82.2	0.0
2025-01-15 06:39:30.131406	95.1	38.3	-82.2	0.0
2025-01-15 06:39:32.377743	96.1	38.3	-82.6	0.0
2025-01-15 06:39:34.623878	97.1	38.3	-82.3	0.0
2025-01-15 06:39:36.873538	98.1	38.3	-82.4	0.0
2025-01-15 06:39:39.117188	99.1	38.3	-82.4	0.0
2025-01-15 06:39:41.360409	100.1	38.3	-82.5	0.0
2025-01-15 06:39:43.609475	101.1	38.2	-82.4	0.0
2025-01-15 06:39:45.854508	102.1	38.2	-82.3	0.0
2025-01-15 06:39:48.099306	103.1	38.1	-82.6	0.0
2025-01-15 06:39:50.345590	104.1	38.0	-82.6	0.0
2025-01-15 06:39:52.591246	105.1	37.9	-82.4	0.0
2025-01-15 06:39:54.836372	106.1	37.9	-82.5	0.0
2025-01-15 06:39:57.083292	107.0	37.8	-82.5	0.0
2025-01-15 06:39:59.327476	108.0	37.7	-82.2	0.0
2025-01-15 06:40:01.574077	109.0	37.5	-82.2	0.0
2025-01-15 06:40:03.823332	109.9	37.4	-82.2	0.0
2025-01-15 06:40:06.065717	110.8	37.3	-82.3	0.0
2025-01-15 06:40:08.311677	111.8	37.1	-82.0	0.0
2025-01-15 06:40:10.557888	112.7	37.0	-82.2	0.0
2025-01-15 06:40:12.805516	113.6	36.8	-82.3	0.0
2025-01-15 06:40:15.051437	114.6	36.7	-82.3	0.0
2025-01-15 06:40:17.298414	115.5	36.5	-82.4	0.0
2025-01-15 06:40:19.546523	116.4	36.3	-82.4	0.0
2025-01-15 06:40:21.790585	117.2	36.1	-82.2	0.0
2025-01-15 06:40:24.036520	118.1	36.0	-82.3	0.0
2025-01-15 06:40:26.279943	119.0	35.8	-82.2	0.0
2025-01-15 06:40:28.524739	119.8	35.6	-82.3	0.0
2025-01-15 06:40:30.773997	120.7	35.3	-82.2	0.0
2025-01-15 06:40:33.022495	121.5	35.1	-82.4	0.0
2025-01-15 06:40:35.267452	122.3	34.9	-82.6	0.0
2025-01-15 06:40:37.513388	123.1	34.7	-82.4	0.0
2025-01-15 06:40:39.755175	123.9	34.5	-82.6	0.0
2025-01-15 06:40:41.998501	124.7	34.2	-82.6	0.0
2025-01-15 06:40:44.243503	125.5	34.0	-82.9	0.0
2025-01-15 06:40:46.490087	126.3	33.8	-82.8	0.0
2025-01-15 06:40:48.737408	127.0	33.5	-82.7	0.0
2025-01-15 06:40:50.982221	127.8	33.3	-82.9	0.0
2025-01-15 06:40:53.226045	128.5	33.0	-82.9	0.0
2025-01-15 06:40:55.475145	129.2	32.8	-82.8	0.0
2025-01-15 06:40:57.721873	129.9	32.5	-82.7	0.0
2025-01-15 06:40:59.971198	130.6	32.3	-82.8	0.0
2025-01-15 06:41:02.216391	131.3	32.0	-82.6	0.0
2025-01-15 06:41:04.460303	132.0	31.7	-82.9	0.0
2025-01-15 06:41:06.705039	132.7	31.5	-82.6	0.0
2025-01-15 06:41:08.951274	133.3	31.2	-82.8	0.0
2025-01-15 06:41:11.197452	134.0	30.9	-82.7	0.0
2025-01-15 06:41:13.444145	134.6	30.7	-82.8	0.0
2025-01-15 06:41:15.689574	135.3	30.4	-82.5	0.0
2025-01-15 06:41:17.932459	135.9	30.1	-82.7	0.0
2025-01-15 06:41:20.181327	136.5	29.9	-82.9	0.0
2025-01-15 06:41:22.426522	137.1	29.6	-82.8	0.0
2025-01-15 06:41:24.674433	137.7	29.3	-82.7	0.0
2025-01-15 06:41:26.923368	138.2	29.0	-82.9	0.0
2025-01-15 06:41:29.172333	138.8	28.8	-82.8	0.0
2025-01-15 06:41:31.419765	139.4	28.5	-82.8	0.0
2025-01-15 06:41:33.670048	139.9	28.2	-82.6	0.0
2025-01-15 06:41:35.918384	140.5	27.9	-82.7	0.0
2025-01-15 06:41:38.164599	141.0	27.7	-82.7	0.0
2025-01-15 06:41:40.410280	141.5	27.4	-82.8	0.0
2025-01-15 06:41:42.656670	142.0	27.1	-82.9	0.0
2025-01-15 06:41:44.901330	142.5	26.8	-82.7	0.0
2025-01-15 06:41:47.147271	143.0	26.6	-82.8	0.0
2025-01-15 06:41:49.394625	143.5	26.3	-82.7	0.0
2025-01-15 06:41:51.642976	144.0	26.0	-82.7	0.0
2025-01-15 06:41:53.886594	144.5	25.7	-82.5	0.0
2025-01-15 06:41:56.132167	144.9	25.5	-82.8	0.0
2025-01-15 06:41:58.379069	145.4	25.2	-82.9	0.0
2025-01-15 06:42:00.627029	145.8	24.9	-82.8	0.0
2025-01-15 06:42:02.873934	146.3	24.7	-82.9	0.0
2025-01-15 06:42:05.118918	146.7	24.4	-82.7	0.0
2025-01-15 06:42:07.364375	147.1	24.1	-82.7	0.0
2025-01-15 06:42:09.610120	147.5	23.9	-82.9	0.0
2025-01-15 06:42:11.853934	148.0	23.6	-82.8	0.0
2025-01-15 06:42:14.103331	148.4	23.3	-82.9	0.0
2025-01-15 06:42:16.349919	148.8	23.1	-82.9	0.0
2025-01-15 06:42:18.595618	149.2	22.8	-82.6	0.0
2025-01-15 06:42:20.841985	149.5	22.6	-82.7	0.0
2025-01-15 06:42:23.085937	149.9	22.3	-82.5	0.0
2025-01-15 06:42:25.331132	150.3	22.1	-82.8	0.0
2025-01-15 06:42:27.576318	150.7	21.8	-82.9	0.0
2025-01-15 06:42:29.822712	151.0	21.6	-82.8	0.0
2025-01-15 06:42:32.069380	151.4	21.3	-83.1	0.0
2025-01-15 06:42:34.315737	151.7	21.0	-83.0	0.0
2025-01-15 06:42:36.561274	152.1	20.8	-82.8	0.0
2025-01-15 06:42:38.808936	152.4	20.6	-82.7	0.0
2025-01-15 06:42:41.053276	152.8	20.3	-82.7	0.0
2025-01-15 06:42:43.302495	153.1	20.1	-82.7	0.0
2025-01-15 06:42:45.547693	153.4	19.8	-82.8	0.0
2025-01-15 06:42:47.794955	153.7	19.6	-82.8	0.0
2025-01-15 06:42:50.041463	154.0	19.3	-82.7	0.0
2025-01-15 06:42:52.284300	154.4	19.1	-82.8	0.0
2025-01-15 06:42:54.532375	154.7	18.9	-82.8	0.0
2025-01-15 06:42:56.780583	155.0	18.6	-82.7	0.0
2025-01-15 06:42:59.026974	155.3	18.4	-82.8	0.0
2025-01-15 06:43:01.272330	155.6	18.2	-82.9	0.0
2025-01-15 06:43:03.515194	155.8	17.9	-82.9	0.0
2025-01-15 06:43:05.759931	156.1	17.7	-82.9	0.0
2025-01-15 06:43:08.006347	156.4	17.5	-82.8	0.0
2025-01-15 06:43:10.250585	156.7	17.2	-82.8	0.0
2025-01-15 06:43:12.495772	156.9	17.0	-82.8	0.0
2025-01-15 06:43:14.740823	157.2	16.8	-82.6	0.0
2025-01-15 06:43:16.986095	157.5	16.6	-82.9	0.0
2025-01-15 06:43:19.229544	157.7	16.4	-82.8	0.0
2025-01-15 06:43:21.476333	158.0	16.1	-82.9	0.0
2025-01-15 06:43:23.722200	158.3	15.9	-82.7	0.0
2025-01-15 06:43:25.966369	158.5	15.7	-82.8	0.0
2025-01-15 06:43:28.213350	158.7	15.5	-82.6	0.0
2025-01-15 06:43:30.458902	159.0	15.3	-82.9	0.0
2025-01-15 06:43:32.706000	159.2	15.1	-82.7	0.0
2025-01-15 06:43:34.951120	159.5	14.9	-82.6	0.0
2025-01-15 06:43:37.196808	159.7	14.6	-82.8	0.0
2025-01-15 06:43:39.442861	159.9	14.4	-82.2	0.0
2025-01-15 06:43:41.688342	160.2	14.2	-82.7	0.0
2025-01-15 06:43:43.933113	160.4	14.0	-82.7	0.0
2025-01-15 06:43:46.178354	160.6	13.8	-82.9	0.0
2025-01-15 06:43:48.422889	160.8	13.6	-82.7	0.0
2025-01-15 06:43:50.669927	161.0	13.4	-82.8	0.0
2025-01-15 06:43:52.915453	161.2	13.2	-82.9	0.0
2025-01-15 06:43:55.161826	161.4	13.0	-82.7	0.0
2025-01-15 06:43:57.410376	161.7	12.8	-83.0	0.0
2025-01-15 06:43:59.655600	161.9	12.6	-82.7	0.0
2025-01-15 06:44:01.899015	162.1	12.4	-82.7	0.0
2025-01-15 06:44:04.145623	162.3	12.2	-82.8	0.0
2025-01-15 06:44:06.395569	162.5	12.0	-83.0	0.0
2025-01-15 06:44:08.646079	162.6	11.9	-82.8	0.0
2025-01-15 06:44:10.894766	162.8	11.7	-82.9	0.0
2025-01-15 06:44:13.140382	163.0	11.5	-83.0	0.0
2025-01-15 06:44:15.387457	163.2	11.3	-82.9	0.0
2025-01-15 06:44:17.635730	163.4	11.1	-82.8	0.0
2025-01-15 06:44:19.881641	163.6	10.9	-83.0	0.0
2025-01-15 06:44:22.128300	163.8	10.7	-83.0	0.0
2025-01-15 06:44:24.376844	163.9	10.5	-83.1	0.0
2025-01-15 06:44:26.620226	164.1	10.4	-83.0	0.0
2025-01-15 06:44:28.863952	164.3	10.2	-82.9	0.0
#Closed at: 2025-01-15 06:34:26.486683