passes_logs/2025/01/15/planumMaritime01/planumMaritime01__20250115_180415_METEOR-M2_3_rec.log

#Pass ID: 20250115_180415_METEOR-M2 3
#Satellite: METEOR-M2 3
#Configuration: METEOR-M2 3
#Start time: 2025-01-15 18:04:20.007268

#LorettStation: 1.0.0 05.05.2024
#Station: planumMaritime01
#Location: 37.49445 lon 55.92918 lat
#TLE: 1 57166U 23091A   25015.11335980  .00000040  00000+0  36643-4 0  9992
#TLE: 2 57166  98.6849  73.5750 0003221 223.8450 136.2474 14.23969247 80787

#Time	Az	El	Level	SNR
2025-01-15 18:04:22.170616	171.1	10.2	-80.2	0.0
2025-01-15 18:04:24.418562	171.2	10.4	-80.1	0.0
2025-01-15 18:04:26.664538	171.3	10.6	-80.3	0.0
2025-01-15 18:04:28.908207	171.3	10.8	-80.4	0.0
2025-01-15 18:04:31.153584	171.4	11.0	-80.0	0.0
2025-01-15 18:04:33.399674	171.4	11.2	-80.6	0.0
2025-01-15 18:04:35.643681	171.5	11.4	-80.6	0.0
2025-01-15 18:04:37.889968	171.5	11.6	-80.6	0.0
2025-01-15 18:04:40.136242	171.6	11.8	-80.6	0.0
2025-01-15 18:04:42.381170	171.7	12.0	-80.1	0.0
2025-01-15 18:04:44.631071	171.7	12.2	-80.6	0.0
2025-01-15 18:04:46.876012	171.8	12.5	-80.7	0.0
2025-01-15 18:04:49.120976	171.9	12.7	-80.5	0.0
2025-01-15 18:04:51.365778	171.9	12.9	-80.4	0.0
2025-01-15 18:04:53.610697	172.0	13.1	-80.2	0.0
2025-01-15 18:04:55.855295	172.1	13.3	-80.3	0.0
2025-01-15 18:04:58.101082	172.1	13.6	-80.3	0.0
2025-01-15 18:05:00.348117	172.2	13.8	-80.3	0.0
2025-01-15 18:05:02.593645	172.3	14.0	-80.5	0.0
2025-01-15 18:05:04.839160	172.3	14.3	-80.4	0.0
2025-01-15 18:05:07.081490	172.4	14.5	-80.7	0.0
2025-01-15 18:05:09.327299	172.5	14.7	-80.6	0.0
2025-01-15 18:05:11.573005	172.6	15.0	-81.0	0.0
2025-01-15 18:05:13.817574	172.6	15.2	-80.5	0.0
2025-01-15 18:05:16.062531	172.7	15.4	-80.8	0.0
2025-01-15 18:05:18.308045	172.8	15.7	-80.6	0.0
2025-01-15 18:05:20.555891	172.9	15.9	-80.3	0.0
2025-01-15 18:05:22.802932	172.9	16.2	-80.6	0.0
2025-01-15 18:05:25.050968	173.0	16.4	-80.4	0.0
2025-01-15 18:05:27.299820	173.1	16.7	-80.3	0.0
2025-01-15 18:05:29.547895	173.2	17.0	-80.5	0.0
2025-01-15 18:05:31.794142	173.3	17.2	-80.5	0.0
2025-01-15 18:05:34.040808	173.4	17.5	-80.4	0.0
2025-01-15 18:05:36.288082	173.5	17.8	-80.6	0.0
2025-01-15 18:05:38.532895	173.5	18.0	-80.9	0.0
2025-01-15 18:05:40.778521	173.6	18.3	-81.2	0.0
2025-01-15 18:05:43.021775	173.7	18.6	-80.9	0.0
2025-01-15 18:05:45.271339	173.8	18.8	-81.4	0.0
2025-01-15 18:05:47.517189	173.9	19.1	-81.0	0.0
2025-01-15 18:05:49.763078	174.0	19.4	-80.9	0.0
2025-01-15 18:05:52.008452	174.1	19.7	-80.4	0.0
2025-01-15 18:05:54.254061	174.2	20.0	-81.0	0.0
2025-01-15 18:05:56.500723	174.3	20.3	-81.2	0.0
2025-01-15 18:05:58.745139	174.4	20.6	-80.8	0.0
2025-01-15 18:06:00.988782	174.5	20.9	-80.9	0.0
2025-01-15 18:06:03.234611	174.6	21.2	-80.8	0.0
2025-01-15 18:06:05.480163	174.8	21.5	-80.5	0.0
2025-01-15 18:06:07.726342	174.9	21.8	-80.8	0.0
2025-01-15 18:06:09.970843	175.0	22.1	-81.0	0.0
2025-01-15 18:06:12.217748	175.1	22.5	-80.9	0.0
2025-01-15 18:06:14.463873	175.2	22.8	-81.1	0.0
2025-01-15 18:06:16.711397	175.3	23.1	-80.6	0.0
2025-01-15 18:06:18.956004	175.5	23.4	-80.9	0.0
2025-01-15 18:06:21.203154	175.6	23.8	-80.8	0.0
2025-01-15 18:06:23.447881	175.7	24.1	-80.6	0.0
2025-01-15 18:06:25.693986	175.9	24.5	-81.0	0.0
2025-01-15 18:06:27.941701	176.0	24.8	-81.0	0.0
2025-01-15 18:06:30.187213	176.1	25.2	-80.7	0.0
2025-01-15 18:06:32.437313	176.3	25.5	-80.8	0.0
2025-01-15 18:06:34.683659	176.4	25.9	-80.8	0.0
2025-01-15 18:06:36.934552	176.6	26.3	-80.7	0.0
2025-01-15 18:06:39.180275	176.7	26.6	-80.8	0.0
2025-01-15 18:06:41.429683	176.9	27.0	-80.3	0.0
2025-01-15 18:06:43.675760	177.0	27.4	-80.7	0.0
2025-01-15 18:06:45.922146	177.2	27.8	-80.6	0.0
2025-01-15 18:06:48.169680	177.3	28.2	-80.6	0.0
2025-01-15 18:06:50.412931	177.5	28.6	-80.9	0.0
2025-01-15 18:06:52.658101	177.7	29.0	-80.8	0.0
2025-01-15 18:06:54.906393	177.9	29.4	-80.7	0.0
2025-01-15 18:06:57.154361	178.0	29.8	-80.9	0.0
2025-01-15 18:06:59.399954	178.2	30.3	-80.7	0.0
2025-01-15 18:07:01.648425	178.4	30.7	-80.1	0.0
2025-01-15 18:07:03.892663	178.6	31.1	-80.5	0.0
2025-01-15 18:07:06.138494	178.8	31.6	-80.5	0.0
2025-01-15 18:07:08.384974	179.0	32.0	-80.3	0.0
2025-01-15 18:07:10.630792	179.2	32.5	-80.3	0.0
2025-01-15 18:07:12.879394	179.5	32.9	-80.3	0.0
2025-01-15 18:07:15.126607	179.7	33.4	-80.1	0.0
2025-01-15 18:07:17.374182	179.9	33.9	-79.7	0.0
2025-01-15 18:07:19.618925	180.2	34.4	-79.8	0.0
2025-01-15 18:07:21.864441	180.4	34.9	-79.6	0.0
2025-01-15 18:07:24.106888	180.6	35.4	-79.7	0.0
2025-01-15 18:07:26.355998	180.9	35.9	-79.5	0.0
2025-01-15 18:07:28.605312	181.2	36.4	-79.4	0.0
2025-01-15 18:07:30.852569	181.5	36.9	-79.3	0.0
2025-01-15 18:07:33.096592	181.7	37.4	-79.2	1.1
2025-01-15 18:07:35.340841	182.0	38.0	-79.3	0.6
2025-01-15 18:07:37.586906	182.3	38.5	-79.2	0.0
2025-01-15 18:07:39.834263	182.6	39.1	-79.0	0.5
2025-01-15 18:07:42.080149	183.0	39.6	-78.8	0.0
2025-01-15 18:07:44.333785	183.3	40.2	-78.9	1.0
2025-01-15 18:07:46.579778	183.7	40.8	-78.5	0.0
2025-01-15 18:07:48.826687	184.0	41.4	-78.7	0.0
2025-01-15 18:07:51.072642	184.4	41.9	-78.5	0.0
2025-01-15 18:07:53.320685	184.8	42.5	-78.5	0.0
2025-01-15 18:07:55.567801	185.2	43.2	-78.4	0.0
2025-01-15 18:07:57.816339	185.6	43.8	-78.2	0.0
2025-01-15 18:08:00.061531	186.0	44.4	-78.2	0.0
2025-01-15 18:08:02.307723	186.5	45.0	-78.4	1.5
2025-01-15 18:08:04.554541	186.9	45.7	-78.1	1.6
2025-01-15 18:08:06.800224	187.4	46.3	-78.2	0.0
2025-01-15 18:08:09.046325	187.9	47.0	-78.0	0.0
2025-01-15 18:08:11.291453	188.5	47.7	-78.0	0.0
2025-01-15 18:08:13.535881	189.0	48.3	-77.7	0.0
2025-01-15 18:08:15.783143	189.6	49.0	-77.8	0.0
2025-01-15 18:08:18.029444	190.2	49.7	-77.7	0.0
2025-01-15 18:08:20.275176	190.8	50.4	-77.7	0.0
2025-01-15 18:08:22.523942	191.5	51.1	-77.4	0.0
2025-01-15 18:08:24.768543	192.2	51.8	-77.8	0.0
2025-01-15 18:08:27.015161	192.9	52.5	-77.6	0.0
2025-01-15 18:08:29.260805	193.6	53.3	-77.7	0.0
2025-01-15 18:08:31.508570	194.4	54.0	-78.0	0.0
2025-01-15 18:08:33.754887	195.3	54.7	-78.2	0.0
2025-01-15 18:08:35.997884	196.2	55.5	-78.2	0.0
2025-01-15 18:08:38.241879	197.1	56.2	-78.4	0.0
2025-01-15 18:08:40.484582	198.1	56.9	-78.3	0.0
2025-01-15 18:08:42.730832	199.1	57.7	-78.8	0.0
2025-01-15 18:08:44.974969	200.2	58.4	-78.9	0.0
2025-01-15 18:08:47.220355	201.4	59.2	-79.3	0.0
2025-01-15 18:08:49.466199	202.6	59.9	-79.5	0.0
2025-01-15 18:08:51.716495	203.9	60.7	-79.8	0.0
2025-01-15 18:08:53.962053	205.2	61.4	-80.2	0.0
2025-01-15 18:08:56.206434	206.7	62.1	-80.2	0.0
2025-01-15 18:08:58.453683	208.2	62.8	-80.4	0.0
2025-01-15 18:09:00.696999	209.9	63.5	-80.4	0.0
2025-01-15 18:09:02.942690	211.6	64.2	-80.6	0.0
2025-01-15 18:09:05.187640	213.5	64.9	-80.7	0.0
2025-01-15 18:09:07.436484	215.4	65.6	-80.2	0.0
2025-01-15 18:09:09.682304	217.5	66.2	-79.6	0.0
2025-01-15 18:09:11.928604	219.7	66.8	-79.5	0.2
2025-01-15 18:09:14.176439	222.0	67.4	-79.3	2.1
2025-01-15 18:09:16.422561	224.4	68.0	-79.1	3.3
2025-01-15 18:09:18.666985	227.0	68.5	-78.6	2.2
2025-01-15 18:09:20.917577	229.7	69.0	-78.4	2.4
2025-01-15 18:09:23.164669	232.6	69.4	-77.9	2.9
2025-01-15 18:09:25.410799	235.6	69.8	-77.9	2.0
2025-01-15 18:09:27.656082	238.6	70.1	-78.2	1.6
2025-01-15 18:09:29.901686	241.8	70.4	-78.0	0.0
2025-01-15 18:09:32.147582	245.1	70.6	-78.2	0.0
2025-01-15 18:09:34.394330	248.5	70.8	-78.2	0.0
2025-01-15 18:09:36.638051	251.9	70.9	-78.3	0.0
2025-01-15 18:09:38.886203	255.3	70.9	-78.5	0.0
2025-01-15 18:09:41.133525	258.7	70.9	-78.2	0.0
2025-01-15 18:09:43.377899	262.1	70.8	-78.3	0.0
2025-01-15 18:09:45.624728	265.5	70.7	-78.7	0.0
2025-01-15 18:09:47.868095	268.8	70.5	-79.0	0.0
2025-01-15 18:09:50.112981	272.0	70.2	-79.3	0.0
2025-01-15 18:09:52.358211	275.1	69.9	-80.0	0.0
2025-01-15 18:09:54.604068	278.1	69.5	-80.3	0.0
2025-01-15 18:09:56.853194	280.9	69.1	-80.9	0.0
2025-01-15 18:09:59.098883	283.7	68.6	-80.9	0.0
2025-01-15 18:10:01.343761	286.3	68.1	-81.2	0.0
2025-01-15 18:10:03.588527	288.8	67.5	-80.5	0.0
2025-01-15 18:10:05.836449	291.1	67.0	-80.9	0.0
2025-01-15 18:10:08.080611	293.3	66.4	-80.5	0.0
2025-01-15 18:10:10.326386	295.4	65.7	-80.5	0.0
2025-01-15 18:10:12.574332	297.4	65.1	-80.2	0.0
2025-01-15 18:10:14.821568	299.3	64.4	-80.2	0.0
2025-01-15 18:10:17.067218	301.0	63.7	-80.0	0.0
2025-01-15 18:10:19.313774	302.7	63.0	-79.9	0.0
2025-01-15 18:10:21.559648	304.2	62.3	-79.9	0.0
2025-01-15 18:10:23.800833	305.7	61.6	-79.7	0.0
2025-01-15 18:10:26.048723	307.1	60.8	-79.6	0.0
2025-01-15 18:10:28.293205	308.4	60.1	-79.8	0.0
2025-01-15 18:10:30.541068	309.6	59.4	-79.7	0.0
2025-01-15 18:10:32.788089	310.8	58.6	-80.2	0.0
2025-01-15 18:10:35.036846	311.9	57.9	-80.1	0.0
2025-01-15 18:10:37.285106	313.0	57.1	-80.2	0.0
2025-01-15 18:10:39.528088	314.0	56.4	-80.4	0.0
2025-01-15 18:10:41.773934	314.9	55.7	-80.3	0.0
2025-01-15 18:10:44.020886	315.8	54.9	-80.4	0.0
2025-01-15 18:10:46.268026	316.6	54.2	-80.8	0.0
2025-01-15 18:10:48.515537	317.5	53.5	-80.7	0.0
2025-01-15 18:10:50.760795	318.2	52.7	-80.7	0.0
2025-01-15 18:10:53.008898	318.9	52.0	-80.9	0.0
2025-01-15 18:10:55.255309	319.6	51.3	-80.6	0.0
2025-01-15 18:10:57.505965	320.3	50.6	-80.4	0.0
2025-01-15 18:10:59.749493	320.9	49.9	-80.9	0.0
2025-01-15 18:11:01.994710	321.6	49.2	-80.7	0.0
2025-01-15 18:11:04.238447	322.1	48.6	-80.5	0.0
2025-01-15 18:11:06.487085	322.7	47.9	-80.8	0.0
2025-01-15 18:11:08.734050	323.2	47.2	-80.7	0.0
2025-01-15 18:11:10.978793	323.7	46.6	-80.5	0.0
2025-01-15 18:11:13.223317	324.2	45.9	-80.5	0.0
2025-01-15 18:11:15.468463	324.7	45.3	-80.3	0.0
2025-01-15 18:11:17.712720	325.2	44.6	-80.8	0.0
2025-01-15 18:11:19.959319	325.6	44.0	-80.9	0.0
2025-01-15 18:11:22.206648	326.0	43.4	-80.8	0.0
2025-01-15 18:11:24.453171	326.4	42.8	-80.8	0.0
2025-01-15 18:11:26.697910	326.8	42.2	-80.5	0.0
2025-01-15 18:11:28.941872	327.2	41.6	-80.5	0.0
2025-01-15 18:11:31.190767	327.5	41.0	-80.9	0.0
2025-01-15 18:11:33.437488	327.9	40.4	-80.7	0.0
2025-01-15 18:11:35.682582	328.2	39.9	-81.0	0.0
2025-01-15 18:11:37.929789	328.6	39.3	-80.6	0.0
2025-01-15 18:11:40.175989	328.9	38.7	-80.9	0.0
2025-01-15 18:11:42.424480	329.2	38.2	-81.2	0.0
2025-01-15 18:11:44.669743	329.5	37.7	-80.6	0.0
2025-01-15 18:11:46.915564	329.8	37.1	-81.1	0.0
2025-01-15 18:11:49.162376	330.0	36.6	-81.2	0.0
2025-01-15 18:11:51.410242	330.3	36.1	-80.9	0.0
2025-01-15 18:11:53.656584	330.6	35.6	-80.8	0.0
2025-01-15 18:11:55.903885	330.8	35.1	-81.1	0.0
2025-01-15 18:11:58.150328	331.1	34.6	-81.1	0.0
2025-01-15 18:12:00.396916	331.3	34.1	-81.3	0.0
2025-01-15 18:12:02.642984	331.6	33.6	-81.2	0.0
2025-01-15 18:12:04.889718	331.8	33.2	-81.3	0.0
2025-01-15 18:12:07.131100	332.0	32.7	-81.0	0.0
2025-01-15 18:12:09.377740	332.2	32.3	-81.1	0.0
2025-01-15 18:12:11.625270	332.4	31.8	-81.0	0.0
2025-01-15 18:12:13.868574	332.6	31.4	-81.1	0.0
2025-01-15 18:12:16.114165	332.8	30.9	-81.1	0.0
2025-01-15 18:12:18.359629	333.0	30.5	-81.1	0.0
2025-01-15 18:12:20.605745	333.2	30.1	-81.3	0.0
2025-01-15 18:12:22.853281	333.4	29.7	-81.2	0.0
2025-01-15 18:12:25.095834	333.6	29.2	-81.2	0.0
2025-01-15 18:12:27.342780	333.7	28.8	-81.3	0.0
2025-01-15 18:12:29.587084	333.9	28.4	-81.4	0.0
2025-01-15 18:12:31.836610	334.1	28.0	-81.4	0.0
2025-01-15 18:12:34.081041	334.2	27.7	-81.5	0.0
2025-01-15 18:12:36.326917	334.4	27.3	-80.6	0.0
2025-01-15 18:12:38.572899	334.6	26.9	-80.9	0.0
2025-01-15 18:12:40.820827	334.7	26.5	-81.4	0.0
2025-01-15 18:12:43.069741	334.9	26.1	-81.1	0.0
2025-01-15 18:12:45.315801	335.0	25.8	-81.1	0.0
2025-01-15 18:12:47.562958	335.2	25.4	-80.9	0.0
2025-01-15 18:12:49.809760	335.3	25.1	-81.0	0.0
2025-01-15 18:12:52.055337	335.4	24.7	-81.3	0.0
2025-01-15 18:12:54.299912	335.6	24.4	-81.2	0.0
2025-01-15 18:12:56.542923	335.7	24.0	-81.3	0.0
2025-01-15 18:12:58.789935	335.8	23.7	-81.3	0.0
2025-01-15 18:13:01.034899	335.9	23.4	-81.0	0.0
2025-01-15 18:13:03.284222	336.1	23.0	-81.4	0.0
2025-01-15 18:13:05.531030	336.2	22.7	-81.6	0.0
2025-01-15 18:13:07.778553	336.3	22.4	-81.6	0.0
2025-01-15 18:13:10.022557	336.4	22.1	-81.8	0.0
2025-01-15 18:13:12.266311	336.5	21.7	-81.4	0.0
2025-01-15 18:13:14.515064	336.7	21.4	-81.1	0.0
2025-01-15 18:13:16.762781	336.8	21.1	-81.2	0.0
2025-01-15 18:13:19.009742	336.9	20.8	-81.4	0.0
2025-01-15 18:13:21.256466	337.0	20.5	-81.4	0.0
2025-01-15 18:13:23.500906	337.1	20.2	-81.3	0.0
2025-01-15 18:13:25.745389	337.2	19.9	-81.0	0.0
2025-01-15 18:13:27.992001	337.3	19.7	-81.5	0.0
2025-01-15 18:13:30.235950	337.4	19.4	-81.7	0.0
2025-01-15 18:13:32.483999	337.5	19.1	-81.4	0.0
2025-01-15 18:13:34.730785	337.6	18.8	-81.6	0.0
2025-01-15 18:13:36.977025	337.7	18.5	-81.6	0.0
2025-01-15 18:13:39.221802	337.8	18.3	-81.9	0.0
2025-01-15 18:13:41.469572	337.9	18.0	-81.1	0.0
2025-01-15 18:13:43.715955	338.0	17.7	-81.5	0.0
2025-01-15 18:13:45.959682	338.0	17.5	-81.3	0.0
2025-01-15 18:13:48.206806	338.1	17.2	-81.2	0.0
2025-01-15 18:13:50.453203	338.2	16.9	-81.3	0.0
2025-01-15 18:13:52.699717	338.3	16.7	-81.5	0.0
2025-01-15 18:13:54.949208	338.4	16.4	-81.1	0.0
2025-01-15 18:13:57.195841	338.5	16.2	-81.3	0.0
2025-01-15 18:13:59.442812	338.5	15.9	-81.4	0.0
2025-01-15 18:14:01.688512	338.6	15.7	-81.4	0.0
2025-01-15 18:14:03.933514	338.7	15.4	-81.5	0.0
2025-01-15 18:14:06.179883	338.8	15.2	-81.5	0.0
2025-01-15 18:14:08.424100	338.9	15.0	-81.4	0.0
2025-01-15 18:14:10.668596	338.9	14.7	-81.6	0.0
2025-01-15 18:14:12.914120	339.0	14.5	-81.2	0.0
2025-01-15 18:14:15.158988	339.1	14.3	-81.2	0.0
2025-01-15 18:14:17.407299	339.2	14.0	-81.5	0.0
2025-01-15 18:14:19.652210	339.2	13.8	-81.2	0.0
2025-01-15 18:14:21.900242	339.3	13.6	-81.6	0.0
2025-01-15 18:14:24.144527	339.4	13.4	-81.1	0.0
2025-01-15 18:14:26.387841	339.4	13.1	-81.5	0.0
2025-01-15 18:14:28.633831	339.5	12.9	-80.9	0.0
2025-01-15 18:14:30.881646	339.6	12.7	-81.4	0.0
2025-01-15 18:14:33.125928	339.6	12.5	-81.3	0.0
2025-01-15 18:14:35.370176	339.7	12.3	-80.9	0.0
2025-01-15 18:14:37.617382	339.8	12.1	-81.3	0.0
2025-01-15 18:14:39.865284	339.8	11.9	-81.4	0.0
2025-01-15 18:14:42.111394	339.9	11.7	-81.4	0.0
2025-01-15 18:14:44.356270	340.0	11.4	-81.5	0.0
2025-01-15 18:14:46.600568	340.0	11.2	-81.5	0.0
2025-01-15 18:14:48.847896	340.1	11.0	-81.3	0.0
2025-01-15 18:14:51.094274	340.1	10.8	-81.5	0.0
2025-01-15 18:14:53.339900	340.2	10.6	-81.4	0.0
2025-01-15 18:14:55.584782	340.3	10.4	-81.3	0.0
2025-01-15 18:14:57.832235	340.3	10.2	-81.2	0.0
2025-01-15 18:15:00.079459	340.4	10.0	-81.2	0.0
#Closed at: 2025-01-15 18:04:15.011257