passes_logs/2025/01/15/planumMaritime01/planumMaritime01__20250115_210527_NOAA_18_rec.log

#Pass ID: 20250115_210527_NOAA 18
#Satellite: NOAA 18
#Configuration: NOAA 18
#Start time: 2025-01-15 21:05:32.701928

#LorettStation: 1.0.0 05.05.2024
#Station: planumMaritime01
#Location: 37.49445 lon 55.92918 lat
#TLE: 1 28654U 05018A   25015.16278545  .00000300  00000+0  18295-3 0  9990
#TLE: 2 28654  98.8567  96.2156 0014367 178.7074 181.4138 14.13486503 13201

#Time	Az	El	Level	SNR
2025-01-15 21:05:34.871598	230.8	10.1	-80.4	0.0
2025-01-15 21:05:35.993062	231.0	10.2	-80.6	0.0
2025-01-15 21:05:37.115851	231.1	10.2	-80.2	0.0
2025-01-15 21:05:38.237899	231.3	10.3	-80.6	0.0
2025-01-15 21:05:39.362228	231.4	10.4	-80.2	0.0
2025-01-15 21:05:40.486247	231.6	10.4	-80.4	0.0
2025-01-15 21:05:41.609254	231.8	10.5	-80.2	0.0
2025-01-15 21:05:42.732237	231.9	10.6	-80.6	0.0
2025-01-15 21:05:43.855133	232.1	10.6	-80.2	0.0
2025-01-15 21:05:44.977134	232.2	10.7	-80.3	0.0
2025-01-15 21:05:46.100307	232.4	10.7	-80.7	0.0
2025-01-15 21:05:47.223847	232.5	10.8	-80.4	0.0
2025-01-15 21:05:48.348405	232.7	10.9	-80.7	0.0
2025-01-15 21:05:49.473070	232.9	10.9	-80.7	0.0
2025-01-15 21:05:50.595911	233.0	11.0	-80.4	0.0
2025-01-15 21:05:51.716767	233.2	11.1	-80.6	0.0
2025-01-15 21:05:52.839142	233.3	11.1	-80.9	0.0
2025-01-15 21:05:53.963297	233.5	11.2	-80.7	0.0
2025-01-15 21:05:55.086467	233.7	11.2	-80.8	0.0
2025-01-15 21:05:56.211221	233.8	11.3	-80.6	0.0
2025-01-15 21:05:57.334755	234.0	11.4	-80.7	0.0
2025-01-15 21:05:58.458075	234.2	11.4	-80.4	0.0
2025-01-15 21:05:59.579235	234.3	11.5	-80.5	0.0
2025-01-15 21:06:00.702585	234.5	11.5	-80.3	0.0
2025-01-15 21:06:01.823854	234.7	11.6	-81.1	0.0
2025-01-15 21:06:02.946267	234.8	11.7	-80.7	0.0
2025-01-15 21:06:04.069284	235.0	11.7	-80.9	0.0
2025-01-15 21:06:05.191897	235.2	11.8	-81.0	0.0
2025-01-15 21:06:06.314005	235.3	11.8	-80.4	0.0
2025-01-15 21:06:07.435874	235.5	11.9	-80.8	0.0
2025-01-15 21:06:08.559346	235.7	12.0	-80.8	0.0
2025-01-15 21:06:09.681556	235.8	12.0	-80.8	0.0
2025-01-15 21:06:10.803218	236.0	12.1	-80.6	0.0
2025-01-15 21:06:11.926110	236.2	12.2	-80.5	0.0
2025-01-15 21:06:13.049363	236.4	12.2	-80.6	0.0
2025-01-15 21:06:14.171095	236.5	12.3	-80.5	0.0
2025-01-15 21:06:15.296611	236.7	12.3	-80.6	0.0
2025-01-15 21:06:16.419061	236.9	12.4	-80.7	0.0
2025-01-15 21:06:17.540451	237.1	12.5	-80.5	0.0
2025-01-15 21:06:18.661868	237.2	12.5	-80.7	0.0
2025-01-15 21:06:19.785799	237.4	12.6	-80.6	0.0
2025-01-15 21:06:20.907008	237.6	12.6	-80.7	0.0
2025-01-15 21:06:22.031667	237.8	12.7	-80.9	0.0
2025-01-15 21:06:23.155165	238.0	12.8	-80.7	0.0
2025-01-15 21:06:24.277922	238.1	12.8	-81.1	0.0
2025-01-15 21:06:25.400545	238.3	12.9	-80.6	0.0
2025-01-15 21:06:26.521773	238.5	12.9	-80.8	0.0
2025-01-15 21:06:27.644292	238.7	13.0	-80.6	0.0
2025-01-15 21:06:28.766936	238.9	13.0	-80.8	0.0
2025-01-15 21:06:29.888780	239.1	13.1	-81.0	0.0
2025-01-15 21:06:31.012803	239.2	13.2	-81.0	0.0
2025-01-15 21:06:32.135222	239.4	13.2	-80.5	0.0
2025-01-15 21:06:33.258435	239.6	13.3	-80.7	0.0
2025-01-15 21:06:34.379771	239.8	13.3	-80.7	0.0
2025-01-15 21:06:35.503151	240.0	13.4	-80.8	0.0
2025-01-15 21:06:36.625413	240.2	13.5	-80.9	0.0
2025-01-15 21:06:37.746542	240.4	13.5	-80.9	0.0
2025-01-15 21:06:38.870295	240.6	13.6	-80.5	0.0
2025-01-15 21:06:39.990816	240.7	13.6	-80.8	0.0
2025-01-15 21:06:41.113977	240.9	13.7	-80.7	0.0
2025-01-15 21:06:42.235573	241.1	13.7	-81.0	0.0
2025-01-15 21:06:43.357834	241.3	13.8	-80.7	0.0
2025-01-15 21:06:44.480523	241.5	13.9	-80.9	0.0
2025-01-15 21:06:45.602245	241.7	13.9	-80.8	0.0
2025-01-15 21:06:46.724271	241.9	14.0	-80.7	0.0
2025-01-15 21:06:47.848503	242.1	14.0	-81.0	0.0
2025-01-15 21:06:48.972271	242.3	14.1	-81.0	0.0
2025-01-15 21:06:50.095827	242.5	14.1	-81.2	0.0
2025-01-15 21:06:51.218795	242.7	14.2	-81.0	0.0
2025-01-15 21:06:52.342366	242.9	14.3	-81.2	0.0
2025-01-15 21:06:53.464960	243.1	14.3	-81.1	0.0
2025-01-15 21:06:54.587089	243.3	14.4	-80.8	0.0
2025-01-15 21:06:55.710510	243.5	14.4	-80.9	0.0
2025-01-15 21:06:56.832605	243.7	14.5	-81.0	0.0
2025-01-15 21:06:57.953422	243.9	14.5	-80.5	0.0
2025-01-15 21:06:59.075533	244.1	14.6	-80.9	0.0
2025-01-15 21:07:00.198094	244.3	14.6	-80.8	0.0
2025-01-15 21:07:01.320526	244.5	14.7	-80.9	0.0
2025-01-15 21:07:02.443422	244.7	14.7	-80.9	0.0
2025-01-15 21:07:03.567663	244.9	14.8	-81.0	0.0
2025-01-15 21:07:04.691087	245.1	14.8	-80.8	0.0
2025-01-15 21:07:05.814701	245.3	14.9	-81.2	0.0
2025-01-15 21:07:06.937558	245.5	15.0	-81.0	0.0
2025-01-15 21:07:08.060276	245.7	15.0	-81.2	0.0
2025-01-15 21:07:09.183747	245.9	15.1	-81.3	0.0
2025-01-15 21:07:10.306984	246.2	15.1	-81.4	0.0
2025-01-15 21:07:11.431741	246.4	15.2	-81.3	0.0
2025-01-15 21:07:12.553113	246.6	15.2	-81.3	0.0
2025-01-15 21:07:13.674126	246.8	15.3	-81.4	0.0
2025-01-15 21:07:14.799956	247.0	15.3	-81.2	0.0
2025-01-15 21:07:15.923421	247.2	15.4	-81.3	0.0
2025-01-15 21:07:17.045662	247.4	15.4	-81.1	0.0
2025-01-15 21:07:18.169088	247.6	15.5	-81.3	0.0
2025-01-15 21:07:19.292921	247.9	15.5	-81.2	0.0
2025-01-15 21:07:20.415673	248.1	15.6	-81.3	0.0
2025-01-15 21:07:21.541089	248.3	15.6	-81.3	0.0
2025-01-15 21:07:22.665277	248.5	15.7	-81.2	0.0
2025-01-15 21:07:23.790690	248.7	15.7	-81.1	0.0
2025-01-15 21:07:24.915309	248.9	15.8	-81.3	0.0
2025-01-15 21:07:26.038435	249.2	15.8	-81.2	0.0
2025-01-15 21:07:27.161394	249.4	15.9	-80.9	0.0
2025-01-15 21:07:28.285632	249.6	15.9	-81.1	0.0
2025-01-15 21:07:29.408021	249.8	16.0	-81.0	0.0
2025-01-15 21:07:30.528383	250.1	16.0	-81.2	0.0
2025-01-15 21:07:31.653045	250.3	16.0	-81.2	0.0
2025-01-15 21:07:32.773775	250.5	16.1	-81.0	0.0
2025-01-15 21:07:33.896577	250.7	16.1	-81.1	0.0
2025-01-15 21:07:35.020868	250.9	16.2	-81.0	0.0
2025-01-15 21:07:36.144378	251.2	16.2	-80.8	0.0
2025-01-15 21:07:37.267281	251.4	16.3	-81.0	0.0
2025-01-15 21:07:38.391587	251.6	16.3	-81.2	0.0
2025-01-15 21:07:39.515645	251.9	16.4	-81.1	0.0
2025-01-15 21:07:40.638047	252.1	16.4	-81.3	0.0
2025-01-15 21:07:41.760244	252.3	16.4	-81.2	0.0
2025-01-15 21:07:42.884634	252.5	16.5	-81.1	0.0
2025-01-15 21:07:44.006797	252.8	16.5	-80.9	0.0
2025-01-15 21:07:45.130729	253.0	16.6	-81.3	0.0
2025-01-15 21:07:46.256250	253.2	16.6	-81.4	0.0
2025-01-15 21:07:47.379250	253.5	16.7	-81.2	0.0
2025-01-15 21:07:48.501404	253.7	16.7	-81.2	0.0
2025-01-15 21:07:49.624824	253.9	16.7	-81.2	0.0
2025-01-15 21:07:50.746901	254.2	16.8	-81.3	0.0
2025-01-15 21:07:51.869032	254.4	16.8	-81.4	0.0
2025-01-15 21:07:52.989532	254.6	16.9	-81.3	0.0
2025-01-15 21:07:54.112881	254.9	16.9	-81.3	0.0
2025-01-15 21:07:55.236443	255.1	16.9	-81.3	0.0
2025-01-15 21:07:56.359895	255.3	17.0	-81.4	0.0
2025-01-15 21:07:57.484778	255.6	17.0	-81.4	0.0
2025-01-15 21:07:58.608007	255.8	17.1	-81.3	0.0
2025-01-15 21:07:59.729445	256.1	17.1	-81.2	0.0
2025-01-15 21:08:00.853428	256.3	17.1	-81.3	0.0
2025-01-15 21:08:01.976046	256.5	17.2	-81.3	0.0
2025-01-15 21:08:03.101052	256.8	17.2	-81.4	0.0
2025-01-15 21:08:04.224170	257.0	17.2	-81.5	0.0
2025-01-15 21:08:05.346941	257.3	17.3	-81.6	0.0
2025-01-15 21:08:06.473457	257.5	17.3	-81.3	0.0
2025-01-15 21:08:07.594950	257.7	17.3	-81.3	0.0
2025-01-15 21:08:08.717061	258.0	17.4	-81.0	0.0
2025-01-15 21:08:09.841166	258.2	17.4	-80.9	0.0
2025-01-15 21:08:10.962771	258.5	17.4	-81.2	0.0
2025-01-15 21:08:12.086163	258.7	17.5	-81.1	0.0
2025-01-15 21:08:13.207786	259.0	17.5	-80.9	0.0
2025-01-15 21:08:14.330432	259.2	17.5	-80.9	0.0
2025-01-15 21:08:15.452257	259.4	17.6	-81.2	0.0
2025-01-15 21:08:16.576193	259.7	17.6	-81.1	0.0
2025-01-15 21:08:17.699444	259.9	17.6	-81.5	0.0
2025-01-15 21:08:18.823025	260.2	17.7	-81.2	0.0
2025-01-15 21:08:19.946327	260.4	17.7	-81.3	0.0
2025-01-15 21:08:21.070858	260.7	17.7	-81.2	0.0
2025-01-15 21:08:22.193743	260.9	17.7	-81.1	0.0
2025-01-15 21:08:23.317143	261.2	17.8	-81.4	0.0
2025-01-15 21:08:24.440467	261.4	17.8	-81.4	0.0
2025-01-15 21:08:25.563418	261.7	17.8	-81.4	0.0
2025-01-15 21:08:26.686553	261.9	17.8	-81.2	0.0
2025-01-15 21:08:27.810434	262.2	17.9	-81.5	0.0
2025-01-15 21:08:28.934854	262.4	17.9	-81.6	0.0
2025-01-15 21:08:30.057974	262.7	17.9	-81.0	0.0
2025-01-15 21:08:31.182896	262.9	17.9	-81.6	0.0
2025-01-15 21:08:32.306978	263.2	18.0	-81.7	0.0
2025-01-15 21:08:33.429997	263.4	18.0	-81.7	0.0
2025-01-15 21:08:34.552084	263.7	18.0	-81.6	0.0
2025-01-15 21:08:35.674419	263.9	18.0	-81.6	0.0
2025-01-15 21:08:36.797683	264.2	18.1	-81.5	0.0
2025-01-15 21:08:37.919215	264.5	18.1	-81.6	0.0
2025-01-15 21:08:39.039868	264.7	18.1	-81.5	0.0
2025-01-15 21:08:40.162869	265.0	18.1	-81.0	0.0
2025-01-15 21:08:41.287697	265.2	18.1	-81.5	0.0
2025-01-15 21:08:42.409546	265.5	18.2	-81.4	0.0
2025-01-15 21:08:43.531591	265.7	18.2	-81.1	0.0
2025-01-15 21:08:44.653978	266.0	18.2	-81.5	0.0
2025-01-15 21:08:45.777072	266.2	18.2	-81.5	0.0
2025-01-15 21:08:46.900569	266.5	18.2	-81.4	0.0
2025-01-15 21:08:48.023726	266.8	18.2	-81.4	0.0
2025-01-15 21:08:49.146709	267.0	18.3	-80.9	0.0
2025-01-15 21:08:50.271420	267.3	18.3	-81.5	0.0
2025-01-15 21:08:51.391952	267.5	18.3	-81.5	0.0
2025-01-15 21:08:52.514647	267.8	18.3	-81.7	0.0
2025-01-15 21:08:53.639234	268.0	18.3	-81.5	0.0
2025-01-15 21:08:54.764066	268.3	18.3	-81.4	0.0
2025-01-15 21:08:55.888323	268.6	18.3	-81.4	0.0
2025-01-15 21:08:57.011533	268.8	18.4	-81.1	0.0
2025-01-15 21:08:58.134144	269.1	18.4	-81.4	0.0
2025-01-15 21:08:59.258797	269.3	18.4	-81.3	0.0
2025-01-15 21:09:00.383014	269.6	18.4	-81.2	0.0
2025-01-15 21:09:01.506974	269.9	18.4	-81.7	0.0
2025-01-15 21:09:02.628278	270.1	18.4	-81.4	0.0
2025-01-15 21:09:03.754212	270.4	18.4	-81.3	0.0
2025-01-15 21:09:04.877678	270.6	18.4	-81.3	0.0
2025-01-15 21:09:06.000109	270.9	18.4	-81.3	0.0
2025-01-15 21:09:07.121403	271.1	18.4	-81.5	0.0
2025-01-15 21:09:08.245407	271.4	18.4	-81.5	0.0
2025-01-15 21:09:09.367660	271.7	18.4	-81.4	0.0
2025-01-15 21:09:10.492674	271.9	18.4	-81.4	0.0
2025-01-15 21:09:11.616559	272.2	18.4	-81.6	0.0
2025-01-15 21:09:12.739701	272.4	18.5	-81.2	0.0
2025-01-15 21:09:13.863520	272.7	18.5	-81.2	0.0
2025-01-15 21:09:14.990139	273.0	18.5	-81.4	0.0
2025-01-15 21:09:16.115480	273.2	18.5	-81.4	0.0
2025-01-15 21:09:17.239444	273.5	18.5	-81.0	0.0
2025-01-15 21:09:18.363147	273.8	18.5	-81.6	0.0
2025-01-15 21:09:19.486539	274.0	18.5	-81.3	0.0
2025-01-15 21:09:20.608430	274.3	18.5	-81.4	0.0
2025-01-15 21:09:21.729846	274.5	18.5	-81.5	0.0
2025-01-15 21:09:22.854509	274.8	18.5	-81.7	0.0
2025-01-15 21:09:23.978040	275.1	18.5	-81.4	0.0
2025-01-15 21:09:25.099811	275.3	18.5	-81.2	0.0
2025-01-15 21:09:26.223846	275.6	18.4	-81.7	0.0
2025-01-15 21:09:27.347602	275.8	18.4	-81.6	0.0
2025-01-15 21:09:28.471018	276.1	18.4	-81.3	0.0
2025-01-15 21:09:29.593285	276.4	18.4	-81.4	0.0
2025-01-15 21:09:30.717208	276.6	18.4	-81.5	0.0
2025-01-15 21:09:31.839699	276.9	18.4	-81.7	0.0
2025-01-15 21:09:32.964938	277.1	18.4	-81.6	0.0
2025-01-15 21:09:34.087720	277.4	18.4	-81.4	0.0
2025-01-15 21:09:35.212296	277.7	18.4	-81.4	0.0
2025-01-15 21:09:36.335898	277.9	18.4	-81.3	0.0
2025-01-15 21:09:37.456961	278.2	18.4	-81.8	0.0
2025-01-15 21:09:38.579702	278.4	18.4	-81.6	0.0
2025-01-15 21:09:39.702667	278.7	18.4	-81.3	0.0
2025-01-15 21:09:40.824381	278.9	18.4	-81.5	0.0
2025-01-15 21:09:41.947890	279.2	18.3	-81.2	0.0
2025-01-15 21:09:43.071594	279.5	18.3	-81.5	0.0
2025-01-15 21:09:44.197907	279.7	18.3	-81.4	0.0
2025-01-15 21:09:45.319742	280.0	18.3	-81.4	0.0
2025-01-15 21:09:46.441378	280.2	18.3	-81.2	0.0
2025-01-15 21:09:47.563796	280.5	18.3	-81.2	0.0
2025-01-15 21:09:48.686497	280.7	18.3	-81.2	0.0
2025-01-15 21:09:49.807476	281.0	18.2	-81.4	0.0
2025-01-15 21:09:50.929457	281.3	18.2	-81.1	0.0
2025-01-15 21:09:52.055025	281.5	18.2	-81.5	0.0
2025-01-15 21:09:53.176502	281.8	18.2	-81.4	0.0
2025-01-15 21:09:54.299546	282.0	18.2	-81.1	0.0
2025-01-15 21:09:55.421143	282.3	18.2	-81.2	0.0
2025-01-15 21:09:56.545033	282.5	18.1	-81.3	0.0
2025-01-15 21:09:57.668778	282.8	18.1	-81.1	0.0
2025-01-15 21:09:58.793678	283.0	18.1	-81.6	0.0
2025-01-15 21:09:59.915175	283.3	18.1	-81.4	0.0
2025-01-15 21:10:01.038154	283.6	18.1	-81.3	0.0
2025-01-15 21:10:02.162430	283.8	18.0	-81.4	0.0
2025-01-15 21:10:03.283903	284.1	18.0	-81.6	0.0
2025-01-15 21:10:04.408192	284.3	18.0	-81.6	0.0
2025-01-15 21:10:05.533185	284.6	18.0	-81.7	0.0
2025-01-15 21:10:06.656753	284.8	18.0	-81.7	0.0
2025-01-15 21:10:07.779012	285.1	17.9	-81.8	0.0
2025-01-15 21:10:08.903014	285.3	17.9	-81.6	0.0
2025-01-15 21:10:10.026514	285.6	17.9	-81.6	0.0
2025-01-15 21:10:11.150522	285.8	17.9	-81.6	0.0
2025-01-15 21:10:12.273439	286.1	17.8	-81.5	0.0
2025-01-15 21:10:13.397202	286.3	17.8	-81.6	0.0
2025-01-15 21:10:14.519637	286.6	17.8	-81.8	0.0
2025-01-15 21:10:15.643510	286.8	17.7	-81.8	0.0
2025-01-15 21:10:16.765674	287.1	17.7	-81.6	0.0
2025-01-15 21:10:17.887673	287.3	17.7	-81.6	0.0
2025-01-15 21:10:19.010854	287.6	17.7	-81.7	0.0
2025-01-15 21:10:20.134257	287.8	17.6	-81.8	0.0
2025-01-15 21:10:21.256286	288.1	17.6	-81.5	0.0
2025-01-15 21:10:22.379376	288.3	17.6	-81.9	0.0
2025-01-15 21:10:23.503653	288.6	17.5	-81.4	0.0
2025-01-15 21:10:24.625624	288.8	17.5	-81.5	0.0
2025-01-15 21:10:25.751779	289.0	17.5	-81.5	0.0
2025-01-15 21:10:26.875009	289.3	17.4	-81.6	0.0
2025-01-15 21:10:27.996290	289.5	17.4	-81.2	0.0
2025-01-15 21:10:29.118776	289.8	17.4	-81.2	0.0
2025-01-15 21:10:30.241956	290.0	17.3	-81.4	0.0
2025-01-15 21:10:31.369043	290.3	17.3	-81.6	0.0
2025-01-15 21:10:32.492811	290.5	17.3	-81.5	0.0
2025-01-15 21:10:33.616751	290.7	17.2	-81.7	0.0
2025-01-15 21:10:34.740207	291.0	17.2	-81.5	0.0
2025-01-15 21:10:35.864613	291.2	17.2	-81.4	0.0
2025-01-15 21:10:36.990685	291.5	17.1	-81.4	0.0
2025-01-15 21:10:38.111930	291.7	17.1	-81.6	0.0
2025-01-15 21:10:39.235245	291.9	17.1	-81.5	0.0
2025-01-15 21:10:40.357028	292.2	17.0	-81.8	0.0
2025-01-15 21:10:41.479661	292.4	17.0	-81.6	0.0
2025-01-15 21:10:42.603611	292.6	16.9	-81.7	0.0
2025-01-15 21:10:43.728114	292.9	16.9	-81.7	0.0
2025-01-15 21:10:44.850743	293.1	16.9	-81.7	0.0
2025-01-15 21:10:45.971630	293.4	16.8	-81.8	0.0
2025-01-15 21:10:47.094929	293.6	16.8	-81.5	0.0
2025-01-15 21:10:48.218102	293.8	16.8	-81.6	0.0
2025-01-15 21:10:49.340680	294.1	16.7	-81.8	0.0
2025-01-15 21:10:50.464761	294.3	16.7	-81.7	0.0
2025-01-15 21:10:51.589428	294.5	16.6	-81.6	0.0
2025-01-15 21:10:52.712510	294.7	16.6	-81.6	0.0
2025-01-15 21:10:53.838593	295.0	16.5	-81.4	0.0
2025-01-15 21:10:54.962123	295.2	16.5	-81.7	0.0
2025-01-15 21:10:56.083369	295.4	16.5	-81.2	0.0
2025-01-15 21:10:57.207981	295.7	16.4	-81.3	0.0
2025-01-15 21:10:58.328682	295.9	16.4	-81.3	0.0
2025-01-15 21:10:59.450958	296.1	16.3	-81.5	0.0
2025-01-15 21:11:00.574849	296.3	16.3	-81.3	0.0
2025-01-15 21:11:01.698491	296.6	16.2	-81.3	0.0
2025-01-15 21:11:02.823680	296.8	16.2	-81.2	0.0
2025-01-15 21:11:03.948085	297.0	16.1	-81.3	0.0
2025-01-15 21:11:05.072743	297.2	16.1	-81.0	0.0
2025-01-15 21:11:06.197208	297.5	16.1	-81.2	0.0
2025-01-15 21:11:07.318817	297.7	16.0	-81.4	0.0
2025-01-15 21:11:08.443343	297.9	16.0	-81.3	0.0
2025-01-15 21:11:09.567683	298.1	15.9	-81.3	0.0
2025-01-15 21:11:10.689791	298.4	15.9	-81.5	0.0
2025-01-15 21:11:11.813138	298.6	15.8	-81.2	0.0
2025-01-15 21:11:12.935993	298.8	15.8	-81.4	0.0
2025-01-15 21:11:14.058878	299.0	15.7	-81.5	0.0
2025-01-15 21:11:15.181534	299.2	15.7	-81.0	0.0
2025-01-15 21:11:16.306568	299.5	15.6	-81.5	0.0
2025-01-15 21:11:17.433768	299.7	15.6	-81.3	0.0
2025-01-15 21:11:18.556222	299.9	15.5	-81.5	0.0
2025-01-15 21:11:19.680378	300.1	15.5	-81.2	0.0
2025-01-15 21:11:20.802703	300.3	15.4	-81.4	0.0
2025-01-15 21:11:21.925257	300.5	15.4	-81.4	0.0
2025-01-15 21:11:23.051083	300.7	15.3	-81.5	0.0
2025-01-15 21:11:24.174535	301.0	15.3	-81.3	0.0
2025-01-15 21:11:25.297415	301.2	15.2	-81.4	0.0
2025-01-15 21:11:26.420745	301.4	15.2	-81.0	0.0
2025-01-15 21:11:27.543587	301.6	15.1	-81.5	0.0
2025-01-15 21:11:28.665502	301.8	15.1	-81.5	0.0
2025-01-15 21:11:29.789020	302.0	15.0	-81.5	0.0
2025-01-15 21:11:30.911663	302.2	15.0	-81.2	0.0
2025-01-15 21:11:32.033921	302.4	14.9	-81.5	0.0
2025-01-15 21:11:33.157266	302.6	14.9	-81.6	0.0
2025-01-15 21:11:34.279362	302.8	14.8	-81.4	0.0
2025-01-15 21:11:35.404836	303.0	14.8	-81.4	0.0
2025-01-15 21:11:36.528173	303.2	14.7	-81.4	0.0
2025-01-15 21:11:37.651407	303.4	14.7	-81.3	0.0
2025-01-15 21:11:38.772726	303.7	14.6	-81.4	0.0
2025-01-15 21:11:39.895665	303.9	14.5	-81.1	0.0
2025-01-15 21:11:41.020729	304.1	14.5	-81.3	0.0
2025-01-15 21:11:42.144104	304.3	14.4	-81.5	0.0
2025-01-15 21:11:43.266967	304.5	14.4	-81.4	0.0
2025-01-15 21:11:44.387999	304.7	14.3	-81.1	0.0
2025-01-15 21:11:45.510357	304.9	14.3	-81.3	0.0
2025-01-15 21:11:46.633775	305.1	14.2	-81.4	0.0
2025-01-15 21:11:47.755135	305.3	14.2	-81.4	0.0
2025-01-15 21:11:48.878801	305.4	14.1	-81.4	0.0
2025-01-15 21:11:49.999787	305.6	14.0	-81.4	0.0
2025-01-15 21:11:51.122629	305.8	14.0	-81.3	0.0
2025-01-15 21:11:52.245386	306.0	13.9	-81.2	0.0
2025-01-15 21:11:53.366806	306.2	13.9	-81.1	0.0
2025-01-15 21:11:54.489536	306.4	13.8	-81.6	0.0
2025-01-15 21:11:55.610866	306.6	13.8	-81.6	0.0
2025-01-15 21:11:56.736532	306.8	13.7	-81.7	0.0
2025-01-15 21:11:57.861299	307.0	13.7	-81.2	0.0
2025-01-15 21:11:58.984868	307.2	13.6	-81.4	0.0
2025-01-15 21:12:00.106585	307.4	13.5	-81.7	0.0
2025-01-15 21:12:01.231223	307.6	13.5	-81.5	0.0
2025-01-15 21:12:02.356595	307.8	13.4	-81.7	0.0
2025-01-15 21:12:03.478882	307.9	13.4	-81.6	0.0
2025-01-15 21:12:04.601966	308.1	13.3	-81.5	0.0
2025-01-15 21:12:05.724303	308.3	13.2	-81.6	0.0
2025-01-15 21:12:06.849797	308.5	13.2	-81.6	0.0
2025-01-15 21:12:07.972852	308.7	13.1	-81.6	0.0
2025-01-15 21:12:09.093775	308.9	13.1	-81.6	0.0
2025-01-15 21:12:10.216797	309.1	13.0	-81.3	0.0
2025-01-15 21:12:11.339109	309.2	13.0	-81.6	0.0
2025-01-15 21:12:12.465727	309.4	12.9	-81.6	0.0
2025-01-15 21:12:13.588201	309.6	12.8	-81.5	0.0
2025-01-15 21:12:14.712215	309.8	12.8	-81.4	0.0
2025-01-15 21:12:15.837330	310.0	12.7	-81.8	0.0
2025-01-15 21:12:16.959046	310.1	12.7	-81.7	0.0
2025-01-15 21:12:18.081766	310.3	12.6	-81.7	0.0
2025-01-15 21:12:19.205376	310.5	12.5	-81.5	0.0
2025-01-15 21:12:20.326206	310.7	12.5	-81.5	0.0
2025-01-15 21:12:21.448001	310.9	12.4	-81.7	0.0
2025-01-15 21:12:22.574771	311.0	12.4	-81.6	0.0
2025-01-15 21:12:23.698926	311.2	12.3	-81.2	0.0
2025-01-15 21:12:24.821282	311.4	12.2	-81.6	0.0
2025-01-15 21:12:25.945097	311.6	12.2	-81.9	0.0
2025-01-15 21:12:27.068515	311.7	12.1	-81.7	0.0
2025-01-15 21:12:28.194342	311.9	12.1	-81.7	0.0
2025-01-15 21:12:29.317049	312.1	12.0	-82.0	0.0
2025-01-15 21:12:30.440374	312.2	11.9	-81.8	0.0
2025-01-15 21:12:31.561656	312.4	11.9	-81.6	0.0
2025-01-15 21:12:32.684520	312.6	11.8	-81.8	0.0
2025-01-15 21:12:33.807572	312.8	11.8	-81.8	0.0
2025-01-15 21:12:34.929877	312.9	11.7	-81.8	0.0
2025-01-15 21:12:36.054320	313.1	11.6	-81.8	0.0
2025-01-15 21:12:37.177554	313.3	11.6	-81.8	0.0
2025-01-15 21:12:38.300921	313.4	11.5	-81.7	0.0
2025-01-15 21:12:39.423721	313.6	11.5	-81.9	0.0
2025-01-15 21:12:40.546878	313.8	11.4	-81.5	0.0
2025-01-15 21:12:41.670157	313.9	11.3	-81.8	0.0
2025-01-15 21:12:42.796249	314.1	11.3	-81.6	0.0
2025-01-15 21:12:43.919892	314.2	11.2	-81.7	0.0
2025-01-15 21:12:45.042792	314.4	11.1	-81.3	0.0
2025-01-15 21:12:46.165452	314.6	11.1	-81.4	0.0
2025-01-15 21:12:47.289846	314.7	11.0	-81.5	0.0
2025-01-15 21:12:48.414158	314.9	11.0	-81.5	0.0
2025-01-15 21:12:49.536971	315.1	10.9	-81.7	0.0
2025-01-15 21:12:50.659494	315.2	10.8	-81.6	0.0
2025-01-15 21:12:51.781633	315.4	10.8	-81.5	0.0
2025-01-15 21:12:52.905271	315.5	10.7	-81.4	0.0
2025-01-15 21:12:54.028204	315.7	10.7	-81.5	0.0
2025-01-15 21:12:55.152631	315.8	10.6	-81.5	0.0
2025-01-15 21:12:56.275975	316.0	10.5	-81.4	0.0
2025-01-15 21:12:57.400918	316.2	10.5	-81.4	0.0
2025-01-15 21:12:58.524686	316.3	10.4	-81.6	0.0
2025-01-15 21:12:59.647919	316.5	10.3	-81.6	0.0
2025-01-15 21:13:00.769815	316.6	10.3	-81.3	0.0
2025-01-15 21:13:01.892539	316.8	10.2	-81.4	0.0
2025-01-15 21:13:03.016991	316.9	10.2	-81.6	0.0
2025-01-15 21:13:04.140590	317.1	10.1	-81.7	0.0
2025-01-15 21:13:05.262295	317.2	10.0	-81.7	0.0
#Closed at: 2025-01-15 21:05:27.704853