passes_logs/2025/01/15/planumMaritime01/planumMaritime01__20250115_185742_NOAA_19_rec.log

#Pass ID: 20250115_185742_NOAA 19
#Satellite: NOAA 19
#Configuration: NOAA 19
#Start time: 2025-01-15 18:57:47.475871

#LorettStation: 1.0.0 05.05.2024
#Station: planumMaritime01
#Location: 37.49445 lon 55.92918 lat
#TLE: 1 33591U 09005A   25015.14570653  .00000261  00000+0  16322-3 0  9994
#TLE: 2 33591  99.0196  78.9093 0014467  57.1425 303.1137 14.13259366821569

#Time	Az	El	Level	SNR
2025-01-15 18:57:49.637716	191.2	10.2	-80.3	0.0
2025-01-15 18:57:51.882953	191.4	10.4	-80.5	0.0
2025-01-15 18:57:54.129668	191.5	10.5	-80.2	0.0
2025-01-15 18:57:56.378955	191.7	10.7	-80.2	0.0
2025-01-15 18:57:58.624536	191.9	10.9	-80.2	0.0
2025-01-15 18:58:00.869503	192.0	11.1	-80.3	0.0
2025-01-15 18:58:03.116381	192.2	11.3	-80.4	0.0
2025-01-15 18:58:05.362763	192.4	11.5	-80.2	0.0
2025-01-15 18:58:07.608521	192.5	11.7	-79.7	0.0
2025-01-15 18:58:09.855790	192.7	11.9	-80.3	0.0
2025-01-15 18:58:12.101984	192.9	12.1	-80.1	0.0
2025-01-15 18:58:14.347858	193.0	12.3	-80.2	0.0
2025-01-15 18:58:16.594289	193.2	12.4	-79.9	0.0
2025-01-15 18:58:18.841483	193.4	12.6	-80.7	0.0
2025-01-15 18:58:21.089658	193.6	12.8	-80.5	0.0
2025-01-15 18:58:23.334608	193.8	13.0	-80.5	0.0
2025-01-15 18:58:25.583801	193.9	13.2	-80.6	0.0
2025-01-15 18:58:27.829085	194.1	13.5	-80.7	0.0
2025-01-15 18:58:30.077523	194.3	13.7	-80.8	0.0
2025-01-15 18:58:32.326676	194.5	13.9	-80.6	0.0
2025-01-15 18:58:34.577626	194.7	14.1	-80.9	0.0
2025-01-15 18:58:36.823320	194.9	14.3	-80.7	0.0
2025-01-15 18:58:39.068172	195.1	14.5	-80.7	0.0
2025-01-15 18:58:41.317671	195.3	14.7	-80.8	0.0
2025-01-15 18:58:43.565769	195.5	14.9	-80.6	0.0
2025-01-15 18:58:45.809478	195.7	15.1	-80.9	0.0
2025-01-15 18:58:48.059990	195.9	15.4	-80.6	0.0
2025-01-15 18:58:50.306610	196.1	15.6	-80.9	0.0
2025-01-15 18:58:52.555919	196.4	15.8	-80.8	0.0
2025-01-15 18:58:54.801514	196.6	16.0	-80.5	0.0
2025-01-15 18:58:57.046196	196.8	16.2	-80.3	0.0
2025-01-15 18:58:59.291985	197.0	16.5	-80.8	0.0
2025-01-15 18:59:01.537362	197.3	16.7	-80.8	0.0
2025-01-15 18:59:03.784680	197.5	16.9	-80.3	0.0
2025-01-15 18:59:06.028465	197.7	17.1	-80.7	0.0
2025-01-15 18:59:08.276742	198.0	17.4	-81.0	0.0
2025-01-15 18:59:10.523611	198.2	17.6	-81.0	0.0
2025-01-15 18:59:12.772236	198.5	17.8	-81.0	0.0
2025-01-15 18:59:15.018746	198.7	18.1	-81.0	0.0
2025-01-15 18:59:17.262035	199.0	18.3	-80.8	0.0
2025-01-15 18:59:19.509123	199.2	18.6	-80.5	0.0
2025-01-15 18:59:21.758412	199.5	18.8	-80.9	0.0
2025-01-15 18:59:24.002130	199.8	19.0	-80.8	0.0
2025-01-15 18:59:26.247090	200.0	19.3	-80.7	0.0
2025-01-15 18:59:28.492149	200.3	19.5	-80.9	0.0
2025-01-15 18:59:30.738840	200.6	19.8	-80.5	0.0
2025-01-15 18:59:32.985680	200.9	20.0	-80.8	0.0
2025-01-15 18:59:35.232339	201.2	20.3	-80.6	0.0
2025-01-15 18:59:37.479504	201.5	20.5	-80.5	0.0
2025-01-15 18:59:39.726445	201.8	20.8	-80.7	0.0
2025-01-15 18:59:41.971579	202.1	21.1	-80.6	0.0
2025-01-15 18:59:44.220325	202.4	21.3	-80.5	0.0
2025-01-15 18:59:46.467575	202.7	21.6	-80.6	0.0
2025-01-15 18:59:48.717202	203.0	21.9	-80.7	0.0
2025-01-15 18:59:50.961644	203.3	22.1	-80.9	0.0
2025-01-15 18:59:53.209999	203.7	22.4	-80.4	0.0
2025-01-15 18:59:55.456648	204.0	22.7	-80.9	0.0
2025-01-15 18:59:57.705455	204.3	22.9	-80.8	0.0
2025-01-15 18:59:59.954817	204.7	23.2	-80.6	0.0
2025-01-15 19:00:02.199104	205.0	23.5	-80.8	0.0
2025-01-15 19:00:04.448274	205.4	23.8	-80.6	0.0
2025-01-15 19:00:06.696338	205.8	24.0	-80.8	0.0
2025-01-15 19:00:08.941172	206.1	24.3	-80.8	0.0
2025-01-15 19:00:11.188021	206.5	24.6	-81.1	0.0
2025-01-15 19:00:13.435717	206.9	24.9	-80.6	0.0
2025-01-15 19:00:15.684335	207.3	25.2	-80.7	0.0
2025-01-15 19:00:17.929025	207.7	25.5	-80.6	0.0
2025-01-15 19:00:20.173682	208.1	25.7	-80.5	0.0
2025-01-15 19:00:22.418303	208.5	26.0	-81.0	0.0
2025-01-15 19:00:24.661607	208.9	26.3	-80.4	0.0
2025-01-15 19:00:26.907361	209.4	26.6	-80.8	0.0
2025-01-15 19:00:29.154498	209.8	26.9	-80.7	0.0
2025-01-15 19:00:31.401263	210.2	27.2	-80.3	0.0
2025-01-15 19:00:33.646671	210.7	27.5	-80.9	0.0
2025-01-15 19:00:35.893531	211.2	27.8	-80.5	0.0
2025-01-15 19:00:38.139238	211.6	28.1	-80.4	0.0
2025-01-15 19:00:40.387817	212.1	28.4	-80.8	0.0
2025-01-15 19:00:42.635607	212.6	28.7	-80.8	0.0
2025-01-15 19:00:44.881348	213.1	29.0	-80.9	0.0
2025-01-15 19:00:47.130371	213.6	29.3	-80.6	0.0
2025-01-15 19:00:49.377790	214.1	29.6	-81.0	0.0
2025-01-15 19:00:51.623452	214.6	29.9	-80.6	0.0
2025-01-15 19:00:53.872070	215.2	30.2	-80.5	0.0
2025-01-15 19:00:56.121552	215.7	30.6	-81.1	0.0
2025-01-15 19:00:58.368099	216.3	30.9	-80.9	0.0
2025-01-15 19:01:00.614636	216.8	31.2	-80.9	0.0
2025-01-15 19:01:02.859631	217.4	31.5	-80.3	0.0
2025-01-15 19:01:05.108771	218.0	31.8	-81.0	0.0
2025-01-15 19:01:07.354121	218.6	32.1	-80.8	0.0
2025-01-15 19:01:09.599258	219.2	32.4	-80.8	0.0
2025-01-15 19:01:11.847625	219.8	32.7	-81.0	0.0
2025-01-15 19:01:14.092819	220.5	33.0	-80.8	0.0
2025-01-15 19:01:16.338693	221.1	33.3	-81.1	0.0
2025-01-15 19:01:18.585463	221.8	33.6	-80.8	0.0
2025-01-15 19:01:20.831356	222.4	33.9	-81.1	0.0
2025-01-15 19:01:23.079414	223.1	34.2	-81.2	0.0
2025-01-15 19:01:25.323586	223.8	34.5	-81.1	0.0
2025-01-15 19:01:27.569010	224.5	34.8	-81.2	0.0
2025-01-15 19:01:29.813634	225.2	35.1	-80.7	0.0
2025-01-15 19:01:32.056755	225.9	35.4	-81.1	0.0
2025-01-15 19:01:34.305419	226.7	35.7	-81.1	0.0
2025-01-15 19:01:36.551766	227.4	36.0	-81.3	0.0
2025-01-15 19:01:38.799835	228.2	36.3	-81.1	0.0
2025-01-15 19:01:41.049859	229.0	36.6	-81.0	0.0
2025-01-15 19:01:43.295854	229.8	36.9	-81.3	0.0
2025-01-15 19:01:45.541638	230.6	37.2	-81.3	0.0
2025-01-15 19:01:47.791968	231.4	37.4	-81.3	0.0
2025-01-15 19:01:50.038512	232.3	37.7	-81.2	0.0
2025-01-15 19:01:52.286347	233.1	38.0	-81.1	0.0
2025-01-15 19:01:54.531248	234.0	38.2	-81.7	0.0
2025-01-15 19:01:56.780044	234.9	38.5	-81.1	0.0
2025-01-15 19:01:59.027248	235.8	38.7	-81.0	0.0
2025-01-15 19:02:01.270633	236.7	39.0	-80.9	0.0
2025-01-15 19:02:03.519405	237.6	39.2	-80.9	0.0
2025-01-15 19:02:05.764993	238.5	39.4	-81.0	0.0
2025-01-15 19:02:08.011271	239.4	39.6	-81.1	0.0
2025-01-15 19:02:10.257319	240.4	39.9	-81.1	0.0
2025-01-15 19:02:12.500709	241.4	40.1	-81.4	0.0
2025-01-15 19:02:14.747738	242.4	40.3	-80.7	0.0
2025-01-15 19:02:16.995450	243.3	40.4	-80.9	0.0
2025-01-15 19:02:19.243010	244.3	40.6	-81.3	0.0
2025-01-15 19:02:21.491174	245.4	40.8	-80.9	0.0
2025-01-15 19:02:23.738683	246.4	41.0	-81.1	0.0
2025-01-15 19:02:25.985235	247.4	41.1	-80.7	0.0
2025-01-15 19:02:28.231686	248.5	41.3	-80.8	0.0
2025-01-15 19:02:30.475622	249.5	41.4	-81.1	0.0
2025-01-15 19:02:32.723544	250.6	41.5	-81.1	0.0
2025-01-15 19:02:34.970764	251.6	41.6	-80.8	0.0
2025-01-15 19:02:37.217606	252.7	41.7	-81.1	0.0
2025-01-15 19:02:39.464806	253.8	41.8	-80.6	0.0
2025-01-15 19:02:41.711695	254.9	41.9	-80.7	0.0
2025-01-15 19:02:43.960241	256.0	42.0	-81.4	0.0
2025-01-15 19:02:46.204936	257.1	42.0	-81.0	0.0
2025-01-15 19:02:48.453699	258.2	42.1	-81.0	0.0
2025-01-15 19:02:50.700360	259.3	42.1	-80.9	0.0
2025-01-15 19:02:52.945672	260.4	42.1	-80.5	0.0
2025-01-15 19:02:55.194393	261.5	42.2	-80.5	0.0
2025-01-15 19:02:57.440524	262.6	42.2	-81.2	0.0
2025-01-15 19:02:59.687934	263.7	42.1	-81.1	0.0
2025-01-15 19:03:01.932484	264.8	42.1	-80.9	0.0
2025-01-15 19:03:04.177102	265.9	42.1	-80.9	0.0
2025-01-15 19:03:06.422301	267.0	42.0	-81.1	0.0
2025-01-15 19:03:08.671651	268.1	42.0	-81.3	0.0
2025-01-15 19:03:10.917882	269.2	41.9	-80.5	0.0
2025-01-15 19:03:13.164855	270.3	41.8	-81.0	0.0
2025-01-15 19:03:15.411482	271.4	41.7	-80.7	0.0
2025-01-15 19:03:17.661488	272.4	41.6	-80.5	0.0
2025-01-15 19:03:19.905798	273.5	41.5	-80.9	0.0
2025-01-15 19:03:22.150487	274.6	41.4	-80.9	0.0
2025-01-15 19:03:24.396474	275.6	41.3	-81.1	0.0
2025-01-15 19:03:26.642863	276.7	41.1	-81.0	0.0
2025-01-15 19:03:28.891024	277.7	41.0	-81.3	0.0
2025-01-15 19:03:31.139105	278.7	40.8	-81.2	0.0
2025-01-15 19:03:33.384926	279.7	40.6	-81.4	0.0
2025-01-15 19:03:35.629252	280.7	40.5	-81.3	0.0
2025-01-15 19:03:37.872239	281.7	40.3	-81.1	0.0
2025-01-15 19:03:40.118470	282.7	40.1	-81.4	0.0
2025-01-15 19:03:42.366048	283.7	39.9	-81.2	0.0
2025-01-15 19:03:44.612550	284.6	39.6	-81.3	0.0
2025-01-15 19:03:46.861730	285.5	39.4	-81.2	0.0
2025-01-15 19:03:49.108226	286.5	39.2	-81.4	0.0
2025-01-15 19:03:51.361982	287.4	39.0	-81.3	0.0
2025-01-15 19:03:53.605524	288.3	38.7	-81.1	0.0
2025-01-15 19:03:55.847851	289.2	38.5	-80.8	0.0
2025-01-15 19:03:58.095901	290.1	38.2	-81.0	0.0
2025-01-15 19:04:00.339366	290.9	38.0	-81.1	0.0
2025-01-15 19:04:02.588951	291.8	37.7	-80.5	0.0
2025-01-15 19:04:04.833364	292.6	37.4	-80.8	0.0
2025-01-15 19:04:07.078393	293.4	37.2	-81.3	0.0
2025-01-15 19:04:09.325161	294.2	36.9	-81.2	0.0
2025-01-15 19:04:11.572249	295.0	36.6	-80.6	0.0
2025-01-15 19:04:13.816026	295.8	36.3	-80.6	0.0
2025-01-15 19:04:16.063354	296.6	36.0	-80.9	0.0
2025-01-15 19:04:18.309463	297.3	35.8	-80.9	0.0
2025-01-15 19:04:20.557416	298.1	35.5	-81.0	0.0
2025-01-15 19:04:22.801044	298.8	35.2	-81.3	0.0
2025-01-15 19:04:25.049479	299.5	34.9	-81.7	0.0
2025-01-15 19:04:27.295928	300.2	34.6	-81.4	0.0
2025-01-15 19:04:29.545363	300.9	34.3	-81.6	0.0
2025-01-15 19:04:31.790386	301.6	34.0	-81.2	0.0
2025-01-15 19:04:34.034143	302.3	33.7	-80.5	0.0
2025-01-15 19:04:36.279287	302.9	33.4	-81.3	0.0
2025-01-15 19:04:38.524215	303.5	33.1	-81.5	0.0
2025-01-15 19:04:40.768977	304.2	32.8	-81.1	0.0
2025-01-15 19:04:43.015753	304.8	32.5	-81.2	0.0
2025-01-15 19:04:45.261495	305.4	32.1	-81.4	0.0
2025-01-15 19:04:47.507516	306.0	31.8	-81.3	0.0
2025-01-15 19:04:49.755003	306.6	31.5	-81.3	0.0
2025-01-15 19:04:51.999972	307.2	31.2	-81.4	0.0
2025-01-15 19:04:54.249346	307.7	30.9	-81.0	0.0
2025-01-15 19:04:56.496723	308.3	30.6	-81.3	0.0
2025-01-15 19:04:58.742890	308.8	30.3	-81.1	0.0
2025-01-15 19:05:00.987121	309.3	30.0	-81.2	0.0
2025-01-15 19:05:03.234204	309.9	29.7	-81.1	0.0
2025-01-15 19:05:05.483571	310.4	29.4	-81.2	0.0
2025-01-15 19:05:07.735948	310.9	29.1	-81.1	0.0
2025-01-15 19:05:09.984473	311.4	28.8	-81.6	0.0
2025-01-15 19:05:12.230434	311.9	28.5	-81.4	0.0
2025-01-15 19:05:14.475324	312.3	28.2	-81.3	0.0
2025-01-15 19:05:16.722002	312.8	27.9	-81.5	0.0
2025-01-15 19:05:18.967345	313.3	27.6	-81.4	0.0
2025-01-15 19:05:21.215549	313.7	27.3	-81.1	0.0
2025-01-15 19:05:23.461273	314.2	27.0	-81.2	0.0
2025-01-15 19:05:25.711235	314.6	26.7	-81.2	0.0
2025-01-15 19:05:27.954661	315.0	26.4	-81.1	0.0
2025-01-15 19:05:30.200736	315.5	26.1	-81.2	0.0
2025-01-15 19:05:32.448423	315.9	25.8	-80.6	0.0
2025-01-15 19:05:34.694811	316.3	25.5	-81.1	0.0
2025-01-15 19:05:36.940494	316.7	25.3	-80.6	0.0
2025-01-15 19:05:39.189745	317.1	25.0	-80.8	0.0
2025-01-15 19:05:41.434872	317.4	24.7	-81.4	0.0
2025-01-15 19:05:43.679751	317.8	24.4	-80.6	0.0
2025-01-15 19:05:45.927256	318.2	24.1	-81.0	0.0
2025-01-15 19:05:48.172917	318.6	23.9	-81.0	0.0
2025-01-15 19:05:50.419425	318.9	23.6	-81.4	0.0
2025-01-15 19:05:52.663949	319.3	23.3	-81.3	0.0
2025-01-15 19:05:54.909644	319.6	23.0	-81.2	0.0
2025-01-15 19:05:57.156497	320.0	22.8	-81.5	0.0
2025-01-15 19:05:59.404387	320.3	22.5	-81.6	0.0
2025-01-15 19:06:01.651521	320.6	22.2	-81.2	0.0
2025-01-15 19:06:03.895641	321.0	22.0	-81.7	0.0
2025-01-15 19:06:06.144605	321.3	21.7	-81.4	0.0
2025-01-15 19:06:08.392785	321.6	21.4	-81.1	0.0
2025-01-15 19:06:10.640249	321.9	21.2	-81.0	0.0
2025-01-15 19:06:12.887246	322.2	20.9	-80.8	0.0
2025-01-15 19:06:15.134078	322.5	20.7	-81.4	0.0
2025-01-15 19:06:17.380850	322.8	20.4	-81.2	0.0
2025-01-15 19:06:19.625426	323.1	20.2	-81.2	0.0
2025-01-15 19:06:21.873491	323.4	19.9	-81.1	0.0
2025-01-15 19:06:24.122641	323.7	19.7	-80.9	0.0
2025-01-15 19:06:26.371789	323.9	19.4	-81.2	0.0
2025-01-15 19:06:28.619889	324.2	19.2	-81.2	0.0
2025-01-15 19:06:30.867996	324.5	18.9	-81.2	0.0
2025-01-15 19:06:33.113055	324.7	18.7	-81.5	0.0
2025-01-15 19:06:35.360936	325.0	18.5	-81.3	0.0
2025-01-15 19:06:37.610105	325.3	18.2	-81.2	0.0
2025-01-15 19:06:39.853044	325.5	18.0	-81.0	0.0
2025-01-15 19:06:42.096393	325.8	17.8	-80.9	0.0
2025-01-15 19:06:44.341815	326.0	17.5	-81.0	0.0
2025-01-15 19:06:46.589649	326.2	17.3	-81.0	0.0
2025-01-15 19:06:48.837237	326.5	17.1	-81.3	0.0
2025-01-15 19:06:51.084527	326.7	16.8	-81.3	0.0
2025-01-15 19:06:53.329839	326.9	16.6	-81.6	0.0
2025-01-15 19:06:55.576715	327.2	16.4	-81.3	0.0
2025-01-15 19:06:57.824499	327.4	16.2	-81.5	0.0
2025-01-15 19:07:00.071553	327.6	15.9	-81.4	0.0
2025-01-15 19:07:02.315859	327.8	15.7	-81.6	0.0
2025-01-15 19:07:04.560784	328.1	15.5	-81.4	0.0
2025-01-15 19:07:06.805616	328.3	15.3	-81.2	0.0
2025-01-15 19:07:09.049712	328.5	15.1	-80.8	0.0
2025-01-15 19:07:11.296898	328.7	14.9	-81.5	0.0
2025-01-15 19:07:13.541598	328.9	14.7	-81.2	0.0
2025-01-15 19:07:15.789531	329.1	14.5	-80.9	0.0
2025-01-15 19:07:18.036580	329.3	14.2	-81.7	0.0
2025-01-15 19:07:20.279901	329.5	14.0	-80.7	0.0
2025-01-15 19:07:22.526365	329.7	13.8	-81.3	0.0
2025-01-15 19:07:24.774295	329.9	13.6	-81.2	0.0
2025-01-15 19:07:27.021958	330.1	13.4	-81.0	0.0
2025-01-15 19:07:29.268163	330.3	13.2	-81.5	0.0
2025-01-15 19:07:31.514074	330.4	13.0	-81.3	0.0
2025-01-15 19:07:33.759659	330.6	12.8	-81.2	0.0
2025-01-15 19:07:36.005632	330.8	12.6	-81.2	0.0
2025-01-15 19:07:38.251418	331.0	12.4	-81.1	0.0
2025-01-15 19:07:40.496164	331.2	12.2	-81.4	0.0
2025-01-15 19:07:42.743320	331.3	12.0	-81.3	0.0
2025-01-15 19:07:44.990443	331.5	11.9	-81.1	0.0
2025-01-15 19:07:47.243325	331.7	11.7	-81.0	0.0
2025-01-15 19:07:49.495565	331.8	11.5	-81.0	0.0
2025-01-15 19:07:51.741984	332.0	11.3	-80.9	0.0
2025-01-15 19:07:53.989879	332.2	11.1	-81.3	0.0
2025-01-15 19:07:56.236903	332.3	10.9	-81.0	0.0
2025-01-15 19:07:58.482041	332.5	10.7	-80.9	0.0
2025-01-15 19:08:00.727769	332.6	10.5	-81.3	0.0
2025-01-15 19:08:02.974953	332.8	10.4	-81.2	0.0
2025-01-15 19:08:05.224541	332.9	10.2	-81.0	0.0
2025-01-15 19:08:07.471572	333.1	10.0	-81.1	0.0
#Closed at: 2025-01-15 18:57:42.479181