passes_logs/2025/01/15/planumMaritime01/planumMaritime01__20250115_092911_NOAA_18_rec.log

#Pass ID: 20250115_092911_NOAA 18
#Satellite: NOAA 18
#Configuration: NOAA 18
#Start time: 2025-01-15 09:29:16.900395

#LorettStation: 1.0.0 05.05.2024
#Station: planumMaritime01
#Location: 37.49445 lon 55.92918 lat
#TLE: 1 28654U 05018A   25014.17177243  .00000313  00000+0  18955-3 0  9990
#TLE: 2 28654  98.8569  95.2344 0014326 181.4762 178.6370 14.13485757 13061

#Time	Az	El	Level	SNR
2025-01-15 09:29:19.048490	12.4	10.2	-82.3	0.0
2025-01-15 09:29:21.297552	12.3	10.4	-81.8	0.0
2025-01-15 09:29:23.543878	12.3	10.6	-82.0	0.0
2025-01-15 09:29:25.786220	12.2	10.8	-82.1	0.0
2025-01-15 09:29:28.033865	12.1	11.0	-81.2	0.0
2025-01-15 09:29:30.280498	12.1	11.2	-82.2	0.0
2025-01-15 09:29:32.526726	12.0	11.4	-82.3	0.0
2025-01-15 09:29:34.773264	11.9	11.6	-82.4	0.0
2025-01-15 09:29:37.018786	11.9	11.8	-82.1	0.0
2025-01-15 09:29:39.266416	11.8	12.0	-82.6	0.0
2025-01-15 09:29:41.512156	11.7	12.2	-82.4	0.0
2025-01-15 09:29:43.758757	11.6	12.4	-82.3	0.0
2025-01-15 09:29:46.005427	11.6	12.6	-82.2	0.0
2025-01-15 09:29:48.250432	11.5	12.8	-82.5	0.0
2025-01-15 09:29:50.498759	11.4	13.0	-82.4	0.0
2025-01-15 09:29:52.742186	11.3	13.2	-82.2	0.0
2025-01-15 09:29:54.987702	11.3	13.4	-82.4	0.0
2025-01-15 09:29:57.239286	11.2	13.7	-82.5	0.0
2025-01-15 09:29:59.485279	11.1	13.9	-82.3	0.0
2025-01-15 09:30:01.732094	11.0	14.1	-82.6	0.0
2025-01-15 09:30:03.978557	10.9	14.3	-82.5	0.0
2025-01-15 09:30:06.223274	10.8	14.6	-82.0	0.0
2025-01-15 09:30:08.470983	10.7	14.8	-82.6	0.0
2025-01-15 09:30:10.716255	10.6	15.0	-82.6	0.0
2025-01-15 09:30:12.962270	10.6	15.2	-82.8	0.0
2025-01-15 09:30:15.209310	10.5	15.5	-82.6	0.0
2025-01-15 09:30:17.457073	10.4	15.7	-82.2	0.0
2025-01-15 09:30:19.702104	10.3	16.0	-82.7	0.0
2025-01-15 09:30:21.950108	10.2	16.2	-82.7	0.0
2025-01-15 09:30:24.197163	10.1	16.4	-82.1	0.0
2025-01-15 09:30:26.443607	10.0	16.7	-82.3	0.0
2025-01-15 09:30:28.691799	9.9	16.9	-82.8	0.0
2025-01-15 09:30:30.938388	9.8	17.2	-82.8	0.0
2025-01-15 09:30:33.188965	9.7	17.4	-82.4	0.0
2025-01-15 09:30:35.435213	9.5	17.7	-82.3	0.0
2025-01-15 09:30:37.679150	9.4	17.9	-82.6	0.0
2025-01-15 09:30:39.926887	9.3	18.2	-82.7	0.0
2025-01-15 09:30:42.172339	9.2	18.5	-82.7	0.0
2025-01-15 09:30:44.417966	9.1	18.7	-82.9	0.0
2025-01-15 09:30:46.664561	9.0	19.0	-82.9	0.0
2025-01-15 09:30:48.910591	8.8	19.3	-82.8	0.0
2025-01-15 09:30:51.156133	8.7	19.6	-82.8	0.0
2025-01-15 09:30:53.403733	8.6	19.8	-82.4	0.0
2025-01-15 09:30:55.652643	8.5	20.1	-82.8	0.0
2025-01-15 09:30:57.896133	8.3	20.4	-82.8	0.0
2025-01-15 09:31:00.141470	8.2	20.7	-82.6	0.0
2025-01-15 09:31:02.388160	8.1	21.0	-82.0	0.0
2025-01-15 09:31:04.634669	7.9	21.3	-82.6	0.0
2025-01-15 09:31:06.880875	7.8	21.6	-82.8	0.0
2025-01-15 09:31:09.128003	7.6	21.9	-82.4	0.0
2025-01-15 09:31:11.373853	7.5	22.2	-82.6	0.0
2025-01-15 09:31:13.620854	7.3	22.5	-82.8	0.0
2025-01-15 09:31:15.865885	7.2	22.8	-82.6	0.0
2025-01-15 09:31:18.107260	7.0	23.1	-82.8	0.0
2025-01-15 09:31:20.352361	6.8	23.4	-82.9	0.0
2025-01-15 09:31:22.598007	6.7	23.7	-83.0	0.0
2025-01-15 09:31:24.848499	6.5	24.0	-82.9	0.0
2025-01-15 09:31:27.095946	6.3	24.4	-83.0	0.0
2025-01-15 09:31:29.343935	6.2	24.7	-82.6	0.0
2025-01-15 09:31:31.587769	6.0	25.0	-83.0	0.0
2025-01-15 09:31:33.834115	5.8	25.4	-82.9	0.0
2025-01-15 09:31:36.078231	5.6	25.7	-82.9	0.0
2025-01-15 09:31:38.323806	5.4	26.1	-82.7	0.0
2025-01-15 09:31:40.567200	5.2	26.4	-82.7	0.0
2025-01-15 09:31:42.817915	5.0	26.8	-82.8	0.0
2025-01-15 09:31:45.065163	4.8	27.1	-82.9	0.0
2025-01-15 09:31:47.310433	4.6	27.5	-82.4	0.0
2025-01-15 09:31:49.558764	4.4	27.9	-82.4	0.0
2025-01-15 09:31:51.808202	4.2	28.2	-82.7	0.0
2025-01-15 09:31:54.054204	3.9	28.6	-82.8	0.0
2025-01-15 09:31:56.301702	3.7	29.0	-82.9	0.0
2025-01-15 09:31:58.545343	3.5	29.4	-82.8	0.0
2025-01-15 09:32:00.792457	3.2	29.8	-82.8	0.0
2025-01-15 09:32:03.038062	3.0	30.2	-82.4	0.0
2025-01-15 09:32:05.287580	2.7	30.6	-82.6	0.0
2025-01-15 09:32:07.532623	2.4	31.0	-82.7	0.0
2025-01-15 09:32:09.779087	2.2	31.4	-82.4	0.0
2025-01-15 09:32:12.023498	1.9	31.8	-82.3	0.0
2025-01-15 09:32:14.270208	1.6	32.2	-82.3	0.0
2025-01-15 09:32:16.514423	1.3	32.6	-82.2	0.0
2025-01-15 09:32:18.762908	1.0	33.1	-82.5	0.0
2025-01-15 09:32:21.008304	0.7	33.5	-82.8	0.0
2025-01-15 09:32:23.253382	0.4	34.0	-82.6	0.0
2025-01-15 09:32:25.498041	0.0	34.4	-82.3	0.0
2025-01-15 09:32:27.745429	359.7	34.9	-82.4	0.0
2025-01-15 09:32:29.991038	359.4	35.3	-82.6	0.0
2025-01-15 09:32:32.236656	359.0	35.8	-82.5	0.0
2025-01-15 09:32:34.480264	358.6	36.2	-82.5	0.0
2025-01-15 09:32:36.729352	358.3	36.7	-82.5	0.0
2025-01-15 09:32:38.975567	357.9	37.2	-82.7	0.0
2025-01-15 09:32:41.222676	357.5	37.7	-82.7	0.0
2025-01-15 09:32:43.468075	357.0	38.2	-82.8	0.0
2025-01-15 09:32:45.716068	356.6	38.7	-82.7	0.0
2025-01-15 09:32:47.963441	356.2	39.2	-83.0	0.0
2025-01-15 09:32:50.210859	355.7	39.7	-82.7	0.0
2025-01-15 09:32:52.452375	355.2	40.2	-82.7	0.0
2025-01-15 09:32:54.698061	354.8	40.7	-83.3	0.0
2025-01-15 09:32:56.943772	354.3	41.2	-83.1	0.0
2025-01-15 09:32:59.192899	353.7	41.8	-82.9	0.0
2025-01-15 09:33:01.438650	353.2	42.3	-82.9	0.0
2025-01-15 09:33:03.687190	352.6	42.8	-82.9	0.0
2025-01-15 09:33:05.936325	352.1	43.4	-82.4	0.0
2025-01-15 09:33:08.186341	351.5	43.9	-82.8	0.0
2025-01-15 09:33:10.430527	350.9	44.5	-83.0	0.0
2025-01-15 09:33:12.676515	350.2	45.0	-82.9	0.0
2025-01-15 09:33:14.922680	349.6	45.6	-83.1	0.0
2025-01-15 09:33:17.169460	348.9	46.1	-82.8	0.0
2025-01-15 09:33:19.413783	348.2	46.7	-82.8	0.0
2025-01-15 09:33:21.658304	347.4	47.3	-82.7	0.0
2025-01-15 09:33:23.903194	346.7	47.8	-82.5	0.0
2025-01-15 09:33:26.149298	345.9	48.4	-82.7	0.0
2025-01-15 09:33:28.393793	345.1	49.0	-83.0	0.0
2025-01-15 09:33:30.641815	344.2	49.5	-83.0	0.0
2025-01-15 09:33:32.884869	343.3	50.1	-82.9	0.0
2025-01-15 09:33:35.132637	342.4	50.7	-82.9	0.0
2025-01-15 09:33:37.379964	341.4	51.3	-83.0	0.0
2025-01-15 09:33:39.622835	340.4	51.8	-82.9	0.0
2025-01-15 09:33:41.869713	339.4	52.4	-82.7	0.0
2025-01-15 09:33:44.116753	338.3	53.0	-82.7	0.0
2025-01-15 09:33:46.363597	337.2	53.5	-82.7	0.0
2025-01-15 09:33:48.608564	336.1	54.1	-82.9	0.0
2025-01-15 09:33:50.854246	334.9	54.6	-82.3	0.0
2025-01-15 09:33:53.100723	333.6	55.2	-82.5	0.0
2025-01-15 09:33:55.348405	332.3	55.7	-82.8	0.0
2025-01-15 09:33:57.593379	331.0	56.2	-82.7	0.0
2025-01-15 09:33:59.838003	329.5	56.7	-82.9	0.0
2025-01-15 09:34:02.083430	328.1	57.2	-82.8	0.0
2025-01-15 09:34:04.331594	326.6	57.7	-82.9	0.0
2025-01-15 09:34:06.578879	325.0	58.2	-82.5	0.0
2025-01-15 09:34:08.827474	323.4	58.6	-82.7	0.0
2025-01-15 09:34:11.075038	321.7	59.0	-82.4	0.0
2025-01-15 09:34:13.322543	320.0	59.5	-82.7	0.0
2025-01-15 09:34:15.566555	318.2	59.8	-82.4	0.0
2025-01-15 09:34:17.815274	316.4	60.2	-82.7	0.0
2025-01-15 09:34:20.062619	314.5	60.6	-82.5	0.0
2025-01-15 09:34:22.307496	312.6	60.9	-82.6	0.0
2025-01-15 09:34:24.553685	310.6	61.1	-82.9	0.0
2025-01-15 09:34:26.799341	308.5	61.4	-82.8	0.0
2025-01-15 09:34:29.045547	306.5	61.6	-82.5	0.0
2025-01-15 09:34:31.293926	304.4	61.8	-82.3	0.0
2025-01-15 09:34:33.540115	302.2	62.0	-82.7	0.0
2025-01-15 09:34:35.785081	300.1	62.1	-82.6	0.0
2025-01-15 09:34:38.029202	297.9	62.2	-82.7	0.0
2025-01-15 09:34:40.274216	295.7	62.2	-82.9	0.0
2025-01-15 09:34:42.520503	293.5	62.3	-82.9	0.0
2025-01-15 09:34:44.766490	291.3	62.2	-82.7	0.0
2025-01-15 09:34:47.011696	289.1	62.2	-82.7	0.0
2025-01-15 09:34:49.260323	287.0	62.1	-82.8	0.0
2025-01-15 09:34:51.508606	284.8	62.0	-83.0	0.0
2025-01-15 09:34:53.753915	282.7	61.8	-82.8	0.0
2025-01-15 09:34:56.002060	280.6	61.6	-82.9	0.0
2025-01-15 09:34:58.242682	278.5	61.4	-83.2	0.0
2025-01-15 09:35:00.491027	276.5	61.1	-83.2	0.0
2025-01-15 09:35:02.738747	274.5	60.9	-82.8	0.0
2025-01-15 09:35:04.985338	272.5	60.5	-82.9	0.0
2025-01-15 09:35:07.232496	270.6	60.2	-83.0	0.0
2025-01-15 09:35:09.476606	268.8	59.8	-83.0	0.0
2025-01-15 09:35:11.721697	267.0	59.4	-82.9	0.0
2025-01-15 09:35:13.969366	265.3	59.0	-82.6	0.0
2025-01-15 09:35:16.212888	263.6	58.6	-82.7	0.0
2025-01-15 09:35:18.462331	262.0	58.2	-82.7	0.0
2025-01-15 09:35:20.707311	260.4	57.7	-82.8	0.0
2025-01-15 09:35:22.955584	258.9	57.2	-82.9	0.0
2025-01-15 09:35:25.202803	257.4	56.7	-82.9	0.0
2025-01-15 09:35:27.448897	256.0	56.2	-82.8	0.0
2025-01-15 09:35:29.695248	254.7	55.7	-82.7	0.0
2025-01-15 09:35:31.940648	253.4	55.1	-82.6	0.0
2025-01-15 09:35:34.185389	252.1	54.6	-82.9	0.0
2025-01-15 09:35:36.429625	250.9	54.0	-82.8	0.0
2025-01-15 09:35:38.677224	249.8	53.5	-83.1	0.0
2025-01-15 09:35:40.923934	248.6	52.9	-83.0	0.0
2025-01-15 09:35:43.173338	247.6	52.4	-82.8	0.0
2025-01-15 09:35:45.419210	246.5	51.8	-82.7	0.0
2025-01-15 09:35:47.668164	245.5	51.2	-82.6	0.0
2025-01-15 09:35:49.914363	244.6	50.6	-82.4	0.0
2025-01-15 09:35:52.164293	243.6	50.1	-82.3	0.0
2025-01-15 09:35:54.411289	242.7	49.5	-82.5	0.0
2025-01-15 09:35:56.660028	241.9	48.9	-82.6	0.0
2025-01-15 09:35:58.910297	241.1	48.3	-82.5	0.0
2025-01-15 09:36:01.155344	240.3	47.8	-82.7	0.0
2025-01-15 09:36:03.400386	239.5	47.2	-82.5	0.0
2025-01-15 09:36:05.645293	238.8	46.6	-82.9	0.0
2025-01-15 09:36:07.891781	238.1	46.0	-82.8	0.0
2025-01-15 09:36:10.138585	237.4	45.5	-82.6	0.0
2025-01-15 09:36:12.385364	236.7	44.9	-82.7	0.0
2025-01-15 09:36:14.633784	236.1	44.4	-82.8	0.0
2025-01-15 09:36:16.881508	235.4	43.8	-82.9	0.0
2025-01-15 09:36:19.126944	234.9	43.3	-82.9	0.0
2025-01-15 09:36:21.375979	234.3	42.7	-82.8	0.0
2025-01-15 09:36:23.622770	233.7	42.2	-82.5	0.0
2025-01-15 09:36:25.869233	233.2	41.6	-82.7	0.0
2025-01-15 09:36:28.117095	232.7	41.1	-82.7	0.0
2025-01-15 09:36:30.363871	232.2	40.6	-82.7	0.0
2025-01-15 09:36:32.611008	231.7	40.1	-82.6	0.0
2025-01-15 09:36:34.857925	231.2	39.5	-82.9	0.0
2025-01-15 09:36:37.107374	230.7	39.0	-82.8	0.0
2025-01-15 09:36:39.355290	230.3	38.5	-83.0	0.0
2025-01-15 09:36:41.603318	229.9	38.0	-83.0	0.0
2025-01-15 09:36:43.847108	229.4	37.5	-82.7	0.0
2025-01-15 09:36:46.096585	229.0	37.0	-82.8	0.0
2025-01-15 09:36:48.341748	228.7	36.6	-83.2	0.0
2025-01-15 09:36:50.590277	228.3	36.1	-82.9	0.0
2025-01-15 09:36:52.833184	227.9	35.6	-82.9	0.0
2025-01-15 09:36:55.080389	227.5	35.1	-83.0	0.0
2025-01-15 09:36:57.327717	227.2	34.7	-83.2	0.0
2025-01-15 09:36:59.576154	226.9	34.2	-82.9	0.0
2025-01-15 09:37:01.821984	226.5	33.8	-82.7	0.0
2025-01-15 09:37:04.068954	226.2	33.3	-82.5	0.0
2025-01-15 09:37:06.313455	225.9	32.9	-82.4	0.0
2025-01-15 09:37:08.557829	225.6	32.5	-82.6	0.0
2025-01-15 09:37:10.803607	225.3	32.0	-82.8	0.0
2025-01-15 09:37:13.051470	225.0	31.6	-82.3	0.0
2025-01-15 09:37:15.298910	224.7	31.2	-82.2	0.0
2025-01-15 09:37:17.545357	224.5	30.8	-82.4	0.0
2025-01-15 09:37:19.794921	224.2	30.4	-83.1	0.0
2025-01-15 09:37:22.039644	223.9	30.0	-83.0	0.0
2025-01-15 09:37:24.285354	223.7	29.6	-83.1	0.0
2025-01-15 09:37:26.533291	223.4	29.2	-83.0	0.0
2025-01-15 09:37:28.787457	223.2	28.8	-83.1	0.0
2025-01-15 09:37:31.034852	222.9	28.4	-83.0	0.0
2025-01-15 09:37:33.282027	222.7	28.0	-83.0	0.0
2025-01-15 09:37:35.527834	222.5	27.6	-83.2	0.0
2025-01-15 09:37:37.774744	222.3	27.3	-82.9	0.0
2025-01-15 09:37:40.018433	222.1	26.9	-82.9	0.0
2025-01-15 09:37:42.268807	221.9	26.5	-83.1	0.0
2025-01-15 09:37:44.515827	221.7	26.2	-83.1	0.0
2025-01-15 09:37:46.759402	221.5	25.8	-82.5	0.0
2025-01-15 09:37:49.003601	221.3	25.5	-83.0	0.0
2025-01-15 09:37:51.246896	221.1	25.1	-82.8	0.0
2025-01-15 09:37:53.491691	220.9	24.8	-82.8	0.0
2025-01-15 09:37:55.736689	220.7	24.5	-83.1	0.0
2025-01-15 09:37:57.985079	220.5	24.1	-83.1	0.0
2025-01-15 09:38:00.233542	220.3	23.8	-83.0	0.0
2025-01-15 09:38:02.482594	220.2	23.5	-83.2	0.0
2025-01-15 09:38:04.727134	220.0	23.2	-82.8	0.0
2025-01-15 09:38:06.972647	219.8	22.8	-83.1	0.0
2025-01-15 09:38:09.219337	219.7	22.5	-82.9	0.0
2025-01-15 09:38:11.465085	219.5	22.2	-82.8	0.0
2025-01-15 09:38:13.713295	219.4	21.9	-82.8	0.0
2025-01-15 09:38:15.958665	219.2	21.6	-82.6	0.0
2025-01-15 09:38:18.202886	219.1	21.3	-82.3	0.0
2025-01-15 09:38:20.451201	218.9	21.0	-83.0	0.0
2025-01-15 09:38:22.698061	218.8	20.7	-82.4	0.0
2025-01-15 09:38:24.946090	218.6	20.4	-82.7	0.0
2025-01-15 09:38:27.193742	218.5	20.1	-82.7	0.0
2025-01-15 09:38:29.438221	218.4	19.8	-82.9	0.0
2025-01-15 09:38:31.682038	218.2	19.6	-82.5	0.0
2025-01-15 09:38:33.928704	218.1	19.3	-82.9	0.0
2025-01-15 09:38:36.175137	218.0	19.0	-82.5	0.0
2025-01-15 09:38:38.419529	217.9	18.7	-82.9	0.0
2025-01-15 09:38:40.669648	217.7	18.5	-82.9	0.0
2025-01-15 09:38:42.916668	217.6	18.2	-82.8	0.0
2025-01-15 09:38:45.161204	217.5	17.9	-82.3	0.0
2025-01-15 09:38:47.409132	217.4	17.7	-83.0	0.0
2025-01-15 09:38:49.655860	217.3	17.4	-82.6	0.0
2025-01-15 09:38:51.903063	217.2	17.2	-82.9	0.0
2025-01-15 09:38:54.149913	217.1	16.9	-82.9	0.0
2025-01-15 09:38:56.397071	216.9	16.7	-82.9	0.0
2025-01-15 09:38:58.644625	216.8	16.4	-83.2	0.0
2025-01-15 09:39:00.894383	216.7	16.2	-83.1	0.0
2025-01-15 09:39:03.140787	216.6	15.9	-83.1	0.0
2025-01-15 09:39:05.387036	216.5	15.7	-83.0	0.0
2025-01-15 09:39:07.632290	216.4	15.4	-83.3	0.0
2025-01-15 09:39:09.874888	216.3	15.2	-83.3	0.0
2025-01-15 09:39:12.123714	216.2	15.0	-82.9	0.0
2025-01-15 09:39:14.369263	216.2	14.7	-83.1	0.0
2025-01-15 09:39:16.619109	216.1	14.5	-83.1	0.0
2025-01-15 09:39:18.866135	216.0	14.3	-83.0	0.0
2025-01-15 09:39:21.109631	215.9	14.0	-82.7	0.0
2025-01-15 09:39:23.353058	215.8	13.8	-82.9	0.0
2025-01-15 09:39:25.600127	215.7	13.6	-83.1	0.0
2025-01-15 09:39:27.846627	215.6	13.4	-83.0	0.0
2025-01-15 09:39:30.092622	215.5	13.1	-82.9	0.0
2025-01-15 09:39:32.340078	215.5	12.9	-82.9	0.0
2025-01-15 09:39:34.586373	215.4	12.7	-82.9	0.0
2025-01-15 09:39:36.832890	215.3	12.5	-83.1	0.0
2025-01-15 09:39:39.075359	215.2	12.3	-82.9	0.0
2025-01-15 09:39:41.319153	215.1	12.1	-82.9	0.0
2025-01-15 09:39:43.565257	215.1	11.9	-83.0	0.0
2025-01-15 09:39:45.814944	215.0	11.7	-82.8	0.0
2025-01-15 09:39:48.058017	214.9	11.5	-82.9	0.0
2025-01-15 09:39:50.306997	214.8	11.3	-83.0	0.0
2025-01-15 09:39:52.553748	214.8	11.1	-83.1	0.0
2025-01-15 09:39:54.803341	214.7	10.9	-83.2	0.0
2025-01-15 09:39:57.049016	214.6	10.7	-83.0	0.0
2025-01-15 09:39:59.292489	214.6	10.5	-83.1	0.0
2025-01-15 09:40:01.538317	214.5	10.3	-83.0	0.0
2025-01-15 09:40:03.786181	214.4	10.1	-83.0	0.0
#Closed at: 2025-01-15 09:29:11.902938