passes_logs/2025/01/15/planumMaritime01/planumMaritime01__20250115_162526_METOP-B_rec.log

#Pass ID: 20250115_162526_METOP-B
#Satellite: METOP-B
#Configuration: METOP-B
#Start time: 2025-01-15 16:25:31.614066

#LorettStation: 1.0.0 05.05.2024
#Station: planumMaritime01
#Location: 37.49445 lon 55.92918 lat
#TLE: 1 38771U 12049A   25015.11229907  .00000209  00000+0  11529-3 0  9997
#TLE: 2 38771  98.6010  73.2676 0001769  81.8838 278.2540 14.21410121639656

#Time	Az	El	Level	SNR
2025-01-15 16:25:33.764766	112.0	10.2	-81.2	0.0
2025-01-15 16:25:36.010428	111.8	10.3	-81.1	0.0
2025-01-15 16:25:38.255862	111.6	10.5	-81.5	0.0
2025-01-15 16:25:40.507631	111.3	10.7	-81.4	0.0
2025-01-15 16:25:42.755427	111.1	10.8	-81.8	0.0
2025-01-15 16:25:45.002727	110.9	11.0	-81.6	0.0
2025-01-15 16:25:47.253113	110.6	11.2	-81.9	0.0
2025-01-15 16:25:49.500826	110.4	11.3	-81.5	0.0
2025-01-15 16:25:51.746616	110.2	11.5	-81.4	0.0
2025-01-15 16:25:53.990566	109.9	11.7	-81.1	0.0
2025-01-15 16:25:56.239821	109.7	11.9	-81.5	0.0
2025-01-15 16:25:58.486628	109.4	12.0	-81.7	0.0
2025-01-15 16:26:00.733950	109.2	12.2	-81.2	0.0
2025-01-15 16:26:02.979045	108.9	12.4	-81.8	0.0
2025-01-15 16:26:05.226474	108.6	12.6	-82.0	0.0
2025-01-15 16:26:07.474538	108.4	12.7	-81.9	0.0
2025-01-15 16:26:09.719686	108.1	12.9	-82.0	0.0
2025-01-15 16:26:11.966469	107.8	13.1	-81.7	0.0
2025-01-15 16:26:14.213606	107.6	13.3	-81.7	0.0
2025-01-15 16:26:16.460893	107.3	13.5	-82.0	0.0
2025-01-15 16:26:18.707067	107.0	13.6	-81.9	0.0
2025-01-15 16:26:20.957086	106.7	13.8	-81.9	0.0
2025-01-15 16:26:23.204473	106.4	14.0	-81.8	0.0
2025-01-15 16:26:25.451232	106.1	14.2	-82.0	0.0
2025-01-15 16:26:27.696288	105.9	14.4	-82.1	0.0
2025-01-15 16:26:29.943273	105.6	14.5	-81.7	0.0
2025-01-15 16:26:32.188329	105.3	14.7	-81.9	0.0
2025-01-15 16:26:34.434155	104.9	14.9	-81.8	0.0
2025-01-15 16:26:36.681821	104.6	15.1	-82.2	0.0
2025-01-15 16:26:38.926555	104.3	15.3	-81.8	0.0
2025-01-15 16:26:41.174806	104.0	15.5	-81.9	0.0
2025-01-15 16:26:43.420402	103.7	15.7	-81.9	0.0
2025-01-15 16:26:45.663622	103.4	15.8	-81.9	0.0
2025-01-15 16:26:47.910363	103.0	16.0	-81.7	0.0
2025-01-15 16:26:50.157511	102.7	16.2	-82.1	0.0
2025-01-15 16:26:52.405201	102.4	16.4	-81.9	0.0
2025-01-15 16:26:54.651769	102.0	16.6	-82.1	0.0
2025-01-15 16:26:56.897953	101.7	16.8	-82.1	0.0
2025-01-15 16:26:59.143812	101.3	17.0	-81.8	0.0
2025-01-15 16:27:01.388806	101.0	17.2	-82.0	0.0
2025-01-15 16:27:03.635509	100.6	17.4	-82.0	0.0
2025-01-15 16:27:05.882346	100.2	17.5	-82.2	0.0
2025-01-15 16:27:08.125979	99.9	17.7	-82.3	0.0
2025-01-15 16:27:10.370625	99.5	17.9	-82.4	0.0
2025-01-15 16:27:12.616879	99.1	18.1	-82.0	0.0
2025-01-15 16:27:14.864283	98.7	18.3	-82.3	0.0
2025-01-15 16:27:17.109467	98.3	18.5	-82.2	0.0
2025-01-15 16:27:19.359821	97.9	18.7	-82.4	0.0
2025-01-15 16:27:21.605637	97.5	18.9	-82.1	0.0
2025-01-15 16:27:23.853966	97.1	19.1	-82.5	0.0
2025-01-15 16:27:26.102281	96.7	19.3	-82.3	0.0
2025-01-15 16:27:28.347074	96.3	19.5	-82.4	0.0
2025-01-15 16:27:30.593524	95.9	19.7	-82.3	0.0
2025-01-15 16:27:32.841141	95.5	19.8	-82.4	0.0
2025-01-15 16:27:35.086425	95.0	20.0	-82.4	0.0
2025-01-15 16:27:37.330891	94.6	20.2	-82.3	0.0
2025-01-15 16:27:39.579156	94.2	20.4	-82.1	0.0
2025-01-15 16:27:41.828273	93.7	20.6	-81.8	0.0
2025-01-15 16:27:44.072290	93.3	20.8	-81.8	0.0
2025-01-15 16:27:46.319536	92.8	21.0	-82.1	0.0
2025-01-15 16:27:48.563918	92.3	21.2	-82.2	0.0
2025-01-15 16:27:50.809593	91.9	21.4	-81.7	0.0
2025-01-15 16:27:53.055787	91.4	21.6	-82.0	0.0
2025-01-15 16:27:55.301016	90.9	21.7	-82.2	0.0
2025-01-15 16:27:57.549044	90.4	21.9	-82.2	0.0
2025-01-15 16:27:59.794739	89.9	22.1	-82.0	0.0
2025-01-15 16:28:02.040645	89.4	22.3	-81.9	0.0
2025-01-15 16:28:04.285819	88.9	22.5	-82.0	0.0
2025-01-15 16:28:06.530606	88.4	22.7	-82.1	0.0
2025-01-15 16:28:08.779269	87.9	22.8	-81.7	0.0
2025-01-15 16:28:11.025677	87.4	23.0	-82.1	0.0
2025-01-15 16:28:13.272635	86.8	23.2	-82.2	0.0
2025-01-15 16:28:15.520743	86.3	23.4	-82.3	0.0
2025-01-15 16:28:17.767595	85.8	23.6	-82.1	0.0
2025-01-15 16:28:20.013257	85.2	23.7	-82.0	0.0
2025-01-15 16:28:22.258747	84.6	23.9	-81.9	0.0
2025-01-15 16:28:24.506772	84.1	24.1	-82.2	0.0
2025-01-15 16:28:26.754582	83.5	24.2	-81.8	0.0
2025-01-15 16:28:28.999197	82.9	24.4	-82.1	0.0
2025-01-15 16:28:31.249018	82.4	24.6	-82.2	0.0
2025-01-15 16:28:33.495271	81.8	24.7	-81.7	0.0
2025-01-15 16:28:35.743823	81.2	24.9	-81.8	0.0
2025-01-15 16:28:37.990790	80.6	25.1	-82.1	0.0
2025-01-15 16:28:40.240006	80.0	25.2	-82.0	0.0
2025-01-15 16:28:42.484607	79.4	25.4	-82.1	0.0
2025-01-15 16:28:44.731153	78.8	25.5	-81.9	0.0
2025-01-15 16:28:46.978799	78.1	25.7	-81.9	0.0
2025-01-15 16:28:49.222862	77.5	25.8	-81.9	0.0
2025-01-15 16:28:51.472124	76.9	25.9	-81.8	0.0
2025-01-15 16:28:53.715488	76.2	26.1	-81.8	0.0
2025-01-15 16:28:55.963596	75.6	26.2	-81.8	0.0
2025-01-15 16:28:58.209389	75.0	26.4	-81.9	0.0
2025-01-15 16:29:00.456196	74.3	26.5	-81.9	0.0
2025-01-15 16:29:02.699745	73.6	26.6	-81.9	0.0
2025-01-15 16:29:04.947226	73.0	26.7	-81.9	0.0
2025-01-15 16:29:07.193369	72.3	26.8	-81.6	0.0
2025-01-15 16:29:09.438972	71.6	27.0	-81.9	0.0
2025-01-15 16:29:11.687646	70.9	27.1	-81.9	0.0
2025-01-15 16:29:13.933035	70.3	27.2	-81.4	0.0
2025-01-15 16:29:16.180781	69.6	27.3	-81.7	0.0
2025-01-15 16:29:18.427491	68.9	27.4	-81.9	0.0
2025-01-15 16:29:20.676970	68.2	27.5	-81.7	0.0
2025-01-15 16:29:22.923481	67.5	27.5	-81.9	0.0
2025-01-15 16:29:25.169273	66.8	27.6	-81.7	0.0
2025-01-15 16:29:27.410680	66.1	27.7	-81.8	0.0
2025-01-15 16:29:29.655664	65.4	27.8	-81.8	0.0
2025-01-15 16:29:31.904206	64.6	27.9	-81.9	0.0
2025-01-15 16:29:34.149142	63.9	27.9	-81.8	0.0
2025-01-15 16:29:36.392589	63.2	28.0	-81.9	0.0
2025-01-15 16:29:38.639409	62.5	28.0	-82.1	0.0
2025-01-15 16:29:40.885669	61.8	28.1	-81.9	0.0
2025-01-15 16:29:43.133703	61.0	28.1	-82.1	0.0
2025-01-15 16:29:45.377672	60.3	28.2	-82.1	0.0
2025-01-15 16:29:47.624377	59.6	28.2	-81.9	0.0
2025-01-15 16:29:49.873355	58.8	28.2	-81.9	0.0
2025-01-15 16:29:52.119168	58.1	28.3	-82.1	0.0
2025-01-15 16:29:54.364993	57.4	28.3	-82.3	0.0
2025-01-15 16:29:56.610655	56.6	28.3	-82.2	0.0
2025-01-15 16:29:58.857918	55.9	28.3	-82.2	0.0
2025-01-15 16:30:01.106969	55.2	28.3	-82.2	0.0
2025-01-15 16:30:03.356408	54.4	28.3	-82.1	0.0
2025-01-15 16:30:05.603675	53.7	28.3	-81.9	0.0
2025-01-15 16:30:07.849255	53.0	28.3	-82.1	0.0
2025-01-15 16:30:10.096459	52.2	28.3	-82.1	0.0
2025-01-15 16:30:12.342822	51.5	28.2	-82.1	0.0
2025-01-15 16:30:14.587486	50.8	28.2	-82.6	0.0
2025-01-15 16:30:16.832421	50.0	28.2	-82.2	0.0
2025-01-15 16:30:19.078244	49.3	28.1	-82.1	0.0
2025-01-15 16:30:21.324049	48.6	28.1	-81.6	0.0
2025-01-15 16:30:23.570506	47.8	28.1	-82.4	0.0
2025-01-15 16:30:25.812795	47.1	28.0	-82.6	0.0
2025-01-15 16:30:28.060626	46.4	27.9	-82.3	0.0
2025-01-15 16:30:30.304893	45.7	27.9	-82.2	0.0
2025-01-15 16:30:32.551343	45.0	27.8	-82.3	0.0
2025-01-15 16:30:34.801277	44.3	27.7	-82.3	0.0
2025-01-15 16:30:37.046404	43.5	27.7	-82.6	0.0
2025-01-15 16:30:39.292542	42.8	27.6	-82.5	0.0
2025-01-15 16:30:41.540308	42.1	27.5	-82.3	0.0
2025-01-15 16:30:43.783783	41.4	27.4	-82.3	0.0
2025-01-15 16:30:46.031543	40.8	27.3	-82.2	0.0
2025-01-15 16:30:48.278567	40.1	27.2	-82.3	0.0
2025-01-15 16:30:50.525028	39.4	27.1	-82.4	0.0
2025-01-15 16:30:52.769340	38.7	27.0	-82.0	0.0
2025-01-15 16:30:55.016201	38.0	26.9	-82.2	0.0
2025-01-15 16:30:57.266482	37.4	26.8	-81.9	0.0
2025-01-15 16:30:59.510514	36.7	26.7	-82.0	0.0
2025-01-15 16:31:01.757562	36.0	26.5	-82.2	0.0
2025-01-15 16:31:04.002799	35.4	26.4	-82.4	0.0
2025-01-15 16:31:06.249728	34.7	26.3	-82.2	0.0
2025-01-15 16:31:08.495887	34.1	26.1	-82.2	0.0
2025-01-15 16:31:10.743159	33.4	26.0	-82.3	0.0
2025-01-15 16:31:12.989562	32.8	25.9	-82.3	0.0
2025-01-15 16:31:15.234604	32.2	25.7	-82.1	0.0
2025-01-15 16:31:17.480697	31.6	25.6	-82.0	0.0
2025-01-15 16:31:19.726486	31.0	25.4	-82.0	0.0
2025-01-15 16:31:21.971067	30.3	25.3	-81.9	0.0
2025-01-15 16:31:24.214180	29.7	25.1	-81.8	0.0
2025-01-15 16:31:26.463310	29.1	25.0	-82.0	0.0
2025-01-15 16:31:28.708696	28.5	24.8	-82.0	0.0
2025-01-15 16:31:30.952600	28.0	24.6	-82.1	0.0
2025-01-15 16:31:33.201460	27.4	24.5	-82.2	0.0
2025-01-15 16:31:35.445696	26.8	24.3	-82.1	0.0
2025-01-15 16:31:37.695218	26.2	24.1	-82.1	0.0
2025-01-15 16:31:39.942507	25.7	24.0	-82.0	0.0
2025-01-15 16:31:42.186778	25.1	23.8	-82.3	0.0
2025-01-15 16:31:44.432729	24.6	23.6	-82.4	0.0
2025-01-15 16:31:46.684991	24.0	23.5	-82.3	0.0
2025-01-15 16:31:48.932006	23.5	23.3	-82.3	0.0
2025-01-15 16:31:51.176473	23.0	23.1	-81.9	0.0
2025-01-15 16:31:53.424989	22.4	22.9	-82.2	0.0
2025-01-15 16:31:55.673351	21.9	22.7	-82.2	0.0
2025-01-15 16:31:57.918002	21.4	22.6	-81.9	0.0
2025-01-15 16:32:00.161994	20.9	22.4	-82.3	0.0
2025-01-15 16:32:02.407916	20.4	22.2	-82.4	0.0
2025-01-15 16:32:04.655054	19.9	22.0	-82.3	0.0
2025-01-15 16:32:06.901153	19.4	21.8	-82.1	0.0
2025-01-15 16:32:09.147509	18.9	21.6	-82.2	0.0
2025-01-15 16:32:11.394297	18.5	21.5	-82.4	0.0
2025-01-15 16:32:13.642031	18.0	21.3	-82.6	0.0
2025-01-15 16:32:15.888751	17.5	21.1	-82.2	0.0
2025-01-15 16:32:18.134748	17.1	20.9	-82.3	0.0
2025-01-15 16:32:20.380280	16.6	20.7	-82.3	0.0
2025-01-15 16:32:22.625187	16.2	20.5	-82.1	0.0
2025-01-15 16:32:24.872699	15.7	20.3	-82.4	0.0
2025-01-15 16:32:27.118918	15.3	20.1	-82.2	0.0
2025-01-15 16:32:29.365743	14.9	19.9	-82.4	0.0
2025-01-15 16:32:31.610151	14.4	19.8	-82.5	0.0
2025-01-15 16:32:33.859545	14.0	19.6	-82.0	0.0
2025-01-15 16:32:36.104036	13.6	19.4	-82.1	0.0
2025-01-15 16:32:38.350608	13.2	19.2	-82.1	0.0
2025-01-15 16:32:40.598675	12.8	19.0	-82.2	0.0
2025-01-15 16:32:42.845768	12.4	18.8	-82.6	0.0
2025-01-15 16:32:45.093917	12.0	18.6	-82.3	0.0
2025-01-15 16:32:47.339112	11.6	18.4	-82.2	0.0
2025-01-15 16:32:49.585771	11.2	18.2	-82.4	0.0
2025-01-15 16:32:51.835166	10.8	18.0	-82.3	0.0
2025-01-15 16:32:54.081360	10.5	17.8	-82.6	0.0
2025-01-15 16:32:56.324535	10.1	17.7	-82.5	0.0
2025-01-15 16:32:58.570404	9.7	17.5	-82.6	0.0
2025-01-15 16:33:00.819713	9.4	17.3	-82.2	0.0
2025-01-15 16:33:03.064627	9.0	17.1	-82.6	0.0
2025-01-15 16:33:05.313042	8.7	16.9	-82.5	0.0
2025-01-15 16:33:07.558547	8.3	16.7	-82.4	0.0
2025-01-15 16:33:09.804091	8.0	16.5	-82.2	0.0
2025-01-15 16:33:12.051744	7.6	16.3	-82.0	0.0
2025-01-15 16:33:14.297309	7.3	16.1	-82.3	0.0
2025-01-15 16:33:16.544435	7.0	16.0	-82.2	0.0
2025-01-15 16:33:18.792600	6.7	15.8	-82.0	0.0
2025-01-15 16:33:21.041334	6.3	15.6	-82.4	0.0
2025-01-15 16:33:23.289254	6.0	15.4	-82.4	0.0
2025-01-15 16:33:25.535805	5.7	15.2	-82.3	0.0
2025-01-15 16:33:27.782300	5.4	15.0	-82.5	0.0
2025-01-15 16:33:30.030109	5.1	14.8	-82.9	0.0
2025-01-15 16:33:32.278707	4.8	14.7	-82.4	0.0
2025-01-15 16:33:34.525152	4.5	14.5	-82.4	0.0
2025-01-15 16:33:36.770799	4.2	14.3	-82.2	0.0
2025-01-15 16:33:39.017291	3.9	14.1	-82.4	0.0
2025-01-15 16:33:41.263330	3.6	13.9	-82.5	0.0
2025-01-15 16:33:43.508688	3.3	13.8	-82.1	0.0
2025-01-15 16:33:45.753678	3.1	13.6	-82.4	0.0
2025-01-15 16:33:47.999972	2.8	13.4	-82.0	0.0
2025-01-15 16:33:50.243983	2.5	13.2	-82.3	0.0
2025-01-15 16:33:52.489525	2.2	13.0	-82.5	0.0
2025-01-15 16:33:54.733650	2.0	12.9	-82.4	0.0
2025-01-15 16:33:56.976369	1.7	12.7	-82.6	0.0
2025-01-15 16:33:59.223427	1.5	12.5	-82.5	0.0
2025-01-15 16:34:01.468429	1.2	12.3	-82.4	0.0
2025-01-15 16:34:03.715651	1.0	12.2	-82.9	0.0
2025-01-15 16:34:05.963773	0.7	12.0	-82.4	0.0
2025-01-15 16:34:08.212856	0.5	11.8	-82.5	0.0
2025-01-15 16:34:10.461588	0.2	11.6	-82.6	0.0
2025-01-15 16:34:12.708016	360.0	11.5	-82.5	0.0
2025-01-15 16:34:14.956720	359.7	11.3	-82.6	0.0
2025-01-15 16:34:17.203116	359.5	11.1	-82.6	0.0
2025-01-15 16:34:19.448652	359.3	11.0	-82.5	0.0
2025-01-15 16:34:21.691165	359.0	10.8	-82.0	0.0
2025-01-15 16:34:23.937466	358.8	10.6	-82.5	0.0
2025-01-15 16:34:26.183697	358.6	10.5	-82.5	0.0
2025-01-15 16:34:28.430324	358.4	10.3	-82.2	0.0
2025-01-15 16:34:30.678196	358.1	10.1	-82.5	0.0
#Closed at: 2025-01-15 16:25:26.615792