passes_logs/2025/01/15/planumMaritime01/planumMaritime01__20250115_111050_NOAA_18_rec.log

#Pass ID: 20250115_111050_NOAA 18
#Satellite: NOAA 18
#Configuration: NOAA 18
#Start time: 2025-01-15 11:10:55.540838

#LorettStation: 1.0.0 05.05.2024
#Station: planumMaritime01
#Location: 37.49445 lon 55.92918 lat
#TLE: 1 28654U 05018A   25014.17177243  .00000313  00000+0  18955-3 0  9990
#TLE: 2 28654  98.8569  95.2344 0014326 181.4762 178.6370 14.13485757 13061

#Time	Az	El	Level	SNR
2025-01-15 11:10:57.702576	354.5	10.1	-82.3	0.0
2025-01-15 11:10:58.825326	354.3	10.2	-81.6	0.0
2025-01-15 11:10:59.948641	354.1	10.2	-82.1	0.0
2025-01-15 11:11:01.072338	354.0	10.3	-82.4	0.0
2025-01-15 11:11:02.194316	353.8	10.4	-82.5	0.0
2025-01-15 11:11:03.317466	353.7	10.4	-82.4	0.0
2025-01-15 11:11:04.443724	353.5	10.5	-82.2	0.0
2025-01-15 11:11:05.566354	353.4	10.5	-81.9	0.0
2025-01-15 11:11:06.688541	353.2	10.6	-82.3	0.0
2025-01-15 11:11:07.815249	353.0	10.7	-82.6	0.0
2025-01-15 11:11:08.937049	352.9	10.7	-82.4	0.0
2025-01-15 11:11:10.061368	352.7	10.8	-82.2	0.0
2025-01-15 11:11:11.184711	352.6	10.8	-82.5	0.0
2025-01-15 11:11:12.307418	352.4	10.9	-81.9	0.0
2025-01-15 11:11:13.431090	352.2	11.0	-82.4	0.0
2025-01-15 11:11:14.556539	352.1	11.0	-82.2	0.0
2025-01-15 11:11:15.682465	351.9	11.1	-82.1	0.0
2025-01-15 11:11:16.806802	351.8	11.2	-82.2	0.0
2025-01-15 11:11:17.928986	351.6	11.2	-82.5	0.0
2025-01-15 11:11:19.054008	351.4	11.3	-82.6	0.0
2025-01-15 11:11:20.176795	351.3	11.3	-82.5	0.0
2025-01-15 11:11:21.301865	351.1	11.4	-82.3	0.0
2025-01-15 11:11:22.424100	350.9	11.4	-82.9	0.0
2025-01-15 11:11:23.547350	350.7	11.5	-82.6	0.0
2025-01-15 11:11:24.669358	350.6	11.6	-82.2	0.0
2025-01-15 11:11:25.791191	350.4	11.6	-82.7	0.0
2025-01-15 11:11:26.914498	350.2	11.7	-82.3	0.0
2025-01-15 11:11:28.039617	350.1	11.7	-82.0	0.0
2025-01-15 11:11:29.163879	349.9	11.8	-82.7	0.0
2025-01-15 11:11:30.289546	349.7	11.9	-82.8	0.0
2025-01-15 11:11:31.412081	349.6	11.9	-82.6	0.0
2025-01-15 11:11:32.536307	349.4	12.0	-82.4	0.0
2025-01-15 11:11:33.659046	349.2	12.0	-82.3	0.0
2025-01-15 11:11:34.781544	349.0	12.1	-82.2	0.0
2025-01-15 11:11:35.904134	348.8	12.2	-82.8	0.0
2025-01-15 11:11:37.027048	348.7	12.2	-82.7	0.0
2025-01-15 11:11:38.149623	348.5	12.3	-82.8	0.0
2025-01-15 11:11:39.271047	348.3	12.3	-82.7	0.0
2025-01-15 11:11:40.393763	348.1	12.4	-82.8	0.0
2025-01-15 11:11:41.516421	348.0	12.4	-82.4	0.0
2025-01-15 11:11:42.639522	347.8	12.5	-82.1	0.0
2025-01-15 11:11:43.763521	347.6	12.6	-82.4	0.0
2025-01-15 11:11:44.886747	347.4	12.6	-82.5	0.0
2025-01-15 11:11:46.009406	347.2	12.7	-82.4	0.0
2025-01-15 11:11:47.132041	347.0	12.7	-82.8	0.0
2025-01-15 11:11:48.254496	346.9	12.8	-82.5	0.0
2025-01-15 11:11:49.378006	346.7	12.8	-82.6	0.0
2025-01-15 11:11:50.500183	346.5	12.9	-82.5	0.0
2025-01-15 11:11:51.623521	346.3	13.0	-83.0	0.0
2025-01-15 11:11:52.748604	346.1	13.0	-82.6	0.0
2025-01-15 11:11:53.871675	345.9	13.1	-82.8	0.0
2025-01-15 11:11:54.994645	345.7	13.1	-82.5	0.0
2025-01-15 11:11:56.118762	345.6	13.2	-82.6	0.0
2025-01-15 11:11:57.242540	345.4	13.2	-82.5	0.0
2025-01-15 11:11:58.365762	345.2	13.3	-82.8	0.0
2025-01-15 11:11:59.488390	345.0	13.3	-82.9	0.0
2025-01-15 11:12:00.612565	344.8	13.4	-82.4	0.0
2025-01-15 11:12:01.735151	344.6	13.5	-82.2	0.0
2025-01-15 11:12:02.857219	344.4	13.5	-82.5	0.0
2025-01-15 11:12:03.979872	344.2	13.6	-82.8	0.0
2025-01-15 11:12:05.101739	344.0	13.6	-82.8	0.0
2025-01-15 11:12:06.227217	343.8	13.7	-82.6	0.0
2025-01-15 11:12:07.350564	343.6	13.7	-83.1	0.0
2025-01-15 11:12:08.474332	343.4	13.8	-82.9	0.0
2025-01-15 11:12:09.599500	343.2	13.8	-82.7	0.0
2025-01-15 11:12:10.721833	343.0	13.9	-82.5	0.0
2025-01-15 11:12:11.845943	342.8	13.9	-82.6	0.0
2025-01-15 11:12:12.968143	342.6	14.0	-82.9	0.0
2025-01-15 11:12:14.091682	342.4	14.0	-82.7	0.0
2025-01-15 11:12:15.217205	342.2	14.1	-82.9	0.0
2025-01-15 11:12:16.340053	342.0	14.1	-83.0	0.0
2025-01-15 11:12:17.461674	341.8	14.2	-83.0	0.0
2025-01-15 11:12:18.584719	341.6	14.2	-82.9	0.0
2025-01-15 11:12:19.706956	341.4	14.3	-82.3	0.0
2025-01-15 11:12:20.830161	341.2	14.3	-82.7	0.0
2025-01-15 11:12:21.953584	341.0	14.4	-83.0	0.0
2025-01-15 11:12:23.077137	340.8	14.4	-83.2	0.0
2025-01-15 11:12:24.199690	340.6	14.5	-82.8	0.0
2025-01-15 11:12:25.322872	340.4	14.5	-83.0	0.0
2025-01-15 11:12:26.446581	340.2	14.6	-83.0	0.0
2025-01-15 11:12:27.570729	340.0	14.6	-82.9	0.0
2025-01-15 11:12:28.695599	339.8	14.7	-83.0	0.0
2025-01-15 11:12:29.821046	339.5	14.7	-82.6	0.0
2025-01-15 11:12:30.944618	339.3	14.8	-82.7	0.0
2025-01-15 11:12:32.065100	339.1	14.8	-82.4	0.0
2025-01-15 11:12:33.188724	338.9	14.9	-82.2	0.0
2025-01-15 11:12:34.312200	338.7	14.9	-82.4	0.0
2025-01-15 11:12:35.435390	338.5	15.0	-82.7	0.0
2025-01-15 11:12:36.557617	338.3	15.0	-82.6	0.0
2025-01-15 11:12:37.678745	338.1	15.1	-83.0	0.0
2025-01-15 11:12:38.800894	337.8	15.1	-82.9	0.0
2025-01-15 11:12:39.925612	337.6	15.2	-82.4	0.0
2025-01-15 11:12:41.050598	337.4	15.2	-82.8	0.0
2025-01-15 11:12:42.172451	337.2	15.3	-82.6	0.0
2025-01-15 11:12:43.294672	337.0	15.3	-82.5	0.0
2025-01-15 11:12:44.418389	336.7	15.3	-82.8	0.0
2025-01-15 11:12:45.541480	336.5	15.4	-81.6	0.0
2025-01-15 11:12:46.666037	336.3	15.4	-82.0	0.0
2025-01-15 11:12:47.787590	336.1	15.5	-82.2	0.0
2025-01-15 11:12:48.910164	335.9	15.5	-82.3	0.0
2025-01-15 11:12:50.034352	335.6	15.6	-82.0	0.0
2025-01-15 11:12:51.156994	335.4	15.6	-82.7	0.0
2025-01-15 11:12:52.282224	335.2	15.6	-82.7	0.0
2025-01-15 11:12:53.406268	335.0	15.7	-82.7	0.0
2025-01-15 11:12:54.531466	334.7	15.7	-82.2	0.0
2025-01-15 11:12:55.657591	334.5	15.8	-82.1	0.0
2025-01-15 11:12:56.779292	334.3	15.8	-82.4	0.0
2025-01-15 11:12:57.905613	334.1	15.8	-82.6	0.0
2025-01-15 11:12:59.029458	333.8	15.9	-82.3	0.0
2025-01-15 11:13:00.153650	333.6	15.9	-82.8	0.0
2025-01-15 11:13:01.276987	333.4	16.0	-82.8	0.0
2025-01-15 11:13:02.402305	333.1	16.0	-82.7	0.0
2025-01-15 11:13:03.525718	332.9	16.0	-83.0	0.0
2025-01-15 11:13:04.648666	332.7	16.1	-82.7	0.0
2025-01-15 11:13:05.772491	332.5	16.1	-82.8	0.0
2025-01-15 11:13:06.897716	332.2	16.1	-82.7	0.0
2025-01-15 11:13:08.020543	332.0	16.2	-82.6	0.0
2025-01-15 11:13:09.145722	331.8	16.2	-82.4	0.0
2025-01-15 11:13:10.264902	331.5	16.2	-82.2	0.0
2025-01-15 11:13:11.389703	331.3	16.3	-82.6	0.0
2025-01-15 11:13:12.512408	331.1	16.3	-82.1	0.0
2025-01-15 11:13:13.635849	330.8	16.4	-82.4	0.0
2025-01-15 11:13:14.760037	330.6	16.4	-82.6	0.0
2025-01-15 11:13:15.884705	330.3	16.4	-82.2	0.0
2025-01-15 11:13:17.006462	330.1	16.5	-82.4	0.0
2025-01-15 11:13:18.130834	329.9	16.5	-82.6	0.0
2025-01-15 11:13:19.254557	329.6	16.5	-82.6	0.0
2025-01-15 11:13:20.376993	329.4	16.5	-82.7	0.0
2025-01-15 11:13:21.499440	329.2	16.6	-82.8	0.0
2025-01-15 11:13:22.621424	328.9	16.6	-82.6	0.0
2025-01-15 11:13:23.744452	328.7	16.6	-82.4	0.0
2025-01-15 11:13:24.865344	328.4	16.7	-82.7	0.0
2025-01-15 11:13:25.987294	328.2	16.7	-82.5	0.0
2025-01-15 11:13:27.110598	328.0	16.7	-83.0	0.0
2025-01-15 11:13:28.232217	327.7	16.7	-82.6	0.0
2025-01-15 11:13:29.356719	327.5	16.8	-82.6	0.0
2025-01-15 11:13:30.479479	327.2	16.8	-82.9	0.0
2025-01-15 11:13:31.601591	327.0	16.8	-82.4	0.0
2025-01-15 11:13:32.724997	326.7	16.9	-82.7	0.0
2025-01-15 11:13:33.849421	326.5	16.9	-82.6	0.0
2025-01-15 11:13:34.972622	326.3	16.9	-82.7	0.0
2025-01-15 11:13:36.096300	326.0	16.9	-82.9	0.0
2025-01-15 11:13:37.219891	325.8	17.0	-82.3	0.0
2025-01-15 11:13:38.342559	325.5	17.0	-82.6	0.0
2025-01-15 11:13:39.467546	325.3	17.0	-82.1	0.0
2025-01-15 11:13:40.590752	325.0	17.0	-82.3	0.0
2025-01-15 11:13:41.715840	324.8	17.0	-82.0	0.0
2025-01-15 11:13:42.839170	324.5	17.1	-82.7	0.0
2025-01-15 11:13:43.962610	324.3	17.1	-82.2	0.0
2025-01-15 11:13:45.088044	324.0	17.1	-82.5	0.0
2025-01-15 11:13:46.209072	323.8	17.1	-82.3	0.0
2025-01-15 11:13:47.330854	323.5	17.1	-82.1	0.0
2025-01-15 11:13:48.454174	323.3	17.2	-82.4	0.0
2025-01-15 11:13:49.578354	323.0	17.2	-82.8	0.0
2025-01-15 11:13:50.700325	322.8	17.2	-82.4	0.0
2025-01-15 11:13:51.824075	322.6	17.2	-82.8	0.0
2025-01-15 11:13:52.947337	322.3	17.2	-82.9	0.0
2025-01-15 11:13:54.069238	322.1	17.2	-82.8	0.0
2025-01-15 11:13:55.191522	321.8	17.3	-82.7	0.0
2025-01-15 11:13:56.314934	321.5	17.3	-82.6	0.0
2025-01-15 11:13:57.438174	321.3	17.3	-83.1	0.0
2025-01-15 11:13:58.560834	321.0	17.3	-82.4	0.0
2025-01-15 11:13:59.686217	320.8	17.3	-82.1	0.0
2025-01-15 11:14:00.811321	320.5	17.3	-82.5	0.0
2025-01-15 11:14:01.937689	320.3	17.3	-83.0	0.0
2025-01-15 11:14:03.060217	320.0	17.3	-82.8	0.0
2025-01-15 11:14:04.181061	319.8	17.4	-82.9	0.0
2025-01-15 11:14:05.304587	319.5	17.4	-83.0	0.0
2025-01-15 11:14:06.426370	319.3	17.4	-82.8	0.0
2025-01-15 11:14:07.551190	319.0	17.4	-82.9	0.0
2025-01-15 11:14:08.673588	318.8	17.4	-83.1	0.0
2025-01-15 11:14:09.796469	318.5	17.4	-83.3	0.0
2025-01-15 11:14:10.919020	318.3	17.4	-82.9	0.0
2025-01-15 11:14:12.040612	318.0	17.4	-82.6	0.0
2025-01-15 11:14:13.164497	317.8	17.4	-82.8	0.0
2025-01-15 11:14:14.286430	317.5	17.4	-82.8	0.0
2025-01-15 11:14:15.408475	317.3	17.4	-82.8	0.0
2025-01-15 11:14:16.533980	317.0	17.4	-82.6	0.0
2025-01-15 11:14:17.656270	316.8	17.4	-82.5	0.0
2025-01-15 11:14:18.777455	316.5	17.4	-82.9	0.0
2025-01-15 11:14:19.900136	316.2	17.4	-82.5	0.0
2025-01-15 11:14:21.022742	316.0	17.5	-82.3	0.0
2025-01-15 11:14:22.145509	315.7	17.5	-82.6	0.0
2025-01-15 11:14:23.266192	315.5	17.5	-82.8	0.0
2025-01-15 11:14:24.389542	315.2	17.5	-82.2	0.0
2025-01-15 11:14:25.510499	315.0	17.5	-82.1	0.0
2025-01-15 11:14:26.633185	314.7	17.5	-82.8	0.0
2025-01-15 11:14:27.755262	314.5	17.5	-82.8	0.0
2025-01-15 11:14:28.878466	314.2	17.4	-82.7	0.0
2025-01-15 11:14:30.001881	314.0	17.4	-83.0	0.0
2025-01-15 11:14:31.126860	313.7	17.4	-83.2	0.0
2025-01-15 11:14:32.249358	313.5	17.4	-82.7	0.0
2025-01-15 11:14:33.371138	313.2	17.4	-82.9	0.0
2025-01-15 11:14:34.492982	312.9	17.4	-82.8	0.0
2025-01-15 11:14:35.615320	312.7	17.4	-82.6	0.0
2025-01-15 11:14:36.739252	312.4	17.4	-82.4	0.0
2025-01-15 11:14:37.862100	312.2	17.4	-82.4	0.0
2025-01-15 11:14:38.985687	311.9	17.4	-82.3	0.0
2025-01-15 11:14:40.109534	311.7	17.4	-82.7	0.0
2025-01-15 11:14:41.234154	311.4	17.4	-82.6	0.0
2025-01-15 11:14:42.356924	311.2	17.4	-81.9	0.0
2025-01-15 11:14:43.478728	310.9	17.4	-82.3	0.0
2025-01-15 11:14:44.604065	310.7	17.4	-82.9	0.0
2025-01-15 11:14:45.727381	310.4	17.3	-82.6	0.0
2025-01-15 11:14:46.850316	310.2	17.3	-82.7	0.0
2025-01-15 11:14:47.974779	309.9	17.3	-82.8	0.0
2025-01-15 11:14:49.096446	309.7	17.3	-82.7	0.0
2025-01-15 11:14:50.219877	309.4	17.3	-82.8	0.0
2025-01-15 11:14:51.341719	309.2	17.3	-82.8	0.0
2025-01-15 11:14:52.465340	308.9	17.3	-83.0	0.0
2025-01-15 11:14:53.588236	308.7	17.3	-82.9	0.0
2025-01-15 11:14:54.709065	308.4	17.2	-82.8	0.0
2025-01-15 11:14:55.832616	308.2	17.2	-82.8	0.0
2025-01-15 11:14:56.956688	307.9	17.2	-82.2	0.0
2025-01-15 11:14:58.079526	307.7	17.2	-82.5	0.0
2025-01-15 11:14:59.201757	307.4	17.2	-82.9	0.0
2025-01-15 11:15:00.324622	307.2	17.2	-82.3	0.0
2025-01-15 11:15:01.450029	306.9	17.1	-82.8	0.0
2025-01-15 11:15:02.572635	306.7	17.1	-82.4	0.0
2025-01-15 11:15:03.695345	306.4	17.1	-82.3	0.0
2025-01-15 11:15:04.818128	306.2	17.1	-82.5	0.0
2025-01-15 11:15:05.940522	305.9	17.1	-82.5	0.0
2025-01-15 11:15:07.065176	305.7	17.0	-82.7	0.0
2025-01-15 11:15:08.187842	305.4	17.0	-82.7	0.0
2025-01-15 11:15:09.311909	305.2	17.0	-82.3	0.0
2025-01-15 11:15:10.433432	304.9	17.0	-82.6	0.0
2025-01-15 11:15:11.555666	304.7	16.9	-82.5	0.0
2025-01-15 11:15:12.678705	304.4	16.9	-82.5	0.0
2025-01-15 11:15:13.803440	304.2	16.9	-82.8	0.0
2025-01-15 11:15:14.927532	303.9	16.9	-82.9	0.0
2025-01-15 11:15:16.051028	303.7	16.9	-82.7	0.0
2025-01-15 11:15:17.172999	303.4	16.8	-82.5	0.0
2025-01-15 11:15:18.295182	303.2	16.8	-82.4	0.0
2025-01-15 11:15:19.418865	303.0	16.8	-82.5	0.0
2025-01-15 11:15:20.541686	302.7	16.7	-82.9	0.0
2025-01-15 11:15:21.664372	302.5	16.7	-82.8	0.0
2025-01-15 11:15:22.787300	302.2	16.7	-82.5	0.0
2025-01-15 11:15:23.909932	302.0	16.7	-82.9	0.0
2025-01-15 11:15:25.035118	301.7	16.6	-82.0	0.0
2025-01-15 11:15:26.160744	301.5	16.6	-82.4	0.0
2025-01-15 11:15:27.286207	301.3	16.6	-82.5	0.0
2025-01-15 11:15:28.409531	301.0	16.5	-82.5	0.0
2025-01-15 11:15:29.531398	300.8	16.5	-82.4	0.0
2025-01-15 11:15:30.655891	300.5	16.5	-83.3	0.0
2025-01-15 11:15:31.779998	300.3	16.4	-82.8	0.0
2025-01-15 11:15:32.902534	300.1	16.4	-83.1	0.0
2025-01-15 11:15:34.025210	299.8	16.4	-83.0	0.0
2025-01-15 11:15:35.151329	299.6	16.3	-82.9	0.0
2025-01-15 11:15:36.273666	299.4	16.3	-82.9	0.0
2025-01-15 11:15:37.397426	299.1	16.3	-83.2	0.0
2025-01-15 11:15:38.519675	298.9	16.2	-82.7	0.0
2025-01-15 11:15:39.641426	298.7	16.2	-82.9	0.0
2025-01-15 11:15:40.763439	298.4	16.2	-82.8	0.0
2025-01-15 11:15:41.886670	298.2	16.1	-82.8	0.0
2025-01-15 11:15:43.010847	298.0	16.1	-82.9	0.0
2025-01-15 11:15:44.134675	297.7	16.1	-82.7	0.0
2025-01-15 11:15:45.257119	297.5	16.0	-82.7	0.0
2025-01-15 11:15:46.381050	297.3	16.0	-82.0	0.0
2025-01-15 11:15:47.502939	297.0	15.9	-82.0	0.0
2025-01-15 11:15:48.626240	296.8	15.9	-82.6	0.0
2025-01-15 11:15:49.750528	296.6	15.9	-82.7	0.0
2025-01-15 11:15:50.872502	296.3	15.8	-82.4	0.0
2025-01-15 11:15:51.994301	296.1	15.8	-82.8	0.0
2025-01-15 11:15:53.115033	295.9	15.8	-82.5	0.0
2025-01-15 11:15:54.235886	295.7	15.7	-82.6	0.0
2025-01-15 11:15:55.358610	295.4	15.7	-82.4	0.0
2025-01-15 11:15:56.482698	295.2	15.6	-82.0	0.0
2025-01-15 11:15:57.606393	295.0	15.6	-82.6	0.0
2025-01-15 11:15:58.730191	294.8	15.5	-82.6	0.0
2025-01-15 11:15:59.852620	294.5	15.5	-82.7	0.0
2025-01-15 11:16:00.976928	294.3	15.5	-82.9	0.0
2025-01-15 11:16:02.100986	294.1	15.4	-82.3	0.0
2025-01-15 11:16:03.224209	293.9	15.4	-82.7	0.0
2025-01-15 11:16:04.347509	293.6	15.3	-82.3	0.0
2025-01-15 11:16:05.470548	293.4	15.3	-82.6	0.0
2025-01-15 11:16:06.592461	293.2	15.2	-82.1	0.0
2025-01-15 11:16:07.716661	293.0	15.2	-82.0	0.0
2025-01-15 11:16:08.838743	292.8	15.1	-82.0	0.0
2025-01-15 11:16:09.960242	292.5	15.1	-82.3	0.0
2025-01-15 11:16:11.082994	292.3	15.1	-82.4	0.0
2025-01-15 11:16:12.207202	292.1	15.0	-82.6	0.0
2025-01-15 11:16:13.329586	291.9	15.0	-82.5	0.0
2025-01-15 11:16:14.453099	291.7	14.9	-83.0	0.0
2025-01-15 11:16:15.576640	291.5	14.9	-82.9	0.0
2025-01-15 11:16:16.697253	291.3	14.8	-82.6	0.0
2025-01-15 11:16:17.819251	291.0	14.8	-82.8	0.0
2025-01-15 11:16:18.942559	290.8	14.7	-82.8	0.0
2025-01-15 11:16:20.064706	290.6	14.7	-83.0	0.0
2025-01-15 11:16:21.189676	290.4	14.6	-83.1	0.0
2025-01-15 11:16:22.314340	290.2	14.6	-83.2	0.0
2025-01-15 11:16:23.439554	290.0	14.5	-82.9	0.0
2025-01-15 11:16:24.562506	289.8	14.5	-83.1	0.0
2025-01-15 11:16:25.686196	289.6	14.4	-83.1	0.0
2025-01-15 11:16:26.808652	289.4	14.4	-83.3	0.0
2025-01-15 11:16:27.930417	289.1	14.3	-82.8	0.0
2025-01-15 11:16:29.052667	288.9	14.3	-82.5	0.0
2025-01-15 11:16:30.173448	288.7	14.2	-82.6	0.0
2025-01-15 11:16:31.295043	288.5	14.2	-83.0	0.0
2025-01-15 11:16:32.417871	288.3	14.1	-82.9	0.0
2025-01-15 11:16:33.541211	288.1	14.1	-82.5	0.0
2025-01-15 11:16:34.663344	287.9	14.0	-82.5	0.0
2025-01-15 11:16:35.786215	287.7	14.0	-82.4	0.0
2025-01-15 11:16:36.910620	287.5	13.9	-82.3	0.0
2025-01-15 11:16:38.034051	287.3	13.9	-82.2	0.0
2025-01-15 11:16:39.156470	287.1	13.8	-82.5	0.0
2025-01-15 11:16:40.278675	286.9	13.8	-82.6	0.0
2025-01-15 11:16:41.403881	286.7	13.7	-82.9	0.0
2025-01-15 11:16:42.527807	286.5	13.6	-83.3	0.0
2025-01-15 11:16:43.650535	286.3	13.6	-82.7	0.0
2025-01-15 11:16:44.772377	286.1	13.5	-82.7	0.0
2025-01-15 11:16:45.895345	285.9	13.5	-83.0	0.0
2025-01-15 11:16:47.016346	285.7	13.4	-82.8	0.0
2025-01-15 11:16:48.140273	285.5	13.4	-82.7	0.0
2025-01-15 11:16:49.263295	285.3	13.3	-82.5	0.0
2025-01-15 11:16:50.388862	285.2	13.3	-82.4	0.0
2025-01-15 11:16:51.512186	285.0	13.2	-82.4	0.0
2025-01-15 11:16:52.635081	284.8	13.2	-82.7	0.0
2025-01-15 11:16:53.758566	284.6	13.1	-82.7	0.0
2025-01-15 11:16:54.881926	284.4	13.0	-82.9	0.0
2025-01-15 11:16:56.003519	284.2	13.0	-83.0	0.0
2025-01-15 11:16:57.124316	284.0	12.9	-82.8	0.0
2025-01-15 11:16:58.246992	283.8	12.9	-83.0	0.0
2025-01-15 11:16:59.370333	283.6	12.8	-82.9	0.0
2025-01-15 11:17:00.496306	283.5	12.8	-82.9	0.0
2025-01-15 11:17:01.620287	283.3	12.7	-82.6	0.0
2025-01-15 11:17:02.740164	283.1	12.6	-82.8	0.0
2025-01-15 11:17:03.862881	282.9	12.6	-82.5	0.0
2025-01-15 11:17:04.985476	282.7	12.5	-82.6	0.0
2025-01-15 11:17:06.109499	282.5	12.5	-82.9	0.0
2025-01-15 11:17:07.231387	282.3	12.4	-82.5	0.0
2025-01-15 11:17:08.355273	282.2	12.4	-82.4	0.0
2025-01-15 11:17:09.477900	282.0	12.3	-82.8	0.0
2025-01-15 11:17:10.601174	281.8	12.2	-83.2	0.0
2025-01-15 11:17:11.727452	281.6	12.2	-82.0	0.0
2025-01-15 11:17:12.850553	281.4	12.1	-82.8	0.0
2025-01-15 11:17:13.973066	281.3	12.1	-83.0	0.0
2025-01-15 11:17:15.097482	281.1	12.0	-83.1	0.0
2025-01-15 11:17:16.221209	280.9	11.9	-82.5	0.0
2025-01-15 11:17:17.343125	280.7	11.9	-82.6	0.0
2025-01-15 11:17:18.467470	280.6	11.8	-82.6	0.0
2025-01-15 11:17:19.588811	280.4	11.8	-81.8	0.0
2025-01-15 11:17:20.711449	280.2	11.7	-82.5	0.0
2025-01-15 11:17:21.833484	280.0	11.6	-82.4	0.0
2025-01-15 11:17:22.958063	279.9	11.6	-82.1	0.0
2025-01-15 11:17:24.079549	279.7	11.5	-82.0	0.0
2025-01-15 11:17:25.201549	279.5	11.5	-82.9	0.0
2025-01-15 11:17:26.324873	279.4	11.4	-82.3	0.0
2025-01-15 11:17:27.449626	279.2	11.3	-83.0	0.0
2025-01-15 11:17:28.573524	279.0	11.3	-82.4	0.0
2025-01-15 11:17:29.695518	278.9	11.2	-82.1	0.0
2025-01-15 11:17:30.819392	278.7	11.2	-82.5	0.0
2025-01-15 11:17:31.944622	278.5	11.1	-82.4	0.0
2025-01-15 11:17:33.065736	278.4	11.0	-82.3	0.0
2025-01-15 11:17:34.189096	278.2	11.0	-82.2	0.0
2025-01-15 11:17:35.314888	278.0	10.9	-82.4	0.0
2025-01-15 11:17:36.436717	277.9	10.9	-82.6	0.0
2025-01-15 11:17:37.560414	277.7	10.8	-82.7	0.0
2025-01-15 11:17:38.683777	277.5	10.7	-82.4	0.0
2025-01-15 11:17:39.808212	277.4	10.7	-82.7	0.0
2025-01-15 11:17:40.929545	277.2	10.6	-83.1	0.0
2025-01-15 11:17:42.052861	277.0	10.6	-82.5	0.0
2025-01-15 11:17:43.176883	276.9	10.5	-82.9	0.0
2025-01-15 11:17:44.298383	276.7	10.4	-82.8	0.0
2025-01-15 11:17:45.424508	276.6	10.4	-82.8	0.0
2025-01-15 11:17:46.547968	276.4	10.3	-82.9	0.0
2025-01-15 11:17:47.672238	276.3	10.3	-82.8	0.0
2025-01-15 11:17:48.795869	276.1	10.2	-82.8	0.0
2025-01-15 11:17:49.920590	275.9	10.1	-82.3	0.0
2025-01-15 11:17:51.045516	275.8	10.1	-82.8	0.0
#Closed at: 2025-01-15 11:10:50.542927