passes_logs/2025/01/15/planumMaritime01/planumMaritime01__20250115_090415_NOAA_19_rec.log

#Pass ID: 20250115_090415_NOAA 19
#Satellite: NOAA 19
#Configuration: NOAA 19
#Start time: 2025-01-15 09:04:20.131859

#LorettStation: 1.0.0 05.05.2024
#Station: planumMaritime01
#Location: 37.49445 lon 55.92918 lat
#TLE: 1 33591U 09005A   25014.15453959  .00000276  00000+0  17122-3 0  9998
#TLE: 2 33591  99.0198  77.9105 0014501  59.8090 300.4516 14.13258688821422

#Time	Az	El	Level	SNR
2025-01-15 09:04:22.292070	5.7	10.2	-80.9	0.0
2025-01-15 09:04:24.539647	5.5	10.3	-80.9	0.0
2025-01-15 09:04:26.784776	5.3	10.5	-80.9	0.0
2025-01-15 09:04:29.034082	5.1	10.7	-81.0	0.0
2025-01-15 09:04:31.277655	4.9	10.9	-81.3	0.0
2025-01-15 09:04:33.524467	4.8	11.1	-81.5	0.0
2025-01-15 09:04:35.775278	4.6	11.2	-81.2	0.0
2025-01-15 09:04:38.022042	4.4	11.4	-81.1	0.0
2025-01-15 09:04:40.269716	4.2	11.6	-81.2	0.0
2025-01-15 09:04:42.517243	4.0	11.8	-80.3	0.0
2025-01-15 09:04:44.769049	3.8	12.0	-81.5	0.0
2025-01-15 09:04:47.015040	3.6	12.2	-81.5	0.0
2025-01-15 09:04:49.260067	3.4	12.3	-81.5	0.0
2025-01-15 09:04:51.508024	3.2	12.5	-81.6	0.0
2025-01-15 09:04:53.750613	3.0	12.7	-81.7	0.0
2025-01-15 09:04:56.000727	2.7	12.9	-81.5	0.0
2025-01-15 09:04:58.248761	2.5	13.1	-81.5	0.0
2025-01-15 09:05:00.494524	2.3	13.3	-81.4	0.0
2025-01-15 09:05:02.739056	2.1	13.5	-81.2	0.0
2025-01-15 09:05:04.984544	1.9	13.7	-81.6	0.0
2025-01-15 09:05:07.230191	1.6	13.9	-81.4	0.0
2025-01-15 09:05:09.474545	1.4	14.1	-81.8	0.0
2025-01-15 09:05:11.718667	1.2	14.3	-81.7	0.0
2025-01-15 09:05:13.968228	0.9	14.5	-81.6	0.0
2025-01-15 09:05:16.215993	0.7	14.7	-81.6	0.0
2025-01-15 09:05:18.465077	0.5	14.9	-81.5	0.0
2025-01-15 09:05:20.710179	0.2	15.1	-81.8	0.0
2025-01-15 09:05:22.955583	360.0	15.3	-81.7	0.0
2025-01-15 09:05:25.203710	359.7	15.5	-81.4	0.0
2025-01-15 09:05:27.449741	359.5	15.7	-81.5	0.0
2025-01-15 09:05:29.695168	359.2	15.9	-81.5	0.0
2025-01-15 09:05:31.940908	358.9	16.1	-81.7	0.0
2025-01-15 09:05:34.188061	358.7	16.3	-81.7	0.0
2025-01-15 09:05:36.432025	358.4	16.5	-82.0	0.0
2025-01-15 09:05:38.677809	358.1	16.7	-81.7	0.0
2025-01-15 09:05:40.920948	357.8	16.9	-81.9	0.0
2025-01-15 09:05:43.167584	357.6	17.1	-81.9	0.0
2025-01-15 09:05:45.412470	357.3	17.3	-81.7	0.0
2025-01-15 09:05:47.658419	357.0	17.6	-81.9	0.0
2025-01-15 09:05:49.905149	356.7	17.8	-81.9	0.0
2025-01-15 09:05:52.151468	356.4	18.0	-81.9	0.0
2025-01-15 09:05:54.400746	356.1	18.2	-81.7	0.0
2025-01-15 09:05:56.647254	355.8	18.4	-81.7	0.0
2025-01-15 09:05:58.895150	355.5	18.7	-81.4	0.0
2025-01-15 09:06:01.143451	355.1	18.9	-81.8	0.0
2025-01-15 09:06:03.388345	354.8	19.1	-81.6	0.0
2025-01-15 09:06:05.636974	354.5	19.3	-81.5	0.0
2025-01-15 09:06:07.883778	354.2	19.5	-81.5	0.0
2025-01-15 09:06:10.132166	353.8	19.8	-81.6	0.0
2025-01-15 09:06:12.377286	353.5	20.0	-82.0	0.0
2025-01-15 09:06:14.623872	353.1	20.2	-81.7	0.0
2025-01-15 09:06:16.869867	352.8	20.4	-81.9	0.0
2025-01-15 09:06:19.115067	352.4	20.7	-82.0	0.0
2025-01-15 09:06:21.360694	352.1	20.9	-81.9	0.0
2025-01-15 09:06:23.608145	351.7	21.1	-81.8	0.0
2025-01-15 09:06:25.856504	351.3	21.4	-82.0	0.0
2025-01-15 09:06:28.101508	350.9	21.6	-81.9	0.0
2025-01-15 09:06:30.349467	350.5	21.8	-81.8	0.0
2025-01-15 09:06:32.597884	350.2	22.1	-81.9	0.0
2025-01-15 09:06:34.844011	349.8	22.3	-81.8	0.0
2025-01-15 09:06:37.089146	349.3	22.5	-82.1	0.0
2025-01-15 09:06:39.333079	348.9	22.8	-81.9	0.0
2025-01-15 09:06:41.581194	348.5	23.0	-81.8	0.0
2025-01-15 09:06:43.825034	348.1	23.2	-82.3	0.0
2025-01-15 09:06:46.070094	347.7	23.5	-82.0	0.0
2025-01-15 09:06:48.315949	347.2	23.7	-81.6	0.0
2025-01-15 09:06:50.562051	346.8	24.0	-81.9	0.0
2025-01-15 09:06:52.808142	346.3	24.2	-82.0	0.0
2025-01-15 09:06:55.049716	345.9	24.4	-82.2	0.0
2025-01-15 09:06:57.296676	345.4	24.7	-82.0	0.0
2025-01-15 09:06:59.546192	344.9	24.9	-81.6	0.0
2025-01-15 09:07:01.793780	344.5	25.1	-81.8	0.0
2025-01-15 09:07:04.038137	344.0	25.4	-82.1	0.0
2025-01-15 09:07:06.283932	343.5	25.6	-82.1	0.0
2025-01-15 09:07:08.530094	343.0	25.8	-81.9	0.0
2025-01-15 09:07:10.776380	342.5	26.1	-81.6	0.0
2025-01-15 09:07:13.025575	342.0	26.3	-81.7	0.0
2025-01-15 09:07:15.271025	341.4	26.6	-81.9	0.0
2025-01-15 09:07:17.523596	340.9	26.8	-82.1	0.0
2025-01-15 09:07:19.770761	340.4	27.0	-81.8	0.0
2025-01-15 09:07:22.021000	339.8	27.3	-81.7	0.0
2025-01-15 09:07:24.265218	339.3	27.5	-81.9	0.0
2025-01-15 09:07:26.508115	338.7	27.7	-82.1	0.0
2025-01-15 09:07:28.755616	338.1	28.0	-81.6	0.0
2025-01-15 09:07:31.000486	337.5	28.2	-82.2	0.0
2025-01-15 09:07:33.248783	337.0	28.4	-82.3	0.0
2025-01-15 09:07:35.495793	336.4	28.6	-82.3	0.0
2025-01-15 09:07:37.742908	335.8	28.9	-82.1	0.0
2025-01-15 09:07:39.986861	335.1	29.1	-82.1	0.0
2025-01-15 09:07:42.235297	334.5	29.3	-82.1	0.0
2025-01-15 09:07:44.479946	333.9	29.5	-81.9	0.0
2025-01-15 09:07:46.724385	333.2	29.7	-82.3	0.0
2025-01-15 09:07:48.969760	332.6	29.9	-82.1	0.0
2025-01-15 09:07:51.215727	331.9	30.2	-82.2	0.0
2025-01-15 09:07:53.462345	331.3	30.4	-82.4	0.0
2025-01-15 09:07:55.708332	330.6	30.6	-82.2	0.0
2025-01-15 09:07:57.954432	329.9	30.8	-82.2	0.0
2025-01-15 09:08:00.201400	329.2	31.0	-82.3	0.0
2025-01-15 09:08:02.447731	328.5	31.2	-82.3	0.0
2025-01-15 09:08:04.693528	327.8	31.4	-82.4	0.0
2025-01-15 09:08:06.939624	327.1	31.5	-82.2	0.0
2025-01-15 09:08:09.186006	326.4	31.7	-82.3	0.0
2025-01-15 09:08:11.435123	325.6	31.9	-81.9	0.0
2025-01-15 09:08:13.682108	324.9	32.1	-82.0	0.0
2025-01-15 09:08:15.928963	324.2	32.2	-81.8	0.0
2025-01-15 09:08:18.173626	323.4	32.4	-82.1	0.0
2025-01-15 09:08:20.421923	322.6	32.6	-82.4	0.0
2025-01-15 09:08:22.669538	321.9	32.7	-82.2	0.0
2025-01-15 09:08:24.913456	321.1	32.9	-82.2	0.0
2025-01-15 09:08:27.159348	320.3	33.0	-82.1	0.0
2025-01-15 09:08:29.404171	319.5	33.2	-82.2	0.0
2025-01-15 09:08:31.649565	318.7	33.3	-82.1	0.0
2025-01-15 09:08:33.897824	317.9	33.4	-82.0	0.0
2025-01-15 09:08:36.145496	317.1	33.5	-82.1	0.0
2025-01-15 09:08:38.389633	316.3	33.7	-82.0	0.0
2025-01-15 09:08:40.635671	315.4	33.8	-82.1	0.0
2025-01-15 09:08:42.885428	314.6	33.9	-81.9	0.0
2025-01-15 09:08:45.130990	313.8	34.0	-82.0	0.0
2025-01-15 09:08:47.378818	312.9	34.1	-82.0	0.0
2025-01-15 09:08:49.625368	312.1	34.1	-81.7	0.0
2025-01-15 09:08:51.874041	311.2	34.2	-81.8	0.0
2025-01-15 09:08:54.118438	310.4	34.3	-81.8	0.0
2025-01-15 09:08:56.366220	309.5	34.3	-81.9	0.0
2025-01-15 09:08:58.611156	308.7	34.4	-81.7	0.0
2025-01-15 09:09:00.856388	307.8	34.4	-81.7	0.0
2025-01-15 09:09:03.104603	307.0	34.5	-81.9	0.0
2025-01-15 09:09:05.351302	306.1	34.5	-81.8	0.0
2025-01-15 09:09:07.596182	305.2	34.5	-82.1	0.0
2025-01-15 09:09:09.843223	304.3	34.6	-82.1	0.0
2025-01-15 09:09:12.091939	303.5	34.6	-82.1	0.0
2025-01-15 09:09:14.339727	302.6	34.6	-82.3	0.0
2025-01-15 09:09:16.584391	301.7	34.6	-82.1	0.0
2025-01-15 09:09:18.831091	300.9	34.6	-81.9	0.0
2025-01-15 09:09:21.075480	300.0	34.5	-81.9	0.0
2025-01-15 09:09:23.319270	299.1	34.5	-82.0	0.0
2025-01-15 09:09:25.566661	298.3	34.5	-82.2	0.0
2025-01-15 09:09:27.813568	297.4	34.4	-82.1	0.0
2025-01-15 09:09:30.061258	296.5	34.4	-81.7	0.0
2025-01-15 09:09:32.307555	295.7	34.3	-82.0	0.0
2025-01-15 09:09:34.552871	294.8	34.3	-82.2	0.0
2025-01-15 09:09:36.799282	294.0	34.2	-82.1	0.0
2025-01-15 09:09:39.043619	293.1	34.1	-82.1	0.0
2025-01-15 09:09:41.289702	292.3	34.0	-82.0	0.0
2025-01-15 09:09:43.532568	291.5	33.9	-81.5	0.0
2025-01-15 09:09:45.778418	290.6	33.8	-82.1	0.0
2025-01-15 09:09:48.023898	289.8	33.7	-82.0	0.0
2025-01-15 09:09:50.268887	289.0	33.6	-82.4	0.0
2025-01-15 09:09:52.520291	288.2	33.5	-81.9	0.0
2025-01-15 09:09:54.769494	287.3	33.4	-81.9	0.0
2025-01-15 09:09:57.013288	286.5	33.3	-82.2	0.0
2025-01-15 09:09:59.261328	285.7	33.1	-82.1	0.0
2025-01-15 09:10:01.506861	284.9	33.0	-82.2	0.0
2025-01-15 09:10:03.750087	284.2	32.8	-82.4	0.0
2025-01-15 09:10:05.997440	283.4	32.7	-82.4	0.0
2025-01-15 09:10:08.243943	282.6	32.5	-82.2	0.0
2025-01-15 09:10:10.489449	281.9	32.4	-82.4	0.0
2025-01-15 09:10:12.735433	281.1	32.2	-82.1	0.0
2025-01-15 09:10:14.980976	280.4	32.0	-82.4	0.0
2025-01-15 09:10:17.225240	279.6	31.8	-82.2	0.0
2025-01-15 09:10:19.472136	278.9	31.7	-82.1	0.0
2025-01-15 09:10:21.719469	278.2	31.5	-82.2	0.0
2025-01-15 09:10:23.966104	277.4	31.3	-82.3	0.0
2025-01-15 09:10:26.212094	276.7	31.1	-81.9	0.0
2025-01-15 09:10:28.458500	276.0	30.9	-82.3	0.0
2025-01-15 09:10:30.708071	275.4	30.7	-82.2	0.0
2025-01-15 09:10:32.955451	274.7	30.5	-82.4	0.0
2025-01-15 09:10:35.200748	274.0	30.3	-81.7	0.0
2025-01-15 09:10:37.446417	273.3	30.1	-82.2	0.0
2025-01-15 09:10:39.691680	272.7	29.9	-82.2	0.0
2025-01-15 09:10:41.935637	272.0	29.7	-82.0	0.0
2025-01-15 09:10:44.185818	271.4	29.5	-82.2	0.0
2025-01-15 09:10:46.431898	270.8	29.2	-82.2	0.0
2025-01-15 09:10:48.679316	270.1	29.0	-82.3	0.0
2025-01-15 09:10:50.926535	269.5	28.8	-82.3	0.0
2025-01-15 09:10:53.174035	268.9	28.6	-82.4	0.0
2025-01-15 09:10:55.420801	268.3	28.3	-82.3	0.0
2025-01-15 09:10:57.667942	267.7	28.1	-82.0	0.0
2025-01-15 09:10:59.914749	267.2	27.9	-82.3	0.0
2025-01-15 09:11:02.160585	266.6	27.7	-82.3	0.0
2025-01-15 09:11:04.406129	266.0	27.4	-82.2	0.0
2025-01-15 09:11:06.652273	265.5	27.2	-82.3	0.0
2025-01-15 09:11:08.899835	264.9	27.0	-82.6	0.0
2025-01-15 09:11:11.144195	264.4	26.7	-82.5	0.0
2025-01-15 09:11:13.388680	263.9	26.5	-82.5	0.0
2025-01-15 09:11:15.637301	263.3	26.3	-82.7	0.0
2025-01-15 09:11:17.883952	262.8	26.0	-82.7	0.0
2025-01-15 09:11:20.127904	262.3	25.8	-82.5	0.0
2025-01-15 09:11:22.378017	261.8	25.5	-82.5	0.0
2025-01-15 09:11:24.622542	261.3	25.3	-82.5	0.0
2025-01-15 09:11:26.867926	260.8	25.1	-82.2	0.0
2025-01-15 09:11:29.111353	260.4	24.8	-82.5	0.0
2025-01-15 09:11:31.357719	259.9	24.6	-82.3	0.0
2025-01-15 09:11:33.602937	259.4	24.4	-82.6	0.0
2025-01-15 09:11:35.849449	259.0	24.1	-82.3	0.0
2025-01-15 09:11:38.095060	258.5	23.9	-82.3	0.0
2025-01-15 09:11:40.338337	258.1	23.6	-82.3	0.0
2025-01-15 09:11:42.585357	257.7	23.4	-82.1	0.0
2025-01-15 09:11:44.830429	257.2	23.2	-82.3	0.0
2025-01-15 09:11:47.075440	256.8	22.9	-82.3	0.0
2025-01-15 09:11:49.322959	256.4	22.7	-82.0	0.0
2025-01-15 09:11:51.569867	256.0	22.5	-82.2	0.0
2025-01-15 09:11:53.813803	255.6	22.2	-82.3	0.0
2025-01-15 09:11:56.060577	255.2	22.0	-82.3	0.0
2025-01-15 09:11:58.308886	254.8	21.8	-82.1	0.0
2025-01-15 09:12:00.555244	254.4	21.5	-82.5	0.0
2025-01-15 09:12:02.802697	254.0	21.3	-82.3	0.0
2025-01-15 09:12:05.049324	253.6	21.1	-82.3	0.0
2025-01-15 09:12:07.296952	253.3	20.8	-82.2	0.0
2025-01-15 09:12:09.543079	252.9	20.6	-82.3	0.0
2025-01-15 09:12:11.792321	252.6	20.4	-82.4	0.0
2025-01-15 09:12:14.037317	252.2	20.2	-82.1	0.0
2025-01-15 09:12:16.282695	251.9	19.9	-82.5	0.0
2025-01-15 09:12:18.527850	251.5	19.7	-81.8	0.0
2025-01-15 09:12:20.776259	251.2	19.5	-82.2	0.0
2025-01-15 09:12:23.024373	250.8	19.3	-82.2	0.0
2025-01-15 09:12:25.267194	250.5	19.0	-81.8	0.0
2025-01-15 09:12:27.510978	250.2	18.8	-82.3	0.0
2025-01-15 09:12:29.759364	249.9	18.6	-82.0	0.0
2025-01-15 09:12:32.003607	249.6	18.4	-82.1	0.0
2025-01-15 09:12:34.250578	249.3	18.1	-82.1	0.0
2025-01-15 09:12:36.496785	248.9	17.9	-82.7	0.0
2025-01-15 09:12:38.744485	248.6	17.7	-82.3	0.0
2025-01-15 09:12:40.990403	248.4	17.5	-82.2	0.0
2025-01-15 09:12:43.234478	248.1	17.3	-82.4	0.0
2025-01-15 09:12:45.480405	247.8	17.1	-82.5	0.0
2025-01-15 09:12:47.728519	247.5	16.9	-82.5	0.0
2025-01-15 09:12:49.975560	247.2	16.6	-82.4	0.0
2025-01-15 09:12:52.221959	246.9	16.4	-82.4	0.0
2025-01-15 09:12:54.470891	246.7	16.2	-82.4	0.0
2025-01-15 09:12:56.720411	246.4	16.0	-82.5	0.0
2025-01-15 09:12:58.968065	246.1	15.8	-82.2	0.0
2025-01-15 09:13:01.211768	245.9	15.6	-81.8	0.0
2025-01-15 09:13:03.456989	245.6	15.4	-82.4	0.0
2025-01-15 09:13:05.705833	245.4	15.2	-82.5	0.0
2025-01-15 09:13:07.951699	245.1	15.0	-82.6	0.0
2025-01-15 09:13:10.197530	244.9	14.8	-82.2	0.0
2025-01-15 09:13:12.444359	244.6	14.6	-82.2	0.0
2025-01-15 09:13:14.688606	244.4	14.4	-82.2	0.0
2025-01-15 09:13:16.934287	244.1	14.2	-81.9	0.0
2025-01-15 09:13:19.182924	243.9	14.0	-82.5	0.0
2025-01-15 09:13:21.428150	243.7	13.8	-82.4	0.0
2025-01-15 09:13:23.675598	243.5	13.6	-82.5	0.0
2025-01-15 09:13:25.923623	243.2	13.4	-82.3	0.0
2025-01-15 09:13:28.171617	243.0	13.2	-82.1	0.0
2025-01-15 09:13:30.419184	242.8	13.0	-82.5	0.0
2025-01-15 09:13:32.667632	242.6	12.8	-82.1	0.0
2025-01-15 09:13:34.912358	242.4	12.7	-82.3	0.0
2025-01-15 09:13:37.158809	242.2	12.5	-82.4	0.0
2025-01-15 09:13:39.407362	241.9	12.3	-82.2	0.0
2025-01-15 09:13:41.655286	241.7	12.1	-82.3	0.0
2025-01-15 09:13:43.900408	241.5	11.9	-82.3	0.0
2025-01-15 09:13:46.146040	241.3	11.7	-82.3	0.0
2025-01-15 09:13:48.394240	241.1	11.5	-82.3	0.0
2025-01-15 09:13:50.639101	240.9	11.4	-81.5	0.0
2025-01-15 09:13:52.884644	240.8	11.2	-82.6	0.0
2025-01-15 09:13:55.132343	240.6	11.0	-82.2	0.0
2025-01-15 09:13:57.376297	240.4	10.8	-82.5	0.0
2025-01-15 09:13:59.621663	240.2	10.6	-82.5	0.0
2025-01-15 09:14:01.868715	240.0	10.5	-82.4	0.0
2025-01-15 09:14:04.114325	239.8	10.3	-82.4	0.0
2025-01-15 09:14:06.361506	239.7	10.1	-82.2	0.0
#Closed at: 2025-01-15 09:04:15.133941