passes_logs/2025/01/15/planumMaritime01/planumMaritime01__20250115_133700_METEOR-M2_2_rec.log

#Pass ID: 20250115_133700_METEOR-M2 2
#Satellite: METEOR-M2 2
#Configuration: METEOR-M2 2
#Start time: 2025-01-15 13:37:05.828649

#LorettStation: 1.0.0 05.05.2024
#Station: planumMaritime01
#Location: 37.49445 lon 55.92918 lat
#TLE: 1 44387U 19038A   25013.94389374  .00000226  00000+0  11773-3 0  9996
#TLE: 2 44387  98.8563 350.3347 0002292  80.4075 279.7362 14.24116310287388

#Time	Az	El	Level	SNR
2025-01-15 13:37:07.983108	210.4	10.2	-81.4	0.0
2025-01-15 13:37:10.228031	210.6	10.3	-81.5	0.0
2025-01-15 13:37:12.475860	210.8	10.5	-81.4	0.0
2025-01-15 13:37:14.719486	211.1	10.6	-81.4	0.0
2025-01-15 13:37:16.965472	211.3	10.8	-81.7	0.0
2025-01-15 13:37:19.211901	211.6	11.0	-81.3	0.0
2025-01-15 13:37:21.458213	211.9	11.1	-81.7	0.0
2025-01-15 13:37:23.704954	212.1	11.3	-81.6	0.0
2025-01-15 13:37:25.950168	212.4	11.5	-81.8	0.0
2025-01-15 13:37:28.197006	212.6	11.6	-81.6	0.0
2025-01-15 13:37:30.444918	212.9	11.8	-81.8	0.0
2025-01-15 13:37:32.692523	213.2	12.0	-82.0	0.0
2025-01-15 13:37:34.937518	213.4	12.1	-81.8	0.0
2025-01-15 13:37:37.182955	213.7	12.3	-81.6	0.0
2025-01-15 13:37:39.431523	214.0	12.5	-81.3	0.0
2025-01-15 13:37:41.677413	214.3	12.7	-82.0	0.0
2025-01-15 13:37:43.932063	214.6	12.8	-81.8	0.0
2025-01-15 13:37:46.176026	214.9	13.0	-81.9	0.0
2025-01-15 13:37:48.424772	215.2	13.2	-81.9	0.0
2025-01-15 13:37:50.671363	215.5	13.3	-81.7	0.0
2025-01-15 13:37:52.918272	215.8	13.5	-82.0	0.0
2025-01-15 13:37:55.166516	216.1	13.7	-81.7	0.0
2025-01-15 13:37:57.412208	216.4	13.9	-82.1	0.0
2025-01-15 13:37:59.663099	216.7	14.0	-81.7	0.0
2025-01-15 13:38:01.908421	217.0	14.2	-81.5	0.0
2025-01-15 13:38:04.154112	217.3	14.4	-81.3	0.0
2025-01-15 13:38:06.401128	217.6	14.6	-82.0	0.0
2025-01-15 13:38:08.650007	217.9	14.8	-81.9	0.0
2025-01-15 13:38:10.899565	218.3	14.9	-81.7	0.0
2025-01-15 13:38:13.143716	218.6	15.1	-82.0	0.0
2025-01-15 13:38:15.392864	218.9	15.3	-82.1	0.0
2025-01-15 13:38:17.639549	219.3	15.5	-81.9	0.0
2025-01-15 13:38:19.889393	219.6	15.6	-81.9	0.0
2025-01-15 13:38:22.134277	220.0	15.8	-81.8	0.0
2025-01-15 13:38:24.380961	220.3	16.0	-81.9	0.0
2025-01-15 13:38:26.628742	220.7	16.2	-82.1	0.0
2025-01-15 13:38:28.877164	221.1	16.4	-82.0	0.0
2025-01-15 13:38:31.125420	221.4	16.5	-82.2	0.0
2025-01-15 13:38:33.371264	221.8	16.7	-82.6	0.0
2025-01-15 13:38:35.619934	222.2	16.9	-82.2	0.0
2025-01-15 13:38:37.869479	222.5	17.1	-82.4	0.0
2025-01-15 13:38:40.116241	222.9	17.3	-82.4	0.0
2025-01-15 13:38:42.364724	223.3	17.5	-82.3	0.0
2025-01-15 13:38:44.613494	223.7	17.6	-82.1	0.0
2025-01-15 13:38:46.862729	224.1	17.8	-82.0	0.0
2025-01-15 13:38:49.109662	224.5	18.0	-82.3	0.0
2025-01-15 13:38:51.357446	224.9	18.2	-82.4	0.0
2025-01-15 13:38:53.603545	225.3	18.4	-82.2	0.0
2025-01-15 13:38:55.849683	225.7	18.6	-81.8	0.0
2025-01-15 13:38:58.097753	226.2	18.7	-82.2	0.0
2025-01-15 13:39:00.344449	226.6	18.9	-82.5	0.0
2025-01-15 13:39:02.586419	227.0	19.1	-81.8	0.0
2025-01-15 13:39:04.831237	227.4	19.3	-82.2	0.0
2025-01-15 13:39:07.079081	227.9	19.5	-82.4	0.0
2025-01-15 13:39:09.323732	228.3	19.6	-82.5	0.0
2025-01-15 13:39:11.572174	228.8	19.8	-82.4	0.0
2025-01-15 13:39:13.821141	229.2	20.0	-82.3	0.0
2025-01-15 13:39:16.066838	229.7	20.2	-82.5	0.0
2025-01-15 13:39:18.313671	230.2	20.4	-82.2	0.0
2025-01-15 13:39:20.559455	230.6	20.5	-82.3	0.0
2025-01-15 13:39:22.808074	231.1	20.7	-82.4	0.0
2025-01-15 13:39:25.052218	231.6	20.9	-82.3	0.0
2025-01-15 13:39:27.299622	232.1	21.1	-82.4	0.0
2025-01-15 13:39:29.543916	232.6	21.2	-82.3	0.0
2025-01-15 13:39:31.789189	233.1	21.4	-82.4	0.0
2025-01-15 13:39:34.033998	233.6	21.6	-82.1	0.0
2025-01-15 13:39:36.279947	234.1	21.8	-82.5	0.0
2025-01-15 13:39:38.528848	234.6	21.9	-82.2	0.0
2025-01-15 13:39:40.778959	235.1	22.1	-82.6	0.0
2025-01-15 13:39:43.032204	235.7	22.3	-82.3	0.0
2025-01-15 13:39:45.279207	236.2	22.4	-82.5	0.0
2025-01-15 13:39:47.524745	236.7	22.6	-82.5	0.0
2025-01-15 13:39:49.773774	237.3	22.8	-82.5	0.0
2025-01-15 13:39:52.020814	237.8	22.9	-82.6	0.0
2025-01-15 13:39:54.269290	238.4	23.1	-82.5	0.0
2025-01-15 13:39:56.516886	239.0	23.3	-82.5	0.0
2025-01-15 13:39:58.767107	239.5	23.4	-82.4	0.0
2025-01-15 13:40:01.011224	240.1	23.6	-82.2	0.0
2025-01-15 13:40:03.258230	240.7	23.7	-82.3	0.0
2025-01-15 13:40:05.503977	241.3	23.9	-82.3	0.0
2025-01-15 13:40:07.749951	241.8	24.0	-82.4	0.0
2025-01-15 13:40:09.996039	242.4	24.2	-82.4	0.0
2025-01-15 13:40:12.242115	243.0	24.3	-82.5	0.0
2025-01-15 13:40:14.488533	243.6	24.5	-82.2	0.0
2025-01-15 13:40:16.732765	244.3	24.6	-82.6	0.0
2025-01-15 13:40:18.977222	244.9	24.7	-82.2	0.0
2025-01-15 13:40:21.223589	245.5	24.9	-82.2	0.0
2025-01-15 13:40:23.470631	246.1	25.0	-82.5	0.0
2025-01-15 13:40:25.718986	246.8	25.1	-82.3	0.0
2025-01-15 13:40:27.965489	247.4	25.3	-82.7	0.0
2025-01-15 13:40:30.211221	248.0	25.4	-82.5	0.0
2025-01-15 13:40:32.456110	248.7	25.5	-82.8	0.0
2025-01-15 13:40:34.702563	249.3	25.6	-82.5	0.0
2025-01-15 13:40:36.949250	250.0	25.7	-82.6	0.0
2025-01-15 13:40:39.191754	250.6	25.8	-82.5	0.0
2025-01-15 13:40:41.436571	251.3	25.9	-82.6	0.0
2025-01-15 13:40:43.679934	252.0	26.0	-82.4	0.0
2025-01-15 13:40:45.925825	252.6	26.1	-82.6	0.0
2025-01-15 13:40:48.173226	253.3	26.2	-82.5	0.0
2025-01-15 13:40:50.419957	254.0	26.3	-82.7	0.0
2025-01-15 13:40:52.666657	254.7	26.4	-82.6	0.0
2025-01-15 13:40:54.915876	255.4	26.5	-82.5	0.0
2025-01-15 13:40:57.162436	256.1	26.6	-82.6	0.0
2025-01-15 13:40:59.411955	256.8	26.6	-82.7	0.0
2025-01-15 13:41:01.658871	257.5	26.7	-82.6	0.0
2025-01-15 13:41:03.905089	258.2	26.8	-82.8	0.0
2025-01-15 13:41:06.151491	258.9	26.8	-82.9	0.0
2025-01-15 13:41:08.397235	259.6	26.9	-82.7	0.0
2025-01-15 13:41:10.644362	260.3	27.0	-82.6	0.0
2025-01-15 13:41:12.890181	261.0	27.0	-82.9	0.0
2025-01-15 13:41:15.134093	261.7	27.0	-82.7	0.0
2025-01-15 13:41:17.381088	262.4	27.1	-83.0	0.0
2025-01-15 13:41:19.625772	263.1	27.1	-82.5	0.0
2025-01-15 13:41:21.872710	263.9	27.1	-82.5	0.0
2025-01-15 13:41:24.116521	264.6	27.2	-82.4	0.0
2025-01-15 13:41:26.363640	265.3	27.2	-82.8	0.0
2025-01-15 13:41:28.615703	266.0	27.2	-82.8	0.0
2025-01-15 13:41:30.859613	266.7	27.2	-82.6	0.0
2025-01-15 13:41:33.107334	267.5	27.2	-82.6	0.0
2025-01-15 13:41:35.353125	268.2	27.2	-82.9	0.0
2025-01-15 13:41:37.597314	268.9	27.2	-82.7	0.0
2025-01-15 13:41:39.844230	269.6	27.2	-82.7	0.0
2025-01-15 13:41:42.089037	270.3	27.2	-83.0	0.0
2025-01-15 13:41:44.331798	271.1	27.2	-82.8	0.0
2025-01-15 13:41:46.579394	271.8	27.2	-82.7	0.0
2025-01-15 13:41:48.823469	272.5	27.1	-82.9	0.0
2025-01-15 13:41:51.069147	273.2	27.1	-82.6	0.0
2025-01-15 13:41:53.316747	273.9	27.1	-82.7	0.0
2025-01-15 13:41:55.562888	274.6	27.0	-82.8	0.0
2025-01-15 13:41:57.808931	275.3	27.0	-82.6	0.0
2025-01-15 13:42:00.052239	276.0	26.9	-82.8	0.0
2025-01-15 13:42:02.302313	276.8	26.9	-82.7	0.0
2025-01-15 13:42:04.546703	277.5	26.8	-83.0	0.0
2025-01-15 13:42:06.791426	278.2	26.7	-82.4	0.0
2025-01-15 13:42:09.033589	278.9	26.7	-82.5	0.0
2025-01-15 13:42:11.280459	279.5	26.6	-82.9	0.0
2025-01-15 13:42:13.528068	280.2	26.5	-82.5	0.0
2025-01-15 13:42:15.775547	280.9	26.4	-82.9	0.0
2025-01-15 13:42:18.016796	281.6	26.4	-82.8	0.0
2025-01-15 13:42:20.265479	282.3	26.3	-82.9	0.0
2025-01-15 13:42:22.511408	283.0	26.2	-82.8	0.0
2025-01-15 13:42:24.759648	283.6	26.1	-82.1	0.0
2025-01-15 13:42:27.003811	284.3	26.0	-82.5	0.0
2025-01-15 13:42:29.248680	285.0	25.9	-82.8	0.0
2025-01-15 13:42:31.494091	285.6	25.8	-82.1	0.0
2025-01-15 13:42:33.742716	286.3	25.7	-82.3	0.0
2025-01-15 13:42:35.982955	286.9	25.5	-82.8	0.0
2025-01-15 13:42:38.228757	287.6	25.4	-82.7	0.0
2025-01-15 13:42:40.476654	288.2	25.3	-82.7	0.0
2025-01-15 13:42:42.722075	288.9	25.2	-82.9	0.0
2025-01-15 13:42:44.969304	289.5	25.1	-82.9	0.0
2025-01-15 13:42:47.213250	290.1	24.9	-82.8	0.0
2025-01-15 13:42:49.462260	290.7	24.8	-82.9	0.0
2025-01-15 13:42:51.708885	291.4	24.7	-83.2	0.0
2025-01-15 13:42:53.949806	292.0	24.5	-82.5	0.0
2025-01-15 13:42:56.195844	292.6	24.4	-82.5	0.0
2025-01-15 13:42:58.441915	293.2	24.2	-82.8	0.0
2025-01-15 13:43:00.691115	293.8	24.1	-82.7	0.0
2025-01-15 13:43:02.935668	294.4	23.9	-82.6	0.0
2025-01-15 13:43:05.181419	294.9	23.8	-82.6	0.0
2025-01-15 13:43:07.428479	295.5	23.6	-82.4	0.0
2025-01-15 13:43:09.675793	296.1	23.5	-82.8	0.0
2025-01-15 13:43:11.923158	296.7	23.3	-82.7	0.0
2025-01-15 13:43:14.167478	297.2	23.2	-82.6	0.0
2025-01-15 13:43:16.414894	297.8	23.0	-83.0	0.0
2025-01-15 13:43:18.662694	298.3	22.9	-82.8	0.0
2025-01-15 13:43:20.910071	298.9	22.7	-82.8	0.0
2025-01-15 13:43:23.157464	299.4	22.5	-82.9	0.0
2025-01-15 13:43:25.409076	299.9	22.4	-82.7	0.0
2025-01-15 13:43:27.655672	300.5	22.2	-82.8	0.0
2025-01-15 13:43:29.900336	301.0	22.0	-82.7	0.0
2025-01-15 13:43:32.148181	301.5	21.9	-82.7	0.0
2025-01-15 13:43:34.393988	302.0	21.7	-83.0	0.0
2025-01-15 13:43:36.642068	302.5	21.5	-82.9	0.0
2025-01-15 13:43:38.888525	303.0	21.3	-82.4	0.0
2025-01-15 13:43:41.134500	303.5	21.2	-82.4	0.0
2025-01-15 13:43:43.379369	304.0	21.0	-82.8	0.0
2025-01-15 13:43:45.623659	304.5	20.8	-82.9	0.0
2025-01-15 13:43:47.871292	305.0	20.6	-82.8	0.0
2025-01-15 13:43:50.117061	305.4	20.5	-82.6	0.0
2025-01-15 13:43:52.362131	305.9	20.3	-82.8	0.0
2025-01-15 13:43:54.608788	306.4	20.1	-82.8	0.0
2025-01-15 13:43:56.855323	306.8	19.9	-82.7	0.0
2025-01-15 13:43:59.103728	307.3	19.7	-83.0	0.0
2025-01-15 13:44:01.353781	307.7	19.6	-82.7	0.0
2025-01-15 13:44:03.600673	308.2	19.4	-82.9	0.0
2025-01-15 13:44:05.843210	308.6	19.2	-83.1	0.0
2025-01-15 13:44:08.087769	309.0	19.0	-82.6	0.0
2025-01-15 13:44:10.330051	309.5	18.9	-83.1	0.0
2025-01-15 13:44:12.574575	309.9	18.7	-82.8	0.0
2025-01-15 13:44:14.820011	310.3	18.5	-82.8	0.0
2025-01-15 13:44:17.066125	310.7	18.3	-82.9	0.0
2025-01-15 13:44:19.309253	311.1	18.1	-82.6	0.0
2025-01-15 13:44:21.553130	311.5	17.9	-82.9	0.0
2025-01-15 13:44:23.798553	311.9	17.8	-82.8	0.0
2025-01-15 13:44:26.046654	312.3	17.6	-82.7	0.0
2025-01-15 13:44:28.294503	312.7	17.4	-83.0	0.0
2025-01-15 13:44:30.542362	313.1	17.2	-83.1	0.0
2025-01-15 13:44:32.789740	313.5	17.0	-83.0	0.0
2025-01-15 13:44:35.034579	313.8	16.9	-82.6	0.0
2025-01-15 13:44:37.281569	314.2	16.7	-82.6	0.0
2025-01-15 13:44:39.528111	314.6	16.5	-82.9	0.0
2025-01-15 13:44:41.780130	314.9	16.3	-82.7	0.0
2025-01-15 13:44:44.027891	315.3	16.1	-82.9	0.0
2025-01-15 13:44:46.272497	315.6	16.0	-82.5	0.0
2025-01-15 13:44:48.517098	316.0	15.8	-82.4	0.0
2025-01-15 13:44:50.765914	316.3	15.6	-83.0	0.0
2025-01-15 13:44:53.011987	316.7	15.4	-82.5	0.0
2025-01-15 13:44:55.257985	317.0	15.3	-82.4	0.0
2025-01-15 13:44:57.503865	317.3	15.1	-83.1	0.0
2025-01-15 13:44:59.748286	317.7	14.9	-82.8	0.0
2025-01-15 13:45:01.996085	318.0	14.7	-82.4	0.0
2025-01-15 13:45:04.244615	318.3	14.6	-82.5	0.0
2025-01-15 13:45:06.488139	318.6	14.4	-82.2	0.0
2025-01-15 13:45:08.733827	319.0	14.2	-82.6	0.0
2025-01-15 13:45:10.983862	319.3	14.0	-82.8	0.0
2025-01-15 13:45:13.234476	319.6	13.9	-82.5	0.0
2025-01-15 13:45:15.481310	319.9	13.7	-82.8	0.0
2025-01-15 13:45:17.727734	320.2	13.5	-82.9	0.0
2025-01-15 13:45:19.974414	320.5	13.3	-82.8	0.0
2025-01-15 13:45:22.221764	320.8	13.2	-82.9	0.0
2025-01-15 13:45:24.467771	321.1	13.0	-82.6	0.0
2025-01-15 13:45:26.716536	321.3	12.8	-82.8	0.0
2025-01-15 13:45:28.964644	321.6	12.7	-83.0	0.0
2025-01-15 13:45:31.211550	321.9	12.5	-83.2	0.0
2025-01-15 13:45:33.458281	322.2	12.3	-83.1	0.0
2025-01-15 13:45:35.703769	322.5	12.2	-83.2	0.0
2025-01-15 13:45:37.951750	322.7	12.0	-83.3	0.0
2025-01-15 13:45:40.196898	323.0	11.8	-83.0	0.0
2025-01-15 13:45:42.441417	323.3	11.7	-83.1	0.0
2025-01-15 13:45:44.686505	323.5	11.5	-82.8	0.0
2025-01-15 13:45:46.931397	323.8	11.3	-83.2	0.0
2025-01-15 13:45:49.179502	324.1	11.2	-83.0	0.0
2025-01-15 13:45:51.431146	324.3	11.0	-83.0	0.0
2025-01-15 13:45:53.677600	324.6	10.8	-83.1	0.0
2025-01-15 13:45:55.924719	324.8	10.7	-82.8	0.0
2025-01-15 13:45:58.169379	325.1	10.5	-83.1	0.0
2025-01-15 13:46:00.414630	325.3	10.3	-83.1	0.0
2025-01-15 13:46:02.660428	325.5	10.2	-82.7	0.0
2025-01-15 13:46:04.903267	325.8	10.0	-82.7	0.0
#Closed at: 2025-01-15 13:37:00.831418