passes_logs/2025/01/15/planumMaritime01/planumMaritime01__20250115_073040_METOP-C_rec.log

#Pass ID: 20250115_073040_METOP-C
#Satellite: METOP-C
#Configuration: METOP-C
#Start time: 2025-01-15 07:30:45.139150

#LorettStation: 1.0.0 05.05.2024
#Station: planumMaritime01
#Location: 37.49445 lon 55.92918 lat
#TLE: 1 43689U 18087A   25014.16634806  .00000210  00000+0  11601-3 0  9994
#TLE: 2 43689  98.6967  76.6709 0001376 166.5927 193.5287 14.21480388321094

#Time	Az	El	Level	SNR
2025-01-15 07:30:47.294890	19.8	10.2	-81.1	0.0
2025-01-15 07:30:49.543343	19.8	10.4	-81.1	0.0
2025-01-15 07:30:51.790176	19.9	10.6	-81.1	0.0
2025-01-15 07:30:54.038944	19.9	10.8	-81.3	0.0
2025-01-15 07:30:56.284445	20.0	11.0	-81.4	0.0
2025-01-15 07:30:58.532150	20.1	11.2	-81.4	0.0
2025-01-15 07:31:00.780210	20.1	11.4	-81.3	0.0
2025-01-15 07:31:03.022681	20.2	11.6	-81.4	0.0
2025-01-15 07:31:05.266319	20.3	11.8	-81.2	0.0
2025-01-15 07:31:07.515499	20.3	12.0	-81.2	0.0
2025-01-15 07:31:09.760067	20.4	12.2	-81.6	0.0
2025-01-15 07:31:12.007229	20.5	12.4	-81.4	0.0
2025-01-15 07:31:14.254108	20.5	12.6	-81.7	0.0
2025-01-15 07:31:16.499582	20.6	12.9	-81.5	0.0
2025-01-15 07:31:18.747048	20.7	13.1	-81.6	0.0
2025-01-15 07:31:20.993273	20.7	13.3	-81.3	0.0
2025-01-15 07:31:23.237193	20.8	13.5	-81.6	0.0
2025-01-15 07:31:25.479635	20.9	13.7	-81.6	0.0
2025-01-15 07:31:27.725072	20.9	14.0	-81.6	0.0
2025-01-15 07:31:29.968040	21.0	14.2	-81.3	0.0
2025-01-15 07:31:32.214251	21.1	14.4	-81.8	0.0
2025-01-15 07:31:34.462850	21.2	14.6	-81.4	0.0
2025-01-15 07:31:36.708596	21.2	14.9	-81.6	0.0
2025-01-15 07:31:38.954293	21.3	15.1	-81.7	0.0
2025-01-15 07:31:41.199258	21.4	15.4	-81.6	0.0
2025-01-15 07:31:43.444184	21.5	15.6	-81.4	0.0
2025-01-15 07:31:45.695226	21.6	15.8	-81.7	0.0
2025-01-15 07:31:47.938749	21.6	16.1	-81.6	0.0
2025-01-15 07:31:50.185776	21.7	16.3	-81.5	0.0
2025-01-15 07:31:52.431561	21.8	16.6	-81.2	0.0
2025-01-15 07:31:54.678990	21.9	16.8	-81.4	0.0
2025-01-15 07:31:56.925986	22.0	17.1	-81.8	0.0
2025-01-15 07:31:59.173209	22.1	17.4	-81.7	0.0
2025-01-15 07:32:01.419930	22.2	17.6	-81.4	0.0
2025-01-15 07:32:03.668570	22.3	17.9	-81.8	0.0
2025-01-15 07:32:05.916363	22.3	18.1	-81.9	0.0
2025-01-15 07:32:08.162174	22.4	18.4	-81.7	0.0
2025-01-15 07:32:10.408080	22.5	18.7	-81.8	0.0
2025-01-15 07:32:12.654649	22.6	19.0	-81.7	0.0
2025-01-15 07:32:14.900368	22.7	19.2	-81.8	0.0
2025-01-15 07:32:17.150986	22.8	19.5	-81.8	0.0
2025-01-15 07:32:19.397566	22.9	19.8	-81.6	0.0
2025-01-15 07:32:21.645162	23.0	20.1	-81.9	0.0
2025-01-15 07:32:23.890290	23.1	20.4	-81.8	0.0
2025-01-15 07:32:26.134323	23.3	20.7	-81.9	0.0
2025-01-15 07:32:28.380021	23.4	21.0	-81.9	0.0
2025-01-15 07:32:30.626190	23.5	21.3	-81.9	0.0
2025-01-15 07:32:32.873139	23.6	21.6	-81.8	0.0
2025-01-15 07:32:35.118686	23.7	21.9	-81.7	0.0
2025-01-15 07:32:37.365881	23.8	22.2	-82.0	0.0
2025-01-15 07:32:39.615201	23.9	22.5	-81.9	0.0
2025-01-15 07:32:41.865059	24.1	22.9	-81.9	0.0
2025-01-15 07:32:44.112963	24.2	23.2	-81.9	0.0
2025-01-15 07:32:46.358873	24.3	23.5	-82.0	0.0
2025-01-15 07:32:48.606224	24.4	23.8	-81.8	0.0
2025-01-15 07:32:50.850522	24.6	24.2	-81.4	0.0
2025-01-15 07:32:53.094556	24.7	24.5	-82.0	0.0
2025-01-15 07:32:55.339236	24.9	24.9	-81.8	0.0
2025-01-15 07:32:57.586445	25.0	25.2	-81.7	0.0
2025-01-15 07:32:59.832801	25.1	25.6	-81.9	0.0
2025-01-15 07:33:02.080430	25.3	25.9	-81.8	0.0
2025-01-15 07:33:04.328909	25.4	26.3	-81.7	0.0
2025-01-15 07:33:06.575912	25.6	26.7	-81.6	0.0
2025-01-15 07:33:08.820636	25.7	27.0	-82.1	0.0
2025-01-15 07:33:11.064139	25.9	27.4	-82.0	0.0
2025-01-15 07:33:13.312406	26.1	27.8	-81.9	0.0
2025-01-15 07:33:15.556729	26.2	28.2	-81.9	0.0
2025-01-15 07:33:17.803630	26.4	28.6	-81.8	0.0
2025-01-15 07:33:20.052230	26.6	29.0	-81.9	0.0
2025-01-15 07:33:22.297335	26.8	29.4	-81.7	0.0
2025-01-15 07:33:24.543199	27.0	29.8	-81.7	0.0
2025-01-15 07:33:26.789004	27.1	30.2	-81.6	0.0
2025-01-15 07:33:29.036074	27.3	30.6	-81.6	0.0
2025-01-15 07:33:31.282199	27.5	31.1	-81.5	0.0
2025-01-15 07:33:33.525757	27.7	31.5	-81.7	0.0
2025-01-15 07:33:35.774133	28.0	32.0	-81.6	0.0
2025-01-15 07:33:38.019894	28.2	32.4	-81.6	0.0
2025-01-15 07:33:40.261832	28.4	32.9	-81.7	0.0
2025-01-15 07:33:42.507429	28.6	33.3	-81.8	0.0
2025-01-15 07:33:44.755431	28.8	33.8	-81.7	0.0
2025-01-15 07:33:46.998006	29.1	34.3	-81.8	0.0
2025-01-15 07:33:49.240681	29.3	34.7	-81.9	0.0
2025-01-15 07:33:51.488575	29.6	35.2	-82.0	0.0
2025-01-15 07:33:53.735825	29.9	35.7	-82.0	0.0
2025-01-15 07:33:55.983134	30.1	36.2	-81.7	0.0
2025-01-15 07:33:58.231144	30.4	36.7	-81.9	0.0
2025-01-15 07:34:00.478707	30.7	37.3	-82.2	0.0
2025-01-15 07:34:02.724270	31.0	37.8	-81.4	0.0
2025-01-15 07:34:04.967409	31.3	38.3	-81.9	0.0
2025-01-15 07:34:07.213274	31.6	38.9	-81.9	0.0
2025-01-15 07:34:09.458188	31.9	39.4	-81.9	0.0
2025-01-15 07:34:11.704042	32.3	40.0	-82.2	0.0
2025-01-15 07:34:13.951188	32.6	40.5	-82.2	0.0
2025-01-15 07:34:16.198115	33.0	41.1	-82.3	0.0
2025-01-15 07:34:18.443488	33.3	41.7	-82.2	0.0
2025-01-15 07:34:20.692064	33.7	42.3	-81.9	0.0
2025-01-15 07:34:22.942630	34.1	42.9	-82.2	0.0
2025-01-15 07:34:25.189271	34.5	43.5	-82.0	0.0
2025-01-15 07:34:27.435072	35.0	44.1	-82.2	0.0
2025-01-15 07:34:29.685103	35.4	44.7	-82.0	0.0
2025-01-15 07:34:31.928147	35.9	45.3	-81.8	0.0
2025-01-15 07:34:34.179402	36.4	46.0	-82.2	0.0
2025-01-15 07:34:36.423504	36.9	46.6	-82.1	0.0
2025-01-15 07:34:38.669418	37.4	47.3	-82.1	0.0
2025-01-15 07:34:40.918102	37.9	47.9	-82.1	0.0
2025-01-15 07:34:43.165072	38.5	48.6	-82.2	0.0
2025-01-15 07:34:45.408683	39.1	49.3	-82.0	0.0
2025-01-15 07:34:47.656157	39.7	49.9	-82.2	0.0
2025-01-15 07:34:49.901779	40.4	50.6	-81.9	0.0
2025-01-15 07:34:52.149132	41.1	51.3	-81.9	0.0
2025-01-15 07:34:54.397423	41.8	52.0	-82.3	0.0
2025-01-15 07:34:56.643708	42.5	52.7	-82.3	0.0
2025-01-15 07:34:58.891196	43.3	53.4	-82.1	0.0
2025-01-15 07:35:01.134906	44.1	54.1	-82.3	0.0
2025-01-15 07:35:03.383516	45.0	54.9	-82.0	0.0
2025-01-15 07:35:05.628505	45.9	55.6	-82.0	0.0
2025-01-15 07:35:07.875578	46.9	56.3	-81.9	0.0
2025-01-15 07:35:10.120443	47.9	57.0	-81.8	0.0
2025-01-15 07:35:12.366861	48.9	57.8	-81.7	0.0
2025-01-15 07:35:14.613742	50.0	58.5	-81.9	0.0
2025-01-15 07:35:16.857448	51.2	59.2	-81.9	0.0
2025-01-15 07:35:19.102558	52.5	59.9	-81.7	0.0
2025-01-15 07:35:21.347539	53.8	60.7	-81.1	0.0
2025-01-15 07:35:23.593411	55.2	61.4	-80.9	0.0
2025-01-15 07:35:25.842409	56.7	62.1	-81.0	0.0
2025-01-15 07:35:28.088429	58.2	62.8	-81.1	0.0
2025-01-15 07:35:30.336817	59.9	63.5	-80.8	0.0
2025-01-15 07:35:32.584303	61.6	64.1	-80.7	0.7
2025-01-15 07:35:34.828638	63.5	64.8	-80.3	2.2
2025-01-15 07:35:37.074458	65.5	65.4	-80.7	1.7
2025-01-15 07:35:39.318048	67.5	66.0	-80.5	1.7
2025-01-15 07:35:41.562855	69.7	66.6	-80.5	0.0
2025-01-15 07:35:43.808456	72.1	67.2	-80.7	0.0
2025-01-15 07:35:46.057460	74.5	67.7	-80.9	0.0
2025-01-15 07:35:48.301266	77.1	68.2	-80.9	0.0
2025-01-15 07:35:50.549062	79.7	68.6	-81.0	0.0
2025-01-15 07:35:52.795902	82.5	69.0	-81.3	0.0
2025-01-15 07:35:55.041313	85.5	69.4	-81.6	0.0
2025-01-15 07:35:57.288923	88.5	69.7	-81.4	0.0
2025-01-15 07:35:59.533068	91.6	70.0	-81.7	0.0
2025-01-15 07:36:01.779299	94.8	70.2	-82.0	0.0
2025-01-15 07:36:04.026577	98.0	70.3	-82.1	0.0
2025-01-15 07:36:06.273373	101.3	70.4	-82.0	0.0
2025-01-15 07:36:08.518481	104.6	70.4	-81.9	0.0
2025-01-15 07:36:10.765561	107.9	70.4	-81.5	0.0
2025-01-15 07:36:13.013672	111.2	70.3	-81.2	0.0
2025-01-15 07:36:15.261062	114.5	70.1	-80.7	0.5
2025-01-15 07:36:17.510288	117.7	69.9	-80.5	3.2
2025-01-15 07:36:19.758391	120.7	69.6	-79.7	4.1
2025-01-15 07:36:22.007634	123.8	69.3	-79.7	5.0
2025-01-15 07:36:24.259306	126.7	68.9	-79.5	4.7
2025-01-15 07:36:26.508826	129.4	68.5	-79.1	5.5
2025-01-15 07:36:28.751158	132.1	68.1	-78.8	6.5
2025-01-15 07:36:30.998561	134.6	67.6	-79.0	6.3
2025-01-15 07:36:33.245963	137.0	67.0	-78.9	6.7
2025-01-15 07:36:35.488363	139.3	66.5	-78.6	7.2
2025-01-15 07:36:37.735509	141.5	65.9	-78.8	7.2
2025-01-15 07:36:39.983629	143.6	65.3	-78.9	6.6
2025-01-15 07:36:42.226995	145.5	64.6	-78.9	7.0
2025-01-15 07:36:44.472968	147.3	64.0	-79.0	6.1
2025-01-15 07:36:46.718279	149.1	63.3	-79.8	4.0
2025-01-15 07:36:48.960804	150.7	62.6	-80.2	3.5
2025-01-15 07:36:51.206822	152.2	61.9	-80.2	3.8
2025-01-15 07:36:53.452919	153.7	61.2	-80.7	1.7
2025-01-15 07:36:55.698342	155.1	60.5	-80.8	0.0
2025-01-15 07:36:57.945534	156.4	59.7	-81.4	0.0
2025-01-15 07:37:00.190007	157.6	59.0	-81.9	0.0
2025-01-15 07:37:02.434027	158.8	58.3	-82.2	0.0
2025-01-15 07:37:04.680464	159.9	57.6	-82.0	0.0
2025-01-15 07:37:06.929202	160.9	56.8	-82.3	0.0
2025-01-15 07:37:09.175930	161.9	56.1	-82.0	0.0
2025-01-15 07:37:11.423899	162.9	55.4	-82.0	0.0
2025-01-15 07:37:13.668061	163.8	54.6	-82.1	0.0
2025-01-15 07:37:15.914590	164.6	53.9	-82.1	0.0
2025-01-15 07:37:18.159905	165.4	53.2	-81.5	0.0
2025-01-15 07:37:20.408277	166.2	52.5	-81.2	0.0
2025-01-15 07:37:22.655354	166.9	51.8	-81.0	0.0
2025-01-15 07:37:24.901889	167.6	51.1	-81.0	0.0
2025-01-15 07:37:27.146653	168.3	50.4	-81.0	0.0
2025-01-15 07:37:29.397416	169.0	49.7	-81.0	0.0
2025-01-15 07:37:31.641671	169.6	49.0	-80.9	0.0
2025-01-15 07:37:33.887082	170.2	48.3	-80.8	0.0
2025-01-15 07:37:36.133864	170.7	47.7	-80.9	0.1
2025-01-15 07:37:38.383965	171.3	47.0	-81.0	0.0
2025-01-15 07:37:40.633581	171.8	46.4	-81.3	0.0
2025-01-15 07:37:42.876536	172.3	45.7	-81.2	0.0
2025-01-15 07:37:45.122534	172.8	45.1	-81.2	0.0
2025-01-15 07:37:47.367654	173.2	44.4	-81.2	0.0
2025-01-15 07:37:49.615715	173.7	43.8	-81.0	0.0
2025-01-15 07:37:51.864486	174.1	43.2	-81.1	0.0
2025-01-15 07:37:54.108689	174.5	42.6	-81.1	0.0
2025-01-15 07:37:56.352349	174.9	42.0	-81.3	0.0
2025-01-15 07:37:58.599565	175.3	41.4	-81.2	0.0
2025-01-15 07:38:00.844410	175.7	40.8	-81.3	0.0
2025-01-15 07:38:03.092534	176.0	40.3	-81.4	0.0
2025-01-15 07:38:05.338102	176.4	39.7	-81.2	0.0
2025-01-15 07:38:07.583460	176.7	39.2	-81.5	0.0
2025-01-15 07:38:09.828961	177.0	38.6	-81.6	0.0
2025-01-15 07:38:12.074112	177.3	38.1	-81.6	0.0
2025-01-15 07:38:14.322635	177.6	37.5	-81.8	0.0
2025-01-15 07:38:16.567312	177.9	37.0	-81.8	0.0
2025-01-15 07:38:18.815608	178.2	36.5	-82.0	0.0
2025-01-15 07:38:21.062051	178.5	36.0	-81.9	0.0
2025-01-15 07:38:23.307249	178.7	35.5	-82.0	0.0
2025-01-15 07:38:25.552664	179.0	35.0	-81.9	0.0
2025-01-15 07:38:27.800559	179.3	34.5	-82.0	0.0
2025-01-15 07:38:30.049090	179.5	34.0	-81.9	0.0
2025-01-15 07:38:32.294258	179.7	33.5	-82.4	0.0
2025-01-15 07:38:34.539384	180.0	33.1	-82.0	0.0
2025-01-15 07:38:36.785072	180.2	32.6	-82.1	0.0
2025-01-15 07:38:39.031708	180.4	32.1	-82.3	0.0
2025-01-15 07:38:41.278576	180.6	31.7	-82.2	0.0
2025-01-15 07:38:43.523770	180.8	31.3	-82.4	0.0
2025-01-15 07:38:45.772203	181.0	30.8	-82.3	0.0
2025-01-15 07:38:48.021829	181.2	30.4	-82.3	0.0
2025-01-15 07:38:50.270814	181.4	30.0	-82.2	0.0
2025-01-15 07:38:52.519901	181.6	29.5	-82.4	0.0
2025-01-15 07:38:54.764457	181.8	29.1	-81.7	0.0
2025-01-15 07:38:57.011662	182.0	28.7	-82.3	0.0
2025-01-15 07:38:59.260245	182.1	28.3	-82.4	0.0
2025-01-15 07:39:01.506037	182.3	27.9	-82.2	0.0
2025-01-15 07:39:03.751137	182.5	27.5	-82.4	0.0
2025-01-15 07:39:05.999116	182.6	27.2	-82.3	0.0
2025-01-15 07:39:08.244887	182.8	26.8	-82.3	0.0
2025-01-15 07:39:10.489364	183.0	26.4	-82.4	0.0
2025-01-15 07:39:12.733567	183.1	26.0	-82.4	0.0
2025-01-15 07:39:14.981548	183.3	25.7	-82.2	0.0
2025-01-15 07:39:17.228672	183.4	25.3	-82.0	0.0
2025-01-15 07:39:19.477571	183.5	25.0	-82.2	0.0
2025-01-15 07:39:21.724997	183.7	24.6	-82.2	0.0
2025-01-15 07:39:23.972606	183.8	24.3	-82.1	0.0
2025-01-15 07:39:26.221202	184.0	23.9	-82.3	0.0
2025-01-15 07:39:28.468808	184.1	23.6	-82.2	0.0
2025-01-15 07:39:30.717833	184.2	23.2	-82.3	0.0
2025-01-15 07:39:32.962571	184.3	22.9	-82.2	0.0
2025-01-15 07:39:35.205613	184.5	22.6	-82.3	0.0
2025-01-15 07:39:37.452897	184.6	22.3	-82.0	0.0
2025-01-15 07:39:39.699202	184.7	22.0	-82.3	0.0
2025-01-15 07:39:41.945417	184.8	21.6	-82.4	0.0
2025-01-15 07:39:44.191869	184.9	21.3	-82.5	0.0
2025-01-15 07:39:46.438534	185.0	21.0	-82.2	0.0
2025-01-15 07:39:48.684757	185.2	20.7	-82.4	0.0
2025-01-15 07:39:50.930107	185.3	20.4	-82.3	0.0
2025-01-15 07:39:53.177214	185.4	20.1	-82.3	0.0
2025-01-15 07:39:55.423822	185.5	19.8	-82.4	0.0
2025-01-15 07:39:57.668549	185.6	19.5	-82.5	0.0
2025-01-15 07:39:59.914307	185.7	19.3	-82.2	0.0
2025-01-15 07:40:02.158604	185.8	19.0	-82.6	0.0
2025-01-15 07:40:04.404641	185.9	18.7	-82.3	0.0
2025-01-15 07:40:06.649710	186.0	18.4	-82.4	0.0
2025-01-15 07:40:08.896719	186.1	18.1	-82.6	0.0
2025-01-15 07:40:11.144357	186.2	17.9	-82.5	0.0
2025-01-15 07:40:13.393673	186.2	17.6	-82.2	0.0
2025-01-15 07:40:15.639644	186.3	17.3	-82.5	0.0
2025-01-15 07:40:17.887949	186.4	17.1	-82.6	0.0
2025-01-15 07:40:20.131215	186.5	16.8	-82.5	0.0
2025-01-15 07:40:22.379680	186.6	16.6	-82.5	0.0
2025-01-15 07:40:24.626428	186.7	16.3	-82.1	0.0
2025-01-15 07:40:26.873971	186.8	16.1	-82.3	0.0
2025-01-15 07:40:29.118781	186.8	15.8	-82.4	0.0
2025-01-15 07:40:31.362216	186.9	15.6	-82.5	0.0
2025-01-15 07:40:33.604750	187.0	15.3	-82.5	0.0
2025-01-15 07:40:35.849727	187.1	15.1	-82.5	0.0
2025-01-15 07:40:38.096324	187.2	14.8	-82.5	0.0
2025-01-15 07:40:40.345508	187.2	14.6	-82.5	0.0
2025-01-15 07:40:42.591897	187.3	14.4	-82.5	0.0
2025-01-15 07:40:44.839480	187.4	14.1	-82.5	0.0
2025-01-15 07:40:47.085987	187.4	13.9	-82.3	0.0
2025-01-15 07:40:49.332250	187.5	13.7	-82.5	0.0
2025-01-15 07:40:51.580734	187.6	13.5	-82.5	0.0
2025-01-15 07:40:53.828522	187.7	13.2	-82.5	0.0
2025-01-15 07:40:56.074695	187.7	13.0	-82.5	0.0
2025-01-15 07:40:58.319607	187.8	12.8	-82.6	0.0
2025-01-15 07:41:00.566712	187.9	12.6	-82.3	0.0
2025-01-15 07:41:02.814577	187.9	12.4	-82.2	0.0
2025-01-15 07:41:05.057729	188.0	12.1	-82.1	0.0
2025-01-15 07:41:07.302163	188.1	11.9	-82.4	0.0
2025-01-15 07:41:09.549279	188.1	11.7	-82.6	0.0
2025-01-15 07:41:11.796012	188.2	11.5	-82.3	0.0
2025-01-15 07:41:14.039809	188.2	11.3	-82.3	0.0
2025-01-15 07:41:16.286452	188.3	11.1	-82.5	0.0
2025-01-15 07:41:18.532643	188.4	10.9	-82.3	0.0
2025-01-15 07:41:20.778256	188.4	10.7	-82.7	0.0
2025-01-15 07:41:23.023341	188.5	10.5	-82.5	0.0
2025-01-15 07:41:25.269534	188.5	10.3	-82.7	0.0
2025-01-15 07:41:27.516919	188.6	10.1	-82.2	0.0
#Closed at: 2025-01-15 07:30:40.140778