passes_logs/2025/01/15/planumMaritime01/planumMaritime01__20250115_172051_METOP-C_rec.log

#Pass ID: 20250115_172051_METOP-C
#Satellite: METOP-C
#Configuration: METOP-C
#Start time: 2025-01-15 17:20:56.975926

#LorettStation: 1.0.0 05.05.2024
#Station: planumMaritime01
#Location: 37.49445 lon 55.92918 lat
#TLE: 1 43689U 18087A   25015.08140397  .00000206  00000+0  11426-3 0  9993
#TLE: 2 43689  98.6965  77.5724 0001426 164.6010 195.5211 14.21480919321221

#Time	Az	El	Level	SNR
2025-01-15 17:20:59.132458	135.7	10.2	-80.1	0.0
2025-01-15 17:21:01.376714	135.6	10.4	-80.2	0.0
2025-01-15 17:21:03.621395	135.5	10.6	-80.6	0.0
2025-01-15 17:21:05.866844	135.4	10.8	-80.9	0.0
2025-01-15 17:21:08.109288	135.2	11.0	-80.5	0.0
2025-01-15 17:21:10.357836	135.1	11.1	-80.2	0.0
2025-01-15 17:21:12.604428	135.0	11.3	-80.6	0.0
2025-01-15 17:21:14.853874	134.9	11.5	-80.5	0.0
2025-01-15 17:21:17.099717	134.7	11.7	-80.7	0.0
2025-01-15 17:21:19.346092	134.6	11.9	-80.5	0.0
2025-01-15 17:21:21.592676	134.5	12.2	-80.5	0.0
2025-01-15 17:21:23.837424	134.3	12.4	-80.8	0.0
2025-01-15 17:21:26.080900	134.2	12.6	-80.6	0.0
2025-01-15 17:21:28.328459	134.1	12.8	-80.6	0.0
2025-01-15 17:21:30.576978	133.9	13.0	-80.3	0.0
2025-01-15 17:21:32.821546	133.8	13.2	-80.5	0.0
2025-01-15 17:21:35.066817	133.6	13.4	-80.6	0.0
2025-01-15 17:21:37.312150	133.5	13.6	-80.1	0.0
2025-01-15 17:21:39.559815	133.3	13.8	-80.4	0.0
2025-01-15 17:21:41.806078	133.2	14.1	-80.6	0.0
2025-01-15 17:21:44.051432	133.0	14.3	-80.6	0.0
2025-01-15 17:21:46.296980	132.9	14.5	-80.6	0.0
2025-01-15 17:21:48.541768	132.7	14.7	-80.5	0.0
2025-01-15 17:21:50.789450	132.5	15.0	-80.9	0.0
2025-01-15 17:21:53.033742	132.4	15.2	-80.9	0.0
2025-01-15 17:21:55.282811	132.2	15.4	-80.6	0.0
2025-01-15 17:21:57.528813	132.0	15.6	-80.6	0.0
2025-01-15 17:21:59.776308	131.9	15.9	-80.6	0.0
2025-01-15 17:22:02.019968	131.7	16.1	-80.5	0.0
2025-01-15 17:22:04.267980	131.5	16.3	-80.6	0.0
2025-01-15 17:22:06.511144	131.3	16.6	-80.7	0.0
2025-01-15 17:22:08.760766	131.1	16.8	-80.7	0.0
2025-01-15 17:22:11.006301	131.0	17.1	-81.1	0.0
2025-01-15 17:22:13.252503	130.8	17.3	-80.8	0.0
2025-01-15 17:22:15.497146	130.6	17.6	-81.0	0.0
2025-01-15 17:22:17.742424	130.4	17.8	-80.9	0.0
2025-01-15 17:22:19.986350	130.2	18.1	-81.1	0.0
2025-01-15 17:22:22.232762	130.0	18.3	-80.8	0.0
2025-01-15 17:22:24.482430	129.8	18.6	-80.8	0.0
2025-01-15 17:22:26.731034	129.5	18.8	-81.2	0.0
2025-01-15 17:22:28.974692	129.3	19.1	-81.1	0.0
2025-01-15 17:22:31.220223	129.1	19.4	-81.0	0.0
2025-01-15 17:22:33.470259	128.9	19.6	-81.1	0.0
2025-01-15 17:22:35.718660	128.7	19.9	-81.0	0.0
2025-01-15 17:22:37.966955	128.4	20.2	-81.2	0.0
2025-01-15 17:22:40.215650	128.2	20.4	-81.1	0.0
2025-01-15 17:22:42.461884	128.0	20.7	-80.9	0.0
2025-01-15 17:22:44.709730	127.7	21.0	-81.0	0.0
2025-01-15 17:22:46.957102	127.5	21.3	-81.1	0.0
2025-01-15 17:22:49.203822	127.2	21.6	-80.6	0.0
2025-01-15 17:22:51.451825	127.0	21.9	-80.3	0.0
2025-01-15 17:22:53.698833	126.7	22.1	-80.9	0.0
2025-01-15 17:22:55.947482	126.4	22.4	-80.8	0.0
2025-01-15 17:22:58.192921	126.1	22.7	-80.5	0.0
2025-01-15 17:23:00.440384	125.9	23.0	-80.8	0.0
2025-01-15 17:23:02.686195	125.6	23.3	-81.0	0.0
2025-01-15 17:23:04.929826	125.3	23.6	-81.1	0.0
2025-01-15 17:23:07.173379	125.0	23.9	-80.9	0.0
2025-01-15 17:23:09.421949	124.7	24.2	-81.0	0.0
2025-01-15 17:23:11.669638	124.4	24.6	-80.8	0.0
2025-01-15 17:23:13.917217	124.1	24.9	-80.9	0.0
2025-01-15 17:23:16.162650	123.8	25.2	-80.6	0.0
2025-01-15 17:23:18.409675	123.4	25.5	-80.6	0.0
2025-01-15 17:23:20.653418	123.1	25.8	-80.7	0.0
2025-01-15 17:23:22.899546	122.8	26.2	-80.4	0.0
2025-01-15 17:23:25.145234	122.4	26.5	-80.4	0.0
2025-01-15 17:23:27.391496	122.1	26.8	-80.8	0.0
2025-01-15 17:23:29.634677	121.7	27.1	-80.9	0.0
2025-01-15 17:23:31.887412	121.3	27.5	-80.9	0.0
2025-01-15 17:23:34.134788	120.9	27.8	-81.1	0.0
2025-01-15 17:23:36.378633	120.6	28.2	-81.1	0.0
2025-01-15 17:23:38.623102	120.2	28.5	-80.8	0.0
2025-01-15 17:23:40.870153	119.8	28.9	-80.7	0.0
2025-01-15 17:23:43.114630	119.3	29.2	-81.0	0.0
2025-01-15 17:23:45.361463	118.9	29.6	-81.0	0.0
2025-01-15 17:23:47.607768	118.5	29.9	-81.0	0.0
2025-01-15 17:23:49.848354	118.0	30.3	-80.8	0.0
2025-01-15 17:23:52.096666	117.6	30.6	-80.4	0.0
2025-01-15 17:23:54.342326	117.1	31.0	-80.4	0.0
2025-01-15 17:23:56.588260	116.7	31.4	-80.8	0.0
2025-01-15 17:23:58.835701	116.2	31.7	-80.3	0.0
2025-01-15 17:24:01.081175	115.7	32.1	-80.6	0.0
2025-01-15 17:24:03.325729	115.2	32.5	-80.3	0.0
2025-01-15 17:24:05.569296	114.7	32.8	-80.5	0.0
2025-01-15 17:24:07.814314	114.1	33.2	-80.5	0.0
2025-01-15 17:24:10.061531	113.6	33.6	-80.5	0.0
2025-01-15 17:24:12.305341	113.0	34.0	-80.6	0.0
2025-01-15 17:24:14.551420	112.5	34.4	-80.5	0.0
2025-01-15 17:24:16.796985	111.9	34.7	-80.7	0.0
2025-01-15 17:24:19.043481	111.3	35.1	-80.5	0.0
2025-01-15 17:24:21.286216	110.7	35.5	-80.4	0.0
2025-01-15 17:24:23.531110	110.0	35.9	-80.3	0.0
2025-01-15 17:24:25.775165	109.4	36.3	-80.5	0.0
2025-01-15 17:24:28.025467	108.7	36.7	-80.3	0.0
2025-01-15 17:24:30.271609	108.1	37.0	-80.4	0.0
2025-01-15 17:24:32.519136	107.4	37.4	-80.7	0.0
2025-01-15 17:24:34.770661	106.7	37.8	-80.7	0.0
2025-01-15 17:24:37.018173	106.0	38.2	-81.1	0.0
2025-01-15 17:24:39.268356	105.2	38.6	-80.7	0.0
2025-01-15 17:24:41.514904	104.5	39.0	-80.9	0.0
2025-01-15 17:24:43.758400	103.7	39.4	-80.8	0.0
2025-01-15 17:24:46.004418	102.9	39.7	-81.0	0.0
2025-01-15 17:24:48.251886	102.1	40.1	-81.2	0.0
2025-01-15 17:24:50.497761	101.2	40.5	-81.1	0.0
2025-01-15 17:24:52.742333	100.4	40.9	-80.5	0.0
2025-01-15 17:24:54.988057	99.5	41.2	-81.0	0.0
2025-01-15 17:24:57.238526	98.6	41.6	-81.2	0.0
2025-01-15 17:24:59.486700	97.7	42.0	-81.3	0.0
2025-01-15 17:25:01.733101	96.8	42.3	-80.8	0.0
2025-01-15 17:25:03.979057	95.8	42.7	-81.3	0.0
2025-01-15 17:25:06.221464	94.9	43.0	-81.1	0.0
2025-01-15 17:25:08.469679	93.9	43.3	-81.2	0.0
2025-01-15 17:25:10.717647	92.8	43.7	-81.0	0.0
2025-01-15 17:25:12.962057	91.8	44.0	-81.1	0.0
2025-01-15 17:25:15.209759	90.8	44.3	-80.9	0.0
2025-01-15 17:25:17.454138	89.7	44.6	-80.8	0.0
2025-01-15 17:25:19.700307	88.6	44.9	-80.7	0.0
2025-01-15 17:25:21.947467	87.5	45.2	-80.9	0.0
2025-01-15 17:25:24.193485	86.3	45.5	-80.8	0.0
2025-01-15 17:25:26.439520	85.2	45.7	-81.2	0.0
2025-01-15 17:25:28.686231	84.0	46.0	-80.8	0.0
2025-01-15 17:25:30.930102	82.8	46.2	-80.7	0.0
2025-01-15 17:25:33.175069	81.6	46.5	-81.0	0.0
2025-01-15 17:25:35.422546	80.3	46.7	-80.5	0.0
2025-01-15 17:25:37.670682	79.1	46.9	-80.7	0.0
2025-01-15 17:25:39.919995	77.8	47.1	-80.5	0.0
2025-01-15 17:25:42.163264	76.5	47.2	-80.7	0.0
2025-01-15 17:25:44.405990	75.2	47.4	-81.1	0.0
2025-01-15 17:25:46.655302	73.9	47.5	-81.1	0.0
2025-01-15 17:25:48.903246	72.6	47.7	-81.1	0.0
2025-01-15 17:25:51.148199	71.3	47.8	-81.0	0.0
2025-01-15 17:25:53.395144	70.0	47.9	-81.4	0.0
2025-01-15 17:25:55.641191	68.6	48.0	-81.2	0.0
2025-01-15 17:25:57.888470	67.3	48.0	-80.9	0.0
2025-01-15 17:26:00.134497	65.9	48.1	-81.0	0.0
2025-01-15 17:26:02.382050	64.6	48.1	-81.3	0.0
2025-01-15 17:26:04.627577	63.2	48.1	-80.8	0.0
2025-01-15 17:26:06.873160	61.8	48.1	-81.4	0.0
2025-01-15 17:26:09.116690	60.5	48.1	-81.5	0.0
2025-01-15 17:26:11.365252	59.1	48.0	-81.3	0.0
2025-01-15 17:26:13.613902	57.8	47.9	-80.8	0.0
2025-01-15 17:26:15.856720	56.4	47.9	-81.4	0.0
2025-01-15 17:26:18.103254	55.1	47.8	-81.2	0.0
2025-01-15 17:26:20.348940	53.8	47.7	-80.9	0.0
2025-01-15 17:26:22.595055	52.5	47.5	-81.0	0.0
2025-01-15 17:26:24.841339	51.2	47.4	-81.2	0.0
2025-01-15 17:26:27.090888	49.9	47.2	-81.3	0.0
2025-01-15 17:26:29.340328	48.6	47.1	-81.6	0.0
2025-01-15 17:26:31.587798	47.3	46.9	-81.4	0.0
2025-01-15 17:26:33.834798	46.1	46.7	-81.3	0.0
2025-01-15 17:26:36.084122	44.9	46.4	-81.3	0.0
2025-01-15 17:26:38.331879	43.6	46.2	-81.6	0.0
2025-01-15 17:26:40.577163	42.5	46.0	-81.3	0.0
2025-01-15 17:26:42.819419	41.3	45.7	-81.6	0.0
2025-01-15 17:26:45.068419	40.1	45.5	-81.4	0.0
2025-01-15 17:26:47.315539	39.0	45.2	-81.3	0.0
2025-01-15 17:26:49.563968	37.9	44.9	-81.5	0.0
2025-01-15 17:26:51.811085	36.8	44.6	-81.2	0.0
2025-01-15 17:26:54.056757	35.7	44.3	-81.6	0.0
2025-01-15 17:26:56.302545	34.7	44.0	-81.3	0.0
2025-01-15 17:26:58.549812	33.6	43.6	-81.4	0.0
2025-01-15 17:27:00.794109	32.6	43.3	-81.6	0.0
2025-01-15 17:27:03.039896	31.6	43.0	-81.5	0.0
2025-01-15 17:27:05.288813	30.6	42.6	-81.5	0.0
2025-01-15 17:27:07.534420	29.7	42.3	-81.5	0.0
2025-01-15 17:27:09.781879	28.8	41.9	-81.3	0.0
2025-01-15 17:27:12.026264	27.9	41.6	-81.4	0.0
2025-01-15 17:27:14.270915	27.0	41.2	-81.2	0.0
2025-01-15 17:27:16.515374	26.1	40.8	-81.2	0.0
2025-01-15 17:27:18.760941	25.3	40.5	-81.2	0.0
2025-01-15 17:27:21.005682	24.4	40.1	-81.3	0.0
2025-01-15 17:27:23.250701	23.6	39.7	-81.5	0.0
2025-01-15 17:27:25.494154	22.8	39.3	-81.2	0.0
2025-01-15 17:27:27.738452	22.1	39.0	-81.4	0.0
2025-01-15 17:27:29.986308	21.3	38.6	-81.3	0.0
2025-01-15 17:27:32.231099	20.6	38.2	-81.5	0.0
2025-01-15 17:27:34.474339	19.9	37.8	-81.6	0.0
2025-01-15 17:27:36.723416	19.2	37.4	-81.5	0.0
2025-01-15 17:27:38.968956	18.5	37.0	-81.6	0.0
2025-01-15 17:27:41.214112	17.8	36.7	-81.2	0.0
2025-01-15 17:27:43.459129	17.2	36.3	-81.3	0.0
2025-01-15 17:27:45.703962	16.5	35.9	-81.7	0.0
2025-01-15 17:27:47.950633	15.9	35.5	-81.5	0.0
2025-01-15 17:27:50.201255	15.3	35.1	-81.2	0.0
2025-01-15 17:27:52.444379	14.7	34.7	-81.2	0.0
2025-01-15 17:27:54.691913	14.1	34.4	-81.3	0.0
2025-01-15 17:27:56.938938	13.5	34.0	-81.4	0.0
2025-01-15 17:27:59.186545	13.0	33.6	-81.4	0.0
2025-01-15 17:28:01.434125	12.5	33.2	-81.0	0.0
2025-01-15 17:28:03.681614	11.9	32.9	-81.0	0.0
2025-01-15 17:28:05.930541	11.4	32.5	-81.5	0.0
2025-01-15 17:28:08.176436	10.9	32.1	-81.4	0.0
2025-01-15 17:28:10.423766	10.4	31.7	-81.5	0.0
2025-01-15 17:28:12.671977	9.9	31.4	-81.4	0.0
2025-01-15 17:28:14.918346	9.5	31.0	-81.5	0.0
2025-01-15 17:28:17.169069	9.0	30.7	-81.6	0.0
2025-01-15 17:28:19.414566	8.6	30.3	-81.2	0.0
2025-01-15 17:28:21.662952	8.1	29.9	-81.5	0.0
2025-01-15 17:28:23.908428	7.7	29.6	-81.6	0.0
2025-01-15 17:28:26.151849	7.3	29.2	-81.9	0.0
2025-01-15 17:28:28.398011	6.9	28.9	-81.6	0.0
2025-01-15 17:28:30.645723	6.5	28.5	-81.1	0.0
2025-01-15 17:28:32.893325	6.1	28.2	-81.4	0.0
2025-01-15 17:28:35.141525	5.7	27.9	-81.2	0.0
2025-01-15 17:28:37.388742	5.3	27.5	-81.3	0.0
2025-01-15 17:28:39.632864	4.9	27.2	-81.3	0.0
2025-01-15 17:28:41.880294	4.6	26.9	-81.0	0.0
2025-01-15 17:28:44.126324	4.2	26.5	-81.1	0.0
2025-01-15 17:28:46.373291	3.9	26.2	-81.4	0.0
2025-01-15 17:28:48.616293	3.5	25.9	-81.3	0.0
2025-01-15 17:28:50.861906	3.2	25.6	-81.3	0.0
2025-01-15 17:28:53.106226	2.9	25.2	-81.5	0.0
2025-01-15 17:28:55.350154	2.6	24.9	-81.3	0.0
2025-01-15 17:28:57.598703	2.2	24.6	-81.4	0.0
2025-01-15 17:28:59.844918	1.9	24.3	-81.4	0.0
2025-01-15 17:29:02.093616	1.6	24.0	-81.3	0.0
2025-01-15 17:29:04.342426	1.4	23.7	-81.3	0.0
2025-01-15 17:29:06.589112	1.1	23.4	-81.2	0.0
2025-01-15 17:29:08.837340	0.8	23.1	-81.4	0.0
2025-01-15 17:29:11.082495	0.5	22.8	-81.3	0.0
2025-01-15 17:29:13.327910	0.2	22.5	-81.5	0.0
2025-01-15 17:29:15.575389	360.0	22.2	-81.4	0.0
2025-01-15 17:29:17.818730	359.7	21.9	-81.2	0.0
2025-01-15 17:29:20.065111	359.5	21.6	-81.0	0.0
2025-01-15 17:29:22.312499	359.2	21.4	-81.4	0.0
2025-01-15 17:29:24.560728	359.0	21.1	-81.4	0.0
2025-01-15 17:29:26.804019	358.7	20.8	-81.6	0.0
2025-01-15 17:29:29.047608	358.5	20.5	-81.4	0.0
2025-01-15 17:29:31.293017	358.2	20.2	-81.5	0.0
2025-01-15 17:29:33.541109	358.0	20.0	-81.7	0.0
2025-01-15 17:29:35.788029	357.8	19.7	-81.1	0.0
2025-01-15 17:29:38.033435	357.6	19.4	-81.5	0.0
2025-01-15 17:29:40.279432	357.3	19.2	-81.8	0.0
2025-01-15 17:29:42.527356	357.1	18.9	-80.6	0.0
2025-01-15 17:29:44.774287	356.9	18.7	-81.6	0.0
2025-01-15 17:29:47.018163	356.7	18.4	-81.5	0.0
2025-01-15 17:29:49.265730	356.5	18.2	-81.6	0.0
2025-01-15 17:29:51.510887	356.3	17.9	-81.5	0.0
2025-01-15 17:29:53.760341	356.1	17.7	-81.7	0.0
2025-01-15 17:29:56.004375	355.9	17.4	-81.4	0.0
2025-01-15 17:29:58.250474	355.7	17.2	-81.9	0.0
2025-01-15 17:30:00.494022	355.6	16.9	-81.4	0.0
2025-01-15 17:30:02.739042	355.4	16.7	-81.8	0.0
2025-01-15 17:30:04.987251	355.2	16.4	-81.6	0.0
2025-01-15 17:30:07.231051	355.0	16.2	-81.7	0.0
2025-01-15 17:30:09.476483	354.8	16.0	-81.6	0.0
2025-01-15 17:30:11.721926	354.7	15.7	-81.6	0.0
2025-01-15 17:30:13.970025	354.5	15.5	-81.7	0.0
2025-01-15 17:30:16.216907	354.3	15.3	-81.5	0.0
2025-01-15 17:30:18.461777	354.2	15.0	-82.0	0.0
2025-01-15 17:30:20.705185	354.0	14.8	-81.6	0.0
2025-01-15 17:30:22.945882	353.9	14.6	-81.7	0.0
2025-01-15 17:30:25.192958	353.7	14.4	-81.5	0.0
2025-01-15 17:30:27.440684	353.6	14.2	-81.7	0.0
2025-01-15 17:30:29.686829	353.4	13.9	-81.4	0.0
2025-01-15 17:30:31.934550	353.3	13.7	-81.5	0.0
2025-01-15 17:30:34.182486	353.1	13.5	-81.5	0.0
2025-01-15 17:30:36.428887	353.0	13.3	-81.6	0.0
2025-01-15 17:30:38.672807	352.8	13.1	-81.5	0.0
2025-01-15 17:30:40.914754	352.7	12.9	-81.8	0.0
2025-01-15 17:30:43.162854	352.6	12.7	-81.5	0.0
2025-01-15 17:30:45.407077	352.4	12.5	-81.7	0.0
2025-01-15 17:30:47.651792	352.3	12.3	-81.7	0.0
2025-01-15 17:30:49.897153	352.2	12.1	-81.8	0.0
2025-01-15 17:30:52.141674	352.0	11.9	-81.4	0.0
2025-01-15 17:30:54.386935	351.9	11.7	-81.8	0.0
2025-01-15 17:30:56.634143	351.8	11.5	-81.7	0.0
2025-01-15 17:30:58.878488	351.6	11.3	-81.3	0.0
2025-01-15 17:31:01.126353	351.5	11.1	-81.6	0.0
2025-01-15 17:31:03.374591	351.4	10.9	-81.5	0.0
2025-01-15 17:31:05.619454	351.3	10.7	-81.7	0.0
2025-01-15 17:31:07.865506	351.2	10.5	-81.7	0.0
2025-01-15 17:31:10.110589	351.1	10.3	-81.6	0.0
2025-01-15 17:31:12.355830	350.9	10.1	-81.6	0.0
#Closed at: 2025-01-15 17:20:51.980770