passes_logs/2025/01/15/planumMaritime01/planumMaritime01__20250115_010924_METEOR-M2_4_rec.log

#Pass ID: 20250115_010924_METEOR-M2 4
#Satellite: METEOR-M2 4
#Configuration: METEOR-M2 4
#Start time: 2025-01-15 01:09:29.579820

#LorettStation: 1.0.0 05.05.2024
#Station: planumMaritime01
#Location: 37.49445 lon 55.92918 lat
#TLE: 1 59051U 24039A   25013.90238722  .00000050  00000+0  41715-4 0  9998
#TLE: 2 59051  98.6291 336.9363 0006151 228.5277 131.5373 14.22324781 45440

#Time	Az	El	Level	SNR
2025-01-15 01:09:31.738399	16.4	10.2	-80.8	0.0
2025-01-15 01:09:33.981251	16.4	10.4	-80.9	0.0
2025-01-15 01:09:36.227494	16.5	10.6	-80.8	0.0
2025-01-15 01:09:38.474042	16.5	10.8	-80.6	0.0
2025-01-15 01:09:40.717793	16.5	11.0	-80.9	0.0
2025-01-15 01:09:42.962917	16.5	11.2	-80.8	0.0
2025-01-15 01:09:45.209719	16.5	11.4	-80.9	0.0
2025-01-15 01:09:47.457465	16.5	11.6	-81.1	0.0
2025-01-15 01:09:49.707756	16.5	11.8	-81.0	0.0
2025-01-15 01:09:51.951118	16.5	12.0	-80.7	0.0
2025-01-15 01:09:54.195962	16.5	12.2	-81.2	0.0
2025-01-15 01:09:56.445852	16.5	12.4	-81.3	0.0
2025-01-15 01:09:58.690544	16.5	12.7	-81.2	0.0
2025-01-15 01:10:00.939928	16.5	12.9	-81.1	0.0
2025-01-15 01:10:03.187858	16.6	13.1	-81.3	0.0
2025-01-15 01:10:05.435008	16.6	13.3	-81.3	0.0
2025-01-15 01:10:07.677949	16.6	13.5	-81.2	0.0
2025-01-15 01:10:09.921817	16.6	13.8	-81.2	0.0
2025-01-15 01:10:12.168648	16.6	14.0	-80.9	0.0
2025-01-15 01:10:14.412416	16.6	14.2	-81.0	0.0
2025-01-15 01:10:16.656588	16.6	14.5	-81.2	0.0
2025-01-15 01:10:18.899102	16.6	14.7	-81.0	0.0
2025-01-15 01:10:21.146890	16.6	14.9	-80.8	0.0
2025-01-15 01:10:23.393246	16.6	15.2	-81.0	0.0
2025-01-15 01:10:25.642193	16.6	15.4	-80.4	0.0
2025-01-15 01:10:27.886590	16.7	15.7	-81.2	0.0
2025-01-15 01:10:30.133592	16.7	15.9	-81.1	0.0
2025-01-15 01:10:32.378725	16.7	16.2	-81.2	0.0
2025-01-15 01:10:34.629867	16.7	16.4	-81.2	0.0
2025-01-15 01:10:36.875468	16.7	16.7	-81.4	0.0
2025-01-15 01:10:39.122153	16.7	16.9	-81.2	0.0
2025-01-15 01:10:41.370535	16.7	17.2	-81.4	0.0
2025-01-15 01:10:43.620654	16.7	17.5	-81.3	0.0
2025-01-15 01:10:45.867665	16.7	17.7	-81.2	0.0
2025-01-15 01:10:48.117316	16.7	18.0	-81.2	0.0
2025-01-15 01:10:50.362946	16.7	18.3	-81.4	0.0
2025-01-15 01:10:52.608774	16.7	18.5	-81.3	0.0
2025-01-15 01:10:54.853093	16.8	18.8	-81.3	0.0
2025-01-15 01:10:57.100494	16.8	19.1	-81.5	0.0
2025-01-15 01:10:59.342370	16.8	19.4	-81.4	0.0
2025-01-15 01:11:01.590517	16.8	19.7	-81.5	0.0
2025-01-15 01:11:03.836592	16.8	20.0	-81.5	0.0
2025-01-15 01:11:06.079813	16.8	20.3	-81.2	0.0
2025-01-15 01:11:08.326334	16.8	20.6	-81.4	0.0
2025-01-15 01:11:10.571425	16.8	20.9	-81.5	0.0
2025-01-15 01:11:12.819762	16.8	21.2	-81.6	0.0
2025-01-15 01:11:15.064180	16.8	21.5	-81.4	0.0
2025-01-15 01:11:17.310278	16.8	21.8	-81.6	0.0
2025-01-15 01:11:19.556677	16.8	22.1	-81.5	0.0
2025-01-15 01:11:21.804832	16.9	22.4	-81.4	0.0
2025-01-15 01:11:24.051304	16.9	22.8	-81.5	0.0
2025-01-15 01:11:26.295090	16.9	23.1	-81.5	0.0
2025-01-15 01:11:28.536985	16.9	23.4	-81.4	0.0
2025-01-15 01:11:30.781822	16.9	23.8	-81.4	0.0
2025-01-15 01:11:33.029932	16.9	24.1	-81.2	0.0
2025-01-15 01:11:35.275399	16.9	24.4	-81.5	0.0
2025-01-15 01:11:37.521588	16.9	24.8	-81.5	0.0
2025-01-15 01:11:39.766774	16.9	25.2	-81.3	0.0
2025-01-15 01:11:42.015740	16.9	25.5	-81.5	0.0
2025-01-15 01:11:44.258614	16.9	25.9	-81.5	0.0
2025-01-15 01:11:46.504662	16.9	26.3	-81.5	0.0
2025-01-15 01:11:48.753349	16.9	26.6	-81.6	0.0
2025-01-15 01:11:51.001867	17.0	27.0	-81.7	0.0
2025-01-15 01:11:53.246834	17.0	27.4	-81.7	0.0
2025-01-15 01:11:55.495341	17.0	27.8	-81.5	0.0
2025-01-15 01:11:57.742067	17.0	28.2	-81.5	0.0
2025-01-15 01:11:59.989847	17.0	28.6	-81.6	0.0
2025-01-15 01:12:02.233447	17.0	29.0	-81.6	0.0
2025-01-15 01:12:04.475643	17.0	29.4	-81.4	0.0
2025-01-15 01:12:06.720678	17.0	29.9	-81.5	0.0
2025-01-15 01:12:08.965594	17.0	30.3	-81.6	0.0
2025-01-15 01:12:11.210801	17.0	30.7	-81.6	0.0
2025-01-15 01:12:13.456763	17.0	31.2	-81.8	0.0
2025-01-15 01:12:15.702599	17.0	31.6	-81.6	0.0
2025-01-15 01:12:17.950002	17.1	32.1	-81.6	0.0
2025-01-15 01:12:20.196724	17.1	32.6	-81.7	0.0
2025-01-15 01:12:22.441985	17.1	33.0	-81.6	0.0
2025-01-15 01:12:24.688430	17.1	33.5	-81.8	0.0
2025-01-15 01:12:26.935632	17.1	34.0	-81.5	0.0
2025-01-15 01:12:29.182741	17.1	34.5	-81.7	0.0
2025-01-15 01:12:31.429195	17.1	35.0	-81.7	0.0
2025-01-15 01:12:33.673615	17.1	35.5	-81.9	0.0
2025-01-15 01:12:35.922013	17.1	36.0	-81.9	0.0
2025-01-15 01:12:38.168273	17.1	36.6	-81.8	0.0
2025-01-15 01:12:40.415235	17.1	37.1	-81.7	0.0
2025-01-15 01:12:42.662232	17.1	37.7	-81.7	0.0
2025-01-15 01:12:44.906882	17.1	38.2	-81.9	0.0
2025-01-15 01:12:47.154780	17.1	38.8	-81.7	0.0
2025-01-15 01:12:49.401870	17.2	39.4	-82.0	0.0
2025-01-15 01:12:51.649599	17.2	39.9	-81.8	0.0
2025-01-15 01:12:53.895754	17.2	40.5	-81.9	0.0
2025-01-15 01:12:56.141791	17.2	41.2	-81.7	0.0
2025-01-15 01:12:58.387142	17.2	41.8	-82.0	0.0
2025-01-15 01:13:00.633027	17.2	42.4	-81.8	0.0
2025-01-15 01:13:02.881253	17.2	43.0	-81.8	0.0
2025-01-15 01:13:05.128025	17.2	43.7	-81.8	0.0
2025-01-15 01:13:07.374611	17.2	44.3	-81.8	0.0
2025-01-15 01:13:09.617912	17.2	45.0	-81.9	0.0
2025-01-15 01:13:11.864239	17.2	45.7	-81.8	0.0
2025-01-15 01:13:14.110039	17.2	46.4	-81.7	0.0
2025-01-15 01:13:16.360791	17.2	47.1	-81.8	0.0
2025-01-15 01:13:18.607065	17.2	47.8	-81.7	0.0
2025-01-15 01:13:20.852161	17.3	48.6	-81.9	0.0
2025-01-15 01:13:23.099357	17.3	49.3	-81.8	0.0
2025-01-15 01:13:25.345216	17.3	50.1	-81.8	0.0
2025-01-15 01:13:27.593798	17.3	50.8	-81.9	0.0
2025-01-15 01:13:29.841598	17.3	51.6	-81.9	0.0
2025-01-15 01:13:32.086423	17.3	52.4	-81.8	0.0
2025-01-15 01:13:34.332024	17.3	53.2	-81.9	0.0
2025-01-15 01:13:36.578038	17.3	54.1	-81.9	0.0
2025-01-15 01:13:38.826548	17.3	54.9	-82.0	0.0
2025-01-15 01:13:41.073569	17.3	55.7	-81.8	0.0
2025-01-15 01:13:43.317857	17.3	56.6	-81.9	0.0
2025-01-15 01:13:45.562604	17.3	57.5	-81.7	0.0
2025-01-15 01:13:47.811256	17.3	58.4	-81.9	0.0
2025-01-15 01:13:50.055350	17.3	59.3	-81.8	0.0
2025-01-15 01:13:52.305181	17.3	60.2	-81.9	0.0
2025-01-15 01:13:54.550894	17.3	61.1	-81.7	0.0
2025-01-15 01:13:56.796688	17.3	62.1	-81.9	0.0
2025-01-15 01:13:59.045904	17.3	63.1	-81.9	0.0
2025-01-15 01:14:01.294906	17.3	64.0	-81.5	0.0
2025-01-15 01:14:03.541353	17.4	65.0	-81.5	0.0
2025-01-15 01:14:05.784776	17.4	66.0	-81.6	0.0
2025-01-15 01:14:08.033531	17.4	67.0	-81.8	0.0
2025-01-15 01:14:10.277184	17.4	68.1	-81.9	0.0
2025-01-15 01:14:12.522576	17.4	69.1	-81.5	0.0
2025-01-15 01:14:14.767333	17.4	70.1	-81.6	0.0
2025-01-15 01:14:17.014594	17.4	71.2	-81.6	0.0
2025-01-15 01:14:19.265098	17.4	72.3	-81.6	0.0
2025-01-15 01:14:21.509221	17.3	73.4	-81.7	0.0
2025-01-15 01:14:23.757096	17.3	74.5	-81.8	0.0
2025-01-15 01:14:26.005848	17.3	75.6	-81.8	0.0
2025-01-15 01:14:28.253695	17.3	76.7	-81.6	0.0
2025-01-15 01:14:30.498942	17.3	77.8	-81.6	0.0
2025-01-15 01:14:32.741763	17.3	78.9	-81.8	0.0
2025-01-15 01:14:34.991529	17.3	80.1	-81.4	0.0
2025-01-15 01:14:37.235567	17.2	81.2	-81.1	0.0
2025-01-15 01:14:39.480723	17.2	82.4	-80.9	2.7
2025-01-15 01:14:41.726876	17.1	83.5	-80.6	5.6
2025-01-15 01:14:43.971235	17.0	84.7	-80.5	6.2
2025-01-15 01:14:46.215575	16.9	85.8	-80.2	7.4
2025-01-15 01:14:48.461960	16.6	87.0	-79.6	9.9
2025-01-15 01:14:50.708589	15.9	88.2	-78.9	11.5
2025-01-15 01:14:52.953651	12.8	89.3	-78.3	13.1
2025-01-15 01:14:55.201128	203.8	89.5	-77.7	14.3
2025-01-15 01:14:57.443750	199.5	88.3	-77.4	15.2
2025-01-15 01:14:59.691423	198.8	87.1	-77.1	15.4
2025-01-15 01:15:01.936799	198.5	86.0	-77.2	15.7
2025-01-15 01:15:04.181206	198.3	84.8	-77.2	16.0
2025-01-15 01:15:06.426734	198.2	83.7	-77.3	15.2
2025-01-15 01:15:08.674423	198.1	82.5	-77.2	15.7
2025-01-15 01:15:10.920613	198.1	81.3	-77.0	16.2
2025-01-15 01:15:13.167422	198.0	80.2	-76.8	16.2
2025-01-15 01:15:15.415416	198.0	79.1	-76.4	17.0
2025-01-15 01:15:17.661042	198.0	77.9	-76.7	17.3
2025-01-15 01:15:19.904600	198.0	76.8	-76.8	16.7
2025-01-15 01:15:22.146448	198.0	75.7	-77.3	15.4
2025-01-15 01:15:24.390597	198.0	74.6	-77.4	15.0
2025-01-15 01:15:26.638515	197.9	73.5	-78.1	14.1
2025-01-15 01:15:28.888333	197.9	72.4	-78.9	12.2
2025-01-15 01:15:31.136444	197.9	71.3	-79.0	11.2
2025-01-15 01:15:33.384749	197.9	70.2	-79.0	11.7
2025-01-15 01:15:35.632368	197.9	69.2	-79.2	10.8
2025-01-15 01:15:37.874805	197.9	68.1	-79.7	9.0
2025-01-15 01:15:40.120321	197.9	67.1	-80.1	7.9
2025-01-15 01:15:42.365643	197.9	66.1	-80.3	6.1
2025-01-15 01:15:44.611389	197.9	65.1	-80.9	4.3
2025-01-15 01:15:46.858751	197.9	64.1	-81.2	1.1
2025-01-15 01:15:49.103530	197.9	63.1	-81.5	0.0
2025-01-15 01:15:51.348690	197.9	62.2	-81.6	0.0
2025-01-15 01:15:53.597522	198.0	61.2	-81.8	0.0
2025-01-15 01:15:55.846106	198.0	60.3	-80.8	0.0
2025-01-15 01:15:58.092659	198.0	59.3	-81.7	0.0
2025-01-15 01:16:00.337809	198.0	58.4	-81.4	0.0
2025-01-15 01:16:02.582534	198.0	57.5	-81.6	0.0
2025-01-15 01:16:04.830908	198.0	56.6	-81.6	0.0
2025-01-15 01:16:07.078357	198.0	55.8	-81.4	0.0
2025-01-15 01:16:09.322882	198.0	54.9	-81.2	0.0
2025-01-15 01:16:11.570368	198.0	54.1	-81.3	0.0
2025-01-15 01:16:13.817420	198.0	53.2	-81.2	0.0
2025-01-15 01:16:16.064671	198.0	52.4	-81.3	0.0
2025-01-15 01:16:18.309483	198.0	51.6	-81.5	0.6
2025-01-15 01:16:20.557184	198.0	50.8	-81.1	1.7
2025-01-15 01:16:22.804196	198.0	50.1	-81.2	2.5
2025-01-15 01:16:25.051558	198.0	49.3	-81.0	3.1
2025-01-15 01:16:27.298921	198.0	48.5	-81.0	2.9
2025-01-15 01:16:29.543698	198.0	47.8	-80.8	3.8
2025-01-15 01:16:31.789045	198.0	47.1	-80.8	4.9
2025-01-15 01:16:34.032668	198.0	46.4	-80.9	4.1
2025-01-15 01:16:36.278054	198.1	45.7	-81.0	3.5
2025-01-15 01:16:38.528089	198.1	45.0	-81.1	3.4
2025-01-15 01:16:40.774830	198.1	44.3	-81.0	4.0
2025-01-15 01:16:43.023758	198.1	43.6	-81.0	3.8
2025-01-15 01:16:45.270302	198.1	43.0	-81.1	4.2
2025-01-15 01:16:47.514312	198.1	42.3	-81.1	3.2
2025-01-15 01:16:49.761561	198.1	41.7	-81.0	2.6
2025-01-15 01:16:52.005833	198.1	41.1	-81.2	3.3
2025-01-15 01:16:54.249034	198.1	40.5	-81.2	2.4
2025-01-15 01:16:56.493835	198.1	39.9	-81.2	2.6
2025-01-15 01:16:58.738592	198.1	39.3	-81.3	2.4
2025-01-15 01:17:00.982422	198.1	38.7	-81.3	2.1
2025-01-15 01:17:03.230851	198.1	38.1	-81.3	2.2
2025-01-15 01:17:05.476371	198.1	37.6	-81.5	0.4
2025-01-15 01:17:07.722331	198.1	37.0	-81.2	0.0
2025-01-15 01:17:09.963949	198.1	36.5	-81.5	1.0
2025-01-15 01:17:12.212053	198.2	35.9	-81.3	0.0
2025-01-15 01:17:14.457580	198.2	35.4	-81.4	0.0
2025-01-15 01:17:16.702186	198.2	34.9	-81.3	0.5
2025-01-15 01:17:18.951703	198.2	34.4	-81.4	0.0
2025-01-15 01:17:21.196195	198.2	33.9	-81.6	0.0
2025-01-15 01:17:23.441300	198.2	33.4	-81.6	0.0
2025-01-15 01:17:25.684379	198.2	32.9	-81.7	0.0
2025-01-15 01:17:27.931414	198.2	32.4	-81.6	0.0
2025-01-15 01:17:30.177803	198.2	32.0	-81.5	0.0
2025-01-15 01:17:32.423373	198.2	31.5	-81.8	0.0
2025-01-15 01:17:34.669498	198.2	31.0	-81.7	0.0
2025-01-15 01:17:36.914770	198.2	30.6	-81.4	0.0
2025-01-15 01:17:39.159874	198.2	30.2	-81.8	0.0
2025-01-15 01:17:41.406252	198.2	29.7	-81.8	0.0
2025-01-15 01:17:43.652614	198.2	29.3	-81.8	0.0
2025-01-15 01:17:45.897052	198.3	28.9	-81.7	0.0
2025-01-15 01:17:48.140887	198.3	28.5	-81.8	0.0
2025-01-15 01:17:50.383452	198.3	28.0	-81.9	0.0
2025-01-15 01:17:52.631331	198.3	27.6	-81.8	0.0
2025-01-15 01:17:54.878186	198.3	27.2	-81.8	0.0
2025-01-15 01:17:57.125512	198.3	26.9	-81.9	0.0
2025-01-15 01:17:59.370841	198.3	26.5	-81.9	0.0
2025-01-15 01:18:01.622682	198.3	26.1	-82.2	0.0
2025-01-15 01:18:03.867985	198.3	25.7	-82.0	0.0
2025-01-15 01:18:06.116154	198.3	25.3	-81.9	0.0
2025-01-15 01:18:08.361532	198.3	25.0	-81.9	0.0
2025-01-15 01:18:10.605030	198.3	24.6	-82.1	0.0
2025-01-15 01:18:12.851023	198.3	24.3	-82.3	0.0
2025-01-15 01:18:15.095788	198.3	23.9	-82.0	0.0
2025-01-15 01:18:17.340372	198.3	23.6	-82.0	0.0
2025-01-15 01:18:19.584833	198.4	23.2	-82.1	0.0
2025-01-15 01:18:21.830666	198.4	22.9	-82.2	0.0
2025-01-15 01:18:24.077758	198.4	22.6	-82.2	0.0
2025-01-15 01:18:26.322349	198.4	22.2	-82.2	0.0
2025-01-15 01:18:28.567053	198.4	21.9	-82.2	0.0
2025-01-15 01:18:30.810822	198.4	21.6	-82.2	0.0
2025-01-15 01:18:33.055998	198.4	21.3	-82.1	0.0
2025-01-15 01:18:35.300153	198.4	21.0	-82.1	0.0
2025-01-15 01:18:37.548105	198.4	20.7	-82.2	0.0
2025-01-15 01:18:39.794400	198.4	20.4	-82.1	0.0
2025-01-15 01:18:42.038784	198.4	20.1	-82.1	0.0
2025-01-15 01:18:44.285484	198.4	19.8	-82.2	0.0
2025-01-15 01:18:46.531677	198.4	19.5	-82.0	0.0
2025-01-15 01:18:48.775196	198.4	19.2	-82.1	0.0
2025-01-15 01:18:51.018875	198.4	18.9	-82.5	0.0
2025-01-15 01:18:53.264828	198.5	18.6	-82.3	0.0
2025-01-15 01:18:55.512367	198.5	18.3	-82.2	0.0
2025-01-15 01:18:57.759887	198.5	18.0	-82.3	0.0
2025-01-15 01:19:00.007178	198.5	17.8	-82.2	0.0
2025-01-15 01:19:02.251951	198.5	17.5	-82.3	0.0
2025-01-15 01:19:04.496613	198.5	17.2	-82.2	0.0
2025-01-15 01:19:06.745425	198.5	17.0	-82.2	0.0
2025-01-15 01:19:08.989463	198.5	16.7	-82.2	0.0
2025-01-15 01:19:11.232677	198.5	16.4	-82.0	0.0
2025-01-15 01:19:13.477297	198.5	16.2	-81.9	0.0
2025-01-15 01:19:15.722816	198.5	15.9	-82.0	0.0
2025-01-15 01:19:17.970175	198.5	15.7	-82.1	0.0
2025-01-15 01:19:20.214695	198.5	15.4	-82.1	0.0
2025-01-15 01:19:22.463353	198.5	15.2	-82.2	0.0
2025-01-15 01:19:24.710328	198.5	15.0	-82.1	0.0
2025-01-15 01:19:26.957379	198.6	14.7	-82.1	0.0
2025-01-15 01:19:29.203747	198.6	14.5	-82.3	0.0
2025-01-15 01:19:31.449035	198.6	14.2	-82.3	0.0
2025-01-15 01:19:33.696369	198.6	14.0	-82.1	0.0
2025-01-15 01:19:35.944049	198.6	13.8	-82.1	0.0
2025-01-15 01:19:38.192982	198.6	13.5	-82.3	0.0
2025-01-15 01:19:40.439654	198.6	13.3	-82.2	0.0
2025-01-15 01:19:42.685845	198.6	13.1	-82.1	0.0
2025-01-15 01:19:44.931332	198.6	12.9	-82.4	0.0
2025-01-15 01:19:47.182552	198.6	12.6	-82.1	0.0
2025-01-15 01:19:49.426939	198.6	12.4	-82.1	0.0
2025-01-15 01:19:51.670363	198.6	12.2	-82.0	0.0
2025-01-15 01:19:53.916759	198.6	12.0	-82.2	0.0
2025-01-15 01:19:56.168678	198.6	11.8	-82.2	0.0
2025-01-15 01:19:58.412020	198.6	11.6	-82.3	0.0
2025-01-15 01:20:00.658477	198.7	11.4	-82.2	0.0
2025-01-15 01:20:02.902586	198.7	11.1	-82.2	0.0
2025-01-15 01:20:05.146455	198.7	10.9	-82.2	0.0
2025-01-15 01:20:07.394158	198.7	10.7	-82.1	0.0
2025-01-15 01:20:09.638967	198.7	10.5	-82.3	0.0
2025-01-15 01:20:11.884237	198.7	10.3	-82.1	0.0
2025-01-15 01:20:14.128072	198.7	10.1	-82.3	0.0
#Closed at: 2025-01-15 01:09:24.581187