passes_logs/2025/01/15/planumMaritime01/planumMaritime01__20250115_115555_METEOR-M2_2_rec.log

#Pass ID: 20250115_115555_METEOR-M2 2
#Satellite: METEOR-M2 2
#Configuration: METEOR-M2 2
#Start time: 2025-01-15 11:56:00.336201

#LorettStation: 1.0.0 05.05.2024
#Station: planumMaritime01
#Location: 37.49445 lon 55.92918 lat
#TLE: 1 44387U 19038A   25013.94389374  .00000226  00000+0  11773-3 0  9996
#TLE: 2 44387  98.8563 350.3347 0002292  80.4075 279.7362 14.24116310287388

#Time	Az	El	Level	SNR
2025-01-15 11:56:02.495686	147.5	10.2	-81.0	0.0
2025-01-15 11:56:04.743077	147.4	10.4	-81.0	0.0
2025-01-15 11:56:06.990581	147.4	10.6	-81.3	0.0
2025-01-15 11:56:09.234420	147.3	10.8	-81.5	0.0
2025-01-15 11:56:11.480179	147.3	11.0	-81.2	0.0
2025-01-15 11:56:13.723166	147.2	11.2	-81.5	0.0
2025-01-15 11:56:15.967445	147.1	11.4	-81.3	0.0
2025-01-15 11:56:18.209516	147.1	11.6	-81.6	0.0
2025-01-15 11:56:20.452716	147.0	11.8	-81.9	0.0
2025-01-15 11:56:22.699053	146.9	12.0	-81.3	0.0
2025-01-15 11:56:24.945170	146.9	12.2	-81.2	0.0
2025-01-15 11:56:27.190025	146.8	12.5	-81.4	0.0
2025-01-15 11:56:29.439357	146.7	12.7	-80.6	0.0
2025-01-15 11:56:31.686116	146.6	12.9	-81.2	0.0
2025-01-15 11:56:33.935583	146.6	13.1	-80.5	0.0
2025-01-15 11:56:36.184066	146.5	13.3	-80.8	0.0
2025-01-15 11:56:38.432684	146.4	13.6	-80.8	0.0
2025-01-15 11:56:40.676604	146.3	13.8	-81.2	0.0
2025-01-15 11:56:42.922461	146.3	14.0	-81.5	0.0
2025-01-15 11:56:45.167439	146.2	14.3	-81.5	0.0
2025-01-15 11:56:47.413602	146.1	14.5	-81.8	0.0
2025-01-15 11:56:49.660134	146.0	14.7	-82.1	0.0
2025-01-15 11:56:51.906986	145.9	15.0	-82.0	0.0
2025-01-15 11:56:54.153847	145.8	15.2	-81.6	0.0
2025-01-15 11:56:56.400855	145.8	15.4	-82.0	0.0
2025-01-15 11:56:58.644809	145.7	15.7	-81.9	0.0
2025-01-15 11:57:00.892133	145.6	15.9	-81.8	0.0
2025-01-15 11:57:03.139126	145.5	16.2	-81.7	0.0
2025-01-15 11:57:05.386959	145.4	16.4	-81.8	0.0
2025-01-15 11:57:07.627630	145.3	16.7	-81.7	0.0
2025-01-15 11:57:09.874313	145.2	17.0	-82.1	0.0
2025-01-15 11:57:12.120680	145.1	17.2	-81.8	0.0
2025-01-15 11:57:14.365120	145.0	17.5	-81.5	0.0
2025-01-15 11:57:16.612964	144.9	17.7	-81.5	0.0
2025-01-15 11:57:18.858859	144.8	18.0	-81.8	0.0
2025-01-15 11:57:21.106074	144.7	18.3	-81.5	0.0
2025-01-15 11:57:23.353030	144.6	18.6	-81.8	0.0
2025-01-15 11:57:25.601385	144.5	18.8	-81.9	0.0
2025-01-15 11:57:27.846696	144.3	19.1	-82.0	0.0
2025-01-15 11:57:30.092590	144.2	19.4	-82.1	0.0
2025-01-15 11:57:32.339819	144.1	19.7	-82.3	0.0
2025-01-15 11:57:34.583694	144.0	20.0	-82.3	0.0
2025-01-15 11:57:36.828913	143.9	20.3	-81.8	0.0
2025-01-15 11:57:39.073000	143.7	20.6	-81.5	0.0
2025-01-15 11:57:41.319227	143.6	20.9	-81.3	0.0
2025-01-15 11:57:43.565238	143.5	21.2	-81.7	0.0
2025-01-15 11:57:45.812766	143.3	21.5	-81.6	0.0
2025-01-15 11:57:48.057432	143.2	21.8	-81.0	0.0
2025-01-15 11:57:50.303300	143.1	22.1	-81.7	0.0
2025-01-15 11:57:52.549855	142.9	22.4	-82.2	0.0
2025-01-15 11:57:54.798450	142.8	22.7	-82.0	0.0
2025-01-15 11:57:57.042395	142.6	23.1	-82.2	0.0
2025-01-15 11:57:59.287404	142.5	23.4	-82.1	0.0
2025-01-15 11:58:01.533533	142.3	23.7	-82.1	0.0
2025-01-15 11:58:03.781620	142.2	24.1	-82.4	0.0
2025-01-15 11:58:06.025325	142.0	24.4	-81.5	0.0
2025-01-15 11:58:08.270804	141.8	24.8	-81.8	0.0
2025-01-15 11:58:10.514288	141.7	25.1	-82.2	0.0
2025-01-15 11:58:12.759674	141.5	25.5	-82.3	0.0
2025-01-15 11:58:15.005263	141.3	25.8	-82.2	0.0
2025-01-15 11:58:17.252778	141.1	26.2	-82.1	0.0
2025-01-15 11:58:19.497174	141.0	26.6	-82.0	0.0
2025-01-15 11:58:21.744534	140.8	27.0	-82.1	0.0
2025-01-15 11:58:23.991266	140.6	27.3	-82.2	0.0
2025-01-15 11:58:26.238582	140.4	27.7	-81.9	0.0
2025-01-15 11:58:28.485584	140.2	28.1	-81.9	0.0
2025-01-15 11:58:30.729065	139.9	28.5	-82.0	0.0
2025-01-15 11:58:32.974356	139.7	28.9	-82.1	0.0
2025-01-15 11:58:35.218568	139.5	29.3	-82.0	0.0
2025-01-15 11:58:37.462600	139.3	29.7	-82.2	0.0
2025-01-15 11:58:39.708206	139.0	30.1	-82.2	0.0
2025-01-15 11:58:41.952783	138.8	30.6	-82.2	0.0
2025-01-15 11:58:44.195484	138.6	31.0	-81.9	0.0
2025-01-15 11:58:46.440223	138.3	31.4	-82.3	0.0
2025-01-15 11:58:48.687211	138.0	31.9	-82.2	0.0
2025-01-15 11:58:50.933224	137.8	32.3	-82.1	0.0
2025-01-15 11:58:53.177949	137.5	32.8	-82.3	0.0
2025-01-15 11:58:55.428426	137.2	33.2	-82.1	0.0
2025-01-15 11:58:57.675369	136.9	33.7	-82.4	0.0
2025-01-15 11:58:59.921041	136.6	34.2	-82.1	0.0
2025-01-15 11:59:02.168172	136.3	34.6	-82.1	0.0
2025-01-15 11:59:04.414442	136.0	35.1	-81.9	0.0
2025-01-15 11:59:06.665344	135.7	35.6	-82.0	0.0
2025-01-15 11:59:08.909266	135.3	36.1	-82.0	0.0
2025-01-15 11:59:11.156110	135.0	36.6	-82.0	0.0
2025-01-15 11:59:13.400645	134.6	37.1	-82.1	0.0
2025-01-15 11:59:15.646971	134.2	37.6	-81.7	0.0
2025-01-15 11:59:17.894405	133.8	38.2	-82.1	0.0
2025-01-15 11:59:20.140648	133.4	38.7	-82.2	0.0
2025-01-15 11:59:22.385447	133.0	39.2	-82.4	0.0
2025-01-15 11:59:24.630214	132.6	39.8	-82.2	0.0
2025-01-15 11:59:26.876204	132.2	40.3	-82.3	0.0
2025-01-15 11:59:29.124798	131.7	40.9	-81.7	0.0
2025-01-15 11:59:31.368358	131.2	41.4	-82.1	0.0
2025-01-15 11:59:33.614197	130.7	42.0	-82.6	0.0
2025-01-15 11:59:35.861775	130.2	42.6	-82.0	0.0
2025-01-15 11:59:38.109133	129.7	43.2	-82.5	0.0
2025-01-15 11:59:40.352992	129.2	43.7	-82.0	0.0
2025-01-15 11:59:42.597692	128.6	44.3	-82.3	0.0
2025-01-15 11:59:44.841492	128.0	44.9	-82.5	0.0
2025-01-15 11:59:47.089376	127.4	45.5	-82.0	0.0
2025-01-15 11:59:49.334652	126.7	46.2	-82.4	0.0
2025-01-15 11:59:51.581566	126.1	46.8	-82.3	0.0
2025-01-15 11:59:53.828089	125.4	47.4	-82.4	0.0
2025-01-15 11:59:56.073252	124.7	48.0	-82.4	0.0
2025-01-15 11:59:58.320984	123.9	48.7	-82.1	0.0
2025-01-15 12:00:00.567757	123.1	49.3	-82.1	0.0
2025-01-15 12:00:02.815557	122.3	49.9	-82.4	0.0
2025-01-15 12:00:05.062729	121.5	50.6	-82.5	0.0
2025-01-15 12:00:07.309022	120.6	51.2	-82.6	0.0
2025-01-15 12:00:09.557113	119.7	51.8	-82.6	0.0
2025-01-15 12:00:11.805102	118.7	52.5	-82.4	0.0
2025-01-15 12:00:14.052935	117.7	53.1	-82.3	0.0
2025-01-15 12:00:16.302494	116.6	53.8	-82.2	0.0
2025-01-15 12:00:18.547213	115.5	54.4	-82.4	0.0
2025-01-15 12:00:20.796730	114.4	55.0	-82.4	0.0
2025-01-15 12:00:23.041872	113.2	55.7	-82.1	0.0
2025-01-15 12:00:25.288529	111.9	56.3	-82.3	0.0
2025-01-15 12:00:27.533966	110.6	56.9	-82.3	0.0
2025-01-15 12:00:29.778890	109.2	57.5	-82.3	0.0
2025-01-15 12:00:32.027918	107.8	58.1	-82.5	0.0
2025-01-15 12:00:34.276726	106.3	58.7	-82.0	0.0
2025-01-15 12:00:36.524713	104.7	59.3	-82.6	0.0
2025-01-15 12:00:38.777394	103.0	59.8	-82.1	0.0
2025-01-15 12:00:41.023639	101.3	60.4	-82.2	0.0
2025-01-15 12:00:43.267482	99.5	60.9	-82.2	0.0
2025-01-15 12:00:45.511873	97.7	61.4	-82.5	0.0
2025-01-15 12:00:47.760411	95.7	61.9	-82.2	0.0
2025-01-15 12:00:50.004807	93.7	62.3	-82.3	0.0
2025-01-15 12:00:52.250673	91.6	62.7	-82.6	0.0
2025-01-15 12:00:54.494956	89.5	63.1	-82.2	0.0
2025-01-15 12:00:56.742071	87.2	63.5	-82.3	0.0
2025-01-15 12:00:58.983728	84.9	63.8	-82.6	0.0
2025-01-15 12:01:01.229064	82.6	64.1	-82.3	0.0
2025-01-15 12:01:03.473087	80.2	64.3	-82.4	0.0
2025-01-15 12:01:05.719361	77.7	64.5	-82.3	0.0
2025-01-15 12:01:07.962857	75.2	64.7	-82.4	0.0
2025-01-15 12:01:10.210152	72.7	64.8	-82.3	0.0
2025-01-15 12:01:12.455551	70.2	64.9	-82.5	0.0
2025-01-15 12:01:14.701032	67.6	64.9	-82.5	0.0
2025-01-15 12:01:16.946950	65.0	64.9	-82.3	0.0
2025-01-15 12:01:19.190645	62.5	64.8	-82.6	0.0
2025-01-15 12:01:21.435496	60.0	64.7	-82.2	0.0
2025-01-15 12:01:23.681327	57.5	64.6	-82.5	0.0
2025-01-15 12:01:25.926067	55.0	64.4	-82.3	0.0
2025-01-15 12:01:28.171324	52.6	64.2	-82.4	0.0
2025-01-15 12:01:30.416369	50.2	63.9	-82.2	0.0
2025-01-15 12:01:32.664027	47.9	63.6	-82.7	0.0
2025-01-15 12:01:34.909010	45.7	63.2	-82.8	0.0
2025-01-15 12:01:37.155399	43.5	62.9	-82.2	0.0
2025-01-15 12:01:39.400871	41.4	62.4	-82.3	0.0
2025-01-15 12:01:41.647145	39.4	62.0	-82.7	0.0
2025-01-15 12:01:43.892928	37.4	61.5	-82.6	0.0
2025-01-15 12:01:46.138400	35.5	61.0	-82.4	0.0
2025-01-15 12:01:48.383820	33.7	60.5	-82.7	0.0
2025-01-15 12:01:50.630649	32.0	60.0	-82.5	0.0
2025-01-15 12:01:52.876182	30.3	59.4	-82.1	0.0
2025-01-15 12:01:55.122471	28.7	58.9	-82.1	0.0
2025-01-15 12:01:57.368943	27.2	58.3	-82.5	0.0
2025-01-15 12:01:59.611519	25.7	57.7	-82.4	0.0
2025-01-15 12:02:01.857336	24.4	57.1	-82.3	0.0
2025-01-15 12:02:04.100649	23.0	56.5	-82.8	0.0
2025-01-15 12:02:06.345515	21.7	55.9	-82.6	0.0
2025-01-15 12:02:08.591539	20.5	55.2	-82.3	0.0
2025-01-15 12:02:10.836421	19.4	54.6	-82.4	0.0
2025-01-15 12:02:13.080422	18.2	54.0	-82.5	0.0
2025-01-15 12:02:15.327712	17.2	53.3	-82.4	0.0
2025-01-15 12:02:17.574308	16.2	52.7	-82.8	0.0
2025-01-15 12:02:19.821875	15.2	52.1	-82.6	0.0
2025-01-15 12:02:22.070724	14.3	51.4	-82.8	0.0
2025-01-15 12:02:24.316162	13.4	50.8	-82.9	0.0
2025-01-15 12:02:26.565053	12.5	50.1	-83.0	0.0
2025-01-15 12:02:28.812183	11.7	49.5	-82.4	0.0
2025-01-15 12:02:31.061602	10.9	48.9	-82.6	0.0
2025-01-15 12:02:33.308140	10.1	48.2	-82.8	0.0
2025-01-15 12:02:35.554902	9.4	47.6	-83.1	0.0
2025-01-15 12:02:37.800868	8.7	47.0	-82.9	0.0
2025-01-15 12:02:40.043706	8.0	46.4	-82.8	0.0
2025-01-15 12:02:42.291841	7.4	45.8	-82.4	0.0
2025-01-15 12:02:44.539500	6.8	45.2	-82.7	0.0
2025-01-15 12:02:46.787300	6.2	44.6	-81.8	0.0
2025-01-15 12:02:49.033739	5.6	44.0	-82.4	0.0
2025-01-15 12:02:51.278662	5.1	43.4	-82.6	0.0
2025-01-15 12:02:53.523721	4.5	42.8	-82.5	0.0
2025-01-15 12:02:55.771279	4.0	42.2	-82.4	0.0
2025-01-15 12:02:58.018414	3.5	41.7	-82.8	0.0
2025-01-15 12:03:00.264208	3.0	41.1	-82.6	0.0
2025-01-15 12:03:02.509857	2.6	40.5	-82.6	0.0
2025-01-15 12:03:04.756407	2.1	40.0	-82.5	0.0
2025-01-15 12:03:07.004194	1.7	39.4	-82.6	0.0
2025-01-15 12:03:09.247641	1.3	38.9	-82.9	0.0
2025-01-15 12:03:11.491754	0.9	38.4	-82.4	0.0
2025-01-15 12:03:13.737673	0.5	37.9	-82.5	0.0
2025-01-15 12:03:15.983706	0.1	37.3	-82.9	0.0
2025-01-15 12:03:18.232214	359.8	36.8	-82.7	0.0
2025-01-15 12:03:20.480580	359.4	36.3	-82.8	0.0
2025-01-15 12:03:22.725097	359.1	35.8	-82.8	0.0
2025-01-15 12:03:24.972147	358.7	35.3	-82.8	0.0
2025-01-15 12:03:27.222158	358.4	34.9	-82.7	0.0
2025-01-15 12:03:29.465863	358.1	34.4	-82.2	0.0
2025-01-15 12:03:31.711104	357.8	33.9	-82.9	0.0
2025-01-15 12:03:33.956674	357.5	33.4	-83.1	0.0
2025-01-15 12:03:36.200584	357.2	33.0	-82.8	0.0
2025-01-15 12:03:38.448108	356.9	32.5	-82.9	0.0
2025-01-15 12:03:40.696924	356.7	32.1	-82.8	0.0
2025-01-15 12:03:42.941401	356.4	31.6	-82.5	0.0
2025-01-15 12:03:45.185877	356.2	31.2	-82.5	0.0
2025-01-15 12:03:47.432139	355.9	30.8	-82.8	0.0
2025-01-15 12:03:49.678981	355.7	30.4	-82.9	0.0
2025-01-15 12:03:51.921058	355.4	29.9	-82.9	0.0
2025-01-15 12:03:54.167525	355.2	29.5	-82.8	0.0
2025-01-15 12:03:56.411360	355.0	29.1	-82.7	0.0
2025-01-15 12:03:58.656241	354.8	28.7	-82.8	0.0
2025-01-15 12:04:00.898001	354.6	28.3	-82.6	0.0
2025-01-15 12:04:03.141388	354.3	27.9	-82.4	0.0
2025-01-15 12:04:05.388211	354.1	27.6	-82.2	0.0
2025-01-15 12:04:07.634571	354.0	27.2	-82.1	0.0
2025-01-15 12:04:09.881971	353.8	26.8	-82.7	0.0
2025-01-15 12:04:12.128835	353.6	26.4	-82.8	0.0
2025-01-15 12:04:14.372891	353.4	26.1	-82.7	0.0
2025-01-15 12:04:16.616563	353.2	25.7	-83.0	0.0
2025-01-15 12:04:18.863038	353.0	25.4	-82.9	0.0
2025-01-15 12:04:21.109030	352.9	25.0	-82.8	0.0
2025-01-15 12:04:23.356275	352.7	24.7	-82.4	0.0
2025-01-15 12:04:25.601112	352.5	24.3	-82.7	0.0
2025-01-15 12:04:27.843528	352.4	24.0	-82.8	0.0
2025-01-15 12:04:30.090843	352.2	23.6	-82.5	0.0
2025-01-15 12:04:32.336722	352.1	23.3	-82.7	0.0
2025-01-15 12:04:34.581931	351.9	23.0	-82.9	0.0
2025-01-15 12:04:36.831769	351.8	22.7	-82.8	0.0
2025-01-15 12:04:39.077975	351.6	22.3	-82.8	0.0
2025-01-15 12:04:41.322290	351.5	22.0	-82.8	0.0
2025-01-15 12:04:43.568002	351.4	21.7	-82.7	0.0
2025-01-15 12:04:45.811560	351.2	21.4	-82.8	0.0
2025-01-15 12:04:48.060216	351.1	21.1	-82.9	0.0
2025-01-15 12:04:50.309738	351.0	20.8	-82.9	0.0
2025-01-15 12:04:52.553534	350.9	20.5	-82.6	0.0
2025-01-15 12:04:54.798957	350.7	20.2	-82.9	0.0
2025-01-15 12:04:57.044404	350.6	19.9	-82.4	0.0
2025-01-15 12:04:59.290849	350.5	19.6	-82.1	0.0
2025-01-15 12:05:01.535585	350.4	19.3	-82.5	0.0
2025-01-15 12:05:03.780943	350.3	19.1	-82.6	0.0
2025-01-15 12:05:06.026705	350.2	18.8	-82.6	0.0
2025-01-15 12:05:08.274121	350.1	18.5	-82.5	0.0
2025-01-15 12:05:10.519902	349.9	18.2	-82.6	0.0
2025-01-15 12:05:12.768771	349.8	18.0	-82.6	0.0
2025-01-15 12:05:15.015406	349.7	17.7	-82.6	0.0
2025-01-15 12:05:17.261277	349.6	17.4	-82.4	0.0
2025-01-15 12:05:19.505367	349.5	17.2	-82.7	0.0
2025-01-15 12:05:21.752876	349.4	16.9	-82.6	0.0
2025-01-15 12:05:23.996704	349.4	16.7	-82.7	0.0
2025-01-15 12:05:26.242407	349.3	16.4	-82.9	0.0
2025-01-15 12:05:28.488018	349.2	16.2	-82.7	0.0
2025-01-15 12:05:30.734342	349.1	15.9	-82.5	0.0
2025-01-15 12:05:32.978797	349.0	15.7	-82.7	0.0
2025-01-15 12:05:35.222821	348.9	15.4	-82.3	0.0
2025-01-15 12:05:37.469750	348.8	15.2	-82.6	0.0
2025-01-15 12:05:39.717670	348.7	14.9	-82.5	0.0
2025-01-15 12:05:41.967126	348.7	14.7	-82.6	0.0
2025-01-15 12:05:44.214497	348.6	14.5	-82.6	0.0
2025-01-15 12:05:46.460561	348.5	14.2	-82.4	0.0
2025-01-15 12:05:48.705963	348.4	14.0	-82.4	0.0
2025-01-15 12:05:50.950438	348.3	13.8	-83.0	0.0
2025-01-15 12:05:53.196382	348.3	13.6	-82.9	0.0
2025-01-15 12:05:55.443415	348.2	13.3	-82.8	0.0
2025-01-15 12:05:57.688744	348.1	13.1	-83.1	0.0
2025-01-15 12:05:59.933481	348.0	12.9	-82.8	0.0
2025-01-15 12:06:02.177399	348.0	12.7	-82.9	0.0
2025-01-15 12:06:04.423241	347.9	12.5	-82.9	0.0
2025-01-15 12:06:06.668766	347.8	12.3	-82.3	0.0
2025-01-15 12:06:08.916280	347.8	12.0	-82.6	0.0
2025-01-15 12:06:11.163395	347.7	11.8	-82.6	0.0
2025-01-15 12:06:13.412326	347.6	11.6	-82.4	0.0
2025-01-15 12:06:15.656277	347.6	11.4	-82.4	0.0
2025-01-15 12:06:17.900922	347.5	11.2	-82.6	0.0
2025-01-15 12:06:20.146034	347.5	11.0	-83.0	0.0
2025-01-15 12:06:22.393880	347.4	10.8	-82.9	0.0
2025-01-15 12:06:24.639813	347.3	10.6	-82.5	0.0
2025-01-15 12:06:26.885497	347.3	10.4	-82.7	0.0
2025-01-15 12:06:29.132562	347.2	10.2	-82.5	0.0
#Closed at: 2025-01-15 11:55:55.337881