passes_logs/2026/01/06/PlanumMoscow/PlanumMoscow__20260106_171425_METOP-B_rec.log

#Pass ID: 20260106_171425_METOP-B
#Satellite: METOP-B
#Configuration: METOP-B
#Start time: 2026-01-06 17:14:30.758675

#LorettStation: 1.0.0 05.05.2024
#Station: PlanumMoscow
#Location: 37.6253844 lon 55.6713361 lat
#TLE: 1 38771U 12049A   25293.92766658  .00000266  00000+0  14193-3 0  9996
#TLE: 2 38771  98.6882 344.7603 0001609 341.5209  18.5909 14.21379342679275

#Time	Az	El	Level	SNR
2026-01-06 17:18:09.219148	145.2	29.4	-63.0	10.1
2026-01-06 17:18:11.462195	145.0	29.8	-64.0	9.4
2026-01-06 17:18:13.705213	144.9	30.2	-63.9	9.5
2026-01-06 17:18:15.948727	144.7	30.7	-64.0	9.8
2026-01-06 17:18:18.193241	144.5	31.1	-63.8	10.0
2026-01-06 17:18:20.426753	144.3	31.6	-64.3	10.3
2026-01-06 17:18:22.660760	144.1	32.0	-63.8	9.2
2026-01-06 17:18:24.892271	143.9	32.4	-63.7	9.4
2026-01-06 17:18:27.127278	143.7	32.9	-63.8	10.0
2026-01-06 17:18:29.362781	143.5	33.4	-63.0	8.2
2026-01-06 17:18:31.594284	143.3	33.8	-64.4	11.3
2026-01-06 17:18:33.828796	143.0	34.3	-64.2	10.5
2026-01-06 17:18:36.063308	142.8	34.8	-63.7	9.5
2026-01-06 17:18:38.296315	142.6	35.3	-64.0	11.1
2026-01-06 17:18:40.530323	142.3	35.8	-63.8	10.7
2026-01-06 17:18:42.761330	142.1	36.3	-63.6	11.0
2026-01-06 17:18:44.995841	141.8	36.8	-63.3	11.1
2026-01-06 17:18:47.230345	141.5	37.3	-63.0	10.3
2026-01-06 17:18:49.462855	141.2	37.9	-63.2	10.2
2026-01-06 17:18:51.693870	141.0	38.4	-63.3	10.4
2026-01-06 17:18:53.928382	140.7	39.0	-63.3	11.4
2026-01-06 17:18:56.161901	140.3	39.5	-63.4	9.2
2026-01-06 17:18:58.398928	140.0	40.1	-63.9	10.5
2026-01-06 17:19:00.633431	139.7	40.6	-64.3	11.3
2026-01-06 17:19:02.866941	139.3	41.2	-64.2	11.3
2026-01-06 17:19:05.099453	139.0	41.8	-64.3	11.4
2026-01-06 17:19:07.335976	138.6	42.4	-63.9	11.2
2026-01-06 17:19:09.569984	138.2	43.0	-63.9	11.0
2026-01-06 17:19:11.804992	137.8	43.6	-63.8	10.7
2026-01-06 17:19:14.038999	137.4	44.2	-64.3	12.0
2026-01-06 17:19:16.271502	137.0	44.8	-64.0	11.6
2026-01-06 17:19:18.506518	136.5	45.5	-63.9	11.6
2026-01-06 17:19:20.745534	136.0	46.1	-64.1	11.9
2026-01-06 17:19:22.989048	135.5	46.8	-64.2	11.5
2026-01-06 17:19:25.232066	135.0	47.4	-63.8	11.6
2026-01-06 17:19:27.476076	134.5	48.1	-64.0	12.1
2026-01-06 17:19:29.719094	133.9	48.8	-64.3	11.7
2026-01-06 17:19:31.962608	133.3	49.4	-64.3	11.4
2026-01-06 17:19:34.207129	132.7	50.1	-64.1	11.1
2026-01-06 17:19:36.446642	132.1	50.8	-63.9	10.6
2026-01-06 17:19:38.681649	131.4	51.5	-64.1	10.1
2026-01-06 17:19:40.917162	130.7	52.2	-63.8	10.3
2026-01-06 17:19:43.153666	130.0	52.9	-63.7	9.4
2026-01-06 17:19:45.386672	129.2	53.7	-64.1	10.4
2026-01-06 17:19:47.621183	128.4	54.4	-64.0	11.0
2026-01-06 17:19:49.855703	127.5	55.1	-63.9	10.7
2026-01-06 17:19:52.089214	126.6	55.8	-63.9	11.3
2026-01-06 17:19:54.320724	125.6	56.6	-64.3	11.0
2026-01-06 17:19:56.555236	124.6	57.3	-64.5	11.3
2026-01-06 17:19:58.789251	123.6	58.0	-64.0	10.2
2026-01-06 17:20:01.026772	122.4	58.8	-64.2	10.7
2026-01-06 17:20:03.259283	121.3	59.5	-64.5	10.0
2026-01-06 17:20:05.491786	120.0	60.2	-64.7	10.8
2026-01-06 17:20:07.727306	118.7	60.9	-64.5	9.7
2026-01-06 17:20:09.961809	117.3	61.6	-64.6	10.5
2026-01-06 17:20:12.196329	115.8	62.4	-64.6	10.0
2026-01-06 17:20:14.432833	114.2	63.0	-64.4	9.6
2026-01-06 17:20:16.667346	112.5	63.7	-64.5	10.1
2026-01-06 17:20:18.901866	110.8	64.4	-64.2	9.8
2026-01-06 17:20:21.140378	108.9	65.0	-64.3	9.9
2026-01-06 17:20:23.376394	106.9	65.7	-64.9	10.3
2026-01-06 17:20:25.609897	104.8	66.3	-64.2	8.7
2026-01-06 17:20:27.847417	102.6	66.9	-65.0	9.7
2026-01-06 17:20:30.086936	100.2	67.4	-64.4	8.1
2026-01-06 17:20:32.322440	97.8	67.9	-64.6	10.5
2026-01-06 17:20:34.554943	95.2	68.4	-64.9	10.9
2026-01-06 17:20:36.790959	92.4	68.8	-64.5	9.7
2026-01-06 17:20:39.035970	89.6	69.2	-64.4	9.3
2026-01-06 17:20:41.278491	86.6	69.6	-64.9	8.7
2026-01-06 17:20:43.520996	83.6	69.9	-64.6	8.8
2026-01-06 17:20:45.765006	80.4	70.1	-64.8	8.5
2026-01-06 17:20:48.008529	77.2	70.3	-65.1	9.4
2026-01-06 17:20:50.252538	73.9	70.4	-64.5	8.4
2026-01-06 17:20:52.496548	70.6	70.5	-64.5	7.3
2026-01-06 17:20:54.738062	67.3	70.5	-65.5	8.1
2026-01-06 17:20:56.972574	64.0	70.5	-65.6	8.3
2026-01-06 17:20:59.206581	60.7	70.3	-65.3	7.0
2026-01-06 17:21:01.440093	57.5	70.2	-65.5	6.8
2026-01-06 17:21:03.672099	54.4	69.9	-65.7	8.1
2026-01-06 17:21:05.906603	51.3	69.6	-65.8	8.5
2026-01-06 17:21:08.139114	48.4	69.3	-65.2	6.9
2026-01-06 17:21:10.371121	45.5	68.9	-65.9	7.8
2026-01-06 17:21:12.606145	42.8	68.5	-65.9	7.9
2026-01-06 17:21:14.839657	40.2	68.0	-66.2	8.0
2026-01-06 17:21:17.073664	37.7	67.5	-65.2	7.0
2026-01-06 17:21:19.307186	35.4	66.9	-65.4	8.4
2026-01-06 17:21:21.539689	33.1	66.4	-65.2	6.2
2026-01-06 17:21:23.774201	31.0	65.8	-65.2	8.4
2026-01-06 17:21:26.009208	29.0	65.1	-65.3	9.0
2026-01-06 17:21:28.241720	27.1	64.5	-64.5	6.2
2026-01-06 17:21:30.474727	25.3	63.8	-65.3	8.2
2026-01-06 17:21:32.706742	23.7	63.2	-64.2	5.9
2026-01-06 17:21:34.941245	22.1	62.5	-64.8	8.0
2026-01-06 17:21:37.172260	20.6	61.8	-64.6	6.5
2026-01-06 17:21:39.404763	19.2	61.1	-64.2	7.4
2026-01-06 17:21:41.641779	17.8	60.3	-63.5	4.8
2026-01-06 17:21:43.876796	16.6	59.6	-64.5	8.2
2026-01-06 17:21:46.108811	15.4	58.9	-64.3	6.0
2026-01-06 17:21:48.341818	14.2	58.2	-63.9	6.2
2026-01-06 17:21:50.572320	13.2	57.4	-64.2	8.5
2026-01-06 17:21:52.804327	12.2	56.7	-63.5	6.0
2026-01-06 17:21:55.046336	11.2	56.0	-63.2	7.0
2026-01-06 17:21:57.290345	10.3	55.2	-63.7	7.4
2026-01-06 17:21:59.532910	9.4	54.5	-62.9	5.5
2026-01-06 17:22:01.776920	8.6	53.8	-63.1	5.1
2026-01-06 17:22:04.022930	7.8	53.1	-63.4	6.6
2026-01-06 17:22:06.267940	7.1	52.4	-62.8	7.7
2026-01-06 17:22:08.510959	6.3	51.7	-62.0	6.5
2026-01-06 17:22:10.750472	5.7	51.0	-61.5	5.9
2026-01-06 17:22:12.984480	5.0	50.3	-62.5	6.9
2026-01-06 17:22:15.218506	4.4	49.6	-62.9	8.0
2026-01-06 17:22:17.454025	3.8	48.9	-62.5	6.1
2026-01-06 17:22:19.690033	3.3	48.2	-62.8	6.6
2026-01-06 17:22:21.929546	2.7	47.6	-62.7	8.6
2026-01-06 17:22:24.165049	2.2	46.9	-63.4	9.3
2026-01-06 17:22:26.396552	1.7	46.3	-63.1	8.2
2026-01-06 17:22:28.631568	1.2	45.6	-61.7	5.9
2026-01-06 17:22:30.866584	0.8	45.0	-62.1	7.4
2026-01-06 17:22:33.102097	0.3	44.4	-62.9	7.4
2026-01-06 17:22:35.334599	359.9	43.8	-63.5	8.4
2026-01-06 17:22:37.567102	359.5	43.2	-62.0	6.8
2026-01-06 17:22:39.803120	359.1	42.6	-62.6	7.6
2026-01-06 17:22:42.036623	358.8	42.0	-63.3	8.3
2026-01-06 17:22:44.269133	358.4	41.4	-63.0	7.7
2026-01-06 17:22:46.503140	358.0	40.8	-63.8	8.7
2026-01-06 17:22:48.734643	357.7	40.2	-63.1	7.9
2026-01-06 17:22:50.970650	357.4	39.7	-62.4	6.9
2026-01-06 17:22:53.203161	357.1	39.1	-63.2	8.3
2026-01-06 17:22:55.438177	356.8	38.6	-63.0	8.7
2026-01-06 17:22:57.671192	356.5	38.0	-63.3	8.7
2026-01-06 17:22:59.904704	356.2	37.5	-63.2	8.4
2026-01-06 17:23:02.143217	355.9	37.0	-62.7	8.7
2026-01-06 17:23:04.378729	355.7	36.5	-62.6	7.7
2026-01-06 17:23:06.612745	355.4	36.0	-62.6	7.5
2026-01-06 17:23:08.850754	355.2	35.5	-62.9	7.7
2026-01-06 17:23:11.094763	354.9	35.0	-63.2	8.4
2026-01-06 17:23:13.338277	354.7	34.5	-62.1	6.3
2026-01-06 17:23:15.582286	354.5	34.0	-63.3	7.7
2026-01-06 17:23:17.826800	354.2	33.5	-63.7	9.4
2026-01-06 17:23:20.068825	354.0	33.1	-63.3	8.9
2026-01-06 17:23:22.310840	353.8	32.6	-62.9	6.2
2026-01-06 17:23:24.541847	353.6	32.2	-63.2	8.4
2026-01-06 17:23:26.779358	353.4	31.7	-63.0	9.0
2026-01-06 17:23:29.012366	353.2	31.3	-63.2	8.0
2026-01-06 17:23:31.253375	353.0	30.8	-62.9	6.8
2026-01-06 17:23:33.496889	352.9	30.4	-63.5	6.3
2026-01-06 17:23:35.731400	352.7	30.0	-63.2	7.8
2026-01-06 17:23:37.963407	352.5	29.6	-63.2	8.4
2026-01-06 17:23:40.196421	352.4	29.2	-63.2	7.0
2026-01-06 17:23:42.428427	352.2	28.8	-63.3	9.1
2026-01-06 17:23:44.662938	352.0	28.4	-62.8	5.6
2026-01-06 17:23:46.898946	351.9	28.0	-63.1	7.2
2026-01-06 17:23:49.133961	351.7	27.6	-63.4	6.7
2026-01-06 17:23:51.367464	351.6	27.2	-63.9	7.0
2026-01-06 17:23:53.602480	351.5	26.8	-63.8	7.5
2026-01-06 17:23:55.839488	351.3	26.5	-63.8	7.1
2026-01-06 17:23:58.074503	351.2	26.1	-63.1	6.6
2026-01-06 17:24:00.308022	351.1	25.7	-63.8	7.6
2026-01-06 17:24:02.541029	350.9	25.4	-64.1	5.0
2026-01-06 17:24:04.775037	350.8	25.0	-63.2	4.6
2026-01-06 17:24:07.010053	350.7	24.7	-64.1	4.8
2026-01-06 17:24:09.242564	350.6	24.3	-64.4	6.9
2026-01-06 17:24:11.472075	350.4	24.0	-64.3	7.1
2026-01-06 17:24:13.705089	350.3	23.7	-64.4	6.0
2026-01-06 17:24:15.938105	350.2	23.3	-64.1	6.2
2026-01-06 17:24:18.173121	350.1	23.0	-64.3	6.8
2026-01-06 17:24:20.407129	350.0	22.7	-64.4	5.7
2026-01-06 17:24:22.639632	349.9	22.4	-64.2	5.4
2026-01-06 17:24:24.872639	349.8	22.0	-64.4	5.6
2026-01-06 17:24:27.109150	349.7	21.7	-65.0	6.2
2026-01-06 17:24:29.342669	349.6	21.4	-64.3	5.7
2026-01-06 17:24:31.574685	349.5	21.1	-64.4	7.1
2026-01-06 17:24:33.809693	349.4	20.8	-63.2	2.9
2026-01-06 17:24:36.051213	349.3	20.5	-63.9	5.4
2026-01-06 17:24:38.295223	349.2	20.2	-64.0	4.9
2026-01-06 17:24:40.538240	349.1	19.9	-63.8	4.1
2026-01-06 17:24:42.782249	349.1	19.7	-64.2	5.4
2026-01-06 17:24:45.026259	349.0	19.4	-64.0	2.6
2026-01-06 17:24:47.266276	348.9	19.1	-64.0	2.7
2026-01-06 17:24:49.508781	348.8	18.8	-64.1	3.1
2026-01-06 17:24:51.756792	348.7	18.5	-62.4	1.5
2026-01-06 17:24:53.990799	348.7	18.3	-63.3	4.0
2026-01-06 17:24:56.223310	348.6	18.0	-64.5	6.1
2026-01-06 17:24:58.455813	348.5	17.7	-64.0	3.6
2026-01-06 17:25:00.690331	348.4	17.5	-63.4	1.8
2026-01-06 17:25:02.922834	348.4	17.2	-64.7	4.5
2026-01-06 17:25:05.157842	348.3	16.9	-64.2	3.8
2026-01-06 17:25:07.388344	348.2	16.7	-64.4	4.3
2026-01-06 17:25:09.619846	348.1	16.4	-64.2	5.1
2026-01-06 17:25:11.853854	348.1	16.2	-63.9	3.0
2026-01-06 17:25:14.086373	348.0	15.9	-63.5	2.4
2026-01-06 17:25:16.319885	348.0	15.7	-63.9	3.1
2026-01-06 17:25:18.552890	347.9	15.5	-63.6	0.0
2026-01-06 17:25:20.784907	347.8	15.2	-63.0	0.2
2026-01-06 17:25:23.019419	347.8	15.0	-64.2	3.4
2026-01-06 17:25:25.252930	347.7	14.7	-64.3	0.7
2026-01-06 17:25:27.484937	347.7	14.5	-64.5	4.5
2026-01-06 17:25:29.719951	347.6	14.3	-63.9	1.1
2026-01-06 17:25:31.951958	347.5	14.1	-64.9	1.0
2026-01-06 17:25:34.186965	347.5	13.8	-63.5	0.0
2026-01-06 17:25:36.421973	347.4	13.6	-64.5	0.5
2026-01-06 17:25:38.656485	347.4	13.4	-64.4	0.0
2026-01-06 17:25:40.888996	347.3	13.2	-64.0	0.7
2026-01-06 17:25:43.124515	347.3	12.9	-62.2	0.0
2026-01-06 17:25:45.355522	347.2	12.7	-64.7	3.2
2026-01-06 17:25:47.587033	347.2	12.5	-63.4	0.0
2026-01-06 17:25:49.821536	347.1	12.3	-64.0	0.7
2026-01-06 17:25:52.056048	347.1	12.1	-64.3	1.8
2026-01-06 17:25:54.293071	347.0	11.9	-64.7	4.3
2026-01-06 17:25:56.526574	347.0	11.7	-64.3	1.8
2026-01-06 17:25:58.766591	346.9	11.5	-64.5	3.4
2026-01-06 17:26:01.010610	346.9	11.3	-64.4	2.3
2026-01-06 17:26:03.254619	346.8	11.1	-63.3	0.0
2026-01-06 17:26:05.496124	346.8	10.9	-64.2	0.9
2026-01-06 17:26:07.730636	346.8	10.7	-64.7	0.2
2026-01-06 17:26:09.964147	346.7	10.5	-64.6	0.0
2026-01-06 17:26:12.209164	346.7	10.3	-63.6	0.0
2026-01-06 17:26:14.453173	346.6	10.1	-64.0	0.0
2026-01-06 17:26:16.697183	346.6	9.9	-64.7	2.4
2026-01-06 17:26:18.932229	346.6	9.7	-64.1	0.0
2026-01-06 17:26:21.166243	346.5	9.5	-64.6	0.1
2026-01-06 17:26:23.396249	346.5	9.3	-64.9	0.0
2026-01-06 17:26:25.629761	346.4	9.1	-65.4	0.0
2026-01-06 17:26:27.868769	346.4	8.9	-63.8	0.0
2026-01-06 17:26:30.101280	346.4	8.7	-64.1	0.0
2026-01-06 17:26:32.334287	346.3	8.6	-64.7	0.0
2026-01-06 17:26:34.564797	346.3	8.4	-65.1	0.0
2026-01-06 17:26:36.797309	346.3	8.2	-65.2	0.0
2026-01-06 17:26:39.029828	346.2	8.0	-63.4	0.0
2026-01-06 17:26:41.258834	346.2	7.8	-63.9	0.0
2026-01-06 17:26:43.489840	346.2	7.7	-64.5	0.0
2026-01-06 17:26:45.722848	346.1	7.5	-63.5	0.0
2026-01-06 17:26:47.958856	346.1	7.3	-65.1	0.0
2026-01-06 17:26:50.194376	346.1	7.2	-63.8	0.0
2026-01-06 17:26:52.425392	346.0	7.0	-64.5	0.0
2026-01-06 17:26:54.656902	346.0	6.8	-64.2	0.0
2026-01-06 17:26:56.890910	346.0	6.6	-64.1	0.0
2026-01-06 17:26:59.124934	345.9	6.5	-64.3	0.0
2026-01-06 17:27:01.357445	345.9	6.3	-63.7	0.0
2026-01-06 17:27:03.593957	345.9	6.1	-64.7	0.0
2026-01-06 17:27:05.826467	345.9	6.0	-67.1	0.0
2026-01-06 17:27:08.059482	345.8	5.8	-68.5	0.0
2026-01-06 17:27:10.290001	345.8	5.6	-68.7	0.0
2026-01-06 17:27:12.527009	345.8	5.5	-69.5	0.0
2026-01-06 17:27:14.757520	345.7	5.3	-70.6	0.0
2026-01-06 17:27:16.990535	345.7	5.2	-72.0	0.0
2026-01-06 17:27:19.233545	345.7	5.0	-72.4	0.0
#Closed at: 2026-01-06 17:14:25.759788