passes_logs/2026/01/06/PlanumMoscow/PlanumMoscow__20260106_112017_METEOR-M2_4_rec.log

#Pass ID: 20260106_112017_METEOR-M2 4
#Satellite: METEOR-M2 4
#Configuration: METEOR-M2 4
#Start time: 2026-01-06 11:20:22.664000

#LorettStation: 1.0.0 05.05.2024
#Station: PlanumMoscow
#Location: 37.6253844 lon 55.6713361 lat
#TLE: 1 59051U 24039A   25293.94737965  .00000087  00000+0  58459-4 0  9998
#TLE: 2 59051  98.6671 251.7071 0007726 135.4772 224.7028 14.22388966 85257

#Time	Az	El	Level	SNR
2026-01-06 11:24:01.104249	162.9	29.8	-64.3	13.8
2026-01-06 11:24:03.337266	163.0	30.3	-64.9	13.9
2026-01-06 11:24:05.573274	163.0	30.7	-65.3	14.4
2026-01-06 11:24:07.808282	163.0	31.2	-65.3	14.9
2026-01-06 11:24:10.049290	163.0	31.6	-65.5	15.2
2026-01-06 11:24:12.288803	163.0	32.1	-65.3	14.7
2026-01-06 11:24:14.529315	163.1	32.5	-65.0	14.2
2026-01-06 11:24:16.768324	163.1	33.0	-65.6	14.3
2026-01-06 11:24:19.008332	163.1	33.5	-65.6	14.2
2026-01-06 11:24:21.250349	163.1	34.0	-65.2	14.8
2026-01-06 11:24:23.490376	163.2	34.5	-65.7	14.3
2026-01-06 11:24:25.731881	163.2	35.0	-65.3	13.8
2026-01-06 11:24:27.973907	163.2	35.5	-65.9	14.8
2026-01-06 11:24:30.214916	163.2	36.0	-65.8	14.9
2026-01-06 11:24:32.456429	163.3	36.6	-66.0	14.7
2026-01-06 11:24:34.696446	163.3	37.1	-65.9	14.3
2026-01-06 11:24:36.939959	163.3	37.7	-66.3	15.1
2026-01-06 11:24:39.175968	163.3	38.2	-66.4	15.1
2026-01-06 11:24:41.414993	163.4	38.8	-66.3	13.8
2026-01-06 11:24:43.651514	163.4	39.4	-66.2	13.8
2026-01-06 11:24:45.891531	163.4	40.0	-66.1	14.0
2026-01-06 11:24:48.129044	163.5	40.5	-66.1	13.2
2026-01-06 11:24:50.369548	163.5	41.2	-66.5	13.6
2026-01-06 11:24:52.613558	163.5	41.8	-66.4	13.7
2026-01-06 11:24:54.857071	163.5	42.4	-66.9	14.2
2026-01-06 11:24:57.094584	163.6	43.0	-66.7	13.8
2026-01-06 11:24:59.337603	163.6	43.7	-66.9	14.9
2026-01-06 11:25:01.581621	163.7	44.4	-66.6	14.0
2026-01-06 11:25:03.826639	163.7	45.0	-67.2	14.6
2026-01-06 11:25:06.069656	163.7	45.7	-66.9	14.7
2026-01-06 11:25:08.313171	163.8	46.4	-67.0	14.2
2026-01-06 11:25:10.557693	163.8	47.1	-66.6	13.6
2026-01-06 11:25:12.800711	163.9	47.9	-67.2	15.2
2026-01-06 11:25:15.038232	163.9	48.6	-67.0	14.7
2026-01-06 11:25:17.273271	163.9	49.3	-67.6	15.0
2026-01-06 11:25:19.510784	164.0	50.1	-67.5	14.0
2026-01-06 11:25:21.748830	164.0	50.9	-67.5	14.2
2026-01-06 11:25:23.984350	164.1	51.6	-67.5	13.5
2026-01-06 11:25:26.221358	164.2	52.4	-68.0	13.2
2026-01-06 11:25:28.461376	164.2	53.2	-68.4	12.7
2026-01-06 11:25:30.701384	164.3	54.1	-68.6	12.6
2026-01-06 11:25:32.941393	164.3	54.9	-68.7	11.8
2026-01-06 11:25:35.179897	164.4	55.8	-68.9	10.9
2026-01-06 11:25:37.420907	164.5	56.6	-68.9	10.8
2026-01-06 11:25:39.663916	164.6	57.5	-68.9	10.7
2026-01-06 11:25:41.904924	164.6	58.4	-69.4	12.1
2026-01-06 11:25:44.146934	164.7	59.3	-68.8	11.4
2026-01-06 11:25:46.383437	164.8	60.2	-68.8	11.3
2026-01-06 11:25:48.623454	164.9	61.1	-69.0	11.9
2026-01-06 11:25:50.865463	165.0	62.1	-68.8	11.9
2026-01-06 11:25:53.104472	165.1	63.0	-68.8	12.5
2026-01-06 11:25:55.343984	165.3	64.0	-69.0	12.5
2026-01-06 11:25:57.585498	165.4	65.0	-69.0	12.0
2026-01-06 11:25:59.826507	165.5	66.0	-68.8	12.4
2026-01-06 11:26:02.068044	165.7	67.0	-68.5	13.4
2026-01-06 11:26:04.305548	165.9	68.0	-68.5	13.0
2026-01-06 11:26:06.546053	166.1	69.1	-68.6	13.5
2026-01-06 11:26:08.791575	166.3	70.1	-68.5	13.9
2026-01-06 11:26:11.031593	166.5	71.2	-68.1	13.9
2026-01-06 11:26:13.271114	166.8	72.2	-67.9	13.8
2026-01-06 11:26:15.510635	167.1	73.3	-68.2	13.3
2026-01-06 11:26:17.753653	167.4	74.4	-68.1	13.4
2026-01-06 11:26:19.992167	167.8	75.5	-68.0	12.9
2026-01-06 11:26:22.232671	168.2	76.6	-68.1	12.9
2026-01-06 11:26:24.476185	168.8	77.7	-68.6	12.0
2026-01-06 11:26:26.717708	169.4	78.8	-68.7	12.6
2026-01-06 11:26:28.959717	170.2	79.9	-68.7	13.0
2026-01-06 11:26:31.201735	171.2	81.1	-68.6	13.4
2026-01-06 11:26:33.445249	172.5	82.2	-68.0	14.4
2026-01-06 11:26:35.688762	174.2	83.3	-67.8	14.5
2026-01-06 11:26:37.931285	176.7	84.4	-67.7	14.0
2026-01-06 11:26:40.172294	180.3	85.5	-67.6	14.7
2026-01-06 11:26:42.420304	186.4	86.6	-67.7	14.2
2026-01-06 11:26:44.662330	197.9	87.7	-67.5	13.2
2026-01-06 11:26:46.905340	223.6	88.4	-67.7	14.0
2026-01-06 11:26:49.140348	269.3	88.6	-67.6	14.4
2026-01-06 11:26:51.379861	301.7	87.9	-67.5	14.0
2026-01-06 11:26:53.617365	316.2	87.0	-67.3	14.7
2026-01-06 11:26:55.856878	323.4	85.9	-67.2	14.2
2026-01-06 11:26:58.095886	327.6	84.8	-67.7	14.1
2026-01-06 11:27:00.335895	330.3	83.7	-67.2	13.4
2026-01-06 11:27:02.578904	332.2	82.5	-67.0	13.4
2026-01-06 11:27:04.818409	333.6	81.4	-68.0	13.2
2026-01-06 11:27:07.056921	334.7	80.3	-68.0	13.2
2026-01-06 11:27:09.295940	335.6	79.2	-67.7	12.8
2026-01-06 11:27:11.537957	336.3	78.0	-68.0	12.4
2026-01-06 11:27:13.778974	336.8	76.9	-67.0	11.4
2026-01-06 11:27:16.019487	337.3	75.8	-66.8	12.5
2026-01-06 11:27:18.260992	337.7	74.7	-67.4	12.6
2026-01-06 11:27:20.500513	338.1	73.7	-66.4	11.4
2026-01-06 11:27:22.741532	338.4	72.6	-67.2	11.7
2026-01-06 11:27:24.984541	338.7	71.5	-67.8	11.8
2026-01-06 11:27:27.223053	338.9	70.5	-67.8	10.1
2026-01-06 11:27:29.465558	339.1	69.4	-67.5	10.1
2026-01-06 11:27:31.710568	339.3	68.4	-66.9	7.8
2026-01-06 11:27:33.950081	339.5	67.4	-67.6	9.8
2026-01-06 11:27:36.189595	339.7	66.3	-68.0	9.2
2026-01-06 11:27:38.427107	339.8	65.4	-67.8	9.7
2026-01-06 11:27:40.661123	339.9	64.4	-67.2	9.4
2026-01-06 11:27:42.903637	340.1	63.4	-67.1	9.1
2026-01-06 11:27:45.142654	340.2	62.4	-67.3	9.7
2026-01-06 11:27:47.382672	340.3	61.5	-67.2	10.2
2026-01-06 11:27:49.627690	340.4	60.6	-67.8	9.5
2026-01-06 11:27:51.871709	340.5	59.6	-67.1	7.8
2026-01-06 11:27:54.115719	340.6	58.7	-67.6	8.4
2026-01-06 11:27:56.362738	340.7	57.8	-67.3	8.1
2026-01-06 11:27:58.605747	340.7	57.0	-67.5	8.5
2026-01-06 11:28:00.848766	340.8	56.1	-67.4	9.6
2026-01-06 11:28:03.093776	340.9	55.2	-67.9	9.7
2026-01-06 11:28:05.337289	340.9	54.4	-68.0	9.7
2026-01-06 11:28:07.575298	341.0	53.6	-67.4	10.0
2026-01-06 11:28:09.809305	341.1	52.8	-67.1	7.8
2026-01-06 11:28:12.045818	341.1	52.0	-67.9	8.5
2026-01-06 11:28:14.284834	341.2	51.2	-67.5	7.8
2026-01-06 11:28:16.521338	341.2	50.4	-67.9	8.8
2026-01-06 11:28:18.758842	341.3	49.7	-67.6	8.4
2026-01-06 11:28:20.997850	341.3	48.9	-67.5	9.4
2026-01-06 11:28:23.223557	341.4	48.2	-67.4	9.2
2026-01-06 11:28:25.459069	341.4	47.5	-67.2	9.3
2026-01-06 11:28:27.700574	341.5	46.8	-67.2	9.8
2026-01-06 11:28:29.936590	341.5	46.1	-66.6	9.5
2026-01-06 11:28:32.170606	341.5	45.4	-67.0	9.9
2026-01-06 11:28:34.407614	341.6	44.7	-66.3	8.9
2026-01-06 11:28:36.641630	341.6	44.0	-66.4	10.0
2026-01-06 11:28:38.877638	341.7	43.4	-65.8	9.1
2026-01-06 11:28:41.115666	341.7	42.8	-65.6	9.2
2026-01-06 11:28:43.355675	341.7	42.1	-65.6	9.4
2026-01-06 11:28:45.596198	341.8	41.5	-65.3	9.4
2026-01-06 11:28:47.838703	341.8	40.9	-65.0	8.4
2026-01-06 11:28:50.077720	341.8	40.3	-65.1	8.7
2026-01-06 11:28:52.317737	341.8	39.7	-65.1	9.5
2026-01-06 11:28:54.559746	341.9	39.1	-64.9	9.2
2026-01-06 11:28:56.803764	341.9	38.6	-65.2	9.2
2026-01-06 11:28:59.043773	341.9	38.0	-65.0	8.4
2026-01-06 11:29:01.285782	342.0	37.4	-64.8	9.3
2026-01-06 11:29:03.528304	342.0	36.9	-64.9	9.2
2026-01-06 11:29:05.772818	342.0	36.4	-64.2	8.6
2026-01-06 11:29:08.014827	342.0	35.8	-64.7	8.5
2026-01-06 11:29:10.253347	342.1	35.3	-65.2	8.4
2026-01-06 11:29:12.495868	342.1	34.8	-64.8	8.2
2026-01-06 11:29:14.737886	342.1	34.3	-65.2	9.3
2026-01-06 11:29:16.982896	342.1	33.8	-64.7	9.6
2026-01-06 11:29:19.227401	342.2	33.3	-64.6	8.7
2026-01-06 11:29:21.469428	342.2	32.9	-65.1	9.4
2026-01-06 11:29:23.708940	342.2	32.4	-64.6	8.2
2026-01-06 11:29:25.952455	342.2	31.9	-64.8	9.2
2026-01-06 11:29:28.196476	342.3	31.5	-64.1	9.3
2026-01-06 11:29:30.437998	342.3	31.0	-64.1	8.7
2026-01-06 11:29:32.682504	342.3	30.6	-64.4	8.8
2026-01-06 11:29:34.927009	342.3	30.2	-64.1	8.9
2026-01-06 11:29:37.169027	342.3	29.7	-64.5	8.2
2026-01-06 11:29:39.401035	342.4	29.3	-64.3	8.0
2026-01-06 11:29:41.636052	342.4	28.9	-64.6	9.2
2026-01-06 11:29:43.872060	342.4	28.5	-64.3	9.5
2026-01-06 11:29:46.107596	342.4	28.1	-63.9	8.5
2026-01-06 11:29:48.342604	342.4	27.7	-64.0	7.9
2026-01-06 11:29:50.578107	342.5	27.3	-64.5	9.2
2026-01-06 11:29:52.814123	342.5	26.9	-64.6	8.8
2026-01-06 11:29:55.051627	342.5	26.5	-64.7	8.7
2026-01-06 11:29:57.287635	342.5	26.2	-64.8	9.5
2026-01-06 11:29:59.527139	342.5	25.8	-64.3	7.3
2026-01-06 11:30:01.767661	342.5	25.4	-64.0	8.2
2026-01-06 11:30:04.005686	342.6	25.1	-63.8	8.1
2026-01-06 11:30:06.239197	342.6	24.7	-64.5	9.0
2026-01-06 11:30:08.473204	342.6	24.4	-64.2	9.0
2026-01-06 11:30:10.712726	342.6	24.0	-63.9	7.5
2026-01-06 11:30:12.951734	342.6	23.7	-64.5	9.2
2026-01-06 11:30:15.193255	342.6	23.4	-64.2	8.5
2026-01-06 11:30:17.429264	342.7	23.0	-64.5	9.0
2026-01-06 11:30:19.666776	342.7	22.7	-64.1	7.6
2026-01-06 11:30:21.905281	342.7	22.4	-64.5	9.4
2026-01-06 11:30:24.139792	342.7	22.1	-64.4	8.3
2026-01-06 11:30:26.373809	342.7	21.7	-64.0	7.9
2026-01-06 11:30:28.609832	342.7	21.4	-64.6	8.1
2026-01-06 11:30:30.846336	342.8	21.1	-64.4	8.3
2026-01-06 11:30:33.087354	342.8	20.8	-63.9	7.2
2026-01-06 11:30:35.323362	342.8	20.5	-65.1	9.3
2026-01-06 11:30:37.561370	342.8	20.2	-64.2	7.1
2026-01-06 11:30:39.804388	342.8	19.9	-64.5	8.0
2026-01-06 11:30:42.047405	342.8	19.6	-64.8	8.7
2026-01-06 11:30:44.289928	342.8	19.3	-64.8	9.1
2026-01-06 11:30:46.533937	342.9	19.1	-64.4	7.7
2026-01-06 11:30:48.778442	342.9	18.8	-65.2	8.3
2026-01-06 11:30:51.022460	342.9	18.5	-64.5	7.9
2026-01-06 11:30:53.265974	342.9	18.2	-64.8	8.3
2026-01-06 11:30:55.499989	342.9	18.0	-65.0	8.4
2026-01-06 11:30:57.738998	342.9	17.7	-64.7	8.5
2026-01-06 11:30:59.975519	342.9	17.4	-64.8	7.5
2026-01-06 11:31:02.210038	343.0	17.2	-64.5	8.1
2026-01-06 11:31:04.447542	343.0	16.9	-64.8	7.9
2026-01-06 11:31:06.688047	343.0	16.7	-64.6	7.6
2026-01-06 11:31:08.923559	343.0	16.4	-63.7	5.8
2026-01-06 11:31:11.159577	343.0	16.2	-64.4	7.1
2026-01-06 11:31:13.393584	343.0	15.9	-64.9	7.5
2026-01-06 11:31:15.630592	343.0	15.7	-64.7	7.5
2026-01-06 11:31:17.875602	343.1	15.4	-64.7	7.1
2026-01-06 11:31:20.112114	343.1	15.2	-64.0	6.8
2026-01-06 11:31:22.349122	343.1	14.9	-64.2	7.1
2026-01-06 11:31:24.583625	343.1	14.7	-64.7	7.3
2026-01-06 11:31:26.821137	343.1	14.5	-63.5	5.8
2026-01-06 11:31:29.057649	343.1	14.2	-64.1	6.4
2026-01-06 11:31:31.293161	343.1	14.0	-63.8	6.7
2026-01-06 11:31:33.529674	343.1	13.8	-64.4	5.8
2026-01-06 11:31:35.770683	343.2	13.6	-63.3	4.9
2026-01-06 11:31:38.006195	343.2	13.3	-63.8	5.7
2026-01-06 11:31:40.246203	343.2	13.1	-64.2	6.0
2026-01-06 11:31:42.483715	343.2	12.9	-64.6	6.1
2026-01-06 11:31:44.725725	343.2	12.7	-64.0	6.1
2026-01-06 11:31:46.963733	343.2	12.5	-64.0	5.8
2026-01-06 11:31:49.200741	343.2	12.2	-62.7	2.5
2026-01-06 11:31:51.438245	343.3	12.0	-63.0	2.8
2026-01-06 11:31:53.683263	343.3	11.8	-63.4	3.7
2026-01-06 11:31:55.927273	343.3	11.6	-63.0	2.2
2026-01-06 11:31:58.170290	343.3	11.4	-63.7	5.5
2026-01-06 11:32:00.413308	343.3	11.2	-63.5	4.1
2026-01-06 11:32:02.657822	343.3	11.0	-62.6	4.3
2026-01-06 11:32:04.900862	343.3	10.8	-62.7	2.2
2026-01-06 11:32:07.145377	343.3	10.6	-62.7	2.8
2026-01-06 11:32:09.388386	343.3	10.4	-64.1	5.5
2026-01-06 11:32:11.627394	343.4	10.2	-63.5	3.2
2026-01-06 11:32:13.864907	343.4	10.0	-62.5	2.0
2026-01-06 11:32:16.102419	343.4	9.8	-62.0	2.9
2026-01-06 11:32:18.340428	343.4	9.6	-63.4	5.1
2026-01-06 11:32:20.575940	343.4	9.4	-63.0	3.6
2026-01-06 11:32:22.811453	343.4	9.2	-63.3	3.6
2026-01-06 11:32:25.047964	343.4	9.1	-63.4	4.4
2026-01-06 11:32:27.288477	343.4	8.9	-63.2	4.0
2026-01-06 11:32:29.524993	343.5	8.7	-63.1	1.7
2026-01-06 11:32:31.761513	343.5	8.5	-62.1	1.0
2026-01-06 11:32:33.998017	343.5	8.3	-61.3	1.6
2026-01-06 11:32:36.230024	343.5	8.1	-63.0	1.9
2026-01-06 11:32:38.468032	343.5	8.0	-62.9	3.4
2026-01-06 11:32:40.703535	343.5	7.8	-63.3	4.3
2026-01-06 11:32:42.942545	343.5	7.6	-62.0	2.6
2026-01-06 11:32:45.180553	343.5	7.4	-63.0	4.4
2026-01-06 11:32:47.416568	343.6	7.3	-62.4	2.6
2026-01-06 11:32:49.655072	343.6	7.1	-61.7	2.1
2026-01-06 11:32:51.891585	343.6	6.9	-61.5	0.0
2026-01-06 11:32:54.126088	343.6	6.7	-62.1	1.7
2026-01-06 11:32:56.361614	343.6	6.6	-63.0	2.9
2026-01-06 11:32:58.596621	343.6	6.4	-62.3	0.6
2026-01-06 11:33:00.835143	343.6	6.2	-62.6	1.0
2026-01-06 11:33:03.072159	343.6	6.1	-62.9	1.0
2026-01-06 11:33:05.314185	343.6	5.9	-65.5	0.0
2026-01-06 11:33:07.544200	343.7	5.7	-67.1	0.0
2026-01-06 11:33:09.777711	343.7	5.6	-67.4	0.0
2026-01-06 11:33:12.012222	343.7	5.4	-70.1	0.0
2026-01-06 11:33:14.254240	343.7	5.3	-69.9	0.0
2026-01-06 11:33:16.493248	343.7	5.1	-71.8	0.0
#Closed at: 2026-01-06 11:20:17.664837