passes_logs/2026/01/06/PlanumMoscow/PlanumMoscow__20260106_080317_METOP-C_rec.log

#Pass ID: 20260106_080317_METOP-C
#Satellite: METOP-C
#Configuration: METOP-C
#Start time: 2026-01-06 08:03:22.458346

#LorettStation: 1.0.0 05.05.2024
#Station: PlanumMoscow
#Location: 37.6253844 lon 55.6713361 lat
#TLE: 1 43689U 18087A   25293.88981035  .00000265  00000+0  14109-3 0  9997
#TLE: 2 43689  98.7006 352.4487 0002041 122.1097 238.0279 14.21482740360838

#Time	Az	El	Level	SNR
2026-01-06 08:07:00.926905	7.6	29.0	-61.1	0.0
2026-01-06 08:07:03.156462	7.5	29.4	-62.3	0.0
2026-01-06 08:07:05.384972	7.3	29.8	-61.6	0.0
2026-01-06 08:07:07.615474	7.1	30.2	-61.6	0.0
2026-01-06 08:07:09.852024	6.9	30.6	-61.8	0.0
2026-01-06 08:07:12.085055	6.8	31.1	-61.6	0.0
2026-01-06 08:07:14.320102	6.6	31.5	-61.0	0.0
2026-01-06 08:07:16.557111	6.4	32.0	-61.0	0.0
2026-01-06 08:07:18.795119	6.2	32.4	-62.0	1.2
2026-01-06 08:07:21.031127	6.0	32.9	-61.3	0.0
2026-01-06 08:07:23.265638	5.8	33.3	-61.4	0.0
2026-01-06 08:07:25.501159	5.5	33.8	-61.4	0.0
2026-01-06 08:07:27.742179	5.3	34.3	-61.4	0.0
2026-01-06 08:07:29.981187	5.1	34.7	-61.8	0.0
2026-01-06 08:07:32.215195	4.8	35.2	-60.8	0.0
2026-01-06 08:07:34.450699	4.6	35.7	-60.9	0.0
2026-01-06 08:07:36.688219	4.3	36.2	-61.6	0.0
2026-01-06 08:07:38.932733	4.1	36.7	-61.2	0.0
2026-01-06 08:07:41.175255	3.8	37.2	-64.1	2.8
2026-01-06 08:07:43.422273	3.5	37.8	-62.7	0.0
2026-01-06 08:07:45.665291	3.2	38.3	-62.6	0.0
2026-01-06 08:07:47.909804	2.9	38.8	-65.1	0.9
2026-01-06 08:07:50.153317	2.6	39.4	-64.3	0.4
2026-01-06 08:07:52.396832	2.3	40.0	-62.5	0.0
2026-01-06 08:07:54.632344	2.0	40.5	-62.4	2.8
2026-01-06 08:07:56.867352	1.6	41.1	-63.7	0.2
2026-01-06 08:07:59.101368	1.3	41.7	-64.2	0.0
2026-01-06 08:08:01.338384	0.9	42.2	-64.3	0.0
2026-01-06 08:08:03.571896	0.5	42.8	-65.3	2.6
2026-01-06 08:08:05.811426	0.1	43.4	-65.5	1.8
2026-01-06 08:08:08.045938	359.7	44.1	-66.2	2.5
2026-01-06 08:08:10.283451	359.2	44.7	-66.1	1.0
2026-01-06 08:08:12.513457	358.8	45.3	-65.4	2.9
2026-01-06 08:08:14.744960	358.3	45.9	-65.5	0.9
2026-01-06 08:08:16.977967	357.8	46.6	-65.2	0.0
2026-01-06 08:08:19.211982	357.3	47.2	-65.7	3.3
2026-01-06 08:08:21.448486	356.8	47.9	-65.7	1.5
2026-01-06 08:08:23.687503	356.2	48.5	-66.1	2.9
2026-01-06 08:08:25.923015	355.7	49.2	-66.3	3.4
2026-01-06 08:08:28.156030	355.1	49.9	-66.5	0.0
2026-01-06 08:08:30.388533	354.4	50.6	-67.0	0.0
2026-01-06 08:08:32.622036	353.8	51.3	-67.4	1.7
2026-01-06 08:08:34.857043	353.1	52.0	-67.6	0.5
2026-01-06 08:08:37.092058	352.3	52.7	-67.0	0.0
2026-01-06 08:08:39.327066	351.6	53.4	-67.5	0.0
2026-01-06 08:08:41.563586	350.8	54.1	-67.4	0.0
2026-01-06 08:08:43.801595	349.9	54.8	-68.0	0.0
2026-01-06 08:08:46.036106	349.0	55.5	-68.1	0.0
2026-01-06 08:08:48.275116	348.1	56.2	-67.6	0.0
2026-01-06 08:08:50.512637	347.1	57.0	-68.4	0.0
2026-01-06 08:08:52.751158	346.0	57.7	-68.8	0.0
2026-01-06 08:08:54.995664	344.9	58.4	-66.2	0.0
2026-01-06 08:08:57.241178	343.8	59.1	-68.4	0.0
2026-01-06 08:08:59.484692	342.5	59.9	-68.5	0.0
2026-01-06 08:09:01.727214	341.2	60.6	-68.8	0.0
2026-01-06 08:09:03.965734	339.9	61.3	-69.2	0.0
2026-01-06 08:09:06.209745	338.4	62.0	-69.1	0.0
2026-01-06 08:09:08.449257	336.8	62.7	-69.5	0.0
2026-01-06 08:09:10.683760	335.2	63.4	-68.6	0.0
2026-01-06 08:09:12.918769	333.5	64.0	-69.3	0.0
2026-01-06 08:09:15.154272	331.6	64.7	-69.6	0.0
2026-01-06 08:09:17.384784	329.7	65.3	-70.0	0.0
2026-01-06 08:09:19.619808	327.7	65.9	-69.6	0.0
2026-01-06 08:09:21.854816	325.5	66.5	-69.5	0.0
2026-01-06 08:09:24.094328	323.2	67.0	-69.6	0.0
2026-01-06 08:09:26.328831	320.8	67.6	-69.7	0.0
2026-01-06 08:09:28.561350	318.3	68.0	-69.7	0.0
2026-01-06 08:09:30.796854	315.6	68.5	-69.5	0.0
2026-01-06 08:09:33.031879	312.9	68.9	-69.3	0.0
2026-01-06 08:09:35.265887	310.0	69.3	-69.6	0.0
2026-01-06 08:09:37.500894	307.0	69.6	-69.8	0.0
2026-01-06 08:09:39.733901	304.0	69.8	-69.0	0.0
2026-01-06 08:09:41.969413	300.8	70.0	-69.3	0.0
2026-01-06 08:09:44.202428	297.6	70.2	-70.2	0.0
2026-01-06 08:09:46.434445	294.4	70.3	-70.2	0.0
2026-01-06 08:09:48.669956	291.1	70.3	-69.8	0.0
2026-01-06 08:09:50.904965	287.9	70.3	-70.1	0.0
2026-01-06 08:09:53.138973	284.6	70.2	-70.3	0.0
2026-01-06 08:09:55.372485	281.5	70.0	-69.1	0.0
2026-01-06 08:09:57.604988	278.3	69.8	-68.5	0.0
2026-01-06 08:09:59.840508	275.3	69.5	-68.1	0.0
2026-01-06 08:10:02.074011	272.3	69.2	-67.8	0.0
2026-01-06 08:10:04.308027	269.4	68.9	-69.1	0.0
2026-01-06 08:10:06.540034	266.7	68.5	-69.3	0.0
2026-01-06 08:10:08.775537	264.0	68.0	-69.1	0.0
2026-01-06 08:10:11.009554	261.5	67.5	-68.0	0.0
2026-01-06 08:10:13.242561	259.1	67.0	-68.0	0.0
2026-01-06 08:10:15.477073	256.9	66.4	-69.6	0.1
2026-01-06 08:10:17.710584	254.7	65.9	-69.2	0.0
2026-01-06 08:10:19.941589	252.7	65.2	-69.4	0.0
2026-01-06 08:10:22.175605	250.7	64.6	-69.3	0.1
2026-01-06 08:10:24.412118	248.9	64.0	-69.1	0.0
2026-01-06 08:10:26.644637	247.2	63.3	-68.9	0.0
2026-01-06 08:10:28.879141	245.5	62.6	-68.8	0.0
2026-01-06 08:10:31.115155	244.0	61.9	-69.6	0.0
2026-01-06 08:10:33.347162	242.6	61.2	-68.9	0.0
2026-01-06 08:10:35.587676	241.2	60.5	-68.6	0.0
2026-01-06 08:10:37.820187	239.9	59.8	-68.0	0.0
2026-01-06 08:10:40.058196	238.7	59.1	-67.8	0.0
2026-01-06 08:10:42.292699	237.5	58.3	-68.9	0.0
2026-01-06 08:10:44.525706	236.4	57.6	-70.3	0.0
2026-01-06 08:10:46.768715	235.3	56.9	-69.4	0.0
2026-01-06 08:10:49.013221	234.4	56.2	-69.6	0.0
2026-01-06 08:10:51.255239	233.4	55.4	-69.1	0.0
2026-01-06 08:10:53.498258	232.5	54.7	-69.5	0.0
2026-01-06 08:10:55.733266	231.7	54.0	-68.7	0.0
2026-01-06 08:10:57.966777	230.9	53.3	-69.9	0.0
2026-01-06 08:11:00.207795	230.1	52.6	-68.3	0.0
2026-01-06 08:11:02.452312	229.4	51.9	-69.2	0.0
2026-01-06 08:11:04.695831	228.7	51.2	-68.0	0.0
2026-01-06 08:11:06.936353	228.0	50.5	-68.8	0.0
2026-01-06 08:11:09.171370	227.4	49.8	-66.9	0.0
2026-01-06 08:11:11.403873	226.8	49.1	-68.4	0.0
2026-01-06 08:11:13.638385	226.2	48.4	-66.6	0.0
2026-01-06 08:11:15.878394	225.6	47.8	-67.5	0.0
2026-01-06 08:11:18.117410	225.1	47.1	-67.0	0.0
2026-01-06 08:11:20.352922	224.6	46.4	-68.0	0.0
2026-01-06 08:11:22.590426	224.1	45.8	-67.3	0.0
2026-01-06 08:11:24.826433	223.6	45.2	-66.6	0.0
2026-01-06 08:11:27.063945	223.2	44.5	-68.5	0.0
2026-01-06 08:11:29.295952	222.8	43.9	-66.3	0.0
2026-01-06 08:11:31.530464	222.3	43.3	-68.0	0.0
2026-01-06 08:11:33.764479	221.9	42.7	-68.1	0.0
2026-01-06 08:11:36.000495	221.6	42.1	-68.6	0.0
2026-01-06 08:11:38.235512	221.2	41.5	-67.7	0.0
2026-01-06 08:11:40.467527	220.8	40.9	-67.4	0.0
2026-01-06 08:11:42.704039	220.5	40.4	-67.4	0.0
2026-01-06 08:11:44.939542	220.1	39.8	-67.1	0.0
2026-01-06 08:11:47.171569	219.8	39.3	-66.4	0.0
2026-01-06 08:11:49.406087	219.5	38.7	-66.3	0.0
2026-01-06 08:11:51.646096	219.2	38.2	-66.8	0.0
2026-01-06 08:11:53.882104	218.9	37.6	-67.1	0.0
2026-01-06 08:11:56.121617	218.6	37.1	-67.5	0.0
2026-01-06 08:11:58.352631	218.4	36.6	-66.6	0.0
2026-01-06 08:12:00.590144	218.1	36.1	-66.4	0.0
2026-01-06 08:12:02.827657	217.8	35.6	-66.5	0.5
2026-01-06 08:12:05.066676	217.6	35.1	-65.6	0.0
2026-01-06 08:12:07.301684	217.4	34.6	-66.6	3.7
2026-01-06 08:12:09.542205	217.1	34.1	-65.4	0.0
2026-01-06 08:12:11.786711	216.9	33.6	-64.6	3.4
2026-01-06 08:12:14.032247	216.7	33.2	-64.7	0.0
2026-01-06 08:12:16.276257	216.5	32.7	-66.0	0.0
2026-01-06 08:12:18.520267	216.3	32.2	-65.4	1.5
2026-01-06 08:12:20.764772	216.1	31.8	-65.7	3.1
2026-01-06 08:12:23.008294	215.9	31.3	-64.7	3.5
2026-01-06 08:12:25.243318	215.7	30.9	-66.1	4.5
2026-01-06 08:12:27.482831	215.5	30.5	-65.7	6.4
2026-01-06 08:12:29.723343	215.3	30.1	-66.2	7.6
2026-01-06 08:12:31.960856	215.1	29.6	-65.4	7.6
2026-01-06 08:12:34.197872	215.0	29.2	-65.4	5.7
2026-01-06 08:12:36.435376	214.8	28.8	-65.1	7.5
2026-01-06 08:12:38.673384	214.6	28.4	-65.4	8.4
2026-01-06 08:12:40.910393	214.5	28.0	-64.7	5.2
2026-01-06 08:12:43.142409	214.3	27.6	-65.7	8.2
2026-01-06 08:12:45.381921	214.2	27.2	-64.7	5.9
2026-01-06 08:12:47.618425	214.0	26.9	-64.4	6.3
2026-01-06 08:12:49.854937	213.9	26.5	-64.4	7.5
2026-01-06 08:12:52.087944	213.7	26.1	-64.2	6.1
2026-01-06 08:12:54.323448	213.6	25.8	-64.7	8.2
2026-01-06 08:12:56.559967	213.5	25.4	-64.8	7.9
2026-01-06 08:12:58.797480	213.4	25.0	-64.1	7.1
2026-01-06 08:13:01.032991	213.2	24.7	-63.8	6.6
2026-01-06 08:13:03.266494	213.1	24.3	-63.6	8.1
2026-01-06 08:13:05.501007	213.0	24.0	-64.2	5.8
2026-01-06 08:13:07.736519	212.9	23.7	-64.5	8.5
2026-01-06 08:13:09.970545	212.7	23.3	-64.4	8.3
2026-01-06 08:13:12.204561	212.6	23.0	-64.1	7.8
2026-01-06 08:13:14.443074	212.5	22.7	-62.2	5.0
2026-01-06 08:13:16.677585	212.4	22.4	-64.2	8.0
2026-01-06 08:13:18.914089	212.3	22.0	-63.5	5.8
2026-01-06 08:13:21.148592	212.2	21.7	-64.1	7.2
2026-01-06 08:13:23.387609	212.1	21.4	-63.7	6.7
2026-01-06 08:13:25.625121	212.0	21.1	-63.9	7.5
2026-01-06 08:13:27.863633	211.9	20.8	-64.2	6.3
2026-01-06 08:13:30.100642	211.8	20.5	-64.9	6.7
2026-01-06 08:13:32.344156	211.7	20.2	-64.8	7.3
2026-01-06 08:13:34.587172	211.6	19.9	-65.2	7.9
2026-01-06 08:13:36.830687	211.5	19.6	-64.8	7.0
2026-01-06 08:13:39.073714	211.5	19.3	-65.0	8.4
2026-01-06 08:13:41.318733	211.4	19.1	-64.2	7.0
2026-01-06 08:13:43.563247	211.3	18.8	-64.7	7.8
2026-01-06 08:13:45.803769	211.2	18.5	-63.8	7.3
2026-01-06 08:13:48.039272	211.1	18.2	-64.6	7.7
2026-01-06 08:13:50.275784	211.0	18.0	-64.4	6.5
2026-01-06 08:13:52.513288	211.0	17.7	-64.3	8.3
2026-01-06 08:13:54.751800	210.9	17.4	-64.4	8.0
2026-01-06 08:13:56.991809	210.8	17.2	-64.1	6.5
2026-01-06 08:13:59.228321	210.7	16.9	-63.9	6.9
2026-01-06 08:14:01.468330	210.7	16.6	-62.6	2.8
2026-01-06 08:14:03.707835	210.6	16.4	-63.0	3.7
2026-01-06 08:14:05.949843	210.5	16.1	-64.5	7.1
2026-01-06 08:14:08.190357	210.5	15.9	-64.4	7.6
2026-01-06 08:14:10.425373	210.4	15.6	-64.0	5.6
2026-01-06 08:14:12.666389	210.3	15.4	-62.9	3.7
2026-01-06 08:14:14.908902	210.3	15.2	-64.4	6.7
2026-01-06 08:14:17.144414	210.2	14.9	-64.5	7.6
2026-01-06 08:14:19.384935	210.1	14.7	-63.6	3.6
2026-01-06 08:14:21.625448	210.1	14.4	-63.8	6.2
2026-01-06 08:14:23.865465	210.0	14.2	-64.0	7.0
2026-01-06 08:14:26.105473	209.9	14.0	-63.8	7.0
2026-01-06 08:14:28.343482	209.9	13.7	-64.6	7.2
2026-01-06 08:14:30.583499	209.8	13.5	-64.3	6.8
2026-01-06 08:14:32.821508	209.8	13.3	-64.5	7.2
2026-01-06 08:14:35.057523	209.7	13.1	-64.2	6.1
2026-01-06 08:14:37.296539	209.7	12.9	-64.0	5.9
2026-01-06 08:14:39.535044	209.6	12.6	-64.4	6.3
2026-01-06 08:14:41.775549	209.6	12.4	-64.1	5.9
2026-01-06 08:14:44.013557	209.5	12.2	-64.2	6.3
2026-01-06 08:14:46.253565	209.5	12.0	-64.1	5.2
2026-01-06 08:14:48.498096	209.4	11.8	-63.9	5.5
2026-01-06 08:14:50.735610	209.4	11.6	-64.0	4.2
2026-01-06 08:14:52.975122	209.3	11.4	-63.5	5.4
2026-01-06 08:14:55.215132	209.3	11.2	-63.6	4.0
2026-01-06 08:14:57.463647	209.2	11.0	-63.7	5.1
2026-01-06 08:14:59.707657	209.2	10.8	-63.9	4.5
2026-01-06 08:15:01.951666	209.1	10.6	-63.8	3.9
2026-01-06 08:15:04.194188	209.1	10.4	-63.5	4.6
2026-01-06 08:15:06.437701	209.0	10.2	-63.8	4.2
2026-01-06 08:15:08.681215	209.0	10.0	-63.7	4.0
2026-01-06 08:15:10.926729	208.9	9.8	-62.4	4.0
2026-01-06 08:15:13.159241	208.9	9.6	-63.3	2.2
2026-01-06 08:15:15.392760	208.9	9.4	-63.7	3.8
2026-01-06 08:15:17.625775	208.8	9.2	-63.1	1.4
2026-01-06 08:15:19.863279	208.8	9.0	-63.0	2.7
2026-01-06 08:15:22.101296	208.7	8.8	-62.5	2.0
2026-01-06 08:15:24.335799	208.7	8.6	-63.2	2.5
2026-01-06 08:15:26.571311	208.7	8.5	-63.6	3.1
2026-01-06 08:15:28.806823	208.6	8.3	-63.5	2.8
2026-01-06 08:15:31.045841	208.6	8.1	-63.7	0.4
2026-01-06 08:15:33.288361	208.5	7.9	-62.1	0.0
2026-01-06 08:15:35.526865	208.5	7.7	-62.5	1.6
2026-01-06 08:15:37.760385	208.5	7.6	-62.2	0.0
2026-01-06 08:15:39.996394	208.4	7.4	-62.5	2.7
2026-01-06 08:15:42.234410	208.4	7.2	-61.3	0.0
2026-01-06 08:15:44.470437	208.4	7.0	-62.8	0.0
2026-01-06 08:15:46.704940	208.3	6.9	-62.6	0.0
2026-01-06 08:15:48.941969	208.3	6.7	-62.9	0.8
2026-01-06 08:15:51.179482	208.3	6.5	-62.3	0.0
2026-01-06 08:15:53.416994	208.2	6.3	-62.3	0.0
2026-01-06 08:15:55.651497	208.2	6.2	-62.6	0.0
2026-01-06 08:15:57.886000	208.2	6.0	-62.9	0.0
2026-01-06 08:16:00.122017	208.1	5.8	-65.2	0.0
2026-01-06 08:16:02.354024	208.1	5.7	-68.9	0.0
2026-01-06 08:16:04.587045	208.1	5.5	-69.4	0.0
2026-01-06 08:16:06.820053	208.0	5.4	-72.4	0.0
2026-01-06 08:16:09.059070	208.0	5.2	-72.6	0.0
2026-01-06 08:16:11.292077	208.0	5.0	-72.2	0.0
#Closed at: 2026-01-06 08:03:17.459817