passes_logs/2026/01/06/PlanumMoscow/PlanumMoscow__20260106_013102_METEOR-M2_4_rec.log

#Pass ID: 20260106_013102_METEOR-M2 4
#Satellite: METEOR-M2 4
#Configuration: METEOR-M2 4
#Start time: 2026-01-06 01:31:07.265416

#LorettStation: 1.0.0 05.05.2024
#Station: PlanumMoscow
#Location: 37.6253844 lon 55.6713361 lat
#TLE: 1 59051U 24039A   25293.94737965  .00000087  00000+0  58459-4 0  9998
#TLE: 2 59051  98.6671 251.7071 0007726 135.4772 224.7028 14.22388966 85257

#Time	Az	El	Level	SNR
2026-01-06 01:34:45.734361	1.6	28.2	-59.2	5.2
2026-01-06 01:34:47.967376	1.3	28.6	-59.3	5.8
2026-01-06 01:34:50.197879	1.0	28.9	-60.1	5.8
2026-01-06 01:34:52.429895	0.7	29.3	-59.9	4.9
2026-01-06 01:34:54.662398	0.5	29.7	-59.5	5.1
2026-01-06 01:34:56.893910	0.2	30.1	-59.8	6.4
2026-01-06 01:34:59.130422	359.9	30.5	-59.2	4.3
2026-01-06 01:35:01.362933	359.6	30.9	-60.1	6.4
2026-01-06 01:35:03.595435	359.2	31.3	-60.2	5.8
2026-01-06 01:35:05.828947	358.9	31.7	-60.5	6.3
2026-01-06 01:35:08.063955	358.6	32.1	-60.0	5.6
2026-01-06 01:35:10.295961	358.2	32.6	-60.9	6.7
2026-01-06 01:35:12.528472	357.9	33.0	-60.7	7.0
2026-01-06 01:35:14.759983	357.5	33.4	-60.8	6.8
2026-01-06 01:35:16.995504	357.2	33.9	-61.2	7.1
2026-01-06 01:35:19.228512	356.8	34.3	-61.4	6.5
2026-01-06 01:35:21.462519	356.4	34.7	-61.3	7.0
2026-01-06 01:35:23.694030	356.0	35.2	-61.6	7.2
2026-01-06 01:35:25.928039	355.6	35.6	-61.5	7.3
2026-01-06 01:35:28.160559	355.2	36.1	-61.5	7.1
2026-01-06 01:35:30.391564	354.7	36.6	-61.7	7.7
2026-01-06 01:35:32.627076	354.3	37.0	-62.2	7.8
2026-01-06 01:35:34.863580	353.8	37.5	-62.5	7.9
2026-01-06 01:35:37.094090	353.3	38.0	-62.3	6.9
2026-01-06 01:35:39.325601	352.8	38.5	-62.6	8.1
2026-01-06 01:35:41.561112	352.3	39.0	-62.8	8.3
2026-01-06 01:35:43.798625	351.8	39.5	-63.0	8.3
2026-01-06 01:35:46.032632	351.2	40.0	-63.1	8.5
2026-01-06 01:35:48.261638	350.7	40.5	-63.4	9.1
2026-01-06 01:35:50.497150	350.1	41.0	-63.6	9.4
2026-01-06 01:35:52.739168	349.5	41.5	-63.2	9.4
2026-01-06 01:35:54.982194	348.9	42.0	-63.9	9.7
2026-01-06 01:35:57.225220	348.3	42.5	-63.6	10.4
2026-01-06 01:35:59.467743	347.6	43.0	-63.9	10.7
2026-01-06 01:36:01.711752	346.9	43.5	-63.6	9.6
2026-01-06 01:36:03.955265	346.2	44.1	-64.2	10.6
2026-01-06 01:36:06.199770	345.5	44.6	-64.2	10.6
2026-01-06 01:36:08.437779	344.7	45.1	-64.6	10.9
2026-01-06 01:36:10.668282	344.0	45.6	-64.8	11.3
2026-01-06 01:36:12.901297	343.2	46.2	-64.6	10.7
2026-01-06 01:36:15.134304	342.3	46.7	-64.7	11.1
2026-01-06 01:36:17.365319	341.5	47.2	-64.8	11.0
2026-01-06 01:36:19.601326	340.6	47.8	-65.0	11.0
2026-01-06 01:36:21.831332	339.7	48.3	-65.0	10.9
2026-01-06 01:36:24.062348	338.7	48.8	-65.0	11.4
2026-01-06 01:36:26.292851	337.7	49.3	-64.6	9.9
2026-01-06 01:36:28.523865	336.7	49.9	-65.2	10.9
2026-01-06 01:36:30.753881	335.7	50.4	-65.4	10.6
2026-01-06 01:36:32.985392	334.6	50.9	-65.1	11.1
2026-01-06 01:36:35.217407	333.5	51.4	-65.4	10.9
2026-01-06 01:36:37.447918	332.3	51.9	-65.1	10.7
2026-01-06 01:36:39.677420	331.1	52.4	-65.3	10.8
2026-01-06 01:36:41.911933	329.8	52.9	-65.2	10.7
2026-01-06 01:36:44.144958	328.6	53.3	-65.0	10.5
2026-01-06 01:36:46.375460	327.2	53.8	-65.4	9.8
2026-01-06 01:36:48.606971	325.9	54.2	-65.6	9.1
2026-01-06 01:36:50.838482	324.4	54.7	-65.7	8.7
2026-01-06 01:36:53.075498	323.0	55.1	-65.3	8.8
2026-01-06 01:36:55.304000	321.5	55.5	-65.1	7.1
2026-01-06 01:36:57.538503	319.9	55.9	-65.4	8.7
2026-01-06 01:36:59.768519	318.3	56.3	-65.5	8.6
2026-01-06 01:37:02.003038	316.7	56.6	-65.6	8.6
2026-01-06 01:37:04.236046	315.0	56.9	-63.5	5.0
2026-01-06 01:37:06.466066	313.3	57.2	-65.6	7.7
2026-01-06 01:37:08.701579	311.6	57.5	-64.6	6.3
2026-01-06 01:37:10.934593	309.8	57.8	-65.1	4.2
2026-01-06 01:37:13.167109	308.0	58.0	-66.0	5.4
2026-01-06 01:37:15.416120	306.1	58.2	-65.9	5.3
2026-01-06 01:37:17.659626	304.2	58.4	-66.1	6.2
2026-01-06 01:37:19.889632	302.3	58.6	-65.8	7.0
2026-01-06 01:37:22.120143	300.4	58.7	-65.7	7.1
2026-01-06 01:37:24.349148	298.5	58.8	-65.6	8.1
2026-01-06 01:37:26.579155	296.5	58.8	-65.5	7.5
2026-01-06 01:37:28.809673	294.6	58.9	-65.9	7.4
2026-01-06 01:37:31.041185	292.6	58.9	-66.2	7.0
2026-01-06 01:37:33.271695	290.7	58.8	-66.3	7.3
2026-01-06 01:37:35.503198	288.7	58.8	-66.3	7.2
2026-01-06 01:37:37.738213	286.8	58.7	-65.3	6.6
2026-01-06 01:37:39.981728	284.9	58.5	-66.0	8.2
2026-01-06 01:37:42.223241	282.9	58.4	-65.6	9.1
2026-01-06 01:37:44.467746	281.1	58.2	-65.5	9.8
2026-01-06 01:37:46.710764	279.2	58.0	-65.9	9.6
2026-01-06 01:37:48.955279	277.4	57.8	-66.0	10.0
2026-01-06 01:37:51.189790	275.6	57.5	-66.1	10.2
2026-01-06 01:37:53.421292	273.8	57.2	-66.1	9.5
2026-01-06 01:37:55.651314	272.1	56.9	-66.4	8.6
2026-01-06 01:37:57.881816	270.5	56.6	-66.4	8.4
2026-01-06 01:38:00.115320	268.8	56.2	-66.6	9.3
2026-01-06 01:38:02.345830	267.2	55.8	-66.1	8.7
2026-01-06 01:38:04.578342	265.7	55.5	-66.0	10.2
2026-01-06 01:38:06.815358	264.2	55.0	-66.0	9.7
2026-01-06 01:38:09.044372	262.7	54.6	-65.9	10.0
2026-01-06 01:38:11.276379	261.3	54.2	-65.9	9.9
2026-01-06 01:38:13.507891	259.9	53.7	-65.4	9.1
2026-01-06 01:38:15.739394	258.6	53.3	-64.3	7.8
2026-01-06 01:38:17.971914	257.3	52.8	-65.0	9.0
2026-01-06 01:38:20.204930	256.1	52.3	-65.7	7.5
2026-01-06 01:38:22.435432	254.9	51.8	-65.7	8.6
2026-01-06 01:38:24.668944	253.7	51.3	-65.3	8.9
2026-01-06 01:38:26.900960	252.6	50.8	-65.7	9.8
2026-01-06 01:38:29.132472	251.5	50.3	-65.7	9.9
2026-01-06 01:38:31.362984	250.5	49.8	-65.5	9.4
2026-01-06 01:38:33.593999	249.4	49.3	-65.6	9.9
2026-01-06 01:38:35.828503	248.5	48.7	-65.7	9.6
2026-01-06 01:38:38.060014	247.5	48.2	-65.7	9.6
2026-01-06 01:38:40.290020	246.6	47.7	-63.6	5.8
2026-01-06 01:38:42.528524	245.7	47.1	-65.4	9.7
2026-01-06 01:38:44.762532	244.8	46.6	-65.4	8.9
2026-01-06 01:38:46.995556	244.0	46.1	-65.5	9.5
2026-01-06 01:38:49.226563	243.2	45.5	-65.5	10.0
2026-01-06 01:38:51.459083	242.4	45.0	-65.4	9.2
2026-01-06 01:38:53.689098	241.7	44.5	-65.0	8.2
2026-01-06 01:38:55.919601	241.0	44.0	-65.6	10.1
2026-01-06 01:38:58.151103	240.3	43.4	-65.6	9.7
2026-01-06 01:39:00.382119	239.6	42.9	-65.1	9.3
2026-01-06 01:39:02.614125	238.9	42.4	-65.9	9.6
2026-01-06 01:39:04.846140	238.3	41.9	-65.8	10.4
2026-01-06 01:39:07.077643	237.7	41.4	-65.6	10.7
2026-01-06 01:39:09.309658	237.1	40.9	-64.8	9.6
2026-01-06 01:39:11.540185	236.5	40.3	-65.0	10.0
2026-01-06 01:39:13.776697	236.0	39.8	-64.7	10.5
2026-01-06 01:39:16.019211	235.4	39.3	-65.0	10.6
2026-01-06 01:39:18.263220	234.9	38.8	-63.6	10.8
2026-01-06 01:39:20.506230	234.4	38.4	-64.6	11.0
2026-01-06 01:39:22.742747	233.9	37.9	-64.5	10.7
2026-01-06 01:39:24.987758	233.4	37.4	-64.5	10.9
2026-01-06 01:39:27.230776	232.9	36.9	-63.1	7.6
2026-01-06 01:39:29.474290	232.5	36.4	-64.1	10.9
2026-01-06 01:39:31.714803	232.0	36.0	-64.7	11.8
2026-01-06 01:39:33.950810	231.6	35.5	-65.1	11.4
2026-01-06 01:39:36.184367	231.2	35.0	-61.8	7.1
2026-01-06 01:39:38.416913	230.8	34.6	-64.8	10.7
2026-01-06 01:39:40.650441	230.4	34.1	-64.9	11.0
2026-01-06 01:39:42.883990	230.0	33.7	-64.6	11.4
2026-01-06 01:39:45.117509	229.6	33.3	-62.7	7.5
2026-01-06 01:39:47.346055	229.3	32.8	-64.8	12.1
2026-01-06 01:39:49.576566	228.9	32.4	-64.5	11.2
2026-01-06 01:39:51.810581	228.6	32.0	-64.6	11.5
2026-01-06 01:39:54.045092	228.3	31.6	-65.0	9.0
2026-01-06 01:39:56.274098	227.9	31.2	-64.8	10.6
2026-01-06 01:39:58.505601	227.6	30.7	-65.0	11.2
2026-01-06 01:40:00.738103	227.3	30.3	-64.6	11.6
2026-01-06 01:40:02.972121	227.0	29.9	-64.8	11.2
2026-01-06 01:40:05.205644	226.7	29.6	-64.3	11.2
2026-01-06 01:40:07.439155	226.4	29.2	-64.7	12.0
2026-01-06 01:40:09.672666	226.1	28.8	-64.5	11.5
2026-01-06 01:40:11.904683	225.9	28.4	-64.7	11.2
2026-01-06 01:40:14.137186	225.6	28.0	-64.7	11.8
2026-01-06 01:40:16.371193	225.3	27.6	-64.6	11.7
2026-01-06 01:40:18.604704	225.1	27.3	-64.7	11.7
2026-01-06 01:40:20.838224	224.8	26.9	-64.5	11.6
2026-01-06 01:40:23.071727	224.6	26.6	-64.7	11.4
2026-01-06 01:40:25.304750	224.4	26.2	-64.3	10.7
2026-01-06 01:40:27.536756	224.1	25.9	-64.8	11.5
2026-01-06 01:40:29.769267	223.9	25.5	-64.7	11.7
2026-01-06 01:40:32.004275	223.7	25.2	-64.4	11.4
2026-01-06 01:40:34.234785	223.5	24.8	-64.4	10.9
2026-01-06 01:40:36.469305	223.3	24.5	-64.6	10.8
2026-01-06 01:40:38.705809	223.1	24.2	-64.7	10.7
2026-01-06 01:40:40.950315	222.8	23.8	-64.6	10.2
2026-01-06 01:40:43.194324	222.6	23.5	-64.5	11.2
2026-01-06 01:40:45.437838	222.5	23.2	-64.4	10.2
2026-01-06 01:40:47.679865	222.3	22.9	-64.1	10.4
2026-01-06 01:40:49.924371	222.1	22.5	-65.1	11.7
2026-01-06 01:40:52.165885	221.9	22.2	-64.8	10.7
2026-01-06 01:40:54.409398	221.7	21.9	-64.9	11.4
2026-01-06 01:40:56.641910	221.5	21.6	-65.1	11.0
2026-01-06 01:40:58.874926	221.4	21.3	-64.9	10.4
2026-01-06 01:41:01.108950	221.2	21.0	-65.2	10.6
2026-01-06 01:41:03.350463	221.0	20.7	-64.8	10.4
2026-01-06 01:41:05.579486	220.9	20.4	-64.9	10.7
2026-01-06 01:41:07.811493	220.7	20.2	-64.9	10.4
2026-01-06 01:41:10.046005	220.6	19.9	-65.0	9.5
2026-01-06 01:41:12.281519	220.4	19.6	-65.4	10.2
2026-01-06 01:41:14.514022	220.2	19.3	-65.2	10.1
2026-01-06 01:41:16.749534	220.1	19.0	-64.8	10.8
2026-01-06 01:41:18.982054	220.0	18.8	-65.4	10.9
2026-01-06 01:41:21.212069	219.8	18.5	-64.9	10.4
2026-01-06 01:41:23.448573	219.7	18.2	-65.1	10.9
2026-01-06 01:41:25.682076	219.5	18.0	-65.4	9.9
2026-01-06 01:41:27.913587	219.4	17.7	-65.4	10.3
2026-01-06 01:41:30.147098	219.3	17.5	-65.5	11.0
2026-01-06 01:41:32.381114	219.1	17.2	-65.5	10.4
2026-01-06 01:41:34.611617	219.0	16.9	-65.6	10.1
2026-01-06 01:41:36.844625	218.9	16.7	-65.6	10.7
2026-01-06 01:41:39.078137	218.8	16.4	-65.6	11.2
2026-01-06 01:41:41.309639	218.6	16.2	-65.7	11.2
2026-01-06 01:41:43.541646	218.5	16.0	-65.7	10.6
2026-01-06 01:41:45.772148	218.4	15.7	-65.8	11.3
2026-01-06 01:41:48.005164	218.3	15.5	-65.6	10.8
2026-01-06 01:41:50.236171	218.2	15.2	-65.7	10.2
2026-01-06 01:41:52.467177	218.1	15.0	-65.8	10.8
2026-01-06 01:41:54.697192	218.0	14.8	-65.8	10.2
2026-01-06 01:41:56.927199	217.9	14.5	-66.0	10.0
2026-01-06 01:41:59.159702	217.8	14.3	-65.9	10.4
2026-01-06 01:42:01.393213	217.6	14.1	-65.9	10.3
2026-01-06 01:42:03.623219	217.5	13.9	-66.1	10.0
2026-01-06 01:42:05.854721	217.4	13.6	-65.9	9.9
2026-01-06 01:42:08.085224	217.3	13.4	-66.0	10.1
2026-01-06 01:42:10.321727	217.2	13.2	-65.7	10.2
2026-01-06 01:42:12.563240	217.1	13.0	-65.9	10.1
2026-01-06 01:42:14.806257	217.1	12.8	-65.9	9.5
2026-01-06 01:42:17.049276	217.0	12.5	-65.9	9.6
2026-01-06 01:42:19.293798	216.9	12.3	-65.8	10.5
2026-01-06 01:42:21.536807	216.8	12.1	-66.1	9.2
2026-01-06 01:42:23.779312	216.7	11.9	-65.9	9.4
2026-01-06 01:42:26.022827	216.6	11.7	-65.7	9.6
2026-01-06 01:42:28.265332	216.5	11.5	-65.8	9.2
2026-01-06 01:42:30.498339	216.4	11.3	-65.8	9.6
2026-01-06 01:42:32.731851	216.3	11.1	-65.7	9.1
2026-01-06 01:42:34.966867	216.3	10.9	-65.9	8.7
2026-01-06 01:42:37.200378	216.2	10.7	-65.6	9.2
2026-01-06 01:42:39.433385	216.1	10.5	-65.4	8.4
2026-01-06 01:42:41.663392	216.0	10.3	-65.4	9.1
2026-01-06 01:42:43.898895	215.9	10.1	-65.6	8.9
2026-01-06 01:42:46.136399	215.9	9.9	-65.7	7.9
2026-01-06 01:42:48.366414	215.8	9.7	-65.5	8.5
2026-01-06 01:42:50.599933	215.7	9.5	-65.3	8.8
2026-01-06 01:42:52.831933	215.6	9.3	-65.4	8.5
2026-01-06 01:42:55.064958	215.6	9.2	-65.6	7.8
2026-01-06 01:42:57.296461	215.5	9.0	-65.6	7.2
2026-01-06 01:42:59.529964	215.4	8.8	-65.5	7.6
2026-01-06 01:43:01.763475	215.4	8.6	-65.4	7.8
2026-01-06 01:43:04.001483	215.3	8.4	-65.5	8.1
2026-01-06 01:43:06.236995	215.2	8.2	-65.4	7.2
2026-01-06 01:43:08.467002	215.2	8.1	-65.3	7.1
2026-01-06 01:43:10.706515	215.1	7.9	-64.9	7.4
2026-01-06 01:43:12.937522	215.0	7.7	-65.1	7.1
2026-01-06 01:43:15.172538	215.0	7.5	-64.8	6.4
2026-01-06 01:43:17.406041	214.9	7.4	-64.5	5.0
2026-01-06 01:43:19.643553	214.8	7.2	-64.6	6.4
2026-01-06 01:43:21.875560	214.8	7.0	-64.7	6.1
2026-01-06 01:43:24.109072	214.7	6.8	-64.7	6.0
2026-01-06 01:43:26.341079	214.6	6.7	-64.6	6.0
2026-01-06 01:43:28.574590	214.6	6.5	-64.8	5.1
2026-01-06 01:43:30.811599	214.5	6.3	-64.4	5.0
2026-01-06 01:43:33.045102	214.5	6.2	-64.5	5.1
2026-01-06 01:43:35.277109	214.4	6.0	-64.3	5.5
2026-01-06 01:43:37.508612	214.4	5.8	-68.1	0.0
2026-01-06 01:43:39.740618	214.3	5.7	-68.8	0.0
2026-01-06 01:43:41.972635	214.2	5.5	-69.7	0.0
2026-01-06 01:43:44.204643	214.2	5.4	-71.3	0.0
2026-01-06 01:43:46.437650	214.1	5.2	-72.0	0.0
2026-01-06 01:43:48.670153	214.1	5.0	-71.1	0.0
#Closed at: 2026-01-06 01:31:02.266492