passes_logs/2026/01/06/PlanumMoscow/PlanumMoscow__20260106_184547_METEOR-M2_3_rec.log

#Pass ID: 20260106_184547_METEOR-M2 3
#Satellite: METEOR-M2 3
#Configuration: METEOR-M2 3
#Start time: 2026-01-06 18:45:52.918346

#LorettStation: 1.0.0 05.05.2024
#Station: PlanumMoscow
#Location: 37.6253844 lon 55.6713361 lat
#TLE: 1 57166U 23091A   25293.99389264  .00000062  00000+0  46113-4 0  9997
#TLE: 2 57166  98.6457 348.4330 0004759 135.3141 224.8422 14.24016546120475

#Time	Az	El	Level	SNR
2026-01-06 18:49:31.371093	217.8	24.3	-63.3	8.8
2026-01-06 18:49:33.607100	218.3	24.6	-64.7	9.9
2026-01-06 18:49:35.840612	218.8	24.8	-63.3	10.4
2026-01-06 18:49:38.077629	219.2	25.1	-63.2	9.2
2026-01-06 18:49:40.306635	219.7	25.3	-63.3	9.9
2026-01-06 18:49:42.537643	220.2	25.6	-62.4	8.0
2026-01-06 18:49:44.768153	220.7	25.8	-63.8	8.3
2026-01-06 18:49:46.999161	221.2	26.1	-63.1	9.0
2026-01-06 18:49:49.230664	221.7	26.3	-62.6	8.0
2026-01-06 18:49:51.461688	222.3	26.6	-62.2	7.0
2026-01-06 18:49:53.694199	222.8	26.8	-63.1	7.1
2026-01-06 18:49:55.924717	223.3	27.1	-62.8	7.8
2026-01-06 18:49:58.159220	223.9	27.3	-62.8	8.8
2026-01-06 18:50:00.393724	224.5	27.6	-63.1	9.2
2026-01-06 18:50:02.631236	225.0	27.8	-63.1	9.3
2026-01-06 18:50:04.865252	225.6	28.1	-64.1	9.9
2026-01-06 18:50:07.098755	226.2	28.3	-63.6	9.4
2026-01-06 18:50:09.329770	226.8	28.6	-64.2	10.1
2026-01-06 18:50:11.565282	227.4	28.8	-63.1	9.3
2026-01-06 18:50:13.801307	228.0	29.1	-63.1	6.9
2026-01-06 18:50:16.036315	228.6	29.3	-63.6	9.7
2026-01-06 18:50:18.269323	229.2	29.5	-64.1	10.7
2026-01-06 18:50:20.500833	229.9	29.8	-64.3	9.2
2026-01-06 18:50:22.741354	230.5	30.0	-62.8	7.8
2026-01-06 18:50:24.986364	231.2	30.3	-63.8	8.6
2026-01-06 18:50:27.231374	231.9	30.5	-63.0	7.3
2026-01-06 18:50:29.474392	232.5	30.7	-63.3	6.2
2026-01-06 18:50:31.717906	233.2	30.9	-62.6	7.3
2026-01-06 18:50:33.961420	233.9	31.2	-61.4	4.9
2026-01-06 18:50:36.205926	234.6	31.4	-62.2	6.8
2026-01-06 18:50:38.454443	235.4	31.6	-59.5	1.1
2026-01-06 18:50:40.691946	236.1	31.8	-59.0	2.7
2026-01-06 18:50:42.925963	236.8	32.0	-61.1	6.7
2026-01-06 18:50:45.157980	237.6	32.3	-60.2	4.0
2026-01-06 18:50:47.389997	238.3	32.5	-58.3	2.0
2026-01-06 18:50:49.624005	239.1	32.7	-59.7	3.0
2026-01-06 18:50:51.857012	239.9	32.9	-61.1	5.8
2026-01-06 18:50:54.092020	240.6	33.1	-60.8	2.9
2026-01-06 18:50:56.325550	241.4	33.2	-60.0	2.3
2026-01-06 18:50:58.559069	242.2	33.4	-59.4	2.4
2026-01-06 18:51:00.796077	243.0	33.6	-58.6	3.0
2026-01-06 18:51:03.031589	243.9	33.8	-59.0	2.6
2026-01-06 18:51:05.266102	244.7	33.9	-59.1	1.9
2026-01-06 18:51:07.503109	245.5	34.1	-58.2	0.0
2026-01-06 18:51:09.737613	246.4	34.3	-58.0	0.8
2026-01-06 18:51:11.973621	247.2	34.4	-60.5	2.5
2026-01-06 18:51:14.208629	248.1	34.5	-61.6	4.3
2026-01-06 18:51:16.452148	248.9	34.7	-60.9	1.7
2026-01-06 18:51:18.690652	249.8	34.8	-61.8	5.0
2026-01-06 18:51:20.923171	250.7	34.9	-60.3	2.1
2026-01-06 18:51:23.163181	251.6	35.1	-60.3	3.0
2026-01-06 18:51:25.400188	252.5	35.2	-61.5	6.5
2026-01-06 18:51:27.635700	253.4	35.3	-62.0	5.5
2026-01-06 18:51:29.871212	254.3	35.4	-62.6	6.8
2026-01-06 18:51:32.106228	255.2	35.4	-62.1	5.1
2026-01-06 18:51:34.339243	256.1	35.5	-62.4	5.6
2026-01-06 18:51:36.572249	257.0	35.6	-62.9	6.8
2026-01-06 18:51:38.805257	257.9	35.7	-62.7	5.6
2026-01-06 18:51:41.038769	258.8	35.7	-62.9	6.0
2026-01-06 18:51:43.270778	259.8	35.8	-63.7	7.3
2026-01-06 18:51:45.506794	260.7	35.8	-63.0	5.7
2026-01-06 18:51:47.739810	261.6	35.8	-63.4	7.3
2026-01-06 18:51:49.983324	262.5	35.9	-62.5	3.8
2026-01-06 18:51:52.226341	263.5	35.9	-63.3	6.1
2026-01-06 18:51:54.469855	264.4	35.9	-63.9	6.2
2026-01-06 18:51:56.713371	265.3	35.9	-62.5	6.0
2026-01-06 18:51:58.952395	266.3	35.9	-63.1	8.4
2026-01-06 18:52:01.196405	267.2	35.8	-63.4	5.7
2026-01-06 18:52:03.438919	268.1	35.8	-62.9	6.1
2026-01-06 18:52:05.669438	269.1	35.8	-62.2	2.7
2026-01-06 18:52:07.899445	270.0	35.7	-62.4	5.3
2026-01-06 18:52:10.131452	270.9	35.7	-61.7	5.5
2026-01-06 18:52:12.370965	271.8	35.6	-62.4	3.3
2026-01-06 18:52:14.602980	272.7	35.6	-64.3	7.9
2026-01-06 18:52:16.833498	273.7	35.5	-62.7	5.5
2026-01-06 18:52:19.067002	274.6	35.4	-63.5	6.2
2026-01-06 18:52:21.299528	275.5	35.3	-64.0	8.3
2026-01-06 18:52:23.535065	276.4	35.2	-63.5	6.6
2026-01-06 18:52:25.767585	277.2	35.1	-65.5	8.9
2026-01-06 18:52:28.001600	278.1	35.0	-65.0	8.3
2026-01-06 18:52:30.233607	279.0	34.9	-64.4	9.3
2026-01-06 18:52:32.465128	279.9	34.7	-64.1	7.3
2026-01-06 18:52:34.697640	280.7	34.6	-64.2	8.8
2026-01-06 18:52:36.927647	281.6	34.5	-62.5	7.6
2026-01-06 18:52:39.159158	282.5	34.3	-62.2	7.8
2026-01-06 18:52:41.388164	283.3	34.2	-63.9	7.2
2026-01-06 18:52:43.623677	284.1	34.0	-63.7	7.3
2026-01-06 18:52:45.856684	285.0	33.9	-64.6	9.4
2026-01-06 18:52:48.088203	285.8	33.7	-64.8	9.1
2026-01-06 18:52:50.319210	286.6	33.5	-63.7	8.5
2026-01-06 18:52:52.548720	287.4	33.3	-64.5	5.6
2026-01-06 18:52:54.783233	288.2	33.1	-64.4	9.5
2026-01-06 18:52:57.017736	289.0	33.0	-64.5	6.5
2026-01-06 18:52:59.246750	289.7	32.8	-63.8	7.6
2026-01-06 18:53:01.478758	290.5	32.6	-64.4	9.8
2026-01-06 18:53:03.714262	291.2	32.4	-64.6	9.8
2026-01-06 18:53:05.957280	292.0	32.2	-64.3	9.5
2026-01-06 18:53:08.202291	292.7	31.9	-65.1	10.2
2026-01-06 18:53:10.444814	293.5	31.7	-65.2	11.3
2026-01-06 18:53:12.686347	294.2	31.5	-64.2	8.9
2026-01-06 18:53:14.929375	294.9	31.3	-64.9	10.0
2026-01-06 18:53:17.171409	295.6	31.1	-65.5	10.5
2026-01-06 18:53:19.409434	296.3	30.8	-65.9	10.8
2026-01-06 18:53:21.641936	297.0	30.6	-65.2	9.7
2026-01-06 18:53:23.878449	297.6	30.4	-66.1	11.8
2026-01-06 18:53:26.110456	298.3	30.2	-65.9	10.2
2026-01-06 18:53:28.341975	298.9	29.9	-65.9	11.1
2026-01-06 18:53:30.575487	299.6	29.7	-65.3	11.6
2026-01-06 18:53:32.810503	300.2	29.4	-65.6	11.1
2026-01-06 18:53:35.045015	300.8	29.2	-65.3	11.5
2026-01-06 18:53:37.276022	301.5	29.0	-65.3	11.0
2026-01-06 18:53:39.508036	302.1	28.7	-65.3	10.6
2026-01-06 18:53:41.739043	302.6	28.5	-65.2	8.7
2026-01-06 18:53:43.971555	303.2	28.2	-66.0	12.2
2026-01-06 18:53:46.206571	303.8	28.0	-65.9	11.7
2026-01-06 18:53:48.439073	304.4	27.7	-66.3	12.5
2026-01-06 18:53:50.672585	304.9	27.5	-66.8	12.6
2026-01-06 18:53:52.906593	305.5	27.2	-66.2	11.2
2026-01-06 18:53:55.137112	306.0	27.0	-66.3	12.0
2026-01-06 18:53:57.367624	306.6	26.7	-66.2	12.0
2026-01-06 18:53:59.601136	307.1	26.5	-66.7	12.3
2026-01-06 18:54:01.833638	307.6	26.2	-66.2	11.8
2026-01-06 18:54:04.066645	308.1	26.0	-65.4	10.0
2026-01-06 18:54:06.299653	308.6	25.8	-66.2	10.8
2026-01-06 18:54:08.535677	309.1	25.5	-65.9	10.8
2026-01-06 18:54:10.768180	309.6	25.3	-66.3	12.2
2026-01-06 18:54:13.000186	310.1	25.0	-66.3	12.2
2026-01-06 18:54:15.232194	310.6	24.8	-66.0	11.6
2026-01-06 18:54:17.465704	311.0	24.5	-66.2	10.9
2026-01-06 18:54:19.701711	311.5	24.3	-66.2	12.1
2026-01-06 18:54:21.934718	311.9	24.0	-66.4	13.2
2026-01-06 18:54:24.168222	312.4	23.8	-65.8	12.4
2026-01-06 18:54:26.399743	312.8	23.5	-65.9	12.0
2026-01-06 18:54:28.638788	313.3	23.3	-66.2	12.2
2026-01-06 18:54:30.884799	313.7	23.0	-66.2	11.6
2026-01-06 18:54:33.123303	314.1	22.8	-66.2	11.7
2026-01-06 18:54:35.352309	314.5	22.5	-65.8	10.4
2026-01-06 18:54:37.586316	314.9	22.3	-66.1	11.1
2026-01-06 18:54:39.824333	315.3	22.1	-65.9	11.7
2026-01-06 18:54:42.067847	315.7	21.8	-66.0	10.7
2026-01-06 18:54:44.308369	316.1	21.6	-66.0	10.5
2026-01-06 18:54:46.552387	316.5	21.3	-65.5	10.4
2026-01-06 18:54:48.794413	316.9	21.1	-65.3	8.7
2026-01-06 18:54:51.034927	317.2	20.9	-65.3	10.0
2026-01-06 18:54:53.266934	317.6	20.6	-65.7	10.0
2026-01-06 18:54:55.505456	318.0	20.4	-66.1	10.5
2026-01-06 18:54:57.737472	318.3	20.2	-66.0	10.8
2026-01-06 18:54:59.969975	318.7	19.9	-66.0	9.8
2026-01-06 18:55:02.200982	319.0	19.7	-65.9	10.3
2026-01-06 18:55:04.432492	319.3	19.5	-66.1	9.6
2026-01-06 18:55:06.665499	319.7	19.3	-65.6	9.0
2026-01-06 18:55:08.894514	320.0	19.0	-65.6	10.2
2026-01-06 18:55:11.125025	320.3	18.8	-64.0	6.7
2026-01-06 18:55:13.358033	320.7	18.6	-65.6	7.4
2026-01-06 18:55:15.588535	321.0	18.4	-65.8	9.4
2026-01-06 18:55:17.821551	321.3	18.1	-64.6	7.4
2026-01-06 18:55:20.055063	321.6	17.9	-64.9	7.4
2026-01-06 18:55:22.285566	321.9	17.7	-65.3	7.8
2026-01-06 18:55:24.517068	322.2	17.5	-64.8	7.5
2026-01-06 18:55:26.748580	322.5	17.3	-64.3	6.2
2026-01-06 18:55:28.979082	322.8	17.0	-65.0	7.3
2026-01-06 18:55:31.209585	323.1	16.8	-64.7	7.5
2026-01-06 18:55:33.440087	323.3	16.6	-64.8	7.5
2026-01-06 18:55:35.671597	323.6	16.4	-64.3	5.8
2026-01-06 18:55:37.902117	323.9	16.2	-63.9	6.5
2026-01-06 18:55:40.136125	324.2	16.0	-64.6	7.2
2026-01-06 18:55:42.366635	324.4	15.8	-64.5	6.4
2026-01-06 18:55:44.599641	324.7	15.6	-64.8	6.3
2026-01-06 18:55:46.830649	324.9	15.4	-64.2	6.2
2026-01-06 18:55:49.061656	325.2	15.2	-65.0	6.4
2026-01-06 18:55:51.299160	325.5	15.0	-65.2	8.3
2026-01-06 18:55:53.529670	325.7	14.8	-65.3	7.9
2026-01-06 18:55:55.761173	326.0	14.6	-65.3	7.7
2026-01-06 18:55:57.993684	326.2	14.4	-65.3	7.8
2026-01-06 18:56:00.229201	326.4	14.2	-66.3	9.2
2026-01-06 18:56:02.469723	326.7	14.0	-66.1	9.0
2026-01-06 18:56:04.713740	326.9	13.8	-66.2	9.2
2026-01-06 18:56:06.957750	327.1	13.6	-66.4	9.2
2026-01-06 18:56:09.202256	327.4	13.4	-65.6	8.6
2026-01-06 18:56:11.448273	327.6	13.2	-65.3	7.4
2026-01-06 18:56:13.690299	327.8	13.0	-65.2	6.7
2026-01-06 18:56:15.934813	328.0	12.8	-65.2	6.7
2026-01-06 18:56:18.176327	328.3	12.6	-65.7	6.8
2026-01-06 18:56:20.409335	328.5	12.4	-65.3	7.5
2026-01-06 18:56:22.642838	328.7	12.2	-65.2	8.0
2026-01-06 18:56:24.876350	328.9	12.0	-65.3	6.6
2026-01-06 18:56:27.108356	329.1	11.9	-65.2	6.2
2026-01-06 18:56:29.338370	329.3	11.7	-65.6	6.4
2026-01-06 18:56:31.569873	329.5	11.5	-65.3	6.2
2026-01-06 18:56:33.801889	329.7	11.3	-65.4	6.7
2026-01-06 18:56:36.035401	329.9	11.1	-64.6	5.7
2026-01-06 18:56:38.266912	330.1	11.0	-65.4	6.0
2026-01-06 18:56:40.500433	330.3	10.8	-65.2	6.4
2026-01-06 18:56:42.730935	330.5	10.6	-65.4	6.0
2026-01-06 18:56:44.964959	330.7	10.4	-65.3	5.4
2026-01-06 18:56:47.197462	330.9	10.2	-65.2	5.4
2026-01-06 18:56:49.427972	331.0	10.1	-64.8	5.1
2026-01-06 18:56:51.662484	331.2	9.9	-64.8	4.7
2026-01-06 18:56:53.893986	331.4	9.7	-64.9	4.9
2026-01-06 18:56:56.124489	331.6	9.6	-64.5	4.2
2026-01-06 18:56:58.356999	331.8	9.4	-64.0	4.1
2026-01-06 18:57:00.591007	331.9	9.2	-64.4	3.7
2026-01-06 18:57:02.827014	332.1	9.1	-64.4	2.8
2026-01-06 18:57:05.058526	332.3	8.9	-65.1	4.8
2026-01-06 18:57:07.290534	332.4	8.7	-66.0	5.5
2026-01-06 18:57:09.523045	332.6	8.6	-65.9	3.6
2026-01-06 18:57:11.756069	332.8	8.4	-65.4	4.1
2026-01-06 18:57:13.987580	332.9	8.2	-65.6	8.0
2026-01-06 18:57:16.218587	333.1	8.1	-65.4	7.0
2026-01-06 18:57:18.451602	333.3	7.9	-65.2	3.9
2026-01-06 18:57:20.682104	333.4	7.7	-65.2	4.7
2026-01-06 18:57:22.926618	333.6	7.6	-65.3	6.3
2026-01-06 18:57:25.170628	333.7	7.4	-65.6	4.9
2026-01-06 18:57:27.414143	333.9	7.3	-64.6	1.0
2026-01-06 18:57:29.658649	334.0	7.1	-65.2	1.7
2026-01-06 18:57:31.902164	334.2	6.9	-65.6	5.7
2026-01-06 18:57:34.143181	334.3	6.8	-65.5	4.4
2026-01-06 18:57:36.382197	334.5	6.6	-64.0	0.5
2026-01-06 18:57:38.617708	334.6	6.5	-64.7	4.7
2026-01-06 18:57:40.851732	334.8	6.3	-64.2	4.6
2026-01-06 18:57:43.085739	334.9	6.2	-65.5	3.0
2026-01-06 18:57:45.320260	335.1	6.0	-66.6	7.3
2026-01-06 18:57:47.552275	335.2	5.9	-69.5	0.0
2026-01-06 18:57:49.783291	335.3	5.7	-68.2	0.0
2026-01-06 18:57:52.015306	335.5	5.6	-68.8	0.0
2026-01-06 18:57:54.244809	335.6	5.4	-69.0	0.0
2026-01-06 18:57:56.474311	335.7	5.3	-71.1	0.0
2026-01-06 18:57:58.702326	335.9	5.1	-71.7	0.0
#Closed at: 2026-01-06 18:45:47.919143