passes_logs/2026/01/06/PlanumMoscow/PlanumMoscow__20260106_175258_METOP-C_rec.log

#Pass ID: 20260106_175258_METOP-C
#Satellite: METOP-C
#Configuration: METOP-C
#Start time: 2026-01-06 17:53:03.197663

#LorettStation: 1.0.0 05.05.2024
#Station: PlanumMoscow
#Location: 37.6253844 lon 55.6713361 lat
#TLE: 1 43689U 18087A   25293.88981035  .00000265  00000+0  14109-3 0  9997
#TLE: 2 43689  98.7006 352.4487 0002041 122.1097 238.0279 14.21482740360838

#Time	Az	El	Level	SNR
2026-01-06 17:56:41.709694	152.2	29.7	-65.7	7.7
2026-01-06 17:56:43.953207	152.1	30.1	-64.8	4.7
2026-01-06 17:56:46.197217	152.0	30.6	-65.8	6.8
2026-01-06 17:56:48.440722	151.9	31.0	-66.1	6.8
2026-01-06 17:56:50.684732	151.7	31.5	-65.8	5.9
2026-01-06 17:56:52.928741	151.6	31.9	-66.0	6.3
2026-01-06 17:56:55.173247	151.5	32.4	-66.4	7.4
2026-01-06 17:56:57.417264	151.4	32.8	-66.4	8.0
2026-01-06 17:56:59.660786	151.3	33.3	-66.6	8.0
2026-01-06 17:57:01.899794	151.2	33.8	-66.1	6.6
2026-01-06 17:57:04.135810	151.0	34.3	-66.1	7.7
2026-01-06 17:57:06.366816	150.9	34.8	-66.3	7.0
2026-01-06 17:57:08.603344	150.8	35.3	-66.4	7.1
2026-01-06 17:57:10.834847	150.6	35.8	-66.3	6.6
2026-01-06 17:57:13.063357	150.5	36.3	-66.9	7.6
2026-01-06 17:57:15.297374	150.3	36.8	-66.5	6.3
2026-01-06 17:57:17.527885	150.2	37.4	-66.7	6.7
2026-01-06 17:57:19.760396	150.0	37.9	-66.8	6.7
2026-01-06 17:57:21.992403	149.9	38.5	-67.4	7.4
2026-01-06 17:57:24.226419	149.7	39.0	-67.3	7.1
2026-01-06 17:57:26.456426	149.5	39.6	-66.9	5.9
2026-01-06 17:57:28.690433	149.3	40.2	-67.2	6.6
2026-01-06 17:57:30.922474	149.1	40.8	-67.4	7.1
2026-01-06 17:57:33.155490	148.9	41.4	-67.2	5.6
2026-01-06 17:57:35.386496	148.7	42.0	-67.6	5.7
2026-01-06 17:57:37.617006	148.5	42.6	-68.0	6.5
2026-01-06 17:57:39.848020	148.3	43.2	-67.6	5.7
2026-01-06 17:57:42.079523	148.1	43.9	-67.7	5.2
2026-01-06 17:57:44.312042	147.8	44.5	-67.9	4.6
2026-01-06 17:57:46.544545	147.6	45.2	-68.1	5.4
2026-01-06 17:57:48.777056	147.3	45.9	-68.7	5.2
2026-01-06 17:57:51.009062	147.0	46.5	-68.8	5.4
2026-01-06 17:57:53.240077	146.7	47.2	-69.0	4.7
2026-01-06 17:57:55.474596	146.4	47.9	-69.0	4.7
2026-01-06 17:57:57.704106	146.1	48.6	-68.8	4.7
2026-01-06 17:57:59.938113	145.8	49.4	-69.1	4.5
2026-01-06 17:58:02.169616	145.4	50.1	-69.0	3.8
2026-01-06 17:58:04.410625	145.1	50.8	-69.1	4.1
2026-01-06 17:58:06.657635	144.7	51.6	-68.9	2.8
2026-01-06 17:58:08.901148	144.3	52.4	-69.1	1.9
2026-01-06 17:58:11.143669	143.8	53.2	-69.5	0.0
2026-01-06 17:58:13.386686	143.4	53.9	-69.8	0.9
2026-01-06 17:58:15.630696	142.9	54.7	-70.0	0.0
2026-01-06 17:58:17.872705	142.4	55.6	-70.6	0.0
2026-01-06 17:58:20.103712	141.8	56.4	-70.8	0.0
2026-01-06 17:58:22.336718	141.3	57.2	-70.2	0.0
2026-01-06 17:58:24.564724	140.7	58.0	-70.3	0.0
2026-01-06 17:58:26.793226	140.0	58.9	-71.0	0.0
2026-01-06 17:58:29.026233	139.3	59.7	-70.5	0.0
2026-01-06 17:58:31.258240	138.6	60.6	-70.4	0.0
2026-01-06 17:58:33.488742	137.8	61.5	-70.2	0.0
2026-01-06 17:58:35.720262	137.0	62.3	-69.9	0.0
2026-01-06 17:58:37.937588	136.1	63.2	-69.7	0.0
2026-01-06 17:58:40.170596	135.1	64.1	-69.2	0.0
2026-01-06 17:58:42.400602	134.0	65.0	-69.2	0.0
2026-01-06 17:58:44.634122	132.9	65.9	-69.1	0.0
2026-01-06 17:58:46.863624	131.6	66.7	-69.7	0.0
2026-01-06 17:58:49.095631	130.3	67.6	-70.1	0.0
2026-01-06 17:58:51.326142	128.8	68.5	-69.5	0.0
2026-01-06 17:58:53.558645	127.2	69.4	-70.0	0.0
2026-01-06 17:58:55.789651	125.4	70.3	-70.4	0.0
2026-01-06 17:58:58.027172	123.5	71.1	-69.4	0.0
2026-01-06 17:59:00.259683	121.3	72.0	-71.0	0.0
2026-01-06 17:59:02.490698	119.0	72.8	-70.8	0.0
2026-01-06 17:59:04.722705	116.4	73.6	-70.5	0.0
2026-01-06 17:59:06.952711	113.5	74.3	-70.7	0.0
2026-01-06 17:59:09.186719	110.3	75.1	-70.0	0.0
2026-01-06 17:59:11.416734	106.8	75.8	-70.6	0.0
2026-01-06 17:59:13.645244	102.9	76.4	-70.8	0.0
2026-01-06 17:59:15.872259	98.7	76.9	-71.0	0.0
2026-01-06 17:59:18.106779	94.1	77.4	-70.8	0.0
2026-01-06 17:59:20.335792	89.2	77.8	-70.6	0.0
2026-01-06 17:59:22.566807	84.0	78.2	-70.3	0.0
2026-01-06 17:59:24.798822	78.5	78.4	-70.3	0.0
2026-01-06 17:59:27.028333	72.8	78.5	-70.9	0.0
2026-01-06 17:59:29.259843	67.1	78.5	-70.5	0.0
2026-01-06 17:59:31.497355	61.5	78.4	-70.5	0.0
2026-01-06 17:59:33.728865	56.0	78.1	-69.8	0.0
2026-01-06 17:59:35.959376	50.8	77.8	-70.6	0.0
2026-01-06 17:59:38.190887	45.9	77.4	-70.3	0.0
2026-01-06 17:59:40.421389	41.4	76.9	-70.1	0.0
2026-01-06 17:59:42.657398	37.2	76.3	-70.5	0.0
2026-01-06 17:59:44.900424	33.4	75.7	-70.5	0.0
2026-01-06 17:59:47.142944	29.9	75.0	-70.7	0.0
2026-01-06 17:59:49.386458	26.7	74.3	-70.3	0.0
2026-01-06 17:59:51.620465	23.9	73.5	-70.5	0.0
2026-01-06 17:59:53.850968	21.3	72.7	-70.3	0.0
2026-01-06 17:59:56.092985	19.0	71.9	-70.2	0.0
2026-01-06 17:59:58.335498	16.9	71.0	-70.1	0.0
2026-01-06 18:00:00.584023	14.9	70.2	-67.8	0.0
2026-01-06 18:00:02.827049	13.2	69.3	-69.6	0.0
2026-01-06 18:00:05.058559	11.6	68.4	-70.3	0.0
2026-01-06 18:00:07.289062	10.1	67.5	-70.0	0.0
2026-01-06 18:00:09.526078	8.8	66.6	-68.9	0.0
2026-01-06 18:00:11.755101	7.6	65.8	-68.9	0.0
2026-01-06 18:00:13.982611	6.4	64.9	-69.2	0.0
2026-01-06 18:00:16.216139	5.4	64.0	-69.0	0.0
2026-01-06 18:00:18.446153	4.4	63.1	-68.9	0.0
2026-01-06 18:00:20.674191	3.5	62.2	-68.8	0.0
2026-01-06 18:00:22.908702	2.7	61.4	-68.7	0.0
2026-01-06 18:00:25.141205	1.9	60.5	-69.3	0.0
2026-01-06 18:00:27.373708	1.2	59.6	-68.7	0.0
2026-01-06 18:00:29.609220	0.5	58.8	-68.8	0.0
2026-01-06 18:00:31.845738	359.8	57.9	-68.6	0.0
2026-01-06 18:00:34.092749	359.2	57.1	-67.7	0.0
2026-01-06 18:00:36.330261	358.7	56.3	-68.7	0.0
2026-01-06 18:00:38.566269	358.1	55.5	-69.2	0.0
2026-01-06 18:00:40.807277	357.6	54.7	-67.9	0.0
2026-01-06 18:00:43.044790	357.2	53.9	-69.4	0.0
2026-01-06 18:00:45.275302	356.7	53.1	-68.7	0.0
2026-01-06 18:00:47.503804	356.3	52.3	-68.2	0.0
2026-01-06 18:00:49.734811	355.9	51.6	-68.0	0.0
2026-01-06 18:00:51.970819	355.5	50.8	-68.0	0.0
2026-01-06 18:00:54.205826	355.1	50.1	-69.1	0.0
2026-01-06 18:00:56.435849	354.8	49.3	-68.6	0.0
2026-01-06 18:00:58.668855	354.5	48.6	-68.9	0.0
2026-01-06 18:01:00.904366	354.1	47.9	-66.7	0.0
2026-01-06 18:01:03.138877	353.8	47.2	-69.2	0.0
2026-01-06 18:01:05.371381	353.6	46.5	-68.7	0.0
2026-01-06 18:01:07.601883	353.3	45.9	-68.9	0.0
2026-01-06 18:01:09.834890	353.0	45.2	-69.0	0.0
2026-01-06 18:01:12.065400	352.8	44.5	-69.4	0.0
2026-01-06 18:01:14.302913	352.5	43.9	-68.9	0.0
2026-01-06 18:01:16.546923	352.3	43.2	-68.5	0.0
2026-01-06 18:01:18.793429	352.1	42.6	-68.1	0.0
2026-01-06 18:01:21.037448	351.9	42.0	-68.9	0.0
2026-01-06 18:01:23.280465	351.7	41.4	-68.7	0.0
2026-01-06 18:01:25.524970	351.5	40.8	-68.5	0.0
2026-01-06 18:01:27.767484	351.3	40.2	-67.4	0.0
2026-01-06 18:01:30.002491	351.1	39.6	-68.6	0.0
2026-01-06 18:01:32.239499	350.9	39.1	-67.7	0.0
2026-01-06 18:01:34.483013	350.7	38.5	-68.3	0.0
2026-01-06 18:01:36.721028	350.6	37.9	-68.4	0.0
2026-01-06 18:01:38.952539	350.4	37.4	-67.1	0.0
2026-01-06 18:01:41.184059	350.3	36.9	-67.5	0.0
2026-01-06 18:01:43.422087	350.1	36.3	-67.0	0.0
2026-01-06 18:01:45.653093	350.0	35.8	-66.6	0.0
2026-01-06 18:01:47.885100	349.8	35.3	-67.0	0.0
2026-01-06 18:01:50.118612	349.7	34.8	-66.6	0.0
2026-01-06 18:01:52.350123	349.6	34.3	-66.6	0.0
2026-01-06 18:01:54.583643	349.4	33.8	-66.6	2.3
2026-01-06 18:01:56.814657	349.3	33.4	-66.8	1.5
2026-01-06 18:01:59.048176	349.2	32.9	-67.0	0.5
2026-01-06 18:02:01.280679	349.1	32.4	-66.2	0.0
2026-01-06 18:02:03.512190	349.0	32.0	-66.2	0.5
2026-01-06 18:02:05.742692	348.9	31.5	-66.2	2.9
2026-01-06 18:02:07.972699	348.8	31.1	-66.4	1.5
2026-01-06 18:02:10.205218	348.7	30.6	-66.5	2.0
2026-01-06 18:02:12.438233	348.6	30.2	-66.3	3.2
2026-01-06 18:02:14.667735	348.5	29.8	-66.5	4.1
2026-01-06 18:02:16.899255	348.4	29.4	-64.9	2.2
2026-01-06 18:02:19.131758	348.3	29.0	-65.3	3.7
2026-01-06 18:02:21.362765	348.2	28.6	-64.5	3.9
2026-01-06 18:02:23.602285	348.1	28.2	-65.2	1.9
2026-01-06 18:02:25.835293	348.0	27.8	-66.0	6.2
2026-01-06 18:02:28.068796	348.0	27.4	-65.9	5.1
2026-01-06 18:02:30.299810	347.9	27.0	-65.5	4.6
2026-01-06 18:02:32.533817	347.8	26.6	-65.3	4.0
2026-01-06 18:02:34.768824	347.7	26.2	-66.4	6.2
2026-01-06 18:02:37.006841	347.7	25.9	-66.3	5.0
2026-01-06 18:02:39.248866	347.6	25.5	-66.0	4.8
2026-01-06 18:02:41.492876	347.5	25.1	-66.0	5.5
2026-01-06 18:02:43.737893	347.4	24.8	-65.4	5.8
2026-01-06 18:02:45.982399	347.4	24.4	-65.6	7.1
2026-01-06 18:02:48.224921	347.3	24.1	-65.6	5.8
2026-01-06 18:02:50.467939	347.3	23.8	-65.5	7.3
2026-01-06 18:02:52.703955	347.2	23.4	-65.1	4.7
2026-01-06 18:02:54.936962	347.1	23.1	-65.6	5.5
2026-01-06 18:02:57.167970	347.1	22.8	-64.0	3.6
2026-01-06 18:02:59.398488	347.0	22.4	-63.9	5.0
2026-01-06 18:03:01.630502	347.0	22.1	-64.4	5.5
2026-01-06 18:03:03.859004	346.9	21.8	-64.9	5.7
2026-01-06 18:03:06.089506	346.9	21.5	-65.0	5.7
2026-01-06 18:03:08.319016	346.8	21.2	-65.4	6.7
2026-01-06 18:03:10.552023	346.8	20.9	-65.0	6.6
2026-01-06 18:03:12.783541	346.7	20.6	-65.2	7.3
2026-01-06 18:03:15.021061	346.7	20.3	-64.4	5.9
2026-01-06 18:03:17.251067	346.6	20.0	-64.2	5.6
2026-01-06 18:03:19.482578	346.6	19.7	-65.1	7.0
2026-01-06 18:03:21.714096	346.5	19.4	-64.6	4.3
2026-01-06 18:03:23.947111	346.5	19.1	-64.8	2.8
2026-01-06 18:03:26.180631	346.4	18.9	-65.4	6.5
2026-01-06 18:03:28.412646	346.4	18.6	-64.9	6.1
2026-01-06 18:03:30.641156	346.3	18.3	-65.5	6.9
2026-01-06 18:03:32.874163	346.3	18.0	-64.4	6.1
2026-01-06 18:03:35.107170	346.3	17.8	-64.6	5.7
2026-01-06 18:03:37.339673	346.2	17.5	-64.6	5.2
2026-01-06 18:03:39.572679	346.2	17.2	-65.2	6.0
2026-01-06 18:03:41.805191	346.2	17.0	-64.5	5.7
2026-01-06 18:03:44.038206	346.1	16.7	-65.0	5.0
2026-01-06 18:03:46.270717	346.1	16.5	-64.9	5.6
2026-01-06 18:03:48.501228	346.0	16.2	-65.1	4.8
2026-01-06 18:03:50.733730	346.0	16.0	-64.7	5.0
2026-01-06 18:03:52.966746	346.0	15.7	-64.6	5.4
2026-01-06 18:03:55.198249	345.9	15.5	-63.1	2.7
2026-01-06 18:03:57.426759	345.9	15.3	-64.0	3.4
2026-01-06 18:03:59.662767	345.9	15.0	-64.9	2.9
2026-01-06 18:04:01.893277	345.9	14.8	-65.1	4.8
2026-01-06 18:04:04.124285	345.8	14.5	-65.0	3.8
2026-01-06 18:04:06.353291	345.8	14.3	-64.8	3.7
2026-01-06 18:04:08.596302	345.8	14.1	-64.2	1.3
2026-01-06 18:04:10.842825	345.7	13.9	-64.4	3.6
2026-01-06 18:04:13.086349	345.7	13.6	-64.9	5.1
2026-01-06 18:04:15.330359	345.7	13.4	-65.1	4.0
2026-01-06 18:04:17.573873	345.7	13.2	-63.6	3.1
2026-01-06 18:04:19.817385	345.6	13.0	-65.1	3.0
2026-01-06 18:04:22.061394	345.6	12.7	-64.9	2.3
2026-01-06 18:04:24.295410	345.6	12.5	-64.4	3.2
2026-01-06 18:04:26.530417	345.6	12.3	-64.5	2.2
2026-01-06 18:04:28.761920	345.5	12.1	-65.0	3.1
2026-01-06 18:04:30.995927	345.5	11.9	-64.7	3.2
2026-01-06 18:04:33.227437	345.5	11.7	-64.3	2.9
2026-01-06 18:04:35.458444	345.5	11.5	-64.6	3.6
2026-01-06 18:04:37.690955	345.4	11.3	-64.1	0.9
2026-01-06 18:04:39.924458	345.4	11.1	-64.3	2.2
2026-01-06 18:04:42.158961	345.4	10.9	-64.8	4.5
2026-01-06 18:04:44.390480	345.4	10.7	-65.0	3.6
2026-01-06 18:04:46.628992	345.4	10.5	-65.3	3.3
2026-01-06 18:04:48.859998	345.3	10.3	-65.0	2.5
2026-01-06 18:04:51.093014	345.3	10.1	-65.1	2.2
2026-01-06 18:04:53.322517	345.3	9.9	-65.2	2.5
2026-01-06 18:04:55.552027	345.3	9.7	-65.2	3.6
2026-01-06 18:04:57.788539	345.3	9.5	-65.3	3.4
2026-01-06 18:05:00.021050	345.2	9.3	-65.0	2.5
2026-01-06 18:05:02.249552	345.2	9.1	-64.8	1.4
2026-01-06 18:05:04.479567	345.2	8.9	-64.7	1.7
2026-01-06 18:05:06.709573	345.2	8.8	-64.4	1.4
2026-01-06 18:05:08.945084	345.2	8.6	-65.4	1.8
2026-01-06 18:05:11.177587	345.2	8.4	-65.1	1.0
2026-01-06 18:05:13.408089	345.1	8.2	-63.7	0.0
2026-01-06 18:05:15.638095	345.1	8.0	-64.4	0.0
2026-01-06 18:05:17.871103	345.1	7.9	-64.9	2.0
2026-01-06 18:05:20.105110	345.1	7.7	-64.3	0.4
2026-01-06 18:05:22.333620	345.1	7.5	-64.2	0.0
2026-01-06 18:05:24.564132	345.1	7.3	-64.6	0.0
2026-01-06 18:05:26.796147	345.0	7.2	-64.9	2.1
2026-01-06 18:05:29.028667	345.0	7.0	-64.5	0.0
2026-01-06 18:05:31.264191	345.0	6.8	-64.0	1.5
2026-01-06 18:05:33.496207	345.0	6.6	-64.4	2.5
2026-01-06 18:05:35.729718	345.0	6.5	-64.3	1.3
2026-01-06 18:05:37.960725	345.0	6.3	-63.9	0.0
2026-01-06 18:05:40.193236	345.0	6.1	-63.1	0.0
2026-01-06 18:05:42.424755	345.0	6.0	-64.8	5.0
2026-01-06 18:05:44.656267	344.9	5.8	-69.7	0.0
2026-01-06 18:05:46.887273	344.9	5.6	-69.0	0.0
2026-01-06 18:05:49.118784	344.9	5.5	-70.0	0.0
2026-01-06 18:05:51.347286	344.9	5.3	-70.7	0.0
2026-01-06 18:05:53.576805	344.9	5.2	-71.6	0.0
2026-01-06 18:05:55.806316	344.9	5.0	-72.1	0.0
#Closed at: 2026-01-06 17:52:58.198597