passes_logs/2026/01/05/T1/T1__20260105_230335_SUOMI_NPP_rec.log

#Pass ID: 20260105_230335_SUOMI NPP
#Satellite: SUOMI NPP
#Configuration: NPP
#almurnet v.1.7.20251203
#Start time: 2026-01-05 23:03:36

#Version: 2.0.20230620
#Station: T1
#Location: 37.570604 lon 55.790049 lat
#TLE: 1 37849U 11061A   26004.95404768  .00000136  00000+0  85334-4 0  9991
#TLE: 2 37849  98.7801 307.0898 0002575  80.6707 279.4760 14.19522289735281

#Time	Az	El	Level	Level2	SNR	BER	BlckErr	Temp	State	Recorded	gain1	gain2
2026-01-05 23:03:36.83	21.63	5.11	-49.2	-65.6	3.8	1.49e+00	0	39	0	0	70	23180
2026-01-05 23:03:39.84	21.76	5.31	-49.2	-65.5	3.8	1.49e+00	0	40	104	0	69	24254
2026-01-05 23:03:42.85	21.89	5.52	-49.2	-65.5	3.8	1.49e+00	0	40	104	0	69	24359
2026-01-05 23:03:45.87	22.02	5.73	-49.2	-65.6	3.8	1.49e+00	0	40	104	0	69	24449
2026-01-05 23:03:48.88	22.16	5.95	-49.2	-65.6	3.8	1.49e+00	0	40	104	0	69	24493
2026-01-05 23:03:51.89	22.29	6.16	-49.2	-65.5	3.8	1.49e+00	0	40	104	0	69	24332
2026-01-05 23:03:54.91	22.43	6.37	-49.2	-65.5	3.8	1.49e+00	0	40	104	0	69	24248
2026-01-05 23:03:57.92	22.57	6.59	-49.2	-65.3	3.8	1.49e+00	0	40	104	0	69	23745
2026-01-05 23:04:00.93	22.71	6.81	-49.2	-65.3	3.8	1.49e+00	0	40	104	0	69	23748
2026-01-05 23:04:03.95	22.86	7.03	-49.2	-65.5	3.8	1.49e+00	0	40	104	0	69	24338
2026-01-05 23:04:06.96	23.00	7.25	-49.2	-65.3	3.8	1.49e+00	0	41	104	0	69	23653
2026-01-05 23:04:09.97	23.15	7.48	-49.1	-64.4	3.8	1.49e+00	0	41	104	0	69	21365
2026-01-05 23:04:12.98	23.30	7.70	-49.1	-64.0	3.8	1.49e+00	0	41	104	0	69	20488
2026-01-05 23:04:15.99	23.45	7.93	-49.1	-64.4	3.8	1.49e+00	0	41	104	0	69	21444
2026-01-05 23:04:19.01	23.61	8.16	-49.1	-64.6	3.8	1.49e+00	0	41	104	0	69	21762
2026-01-05 23:04:22.02	23.77	8.39	-49.1	-63.9	3.8	1.49e+00	0	41	104	0	69	20283
2026-01-05 23:04:25.03	23.92	8.62	-49.1	-63.0	4.0	1.48e+00	0	41	104	0	69	18140
2026-01-05 23:04:28.04	24.09	8.86	-48.9	-60.4	4.8	9.45e-01	0	41	0	1048576	69	13458
2026-01-05 23:04:31.29	24.26	9.12	-48.8	-59.6	5.3	4.28e-01	0	41	0	7340032	69	12347
2026-01-05 23:04:34.24	24.43	9.35	-49.0	-63.5	3.8	1.48e+00	0	41	104	10485760	68	20381
2026-01-05 23:04:37.85	24.63	9.64	-49.0	-63.6	3.8	1.49e+00	0	41	104	11534336	68	20745
2026-01-05 23:04:40.58	24.78	9.86	-49.1	-63.3	3.8	1.49e+00	0	41	104	11534336	68	20058
2026-01-05 23:04:43.87	24.97	10.13	-46.0	-50.4	13.8	7.70e-02	0	41	0	15728640	63	6038
2026-01-05 23:04:46.59	25.13	10.36	-45.4	-49.4	14.8	7.00e-07	0	41	0	20971520	62	5720
2026-01-05 23:04:49.91	25.33	10.63	-45.3	-49.2	15.0	0.00e+00	0	41	0	26214400	62	5571
2026-01-05 23:04:52.63	25.50	10.86	-45.2	-48.8	15.4	0.00e+00	0	41	0	31457280	62	5326
2026-01-05 23:04:56.02	25.71	11.15	-44.6	-47.9	16.3	0.00e+00	0	41	0	37748736	61	5095
2026-01-05 23:04:58.80	25.88	11.39	-44.6	-47.8	16.3	0.00e+00	0	41	0	42991616	61	5029
2026-01-05 23:05:02.16	26.10	11.68	-44.8	-48.0	16.2	0.00e+00	0	42	0	49283072	60	5455
2026-01-05 23:05:04.88	26.27	11.92	-44.4	-47.4	16.8	0.00e+00	0	41	0	54525952	60	5066
2026-01-05 23:05:08.18	26.49	12.21	-44.2	-47.1	17.1	0.00e+00	0	41	0	60817408	60	4923
2026-01-05 23:05:10.90	26.67	12.45	-44.3	-47.1	17.1	0.00e+00	0	41	0	66060288	60	4901
2026-01-05 23:05:14.19	26.90	12.75	-44.2	-47.0	17.2	0.00e+00	0	41	0	72351744	60	4835
2026-01-05 23:05:16.92	27.09	13.00	-44.0	-46.7	17.4	0.00e+00	0	41	0	77594624	59	4948
2026-01-05 23:05:20.29	27.33	13.31	-43.8	-46.5	17.6	0.00e+00	0	41	0	83886080	59	4854
2026-01-05 23:05:23.07	27.53	13.57	-43.6	-46.3	17.8	0.00e+00	0	41	0	89128960	59	4723
2026-01-05 23:05:26.43	27.78	13.88	-43.7	-46.4	17.7	0.00e+00	0	41	0	95420416	58	5057
2026-01-05 23:05:29.28	27.99	14.15	-43.6	-46.4	17.7	0.00e+00	0	42	0	100663296	58	5077
2026-01-05 23:05:32.58	28.24	14.47	-43.5	-46.3	17.9	0.00e+00	0	41	0	106954752	58	4996
2026-01-05 23:05:35.30	28.45	14.74	-43.6	-46.3	17.9	0.00e+00	0	42	0	112197632	58	5002
2026-01-05 23:05:38.59	28.71	15.06	-43.5	-46.2	17.9	0.00e+00	0	42	0	117440512	58	4932
2026-01-05 23:05:41.32	28.93	15.33	-43.8	-46.4	17.7	0.00e+00	0	42	0	122683392	58	5096
2026-01-05 23:05:44.69	29.21	15.67	-43.8	-46.5	17.7	0.00e+00	0	42	0	128974848	58	5126
2026-01-05 23:05:47.41	29.44	15.94	-43.9	-46.6	17.6	0.00e+00	0	42	0	134217728	58	5202
2026-01-05 23:05:51.05	29.75	16.32	-44.1	-46.8	17.4	0.00e+00	0	42	0	141557760	58	5313
2026-01-05 23:05:53.80	29.99	16.60	-44.0	-46.7	17.5	0.00e+00	0	41	0	146800640	59	4935
2026-01-05 23:05:57.63	30.33	17.01	-43.9	-46.7	17.5	0.00e+00	0	41	0	154140672	59	4956
2026-01-05 23:06:00.42	30.58	17.30	-43.9	-46.7	17.5	0.00e+00	0	42	0	158334976	59	4933
2026-01-05 23:06:04.14	30.93	17.70	-44.2	-47.0	17.2	0.00e+00	0	42	0	165675008	59	5143
2026-01-05 23:06:06.90	31.19	18.00	-44.1	-46.9	17.3	0.00e+00	0	41	0	170917888	59	5054
2026-01-05 23:06:10.23	31.52	18.37	-44.2	-47.0	17.3	0.00e+00	0	41	0	177209344	59	5102
2026-01-05 23:06:12.95	31.79	18.68	-44.1	-46.9	17.3	0.00e+00	0	42	0	182452224	59	5061
2026-01-05 23:06:16.43	32.14	19.07	-44.5	-47.5	16.8	0.00e+00	0	41	0	188743680	59	5434
2026-01-05 23:06:19.15	32.43	19.38	-44.7	-47.9	16.4	0.00e+00	0	42	0	193986560	60	5377
2026-01-05 23:06:22.64	32.80	19.78	-44.5	-47.7	16.7	0.00e+00	0	42	0	200278016	60	5233
2026-01-05 23:06:25.36	33.09	20.10	-44.3	-47.3	17.0	0.00e+00	0	42	0	205520896	60	4991
2026-01-05 23:06:28.65	33.46	20.49	-44.4	-47.4	17.0	0.00e+00	0	42	0	211812352	60	5070
2026-01-05 23:06:31.79	33.81	20.87	-44.3	-47.1	17.2	0.00e+00	0	42	0	218103808	60	4913
2026-01-05 23:06:34.65	34.15	21.22	-44.4	-47.3	17.1	0.00e+00	0	42	0	223346688	60	4985
2026-01-05 23:06:37.92	34.54	21.62	-44.5	-47.4	16.9	0.00e+00	0	42	0	229638144	60	5093
2026-01-05 23:06:40.75	34.88	21.97	-44.4	-47.4	17.0	0.00e+00	0	42	0	234881024	60	5068
2026-01-05 23:06:44.03	35.29	22.38	-44.5	-47.5	16.9	0.00e+00	0	42	0	241172480	60	5127
2026-01-05 23:06:47.10	35.69	22.77	-44.4	-47.4	16.9	0.00e+00	0	42	0	246415360	60	5074
2026-01-05 23:06:50.68	36.16	23.24	-44.3	-47.2	17.2	0.00e+00	0	42	0	252706816	60	4942
2026-01-05 23:06:53.67	36.56	23.63	-44.5	-47.4	16.9	0.00e+00	0	41	0	258998272	60	5085
2026-01-05 23:06:56.68	36.98	24.03	-44.4	-47.2	17.2	0.00e+00	0	42	0	264241152	60	4979
2026-01-05 23:06:59.77	37.42	24.44	-44.5	-47.4	17.0	0.00e+00	0	42	0	270532608	60	5079
2026-01-05 23:07:02.67	37.84	24.83	-44.3	-47.1	17.2	0.00e+00	0	42	0	275775488	60	4926
2026-01-05 23:07:05.81	38.31	25.26	-44.1	-46.8	17.4	0.00e+00	0	42	0	281018368	59	5039
2026-01-05 23:07:09.01	38.80	25.70	-44.1	-46.7	17.6	0.00e+00	0	42	0	287309824	59	4977
2026-01-05 23:07:12.13	39.29	26.14	-44.2	-46.9	17.5	0.00e+00	0	41	0	293601280	59	5043
2026-01-05 23:07:15.45	39.83	26.61	-44.4	-47.2	17.2	0.00e+00	0	42	0	299892736	59	5224
2026-01-05 23:07:18.35	40.31	27.03	-44.3	-47.0	17.4	0.00e+00	0	41	0	305135616	59	5127
2026-01-05 23:07:22.12	40.96	27.58	-44.1	-46.8	17.5	0.00e+00	0	42	0	312475648	59	5017
2026-01-05 23:07:25.05	41.47	28.01	-44.7	-47.7	16.8	0.00e+00	0	41	0	317718528	60	5233
2026-01-05 23:07:28.31	42.07	28.49	-45.5	-48.7	15.9	0.00e+00	0	42	0	324009984	61	5551
2026-01-05 23:07:31.68	42.70	29.00	-45.7	-49.0	15.6	0.00e+00	0	42	0	330301440	62	5424
2026-01-05 23:07:34.83	43.30	29.47	-45.7	-49.1	15.4	0.00e+00	0	42	0	335544320	62	5499
2026-01-05 23:07:37.76	43.89	29.92	-45.8	-49.2	15.3	0.00e+00	0	42	0	341835776	62	5587
2026-01-05 23:07:40.91	44.53	30.41	-45.8	-49.2	15.3	0.00e+00	0	42	0	347078656	62	5583
2026-01-05 23:07:43.95	45.17	30.88	-45.3	-48.5	16.1	0.00e+00	0	42	0	353370112	62	5108
2026-01-05 23:07:46.97	45.82	31.36	-45.3	-48.5	16.1	0.00e+00	0	41	0	358612992	62	5122
2026-01-05 23:07:49.97	46.49	31.83	-45.3	-48.5	16.1	0.00e+00	0	42	0	363855872	62	5134
2026-01-05 23:07:52.98	47.18	32.31	-46.1	-49.6	14.9	0.00e+00	0	42	0	370147328	62	5855
2026-01-05 23:07:55.99	47.89	32.80	-45.8	-49.4	15.2	0.00e+00	0	41	0	375390208	63	5349
2026-01-05 23:07:59.16	48.66	33.31	-45.2	-48.4	16.1	0.00e+00	0	42	0	381681664	62	5069
2026-01-05 23:08:02.03	49.38	33.78	-44.9	-47.9	16.6	0.00e+00	0	42	0	386924544	61	5062
2026-01-05 23:08:05.19	50.19	34.29	-45.1	-48.3	16.2	0.00e+00	0	42	0	393216000	61	5314
2026-01-05 23:08:08.43	51.05	34.82	-45.8	-49.4	15.1	0.00e+00	0	42	0	398458880	62	5706
2026-01-05 23:08:11.29	51.84	35.30	-45.0	-48.2	16.3	0.00e+00	0	42	0	404750336	62	4959
2026-01-05 23:08:14.45	52.73	35.82	-44.2	-47.1	17.3	0.00e+00	0	42	0	409993216	59	5190
2026-01-05 23:08:17.31	53.57	36.29	-44.7	-47.7	16.7	0.00e+00	0	42	0	415236096	59	5579
2026-01-05 23:08:20.54	54.54	36.82	-44.3	-47.3	17.1	0.00e+00	0	42	0	421527552	60	5010
2026-01-05 23:08:23.40	55.42	37.29	-43.8	-46.6	17.7	0.00e+00	0	41	0	426770432	59	4873
2026-01-05 23:08:26.55	56.43	37.81	-44.3	-47.3	17.0	0.00e+00	0	42	0	433061888	59	5313
2026-01-05 23:08:29.42	57.37	38.28	-44.4	-47.4	16.9	0.00e+00	0	41	0	438304768	59	5373
2026-01-05 23:08:32.58	58.44	38.80	-44.6	-47.8	16.6	0.00e+00	0	41	0	444596224	60	5295
2026-01-05 23:08:35.54	59.47	39.28	-43.8	-46.5	17.8	0.00e+00	0	41	0	449839104	59	4832
2026-01-05 23:08:38.76	60.63	39.80	-44.2	-47.0	17.3	0.00e+00	0	42	0	456130560	59	5158
2026-01-05 23:08:41.63	61.70	40.26	-44.1	-46.9	17.5	0.00e+00	0	42	0	461373440	60	4805
2026-01-05 23:08:44.79	62.91	40.75	-44.9	-47.9	16.5	0.00e+00	0	41	0	466616320	60	5397
2026-01-05 23:08:47.66	64.03	41.20	-44.5	-47.4	17.2	0.00e+00	0	41	0	472907776	60	5085
2026-01-05 23:08:50.81	65.31	41.68	-44.2	-46.9	17.5	0.00e+00	0	42	0	478150656	59	5094
2026-01-05 23:08:53.68	66.50	42.11	-45.2	-48.3	16.3	0.00e+00	0	41	0	483393536	61	5291
2026-01-05 23:08:56.84	67.85	42.57	-44.9	-47.9	16.7	0.00e+00	0	41	0	489684992	61	5084
2026-01-05 23:08:59.70	69.11	42.98	-44.8	-47.7	16.9	0.00e+00	0	41	0	494927872	61	4946
2026-01-05 23:09:02.86	70.53	43.41	-45.4	-48.6	16.0	0.00e+00	0	41	0	501219328	61	5470
2026-01-05 23:09:05.73	71.86	43.80	-45.6	-48.9	15.7	0.00e+00	0	41	0	506462208	62	5360
2026-01-05 23:09:08.88	73.35	44.20	-45.5	-48.8	15.9	0.00e+00	0	41	0	512753664	61	5608
2026-01-05 23:09:11.75	74.74	44.56	-46.2	-50.2	14.3	5.30e-06	0	41	0	517996544	64	5540
2026-01-05 23:09:14.91	76.31	44.93	-47.2	-52.0	12.5	2.97e-05	0	42	0	523239424	65	6476
2026-01-05 23:09:17.78	77.76	45.25	-46.0	-49.6	15.0	0.00e+00	0	41	0	528482304	63	5509
2026-01-05 23:09:20.93	79.39	45.58	-47.4	-52.4	12.2	3.86e-04	0	41	0	534773760	65	6736
2026-01-05 23:09:23.80	80.91	45.87	-46.6	-50.8	13.8	1.50e-06	0	42	0	540016640	64	5944
2026-01-05 23:09:26.96	82.61	46.15	-47.1	-52.0	12.5	1.80e-04	0	41	0	546308096	66	6076
2026-01-05 23:09:29.83	84.17	46.39	-46.2	-50.2	14.2	6.80e-06	0	41	0	551550976	64	5576
2026-01-05 23:09:32.98	85.92	46.63	-46.1	-50.0	14.7	0.00e+00	0	41	0	557842432	63	5724
2026-01-05 23:09:35.85	87.53	46.82	-46.0	-49.9	14.8	0.00e+00	0	42	0	563085312	63	5670
2026-01-05 23:09:39.01	89.33	47.00	-44.9	-48.0	16.6	0.00e+00	0	41	0	568328192	61	5103
2026-01-05 23:09:41.87	90.98	47.15	-45.3	-48.4	16.1	0.00e+00	0	42	0	573571072	61	5401
2026-01-05 23:09:45.03	92.81	47.27	-46.8	-51.2	13.4	1.29e-05	0	41	0	579862528	64	6254
2026-01-05 23:09:47.90	94.48	47.36	-45.4	-48.7	15.9	0.00e+00	0	41	0	585105408	62	5274
2026-01-05 23:09:51.06	96.34	47.42	-46.7	-50.9	13.6	1.67e-05	0	41	0	591396864	64	6059
2026-01-05 23:09:53.93	98.03	47.46	-46.1	-49.9	14.8	7.00e-07	0	41	0	596639744	63	5683
2026-01-05 23:09:57.08	99.88	47.46	-46.0	-49.6	15.1	0.00e+00	0	41	0	602931200	63	5492
2026-01-05 23:09:59.95	101.57	47.44	-45.1	-48.3	16.3	0.00e+00	0	42	0	608174080	62	4987
2026-01-05 23:10:03.11	103.43	47.38	-45.3	-48.2	16.4	0.00e+00	0	41	0	613416960	61	5275
2026-01-05 23:10:05.97	105.10	47.30	-45.7	-48.7	16.0	0.00e+00	0	41	0	619708416	62	5257
2026-01-05 23:10:09.12	106.94	47.18	-46.4	-50.0	14.6	0.00e+00	0	41	0	624951296	64	5445
2026-01-05 23:10:11.98	108.59	47.05	-46.9	-50.7	13.9	1.50e-06	0	41	0	630194176	64	5861
2026-01-05 23:10:15.13	110.39	46.88	-45.6	-48.6	16.1	0.00e+00	0	41	0	636485632	63	4891
2026-01-05 23:10:17.99	112.00	46.69	-45.2	-48.0	16.6	0.00e+00	0	41	0	641728512	62	4869
2026-01-05 23:10:21.15	113.76	46.46	-45.1	-47.9	16.7	0.00e+00	0	41	0	648019968	60	5400
2026-01-05 23:10:24.00	115.33	46.23	-45.2	-48.0	16.6	0.00e+00	0	41	0	653262848	62	4852
2026-01-05 23:10:27.15	117.03	45.95	-45.0	-47.8	16.8	0.00e+00	0	41	0	658505728	61	5002
2026-01-05 23:10:30.01	118.56	45.68	-45.6	-48.6	16.1	0.00e+00	0	41	0	664797184	61	5521
2026-01-05 23:10:33.15	120.19	45.35	-47.1	-51.1	13.4	1.60e-05	0	41	0	670040064	65	5847
2026-01-05 23:10:36.00	121.65	45.04	-44.4	-46.9	17.6	0.00e+00	0	41	0	675282944	60	4812
2026-01-05 23:10:39.15	123.23	44.67	-44.4	-47.0	17.5	0.00e+00	0	42	0	681574400	60	4844
2026-01-05 23:10:42.01	124.63	44.32	-44.1	-46.5	17.9	0.00e+00	0	41	0	686817280	58	5156
2026-01-05 23:10:45.16	126.14	43.92	-43.2	-45.4	18.9	0.00e+00	0	41	0	693108736	58	4537
2026-01-05 23:10:48.02	127.47	43.54	-44.0	-46.6	17.9	0.00e+00	0	41	0	698351616	58	5161
2026-01-05 23:10:51.16	128.90	43.11	-42.3	-44.4	19.8	0.00e+00	0	41	0	703594496	56	4533
2026-01-05 23:10:54.03	130.18	42.70	-43.7	-46.1	18.2	0.00e+00	0	41	0	708837376	58	4918
2026-01-05 23:10:57.16	131.53	42.25	-42.0	-44.0	19.9	0.00e+00	0	41	0	715128832	55	4589
2026-01-05 23:11:00.02	132.73	41.82	-43.0	-45.3	19.0	0.00e+00	0	41	0	720371712	57	4737
2026-01-05 23:11:03.17	134.02	41.34	-43.5	-45.8	18.6	0.00e+00	0	41	0	726663168	57	5011
2026-01-05 23:11:06.03	135.16	40.90	-42.3	-44.4	19.7	0.00e+00	0	41	0	731906048	56	4499
2026-01-05 23:11:09.33	136.44	40.38	-45.3	-48.2	16.4	0.00e+00	0	41	0	738197504	61	5256
2026-01-05 23:11:12.05	137.46	39.95	-44.2	-46.7	17.8	0.00e+00	0	41	0	743440384	60	4692
2026-01-05 23:11:15.39	138.68	39.41	-47.5	-51.7	12.9	2.36e-05	0	41	0	749731840	65	6254
2026-01-05 23:11:18.25	139.69	38.94	-46.0	-49.2	15.4	4.50e-06	0	41	0	754974720	63	5248
2026-01-05 23:11:21.35	140.75	38.44	-47.7	-52.2	12.4	1.50e-06	0	41	0	760217600	66	6224
2026-01-05 23:11:24.49	141.80	37.92	-46.8	-50.5	14.0	6.71e-05	0	41	0	766509056	65	5410
2026-01-05 23:11:27.35	142.72	37.45	-46.5	-50.0	14.7	2.20e-06	0	41	0	771751936	64	5434
2026-01-05 23:11:30.49	143.70	36.92	-48.8	-54.6	10.1	1.16e-02	0	41	0	778043392	68	7338
2026-01-05 23:11:33.35	144.57	36.45	-47.1	-51.1	13.6	1.37e-05	0	41	0	783286272	66	5492
2026-01-05 23:11:36.49	145.50	35.93	-49.6	-56.7	7.9	8.12e-02	0	41	0	788529152	70	8356
2026-01-05 23:11:39.35	146.32	35.45	-48.6	-53.8	10.8	8.17e-03	0	41	0	794820608	69	6319
2026-01-05 23:11:42.50	147.20	34.93	-47.3	-51.3	13.3	1.44e-05	0	41	0	800063488	66	5595
2026-01-05 23:11:45.37	147.97	34.46	-48.7	-54.4	10.4	5.89e-03	0	41	0	805306368	68	7172
2026-01-05 23:11:48.65	148.83	33.92	-44.9	-47.7	16.9	0.00e+00	0	41	0	811597824	61	4945
2026-01-05 23:11:51.59	149.57	33.44	-45.4	-48.4	16.3	0.00e+00	0	41	0	816840704	61	5344
2026-01-05 23:11:54.75	150.35	32.92	-48.3	-53.4	11.2	1.12e-03	0	41	0	823132160	67	6795
2026-01-05 23:11:57.61	151.04	32.46	-45.8	-48.9	15.8	7.00e-07	0	41	0	828375040	63	5065
2026-01-05 23:12:00.76	151.77	31.95	-45.5	-48.6	16.1	0.00e+00	0	41	0	834666496	61	5475
2026-01-05 23:12:03.63	152.41	31.49	-46.7	-50.5	14.1	6.80e-06	0	41	0	839909376	64	5751
2026-01-05 23:12:06.78	153.10	30.99	-45.1	-47.9	16.6	0.00e+00	0	41	0	846200832	62	4792
2026-01-05 23:12:09.65	153.71	30.54	-44.8	-47.6	17.0	0.00e+00	0	41	0	851443712	60	5190
2026-01-05 23:12:12.79	154.36	30.05	-46.5	-50.4	14.3	0.00e+00	0	41	0	856686592	63	6024
2026-01-05 23:12:15.66	154.94	29.61	-46.0	-49.6	15.0	0.00e+00	0	41	0	861929472	63	5518
2026-01-05 23:12:18.81	155.56	29.12	-45.4	-48.4	16.2	0.00e+00	0	41	0	868220928	62	5069
2026-01-05 23:12:21.67	156.10	28.69	-45.2	-48.1	16.5	0.00e+00	0	41	0	873463808	62	4905
2026-01-05 23:12:24.82	156.68	28.22	-46.1	-49.5	15.2	0.00e+00	0	41	0	879755264	62	5735
2026-01-05 23:12:27.69	157.20	27.79	-46.0	-49.2	15.4	0.00e+00	0	41	0	884998144	63	5257
2026-01-05 23:12:30.84	157.75	27.33	-44.6	-47.2	17.2	0.00e+00	0	41	0	891289600	61	4688
2026-01-05 23:12:33.70	158.24	26.91	-44.1	-46.6	17.9	0.00e+00	0	41	0	896532480	60	4600
2026-01-05 23:12:36.85	158.76	26.45	-44.9	-47.6	17.0	0.00e+00	0	41	0	901775360	60	5201
2026-01-05 23:12:39.77	159.23	26.04	-45.9	-49.1	15.5	0.00e+00	0	41	0	908066816	62	5477
2026-01-05 23:12:42.78	159.71	25.61	-45.9	-49.2	15.4	0.00e+00	0	41	0	913309696	62	5550
2026-01-05 23:12:45.78	160.17	25.20	-45.0	-47.8	16.7	0.00e+00	0	41	0	918552576	62	4754
2026-01-05 23:12:48.79	160.62	24.78	-45.0	-47.8	16.7	0.00e+00	0	41	0	924844032	61	4986
2026-01-05 23:12:51.80	161.06	24.37	-45.3	-48.2	16.4	0.00e+00	0	41	0	930086912	61	5231
2026-01-05 23:12:54.91	161.50	23.95	-45.2	-48.2	16.3	0.00e+00	0	41	0	936378368	61	5251
2026-01-05 23:12:57.78	161.90	23.57	-45.0	-47.9	16.5	0.00e+00	0	41	0	941621248	61	5061
2026-01-05 23:13:00.93	162.32	23.15	-45.0	-47.9	16.5	0.00e+00	0	41	0	946864128	61	5091
2026-01-05 23:13:03.80	162.70	22.78	-45.4	-48.5	15.9	0.00e+00	0	41	0	953155584	62	5149
2026-01-05 23:13:06.95	163.11	22.38	-45.4	-48.5	16.0	0.00e+00	0	41	0	958398464	62	5148
2026-01-05 23:13:09.82	163.47	22.01	-45.6	-48.7	15.8	0.00e+00	0	41	0	963641344	62	5234
2026-01-05 23:13:12.97	163.86	21.62	-45.5	-48.6	15.8	7.00e-07	0	41	0	969932800	62	5186
2026-01-05 23:13:15.83	164.20	21.26	-45.3	-48.2	15.8	0.00e+00	0	41	0	975175680	62	4976
2026-01-05 23:13:18.99	164.57	20.87	-45.3	-48.4	16.1	0.00e+00	0	41	0	981467136	62	5057
2026-01-05 23:13:21.86	164.90	20.52	-45.7	-49.0	15.4	0.00e+00	0	41	0	986710016	62	5461
2026-01-05 23:13:25.00	165.25	20.15	-46.3	-50.0	14.5	0.00e+00	0	41	0	991952896	63	5750
2026-01-05 23:13:27.87	165.56	19.81	-46.4	-50.0	14.4	2.20e-06	0	41	0	998244352	64	5432
2026-01-05 23:13:31.02	165.90	19.44	-46.2	-49.7	14.8	0.00e+00	0	41	0	1003487232	64	5227
2026-01-05 23:13:33.88	166.20	19.11	-45.6	-48.7	15.7	0.00e+00	0	41	0	1008730112	62	5273
2026-01-05 23:13:37.03	166.52	18.75	-45.2	-48.3	16.1	0.00e+00	0	41	0	1015021568	62	4988
2026-01-05 23:13:39.90	166.81	18.42	-45.3	-48.3	16.1	0.00e+00	0	41	0	1020264448	62	5007
2026-01-05 23:13:43.04	167.12	18.07	-45.5	-48.6	15.9	0.00e+00	0	41	0	1026555904	62	5183
2026-01-05 23:13:45.91	167.39	17.76	-45.6	-48.8	15.6	0.00e+00	0	41	0	1031798784	62	5325
2026-01-05 23:13:49.06	167.69	17.41	-45.7	-48.9	15.5	0.00e+00	0	41	0	1037041664	62	5386
2026-01-05 23:13:51.92	167.95	17.10	-45.8	-49.0	15.4	0.00e+00	0	41	0	1043333120	62	5455
2026-01-05 23:13:55.06	168.24	16.77	-45.2	-48.3	16.1	0.00e+00	0	41	0	1048576000	62	4984
2026-01-05 23:13:57.93	168.49	16.47	-45.1	-48.0	16.4	0.00e+00	0	41	0	1053818880	62	4857
2026-01-05 23:14:01.08	168.76	16.14	-44.4	-47.2	17.1	0.00e+00	0	41	0	1060110336	60	4956
2026-01-05 23:14:03.95	169.01	15.84	-44.7	-47.5	16.8	0.00e+00	0	41	0	1065353216	60	5142
2026-01-05 23:14:07.10	169.27	15.52	-44.4	-47.2	17.0	0.00e+00	0	41	0	1071644672	60	4974
2026-01-05 23:14:09.97	169.51	15.23	-44.8	-47.7	16.6	0.00e+00	0	41	0	1076887552	60	5233
2026-01-05 23:14:13.12	169.76	14.92	-45.3	-48.5	15.8	0.00e+00	0	41	0	1082130432	61	5415
2026-01-05 23:14:15.98	169.98	14.63	-45.5	-48.8	15.5	0.00e+00	0	41	0	1088421888	61	5643
2026-01-05 23:14:19.13	170.23	14.33	-46.1	-49.8	14.6	0.00e+00	0	41	0	1093664768	62	5951
2026-01-05 23:14:21.99	170.44	14.05	-46.3	-50.2	14.2	7.00e-07	0	41	0	1098907648	63	5884
2026-01-05 23:14:25.16	170.68	13.75	-46.4	-50.1	14.2	0.00e+00	0	41	0	1105199104	63	5841
2026-01-05 23:14:28.02	170.89	13.47	-46.4	-50.1	14.2	2.20e-06	0	41	0	1110441984	63	5811
2026-01-05 23:14:31.17	171.11	13.18	-45.8	-49.3	15.1	7.00e-07	0	41	0	1116733440	63	5286
2026-01-05 23:14:34.04	171.31	12.91	-45.5	-49.0	15.3	0.00e+00	0	41	0	1121976320	62	5425
2026-01-05 23:14:37.19	171.53	12.62	-45.0	-48.4	15.9	6.19e-04	0	41	0	1128267776	62	5051
2026-01-05 23:14:40.06	171.73	12.36	-44.7	-47.9	16.3	0.00e+00	0	41	0	1133510656	61	5059
2026-01-05 23:14:43.21	171.94	12.08	-44.6	-48.0	16.2	0.00e+00	0	41	0	1138753536	61	5129
2026-01-05 23:14:46.07	172.12	11.83	-44.3	-47.8	16.4	0.00e+00	0	41	0	1143996416	60	5287
2026-01-05 23:14:49.22	172.33	11.55	-44.4	-48.2	16.0	0.00e+00	0	41	0	1150287872	60	5533
2026-01-05 23:14:52.09	172.51	11.30	-44.5	-48.3	15.8	0.00e+00	0	41	0	1155530752	60	5615
2026-01-05 23:14:55.16	172.70	11.03	-44.7	-48.6	15.6	0.00e+00	0	41	0	1161822208	60	5792
2026-01-05 23:14:58.17	172.88	10.77	-44.8	-48.7	15.4	0.00e+00	0	41	0	1167065088	60	5915
2026-01-05 23:15:01.19	173.06	10.52	-45.0	-49.1	15.1	0.00e+00	0	41	0	1172307968	60	6158
2026-01-05 23:15:04.20	173.24	10.26	-44.8	-48.9	15.3	0.00e+00	0	41	0	1178599424	60	6015
2026-01-05 23:15:07.21	173.42	10.01	-44.9	-49.1	15.1	0.00e+00	0	41	0	1183842304	60	6146
2026-01-05 23:15:10.22	173.59	9.77	-44.9	-49.1	15.0	0.00e+00	0	41	0	1190133760	60	6189
2026-01-05 23:15:13.23	173.76	9.52	-45.0	-49.2	14.9	0.00e+00	0	41	0	1195376640	60	6262
2026-01-05 23:15:16.24	173.93	9.28	-44.7	-49.0	15.1	0.00e+00	0	41	0	1200619520	60	6064
2026-01-05 23:15:19.25	174.09	9.03	-44.7	-49.3	14.7	7.00e-07	0	41	0	1206910976	60	6344
2026-01-05 23:15:22.34	174.26	8.79	-50.3	-65.8	3.8	1.49e+00	0	41	104	1207959552	71	22326
2026-01-05 23:15:25.33	174.42	8.55	-50.7	-66.0	3.8	1.49e+00	0	41	104	1207959552	71	22843
2026-01-05 23:15:28.72	174.59	8.29	-50.7	-66.0	3.8	1.49e+00	0	41	104	1207959552	72	21623
2026-01-05 23:15:31.65	174.74	8.06	-50.8	-66.0	3.8	1.49e+00	0	41	104	1207959552	72	21694
2026-01-05 23:15:34.95	174.91	7.81	-50.9	-66.1	3.8	1.49e+00	0	41	104	1207959552	72	21768
2026-01-05 23:15:37.68	175.05	7.60	-50.8	-66.1	3.8	1.49e+00	0	41	104	1207959552	72	21791
2026-01-05 23:15:40.98	175.21	7.35	-50.8	-66.1	3.8	1.49e+00	0	41	104	1207959552	72	21770
2026-01-05 23:15:43.70	175.34	7.15	-50.8	-66.1	3.8	1.49e+00	0	41	104	1207959552	72	21837
2026-01-05 23:15:47.00	175.50	6.90	-50.7	-66.0	3.8	1.49e+00	0	41	104	1207959552	72	21744
2026-01-05 23:15:49.73	175.62	6.70	-50.5	-66.1	3.8	1.49e+00	0	41	104	1207959552	72	21776
2026-01-05 23:15:53.03	175.78	6.46	-50.5	-66.1	3.8	1.49e+00	0	41	104	1207959552	72	21780
2026-01-05 23:15:55.76	175.90	6.26	-50.4	-66.1	3.8	1.49e+00	0	41	104	1207959552	72	21800
2026-01-05 23:15:59.06	176.05	6.02	-50.5	-66.0	3.8	1.49e+00	0	41	104	1207959552	72	21750
2026-01-05 23:16:01.78	176.17	5.83	-50.5	-66.0	3.8	1.49e+00	0	41	104	1207959552	72	21704
2026-01-05 23:16:05.08	176.32	5.60	-50.5	-66.0	3.8	1.49e+00	0	41	104	1207959552	72	21722
2026-01-05 23:16:07.81	176.43	5.40	-50.5	-66.0	3.8	1.49e+00	0	41	104	1207959552	72	21622
2026-01-05 23:16:11.11	176.57	5.17	-50.4	-66.0	3.8	1.49e+00	0	41	104	1207959552	72	21738
2026-01-05 23:16:13.84	176.69	4.98	-50.5	-66.0	3.8	1.49e+00	0	41	104	1207959552	72	21725

#Closed at: 2026-01-05 23:16:15
#Recorded file [1207 MB]: D:/Data/31040_260106_020336.dat