passes_logs/2026/01/05/T1/T1__20260105_232417_NOAA_20_JPSS-1_rec.log

#Pass ID: 20260105_232417_NOAA 20 (JPSS-1)
#Satellite: NOAA 20 (JPSS-1)
#Configuration: NOAA 20
#almurnet v.1.7.20251203
#Start time: 2026-01-05 23:24:19

#Version: 2.0.20230620
#Station: T1
#Location: 37.570604 lon 55.790049 lat
#TLE: 1 43013U 17073A   26005.46207808  .00000128  00000+0  81791-4 0  9997
#TLE: 2 43013  98.7627 306.5027 0001826  53.0458 307.0885 14.19533487421381

#Time	Az	El	Level	Level2	SNR	BER	BlckErr	Temp	State	Recorded	gain1	gain2
2026-01-05 23:24:19.18	18.33	5.09	-50.4	-65.9	3.8	1.49e+00	0	37	0	0	71	22713
2026-01-05 23:24:22.19	18.39	5.31	-50.2	-65.9	3.8	1.49e+00	0	38	104	0	72	21359
2026-01-05 23:24:25.20	18.44	5.52	-50.3	-65.9	3.8	1.49e+00	0	37	104	0	72	21384
2026-01-05 23:24:28.22	18.51	5.74	-50.3	-65.9	3.8	1.49e+00	0	38	104	0	72	21367
2026-01-05 23:24:31.23	18.57	5.96	-50.3	-65.9	3.8	1.49e+00	0	38	104	0	72	21371
2026-01-05 23:24:34.24	18.63	6.18	-50.2	-65.9	3.8	1.49e+00	0	38	104	0	72	21284
2026-01-05 23:24:37.25	18.69	6.40	-50.3	-65.9	3.8	1.49e+00	0	38	104	0	72	21369
2026-01-05 23:24:40.27	18.75	6.63	-50.3	-65.9	3.8	1.49e+00	0	38	104	0	72	21372
2026-01-05 23:24:43.28	18.82	6.85	-50.2	-65.9	3.8	1.49e+00	0	38	104	0	72	21315
2026-01-05 23:24:46.33	18.88	7.09	-50.3	-65.9	3.8	1.49e+00	0	38	104	0	72	21298
2026-01-05 23:24:49.43	18.95	7.32	-50.2	-65.9	3.8	1.49e+00	0	39	104	0	72	21397
2026-01-05 23:24:52.55	19.02	7.57	-50.2	-65.9	3.8	1.49e+00	0	39	104	0	72	21364
2026-01-05 23:24:55.47	19.08	7.79	-50.2	-65.9	3.8	1.49e+00	0	38	104	0	72	21393
2026-01-05 23:24:58.77	19.16	8.05	-50.3	-65.9	3.8	1.49e+00	0	39	104	0	72	21308
2026-01-05 23:25:01.50	19.22	8.27	-50.3	-65.9	3.8	1.49e+00	0	39	104	0	72	21377
2026-01-05 23:25:04.80	19.30	8.54	-50.3	-65.9	3.8	1.49e+00	0	39	104	0	72	21329
2026-01-05 23:25:07.52	19.36	8.76	-50.3	-65.9	3.8	1.49e+00	0	39	104	0	72	21305
2026-01-05 23:25:10.82	19.44	9.03	-50.3	-65.9	3.8	1.49e+00	0	39	104	0	72	21330
2026-01-05 23:25:13.55	19.51	9.25	-50.3	-65.9	3.8	1.49e+00	0	39	104	0	72	21373
2026-01-05 23:25:16.85	19.59	9.53	-50.3	-65.9	3.8	1.49e+00	0	39	104	0	72	21339
2026-01-05 23:25:19.57	19.66	9.76	-50.3	-65.9	3.8	1.49e+00	0	39	104	0	72	21316
2026-01-05 23:25:22.87	19.74	10.04	-50.3	-65.9	3.8	1.49e+00	0	39	104	0	72	21384
2026-01-05 23:25:25.60	19.81	10.28	-50.3	-65.9	3.8	1.49e+00	0	39	104	0	72	21371
2026-01-05 23:25:28.89	19.89	10.56	-50.3	-65.9	3.8	1.49e+00	0	39	104	0	72	21314
2026-01-05 23:25:31.62	19.97	10.80	-50.3	-65.9	3.8	1.49e+00	0	39	104	0	72	21389
2026-01-05 23:25:34.92	20.06	11.10	-50.3	-65.9	3.8	1.49e+00	0	39	104	0	72	21406
2026-01-05 23:25:37.65	20.13	11.34	-50.3	-65.9	3.8	1.49e+00	0	39	104	0	72	21372
2026-01-05 23:25:40.95	20.22	11.64	-50.3	-65.9	3.8	1.49e+00	0	39	104	0	72	21360
2026-01-05 23:25:43.68	20.30	11.89	-50.3	-65.9	3.8	1.49e+00	0	39	104	0	72	21381
2026-01-05 23:25:46.97	20.39	12.20	-50.3	-65.9	3.8	1.49e+00	0	39	104	0	72	21303
2026-01-05 23:25:49.70	20.47	12.46	-50.3	-65.9	3.8	1.49e+00	0	39	104	0	72	21353
2026-01-05 23:25:53.00	20.57	12.77	-50.3	-65.9	3.8	1.49e+00	0	39	104	0	72	21345
2026-01-05 23:25:55.73	20.65	13.03	-50.3	-65.9	3.8	1.49e+00	0	40	104	0	72	21408
2026-01-05 23:25:59.02	20.75	13.36	-50.3	-65.9	3.8	1.49e+00	0	39	104	0	72	21309
2026-01-05 23:26:01.75	20.84	13.62	-50.3	-65.9	3.8	1.49e+00	0	39	104	0	72	21330
2026-01-05 23:26:05.05	20.94	13.95	-50.3	-65.9	3.8	1.49e+00	0	40	104	0	72	21348
2026-01-05 23:26:07.78	21.03	14.23	-50.3	-65.9	3.8	1.49e+00	0	40	104	0	72	21285
2026-01-05 23:26:11.07	21.14	14.57	-50.3	-65.9	3.8	1.49e+00	0	39	104	0	72	21292
2026-01-05 23:26:13.80	21.23	14.85	-50.3	-65.9	3.8	1.49e+00	0	40	104	0	72	21282
2026-01-05 23:26:17.10	21.34	15.20	-50.3	-65.9	3.8	1.49e+00	0	39	104	0	72	21272
2026-01-05 23:26:19.83	21.43	15.49	-50.3	-65.9	3.8	1.49e+00	0	40	104	0	72	21383
2026-01-05 23:26:23.12	21.55	15.84	-50.3	-65.9	3.8	1.49e+00	0	40	104	0	72	21298
2026-01-05 23:26:25.85	21.65	16.14	-50.3	-65.9	3.8	1.49e+00	0	40	104	0	72	21306
2026-01-05 23:26:29.15	21.77	16.50	-50.3	-65.9	3.8	1.49e+00	0	40	104	0	72	21383
2026-01-05 23:26:31.88	21.87	16.81	-50.3	-65.9	3.8	1.49e+00	0	40	104	0	72	21378
2026-01-05 23:26:35.17	22.00	17.18	-50.3	-65.9	3.8	1.49e+00	0	40	104	0	72	21286
2026-01-05 23:26:37.90	22.10	17.50	-50.3	-65.9	3.8	1.49e+00	0	40	104	0	72	21417
2026-01-05 23:26:41.20	22.23	17.89	-50.3	-65.9	3.8	1.49e+00	0	40	104	0	72	21424
2026-01-05 23:26:43.93	22.35	18.21	-50.3	-65.9	3.8	1.49e+00	0	40	104	0	72	21398
2026-01-05 23:26:47.23	22.48	18.61	-50.3	-65.9	3.8	1.49e+00	0	40	104	0	72	21332
2026-01-05 23:26:49.95	22.60	18.94	-50.3	-65.9	3.8	1.49e+00	0	40	104	0	72	21292
2026-01-05 23:26:53.19	22.74	19.34	-50.3	-65.9	3.8	1.49e+00	0	40	104	0	72	21303
2026-01-05 23:26:56.34	22.88	19.74	-50.3	-65.9	3.8	1.49e+00	0	40	104	0	72	21316
2026-01-05 23:26:59.28	23.01	20.11	-50.3	-65.9	3.8	1.49e+00	0	40	104	0	72	21322
2026-01-05 23:27:02.55	23.16	20.54	-50.3	-65.9	3.8	1.49e+00	0	40	104	0	72	21302
2026-01-05 23:27:05.37	23.30	20.91	-50.3	-65.9	3.8	1.49e+00	0	40	104	0	72	21356
2026-01-05 23:27:08.67	23.46	21.35	-50.3	-65.9	3.8	1.49e+00	0	40	104	0	72	21287
2026-01-05 23:27:11.40	23.59	21.72	-50.3	-65.9	3.8	1.49e+00	0	40	104	0	72	21308
2026-01-05 23:27:14.70	23.76	22.18	-50.3	-65.8	3.8	1.49e+00	0	40	104	0	72	21215
2026-01-05 23:27:17.58	23.92	22.58	-50.3	-65.9	3.8	1.49e+00	0	40	104	0	72	21305
2026-01-05 23:27:20.89	24.09	23.06	-50.3	-65.8	3.8	1.49e+00	0	40	104	0	72	21241
2026-01-05 23:27:23.61	24.24	23.45	-50.3	-65.9	3.8	1.49e+00	0	40	104	0	72	21304
2026-01-05 23:27:26.91	24.43	23.94	-50.3	-65.8	3.8	1.49e+00	0	40	104	0	72	21236
2026-01-05 23:27:29.64	24.59	24.35	-50.3	-65.9	3.8	1.49e+00	0	40	104	0	72	21310
2026-01-05 23:27:33.03	24.79	24.87	-50.3	-65.8	3.8	1.49e+00	0	40	104	0	72	21257
2026-01-05 23:27:35.76	24.96	25.29	-50.3	-65.8	3.8	1.49e+00	0	40	104	0	72	21251
2026-01-05 23:27:39.06	25.17	25.81	-50.3	-65.9	3.8	1.49e+00	0	40	104	0	72	21307
2026-01-05 23:27:41.78	25.35	26.25	-50.3	-65.8	3.8	1.49e+00	0	40	104	0	72	21253
2026-01-05 23:27:45.08	25.57	26.79	-50.3	-65.9	3.8	1.49e+00	0	40	104	0	72	21284
2026-01-05 23:27:47.81	25.76	27.25	-50.3	-65.9	3.8	1.49e+00	0	40	104	0	72	21408
2026-01-05 23:27:51.10	25.99	27.81	-50.3	-65.9	3.8	1.49e+00	0	40	104	0	72	21421
2026-01-05 23:27:53.83	26.19	28.28	-50.3	-65.9	3.8	1.49e+00	0	40	104	0	72	21322
2026-01-05 23:27:57.13	26.44	28.86	-50.3	-65.8	3.8	1.49e+00	0	40	104	0	72	21255
2026-01-05 23:27:59.86	26.66	29.35	-50.3	-65.8	3.8	1.49e+00	0	40	104	0	72	21208
2026-01-05 23:28:03.16	26.92	29.95	-50.3	-65.8	3.8	1.49e+00	0	40	104	0	72	21229
2026-01-05 23:28:06.22	27.18	30.52	-50.3	-65.9	3.8	1.49e+00	0	40	104	0	72	21298
2026-01-05 23:28:09.61	27.47	31.17	-50.3	-65.8	3.8	1.49e+00	0	40	104	0	72	21260
2026-01-05 23:28:12.53	27.73	31.73	-50.3	-65.9	3.8	1.49e+00	0	40	104	0	72	21308
2026-01-05 23:28:15.54	28.01	32.33	-50.3	-65.9	3.8	1.49e+00	0	40	104	0	72	21309
2026-01-05 23:28:18.55	28.30	32.93	-50.3	-65.9	3.8	1.49e+00	0	40	104	0	72	21270
2026-01-05 23:28:21.60	28.61	33.56	-50.3	-65.8	3.8	1.49e+00	0	40	104	0	72	21221
2026-01-05 23:28:24.64	28.92	34.20	-50.3	-65.9	3.8	1.49e+00	0	40	104	0	72	21281
2026-01-05 23:28:27.65	29.25	34.84	-50.3	-65.9	3.8	1.49e+00	0	40	104	0	72	21297
2026-01-05 23:28:30.66	29.58	35.49	-50.3	-65.9	3.8	1.49e+00	0	40	104	0	72	21293
2026-01-05 23:28:33.68	29.93	36.16	-50.3	-65.8	3.8	1.49e+00	0	40	104	0	72	21249
2026-01-05 23:28:36.69	30.30	36.84	-50.3	-65.9	3.8	1.49e+00	0	40	104	0	72	21295
2026-01-05 23:28:39.70	30.68	37.54	-50.3	-65.9	3.8	1.49e+00	0	40	104	0	72	21359
2026-01-05 23:28:42.71	31.07	38.24	-50.3	-65.9	3.8	1.49e+00	0	40	104	0	72	21320
2026-01-05 23:28:45.73	31.49	38.97	-50.3	-65.9	3.8	1.49e+00	0	40	104	0	72	21287
2026-01-05 23:28:48.74	31.92	39.70	-50.3	-65.9	3.8	1.49e+00	0	40	104	0	72	21283
2026-01-05 23:28:51.75	32.37	40.45	-50.3	-65.8	3.8	1.49e+00	0	40	104	0	72	21225
2026-01-05 23:28:54.76	32.84	41.21	-50.3	-65.8	3.8	1.49e+00	0	40	104	0	72	21243
2026-01-05 23:28:57.78	33.33	41.99	-50.3	-65.9	3.8	1.49e+00	0	40	104	0	72	21307
2026-01-05 23:29:00.79	33.85	42.78	-50.3	-65.8	3.8	1.49e+00	0	40	104	0	72	21241
2026-01-05 23:29:03.80	34.39	43.59	-50.3	-65.9	3.8	1.49e+00	0	40	104	0	72	21352
2026-01-05 23:29:06.82	34.97	44.41	-50.3	-65.9	3.8	1.49e+00	0	40	104	0	72	21291
2026-01-05 23:29:09.83	35.57	45.24	-50.3	-65.8	3.8	1.49e+00	0	40	104	0	72	21207
2026-01-05 23:29:12.84	36.20	46.09	-50.3	-65.9	3.8	1.49e+00	0	40	104	0	72	21349
2026-01-05 23:29:15.85	36.87	46.96	-50.3	-65.9	3.8	1.49e+00	0	40	104	0	72	21295
2026-01-05 23:29:18.86	37.58	47.83	-50.3	-65.9	3.8	1.49e+00	0	40	104	0	72	21289
2026-01-05 23:29:21.88	38.33	48.73	-50.3	-65.9	3.8	1.49e+00	0	40	104	0	72	21310
2026-01-05 23:29:24.89	39.12	49.63	-50.3	-65.9	3.8	1.49e+00	0	40	104	0	72	21287
2026-01-05 23:29:27.90	39.96	50.54	-50.3	-65.9	3.8	1.49e+00	0	40	104	0	72	21296
2026-01-05 23:29:30.92	40.85	51.48	-50.3	-65.9	3.8	1.49e+00	0	40	104	0	72	21261
2026-01-05 23:29:33.93	41.80	52.41	-50.3	-65.8	3.8	1.49e+00	0	40	104	0	72	21243
2026-01-05 23:29:36.94	42.81	53.36	-50.3	-65.9	3.8	1.49e+00	0	40	104	0	72	21309
2026-01-05 23:29:39.95	43.88	54.32	-50.3	-65.9	3.8	1.49e+00	0	40	104	0	72	21265
2026-01-05 23:29:42.97	45.04	55.29	-50.3	-65.9	3.8	1.49e+00	0	40	104	0	72	21292
2026-01-05 23:29:45.98	46.27	56.26	-50.3	-65.9	3.8	1.49e+00	0	40	104	0	72	21322
2026-01-05 23:29:49.00	47.60	57.23	-50.3	-65.9	3.8	1.49e+00	0	40	104	0	72	21314
2026-01-05 23:29:52.01	49.01	58.21	-50.3	-65.9	3.8	1.49e+00	0	40	104	0	72	21358
2026-01-05 23:29:55.02	50.54	59.18	-50.3	-65.9	3.8	1.49e+00	0	40	104	0	72	21343
2026-01-05 23:29:58.04	52.19	60.16	-50.3	-65.9	3.8	1.49e+00	0	40	104	0	72	21307
2026-01-05 23:30:01.05	53.96	61.12	-50.3	-65.9	3.8	1.49e+00	0	40	104	0	72	21289
2026-01-05 23:30:04.06	55.87	62.07	-50.3	-65.9	3.8	1.49e+00	0	40	104	0	72	21362
2026-01-05 23:30:07.07	57.93	63.01	-50.3	-65.9	3.8	1.49e+00	0	40	104	0	72	21303
2026-01-05 23:30:10.09	60.16	63.92	-50.3	-65.9	3.8	1.49e+00	0	40	104	0	72	21295
2026-01-05 23:30:13.10	62.57	64.81	-50.3	-65.9	3.8	1.49e+00	0	40	104	0	72	21305
2026-01-05 23:30:16.11	65.17	65.67	-50.3	-65.9	3.8	1.49e+00	0	40	104	0	72	21326
2026-01-05 23:30:19.13	67.98	66.49	-50.3	-65.8	3.8	1.49e+00	0	40	104	0	72	21226
2026-01-05 23:30:22.14	71.01	67.26	-50.3	-65.9	3.8	1.49e+00	0	40	104	0	72	21322
2026-01-05 23:30:25.15	74.25	67.97	-50.3	-65.8	3.8	1.49e+00	0	40	104	0	72	21240
2026-01-05 23:30:28.16	77.72	68.62	-50.3	-65.9	3.8	1.49e+00	0	40	104	0	72	21376
2026-01-05 23:30:31.18	81.42	69.20	-50.3	-65.9	3.8	1.49e+00	0	40	104	0	72	21266
2026-01-05 23:30:34.19	85.32	69.70	-50.3	-65.9	3.8	1.49e+00	0	40	104	0	72	21357
2026-01-05 23:30:37.20	89.41	70.11	-50.3	-65.9	3.8	1.49e+00	0	40	104	0	72	21292
2026-01-05 23:30:40.39	93.93	70.43	-50.3	-65.9	3.8	1.49e+00	0	40	104	0	72	21265
2026-01-05 23:30:43.31	98.17	70.63	-50.3	-65.9	3.8	1.49e+00	0	40	104	0	72	21398
2026-01-05 23:30:46.90	103.49	70.73	-50.3	-65.9	3.8	1.49e+00	0	40	104	0	72	21275
2026-01-05 23:30:49.62	107.53	70.71	-50.3	-65.9	3.8	1.49e+00	0	40	104	0	72	21347
2026-01-05 23:30:52.92	112.39	70.56	-50.3	-65.9	3.8	1.49e+00	0	40	104	0	72	21332
2026-01-05 23:30:55.65	116.33	70.34	-50.3	-65.9	3.8	1.49e+00	0	40	104	0	72	21310
2026-01-05 23:30:58.95	120.94	69.96	-50.3	-65.9	3.8	1.49e+00	0	40	104	0	72	21314
2026-01-05 23:31:01.67	124.58	69.56	-50.3	-65.9	3.8	1.49e+00	0	40	104	0	72	21309
2026-01-05 23:31:04.97	128.79	68.99	-50.3	-65.9	3.8	1.49e+00	0	40	104	0	72	21290
2026-01-05 23:31:07.70	132.07	68.44	-50.3	-65.9	3.8	1.49e+00	0	40	104	0	72	21283
2026-01-05 23:31:11.00	135.79	67.70	-50.3	-65.9	3.8	1.49e+00	0	40	104	0	72	21315
2026-01-05 23:31:13.72	138.66	67.04	-50.3	-65.9	3.8	1.49e+00	0	40	104	0	72	21399
2026-01-05 23:31:17.02	141.89	66.17	-50.3	-65.9	3.8	1.49e+00	0	40	104	0	72	21292
2026-01-05 23:31:19.75	144.37	65.42	-50.3	-65.9	3.8	1.49e+00	0	40	104	0	72	21376
2026-01-05 23:31:23.05	147.16	64.46	-50.3	-65.9	3.8	1.49e+00	0	40	104	0	72	21358
2026-01-05 23:31:25.78	149.28	63.65	-50.3	-65.9	3.8	1.49e+00	0	40	104	0	72	21310
2026-01-05 23:31:29.07	151.66	62.64	-50.3	-65.9	3.8	1.49e+00	0	40	104	0	72	21281
2026-01-05 23:31:31.80	153.48	61.78	-50.3	-65.9	3.8	1.49e+00	0	40	104	0	72	21318
2026-01-05 23:31:35.10	155.53	60.73	-50.3	-65.9	3.8	1.49e+00	0	40	104	0	72	21387
2026-01-05 23:31:37.83	157.09	59.85	-50.3	-65.9	3.8	1.49e+00	0	40	104	0	72	21348
2026-01-05 23:31:41.13	158.85	58.78	-50.3	-65.8	3.8	1.49e+00	0	40	104	0	72	21258
2026-01-05 23:31:43.85	160.19	57.90	-50.3	-65.9	3.8	1.49e+00	0	40	104	0	72	21395
2026-01-05 23:31:47.16	161.72	56.82	-50.3	-65.9	3.8	1.49e+00	0	40	104	0	72	21363
2026-01-05 23:31:49.88	162.88	55.94	-50.3	-65.9	3.8	1.49e+00	0	40	104	0	72	21336
2026-01-05 23:31:53.18	164.20	54.87	-50.3	-65.9	3.8	1.49e+00	0	40	104	0	72	21412
2026-01-05 23:31:55.91	165.23	54.00	-50.3	-65.8	3.8	1.49e+00	0	40	104	0	72	21245
2026-01-05 23:31:59.21	166.38	52.95	-50.3	-65.9	3.8	1.49e+00	0	40	104	0	72	21266
2026-01-05 23:32:01.93	167.27	52.09	-50.3	-65.9	3.8	1.49e+00	0	40	104	0	72	21278
2026-01-05 23:32:05.23	168.29	51.06	-50.3	-65.9	3.8	1.49e+00	0	40	104	0	72	21306
2026-01-05 23:32:07.96	169.08	50.22	-50.3	-65.9	3.8	1.49e+00	0	40	104	0	72	21358
2026-01-05 23:32:11.26	169.98	49.22	-50.3	-65.9	3.8	1.49e+00	0	40	104	0	72	21305
2026-01-05 23:32:13.98	170.69	48.40	-50.3	-65.9	3.8	1.49e+00	0	40	104	0	72	21387
2026-01-05 23:32:17.28	171.49	47.43	-50.3	-65.9	3.8	1.49e+00	0	40	104	0	72	21351
2026-01-05 23:32:20.01	172.12	46.64	-50.3	-65.9	3.8	1.49e+00	0	40	104	0	72	21351
2026-01-05 23:32:23.32	172.84	45.69	-50.3	-65.9	3.8	1.49e+00	0	40	104	0	72	21373
2026-01-05 23:32:26.13	173.42	44.90	-50.3	-65.9	3.8	1.49e+00	0	40	104	0	72	21394
2026-01-05 23:32:29.28	174.04	44.03	-50.3	-65.9	3.8	1.49e+00	0	40	104	0	72	21271
2026-01-05 23:32:32.15	174.57	43.25	-50.3	-65.9	3.8	1.49e+00	0	40	104	0	72	21311
2026-01-05 23:32:35.31	175.13	42.40	-50.3	-65.9	3.8	1.49e+00	0	40	104	0	72	21309
2026-01-05 23:32:38.18	175.62	41.65	-50.3	-65.9	3.8	1.49e+00	0	40	104	0	72	21300
2026-01-05 23:32:41.34	176.13	40.84	-50.3	-65.9	3.8	1.49e+00	0	40	104	0	72	21287
2026-01-05 23:32:44.21	176.57	40.11	-50.3	-65.9	3.8	1.49e+00	0	40	104	0	72	21298
2026-01-05 23:32:47.48	177.05	39.30	-50.3	-65.9	3.8	1.49e+00	0	40	104	0	72	21290
2026-01-05 23:32:50.40	177.46	38.59	-50.3	-65.9	3.8	1.49e+00	0	40	104	0	72	21293
2026-01-05 23:32:53.70	177.90	37.80	-50.3	-65.9	3.8	1.49e+00	0	40	104	0	72	21304
2026-01-05 23:32:56.63	178.28	37.12	-50.3	-65.9	3.8	1.49e+00	0	40	104	0	72	21293
2026-01-05 23:32:59.79	178.67	36.39	-50.3	-65.9	3.8	1.49e+00	0	40	104	0	72	21312
2026-01-05 23:33:02.66	179.01	35.75	-50.3	-65.9	3.8	1.49e+00	0	40	104	0	72	21308
2026-01-05 23:33:05.82	179.37	35.05	-50.3	-65.9	3.8	1.49e+00	0	40	104	0	72	21264
2026-01-05 23:33:08.69	179.68	34.43	-50.3	-65.9	3.8	1.49e+00	0	40	104	0	72	21315
2026-01-05 23:33:11.84	180.01	33.76	-50.3	-65.9	3.8	1.49e+00	0	40	104	0	72	21317
2026-01-05 23:33:14.71	180.30	33.17	-50.3	-65.9	3.8	1.49e+00	0	40	104	0	72	21330
2026-01-05 23:33:17.87	180.61	32.52	-50.3	-65.9	3.8	1.49e+00	0	40	104	0	72	21323
2026-01-05 23:33:20.73	180.88	31.95	-50.3	-65.9	3.8	1.49e+00	0	40	104	0	72	21285
2026-01-05 23:33:23.89	181.17	31.33	-50.3	-65.9	3.8	1.49e+00	0	40	104	0	72	21318
2026-01-05 23:33:26.76	181.42	30.77	-50.3	-65.9	3.8	1.49e+00	0	40	104	0	72	21323
2026-01-05 23:33:29.92	181.69	30.17	-50.3	-65.8	3.8	1.49e+00	0	40	104	0	72	21224
2026-01-05 23:33:32.79	181.92	29.64	-50.3	-65.9	3.8	1.49e+00	0	40	104	0	72	21295
2026-01-05 23:33:35.94	182.17	29.07	-50.3	-65.9	3.8	1.49e+00	0	40	104	0	72	21270
2026-01-05 23:33:38.81	182.40	28.55	-50.3	-65.9	3.8	1.49e+00	0	40	104	0	72	21306
2026-01-05 23:33:42.05	182.64	27.98	-50.3	-65.9	3.8	1.49e+00	0	40	104	0	72	21310
2026-01-05 23:33:44.92	182.84	27.49	-50.3	-65.8	3.8	1.49e+00	0	40	104	0	72	21226
2026-01-05 23:33:48.07	183.06	26.95	-50.3	-65.9	3.8	1.49e+00	0	40	104	0	72	21341
2026-01-05 23:33:50.94	183.26	26.48	-50.3	-65.9	3.8	1.49e+00	0	40	104	0	72	21301
2026-01-05 23:33:54.10	183.47	25.96	-50.3	-65.9	3.8	1.49e+00	0	40	104	0	72	21386
2026-01-05 23:33:56.97	183.65	25.50	-50.3	-65.9	3.8	1.49e+00	0	40	104	0	72	21341
2026-01-05 23:34:00.12	183.85	25.00	-50.3	-65.9	3.8	1.49e+00	0	40	104	0	72	21267
2026-01-05 23:34:02.99	184.02	24.56	-50.3	-65.9	3.8	1.49e+00	0	40	104	0	72	21332
2026-01-05 23:34:06.15	184.21	24.07	-50.3	-65.9	3.8	1.49e+00	0	40	104	0	72	21281
2026-01-05 23:34:09.02	184.37	23.64	-50.3	-65.9	3.8	1.49e+00	0	40	104	0	72	21296
2026-01-05 23:34:12.18	184.55	23.18	-50.3	-65.9	3.8	1.49e+00	0	40	104	0	72	21321
2026-01-05 23:34:15.05	184.70	22.76	-50.3	-65.9	3.8	1.49e+00	0	40	104	0	72	21320
2026-01-05 23:34:18.20	184.87	22.31	-50.3	-65.8	3.8	1.49e+00	0	40	104	0	72	21193
2026-01-05 23:34:21.07	185.02	21.91	-50.3	-65.9	3.8	1.49e+00	0	40	104	0	72	21301
2026-01-05 23:34:24.23	185.18	21.47	-50.3	-65.9	3.8	1.49e+00	0	40	104	0	72	21338
2026-01-05 23:34:27.10	185.32	21.08	-50.3	-65.9	3.8	1.49e+00	0	40	104	0	72	21297
2026-01-05 23:34:30.18	185.46	20.67	-50.3	-65.8	3.8	1.49e+00	0	40	104	0	72	21235
2026-01-05 23:34:33.19	185.60	20.27	-50.3	-65.9	3.8	1.49e+00	0	40	104	0	72	21329
2026-01-05 23:34:36.20	185.74	19.88	-50.3	-65.9	3.8	1.49e+00	0	40	104	0	72	21294
2026-01-05 23:34:39.21	185.88	19.50	-50.3	-65.9	3.8	1.49e+00	0	40	104	0	72	21305
2026-01-05 23:34:42.23	186.01	19.12	-50.3	-65.9	3.8	1.49e+00	0	40	104	0	72	21311
2026-01-05 23:34:45.24	186.13	18.74	-50.3	-65.9	3.8	1.49e+00	0	40	104	0	72	21294
2026-01-05 23:34:48.25	186.26	18.37	-50.3	-65.9	3.8	1.49e+00	0	40	104	0	72	21308
2026-01-05 23:34:51.26	186.38	18.01	-50.3	-65.9	3.8	1.49e+00	0	40	104	0	72	21345
2026-01-05 23:34:54.31	186.50	17.65	-50.3	-65.9	3.8	1.49e+00	0	40	104	0	72	21288
2026-01-05 23:34:57.42	186.62	17.29	-50.3	-65.9	3.8	1.49e+00	0	40	104	0	72	21360
2026-01-05 23:35:00.39	186.74	16.94	-50.3	-65.9	3.8	1.49e+00	0	40	104	0	72	21328
2026-01-05 23:35:03.72	186.86	16.56	-50.3	-65.9	3.8	1.49e+00	0	40	104	0	72	21306
2026-01-05 23:35:06.45	186.96	16.26	-50.3	-65.9	3.8	1.49e+00	0	40	104	0	72	21298
2026-01-05 23:35:09.75	187.08	15.89	-50.3	-65.9	3.8	1.49e+00	0	40	104	0	72	21417
2026-01-05 23:35:12.47	187.17	15.60	-50.3	-65.8	3.8	1.49e+00	0	40	104	0	72	21242
2026-01-05 23:35:15.77	187.29	15.24	-50.3	-65.9	3.8	1.49e+00	0	40	104	0	72	21289
2026-01-05 23:35:18.50	187.38	14.95	-50.3	-65.9	3.8	1.49e+00	0	40	104	0	72	21306
2026-01-05 23:35:21.80	187.49	14.60	-50.3	-65.9	3.8	1.49e+00	0	40	104	0	72	21294
2026-01-05 23:35:24.53	187.58	14.32	-50.3	-65.8	3.8	1.49e+00	0	40	104	0	72	21179
2026-01-05 23:35:27.89	187.68	13.98	-50.3	-65.8	3.8	1.49e+00	0	40	104	0	72	21242
2026-01-05 23:35:30.62	187.77	13.70	-50.3	-65.9	3.8	1.49e+00	0	40	104	0	72	21288
2026-01-05 23:35:33.91	187.87	13.37	-50.3	-65.9	3.8	1.49e+00	0	40	104	0	72	21268
2026-01-05 23:35:36.64	187.95	13.10	-50.3	-65.9	3.8	1.49e+00	0	40	104	0	72	21321
2026-01-05 23:35:39.94	188.05	12.78	-50.3	-65.9	3.8	1.49e+00	0	40	104	0	72	21277
2026-01-05 23:35:42.67	188.13	12.52	-50.3	-65.8	3.8	1.49e+00	0	40	104	0	72	21181
2026-01-05 23:35:45.97	188.22	12.20	-50.3	-65.9	3.8	1.49e+00	0	40	104	0	72	21334
2026-01-05 23:35:48.69	188.30	11.95	-50.3	-65.8	3.8	1.49e+00	0	40	104	0	72	21253
2026-01-05 23:35:51.99	188.39	11.64	-50.3	-65.8	3.8	1.49e+00	0	40	104	0	72	21231
2026-01-05 23:35:54.72	188.46	11.39	-50.3	-65.8	3.8	1.49e+00	0	40	104	0	72	21258
2026-01-05 23:35:58.02	188.55	11.09	-50.3	-65.9	3.8	1.49e+00	0	40	104	0	72	21284
2026-01-05 23:36:00.74	188.62	10.84	-50.3	-65.9	3.8	1.49e+00	0	40	104	0	72	21298
2026-01-05 23:36:04.04	188.71	10.55	-50.3	-65.9	3.8	1.49e+00	0	40	104	0	72	21282
2026-01-05 23:36:06.77	188.78	10.31	-50.3	-65.8	3.8	1.49e+00	0	40	104	0	72	21259
2026-01-05 23:36:10.07	188.86	10.02	-50.3	-65.8	3.8	1.49e+00	0	40	104	0	72	21241
2026-01-05 23:36:12.80	188.92	9.79	-50.3	-65.9	3.8	1.49e+00	0	40	104	0	72	21363
2026-01-05 23:36:16.10	189.00	9.51	-50.3	-65.9	3.8	1.49e+00	0	40	104	0	72	21266
2026-01-05 23:36:18.82	189.07	9.28	-50.3	-65.9	3.8	1.49e+00	0	40	104	0	72	21314
2026-01-05 23:36:22.12	189.15	9.00	-50.3	-65.9	3.8	1.49e+00	0	40	104	0	72	21292
2026-01-05 23:36:24.85	189.21	8.77	-50.3	-65.9	3.8	1.49e+00	0	40	104	0	72	21287
2026-01-05 23:36:28.15	189.28	8.50	-50.3	-65.9	3.8	1.49e+00	0	40	104	0	72	21383
2026-01-05 23:36:30.87	189.35	8.28	-50.3	-65.8	3.8	1.49e+00	0	40	104	0	72	21229
2026-01-05 23:36:34.17	189.42	8.02	-50.3	-65.8	3.8	1.49e+00	0	40	104	0	72	21256
2026-01-05 23:36:36.90	189.48	7.80	-50.3	-65.8	3.8	1.49e+00	0	40	104	0	72	21205
2026-01-05 23:36:40.20	189.55	7.54	-50.3	-65.8	3.8	1.49e+00	0	40	104	0	72	21237
2026-01-05 23:36:42.92	189.61	7.33	-50.3	-65.8	3.8	1.49e+00	0	39	104	0	72	21238
2026-01-05 23:36:46.22	189.67	7.07	-50.3	-65.8	3.8	1.49e+00	0	39	104	0	72	21254
2026-01-05 23:36:48.95	189.73	6.86	-50.3	-65.8	3.8	1.49e+00	0	39	104	0	72	21247
2026-01-05 23:36:52.25	189.80	6.61	-50.3	-65.9	3.8	1.49e+00	0	40	104	0	72	21332
2026-01-05 23:36:54.97	189.85	6.40	-50.3	-65.9	3.8	1.49e+00	0	40	104	0	72	21403
2026-01-05 23:36:58.27	189.92	6.16	-50.3	-65.8	3.8	1.49e+00	0	40	104	0	72	21193
2026-01-05 23:37:01.03	189.97	5.95	-50.3	-65.9	3.8	1.49e+00	0	40	104	0	72	21282
2026-01-05 23:37:04.33	190.03	5.71	-50.3	-65.9	3.8	1.49e+00	0	40	104	0	72	21287
2026-01-05 23:37:07.16	190.09	5.50	-50.3	-65.9	3.8	1.49e+00	0	40	104	0	72	21270
2026-01-05 23:37:10.31	190.15	5.28	-50.3	-65.9	3.8	1.49e+00	0	40	104	0	72	21264
2026-01-05 23:37:13.18	190.20	5.07	-50.3	-65.8	3.8	1.49e+00	0	40	104	0	72	21236

#Closed at: 2026-01-05 23:37:15
#Recorded file [0 MB]: D:/Data/31040_260106_022419.dat