passes_logs/2026/01/05/T1/T1__20260105_105338_SUOMI_NPP_rec.log

#Pass ID: 20260105_105338_SUOMI NPP
#Satellite: SUOMI NPP
#Configuration: NPP
#almurnet v.1.7.20251203
#Start time: 2026-01-05 10:53:38

#Version: 2.0.20230620
#Station: T1
#Location: 37.570604 lon 55.790049 lat
#TLE: 1 37849U 11061A   26003.96724563  .00000164  00000+0  98899-4 0  9990
#TLE: 2 37849  98.7800 306.1116 0002573  82.3190 277.8279 14.19522066735141

#Time	Az	El	Level	Level2	SNR	BER	BlckErr	Temp	State	Recorded	gain1	gain2
2026-01-05 10:53:38.66	188.87	5.04	-49.8	-65.6	3.8	1.49e+00	0	41	0	0	70	23267
2026-01-05 10:53:41.67	189.03	5.25	-49.2	-65.2	3.8	1.49e+00	0	41	104	0	69	23412
2026-01-05 10:53:44.68	189.19	5.45	-49.3	-64.9	3.8	1.49e+00	0	41	104	0	69	22750
2026-01-05 10:53:47.70	189.35	5.66	-49.2	-65.0	3.8	1.49e+00	0	41	104	0	69	23014
2026-01-05 10:53:50.71	189.51	5.87	-49.3	-65.1	3.8	1.49e+00	0	41	104	0	69	23132
2026-01-05 10:53:53.72	189.67	6.08	-49.2	-64.9	3.8	1.49e+00	0	41	104	0	69	22682
2026-01-05 10:53:56.73	189.84	6.29	-49.2	-64.5	3.8	1.49e+00	0	41	104	0	69	21672
2026-01-05 10:53:59.74	190.01	6.51	-49.2	-65.0	3.8	1.49e+00	0	41	104	0	69	22908
2026-01-05 10:54:02.76	190.18	6.72	-49.3	-65.0	3.8	1.49e+00	0	41	104	0	69	23032
2026-01-05 10:54:05.77	190.35	6.94	-49.2	-64.3	3.8	1.49e+00	0	42	104	0	69	21173
2026-01-05 10:54:08.78	190.53	7.16	-49.2	-65.0	3.8	1.49e+00	0	42	104	0	69	22956
2026-01-05 10:54:11.79	190.71	7.38	-49.2	-64.5	3.8	1.49e+00	0	42	104	0	69	21753
2026-01-05 10:54:14.80	190.89	7.60	-48.4	-56.6	7.6	2.10e-01	0	42	0	3145728	68	9211
2026-01-05 10:54:17.81	191.07	7.83	-46.7	-51.9	12.2	4.20e-04	0	42	0	8388608	65	6378
2026-01-05 10:54:20.82	191.26	8.05	-45.6	-49.6	14.6	7.00e-07	0	42	0	14680064	63	5500
2026-01-05 10:54:23.84	191.45	8.28	-45.8	-50.0	14.2	7.00e-07	0	42	0	19922944	63	5726
2026-01-05 10:54:26.84	191.64	8.51	-46.8	-52.1	12.0	9.30e-05	0	42	0	25165824	64	6906
2026-01-05 10:54:29.86	191.84	8.74	-48.1	-55.9	8.1	4.98e-02	0	42	0	31457280	66	9525
2026-01-05 10:54:32.87	192.03	8.97	-48.9	-60.3	4.8	7.20e-01	0	42	0	36700160	68	14197
2026-01-05 10:54:35.88	192.24	9.21	-49.1	-63.1	3.8	5.07e-02	0	42	104	41943040	68	19531
2026-01-05 10:54:38.88	192.44	9.44	-49.2	-63.4	3.8	4.41e-01	0	42	104	44040192	69	19090
2026-01-05 10:54:41.89	192.65	9.68	-46.9	-51.8	12.2	8.22e-04	0	42	0	47185920	65	6329
2026-01-05 10:54:44.89	192.86	9.92	-46.9	-51.6	12.5	7.55e-05	0	42	0	53477376	65	6168
2026-01-05 10:54:47.98	193.08	10.17	-46.5	-50.7	13.5	2.82e-05	0	43	0	58720256	64	5913
2026-01-05 10:54:50.87	193.29	10.40	-45.8	-49.5	14.7	7.00e-07	0	42	0	65011712	63	5449
2026-01-05 10:54:54.01	193.52	10.66	-45.4	-48.9	15.4	0.00e+00	0	43	0	70254592	62	5358
2026-01-05 10:54:56.88	193.73	10.90	-45.0	-48.2	16.0	0.00e+00	0	43	0	75497472	61	5261
2026-01-05 10:55:00.08	193.97	11.16	-45.0	-48.1	16.1	0.00e+00	0	42	0	81788928	61	5215
2026-01-05 10:55:02.95	194.19	11.41	-45.0	-48.2	16.1	0.00e+00	0	43	0	87031808	61	5245
2026-01-05 10:55:06.00	194.43	11.66	-44.7	-47.7	16.5	0.00e+00	0	43	0	93323264	61	4975
2026-01-05 10:55:09.00	194.67	11.92	-44.5	-47.5	16.7	0.00e+00	0	43	0	98566144	61	4862
2026-01-05 10:55:12.01	194.92	12.18	-44.5	-47.5	16.7	0.00e+00	0	43	0	103809024	60	5106
2026-01-05 10:55:15.02	195.16	12.44	-44.4	-47.2	17.0	0.00e+00	0	43	0	110100480	60	4958
2026-01-05 10:55:18.02	195.42	12.71	-44.1	-46.8	17.4	0.00e+00	0	43	0	115343360	60	4729
2026-01-05 10:55:21.03	195.67	12.97	-44.0	-46.6	17.5	0.00e+00	0	43	0	120586240	59	4915
2026-01-05 10:55:24.04	195.93	13.24	-43.9	-46.5	17.7	0.00e+00	0	43	0	126877696	59	4840
2026-01-05 10:55:27.04	196.20	13.52	-43.8	-46.4	17.7	0.00e+00	0	43	0	132120576	59	4810
2026-01-05 10:55:30.05	196.47	13.79	-44.1	-46.8	17.4	0.00e+00	0	43	0	138412032	59	5002
2026-01-05 10:55:33.18	196.76	14.08	-44.0	-46.7	17.4	0.00e+00	0	43	0	143654912	59	4961
2026-01-05 10:55:36.48	197.07	14.39	-44.0	-46.7	17.4	0.00e+00	0	43	0	149946368	59	4966
2026-01-05 10:55:39.20	197.32	14.64	-44.0	-46.7	17.5	0.00e+00	0	43	0	155189248	59	4927
2026-01-05 10:55:42.53	197.65	14.96	-44.1	-46.7	17.5	0.00e+00	0	43	0	161480704	59	4981
2026-01-05 10:55:45.38	197.93	15.23	-44.3	-47.0	17.2	0.00e+00	0	43	0	166723584	59	5120
2026-01-05 10:55:48.74	198.27	15.55	-44.4	-47.1	17.1	0.00e+00	0	43	0	173015040	59	5207
2026-01-05 10:55:51.46	198.55	15.82	-44.6	-47.3	17.1	0.00e+00	0	43	0	178257920	59	5315
2026-01-05 10:55:54.75	198.89	16.14	-44.5	-47.2	17.1	0.00e+00	0	43	0	184549376	59	5276
2026-01-05 10:55:57.57	199.19	16.42	-44.7	-47.5	16.9	0.00e+00	0	43	0	189792256	59	5407
2026-01-05 10:56:00.72	199.53	16.74	-44.7	-47.4	17.0	0.00e+00	0	43	0	195035136	60	5100
2026-01-05 10:56:03.86	199.88	17.06	-44.7	-47.5	16.9	0.00e+00	0	43	0	201326592	60	5150
2026-01-05 10:56:06.86	200.22	17.37	-44.7	-47.5	16.9	0.00e+00	0	43	0	206569472	60	5117
2026-01-05 10:56:09.87	200.57	17.68	-44.8	-47.7	16.8	0.00e+00	0	43	0	212860928	60	5225
2026-01-05 10:56:12.88	200.92	17.99	-44.7	-47.5	16.9	0.00e+00	0	43	0	218103808	60	5126
2026-01-05 10:56:15.89	201.28	18.31	-44.6	-47.3	17.1	0.00e+00	0	43	0	223346688	60	5013
2026-01-05 10:56:18.78	201.64	18.61	-44.6	-47.3	17.2	0.00e+00	0	43	0	229638144	60	5018
2026-01-05 10:56:21.94	202.03	18.95	-44.5	-47.1	17.3	0.00e+00	0	43	0	234881024	60	4908
2026-01-05 10:56:24.88	202.41	19.27	-44.5	-47.2	17.2	0.00e+00	0	43	0	241172480	60	4954
2026-01-05 10:56:28.03	202.82	19.62	-44.6	-47.3	17.1	0.00e+00	0	43	0	246415360	60	5041
2026-01-05 10:56:30.89	203.20	19.93	-44.6	-47.3	17.2	0.00e+00	0	43	0	251658240	60	5014
2026-01-05 10:56:34.04	203.63	20.28	-44.7	-47.4	17.1	0.00e+00	0	43	0	257949696	60	5059
2026-01-05 10:56:36.91	204.03	20.61	-44.7	-47.5	17.1	0.00e+00	0	43	0	263192576	60	5111
2026-01-05 10:56:40.05	204.48	20.96	-44.8	-47.5	17.0	0.00e+00	0	43	0	269484032	60	5134
2026-01-05 10:56:42.92	204.89	21.29	-44.8	-47.7	16.9	0.00e+00	0	43	0	274726912	60	5219
2026-01-05 10:56:46.07	205.36	21.66	-44.8	-47.5	17.0	0.00e+00	0	43	0	281018368	60	5149
2026-01-05 10:56:49.30	205.85	22.03	-45.1	-47.9	16.6	0.00e+00	0	43	0	286261248	60	5400
2026-01-05 10:56:52.33	206.32	22.39	-45.1	-48.0	16.5	0.00e+00	0	43	0	292552704	61	5131
2026-01-05 10:56:55.34	206.80	22.75	-45.2	-48.1	16.5	0.00e+00	0	43	0	297795584	61	5187
2026-01-05 10:56:58.35	207.29	23.11	-45.0	-47.8	16.7	0.00e+00	0	43	0	303038464	61	5032
2026-01-05 10:57:01.35	207.79	23.47	-45.0	-47.7	16.8	0.00e+00	0	43	0	309329920	61	4983
2026-01-05 10:57:04.46	208.32	23.85	-44.4	-46.9	17.6	0.00e+00	0	43	0	314572800	60	4810
2026-01-05 10:57:07.35	208.82	24.20	-44.1	-46.7	17.7	0.00e+00	0	43	0	319815680	59	4941
2026-01-05 10:57:10.51	209.38	24.59	-44.1	-46.7	17.7	0.00e+00	0	43	0	326107136	59	4944
2026-01-05 10:57:13.36	209.90	24.94	-44.8	-47.6	17.0	0.00e+00	0	43	0	331350016	60	5175
2026-01-05 10:57:16.51	210.49	25.34	-45.1	-47.9	16.7	0.00e+00	0	43	0	337641472	61	5077
2026-01-05 10:57:19.42	211.04	25.71	-44.8	-47.5	17.1	0.00e+00	0	43	0	342884352	61	4835
2026-01-05 10:57:22.66	211.68	26.12	-44.4	-47.1	17.5	0.00e+00	0	43	0	349175808	60	4878
2026-01-05 10:57:25.53	212.25	26.48	-44.9	-47.8	16.8	0.00e+00	0	43	0	354418688	60	5280
2026-01-05 10:57:28.69	212.90	26.89	-45.5	-48.5	16.1	0.00e+00	0	43	0	360710144	61	5450
2026-01-05 10:57:32.10	213.62	27.33	-45.2	-48.0	16.6	0.00e+00	0	43	0	367001600	61	5149
2026-01-05 10:57:34.82	214.20	27.68	-45.3	-48.2	16.4	0.00e+00	0	43	0	372244480	61	5274
2026-01-05 10:57:38.11	214.93	28.11	-45.8	-48.9	15.8	0.00e+00	0	43	0	377487360	62	5386
2026-01-05 10:57:41.00	215.58	28.49	-46.1	-49.3	15.4	0.00e+00	0	43	0	383778816	63	5340
2026-01-05 10:57:44.14	216.31	28.90	-45.5	-48.5	16.1	0.00e+00	0	43	0	389021696	62	5137
2026-01-05 10:57:47.36	217.08	29.32	-45.5	-48.5	16.2	0.00e+00	0	43	0	395313152	62	5117
2026-01-05 10:57:50.36	217.81	29.72	-45.6	-48.6	16.1	0.00e+00	0	43	0	400556032	62	5196
2026-01-05 10:57:53.37	218.56	30.11	-45.1	-47.9	16.8	0.00e+00	0	43	0	406847488	62	4788
2026-01-05 10:57:56.37	219.33	30.51	-45.1	-47.9	16.7	0.00e+00	0	43	0	412090368	61	5071
2026-01-05 10:57:59.46	220.14	30.91	-45.6	-48.7	15.9	0.00e+00	0	43	0	418381824	62	5265
2026-01-05 10:58:02.33	220.91	31.29	-45.7	-48.7	16.0	0.00e+00	0	43	0	423624704	62	5257
2026-01-05 10:58:05.48	221.78	31.70	-45.8	-48.9	15.9	0.00e+00	0	43	0	428867584	62	5380
2026-01-05 10:58:08.34	222.58	32.08	-46.1	-49.2	15.5	0.00e+00	0	43	0	435159040	63	5276
2026-01-05 10:58:11.48	223.49	32.49	-47.3	-51.3	13.5	4.50e-06	0	43	0	440401920	65	5933
2026-01-05 10:58:14.35	224.33	32.86	-48.0	-52.8	11.9	7.22e-04	0	43	0	445644800	67	6280
2026-01-05 10:58:17.50	225.29	33.26	-46.6	-50.3	14.5	0.00e+00	0	43	0	451936256	65	5304
2026-01-05 10:58:20.36	226.17	33.63	-47.2	-51.1	13.6	2.20e-06	0	43	0	457179136	64	6199
2026-01-05 10:58:23.51	227.17	34.02	-47.0	-50.8	13.7	2.20e-06	0	43	0	463470592	65	5615
2026-01-05 10:58:26.37	228.09	34.38	-46.9	-50.6	14.1	4.50e-06	0	43	0	468713472	65	5490
2026-01-05 10:58:29.68	229.19	34.79	-46.9	-50.6	14.1	1.50e-06	0	43	0	475004928	65	5513
2026-01-05 10:58:32.40	230.11	35.12	-47.4	-51.6	13.1	2.74e-05	0	43	0	480247808	65	6167
2026-01-05 10:58:35.69	231.25	35.51	-47.4	-51.4	13.1	1.67e-05	0	43	0	485490688	65	6052
2026-01-05 10:58:38.70	232.32	35.86	-47.2	-51.1	13.6	1.29e-05	0	43	0	491782144	65	5831
2026-01-05 10:58:42.00	233.51	36.24	-47.4	-51.5	13.2	1.37e-05	0	43	0	498073600	65	6127
2026-01-05 10:58:44.72	234.51	36.54	-46.7	-50.3	14.3	1.50e-06	0	43	0	503316480	65	5316
2026-01-05 10:58:48.10	235.79	36.91	-47.3	-51.3	13.4	5.30e-06	0	43	0	509607936	65	5927
2026-01-05 10:58:51.11	236.95	37.23	-47.4	-51.4	13.3	4.50e-06	0	44	0	514850816	65	6007
2026-01-05 10:58:54.99	238.47	37.62	-46.1	-49.3	15.6	0.00e+00	0	43	0	522190848	63	5280
2026-01-05 10:58:57.89	239.64	37.90	-46.2	-49.4	15.4	0.00e+00	0	43	0	527433728	63	5372
2026-01-05 10:59:01.04	240.92	38.20	-45.9	-49.0	15.8	0.00e+00	0	43	0	533725184	63	5129
2026-01-05 10:59:03.90	242.11	38.45	-46.1	-49.2	15.5	0.00e+00	0	43	0	538968064	63	5268
2026-01-05 10:59:07.13	243.47	38.73	-46.4	-49.9	14.8	0.00e+00	0	43	0	545259520	64	5384
2026-01-05 10:59:09.99	244.70	38.96	-45.3	-48.2	16.6	0.00e+00	0	43	0	550502400	62	4929
2026-01-05 10:59:13.16	246.08	39.20	-45.8	-49.0	15.8	0.00e+00	0	43	0	555745280	62	5412
2026-01-05 10:59:16.15	247.39	39.40	-47.4	-51.4	13.2	5.34e-05	0	43	0	562036736	66	5689
2026-01-05 10:59:19.51	248.89	39.62	-46.4	-49.7	15.1	0.00e+00	0	43	0	568328192	63	5565
2026-01-05 10:59:22.49	250.24	39.80	-45.8	-48.9	15.8	0.00e+00	0	43	0	573571072	63	5053
2026-01-05 10:59:25.79	251.74	39.97	-47.0	-50.8	13.9	1.14e-05	0	43	0	579862528	65	5615
2026-01-05 10:59:28.51	253.00	40.10	-46.9	-50.6	14.1	0.00e+00	0	43	0	585105408	65	5494
2026-01-05 10:59:31.85	254.55	40.23	-45.6	-48.6	16.2	0.00e+00	0	43	0	591396864	63	4895
2026-01-05 10:59:34.57	255.82	40.33	-47.7	-52.1	12.7	3.66e-05	0	43	0	596639744	66	6132
2026-01-05 10:59:37.86	257.36	40.42	-47.2	-51.1	13.8	1.37e-05	0	43	0	602931200	66	5478
2026-01-05 10:59:40.58	258.65	40.48	-46.9	-50.4	14.3	0.00e+00	0	43	0	608174080	65	5388
2026-01-05 10:59:43.87	260.21	40.53	-48.3	-53.2	11.5	2.39e-04	0	43	0	613416960	67	6631
2026-01-05 10:59:46.81	261.60	40.56	-48.4	-53.3	11.6	1.45e-03	0	43	0	619708416	68	6301
2026-01-05 10:59:50.82	263.51	40.56	-45.9	-49.0	15.8	0.00e+00	0	43	0	627048448	63	5156
2026-01-05 10:59:53.57	264.81	40.55	-48.5	-53.7	10.8	4.12e-04	0	43	0	632291328	67	7025
2026-01-05 10:59:57.42	266.64	40.50	-46.5	-50.1	14.7	7.00e-07	0	43	0	639631360	65	5162
2026-01-05 11:00:00.16	267.93	40.44	-45.9	-49.0	15.7	0.00e+00	0	43	0	643825664	63	5151
2026-01-05 11:00:03.64	269.57	40.35	-45.2	-48.0	16.8	0.00e+00	0	43	0	651165696	62	4826
2026-01-05 11:00:06.65	270.97	40.25	-46.7	-50.4	14.5	0.00e+00	0	43	0	656408576	63	5996
2026-01-05 11:00:09.65	272.37	40.13	-46.1	-49.4	15.4	0.00e+00	0	43	0	661651456	63	5346
2026-01-05 11:00:12.66	273.75	39.99	-46.5	-50.2	14.5	7.00e-07	0	43	0	667942912	64	5570
2026-01-05 11:00:15.67	275.13	39.83	-46.0	-49.2	15.6	0.00e+00	0	43	0	673185792	63	5249
2026-01-05 11:00:18.67	276.48	39.66	-45.5	-48.5	16.2	0.00e+00	0	43	0	679477248	63	4835
2026-01-05 11:00:21.68	277.83	39.47	-45.4	-48.4	16.4	0.00e+00	0	43	0	684720128	61	5388
2026-01-05 11:00:24.76	279.19	39.26	-44.9	-47.7	17.1	0.00e+00	0	43	0	689963008	61	4927
2026-01-05 11:00:27.69	280.46	39.05	-44.6	-47.4	17.3	0.00e+00	0	43	0	696254464	60	5058
2026-01-05 11:00:31.09	281.92	38.78	-43.7	-46.1	18.3	0.00e+00	0	43	0	702545920	59	4626
2026-01-05 11:00:34.00	283.15	38.54	-43.6	-46.0	18.5	0.00e+00	0	43	0	707788800	58	4823
2026-01-05 11:00:37.29	284.52	38.25	-44.5	-47.1	17.5	0.00e+00	0	43	0	714080256	59	5171
2026-01-05 11:00:40.01	285.63	38.00	-44.7	-47.4	17.3	0.00e+00	0	43	0	719323136	60	5078
2026-01-05 11:00:43.31	286.96	37.68	-43.5	-45.9	18.6	0.00e+00	0	44	0	725614592	59	4516
2026-01-05 11:00:46.02	288.03	37.41	-43.3	-45.6	18.9	0.00e+00	0	43	0	730857472	57	4875
2026-01-05 11:00:49.29	289.30	37.08	-44.4	-47.0	17.6	0.00e+00	0	43	0	736100352	59	5152
2026-01-05 11:00:52.30	290.44	36.75	-43.0	-45.3	19.1	0.00e+00	0	44	0	742391808	58	4456
2026-01-05 11:00:55.35	291.58	36.42	-40.9	-42.8	21.1	0.00e+00	0	43	0	747634688	53	4470
2026-01-05 11:00:58.28	292.65	36.09	-42.4	-44.6	19.6	0.00e+00	0	43	0	752877568	55	4877
2026-01-05 11:01:01.28	293.72	35.75	-43.3	-45.7	18.8	0.00e+00	0	44	0	759169024	57	4933
2026-01-05 11:01:04.29	294.78	35.39	-44.6	-47.3	17.4	0.00e+00	0	43	0	764411904	59	5320
2026-01-05 11:01:07.29	295.81	35.04	-44.4	-47.1	17.6	0.00e+00	0	43	0	770703360	60	4897
2026-01-05 11:01:10.37	296.84	34.66	-45.3	-48.2	16.6	0.00e+00	0	43	0	775946240	61	5225
2026-01-05 11:01:13.34	297.81	34.30	-46.3	-49.6	15.2	0.00e+00	0	43	0	781189120	63	5527
2026-01-05 11:01:16.49	298.82	33.91	-46.9	-50.6	14.1	7.00e-07	0	43	0	787480576	64	5810
2026-01-05 11:01:19.35	299.72	33.55	-47.7	-52.3	12.4	5.96e-04	0	43	0	792723456	66	6281
2026-01-05 11:01:22.49	300.68	33.15	-46.2	-49.6	15.2	0.00e+00	0	43	0	799014912	63	5465
2026-01-05 11:01:25.35	301.53	32.78	-47.3	-51.5	13.3	6.80e-06	0	43	0	804257792	65	6093
2026-01-05 11:01:28.63	302.49	32.36	-47.5	-52.3	12.5	9.68e-05	0	43	0	810549248	66	6320
2026-01-05 11:01:31.34	303.26	32.01	-47.5	-51.9	12.9	1.06e-04	0	43	0	815792128	66	6005
2026-01-05 11:01:34.62	304.18	31.58	-45.8	-49.0	15.8	0.00e+00	0	43	0	821035008	63	5103
2026-01-05 11:01:37.75	305.03	31.17	-45.8	-48.9	15.9	0.00e+00	0	43	0	827326464	62	5366
2026-01-05 11:01:40.61	305.78	30.80	-46.6	-50.2	14.5	7.00e-07	0	43	0	832569344	64	5564
2026-01-05 11:01:43.74	306.59	30.39	-45.5	-48.4	16.3	0.00e+00	0	44	0	838860800	62	5096
2026-01-05 11:01:46.60	307.32	30.02	-46.3	-49.6	15.1	0.00e+00	0	43	0	844103680	63	5519
2026-01-05 11:01:49.87	308.12	29.59	-44.3	-47.0	17.6	0.00e+00	0	43	0	850395136	60	4823
2026-01-05 11:01:52.79	308.83	29.21	-44.0	-46.5	18.0	0.00e+00	0	43	0	855638016	59	4843
2026-01-05 11:01:55.79	309.53	28.82	-44.7	-47.5	17.2	0.00e+00	0	44	0	860880896	60	5107
2026-01-05 11:01:58.79	310.22	28.43	-43.1	-45.4	19.1	0.00e+00	0	43	0	867172352	58	4495
2026-01-05 11:02:01.79	310.89	28.04	-44.2	-46.8	17.7	0.00e+00	0	43	0	872415232	59	5024
2026-01-05 11:02:04.95	311.58	27.63	-44.8	-47.6	17.0	0.00e+00	0	43	0	878706688	61	4880
2026-01-05 11:02:07.84	312.20	27.26	-43.0	-45.3	19.1	0.00e+00	0	43	0	883949568	57	4726
2026-01-05 11:02:10.99	312.86	26.86	-42.7	-45.0	19.4	0.00e+00	0	43	0	889192448	56	4842
2026-01-05 11:02:13.85	313.44	26.49	-43.1	-45.6	18.8	0.00e+00	0	44	0	895483904	57	4902
2026-01-05 11:02:17.00	314.07	26.09	-42.4	-44.7	19.6	0.00e+00	0	44	0	900726784	56	4669
2026-01-05 11:02:19.86	314.62	25.73	-43.0	-45.3	19.1	0.00e+00	0	44	0	905969664	56	4997
2026-01-05 11:02:23.00	315.22	25.34	-44.1	-46.6	17.9	0.00e+00	0	44	0	912261120	58	5204
2026-01-05 11:02:25.86	315.75	24.99	-43.1	-45.4	19.0	0.00e+00	0	43	0	917504000	57	4775
2026-01-05 11:02:29.09	316.33	24.59	-42.4	-44.6	19.7	0.00e+00	0	43	0	923795456	56	4614
2026-01-05 11:02:31.95	316.84	24.24	-42.8	-45.1	19.3	0.00e+00	0	44	0	929038336	56	4894
2026-01-05 11:02:35.10	317.38	23.85	-42.9	-45.2	19.1	0.00e+00	0	43	0	935329792	56	4972
2026-01-05 11:02:37.97	317.87	23.51	-42.4	-44.6	19.6	0.00e+00	0	44	0	940572672	56	4628
2026-01-05 11:02:41.12	318.39	23.13	-42.4	-44.6	19.6	0.00e+00	0	43	0	945815552	56	4610
2026-01-05 11:02:43.99	318.86	22.79	-42.9	-45.3	19.1	0.00e+00	0	44	0	951058432	56	4987
2026-01-05 11:02:47.14	319.35	22.42	-43.3	-45.7	18.6	0.00e+00	0	43	0	957349888	57	4965
2026-01-05 11:02:50.13	319.82	22.07	-43.2	-45.6	18.7	0.00e+00	0	43	0	962592768	57	4905
2026-01-05 11:02:53.52	320.33	21.68	-43.3	-45.7	18.7	0.00e+00	0	44	0	969932800	57	4937
2026-01-05 11:02:56.23	320.73	21.37	-43.3	-45.8	18.5	0.00e+00	0	44	0	974127104	57	5008
2026-01-05 11:02:59.52	321.21	21.00	-43.3	-45.9	18.4	0.00e+00	0	43	0	980418560	57	5092
2026-01-05 11:03:02.24	321.59	20.69	-43.4	-46.0	18.4	0.00e+00	0	44	0	985661440	57	5123
2026-01-05 11:03:05.52	322.05	20.32	-43.7	-46.3	18.1	0.00e+00	0	44	0	991952896	58	5025
2026-01-05 11:03:08.35	322.43	20.01	-43.7	-46.3	18.1	0.00e+00	0	44	0	997195776	58	5005
2026-01-05 11:03:11.77	322.88	19.64	-44.1	-46.7	17.8	0.00e+00	0	43	0	1003487232	58	5226
2026-01-05 11:03:14.56	323.25	19.33	-44.9	-47.9	16.7	0.00e+00	0	43	0	1008730112	60	5377
2026-01-05 11:03:17.84	323.67	18.98	-46.1	-49.9	14.7	0.00e+00	0	43	0	1015021568	62	6010
2026-01-05 11:03:20.56	324.00	18.69	-46.2	-50.0	14.6	0.00e+00	0	44	0	1020264448	63	5745
2026-01-05 11:03:23.85	324.41	18.34	-44.9	-47.8	16.7	0.00e+00	0	43	0	1026555904	61	5010
2026-01-05 11:03:26.84	324.77	18.03	-44.1	-46.8	17.7	0.00e+00	0	43	0	1031798784	60	4710
2026-01-05 11:03:30.12	325.15	17.69	-44.2	-46.9	17.5	0.00e+00	0	43	0	1038090240	60	4814
2026-01-05 11:03:32.91	325.47	17.41	-44.5	-47.5	17.1	0.00e+00	0	43	0	1043333120	60	5142
2026-01-05 11:03:36.13	325.83	17.08	-44.6	-47.8	16.7	0.00e+00	0	44	0	1049624576	60	5316
2026-01-05 11:03:38.99	326.15	16.79	-44.6	-47.8	16.7	0.00e+00	0	43	0	1054867456	60	5334
2026-01-05 11:03:42.15	326.49	16.48	-44.4	-47.7	16.8	0.00e+00	0	44	0	1060110336	60	5240
2026-01-05 11:03:45.02	326.80	16.20	-44.0	-47.0	17.3	0.00e+00	0	43	0	1066401792	59	5151
2026-01-05 11:03:48.29	327.14	15.88	-44.0	-47.0	17.4	0.00e+00	0	43	0	1071644672	59	5117
2026-01-05 11:03:51.14	327.43	15.60	-44.3	-47.3	17.1	0.00e+00	0	43	0	1077936128	59	5298
2026-01-05 11:03:54.29	327.75	15.30	-44.4	-47.2	17.1	0.00e+00	0	44	0	1083179008	59	5272
2026-01-05 11:03:57.40	328.06	15.01	-44.5	-47.3	17.1	0.00e+00	0	43	0	1089470464	59	5321
2026-01-05 11:04:00.69	328.37	14.70	-44.3	-47.0	17.4	0.00e+00	0	44	0	1095761920	59	5112
2026-01-05 11:04:03.71	328.66	14.42	-44.3	-47.0	17.4	0.00e+00	0	43	0	1101004800	59	5114
2026-01-05 11:04:06.74	328.94	14.14	-44.7	-47.6	16.9	0.00e+00	0	43	0	1106247680	60	5186
2026-01-05 11:04:09.99	329.24	13.84	-45.1	-48.2	16.3	0.00e+00	0	43	0	1112539136	60	5533
2026-01-05 11:04:12.85	329.50	13.58	-45.6	-48.9	15.6	0.00e+00	0	43	0	1117782016	61	5708
2026-01-05 11:04:16.00	329.78	13.30	-45.8	-49.1	15.4	0.00e+00	0	43	0	1124073472	62	5527
2026-01-05 11:04:18.85	330.03	13.05	-45.9	-49.4	15.1	0.00e+00	0	44	0	1129316352	62	5708
2026-01-05 11:04:22.15	330.31	12.76	-45.7	-49.1	15.4	0.00e+00	0	44	0	1135607808	62	5489
2026-01-05 11:04:25.02	330.55	12.51	-45.4	-48.7	15.8	0.00e+00	0	43	0	1140850688	62	5238
2026-01-05 11:04:28.19	330.81	12.23	-45.2	-48.2	16.2	0.00e+00	0	44	0	1147142144	62	4969
2026-01-05 11:04:31.04	331.04	11.99	-44.8	-47.7	16.7	0.00e+00	0	44	0	1152385024	61	4972
2026-01-05 11:04:34.22	331.29	11.72	-44.7	-47.5	16.9	0.00e+00	0	43	0	1158676480	61	4849
2026-01-05 11:04:37.54	331.56	11.44	-44.6	-47.5	16.9	0.00e+00	0	44	0	1164967936	60	5117
2026-01-05 11:04:40.29	331.77	11.21	-44.5	-47.4	16.9	0.00e+00	0	43	0	1169162240	60	5091
2026-01-05 11:04:43.57	332.02	10.94	-44.5	-47.5	16.9	0.00e+00	0	44	0	1175453696	60	5109
2026-01-05 11:04:46.29	332.22	10.72	-44.5	-47.4	16.9	0.00e+00	0	43	0	1180696576	60	5088
2026-01-05 11:04:49.59	332.46	10.45	-44.7	-47.7	16.6	0.00e+00	0	44	0	1186988032	60	5235
2026-01-05 11:04:52.30	332.66	10.23	-44.8	-47.8	16.5	0.00e+00	0	43	0	1192230912	60	5318
2026-01-05 11:04:55.60	332.89	9.97	-45.0	-48.1	16.2	0.00e+00	0	43	0	1198522368	60	5524
2026-01-05 11:04:58.41	333.09	9.75	-45.1	-48.2	16.1	0.00e+00	0	43	0	1203765248	61	5266
2026-01-05 11:05:01.56	333.31	9.50	-45.4	-48.7	15.6	0.00e+00	0	44	0	1209008128	61	5560
2026-01-05 11:05:04.43	333.51	9.28	-45.6	-49.0	15.3	0.00e+00	0	43	0	1215299584	61	5784
2026-01-05 11:05:07.65	333.72	9.03	-45.7	-49.3	15.0	0.00e+00	0	43	0	1220542464	62	5597
2026-01-05 11:05:10.52	333.91	8.81	-50.2	-65.8	3.8	1.49e+00	0	43	104	1223688192	71	22507
2026-01-05 11:05:13.67	334.12	8.57	-50.6	-66.2	3.8	1.49e+00	0	43	104	1223688192	71	23456
2026-01-05 11:05:16.54	334.30	8.35	-50.6	-66.3	3.8	1.49e+00	0	43	104	1223688192	71	23686
2026-01-05 11:05:19.70	334.50	8.12	-50.8	-66.3	3.8	1.49e+00	0	43	104	1223688192	72	22373
2026-01-05 11:05:22.57	334.68	7.91	-51.1	-66.3	3.8	1.49e+00	0	43	104	1223688192	72	22403
2026-01-05 11:05:25.73	334.88	7.67	-51.1	-66.3	3.8	1.49e+00	0	43	104	1223688192	72	22390
2026-01-05 11:05:28.60	335.05	7.46	-51.0	-66.3	3.8	1.49e+00	0	44	104	1223688192	72	22290
2026-01-05 11:05:31.75	335.24	7.24	-50.9	-66.2	3.8	1.49e+00	0	43	104	1223688192	72	22180
2026-01-05 11:05:34.62	335.41	7.03	-50.7	-66.2	3.8	1.49e+00	0	43	104	1223688192	72	22083
2026-01-05 11:05:37.78	335.59	6.80	-50.7	-66.2	3.8	1.49e+00	0	44	104	1223688192	72	22191
2026-01-05 11:05:40.65	335.76	6.60	-50.7	-66.2	3.8	1.49e+00	0	43	104	1223688192	72	22116
2026-01-05 11:05:43.80	335.94	6.38	-50.7	-66.2	3.8	1.49e+00	0	44	104	1223688192	72	22095
2026-01-05 11:05:46.67	336.10	6.18	-50.7	-66.2	3.8	1.49e+00	0	44	104	1223688192	72	22113
2026-01-05 11:05:49.83	336.27	5.96	-50.6	-66.1	3.8	1.49e+00	0	44	104	1223688192	72	21833
2026-01-05 11:05:52.70	336.43	5.76	-50.6	-66.1	3.8	1.49e+00	0	44	104	1223688192	72	21782
2026-01-05 11:05:55.85	336.60	5.55	-50.6	-66.1	3.8	1.49e+00	0	44	104	1223688192	72	21778
2026-01-05 11:05:58.72	336.75	5.35	-50.6	-66.1	3.8	1.49e+00	0	44	104	1223688192	72	21888
2026-01-05 11:06:01.88	336.91	5.14	-50.6	-66.1	3.8	1.49e+00	0	44	104	1223688192	72	21849

#Closed at: 2026-01-05 11:06:04
#Recorded file [1223 MB]: D:/Data/31040_260105_135338.dat