passes_logs/2026/01/05/T1/T1__20260105_152138_FENGYUN_3E_rec.log

#Pass ID: 20260105_152138_FENGYUN 3E
#Satellite: FENGYUN 3E
#Configuration: FENGYUN 3E
#almurnet v.1.7.20251203
#Start time: 2026-01-05 15:21:41

#Version: 2.0.20230620
#Station: T1
#Location: 37.570604 lon 55.790049 lat
#TLE: 1 49008U 21062A   26004.99925679  .00000018  00000+0  29282-4 0  9995
#TLE: 2 49008  98.7472  10.2448 0001540 159.6420 200.4818 14.19883565233423

#Time	Az	El	Level	Level2	SNR	BER	BlckErr	Temp	State	Recorded	gain1	gain2
2026-01-05 15:21:41.02	197.58	5.14	-50.3	-61.3	3.8	8.47e-01	0	38	0	0	71	12461
2026-01-05 15:21:44.17	197.79	5.35	-50.3	-61.4	3.8	8.46e-01	0	38	104	0	71	12566
2026-01-05 15:21:47.15	197.99	5.54	-50.3	-61.2	3.8	8.46e-01	0	38	104	0	71	12335
2026-01-05 15:21:50.30	198.20	5.75	-50.2	-60.6	3.8	8.48e-01	0	39	104	0	71	11525
2026-01-05 15:21:53.17	198.40	5.94	-50.1	-60.3	3.8	8.46e-01	0	38	104	0	71	11066
2026-01-05 15:21:56.33	198.62	6.15	-50.1	-60.1	3.8	8.47e-01	0	39	104	0	71	10832
2026-01-05 15:21:59.24	198.82	6.35	-50.0	-59.3	3.8	8.45e-01	0	39	104	0	70	10515
2026-01-05 15:22:02.53	199.06	6.57	-49.9	-58.6	4.0	8.46e-01	0	39	104	0	70	9714
2026-01-05 15:22:05.48	199.27	6.77	-50.0	-59.5	3.8	8.45e-01	0	39	104	0	70	10705
2026-01-05 15:22:08.84	199.52	7.01	-50.2	-60.4	3.8	8.47e-01	0	39	104	0	70	11897
2026-01-05 15:22:11.57	199.73	7.19	-49.9	-59.0	3.8	8.44e-01	0	39	104	0	70	10072
2026-01-05 15:22:14.87	199.98	7.42	-50.1	-60.4	3.8	8.47e-01	0	39	104	0	70	11890
2026-01-05 15:22:17.59	200.19	7.62	-49.4	-56.3	4.8	8.36e-01	0	39	104	0	69	7872
2026-01-05 15:22:20.89	200.44	7.85	-44.5	-46.7	13.3	4.46e-05	0	39	0	19922944	59	4635
2026-01-05 15:22:23.61	200.66	8.04	-41.4	-43.0	16.7	0.00e+00	0	39	0	39845888	53	4276
2026-01-05 15:22:26.90	200.92	8.28	-40.7	-42.3	17.4	0.00e+00	0	40	0	63963136	51	4428
2026-01-05 15:22:29.62	201.14	8.47	-42.1	-43.8	16.0	0.00e+00	0	40	0	83886080	53	4690
2026-01-05 15:22:32.91	201.42	8.71	-45.7	-48.4	11.7	3.91e-04	0	40	0	106954752	60	5340
2026-01-05 15:22:35.63	201.64	8.91	-47.9	-52.4	7.7	8.27e-02	0	40	0	126877696	65	6292
2026-01-05 15:22:38.92	201.92	9.15	-46.3	-49.1	11.1	1.93e-02	0	40	0	150994944	63	4850
2026-01-05 15:22:41.63	202.16	9.35	-45.7	-48.4	11.9	4.82e-02	0	40	0	163577856	62	4710
2026-01-05 15:22:44.92	202.44	9.60	-44.4	-46.5	13.7	1.60e-05	0	40	0	187695104	59	4522
2026-01-05 15:22:47.85	202.70	9.82	-43.6	-45.5	14.7	1.10e-06	0	40	0	208666624	58	4255
2026-01-05 15:22:50.85	202.98	10.04	-41.4	-43.0	16.9	0.00e+00	0	40	0	229638144	53	4287
2026-01-05 15:22:53.87	203.25	10.27	-41.1	-42.6	17.3	0.00e+00	0	40	0	251658240	52	4331
2026-01-05 15:22:56.95	203.54	10.51	-41.0	-42.5	17.4	0.00e+00	0	40	0	273678336	52	4274
2026-01-05 15:22:59.89	203.82	10.73	-40.7	-42.1	17.8	0.00e+00	0	40	0	295698432	51	4335
2026-01-05 15:23:03.27	204.14	11.00	-40.4	-41.8	18.1	0.00e+00	0	40	0	319815680	51	4191
2026-01-05 15:23:06.14	204.42	11.22	-39.8	-41.2	18.7	0.00e+00	0	40	0	340787200	50	4124
2026-01-05 15:23:09.41	204.74	11.48	-39.9	-41.3	18.6	0.00e+00	0	40	0	363855872	50	4154
2026-01-05 15:23:12.42	205.04	11.72	-39.6	-40.9	19.0	0.00e+00	0	40	0	385875968	50	4002
2026-01-05 15:23:15.47	205.36	11.96	-39.5	-40.8	19.0	0.00e+00	0	40	0	407896064	49	4190
2026-01-05 15:23:18.42	205.66	12.20	-39.4	-40.7	19.1	0.00e+00	0	40	0	428867584	49	4143
2026-01-05 15:23:21.71	206.01	12.46	-39.3	-40.6	19.3	0.00e+00	0	40	0	452984832	49	4089
2026-01-05 15:23:24.53	206.31	12.69	-39.1	-40.5	19.4	0.00e+00	0	40	0	472907776	49	4036
2026-01-05 15:23:28.02	206.69	12.98	-39.2	-40.6	19.3	0.00e+00	0	40	0	498073600	48	4299
2026-01-05 15:23:30.74	206.99	13.20	-39.3	-40.7	19.2	0.00e+00	0	40	0	517996544	48	4370
2026-01-05 15:23:34.03	207.37	13.48	-39.2	-40.7	19.2	0.00e+00	0	40	0	542113792	48	4378
2026-01-05 15:23:36.74	207.68	13.70	-39.1	-40.5	19.3	0.00e+00	0	40	0	560988160	48	4275
2026-01-05 15:23:40.17	208.08	13.99	-39.0	-40.5	19.3	0.00e+00	0	40	0	586153984	48	4266
2026-01-05 15:23:43.52	208.47	14.28	-39.0	-40.4	19.3	0.00e+00	0	40	0	610271232	48	4239
2026-01-05 15:23:46.23	208.80	14.51	-38.8	-40.3	19.4	0.00e+00	0	40	0	630194176	48	4176
2026-01-05 15:23:49.55	209.21	14.79	-38.7	-40.2	19.6	0.00e+00	0	40	0	653262848	48	4110
2026-01-05 15:23:52.58	209.59	15.06	-38.4	-39.9	19.5	0.00e+00	0	40	0	675282944	47	4201
2026-01-05 15:23:56.29	210.06	15.38	-38.1	-39.6	19.8	0.00e+00	0	40	0	702545920	47	4056
2026-01-05 15:23:59.14	210.43	15.63	-38.1	-39.6	19.8	0.00e+00	0	40	0	722468864	46	4294
2026-01-05 15:24:03.05	210.95	15.98	-38.2	-39.6	19.7	0.00e+00	0	40	0	750780416	46	4329
2026-01-05 15:24:05.78	211.32	16.22	-38.3	-39.7	19.7	0.00e+00	0	40	0	770703360	46	4362
2026-01-05 15:24:09.72	211.86	16.57	-38.3	-39.7	19.7	0.00e+00	0	40	0	799014912	46	4372
2026-01-05 15:24:12.72	212.28	16.84	-38.3	-39.7	19.8	0.00e+00	0	41	0	821035008	46	4348
2026-01-05 15:24:16.04	212.75	17.14	-38.2	-39.5	20.0	0.00e+00	0	40	0	845152256	46	4260
2026-01-05 15:24:18.76	213.15	17.39	-37.9	-39.2	20.3	0.00e+00	0	41	0	864026624	46	4107
2026-01-05 15:24:22.05	213.64	17.69	-37.6	-38.8	20.6	0.00e+00	0	41	0	888143872	46	3944
2026-01-05 15:24:24.76	214.04	17.94	-37.6	-38.9	20.6	0.00e+00	0	41	0	908066816	45	4207
2026-01-05 15:24:28.04	214.55	18.25	-37.8	-39.1	20.4	0.00e+00	0	40	0	931135488	45	4314
2026-01-05 15:24:30.77	214.97	18.50	-37.7	-39.0	20.5	0.00e+00	0	40	0	951058432	45	4269
2026-01-05 15:24:34.12	215.51	18.82	-37.5	-38.8	20.6	0.00e+00	0	40	0	975175680	45	4167
2026-01-05 15:24:37.44	216.05	19.13	-37.5	-38.9	20.6	0.00e+00	0	40	0	999292928	45	4200
2026-01-05 15:24:40.38	216.53	19.41	-37.4	-38.7	20.7	0.00e+00	0	40	0	1020264448	45	4133
2026-01-05 15:24:43.38	217.04	19.69	-37.1	-38.5	20.8	0.00e+00	0	40	0	1042284544	44	4245
2026-01-05 15:24:46.35	217.55	19.97	-37.2	-38.6	20.7	0.00e+00	0	41	0	1063256064	44	4302
2026-01-05 15:24:49.60	218.11	20.28	-37.4	-38.7	20.6	0.00e+00	0	40	0	1087373312	44	4385
2026-01-05 15:24:52.56	218.64	20.57	-37.5	-38.9	20.5	0.00e+00	0	40	0	1108344832	44	4448
2026-01-05 15:24:55.84	219.23	20.88	-37.2	-38.5	20.8	0.00e+00	0	40	0	1132462080	44	4286
2026-01-05 15:24:58.80	219.78	21.17	-37.3	-38.7	20.7	0.00e+00	0	40	0	1153433600	44	4353
2026-01-05 15:25:02.69	220.52	21.54	-37.2	-38.5	20.8	0.00e+00	0	40	0	1181745152	44	4265
2026-01-05 15:25:05.65	221.09	21.83	-37.1	-38.4	20.9	0.00e+00	0	40	0	1202716672	44	4222
2026-01-05 15:25:08.65	221.68	22.12	-37.2	-38.6	20.8	0.00e+00	0	40	0	1224736768	44	4298
2026-01-05 15:25:11.66	222.28	22.41	-37.4	-38.8	20.6	0.00e+00	0	41	0	1246756864	44	4404
2026-01-05 15:25:14.66	222.89	22.70	-37.3	-38.7	20.8	0.00e+00	0	41	0	1267728384	44	4354
2026-01-05 15:25:17.67	223.51	22.99	-37.1	-38.5	21.0	0.00e+00	0	40	0	1289748480	44	4243
2026-01-05 15:25:20.67	224.14	23.28	-37.1	-38.4	20.9	0.00e+00	0	40	0	1311768576	44	4242
2026-01-05 15:25:23.68	224.79	23.58	-37.0	-38.3	21.0	0.00e+00	0	40	0	1333788672	44	4169
2026-01-05 15:25:26.69	225.45	23.87	-36.8	-38.1	21.2	0.00e+00	0	41	0	1354760192	44	4064
2026-01-05 15:25:29.70	226.12	24.16	-36.8	-38.1	21.2	0.00e+00	0	40	0	1376780288	44	4072
2026-01-05 15:25:32.80	226.83	24.45	-36.9	-38.3	21.0	0.00e+00	0	41	0	1398800384	44	4165
2026-01-05 15:25:35.66	227.49	24.73	-37.0	-38.3	21.0	0.00e+00	0	41	0	1419771904	44	4179
2026-01-05 15:25:38.80	228.22	25.03	-36.8	-38.1	21.2	0.00e+00	0	40	0	1441792000	44	4077
2026-01-05 15:25:42.03	229.00	25.33	-36.9	-38.2	21.1	0.00e+00	0	41	0	1465909248	44	4144
2026-01-05 15:25:45.03	229.73	25.62	-36.8	-38.2	21.1	0.00e+00	0	41	0	1486880768	44	4104
2026-01-05 15:25:48.03	230.48	25.90	-36.7	-38.0	21.3	0.00e+00	0	40	0	1508900864	44	4043
2026-01-05 15:25:51.04	231.24	26.17	-36.8	-38.1	21.2	0.00e+00	0	40	0	1530920960	44	4070
2026-01-05 15:25:54.05	232.01	26.45	-36.6	-38.0	21.3	0.00e+00	0	41	0	1551892480	44	4008
2026-01-05 15:25:57.06	232.80	26.72	-36.4	-37.6	21.4	0.00e+00	0	40	0	1573912576	43	4096
2026-01-05 15:26:00.76	233.78	27.06	-36.6	-37.9	21.3	0.00e+00	0	40	0	1601175552	43	4218
2026-01-05 15:26:03.50	234.53	27.30	-36.5	-37.8	21.3	0.00e+00	0	40	0	1621098496	43	4181
2026-01-05 15:26:07.30	235.57	27.63	-36.3	-37.6	21.5	0.00e+00	0	40	0	1648361472	43	4053
2026-01-05 15:26:10.10	236.36	27.87	-36.5	-37.8	21.3	0.00e+00	0	40	0	1668284416	43	4166
2026-01-05 15:26:13.84	237.43	28.19	-36.3	-37.5	21.5	0.00e+00	0	40	0	1695547392	43	4047
2026-01-05 15:26:16.82	238.29	28.43	-36.2	-37.5	21.5	0.00e+00	0	40	0	1716518912	43	4040
2026-01-05 15:26:19.97	239.22	28.69	-36.3	-37.7	21.4	0.00e+00	0	41	0	1739587584	43	4099
2026-01-05 15:26:23.29	240.22	28.95	-36.4	-37.8	21.4	0.00e+00	0	40	0	1763704832	43	4146
2026-01-05 15:26:26.35	241.15	29.18	-36.4	-37.7	21.4	0.00e+00	0	40	0	1785724928	43	4108
2026-01-05 15:26:30.12	242.31	29.47	-36.1	-37.4	21.6	0.00e+00	0	40	0	1812987904	43	3992
2026-01-05 15:26:32.95	243.20	29.67	-36.3	-37.6	21.5	0.00e+00	0	41	0	1832910848	42	4292
2026-01-05 15:26:36.30	244.27	29.90	-36.2	-37.5	21.5	0.00e+00	0	41	0	1857028096	42	4288
2026-01-05 15:26:39.03	245.15	30.09	-36.2	-37.5	21.5	0.00e+00	0	40	0	1876951040	42	4284
2026-01-05 15:26:42.32	246.22	30.30	-36.3	-37.6	21.4	0.00e+00	0	40	0	1901068288	42	4336
2026-01-05 15:26:45.14	247.15	30.48	-36.2	-37.5	21.5	0.00e+00	0	40	0	1920991232	42	4274
2026-01-05 15:26:48.78	248.36	30.69	-36.3	-37.6	21.5	0.00e+00	0	41	0	1947205632	42	4301
2026-01-05 15:26:52.02	249.46	30.88	-36.0	-37.2	21.8	0.00e+00	0	41	0	1971322880	42	4140
2026-01-05 15:26:55.20	250.54	31.04	-36.1	-37.5	21.6	0.00e+00	0	40	0	1993342976	42	4244
2026-01-05 15:26:58.34	251.62	31.20	-36.3	-37.7	21.4	0.00e+00	0	40	0	2016411648	42	4341
2026-01-05 15:27:01.20	252.62	31.33	-36.2	-37.5	21.5	0.00e+00	0	41	0	2037383168	42	4244
2026-01-05 15:27:04.44	253.75	31.47	-36.7	-37.6	22.2	0.00e+00	0	41	0	2060451840	42	4312
2026-01-05 15:27:07.31	254.77	31.59	-36.6	-37.4	22.3	0.00e+00	0	41	0	2081423360	42	4235
2026-01-05 15:27:10.81	256.01	31.71	-36.4	-37.3	22.4	0.00e+00	0	41	0	2106589184	42	4147
2026-01-05 15:27:13.93	257.13	31.81	-36.4	-37.3	22.4	0.00e+00	0	40	0	2129657856	42	4185
2026-01-05 15:27:17.96	258.58	31.93	-36.4	-37.3	22.4	0.00e+00	0	41	0	2157969408	42	4167
2026-01-05 15:27:20.73	259.59	31.99	-36.7	-37.5	22.2	0.00e+00	0	40	0	2177892352	42	4283
2026-01-05 15:27:24.56	260.98	32.07	-36.4	-37.2	22.4	0.00e+00	0	41	0	2205155328	42	4141
2026-01-05 15:27:27.35	262.00	32.11	-36.5	-37.4	22.4	0.00e+00	0	40	0	2226126848	42	4194
2026-01-05 15:27:31.06	263.36	32.16	-36.6	-37.4	22.3	0.00e+00	0	40	0	2252341248	42	4239
2026-01-05 15:27:34.10	264.48	32.18	-36.6	-37.5	22.3	0.00e+00	0	40	0	2274361344	42	4264
2026-01-05 15:27:37.89	265.87	32.19	-36.4	-37.2	22.5	0.00e+00	0	41	0	2301624320	42	4131
2026-01-05 15:27:40.76	266.92	32.19	-36.2	-37.0	22.7	0.00e+00	0	40	0	2322595840	42	4009
2026-01-05 15:27:43.90	268.08	32.17	-36.2	-37.0	22.6	0.00e+00	0	40	0	2345664512	42	4029
2026-01-05 15:27:46.76	269.12	32.14	-36.1	-37.0	22.7	0.00e+00	0	40	0	2365587456	42	4006
2026-01-05 15:27:50.02	270.32	32.10	-36.7	-37.6	22.2	0.00e+00	0	40	0	2389704704	42	4303
2026-01-05 15:27:52.90	271.37	32.05	-36.5	-37.4	22.3	0.00e+00	0	41	0	2410676224	43	3979
2026-01-05 15:27:56.08	272.52	31.99	-36.5	-37.3	22.4	0.00e+00	0	41	0	2433744896	43	3948
2026-01-05 15:27:59.44	273.74	31.91	-36.8	-37.6	22.1	0.00e+00	0	40	0	2457862144	43	4087
2026-01-05 15:28:02.17	274.72	31.83	-36.4	-37.3	22.4	0.00e+00	0	40	0	2477785088	43	3918
2026-01-05 15:28:05.64	275.96	31.72	-36.0	-36.8	22.8	0.00e+00	0	41	0	2501902336	42	3935
2026-01-05 15:28:08.45	276.96	31.62	-36.3	-37.2	22.5	0.00e+00	0	40	0	2522873856	42	4107
2026-01-05 15:28:11.84	278.16	31.49	-36.4	-37.3	22.4	0.00e+00	0	40	0	2546991104	42	4162
2026-01-05 15:28:15.15	279.32	31.34	-36.5	-37.4	22.3	0.00e+00	0	40	0	2571108352	42	4194
2026-01-05 15:28:18.33	280.42	31.20	-36.8	-37.7	22.0	0.00e+00	0	40	0	2594177024	43	4128
2026-01-05 15:28:21.18	281.40	31.06	-36.8	-37.7	22.0	0.00e+00	0	41	0	2614099968	43	4117
2026-01-05 15:28:24.33	282.48	30.89	-36.6	-37.5	22.2	0.00e+00	0	40	0	2637168640	43	4029
2026-01-05 15:28:27.19	283.44	30.73	-36.6	-37.4	22.3	0.00e+00	0	40	0	2658140160	43	3991
2026-01-05 15:28:30.33	284.49	30.55	-36.7	-37.5	22.2	0.00e+00	0	40	0	2680160256	43	4045
2026-01-05 15:28:33.41	285.51	30.36	-36.8	-37.7	22.1	0.00e+00	0	40	0	2702180352	43	4124
2026-01-05 15:28:36.85	286.63	30.14	-36.8	-37.6	22.1	0.00e+00	0	40	0	2727346176	43	4098
2026-01-05 15:28:39.57	287.50	29.96	-36.7	-37.5	22.2	0.00e+00	0	40	0	2747269120	43	4034
2026-01-05 15:28:42.86	288.55	29.73	-36.6	-37.4	22.3	0.00e+00	0	40	0	2771386368	43	3991
2026-01-05 15:28:45.57	289.40	29.54	-36.7	-37.6	22.1	0.00e+00	0	40	0	2790260736	43	4062
2026-01-05 15:28:48.87	290.42	29.30	-36.6	-37.5	22.2	0.00e+00	0	40	0	2814377984	43	4023
2026-01-05 15:28:51.59	291.25	29.09	-36.7	-37.5	22.2	0.00e+00	0	40	0	2834300928	43	4032
2026-01-05 15:28:55.16	292.33	28.82	-36.6	-37.5	22.2	0.00e+00	0	40	0	2859466752	43	4035
2026-01-05 15:28:58.09	293.20	28.58	-36.6	-37.5	22.3	0.00e+00	0	40	0	2880438272	43	4015
2026-01-05 15:29:02.16	294.38	28.25	-36.9	-37.8	22.0	0.00e+00	0	40	0	2909798400	43	4169
2026-01-05 15:29:04.96	295.18	28.02	-37.0	-37.9	21.9	0.00e+00	0	40	0	2930769920	43	4211
2026-01-05 15:29:09.01	296.32	27.68	-37.0	-37.9	21.9	0.00e+00	0	40	0	2960130048	43	4212
2026-01-05 15:29:11.75	297.08	27.44	-37.0	-37.8	22.0	0.00e+00	0	40	0	2979004416	43	4189
2026-01-05 15:29:15.47	298.09	27.11	-36.9	-37.8	22.0	0.00e+00	0	40	0	3006267392	43	4175
2026-01-05 15:29:18.32	298.85	26.86	-36.8	-37.6	22.1	0.00e+00	0	40	0	3027238912	43	4094
2026-01-05 15:29:22.08	299.83	26.52	-36.9	-37.7	22.0	0.00e+00	0	41	0	3054501888	43	4134
2026-01-05 15:29:25.05	300.60	26.25	-36.9	-37.8	22.0	0.00e+00	0	40	0	3075473408	43	4170
2026-01-05 15:29:29.16	301.63	25.87	-36.9	-37.8	22.0	0.00e+00	0	41	0	3104833536	43	4174
2026-01-05 15:29:31.92	302.31	25.61	-37.0	-37.9	21.8	0.00e+00	0	40	0	3125805056	43	4216
2026-01-05 15:29:35.96	303.29	25.24	-37.3	-38.2	21.8	0.00e+00	0	40	0	3154116608	44	4133
2026-01-05 15:29:38.78	303.96	24.97	-37.2	-38.1	21.8	0.00e+00	0	40	0	3175088128	44	4057
2026-01-05 15:29:42.85	304.91	24.59	-37.2	-38.0	21.9	0.00e+00	0	40	0	3204448256	44	4050
2026-01-05 15:29:45.98	305.62	24.29	-37.2	-38.0	21.9	0.00e+00	0	40	0	3226468352	44	4039
2026-01-05 15:29:49.78	306.46	23.92	-37.5	-38.4	21.6	0.00e+00	0	40	0	3253731328	44	4223
2026-01-05 15:29:52.54	307.07	23.66	-37.6	-38.5	21.5	0.00e+00	0	41	0	3273654272	44	4278
2026-01-05 15:29:56.21	307.85	23.31	-37.6	-38.5	21.5	0.00e+00	0	40	0	3299868672	44	4278
2026-01-05 15:29:58.99	308.44	23.04	-37.4	-38.3	21.6	0.00e+00	0	40	0	3320840192	44	4173
2026-01-05 15:30:02.20	309.10	22.73	-37.4	-38.3	21.7	0.00e+00	0	40	0	3343908864	44	4150
2026-01-05 15:30:05.21	309.71	22.44	-37.7	-38.6	21.4	0.00e+00	0	40	0	3364880384	44	4312
2026-01-05 15:30:08.21	310.31	22.15	-38.0	-38.9	21.1	0.00e+00	0	40	0	3386900480	45	4232
2026-01-05 15:30:11.25	310.90	21.86	-37.9	-38.9	21.1	0.00e+00	0	40	0	3408920576	45	4201
2026-01-05 15:30:14.38	311.50	21.56	-37.8	-38.7	21.2	0.00e+00	0	40	0	3431989248	45	4143
2026-01-05 15:30:17.23	312.04	21.29	-37.7	-38.6	21.3	0.00e+00	0	40	0	3451912192	45	4083
2026-01-05 15:30:20.37	312.62	20.99	-38.0	-38.9	21.0	0.00e+00	0	40	0	3474980864	45	4230
2026-01-05 15:30:23.23	313.14	20.71	-38.1	-39.0	20.9	0.00e+00	0	40	0	3495952384	45	4291
2026-01-05 15:30:26.50	313.72	20.40	-38.3	-39.3	20.7	0.00e+00	0	40	0	3519021056	46	4160
2026-01-05 15:30:29.46	314.24	20.12	-38.4	-39.3	20.7	0.00e+00	0	40	0	3539992576	46	4185
2026-01-05 15:30:32.76	314.81	19.81	-38.3	-39.2	20.8	0.00e+00	0	40	0	3564109824	46	4135
2026-01-05 15:30:35.67	315.30	19.54	-37.9	-38.8	21.1	0.00e+00	0	40	0	3585081344	46	3943
2026-01-05 15:30:38.96	315.84	19.23	-37.9	-38.8	21.1	0.00e+00	0	40	0	3609198592	46	3932
2026-01-05 15:30:41.68	316.28	18.97	-38.2	-39.1	20.8	0.00e+00	0	40	0	3629121536	46	4066
2026-01-05 15:30:44.90	316.80	18.68	-38.6	-39.6	20.4	0.00e+00	0	40	0	3652190208	46	4318
2026-01-05 15:30:48.04	317.29	18.38	-38.8	-39.8	20.2	0.00e+00	0	40	0	3674210304	47	4191
2026-01-05 15:30:51.15	317.77	18.10	-38.8	-39.8	20.2	0.00e+00	0	40	0	3697278976	47	4174
2026-01-05 15:30:54.45	318.27	17.80	-38.7	-39.7	20.2	0.00e+00	0	40	0	3720347648	47	4113
2026-01-05 15:30:57.23	318.68	17.54	-38.5	-39.5	20.5	0.00e+00	0	41	0	3741319168	47	4012
2026-01-05 15:31:00.52	319.16	17.25	-38.5	-39.5	20.5	0.00e+00	0	40	0	3764387840	47	4039
2026-01-05 15:31:03.24	319.55	17.00	-38.7	-39.7	20.3	0.00e+00	0	40	0	3784310784	47	4106
2026-01-05 15:31:06.52	320.01	16.71	-38.8	-39.8	20.2	0.00e+00	0	40	0	3808428032	47	4168
2026-01-05 15:31:09.37	320.40	16.45	-39.0	-40.1	19.9	0.00e+00	0	40	0	3828350976	47	4293
2026-01-05 15:31:12.82	320.87	16.15	-39.1	-40.2	19.9	0.00e+00	0	40	0	3853516800	47	4351
2026-01-05 15:31:15.54	321.24	15.91	-39.4	-40.5	19.8	0.00e+00	0	40	0	3873439744	48	4257
2026-01-05 15:31:19.07	321.70	15.60	-39.2	-40.2	20.0	0.00e+00	0	40	0	3898605568	48	4145
2026-01-05 15:31:21.85	322.06	15.36	-39.1	-40.1	20.2	0.00e+00	0	40	0	3918528512	48	4080
2026-01-05 15:31:25.29	322.49	15.06	-39.0	-40.0	20.2	0.00e+00	0	40	0	3943694336	48	4043
2026-01-05 15:31:28.00	322.83	14.83	-39.0	-39.9	20.3	0.00e+00	0	40	0	3962568704	48	3984
2026-01-05 15:31:31.30	323.23	14.55	-39.1	-40.1	20.2	0.00e+00	0	41	0	3986685952	48	4065
2026-01-05 15:31:34.02	323.56	14.32	-39.3	-40.2	20.0	0.00e+00	0	40	0	4006608896	48	4144
2026-01-05 15:31:37.31	323.95	14.04	-39.5	-40.5	19.7	0.00e+00	0	40	0	4029677568	48	4290
2026-01-05 15:31:40.03	324.27	13.81	-39.7	-40.8	19.5	0.00e+00	0	40	0	4049600512	48	4400
2026-01-05 15:31:43.59	324.67	13.52	-39.6	-40.7	19.6	0.00e+00	0	40	0	4075814912	48	4349
2026-01-05 15:31:46.37	324.99	13.29	-39.6	-40.7	19.5	0.00e+00	0	40	0	4095737856	48	4377
2026-01-05 15:31:49.66	325.35	13.02	-39.4	-40.6	19.6	0.00e+00	0	40	0	4118806528	48	4315
2026-01-05 15:31:52.37	325.65	12.80	-39.7	-40.8	19.4	0.00e+00	0	40	0	4138729472	48	4441
2026-01-05 15:31:55.67	326.00	12.53	-39.8	-41.0	19.2	0.00e+00	0	41	0	4162846720	49	4261
2026-01-05 15:31:58.49	326.30	12.31	-40.0	-41.1	19.1	0.00e+00	0	40	0	4182769664	49	4339
2026-01-05 15:32:01.64	326.63	12.06	-40.1	-41.2	19.0	0.00e+00	0	40	0	4205838336	49	4389
2026-01-05 15:32:04.49	326.92	11.83	-40.2	-41.3	18.9	0.00e+00	0	40	0	4226809856	49	4427
2026-01-05 15:32:07.64	327.24	11.58	-40.0	-41.1	19.1	0.00e+00	0	40	0	4248829952	49	4316
2026-01-05 15:32:10.50	327.52	11.36	-39.9	-41.0	19.2	0.00e+00	0	41	0	4269801472	49	4267
2026-01-05 15:32:13.65	327.83	11.12	-40.0	-41.0	19.2	0.00e+00	0	40	0	4292870144	49	4280
2026-01-05 15:32:16.51	328.10	10.90	-40.0	-41.1	19.1	0.00e+00	0	40	0	4312793088	49	4321
2026-01-05 15:32:19.66	328.40	10.65	-40.3	-41.4	18.8	0.00e+00	0	40	0	4335861760	50	4232
2026-01-05 15:32:22.58	328.67	10.43	-40.4	-41.5	18.5	0.00e+00	0	40	0	4356833280	50	4282
2026-01-05 15:32:26.14	329.00	10.16	-40.6	-41.7	18.5	0.00e+00	0	40	0	4383047680	50	4361
2026-01-05 15:32:28.86	329.25	9.96	-40.7	-41.9	18.3	0.00e+00	0	40	0	4401922048	50	4451
2026-01-05 15:32:32.33	329.56	9.70	-40.8	-41.9	18.2	0.00e+00	0	40	0	4427087872	51	4242
2026-01-05 15:32:35.05	329.80	9.50	-40.7	-41.9	18.3	0.00e+00	0	40	0	4447010816	51	4213
2026-01-05 15:32:38.34	330.08	9.26	-40.8	-42.0	18.2	0.00e+00	0	40	0	4471128064	51	4265
2026-01-05 15:32:41.06	330.32	9.06	-40.8	-41.9	18.2	0.00e+00	0	40	0	4490002432	51	4241
2026-01-05 15:32:44.31	330.59	8.83	-49.8	-61.9	3.8	8.47e-01	0	40	104	4496293888	69	14969
2026-01-05 15:32:47.32	330.84	8.61	-50.9	-62.1	3.8	8.47e-01	0	40	104	4496293888	71	13606
2026-01-05 15:32:50.37	331.09	8.39	-51.1	-62.2	3.8	8.47e-01	0	40	104	4496293888	72	12970
2026-01-05 15:32:53.35	331.33	8.18	-51.3	-62.3	3.8	8.46e-01	0	40	104	4496293888	72	13133
2026-01-05 15:32:56.66	331.59	7.95	-51.5	-62.2	3.8	8.47e-01	0	40	104	4496293888	72	13031
2026-01-05 15:32:59.38	331.81	7.76	-51.4	-62.2	3.8	8.48e-01	0	40	104	4496293888	72	13063
2026-01-05 15:33:02.67	332.06	7.53	-51.4	-62.1	3.8	8.46e-01	0	40	104	4496293888	72	12944
2026-01-05 15:33:05.40	332.27	7.34	-51.1	-62.1	3.8	8.47e-01	0	40	104	4496293888	72	12908
2026-01-05 15:33:08.82	332.53	7.11	-51.1	-62.1	3.8	8.47e-01	0	40	104	4496293888	72	12818
2026-01-05 15:33:11.54	332.73	6.92	-51.0	-62.1	3.8	8.47e-01	0	40	104	4496293888	72	12811
2026-01-05 15:33:14.84	332.97	6.70	-51.0	-62.1	3.8	8.46e-01	0	40	104	4496293888	72	12891
2026-01-05 15:33:17.57	333.17	6.51	-51.0	-62.1	3.8	8.48e-01	0	40	104	4496293888	72	12917
2026-01-05 15:33:21.67	333.46	6.24	-51.0	-62.1	3.8	8.45e-01	0	40	104	4496293888	72	12866
2026-01-05 15:33:24.42	333.66	6.06	-51.0	-62.1	3.8	8.46e-01	0	40	104	4496293888	72	12863
2026-01-05 15:33:28.15	333.91	5.81	-51.0	-62.1	3.8	8.47e-01	0	40	104	4496293888	72	12934
2026-01-05 15:33:31.01	334.11	5.62	-51.0	-62.1	3.8	8.46e-01	0	40	104	4496293888	72	12846
2026-01-05 15:33:34.49	334.35	5.40	-51.0	-62.1	3.8	8.47e-01	0	41	104	4496293888	72	12863
2026-01-05 15:33:37.28	334.53	5.22	-51.0	-62.1	3.8	8.47e-01	0	40	104	4496293888	72	12836
2026-01-05 15:33:40.58	334.75	5.00	-51.0	-62.1	3.8	8.47e-01	0	40	104	4496293888	72	12837

#Closed at: 2026-01-05 15:33:42
#Recorded file [4496 MB]: D:/Data/31040_260105_182141.dat