passes_logs/2026/01/05/T1/T1__20260105_073612_SUOMI_NPP_rec.log

#Pass ID: 20260105_073612_SUOMI NPP
#Satellite: SUOMI NPP
#Configuration: NPP
#almurnet v.1.7.20251203
#Start time: 2026-01-05 07:36:14

#Version: 2.0.20230620
#Station: T1
#Location: 37.570604 lon 55.790049 lat
#TLE: 1 37849U 11061A   26003.96724563  .00000164  00000+0  98899-4 0  9990
#TLE: 2 37849  98.7800 306.1116 0002573  82.3190 277.8279 14.19522066735141

#Time	Az	El	Level	Level2	SNR	BER	BlckErr	Temp	State	Recorded	gain1	gain2
2026-01-05 07:36:14.76	82.10	5.11	-50.0	-65.3	3.8	1.49e+00	0	41	0	0	72	20039
2026-01-05 07:36:16.76	81.87	5.21	-50.0	-65.3	3.8	1.49e+00	0	41	104	0	72	19932
2026-01-05 07:36:18.77	81.63	5.30	-50.0	-65.3	3.8	1.49e+00	0	41	104	0	72	20003
2026-01-05 07:36:20.78	81.40	5.40	-50.0	-65.3	3.8	1.49e+00	0	41	104	0	72	19976
2026-01-05 07:36:22.79	81.17	5.49	-50.0	-65.3	3.8	1.49e+00	0	41	104	0	72	20062
2026-01-05 07:36:24.79	80.93	5.59	-50.0	-65.3	3.8	1.49e+00	0	41	104	0	72	19917
2026-01-05 07:36:26.80	80.69	5.68	-50.0	-65.3	3.8	1.49e+00	0	41	104	0	72	19964
2026-01-05 07:36:28.81	80.45	5.78	-50.0	-65.3	3.8	1.49e+00	0	41	104	0	72	19958
2026-01-05 07:36:30.82	80.21	5.87	-50.0	-65.3	3.8	1.49e+00	0	41	104	0	72	20038
2026-01-05 07:36:32.83	79.97	5.97	-50.0	-65.3	3.8	1.49e+00	0	42	104	0	72	19968
2026-01-05 07:36:34.84	79.72	6.06	-50.0	-65.3	3.8	1.49e+00	0	42	104	0	72	19958
2026-01-05 07:36:36.85	79.48	6.15	-50.0	-65.3	3.8	1.49e+00	0	42	104	0	72	19982
2026-01-05 07:36:38.86	79.23	6.25	-50.0	-65.3	3.8	1.49e+00	0	42	104	0	72	19978
2026-01-05 07:36:40.86	78.98	6.34	-50.0	-65.3	3.8	1.49e+00	0	42	104	0	72	19918
2026-01-05 07:36:42.87	78.73	6.44	-50.0	-65.2	3.8	1.49e+00	0	42	104	0	72	19835
2026-01-05 07:36:44.88	78.48	6.53	-50.0	-65.3	3.8	1.49e+00	0	42	104	0	71	21137
2026-01-05 07:36:46.89	78.22	6.62	-50.0	-65.3	3.8	1.49e+00	0	42	104	0	71	21044
2026-01-05 07:36:48.90	77.96	6.72	-50.0	-65.3	3.8	1.49e+00	0	42	104	0	71	21105
2026-01-05 07:36:50.91	77.71	6.81	-50.0	-65.3	3.8	1.49e+00	0	42	104	0	71	21042
2026-01-05 07:36:52.91	77.45	6.90	-50.0	-65.2	3.8	1.49e+00	0	42	104	0	71	21009
2026-01-05 07:36:54.92	77.19	6.99	-50.0	-65.3	3.8	1.49e+00	0	42	104	0	71	21100
2026-01-05 07:36:56.93	76.92	7.09	-50.0	-65.3	3.8	1.49e+00	0	42	104	0	71	21154
2026-01-05 07:36:58.94	76.66	7.18	-50.0	-65.3	3.8	1.49e+00	0	42	104	0	71	21149
2026-01-05 07:37:00.95	76.39	7.27	-50.0	-65.3	3.8	1.49e+00	0	42	104	0	71	21114
2026-01-05 07:37:02.96	76.13	7.36	-50.0	-65.1	3.8	1.49e+00	0	42	104	0	71	20718
2026-01-05 07:37:04.96	75.86	7.45	-50.0	-64.8	3.8	1.49e+00	0	42	104	0	71	20017
2026-01-05 07:37:06.97	75.59	7.54	-50.0	-64.8	3.8	1.49e+00	0	42	104	0	71	19884
2026-01-05 07:37:08.98	75.31	7.63	-50.0	-65.0	3.8	1.49e+00	0	42	104	0	71	20496
2026-01-05 07:37:10.99	75.04	7.72	-50.0	-65.1	3.8	1.49e+00	0	43	104	0	71	20731
2026-01-05 07:37:13.00	74.76	7.81	-50.0	-65.0	3.8	1.49e+00	0	43	104	0	71	20344
2026-01-05 07:37:15.01	74.48	7.90	-50.0	-64.4	3.8	1.49e+00	0	43	104	0	71	18988
2026-01-05 07:37:17.01	74.20	7.99	-50.0	-64.3	3.8	1.49e+00	0	43	104	0	71	18802
2026-01-05 07:37:19.02	73.92	8.08	-50.0	-64.8	3.8	1.49e+00	0	43	104	0	71	19903
2026-01-05 07:37:21.03	73.64	8.17	-50.0	-65.2	3.8	1.49e+00	0	43	104	0	71	20902
2026-01-05 07:37:23.04	73.35	8.26	-50.0	-64.8	3.8	1.49e+00	0	43	104	0	71	20031
2026-01-05 07:37:25.05	73.07	8.35	-49.9	-63.6	3.8	1.49e+00	0	43	104	0	71	17417
2026-01-05 07:37:27.06	72.78	8.44	-49.9	-64.0	3.8	1.49e+00	0	43	104	0	71	18107
2026-01-05 07:37:29.06	72.49	8.52	-49.9	-62.9	3.8	1.49e+00	0	43	104	0	71	15993
2026-01-05 07:37:31.07	72.19	8.61	-48.4	-54.6	9.3	9.32e-02	0	43	0	2097152	68	7363
2026-01-05 07:37:33.08	71.90	8.70	-46.2	-50.0	13.9	1.90e-05	0	43	0	6291456	64	5423
2026-01-05 07:37:35.09	71.60	8.78	-45.1	-48.2	15.8	0.00e+00	0	43	0	10485760	62	4942
2026-01-05 07:37:37.10	71.31	8.87	-45.8	-49.3	14.7	7.00e-07	0	43	0	13631488	62	5624
2026-01-05 07:37:39.11	71.01	8.95	-47.7	-53.0	10.9	1.02e-03	0	43	0	17825792	66	6846
2026-01-05 07:37:41.12	70.71	9.04	-49.5	-59.3	5.3	2.83e-01	0	43	0	20971520	69	11910
2026-01-05 07:37:43.12	70.40	9.12	-49.5	-59.0	5.5	2.12e-01	0	43	0	25165824	69	11431
2026-01-05 07:37:45.12	70.10	9.21	-47.6	-52.5	11.5	1.49e-01	0	43	0	27262976	66	6449
2026-01-05 07:37:47.13	69.79	9.29	-47.7	-52.7	11.2	4.11e-02	0	43	0	29360128	67	6257
2026-01-05 07:37:49.05	69.50	9.37	-45.7	-49.2	14.9	5.30e-06	0	43	0	32505856	63	5225
2026-01-05 07:37:51.15	69.18	9.45	-45.7	-49.1	14.9	7.00e-07	0	43	0	36700160	63	5207
2026-01-05 07:37:53.16	68.86	9.54	-45.5	-49.0	15.0	7.00e-07	0	43	0	40894464	62	5417
2026-01-05 07:37:55.17	68.55	9.62	-45.1	-48.3	15.7	0.00e+00	0	43	0	44040192	62	5000
2026-01-05 07:37:57.17	68.24	9.70	-45.3	-48.7	15.3	0.00e+00	0	43	0	48234496	62	5233
2026-01-05 07:37:59.17	67.92	9.78	-45.9	-49.6	14.5	7.00e-07	0	43	0	52428800	62	5840
2026-01-05 07:38:01.16	67.61	9.86	-45.6	-49.3	14.8	7.00e-07	0	43	0	55574528	62	5605
2026-01-05 07:38:03.22	67.28	9.94	-45.5	-49.1	15.0	0.00e+00	0	43	0	59768832	62	5487
2026-01-05 07:38:05.23	66.95	10.01	-45.3	-48.7	15.4	0.00e+00	0	43	0	62914560	62	5229
2026-01-05 07:38:07.23	66.63	10.09	-45.2	-48.4	15.6	0.00e+00	0	43	0	67108864	62	5098
2026-01-05 07:38:09.24	66.31	10.17	-44.9	-47.9	16.1	0.00e+00	0	43	0	71303168	61	5086
2026-01-05 07:38:11.53	65.93	10.26	-44.6	-47.6	16.3	0.00e+00	0	43	0	75497472	61	4917
2026-01-05 07:38:13.53	65.60	10.33	-44.7	-47.7	16.3	0.00e+00	0	43	0	78643200	61	4963
2026-01-05 07:38:15.53	65.27	10.41	-44.9	-48.1	15.9	0.00e+00	0	43	0	82837504	61	5198
2026-01-05 07:38:17.58	64.93	10.48	-44.8	-47.9	16.1	0.00e+00	0	43	0	85983232	61	5092
2026-01-05 07:38:19.58	64.60	10.55	-44.8	-47.9	16.1	0.00e+00	0	43	0	90177536	61	5081
2026-01-05 07:38:21.58	64.27	10.63	-44.5	-47.5	16.5	0.00e+00	0	43	0	94371840	61	4821
2026-01-05 07:38:23.56	63.93	10.70	-44.5	-47.4	16.6	0.00e+00	0	43	0	97517568	61	4814
2026-01-05 07:38:25.57	63.59	10.77	-44.4	-47.3	16.7	0.00e+00	0	43	0	101711872	60	4998
2026-01-05 07:38:27.57	63.25	10.84	-44.5	-47.5	16.5	0.00e+00	0	43	0	104857600	60	5113
2026-01-05 07:38:29.57	62.91	10.91	-44.7	-47.8	16.2	0.00e+00	0	43	0	109051904	60	5329
2026-01-05 07:38:31.66	62.55	10.98	-44.9	-48.2	15.8	0.00e+00	0	43	0	113246208	60	5581
2026-01-05 07:38:33.66	62.21	11.05	-45.0	-48.3	15.7	0.00e+00	0	43	0	116391936	60	5630
2026-01-05 07:38:35.94	61.81	11.12	-45.1	-48.3	15.7	0.00e+00	0	43	0	120586240	61	5328
2026-01-05 07:38:38.29	61.41	11.20	-44.9	-48.0	16.0	0.00e+00	0	43	0	124780544	61	5153
2026-01-05 07:38:40.65	60.99	11.28	-45.1	-48.4	15.6	0.00e+00	0	43	0	130023424	61	5385
2026-01-05 07:38:42.81	60.61	11.35	-45.3	-48.8	15.3	0.00e+00	0	43	0	134217728	61	5601
2026-01-05 07:38:44.97	60.23	11.41	-45.5	-49.0	15.1	0.00e+00	0	43	0	137363456	61	5773
2026-01-05 07:38:47.14	59.85	11.48	-45.4	-48.8	15.3	0.00e+00	0	43	0	141557760	62	5286
2026-01-05 07:38:49.44	59.44	11.55	-44.7	-47.8	16.3	0.00e+00	0	43	0	145752064	61	4999
2026-01-05 07:38:51.62	59.04	11.62	-44.6	-47.5	16.5	0.00e+00	0	43	0	149946368	60	5148
2026-01-05 07:38:53.78	58.66	11.68	-44.2	-47.1	17.0	0.00e+00	0	43	0	154140672	60	4890
2026-01-05 07:38:55.95	58.26	11.74	-43.9	-46.6	17.3	0.00e+00	0	43	0	158334976	59	4917
2026-01-05 07:38:58.14	57.87	11.81	-44.0	-46.7	17.3	0.00e+00	0	43	0	162529280	59	4947
2026-01-05 07:39:00.51	57.43	11.87	-44.2	-47.0	17.0	0.00e+00	0	43	0	166723584	59	5109
2026-01-05 07:39:02.66	57.04	11.93	-44.2	-46.9	17.1	0.00e+00	0	43	0	170917888	59	5094
2026-01-05 07:39:04.74	56.66	11.99	-44.0	-46.7	17.2	0.00e+00	0	43	0	175112192	59	4975
2026-01-05 07:39:06.74	56.29	12.04	-44.1	-46.8	17.1	0.00e+00	0	43	0	178257920	59	5037
2026-01-05 07:39:08.75	55.92	12.09	-44.6	-47.6	16.4	0.00e+00	0	43	0	182452224	59	5523
2026-01-05 07:39:10.77	55.54	12.14	-44.8	-47.9	16.2	0.00e+00	0	43	0	186646528	60	5394
2026-01-05 07:39:13.05	55.12	12.20	-44.9	-48.0	16.1	0.00e+00	0	43	0	190840832	60	5460
2026-01-05 07:39:15.26	54.70	12.25	-45.0	-48.2	15.9	0.00e+00	0	43	0	195035136	60	5586
2026-01-05 07:39:17.26	54.33	12.30	-45.1	-48.3	15.8	0.00e+00	0	43	0	198180864	61	5310
2026-01-05 07:39:19.27	53.95	12.34	-45.0	-48.2	16.0	0.00e+00	0	43	0	202375168	61	5219
2026-01-05 07:39:21.27	53.57	12.39	-45.0	-48.3	15.8	0.00e+00	0	43	0	205520896	61	5322
2026-01-05 07:39:23.28	53.19	12.43	-45.0	-48.1	16.0	0.00e+00	0	43	0	209715200	61	5218
2026-01-05 07:39:25.29	52.81	12.47	-44.7	-47.8	16.3	0.00e+00	0	43	0	213909504	61	5021
2026-01-05 07:39:27.62	52.36	12.52	-44.7	-47.7	16.4	0.00e+00	0	43	0	218103808	61	4960
2026-01-05 07:39:29.84	51.94	12.56	-44.6	-47.6	16.5	0.00e+00	0	43	0	222298112	61	4876
2026-01-05 07:39:31.84	51.55	12.60	-44.2	-47.1	16.9	0.00e+00	0	43	0	225443840	60	4900
2026-01-05 07:39:33.85	51.17	12.64	-44.5	-47.4	16.7	0.00e+00	0	43	0	229638144	60	5077
2026-01-05 07:39:35.86	50.78	12.67	-44.3	-47.2	16.8	0.00e+00	0	43	0	232783872	60	4968
2026-01-05 07:39:37.86	50.39	12.71	-44.3	-47.2	16.8	0.00e+00	0	43	0	236978176	60	4953
2026-01-05 07:39:39.87	50.00	12.74	-44.5	-47.4	16.6	0.00e+00	0	43	0	241172480	60	5091
2026-01-05 07:39:42.26	49.54	12.78	-44.8	-47.8	16.3	0.00e+00	0	43	0	245366784	60	5324
2026-01-05 07:39:44.42	49.12	12.81	-44.6	-47.6	16.5	0.00e+00	0	43	0	249561088	60	5176
2026-01-05 07:39:46.59	48.69	12.84	-44.5	-47.5	16.6	0.00e+00	0	43	0	253755392	60	5142
2026-01-05 07:39:48.87	48.25	12.88	-44.3	-47.1	16.9	0.00e+00	0	43	0	257949696	60	4926
2026-01-05 07:39:51.05	47.82	12.91	-44.4	-47.3	16.8	0.00e+00	0	43	0	262144000	60	4986
2026-01-05 07:39:53.21	47.40	12.93	-44.4	-47.4	16.7	0.00e+00	0	43	0	265289728	60	5044
2026-01-05 07:39:55.39	46.97	12.96	-44.6	-47.6	16.5	0.00e+00	0	43	0	269484032	60	5185
2026-01-05 07:39:57.56	46.54	12.98	-44.6	-47.6	16.5	0.00e+00	0	43	0	273678336	60	5184
2026-01-05 07:39:59.75	46.11	13.00	-44.3	-47.3	16.8	0.00e+00	0	43	0	277872640	60	5015
2026-01-05 07:40:01.92	45.68	13.03	-44.3	-47.2	16.9	0.00e+00	0	43	0	282066944	60	4954
2026-01-05 07:40:04.08	45.25	13.04	-44.1	-47.0	17.1	0.00e+00	0	43	0	286261248	60	4830
2026-01-05 07:40:06.10	44.85	13.06	-43.9	-46.6	17.3	0.00e+00	0	43	0	289406976	59	4925
2026-01-05 07:40:08.11	44.45	13.08	-44.1	-46.9	17.1	0.00e+00	0	43	0	293601280	59	5048
2026-01-05 07:40:10.16	44.05	13.09	-44.1	-46.9	17.1	0.00e+00	0	43	0	297795584	59	5091
2026-01-05 07:40:12.10	43.66	13.10	-44.1	-46.9	17.1	0.00e+00	0	43	0	300941312	59	5080
2026-01-05 07:40:14.10	43.27	13.11	-44.1	-46.9	17.1	0.00e+00	0	43	0	305135616	59	5081
2026-01-05 07:40:16.37	42.81	13.12	-44.3	-47.2	16.8	0.00e+00	0	43	0	309329920	59	5249
2026-01-05 07:40:18.75	42.34	13.13	-44.4	-47.3	16.7	0.00e+00	0	43	0	313524224	59	5306
2026-01-05 07:40:20.90	41.91	13.14	-44.0	-46.7	17.3	0.00e+00	0	43	0	317718528	59	4956
2026-01-05 07:40:23.09	41.48	13.15	-43.8	-46.4	17.5	0.00e+00	0	43	0	321912832	59	4813
2026-01-05 07:40:25.19	41.06	13.15	-43.9	-46.6	17.3	0.00e+00	0	43	0	326107136	59	4926
2026-01-05 07:40:27.14	40.67	13.15	-44.1	-47.0	17.0	0.00e+00	0	43	0	329252864	59	5121
2026-01-05 07:40:29.14	40.27	13.15	-44.3	-47.2	16.8	0.00e+00	0	43	0	333447168	59	5253
2026-01-05 07:40:31.15	39.87	13.15	-44.4	-47.4	16.7	0.00e+00	0	43	0	336592896	59	5345
2026-01-05 07:40:33.22	39.46	13.15	-44.3	-47.3	16.7	0.00e+00	0	43	0	340787200	59	5285
2026-01-05 07:40:35.22	39.06	13.15	-44.4	-47.4	16.6	0.00e+00	0	43	0	344981504	59	5355
2026-01-05 07:40:37.23	38.66	13.14	-44.4	-47.5	16.5	0.00e+00	0	43	0	348127232	59	5438
2026-01-05 07:40:39.24	38.26	13.14	-44.6	-47.9	16.1	0.00e+00	0	43	0	352321536	60	5384
2026-01-05 07:40:41.24	37.86	13.13	-44.6	-48.0	16.1	0.00e+00	0	43	0	355467264	60	5412
2026-01-05 07:40:43.24	37.46	13.12	-44.4	-47.6	16.4	0.00e+00	0	43	0	359661568	60	5179
2026-01-05 07:40:45.25	37.06	13.11	-44.2	-47.3	16.8	0.00e+00	0	43	0	362807296	60	4988
2026-01-05 07:40:47.26	36.66	13.10	-44.0	-46.9	17.0	0.00e+00	0	43	0	367001600	59	5079
2026-01-05 07:40:49.42	36.23	13.08	-44.1	-47.1	16.9	0.00e+00	0	43	0	371195904	59	5182
2026-01-05 07:40:51.43	35.84	13.07	-44.4	-47.6	16.4	0.00e+00	0	43	0	375390208	59	5478
2026-01-05 07:40:53.43	35.44	13.05	-44.3	-47.5	16.6	0.00e+00	0	43	0	378535936	59	5415
2026-01-05 07:40:55.53	35.02	13.04	-44.3	-47.3	16.7	0.00e+00	0	43	0	382730240	59	5318
2026-01-05 07:40:57.53	34.63	13.02	-44.5	-47.4	16.7	0.00e+00	0	43	0	385875968	59	5394
2026-01-05 07:40:59.81	34.18	12.99	-44.4	-47.4	16.7	0.00e+00	0	43	0	391118848	59	5347
2026-01-05 07:41:01.84	33.78	12.97	-44.4	-47.3	16.8	0.00e+00	0	43	0	394264576	59	5287
2026-01-05 07:41:03.85	33.38	12.95	-44.4	-47.3	16.8	0.00e+00	0	43	0	398458880	59	5305
2026-01-05 07:41:05.85	32.99	12.93	-44.4	-47.3	16.8	0.00e+00	0	43	0	401604608	59	5308
2026-01-05 07:41:07.85	32.60	12.90	-44.4	-47.3	16.8	0.00e+00	0	43	0	405798912	59	5313
2026-01-05 07:41:09.86	32.21	12.87	-44.3	-47.3	16.8	0.00e+00	0	43	0	408944640	59	5303
2026-01-05 07:41:11.84	31.82	12.85	-44.5	-47.5	16.6	0.00e+00	0	43	0	413138944	59	5414
2026-01-05 07:41:13.85	31.43	12.82	-44.7	-47.7	16.4	0.00e+00	0	43	0	417333248	60	5271
2026-01-05 07:41:15.86	31.04	12.79	-44.5	-47.5	16.6	0.00e+00	0	43	0	420478976	60	5129
2026-01-05 07:41:17.86	30.65	12.76	-44.4	-47.4	16.8	0.00e+00	0	43	0	424673280	60	5057
2026-01-05 07:41:19.86	30.26	12.72	-44.6	-47.6	16.6	0.00e+00	0	43	0	427819008	60	5165
2026-01-05 07:41:21.87	29.87	12.69	-44.4	-47.3	16.8	0.00e+00	0	43	0	432013312	60	5032
2026-01-05 07:41:23.96	29.47	12.65	-44.2	-47.0	17.1	0.00e+00	0	43	0	436207616	60	4868
2026-01-05 07:41:25.97	29.08	12.62	-44.0	-46.8	17.2	0.00e+00	0	43	0	439353344	59	5023
2026-01-05 07:41:27.97	28.70	12.58	-44.2	-47.1	16.9	0.00e+00	0	43	0	443547648	59	5211
2026-01-05 07:41:29.98	28.32	12.54	-44.4	-47.4	16.7	0.00e+00	0	43	0	446693376	59	5368
2026-01-05 07:41:31.99	27.93	12.50	-44.2	-47.1	17.1	0.00e+00	0	43	0	450887680	59	5160
2026-01-05 07:41:33.99	27.55	12.46	-44.0	-46.8	17.3	0.00e+00	0	43	0	455081984	59	5008
2026-01-05 07:41:36.00	27.17	12.41	-44.1	-47.0	17.1	0.00e+00	0	43	0	458227712	59	5121
2026-01-05 07:41:38.00	26.79	12.37	-44.4	-47.4	16.8	0.00e+00	0	43	0	462422016	59	5346
2026-01-05 07:41:40.01	26.42	12.33	-44.5	-47.6	16.5	0.00e+00	0	43	0	465567744	59	5493
2026-01-05 07:41:42.01	26.04	12.28	-44.4	-47.5	16.6	0.00e+00	0	43	0	469762048	59	5416
2026-01-05 07:41:44.11	25.65	12.23	-44.4	-47.7	16.4	0.00e+00	0	43	0	473956352	59	5546
2026-01-05 07:41:46.15	25.27	12.18	-44.3	-47.5	16.6	0.00e+00	0	43	0	477102080	59	5438
2026-01-05 07:41:48.21	24.88	12.13	-44.4	-47.6	16.6	0.00e+00	0	43	0	481296384	59	5472
2026-01-05 07:41:50.22	24.51	12.08	-44.4	-47.5	16.6	0.00e+00	0	43	0	485490688	59	5418
2026-01-05 07:41:52.22	24.14	12.03	-44.3	-47.3	16.8	0.00e+00	0	43	0	488636416	59	5319
2026-01-05 07:41:54.28	23.76	11.97	-44.2	-47.1	17.1	0.00e+00	0	43	0	492830720	59	5190
2026-01-05 07:41:56.28	23.40	11.92	-44.2	-47.0	17.1	0.00e+00	0	43	0	497025024	59	5115
2026-01-05 07:41:58.29	23.03	11.87	-44.3	-47.1	17.0	0.00e+00	0	43	0	500170752	59	5168
2026-01-05 07:42:00.29	22.67	11.81	-44.1	-46.9	17.2	0.00e+00	0	43	0	504365056	59	5053
2026-01-05 07:42:02.54	22.26	11.75	-44.2	-47.1	17.0	0.00e+00	0	43	0	508559360	59	5161
2026-01-05 07:42:04.54	21.90	11.69	-44.0	-46.9	17.1	0.00e+00	0	43	0	511705088	59	5092
2026-01-05 07:42:06.55	21.54	11.63	-43.8	-47.0	17.1	0.00e+00	0	43	0	515899392	59	5115
2026-01-05 07:42:08.55	21.18	11.57	-43.6	-46.8	17.3	0.00e+00	0	43	0	519045120	59	4984
2026-01-05 07:42:10.56	20.82	11.51	-43.5	-46.7	17.4	0.00e+00	0	43	0	523239424	59	4930
2026-01-05 07:42:12.57	20.46	11.45	-43.5	-46.7	17.4	0.00e+00	0	43	0	527433728	58	5231
2026-01-05 07:42:14.57	20.11	11.39	-43.6	-46.8	17.2	0.00e+00	0	43	0	530579456	58	5326
2026-01-05 07:42:16.58	19.76	11.32	-44.1	-47.4	16.7	0.00e+00	0	43	0	534773760	58	5692
2026-01-05 07:42:18.58	19.41	11.26	-44.5	-47.8	16.3	0.00e+00	0	43	0	537919488	59	5617
2026-01-05 07:42:20.59	19.06	11.19	-44.7	-48.0	16.1	0.00e+00	0	43	0	542113792	59	5758
2026-01-05 07:42:22.60	18.71	11.13	-44.5	-47.9	16.3	0.00e+00	0	43	0	546308096	60	5362
2026-01-05 07:42:24.60	18.36	11.06	-44.7	-47.9	16.2	0.00e+00	0	43	0	549453824	60	5401
2026-01-05 07:42:26.60	18.02	10.99	-44.6	-47.7	16.4	0.00e+00	0	43	0	553648128	60	5262
2026-01-05 07:42:28.56	17.68	10.93	-44.7	-47.8	16.4	0.00e+00	0	43	0	556793856	60	5320
2026-01-05 07:42:30.64	17.33	10.85	-44.8	-47.9	16.3	0.00e+00	0	43	0	560988160	60	5390
2026-01-05 07:42:32.67	16.99	10.78	-44.6	-47.8	16.3	0.00e+00	0	43	0	565182464	60	5318
2026-01-05 07:42:34.74	16.64	10.71	-44.7	-48.1	16.0	0.00e+00	0	43	0	568328192	60	5510
2026-01-05 07:42:36.74	16.30	10.64	-44.5	-48.0	16.2	0.00e+00	0	43	0	572522496	60	5419
2026-01-05 07:42:38.74	15.97	10.57	-44.5	-47.9	16.2	0.00e+00	0	43	0	575668224	60	5394
2026-01-05 07:42:40.75	15.63	10.49	-44.5	-48.1	16.1	0.00e+00	0	43	0	579862528	60	5506
2026-01-05 07:42:42.75	15.30	10.42	-44.5	-48.3	15.9	0.00e+00	0	43	0	584056832	60	5641
2026-01-05 07:42:44.76	14.97	10.34	-44.8	-48.9	15.3	0.00e+00	0	43	0	587202560	60	6009
2026-01-05 07:42:46.84	14.63	10.27	-45.0	-49.0	15.2	0.00e+00	0	43	0	591396864	60	6090
2026-01-05 07:42:48.92	14.30	10.19	-44.8	-48.3	15.8	0.00e+00	0	43	0	595591168	60	5629
2026-01-05 07:42:51.00	13.96	10.11	-44.8	-48.1	16.0	0.00e+00	0	43	0	598736896	60	5519
2026-01-05 07:42:53.01	13.64	10.03	-44.9	-48.3	15.9	0.00e+00	0	43	0	602931200	60	5597
2026-01-05 07:42:55.01	13.32	9.95	-45.3	-48.8	15.3	0.00e+00	0	43	0	607125504	61	5655
2026-01-05 07:42:57.02	13.00	9.87	-45.8	-49.7	14.4	7.00e-07	0	43	0	610271232	62	5914
2026-01-05 07:42:59.02	12.68	9.80	-45.9	-50.2	14.0	2.20e-06	0	43	0	614465536	62	6262
2026-01-05 07:43:01.03	12.36	9.72	-45.8	-50.1	14.1	3.00e-06	0	43	0	617611264	62	6153
2026-01-05 07:43:03.03	12.05	9.64	-45.6	-50.0	14.2	2.20e-06	0	43	0	621805568	62	6099
2026-01-05 07:43:05.04	11.74	9.56	-45.1	-49.4	14.8	0.00e+00	0	43	0	624951296	62	5699
2026-01-05 07:43:07.05	11.43	9.47	-44.9	-49.2	14.9	7.00e-07	0	43	0	629145600	61	5912
2026-01-05 07:43:09.05	11.12	9.39	-45.0	-49.8	14.3	0.00e+00	0	43	0	633339904	61	6329
2026-01-05 07:43:11.05	10.82	9.31	-45.1	-50.6	13.5	5.30e-06	0	43	0	636485632	61	6959
2026-01-05 07:43:13.09	10.51	9.23	-45.1	-51.5	12.7	3.20e-05	0	43	0	640679936	61	7658
2026-01-05 07:43:15.27	10.18	9.14	-45.3	-52.5	11.7	7.45e-04	0	43	0	644874240	61	8628
2026-01-05 07:43:17.63	9.82	9.04	-45.0	-51.7	12.4	1.13e-04	0	43	0	649068544	61	7882
2026-01-05 07:43:19.80	9.50	8.95	-49.5	-65.7	3.8	1.49e+00	0	43	104	651165696	69	24798
2026-01-05 07:43:21.95	9.18	8.85	-50.3	-66.0	3.8	1.49e+00	0	43	104	651165696	71	22935
2026-01-05 07:43:24.12	8.86	8.76	-50.2	-66.0	3.8	1.49e+00	0	43	104	651165696	72	21628
2026-01-05 07:43:26.28	8.54	8.67	-50.8	-66.1	3.8	1.49e+00	0	43	104	651165696	72	21802
2026-01-05 07:43:28.52	8.22	8.57	-50.7	-66.1	3.8	1.49e+00	0	43	104	651165696	72	21938
2026-01-05 07:43:30.67	7.91	8.48	-50.9	-66.1	3.8	1.49e+00	0	42	104	651165696	72	21978
2026-01-05 07:43:32.84	7.60	8.39	-50.6	-66.1	3.8	1.49e+00	0	43	104	651165696	72	21988
2026-01-05 07:43:35.00	7.29	8.29	-50.8	-66.1	3.8	1.49e+00	0	43	104	651165696	72	22005
2026-01-05 07:43:37.16	6.99	8.20	-50.9	-66.1	3.8	1.49e+00	0	43	104	651165696	72	21881
2026-01-05 07:43:39.46	6.66	8.09	-50.9	-66.1	3.8	1.49e+00	0	43	104	651165696	72	21900
2026-01-05 07:43:41.62	6.36	8.00	-50.8	-66.1	3.8	1.49e+00	0	43	104	651165696	72	21839
2026-01-05 07:43:43.79	6.06	7.90	-50.7	-66.1	3.8	1.49e+00	0	43	104	651165696	72	21824
2026-01-05 07:43:45.94	5.77	7.81	-50.6	-66.1	3.8	1.49e+00	0	43	104	651165696	72	21816
2026-01-05 07:43:48.11	5.47	7.71	-50.6	-66.0	3.8	1.49e+00	0	43	104	651165696	72	21754
2026-01-05 07:43:50.28	5.17	7.61	-50.6	-66.1	3.8	1.49e+00	0	43	104	651165696	72	21774
2026-01-05 07:43:52.43	4.88	7.52	-50.6	-66.0	3.8	1.49e+00	0	42	104	651165696	72	21689
2026-01-05 07:43:54.58	4.60	7.42	-50.6	-66.1	3.8	1.49e+00	0	43	104	651165696	72	21766
2026-01-05 07:43:56.76	4.31	7.32	-50.6	-66.0	3.8	1.49e+00	0	43	104	651165696	72	21721
2026-01-05 07:43:58.93	4.02	7.22	-50.6	-66.0	3.8	1.49e+00	0	43	104	651165696	72	21739
2026-01-05 07:44:01.08	3.74	7.12	-50.6	-66.0	3.8	1.49e+00	0	43	104	651165696	72	21641
2026-01-05 07:44:03.23	3.46	7.02	-50.6	-66.0	3.8	1.49e+00	0	43	104	651165696	72	21650
2026-01-05 07:44:05.40	3.18	6.92	-50.6	-66.0	3.8	1.49e+00	0	43	104	651165696	72	21687
2026-01-05 07:44:07.56	2.90	6.82	-50.6	-66.0	3.8	1.49e+00	0	43	104	651165696	72	21641
2026-01-05 07:44:09.71	2.63	6.73	-50.6	-66.0	3.8	1.49e+00	0	43	104	651165696	72	21682
2026-01-05 07:44:11.90	2.35	6.62	-50.6	-66.0	3.8	1.49e+00	0	43	104	651165696	72	21603
2026-01-05 07:44:14.07	2.08	6.52	-50.6	-66.0	3.8	1.49e+00	0	43	104	651165696	72	21672
2026-01-05 07:44:16.22	1.81	6.42	-50.6	-66.0	3.8	1.49e+00	0	43	104	651165696	72	21621
2026-01-05 07:44:18.39	1.54	6.32	-50.6	-66.0	3.8	1.49e+00	0	43	104	651165696	72	21624
2026-01-05 07:44:20.55	1.27	6.22	-50.6	-66.0	3.8	1.49e+00	0	43	104	651165696	72	21645
2026-01-05 07:44:22.72	1.01	6.12	-50.6	-66.0	3.8	1.49e+00	0	43	104	651165696	72	21624
2026-01-05 07:44:24.87	0.75	6.02	-50.6	-66.0	3.8	1.49e+00	0	43	104	651165696	72	21696
2026-01-05 07:44:27.04	0.49	5.92	-50.6	-66.0	3.8	1.49e+00	0	43	104	651165696	72	21633
2026-01-05 07:44:29.21	0.23	5.82	-50.6	-66.0	3.8	1.49e+00	0	43	104	651165696	72	21655
2026-01-05 07:44:31.36	359.97	5.72	-50.6	-66.0	3.8	1.49e+00	0	43	104	651165696	72	21726
2026-01-05 07:44:33.55	359.71	5.61	-50.6	-66.0	3.8	1.49e+00	0	43	104	651165696	72	21720
2026-01-05 07:44:35.71	359.46	5.51	-50.6	-66.0	3.8	1.49e+00	0	43	104	651165696	72	21553
2026-01-05 07:44:37.90	359.21	5.41	-50.6	-66.0	3.8	1.49e+00	0	42	104	651165696	72	21647
2026-01-05 07:44:40.06	358.96	5.30	-50.6	-66.0	3.8	1.49e+00	0	42	104	651165696	72	21681
2026-01-05 07:44:42.21	358.71	5.20	-50.6	-66.0	3.8	1.49e+00	0	43	104	651165696	72	21677
2026-01-05 07:44:44.38	358.46	5.10	-50.6	-66.0	3.8	1.49e+00	0	43	104	651165696	72	21629
2026-01-05 07:44:46.55	358.22	5.00	-50.6	-66.0	3.8	1.49e+00	0	43	104	651165696	72	21545

#Closed at: 2026-01-05 07:44:48
#Recorded file [651 MB]: D:/Data/31040_260105_103614.dat