passes_logs/2026/01/05/T1/T1__20260105_003311_NOAA_21_JPSS-2_rec.log

#Pass ID: 20260105_003311_NOAA 21 (JPSS-2)
#Satellite: NOAA 21 (JPSS-2)
#Configuration: NOAA 21
#almurnet v.1.7.20251203
#Start time: 2026-01-05 00:33:13

#Version: 2.0.20230620
#Station: T1
#Location: 37.570604 lon 55.790049 lat
#TLE: 1 54234U 22150A   26004.22845673  .00000174  00000+0  10347-3 0  9996
#TLE: 2 54234  98.7489 305.2591 0001115 345.0884  15.0259 14.19531906163281

#Time	Az	El	Level	Level2	SNR	BER	BlckErr	Temp	State	Recorded	gain1	gain2
2026-01-05 00:33:13.03	10.97	5.12	-49.9	-65.7	3.8	1.49e+00	0	37	0	0	70	23575
2026-01-05 00:33:16.04	10.84	5.33	-49.9	-65.7	3.8	1.49e+00	0	37	104	0	70	23558
2026-01-05 00:33:19.05	10.71	5.54	-49.9	-65.7	3.8	1.49e+00	0	37	104	0	70	23325
2026-01-05 00:33:22.07	10.58	5.75	-49.9	-65.6	3.8	1.49e+00	0	37	104	0	70	23094
2026-01-05 00:33:25.08	10.45	5.96	-49.9	-65.6	3.8	1.49e+00	0	38	104	0	70	23091
2026-01-05 00:33:28.09	10.31	6.17	-49.9	-65.6	3.8	1.49e+00	0	38	104	0	70	23139
2026-01-05 00:33:31.11	10.18	6.39	-49.9	-65.5	3.8	1.49e+00	0	38	104	0	70	23038
2026-01-05 00:33:34.12	10.04	6.60	-49.9	-65.2	3.8	1.49e+00	0	38	104	0	70	22092
2026-01-05 00:33:37.13	9.90	6.82	-49.9	-64.5	3.8	1.49e+00	0	38	104	0	70	20331
2026-01-05 00:33:40.14	9.75	7.04	-49.7	-63.4	3.9	1.48e+00	0	38	104	0	70	17916
2026-01-05 00:33:43.15	9.61	7.26	-49.7	-63.6	3.9	1.48e+00	0	38	104	0	70	18419
2026-01-05 00:33:46.17	9.46	7.49	-49.9	-64.8	3.8	1.49e+00	0	38	104	0	70	21093
2026-01-05 00:33:49.18	9.31	7.71	-49.9	-65.4	3.8	1.49e+00	0	38	104	0	70	22556
2026-01-05 00:33:52.19	9.15	7.94	-49.7	-62.8	4.0	1.48e+00	0	38	104	0	70	16818
2026-01-05 00:33:55.20	9.00	8.17	-49.3	-58.9	5.8	4.21e-01	0	38	0	0	70	10677
2026-01-05 00:33:58.22	8.84	8.40	-48.6	-55.5	8.9	3.84e-02	0	38	0	0	69	7651
2026-01-05 00:34:01.23	8.67	8.63	-48.1	-53.8	10.6	3.93e-03	0	39	0	0	68	6708
2026-01-05 00:34:04.23	8.51	8.87	-47.9	-53.6	10.7	2.52e-03	0	38	0	0	67	6898
2026-01-05 00:34:07.24	8.34	9.10	-48.5	-55.2	9.0	3.35e-02	0	39	0	0	67	8305
2026-01-05 00:34:10.29	8.17	9.35	-49.4	-59.0	4.3	1.11e+00	0	39	104	0	70	10804
2026-01-05 00:34:13.25	8.00	9.58	-44.8	-47.3	16.9	0.00e+00	0	39	0	0	61	4737
2026-01-05 00:34:16.27	7.82	9.83	-44.4	-46.7	17.5	0.00e+00	0	39	0	0	60	4660
2026-01-05 00:34:19.28	7.64	10.07	-44.3	-46.6	17.7	0.00e+00	0	39	0	0	60	4609
2026-01-05 00:34:22.29	7.46	10.32	-44.2	-46.4	17.8	0.00e+00	0	39	0	0	60	4544
2026-01-05 00:34:25.30	7.27	10.57	-44.2	-46.4	17.9	0.00e+00	0	39	0	0	60	4497
2026-01-05 00:34:28.26	7.09	10.81	-44.2	-46.4	17.9	0.00e+00	0	39	0	0	60	4508
2026-01-05 00:34:31.23	6.90	11.06	-44.1	-46.2	18.0	0.00e+00	0	39	0	0	60	4422
2026-01-05 00:34:34.57	6.68	11.35	-44.2	-46.4	17.9	0.00e+00	0	39	0	0	60	4512
2026-01-05 00:34:37.30	6.50	11.58	-44.1	-46.3	18.0	0.00e+00	0	39	0	0	60	4456
2026-01-05 00:34:40.56	6.27	11.86	-44.0	-46.2	18.1	0.00e+00	0	39	0	0	60	4419
2026-01-05 00:34:43.56	6.07	12.13	-44.0	-46.2	18.1	0.00e+00	0	39	0	0	59	4663
2026-01-05 00:34:46.57	5.85	12.39	-44.0	-46.2	18.0	0.00e+00	0	39	0	0	59	4653
2026-01-05 00:34:49.58	5.64	12.66	-44.0	-46.1	18.1	0.00e+00	0	39	0	0	59	4611
2026-01-05 00:34:52.59	5.42	12.93	-43.8	-45.9	18.3	0.00e+00	0	39	0	0	59	4526
2026-01-05 00:34:55.60	5.19	13.20	-43.8	-45.9	18.4	0.00e+00	0	39	0	0	59	4499
2026-01-05 00:34:59.18	4.92	13.53	-43.8	-45.8	18.5	0.00e+00	0	39	0	0	59	4457
2026-01-05 00:35:02.42	4.67	13.83	-43.7	-45.7	18.5	0.00e+00	0	39	0	0	59	4435
2026-01-05 00:35:05.29	4.44	14.10	-43.8	-45.8	18.5	0.00e+00	0	39	0	0	59	4469
2026-01-05 00:35:08.44	4.18	14.40	-43.8	-45.9	18.4	0.00e+00	0	39	0	0	59	4495
2026-01-05 00:35:11.39	3.94	14.68	-44.0	-46.1	18.3	0.00e+00	0	39	0	0	59	4605
2026-01-05 00:35:14.54	3.67	14.98	-43.9	-46.0	18.4	0.00e+00	0	39	0	0	59	4549
2026-01-05 00:35:17.40	3.42	15.26	-44.0	-46.0	18.3	0.00e+00	0	39	0	0	59	4573
2026-01-05 00:35:20.55	3.14	15.57	-44.0	-45.9	18.4	0.00e+00	0	39	0	0	59	4545
2026-01-05 00:35:23.42	2.89	15.86	-43.9	-45.9	18.5	0.00e+00	0	39	0	0	59	4497
2026-01-05 00:35:26.60	2.59	16.18	-43.8	-45.8	18.5	0.00e+00	0	39	0	0	59	4463
2026-01-05 00:35:29.47	2.32	16.47	-43.8	-45.8	18.6	9.10e-06	0	39	0	0	59	4458
2026-01-05 00:35:32.62	2.02	16.79	-43.9	-45.9	18.4	0.00e+00	0	39	0	0	59	4532
2026-01-05 00:35:35.48	1.74	17.09	-44.0	-46.0	18.3	0.00e+00	0	39	0	0	59	4576
2026-01-05 00:35:38.64	1.43	17.42	-44.1	-46.1	18.3	0.00e+00	0	39	0	0	59	4631
2026-01-05 00:35:41.85	1.10	17.76	-44.2	-46.3	18.1	0.00e+00	0	39	0	0	59	4710
2026-01-05 00:35:45.08	0.76	18.10	-44.3	-46.2	18.2	0.00e+00	0	39	0	0	59	4684
2026-01-05 00:35:47.95	0.45	18.41	-44.1	-46.1	18.3	0.00e+00	0	39	0	0	59	4602
2026-01-05 00:35:51.10	0.10	18.76	-44.2	-46.1	18.3	0.00e+00	0	39	0	0	59	4609
2026-01-05 00:35:53.96	359.78	19.07	-44.1	-46.1	18.3	7.32e-05	0	39	0	0	59	4599
2026-01-05 00:35:57.03	359.43	19.41	-44.1	-46.0	18.3	0.00e+00	0	39	0	0	59	4588
2026-01-05 00:36:00.04	359.08	19.75	-44.1	-46.1	18.3	0.00e+00	0	40	0	0	59	4609
2026-01-05 00:36:03.03	358.72	20.09	-43.8	-45.7	18.6	0.00e+00	0	40	0	0	59	4438
2026-01-05 00:36:06.04	358.35	20.44	-43.5	-45.3	19.1	7.40e-05	0	39	0	0	59	4226
2026-01-05 00:36:09.05	357.97	20.79	-43.2	-44.9	19.4	0.00e+00	0	40	0	0	58	4284
2026-01-05 00:36:12.05	357.59	21.14	-42.9	-44.7	19.6	0.00e+00	0	39	0	0	57	4409
2026-01-05 00:36:15.19	357.17	21.51	-42.9	-44.6	19.5	0.00e+00	0	40	0	0	57	4389
2026-01-05 00:36:18.48	356.73	21.90	-42.7	-44.5	19.8	0.00e+00	0	39	0	0	57	4317
2026-01-05 00:36:21.21	356.35	22.23	-42.7	-44.5	19.8	0.00e+00	0	39	0	0	57	4318
2026-01-05 00:36:24.50	355.88	22.64	-42.7	-44.5	19.9	0.00e+00	0	39	0	0	57	4302
2026-01-05 00:36:27.22	355.49	22.97	-42.6	-44.3	20.0	0.00e+00	0	39	0	0	57	4199
2026-01-05 00:36:30.52	355.00	23.38	-42.5	-44.3	20.0	0.00e+00	0	39	0	0	56	4453
2026-01-05 00:36:33.24	354.58	23.72	-42.4	-44.2	20.1	0.00e+00	0	39	0	0	56	4421
2026-01-05 00:36:36.54	354.07	24.14	-42.5	-44.4	19.9	0.00e+00	0	39	0	0	56	4497
2026-01-05 00:36:39.26	353.63	24.49	-42.7	-44.5	19.8	0.00e+00	0	39	0	0	56	4558
2026-01-05 00:36:42.55	353.09	24.91	-42.7	-44.4	20.0	0.00e+00	0	39	0	0	56	4501
2026-01-05 00:36:45.28	352.63	25.27	-42.8	-44.5	19.9	0.00e+00	0	39	0	0	56	4577
2026-01-05 00:36:48.78	352.02	25.73	-43.1	-44.8	19.6	0.00e+00	0	39	0	0	56	4727
2026-01-05 00:36:51.50	351.54	26.09	-43.2	-45.0	19.4	0.00e+00	0	40	0	0	57	4561
2026-01-05 00:36:54.80	350.94	26.53	-43.4	-45.3	19.2	6.10e-06	0	39	0	0	57	4707
2026-01-05 00:36:57.59	350.42	26.90	-43.4	-45.2	19.2	0.00e+00	0	39	0	0	57	4685
2026-01-05 00:37:00.84	349.79	27.34	-43.5	-45.3	19.0	0.00e+00	0	39	0	0	57	4743
2026-01-05 00:37:03.85	349.20	27.75	-44.0	-45.9	18.5	0.00e+00	0	39	0	0	58	4780
2026-01-05 00:37:06.85	348.59	28.16	-44.1	-46.0	18.5	0.00e+00	0	39	0	0	59	4579
2026-01-05 00:37:09.86	347.96	28.58	-43.7	-45.6	19.0	0.00e+00	0	39	0	0	59	4347
2026-01-05 00:37:12.87	347.32	28.99	-43.7	-45.5	18.9	0.00e+00	0	39	0	0	59	4338
2026-01-05 00:37:15.88	346.66	29.41	-44.0	-45.9	18.5	0.00e+00	0	39	0	0	59	4532
2026-01-05 00:37:18.88	345.99	29.83	-43.7	-45.6	18.9	8.30e-06	0	39	0	0	59	4357
2026-01-05 00:37:21.90	345.29	30.26	-43.6	-45.4	19.1	0.00e+00	0	40	0	0	58	4509
2026-01-05 00:37:24.90	344.58	30.68	-43.7	-45.6	18.9	0.00e+00	0	40	0	0	58	4604
2026-01-05 00:37:27.91	343.84	31.11	-43.6	-45.5	19.0	0.00e+00	0	39	0	0	58	4555
2026-01-05 00:37:30.91	343.09	31.53	-43.4	-45.3	19.3	0.00e+00	0	39	0	0	58	4443
2026-01-05 00:37:33.92	342.32	31.96	-43.5	-45.4	19.1	0.00e+00	0	39	0	0	58	4506
2026-01-05 00:37:36.92	341.53	32.38	-43.4	-45.3	19.1	0.00e+00	0	39	0	0	58	4477
2026-01-05 00:37:39.93	340.71	32.81	-43.6	-45.5	19.0	0.00e+00	0	39	0	0	58	4563
2026-01-05 00:37:42.93	339.88	33.23	-43.6	-45.4	19.1	0.00e+00	0	40	0	0	58	4509
2026-01-05 00:37:45.94	339.02	33.66	-44.0	-45.9	18.6	0.00e+00	0	39	0	0	58	4776
2026-01-05 00:37:48.95	338.13	34.08	-44.5	-46.5	18.1	0.00e+00	0	39	0	0	59	4818
2026-01-05 00:37:52.00	337.22	34.50	-44.6	-46.6	18.0	0.00e+00	0	39	0	0	59	4912
2026-01-05 00:37:55.00	336.29	34.92	-44.5	-46.6	18.1	0.00e+00	0	39	0	0	60	4647
2026-01-05 00:37:58.01	335.33	35.33	-44.7	-46.7	18.0	0.00e+00	0	40	0	0	60	4700
2026-01-05 00:38:01.00	334.36	35.74	-44.9	-46.9	17.9	0.00e+00	0	39	0	0	60	4778
2026-01-05 00:38:04.01	333.36	36.15	-45.4	-47.4	17.3	0.00e+00	0	39	0	0	61	4792
2026-01-05 00:38:07.02	332.33	36.55	-45.4	-47.5	17.3	0.00e+00	0	40	0	0	61	4819
2026-01-05 00:38:10.03	331.27	36.94	-45.0	-47.1	17.5	0.00e+00	0	39	0	0	61	4638
2026-01-05 00:38:13.04	330.19	37.33	-45.1	-47.2	17.5	0.00e+00	0	39	0	0	61	4663
2026-01-05 00:38:16.04	329.09	37.71	-45.2	-47.2	17.5	0.00e+00	0	39	0	0	61	4678
2026-01-05 00:38:19.05	327.95	38.08	-45.2	-47.3	17.4	0.00e+00	0	39	0	0	61	4722
2026-01-05 00:38:22.06	326.79	38.44	-44.9	-47.0	17.6	0.00e+00	0	39	0	0	61	4567
2026-01-05 00:38:25.18	325.56	38.81	-45.3	-47.5	17.2	0.00e+00	0	39	0	0	61	4860
2026-01-05 00:38:28.17	324.36	39.15	-45.5	-47.7	17.0	0.00e+00	0	40	0	0	61	4946
2026-01-05 00:38:31.54	322.97	39.52	-46.3	-48.6	16.2	0.00e+00	0	39	0	0	63	4878
2026-01-05 00:38:34.26	321.83	39.80	-46.1	-48.4	16.4	0.00e+00	0	40	0	0	63	4767
2026-01-05 00:38:37.56	320.42	40.14	-46.4	-48.8	16.1	0.00e+00	0	39	0	0	63	4987
2026-01-05 00:38:40.28	319.23	40.40	-46.4	-48.7	16.1	0.00e+00	0	39	0	0	63	4977
2026-01-05 00:38:43.57	317.77	40.70	-46.0	-48.1	16.7	0.00e+00	0	39	0	0	63	4648
2026-01-05 00:38:46.30	316.54	40.93	-45.7	-47.9	16.9	0.00e+00	0	40	0	0	63	4494
2026-01-05 00:38:49.59	315.03	41.20	-45.9	-48.1	16.7	0.00e+00	0	39	0	0	63	4616
2026-01-05 00:38:52.31	313.76	41.40	-45.6	-47.7	17.0	0.00e+00	0	40	0	0	63	4437
2026-01-05 00:38:55.68	312.17	41.63	-45.3	-47.4	17.3	0.00e+00	0	39	0	0	62	4506
2026-01-05 00:38:58.47	310.84	41.80	-45.3	-47.3	17.4	0.00e+00	0	39	0	0	62	4484
2026-01-05 00:39:01.76	309.25	41.98	-45.7	-47.9	16.6	0.00e+00	0	39	0	0	62	4787
2026-01-05 00:39:04.48	307.93	42.11	-46.0	-48.2	16.4	0.00e+00	0	39	0	0	62	4971
2026-01-05 00:39:07.71	306.34	42.25	-46.5	-48.8	15.9	0.00e+00	0	39	0	0	63	5011
2026-01-05 00:39:10.84	304.79	42.35	-46.6	-49.0	15.8	0.00e+00	0	40	0	0	63	5134
2026-01-05 00:39:13.71	303.36	42.43	-46.2	-48.4	16.4	0.00e+00	0	39	0	0	63	4809
2026-01-05 00:39:16.89	301.76	42.49	-46.2	-48.4	16.3	0.00e+00	0	39	0	0	63	4779
2026-01-05 00:39:19.76	300.32	42.52	-46.2	-48.4	16.3	0.00e+00	0	39	0	0	63	4770
2026-01-05 00:39:23.24	298.57	42.54	-45.8	-47.9	16.8	0.00e+00	0	39	0	0	63	4524
2026-01-05 00:39:25.96	297.21	42.53	-46.3	-48.6	16.2	0.00e+00	0	40	0	0	63	4920
2026-01-05 00:39:29.26	295.55	42.49	-45.7	-47.7	17.0	0.00e+00	0	39	0	0	63	4433
2026-01-05 00:39:31.98	294.19	42.44	-45.6	-47.7	17.1	0.00e+00	0	39	0	0	62	4657
2026-01-05 00:39:35.55	292.41	42.35	-46.3	-48.5	16.3	0.00e+00	0	39	0	0	63	4840
2026-01-05 00:39:38.26	291.06	42.26	-45.8	-47.9	16.9	0.00e+00	0	39	0	0	63	4506
2026-01-05 00:39:41.55	289.44	42.12	-46.1	-48.4	16.5	0.00e+00	0	39	0	0	63	4766
2026-01-05 00:39:44.27	288.11	41.99	-45.8	-47.9	16.9	0.00e+00	0	39	0	0	63	4518
2026-01-05 00:39:47.57	286.52	41.81	-46.1	-48.2	16.5	0.00e+00	0	39	0	0	63	4699
2026-01-05 00:39:50.29	285.22	41.64	-46.3	-48.6	16.2	0.00e+00	0	40	0	0	63	4875
2026-01-05 00:39:53.58	283.66	41.42	-46.5	-48.9	15.8	0.00e+00	0	39	0	0	63	5042
2026-01-05 00:39:56.30	282.39	41.22	-46.5	-48.7	16.1	0.00e+00	0	39	0	0	63	4981
2026-01-05 00:39:59.53	280.90	40.96	-45.4	-47.5	17.3	0.00e+00	0	40	0	0	62	4555
2026-01-05 00:40:02.45	279.58	40.71	-45.3	-47.4	17.3	0.00e+00	0	40	0	0	62	4519
2026-01-05 00:40:05.46	278.24	40.44	-45.7	-47.8	17.0	0.00e+00	0	39	0	0	62	4706
2026-01-05 00:40:08.47	276.92	40.15	-44.7	-46.6	17.9	0.00e+00	0	40	0	0	61	4372
2026-01-05 00:40:11.48	275.63	39.85	-45.9	-48.1	16.4	0.00e+00	0	40	0	0	62	4921
2026-01-05 00:40:14.49	274.36	39.53	-46.1	-48.4	15.9	0.00e+00	0	40	0	0	63	4809
2026-01-05 00:40:17.50	273.11	39.20	-45.5	-47.6	17.0	0.00e+00	0	39	0	0	63	4384
2026-01-05 00:40:20.50	271.89	38.86	-45.9	-48.2	16.7	0.00e+00	0	39	0	0	63	4664
2026-01-05 00:40:23.59	270.67	38.50	-45.5	-47.7	17.0	0.00e+00	0	40	0	0	62	4661
2026-01-05 00:40:26.62	269.49	38.14	-46.1	-48.4	16.4	0.00e+00	0	39	0	0	62	5051
2026-01-05 00:40:30.01	268.21	37.72	-46.2	-48.6	16.2	0.00e+00	0	40	0	0	63	4883
2026-01-05 00:40:32.94	267.13	37.35	-45.0	-47.0	17.6	0.00e+00	0	39	0	0	61	4589
2026-01-05 00:40:36.23	265.94	36.92	-46.4	-48.8	16.0	0.00e+00	0	39	0	0	63	5008
2026-01-05 00:40:38.96	264.98	36.56	-44.8	-46.8	17.8	0.00e+00	0	39	0	0	61	4484
2026-01-05 00:40:42.56	263.74	36.08	-44.1	-46.1	18.6	0.00e+00	0	39	0	0	59	4602
2026-01-05 00:40:45.28	262.84	35.72	-45.5	-47.7	17.1	1.44e-04	0	39	0	0	61	4938
2026-01-05 00:40:48.59	261.76	35.26	-44.0	-45.9	18.6	0.00e+00	0	39	0	0	60	4248
2026-01-05 00:40:51.31	260.89	34.89	-44.3	-46.2	18.4	0.00e+00	0	40	0	0	59	4685
2026-01-05 00:40:54.64	259.86	34.42	-45.7	-48.0	16.8	0.00e+00	0	40	0	0	62	4844
2026-01-05 00:40:57.70	258.94	33.99	-44.8	-46.9	17.7	0.00e+00	0	40	0	0	61	4515
2026-01-05 00:41:00.59	258.09	33.59	-43.9	-45.8	18.8	0.00e+00	0	40	0	0	59	4464
2026-01-05 00:41:03.88	257.15	33.12	-45.0	-47.1	17.6	0.00e+00	0	40	0	0	60	4910
2026-01-05 00:41:06.78	256.35	32.71	-44.4	-46.4	18.1	0.00e+00	0	40	0	0	60	4509
2026-01-05 00:41:10.23	255.41	32.22	-43.6	-45.4	19.1	0.00e+00	0	40	0	0	59	4258
2026-01-05 00:41:12.99	254.69	31.82	-44.2	-46.1	18.3	0.00e+00	0	40	0	0	59	4599
2026-01-05 00:41:16.28	253.84	31.36	-43.9	-45.8	18.7	0.00e+00	0	39	0	0	59	4455
2026-01-05 00:41:19.01	253.16	30.97	-43.9	-45.7	18.8	0.00e+00	0	39	0	0	59	4402
2026-01-05 00:41:22.26	252.37	30.51	-44.0	-45.9	18.7	0.00e+00	0	40	0	0	59	4502
2026-01-05 00:41:25.12	251.70	30.10	-43.5	-45.2	19.2	0.00e+00	0	39	0	0	58	4435
2026-01-05 00:41:28.28	250.97	29.66	-43.4	-45.2	19.2	0.00e+00	0	39	0	0	58	4421
2026-01-05 00:41:31.14	250.33	29.26	-43.3	-45.0	19.4	0.00e+00	0	39	0	0	58	4320
2026-01-05 00:41:34.43	249.61	28.80	-44.7	-46.7	17.8	0.00e+00	0	39	0	0	60	4700
2026-01-05 00:41:37.14	249.03	28.42	-44.1	-46.0	18.5	0.00e+00	0	39	0	0	60	4313
2026-01-05 00:41:40.44	248.35	27.96	-43.3	-45.1	19.2	0.00e+00	0	39	0	0	58	4354
2026-01-05 00:41:43.16	247.80	27.59	-43.5	-45.3	19.2	0.00e+00	0	39	0	0	58	4451
2026-01-05 00:41:46.55	247.13	27.13	-43.7	-45.5	18.9	0.00e+00	0	40	0	0	58	4595
2026-01-05 00:41:49.27	246.61	26.76	-43.8	-45.6	18.8	0.00e+00	0	40	0	0	58	4645
2026-01-05 00:41:52.79	245.96	26.28	-43.7	-45.5	18.8	0.00e+00	0	40	0	0	58	4589
2026-01-05 00:41:55.51	245.46	25.92	-43.5	-45.2	19.1	0.00e+00	0	39	0	0	58	4433
2026-01-05 00:41:58.81	244.88	25.48	-43.6	-45.3	18.9	0.00e+00	0	39	0	0	58	4484
2026-01-05 00:42:01.53	244.41	25.13	-43.9	-45.8	18.6	0.00e+00	0	39	0	0	58	4721
2026-01-05 00:42:04.83	243.85	24.70	-43.7	-45.5	18.9	0.00e+00	0	40	0	0	58	4594
2026-01-05 00:42:07.55	243.41	24.34	-43.4	-45.1	19.3	0.00e+00	0	39	0	0	58	4380
2026-01-05 00:42:10.84	242.88	23.92	-43.5	-45.3	19.1	0.00e+00	0	39	0	0	58	4468
2026-01-05 00:42:13.58	242.45	23.58	-43.4	-45.2	19.3	0.00e+00	0	39	0	0	58	4408
2026-01-05 00:42:16.87	241.95	23.16	-43.3	-45.1	19.2	0.00e+00	0	39	0	0	58	4364
2026-01-05 00:42:19.59	241.55	22.82	-43.4	-45.2	19.1	0.00e+00	0	39	0	0	58	4420
2026-01-05 00:42:22.89	241.07	22.42	-43.4	-45.2	19.2	0.00e+00	0	40	0	0	58	4420
2026-01-05 00:42:25.60	240.69	22.09	-43.5	-45.3	19.1	0.00e+00	0	39	0	0	58	4454
2026-01-05 00:42:29.20	240.19	21.65	-43.7	-45.5	18.9	0.00e+00	0	39	0	0	58	4566
2026-01-05 00:42:32.03	239.81	21.31	-43.6	-45.4	18.9	0.00e+00	0	39	0	0	58	4545
2026-01-05 00:42:35.19	239.39	20.94	-43.3	-45.1	19.2	0.00e+00	0	40	0	0	58	4384
2026-01-05 00:42:38.15	239.01	20.59	-43.1	-44.9	19.4	0.00e+00	0	39	0	0	58	4258
2026-01-05 00:42:41.51	238.59	20.20	-43.2	-45.0	19.2	0.00e+00	0	39	0	0	58	4336
2026-01-05 00:42:44.23	238.26	19.89	-43.3	-45.2	19.1	0.00e+00	0	39	0	0	58	4395
2026-01-05 00:42:47.53	237.86	19.51	-43.4	-45.2	19.0	0.00e+00	0	39	0	0	58	4426
2026-01-05 00:42:50.25	237.54	19.21	-43.3	-45.1	19.1	0.00e+00	0	39	0	0	58	4382
2026-01-05 00:42:53.69	237.15	18.82	-43.3	-45.1	19.2	0.00e+00	0	39	0	0	58	4368
2026-01-05 00:42:56.48	236.84	18.52	-43.4	-45.2	19.1	0.00e+00	0	39	0	0	58	4432
2026-01-05 00:42:59.77	236.48	18.16	-43.6	-45.5	18.9	0.00e+00	0	40	0	0	58	4553
2026-01-05 00:43:02.49	236.19	17.87	-43.7	-45.6	18.7	0.00e+00	0	39	0	0	58	4622
2026-01-05 00:43:05.78	235.84	17.51	-43.9	-45.8	18.6	0.00e+00	0	39	0	0	58	4721
2026-01-05 00:43:08.63	235.55	17.21	-44.0	-45.9	18.4	0.00e+00	0	39	0	0	58	4790
2026-01-05 00:43:11.78	235.23	16.88	-44.0	-45.9	18.4	0.00e+00	0	39	0	0	58	4764
2026-01-05 00:43:14.64	234.95	16.59	-43.9	-45.8	18.4	0.00e+00	0	39	0	0	58	4706
2026-01-05 00:43:17.93	234.64	16.25	-43.5	-45.3	18.8	0.00e+00	0	39	0	0	58	4467
2026-01-05 00:43:20.65	234.38	15.97	-43.4	-45.2	19.0	0.00e+00	0	40	0	0	58	4417
2026-01-05 00:43:23.95	234.08	15.64	-43.4	-45.2	19.1	0.00e+00	0	39	0	0	58	4413
2026-01-05 00:43:26.67	233.83	15.37	-43.5	-45.3	19.0	0.00e+00	0	39	0	0	58	4443
2026-01-05 00:43:30.04	233.53	15.04	-43.7	-45.6	18.7	0.00e+00	0	39	0	0	58	4608
2026-01-05 00:43:32.81	233.29	14.77	-43.9	-45.8	18.5	0.00e+00	0	39	0	0	58	4729
2026-01-05 00:43:36.20	233.01	14.44	-44.0	-45.9	18.3	0.00e+00	0	39	0	0	58	4799
2026-01-05 00:43:39.21	232.76	14.16	-44.1	-46.0	18.2	0.00e+00	0	39	0	0	59	4560
2026-01-05 00:43:42.50	232.49	13.85	-44.0	-45.9	18.1	0.00e+00	0	39	0	0	59	4526
2026-01-05 00:43:45.23	232.27	13.59	-44.0	-45.9	18.2	0.00e+00	0	39	0	0	59	4527
2026-01-05 00:43:48.59	232.01	13.28	-43.9	-45.8	18.2	6.10e-05	0	39	0	0	59	4475
2026-01-05 00:43:51.31	231.80	13.03	-44.0	-45.8	18.3	0.00e+00	0	39	0	0	59	4487
2026-01-05 00:43:54.60	231.55	12.73	-44.0	-45.9	18.2	0.00e+00	0	39	0	0	59	4528
2026-01-05 00:43:57.32	231.35	12.49	-44.0	-45.9	18.3	0.00e+00	0	40	0	0	59	4500
2026-01-05 00:44:00.63	231.11	12.19	-44.2	-46.2	18.1	2.67e-05	0	39	0	0	59	4653
2026-01-05 00:44:03.89	230.88	11.90	-44.4	-46.4	17.9	0.00e+00	0	39	0	0	59	4770
2026-01-05 00:44:06.82	230.67	11.65	-44.5	-46.5	17.7	0.00e+00	0	40	0	0	59	4854
2026-01-05 00:44:10.02	230.46	11.37	-44.7	-46.7	17.6	0.00e+00	0	39	0	0	60	4698
2026-01-05 00:44:12.89	230.26	11.12	-44.9	-46.9	17.4	2.74e-05	0	40	0	0	60	4809
2026-01-05 00:44:16.04	230.06	10.86	-44.9	-47.0	17.3	0.00e+00	0	39	0	0	60	4832
2026-01-05 00:44:18.90	229.87	10.62	-44.9	-47.0	17.2	0.00e+00	0	39	0	0	60	4854
2026-01-05 00:44:22.05	229.67	10.35	-45.0	-47.2	17.1	0.00e+00	0	39	0	0	60	4946
2026-01-05 00:44:24.91	229.49	10.12	-45.1	-47.3	16.9	0.00e+00	0	39	0	0	60	5013
2026-01-05 00:44:28.06	229.30	9.86	-45.3	-47.5	16.7	0.00e+00	0	39	0	0	61	4848
2026-01-05 00:44:30.92	229.13	9.63	-45.5	-47.7	16.6	0.00e+00	0	39	0	0	61	4940
2026-01-05 00:44:34.07	228.94	9.37	-45.5	-47.7	16.5	0.00e+00	0	39	0	0	61	4969
2026-01-05 00:44:37.03	228.77	9.14	-45.5	-47.8	16.5	3.80e-06	0	39	0	0	61	5011
2026-01-05 00:44:40.04	228.59	8.90	-52.7	-65.8	3.8	1.49e+00	0	39	104	0	76	16831
2026-01-05 00:44:43.05	228.42	8.66	-52.9	-66.1	3.8	1.49e+00	0	39	104	0	76	17406
2026-01-05 00:44:46.07	228.26	8.43	-53.3	-66.3	3.8	1.49e+00	0	39	104	0	77	16737
2026-01-05 00:44:49.08	228.09	8.19	-53.1	-66.2	3.8	1.49e+00	0	39	104	0	77	16661
2026-01-05 00:44:52.09	227.93	7.96	-53.1	-66.3	3.8	1.49e+00	0	39	104	0	77	16726
2026-01-05 00:44:55.10	227.77	7.73	-53.3	-66.3	3.8	1.49e+00	0	40	104	0	77	16735
2026-01-05 00:44:58.47	227.60	7.48	-53.0	-66.2	3.8	1.49e+00	0	39	104	0	77	16607
2026-01-05 00:45:01.43	227.45	7.26	-52.9	-66.2	3.8	1.49e+00	0	39	104	0	77	16632
2026-01-05 00:45:05.17	227.26	6.98	-52.9	-66.2	3.8	1.49e+00	0	39	104	0	77	16572
2026-01-05 00:45:07.92	227.13	6.78	-52.8	-66.2	3.8	1.49e+00	0	39	104	0	77	16597
2026-01-05 00:45:11.66	226.94	6.51	-52.8	-66.2	3.8	1.49e+00	0	39	104	0	77	16526
2026-01-05 00:45:14.40	226.81	6.31	-52.8	-66.2	3.8	1.49e+00	0	39	104	0	77	16615
2026-01-05 00:45:18.15	226.64	6.04	-52.9	-66.2	3.8	1.49e+00	0	39	104	0	77	16540
2026-01-05 00:45:20.89	226.51	5.85	-52.8	-66.2	3.8	1.49e+00	0	39	104	0	77	16617
2026-01-05 00:45:24.62	226.34	5.58	-52.8	-66.2	3.8	1.49e+00	0	40	104	0	77	16625
2026-01-05 00:45:27.39	226.22	5.39	-52.9	-66.2	3.8	1.49e+00	0	39	104	0	77	16589
2026-01-05 00:45:31.12	226.06	5.13	-52.8	-66.2	3.8	1.49e+00	0	39	104	0	77	16564

#Closed at: 2026-01-05 00:45:33
#Recorded file [0 MB]: D:/Data/31040_260105_033313.dat