passes_logs/2026/01/05/T1/T1__20260105_134049_FENGYUN_3E_rec.log

#Pass ID: 20260105_134049_FENGYUN 3E
#Satellite: FENGYUN 3E
#Configuration: FENGYUN 3E
#almurnet v.1.7.20251203
#Start time: 2026-01-05 13:40:49

#Version: 2.0.20230620
#Station: T1
#Location: 37.570604 lon 55.790049 lat
#TLE: 1 49008U 21062A   26004.99925679  .00000018  00000+0  29282-4 0  9995
#TLE: 2 49008  98.7472  10.2448 0001540 159.6420 200.4818 14.19883565233423

#Time	Az	El	Level	Level2	SNR	BER	BlckErr	Temp	State	Recorded	gain1	gain2
2026-01-05 13:40:49.23	143.79	5.00	-50.3	-61.0	3.8	8.46e-01	0	40	0	0	71	12033
2026-01-05 13:40:53.23	143.68	5.28	-50.3	-60.7	3.8	8.47e-01	0	40	104	0	71	11637
2026-01-05 13:40:57.25	143.57	5.57	-50.3	-60.8	3.8	8.47e-01	0	41	104	0	71	11747
2026-01-05 13:41:01.26	143.46	5.86	-50.2	-60.1	3.8	8.47e-01	0	41	104	0	71	10783
2026-01-05 13:41:05.27	143.34	6.16	-50.0	-59.1	3.9	8.46e-01	0	41	104	0	70	10221
2026-01-05 13:41:09.28	143.22	6.46	-50.1	-59.9	3.8	8.45e-01	0	41	104	0	70	11232
2026-01-05 13:41:13.29	143.10	6.76	-50.2	-60.6	3.8	8.46e-01	0	41	104	0	70	12116
2026-01-05 13:41:17.30	142.98	7.06	-49.6	-57.1	4.4	8.33e-01	0	42	0	0	70	8138
2026-01-05 13:41:21.31	142.85	7.37	-48.7	-53.9	6.2	4.28e-01	0	41	0	4194304	68	6278
2026-01-05 13:41:25.32	142.72	7.68	-46.6	-49.8	10.1	8.29e-03	0	42	0	33554432	63	5236
2026-01-05 13:41:29.32	142.59	7.99	-44.4	-46.7	13.1	3.08e-05	0	42	0	61865984	59	4607
2026-01-05 13:41:33.33	142.45	8.31	-43.7	-45.8	14.0	1.10e-06	0	42	0	91226112	57	4681
2026-01-05 13:41:37.34	142.31	8.63	-45.1	-47.6	12.2	1.53e-04	0	42	0	120586240	59	5106
2026-01-05 13:41:41.35	142.17	8.96	-48.3	-53.2	6.7	1.56e-01	0	42	0	148897792	66	6527
2026-01-05 13:41:45.36	142.03	9.29	-49.9	-58.2	3.9	8.47e-01	0	42	104	171966464	69	9786
2026-01-05 13:41:49.36	141.88	9.63	-42.3	-44.1	15.6	0.00e+00	0	42	0	198180864	55	4326
2026-01-05 13:41:53.36	141.72	9.96	-40.8	-42.5	17.2	0.00e+00	0	42	0	226492416	52	4250
2026-01-05 13:41:57.37	141.57	10.31	-39.9	-41.4	18.2	0.00e+00	0	42	0	255852544	50	4236
2026-01-05 13:42:01.38	141.41	10.66	-39.9	-41.4	18.2	0.00e+00	0	42	0	284164096	50	4221
2026-01-05 13:42:05.37	141.24	11.01	-39.7	-41.2	18.5	0.00e+00	0	43	0	313524224	50	4099
2026-01-05 13:42:09.39	141.07	11.37	-39.6	-41.0	18.6	0.00e+00	0	42	0	342884352	49	4288
2026-01-05 13:42:13.39	140.90	11.73	-39.5	-41.0	18.7	0.00e+00	0	43	0	371195904	49	4264
2026-01-05 13:42:17.39	140.72	12.10	-39.3	-40.7	19.0	0.00e+00	0	42	0	400556032	49	4128
2026-01-05 13:42:21.39	140.54	12.47	-39.3	-40.8	18.9	0.00e+00	0	42	0	428867584	49	4161
2026-01-05 13:42:25.40	140.35	12.85	-39.0	-40.4	19.3	0.00e+00	0	43	0	458227712	48	4229
2026-01-05 13:42:29.40	140.16	13.23	-39.0	-40.4	19.3	0.00e+00	0	42	0	486539264	48	4213
2026-01-05 13:42:33.40	139.96	13.62	-38.8	-40.1	19.5	0.00e+00	0	43	0	515899392	48	4094
2026-01-05 13:42:37.40	139.75	14.02	-38.6	-40.0	19.7	0.00e+00	0	43	0	544210944	48	4018
2026-01-05 13:42:41.41	139.54	14.42	-38.4	-39.8	19.5	0.00e+00	0	43	0	573571072	47	4174
2026-01-05 13:42:45.41	139.33	14.83	-38.3	-39.7	19.7	0.00e+00	0	43	0	601882624	47	4101
2026-01-05 13:42:49.42	139.10	15.25	-38.3	-39.7	19.7	0.00e+00	0	43	0	631242752	47	4115
2026-01-05 13:42:53.42	138.88	15.67	-38.2	-39.6	19.8	0.00e+00	0	43	0	659554304	46	4306
2026-01-05 13:42:57.42	138.64	16.10	-37.9	-39.3	20.0	0.00e+00	0	43	0	688914432	46	4161
2026-01-05 13:43:01.42	138.40	16.53	-37.7	-39.1	20.2	0.00e+00	0	43	0	718274560	46	4057
2026-01-05 13:43:05.42	138.15	16.98	-37.6	-39.0	20.3	0.00e+00	0	43	0	746586112	45	4251
2026-01-05 13:43:09.43	137.89	17.43	-37.6	-38.9	20.4	0.00e+00	0	43	0	775946240	45	4231
2026-01-05 13:43:13.43	137.62	17.89	-37.5	-38.8	20.5	0.00e+00	0	43	0	804257792	45	4181
2026-01-05 13:43:17.43	137.35	18.35	-37.3	-38.6	20.6	0.00e+00	0	43	0	833617920	45	4068
2026-01-05 13:43:21.43	137.06	18.83	-37.3	-38.6	20.6	0.00e+00	0	43	0	861929472	45	4093
2026-01-05 13:43:25.44	136.77	19.31	-37.1	-38.5	20.7	0.00e+00	0	43	0	891289600	44	4259
2026-01-05 13:43:29.44	136.46	19.80	-37.1	-38.5	20.6	0.00e+00	0	43	0	920649728	44	4268
2026-01-05 13:43:33.45	136.15	20.31	-37.1	-38.5	20.6	0.00e+00	0	43	0	948961280	44	4251
2026-01-05 13:43:37.45	135.83	20.82	-37.0	-38.4	20.7	0.00e+00	0	43	0	978321408	44	4218
2026-01-05 13:43:41.46	135.49	21.34	-36.9	-38.3	20.8	0.00e+00	0	43	0	1006632960	44	4179
2026-01-05 13:43:45.46	135.14	21.87	-37.0	-38.4	20.6	0.00e+00	0	43	0	1035993088	44	4229
2026-01-05 13:43:49.46	134.78	22.41	-37.1	-38.6	20.5	0.00e+00	0	43	0	1064304640	44	4308
2026-01-05 13:43:53.46	134.41	22.96	-37.1	-38.5	20.6	0.00e+00	0	43	0	1093664768	44	4271
2026-01-05 13:43:57.47	134.02	23.52	-37.0	-38.4	20.8	0.00e+00	0	43	0	1121976320	44	4196
2026-01-05 13:44:01.47	133.62	24.09	-36.9	-38.2	20.9	0.00e+00	0	43	0	1151336448	44	4129
2026-01-05 13:44:05.48	133.20	24.67	-36.7	-38.1	20.9	0.00e+00	0	43	0	1180696576	43	4310
2026-01-05 13:44:09.48	132.77	25.27	-36.8	-38.1	20.9	0.00e+00	0	43	0	1209008128	43	4333
2026-01-05 13:44:13.48	132.32	25.87	-36.2	-37.5	21.4	0.00e+00	0	43	0	1238368256	43	4048
2026-01-05 13:44:17.49	131.85	26.49	-36.0	-37.2	21.7	0.00e+00	0	43	0	1266679808	42	4143
2026-01-05 13:44:21.49	131.36	27.12	-36.0	-37.3	21.6	0.00e+00	0	43	0	1296039936	42	4160
2026-01-05 13:44:25.50	130.85	27.77	-36.0	-37.4	21.5	0.00e+00	0	43	0	1325400064	42	4211
2026-01-05 13:44:29.51	130.32	28.42	-36.0	-37.3	21.4	0.00e+00	0	43	0	1353711616	42	4185
2026-01-05 13:44:33.52	129.76	29.09	-36.1	-37.5	21.3	0.00e+00	0	43	0	1383071744	42	4267
2026-01-05 13:44:37.52	129.19	29.77	-36.3	-37.6	21.3	0.00e+00	0	43	0	1411383296	42	4332
2026-01-05 13:44:41.53	128.58	30.47	-36.4	-37.8	21.1	0.00e+00	0	43	0	1440743424	42	4428
2026-01-05 13:44:45.53	127.95	31.18	-36.2	-37.6	21.3	0.00e+00	0	43	0	1469054976	42	4295
2026-01-05 13:44:49.54	127.29	31.90	-36.0	-37.3	21.6	0.00e+00	0	43	0	1498415104	42	4176
2026-01-05 13:44:53.54	126.61	32.63	-36.0	-37.3	21.5	0.00e+00	0	43	0	1527775232	42	4172
2026-01-05 13:44:57.54	125.89	33.38	-36.2	-37.6	21.2	0.00e+00	0	43	0	1556086784	42	4331
2026-01-05 13:45:01.54	125.13	34.14	-35.9	-37.2	21.6	0.00e+00	0	43	0	1585446912	42	4130
2026-01-05 13:45:05.55	124.34	34.91	-36.2	-37.5	21.4	0.00e+00	0	43	0	1613758464	41	4507
2026-01-05 13:45:09.55	123.50	35.70	-36.3	-37.6	21.4	0.00e+00	0	43	0	1643118592	42	4334
2026-01-05 13:45:13.56	122.63	36.50	-36.1	-37.4	21.6	0.00e+00	0	43	0	1671430144	42	4208
2026-01-05 13:45:17.57	121.71	37.31	-35.7	-37.0	21.9	0.00e+00	0	43	0	1700790272	42	4027
2026-01-05 13:45:21.56	120.74	38.13	-35.9	-37.2	21.7	0.00e+00	0	43	0	1729101824	41	4363
2026-01-05 13:45:25.57	119.73	38.97	-36.5	-37.3	22.3	0.00e+00	0	43	0	1758461952	42	4187
2026-01-05 13:45:29.57	118.66	39.81	-36.6	-37.5	22.1	0.00e+00	0	43	0	1786773504	43	4011
2026-01-05 13:45:33.57	117.53	40.66	-37.0	-37.9	21.8	0.00e+00	0	43	0	1816133632	43	4222
2026-01-05 13:45:37.58	116.34	41.51	-36.8	-37.7	21.9	0.00e+00	0	43	0	1845493760	43	4115
2026-01-05 13:45:41.59	115.08	42.38	-36.7	-37.5	22.1	0.00e+00	0	43	0	1873805312	43	4045
2026-01-05 13:45:45.59	113.75	43.24	-36.2	-37.0	22.5	0.00e+00	0	43	0	1903165440	43	3800
2026-01-05 13:45:49.59	112.35	44.11	-36.6	-37.4	22.2	0.00e+00	0	43	0	1932525568	43	4000
2026-01-05 13:45:53.60	110.87	44.98	-37.0	-37.8	21.8	0.00e+00	0	43	0	1960837120	43	4189
2026-01-05 13:45:57.60	109.31	45.84	-36.7	-37.6	22.0	0.00e+00	0	43	0	1990197248	43	4078
2026-01-05 13:46:01.60	107.67	46.69	-37.2	-38.0	21.7	0.00e+00	0	43	0	2018508800	43	4284
2026-01-05 13:46:05.60	105.93	47.54	-37.9	-38.9	21.1	0.00e+00	0	43	0	2047868928	45	4199
2026-01-05 13:46:09.61	104.08	48.37	-37.7	-38.6	21.3	0.00e+00	0	43	0	2076180480	45	4061
2026-01-05 13:46:13.61	102.15	49.18	-37.6	-38.5	21.4	0.00e+00	0	43	0	2105540608	45	4037
2026-01-05 13:46:17.62	100.10	49.97	-38.8	-39.8	20.3	0.00e+00	0	43	0	2133852160	47	4169
2026-01-05 13:46:21.63	97.95	50.74	-37.9	-38.8	21.1	0.00e+00	0	43	0	2163212288	46	3944
2026-01-05 13:46:25.63	95.69	51.46	-37.9	-38.8	21.2	0.00e+00	0	43	0	2191523840	45	4148
2026-01-05 13:46:29.63	93.32	52.15	-37.6	-38.5	21.4	0.00e+00	0	43	0	2220883968	46	3803
2026-01-05 13:46:33.63	90.84	52.80	-37.8	-38.7	21.3	0.00e+00	0	43	0	2249195520	45	4112
2026-01-05 13:46:37.63	88.25	53.40	-37.8	-38.7	21.2	0.00e+00	0	43	0	2278555648	45	4120
2026-01-05 13:46:41.63	85.57	53.94	-37.4	-38.3	21.6	0.00e+00	0	43	0	2307915776	45	3924
2026-01-05 13:46:45.64	82.77	54.42	-38.6	-39.5	20.5	0.00e+00	0	43	0	2336227328	46	4274
2026-01-05 13:46:49.64	79.90	54.83	-37.7	-38.6	21.4	0.00e+00	0	43	0	2365587456	46	3851
2026-01-05 13:46:53.64	76.95	55.17	-38.3	-39.2	20.8	0.00e+00	0	43	0	2393899008	46	4132
2026-01-05 13:46:57.64	73.93	55.44	-37.7	-38.6	21.4	0.00e+00	0	43	0	2423259136	45	4070
2026-01-05 13:47:01.64	70.87	55.62	-38.1	-39.0	21.0	0.00e+00	0	43	0	2452619264	46	4014
2026-01-05 13:47:05.65	67.76	55.73	-37.9	-38.8	21.2	0.00e+00	0	43	0	2480930816	46	3915
2026-01-05 13:47:09.66	64.65	55.75	-37.9	-38.8	21.2	0.00e+00	0	43	0	2510290944	46	3931
2026-01-05 13:47:13.66	61.54	55.69	-38.4	-39.3	20.7	0.00e+00	0	43	0	2538602496	46	4188
2026-01-05 13:47:17.65	58.46	55.55	-37.9	-38.8	21.2	0.00e+00	0	43	0	2567962624	46	3930
2026-01-05 13:47:21.67	55.41	55.33	-38.1	-39.0	21.0	0.00e+00	0	43	0	2596274176	46	4029
2026-01-05 13:47:25.67	52.42	55.03	-37.5	-38.3	21.6	0.00e+00	0	43	0	2625634304	45	3951
2026-01-05 13:47:29.68	49.50	54.66	-37.5	-38.4	21.5	0.00e+00	0	43	0	2654994432	45	3964
2026-01-05 13:47:33.68	46.66	54.21	-37.7	-38.6	21.4	0.00e+00	0	43	0	2683305984	45	4060
2026-01-05 13:47:37.68	43.92	53.71	-38.0	-38.9	21.1	0.00e+00	0	43	0	2712666112	46	3965
2026-01-05 13:47:41.69	41.28	53.14	-37.7	-38.6	21.2	0.00e+00	0	43	0	2740977664	45	4077
2026-01-05 13:47:45.69	38.74	52.53	-37.3	-38.2	21.7	0.00e+00	0	43	0	2770337792	45	3896
2026-01-05 13:47:49.70	36.31	51.86	-38.2	-39.2	20.7	0.00e+00	0	43	0	2798649344	46	4110
2026-01-05 13:47:53.70	33.99	51.15	-38.0	-38.9	21.1	0.00e+00	0	43	0	2828009472	45	4212
2026-01-05 13:47:57.71	31.78	50.41	-38.0	-38.9	21.1	0.00e+00	0	43	0	2856321024	46	3970
2026-01-05 13:48:01.72	29.68	49.64	-37.7	-38.6	21.3	0.00e+00	0	44	0	2885681152	45	4071
2026-01-05 13:48:05.72	27.69	48.84	-37.8	-38.7	21.2	0.00e+00	0	43	0	2915041280	45	4136
2026-01-05 13:48:09.73	25.80	48.02	-38.0	-38.9	21.0	0.00e+00	0	43	0	2943352832	45	4211
2026-01-05 13:48:13.73	24.01	47.18	-37.5	-38.4	21.5	0.00e+00	0	44	0	2972712960	45	3975
2026-01-05 13:48:17.73	22.31	46.34	-37.3	-38.2	21.7	0.00e+00	0	44	0	3001024512	44	4133
2026-01-05 13:48:21.74	20.70	45.48	-36.9	-37.7	22.1	0.00e+00	0	43	0	3030384640	44	3901
2026-01-05 13:48:25.75	19.18	44.62	-37.0	-37.9	21.9	0.00e+00	0	43	0	3058696192	44	3962
2026-01-05 13:48:29.75	17.74	43.75	-36.5	-37.3	22.3	0.00e+00	0	43	0	3088056320	43	3932
2026-01-05 13:48:33.76	16.38	42.89	-36.8	-37.7	22.0	0.00e+00	0	43	0	3117416448	43	4123
2026-01-05 13:48:37.77	15.09	42.03	-36.7	-37.6	22.0	0.00e+00	0	43	0	3145728000	43	4071
2026-01-05 13:48:41.77	13.87	41.17	-37.0	-37.8	21.8	0.00e+00	0	43	0	3175088128	43	4190
2026-01-05 13:48:45.78	12.70	40.32	-36.6	-37.5	22.1	0.00e+00	0	43	0	3204448256	43	4018
2026-01-05 13:48:49.79	11.60	39.47	-36.6	-37.4	22.2	0.00e+00	0	43	0	3232759808	43	3998
2026-01-05 13:48:53.79	10.56	38.64	-36.3	-37.1	22.4	0.00e+00	0	43	0	3262119936	43	3864
2026-01-05 13:48:57.79	9.57	37.82	-36.5	-37.3	22.1	0.00e+00	0	43	0	3290431488	43	3936
2026-01-05 13:49:01.79	8.63	37.00	-36.6	-37.5	22.1	0.00e+00	0	43	0	3319791616	43	4018
2026-01-05 13:49:05.79	7.73	36.20	-36.5	-37.4	22.2	0.00e+00	0	43	0	3348103168	43	3965
2026-01-05 13:49:09.80	6.88	35.41	-36.3	-37.2	22.4	0.00e+00	0	43	0	3377463296	43	3873
2026-01-05 13:49:13.80	6.07	34.63	-36.3	-37.2	22.4	0.00e+00	0	43	0	3405774848	43	3875
2026-01-05 13:49:17.79	5.30	33.87	-36.1	-37.0	22.5	0.00e+00	0	44	0	3435134976	42	4007
2026-01-05 13:49:21.80	4.56	33.12	-36.8	-37.7	21.9	0.00e+00	0	44	0	3463446528	43	4116
2026-01-05 13:49:25.81	3.86	32.38	-36.5	-37.4	22.2	0.00e+00	0	43	0	3492806656	43	3980
2026-01-05 13:49:29.82	3.18	31.65	-36.4	-37.2	22.3	0.00e+00	0	43	0	3522166784	43	3905
2026-01-05 13:49:33.82	2.54	30.94	-36.1	-36.9	22.5	0.00e+00	0	43	0	3550478336	42	3982
2026-01-05 13:49:37.83	1.92	30.24	-36.3	-37.2	22.3	0.00e+00	0	44	0	3579838464	42	4108
2026-01-05 13:49:41.83	1.34	29.55	-36.5	-37.3	22.2	0.00e+00	0	43	0	3608150016	42	4185
2026-01-05 13:49:45.83	0.77	28.88	-36.6	-37.5	22.1	0.00e+00	0	43	0	3637510144	42	4264
2026-01-05 13:49:49.83	0.23	28.22	-36.8	-37.7	21.9	0.00e+00	0	43	0	3665821696	43	4116
2026-01-05 13:49:53.83	359.72	27.58	-36.9	-37.7	21.9	0.00e+00	0	43	0	3695181824	43	4142
2026-01-05 13:49:57.85	359.22	26.94	-36.9	-37.7	21.8	0.00e+00	0	43	0	3724541952	43	4140
2026-01-05 13:50:01.85	358.74	26.32	-36.7	-37.6	22.0	0.00e+00	0	44	0	3752853504	43	4078
2026-01-05 13:50:05.85	358.28	25.71	-36.6	-37.5	22.0	0.00e+00	0	43	0	3782213632	43	4040
2026-01-05 13:50:09.86	357.84	25.11	-36.9	-37.8	21.7	0.00e+00	0	43	0	3810525184	43	4186
2026-01-05 13:50:13.88	357.42	24.52	-37.1	-37.9	21.6	0.00e+00	0	43	0	3839885312	43	4241
2026-01-05 13:50:17.89	357.01	23.94	-37.0	-37.9	21.7	0.00e+00	0	43	0	3869245440	43	4219
2026-01-05 13:50:21.89	356.62	23.37	-37.1	-38.0	21.6	0.00e+00	0	43	0	3897556992	43	4250
2026-01-05 13:50:25.90	356.24	22.82	-36.9	-37.8	21.8	0.00e+00	0	43	0	3926917120	43	4158
2026-01-05 13:50:29.90	355.87	22.28	-36.9	-37.8	21.8	0.00e+00	0	43	0	3955228672	43	4169
2026-01-05 13:50:33.90	355.52	21.74	-37.0	-37.9	21.7	0.00e+00	0	43	0	3984588800	43	4206
2026-01-05 13:50:37.91	355.18	21.22	-37.2	-38.1	21.5	0.00e+00	0	44	0	4012900352	43	4325
2026-01-05 13:50:41.90	354.85	20.70	-37.6	-38.5	21.3	0.00e+00	0	43	0	4042260480	44	4278
2026-01-05 13:50:45.91	354.54	20.20	-37.8	-38.8	21.0	0.00e+00	0	43	0	4070572032	45	4153
2026-01-05 13:50:49.91	354.23	19.70	-37.9	-38.8	21.0	0.00e+00	0	43	0	4099932160	45	4182
2026-01-05 13:50:53.91	353.93	19.22	-37.8	-38.8	20.9	0.00e+00	0	43	0	4128243712	45	4185
2026-01-05 13:50:57.91	353.65	18.74	-37.9	-38.9	20.8	0.00e+00	0	43	0	4157603840	45	4231
2026-01-05 13:51:01.91	353.37	18.27	-38.1	-39.1	20.7	0.00e+00	0	43	0	4185915392	45	4331
2026-01-05 13:51:05.91	353.10	17.81	-38.1	-39.1	20.7	0.00e+00	0	43	0	4215275520	45	4328
2026-01-05 13:51:09.91	352.84	17.35	-38.3	-39.4	20.5	0.00e+00	0	43	0	4244635648	46	4198
2026-01-05 13:51:13.92	352.59	16.91	-38.5	-39.5	20.4	0.00e+00	0	43	0	4272947200	46	4249
2026-01-05 13:51:17.92	352.35	16.47	-38.5	-39.5	20.3	0.00e+00	0	43	0	4302307328	46	4276
2026-01-05 13:51:21.93	352.11	16.04	-38.6	-39.6	20.2	0.00e+00	0	43	0	4330618880	46	4331
2026-01-05 13:51:25.93	351.88	15.61	-38.8	-39.8	20.0	0.00e+00	0	43	0	4359979008	47	4184
2026-01-05 13:51:29.92	351.66	15.20	-38.9	-39.9	19.9	0.00e+00	0	43	0	4388290560	47	4225
2026-01-05 13:51:33.92	351.44	14.78	-39.0	-40.1	19.7	0.00e+00	0	43	0	4417650688	47	4313
2026-01-05 13:51:37.91	351.23	14.38	-39.1	-40.1	19.7	0.00e+00	0	43	0	4445962240	47	4308
2026-01-05 13:51:41.89	351.03	13.98	-39.2	-40.2	19.6	0.00e+00	0	44	0	4475322368	47	4382
2026-01-05 13:51:45.88	350.83	13.59	-39.5	-40.6	19.6	0.00e+00	0	43	0	4503633920	48	4299
2026-01-05 13:51:49.87	350.64	13.21	-39.4	-40.6	19.5	0.00e+00	0	44	0	4532994048	48	4297
2026-01-05 13:51:53.86	350.45	12.83	-39.4	-40.7	19.4	0.00e+00	0	44	0	4561305600	48	4357
2026-01-05 13:51:57.85	350.27	12.45	-39.3	-40.6	19.5	0.00e+00	0	44	0	4590665728	48	4298
2026-01-05 13:52:01.84	350.10	12.09	-39.5	-40.7	19.4	0.00e+00	0	44	0	4618977280	48	4379
2026-01-05 13:52:05.82	349.92	11.72	-39.7	-40.9	19.2	0.00e+00	0	44	0	4647288832	48	4467
2026-01-05 13:52:09.80	349.76	11.36	-39.5	-40.8	19.2	0.00e+00	0	43	0	4676648960	48	4424
2026-01-05 13:52:13.79	349.59	11.01	-39.7	-41.1	18.9	0.00e+00	0	43	0	4704960512	48	4567
2026-01-05 13:52:17.77	349.44	10.66	-39.8	-41.2	18.8	0.00e+00	0	44	0	4734320640	49	4383
2026-01-05 13:52:21.76	349.28	10.32	-40.0	-41.4	18.6	0.00e+00	0	43	0	4762632192	49	4472
2026-01-05 13:52:25.75	349.13	9.98	-40.1	-41.5	18.5	0.00e+00	0	44	0	4791992320	49	4504
2026-01-05 13:52:29.74	348.98	9.64	-40.4	-41.6	18.4	0.00e+00	0	44	0	4820303872	50	4319
2026-01-05 13:52:33.73	348.84	9.31	-40.6	-41.8	18.2	0.00e+00	0	43	0	4849664000	50	4434
2026-01-05 13:52:37.72	348.70	8.99	-44.1	-46.4	14.0	0.00e+00	0	43	0	4877975552	57	4992
2026-01-05 13:52:41.71	348.56	8.66	-50.6	-61.7	3.8	8.45e-01	0	43	104	4880072704	71	13092
2026-01-05 13:52:45.68	348.43	8.35	-50.6	-62.0	3.8	8.47e-01	0	43	104	4880072704	71	13467
2026-01-05 13:52:49.68	348.30	8.03	-50.8	-62.1	3.8	8.47e-01	0	43	104	4880072704	71	13587
2026-01-05 13:52:53.66	348.17	7.72	-51.0	-62.1	3.8	8.47e-01	0	43	104	4880072704	72	12815
2026-01-05 13:52:57.67	348.05	7.41	-51.3	-62.0	3.8	8.47e-01	0	44	104	4880072704	72	12774
2026-01-05 13:53:01.68	347.93	7.10	-51.3	-62.0	3.8	8.46e-01	0	44	104	4880072704	72	12809
2026-01-05 13:53:05.69	347.81	6.80	-51.2	-62.0	3.8	8.47e-01	0	44	104	4880072704	72	12767
2026-01-05 13:53:09.69	347.69	6.50	-51.0	-62.0	3.8	8.45e-01	0	43	104	4880072704	72	12763
2026-01-05 13:53:13.70	347.58	6.21	-51.0	-62.0	3.8	8.46e-01	0	44	104	4880072704	72	12695
2026-01-05 13:53:17.71	347.47	5.92	-51.0	-61.9	3.8	8.47e-01	0	43	104	4880072704	72	12659
2026-01-05 13:53:21.71	347.36	5.63	-51.0	-61.9	3.8	8.46e-01	0	44	104	4880072704	72	12648
2026-01-05 13:53:25.72	347.26	5.34	-51.0	-62.0	3.8	8.45e-01	0	44	104	4880072704	72	12711
2026-01-05 13:53:29.74	347.15	5.06	-50.9	-62.0	3.8	8.47e-01	0	44	104	4880072704	72	12708

#Closed at: 2026-01-05 13:53:31
#Recorded file [4880 MB]: D:/Data/31040_260105_164049.dat