passes_logs/2026/01/05/T1/T1__20260105_102343_NOAA_21_JPSS-2_rec.log

#Pass ID: 20260105_102343_NOAA 21 (JPSS-2)
#Satellite: NOAA 21 (JPSS-2)
#Configuration: NOAA 21
#almurnet v.1.7.20251203
#Start time: 2026-01-05 10:23:45

#Version: 2.0.20230620
#Station: T1
#Location: 37.570604 lon 55.790049 lat
#TLE: 1 54234U 22150A   26004.22845673  .00000174  00000+0  10347-3 0  9996
#TLE: 2 54234  98.7489 305.2591 0001115 345.0884  15.0259 14.19531906163281

#Time	Az	El	Level	Level2	SNR	BER	BlckErr	Temp	State	Recorded	gain1	gain2
2026-01-05 10:23:45.61	175.14	5.13	-48.7	-63.4	3.8	1.49e+00	0	40	0	0	69	18962
2026-01-05 10:23:48.61	175.22	5.35	-47.5	-63.1	3.8	1.49e+00	0	40	104	0	65	23237
2026-01-05 10:23:51.62	175.31	5.56	-47.5	-63.0	3.8	1.49e+00	0	41	104	0	65	22872
2026-01-05 10:23:54.62	175.40	5.78	-47.4	-62.8	3.8	1.49e+00	0	41	104	0	65	22368
2026-01-05 10:23:57.63	175.48	6.00	-47.4	-62.8	3.8	1.49e+00	0	41	104	0	65	22312
2026-01-05 10:24:00.64	175.57	6.22	-47.3	-62.8	3.8	1.49e+00	0	41	104	0	65	22494
2026-01-05 10:24:03.64	175.66	6.44	-47.3	-62.7	3.8	1.49e+00	0	41	104	0	65	22126
2026-01-05 10:24:06.65	175.75	6.67	-47.4	-62.1	3.8	1.49e+00	0	41	104	0	65	20744
2026-01-05 10:24:09.66	175.84	6.90	-47.2	-61.1	3.8	1.49e+00	0	41	104	0	65	18336
2026-01-05 10:24:12.67	175.94	7.13	-47.1	-59.0	4.0	1.26e+00	0	41	104	0	65	14442
2026-01-05 10:24:15.68	176.03	7.36	-46.6	-55.0	6.8	2.46e-01	0	42	0	0	65	9153
2026-01-05 10:24:18.69	176.13	7.59	-45.9	-51.8	10.0	1.04e-02	0	41	0	0	63	7121
2026-01-05 10:24:21.69	176.23	7.83	-45.2	-50.2	11.6	8.99e-04	0	42	0	0	62	6257
2026-01-05 10:24:24.70	176.33	8.06	-45.1	-50.1	11.9	3.74e-04	0	41	0	0	62	6132
2026-01-05 10:24:27.71	176.43	8.30	-45.6	-51.3	10.6	2.46e-03	0	42	0	0	62	7087
2026-01-05 10:24:30.72	176.53	8.55	-46.3	-54.0	7.9	6.32e-02	0	42	0	0	63	9104
2026-01-05 10:24:33.72	176.64	8.79	-47.0	-57.4	5.1	5.79e-01	0	42	0	0	64	12770
2026-01-05 10:24:36.73	176.74	9.04	-47.3	-60.2	4.1	1.48e+00	0	42	104	0	65	16601
2026-01-05 10:24:39.73	176.85	9.28	-47.8	-60.6	3.9	1.48e+00	0	42	104	0	66	16476
2026-01-05 10:24:42.73	176.96	9.53	-47.7	-54.3	7.3	8.35e-01	0	42	104	0	67	7466
2026-01-05 10:24:45.73	177.07	9.79	-43.1	-45.5	16.3	0.00e+00	0	42	0	0	58	4590
2026-01-05 10:24:48.74	177.18	10.04	-42.7	-45.2	16.7	0.00e+00	0	42	0	0	57	4660
2026-01-05 10:24:51.75	177.29	10.30	-42.3	-44.6	17.3	0.00e+00	0	42	0	0	56	4618
2026-01-05 10:24:54.75	177.41	10.56	-42.2	-44.5	17.4	0.00e+00	0	42	0	0	56	4558
2026-01-05 10:24:57.76	177.53	10.83	-42.1	-44.2	17.6	0.00e+00	0	42	0	0	56	4423
2026-01-05 10:25:00.76	177.65	11.10	-42.0	-44.1	17.8	0.00e+00	0	42	0	0	56	4341
2026-01-05 10:25:03.76	177.77	11.37	-41.8	-43.8	17.8	0.00e+00	0	42	0	0	55	4472
2026-01-05 10:25:06.76	177.90	11.64	-42.0	-44.0	17.7	0.00e+00	0	42	0	0	55	4556
2026-01-05 10:25:09.77	178.02	11.91	-41.8	-43.8	17.9	0.00e+00	0	42	0	0	55	4449
2026-01-05 10:25:12.77	178.15	12.19	-41.6	-43.5	18.1	0.00e+00	0	42	0	0	55	4324
2026-01-05 10:25:15.78	178.28	12.47	-41.6	-43.6	18.1	0.00e+00	0	42	0	0	55	4341
2026-01-05 10:25:18.78	178.42	12.76	-41.5	-43.4	18.3	0.00e+00	0	42	0	0	54	4522
2026-01-05 10:25:21.78	178.55	13.05	-41.4	-43.3	18.3	0.00e+00	0	43	0	0	54	4481
2026-01-05 10:25:24.79	178.69	13.34	-41.5	-43.4	18.3	0.00e+00	0	42	0	0	54	4519
2026-01-05 10:25:27.78	178.83	13.63	-41.4	-43.3	18.5	0.00e+00	0	43	0	0	54	4453
2026-01-05 10:25:30.79	178.97	13.93	-41.3	-43.2	18.5	0.00e+00	0	43	0	0	54	4410
2026-01-05 10:25:33.79	179.12	14.23	-41.3	-43.2	18.5	0.00e+00	0	42	0	0	54	4432
2026-01-05 10:25:36.79	179.27	14.54	-41.3	-43.2	18.6	0.00e+00	0	43	0	0	54	4404
2026-01-05 10:25:39.79	179.42	14.85	-41.3	-43.2	18.4	0.00e+00	0	42	0	0	54	4431
2026-01-05 10:25:42.86	179.58	15.17	-41.3	-43.2	18.5	0.00e+00	0	43	0	0	54	4434
2026-01-05 10:25:45.77	179.73	15.47	-41.3	-43.2	18.6	0.00e+00	0	42	0	0	54	4393
2026-01-05 10:25:48.78	179.89	15.79	-41.4	-43.2	18.5	0.00e+00	0	43	0	0	54	4430
2026-01-05 10:25:51.79	180.06	16.12	-41.4	-43.2	18.5	0.00e+00	0	43	0	0	54	4429
2026-01-05 10:25:54.84	180.23	16.45	-41.3	-43.2	18.5	0.00e+00	0	42	0	0	54	4411
2026-01-05 10:25:57.93	180.41	16.80	-41.4	-43.3	18.5	0.00e+00	0	42	0	0	54	4470
2026-01-05 10:26:00.80	180.57	17.12	-41.6	-43.5	18.3	0.00e+00	0	42	0	0	54	4550
2026-01-05 10:26:03.95	180.76	17.48	-41.8	-43.7	18.1	0.00e+00	0	43	0	0	54	4672
2026-01-05 10:26:06.81	180.94	17.81	-41.7	-43.6	18.2	0.00e+00	0	43	0	0	54	4610
2026-01-05 10:26:10.11	181.14	18.20	-41.7	-43.6	18.2	0.00e+00	0	43	0	0	54	4634
2026-01-05 10:26:12.96	181.32	18.53	-41.7	-43.6	18.3	0.00e+00	0	42	0	0	54	4606
2026-01-05 10:26:16.11	181.53	18.91	-41.5	-43.4	18.5	0.00e+00	0	43	0	0	54	4495
2026-01-05 10:26:19.07	181.72	19.28	-41.3	-43.2	18.7	0.00e+00	0	43	0	0	54	4396
2026-01-05 10:26:22.06	181.93	19.65	-41.2	-43.1	18.8	0.00e+00	0	43	0	0	54	4343
2026-01-05 10:26:25.62	182.18	20.09	-41.0	-42.8	19.0	0.00e+00	0	43	0	0	54	4235
2026-01-05 10:26:28.34	182.37	20.44	-40.9	-42.7	19.2	0.00e+00	0	43	0	0	53	4393
2026-01-05 10:26:31.64	182.62	20.87	-40.8	-42.5	19.2	0.00e+00	0	43	0	0	53	4339
2026-01-05 10:26:34.36	182.82	21.23	-40.6	-42.4	19.4	0.00e+00	0	43	0	0	53	4249
2026-01-05 10:26:37.67	183.08	21.67	-40.4	-42.1	19.6	0.00e+00	0	43	0	0	52	4391
2026-01-05 10:26:40.45	183.30	22.04	-40.4	-42.2	19.6	0.00e+00	0	43	0	0	52	4405
2026-01-05 10:26:43.75	183.56	22.50	-40.2	-41.9	19.8	0.00e+00	0	43	0	0	52	4285
2026-01-05 10:26:46.47	183.79	22.88	-40.2	-42.0	19.8	0.00e+00	0	43	0	0	52	4293
2026-01-05 10:26:49.77	184.07	23.34	-40.2	-41.9	19.9	0.00e+00	0	43	0	0	52	4262
2026-01-05 10:26:52.62	184.32	23.75	-40.0	-41.7	20.0	0.00e+00	0	43	0	0	52	4182
2026-01-05 10:26:56.09	184.63	24.26	-40.1	-41.8	20.0	0.00e+00	0	43	0	0	52	4214
2026-01-05 10:26:58.80	184.89	24.66	-40.2	-41.9	19.9	0.00e+00	0	43	0	0	52	4249
2026-01-05 10:27:02.10	185.20	25.16	-40.3	-42.0	19.8	0.00e+00	0	43	0	0	52	4328
2026-01-05 10:27:05.14	185.50	25.63	-40.5	-42.3	19.6	0.00e+00	0	43	0	0	52	4453
2026-01-05 10:27:08.48	185.84	26.15	-40.7	-42.4	19.5	0.00e+00	0	43	0	0	52	4543
2026-01-05 10:27:11.20	186.12	26.58	-41.1	-42.9	19.1	0.00e+00	0	43	0	0	52	4797
2026-01-05 10:27:14.57	186.48	27.12	-41.3	-43.2	18.8	0.00e+00	0	43	0	0	53	4664
2026-01-05 10:27:17.36	186.79	27.58	-41.4	-43.3	18.7	0.00e+00	0	43	0	0	53	4712
2026-01-05 10:27:20.78	187.18	28.15	-41.5	-43.4	18.6	0.00e+00	0	43	0	0	53	4778
2026-01-05 10:27:23.57	187.51	28.62	-41.4	-43.3	18.7	0.00e+00	0	43	0	0	53	4727
2026-01-05 10:27:26.86	187.91	29.19	-41.6	-43.4	18.6	0.00e+00	0	43	0	0	53	4814
2026-01-05 10:27:29.58	188.25	29.66	-41.5	-43.3	18.7	0.00e+00	0	43	0	0	53	4730
2026-01-05 10:27:32.87	188.68	30.25	-41.3	-43.2	18.9	0.00e+00	0	43	0	0	53	4656
2026-01-05 10:27:35.70	189.06	30.76	-41.0	-42.8	19.2	0.00e+00	0	43	0	0	53	4473
2026-01-05 10:27:38.86	189.49	31.34	-40.9	-42.6	19.3	0.00e+00	0	43	0	0	53	4371
2026-01-05 10:27:41.72	189.90	31.87	-40.9	-42.6	19.2	0.00e+00	0	43	0	0	53	4391
2026-01-05 10:27:45.01	190.39	32.50	-41.1	-42.9	19.1	0.00e+00	0	43	0	0	53	4508
2026-01-05 10:27:47.73	190.80	33.02	-41.1	-42.9	19.0	0.00e+00	0	43	0	0	53	4532
2026-01-05 10:27:51.03	191.33	33.67	-41.3	-43.1	18.9	0.00e+00	0	43	0	0	53	4609
2026-01-05 10:27:53.79	191.78	34.21	-41.5	-43.3	18.7	0.00e+00	0	43	0	0	53	4741
2026-01-05 10:27:57.15	192.35	34.89	-42.1	-44.1	18.1	0.00e+00	0	43	0	0	54	4885
2026-01-05 10:28:00.22	192.90	35.52	-43.1	-45.1	17.2	0.00e+00	0	43	0	0	56	4918
2026-01-05 10:28:04.02	193.60	36.32	-43.3	-45.4	17.0	0.00e+00	0	43	0	0	57	4778
2026-01-05 10:28:06.76	194.13	36.90	-43.5	-45.7	16.7	0.00e+00	0	43	0	0	57	4927
2026-01-05 10:28:10.54	194.89	37.71	-43.2	-45.3	17.0	0.00e+00	0	43	0	0	57	4737
2026-01-05 10:28:13.63	195.54	38.39	-43.1	-45.2	17.0	0.00e+00	0	43	0	0	57	4694
2026-01-05 10:28:17.47	196.39	39.24	-42.9	-45.0	17.3	0.00e+00	0	43	0	0	57	4557
2026-01-05 10:28:20.23	197.02	39.86	-42.5	-44.5	17.8	0.00e+00	0	43	0	0	57	4317
2026-01-05 10:28:23.84	197.89	40.69	-43.1	-45.2	17.2	0.00e+00	0	43	0	0	57	4661
2026-01-05 10:28:26.56	198.57	41.32	-43.1	-45.2	17.2	0.00e+00	0	43	0	0	57	4678
2026-01-05 10:28:29.86	199.44	42.09	-43.0	-45.0	17.3	0.00e+00	0	43	0	0	57	4584
2026-01-05 10:28:32.58	200.18	42.73	-43.7	-45.8	16.5	0.00e+00	0	43	0	0	58	4758
2026-01-05 10:28:35.88	201.13	43.52	-44.6	-47.0	15.4	0.00e+00	0	43	0	0	59	5137
2026-01-05 10:28:38.60	201.94	44.18	-44.4	-46.8	15.7	0.00e+00	0	43	0	0	60	4725
2026-01-05 10:28:42.13	203.05	45.03	-44.6	-47.2	15.4	0.00e+00	0	43	0	0	60	4933
2026-01-05 10:28:44.86	203.94	45.70	-44.6	-47.1	15.3	0.00e+00	0	43	0	0	60	4897
2026-01-05 10:28:48.28	205.12	46.54	-43.5	-45.7	16.7	0.00e+00	0	43	0	0	59	4405
2026-01-05 10:28:51.00	206.11	47.21	-43.3	-45.4	16.9	0.00e+00	0	43	0	0	58	4527
2026-01-05 10:28:54.31	207.36	48.03	-42.9	-44.9	17.3	0.00e+00	0	43	0	0	57	4531
2026-01-05 10:28:57.03	208.44	48.70	-43.4	-45.6	16.8	0.00e+00	0	43	0	0	57	4877
2026-01-05 10:29:00.27	209.79	49.50	-43.6	-45.8	16.6	0.00e+00	0	43	0	0	57	4995
2026-01-05 10:29:03.28	211.10	50.24	-43.0	-45.1	17.3	0.00e+00	0	43	0	0	57	4608
2026-01-05 10:29:06.32	212.50	50.98	-43.0	-45.1	17.2	0.00e+00	0	43	0	0	57	4601
2026-01-05 10:29:09.29	213.93	51.70	-43.1	-45.2	17.1	0.00e+00	0	43	0	0	57	4666
2026-01-05 10:29:12.30	215.45	52.42	-42.8	-44.8	17.6	0.00e+00	0	43	0	0	57	4463
2026-01-05 10:29:15.31	217.05	53.13	-42.5	-44.5	17.9	0.00e+00	0	43	0	0	57	4306
2026-01-05 10:29:18.32	218.72	53.82	-42.1	-44.1	18.3	0.00e+00	0	43	0	0	56	4341
2026-01-05 10:29:21.40	220.52	54.52	-41.4	-43.2	18.9	0.00e+00	0	43	0	0	54	4420
2026-01-05 10:29:24.34	222.31	55.16	-41.8	-43.8	18.4	0.00e+00	0	43	0	0	54	4718
2026-01-05 10:29:27.49	224.33	55.83	-41.6	-43.4	18.6	0.00e+00	0	43	0	0	54	4528
2026-01-05 10:29:30.36	226.25	56.41	-41.4	-43.2	18.8	0.00e+00	0	43	0	0	54	4419
2026-01-05 10:29:33.51	228.45	57.02	-41.0	-42.8	19.2	0.00e+00	0	43	0	0	54	4200
2026-01-05 10:29:36.38	230.53	57.55	-40.6	-42.4	19.4	0.00e+00	0	43	0	0	52	4505
2026-01-05 10:29:39.53	232.91	58.09	-41.1	-42.9	19.0	0.00e+00	0	43	0	0	53	4510
2026-01-05 10:29:42.44	235.20	58.55	-40.9	-42.7	19.1	0.00e+00	0	43	0	0	53	4433
2026-01-05 10:29:45.74	237.88	59.02	-40.6	-42.4	19.6	0.00e+00	0	43	0	0	53	4244
2026-01-05 10:29:48.56	240.24	59.38	-40.9	-42.6	19.4	0.00e+00	0	43	0	0	53	4380
2026-01-05 10:29:51.71	242.95	59.73	-40.8	-42.6	19.3	0.00e+00	0	43	0	0	53	4371
2026-01-05 10:29:54.57	245.48	60.00	-40.6	-42.4	19.6	0.00e+00	0	43	0	0	53	4246
2026-01-05 10:29:57.71	248.30	60.24	-40.7	-42.4	19.6	0.00e+00	0	43	0	0	52	4535
2026-01-05 10:30:00.66	250.99	60.41	-40.8	-42.5	19.3	0.00e+00	0	43	0	0	52	4585
2026-01-05 10:30:03.66	253.76	60.52	-40.8	-42.6	19.3	0.00e+00	0	43	0	0	52	4612
2026-01-05 10:30:06.67	256.56	60.57	-40.6	-42.3	19.6	0.00e+00	0	43	0	0	52	4472
2026-01-05 10:30:09.68	259.37	60.57	-40.8	-42.6	19.5	0.00e+00	0	43	0	0	52	4607
2026-01-05 10:30:12.69	262.16	60.50	-40.5	-42.2	19.6	0.00e+00	0	43	0	0	52	4430
2026-01-05 10:30:15.87	265.09	60.37	-40.1	-41.7	20.2	0.00e+00	0	43	0	0	52	4186
2026-01-05 10:30:18.79	267.75	60.19	-40.2	-41.9	20.1	0.00e+00	0	43	0	0	52	4248
2026-01-05 10:30:21.80	270.44	59.95	-40.9	-42.6	19.3	0.00e+00	0	43	0	0	52	4646
2026-01-05 10:30:24.81	273.08	59.65	-41.3	-43.1	19.0	0.00e+00	0	43	0	0	53	4606
2026-01-05 10:30:27.81	275.64	59.31	-40.5	-42.2	19.9	0.00e+00	0	43	0	0	53	4162
2026-01-05 10:30:30.78	278.11	58.92	-41.1	-42.8	19.3	0.00e+00	0	43	0	0	52	4753
2026-01-05 10:30:34.11	280.79	58.43	-41.0	-42.7	19.4	0.00e+00	0	43	0	0	52	4680
2026-01-05 10:30:36.87	282.94	57.99	-41.5	-43.3	18.9	0.00e+00	0	43	0	0	53	4748
2026-01-05 10:30:40.12	285.37	57.42	-40.9	-42.7	19.2	0.00e+00	0	43	0	0	53	4406
2026-01-05 10:30:43.25	287.62	56.84	-41.9	-43.8	18.5	0.00e+00	0	43	0	0	54	4713
2026-01-05 10:30:46.26	289.69	56.25	-41.6	-43.4	18.6	0.00e+00	0	43	0	0	54	4521
2026-01-05 10:30:49.26	291.66	55.64	-41.7	-43.6	18.6	0.00e+00	0	43	0	0	54	4600
2026-01-05 10:30:52.27	293.56	55.00	-41.7	-43.5	18.5	0.00e+00	0	43	0	0	54	4560
2026-01-05 10:30:55.31	295.39	54.33	-41.4	-43.1	19.0	0.00e+00	0	43	0	0	54	4378
2026-01-05 10:30:58.39	297.15	53.63	-41.8	-43.7	18.6	0.00e+00	0	43	0	0	54	4668
2026-01-05 10:31:01.26	298.72	52.96	-43.0	-45.0	17.5	0.00e+00	0	43	0	0	56	4836
2026-01-05 10:31:04.41	300.37	52.22	-42.4	-44.3	17.8	0.00e+00	0	43	0	0	56	4474
2026-01-05 10:31:07.27	301.79	51.54	-42.1	-44.0	18.3	0.00e+00	0	43	0	0	56	4307
2026-01-05 10:31:10.51	303.33	50.76	-42.7	-44.7	17.7	0.00e+00	0	43	0	0	56	4682
2026-01-05 10:31:13.35	304.61	50.06	-42.6	-44.6	17.6	0.00e+00	0	43	0	0	56	4618
2026-01-05 10:31:16.84	306.11	49.21	-43.2	-45.2	17.3	0.00e+00	0	43	0	0	56	4977
2026-01-05 10:31:19.56	307.22	48.54	-44.2	-46.5	16.1	0.00e+00	0	43	0	0	59	4860
2026-01-05 10:31:22.85	308.50	47.73	-44.1	-46.4	16.1	0.00e+00	0	43	0	0	59	4796
2026-01-05 10:31:25.58	309.51	47.06	-43.3	-45.4	17.2	0.00e+00	0	43	0	0	58	4526
2026-01-05 10:31:28.87	310.68	46.25	-44.1	-46.4	16.3	0.00e+00	0	43	0	0	58	5045
2026-01-05 10:31:31.59	311.60	45.59	-44.0	-46.2	16.3	0.00e+00	0	43	0	0	59	4685
2026-01-05 10:31:35.15	312.75	44.73	-42.9	-44.8	17.4	0.00e+00	0	43	0	0	57	4492
2026-01-05 10:31:38.20	313.69	43.99	-43.4	-45.5	17.1	0.00e+00	0	43	0	0	57	4833
2026-01-05 10:31:41.08	314.53	43.31	-44.2	-46.4	16.1	0.00e+00	0	43	0	0	58	5090
2026-01-05 10:31:44.34	315.45	42.53	-44.0	-46.2	16.1	0.00e+00	0	43	0	0	59	4676
2026-01-05 10:31:47.06	316.18	41.90	-43.7	-45.8	16.6	0.00e+00	0	43	0	0	59	4491
2026-01-05 10:31:50.69	317.12	41.06	-44.1	-46.4	16.2	0.00e+00	0	43	0	0	59	4767
2026-01-05 10:31:53.86	317.89	40.33	-44.9	-47.4	15.3	0.00e+00	0	43	0	0	60	5086
2026-01-05 10:31:56.72	318.57	39.69	-43.4	-45.5	17.0	0.00e+00	0	43	0	0	58	4593
2026-01-05 10:31:59.87	319.28	38.98	-43.1	-45.1	17.4	0.00e+00	0	43	0	0	58	4368
2026-01-05 10:32:02.81	319.92	38.34	-43.0	-45.0	17.5	0.00e+00	0	43	0	0	58	4335
2026-01-05 10:32:06.10	320.60	37.62	-43.1	-45.2	17.3	0.00e+00	0	43	0	0	57	4672
2026-01-05 10:32:08.83	321.15	37.04	-42.8	-44.9	17.6	0.00e+00	0	43	0	0	57	4533
2026-01-05 10:32:12.12	321.78	36.34	-42.3	-44.4	18.1	0.00e+00	0	43	0	0	56	4511
2026-01-05 10:32:14.86	322.29	35.78	-41.9	-43.8	18.5	0.00e+00	0	43	0	0	55	4460
2026-01-05 10:32:18.28	322.90	35.08	-42.4	-44.4	17.8	0.00e+00	0	43	0	0	55	4799
2026-01-05 10:32:21.00	323.37	34.53	-43.0	-45.1	17.2	0.00e+00	0	43	0	0	56	4899
2026-01-05 10:32:24.29	323.92	33.87	-42.6	-44.7	17.7	0.00e+00	0	43	0	0	56	4658
2026-01-05 10:32:27.01	324.35	33.34	-42.5	-44.6	17.9	0.00e+00	0	43	0	0	56	4599
2026-01-05 10:32:30.30	324.86	32.71	-42.4	-44.5	18.1	0.00e+00	0	43	0	0	56	4571
2026-01-05 10:32:33.01	325.26	32.20	-42.8	-44.9	17.7	0.00e+00	0	43	0	0	56	4796
2026-01-05 10:32:36.31	325.74	31.58	-42.6	-44.5	18.0	0.00e+00	0	43	0	0	56	4580
2026-01-05 10:32:39.03	326.12	31.08	-42.1	-43.9	18.5	0.00e+00	0	43	0	0	56	4284
2026-01-05 10:32:42.32	326.57	30.49	-41.2	-43.1	19.0	0.00e+00	0	43	0	0	54	4356
2026-01-05 10:32:45.22	326.95	29.98	-41.3	-43.2	18.8	0.00e+00	0	43	0	0	54	4418
2026-01-05 10:32:48.36	327.34	29.43	-41.0	-42.9	19.2	0.00e+00	0	43	0	0	54	4258
2026-01-05 10:32:51.23	327.70	28.93	-40.9	-42.8	19.2	0.00e+00	0	43	0	0	53	4476
2026-01-05 10:32:54.75	328.11	28.34	-41.2	-43.0	19.0	0.00e+00	0	43	0	0	53	4596
2026-01-05 10:32:57.47	328.43	27.89	-41.2	-43.0	19.1	0.00e+00	0	43	0	0	53	4553
2026-01-05 10:33:00.77	328.80	27.35	-41.3	-43.2	19.1	0.00e+00	0	43	0	0	53	4659
2026-01-05 10:33:03.49	329.09	26.91	-41.1	-42.9	19.4	0.00e+00	0	43	0	0	53	4508
2026-01-05 10:33:06.79	329.44	26.39	-40.9	-42.8	19.4	0.00e+00	0	43	0	0	53	4453
2026-01-05 10:33:09.70	329.74	25.93	-40.8	-42.7	19.5	0.00e+00	0	43	0	0	53	4406
2026-01-05 10:33:12.70	330.04	25.47	-40.9	-42.8	19.4	0.00e+00	0	43	0	0	53	4473
2026-01-05 10:33:15.72	330.33	25.02	-40.9	-42.7	19.5	0.00e+00	0	43	0	0	53	4426
2026-01-05 10:33:18.79	330.62	24.56	-40.8	-42.6	19.6	0.00e+00	0	43	0	0	53	4352
2026-01-05 10:33:22.09	330.92	24.08	-40.6	-42.4	19.7	0.00e+00	0	43	0	0	53	4252
2026-01-05 10:33:24.81	331.16	23.69	-40.9	-42.7	19.4	0.00e+00	0	43	0	0	53	4394
2026-01-05 10:33:28.10	331.45	23.22	-40.9	-42.7	19.4	0.00e+00	0	43	0	0	53	4438
2026-01-05 10:33:30.82	331.68	22.84	-40.9	-42.8	19.4	0.00e+00	0	43	0	0	53	4450
2026-01-05 10:33:34.18	331.96	22.38	-40.9	-42.7	19.4	0.00e+00	0	43	0	0	53	4438
2026-01-05 10:33:37.17	332.20	21.97	-41.0	-42.9	19.3	0.00e+00	0	43	0	0	53	4523
2026-01-05 10:33:40.18	332.43	21.57	-41.1	-43.0	19.3	0.00e+00	0	43	0	0	53	4549
2026-01-05 10:33:43.22	332.67	21.17	-41.1	-42.9	19.3	0.00e+00	0	43	0	0	53	4533
2026-01-05 10:33:46.32	332.90	20.77	-41.2	-43.0	19.2	0.00e+00	0	43	0	0	53	4586
2026-01-05 10:33:49.31	333.11	20.39	-41.1	-43.0	19.2	0.00e+00	0	43	0	0	53	4552
2026-01-05 10:33:52.50	333.34	19.98	-41.1	-43.0	19.1	0.00e+00	0	43	0	0	53	4560
2026-01-05 10:33:55.36	333.54	19.63	-41.1	-43.0	19.0	0.00e+00	0	43	0	0	53	4591
2026-01-05 10:33:58.52	333.76	19.24	-41.2	-43.1	19.0	0.00e+00	0	43	0	0	53	4637
2026-01-05 10:34:01.38	333.95	18.90	-41.3	-43.2	18.9	0.00e+00	0	43	0	0	53	4659
2026-01-05 10:34:04.53	334.15	18.52	-41.4	-43.3	18.8	0.00e+00	0	43	0	0	53	4716
2026-01-05 10:34:07.46	334.34	18.18	-41.3	-43.3	18.8	0.00e+00	0	43	0	0	53	4722
2026-01-05 10:34:10.66	334.54	17.81	-41.3	-43.4	18.8	0.00e+00	0	43	0	0	53	4761
2026-01-05 10:34:13.52	334.71	17.48	-41.4	-43.5	18.7	0.00e+00	0	43	0	0	53	4815
2026-01-05 10:34:16.67	334.90	17.13	-41.6	-43.5	18.6	0.00e+00	0	43	0	0	53	4859
2026-01-05 10:34:19.54	335.07	16.81	-41.7	-43.6	18.5	0.00e+00	0	43	0	0	54	4646
2026-01-05 10:34:22.69	335.25	16.46	-41.9	-43.8	18.4	0.00e+00	0	43	0	0	54	4736
2026-01-05 10:34:25.56	335.41	16.15	-42.0	-43.9	18.3	0.00e+00	0	43	0	0	54	4804
2026-01-05 10:34:28.87	335.59	15.80	-41.9	-43.8	18.4	0.00e+00	0	43	0	0	54	4734
2026-01-05 10:34:31.81	335.75	15.49	-42.0	-43.9	18.3	0.00e+00	0	43	0	0	54	4808
2026-01-05 10:34:35.12	335.92	15.14	-42.0	-44.0	18.2	0.00e+00	0	43	0	0	54	4853
2026-01-05 10:34:37.99	336.07	14.85	-42.2	-44.2	18.1	0.00e+00	0	43	0	0	54	4937
2026-01-05 10:34:41.28	336.24	14.51	-42.1	-44.1	18.1	0.00e+00	0	43	0	0	55	4605
2026-01-05 10:34:44.36	336.39	14.20	-42.2	-44.2	18.0	0.00e+00	0	43	0	0	55	4676
2026-01-05 10:34:47.36	336.54	13.91	-42.0	-44.1	18.1	0.00e+00	0	43	0	0	55	4617
2026-01-05 10:34:50.37	336.68	13.61	-42.1	-44.2	18.0	0.00e+00	0	43	0	0	55	4686
2026-01-05 10:34:53.38	336.82	13.32	-42.0	-44.2	18.0	0.00e+00	0	43	0	0	55	4684
2026-01-05 10:34:56.48	336.97	13.02	-42.1	-44.2	17.9	0.00e+00	0	43	0	0	55	4697
2026-01-05 10:34:59.35	337.10	12.75	-42.1	-44.3	17.9	0.00e+00	0	43	0	0	55	4709
2026-01-05 10:35:02.50	337.24	12.46	-42.1	-44.3	17.8	0.00e+00	0	43	0	0	55	4745
2026-01-05 10:35:05.37	337.36	12.19	-42.1	-44.5	17.6	0.00e+00	0	43	0	0	55	4839
2026-01-05 10:35:08.60	337.50	11.90	-42.1	-44.4	17.7	0.00e+00	0	43	0	0	55	4812
2026-01-05 10:35:11.47	337.62	11.64	-42.3	-44.8	17.4	0.00e+00	0	43	0	0	55	4992
2026-01-05 10:35:14.63	337.76	11.35	-42.5	-44.8	17.4	0.00e+00	0	43	0	0	55	5003
2026-01-05 10:35:17.87	337.89	11.07	-42.7	-45.0	17.4	0.00e+00	0	43	0	0	56	4835
2026-01-05 10:35:20.68	338.00	10.82	-42.7	-44.9	17.4	0.00e+00	0	43	0	0	56	4811
2026-01-05 10:35:23.83	338.13	10.55	-42.7	-44.9	17.3	0.00e+00	0	43	0	0	56	4811
2026-01-05 10:35:26.70	338.24	10.30	-42.7	-45.0	17.2	0.00e+00	0	43	0	0	56	4858
2026-01-05 10:35:30.00	338.37	10.02	-42.8	-45.2	17.1	0.00e+00	0	43	0	0	56	4940
2026-01-05 10:35:32.72	338.47	9.79	-42.8	-45.1	17.2	0.00e+00	0	43	0	0	56	4885
2026-01-05 10:35:36.02	338.59	9.51	-43.0	-45.3	16.9	0.00e+00	0	43	0	0	56	5006
2026-01-05 10:35:38.74	338.69	9.29	-43.3	-45.6	16.6	0.00e+00	0	43	0	0	57	4879
2026-01-05 10:35:42.03	338.81	9.02	-43.3	-45.6	16.5	0.00e+00	0	43	0	0	57	4903
2026-01-05 10:35:44.75	338.91	8.80	-50.2	-63.9	3.8	1.49e+00	0	43	104	0	71	17893
2026-01-05 10:35:48.05	339.02	8.54	-50.8	-64.1	3.8	1.49e+00	0	43	104	0	72	17430
2026-01-05 10:35:50.78	339.12	8.32	-51.0	-64.2	3.8	1.49e+00	0	43	104	0	72	17577
2026-01-05 10:35:54.08	339.23	8.06	-51.0	-64.2	3.8	1.49e+00	0	43	104	0	72	17600
2026-01-05 10:35:56.80	339.32	7.85	-50.8	-64.2	3.8	1.49e+00	0	43	104	0	73	16685
2026-01-05 10:36:00.11	339.43	7.59	-51.2	-64.2	3.8	1.49e+00	0	43	104	0	73	16662
2026-01-05 10:36:02.91	339.53	7.38	-51.1	-64.2	3.8	1.49e+00	0	43	104	0	73	16538
2026-01-05 10:36:06.16	339.63	7.13	-51.1	-64.2	3.8	1.49e+00	0	43	104	0	73	16506
2026-01-05 10:36:09.43	339.74	6.88	-50.9	-64.2	3.8	1.49e+00	0	43	104	0	73	16522
2026-01-05 10:36:12.35	339.83	6.67	-50.8	-64.1	3.8	1.49e+00	0	43	104	0	73	16441
2026-01-05 10:36:15.36	339.92	6.44	-50.7	-64.1	3.8	1.49e+00	0	43	104	0	73	16417
2026-01-05 10:36:18.37	340.01	6.22	-50.8	-64.1	3.8	1.49e+00	0	43	104	0	73	16436
2026-01-05 10:36:21.39	340.10	6.00	-50.8	-64.1	3.8	1.49e+00	0	44	104	0	73	16420
2026-01-05 10:36:24.40	340.19	5.79	-50.8	-64.1	3.8	1.49e+00	0	43	104	0	73	16402
2026-01-05 10:36:27.41	340.28	5.57	-50.8	-64.1	3.8	1.49e+00	0	43	104	0	73	16347
2026-01-05 10:36:30.42	340.37	5.36	-50.8	-64.1	3.8	1.49e+00	0	43	104	0	73	16406
2026-01-05 10:36:33.43	340.46	5.15	-50.7	-64.1	3.8	1.49e+00	0	43	104	0	73	16326

#Closed at: 2026-01-05 10:36:36
#Recorded file [0 MB]: D:/Data/31040_260105_132345.dat