passes_logs/2026/01/05/T1/T1__20260105_220348_KHAYYAM_rec.log

#Pass ID: 20260105_220348_KHAYYAM
#Satellite: KHAYYAM
#Configuration: KHAYYAM_480M
#almurnet v.1.7.20251203
#Start time: 2026-01-05 22:03:50

#Version: 2.0.20230620
#Station: T1
#Location: 37.570604 lon 55.790049 lat
#TLE: 1 53370U 22096A   26005.50641227  .00007567  00000+0  30852-3 0  9992
#TLE: 2 53370  97.3566 272.6856 0001238  87.7352 272.4028 15.24728297189794

#Time	Az	El	Level	Level2	SNR	BER	BlckErr	Temp	State	Recorded	gain1	gain2
2026-01-05 22:03:50.11	4.08	5.07	-50.6	-56.0	3.4	0.00e+00	0	46	0	0	73	25720
2026-01-05 22:03:52.10	3.94	5.22	-50.8	-56.5	3.7	0.00e+00	0	46	104	0	72	29028
2026-01-05 22:03:54.10	3.80	5.38	-50.8	-56.5	3.7	0.00e+00	0	46	104	0	72	29001
2026-01-05 22:03:56.09	3.66	5.53	-50.8	-56.5	3.7	0.00e+00	0	46	104	0	72	28865
2026-01-05 22:03:58.09	3.51	5.69	-50.8	-56.5	3.7	0.00e+00	0	47	104	0	72	28998
2026-01-05 22:04:00.09	3.36	5.85	-50.9	-56.5	3.7	0.00e+00	0	47	104	0	72	28947
2026-01-05 22:04:02.08	3.21	6.00	-50.8	-56.5	3.7	0.00e+00	0	47	104	0	72	28977
2026-01-05 22:04:04.08	3.06	6.16	-50.7	-56.4	3.7	0.00e+00	0	47	104	0	72	28757
2026-01-05 22:04:06.07	2.90	6.33	-50.8	-56.5	3.7	0.00e+00	0	47	104	0	72	28900
2026-01-05 22:04:08.07	2.74	6.49	-50.8	-56.5	3.7	0.00e+00	0	47	104	0	72	29027
2026-01-05 22:04:10.06	2.58	6.65	-50.8	-56.4	3.7	0.00e+00	0	48	104	0	72	28793
2026-01-05 22:04:12.06	2.42	6.82	-50.8	-56.5	3.7	0.00e+00	0	48	104	0	72	28939
2026-01-05 22:04:14.06	2.26	6.98	-50.7	-56.4	3.7	0.00e+00	0	48	104	0	72	28787
2026-01-05 22:04:16.05	2.09	7.15	-50.8	-56.5	3.7	0.00e+00	0	48	104	0	72	28861
2026-01-05 22:04:18.05	1.92	7.32	-50.8	-56.5	3.7	0.00e+00	0	48	104	0	72	28992
2026-01-05 22:04:20.05	1.75	7.49	-50.8	-56.5	3.7	0.00e+00	0	48	104	0	72	28847
2026-01-05 22:04:22.05	1.57	7.66	-50.8	-56.5	3.7	0.00e+00	0	48	104	0	72	28981
2026-01-05 22:04:24.04	1.39	7.83	-50.9	-56.5	3.7	0.00e+00	0	48	104	0	72	28998
2026-01-05 22:04:26.04	1.21	8.01	-50.8	-56.5	3.7	0.00e+00	0	49	104	0	72	28927
2026-01-05 22:04:28.02	1.03	8.18	-50.8	-56.5	3.7	0.00e+00	0	48	104	0	72	28899
2026-01-05 22:04:30.02	0.84	8.36	-50.8	-56.5	3.7	0.00e+00	0	49	104	0	72	28926
2026-01-05 22:04:32.02	0.65	8.53	-50.8	-56.5	3.7	0.00e+00	0	49	104	0	72	28915
2026-01-05 22:04:34.02	0.46	8.71	-50.7	-56.5	3.7	0.00e+00	0	49	104	0	72	28822
2026-01-05 22:04:36.01	0.27	8.90	-50.7	-56.4	3.7	0.00e+00	0	49	104	0	72	28784
2026-01-05 22:04:38.01	0.07	9.08	-50.7	-56.4	3.7	0.00e+00	0	49	104	0	72	28592
2026-01-05 22:04:40.00	359.87	9.26	-51.8	-57.1	3.7	0.00e+00	0	49	104	0	74	27572
2026-01-05 22:04:42.00	359.66	9.45	-50.5	-56.2	3.7	0.00e+00	0	49	104	0	73	26391
2026-01-05 22:04:44.00	359.45	9.64	-51.1	-56.5	3.7	0.00e+00	0	49	104	0	73	27283
2026-01-05 22:04:46.00	359.24	9.82	-51.5	-56.8	3.7	0.00e+00	0	49	104	0	73	28451
2026-01-05 22:04:47.99	359.02	10.01	-51.7	-57.0	3.7	0.00e+00	0	49	104	0	74	27407
2026-01-05 22:04:49.99	358.80	10.21	-50.8	-55.1	3.7	0.00e+00	0	49	104	0	73	23339
2026-01-05 22:04:51.99	358.58	10.40	-51.6	-56.6	3.7	0.00e+00	0	50	104	0	73	27758
2026-01-05 22:04:53.99	358.35	10.60	-51.3	-56.6	3.7	0.00e+00	0	50	104	0	73	27780
2026-01-05 22:04:55.99	358.12	10.79	-51.5	-56.9	3.7	0.00e+00	0	49	104	0	73	28732
2026-01-05 22:04:57.98	357.89	10.99	-51.4	-56.7	3.7	0.00e+00	0	49	104	0	74	26542
2026-01-05 22:04:59.97	357.65	11.19	-50.9	-56.7	3.7	0.00e+00	0	50	104	0	72	29534
2026-01-05 22:05:01.97	357.40	11.40	-50.8	-56.6	3.7	0.00e+00	0	50	104	0	72	29190
2026-01-05 22:05:03.97	357.16	11.60	-50.7	-56.6	3.7	0.00e+00	0	50	104	0	72	29157
2026-01-05 22:05:05.96	356.90	11.81	-52.1	-57.4	3.7	0.00e+00	0	50	104	0	74	28790
2026-01-05 22:05:07.96	356.65	12.02	-50.0	-56.4	3.7	0.00e+00	0	50	104	0	71	30291
2026-01-05 22:05:09.95	356.39	12.22	-50.0	-56.2	3.7	0.00e+00	0	50	104	0	71	29674
2026-01-05 22:05:11.95	356.12	12.44	-50.0	-56.2	3.7	0.00e+00	0	50	104	0	71	29514
2026-01-05 22:05:13.94	355.85	12.65	-50.7	-56.5	3.7	0.00e+00	0	50	104	0	72	29072
2026-01-05 22:05:15.93	355.58	12.87	-50.9	-56.6	3.7	0.00e+00	0	50	104	0	73	27668
2026-01-05 22:05:17.93	355.29	13.08	-52.8	-57.9	3.7	0.00e+00	0	50	104	0	77	25395
2026-01-05 22:05:19.92	355.01	13.30	-51.9	-57.3	3.7	0.00e+00	0	50	104	0	75	26638
2026-01-05 22:05:21.93	354.72	13.53	-52.0	-57.3	3.7	0.00e+00	0	50	104	0	75	26823
2026-01-05 22:05:23.92	354.42	13.75	-52.8	-57.8	3.7	0.00e+00	0	50	104	0	76	26745
2026-01-05 22:05:25.92	354.12	13.98	-52.5	-57.7	3.6	0.00e+00	0	50	104	0	76	26558
2026-01-05 22:05:27.91	353.81	14.20	-52.7	-57.8	3.7	0.00e+00	0	50	104	0	76	26709
2026-01-05 22:05:29.91	353.50	14.43	-52.1	-57.3	3.6	0.00e+00	0	50	104	0	76	25210
2026-01-05 22:05:31.91	353.18	14.67	-52.1	-57.3	3.7	0.00e+00	0	50	104	0	76	25250
2026-01-05 22:05:33.90	352.85	14.90	-52.9	-57.9	3.7	0.00e+00	0	50	104	0	76	26910
2026-01-05 22:05:35.90	352.52	15.14	-52.6	-57.9	3.7	0.00e+00	0	50	104	0	76	26930
2026-01-05 22:05:37.90	352.18	15.38	-52.2	-57.5	3.7	0.00e+00	0	50	104	0	76	25731
2026-01-05 22:05:39.89	351.83	15.62	-52.4	-57.7	3.7	0.00e+00	0	51	104	0	76	26507
2026-01-05 22:05:41.88	351.48	15.86	-52.6	-57.8	3.7	0.00e+00	0	51	104	0	76	26798
2026-01-05 22:05:43.86	351.12	16.10	-52.1	-57.6	3.7	0.00e+00	0	50	104	0	76	26006
2026-01-05 22:05:45.86	350.76	16.35	-52.0	-57.5	3.7	0.00e+00	0	51	104	0	75	27234
2026-01-05 22:05:47.86	350.38	16.60	-50.2	-56.2	3.7	0.00e+00	0	50	104	0	72	27938
2026-01-05 22:05:49.86	350.00	16.85	-49.4	-55.5	3.8	0.00e+00	0	51	104	0	70	29076
2026-01-05 22:05:51.85	349.61	17.11	-49.4	-55.6	3.8	0.00e+00	0	50	104	0	70	29256
2026-01-05 22:05:53.84	349.21	17.36	-49.6	-55.6	3.7	0.00e+00	0	51	104	0	69	31061
2026-01-05 22:05:55.84	348.81	17.62	-49.2	-55.3	3.7	0.00e+00	0	51	104	0	69	30099
2026-01-05 22:05:57.83	348.40	17.88	-49.8	-55.8	3.7	0.00e+00	0	51	104	0	70	30079
2026-01-05 22:05:59.83	347.97	18.15	-51.8	-57.0	3.7	0.00e+00	0	51	104	0	74	27265
2026-01-05 22:06:01.83	347.54	18.41	-51.8	-57.2	3.7	0.00e+00	0	51	104	0	75	26418
2026-01-05 22:06:03.83	347.10	18.68	-51.9	-56.9	3.7	0.00e+00	0	51	104	0	75	25658
2026-01-05 22:06:05.83	346.65	18.95	-51.3	-56.6	3.7	0.00e+00	0	51	104	0	74	26052
2026-01-05 22:06:07.82	346.19	19.22	-52.0	-56.9	3.7	0.00e+00	0	51	104	0	74	26984
2026-01-05 22:06:09.82	345.72	19.50	-52.7	-57.0	3.7	0.00e+00	0	51	104	0	76	24264
2026-01-05 22:06:11.82	345.24	19.78	-52.7	-57.2	3.7	0.00e+00	0	51	104	0	76	24908
2026-01-05 22:06:13.81	344.75	20.05	-52.3	-56.7	3.7	0.00e+00	0	51	104	0	76	23688
2026-01-05 22:06:15.81	344.25	20.33	-53.1	-57.6	3.7	0.00e+00	0	51	104	0	76	26217
2026-01-05 22:06:17.80	343.74	20.62	-53.0	-57.1	3.7	0.00e+00	0	51	104	0	77	23197
2026-01-05 22:06:19.80	343.22	20.90	-51.4	-56.7	3.7	0.00e+00	0	51	104	0	74	26360
2026-01-05 22:06:21.79	342.69	21.19	-51.5	-56.9	3.7	0.00e+00	0	51	104	0	74	26901
2026-01-05 22:06:23.79	342.14	21.47	-53.1	-57.5	3.7	0.00e+00	0	51	104	0	76	25872
2026-01-05 22:06:25.78	341.59	21.76	-51.1	-56.9	3.7	0.00e+00	0	51	104	0	74	27072
2026-01-05 22:06:27.78	341.02	22.05	-50.9	-56.5	3.7	0.00e+00	0	51	104	0	72	28872
2026-01-05 22:06:29.77	340.44	22.34	-51.2	-56.4	3.6	0.00e+00	0	51	104	0	73	27180
2026-01-05 22:06:31.77	339.85	22.64	-51.8	-57.2	3.7	0.00e+00	0	51	104	0	74	27901
2026-01-05 22:06:33.76	339.24	22.93	-52.0	-57.3	3.7	0.00e+00	0	51	104	0	75	26723
2026-01-05 22:06:35.75	338.62	23.23	-51.4	-56.7	3.7	0.00e+00	0	51	104	0	74	26331
2026-01-05 22:06:37.75	337.99	23.52	-52.6	-57.8	3.7	0.00e+00	0	51	104	0	75	28337
2026-01-05 22:06:39.75	337.34	23.82	-52.5	-57.8	3.7	0.00e+00	0	51	104	0	76	26724
2026-01-05 22:06:41.74	336.68	24.12	-53.3	-58.1	3.7	0.00e+00	0	51	104	0	77	26053
2026-01-05 22:06:43.73	336.01	24.42	-53.0	-57.8	3.7	0.00e+00	0	51	104	0	77	25278
2026-01-05 22:06:45.73	335.32	24.72	-52.3	-57.6	3.7	0.00e+00	0	51	104	0	76	26178
2026-01-05 22:06:47.73	334.61	25.02	-53.6	-58.3	3.7	0.00e+00	0	51	104	0	77	26600
2026-01-05 22:06:49.72	333.89	25.31	-53.7	-58.4	3.7	0.00e+00	0	51	104	0	78	25456
2026-01-05 22:06:51.71	333.16	25.61	-53.7	-58.4	3.7	0.00e+00	0	51	104	0	78	25528
2026-01-05 22:06:53.71	332.41	25.91	-52.0	-57.5	3.6	0.00e+00	0	51	104	0	76	25728
2026-01-05 22:06:55.71	331.64	26.20	-51.4	-57.1	3.7	0.00e+00	0	51	104	0	74	27637
2026-01-05 22:06:57.70	330.86	26.50	-50.7	-56.4	3.7	0.00e+00	0	51	104	0	73	27183
2026-01-05 22:06:59.69	330.06	26.79	-52.8	-57.5	3.7	0.00e+00	0	51	104	0	76	25711
2026-01-05 22:07:01.69	329.24	27.08	-53.4	-57.9	3.7	0.00e+00	0	51	104	0	77	25396
2026-01-05 22:07:03.68	328.41	27.37	-52.9	-57.7	3.7	0.00e+00	0	51	104	0	77	24839
2026-01-05 22:07:05.67	327.56	27.66	-51.2	-56.7	3.7	0.00e+00	0	51	104	0	74	26511
2026-01-05 22:07:07.66	326.70	27.94	-51.4	-56.9	3.7	0.00e+00	0	51	104	0	74	26948
2026-01-05 22:07:09.66	325.82	28.22	-52.1	-57.2	3.7	0.00e+00	0	51	104	0	75	26332
2026-01-05 22:07:11.65	324.92	28.50	-53.1	-57.8	3.7	0.00e+00	0	51	104	0	76	26674
2026-01-05 22:07:13.65	324.00	28.77	-53.3	-57.8	3.7	0.00e+00	0	51	104	0	77	25166
2026-01-05 22:07:15.65	323.06	29.04	-52.5	-57.2	3.7	0.00e+00	0	51	104	0	76	25014
2026-01-05 22:07:17.65	322.11	29.30	-51.5	-56.8	3.7	0.00e+00	0	51	104	0	74	26617
2026-01-05 22:07:19.64	321.14	29.56	-51.9	-57.2	3.7	0.00e+00	0	51	104	0	74	28018
2026-01-05 22:07:21.63	320.16	29.81	-53.2	-58.0	3.7	0.00e+00	0	51	104	0	77	25778
2026-01-05 22:07:23.63	319.15	30.05	-53.8	-58.3	3.7	0.00e+00	0	51	104	0	78	25151
2026-01-05 22:07:25.62	318.13	30.29	-52.3	-57.3	3.7	0.00e+00	0	51	104	0	75	26794
2026-01-05 22:07:27.62	317.10	30.52	-51.9	-57.2	3.7	0.00e+00	0	51	104	0	74	27995
2026-01-05 22:07:29.61	316.05	30.75	-53.9	-58.3	3.7	0.00e+00	0	51	104	0	78	25375
2026-01-05 22:07:31.61	314.98	30.96	-53.9	-58.3	3.7	0.00e+00	0	51	104	0	78	25238
2026-01-05 22:07:33.61	313.89	31.17	-54.0	-58.4	3.7	0.00e+00	0	51	104	0	78	25476
2026-01-05 22:07:35.60	312.80	31.36	-53.3	-57.8	3.7	0.00e+00	0	51	104	0	78	23860
2026-01-05 22:07:37.60	311.68	31.55	-53.5	-57.9	3.7	0.00e+00	0	51	104	0	78	24181
2026-01-05 22:07:39.59	310.56	31.73	-53.9	-58.5	3.7	0.00e+00	0	51	104	0	78	25896
2026-01-05 22:07:41.59	309.42	31.89	-53.9	-58.3	3.7	0.00e+00	0	51	104	0	78	25234
2026-01-05 22:07:43.58	308.27	32.05	-54.1	-58.6	3.7	0.00e+00	0	51	104	0	78	26171
2026-01-05 22:07:45.57	307.11	32.19	-53.7	-58.2	3.7	0.00e+00	0	51	104	0	78	25071
2026-01-05 22:07:47.57	305.93	32.33	-53.5	-57.9	3.7	0.00e+00	0	51	104	0	78	23970
2026-01-05 22:07:49.57	304.75	32.45	-53.5	-57.9	3.7	0.00e+00	0	51	104	0	78	24027
2026-01-05 22:07:51.57	303.55	32.55	-52.9	-57.7	3.7	0.00e+00	0	51	104	0	77	24841
2026-01-05 22:07:53.56	302.35	32.65	-53.3	-57.6	3.7	0.00e+00	0	51	104	0	77	24685
2026-01-05 22:07:55.56	301.14	32.73	-53.5	-58.1	3.7	0.00e+00	0	51	104	0	77	26111
2026-01-05 22:07:57.56	299.93	32.80	-53.6	-58.2	3.7	0.00e+00	0	51	104	0	77	26381
2026-01-05 22:07:59.56	298.70	32.85	-53.8	-58.1	3.7	0.00e+00	0	51	104	0	78	24599
2026-01-05 22:08:01.55	297.48	32.89	-53.6	-58.0	3.7	0.00e+00	0	51	104	0	78	24457
2026-01-05 22:08:03.55	296.25	32.92	-53.6	-57.7	3.7	0.00e+00	0	51	104	0	78	23658
2026-01-05 22:08:05.55	295.02	32.93	-53.4	-57.8	3.7	0.00e+00	0	51	104	0	78	23817
2026-01-05 22:08:07.54	293.80	32.93	-53.6	-58.2	3.7	0.00e+00	0	51	104	0	78	24910
2026-01-05 22:08:09.54	292.57	32.92	-54.0	-58.3	3.7	0.00e+00	0	51	104	0	78	25316
2026-01-05 22:08:11.54	291.34	32.89	-54.0	-58.5	3.7	0.00e+00	0	51	104	0	78	25822
2026-01-05 22:08:13.53	290.12	32.85	-54.1	-58.5	3.7	0.00e+00	0	51	104	0	78	25953
2026-01-05 22:08:15.53	288.89	32.79	-54.1	-58.6	3.7	0.00e+00	0	51	104	0	78	26024
2026-01-05 22:08:17.53	287.68	32.72	-54.1	-58.6	3.7	0.00e+00	0	51	104	0	78	26054
2026-01-05 22:08:19.52	286.47	32.64	-53.9	-58.5	3.7	0.00e+00	0	51	104	0	78	25691
2026-01-05 22:08:21.52	285.27	32.54	-54.0	-58.5	3.7	0.00e+00	0	51	104	0	78	25853
2026-01-05 22:08:23.51	284.08	32.43	-54.1	-58.7	3.7	0.00e+00	0	51	104	0	78	26283
2026-01-05 22:08:25.51	282.89	32.31	-54.0	-58.5	3.7	0.00e+00	0	51	104	0	78	25906
2026-01-05 22:08:27.50	281.72	32.18	-54.1	-58.6	3.7	0.00e+00	0	51	104	0	78	26235
2026-01-05 22:08:29.50	280.55	32.03	-53.8	-58.3	3.7	0.00e+00	0	51	104	0	78	25107
2026-01-05 22:08:31.49	279.40	31.87	-54.0	-58.6	3.7	0.00e+00	0	51	104	0	78	26015
2026-01-05 22:08:33.48	278.26	31.71	-54.1	-58.7	3.7	0.00e+00	0	51	104	0	78	26286
2026-01-05 22:08:35.48	277.13	31.53	-53.7	-58.3	3.7	0.00e+00	0	51	104	0	78	25348
2026-01-05 22:08:37.47	276.02	31.34	-53.7	-58.5	3.7	0.00e+00	0	51	104	0	78	25735
2026-01-05 22:08:39.46	274.93	31.14	-53.6	-58.3	3.7	0.00e+00	0	51	104	0	78	25282
2026-01-05 22:08:41.46	273.84	30.93	-53.5	-58.2	3.7	0.00e+00	0	51	104	0	78	24901
2026-01-05 22:08:43.46	272.77	30.72	-53.7	-58.1	3.7	0.00e+00	0	51	104	0	78	24552
2026-01-05 22:08:45.45	271.72	30.49	-53.9	-58.4	3.7	0.00e+00	0	51	104	0	78	25486
2026-01-05 22:08:47.45	270.68	30.26	-53.6	-58.3	3.7	0.00e+00	0	51	104	0	78	25316
2026-01-05 22:08:49.44	269.66	30.02	-53.8	-58.4	3.7	0.00e+00	0	51	104	0	78	25518
2026-01-05 22:08:51.44	268.65	29.77	-53.9	-58.4	3.7	0.00e+00	0	51	104	0	78	25515
2026-01-05 22:08:53.43	267.67	29.52	-53.8	-58.3	3.7	0.00e+00	0	51	104	0	78	25231
2026-01-05 22:08:55.42	266.70	29.26	-53.6	-58.2	3.7	0.00e+00	0	51	104	0	78	24964
2026-01-05 22:08:57.41	265.75	29.00	-53.8	-58.3	3.7	0.00e+00	0	51	104	0	78	25193
2026-01-05 22:08:59.40	264.81	28.73	-53.2	-58.0	3.7	0.00e+00	0	51	104	0	78	24292
2026-01-05 22:09:01.40	263.89	28.45	-53.0	-57.9	3.7	0.00e+00	0	51	104	0	78	24177
2026-01-05 22:09:03.40	262.99	28.17	-53.8	-58.4	3.7	0.00e+00	0	51	104	0	78	25636
2026-01-05 22:09:05.39	262.11	27.89	-53.6	-58.2	3.7	0.00e+00	0	51	104	0	78	25073
2026-01-05 22:09:07.39	261.24	27.61	-53.4	-58.2	3.7	0.00e+00	0	51	104	0	78	24820
2026-01-05 22:09:09.39	260.38	27.32	-53.5	-58.1	3.7	0.00e+00	0	51	104	0	78	24533
2026-01-05 22:09:11.39	259.55	27.03	-53.5	-58.1	3.7	0.00e+00	0	51	104	0	78	24616
2026-01-05 22:09:13.38	258.73	26.73	-53.5	-58.3	3.7	0.00e+00	0	51	104	0	78	25097
2026-01-05 22:09:15.38	257.93	26.44	-53.6	-58.2	3.7	0.00e+00	0	51	104	0	78	25066
2026-01-05 22:09:17.38	257.14	26.14	-53.6	-58.2	3.7	0.00e+00	0	51	104	0	78	24896
2026-01-05 22:09:19.38	256.37	25.84	-54.0	-58.4	3.7	0.00e+00	0	51	104	0	78	25525
2026-01-05 22:09:21.37	255.62	25.54	-53.8	-58.3	3.7	0.00e+00	0	51	104	0	78	25364
2026-01-05 22:09:23.36	254.89	25.24	-53.3	-58.1	3.7	0.00e+00	0	51	104	0	78	24725
2026-01-05 22:09:25.36	254.16	24.94	-53.0	-58.0	3.7	0.00e+00	0	51	104	0	77	25858
2026-01-05 22:09:27.36	253.45	24.64	-53.1	-57.8	3.7	0.00e+00	0	51	104	0	77	25329
2026-01-05 22:09:29.36	252.76	24.34	-53.2	-58.1	3.7	0.00e+00	0	52	104	0	77	26259
2026-01-05 22:09:31.36	252.08	24.04	-52.9	-58.3	3.7	0.00e+00	0	51	104	0	77	26593
2026-01-05 22:09:33.35	251.42	23.74	-53.2	-58.4	3.7	0.00e+00	0	51	104	0	77	27041
2026-01-05 22:09:35.35	250.77	23.44	-53.2	-58.4	3.7	0.00e+00	0	51	104	0	77	26919
2026-01-05 22:09:37.35	250.14	23.14	-53.1	-58.3	3.7	0.00e+00	0	52	104	0	77	26621
2026-01-05 22:09:39.34	249.52	22.85	-52.7	-57.8	3.7	0.00e+00	0	51	104	0	77	25324
2026-01-05 22:09:41.34	248.91	22.55	-52.8	-58.1	3.7	0.00e+00	0	51	104	0	77	25981
2026-01-05 22:09:43.33	248.32	22.25	-53.2	-58.2	3.7	0.00e+00	0	51	104	0	77	26349
2026-01-05 22:09:45.32	247.74	21.96	-53.5	-58.4	3.7	0.00e+00	0	51	104	0	77	26949
2026-01-05 22:09:47.32	247.16	21.67	-53.6	-58.4	3.7	0.00e+00	0	51	104	0	77	27061
2026-01-05 22:09:49.31	246.61	21.38	-53.8	-58.4	3.7	0.00e+00	0	51	104	0	78	25451
2026-01-05 22:09:51.31	246.06	21.09	-53.5	-58.5	3.7	0.00e+00	0	51	104	0	78	25752
2026-01-05 22:09:53.30	245.53	20.80	-53.6	-58.5	3.7	0.00e+00	0	51	104	0	78	25812
2026-01-05 22:09:55.30	245.01	20.52	-53.9	-58.5	3.7	0.00e+00	0	52	104	0	78	25861
2026-01-05 22:09:57.30	244.49	20.23	-53.9	-58.4	3.7	0.00e+00	0	51	104	0	78	25677
2026-01-05 22:09:59.30	243.99	19.95	-53.8	-58.3	3.7	0.00e+00	0	51	104	0	78	25125
2026-01-05 22:10:01.29	243.50	19.67	-53.8	-58.3	3.7	0.00e+00	0	51	104	0	78	25370
2026-01-05 22:10:03.29	243.02	19.39	-52.7	-58.0	3.7	0.00e+00	0	51	104	0	77	25964
2026-01-05 22:10:05.29	242.55	19.12	-52.7	-58.2	3.7	0.00e+00	0	52	104	0	76	27926
2026-01-05 22:10:07.28	242.09	18.84	-52.7	-57.9	3.7	0.00e+00	0	51	104	0	76	27111
2026-01-05 22:10:09.28	241.64	18.57	-52.9	-57.8	3.7	0.00e+00	0	51	104	0	77	25262
2026-01-05 22:10:11.27	241.20	18.30	-53.8	-58.2	3.7	0.00e+00	0	51	104	0	78	25004
2026-01-05 22:10:13.27	240.76	18.04	-53.7	-58.3	3.6	0.00e+00	0	51	104	0	78	25205
2026-01-05 22:10:15.27	240.34	17.77	-53.8	-58.4	3.7	0.00e+00	0	51	104	0	78	25407
2026-01-05 22:10:17.27	239.92	17.51	-53.8	-58.3	3.7	0.00e+00	0	51	104	0	78	25301
2026-01-05 22:10:19.26	239.52	17.25	-53.5	-58.2	3.7	0.00e+00	0	51	104	0	78	24813
2026-01-05 22:10:21.26	239.12	16.99	-53.5	-58.2	3.7	0.00e+00	0	51	104	0	78	24955
2026-01-05 22:10:23.25	238.73	16.74	-53.7	-58.4	3.7	0.00e+00	0	51	104	0	78	25396
2026-01-05 22:10:25.24	238.34	16.48	-53.7	-58.3	3.7	0.00e+00	0	52	104	0	78	25321
2026-01-05 22:10:27.23	237.97	16.23	-53.6	-58.4	3.7	0.00e+00	0	51	104	0	78	25508
2026-01-05 22:10:29.23	237.60	15.98	-53.6	-58.3	3.7	0.00e+00	0	51	104	0	78	25323
2026-01-05 22:10:31.22	237.24	15.74	-53.1	-58.3	3.7	0.00e+00	0	51	104	0	78	25211
2026-01-05 22:10:33.22	236.89	15.49	-53.1	-58.2	3.7	0.00e+00	0	51	104	0	78	25066
2026-01-05 22:10:35.22	236.54	15.25	-53.1	-58.1	3.7	0.00e+00	0	51	104	0	78	24719
2026-01-05 22:10:37.22	236.20	15.01	-53.1	-58.1	3.7	0.00e+00	0	51	104	0	78	24541
2026-01-05 22:10:39.22	235.86	14.77	-53.2	-57.9	3.7	0.00e+00	0	51	104	0	78	24146
2026-01-05 22:10:41.21	235.54	14.54	-53.2	-58.1	3.7	0.00e+00	0	51	104	0	78	24602
2026-01-05 22:10:43.20	235.22	14.30	-53.3	-58.0	3.7	0.00e+00	0	51	104	0	78	24515
2026-01-05 22:10:45.20	234.90	14.07	-53.3	-58.0	3.7	0.00e+00	0	51	104	0	78	24491
2026-01-05 22:10:47.19	234.59	13.84	-53.0	-58.2	3.7	0.00e+00	0	51	104	0	78	25062
2026-01-05 22:10:49.18	234.29	13.62	-53.1	-58.3	3.7	0.00e+00	0	51	104	0	77	26706
2026-01-05 22:10:51.18	233.99	13.39	-52.8	-58.2	3.7	0.00e+00	0	51	104	0	77	26480
2026-01-05 22:10:53.17	233.70	13.17	-53.1	-58.2	3.7	0.00e+00	0	51	104	0	77	26578
2026-01-05 22:10:55.18	233.41	12.95	-53.3	-58.0	3.7	0.00e+00	0	51	104	0	77	25787
2026-01-05 22:10:57.18	233.13	12.73	-53.4	-58.1	3.7	0.00e+00	0	51	104	0	77	26007
2026-01-05 22:10:59.18	232.85	12.51	-53.3	-57.9	3.7	0.00e+00	0	51	104	0	77	25560
2026-01-05 22:11:01.18	232.58	12.30	-53.4	-57.9	3.7	0.00e+00	0	51	104	0	77	25650
2026-01-05 22:11:03.18	232.31	12.08	-53.4	-57.9	3.7	0.00e+00	0	51	104	0	77	25554
2026-01-05 22:11:05.18	232.05	11.87	-53.5	-58.0	3.7	0.00e+00	0	51	104	0	77	25722
2026-01-05 22:11:07.17	231.79	11.67	-53.4	-58.1	3.7	0.00e+00	0	51	104	0	77	26067
2026-01-05 22:11:09.18	231.53	11.46	-53.5	-58.1	3.7	0.00e+00	0	51	104	0	77	26106
2026-01-05 22:11:11.29	231.27	11.24	-53.3	-57.8	3.7	0.00e+00	0	51	104	0	77	25375
2026-01-05 22:11:13.28	231.03	11.04	-53.5	-58.1	3.7	0.00e+00	0	52	104	0	77	26025
2026-01-05 22:11:15.29	230.79	10.84	-53.3	-57.9	3.7	0.00e+00	0	51	104	0	77	25507
2026-01-05 22:11:17.29	230.55	10.64	-53.1	-58.0	3.7	0.00e+00	0	51	104	0	77	25796
2026-01-05 22:11:19.29	230.32	10.44	-53.0	-57.7	3.7	0.00e+00	0	51	104	0	77	25035
2026-01-05 22:11:21.29	230.09	10.24	-53.0	-57.7	3.7	0.00e+00	0	52	104	0	77	25069
2026-01-05 22:11:23.29	229.86	10.05	-53.2	-57.7	3.7	0.00e+00	0	52	104	0	77	25091
2026-01-05 22:11:25.29	229.64	9.85	-53.3	-57.9	3.7	0.00e+00	0	51	104	0	77	25544
2026-01-05 22:11:27.29	229.42	9.66	-53.3	-57.8	3.7	0.00e+00	0	51	104	0	77	25135
2026-01-05 22:11:29.29	229.21	9.47	-53.4	-57.9	3.7	0.00e+00	0	51	104	0	77	25607
2026-01-05 22:11:31.29	229.00	9.28	-53.2	-57.6	3.7	0.00e+00	0	52	104	0	77	24686
2026-01-05 22:11:33.29	228.79	9.10	-53.2	-57.8	3.7	0.00e+00	0	52	104	0	77	25118
2026-01-05 22:11:35.29	228.59	8.91	-53.2	-58.0	3.7	0.00e+00	0	51	104	0	77	25898
2026-01-05 22:11:37.29	228.39	8.73	-53.6	-58.4	3.7	0.00e+00	0	51	104	0	78	25595
2026-01-05 22:11:39.29	228.19	8.55	-53.7	-58.4	3.7	0.00e+00	0	51	104	0	78	25395
2026-01-05 22:11:41.29	228.00	8.37	-54.1	-58.7	3.7	0.00e+00	0	51	104	0	78	26299
2026-01-05 22:11:43.29	227.81	8.19	-54.2	-58.7	3.6	0.00e+00	0	51	104	0	79	25029
2026-01-05 22:11:45.29	227.62	8.01	-54.0	-58.6	3.7	0.00e+00	0	51	104	0	79	24615
2026-01-05 22:11:47.30	227.43	7.83	-54.1	-58.7	3.7	0.00e+00	0	51	104	0	78	26414
2026-01-05 22:11:49.30	227.25	7.66	-53.8	-58.5	3.7	0.00e+00	0	51	104	0	79	24313
2026-01-05 22:11:51.29	227.07	7.49	-54.1	-58.4	3.7	0.00e+00	0	51	104	0	79	24139
2026-01-05 22:11:53.29	226.89	7.32	-53.9	-58.3	3.7	0.00e+00	0	51	104	0	79	23698
2026-01-05 22:11:55.29	226.72	7.14	-53.6	-58.4	3.7	0.00e+00	0	52	104	0	79	24091
2026-01-05 22:11:57.29	226.55	6.98	-53.3	-57.9	3.7	0.00e+00	0	51	104	0	78	24143
2026-01-05 22:11:59.30	226.38	6.81	-53.3	-57.9	3.7	0.00e+00	0	51	104	0	78	24058
2026-01-05 22:12:01.29	226.21	6.64	-53.3	-57.9	3.7	0.00e+00	0	51	104	0	78	23990
2026-01-05 22:12:03.29	226.05	6.48	-53.3	-57.9	3.7	0.00e+00	0	51	104	0	78	24185
2026-01-05 22:12:05.29	225.89	6.31	-53.3	-57.9	3.7	0.00e+00	0	51	104	0	78	24193
2026-01-05 22:12:07.28	225.73	6.15	-53.3	-57.9	3.7	0.00e+00	0	51	104	0	78	24032
2026-01-05 22:12:09.28	225.57	5.99	-53.3	-57.9	3.7	0.00e+00	0	51	104	0	78	24145
2026-01-05 22:12:11.28	225.42	5.83	-53.3	-57.9	3.7	0.00e+00	0	51	104	0	78	24036
2026-01-05 22:12:13.29	225.26	5.67	-53.3	-57.9	3.7	0.00e+00	0	51	104	0	78	24057
2026-01-05 22:12:15.29	225.11	5.51	-53.3	-57.9	3.7	0.00e+00	0	51	104	0	78	24095
2026-01-05 22:12:17.29	224.96	5.35	-53.2	-57.9	3.7	0.00e+00	0	51	104	0	78	24066
2026-01-05 22:12:19.29	224.82	5.20	-53.2	-57.9	3.7	0.00e+00	0	52	104	0	78	24014
2026-01-05 22:12:21.29	224.67	5.04	-53.3	-57.9	3.7	0.00e+00	0	51	104	0	78	24023

#Closed at: 2026-01-05 22:12:22
#Recorded file [0 MB]: D:/Data/31040_260106_010350.dat