passes_logs/2026/01/05/T1/T1__20260105_020328_FENGYUN_3D_rec.log

#Pass ID: 20260105_020328_FENGYUN 3D
#Satellite: FENGYUN 3D
#Configuration: FENGYUN 3D
#almurnet v.1.7.20251203
#Start time: 2026-01-05 02:03:28

#Version: 2.0.20230620
#Station: T1
#Location: 37.570604 lon 55.790049 lat
#TLE: 1 43010U 17072A   26004.50247883 -.00000063  00000+0 -78815-5 0  9998
#TLE: 2 43010  98.9915 336.1565 0001968 126.3752 233.7605 14.19691805421760

#Time	Az	El	Level	Level2	SNR	BER	BlckErr	Temp	State	Recorded	gain1	gain2
2026-01-05 02:03:28.05	14.82	4.97	-51.9	-65.2	3.8	8.47e-01	0	39	0	0	74	17631
2026-01-05 02:03:31.05	14.78	5.19	-52.0	-65.2	3.8	8.46e-01	0	40	104	0	74	17663
2026-01-05 02:03:34.07	14.75	5.40	-52.0	-65.2	3.8	8.47e-01	0	40	104	0	74	17598
2026-01-05 02:03:37.08	14.71	5.62	-52.0	-65.2	3.8	8.47e-01	0	40	104	0	74	17542
2026-01-05 02:03:40.09	14.67	5.84	-52.0	-65.2	3.8	8.47e-01	0	40	104	0	74	17562
2026-01-05 02:03:43.11	14.63	6.06	-52.0	-65.2	3.8	8.47e-01	0	40	104	0	74	17607
2026-01-05 02:03:46.12	14.58	6.28	-51.9	-65.2	3.8	8.45e-01	0	40	104	0	74	17561
2026-01-05 02:03:49.13	14.54	6.51	-51.8	-65.2	3.8	8.47e-01	0	40	104	0	74	17557
2026-01-05 02:03:52.14	14.50	6.74	-51.7	-65.1	3.8	8.48e-01	0	41	104	0	74	17435
2026-01-05 02:03:55.15	14.45	6.96	-51.6	-65.1	3.8	8.46e-01	0	41	104	0	74	17451
2026-01-05 02:03:58.17	14.41	7.20	-51.5	-65.1	3.8	8.47e-01	0	41	104	0	74	17437
2026-01-05 02:04:01.18	14.36	7.43	-51.4	-65.2	3.8	8.46e-01	0	41	104	0	74	17551
2026-01-05 02:04:04.19	14.32	7.66	-51.4	-65.2	3.8	8.47e-01	0	41	104	0	74	17504
2026-01-05 02:04:07.20	14.27	7.90	-51.4	-65.2	3.8	8.46e-01	0	41	104	0	74	17516
2026-01-05 02:04:10.21	14.22	8.14	-51.3	-65.2	3.8	8.46e-01	0	41	104	0	74	17567
2026-01-05 02:04:13.23	14.17	8.38	-51.4	-65.2	3.8	8.47e-01	0	41	104	0	74	17507
2026-01-05 02:04:16.24	14.12	8.63	-51.4	-65.1	3.8	8.47e-01	0	41	104	0	74	17475
2026-01-05 02:04:19.25	14.07	8.87	-51.5	-65.1	3.8	8.48e-01	0	41	104	0	74	17438
2026-01-05 02:04:22.27	14.01	9.12	-51.7	-65.2	3.8	8.47e-01	0	41	104	0	74	17522
2026-01-05 02:04:25.28	13.96	9.38	-51.8	-65.1	3.8	8.47e-01	0	41	104	0	74	17427
2026-01-05 02:04:28.29	13.90	9.63	-52.0	-65.1	3.8	8.47e-01	0	41	104	0	74	17460
2026-01-05 02:04:31.31	13.85	9.89	-52.1	-65.2	3.8	8.47e-01	0	41	104	0	74	17497
2026-01-05 02:04:34.32	13.79	10.15	-52.2	-65.2	3.8	8.47e-01	0	42	104	0	75	16505
2026-01-05 02:04:37.33	13.73	10.41	-52.3	-65.1	3.8	8.46e-01	0	42	104	0	75	16480
2026-01-05 02:04:40.34	13.67	10.67	-52.4	-65.1	3.8	8.47e-01	0	42	104	0	75	16475
2026-01-05 02:04:43.36	13.61	10.94	-52.5	-65.2	3.8	8.48e-01	0	41	104	0	75	16543
2026-01-05 02:04:46.37	13.54	11.21	-52.5	-65.1	3.8	8.47e-01	0	42	104	0	75	16495
2026-01-05 02:04:49.38	13.48	11.49	-52.5	-65.1	3.8	8.46e-01	0	41	104	0	75	16479
2026-01-05 02:04:52.39	13.41	11.76	-52.5	-65.1	3.8	8.47e-01	0	42	104	0	75	16406
2026-01-05 02:04:55.41	13.35	12.04	-52.4	-65.1	3.8	8.47e-01	0	42	104	0	75	16395
2026-01-05 02:04:58.42	13.28	12.33	-52.2	-65.1	3.8	8.47e-01	0	42	104	0	75	16423
2026-01-05 02:05:01.43	13.21	12.61	-52.1	-65.1	3.8	8.47e-01	0	42	104	0	75	16458
2026-01-05 02:05:04.44	13.13	12.90	-51.9	-65.1	3.8	8.48e-01	0	42	104	0	75	16462
2026-01-05 02:05:07.45	13.06	13.19	-51.8	-65.1	3.8	8.48e-01	0	42	104	0	75	16472
2026-01-05 02:05:10.47	12.98	13.49	-51.7	-65.1	3.8	8.47e-01	0	42	104	0	75	16429
2026-01-05 02:05:13.48	12.91	13.79	-51.6	-65.1	3.8	8.47e-01	0	42	104	0	75	16488
2026-01-05 02:05:16.49	12.83	14.10	-51.6	-65.2	3.8	8.46e-01	0	42	104	0	75	16534
2026-01-05 02:05:19.51	12.75	14.40	-51.6	-65.2	3.8	8.46e-01	0	42	104	0	75	16513
2026-01-05 02:05:22.52	12.66	14.72	-51.6	-65.1	3.8	8.47e-01	0	42	104	0	75	16469
2026-01-05 02:05:25.53	12.58	15.03	-51.6	-65.1	3.8	8.47e-01	0	42	104	0	75	16433
2026-01-05 02:05:28.55	12.49	15.35	-51.6	-65.2	3.8	8.47e-01	0	42	104	0	75	16517
2026-01-05 02:05:31.56	12.40	15.68	-51.6	-65.1	3.8	8.48e-01	0	42	104	0	75	16490
2026-01-05 02:05:34.57	12.31	16.00	-51.8	-65.1	3.8	8.46e-01	0	42	104	0	75	16499
2026-01-05 02:05:37.58	12.22	16.34	-51.9	-65.2	3.8	8.48e-01	0	42	104	0	75	16505
2026-01-05 02:05:40.59	12.12	16.67	-52.1	-65.1	3.8	8.46e-01	0	42	104	0	75	16483
2026-01-05 02:05:43.61	12.02	17.02	-52.3	-65.1	3.8	8.47e-01	0	42	104	0	75	16386
2026-01-05 02:05:46.62	11.92	17.36	-52.4	-65.1	3.8	8.48e-01	0	42	104	0	75	16466
2026-01-05 02:05:49.63	11.81	17.71	-52.5	-65.1	3.8	8.49e-01	0	42	104	0	75	16345
2026-01-05 02:05:52.64	11.71	18.07	-52.5	-65.1	3.8	8.47e-01	0	42	104	0	75	16411
2026-01-05 02:05:55.65	11.60	18.43	-52.3	-65.1	3.8	8.47e-01	0	42	104	0	75	16328
2026-01-05 02:05:58.67	11.48	18.80	-52.0	-65.1	3.8	8.48e-01	0	42	104	0	75	16343
2026-01-05 02:06:01.68	11.37	19.17	-51.6	-65.1	3.8	8.45e-01	0	42	104	0	75	16350
2026-01-05 02:06:04.69	11.25	19.55	-51.3	-65.1	3.8	8.47e-01	0	42	104	0	74	17463
2026-01-05 02:06:07.70	11.13	19.93	-51.1	-65.2	3.8	8.47e-01	0	42	104	0	74	17537
2026-01-05 02:06:10.72	11.00	20.32	-51.0	-65.1	3.8	8.47e-01	0	42	104	0	74	17404
2026-01-05 02:06:13.73	10.87	20.72	-51.0	-65.1	3.8	8.46e-01	0	42	104	0	73	18406
2026-01-05 02:06:16.74	10.74	21.12	-51.0	-65.0	3.8	8.48e-01	0	42	104	0	73	18275
2026-01-05 02:06:19.75	10.60	21.53	-51.1	-65.2	3.8	8.47e-01	0	42	104	0	73	18529
2026-01-05 02:06:22.76	10.46	21.94	-51.3	-65.1	3.8	8.47e-01	0	42	104	0	73	18453
2026-01-05 02:06:25.78	10.32	22.37	-51.5	-65.1	3.8	8.47e-01	0	42	104	0	73	18427
2026-01-05 02:06:28.79	10.17	22.79	-51.6	-65.1	3.8	8.48e-01	0	42	104	0	73	18374
2026-01-05 02:06:31.80	10.02	23.23	-51.8	-65.1	3.8	8.46e-01	0	43	104	0	74	17391
2026-01-05 02:06:34.81	9.86	23.67	-51.9	-65.1	3.8	8.47e-01	0	43	104	0	74	17346
2026-01-05 02:06:37.82	9.69	24.12	-51.9	-65.1	3.8	8.47e-01	0	42	104	0	74	17399
2026-01-05 02:06:40.84	9.53	24.58	-51.9	-65.1	3.8	8.48e-01	0	43	104	0	74	17389
2026-01-05 02:06:43.85	9.35	25.04	-51.9	-65.1	3.8	8.46e-01	0	42	104	0	74	17328
2026-01-05 02:06:46.86	9.17	25.52	-51.8	-65.1	3.8	8.46e-01	0	42	104	0	74	17330
2026-01-05 02:06:49.88	8.99	26.00	-51.7	-65.1	3.8	8.47e-01	0	43	104	0	74	17365
2026-01-05 02:06:52.89	8.80	26.49	-51.6	-65.1	3.8	8.47e-01	0	42	104	0	74	17381
2026-01-05 02:06:55.90	8.60	26.99	-51.5	-65.1	3.8	8.46e-01	0	43	104	0	74	17336
2026-01-05 02:06:58.91	8.39	27.50	-51.4	-65.1	3.8	8.46e-01	0	42	104	0	74	17399
2026-01-05 02:07:01.93	8.18	28.01	-51.3	-65.1	3.8	8.47e-01	0	43	104	0	74	17333
2026-01-05 02:07:04.94	7.96	28.54	-51.4	-65.1	3.8	8.47e-01	0	42	104	0	74	17460
2026-01-05 02:07:07.95	7.74	29.08	-51.4	-65.1	3.8	8.46e-01	0	42	104	0	74	17465
2026-01-05 02:07:10.96	7.50	29.62	-51.4	-65.1	3.8	8.48e-01	0	43	104	0	74	17390
2026-01-05 02:07:13.98	7.26	30.18	-51.4	-65.1	3.8	8.47e-01	0	43	104	0	74	17382
2026-01-05 02:07:16.99	7.01	30.75	-51.4	-65.0	3.8	8.47e-01	0	42	104	0	74	17258
2026-01-05 02:07:20.00	6.75	31.32	-51.8	-65.2	3.8	8.46e-01	0	43	104	0	74	17508
2026-01-05 02:07:23.02	6.47	31.91	-52.9	-65.4	3.8	8.46e-01	0	43	104	0	76	16020
2026-01-05 02:07:26.03	6.19	32.51	-53.1	-65.0	3.8	8.48e-01	0	43	104	0	77	14401
2026-01-05 02:07:29.04	5.90	33.12	-43.4	-45.8	18.2	0.00e+00	0	42	0	7340032	59	4464
2026-01-05 02:07:32.05	5.59	33.74	-41.0	-42.8	20.9	0.00e+00	0	42	0	25165824	54	4204
2026-01-05 02:07:35.06	5.28	34.38	-39.2	-40.8	22.6	0.00e+00	0	43	0	41943040	50	4237
2026-01-05 02:07:38.06	4.95	35.02	-38.9	-40.6	22.8	0.00e+00	0	42	0	58720256	49	4345
2026-01-05 02:07:41.15	4.59	35.70	-38.5	-40.2	23.1	0.00e+00	0	43	0	75497472	48	4403
2026-01-05 02:07:44.04	4.25	36.34	-38.5	-40.2	23.1	0.00e+00	0	43	0	92274688	48	4405
2026-01-05 02:07:47.19	3.86	37.06	-39.0	-40.7	22.6	0.00e+00	0	43	0	110100480	48	4685
2026-01-05 02:07:50.06	3.48	37.72	-39.2	-40.9	22.5	0.00e+00	0	43	0	125829120	49	4494
2026-01-05 02:07:53.21	3.06	38.47	-39.0	-40.7	22.7	0.00e+00	0	42	0	143654912	49	4404
2026-01-05 02:07:56.07	2.65	39.15	-39.3	-41.0	22.4	0.00e+00	0	43	0	159383552	49	4558
2026-01-05 02:07:59.53	2.13	40.00	-39.5	-41.2	22.2	0.00e+00	0	43	0	179306496	49	4662
2026-01-05 02:08:02.25	1.71	40.68	-39.3	-41.0	22.4	0.00e+00	0	43	0	195035136	49	4576
2026-01-05 02:08:05.95	1.10	41.62	-39.6	-41.2	22.2	0.00e+00	0	42	0	214958080	49	4704
2026-01-05 02:08:08.90	0.58	42.39	-39.4	-41.1	22.3	0.00e+00	0	43	0	231735296	49	4620
2026-01-05 02:08:12.72	359.88	43.40	-39.1	-40.7	22.6	0.00e+00	0	43	0	253755392	49	4435
2026-01-05 02:08:15.50	359.34	44.15	-39.1	-40.8	22.6	0.00e+00	0	42	0	269484032	49	4463
2026-01-05 02:08:19.32	358.55	45.20	-39.4	-41.1	22.3	0.00e+00	0	43	0	290455552	49	4649
2026-01-05 02:08:22.09	357.94	45.98	-39.5	-41.2	22.2	0.00e+00	0	42	0	306184192	49	4679
2026-01-05 02:08:26.46	356.92	47.22	-39.4	-41.1	22.3	0.00e+00	0	42	0	330301440	49	4620
2026-01-05 02:08:29.26	356.23	48.04	-39.8	-41.5	22.0	0.00e+00	0	42	0	346030080	50	4592
2026-01-05 02:08:33.03	355.22	49.15	-40.0	-41.7	21.9	0.00e+00	0	43	0	368050176	50	4698
2026-01-05 02:08:36.13	354.34	50.07	-40.3	-41.9	21.7	0.00e+00	0	42	0	384827392	51	4545
2026-01-05 02:08:39.91	353.19	51.22	-40.6	-42.3	21.3	0.00e+00	0	42	0	406847488	51	4758
2026-01-05 02:08:42.85	352.23	52.12	-40.5	-42.2	21.4	0.00e+00	0	42	0	422576128	52	4423
2026-01-05 02:08:46.05	351.12	53.11	-40.5	-42.2	21.4	0.00e+00	0	42	0	441450496	52	4437
2026-01-05 02:08:49.06	350.00	54.05	-40.5	-42.1	21.4	0.00e+00	0	43	0	458227712	52	4390
2026-01-05 02:08:52.07	348.80	54.99	-40.3	-42.1	21.5	0.00e+00	0	42	0	475004928	52	4356
2026-01-05 02:08:55.07	347.52	55.94	-40.0	-41.8	21.5	0.00e+00	0	43	0	491782144	51	4462
2026-01-05 02:08:58.08	346.15	56.89	-39.9	-41.7	21.6	0.00e+00	0	43	0	508559360	51	4409
2026-01-05 02:09:01.41	344.52	57.94	-39.8	-41.5	21.7	0.00e+00	0	43	0	527433728	51	4340
2026-01-05 02:09:04.37	342.96	58.86	-40.1	-41.8	21.6	0.00e+00	0	42	0	544210944	51	4477
2026-01-05 02:09:08.18	340.78	60.05	-39.5	-41.2	22.0	0.00e+00	0	42	0	565182464	51	4192
2026-01-05 02:09:10.90	339.10	60.88	-39.7	-41.4	21.9	0.00e+00	0	42	0	580911104	51	4275
2026-01-05 02:09:15.05	336.30	62.13	-39.0	-40.6	22.5	0.00e+00	0	42	0	603979776	49	4382
2026-01-05 02:09:17.84	334.26	62.95	-39.2	-40.9	22.2	0.00e+00	0	43	0	619708416	49	4516
2026-01-05 02:09:21.76	331.14	64.05	-38.9	-40.6	22.4	0.00e+00	0	42	0	641728512	49	4383
2026-01-05 02:09:24.51	328.78	64.79	-38.6	-40.3	22.7	0.00e+00	0	42	0	657457152	48	4446
2026-01-05 02:09:28.53	325.04	65.81	-38.4	-40.0	22.9	0.00e+00	0	42	0	679477248	48	4340
2026-01-05 02:09:31.73	321.81	66.56	-38.1	-39.8	22.7	0.00e+00	0	42	0	697303040	47	4475
2026-01-05 02:09:35.60	317.61	67.37	-37.7	-39.4	23.0	0.00e+00	0	42	0	719323136	47	4249
2026-01-05 02:09:38.41	314.35	67.89	-37.7	-39.3	23.0	0.00e+00	0	42	0	735051776	47	4235
2026-01-05 02:09:42.19	309.72	68.48	-38.1	-39.8	22.7	0.00e+00	0	42	0	756023296	47	4442
2026-01-05 02:09:44.94	306.20	68.83	-37.7	-39.4	22.9	0.00e+00	0	42	0	771751936	47	4276
2026-01-05 02:09:48.70	301.19	69.18	-38.0	-39.7	22.8	0.00e+00	0	43	0	792723456	47	4433
2026-01-05 02:09:51.50	297.37	69.35	-38.0	-39.7	22.8	0.00e+00	0	42	0	809500672	47	4404
2026-01-05 02:09:55.27	292.15	69.43	-38.1	-39.8	22.7	0.00e+00	0	42	0	830472192	47	4469
2026-01-05 02:09:58.01	288.35	69.39	-38.0	-39.7	22.8	0.00e+00	0	42	0	846200832	47	4395
2026-01-05 02:10:01.81	283.14	69.20	-37.9	-39.5	22.9	0.00e+00	0	42	0	867172352	47	4334
2026-01-05 02:10:04.55	279.47	68.96	-38.2	-39.9	22.6	0.00e+00	0	43	0	881852416	47	4529
2026-01-05 02:10:08.46	274.41	68.49	-38.0	-39.7	22.7	0.00e+00	0	42	0	904921088	47	4420
2026-01-05 02:10:11.26	270.95	68.06	-38.1	-39.8	22.7	0.00e+00	0	43	0	920649728	47	4480
2026-01-05 02:10:15.34	266.19	67.32	-38.2	-39.9	22.6	0.00e+00	0	42	0	942669824	47	4531
2026-01-05 02:10:18.10	263.17	66.74	-38.1	-39.8	22.7	0.00e+00	0	43	0	958398464	47	4451
2026-01-05 02:10:22.11	259.08	65.81	-38.1	-39.8	22.7	0.00e+00	0	43	0	981467136	47	4445
2026-01-05 02:10:25.18	256.19	65.04	-38.3	-40.0	22.5	0.00e+00	0	42	0	998244352	47	4569
2026-01-05 02:10:28.95	252.90	64.03	-38.2	-40.0	22.6	0.00e+00	0	42	0	1020264448	47	4552
2026-01-05 02:10:31.76	250.64	63.24	-38.4	-40.1	22.4	0.00e+00	0	43	0	1035993088	47	4641
2026-01-05 02:10:35.56	247.81	62.14	-38.9	-40.6	22.4	0.00e+00	0	42	0	1056964608	48	4647
2026-01-05 02:10:38.59	245.74	61.23	-39.2	-40.9	22.2	0.00e+00	0	42	0	1073741824	49	4523
2026-01-05 02:10:41.74	243.74	60.26	-39.1	-40.9	22.2	0.00e+00	0	43	0	1091567616	49	4495
2026-01-05 02:10:44.60	242.05	59.38	-39.5	-41.2	22.0	0.00e+00	0	42	0	1107296256	49	4688
2026-01-05 02:10:47.92	240.23	58.34	-39.3	-41.0	22.1	0.00e+00	0	43	0	1126170624	49	4561
2026-01-05 02:10:50.64	238.84	57.48	-39.5	-41.2	22.0	0.00e+00	0	43	0	1141899264	49	4675
2026-01-05 02:10:54.28	237.12	56.33	-39.8	-41.5	21.8	0.00e+00	0	42	0	1161822208	50	4568
2026-01-05 02:10:57.01	235.92	55.46	-40.2	-42.0	21.4	0.00e+00	0	43	0	1177550848	51	4550
2026-01-05 02:11:00.76	234.38	54.28	-39.8	-41.5	21.8	0.00e+00	0	42	0	1198522368	51	4312
2026-01-05 02:11:03.49	233.34	53.43	-40.1	-41.9	21.5	0.00e+00	0	42	0	1214251008	51	4508
2026-01-05 02:11:07.57	231.90	52.16	-39.8	-41.5	21.8	0.00e+00	0	42	0	1237319680	51	4328
2026-01-05 02:11:10.34	230.99	51.30	-39.9	-41.7	21.5	0.00e+00	0	43	0	1251999744	51	4410
2026-01-05 02:11:13.97	229.87	50.20	-39.4	-41.1	21.9	0.00e+00	0	43	0	1272971264	50	4388
2026-01-05 02:11:16.87	229.03	49.32	-39.8	-41.6	21.6	0.00e+00	0	43	0	1288699904	50	4601
2026-01-05 02:11:20.78	227.97	48.16	-39.2	-40.9	22.1	0.00e+00	0	43	0	1310720000	50	4285
2026-01-05 02:11:23.54	227.27	47.36	-38.9	-40.6	22.3	0.00e+00	0	43	0	1326448640	49	4369
2026-01-05 02:11:27.49	226.33	46.22	-38.7	-40.4	22.5	0.00e+00	0	42	0	1348468736	49	4250
2026-01-05 02:11:30.26	225.72	45.44	-39.2	-41.0	22.0	0.00e+00	0	42	0	1364197376	49	4560
2026-01-05 02:11:34.05	224.92	44.39	-39.1	-40.8	22.1	0.00e+00	0	42	0	1386217472	49	4467
2026-01-05 02:11:36.86	224.36	43.62	-39.0	-40.7	22.2	0.00e+00	0	43	0	1401946112	49	4433
2026-01-05 02:11:41.01	223.58	42.51	-38.5	-40.2	22.6	0.00e+00	0	43	0	1425014784	49	4177
2026-01-05 02:11:43.76	223.09	41.79	-38.4	-40.1	22.7	0.00e+00	0	43	0	1440743424	48	4347
2026-01-05 02:11:47.61	222.45	40.80	-38.7	-40.4	22.4	0.00e+00	0	42	0	1461714944	48	4500
2026-01-05 02:11:50.54	221.98	40.06	-38.7	-40.4	22.4	0.00e+00	0	42	0	1478492160	48	4515
2026-01-05 02:11:53.55	221.52	39.32	-38.6	-40.4	22.4	0.00e+00	0	43	0	1495269376	48	4498
2026-01-05 02:11:56.56	221.09	38.59	-38.6	-40.3	22.5	0.00e+00	0	43	0	1512046592	48	4445
2026-01-05 02:11:59.57	220.67	37.87	-38.3	-40.0	22.7	0.00e+00	0	43	0	1529872384	48	4324
2026-01-05 02:12:02.58	220.27	37.17	-38.3	-40.0	22.7	0.00e+00	0	43	0	1546649600	48	4323
2026-01-05 02:12:05.59	219.89	36.47	-38.3	-40.0	22.6	0.00e+00	0	43	0	1563426816	48	4332
2026-01-05 02:12:08.71	219.51	35.77	-38.6	-40.3	22.4	0.00e+00	0	43	0	1581252608	48	4459
2026-01-05 02:12:12.00	219.13	35.05	-38.6	-40.3	22.4	0.00e+00	0	43	0	1599078400	48	4465
2026-01-05 02:12:14.71	218.83	34.46	-38.4	-40.1	22.6	0.00e+00	0	43	0	1614807040	48	4389
2026-01-05 02:12:18.15	218.46	33.73	-38.6	-40.3	22.4	0.00e+00	0	43	0	1633681408	48	4493
2026-01-05 02:12:20.87	218.18	33.16	-38.7	-40.4	22.3	0.00e+00	0	43	0	1649410048	48	4544
2026-01-05 02:12:24.17	217.86	32.49	-38.6	-40.3	22.4	0.00e+00	0	43	0	1668284416	48	4467
2026-01-05 02:12:26.89	217.60	31.94	-38.7	-40.4	22.3	0.00e+00	0	42	0	1682964480	48	4516
2026-01-05 02:12:30.18	217.30	31.30	-38.7	-40.4	22.3	0.00e+00	0	42	0	1701838848	48	4543
2026-01-05 02:12:33.19	217.03	30.72	-38.7	-40.4	22.3	0.00e+00	0	42	0	1718616064	48	4536
2026-01-05 02:12:36.20	216.78	30.15	-38.8	-40.5	22.2	0.00e+00	0	42	0	1735393280	48	4578
2026-01-05 02:12:39.20	216.53	29.59	-39.1	-40.9	22.0	0.00e+00	0	43	0	1752170496	48	4772
2026-01-05 02:12:42.20	216.30	29.04	-39.3	-41.1	21.8	0.00e+00	0	42	0	1768947712	49	4602
2026-01-05 02:12:45.39	216.05	28.47	-39.2	-41.0	21.8	0.00e+00	0	42	0	1786773504	49	4581
2026-01-05 02:12:48.35	215.84	27.95	-39.3	-41.0	21.8	0.00e+00	0	43	0	1803550720	49	4577
2026-01-05 02:12:51.71	215.60	27.37	-39.1	-40.8	21.9	0.00e+00	0	43	0	1822425088	49	4479
2026-01-05 02:12:54.44	215.41	26.91	-39.0	-40.8	22.0	0.00e+00	0	43	0	1838153728	49	4454
2026-01-05 02:12:57.73	215.19	26.36	-39.1	-40.8	22.0	0.00e+00	0	43	0	1855979520	49	4462
2026-01-05 02:13:00.45	215.02	25.91	-39.2	-40.9	21.9	0.00e+00	0	42	0	1871708160	49	4525
2026-01-05 02:13:03.73	214.81	25.39	-39.3	-41.1	21.7	0.00e+00	0	43	0	1890582528	49	4616
2026-01-05 02:13:06.74	214.63	24.91	-39.4	-41.2	21.6	0.00e+00	0	43	0	1907359744	49	4673
2026-01-05 02:13:09.74	214.46	24.45	-39.3	-41.1	21.7	0.00e+00	0	43	0	1924136960	49	4606
2026-01-05 02:13:12.75	214.29	23.99	-39.4	-41.1	21.7	0.00e+00	0	43	0	1940914176	49	4637
2026-01-05 02:13:15.81	214.12	23.53	-39.5	-41.3	21.6	0.00e+00	0	43	0	1958739968	49	4731
2026-01-05 02:13:18.82	213.96	23.09	-39.7	-41.5	21.5	0.00e+00	0	43	0	1975517184	50	4548
2026-01-05 02:13:21.83	213.80	22.65	-39.8	-41.6	21.4	0.00e+00	0	43	0	1992294400	50	4629
2026-01-05 02:13:24.89	213.65	22.21	-39.9	-41.7	21.3	0.00e+00	0	42	0	2009071616	50	4679
2026-01-05 02:13:27.99	213.50	21.78	-39.8	-41.7	21.3	0.00e+00	0	43	0	2026897408	50	4656
2026-01-05 02:13:30.85	213.36	21.38	-39.8	-41.6	21.4	0.00e+00	0	43	0	2042626048	50	4599
2026-01-05 02:13:34.00	213.22	20.96	-39.7	-41.5	21.4	0.00e+00	0	43	0	2060451840	50	4573
2026-01-05 02:13:36.86	213.09	20.57	-39.7	-41.5	21.5	0.00e+00	0	43	0	2077229056	50	4557
2026-01-05 02:13:40.06	212.95	20.15	-39.9	-41.7	21.3	0.00e+00	0	43	0	2095054848	50	4652
2026-01-05 02:13:42.93	212.83	19.78	-40.0	-41.7	21.3	0.00e+00	0	43	0	2110783488	50	4692
2026-01-05 02:13:46.30	212.69	19.35	-40.2	-42.0	21.1	0.00e+00	0	43	0	2129657856	50	4827
2026-01-05 02:13:49.21	212.57	18.98	-40.4	-42.2	20.9	0.00e+00	0	43	0	2146435072	51	4672
2026-01-05 02:13:52.75	212.44	18.55	-40.5	-42.4	20.7	0.00e+00	0	43	0	2166358016	51	4774
2026-01-05 02:13:55.47	212.33	18.21	-40.6	-42.5	20.6	0.00e+00	0	43	0	2181038080	52	4566
2026-01-05 02:13:58.76	212.21	17.82	-40.6	-42.5	20.6	0.00e+00	0	43	0	2199912448	52	4561
2026-01-05 02:14:01.48	212.11	17.50	-40.7	-42.6	20.5	0.00e+00	0	43	0	2214592512	52	4614
2026-01-05 02:14:04.79	212.00	17.11	-40.8	-42.6	20.4	0.00e+00	0	43	0	2233466880	52	4651
2026-01-05 02:14:07.58	211.90	16.79	-40.9	-42.7	20.3	0.00e+00	0	43	0	2249195520	52	4700
2026-01-05 02:14:10.87	211.79	16.42	-41.0	-42.8	20.2	0.00e+00	0	43	0	2268069888	52	4750
2026-01-05 02:14:13.59	211.70	16.11	-41.1	-42.9	20.1	0.00e+00	0	43	0	2282749952	52	4809
2026-01-05 02:14:16.89	211.60	15.75	-41.2	-43.1	20.0	0.00e+00	0	43	0	2301624320	53	4619
2026-01-05 02:14:19.61	211.51	15.45	-41.3	-43.2	20.0	0.00e+00	0	43	0	2317352960	53	4656
2026-01-05 02:14:22.90	211.41	15.10	-41.3	-43.2	19.9	0.00e+00	0	43	0	2336227328	53	4674
2026-01-05 02:14:25.62	211.33	14.81	-41.5	-43.4	19.7	0.00e+00	0	43	0	2350907392	53	4784
2026-01-05 02:14:29.28	211.22	14.42	-41.5	-43.4	19.7	0.00e+00	0	43	0	2371878912	53	4784
2026-01-05 02:14:32.02	211.15	14.14	-41.6	-43.5	19.6	0.00e+00	0	43	0	2386558976	54	4573
2026-01-05 02:14:35.80	211.04	13.76	-41.6	-43.5	19.6	0.00e+00	0	43	0	2408579072	54	4556
2026-01-05 02:14:38.58	210.97	13.48	-41.7	-43.6	19.5	0.00e+00	0	43	0	2423259136	54	4626
2026-01-05 02:14:42.54	210.86	13.08	-41.9	-43.9	19.3	0.00e+00	0	43	0	2446327808	54	4765
2026-01-05 02:14:45.67	210.78	12.78	-41.9	-43.8	19.3	0.00e+00	0	43	0	2464153600	54	4739
2026-01-05 02:14:49.44	210.69	12.41	-41.9	-43.9	19.2	0.00e+00	0	43	0	2485125120	54	4777
2026-01-05 02:14:52.22	210.62	12.15	-42.1	-44.0	19.1	0.00e+00	0	43	0	2500853760	54	4850
2026-01-05 02:14:56.16	210.53	11.78	-42.2	-44.1	19.0	0.00e+00	0	43	0	2522873856	55	4636
2026-01-05 02:14:58.90	210.47	11.52	-42.1	-44.1	19.0	0.00e+00	0	43	0	2537553920	55	4610
2026-01-05 02:15:02.65	210.38	11.18	-42.3	-44.3	18.8	0.00e+00	0	43	0	2558525440	55	4715
2026-01-05 02:15:05.58	210.32	10.91	-42.2	-44.1	18.9	0.00e+00	0	43	0	2575302656	55	4643
2026-01-05 02:15:08.59	210.25	10.64	-42.2	-44.2	18.9	0.00e+00	0	43	0	2592079872	55	4658
2026-01-05 02:15:11.60	210.19	10.38	-42.3	-44.3	18.7	0.00e+00	0	43	0	2608857088	55	4729
2026-01-05 02:15:14.69	210.12	10.11	-42.4	-44.4	18.7	0.00e+00	0	43	0	2626682880	55	4791
2026-01-05 02:15:17.65	210.06	9.85	-42.5	-44.6	18.5	0.00e+00	0	43	0	2643460096	55	4877
2026-01-05 02:15:20.91	210.00	9.57	-42.5	-44.6	18.5	0.00e+00	0	43	0	2662334464	55	4875
2026-01-05 02:15:23.88	209.94	9.32	-42.8	-44.8	18.4	0.00e+00	0	43	0	2678063104	56	4720
2026-01-05 02:15:27.03	209.88	9.05	-43.2	-45.2	18.0	0.00e+00	0	43	0	2695888896	57	4696
2026-01-05 02:15:29.90	209.82	8.81	-53.0	-65.2	3.8	8.46e-01	0	43	104	2701131776	76	15650
2026-01-05 02:15:33.05	209.76	8.55	-53.3	-65.4	3.8	8.46e-01	0	43	104	2701131776	77	15156
2026-01-05 02:15:35.92	209.71	8.32	-53.1	-65.5	3.8	8.47e-01	0	43	104	2701131776	77	15316
2026-01-05 02:15:39.08	209.66	8.06	-53.3	-65.5	3.8	8.46e-01	0	43	104	2701131776	77	15338
2026-01-05 02:15:41.95	209.61	7.83	-53.2	-65.5	3.8	8.48e-01	0	43	104	2701131776	77	15349
2026-01-05 02:15:45.10	209.55	7.58	-53.2	-65.5	3.8	8.47e-01	0	43	104	2701131776	77	15325
2026-01-05 02:15:47.97	209.50	7.36	-53.0	-65.5	3.8	8.47e-01	0	43	104	2701131776	77	15245
2026-01-05 02:15:51.13	209.45	7.11	-53.0	-65.5	3.8	8.45e-01	0	43	104	2701131776	77	15248
2026-01-05 02:15:54.00	209.41	6.89	-53.0	-65.4	3.8	8.48e-01	0	43	104	2701131776	77	15192
2026-01-05 02:15:57.15	209.36	6.65	-53.0	-65.5	3.8	8.47e-01	0	43	104	2701131776	77	15239
2026-01-05 02:16:00.02	209.31	6.43	-53.0	-65.4	3.8	8.47e-01	0	43	104	2701131776	77	15212
2026-01-05 02:16:03.18	209.26	6.19	-53.0	-65.4	3.8	8.47e-01	0	43	104	2701131776	77	15221
2026-01-05 02:16:06.05	209.22	5.98	-53.0	-65.5	3.8	8.48e-01	0	43	104	2701131776	77	15247
2026-01-05 02:16:09.20	209.17	5.75	-53.0	-65.4	3.8	8.47e-01	0	43	104	2701131776	77	15200
2026-01-05 02:16:12.07	209.13	5.53	-53.0	-65.5	3.8	8.46e-01	0	43	104	2701131776	77	15255
2026-01-05 02:16:15.23	209.09	5.31	-53.0	-65.5	3.8	8.47e-01	0	43	104	2701131776	77	15232
2026-01-05 02:16:18.09	209.04	5.10	-53.0	-65.4	3.8	8.47e-01	0	43	104	2701131776	77	15176

#Closed at: 2026-01-05 02:16:21
#Recorded file [2701 MB]: D:/Data/31040_260105_050328.dat