passes_logs/2026/01/05/T1/T1__20260105_091319_SUOMI_NPP_rec.log

#Pass ID: 20260105_091319_SUOMI NPP
#Satellite: SUOMI NPP
#Configuration: NPP
#almurnet v.1.7.20251203
#Start time: 2026-01-05 09:13:19

#Version: 2.0.20230620
#Station: T1
#Location: 37.570604 lon 55.790049 lat
#TLE: 1 37849U 11061A   26003.96724563  .00000164  00000+0  98899-4 0  9990
#TLE: 2 37849  98.7800 306.1116 0002573  82.3190 277.8279 14.19522066735141

#Time	Az	El	Level	Level2	SNR	BER	BlckErr	Temp	State	Recorded	gain1	gain2
2026-01-05 09:13:19.54	135.95	5.01	-50.1	-65.4	3.8	1.49e+00	0	38	0	0	72	20148
2026-01-05 09:13:22.55	135.83	5.22	-50.0	-65.3	3.8	1.49e+00	0	38	104	0	72	20021
2026-01-05 09:13:25.56	135.70	5.43	-50.0	-65.2	3.8	1.49e+00	0	38	104	0	72	19764
2026-01-05 09:13:28.58	135.58	5.64	-50.0	-64.9	3.8	1.49e+00	0	38	104	0	72	19094
2026-01-05 09:13:31.59	135.45	5.86	-50.0	-64.4	3.8	1.49e+00	0	38	104	0	72	18039
2026-01-05 09:13:34.60	135.32	6.07	-50.0	-64.1	3.8	1.49e+00	0	38	104	0	71	18406
2026-01-05 09:13:37.61	135.19	6.29	-50.0	-64.2	3.8	1.49e+00	0	39	104	0	71	18725
2026-01-05 09:13:40.62	135.06	6.51	-50.0	-64.8	3.8	1.49e+00	0	39	104	0	71	19901
2026-01-05 09:13:43.63	134.93	6.73	-50.1	-65.3	3.8	1.49e+00	0	39	104	0	71	21246
2026-01-05 09:13:46.65	134.79	6.96	-50.0	-64.8	3.8	1.49e+00	0	39	104	0	71	20050
2026-01-05 09:13:49.66	134.65	7.18	-49.8	-61.8	4.2	1.47e+00	0	39	0	0	71	14134
2026-01-05 09:13:52.67	134.51	7.41	-49.5	-58.8	5.6	5.68e-01	0	39	0	4194304	71	9987
2026-01-05 09:13:55.68	134.36	7.63	-49.0	-56.4	7.5	1.32e-01	0	39	0	9437184	70	8043
2026-01-05 09:13:58.69	134.22	7.86	-48.6	-55.3	8.6	4.06e-02	0	39	0	15728640	69	7517
2026-01-05 09:14:01.70	134.07	8.10	-48.0	-53.6	10.4	7.74e-03	0	39	0	20971520	68	6558
2026-01-05 09:14:04.71	133.92	8.33	-46.5	-50.4	13.5	1.60e-05	0	40	0	27262976	64	5659
2026-01-05 09:14:07.73	133.76	8.57	-46.4	-50.2	13.7	8.30e-06	0	40	0	32505856	64	5567
2026-01-05 09:14:10.74	133.61	8.80	-48.1	-53.8	10.1	1.58e-03	0	40	0	37748736	66	7474
2026-01-05 09:14:13.75	133.45	9.04	-49.7	-60.7	4.5	5.79e-01	0	40	0	44040192	70	13183
2026-01-05 09:14:16.84	133.28	9.29	-50.1	-64.6	3.8	2.04e-01	0	40	104	48234496	70	20732
2026-01-05 09:14:19.99	133.11	9.55	-48.4	-54.4	9.6	1.82e-02	0	40	0	51380224	68	7154
2026-01-05 09:14:22.86	132.95	9.78	-46.0	-50.1	13.7	4.95e-05	0	40	0	57671680	64	5466
2026-01-05 09:14:26.01	132.77	10.04	-45.8	-49.1	15.0	0.00e+00	0	40	0	62914560	62	5476
2026-01-05 09:14:28.88	132.61	10.28	-47.0	-51.4	12.5	1.67e-05	0	40	0	68157440	64	6419
2026-01-05 09:14:32.09	132.42	10.55	-47.8	-53.6	10.4	2.46e-03	0	40	0	74448896	66	7312
2026-01-05 09:14:35.43	132.22	10.84	-45.7	-49.1	15.0	1.50e-06	0	40	0	80740352	63	5167
2026-01-05 09:14:38.15	132.05	11.07	-44.3	-46.9	17.1	0.00e+00	0	40	0	85983232	60	4813
2026-01-05 09:14:41.57	131.84	11.37	-44.7	-47.6	16.5	0.00e+00	0	40	0	92274688	60	5204
2026-01-05 09:14:44.29	131.67	11.60	-45.9	-49.5	14.8	0.00e+00	0	40	0	97517568	62	5745
2026-01-05 09:14:47.59	131.45	11.90	-45.2	-48.3	15.9	0.00e+00	0	40	0	103809024	62	5018
2026-01-05 09:14:50.31	131.27	12.14	-44.4	-47.1	17.1	0.00e+00	0	40	0	109051904	60	4889
2026-01-05 09:14:53.60	131.05	12.44	-44.5	-47.2	16.8	0.00e+00	0	40	0	114294784	59	5278
2026-01-05 09:14:56.65	130.84	12.71	-45.9	-49.4	14.9	0.00e+00	0	40	0	120586240	62	5712
2026-01-05 09:15:00.01	130.61	13.02	-45.2	-48.2	16.0	0.00e+00	0	40	0	126877696	62	4954
2026-01-05 09:15:02.73	130.42	13.27	-44.0	-46.6	17.6	0.00e+00	0	40	0	132120576	60	4600
2026-01-05 09:15:06.09	130.17	13.59	-44.2	-46.8	17.3	0.00e+00	0	40	0	138412032	59	5020
2026-01-05 09:15:09.11	129.95	13.88	-45.2	-48.4	15.9	0.00e+00	0	40	0	143654912	61	5385
2026-01-05 09:15:12.90	129.66	14.24	-44.3	-47.0	17.2	0.00e+00	0	40	0	150994944	60	4852
2026-01-05 09:15:15.67	129.44	14.51	-44.2	-46.9	17.3	0.00e+00	0	40	0	156237824	60	4812
2026-01-05 09:15:19.40	129.15	14.88	-44.9	-48.0	16.3	0.00e+00	0	40	0	163577856	60	5451
2026-01-05 09:15:22.14	128.93	15.15	-44.8	-47.7	16.5	0.00e+00	0	40	0	167772160	61	4963
2026-01-05 09:15:26.23	128.59	15.56	-44.4	-47.2	17.1	0.00e+00	0	40	0	176160768	60	4960
2026-01-05 09:15:28.97	128.35	15.84	-44.6	-47.4	16.9	0.00e+00	0	40	0	181403648	60	5072
2026-01-05 09:15:32.87	128.01	16.24	-44.4	-47.0	17.2	0.00e+00	0	40	0	188743680	60	4868
2026-01-05 09:15:35.64	127.77	16.53	-44.4	-47.2	17.2	0.00e+00	0	40	0	193986560	60	4930
2026-01-05 09:15:39.73	127.39	16.96	-45.2	-48.2	16.1	0.00e+00	0	41	0	201326592	60	5553
2026-01-05 09:15:42.47	127.14	17.25	-44.7	-47.4	16.9	0.00e+00	0	41	0	206569472	61	4786
2026-01-05 09:15:46.45	126.75	17.68	-44.5	-47.2	17.1	0.00e+00	0	40	0	213909504	60	4981
2026-01-05 09:15:49.17	126.49	17.98	-44.8	-47.6	16.7	0.00e+00	0	40	0	219152384	60	5217
2026-01-05 09:15:53.28	126.07	18.43	-44.2	-46.8	17.6	0.00e+00	0	40	0	226492416	60	4712
2026-01-05 09:15:56.02	125.79	18.74	-44.8	-47.7	16.6	0.00e+00	0	40	0	231735296	60	5276
2026-01-05 09:15:59.94	125.37	19.19	-44.6	-47.3	17.0	0.00e+00	0	41	0	239075328	60	5039
2026-01-05 09:16:02.70	125.07	19.50	-44.4	-47.2	17.1	0.00e+00	0	41	0	244318208	60	4977
2026-01-05 09:16:06.45	124.65	19.94	-44.7	-47.7	16.7	0.00e+00	0	41	0	251658240	60	5223
2026-01-05 09:16:09.18	124.34	20.26	-44.1	-46.7	17.6	0.00e+00	0	41	0	256901120	60	4686
2026-01-05 09:16:13.05	123.89	20.72	-44.5	-47.3	17.1	0.00e+00	0	41	0	264241152	60	4987
2026-01-05 09:16:16.11	123.52	21.09	-44.7	-47.5	16.9	0.00e+00	0	41	0	269484032	60	5106
2026-01-05 09:16:19.85	123.05	21.55	-45.1	-48.1	16.3	0.00e+00	0	40	0	276824064	60	5513
2026-01-05 09:16:22.64	122.70	21.89	-45.6	-48.7	15.7	0.00e+00	0	41	0	282066944	61	5565
2026-01-05 09:16:26.17	122.24	22.33	-44.9	-47.7	16.7	0.00e+00	0	41	0	288358400	61	4967
2026-01-05 09:16:28.96	121.86	22.69	-45.0	-47.9	16.4	0.00e+00	0	40	0	293601280	61	5098
2026-01-05 09:16:32.25	121.41	23.11	-45.0	-47.8	16.6	0.00e+00	0	41	0	299892736	61	5025
2026-01-05 09:16:34.97	121.03	23.46	-45.3	-48.3	16.1	0.00e+00	0	41	0	305135616	61	5339
2026-01-05 09:16:38.53	120.51	23.92	-45.7	-48.9	15.6	0.00e+00	0	41	0	311427072	62	5358
2026-01-05 09:16:41.26	120.10	24.28	-45.1	-48.0	16.5	0.00e+00	0	41	0	316669952	61	5104
2026-01-05 09:16:44.55	119.60	24.72	-45.2	-48.3	16.2	0.00e+00	0	40	0	322961408	61	5281
2026-01-05 09:16:47.29	119.17	25.09	-44.7	-47.4	16.9	0.00e+00	0	41	0	328204288	61	4802
2026-01-05 09:16:50.58	118.64	25.54	-45.2	-48.3	16.2	0.00e+00	0	41	0	334495744	61	5292
2026-01-05 09:16:53.30	118.19	25.92	-45.6	-48.7	15.7	0.00e+00	0	41	0	339738624	61	5567
2026-01-05 09:16:56.61	117.63	26.38	-44.9	-47.7	16.7	0.00e+00	0	41	0	344981504	61	4962
2026-01-05 09:16:59.70	117.09	26.81	-45.3	-48.2	16.3	0.00e+00	0	41	0	351272960	61	5243
2026-01-05 09:17:02.56	116.58	27.21	-45.3	-48.2	16.2	0.00e+00	0	41	0	356515840	61	5254
2026-01-05 09:17:05.71	116.00	27.66	-45.7	-48.8	15.7	0.00e+00	0	41	0	362807296	62	5327
2026-01-05 09:17:08.58	115.46	28.08	-45.2	-48.1	16.3	0.00e+00	0	41	0	368050176	62	4924
2026-01-05 09:17:11.73	114.84	28.54	-45.6	-48.7	15.8	0.00e+00	0	41	0	374341632	62	5273
2026-01-05 09:17:14.60	114.27	28.96	-45.7	-48.9	15.6	0.00e+00	0	41	0	379584512	62	5367
2026-01-05 09:17:17.78	113.62	29.42	-46.1	-49.5	15.1	7.00e-07	0	41	0	384827392	63	5446
2026-01-05 09:17:20.64	113.01	29.85	-46.2	-49.6	14.9	0.00e+00	0	41	0	390070272	63	5499
2026-01-05 09:17:23.79	112.33	30.32	-46.9	-51.0	13.5	7.60e-06	0	41	0	396361728	64	6091
2026-01-05 09:17:26.81	111.65	30.77	-46.6	-50.3	14.2	3.00e-06	0	41	0	401604608	65	5293
2026-01-05 09:17:29.97	110.92	31.25	-47.0	-50.9	13.6	3.00e-06	0	41	0	407896064	64	6031
2026-01-05 09:17:32.83	110.25	31.69	-46.9	-50.6	14.1	7.00e-07	0	41	0	413138944	65	5481
2026-01-05 09:17:35.98	109.48	32.17	-46.8	-50.5	14.0	2.13e-05	0	41	0	419430400	65	5435
2026-01-05 09:17:38.84	108.76	32.61	-46.3	-49.9	14.6	7.00e-07	0	41	0	424673280	64	5345
2026-01-05 09:17:42.15	107.90	33.12	-47.6	-52.2	12.3	1.05e-04	0	41	0	430964736	66	6253
2026-01-05 09:17:44.89	107.18	33.54	-46.3	-49.7	14.7	0.00e+00	0	41	0	436207616	64	5279
2026-01-05 09:17:48.18	106.28	34.04	-45.1	-47.9	16.6	0.00e+00	0	41	0	442499072	62	4789
2026-01-05 09:17:51.23	105.42	34.51	-45.2	-48.0	16.5	0.00e+00	0	41	0	447741952	61	5146
2026-01-05 09:17:54.77	104.38	35.06	-46.2	-49.6	15.0	0.00e+00	0	41	0	454033408	63	5482
2026-01-05 09:17:57.48	103.57	35.48	-45.8	-48.9	15.6	0.00e+00	0	41	0	459276288	63	5086
2026-01-05 09:18:00.78	102.55	35.98	-46.0	-49.2	15.3	0.00e+00	0	41	0	465567744	63	5279
2026-01-05 09:18:03.59	101.66	36.41	-46.0	-49.4	15.2	0.00e+00	0	41	0	470810624	63	5373
2026-01-05 09:18:07.27	100.46	36.96	-46.2	-49.6	15.0	0.00e+00	0	41	0	478150656	63	5483
2026-01-05 09:18:09.99	99.54	37.37	-47.1	-51.1	13.5	6.80e-06	0	41	0	483393536	64	6134
2026-01-05 09:18:13.29	98.40	37.86	-47.2	-51.2	13.3	6.80e-06	0	41	0	489684992	65	5918
2026-01-05 09:18:16.09	97.40	38.27	-46.9	-50.8	13.8	3.00e-06	0	41	0	494927872	64	5924
2026-01-05 09:18:19.58	96.12	38.77	-46.0	-49.8	14.5	7.00e-07	0	41	0	501219328	63	5630
2026-01-05 09:18:22.30	95.10	39.16	-45.4	-48.7	15.6	0.00e+00	0	41	0	506462208	62	5253
2026-01-05 09:18:25.64	93.81	39.63	-44.8	-47.9	16.4	0.00e+00	0	41	0	512753664	61	5092
2026-01-05 09:18:28.37	92.72	40.00	-45.1	-48.5	15.9	0.00e+00	0	41	0	516947968	61	5417
2026-01-05 09:18:31.66	91.39	40.44	-44.3	-47.2	17.0	0.00e+00	0	41	0	523239424	60	4949
2026-01-05 09:18:34.72	90.11	40.83	-44.5	-47.5	16.7	0.00e+00	0	41	0	529530880	59	5439
2026-01-05 09:18:38.02	88.70	41.25	-43.6	-46.3	17.8	0.00e+00	0	41	0	535822336	59	4751
2026-01-05 09:18:40.74	87.51	41.57	-43.9	-46.9	17.3	0.00e+00	0	41	0	541065216	59	5051
2026-01-05 09:18:44.36	85.88	41.99	-44.9	-48.5	15.7	0.00e+00	0	41	0	547356672	61	5440
2026-01-05 09:18:47.09	84.63	42.29	-43.8	-46.8	17.3	0.00e+00	0	41	0	552599552	59	4995
2026-01-05 09:18:50.39	83.09	42.64	-43.5	-46.3	17.8	0.00e+00	0	41	0	558891008	58	5020
2026-01-05 09:18:53.17	81.76	42.92	-43.8	-46.6	17.6	0.00e+00	0	41	0	564133888	58	5200
2026-01-05 09:18:56.47	80.16	43.22	-44.9	-48.2	16.1	0.00e+00	0	41	0	570425344	60	5585
2026-01-05 09:18:59.19	78.82	43.46	-44.6	-47.6	16.7	0.00e+00	0	41	0	575668224	60	5200
2026-01-05 09:19:02.49	77.16	43.72	-45.1	-48.4	16.0	0.00e+00	0	41	0	581959680	60	5660
2026-01-05 09:19:05.26	75.75	43.93	-44.7	-47.8	16.5	0.00e+00	0	41	0	586153984	61	4994
2026-01-05 09:19:08.55	74.06	44.14	-45.3	-48.7	15.6	0.00e+00	0	41	0	592445440	62	5252
2026-01-05 09:19:11.28	72.63	44.30	-45.1	-48.3	16.1	0.00e+00	0	41	0	597688320	62	4998
2026-01-05 09:19:14.62	70.87	44.47	-44.9	-48.1	16.3	0.00e+00	0	41	0	603979776	60	5497
2026-01-05 09:19:17.70	69.23	44.59	-45.4	-48.9	15.5	0.00e+00	0	41	0	610271232	62	5341
2026-01-05 09:19:20.57	67.70	44.69	-46.1	-50.1	14.2	9.10e-06	0	41	0	615514112	63	5854
2026-01-05 09:19:23.91	65.90	44.77	-45.4	-49.0	15.2	0.00e+00	0	41	0	621805568	62	5449
2026-01-05 09:19:26.63	64.43	44.81	-45.4	-49.1	15.2	0.00e+00	0	41	0	627048448	61	5833
2026-01-05 09:19:29.93	62.64	44.84	-44.2	-47.2	17.1	0.00e+00	0	41	0	633339904	60	4929
2026-01-05 09:19:32.65	61.17	44.83	-45.7	-49.4	15.0	0.00e+00	0	41	0	637534208	62	5697
2026-01-05 09:19:36.01	59.35	44.80	-45.9	-49.9	14.5	4.50e-06	0	41	0	643825664	63	5693
2026-01-05 09:19:38.80	57.84	44.75	-46.0	-50.0	14.3	2.20e-06	0	41	0	649068544	63	5785
2026-01-05 09:19:42.46	55.87	44.65	-45.5	-49.1	15.3	0.00e+00	0	41	0	656408576	61	5817
2026-01-05 09:19:45.39	54.31	44.54	-45.9	-49.8	14.6	0.00e+00	0	41	0	661651456	62	5930
2026-01-05 09:19:49.16	52.32	44.37	-45.2	-48.7	15.6	0.00e+00	0	41	0	668991488	61	5557
2026-01-05 09:19:51.98	50.84	44.22	-45.4	-49.1	15.3	0.00e+00	0	41	0	674234368	62	5471
2026-01-05 09:19:55.61	48.96	43.99	-44.9	-48.3	15.9	0.00e+00	0	41	0	681574400	61	5337
2026-01-05 09:19:58.33	47.57	43.80	-44.4	-47.6	16.6	0.00e+00	0	41	0	685768704	60	5198
2026-01-05 09:20:01.62	45.92	43.54	-44.7	-47.9	16.4	0.00e+00	0	41	0	692060160	60	5400
2026-01-05 09:20:04.62	44.43	43.29	-44.5	-47.7	16.6	0.00e+00	0	41	0	698351616	60	5235
2026-01-05 09:20:07.62	42.97	43.01	-43.7	-46.4	17.8	0.00e+00	0	41	0	703594496	59	4793
2026-01-05 09:20:11.25	41.24	42.66	-44.6	-47.8	16.4	0.00e+00	0	41	0	709885952	59	5621
2026-01-05 09:20:14.11	39.90	42.36	-44.1	-47.0	17.3	0.00e+00	0	41	0	716177408	60	4840
2026-01-05 09:20:17.27	38.45	42.01	-43.9	-46.7	17.5	0.00e+00	0	41	0	721420288	58	5259
2026-01-05 09:20:20.13	37.17	41.69	-42.5	-44.9	19.1	0.00e+00	0	41	0	726663168	57	4535
2026-01-05 09:20:23.21	35.82	41.32	-41.8	-44.0	19.8	0.00e+00	0	41	0	732954624	55	4561
2026-01-05 09:20:26.51	34.40	40.91	-41.5	-43.7	20.1	0.00e+00	0	41	0	739246080	54	4656
2026-01-05 09:20:29.26	33.25	40.56	-42.6	-45.0	18.9	0.00e+00	0	41	0	744488960	55	5137
2026-01-05 09:20:32.56	31.90	40.12	-42.1	-44.5	19.4	0.00e+00	0	41	0	750780416	55	4818
2026-01-05 09:20:35.49	30.73	39.73	-42.6	-45.0	19.1	0.00e+00	0	41	0	756023296	56	4832
2026-01-05 09:20:38.50	29.57	39.31	-44.1	-46.9	17.4	0.00e+00	0	41	0	761266176	59	5048
2026-01-05 09:20:41.42	28.46	38.90	-43.8	-46.4	17.9	0.00e+00	0	41	0	766509056	58	5099
2026-01-05 09:20:44.57	27.30	38.45	-44.1	-46.8	17.5	0.00e+00	0	41	0	772800512	59	5021
2026-01-05 09:20:47.69	26.18	38.00	-44.1	-46.9	17.5	0.00e+00	0	41	0	779091968	60	4776
2026-01-05 09:20:50.75	25.12	37.54	-44.5	-47.3	17.1	0.00e+00	0	41	0	784334848	59	5332
2026-01-05 09:20:54.41	23.88	37.00	-43.3	-45.8	18.5	0.00e+00	0	41	0	791674880	58	4723
2026-01-05 09:20:57.28	22.94	36.57	-44.2	-46.9	17.5	0.00e+00	0	41	0	796917760	59	5068
2026-01-05 09:21:00.43	21.94	36.09	-45.8	-49.2	15.3	0.00e+00	0	41	0	802160640	62	5566
2026-01-05 09:21:03.29	21.05	35.66	-44.7	-47.9	16.6	0.00e+00	0	41	0	808452096	61	5058
2026-01-05 09:21:06.44	20.10	35.18	-45.9	-49.7	14.9	0.00e+00	0	41	0	813694976	62	5866
2026-01-05 09:21:09.31	19.27	34.74	-46.7	-50.9	13.5	1.50e-06	0	41	0	818937856	64	6048
2026-01-05 09:21:12.46	18.37	34.25	-45.9	-49.3	15.2	3.80e-06	0	41	0	825229312	63	5312
2026-01-05 09:21:15.33	17.58	33.81	-47.2	-51.8	12.8	6.10e-06	0	41	0	830472192	65	6287
2026-01-05 09:21:18.48	16.73	33.33	-47.3	-51.9	12.6	2.57e-04	0	41	0	836763648	66	6024
2026-01-05 09:21:21.35	15.98	32.89	-46.9	-51.1	13.4	1.06e-05	0	41	0	842006528	65	5796
2026-01-05 09:21:24.50	15.18	32.41	-46.6	-50.5	14.1	9.10e-06	0	41	0	847249408	64	5766
2026-01-05 09:21:27.37	14.48	31.97	-45.9	-49.4	15.2	0.00e+00	0	41	0	853540864	63	5359
2026-01-05 09:21:30.52	13.72	31.49	-45.3	-48.6	15.9	0.00e+00	0	41	0	858783744	62	5208
2026-01-05 09:21:33.38	13.06	31.06	-46.1	-49.9	14.6	0.00e+00	0	41	0	864026624	63	5705
2026-01-05 09:21:36.54	12.34	30.59	-46.1	-49.8	14.7	0.00e+00	0	42	0	870318080	63	5639
2026-01-05 09:21:39.40	11.72	30.16	-45.9	-49.4	15.2	0.00e+00	0	41	0	875560960	63	5365
2026-01-05 09:21:42.56	11.04	29.69	-45.2	-48.3	16.2	0.00e+00	0	41	0	881852416	62	5011
2026-01-05 09:21:45.43	10.44	29.27	-45.2	-48.4	16.2	0.00e+00	0	41	0	887095296	61	5354
2026-01-05 09:21:48.58	9.81	28.81	-45.6	-49.1	15.5	0.00e+00	0	41	0	893386752	62	5487
2026-01-05 09:21:51.45	9.24	28.39	-45.1	-48.2	16.3	0.00e+00	0	41	0	898629632	62	4934
2026-01-05 09:21:54.60	8.64	27.94	-44.1	-46.8	17.6	0.00e+00	0	41	0	903872512	60	4738
2026-01-05 09:21:57.78	8.05	27.48	-45.8	-49.2	15.4	0.00e+00	0	41	0	910163968	62	5543
2026-01-05 09:22:00.85	7.50	27.05	-46.9	-51.0	13.4	6.10e-06	0	41	0	915406848	64	6108
2026-01-05 09:22:04.01	6.94	26.60	-45.6	-48.9	15.6	0.00e+00	0	41	0	921698304	63	5067
2026-01-05 09:22:06.87	6.46	26.21	-45.0	-48.0	16.5	0.00e+00	0	41	0	926941184	61	5124
2026-01-05 09:22:10.02	5.93	25.77	-44.9	-48.0	16.5	0.00e+00	0	41	0	933232640	61	5129
2026-01-05 09:22:12.97	5.45	25.37	-45.3	-48.7	15.8	0.00e+00	0	41	0	938475520	61	5538
2026-01-05 09:22:16.11	4.96	24.95	-45.3	-48.6	15.9	0.00e+00	0	41	0	944766976	61	5484
2026-01-05 09:22:18.97	4.52	24.57	-46.1	-50.0	14.5	0.00e+00	0	41	0	950009856	63	5758
2026-01-05 09:22:22.13	4.05	24.15	-46.2	-50.4	14.2	2.20e-06	0	41	0	956301312	63	5996
2026-01-05 09:22:24.98	3.63	23.77	-45.0	-48.3	16.2	0.00e+00	0	41	0	961544192	62	4992
2026-01-05 09:22:28.12	3.18	23.37	-45.0	-48.1	16.4	0.00e+00	0	41	0	966787072	61	5164
2026-01-05 09:22:30.99	2.79	23.00	-45.2	-48.3	16.2	0.00e+00	0	41	0	972029952	61	5331
2026-01-05 09:22:34.16	2.36	22.60	-45.0	-48.3	16.2	0.00e+00	0	41	0	978321408	61	5320
2026-01-05 09:22:37.16	1.96	22.22	-45.1	-48.6	15.8	0.00e+00	0	41	0	983564288	61	5512
2026-01-05 09:22:40.55	1.53	21.80	-44.9	-47.9	16.5	0.00e+00	0	41	0	989855744	61	5095
2026-01-05 09:22:43.28	1.19	21.47	-44.5	-47.4	17.0	0.00e+00	0	41	0	995098624	60	5081
2026-01-05 09:22:46.57	0.78	21.07	-45.0	-48.3	16.2	0.00e+00	0	41	0	1001390080	60	5595
2026-01-05 09:22:49.37	0.45	20.73	-46.4	-50.5	14.0	3.80e-06	0	41	0	1006632960	63	6085
2026-01-05 09:22:52.73	0.06	20.34	-46.7	-51.2	13.3	1.90e-05	0	41	0	1012924416	64	6212
2026-01-05 09:22:55.45	359.75	20.02	-46.3	-50.5	14.1	3.00e-06	0	41	0	1018167296	64	5724
2026-01-05 09:22:58.74	359.39	19.64	-45.7	-49.4	15.1	0.00e+00	0	41	0	1024458752	63	5345
2026-01-05 09:23:01.55	359.08	19.31	-45.6	-49.1	15.4	0.00e+00	0	41	0	1029701632	62	5467
2026-01-05 09:23:04.84	358.73	18.94	-45.4	-48.8	15.6	0.00e+00	0	41	0	1035993088	62	5312
2026-01-05 09:23:07.56	358.45	18.64	-45.2	-48.8	15.7	0.00e+00	0	41	0	1041235968	62	5315
2026-01-05 09:23:10.85	358.12	18.27	-44.9	-48.6	15.9	0.00e+00	0	41	0	1047527424	61	5485
2026-01-05 09:23:13.57	357.85	17.97	-45.1	-48.6	15.9	0.00e+00	0	41	0	1052770304	61	5518
2026-01-05 09:23:17.23	357.50	17.58	-45.1	-48.7	15.5	0.00e+00	0	42	0	1059061760	61	5578
2026-01-05 09:23:19.97	357.24	17.28	-45.1	-49.3	15.2	0.00e+00	0	41	0	1064304640	61	5927
2026-01-05 09:23:23.62	356.90	16.90	-45.2	-49.1	15.3	0.00e+00	0	41	0	1071644672	61	5823
2026-01-05 09:23:26.46	356.65	16.60	-45.7	-49.5	15.0	0.00e+00	0	41	0	1076887552	62	5731
2026-01-05 09:23:29.61	356.37	16.27	-45.5	-48.8	15.6	0.00e+00	0	41	0	1082130432	62	5282
2026-01-05 09:23:32.47	356.13	15.98	-44.9	-48.1	16.2	0.00e+00	0	41	0	1087373312	61	5186
2026-01-05 09:23:35.62	355.86	15.66	-44.7	-47.9	16.4	0.00e+00	0	42	0	1093664768	61	5076
2026-01-05 09:23:38.48	355.62	15.37	-44.6	-47.7	16.6	0.00e+00	0	41	0	1098907648	61	4973
2026-01-05 09:23:41.72	355.36	15.05	-45.1	-48.3	16.1	0.00e+00	0	41	0	1105199104	61	5316
2026-01-05 09:23:45.10	355.10	14.72	-45.3	-48.7	15.6	0.00e+00	0	41	0	1111490560	61	5585
2026-01-05 09:23:47.82	354.89	14.46	-45.7	-49.3	15.1	0.00e+00	0	41	0	1116733440	61	5936
2026-01-05 09:23:51.12	354.64	14.14	-45.9	-49.5	14.9	0.00e+00	0	41	0	1123024896	62	5732
2026-01-05 09:23:54.09	354.42	13.86	-46.1	-49.9	14.5	0.00e+00	0	41	0	1128267776	62	6015
2026-01-05 09:23:57.10	354.20	13.57	-45.7	-49.4	14.9	0.00e+00	0	41	0	1133510656	62	5702
2026-01-05 09:24:00.10	353.98	13.29	-45.4	-49.6	14.8	1.50e-06	0	41	0	1139802112	62	5811
2026-01-05 09:24:03.17	353.77	13.01	-45.2	-50.2	14.2	7.00e-07	0	41	0	1145044992	62	6265
2026-01-05 09:24:06.43	353.55	12.71	-45.3	-50.1	14.3	1.50e-06	0	41	0	1151336448	62	6166
2026-01-05 09:24:09.65	353.33	12.42	-45.9	-50.7	13.7	6.10e-06	0	41	0	1157627904	62	6640
2026-01-05 09:24:12.99	353.11	12.12	-46.0	-50.5	14.0	1.22e-05	0	41	0	1163919360	62	6443
2026-01-05 09:24:15.71	352.94	11.88	-46.1	-50.7	13.7	6.80e-06	0	42	0	1169162240	63	6256
2026-01-05 09:24:19.05	352.73	11.59	-45.8	-50.5	13.9	4.50e-06	0	41	0	1175453696	63	6118
2026-01-05 09:24:21.84	352.55	11.35	-45.2	-50.0	14.4	2.20e-06	0	41	0	1180696576	62	6064
2026-01-05 09:24:25.26	352.35	11.05	-44.6	-49.5	14.8	0.00e+00	0	42	0	1186988032	61	6102
2026-01-05 09:24:28.25	352.17	10.80	-44.4	-49.4	14.9	0.00e+00	0	41	0	1192230912	60	6353
2026-01-05 09:24:31.25	351.99	10.55	-44.3	-49.2	15.1	0.00e+00	0	42	0	1197473792	60	6220
2026-01-05 09:24:34.34	351.82	10.29	-44.7	-49.4	14.9	0.00e+00	0	42	0	1203765248	60	6398
2026-01-05 09:24:37.29	351.65	10.04	-45.4	-49.9	14.4	7.00e-07	0	41	0	1209008128	61	6379
2026-01-05 09:24:40.68	351.46	9.77	-45.7	-50.1	14.2	2.20e-06	0	42	0	1215299584	62	6170
2026-01-05 09:24:43.40	351.32	9.54	-46.1	-50.6	13.7	6.80e-06	0	42	0	1220542464	62	6569
2026-01-05 09:24:46.74	351.14	9.28	-46.4	-50.9	13.4	1.44e-05	0	41	0	1226833920	63	6358
2026-01-05 09:24:49.56	350.99	9.05	-46.3	-51.0	13.2	2.13e-05	0	42	0	1232076800	63	6464
2026-01-05 09:24:52.72	350.83	8.80	-50.0	-65.9	3.8	1.49e+00	0	42	104	1235222528	70	23963
2026-01-05 09:24:55.59	350.68	8.58	-49.4	-66.0	3.8	1.49e+00	0	42	104	1235222528	70	24374
2026-01-05 09:24:58.74	350.53	8.33	-50.3	-66.1	3.8	1.49e+00	0	42	104	1235222528	72	21920
2026-01-05 09:25:01.60	350.39	8.11	-50.8	-66.1	3.8	1.49e+00	0	42	104	1235222528	72	21886
2026-01-05 09:25:04.76	350.24	7.87	-50.8	-66.1	3.8	1.49e+00	0	41	104	1235222528	72	22003
2026-01-05 09:25:07.63	350.10	7.65	-50.6	-66.2	3.8	1.49e+00	0	42	104	1235222528	72	22165
2026-01-05 09:25:10.78	349.96	7.41	-50.9	-66.2	3.8	1.49e+00	0	42	104	1235222528	72	22143
2026-01-05 09:25:13.65	349.83	7.20	-51.0	-66.2	3.8	1.49e+00	0	41	104	1235222528	72	22124
2026-01-05 09:25:16.81	349.68	6.96	-50.8	-66.2	3.8	1.49e+00	0	42	104	1235222528	72	22055
2026-01-05 09:25:19.68	349.56	6.75	-50.7	-66.1	3.8	1.49e+00	0	42	104	1235222528	72	21943
2026-01-05 09:25:22.83	349.42	6.52	-50.7	-66.1	3.8	1.49e+00	0	42	104	1235222528	72	21958
2026-01-05 09:25:25.70	349.30	6.32	-50.7	-66.1	3.8	1.49e+00	0	42	104	1235222528	72	21859
2026-01-05 09:25:28.86	349.17	6.09	-50.6	-66.1	3.8	1.49e+00	0	42	104	1235222528	72	21920
2026-01-05 09:25:31.73	349.05	5.89	-50.7	-66.1	3.8	1.49e+00	0	42	104	1235222528	72	21864
2026-01-05 09:25:34.88	348.92	5.66	-50.6	-66.1	3.8	1.49e+00	0	42	104	1235222528	72	21871
2026-01-05 09:25:37.75	348.81	5.46	-50.6	-66.1	3.8	1.49e+00	0	42	104	1235222528	72	21884
2026-01-05 09:25:40.91	348.68	5.24	-50.6	-66.1	3.8	1.49e+00	0	42	104	1235222528	72	21778
2026-01-05 09:25:43.78	348.57	5.04	-50.6	-66.1	3.8	1.49e+00	0	42	104	1235222528	72	21810

#Closed at: 2026-01-05 09:25:45
#Recorded file [1235 MB]: D:/Data/31040_260105_121319.dat