passes_logs/2026/01/05/T1/T1__20260105_070756_NOAA_21_JPSS-2_rec.log

#Pass ID: 20260105_070756_NOAA 21 (JPSS-2)
#Satellite: NOAA 21 (JPSS-2)
#Configuration: NOAA 21
#almurnet v.1.7.20251203
#Start time: 2026-01-05 07:07:57

#Version: 2.0.20230620
#Station: T1
#Location: 37.570604 lon 55.790049 lat
#TLE: 1 54234U 22150A   26004.22845673  .00000174  00000+0  10347-3 0  9996
#TLE: 2 54234  98.7489 305.2591 0001115 345.0884  15.0259 14.19531906163281

#Time	Az	El	Level	Level2	SNR	BER	BlckErr	Temp	State	Recorded	gain1	gain2
2026-01-05 07:07:57.00	67.57	5.03	-50.0	-63.2	3.8	1.49e+00	0	41	0	0	72	15692
2026-01-05 07:07:59.01	67.32	5.11	-50.0	-63.2	3.8	1.49e+00	0	41	104	0	72	15664
2026-01-05 07:08:01.02	67.06	5.19	-50.0	-63.2	3.8	1.49e+00	0	41	104	0	72	15647
2026-01-05 07:08:03.03	66.80	5.26	-50.0	-63.2	3.8	1.49e+00	0	41	104	0	72	15602
2026-01-05 07:08:05.03	66.54	5.34	-50.0	-63.2	3.8	1.49e+00	0	41	104	0	72	15678
2026-01-05 07:08:07.04	66.27	5.42	-50.0	-63.2	3.8	1.49e+00	0	41	104	0	72	15631
2026-01-05 07:08:09.05	66.01	5.49	-50.0	-63.2	3.8	1.49e+00	0	41	104	0	72	15657
2026-01-05 07:08:11.06	65.74	5.57	-50.0	-63.2	3.8	1.49e+00	0	41	104	0	72	15649
2026-01-05 07:08:13.07	65.48	5.64	-50.0	-63.2	3.8	1.49e+00	0	41	104	0	72	15614
2026-01-05 07:08:15.08	65.21	5.72	-50.0	-63.2	3.8	1.49e+00	0	42	104	0	72	15683
2026-01-05 07:08:17.09	64.94	5.79	-50.0	-63.2	3.8	1.49e+00	0	41	104	0	72	15658
2026-01-05 07:08:19.10	64.67	5.86	-50.0	-63.2	3.8	1.49e+00	0	42	104	0	72	15605
2026-01-05 07:08:21.11	64.39	5.94	-50.0	-63.2	3.8	1.49e+00	0	42	104	0	72	15708
2026-01-05 07:08:23.11	64.12	6.01	-50.0	-63.2	3.8	1.49e+00	0	42	104	0	72	15666
2026-01-05 07:08:25.12	63.85	6.08	-50.0	-63.2	3.8	1.49e+00	0	42	104	0	72	15610
2026-01-05 07:08:27.13	63.57	6.15	-50.0	-63.2	3.8	1.49e+00	0	42	104	0	72	15654
2026-01-05 07:08:29.14	63.29	6.23	-50.0	-63.2	3.8	1.49e+00	0	42	104	0	72	15636
2026-01-05 07:08:31.15	63.01	6.30	-50.0	-63.1	3.8	1.49e+00	0	42	104	0	72	15562
2026-01-05 07:08:33.16	62.73	6.37	-50.0	-63.1	3.8	1.49e+00	0	42	104	0	72	15558
2026-01-05 07:08:35.17	62.45	6.44	-50.0	-63.1	3.8	1.49e+00	0	42	104	0	72	15566
2026-01-05 07:08:37.18	62.17	6.51	-50.0	-63.2	3.8	1.49e+00	0	42	104	0	72	15582
2026-01-05 07:08:39.19	61.88	6.58	-50.0	-63.1	3.8	1.49e+00	0	42	104	0	72	15462
2026-01-05 07:08:41.19	61.60	6.65	-50.0	-63.1	3.8	1.49e+00	0	42	104	0	72	15472
2026-01-05 07:08:43.20	61.31	6.71	-50.0	-63.1	3.8	1.49e+00	0	42	104	0	72	15499
2026-01-05 07:08:45.21	61.02	6.78	-50.0	-63.1	3.8	1.49e+00	0	42	104	0	72	15517
2026-01-05 07:08:47.22	60.73	6.85	-50.0	-63.2	3.8	1.49e+00	0	42	104	0	72	15651
2026-01-05 07:08:49.23	60.44	6.92	-50.0	-63.2	3.8	1.49e+00	0	42	104	0	72	15611
2026-01-05 07:08:51.24	60.14	6.98	-50.0	-63.1	3.8	1.49e+00	0	42	104	0	72	15526
2026-01-05 07:08:53.24	59.85	7.05	-50.0	-63.2	3.8	1.49e+00	0	42	104	0	72	15606
2026-01-05 07:08:55.25	59.55	7.11	-50.0	-63.2	3.8	1.49e+00	0	42	104	0	72	15591
2026-01-05 07:08:57.26	59.26	7.18	-50.0	-63.2	3.8	1.49e+00	0	43	104	0	72	15583
2026-01-05 07:08:59.27	58.96	7.24	-50.0	-63.1	3.8	1.49e+00	0	42	104	0	72	15527
2026-01-05 07:09:01.28	58.66	7.31	-50.0	-63.1	3.8	1.49e+00	0	43	104	0	72	15475
2026-01-05 07:09:03.29	58.36	7.37	-50.0	-63.1	3.8	1.49e+00	0	43	104	0	72	15427
2026-01-05 07:09:05.30	58.05	7.43	-50.0	-63.1	3.8	1.49e+00	0	43	104	0	72	15487
2026-01-05 07:09:07.31	57.75	7.49	-50.0	-63.1	3.8	1.49e+00	0	43	104	0	72	15542
2026-01-05 07:09:09.32	57.44	7.56	-50.0	-63.2	3.8	1.49e+00	0	43	104	0	72	15584
2026-01-05 07:09:11.32	57.14	7.62	-50.0	-63.1	3.8	1.49e+00	0	43	104	0	72	15550
2026-01-05 07:09:13.33	56.83	7.68	-50.0	-63.1	3.8	1.49e+00	0	43	104	0	72	15478
2026-01-05 07:09:15.34	56.52	7.74	-50.0	-63.1	3.8	1.49e+00	0	43	104	0	72	15452
2026-01-05 07:09:17.35	56.21	7.79	-50.0	-63.0	3.8	1.49e+00	0	43	104	0	72	15320
2026-01-05 07:09:19.36	55.90	7.85	-50.0	-63.0	3.8	1.49e+00	0	43	104	0	72	15281
2026-01-05 07:09:21.37	55.59	7.91	-50.0	-62.9	3.8	1.49e+00	0	43	104	0	72	15219
2026-01-05 07:09:23.38	55.27	7.97	-50.0	-62.9	3.8	1.49e+00	0	43	104	0	71	16092
2026-01-05 07:09:25.38	54.96	8.02	-50.0	-63.0	3.8	1.49e+00	0	43	104	0	71	16146
2026-01-05 07:09:27.39	54.64	8.08	-50.0	-63.1	3.8	1.49e+00	0	43	104	0	71	16332
2026-01-05 07:09:29.40	54.33	8.13	-50.0	-63.2	3.8	1.49e+00	0	43	104	0	71	16546
2026-01-05 07:09:31.41	54.01	8.19	-50.0	-63.2	3.8	1.49e+00	0	43	104	0	71	16548
2026-01-05 07:09:33.42	53.69	8.24	-50.0	-63.0	3.8	1.49e+00	0	43	104	0	71	16294
2026-01-05 07:09:35.42	53.37	8.29	-50.0	-62.8	3.8	1.49e+00	0	43	104	0	71	15844
2026-01-05 07:09:37.43	53.04	8.34	-50.0	-62.8	3.8	1.49e+00	0	43	104	0	71	15905
2026-01-05 07:09:39.44	52.72	8.39	-50.0	-63.0	3.8	1.49e+00	0	43	104	0	71	16143
2026-01-05 07:09:41.45	52.40	8.44	-50.0	-62.9	3.8	1.49e+00	0	43	104	0	71	16021
2026-01-05 07:09:43.46	52.07	8.49	-50.0	-62.3	3.8	1.49e+00	0	43	104	0	71	15002
2026-01-05 07:09:45.47	51.74	8.54	-49.9	-62.1	3.8	1.49e+00	0	43	104	0	71	14577
2026-01-05 07:09:47.48	51.42	8.59	-50.0	-62.7	3.8	1.49e+00	0	43	104	0	71	15605
2026-01-05 07:09:49.48	51.09	8.64	-50.0	-63.1	3.8	1.49e+00	0	43	104	0	71	16376
2026-01-05 07:09:51.49	50.76	8.68	-50.0	-62.2	3.8	1.49e+00	0	43	104	0	71	14863
2026-01-05 07:09:53.50	50.43	8.73	-49.8	-60.4	4.0	1.48e+00	0	43	104	0	71	12022
2026-01-05 07:09:55.51	50.10	8.77	-50.0	-62.4	3.8	1.49e+00	0	43	104	0	71	15104
2026-01-05 07:09:57.52	49.76	8.82	-48.5	-54.5	7.4	3.51e-01	0	43	0	0	69	6808
2026-01-05 07:09:59.52	49.43	8.86	-45.2	-48.1	13.8	1.67e-05	0	43	0	0	62	4877
2026-01-05 07:10:01.53	49.09	8.90	-43.6	-45.9	15.8	0.00e+00	0	43	0	0	59	4531
2026-01-05 07:10:03.54	48.76	8.94	-44.4	-46.9	14.9	0.00e+00	0	43	0	0	59	5096
2026-01-05 07:10:05.55	48.42	8.98	-47.0	-51.2	10.5	1.63e-03	0	43	0	0	64	6234
2026-01-05 07:10:07.56	48.08	9.02	-48.9	-55.6	6.4	3.80e-01	0	43	0	0	69	7720
2026-01-05 07:10:09.57	47.74	9.06	-49.3	-57.3	5.2	4.03e-01	0	43	0	0	69	9425
2026-01-05 07:10:11.57	47.41	9.10	-49.3	-57.1	5.4	3.72e-02	0	43	0	0	69	9276
2026-01-05 07:10:13.57	47.07	9.14	-45.8	-49.0	12.9	1.50e-04	0	43	0	0	63	5141
2026-01-05 07:10:15.58	46.73	9.17	-44.2	-46.7	15.3	0.00e+00	0	43	0	0	60	4671
2026-01-05 07:10:17.86	46.34	9.21	-44.3	-46.9	15.0	0.00e+00	0	43	0	0	60	4780
2026-01-05 07:10:19.90	45.99	9.25	-44.3	-46.8	15.1	7.00e-07	0	43	0	0	60	4744
2026-01-05 07:10:22.26	45.58	9.28	-43.8	-46.1	15.8	0.00e+00	0	43	0	0	59	4630
2026-01-05 07:10:24.41	45.22	9.32	-43.1	-45.3	16.6	0.00e+00	0	43	0	0	58	4444
2026-01-05 07:10:26.59	44.84	9.35	-43.3	-45.5	16.3	0.00e+00	0	43	0	0	58	4572
2026-01-05 07:10:28.77	44.46	9.38	-43.2	-45.5	16.3	0.00e+00	0	43	0	0	58	4554
2026-01-05 07:10:30.95	44.09	9.41	-43.3	-45.5	16.4	0.00e+00	0	43	0	0	58	4547
2026-01-05 07:10:33.13	43.71	9.44	-43.1	-45.3	16.5	0.00e+00	0	43	0	0	58	4457
2026-01-05 07:10:35.30	43.33	9.47	-43.2	-45.4	16.4	0.00e+00	0	43	0	0	58	4526
2026-01-05 07:10:37.62	42.93	9.50	-43.0	-45.2	16.6	0.00e+00	0	43	0	0	58	4429
2026-01-05 07:10:40.18	42.48	9.53	-43.1	-45.3	16.6	0.00e+00	0	43	0	0	58	4447
2026-01-05 07:10:42.33	42.11	9.56	-43.0	-45.2	16.6	0.00e+00	0	43	0	0	58	4417
2026-01-05 07:10:44.41	41.74	9.58	-43.0	-45.2	16.6	0.00e+00	0	43	0	0	58	4409
2026-01-05 07:10:46.42	41.39	9.60	-43.2	-45.4	16.4	0.00e+00	0	43	0	0	58	4508
2026-01-05 07:10:48.43	41.04	9.62	-43.1	-45.3	16.5	0.00e+00	0	43	0	0	58	4472
2026-01-05 07:10:50.44	40.69	9.64	-43.0	-45.1	16.7	0.00e+00	0	43	0	0	58	4389
2026-01-05 07:10:52.44	40.34	9.66	-43.0	-45.2	16.6	0.00e+00	0	43	0	0	57	4664
2026-01-05 07:10:54.45	39.98	9.68	-42.9	-45.0	16.8	0.00e+00	0	43	0	0	57	4575
2026-01-05 07:10:56.45	39.63	9.69	-42.8	-45.0	16.8	0.00e+00	0	43	0	0	57	4549
2026-01-05 07:10:58.49	39.27	9.71	-42.7	-44.8	16.8	0.00e+00	0	43	0	0	57	4482
2026-01-05 07:11:00.58	38.90	9.72	-42.7	-44.9	16.7	0.00e+00	0	44	0	0	57	4530
2026-01-05 07:11:02.58	38.55	9.73	-42.7	-44.9	16.7	0.00e+00	0	43	0	0	57	4535
2026-01-05 07:11:04.59	38.19	9.75	-42.5	-44.7	16.9	0.00e+00	0	43	0	0	57	4411
2026-01-05 07:11:06.57	37.84	9.76	-42.3	-44.5	17.0	0.00e+00	0	43	0	0	56	4577
2026-01-05 07:11:08.57	37.49	9.77	-42.4	-44.6	17.1	0.00e+00	0	43	0	0	56	4619
2026-01-05 07:11:10.58	37.13	9.77	-42.6	-44.8	17.0	0.00e+00	0	43	0	0	56	4712
2026-01-05 07:11:12.59	36.77	9.78	-42.7	-44.8	17.0	0.00e+00	0	43	0	0	56	4736
2026-01-05 07:11:14.66	36.41	9.79	-42.7	-44.8	16.9	0.00e+00	0	43	0	0	56	4755
2026-01-05 07:11:16.88	36.01	9.79	-42.6	-44.8	16.9	0.00e+00	0	43	0	0	56	4740
2026-01-05 07:11:18.95	35.65	9.80	-42.6	-44.8	16.8	0.00e+00	0	43	0	0	56	4747
2026-01-05 07:11:20.96	35.29	9.80	-42.6	-44.8	17.0	0.00e+00	0	43	0	0	56	4715
2026-01-05 07:11:22.96	34.93	9.80	-42.7	-44.8	16.9	0.00e+00	0	43	0	0	56	4752
2026-01-05 07:11:24.97	34.58	9.80	-42.7	-44.9	16.9	0.00e+00	0	43	0	0	56	4788
2026-01-05 07:11:26.97	34.22	9.80	-42.6	-44.7	17.1	0.00e+00	0	43	0	0	56	4667
2026-01-05 07:11:28.98	33.87	9.80	-42.7	-44.8	17.0	0.00e+00	0	43	0	0	56	4718
2026-01-05 07:11:31.18	33.47	9.80	-42.7	-44.9	16.8	0.00e+00	0	43	0	0	56	4798
2026-01-05 07:11:33.21	33.11	9.80	-42.9	-45.2	16.5	0.00e+00	0	43	0	0	56	4960
2026-01-05 07:11:35.22	32.76	9.79	-43.0	-45.3	16.5	0.00e+00	0	43	0	0	56	4993
2026-01-05 07:11:37.22	32.40	9.79	-43.0	-45.2	16.6	0.00e+00	0	44	0	0	56	4982
2026-01-05 07:11:39.23	32.05	9.78	-43.1	-45.3	16.4	0.00e+00	0	43	0	0	56	5038
2026-01-05 07:11:41.23	31.69	9.77	-43.0	-45.2	16.6	0.00e+00	0	43	0	0	56	4949
2026-01-05 07:11:43.35	31.32	9.76	-43.1	-45.3	16.5	0.00e+00	0	43	0	0	56	5006
2026-01-05 07:11:45.36	30.96	9.75	-43.1	-45.4	16.5	0.00e+00	0	43	0	0	56	5043
2026-01-05 07:11:47.78	30.53	9.74	-43.2	-45.4	16.4	0.00e+00	0	44	0	0	56	5076
2026-01-05 07:11:49.78	30.18	9.73	-43.2	-45.4	16.4	0.00e+00	0	43	0	0	57	4813
2026-01-05 07:11:51.79	29.82	9.72	-43.1	-45.4	16.4	0.00e+00	0	43	0	0	57	4794
2026-01-05 07:11:53.86	29.46	9.70	-43.1	-45.4	16.4	0.00e+00	0	43	0	0	57	4795
2026-01-05 07:11:55.89	29.10	9.69	-43.0	-45.3	16.6	0.00e+00	0	43	0	0	57	4729
2026-01-05 07:11:57.89	28.75	9.67	-42.9	-45.2	16.7	0.00e+00	0	43	0	0	57	4655
2026-01-05 07:11:59.90	28.40	9.65	-43.0	-45.2	16.6	0.00e+00	0	43	0	0	57	4697
2026-01-05 07:12:01.90	28.05	9.63	-43.0	-45.2	16.7	0.00e+00	0	43	0	0	57	4688
2026-01-05 07:12:03.91	27.69	9.61	-43.1	-45.3	16.6	0.00e+00	0	43	0	0	57	4748
2026-01-05 07:12:05.92	27.34	9.59	-43.1	-45.3	16.6	0.00e+00	0	44	0	0	57	4739
2026-01-05 07:12:08.00	26.98	9.57	-42.9	-45.1	16.7	0.00e+00	0	43	0	0	57	4628
2026-01-05 07:12:10.01	26.63	9.55	-42.9	-45.3	16.5	0.00e+00	0	43	0	0	57	4718
2026-01-05 07:12:12.01	26.28	9.53	-42.8	-45.2	16.6	0.00e+00	0	43	0	0	57	4695
2026-01-05 07:12:14.02	25.93	9.50	-42.8	-45.2	16.7	0.00e+00	0	43	0	0	57	4667
2026-01-05 07:12:16.02	25.58	9.48	-43.0	-45.3	16.6	0.00e+00	0	43	0	0	57	4756
2026-01-05 07:12:18.02	25.24	9.45	-42.9	-45.3	16.7	0.00e+00	0	43	0	0	57	4708
2026-01-05 07:12:20.03	24.89	9.42	-43.1	-45.5	16.4	0.00e+00	0	43	0	0	57	4832
2026-01-05 07:12:22.03	24.54	9.39	-43.0	-45.4	16.5	0.00e+00	0	43	0	0	57	4777
2026-01-05 07:12:24.14	24.18	9.36	-43.0	-45.3	16.5	0.00e+00	0	43	0	0	57	4746
2026-01-05 07:12:26.14	23.83	9.33	-43.1	-45.4	16.4	0.00e+00	0	43	0	0	57	4809
2026-01-05 07:12:28.15	23.49	9.30	-43.0	-45.3	16.6	0.00e+00	0	43	0	0	57	4707
2026-01-05 07:12:30.15	23.15	9.27	-42.9	-45.1	16.7	0.00e+00	0	43	0	0	57	4634
2026-01-05 07:12:32.34	22.77	9.23	-42.8	-45.1	16.7	0.00e+00	0	43	0	0	57	4637
2026-01-05 07:12:34.46	22.41	9.20	-42.7	-45.1	16.7	0.00e+00	0	44	0	0	57	4642
2026-01-05 07:12:36.38	22.09	9.16	-42.7	-45.3	16.5	0.00e+00	0	43	0	0	57	4717
2026-01-05 07:12:38.42	21.74	9.13	-42.7	-45.3	16.6	0.00e+00	0	43	0	0	57	4712
2026-01-05 07:12:40.42	21.40	9.09	-42.7	-45.4	16.5	0.00e+00	0	43	0	0	57	4795
2026-01-05 07:12:42.43	21.06	9.05	-42.8	-45.6	16.3	0.00e+00	0	44	0	0	57	4884
2026-01-05 07:12:44.44	20.73	9.01	-42.8	-45.6	16.3	0.00e+00	0	44	0	0	57	4895
2026-01-05 07:12:46.44	20.39	8.97	-49.3	-62.7	3.8	1.31e+00	0	43	104	0	69	17530
2026-01-05 07:12:48.45	20.05	8.93	-49.8	-63.7	3.8	1.49e+00	0	43	104	0	71	17544
2026-01-05 07:12:50.46	19.72	8.89	-50.7	-63.8	3.8	1.49e+00	0	43	104	0	71	17817
2026-01-05 07:12:52.52	19.38	8.85	-50.4	-63.8	3.8	1.49e+00	0	43	104	0	72	16796
2026-01-05 07:12:54.60	19.03	8.81	-50.5	-63.8	3.8	1.49e+00	0	43	104	0	72	16878
2026-01-05 07:12:56.61	18.70	8.76	-50.6	-63.9	3.8	1.49e+00	0	43	104	0	72	17008
2026-01-05 07:12:58.62	18.37	8.72	-50.8	-63.9	3.8	1.49e+00	0	44	104	0	72	17019
2026-01-05 07:13:00.63	18.04	8.67	-50.9	-63.9	3.8	1.49e+00	0	44	104	0	72	17031
2026-01-05 07:13:02.64	17.71	8.62	-50.8	-63.9	3.8	1.49e+00	0	43	104	0	72	17051
2026-01-05 07:13:04.65	17.38	8.58	-50.8	-63.9	3.8	1.49e+00	0	44	104	0	72	16934
2026-01-05 07:13:06.66	17.06	8.53	-50.8	-63.9	3.8	1.49e+00	0	43	104	0	72	16952
2026-01-05 07:13:08.66	16.73	8.48	-50.8	-63.9	3.8	1.49e+00	0	43	104	0	72	16949
2026-01-05 07:13:10.67	16.41	8.43	-50.6	-63.8	3.8	1.49e+00	0	43	104	0	72	16884
2026-01-05 07:13:12.68	16.08	8.38	-50.6	-63.9	3.8	1.49e+00	0	43	104	0	72	16896
2026-01-05 07:13:14.69	15.76	8.33	-50.6	-63.8	3.8	1.49e+00	0	43	104	0	72	16882
2026-01-05 07:13:16.69	15.44	8.28	-50.6	-63.8	3.8	1.49e+00	0	44	104	0	72	16835
2026-01-05 07:13:18.70	15.12	8.23	-50.6	-63.8	3.8	1.49e+00	0	44	104	0	72	16791
2026-01-05 07:13:20.71	14.80	8.17	-50.6	-63.8	3.8	1.49e+00	0	44	104	0	72	16827
2026-01-05 07:13:22.72	14.49	8.12	-50.6	-63.8	3.8	1.49e+00	0	44	104	0	72	16823
2026-01-05 07:13:24.73	14.17	8.06	-50.6	-63.8	3.8	1.49e+00	0	44	104	0	72	16796
2026-01-05 07:13:26.74	13.85	8.01	-50.6	-63.8	3.8	1.49e+00	0	44	104	0	72	16817
2026-01-05 07:13:28.74	13.54	7.95	-50.6	-63.8	3.8	1.49e+00	0	44	104	0	72	16851
2026-01-05 07:13:30.75	13.23	7.90	-50.6	-63.8	3.8	1.49e+00	0	44	104	0	72	16841
2026-01-05 07:13:32.76	12.92	7.84	-50.6	-63.8	3.8	1.49e+00	0	43	104	0	72	16825
2026-01-05 07:13:34.77	12.61	7.78	-50.6	-63.8	3.8	1.49e+00	0	44	104	0	72	16815
2026-01-05 07:13:36.78	12.30	7.72	-50.6	-63.8	3.8	1.49e+00	0	44	104	0	72	16846
2026-01-05 07:13:38.79	11.99	7.66	-50.6	-63.8	3.8	1.49e+00	0	44	104	0	72	16839
2026-01-05 07:13:40.80	11.68	7.60	-50.6	-63.8	3.8	1.49e+00	0	44	104	0	72	16837
2026-01-05 07:13:42.81	11.38	7.54	-50.6	-63.8	3.8	1.49e+00	0	44	104	0	72	16785
2026-01-05 07:13:44.81	11.08	7.48	-50.6	-63.8	3.8	1.49e+00	0	44	104	0	72	16733
2026-01-05 07:13:46.82	10.78	7.42	-50.6	-63.8	3.8	1.49e+00	0	43	104	0	72	16792
2026-01-05 07:13:48.83	10.47	7.35	-50.5	-63.8	3.8	1.49e+00	0	44	104	0	72	16775
2026-01-05 07:13:50.84	10.17	7.29	-50.6	-63.8	3.8	1.49e+00	0	44	104	0	72	16763
2026-01-05 07:13:52.85	9.88	7.23	-50.6	-63.8	3.8	1.49e+00	0	44	104	0	72	16799
2026-01-05 07:13:54.86	9.58	7.16	-50.6	-63.8	3.8	1.49e+00	0	44	104	0	72	16787
2026-01-05 07:13:56.86	9.29	7.10	-50.6	-63.8	3.8	1.49e+00	0	44	104	0	72	16800
2026-01-05 07:13:58.87	8.99	7.03	-50.5	-63.8	3.8	1.49e+00	0	44	104	0	72	16800
2026-01-05 07:14:00.88	8.70	6.97	-50.6	-63.8	3.8	1.49e+00	0	44	104	0	72	16813
2026-01-05 07:14:02.89	8.41	6.90	-50.5	-63.8	3.8	1.49e+00	0	43	104	0	72	16739
2026-01-05 07:14:04.90	8.12	6.83	-50.5	-63.8	3.8	1.49e+00	0	44	104	0	72	16733
2026-01-05 07:14:06.91	7.83	6.77	-50.5	-63.8	3.8	1.49e+00	0	43	104	0	72	16728
2026-01-05 07:14:08.92	7.54	6.70	-50.5	-63.7	3.8	1.49e+00	0	44	104	0	72	16653
2026-01-05 07:14:10.92	7.26	6.63	-50.5	-63.7	3.8	1.49e+00	0	43	104	0	72	16669
2026-01-05 07:14:12.93	6.97	6.56	-50.5	-63.8	3.8	1.49e+00	0	44	104	0	72	16707
2026-01-05 07:14:14.94	6.69	6.49	-50.5	-63.8	3.8	1.49e+00	0	44	104	0	72	16747
2026-01-05 07:14:16.95	6.40	6.42	-50.5	-63.8	3.8	1.49e+00	0	44	104	0	72	16748
2026-01-05 07:14:18.96	6.12	6.35	-50.5	-63.8	3.8	1.49e+00	0	44	104	0	72	16718
2026-01-05 07:14:20.97	5.85	6.28	-50.5	-63.8	3.8	1.49e+00	0	44	104	0	72	16746
2026-01-05 07:14:22.98	5.57	6.21	-50.5	-63.8	3.8	1.49e+00	0	44	104	0	72	16731
2026-01-05 07:14:24.99	5.29	6.14	-50.5	-63.8	3.8	1.49e+00	0	44	104	0	72	16708
2026-01-05 07:14:26.99	5.02	6.07	-50.5	-63.8	3.8	1.49e+00	0	44	104	0	72	16765
2026-01-05 07:14:29.00	4.74	5.99	-50.5	-63.8	3.8	1.49e+00	0	44	104	0	72	16699
2026-01-05 07:14:31.01	4.47	5.92	-50.5	-63.8	3.8	1.49e+00	0	44	104	0	72	16714
2026-01-05 07:14:33.02	4.20	5.85	-50.5	-63.8	3.8	1.49e+00	0	43	104	0	72	16704
2026-01-05 07:14:35.03	3.93	5.77	-50.5	-63.7	3.8	1.49e+00	0	44	104	0	72	16667
2026-01-05 07:14:37.04	3.66	5.70	-50.5	-63.7	3.8	1.49e+00	0	43	104	0	72	16676
2026-01-05 07:14:39.05	3.40	5.63	-50.5	-63.7	3.8	1.49e+00	0	44	104	0	72	16690
2026-01-05 07:14:41.05	3.13	5.55	-50.5	-63.7	3.8	1.49e+00	0	44	104	0	72	16617
2026-01-05 07:14:43.06	2.87	5.48	-50.5	-63.7	3.8	1.49e+00	0	44	104	0	72	16648
2026-01-05 07:14:45.07	2.61	5.40	-50.5	-63.7	3.8	1.49e+00	0	44	104	0	72	16694
2026-01-05 07:14:47.08	2.35	5.33	-50.5	-63.7	3.8	1.49e+00	0	44	104	0	72	16667
2026-01-05 07:14:49.09	2.09	5.25	-50.5	-63.7	3.8	1.49e+00	0	43	104	0	72	16615
2026-01-05 07:14:51.10	1.83	5.17	-50.5	-63.8	3.8	1.49e+00	0	44	104	0	72	16706
2026-01-05 07:14:53.10	1.57	5.10	-50.5	-63.7	3.8	1.49e+00	0	44	104	0	72	16665
2026-01-05 07:14:55.11	1.32	5.02	-50.5	-63.7	3.8	1.49e+00	0	44	104	0	72	16630

#Closed at: 2026-01-05 07:14:57
#Recorded file [0 MB]: D:/Data/31040_260105_100756.dat