passes_logs/2026/01/05/T1/T1__20260105_023330_AQUA_rec.log

#Pass ID: 20260105_023330_AQUA
#Satellite: AQUA
#Configuration: AQUA
#almurnet v.1.7.20251203
#Start time: 2026-01-05 02:33:31

#Version: 2.0.20230620
#Station: T1
#Location: 37.570604 lon 55.790049 lat
#TLE: 1 27424U 02022A   26003.93831470  .00001925  00000+0  39553-3 0  9995
#TLE: 2 27424  98.4067 330.1809 0002003  92.1713 343.8415 14.61796291259276

#Time	Az	El	Level	Level2	SNR	BER	BlckErr	Temp	State	Recorded	gain1	gain2
2026-01-05 02:33:31.01	5.73	5.01	-51.9	-74.4	3.8	7.45e-01	0	40	0	0	75	47783
2026-01-05 02:33:34.02	5.51	5.21	-51.2	-74.0	3.8	7.46e-01	0	40	104	0	74	48299
2026-01-05 02:33:37.03	5.28	5.42	-51.1	-74.1	3.8	7.43e-01	0	40	104	0	74	49205
2026-01-05 02:33:40.04	5.05	5.62	-51.2	-74.3	3.8	7.48e-01	0	40	104	0	74	49946
2026-01-05 02:33:43.05	4.81	5.83	-51.1	-74.3	3.8	7.46e-01	0	41	104	0	74	50316
2026-01-05 02:33:46.07	4.57	6.04	-51.0	-74.2	3.8	7.46e-01	0	41	104	0	74	49514
2026-01-05 02:33:49.08	4.33	6.25	-51.1	-73.9	3.8	7.43e-01	0	41	104	0	74	47696
2026-01-05 02:33:52.09	4.08	6.46	-51.1	-74.0	3.8	7.45e-01	0	41	104	0	74	48349
2026-01-05 02:33:55.11	3.83	6.68	-51.1	-73.9	3.8	7.45e-01	0	41	104	0	74	48105
2026-01-05 02:33:58.12	3.57	6.89	-51.1	-73.6	3.8	7.44e-01	0	41	104	0	74	46382
2026-01-05 02:34:01.13	3.32	7.11	-51.1	-74.1	3.8	7.45e-01	0	41	104	0	74	48975
2026-01-05 02:34:04.14	3.05	7.32	-51.1	-74.2	3.8	7.48e-01	0	41	104	0	74	49710
2026-01-05 02:34:07.15	2.78	7.54	-50.9	-72.8	3.8	7.44e-01	0	41	104	0	73	44891
2026-01-05 02:34:10.16	2.51	7.76	-50.9	-69.5	4.7	7.18e-01	0	41	104	0	73	30651
2026-01-05 02:34:13.17	2.23	7.98	-50.9	-70.3	4.0	7.38e-01	0	41	104	0	73	33349
2026-01-05 02:34:16.18	1.95	8.21	-50.9	-69.6	4.6	7.21e-01	0	41	104	0	73	30892
2026-01-05 02:34:19.20	1.66	8.43	-50.6	-64.5	8.7	6.35e-01	0	42	0	3670016	73	17184
2026-01-05 02:34:22.21	1.37	8.66	-50.2	-60.1	13.2	6.07e-01	0	42	0	9437184	72	10979
2026-01-05 02:34:25.21	1.07	8.89	-49.7	-57.4	15.9	6.02e-01	0	42	0	15204352	71	8535
2026-01-05 02:34:28.39	0.75	9.13	-51.0	-63.0	10.6	6.19e-01	0	42	0	20971520	72	15342
2026-01-05 02:34:31.37	0.44	9.36	-51.1	-61.8	11.5	6.12e-01	0	42	0	26214400	73	12616
2026-01-05 02:34:34.46	0.12	9.60	-50.5	-59.0	14.4	6.05e-01	0	42	0	31981568	72	9655
2026-01-05 02:34:37.32	359.82	9.82	-50.1	-55.7	17.8	6.03e-01	0	42	0	37748736	71	7031
2026-01-05 02:34:40.47	359.47	10.07	-49.0	-53.3	19.9	6.06e-01	0	42	0	43515904	69	5992
2026-01-05 02:34:43.34	359.16	10.30	-48.7	-52.6	20.7	6.03e-01	0	42	0	48758784	69	5478
2026-01-05 02:34:46.48	358.81	10.55	-47.7	-51.0	22.1	6.03e-01	0	42	0	54525952	67	5107
2026-01-05 02:34:49.35	358.48	10.78	-47.1	-50.5	22.6	6.03e-01	0	42	0	60293120	66	5120
2026-01-05 02:34:52.49	358.11	11.03	-47.0	-50.3	22.6	6.02e-01	0	42	0	66060288	65	5339
2026-01-05 02:34:55.36	357.77	11.26	-46.9	-50.2	22.9	6.03e-01	0	42	0	71303168	65	5228
2026-01-05 02:34:58.59	357.38	11.53	-46.8	-50.0	22.9	6.02e-01	0	42	0	77594624	65	5150
2026-01-05 02:35:01.45	357.03	11.76	-46.7	-50.0	23.1	6.02e-01	0	42	0	82837504	65	5111
2026-01-05 02:35:04.59	356.63	12.03	-46.5	-49.8	23.2	6.03e-01	0	42	0	88604672	65	5014
2026-01-05 02:35:07.46	356.27	12.26	-46.4	-49.9	23.2	6.06e-01	0	42	0	93847552	64	5380
2026-01-05 02:35:10.61	355.85	12.53	-46.3	-50.0	23.1	6.01e-01	0	42	0	100139008	64	5425
2026-01-05 02:35:13.80	355.43	12.80	-46.3	-49.9	23.2	6.03e-01	0	42	0	105906176	64	5365
2026-01-05 02:35:16.82	355.02	13.06	-46.5	-49.7	23.3	6.01e-01	0	42	0	111673344	64	5269
2026-01-05 02:35:19.83	354.60	13.32	-46.6	-49.6	23.4	6.07e-01	0	42	0	117440512	64	5171
2026-01-05 02:35:22.83	354.18	13.57	-46.8	-49.5	23.5	6.03e-01	0	42	0	122683392	64	5138
2026-01-05 02:35:25.83	353.75	13.84	-46.8	-49.5	23.6	6.05e-01	0	42	0	128450560	64	5117
2026-01-05 02:35:28.84	353.31	14.10	-47.0	-49.6	23.5	6.03e-01	0	42	0	134217728	64	5205
2026-01-05 02:35:31.87	352.85	14.36	-47.0	-49.8	23.3	6.03e-01	0	42	0	139984896	64	5324
2026-01-05 02:35:35.02	352.37	14.64	-46.7	-49.6	23.5	6.05e-01	0	42	0	145752064	64	5181
2026-01-05 02:35:37.89	351.93	14.90	-46.7	-49.5	23.5	6.04e-01	0	42	0	150994944	64	5142
2026-01-05 02:35:41.04	351.43	15.18	-46.8	-49.4	23.6	6.08e-01	0	42	0	157286400	64	5097
2026-01-05 02:35:43.95	350.96	15.44	-47.0	-49.6	23.5	6.03e-01	0	43	0	162529280	64	5211
2026-01-05 02:35:47.10	350.44	15.72	-46.6	-49.3	23.8	6.03e-01	0	43	0	168296448	64	5005
2026-01-05 02:35:49.96	349.96	15.98	-46.5	-49.3	23.8	6.03e-01	0	42	0	174063616	64	5038
2026-01-05 02:35:53.14	349.41	16.27	-46.3	-49.3	23.8	6.05e-01	0	42	0	179830784	64	5021
2026-01-05 02:35:56.15	348.88	16.55	-46.5	-49.6	23.5	6.03e-01	0	42	0	185597952	64	5171
2026-01-05 02:35:59.19	348.34	16.83	-46.5	-49.5	23.7	6.04e-01	0	43	0	190840832	64	5106
2026-01-05 02:36:02.85	347.67	17.16	-46.0	-49.5	23.7	6.02e-01	0	43	0	198180864	64	5154
2026-01-05 02:36:05.76	347.13	17.43	-45.7	-49.4	23.8	6.02e-01	0	42	0	203423744	63	5384
2026-01-05 02:36:09.09	346.49	17.74	-46.2	-49.4	23.8	6.05e-01	0	43	0	209715200	63	5384
2026-01-05 02:36:12.10	345.90	18.02	-46.6	-49.3	23.8	6.02e-01	0	42	0	215482368	64	5036
2026-01-05 02:36:15.89	345.15	18.37	-46.3	-49.4	23.8	6.06e-01	0	43	0	222298112	64	5076
2026-01-05 02:36:18.66	344.59	18.63	-46.3	-49.3	23.8	6.04e-01	0	43	0	227540992	64	5032
2026-01-05 02:36:22.30	343.83	18.97	-46.7	-49.3	23.8	6.02e-01	0	43	0	234356736	64	5039
2026-01-05 02:36:25.03	343.25	19.22	-46.6	-49.4	23.8	6.04e-01	0	42	0	239599616	64	5052
2026-01-05 02:36:28.35	342.53	19.53	-46.7	-49.4	23.8	6.08e-01	0	43	0	245891072	64	5056
2026-01-05 02:36:31.45	341.85	19.82	-47.0	-49.6	23.7	6.02e-01	0	43	0	251658240	64	5182
2026-01-05 02:36:34.45	341.17	20.10	-46.9	-49.6	23.6	6.02e-01	0	43	0	257425408	64	5179
2026-01-05 02:36:37.45	340.48	20.38	-46.5	-49.4	23.8	6.06e-01	0	43	0	262668288	64	5073
2026-01-05 02:36:40.46	339.77	20.65	-46.9	-49.5	23.7	6.06e-01	0	43	0	268435456	64	5128
2026-01-05 02:36:43.47	339.06	20.93	-46.5	-49.5	23.7	6.00e-01	0	43	0	274202624	64	5117
2026-01-05 02:36:46.48	338.32	21.21	-46.1	-49.5	23.7	6.02e-01	0	42	0	279969792	64	5105
2026-01-05 02:36:49.49	337.57	21.48	-46.7	-49.8	23.4	6.03e-01	0	42	0	285212672	64	5323
2026-01-05 02:36:52.49	336.82	21.75	-46.5	-49.6	23.6	6.02e-01	0	43	0	290979840	64	5173
2026-01-05 02:36:55.49	336.04	22.02	-46.5	-49.6	23.7	6.04e-01	0	43	0	296747008	64	5167
2026-01-05 02:36:58.50	335.25	22.29	-46.9	-49.7	23.6	6.04e-01	0	43	0	302514176	64	5237
2026-01-05 02:37:01.51	334.45	22.55	-47.0	-49.6	23.6	6.03e-01	0	43	0	307757056	64	5174
2026-01-05 02:37:04.52	333.63	22.81	-47.1	-49.8	23.5	6.05e-01	0	43	0	313524224	64	5293
2026-01-05 02:37:07.53	332.80	23.07	-46.7	-49.6	23.6	6.03e-01	0	43	0	319291392	64	5178
2026-01-05 02:37:10.54	331.95	23.33	-46.7	-49.7	23.5	6.02e-01	0	43	0	325058560	64	5254
2026-01-05 02:37:13.54	331.09	23.58	-47.0	-49.7	23.6	6.05e-01	0	43	0	330301440	64	5257
2026-01-05 02:37:16.55	330.21	23.82	-47.0	-49.6	23.7	6.03e-01	0	43	0	336068608	64	5175
2026-01-05 02:37:19.56	329.32	24.06	-47.2	-49.8	23.5	6.02e-01	0	43	0	341835776	65	5036
2026-01-05 02:37:22.56	328.42	24.30	-46.6	-49.7	23.6	6.03e-01	0	43	0	347602944	65	4942
2026-01-05 02:37:25.57	327.49	24.53	-46.7	-49.7	23.5	6.01e-01	0	43	0	352845824	64	5268
2026-01-05 02:37:28.58	326.56	24.76	-47.0	-49.7	23.5	6.05e-01	0	43	0	358612992	64	5231
2026-01-05 02:37:31.97	325.49	25.00	-47.0	-49.6	23.7	6.04e-01	0	42	0	364904448	64	5208
2026-01-05 02:37:34.71	324.61	25.20	-46.9	-49.9	23.4	6.04e-01	0	43	0	370147328	64	5375
2026-01-05 02:37:38.00	323.54	25.42	-46.7	-49.6	23.7	6.05e-01	0	43	0	376438784	64	5173
2026-01-05 02:37:40.72	322.65	25.60	-46.8	-49.6	23.7	6.02e-01	0	43	0	381681664	64	5208
2026-01-05 02:37:44.01	321.55	25.81	-46.8	-49.6	23.7	6.02e-01	0	43	0	387448832	64	5167
2026-01-05 02:37:46.74	320.63	25.98	-46.9	-49.7	23.6	6.03e-01	0	43	0	392691712	64	5258
2026-01-05 02:37:50.04	319.50	26.17	-46.7	-49.7	23.6	6.05e-01	0	43	0	398983168	64	5227
2026-01-05 02:37:52.76	318.56	26.32	-46.6	-49.5	23.8	6.04e-01	0	43	0	404226048	64	5140
2026-01-05 02:37:56.05	317.41	26.49	-46.7	-49.4	23.8	6.05e-01	0	43	0	409993216	64	5080
2026-01-05 02:37:58.77	316.45	26.62	-47.1	-49.8	23.5	6.04e-01	0	43	0	415236096	64	5281
2026-01-05 02:38:02.05	315.28	26.77	-46.8	-49.5	23.8	6.04e-01	0	43	0	421527552	64	5143
2026-01-05 02:38:05.17	314.16	26.90	-46.6	-49.6	23.6	6.02e-01	0	43	0	427294720	64	5200
2026-01-05 02:38:08.55	312.94	27.03	-46.7	-49.4	23.9	6.04e-01	0	43	0	433586176	64	5072
2026-01-05 02:38:11.30	311.93	27.13	-46.9	-49.4	23.9	6.05e-01	0	43	0	438829056	65	4779
2026-01-05 02:38:14.61	310.71	27.23	-46.8	-49.4	23.9	6.02e-01	0	43	0	445120512	65	4763
2026-01-05 02:38:17.67	309.58	27.32	-46.7	-49.2	24.0	6.03e-01	0	43	0	450887680	65	4681
2026-01-05 02:38:20.54	308.51	27.38	-47.0	-49.6	23.6	6.04e-01	0	43	0	456130560	65	4872
2026-01-05 02:38:23.68	307.34	27.45	-47.1	-49.7	23.4	6.04e-01	0	43	0	461897728	65	4953
2026-01-05 02:38:26.60	306.25	27.49	-47.3	-49.9	23.3	6.03e-01	0	43	0	467664896	65	5090
2026-01-05 02:38:29.99	304.97	27.53	-47.7	-50.4	22.9	6.05e-01	0	43	0	473956352	65	5374
2026-01-05 02:38:32.71	303.95	27.55	-46.5	-48.9	24.2	6.04e-01	0	43	0	479199232	64	4794
2026-01-05 02:38:36.26	302.61	27.56	-46.3	-48.7	24.2	6.04e-01	0	43	0	485490688	64	4680
2026-01-05 02:38:38.98	301.58	27.56	-48.4	-51.4	21.9	6.04e-01	0	43	0	490733568	67	5378
2026-01-05 02:38:42.30	300.33	27.54	-47.3	-50.0	23.3	6.05e-01	0	43	0	497025024	66	4844
2026-01-05 02:38:45.02	299.30	27.52	-47.2	-49.9	23.3	6.03e-01	0	43	0	502267904	66	4776
2026-01-05 02:38:48.32	298.06	27.48	-47.4	-50.0	23.3	6.00e-01	0	43	0	508035072	66	4842
2026-01-05 02:38:51.03	297.05	27.43	-47.2	-49.8	23.4	6.05e-01	0	43	0	513277952	66	4737
2026-01-05 02:38:54.31	295.82	27.36	-47.3	-50.0	23.3	6.04e-01	0	43	0	519569408	65	5119
2026-01-05 02:38:57.04	294.81	27.30	-47.6	-50.3	23.0	6.03e-01	0	43	0	524288000	65	5326
2026-01-05 02:39:00.33	293.59	27.20	-47.1	-49.6	23.6	6.06e-01	0	43	0	530579456	65	4902
2026-01-05 02:39:03.04	292.59	27.12	-48.0	-50.8	22.6	6.04e-01	0	43	0	535822336	66	5314
2026-01-05 02:39:06.33	291.39	27.00	-47.5	-50.2	23.1	6.06e-01	0	43	0	542113792	66	4973
2026-01-05 02:39:09.07	290.40	26.89	-48.4	-51.4	22.0	6.03e-01	0	43	0	547356672	67	5401
2026-01-05 02:39:13.06	288.96	26.72	-48.5	-51.4	22.1	6.02e-01	0	43	0	554696704	67	5389
2026-01-05 02:39:15.82	287.98	26.59	-48.0	-50.7	22.5	6.05e-01	0	43	0	559939584	67	4970
2026-01-05 02:39:19.55	286.67	26.41	-48.1	-50.8	22.6	6.06e-01	0	43	0	566755328	66	5313
2026-01-05 02:39:22.35	285.69	26.26	-48.2	-51.1	22.3	6.05e-01	0	43	0	571998208	67	5163
2026-01-05 02:39:26.18	284.37	26.04	-47.8	-50.5	22.9	6.05e-01	0	43	0	579338240	67	4816
2026-01-05 02:39:28.99	283.42	25.87	-48.2	-51.0	22.4	6.06e-01	0	43	0	584581120	67	5110
2026-01-05 02:39:32.63	282.19	25.64	-48.6	-51.5	21.8	6.03e-01	0	43	0	591396864	67	5439
2026-01-05 02:39:35.57	281.22	25.45	-48.4	-51.2	22.1	6.04e-01	0	43	0	596639744	67	5267
2026-01-05 02:39:38.58	280.24	25.24	-48.2	-50.9	22.5	6.03e-01	0	43	0	602406912	67	5099
2026-01-05 02:39:41.58	279.27	25.03	-47.9	-50.6	22.7	6.04e-01	0	42	0	608174080	67	4884
2026-01-05 02:39:44.58	278.32	24.81	-48.0	-50.9	22.5	6.04e-01	0	43	0	613941248	67	5050
2026-01-05 02:39:47.86	277.29	24.57	-48.3	-51.2	22.3	6.03e-01	0	43	0	619708416	67	5231
2026-01-05 02:39:50.82	276.38	24.34	-48.2	-51.0	22.4	6.02e-01	0	43	0	625475584	67	5132
2026-01-05 02:39:54.60	275.24	24.04	-47.8	-50.6	22.8	6.03e-01	0	43	0	632291328	67	4893
2026-01-05 02:39:57.37	274.41	23.82	-48.0	-50.8	22.6	6.05e-01	0	43	0	637534208	67	4989
2026-01-05 02:40:01.12	273.32	23.51	-47.8	-50.5	22.8	6.05e-01	0	43	0	644874240	67	4869
2026-01-05 02:40:04.08	272.47	23.26	-47.9	-50.7	22.7	6.01e-01	0	43	0	650117120	67	4944
2026-01-05 02:40:07.22	271.58	22.99	-47.9	-50.6	22.7	6.02e-01	0	43	0	656408576	67	4913
2026-01-05 02:40:10.17	270.77	22.74	-47.9	-50.6	22.8	6.05e-01	0	43	0	661651456	67	4878
2026-01-05 02:40:13.32	269.91	22.46	-47.8	-50.5	22.8	6.05e-01	0	43	0	667418624	67	4861
2026-01-05 02:40:16.31	269.11	22.20	-47.7	-50.5	22.8	6.05e-01	0	43	0	673185792	67	4866
2026-01-05 02:40:19.49	268.28	21.91	-47.6	-50.4	23.0	6.05e-01	0	43	0	678952960	67	4767
2026-01-05 02:40:22.35	267.54	21.65	-47.9	-50.8	22.6	6.05e-01	0	43	0	684720128	67	4993
2026-01-05 02:40:25.50	266.75	21.37	-47.8	-50.6	22.7	6.02e-01	0	43	0	690487296	67	4919
2026-01-05 02:40:28.37	266.03	21.11	-47.7	-50.6	22.7	6.05e-01	0	43	0	695730176	67	4897
2026-01-05 02:40:31.51	265.27	20.82	-47.7	-50.6	22.8	6.02e-01	0	43	0	701497344	67	4885
2026-01-05 02:40:34.36	264.59	20.55	-47.6	-50.4	22.9	6.05e-01	0	43	0	707264512	66	5068
2026-01-05 02:40:37.65	263.82	20.25	-47.5	-50.3	23.0	6.05e-01	0	43	0	713031680	66	5009
2026-01-05 02:40:40.47	263.17	19.99	-47.7	-50.5	22.8	6.03e-01	0	43	0	718274560	66	5108
2026-01-05 02:40:43.62	262.46	19.69	-47.7	-50.4	22.8	6.03e-01	0	43	0	724566016	66	5089
2026-01-05 02:40:46.48	261.83	19.42	-47.7	-50.4	22.8	6.03e-01	0	43	0	729808896	66	5079
2026-01-05 02:40:49.64	261.15	19.13	-47.5	-50.3	23.0	6.02e-01	0	43	0	735576064	66	5007
2026-01-05 02:40:52.50	260.54	18.86	-47.5	-50.4	22.9	6.02e-01	0	43	0	740818944	66	5062
2026-01-05 02:40:55.79	259.85	18.55	-47.6	-50.4	22.8	6.05e-01	0	43	0	747110400	66	5083
2026-01-05 02:40:58.66	259.27	18.28	-47.5	-50.3	23.0	6.03e-01	0	43	0	752877568	66	4984
2026-01-05 02:41:02.29	258.54	17.94	-47.5	-50.4	22.8	6.04e-01	0	43	0	759169024	66	5059
2026-01-05 02:41:05.26	257.96	17.67	-47.4	-50.2	23.1	6.03e-01	0	43	0	764936192	66	4953
2026-01-05 02:41:08.26	257.39	17.39	-47.8	-50.6	22.6	6.05e-01	0	43	0	770703360	66	5214
2026-01-05 02:41:11.26	256.82	17.11	-47.7	-50.4	22.9	6.05e-01	0	43	0	776470528	66	5060
2026-01-05 02:41:14.64	256.20	16.80	-47.8	-50.6	22.7	6.02e-01	0	43	0	782761984	66	5178
2026-01-05 02:41:18.00	255.60	16.49	-47.7	-50.4	22.8	6.03e-01	0	43	0	789053440	66	5097
2026-01-05 02:41:21.09	255.05	16.20	-47.7	-50.5	22.8	6.03e-01	0	43	0	794820608	66	5106
2026-01-05 02:41:24.14	254.53	15.93	-47.5	-50.3	22.9	6.03e-01	0	43	0	800587776	66	5025
2026-01-05 02:41:27.36	253.98	15.63	-47.6	-50.4	22.8	6.04e-01	0	43	0	806354944	66	5060
2026-01-05 02:41:30.22	253.51	15.37	-47.7	-50.5	22.8	6.02e-01	0	43	0	811597824	66	5102
2026-01-05 02:41:33.36	253.00	15.09	-47.8	-50.6	22.7	6.04e-01	0	43	0	817889280	66	5169
2026-01-05 02:41:36.23	252.54	14.83	-47.6	-50.4	22.8	6.02e-01	0	43	0	823132160	66	5043
2026-01-05 02:41:39.76	251.99	14.52	-47.8	-50.6	22.6	6.04e-01	0	43	0	829947904	66	5203
2026-01-05 02:41:42.57	251.56	14.27	-47.7	-50.5	22.8	6.01e-01	0	43	0	835190784	66	5103
2026-01-05 02:41:45.87	251.06	13.98	-47.9	-50.7	22.5	6.03e-01	0	43	0	840957952	66	5272
2026-01-05 02:41:48.59	250.66	13.74	-47.8	-50.7	22.5	6.00e-01	0	43	0	846200832	66	5276
2026-01-05 02:41:51.88	250.19	13.45	-47.7	-50.6	22.6	6.04e-01	0	43	0	852492288	66	5173
2026-01-05 02:41:54.60	249.80	13.22	-47.8	-50.7	22.6	6.02e-01	0	43	0	857210880	66	5237
2026-01-05 02:41:57.90	249.35	12.93	-47.9	-50.9	22.3	6.04e-01	0	43	0	863502336	66	5370
2026-01-05 02:42:00.61	248.98	12.70	-47.8	-50.8	22.3	6.05e-01	0	43	0	868745216	66	5328
2026-01-05 02:42:04.15	248.50	12.40	-47.9	-50.8	22.4	6.02e-01	0	43	0	875560960	66	5287
2026-01-05 02:42:06.87	248.15	12.17	-48.1	-51.0	22.2	6.06e-01	0	43	0	880279552	66	5430
2026-01-05 02:42:10.57	247.67	11.86	-48.0	-50.9	22.2	6.04e-01	0	43	0	887619584	66	5387
2026-01-05 02:42:13.28	247.33	11.64	-47.9	-50.9	22.3	6.03e-01	0	43	0	892338176	66	5346
2026-01-05 02:42:16.58	246.92	11.36	-48.0	-51.0	22.2	6.05e-01	0	43	0	898629632	66	5407
2026-01-05 02:42:19.59	246.56	11.12	-48.2	-51.1	22.0	6.04e-01	0	43	0	904396800	67	5205
2026-01-05 02:42:22.59	246.20	10.87	-48.3	-51.3	21.9	6.02e-01	0	43	0	910163968	67	5297
2026-01-05 02:42:25.60	245.85	10.63	-48.2	-51.3	21.9	6.05e-01	0	43	0	915406848	67	5295
2026-01-05 02:42:28.68	245.49	10.38	-48.2	-51.2	21.9	6.05e-01	0	43	0	921174016	67	5278
2026-01-05 02:42:31.66	245.16	10.14	-48.2	-51.2	21.9	6.05e-01	0	43	0	926941184	67	5263
2026-01-05 02:42:35.10	244.78	9.87	-48.4	-51.6	21.6	6.04e-01	0	43	0	933232640	67	5488
2026-01-05 02:42:37.81	244.48	9.66	-48.4	-51.6	21.5	6.04e-01	0	43	0	938475520	67	5471
2026-01-05 02:42:41.10	244.13	9.40	-48.4	-51.4	21.6	6.03e-01	0	43	0	944766976	67	5399
2026-01-05 02:42:44.03	243.83	9.17	-48.5	-51.6	21.5	6.02e-01	0	43	0	950009856	67	5476
2026-01-05 02:42:47.03	243.52	8.94	-54.4	-70.7	4.1	7.43e-01	0	43	104	955252736	79	24794
2026-01-05 02:42:50.05	243.21	8.71	-54.6	-75.0	3.8	7.42e-01	0	43	104	955252736	80	38359
2026-01-05 02:42:53.06	242.91	8.48	-54.0	-75.1	3.8	7.44e-01	0	43	104	955252736	80	39015
2026-01-05 02:42:56.07	242.62	8.26	-54.9	-75.1	3.8	7.47e-01	0	43	104	955252736	80	38970
2026-01-05 02:42:59.08	242.33	8.03	-54.8	-75.2	3.8	7.47e-01	0	43	104	955252736	80	39168
2026-01-05 02:43:02.09	242.05	7.81	-54.9	-75.1	3.8	7.46e-01	0	43	104	955252736	80	39028
2026-01-05 02:43:05.11	241.77	7.59	-54.7	-75.1	3.8	7.48e-01	0	43	104	955252736	80	39111
2026-01-05 02:43:08.12	241.49	7.36	-54.2	-75.1	3.8	7.47e-01	0	43	104	955252736	80	38980
2026-01-05 02:43:11.13	241.22	7.15	-54.1	-75.1	3.8	7.45e-01	0	43	104	955252736	80	38943
2026-01-05 02:43:14.14	240.96	6.93	-54.2	-75.1	3.8	7.48e-01	0	43	104	955252736	80	38846
2026-01-05 02:43:17.16	240.70	6.71	-54.1	-75.1	3.8	7.44e-01	0	43	104	955252736	80	38742
2026-01-05 02:43:20.17	240.44	6.50	-54.1	-75.1	3.8	7.47e-01	0	43	104	955252736	80	38788
2026-01-05 02:43:23.18	240.19	6.28	-54.1	-75.1	3.8	7.45e-01	0	43	104	955252736	80	38787
2026-01-05 02:43:26.19	239.94	6.07	-54.1	-75.1	3.8	7.41e-01	0	43	104	955252736	80	38827
2026-01-05 02:43:29.21	239.69	5.86	-54.1	-75.0	3.8	7.46e-01	0	43	104	955252736	80	38655
2026-01-05 02:43:32.22	239.45	5.65	-54.1	-75.0	3.8	7.47e-01	0	43	104	955252736	80	38656
2026-01-05 02:43:35.23	239.22	5.45	-54.1	-75.0	3.8	7.44e-01	0	43	104	955252736	80	38600
2026-01-05 02:43:38.24	238.98	5.24	-54.1	-75.1	3.8	7.46e-01	0	43	104	955252736	80	38763
2026-01-05 02:43:41.26	238.75	5.04	-54.1	-75.0	3.8	7.47e-01	0	43	104	955252736	80	38675

#Closed at: 2026-01-05 02:43:43
#Recorded file [955 MB]: D:/Data/31040_260105_053330.dat