passes_logs/2026/01/05/T1/T1__20260105_053048_FENGYUN_3E_rec.log

#Pass ID: 20260105_053048_FENGYUN 3E
#Satellite: FENGYUN 3E
#Configuration: FENGYUN 3E
#almurnet v.1.7.20251203
#Start time: 2026-01-05 05:30:50

#Version: 2.0.20230620
#Station: T1
#Location: 37.570604 lon 55.790049 lat
#TLE: 1 49008U 21062A   26004.29457719  .00000106  00000+0  70678-4 0  9996
#TLE: 2 49008  98.7471   9.5487 0001503 159.9821 200.1414 14.19883545233329

#Time	Az	El	Level	Level2	SNR	BER	BlckErr	Temp	State	Recorded	gain1	gain2
2026-01-05 05:30:50.18	7.06	5.12	-52.1	-63.9	3.8	8.48e-01	0	40	0	0	73	15039
2026-01-05 05:30:53.18	6.84	5.31	-52.3	-64.0	3.8	8.47e-01	0	40	104	0	75	13440
2026-01-05 05:30:56.20	6.61	5.50	-52.3	-64.0	3.8	8.46e-01	0	40	104	0	75	13549
2026-01-05 05:30:59.21	6.38	5.69	-52.3	-64.0	3.8	8.48e-01	0	40	104	0	75	13546
2026-01-05 05:31:02.22	6.14	5.88	-52.0	-63.7	3.8	8.45e-01	0	40	104	0	74	13734
2026-01-05 05:31:05.23	5.90	6.07	-51.8	-63.5	3.8	8.48e-01	0	40	104	0	74	13568
2026-01-05 05:31:08.25	5.66	6.26	-51.8	-63.4	3.8	8.47e-01	0	40	104	0	74	13290
2026-01-05 05:31:11.26	5.41	6.45	-51.8	-63.5	3.8	8.48e-01	0	40	104	0	74	13473
2026-01-05 05:31:14.27	5.16	6.65	-51.8	-63.5	3.8	8.46e-01	0	41	104	0	74	13441
2026-01-05 05:31:17.28	4.91	6.84	-51.8	-63.1	3.8	8.47e-01	0	41	104	0	74	12952
2026-01-05 05:31:20.29	4.66	7.04	-51.8	-63.2	3.8	8.47e-01	0	41	104	0	74	13014
2026-01-05 05:31:23.31	4.40	7.24	-51.8	-63.3	3.8	8.46e-01	0	41	104	0	74	13229
2026-01-05 05:31:26.32	4.13	7.43	-51.7	-62.7	3.8	8.47e-01	0	41	104	0	74	12309
2026-01-05 05:31:29.33	3.86	7.63	-51.5	-61.1	4.0	8.45e-01	0	41	104	0	73	10836
2026-01-05 05:31:32.34	3.59	7.83	-51.4	-60.2	4.2	8.38e-01	0	41	0	0	73	9818
2026-01-05 05:31:35.35	3.32	8.03	-51.6	-62.2	3.8	8.46e-01	0	41	104	0	73	12249
2026-01-05 05:31:38.36	3.04	8.23	-51.7	-62.3	3.8	8.46e-01	0	41	104	0	73	12457
2026-01-05 05:31:41.37	2.76	8.44	-50.7	-56.8	5.8	5.71e-01	0	41	0	0	72	7022
2026-01-05 05:31:44.38	2.47	8.64	-48.8	-52.0	10.4	7.02e-03	0	41	0	22020096	68	5095
2026-01-05 05:31:47.40	2.18	8.84	-47.2	-49.5	12.9	6.98e-05	0	41	0	44040192	65	4545
2026-01-05 05:31:50.41	1.88	9.05	-48.1	-51.0	11.4	1.54e-04	0	41	0	65011712	65	5385
2026-01-05 05:31:53.54	1.57	9.26	-42.9	-44.2	18.0	0.00e+00	0	41	0	83886080	56	4131
2026-01-05 05:31:56.40	1.28	9.46	-42.9	-44.3	18.0	0.00e+00	0	42	0	104857600	56	4170
2026-01-05 05:31:59.55	0.96	9.68	-42.2	-43.5	18.6	0.00e+00	0	41	0	127926272	55	4028
2026-01-05 05:32:02.41	0.66	9.88	-42.4	-43.6	18.5	0.00e+00	0	41	0	147849216	54	4333
2026-01-05 05:32:05.64	0.32	10.10	-42.2	-43.3	18.8	0.00e+00	0	41	0	171966464	54	4192
2026-01-05 05:32:08.92	359.96	10.33	-42.1	-43.2	19.0	0.00e+00	0	42	0	195035136	54	4118
2026-01-05 05:32:11.64	359.67	10.52	-42.2	-43.3	18.9	0.00e+00	0	42	0	214958080	54	4169
2026-01-05 05:32:15.17	359.28	10.77	-42.1	-43.3	19.0	0.00e+00	0	42	0	240123904	54	4148
2026-01-05 05:32:17.98	358.96	10.97	-42.2	-43.4	18.8	0.00e+00	0	42	0	260046848	54	4223
2026-01-05 05:32:21.27	358.58	11.21	-42.2	-43.4	18.8	0.00e+00	0	42	0	284164096	54	4209
2026-01-05 05:32:23.99	358.27	11.40	-42.2	-43.3	18.9	0.00e+00	0	42	0	304087040	54	4187
2026-01-05 05:32:27.28	357.88	11.64	-42.1	-43.3	19.0	0.00e+00	0	42	0	328204288	54	4188
2026-01-05 05:32:30.19	357.53	11.85	-41.9	-43.1	19.2	0.00e+00	0	42	0	349175808	54	4076
2026-01-05 05:32:33.20	357.17	12.07	-41.8	-43.0	19.3	0.00e+00	0	42	0	370147328	54	4030
2026-01-05 05:32:36.27	356.79	12.29	-41.6	-42.7	19.5	0.00e+00	0	42	0	392167424	54	3901
2026-01-05 05:32:39.18	356.42	12.50	-41.7	-42.9	19.5	0.00e+00	0	42	0	414187520	53	4199
2026-01-05 05:32:42.52	356.00	12.75	-41.7	-42.9	19.4	0.00e+00	0	42	0	437256192	53	4241
2026-01-05 05:32:45.28	355.64	12.95	-41.7	-42.9	19.5	0.00e+00	0	42	0	457179136	53	4203
2026-01-05 05:32:48.57	355.21	13.19	-41.8	-42.9	19.4	0.00e+00	0	42	0	481296384	53	4237
2026-01-05 05:32:51.29	354.85	13.39	-41.7	-42.7	19.6	0.00e+00	0	42	0	501219328	53	4141
2026-01-05 05:32:54.76	354.38	13.65	-41.8	-42.8	19.6	0.00e+00	0	42	0	526385152	53	4190
2026-01-05 05:32:57.49	354.00	13.85	-41.8	-42.8	19.6	0.00e+00	0	42	0	546308096	53	4191
2026-01-05 05:33:00.78	353.54	14.09	-41.8	-42.8	19.7	0.00e+00	0	42	0	569376768	53	4152
2026-01-05 05:33:03.50	353.15	14.30	-41.7	-42.7	19.7	0.00e+00	0	42	0	589299712	53	4127
2026-01-05 05:33:06.81	352.68	14.54	-41.4	-42.4	20.1	0.00e+00	0	42	0	613416960	53	3973
2026-01-05 05:33:09.68	352.26	14.76	-41.2	-42.2	20.2	0.00e+00	0	42	0	634388480	53	3905
2026-01-05 05:33:12.89	351.78	15.00	-41.2	-42.2	20.3	0.00e+00	0	42	0	657457152	53	3869
2026-01-05 05:33:15.79	351.34	15.22	-41.3	-42.3	20.2	0.00e+00	0	42	0	678428672	52	4150
2026-01-05 05:33:18.94	350.86	15.45	-41.4	-42.4	20.2	0.00e+00	0	42	0	700448768	52	4201
2026-01-05 05:33:21.80	350.41	15.67	-41.3	-42.3	20.2	0.00e+00	0	42	0	721420288	52	4183
2026-01-05 05:33:24.96	349.91	15.91	-41.2	-42.2	20.3	0.00e+00	0	42	0	744488960	52	4117
2026-01-05 05:33:27.82	349.45	16.12	-41.2	-42.2	20.3	0.00e+00	0	42	0	764411904	52	4136
2026-01-05 05:33:30.97	348.94	16.36	-41.2	-42.2	20.3	0.00e+00	0	42	0	787480576	52	4129
2026-01-05 05:33:33.84	348.46	16.57	-41.1	-42.1	20.4	0.00e+00	0	42	0	808452096	52	4080
2026-01-05 05:33:36.99	347.93	16.81	-41.1	-42.0	20.5	0.00e+00	0	42	0	831520768	52	4049
2026-01-05 05:33:39.85	347.44	17.03	-40.7	-41.7	20.7	0.00e+00	0	42	0	851443712	52	3901
2026-01-05 05:33:43.14	346.87	17.27	-40.6	-41.6	20.8	0.00e+00	0	42	0	875560960	51	4093
2026-01-05 05:33:46.00	346.36	17.49	-40.5	-41.5	21.0	0.00e+00	0	42	0	895483904	51	4026
2026-01-05 05:33:49.15	345.80	17.72	-40.5	-41.4	21.0	0.00e+00	0	42	0	918552576	51	3992
2026-01-05 05:33:52.15	345.25	17.94	-40.5	-41.4	21.0	0.00e+00	0	42	0	940572672	51	3980
2026-01-05 05:33:55.20	344.69	18.17	-40.6	-41.6	20.8	0.00e+00	0	42	0	962592768	51	4058
2026-01-05 05:33:58.49	344.07	18.41	-40.6	-41.6	20.9	0.00e+00	0	42	0	986710016	51	4054
2026-01-05 05:34:01.22	343.55	18.61	-40.7	-41.6	20.8	0.00e+00	0	42	0	1005584384	51	4088
2026-01-05 05:34:04.67	342.89	18.87	-40.7	-41.6	20.8	0.00e+00	0	42	0	1030750208	51	4094
2026-01-05 05:34:07.46	342.34	19.07	-40.3	-41.3	21.2	0.00e+00	0	42	0	1050673152	51	3920
2026-01-05 05:34:10.75	341.68	19.31	-40.4	-41.3	21.2	0.00e+00	0	42	0	1074790400	51	3916
2026-01-05 05:34:13.47	341.13	19.50	-40.4	-41.3	21.1	0.00e+00	0	42	0	1093664768	51	3943
2026-01-05 05:34:16.76	340.46	19.74	-40.5	-41.4	21.0	0.00e+00	0	42	0	1117782016	51	3998
2026-01-05 05:34:19.58	339.87	19.94	-40.6	-41.5	20.9	0.00e+00	0	42	0	1138753536	51	4027
2026-01-05 05:34:22.73	339.21	20.16	-40.4	-41.3	21.1	0.00e+00	0	42	0	1160773632	51	3955
2026-01-05 05:34:25.60	338.59	20.36	-40.2	-41.1	21.3	0.00e+00	0	42	0	1181745152	51	3833
2026-01-05 05:34:28.93	337.87	20.59	-40.2	-41.1	21.2	0.00e+00	0	42	0	1205862400	50	4094
2026-01-05 05:34:31.64	337.27	20.77	-40.1	-41.1	21.2	0.00e+00	0	42	0	1225785344	50	4069
2026-01-05 05:34:35.27	336.46	21.02	-40.2	-41.1	21.2	0.00e+00	0	42	0	1251999744	50	4080
2026-01-05 05:34:38.01	335.84	21.20	-40.1	-41.1	21.2	0.00e+00	0	42	0	1270874112	50	4054
2026-01-05 05:34:41.83	334.97	21.45	-40.0	-41.0	21.3	0.00e+00	0	42	0	1299185664	50	4016
2026-01-05 05:34:44.58	334.33	21.62	-39.9	-40.8	21.4	0.00e+00	0	42	0	1319108608	50	3947
2026-01-05 05:34:48.08	333.50	21.85	-39.7	-40.6	21.7	0.00e+00	0	42	0	1344274432	50	3830
2026-01-05 05:34:51.16	332.77	22.04	-39.3	-40.1	22.0	0.00e+00	0	42	0	1366294528	49	3866
2026-01-05 05:34:54.07	332.06	22.21	-39.4	-40.3	21.9	0.00e+00	0	42	0	1387266048	49	3931
2026-01-05 05:34:57.08	331.33	22.39	-39.6	-40.5	21.7	0.00e+00	0	42	0	1409286144	49	4018
2026-01-05 05:35:00.21	330.55	22.57	-39.9	-40.8	21.4	0.00e+00	0	42	0	1431306240	49	4158
2026-01-05 05:35:03.51	329.72	22.76	-40.0	-40.9	21.3	0.00e+00	0	42	0	1455423488	49	4209
2026-01-05 05:35:06.23	329.03	22.91	-39.8	-40.7	21.5	0.00e+00	0	42	0	1475346432	49	4119
2026-01-05 05:35:09.68	328.15	23.10	-39.5	-40.4	21.8	0.00e+00	0	42	0	1500512256	49	3976
2026-01-05 05:35:12.70	327.37	23.25	-39.6	-40.5	21.7	0.00e+00	0	42	0	1521483776	49	4045
2026-01-05 05:35:16.00	326.50	23.42	-39.7	-40.6	21.6	0.00e+00	0	42	0	1545601024	49	4074
2026-01-05 05:35:18.73	325.78	23.55	-39.3	-40.2	21.9	0.00e+00	0	42	0	1565523968	49	3896
2026-01-05 05:35:22.02	324.90	23.71	-39.2	-40.1	22.0	0.00e+00	0	42	0	1588592640	49	3848
2026-01-05 05:35:24.96	324.11	23.84	-39.2	-40.1	22.0	0.00e+00	0	42	0	1610612736	49	3844
2026-01-05 05:35:28.25	323.22	23.98	-39.3	-40.1	22.0	0.00e+00	0	42	0	1633681408	49	3868
2026-01-05 05:35:30.97	322.47	24.10	-39.5	-40.4	21.7	0.00e+00	0	42	0	1653604352	49	4004
2026-01-05 05:35:34.26	321.57	24.22	-39.4	-40.3	21.8	0.00e+00	0	42	0	1677721600	49	3948
2026-01-05 05:35:37.10	320.78	24.33	-39.5	-40.4	21.7	0.00e+00	0	42	0	1697644544	49	3961
2026-01-05 05:35:40.25	319.89	24.44	-39.5	-40.4	21.7	0.00e+00	0	42	0	1720713216	49	3959
2026-01-05 05:35:43.11	319.09	24.54	-39.4	-40.3	21.8	0.00e+00	0	42	0	1741684736	49	3920
2026-01-05 05:35:46.26	318.19	24.63	-39.4	-40.3	21.8	0.00e+00	0	42	0	1763704832	49	3933
2026-01-05 05:35:49.12	317.38	24.72	-39.3	-40.2	21.9	0.00e+00	0	42	0	1784676352	49	3888
2026-01-05 05:35:52.26	316.47	24.80	-39.3	-40.2	21.9	0.00e+00	0	42	0	1807745024	49	3893
2026-01-05 05:35:55.55	315.52	24.88	-39.3	-40.1	21.9	0.00e+00	0	42	0	1830813696	49	3847
2026-01-05 05:35:58.26	314.74	24.94	-39.2	-40.1	21.9	0.00e+00	0	42	0	1850736640	49	3842
2026-01-05 05:36:01.57	313.78	25.00	-39.3	-40.2	21.9	0.00e+00	0	42	0	1874853888	49	3876
2026-01-05 05:36:04.58	312.90	25.05	-39.2	-40.1	21.9	0.00e+00	0	42	0	1896873984	49	3861
2026-01-05 05:36:07.59	312.01	25.10	-39.0	-39.9	22.1	0.00e+00	0	42	0	1917845504	48	3974
2026-01-05 05:36:11.01	311.01	25.14	-38.9	-39.8	22.2	0.00e+00	0	42	0	1943011328	48	3933
2026-01-05 05:36:13.73	310.21	25.16	-39.0	-39.9	22.1	0.00e+00	0	42	0	1962934272	48	3972
2026-01-05 05:36:17.07	309.22	25.19	-39.0	-39.8	22.1	0.00e+00	0	42	0	1986002944	48	3954
2026-01-05 05:36:19.86	308.40	25.20	-39.2	-40.1	21.9	0.00e+00	0	42	0	2006974464	48	4068
2026-01-05 05:36:23.10	307.44	25.20	-39.2	-40.1	21.9	0.00e+00	0	43	0	2030043136	48	4060
2026-01-05 05:36:26.12	306.55	25.20	-39.2	-40.0	21.9	0.00e+00	0	42	0	2052063232	48	4051
2026-01-05 05:36:29.08	305.68	25.19	-39.2	-40.1	21.9	0.00e+00	0	42	0	2073034752	48	4056
2026-01-05 05:36:32.36	304.71	25.17	-39.2	-40.0	21.9	0.00e+00	0	42	0	2097152000	48	4033
2026-01-05 05:36:35.32	303.83	25.15	-39.1	-39.9	22.0	0.00e+00	0	42	0	2118123520	48	3995
2026-01-05 05:36:38.61	302.87	25.11	-39.1	-40.0	22.0	0.00e+00	0	42	0	2142240768	48	4005
2026-01-05 05:36:41.33	302.07	25.07	-39.1	-40.0	22.0	0.00e+00	0	42	0	2162163712	48	4005
2026-01-05 05:36:44.62	301.10	25.02	-39.2	-40.0	21.9	0.00e+00	0	42	0	2185232384	48	4033
2026-01-05 05:36:47.60	300.23	24.97	-38.9	-39.7	22.2	0.00e+00	0	42	0	2207252480	48	3887
2026-01-05 05:36:50.70	299.33	24.90	-38.9	-39.7	22.1	0.00e+00	0	42	0	2229272576	48	3904
2026-01-05 05:36:53.99	298.38	24.83	-39.0	-39.8	22.1	0.00e+00	0	42	0	2253389824	48	3943
2026-01-05 05:36:56.71	297.60	24.76	-38.8	-39.7	22.2	0.00e+00	0	42	0	2272264192	48	3877
2026-01-05 05:37:00.07	296.63	24.66	-38.8	-39.6	22.3	0.00e+00	0	43	0	2296381440	48	3843
2026-01-05 05:37:02.86	295.84	24.58	-38.9	-39.7	22.1	0.00e+00	0	42	0	2317352960	48	3910
2026-01-05 05:37:06.07	294.93	24.47	-39.2	-40.1	21.8	0.00e+00	0	42	0	2340421632	48	4059
2026-01-05 05:37:09.22	294.04	24.36	-38.9	-39.7	22.1	0.00e+00	0	42	0	2362441728	48	3887
2026-01-05 05:37:12.17	293.22	24.26	-38.9	-39.8	22.1	0.00e+00	0	42	0	2384461824	48	3916
2026-01-05 05:37:15.45	292.31	24.13	-39.0	-39.9	22.0	0.00e+00	0	42	0	2407530496	48	3969
2026-01-05 05:37:18.38	291.50	24.01	-39.0	-39.8	22.0	0.00e+00	0	42	0	2429550592	48	3944
2026-01-05 05:37:21.83	290.56	23.86	-39.0	-39.8	22.0	0.00e+00	0	43	0	2453667840	48	3944
2026-01-05 05:37:24.56	289.82	23.74	-39.1	-39.9	21.9	0.00e+00	0	42	0	2473590784	48	3995
2026-01-05 05:37:27.84	288.94	23.58	-39.1	-39.9	21.9	0.00e+00	0	42	0	2497708032	48	3990
2026-01-05 05:37:30.56	288.22	23.45	-38.9	-39.8	22.0	0.00e+00	0	42	0	2516582400	48	3928
2026-01-05 05:37:33.85	287.35	23.29	-38.9	-39.8	22.0	0.00e+00	0	42	0	2540699648	48	3929
2026-01-05 05:37:36.58	286.64	23.15	-39.0	-39.8	21.9	0.00e+00	0	42	0	2560622592	48	3951
2026-01-05 05:37:39.86	285.80	22.97	-38.8	-39.6	22.1	0.00e+00	0	42	0	2583691264	48	3850
2026-01-05 05:37:42.59	285.10	22.82	-39.0	-39.8	21.9	0.00e+00	0	42	0	2603614208	48	3947
2026-01-05 05:37:45.87	284.27	22.64	-39.1	-40.0	21.8	0.00e+00	0	43	0	2627731456	48	4027
2026-01-05 05:37:48.60	283.59	22.48	-39.2	-40.1	21.7	0.00e+00	0	42	0	2647654400	48	4071
2026-01-05 05:37:51.89	282.78	22.28	-38.8	-39.6	22.0	0.00e+00	0	42	0	2670723072	48	3868
2026-01-05 05:37:54.61	282.11	22.12	-38.8	-39.7	22.0	0.00e+00	0	42	0	2690646016	48	3889
2026-01-05 05:37:58.13	281.26	21.90	-39.0	-39.8	21.9	0.00e+00	0	43	0	2715811840	48	3949
2026-01-05 05:38:00.87	280.61	21.73	-39.1	-39.9	21.8	0.00e+00	0	42	0	2735734784	48	3997
2026-01-05 05:38:04.17	279.83	21.52	-39.0	-39.9	21.8	0.00e+00	0	42	0	2759852032	48	3959
2026-01-05 05:38:06.96	279.19	21.34	-39.1	-40.0	21.7	0.00e+00	0	42	0	2779774976	48	4007
2026-01-05 05:38:10.13	278.46	21.13	-39.1	-39.9	21.8	0.00e+00	0	43	0	2802843648	48	4000
2026-01-05 05:38:12.99	277.81	20.94	-39.0	-39.9	21.8	0.00e+00	0	42	0	2823815168	48	3961
2026-01-05 05:38:16.14	277.11	20.73	-39.0	-39.9	21.8	0.00e+00	0	42	0	2845835264	48	3979
2026-01-05 05:38:19.12	276.45	20.52	-39.2	-40.1	21.7	0.00e+00	0	42	0	2867855360	48	4055
2026-01-05 05:38:22.51	275.71	20.29	-39.3	-40.2	21.6	0.00e+00	0	42	0	2891972608	48	4116
2026-01-05 05:38:25.23	275.13	20.10	-39.2	-40.1	21.6	0.00e+00	0	42	0	2911895552	48	4069
2026-01-05 05:38:28.79	274.38	19.84	-39.4	-40.3	21.5	0.00e+00	0	42	0	2937061376	48	4148
2026-01-05 05:38:31.51	273.81	19.65	-39.5	-40.4	21.3	0.00e+00	0	42	0	2956984320	48	4230
2026-01-05 05:38:34.81	273.14	19.41	-39.5	-40.4	21.4	0.00e+00	0	42	0	2981101568	48	4221
2026-01-05 05:38:37.53	272.59	19.22	-39.5	-40.4	21.3	0.00e+00	0	43	0	2999975936	48	4229
2026-01-05 05:38:40.82	271.93	18.98	-39.6	-40.5	21.3	0.00e+00	0	42	0	3024093184	48	4261
2026-01-05 05:38:43.54	271.40	18.78	-39.7	-40.6	21.3	0.00e+00	0	42	0	3044016128	48	4292
2026-01-05 05:38:46.84	270.76	18.53	-39.7	-40.5	21.3	0.00e+00	0	43	0	3068133376	49	4041
2026-01-05 05:38:49.56	270.24	18.33	-39.9	-40.8	21.1	0.00e+00	0	42	0	3087007744	49	4148
2026-01-05 05:38:53.19	269.56	18.06	-39.9	-40.8	21.1	0.00e+00	0	42	0	3113222144	49	4178
2026-01-05 05:38:56.12	269.02	17.84	-39.7	-40.6	21.2	0.00e+00	0	43	0	3134193664	49	4077
2026-01-05 05:38:59.87	268.33	17.56	-39.9	-40.8	21.1	0.00e+00	0	42	0	3161456640	49	4159
2026-01-05 05:39:02.61	267.84	17.36	-40.3	-41.2	20.7	0.00e+00	0	43	0	3181379584	49	4354
2026-01-05 05:39:06.43	267.17	17.07	-40.4	-41.3	20.7	0.00e+00	0	43	0	3208642560	50	4156
2026-01-05 05:39:09.23	266.69	16.86	-40.4	-41.3	20.6	0.00e+00	0	43	0	3229614080	50	4162
2026-01-05 05:39:12.99	266.05	16.58	-40.8	-41.7	20.3	0.00e+00	0	42	0	3256877056	50	4368
2026-01-05 05:39:15.77	265.58	16.37	-40.7	-41.6	20.3	0.00e+00	0	42	0	3276800000	51	4084
2026-01-05 05:39:19.06	265.04	16.12	-40.5	-41.5	20.5	0.00e+00	0	43	0	3299868672	51	4014
2026-01-05 05:39:21.79	264.60	15.91	-40.7	-41.6	20.3	0.00e+00	0	42	0	3319791616	51	4081
2026-01-05 05:39:25.08	264.07	15.66	-40.7	-41.7	20.3	0.00e+00	0	42	0	3343908864	51	4100
2026-01-05 05:39:27.80	263.64	15.46	-40.8	-41.8	20.2	0.00e+00	0	42	0	3362783232	51	4152
2026-01-05 05:39:31.10	263.13	15.21	-40.8	-41.8	20.2	0.00e+00	0	43	0	3386900480	51	4166
2026-01-05 05:39:34.12	262.67	14.98	-40.9	-41.9	20.1	0.00e+00	0	43	0	3408920576	51	4197
2026-01-05 05:39:37.95	262.10	14.69	-41.1	-42.1	19.9	0.00e+00	0	43	0	3436183552	51	4308
2026-01-05 05:39:40.74	261.68	14.48	-41.2	-42.1	19.8	0.00e+00	0	42	0	3457155072	52	4096
2026-01-05 05:39:44.25	261.18	14.22	-41.3	-42.3	19.7	0.00e+00	0	43	0	3482320896	52	4146
2026-01-05 05:39:47.25	260.75	13.99	-41.1	-42.2	19.8	0.00e+00	0	43	0	3503292416	52	4102
2026-01-05 05:39:50.75	260.26	13.73	-41.2	-42.2	19.8	0.00e+00	0	42	0	3528458240	52	4110
2026-01-05 05:39:53.47	259.88	13.53	-41.2	-42.2	19.7	0.00e+00	0	43	0	3548381184	52	4138
2026-01-05 05:39:56.76	259.43	13.29	-41.3	-42.4	19.6	0.00e+00	0	43	0	3572498432	52	4198
2026-01-05 05:39:59.58	259.06	13.08	-41.6	-42.6	19.3	0.00e+00	0	42	0	3592421376	52	4306
2026-01-05 05:40:02.85	258.63	12.84	-41.7	-42.7	19.2	0.00e+00	0	42	0	3616538624	52	4369
2026-01-05 05:40:05.86	258.24	12.61	-42.0	-43.1	18.9	0.00e+00	0	43	0	3637510144	53	4315
2026-01-05 05:40:08.86	257.85	12.39	-41.9	-42.9	19.0	0.00e+00	0	42	0	3659530240	53	4221
2026-01-05 05:40:11.87	257.47	12.17	-41.6	-42.6	19.3	0.00e+00	0	43	0	3681550336	53	4082
2026-01-05 05:40:14.95	257.09	11.95	-41.7	-42.7	19.2	0.00e+00	0	42	0	3703570432	53	4136
2026-01-05 05:40:17.85	256.74	11.74	-41.7	-42.8	19.2	0.00e+00	0	42	0	3724541952	53	4147
2026-01-05 05:40:21.00	256.36	11.51	-42.2	-43.3	18.7	0.00e+00	0	43	0	3747610624	53	4399
2026-01-05 05:40:23.86	256.02	11.30	-42.2	-43.3	18.6	0.00e+00	0	43	0	3767533568	54	4179
2026-01-05 05:40:27.11	255.64	11.07	-42.0	-43.1	18.9	0.00e+00	0	43	0	3791650816	54	4068
2026-01-05 05:40:29.97	255.31	10.87	-42.0	-43.1	18.8	0.00e+00	0	43	0	3811573760	54	4068
2026-01-05 05:40:33.12	254.96	10.64	-41.9	-43.0	18.9	0.00e+00	0	43	0	3834642432	54	4020
2026-01-05 05:40:35.99	254.64	10.44	-41.9	-42.9	19.0	0.00e+00	0	42	0	3855613952	54	3997
2026-01-05 05:40:39.14	254.29	10.22	-41.9	-43.0	18.9	0.00e+00	0	42	0	3878682624	54	4014
2026-01-05 05:40:42.00	253.98	10.02	-42.1	-43.1	18.8	0.00e+00	0	43	0	3898605568	54	4091
2026-01-05 05:40:45.16	253.64	9.79	-42.1	-43.2	18.8	0.00e+00	0	42	0	3921674240	54	4107
2026-01-05 05:40:48.12	253.33	9.59	-42.1	-43.2	18.8	0.00e+00	0	42	0	3942645760	54	4111
2026-01-05 05:40:51.51	252.98	9.35	-42.4	-43.5	18.5	0.00e+00	0	43	0	3967811584	54	4274
2026-01-05 05:40:54.23	252.70	9.17	-42.7	-43.9	18.1	0.00e+00	0	42	0	3987734528	54	4455
2026-01-05 05:40:57.54	252.37	8.94	-52.2	-63.5	3.8	8.46e-01	0	43	104	4005560320	74	13517
2026-01-05 05:41:00.27	252.10	8.75	-53.1	-64.0	3.8	8.45e-01	0	43	104	4005560320	75	13478
2026-01-05 05:41:03.58	251.78	8.53	-53.1	-64.2	3.8	8.46e-01	0	43	104	4005560320	76	13035
2026-01-05 05:41:06.40	251.51	8.33	-53.4	-64.2	3.8	8.46e-01	0	42	104	4005560320	76	13031
2026-01-05 05:41:09.81	251.18	8.10	-53.3	-64.2	3.8	8.47e-01	0	43	104	4005560320	76	13006
2026-01-05 05:41:12.54	250.93	7.92	-53.4	-64.2	3.8	8.47e-01	0	43	104	4005560320	76	13075
2026-01-05 05:41:15.84	250.62	7.70	-53.4	-64.2	3.8	8.47e-01	0	43	104	4005560320	76	13075
2026-01-05 05:41:18.56	250.38	7.52	-53.2	-64.2	3.8	8.47e-01	0	43	104	4005560320	76	12975
2026-01-05 05:41:21.86	250.08	7.30	-53.2	-64.2	3.8	8.48e-01	0	43	104	4005560320	76	13014
2026-01-05 05:41:24.59	249.84	7.12	-53.2	-64.3	3.8	8.47e-01	0	43	104	4005560320	76	13216
2026-01-05 05:41:27.89	249.55	6.91	-53.2	-64.3	3.8	8.46e-01	0	43	104	4005560320	76	13135
2026-01-05 05:41:30.62	249.32	6.73	-53.2	-64.2	3.8	8.47e-01	0	43	104	4005560320	76	13059
2026-01-05 05:41:33.92	249.04	6.51	-53.2	-64.3	3.8	8.47e-01	0	43	104	4005560320	76	13167
2026-01-05 05:41:36.64	248.81	6.34	-53.3	-64.2	3.8	8.46e-01	0	43	104	4005560320	76	13105
2026-01-05 05:41:39.94	248.54	6.13	-53.3	-64.3	3.8	8.47e-01	0	43	104	4005560320	76	13201
2026-01-05 05:41:42.67	248.32	5.95	-53.3	-64.3	3.8	8.47e-01	0	43	104	4005560320	76	13239
2026-01-05 05:41:45.97	248.05	5.74	-53.3	-64.3	3.8	8.47e-01	0	43	104	4005560320	76	13247
2026-01-05 05:41:48.69	247.84	5.57	-53.3	-64.4	3.8	8.46e-01	0	43	104	4005560320	76	13330
2026-01-05 05:41:51.99	247.58	5.36	-53.4	-64.4	3.8	8.46e-01	0	43	104	4005560320	76	13314
2026-01-05 05:41:54.72	247.37	5.19	-53.4	-64.5	3.8	8.47e-01	0	43	104	4005560320	76	13428
2026-01-05 05:41:58.02	247.12	4.98	-53.4	-64.4	3.8	8.46e-01	0	43	104	4005560320	76	13400

#Closed at: 2026-01-05 05:41:58
#Recorded file [4005 MB]: D:/Data/31040_260105_083050.dat