passes_logs/2026/01/05/T1/T1__20260105_093346_NOAA_20_JPSS-1_rec.log

#Pass ID: 20260105_093346_NOAA 20 (JPSS-1)
#Satellite: NOAA 20 (JPSS-1)
#Configuration: NOAA 20
#almurnet v.1.7.20251203
#Start time: 2026-01-05 09:33:47

#Version: 2.0.20230620
#Station: T1
#Location: 37.570604 lon 55.790049 lat
#TLE: 1 43013U 17073A   26004.47528369  .00000132  00000+0  83671-4 0  9999
#TLE: 2 43013  98.7626 305.5264 0001854  54.5883 305.5466 14.19533142421242

#Time	Az	El	Level	Level2	SNR	BER	BlckErr	Temp	State	Recorded	gain1	gain2
2026-01-05 09:33:47.09	148.88	5.04	-49.9	-65.1	3.8	1.49e+00	0	39	0	0	71	20669
2026-01-05 09:33:51.10	148.81	5.33	-49.9	-65.1	3.8	1.49e+00	0	39	104	0	71	20696
2026-01-05 09:33:55.12	148.73	5.62	-49.9	-65.2	3.8	1.49e+00	0	39	104	0	71	20992
2026-01-05 09:33:59.14	148.66	5.92	-49.8	-64.5	3.8	1.49e+00	0	39	104	0	71	19278
2026-01-05 09:34:03.15	148.58	6.22	-49.8	-63.9	3.8	1.49e+00	0	40	104	0	71	18065
2026-01-05 09:34:07.17	148.50	6.52	-49.8	-64.6	3.8	1.49e+00	0	40	104	0	71	19550
2026-01-05 09:34:11.19	148.41	6.82	-49.8	-64.6	3.8	1.49e+00	0	40	104	0	71	19484
2026-01-05 09:34:15.20	148.33	7.13	-49.7	-62.2	4.1	1.48e+00	0	40	0	0	71	14798
2026-01-05 09:34:19.22	148.24	7.44	-49.4	-59.3	5.2	6.79e-01	0	40	0	4194304	70	11193
2026-01-05 09:34:23.24	148.15	7.76	-48.6	-55.6	8.3	7.55e-02	0	40	0	11534336	69	7754
2026-01-05 09:34:27.25	148.06	8.08	-47.5	-52.6	11.2	2.10e-03	0	40	0	18874368	66	6518
2026-01-05 09:34:31.27	147.97	8.40	-47.4	-52.4	11.5	7.36e-04	0	41	0	26214400	66	6385
2026-01-05 09:34:35.29	147.87	8.73	-48.2	-54.6	9.2	1.62e-02	0	41	0	34603008	67	7751
2026-01-05 09:34:39.31	147.78	9.07	-49.4	-59.4	5.2	5.43e-01	0	41	0	41943040	69	11988
2026-01-05 09:34:43.32	147.68	9.40	-47.1	-51.7	12.5	8.30e-06	0	41	0	49283072	64	6609
2026-01-05 09:34:47.32	147.57	9.74	-45.6	-48.9	15.2	0.00e+00	0	41	0	53477376	63	5089
2026-01-05 09:34:51.34	147.47	10.09	-45.5	-48.7	15.5	0.00e+00	0	41	0	60817408	62	5268
2026-01-05 09:34:55.34	147.36	10.44	-44.2	-47.0	17.2	0.00e+00	0	41	0	69206016	60	4815
2026-01-05 09:34:59.56	147.24	10.81	-43.6	-46.2	17.9	0.00e+00	0	41	0	76546048	59	4670
2026-01-05 09:35:03.57	147.13	11.17	-43.8	-46.3	17.7	0.00e+00	0	41	0	83886080	59	4743
2026-01-05 09:35:07.58	147.01	11.54	-43.8	-46.3	17.8	0.00e+00	0	41	0	91226112	59	4735
2026-01-05 09:35:11.69	146.89	11.92	-43.8	-46.4	17.8	0.00e+00	0	41	0	99614720	59	4775
2026-01-05 09:35:15.70	146.76	12.30	-43.6	-46.1	18.0	0.00e+00	0	41	0	106954752	59	4647
2026-01-05 09:35:19.71	146.63	12.68	-43.5	-46.0	18.1	0.00e+00	0	41	0	114294784	59	4596
2026-01-05 09:35:23.81	146.50	13.08	-43.5	-46.0	18.1	0.00e+00	0	41	0	121634816	58	4841
2026-01-05 09:35:27.82	146.36	13.47	-43.4	-45.9	18.3	0.00e+00	0	41	0	130023424	58	4805
2026-01-05 09:35:31.84	146.22	13.88	-43.4	-45.9	18.3	0.00e+00	0	41	0	137363456	58	4792
2026-01-05 09:35:35.83	146.08	14.28	-43.4	-45.9	18.3	0.00e+00	0	41	0	144703488	58	4773
2026-01-05 09:35:40.29	145.92	14.74	-43.4	-45.9	18.3	0.00e+00	0	41	0	153092096	58	4769
2026-01-05 09:35:44.33	145.76	15.17	-43.4	-45.8	18.4	0.00e+00	0	41	0	160432128	58	4711
2026-01-05 09:35:48.34	145.61	15.60	-43.4	-45.8	18.4	0.00e+00	0	42	0	167772160	58	4748
2026-01-05 09:35:52.35	145.44	16.04	-43.4	-45.9	18.3	0.00e+00	0	41	0	176160768	58	4778
2026-01-05 09:35:56.43	145.27	16.49	-43.4	-45.9	18.4	0.00e+00	0	42	0	183500800	58	4764
2026-01-05 09:36:00.41	145.10	16.94	-43.5	-45.9	18.3	0.00e+00	0	42	0	190840832	58	4794
2026-01-05 09:36:04.41	144.92	17.40	-43.4	-45.9	18.4	0.00e+00	0	42	0	198180864	58	4760
2026-01-05 09:36:08.43	144.74	17.87	-43.4	-45.9	18.3	0.00e+00	0	42	0	205520896	58	4776
2026-01-05 09:36:12.44	144.55	18.35	-43.1	-45.5	18.7	0.00e+00	0	42	0	212860928	58	4568
2026-01-05 09:36:16.88	144.33	18.89	-43.3	-45.7	18.5	0.00e+00	0	42	0	221249536	58	4681
2026-01-05 09:36:20.82	144.13	19.38	-43.3	-45.8	18.5	0.00e+00	0	41	0	228589568	58	4739
2026-01-05 09:36:24.83	143.91	19.89	-43.3	-45.7	18.6	0.00e+00	0	41	0	236978176	58	4662
2026-01-05 09:36:28.83	143.69	20.41	-43.2	-45.6	18.7	0.00e+00	0	42	0	244318208	58	4615
2026-01-05 09:36:32.85	143.47	20.94	-43.3	-45.6	18.6	0.00e+00	0	42	0	251658240	58	4640
2026-01-05 09:36:36.90	143.23	21.48	-43.1	-45.4	18.9	0.00e+00	0	42	0	258998272	58	4518
2026-01-05 09:36:40.89	142.98	22.03	-43.0	-45.3	19.0	0.00e+00	0	42	0	266338304	57	4747
2026-01-05 09:36:44.90	142.73	22.60	-43.2	-45.5	18.8	0.00e+00	0	42	0	274726912	57	4869
2026-01-05 09:36:48.91	142.47	23.17	-43.4	-45.8	18.5	0.00e+00	0	42	0	282066944	57	5019
2026-01-05 09:36:52.98	142.19	23.77	-43.4	-45.9	18.5	0.00e+00	0	42	0	289406976	57	5050
2026-01-05 09:36:57.00	141.90	24.37	-43.6	-46.1	18.3	0.00e+00	0	42	0	296747008	58	4901
2026-01-05 09:37:01.01	141.60	24.98	-43.9	-46.4	18.0	0.00e+00	0	42	0	304087040	58	5044
2026-01-05 09:37:05.02	141.29	25.61	-44.1	-46.7	17.8	0.00e+00	0	42	0	311427072	58	5219
2026-01-05 09:37:09.02	140.97	26.25	-44.5	-47.2	17.2	0.00e+00	0	42	0	319815680	59	5267
2026-01-05 09:37:13.03	140.64	26.90	-45.0	-47.8	16.7	0.00e+00	0	42	0	327155712	60	5340
2026-01-05 09:37:17.05	140.28	27.57	-45.2	-48.1	16.4	0.00e+00	0	42	0	334495744	61	5185
2026-01-05 09:37:21.17	139.91	28.28	-45.5	-48.5	16.1	0.00e+00	0	42	0	341835776	61	5433
2026-01-05 09:37:25.18	139.52	28.98	-45.7	-48.8	15.8	0.00e+00	0	42	0	349175808	62	5309
2026-01-05 09:37:29.19	139.12	29.70	-46.1	-49.3	15.2	0.00e+00	0	42	0	357564416	62	5656
2026-01-05 09:37:33.20	138.70	30.44	-46.0	-49.3	15.3	0.00e+00	0	42	0	364904448	63	5309
2026-01-05 09:37:37.33	138.25	31.21	-46.1	-49.5	15.1	7.00e-07	0	42	0	372244480	63	5413
2026-01-05 09:37:41.34	137.78	31.98	-46.5	-50.1	14.5	0.00e+00	0	42	0	379584512	63	5834
2026-01-05 09:37:45.36	137.29	32.78	-46.3	-49.8	14.7	0.00e+00	0	42	0	387973120	64	5303
2026-01-05 09:37:49.55	136.76	33.62	-46.3	-49.8	14.7	0.00e+00	0	42	0	395313152	64	5325
2026-01-05 09:37:53.56	136.22	34.45	-46.3	-49.8	14.8	7.00e-07	0	42	0	402653184	64	5306
2026-01-05 09:37:57.57	135.65	35.30	-46.5	-50.2	14.3	2.20e-06	0	42	0	409993216	64	5592
2026-01-05 09:38:01.57	135.05	36.16	-46.4	-49.9	14.6	0.00e+00	0	42	0	418381824	64	5402
2026-01-05 09:38:05.62	134.41	37.06	-46.2	-49.6	15.0	0.00e+00	0	42	0	425721856	64	5186
2026-01-05 09:38:09.74	133.72	37.99	-45.9	-49.0	15.7	0.00e+00	0	42	0	433061888	63	5149
2026-01-05 09:38:13.75	133.01	38.92	-45.6	-48.7	15.9	0.00e+00	0	42	0	440401920	63	4943
2026-01-05 09:38:17.76	132.26	39.87	-45.6	-48.6	16.1	0.00e+00	0	42	0	448790528	63	4925
2026-01-05 09:38:21.77	131.46	40.83	-45.8	-49.0	15.7	0.00e+00	0	42	0	456130560	62	5434
2026-01-05 09:38:25.78	130.61	41.82	-46.0	-49.2	15.4	0.00e+00	0	42	0	463470592	62	5560
2026-01-05 09:38:29.79	129.70	42.83	-45.6	-48.7	16.0	0.00e+00	0	42	0	470810624	62	5223
2026-01-05 09:38:33.73	128.75	43.84	-45.6	-48.7	16.0	7.00e-07	0	42	0	478150656	62	5231
2026-01-05 09:38:37.74	127.72	44.88	-44.7	-47.4	17.2	0.00e+00	0	42	0	485490688	61	4780
2026-01-05 09:38:41.76	126.62	45.94	-44.9	-47.6	17.0	0.00e+00	0	42	0	492830720	61	4907
2026-01-05 09:38:45.94	125.39	47.07	-45.3	-48.2	16.4	0.00e+00	0	42	0	501219328	61	5271
2026-01-05 09:38:50.13	124.06	48.21	-45.0	-47.8	16.8	0.00e+00	0	42	0	508559360	61	5004
2026-01-05 09:38:54.14	122.70	49.31	-44.7	-47.4	17.1	0.00e+00	0	42	0	516947968	61	4812
2026-01-05 09:38:58.26	121.19	50.45	-44.6	-47.3	17.3	0.00e+00	0	42	0	524288000	60	4988
2026-01-05 09:39:02.28	119.60	51.56	-44.3	-46.8	17.7	0.00e+00	0	42	0	531628032	60	4741
2026-01-05 09:39:06.34	117.87	52.70	-43.9	-46.3	18.3	0.00e+00	0	42	0	538968064	59	4729
2026-01-05 09:39:10.35	116.02	53.81	-43.5	-45.8	18.6	0.00e+00	0	42	0	547356672	58	4744
2026-01-05 09:39:14.36	114.03	54.91	-43.7	-46.2	18.3	0.00e+00	0	42	0	554696704	58	4935
2026-01-05 09:39:18.36	111.88	56.00	-44.0	-46.5	18.0	0.00e+00	0	42	0	562036736	58	5118
2026-01-05 09:39:22.36	109.56	57.06	-45.3	-48.4	16.3	0.00e+00	0	42	0	569376768	61	5375
2026-01-05 09:39:26.37	107.04	58.10	-45.7	-48.7	16.0	0.00e+00	0	42	0	576716800	62	5279
2026-01-05 09:39:30.40	104.32	59.11	-45.2	-48.0	16.7	0.00e+00	0	42	0	584056832	62	4846
2026-01-05 09:39:34.48	101.34	60.07	-44.8	-47.6	17.1	0.00e+00	0	42	0	592445440	61	4894
2026-01-05 09:39:38.50	98.19	60.97	-43.5	-45.9	18.5	0.00e+00	0	42	0	599785472	59	4528
2026-01-05 09:39:42.60	94.74	61.80	-42.6	-44.8	19.6	0.00e+00	0	42	0	607125504	57	4484
2026-01-05 09:39:46.61	91.15	62.54	-42.3	-44.4	20.0	0.00e+00	0	42	0	614465536	56	4523
2026-01-05 09:39:50.61	87.35	63.18	-42.6	-44.9	19.5	0.00e+00	0	42	0	622854144	56	4781
2026-01-05 09:39:54.71	83.26	63.73	-42.4	-44.6	19.8	0.00e+00	0	42	0	630194176	56	4624
2026-01-05 09:39:58.81	79.00	64.15	-42.4	-44.6	19.8	0.00e+00	0	42	0	637534208	56	4621
2026-01-05 09:40:02.82	74.70	64.44	-42.3	-44.4	20.1	0.00e+00	0	42	0	644874240	56	4516
2026-01-05 09:40:06.99	70.13	64.60	-42.1	-44.2	20.2	0.00e+00	0	42	0	653262848	56	4400
2026-01-05 09:40:11.26	65.43	64.62	-41.9	-44.0	20.3	0.00e+00	0	42	0	660602880	55	4566
2026-01-05 09:40:15.26	61.04	64.49	-43.2	-45.5	19.0	0.00e+00	0	42	0	668991488	57	4852
2026-01-05 09:40:19.28	56.71	64.23	-43.4	-45.8	18.8	0.00e+00	0	42	0	676331520	57	4987
2026-01-05 09:40:23.28	52.52	63.84	-43.0	-45.3	19.2	0.00e+00	0	42	0	683671552	57	4724
2026-01-05 09:40:27.30	48.46	63.34	-42.2	-44.3	20.2	0.00e+00	0	42	0	691011584	56	4455
2026-01-05 09:40:31.31	44.61	62.72	-41.8	-43.9	20.3	0.00e+00	0	42	0	698351616	54	4805
2026-01-05 09:40:35.66	40.66	61.95	-43.0	-45.2	19.3	0.00e+00	0	42	0	706740224	56	4951
2026-01-05 09:40:39.69	37.23	61.14	-44.3	-46.8	17.8	0.00e+00	0	42	0	714080256	59	5029
2026-01-05 09:40:43.70	34.05	60.27	-46.1	-49.3	15.5	0.00e+00	0	42	0	722468864	62	5609
2026-01-05 09:40:47.71	31.08	59.33	-46.4	-49.8	15.0	0.00e+00	0	42	0	729808896	63	5596
2026-01-05 09:40:51.72	28.32	58.35	-47.1	-51.0	13.5	1.14e-05	0	42	0	737148928	65	5782
2026-01-05 09:40:55.74	25.76	57.32	-46.1	-49.4	15.3	0.00e+00	0	42	0	744488960	64	5044
2026-01-05 09:40:59.75	23.40	56.26	-45.2	-48.1	16.7	0.00e+00	0	42	0	751828992	62	4890
2026-01-05 09:41:04.10	21.04	55.08	-43.8	-46.3	18.3	0.00e+00	0	42	0	760217600	59	4718
2026-01-05 09:41:08.11	19.03	53.98	-44.4	-47.1	17.5	0.00e+00	0	42	0	767557632	59	5179
2026-01-05 09:41:12.13	17.16	52.87	-44.8	-47.6	17.2	0.00e+00	0	42	0	774897664	60	5202
2026-01-05 09:41:16.46	15.30	51.67	-45.1	-47.9	16.9	0.00e+00	0	42	0	783286272	61	5053
2026-01-05 09:41:20.47	13.71	50.56	-45.4	-48.3	16.4	0.00e+00	0	42	0	790626304	61	5322
2026-01-05 09:41:24.48	12.24	49.46	-46.1	-49.5	15.3	0.00e+00	0	42	0	797966336	63	5437
2026-01-05 09:41:28.48	10.87	48.36	-45.3	-48.2	16.6	0.00e+00	0	42	0	806354944	62	4935
2026-01-05 09:41:32.50	9.59	47.27	-45.7	-48.8	16.0	0.00e+00	0	42	0	813694976	62	5316
2026-01-05 09:41:36.51	8.40	46.20	-45.3	-48.2	16.6	0.00e+00	0	42	0	821035008	62	4927
2026-01-05 09:41:40.52	7.29	45.14	-45.9	-49.1	15.7	0.00e+00	0	42	0	828375040	62	5518
2026-01-05 09:41:44.64	6.22	44.07	-46.3	-49.7	15.1	0.00e+00	0	42	0	836763648	63	5554
2026-01-05 09:41:48.66	5.25	43.04	-46.2	-49.6	15.1	0.00e+00	0	42	0	844103680	63	5521
2026-01-05 09:41:52.67	4.33	42.03	-46.9	-50.8	13.9	7.00e-07	0	42	0	851443712	64	5969
2026-01-05 09:41:56.69	3.48	41.04	-47.5	-52.0	12.7	5.56e-05	0	42	0	858783744	65	6460
2026-01-05 09:42:00.77	2.66	40.06	-47.6	-52.0	12.7	6.63e-05	0	42	0	866123776	66	6077
2026-01-05 09:42:04.78	1.90	39.11	-47.3	-51.5	13.3	2.97e-05	0	42	0	873463808	66	5726
2026-01-05 09:42:08.80	1.19	38.18	-46.3	-49.7	14.9	0.00e+00	0	42	0	881852416	64	5277
2026-01-05 09:42:12.81	0.51	37.28	-46.2	-50.0	14.8	0.00e+00	0	42	0	889192448	63	5768
2026-01-05 09:42:16.85	359.87	36.38	-46.4	-49.9	14.9	0.00e+00	0	42	0	896532480	63	5688
2026-01-05 09:42:20.86	359.27	35.52	-46.3	-49.8	15.0	7.00e-07	0	42	0	903872512	63	5638
2026-01-05 09:42:24.92	358.69	34.66	-46.3	-49.7	15.0	0.00e+00	0	42	0	911212544	63	5583
2026-01-05 09:42:28.92	358.15	33.83	-46.1	-49.7	15.1	0.00e+00	0	42	0	919601152	63	5532
2026-01-05 09:42:32.93	357.64	33.03	-46.6	-50.4	14.3	0.00e+00	0	42	0	926941184	63	6039
2026-01-05 09:42:37.39	357.09	32.15	-47.0	-51.0	13.6	6.80e-06	0	42	0	935329792	64	6110
2026-01-05 09:42:41.93	356.57	31.28	-47.3	-51.4	13.2	2.05e-05	0	42	0	943718400	65	6033
2026-01-05 09:42:46.38	356.09	30.45	-47.5	-51.8	12.8	6.02e-05	0	42	0	952107008	65	6297
2026-01-05 09:42:50.71	355.64	29.66	-47.2	-51.3	13.3	1.90e-05	0	42	0	960495616	65	5971
2026-01-05 09:42:54.72	355.24	28.95	-47.2	-51.3	13.3	1.14e-05	0	42	0	967835648	65	5974
2026-01-05 09:42:58.73	354.86	28.25	-46.8	-50.9	13.8	9.10e-06	0	42	0	975175680	65	5665
2026-01-05 09:43:02.89	354.49	27.55	-47.1	-51.2	13.5	8.30e-06	0	42	0	982515712	65	5881
2026-01-05 09:43:06.90	354.15	26.88	-46.9	-51.1	13.5	7.60e-06	0	42	0	990904320	65	5794
2026-01-05 09:43:10.91	353.81	26.23	-46.6	-50.6	14.0	4.50e-06	0	42	0	998244352	65	5514
2026-01-05 09:43:14.94	353.50	25.59	-46.2	-49.7	14.9	0.00e+00	0	42	0	1005584384	64	5272
2026-01-05 09:43:19.15	353.18	24.94	-45.8	-49.0	15.6	0.00e+00	0	42	0	1012924416	63	5151
2026-01-05 09:43:23.17	352.89	24.33	-45.3	-48.7	16.0	0.00e+00	0	42	0	1021313024	62	5238
2026-01-05 09:43:27.14	352.61	23.74	-45.2	-48.7	16.0	0.00e+00	0	42	0	1028653056	62	5229
2026-01-05 09:43:31.15	352.34	23.16	-45.2	-48.3	16.4	0.00e+00	0	42	0	1035993088	62	4986
2026-01-05 09:43:35.15	352.08	22.59	-45.3	-48.4	16.3	0.00e+00	0	42	0	1043333120	62	5080
2026-01-05 09:43:39.13	351.83	22.04	-45.2	-48.3	16.3	0.00e+00	0	42	0	1050673152	62	5028
2026-01-05 09:43:43.20	351.59	21.49	-45.1	-48.2	16.5	0.00e+00	0	42	0	1058013184	62	4938
2026-01-05 09:43:47.26	351.36	20.94	-45.0	-47.9	16.7	0.00e+00	0	42	0	1066401792	61	5081
2026-01-05 09:43:51.27	351.13	20.42	-45.0	-47.9	16.7	0.00e+00	0	43	0	1073741824	61	5084
2026-01-05 09:43:55.28	350.92	19.91	-44.9	-47.9	16.7	0.00e+00	0	42	0	1081081856	61	5071
2026-01-05 09:43:59.29	350.71	19.40	-45.0	-48.3	16.3	0.00e+00	0	42	0	1088421888	61	5284
2026-01-05 09:44:03.30	350.51	18.91	-44.9	-48.4	16.3	0.00e+00	0	42	0	1095761920	61	5360
2026-01-05 09:44:07.51	350.31	18.40	-44.7	-48.4	16.2	0.00e+00	0	42	0	1104150528	61	5386
2026-01-05 09:44:11.52	350.12	17.92	-44.8	-48.5	16.1	0.00e+00	0	42	0	1111490560	61	5449
2026-01-05 09:44:15.55	349.94	17.45	-44.9	-48.5	16.1	0.00e+00	0	42	0	1118830592	61	5422
2026-01-05 09:44:19.56	349.77	16.99	-44.9	-48.3	16.2	0.00e+00	0	42	0	1126170624	61	5301
2026-01-05 09:44:23.57	349.60	16.54	-44.9	-48.3	16.1	0.00e+00	0	42	0	1134559232	61	5308
2026-01-05 09:44:27.58	349.44	16.10	-45.0	-48.5	16.0	0.00e+00	0	42	0	1141899264	61	5425
2026-01-05 09:44:31.59	349.28	15.67	-45.1	-48.5	16.0	0.00e+00	0	42	0	1149239296	61	5442
2026-01-05 09:44:35.60	349.12	15.24	-45.2	-48.6	15.9	0.00e+00	0	42	0	1156579328	61	5480
2026-01-05 09:44:39.68	348.97	14.81	-45.4	-48.8	15.7	0.00e+00	0	42	0	1163919360	61	5609
2026-01-05 09:44:43.69	348.83	14.40	-45.4	-49.1	15.3	0.00e+00	0	42	0	1172307968	61	5827
2026-01-05 09:44:47.88	348.68	13.98	-45.5	-49.4	15.1	0.00e+00	0	42	0	1179648000	61	6005
2026-01-05 09:44:52.00	348.54	13.57	-45.6	-49.4	15.0	0.00e+00	0	42	0	1188036608	62	5693
2026-01-05 09:44:56.01	348.41	13.17	-45.7	-49.2	15.2	0.00e+00	0	42	0	1195376640	62	5580
2026-01-05 09:45:00.07	348.28	12.78	-45.7	-49.4	15.0	0.00e+00	0	42	0	1202716672	62	5704
2026-01-05 09:45:04.71	348.14	12.34	-45.0	-49.3	15.1	0.00e+00	0	43	0	1211105280	62	5593
2026-01-05 09:45:09.04	348.01	11.94	-44.7	-49.3	15.0	0.00e+00	0	42	0	1219493888	61	5982
2026-01-05 09:45:13.49	347.89	11.53	-44.7	-49.4	14.9	7.00e-07	0	42	0	1227882496	61	6047
2026-01-05 09:45:17.50	347.77	11.17	-44.7	-49.9	14.5	0.00e+00	0	42	0	1235222528	61	6353
2026-01-05 09:45:21.51	347.66	10.81	-44.3	-49.6	14.8	0.00e+00	0	42	0	1242562560	60	6510
2026-01-05 09:45:25.75	347.55	10.44	-44.2	-49.6	14.7	0.00e+00	0	42	0	1250951168	60	6523
2026-01-05 09:45:30.11	347.44	10.06	-44.4	-49.6	14.7	0.00e+00	0	43	0	1259339776	60	6536
2026-01-05 09:45:34.12	347.34	9.72	-44.4	-49.7	14.6	0.00e+00	0	42	0	1266679808	60	6590
2026-01-05 09:45:38.25	347.24	9.37	-44.6	-49.7	14.5	0.00e+00	0	42	0	1274019840	60	6613
2026-01-05 09:45:42.27	347.14	9.04	-44.8	-49.8	14.4	1.50e-06	0	42	0	1281359872	60	6689
2026-01-05 09:45:46.28	347.05	8.71	-50.4	-65.9	3.8	1.49e+00	0	42	104	1283457024	71	22653
2026-01-05 09:45:50.25	346.96	8.39	-50.2	-66.0	3.8	1.49e+00	0	42	104	1283457024	71	23026
2026-01-05 09:45:54.50	346.87	8.05	-50.4	-66.1	3.8	1.49e+00	0	42	104	1283457024	72	21810
2026-01-05 09:45:58.58	346.78	7.72	-50.7	-66.1	3.8	1.49e+00	0	42	104	1283457024	72	21848
2026-01-05 09:46:02.59	346.70	7.41	-50.8	-66.1	3.8	1.49e+00	0	42	104	1283457024	72	21823
2026-01-05 09:46:06.59	346.62	7.10	-50.8	-66.0	3.8	1.49e+00	0	42	104	1283457024	72	21645
2026-01-05 09:46:10.61	346.54	6.80	-50.6	-66.1	3.8	1.49e+00	0	42	104	1283457024	72	21763
2026-01-05 09:46:14.63	346.47	6.50	-50.6	-66.0	3.8	1.49e+00	0	42	104	1283457024	72	21706
2026-01-05 09:46:18.65	346.39	6.20	-50.5	-66.0	3.8	1.49e+00	0	42	104	1283457024	72	21550
2026-01-05 09:46:22.66	346.32	5.90	-50.5	-66.0	3.8	1.49e+00	0	42	104	1283457024	72	21601
2026-01-05 09:46:26.68	346.25	5.61	-50.5	-66.0	3.8	1.49e+00	0	42	104	1283457024	72	21572
2026-01-05 09:46:30.69	346.18	5.32	-50.5	-66.0	3.8	1.49e+00	0	43	104	1283457024	72	21511
2026-01-05 09:46:34.71	346.11	5.04	-50.5	-66.0	3.8	1.49e+00	0	42	104	1283457024	72	21612

#Closed at: 2026-01-05 09:46:36
#Recorded file [1283 MB]: D:/Data/31040_260105_123347.dat