passes_logs/2026/01/05/T1/T1__20260105_111500_NOAA_20_JPSS-1_rec.log

#Pass ID: 20260105_111500_NOAA 20 (JPSS-1)
#Satellite: NOAA 20 (JPSS-1)
#Configuration: NOAA 20
#almurnet v.1.7.20251203
#Start time: 2026-01-05 11:14:59

#Version: 2.0.20230620
#Station: T1
#Location: 37.570604 lon 55.790049 lat
#TLE: 1 43013U 17073A   26004.47528369  .00000132  00000+0  83671-4 0  9999
#TLE: 2 43013  98.7626 305.5264 0001854  54.5883 305.5466 14.19533142421242

#Time	Az	El	Level	Level2	SNR	BER	BlckErr	Temp	State	Recorded	gain1	gain2
2026-01-05 11:14:59.78	203.25	4.99	-49.7	-65.2	3.8	1.49e+00	0	40	0	0	71	20912
2026-01-05 11:15:02.79	203.47	5.18	-49.7	-65.1	3.8	1.49e+00	0	41	104	0	71	20653
2026-01-05 11:15:05.80	203.70	5.37	-49.7	-65.1	3.8	1.49e+00	0	41	104	0	71	20740
2026-01-05 11:15:08.81	203.93	5.56	-49.7	-65.2	3.8	1.49e+00	0	41	104	0	71	20799
2026-01-05 11:15:11.82	204.17	5.75	-49.7	-65.1	3.8	1.49e+00	0	41	104	0	71	20749
2026-01-05 11:15:14.83	204.41	5.94	-49.7	-65.1	3.8	1.49e+00	0	42	104	0	71	20624
2026-01-05 11:15:17.85	204.65	6.14	-49.7	-64.8	3.8	1.49e+00	0	42	104	0	71	19983
2026-01-05 11:15:20.86	204.89	6.33	-49.7	-64.6	3.8	1.49e+00	0	42	104	0	71	19557
2026-01-05 11:15:23.87	205.14	6.53	-49.7	-64.6	3.8	1.49e+00	0	42	104	0	71	19548
2026-01-05 11:15:26.89	205.39	6.73	-49.6	-64.3	3.8	1.49e+00	0	42	104	0	71	18795
2026-01-05 11:15:29.90	205.64	6.92	-49.6	-64.0	3.8	1.49e+00	0	42	104	0	71	18251
2026-01-05 11:15:32.91	205.90	7.12	-49.7	-64.6	3.8	1.49e+00	0	42	104	0	71	19581
2026-01-05 11:15:35.92	206.16	7.33	-49.6	-64.2	3.8	1.49e+00	0	42	104	0	71	18724
2026-01-05 11:15:38.94	206.42	7.53	-49.6	-63.4	3.8	1.49e+00	0	42	104	0	71	17073
2026-01-05 11:15:41.95	206.69	7.73	-49.6	-64.7	3.8	1.49e+00	0	42	104	0	71	19621
2026-01-05 11:15:44.96	206.96	7.93	-48.6	-56.0	7.8	1.84e-01	0	42	0	2097152	69	8113
2026-01-05 11:15:47.97	207.23	8.14	-46.3	-50.5	13.3	5.49e-05	0	42	0	8388608	64	5738
2026-01-05 11:15:50.99	207.51	8.35	-45.3	-48.6	15.2	0.00e+00	0	43	0	13631488	62	5209
2026-01-05 11:15:54.00	207.79	8.55	-46.2	-50.1	13.8	5.30e-06	0	43	0	18874368	62	6185
2026-01-05 11:15:57.01	208.08	8.76	-47.8	-53.7	10.0	3.04e-03	0	43	0	25165824	66	7419
2026-01-05 11:16:00.02	208.37	8.97	-49.2	-59.1	5.2	3.96e-01	0	43	0	30408704	68	12355
2026-01-05 11:16:03.03	208.66	9.18	-49.6	-63.3	3.8	5.00e-01	0	43	104	35651584	69	18734
2026-01-05 11:16:06.04	208.96	9.39	-49.6	-63.4	3.8	1.49e+00	0	43	104	37748736	70	17945
2026-01-05 11:16:09.05	209.26	9.61	-49.3	-57.8	6.4	3.99e-01	0	43	0	40894464	70	9417
2026-01-05 11:16:12.06	209.57	9.82	-48.4	-54.7	9.5	1.08e-02	0	43	0	46137344	68	7391
2026-01-05 11:16:15.70	209.94	10.08	-49.3	-58.3	6.1	1.06e-01	0	43	0	50331648	69	10624
2026-01-05 11:16:18.54	210.24	10.28	-49.4	-59.1	5.4	5.99e-01	0	43	0	55574528	69	11633
2026-01-05 11:16:21.69	210.58	10.51	-49.7	-61.0	4.5	1.90e-01	0	43	0	58720256	69	14442
2026-01-05 11:16:24.55	210.88	10.72	-48.5	-54.5	9.7	1.16e-02	0	43	0	62914560	68	7221
2026-01-05 11:16:27.70	211.23	10.95	-48.4	-54.2	10.1	8.12e-03	0	43	0	69206016	68	7004
2026-01-05 11:16:30.57	211.55	11.16	-47.8	-53.0	11.1	5.18e-03	0	43	0	74448896	67	6475
2026-01-05 11:16:33.73	211.91	11.39	-46.1	-49.8	14.4	7.00e-07	0	43	0	79691776	64	5289
2026-01-05 11:16:36.59	212.23	11.61	-45.4	-48.6	15.8	0.00e+00	0	43	0	84934656	62	5178
2026-01-05 11:16:39.74	212.60	11.84	-45.4	-48.5	15.8	7.00e-07	0	43	0	91226112	62	5145
2026-01-05 11:16:42.79	212.96	12.07	-45.0	-47.9	16.4	0.00e+00	0	43	0	97517568	61	5085
2026-01-05 11:16:45.87	213.33	12.30	-44.8	-47.7	16.6	0.00e+00	0	43	0	102760448	61	4952
2026-01-05 11:16:48.86	213.69	12.53	-44.6	-47.4	16.9	0.00e+00	0	43	0	108003328	61	4801
2026-01-05 11:16:51.87	214.06	12.76	-44.7	-47.5	16.8	0.00e+00	0	43	0	114294784	61	4859
2026-01-05 11:16:54.87	214.44	12.99	-44.6	-47.3	17.0	0.00e+00	0	43	0	119537664	61	4728
2026-01-05 11:16:57.83	214.81	13.21	-44.5	-47.3	17.1	0.00e+00	0	43	0	124780544	61	4713
2026-01-05 11:17:00.98	215.22	13.46	-44.6	-47.4	17.0	0.00e+00	0	43	0	131072000	61	4777
2026-01-05 11:17:03.84	215.60	13.68	-44.4	-47.2	17.2	0.00e+00	0	43	0	136314880	60	4939
2026-01-05 11:17:06.99	216.01	13.92	-44.5	-47.2	17.1	0.00e+00	0	43	0	142606336	60	4975
2026-01-05 11:17:09.86	216.40	14.15	-44.6	-47.5	16.9	0.00e+00	0	43	0	147849216	60	5109
2026-01-05 11:17:13.01	216.83	14.40	-44.8	-47.7	16.8	0.00e+00	0	43	0	154140672	60	5229
2026-01-05 11:17:15.87	217.23	14.62	-44.7	-47.6	16.9	0.00e+00	0	43	0	159383552	60	5171
2026-01-05 11:17:19.03	217.68	14.87	-44.6	-47.4	17.0	0.00e+00	0	43	0	164626432	60	5063
2026-01-05 11:17:21.98	218.10	15.10	-44.6	-47.4	17.1	0.00e+00	0	43	0	170917888	60	5052
2026-01-05 11:17:25.13	218.56	15.36	-44.7	-47.4	17.0	0.00e+00	0	43	0	176160768	60	5085
2026-01-05 11:17:28.10	219.01	15.59	-44.7	-47.5	17.0	0.00e+00	0	44	0	182452224	60	5117
2026-01-05 11:17:31.49	219.52	15.86	-44.6	-47.4	17.1	0.00e+00	0	43	0	188743680	60	5058
2026-01-05 11:17:34.21	219.93	16.08	-44.5	-47.2	17.2	0.00e+00	0	43	0	192937984	60	4979
2026-01-05 11:17:37.82	220.50	16.37	-44.4	-47.1	17.3	0.00e+00	0	43	0	200278016	60	4888
2026-01-05 11:17:40.57	220.93	16.60	-44.2	-46.9	17.6	0.00e+00	0	43	0	205520896	60	4792
2026-01-05 11:17:44.21	221.52	16.89	-44.2	-46.8	17.7	0.00e+00	0	43	0	211812352	60	4711
2026-01-05 11:17:47.24	222.02	17.14	-44.0	-46.6	17.9	0.00e+00	0	43	0	218103808	60	4623
2026-01-05 11:17:50.79	222.61	17.42	-43.9	-46.5	17.9	0.00e+00	0	43	0	224395264	59	4819
2026-01-05 11:17:53.52	223.07	17.65	-44.0	-46.5	17.8	0.00e+00	0	43	0	229638144	59	4870
2026-01-05 11:17:56.82	223.64	17.91	-44.0	-46.5	17.9	0.00e+00	0	43	0	235929600	59	4816
2026-01-05 11:17:59.57	224.12	18.14	-43.9	-46.4	18.0	0.00e+00	0	43	0	241172480	59	4781
2026-01-05 11:18:02.85	224.70	18.41	-43.9	-46.4	18.0	0.00e+00	0	44	0	247463936	59	4806
2026-01-05 11:18:05.72	225.22	18.64	-43.9	-46.4	18.1	0.00e+00	0	43	0	252706816	59	4771
2026-01-05 11:18:08.87	225.80	18.90	-43.9	-46.4	18.0	0.00e+00	0	43	0	258998272	59	4799
2026-01-05 11:18:11.73	226.33	19.13	-43.6	-46.0	18.4	0.00e+00	0	44	0	264241152	59	4580
2026-01-05 11:18:15.11	226.97	19.40	-43.6	-46.0	18.4	0.00e+00	0	44	0	270532608	59	4556
2026-01-05 11:18:17.86	227.50	19.63	-43.5	-45.9	18.5	0.00e+00	0	43	0	275775488	59	4542
2026-01-05 11:18:21.11	228.14	19.89	-43.4	-45.8	18.6	0.00e+00	0	44	0	281018368	58	4728
2026-01-05 11:18:24.24	228.76	20.14	-43.4	-45.7	18.7	0.00e+00	0	44	0	287309824	58	4693
2026-01-05 11:18:27.49	229.42	20.41	-43.2	-45.6	18.8	0.00e+00	0	43	0	293601280	58	4611
2026-01-05 11:18:30.35	230.01	20.63	-43.3	-45.6	18.8	0.00e+00	0	43	0	298844160	58	4633
2026-01-05 11:18:33.50	230.66	20.89	-43.3	-45.6	18.8	0.00e+00	0	43	0	305135616	58	4616
2026-01-05 11:18:36.42	231.28	21.12	-43.3	-45.7	18.7	0.00e+00	0	43	0	310378496	58	4669
2026-01-05 11:18:39.56	231.95	21.37	-43.4	-45.8	18.7	0.00e+00	0	44	0	315621376	58	4737
2026-01-05 11:18:42.41	232.58	21.59	-43.5	-45.9	18.5	0.00e+00	0	43	0	320864256	58	4811
2026-01-05 11:18:45.54	233.27	21.83	-43.4	-45.8	18.6	0.00e+00	0	43	0	327155712	58	4732
2026-01-05 11:18:48.39	233.91	22.05	-43.4	-45.7	18.7	0.00e+00	0	43	0	332398592	58	4694
2026-01-05 11:18:51.53	234.62	22.30	-43.4	-45.7	18.8	0.00e+00	0	43	0	338690048	58	4684
2026-01-05 11:18:54.38	235.28	22.51	-43.2	-45.5	18.9	0.00e+00	0	43	0	343932928	58	4563
2026-01-05 11:18:57.51	236.02	22.75	-43.2	-45.5	19.0	0.00e+00	0	43	0	349175808	58	4554
2026-01-05 11:19:00.37	236.69	22.96	-43.4	-45.8	18.7	0.00e+00	0	43	0	355467264	58	4713
2026-01-05 11:19:03.51	237.45	23.19	-43.5	-45.9	18.7	0.00e+00	0	44	0	360710144	58	4762
2026-01-05 11:19:06.37	238.15	23.40	-43.6	-46.1	18.5	0.00e+00	0	44	0	365953024	58	4873
2026-01-05 11:19:09.50	238.93	23.62	-44.0	-46.5	18.0	0.00e+00	0	44	0	372244480	58	5120
2026-01-05 11:19:12.35	239.64	23.82	-44.2	-46.8	17.8	0.00e+00	0	43	0	377487360	59	5004
2026-01-05 11:19:15.49	240.44	24.04	-44.2	-46.7	17.9	0.00e+00	0	43	0	383778816	59	4950
2026-01-05 11:19:18.33	241.17	24.24	-44.0	-46.5	18.1	0.00e+00	0	43	0	389021696	59	4820
2026-01-05 11:19:21.45	241.98	24.44	-44.1	-46.6	18.0	0.00e+00	0	44	0	394264576	59	4902
2026-01-05 11:19:24.30	242.74	24.63	-44.3	-46.8	17.7	0.00e+00	0	43	0	399507456	59	5039
2026-01-05 11:19:27.43	243.57	24.83	-44.4	-47.0	17.6	0.00e+00	0	43	0	405798912	59	5109
2026-01-05 11:19:30.28	244.34	25.01	-44.3	-46.9	17.7	0.00e+00	0	43	0	411041792	59	5057
2026-01-05 11:19:33.41	245.20	25.20	-44.6	-47.2	17.4	0.00e+00	0	44	0	417333248	59	5273
2026-01-05 11:19:36.26	245.99	25.37	-44.9	-47.7	17.0	0.00e+00	0	43	0	422576128	60	5265
2026-01-05 11:19:39.39	246.86	25.55	-45.1	-47.9	16.8	0.00e+00	0	44	0	427819008	61	5057
2026-01-05 11:19:42.24	247.67	25.71	-45.0	-47.8	16.9	0.00e+00	0	44	0	433061888	61	5031
2026-01-05 11:19:45.36	248.56	25.88	-45.4	-48.3	16.4	0.00e+00	0	44	0	439353344	61	5327
2026-01-05 11:19:48.21	249.38	26.03	-45.6	-48.8	15.9	0.00e+00	0	43	0	444596224	61	5625
2026-01-05 11:19:51.34	250.29	26.18	-45.9	-49.0	15.7	0.00e+00	0	44	0	450887680	62	5435
2026-01-05 11:19:54.18	251.12	26.32	-46.1	-49.5	15.3	0.00e+00	0	44	0	456130560	62	5727
2026-01-05 11:19:57.32	252.05	26.46	-46.2	-49.7	15.0	0.00e+00	0	44	0	461373440	63	5569
2026-01-05 11:20:00.16	252.90	26.59	-45.9	-49.4	15.4	0.00e+00	0	43	0	466616320	63	5347
2026-01-05 11:20:03.30	253.84	26.72	-45.7	-49.1	15.6	0.00e+00	0	44	0	472907776	63	5195
2026-01-05 11:20:06.15	254.71	26.83	-46.2	-49.6	15.1	0.00e+00	0	43	0	478150656	63	5512
2026-01-05 11:20:09.29	255.66	26.95	-46.4	-49.9	14.8	0.00e+00	0	44	0	484442112	63	5672
2026-01-05 11:20:12.14	256.54	27.04	-46.4	-49.9	14.8	0.00e+00	0	44	0	489684992	63	5701
2026-01-05 11:20:15.28	257.51	27.14	-46.3	-49.9	14.9	0.00e+00	0	44	0	495976448	63	5673
2026-01-05 11:20:18.12	258.39	27.23	-46.0	-49.4	15.3	0.00e+00	0	44	0	501219328	63	5369
2026-01-05 11:20:21.26	259.37	27.31	-45.6	-48.7	16.1	0.00e+00	0	44	0	506462208	63	4942
2026-01-05 11:20:24.11	260.27	27.38	-45.4	-48.3	16.4	0.00e+00	0	44	0	511705088	62	5034
2026-01-05 11:20:27.24	261.25	27.45	-46.0	-49.2	15.5	0.00e+00	0	44	0	517996544	62	5592
2026-01-05 11:20:30.08	262.15	27.50	-46.3	-49.7	15.0	0.00e+00	0	44	0	523239424	63	5592
2026-01-05 11:20:33.24	263.15	27.55	-46.1	-49.4	15.3	0.00e+00	0	44	0	529530880	63	5379
2026-01-05 11:20:36.10	264.06	27.59	-45.9	-49.2	15.6	0.00e+00	0	44	0	534773760	63	5222
2026-01-05 11:20:39.24	265.06	27.62	-46.0	-49.1	15.7	0.00e+00	0	44	0	540016640	63	5204
2026-01-05 11:20:42.11	265.98	27.64	-45.7	-48.7	16.0	0.00e+00	0	44	0	545259520	63	4964
2026-01-05 11:20:45.24	266.98	27.66	-45.3	-48.2	16.6	0.00e+00	0	43	0	551550976	62	4938
2026-01-05 11:20:48.09	267.89	27.66	-45.0	-47.8	17.0	0.00e+00	0	44	0	556793856	62	4720
2026-01-05 11:20:51.23	268.89	27.66	-45.3	-48.2	16.5	0.00e+00	0	44	0	563085312	61	5245
2026-01-05 11:20:54.08	269.80	27.65	-45.2	-48.2	16.6	0.00e+00	0	44	0	568328192	61	5222
2026-01-05 11:20:57.21	270.80	27.63	-44.5	-47.2	17.5	0.00e+00	0	44	0	573571072	61	4685
2026-01-05 11:21:00.06	271.71	27.60	-44.9	-47.6	17.1	0.00e+00	0	43	0	579862528	61	4908
2026-01-05 11:21:03.20	272.71	27.56	-45.1	-48.0	16.8	0.00e+00	0	44	0	585105408	61	5113
2026-01-05 11:21:06.06	273.61	27.52	-45.2	-48.1	16.7	0.00e+00	0	44	0	590348288	61	5174
2026-01-05 11:21:09.21	274.61	27.46	-45.3	-48.2	16.6	0.00e+00	0	44	0	596639744	61	5248
2026-01-05 11:21:12.07	275.51	27.41	-45.6	-48.7	16.1	0.00e+00	0	44	0	601882624	61	5550
2026-01-05 11:21:15.22	276.50	27.33	-45.6	-48.6	16.2	0.00e+00	0	44	0	608174080	62	5171
2026-01-05 11:21:18.08	277.39	27.26	-45.1	-48.0	16.8	0.00e+00	0	44	0	613416960	62	4833
2026-01-05 11:21:21.22	278.37	27.17	-44.9	-47.7	17.1	0.00e+00	0	44	0	618659840	61	4927
2026-01-05 11:21:24.08	279.25	27.08	-45.4	-48.4	16.3	0.00e+00	0	44	0	624951296	61	5366
2026-01-05 11:21:27.23	280.22	26.98	-45.3	-48.2	16.6	0.00e+00	0	44	0	630194176	61	5231
2026-01-05 11:21:30.09	281.09	26.87	-45.0	-47.8	16.9	0.00e+00	0	44	0	635437056	61	5003
2026-01-05 11:21:33.23	282.04	26.75	-45.1	-47.9	16.8	0.00e+00	0	44	0	641728512	61	5088
2026-01-05 11:21:36.09	282.90	26.64	-45.2	-48.1	16.6	0.00e+00	0	44	0	646971392	61	5194
2026-01-05 11:21:39.24	283.84	26.50	-44.9	-47.7	17.0	0.00e+00	0	44	0	653262848	61	4970
2026-01-05 11:21:42.10	284.69	26.37	-44.8	-47.5	17.3	0.00e+00	0	44	0	658505728	61	4815
2026-01-05 11:21:45.24	285.61	26.23	-44.6	-47.3	17.4	0.00e+00	0	44	0	663748608	61	4708
2026-01-05 11:21:48.10	286.44	26.09	-44.0	-46.5	18.2	0.00e+00	0	44	0	668991488	60	4550
2026-01-05 11:21:51.25	287.35	25.92	-43.9	-46.4	18.2	0.00e+00	0	44	0	675282944	59	4771
2026-01-05 11:21:54.11	288.16	25.77	-43.6	-46.0	18.5	0.00e+00	0	44	0	680525824	59	4590
2026-01-05 11:21:57.26	289.05	25.60	-44.0	-46.4	18.2	0.00e+00	0	44	0	686817280	59	4809
2026-01-05 11:22:00.12	289.85	25.44	-43.8	-46.3	18.3	0.00e+00	0	44	0	692060160	59	4735
2026-01-05 11:22:03.26	290.72	25.25	-43.2	-45.5	19.0	0.00e+00	0	44	0	698351616	58	4592
2026-01-05 11:22:06.12	291.50	25.08	-43.8	-46.3	18.3	0.00e+00	0	44	0	703594496	58	5020
2026-01-05 11:22:09.26	292.35	24.89	-43.9	-46.3	18.3	0.00e+00	0	44	0	708837376	58	5027
2026-01-05 11:22:12.12	293.11	24.71	-43.4	-45.8	18.8	0.00e+00	0	44	0	714080256	58	4709
2026-01-05 11:22:15.27	293.94	24.50	-43.5	-45.8	18.7	0.00e+00	0	44	0	720371712	58	4745
2026-01-05 11:22:18.13	294.69	24.31	-43.9	-46.3	18.3	0.00e+00	0	43	0	725614592	58	5015
2026-01-05 11:22:21.28	295.50	24.10	-44.4	-47.0	17.6	0.00e+00	0	44	0	731906048	59	5130
2026-01-05 11:22:24.14	296.23	23.90	-44.4	-47.0	17.6	0.00e+00	0	44	0	737148928	59	5127
2026-01-05 11:22:27.27	297.01	23.69	-44.0	-46.5	18.1	0.00e+00	0	44	0	743440384	59	4856
2026-01-05 11:22:30.13	297.72	23.48	-44.3	-46.8	17.8	0.00e+00	0	43	0	748683264	59	5018
2026-01-05 11:22:33.27	298.49	23.26	-44.4	-47.0	17.6	0.00e+00	0	44	0	753926144	59	5155
2026-01-05 11:22:36.13	299.18	23.05	-44.5	-47.2	17.5	0.00e+00	0	44	0	759169024	59	5224
2026-01-05 11:22:39.28	299.92	22.82	-44.2	-46.7	17.9	0.00e+00	0	44	0	765460480	59	4930
2026-01-05 11:22:42.14	300.59	22.61	-44.1	-46.7	17.9	0.00e+00	0	43	0	770703360	59	4937
2026-01-05 11:22:45.28	301.32	22.37	-44.4	-47.0	17.6	0.00e+00	0	44	0	776994816	59	5150
2026-01-05 11:22:48.14	301.97	22.15	-44.2	-46.7	17.9	0.00e+00	0	44	0	782237696	59	4945
2026-01-05 11:22:51.29	302.68	21.91	-44.4	-47.0	17.6	0.00e+00	0	44	0	787480576	59	5119
2026-01-05 11:22:54.15	303.31	21.69	-44.4	-46.9	17.6	0.00e+00	0	44	0	793772032	59	5096
2026-01-05 11:22:57.29	303.99	21.45	-44.1	-46.6	17.9	0.00e+00	0	44	0	799014912	59	4899
2026-01-05 11:23:00.15	304.61	21.22	-44.3	-46.9	17.7	0.00e+00	0	43	0	804257792	59	5061
2026-01-05 11:23:03.29	305.27	20.97	-44.3	-46.9	17.7	0.00e+00	0	44	0	810549248	59	5067
2026-01-05 11:23:06.15	305.87	20.75	-44.7	-47.5	17.2	0.00e+00	0	44	0	815792128	60	5127
2026-01-05 11:23:09.30	306.51	20.50	-45.7	-48.8	15.8	0.00e+00	0	44	0	822083584	61	5645
2026-01-05 11:23:12.15	307.09	20.27	-45.3	-48.3	16.4	0.00e+00	0	44	0	827326464	62	5002
2026-01-05 11:23:15.29	307.71	20.02	-44.9	-47.7	16.9	0.00e+00	0	43	0	832569344	61	4981
2026-01-05 11:23:18.15	308.27	19.79	-45.4	-48.4	16.2	0.00e+00	0	44	0	837812224	61	5385
2026-01-05 11:23:21.30	308.88	19.54	-44.9	-47.7	16.9	0.00e+00	0	44	0	844103680	61	4933
2026-01-05 11:23:24.15	309.42	19.31	-44.4	-47.2	17.5	0.00e+00	0	44	0	849346560	60	4927
2026-01-05 11:23:27.30	310.01	19.05	-44.9	-47.9	16.7	0.00e+00	0	43	0	855638016	60	5388
2026-01-05 11:23:30.16	310.54	18.82	-44.7	-47.5	17.1	0.00e+00	0	44	0	860880896	60	5150
2026-01-05 11:23:33.31	311.11	18.57	-44.6	-47.4	17.2	0.00e+00	0	43	0	867172352	60	5072
2026-01-05 11:23:36.17	311.62	18.34	-45.3	-48.4	16.2	0.00e+00	0	43	0	872415232	61	5374
2026-01-05 11:23:39.32	312.18	18.08	-45.1	-48.1	16.5	0.00e+00	0	44	0	877658112	61	5172
2026-01-05 11:23:42.17	312.67	17.85	-44.8	-47.6	16.9	0.00e+00	0	43	0	883949568	61	4910
2026-01-05 11:23:45.31	313.20	17.60	-44.6	-47.4	17.2	0.00e+00	0	43	0	889192448	60	5052
2026-01-05 11:23:48.16	313.68	17.37	-45.6	-48.9	15.7	0.00e+00	0	43	0	894435328	61	5677
2026-01-05 11:23:51.30	314.20	17.12	-45.3	-48.5	16.1	0.00e+00	0	43	0	900726784	62	5152
2026-01-05 11:23:54.15	314.67	16.89	-44.6	-47.6	17.0	0.00e+00	0	43	0	905969664	61	4872
2026-01-05 11:23:57.28	315.17	16.64	-45.0	-48.0	16.6	0.00e+00	0	43	0	912261120	61	5112
2026-01-05 11:24:00.14	315.62	16.41	-44.9	-47.8	16.7	0.00e+00	0	43	0	917504000	61	5036
2026-01-05 11:24:03.27	316.10	16.16	-44.6	-47.4	17.1	0.00e+00	0	43	0	922746880	61	4769
2026-01-05 11:24:06.11	316.54	15.93	-44.6	-47.4	17.1	0.00e+00	0	43	0	927989760	60	5062
2026-01-05 11:24:09.25	317.01	15.68	-45.1	-48.1	16.4	0.00e+00	0	43	0	934281216	60	5505
2026-01-05 11:24:12.10	317.43	15.46	-45.1	-48.2	16.4	0.00e+00	0	43	0	939524096	60	5531
2026-01-05 11:24:15.24	317.89	15.21	-44.7	-47.5	17.0	0.00e+00	0	43	0	945815552	60	5134
2026-01-05 11:24:18.11	318.30	14.99	-44.6	-47.5	17.0	0.00e+00	0	43	0	951058432	60	5127
2026-01-05 11:24:21.26	318.75	14.74	-44.8	-47.8	16.7	0.00e+00	0	44	0	956301312	60	5296
2026-01-05 11:24:24.12	319.15	14.52	-44.7	-47.7	16.8	0.00e+00	0	43	0	962592768	60	5273
2026-01-05 11:24:27.26	319.58	14.27	-44.5	-47.5	17.0	0.00e+00	0	43	0	967835648	60	5139
2026-01-05 11:24:30.12	319.97	14.05	-44.5	-47.5	17.0	0.00e+00	0	43	0	973078528	60	5118
2026-01-05 11:24:33.27	320.39	13.81	-44.6	-47.6	16.9	0.00e+00	0	43	0	979369984	60	5178
2026-01-05 11:24:36.12	320.76	13.59	-44.7	-47.8	16.7	0.00e+00	0	43	0	984612864	60	5298
2026-01-05 11:24:39.24	321.16	13.35	-44.9	-48.1	16.4	0.00e+00	0	43	0	990904320	60	5511
2026-01-05 11:24:42.08	321.52	13.13	-45.0	-48.3	16.2	0.00e+00	0	43	0	996147200	60	5621
2026-01-05 11:24:45.22	321.92	12.90	-45.1	-48.3	16.2	0.00e+00	0	43	0	1001390080	60	5608
2026-01-05 11:24:48.08	322.27	12.68	-45.2	-48.3	16.2	0.00e+00	0	43	0	1006632960	61	5295
2026-01-05 11:24:51.21	322.65	12.45	-45.3	-48.4	16.1	0.00e+00	0	43	0	1012924416	61	5356
2026-01-05 11:24:54.07	323.00	12.23	-45.0	-48.2	16.3	0.00e+00	0	43	0	1018167296	61	5225
2026-01-05 11:24:57.22	323.37	12.00	-44.9	-48.1	16.3	0.00e+00	0	43	0	1024458752	61	5199
2026-01-05 11:25:00.08	323.70	11.79	-44.8	-48.2	16.2	0.00e+00	0	43	0	1029701632	61	5262
2026-01-05 11:25:03.22	324.06	11.56	-44.8	-48.3	16.1	0.00e+00	0	43	0	1034944512	61	5308
2026-01-05 11:25:06.08	324.39	11.35	-45.0	-48.7	15.8	0.00e+00	0	43	0	1041235968	61	5542
2026-01-05 11:25:09.23	324.74	11.12	-45.4	-49.3	15.1	0.00e+00	0	43	0	1046478848	61	5959
2026-01-05 11:25:12.09	325.05	10.91	-45.7	-49.8	14.6	0.00e+00	0	43	0	1051721728	61	6318
2026-01-05 11:25:15.24	325.40	10.68	-45.8	-50.1	14.4	0.00e+00	0	43	0	1058013184	62	6144
2026-01-05 11:25:18.10	325.70	10.48	-45.8	-50.0	14.4	0.00e+00	0	43	0	1063256064	62	6106
2026-01-05 11:25:21.24	326.03	10.25	-45.8	-49.9	14.4	7.00e-07	0	43	0	1069547520	62	6042
2026-01-05 11:25:24.10	326.33	10.05	-45.8	-49.7	14.7	0.00e+00	0	43	0	1074790400	62	5897
2026-01-05 11:25:27.25	326.65	9.83	-46.0	-49.7	14.7	0.00e+00	0	43	0	1080033280	62	5883
2026-01-05 11:25:30.11	326.94	9.63	-46.1	-49.8	14.6	7.00e-07	0	43	0	1085276160	62	5932
2026-01-05 11:25:33.25	327.26	9.41	-45.8	-49.4	15.0	7.00e-07	0	43	0	1091567616	62	5681
2026-01-05 11:25:36.11	327.54	9.21	-45.8	-49.4	14.9	0.00e+00	0	43	0	1096810496	62	5703
2026-01-05 11:25:39.26	327.85	8.99	-45.8	-49.5	14.8	0.00e+00	0	43	0	1103101952	62	5757
2026-01-05 11:25:42.13	328.12	8.79	-50.2	-65.9	3.8	1.49e+00	0	43	104	1104150528	71	22733
2026-01-05 11:25:45.28	328.42	8.58	-50.2	-66.2	3.8	1.49e+00	0	43	104	1104150528	71	23329
2026-01-05 11:25:48.15	328.69	8.38	-50.7	-66.2	3.8	1.49e+00	0	43	104	1104150528	72	22096
2026-01-05 11:25:51.30	328.98	8.17	-50.8	-66.2	3.8	1.49e+00	0	43	104	1104150528	72	22148
2026-01-05 11:25:54.17	329.24	7.98	-51.0	-66.2	3.8	1.49e+00	0	43	104	1104150528	72	22154
2026-01-05 11:25:57.32	329.52	7.77	-50.9	-66.2	3.8	1.49e+00	0	43	104	1104150528	72	22163
2026-01-05 11:26:00.19	329.77	7.57	-50.8	-66.2	3.8	1.49e+00	0	43	104	1104150528	72	22096
2026-01-05 11:26:03.34	330.05	7.37	-50.7	-66.2	3.8	1.49e+00	0	43	104	1104150528	72	22038
2026-01-05 11:26:06.21	330.30	7.18	-50.7	-66.2	3.8	1.49e+00	0	43	104	1104150528	72	22057
2026-01-05 11:26:09.36	330.56	6.97	-50.7	-66.2	3.8	1.49e+00	0	43	104	1104150528	72	22049
2026-01-05 11:26:12.22	330.80	6.78	-50.7	-66.1	3.8	1.49e+00	0	43	104	1104150528	72	21944
2026-01-05 11:26:15.38	331.07	6.58	-50.7	-66.2	3.8	1.49e+00	0	43	104	1104150528	72	22054
2026-01-05 11:26:18.24	331.30	6.40	-50.7	-66.2	3.8	1.49e+00	0	43	104	1104150528	72	22033
2026-01-05 11:26:21.40	331.56	6.19	-50.7	-66.2	3.8	1.49e+00	0	43	104	1104150528	72	22011
2026-01-05 11:26:24.26	331.78	6.01	-50.7	-66.2	3.8	1.49e+00	0	43	104	1104150528	72	22073
2026-01-05 11:26:27.42	332.03	5.81	-50.7	-66.2	3.8	1.49e+00	0	43	104	1104150528	72	22048
2026-01-05 11:26:30.29	332.26	5.63	-50.7	-66.2	3.8	1.49e+00	0	43	104	1104150528	72	22018
2026-01-05 11:26:33.44	332.50	5.43	-50.7	-66.2	3.8	1.49e+00	0	43	104	1104150528	72	22109
2026-01-05 11:26:36.31	332.72	5.25	-50.7	-66.2	3.8	1.49e+00	0	43	104	1104150528	72	22143
2026-01-05 11:26:39.46	332.96	5.06	-50.7	-66.2	3.8	1.49e+00	0	43	104	1104150528	72	22026

#Closed at: 2026-01-05 11:26:41
#Recorded file [1104 MB]: D:/Data/31040_260105_141459.dat