passes_logs/2026/01/05/T1/T1__20260105_085710_AQUA_rec.log

#Pass ID: 20260105_085710_AQUA
#Satellite: AQUA
#Configuration: AQUA
#almurnet v.1.7.20251203
#Start time: 2026-01-05 08:57:11

#Version: 2.0.20230620
#Station: T1
#Location: 37.570604 lon 55.790049 lat
#TLE: 1 27424U 02022A   26003.93831470  .00001925  00000+0  39553-3 0  9995
#TLE: 2 27424  98.4067 330.1809 0002003  92.1713 343.8415 14.61796291259276

#Time	Az	El	Level	Level2	SNR	BER	BlckErr	Temp	State	Recorded	gain1	gain2
2026-01-05 08:57:11.11	60.11	5.01	-51.6	-72.3	3.8	7.48e-01	0	38	0	0	74	39625
2026-01-05 08:57:13.11	59.80	5.07	-51.7	-72.3	3.8	7.45e-01	0	38	104	0	74	39699
2026-01-05 08:57:15.12	59.48	5.13	-51.7	-72.3	3.8	7.46e-01	0	37	104	0	74	39737
2026-01-05 08:57:17.13	59.16	5.19	-51.7	-72.3	3.8	7.49e-01	0	38	104	0	74	39649
2026-01-05 08:57:19.14	58.84	5.24	-51.7	-72.3	3.8	7.42e-01	0	38	104	0	74	39645
2026-01-05 08:57:21.15	58.52	5.30	-51.7	-72.3	3.8	7.43e-01	0	38	104	0	74	39730
2026-01-05 08:57:23.16	58.20	5.36	-51.7	-72.3	3.8	7.46e-01	0	38	104	0	74	39696
2026-01-05 08:57:25.16	57.87	5.41	-51.7	-72.3	3.8	7.44e-01	0	38	104	0	74	39818
2026-01-05 08:57:27.17	57.55	5.47	-51.7	-72.3	3.8	7.46e-01	0	38	104	0	74	39648
2026-01-05 08:57:29.18	57.22	5.52	-51.7	-72.3	3.8	7.44e-01	0	38	104	0	74	39680
2026-01-05 08:57:31.19	56.89	5.58	-51.7	-72.3	3.8	7.47e-01	0	38	104	0	74	39652
2026-01-05 08:57:33.20	56.56	5.63	-51.7	-72.3	3.8	7.45e-01	0	38	104	0	74	39684
2026-01-05 08:57:35.21	56.23	5.68	-51.7	-72.3	3.8	7.48e-01	0	38	104	0	74	39632
2026-01-05 08:57:37.21	55.90	5.73	-51.7	-72.3	3.8	7.46e-01	0	38	104	0	74	39708
2026-01-05 08:57:39.22	55.57	5.79	-51.7	-72.3	3.8	7.46e-01	0	38	104	0	74	39647
2026-01-05 08:57:41.23	55.23	5.84	-51.7	-72.3	3.8	7.47e-01	0	38	104	0	74	39691
2026-01-05 08:57:43.24	54.90	5.88	-51.7	-72.3	3.8	7.46e-01	0	38	104	0	74	39609
2026-01-05 08:57:45.25	54.56	5.93	-51.7	-72.3	3.8	7.44e-01	0	38	104	0	74	39723
2026-01-05 08:57:47.26	54.22	5.98	-51.7	-72.3	3.8	7.47e-01	0	38	104	0	74	39672
2026-01-05 08:57:49.26	53.88	6.03	-51.7	-72.3	3.8	7.46e-01	0	38	104	0	74	39693
2026-01-05 08:57:51.27	53.54	6.08	-51.7	-72.3	3.8	7.48e-01	0	38	104	0	74	39723
2026-01-05 08:57:53.28	53.20	6.12	-51.7	-72.3	3.8	7.43e-01	0	38	104	0	74	39692
2026-01-05 08:57:55.28	52.86	6.17	-51.7	-72.3	3.8	7.47e-01	0	38	104	0	74	39785
2026-01-05 08:57:57.29	52.51	6.21	-51.8	-72.3	3.8	7.46e-01	0	39	104	0	74	39813
2026-01-05 08:57:59.30	52.17	6.25	-51.7	-72.3	3.8	7.47e-01	0	39	104	0	74	39793
2026-01-05 08:58:01.31	51.82	6.30	-51.8	-72.3	3.8	7.45e-01	0	38	104	0	74	39617
2026-01-05 08:58:03.32	51.47	6.34	-51.8	-72.3	3.8	7.48e-01	0	38	104	0	74	39652
2026-01-05 08:58:05.33	51.12	6.38	-51.8	-72.3	3.8	7.46e-01	0	38	104	0	74	39721
2026-01-05 08:58:07.33	50.77	6.42	-51.8	-72.3	3.8	7.45e-01	0	39	104	0	74	39740
2026-01-05 08:58:09.34	50.42	6.46	-51.8	-72.3	3.8	7.43e-01	0	38	104	0	74	39725
2026-01-05 08:58:11.35	50.07	6.49	-51.8	-72.3	3.8	7.43e-01	0	39	104	0	74	39761
2026-01-05 08:58:13.36	49.72	6.53	-51.8	-72.3	3.8	7.48e-01	0	39	104	0	74	39738
2026-01-05 08:58:15.37	49.36	6.57	-51.8	-72.3	3.8	7.49e-01	0	39	104	0	74	39799
2026-01-05 08:58:17.38	49.01	6.60	-51.7	-72.3	3.8	7.49e-01	0	39	104	0	74	39656
2026-01-05 08:58:19.38	48.65	6.64	-51.8	-72.3	3.8	7.44e-01	0	39	104	0	74	39768
2026-01-05 08:58:21.39	48.30	6.67	-51.7	-72.3	3.8	7.45e-01	0	39	104	0	74	39739
2026-01-05 08:58:23.40	47.94	6.70	-51.7	-72.3	3.8	7.43e-01	0	39	104	0	74	39797
2026-01-05 08:58:25.41	47.58	6.74	-51.7	-72.3	3.8	7.45e-01	0	39	104	0	74	39712
2026-01-05 08:58:27.42	47.22	6.77	-51.8	-72.3	3.8	7.44e-01	0	39	104	0	74	39742
2026-01-05 08:58:29.43	46.86	6.80	-51.7	-72.3	3.8	7.45e-01	0	39	104	0	74	39679
2026-01-05 08:58:31.44	46.50	6.83	-51.7	-72.3	3.8	7.48e-01	0	39	104	0	74	39689
2026-01-05 08:58:33.45	46.14	6.85	-51.7	-72.3	3.8	7.45e-01	0	39	104	0	74	39725
2026-01-05 08:58:35.46	45.77	6.88	-51.7	-72.3	3.8	7.45e-01	0	39	104	0	74	39688
2026-01-05 08:58:37.46	45.41	6.91	-51.7	-72.3	3.8	7.42e-01	0	39	104	0	74	39722
2026-01-05 08:58:39.47	45.05	6.93	-51.7	-72.3	3.8	7.47e-01	0	39	104	0	74	39657
2026-01-05 08:58:41.48	44.68	6.96	-51.7	-72.3	3.8	7.45e-01	0	39	104	0	74	39636
2026-01-05 08:58:43.49	44.32	6.98	-51.7	-72.3	3.8	7.45e-01	0	39	104	0	74	39666
2026-01-05 08:58:45.50	43.95	7.00	-51.7	-72.3	3.8	7.46e-01	0	39	104	0	74	39659
2026-01-05 08:58:47.51	43.59	7.02	-51.7	-72.3	3.8	7.42e-01	0	39	104	0	74	39677
2026-01-05 08:58:49.51	43.22	7.04	-51.7	-72.3	3.8	7.43e-01	0	39	104	0	74	39618
2026-01-05 08:58:51.52	42.85	7.06	-51.7	-72.3	3.8	7.42e-01	0	39	104	0	74	39642
2026-01-05 08:58:53.53	42.48	7.08	-51.7	-72.3	3.8	7.49e-01	0	39	104	0	74	39673
2026-01-05 08:58:55.54	42.12	7.10	-51.7	-72.2	3.8	7.46e-01	0	39	104	0	74	39560
2026-01-05 08:58:57.55	41.75	7.11	-51.7	-72.3	3.8	7.48e-01	0	39	104	0	74	39591
2026-01-05 08:58:59.56	41.38	7.13	-51.7	-72.3	3.8	7.45e-01	0	39	104	0	74	39650
2026-01-05 08:59:01.56	41.01	7.14	-51.7	-72.3	3.8	7.48e-01	0	39	104	0	74	39624
2026-01-05 08:59:03.57	40.64	7.15	-51.7	-72.3	3.8	7.45e-01	0	39	104	0	74	39596
2026-01-05 08:59:05.58	40.27	7.17	-51.7	-72.3	3.8	7.45e-01	0	39	104	0	74	39637
2026-01-05 08:59:07.59	39.90	7.18	-51.7	-72.3	3.8	7.47e-01	0	39	104	0	74	39689
2026-01-05 08:59:09.59	39.53	7.19	-51.7	-72.3	3.8	7.50e-01	0	39	104	0	74	39637
2026-01-05 08:59:11.60	39.16	7.19	-51.7	-72.3	3.8	7.45e-01	0	39	104	0	74	39690
2026-01-05 08:59:13.61	38.78	7.20	-51.7	-72.3	3.8	7.44e-01	0	39	104	0	74	39672
2026-01-05 08:59:15.62	38.41	7.21	-51.7	-72.3	3.8	7.45e-01	0	39	104	0	74	39637
2026-01-05 08:59:17.63	38.04	7.21	-51.7	-72.3	3.8	7.45e-01	0	39	104	0	74	39599
2026-01-05 08:59:19.63	37.67	7.22	-51.7	-72.3	3.8	7.47e-01	0	39	104	0	74	39638
2026-01-05 08:59:21.64	37.30	7.22	-51.7	-72.2	3.8	7.46e-01	0	39	104	0	74	39579
2026-01-05 08:59:23.65	36.93	7.23	-51.7	-72.3	3.8	7.45e-01	0	39	104	0	74	39698
2026-01-05 08:59:25.66	36.55	7.23	-51.7	-72.3	3.8	7.49e-01	0	39	104	0	74	39717
2026-01-05 08:59:27.67	36.18	7.23	-51.7	-72.3	3.8	7.47e-01	0	39	104	0	74	39603
2026-01-05 08:59:29.68	35.81	7.23	-51.7	-72.3	3.8	7.46e-01	0	39	104	0	74	39644
2026-01-05 08:59:31.68	35.44	7.22	-51.7	-72.3	3.8	7.45e-01	0	39	104	0	74	39635
2026-01-05 08:59:33.69	35.07	7.22	-51.7	-72.2	3.8	7.44e-01	0	39	104	0	74	39582
2026-01-05 08:59:35.70	34.69	7.22	-51.7	-72.3	3.8	7.46e-01	0	39	104	0	74	39618
2026-01-05 08:59:37.71	34.32	7.21	-51.7	-72.2	3.8	7.43e-01	0	39	104	0	74	39533
2026-01-05 08:59:39.72	33.95	7.21	-51.7	-72.3	3.8	7.42e-01	0	39	104	0	74	39734
2026-01-05 08:59:41.72	33.58	7.20	-51.7	-72.2	3.8	7.46e-01	0	39	104	0	74	39561
2026-01-05 08:59:43.73	33.21	7.19	-51.7	-72.3	3.8	7.47e-01	0	39	104	0	74	39635
2026-01-05 08:59:45.74	32.84	7.18	-51.7	-72.3	3.8	7.42e-01	0	39	104	0	74	39593
2026-01-05 08:59:47.75	32.47	7.17	-51.7	-72.3	3.8	7.44e-01	0	39	104	0	74	39700
2026-01-05 08:59:49.76	32.10	7.16	-51.7	-72.3	3.8	7.43e-01	0	39	104	0	74	39610
2026-01-05 08:59:51.77	31.73	7.15	-51.7	-72.3	3.8	7.48e-01	0	39	104	0	74	39650
2026-01-05 08:59:53.78	31.36	7.13	-51.7	-72.3	3.8	7.44e-01	0	39	104	0	74	39678
2026-01-05 08:59:55.79	30.99	7.12	-51.7	-72.3	3.8	7.45e-01	0	39	104	0	74	39670
2026-01-05 08:59:57.79	30.62	7.10	-51.7	-72.3	3.8	7.46e-01	0	39	104	0	74	39645
2026-01-05 08:59:59.80	30.25	7.09	-51.7	-72.3	3.8	7.49e-01	0	39	104	0	74	39653
2026-01-05 09:00:01.81	29.88	7.07	-51.7	-72.3	3.8	7.43e-01	0	39	104	0	74	39593
2026-01-05 09:00:03.82	29.51	7.05	-51.7	-72.3	3.8	7.41e-01	0	39	104	0	74	39611
2026-01-05 09:00:05.83	29.15	7.03	-51.7	-72.3	3.8	7.44e-01	0	39	104	0	74	39759
2026-01-05 09:00:07.84	28.78	7.01	-51.7	-72.3	3.8	7.47e-01	0	39	104	0	74	39611
2026-01-05 09:00:09.85	28.42	6.99	-51.7	-72.3	3.8	7.45e-01	0	39	104	0	74	39653
2026-01-05 09:00:11.85	28.05	6.97	-51.7	-72.3	3.8	7.45e-01	0	39	104	0	74	39643
2026-01-05 09:00:13.86	27.69	6.94	-51.7	-72.3	3.8	7.46e-01	0	39	104	0	74	39707
2026-01-05 09:00:15.87	27.32	6.92	-51.7	-72.3	3.8	7.47e-01	0	39	104	0	74	39692
2026-01-05 09:00:17.88	26.96	6.89	-51.7	-72.3	3.8	7.49e-01	0	39	104	0	74	39644
2026-01-05 09:00:19.89	26.60	6.87	-51.7	-72.3	3.8	7.45e-01	0	39	104	0	74	39680
2026-01-05 09:00:21.90	26.24	6.84	-51.7	-72.3	3.8	7.46e-01	0	39	104	0	74	39672
2026-01-05 09:00:23.91	25.87	6.81	-51.7	-72.3	3.8	7.44e-01	0	39	104	0	74	39778
2026-01-05 09:00:25.91	25.52	6.78	-51.7	-72.3	3.8	7.47e-01	0	39	104	0	74	39657
2026-01-05 09:00:27.92	25.16	6.75	-51.7	-72.3	3.8	7.44e-01	0	39	104	0	74	39713
2026-01-05 09:00:29.93	24.80	6.72	-51.7	-72.3	3.8	7.51e-01	0	39	104	0	74	39676
2026-01-05 09:00:31.94	24.44	6.69	-51.7	-72.3	3.8	7.48e-01	0	39	104	0	74	39729
2026-01-05 09:00:33.95	24.08	6.66	-51.7	-72.3	3.8	7.46e-01	0	39	104	0	74	39731
2026-01-05 09:00:35.95	23.73	6.62	-51.7	-72.3	3.8	7.47e-01	0	39	104	0	74	39699
2026-01-05 09:00:37.96	23.38	6.59	-51.7	-72.3	3.8	7.47e-01	0	39	104	0	74	39722
2026-01-05 09:00:39.97	23.02	6.55	-51.7	-72.3	3.8	7.44e-01	0	39	104	0	74	39725
2026-01-05 09:00:41.98	22.67	6.51	-51.8	-72.3	3.8	7.49e-01	0	39	104	0	74	39774
2026-01-05 09:00:43.99	22.32	6.48	-51.7	-72.3	3.8	7.48e-01	0	39	104	0	74	39765
2026-01-05 09:00:46.00	21.97	6.44	-51.7	-72.3	3.8	7.47e-01	0	39	104	0	74	39849
2026-01-05 09:00:48.00	21.62	6.40	-51.7	-72.3	3.8	7.50e-01	0	39	104	0	74	39785
2026-01-05 09:00:50.01	21.27	6.36	-51.7	-72.3	3.8	7.42e-01	0	39	104	0	74	39740
2026-01-05 09:00:52.02	20.92	6.32	-51.7	-72.3	3.8	7.45e-01	0	39	104	0	74	39793
2026-01-05 09:00:54.03	20.57	6.28	-51.7	-72.3	3.8	7.47e-01	0	39	104	0	74	39784
2026-01-05 09:00:56.04	20.23	6.23	-51.7	-72.3	3.8	7.45e-01	0	40	104	0	74	39760
2026-01-05 09:00:58.05	19.88	6.19	-51.6	-72.3	3.8	7.46e-01	0	39	104	0	74	39807
2026-01-05 09:01:00.06	19.54	6.15	-51.7	-72.3	3.8	7.46e-01	0	39	104	0	74	39842
2026-01-05 09:01:02.06	19.20	6.10	-51.7	-72.3	3.8	7.47e-01	0	39	104	0	74	39860
2026-01-05 09:01:04.07	18.86	6.05	-51.8	-72.3	3.8	7.45e-01	0	39	104	0	74	39807
2026-01-05 09:01:06.08	18.52	6.01	-51.8	-72.3	3.8	7.45e-01	0	39	104	0	74	39923
2026-01-05 09:01:08.09	18.18	5.96	-51.7	-72.3	3.8	7.47e-01	0	39	104	0	74	39919
2026-01-05 09:01:10.10	17.85	5.91	-51.7	-72.3	3.8	7.46e-01	0	39	104	0	74	39901
2026-01-05 09:01:12.11	17.51	5.86	-51.7	-72.3	3.8	7.44e-01	0	39	104	0	74	39809
2026-01-05 09:01:14.11	17.18	5.81	-51.8	-72.3	3.8	7.47e-01	0	39	104	0	74	39849
2026-01-05 09:01:16.12	16.84	5.76	-51.7	-72.3	3.8	7.42e-01	0	39	104	0	74	39919
2026-01-05 09:01:18.13	16.51	5.71	-51.8	-72.3	3.8	7.49e-01	0	40	104	0	74	39865
2026-01-05 09:01:20.14	16.18	5.66	-51.7	-72.3	3.8	7.44e-01	0	39	104	0	74	39895
2026-01-05 09:01:22.14	15.85	5.61	-51.8	-72.3	3.8	7.47e-01	0	39	104	0	74	39850
2026-01-05 09:01:24.15	15.52	5.55	-51.8	-72.3	3.8	7.47e-01	0	39	104	0	74	39920
2026-01-05 09:01:26.16	15.20	5.50	-51.8	-72.3	3.8	7.44e-01	0	39	104	0	74	39861
2026-01-05 09:01:28.17	14.87	5.44	-51.8	-72.3	3.8	7.47e-01	0	40	104	0	74	39850
2026-01-05 09:01:30.18	14.55	5.39	-51.8	-72.3	3.8	7.43e-01	0	40	104	0	74	39841
2026-01-05 09:01:32.19	14.23	5.33	-51.8	-72.3	3.8	7.47e-01	0	39	104	0	74	39892
2026-01-05 09:01:34.19	13.91	5.28	-51.8	-72.3	3.8	7.47e-01	0	39	104	0	74	39847
2026-01-05 09:01:36.20	13.59	5.22	-51.8	-72.3	3.8	7.45e-01	0	39	104	0	74	39831
2026-01-05 09:01:38.21	13.27	5.16	-51.8	-72.3	3.8	7.44e-01	0	39	104	0	74	39908
2026-01-05 09:01:40.22	12.95	5.10	-51.7	-72.3	3.8	7.48e-01	0	39	104	0	74	39846
2026-01-05 09:01:42.23	12.64	5.04	-51.7	-72.3	3.8	7.44e-01	0	39	104	0	74	39817
2026-01-05 09:01:44.24	12.32	4.98	-51.8	-72.3	3.8	7.45e-01	0	40	104	0	74	39898

#Closed at: 2026-01-05 09:01:45
#Recorded file [0 MB]: D:/Data/31040_260105_115711.dat