passes_logs/2026/01/05/T1/T1__20260105_005546_AQUA_rec.log

#Pass ID: 20260105_005546_AQUA
#Satellite: AQUA
#Configuration: AQUA
#almurnet v.1.7.20251203
#Start time: 2026-01-05 00:55:46

#Version: 2.0.20230620
#Station: T1
#Location: 37.570604 lon 55.790049 lat
#TLE: 1 27424U 02022A   26003.93831470  .00001925  00000+0  39553-3 0  9995
#TLE: 2 27424  98.4067 330.1809 0002003  92.1713 343.8415 14.61796291259276

#Time	Az	El	Level	Level2	SNR	BER	BlckErr	Temp	State	Recorded	gain1	gain2
2026-01-05 00:55:46.72	19.70	5.00	-49.9	-74.3	3.8	7.47e-01	0	36	0	0	71	59458
2026-01-05 00:55:49.72	19.79	5.23	-49.8	-74.4	3.8	7.45e-01	0	36	104	0	70	63721
2026-01-05 00:55:52.73	19.89	5.45	-49.9	-74.1	3.8	7.43e-01	0	36	104	0	70	61979
2026-01-05 00:55:55.75	19.99	5.67	-49.8	-73.7	3.8	7.42e-01	0	36	104	0	70	58654
2026-01-05 00:55:58.76	20.09	5.90	-49.8	-73.5	3.8	7.47e-01	0	37	104	0	70	57650
2026-01-05 00:56:01.77	20.20	6.13	-49.8	-73.7	3.8	7.45e-01	0	37	104	0	70	59089
2026-01-05 00:56:04.78	20.30	6.36	-49.8	-73.7	3.8	7.42e-01	0	37	104	0	70	58615
2026-01-05 00:56:07.79	20.41	6.60	-49.8	-73.4	3.8	7.46e-01	0	37	104	0	70	56911
2026-01-05 00:56:10.81	20.52	6.84	-49.8	-74.1	3.8	7.51e-01	0	37	104	0	70	61505
2026-01-05 00:56:13.82	20.63	7.08	-49.8	-73.7	3.8	7.45e-01	0	37	104	0	70	58967
2026-01-05 00:56:16.83	20.74	7.32	-49.8	-70.6	3.9	7.39e-01	0	37	104	0	70	41309
2026-01-05 00:56:19.85	20.85	7.56	-49.8	-68.2	5.4	6.99e-01	0	38	0	524288	70	31345
2026-01-05 00:56:22.86	20.97	7.81	-49.7	-68.3	5.3	7.01e-01	0	37	0	1572864	70	31761
2026-01-05 00:56:25.88	21.08	8.06	-49.8	-69.4	4.0	7.32e-01	0	38	104	1572864	70	36044
2026-01-05 00:56:28.89	21.20	8.31	-49.7	-68.2	5.4	6.98e-01	0	38	0	1572864	70	31328
2026-01-05 00:56:31.90	21.32	8.57	-49.7	-66.8	6.4	6.76e-01	0	37	0	5242880	70	26516
2026-01-05 00:56:34.91	21.45	8.82	-49.6	-64.5	8.5	6.39e-01	0	38	0	11010048	70	20425
2026-01-05 00:56:37.93	21.57	9.09	-49.4	-60.8	12.2	6.09e-01	0	38	0	16777216	70	13405
2026-01-05 00:56:40.93	21.70	9.35	-50.2	-67.3	6.1	6.85e-01	0	38	0	22020096	70	28145
2026-01-05 00:56:43.94	21.83	9.61	-47.7	-52.5	20.5	6.04e-01	0	38	0	27787264	67	6090
2026-01-05 00:56:46.86	21.96	9.88	-47.3	-51.4	21.7	6.04e-01	0	38	0	33554432	66	5658
2026-01-05 00:56:50.01	22.10	10.16	-47.1	-50.9	22.1	6.04e-01	0	38	0	39321600	66	5363
2026-01-05 00:56:52.88	22.23	10.43	-47.1	-50.8	22.2	6.06e-01	0	38	0	44564480	66	5297
2026-01-05 00:56:56.02	22.37	10.72	-47.4	-50.8	22.2	6.03e-01	0	38	0	50331648	66	5337
2026-01-05 00:56:58.89	22.51	10.99	-47.4	-50.5	22.5	6.04e-01	0	38	0	56098816	66	5158
2026-01-05 00:57:02.04	22.66	11.29	-47.6	-50.6	22.4	6.02e-01	0	38	0	61865984	66	5180
2026-01-05 00:57:04.90	22.80	11.56	-47.6	-50.5	22.5	6.02e-01	0	38	0	67108864	66	5136
2026-01-05 00:57:08.05	22.96	11.87	-47.6	-50.4	22.7	6.02e-01	0	38	0	72876032	66	5063
2026-01-05 00:57:10.91	23.10	12.15	-47.4	-50.3	22.7	6.05e-01	0	38	0	78643200	66	5014
2026-01-05 00:57:14.07	23.27	12.47	-47.5	-50.4	22.7	6.04e-01	0	38	0	84410368	66	5058
2026-01-05 00:57:17.13	23.43	12.78	-47.6	-50.4	22.7	6.06e-01	0	38	0	90177536	66	5076
2026-01-05 00:57:20.26	23.60	13.10	-47.5	-50.3	22.8	6.03e-01	0	38	0	95944704	66	5004
2026-01-05 00:57:23.34	23.77	13.43	-47.2	-50.2	22.9	6.03e-01	0	38	0	101711872	66	4929
2026-01-05 00:57:26.35	23.94	13.75	-47.0	-49.9	23.1	6.04e-01	0	38	0	107479040	66	4812
2026-01-05 00:57:29.36	24.12	14.07	-47.0	-50.0	23.1	6.05e-01	0	38	0	113246208	66	4824
2026-01-05 00:57:32.37	24.29	14.40	-47.1	-50.1	23.0	6.04e-01	0	38	0	118489088	66	4887
2026-01-05 00:57:35.37	24.48	14.73	-47.2	-50.2	22.9	6.05e-01	0	38	0	124256256	66	4945
2026-01-05 00:57:38.38	24.66	15.07	-47.2	-50.1	23.0	6.03e-01	0	38	0	130023424	66	4871
2026-01-05 00:57:41.39	24.85	15.41	-47.3	-50.1	23.1	6.06e-01	0	39	0	135790592	66	4892
2026-01-05 00:57:44.40	25.05	15.76	-47.4	-50.1	23.0	6.04e-01	0	38	0	141033472	66	4897
2026-01-05 00:57:47.42	25.25	16.11	-47.0	-49.7	23.3	6.06e-01	0	39	0	146800640	66	4688
2026-01-05 00:57:50.49	25.46	16.48	-47.0	-49.8	23.3	6.05e-01	0	38	0	152567808	65	4997
2026-01-05 00:57:53.36	25.66	16.83	-46.9	-49.9	23.2	6.05e-01	0	38	0	157810688	65	5068
2026-01-05 00:57:56.51	25.88	17.22	-46.6	-49.8	23.3	6.04e-01	0	38	0	164102144	65	4999
2026-01-05 00:57:59.37	26.09	17.57	-46.4	-49.7	23.3	6.04e-01	0	38	0	169345024	64	5265
2026-01-05 00:58:02.64	26.33	17.99	-46.2	-49.5	23.6	6.03e-01	0	38	0	175636480	64	5124
2026-01-05 00:58:05.49	26.55	18.36	-46.4	-49.6	23.5	6.04e-01	0	38	0	180879360	64	5184
2026-01-05 00:58:08.65	26.80	18.77	-46.7	-49.8	23.3	6.03e-01	0	38	0	186646528	64	5302
2026-01-05 00:58:11.62	27.04	19.17	-46.7	-49.7	23.4	6.02e-01	0	38	0	192413696	64	5230
2026-01-05 00:58:15.01	27.33	19.63	-46.6	-49.6	23.5	6.06e-01	0	39	0	198705152	64	5190
2026-01-05 00:58:17.94	27.58	20.04	-46.6	-49.7	23.3	6.05e-01	0	39	0	203948032	64	5269
2026-01-05 00:58:21.23	27.87	20.50	-46.7	-49.7	23.4	6.03e-01	0	38	0	210239488	64	5267
2026-01-05 00:58:23.95	28.11	20.89	-46.6	-49.6	23.5	6.05e-01	0	38	0	215482368	64	5171
2026-01-05 00:58:27.53	28.45	21.41	-46.6	-49.7	23.4	6.04e-01	0	38	0	222298112	64	5257
2026-01-05 00:58:30.25	28.71	21.82	-46.6	-49.8	23.3	6.03e-01	0	38	0	227016704	64	5336
2026-01-05 00:58:33.99	29.08	22.39	-46.8	-49.8	23.4	6.04e-01	0	39	0	234356736	64	5302
2026-01-05 00:58:36.74	29.37	22.81	-47.0	-49.8	23.3	6.04e-01	0	38	0	239599616	64	5308
2026-01-05 00:58:40.49	29.76	23.40	-47.0	-49.9	23.3	6.04e-01	0	38	0	246415360	64	5378
2026-01-05 00:58:43.54	30.10	23.90	-47.2	-49.9	23.3	6.02e-01	0	39	0	252182528	64	5368
2026-01-05 00:58:46.69	30.46	24.41	-47.2	-49.9	23.2	6.04e-01	0	38	0	257949696	65	5079
2026-01-05 00:58:49.56	30.79	24.89	-47.3	-50.1	23.1	6.02e-01	0	39	0	263192576	65	5170
2026-01-05 00:58:52.94	31.20	25.47	-47.3	-50.1	23.1	6.03e-01	0	39	0	269484032	65	5178
2026-01-05 00:58:55.88	31.57	25.98	-47.0	-49.9	23.2	6.07e-01	0	38	0	275251200	65	5083
2026-01-05 00:58:59.23	32.01	26.58	-47.0	-49.7	23.4	6.02e-01	0	39	0	281542656	65	4983
2026-01-05 00:59:01.95	32.37	27.07	-47.0	-49.7	23.5	6.06e-01	0	38	0	286785536	65	4936
2026-01-05 00:59:05.25	32.83	27.68	-46.9	-49.8	23.4	6.03e-01	0	38	0	292552704	65	4988
2026-01-05 00:59:07.97	33.22	28.19	-46.8	-49.6	23.6	6.04e-01	0	38	0	297795584	65	4871
2026-01-05 00:59:11.26	33.72	28.83	-46.9	-49.5	23.6	6.05e-01	0	39	0	304087040	65	4861
2026-01-05 00:59:13.99	34.14	29.36	-46.8	-49.4	23.7	6.05e-01	0	38	0	309329920	65	4808
2026-01-05 00:59:17.28	34.67	30.02	-46.9	-49.6	23.6	6.04e-01	0	38	0	315621376	65	4873
2026-01-05 00:59:20.00	35.13	30.57	-46.7	-49.5	23.7	6.03e-01	0	39	0	320339968	65	4822
2026-01-05 00:59:23.30	35.70	31.25	-46.7	-49.5	23.6	6.03e-01	0	39	0	326631424	65	4854
2026-01-05 00:59:26.16	36.22	31.86	-46.8	-49.5	23.6	6.05e-01	0	38	0	331874304	65	4856
2026-01-05 00:59:29.31	36.81	32.54	-46.9	-49.8	23.5	6.04e-01	0	38	0	337641472	65	4989
2026-01-05 00:59:32.18	37.37	33.17	-47.3	-49.9	23.3	6.04e-01	0	39	0	343408640	65	5092
2026-01-05 00:59:35.37	38.02	33.88	-47.3	-50.0	23.2	6.02e-01	0	38	0	349175808	65	5132
2026-01-05 00:59:38.22	38.63	34.53	-47.4	-50.2	23.0	6.06e-01	0	39	0	354942976	65	5263
2026-01-05 00:59:41.52	39.37	35.30	-47.8	-50.8	22.6	6.04e-01	0	38	0	360710144	66	5299
2026-01-05 00:59:44.41	40.04	35.98	-48.1	-51.0	22.4	6.04e-01	0	39	0	365953024	66	5439
2026-01-05 00:59:48.25	40.98	36.90	-48.2	-51.1	22.3	6.03e-01	0	38	0	373293056	67	5165
2026-01-05 00:59:50.98	41.68	37.57	-48.3	-51.2	22.2	6.04e-01	0	39	0	378535936	67	5269
2026-01-05 00:59:54.73	42.70	38.51	-48.2	-51.1	22.3	6.05e-01	0	39	0	385875968	67	5195
2026-01-05 00:59:58.25	43.70	39.40	-48.2	-51.0	22.4	6.05e-01	0	39	0	392167424	67	5129
2026-01-05 01:00:01.44	44.67	40.23	-47.8	-50.6	22.8	6.02e-01	0	38	0	397934592	67	4874
2026-01-05 01:00:04.30	45.57	40.97	-47.8	-50.5	22.8	6.05e-01	0	39	0	403701760	67	4823
2026-01-05 01:00:07.45	46.62	41.81	-47.4	-50.0	23.2	6.04e-01	0	39	0	409468928	66	4865
2026-01-05 01:00:10.40	47.65	42.59	-47.3	-49.9	23.3	6.03e-01	0	39	0	414711808	66	4809
2026-01-05 01:00:13.64	48.85	43.47	-46.7	-49.2	23.9	6.05e-01	0	38	0	421003264	65	4657
2026-01-05 01:00:16.50	49.96	44.25	-46.7	-49.2	23.9	6.05e-01	0	38	0	426246144	65	4702
2026-01-05 01:00:19.65	51.24	45.11	-46.4	-48.8	24.3	6.04e-01	0	38	0	432537600	64	4727
2026-01-05 01:00:22.66	52.54	45.94	-46.3	-48.7	24.4	6.01e-01	0	39	0	437780480	64	4679
2026-01-05 01:00:26.02	54.08	46.86	-46.5	-49.0	24.1	6.04e-01	0	38	0	444071936	64	4832
2026-01-05 01:00:29.28	55.65	47.76	-46.6	-49.0	24.2	6.04e-01	0	38	0	450363392	64	4828
2026-01-05 01:00:32.29	57.19	48.58	-46.9	-49.4	23.8	6.06e-01	0	39	0	456130560	64	5063
2026-01-05 01:00:35.30	58.81	49.40	-46.8	-49.3	23.9	6.05e-01	0	39	0	461897728	64	5017
2026-01-05 01:00:38.36	60.56	50.22	-46.7	-49.2	23.9	6.03e-01	0	39	0	467140608	64	4941
2026-01-05 01:00:41.29	62.31	50.99	-46.4	-48.8	24.4	6.03e-01	0	39	0	472907776	64	4717
2026-01-05 01:00:44.59	64.41	51.84	-46.6	-49.0	24.2	6.03e-01	0	38	0	479199232	64	4836
2026-01-05 01:00:47.31	66.22	52.52	-46.7	-49.1	24.1	6.04e-01	0	39	0	483917824	64	4906
2026-01-05 01:00:50.62	68.54	53.32	-47.1	-49.6	23.6	6.03e-01	0	38	0	490209280	64	5186
2026-01-05 01:00:53.86	70.94	54.07	-46.9	-49.3	23.8	6.04e-01	0	39	0	496500736	65	4749
2026-01-05 01:00:56.75	73.19	54.71	-46.9	-49.4	23.8	6.05e-01	0	38	0	501743616	65	4774
2026-01-05 01:01:00.26	76.05	55.43	-47.4	-50.0	23.2	6.03e-01	0	39	0	508559360	65	5133
2026-01-05 01:01:02.98	78.37	55.94	-48.0	-50.8	22.6	6.03e-01	0	39	0	513802240	66	5288
2026-01-05 01:01:06.27	81.28	56.51	-48.4	-51.3	22.1	6.03e-01	0	38	0	519569408	67	5305
2026-01-05 01:01:09.09	83.87	56.94	-48.1	-51.0	22.4	6.06e-01	0	39	0	524812288	67	5131
2026-01-05 01:01:12.34	86.95	57.37	-48.0	-50.8	22.6	6.04e-01	0	39	0	531103744	67	5009
2026-01-05 01:01:15.34	89.88	57.70	-48.2	-51.1	22.3	6.03e-01	0	39	0	536870912	67	5209
2026-01-05 01:01:18.35	92.88	57.96	-48.5	-51.5	22.0	6.00e-01	0	39	0	542113792	67	5429
2026-01-05 01:01:21.36	95.93	58.15	-48.6	-51.7	21.9	6.01e-01	0	38	0	547880960	68	5242
2026-01-05 01:01:24.37	99.01	58.26	-48.4	-51.2	22.2	6.04e-01	0	38	0	553648128	68	4970
2026-01-05 01:01:27.39	102.13	58.30	-48.3	-51.2	22.4	6.03e-01	0	39	0	559415296	68	4947
2026-01-05 01:01:30.26	105.09	58.26	-48.3	-51.1	22.5	6.04e-01	0	39	0	564658176	68	4874
2026-01-05 01:01:33.40	108.31	58.14	-48.7	-51.6	21.9	6.06e-01	0	39	0	570425344	68	5180
2026-01-05 01:01:36.27	111.21	57.96	-48.4	-51.3	22.3	6.03e-01	0	39	0	576192512	68	5017
2026-01-05 01:01:39.41	114.34	57.68	-48.1	-51.0	22.5	6.03e-01	0	39	0	581959680	68	4839
2026-01-05 01:01:42.34	117.20	57.36	-47.9	-50.6	22.8	6.03e-01	0	39	0	587202560	67	4918
2026-01-05 01:01:45.63	120.32	56.92	-47.6	-50.2	23.0	6.04e-01	0	39	0	593494016	67	4703
2026-01-05 01:01:48.35	122.82	56.50	-47.7	-50.4	23.0	6.06e-01	0	38	0	598736896	66	5052
2026-01-05 01:01:51.65	125.74	55.93	-47.6	-50.2	23.2	6.05e-01	0	39	0	605028352	66	4957
2026-01-05 01:01:54.36	128.05	55.41	-47.4	-50.1	23.2	6.05e-01	0	39	0	609746944	66	4894
2026-01-05 01:01:57.66	130.75	54.73	-46.9	-49.5	23.7	6.04e-01	0	39	0	616038400	65	4829
2026-01-05 01:02:00.46	132.93	54.12	-47.0	-49.6	23.7	6.03e-01	0	39	0	621281280	65	4872
2026-01-05 01:02:03.55	135.24	53.41	-46.8	-49.2	24.0	6.05e-01	0	38	0	627048448	65	4698
2026-01-05 01:02:06.62	137.42	52.67	-47.2	-49.8	23.5	6.04e-01	0	39	0	632815616	65	5024
2026-01-05 01:02:09.77	139.54	51.88	-47.3	-49.9	23.4	6.05e-01	0	38	0	638582784	65	5089
2026-01-05 01:02:12.63	141.37	51.14	-47.5	-50.1	23.2	6.06e-01	0	39	0	644349952	66	4900
2026-01-05 01:02:15.78	143.28	50.31	-47.4	-50.1	23.3	6.04e-01	0	39	0	650117120	66	4877
2026-01-05 01:02:18.66	144.93	49.53	-47.6	-50.3	23.1	6.04e-01	0	39	0	655360000	66	5001
2026-01-05 01:02:22.21	146.86	48.57	-47.9	-50.6	22.8	6.06e-01	0	39	0	662175744	67	4897
2026-01-05 01:02:24.93	148.26	47.82	-47.5	-50.2	23.2	6.03e-01	0	39	0	667418624	67	4658
2026-01-05 01:02:28.23	149.87	46.91	-47.6	-50.3	23.0	6.03e-01	0	38	0	673185792	67	4758
2026-01-05 01:02:30.95	151.13	46.16	-47.5	-50.0	23.3	6.04e-01	0	38	0	678428672	67	4590
2026-01-05 01:02:34.50	152.68	45.18	-47.6	-50.3	23.1	6.03e-01	0	39	0	685244416	66	5008
2026-01-05 01:02:37.42	153.89	44.38	-47.2	-49.7	23.6	6.06e-01	0	39	0	690487296	66	4662
2026-01-05 01:02:41.21	155.36	43.34	-47.5	-50.2	23.1	6.04e-01	0	39	0	697827328	66	4956
2026-01-05 01:02:44.07	156.42	42.56	-47.5	-50.1	23.2	6.02e-01	0	38	0	703070208	66	4889
2026-01-05 01:02:48.11	157.82	41.48	-47.9	-50.6	22.8	6.05e-01	0	38	0	710410240	66	5169
2026-01-05 01:02:50.89	158.74	40.74	-47.9	-50.5	22.9	6.03e-01	0	39	0	715653120	66	5145
2026-01-05 01:02:54.72	159.93	39.74	-48.1	-50.9	22.5	6.02e-01	0	38	0	722993152	67	5068
2026-01-05 01:02:57.43	160.73	39.04	-47.7	-50.4	23.0	6.03e-01	0	38	0	728236032	67	4760
2026-01-05 01:03:00.71	161.65	38.21	-47.9	-50.7	22.7	6.04e-01	0	38	0	734527488	67	4936
2026-01-05 01:03:03.71	162.46	37.46	-47.7	-50.4	23.0	6.07e-01	0	38	0	739770368	67	4764
2026-01-05 01:03:06.77	163.24	36.71	-47.4	-50.1	23.2	6.05e-01	0	39	0	745537536	66	4882
2026-01-05 01:03:09.86	164.00	35.96	-47.1	-49.7	23.5	6.04e-01	0	38	0	751304704	66	4693
2026-01-05 01:03:12.81	164.69	35.26	-46.9	-49.5	23.7	6.06e-01	0	38	0	757071872	65	4834
2026-01-05 01:03:16.28	165.46	34.45	-46.5	-48.9	24.2	6.04e-01	0	39	0	763363328	64	4798
2026-01-05 01:03:19.29	166.11	33.76	-46.4	-48.9	24.3	6.02e-01	0	39	0	769130496	64	4770
2026-01-05 01:03:22.30	166.72	33.08	-46.5	-49.0	23.9	6.06e-01	0	39	0	774897664	64	4861
2026-01-05 01:03:25.28	167.31	32.43	-46.2	-48.6	24.5	6.03e-01	0	39	0	780140544	64	4630
2026-01-05 01:03:28.41	167.90	31.75	-46.1	-48.5	24.5	6.04e-01	0	38	0	786432000	64	4589
2026-01-05 01:03:31.27	168.41	31.14	-46.1	-48.5	24.6	6.06e-01	0	38	0	791674880	64	4547
2026-01-05 01:03:34.42	168.96	30.48	-46.1	-48.5	24.5	6.03e-01	0	39	0	797442048	63	4828
2026-01-05 01:03:37.29	169.44	29.90	-46.3	-48.8	24.4	6.03e-01	0	39	0	802684928	63	4988
2026-01-05 01:03:40.57	169.97	29.24	-46.3	-48.7	24.4	6.04e-01	0	38	0	808976384	63	4954
2026-01-05 01:03:43.29	170.39	28.71	-46.4	-48.8	24.4	6.03e-01	0	39	0	814219264	63	5018
2026-01-05 01:03:46.59	170.88	28.07	-46.5	-48.9	24.3	6.03e-01	0	39	0	820510720	63	5078
2026-01-05 01:03:49.52	171.30	27.51	-46.5	-48.9	24.2	6.04e-01	0	39	0	825753600	63	5081
2026-01-05 01:03:52.52	171.72	26.96	-46.5	-48.9	24.2	6.03e-01	0	39	0	831520768	64	4814
2026-01-05 01:03:55.53	172.12	26.41	-46.7	-49.3	23.9	6.04e-01	0	39	0	837287936	64	4995
2026-01-05 01:03:58.58	172.52	25.87	-46.8	-49.4	23.7	6.03e-01	0	39	0	843055104	64	5072
2026-01-05 01:04:01.53	172.89	25.35	-46.8	-49.4	23.8	6.04e-01	0	39	0	848297984	64	5071
2026-01-05 01:04:04.54	173.25	24.83	-47.0	-49.6	23.6	6.03e-01	0	39	0	854065152	64	5205
2026-01-05 01:04:07.54	173.61	24.33	-47.1	-49.8	23.4	6.03e-01	0	39	0	859832320	64	5311
2026-01-05 01:04:10.55	173.95	23.83	-47.0	-49.6	23.6	6.02e-01	0	38	0	865075200	64	5199
2026-01-05 01:04:13.55	174.28	23.34	-47.1	-49.7	23.5	6.04e-01	0	38	0	870842368	65	4966
2026-01-05 01:04:16.56	174.60	22.86	-46.9	-49.5	23.6	6.04e-01	0	38	0	876609536	65	4856
2026-01-05 01:04:19.56	174.91	22.39	-46.9	-49.6	23.5	6.03e-01	0	38	0	881852416	65	4888
2026-01-05 01:04:22.57	175.21	21.93	-46.9	-49.6	23.6	6.04e-01	0	39	0	887619584	65	4885
2026-01-05 01:04:25.58	175.51	21.47	-46.7	-49.4	23.8	6.04e-01	0	39	0	893386752	65	4762
2026-01-05 01:04:28.59	175.79	21.03	-46.8	-49.5	23.6	6.05e-01	0	38	0	899153920	65	4859
2026-01-05 01:04:31.59	176.07	20.59	-46.7	-49.4	23.8	6.04e-01	0	39	0	904921088	65	4770
2026-01-05 01:04:34.60	176.33	20.16	-46.6	-49.2	23.9	6.05e-01	0	39	0	910163968	65	4667
2026-01-05 01:04:37.69	176.60	19.73	-46.7	-49.3	23.8	6.04e-01	0	39	0	915931136	65	4727
2026-01-05 01:04:41.04	176.88	19.26	-46.6	-49.3	23.9	6.03e-01	0	39	0	922222592	65	4707
2026-01-05 01:04:43.76	177.11	18.89	-46.7	-49.4	23.8	6.02e-01	0	38	0	927465472	65	4761
2026-01-05 01:04:47.04	177.37	18.46	-46.8	-49.4	23.7	6.04e-01	0	39	0	933756928	65	4781
2026-01-05 01:04:49.76	177.58	18.10	-46.9	-49.6	23.5	6.02e-01	0	39	0	938475520	65	4903
2026-01-05 01:04:53.25	177.84	17.65	-46.8	-49.5	23.6	6.03e-01	0	39	0	945291264	65	4837
2026-01-05 01:04:56.01	178.05	17.30	-46.7	-49.4	23.7	6.06e-01	0	38	0	950534144	65	4788
2026-01-05 01:04:59.30	178.28	16.89	-46.7	-49.4	23.7	6.07e-01	0	38	0	956825600	65	4779
2026-01-05 01:05:02.02	178.47	16.55	-46.7	-49.3	23.7	6.03e-01	0	39	0	961544192	64	5021
2026-01-05 01:05:05.62	178.72	16.12	-46.7	-49.3	23.8	6.07e-01	0	39	0	968359936	64	5024
2026-01-05 01:05:08.73	178.93	15.75	-46.6	-49.4	23.7	6.04e-01	0	38	0	974127104	64	5069
2026-01-05 01:05:11.88	179.13	15.38	-46.7	-49.4	23.6	6.01e-01	0	38	0	980418560	64	5096
2026-01-05 01:05:14.75	179.31	15.05	-46.7	-49.4	23.7	6.04e-01	0	38	0	985661440	64	5058
2026-01-05 01:05:17.90	179.51	14.69	-46.6	-49.3	23.7	6.01e-01	0	39	0	991428608	64	5036
2026-01-05 01:05:20.83	179.68	14.37	-46.7	-49.4	23.6	6.04e-01	0	39	0	997195776	64	5073
2026-01-05 01:05:24.12	179.88	14.00	-46.7	-49.4	23.6	6.06e-01	0	39	0	1003487232	64	5071
2026-01-05 01:05:26.85	180.04	13.71	-46.8	-49.6	23.5	6.03e-01	0	39	0	1008205824	64	5167
2026-01-05 01:05:30.12	180.22	13.36	-46.8	-49.7	23.4	6.03e-01	0	39	0	1014497280	64	5219
2026-01-05 01:05:32.99	180.38	13.06	-46.6	-49.5	23.5	6.05e-01	0	39	0	1019740160	64	5102
2026-01-05 01:05:36.36	180.56	12.70	-46.7	-49.5	23.5	6.03e-01	0	39	0	1026031616	64	5101
2026-01-05 01:05:39.36	180.72	12.40	-46.5	-49.3	23.6	6.03e-01	0	38	0	1031798784	64	5041
2026-01-05 01:05:42.37	180.87	12.09	-46.8	-49.6	23.4	6.03e-01	0	39	0	1037565952	64	5214
2026-01-05 01:05:45.36	181.03	11.79	-46.8	-49.7	23.3	6.02e-01	0	39	0	1042808832	64	5233
2026-01-05 01:05:48.43	181.18	11.49	-46.8	-49.7	23.3	6.03e-01	0	39	0	1048576000	64	5258
2026-01-05 01:05:51.35	181.32	11.21	-46.9	-49.8	23.2	6.05e-01	0	38	0	1054343168	64	5307
2026-01-05 01:05:54.64	181.48	10.89	-47.0	-49.9	23.1	6.02e-01	0	39	0	1060634624	64	5374
2026-01-05 01:05:57.35	181.60	10.64	-47.1	-50.0	22.9	6.04e-01	0	39	0	1065353216	64	5457
2026-01-05 01:06:00.64	181.75	10.33	-47.1	-50.1	22.9	6.03e-01	0	39	0	1071644672	65	5172
2026-01-05 01:06:03.61	181.89	10.05	-47.2	-50.2	22.7	6.03e-01	0	38	0	1077411840	65	5276
2026-01-05 01:06:06.61	182.02	9.78	-47.3	-50.3	22.7	6.02e-01	0	39	0	1082654720	65	5300
2026-01-05 01:06:09.62	182.15	9.51	-47.4	-50.4	22.6	6.04e-01	0	38	0	1088421888	65	5365
2026-01-05 01:06:12.78	182.28	9.23	-47.5	-50.6	22.4	6.05e-01	0	39	0	1094189056	65	5476
2026-01-05 01:06:15.65	182.40	8.97	-48.2	-51.6	21.8	6.02e-01	0	39	0	1099956224	66	5808
2026-01-05 01:06:18.80	182.53	8.70	-53.6	-74.8	3.8	7.50e-01	0	39	104	1100480512	78	42238
2026-01-05 01:06:21.66	182.65	8.45	-54.6	-74.9	3.8	7.46e-01	0	39	104	1100480512	80	37944
2026-01-05 01:06:24.82	182.77	8.18	-54.5	-75.0	3.8	7.48e-01	0	39	104	1100480512	80	38269
2026-01-05 01:06:27.68	182.88	7.94	-54.9	-75.0	3.8	7.45e-01	0	39	104	1100480512	80	38296
2026-01-05 01:06:30.84	183.00	7.68	-55.0	-75.0	3.8	7.46e-01	0	39	104	1100480512	80	38452
2026-01-05 01:06:33.71	183.11	7.44	-54.9	-75.0	3.8	7.45e-01	0	39	104	1100480512	80	38468
2026-01-05 01:06:36.87	183.22	7.18	-54.9	-75.0	3.8	7.46e-01	0	39	104	1100480512	80	38509
2026-01-05 01:06:39.73	183.33	6.95	-54.7	-75.0	3.8	7.47e-01	0	39	104	1100480512	80	38425
2026-01-05 01:06:42.89	183.44	6.70	-54.2	-75.0	3.8	7.48e-01	0	39	104	1100480512	80	38349
2026-01-05 01:06:45.76	183.54	6.47	-54.1	-75.0	3.8	7.45e-01	0	39	104	1100480512	79	40832
2026-01-05 01:06:48.92	183.65	6.22	-54.0	-75.0	3.8	7.48e-01	0	39	104	1100480512	79	40754
2026-01-05 01:06:51.79	183.75	6.00	-54.1	-75.0	3.8	7.44e-01	0	39	104	1100480512	79	40799
2026-01-05 01:06:54.94	183.85	5.76	-54.0	-75.0	3.8	7.47e-01	0	39	104	1100480512	79	40844
2026-01-05 01:06:57.81	183.95	5.54	-54.1	-75.0	3.8	7.44e-01	0	38	104	1100480512	79	40825
2026-01-05 01:07:00.97	184.05	5.30	-54.1	-75.0	3.8	7.52e-01	0	39	104	1100480512	79	40963
2026-01-05 01:07:03.84	184.14	5.09	-54.1	-75.0	3.8	7.48e-01	0	39	104	1100480512	79	40947

#Closed at: 2026-01-05 01:07:05
#Recorded file [1100 MB]: D:/Data/31040_260105_035546.dat