passes_logs/2026/01/05/T1/T1__20260105_035011_FENGYUN_3E_rec.log

#Pass ID: 20260105_035011_FENGYUN 3E
#Satellite: FENGYUN 3E
#Configuration: FENGYUN 3E
#almurnet v.1.7.20251203
#Start time: 2026-01-05 03:50:11

#Version: 2.0.20230620
#Station: T1
#Location: 37.570604 lon 55.790049 lat
#TLE: 1 49008U 21062A   26004.29457719  .00000106  00000+0  70678-4 0  9996
#TLE: 2 49008  98.7471   9.5487 0001503 159.9821 200.1414 14.19883545233329

#Time	Az	El	Level	Level2	SNR	BER	BlckErr	Temp	State	Recorded	gain1	gain2
2026-01-05 03:50:11.78	17.21	5.04	-52.3	-63.9	3.8	8.47e-01	0	40	0	0	74	14108
2026-01-05 03:50:15.79	17.25	5.32	-52.3	-63.8	3.8	8.47e-01	0	40	104	0	74	14028
2026-01-05 03:50:19.81	17.30	5.61	-52.2	-63.5	3.8	8.47e-01	0	40	104	0	74	13537
2026-01-05 03:50:23.83	17.34	5.91	-52.2	-63.2	3.8	8.46e-01	0	40	104	0	74	13028
2026-01-05 03:50:27.84	17.39	6.20	-52.2	-63.3	3.8	8.46e-01	0	40	104	0	74	13115
2026-01-05 03:50:31.86	17.43	6.50	-52.3	-63.7	3.8	8.48e-01	0	40	104	0	74	13792
2026-01-05 03:50:35.88	17.48	6.80	-52.2	-63.4	3.8	8.46e-01	0	40	104	0	74	13362
2026-01-05 03:50:39.89	17.53	7.11	-52.0	-61.8	3.8	8.45e-01	0	41	104	0	74	11056
2026-01-05 03:50:43.91	17.58	7.42	-51.8	-60.1	4.3	8.34e-01	0	41	0	0	74	9071
2026-01-05 03:50:47.93	17.63	7.74	-51.6	-59.1	4.7	8.17e-01	0	41	0	0	73	8612
2026-01-05 03:50:51.94	17.68	8.06	-51.5	-58.4	5.0	7.70e-01	0	41	0	0	73	7906
2026-01-05 03:50:55.96	17.73	8.38	-51.2	-57.3	5.7	4.71e-01	0	41	0	2097152	73	6971
2026-01-05 03:50:59.98	17.78	8.71	-50.5	-55.1	7.5	1.19e-01	0	41	0	31457280	71	6130
2026-01-05 03:51:03.99	17.83	9.04	-49.5	-52.9	9.8	1.34e-02	0	41	0	60817408	69	5299
2026-01-05 03:51:08.37	17.89	9.40	-46.9	-48.7	14.0	7.93e-04	0	41	0	87031808	64	4390
2026-01-05 03:51:12.38	17.94	9.74	-43.7	-44.9	17.8	0.00e+00	0	41	0	116391936	58	3975
2026-01-05 03:51:16.44	18.00	10.09	-43.3	-44.4	18.3	0.00e+00	0	41	0	145752064	57	3990
2026-01-05 03:51:20.64	18.06	10.46	-42.8	-43.9	18.8	0.00e+00	0	41	0	176160768	56	3976
2026-01-05 03:51:24.79	18.12	10.83	-42.5	-43.5	19.0	0.00e+00	0	41	0	206569472	55	4040
2026-01-05 03:51:28.80	18.17	11.19	-42.3	-43.4	19.1	0.00e+00	0	41	0	234881024	55	3967
2026-01-05 03:51:32.81	18.23	11.55	-42.1	-43.1	19.4	0.00e+00	0	42	0	264241152	55	3868
2026-01-05 03:51:36.82	18.29	11.92	-42.1	-43.1	19.4	0.00e+00	0	42	0	292552704	54	4097
2026-01-05 03:51:40.84	18.35	12.30	-42.0	-43.0	19.5	0.00e+00	0	42	0	321912832	54	4041
2026-01-05 03:51:44.84	18.41	12.68	-41.9	-42.9	19.6	0.00e+00	0	42	0	351272960	54	3977
2026-01-05 03:51:48.85	18.48	13.07	-41.8	-42.8	19.7	0.00e+00	0	42	0	379584512	54	3950
2026-01-05 03:51:52.85	18.54	13.47	-41.7	-42.7	19.8	0.00e+00	0	42	0	408944640	53	4135
2026-01-05 03:51:56.86	18.61	13.87	-41.5	-42.5	20.0	0.00e+00	0	42	0	437256192	53	4021
2026-01-05 03:52:01.01	18.68	14.29	-41.4	-42.3	20.2	0.00e+00	0	42	0	467664896	53	3949
2026-01-05 03:52:05.03	18.74	14.71	-41.2	-42.2	20.3	0.00e+00	0	42	0	495976448	53	3876
2026-01-05 03:52:09.09	18.81	15.14	-41.1	-42.1	20.4	0.00e+00	0	42	0	525336576	52	4074
2026-01-05 03:52:13.13	18.89	15.57	-41.1	-42.1	20.5	0.00e+00	0	42	0	554696704	52	4059
2026-01-05 03:52:17.14	18.96	16.01	-41.0	-42.0	20.5	0.00e+00	0	42	0	584056832	52	4014
2026-01-05 03:52:21.16	19.03	16.46	-40.6	-41.6	20.9	0.00e+00	0	42	0	612368384	51	4054
2026-01-05 03:52:25.17	19.11	16.91	-40.7	-41.6	20.9	0.00e+00	0	42	0	641728512	51	4087
2026-01-05 03:52:29.18	19.19	17.38	-40.6	-41.5	21.1	0.00e+00	0	42	0	671088640	51	4021
2026-01-05 03:52:33.19	19.27	17.85	-40.5	-41.4	21.1	0.00e+00	0	42	0	699400192	51	4003
2026-01-05 03:52:37.27	19.35	18.34	-40.3	-41.2	21.3	0.00e+00	0	42	0	728760320	51	3902
2026-01-05 03:52:41.61	19.45	18.87	-40.3	-41.2	21.3	0.00e+00	0	42	0	760217600	51	3883
2026-01-05 03:52:45.62	19.53	19.38	-40.5	-41.4	21.2	0.00e+00	0	42	0	789577728	51	3961
2026-01-05 03:52:49.75	19.63	19.91	-40.2	-41.1	21.5	0.00e+00	0	42	0	818937856	51	3828
2026-01-05 03:52:53.75	19.72	20.43	-40.2	-41.1	21.4	0.00e+00	0	42	0	848297984	50	4083
2026-01-05 03:52:57.76	19.81	20.96	-39.9	-40.8	21.7	0.00e+00	0	42	0	876609536	50	3928
2026-01-05 03:53:01.77	19.91	21.51	-40.0	-40.8	21.7	0.00e+00	0	42	0	905969664	50	3946
2026-01-05 03:53:06.15	20.02	22.12	-39.9	-40.7	21.7	0.00e+00	0	42	0	937426944	50	3907
2026-01-05 03:53:10.06	20.12	22.68	-39.7	-40.6	21.9	0.00e+00	0	42	0	965738496	50	3854
2026-01-05 03:53:14.15	20.23	23.28	-39.9	-40.7	21.8	0.00e+00	0	42	0	995098624	50	3902
2026-01-05 03:53:18.21	20.34	23.89	-39.7	-40.6	21.9	0.00e+00	0	42	0	1024458752	50	3831
2026-01-05 03:53:22.24	20.46	24.50	-39.8	-40.6	21.8	0.00e+00	0	42	0	1053818880	50	3866
2026-01-05 03:53:26.26	20.58	25.13	-39.8	-40.7	21.8	0.00e+00	0	42	0	1083179008	50	3886
2026-01-05 03:53:30.27	20.70	25.78	-39.9	-40.8	21.8	0.00e+00	0	42	0	1111490560	50	3918
2026-01-05 03:53:34.28	20.83	26.44	-39.5	-40.4	22.1	0.00e+00	0	42	0	1140850688	49	3961
2026-01-05 03:53:38.46	20.96	27.14	-39.4	-40.3	22.2	0.00e+00	0	42	0	1171259392	49	3933
2026-01-05 03:53:42.47	21.10	27.84	-39.2	-40.1	22.4	0.00e+00	0	42	0	1199570944	49	3829
2026-01-05 03:53:46.62	21.25	28.58	-39.0	-39.8	22.6	0.00e+00	0	42	0	1229979648	48	3954
2026-01-05 03:53:50.83	21.41	29.35	-38.8	-39.7	22.7	0.00e+00	0	42	0	1260388352	48	3872
2026-01-05 03:53:54.93	21.56	30.11	-38.9	-39.7	22.7	0.00e+00	0	42	0	1289748480	48	3879
2026-01-05 03:53:59.28	21.74	30.95	-39.0	-39.8	22.6	0.00e+00	0	42	0	1321205760	48	3939
2026-01-05 03:54:03.59	21.92	31.81	-39.3	-40.1	22.4	0.00e+00	0	42	0	1352663040	48	4075
2026-01-05 03:54:07.65	22.11	32.64	-39.4	-40.3	22.2	0.00e+00	0	42	0	1382023168	48	4152
2026-01-05 03:54:11.70	22.29	33.49	-39.4	-40.2	22.3	0.00e+00	0	42	0	1411383296	48	4139
2026-01-05 03:54:15.63	22.49	34.34	-39.2	-40.1	22.4	0.00e+00	0	42	0	1438646272	48	4056
2026-01-05 03:54:19.64	22.69	35.23	-39.0	-39.9	22.6	0.00e+00	0	42	0	1468006400	48	3960
2026-01-05 03:54:23.65	22.91	36.14	-38.9	-39.8	22.7	0.00e+00	0	42	0	1497366528	48	3920
2026-01-05 03:54:27.94	23.16	37.15	-39.2	-40.0	22.4	0.00e+00	0	42	0	1527775232	48	4029
2026-01-05 03:54:31.96	23.40	38.13	-39.3	-40.2	22.3	0.00e+00	0	42	0	1557135360	48	4100
2026-01-05 03:54:35.97	23.66	39.13	-39.0	-39.9	22.6	0.00e+00	0	42	0	1585446912	48	3960
2026-01-05 03:54:39.98	23.93	40.16	-39.4	-40.3	22.3	0.00e+00	0	42	0	1614807040	48	4150
2026-01-05 03:54:44.00	24.22	41.22	-39.7	-40.5	22.1	0.00e+00	0	42	0	1644167168	49	4038
2026-01-05 03:54:48.01	24.53	42.31	-39.6	-40.4	22.1	0.00e+00	0	42	0	1672478720	49	3992
2026-01-05 03:54:52.02	24.86	43.43	-39.5	-40.3	22.1	0.00e+00	0	42	0	1701838848	49	3933
2026-01-05 03:54:56.22	25.23	44.65	-39.5	-40.3	22.1	0.00e+00	0	42	0	1732247552	49	3942
2026-01-05 03:55:00.30	25.62	45.86	-39.9	-40.8	21.6	0.00e+00	0	42	0	1761607680	49	4170
2026-01-05 03:55:04.49	26.05	47.14	-39.9	-40.8	21.7	0.00e+00	0	42	0	1792016384	49	4168
2026-01-05 03:55:08.82	26.53	48.51	-40.2	-41.1	21.3	0.00e+00	0	42	0	1823473664	49	4303
2026-01-05 03:55:12.86	27.02	49.82	-40.4	-41.2	21.2	0.00e+00	0	42	0	1851785216	50	4144
2026-01-05 03:55:16.87	27.55	51.17	-40.5	-41.4	21.1	0.00e+00	0	42	0	1881145344	50	4226
2026-01-05 03:55:20.99	28.14	52.58	-40.5	-41.4	20.9	0.00e+00	0	42	0	1911554048	51	3984
2026-01-05 03:55:25.00	28.78	54.00	-40.6	-41.5	21.0	0.00e+00	0	42	0	1939865600	51	4016
2026-01-05 03:55:29.01	29.48	55.45	-40.4	-41.3	21.1	0.00e+00	0	42	0	1969225728	50	4178
2026-01-05 03:55:33.11	30.27	56.97	-40.3	-41.2	21.2	0.00e+00	0	42	0	1998585856	50	4105
2026-01-05 03:55:37.13	31.14	58.50	-40.3	-41.1	21.1	0.00e+00	0	42	0	2026897408	51	3866
2026-01-05 03:55:41.31	32.15	60.12	-39.9	-40.8	21.7	0.00e+00	0	42	0	2057306112	50	3916
2026-01-05 03:55:45.48	33.30	61.77	-40.8	-41.7	21.0	0.00e+00	0	42	0	2087714816	51	4113
2026-01-05 03:55:49.49	34.56	63.39	-40.2	-41.1	21.7	0.00e+00	0	42	0	2117074944	50	4058
2026-01-05 03:55:53.51	36.01	65.04	-40.2	-41.1	21.8	0.00e+00	0	42	0	2145386496	49	4308
2026-01-05 03:55:57.52	37.68	66.71	-39.9	-40.7	22.1	0.00e+00	0	42	0	2174746624	50	3898
2026-01-05 03:56:01.85	39.81	68.52	-39.6	-40.4	22.6	0.00e+00	0	42	0	2206203904	50	3757
2026-01-05 03:56:05.86	42.15	70.20	-40.5	-41.4	21.7	0.00e+00	0	42	0	2234515456	50	4206
2026-01-05 03:56:09.87	44.96	71.88	-39.9	-40.7	22.3	0.00e+00	0	42	0	2263875584	50	3879
2026-01-05 03:56:14.31	48.78	73.70	-39.7	-40.5	22.5	0.00e+00	0	42	0	2296381440	50	3793
2026-01-05 03:56:18.71	53.54	75.45	-39.2	-40.0	22.8	0.00e+00	0	42	0	2327838720	49	3817
2026-01-05 03:56:23.09	59.58	77.10	-38.7	-39.5	23.2	0.00e+00	0	42	0	2359296000	48	3794
2026-01-05 03:56:27.13	66.66	78.47	-38.6	-39.4	22.9	0.00e+00	0	42	0	2388656128	47	3991
2026-01-05 03:56:31.15	75.47	79.63	-38.1	-38.8	23.4	0.00e+00	0	42	0	2418016256	46	3953
2026-01-05 03:56:35.32	86.67	80.53	-38.2	-39.0	23.3	0.00e+00	0	42	0	2447376384	46	4010
2026-01-05 03:56:39.61	100.03	81.01	-38.5	-39.3	23.0	0.00e+00	0	42	0	2478833664	46	4160
2026-01-05 03:56:43.62	113.18	81.00	-38.2	-39.0	23.3	0.00e+00	0	42	0	2507145216	46	4010
2026-01-05 03:56:47.64	125.67	80.53	-38.0	-38.7	23.4	0.00e+00	0	41	0	2536505344	46	3908
2026-01-05 03:56:51.64	136.48	79.68	-38.4	-39.3	22.7	0.00e+00	0	41	0	2565865472	46	4148
2026-01-05 03:56:55.56	145.20	78.57	-38.3	-39.1	23.1	0.00e+00	0	42	0	2594177024	46	4060
2026-01-05 03:56:59.57	152.36	77.21	-38.2	-39.0	23.2	0.00e+00	0	42	0	2622488576	46	4027
2026-01-05 03:57:03.70	158.21	75.68	-38.8	-39.6	22.7	0.00e+00	0	42	0	2652897280	47	4086
2026-01-05 03:57:07.85	162.88	74.03	-39.9	-40.7	22.3	0.00e+00	0	42	0	2682257408	49	4126
2026-01-05 03:57:11.86	166.52	72.39	-40.1	-41.0	22.1	0.00e+00	0	42	0	2711617536	50	4005
2026-01-05 03:57:15.86	169.49	70.72	-39.9	-40.7	22.2	0.00e+00	0	42	0	2739929088	50	3889
2026-01-05 03:57:19.95	172.02	69.00	-40.4	-41.3	21.9	0.00e+00	0	41	0	2769289216	50	4148
2026-01-05 03:57:24.44	174.33	67.12	-40.0	-40.8	22.2	0.00e+00	0	42	0	2801795072	50	3945
2026-01-05 03:57:28.48	176.08	65.43	-39.8	-40.6	22.3	0.00e+00	0	42	0	2831155200	50	3861
2026-01-05 03:57:32.49	177.58	63.78	-40.4	-41.3	21.8	0.00e+00	0	41	0	2860515328	50	4156
2026-01-05 03:57:36.51	178.89	62.14	-40.8	-41.6	21.5	0.00e+00	0	42	0	2888826880	51	4092
2026-01-05 03:57:40.52	180.03	60.54	-41.0	-41.9	21.2	0.00e+00	0	41	0	2918187008	51	4195
2026-01-05 03:57:44.68	181.07	58.91	-41.4	-42.3	20.8	0.00e+00	0	41	0	2948595712	52	4156
2026-01-05 03:57:48.86	182.00	57.30	-41.5	-42.4	20.9	0.00e+00	0	42	0	2977955840	52	4199
2026-01-05 03:57:52.86	182.80	55.80	-41.2	-42.1	21.0	0.00e+00	0	42	0	3007315968	52	4063
2026-01-05 03:57:56.87	183.52	54.34	-41.1	-42.0	21.1	0.00e+00	0	42	0	3036676096	52	4028
2026-01-05 03:58:01.12	184.21	52.82	-41.3	-42.2	21.0	0.00e+00	0	41	0	3067084800	52	4118
2026-01-05 03:58:05.14	184.80	51.42	-41.4	-42.3	20.9	0.00e+00	0	42	0	3096444928	52	4168
2026-01-05 03:58:09.23	185.35	50.04	-41.4	-42.3	20.9	0.00e+00	0	41	0	3125805056	52	4154
2026-01-05 03:58:13.47	185.87	48.65	-40.9	-41.7	21.3	0.00e+00	0	42	0	3156213760	52	3909
2026-01-05 03:58:17.48	186.32	47.37	-40.7	-41.6	21.6	0.00e+00	0	41	0	3185573888	51	4070
2026-01-05 03:58:21.59	186.75	46.10	-40.5	-41.4	21.7	0.00e+00	0	41	0	3214934016	51	3960
2026-01-05 03:58:25.98	187.17	44.78	-40.1	-40.9	22.1	0.00e+00	0	42	0	3246391296	50	4003
2026-01-05 03:58:30.05	187.54	43.59	-40.0	-40.8	22.2	0.00e+00	0	42	0	3275751424	50	3945
2026-01-05 03:58:34.06	187.87	42.46	-40.3	-41.1	21.9	0.00e+00	0	42	0	3305111552	50	4072
2026-01-05 03:58:38.07	188.18	41.35	-40.1	-40.9	22.1	0.00e+00	0	42	0	3333423104	50	3995
2026-01-05 03:58:42.16	188.48	40.26	-40.2	-41.1	22.0	0.00e+00	0	42	0	3362783232	50	4063
2026-01-05 03:58:46.17	188.76	39.22	-40.1	-40.9	22.1	0.00e+00	0	41	0	3392143360	50	3992
2026-01-05 03:58:50.47	189.03	38.14	-39.8	-40.6	22.3	0.00e+00	0	41	0	3422552064	50	3848
2026-01-05 03:58:54.48	189.28	37.16	-39.7	-40.5	22.4	0.00e+00	0	42	0	3451912192	50	3791
2026-01-05 03:58:58.59	189.51	36.18	-39.9	-40.8	22.3	0.00e+00	0	42	0	3482320896	50	3924
2026-01-05 03:59:03.03	189.75	35.16	-40.0	-40.8	22.2	0.00e+00	0	41	0	3513778176	50	3951
2026-01-05 03:59:07.04	189.96	34.27	-39.4	-40.2	22.6	0.00e+00	0	42	0	3543138304	49	3909
2026-01-05 03:59:11.06	190.16	33.39	-39.4	-40.2	22.7	0.00e+00	0	42	0	3571449856	49	3889
2026-01-05 03:59:15.07	190.34	32.55	-39.5	-40.3	22.7	0.00e+00	0	42	0	3600809984	49	3919
2026-01-05 03:59:19.09	190.52	31.72	-39.9	-40.7	22.2	0.00e+00	0	42	0	3630170112	49	4124
2026-01-05 03:59:23.18	190.69	30.90	-39.9	-40.7	22.2	0.00e+00	0	41	0	3659530240	49	4122
2026-01-05 03:59:27.27	190.86	30.11	-39.9	-40.7	22.1	0.00e+00	0	41	0	3688890368	49	4114
2026-01-05 03:59:31.28	191.01	29.35	-39.7	-40.6	22.4	0.00e+00	0	41	0	3718250496	49	4053
2026-01-05 03:59:35.29	191.16	28.61	-39.9	-40.8	22.2	0.00e+00	0	41	0	3746562048	49	4151
2026-01-05 03:59:39.31	191.30	27.89	-40.1	-40.9	22.0	0.00e+00	0	42	0	3775922176	49	4242
2026-01-05 03:59:43.46	191.45	27.16	-40.4	-41.2	21.8	0.00e+00	0	41	0	3805282304	50	4141
2026-01-05 03:59:47.47	191.58	26.48	-40.5	-41.4	21.6	0.00e+00	0	41	0	3834642432	50	4198
2026-01-05 03:59:51.48	191.70	25.81	-40.6	-41.5	21.7	0.00e+00	0	41	0	3862953984	50	4262
2026-01-05 03:59:55.81	191.84	25.11	-40.6	-41.4	21.6	0.00e+00	0	41	0	3894411264	50	4240
2026-01-05 04:00:00.29	191.97	24.40	-40.5	-41.3	21.8	0.00e+00	0	41	0	3926917120	50	4180
2026-01-05 04:00:04.30	192.08	23.78	-40.5	-41.4	21.7	0.00e+00	0	41	0	3956277248	50	4196
2026-01-05 04:00:08.24	192.19	23.19	-40.4	-41.3	21.8	0.00e+00	0	41	0	3984588800	50	4162
2026-01-05 04:00:12.35	192.29	22.58	-40.5	-41.3	21.8	0.00e+00	0	41	0	4013948928	50	4174
2026-01-05 04:00:16.36	192.39	22.01	-40.5	-41.4	21.7	0.00e+00	0	41	0	4043309056	50	4214
2026-01-05 04:00:20.38	192.49	21.44	-40.5	-41.3	21.6	0.00e+00	0	41	0	4071620608	50	4193
2026-01-05 04:00:24.39	192.59	20.89	-40.5	-41.3	21.8	0.00e+00	0	41	0	4100980736	50	4179
2026-01-05 04:00:28.40	192.68	20.35	-40.7	-41.5	21.6	0.00e+00	0	41	0	4130340864	50	4291
2026-01-05 04:00:32.41	192.77	19.82	-40.7	-41.5	21.6	0.00e+00	0	41	0	4158652416	50	4287
2026-01-05 04:00:36.42	192.86	19.30	-40.8	-41.7	21.5	0.00e+00	0	41	0	4188012544	51	4106
2026-01-05 04:00:40.48	192.94	18.79	-41.0	-41.9	21.2	0.00e+00	0	41	0	4217372672	51	4202
2026-01-05 04:00:44.48	193.03	18.30	-41.1	-42.0	21.1	0.00e+00	0	41	0	4246732800	52	4007
2026-01-05 04:00:48.69	193.11	17.78	-41.3	-42.2	20.9	0.00e+00	0	41	0	4277141504	52	4120
2026-01-05 04:00:52.72	193.19	17.31	-41.4	-42.3	20.8	0.00e+00	0	41	0	4305453056	52	4172
2026-01-05 04:00:56.73	193.26	16.84	-41.8	-42.7	20.4	0.00e+00	0	41	0	4334813184	53	4124
2026-01-05 04:01:00.73	193.34	16.38	-41.8	-42.7	20.4	0.00e+00	0	41	0	4363124736	53	4137
2026-01-05 04:01:04.82	193.41	15.92	-41.9	-42.8	20.4	0.00e+00	0	41	0	4392484864	53	4167
2026-01-05 04:01:08.83	193.48	15.48	-42.0	-43.0	20.2	0.00e+00	0	41	0	4421844992	53	4252
2026-01-05 04:01:12.84	193.55	15.04	-42.0	-43.0	20.2	0.00e+00	0	41	0	4451205120	53	4250
2026-01-05 04:01:16.89	193.62	14.61	-42.1	-43.1	20.0	0.00e+00	0	41	0	4480565248	53	4321
2026-01-05 04:01:20.88	193.68	14.20	-42.1	-43.1	20.1	0.00e+00	0	41	0	4508876800	53	4321
2026-01-05 04:01:24.97	193.75	13.78	-42.3	-43.3	19.9	0.00e+00	0	41	0	4538236928	54	4171
2026-01-05 04:01:28.98	193.81	13.37	-42.4	-43.4	19.8	0.00e+00	0	41	0	4567597056	54	4224
2026-01-05 04:01:33.02	193.87	12.97	-42.6	-43.6	19.6	0.00e+00	0	41	0	4595908608	54	4303
2026-01-05 04:01:37.16	193.93	12.56	-42.7	-43.7	19.6	0.00e+00	0	41	0	4626317312	54	4352
2026-01-05 04:01:41.24	193.99	12.17	-42.8	-43.8	19.4	0.00e+00	0	41	0	4655677440	55	4180
2026-01-05 04:01:45.44	194.05	11.78	-42.9	-43.9	19.3	0.00e+00	0	41	0	4686086144	55	4224
2026-01-05 04:01:49.80	194.11	11.37	-43.0	-44.1	19.2	0.00e+00	0	41	0	4717543424	55	4299
2026-01-05 04:01:53.89	194.17	10.99	-43.2	-44.3	18.9	0.00e+00	0	41	0	4746903552	55	4423
2026-01-05 04:01:58.04	194.22	10.62	-43.4	-44.5	18.9	0.00e+00	0	41	0	4777312256	56	4282
2026-01-05 04:02:02.14	194.28	10.26	-43.5	-44.7	18.8	0.00e+00	0	41	0	4806672384	56	4342
2026-01-05 04:02:06.39	194.33	9.88	-43.9	-45.0	18.5	0.00e+00	0	41	0	4837081088	57	4265
2026-01-05 04:02:10.47	194.38	9.53	-43.9	-45.0	18.4	0.00e+00	0	41	0	4866441216	57	4259
2026-01-05 04:02:14.48	194.43	9.19	-43.9	-45.1	18.4	0.00e+00	0	41	0	4895801344	57	4292
2026-01-05 04:02:18.59	194.48	8.85	-54.0	-65.1	3.8	8.47e-01	0	41	104	4913627136	77	13647
2026-01-05 04:02:22.61	194.53	8.51	-54.5	-65.5	3.8	8.46e-01	0	41	104	4913627136	78	13483
2026-01-05 04:02:26.62	194.58	8.19	-54.7	-65.5	3.8	8.46e-01	0	41	104	4913627136	79	12727
2026-01-05 04:02:30.64	194.62	7.86	-54.8	-65.6	3.8	8.46e-01	0	41	104	4913627136	79	12841
2026-01-05 04:02:34.66	194.67	7.54	-54.9	-65.6	3.8	8.46e-01	0	41	104	4913627136	79	12815
2026-01-05 04:02:38.67	194.71	7.23	-54.8	-65.5	3.8	8.46e-01	0	41	104	4913627136	79	12765
2026-01-05 04:02:42.69	194.76	6.91	-54.5	-65.5	3.8	8.47e-01	0	41	104	4913627136	79	12805
2026-01-05 04:02:46.71	194.80	6.61	-54.4	-65.5	3.8	8.46e-01	0	41	104	4913627136	79	12737
2026-01-05 04:02:50.73	194.84	6.30	-54.4	-65.5	3.8	8.47e-01	0	41	104	4913627136	79	12791
2026-01-05 04:02:54.74	194.89	6.00	-54.5	-65.6	3.8	8.46e-01	0	41	104	4913627136	78	13603
2026-01-05 04:02:58.76	194.93	5.70	-54.5	-65.6	3.8	8.46e-01	0	41	104	4913627136	78	13593
2026-01-05 04:03:02.78	194.97	5.41	-54.4	-65.5	3.8	8.47e-01	0	41	104	4913627136	78	13469
2026-01-05 04:03:06.79	195.01	5.12	-54.4	-65.5	3.8	8.46e-01	0	41	104	4913627136	78	13511

#Closed at: 2026-01-05 04:03:09
#Recorded file [4913 MB]: D:/Data/31040_260105_065011.dat