passes_logs/2026/01/05/T1/T1__20260105_084416_NOAA_21_JPSS-2_rec.log

#Pass ID: 20260105_084416_NOAA 21 (JPSS-2)
#Satellite: NOAA 21 (JPSS-2)
#Configuration: NOAA 21
#almurnet v.1.7.20251203
#Start time: 2026-01-05 08:44:15

#Version: 2.0.20230620
#Station: T1
#Location: 37.570604 lon 55.790049 lat
#TLE: 1 54234U 22150A   26004.22845673  .00000174  00000+0  10347-3 0  9996
#TLE: 2 54234  98.7489 305.2591 0001115 345.0884  15.0259 14.19531906163281

#Time	Az	El	Level	Level2	SNR	BER	BlckErr	Temp	State	Recorded	gain1	gain2
2026-01-05 08:44:15.87	122.92	4.99	-49.4	-63.0	3.8	1.49e+00	0	36	0	0	70	17225
2026-01-05 08:44:18.87	122.73	5.18	-49.3	-63.0	3.8	1.49e+00	0	36	104	0	70	17108
2026-01-05 08:44:21.89	122.55	5.38	-49.9	-62.9	3.8	1.49e+00	0	36	104	0	70	16953
2026-01-05 08:44:24.90	122.36	5.59	-49.9	-62.8	3.8	1.49e+00	0	36	104	0	70	16836
2026-01-05 08:44:27.91	122.17	5.79	-49.3	-62.9	3.8	1.49e+00	0	36	104	0	70	16900
2026-01-05 08:44:30.93	121.97	5.99	-49.3	-63.0	3.8	1.49e+00	0	37	104	0	70	17157
2026-01-05 08:44:33.94	121.78	6.20	-49.3	-63.0	3.8	1.49e+00	0	37	104	0	70	17173
2026-01-05 08:44:36.95	121.58	6.40	-49.3	-62.7	3.8	1.49e+00	0	37	104	0	70	16594
2026-01-05 08:44:39.97	121.37	6.61	-49.3	-62.3	3.8	1.49e+00	0	37	104	0	70	15868
2026-01-05 08:44:42.98	121.17	6.82	-49.3	-62.4	3.8	1.49e+00	0	37	104	0	70	15966
2026-01-05 08:44:45.99	120.96	7.03	-49.3	-62.8	3.8	1.49e+00	0	37	104	0	70	16877
2026-01-05 08:44:49.01	120.74	7.24	-49.3	-62.5	3.8	1.49e+00	0	37	104	0	70	16166
2026-01-05 08:44:52.02	120.53	7.46	-49.2	-60.8	3.9	1.49e+00	0	37	104	0	70	13308
2026-01-05 08:44:55.03	120.31	7.67	-48.7	-57.6	4.9	1.17e+00	0	37	104	0	69	9777
2026-01-05 08:44:58.05	120.09	7.89	-46.8	-51.5	10.0	1.07e-02	0	37	0	0	65	6126
2026-01-05 08:45:01.06	119.86	8.10	-44.4	-47.4	14.4	3.80e-06	0	37	0	0	60	5043
2026-01-05 08:45:04.07	119.63	8.32	-43.1	-45.5	16.1	0.00e+00	0	37	0	0	58	4592
2026-01-05 08:45:07.08	119.40	8.54	-43.7	-46.2	15.4	0.00e+00	0	38	0	0	58	4983
2026-01-05 08:45:10.09	119.16	8.76	-46.1	-49.5	12.2	8.01e-05	0	38	0	0	62	5757
2026-01-05 08:45:13.11	118.92	8.99	-48.1	-55.2	6.4	1.77e-01	0	38	0	0	67	8332
2026-01-05 08:45:16.46	118.65	9.24	-48.9	-57.6	4.8	1.47e+00	0	38	104	0	69	9788
2026-01-05 08:45:19.22	118.43	9.45	-49.4	-61.5	3.8	1.49e+00	0	38	104	0	70	14381
2026-01-05 08:45:22.51	118.15	9.69	-43.2	-45.4	16.3	0.00e+00	0	38	0	0	58	4541
2026-01-05 08:45:25.25	117.92	9.90	-42.8	-45.0	16.8	0.00e+00	0	38	0	0	57	4554
2026-01-05 08:45:28.55	117.63	10.16	-42.3	-44.4	17.3	0.00e+00	0	38	0	0	56	4512
2026-01-05 08:45:31.27	117.39	10.37	-42.2	-44.3	17.5	0.00e+00	0	38	0	0	56	4442
2026-01-05 08:45:34.57	117.10	10.62	-42.3	-44.3	17.3	0.00e+00	0	38	0	0	56	4485
2026-01-05 08:45:37.29	116.85	10.84	-42.2	-44.3	17.4	0.00e+00	0	38	0	0	56	4468
2026-01-05 08:45:40.58	116.55	11.10	-42.2	-44.2	17.5	0.00e+00	0	38	0	0	56	4411
2026-01-05 08:45:43.58	116.27	11.33	-42.0	-44.0	17.7	0.00e+00	0	38	0	0	56	4335
2026-01-05 08:45:46.71	115.97	11.58	-41.8	-43.8	17.7	0.00e+00	0	38	0	0	55	4471
2026-01-05 08:45:50.00	115.65	11.85	-41.8	-43.7	17.8	0.00e+00	0	38	0	0	55	4441
2026-01-05 08:45:52.77	115.37	12.07	-41.8	-43.7	17.8	0.00e+00	0	38	0	0	55	4438
2026-01-05 08:45:56.13	115.04	12.35	-41.7	-43.7	17.9	0.00e+00	0	38	0	0	55	4406
2026-01-05 08:45:58.85	114.76	12.57	-41.5	-43.5	18.1	0.00e+00	0	38	0	0	55	4292
2026-01-05 08:46:02.15	114.41	12.85	-41.5	-43.4	18.2	0.00e+00	0	38	0	0	54	4499
2026-01-05 08:46:05.20	114.09	13.10	-41.3	-43.2	18.3	0.00e+00	0	38	0	0	54	4422
2026-01-05 08:46:08.34	113.75	13.36	-41.5	-43.3	18.2	0.00e+00	0	38	0	0	54	4493
2026-01-05 08:46:11.71	113.38	13.65	-41.4	-43.3	18.3	0.00e+00	0	38	0	0	54	4479
2026-01-05 08:46:14.43	113.08	13.88	-41.3	-43.1	18.5	0.00e+00	0	38	0	0	54	4386
2026-01-05 08:46:17.77	112.69	14.17	-41.2	-43.0	18.6	0.00e+00	0	38	0	0	54	4339
2026-01-05 08:46:20.64	112.36	14.41	-41.2	-43.0	18.6	0.00e+00	0	38	0	0	54	4331
2026-01-05 08:46:24.10	111.95	14.72	-41.2	-43.1	18.6	0.00e+00	0	38	0	0	54	4354
2026-01-05 08:46:26.82	111.62	14.95	-41.1	-43.0	18.7	0.00e+00	0	38	0	0	54	4299
2026-01-05 08:46:30.12	111.22	15.24	-41.2	-43.1	18.6	0.00e+00	0	38	0	0	54	4347
2026-01-05 08:46:32.84	110.88	15.48	-41.2	-43.1	18.6	0.00e+00	0	38	0	0	54	4343
2026-01-05 08:46:36.05	110.47	15.77	-41.4	-43.2	18.4	0.00e+00	0	38	0	0	54	4426
2026-01-05 08:46:39.20	110.06	16.05	-41.3	-43.1	18.6	0.00e+00	0	38	0	0	54	4386
2026-01-05 08:46:42.15	109.67	16.32	-41.3	-43.2	18.5	0.00e+00	0	38	0	0	54	4415
2026-01-05 08:46:45.31	109.25	16.61	-41.5	-43.4	18.3	0.00e+00	0	38	0	0	54	4500
2026-01-05 08:46:48.26	108.84	16.88	-41.3	-43.2	18.5	0.00e+00	0	38	0	0	54	4402
2026-01-05 08:46:51.61	108.37	17.18	-41.2	-43.0	18.7	0.00e+00	0	39	0	0	54	4321
2026-01-05 08:46:54.33	107.99	17.44	-41.2	-43.1	18.7	0.00e+00	0	38	0	0	54	4345
2026-01-05 08:46:57.61	107.51	17.74	-41.3	-43.1	18.6	0.00e+00	0	38	0	0	54	4372
2026-01-05 08:47:00.75	107.05	18.03	-41.2	-43.1	18.6	0.00e+00	0	38	0	0	54	4348
2026-01-05 08:47:03.82	106.58	18.32	-41.1	-42.9	18.7	0.00e+00	0	38	0	0	54	4289
2026-01-05 08:47:07.12	106.07	18.63	-41.1	-42.9	18.8	0.00e+00	0	38	0	0	54	4267
2026-01-05 08:47:09.84	105.65	18.89	-41.0	-42.8	18.9	0.00e+00	0	39	0	0	53	4450
2026-01-05 08:47:13.14	105.12	19.21	-40.9	-42.7	18.9	0.00e+00	0	38	0	0	53	4416
2026-01-05 08:47:16.21	104.62	19.50	-40.7	-42.5	19.1	0.00e+00	0	38	0	0	53	4333
2026-01-05 08:47:19.08	104.14	19.77	-40.8	-42.5	19.1	0.00e+00	0	39	0	0	53	4334
2026-01-05 08:47:22.33	103.59	20.09	-40.7	-42.4	19.2	0.00e+00	0	38	0	0	53	4278
2026-01-05 08:47:25.26	103.08	20.37	-40.7	-42.4	19.2	0.00e+00	0	38	0	0	53	4288
2026-01-05 08:47:28.58	102.50	20.69	-40.4	-42.1	19.4	0.00e+00	0	38	0	0	52	4383
2026-01-05 08:47:31.30	102.01	20.96	-40.6	-42.4	19.3	0.00e+00	0	38	0	0	52	4499
2026-01-05 08:47:34.59	101.40	21.28	-40.5	-42.2	19.4	0.00e+00	0	39	0	0	52	4417
2026-01-05 08:47:37.31	100.89	21.54	-40.4	-42.1	19.6	0.00e+00	0	38	0	0	52	4360
2026-01-05 08:47:40.68	100.25	21.87	-40.4	-42.2	19.5	0.00e+00	0	38	0	0	52	4400
2026-01-05 08:47:43.69	99.67	22.16	-40.6	-42.4	19.2	0.00e+00	0	38	0	0	52	4523
2026-01-05 08:47:46.70	99.07	22.46	-40.4	-42.2	19.5	0.00e+00	0	38	0	0	52	4410
2026-01-05 08:47:49.65	98.48	22.75	-40.3	-42.0	19.6	0.00e+00	0	39	0	0	52	4315
2026-01-05 08:47:52.73	97.84	23.05	-40.5	-42.3	19.4	0.00e+00	0	39	0	0	52	4453
2026-01-05 08:47:56.00	97.16	23.37	-40.2	-41.9	19.8	0.00e+00	0	38	0	0	52	4266
2026-01-05 08:47:58.87	96.54	23.65	-40.0	-41.7	19.9	0.00e+00	0	38	0	0	52	4152
2026-01-05 08:48:02.02	95.85	23.95	-40.2	-41.9	19.8	0.00e+00	0	39	0	0	51	4503
2026-01-05 08:48:04.88	95.22	24.23	-40.2	-41.9	19.8	0.00e+00	0	38	0	0	51	4517
2026-01-05 08:48:08.06	94.50	24.54	-40.4	-42.1	19.5	0.00e+00	0	39	0	0	51	4648
2026-01-05 08:48:11.36	93.74	24.85	-40.7	-42.5	19.2	0.00e+00	0	38	0	0	52	4549
2026-01-05 08:48:14.19	93.07	25.12	-40.8	-42.6	19.2	0.00e+00	0	38	0	0	52	4624
2026-01-05 08:48:17.55	92.26	25.44	-40.7	-42.5	19.3	0.00e+00	0	39	0	0	52	4551
2026-01-05 08:48:20.40	91.57	25.71	-40.7	-42.5	19.2	0.00e+00	0	38	0	0	52	4568
2026-01-05 08:48:23.75	90.73	26.02	-40.4	-42.1	19.6	0.00e+00	0	38	0	0	52	4389
2026-01-05 08:48:26.48	90.04	26.28	-40.7	-42.6	19.2	0.00e+00	0	39	0	0	52	4599
2026-01-05 08:48:29.78	89.19	26.58	-40.9	-42.8	19.0	0.00e+00	0	39	0	0	52	4709
2026-01-05 08:48:32.50	88.48	26.83	-40.8	-42.5	19.2	0.00e+00	0	38	0	0	52	4596
2026-01-05 08:48:35.79	87.60	27.12	-41.0	-42.8	19.0	0.00e+00	0	39	0	0	52	4733
2026-01-05 08:48:38.52	86.86	27.36	-41.0	-42.8	19.0	0.00e+00	0	39	0	0	52	4726
2026-01-05 08:48:41.81	85.95	27.65	-40.8	-42.6	19.2	0.00e+00	0	39	0	0	52	4601
2026-01-05 08:48:44.53	85.19	27.88	-40.8	-42.6	19.1	0.00e+00	0	38	0	0	52	4627
2026-01-05 08:48:47.85	84.24	28.16	-40.8	-42.7	19.1	0.00e+00	0	38	0	0	52	4669
2026-01-05 08:48:50.58	83.45	28.38	-40.9	-42.7	19.0	0.00e+00	0	38	0	0	52	4682
2026-01-05 08:48:53.87	82.49	28.65	-41.2	-43.1	18.8	0.00e+00	0	38	0	0	53	4614
2026-01-05 08:48:56.59	81.67	28.86	-40.7	-42.5	19.3	0.00e+00	0	39	0	0	53	4330
2026-01-05 08:49:00.16	80.59	29.13	-41.0	-42.8	19.0	0.00e+00	0	38	0	0	53	4464
2026-01-05 08:49:02.87	79.76	29.34	-40.8	-42.6	19.2	0.00e+00	0	39	0	0	53	4343
2026-01-05 08:49:06.29	78.69	29.58	-41.2	-43.0	18.8	0.00e+00	0	39	0	0	53	4561
2026-01-05 08:49:09.01	77.84	29.77	-41.3	-43.1	18.7	0.00e+00	0	39	0	0	53	4634
2026-01-05 08:49:12.30	76.78	29.99	-41.2	-43.1	18.8	0.00e+00	0	39	0	0	53	4606
2026-01-05 08:49:15.03	75.90	30.17	-41.4	-43.2	18.7	0.00e+00	0	39	0	0	53	4697
2026-01-05 08:49:18.32	74.82	30.37	-41.2	-43.0	18.9	0.00e+00	0	39	0	0	53	4553
2026-01-05 08:49:21.04	73.92	30.53	-41.4	-43.2	18.6	0.00e+00	0	38	0	0	53	4694
2026-01-05 08:49:24.35	72.81	30.72	-41.3	-43.1	18.7	0.00e+00	0	39	0	0	53	4649
2026-01-05 08:49:27.08	71.89	30.86	-41.4	-43.3	18.6	0.00e+00	0	38	0	0	53	4707
2026-01-05 08:49:30.38	70.76	31.02	-41.9	-43.8	18.2	0.00e+00	0	39	0	0	54	4734
2026-01-05 08:49:33.11	69.82	31.15	-42.1	-44.0	18.0	0.00e+00	0	38	0	0	54	4834
2026-01-05 08:49:36.46	68.65	31.30	-41.6	-43.5	18.5	0.00e+00	0	38	0	0	54	4549
2026-01-05 08:49:39.18	67.70	31.40	-41.6	-43.5	18.5	0.00e+00	0	39	0	0	54	4572
2026-01-05 08:49:42.70	66.46	31.53	-41.5	-43.3	18.6	0.00e+00	0	39	0	0	54	4469
2026-01-05 08:49:45.48	65.47	31.62	-41.4	-43.2	18.7	0.00e+00	0	39	0	0	54	4400
2026-01-05 08:49:48.77	64.29	31.71	-41.6	-43.5	18.5	0.00e+00	0	39	0	0	54	4550
2026-01-05 08:49:51.49	63.32	31.78	-41.8	-43.7	18.4	0.00e+00	0	39	0	0	54	4655
2026-01-05 08:49:54.78	62.13	31.85	-41.7	-43.6	18.4	0.00e+00	0	39	0	0	54	4604
2026-01-05 08:49:57.62	61.11	31.90	-41.9	-43.8	18.2	0.00e+00	0	38	0	0	54	4720
2026-01-05 08:50:00.77	59.96	31.94	-41.9	-43.8	18.1	0.00e+00	0	39	0	0	54	4746
2026-01-05 08:50:03.63	58.92	31.97	-41.7	-43.6	18.4	0.00e+00	0	38	0	0	54	4635
2026-01-05 08:50:06.94	57.72	31.99	-41.8	-43.7	18.3	0.00e+00	0	39	0	0	54	4658
2026-01-05 08:50:09.87	56.65	31.99	-41.7	-43.6	18.3	0.00e+00	0	39	0	0	54	4636
2026-01-05 08:50:13.26	55.42	31.98	-41.7	-43.6	18.3	0.00e+00	0	39	0	0	54	4631
2026-01-05 08:50:15.98	54.43	31.96	-41.6	-43.5	18.4	0.00e+00	0	38	0	0	54	4577
2026-01-05 08:50:19.28	53.23	31.93	-41.3	-43.1	18.8	0.00e+00	0	39	0	0	54	4348
2026-01-05 08:50:22.00	52.24	31.89	-41.6	-43.4	18.5	0.00e+00	0	38	0	0	54	4529
2026-01-05 08:50:25.25	51.07	31.83	-41.4	-43.2	18.7	0.00e+00	0	39	0	0	54	4433
2026-01-05 08:50:28.26	49.99	31.76	-41.4	-43.2	18.8	0.00e+00	0	38	0	0	54	4406
2026-01-05 08:50:31.28	48.91	31.68	-41.7	-43.6	18.5	0.00e+00	0	38	0	0	54	4603
2026-01-05 08:50:34.36	47.81	31.59	-41.3	-43.1	18.8	0.00e+00	0	39	0	0	54	4383
2026-01-05 08:50:37.23	46.79	31.49	-41.4	-43.3	18.7	0.00e+00	0	38	0	0	54	4445
2026-01-05 08:50:40.37	45.69	31.38	-41.5	-43.3	18.6	0.00e+00	0	39	0	0	54	4476
2026-01-05 08:50:43.24	44.69	31.26	-41.9	-43.8	18.2	0.00e+00	0	39	0	0	54	4752
2026-01-05 08:50:46.42	43.59	31.12	-41.6	-43.4	18.5	0.00e+00	0	38	0	0	54	4531
2026-01-05 08:50:49.29	42.60	30.98	-41.2	-43.0	19.0	0.00e+00	0	39	0	0	54	4308
2026-01-05 08:50:52.63	41.47	30.82	-41.7	-43.6	18.4	0.00e+00	0	38	0	0	54	4628
2026-01-05 08:50:55.35	40.55	30.67	-41.6	-43.5	18.5	0.00e+00	0	39	0	0	54	4564
2026-01-05 08:50:58.64	39.45	30.48	-41.1	-42.9	18.9	0.00e+00	0	39	0	0	54	4264
2026-01-05 08:51:01.36	38.56	30.32	-41.8	-43.7	18.3	0.00e+00	0	38	0	0	54	4675
2026-01-05 08:51:05.01	37.37	30.09	-41.3	-43.2	18.6	0.00e+00	0	39	0	0	54	4401
2026-01-05 08:51:07.73	36.50	29.92	-41.1	-42.9	18.9	0.00e+00	0	38	0	0	54	4268
2026-01-05 08:51:11.06	35.44	29.69	-41.5	-43.4	18.5	0.00e+00	0	39	0	0	54	4494
2026-01-05 08:51:13.78	34.59	29.50	-41.1	-42.9	19.0	0.00e+00	0	38	0	0	54	4247
2026-01-05 08:51:17.07	33.57	29.26	-41.3	-43.1	18.8	0.00e+00	0	39	0	0	54	4379
2026-01-05 08:51:19.79	32.74	29.06	-41.3	-43.1	18.7	0.00e+00	0	38	0	0	54	4380
2026-01-05 08:51:23.09	31.75	28.80	-40.6	-42.4	19.3	0.00e+00	0	39	0	0	53	4278
2026-01-05 08:51:26.24	30.82	28.55	-41.0	-42.8	19.1	0.00e+00	0	39	0	0	52	4733
2026-01-05 08:51:29.27	29.94	28.31	-41.6	-43.5	18.4	0.00e+00	0	38	0	0	53	4837
2026-01-05 08:51:32.28	29.07	28.06	-41.3	-43.1	18.7	0.00e+00	0	39	0	0	53	4645
2026-01-05 08:51:35.29	28.22	27.81	-41.2	-43.1	18.9	0.00e+00	0	38	0	0	53	4612
2026-01-05 08:51:38.30	27.39	27.55	-41.1	-43.0	18.8	0.00e+00	0	39	0	0	53	4553
2026-01-05 08:51:41.26	26.58	27.29	-40.3	-42.0	19.7	0.00e+00	0	39	0	0	52	4294
2026-01-05 08:51:44.30	25.76	27.02	-40.4	-42.1	19.7	0.00e+00	0	39	0	0	52	4373
2026-01-05 08:51:47.31	24.97	26.75	-41.0	-42.9	19.0	0.00e+00	0	39	0	0	52	4760
2026-01-05 08:51:50.32	24.19	26.48	-40.9	-42.7	19.1	0.00e+00	0	39	0	0	52	4665
2026-01-05 08:51:53.32	23.42	26.21	-40.7	-42.5	19.3	0.00e+00	0	39	0	0	52	4546
2026-01-05 08:51:56.36	22.66	25.93	-40.7	-42.6	19.2	0.00e+00	0	39	0	0	52	4599
2026-01-05 08:51:59.37	21.92	25.65	-40.7	-42.5	19.3	0.00e+00	0	38	0	0	52	4578
2026-01-05 08:52:02.38	21.19	25.36	-41.0	-42.9	19.0	0.00e+00	0	38	0	0	52	4803
2026-01-05 08:52:05.38	20.48	25.08	-41.1	-43.1	18.7	0.00e+00	0	39	0	0	53	4603
2026-01-05 08:52:08.39	19.78	24.79	-40.9	-42.7	19.0	0.00e+00	0	39	0	0	53	4435
2026-01-05 08:52:11.36	19.10	24.51	-40.9	-42.6	19.2	0.00e+00	0	38	0	0	53	4388
2026-01-05 08:52:14.52	18.39	24.20	-40.9	-42.7	19.1	0.00e+00	0	38	0	0	53	4417
2026-01-05 08:52:17.38	17.76	23.93	-40.8	-42.6	19.1	0.00e+00	0	39	0	0	53	4391
2026-01-05 08:52:20.53	17.08	23.62	-40.6	-42.4	19.3	0.00e+00	0	39	0	0	53	4280
2026-01-05 08:52:23.40	16.47	23.35	-40.8	-42.7	19.1	0.00e+00	0	39	0	0	53	4406
2026-01-05 08:52:26.68	15.79	23.03	-41.2	-43.1	18.7	0.00e+00	0	39	0	0	53	4603
2026-01-05 08:52:29.40	15.23	22.76	-41.2	-43.1	18.7	0.00e+00	0	39	0	0	53	4641
2026-01-05 08:52:32.70	14.57	22.44	-41.4	-43.3	18.6	0.00e+00	0	39	0	0	53	4753
2026-01-05 08:52:35.42	14.04	22.18	-41.3	-43.2	18.7	0.00e+00	0	39	0	0	53	4674
2026-01-05 08:52:38.71	13.40	21.86	-40.8	-42.6	19.3	0.00e+00	0	39	0	0	53	4351
2026-01-05 08:52:41.71	12.84	21.57	-40.9	-42.6	19.2	0.00e+00	0	38	0	0	53	4390
2026-01-05 08:52:44.75	12.27	21.27	-41.0	-42.8	19.0	0.00e+00	0	39	0	0	53	4493
2026-01-05 08:52:47.72	11.73	20.98	-40.8	-42.6	19.1	0.00e+00	0	38	0	0	53	4368
2026-01-05 08:52:50.87	11.17	20.68	-40.6	-42.4	19.2	0.00e+00	0	39	0	0	53	4280
2026-01-05 08:52:53.88	10.64	20.39	-40.3	-42.1	19.6	0.00e+00	0	38	0	0	52	4378
2026-01-05 08:52:56.88	10.13	20.10	-40.4	-42.3	19.5	0.00e+00	0	39	0	0	52	4446
2026-01-05 08:52:59.91	9.62	19.81	-40.4	-42.3	19.4	0.00e+00	0	39	0	0	52	4470
2026-01-05 08:53:03.00	9.11	19.52	-40.5	-42.4	19.3	0.00e+00	0	39	0	0	52	4510
2026-01-05 08:53:05.90	8.64	19.24	-40.3	-42.0	19.6	0.00e+00	0	39	0	0	52	4340
2026-01-05 08:53:09.04	8.14	18.94	-40.6	-42.5	19.2	0.00e+00	0	39	0	0	52	4585
2026-01-05 08:53:11.91	7.69	18.67	-40.9	-42.9	18.8	0.00e+00	0	38	0	0	52	4809
2026-01-05 08:53:15.17	7.20	18.37	-40.9	-42.8	18.8	0.00e+00	0	38	0	0	52	4736
2026-01-05 08:53:17.91	6.79	18.11	-40.9	-42.8	18.8	0.00e+00	0	39	0	0	52	4709
2026-01-05 08:53:21.25	6.29	17.80	-40.8	-42.7	19.0	0.00e+00	0	39	0	0	52	4667
2026-01-05 08:53:24.26	5.86	17.52	-41.0	-43.0	18.8	0.00e+00	0	39	0	0	52	4835
2026-01-05 08:53:27.74	5.37	17.20	-41.3	-43.3	18.6	0.00e+00	0	39	0	0	53	4715
2026-01-05 08:53:30.46	4.99	16.95	-41.3	-43.3	18.5	0.00e+00	0	39	0	0	53	4735
2026-01-05 08:53:33.77	4.54	16.65	-41.1	-43.0	18.7	0.00e+00	0	39	0	0	53	4597
2026-01-05 08:53:36.49	4.18	16.41	-41.0	-42.9	18.8	0.00e+00	0	39	0	0	53	4523
2026-01-05 08:53:39.80	3.74	16.11	-41.2	-43.1	18.7	0.00e+00	0	39	0	0	53	4633
2026-01-05 08:53:42.58	3.39	15.86	-41.4	-43.4	18.4	0.00e+00	0	39	0	0	53	4784
2026-01-05 08:53:45.88	2.97	15.57	-41.5	-43.5	18.3	0.00e+00	0	39	0	0	53	4870
2026-01-05 08:53:48.60	2.63	15.33	-41.4	-43.4	18.4	0.00e+00	0	39	0	0	53	4780
2026-01-05 08:53:51.89	2.23	15.04	-41.3	-43.4	18.4	0.00e+00	0	39	0	0	53	4783
2026-01-05 08:53:54.76	1.89	14.79	-41.3	-43.4	18.4	0.00e+00	0	39	0	0	53	4799
2026-01-05 08:53:57.90	1.52	14.52	-41.6	-43.6	18.2	0.00e+00	0	38	0	0	53	4905
2026-01-05 08:54:00.77	1.19	14.27	-41.8	-43.8	18.1	0.00e+00	0	39	0	0	54	4731
2026-01-05 08:54:03.92	0.83	14.00	-41.9	-44.0	17.9	0.00e+00	0	38	0	0	54	4851
2026-01-05 08:54:06.79	0.51	13.76	-42.2	-44.3	17.6	0.00e+00	0	39	0	0	54	5021
2026-01-05 08:54:09.94	0.17	13.49	-42.1	-44.2	17.5	0.00e+00	0	39	0	0	55	4700
2026-01-05 08:54:12.82	359.86	13.25	-42.1	-44.2	17.4	0.00e+00	0	39	0	0	55	4680
2026-01-05 08:54:16.13	359.51	12.97	-41.9	-44.0	17.7	0.00e+00	0	39	0	0	55	4553
2026-01-05 08:54:18.88	359.23	12.75	-41.8	-43.9	17.8	0.00e+00	0	38	0	0	55	4538
2026-01-05 08:54:22.15	358.89	12.48	-41.8	-43.9	17.9	0.00e+00	0	39	0	0	55	4502
2026-01-05 08:54:25.28	358.58	12.22	-42.0	-44.1	17.7	0.00e+00	0	39	0	0	55	4628
2026-01-05 08:54:28.54	358.26	11.96	-42.3	-44.5	17.2	0.00e+00	0	39	0	0	55	4866
2026-01-05 08:54:31.28	357.99	11.74	-42.3	-44.7	17.0	0.00e+00	0	39	0	0	55	4970
2026-01-05 08:54:34.58	357.68	11.48	-42.3	-44.7	16.9	0.00e+00	0	39	0	0	55	4969
2026-01-05 08:54:37.30	357.43	11.26	-42.3	-44.7	16.9	0.00e+00	0	39	0	0	55	4949
2026-01-05 08:54:40.59	357.13	11.00	-42.1	-44.3	17.3	0.00e+00	0	39	0	0	55	4744
2026-01-05 08:54:43.31	356.88	10.79	-42.0	-44.2	17.5	0.00e+00	0	39	0	0	55	4662
2026-01-05 08:54:46.60	356.59	10.53	-41.9	-44.1	17.6	0.00e+00	0	39	0	0	55	4642
2026-01-05 08:54:49.44	356.34	10.32	-41.8	-44.1	17.7	0.00e+00	0	39	0	0	55	4624
2026-01-05 08:54:52.59	356.07	10.07	-42.0	-44.5	17.3	0.00e+00	0	39	0	0	55	4816
2026-01-05 08:54:55.46	355.83	9.86	-41.9	-44.6	17.1	0.00e+00	0	39	0	0	55	4912
2026-01-05 08:54:58.61	355.57	9.62	-41.7	-44.8	17.0	0.00e+00	0	39	0	0	55	5006
2026-01-05 08:55:01.66	355.32	9.39	-41.6	-44.9	16.8	0.00e+00	0	39	0	0	55	5097
2026-01-05 08:55:04.52	355.09	9.18	-41.7	-44.9	16.9	0.00e+00	0	39	0	0	55	5042
2026-01-05 08:55:07.69	354.84	8.94	-48.8	-63.3	3.8	1.49e+00	0	39	104	0	68	20068
2026-01-05 08:55:10.85	354.59	8.71	-50.4	-63.7	3.8	1.49e+00	0	39	104	0	71	17562
2026-01-05 08:55:13.71	354.37	8.50	-50.6	-63.9	3.8	1.49e+00	0	39	104	0	72	17069
2026-01-05 08:55:16.87	354.13	8.27	-50.0	-63.8	3.8	1.49e+00	0	39	104	0	72	16808
2026-01-05 08:55:19.74	353.92	8.06	-50.5	-63.8	3.8	1.49e+00	0	39	104	0	72	16854
2026-01-05 08:55:22.90	353.69	7.84	-50.7	-63.9	3.8	1.49e+00	0	39	104	0	72	16945
2026-01-05 08:55:25.77	353.48	7.63	-50.7	-63.9	3.8	1.49e+00	0	39	104	0	72	17012
2026-01-05 08:55:28.92	353.26	7.41	-50.9	-63.9	3.8	1.49e+00	0	39	104	0	72	16987
2026-01-05 08:55:31.79	353.06	7.21	-50.8	-63.9	3.8	1.49e+00	0	39	104	0	72	16898
2026-01-05 08:55:34.94	352.85	6.99	-50.8	-63.9	3.8	1.49e+00	0	39	104	0	72	16900
2026-01-05 08:55:37.81	352.65	6.79	-50.6	-63.8	3.8	1.49e+00	0	39	104	0	72	16874
2026-01-05 08:55:40.97	352.44	6.57	-50.6	-63.8	3.8	1.49e+00	0	39	104	0	72	16781
2026-01-05 08:55:43.84	352.25	6.38	-50.6	-63.8	3.8	1.49e+00	0	39	104	0	72	16816
2026-01-05 08:55:46.99	352.05	6.16	-50.6	-63.8	3.8	1.49e+00	0	39	104	0	72	16824
2026-01-05 08:55:49.86	351.87	5.97	-50.5	-63.8	3.8	1.49e+00	0	39	104	0	72	16784
2026-01-05 08:55:53.02	351.67	5.76	-50.5	-63.8	3.8	1.49e+00	0	39	104	0	72	16778
2026-01-05 08:55:55.89	351.49	5.57	-50.5	-63.8	3.8	1.49e+00	0	39	104	0	72	16744
2026-01-05 08:55:59.05	351.30	5.36	-50.6	-63.8	3.8	1.49e+00	0	39	104	0	72	16800
2026-01-05 08:56:01.91	351.13	5.17	-50.5	-63.8	3.8	1.49e+00	0	39	104	0	72	16766
2026-01-05 08:56:05.07	350.94	4.96	-50.5	-63.8	3.8	1.49e+00	0	39	104	0	72	16700

#Closed at: 2026-01-05 08:56:05
#Recorded file [0 MB]: D:/Data/31040_260105_114415.dat