passes_logs/2026/01/05/T1/T1__20260105_120713_NOAA_21_JPSS-2_rec.log

#Pass ID: 20260105_120713_NOAA 21 (JPSS-2)
#Satellite: NOAA 21 (JPSS-2)
#Configuration: NOAA 21
#almurnet v.1.7.20251203
#Start time: 2026-01-05 12:07:15

#Version: 2.0.20230620
#Station: T1
#Location: 37.570604 lon 55.790049 lat
#TLE: 1 54234U 22150A   26004.22845673  .00000174  00000+0  10347-3 0  9996
#TLE: 2 54234  98.7489 305.2591 0001115 345.0884  15.0259 14.19531906163281

#Time	Az	El	Level	Level2	SNR	BER	BlckErr	Temp	State	Recorded	gain1	gain2
2026-01-05 12:07:15.86	236.80	5.10	-50.7	-63.9	3.8	1.49e+00	0	40	0	0	72	17050
2026-01-05 12:07:17.86	237.04	5.19	-50.0	-63.9	3.8	1.49e+00	0	40	104	0	71	17889
2026-01-05 12:07:19.87	237.29	5.28	-50.3	-63.7	3.8	1.49e+00	0	40	104	0	71	17522
2026-01-05 12:07:21.88	237.53	5.37	-50.2	-63.4	3.8	1.49e+00	0	40	104	0	71	17075
2026-01-05 12:07:23.88	237.78	5.45	-50.1	-63.4	3.8	1.49e+00	0	40	104	0	71	16992
2026-01-05 12:07:25.89	238.03	5.54	-50.1	-63.4	3.8	1.49e+00	0	39	104	0	71	16968
2026-01-05 12:07:27.90	238.28	5.63	-50.1	-63.4	3.8	1.49e+00	0	40	104	0	71	16956
2026-01-05 12:07:29.91	238.53	5.72	-50.1	-63.4	3.8	1.49e+00	0	40	104	0	71	16971
2026-01-05 12:07:31.92	238.78	5.81	-50.1	-63.4	3.8	1.49e+00	0	40	104	0	71	16942
2026-01-05 12:07:33.93	239.03	5.89	-50.1	-63.3	3.8	1.49e+00	0	40	104	0	71	16864
2026-01-05 12:07:35.94	239.29	5.98	-50.2	-63.4	3.8	1.49e+00	0	40	104	0	71	16943
2026-01-05 12:07:37.94	239.55	6.07	-50.0	-63.3	3.8	1.49e+00	0	40	104	0	71	16842
2026-01-05 12:07:39.95	239.80	6.16	-50.1	-63.3	3.8	1.49e+00	0	40	104	0	71	16823
2026-01-05 12:07:41.96	240.06	6.24	-50.1	-63.3	3.8	1.49e+00	0	40	104	0	71	16830
2026-01-05 12:07:43.97	240.33	6.33	-50.1	-63.3	3.8	1.49e+00	0	40	104	0	71	16810
2026-01-05 12:07:45.98	240.59	6.42	-50.1	-63.3	3.8	1.49e+00	0	40	104	0	71	16873
2026-01-05 12:07:47.99	240.85	6.50	-50.1	-63.3	3.8	1.49e+00	0	40	104	0	71	16853
2026-01-05 12:07:49.99	241.12	6.59	-50.1	-63.3	3.8	1.49e+00	0	40	104	0	71	16849
2026-01-05 12:07:52.01	241.39	6.68	-50.1	-63.3	3.8	1.49e+00	0	40	104	0	71	16828
2026-01-05 12:07:54.01	241.65	6.76	-50.1	-63.3	3.8	1.49e+00	0	40	104	0	71	16761
2026-01-05 12:07:56.02	241.93	6.85	-50.1	-63.2	3.8	1.49e+00	0	40	104	0	71	16690
2026-01-05 12:07:58.03	242.20	6.93	-50.0	-63.2	3.8	1.49e+00	0	40	104	0	71	16640
2026-01-05 12:08:00.04	242.47	7.02	-50.1	-63.2	3.8	1.49e+00	0	40	104	0	71	16673
2026-01-05 12:08:02.05	242.75	7.10	-50.1	-63.2	3.8	1.49e+00	0	40	104	0	71	16621
2026-01-05 12:08:04.06	243.02	7.19	-50.0	-63.2	3.8	1.49e+00	0	40	104	0	71	16568
2026-01-05 12:08:06.06	243.30	7.27	-50.0	-63.2	3.8	1.49e+00	0	40	104	0	71	16649
2026-01-05 12:08:08.07	243.58	7.35	-50.0	-63.3	3.8	1.49e+00	0	40	104	0	71	16751
2026-01-05 12:08:10.08	243.86	7.44	-50.0	-63.3	3.8	1.49e+00	0	39	104	0	71	16737
2026-01-05 12:08:12.09	244.14	7.52	-50.0	-63.3	3.8	1.49e+00	0	39	104	0	71	16740
2026-01-05 12:08:14.10	244.43	7.60	-50.1	-63.2	3.8	1.49e+00	0	39	104	0	71	16664
2026-01-05 12:08:16.11	244.71	7.68	-50.0	-63.3	3.8	1.49e+00	0	39	104	0	71	16753
2026-01-05 12:08:18.11	245.00	7.77	-50.0	-63.3	3.8	1.49e+00	0	40	104	0	71	16786
2026-01-05 12:08:20.12	245.29	7.85	-50.0	-63.2	3.8	1.49e+00	0	40	104	0	71	16644
2026-01-05 12:08:22.13	245.58	7.93	-50.0	-63.2	3.8	1.49e+00	0	40	104	0	71	16551
2026-01-05 12:08:24.14	245.87	8.01	-50.0	-63.2	3.8	1.49e+00	0	40	104	0	71	16625
2026-01-05 12:08:26.15	246.17	8.09	-50.0	-63.1	3.8	1.49e+00	0	39	104	0	71	16374
2026-01-05 12:08:28.16	246.46	8.17	-50.0	-62.9	3.8	1.49e+00	0	40	104	0	71	16107
2026-01-05 12:08:30.17	246.76	8.25	-50.1	-63.2	3.8	1.49e+00	0	39	104	0	71	16625
2026-01-05 12:08:32.17	247.06	8.33	-50.0	-62.7	3.8	1.49e+00	0	40	104	0	71	15614
2026-01-05 12:08:34.18	247.36	8.41	-49.9	-61.0	3.9	1.49e+00	0	40	104	0	71	12843
2026-01-05 12:08:36.19	247.66	8.49	-49.9	-61.8	3.8	1.49e+00	0	39	104	0	71	14169
2026-01-05 12:08:38.20	247.96	8.57	-49.8	-60.5	3.9	1.49e+00	0	39	104	0	71	12210
2026-01-05 12:08:40.21	248.27	8.64	-47.3	-51.8	10.0	2.83e-02	0	39	0	0	66	5968
2026-01-05 12:08:42.21	248.57	8.72	-45.1	-48.0	14.0	7.60e-06	0	39	0	0	62	4841
2026-01-05 12:08:44.22	248.88	8.80	-44.5	-47.1	14.9	0.00e+00	0	39	0	0	60	4882
2026-01-05 12:08:46.23	249.19	8.87	-45.8	-49.0	13.0	7.60e-06	0	39	0	0	62	5445
2026-01-05 12:08:48.24	249.50	8.95	-47.7	-52.7	9.1	1.26e-02	0	40	0	0	66	6612
2026-01-05 12:08:50.25	249.81	9.02	-49.1	-56.1	6.0	3.69e-01	0	39	0	0	68	8704
2026-01-05 12:08:52.24	250.12	9.10	-49.4	-59.5	4.2	1.33e+00	0	39	104	0	69	12216
2026-01-05 12:08:54.31	250.45	9.17	-47.4	-51.7	10.3	2.13e-04	0	39	0	0	65	6256
2026-01-05 12:08:56.51	250.80	9.26	-48.9	-55.4	6.7	1.91e-01	0	39	0	0	69	7603
2026-01-05 12:08:58.51	251.11	9.33	-48.6	-54.7	7.2	1.18e-01	0	40	0	0	68	7430
2026-01-05 12:09:00.51	251.43	9.40	-48.4	-54.4	7.7	6.64e-02	0	39	0	0	68	7163
2026-01-05 12:09:02.52	251.76	9.47	-47.5	-52.3	9.5	1.80e-02	0	40	0	0	66	6340
2026-01-05 12:09:04.53	252.08	9.54	-47.2	-51.6	10.3	4.77e-03	0	40	0	0	66	5847
2026-01-05 12:09:06.66	252.42	9.62	-46.5	-50.2	11.8	1.35e-03	0	39	0	0	64	5559
2026-01-05 12:09:09.26	252.85	9.71	-45.0	-47.7	14.4	7.00e-07	0	39	0	0	62	4703
2026-01-05 12:09:11.26	253.17	9.78	-44.3	-46.8	15.2	0.00e+00	0	39	0	0	60	4746
2026-01-05 12:09:13.30	253.51	9.85	-43.9	-46.2	15.8	0.00e+00	0	40	0	0	59	4676
2026-01-05 12:09:15.39	253.85	9.92	-43.9	-46.2	15.7	0.00e+00	0	40	0	0	59	4697
2026-01-05 12:09:17.49	254.20	9.99	-43.3	-45.5	16.5	0.00e+00	0	39	0	0	58	4577
2026-01-05 12:09:19.50	254.54	10.06	-43.1	-45.3	16.7	0.00e+00	0	39	0	0	58	4471
2026-01-05 12:09:21.63	254.89	10.13	-42.7	-44.9	17.1	0.00e+00	0	39	0	0	57	4505
2026-01-05 12:09:23.63	255.23	10.19	-42.7	-44.8	17.1	0.00e+00	0	40	0	0	57	4486
2026-01-05 12:09:25.64	255.57	10.25	-42.7	-44.8	17.2	0.00e+00	0	40	0	0	57	4455
2026-01-05 12:09:27.65	255.91	10.32	-42.6	-44.7	17.2	0.00e+00	0	39	0	0	57	4430
2026-01-05 12:09:29.66	256.25	10.38	-42.7	-44.8	17.1	0.00e+00	0	40	0	0	57	4456
2026-01-05 12:09:31.66	256.59	10.44	-42.5	-44.6	17.3	0.00e+00	0	39	0	0	57	4391
2026-01-05 12:09:33.68	256.94	10.50	-42.5	-44.6	17.3	0.00e+00	0	39	0	0	57	4378
2026-01-05 12:09:35.97	257.33	10.57	-42.6	-44.7	17.3	0.00e+00	0	40	0	0	57	4392
2026-01-05 12:09:38.01	257.69	10.63	-42.5	-44.6	17.3	0.00e+00	0	39	0	0	57	4354
2026-01-05 12:09:40.01	258.04	10.69	-42.5	-44.6	17.3	0.00e+00	0	39	0	0	57	4380
2026-01-05 12:09:42.01	258.38	10.75	-42.7	-44.8	17.2	0.00e+00	0	39	0	0	57	4448
2026-01-05 12:09:44.06	258.74	10.81	-42.7	-44.9	17.0	0.00e+00	0	39	0	0	57	4520
2026-01-05 12:09:46.16	259.11	10.87	-42.8	-44.9	17.0	0.00e+00	0	40	0	0	57	4540
2026-01-05 12:09:48.23	259.48	10.93	-42.8	-45.0	17.0	0.00e+00	0	40	0	0	57	4559
2026-01-05 12:09:50.24	259.83	10.98	-42.7	-44.8	17.1	0.00e+00	0	39	0	0	57	4463
2026-01-05 12:09:52.25	260.19	11.03	-42.6	-44.7	17.3	0.00e+00	0	39	0	0	57	4412
2026-01-05 12:09:54.25	260.55	11.09	-42.6	-44.6	17.3	0.00e+00	0	39	0	0	57	4372
2026-01-05 12:09:56.25	260.91	11.14	-42.6	-44.7	17.3	0.00e+00	0	39	0	0	57	4428
2026-01-05 12:09:58.21	261.26	11.19	-42.8	-44.9	17.1	0.00e+00	0	39	0	0	57	4535
2026-01-05 12:10:00.35	261.64	11.24	-42.7	-44.8	17.3	0.00e+00	0	39	0	0	57	4445
2026-01-05 12:10:02.57	262.04	11.30	-42.6	-44.6	17.4	0.00e+00	0	39	0	0	57	4379
2026-01-05 12:10:04.58	262.41	11.35	-42.6	-44.6	17.4	0.00e+00	0	39	0	0	57	4369
2026-01-05 12:10:06.58	262.77	11.39	-42.7	-44.8	17.2	0.00e+00	0	39	0	0	57	4476
2026-01-05 12:10:08.80	263.18	11.44	-42.7	-44.8	17.1	0.00e+00	0	39	0	0	57	4491
2026-01-05 12:10:10.99	263.58	11.49	-42.4	-44.4	17.5	0.00e+00	0	39	0	0	56	4545
2026-01-05 12:10:13.00	263.95	11.54	-42.5	-44.5	17.5	0.00e+00	0	39	0	0	56	4563
2026-01-05 12:10:15.00	264.32	11.58	-42.4	-44.4	17.6	0.00e+00	0	39	0	0	56	4530
2026-01-05 12:10:17.01	264.69	11.62	-42.4	-44.4	17.6	0.00e+00	0	39	0	0	56	4533
2026-01-05 12:10:19.01	265.06	11.66	-42.5	-44.5	17.4	0.00e+00	0	39	0	0	56	4583
2026-01-05 12:10:21.07	265.44	11.71	-42.6	-44.7	17.3	0.00e+00	0	39	0	0	57	4423
2026-01-05 12:10:23.15	265.83	11.75	-42.7	-44.8	17.2	0.00e+00	0	39	0	0	57	4448
2026-01-05 12:10:25.24	266.22	11.79	-42.5	-44.6	17.4	0.00e+00	0	39	0	0	57	4372
2026-01-05 12:10:27.25	266.60	11.82	-42.5	-44.5	17.5	0.00e+00	0	39	0	0	56	4559
2026-01-05 12:10:29.25	266.97	11.86	-42.4	-44.4	17.6	0.00e+00	0	39	0	0	56	4502
2026-01-05 12:10:31.26	267.35	11.89	-42.4	-44.4	17.5	0.00e+00	0	40	0	0	56	4542
2026-01-05 12:10:33.26	267.73	11.93	-42.5	-44.5	17.4	0.00e+00	0	39	0	0	56	4586
2026-01-05 12:10:35.54	268.16	11.96	-42.5	-44.6	17.4	0.00e+00	0	39	0	0	56	4606
2026-01-05 12:10:37.73	268.57	12.00	-42.5	-44.5	17.5	0.00e+00	0	39	0	0	56	4572
2026-01-05 12:10:39.79	268.96	12.03	-42.5	-44.6	17.5	0.00e+00	0	39	0	0	56	4606
2026-01-05 12:10:41.79	269.34	12.06	-42.4	-44.5	17.5	0.00e+00	0	39	0	0	56	4551
2026-01-05 12:10:43.79	269.72	12.09	-42.6	-44.6	17.3	0.00e+00	0	39	0	0	56	4644
2026-01-05 12:10:45.80	270.11	12.11	-42.7	-44.8	17.2	0.00e+00	0	39	0	0	56	4725
2026-01-05 12:10:47.80	270.49	12.14	-42.5	-44.5	17.5	0.00e+00	0	39	0	0	56	4569
2026-01-05 12:10:50.19	270.95	12.17	-42.3	-44.3	17.6	0.00e+00	0	39	0	0	56	4490
2026-01-05 12:10:52.16	271.33	12.19	-42.2	-44.2	17.8	0.00e+00	0	39	0	0	56	4398
2026-01-05 12:10:54.17	271.71	12.21	-42.2	-44.2	17.8	0.00e+00	0	39	0	0	56	4408
2026-01-05 12:10:56.17	272.10	12.23	-42.3	-44.3	17.6	0.00e+00	0	39	0	0	56	4469
2026-01-05 12:10:58.19	272.49	12.25	-42.4	-44.4	17.6	0.00e+00	0	39	0	0	56	4499
2026-01-05 12:11:00.20	272.87	12.27	-42.4	-44.4	17.6	0.00e+00	0	39	0	0	56	4494
2026-01-05 12:11:02.21	273.26	12.29	-42.4	-44.4	17.6	0.00e+00	0	39	0	0	56	4529
2026-01-05 12:11:04.60	273.72	12.31	-42.4	-44.4	17.5	0.00e+00	0	39	0	0	56	4531
2026-01-05 12:11:06.60	274.11	12.33	-42.5	-44.6	17.5	0.00e+00	0	39	0	0	56	4605
2026-01-05 12:11:08.61	274.50	12.34	-42.5	-44.6	17.5	0.00e+00	0	39	0	0	56	4603
2026-01-05 12:11:10.61	274.89	12.35	-42.6	-44.6	17.3	0.00e+00	0	39	0	0	56	4645
2026-01-05 12:11:12.61	275.28	12.36	-42.4	-44.4	17.5	0.00e+00	0	39	0	0	56	4542
2026-01-05 12:11:14.62	275.67	12.37	-42.3	-44.4	17.6	0.00e+00	0	39	0	0	56	4495
2026-01-05 12:11:16.66	276.06	12.38	-42.1	-44.1	17.8	0.00e+00	0	39	0	0	56	4374
2026-01-05 12:11:18.66	276.45	12.39	-42.2	-44.1	17.8	0.00e+00	0	39	0	0	56	4390
2026-01-05 12:11:20.67	276.84	12.40	-42.1	-44.0	17.9	0.00e+00	0	39	0	0	56	4314
2026-01-05 12:11:22.67	277.23	12.40	-42.0	-44.0	18.0	0.00e+00	0	39	0	0	56	4313
2026-01-05 12:11:24.67	277.62	12.41	-41.9	-43.9	17.9	0.00e+00	0	39	0	0	55	4515
2026-01-05 12:11:26.68	278.01	12.41	-41.9	-43.9	18.0	0.00e+00	0	39	0	0	55	4494
2026-01-05 12:11:28.69	278.40	12.41	-42.0	-44.0	17.8	0.00e+00	0	39	0	0	55	4577
2026-01-05 12:11:30.69	278.79	12.41	-42.1	-44.1	17.7	0.00e+00	0	39	0	0	55	4607
2026-01-05 12:11:32.70	279.18	12.41	-42.2	-44.2	17.6	0.00e+00	0	39	0	0	55	4679
2026-01-05 12:11:34.71	279.57	12.41	-42.1	-44.0	17.7	0.00e+00	0	39	0	0	55	4596
2026-01-05 12:11:36.71	279.96	12.41	-42.2	-44.2	17.6	0.00e+00	0	39	0	0	55	4671
2026-01-05 12:11:38.72	280.35	12.40	-42.1	-44.0	17.7	0.00e+00	0	39	0	0	55	4592
2026-01-05 12:11:40.73	280.74	12.40	-42.0	-43.9	17.9	0.00e+00	0	39	0	0	55	4541
2026-01-05 12:11:42.73	281.13	12.39	-42.0	-44.0	17.8	0.00e+00	0	39	0	0	55	4546
2026-01-05 12:11:44.95	281.56	12.38	-42.1	-44.0	17.7	0.00e+00	0	39	0	0	55	4595
2026-01-05 12:11:46.95	281.95	12.37	-42.1	-44.0	17.7	0.00e+00	0	39	0	0	55	4591
2026-01-05 12:11:48.96	282.34	12.36	-42.1	-44.1	17.7	0.00e+00	0	39	0	0	55	4611
2026-01-05 12:11:50.96	282.73	12.35	-42.2	-44.2	17.6	0.00e+00	0	39	0	0	55	4682
2026-01-05 12:11:52.97	283.12	12.34	-42.1	-44.1	17.7	0.00e+00	0	39	0	0	55	4624
2026-01-05 12:11:54.97	283.51	12.32	-42.2	-44.2	17.7	0.00e+00	0	39	0	0	55	4653
2026-01-05 12:11:56.98	283.89	12.31	-42.3	-44.3	17.5	0.00e+00	0	39	0	0	55	4715
2026-01-05 12:11:58.98	284.28	12.29	-42.2	-44.2	17.6	0.00e+00	0	39	0	0	55	4688
2026-01-05 12:12:00.99	284.67	12.28	-42.2	-44.2	17.6	0.00e+00	0	39	0	0	55	4662
2026-01-05 12:12:02.99	285.05	12.26	-42.4	-44.5	17.4	0.00e+00	0	39	0	0	55	4825
2026-01-05 12:12:05.00	285.44	12.24	-42.4	-44.4	17.4	0.00e+00	0	39	0	0	55	4804
2026-01-05 12:12:07.01	285.83	12.22	-42.5	-44.5	17.4	0.00e+00	0	39	0	0	55	4845
2026-01-05 12:12:09.08	286.22	12.19	-42.3	-44.4	17.5	0.00e+00	0	39	0	0	55	4769
2026-01-05 12:12:11.05	286.60	12.17	-42.3	-44.3	17.6	0.00e+00	0	39	0	0	55	4720
2026-01-05 12:12:13.05	286.98	12.15	-42.3	-44.3	17.6	0.00e+00	0	39	0	0	55	4722
2026-01-05 12:12:15.06	287.37	12.12	-42.4	-44.4	17.4	0.00e+00	0	39	0	0	55	4812
2026-01-05 12:12:17.16	287.77	12.09	-42.3	-44.3	17.5	0.00e+00	0	39	0	0	55	4751
2026-01-05 12:12:19.18	288.15	12.07	-42.4	-44.4	17.5	0.00e+00	0	39	0	0	55	4761
2026-01-05 12:12:21.30	288.55	12.04	-42.5	-44.5	17.3	0.00e+00	0	39	0	0	55	4848
2026-01-05 12:12:23.51	288.97	12.00	-42.4	-44.4	17.4	0.00e+00	0	39	0	0	55	4814
2026-01-05 12:12:25.52	289.35	11.97	-42.3	-44.3	17.5	0.00e+00	0	39	0	0	55	4731
2026-01-05 12:12:27.52	289.73	11.94	-42.2	-44.2	17.6	0.00e+00	0	39	0	0	55	4683
2026-01-05 12:12:29.52	290.10	11.91	-42.4	-44.5	17.4	0.00e+00	0	39	0	0	55	4818
2026-01-05 12:12:31.53	290.48	11.87	-42.6	-44.7	17.2	0.00e+00	0	39	0	0	55	4952
2026-01-05 12:12:33.53	290.86	11.84	-42.8	-44.8	17.2	0.00e+00	0	39	0	0	56	4758
2026-01-05 12:12:35.54	291.23	11.80	-42.8	-44.8	17.2	0.00e+00	0	39	0	0	56	4742
2026-01-05 12:12:37.54	291.60	11.76	-42.7	-44.7	17.2	0.00e+00	0	39	0	0	56	4692
2026-01-05 12:12:39.55	291.98	11.72	-42.8	-44.8	17.2	0.00e+00	0	39	0	0	56	4738
2026-01-05 12:12:41.55	292.35	11.68	-42.8	-44.8	17.2	0.00e+00	0	39	0	0	56	4748
2026-01-05 12:12:43.56	292.72	11.64	-42.8	-44.9	17.1	0.00e+00	0	39	0	0	56	4766
2026-01-05 12:12:45.57	293.09	11.60	-42.8	-44.8	17.1	0.00e+00	0	39	0	0	56	4744
2026-01-05 12:12:47.57	293.46	11.56	-42.8	-44.9	17.0	0.00e+00	0	39	0	0	56	4796
2026-01-05 12:12:49.69	293.85	11.51	-42.9	-45.0	17.0	0.00e+00	0	39	0	0	56	4828
2026-01-05 12:12:51.76	294.23	11.47	-42.8	-44.9	17.1	0.00e+00	0	39	0	0	56	4782
2026-01-05 12:12:53.77	294.59	11.42	-42.8	-44.9	17.1	0.00e+00	0	39	0	0	56	4778
2026-01-05 12:12:55.78	294.96	11.37	-42.9	-45.0	17.0	0.00e+00	0	39	0	0	56	4842
2026-01-05 12:12:57.78	295.32	11.33	-43.0	-45.1	16.8	0.00e+00	0	39	0	0	56	4912
2026-01-05 12:12:59.78	295.68	11.28	-43.0	-45.1	16.8	0.00e+00	0	39	0	0	56	4924
2026-01-05 12:13:01.79	296.04	11.23	-43.0	-45.1	16.9	0.00e+00	0	39	0	0	56	4901
2026-01-05 12:13:03.79	296.40	11.18	-42.8	-44.9	17.1	0.00e+00	0	39	0	0	56	4812
2026-01-05 12:13:05.80	296.76	11.13	-42.9	-45.0	17.0	0.00e+00	0	39	0	0	56	4832
2026-01-05 12:13:07.80	297.11	11.08	-42.9	-45.0	17.0	0.00e+00	0	39	0	0	56	4832
2026-01-05 12:13:09.81	297.47	11.02	-42.9	-44.9	17.0	0.00e+00	0	39	0	0	56	4813
2026-01-05 12:13:11.81	297.82	10.97	-43.0	-45.1	16.9	0.00e+00	0	39	0	0	56	4886
2026-01-05 12:13:13.85	298.18	10.92	-43.0	-45.1	16.9	0.00e+00	0	39	0	0	56	4920
2026-01-05 12:13:15.86	298.54	10.86	-43.1	-45.3	16.7	0.00e+00	0	39	0	0	56	4990
2026-01-05 12:13:17.85	298.88	10.80	-43.2	-45.4	16.6	0.00e+00	0	39	0	0	56	5052
2026-01-05 12:13:19.85	299.23	10.75	-43.1	-45.3	16.7	0.00e+00	0	39	0	0	57	4716
2026-01-05 12:13:21.86	299.58	10.69	-43.0	-45.2	16.8	0.00e+00	0	39	0	0	57	4665
2026-01-05 12:13:23.86	299.93	10.63	-43.0	-45.2	16.8	0.00e+00	0	39	0	0	57	4653
2026-01-05 12:13:25.95	300.29	10.57	-43.1	-45.2	16.7	0.00e+00	0	39	0	0	57	4696
2026-01-05 12:13:27.95	300.63	10.51	-43.0	-45.2	16.8	0.00e+00	0	39	0	0	57	4656
2026-01-05 12:13:29.95	300.97	10.45	-43.2	-45.3	16.6	0.00e+00	0	39	0	0	57	4751
2026-01-05 12:13:31.88	301.30	10.39	-43.2	-45.4	16.6	0.00e+00	0	39	0	0	57	4789
2026-01-05 12:13:33.88	301.64	10.33	-43.3	-45.5	16.5	0.00e+00	0	39	0	0	57	4818
2026-01-05 12:13:35.89	301.98	10.26	-43.3	-45.4	16.5	0.00e+00	0	39	0	0	57	4810
2026-01-05 12:13:37.90	302.32	10.20	-43.3	-45.5	16.4	0.00e+00	0	39	0	0	57	4869
2026-01-05 12:13:39.90	302.65	10.14	-43.3	-45.5	16.4	0.00e+00	0	39	0	0	57	4868
2026-01-05 12:13:41.92	302.99	10.07	-43.4	-45.6	16.3	0.00e+00	0	39	0	0	57	4924
2026-01-05 12:13:43.93	303.32	10.00	-43.3	-45.5	16.5	0.00e+00	0	39	0	0	57	4821
2026-01-05 12:13:45.93	303.65	9.94	-43.3	-45.5	16.4	0.00e+00	0	39	0	0	57	4843
2026-01-05 12:13:47.93	303.98	9.87	-43.3	-45.6	16.3	0.00e+00	0	39	0	0	57	4888
2026-01-05 12:13:49.94	304.31	9.80	-43.3	-45.5	16.4	0.00e+00	0	39	0	0	57	4861
2026-01-05 12:13:51.94	304.63	9.73	-43.2	-45.4	16.5	0.00e+00	0	39	0	0	57	4811
2026-01-05 12:13:53.94	304.96	9.67	-43.3	-45.4	16.4	0.00e+00	0	39	0	0	57	4812
2026-01-05 12:13:55.95	305.28	9.60	-43.3	-45.5	16.4	0.00e+00	0	39	0	0	57	4824
2026-01-05 12:13:57.96	305.60	9.53	-43.3	-45.5	16.5	0.00e+00	0	39	0	0	57	4827
2026-01-05 12:13:59.96	305.92	9.46	-43.3	-45.5	16.4	0.00e+00	0	39	0	0	57	4844
2026-01-05 12:14:01.97	306.24	9.38	-43.3	-45.6	16.4	0.00e+00	0	39	0	0	57	4888
2026-01-05 12:14:03.97	306.56	9.31	-43.5	-45.8	16.2	0.00e+00	0	39	0	0	57	5012
2026-01-05 12:14:05.98	306.88	9.24	-43.6	-45.9	16.1	0.00e+00	0	39	0	0	58	4780
2026-01-05 12:14:07.98	307.19	9.17	-43.7	-46.0	16.0	0.00e+00	0	39	0	0	58	4831
2026-01-05 12:14:09.98	307.50	9.09	-43.6	-45.9	16.0	0.00e+00	0	39	0	0	58	4808
2026-01-05 12:14:11.99	307.81	9.02	-43.7	-46.0	16.0	0.00e+00	0	39	0	0	58	4837
2026-01-05 12:14:14.00	308.12	8.94	-50.4	-63.6	3.8	1.49e+00	0	39	104	0	71	17324
2026-01-05 12:14:16.01	308.43	8.87	-50.7	-63.8	3.8	1.49e+00	0	39	104	0	72	16812
2026-01-05 12:14:18.01	308.74	8.79	-50.8	-63.9	3.8	1.49e+00	0	39	104	0	72	16983
2026-01-05 12:14:20.02	309.04	8.72	-50.6	-63.9	3.8	1.49e+00	0	39	104	0	72	17052
2026-01-05 12:14:22.03	309.35	8.64	-51.0	-63.9	3.8	1.49e+00	0	39	104	0	72	17046
2026-01-05 12:14:24.04	309.65	8.56	-50.8	-64.0	3.8	1.49e+00	0	39	104	0	72	17158
2026-01-05 12:14:26.05	309.95	8.49	-51.0	-64.0	3.8	1.49e+00	0	39	104	0	72	17211
2026-01-05 12:14:28.06	310.25	8.41	-50.9	-64.0	3.8	1.49e+00	0	39	104	0	72	17211
2026-01-05 12:14:30.07	310.55	8.33	-51.0	-64.0	3.8	1.49e+00	0	39	104	0	72	17123
2026-01-05 12:14:32.08	310.85	8.25	-50.8	-63.9	3.8	1.49e+00	0	39	104	0	72	17045
2026-01-05 12:14:34.08	311.14	8.17	-50.7	-63.9	3.8	1.49e+00	0	39	104	0	72	16993
2026-01-05 12:14:36.09	311.43	8.09	-50.6	-63.9	3.8	1.49e+00	0	39	104	0	72	17003
2026-01-05 12:14:38.10	311.73	8.01	-50.6	-63.9	3.8	1.49e+00	0	39	104	0	72	17003
2026-01-05 12:14:40.11	312.02	7.93	-50.6	-63.9	3.8	1.49e+00	0	39	104	0	72	16974
2026-01-05 12:14:42.12	312.30	7.85	-50.6	-63.9	3.8	1.49e+00	0	39	104	0	72	16981
2026-01-05 12:14:44.13	312.59	7.77	-50.6	-63.9	3.8	1.49e+00	0	39	104	0	72	16948
2026-01-05 12:14:46.14	312.88	7.69	-50.6	-63.9	3.8	1.49e+00	0	39	104	0	72	17016
2026-01-05 12:14:48.14	313.16	7.61	-50.6	-63.9	3.8	1.49e+00	0	39	104	0	72	16906
2026-01-05 12:14:50.15	313.44	7.53	-50.6	-63.9	3.8	1.49e+00	0	39	104	0	72	16896
2026-01-05 12:14:52.16	313.72	7.45	-50.6	-63.9	3.8	1.49e+00	0	39	104	0	72	16892
2026-01-05 12:14:54.17	314.00	7.36	-50.6	-63.9	3.8	1.49e+00	0	39	104	0	72	16952
2026-01-05 12:14:56.18	314.28	7.28	-50.6	-63.9	3.8	1.49e+00	0	39	104	0	72	16975
2026-01-05 12:14:58.18	314.56	7.20	-50.6	-63.9	3.8	1.49e+00	0	39	104	0	72	16924
2026-01-05 12:15:00.19	314.83	7.11	-50.6	-63.9	3.8	1.49e+00	0	39	104	0	72	16949
2026-01-05 12:15:02.20	315.10	7.03	-50.6	-63.9	3.8	1.49e+00	0	39	104	0	72	16933
2026-01-05 12:15:04.21	315.38	6.95	-50.6	-63.9	3.8	1.49e+00	0	39	104	0	72	16945
2026-01-05 12:15:06.22	315.65	6.86	-50.6	-63.9	3.8	1.49e+00	0	39	104	0	72	16889
2026-01-05 12:15:08.22	315.91	6.78	-50.6	-63.9	3.8	1.49e+00	0	39	104	0	72	16893
2026-01-05 12:15:10.23	316.18	6.69	-50.6	-63.9	3.8	1.49e+00	0	39	104	0	72	16929
2026-01-05 12:15:12.24	316.45	6.61	-50.6	-63.8	3.8	1.49e+00	0	39	104	0	72	16886
2026-01-05 12:15:14.25	316.71	6.52	-50.6	-63.9	3.8	1.49e+00	0	39	104	0	72	16980
2026-01-05 12:15:16.26	316.97	6.44	-50.6	-63.8	3.8	1.49e+00	0	39	104	0	72	16887
2026-01-05 12:15:18.27	317.24	6.35	-50.6	-63.9	3.8	1.49e+00	0	39	104	0	72	16914
2026-01-05 12:15:20.28	317.50	6.27	-50.6	-63.9	3.8	1.49e+00	0	39	104	0	72	16961
2026-01-05 12:15:22.29	317.75	6.18	-50.6	-63.9	3.8	1.49e+00	0	39	104	0	72	16955
2026-01-05 12:15:24.29	318.01	6.09	-50.6	-63.8	3.8	1.49e+00	0	39	104	0	72	16887
2026-01-05 12:15:26.30	318.27	6.01	-50.6	-63.9	3.8	1.49e+00	0	39	104	0	72	16908
2026-01-05 12:15:28.31	318.52	5.92	-50.6	-63.9	3.8	1.49e+00	0	39	104	0	72	16930
2026-01-05 12:15:30.32	318.77	5.83	-50.6	-63.9	3.8	1.49e+00	0	39	104	0	72	16909
2026-01-05 12:15:32.33	319.02	5.75	-50.6	-63.8	3.8	1.49e+00	0	39	104	0	72	16878
2026-01-05 12:15:34.34	319.27	5.66	-50.6	-63.9	3.8	1.49e+00	0	39	104	0	72	16938
2026-01-05 12:15:36.35	319.52	5.57	-50.6	-63.9	3.8	1.49e+00	0	39	104	0	72	16909
2026-01-05 12:15:38.36	319.77	5.49	-50.6	-63.9	3.8	1.49e+00	0	39	104	0	72	16931
2026-01-05 12:15:40.36	320.01	5.40	-50.6	-63.9	3.8	1.49e+00	0	39	104	0	72	16996
2026-01-05 12:15:42.37	320.26	5.31	-50.6	-63.9	3.8	1.49e+00	0	39	104	0	72	16958
2026-01-05 12:15:44.38	320.50	5.22	-50.6	-63.9	3.8	1.49e+00	0	39	104	0	72	16911
2026-01-05 12:15:46.39	320.74	5.14	-50.6	-63.8	3.8	1.49e+00	0	39	104	0	72	16882
2026-01-05 12:15:48.40	320.98	5.05	-50.6	-63.9	3.8	1.49e+00	0	39	104	0	72	16985

#Closed at: 2026-01-05 12:15:50
#Recorded file [0 MB]: D:/Data/31040_260105_150715.dat