passes_logs/2026/01/05/T1/T1__20260105_223408_NOAA_21_JPSS-2_rec.log

#Pass ID: 20260105_223408_NOAA 21 (JPSS-2)
#Satellite: NOAA 21 (JPSS-2)
#Configuration: NOAA 21
#almurnet v.1.7.20251203
#Start time: 2026-01-05 22:34:08

#Version: 2.0.20230620
#Station: T1
#Location: 37.570604 lon 55.790049 lat
#TLE: 1 54234U 22150A   26005.21525222  .00000150  00000+0  91957-4 0  9992
#TLE: 2 54234  98.7490 306.2339 0001053 341.6032  18.5106 14.19532220163427

#Time	Az	El	Level	Level2	SNR	BER	BlckErr	Temp	State	Recorded	gain1	gain2
2026-01-05 22:34:08.54	25.21	5.01	-50.1	-63.4	3.8	1.49e+00	0	41	0	0	71	16929
2026-01-05 22:34:11.54	25.41	5.21	-50.1	-63.4	3.8	1.49e+00	0	41	104	0	71	17017
2026-01-05 22:34:14.54	25.61	5.40	-50.1	-63.4	3.8	1.49e+00	0	41	104	0	71	16957
2026-01-05 22:34:17.55	25.81	5.60	-50.1	-63.4	3.8	1.49e+00	0	41	104	0	71	16963
2026-01-05 22:34:20.56	26.01	5.79	-50.1	-63.4	3.8	1.49e+00	0	41	104	0	71	16894
2026-01-05 22:34:23.57	26.22	5.99	-50.1	-63.3	3.8	1.49e+00	0	42	104	0	71	16777
2026-01-05 22:34:26.57	26.43	6.19	-50.1	-63.3	3.8	1.49e+00	0	41	104	0	71	16726
2026-01-05 22:34:29.58	26.64	6.39	-50.1	-63.3	3.8	1.49e+00	0	42	104	0	71	16858
2026-01-05 22:34:32.59	26.86	6.59	-50.1	-63.4	3.8	1.49e+00	0	42	104	0	71	16968
2026-01-05 22:34:35.59	27.08	6.80	-50.1	-63.4	3.8	1.49e+00	0	42	104	0	71	17016
2026-01-05 22:34:38.60	27.30	7.00	-50.1	-63.4	3.8	1.49e+00	0	42	104	0	71	16911
2026-01-05 22:34:41.60	27.52	7.21	-50.1	-63.0	3.8	1.49e+00	0	42	104	0	71	16313
2026-01-05 22:34:44.60	27.75	7.41	-50.1	-63.1	3.8	1.49e+00	0	42	104	0	71	16388
2026-01-05 22:34:47.61	27.98	7.62	-50.1	-63.4	3.8	1.49e+00	0	42	104	0	71	16889
2026-01-05 22:34:50.62	28.21	7.83	-50.1	-62.9	3.8	1.49e+00	0	42	104	0	71	16034
2026-01-05 22:34:53.63	28.45	8.04	-50.0	-62.8	3.8	1.49e+00	0	42	104	0	71	15784
2026-01-05 22:34:56.64	28.69	8.25	-50.1	-63.0	3.8	1.49e+00	0	42	104	0	71	16232
2026-01-05 22:34:59.65	28.93	8.47	-50.0	-62.0	3.8	1.49e+00	0	42	104	0	71	14487
2026-01-05 22:35:02.66	29.18	8.68	-49.9	-60.6	4.0	1.48e+00	0	43	104	0	71	12326
2026-01-05 22:35:05.67	29.43	8.90	-49.6	-58.7	4.3	1.35e+00	0	42	104	0	71	9859
2026-01-05 22:35:08.68	29.68	9.12	-49.7	-60.1	3.9	4.36e-01	0	43	104	0	69	13047
2026-01-05 22:35:11.68	29.94	9.34	-49.3	-57.0	5.6	3.50e-02	0	42	0	0	69	9155
2026-01-05 22:35:14.68	30.20	9.56	-43.7	-46.1	15.8	0.00e+00	0	43	0	0	59	4643
2026-01-05 22:35:17.69	30.46	9.78	-42.9	-45.0	16.9	0.00e+00	0	43	0	0	57	4582
2026-01-05 22:35:20.69	30.73	10.00	-42.9	-45.1	16.9	0.00e+00	0	43	0	0	57	4616
2026-01-05 22:35:23.70	31.00	10.23	-42.9	-45.1	16.9	0.00e+00	0	43	0	0	57	4616
2026-01-05 22:35:26.71	31.28	10.46	-42.8	-44.9	17.1	0.00e+00	0	43	0	0	57	4514
2026-01-05 22:35:29.71	31.56	10.68	-42.6	-44.6	17.4	0.00e+00	0	43	0	0	57	4364
2026-01-05 22:35:32.71	31.84	10.91	-42.4	-44.4	17.7	0.00e+00	0	43	0	0	56	4506
2026-01-05 22:35:35.70	32.13	11.14	-42.3	-44.3	17.7	0.00e+00	0	43	0	0	56	4466
2026-01-05 22:35:38.71	32.42	11.38	-42.2	-44.2	17.8	0.00e+00	0	43	0	0	56	4434
2026-01-05 22:35:41.71	32.72	11.61	-42.2	-44.2	17.8	0.00e+00	0	43	0	0	56	4436
2026-01-05 22:35:44.71	33.02	11.85	-42.0	-44.0	18.0	0.00e+00	0	43	0	0	56	4313
2026-01-05 22:35:47.71	33.33	12.09	-42.2	-44.2	17.9	0.00e+00	0	43	0	0	56	4410
2026-01-05 22:35:50.71	33.64	12.33	-42.1	-44.1	18.0	0.00e+00	0	43	0	0	56	4356
2026-01-05 22:35:53.71	33.95	12.57	-42.1	-44.0	18.0	0.00e+00	0	43	0	0	56	4335
2026-01-05 22:35:56.71	34.28	12.81	-41.9	-43.9	18.1	0.00e+00	0	43	0	0	55	4503
2026-01-05 22:35:59.72	34.60	13.05	-41.9	-43.8	18.1	0.00e+00	0	43	0	0	55	4485
2026-01-05 22:36:02.72	34.93	13.30	-41.8	-43.7	18.1	0.00e+00	0	43	0	0	55	4433
2026-01-05 22:36:05.72	35.27	13.55	-41.8	-43.8	18.1	0.00e+00	0	43	0	0	55	4445
2026-01-05 22:36:08.72	35.61	13.80	-41.7	-43.7	18.2	0.00e+00	0	43	0	0	55	4410
2026-01-05 22:36:11.72	35.96	14.05	-41.8	-43.8	18.1	0.00e+00	0	43	0	0	55	4455
2026-01-05 22:36:14.73	36.31	14.30	-41.7	-43.7	18.2	0.00e+00	0	43	0	0	55	4405
2026-01-05 22:36:17.73	36.67	14.55	-41.9	-43.8	18.1	0.00e+00	0	43	0	0	55	4489
2026-01-05 22:36:20.74	37.04	14.81	-41.8	-43.7	18.2	0.00e+00	0	43	0	0	55	4401
2026-01-05 22:36:23.74	37.41	15.07	-42.0	-44.0	18.0	0.00e+00	0	43	0	0	55	4550
2026-01-05 22:36:26.74	37.79	15.33	-41.9	-43.9	17.9	0.00e+00	0	43	0	0	55	4525
2026-01-05 22:36:29.74	38.17	15.59	-42.0	-43.9	17.9	0.00e+00	0	43	0	0	55	4540
2026-01-05 22:36:32.75	38.56	15.85	-42.0	-43.9	18.0	0.00e+00	0	43	0	0	55	4523
2026-01-05 22:36:35.75	38.96	16.11	-42.2	-44.2	17.8	0.00e+00	0	43	0	0	55	4675
2026-01-05 22:36:38.76	39.37	16.38	-42.2	-44.2	17.8	0.00e+00	0	43	0	0	55	4690
2026-01-05 22:36:41.76	39.78	16.65	-42.3	-44.3	17.7	0.00e+00	0	44	0	0	55	4712
2026-01-05 22:36:44.77	40.20	16.92	-42.0	-43.9	18.1	0.00e+00	0	43	0	0	55	4535
2026-01-05 22:36:47.77	40.62	17.19	-42.0	-43.9	18.1	0.00e+00	0	43	0	0	55	4544
2026-01-05 22:36:50.77	41.06	17.46	-41.8	-43.7	18.3	0.00e+00	0	43	0	0	55	4408
2026-01-05 22:36:53.78	41.50	17.73	-41.7	-43.6	18.4	0.00e+00	0	43	0	0	55	4342
2026-01-05 22:36:56.78	41.95	18.01	-41.6	-43.5	18.5	0.00e+00	0	43	0	0	55	4304
2026-01-05 22:36:59.79	42.40	18.28	-41.4	-43.2	18.7	0.00e+00	0	43	0	0	54	4440
2026-01-05 22:37:02.76	42.86	18.56	-41.2	-43.0	18.9	0.00e+00	0	43	0	0	54	4331
2026-01-05 22:37:05.77	43.34	18.84	-41.4	-43.2	18.8	0.00e+00	0	43	0	0	54	4412
2026-01-05 22:37:08.77	43.82	19.12	-41.4	-43.2	18.7	0.00e+00	0	43	0	0	54	4418
2026-01-05 22:37:11.78	44.31	19.40	-41.4	-43.3	18.7	0.00e+00	0	43	0	0	54	4452
2026-01-05 22:37:14.79	44.81	19.68	-41.4	-43.2	18.7	0.00e+00	0	43	0	0	54	4413
2026-01-05 22:37:17.79	45.32	19.96	-41.3	-43.1	18.8	0.00e+00	0	43	0	0	54	4380
2026-01-05 22:37:20.79	45.84	20.25	-41.3	-43.1	18.9	0.00e+00	0	43	0	0	54	4377
2026-01-05 22:37:23.79	46.36	20.53	-41.1	-42.9	19.0	0.00e+00	0	43	0	0	54	4273
2026-01-05 22:37:26.79	46.90	20.82	-40.8	-42.5	19.3	0.00e+00	0	44	0	0	53	4336
2026-01-05 22:37:29.79	47.44	21.11	-40.6	-42.4	19.5	0.00e+00	0	43	0	0	53	4249
2026-01-05 22:37:32.79	48.00	21.40	-40.7	-42.4	19.4	0.00e+00	0	43	0	0	53	4278
2026-01-05 22:37:35.80	48.57	21.68	-40.8	-42.6	19.3	0.00e+00	0	43	0	0	53	4344
2026-01-05 22:37:38.80	49.15	21.97	-40.8	-42.5	19.3	0.00e+00	0	43	0	0	53	4331
2026-01-05 22:37:41.81	49.73	22.26	-40.7	-42.5	19.4	0.00e+00	0	43	0	0	53	4309
2026-01-05 22:37:44.81	50.33	22.55	-40.7	-42.5	19.4	0.00e+00	0	43	0	0	53	4309
2026-01-05 22:37:47.81	50.94	22.84	-40.6	-42.3	19.6	0.00e+00	0	44	0	0	53	4223
2026-01-05 22:37:50.81	51.56	23.13	-40.6	-42.3	19.5	0.00e+00	0	43	0	0	53	4218
2026-01-05 22:37:53.82	52.20	23.42	-40.6	-42.4	19.5	0.00e+00	0	43	0	0	53	4256
2026-01-05 22:37:56.82	52.84	23.71	-40.8	-42.6	19.3	0.00e+00	0	43	0	0	53	4344
2026-01-05 22:37:59.83	53.50	24.00	-41.0	-42.8	19.2	0.00e+00	0	44	0	0	53	4446
2026-01-05 22:38:02.84	54.17	24.29	-41.1	-42.9	19.1	0.00e+00	0	43	0	0	53	4532
2026-01-05 22:38:05.84	54.84	24.57	-41.0	-42.8	19.2	0.00e+00	0	43	0	0	53	4450
2026-01-05 22:38:08.84	55.54	24.86	-40.9	-42.7	19.3	0.00e+00	0	44	0	0	53	4412
2026-01-05 22:38:11.84	56.24	25.14	-40.9	-42.6	19.3	0.00e+00	0	44	0	0	53	4371
2026-01-05 22:38:14.85	56.96	25.43	-41.1	-42.9	19.1	0.00e+00	0	43	0	0	53	4509
2026-01-05 22:38:17.85	57.69	25.71	-41.3	-43.1	18.9	0.00e+00	0	44	0	0	53	4610
2026-01-05 22:38:20.85	58.43	25.99	-41.0	-42.7	19.2	0.00e+00	0	43	0	0	53	4433
2026-01-05 22:38:23.85	59.18	26.27	-41.0	-42.8	19.2	0.00e+00	0	43	0	0	53	4451
2026-01-05 22:38:26.85	59.95	26.54	-41.1	-42.9	19.1	0.00e+00	0	43	0	0	53	4510
2026-01-05 22:38:29.85	60.73	26.81	-41.0	-42.8	19.2	0.00e+00	0	43	0	0	53	4470
2026-01-05 22:38:32.85	61.52	27.08	-41.0	-42.8	19.3	0.00e+00	0	44	0	0	53	4463
2026-01-05 22:38:35.85	62.33	27.35	-40.9	-42.7	19.3	0.00e+00	0	43	0	0	53	4415
2026-01-05 22:38:38.85	63.15	27.61	-40.7	-42.4	19.5	0.00e+00	0	43	0	0	53	4263
2026-01-05 22:38:41.85	63.99	27.87	-40.7	-42.4	19.6	0.00e+00	0	44	0	0	53	4265
2026-01-05 22:38:44.86	64.84	28.13	-40.8	-42.6	19.4	0.00e+00	0	44	0	0	53	4346
2026-01-05 22:38:47.86	65.70	28.38	-41.0	-42.7	19.2	0.00e+00	0	43	0	0	53	4425
2026-01-05 22:38:50.87	66.57	28.62	-40.7	-42.4	19.6	0.00e+00	0	44	0	0	53	4267
2026-01-05 22:38:53.88	67.46	28.86	-41.0	-42.7	19.2	0.00e+00	0	43	0	0	53	4438
2026-01-05 22:38:56.88	68.36	29.10	-41.2	-43.0	19.0	0.00e+00	0	43	0	0	53	4579
2026-01-05 22:38:59.89	69.28	29.33	-41.1	-42.8	19.2	0.00e+00	0	43	0	0	53	4472
2026-01-05 22:39:02.88	70.20	29.55	-41.1	-42.8	19.2	0.00e+00	0	44	0	0	53	4481
2026-01-05 22:39:05.88	71.14	29.77	-41.3	-43.1	19.0	0.00e+00	0	43	0	0	53	4599
2026-01-05 22:39:08.89	72.09	29.98	-41.1	-42.8	19.2	0.00e+00	0	44	0	0	53	4482
2026-01-05 22:39:11.90	73.06	30.18	-41.0	-42.7	19.3	0.00e+00	0	44	0	0	53	4435
2026-01-05 22:39:14.90	74.03	30.38	-41.1	-42.9	19.1	0.00e+00	0	44	0	0	53	4517
2026-01-05 22:39:17.91	75.02	30.57	-41.5	-43.4	18.7	0.00e+00	0	43	0	0	53	4772
2026-01-05 22:39:20.91	76.02	30.75	-41.3	-43.0	19.0	0.00e+00	0	44	0	0	53	4595
2026-01-05 22:39:23.91	77.03	30.92	-41.4	-43.2	18.8	0.00e+00	0	44	0	0	53	4698
2026-01-05 22:39:26.92	78.05	31.08	-41.7	-43.5	18.6	0.00e+00	0	44	0	0	54	4598
2026-01-05 22:39:29.92	79.08	31.23	-41.7	-43.6	18.5	0.00e+00	0	43	0	0	54	4607
2026-01-05 22:39:32.92	80.11	31.38	-41.6	-43.5	18.7	0.00e+00	0	43	0	0	54	4553
2026-01-05 22:39:35.92	81.16	31.51	-41.7	-43.6	18.5	0.00e+00	0	43	0	0	54	4619
2026-01-05 22:39:38.93	82.22	31.64	-41.6	-43.5	18.6	0.00e+00	0	43	0	0	54	4588
2026-01-05 22:39:41.94	83.29	31.75	-41.1	-42.9	19.2	0.00e+00	0	44	0	0	54	4266
2026-01-05 22:39:44.95	84.36	31.86	-41.7	-43.6	18.6	0.00e+00	0	44	0	0	54	4616
2026-01-05 22:39:47.95	85.44	31.95	-41.6	-43.5	18.6	0.00e+00	0	43	0	0	54	4586
2026-01-05 22:39:50.95	86.52	32.03	-41.8	-43.7	18.4	0.00e+00	0	44	0	0	54	4685
2026-01-05 22:39:53.96	87.61	32.11	-41.6	-43.5	18.7	0.00e+00	0	43	0	0	54	4573
2026-01-05 22:39:56.97	88.71	32.17	-41.9	-43.8	18.4	0.00e+00	0	43	0	0	54	4720
2026-01-05 22:39:59.98	89.81	32.22	-41.8	-43.7	18.4	0.00e+00	0	43	0	0	54	4674
2026-01-05 22:40:02.98	90.91	32.26	-41.9	-43.8	18.3	0.00e+00	0	43	0	0	54	4737
2026-01-05 22:40:05.98	92.01	32.28	-42.0	-43.9	18.2	0.00e+00	0	44	0	0	54	4773
2026-01-05 22:40:08.99	93.12	32.30	-41.7	-43.6	18.5	0.00e+00	0	43	0	0	54	4625
2026-01-05 22:40:11.98	94.22	32.30	-41.6	-43.5	18.7	0.00e+00	0	43	0	0	54	4579
2026-01-05 22:40:14.98	95.32	32.29	-41.5	-43.3	18.8	0.00e+00	0	44	0	0	54	4483
2026-01-05 22:40:17.99	96.43	32.27	-41.5	-43.3	18.7	0.00e+00	0	44	0	0	54	4493
2026-01-05 22:40:20.99	97.53	32.24	-41.2	-43.0	19.1	0.00e+00	0	44	0	0	54	4307
2026-01-05 22:40:24.00	98.63	32.20	-41.7	-43.6	18.6	0.00e+00	0	43	0	0	54	4611
2026-01-05 22:40:27.00	99.73	32.15	-41.5	-43.4	18.8	0.00e+00	0	44	0	0	54	4505
2026-01-05 22:40:30.01	100.82	32.08	-41.5	-43.3	18.8	0.00e+00	0	44	0	0	54	4493
2026-01-05 22:40:33.01	101.91	32.00	-41.7	-43.5	18.6	0.00e+00	0	44	0	0	54	4578
2026-01-05 22:40:36.01	102.99	31.92	-41.8	-43.6	18.5	0.00e+00	0	43	0	0	54	4633
2026-01-05 22:40:39.02	104.07	31.82	-41.5	-43.3	18.7	0.00e+00	0	43	0	0	54	4488
2026-01-05 22:40:42.02	105.14	31.71	-42.0	-44.0	18.2	0.00e+00	0	44	0	0	54	4818
2026-01-05 22:40:45.02	106.20	31.59	-41.8	-43.7	18.4	0.00e+00	0	44	0	0	54	4673
2026-01-05 22:40:48.02	107.26	31.46	-41.8	-43.7	18.3	0.00e+00	0	43	0	0	54	4690
2026-01-05 22:40:51.02	108.30	31.32	-41.6	-43.4	18.7	0.00e+00	0	44	0	0	54	4538
2026-01-05 22:40:54.01	109.34	31.18	-41.4	-43.2	18.7	0.00e+00	0	43	0	0	54	4440
2026-01-05 22:40:57.02	110.37	31.02	-41.5	-43.3	18.9	0.00e+00	0	44	0	0	54	4442
2026-01-05 22:41:00.03	111.39	30.85	-41.5	-43.4	18.8	0.00e+00	0	44	0	0	54	4507
2026-01-05 22:41:03.03	112.39	30.68	-41.3	-43.1	18.9	0.00e+00	0	44	0	0	54	4385
2026-01-05 22:41:06.03	113.39	30.49	-40.9	-42.7	19.3	0.00e+00	0	44	0	0	53	4396
2026-01-05 22:41:09.04	114.38	30.30	-41.3	-43.2	18.9	0.00e+00	0	43	0	0	53	4657
2026-01-05 22:41:12.04	115.35	30.10	-41.5	-43.3	18.8	0.00e+00	0	44	0	0	53	4738
2026-01-05 22:41:15.04	116.31	29.89	-41.1	-42.9	19.1	0.00e+00	0	44	0	0	53	4527
2026-01-05 22:41:18.04	117.26	29.68	-41.1	-42.8	19.2	0.00e+00	0	44	0	0	53	4480
2026-01-05 22:41:21.04	118.20	29.46	-41.3	-43.0	19.0	0.00e+00	0	44	0	0	53	4598
2026-01-05 22:41:24.04	119.12	29.23	-41.2	-43.0	19.0	0.00e+00	0	44	0	0	53	4559
2026-01-05 22:41:27.05	120.03	29.00	-41.0	-42.8	19.1	0.00e+00	0	44	0	0	53	4453
2026-01-05 22:41:30.05	120.93	28.76	-41.1	-42.9	19.1	0.00e+00	0	44	0	0	53	4519
2026-01-05 22:41:33.06	121.82	28.52	-41.0	-42.7	19.1	0.00e+00	0	44	0	0	53	4437
2026-01-05 22:41:36.07	122.70	28.27	-40.5	-42.2	19.6	0.00e+00	0	44	0	0	53	4189
2026-01-05 22:41:39.07	123.55	28.01	-40.5	-42.2	19.5	0.00e+00	0	43	0	0	52	4428
2026-01-05 22:41:42.07	124.40	27.76	-40.5	-42.2	19.7	0.00e+00	0	44	0	0	52	4398
2026-01-05 22:41:45.08	125.23	27.49	-40.4	-42.0	19.7	0.00e+00	0	44	0	0	52	4339
2026-01-05 22:41:48.08	126.05	27.23	-40.6	-42.4	19.4	0.00e+00	0	44	0	0	52	4514
2026-01-05 22:41:51.08	126.86	26.96	-40.6	-42.3	19.6	0.00e+00	0	44	0	0	52	4456
2026-01-05 22:41:54.09	127.65	26.68	-40.4	-42.1	19.8	0.00e+00	0	44	0	0	52	4345
2026-01-05 22:41:57.10	128.43	26.41	-40.5	-42.3	19.6	0.00e+00	0	44	0	0	52	4451
2026-01-05 22:42:00.10	129.20	26.13	-40.5	-42.4	19.5	0.00e+00	0	43	0	0	52	4504
2026-01-05 22:42:03.10	129.95	25.85	-40.4	-42.1	19.7	0.00e+00	0	43	0	0	52	4388
2026-01-05 22:42:06.10	130.69	25.57	-40.4	-42.1	19.8	0.00e+00	0	44	0	0	52	4341
2026-01-05 22:42:09.10	131.42	25.28	-40.5	-42.2	19.7	0.00e+00	0	44	0	0	52	4401
2026-01-05 22:42:12.11	132.13	25.00	-40.7	-42.5	19.4	0.00e+00	0	44	0	0	52	4562
2026-01-05 22:42:15.11	132.83	24.71	-40.8	-42.5	19.4	0.00e+00	0	44	0	0	52	4596
2026-01-05 22:42:18.11	133.52	24.42	-40.8	-42.6	19.4	0.00e+00	0	44	0	0	52	4614
2026-01-05 22:42:21.11	134.20	24.13	-40.9	-42.6	19.3	0.00e+00	0	43	0	0	52	4646
2026-01-05 22:42:24.11	134.86	23.84	-40.7	-42.5	19.4	0.00e+00	0	44	0	0	52	4548
2026-01-05 22:42:27.11	135.52	23.55	-40.6	-42.4	19.5	0.00e+00	0	43	0	0	52	4505
2026-01-05 22:42:30.11	136.16	23.26	-40.8	-42.5	19.3	0.00e+00	0	44	0	0	52	4581
2026-01-05 22:42:33.12	136.79	22.97	-40.7	-42.5	19.3	0.00e+00	0	44	0	0	52	4556
2026-01-05 22:42:36.12	137.41	22.68	-40.7	-42.4	19.5	0.00e+00	0	44	0	0	52	4529
2026-01-05 22:42:39.12	138.01	22.38	-40.7	-42.4	19.4	0.00e+00	0	44	0	0	52	4539
2026-01-05 22:42:42.12	138.61	22.09	-40.8	-42.5	19.4	0.00e+00	0	44	0	0	52	4576
2026-01-05 22:42:45.12	139.19	21.80	-41.0	-42.8	19.2	0.00e+00	0	44	0	0	52	4717
2026-01-05 22:42:48.12	139.77	21.51	-41.0	-42.8	19.1	0.00e+00	0	44	0	0	52	4747
2026-01-05 22:42:51.13	140.33	21.22	-41.1	-42.9	19.0	0.00e+00	0	44	0	0	52	4811
2026-01-05 22:42:54.14	140.89	20.93	-41.0	-42.8	19.1	0.00e+00	0	44	0	0	52	4736
2026-01-05 22:42:57.14	141.43	20.64	-40.9	-42.7	19.2	0.00e+00	0	44	0	0	52	4681
2026-01-05 22:43:00.14	141.97	20.35	-40.8	-42.5	19.4	0.00e+00	0	44	0	0	52	4586
2026-01-05 22:43:03.13	142.49	20.07	-40.8	-42.5	19.3	0.00e+00	0	44	0	0	52	4594
2026-01-05 22:43:06.14	143.01	19.78	-41.0	-42.8	19.1	0.00e+00	0	44	0	0	52	4721
2026-01-05 22:43:09.14	143.51	19.49	-40.6	-42.4	19.4	0.00e+00	0	44	0	0	52	4524
2026-01-05 22:43:12.15	144.01	19.21	-40.8	-42.6	19.2	0.00e+00	0	44	0	0	52	4621
2026-01-05 22:43:15.15	144.50	18.93	-40.8	-42.6	19.2	0.00e+00	0	44	0	0	52	4625
2026-01-05 22:43:18.16	144.98	18.64	-40.7	-42.5	19.3	0.00e+00	0	44	0	0	52	4593
2026-01-05 22:43:21.16	145.45	18.36	-40.7	-42.5	19.2	0.00e+00	0	44	0	0	52	4580
2026-01-05 22:43:24.16	145.91	18.08	-40.7	-42.5	19.2	0.00e+00	0	44	0	0	52	4571
2026-01-05 22:43:27.16	146.36	17.81	-41.1	-42.9	18.9	0.00e+00	0	44	0	0	52	4775
2026-01-05 22:43:30.16	146.81	17.53	-41.1	-42.9	18.9	0.00e+00	0	44	0	0	53	4534
2026-01-05 22:43:33.17	147.25	17.25	-41.3	-43.1	18.7	0.00e+00	0	43	0	0	53	4632
2026-01-05 22:43:36.17	147.68	16.98	-41.5	-43.4	18.5	0.00e+00	0	44	0	0	53	4777
2026-01-05 22:43:39.17	148.10	16.71	-41.4	-43.3	18.6	0.00e+00	0	44	0	0	53	4722
2026-01-05 22:43:42.17	148.52	16.44	-41.4	-43.3	18.6	0.00e+00	0	44	0	0	53	4742
2026-01-05 22:43:45.17	148.92	16.17	-41.7	-43.5	18.3	0.00e+00	0	44	0	0	53	4867
2026-01-05 22:43:48.18	149.33	15.90	-41.8	-43.7	18.1	0.00e+00	0	44	0	0	54	4704
2026-01-05 22:43:51.18	149.72	15.64	-41.9	-43.8	18.1	0.00e+00	0	44	0	0	54	4756
2026-01-05 22:43:54.19	150.11	15.37	-41.8	-43.8	18.2	0.00e+00	0	44	0	0	54	4723
2026-01-05 22:43:57.19	150.49	15.11	-42.0	-44.0	17.9	0.00e+00	0	44	0	0	54	4828
2026-01-05 22:44:00.19	150.87	14.85	-42.0	-43.9	17.9	0.00e+00	0	44	0	0	55	4539
2026-01-05 22:44:03.20	151.24	14.59	-42.2	-44.2	17.6	0.00e+00	0	44	0	0	55	4691
2026-01-05 22:44:06.20	151.60	14.33	-42.2	-44.2	17.7	0.00e+00	0	44	0	0	55	4664
2026-01-05 22:44:09.21	151.96	14.08	-41.9	-43.8	18.1	0.00e+00	0	44	0	0	55	4479
2026-01-05 22:44:12.21	152.31	13.82	-41.9	-43.9	18.0	0.00e+00	0	44	0	0	55	4518
2026-01-05 22:44:15.21	152.65	13.57	-42.0	-44.0	17.9	0.00e+00	0	44	0	0	55	4569
2026-01-05 22:44:18.21	152.99	13.32	-42.0	-44.0	17.8	0.00e+00	0	44	0	0	55	4596
2026-01-05 22:44:21.21	153.32	13.07	-42.1	-44.1	17.7	0.00e+00	0	44	0	0	55	4630
2026-01-05 22:44:24.21	153.65	12.82	-42.2	-44.2	17.6	0.00e+00	0	44	0	0	55	4662
2026-01-05 22:44:27.21	153.98	12.58	-42.0	-44.1	17.8	0.00e+00	0	44	0	0	55	4602
2026-01-05 22:44:30.22	154.29	12.34	-42.0	-44.0	17.8	0.00e+00	0	44	0	0	55	4582
2026-01-05 22:44:33.23	154.61	12.09	-42.0	-44.0	17.8	0.00e+00	0	44	0	0	55	4563
2026-01-05 22:44:36.24	154.92	11.85	-42.1	-44.1	17.7	0.00e+00	0	44	0	0	55	4630
2026-01-05 22:44:39.24	155.22	11.61	-42.0	-44.0	17.8	0.00e+00	0	44	0	0	55	4582
2026-01-05 22:44:42.24	155.52	11.38	-41.9	-43.8	18.0	0.00e+00	0	44	0	0	55	4469
2026-01-05 22:44:45.24	155.81	11.14	-42.0	-43.9	17.9	0.00e+00	0	44	0	0	55	4536
2026-01-05 22:44:48.25	156.10	10.90	-42.0	-43.9	17.8	0.00e+00	0	44	0	0	55	4540
2026-01-05 22:44:51.24	156.39	10.67	-42.2	-44.2	14.3	0.00e+00	0	44	0	0	55	4668
2026-01-05 22:44:54.24	156.67	10.44	-42.3	-44.3	17.4	2.12e-02	0	44	0	0	55	4756
2026-01-05 22:44:57.25	156.95	10.21	-42.6	-44.7	17.2	3.79e-02	0	44	0	0	56	4688
2026-01-05 22:45:00.26	157.22	9.98	-42.7	-44.7	17.1	0.00e+00	0	44	0	0	56	4685
2026-01-05 22:45:03.26	157.49	9.76	-42.7	-44.8	17.1	0.00e+00	0	43	0	0	57	4464
2026-01-05 22:45:06.27	157.75	9.53	-42.6	-44.6	17.2	0.00e+00	0	44	0	0	57	4388
2026-01-05 22:45:09.27	158.01	9.31	-42.7	-44.9	17.0	0.00e+00	0	44	0	0	57	4495
2026-01-05 22:45:12.28	158.27	9.09	-42.7	-44.9	17.0	0.00e+00	0	44	0	0	57	4497
2026-01-05 22:45:15.29	158.52	8.87	-50.2	-63.5	3.8	1.49e+00	0	44	104	0	71	17094
2026-01-05 22:45:18.29	158.77	8.65	-50.6	-63.8	3.8	1.49e+00	0	44	104	0	72	16742
2026-01-05 22:45:21.30	159.02	8.43	-50.8	-63.9	3.8	1.49e+00	0	44	104	0	72	16970
2026-01-05 22:45:24.31	159.26	8.21	-50.9	-64.0	3.8	1.49e+00	0	44	104	0	72	17158
2026-01-05 22:45:27.32	159.50	8.00	-50.9	-64.0	3.8	1.49e+00	0	44	104	0	72	17179
2026-01-05 22:45:30.32	159.74	7.79	-50.9	-64.0	3.8	1.49e+00	0	44	104	0	72	17196
2026-01-05 22:45:33.33	159.97	7.57	-50.8	-64.0	3.8	1.49e+00	0	44	104	0	72	17190
2026-01-05 22:45:36.34	160.20	7.36	-50.9	-63.9	3.8	1.49e+00	0	44	104	0	72	17076
2026-01-05 22:45:39.35	160.43	7.15	-50.6	-63.9	3.8	1.49e+00	0	44	104	0	72	17054
2026-01-05 22:45:42.36	160.65	6.94	-50.6	-63.9	3.8	1.49e+00	0	44	104	0	72	16961
2026-01-05 22:45:45.37	160.87	6.74	-50.6	-63.9	3.8	1.49e+00	0	44	104	0	72	17035
2026-01-05 22:45:48.38	161.09	6.53	-50.6	-63.9	3.8	1.49e+00	0	44	104	0	72	17034
2026-01-05 22:45:51.38	161.30	6.33	-50.6	-63.9	3.8	1.49e+00	0	44	104	0	72	17005
2026-01-05 22:45:54.39	161.52	6.13	-50.5	-64.0	3.8	1.49e+00	0	44	104	0	72	17125
2026-01-05 22:45:57.40	161.73	5.92	-50.5	-63.9	3.8	1.49e+00	0	44	104	0	72	17049
2026-01-05 22:46:00.41	161.93	5.72	-50.6	-63.9	3.8	1.49e+00	0	44	104	0	72	17048
2026-01-05 22:46:03.42	162.14	5.52	-50.6	-63.9	3.8	1.49e+00	0	44	104	0	72	17067
2026-01-05 22:46:06.42	162.34	5.33	-50.5	-64.0	3.8	1.49e+00	0	44	104	0	72	17088
2026-01-05 22:46:09.43	162.53	5.13	-50.5	-63.9	3.8	1.49e+00	0	44	104	0	72	17046

#Closed at: 2026-01-05 22:46:12
#Recorded file [0 MB]: D:/Data/31040_260106_013408.dat