passes_logs/2026/01/05/T1/T1__20260105_060459_KHAYYAM_rec.log

#Pass ID: 20260105_060459_KHAYYAM
#Satellite: KHAYYAM
#Configuration: KHAYYAM_480M
#almurnet v.1.7.20251203
#Start time: 2026-01-05 06:05:00

#Version: 2.0.20230620
#Station: T1
#Location: 37.570604 lon 55.790049 lat
#TLE: 1 53370U 22096A   26004.25948006  .00009070  00000+0  36935-3 0  9997
#TLE: 2 53370  97.3569 271.4608 0001229  85.3250 274.8128 15.24710400189604

#Time	Az	El	Level	Level2	SNR	BER	BlckErr	Temp	State	Recorded	gain1	gain2
2026-01-05 06:05:00.72	89.67	5.07	-54.1	-58.8	3.6	0.00e+00	0	45	0	0	79	25179
2026-01-05 06:05:02.72	89.33	5.17	-54.1	-58.7	3.7	0.00e+00	0	45	104	0	78	26505
2026-01-05 06:05:04.73	88.99	5.27	-54.1	-58.7	3.7	0.00e+00	0	45	104	0	78	26470
2026-01-05 06:05:06.74	88.64	5.37	-54.1	-58.7	3.7	0.00e+00	0	46	104	0	78	26516
2026-01-05 06:05:08.74	88.30	5.47	-54.1	-58.7	3.7	0.00e+00	0	46	104	0	78	26481
2026-01-05 06:05:10.75	87.94	5.57	-54.1	-58.7	3.7	0.00e+00	0	46	104	0	78	26490
2026-01-05 06:05:12.76	87.59	5.66	-54.1	-58.7	3.7	0.00e+00	0	46	104	0	78	26435
2026-01-05 06:05:14.77	87.23	5.76	-54.1	-58.7	3.7	0.00e+00	0	46	104	0	78	26459
2026-01-05 06:05:16.78	86.86	5.86	-54.1	-58.7	3.7	0.00e+00	0	46	104	0	78	26465
2026-01-05 06:05:18.78	86.50	5.96	-54.1	-58.7	3.7	0.00e+00	0	46	104	0	78	26436
2026-01-05 06:05:20.79	86.13	6.06	-54.1	-58.7	3.7	0.00e+00	0	46	104	0	78	26456
2026-01-05 06:05:22.80	85.76	6.16	-54.1	-58.7	3.7	0.00e+00	0	47	104	0	78	26409
2026-01-05 06:05:24.81	85.39	6.25	-54.1	-58.7	3.7	0.00e+00	0	47	104	0	78	26387
2026-01-05 06:05:26.82	85.01	6.35	-54.0	-58.7	3.7	0.00e+00	0	47	104	0	78	26425
2026-01-05 06:05:28.82	84.63	6.44	-54.0	-58.7	3.7	0.00e+00	0	47	104	0	78	26442
2026-01-05 06:05:30.83	84.24	6.54	-54.0	-58.7	3.7	0.00e+00	0	47	104	0	78	26279
2026-01-05 06:05:32.84	83.86	6.63	-54.0	-58.7	3.7	0.00e+00	0	47	104	0	78	26394
2026-01-05 06:05:34.85	83.46	6.73	-54.0	-58.7	3.7	0.00e+00	0	47	104	0	78	26374
2026-01-05 06:05:36.86	83.07	6.82	-54.0	-58.7	3.7	0.00e+00	0	48	104	0	78	26394
2026-01-05 06:05:38.86	82.68	6.92	-54.0	-58.7	3.7	0.00e+00	0	48	104	0	78	26405
2026-01-05 06:05:40.87	82.27	7.01	-54.0	-58.7	3.7	0.00e+00	0	48	104	0	78	26399
2026-01-05 06:05:42.88	81.87	7.10	-54.0	-58.7	3.7	0.00e+00	0	48	104	0	78	26321
2026-01-05 06:05:44.88	81.47	7.19	-54.0	-58.7	3.7	0.00e+00	0	48	104	0	78	26420
2026-01-05 06:05:46.89	81.05	7.28	-54.0	-58.7	3.7	0.00e+00	0	48	104	0	78	26286
2026-01-05 06:05:48.90	80.64	7.37	-54.0	-58.7	3.7	0.00e+00	0	48	104	0	78	26401
2026-01-05 06:05:50.91	80.22	7.46	-54.0	-58.7	3.7	0.00e+00	0	48	104	0	78	26346
2026-01-05 06:05:52.92	79.80	7.55	-54.0	-58.7	3.7	0.00e+00	0	48	104	0	78	26364
2026-01-05 06:05:54.93	79.38	7.64	-54.0	-58.7	3.7	0.00e+00	0	48	104	0	78	26308
2026-01-05 06:05:56.94	78.95	7.72	-54.0	-58.6	3.7	0.00e+00	0	48	104	0	78	26266
2026-01-05 06:05:58.95	78.52	7.81	-54.0	-58.7	3.7	0.00e+00	0	48	104	0	78	26307
2026-01-05 06:06:00.95	78.09	7.89	-54.0	-58.6	3.7	0.00e+00	0	49	104	0	78	26232
2026-01-05 06:06:02.96	77.66	7.98	-54.0	-58.7	3.7	0.00e+00	0	49	104	0	78	26332
2026-01-05 06:06:04.97	77.22	8.06	-54.0	-58.6	3.7	0.00e+00	0	48	104	0	78	26213
2026-01-05 06:06:06.98	76.78	8.14	-54.0	-58.7	3.7	0.00e+00	0	49	104	0	78	26286
2026-01-05 06:06:08.99	76.33	8.23	-54.0	-58.7	3.7	0.00e+00	0	49	104	0	78	26313
2026-01-05 06:06:11.00	75.88	8.31	-54.0	-58.7	3.7	0.00e+00	0	49	104	0	78	26289
2026-01-05 06:06:13.00	75.43	8.38	-54.0	-58.6	3.7	0.00e+00	0	49	104	0	78	26257
2026-01-05 06:06:15.01	74.98	8.46	-54.0	-58.7	3.7	0.00e+00	0	49	104	0	78	26279
2026-01-05 06:06:17.02	74.52	8.54	-54.0	-58.6	3.7	0.00e+00	0	49	104	0	78	26266
2026-01-05 06:06:19.03	74.06	8.62	-54.0	-58.7	3.7	0.00e+00	0	49	104	0	78	26315
2026-01-05 06:06:21.04	73.59	8.69	-54.0	-58.7	3.7	0.00e+00	0	49	104	0	78	26317
2026-01-05 06:06:23.04	73.13	8.76	-54.0	-58.7	3.7	0.00e+00	0	49	104	0	78	26356
2026-01-05 06:06:25.05	72.66	8.84	-54.0	-58.7	3.7	0.00e+00	0	49	104	0	78	26386
2026-01-05 06:06:27.06	72.19	8.91	-54.0	-58.7	3.7	0.00e+00	0	49	104	0	78	26300
2026-01-05 06:06:29.07	71.71	8.98	-54.0	-58.7	3.7	0.00e+00	0	49	104	0	78	26329
2026-01-05 06:06:31.08	71.23	9.04	-53.5	-57.3	3.7	0.00e+00	0	49	104	0	78	22422
2026-01-05 06:06:33.02	70.77	9.11	-54.0	-58.5	3.7	0.00e+00	0	49	104	0	78	25949
2026-01-05 06:06:35.14	70.26	9.18	-53.9	-58.2	3.7	0.00e+00	0	50	104	0	78	24885
2026-01-05 06:06:37.21	69.76	9.25	-54.1	-58.6	3.7	0.00e+00	0	49	104	0	78	26207
2026-01-05 06:06:39.28	69.25	9.31	-54.2	-58.8	3.7	0.00e+00	0	50	104	0	79	25138
2026-01-05 06:06:41.28	68.76	9.37	-54.2	-58.5	3.7	0.00e+00	0	49	104	0	79	24377
2026-01-05 06:06:43.29	68.27	9.43	-54.2	-58.8	3.7	0.00e+00	0	49	104	0	79	25123
2026-01-05 06:06:45.30	67.77	9.49	-54.3	-58.8	3.7	0.00e+00	0	50	104	0	79	25264
2026-01-05 06:06:47.30	67.28	9.55	-53.6	-58.4	3.7	0.00e+00	0	49	104	0	79	24223
2026-01-05 06:06:49.31	66.77	9.60	-54.1	-58.8	3.7	0.00e+00	0	49	104	0	79	25291
2026-01-05 06:06:51.31	66.27	9.65	-53.4	-57.8	3.7	0.00e+00	0	50	104	0	78	23809
2026-01-05 06:06:53.40	65.75	9.71	-53.4	-57.7	3.7	0.00e+00	0	50	104	0	78	23529
2026-01-05 06:06:55.41	65.24	9.76	-53.7	-57.5	3.7	0.00e+00	0	49	104	0	78	23119
2026-01-05 06:06:57.41	64.73	9.81	-53.7	-57.7	3.7	0.00e+00	0	50	104	0	78	23663
2026-01-05 06:06:59.41	64.22	9.85	-53.9	-58.1	3.7	0.00e+00	0	50	104	0	78	24689
2026-01-05 06:07:01.42	63.70	9.90	-54.1	-58.4	3.7	0.00e+00	0	50	104	0	78	25454
2026-01-05 06:07:03.43	63.19	9.94	-54.3	-58.7	3.7	0.00e+00	0	50	104	0	79	24924
2026-01-05 06:07:05.43	62.67	9.98	-54.2	-58.8	3.7	0.00e+00	0	50	104	0	79	25118
2026-01-05 06:07:07.44	62.15	10.02	-54.2	-58.9	3.7	0.00e+00	0	50	104	0	79	25422
2026-01-05 06:07:09.44	61.63	10.06	-54.1	-58.5	3.7	0.00e+00	0	50	104	0	79	24497
2026-01-05 06:07:11.45	61.11	10.10	-54.2	-58.9	3.7	0.00e+00	0	50	104	0	79	25416
2026-01-05 06:07:13.45	60.59	10.13	-54.3	-59.0	3.7	0.00e+00	0	50	104	0	79	25833
2026-01-05 06:07:15.71	59.99	10.17	-53.7	-58.2	3.7	0.00e+00	0	50	104	0	79	23435
2026-01-05 06:07:17.74	59.46	10.20	-53.6	-57.7	3.7	0.00e+00	0	50	104	0	79	22224
2026-01-05 06:07:19.84	58.91	10.23	-54.3	-58.8	3.7	0.00e+00	0	50	104	0	79	25181
2026-01-05 06:07:21.85	58.38	10.25	-54.2	-58.6	3.7	0.00e+00	0	50	104	0	79	24757
2026-01-05 06:07:23.85	57.85	10.28	-54.1	-58.4	3.7	0.00e+00	0	50	104	0	79	24179
2026-01-05 06:07:25.86	57.31	10.30	-54.1	-58.5	3.7	0.00e+00	0	50	104	0	79	24414
2026-01-05 06:07:27.86	56.78	10.32	-54.0	-58.2	3.7	0.00e+00	0	50	104	0	79	23556
2026-01-05 06:07:29.87	56.25	10.34	-53.8	-57.9	3.7	0.00e+00	0	50	104	0	79	22791
2026-01-05 06:07:31.95	55.70	10.36	-54.2	-58.6	3.7	0.00e+00	0	50	104	0	79	24569
2026-01-05 06:07:33.96	55.16	10.37	-54.1	-58.5	3.7	0.00e+00	0	50	104	0	79	24402
2026-01-05 06:07:35.98	54.62	10.38	-54.5	-58.9	3.7	0.00e+00	0	50	104	0	79	25453
2026-01-05 06:07:38.10	54.05	10.39	-54.1	-58.3	3.7	0.00e+00	0	50	104	0	79	23730
2026-01-05 06:07:40.14	53.51	10.40	-54.2	-58.6	3.7	0.00e+00	0	50	104	0	79	24626
2026-01-05 06:07:42.22	52.95	10.41	-54.2	-58.7	3.7	0.00e+00	0	50	104	0	79	25055
2026-01-05 06:07:44.45	52.35	10.41	-54.2	-58.7	3.7	0.00e+00	0	50	104	0	79	24850
2026-01-05 06:07:46.48	51.81	10.42	-54.3	-58.8	3.7	0.00e+00	0	50	104	0	79	25358
2026-01-05 06:07:48.48	51.27	10.42	-54.2	-58.4	3.7	0.00e+00	0	50	104	0	79	24232
2026-01-05 06:07:50.49	50.74	10.41	-53.0	-56.4	3.7	0.00e+00	0	50	104	0	77	21458
2026-01-05 06:07:52.49	50.20	10.41	-53.9	-57.9	3.7	0.00e+00	0	50	104	0	78	23986
2026-01-05 06:07:54.50	49.66	10.40	-54.1	-58.1	3.7	0.00e+00	0	50	104	0	78	24752
2026-01-05 06:07:56.51	49.13	10.39	-54.0	-58.1	3.7	0.00e+00	0	50	104	0	78	24534
2026-01-05 06:07:58.51	48.59	10.38	-53.6	-57.4	3.7	0.00e+00	0	50	104	0	78	22664
2026-01-05 06:08:00.52	48.06	10.37	-53.4	-57.2	3.7	0.00e+00	0	50	104	0	78	22333
2026-01-05 06:08:02.52	47.52	10.36	-52.8	-56.2	3.7	0.00e+00	0	50	104	0	77	21007
2026-01-05 06:08:04.53	46.99	10.34	-52.6	-55.9	3.7	0.00e+00	0	50	104	0	76	21416
2026-01-05 06:08:06.53	46.46	10.32	-53.8	-57.7	3.7	0.00e+00	0	50	104	0	79	22178
2026-01-05 06:08:08.54	45.92	10.30	-53.0	-56.3	3.7	0.00e+00	0	50	104	0	77	21141
2026-01-05 06:08:10.55	45.39	10.28	-52.9	-56.1	3.7	0.00e+00	0	50	104	0	77	20770
2026-01-05 06:08:12.55	44.86	10.26	-53.6	-57.1	3.7	0.00e+00	0	50	104	0	77	23385
2026-01-05 06:08:14.55	44.34	10.23	-52.3	-55.3	3.7	0.00e+00	0	50	104	0	76	19999
2026-01-05 06:08:16.56	43.81	10.20	-53.8	-57.5	3.7	0.00e+00	0	50	104	0	78	23046
2026-01-05 06:08:18.56	43.28	10.17	-54.1	-58.0	3.7	0.00e+00	0	50	104	0	78	24426
2026-01-05 06:08:20.57	42.76	10.14	-54.2	-58.4	3.7	0.00e+00	0	50	104	0	79	24125
2026-01-05 06:08:22.57	42.23	10.11	-54.6	-59.0	3.7	0.00e+00	0	50	104	0	79	25860
2026-01-05 06:08:24.57	41.71	10.07	-52.0	-54.8	3.7	0.00e+00	0	50	104	0	74	21169
2026-01-05 06:08:26.58	41.19	10.03	-51.9	-54.7	3.7	0.00e+00	0	50	104	0	75	19771
2026-01-05 06:08:28.60	40.67	9.99	-52.7	-55.9	3.7	0.00e+00	0	50	104	0	76	21529
2026-01-05 06:08:30.60	40.16	9.95	-53.0	-56.4	3.7	0.00e+00	0	50	104	0	76	22695
2026-01-05 06:08:32.61	39.64	9.91	-50.5	-52.8	3.7	0.00e+00	0	50	104	0	72	18869
2026-01-05 06:08:34.61	39.13	9.86	-49.2	-51.2	3.7	0.00e+00	0	50	104	0	70	17710
2026-01-05 06:08:36.61	38.62	9.82	-48.4	-50.3	3.6	0.00e+00	0	50	104	0	69	16948
2026-01-05 06:08:38.62	38.11	9.77	-44.1	-45.5	3.8	0.00e+00	0	50	104	0	59	17349
2026-01-05 06:08:40.65	37.60	9.72	-44.6	-46.1	3.5	0.00e+00	0	50	104	0	59	18406
2026-01-05 06:08:42.66	37.09	9.67	-48.4	-50.7	3.7	0.00e+00	0	50	104	0	69	17746
2026-01-05 06:08:44.97	36.52	9.61	-49.7	-51.8	4.1	0.00e+00	0	50	104	0	71	17931
2026-01-05 06:08:46.98	36.02	9.55	-51.2	-53.8	3.8	0.00e+00	0	50	104	0	73	20142
2026-01-05 06:08:48.98	35.52	9.50	-53.7	-58.5	3.7	0.00e+00	0	50	104	0	78	25706
2026-01-05 06:08:50.98	35.03	9.44	-52.2	-55.1	3.7	0.00e+00	0	50	104	0	76	19517
2026-01-05 06:08:53.08	34.51	9.38	-52.4	-56.0	3.7	0.00e+00	0	50	104	0	75	22968
2026-01-05 06:08:55.37	33.95	9.31	-52.5	-55.7	3.8	0.00e+00	0	50	104	0	76	20881
2026-01-05 06:08:57.74	33.38	9.23	-49.4	-51.6	3.6	0.00e+00	0	50	104	0	70	18396
2026-01-05 06:08:59.92	32.86	9.16	-50.6	-53.6	3.6	0.00e+00	0	50	104	0	71	21924
2026-01-05 06:09:02.08	32.34	9.09	-53.6	-58.2	3.7	0.00e+00	0	50	104	0	77	26483
2026-01-05 06:09:04.20	31.83	9.02	-52.0	-55.7	3.7	0.00e+00	0	50	104	0	74	23542
2026-01-05 06:09:06.20	31.36	8.95	-50.6	-52.9	3.6	0.00e+00	0	50	104	0	73	18164
2026-01-05 06:09:08.21	30.89	8.88	-54.4	-58.3	3.7	0.00e+00	0	50	104	0	79	23822
2026-01-05 06:09:10.22	30.42	8.81	-55.4	-60.0	3.7	0.00e+00	0	50	104	0	81	25753
2026-01-05 06:09:12.25	29.95	8.74	-54.6	-58.4	3.7	0.00e+00	0	50	104	0	81	21591
2026-01-05 06:09:14.20	29.50	8.67	-55.1	-59.3	3.7	0.00e+00	0	50	104	0	81	23795
2026-01-05 06:09:16.32	29.01	8.59	-55.7	-60.2	3.7	0.00e+00	0	50	104	0	82	24978
2026-01-05 06:09:18.40	28.54	8.51	-55.4	-59.8	3.7	0.00e+00	0	51	104	0	82	23871
2026-01-05 06:09:20.44	28.08	8.43	-55.5	-60.0	3.7	0.00e+00	0	50	104	0	82	24311
2026-01-05 06:09:22.45	27.63	8.35	-55.2	-59.7	3.7	0.00e+00	0	50	104	0	82	23498
2026-01-05 06:09:24.46	27.18	8.27	-54.8	-59.4	3.7	0.00e+00	0	50	104	0	81	23977
2026-01-05 06:09:26.46	26.74	8.19	-54.9	-59.5	3.7	0.00e+00	0	50	104	0	81	24266
2026-01-05 06:09:28.47	26.30	8.11	-54.9	-59.4	3.7	0.00e+00	0	50	104	0	81	24213
2026-01-05 06:09:30.48	25.86	8.03	-54.8	-59.4	3.7	0.00e+00	0	50	104	0	81	24106
2026-01-05 06:09:32.49	25.42	7.95	-54.8	-59.4	3.7	0.00e+00	0	50	104	0	81	24179
2026-01-05 06:09:34.50	24.99	7.86	-54.8	-59.4	3.7	0.00e+00	0	50	104	0	81	24206
2026-01-05 06:09:36.51	24.56	7.78	-54.8	-59.4	3.7	0.00e+00	0	50	104	0	81	24204
2026-01-05 06:09:38.51	24.14	7.69	-54.8	-59.4	3.7	0.00e+00	0	50	104	0	81	24100
2026-01-05 06:09:40.53	23.72	7.60	-54.8	-59.4	3.7	0.00e+00	0	50	104	0	81	24075
2026-01-05 06:09:42.53	23.30	7.52	-54.8	-59.4	3.7	0.00e+00	0	50	104	0	81	24092
2026-01-05 06:09:44.54	22.88	7.43	-54.8	-59.4	3.7	0.00e+00	0	50	104	0	81	24058
2026-01-05 06:09:46.55	22.47	7.34	-54.8	-59.4	3.7	0.00e+00	0	50	104	0	81	24033
2026-01-05 06:09:48.56	22.06	7.25	-54.8	-59.4	3.7	0.00e+00	0	50	104	0	81	23986
2026-01-05 06:09:50.57	21.65	7.16	-54.8	-59.4	3.7	0.00e+00	0	51	104	0	81	24109
2026-01-05 06:09:52.58	21.25	7.07	-54.8	-59.4	3.7	0.00e+00	0	51	104	0	81	24067
2026-01-05 06:09:54.58	20.85	6.98	-54.8	-59.4	3.7	0.00e+00	0	51	104	0	81	23970
2026-01-05 06:09:56.59	20.46	6.88	-54.8	-59.4	3.7	0.00e+00	0	51	104	0	81	24020
2026-01-05 06:09:58.60	20.06	6.79	-54.8	-59.4	3.7	0.00e+00	0	51	104	0	81	23979
2026-01-05 06:10:00.61	19.67	6.70	-54.8	-59.3	3.7	0.00e+00	0	50	104	0	81	23937
2026-01-05 06:10:02.62	19.29	6.60	-54.8	-59.3	3.7	0.00e+00	0	51	104	0	81	23963
2026-01-05 06:10:04.63	18.90	6.51	-54.8	-59.4	3.7	0.00e+00	0	51	104	0	81	23965
2026-01-05 06:10:06.63	18.53	6.41	-54.8	-59.3	3.7	0.00e+00	0	50	104	0	81	23948
2026-01-05 06:10:08.64	18.15	6.32	-54.8	-59.3	3.7	0.00e+00	0	51	104	0	81	23945
2026-01-05 06:10:10.65	17.78	6.22	-54.8	-59.4	3.7	0.00e+00	0	51	104	0	81	23973
2026-01-05 06:10:12.66	17.40	6.12	-54.8	-59.4	3.7	0.00e+00	0	51	104	0	81	23991
2026-01-05 06:10:14.67	17.04	6.03	-54.8	-59.4	3.7	0.00e+00	0	50	104	0	81	24026
2026-01-05 06:10:16.68	16.67	5.93	-54.8	-59.4	3.7	0.00e+00	0	50	104	0	81	24028
2026-01-05 06:10:18.68	16.31	5.83	-54.8	-59.3	3.7	0.00e+00	0	51	104	0	81	23889
2026-01-05 06:10:20.69	15.96	5.73	-54.8	-59.3	3.7	0.00e+00	0	51	104	0	81	23921
2026-01-05 06:10:22.70	15.60	5.64	-54.8	-59.3	3.7	0.00e+00	0	51	104	0	81	23941
2026-01-05 06:10:24.71	15.25	5.54	-54.8	-59.3	3.7	0.00e+00	0	51	104	0	81	23872
2026-01-05 06:10:26.72	14.90	5.44	-54.8	-59.3	3.7	0.00e+00	0	50	104	0	81	23953
2026-01-05 06:10:28.73	14.56	5.34	-54.7	-59.3	3.7	0.00e+00	0	51	104	0	81	23879
2026-01-05 06:10:30.73	14.21	5.24	-54.7	-59.3	3.7	0.00e+00	0	50	104	0	81	23897
2026-01-05 06:10:32.74	13.88	5.14	-54.7	-59.3	3.7	0.00e+00	0	51	104	0	81	23894
2026-01-05 06:10:34.75	13.54	5.04	-54.7	-59.3	3.7	0.00e+00	0	51	104	0	81	23878

#Closed at: 2026-01-05 06:10:36
#Recorded file [0 MB]: D:/Data/31040_260105_090500.dat