passes_logs/2026/01/05/T1/T1__20260105_052026_FENGYUN_3G_rec.log

#Pass ID: 20260105_052026_FENGYUN 3G
#Satellite: FENGYUN 3G
#Configuration: FENGYUN 3G
#almurnet v.1.7.20251203
#Start time: 2026-01-05 05:20:26

#Version: 2.0.20230620
#Station: T1
#Location: 37.570604 lon 55.790049 lat
#TLE: 1 56232U 23055A   26004.30545203  .00036688  00000+0  58358-3 0  9999
#TLE: 2 56232  49.9937 111.0848 0004219 337.3423  22.7358 15.52882769154533

#Time	Az	El	Level	Level2	SNR	BER	BlckErr	Temp	State	Recorded	gain1	gain2
2026-01-05 05:20:26.23	259.46	4.86	-51.1	-70.0	3.8	8.46e-01	0	38	0	0	73	32352
2026-01-05 05:20:28.23	259.22	5.00	-51.1	-70.2	3.8	8.48e-01	0	38	104	0	74	31152
2026-01-05 05:20:30.24	258.98	5.14	-51.0	-70.1	3.8	8.46e-01	0	38	104	0	74	31057
2026-01-05 05:20:32.25	258.73	5.27	-51.0	-70.1	3.8	8.47e-01	0	38	104	0	74	31018
2026-01-05 05:20:34.26	258.48	5.41	-51.1	-70.1	3.8	8.46e-01	0	38	104	0	74	30995
2026-01-05 05:20:36.26	258.23	5.55	-51.1	-70.1	3.8	8.48e-01	0	38	104	0	74	30919
2026-01-05 05:20:38.27	257.97	5.69	-51.1	-70.1	3.8	8.47e-01	0	38	104	0	74	30751
2026-01-05 05:20:40.28	257.71	5.84	-51.0	-70.0	3.8	8.46e-01	0	38	104	0	74	30668
2026-01-05 05:20:42.29	257.45	5.98	-51.0	-70.1	3.8	8.46e-01	0	39	104	0	74	30951
2026-01-05 05:20:44.29	257.18	6.12	-51.0	-70.2	3.8	8.47e-01	0	39	104	0	74	31097
2026-01-05 05:20:46.30	256.91	6.26	-51.0	-70.1	3.8	8.47e-01	0	39	104	0	74	31017
2026-01-05 05:20:48.31	256.63	6.41	-51.1	-70.1	3.8	8.47e-01	0	39	104	0	74	30882
2026-01-05 05:20:50.32	256.35	6.55	-51.0	-70.0	3.8	8.46e-01	0	39	104	0	74	30591
2026-01-05 05:20:52.32	256.07	6.70	-51.0	-70.0	3.8	8.47e-01	0	39	104	0	74	30621
2026-01-05 05:20:54.33	255.78	6.85	-51.0	-70.1	3.8	8.45e-01	0	39	104	0	74	30736
2026-01-05 05:20:56.34	255.49	6.99	-51.0	-70.1	3.8	8.46e-01	0	39	104	0	74	30928
2026-01-05 05:20:58.34	255.19	7.14	-51.0	-70.1	3.8	8.48e-01	0	39	104	0	74	30912
2026-01-05 05:21:00.34	254.90	7.29	-51.0	-70.1	3.8	8.46e-01	0	39	104	0	74	30987
2026-01-05 05:21:02.35	254.59	7.44	-51.1	-70.1	3.8	8.46e-01	0	39	104	0	74	30951
2026-01-05 05:21:04.35	254.28	7.59	-51.0	-70.1	3.8	8.48e-01	0	39	104	0	74	30768
2026-01-05 05:21:06.36	253.97	7.74	-51.0	-70.0	3.8	8.47e-01	0	39	104	0	74	30450
2026-01-05 05:21:08.36	253.65	7.89	-51.0	-70.0	3.8	8.47e-01	0	39	104	0	73	32315
2026-01-05 05:21:10.37	253.33	8.04	-51.0	-70.0	3.8	8.47e-01	0	39	104	0	73	32400
2026-01-05 05:21:12.37	253.00	8.20	-51.0	-69.0	3.8	8.47e-01	0	39	104	0	73	28908
2026-01-05 05:21:14.38	252.67	8.35	-50.9	-69.2	3.8	8.45e-01	0	40	104	0	73	29424
2026-01-05 05:21:16.39	252.33	8.51	-51.0	-69.9	3.8	8.47e-01	0	40	104	0	73	32117
2026-01-05 05:21:18.39	251.99	8.66	-50.9	-67.3	3.9	8.47e-01	0	39	104	0	73	23629
2026-01-05 05:21:20.39	251.65	8.82	-50.7	-62.7	6.1	7.74e-01	0	39	0	0	73	13983
2026-01-05 05:21:22.40	251.30	8.97	-50.1	-58.8	9.9	1.91e-01	0	40	0	0	72	9452
2026-01-05 05:21:24.41	250.94	9.13	-49.5	-56.1	12.8	1.42e-02	0	40	0	0	71	7309
2026-01-05 05:21:26.41	250.58	9.29	-50.3	-59.9	8.4	1.73e-02	0	40	0	0	71	11368
2026-01-05 05:21:28.41	250.21	9.45	-46.0	-49.3	19.4	7.71e-02	0	40	0	0	64	5041
2026-01-05 05:21:30.41	249.84	9.61	-45.8	-49.0	20.0	0.00e+00	0	40	0	0	62	5404
2026-01-05 05:21:32.41	249.46	9.76	-45.7	-48.9	19.8	0.00e+00	0	40	0	0	62	5398
2026-01-05 05:21:34.42	249.08	9.92	-45.6	-48.8	20.1	0.00e+00	0	40	0	0	62	5333
2026-01-05 05:21:36.42	248.69	10.09	-45.1	-48.2	20.6	0.00e+00	0	40	0	0	61	5269
2026-01-05 05:21:38.43	248.29	10.25	-45.3	-48.6	20.1	0.00e+00	0	40	0	0	61	5482
2026-01-05 05:21:40.43	247.89	10.41	-45.5	-48.8	20.3	0.00e+00	0	40	0	0	61	5650
2026-01-05 05:21:42.43	247.48	10.57	-45.4	-48.5	20.6	0.00e+00	0	40	0	0	62	5141
2026-01-05 05:21:44.43	247.07	10.73	-44.9	-47.7	21.0	0.00e+00	0	40	0	0	61	4969
2026-01-05 05:21:46.44	246.65	10.90	-44.3	-46.9	21.8	0.00e+00	0	40	0	0	60	4806
2026-01-05 05:21:48.45	246.22	11.06	-43.8	-46.4	22.4	0.00e+00	0	40	0	0	59	4764
2026-01-05 05:21:50.45	245.79	11.22	-43.2	-45.7	23.0	0.00e+00	0	40	0	0	58	4689
2026-01-05 05:21:52.45	245.35	11.39	-43.5	-46.0	22.7	0.00e+00	0	40	0	0	58	4840
2026-01-05 05:21:54.45	244.91	11.55	-43.1	-45.5	23.2	0.00e+00	0	40	0	0	58	4564
2026-01-05 05:21:56.45	244.46	11.72	-42.4	-44.7	23.8	0.00e+00	0	40	0	0	56	4683
2026-01-05 05:21:58.45	244.00	11.88	-42.5	-44.8	23.8	0.00e+00	0	40	0	0	56	4732
2026-01-05 05:22:00.46	243.53	12.05	-42.6	-44.9	23.7	0.00e+00	0	40	0	0	56	4765
2026-01-05 05:22:02.46	243.06	12.21	-42.6	-44.9	23.7	0.00e+00	0	40	0	0	56	4761
2026-01-05 05:22:04.46	242.58	12.38	-42.6	-44.9	23.7	0.00e+00	0	40	0	0	56	4801
2026-01-05 05:22:06.46	242.09	12.54	-42.3	-44.6	23.9	0.00e+00	0	40	0	0	56	4629
2026-01-05 05:22:08.47	241.60	12.71	-42.5	-44.8	23.8	0.00e+00	0	40	0	0	56	4756
2026-01-05 05:22:10.47	241.10	12.88	-42.5	-44.8	23.9	0.00e+00	0	40	0	0	56	4722
2026-01-05 05:22:12.47	240.59	13.04	-42.3	-44.5	24.0	0.00e+00	0	40	0	0	56	4598
2026-01-05 05:22:14.48	240.07	13.21	-41.8	-44.0	24.4	0.00e+00	0	40	0	0	55	4546
2026-01-05 05:22:16.49	239.55	13.37	-41.6	-43.7	24.6	0.00e+00	0	40	0	0	55	4423
2026-01-05 05:22:18.49	239.02	13.54	-41.9	-44.1	24.3	0.00e+00	0	40	0	0	55	4634
2026-01-05 05:22:20.50	238.47	13.70	-42.1	-44.3	24.2	0.00e+00	0	40	0	0	55	4732
2026-01-05 05:22:22.50	237.93	13.87	-42.0	-44.2	24.2	0.00e+00	0	40	0	0	55	4693
2026-01-05 05:22:24.50	237.37	14.03	-41.7	-43.9	24.5	0.00e+00	0	40	0	0	55	4500
2026-01-05 05:22:26.50	236.81	14.19	-41.5	-43.6	24.7	0.00e+00	0	40	0	0	54	4633
2026-01-05 05:22:28.50	236.24	14.35	-41.6	-43.8	24.6	0.00e+00	0	40	0	0	54	4735
2026-01-05 05:22:30.50	235.66	14.52	-41.7	-43.9	24.5	0.00e+00	0	40	0	0	54	4792
2026-01-05 05:22:32.51	235.08	14.68	-41.8	-44.0	24.5	0.00e+00	0	40	0	0	54	4826
2026-01-05 05:22:34.50	234.48	14.84	-41.6	-43.7	24.6	0.00e+00	0	40	0	0	54	4699
2026-01-05 05:22:36.51	233.88	14.99	-41.2	-43.3	24.9	0.00e+00	0	40	0	0	54	4491
2026-01-05 05:22:38.51	233.27	15.15	-41.1	-43.2	25.0	0.00e+00	0	40	0	0	54	4409
2026-01-05 05:22:40.51	232.65	15.31	-41.2	-43.3	25.0	0.00e+00	0	40	0	0	54	4445
2026-01-05 05:22:42.51	232.02	15.46	-41.6	-43.8	24.6	0.00e+00	0	41	0	0	54	4710
2026-01-05 05:22:44.52	231.39	15.62	-41.4	-43.6	24.8	0.00e+00	0	40	0	0	54	4614
2026-01-05 05:22:46.52	230.74	15.77	-41.2	-43.3	25.0	0.00e+00	0	40	0	0	54	4488
2026-01-05 05:22:48.52	230.09	15.92	-40.9	-43.0	25.2	0.00e+00	0	40	0	0	53	4568
2026-01-05 05:22:50.53	229.43	16.07	-40.8	-42.9	25.3	0.00e+00	0	40	0	0	53	4510
2026-01-05 05:22:52.54	228.76	16.21	-41.0	-43.1	25.1	0.00e+00	0	40	0	0	53	4636
2026-01-05 05:22:54.54	228.08	16.36	-40.5	-42.5	25.6	0.00e+00	0	40	0	0	53	4331
2026-01-05 05:22:56.54	227.39	16.50	-40.5	-42.5	25.6	0.00e+00	0	40	0	0	52	4577
2026-01-05 05:22:58.54	226.70	16.64	-40.5	-42.5	25.6	0.00e+00	0	40	0	0	52	4575
2026-01-05 05:23:00.54	226.00	16.77	-40.7	-42.8	25.4	0.00e+00	0	40	0	0	52	4722
2026-01-05 05:23:02.54	225.29	16.91	-40.9	-43.0	25.3	0.00e+00	0	40	0	0	52	4846
2026-01-05 05:23:04.54	224.58	17.04	-40.8	-42.9	25.4	0.00e+00	0	40	0	0	52	4785
2026-01-05 05:23:06.55	223.85	17.17	-40.7	-42.7	25.5	0.00e+00	0	40	0	0	52	4678
2026-01-05 05:23:08.55	223.12	17.30	-40.8	-42.8	25.5	0.00e+00	0	40	0	0	52	4734
2026-01-05 05:23:10.56	222.38	17.42	-40.8	-42.8	25.5	0.00e+00	0	40	0	0	52	4746
2026-01-05 05:23:12.56	221.63	17.54	-41.1	-43.2	25.2	0.00e+00	0	41	0	0	52	4949
2026-01-05 05:23:14.56	220.87	17.65	-40.9	-42.9	25.4	0.00e+00	0	41	0	0	53	4523
2026-01-05 05:23:16.57	220.11	17.77	-40.9	-43.0	25.4	0.00e+00	0	40	0	0	53	4550
2026-01-05 05:23:18.57	219.34	17.88	-40.8	-42.8	25.5	0.00e+00	0	41	0	0	53	4478
2026-01-05 05:23:20.58	218.56	17.98	-40.6	-42.7	25.7	0.00e+00	0	41	0	0	53	4394
2026-01-05 05:23:22.58	217.78	18.08	-40.7	-42.7	25.7	0.00e+00	0	41	0	0	53	4400
2026-01-05 05:23:24.58	216.99	18.18	-40.7	-42.7	25.7	0.00e+00	0	41	0	0	53	4424
2026-01-05 05:23:26.59	216.20	18.27	-40.8	-42.9	25.6	0.00e+00	0	41	0	0	53	4501
2026-01-05 05:23:28.59	215.40	18.36	-40.8	-42.8	25.6	0.00e+00	0	41	0	0	53	4482
2026-01-05 05:23:30.59	214.59	18.45	-40.5	-42.5	25.8	0.00e+00	0	41	0	0	52	4570
2026-01-05 05:23:32.60	213.78	18.53	-40.7	-42.7	25.8	0.00e+00	0	41	0	0	52	4680
2026-01-05 05:23:34.60	212.96	18.60	-40.7	-42.7	25.9	0.00e+00	0	41	0	0	52	4665
2026-01-05 05:23:36.60	212.14	18.67	-40.6	-42.6	25.9	0.00e+00	0	40	0	0	52	4614
2026-01-05 05:23:38.61	211.31	18.74	-40.5	-42.5	26.1	0.00e+00	0	40	0	0	52	4581
2026-01-05 05:23:40.61	210.48	18.80	-40.4	-42.4	26.1	0.00e+00	0	40	0	0	52	4515
2026-01-05 05:23:42.62	209.65	18.85	-40.4	-42.4	26.2	0.00e+00	0	41	0	0	52	4516
2026-01-05 05:23:44.62	208.81	18.90	-40.6	-42.6	26.0	0.00e+00	0	41	0	0	52	4633
2026-01-05 05:23:46.63	207.97	18.95	-41.0	-43.0	25.8	0.00e+00	0	41	0	0	52	4827
2026-01-05 05:23:48.63	207.12	18.99	-41.2	-43.2	25.6	0.00e+00	0	41	0	0	53	4667
2026-01-05 05:23:50.63	206.28	19.02	-41.2	-43.3	25.6	0.00e+00	0	41	0	0	53	4723
2026-01-05 05:23:52.63	205.43	19.05	-41.3	-43.4	25.5	0.00e+00	0	41	0	0	53	4766
2026-01-05 05:23:54.64	204.58	19.07	-41.4	-43.4	25.6	0.00e+00	0	41	0	0	53	4793
2026-01-05 05:23:56.65	203.73	19.09	-41.1	-43.1	25.8	0.00e+00	0	41	0	0	53	4631
2026-01-05 05:23:58.65	202.87	19.10	-41.1	-43.1	25.9	0.00e+00	0	41	0	0	53	4604
2026-01-05 05:24:00.65	202.02	19.11	-40.9	-42.9	26.1	0.00e+00	0	41	0	0	53	4497
2026-01-05 05:24:02.65	201.17	19.11	-41.2	-43.1	25.9	0.00e+00	0	41	0	0	53	4646
2026-01-05 05:24:04.66	200.31	19.10	-40.9	-42.9	26.1	0.00e+00	0	41	0	0	53	4500
2026-01-05 05:24:06.65	199.47	19.09	-41.1	-43.1	26.0	0.00e+00	0	41	0	0	53	4609
2026-01-05 05:24:08.65	198.62	19.08	-41.2	-43.1	25.9	0.00e+00	0	40	0	0	53	4651
2026-01-05 05:24:10.66	197.76	19.06	-41.7	-43.8	25.6	0.00e+00	0	41	0	0	54	4708
2026-01-05 05:24:12.66	196.91	19.03	-41.8	-43.8	25.6	0.00e+00	0	41	0	0	54	4746
2026-01-05 05:24:14.67	196.06	19.00	-41.7	-43.7	25.7	0.00e+00	0	40	0	0	54	4661
2026-01-05 05:24:16.67	195.22	18.96	-41.6	-43.6	25.8	0.00e+00	0	41	0	0	54	4628
2026-01-05 05:24:18.67	194.38	18.92	-41.8	-43.8	25.7	0.00e+00	0	41	0	0	54	4730
2026-01-05 05:24:20.67	193.54	18.87	-41.7	-43.7	25.8	0.00e+00	0	41	0	0	54	4683
2026-01-05 05:24:22.67	192.71	18.82	-41.2	-43.2	26.1	0.00e+00	0	41	0	0	54	4408
2026-01-05 05:24:24.67	191.88	18.76	-41.4	-43.3	26.0	0.00e+00	0	41	0	0	54	4493
2026-01-05 05:24:26.68	191.05	18.69	-41.1	-43.1	26.1	0.00e+00	0	41	0	0	54	4369
2026-01-05 05:24:28.69	190.22	18.63	-41.3	-43.2	26.1	0.00e+00	0	41	0	0	54	4434
2026-01-05 05:24:30.69	189.40	18.55	-41.5	-43.5	25.9	0.00e+00	0	41	0	0	54	4550
2026-01-05 05:24:32.70	188.58	18.47	-41.6	-43.6	25.9	0.00e+00	0	41	0	0	54	4607
2026-01-05 05:24:34.70	187.78	18.39	-41.2	-43.2	26.0	0.00e+00	0	40	0	0	54	4431
2026-01-05 05:24:36.71	186.97	18.30	-41.4	-43.3	26.0	0.00e+00	0	41	0	0	54	4481
2026-01-05 05:24:38.71	186.17	18.21	-41.9	-43.9	25.6	0.00e+00	0	41	0	0	54	4786
2026-01-05 05:24:40.72	185.38	18.12	-42.1	-44.1	25.5	0.00e+00	0	41	0	0	54	4910
2026-01-05 05:24:42.72	184.60	18.02	-42.3	-44.3	25.3	0.00e+00	0	41	0	0	55	4755
2026-01-05 05:24:44.72	183.82	17.91	-42.3	-44.4	25.3	0.00e+00	0	41	0	0	55	4805
2026-01-05 05:24:46.72	183.05	17.81	-41.9	-43.9	25.6	0.00e+00	0	41	0	0	55	4528
2026-01-05 05:24:48.73	182.28	17.69	-41.8	-43.8	25.7	0.00e+00	0	41	0	0	55	4490
2026-01-05 05:24:50.73	181.52	17.58	-42.1	-44.1	25.5	0.00e+00	0	41	0	0	55	4610
2026-01-05 05:24:52.73	180.77	17.46	-42.1	-44.1	25.5	0.00e+00	0	41	0	0	55	4615
2026-01-05 05:24:54.73	180.03	17.34	-41.7	-43.7	25.8	1.10e-06	0	41	0	0	55	4393
2026-01-05 05:24:56.74	179.29	17.21	-42.3	-44.4	25.3	0.00e+00	0	41	0	0	55	4775
2026-01-05 05:24:58.74	178.56	17.09	-42.6	-44.7	25.0	0.00e+00	0	41	0	0	55	4981
2026-01-05 05:25:00.74	177.84	16.96	-42.6	-44.7	25.2	0.00e+00	0	41	0	0	56	4669
2026-01-05 05:25:02.75	177.13	16.82	-41.6	-43.6	25.9	0.00e+00	0	41	0	0	55	4355
2026-01-05 05:25:04.75	176.42	16.69	-42.4	-44.5	25.2	0.00e+00	0	41	0	0	55	4847
2026-01-05 05:25:06.75	175.73	16.55	-42.6	-44.6	25.1	0.00e+00	0	41	0	0	55	4918
2026-01-05 05:25:08.76	175.04	16.40	-42.4	-44.5	25.2	0.00e+00	0	41	0	0	55	4850
2026-01-05 05:25:10.77	174.35	16.26	-43.0	-45.1	24.8	0.00e+00	0	41	0	0	56	4916
2026-01-05 05:25:12.77	173.68	16.12	-43.0	-45.2	24.7	0.00e+00	0	41	0	0	56	4947
2026-01-05 05:25:14.78	173.01	15.97	-42.4	-44.4	25.3	0.00e+00	0	41	0	0	56	4544
2026-01-05 05:25:16.78	172.36	15.82	-42.3	-44.4	25.3	0.00e+00	0	41	0	0	56	4502
2026-01-05 05:25:18.78	171.71	15.67	-42.7	-44.8	25.1	0.00e+00	0	41	0	0	56	4706
2026-01-05 05:25:20.78	171.07	15.51	-42.8	-44.9	24.9	0.00e+00	0	41	0	0	56	4810
2026-01-05 05:25:22.79	170.44	15.36	-42.9	-45.0	24.8	0.00e+00	0	41	0	0	56	4863
2026-01-05 05:25:24.79	169.82	15.20	-42.9	-45.0	23.7	0.00e+00	0	41	0	0	56	4845
2026-01-05 05:25:26.79	169.20	15.05	-43.3	-45.5	24.5	0.00e+00	0	41	0	0	57	4838
2026-01-05 05:25:28.79	168.60	14.89	-43.1	-45.3	24.6	1.10e-06	0	41	0	0	57	4736
2026-01-05 05:25:30.79	168.00	14.73	-43.1	-45.3	24.6	0.00e+00	0	41	0	0	57	4718
2026-01-05 05:25:32.80	167.41	14.57	-43.4	-45.6	24.4	0.00e+00	0	41	0	0	57	4909
2026-01-05 05:25:34.80	166.82	14.41	-43.0	-45.1	24.7	0.00e+00	0	41	0	0	57	4649
2026-01-05 05:25:36.81	166.25	14.24	-42.8	-44.9	24.8	0.00e+00	0	41	0	0	57	4542
2026-01-05 05:25:38.81	165.68	14.08	-42.7	-44.8	24.9	0.00e+00	0	41	0	0	57	4442
2026-01-05 05:25:40.82	165.12	13.92	-43.2	-45.4	24.5	0.00e+00	0	41	0	0	57	4770
2026-01-05 05:25:42.82	164.57	13.75	-43.9	-46.2	23.9	0.00e+00	0	41	0	0	58	4946
2026-01-05 05:25:44.83	164.03	13.59	-43.7	-45.9	24.1	0.00e+00	0	41	0	0	58	4814
2026-01-05 05:25:46.83	163.49	13.42	-43.4	-45.5	24.4	0.00e+00	0	41	0	0	58	4593
2026-01-05 05:25:48.83	162.97	13.26	-43.7	-45.9	24.1	0.00e+00	0	41	0	0	58	4779
2026-01-05 05:25:50.83	162.45	13.09	-43.8	-46.0	24.0	0.00e+00	0	41	0	0	58	4853
2026-01-05 05:25:52.83	161.94	12.93	-43.7	-46.0	24.1	0.00e+00	0	41	0	0	58	4818
2026-01-05 05:25:54.83	161.43	12.76	-43.6	-45.8	24.2	0.00e+00	0	41	0	0	58	4739
2026-01-05 05:25:56.84	160.93	12.60	-43.5	-45.7	24.2	0.00e+00	0	41	0	0	58	4701
2026-01-05 05:25:58.84	160.44	12.43	-43.8	-46.0	24.0	0.00e+00	0	41	0	0	58	4852
2026-01-05 05:26:00.84	159.96	12.26	-43.9	-46.2	23.8	0.00e+00	0	41	0	0	58	4958
2026-01-05 05:26:02.84	159.49	12.10	-44.0	-46.3	23.8	0.00e+00	0	41	0	0	58	5010
2026-01-05 05:26:04.85	159.01	11.93	-44.2	-46.5	23.5	0.00e+00	0	41	0	0	59	4825
2026-01-05 05:26:06.85	158.55	11.77	-44.5	-46.8	23.3	1.13e-03	0	41	0	0	59	5010
2026-01-05 05:26:08.85	158.10	11.60	-44.5	-46.8	23.3	4.37e-03	0	41	0	0	60	4732
2026-01-05 05:26:10.86	157.65	11.44	-44.4	-46.7	14.7	0.00e+00	0	41	0	0	60	4672
2026-01-05 05:26:12.86	157.21	11.27	-44.6	-46.9	23.2	4.29e-03	0	41	0	0	60	4789
2026-01-05 05:26:14.87	156.77	11.11	-44.9	-47.3	22.9	2.20e-03	0	41	0	0	60	4994
2026-01-05 05:26:16.88	156.34	10.94	-44.8	-47.2	23.0	0.00e+00	0	41	0	0	60	4942
2026-01-05 05:26:18.88	155.92	10.78	-44.1	-46.4	23.6	0.00e+00	0	41	0	0	60	4516
2026-01-05 05:26:20.89	155.50	10.62	-44.1	-46.4	23.7	4.23e-05	0	41	0	0	60	4495
2026-01-05 05:26:22.89	155.09	10.45	-44.5	-46.8	23.2	0.00e+00	0	41	0	0	60	4724
2026-01-05 05:26:24.89	154.69	10.29	-44.9	-47.3	22.8	0.00e+00	0	41	0	0	60	5024
2026-01-05 05:26:26.90	154.29	10.13	-44.8	-47.2	22.9	0.00e+00	0	41	0	0	60	4939
2026-01-05 05:26:28.91	153.89	9.97	-44.9	-47.4	22.7	0.00e+00	0	41	0	0	60	5062
2026-01-05 05:26:30.91	153.51	9.81	-45.1	-47.7	22.5	0.00e+00	0	41	0	0	61	4940
2026-01-05 05:26:32.91	153.13	9.65	-45.4	-48.0	22.2	0.00e+00	0	41	0	0	61	5127
2026-01-05 05:26:34.91	152.75	9.49	-45.1	-47.5	22.6	0.00e+00	0	41	0	0	61	4862
2026-01-05 05:26:36.92	152.38	9.33	-45.2	-47.7	22.4	0.00e+00	0	41	0	0	61	4976
2026-01-05 05:26:38.92	152.02	9.17	-45.5	-48.0	22.1	0.00e+00	0	41	0	0	61	5145
2026-01-05 05:26:40.92	151.66	9.02	-45.6	-48.3	21.9	4.46e-05	0	41	0	0	61	5283
2026-01-05 05:26:42.93	151.30	8.86	-53.1	-71.8	3.7	5.80e-02	0	41	104	0	76	33361
2026-01-05 05:26:44.93	150.96	8.70	-53.1	-72.0	3.8	8.45e-01	0	41	104	0	77	32445
2026-01-05 05:26:46.94	150.61	8.55	-53.3	-72.2	3.8	8.47e-01	0	41	104	0	77	33103
2026-01-05 05:26:48.95	150.27	8.39	-53.5	-72.3	3.8	8.46e-01	0	41	104	0	77	33338
2026-01-05 05:26:50.95	149.94	8.24	-53.5	-72.3	3.8	8.46e-01	0	41	104	0	77	33353
2026-01-05 05:26:52.96	149.61	8.08	-53.5	-72.3	3.8	8.47e-01	0	41	104	0	77	33639
2026-01-05 05:26:54.96	149.29	7.93	-53.6	-72.4	3.8	8.47e-01	0	41	104	0	77	33888
2026-01-05 05:26:56.97	148.96	7.78	-53.3	-72.4	3.8	8.46e-01	0	41	104	0	77	33867
2026-01-05 05:26:58.97	148.65	7.63	-53.4	-72.4	3.8	8.47e-01	0	41	104	0	77	33849
2026-01-05 05:27:00.97	148.34	7.48	-53.5	-72.4	3.8	8.48e-01	0	41	104	0	77	33781
2026-01-05 05:27:02.98	148.03	7.33	-53.3	-72.4	3.8	8.47e-01	0	41	104	0	77	33721
2026-01-05 05:27:04.98	147.73	7.18	-53.3	-72.3	3.8	8.46e-01	0	41	104	0	77	33609
2026-01-05 05:27:06.98	147.44	7.03	-53.3	-72.3	3.8	8.47e-01	0	41	104	0	77	33663
2026-01-05 05:27:08.99	147.14	6.88	-53.3	-72.3	3.8	8.48e-01	0	41	104	0	77	33543
2026-01-05 05:27:10.99	146.85	6.74	-53.3	-72.3	3.8	8.47e-01	0	41	104	0	77	33630
2026-01-05 05:27:12.99	146.57	6.59	-53.3	-72.3	3.8	8.47e-01	0	41	104	0	77	33537
2026-01-05 05:27:14.99	146.29	6.45	-53.3	-72.3	3.8	8.47e-01	0	41	104	0	77	33580
2026-01-05 05:27:17.00	146.01	6.30	-53.3	-72.3	3.8	8.47e-01	0	41	104	0	77	33592
2026-01-05 05:27:19.00	145.74	6.16	-53.3	-72.3	3.8	8.47e-01	0	41	104	0	77	33412
2026-01-05 05:27:21.00	145.47	6.01	-53.3	-72.3	3.8	8.48e-01	0	41	104	0	77	33568
2026-01-05 05:27:23.00	145.20	5.87	-53.3	-72.3	3.8	8.46e-01	0	41	104	0	77	33505
2026-01-05 05:27:25.00	144.94	5.73	-53.3	-72.3	3.8	8.47e-01	0	41	104	0	77	33480
2026-01-05 05:27:27.01	144.68	5.59	-53.3	-72.3	3.8	8.49e-01	0	41	104	0	77	33581
2026-01-05 05:27:29.01	144.42	5.45	-53.3	-72.3	3.8	8.47e-01	0	41	104	0	77	33545
2026-01-05 05:27:31.01	144.17	5.31	-53.3	-72.3	3.8	8.46e-01	0	41	104	0	77	33568
2026-01-05 05:27:33.01	143.92	5.17	-53.3	-72.3	3.8	8.47e-01	0	41	104	0	77	33584

#Closed at: 2026-01-05 05:27:35
#Recorded file [0 MB]: D:/Data/31040_260105_082026.dat