passes_logs/2026/01/05/T1/T1__20260105_115357_FENGYUN_3D_rec.log

#Pass ID: 20260105_115357_FENGYUN 3D
#Satellite: FENGYUN 3D
#Configuration: FENGYUN 3D
#almurnet v.1.7.20251203
#Start time: 2026-01-05 11:53:56

#Version: 2.0.20230620
#Station: T1
#Location: 37.570604 lon 55.790049 lat
#TLE: 1 43010U 17072A   26004.50247883 -.00000063  00000+0 -78815-5 0  9998
#TLE: 2 43010  98.9915 336.1565 0001968 126.3752 233.7605 14.19691805421760

#Time	Az	El	Level	Level2	SNR	BER	BlckErr	Temp	State	Recorded	gain1	gain2
2026-01-05 11:53:56.74	158.43	4.96	-50.0	-62.3	3.8	8.48e-01	0	37	0	0	71	14904
2026-01-05 11:54:00.74	158.42	5.25	-49.9	-61.6	3.8	8.48e-01	0	37	104	0	71	13805
2026-01-05 11:54:04.75	158.42	5.54	-49.9	-61.8	3.8	8.47e-01	0	38	104	0	71	14051
2026-01-05 11:54:08.75	158.41	5.84	-49.8	-61.4	3.8	8.47e-01	0	38	104	0	71	13480
2026-01-05 11:54:12.76	158.41	6.13	-49.6	-60.1	3.8	8.45e-01	0	38	104	0	71	11595
2026-01-05 11:54:16.77	158.41	6.44	-49.6	-59.9	3.9	8.47e-01	0	38	104	0	71	11411
2026-01-05 11:54:20.78	158.40	6.74	-49.8	-61.4	3.8	8.46e-01	0	38	104	0	71	13460
2026-01-05 11:54:24.78	158.40	7.05	-49.8	-61.5	3.8	8.48e-01	0	38	104	0	71	13574
2026-01-05 11:54:28.79	158.39	7.37	-49.5	-58.9	4.1	8.43e-01	0	38	0	0	71	10153
2026-01-05 11:54:32.79	158.38	7.68	-48.6	-55.2	5.9	4.21e-01	0	39	0	3145728	69	7407
2026-01-05 11:54:36.79	158.38	8.00	-47.2	-51.8	8.9	4.86e-02	0	39	0	25165824	66	5971
2026-01-05 11:54:40.80	158.37	8.33	-46.7	-50.9	9.8	1.25e-02	0	39	0	47185920	65	5668
2026-01-05 11:54:44.80	158.36	8.66	-47.5	-52.5	8.2	5.29e-02	0	39	0	69206016	65	6805
2026-01-05 11:54:48.90	158.36	9.00	-49.1	-57.2	4.7	7.88e-01	0	39	0	87031808	68	9836
2026-01-05 11:54:52.91	158.35	9.34	-43.4	-45.9	15.0	2.20e-06	0	39	0	94371840	58	4794
2026-01-05 11:54:56.92	158.34	9.68	-42.8	-45.2	15.8	0.00e+00	0	39	0	112197632	56	4971
2026-01-05 11:55:00.95	158.33	10.03	-42.8	-45.3	15.7	0.00e+00	0	39	0	135266304	56	4999
2026-01-05 11:55:04.96	158.32	10.39	-41.6	-43.9	16.8	0.00e+00	0	39	0	157286400	55	4510
2026-01-05 11:55:08.97	158.31	10.75	-41.5	-43.7	17.0	0.00e+00	0	39	0	179306496	54	4674
2026-01-05 11:55:12.97	158.30	11.11	-40.4	-42.5	18.2	9.90e-03	0	39	0	202375168	52	4562
2026-01-05 11:55:16.98	158.29	11.48	-40.0	-42.0	18.6	0.00e+00	0	39	0	224395264	52	4324
2026-01-05 11:55:20.98	158.28	11.85	-40.0	-42.0	18.7	0.00e+00	0	39	0	247463936	51	4567
2026-01-05 11:55:24.99	158.27	12.23	-40.0	-41.9	18.8	0.00e+00	0	39	0	270532608	51	4533
2026-01-05 11:55:29.00	158.25	12.62	-39.8	-41.8	19.0	0.00e+00	0	39	0	292552704	51	4448
2026-01-05 11:55:33.01	158.24	13.01	-39.5	-41.5	19.2	0.00e+00	0	39	0	314572800	51	4305
2026-01-05 11:55:37.01	158.23	13.41	-39.4	-41.3	19.4	0.00e+00	0	39	0	337641472	50	4459
2026-01-05 11:55:41.02	158.21	13.82	-39.2	-41.1	19.6	0.00e+00	0	39	0	359661568	50	4381
2026-01-05 11:55:45.03	158.20	14.23	-39.1	-40.9	19.7	0.00e+00	0	39	0	382730240	50	4283
2026-01-05 11:55:49.04	158.18	14.65	-38.8	-40.7	19.9	0.00e+00	0	40	0	404750336	49	4425
2026-01-05 11:55:53.05	158.17	15.08	-38.8	-40.7	20.0	0.00e+00	0	40	0	427819008	49	4393
2026-01-05 11:55:57.45	158.15	15.56	-38.8	-40.7	20.0	0.00e+00	0	40	0	452984832	49	4400
2026-01-05 11:56:01.44	158.13	16.00	-38.6	-40.5	20.2	0.00e+00	0	40	0	475004928	49	4319
2026-01-05 11:56:05.45	158.11	16.45	-38.7	-40.6	20.1	0.00e+00	0	40	0	498073600	49	4369
2026-01-05 11:56:09.54	158.09	16.92	-38.4	-40.3	20.4	0.00e+00	0	39	0	521142272	48	4459
2026-01-05 11:56:13.69	158.07	17.41	-38.4	-40.2	20.4	0.00e+00	0	40	0	544210944	48	4431
2026-01-05 11:56:17.70	158.04	17.89	-37.8	-39.7	20.7	0.00e+00	0	40	0	566231040	47	4396
2026-01-05 11:56:21.70	158.02	18.38	-37.6	-39.4	20.9	0.00e+00	0	40	0	589299712	47	4264
2026-01-05 11:56:25.99	157.99	18.91	-37.5	-39.3	21.0	0.00e+00	0	40	0	612368384	46	4469
2026-01-05 11:56:29.98	157.97	19.42	-37.6	-39.4	20.9	0.00e+00	0	40	0	635437056	46	4522
2026-01-05 11:56:34.02	157.94	19.95	-37.6	-39.5	20.8	0.00e+00	0	40	0	658505728	46	4557
2026-01-05 11:56:38.17	157.91	20.50	-37.7	-39.5	20.8	0.00e+00	0	40	0	681574400	46	4585
2026-01-05 11:56:42.85	157.87	21.13	-37.6	-39.5	20.8	0.00e+00	0	40	0	707788800	46	4561
2026-01-05 11:56:47.28	157.84	21.75	-37.6	-39.5	20.8	0.00e+00	0	40	0	732954624	46	4570
2026-01-05 11:56:51.65	157.80	22.37	-37.4	-39.3	21.0	0.00e+00	0	40	0	757071872	46	4444
2026-01-05 11:56:56.09	157.76	23.02	-37.4	-39.2	21.1	0.00e+00	0	40	0	782237696	46	4415
2026-01-05 11:57:00.46	157.72	23.68	-37.2	-39.0	21.2	0.00e+00	0	40	0	807403520	46	4304
2026-01-05 11:57:04.68	157.68	24.33	-37.0	-38.8	21.5	0.00e+00	0	40	0	830472192	46	4198
2026-01-05 11:57:08.70	157.64	24.97	-37.0	-38.7	21.5	0.00e+00	0	39	0	853540864	46	4187
2026-01-05 11:57:12.79	157.59	25.63	-37.0	-38.8	21.4	0.00e+00	0	40	0	876609536	45	4472
2026-01-05 11:57:16.78	157.55	26.29	-36.8	-38.5	21.7	0.00e+00	0	40	0	898629632	45	4328
2026-01-05 11:57:20.79	157.50	26.97	-36.5	-38.2	21.9	0.00e+00	0	40	0	920649728	45	4184
2026-01-05 11:57:24.78	157.45	27.67	-36.7	-38.4	21.7	0.00e+00	0	40	0	943718400	45	4274
2026-01-05 11:57:28.84	157.39	28.39	-36.7	-38.5	21.6	0.00e+00	0	40	0	966787072	45	4327
2026-01-05 11:57:32.90	157.33	29.14	-36.8	-38.6	21.5	0.00e+00	0	39	0	989855744	45	4371
2026-01-05 11:57:36.96	157.27	29.90	-36.7	-38.5	21.7	0.00e+00	0	40	0	1011875840	45	4298
2026-01-05 11:57:40.96	157.21	30.68	-36.5	-38.3	21.8	0.00e+00	0	40	0	1034944512	45	4220
2026-01-05 11:57:44.96	157.14	31.48	-36.2	-38.0	22.1	0.00e+00	0	40	0	1056964608	44	4312
2026-01-05 11:57:49.02	157.06	32.31	-36.4	-38.2	22.0	0.00e+00	0	40	0	1080033280	44	4396
2026-01-05 11:57:53.02	156.99	33.15	-36.5	-38.3	21.8	0.00e+00	0	40	0	1102053376	44	4477
2026-01-05 11:57:57.03	156.91	34.02	-36.3	-38.0	22.1	0.00e+00	0	40	0	1125122048	44	4335
2026-01-05 11:58:01.03	156.82	34.91	-36.2	-37.9	22.2	0.00e+00	0	40	0	1147142144	44	4273
2026-01-05 11:58:05.03	156.73	35.83	-36.1	-37.8	22.2	0.00e+00	0	40	0	1170210816	44	4228
2026-01-05 11:58:09.16	156.62	36.80	-36.2	-37.9	22.2	0.00e+00	0	40	0	1193279488	44	4265
2026-01-05 11:58:13.16	156.52	37.77	-35.8	-37.5	22.3	0.00e+00	0	40	0	1216348160	43	4323
2026-01-05 11:58:17.16	156.41	38.78	-36.0	-37.8	22.2	0.00e+00	0	40	0	1238368256	43	4445
2026-01-05 11:58:21.15	156.29	39.81	-36.7	-38.4	21.6	0.00e+00	0	40	0	1260388352	43	4814
2026-01-05 11:58:25.17	156.16	40.87	-36.9	-38.7	21.5	0.00e+00	0	39	0	1283457024	44	4667
2026-01-05 11:58:29.76	155.99	42.13	-36.8	-38.6	21.7	0.00e+00	0	40	0	1309671424	44	4600
2026-01-05 11:58:34.14	155.83	43.38	-36.4	-38.1	22.1	0.00e+00	0	40	0	1333788672	44	4354
2026-01-05 11:58:38.60	155.64	44.68	-36.6	-38.3	22.0	0.00e+00	0	40	0	1358954496	44	4484
2026-01-05 11:58:43.30	155.43	46.11	-36.6	-38.4	21.9	0.00e+00	0	40	0	1385168896	44	4499
2026-01-05 11:58:47.87	155.20	47.55	-36.4	-38.1	22.1	0.00e+00	0	40	0	1411383296	44	4380
2026-01-05 11:58:51.88	154.98	48.85	-36.9	-38.6	21.8	0.00e+00	0	40	0	1433403392	44	4626
2026-01-05 11:58:55.98	154.73	50.22	-37.6	-39.4	21.1	0.00e+00	0	40	0	1456472064	45	4768
2026-01-05 11:59:00.02	154.46	51.61	-38.2	-39.6	21.1	0.00e+00	0	40	0	1479540736	46	4617
2026-01-05 11:59:04.16	154.16	53.07	-37.7	-39.5	21.0	0.00e+00	0	40	0	1502609408	47	4297
2026-01-05 11:59:08.16	153.83	54.53	-38.3	-40.1	20.4	0.00e+00	0	40	0	1525678080	47	4642
2026-01-05 11:59:12.38	153.45	56.11	-37.6	-39.4	21.1	0.00e+00	0	40	0	1548746752	47	4282
2026-01-05 11:59:16.39	153.04	57.66	-36.7	-38.4	21.9	0.00e+00	0	40	0	1571815424	45	4284
2026-01-05 11:59:20.53	152.56	59.30	-36.8	-38.5	21.8	0.00e+00	0	40	0	1594884096	45	4338
2026-01-05 11:59:24.99	151.97	61.11	-36.6	-38.3	22.0	0.00e+00	0	40	0	1620049920	44	4465
2026-01-05 11:59:29.24	151.32	62.89	-36.1	-37.8	22.4	0.00e+00	0	40	0	1644167168	44	4224
2026-01-05 11:59:33.32	150.59	64.63	-35.7	-37.4	22.5	0.00e+00	0	40	0	1667235840	43	4291
2026-01-05 11:59:37.32	149.76	66.37	-35.5	-37.2	22.7	0.00e+00	0	40	0	1689255936	43	4173
2026-01-05 11:59:41.33	148.78	68.15	-35.4	-37.1	22.8	0.00e+00	0	40	0	1711276032	42	4365
2026-01-05 11:59:45.33	147.60	69.95	-34.9	-36.6	23.1	0.00e+00	0	40	0	1734344704	41	4369
2026-01-05 11:59:49.63	146.05	71.92	-34.8	-36.5	23.3	0.00e+00	0	40	0	1758461952	41	4314
2026-01-05 11:59:53.64	144.24	73.77	-34.7	-36.4	23.2	0.00e+00	0	40	0	1780482048	41	4284
2026-01-05 11:59:57.65	141.94	75.63	-35.1	-36.7	22.9	0.00e+00	0	40	0	1803550720	41	4440
2026-01-05 12:00:01.58	138.98	77.45	-34.0	-35.6	23.8	0.00e+00	0	40	0	1825570816	40	4139
2026-01-05 12:00:05.58	134.91	79.28	-33.6	-35.2	24.0	0.00e+00	0	40	0	1848639488	39	4184
2026-01-05 12:00:09.76	128.85	81.13	-33.1	-34.8	24.3	0.00e+00	0	40	0	1871708160	38	4204
2026-01-05 12:00:14.07	119.34	82.89	-33.5	-35.1	24.2	0.00e+00	0	40	0	1895825408	38	4371
2026-01-05 12:00:18.07	105.57	84.26	-33.8	-35.4	23.9	0.00e+00	0	40	0	1918894080	38	4523
2026-01-05 12:00:22.08	85.17	85.12	-34.3	-36.0	23.4	0.00e+00	0	40	0	1940914176	39	4597
2026-01-05 12:00:26.14	60.22	85.19	-34.4	-36.1	23.4	0.00e+00	0	40	0	1963982848	39	4604
2026-01-05 12:00:30.29	38.24	84.39	-34.1	-35.8	23.6	0.00e+00	0	40	0	1987051520	40	4211
2026-01-05 12:00:34.29	23.80	83.06	-33.5	-35.2	24.1	0.00e+00	0	40	0	2010120192	38	4393
2026-01-05 12:00:39.15	12.84	81.09	-33.3	-34.9	24.3	0.00e+00	0	40	0	2037383168	38	4262
2026-01-05 12:00:43.18	7.01	79.31	-33.7	-35.3	24.0	0.00e+00	0	40	0	2059403264	38	4479
2026-01-05 12:00:47.28	2.83	77.44	-33.9	-35.6	23.9	0.00e+00	0	40	0	2082471936	38	4610
2026-01-05 12:00:51.60	359.64	75.44	-34.6	-36.2	23.5	0.00e+00	0	40	0	2107637760	39	4695
2026-01-05 12:00:55.61	357.40	73.58	-35.0	-36.7	23.1	0.00e+00	0	40	0	2129657856	40	4661
2026-01-05 12:00:59.60	355.64	71.75	-35.1	-36.8	22.9	0.00e+00	0	40	0	2151677952	41	4483
2026-01-05 12:01:03.62	354.21	69.91	-35.4	-37.1	22.8	0.00e+00	0	40	0	2174746624	41	4619
2026-01-05 12:01:07.70	353.02	68.08	-35.7	-37.4	22.5	0.00e+00	0	40	0	2197815296	41	4795
2026-01-05 12:01:11.71	352.05	66.30	-35.5	-37.2	22.7	0.00e+00	0	40	0	2219835392	42	4402
2026-01-05 12:01:15.72	351.22	64.56	-35.5	-37.2	22.8	0.00e+00	0	40	0	2242904064	42	4422
2026-01-05 12:01:19.72	350.52	62.86	-35.2	-36.9	23.1	0.00e+00	0	40	0	2264924160	42	4253
2026-01-05 12:01:23.73	349.90	61.19	-35.8	-37.5	22.5	0.00e+00	0	40	0	2287992832	42	4592
2026-01-05 12:01:27.85	349.36	59.52	-36.6	-38.4	21.9	0.00e+00	0	40	0	2311061504	43	4773
2026-01-05 12:01:31.86	348.89	57.93	-36.9	-38.7	21.7	0.00e+00	0	40	0	2333081600	44	4660
2026-01-05 12:01:35.87	348.47	56.38	-37.5	-39.3	21.2	0.00e+00	0	40	0	2356150272	45	4717
2026-01-05 12:01:39.88	348.10	54.88	-37.8	-39.6	21.0	0.00e+00	0	40	0	2378170368	46	4643
2026-01-05 12:01:43.89	347.77	53.41	-37.6	-39.4	21.1	0.00e+00	0	39	0	2401239040	46	4534
2026-01-05 12:01:47.91	347.47	51.98	-37.1	-38.8	21.9	0.00e+00	0	40	0	2424307712	46	4229
2026-01-05 12:01:51.92	347.20	50.60	-37.0	-38.7	22.1	0.00e+00	0	40	0	2446327808	45	4416
2026-01-05 12:01:55.93	346.95	49.25	-36.8	-38.5	22.3	0.00e+00	0	40	0	2468347904	45	4314
2026-01-05 12:01:59.95	346.72	47.94	-36.3	-37.9	22.7	0.00e+00	0	40	0	2491416576	44	4271
2026-01-05 12:02:03.96	346.52	46.68	-36.4	-38.1	22.6	0.00e+00	0	40	0	2514485248	44	4349
2026-01-05 12:02:08.02	346.33	45.43	-36.6	-38.3	22.4	0.00e+00	0	40	0	2536505344	44	4445
2026-01-05 12:02:12.03	346.15	44.24	-36.3	-37.9	22.7	0.00e+00	0	40	0	2559574016	44	4290
2026-01-05 12:02:16.04	345.99	43.08	-36.7	-38.4	22.3	0.00e+00	0	40	0	2582642688	44	4540
2026-01-05 12:02:20.05	345.85	41.95	-36.5	-38.1	22.5	0.00e+00	0	40	0	2604662784	44	4378
2026-01-05 12:02:24.06	345.71	40.86	-36.2	-37.9	22.7	0.00e+00	0	40	0	2626682880	44	4243
2026-01-05 12:02:28.07	345.58	39.80	-35.8	-37.5	22.9	0.00e+00	0	40	0	2649751552	43	4314
2026-01-05 12:02:32.23	345.46	38.74	-35.5	-37.1	23.2	0.00e+00	0	40	0	2672820224	42	4371
2026-01-05 12:02:36.24	345.35	37.74	-35.5	-37.1	23.2	0.00e+00	0	40	0	2695888896	42	4360
2026-01-05 12:02:40.25	345.24	36.77	-36.1	-37.8	22.7	0.00e+00	0	40	0	2717908992	42	4714
2026-01-05 12:02:44.25	345.15	35.83	-36.0	-37.7	22.7	0.00e+00	0	40	0	2740977664	43	4419
2026-01-05 12:02:48.59	345.05	34.85	-35.7	-37.4	23.0	0.00e+00	0	40	0	2765094912	43	4255
2026-01-05 12:02:52.93	344.96	33.89	-36.0	-37.6	22.8	0.00e+00	0	40	0	2789212160	43	4385
2026-01-05 12:02:57.53	344.87	32.91	-36.4	-38.1	22.4	0.00e+00	0	40	0	2815426560	43	4640
2026-01-05 12:03:02.19	344.79	31.94	-36.6	-38.3	22.2	0.00e+00	0	39	0	2841640960	43	4725
2026-01-05 12:03:06.52	344.71	31.07	-36.5	-38.2	22.3	0.00e+00	0	40	0	2865758208	43	4698
2026-01-05 12:03:11.06	344.64	30.19	-36.5	-38.2	22.3	0.00e+00	0	40	0	2891972608	43	4657
2026-01-05 12:03:15.34	344.58	29.38	-36.3	-38.0	22.5	0.00e+00	0	40	0	2915041280	43	4574
2026-01-05 12:03:19.35	344.52	28.64	-36.3	-37.9	22.5	0.00e+00	0	39	0	2938109952	43	4542
2026-01-05 12:03:23.61	344.46	27.88	-36.1	-37.7	22.7	0.00e+00	0	39	0	2962227200	43	4436
2026-01-05 12:03:27.97	344.41	27.12	-36.2	-37.8	22.6	0.00e+00	0	40	0	2986344448	43	4493
2026-01-05 12:03:32.04	344.36	26.43	-36.4	-38.1	22.4	0.00e+00	0	40	0	3009413120	43	4604
2026-01-05 12:03:36.17	344.32	25.75	-36.6	-38.3	22.2	0.00e+00	0	40	0	3032481792	43	4752
2026-01-05 12:03:40.24	344.27	25.09	-36.9	-38.6	22.1	0.00e+00	0	40	0	3055550464	44	4640
2026-01-05 12:03:44.24	344.24	24.46	-36.9	-38.7	22.0	0.00e+00	0	40	0	3078619136	44	4656
2026-01-05 12:03:48.21	344.20	23.85	-36.9	-38.6	22.0	0.00e+00	0	40	0	3100639232	44	4647
2026-01-05 12:03:52.34	344.16	23.23	-37.1	-38.8	21.9	0.00e+00	0	40	0	3123707904	44	4723
2026-01-05 12:03:56.35	344.13	22.65	-37.2	-39.0	21.8	0.00e+00	0	40	0	3146776576	45	4552
2026-01-05 12:04:00.36	344.10	22.07	-37.3	-39.1	21.6	0.00e+00	0	40	0	3168796672	45	4643
2026-01-05 12:04:04.36	344.07	21.51	-37.6	-39.3	21.4	0.00e+00	0	39	0	3191865344	45	4744
2026-01-05 12:04:08.41	344.04	20.96	-37.6	-39.3	21.4	0.00e+00	0	40	0	3213885440	45	4736
2026-01-05 12:04:12.42	344.01	20.42	-37.6	-39.4	21.4	0.00e+00	0	40	0	3236954112	45	4780
2026-01-05 12:04:16.45	343.99	19.89	-37.7	-39.4	21.3	0.00e+00	0	40	0	3258974208	46	4517
2026-01-05 12:04:20.39	343.96	19.38	-37.8	-39.6	21.2	0.00e+00	0	40	0	3282042880	46	4605
2026-01-05 12:04:24.41	343.94	18.88	-37.9	-39.7	21.1	0.00e+00	0	40	0	3304062976	46	4661
2026-01-05 12:04:28.42	343.92	18.38	-38.1	-39.9	20.9	0.00e+00	0	40	0	3327131648	46	4775
2026-01-05 12:04:32.42	343.90	17.90	-38.2	-40.0	20.8	0.00e+00	0	40	0	3349151744	47	4574
2026-01-05 12:04:36.43	343.88	17.42	-38.3	-40.1	20.7	0.00e+00	0	40	0	3371171840	47	4648
2026-01-05 12:04:40.45	343.86	16.96	-38.6	-40.4	20.4	0.00e+00	0	40	0	3394240512	47	4775
2026-01-05 12:04:44.46	343.85	16.50	-38.6	-40.5	20.3	0.00e+00	0	40	0	3417309184	47	4837
2026-01-05 12:04:48.49	343.83	16.05	-38.7	-40.7	20.4	0.00e+00	0	40	0	3439329280	48	4663
2026-01-05 12:04:52.50	343.81	15.61	-38.8	-40.8	20.3	0.00e+00	0	40	0	3462397952	48	4716
2026-01-05 12:04:56.52	343.80	15.17	-39.0	-40.9	20.2	0.00e+00	0	40	0	3484418048	48	4766
2026-01-05 12:05:00.85	343.79	14.71	-39.1	-41.0	20.1	0.00e+00	0	40	0	3509583872	48	4817
2026-01-05 12:05:04.85	343.77	14.29	-39.1	-41.0	20.0	0.00e+00	0	40	0	3531603968	49	4586
2026-01-05 12:05:08.94	343.76	13.88	-39.1	-41.1	20.0	0.00e+00	0	40	0	3554672640	49	4599
2026-01-05 12:05:13.10	343.75	13.46	-39.3	-41.2	19.8	0.00e+00	0	40	0	3577741312	49	4702
2026-01-05 12:05:17.14	343.74	13.06	-39.5	-41.4	19.7	0.00e+00	0	40	0	3600809984	49	4794
2026-01-05 12:05:21.18	343.73	12.66	-39.4	-41.4	19.6	0.00e+00	0	40	0	3623878656	49	4772
2026-01-05 12:05:25.51	343.72	12.25	-39.5	-41.5	19.5	0.00e+00	0	40	0	3647995904	49	4862
2026-01-05 12:05:29.74	343.71	11.85	-39.6	-41.7	19.3	0.00e+00	0	40	0	3672113152	49	4949
2026-01-05 12:05:33.75	343.71	11.48	-39.7	-41.8	19.3	0.00e+00	0	40	0	3694133248	50	4721
2026-01-05 12:05:37.76	343.70	11.11	-39.8	-41.9	19.2	0.00e+00	0	40	0	3717201920	50	4769
2026-01-05 12:05:41.84	343.69	10.75	-39.8	-41.9	19.1	0.00e+00	0	40	0	3740270592	50	4811
2026-01-05 12:05:45.85	343.69	10.39	-39.8	-42.1	18.9	0.00e+00	0	40	0	3762290688	50	4899
2026-01-05 12:05:49.87	343.68	10.04	-39.8	-42.2	18.8	0.00e+00	0	40	0	3784310784	50	4945
2026-01-05 12:05:54.25	343.68	9.66	-39.7	-42.3	18.7	0.00e+00	0	40	0	3809476608	50	4988
2026-01-05 12:05:58.83	343.67	9.28	-39.9	-42.6	18.4	0.00e+00	0	40	0	3834642432	50	5162
2026-01-05 12:06:03.02	343.67	8.93	-46.8	-58.2	4.4	2.02e-03	0	40	0	3858759680	64	13911
2026-01-05 12:06:07.04	343.67	8.59	-49.2	-62.9	3.8	8.49e-01	0	40	104	3858759680	69	17989
2026-01-05 12:06:11.06	343.67	8.27	-50.1	-63.0	3.8	8.47e-01	0	40	104	3858759680	71	16279
2026-01-05 12:06:15.07	343.66	7.95	-50.7	-63.0	3.8	8.47e-01	0	40	104	3858759680	72	15369
2026-01-05 12:06:19.09	343.66	7.63	-50.9	-63.0	3.8	8.48e-01	0	40	104	3858759680	72	15338
2026-01-05 12:06:23.11	343.66	7.31	-50.7	-63.0	3.8	8.46e-01	0	40	104	3858759680	72	15373
2026-01-05 12:06:27.13	343.66	7.00	-50.8	-63.0	3.8	8.47e-01	0	40	104	3858759680	72	15308
2026-01-05 12:06:31.29	343.66	6.68	-50.6	-63.0	3.8	8.47e-01	0	40	104	3858759680	72	15226
2026-01-05 12:06:35.30	343.66	6.38	-50.6	-63.0	3.8	8.47e-01	0	40	104	3858759680	72	15272
2026-01-05 12:06:39.32	343.66	6.08	-50.5	-62.9	3.8	8.47e-01	0	40	104	3858759680	72	15161
2026-01-05 12:06:43.34	343.66	5.79	-50.5	-63.0	3.8	8.46e-01	0	40	104	3858759680	72	15242
2026-01-05 12:06:47.36	343.66	5.49	-50.5	-62.9	3.8	8.47e-01	0	40	104	3858759680	72	15139
2026-01-05 12:06:51.37	343.66	5.20	-50.5	-62.9	3.8	8.47e-01	0	40	104	3858759680	72	15206

#Closed at: 2026-01-05 12:06:55
#Recorded file [3858 MB]: D:/Data/31040_260105_145356.dat