passes_logs/2026/01/05/T1/T1__20260105_075553_NOAA_20_JPSS-1_rec.log

#Pass ID: 20260105_075553_NOAA 20 (JPSS-1)
#Satellite: NOAA 20 (JPSS-1)
#Configuration: NOAA 20
#almurnet v.1.7.20251203
#Start time: 2026-01-05 07:55:53

#Version: 2.0.20230620
#Station: T1
#Location: 37.570604 lon 55.790049 lat
#TLE: 1 43013U 17073A   26004.47528369  .00000132  00000+0  83671-4 0  9999
#TLE: 2 43013  98.7626 305.5264 0001854  54.5883 305.5466 14.19533142421242

#Time	Az	El	Level	Level2	SNR	BER	BlckErr	Temp	State	Recorded	gain1	gain2
2026-01-05 07:55:53.96	96.25	5.03	-50.1	-65.4	3.8	1.49e+00	0	38	0	0	72	20138
2026-01-05 07:55:56.96	95.95	5.19	-50.0	-65.4	3.8	1.49e+00	0	38	104	0	72	20121
2026-01-05 07:55:59.98	95.65	5.36	-50.0	-65.3	3.8	1.49e+00	0	38	104	0	72	19978
2026-01-05 07:56:02.99	95.35	5.53	-50.0	-65.3	3.8	1.49e+00	0	39	104	0	72	20031
2026-01-05 07:56:06.00	95.04	5.69	-50.0	-65.3	3.8	1.49e+00	0	39	104	0	72	20014
2026-01-05 07:56:09.02	94.73	5.86	-50.0	-65.3	3.8	1.49e+00	0	39	104	0	71	21213
2026-01-05 07:56:12.03	94.42	6.03	-50.0	-65.4	3.8	1.49e+00	0	39	104	0	71	21308
2026-01-05 07:56:15.04	94.10	6.19	-50.1	-65.4	3.8	1.49e+00	0	39	104	0	71	21264
2026-01-05 07:56:18.06	93.78	6.36	-50.1	-65.4	3.8	1.49e+00	0	39	104	0	71	21350
2026-01-05 07:56:21.07	93.45	6.53	-50.1	-65.3	3.8	1.49e+00	0	39	104	0	71	21259
2026-01-05 07:56:24.08	93.12	6.70	-50.1	-65.1	3.8	1.49e+00	0	39	104	0	71	20669
2026-01-05 07:56:27.09	92.79	6.87	-50.1	-65.0	3.8	1.49e+00	0	39	104	0	71	20409
2026-01-05 07:56:30.11	92.45	7.03	-50.1	-65.2	3.8	1.49e+00	0	39	104	0	71	20911
2026-01-05 07:56:33.12	92.11	7.20	-50.1	-65.3	3.8	1.49e+00	0	39	104	0	71	21111
2026-01-05 07:56:36.13	91.77	7.37	-50.1	-65.0	3.8	1.49e+00	0	40	104	0	71	20461
2026-01-05 07:56:39.15	91.42	7.54	-50.0	-64.8	3.8	1.49e+00	0	40	104	0	71	20018
2026-01-05 07:56:42.16	91.07	7.71	-50.1	-65.2	3.8	1.49e+00	0	40	104	0	71	20831
2026-01-05 07:56:45.17	90.71	7.88	-50.0	-64.9	3.8	1.49e+00	0	40	104	0	71	20267
2026-01-05 07:56:48.18	90.35	8.05	-50.0	-63.8	3.8	1.49e+00	0	40	104	0	71	17742
2026-01-05 07:56:51.20	89.98	8.22	-50.0	-64.8	3.8	1.49e+00	0	40	104	0	71	20055
2026-01-05 07:56:54.21	89.61	8.39	-49.2	-57.2	6.9	5.07e-01	0	40	0	2097152	70	8792
2026-01-05 07:56:57.22	89.24	8.56	-47.0	-51.4	12.6	3.56e-04	0	40	0	7340032	66	5690
2026-01-05 07:57:00.24	88.86	8.73	-46.4	-50.4	13.7	7.00e-07	0	40	0	12582912	64	5670
2026-01-05 07:57:03.25	88.47	8.90	-48.2	-54.2	9.8	3.37e-03	0	40	0	18874368	67	7413
2026-01-05 07:57:06.26	88.09	9.06	-49.8	-61.4	4.3	1.13e+00	0	40	0	24117248	70	14249
2026-01-05 07:57:09.27	87.69	9.23	-50.0	-64.0	3.8	1.49e+00	0	40	104	28311552	70	19293
2026-01-05 07:57:12.28	87.30	9.40	-48.3	-54.3	9.8	9.57e-03	0	40	0	32505856	68	7065
2026-01-05 07:57:15.25	86.90	9.57	-47.5	-52.6	11.4	2.86e-03	0	40	0	37748736	67	6170
2026-01-05 07:57:18.63	86.45	9.76	-47.6	-52.7	11.4	9.19e-04	0	40	0	44040192	66	6602
2026-01-05 07:57:21.35	86.07	9.91	-46.8	-51.0	13.1	1.08e-04	0	40	0	49283072	65	5757
2026-01-05 07:57:24.64	85.62	10.09	-46.2	-50.0	14.1	1.50e-06	0	40	0	55574528	64	5459
2026-01-05 07:57:27.70	85.19	10.26	-46.1	-49.7	14.6	7.00e-07	0	40	0	60817408	63	5549
2026-01-05 07:57:30.94	84.73	10.44	-46.0	-49.6	14.7	2.20e-06	0	40	0	67108864	63	5484
2026-01-05 07:57:33.84	84.32	10.60	-45.8	-49.3	15.0	0.00e+00	0	40	0	72351744	63	5321
2026-01-05 07:57:36.99	83.86	10.78	-45.9	-49.4	14.9	0.00e+00	0	40	0	78643200	63	5357
2026-01-05 07:57:39.86	83.44	10.93	-45.9	-49.4	14.9	0.00e+00	0	40	0	83886080	63	5360
2026-01-05 07:57:43.01	82.97	11.11	-45.9	-49.4	14.9	0.00e+00	0	40	0	90177536	63	5364
2026-01-05 07:57:45.88	82.54	11.26	-45.8	-49.2	15.1	0.00e+00	0	40	0	95420416	63	5263
2026-01-05 07:57:49.03	82.06	11.44	-45.7	-49.0	15.3	0.00e+00	0	40	0	100663296	63	5143
2026-01-05 07:57:51.89	81.62	11.59	-45.6	-49.0	15.3	0.00e+00	0	40	0	106954752	63	5126
2026-01-05 07:57:55.04	81.13	11.76	-45.3	-48.4	15.9	0.00e+00	0	41	0	112197632	62	5064
2026-01-05 07:57:57.91	80.68	11.91	-45.3	-48.4	15.9	0.00e+00	0	41	0	117440512	62	5061
2026-01-05 07:58:01.12	80.17	12.09	-45.3	-48.4	15.9	0.00e+00	0	40	0	123731968	62	5068
2026-01-05 07:58:03.99	79.71	12.24	-44.7	-47.6	16.7	0.00e+00	0	40	0	128974848	61	4891
2026-01-05 07:58:07.14	79.20	12.40	-44.8	-47.7	16.6	0.00e+00	0	40	0	135266304	61	4959
2026-01-05 07:58:10.01	78.73	12.55	-44.7	-47.5	16.8	0.00e+00	0	41	0	140509184	61	4841
2026-01-05 07:58:13.16	78.21	12.72	-44.7	-47.6	16.7	0.00e+00	0	40	0	146800640	61	4889
2026-01-05 07:58:16.02	77.73	12.87	-44.6	-47.5	16.8	0.00e+00	0	40	0	152043520	61	4823
2026-01-05 07:58:19.18	77.19	13.03	-44.7	-47.5	16.8	0.00e+00	0	40	0	157286400	61	4866
2026-01-05 07:58:22.05	76.70	13.17	-44.6	-47.4	17.0	0.00e+00	0	41	0	162529280	60	5053
2026-01-05 07:58:25.20	76.16	13.33	-44.3	-47.0	17.3	0.00e+00	0	41	0	168820736	60	4830
2026-01-05 07:58:28.37	75.60	13.49	-44.3	-47.0	17.3	0.00e+00	0	40	0	175112192	60	4824
2026-01-05 07:58:31.23	75.10	13.63	-44.1	-46.7	17.6	0.00e+00	0	40	0	180355072	60	4678
2026-01-05 07:58:34.38	74.54	13.79	-44.1	-46.7	17.6	0.00e+00	0	40	0	186646528	60	4704
2026-01-05 07:58:37.24	74.02	13.92	-44.0	-46.7	17.6	0.00e+00	0	40	0	191889408	59	4933
2026-01-05 07:58:40.73	73.39	14.09	-44.2	-46.8	17.4	0.00e+00	0	40	0	198180864	59	5041
2026-01-05 07:58:43.45	72.88	14.22	-44.4	-47.1	17.2	0.00e+00	0	41	0	203423744	59	5192
2026-01-05 07:58:46.74	72.27	14.37	-44.5	-47.2	17.1	0.00e+00	0	41	0	209715200	59	5259
2026-01-05 07:58:49.45	71.77	14.50	-44.6	-47.3	17.0	0.00e+00	0	40	0	213909504	59	5313
2026-01-05 07:58:52.71	71.15	14.64	-44.4	-47.1	17.2	0.00e+00	0	40	0	220200960	59	5168
2026-01-05 07:58:55.58	70.60	14.77	-44.4	-47.1	17.2	0.00e+00	0	40	0	225443840	59	5208
2026-01-05 07:58:58.73	69.99	14.91	-44.5	-47.2	17.1	0.00e+00	0	41	0	231735296	59	5255
2026-01-05 07:59:01.59	69.44	15.03	-44.3	-46.9	17.4	0.00e+00	0	40	0	236978176	59	5072
2026-01-05 07:59:04.74	68.82	15.16	-44.2	-46.8	17.5	0.00e+00	0	40	0	243269632	59	5028
2026-01-05 07:59:07.60	68.26	15.28	-44.0	-46.6	17.7	0.00e+00	0	40	0	248512512	59	4888
2026-01-05 07:59:10.75	67.63	15.41	-44.0	-46.5	17.8	0.00e+00	0	40	0	254803968	59	4863
2026-01-05 07:59:13.64	67.05	15.52	-43.9	-46.4	17.9	0.00e+00	0	40	0	260046848	59	4786
2026-01-05 07:59:16.78	66.41	15.65	-44.0	-46.5	17.8	0.00e+00	0	40	0	265289728	59	4859
2026-01-05 07:59:19.75	65.81	15.76	-43.9	-46.4	17.9	0.00e+00	0	40	0	271581184	59	4773
2026-01-05 07:59:22.90	65.16	15.88	-43.8	-46.3	18.0	0.00e+00	0	40	0	276824064	59	4717
2026-01-05 07:59:25.76	64.56	15.98	-43.8	-46.3	18.0	0.00e+00	0	41	0	282066944	59	4739
2026-01-05 07:59:28.90	63.91	16.09	-43.9	-46.4	17.9	0.00e+00	0	41	0	288358400	59	4804
2026-01-05 07:59:31.77	63.31	16.19	-44.0	-46.6	17.7	0.00e+00	0	40	0	293601280	59	4907
2026-01-05 07:59:34.92	62.64	16.29	-43.9	-46.5	17.9	0.00e+00	0	40	0	299892736	59	4820
2026-01-05 07:59:37.78	62.03	16.38	-43.9	-46.4	17.9	0.00e+00	0	40	0	305135616	59	4785
2026-01-05 07:59:40.93	61.36	16.48	-43.9	-46.4	17.9	0.00e+00	0	40	0	311427072	59	4806
2026-01-05 07:59:43.79	60.74	16.56	-43.8	-46.3	18.0	0.00e+00	0	41	0	316669952	59	4743
2026-01-05 07:59:47.02	60.04	16.65	-43.8	-46.3	18.0	0.00e+00	0	40	0	321912832	59	4735
2026-01-05 07:59:49.88	59.41	16.73	-44.1	-46.7	17.6	0.00e+00	0	41	0	328204288	59	4965
2026-01-05 07:59:53.02	58.73	16.81	-44.5	-47.2	17.2	0.00e+00	0	40	0	333447168	59	5224
2026-01-05 07:59:55.89	58.09	16.88	-44.6	-47.4	17.0	0.00e+00	0	40	0	338690048	59	5389
2026-01-05 07:59:59.04	57.40	16.96	-44.4	-47.1	17.3	0.00e+00	0	40	0	344981504	60	4891
2026-01-05 08:00:01.90	56.76	17.02	-44.2	-46.8	17.6	0.00e+00	0	40	0	350224384	60	4721
2026-01-05 08:00:05.05	56.06	17.09	-44.2	-46.8	17.6	0.00e+00	0	41	0	356515840	60	4739
2026-01-05 08:00:07.91	55.41	17.15	-44.3	-47.0	17.4	0.00e+00	0	40	0	361758720	60	4856
2026-01-05 08:00:11.07	54.70	17.21	-44.7	-47.4	17.0	0.00e+00	0	40	0	367001600	60	5091
2026-01-05 08:00:13.92	54.06	17.25	-44.6	-47.3	17.1	0.00e+00	0	40	0	373293056	60	5028
2026-01-05 08:00:17.09	53.34	17.30	-44.8	-47.6	16.9	0.00e+00	0	40	0	378535936	60	5180
2026-01-05 08:00:19.95	52.69	17.35	-44.7	-47.5	17.0	0.00e+00	0	40	0	383778816	60	5109
2026-01-05 08:00:23.10	51.97	17.39	-44.7	-47.6	16.9	0.00e+00	0	40	0	390070272	60	5163
2026-01-05 08:00:25.97	51.31	17.42	-44.7	-47.4	17.1	0.00e+00	0	40	0	395313152	60	5072
2026-01-05 08:00:29.10	50.60	17.45	-44.8	-47.6	16.9	0.00e+00	0	40	0	401604608	60	5162
2026-01-05 08:00:32.25	49.87	17.48	-44.7	-47.4	17.0	0.00e+00	0	40	0	406847488	60	5090
2026-01-05 08:00:35.39	49.15	17.50	-44.6	-47.4	17.1	0.00e+00	0	40	0	413138944	60	5049
2026-01-05 08:00:38.25	48.49	17.52	-44.7	-47.4	17.1	0.00e+00	0	40	0	418381824	60	5077
2026-01-05 08:00:41.40	47.77	17.54	-44.8	-47.6	16.9	0.00e+00	0	41	0	424673280	60	5208
2026-01-05 08:00:44.29	47.10	17.55	-44.8	-47.5	16.9	0.00e+00	0	40	0	429916160	60	5159
2026-01-05 08:00:47.59	46.34	17.55	-44.5	-47.2	17.3	0.00e+00	0	40	0	436207616	60	4927
2026-01-05 08:00:50.31	45.71	17.55	-44.6	-47.3	17.2	0.00e+00	0	41	0	441450496	60	5008
2026-01-05 08:00:53.60	44.95	17.55	-44.5	-47.3	17.2	0.00e+00	0	40	0	446693376	60	4987
2026-01-05 08:00:56.47	44.29	17.54	-44.4	-47.0	17.4	0.00e+00	0	40	0	452984832	60	4869
2026-01-05 08:00:59.55	43.58	17.53	-44.5	-47.2	17.3	0.00e+00	0	40	0	458227712	60	4927
2026-01-05 08:01:02.71	42.86	17.51	-44.1	-46.7	17.7	0.00e+00	0	40	0	464519168	60	4673
2026-01-05 08:01:05.86	42.13	17.49	-44.1	-46.6	17.8	0.00e+00	0	40	0	469762048	60	4637
2026-01-05 08:01:08.72	41.47	17.46	-44.1	-46.6	17.8	0.00e+00	0	41	0	476053504	60	4646
2026-01-05 08:01:12.00	40.72	17.43	-44.0	-46.5	17.8	0.00e+00	0	40	0	481296384	59	4866
2026-01-05 08:01:15.16	40.00	17.40	-43.9	-46.4	17.9	0.00e+00	0	41	0	487587840	59	4814
2026-01-05 08:01:18.49	39.24	17.35	-43.7	-46.2	18.1	0.00e+00	0	40	0	493879296	59	4683
2026-01-05 08:01:21.21	38.62	17.31	-43.6	-46.1	18.3	0.00e+00	0	41	0	499122176	59	4622
2026-01-05 08:01:24.54	37.87	17.26	-43.7	-46.2	18.2	0.00e+00	0	41	0	505413632	59	4669
2026-01-05 08:01:27.25	37.26	17.22	-43.7	-46.2	18.2	0.00e+00	0	40	0	510656512	59	4675
2026-01-05 08:01:30.98	36.42	17.15	-43.9	-46.4	17.9	0.00e+00	0	40	0	516947968	59	4778
2026-01-05 08:01:33.70	35.81	17.09	-44.0	-46.5	17.8	0.00e+00	0	40	0	522190848	59	4869
2026-01-05 08:01:36.99	35.08	17.02	-43.9	-46.6	17.8	0.00e+00	0	41	0	528482304	59	4876
2026-01-05 08:01:39.71	34.47	16.96	-43.9	-46.5	17.9	0.00e+00	0	40	0	533725184	59	4857
2026-01-05 08:01:43.00	33.74	16.89	-44.0	-46.6	17.8	0.00e+00	0	41	0	540016640	59	4912
2026-01-05 08:01:45.72	33.15	16.82	-44.4	-47.0	17.4	0.00e+00	0	40	0	545259520	59	5152
2026-01-05 08:01:49.00	32.43	16.73	-44.5	-47.2	17.2	0.00e+00	0	41	0	551550976	59	5273
2026-01-05 08:01:51.73	31.83	16.66	-44.3	-47.0	17.4	0.00e+00	0	40	0	555745280	59	5122
2026-01-05 08:01:55.24	31.07	16.56	-44.4	-47.2	17.2	0.00e+00	0	40	0	563085312	59	5252
2026-01-05 08:01:57.96	30.49	16.48	-44.5	-47.3	17.1	0.00e+00	0	40	0	568328192	59	5305
2026-01-05 08:02:01.26	29.78	16.38	-44.2	-46.9	17.5	0.00e+00	0	40	0	573571072	59	5050
2026-01-05 08:02:03.99	29.20	16.29	-44.0	-46.6	17.8	0.00e+00	0	40	0	578813952	59	4893
2026-01-05 08:02:07.58	28.45	16.17	-44.2	-46.9	17.5	0.00e+00	0	40	0	586153984	59	5062
2026-01-05 08:02:10.55	27.83	16.07	-44.0	-46.9	17.5	0.00e+00	0	40	0	591396864	59	5069
2026-01-05 08:02:13.85	27.14	15.96	-44.0	-46.8	17.5	0.00e+00	0	40	0	597688320	59	5024
2026-01-05 08:02:16.56	26.58	15.86	-44.2	-47.0	17.4	0.00e+00	0	40	0	602931200	59	5132
2026-01-05 08:02:19.87	25.90	15.74	-44.1	-46.9	17.5	0.00e+00	0	40	0	609222656	59	5053
2026-01-05 08:02:22.59	25.35	15.63	-44.2	-46.9	17.5	0.00e+00	0	40	0	614465536	59	5074
2026-01-05 08:02:25.88	24.69	15.51	-44.4	-47.2	17.2	0.00e+00	0	40	0	620756992	59	5219
2026-01-05 08:02:28.60	24.14	15.40	-44.6	-47.5	16.9	0.00e+00	0	40	0	624951296	59	5442
2026-01-05 08:02:31.89	23.49	15.26	-44.6	-47.5	16.8	0.00e+00	0	40	0	631242752	59	5427
2026-01-05 08:02:34.82	22.92	15.14	-44.4	-47.1	17.2	0.00e+00	0	40	0	637534208	59	5198
2026-01-05 08:02:38.59	22.18	14.98	-44.8	-47.6	16.8	0.00e+00	0	40	0	643825664	60	5210
2026-01-05 08:02:41.41	21.64	14.86	-44.9	-47.9	16.5	0.00e+00	0	40	0	649068544	60	5388
2026-01-05 08:02:45.46	20.86	14.68	-44.8	-47.8	16.6	0.00e+00	0	40	0	656408576	60	5309
2026-01-05 08:02:48.58	20.27	14.54	-44.6	-47.9	16.5	0.00e+00	0	40	0	662700032	60	5373
2026-01-05 08:02:51.58	19.71	14.41	-44.6	-48.1	16.2	0.00e+00	0	40	0	667942912	60	5512
2026-01-05 08:02:54.56	19.16	14.27	-44.9	-48.3	16.1	0.00e+00	0	40	0	674234368	60	5609
2026-01-05 08:02:57.81	18.57	14.12	-45.3	-48.5	15.9	0.00e+00	0	40	0	680525824	61	5463
2026-01-05 08:03:00.72	18.04	13.98	-45.5	-48.8	15.7	0.00e+00	0	40	0	685768704	61	5617
2026-01-05 08:03:04.24	17.40	13.81	-45.3	-48.4	16.0	0.00e+00	0	40	0	692060160	61	5386
2026-01-05 08:03:06.96	16.92	13.68	-45.3	-48.4	16.0	0.00e+00	0	40	0	697303040	61	5353
2026-01-05 08:03:10.25	16.34	13.52	-45.5	-49.1	15.2	0.00e+00	0	40	0	703594496	61	5833
2026-01-05 08:03:13.11	15.84	13.37	-45.4	-49.3	15.1	0.00e+00	0	40	0	708837376	61	5947
2026-01-05 08:03:16.27	15.30	13.22	-45.2	-49.2	15.2	0.00e+00	0	40	0	715128832	61	5856
2026-01-05 08:03:19.13	14.81	13.07	-45.2	-49.3	15.1	0.00e+00	0	40	0	720371712	61	5990
2026-01-05 08:03:22.41	14.26	12.90	-45.2	-49.3	15.0	7.00e-07	0	40	0	726663168	61	5990
2026-01-05 08:03:25.28	13.78	12.76	-45.5	-49.4	15.0	0.00e+00	0	40	0	731906048	61	6012
2026-01-05 08:03:28.51	13.24	12.59	-45.7	-49.2	15.2	0.00e+00	0	40	0	738197504	62	5552
2026-01-05 08:03:31.44	12.76	12.44	-45.7	-49.3	15.1	0.00e+00	0	40	0	743440384	62	5593
2026-01-05 08:03:34.73	12.23	12.26	-45.7	-49.3	15.1	7.00e-07	0	40	0	749731840	62	5647
2026-01-05 08:03:37.58	11.78	12.11	-45.5	-49.1	15.2	0.00e+00	0	40	0	754974720	62	5493
2026-01-05 08:03:40.84	11.26	11.94	-44.9	-48.6	15.7	0.00e+00	0	40	0	761266176	61	5504
2026-01-05 08:03:43.85	10.79	11.78	-44.6	-48.6	15.7	0.00e+00	0	40	0	766509056	61	5513
2026-01-05 08:03:46.86	10.33	11.62	-44.5	-48.4	15.8	0.00e+00	0	40	0	771751936	60	5720
2026-01-05 08:03:49.86	9.87	11.46	-44.3	-48.2	16.0	0.00e+00	0	40	0	778043392	60	5586
2026-01-05 08:03:52.87	9.42	11.29	-44.0	-48.2	16.0	0.00e+00	0	40	0	783286272	59	5885
2026-01-05 08:03:55.88	8.97	11.13	-44.0	-48.1	16.1	0.00e+00	0	40	0	788529152	59	5848
2026-01-05 08:03:58.88	8.52	10.96	-44.2	-47.9	16.3	0.00e+00	0	40	0	794820608	59	5669
2026-01-05 08:04:01.89	8.09	10.80	-44.3	-47.7	16.5	0.00e+00	0	40	0	800063488	59	5571
2026-01-05 08:04:04.90	7.65	10.63	-44.2	-47.5	16.7	0.00e+00	0	40	0	806354944	59	5435
2026-01-05 08:04:07.90	7.22	10.47	-44.1	-47.3	16.9	0.00e+00	0	40	0	811597824	59	5300
2026-01-05 08:04:10.91	6.80	10.30	-44.2	-47.3	16.9	0.00e+00	0	40	0	816840704	59	5298
2026-01-05 08:04:13.96	6.38	10.13	-44.1	-47.1	17.0	0.00e+00	0	40	0	823132160	59	5218
2026-01-05 08:04:16.89	5.97	9.97	-43.6	-46.9	17.3	0.00e+00	0	40	0	828375040	59	5060
2026-01-05 08:04:19.90	5.56	9.80	-43.7	-47.0	17.1	0.00e+00	0	40	0	833617920	59	5159
2026-01-05 08:04:22.91	5.16	9.64	-43.7	-47.0	17.2	0.00e+00	0	40	0	839909376	59	5115
2026-01-05 08:04:25.96	4.75	9.47	-44.0	-47.3	16.8	0.00e+00	0	40	0	845152256	59	5325
2026-01-05 08:04:28.96	4.36	9.30	-44.1	-47.3	16.8	0.00e+00	0	40	0	851443712	59	5324
2026-01-05 08:04:31.97	3.97	9.13	-44.2	-47.5	16.7	0.00e+00	0	40	0	856686592	59	5426
2026-01-05 08:04:34.98	3.58	8.96	-48.3	-58.2	6.7	0.00e+00	0	40	0	861929472	67	11727
2026-01-05 08:04:37.99	3.20	8.79	-50.1	-65.9	3.8	1.49e+00	0	40	104	862978048	70	23869
2026-01-05 08:04:41.00	2.83	8.62	-50.5	-65.9	3.8	1.49e+00	0	40	104	862978048	72	21454
2026-01-05 08:04:44.02	2.45	8.45	-50.0	-66.1	3.8	1.49e+00	0	40	104	862978048	71	23108
2026-01-05 08:04:47.03	2.09	8.29	-50.5	-66.1	3.8	1.49e+00	0	40	104	862978048	72	21792
2026-01-05 08:04:50.04	1.72	8.12	-50.7	-66.1	3.8	1.49e+00	0	40	104	862978048	72	21763
2026-01-05 08:04:53.05	1.36	7.95	-50.7	-66.0	3.8	1.49e+00	0	40	104	862978048	72	21666
2026-01-05 08:04:56.06	1.01	7.78	-50.9	-66.0	3.8	1.49e+00	0	40	104	862978048	72	21754
2026-01-05 08:04:59.08	0.66	7.61	-50.8	-66.0	3.8	1.49e+00	0	40	104	862978048	72	21712
2026-01-05 08:05:02.09	0.31	7.44	-50.7	-66.0	3.8	1.49e+00	0	40	104	862978048	72	21726
2026-01-05 08:05:05.10	359.97	7.27	-50.5	-66.0	3.8	1.49e+00	0	40	104	862978048	72	21576
2026-01-05 08:05:08.12	359.63	7.11	-50.6	-66.0	3.8	1.49e+00	0	40	104	862978048	72	21533
2026-01-05 08:05:11.13	359.29	6.94	-50.5	-66.0	3.8	1.49e+00	0	40	104	862978048	72	21525
2026-01-05 08:05:14.14	358.96	6.77	-50.5	-66.0	3.8	1.49e+00	0	40	104	862978048	72	21585
2026-01-05 08:05:17.15	358.64	6.60	-50.5	-66.0	3.8	1.49e+00	0	40	104	862978048	72	21556
2026-01-05 08:05:20.16	358.31	6.44	-50.5	-66.0	3.8	1.49e+00	0	40	104	862978048	72	21549
2026-01-05 08:05:23.18	357.99	6.27	-50.5	-66.0	3.8	1.49e+00	0	40	104	862978048	72	21508
2026-01-05 08:05:26.19	357.68	6.10	-50.5	-65.9	3.8	1.49e+00	0	40	104	862978048	72	21455
2026-01-05 08:05:29.20	357.37	5.93	-50.5	-65.9	3.8	1.49e+00	0	40	104	862978048	72	21415
2026-01-05 08:05:32.21	357.06	5.77	-50.5	-65.9	3.8	1.49e+00	0	40	104	862978048	72	21413
2026-01-05 08:05:35.23	356.75	5.60	-50.5	-65.9	3.8	1.49e+00	0	40	104	862978048	72	21486
2026-01-05 08:05:38.24	356.45	5.44	-50.5	-65.9	3.8	1.49e+00	0	40	104	862978048	72	21505
2026-01-05 08:05:41.25	356.16	5.27	-50.5	-65.9	3.8	1.49e+00	0	41	104	862978048	72	21440
2026-01-05 08:05:44.27	355.86	5.10	-50.5	-65.9	3.8	1.49e+00	0	40	104	862978048	72	21494

#Closed at: 2026-01-05 08:05:47
#Recorded file [862 MB]: D:/Data/31040_260105_105553.dat