passes_logs/2026/01/05/T1/T1__20260105_214449_NOAA_20_JPSS-1_rec.log

#Pass ID: 20260105_214449_NOAA 20 (JPSS-1)
#Satellite: NOAA 20 (JPSS-1)
#Configuration: NOAA 20
#almurnet v.1.7.20251203
#Start time: 2026-01-05 21:44:51

#Version: 2.0.20230620
#Station: T1
#Location: 37.570604 lon 55.790049 lat
#TLE: 1 43013U 17073A   26005.46207808  .00000128  00000+0  81791-4 0  9997
#TLE: 2 43013  98.7627 306.5027 0001826  53.0458 307.0885 14.19533487421381

#Time	Az	El	Level	Level2	SNR	BER	BlckErr	Temp	State	Recorded	gain1	gain2
2026-01-05 21:44:51.22	36.05	5.08	-50.2	-65.5	3.8	1.49e+00	0	40	0	0	72	20343
2026-01-05 21:44:54.22	36.39	5.22	-50.2	-65.5	3.8	1.49e+00	0	41	104	0	71	21672
2026-01-05 21:44:57.22	36.72	5.37	-50.2	-65.5	3.8	1.49e+00	0	41	104	0	71	21686
2026-01-05 21:45:00.22	37.06	5.51	-50.2	-65.5	3.8	1.49e+00	0	41	104	0	71	21607
2026-01-05 21:45:03.22	37.41	5.66	-50.2	-65.5	3.8	1.49e+00	0	41	104	0	71	21658
2026-01-05 21:45:06.22	37.75	5.80	-50.2	-65.5	3.8	1.49e+00	0	41	104	0	71	21661
2026-01-05 21:45:09.21	38.10	5.95	-50.2	-65.5	3.8	1.49e+00	0	41	104	0	71	21654
2026-01-05 21:45:12.20	38.46	6.10	-50.2	-65.5	3.8	1.49e+00	0	41	104	0	71	21650
2026-01-05 21:45:15.19	38.81	6.24	-50.2	-65.5	3.8	1.49e+00	0	41	104	0	71	21625
2026-01-05 21:45:18.19	39.17	6.39	-50.2	-65.5	3.8	1.49e+00	0	42	104	0	71	21526
2026-01-05 21:45:21.19	39.53	6.53	-50.2	-65.5	3.8	1.49e+00	0	42	104	0	71	21593
2026-01-05 21:45:24.18	39.90	6.68	-50.2	-65.5	3.8	1.49e+00	0	42	104	0	71	21621
2026-01-05 21:45:27.18	40.27	6.82	-50.2	-65.5	3.8	1.49e+00	0	42	104	0	71	21601
2026-01-05 21:45:30.17	40.64	6.96	-50.2	-65.5	3.8	1.49e+00	0	42	104	0	71	21598
2026-01-05 21:45:33.17	41.02	7.11	-50.2	-65.5	3.8	1.49e+00	0	42	104	0	71	21622
2026-01-05 21:45:36.17	41.40	7.25	-50.2	-65.5	3.8	1.49e+00	0	42	104	0	71	21639
2026-01-05 21:45:39.17	41.79	7.40	-50.2	-65.5	3.8	1.49e+00	0	42	104	0	71	21527
2026-01-05 21:45:42.16	42.18	7.54	-50.2	-65.4	3.8	1.49e+00	0	42	104	0	71	21490
2026-01-05 21:45:45.16	42.57	7.68	-50.2	-65.4	3.8	1.49e+00	0	42	104	0	71	21467
2026-01-05 21:45:48.15	42.96	7.83	-50.2	-65.4	3.8	1.49e+00	0	42	104	0	71	21494
2026-01-05 21:45:51.14	43.36	7.97	-50.2	-65.4	3.8	1.49e+00	0	42	104	0	71	21445
2026-01-05 21:45:54.14	43.77	8.11	-50.2	-65.5	3.8	1.49e+00	0	42	104	0	71	21514
2026-01-05 21:45:57.14	44.17	8.25	-50.2	-65.1	3.8	1.49e+00	0	42	104	0	71	20678
2026-01-05 21:46:00.13	44.58	8.40	-50.2	-65.3	3.8	1.49e+00	0	42	104	0	71	21095
2026-01-05 21:46:03.13	45.00	8.54	-50.2	-65.4	3.8	1.49e+00	0	42	104	0	71	21267
2026-01-05 21:46:06.12	45.42	8.68	-50.2	-65.3	3.8	1.49e+00	0	42	104	0	71	21119
2026-01-05 21:46:09.11	45.84	8.82	-50.1	-63.5	3.9	1.49e+00	0	43	104	0	71	17233
2026-01-05 21:46:12.10	46.26	8.96	-50.0	-62.7	3.9	1.48e+00	0	43	104	0	71	15615
2026-01-05 21:46:15.10	46.70	9.10	-49.5	-58.8	5.7	4.06e-01	0	43	0	3145728	71	9951
2026-01-05 21:46:18.09	47.13	9.23	-49.9	-61.5	4.3	2.90e-01	0	43	0	6291456	70	14516
2026-01-05 21:46:21.09	47.57	9.37	-46.5	-50.5	13.7	8.30e-06	0	43	0	12582912	65	5442
2026-01-05 21:46:24.08	48.01	9.51	-46.1	-49.8	14.4	7.00e-07	0	43	0	17825792	64	5288
2026-01-05 21:46:27.08	48.46	9.64	-45.5	-48.8	15.5	0.00e+00	0	42	0	23068672	63	5012
2026-01-05 21:46:30.07	48.91	9.78	-45.4	-48.6	15.7	0.00e+00	0	43	0	29360128	62	5188
2026-01-05 21:46:33.07	49.36	9.91	-45.3	-48.4	15.8	0.00e+00	0	43	0	34603008	62	5081
2026-01-05 21:46:36.05	49.82	10.05	-45.2	-48.3	16.0	0.00e+00	0	43	0	39845888	62	5016
2026-01-05 21:46:39.05	50.28	10.18	-45.4	-48.6	15.7	0.00e+00	0	43	0	46137344	62	5190
2026-01-05 21:46:42.04	50.75	10.31	-45.5	-48.7	15.6	0.00e+00	0	43	0	51380224	62	5233
2026-01-05 21:46:45.04	51.22	10.44	-45.5	-48.6	15.7	0.00e+00	0	43	0	56623104	62	5215
2026-01-05 21:46:48.02	51.69	10.57	-45.5	-48.7	15.6	0.00e+00	0	43	0	62914560	62	5242
2026-01-05 21:46:51.01	52.17	10.70	-45.6	-48.8	15.5	0.00e+00	0	43	0	68157440	62	5333
2026-01-05 21:46:54.00	52.65	10.83	-45.7	-48.9	15.4	0.00e+00	0	43	0	73400320	62	5395
2026-01-05 21:46:56.99	53.14	10.96	-45.6	-48.8	15.6	0.00e+00	0	43	0	79691776	62	5295
2026-01-05 21:46:59.98	53.63	11.08	-45.7	-48.9	15.4	0.00e+00	0	43	0	84934656	62	5379
2026-01-05 21:47:02.98	54.13	11.20	-45.7	-49.0	15.3	0.00e+00	0	43	0	90177536	62	5460
2026-01-05 21:47:05.98	54.63	11.33	-45.7	-49.0	15.4	0.00e+00	0	43	0	96468992	62	5425
2026-01-05 21:47:08.99	55.13	11.45	-45.8	-49.1	15.2	0.00e+00	0	43	0	101711872	62	5498
2026-01-05 21:47:11.99	55.64	11.57	-45.7	-49.0	15.4	0.00e+00	0	43	0	108003328	62	5416
2026-01-05 21:47:14.98	56.15	11.69	-45.7	-49.0	15.4	0.00e+00	0	43	0	113246208	62	5404
2026-01-05 21:47:17.98	56.67	11.81	-45.5	-48.6	15.7	0.00e+00	0	43	0	118489088	62	5214
2026-01-05 21:47:20.98	57.19	11.92	-45.5	-48.6	15.8	0.00e+00	0	43	0	124780544	62	5201
2026-01-05 21:47:23.99	57.71	12.04	-45.7	-49.0	15.4	0.00e+00	0	43	0	130023424	62	5423
2026-01-05 21:47:26.99	58.24	12.15	-46.0	-49.4	15.0	0.00e+00	0	43	0	135266304	62	5685
2026-01-05 21:47:30.00	58.78	12.26	-45.9	-49.3	15.1	0.00e+00	0	43	0	141557760	62	5649
2026-01-05 21:47:33.00	59.31	12.37	-45.8	-49.0	15.3	0.00e+00	0	43	0	146800640	62	5458
2026-01-05 21:47:35.99	59.85	12.48	-45.8	-49.0	15.4	0.00e+00	0	43	0	152043520	62	5452
2026-01-05 21:47:38.99	60.40	12.58	-45.6	-48.9	15.6	0.00e+00	0	43	0	158334976	62	5351
2026-01-05 21:47:41.98	60.94	12.69	-45.8	-49.1	15.3	0.00e+00	0	43	0	163577856	62	5504
2026-01-05 21:47:44.98	61.50	12.79	-46.0	-49.4	15.1	0.00e+00	0	43	0	169869312	62	5671
2026-01-05 21:47:47.97	62.05	12.89	-45.8	-49.0	15.4	0.00e+00	0	43	0	175112192	62	5430
2026-01-05 21:47:50.96	62.61	12.99	-45.5	-48.7	15.7	0.00e+00	0	43	0	180355072	62	5250
2026-01-05 21:47:53.96	63.17	13.08	-45.2	-48.2	16.2	0.00e+00	0	43	0	186646528	62	4961
2026-01-05 21:47:56.95	63.73	13.18	-45.2	-48.2	16.2	0.00e+00	0	43	0	191889408	62	4959
2026-01-05 21:47:59.95	64.30	13.27	-45.2	-48.2	16.2	0.00e+00	0	43	0	197132288	62	4975
2026-01-05 21:48:02.95	64.88	13.36	-45.1	-48.1	16.3	0.00e+00	0	43	0	203423744	62	4892
2026-01-05 21:48:05.94	65.45	13.44	-44.9	-47.8	16.7	0.00e+00	0	43	0	208666624	61	4992
2026-01-05 21:48:08.94	66.03	13.53	-44.7	-47.5	16.9	0.00e+00	0	43	0	213909504	61	4826
2026-01-05 21:48:11.93	66.61	13.61	-44.8	-47.6	16.8	0.00e+00	0	43	0	220200960	61	4916
2026-01-05 21:48:14.94	67.20	13.69	-45.1	-48.1	16.3	0.00e+00	0	43	0	225443840	61	5200
2026-01-05 21:48:17.93	67.79	13.77	-45.3	-48.4	16.0	0.00e+00	0	43	0	230686720	61	5368
2026-01-05 21:48:20.92	68.38	13.84	-45.5	-48.6	15.8	0.00e+00	0	43	0	236978176	61	5513
2026-01-05 21:48:23.92	68.97	13.91	-45.6	-48.7	15.7	0.00e+00	0	43	0	242221056	61	5578
2026-01-05 21:48:26.91	69.57	13.98	-45.5	-48.6	15.9	0.00e+00	0	43	0	248512512	61	5491
2026-01-05 21:48:29.91	70.17	14.05	-45.5	-48.6	15.8	0.00e+00	0	43	0	253755392	61	5525
2026-01-05 21:48:32.90	70.77	14.11	-45.7	-48.8	15.7	0.00e+00	0	43	0	258998272	62	5336
2026-01-05 21:48:35.90	71.38	14.17	-45.5	-48.6	15.9	0.00e+00	0	43	0	265289728	62	5197
2026-01-05 21:48:38.90	71.99	14.23	-45.5	-48.6	15.8	0.00e+00	0	43	0	270532608	62	5208
2026-01-05 21:48:41.88	72.59	14.29	-45.5	-48.5	16.0	0.00e+00	0	43	0	275775488	62	5143
2026-01-05 21:48:44.88	73.21	14.34	-45.4	-48.4	16.1	0.00e+00	0	43	0	282066944	62	5062
2026-01-05 21:48:47.87	73.82	14.39	-45.2	-48.2	16.3	0.00e+00	0	43	0	287309824	62	4931
2026-01-05 21:48:50.86	74.43	14.44	-45.3	-48.4	16.2	0.00e+00	0	43	0	292552704	62	5045
2026-01-05 21:48:53.85	75.05	14.48	-45.3	-48.3	16.2	0.00e+00	0	43	0	298844160	62	4998
2026-01-05 21:48:56.85	75.67	14.52	-45.2	-48.2	16.3	0.00e+00	0	43	0	304087040	62	4936
2026-01-05 21:48:59.84	76.29	14.56	-45.2	-48.1	16.4	0.00e+00	0	43	0	309329920	62	4917
2026-01-05 21:49:02.83	76.91	14.59	-45.1	-48.0	16.4	0.00e+00	0	43	0	315621376	62	4867
2026-01-05 21:49:05.82	77.54	14.62	-45.1	-48.0	16.5	0.00e+00	0	43	0	320864256	62	4851
2026-01-05 21:49:08.81	78.16	14.65	-45.1	-48.0	16.5	0.00e+00	0	43	0	326107136	62	4820
2026-01-05 21:49:11.80	78.79	14.68	-44.8	-47.7	16.8	0.00e+00	0	43	0	332398592	61	4944
2026-01-05 21:49:14.79	79.41	14.70	-44.6	-47.4	17.0	0.00e+00	0	43	0	337641472	61	4782
2026-01-05 21:49:17.78	80.04	14.72	-44.7	-47.5	16.9	0.00e+00	0	44	0	342884352	61	4835
2026-01-05 21:49:20.77	80.67	14.73	-44.8	-47.7	16.8	0.00e+00	0	43	0	349175808	61	4938
2026-01-05 21:49:23.77	81.30	14.75	-44.6	-47.5	17.0	0.00e+00	0	43	0	354418688	61	4833
2026-01-05 21:49:26.76	81.93	14.76	-44.4	-47.2	17.2	0.00e+00	0	43	0	360710144	60	4955
2026-01-05 21:49:29.76	82.56	14.76	-44.4	-47.2	17.3	0.00e+00	0	43	0	365953024	60	4934
2026-01-05 21:49:32.77	83.19	14.76	-44.6	-47.4	17.1	0.00e+00	0	43	0	371195904	60	5051
2026-01-05 21:49:35.76	83.82	14.76	-44.3	-47.1	17.3	0.00e+00	0	43	0	377487360	60	4914
2026-01-05 21:49:38.75	84.45	14.76	-44.0	-46.7	17.7	0.00e+00	0	43	0	382730240	60	4699
2026-01-05 21:49:41.75	85.08	14.75	-44.1	-46.8	17.7	0.00e+00	0	43	0	387973120	60	4714
2026-01-05 21:49:44.75	85.72	14.74	-44.2	-46.9	17.5	0.00e+00	0	43	0	394264576	60	4790
2026-01-05 21:49:47.75	86.35	14.73	-44.2	-46.9	17.6	0.00e+00	0	43	0	399507456	60	4770
2026-01-05 21:49:50.75	86.98	14.71	-44.5	-47.3	17.1	0.00e+00	0	43	0	404750336	60	5021
2026-01-05 21:49:53.74	87.61	14.69	-44.7	-47.5	16.9	0.00e+00	0	43	0	411041792	60	5142
2026-01-05 21:49:56.74	88.23	14.67	-44.4	-47.1	17.3	0.00e+00	0	43	0	416284672	60	4912
2026-01-05 21:49:59.73	88.86	14.65	-44.4	-47.2	17.2	0.00e+00	0	43	0	421527552	60	4937
2026-01-05 21:50:02.73	89.49	14.62	-44.6	-47.4	17.0	0.00e+00	0	43	0	427819008	60	5082
2026-01-05 21:50:05.72	90.11	14.58	-44.6	-47.3	17.1	0.00e+00	0	43	0	433061888	60	5040
2026-01-05 21:50:08.72	90.73	14.55	-44.1	-46.7	17.7	0.00e+00	0	43	0	439353344	60	4689
2026-01-05 21:50:11.70	91.35	14.51	-44.2	-46.9	17.5	0.00e+00	0	43	0	444596224	60	4781
2026-01-05 21:50:14.70	91.97	14.47	-44.4	-47.1	17.4	0.00e+00	0	43	0	449839104	60	4880
2026-01-05 21:50:17.69	92.59	14.42	-44.2	-46.9	17.5	0.00e+00	0	43	0	456130560	60	4774
2026-01-05 21:50:20.69	93.21	14.38	-43.9	-46.5	17.9	0.00e+00	0	43	0	461373440	59	4817
2026-01-05 21:50:23.68	93.82	14.33	-43.8	-46.2	18.1	0.00e+00	0	43	0	466616320	59	4684
2026-01-05 21:50:26.67	94.43	14.27	-43.9	-46.3	18.0	0.00e+00	0	43	0	472907776	59	4753
2026-01-05 21:50:29.66	95.04	14.22	-44.2	-46.8	17.6	0.00e+00	0	43	0	478150656	59	5009
2026-01-05 21:50:32.65	95.65	14.16	-44.3	-46.8	17.5	0.00e+00	0	43	0	483393536	59	5030
2026-01-05 21:50:35.64	96.26	14.09	-44.0	-46.6	17.7	0.00e+00	0	43	0	489684992	59	4877
2026-01-05 21:50:38.63	96.86	14.03	-43.9	-46.4	17.9	0.00e+00	0	43	0	494927872	59	4800
2026-01-05 21:50:41.62	97.46	13.96	-43.7	-46.2	18.1	0.00e+00	0	43	0	500170752	59	4668
2026-01-05 21:50:44.61	98.06	13.89	-43.8	-46.3	18.1	0.00e+00	0	44	0	506462208	59	4721
2026-01-05 21:50:47.60	98.65	13.82	-44.0	-46.5	17.8	0.00e+00	0	43	0	511705088	59	4842
2026-01-05 21:50:50.59	99.24	13.74	-44.2	-46.8	17.6	0.00e+00	0	43	0	516947968	59	4986
2026-01-05 21:50:53.59	99.83	13.67	-44.3	-46.9	17.4	0.00e+00	0	43	0	523239424	59	5090
2026-01-05 21:50:56.58	100.42	13.58	-43.9	-46.4	17.9	0.00e+00	0	43	0	528482304	59	4764
2026-01-05 21:50:59.57	101.00	13.50	-44.0	-46.6	17.8	0.00e+00	0	43	0	534773760	59	4878
2026-01-05 21:51:02.56	101.58	13.42	-43.8	-46.3	18.0	0.00e+00	0	43	0	540016640	59	4759
2026-01-05 21:51:05.57	102.16	13.33	-44.1	-46.6	17.7	0.00e+00	0	43	0	545259520	59	4898
2026-01-05 21:51:08.56	102.73	13.24	-44.4	-47.1	17.3	0.00e+00	0	43	0	551550976	59	5174
2026-01-05 21:51:11.54	103.30	13.15	-44.7	-47.5	16.9	0.00e+00	0	43	0	556793856	60	5118
2026-01-05 21:51:14.53	103.86	13.05	-44.7	-47.5	17.0	0.00e+00	0	43	0	562036736	60	5112
2026-01-05 21:51:17.52	104.43	12.95	-44.8	-47.6	16.8	0.00e+00	0	43	0	568328192	60	5210
2026-01-05 21:51:20.52	104.99	12.86	-44.9	-47.7	16.7	0.00e+00	0	43	0	573571072	60	5240
2026-01-05 21:51:23.51	105.54	12.75	-44.8	-47.6	16.8	0.00e+00	0	43	0	578813952	60	5172
2026-01-05 21:51:26.51	106.09	12.65	-44.9	-47.7	16.7	0.00e+00	0	43	0	585105408	60	5263
2026-01-05 21:51:29.51	106.64	12.55	-45.6	-48.8	15.6	0.00e+00	0	43	0	590348288	61	5650
2026-01-05 21:51:32.50	107.19	12.44	-46.0	-49.5	14.9	7.00e-07	0	43	0	595591168	62	5782
2026-01-05 21:51:35.49	107.73	12.33	-46.3	-49.9	14.6	0.00e+00	0	43	0	601882624	63	5667
2026-01-05 21:51:38.49	108.26	12.22	-46.6	-50.4	13.9	2.20e-06	0	43	0	607125504	64	5701
2026-01-05 21:51:41.48	108.80	12.11	-46.6	-50.3	14.0	6.80e-06	0	43	0	612368384	64	5609
2026-01-05 21:51:44.47	109.32	11.99	-46.2	-49.7	14.7	0.00e+00	0	43	0	618659840	64	5221
2026-01-05 21:51:47.46	109.85	11.88	-46.1	-49.5	15.0	0.00e+00	0	43	0	623902720	63	5410
2026-01-05 21:51:50.45	110.37	11.76	-46.1	-49.6	14.8	0.00e+00	0	43	0	629145600	63	5474
2026-01-05 21:51:53.44	110.88	11.64	-46.4	-50.0	14.4	7.00e-07	0	43	0	635437056	63	5734
2026-01-05 21:51:56.44	111.40	11.52	-46.6	-50.5	14.0	0.00e+00	0	43	0	640679936	63	6082
2026-01-05 21:51:59.43	111.91	11.40	-46.7	-50.5	13.8	3.80e-06	0	43	0	646971392	64	5774
2026-01-05 21:52:02.43	112.41	11.28	-46.0	-49.9	14.4	7.00e-07	0	43	0	652214272	64	5389
2026-01-05 21:52:05.42	112.91	11.15	-46.2	-49.9	14.5	0.00e+00	0	43	0	657457152	63	5712
2026-01-05 21:52:08.41	113.41	11.03	-46.2	-49.7	14.7	0.00e+00	0	43	0	663748608	63	5586
2026-01-05 21:52:11.40	113.90	10.90	-46.2	-49.6	14.8	2.20e-06	0	43	0	668991488	63	5478
2026-01-05 21:52:14.39	114.39	10.77	-45.9	-49.3	15.1	0.00e+00	0	43	0	674234368	63	5300
2026-01-05 21:52:17.39	114.87	10.64	-45.8	-49.0	15.3	0.00e+00	0	43	0	680525824	63	5151
2026-01-05 21:52:20.39	115.35	10.51	-45.6	-48.7	15.6	0.00e+00	0	43	0	685768704	62	5261
2026-01-05 21:52:23.38	115.83	10.38	-45.7	-49.0	15.3	0.00e+00	0	43	0	691011584	62	5424
2026-01-05 21:52:26.37	116.30	10.25	-45.8	-49.2	15.2	0.00e+00	0	43	0	697303040	62	5545
2026-01-05 21:52:29.36	116.77	10.12	-45.7	-49.0	15.4	0.00e+00	0	43	0	702545920	62	5407
2026-01-05 21:52:32.36	117.23	9.98	-45.3	-48.4	15.9	0.00e+00	0	44	0	707788800	62	5042
2026-01-05 21:52:35.35	117.69	9.85	-44.9	-48.0	16.3	0.00e+00	0	43	0	714080256	61	5110
2026-01-05 21:52:38.35	118.14	9.71	-44.9	-47.8	16.5	0.00e+00	0	43	0	719323136	61	4998
2026-01-05 21:52:41.33	118.59	9.57	-45.3	-48.5	15.8	0.00e+00	0	43	0	724566016	61	5412
2026-01-05 21:52:44.33	119.04	9.44	-45.2	-48.4	15.8	0.00e+00	0	43	0	730857472	61	5365
2026-01-05 21:52:47.32	119.48	9.30	-45.1	-48.1	16.1	0.00e+00	0	44	0	736100352	61	5201
2026-01-05 21:52:50.31	119.92	9.16	-45.2	-48.3	15.9	0.00e+00	0	43	0	742391808	61	5327
2026-01-05 21:52:53.30	120.36	9.02	-45.2	-48.6	15.6	0.00e+00	0	44	0	747634688	61	5485
2026-01-05 21:52:56.30	120.79	8.88	-50.7	-65.9	3.8	1.49e+00	0	43	104	748683264	72	21486
2026-01-05 21:52:59.29	121.21	8.74	-50.7	-66.1	3.8	1.49e+00	0	43	104	748683264	72	21807
2026-01-05 21:53:02.29	121.64	8.60	-50.8	-66.1	3.8	1.49e+00	0	43	104	748683264	72	21903
2026-01-05 21:53:05.28	122.06	8.45	-50.7	-66.1	3.8	1.49e+00	0	43	104	748683264	72	22007
2026-01-05 21:53:08.27	122.47	8.31	-50.6	-66.2	3.8	1.49e+00	0	44	104	748683264	72	22030
2026-01-05 21:53:11.26	122.88	8.17	-50.4	-66.2	3.8	1.49e+00	0	43	104	748683264	72	22085
2026-01-05 21:53:14.26	123.29	8.03	-50.6	-66.2	3.8	1.49e+00	0	44	104	748683264	72	22170
2026-01-05 21:53:17.26	123.69	7.88	-50.6	-66.1	3.8	1.49e+00	0	43	104	748683264	72	21947
2026-01-05 21:53:20.25	124.09	7.74	-50.6	-66.1	3.8	1.49e+00	0	43	104	748683264	72	21983
2026-01-05 21:53:23.24	124.49	7.59	-50.6	-66.2	3.8	1.49e+00	0	43	104	748683264	72	22020
2026-01-05 21:53:26.24	124.88	7.45	-50.6	-66.1	3.8	1.49e+00	0	44	104	748683264	72	21889
2026-01-05 21:53:29.23	125.27	7.30	-50.6	-66.1	3.8	1.49e+00	0	43	104	748683264	72	21885
2026-01-05 21:53:32.22	125.65	7.16	-50.6	-66.1	3.8	1.49e+00	0	43	104	748683264	72	21900
2026-01-05 21:53:35.22	126.03	7.01	-50.6	-66.1	3.8	1.49e+00	0	43	104	748683264	72	21856
2026-01-05 21:53:38.22	126.41	6.86	-50.6	-66.1	3.8	1.49e+00	0	43	104	748683264	72	21921
2026-01-05 21:53:41.21	126.78	6.72	-50.6	-66.1	3.8	1.49e+00	0	43	104	748683264	72	21908
2026-01-05 21:53:44.19	127.15	6.57	-50.6	-66.1	3.8	1.49e+00	0	44	104	748683264	72	21913
2026-01-05 21:53:47.18	127.52	6.43	-50.5	-66.1	3.8	1.49e+00	0	43	104	748683264	72	21812
2026-01-05 21:53:50.18	127.88	6.28	-50.6	-66.1	3.8	1.49e+00	0	43	104	748683264	72	21929
2026-01-05 21:53:53.17	128.24	6.13	-50.5	-66.1	3.8	1.49e+00	0	43	104	748683264	72	21869
2026-01-05 21:53:56.17	128.60	5.99	-50.5	-66.1	3.8	1.49e+00	0	44	104	748683264	72	21835
2026-01-05 21:53:59.16	128.95	5.84	-50.5	-66.1	3.8	1.49e+00	0	43	104	748683264	72	21909
2026-01-05 21:54:02.16	129.30	5.69	-50.6	-66.1	3.8	1.49e+00	0	43	104	748683264	72	21776
2026-01-05 21:54:05.15	129.64	5.54	-50.5	-66.1	3.8	1.49e+00	0	43	104	748683264	72	21906
2026-01-05 21:54:08.13	129.98	5.40	-50.6	-66.1	3.8	1.49e+00	0	44	104	748683264	72	21773
2026-01-05 21:54:11.13	130.32	5.25	-50.5	-66.1	3.8	1.49e+00	0	44	104	748683264	72	21862
2026-01-05 21:54:14.13	130.66	5.10	-50.5	-66.1	3.8	1.49e+00	0	44	104	748683264	72	21831
2026-01-05 21:54:17.12	130.99	4.96	-50.5	-66.1	3.8	1.49e+00	0	43	104	748683264	72	21840

#Closed at: 2026-01-05 21:54:18
#Recorded file [748 MB]: D:/Data/31040_260106_004451.dat