passes_logs/2026/01/05/T1/T1__20260105_203012_KHAYYAM_rec.log

#Pass ID: 20260105_203012_KHAYYAM
#Satellite: KHAYYAM
#Configuration: KHAYYAM_480M
#almurnet v.1.7.20251203
#Start time: 2026-01-05 20:30:13

#Version: 2.0.20230620
#Station: T1
#Location: 37.570604 lon 55.790049 lat
#TLE: 1 53370U 22096A   26004.98139009  .00006788  00000+0  27713-3 0  9999
#TLE: 2 53370  97.3567 272.1699 0001220  86.7448 273.3929 15.24719201189718

#Time	Az	El	Level	Level2	SNR	BER	BlckErr	Temp	State	Recorded	gain1	gain2
2026-01-05 20:30:13.97	26.48	5.02	-50.9	-54.2	3.5	0.00e+00	0	43	0	0	72	22310
2026-01-05 20:30:15.97	26.65	5.16	-50.9	-54.3	3.7	0.00e+00	0	43	104	0	72	22390
2026-01-05 20:30:17.97	26.83	5.31	-50.9	-54.3	3.7	0.00e+00	0	44	104	0	72	22450
2026-01-05 20:30:19.98	27.01	5.46	-50.9	-54.3	3.7	0.00e+00	0	44	104	0	72	22470
2026-01-05 20:30:21.99	27.19	5.61	-50.9	-54.2	3.7	0.00e+00	0	44	104	0	72	22261
2026-01-05 20:30:24.00	27.38	5.77	-50.9	-54.3	3.7	0.00e+00	0	44	104	0	72	22401
2026-01-05 20:30:26.01	27.57	5.92	-50.9	-54.2	3.7	0.00e+00	0	44	104	0	72	22354
2026-01-05 20:30:28.02	27.76	6.07	-50.9	-54.2	3.7	0.00e+00	0	45	104	0	72	22269
2026-01-05 20:30:30.03	27.95	6.23	-50.9	-54.2	3.7	0.00e+00	0	45	104	0	72	22311
2026-01-05 20:30:32.04	28.14	6.39	-50.9	-54.2	3.7	0.00e+00	0	45	104	0	72	22363
2026-01-05 20:30:34.04	28.34	6.54	-50.9	-54.2	3.7	0.00e+00	0	45	104	0	72	22308
2026-01-05 20:30:36.05	28.54	6.70	-50.9	-54.2	3.7	0.00e+00	0	45	104	0	72	22261
2026-01-05 20:30:38.06	28.74	6.86	-50.9	-54.2	3.7	0.00e+00	0	45	104	0	72	22307
2026-01-05 20:30:40.07	28.95	7.02	-50.9	-54.3	3.7	0.00e+00	0	45	104	0	72	22386
2026-01-05 20:30:42.08	29.15	7.18	-50.9	-54.2	3.7	0.00e+00	0	46	104	0	72	22329
2026-01-05 20:30:44.08	29.36	7.35	-50.9	-54.2	3.7	0.00e+00	0	46	104	0	72	22270
2026-01-05 20:30:46.09	29.58	7.51	-50.9	-54.2	3.7	0.00e+00	0	46	104	0	72	22321
2026-01-05 20:30:48.10	29.79	7.68	-50.9	-54.2	3.7	0.00e+00	0	46	104	0	72	22285
2026-01-05 20:30:50.11	30.01	7.84	-50.9	-54.2	3.7	0.00e+00	0	46	104	0	72	22292
2026-01-05 20:30:52.12	30.24	8.01	-50.9	-54.3	3.7	0.00e+00	0	46	104	0	72	22379
2026-01-05 20:30:54.12	30.46	8.18	-50.9	-54.2	3.7	0.00e+00	0	46	104	0	72	22358
2026-01-05 20:30:56.13	30.69	8.35	-50.9	-54.3	3.7	0.00e+00	0	46	104	0	72	22403
2026-01-05 20:30:58.14	30.92	8.52	-50.9	-54.2	3.7	0.00e+00	0	46	104	0	72	22334
2026-01-05 20:31:00.39	31.19	8.71	-50.9	-54.2	3.7	0.00e+00	0	46	104	0	72	22343
2026-01-05 20:31:02.60	31.45	8.91	-50.9	-54.2	3.7	0.00e+00	0	46	104	0	72	22272
2026-01-05 20:31:04.81	31.72	9.10	-50.6	-53.9	3.8	0.00e+00	0	47	104	0	72	21378
2026-01-05 20:31:06.88	31.97	9.28	-50.7	-53.9	3.7	0.00e+00	0	47	104	0	71	22848
2026-01-05 20:31:08.88	32.22	9.46	-51.7	-56.7	3.7	0.00e+00	0	47	104	0	73	28106
2026-01-05 20:31:10.89	32.48	9.64	-49.7	-52.6	3.6	0.00e+00	0	47	104	0	71	19631
2026-01-05 20:31:12.90	32.73	9.82	-50.0	-52.8	3.7	0.00e+00	0	47	104	0	71	20010
2026-01-05 20:31:14.91	33.00	10.00	-51.4	-54.8	3.7	0.00e+00	0	47	104	0	73	22502
2026-01-05 20:31:16.91	33.26	10.18	-52.5	-57.1	3.7	0.00e+00	0	47	104	0	75	26073
2026-01-05 20:31:18.92	33.53	10.37	-51.4	-54.7	3.7	0.00e+00	0	47	104	0	73	22289
2026-01-05 20:31:20.92	33.80	10.56	-52.7	-57.3	3.7	0.00e+00	0	47	104	0	75	26735
2026-01-05 20:31:22.93	34.08	10.74	-50.7	-53.9	3.8	0.00e+00	0	47	104	0	73	20218
2026-01-05 20:31:24.94	34.37	10.93	-53.0	-57.4	3.7	0.00e+00	0	47	104	0	76	25443
2026-01-05 20:31:26.94	34.65	11.12	-52.5	-56.2	3.7	0.00e+00	0	47	104	0	75	23424
2026-01-05 20:31:28.95	34.94	11.32	-51.0	-54.0	3.8	0.00e+00	0	47	104	0	74	19282
2026-01-05 20:31:30.96	35.24	11.51	-49.6	-52.1	3.6	0.00e+00	0	47	104	0	71	18455
2026-01-05 20:31:32.96	35.54	11.70	-49.3	-51.9	3.6	0.00e+00	0	47	104	0	69	20226
2026-01-05 20:31:34.97	35.85	11.90	-50.3	-52.9	3.9	0.00e+00	0	47	104	0	72	19125
2026-01-05 20:31:36.97	36.16	12.10	-46.8	-48.5	4.0	0.00e+00	0	47	104	0	65	17209
2026-01-05 20:31:38.97	36.47	12.30	-45.6	-47.1	3.8	0.00e+00	0	47	104	0	62	17449
2026-01-05 20:31:40.98	36.79	12.50	-47.2	-49.0	3.6	0.00e+00	0	47	104	0	65	18358
2026-01-05 20:31:42.98	37.12	12.70	-46.9	-48.7	3.7	0.00e+00	0	47	104	0	64	18648
2026-01-05 20:31:44.99	37.45	12.91	-50.2	-52.6	3.6	0.00e+00	0	48	104	0	70	20637
2026-01-05 20:31:47.00	37.79	13.11	-48.5	-50.5	3.6	0.00e+00	0	48	104	0	67	19413
2026-01-05 20:31:49.00	38.13	13.32	-48.6	-50.5	3.6	0.00e+00	0	48	104	0	68	18225
2026-01-05 20:31:51.01	38.48	13.53	-48.8	-50.8	3.6	0.00e+00	0	48	104	0	68	18994
2026-01-05 20:31:53.02	38.83	13.74	-49.2	-51.3	3.7	0.00e+00	0	48	104	0	69	18924
2026-01-05 20:31:55.02	39.19	13.95	-48.4	-50.3	3.6	0.00e+00	0	48	104	0	68	17919
2026-01-05 20:31:57.03	39.55	14.16	-49.3	-51.4	3.7	0.00e+00	0	48	104	0	69	19122
2026-01-05 20:31:59.04	39.93	14.38	-51.0	-53.8	3.7	0.00e+00	0	48	104	0	72	21151
2026-01-05 20:32:01.05	40.31	14.60	-51.7	-54.6	3.6	0.00e+00	0	48	104	0	74	20855
2026-01-05 20:32:03.05	40.69	14.81	-52.8	-56.4	3.7	0.00e+00	0	48	104	0	76	22681
2026-01-05 20:32:05.06	41.08	15.03	-52.5	-55.7	3.7	0.00e+00	0	48	104	0	75	22364
2026-01-05 20:32:07.06	41.48	15.25	-53.0	-56.7	3.7	0.00e+00	0	48	104	0	76	23471
2026-01-05 20:32:09.07	41.89	15.48	-53.3	-57.2	3.7	0.00e+00	0	48	104	0	77	23609
2026-01-05 20:32:11.08	42.30	15.70	-53.4	-57.5	3.7	0.00e+00	0	48	104	0	77	24435
2026-01-05 20:32:13.08	42.72	15.93	-53.5	-57.7	3.7	0.00e+00	0	48	104	0	78	23479
2026-01-05 20:32:15.09	43.15	16.15	-53.5	-57.9	3.7	0.00e+00	0	48	104	0	78	24051
2026-01-05 20:32:17.09	43.58	16.38	-51.9	-55.2	3.7	0.00e+00	0	48	104	0	75	20885
2026-01-05 20:32:19.19	44.04	16.62	-52.4	-56.0	3.7	0.00e+00	0	48	104	0	75	22993
2026-01-05 20:32:21.20	44.50	16.85	-53.5	-57.9	3.7	0.00e+00	0	48	104	0	77	25480
2026-01-05 20:32:23.21	44.96	17.09	-53.3	-57.2	3.7	0.00e+00	0	48	104	0	77	23615
2026-01-05 20:32:25.21	45.42	17.32	-53.4	-57.4	3.7	0.00e+00	0	48	104	0	77	24160
2026-01-05 20:32:27.22	45.90	17.56	-53.4	-57.4	3.7	0.00e+00	0	48	104	0	77	23965
2026-01-05 20:32:29.23	46.38	17.79	-53.9	-58.3	3.7	0.00e+00	0	48	104	0	78	25261
2026-01-05 20:32:31.23	46.88	18.03	-53.8	-58.2	3.7	0.00e+00	0	48	104	0	78	24945
2026-01-05 20:32:33.24	47.38	18.27	-53.6	-57.7	3.7	0.00e+00	0	48	104	0	78	23687
2026-01-05 20:32:35.25	47.89	18.51	-53.5	-57.6	3.7	0.00e+00	0	48	104	0	78	23320
2026-01-05 20:32:37.25	48.41	18.75	-53.5	-57.8	3.7	0.00e+00	0	48	104	0	78	23759
2026-01-05 20:32:39.26	48.94	18.99	-53.3	-57.3	3.7	0.00e+00	0	48	104	0	78	22521
2026-01-05 20:32:41.26	49.48	19.24	-53.1	-57.0	3.7	0.00e+00	0	48	104	0	77	22921
2026-01-05 20:32:43.27	50.03	19.48	-53.0	-56.8	3.7	0.00e+00	0	48	104	0	77	22453
2026-01-05 20:32:45.27	50.59	19.72	-53.3	-57.5	3.7	0.00e+00	0	48	104	0	77	24259
2026-01-05 20:32:47.28	51.16	19.97	-53.3	-57.6	3.7	0.00e+00	0	48	104	0	77	24605
2026-01-05 20:32:49.29	51.74	20.21	-53.5	-58.1	3.7	0.00e+00	0	48	104	0	77	26220
2026-01-05 20:32:51.59	52.42	20.50	-53.6	-58.1	3.7	0.00e+00	0	48	104	0	77	26165
2026-01-05 20:32:53.94	53.13	20.79	-53.5	-57.7	3.7	0.00e+00	0	48	104	0	77	24926
2026-01-05 20:32:56.10	53.80	21.05	-53.5	-58.1	3.7	0.00e+00	0	48	104	0	77	26029
2026-01-05 20:32:58.29	54.48	21.32	-53.3	-57.7	3.7	0.00e+00	0	48	104	0	77	24902
2026-01-05 20:33:00.45	55.18	21.59	-53.8	-58.1	3.7	0.00e+00	0	49	104	0	78	24584
2026-01-05 20:33:02.62	55.88	21.85	-53.7	-58.4	3.7	0.00e+00	0	49	104	0	78	25386
2026-01-05 20:33:04.80	56.61	22.12	-53.6	-58.2	3.7	0.00e+00	0	49	104	0	78	24982
2026-01-05 20:33:06.98	57.35	22.38	-53.3	-57.3	3.7	0.00e+00	0	49	104	0	78	22392
2026-01-05 20:33:09.15	58.10	22.65	-53.3	-57.3	3.6	0.00e+00	0	49	104	0	78	22407
2026-01-05 20:33:11.30	58.85	22.91	-53.4	-57.7	3.7	0.00e+00	0	48	104	0	78	23638
2026-01-05 20:33:13.47	59.63	23.17	-54.0	-58.5	3.7	0.00e+00	0	49	104	0	78	25723
2026-01-05 20:33:15.62	60.42	23.43	-53.9	-58.4	3.7	0.00e+00	0	49	104	0	78	25436
2026-01-05 20:33:17.89	61.26	23.69	-53.7	-58.2	3.7	0.00e+00	0	48	104	0	78	25061
2026-01-05 20:33:20.05	62.08	23.95	-53.7	-58.1	3.7	0.00e+00	0	49	104	0	78	24669
2026-01-05 20:33:22.21	62.92	24.20	-53.7	-58.1	3.7	0.00e+00	0	49	104	0	78	24652
2026-01-05 20:33:24.36	63.76	24.45	-54.1	-58.4	3.7	0.00e+00	0	49	104	0	78	25482
2026-01-05 20:33:26.43	64.59	24.68	-54.0	-58.4	3.7	0.00e+00	0	49	104	0	78	25530
2026-01-05 20:33:28.45	65.41	24.91	-54.0	-58.5	3.7	0.00e+00	0	49	104	0	78	25841
2026-01-05 20:33:30.65	66.32	25.15	-53.9	-58.4	3.7	0.00e+00	0	49	104	0	78	25459
2026-01-05 20:33:32.65	67.16	25.37	-54.0	-58.4	3.7	0.00e+00	0	49	104	0	78	25667
2026-01-05 20:33:34.66	68.02	25.58	-54.0	-58.3	3.7	0.00e+00	0	49	104	0	78	25168
2026-01-05 20:33:36.67	68.89	25.79	-54.1	-58.6	3.7	0.00e+00	0	49	104	0	78	26087
2026-01-05 20:33:38.67	69.76	25.99	-54.0	-58.5	3.7	0.00e+00	0	49	104	0	78	25950
2026-01-05 20:33:40.68	70.66	26.20	-54.0	-58.5	3.7	0.00e+00	0	49	104	0	78	25764
2026-01-05 20:33:42.68	71.56	26.39	-54.0	-58.5	3.7	0.00e+00	0	49	104	0	78	25771
2026-01-05 20:33:44.69	72.48	26.58	-54.1	-58.5	3.7	0.00e+00	0	49	104	0	78	25780
2026-01-05 20:33:46.70	73.41	26.76	-54.0	-58.5	3.7	0.00e+00	0	49	104	0	78	25752
2026-01-05 20:33:48.72	74.36	26.94	-53.9	-58.5	3.7	0.00e+00	0	48	104	0	78	25741
2026-01-05 20:33:50.79	75.34	27.12	-53.8	-58.4	3.7	0.00e+00	0	49	104	0	78	25427
2026-01-05 20:33:52.80	76.31	27.29	-54.0	-58.5	3.7	0.00e+00	0	49	104	0	78	25762
2026-01-05 20:33:54.80	77.28	27.44	-54.0	-58.5	3.7	0.00e+00	0	49	104	0	78	25801
2026-01-05 20:33:56.81	78.27	27.59	-54.0	-58.6	3.7	0.00e+00	0	49	104	0	78	26003
2026-01-05 20:33:58.81	79.26	27.74	-53.9	-58.5	3.7	0.00e+00	0	49	104	0	78	25758
2026-01-05 20:34:00.82	80.27	27.87	-53.6	-58.4	3.7	0.00e+00	0	49	104	0	78	25423
2026-01-05 20:34:02.83	81.28	28.00	-53.4	-58.3	3.7	0.00e+00	0	49	104	0	78	25196
2026-01-05 20:34:04.83	82.30	28.12	-52.9	-58.0	3.7	0.00e+00	0	49	104	0	77	25810
2026-01-05 20:34:06.83	83.33	28.23	-52.9	-58.0	3.7	0.00e+00	0	49	104	0	77	25724
2026-01-05 20:34:08.84	84.37	28.33	-53.6	-58.3	3.7	0.00e+00	0	49	104	0	77	26658
2026-01-05 20:34:10.85	85.42	28.42	-53.5	-58.3	3.7	0.00e+00	0	49	104	0	77	26727
2026-01-05 20:34:12.85	86.47	28.51	-53.3	-58.0	3.7	0.00e+00	0	49	104	0	77	25847
2026-01-05 20:34:14.86	87.52	28.58	-53.7	-58.3	3.7	0.00e+00	0	49	104	0	77	26689
2026-01-05 20:34:16.86	88.58	28.65	-53.5	-58.2	3.7	0.00e+00	0	49	104	0	78	25086
2026-01-05 20:34:18.87	89.65	28.70	-53.7	-58.2	3.7	0.00e+00	0	49	104	0	78	25032
2026-01-05 20:34:20.88	90.73	28.75	-53.8	-58.5	3.7	0.00e+00	0	49	104	0	78	25681
2026-01-05 20:34:22.88	91.80	28.78	-53.6	-58.2	3.7	0.00e+00	0	49	104	0	78	25051
2026-01-05 20:34:24.89	92.87	28.81	-53.9	-58.3	3.7	0.00e+00	0	49	104	0	78	25364
2026-01-05 20:34:26.90	93.95	28.82	-54.0	-58.5	3.7	0.00e+00	0	49	104	0	78	25683
2026-01-05 20:34:28.90	95.03	28.83	-53.7	-58.0	3.7	0.00e+00	0	49	104	0	78	24498
2026-01-05 20:34:30.91	96.11	28.82	-53.7	-58.1	3.7	0.00e+00	0	49	104	0	78	24653
2026-01-05 20:34:32.91	97.18	28.81	-53.8	-58.0	3.7	0.00e+00	0	49	104	0	78	24451
2026-01-05 20:34:34.92	98.26	28.78	-53.3	-57.6	3.7	0.00e+00	0	49	104	0	78	23226
2026-01-05 20:34:36.92	99.33	28.74	-53.7	-58.2	3.7	0.00e+00	0	49	104	0	78	25072
2026-01-05 20:34:38.93	100.40	28.70	-53.9	-58.4	3.7	0.00e+00	0	49	104	0	78	25455
2026-01-05 20:34:40.93	101.47	28.64	-53.9	-58.4	3.7	0.00e+00	0	49	104	0	78	25414
2026-01-05 20:34:42.94	102.53	28.58	-53.9	-58.3	3.7	0.00e+00	0	49	104	0	78	25243
2026-01-05 20:34:44.94	103.59	28.50	-53.9	-58.4	3.7	0.00e+00	0	49	104	0	78	25640
2026-01-05 20:34:46.94	104.64	28.42	-53.9	-58.5	3.7	0.00e+00	0	49	104	0	78	25714
2026-01-05 20:34:48.95	105.69	28.33	-53.8	-58.4	3.7	0.00e+00	0	49	104	0	78	25452
2026-01-05 20:34:50.96	106.73	28.22	-53.7	-58.3	3.7	0.00e+00	0	49	104	0	78	25127
2026-01-05 20:34:52.97	107.76	28.11	-54.0	-58.2	3.7	0.00e+00	0	49	104	0	78	25078
2026-01-05 20:34:54.97	108.79	27.99	-53.8	-58.2	3.7	0.00e+00	0	49	104	0	78	24955
2026-01-05 20:34:56.98	109.80	27.86	-53.6	-58.2	3.7	0.00e+00	0	49	104	0	78	24834
2026-01-05 20:34:58.99	110.81	27.73	-53.8	-58.2	3.7	0.00e+00	0	49	104	0	78	25091
2026-01-05 20:35:00.99	111.81	27.58	-53.4	-58.1	3.7	0.00e+00	0	49	104	0	78	24580
2026-01-05 20:35:03.00	112.80	27.43	-53.6	-58.2	3.7	0.00e+00	0	49	104	0	78	24903
2026-01-05 20:35:05.01	113.78	27.27	-53.6	-58.1	3.7	0.00e+00	0	49	104	0	78	24741
2026-01-05 20:35:07.01	114.74	27.10	-53.7	-58.2	3.7	0.00e+00	0	49	104	0	78	25079
2026-01-05 20:35:09.02	115.70	26.93	-54.0	-58.4	3.7	0.00e+00	0	49	104	0	78	25501
2026-01-05 20:35:11.03	116.64	26.75	-53.9	-58.3	3.7	0.00e+00	0	49	104	0	78	25309
2026-01-05 20:35:13.03	117.57	26.57	-53.7	-58.3	3.7	0.00e+00	0	49	104	0	78	25131
2026-01-05 20:35:15.04	118.49	26.38	-53.6	-58.1	3.7	0.00e+00	0	49	104	0	77	26246
2026-01-05 20:35:17.04	119.40	26.18	-53.8	-58.1	3.7	0.00e+00	0	49	104	0	78	24738
2026-01-05 20:35:19.05	120.30	25.98	-54.0	-58.5	3.7	0.00e+00	0	49	104	0	78	25755
2026-01-05 20:35:21.06	121.18	25.77	-54.0	-58.4	3.7	0.00e+00	0	49	104	0	78	25485
2026-01-05 20:35:23.07	122.06	25.56	-54.1	-58.4	3.7	0.00e+00	0	49	104	0	78	25576
2026-01-05 20:35:25.08	122.92	25.34	-53.9	-58.3	3.7	0.00e+00	0	49	104	0	78	25259
2026-01-05 20:35:27.08	123.76	25.13	-53.4	-57.8	3.7	0.00e+00	0	49	104	0	78	23709
2026-01-05 20:35:29.09	124.59	24.90	-53.4	-57.7	3.7	0.00e+00	0	49	104	0	78	23472
2026-01-05 20:35:31.10	125.41	24.68	-53.8	-58.1	3.7	0.00e+00	0	49	104	0	78	24801
2026-01-05 20:35:33.11	126.22	24.45	-53.7	-58.0	3.7	0.00e+00	0	49	104	0	78	24497
2026-01-05 20:35:35.11	127.01	24.22	-53.3	-57.9	3.7	0.00e+00	0	49	104	0	78	23994
2026-01-05 20:35:37.12	127.80	23.98	-53.5	-58.0	3.7	0.00e+00	0	49	104	0	78	24436
2026-01-05 20:35:39.13	128.57	23.74	-53.8	-58.3	3.7	0.00e+00	0	49	104	0	78	25167
2026-01-05 20:35:41.14	129.32	23.50	-53.9	-58.3	3.7	0.00e+00	0	49	104	0	78	25101
2026-01-05 20:35:43.14	130.06	23.26	-53.7	-58.1	3.7	0.00e+00	0	49	104	0	78	24692
2026-01-05 20:35:45.15	130.80	23.02	-53.6	-58.1	3.7	0.00e+00	0	49	104	0	78	24549
2026-01-05 20:35:47.15	131.51	22.78	-53.5	-58.2	3.7	0.00e+00	0	49	104	0	78	24894
2026-01-05 20:35:49.16	132.22	22.53	-53.5	-58.0	3.7	0.00e+00	0	49	104	0	78	24371
2026-01-05 20:35:51.16	132.91	22.29	-53.7	-58.1	3.7	0.00e+00	0	49	104	0	78	24527
2026-01-05 20:35:53.17	133.59	22.04	-53.6	-58.0	3.7	0.00e+00	0	49	104	0	78	24345
2026-01-05 20:35:55.17	134.26	21.79	-53.4	-57.9	3.7	0.00e+00	0	49	104	0	78	24082
2026-01-05 20:35:57.35	134.97	21.52	-53.5	-57.9	3.7	0.00e+00	0	49	104	0	78	24222
2026-01-05 20:35:59.44	135.64	21.26	-53.8	-58.2	3.7	0.00e+00	0	49	104	0	78	24938
2026-01-05 20:36:01.47	136.28	21.01	-53.8	-58.2	3.7	0.00e+00	0	49	104	0	78	24978
2026-01-05 20:36:03.48	136.91	20.76	-53.7	-58.1	3.7	0.00e+00	0	49	104	0	78	24572
2026-01-05 20:36:05.49	137.52	20.52	-53.5	-58.0	3.7	0.00e+00	0	49	104	0	78	24333
2026-01-05 20:36:07.49	138.11	20.27	-53.5	-58.0	3.7	0.00e+00	0	49	104	0	78	24266
2026-01-05 20:36:09.50	138.70	20.02	-53.5	-58.1	3.7	0.00e+00	0	49	104	0	78	24682
2026-01-05 20:36:11.50	139.28	19.77	-53.5	-58.0	3.7	0.00e+00	0	49	104	0	78	24339
2026-01-05 20:36:13.51	139.85	19.53	-53.5	-57.9	3.7	0.00e+00	0	49	104	0	78	24042
2026-01-05 20:36:15.60	140.43	19.27	-53.7	-58.2	3.7	0.00e+00	0	49	104	0	78	24816
2026-01-05 20:36:17.67	140.99	19.02	-53.7	-58.1	3.7	0.00e+00	0	49	104	0	78	24798
2026-01-05 20:36:19.67	141.53	18.77	-53.0	-57.8	3.7	0.00e+00	0	49	104	0	78	23709
2026-01-05 20:36:21.68	142.05	18.53	-53.0	-57.7	3.7	0.00e+00	0	49	104	0	78	23651
2026-01-05 20:36:23.69	142.57	18.29	-53.0	-57.8	3.7	0.00e+00	0	49	104	0	77	25368
2026-01-05 20:36:25.69	143.08	18.05	-53.1	-57.9	3.7	0.00e+00	0	49	104	0	77	25417
2026-01-05 20:36:27.70	143.58	17.80	-53.4	-58.0	3.7	0.00e+00	0	49	104	0	77	25851
2026-01-05 20:36:29.70	144.07	17.57	-53.4	-58.1	3.7	0.00e+00	0	49	104	0	77	26058
2026-01-05 20:36:31.71	144.55	17.33	-53.6	-58.1	3.7	0.00e+00	0	49	104	0	77	26109
2026-01-05 20:36:33.71	145.02	17.09	-53.5	-58.1	3.7	0.00e+00	0	49	104	0	77	26008
2026-01-05 20:36:35.71	145.48	16.86	-53.4	-58.0	3.7	0.00e+00	0	49	104	0	77	25936
2026-01-05 20:36:37.72	145.94	16.62	-53.4	-58.0	3.7	0.00e+00	0	49	104	0	77	25950
2026-01-05 20:36:39.73	146.39	16.39	-52.9	-57.6	3.7	0.00e+00	0	49	104	0	77	24563
2026-01-05 20:36:41.74	146.83	16.16	-52.9	-57.5	3.7	0.00e+00	0	49	104	0	77	24349
2026-01-05 20:36:43.74	147.26	15.93	-53.6	-58.0	3.7	0.00e+00	0	49	104	0	77	25952
2026-01-05 20:36:45.75	147.68	15.70	-53.7	-58.1	3.7	0.00e+00	0	49	104	0	77	26099
2026-01-05 20:36:47.76	148.10	15.47	-53.1	-57.6	3.7	0.00e+00	0	49	104	0	77	24766
2026-01-05 20:36:49.77	148.51	15.25	-53.0	-57.7	3.7	0.00e+00	0	49	104	0	77	24872
2026-01-05 20:36:51.77	148.91	15.03	-53.3	-57.6	3.7	0.00e+00	0	49	104	0	77	24612
2026-01-05 20:36:53.78	149.31	14.80	-53.4	-57.7	3.7	0.00e+00	0	49	104	0	77	24812
2026-01-05 20:36:55.79	149.70	14.58	-52.7	-57.4	3.7	0.00e+00	0	49	104	0	77	24230
2026-01-05 20:36:57.79	150.08	14.36	-52.7	-57.4	3.7	0.00e+00	0	49	104	0	77	24096
2026-01-05 20:36:59.80	150.46	14.15	-52.8	-57.6	3.7	0.00e+00	0	49	104	0	77	24624
2026-01-05 20:37:01.83	150.83	13.93	-52.7	-57.5	3.7	0.00e+00	0	49	104	0	77	24393
2026-01-05 20:37:03.83	151.19	13.71	-52.9	-57.6	3.6	0.00e+00	0	49	104	0	77	24749
2026-01-05 20:37:05.84	151.55	13.50	-52.8	-57.6	3.7	0.00e+00	0	49	104	0	77	24524
2026-01-05 20:37:07.85	151.90	13.29	-52.7	-57.6	3.7	0.00e+00	0	49	104	0	77	24582
2026-01-05 20:37:09.85	152.25	13.08	-52.8	-57.6	3.7	0.00e+00	0	49	104	0	77	24778
2026-01-05 20:37:11.86	152.59	12.87	-52.8	-57.6	3.7	0.00e+00	0	49	104	0	77	24775
2026-01-05 20:37:13.87	152.92	12.67	-52.7	-57.5	3.7	0.00e+00	0	49	104	0	77	24459
2026-01-05 20:37:15.87	153.25	12.46	-52.4	-57.3	3.7	0.00e+00	0	49	104	0	76	25160
2026-01-05 20:37:17.88	153.57	12.26	-52.5	-57.4	3.7	0.00e+00	0	49	104	0	76	25671
2026-01-05 20:37:19.89	153.89	12.06	-52.9	-57.7	3.7	0.00e+00	0	50	104	0	76	26290
2026-01-05 20:37:21.89	154.20	11.86	-53.2	-57.8	3.7	0.00e+00	0	49	104	0	76	26835
2026-01-05 20:37:23.90	154.51	11.66	-53.1	-57.7	3.7	0.00e+00	0	49	104	0	77	25034
2026-01-05 20:37:25.90	154.81	11.46	-53.1	-57.7	3.7	0.00e+00	0	49	104	0	77	25034
2026-01-05 20:37:27.90	155.11	11.27	-52.9	-57.5	3.7	0.00e+00	0	49	104	0	77	24496
2026-01-05 20:37:29.91	155.40	11.07	-52.9	-57.7	3.7	0.00e+00	0	50	104	0	77	24859
2026-01-05 20:37:31.91	155.69	10.88	-53.2	-57.8	3.7	0.00e+00	0	49	104	0	77	25344
2026-01-05 20:37:33.92	155.98	10.69	-53.3	-57.9	3.7	0.00e+00	0	49	104	0	77	25569
2026-01-05 20:37:35.91	156.25	10.50	-53.2	-57.7	3.7	0.00e+00	0	49	104	0	77	24933
2026-01-05 20:37:37.91	156.53	10.31	-53.0	-57.6	3.7	0.00e+00	0	49	104	0	77	24779
2026-01-05 20:37:39.92	156.80	10.13	-52.9	-57.6	3.7	0.00e+00	0	49	104	0	77	24647
2026-01-05 20:37:41.92	157.07	9.94	-53.0	-57.6	3.7	0.00e+00	0	49	104	0	77	24632
2026-01-05 20:37:43.94	157.33	9.75	-53.0	-57.6	3.7	0.00e+00	0	50	104	0	77	24743
2026-01-05 20:37:45.94	157.59	9.57	-52.8	-57.5	3.7	0.00e+00	0	49	104	0	77	24347
2026-01-05 20:37:47.94	157.84	9.39	-53.1	-57.7	3.7	0.00e+00	0	49	104	0	77	25064
2026-01-05 20:37:49.93	158.09	9.21	-52.9	-57.5	3.7	0.00e+00	0	49	104	0	77	24425
2026-01-05 20:37:51.93	158.34	9.04	-52.9	-57.5	3.7	0.00e+00	0	50	104	0	77	24485
2026-01-05 20:37:53.93	158.59	8.86	-53.2	-57.8	3.7	0.00e+00	0	50	104	0	77	25338
2026-01-05 20:37:55.92	158.82	8.68	-53.0	-57.7	3.7	0.00e+00	0	49	104	0	76	26500
2026-01-05 20:37:57.92	159.06	8.51	-53.5	-58.2	3.7	0.00e+00	0	49	104	0	78	24990
2026-01-05 20:37:59.92	159.29	8.34	-53.6	-58.3	3.7	0.00e+00	0	49	104	0	78	25232
2026-01-05 20:38:01.92	159.52	8.17	-54.1	-58.5	3.7	0.00e+00	0	49	104	0	78	25696
2026-01-05 20:38:03.92	159.75	8.00	-54.1	-58.7	3.7	0.00e+00	0	50	104	0	79	24834
2026-01-05 20:38:05.92	159.97	7.83	-54.1	-58.5	3.7	0.00e+00	0	49	104	0	79	24468
2026-01-05 20:38:07.92	160.20	7.66	-53.9	-58.6	3.7	0.00e+00	0	49	104	0	79	24543
2026-01-05 20:38:09.92	160.41	7.49	-54.0	-58.5	3.7	0.00e+00	0	49	104	0	78	25890
2026-01-05 20:38:11.92	160.63	7.33	-54.0	-58.3	3.7	0.00e+00	0	49	104	0	79	23899
2026-01-05 20:38:13.91	160.84	7.16	-53.9	-58.2	3.7	0.00e+00	0	50	104	0	78	25074
2026-01-05 20:38:15.91	161.05	7.00	-53.9	-58.4	3.6	0.00e+00	0	50	104	0	78	25413
2026-01-05 20:38:17.92	161.25	6.84	-53.1	-57.8	3.7	0.00e+00	0	50	104	0	77	25136
2026-01-05 20:38:19.92	161.46	6.68	-53.2	-57.8	3.7	0.00e+00	0	50	104	0	77	25367
2026-01-05 20:38:21.92	161.66	6.52	-53.2	-57.8	3.7	0.00e+00	0	50	104	0	77	25380
2026-01-05 20:38:23.91	161.85	6.36	-53.2	-57.8	3.7	0.00e+00	0	49	104	0	77	25346
2026-01-05 20:38:25.91	162.05	6.20	-53.2	-57.9	3.7	0.00e+00	0	49	104	0	77	25415
2026-01-05 20:38:27.92	162.24	6.04	-53.2	-57.8	3.7	0.00e+00	0	49	104	0	77	25314
2026-01-05 20:38:29.92	162.43	5.89	-53.2	-57.8	3.7	0.00e+00	0	49	104	0	77	25283
2026-01-05 20:38:31.94	162.62	5.73	-53.2	-57.8	3.7	0.00e+00	0	49	104	0	77	25276
2026-01-05 20:38:33.97	162.81	5.58	-53.2	-57.8	3.7	0.00e+00	0	50	104	0	77	25265
2026-01-05 20:38:35.97	162.99	5.42	-53.2	-57.8	3.7	0.00e+00	0	50	104	0	77	25274
2026-01-05 20:38:37.98	163.17	5.27	-53.2	-57.8	3.7	0.00e+00	0	50	104	0	77	25216
2026-01-05 20:38:39.97	163.35	5.12	-53.2	-57.8	3.7	0.00e+00	0	49	104	0	77	25157

#Closed at: 2026-01-05 20:38:41
#Recorded file [0 MB]: D:/Data/31040_260105_233013.dat