passes_logs/2026/01/05/T1/T1__20260105_012347_NOAA_20_JPSS-1_rec.log

#Pass ID: 20260105_012347_NOAA 20 (JPSS-1)
#Satellite: NOAA 20 (JPSS-1)
#Configuration: NOAA 20
#almurnet v.1.7.20251203
#Start time: 2026-01-05 01:23:49

#Version: 2.0.20230620
#Station: T1
#Location: 37.570604 lon 55.790049 lat
#TLE: 1 43013U 17073A   26004.47528369  .00000132  00000+0  83671-4 0  9999
#TLE: 2 43013  98.7626 305.5264 0001854  54.5883 305.5466 14.19533142421242

#Time	Az	El	Level	Level2	SNR	BER	BlckErr	Temp	State	Recorded	gain1	gain2
2026-01-05 01:23:49.21	6.20	5.12	-53.6	-68.8	3.8	1.49e+00	0	37	0	0	77	22350
2026-01-05 01:23:52.22	5.95	5.30	-53.6	-68.7	3.8	1.49e+00	0	37	104	0	79	19839
2026-01-05 01:23:55.23	5.70	5.48	-53.5	-68.7	3.8	1.49e+00	0	37	104	0	79	19799
2026-01-05 01:23:58.24	5.45	5.66	-53.5	-68.8	3.8	1.49e+00	0	37	104	0	79	19864
2026-01-05 01:24:01.26	5.19	5.85	-53.5	-68.8	3.8	1.49e+00	0	37	104	0	79	19847
2026-01-05 01:24:04.27	4.93	6.03	-53.5	-68.7	3.8	1.49e+00	0	37	104	0	79	19837
2026-01-05 01:24:07.28	4.66	6.22	-53.5	-68.7	3.8	1.49e+00	0	37	104	0	78	20949
2026-01-05 01:24:10.29	4.40	6.40	-53.5	-68.8	3.8	1.49e+00	0	38	104	0	78	21040
2026-01-05 01:24:13.30	4.12	6.59	-53.5	-68.7	3.8	1.49e+00	0	38	104	0	78	20992
2026-01-05 01:24:16.32	3.85	6.78	-53.5	-68.7	3.8	1.49e+00	0	38	104	0	78	20961
2026-01-05 01:24:19.33	3.57	6.97	-53.5	-68.7	3.8	1.49e+00	0	38	104	0	78	20948
2026-01-05 01:24:22.34	3.29	7.15	-53.5	-68.8	3.8	1.49e+00	0	38	104	0	78	21038
2026-01-05 01:24:25.35	3.00	7.34	-53.5	-68.8	3.8	1.49e+00	0	38	104	0	78	21052
2026-01-05 01:24:28.36	2.71	7.53	-53.5	-68.8	3.8	1.49e+00	0	38	104	0	78	21056
2026-01-05 01:24:31.38	2.41	7.72	-53.5	-68.8	3.8	1.49e+00	0	38	104	0	78	21064
2026-01-05 01:24:34.39	2.11	7.92	-53.6	-68.8	3.8	1.49e+00	0	38	104	0	78	21066
2026-01-05 01:24:37.40	1.81	8.11	-53.6	-68.8	3.8	1.49e+00	0	38	104	0	78	21090
2026-01-05 01:24:40.42	1.50	8.30	-53.6	-68.7	3.8	1.49e+00	0	38	104	0	78	21005
2026-01-05 01:24:43.43	1.19	8.49	-53.6	-68.8	3.8	1.49e+00	0	38	104	0	78	21228
2026-01-05 01:24:46.44	0.88	8.69	-53.6	-68.8	3.8	1.49e+00	0	38	104	0	78	21116
2026-01-05 01:24:49.45	0.56	8.88	-53.7	-68.8	3.8	1.49e+00	0	38	104	0	78	21196
2026-01-05 01:24:52.47	0.23	9.08	-53.6	-68.8	3.8	1.49e+00	0	38	104	0	78	21091
2026-01-05 01:24:55.48	359.90	9.28	-53.7	-68.8	3.8	1.49e+00	0	39	104	0	78	21131
2026-01-05 01:24:58.49	359.57	9.47	-53.7	-68.8	3.8	1.49e+00	0	39	104	0	78	21233
2026-01-05 01:25:01.50	359.23	9.67	-53.7	-68.8	3.8	1.49e+00	0	39	104	0	78	21227
2026-01-05 01:25:04.52	358.89	9.87	-53.7	-68.8	3.8	1.49e+00	0	39	104	0	78	21120
2026-01-05 01:25:07.53	358.54	10.07	-53.7	-68.8	3.8	1.49e+00	0	39	104	0	78	21181
2026-01-05 01:25:10.54	358.19	10.27	-53.7	-68.8	3.8	1.49e+00	0	39	104	0	78	21167
2026-01-05 01:25:13.55	357.83	10.46	-53.7	-68.8	3.8	1.49e+00	0	39	104	0	78	21245
2026-01-05 01:25:16.57	357.47	10.67	-53.7	-68.9	3.8	1.49e+00	0	39	104	0	78	21303
2026-01-05 01:25:19.58	357.10	10.87	-53.7	-68.9	3.8	1.49e+00	0	39	104	0	78	21299
2026-01-05 01:25:22.59	356.72	11.07	-53.7	-68.9	3.8	1.49e+00	0	39	104	0	78	21329
2026-01-05 01:25:25.60	356.35	11.27	-53.7	-68.9	3.8	1.49e+00	0	39	104	0	78	21332
2026-01-05 01:25:28.62	355.96	11.47	-53.7	-68.9	3.8	1.49e+00	0	39	104	0	78	21315
2026-01-05 01:25:31.63	355.57	11.67	-53.7	-68.9	3.8	1.49e+00	0	39	104	0	78	21345
2026-01-05 01:25:34.64	355.18	11.87	-53.7	-68.9	3.8	1.49e+00	0	39	104	0	78	21277
2026-01-05 01:25:37.65	354.78	12.08	-53.7	-68.9	3.8	1.49e+00	0	39	104	0	78	21264
2026-01-05 01:25:40.66	354.37	12.28	-53.7	-68.9	3.8	1.49e+00	0	39	104	0	78	21368
2026-01-05 01:25:43.68	353.96	12.48	-53.7	-68.9	3.8	1.49e+00	0	39	104	0	78	21375
2026-01-05 01:25:46.69	353.54	12.69	-53.7	-68.9	3.8	1.49e+00	0	39	104	0	78	21371
2026-01-05 01:25:49.70	353.12	12.89	-53.7	-68.9	3.8	1.49e+00	0	39	104	0	78	21456
2026-01-05 01:25:52.72	352.68	13.10	-53.7	-68.9	3.8	1.49e+00	0	39	104	0	78	21302
2026-01-05 01:25:55.73	352.25	13.30	-53.7	-68.9	3.8	1.49e+00	0	39	104	0	78	21349
2026-01-05 01:25:58.74	351.81	13.50	-53.8	-68.9	3.8	1.49e+00	0	39	104	0	78	21367
2026-01-05 01:26:01.75	351.36	13.71	-53.8	-68.9	3.8	1.49e+00	0	39	104	0	78	21445
2026-01-05 01:26:04.76	350.90	13.91	-53.8	-68.9	3.8	1.49e+00	0	39	104	0	78	21439
2026-01-05 01:26:07.78	350.44	14.12	-53.8	-68.9	3.8	1.49e+00	0	39	104	0	78	21348
2026-01-05 01:26:10.79	349.97	14.32	-53.8	-68.9	3.8	1.49e+00	0	39	104	0	78	21354
2026-01-05 01:26:13.80	349.50	14.52	-53.8	-69.0	3.8	1.49e+00	0	39	104	0	78	21523
2026-01-05 01:26:16.82	349.02	14.73	-53.8	-68.9	3.8	1.49e+00	0	39	104	0	78	21431
2026-01-05 01:26:19.83	348.53	14.93	-53.9	-69.0	3.8	1.49e+00	0	40	104	0	78	21523
2026-01-05 01:26:22.84	348.03	15.13	-53.8	-68.9	3.8	1.49e+00	0	40	104	0	78	21431
2026-01-05 01:26:25.86	347.53	15.33	-53.8	-68.9	3.8	1.49e+00	0	39	104	0	78	21469
2026-01-05 01:26:28.87	347.02	15.53	-53.8	-68.9	3.8	1.49e+00	0	39	104	0	78	21457
2026-01-05 01:26:31.88	346.51	15.74	-53.8	-69.0	3.8	1.49e+00	0	40	104	0	78	21516
2026-01-05 01:26:34.90	345.98	15.94	-53.9	-69.0	3.8	1.49e+00	0	40	104	0	78	21569
2026-01-05 01:26:37.91	345.45	16.13	-53.9	-68.9	3.8	1.49e+00	0	40	104	0	78	21490
2026-01-05 01:26:40.92	344.92	16.33	-53.8	-69.0	3.8	1.49e+00	0	39	104	0	78	21623
2026-01-05 01:26:43.93	344.37	16.53	-53.7	-68.9	3.8	1.49e+00	0	40	104	0	78	21504
2026-01-05 01:26:46.95	343.82	16.73	-53.7	-68.9	3.8	1.49e+00	0	40	104	0	78	21485
2026-01-05 01:26:49.96	343.26	16.92	-53.9	-69.0	3.8	1.49e+00	0	40	104	0	78	21687
2026-01-05 01:26:52.97	342.70	17.11	-53.8	-69.0	3.8	1.49e+00	0	40	104	0	78	21515
2026-01-05 01:26:55.99	342.12	17.31	-53.7	-68.9	3.8	1.49e+00	0	40	104	0	78	21412
2026-01-05 01:26:59.00	341.54	17.50	-53.7	-68.9	3.8	1.49e+00	0	40	104	0	78	21476
2026-01-05 01:27:02.01	340.95	17.68	-53.8	-69.0	3.8	1.49e+00	0	40	104	0	78	21740
2026-01-05 01:27:05.02	340.36	17.87	-53.8	-69.0	3.8	1.49e+00	0	40	104	0	78	21747
2026-01-05 01:27:08.03	339.75	18.06	-53.8	-69.0	3.8	1.49e+00	0	40	104	0	78	21731
2026-01-05 01:27:11.05	339.14	18.24	-53.8	-69.1	3.8	1.49e+00	0	39	104	0	78	21779
2026-01-05 01:27:14.06	338.52	18.42	-53.9	-69.1	3.8	1.49e+00	0	40	104	0	78	21939
2026-01-05 01:27:17.07	337.90	18.60	-53.8	-69.1	3.8	1.49e+00	0	40	104	0	78	21844
2026-01-05 01:27:20.09	337.26	18.78	-53.9	-69.1	3.8	1.49e+00	0	40	104	0	78	21927
2026-01-05 01:27:23.10	336.62	18.95	-53.9	-69.1	3.8	1.49e+00	0	40	104	0	78	21879
2026-01-05 01:27:26.11	335.97	19.12	-54.0	-69.1	3.8	1.49e+00	0	40	104	0	78	21949
2026-01-05 01:27:29.12	335.32	19.29	-54.0	-69.2	3.8	1.49e+00	0	40	104	0	78	22019
2026-01-05 01:27:32.14	334.65	19.46	-53.9	-69.1	3.8	1.49e+00	0	40	104	0	78	21985
2026-01-05 01:27:35.15	333.98	19.62	-54.0	-69.2	3.8	1.49e+00	0	40	104	0	78	22079
2026-01-05 01:27:38.16	333.30	19.78	-53.9	-69.2	3.8	1.49e+00	0	40	104	0	78	22149
2026-01-05 01:27:41.17	332.62	19.94	-53.9	-69.2	3.8	1.49e+00	0	39	104	0	78	22054
2026-01-05 01:27:44.19	331.92	20.09	-54.0	-69.2	3.8	1.49e+00	0	40	104	0	78	22179
2026-01-05 01:27:47.20	331.23	20.24	-54.0	-69.2	3.8	1.49e+00	0	40	104	0	78	22193
2026-01-05 01:27:50.21	330.52	20.39	-54.0	-69.2	3.8	1.49e+00	0	40	104	0	78	22062
2026-01-05 01:27:53.22	329.81	20.53	-54.0	-69.2	3.8	1.49e+00	0	40	104	0	78	22234
2026-01-05 01:27:56.24	329.09	20.67	-54.1	-69.2	3.8	1.49e+00	0	40	104	0	78	22249
2026-01-05 01:27:59.25	328.36	20.81	-54.1	-69.3	3.8	1.49e+00	0	40	104	0	78	22326
2026-01-05 01:28:02.26	327.63	20.94	-54.1	-69.3	3.8	1.49e+00	0	40	104	0	78	22409
2026-01-05 01:28:05.27	326.89	21.06	-54.2	-69.3	3.8	1.49e+00	0	40	104	0	79	21222
2026-01-05 01:28:08.29	326.14	21.19	-54.2	-69.4	3.8	1.49e+00	0	40	104	0	79	21375
2026-01-05 01:28:11.30	325.39	21.30	-54.3	-69.4	3.8	1.49e+00	0	40	104	0	79	21416
2026-01-05 01:28:14.31	324.64	21.41	-54.3	-69.5	3.8	1.49e+00	0	40	104	0	79	21522
2026-01-05 01:28:17.32	323.88	21.52	-54.3	-69.5	3.8	1.49e+00	0	40	104	0	79	21525
2026-01-05 01:28:20.34	323.11	21.62	-54.4	-69.5	3.8	1.49e+00	0	40	104	0	79	21541
2026-01-05 01:28:23.35	322.34	21.72	-54.4	-69.5	3.8	1.49e+00	0	40	104	0	79	21510
2026-01-05 01:28:26.36	321.56	21.81	-54.4	-69.5	3.8	1.49e+00	0	40	104	0	79	21636
2026-01-05 01:28:29.37	320.78	21.90	-54.4	-69.4	3.8	1.49e+00	0	40	104	0	79	21503
2026-01-05 01:28:32.39	319.99	21.98	-53.5	-68.5	3.8	1.49e+00	0	40	104	0	78	20522
2026-01-05 01:28:35.40	319.20	22.06	-53.5	-68.5	3.8	1.49e+00	0	40	104	0	78	20521
2026-01-05 01:28:38.41	318.41	22.13	-53.5	-68.5	3.8	1.49e+00	0	40	104	0	78	20520
2026-01-05 01:28:41.43	317.61	22.19	-53.5	-68.5	3.8	1.49e+00	0	40	104	0	78	20525
2026-01-05 01:28:44.44	316.81	22.25	-53.5	-68.5	3.8	1.49e+00	0	40	104	0	78	20491
2026-01-05 01:28:47.45	316.01	22.30	-53.5	-68.5	3.8	1.49e+00	0	40	104	0	78	20484
2026-01-05 01:28:50.47	315.20	22.35	-53.5	-68.5	3.8	1.49e+00	0	40	104	0	78	20517
2026-01-05 01:28:53.48	314.39	22.39	-53.5	-68.6	3.8	1.49e+00	0	40	104	0	78	20590
2026-01-05 01:28:56.49	313.58	22.43	-53.5	-68.6	3.8	1.49e+00	0	40	104	0	78	20557
2026-01-05 01:28:59.50	312.77	22.46	-53.5	-68.5	3.8	1.49e+00	0	40	104	0	78	20463
2026-01-05 01:29:02.51	311.96	22.48	-53.4	-68.6	3.8	1.49e+00	0	40	104	0	78	20572
2026-01-05 01:29:05.53	311.14	22.49	-53.4	-68.5	3.8	1.49e+00	0	40	104	0	78	20438
2026-01-05 01:29:08.54	310.32	22.51	-53.4	-68.5	3.8	1.49e+00	0	40	104	0	78	20429
2026-01-05 01:29:11.55	309.51	22.51	-53.4	-68.5	3.8	1.49e+00	0	40	104	0	78	20464
2026-01-05 01:29:14.56	308.69	22.51	-53.4	-68.5	3.8	1.49e+00	0	40	104	0	78	20495
2026-01-05 01:29:17.58	307.88	22.50	-53.4	-68.5	3.8	1.49e+00	0	40	104	0	78	20420
2026-01-05 01:29:20.59	307.06	22.48	-53.3	-68.5	3.8	1.49e+00	0	40	104	0	78	20402
2026-01-05 01:29:23.60	306.25	22.46	-53.4	-68.5	3.8	1.49e+00	0	40	104	0	78	20435
2026-01-05 01:29:26.62	305.43	22.44	-53.4	-68.5	3.8	1.49e+00	0	40	104	0	78	20391
2026-01-05 01:29:29.63	304.62	22.40	-53.4	-68.5	3.8	1.49e+00	0	40	104	0	78	20508
2026-01-05 01:29:32.64	303.81	22.36	-53.4	-68.5	3.8	1.49e+00	0	40	104	0	78	20400
2026-01-05 01:29:35.65	303.01	22.32	-53.4	-68.5	3.8	1.49e+00	0	40	104	0	78	20480
2026-01-05 01:29:38.66	302.20	22.27	-53.4	-68.5	3.8	1.49e+00	0	40	104	0	78	20445
2026-01-05 01:29:41.68	301.40	22.21	-53.4	-68.5	3.8	1.49e+00	0	40	104	0	78	20401
2026-01-05 01:29:44.69	300.60	22.15	-53.4	-68.5	3.8	1.49e+00	0	40	104	0	78	20382
2026-01-05 01:29:47.71	299.80	22.08	-53.4	-68.5	3.8	1.49e+00	0	40	104	0	78	20361
2026-01-05 01:29:50.72	299.01	22.01	-53.4	-68.5	3.8	1.49e+00	0	40	104	0	78	20420
2026-01-05 01:29:53.73	298.22	21.93	-53.4	-68.5	3.8	1.49e+00	0	40	104	0	78	20471
2026-01-05 01:29:56.74	297.44	21.84	-53.4	-68.5	3.8	1.49e+00	0	40	104	0	78	20446
2026-01-05 01:29:59.75	296.66	21.75	-53.4	-68.5	3.8	1.49e+00	0	40	104	0	78	20354
2026-01-05 01:30:02.77	295.88	21.65	-53.4	-68.5	3.8	1.49e+00	0	40	104	0	78	20313
2026-01-05 01:30:05.78	295.11	21.55	-53.4	-68.5	3.8	1.49e+00	0	40	104	0	78	20325
2026-01-05 01:30:08.79	294.35	21.45	-53.4	-68.5	3.8	1.49e+00	0	40	104	0	78	20460
2026-01-05 01:30:11.80	293.59	21.34	-53.4	-68.5	3.8	1.49e+00	0	40	104	0	78	20414
2026-01-05 01:30:14.82	292.83	21.22	-53.4	-68.5	3.8	1.49e+00	0	40	104	0	78	20374
2026-01-05 01:30:17.83	292.09	21.10	-53.4	-68.5	3.8	1.49e+00	0	40	104	0	78	20400
2026-01-05 01:30:20.85	291.34	20.97	-53.4	-68.5	3.8	1.49e+00	0	40	104	0	78	20472
2026-01-05 01:30:23.86	290.61	20.84	-53.4	-68.5	3.8	1.49e+00	0	40	104	0	78	20417
2026-01-05 01:30:26.87	289.88	20.71	-53.4	-68.5	3.8	1.49e+00	0	40	104	0	78	20362
2026-01-05 01:30:29.88	289.15	20.57	-53.4	-68.5	3.8	1.49e+00	0	40	104	0	78	20374
2026-01-05 01:30:32.89	288.44	20.43	-53.4	-68.5	3.8	1.49e+00	0	40	104	0	78	20320
2026-01-05 01:30:35.90	287.73	20.29	-53.4	-68.5	3.8	1.49e+00	0	40	104	0	78	20360
2026-01-05 01:30:38.92	287.02	20.14	-53.4	-68.5	3.8	1.49e+00	0	40	104	0	78	20417
2026-01-05 01:30:41.93	286.33	19.98	-53.4	-68.5	3.8	1.49e+00	0	40	104	0	78	20304
2026-01-05 01:30:44.94	285.64	19.83	-53.4	-68.4	3.8	1.49e+00	0	40	104	0	78	20294
2026-01-05 01:30:47.96	284.95	19.67	-53.4	-68.5	3.8	1.49e+00	0	40	104	0	78	20307
2026-01-05 01:30:50.97	284.28	19.50	-53.4	-68.5	3.8	1.49e+00	0	40	104	0	78	20350
2026-01-05 01:30:53.98	283.61	19.34	-53.4	-68.5	3.8	1.49e+00	0	40	104	0	78	20319
2026-01-05 01:30:56.99	282.95	19.17	-53.4	-68.5	3.8	1.49e+00	0	40	104	0	78	20353
2026-01-05 01:31:00.01	282.30	19.00	-53.4	-68.5	3.8	1.49e+00	0	40	104	0	78	20425
2026-01-05 01:31:03.02	281.65	18.82	-53.4	-68.4	3.8	1.49e+00	0	40	104	0	78	20267
2026-01-05 01:31:06.03	281.01	18.65	-53.4	-68.5	3.8	1.49e+00	0	40	104	0	78	20333
2026-01-05 01:31:09.05	280.38	18.47	-53.4	-68.5	3.8	1.49e+00	0	41	104	0	78	20328
2026-01-05 01:31:12.06	279.76	18.29	-53.4	-68.5	3.8	1.49e+00	0	41	104	0	78	20370
2026-01-05 01:31:15.07	279.14	18.10	-53.4	-68.5	3.8	1.49e+00	0	40	104	0	78	20329
2026-01-05 01:31:18.09	278.53	17.92	-53.3	-68.5	3.8	1.49e+00	0	41	104	0	78	20369
2026-01-05 01:31:21.10	277.93	17.73	-53.3	-68.5	3.8	1.49e+00	0	40	104	0	78	20317
2026-01-05 01:31:24.11	277.34	17.54	-53.3	-68.5	3.8	1.49e+00	0	40	104	0	78	20405
2026-01-05 01:31:27.13	276.75	17.35	-53.3	-68.5	3.8	1.49e+00	0	41	104	0	78	20336
2026-01-05 01:31:30.14	276.17	17.16	-53.3	-68.5	3.8	1.49e+00	0	40	104	0	78	20321
2026-01-05 01:31:33.15	275.60	16.96	-53.3	-68.5	3.8	1.49e+00	0	40	104	0	78	20340
2026-01-05 01:31:36.16	275.04	16.77	-53.3	-68.5	3.8	1.49e+00	0	40	104	0	78	20348
2026-01-05 01:31:39.17	274.48	16.57	-53.3	-68.4	3.8	1.49e+00	0	41	104	0	78	20288
2026-01-05 01:31:42.19	273.93	16.38	-53.3	-68.5	3.8	1.49e+00	0	40	104	0	78	20354
2026-01-05 01:31:45.20	273.39	16.18	-53.3	-68.4	3.8	1.49e+00	0	40	104	0	78	20284
2026-01-05 01:31:48.21	272.85	15.98	-53.3	-68.4	3.8	1.49e+00	0	40	104	0	78	20276
2026-01-05 01:31:51.23	272.32	15.78	-53.3	-68.5	3.8	1.49e+00	0	40	104	0	78	20395
2026-01-05 01:31:54.24	271.80	15.58	-53.3	-68.5	3.8	1.49e+00	0	40	104	0	78	20326
2026-01-05 01:31:57.25	271.29	15.37	-53.4	-68.4	3.8	1.49e+00	0	40	104	0	78	20251
2026-01-05 01:32:00.26	270.78	15.17	-53.4	-68.5	3.8	1.49e+00	0	40	104	0	78	20417
2026-01-05 01:32:03.28	270.28	14.97	-53.4	-68.4	3.8	1.49e+00	0	40	104	0	78	20299
2026-01-05 01:32:06.29	269.79	14.77	-53.4	-68.5	3.8	1.49e+00	0	40	104	0	78	20307
2026-01-05 01:32:09.30	269.31	14.56	-53.4	-68.4	3.8	1.49e+00	0	41	104	0	78	20266
2026-01-05 01:32:12.32	268.82	14.36	-53.4	-68.4	3.8	1.49e+00	0	40	104	0	78	20199
2026-01-05 01:32:15.33	268.35	14.15	-53.4	-68.4	3.8	1.49e+00	0	40	104	0	78	20194
2026-01-05 01:32:18.34	267.89	13.95	-53.4	-68.5	3.8	1.49e+00	0	40	104	0	78	20308
2026-01-05 01:32:21.36	267.43	13.74	-53.4	-68.5	3.8	1.49e+00	0	40	104	0	78	20354
2026-01-05 01:32:24.37	266.97	13.54	-53.3	-68.5	3.8	1.49e+00	0	40	104	0	78	20319
2026-01-05 01:32:27.38	266.53	13.34	-53.3	-68.5	3.8	1.49e+00	0	40	104	0	78	20324
2026-01-05 01:32:30.40	266.08	13.13	-53.3	-68.5	3.8	1.49e+00	0	41	104	0	78	20356
2026-01-05 01:32:33.41	265.65	12.93	-53.3	-68.4	3.8	1.49e+00	0	41	104	0	78	20250
2026-01-05 01:32:36.42	265.22	12.72	-53.3	-68.4	3.8	1.49e+00	0	40	104	0	78	20286
2026-01-05 01:32:39.44	264.80	12.52	-53.3	-68.4	3.8	1.49e+00	0	41	104	0	78	20271
2026-01-05 01:32:42.45	264.38	12.31	-53.3	-68.4	3.8	1.49e+00	0	40	104	0	78	20239
2026-01-05 01:32:45.46	263.97	12.11	-53.3	-68.5	3.8	1.49e+00	0	41	104	0	78	20353
2026-01-05 01:32:48.48	263.56	11.90	-53.3	-68.4	3.8	1.49e+00	0	40	104	0	78	20276
2026-01-05 01:32:51.49	263.16	11.70	-53.3	-68.4	3.8	1.49e+00	0	40	104	0	78	20296
2026-01-05 01:32:54.50	262.77	11.50	-53.3	-68.4	3.8	1.49e+00	0	40	104	0	78	20239
2026-01-05 01:32:57.52	262.38	11.29	-53.3	-68.4	3.8	1.49e+00	0	41	104	0	78	20261
2026-01-05 01:33:00.53	262.00	11.09	-53.3	-68.4	3.8	1.49e+00	0	41	104	0	78	20279
2026-01-05 01:33:03.54	261.62	10.89	-53.3	-68.5	3.8	1.49e+00	0	41	104	0	78	20306
2026-01-05 01:33:06.56	261.25	10.69	-53.3	-68.5	3.8	1.49e+00	0	41	104	0	78	20408
2026-01-05 01:33:09.57	260.88	10.49	-53.3	-68.5	3.8	1.49e+00	0	41	104	0	78	20311
2026-01-05 01:33:12.58	260.52	10.29	-53.3	-68.5	3.8	1.49e+00	0	41	104	0	78	20429
2026-01-05 01:33:15.59	260.16	10.09	-53.3	-68.4	3.8	1.49e+00	0	41	104	0	78	20262
2026-01-05 01:33:18.61	259.81	9.89	-53.3	-68.5	3.8	1.49e+00	0	41	104	0	78	20405
2026-01-05 01:33:21.62	259.46	9.69	-53.3	-68.5	3.8	1.49e+00	0	41	104	0	78	20360
2026-01-05 01:33:24.63	259.12	9.49	-53.3	-68.5	3.8	1.49e+00	0	41	104	0	78	20371
2026-01-05 01:33:27.65	258.78	9.29	-53.3	-68.5	3.8	1.49e+00	0	41	104	0	78	20318
2026-01-05 01:33:30.66	258.45	9.10	-53.4	-68.5	3.8	1.49e+00	0	41	104	0	78	20367
2026-01-05 01:33:33.68	258.12	8.90	-53.4	-68.5	3.8	1.49e+00	0	40	104	0	78	20434
2026-01-05 01:33:36.69	257.79	8.71	-53.3	-68.5	3.8	1.49e+00	0	41	104	0	78	20406
2026-01-05 01:33:39.70	257.47	8.51	-53.3	-68.5	3.8	1.49e+00	0	40	104	0	78	20349
2026-01-05 01:33:42.71	257.16	8.32	-53.3	-68.5	3.8	1.49e+00	0	41	104	0	78	20334
2026-01-05 01:33:45.73	256.85	8.12	-53.4	-68.5	3.8	1.49e+00	0	41	104	0	78	20374
2026-01-05 01:33:48.74	256.54	7.93	-53.3	-68.5	3.8	1.49e+00	0	41	104	0	78	20336
2026-01-05 01:33:51.75	256.24	7.74	-53.3	-68.5	3.8	1.49e+00	0	41	104	0	78	20383
2026-01-05 01:33:54.76	255.94	7.55	-53.4	-68.5	3.8	1.49e+00	0	41	104	0	78	20353
2026-01-05 01:33:57.78	255.64	7.35	-53.4	-68.5	3.8	1.49e+00	0	41	104	0	78	20383
2026-01-05 01:34:00.79	255.35	7.16	-53.4	-68.5	3.8	1.49e+00	0	41	104	0	78	20391
2026-01-05 01:34:03.80	255.06	6.98	-53.4	-68.5	3.8	1.49e+00	0	41	104	0	78	20417
2026-01-05 01:34:06.82	254.78	6.79	-53.4	-68.5	3.8	1.49e+00	0	41	104	0	78	20337
2026-01-05 01:34:09.83	254.50	6.60	-53.4	-68.5	3.8	1.49e+00	0	41	104	0	78	20427
2026-01-05 01:34:12.84	254.22	6.41	-53.4	-68.5	3.8	1.49e+00	0	41	104	0	78	20404
2026-01-05 01:34:15.85	253.95	6.22	-53.4	-68.5	3.8	1.49e+00	0	41	104	0	78	20473
2026-01-05 01:34:18.87	253.68	6.04	-53.4	-68.5	3.8	1.49e+00	0	41	104	0	78	20376
2026-01-05 01:34:21.87	253.42	5.85	-53.4	-68.5	3.8	1.49e+00	0	41	104	0	78	20395
2026-01-05 01:34:24.89	253.16	5.67	-53.4	-68.5	3.8	1.49e+00	0	41	104	0	78	20388
2026-01-05 01:34:27.90	252.90	5.49	-53.4	-68.5	3.8	1.49e+00	0	41	104	0	78	20381
2026-01-05 01:34:30.92	252.64	5.30	-53.4	-68.5	3.8	1.49e+00	0	41	104	0	78	20419
2026-01-05 01:34:33.93	252.39	5.12	-53.4	-68.5	3.8	1.49e+00	0	41	104	0	78	20352

#Closed at: 2026-01-05 01:34:36
#Recorded file [0 MB]: D:/Data/31040_260105_042349.dat