passes_logs/2025/01/16/PPK-1/PPK-1__20250116_105949_TY-39_rec.log

#Pass ID: 20250116_105949_TY-39
#Satellite: TY-39
#Configuration: TY-39
#almurnet v.1.7.20230919.trace
#Start time: 2025-01-16 10:59:49

#Version: 2.2.20231116
#Station: PPK-1
#Location: 158.6 lon 53.06666 lat
#TLE: 1 51832U 22019J   25015.85768058  .00003424  00000+0  17666-3 0  9994
#TLE: 2 51832  97.4094  86.0431 0008064 229.6608 130.3921 15.16972497159271

#Time	Az	El	Level	Level2	SNR	BER	BlckErr	Temp	State
2025-01-16 10:59:49.68	176.22	8.01	-65.5	-71.0	3.3	0.00e+00	0	45	0
2025-01-16 10:59:51.58	176.30	8.19	-65.7	-71.6	3.5	0.00e+00	0	46	104
2025-01-16 10:59:53.47	176.37	8.37	-65.4	-71.3	3.4	0.00e+00	0	46	104
2025-01-16 10:59:55.37	176.45	8.55	-64.9	-70.6	3.7	0.00e+00	0	46	104
2025-01-16 10:59:57.27	176.52	8.73	-64.6	-70.2	3.7	0.00e+00	0	47	104
2025-01-16 10:59:59.16	176.60	8.91	-64.5	-70.3	3.6	0.00e+00	0	47	104
2025-01-16 11:00:01.06	176.68	9.10	-64.6	-70.5	3.5	0.00e+00	0	47	104
2025-01-16 11:00:02.96	176.76	9.29	-64.8	-70.6	3.4	0.00e+00	0	48	104
2025-01-16 11:00:04.86	176.84	9.48	-65.0	-71.0	3.4	0.00e+00	0	48	104
2025-01-16 11:00:06.76	176.92	9.67	-65.0	-71.1	3.7	0.00e+00	0	48	104
2025-01-16 11:00:08.66	177.00	9.86	-65.1	-71.4	3.7	0.00e+00	0	49	104
2025-01-16 11:00:10.56	177.09	10.05	-65.1	-71.4	3.5	0.00e+00	0	49	104
2025-01-16 11:00:12.46	177.17	10.25	-65.5	-71.6	3.5	0.00e+00	0	49	104
2025-01-16 11:00:14.36	177.26	10.45	-66.0	-71.9	3.5	0.00e+00	0	50	104
2025-01-16 11:00:16.26	177.35	10.65	-66.3	-72.1	3.5	0.00e+00	0	50	104
2025-01-16 11:00:18.15	177.44	10.85	-66.6	-72.6	3.7	0.00e+00	0	50	104
2025-01-16 11:00:20.05	177.53	11.06	-66.9	-73.0	3.7	0.00e+00	0	51	104
2025-01-16 11:00:21.95	177.62	11.26	-67.2	-73.5	3.7	0.00e+00	0	51	104
2025-01-16 11:00:23.85	177.72	11.47	-67.4	-73.4	3.6	0.00e+00	0	51	104
2025-01-16 11:00:25.75	177.81	11.69	-67.6	-73.5	3.6	0.00e+00	0	51	104
2025-01-16 11:00:27.65	177.91	11.90	-67.7	-73.6	3.6	0.00e+00	0	51	104
2025-01-16 11:00:29.55	178.01	12.12	-67.6	-73.5	3.7	0.00e+00	0	52	104
2025-01-16 11:00:31.45	178.11	12.34	-67.5	-73.4	3.7	0.00e+00	0	52	104
2025-01-16 11:00:33.35	178.21	12.56	-67.5	-73.6	3.7	0.00e+00	0	52	104
2025-01-16 11:00:35.25	178.32	12.78	-67.5	-73.6	3.6	0.00e+00	0	53	104
2025-01-16 11:00:37.15	178.42	13.01	-67.6	-73.8	3.6	0.00e+00	0	53	104
2025-01-16 11:00:39.05	178.53	13.24	-67.5	-73.7	3.6	0.00e+00	0	53	104
2025-01-16 11:00:40.94	178.64	13.47	-67.5	-73.7	3.7	0.00e+00	0	53	104
2025-01-16 11:00:42.84	178.75	13.70	-67.6	-73.8	3.7	0.00e+00	0	54	104
2025-01-16 11:00:44.74	178.86	13.94	-67.6	-73.6	3.6	0.00e+00	0	54	104
2025-01-16 11:00:46.64	178.98	14.18	-67.6	-73.5	3.6	0.00e+00	0	54	104
2025-01-16 11:00:48.54	179.10	14.43	-67.6	-73.5	3.6	0.00e+00	0	54	104
2025-01-16 11:00:50.44	179.22	14.67	-54.6	-57.1	5.8	0.00e+00	678	55	104
2025-01-16 11:00:52.34	179.34	14.92	-55.9	-58.7	11.8	1.41e-03	0	55	0
2025-01-16 11:00:54.24	179.46	15.18	-53.5	-56.2	13.3	0.00e+00	0	55	0
2025-01-16 11:00:56.13	179.59	15.43	-55.8	-58.8	12.0	4.09e-04	0	55	0
2025-01-16 11:00:58.03	179.72	15.69	-51.6	-53.9	14.5	0.00e+00	0	56	0
2025-01-16 11:00:59.93	179.85	15.95	-51.8	-54.8	14.3	0.00e+00	0	56	0
2025-01-16 11:01:01.83	179.99	16.22	-51.8	-54.9	14.4	0.00e+00	0	56	0
2025-01-16 11:01:03.72	180.12	16.49	-51.8	-54.9	14.4	0.00e+00	0	56	0
2025-01-16 11:01:05.61	180.26	16.76	-51.8	-54.8	14.4	0.00e+00	0	57	0
2025-01-16 11:01:07.50	180.40	17.04	-51.7	-54.7	14.4	0.00e+00	0	57	0
2025-01-16 11:01:09.40	180.55	17.32	-51.7	-54.5	14.5	0.00e+00	0	57	0
2025-01-16 11:01:11.30	180.70	17.61	-51.5	-54.2	14.6	0.00e+00	0	57	0
2025-01-16 11:01:13.19	180.85	17.89	-51.3	-53.8	14.6	0.00e+00	0	58	0
2025-01-16 11:01:15.08	181.00	18.19	-51.2	-53.5	14.6	0.00e+00	0	58	0
2025-01-16 11:01:16.97	181.16	18.48	-51.1	-53.4	14.7	0.00e+00	0	58	0
2025-01-16 11:01:18.87	181.32	18.79	-51.1	-54.0	14.8	0.00e+00	0	58	0
2025-01-16 11:01:20.76	181.49	19.09	-51.0	-53.8	14.8	0.00e+00	0	59	0
2025-01-16 11:01:22.65	181.66	19.40	-51.0	-53.7	14.8	0.00e+00	0	59	0
2025-01-16 11:01:24.55	181.83	19.72	-50.9	-53.5	14.8	0.00e+00	0	59	0
2025-01-16 11:01:26.44	182.00	20.04	-50.7	-53.1	14.9	0.00e+00	0	59	0
2025-01-16 11:01:28.34	182.19	20.36	-50.6	-53.3	15.0	0.00e+00	0	59	0
2025-01-16 11:01:30.23	182.37	20.69	-50.4	-53.1	15.1	0.00e+00	0	60	0
2025-01-16 11:01:32.13	182.56	21.03	-50.4	-53.0	15.1	0.00e+00	0	60	0
2025-01-16 11:01:34.03	182.75	21.37	-50.3	-52.8	15.1	0.00e+00	0	60	0
2025-01-16 11:01:35.93	182.95	21.72	-50.2	-52.6	15.1	0.00e+00	0	60	0
2025-01-16 11:01:37.82	183.16	22.07	-50.1	-52.5	15.2	0.00e+00	0	60	0
2025-01-16 11:01:39.71	183.36	22.43	-50.1	-52.4	15.2	0.00e+00	0	60	0
2025-01-16 11:01:41.61	183.58	22.79	-49.8	-52.3	15.1	0.00e+00	0	60	0
2025-01-16 11:01:43.51	183.80	23.16	-49.7	-52.2	15.1	0.00e+00	0	61	0
2025-01-16 11:01:45.41	184.02	23.54	-49.6	-52.3	15.3	0.00e+00	0	61	0
2025-01-16 11:01:47.31	184.26	23.92	-49.5	-52.1	15.4	0.00e+00	0	61	0
2025-01-16 11:01:49.21	184.49	24.31	-49.4	-52.0	15.5	0.00e+00	0	61	0
2025-01-16 11:01:51.11	184.74	24.71	-49.3	-51.8	15.5	0.00e+00	0	62	0
2025-01-16 11:01:53.00	184.99	25.11	-49.2	-51.5	15.4	0.00e+00	0	62	0
2025-01-16 11:01:54.90	185.25	25.52	-47.9	-50.5	15.3	0.00e+00	0	62	0
2025-01-16 11:01:56.80	185.51	25.93	-47.8	-50.3	15.3	0.00e+00	0	62	0
2025-01-16 11:01:58.70	185.78	26.36	-47.8	-50.2	15.4	0.00e+00	0	62	0
2025-01-16 11:02:00.60	186.07	26.79	-47.7	-50.1	15.5	0.00e+00	0	62	0
2025-01-16 11:02:02.50	186.35	27.23	-47.7	-50.0	15.5	0.00e+00	0	62	0
2025-01-16 11:02:04.40	186.65	27.68	-47.5	-50.1	15.6	0.00e+00	0	62	0
2025-01-16 11:02:06.30	186.96	28.13	-47.3	-49.8	15.6	0.00e+00	0	62	0
2025-01-16 11:02:08.20	187.28	28.60	-47.2	-49.5	15.7	0.00e+00	0	62	0
2025-01-16 11:02:10.10	187.60	29.07	-47.1	-49.4	15.7	0.00e+00	0	62	0
2025-01-16 11:02:12.00	187.94	29.55	-47.1	-49.4	15.7	0.00e+00	0	63	0
2025-01-16 11:02:13.89	188.29	30.03	-46.9	-49.5	15.7	0.00e+00	0	63	0
2025-01-16 11:02:15.79	188.64	30.53	-46.7	-49.1	15.8	0.00e+00	0	63	0
2025-01-16 11:02:17.69	189.02	31.04	-46.6	-48.9	15.9	0.00e+00	0	63	0
2025-01-16 11:02:19.58	189.40	31.55	-46.6	-48.8	15.9	0.00e+00	0	63	0
2025-01-16 11:02:21.48	189.79	32.08	-46.5	-49.2	15.8	0.00e+00	0	63	0
2025-01-16 11:02:23.38	190.20	32.61	-46.4	-48.9	15.8	0.00e+00	0	63	0
2025-01-16 11:02:25.28	190.63	33.16	-46.2	-48.6	15.9	0.00e+00	0	63	0
2025-01-16 11:02:27.18	191.07	33.71	-46.1	-48.4	15.8	0.00e+00	0	64	0
2025-01-16 11:02:29.08	191.53	34.28	-46.1	-48.4	15.7	0.00e+00	0	64	0
2025-01-16 11:02:30.98	192.00	34.85	-46.0	-48.6	15.9	0.00e+00	0	64	0
2025-01-16 11:02:32.88	192.49	35.44	-45.8	-48.3	16.0	0.00e+00	0	64	0
2025-01-16 11:02:34.78	193.00	36.03	-45.7	-48.1	16.1	0.00e+00	0	64	0
2025-01-16 11:02:36.67	193.53	36.63	-45.7	-48.0	16.0	0.00e+00	0	64	0
2025-01-16 11:02:38.57	194.08	37.25	-45.6	-47.9	16.1	0.00e+00	0	64	0
2025-01-16 11:02:40.46	194.65	37.87	-45.4	-48.0	16.0	0.00e+00	0	64	0
2025-01-16 11:02:42.36	195.25	38.51	-45.3	-47.8	16.1	0.00e+00	0	64	0
2025-01-16 11:02:44.26	195.87	39.15	-45.3	-47.8	16.1	0.00e+00	0	65	0
2025-01-16 11:02:46.16	196.51	39.81	-45.2	-47.6	16.2	0.00e+00	0	65	0
2025-01-16 11:02:48.06	197.19	40.48	-45.1	-47.9	16.2	0.00e+00	0	65	0
2025-01-16 11:02:49.96	197.89	41.15	-45.0	-47.7	16.3	0.00e+00	0	65	0
2025-01-16 11:02:51.86	198.63	41.84	-45.1	-47.9	16.2	0.00e+00	0	65	0
2025-01-16 11:02:53.75	199.39	42.53	-45.0	-47.7	16.2	0.00e+00	0	65	0
2025-01-16 11:02:55.65	200.20	43.24	-44.8	-47.3	16.3	0.00e+00	0	66	0
2025-01-16 11:02:57.55	201.04	43.95	-44.9	-47.4	16.2	0.00e+00	0	66	0
2025-01-16 11:02:59.45	201.92	44.67	-46.2	-49.6	15.9	0.00e+00	0	66	0
2025-01-16 11:03:01.35	202.84	45.40	-46.5	-49.7	15.9	0.00e+00	0	66	0
2025-01-16 11:03:03.24	203.80	46.13	-46.1	-48.8	16.1	0.00e+00	0	66	0
2025-01-16 11:03:05.14	204.82	46.87	-46.5	-49.6	15.9	0.00e+00	0	66	0
2025-01-16 11:03:07.04	205.88	47.61	-47.0	-50.1	15.7	0.00e+00	0	66	0
2025-01-16 11:03:08.94	207.00	48.36	-46.3	-48.8	15.9	0.00e+00	0	66	0
2025-01-16 11:03:10.84	208.18	49.11	-46.2	-49.0	15.9	0.00e+00	0	66	0
2025-01-16 11:03:12.74	209.41	49.86	-46.9	-50.0	15.8	0.00e+00	0	66	0
2025-01-16 11:03:14.64	210.71	50.62	-46.5	-49.3	15.9	0.00e+00	0	66	0
2025-01-16 11:03:16.54	212.08	51.36	-45.8	-48.4	16.0	0.00e+00	0	67	0
2025-01-16 11:03:18.44	213.51	52.11	-46.5	-49.7	15.9	0.00e+00	0	67	0
2025-01-16 11:03:20.34	215.02	52.85	-46.3	-49.3	16.0	0.00e+00	0	67	0
2025-01-16 11:03:22.24	216.61	53.57	-45.9	-48.4	16.1	0.00e+00	0	67	0
2025-01-16 11:03:24.13	218.28	54.29	-46.0	-48.6	16.1	0.00e+00	0	67	0
2025-01-16 11:03:26.03	220.04	54.99	-46.5	-49.6	15.9	0.00e+00	0	67	0
2025-01-16 11:03:27.93	221.88	55.68	-46.4	-49.5	15.9	0.00e+00	0	67	0
2025-01-16 11:03:29.83	223.82	56.34	-46.2	-49.1	15.9	0.00e+00	0	67	0
2025-01-16 11:03:31.73	225.85	56.98	-47.3	-50.8	15.7	0.00e+00	0	67	0
2025-01-16 11:03:33.63	227.98	57.59	-47.9	-50.9	15.5	0.00e+00	0	67	0
2025-01-16 11:03:35.53	230.21	58.17	-48.1	-51.3	15.4	0.00e+00	0	67	0
2025-01-16 11:03:37.43	232.53	58.72	-48.3	-51.7	15.1	0.00e+00	0	67	0
2025-01-16 11:03:39.33	234.95	59.22	-49.2	-52.6	14.6	0.00e+00	0	67	0
2025-01-16 11:03:41.23	237.46	59.69	-51.6	-54.8	14.5	0.00e+00	0	68	0
2025-01-16 11:03:43.13	240.05	60.10	-52.3	-55.2	13.9	0.00e+00	0	68	0
2025-01-16 11:03:45.02	242.72	60.46	-52.9	-56.1	13.4	2.08e-05	0	68	0
2025-01-16 11:03:46.92	245.46	60.77	-53.4	-56.5	13.3	6.90e-06	0	68	0
2025-01-16 11:03:48.81	248.26	61.03	-54.0	-57.3	12.8	0.00e+00	0	68	0
2025-01-16 11:03:50.71	251.12	61.22	-54.8	-57.8	12.5	9.71e-05	0	68	0
2025-01-16 11:03:52.61	254.02	61.35	-55.6	-59.0	12.0	1.39e-04	0	68	0
2025-01-16 11:03:54.51	256.94	61.42	-59.0	-62.3	9.8	8.45e-03	0	68	0
2025-01-16 11:03:56.41	259.87	61.43	-57.2	-60.2	11.4	1.23e-03	0	68	0
2025-01-16 11:03:58.31	262.80	61.37	-57.7	-61.2	11.1	1.14e-03	0	68	0
2025-01-16 11:04:00.21	265.70	61.25	-57.5	-60.4	10.9	1.05e-03	0	68	0
2025-01-16 11:04:02.11	268.56	61.06	-58.0	-61.4	10.7	9.64e-04	0	69	0
2025-01-16 11:04:04.00	271.37	60.82	-58.4	-61.6	10.1	4.40e-03	0	68	0
2025-01-16 11:04:05.90	274.12	60.52	-59.0	-62.5	9.6	6.34e-03	0	69	0
2025-01-16 11:04:07.80	276.81	60.16	-58.6	-61.5	10.1	8.11e-03	0	69	0
2025-01-16 11:04:09.70	279.41	59.76	-59.3	-62.5	9.4	1.57e-02	0	69	0
2025-01-16 11:04:11.59	281.92	59.31	-59.0	-61.9	9.5	2.00e-02	0	69	0
2025-01-16 11:04:13.49	284.35	58.81	-58.2	-60.7	10.4	9.68e-03	0	69	0
2025-01-16 11:04:15.39	286.68	58.27	-57.2	-59.8	11.1	1.43e-03	0	69	0
2025-01-16 11:04:17.29	288.92	57.70	-57.2	-60.2	11.3	8.67e-04	0	69	0
2025-01-16 11:04:19.19	291.06	57.09	-57.4	-60.6	11.1	1.28e-03	0	69	0
2025-01-16 11:04:21.08	293.10	56.46	-57.1	-60.1	11.1	1.34e-03	0	69	0
2025-01-16 11:04:22.98	295.05	55.80	-56.2	-59.1	11.8	7.42e-04	0	69	0
2025-01-16 11:04:24.88	296.91	55.12	-55.4	-58.0	12.6	1.46e-04	0	69	0
2025-01-16 11:04:26.78	298.68	54.43	-56.0	-59.4	11.9	1.46e-04	0	69	0
2025-01-16 11:04:28.68	300.36	53.71	-55.6	-58.5	12.4	1.04e-04	0	69	0
2025-01-16 11:04:30.58	301.96	52.99	-54.1	-56.5	13.2	6.90e-06	0	70	0
2025-01-16 11:04:32.48	303.48	52.26	-53.9	-56.5	13.3	0.00e+00	0	69	0
2025-01-16 11:04:34.37	304.92	51.52	-53.8	-56.3	13.2	6.90e-06	0	69	0
2025-01-16 11:04:36.27	306.30	50.78	-52.7	-55.0	14.1	0.00e+00	0	69	0
2025-01-16 11:04:38.17	307.60	50.03	-52.1	-54.4	14.4	0.00e+00	0	69	0
2025-01-16 11:04:40.07	308.85	49.28	-52.0	-54.7	14.4	0.00e+00	0	70	0
2025-01-16 11:04:41.97	310.03	48.53	-51.7	-54.1	14.5	0.00e+00	0	70	0
2025-01-16 11:04:43.87	311.15	47.79	-51.2	-53.5	14.8	0.00e+00	0	70	0
2025-01-16 11:04:45.77	312.23	47.04	-51.0	-53.7	14.7	0.00e+00	0	70	0
2025-01-16 11:04:47.67	313.25	46.31	-51.0	-53.8	14.9	0.00e+00	0	70	0
2025-01-16 11:04:49.57	314.22	45.57	-50.6	-53.3	14.9	0.00e+00	0	70	0
2025-01-16 11:04:51.47	315.15	44.85	-49.9	-52.6	14.9	0.00e+00	0	70	0
2025-01-16 11:04:53.37	316.04	44.13	-49.9	-52.4	14.9	0.00e+00	0	70	0
2025-01-16 11:04:55.27	316.88	43.42	-50.1	-52.9	15.0	0.00e+00	0	70	0
2025-01-16 11:04:57.16	317.69	42.72	-49.6	-52.0	15.2	0.00e+00	0	70	0
2025-01-16 11:04:59.06	318.46	42.03	-49.6	-52.3	15.2	0.00e+00	0	70	0
2025-01-16 11:05:00.96	319.20	41.34	-49.6	-52.5	15.4	0.00e+00	0	70	0
2025-01-16 11:05:02.86	319.91	40.67	-49.5	-52.1	15.5	0.00e+00	0	70	0
2025-01-16 11:05:04.76	320.59	40.00	-49.4	-52.1	15.5	0.00e+00	0	70	0
2025-01-16 11:05:06.66	321.24	39.35	-49.1	-51.5	15.5	0.00e+00	0	70	0
2025-01-16 11:05:08.56	321.86	38.70	-49.2	-51.7	15.6	0.00e+00	0	70	0
2025-01-16 11:05:10.46	322.46	38.07	-49.3	-51.7	15.5	0.00e+00	0	70	0
2025-01-16 11:05:12.36	323.04	37.44	-49.3	-51.8	15.4	0.00e+00	0	70	0
2025-01-16 11:05:14.25	323.59	36.83	-47.9	-50.5	15.4	0.00e+00	0	70	0
2025-01-16 11:05:16.15	324.13	36.23	-48.2	-51.1	15.3	0.00e+00	0	70	0
2025-01-16 11:05:18.05	324.64	35.63	-47.9	-50.5	15.4	0.00e+00	0	70	0
2025-01-16 11:05:19.95	325.13	35.05	-48.0	-50.6	15.4	0.00e+00	0	70	0
2025-01-16 11:05:21.84	325.61	34.48	-48.1	-50.8	15.3	0.00e+00	0	70	0
2025-01-16 11:05:23.74	326.06	33.92	-48.1	-50.8	15.3	0.00e+00	0	71	0
2025-01-16 11:05:25.64	326.51	33.36	-48.2	-51.0	15.3	0.00e+00	0	71	0
2025-01-16 11:05:27.54	326.94	32.82	-48.1	-50.8	15.3	0.00e+00	0	71	0
2025-01-16 11:05:29.44	327.35	32.29	-48.2	-51.0	15.2	0.00e+00	0	71	0
2025-01-16 11:05:31.33	327.75	31.76	-48.3	-51.4	15.2	0.00e+00	0	71	0
2025-01-16 11:05:33.23	328.13	31.25	-48.5	-51.7	15.3	0.00e+00	0	71	0
2025-01-16 11:05:35.13	328.50	30.74	-48.3	-51.3	15.3	0.00e+00	0	71	0
2025-01-16 11:05:37.03	328.87	30.24	-48.4	-51.5	15.2	0.00e+00	0	71	0
2025-01-16 11:05:38.93	329.22	29.76	-48.4	-51.5	15.2	0.00e+00	0	71	0
2025-01-16 11:05:40.83	329.55	29.28	-48.6	-51.9	15.2	0.00e+00	0	71	0
2025-01-16 11:05:42.73	329.88	28.81	-48.9	-52.0	15.1	0.00e+00	0	71	0
2025-01-16 11:05:44.62	330.20	28.35	-49.0	-52.1	15.0	0.00e+00	0	71	0
2025-01-16 11:05:46.52	330.51	27.89	-48.7	-51.5	15.1	0.00e+00	0	71	0
2025-01-16 11:05:48.42	330.81	27.44	-48.8	-51.8	14.9	0.00e+00	0	71	0
2025-01-16 11:05:50.32	331.10	27.00	-49.0	-52.3	14.9	0.00e+00	0	71	0
2025-01-16 11:05:52.22	331.38	26.57	-49.3	-52.8	14.9	0.00e+00	0	71	0
2025-01-16 11:05:54.12	331.66	26.15	-49.3	-52.4	15.0	0.00e+00	0	71	0
2025-01-16 11:05:56.02	331.92	25.73	-49.1	-51.9	14.9	0.00e+00	0	71	0
2025-01-16 11:05:57.92	332.18	25.32	-49.2	-52.1	14.8	0.00e+00	0	71	0
2025-01-16 11:05:59.82	332.44	24.92	-49.3	-52.2	14.8	0.00e+00	0	71	0
2025-01-16 11:06:01.72	332.68	24.53	-49.5	-52.8	14.7	0.00e+00	0	71	0
2025-01-16 11:06:03.62	332.92	24.14	-49.7	-53.1	14.5	0.00e+00	0	71	0
2025-01-16 11:06:05.52	333.16	23.75	-49.7	-53.1	14.5	6.90e-06	0	71	0
2025-01-16 11:06:07.41	333.38	23.38	-49.7	-53.1	14.5	0.00e+00	0	72	0
2025-01-16 11:06:09.31	333.60	23.01	-49.7	-53.0	14.6	0.00e+00	0	71	0
2025-01-16 11:06:11.21	333.82	22.65	-49.7	-53.2	14.5	0.00e+00	0	71	0
2025-01-16 11:06:13.11	334.03	22.29	-51.0	-54.3	14.8	0.00e+00	0	71	0
2025-01-16 11:06:15.01	334.24	21.94	-51.2	-54.7	14.8	0.00e+00	0	71	0
2025-01-16 11:06:16.91	334.44	21.59	-51.5	-54.7	14.7	0.00e+00	0	72	0
2025-01-16 11:06:18.81	334.63	21.25	-51.6	-54.9	14.7	0.00e+00	0	72	0
2025-01-16 11:06:20.71	334.82	20.91	-51.4	-54.6	14.7	0.00e+00	0	72	0
2025-01-16 11:06:22.61	335.01	20.58	-51.4	-54.5	14.7	0.00e+00	0	72	0
2025-01-16 11:06:24.51	335.19	20.26	-51.4	-54.5	14.7	0.00e+00	0	72	0
2025-01-16 11:06:26.41	335.37	19.93	-51.7	-55.1	14.6	0.00e+00	0	72	0
2025-01-16 11:06:28.30	335.55	19.62	-51.8	-55.2	14.5	0.00e+00	0	72	0
2025-01-16 11:06:30.20	335.72	19.31	-51.9	-55.1	14.3	0.00e+00	0	72	0
2025-01-16 11:06:32.10	335.88	19.00	-52.2	-55.6	14.1	0.00e+00	0	72	0
2025-01-16 11:06:34.00	336.05	18.70	-52.1	-55.0	14.2	0.00e+00	0	72	0
2025-01-16 11:06:35.90	336.21	18.40	-52.0	-54.7	14.3	0.00e+00	0	72	0
2025-01-16 11:06:37.80	336.36	18.11	-52.0	-54.8	14.4	0.00e+00	0	72	0
2025-01-16 11:06:39.70	336.52	17.82	-67.9	-73.7	3.6	0.00e+00	0	72	104
2025-01-16 11:06:41.59	336.67	17.54	-68.0	-73.7	3.6	0.00e+00	0	71	104
2025-01-16 11:06:43.49	336.81	17.25	-67.8	-73.4	3.7	0.00e+00	0	72	104
2025-01-16 11:06:45.39	336.96	16.98	-67.8	-73.3	3.7	0.00e+00	0	72	104
2025-01-16 11:06:47.29	337.10	16.70	-67.7	-73.2	3.6	0.00e+00	0	72	104
2025-01-16 11:06:49.19	337.24	16.43	-67.8	-73.4	3.6	0.00e+00	0	72	104
2025-01-16 11:06:51.08	337.37	16.17	-67.9	-73.6	3.6	0.00e+00	0	71	104
2025-01-16 11:06:52.98	337.50	15.91	-67.9	-73.6	3.6	0.00e+00	0	71	104
2025-01-16 11:06:54.88	337.64	15.65	-67.8	-73.6	3.6	0.00e+00	0	72	104
2025-01-16 11:06:56.78	337.76	15.39	-67.8	-73.5	3.7	0.00e+00	0	71	104
2025-01-16 11:06:58.67	337.89	15.14	-67.8	-73.5	3.7	0.00e+00	0	72	104
2025-01-16 11:07:00.57	338.01	14.89	-67.6	-73.3	3.7	0.00e+00	0	71	104
2025-01-16 11:07:02.47	338.13	14.64	-67.5	-73.1	3.7	0.00e+00	0	72	104
2025-01-16 11:07:04.37	338.25	14.40	-67.4	-73.1	3.6	0.00e+00	0	71	104
2025-01-16 11:07:06.27	338.37	14.16	-67.5	-73.1	3.6	0.00e+00	0	72	104
2025-01-16 11:07:08.17	338.48	13.92	-67.6	-73.3	3.7	0.00e+00	0	71	104
2025-01-16 11:07:10.07	338.60	13.69	-67.7	-73.4	3.7	0.00e+00	0	71	104
2025-01-16 11:07:11.97	338.71	13.46	-67.8	-73.4	3.6	0.00e+00	0	71	104
2025-01-16 11:07:13.86	338.82	13.23	-67.7	-73.3	3.6	0.00e+00	0	71	104
2025-01-16 11:07:15.76	338.93	13.00	-67.7	-73.1	3.6	0.00e+00	0	71	104
2025-01-16 11:07:17.66	339.03	12.78	-67.7	-73.2	3.6	0.00e+00	0	71	104
2025-01-16 11:07:19.56	339.13	12.56	-67.7	-73.1	3.7	0.00e+00	0	71	104
2025-01-16 11:07:21.46	339.24	12.34	-67.7	-73.2	3.7	0.00e+00	0	71	104
2025-01-16 11:07:23.36	339.34	12.12	-67.7	-73.3	3.7	0.00e+00	0	71	104
2025-01-16 11:07:25.26	339.44	11.91	-67.7	-73.1	3.6	0.00e+00	0	71	104
2025-01-16 11:07:27.16	339.53	11.70	-67.7	-73.1	3.6	0.00e+00	0	72	104
2025-01-16 11:07:29.06	339.63	11.49	-67.7	-73.1	3.6	0.00e+00	0	71	104
2025-01-16 11:07:30.96	339.72	11.28	-67.7	-73.1	3.7	0.00e+00	0	71	104
2025-01-16 11:07:32.86	339.82	11.08	-67.7	-73.1	3.7	0.00e+00	0	71	104
2025-01-16 11:07:34.76	339.91	10.87	-67.7	-73.1	3.6	0.00e+00	0	71	104
2025-01-16 11:07:36.65	340.00	10.67	-67.6	-73.0	3.7	0.00e+00	0	71	104
2025-01-16 11:07:38.55	340.09	10.48	-67.6	-72.8	3.6	0.00e+00	0	71	104
2025-01-16 11:07:40.45	340.17	10.28	-67.6	-72.8	3.6	0.00e+00	0	71	104
2025-01-16 11:07:42.35	340.26	10.09	-67.6	-72.9	3.7	0.00e+00	0	71	104
2025-01-16 11:07:44.25	340.34	9.89	-67.6	-72.9	3.7	0.00e+00	0	71	104
2025-01-16 11:07:46.15	340.43	9.70	-67.6	-73.0	3.6	0.00e+00	0	71	104
2025-01-16 11:07:48.05	340.51	9.51	-67.6	-73.0	3.6	0.00e+00	0	71	104
2025-01-16 11:07:49.95	340.59	9.33	-67.6	-73.0	3.6	0.00e+00	0	71	104
2025-01-16 11:07:51.85	340.67	9.14	-67.5	-72.9	3.6	0.00e+00	0	71	104
2025-01-16 11:07:53.75	340.75	8.96	-67.5	-72.8	3.7	0.00e+00	0	71	104
2025-01-16 11:07:55.65	340.83	8.78	-67.6	-72.9	3.7	0.00e+00	0	71	104
2025-01-16 11:07:57.54	340.91	8.60	-67.6	-72.9	3.7	0.00e+00	0	71	104
2025-01-16 11:07:59.44	340.98	8.42	-67.6	-72.9	3.6	0.00e+00	0	72	104
2025-01-16 11:08:01.34	341.06	8.24	-67.5	-72.8	3.6	0.00e+00	0	71	104
2025-01-16 11:08:03.24	341.13	8.07	-67.2	-72.3	3.6	0.00e+00	0	71	104
2025-01-16 11:08:05.14	341.20	7.89	-65.8	-70.3	3.7	0.00e+00	0	71	104

#Closed at: 2025-01-16 11:08:05
#Recorded file [26021 MB]: D:/data/31015_250116_230638.dat