passes_logs/2025/01/01/X_MFTI_01/X_MFTI_01__20250101_234222_NOAA_20_rec.log

#Pass ID: 20250101_234222_NOAA 20
#Satellite: NOAA 20
#Configuration: NOAA 20
#Start time: 2025-01-01 23:42:16

#Version: 1.5.20200625
#Station: X_MFTI_01
#Location: 37.5186 lon 55.9291 lat
#TLE: 1 43013U 17073A   23362.44808611  .00000160  00000+0  96626-4 0  9996
#TLE: 2 43013  98.7331 297.9536 0000783  57.5916 302.5335 14.19555620316533

#Time	Az	El	Level	Level2	SNR	BER	Gain	Gain2
2025-01-01 23:42:16.71	31.06	67.65	-71.4	-95.3	3.7	14947845	99	56491
2025-01-01 23:42:17.12	31.20	67.83	-71.5	-95.3	3.8	14914154	99	56374
2025-01-01 23:42:17.52	31.33	68.00	-71.5	-95.4	3.8	14908279	99	56266
2025-01-01 23:42:17.92	31.46	68.18	-71.4	-95.3	3.8	14911445	99	56353
2025-01-01 23:42:18.34	31.60	68.36	-71.5	-95.5	3.8	14910957	99	56869
2025-01-01 23:42:18.76	31.75	68.55	-71.5	-95.4	3.9	14909713	99	56753
2025-01-01 23:42:19.17	31.89	68.73	-71.5	-95.4	3.9	14906257	99	56630
2025-01-01 23:42:19.59	32.04	68.92	-71.4	-95.4	3.8	14908676	99	56940
2025-01-01 23:42:20.01	32.19	69.10	-71.5	-95.5	3.8	14904563	99	56824
2025-01-01 23:42:20.42	32.35	69.29	-71.5	-95.4	3.9	14900207	99	56594
2025-01-01 23:42:20.82	32.50	69.46	-71.5	-95.4	3.9	14900413	99	56398
2025-01-01 23:42:21.24	32.66	69.65	-71.5	-95.5	3.8	14909599	99	56906
2025-01-01 23:42:21.65	32.82	69.83	-71.5	-95.5	3.8	14909599	99	56937
2025-01-01 23:42:22.08	32.99	70.03	-71.5	-95.4	3.9	14913078	99	56679
2025-01-01 23:42:22.49	33.16	70.21	-71.5	-95.4	3.8	14904617	99	56341
2025-01-01 23:42:22.89	33.33	70.39	-71.5	-95.5	3.8	14891769	99	57063
2025-01-01 23:42:23.33	33.52	70.58	-71.5	-95.4	3.8	14910568	99	56863
2025-01-01 23:42:23.74	33.69	70.77	-71.5	-95.4	3.9	14907005	99	56773
2025-01-01 23:42:24.16	33.88	70.96	-71.4	-95.4	3.8	14898925	99	56787
2025-01-01 23:42:24.56	34.06	71.14	-71.5	-95.5	3.8	14911949	99	56775
2025-01-01 23:42:24.99	34.26	71.33	-71.5	-95.5	3.9	14923927	99	56750
2025-01-01 23:42:25.42	34.46	71.52	-71.5	-95.5	3.8	14900085	99	56987
2025-01-01 23:42:25.82	34.66	71.70	-71.4	-95.3	3.8	14897613	99	56393
2025-01-01 23:42:26.24	34.86	71.89	-71.5	-95.4	3.8	14912475	99	56323
2025-01-01 23:42:26.64	35.07	72.07	-71.4	-95.3	3.9	14912399	99	56129
2025-01-01 23:42:27.06	35.28	72.26	-71.5	-95.4	3.8	14899726	99	56351
2025-01-01 23:42:27.48	35.50	72.45	-71.4	-95.3	3.8	14915611	99	56447
2025-01-01 23:42:27.88	35.72	72.63	-71.4	-95.3	3.8	14918571	99	56185
2025-01-01 23:42:28.31	35.96	72.82	-71.4	-95.3	3.8	14907501	99	56401
2025-01-01 23:42:28.73	36.19	73.01	-71.4	-95.3	3.8	14903266	99	56304
2025-01-01 23:42:29.13	36.42	73.19	-71.4	-95.3	3.8	14904075	99	56457
2025-01-01 23:42:29.56	36.68	73.39	-71.5	-95.4	3.8	14916740	99	56421
2025-01-01 23:42:29.96	36.92	73.57	-71.4	-95.3	3.8	14905303	99	56409
2025-01-01 23:42:30.37	37.17	73.75	-71.4	-95.3	3.8	14905303	99	56375
2025-01-01 23:42:30.78	37.43	73.94	-71.4	-95.5	3.8	14904907	99	57284
2025-01-01 23:42:31.20	37.70	74.13	-71.4	-95.4	3.9	14912590	99	57101
2025-01-01 23:42:31.60	37.97	74.31	-71.5	-95.4	3.9	14907478	99	56944
2025-01-01 23:42:32.01	38.25	74.49	-71.4	-95.4	3.8	14908988	99	57214
2025-01-01 23:42:32.41	38.53	74.67	-71.4	-95.5	3.8	14914459	99	57232
2025-01-01 23:42:32.81	38.81	74.85	-71.5	-95.5	3.9	14918746	99	57150
2025-01-01 23:42:33.24	39.13	75.05	-71.4	-95.4	3.8	14907760	99	56993
2025-01-01 23:42:33.66	39.44	75.24	-71.5	-95.5	3.8	14906982	99	57427
2025-01-01 23:42:34.06	39.75	75.42	-71.5	-95.5	3.8	14923034	99	57200
2025-01-01 23:42:34.46	40.07	75.60	-71.5	-95.6	3.9	14909179	99	57875
2025-01-01 23:42:34.86	40.40	75.78	-71.5	-95.5	3.8	14904319	99	57550
2025-01-01 23:42:35.29	40.75	75.97	-71.5	-95.6	3.8	14907806	99	58085
2025-01-01 23:42:35.71	41.12	76.16	-71.5	-95.6	3.9	14912979	99	57336
2025-01-01 23:42:36.13	41.49	76.34	-71.5	-95.6	3.8	14907745	99	57776
2025-01-01 23:42:36.54	41.86	76.53	-71.5	-95.7	3.8	14909385	99	58202
2025-01-01 23:42:36.95	42.24	76.71	-71.5	-95.6	3.8	14909385	99	58119
2025-01-01 23:42:37.37	42.65	76.90	-71.5	-95.7	3.8	14901885	99	58109
2025-01-01 23:42:37.78	43.05	77.08	-71.5	-95.7	3.8	14907989	99	58222
2025-01-01 23:42:38.20	43.48	77.26	-71.5	-95.6	3.8	14893394	99	57770
2025-01-01 23:42:38.62	43.92	77.45	-71.5	-95.6	3.8	14897270	99	57988
2025-01-01 23:42:39.03	44.36	77.63	-71.5	-95.7	3.8	14910339	99	58136
2025-01-01 23:42:39.46	44.84	77.82	-71.5	-95.6	3.8	14902809	99	57774
2025-01-01 23:42:39.88	45.32	78.00	-71.5	-95.6	3.8	14896858	99	58103
2025-01-01 23:42:40.30	45.82	78.18	-71.5	-95.5	3.8	14903594	99	57229
2025-01-01 23:42:40.71	46.32	78.36	-71.5	-95.5	3.9	14918014	99	56853
2025-01-01 23:42:41.13	46.85	78.54	-71.4	-95.3	3.8	14917655	99	56436
2025-01-01 23:42:41.55	47.40	78.72	-71.5	-95.5	3.8	14912086	99	57077
2025-01-01 23:42:41.96	47.95	78.90	-71.5	-95.5	3.9	14909828	99	56859
2025-01-01 23:42:42.40	48.57	79.09	-71.5	-95.4	3.9	14912635	99	56817
2025-01-01 23:42:42.81	49.16	79.26	-71.4	-95.4	3.8	14896194	99	57116
2025-01-01 23:42:43.23	49.78	79.44	-71.5	-95.5	3.8	14913574	99	57069
2025-01-01 23:42:43.63	50.40	79.61	-71.5	-95.5	3.8	14921333	99	56963
2025-01-01 23:42:44.03	51.04	79.77	-71.5	-95.5	3.8	14900901	99	56976
2025-01-01 23:42:44.44	51.71	79.94	-71.5	-95.5	3.8	14908546	99	56886
2025-01-01 23:42:44.84	52.39	80.11	-71.4	-95.4	3.8	14912582	99	56900
2025-01-01 23:42:45.27	53.15	80.28	-71.5	-95.3	3.8	14907951	99	55898
2025-01-01 23:42:45.69	53.91	80.45	-71.5	-95.6	3.8	14907951	99	58039
2025-01-01 23:42:46.10	54.69	80.61	-71.5	-95.6	3.8	14898666	99	58126
2025-01-01 23:42:46.52	55.51	80.78	-71.5	-95.6	3.8	14908462	99	58026
2025-01-01 23:42:46.92	56.33	80.94	-71.5	-95.6	3.9	14919464	99	57866
2025-01-01 23:42:47.36	57.25	81.11	-71.5	-95.6	3.8	14898872	99	58091
2025-01-01 23:42:47.77	58.15	81.26	-71.5	-95.6	3.8	14912780	99	57966
2025-01-01 23:42:48.19	59.10	81.42	-71.4	-95.5	3.8	14911209	99	57661
2025-01-01 23:42:48.59	60.04	81.57	-71.5	-95.7	3.8	14898925	99	58065
2025-01-01 23:42:48.99	61.02	81.72	-71.5	-95.6	3.8	14901046	99	58116
2025-01-01 23:42:49.40	62.05	81.86	-71.4	-95.5	3.8	14901084	99	57709
2025-01-01 23:42:49.83	63.18	82.02	-71.5	-95.6	3.8	14919822	99	58069
2025-01-01 23:42:50.24	64.29	82.16	-71.5	-95.6	3.8	14903900	99	57804
2025-01-01 23:42:50.66	65.48	82.30	-71.4	-95.5	3.8	14915176	99	57392
2025-01-01 23:42:51.06	66.65	82.43	-71.4	-95.4	3.8	14913383	99	56984
2025-01-01 23:42:51.48	67.92	82.57	-71.5	-95.5	3.8	14910919	99	57285
2025-01-01 23:42:51.88	69.18	82.70	-71.5	-95.5	3.8	14911376	99	57031
2025-01-01 23:42:52.28	70.48	82.82	-71.4	-95.4	3.8	14909858	99	57244
2025-01-01 23:42:52.70	71.89	82.94	-71.4	-95.5	3.8	14909858	99	57397
2025-01-01 23:42:53.11	73.32	83.06	-71.4	-95.5	3.9	14904495	99	57150
2025-01-01 23:42:53.52	74.79	83.17	-71.4	-95.4	3.9	14904495	99	56885
2025-01-01 23:42:53.93	76.32	83.28	-71.4	-95.5	3.8	14900939	99	57417
2025-01-01 23:42:54.33	77.85	83.38	-71.5	-95.5	3.8	14904228	99	57389
2025-01-01 23:42:54.75	79.52	83.48	-71.4	-95.4	3.8	14917671	99	57349
2025-01-01 23:42:55.15	81.15	83.57	-71.5	-95.5	3.8	14904563	99	57343
2025-01-01 23:42:55.55	82.83	83.66	-71.4	-95.4	3.8	14897407	99	57142
2025-01-01 23:42:55.96	84.59	83.74	-71.5	-95.6	3.8	14908683	99	58190
2025-01-01 23:42:56.38	86.45	83.82	-71.5	-95.7	3.8	14901748	99	58170
2025-01-01 23:42:56.80	88.35	83.89	-71.5	-95.7	3.8	14902389	99	58235
2025-01-01 23:42:57.21	90.24	83.95	-71.5	-95.6	3.8	14904121	99	57745
2025-01-01 23:42:57.62	92.18	84.01	-71.5	-95.6	3.8	14902732	99	57953
2025-01-01 23:42:58.05	94.25	84.06	-71.5	-95.6	3.9	14913658	99	57957
2025-01-01 23:42:58.47	96.30	84.10	-71.4	-95.4	3.8	14908241	99	57357
2025-01-01 23:42:58.88	98.33	84.14	-71.5	-95.6	3.8	14910133	99	57846
2025-01-01 23:42:59.30	100.43	84.17	-71.5	-95.7	3.9	14913314	99	58001
2025-01-01 23:42:59.72	102.55	84.19	-71.5	-95.7	3.8	14906562	99	58113
2025-01-01 23:43:00.14	104.68	84.20	-71.5	-95.5	3.8	14904235	99	57380
2025-01-01 23:43:00.54	106.71	84.20	-71.3	-95.2	3.8	14904235	99	56680
2025-01-01 23:43:00.97	108.90	84.20	-71.5	-95.6	3.9	14910705	99	57842
2025-01-01 23:43:01.39	111.03	84.19	-71.5	-95.6	3.9	14916137	99	57656
2025-01-01 23:43:01.80	113.10	84.17	-71.5	-95.6	3.8	14902694	99	58243
2025-01-01 23:43:02.21	115.15	84.14	-71.5	-95.7	3.8	14900932	99	58155
2025-01-01 23:43:02.62	117.18	84.11	-71.5	-95.7	3.9	14906799	99	57861
2025-01-01 23:43:03.02	119.14	84.07	-71.5	-95.6	3.8	14906295	99	57794
2025-01-01 23:43:03.44	121.16	84.02	-71.4	-95.5	3.8	14903144	99	57843
2025-01-01 23:43:03.86	123.15	83.96	-71.5	-95.6	3.8	14902404	99	57886
2025-01-01 23:43:04.27	125.05	83.90	-71.5	-95.6	3.8	14903579	99	57948
2025-01-01 23:43:04.69	126.96	83.83	-71.4	-95.2	3.8	14897079	99	56019
2025-01-01 23:43:05.11	128.82	83.75	-71.4	-95.4	3.8	14903053	99	56789
2025-01-01 23:43:05.52	130.59	83.67	-71.5	-95.4	3.8	14916030	99	56789
2025-01-01 23:43:05.93	132.31	83.58	-71.5	-95.5	3.8	14907859	99	56826
2025-01-01 23:43:06.34	133.99	83.49	-71.4	-95.4	3.8	14901428	99	56757
2025-01-01 23:43:06.76	135.66	83.39	-71.4	-95.4	3.8	14911422	99	56789
2025-01-01 23:43:07.18	137.27	83.28	-71.5	-95.5	3.8	14920982	99	56991
2025-01-01 23:43:07.58	138.76	83.18	-71.5	-95.5	3.8	14891983	99	57074
2025-01-01 23:43:07.98	140.21	83.07	-71.4	-95.4	3.8	14897140	99	57114
2025-01-01 23:43:08.40	141.67	82.95	-71.4	-95.4	3.8	14897140	99	57144
2025-01-01 23:43:08.81	143.05	82.83	-71.5	-95.4	3.8	14924736	99	56885
2025-01-01 23:43:09.25	144.49	82.69	-71.5	-95.5	3.8	14901351	99	57012
2025-01-01 23:43:09.66	145.77	82.56	-71.5	-95.5	3.8	14905586	99	57137
2025-01-01 23:43:10.08	147.04	82.43	-71.5	-95.5	3.9	14911827	99	56963
2025-01-01 23:43:10.48	148.21	82.29	-71.5	-95.4	3.9	14910247	99	56913
2025-01-01 23:43:10.90	149.39	82.15	-71.5	-95.4	3.8	14903160	99	56645
2025-01-01 23:43:11.32	150.53	82.00	-71.5	-95.5	3.8	14910095	99	56942
2025-01-01 23:43:11.73	151.60	81.86	-71.5	-95.5	3.8	14921630	99	56999
2025-01-01 23:43:12.14	152.64	81.71	-71.4	-95.4	3.9	14909027	99	56799
2025-01-01 23:43:12.54	153.61	81.56	-71.5	-95.4	3.8	14908164	99	56461
2025-01-01 23:43:12.95	154.57	81.41	-71.5	-95.4	3.8	14904609	99	56855
2025-01-01 23:43:13.35	155.48	81.26	-71.5	-95.5	3.8	14910140	99	57161
2025-01-01 23:43:13.76	156.38	81.10	-71.5	-95.5	3.8	14900444	99	56857
2025-01-01 23:43:14.18	157.26	80.94	-71.5	-95.5	3.8	14899612	99	57134
2025-01-01 23:43:14.58	158.08	80.78	-71.5	-95.5	3.8	14915397	99	57074
2025-01-01 23:43:14.98	158.86	80.63	-71.5	-95.4	3.8	14902381	99	56671
2025-01-01 23:43:15.40	159.66	80.46	-71.5	-95.5	3.8	14902381	99	57239
2025-01-01 23:43:15.82	160.43	80.29	-71.4	-95.4	3.8	14904067	99	57164
2025-01-01 23:43:16.23	161.15	80.12	-71.5	-95.5	3.8	14909362	99	57156
2025-01-01 23:43:16.64	161.85	79.95	-71.5	-95.5	3.8	14913436	99	57155
2025-01-01 23:43:17.05	162.53	79.78	-71.5	-95.5	3.8	14905158	99	57159
2025-01-01 23:43:17.47	163.20	79.61	-71.5	-95.4	3.8	14900222	99	56878
2025-01-01 23:43:17.87	163.82	79.44	-71.4	-95.4	3.8	14911972	99	56996
2025-01-01 23:43:18.29	164.44	79.26	-71.5	-95.5	3.9	14915969	99	56921
2025-01-01 23:43:18.69	165.02	79.09	-71.5	-95.4	3.8	14900260	99	56653
2025-01-01 23:43:19.11	165.61	78.92	-71.5	-95.5	3.8	14909706	99	56892
2025-01-01 23:43:19.54	166.19	78.73	-71.5	-95.5	3.9	14917076	99	56957
2025-01-01 23:43:19.96	166.74	78.55	-71.5	-95.5	3.8	14905021	99	56992
2025-01-01 23:43:20.36	167.24	78.38	-71.5	-95.5	3.8	14906295	99	57264
2025-01-01 23:43:20.76	167.73	78.20	-71.5	-95.6	3.8	14904563	99	58036
2025-01-01 23:43:21.18	168.23	78.02	-71.5	-95.6	3.9	14923339	99	57825
2025-01-01 23:43:21.60	168.72	77.84	-71.5	-95.6	3.8	14903549	99	57817
2025-01-01 23:43:22.00	169.17	77.66	-71.4	-95.6	3.8	14909202	99	58404
2025-01-01 23:43:22.43	169.64	77.47	-71.4	-95.6	3.8	14892204	99	58326
2025-01-01 23:43:22.83	170.06	77.30	-71.5	-95.6	3.9	14897705	99	57932
2025-01-01 23:43:23.23	170.47	77.12	-71.5	-95.6	3.9	14897705	99	57532
2025-01-01 23:43:23.63	170.87	76.94	-71.4	-95.4	3.8	14910072	99	57325
2025-01-01 23:43:24.05	171.27	76.75	-71.5	-95.5	3.8	14907897	99	57566
2025-01-01 23:43:24.47	171.67	76.57	-71.5	-95.5	3.9	14909797	99	57247
2025-01-01 23:43:24.87	172.03	76.39	-71.4	-95.4	3.8	14904037	99	57046
2025-01-01 23:43:25.27	172.39	76.21	-71.4	-95.4	3.8	14902046	99	57137
2025-01-01 23:43:25.69	172.76	76.02	-71.5	-95.5	3.8	14912422	99	57309
2025-01-01 23:43:26.12	173.12	75.83	-71.4	-95.5	3.8	14910995	99	57505
2025-01-01 23:43:26.52	173.45	75.65	-71.5	-95.5	3.8	14907592	99	57439
2025-01-01 23:43:26.94	173.78	75.46	-71.4	-95.5	3.8	14901870	99	57522
2025-01-01 23:43:27.34	174.09	75.28	-71.5	-95.4	3.9	14907524	99	56810
2025-01-01 23:43:27.76	174.41	75.09	-71.5	-95.5	3.8	14910140	99	57487
2025-01-01 23:43:28.18	174.72	74.90	-71.5	-95.5	3.8	14910270	99	57453
2025-01-01 23:43:28.59	175.02	74.72	-71.5	-95.5	3.8	14900596	99	57605
2025-01-01 23:43:29.00	175.30	74.53	-71.4	-95.4	3.8	14912223	99	57236
2025-01-01 23:43:29.41	175.59	74.35	-71.4	-95.5	3.8	14911735	99	57483
2025-01-01 23:43:29.82	175.86	74.16	-71.4	-95.5	3.8	14895042	99	57452
2025-01-01 23:43:30.25	176.14	73.97	-71.4	-95.5	3.8	14895042	99	57441
2025-01-01 23:43:30.68	176.41	73.77	-71.5	-95.5	3.8	14910148	99	57494
2025-01-01 23:43:31.10	176.67	73.58	-71.5	-95.4	3.8	14904525	99	56419
2025-01-01 23:43:31.50	176.92	73.40	-71.4	-95.3	3.8	14896125	99	56219
2025-01-01 23:43:31.91	177.16	73.22	-71.5	-95.4	3.8	14904846	99	56645
2025-01-01 23:43:32.32	177.40	73.03	-71.5	-95.4	3.8	14908241	99	56591
2025-01-01 23:43:32.73	177.63	72.84	-71.4	-95.4	3.8	14912696	99	56562
2025-01-01 23:43:33.16	177.87	72.65	-71.4	-95.3	3.8	14899909	99	56464
2025-01-01 23:43:33.57	178.09	72.46	-71.5	-95.4	3.8	14908203	99	56299
2025-01-01 23:43:33.97	178.30	72.28	-71.4	-95.3	3.9	14899353	99	56141
2025-01-01 23:43:34.38	178.51	72.10	-71.4	-95.2	3.8	14909912	99	55861
2025-01-01 23:43:34.80	178.72	71.91	-71.4	-95.4	3.8	14910995	99	56586
2025-01-01 23:43:35.20	178.92	71.73	-71.4	-95.3	3.8	14915107	99	56464
2025-01-01 23:43:35.62	179.13	71.54	-71.5	-95.4	3.8	14909698	99	56412
2025-01-01 23:43:36.02	179.32	71.36	-71.4	-95.3	3.8	14910812	99	56517
2025-01-01 23:43:36.44	179.51	71.17	-71.4	-95.4	3.8	14903816	99	56620
2025-01-01 23:43:36.86	179.70	70.98	-71.4	-95.3	3.9	14905303	99	56428
2025-01-01 23:43:37.29	179.89	70.79	-71.4	-95.3	3.8	14909492	99	56556
2025-01-01 23:43:37.70	180.07	70.60	-71.4	-95.3	3.8	14909492	99	56250
2025-01-01 23:43:38.12	180.25	70.42	-71.5	-95.4	3.8	14913131	99	56570

#Closed at: 2025-01-01 23:43:38