passes_logs/2025/01/01/X_MFTI_01/X_MFTI_01__20250101_095158_NOAA_20_rec.log

#Pass ID: 20250101_095158_NOAA 20
#Satellite: NOAA 20
#Configuration: NOAA 20
#Start time: 2025-01-01 09:51:54

#Version: 1.5.20200625
#Station: X_MFTI_01
#Location: 37.5186 lon 55.9291 lat
#TLE: 1 43013U 17073A   23362.44808611  .00000160  00000+0  96626-4 0  9996
#TLE: 2 43013  98.7331 297.9536 0000783  57.5916 302.5335 14.19555620316533

#Time	Az	El	Level	Level2	SNR	BER	Gain	Gain2
2025-01-01 09:51:54.02	125.42	68.27	-71.4	-95.3	3.7	14953285	99	56226
2025-01-01 09:51:54.44	125.11	68.42	-71.4	-95.3	3.8	14904350	99	56393
2025-01-01 09:51:54.86	124.79	68.58	-71.4	-95.3	3.8	14912101	99	56542
2025-01-01 09:51:55.27	124.48	68.74	-71.4	-95.3	3.8	14911087	99	56484
2025-01-01 09:51:55.69	124.15	68.90	-71.5	-95.5	3.8	14909667	99	57304
2025-01-01 09:51:56.11	123.82	69.05	-71.4	-95.5	3.9	14899848	99	57555
2025-01-01 09:51:56.52	123.49	69.21	-71.5	-95.6	3.8	14902481	99	57724
2025-01-01 09:51:56.94	123.14	69.36	-71.5	-95.6	3.8	14900619	99	57669
2025-01-01 09:51:57.36	122.79	69.52	-71.5	-95.6	3.8	14919296	99	57702
2025-01-01 09:51:57.78	122.44	69.67	-71.5	-95.5	3.9	14910194	99	57494
2025-01-01 09:51:58.19	122.09	69.83	-71.4	-95.3	3.8	14904815	99	56550
2025-01-01 09:51:58.61	121.72	69.98	-71.4	-95.3	3.8	14907409	99	56820
2025-01-01 09:51:59.03	121.35	70.13	-71.5	-95.5	3.9	14921707	99	56719
2025-01-01 09:51:59.45	120.97	70.29	-71.4	-95.4	3.9	14899597	99	56587
2025-01-01 09:51:59.86	120.59	70.44	-71.3	-95.2	3.8	14899597	99	56194
2025-01-01 09:52:00.28	120.20	70.59	-71.4	-95.4	3.8	14902450	99	56746
2025-01-01 09:52:00.70	119.80	70.74	-71.4	-95.4	3.8	14902450	99	56662
2025-01-01 09:52:01.11	119.41	70.89	-71.4	-95.4	3.8	14906249	99	56835
2025-01-01 09:52:01.53	119.00	71.04	-71.4	-95.4	3.8	14897453	99	56816
2025-01-01 09:52:01.95	118.58	71.19	-71.4	-95.4	3.8	14900436	99	56841
2025-01-01 09:52:02.37	118.15	71.34	-71.4	-95.4	3.9	14911880	99	56696
2025-01-01 09:52:02.78	117.73	71.48	-71.4	-95.4	3.8	14910232	99	56738
2025-01-01 09:52:03.20	117.29	71.63	-71.4	-95.4	3.8	14894996	99	56881
2025-01-01 09:52:03.62	116.84	71.78	-71.4	-95.4	3.8	14913757	99	56880
2025-01-01 09:52:04.03	116.40	71.92	-71.5	-95.4	3.9	14907630	99	56536
2025-01-01 09:52:04.45	115.94	72.06	-71.4	-95.4	3.8	14905937	99	56625
2025-01-01 09:52:04.87	115.47	72.21	-71.4	-95.4	3.8	14915100	99	56967
2025-01-01 09:52:05.28	115.00	72.35	-71.4	-95.4	3.8	14914512	99	56700
2025-01-01 09:52:05.70	114.51	72.49	-71.4	-95.4	3.8	14917190	99	56920
2025-01-01 09:52:06.12	114.02	72.63	-71.4	-95.3	3.8	14913711	99	56248
2025-01-01 09:52:06.54	113.51	72.77	-71.5	-95.4	3.8	14903129	99	56579
2025-01-01 09:52:06.95	113.01	72.90	-71.5	-95.4	3.9	14906867	99	56690
2025-01-01 09:52:07.37	112.49	73.04	-71.5	-95.5	3.8	14909591	99	57002
2025-01-01 09:52:07.79	111.96	73.18	-71.5	-95.5	3.8	14907913	99	56975
2025-01-01 09:52:08.21	111.42	73.31	-71.4	-95.4	3.8	14907440	99	56929
2025-01-01 09:52:08.62	110.89	73.44	-71.5	-95.4	3.8	14907348	99	56851
2025-01-01 09:52:09.04	110.33	73.57	-71.4	-95.4	3.8	14908767	99	56521
2025-01-01 09:52:09.46	109.76	73.71	-71.4	-95.4	3.8	14908767	99	56698
2025-01-01 09:52:09.87	109.20	73.83	-71.4	-95.4	3.8	14917259	99	56660
2025-01-01 09:52:10.29	108.62	73.96	-71.4	-95.4	3.9	14922584	99	56659
2025-01-01 09:52:10.71	108.02	74.09	-71.5	-95.4	3.9	14908203	99	56533
2025-01-01 09:52:11.13	107.41	74.21	-71.4	-95.4	3.8	14903663	99	56886
2025-01-01 09:52:11.55	106.80	74.34	-71.4	-95.4	3.8	14903442	99	56904
2025-01-01 09:52:11.96	106.19	74.45	-71.4	-95.3	3.8	14918640	99	56531
2025-01-01 09:52:12.38	105.55	74.58	-71.4	-95.2	3.8	14913841	99	55949
2025-01-01 09:52:12.79	104.92	74.69	-71.4	-95.3	3.8	14898536	99	56585
2025-01-01 09:52:13.21	104.27	74.81	-71.4	-95.3	3.8	14917869	99	56377
2025-01-01 09:52:13.62	103.62	74.92	-71.4	-95.3	3.8	14916549	99	56609
2025-01-01 09:52:14.04	102.94	75.03	-71.4	-95.3	3.8	14911247	99	56479
2025-01-01 09:52:14.46	102.25	75.14	-71.4	-95.3	3.8	14904708	99	56541
2025-01-01 09:52:14.88	101.55	75.25	-71.5	-95.5	3.8	14908950	99	57037
2025-01-01 09:52:15.29	100.86	75.36	-71.5	-95.5	3.9	14916488	99	56950
2025-01-01 09:52:15.71	100.14	75.46	-71.4	-95.4	3.8	14903350	99	56759
2025-01-01 09:52:16.13	99.41	75.56	-71.4	-95.5	3.8	14908920	99	57580
2025-01-01 09:52:16.54	98.69	75.66	-71.5	-95.5	3.8	14910903	99	57293
2025-01-01 09:52:16.96	97.94	75.76	-71.5	-95.5	3.8	14896049	99	57302
2025-01-01 09:52:17.38	97.17	75.86	-72.0	-95.9	3.8	14908950	99	56479
2025-01-01 09:52:17.79	96.42	75.95	-71.5	-95.5	3.8	14903381	99	57375
2025-01-01 09:52:18.21	95.64	76.04	-71.4	-95.4	3.8	14903381	99	56765
2025-01-01 09:52:18.63	94.84	76.13	-71.5	-95.4	3.8	14907081	99	56757
2025-01-01 09:52:19.05	94.04	76.21	-71.4	-95.3	3.8	14907081	99	56831
2025-01-01 09:52:19.46	93.24	76.30	-71.4	-95.4	3.8	14905784	99	56964
2025-01-01 09:52:19.88	92.42	76.38	-71.4	-95.4	3.9	14915840	99	56619
2025-01-01 09:52:20.30	91.59	76.45	-71.4	-95.3	3.9	14902816	99	56556
2025-01-01 09:52:20.72	90.74	76.53	-71.4	-95.4	3.8	14904449	99	56812
2025-01-01 09:52:21.13	89.91	76.60	-71.4	-95.4	3.8	14903457	99	56811
2025-01-01 09:52:21.55	89.05	76.67	-71.4	-95.4	3.8	14914619	99	56931
2025-01-01 09:52:21.97	88.18	76.74	-71.4	-95.3	3.8	14912864	99	56480
2025-01-01 09:52:22.39	87.29	76.80	-71.4	-95.3	3.8	14903976	99	56496
2025-01-01 09:52:22.81	86.41	76.86	-71.4	-95.4	3.8	14902206	99	56877
2025-01-01 09:52:23.22	85.53	76.92	-71.5	-95.6	3.8	14898452	99	57734
2025-01-01 09:52:23.64	84.62	76.97	-71.5	-95.6	3.8	14891593	99	57819
2025-01-01 09:52:24.06	83.71	77.02	-71.4	-95.5	3.8	14899841	99	57771
2025-01-01 09:52:24.48	82.79	77.07	-71.5	-95.6	3.8	14902496	99	57598
2025-01-01 09:52:24.89	81.89	77.12	-71.5	-95.6	3.9	14908195	99	57488
2025-01-01 09:52:25.31	80.95	77.16	-71.5	-95.5	3.8	14910636	99	57129
2025-01-01 09:52:25.72	80.04	77.19	-71.5	-95.6	3.8	14899261	99	57719
2025-01-01 09:52:26.14	79.09	77.23	-71.5	-95.6	3.8	14911415	99	57747
2025-01-01 09:52:26.56	78.14	77.26	-71.4	-95.5	3.8	14905921	99	57715
2025-01-01 09:52:26.98	77.19	77.29	-71.4	-95.4	3.8	14895446	99	57084
2025-01-01 09:52:27.39	76.25	77.31	-71.4	-95.5	3.8	14897003	99	57458
2025-01-01 09:52:27.81	75.29	77.33	-71.4	-95.5	3.9	14897003	99	57542
2025-01-01 09:52:28.23	74.32	77.35	-71.4	-95.4	3.8	14903518	99	56750
2025-01-01 09:52:28.65	73.36	77.37	-71.4	-95.4	3.8	14900146	99	56728
2025-01-01 09:52:29.06	72.41	77.38	-71.4	-95.4	3.8	14902473	99	56927
2025-01-01 09:52:29.48	71.44	77.39	-71.5	-95.4	3.9	14915725	99	56794
2025-01-01 09:52:29.90	70.47	77.39	-71.4	-95.3	3.8	14902389	99	56637
2025-01-01 09:52:30.32	69.50	77.39	-71.4	-95.4	3.8	14899887	99	56836
2025-01-01 09:52:30.73	68.55	77.39	-71.5	-95.4	3.8	14908355	99	56827
2025-01-01 09:52:31.15	67.58	77.38	-71.4	-95.4	3.8	14911483	99	56837
2025-01-01 09:52:31.57	66.61	77.37	-71.4	-95.4	3.8	14901672	99	56734
2025-01-01 09:52:31.98	65.66	77.36	-71.4	-95.3	3.8	14904899	99	56852
2025-01-01 09:52:32.40	64.70	77.34	-71.4	-95.4	3.8	14907608	99	56936
2025-01-01 09:52:32.81	63.76	77.32	-71.4	-95.3	3.9	14920700	99	56580
2025-01-01 09:52:33.23	62.80	77.29	-71.5	-95.6	3.8	14896736	99	57755
2025-01-01 09:52:33.65	61.84	77.27	-71.4	-95.5	3.8	14896736	99	57561
2025-01-01 09:52:34.07	60.89	77.24	-71.5	-95.6	3.8	14902496	99	57725
2025-01-01 09:52:34.48	59.97	77.20	-71.5	-95.5	3.9	14905364	99	57476
2025-01-01 09:52:34.90	59.03	77.17	-71.5	-95.5	3.8	14907531	99	57250
2025-01-01 09:52:35.32	58.09	77.12	-71.4	-95.5	3.8	14907310	99	57772
2025-01-01 09:52:35.74	57.17	77.08	-71.5	-95.5	3.8	14912719	99	57263
2025-01-01 09:52:36.16	56.25	77.03	-71.5	-95.6	3.8	14898590	99	57636
2025-01-01 09:52:36.57	55.35	76.98	-73.3	-97.3	3.8	14907485	99	56991
2025-01-01 09:52:36.99	54.45	76.93	-71.4	-95.5	3.8	14916893	99	57557
2025-01-01 09:52:37.41	53.55	76.87	-71.4	-95.5	3.8	14916893	99	57479
2025-01-01 09:52:37.83	52.66	76.81	-71.5	-95.6	3.8	14904403	99	57760
2025-01-01 09:52:38.24	51.80	76.75	-71.4	-95.3	3.8	14914459	99	56120
2025-01-01 09:52:38.66	50.92	76.68	-71.4	-95.3	3.8	14915771	99	56159
2025-01-01 09:52:39.08	50.06	76.62	-71.4	-95.3	3.9	14909263	99	56357
2025-01-01 09:52:39.49	49.23	76.55	-71.4	-95.3	3.8	14908645	99	56189
2025-01-01 09:52:39.91	48.38	76.47	-71.4	-95.3	3.8	14911865	99	56576
2025-01-01 09:52:40.33	47.54	76.39	-71.4	-95.3	3.8	14911743	99	56586
2025-01-01 09:52:40.75	46.72	76.31	-71.4	-95.3	3.8	14913070	99	56609
2025-01-01 09:52:41.17	45.90	76.23	-71.4	-95.3	3.8	14892501	99	56626
2025-01-01 09:52:41.58	45.12	76.15	-71.4	-95.3	3.8	14902801	99	56244
2025-01-01 09:52:42.00	44.32	76.06	-71.5	-95.3	3.8	14907814	99	56215
2025-01-01 09:52:42.42	43.54	75.97	-71.4	-95.3	3.8	14903846	99	56487
2025-01-01 09:52:42.84	42.76	75.87	-71.5	-95.4	3.8	14890579	99	56548
2025-01-01 09:52:43.25	42.02	75.78	-71.4	-95.4	3.8	14911537	99	57142
2025-01-01 09:52:43.67	41.26	75.68	-71.4	-95.4	3.8	14914955	99	56959
2025-01-01 09:52:44.09	40.52	75.58	-71.4	-95.4	3.9	14897979	99	56782
2025-01-01 09:52:44.50	39.81	75.48	-71.4	-95.3	3.8	14902824	99	56270
2025-01-01 09:52:44.92	39.09	75.38	-71.4	-95.4	3.8	14906967	99	56906
2025-01-01 09:52:45.34	38.38	75.27	-71.5	-95.4	3.8	14917343	99	56830
2025-01-01 09:52:45.75	37.69	75.17	-71.4	-95.4	3.8	14907135	99	56977
2025-01-01 09:52:46.17	37.00	75.06	-74.5	-98.3	3.8	14903289	99	55634
2025-01-01 09:52:46.59	36.32	74.94	-71.4	-95.3	3.8	14903289	99	56440
2025-01-01 09:52:47.01	35.66	74.83	-71.4	-95.3	3.9	14915107	99	56373
2025-01-01 09:52:47.42	35.01	74.72	-71.4	-95.3	3.8	14910530	99	56586
2025-01-01 09:52:47.84	34.37	74.60	-71.4	-95.3	3.8	14902778	99	56393
2025-01-01 09:52:48.25	33.75	74.48	-71.4	-95.4	3.8	14909378	99	56855
2025-01-01 09:52:48.67	33.12	74.36	-71.5	-95.4	3.9	14921493	99	56736
2025-01-01 09:52:49.09	32.50	74.24	-71.4	-95.3	3.8	14904060	99	56101
2025-01-01 09:52:49.50	31.91	74.12	-71.5	-95.4	3.8	14900382	99	56902
2025-01-01 09:52:49.92	31.31	73.99	-71.4	-95.4	3.8	14898033	99	56867
2025-01-01 09:52:50.34	30.72	73.86	-71.4	-95.4	3.8	14912269	99	56949
2025-01-01 09:52:50.76	30.15	73.73	-71.4	-95.4	3.8	14908027	99	56874
2025-01-01 09:52:51.17	29.59	73.61	-71.4	-95.3	3.7	14907608	99	56402
2025-01-01 09:52:51.59	29.03	73.47	-71.4	-95.4	3.8	14903266	99	56760
2025-01-01 09:52:52.01	28.48	73.34	-71.4	-95.4	3.9	14911132	99	56623
2025-01-01 09:52:52.43	27.94	73.21	-71.4	-95.4	3.8	14902893	99	56856
2025-01-01 09:52:52.84	27.43	73.07	-71.4	-95.4	3.8	14898178	99	56853
2025-01-01 09:52:53.26	26.90	72.94	-71.5	-95.5	3.8	14920425	99	57130
2025-01-01 09:52:53.68	26.39	72.80	-71.5	-95.5	3.9	14910446	99	56944
2025-01-01 09:52:54.10	25.88	72.66	-71.5	-95.4	3.9	14906242	99	56686
2025-01-01 09:52:54.51	25.40	72.52	-71.4	-95.4	3.8	14904731	99	57129
2025-01-01 09:52:54.93	24.91	72.38	-71.5	-95.5	3.9	14902290	99	56967
2025-01-01 09:52:55.35	24.43	72.24	-71.4	-95.4	3.9	14902496	99	56784
2025-01-01 09:52:55.77	23.96	72.10	-71.4	-95.4	3.8	14906585	99	57133
2025-01-01 09:52:56.18	23.51	71.95	-71.5	-95.5	3.8	14906585	99	57235
2025-01-01 09:52:56.60	23.05	71.81	-71.5	-95.5	3.8	14916923	99	57167
2025-01-01 09:52:57.02	22.60	71.66	-71.5	-95.4	3.9	14905570	99	56766
2025-01-01 09:52:57.44	22.16	71.52	-71.4	-95.4	3.8	14908096	99	56994
2025-01-01 09:52:57.85	21.74	71.37	-71.5	-95.5	3.8	14911476	99	56993
2025-01-01 09:52:58.27	21.31	71.22	-71.5	-95.7	3.8	14921821	99	57951
2025-01-01 09:52:58.69	20.89	71.07	-71.5	-95.6	3.8	14908569	99	57929
2025-01-01 09:52:59.11	20.48	70.92	-71.5	-95.6	3.8	14891471	99	57949
2025-01-01 09:52:59.53	20.07	70.77	-71.5	-95.6	3.8	14907226	99	57663
2025-01-01 09:52:59.94	19.68	70.63	-71.5	-95.6	3.8	14908584	99	57644
2025-01-01 09:53:00.36	19.29	70.47	-71.5	-95.4	3.8	14904373	99	56842
2025-01-01 09:53:00.78	18.91	70.32	-71.4	-95.3	3.8	14895637	99	56514

#Closed at: 2025-01-01 09:53:00