passes_logs/2025/01/01/X_MFTI_01/X_MFTI_01__20250101_000132_NOAA_20_rec.log

#Pass ID: 20250101_000132_NOAA 20
#Satellite: NOAA 20
#Configuration: NOAA 20
#Start time: 2025-01-01 00:01:27

#Version: 1.5.20200625
#Station: X_MFTI_01
#Location: 37.5186 lon 55.9291 lat
#TLE: 1 43013U 17073A   23362.44808611  .00000160  00000+0  96626-4 0  9996
#TLE: 2 43013  98.7331 297.9536 0000783  57.5916 302.5335 14.19555620316533

#Time	Az	El	Level	Level2	SNR	BER	Gain	Gain2
2025-01-01 00:01:27.98	333.82	68.64	-71.4	-95.4	3.7	14937980	99	57007
2025-01-01 00:01:28.19	333.62	68.70	-71.5	-95.5	3.8	14921981	99	57004
2025-01-01 00:01:28.41	333.40	68.77	-71.5	-95.4	3.8	14921981	99	56978
2025-01-01 00:01:28.62	333.19	68.84	-71.5	-95.5	3.8	14912384	99	56932
2025-01-01 00:01:28.84	332.97	68.91	-71.5	-95.4	3.8	14912384	99	56772
2025-01-01 00:01:29.05	332.77	68.97	-71.4	-95.3	3.8	14905555	99	56521
2025-01-01 00:01:29.27	332.54	69.04	-71.4	-95.4	3.8	14905555	99	56912
2025-01-01 00:01:29.48	332.33	69.10	-71.4	-95.4	3.8	14908073	99	56987
2025-01-01 00:01:29.70	332.11	69.17	-71.5	-95.4	3.8	14908073	99	56842
2025-01-01 00:01:29.91	331.89	69.24	-71.5	-95.4	3.8	14916000	99	56847
2025-01-01 00:01:30.13	331.66	69.30	-71.4	-95.4	3.9	14916000	99	56704
2025-01-01 00:01:30.34	331.45	69.37	-71.5	-95.5	3.8	14900238	99	56962
2025-01-01 00:01:30.56	331.22	69.43	-71.5	-95.5	3.8	14900238	99	57046
2025-01-01 00:01:30.78	330.98	69.50	-71.4	-95.4	3.8	14910400	99	56971
2025-01-01 00:01:30.98	330.77	69.56	-71.4	-95.4	3.8	14910400	99	56990
2025-01-01 00:01:31.19	330.55	69.62	-71.4	-95.4	3.8	14916305	99	56985
2025-01-01 00:01:31.41	330.31	69.69	-71.4	-95.4	3.8	14916305	99	56985
2025-01-01 00:01:31.62	330.08	69.75	-71.4	-95.4	3.8	14916305	99	56955
2025-01-01 00:01:31.84	329.84	69.81	-71.4	-95.4	3.9	14903015	99	56695
2025-01-01 00:01:32.05	329.61	69.88	-71.5	-95.4	3.8	14903015	99	56365
2025-01-01 00:01:32.25	329.39	69.93	-71.4	-95.4	3.8	14904129	99	57029
2025-01-01 00:01:32.45	329.17	69.99	-71.4	-95.4	3.8	14904129	99	56939
2025-01-01 00:01:32.67	328.92	70.06	-71.4	-95.4	3.8	14905578	99	56903
2025-01-01 00:01:32.87	328.70	70.11	-71.4	-95.4	3.8	14905578	99	56976
2025-01-01 00:01:33.09	328.45	70.18	-71.4	-95.4	3.9	14898559	99	56838
2025-01-01 00:01:33.30	328.21	70.24	-71.4	-95.4	3.9	14898559	99	56718
2025-01-01 00:01:33.52	327.95	70.30	-71.4	-95.4	3.8	14905891	99	56711
2025-01-01 00:01:33.73	327.71	70.36	-71.4	-95.3	3.8	14905891	99	56454
2025-01-01 00:01:33.93	327.48	70.41	-71.4	-95.3	3.8	14906219	99	56640
2025-01-01 00:01:34.15	327.22	70.48	-71.4	-95.4	3.8	14906219	99	57065
2025-01-01 00:01:34.36	326.97	70.53	-71.5	-95.4	3.8	14915489	99	56901
2025-01-01 00:01:34.57	326.72	70.59	-71.4	-95.4	3.8	14915489	99	56976
2025-01-01 00:01:34.78	326.47	70.65	-71.4	-95.4	3.8	14898513	99	56873
2025-01-01 00:01:35.00	326.21	70.71	-71.4	-95.3	3.9	14898513	99	56447
2025-01-01 00:01:35.20	325.97	70.77	-71.5	-95.4	3.8	14908264	99	56532
2025-01-01 00:01:35.41	325.71	70.82	-71.4	-95.4	3.8	14908264	99	57063
2025-01-01 00:01:35.63	325.44	70.88	-71.4	-95.4	3.8	14906555	99	57132
2025-01-01 00:01:35.83	325.19	70.94	-71.4	-95.4	3.8	14906555	99	57078
2025-01-01 00:01:36.04	324.93	70.99	-71.5	-95.4	3.8	14915992	99	56890
2025-01-01 00:01:36.26	324.66	71.05	-71.4	-95.4	3.9	14915992	99	56670
2025-01-01 00:01:36.47	324.40	71.10	-71.4	-95.4	3.9	14902023	99	56625
2025-01-01 00:01:36.69	324.12	71.16	-71.4	-95.4	3.8	14902023	99	56968
2025-01-01 00:01:36.89	323.86	71.21	-71.4	-95.3	3.8	14900588	99	56799
2025-01-01 00:01:37.10	323.59	71.27	-71.4	-95.4	3.8	14900588	99	57017
2025-01-01 00:01:37.32	323.31	71.32	-71.4	-95.5	3.8	14906990	99	57074
2025-01-01 00:01:37.53	323.04	71.38	-71.5	-95.4	3.8	14906990	99	56775
2025-01-01 00:01:37.74	322.76	71.43	-71.4	-95.5	3.8	14909835	99	57163
2025-01-01 00:01:37.95	322.49	71.48	-71.4	-95.4	3.8	14909835	99	57013
2025-01-01 00:01:38.15	322.22	71.53	-71.5	-95.4	3.8	14909835	99	56835
2025-01-01 00:01:38.35	321.96	71.58	-71.4	-95.4	3.8	14905281	99	57124
2025-01-01 00:01:38.57	321.67	71.64	-71.4	-95.4	3.8	14905281	99	57062
2025-01-01 00:01:38.77	321.40	71.68	-71.4	-95.4	3.8	14911743	99	57042
2025-01-01 00:01:38.97	321.13	71.73	-71.4	-95.4	3.8	14911743	99	57257
2025-01-01 00:01:39.18	320.84	71.78	-71.4	-95.4	3.8	14914840	99	56914
2025-01-01 00:01:39.40	320.54	71.84	-71.5	-95.5	3.8	14914840	99	56984
2025-01-01 00:01:39.61	320.25	71.88	-71.5	-95.5	3.8	14903030	99	57006
2025-01-01 00:01:39.83	319.95	71.94	-71.4	-95.4	3.8	14903030	99	56898
2025-01-01 00:01:40.04	319.66	71.98	-71.4	-95.4	3.8	14912612	99	56825
2025-01-01 00:01:40.26	319.35	72.04	-71.4	-95.4	3.8	14912612	99	56796
2025-01-01 00:01:40.48	319.04	72.09	-71.4	-95.4	3.8	14911415	99	56955
2025-01-01 00:01:40.69	318.74	72.13	-71.4	-95.4	3.8	14911415	99	56847
2025-01-01 00:01:40.91	318.43	72.18	-71.4	-95.4	3.8	14912361	99	57009
2025-01-01 00:01:41.12	318.13	72.23	-71.4	-95.4	3.8	14912361	99	56858
2025-01-01 00:01:41.34	317.81	72.28	-71.4	-95.3	3.8	14899284	99	56484
2025-01-01 00:01:41.55	317.51	72.32	-71.3	-95.2	3.8	14899284	99	56217
2025-01-01 00:01:41.77	317.18	72.37	-71.4	-95.4	3.8	14907844	99	56719
2025-01-01 00:01:41.98	316.88	72.41	-71.4	-95.2	3.8	14907844	99	55901
2025-01-01 00:01:42.18	316.58	72.46	-71.4	-95.3	3.8	14920684	99	56259
2025-01-01 00:01:42.40	316.26	72.50	-71.5	-95.4	3.8	14920684	99	56630
2025-01-01 00:01:42.61	315.94	72.54	-71.5	-95.4	3.8	14908027	99	56532
2025-01-01 00:01:42.83	315.62	72.59	-71.4	-95.3	3.8	14908027	99	56633
2025-01-01 00:01:43.05	315.28	72.63	-71.4	-95.3	3.9	14900398	99	56024
2025-01-01 00:01:43.26	314.97	72.67	-71.4	-95.3	3.8	14900398	99	56586
2025-01-01 00:01:43.48	314.63	72.72	-71.4	-95.3	3.8	14906181	99	56577
2025-01-01 00:01:43.68	314.33	72.76	-71.4	-95.4	3.8	14906181	99	56721
2025-01-01 00:01:43.89	314.01	72.80	-71.5	-95.4	3.8	14921188	99	56581
2025-01-01 00:01:44.09	313.70	72.83	-71.5	-95.4	3.8	14921188	99	56608
2025-01-01 00:01:44.29	313.39	72.87	-71.4	-95.4	3.8	14901000	99	56596
2025-01-01 00:01:44.51	313.05	72.91	-71.4	-95.4	3.8	14901000	99	56630
2025-01-01 00:01:44.71	312.73	72.95	-71.4	-95.4	3.8	14901000	99	56568
2025-01-01 00:01:44.91	312.42	72.98	-71.4	-95.4	3.8	14906799	99	56590
2025-01-01 00:01:45.13	312.07	73.02	-71.4	-95.4	3.8	14906799	99	56511
2025-01-01 00:01:45.34	311.74	73.06	-71.4	-95.4	3.8	14908493	99	56570
2025-01-01 00:01:45.56	311.39	73.10	-71.4	-95.4	3.8	14908493	99	56695
2025-01-01 00:01:45.77	311.05	73.13	-71.4	-95.4	3.8	14915016	99	56629
2025-01-01 00:01:45.99	310.70	73.17	-71.5	-95.3	3.9	14915016	99	56196
2025-01-01 00:01:46.19	310.38	73.20	-71.5	-95.3	3.8	14905136	99	56164
2025-01-01 00:01:46.39	310.05	73.23	-71.4	-95.3	3.8	14905136	99	56341
2025-01-01 00:01:46.60	309.71	73.27	-71.4	-95.3	3.8	14906318	99	56359
2025-01-01 00:01:46.82	309.35	73.30	-71.4	-95.3	3.8	14906318	99	56280
2025-01-01 00:01:47.03	309.01	73.33	-71.4	-95.4	3.9	14919410	99	56551
2025-01-01 00:01:47.25	308.64	73.37	-71.4	-95.3	3.8	14919410	99	56434
2025-01-01 00:01:47.46	308.30	73.40	-71.5	-95.4	3.9	14904907	99	56282
2025-01-01 00:01:47.67	307.95	73.43	-71.5	-95.3	3.9	14904907	99	56215
2025-01-01 00:01:47.88	307.60	73.46	-71.4	-95.2	3.8	14909568	99	56056
2025-01-01 00:01:48.08	307.26	73.48	-71.4	-95.3	3.8	14909568	99	56598
2025-01-01 00:01:48.28	306.93	73.51	-71.4	-95.4	3.8	14908363	99	56640
2025-01-01 00:01:48.50	306.56	73.54	-71.4	-95.3	3.8	14908363	99	56417
2025-01-01 00:01:48.71	306.20	73.57	-71.4	-95.3	3.9	14917724	99	56458
2025-01-01 00:01:48.93	305.83	73.60	-71.4	-95.3	3.9	14917724	99	56440
2025-01-01 00:01:49.14	305.47	73.62	-71.4	-95.3	3.8	14900184	99	56645
2025-01-01 00:01:49.36	305.09	73.65	-71.4	-95.4	3.8	14900184	99	56642
2025-01-01 00:01:49.57	304.73	73.67	-71.5	-95.4	3.8	14907028	99	56515
2025-01-01 00:01:49.79	304.35	73.70	-71.4	-95.3	3.8	14907028	99	56516
2025-01-01 00:01:50.00	303.99	73.72	-71.4	-95.4	3.8	14908462	99	56497
2025-01-01 00:01:50.22	303.61	73.75	-71.5	-95.4	3.8	14908462	99	56548
2025-01-01 00:01:50.44	303.23	73.77	-71.5	-95.3	3.9	14900856	99	56094
2025-01-01 00:01:50.65	302.86	73.79	-71.4	-95.3	3.9	14900856	99	56341
2025-01-01 00:01:50.87	302.48	73.81	-71.5	-95.3	3.8	14920249	99	56140
2025-01-01 00:01:51.08	302.11	73.83	-71.4	-95.4	3.8	14920249	99	56707
2025-01-01 00:01:51.30	301.73	73.86	-71.4	-95.3	3.8	14902046	99	56610
2025-01-01 00:01:51.50	301.37	73.87	-71.4	-95.3	3.8	14902046	99	56567
2025-01-01 00:01:51.71	301.00	73.89	-71.5	-95.4	3.8	14902046	99	56464
2025-01-01 00:01:51.93	300.61	73.91	-71.4	-95.5	3.9	14915229	99	57203
2025-01-01 00:01:52.13	300.26	73.93	-71.4	-95.5	3.9	14915229	99	57564
2025-01-01 00:01:52.33	299.90	73.94	-71.4	-95.5	3.8	14910530	99	57598
2025-01-01 00:01:52.54	299.53	73.96	-71.4	-95.5	3.8	14910530	99	57562
2025-01-01 00:01:52.74	299.17	73.97	-71.4	-95.5	3.8	14904548	99	57593
2025-01-01 00:01:52.96	298.78	73.99	-71.4	-95.5	3.8	14904548	99	57527
2025-01-01 00:01:53.18	298.39	74.00	-71.5	-95.6	3.8	14917724	99	57705
2025-01-01 00:01:53.39	298.01	74.02	-71.5	-95.6	3.8	14917724	99	57890
2025-01-01 00:01:53.61	297.61	74.03	-71.4	-95.5	3.8	14909347	99	57749
2025-01-01 00:01:53.82	297.24	74.04	-71.5	-95.6	3.8	14909347	99	57890
2025-01-01 00:01:54.04	296.84	74.05	-71.3	-95.4	3.8	14912986	99	57211
2025-01-01 00:01:54.25	296.46	74.06	-71.4	-95.5	3.8	14912986	99	57609
2025-01-01 00:01:54.47	296.06	74.07	-71.4	-95.5	3.8	14913299	99	57704
2025-01-01 00:01:54.67	295.70	74.08	-71.4	-95.5	3.8	14913299	99	57624
2025-01-01 00:01:54.88	295.32	74.09	-71.5	-95.6	3.8	14917274	99	57746
2025-01-01 00:01:55.10	294.92	74.10	-71.4	-95.6	3.8	14917274	99	57855
2025-01-01 00:01:55.31	294.54	74.11	-71.4	-95.6	3.8	14899192	99	57793
2025-01-01 00:01:55.53	294.14	74.11	-71.5	-95.6	3.8	14899192	99	57874
2025-01-01 00:01:55.74	293.76	74.12	-71.4	-95.6	3.8	14897659	99	58029
2025-01-01 00:01:55.96	293.36	74.12	-71.4	-95.5	3.8	14897659	99	57742
2025-01-01 00:01:56.18	292.96	74.13	-71.4	-95.5	3.8	14908950	99	57842
2025-01-01 00:01:56.39	292.57	74.13	-71.4	-95.5	3.8	14908950	99	57655
2025-01-01 00:01:56.61	292.17	74.14	-71.5	-95.5	3.9	14906372	99	57679
2025-01-01 00:01:56.82	291.79	74.14	-71.5	-95.5	3.9	14906372	99	57467
2025-01-01 00:01:57.04	291.39	74.14	-71.5	-95.5	3.8	14897369	99	56978
2025-01-01 00:01:57.25	291.00	74.14	-71.4	-95.4	3.8	14897369	99	57027
2025-01-01 00:01:57.47	290.60	74.14	-71.4	-95.4	3.8	14905776	99	57125
2025-01-01 00:01:57.68	290.22	74.14	-71.3	-95.2	3.8	14905776	99	56525
2025-01-01 00:01:57.88	289.85	74.14	-71.4	-95.4	3.8	14909912	99	56886
2025-01-01 00:01:58.10	289.45	74.14	-71.4	-95.4	3.8	14909912	99	57071
2025-01-01 00:01:58.31	289.07	74.13	-71.4	-95.4	3.8	14899284	99	57020
2025-01-01 00:01:58.53	288.67	74.13	-71.4	-95.4	3.8	14899284	99	56964
2025-01-01 00:01:58.74	288.29	74.13	-71.4	-95.3	3.8	14897117	99	56516
2025-01-01 00:01:58.96	287.88	74.12	-71.4	-95.4	3.8	14897117	99	57037
2025-01-01 00:01:59.18	287.48	74.12	-71.4	-95.4	3.8	14900024	99	57039
2025-01-01 00:01:59.39	287.10	74.11	-71.4	-95.4	3.8	14900024	99	56942
2025-01-01 00:01:59.59	286.74	74.10	-71.4	-95.4	3.9	14904777	99	56782
2025-01-01 00:01:59.81	286.34	74.10	-71.5	-95.4	3.9	14904777	99	56814
2025-01-01 00:02:00.02	285.96	74.09	-71.4	-95.4	3.9	14904777	99	56759
2025-01-01 00:02:00.24	285.56	74.08	-71.5	-95.4	3.8	14896392	99	56807
2025-01-01 00:02:00.45	285.18	74.07	-71.4	-95.4	3.8	14896392	99	56957
2025-01-01 00:02:00.67	284.78	74.06	-71.4	-95.4	3.8	14913490	99	57074
2025-01-01 00:02:00.88	284.40	74.05	-71.4	-95.5	3.8	14907470	99	57077
2025-01-01 00:02:01.10	284.01	74.04	-71.5	-95.5	3.8	14907470	99	57059
2025-01-01 00:02:01.30	283.65	74.02	-71.4	-95.4	3.8	14907470	99	57036
2025-01-01 00:02:01.52	283.25	74.01	-71.4	-95.4	3.8	14900848	99	57006
2025-01-01 00:02:01.72	282.89	74.00	-71.4	-95.4	3.8	14900848	99	56952
2025-01-01 00:02:01.93	282.52	73.98	-71.4	-95.3	3.8	14900276	99	56821
2025-01-01 00:02:02.13	282.16	73.97	-71.4	-95.4	3.8	14900276	99	56967
2025-01-01 00:02:02.35	281.77	73.95	-71.4	-95.4	3.8	14909523	99	56971
2025-01-01 00:02:02.56	281.39	73.94	-71.5	-95.5	3.8	14909523	99	57280
2025-01-01 00:02:02.78	281.00	73.92	-71.5	-95.5	3.8	14915748	99	57296
2025-01-01 00:02:02.99	280.63	73.90	-71.4	-95.4	3.9	14915748	99	57022
2025-01-01 00:02:03.20	280.26	73.88	-71.5	-95.5	3.9	14909996	99	56987
2025-01-01 00:02:03.40	279.91	73.87	-71.4	-95.4	3.8	14909996	99	56747
2025-01-01 00:02:03.60	279.56	73.85	-71.5	-95.5	3.8	14902572	99	57253
2025-01-01 00:02:03.81	279.19	73.83	-71.4	-95.5	3.8	14902572	99	57339
2025-01-01 00:02:04.03	278.80	73.81	-71.4	-95.5	3.8	14899520	99	57244
2025-01-01 00:02:04.24	278.44	73.78	-71.4	-95.5	3.8	14899520	99	57083
2025-01-01 00:02:04.46	278.05	73.76	-71.5	-95.5	3.9	14905158	99	57029
2025-01-01 00:02:04.67	277.69	73.74	-71.5	-95.4	3.9	14905158	99	56974
2025-01-01 00:02:04.89	277.31	73.71	-71.5	-95.5	3.8	14904487	99	57063
2025-01-01 00:02:05.10	276.95	73.69	-71.4	-95.5	3.8	14904487	99	57251
2025-01-01 00:02:05.32	276.57	73.66	-71.5	-95.5	3.8	14911239	99	57250
2025-01-01 00:02:05.53	276.21	73.64	-71.5	-95.5	3.8	14911239	99	57325
2025-01-01 00:02:05.74	275.85	73.61	-71.5	-95.5	3.8	14926483	99	57288
2025-01-01 00:02:05.95	275.49	73.59	-71.5	-95.5	3.8	14926483	99	57185
2025-01-01 00:02:06.17	275.12	73.56	-71.5	-95.5	3.8	14900863	99	57204
2025-01-01 00:02:06.38	274.76	73.53	-71.5	-95.5	3.8	14900863	99	57292
2025-01-01 00:02:06.58	274.43	73.50	-71.4	-95.4	3.8	14900863	99	57073
2025-01-01 00:02:06.78	274.09	73.48	-71.4	-95.4	3.8	14902442	99	57105
2025-01-01 00:02:07.00	273.72	73.45	-71.4	-95.4	3.8	14902442	99	56919
2025-01-01 00:02:07.21	273.37	73.42	-71.4	-95.4	3.8	14906440	99	56896
2025-01-01 00:02:07.43	273.01	73.38	-71.4	-95.4	3.9	14906440	99	56823
2025-01-01 00:02:07.64	272.66	73.35	-71.4	-95.4	3.8	14903678	99	57028
2025-01-01 00:02:07.86	272.30	73.32	-71.4	-95.4	3.8	14903678	99	56958
2025-01-01 00:02:08.06	271.97	73.29	-71.4	-95.4	3.8	14904014	99	56994
2025-01-01 00:02:08.28	271.61	73.25	-71.4	-95.4	3.8	14904014	99	56858
2025-01-01 00:02:08.49	271.27	73.22	-71.4	-95.4	3.8	14908828	99	56879
2025-01-01 00:02:08.71	270.91	73.19	-71.4	-95.4	3.8	14908828	99	57065
2025-01-01 00:02:08.92	270.58	73.15	-71.4	-95.4	3.8	14916709	99	57007
2025-01-01 00:02:09.14	270.22	73.11	-71.4	-95.4	3.9	14916709	99	56780
2025-01-01 00:02:09.35	269.89	73.08	-71.4	-95.3	3.9	14906745	99	56610
2025-01-01 00:02:09.57	269.54	73.04	-71.4	-95.3	3.8	14906745	99	56448
2025-01-01 00:02:09.78	269.21	73.00	-71.4	-95.4	3.8	14907508	99	56928
2025-01-01 00:02:09.98	268.89	72.97	-71.4	-95.4	3.8	14907508	99	56909
2025-01-01 00:02:10.20	268.54	72.93	-71.4	-95.3	3.8	14911979	99	56809
2025-01-01 00:02:10.42	268.20	72.89	-71.4	-95.4	3.9	14911979	99	56846
2025-01-01 00:02:10.63	267.88	72.85	-71.4	-95.3	3.9	14906578	99	56825
2025-01-01 00:02:10.85	267.54	72.81	-71.5	-95.5	3.8	14906578	99	57193
2025-01-01 00:02:11.05	267.23	72.77	-71.4	-95.3	3.8	14900054	99	56751
2025-01-01 00:02:11.26	266.91	72.73	-71.4	-95.4	3.8	14900054	99	57045
2025-01-01 00:02:11.48	266.57	72.69	-71.4	-95.4	3.8	14896156	99	57037
2025-01-01 00:02:11.69	266.25	72.65	-71.4	-95.4	3.8	14896156	99	56992
2025-01-01 00:02:11.91	265.92	72.60	-71.5	-95.5	3.8	14912452	99	57244
2025-01-01 00:02:12.12	265.61	72.56	-71.5	-95.5	3.8	14912452	99	56835
2025-01-01 00:02:12.34	265.28	72.51	-71.5	-95.5	3.9	14900688	99	56955
2025-01-01 00:02:12.55	264.97	72.47	-71.5	-95.5	3.9	14900688	99	57019
2025-01-01 00:02:12.77	264.64	72.42	-71.4	-95.3	3.8	14911491	99	56678
2025-01-01 00:02:12.98	264.33	72.38	-71.4	-95.5	3.8	14911491	99	57230
2025-01-01 00:02:13.19	264.03	72.34	-71.5	-95.5	3.8	14912719	99	57363
2025-01-01 00:02:13.40	263.72	72.29	-71.5	-95.5	3.8	14912719	99	57141
2025-01-01 00:02:13.60	263.43	72.25	-71.4	-95.5	3.8	14901451	99	57086
2025-01-01 00:02:13.82	263.12	72.20	-71.5	-95.5	3.9	14901451	99	56996
2025-01-01 00:02:14.03	262.82	72.15	-71.5	-95.5	3.8	14899291	99	56822
2025-01-01 00:02:14.23	262.53	72.11	-71.5	-95.4	3.9	14899291	99	56677
2025-01-01 00:02:14.45	262.22	72.06	-71.5	-95.4	3.8	14911453	99	57033
2025-01-01 00:02:14.66	261.93	72.01	-71.5	-95.5	3.8	14911453	99	57011
2025-01-01 00:02:14.88	261.62	71.96	-71.4	-95.4	3.8	14911453	99	56897
2025-01-01 00:02:15.09	261.33	71.91	-71.5	-95.5	3.8	14915809	99	57288
2025-01-01 00:02:15.31	261.03	71.86	-71.4	-95.5	3.8	14915809	99	57298
2025-01-01 00:02:15.52	260.74	71.81	-71.4	-95.5	3.8	14912986	99	57275
2025-01-01 00:02:15.72	260.46	71.76	-71.5	-95.5	3.8	14912986	99	57345
2025-01-01 00:02:15.94	260.17	71.71	-71.4	-95.5	3.8	14895301	99	57293
2025-01-01 00:02:16.15	259.88	71.66	-71.4	-95.5	3.8	14895301	99	57303
2025-01-01 00:02:16.36	259.60	71.60	-71.5	-95.5	3.8	14906883	99	57339
2025-01-01 00:02:16.57	259.32	71.55	-71.5	-95.5	3.8	14906883	99	57346
2025-01-01 00:02:16.77	259.06	71.50	-71.5	-95.5	3.8	14909927	99	57302
2025-01-01 00:02:16.99	258.77	71.45	-71.4	-95.4	3.9	14909927	99	56765
2025-01-01 00:02:17.20	258.49	71.39	-71.4	-95.4	3.8	14900947	99	56642
2025-01-01 00:02:17.42	258.21	71.34	-71.4	-95.3	3.8	14900947	99	56399
2025-01-01 00:02:17.62	257.95	71.29	-71.4	-95.5	3.8	14894226	99	57154
2025-01-01 00:02:17.82	257.69	71.24	-71.4	-95.4	3.8	14894226	99	57081
2025-01-01 00:02:18.03	257.42	71.18	-71.5	-95.4	3.8	14910057	99	57010
2025-01-01 00:02:18.25	257.14	71.12	-71.4	-95.4	3.8	14910057	99	56955
2025-01-01 00:02:18.46	256.88	71.07	-71.4	-95.4	3.9	14914657	99	56823
2025-01-01 00:02:18.68	256.60	71.01	-71.5	-95.4	3.9	14914657	99	56738
2025-01-01 00:02:18.89	256.34	70.96	-71.4	-95.4	3.8	14916687	99	57013
2025-01-01 00:02:19.11	256.07	70.90	-71.4	-95.4	3.8	14916687	99	56946
2025-01-01 00:02:19.31	255.82	70.84	-71.3	-95.3	3.8	14904220	99	56926
2025-01-01 00:02:19.53	255.55	70.78	-71.4	-95.4	3.8	14904220	99	56916
2025-01-01 00:02:19.74	255.30	70.73	-71.4	-95.4	3.8	14919578	99	57165
2025-01-01 00:02:19.96	255.03	70.67	-71.4	-95.5	3.8	14919578	99	57320
2025-01-01 00:02:20.17	254.78	70.61	-71.5	-95.5	3.8	14897125	99	57251
2025-01-01 00:02:20.37	254.54	70.55	-71.5	-95.4	3.8	14897125	99	56814
2025-01-01 00:02:20.59	254.28	70.49	-71.4	-95.5	3.8	14905708	99	57235
2025-01-01 00:02:20.80	254.04	70.43	-71.4	-95.5	3.8	14905708	99	57419
2025-01-01 00:02:21.00	253.80	70.38	-71.4	-95.4	3.8	14912445	99	57226
2025-01-01 00:02:21.22	253.55	70.31	-71.4	-95.5	3.8	14912445	99	57202
2025-01-01 00:02:21.43	253.31	70.25	-71.5	-95.4	3.9	14902168	99	56995
2025-01-01 00:02:21.65	253.05	70.19	-71.5	-95.5	3.9	14902168	99	57010

#Closed at: 2025-01-01 00:02:21