passes_logs/2025/01/01/X_MFTI_01/X_MFTI_01__20250101_182526_TERRA_rec.log

#Pass ID: 20250101_182526_TERRA
#Satellite: TERRA
#Configuration: TERRA
#Start time: 2025-01-01 18:25:22

#Version: 1.5.20200625
#Station: X_MFTI_01
#Location: 37.5186 lon 55.9291 lat
#TLE: 1 25994U 99068A   23362.45014226  .00000817  00000+0  18168-3 0  9993
#TLE: 2 25994  98.0729  65.8244 0002317 146.5078 343.6211 14.59509299278111

#Time	Az	El	Level	Level2	SNR	BER	Gain	Gain2
2025-01-01 18:25:22.42	184.57	68.07	-77.8	-102.9	3.3	14906433	99	64638
2025-01-01 18:25:22.85	184.80	68.29	-77.8	-102.7	3.3	14910232	99	63661
2025-01-01 18:25:23.28	185.04	68.51	-77.8	-102.7	3.3	14910179	99	63629
2025-01-01 18:25:23.71	185.29	68.74	-77.9	-102.9	3.2	14897705	99	63979
2025-01-01 18:25:24.14	185.54	68.96	-77.9	-102.9	3.3	14905509	99	63699
2025-01-01 18:25:24.56	185.79	69.17	-77.8	-102.8	3.3	14903625	99	63641
2025-01-01 18:25:24.98	186.04	69.39	-77.7	-102.7	3.3	14905349	99	63699
2025-01-01 18:25:25.39	186.30	69.60	-77.8	-102.7	3.2	14905349	99	63594
2025-01-01 18:25:25.81	186.56	69.82	-77.9	-102.9	3.3	14912536	99	63630
2025-01-01 18:25:26.23	186.84	70.04	-77.8	-102.8	3.3	14902130	99	63731
2025-01-01 18:25:26.66	187.12	70.26	-77.8	-102.7	3.3	14903320	99	63732
2025-01-01 18:25:27.09	187.42	70.48	-77.8	-102.8	3.2	14906112	99	63959
2025-01-01 18:25:27.52	187.72	70.70	-77.9	-102.9	3.3	14905281	99	63765
2025-01-01 18:25:27.93	188.01	70.92	-77.8	-102.7	3.2	14907577	99	63595
2025-01-01 18:25:28.35	188.32	71.13	-77.8	-102.7	3.2	14907577	99	63417
2025-01-01 18:25:28.75	188.62	71.34	-77.8	-102.7	3.3	14911193	99	63694
2025-01-01 18:25:29.19	188.96	71.57	-77.8	-102.7	3.3	14900032	99	63661
2025-01-01 18:25:29.60	189.28	71.78	-77.8	-102.7	3.3	14900634	99	63533
2025-01-01 18:25:30.00	189.60	71.99	-77.9	-102.8	3.3	14897552	99	62842
2025-01-01 18:25:30.42	189.95	72.20	-77.7	-102.7	3.3	14897552	99	63702
2025-01-01 18:25:30.82	190.29	72.41	-77.8	-102.7	3.3	14911621	99	63539
2025-01-01 18:25:31.24	190.66	72.63	-77.9	-102.9	3.2	14898963	99	63574
2025-01-01 18:25:31.67	191.04	72.85	-77.9	-102.9	3.2	14904289	99	63981
2025-01-01 18:25:32.07	191.41	73.05	-77.9	-102.9	3.2	14903236	99	63844
2025-01-01 18:25:32.50	191.82	73.27	-77.9	-102.9	3.2	14911346	99	63691
2025-01-01 18:25:32.92	192.22	73.49	-77.9	-102.8	3.2	14911346	99	63865
2025-01-01 18:25:33.32	192.62	73.69	-77.9	-102.9	3.2	14910690	99	63852
2025-01-01 18:25:33.75	193.06	73.91	-77.9	-102.9	3.2	14909042	99	63707
2025-01-01 18:25:34.17	193.50	74.13	-77.9	-102.8	3.2	14911636	99	63644
2025-01-01 18:25:34.57	193.93	74.33	-78.0	-103.0	3.3	14898361	99	64028
2025-01-01 18:25:34.97	194.38	74.53	-77.8	-102.7	3.3	14906944	99	63688
2025-01-01 18:25:35.40	194.87	74.75	-77.8	-102.7	3.3	14906944	99	63601
2025-01-01 18:25:35.83	195.37	74.96	-77.9	-102.9	3.3	14897827	99	63720
2025-01-01 18:25:36.25	195.88	75.18	-77.8	-102.7	3.3	14901977	99	63532
2025-01-01 18:25:36.67	196.41	75.39	-77.8	-102.8	3.2	14902244	99	63720
2025-01-01 18:25:37.08	196.93	75.59	-77.8	-102.7	3.3	14895561	99	63758
2025-01-01 18:25:37.50	197.49	75.80	-77.8	-102.7	3.3	14907516	99	63538
2025-01-01 18:25:37.90	198.03	75.99	-77.8	-102.7	3.3	14907516	99	63472
2025-01-01 18:25:38.32	198.62	76.20	-77.9	-102.8	3.2	14908096	99	63672
2025-01-01 18:25:38.75	199.24	76.41	-77.8	-102.8	3.3	14901824	99	63821
2025-01-01 18:25:39.16	199.86	76.61	-77.8	-102.7	3.3	14913848	99	62923
2025-01-01 18:25:39.59	200.52	76.82	-77.8	-102.7	3.2	14915122	99	63787
2025-01-01 18:25:40.01	201.19	77.02	-78.0	-102.9	3.3	14904617	99	63470
2025-01-01 18:25:40.44	201.89	77.22	-77.7	-102.6	3.2	14911125	99	62957
2025-01-01 18:25:40.87	202.62	77.42	-77.8	-102.6	3.3	14911125	99	62531
2025-01-01 18:25:41.29	203.36	77.62	-77.9	-102.8	3.2	14908134	99	63109
2025-01-01 18:25:41.72	204.14	77.82	-77.8	-102.7	3.2	14909393	99	63147
2025-01-01 18:25:42.13	204.90	78.01	-77.8	-102.6	3.3	14894020	99	62993
2025-01-01 18:25:42.56	205.73	78.20	-77.7	-102.6	3.2	14899024	99	63000
2025-01-01 18:25:42.98	206.57	78.39	-77.9	-102.8	3.3	14903770	99	63118
2025-01-01 18:25:43.40	207.44	78.57	-77.8	-102.7	3.3	14903770	99	63144
2025-01-01 18:25:43.83	208.36	78.76	-77.8	-102.8	3.3	14898361	99	63691
2025-01-01 18:25:44.24	209.26	78.94	-77.9	-102.8	3.2	14900627	99	63159
2025-01-01 18:25:44.66	210.22	79.12	-77.9	-102.9	3.3	14907905	99	63806
2025-01-01 18:25:45.09	211.23	79.30	-77.8	-102.7	3.2	14902496	99	63701
2025-01-01 18:25:45.51	212.25	79.47	-77.7	-102.7	3.3	14900993	99	63868
2025-01-01 18:25:45.92	213.29	79.63	-77.9	-102.9	3.3	14900993	99	63795
2025-01-01 18:25:46.34	214.38	79.80	-78.0	-102.9	3.3	14910736	99	63681
2025-01-01 18:25:46.77	215.53	79.96	-77.8	-102.7	3.2	14906097	99	63574
2025-01-01 18:25:47.17	216.64	80.11	-77.9	-102.9	3.2	14907257	99	63946
2025-01-01 18:25:47.57	217.79	80.26	-77.9	-102.8	3.3	14904876	99	63694
2025-01-01 18:25:48.00	219.06	80.42	-77.9	-102.9	3.2	14899635	99	63790
2025-01-01 18:25:48.43	220.37	80.56	-78.0	-103.0	3.3	14904212	99	64108
2025-01-01 18:25:48.87	221.75	80.71	-78.0	-103.0	3.3	14904212	99	64014
2025-01-01 18:25:49.28	223.08	80.84	-77.9	-102.9	3.3	14898437	99	63881
2025-01-01 18:25:49.70	224.49	80.97	-77.9	-102.8	3.3	14896842	99	63856
2025-01-01 18:25:50.13	225.96	81.10	-77.9	-102.9	3.3	14914695	99	64022
2025-01-01 18:25:50.56	227.49	81.22	-77.9	-102.7	3.3	14897132	99	63195
2025-01-01 18:25:50.99	229.05	81.34	-77.8	-102.7	3.3	14901977	99	63103
2025-01-01 18:25:51.42	230.65	81.45	-77.8	-102.5	3.2	14901977	99	62242
2025-01-01 18:25:51.85	232.30	81.55	-77.9	-102.7	3.2	14898162	99	62552
2025-01-01 18:25:52.27	233.95	81.65	-77.8	-102.7	3.3	14916442	99	63154
2025-01-01 18:25:52.70	235.67	81.74	-77.9	-102.8	3.3	14906120	99	63179
2025-01-01 18:25:53.13	237.43	81.82	-77.9	-102.8	3.3	14904823	99	62568
2025-01-01 18:25:53.53	239.09	81.89	-77.8	-102.7	3.3	14899665	99	63120
2025-01-01 18:25:53.96	240.92	81.95	-77.9	-102.8	3.2	14905784	99	63264
2025-01-01 18:25:54.39	242.77	82.01	-77.9	-102.8	3.2	14905784	99	63028
2025-01-01 18:25:54.81	244.60	82.06	-77.8	-102.5	3.3	14903495	99	61655
2025-01-01 18:25:55.23	246.45	82.10	-77.9	-102.8	3.3	14909858	99	63096
2025-01-01 18:25:55.64	248.28	82.13	-77.9	-102.7	3.2	14906318	99	63165
2025-01-01 18:25:56.06	250.16	82.15	-77.9	-102.7	3.3	14913665	99	62126
2025-01-01 18:25:56.49	252.10	82.17	-77.9	-102.8	3.2	14898963	99	62603
2025-01-01 18:25:56.89	253.91	82.18	-77.8	-102.7	3.2	14898963	99	63197
2025-01-01 18:25:57.29	255.72	82.18	-77.8	-102.7	3.2	14900848	99	63094
2025-01-01 18:25:57.71	257.61	82.17	-77.8	-102.5	3.3	14891365	99	61674
2025-01-01 18:25:58.11	259.41	82.15	-77.8	-102.5	3.3	14906539	99	61689
2025-01-01 18:25:58.53	261.29	82.12	-77.8	-102.7	3.3	14921859	99	63046
2025-01-01 18:25:58.94	263.12	82.09	-77.9	-102.8	3.2	14899612	99	63127
2025-01-01 18:25:59.37	265.01	82.05	-77.9	-102.7	3.2	14899612	99	62620
2025-01-01 18:25:59.79	266.83	82.00	-77.8	-102.7	3.4	14903938	99	63145
2025-01-01 18:26:00.19	268.55	81.94	-77.9	-102.8	3.3	14910758	99	63100
2025-01-01 18:26:00.62	270.37	81.87	-77.9	-102.8	3.3	14904563	99	63156
2025-01-01 18:26:01.04	272.11	81.80	-77.8	-102.9	3.2	14898422	99	64364
2025-01-01 18:26:01.46	273.82	81.72	-77.8	-102.8	3.2	14905632	99	63771
2025-01-01 18:26:01.89	275.54	81.63	-77.8	-102.8	3.3	14905632	99	63779
2025-01-01 18:26:02.30	277.14	81.54	-77.9	-102.9	3.2	14897087	99	63861
2025-01-01 18:26:02.73	278.78	81.44	-77.9	-102.9	3.2	14900085	99	63941
2025-01-01 18:26:03.15	280.34	81.33	-77.8	-102.8	3.3	14889175	99	63829
2025-01-01 18:26:03.58	281.90	81.21	-77.8	-102.7	3.2	14903503	99	63753
2025-01-01 18:26:04.01	283.41	81.09	-77.8	-102.6	3.3	14891822	99	62556
2025-01-01 18:26:04.44	284.89	80.96	-77.8	-102.7	3.3	14903190	99	63772
2025-01-01 18:26:04.86	286.28	80.83	-77.9	-102.8	3.3	14903190	99	63701
2025-01-01 18:26:05.28	287.64	80.69	-77.6	-102.5	3.3	14905441	99	63698
2025-01-01 18:26:05.71	288.99	80.55	-77.9	-102.8	3.3	14911819	99	63597
2025-01-01 18:26:06.14	290.29	80.40	-77.9	-102.8	3.3	14908752	99	63850
2025-01-01 18:26:06.57	291.56	80.24	-77.9	-102.8	3.3	14914436	99	63808
2025-01-01 18:26:06.98	292.72	80.09	-77.9	-102.9	3.3	14897338	99	64012
2025-01-01 18:26:07.39	293.85	79.94	-77.9	-102.9	3.3	14899703	99	64134
2025-01-01 18:26:07.82	295.00	79.77	-77.8	-102.7	3.3	14899703	99	63789
2025-01-01 18:26:08.25	296.11	79.60	-78.0	-102.9	3.2	14896659	99	63687
2025-01-01 18:26:08.66	297.14	79.44	-77.9	-102.9	3.3	14893722	99	63960
2025-01-01 18:26:09.08	298.16	79.26	-77.8	-102.8	3.3	14905387	99	63772
2025-01-01 18:26:09.51	299.16	79.08	-77.8	-102.8	3.2	14906585	99	63867
2025-01-01 18:26:09.92	300.09	78.91	-77.8	-102.8	3.2	14899520	99	63867
2025-01-01 18:26:10.34	301.01	78.73	-77.8	-102.7	3.3	14899520	99	63255
2025-01-01 18:26:10.77	301.92	78.54	-77.9	-102.8	3.3	14910392	99	63249
2025-01-01 18:26:11.19	302.78	78.36	-77.9	-102.8	3.3	14907394	99	63088
2025-01-01 18:26:11.60	303.60	78.17	-77.8	-102.8	3.2	14907958	99	63830
2025-01-01 18:26:12.04	304.44	77.97	-76.7	-101.6	3.3	14905700	99	63013
2025-01-01 18:26:12.44	305.18	77.79	-77.9	-102.9	3.3	14908630	99	63880
2025-01-01 18:26:12.85	305.92	77.60	-77.8	-102.8	3.3	14908630	99	63855
2025-01-01 18:26:13.27	306.66	77.40	-77.8	-102.8	3.3	14901962	99	64046
2025-01-01 18:26:13.70	307.38	77.20	-77.9	-102.9	3.2	14892425	99	63952
2025-01-01 18:26:14.12	308.07	77.00	-77.8	-102.8	3.3	14904869	99	63858
2025-01-01 18:26:14.55	308.75	76.80	-77.9	-102.9	3.3	14900756	99	63706
2025-01-01 18:26:14.96	309.38	76.60	-77.8	-102.8	3.3	14890167	99	63927
2025-01-01 18:26:15.38	310.00	76.40	-77.8	-102.8	3.3	14894180	99	63831
2025-01-01 18:26:15.78	310.58	76.20	-77.8	-102.8	3.3	14894180	99	63722
2025-01-01 18:26:16.21	311.18	75.99	-77.6	-102.5	3.3	14907585	99	63205
2025-01-01 18:26:16.64	311.77	75.78	-77.8	-102.8	3.3	14898025	99	64093
2025-01-01 18:26:17.08	312.35	75.56	-77.8	-102.8	3.2	14886390	99	63856
2025-01-01 18:26:17.49	312.87	75.36	-77.8	-102.8	3.2	14910667	99	63867
2025-01-01 18:26:17.91	313.39	75.15	-77.9	-102.9	3.3	14911422	99	63596
2025-01-01 18:26:18.32	313.88	74.94	-77.9	-102.9	3.3	14911422	99	63871
2025-01-01 18:26:18.76	314.40	74.72	-77.8	-102.8	3.3	14901657	99	63930
2025-01-01 18:26:19.17	314.86	74.51	-77.8	-102.8	3.3	14897758	99	63732
2025-01-01 18:26:19.59	315.33	74.30	-77.8	-102.7	3.3	14899337	99	63645
2025-01-01 18:26:20.02	315.79	74.08	-77.8	-102.7	3.3	14902046	99	63821
2025-01-01 18:26:20.44	316.23	73.87	-77.8	-102.7	3.2	14904800	99	63777
2025-01-01 18:26:20.87	316.67	73.65	-77.9	-102.7	3.4	14904800	99	62570
2025-01-01 18:26:21.30	317.09	73.43	-77.8	-102.7	3.3	14904426	99	63389
2025-01-01 18:26:21.73	317.50	73.21	-77.8	-102.8	3.2	14904014	99	63873
2025-01-01 18:26:22.15	317.89	73.00	-77.8	-102.8	3.2	14915527	99	63934
2025-01-01 18:26:22.56	318.27	72.79	-77.9	-102.8	3.2	14904815	99	63707
2025-01-01 18:26:22.98	318.64	72.57	-77.9	-102.9	3.3	14905487	99	63848
2025-01-01 18:26:23.40	319.00	72.35	-77.9	-102.9	3.3	14907875	99	63856
2025-01-01 18:26:23.81	319.35	72.14	-77.9	-102.9	3.2	14907875	99	63899
2025-01-01 18:26:24.23	319.69	71.93	-77.9	-102.9	3.2	14897254	99	64163
2025-01-01 18:26:24.63	320.01	71.72	-77.9	-102.8	3.2	14900672	99	63914
2025-01-01 18:26:25.06	320.35	71.50	-77.9	-102.9	3.2	14913246	99	63932
2025-01-01 18:26:25.48	320.67	71.28	-77.8	-102.7	3.4	14900543	99	63200
2025-01-01 18:26:25.91	320.99	71.06	-77.8	-102.8	3.3	14888435	99	64074
2025-01-01 18:26:26.34	321.30	70.84	-77.7	-102.7	3.2	14888435	99	63808
2025-01-01 18:26:26.75	321.59	70.63	-77.9	-102.9	3.2	14903770	99	63882
2025-01-01 18:26:27.18	321.89	70.40	-78.0	-103.0	3.3	14897178	99	63965
2025-01-01 18:26:27.58	322.16	70.20	-77.8	-102.8	3.3	14906738	99	63990

#Closed at: 2025-01-01 18:26:27