passes_logs/2025/01/03/LEX_Murmansk/LEX_Murmansk__20250103_165907_NOAA_18_rec.log

#Pass ID: 20250103_165907_NOAA 18
#Satellite: NOAA 18
#Configuration: NOAA 18
#Start time: 2025-01-03 16:59:02.614970

#LorettStation: 1.0.0 05.05.2024
#Station: LEX_Murmansk
#Location: 33.156738 lon 68.926811 lat
#TLE: 1 28654U 05018A   25002.84587038  .00000654  00000+0  37076-3 0  9991
#TLE: 2 28654  98.8584  84.0197 0013777 213.7552 146.2745 14.13474254 11464

#Time	Az	El	Level	SNR
2025-01-03 16:59:14.888256	96.7	16.2	-91.8	15.1
2025-01-03 16:59:16.031092	96.6	16.3	-92.3	14.9
2025-01-03 16:59:17.175330	96.5	16.4	-91.4	15.4
2025-01-03 16:59:18.320742	96.3	16.5	-91.6	16.4
2025-01-03 16:59:19.464913	96.2	16.6	-92.2	13.2
2025-01-03 16:59:20.609158	96.1	16.7	-92.0	11.1
2025-01-03 16:59:21.752674	96.0	16.8	-92.3	17.0
2025-01-03 16:59:22.906888	95.8	16.9	-91.6	14.8
2025-01-03 16:59:24.051402	95.7	17.0	-91.8	16.0
2025-01-03 16:59:25.199151	95.6	17.2	-91.4	13.4
2025-01-03 16:59:26.343156	95.5	17.3	-92.0	13.7
2025-01-03 16:59:27.493645	95.3	17.4	-92.3	7.4
2025-01-03 16:59:28.636785	95.2	17.5	-92.4	6.8
2025-01-03 16:59:29.781697	95.1	17.6	-92.2	12.4
2025-01-03 16:59:30.931449	94.9	17.7	-92.1	11.0
2025-01-03 16:59:32.071970	94.8	17.8	-92.0	10.0
2025-01-03 16:59:33.217598	94.7	18.0	-91.7	14.2
2025-01-03 16:59:34.342433	94.5	18.1	-91.8	14.3
2025-01-03 16:59:35.464036	94.4	18.2	-92.2	14.9
2025-01-03 16:59:36.584384	94.3	18.3	-92.5	13.2
2025-01-03 16:59:37.705853	94.1	18.4	-92.0	13.3
2025-01-03 16:59:38.826700	94.0	18.5	-92.3	14.2
2025-01-03 16:59:39.947105	93.9	18.6	-92.1	13.5
2025-01-03 16:59:41.072108	93.7	18.8	-91.8	14.7
2025-01-03 16:59:42.204293	93.6	18.9	-91.8	12.4
2025-01-03 16:59:43.342490	93.4	19.0	-91.6	10.9
2025-01-03 16:59:44.489945	93.3	19.1	-92.0	7.0
2025-01-03 16:59:45.627879	93.2	19.2	-92.2	5.2
2025-01-03 16:59:46.772579	93.0	19.4	-91.7	10.2
2025-01-03 16:59:47.909967	92.9	19.5	-92.1	8.5
2025-01-03 16:59:49.030764	92.7	19.6	-92.0	6.3
2025-01-03 16:59:50.164763	92.6	19.7	-91.7	6.1
2025-01-03 16:59:51.304728	92.4	19.8	-91.9	8.4
2025-01-03 16:59:52.437628	92.3	20.0	-92.1	9.9
2025-01-03 16:59:53.565171	92.1	20.1	-91.8	10.2
2025-01-03 16:59:54.691496	92.0	20.2	-91.7	10.5
2025-01-03 16:59:55.834188	91.8	20.3	-91.7	9.2
2025-01-03 16:59:56.968518	91.6	20.4	-91.3	7.0
2025-01-03 16:59:58.110388	91.5	20.6	-91.6	7.2
2025-01-03 16:59:59.249621	91.3	20.7	-91.6	8.3
2025-01-03 17:00:00.391494	91.2	20.8	-91.9	8.1
2025-01-03 17:00:01.531972	91.0	20.9	-91.2	7.7
2025-01-03 17:00:02.672662	90.8	21.1	-91.3	6.8
2025-01-03 17:00:03.815178	90.7	21.2	-91.7	9.5
2025-01-03 17:00:04.957151	90.5	21.3	-92.0	6.7
2025-01-03 17:00:06.096698	90.3	21.4	-91.0	5.0
2025-01-03 17:00:07.238379	90.2	21.6	-90.9	10.2
2025-01-03 17:00:08.381810	90.0	21.7	-91.2	10.0
2025-01-03 17:00:09.524716	89.8	21.8	-91.9	9.9
2025-01-03 17:00:10.671139	89.7	21.9	-92.2	10.8
2025-01-03 17:00:11.813759	89.5	22.1	-92.2	10.7
2025-01-03 17:00:12.957189	89.3	22.2	-92.5	10.2
2025-01-03 17:00:14.099501	89.1	22.3	-91.5	9.0
2025-01-03 17:00:15.238965	88.9	22.4	-91.6	9.3
2025-01-03 17:00:16.392458	88.8	22.6	-92.2	9.5
2025-01-03 17:00:17.537969	88.6	22.7	-92.2	8.9
2025-01-03 17:00:18.682605	88.4	22.8	-92.1	9.1
2025-01-03 17:00:19.825950	88.2	23.0	-92.4	7.5
2025-01-03 17:00:20.959377	88.0	23.1	-92.3	5.9
2025-01-03 17:00:22.087909	87.8	23.2	-91.7	5.8
2025-01-03 17:00:23.221316	87.7	23.3	-92.2	5.0
2025-01-03 17:00:24.347410	87.5	23.5	-91.6	5.2
2025-01-03 17:00:25.469648	87.3	23.6	-92.2	4.8
2025-01-03 17:00:26.594033	87.1	23.7	-92.0	3.5
2025-01-03 17:00:27.720479	86.9	23.9	-92.2	5.3
2025-01-03 17:00:28.850209	86.7	24.0	-92.4	6.4
2025-01-03 17:00:29.978879	86.5	24.1	-92.1	4.4
2025-01-03 17:00:31.099120	86.3	24.3	-92.1	5.0
2025-01-03 17:00:32.220500	86.1	24.4	-92.0	5.2
2025-01-03 17:00:33.345195	85.9	24.5	-92.2	5.4
2025-01-03 17:00:34.468264	85.7	24.6	-92.3	4.9
2025-01-03 17:00:35.601174	85.5	24.8	-92.2	6.5
2025-01-03 17:00:36.741324	85.3	24.9	-92.1	2.2
2025-01-03 17:00:37.884303	85.1	25.0	-92.1	3.8
2025-01-03 17:00:39.017338	84.9	25.2	-91.9	4.3
2025-01-03 17:00:40.146121	84.6	25.3	-91.7	6.2
2025-01-03 17:00:41.269739	84.4	25.4	-92.0	5.7
2025-01-03 17:00:42.390897	84.2	25.6	-92.4	2.5
2025-01-03 17:00:43.518076	84.0	25.7	-92.2	4.9
2025-01-03 17:00:44.643292	83.8	25.8	-92.6	5.4
2025-01-03 17:00:45.764060	83.6	26.0	-92.1	5.5
2025-01-03 17:00:46.884780	83.3	26.1	-92.2	6.6
2025-01-03 17:00:48.004202	83.1	26.2	-91.3	5.3
2025-01-03 17:00:49.126788	82.9	26.4	-92.1	4.5
2025-01-03 17:00:50.249535	82.6	26.5	-91.0	6.1
2025-01-03 17:00:51.371663	82.4	26.6	-91.6	7.3
2025-01-03 17:00:52.492094	82.2	26.8	-91.2	7.1
2025-01-03 17:00:53.615092	82.0	26.9	-91.6	7.6
2025-01-03 17:00:54.741869	81.7	27.0	-90.4	8.7
2025-01-03 17:00:55.864792	81.5	27.2	-91.7	8.8
2025-01-03 17:00:56.989077	81.2	27.3	-92.5	8.6
2025-01-03 17:00:58.110853	81.0	27.4	-91.4	10.7
2025-01-03 17:00:59.232353	80.7	27.6	-90.7	9.9
2025-01-03 17:01:00.353652	80.5	27.7	-90.6	11.4
2025-01-03 17:01:01.474994	80.3	27.8	-92.6	11.3
2025-01-03 17:01:02.596748	80.0	28.0	-92.3	7.6
2025-01-03 17:01:03.718091	79.7	28.1	-92.0	11.5
2025-01-03 17:01:04.840365	79.5	28.2	-92.1	14.7
2025-01-03 17:01:05.964742	79.2	28.4	-92.5	7.6
2025-01-03 17:01:07.088734	79.0	28.5	-91.8	5.3
2025-01-03 17:01:08.213136	78.7	28.7	-91.8	12.5
2025-01-03 17:01:09.336697	78.4	28.8	-91.6	13.3
2025-01-03 17:01:10.460060	78.2	28.9	-90.8	12.0
2025-01-03 17:01:11.580656	77.9	29.1	-90.7	12.9
2025-01-03 17:01:12.716340	77.6	29.2	-91.3	11.2
2025-01-03 17:01:13.861863	77.4	29.3	-90.9	13.0
2025-01-03 17:01:14.999797	77.1	29.5	-91.0	10.9
2025-01-03 17:01:16.147090	76.8	29.6	-89.5	10.0
2025-01-03 17:01:17.288702	76.5	29.7	-91.5	12.2
2025-01-03 17:01:18.430477	76.2	29.9	-90.3	8.6
2025-01-03 17:01:19.581051	75.9	30.0	-91.9	11.3
2025-01-03 17:01:20.726353	75.6	30.1	-92.5	15.8
2025-01-03 17:01:21.872087	75.3	30.3	-92.1	14.1
2025-01-03 17:01:23.015454	75.1	30.4	-92.6	14.0
2025-01-03 17:01:24.161462	74.8	30.5	-91.9	13.2
2025-01-03 17:01:25.315683	74.4	30.7	-91.9	12.7
2025-01-03 17:01:26.458841	74.1	30.8	-92.2	8.5
2025-01-03 17:01:27.610055	73.8	31.0	-92.6	6.9
2025-01-03 17:01:28.760098	73.5	31.1	-92.0	12.9
2025-01-03 17:01:29.894158	73.2	31.2	-90.7	13.6
2025-01-03 17:01:31.037215	72.9	31.4	-90.9	6.0
2025-01-03 17:01:32.181152	72.6	31.5	-90.0	10.2
2025-01-03 17:01:33.323940	72.3	31.6	-89.7	13.5
2025-01-03 17:01:34.465856	71.9	31.7	-90.4	12.3
2025-01-03 17:01:35.611099	71.6	31.9	-90.8	13.5
2025-01-03 17:01:36.756071	71.3	32.0	-91.1	12.0
2025-01-03 17:01:37.899072	70.9	32.1	-87.9	16.0
2025-01-03 17:01:39.046999	70.6	32.3	-91.5	11.9
2025-01-03 17:01:40.188503	70.3	32.4	-90.9	15.3
2025-01-03 17:01:41.335731	69.9	32.5	-90.3	16.5
2025-01-03 17:01:42.481806	69.6	32.7	-92.4	11.7
2025-01-03 17:01:43.626686	69.2	32.8	-89.3	12.9
2025-01-03 17:01:44.768262	68.9	32.9	-89.7	15.7
2025-01-03 17:01:45.911738	68.5	33.0	-92.4	17.8
2025-01-03 17:01:47.052600	68.2	33.2	-91.7	15.3
2025-01-03 17:01:48.197658	67.8	33.3	-92.2	17.2
2025-01-03 17:01:49.348083	67.5	33.4	-92.0	15.6
2025-01-03 17:01:50.494181	67.1	33.5	-91.6	14.3
2025-01-03 17:01:51.637905	66.8	33.7	-89.6	10.2
2025-01-03 17:01:52.780946	66.4	33.8	-89.2	16.3
2025-01-03 17:01:53.927887	66.0	33.9	-92.1	13.4
2025-01-03 17:01:55.078225	65.6	34.0	-91.9	7.8
2025-01-03 17:01:56.224529	65.3	34.1	-87.6	13.4
2025-01-03 17:01:57.370816	64.9	34.2	-91.7	20.2
2025-01-03 17:01:58.513611	64.5	34.4	-92.2	13.6
2025-01-03 17:01:59.663176	64.1	34.5	-92.1	14.1
2025-01-03 17:02:00.798982	63.7	34.6	-90.6	18.6
2025-01-03 17:02:01.944039	63.4	34.7	-90.2	16.5
2025-01-03 17:02:03.093000	63.0	34.8	-90.2	16.5
2025-01-03 17:02:04.240909	62.6	34.9	-92.1	17.6
2025-01-03 17:02:05.383382	62.2	35.0	-91.7	20.2
2025-01-03 17:02:06.529631	61.8	35.1	-92.0	17.0
2025-01-03 17:02:07.673135	61.4	35.3	-92.2	16.8
2025-01-03 17:02:08.815984	61.0	35.4	-91.1	18.7
2025-01-03 17:02:09.965353	60.6	35.5	-92.1	15.5
2025-01-03 17:02:11.113865	60.1	35.6	-91.8	12.6
2025-01-03 17:02:12.257909	59.7	35.7	-91.4	18.6
2025-01-03 17:02:13.401725	59.3	35.8	-92.1	18.6
2025-01-03 17:02:14.543035	58.9	35.9	-91.7	16.1
2025-01-03 17:02:15.686391	58.5	36.0	-92.6	19.7
2025-01-03 17:02:16.833327	58.1	36.1	-92.5	21.2
2025-01-03 17:02:17.977898	57.6	36.2	-92.1	19.5
2025-01-03 17:02:19.124192	57.2	36.3	-91.5	18.7
2025-01-03 17:02:20.267573	56.8	36.3	-91.9	17.2
2025-01-03 17:02:21.419199	56.3	36.4	-92.4	17.1
2025-01-03 17:02:22.562085	55.9	36.5	-92.5	14.1
2025-01-03 17:02:23.708369	55.5	36.6	-92.7	17.7
2025-01-03 17:02:24.853094	55.0	36.7	-92.4	19.7
2025-01-03 17:02:25.997134	54.6	36.8	-92.6	9.9
2025-01-03 17:02:27.145174	54.1	36.9	-92.2	7.6
2025-01-03 17:02:28.292469	53.7	36.9	-92.2	16.2
2025-01-03 17:02:29.441429	53.3	37.0	-92.3	10.8
2025-01-03 17:02:30.586163	52.8	37.1	-92.7	7.1
2025-01-03 17:02:31.732363	52.3	37.2	-92.2	18.1
2025-01-03 17:02:32.875346	51.9	37.2	-92.6	19.4
2025-01-03 17:02:34.018556	51.4	37.3	-92.5	13.7
2025-01-03 17:02:35.164893	51.0	37.4	-92.0	16.4
2025-01-03 17:02:36.306745	50.5	37.4	-92.2	19.5
2025-01-03 17:02:37.455142	50.1	37.5	-91.8	14.3
2025-01-03 17:02:38.601083	49.6	37.6	-92.3	16.8
2025-01-03 17:02:39.744177	49.1	37.6	-92.3	17.7
2025-01-03 17:02:40.892950	48.7	37.7	-92.5	18.8
2025-01-03 17:02:42.039061	48.2	37.7	-92.7	20.0
2025-01-03 17:02:43.182782	47.7	37.8	-92.1	19.5
2025-01-03 17:02:44.322482	47.2	37.8	-92.1	18.1
2025-01-03 17:02:45.468002	46.8	37.9	-93.1	12.5
2025-01-03 17:02:46.611309	46.3	37.9	-92.2	12.8
2025-01-03 17:02:47.759434	45.8	38.0	-92.2	20.3
2025-01-03 17:02:48.902794	45.3	38.0	-92.5	17.8
2025-01-03 17:02:50.054292	44.9	38.1	-92.3	9.6
2025-01-03 17:02:51.200253	44.4	38.1	-92.2	18.8
2025-01-03 17:02:52.348038	43.9	38.1	-92.1	17.5
2025-01-03 17:02:53.496468	43.4	38.2	-92.3	12.2
2025-01-03 17:02:54.640279	42.9	38.2	-92.0	14.3
2025-01-03 17:02:55.783550	42.4	38.2	-92.7	18.9
2025-01-03 17:02:56.930043	42.0	38.3	-92.2	15.7
2025-01-03 17:02:58.070403	41.5	38.3	-92.1	15.4
2025-01-03 17:02:59.211856	41.0	38.3	-92.3	17.9
2025-01-03 17:03:00.348899	40.5	38.3	-92.2	17.6
2025-01-03 17:03:01.490807	40.0	38.4	-91.4	15.7
2025-01-03 17:03:02.640936	39.5	38.4	-92.4	17.0
2025-01-03 17:03:03.782317	39.0	38.4	-92.1	17.6
2025-01-03 17:03:04.929561	38.6	38.4	-92.8	19.0
2025-01-03 17:03:06.074887	38.1	38.4	-92.3	19.1
2025-01-03 17:03:07.216676	37.6	38.4	-92.3	17.4
2025-01-03 17:03:08.359402	37.1	38.4	-92.0	17.2
2025-01-03 17:03:09.504265	36.6	38.4	-92.2	14.1
2025-01-03 17:03:10.639834	36.1	38.4	-92.5	14.7
2025-01-03 17:03:11.783268	35.6	38.4	-92.9	16.6
2025-01-03 17:03:12.927477	35.1	38.4	-92.1	13.0
2025-01-03 17:03:14.072586	34.6	38.4	-92.1	10.1
2025-01-03 17:03:15.220223	34.2	38.4	-92.5	13.8
2025-01-03 17:03:16.368865	33.7	38.4	-92.3	14.9
2025-01-03 17:03:17.513582	33.2	38.4	-92.4	10.0
2025-01-03 17:03:18.660646	32.7	38.3	-92.5	13.9
2025-01-03 17:03:19.798302	32.2	38.3	-92.5	19.4
2025-01-03 17:03:20.946231	31.7	38.3	-92.7	10.2
2025-01-03 17:03:22.094374	31.2	38.3	-92.0	11.4
2025-01-03 17:03:23.235078	30.7	38.2	-92.0	18.8
2025-01-03 17:03:24.381677	30.3	38.2	-92.3	19.4
2025-01-03 17:03:25.526156	29.8	38.2	-92.6	11.2
2025-01-03 17:03:26.669104	29.3	38.1	-92.2	12.7
2025-01-03 17:03:27.816184	28.8	38.1	-92.6	18.7
2025-01-03 17:03:28.962899	28.3	38.1	-92.7	10.5
2025-01-03 17:03:30.109781	27.9	38.0	-92.1	11.2
2025-01-03 17:03:31.252802	27.4	38.0	-92.2	15.4
2025-01-03 17:03:32.398102	26.9	37.9	-92.4	16.3
2025-01-03 17:03:33.542126	26.4	37.9	-92.6	9.5
2025-01-03 17:03:34.684576	26.0	37.8	-92.5	9.9
2025-01-03 17:03:35.834333	25.5	37.8	-92.4	12.4
2025-01-03 17:03:36.975172	25.0	37.7	-92.6	12.0
2025-01-03 17:03:38.119750	24.5	37.7	-92.2	8.8
2025-01-03 17:03:39.267099	24.1	37.6	-92.3	16.6
2025-01-03 17:03:40.410372	23.6	37.6	-92.7	10.1
2025-01-03 17:03:41.557037	23.1	37.5	-92.3	9.6
2025-01-03 17:03:42.702710	22.7	37.4	-92.5	11.4
2025-01-03 17:03:43.848715	22.2	37.4	-92.6	17.3
2025-01-03 17:03:44.995399	21.8	37.3	-92.5	9.5
2025-01-03 17:03:46.142016	21.3	37.2	-92.2	10.8
2025-01-03 17:03:47.286758	20.9	37.1	-92.3	15.8
2025-01-03 17:03:48.436907	20.4	37.1	-92.2	10.5
2025-01-03 17:03:49.580102	20.0	37.0	-92.3	13.9
2025-01-03 17:03:50.722323	19.5	36.9	-92.8	14.4
2025-01-03 17:03:51.867859	19.1	36.8	-92.5	16.2
2025-01-03 17:03:53.010067	18.6	36.8	-92.1	12.0
2025-01-03 17:03:54.157651	18.2	36.7	-91.6	10.7
2025-01-03 17:03:55.299926	17.7	36.6	-92.1	17.6
2025-01-03 17:03:56.443035	17.3	36.5	-92.8	13.4
2025-01-03 17:03:57.588017	16.9	36.4	-92.2	10.0
2025-01-03 17:03:58.733068	16.4	36.3	-92.6	14.3
2025-01-03 17:03:59.884579	16.0	36.2	-92.5	15.0
2025-01-03 17:04:01.028847	15.6	36.1	-92.0	11.4
2025-01-03 17:04:02.174102	15.2	36.0	-91.9	15.3
2025-01-03 17:04:03.317355	14.7	35.9	-91.8	15.3
2025-01-03 17:04:04.464223	14.3	35.8	-92.2	9.7
2025-01-03 17:04:05.604887	13.9	35.7	-92.3	12.0
2025-01-03 17:04:06.747639	13.5	35.6	-91.9	16.2
2025-01-03 17:04:07.891722	13.1	35.5	-91.7	15.8
2025-01-03 17:04:09.037049	12.7	35.4	-91.8	8.0
2025-01-03 17:04:10.180680	12.3	35.3	-91.5	14.4
2025-01-03 17:04:11.325835	11.9	35.2	-91.5	13.0
2025-01-03 17:04:12.473344	11.4	35.1	-91.7	6.7
2025-01-03 17:04:13.617294	11.1	35.0	-90.8	10.3
2025-01-03 17:04:14.762335	10.7	34.9	-91.3	15.0
2025-01-03 17:04:15.898679	10.3	34.8	-91.2	14.2
2025-01-03 17:04:17.022481	9.9	34.7	-91.6	11.0
2025-01-03 17:04:18.172084	9.5	34.6	-91.3	14.4
2025-01-03 17:04:19.314683	9.1	34.5	-91.1	12.5
2025-01-03 17:04:20.451623	8.7	34.3	-91.1	8.3
2025-01-03 17:04:21.592147	8.3	34.2	-91.1	6.4
2025-01-03 17:04:22.728814	8.0	34.1	-91.8	14.9
2025-01-03 17:04:23.848753	7.6	34.0	-91.6	17.3
2025-01-03 17:04:24.969144	7.2	33.9	-91.7	9.3
2025-01-03 17:04:26.089603	6.9	33.8	-91.7	9.2
2025-01-03 17:04:27.210607	6.5	33.6	-91.3	14.3
2025-01-03 17:04:28.330849	6.2	33.5	-90.5	15.6
2025-01-03 17:04:29.452493	5.8	33.4	-91.5	11.0
2025-01-03 17:04:30.574698	5.5	33.3	-92.0	12.1
2025-01-03 17:04:31.703302	5.1	33.2	-92.6	15.9
2025-01-03 17:04:32.850642	4.8	33.0	-92.5	15.3
2025-01-03 17:04:33.993042	4.4	32.9	-92.5	10.1
2025-01-03 17:04:35.134374	4.1	32.8	-91.6	10.3
2025-01-03 17:04:36.279925	3.7	32.6	-92.1	14.3
2025-01-03 17:04:37.423895	3.4	32.5	-92.4	13.0
2025-01-03 17:04:38.568278	3.0	32.4	-92.3	13.5
2025-01-03 17:04:39.706067	2.7	32.3	-92.4	12.5
2025-01-03 17:04:40.849611	2.4	32.1	-92.6	14.6
2025-01-03 17:04:41.996727	2.0	32.0	-92.3	9.7
2025-01-03 17:04:43.139641	1.7	31.9	-92.5	10.7
2025-01-03 17:04:44.286114	1.4	31.7	-92.4	10.0
2025-01-03 17:04:45.429479	1.1	31.6	-91.1	7.7
2025-01-03 17:04:46.574978	0.7	31.5	-92.2	7.4
2025-01-03 17:04:47.721650	0.4	31.3	-92.0	11.1
2025-01-03 17:04:48.870996	0.1	31.2	-91.6	9.7
2025-01-03 17:04:50.014330	359.8	31.1	-91.2	7.4
2025-01-03 17:04:51.165230	359.5	30.9	-91.6	9.8
2025-01-03 17:04:52.307143	359.2	30.8	-92.0	9.8
2025-01-03 17:04:53.452766	358.9	30.7	-92.6	9.9
2025-01-03 17:04:54.597591	358.6	30.5	-92.2	8.9
2025-01-03 17:04:55.743301	358.3	30.4	-92.5	8.9
2025-01-03 17:04:56.888300	358.0	30.3	-92.6	10.0
2025-01-03 17:04:58.030199	357.7	30.1	-92.1	6.4
2025-01-03 17:04:59.170586	357.4	30.0	-91.9	12.0
2025-01-03 17:05:00.308702	357.1	29.9	-92.1	11.3
2025-01-03 17:05:01.449530	356.8	29.7	-92.6	9.6
2025-01-03 17:05:02.597349	356.5	29.6	-92.9	9.3
2025-01-03 17:05:03.743185	356.2	29.5	-91.9	13.7
2025-01-03 17:05:04.889368	355.9	29.3	-91.1	9.3
2025-01-03 17:05:06.033595	355.7	29.2	-90.9	8.7
2025-01-03 17:05:07.175288	355.4	29.0	-90.8	9.4
2025-01-03 17:05:08.319694	355.1	28.9	-91.1	11.5
2025-01-03 17:05:09.465458	354.8	28.8	-91.1	7.9
2025-01-03 17:05:10.612778	354.6	28.6	-90.9	9.6
2025-01-03 17:05:11.761913	354.3	28.5	-91.0	10.5
2025-01-03 17:05:12.907909	354.0	28.4	-90.7	11.6
2025-01-03 17:05:14.050411	353.8	28.2	-91.9	9.7
2025-01-03 17:05:15.193102	353.5	28.1	-92.0	11.7
2025-01-03 17:05:16.338155	353.3	27.9	-92.2	9.0
2025-01-03 17:05:17.483588	353.0	27.8	-92.5	14.0
2025-01-03 17:05:18.632267	352.8	27.7	-92.2	8.9
2025-01-03 17:05:19.777451	352.5	27.5	-92.1	7.0
2025-01-03 17:05:20.925575	352.3	27.4	-91.6	9.8
2025-01-03 17:05:22.063753	352.0	27.3	-91.1	8.1
2025-01-03 17:05:23.202985	351.8	27.1	-91.3	11.1
2025-01-03 17:05:24.351223	351.5	27.0	-91.0	6.7
2025-01-03 17:05:25.495234	351.3	26.9	-91.6	6.3
2025-01-03 17:05:26.647935	351.0	26.7	-91.4	8.5
2025-01-03 17:05:27.792306	350.8	26.6	-91.2	14.8
2025-01-03 17:05:28.935851	350.6	26.4	-91.7	9.4
2025-01-03 17:05:30.083579	350.3	26.3	-91.6	6.6
2025-01-03 17:05:31.228202	350.1	26.2	-91.8	10.8
2025-01-03 17:05:32.375196	349.9	26.0	-92.1	10.2
2025-01-03 17:05:33.515995	349.7	25.9	-91.4	13.1
2025-01-03 17:05:34.664252	349.4	25.8	-91.0	11.6
2025-01-03 17:05:35.811511	349.2	25.6	-91.8	14.5
2025-01-03 17:05:36.958800	349.0	25.5	-92.0	13.4
2025-01-03 17:05:38.101990	348.8	25.4	-91.5	13.6
2025-01-03 17:05:39.251002	348.6	25.2	-91.1	17.9
2025-01-03 17:05:40.394406	348.3	25.1	-91.6	13.3
2025-01-03 17:05:41.542709	348.1	25.0	-92.1	10.6
2025-01-03 17:05:42.689424	347.9	24.8	-91.8	10.6
2025-01-03 17:05:43.837689	347.7	24.7	-92.0	8.0
2025-01-03 17:05:44.981697	347.5	24.6	-91.9	8.9
2025-01-03 17:05:46.125091	347.3	24.4	-91.5	6.8
2025-01-03 17:05:47.278523	347.1	24.3	-91.2	10.7
2025-01-03 17:05:48.418955	346.9	24.2	-91.5	11.5
2025-01-03 17:05:49.566221	346.7	24.0	-91.7	9.8
2025-01-03 17:05:50.713332	346.5	23.9	-91.8	9.0
2025-01-03 17:05:51.859016	346.3	23.8	-91.5	10.2
2025-01-03 17:05:53.009144	346.1	23.6	-91.5	6.2
2025-01-03 17:05:54.153976	345.9	23.5	-91.1	7.5
2025-01-03 17:05:55.297506	345.7	23.4	-91.0	9.5
2025-01-03 17:05:56.438804	345.5	23.2	-92.5	10.8
2025-01-03 17:05:57.581071	345.3	23.1	-92.9	11.9
2025-01-03 17:05:58.726268	345.1	23.0	-92.6	14.7
2025-01-03 17:05:59.869732	344.9	22.8	-91.8	11.2
2025-01-03 17:06:01.009583	344.8	22.7	-92.4	11.0
2025-01-03 17:06:02.151367	344.6	22.6	-92.2	13.2
2025-01-03 17:06:03.297844	344.4	22.5	-92.4	9.3
2025-01-03 17:06:04.443072	344.2	22.3	-92.4	8.1
2025-01-03 17:06:05.587396	344.0	22.2	-92.9	8.0
2025-01-03 17:06:06.730877	343.9	22.1	-92.3	11.7
2025-01-03 17:06:07.880429	343.7	21.9	-91.8	10.9
2025-01-03 17:06:09.027159	343.5	21.8	-91.8	7.2
2025-01-03 17:06:10.172341	343.3	21.7	-91.4	7.1
2025-01-03 17:06:11.321391	343.2	21.6	-91.6	10.9
2025-01-03 17:06:12.467207	343.0	21.4	-91.3	9.1
2025-01-03 17:06:13.612137	342.8	21.3	-91.0	9.1
2025-01-03 17:06:14.759076	342.7	21.2	-92.6	11.5
2025-01-03 17:06:15.903908	342.5	21.1	-92.6	9.2
2025-01-03 17:06:17.052054	342.3	20.9	-91.8	8.3
2025-01-03 17:06:18.197766	342.2	20.8	-92.0	13.2
2025-01-03 17:06:19.340816	342.0	20.7	-92.5	5.6
2025-01-03 17:06:20.487889	341.8	20.6	-92.3	2.3
2025-01-03 17:06:21.633345	341.7	20.4	-92.5	7.8
2025-01-03 17:06:22.777409	341.5	20.3	-92.1	4.1
2025-01-03 17:06:23.920323	341.4	20.2	-92.4	4.5
2025-01-03 17:06:25.065657	341.2	20.1	-92.2	6.2
2025-01-03 17:06:26.210912	341.1	19.9	-92.0	4.2
2025-01-03 17:06:27.358318	340.9	19.8	-92.5	4.9
2025-01-03 17:06:28.501994	340.8	19.7	-92.8	4.3
2025-01-03 17:06:29.648558	340.6	19.6	-92.1	2.9
2025-01-03 17:06:30.791461	340.5	19.5	-92.7	3.8
2025-01-03 17:06:31.938875	340.3	19.3	-92.1	8.2
2025-01-03 17:06:33.084885	340.2	19.2	-92.1	8.7
2025-01-03 17:06:34.229290	340.0	19.1	-92.2	4.4
2025-01-03 17:06:35.378989	339.9	19.0	-92.4	5.3
2025-01-03 17:06:36.509461	339.7	18.9	-92.4	11.3
2025-01-03 17:06:37.630854	339.6	18.7	-92.6	7.4
2025-01-03 17:06:38.752242	339.5	18.6	-92.7	6.9
2025-01-03 17:06:39.874581	339.3	18.5	-92.7	4.6
2025-01-03 17:06:40.996026	339.2	18.4	-92.8	7.5
2025-01-03 17:06:42.116086	339.1	18.3	-92.2	8.9
2025-01-03 17:06:43.235557	338.9	18.2	-92.4	4.1
2025-01-03 17:06:44.355603	338.8	18.1	-92.8	7.2
2025-01-03 17:06:45.496895	338.6	17.9	-92.5	5.3
2025-01-03 17:06:46.639595	338.5	17.8	-92.8	4.3
2025-01-03 17:06:47.784455	338.4	17.7	-92.7	11.7
2025-01-03 17:06:48.931044	338.3	17.6	-92.4	7.6
2025-01-03 17:06:50.069066	338.1	17.5	-92.5	4.8
2025-01-03 17:06:51.209976	338.0	17.4	-92.1	10.7
2025-01-03 17:06:52.357106	337.9	17.3	-92.4	6.9
2025-01-03 17:06:53.500902	337.7	17.1	-92.8	3.1
2025-01-03 17:06:54.642495	337.6	17.0	-92.6	4.5
2025-01-03 17:06:55.787551	337.5	16.9	-92.9	3.8
2025-01-03 17:06:56.933145	337.4	16.8	-92.5	3.7
2025-01-03 17:06:58.075748	337.2	16.7	-92.1	4.2
2025-01-03 17:06:59.219019	337.1	16.6	-92.4	5.4
2025-01-03 17:07:00.359679	337.0	16.5	-92.8	5.7
2025-01-03 17:07:01.503714	336.9	16.4	-92.7	6.6
2025-01-03 17:07:02.643175	336.8	16.3	-92.4	5.1
2025-01-03 17:07:03.786469	336.6	16.1	-92.8	6.6
2025-01-03 17:07:04.936213	336.5	16.0	-92.7	3.9
2025-01-03 17:07:06.075810	336.4	15.9	-92.3	4.0
2025-01-03 17:07:07.220201	336.3	15.8	-92.5	5.1
2025-01-03 17:07:08.368594	336.2	15.7	-92.1	8.0
2025-01-03 17:07:09.514270	336.0	15.6	-92.6	5.5
2025-01-03 17:07:10.657467	335.9	15.5	-92.6	9.5
2025-01-03 17:07:11.800410	335.8	15.4	-92.1	7.7
2025-01-03 17:07:12.949476	335.7	15.3	-92.9	10.0
2025-01-03 17:07:14.085105	335.6	15.2	-88.7	3.6
2025-01-03 17:07:15.225656	335.5	15.1	-92.3	5.9
2025-01-03 17:07:16.371655	335.4	15.0	-92.5	3.6
2025-01-03 17:07:17.502922	335.3	14.9	-92.7	4.1
2025-01-03 17:07:18.642439	335.2	14.7	-91.2	5.7
2025-01-03 17:07:19.788274	335.1	14.6	-91.1	2.3
2025-01-03 17:07:20.930155	334.9	14.5	-91.1	5.8
#Closed at: 2025-01-03 16:59:07.694668