passes_logs/2025/01/03/LEX_Murmansk/LEX_Murmansk__20250103_145145_NOAA_19_rec.log

#Pass ID: 20250103_145145_NOAA 19
#Satellite: NOAA 19
#Configuration: NOAA 19
#Start time: 2025-01-03 14:51:40.731148

#LorettStation: 1.0.0 05.05.2024
#Station: LEX_Murmansk
#Location: 33.156738 lon 68.926811 lat
#TLE: 1 33591U 09005A   25002.89767470  .00000571  00000+0  32860-3 0  9996
#TLE: 2 33591  99.0216  66.5655 0014695  89.7532 270.5323 14.13248849819837

#Time	Az	El	Level	SNR
2025-01-03 14:51:52.992925	71.7	16.0	-90.9	9.4
2025-01-03 14:51:54.146190	71.6	16.1	-90.5	9.7
2025-01-03 14:51:55.300215	71.4	16.2	-90.5	9.3
2025-01-03 14:51:56.460775	71.2	16.3	-91.3	10.0
2025-01-03 14:51:57.614410	71.1	16.4	-91.1	9.2
2025-01-03 14:51:58.776124	70.9	16.5	-91.0	4.4
2025-01-03 14:51:59.930844	70.7	16.6	-91.3	4.2
2025-01-03 14:52:01.077947	70.6	16.7	-91.2	3.7
2025-01-03 14:52:02.232459	70.4	16.8	-92.0	2.2
2025-01-03 14:52:03.384095	70.2	16.9	-91.6	2.8
2025-01-03 14:52:04.531209	70.1	17.0	-91.9	6.3
2025-01-03 14:52:05.691204	69.9	17.1	-91.8	11.5
2025-01-03 14:52:06.849681	69.7	17.2	-91.9	12.0
2025-01-03 14:52:08.008806	69.5	17.3	-92.1	13.0
2025-01-03 14:52:09.165533	69.4	17.4	-91.6	11.5
2025-01-03 14:52:10.320049	69.2	17.5	-91.8	7.3
2025-01-03 14:52:11.468300	69.0	17.6	-92.1	9.9
2025-01-03 14:52:12.625770	68.8	17.7	-92.1	9.1
2025-01-03 14:52:13.780384	68.6	17.8	-92.1	9.8
2025-01-03 14:52:14.936994	68.5	17.9	-91.9	12.4
2025-01-03 14:52:16.095170	68.3	18.0	-91.4	11.8
2025-01-03 14:52:17.257352	68.1	18.1	-91.8	10.5
2025-01-03 14:52:18.409770	67.9	18.2	-91.9	6.0
2025-01-03 14:52:19.558089	67.7	18.3	-92.0	4.2
2025-01-03 14:52:20.716301	67.5	18.4	-92.1	0.9
2025-01-03 14:52:21.867024	67.3	18.5	-92.0	3.3
2025-01-03 14:52:23.016972	67.1	18.6	-91.5	4.2
2025-01-03 14:52:24.169893	66.9	18.7	-91.7	5.8
2025-01-03 14:52:25.327527	66.7	18.8	-90.9	5.3
2025-01-03 14:52:26.483689	66.6	18.9	-91.9	11.4
2025-01-03 14:52:27.636290	66.4	19.0	-92.0	9.6
2025-01-03 14:52:28.789739	66.2	19.1	-91.9	8.8
2025-01-03 14:52:29.944566	66.0	19.2	-90.6	10.3
2025-01-03 14:52:31.094708	65.8	19.3	-91.6	9.5
2025-01-03 14:52:32.245128	65.6	19.4	-91.9	8.7
2025-01-03 14:52:33.397663	65.4	19.5	-91.1	7.5
2025-01-03 14:52:34.558279	65.1	19.6	-92.0	10.9
2025-01-03 14:52:35.710681	64.9	19.7	-92.1	13.4
2025-01-03 14:52:36.862895	64.7	19.8	-92.5	14.5
2025-01-03 14:52:38.014409	64.5	19.9	-92.4	11.3
2025-01-03 14:52:39.167157	64.3	20.0	-91.9	6.9
2025-01-03 14:52:40.318894	64.1	20.1	-91.9	3.1
2025-01-03 14:52:41.471314	63.9	20.2	-91.6	3.8
2025-01-03 14:52:42.624537	63.7	20.3	-92.2	4.2
2025-01-03 14:52:43.779623	63.5	20.4	-92.1	3.3
2025-01-03 14:52:44.929699	63.2	20.5	-92.3	6.0
2025-01-03 14:52:46.086751	63.0	20.6	-91.7	7.2
2025-01-03 14:52:47.245126	62.8	20.7	-92.0	10.9
2025-01-03 14:52:48.402814	62.6	20.8	-91.9	13.4
2025-01-03 14:52:49.559023	62.4	20.9	-92.1	13.0
2025-01-03 14:52:50.713657	62.1	21.0	-92.0	9.8
2025-01-03 14:52:51.870787	61.9	21.1	-92.1	6.4
2025-01-03 14:52:53.045342	61.7	21.2	-92.1	8.9
2025-01-03 14:52:54.196618	61.4	21.3	-91.9	6.5
2025-01-03 14:52:55.360294	61.2	21.4	-91.6	8.0
2025-01-03 14:52:56.510735	61.0	21.5	-91.8	11.3
2025-01-03 14:52:57.662623	60.7	21.6	-92.0	12.3
2025-01-03 14:52:58.820315	60.5	21.7	-91.7	16.1
2025-01-03 14:52:59.974504	60.3	21.8	-92.3	10.7
2025-01-03 14:53:01.117876	60.0	21.9	-92.2	8.5
2025-01-03 14:53:02.273530	59.8	22.0	-91.8	2.4
2025-01-03 14:53:03.432521	59.5	22.1	-91.7	4.9
2025-01-03 14:53:04.596221	59.3	22.2	-92.1	2.7
2025-01-03 14:53:05.757258	59.1	22.3	-92.2	3.3
2025-01-03 14:53:06.909833	58.8	22.4	-92.1	3.6
2025-01-03 14:53:08.068852	58.6	22.5	-91.7	7.2
2025-01-03 14:53:09.235642	58.3	22.6	-91.7	9.6
2025-01-03 14:53:10.389255	58.1	22.7	-92.5	13.3
2025-01-03 14:53:11.544796	57.8	22.8	-92.1	14.9
2025-01-03 14:53:12.701228	57.6	22.9	-91.9	11.7
2025-01-03 14:53:13.852999	57.3	23.0	-92.4	9.7
2025-01-03 14:53:15.015178	57.0	23.1	-91.2	6.5
2025-01-03 14:53:16.167439	56.8	23.1	-92.2	8.6
2025-01-03 14:53:17.321957	56.5	23.2	-91.9	2.9
2025-01-03 14:53:18.483139	56.3	23.3	-92.0	7.2
2025-01-03 14:53:19.636400	56.0	23.4	-92.6	10.6
2025-01-03 14:53:20.792543	55.7	23.5	-92.4	8.4
2025-01-03 14:53:21.946911	55.5	23.6	-92.3	12.0
2025-01-03 14:53:23.109798	55.2	23.7	-92.2	11.7
2025-01-03 14:53:24.268659	54.9	23.8	-92.1	10.5
2025-01-03 14:53:25.421251	54.6	23.9	-92.1	6.2
2025-01-03 14:53:26.585926	54.4	24.0	-92.1	5.5
2025-01-03 14:53:27.747207	54.1	24.1	-92.4	1.8
2025-01-03 14:53:28.907020	53.8	24.2	-92.4	2.8
2025-01-03 14:53:30.065734	53.5	24.3	-92.0	2.5
2025-01-03 14:53:31.225634	53.3	24.4	-91.9	2.5
2025-01-03 14:53:32.378959	53.0	24.5	-91.4	4.0
2025-01-03 14:53:33.536009	52.7	24.6	-91.6	4.7
2025-01-03 14:53:34.687858	52.4	24.6	-91.4	6.5
2025-01-03 14:53:35.854192	52.1	24.7	-91.6	6.5
2025-01-03 14:53:37.006909	51.8	24.8	-91.9	9.3
2025-01-03 14:53:38.161067	51.5	24.9	-90.8	7.9
2025-01-03 14:53:39.314310	51.2	25.0	-91.9	5.6
2025-01-03 14:53:40.465411	51.0	25.1	-92.5	7.3
2025-01-03 14:53:41.628242	50.7	25.2	-92.4	6.8
2025-01-03 14:53:42.782471	50.4	25.3	-92.3	2.7
2025-01-03 14:53:43.938821	50.1	25.3	-92.5	4.9
2025-01-03 14:53:45.095799	49.8	25.4	-92.0	6.5
2025-01-03 14:53:46.254446	49.5	25.5	-91.7	5.1
2025-01-03 14:53:47.416654	49.2	25.6	-91.8	5.7
2025-01-03 14:53:48.577644	48.8	25.7	-92.1	11.8
2025-01-03 14:53:49.740006	48.5	25.8	-92.3	10.4
2025-01-03 14:53:50.888723	48.2	25.8	-92.5	9.0
2025-01-03 14:53:52.044419	47.9	25.9	-92.0	6.0
2025-01-03 14:53:53.205142	47.6	26.0	-92.1	3.3
2025-01-03 14:53:54.358862	47.3	26.1	-92.0	2.6
2025-01-03 14:53:55.519532	47.0	26.2	-92.2	3.1
2025-01-03 14:53:56.673900	46.7	26.2	-92.2	2.8
2025-01-03 14:53:57.826778	46.3	26.3	-92.3	3.4
2025-01-03 14:53:58.982848	46.0	26.4	-92.2	5.1
2025-01-03 14:54:00.136078	45.7	26.5	-92.3	3.0
2025-01-03 14:54:01.275473	45.4	26.5	-92.0	2.7
2025-01-03 14:54:02.427660	45.1	26.6	-92.2	8.1
2025-01-03 14:54:03.583754	44.7	26.7	-92.5	10.5
2025-01-03 14:54:04.743269	44.4	26.8	-92.1	12.3
2025-01-03 14:54:05.898545	44.1	26.8	-91.3	8.3
2025-01-03 14:54:07.059604	43.8	26.9	-92.1	8.2
2025-01-03 14:54:08.215131	43.4	27.0	-91.9	7.9
2025-01-03 14:54:09.378878	43.1	27.1	-92.3	8.9
2025-01-03 14:54:10.528223	42.8	27.1	-92.7	10.9
2025-01-03 14:54:11.682812	42.4	27.2	-92.5	7.1
2025-01-03 14:54:12.835187	42.1	27.3	-92.3	5.3
2025-01-03 14:54:13.987585	41.7	27.3	-92.3	8.2
2025-01-03 14:54:15.154298	41.4	27.4	-92.1	5.9
2025-01-03 14:54:16.305334	41.1	27.5	-91.9	5.6
2025-01-03 14:54:17.460272	40.7	27.5	-92.4	7.2
2025-01-03 14:54:18.616655	40.4	27.6	-91.8	11.1
2025-01-03 14:54:19.775594	40.0	27.6	-92.0	11.6
2025-01-03 14:54:20.931550	39.7	27.7	-92.5	12.6
2025-01-03 14:54:22.094848	39.3	27.8	-92.3	9.4
2025-01-03 14:54:23.253826	39.0	27.8	-92.4	10.2
2025-01-03 14:54:24.412958	38.6	27.9	-92.4	8.2
2025-01-03 14:54:25.571261	38.3	27.9	-92.6	8.5
2025-01-03 14:54:26.726058	37.9	28.0	-92.6	5.5
2025-01-03 14:54:27.880336	37.6	28.0	-92.9	1.7
2025-01-03 14:54:29.031366	37.2	28.1	-92.8	4.0
2025-01-03 14:54:30.179647	36.9	28.1	-92.0	3.0
2025-01-03 14:54:31.334505	36.5	28.2	-91.9	2.5
2025-01-03 14:54:32.489228	36.2	28.2	-92.1	5.1
2025-01-03 14:54:33.649722	35.8	28.3	-92.1	5.9
2025-01-03 14:54:34.804057	35.4	28.3	-92.5	2.6
2025-01-03 14:54:35.965022	35.1	28.4	-92.3	6.3
2025-01-03 14:54:37.118018	34.7	28.4	-92.3	5.1
2025-01-03 14:54:38.275348	34.3	28.5	-92.2	4.5
2025-01-03 14:54:39.424867	34.0	28.5	-92.4	8.4
2025-01-03 14:54:40.577314	33.6	28.5	-92.1	6.7
2025-01-03 14:54:41.725899	33.3	28.6	-92.2	6.3
2025-01-03 14:54:42.886651	32.9	28.6	-92.4	6.9
2025-01-03 14:54:44.048069	32.5	28.7	-92.4	10.0
2025-01-03 14:54:45.196788	32.1	28.7	-92.2	12.2
2025-01-03 14:54:46.351265	31.8	28.7	-92.0	12.3
2025-01-03 14:54:47.512284	31.4	28.8	-92.3	11.5
2025-01-03 14:54:48.671457	31.0	28.8	-92.4	8.8
2025-01-03 14:54:49.829132	30.7	28.8	-91.5	6.6
2025-01-03 14:54:50.977444	30.3	28.8	-91.8	6.3
2025-01-03 14:54:52.139950	29.9	28.9	-91.6	8.3
2025-01-03 14:54:53.289519	29.5	28.9	-90.9	3.5
2025-01-03 14:54:54.446460	29.2	28.9	-91.6	4.9
2025-01-03 14:54:55.605978	28.8	29.0	-91.1	4.2
2025-01-03 14:54:56.760569	28.4	29.0	-91.6	3.6
2025-01-03 14:54:57.916989	28.0	29.0	-91.9	5.1
2025-01-03 14:54:59.070289	27.7	29.0	-92.2	5.2
2025-01-03 14:55:00.217534	27.3	29.0	-92.2	2.9
2025-01-03 14:55:01.361745	26.9	29.0	-91.9	3.1
2025-01-03 14:55:02.515367	26.5	29.1	-91.9	4.7
2025-01-03 14:55:03.671376	26.2	29.1	-92.2	6.4
2025-01-03 14:55:04.823599	25.8	29.1	-92.5	9.8
2025-01-03 14:55:05.976818	25.4	29.1	-92.2	7.8
2025-01-03 14:55:07.131274	25.0	29.1	-91.9	11.3
2025-01-03 14:55:08.283876	24.6	29.1	-91.7	9.1
2025-01-03 14:55:09.433222	24.3	29.1	-91.7	9.4
2025-01-03 14:55:10.591179	23.9	29.1	-92.2	9.2
2025-01-03 14:55:11.740473	23.5	29.1	-92.4	3.6
2025-01-03 14:55:12.897405	23.1	29.1	-91.8	7.4
2025-01-03 14:55:14.044932	22.8	29.1	-92.3	10.7
2025-01-03 14:55:15.202610	22.4	29.1	-92.2	8.7
2025-01-03 14:55:16.355890	22.0	29.1	-91.8	8.8
2025-01-03 14:55:17.517863	21.6	29.1	-91.6	8.3
2025-01-03 14:55:18.667330	21.2	29.1	-92.3	6.0
2025-01-03 14:55:19.826240	20.9	29.1	-92.3	5.8
2025-01-03 14:55:20.970340	20.5	29.1	-92.6	3.2
2025-01-03 14:55:22.128081	20.1	29.1	-92.2	3.6
2025-01-03 14:55:23.287191	19.7	29.1	-92.4	3.3
2025-01-03 14:55:24.446748	19.3	29.1	-92.3	6.2
2025-01-03 14:55:25.603188	19.0	29.1	-91.7	5.9
2025-01-03 14:55:26.756294	18.6	29.1	-91.7	4.1
2025-01-03 14:55:27.909624	18.2	29.0	-91.4	2.8
2025-01-03 14:55:29.069329	17.8	29.0	-91.0	3.7
2025-01-03 14:55:30.218308	17.5	29.0	-90.9	0.4
2025-01-03 14:55:31.365099	17.1	29.0	-91.4	1.8
2025-01-03 14:55:32.525991	16.7	29.0	-91.2	2.6
2025-01-03 14:55:33.675352	16.3	28.9	-91.1	2.3
2025-01-03 14:55:34.827440	16.0	28.9	-91.2	2.8
2025-01-03 14:55:35.982230	15.6	28.9	-91.5	2.3
2025-01-03 14:55:37.137192	15.2	28.9	-91.7	1.0
2025-01-03 14:55:38.296592	14.8	28.8	-91.7	3.1
2025-01-03 14:55:39.450345	14.5	28.8	-91.6	1.4
2025-01-03 14:55:40.599964	14.1	28.8	-91.6	3.2
2025-01-03 14:55:41.761595	13.7	28.7	-92.6	1.4
2025-01-03 14:55:42.917104	13.3	28.7	-92.3	5.0
2025-01-03 14:55:44.072307	13.0	28.7	-92.4	5.3
2025-01-03 14:55:45.221238	12.6	28.6	-91.8	0.2
2025-01-03 14:55:46.374499	12.2	28.6	-92.3	1.2
2025-01-03 14:55:47.530477	11.9	28.6	-92.4	1.9
2025-01-03 14:55:48.687872	11.5	28.5	-92.7	1.0
2025-01-03 14:55:49.832078	11.1	28.5	-92.4	2.2
2025-01-03 14:55:50.985965	10.8	28.4	-92.5	1.3
2025-01-03 14:55:52.141618	10.4	28.4	-92.0	2.6
2025-01-03 14:55:53.294504	10.1	28.4	-92.0	2.5
2025-01-03 14:55:54.447151	9.7	28.3	-92.1	3.9
2025-01-03 14:55:55.603749	9.3	28.3	-92.4	4.7
2025-01-03 14:55:56.763011	9.0	28.2	-92.2	2.7
2025-01-03 14:55:57.917937	8.6	28.2	-92.4	4.7
2025-01-03 14:55:59.072503	8.3	28.1	-92.4	5.7
2025-01-03 14:56:00.216675	7.9	28.1	-91.7	2.4
2025-01-03 14:56:01.363264	7.6	28.0	-92.3	2.4
2025-01-03 14:56:02.524609	7.2	28.0	-92.4	4.5
2025-01-03 14:56:03.679488	6.9	27.9	-92.5	2.7
2025-01-03 14:56:04.837417	6.5	27.8	-92.4	3.1
2025-01-03 14:56:05.988736	6.2	27.8	-92.4	4.9
2025-01-03 14:56:07.140493	5.8	27.7	-92.2	6.1
2025-01-03 14:56:08.297273	5.5	27.7	-91.8	3.8
2025-01-03 14:56:09.456234	5.1	27.6	-92.0	4.2
2025-01-03 14:56:10.607442	4.8	27.5	-91.9	6.2
2025-01-03 14:56:11.759431	4.4	27.5	-91.9	2.7
2025-01-03 14:56:12.908624	4.1	27.4	-92.1	5.0
2025-01-03 14:56:14.073620	3.7	27.4	-92.2	5.7
2025-01-03 14:56:15.225082	3.4	27.3	-91.8	1.5
2025-01-03 14:56:16.379453	3.1	27.2	-92.3	2.9
2025-01-03 14:56:17.533493	2.7	27.2	-92.5	5.1
2025-01-03 14:56:18.681276	2.4	27.1	-92.4	4.0
2025-01-03 14:56:19.836233	2.1	27.0	-92.7	4.0
2025-01-03 14:56:20.991901	1.7	27.0	-92.5	4.6
2025-01-03 14:56:22.141236	1.4	26.9	-92.4	4.9
2025-01-03 14:56:23.294549	1.1	26.8	-92.2	3.3
2025-01-03 14:56:24.450377	0.8	26.7	-91.6	4.8
2025-01-03 14:56:25.595953	0.4	26.7	-92.3	3.5
2025-01-03 14:56:26.750173	0.1	26.6	-92.5	2.5
2025-01-03 14:56:27.908506	359.8	26.5	-92.2	6.1
2025-01-03 14:56:29.061720	359.5	26.4	-92.1	7.3
2025-01-03 14:56:30.211563	359.1	26.4	-92.1	1.3
2025-01-03 14:56:31.363772	358.8	26.3	-92.0	2.9
2025-01-03 14:56:32.521254	358.5	26.2	-89.3	0.2
2025-01-03 14:56:33.676614	358.2	26.1	-92.2	2.8
2025-01-03 14:56:34.830736	357.9	26.1	-91.6	1.4
2025-01-03 14:56:35.985247	357.6	26.0	-91.7	4.8
2025-01-03 14:56:37.140357	357.3	25.9	-91.6	4.6
2025-01-03 14:56:38.296550	357.0	25.8	-91.6	4.7
2025-01-03 14:56:39.448655	356.6	25.7	-91.8	6.2
2025-01-03 14:56:40.604272	356.3	25.6	-91.8	6.3
2025-01-03 14:56:41.764581	356.0	25.6	-92.3	4.2
2025-01-03 14:56:42.916065	355.7	25.5	-91.8	6.5
2025-01-03 14:56:44.067885	355.4	25.4	-91.1	6.4
2025-01-03 14:56:45.223034	355.1	25.3	-92.0	5.3
2025-01-03 14:56:46.378778	354.8	25.2	-92.1	7.9
2025-01-03 14:56:47.521810	354.5	25.1	-92.3	9.2
2025-01-03 14:56:48.674639	354.3	25.0	-92.4	5.2
2025-01-03 14:56:49.823728	354.0	25.0	-91.9	8.1
2025-01-03 14:56:50.973728	353.7	24.9	-92.5	6.0
2025-01-03 14:56:52.128652	353.4	24.8	-92.0	7.1
2025-01-03 14:56:53.278213	353.1	24.7	-92.1	8.8
2025-01-03 14:56:54.424672	352.8	24.6	-92.0	11.9
2025-01-03 14:56:55.576422	352.5	24.5	-92.4	10.1
2025-01-03 14:56:56.731278	352.2	24.4	-92.6	13.2
2025-01-03 14:56:57.888384	352.0	24.3	-92.5	11.7
2025-01-03 14:56:59.045810	351.7	24.2	-92.5	13.5
2025-01-03 14:57:00.190554	351.4	24.2	-92.3	13.6
2025-01-03 14:57:01.340653	351.1	24.1	-92.1	13.7
2025-01-03 14:57:02.494023	350.9	24.0	-92.6	7.2
2025-01-03 14:57:03.650839	350.6	23.9	-92.1	13.5
2025-01-03 14:57:04.806444	350.3	23.8	-92.8	12.3
2025-01-03 14:57:05.969183	350.0	23.7	-92.6	10.9
2025-01-03 14:57:07.124565	349.8	23.6	-92.4	8.3
2025-01-03 14:57:08.271999	349.5	23.5	-92.2	9.3
2025-01-03 14:57:09.423846	349.3	23.4	-92.3	4.7
2025-01-03 14:57:10.575538	349.0	23.3	-92.5	7.5
2025-01-03 14:57:11.718342	348.7	23.2	-92.7	4.5
2025-01-03 14:57:12.855594	348.5	23.1	-92.6	2.8
2025-01-03 14:57:14.005934	348.2	23.0	-92.8	6.0
2025-01-03 14:57:15.166706	348.0	22.9	-92.2	3.1
2025-01-03 14:57:16.320320	347.7	22.8	-92.0	2.2
2025-01-03 14:57:17.474519	347.5	22.7	-92.3	4.0
2025-01-03 14:57:18.640162	347.2	22.6	-92.6	4.2
2025-01-03 14:57:19.799387	346.9	22.5	-92.7	4.0
2025-01-03 14:57:20.963933	346.7	22.4	-92.4	3.5
2025-01-03 14:57:22.121467	346.4	22.3	-92.4	4.6
2025-01-03 14:57:23.284870	346.2	22.2	-92.4	3.4
2025-01-03 14:57:24.434531	346.0	22.2	-92.7	4.4
2025-01-03 14:57:25.596528	345.7	22.1	-92.6	6.6
2025-01-03 14:57:26.755616	345.5	22.0	-92.6	6.6
2025-01-03 14:57:27.912798	345.2	21.9	-92.3	8.9
2025-01-03 14:57:29.066173	345.0	21.8	-92.5	10.3
2025-01-03 14:57:30.214349	344.8	21.7	-92.2	8.3
2025-01-03 14:57:31.367825	344.5	21.6	-92.3	12.0
2025-01-03 14:57:32.524802	344.3	21.5	-92.4	9.0
2025-01-03 14:57:33.682338	344.1	21.4	-92.2	11.7
2025-01-03 14:57:34.842012	343.8	21.3	-92.6	8.3
2025-01-03 14:57:35.999554	343.6	21.2	-92.5	11.9
2025-01-03 14:57:37.152758	343.4	21.1	-92.0	7.9
2025-01-03 14:57:38.301969	343.1	21.0	-92.3	11.5
2025-01-03 14:57:39.458249	342.9	20.9	-92.7	8.6
2025-01-03 14:57:40.604100	342.7	20.8	-92.5	3.1
2025-01-03 14:57:41.750668	342.5	20.7	-92.9	4.2
2025-01-03 14:57:42.908897	342.3	20.6	-92.6	2.8
2025-01-03 14:57:44.061865	342.0	20.5	-92.1	3.6
2025-01-03 14:57:45.221259	341.8	20.4	-92.1	3.7
2025-01-03 14:57:46.369993	341.6	20.3	-92.2	0.9
2025-01-03 14:57:47.523074	341.4	20.2	-92.4	3.4
2025-01-03 14:57:48.681669	341.2	20.1	-92.5	3.1
2025-01-03 14:57:49.827333	341.0	20.0	-92.7	4.0
2025-01-03 14:57:50.984175	340.8	19.9	-92.5	2.9
2025-01-03 14:57:52.138711	340.6	19.8	-92.6	1.5
2025-01-03 14:57:53.302887	340.3	19.7	-92.3	2.5
2025-01-03 14:57:54.465830	340.1	19.6	-92.6	0.2
2025-01-03 14:57:55.624783	339.9	19.5	-92.8	1.0
2025-01-03 14:57:56.777882	339.7	19.4	-92.8	2.7
2025-01-03 14:57:57.933331	339.5	19.3	-92.8	3.3
2025-01-03 14:57:59.087025	339.3	19.2	-92.4	1.1
2025-01-03 14:58:00.240562	339.1	19.1	-92.4	2.2
2025-01-03 14:58:01.394299	338.9	19.0	-92.4	2.3
2025-01-03 14:58:02.539644	338.7	18.9	-92.6	4.1
2025-01-03 14:58:03.690210	338.5	18.8	-92.9	3.5
2025-01-03 14:58:04.849698	338.3	18.7	-92.9	2.3
2025-01-03 14:58:05.996447	338.2	18.6	-92.1	3.4
2025-01-03 14:58:07.144521	338.0	18.5	-92.2	5.0
2025-01-03 14:58:08.299135	337.8	18.4	-92.3	1.9
2025-01-03 14:58:09.455553	337.6	18.3	-92.6	1.6
2025-01-03 14:58:10.613867	337.4	18.2	-92.5	4.2
2025-01-03 14:58:11.763118	337.2	18.1	-92.7	3.1
2025-01-03 14:58:12.918683	337.0	18.0	-92.2	2.7
2025-01-03 14:58:14.076848	336.8	17.9	-92.4	0.7
2025-01-03 14:58:15.232229	336.7	17.8	-92.4	3.2
2025-01-03 14:58:16.384959	336.5	17.7	-92.4	1.6
2025-01-03 14:58:17.544217	336.3	17.6	-92.1	2.3
2025-01-03 14:58:18.697279	336.1	17.5	-92.3	1.9
2025-01-03 14:58:19.848072	335.9	17.4	-92.8	3.2
2025-01-03 14:58:20.994654	335.8	17.3	-92.3	2.5
2025-01-03 14:58:22.141103	335.6	17.2	-92.3	5.8
2025-01-03 14:58:23.298153	335.4	17.1	-92.3	4.3
2025-01-03 14:58:24.451908	335.2	17.0	-92.7	3.7
2025-01-03 14:58:25.608253	335.1	16.9	-92.6	2.6
2025-01-03 14:58:26.760413	334.9	16.8	-92.8	1.9
2025-01-03 14:58:27.914891	334.7	16.7	-92.5	3.4
2025-01-03 14:58:29.069880	334.6	16.6	-92.0	2.0
2025-01-03 14:58:30.223780	334.4	16.5	-92.1	0.3
2025-01-03 14:58:31.380400	334.2	16.4	-92.2	0.9
2025-01-03 14:58:32.533180	334.1	16.3	-92.3	1.6
2025-01-03 14:58:33.685699	333.9	16.2	-92.5	4.1
2025-01-03 14:58:34.836591	333.7	16.1	-92.3	3.2
2025-01-03 14:58:35.995950	333.6	16.0	-92.0	6.7
2025-01-03 14:58:37.153485	333.4	15.9	-91.5	5.7
2025-01-03 14:58:38.306619	333.3	15.8	-91.4	5.2
2025-01-03 14:58:39.459914	333.1	15.7	-91.6	2.4
2025-01-03 14:58:40.615160	332.9	15.6	-91.3	7.7
2025-01-03 14:58:41.765082	332.8	15.5	-91.6	1.7
2025-01-03 14:58:42.918077	332.6	15.4	-91.7	4.3
2025-01-03 14:58:44.080677	332.5	15.3	-90.8	6.0
2025-01-03 14:58:45.232421	332.3	15.2	-91.4	2.5
2025-01-03 14:58:46.388143	332.2	15.1	-90.8	3.3
2025-01-03 14:58:47.540673	332.0	15.0	-91.6	1.8
2025-01-03 14:58:48.689729	331.9	15.0	-91.7	3.3
2025-01-03 14:58:49.846715	331.7	14.9	-91.5	1.6
2025-01-03 14:58:51.002880	331.6	14.8	-91.9	2.7
2025-01-03 14:58:52.148720	331.4	14.7	-92.5	4.6
2025-01-03 14:58:53.295690	331.3	14.6	-92.1	3.0
#Closed at: 2025-01-03 14:51:45.795559