passes_logs/2025/01/03/LEX_Murmansk/LEX_Murmansk__20250103_120031_NOAA_18_rec.log

#Pass ID: 20250103_120031_NOAA 18
#Satellite: NOAA 18
#Configuration: NOAA 18
#Start time: 2025-01-03 12:00:26.181807

#LorettStation: 1.0.0 05.05.2024
#Station: LEX_Murmansk
#Location: 33.156738 lon 68.926811 lat
#TLE: 1 28654U 05018A   25002.84587038  .00000654  00000+0  37076-3 0  9991
#TLE: 2 28654  98.8584  84.0197 0013777 213.7552 146.2745 14.13474254 11464

#Time	Az	El	Level	SNR
2025-01-03 12:00:38.427008	23.4	16.1	-91.0	7.9
2025-01-03 12:00:39.584958	23.3	16.3	-91.2	5.8
2025-01-03 12:00:40.717218	23.2	16.4	-91.3	6.4
2025-01-03 12:00:41.837659	23.1	16.5	-91.3	6.9
2025-01-03 12:00:42.958392	22.9	16.6	-91.3	5.4
2025-01-03 12:00:44.079451	22.8	16.7	-90.7	5.2
2025-01-03 12:00:45.201389	22.7	16.8	-91.3	5.7
2025-01-03 12:00:46.323295	22.6	16.9	-91.0	6.6
2025-01-03 12:00:47.448464	22.4	17.0	-91.6	5.6
2025-01-03 12:00:48.568276	22.3	17.1	-91.2	6.4
2025-01-03 12:00:49.726328	22.2	17.2	-91.6	6.0
2025-01-03 12:00:50.881601	22.1	17.3	-91.0	7.2
2025-01-03 12:00:52.042138	21.9	17.5	-90.9	6.3
2025-01-03 12:00:53.193420	21.8	17.6	-91.0	5.5
2025-01-03 12:00:54.353491	21.7	17.7	-90.9	5.9
2025-01-03 12:00:55.514752	21.5	17.8	-91.1	6.9
2025-01-03 12:00:56.690504	21.4	17.9	-91.3	7.0
2025-01-03 12:00:57.846284	21.2	18.0	-91.0	9.3
2025-01-03 12:00:59.009832	21.1	18.2	-90.0	4.9
2025-01-03 12:01:00.168598	21.0	18.3	-89.9	11.9
2025-01-03 12:01:01.320374	20.8	18.4	-90.1	11.4
2025-01-03 12:01:02.484375	20.7	18.5	-90.2	9.3
2025-01-03 12:01:03.649212	20.5	18.6	-90.5	7.0
2025-01-03 12:01:04.809331	20.4	18.7	-90.4	11.6
2025-01-03 12:01:05.974737	20.2	18.9	-90.1	6.4
2025-01-03 12:01:07.138728	20.1	19.0	-89.9	5.5
2025-01-03 12:01:08.302069	19.9	19.1	-89.7	9.4
2025-01-03 12:01:09.469220	19.8	19.2	-90.7	11.9
2025-01-03 12:01:10.629240	19.6	19.3	-90.6	10.3
2025-01-03 12:01:11.790653	19.5	19.5	-91.5	11.3
2025-01-03 12:01:12.955601	19.3	19.6	-91.8	8.1
2025-01-03 12:01:14.119390	19.2	19.7	-90.9	6.8
2025-01-03 12:01:15.278399	19.0	19.8	-91.0	8.1
2025-01-03 12:01:16.447704	18.9	19.9	-91.3	8.0
2025-01-03 12:01:17.601833	18.7	20.1	-91.6	6.8
2025-01-03 12:01:18.771043	18.5	20.2	-91.2	6.9
2025-01-03 12:01:19.930092	18.4	20.3	-91.1	12.0
2025-01-03 12:01:21.092631	18.2	20.4	-91.1	7.3
2025-01-03 12:01:22.235207	18.1	20.6	-91.1	8.9
2025-01-03 12:01:23.394568	17.9	20.7	-90.9	9.5
2025-01-03 12:01:24.557792	17.7	20.8	-91.4	8.6
2025-01-03 12:01:25.726060	17.6	20.9	-91.4	8.6
2025-01-03 12:01:26.892604	17.4	21.1	-91.6	10.3
2025-01-03 12:01:28.052444	17.2	21.2	-91.2	9.4
2025-01-03 12:01:29.217759	17.0	21.3	-91.2	11.6
2025-01-03 12:01:30.379870	16.9	21.4	-91.7	10.1
2025-01-03 12:01:31.550911	16.7	21.6	-91.9	7.6
2025-01-03 12:01:32.714753	16.5	21.7	-91.8	10.6
2025-01-03 12:01:33.873021	16.3	21.8	-91.8	7.5
2025-01-03 12:01:35.035446	16.2	21.9	-92.2	8.4
2025-01-03 12:01:36.197586	16.0	22.1	-91.9	7.8
2025-01-03 12:01:37.357459	15.8	22.2	-91.7	8.8
2025-01-03 12:01:38.517318	15.6	22.3	-91.9	6.6
2025-01-03 12:01:39.680578	15.4	22.5	-91.3	9.6
2025-01-03 12:01:40.841434	15.2	22.6	-92.3	10.0
2025-01-03 12:01:42.000300	15.0	22.7	-92.0	8.2
2025-01-03 12:01:43.159402	14.9	22.8	-91.5	5.2
2025-01-03 12:01:44.321534	14.7	23.0	-91.1	10.1
2025-01-03 12:01:45.486614	14.5	23.1	-91.7	7.7
2025-01-03 12:01:46.651375	14.3	23.2	-92.1	10.5
2025-01-03 12:01:47.810017	14.1	23.4	-91.9	11.1
2025-01-03 12:01:48.975184	13.9	23.5	-92.3	9.6
2025-01-03 12:01:50.137793	13.7	23.6	-92.0	5.9
2025-01-03 12:01:51.300457	13.5	23.8	-91.8	15.5
2025-01-03 12:01:52.464342	13.3	23.9	-92.0	8.5
2025-01-03 12:01:53.627755	13.1	24.0	-91.8	9.1
2025-01-03 12:01:54.795049	12.8	24.2	-91.9	10.2
2025-01-03 12:01:55.955996	12.6	24.3	-91.8	10.9
2025-01-03 12:01:57.113019	12.4	24.4	-91.7	10.9
2025-01-03 12:01:58.273096	12.2	24.6	-91.6	11.2
2025-01-03 12:01:59.430855	12.0	24.7	-91.9	9.0
2025-01-03 12:02:00.582248	11.8	24.8	-92.3	5.7
2025-01-03 12:02:01.749793	11.6	25.0	-92.3	9.9
2025-01-03 12:02:02.912262	11.3	25.1	-92.2	11.1
2025-01-03 12:02:04.079031	11.1	25.2	-91.9	4.5
2025-01-03 12:02:05.241662	10.9	25.4	-91.5	11.2
2025-01-03 12:02:06.404376	10.7	25.5	-86.3	7.8
2025-01-03 12:02:07.565200	10.4	25.6	-89.6	9.5
2025-01-03 12:02:08.715635	10.2	25.8	-90.1	10.8
2025-01-03 12:02:09.864515	10.0	25.9	-92.1	14.0
2025-01-03 12:02:10.984626	9.8	26.0	-91.7	9.7
2025-01-03 12:02:12.105716	9.5	26.2	-91.7	7.7
2025-01-03 12:02:13.225179	9.3	26.3	-91.7	9.6
2025-01-03 12:02:14.345108	9.1	26.4	-91.7	9.2
2025-01-03 12:02:15.465633	8.8	26.5	-91.9	8.8
2025-01-03 12:02:16.586088	8.6	26.7	-92.0	10.3
2025-01-03 12:02:17.712026	8.4	26.8	-92.2	10.2
2025-01-03 12:02:18.854303	8.1	26.9	-92.0	7.4
2025-01-03 12:02:20.016548	7.9	27.1	-92.2	5.8
2025-01-03 12:02:21.175626	7.6	27.2	-91.5	5.2
2025-01-03 12:02:22.338274	7.4	27.4	-91.7	8.5
2025-01-03 12:02:23.489100	7.1	27.5	-91.8	5.1
2025-01-03 12:02:24.653207	6.8	27.6	-91.9	4.1
2025-01-03 12:02:25.816447	6.6	27.8	-91.9	7.0
2025-01-03 12:02:26.979171	6.3	27.9	-92.1	4.6
2025-01-03 12:02:28.134874	6.1	28.0	-91.5	6.1
2025-01-03 12:02:29.294045	5.8	28.2	-91.6	5.7
2025-01-03 12:02:30.459174	5.5	28.3	-91.9	6.2
2025-01-03 12:02:31.620923	5.2	28.4	-92.4	4.5
2025-01-03 12:02:32.781672	5.0	28.6	-92.7	7.3
2025-01-03 12:02:33.960257	4.7	28.7	-92.2	5.0
2025-01-03 12:02:35.123395	4.4	28.8	-91.7	3.7
2025-01-03 12:02:36.284926	4.1	29.0	-91.8	6.7
2025-01-03 12:02:37.445484	3.8	29.1	-92.2	5.9
2025-01-03 12:02:38.605199	3.6	29.3	-92.3	7.4
2025-01-03 12:02:39.773903	3.3	29.4	-92.3	6.9
2025-01-03 12:02:40.932950	3.0	29.5	-91.8	7.9
2025-01-03 12:02:42.101170	2.7	29.7	-91.7	6.1
2025-01-03 12:02:43.262112	2.4	29.8	-91.8	11.4
2025-01-03 12:02:44.417996	2.1	29.9	-92.4	10.5
2025-01-03 12:02:45.581058	1.8	30.1	-92.7	7.6
2025-01-03 12:02:46.741786	1.5	30.2	-92.4	9.1
2025-01-03 12:02:47.897341	1.2	30.3	-92.4	8.7
2025-01-03 12:02:49.059854	0.9	30.5	-92.5	8.1
2025-01-03 12:02:50.224002	0.5	30.6	-91.9	8.1
2025-01-03 12:02:51.398328	0.2	30.7	-92.1	10.6
2025-01-03 12:02:52.564389	359.9	30.9	-92.1	11.1
2025-01-03 12:02:53.725326	359.6	31.0	-91.9	10.1
2025-01-03 12:02:54.890484	359.3	31.1	-90.8	11.2
2025-01-03 12:02:56.050931	358.9	31.2	-90.6	7.7
2025-01-03 12:02:57.226210	358.6	31.4	-89.1	6.7
2025-01-03 12:02:58.387326	358.3	31.5	-90.1	8.9
2025-01-03 12:02:59.554259	357.9	31.6	-90.0	7.2
2025-01-03 12:03:00.705898	357.6	31.8	-90.6	11.2
2025-01-03 12:03:01.865922	357.3	31.9	-90.9	12.3
2025-01-03 12:03:03.033607	356.9	32.0	-91.0	12.7
2025-01-03 12:03:04.193540	356.6	32.1	-90.2	11.2
2025-01-03 12:03:05.361265	356.2	32.3	-90.1	11.0
2025-01-03 12:03:06.522634	355.9	32.4	-92.2	11.9
2025-01-03 12:03:07.680890	355.5	32.5	-92.3	13.3
2025-01-03 12:03:08.833271	355.2	32.6	-91.6	10.8
2025-01-03 12:03:09.994393	354.8	32.8	-92.1	8.7
2025-01-03 12:03:11.153589	354.5	32.9	-90.0	6.9
2025-01-03 12:03:12.319220	354.1	33.0	-89.9	10.6
2025-01-03 12:03:13.478261	353.7	33.1	-90.3	8.9
2025-01-03 12:03:14.643540	353.4	33.2	-89.5	5.3
2025-01-03 12:03:15.807262	353.0	33.4	-92.4	13.6
2025-01-03 12:03:16.971891	352.6	33.5	-92.3	11.0
2025-01-03 12:03:18.127550	352.2	33.6	-91.9	14.0
2025-01-03 12:03:19.287169	351.9	33.7	-91.7	14.0
2025-01-03 12:03:20.452113	351.5	33.8	-92.2	16.2
2025-01-03 12:03:21.610929	351.1	33.9	-92.1	13.9
2025-01-03 12:03:22.773584	350.7	34.1	-92.0	15.3
2025-01-03 12:03:23.938308	350.3	34.2	-92.0	14.7
2025-01-03 12:03:25.105487	349.9	34.3	-91.4	10.3
2025-01-03 12:03:26.266264	349.5	34.4	-91.9	14.7
2025-01-03 12:03:27.427246	349.1	34.5	-92.3	17.1
2025-01-03 12:03:28.587245	348.7	34.6	-92.3	14.3
2025-01-03 12:03:29.752085	348.3	34.7	-91.3	16.5
2025-01-03 12:03:30.919618	347.9	34.8	-92.1	15.8
2025-01-03 12:03:32.088132	347.5	34.9	-91.6	13.0
2025-01-03 12:03:33.250486	347.1	35.0	-91.6	11.4
2025-01-03 12:03:34.414525	346.7	35.1	-91.7	15.7
2025-01-03 12:03:35.581540	346.3	35.2	-92.3	14.7
2025-01-03 12:03:36.743328	345.8	35.3	-92.2	15.7
2025-01-03 12:03:37.899645	345.4	35.4	-92.3	14.6
2025-01-03 12:03:39.056353	345.0	35.5	-92.1	12.2
2025-01-03 12:03:40.216115	344.6	35.6	-92.0	13.2
2025-01-03 12:03:41.382547	344.2	35.7	-91.9	14.8
2025-01-03 12:03:42.545685	343.7	35.8	-92.4	11.2
2025-01-03 12:03:43.710603	343.3	35.9	-92.2	13.9
2025-01-03 12:03:44.869140	342.8	35.9	-91.7	15.0
2025-01-03 12:03:46.036450	342.4	36.0	-92.2	11.0
2025-01-03 12:03:47.197918	342.0	36.1	-91.6	11.6
2025-01-03 12:03:48.360512	341.5	36.2	-91.6	13.9
2025-01-03 12:03:49.522355	341.1	36.3	-92.5	10.6
2025-01-03 12:03:50.695315	340.6	36.4	-92.4	13.4
2025-01-03 12:03:51.867036	340.2	36.4	-92.4	12.1
2025-01-03 12:03:53.029878	339.7	36.5	-92.3	14.5
2025-01-03 12:03:54.191746	339.3	36.6	-91.6	16.3
2025-01-03 12:03:55.356452	338.8	36.6	-91.8	15.6
2025-01-03 12:03:56.522116	338.4	36.7	-92.4	16.5
2025-01-03 12:03:57.688665	337.9	36.8	-92.6	15.3
2025-01-03 12:03:58.841153	337.4	36.8	-92.1	15.7
2025-01-03 12:04:00.003983	337.0	36.9	-92.4	11.5
2025-01-03 12:04:01.151798	336.5	37.0	-91.8	10.7
2025-01-03 12:04:02.320704	336.0	37.0	-92.1	13.6
2025-01-03 12:04:03.482304	335.6	37.1	-92.5	9.9
2025-01-03 12:04:04.642917	335.1	37.1	-92.4	12.8
2025-01-03 12:04:05.800389	334.6	37.2	-92.8	14.0
2025-01-03 12:04:06.974492	334.2	37.2	-92.3	12.8
2025-01-03 12:04:08.131987	333.7	37.3	-92.0	11.9
2025-01-03 12:04:09.296919	333.2	37.3	-91.9	17.6
2025-01-03 12:04:10.457048	332.7	37.4	-92.4	15.0
2025-01-03 12:04:11.619564	332.3	37.4	-92.4	15.8
2025-01-03 12:04:12.782878	331.8	37.4	-92.4	15.7
2025-01-03 12:04:13.948997	331.3	37.5	-92.0	14.3
2025-01-03 12:04:15.110275	330.8	37.5	-91.6	12.0
2025-01-03 12:04:16.273183	330.3	37.6	-91.8	13.0
2025-01-03 12:04:17.440973	329.8	37.6	-92.1	14.1
2025-01-03 12:04:18.597450	329.4	37.6	-92.3	16.0
2025-01-03 12:04:19.758066	328.9	37.6	-92.7	12.9
2025-01-03 12:04:20.922663	328.4	37.7	-92.5	13.6
2025-01-03 12:04:22.091423	327.9	37.7	-92.0	12.6
2025-01-03 12:04:23.258503	327.4	37.7	-92.1	18.5
2025-01-03 12:04:24.422816	326.9	37.7	-92.0	17.0
2025-01-03 12:04:25.588866	326.4	37.7	-92.2	11.3
2025-01-03 12:04:26.748170	325.9	37.7	-92.3	14.9
2025-01-03 12:04:27.913438	325.5	37.7	-92.2	13.8
2025-01-03 12:04:29.073998	325.0	37.7	-91.8	8.9
2025-01-03 12:04:30.246090	324.5	37.7	-91.6	12.4
2025-01-03 12:04:31.411959	324.0	37.7	-92.0	8.7
2025-01-03 12:04:32.575218	323.5	37.7	-92.1	12.0
2025-01-03 12:04:33.736924	323.0	37.7	-92.2	15.5
2025-01-03 12:04:34.902494	322.5	37.7	-92.5	13.1
2025-01-03 12:04:36.064072	322.0	37.7	-92.3	9.9
2025-01-03 12:04:37.225932	321.5	37.7	-91.7	15.0
2025-01-03 12:04:38.388582	321.0	37.7	-91.9	14.0
2025-01-03 12:04:39.524950	320.6	37.7	-92.5	12.3
2025-01-03 12:04:40.688307	320.1	37.7	-92.3	15.3
2025-01-03 12:04:41.851738	319.6	37.6	-92.3	15.6
2025-01-03 12:04:43.015236	319.1	37.6	-92.3	16.6
2025-01-03 12:04:44.171734	318.6	37.6	-91.8	13.9
2025-01-03 12:04:45.332306	318.1	37.6	-91.5	14.0
2025-01-03 12:04:46.492836	317.7	37.5	-91.8	12.9
2025-01-03 12:04:47.656099	317.2	37.5	-92.0	11.2
2025-01-03 12:04:48.809461	316.7	37.5	-92.2	10.8
2025-01-03 12:04:49.977312	316.2	37.4	-92.2	11.5
2025-01-03 12:04:51.141647	315.7	37.4	-91.7	14.9
2025-01-03 12:04:52.320614	315.2	37.4	-91.9	12.9
2025-01-03 12:04:53.486823	314.8	37.3	-92.6	11.6
2025-01-03 12:04:54.651049	314.3	37.3	-91.7	13.7
2025-01-03 12:04:55.812943	313.8	37.2	-92.1	13.4
2025-01-03 12:04:56.977303	313.3	37.2	-91.9	15.9
2025-01-03 12:04:58.146686	312.9	37.1	-91.8	13.7
2025-01-03 12:04:59.307132	312.4	37.1	-91.9	14.6
2025-01-03 12:05:00.460369	311.9	37.0	-92.2	15.5
2025-01-03 12:05:01.625303	311.5	36.9	-91.8	15.2
2025-01-03 12:05:02.789554	311.0	36.9	-92.3	15.1
2025-01-03 12:05:03.953587	310.5	36.8	-92.2	16.2
2025-01-03 12:05:05.114756	310.1	36.8	-91.9	15.4
2025-01-03 12:05:06.281555	309.6	36.7	-91.9	13.2
2025-01-03 12:05:07.440489	309.2	36.6	-92.1	12.9
2025-01-03 12:05:08.604078	308.7	36.6	-91.9	14.3
2025-01-03 12:05:09.768895	308.2	36.5	-92.0	14.0
2025-01-03 12:05:10.929533	307.8	36.4	-92.0	14.3
2025-01-03 12:05:12.094438	307.3	36.3	-91.6	12.0
2025-01-03 12:05:13.256207	306.9	36.3	-91.7	12.2
2025-01-03 12:05:14.419915	306.4	36.2	-92.2	13.1
2025-01-03 12:05:15.583159	306.0	36.1	-92.4	15.0
2025-01-03 12:05:16.747710	305.6	36.0	-92.2	15.9
2025-01-03 12:05:17.908776	305.1	35.9	-92.3	16.1
2025-01-03 12:05:19.074678	304.7	35.8	-91.9	14.0
2025-01-03 12:05:20.235753	304.2	35.7	-91.6	13.8
2025-01-03 12:05:21.401554	303.8	35.7	-91.8	11.4
2025-01-03 12:05:22.566597	303.4	35.6	-92.4	15.4
2025-01-03 12:05:23.730611	303.0	35.5	-92.4	11.6
2025-01-03 12:05:24.897432	302.5	35.4	-92.4	13.5
2025-01-03 12:05:26.060499	302.1	35.3	-92.0	11.1
2025-01-03 12:05:27.225873	301.7	35.2	-91.6	8.6
2025-01-03 12:05:28.385473	301.3	35.1	-91.6	9.7
2025-01-03 12:05:29.542285	300.9	35.0	-92.2	10.0
2025-01-03 12:05:30.706393	300.4	34.9	-92.0	10.3
2025-01-03 12:05:31.871178	300.0	34.8	-92.1	10.9
2025-01-03 12:05:33.033125	299.6	34.7	-92.1	9.5
2025-01-03 12:05:34.188442	299.2	34.6	-91.6	11.7
2025-01-03 12:05:35.349636	298.8	34.5	-91.8	10.7
2025-01-03 12:05:36.525204	298.4	34.3	-92.4	11.2
2025-01-03 12:05:37.686804	298.0	34.2	-92.4	12.6
2025-01-03 12:05:38.847716	297.6	34.1	-92.0	14.5
2025-01-03 12:05:40.011063	297.2	34.0	-91.7	12.0
2025-01-03 12:05:41.175934	296.9	33.9	-91.9	11.6
2025-01-03 12:05:42.342592	296.5	33.8	-91.5	10.1
2025-01-03 12:05:43.505055	296.1	33.7	-92.0	12.4
2025-01-03 12:05:44.666662	295.7	33.5	-92.5	12.4
2025-01-03 12:05:45.832801	295.3	33.4	-92.5	13.5
2025-01-03 12:05:46.994941	294.9	33.3	-92.3	9.1
2025-01-03 12:05:48.162127	294.6	33.2	-91.7	9.3
2025-01-03 12:05:49.316064	294.2	33.1	-91.9	11.0
2025-01-03 12:05:50.479086	293.8	33.0	-92.6	12.0
2025-01-03 12:05:51.644194	293.5	32.8	-92.6	11.1
2025-01-03 12:05:52.793842	293.1	32.7	-92.7	13.5
2025-01-03 12:05:53.959413	292.8	32.6	-92.9	6.7
2025-01-03 12:05:55.123537	292.4	32.5	-92.3	6.1
2025-01-03 12:05:56.293394	292.0	32.3	-92.1	9.6
2025-01-03 12:05:57.450525	291.7	32.2	-92.4	7.0
2025-01-03 12:05:58.610064	291.4	32.1	-92.5	7.3
2025-01-03 12:05:59.770544	291.0	32.0	-90.4	9.2
2025-01-03 12:06:00.928685	290.7	31.8	-91.0	7.7
2025-01-03 12:06:02.086220	290.3	31.7	-90.1	4.7
2025-01-03 12:06:03.250191	290.0	31.6	-90.5	8.5
2025-01-03 12:06:04.410982	289.7	31.4	-90.8	7.4
2025-01-03 12:06:05.571576	289.3	31.3	-91.6	9.7
2025-01-03 12:06:06.734584	289.0	31.2	-92.4	14.9
2025-01-03 12:06:07.895177	288.7	31.0	-92.4	14.5
2025-01-03 12:06:09.053929	288.3	30.9	-92.1	9.9
2025-01-03 12:06:10.221329	288.0	30.8	-91.7	13.5
2025-01-03 12:06:11.380530	287.7	30.7	-91.8	12.7
2025-01-03 12:06:12.547890	287.4	30.5	-92.1	14.4
2025-01-03 12:06:13.717572	287.1	30.4	-92.1	19.2
2025-01-03 12:06:14.872171	286.8	30.3	-92.0	16.9
2025-01-03 12:06:16.040011	286.5	30.1	-91.8	16.3
2025-01-03 12:06:17.200157	286.2	30.0	-91.4	14.5
2025-01-03 12:06:18.364879	285.8	29.8	-91.8	15.6
2025-01-03 12:06:19.521485	285.6	29.7	-92.2	15.7
2025-01-03 12:06:20.674521	285.3	29.6	-91.7	17.1
2025-01-03 12:06:21.814553	285.0	29.4	-92.0	15.9
2025-01-03 12:06:22.935418	284.7	29.3	-92.2	16.0
2025-01-03 12:06:24.055424	284.4	29.2	-92.1	18.5
2025-01-03 12:06:25.176449	284.1	29.1	-89.8	14.5
2025-01-03 12:06:26.296825	283.8	28.9	-91.7	18.0
2025-01-03 12:06:27.416734	283.6	28.8	-92.3	18.5
2025-01-03 12:06:28.536950	283.3	28.7	-92.2	19.2
2025-01-03 12:06:29.661571	283.0	28.5	-92.1	17.7
2025-01-03 12:06:30.807409	282.8	28.4	-92.0	17.3
2025-01-03 12:06:31.964806	282.5	28.3	-92.2	18.0
2025-01-03 12:06:33.126702	282.2	28.1	-91.5	17.5
2025-01-03 12:06:34.287710	281.9	28.0	-91.6	17.4
2025-01-03 12:06:35.441028	281.7	27.8	-91.8	17.0
2025-01-03 12:06:36.605736	281.4	27.7	-92.1	19.9
2025-01-03 12:06:37.763816	281.2	27.6	-92.3	19.4
2025-01-03 12:06:38.921590	280.9	27.4	-92.2	17.4
2025-01-03 12:06:40.081169	280.6	27.3	-91.7	16.3
2025-01-03 12:06:41.245071	280.4	27.2	-91.5	19.1
2025-01-03 12:06:42.412866	280.1	27.0	-92.1	17.4
2025-01-03 12:06:43.571802	279.9	26.9	-92.2	16.8
2025-01-03 12:06:44.734592	279.6	26.8	-92.3	15.2
2025-01-03 12:06:45.895983	279.4	26.6	-92.1	17.3
2025-01-03 12:06:47.060209	279.1	26.5	-91.8	13.6
2025-01-03 12:06:48.228204	278.9	26.3	-91.7	12.5
2025-01-03 12:06:49.388030	278.6	26.2	-91.8	16.7
2025-01-03 12:06:50.549790	278.4	26.1	-91.9	15.4
2025-01-03 12:06:51.710454	278.2	25.9	-92.4	15.7
2025-01-03 12:06:52.879348	277.9	25.8	-92.7	16.1
2025-01-03 12:06:54.041173	277.7	25.7	-92.7	15.5
2025-01-03 12:06:55.204870	277.5	25.5	-92.0	13.8
2025-01-03 12:06:56.366998	277.2	25.4	-91.7	14.8
2025-01-03 12:06:57.523716	277.0	25.3	-91.4	13.7
2025-01-03 12:06:58.688922	276.8	25.1	-92.2	13.7
2025-01-03 12:06:59.852218	276.6	25.0	-92.1	16.4
2025-01-03 12:07:01.003169	276.3	24.9	-92.2	13.7
2025-01-03 12:07:02.165053	276.1	24.7	-91.7	15.2
2025-01-03 12:07:03.332592	275.9	24.6	-92.0	17.2
2025-01-03 12:07:04.488828	275.7	24.4	-92.3	15.8
2025-01-03 12:07:05.616482	275.5	24.3	-92.1	16.1
2025-01-03 12:07:06.781024	275.3	24.2	-92.5	14.7
2025-01-03 12:07:07.938979	275.1	24.1	-92.4	13.4
2025-01-03 12:07:09.101768	274.9	23.9	-92.2	12.6
2025-01-03 12:07:10.262005	274.6	23.8	-91.7	14.4
2025-01-03 12:07:11.424487	274.4	23.7	-92.4	15.3
2025-01-03 12:07:12.579537	274.2	23.5	-92.8	14.7
2025-01-03 12:07:13.742684	274.0	23.4	-92.1	11.7
2025-01-03 12:07:14.897812	273.8	23.3	-92.2	14.6
2025-01-03 12:07:16.078759	273.6	23.1	-91.9	10.7
2025-01-03 12:07:17.241685	273.4	23.0	-92.0	13.8
2025-01-03 12:07:18.403758	273.2	22.9	-92.1	10.6
2025-01-03 12:07:19.564145	273.1	22.7	-92.3	8.4
2025-01-03 12:07:20.728822	272.9	22.6	-92.2	11.9
2025-01-03 12:07:21.890109	272.7	22.5	-91.1	13.3
2025-01-03 12:07:23.051980	272.5	22.3	-90.5	11.9
2025-01-03 12:07:24.214805	272.3	22.2	-90.3	9.6
2025-01-03 12:07:25.376293	272.1	22.1	-90.5	12.3
2025-01-03 12:07:26.532838	271.9	22.0	-91.0	12.9
2025-01-03 12:07:27.695987	271.7	21.8	-91.3	12.1
2025-01-03 12:07:28.860743	271.6	21.7	-91.0	14.5
2025-01-03 12:07:30.017051	271.4	21.6	-92.2	16.3
2025-01-03 12:07:31.179246	271.2	21.4	-91.8	14.5
2025-01-03 12:07:32.342641	271.0	21.3	-91.5	14.7
2025-01-03 12:07:33.505743	270.9	21.2	-92.1	15.4
2025-01-03 12:07:34.660394	270.7	21.1	-92.1	16.4
2025-01-03 12:07:35.812014	270.5	20.9	-92.3	16.7
2025-01-03 12:07:36.944613	270.3	20.8	-92.0	14.1
2025-01-03 12:07:38.065062	270.2	20.7	-92.1	11.2
2025-01-03 12:07:39.186162	270.0	20.6	-91.8	13.3
2025-01-03 12:07:40.306100	269.9	20.5	-92.0	13.0
2025-01-03 12:07:41.426147	269.7	20.3	-92.3	12.6
2025-01-03 12:07:42.546848	269.5	20.2	-91.6	12.4
2025-01-03 12:07:43.669575	269.4	20.1	-91.9	13.6
2025-01-03 12:07:44.792704	269.2	20.0	-91.9	13.7
2025-01-03 12:07:45.942847	269.1	19.8	-92.4	13.6
2025-01-03 12:07:47.100009	268.9	19.7	-91.7	12.2
2025-01-03 12:07:48.263071	268.8	19.6	-91.9	12.1
2025-01-03 12:07:49.413589	268.6	19.5	-92.4	14.0
2025-01-03 12:07:50.579487	268.4	19.4	-92.4	11.8
2025-01-03 12:07:51.746792	268.3	19.2	-92.2	16.6
2025-01-03 12:07:52.911734	268.1	19.1	-92.5	13.1
2025-01-03 12:07:54.075967	268.0	19.0	-91.8	12.1
2025-01-03 12:07:55.237557	267.8	18.9	-92.0	12.5
2025-01-03 12:07:56.400255	267.7	18.8	-92.2	11.0
2025-01-03 12:07:57.560163	267.5	18.6	-92.4	13.2
2025-01-03 12:07:58.724260	267.4	18.5	-92.6	13.5
2025-01-03 12:07:59.886081	267.3	18.4	-92.4	11.4
2025-01-03 12:08:01.031810	267.1	18.3	-92.4	10.1
2025-01-03 12:08:02.195562	267.0	18.2	-91.8	8.3
2025-01-03 12:08:03.348477	266.8	18.0	-92.1	8.7
2025-01-03 12:08:04.486476	266.7	17.9	-91.3	10.9
2025-01-03 12:08:05.644488	266.5	17.8	-92.3	10.6
2025-01-03 12:08:06.797484	266.4	17.7	-92.2	11.3
2025-01-03 12:08:07.954201	266.3	17.6	-92.0	12.2
2025-01-03 12:08:09.108941	266.1	17.5	-91.7	10.9
2025-01-03 12:08:10.266941	266.0	17.4	-92.0	9.5
2025-01-03 12:08:11.425210	265.9	17.2	-92.5	9.9
2025-01-03 12:08:12.585734	265.7	17.1	-92.2	11.3
2025-01-03 12:08:13.746180	265.6	17.0	-92.0	12.0
2025-01-03 12:08:14.912740	265.5	16.9	-91.4	7.6
2025-01-03 12:08:16.076589	265.3	16.8	-90.8	11.6
2025-01-03 12:08:17.245748	265.2	16.7	-90.5	6.7
2025-01-03 12:08:18.407310	265.1	16.6	-90.5	11.8
2025-01-03 12:08:19.579273	265.0	16.4	-91.1	10.2
2025-01-03 12:08:20.739024	264.8	16.3	-90.6	11.9
2025-01-03 12:08:21.899951	264.7	16.2	-92.4	12.1
2025-01-03 12:08:23.064974	264.6	16.1	-92.0	12.2
2025-01-03 12:08:24.227526	264.4	16.0	-91.8	15.1
2025-01-03 12:08:25.395772	264.3	15.9	-92.0	12.2
2025-01-03 12:08:26.555390	264.2	15.8	-92.1	11.4
2025-01-03 12:08:27.720238	264.1	15.7	-92.0	12.5
2025-01-03 12:08:28.888256	264.0	15.6	-92.3	14.5
2025-01-03 12:08:30.044404	263.8	15.4	-91.2	13.7
2025-01-03 12:08:31.210408	263.7	15.3	-91.5	19.3
2025-01-03 12:08:32.374609	263.6	15.2	-91.9	16.1
2025-01-03 12:08:33.538538	263.5	15.1	-92.5	14.1
2025-01-03 12:08:34.701742	263.4	15.0	-92.3	16.9
2025-01-03 12:08:35.865392	263.3	14.9	-92.6	13.4
2025-01-03 12:08:37.020363	263.1	14.8	-92.4	13.3
2025-01-03 12:08:38.181575	263.0	14.7	-91.8	12.1
2025-01-03 12:08:39.337269	262.9	14.6	-92.0	12.2
#Closed at: 2025-01-03 12:00:31.225577