passes_logs/2025/01/03/LEX_Murmansk/LEX_Murmansk__20250103_063057_NOAA_19_rec.log

#Pass ID: 20250103_063057_NOAA 19
#Satellite: NOAA 19
#Configuration: NOAA 19
#Start time: 2025-01-03 06:30:52.281546

#LorettStation: 1.0.0 05.05.2024
#Station: LEX_Murmansk
#Location: 33.156738 lon 68.926811 lat
#TLE: 1 33591U 09005A   25002.89767470  .00000571  00000+0  32860-3 0  9996
#TLE: 2 33591  99.0216  66.5655 0014695  89.7532 270.5323 14.13248849819837

#Time	Az	El	Level	SNR
2025-01-03 06:31:04.406815	44.4	15.8	-92.0	2.6
2025-01-03 06:31:05.559006	44.6	15.9	-91.7	2.9
2025-01-03 06:31:06.715038	44.8	15.9	-91.7	4.4
2025-01-03 06:31:07.861975	45.0	16.0	-92.4	2.2
2025-01-03 06:31:09.013539	45.2	16.1	-92.8	2.7
2025-01-03 06:31:10.166545	45.4	16.2	-91.7	3.0
2025-01-03 06:31:11.332353	45.6	16.2	-92.0	3.1
2025-01-03 06:31:12.492529	45.8	16.3	-91.1	0.7
2025-01-03 06:31:13.630250	46.0	16.4	-91.2	0.8
2025-01-03 06:31:14.783309	46.2	16.5	-91.0	1.0
2025-01-03 06:31:15.936912	46.4	16.5	-91.1	1.2
2025-01-03 06:31:17.086170	46.6	16.6	-90.9	1.3
2025-01-03 06:31:18.241561	46.8	16.7	-90.4	1.5
2025-01-03 06:31:19.391723	47.0	16.8	-90.6	2.5
2025-01-03 06:31:20.546595	47.3	16.8	-92.0	4.1
2025-01-03 06:31:21.708038	47.5	16.9	-91.9	5.1
2025-01-03 06:31:22.858048	47.7	17.0	-92.3	3.1
2025-01-03 06:31:24.016705	47.9	17.0	-92.1	4.5
2025-01-03 06:31:25.166919	48.1	17.1	-92.1	3.3
2025-01-03 06:31:26.327104	48.3	17.2	-91.9	3.0
2025-01-03 06:31:27.484386	48.6	17.3	-92.7	4.3
2025-01-03 06:31:28.641760	48.8	17.3	-92.6	5.8
2025-01-03 06:31:29.795669	49.0	17.4	-92.1	5.7
2025-01-03 06:31:30.954702	49.2	17.5	-92.2	10.5
2025-01-03 06:31:32.105176	49.4	17.6	-92.0	8.6
2025-01-03 06:31:33.261799	49.7	17.6	-91.9	7.8
2025-01-03 06:31:34.407604	49.9	17.7	-92.3	6.4
2025-01-03 06:31:35.563409	50.1	17.8	-92.7	4.5
2025-01-03 06:31:36.717156	50.3	17.8	-92.7	3.1
2025-01-03 06:31:37.873130	50.6	17.9	-92.3	1.5
2025-01-03 06:31:39.027435	50.8	18.0	-92.6	2.2
2025-01-03 06:31:40.190546	51.0	18.0	-92.3	1.5
2025-01-03 06:31:41.346771	51.3	18.1	-91.8	3.4
2025-01-03 06:31:42.497152	51.5	18.2	-92.0	5.6
2025-01-03 06:31:43.654534	51.7	18.3	-92.3	7.3
2025-01-03 06:31:44.809137	52.0	18.3	-91.8	7.8
2025-01-03 06:31:45.955821	52.2	18.4	-92.1	6.8
2025-01-03 06:31:47.106118	52.4	18.5	-91.5	9.9
2025-01-03 06:31:48.264173	52.7	18.5	-91.2	7.5
2025-01-03 06:31:49.425475	52.9	18.6	-91.1	9.3
2025-01-03 06:31:50.583173	53.1	18.7	-91.1	8.6
2025-01-03 06:31:51.728421	53.4	18.7	-90.7	5.1
2025-01-03 06:31:52.888955	53.6	18.8	-90.2	5.6
2025-01-03 06:31:54.045512	53.9	18.9	-90.5	7.1
2025-01-03 06:31:55.195337	54.1	18.9	-91.5	5.6
2025-01-03 06:31:56.347882	54.4	19.0	-91.8	8.7
2025-01-03 06:31:57.504660	54.6	19.1	-91.8	12.0
2025-01-03 06:31:58.658090	54.9	19.1	-91.9	13.5
2025-01-03 06:31:59.813722	55.1	19.2	-91.9	12.5
2025-01-03 06:32:00.958397	55.3	19.3	-91.8	8.1
2025-01-03 06:32:02.110045	55.6	19.3	-91.5	6.7
2025-01-03 06:32:03.262179	55.8	19.4	-91.9	3.4
2025-01-03 06:32:04.418807	56.1	19.4	-92.1	5.0
2025-01-03 06:32:05.569625	56.3	19.5	-91.7	2.8
2025-01-03 06:32:06.724458	56.6	19.6	-92.0	3.5
2025-01-03 06:32:07.879455	56.9	19.6	-91.1	4.6
2025-01-03 06:32:09.032940	57.1	19.7	-92.1	5.3
2025-01-03 06:32:10.184640	57.4	19.8	-91.7	7.2
2025-01-03 06:32:11.338604	57.6	19.8	-91.9	8.9
2025-01-03 06:32:12.494709	57.9	19.9	-92.3	11.1
2025-01-03 06:32:13.652205	58.1	19.9	-92.2	9.4
2025-01-03 06:32:14.807806	58.4	20.0	-92.3	12.2
2025-01-03 06:32:15.961205	58.7	20.1	-91.8	11.1
2025-01-03 06:32:17.124743	58.9	20.1	-91.7	11.2
2025-01-03 06:32:18.286098	59.2	20.2	-91.4	7.2
2025-01-03 06:32:19.450055	59.5	20.2	-92.0	10.1
2025-01-03 06:32:20.604033	59.7	20.3	-92.0	8.4
2025-01-03 06:32:21.755382	60.0	20.3	-92.1	5.8
2025-01-03 06:32:22.903377	60.3	20.4	-92.2	7.6
2025-01-03 06:32:24.052841	60.5	20.5	-92.2	8.1
2025-01-03 06:32:25.213096	60.8	20.5	-92.0	8.0
2025-01-03 06:32:26.367890	61.1	20.6	-91.2	10.3
2025-01-03 06:32:27.523697	61.3	20.6	-92.1	13.8
2025-01-03 06:32:28.678236	61.6	20.7	-92.1	13.8
2025-01-03 06:32:29.842668	61.9	20.7	-92.3	13.7
2025-01-03 06:32:30.999868	62.2	20.8	-92.1	12.3
2025-01-03 06:32:32.154114	62.4	20.8	-92.2	10.5
2025-01-03 06:32:33.312642	62.7	20.9	-92.2	6.7
2025-01-03 06:32:34.470596	63.0	20.9	-92.3	6.3
2025-01-03 06:32:35.623427	63.3	21.0	-92.6	6.4
2025-01-03 06:32:36.776503	63.5	21.0	-92.4	2.3
2025-01-03 06:32:37.933959	63.8	21.1	-92.3	7.0
2025-01-03 06:32:39.091237	64.1	21.1	-91.9	4.9
2025-01-03 06:32:40.241103	64.4	21.2	-91.8	5.8
2025-01-03 06:32:41.398972	64.7	21.2	-92.4	7.1
2025-01-03 06:32:42.551555	64.9	21.3	-92.2	7.2
2025-01-03 06:32:43.704075	65.2	21.3	-92.4	8.5
2025-01-03 06:32:44.855461	65.5	21.4	-92.1	9.7
2025-01-03 06:32:45.979013	65.8	21.4	-92.2	13.7
2025-01-03 06:32:47.099899	66.1	21.5	-91.6	14.0
2025-01-03 06:32:48.220524	66.3	21.5	-92.0	15.6
2025-01-03 06:32:49.341640	66.6	21.5	-92.2	14.2
2025-01-03 06:32:50.462095	66.9	21.6	-92.4	11.6
2025-01-03 06:32:51.582935	67.2	21.6	-92.6	12.1
2025-01-03 06:32:52.705177	67.5	21.7	-92.4	7.0
2025-01-03 06:32:53.826076	67.8	21.7	-92.0	6.5
2025-01-03 06:32:54.975207	68.0	21.8	-92.1	8.5
2025-01-03 06:32:56.123718	68.3	21.8	-91.2	8.2
2025-01-03 06:32:57.278893	68.6	21.8	-92.2	5.0
2025-01-03 06:32:58.419878	68.9	21.9	-92.2	6.9
2025-01-03 06:32:59.585551	69.2	21.9	-92.2	9.1
2025-01-03 06:33:00.731502	69.5	21.9	-92.5	8.0
2025-01-03 06:33:01.891038	69.8	22.0	-92.4	11.6
2025-01-03 06:33:03.043756	70.1	22.0	-91.6	12.1
2025-01-03 06:33:04.198943	70.4	22.0	-91.8	13.7
2025-01-03 06:33:05.348803	70.7	22.1	-91.8	14.3
2025-01-03 06:33:06.498541	71.0	22.1	-92.0	13.6
2025-01-03 06:33:07.646561	71.3	22.1	-92.3	12.6
2025-01-03 06:33:08.799834	71.6	22.2	-92.4	11.4
2025-01-03 06:33:09.956978	71.9	22.2	-92.3	10.8
2025-01-03 06:33:11.112069	72.2	22.2	-91.8	9.0
2025-01-03 06:33:12.268659	72.5	22.3	-91.8	7.4
2025-01-03 06:33:13.419047	72.8	22.3	-91.9	7.1
2025-01-03 06:33:14.568840	73.1	22.3	-92.4	7.3
2025-01-03 06:33:15.722061	73.4	22.4	-92.0	3.7
2025-01-03 06:33:16.882868	73.7	22.4	-92.2	4.0
2025-01-03 06:33:18.034023	74.0	22.4	-92.3	3.7
2025-01-03 06:33:19.186102	74.3	22.4	-91.8	3.5
2025-01-03 06:33:20.340189	74.6	22.5	-92.0	2.4
2025-01-03 06:33:21.494801	74.9	22.5	-92.3	4.3
2025-01-03 06:33:22.649898	75.2	22.5	-92.5	5.8
2025-01-03 06:33:23.809703	75.5	22.5	-92.4	4.5
2025-01-03 06:33:24.956729	75.8	22.5	-92.5	6.7
2025-01-03 06:33:26.109371	76.1	22.6	-92.2	6.7
2025-01-03 06:33:27.262958	76.4	22.6	-91.9	7.4
2025-01-03 06:33:28.416101	76.7	22.6	-91.9	7.5
2025-01-03 06:33:29.566699	77.1	22.6	-92.2	9.5
2025-01-03 06:33:30.720057	77.4	22.6	-92.4	10.3
2025-01-03 06:33:31.878353	77.7	22.6	-92.6	10.0
2025-01-03 06:33:33.034044	78.0	22.7	-92.5	9.1
2025-01-03 06:33:34.189672	78.3	22.7	-92.0	12.2
2025-01-03 06:33:35.341980	78.6	22.7	-92.0	10.2
2025-01-03 06:33:36.491284	78.9	22.7	-92.4	11.8
2025-01-03 06:33:37.648730	79.2	22.7	-92.4	11.8
2025-01-03 06:33:38.800523	79.5	22.7	-92.5	7.1
2025-01-03 06:33:39.950992	79.8	22.7	-92.5	9.3
2025-01-03 06:33:41.098538	80.1	22.7	-92.1	6.2
2025-01-03 06:33:42.259006	80.5	22.8	-91.8	4.1
2025-01-03 06:33:43.413515	80.8	22.8	-92.5	3.2
2025-01-03 06:33:44.571799	81.1	22.8	-92.5	3.9
2025-01-03 06:33:45.724946	81.4	22.8	-92.8	2.7
2025-01-03 06:33:46.872627	81.7	22.8	-92.8	3.2
2025-01-03 06:33:48.022559	82.0	22.8	-93.0	4.8
2025-01-03 06:33:49.179729	82.3	22.8	-92.6	3.2
2025-01-03 06:33:50.333208	82.6	22.8	-92.2	3.0
2025-01-03 06:33:51.487020	82.9	22.8	-92.7	2.9
2025-01-03 06:33:52.636584	83.3	22.8	-92.5	3.0
2025-01-03 06:33:53.795195	83.6	22.8	-92.7	2.9
2025-01-03 06:33:54.953200	83.9	22.8	-92.7	4.1
2025-01-03 06:33:56.105511	84.2	22.8	-91.3	5.6
2025-01-03 06:33:57.258180	84.5	22.8	-91.7	3.3
2025-01-03 06:33:58.405683	84.8	22.8	-91.4	4.9
2025-01-03 06:33:59.561365	85.1	22.8	-91.5	3.4
2025-01-03 06:34:00.710107	85.4	22.8	-91.6	5.8
2025-01-03 06:34:01.860089	85.7	22.8	-91.4	5.6
2025-01-03 06:34:03.016379	86.1	22.8	-91.5	7.3
2025-01-03 06:34:04.164040	86.4	22.7	-90.9	6.3
2025-01-03 06:34:05.314688	86.7	22.7	-91.3	6.4
2025-01-03 06:34:06.464958	87.0	22.7	-92.4	10.3
2025-01-03 06:34:07.622824	87.3	22.7	-92.6	10.3
2025-01-03 06:34:08.775281	87.6	22.7	-92.4	12.0
2025-01-03 06:34:09.923487	87.9	22.7	-92.6	11.4
2025-01-03 06:34:11.079353	88.2	22.7	-92.5	10.0
2025-01-03 06:34:12.202015	88.5	22.7	-92.2	6.0
2025-01-03 06:34:13.321965	88.8	22.7	-90.8	5.8
2025-01-03 06:34:14.444676	89.1	22.6	-91.6	6.1
2025-01-03 06:34:15.566137	89.4	22.6	-91.5	5.1
2025-01-03 06:34:16.687091	89.7	22.6	-91.4	5.4
2025-01-03 06:34:17.808566	90.0	22.6	-91.5	4.9
2025-01-03 06:34:18.929085	90.3	22.6	-91.3	2.5
2025-01-03 06:34:20.067006	90.6	22.6	-91.2	2.5
2025-01-03 06:34:21.213761	90.9	22.5	-90.7	1.4
2025-01-03 06:34:22.371066	91.2	22.5	-91.4	4.9
2025-01-03 06:34:23.518395	91.5	22.5	-91.7	4.2
2025-01-03 06:34:24.661181	91.8	22.5	-92.0	4.2
2025-01-03 06:34:25.803628	92.1	22.4	-91.4	2.2
2025-01-03 06:34:26.947158	92.4	22.4	-91.6	2.6
2025-01-03 06:34:28.078763	92.7	22.4	-91.1	3.3
2025-01-03 06:34:29.227696	93.0	22.4	-91.1	2.2
2025-01-03 06:34:30.376473	93.3	22.3	-91.8	4.1
2025-01-03 06:34:31.519358	93.6	22.3	-91.6	3.1
2025-01-03 06:34:32.665104	93.9	22.3	-92.6	9.3
2025-01-03 06:34:33.821168	94.2	22.3	-92.7	8.1
2025-01-03 06:34:34.977601	94.5	22.2	-92.5	4.3
2025-01-03 06:34:36.123135	94.8	22.2	-92.0	6.3
2025-01-03 06:34:37.282009	95.1	22.2	-92.1	8.8
2025-01-03 06:34:38.422435	95.4	22.1	-92.0	3.5
2025-01-03 06:34:39.587273	95.7	22.1	-92.1	5.7
2025-01-03 06:34:40.737547	96.0	22.1	-92.4	10.9
2025-01-03 06:34:41.891621	96.3	22.0	-92.5	8.4
2025-01-03 06:34:43.050189	96.6	22.0	-92.1	4.4
2025-01-03 06:34:44.213405	96.9	22.0	-92.2	9.0
2025-01-03 06:34:45.367356	97.2	21.9	-92.6	9.6
2025-01-03 06:34:46.520616	97.5	21.9	-92.6	5.2
2025-01-03 06:34:47.675067	97.8	21.8	-92.5	10.7
2025-01-03 06:34:48.824355	98.1	21.8	-92.3	11.9
2025-01-03 06:34:49.980638	98.4	21.8	-92.4	5.5
2025-01-03 06:34:51.131730	98.7	21.7	-92.1	6.8
2025-01-03 06:34:52.290954	99.0	21.7	-92.1	10.8
2025-01-03 06:34:53.441833	99.3	21.6	-92.5	5.9
2025-01-03 06:34:54.590759	99.6	21.6	-92.1	5.5
2025-01-03 06:34:55.740900	99.8	21.6	-92.1	8.7
2025-01-03 06:34:56.898078	100.1	21.5	-92.4	6.7
2025-01-03 06:34:58.046853	100.4	21.5	-92.5	6.3
2025-01-03 06:34:59.208466	100.7	21.4	-92.2	12.4
2025-01-03 06:35:00.357864	101.0	21.4	-92.2	10.5
2025-01-03 06:35:01.513774	101.3	21.3	-92.4	7.3
2025-01-03 06:35:02.672070	101.6	21.3	-92.5	12.7
2025-01-03 06:35:03.825858	101.9	21.2	-92.5	14.0
2025-01-03 06:35:04.986223	102.1	21.2	-92.3	6.4
2025-01-03 06:35:06.133889	102.4	21.2	-91.9	11.8
2025-01-03 06:35:07.284136	102.7	21.1	-92.2	15.7
2025-01-03 06:35:08.430512	103.0	21.1	-92.3	8.6
2025-01-03 06:35:09.561107	103.2	21.0	-92.7	6.5
2025-01-03 06:35:10.682003	103.5	21.0	-92.4	14.1
2025-01-03 06:35:11.809671	103.8	20.9	-92.5	11.9
2025-01-03 06:35:12.931109	104.1	20.9	-92.4	9.9
2025-01-03 06:35:14.051751	104.3	20.8	-92.4	8.0
2025-01-03 06:35:15.171371	104.6	20.8	-92.1	14.1
2025-01-03 06:35:16.295392	104.9	20.7	-92.0	14.2
2025-01-03 06:35:17.422400	105.1	20.6	-92.3	7.6
2025-01-03 06:35:18.564296	105.4	20.6	-92.5	7.9
2025-01-03 06:35:19.716962	105.7	20.5	-92.8	13.1
2025-01-03 06:35:20.844320	105.9	20.5	-92.7	11.5
2025-01-03 06:35:21.985285	106.2	20.4	-92.2	8.5
2025-01-03 06:35:23.129113	106.5	20.4	-92.2	9.0
2025-01-03 06:35:24.279880	106.7	20.3	-92.2	12.3
2025-01-03 06:35:25.425011	107.0	20.3	-92.3	8.2
2025-01-03 06:35:26.570076	107.3	20.2	-92.1	4.9
2025-01-03 06:35:27.720026	107.5	20.1	-92.8	9.9
2025-01-03 06:35:28.874739	107.8	20.1	-92.6	7.6
2025-01-03 06:35:30.027633	108.0	20.0	-92.4	8.6
2025-01-03 06:35:31.188454	108.3	20.0	-92.5	10.1
2025-01-03 06:35:32.340987	108.6	19.9	-91.8	8.8
2025-01-03 06:35:33.489981	108.8	19.8	-92.4	8.8
2025-01-03 06:35:34.644424	109.1	19.8	-92.5	7.8
2025-01-03 06:35:35.796659	109.3	19.7	-92.9	9.4
2025-01-03 06:35:36.954624	109.6	19.7	-92.8	8.2
2025-01-03 06:35:38.115486	109.9	19.6	-92.2	10.9
2025-01-03 06:35:39.269737	110.1	19.5	-92.4	10.3
2025-01-03 06:35:40.422660	110.4	19.5	-92.5	10.6
2025-01-03 06:35:41.569261	110.6	19.4	-92.3	6.2
2025-01-03 06:35:42.718826	110.9	19.3	-92.3	10.2
2025-01-03 06:35:43.867961	111.1	19.3	-92.7	10.7
2025-01-03 06:35:45.017630	111.4	19.2	-92.5	6.2
2025-01-03 06:35:46.166452	111.6	19.2	-92.2	8.1
2025-01-03 06:35:47.318741	111.9	19.1	-92.1	8.6
2025-01-03 06:35:48.477030	112.1	19.0	-92.4	7.8
2025-01-03 06:35:49.630743	112.3	19.0	-92.3	9.5
2025-01-03 06:35:50.783567	112.6	18.9	-92.8	8.5
2025-01-03 06:35:51.941641	112.8	18.8	-92.6	7.9
2025-01-03 06:35:53.097446	113.1	18.8	-92.2	4.3
2025-01-03 06:35:54.249429	113.3	18.7	-92.5	7.8
2025-01-03 06:35:55.401278	113.6	18.6	-92.3	5.9
2025-01-03 06:35:56.546851	113.8	18.6	-92.5	4.8
2025-01-03 06:35:57.701260	114.0	18.5	-92.6	9.6
2025-01-03 06:35:58.858858	114.3	18.4	-92.5	9.9
2025-01-03 06:36:00.011795	114.5	18.4	-92.2	5.9
2025-01-03 06:36:01.157378	114.7	18.3	-92.2	9.9
2025-01-03 06:36:02.314037	115.0	18.2	-92.0	9.3
2025-01-03 06:36:03.459667	115.2	18.1	-92.6	5.3
2025-01-03 06:36:04.617986	115.4	18.1	-92.3	4.9
2025-01-03 06:36:05.771803	115.7	18.0	-92.3	12.0
2025-01-03 06:36:06.927375	115.9	17.9	-92.1	5.2
2025-01-03 06:36:08.083450	116.1	17.9	-92.0	4.6
2025-01-03 06:36:09.247825	116.4	17.8	-91.8	10.7
2025-01-03 06:36:10.396476	116.6	17.7	-92.4	8.1
2025-01-03 06:36:11.551487	116.8	17.6	-92.6	7.5
2025-01-03 06:36:12.705362	117.0	17.6	-92.6	13.6
2025-01-03 06:36:13.869096	117.3	17.5	-92.4	12.0
2025-01-03 06:36:15.026472	117.5	17.4	-91.4	7.3
2025-01-03 06:36:16.181790	117.7	17.4	-91.0	9.6
2025-01-03 06:36:17.332054	117.9	17.3	-91.1	8.6
2025-01-03 06:36:18.483291	118.1	17.2	-91.9	8.7
2025-01-03 06:36:19.645193	118.4	17.1	-91.5	7.8
2025-01-03 06:36:20.797516	118.6	17.1	-91.4	9.4
2025-01-03 06:36:21.946960	118.8	17.0	-91.6	8.9
2025-01-03 06:36:23.095192	119.0	16.9	-91.5	6.8
2025-01-03 06:36:24.256976	119.2	16.9	-91.5	6.1
2025-01-03 06:36:25.413862	119.4	16.8	-92.7	9.8
2025-01-03 06:36:26.569484	119.6	16.7	-92.5	10.4
2025-01-03 06:36:27.729012	119.9	16.6	-92.6	10.2
2025-01-03 06:36:28.884253	120.1	16.6	-92.4	9.6
2025-01-03 06:36:30.044830	120.3	16.5	-92.3	6.9
2025-01-03 06:36:31.200522	120.5	16.4	-92.4	8.3
2025-01-03 06:36:32.358116	120.7	16.3	-92.1	7.6
2025-01-03 06:36:33.510088	120.9	16.3	-92.8	3.5
2025-01-03 06:36:34.661596	121.1	16.2	-92.8	8.6
2025-01-03 06:36:35.818109	121.3	16.1	-92.4	7.2
2025-01-03 06:36:36.976544	121.5	16.0	-92.7	4.8
2025-01-03 06:36:38.147269	121.7	16.0	-92.5	4.8
2025-01-03 06:36:39.301274	121.9	15.9	-92.1	3.8
2025-01-03 06:36:40.461198	122.1	15.8	-92.5	3.2
2025-01-03 06:36:41.624738	122.3	15.7	-92.5	4.3
2025-01-03 06:36:42.783429	122.5	15.7	-93.0	8.1
2025-01-03 06:36:43.929893	122.7	15.6	-92.7	4.2
2025-01-03 06:36:45.092555	122.9	15.5	-92.2	6.4
2025-01-03 06:36:46.243068	123.1	15.4	-92.2	8.1
2025-01-03 06:36:47.396944	123.3	15.4	-92.4	6.2
2025-01-03 06:36:48.548738	123.5	15.3	-92.7	8.1
2025-01-03 06:36:49.708541	123.7	15.2	-92.2	8.6
2025-01-03 06:36:50.850585	123.9	15.1	-92.6	9.0
2025-01-03 06:36:52.002035	124.1	15.1	-92.0	7.3
2025-01-03 06:36:53.159323	124.3	15.0	-92.1	6.7
2025-01-03 06:36:54.314190	124.5	14.9	-91.7	6.7
2025-01-03 06:36:55.466092	124.6	14.8	-92.5	5.8
2025-01-03 06:36:56.622551	124.8	14.7	-92.1	6.0
2025-01-03 06:36:57.786092	125.0	14.7	-92.2	3.5
#Closed at: 2025-01-03 06:30:57.211824