passes_logs/2025/01/03/LEX_Murmansk/LEX_Murmansk__20250103_113241_NOAA_19_rec.log

#Pass ID: 20250103_113241_NOAA 19
#Satellite: NOAA 19
#Configuration: NOAA 19
#Start time: 2025-01-03 11:32:36.377723

#LorettStation: 1.0.0 05.05.2024
#Station: LEX_Murmansk
#Location: 33.156738 lon 68.926811 lat
#TLE: 1 33591U 09005A   25002.89767470  .00000571  00000+0  32860-3 0  9996
#TLE: 2 33591  99.0216  66.5655 0014695  89.7532 270.5323 14.13248849819837

#Time	Az	El	Level	SNR
2025-01-03 11:32:50.610516	25.1	16.2	-91.8	1.3
2025-01-03 11:32:51.781775	25.0	16.3	-91.9	2.2
2025-01-03 11:32:52.947489	24.8	16.4	-91.8	3.9
2025-01-03 11:32:54.110268	24.7	16.5	-91.7	3.2
2025-01-03 11:32:55.265691	24.5	16.6	-91.5	0.6
2025-01-03 11:32:56.434417	24.4	16.7	-91.9	2.6
2025-01-03 11:32:57.598649	24.2	16.8	-91.5	3.2
2025-01-03 11:32:58.758423	24.0	16.9	-91.7	2.3
2025-01-03 11:32:59.923077	23.9	17.0	-91.7	5.0
2025-01-03 11:33:01.076465	23.7	17.1	-91.5	3.5
2025-01-03 11:33:02.240945	23.5	17.3	-91.5	1.2
2025-01-03 11:33:03.402980	23.4	17.4	-91.7	3.4
2025-01-03 11:33:04.568375	23.2	17.5	-92.0	3.2
2025-01-03 11:33:05.726183	23.0	17.6	-91.9	2.5
2025-01-03 11:33:06.889137	22.8	17.7	-92.1	4.5
2025-01-03 11:33:08.049678	22.7	17.8	-91.9	5.9
2025-01-03 11:33:09.222588	22.5	17.9	-91.5	12.3
2025-01-03 11:33:10.377030	22.3	18.0	-91.6	9.0
2025-01-03 11:33:11.542127	22.1	18.1	-90.6	9.6
2025-01-03 11:33:12.707533	22.0	18.2	-90.6	5.1
2025-01-03 11:33:13.866916	21.8	18.3	-90.8	4.4
2025-01-03 11:33:15.036017	21.6	18.4	-90.6	8.8
2025-01-03 11:33:16.193478	21.4	18.5	-90.5	2.7
2025-01-03 11:33:17.359870	21.2	18.6	-90.6	3.0
2025-01-03 11:33:18.520558	21.1	18.7	-92.0	8.7
2025-01-03 11:33:19.682683	20.9	18.8	-92.1	6.3
2025-01-03 11:33:20.835800	20.7	18.9	-91.7	4.5
2025-01-03 11:33:21.996340	20.5	19.0	-92.0	1.6
2025-01-03 11:33:23.156272	20.3	19.1	-92.1	3.7
2025-01-03 11:33:24.323423	20.1	19.2	-92.0	2.2
2025-01-03 11:33:25.490503	19.9	19.3	-92.3	2.5
2025-01-03 11:33:26.651609	19.7	19.5	-92.1	6.0
2025-01-03 11:33:27.817181	19.5	19.6	-92.2	4.0
2025-01-03 11:33:28.978468	19.3	19.7	-91.8	4.9
2025-01-03 11:33:30.136579	19.1	19.8	-91.5	4.9
2025-01-03 11:33:31.298725	18.9	19.9	-91.2	4.0
2025-01-03 11:33:32.465198	18.7	20.0	-91.5	4.0
2025-01-03 11:33:33.621005	18.5	20.1	-91.8	5.7
2025-01-03 11:33:34.784363	18.3	20.2	-91.9	4.4
2025-01-03 11:33:35.943118	18.1	20.3	-91.3	5.5
2025-01-03 11:33:37.108348	17.9	20.4	-91.5	8.4
2025-01-03 11:33:38.289431	17.7	20.5	-91.2	8.8
2025-01-03 11:33:39.452701	17.5	20.6	-90.6	6.8
2025-01-03 11:33:40.613132	17.3	20.7	-91.7	4.5
2025-01-03 11:33:41.776251	17.1	20.8	-91.7	2.8
2025-01-03 11:33:42.936909	16.9	21.0	-91.6	1.9
2025-01-03 11:33:44.106020	16.6	21.1	-91.9	2.9
2025-01-03 11:33:45.267839	16.4	21.2	-91.6	0.5
2025-01-03 11:33:46.436874	16.2	21.3	-91.8	4.5
2025-01-03 11:33:47.599589	16.0	21.4	-91.7	7.7
2025-01-03 11:33:48.759031	15.8	21.5	-92.0	5.6
2025-01-03 11:33:49.920620	15.5	21.6	-91.9	6.3
2025-01-03 11:33:51.077304	15.3	21.7	-91.5	7.6
2025-01-03 11:33:52.239276	15.1	21.8	-91.6	3.0
2025-01-03 11:33:53.406490	14.9	21.9	-91.4	4.7
2025-01-03 11:33:54.573804	14.6	22.0	-91.8	6.4
2025-01-03 11:33:55.738767	14.4	22.1	-91.9	3.6
2025-01-03 11:33:56.902197	14.2	22.2	-91.9	5.6
2025-01-03 11:33:58.065116	13.9	22.3	-91.8	6.4
2025-01-03 11:33:59.234623	13.7	22.5	-91.6	8.3
2025-01-03 11:34:00.388616	13.5	22.6	-91.7	10.4
2025-01-03 11:34:01.548165	13.2	22.7	-91.6	10.4
2025-01-03 11:34:02.713231	13.0	22.8	-91.8	6.2
2025-01-03 11:34:03.881966	12.7	22.9	-91.7	2.7
2025-01-03 11:34:05.042353	12.5	23.0	-91.9	3.9
2025-01-03 11:34:06.202656	12.2	23.1	-91.9	2.4
2025-01-03 11:34:07.368839	12.0	23.2	-91.7	2.5
2025-01-03 11:34:08.534736	11.7	23.3	-92.0	5.2
2025-01-03 11:34:09.699541	11.5	23.4	-92.1	8.5
2025-01-03 11:34:10.854827	11.2	23.5	-91.7	9.8
2025-01-03 11:34:12.019091	11.0	23.6	-92.0	12.1
2025-01-03 11:34:13.177116	10.7	23.7	-91.4	10.8
2025-01-03 11:34:14.344395	10.5	23.8	-91.3	9.1
2025-01-03 11:34:15.511110	10.2	23.9	-91.6	9.3
2025-01-03 11:34:16.672402	10.0	24.0	-92.0	6.6
2025-01-03 11:34:17.833062	9.7	24.1	-92.1	3.8
2025-01-03 11:34:18.992221	9.4	24.2	-92.3	6.9
2025-01-03 11:34:20.155712	9.2	24.4	-91.9	8.9
2025-01-03 11:34:21.311895	8.9	24.5	-91.3	7.0
2025-01-03 11:34:22.479730	8.6	24.6	-92.2	6.9
2025-01-03 11:34:23.640515	8.3	24.7	-92.2	10.0
2025-01-03 11:34:24.802617	8.1	24.8	-92.1	4.1
2025-01-03 11:34:25.967468	7.8	24.9	-92.1	5.4
2025-01-03 11:34:27.130989	7.5	25.0	-91.7	2.6
2025-01-03 11:34:28.289638	7.2	25.1	-91.8	1.9
2025-01-03 11:34:29.455181	7.0	25.2	-91.7	2.0
2025-01-03 11:34:30.610436	6.7	25.3	-91.1	3.5
2025-01-03 11:34:31.776174	6.4	25.4	-91.0	1.5
2025-01-03 11:34:32.936692	6.1	25.5	-91.0	2.3
2025-01-03 11:34:34.098240	5.8	25.6	-91.0	3.7
2025-01-03 11:34:35.267257	5.5	25.7	-90.8	6.7
2025-01-03 11:34:36.426406	5.2	25.8	-91.2	7.4
2025-01-03 11:34:37.596850	4.9	25.9	-92.0	7.7
2025-01-03 11:34:38.736554	4.6	26.0	-91.9	8.8
2025-01-03 11:34:39.915649	4.3	26.1	-92.0	8.8
2025-01-03 11:34:41.069804	4.0	26.2	-91.8	7.5
2025-01-03 11:34:42.234207	3.7	26.3	-91.5	4.8
2025-01-03 11:34:43.395073	3.4	26.3	-91.9	4.9
2025-01-03 11:34:44.560182	3.1	26.4	-92.0	8.3
2025-01-03 11:34:45.726066	2.8	26.5	-92.3	8.6
2025-01-03 11:34:46.890873	2.5	26.6	-92.1	9.5
2025-01-03 11:34:48.058283	2.2	26.7	-91.7	10.3
2025-01-03 11:34:49.227389	1.9	26.8	-91.5	10.5
2025-01-03 11:34:50.383355	1.6	26.9	-91.8	10.9
2025-01-03 11:34:51.548049	1.3	27.0	-91.9	8.1
2025-01-03 11:34:52.704219	0.9	27.1	-92.0	5.5
2025-01-03 11:34:53.869749	0.6	27.2	-91.9	3.2
2025-01-03 11:34:55.033705	0.3	27.3	-92.0	2.9
2025-01-03 11:34:56.195318	360.0	27.4	-91.5	2.4
2025-01-03 11:34:57.357000	359.7	27.4	-92.1	3.1
2025-01-03 11:34:58.522430	359.3	27.5	-92.3	2.7
2025-01-03 11:34:59.684947	359.0	27.6	-92.2	2.1
2025-01-03 11:35:00.837613	358.7	27.7	-91.9	1.0
2025-01-03 11:35:01.998923	358.3	27.8	-92.5	4.4
2025-01-03 11:35:03.167253	358.0	27.9	-91.8	4.7
2025-01-03 11:35:04.328741	357.7	28.0	-91.7	6.0
2025-01-03 11:35:05.494100	357.3	28.0	-91.9	7.8
2025-01-03 11:35:06.661396	357.0	28.1	-92.0	10.5
2025-01-03 11:35:07.823046	356.6	28.2	-92.3	6.3
2025-01-03 11:35:08.989291	356.3	28.3	-92.4	7.4
2025-01-03 11:35:10.153291	356.0	28.4	-91.8	6.4
2025-01-03 11:35:11.310883	355.6	28.4	-91.6	2.8
2025-01-03 11:35:12.475172	355.3	28.5	-92.1	4.5
2025-01-03 11:35:13.638347	354.9	28.6	-91.8	4.8
2025-01-03 11:35:14.803311	354.6	28.7	-91.9	3.8
2025-01-03 11:35:15.963715	354.2	28.7	-91.7	7.6
2025-01-03 11:35:17.127451	353.9	28.8	-91.6	9.3
2025-01-03 11:35:18.289122	353.5	28.9	-91.5	7.0
2025-01-03 11:35:19.444932	353.1	28.9	-91.7	9.6
2025-01-03 11:35:20.601917	352.8	29.0	-91.8	8.7
2025-01-03 11:35:21.740986	352.4	29.1	-92.2	5.4
2025-01-03 11:35:22.861751	352.1	29.1	-92.0	3.7
2025-01-03 11:35:23.983276	351.7	29.2	-91.9	8.0
2025-01-03 11:35:25.103912	351.4	29.3	-91.3	4.2
2025-01-03 11:35:26.223645	351.0	29.3	-91.4	1.3
2025-01-03 11:35:27.344394	350.7	29.4	-91.9	2.3
2025-01-03 11:35:28.465409	350.3	29.5	-92.0	3.3
2025-01-03 11:35:29.590823	350.0	29.5	-92.0	3.2
2025-01-03 11:35:30.722085	349.6	29.6	-91.9	3.0
2025-01-03 11:35:31.889596	349.2	29.6	-90.8	3.1
2025-01-03 11:35:33.044357	348.9	29.7	-90.9	5.6
2025-01-03 11:35:34.203781	348.5	29.7	-90.8	3.7
2025-01-03 11:35:35.357349	348.1	29.8	-91.1	4.8
2025-01-03 11:35:36.517164	347.7	29.8	-90.7	7.6
2025-01-03 11:35:37.679070	347.3	29.9	-90.8	6.6
2025-01-03 11:35:38.848221	347.0	29.9	-91.5	10.1
2025-01-03 11:35:40.008591	346.6	30.0	-91.4	9.6
2025-01-03 11:35:41.162459	346.2	30.0	-91.1	7.0
2025-01-03 11:35:42.316342	345.8	30.1	-91.6	6.5
2025-01-03 11:35:43.476182	345.4	30.1	-91.6	4.1
2025-01-03 11:35:44.640407	345.0	30.2	-91.4	8.4
2025-01-03 11:35:45.799354	344.7	30.2	-91.6	6.2
2025-01-03 11:35:46.965112	344.3	30.3	-91.7	6.8
2025-01-03 11:35:48.130664	343.9	30.3	-91.3	7.4
2025-01-03 11:35:49.290950	343.5	30.3	-91.8	5.7
2025-01-03 11:35:50.452976	343.1	30.4	-91.5	6.5
2025-01-03 11:35:51.621127	342.7	30.4	-91.9	7.4
2025-01-03 11:35:52.779911	342.3	30.4	-91.9	3.8
2025-01-03 11:35:53.945256	341.9	30.5	-91.7	7.4
2025-01-03 11:35:55.112296	341.5	30.5	-91.5	7.6
2025-01-03 11:35:56.275343	341.1	30.5	-91.5	4.4
2025-01-03 11:35:57.431763	340.7	30.6	-91.3	6.4
2025-01-03 11:35:58.599103	340.3	30.6	-91.8	6.2
2025-01-03 11:35:59.756999	339.9	30.6	-92.2	7.5
2025-01-03 11:36:00.914219	339.5	30.6	-91.7	8.3
2025-01-03 11:36:02.072334	339.1	30.7	-91.5	10.2
2025-01-03 11:36:03.237866	338.7	30.7	-91.6	9.4
2025-01-03 11:36:04.402869	338.3	30.7	-91.5	10.8
2025-01-03 11:36:05.561418	337.9	30.7	-92.1	12.7
2025-01-03 11:36:06.720734	337.6	30.7	-92.1	12.9
2025-01-03 11:36:07.883421	337.2	30.7	-92.2	11.7
2025-01-03 11:36:09.052236	336.7	30.7	-92.1	10.1
2025-01-03 11:36:10.218772	336.3	30.8	-91.4	6.1
2025-01-03 11:36:11.383886	335.9	30.8	-91.7	6.8
2025-01-03 11:36:12.544836	335.5	30.8	-91.9	6.6
2025-01-03 11:36:13.713604	335.1	30.8	-91.9	5.6
2025-01-03 11:36:14.868327	334.7	30.8	-92.2	7.6
2025-01-03 11:36:16.032077	334.3	30.8	-92.0	5.4
2025-01-03 11:36:17.199490	333.9	30.8	-91.7	3.6
2025-01-03 11:36:18.351247	333.5	30.8	-91.3	2.4
2025-01-03 11:36:19.513781	333.1	30.8	-92.4	5.8
2025-01-03 11:36:20.675117	332.7	30.8	-92.3	4.5
2025-01-03 11:36:21.839418	332.3	30.8	-91.9	1.7
2025-01-03 11:36:22.995831	331.9	30.8	-92.1	4.6
2025-01-03 11:36:24.160081	331.5	30.8	-91.6	4.6
2025-01-03 11:36:25.322784	331.1	30.7	-91.7	3.6
2025-01-03 11:36:26.487691	330.7	30.7	-92.0	3.5
2025-01-03 11:36:27.648745	330.3	30.7	-91.0	5.0
2025-01-03 11:36:28.809919	329.9	30.7	-89.4	2.5
2025-01-03 11:36:29.972464	329.5	30.7	-91.3	4.5
2025-01-03 11:36:31.132017	329.1	30.7	-91.9	6.8
2025-01-03 11:36:32.297679	328.7	30.6	-91.9	4.3
2025-01-03 11:36:33.457060	328.3	30.6	-91.3	6.9
2025-01-03 11:36:34.622430	327.9	30.6	-92.1	9.4
2025-01-03 11:36:35.786018	327.5	30.6	-91.8	6.6
2025-01-03 11:36:36.947088	327.1	30.5	-91.9	7.7
2025-01-03 11:36:38.101991	326.7	30.5	-91.5	6.9
2025-01-03 11:36:39.263988	326.4	30.5	-91.5	7.0
2025-01-03 11:36:40.430850	326.0	30.5	-91.6	8.7
2025-01-03 11:36:41.586879	325.6	30.4	-92.0	8.7
2025-01-03 11:36:42.748209	325.2	30.4	-91.8	9.2
2025-01-03 11:36:43.914049	324.8	30.4	-91.7	9.6
2025-01-03 11:36:45.072137	324.4	30.3	-89.3	9.3
2025-01-03 11:36:46.227645	324.0	30.3	-91.4	9.9
2025-01-03 11:36:47.395899	323.6	30.2	-91.7	10.7
2025-01-03 11:36:48.559805	323.2	30.2	-91.8	9.5
2025-01-03 11:36:49.725416	322.8	30.2	-88.4	6.7
2025-01-03 11:36:50.881456	322.4	30.1	-91.9	10.1
2025-01-03 11:36:52.042745	322.1	30.1	-92.2	10.5
2025-01-03 11:36:53.199548	321.7	30.0	-91.4	10.7
2025-01-03 11:36:54.361638	321.3	30.0	-90.2	12.1
2025-01-03 11:36:55.526768	320.9	29.9	-91.9	14.6
2025-01-03 11:36:56.690288	320.5	29.9	-91.8	14.9
2025-01-03 11:36:57.846600	320.2	29.8	-92.1	11.0
2025-01-03 11:36:59.015735	319.8	29.8	-92.4	11.0
2025-01-03 11:37:00.175351	319.4	29.7	-91.7	10.3
2025-01-03 11:37:01.327626	319.0	29.7	-91.5	9.2
2025-01-03 11:37:02.494368	318.7	29.6	-91.9	8.9
2025-01-03 11:37:03.644058	318.3	29.5	-92.1	10.7
2025-01-03 11:37:04.796122	317.9	29.5	-92.0	11.0
2025-01-03 11:37:05.955101	317.5	29.4	-92.2	9.2
2025-01-03 11:37:07.114866	317.2	29.4	-91.3	10.1
2025-01-03 11:37:08.278409	316.8	29.3	-91.4	9.6
2025-01-03 11:37:09.441686	316.4	29.2	-91.7	10.8
2025-01-03 11:37:10.600564	316.1	29.2	-91.6	11.9
2025-01-03 11:37:11.763018	315.7	29.1	-92.0	11.2
2025-01-03 11:37:12.926044	315.4	29.0	-92.2	9.7
2025-01-03 11:37:14.090082	315.0	29.0	-91.9	7.7
2025-01-03 11:37:15.255003	314.6	28.9	-90.4	11.5
2025-01-03 11:37:16.412801	314.3	28.8	-92.0	12.4
2025-01-03 11:37:17.578759	313.9	28.8	-91.9	10.9
2025-01-03 11:37:18.744286	313.6	28.7	-92.1	9.5
2025-01-03 11:37:19.909724	313.2	28.6	-92.3	10.6
2025-01-03 11:37:21.072142	312.9	28.5	-91.8	10.9
2025-01-03 11:37:22.234137	312.5	28.5	-91.4	10.2
2025-01-03 11:37:23.394674	312.2	28.4	-91.8	9.5
2025-01-03 11:37:24.558808	311.8	28.3	-91.7	11.1
2025-01-03 11:37:25.718441	311.5	28.2	-91.8	10.8
2025-01-03 11:37:26.883574	311.1	28.1	-91.7	13.8
2025-01-03 11:37:28.046653	310.8	28.1	-91.7	12.4
2025-01-03 11:37:29.213798	310.5	28.0	-91.7	9.9
2025-01-03 11:37:30.376159	310.1	27.9	-91.6	12.8
2025-01-03 11:37:31.534970	309.8	27.8	-91.7	11.7
2025-01-03 11:37:32.696491	309.5	27.7	-91.8	11.3
2025-01-03 11:37:33.855179	309.1	27.6	-92.3	10.1
2025-01-03 11:37:35.013925	308.8	27.6	-92.0	11.5
2025-01-03 11:37:36.177350	308.5	27.5	-92.0	9.6
2025-01-03 11:37:37.342536	308.1	27.4	-91.8	7.3
2025-01-03 11:37:38.494706	307.8	27.3	-92.3	9.3
2025-01-03 11:37:39.663207	307.5	27.2	-92.2	9.6
2025-01-03 11:37:40.824039	307.2	27.1	-91.7	4.6
2025-01-03 11:37:41.982091	306.9	27.0	-92.2	8.8
2025-01-03 11:37:43.140429	306.6	26.9	-92.1	8.0
2025-01-03 11:37:44.298249	306.2	26.8	-92.1	4.5
2025-01-03 11:37:45.455676	305.9	26.8	-92.1	4.5
2025-01-03 11:37:46.616408	305.6	26.7	-92.1	4.8
2025-01-03 11:37:47.781997	305.3	26.6	-92.2	2.3
2025-01-03 11:37:48.944220	305.0	26.5	-92.0	5.2
2025-01-03 11:37:50.107779	304.7	26.4	-91.7	3.4
2025-01-03 11:37:51.268787	304.4	26.3	-91.5	1.6
2025-01-03 11:37:52.428131	304.1	26.2	-92.4	5.1
2025-01-03 11:37:53.597670	303.8	26.1	-92.5	4.1
2025-01-03 11:37:54.768666	303.5	26.0	-92.4	2.9
2025-01-03 11:37:55.931222	303.2	25.9	-92.4	5.0
2025-01-03 11:37:57.100581	302.9	25.8	-91.7	5.5
2025-01-03 11:37:58.265760	302.6	25.7	-91.5	6.1
2025-01-03 11:37:59.427293	302.3	25.6	-92.2	8.7
2025-01-03 11:38:00.579385	302.0	25.5	-91.8	9.0
2025-01-03 11:38:01.729539	301.7	25.4	-91.9	8.3
2025-01-03 11:38:02.894005	301.4	25.3	-91.8	8.3
2025-01-03 11:38:04.052400	301.2	25.2	-89.6	7.2
2025-01-03 11:38:05.220765	300.9	25.1	-91.6	10.1
2025-01-03 11:38:06.379181	300.6	25.0	-91.7	11.0
2025-01-03 11:38:07.544538	300.3	24.9	-91.9	9.4
2025-01-03 11:38:08.697641	300.0	24.8	-92.2	12.6
2025-01-03 11:38:09.861148	299.8	24.7	-91.2	13.2
2025-01-03 11:38:11.022860	299.5	24.6	-90.6	10.6
2025-01-03 11:38:12.188891	299.2	24.5	-91.9	9.6
2025-01-03 11:38:13.351456	299.0	24.4	-91.9	8.6
2025-01-03 11:38:14.513216	298.7	24.3	-92.4	10.4
2025-01-03 11:38:15.675458	298.4	24.2	-92.1	9.0
2025-01-03 11:38:16.839022	298.2	24.1	-86.3	6.6
2025-01-03 11:38:18.004453	297.9	24.0	-92.2	5.1
2025-01-03 11:38:19.167278	297.6	23.9	-92.0	4.1
2025-01-03 11:38:20.332342	297.4	23.8	-90.4	3.1
2025-01-03 11:38:21.491200	297.1	23.7	-92.1	5.6
2025-01-03 11:38:22.650010	296.9	23.5	-90.9	6.1
2025-01-03 11:38:23.810495	296.6	23.4	-92.1	3.0
2025-01-03 11:38:24.972305	296.4	23.3	-92.5	2.4
2025-01-03 11:38:26.137406	296.1	23.2	-91.5	5.8
2025-01-03 11:38:27.298518	295.9	23.1	-91.9	3.4
2025-01-03 11:38:28.460171	295.6	23.0	-92.0	4.6
2025-01-03 11:38:29.623677	295.4	22.9	-87.5	5.0
2025-01-03 11:38:30.785188	295.1	22.8	-92.1	5.0
2025-01-03 11:38:31.940682	294.9	22.7	-92.1	3.4
2025-01-03 11:38:33.107153	294.6	22.6	-91.3	2.7
2025-01-03 11:38:34.269549	294.4	22.5	-91.3	3.4
2025-01-03 11:38:35.436099	294.2	22.4	-90.9	2.7
2025-01-03 11:38:36.596791	293.9	22.3	-88.6	5.2
2025-01-03 11:38:37.761591	293.7	22.2	-91.0	6.1
2025-01-03 11:38:38.923969	293.5	22.1	-91.7	3.8
2025-01-03 11:38:40.087299	293.2	21.9	-91.3	5.6
2025-01-03 11:38:41.253780	293.0	21.8	-91.7	7.0
2025-01-03 11:38:42.409815	292.8	21.7	-92.5	5.5
2025-01-03 11:38:43.562525	292.6	21.6	-92.1	5.0
2025-01-03 11:38:44.735003	292.3	21.5	-92.2	6.1
2025-01-03 11:38:45.878658	292.1	21.4	-91.8	3.1
2025-01-03 11:38:46.999900	291.9	21.3	-92.0	6.8
2025-01-03 11:38:48.122283	291.7	21.2	-92.1	5.9
2025-01-03 11:38:49.241479	291.5	21.1	-91.9	5.4
2025-01-03 11:38:50.362720	291.3	21.0	-92.1	3.4
2025-01-03 11:38:51.484200	291.1	20.9	-92.3	2.1
2025-01-03 11:38:52.604903	290.8	20.8	-92.1	1.3
2025-01-03 11:38:53.727856	290.6	20.7	-92.5	4.3
2025-01-03 11:38:54.870387	290.4	20.6	-91.9	1.9
2025-01-03 11:38:56.032135	290.2	20.5	-92.0	8.2
2025-01-03 11:38:57.184319	290.0	20.4	-91.8	1.5
2025-01-03 11:38:58.347195	289.8	20.3	-91.0	5.8
2025-01-03 11:38:59.495448	289.6	20.2	-92.3	6.4
2025-01-03 11:39:00.647289	289.4	20.1	-92.4	8.7
2025-01-03 11:39:01.801625	289.2	19.9	-92.4	8.5
2025-01-03 11:39:02.967495	289.0	19.8	-92.3	7.2
2025-01-03 11:39:04.129544	288.8	19.7	-91.9	12.4
2025-01-03 11:39:05.294671	288.6	19.6	-91.8	7.7
2025-01-03 11:39:06.460811	288.4	19.5	-91.9	10.1
2025-01-03 11:39:07.627278	288.2	19.4	-92.1	7.1
2025-01-03 11:39:08.789831	288.0	19.3	-91.9	4.0
2025-01-03 11:39:09.959853	287.8	19.2	-92.0	4.0
2025-01-03 11:39:11.120860	287.6	19.1	-91.8	5.0
2025-01-03 11:39:12.272065	287.5	19.0	-91.9	2.5
2025-01-03 11:39:13.441710	287.3	18.9	-92.2	4.6
2025-01-03 11:39:14.598173	287.1	18.8	-92.2	3.9
2025-01-03 11:39:15.760772	286.9	18.7	-92.5	2.3
2025-01-03 11:39:16.916841	286.7	18.6	-92.4	3.4
2025-01-03 11:39:18.082100	286.5	18.5	-92.2	5.4
2025-01-03 11:39:19.245807	286.3	18.4	-91.9	4.9
2025-01-03 11:39:20.410291	286.2	18.3	-92.3	9.2
2025-01-03 11:39:21.572161	286.0	18.1	-92.2	5.1
2025-01-03 11:39:22.718794	285.8	18.0	-92.1	6.4
2025-01-03 11:39:23.868305	285.6	17.9	-91.8	5.8
2025-01-03 11:39:24.998903	285.5	17.8	-92.1	8.4
2025-01-03 11:39:26.158972	285.3	17.7	-92.0	5.0
2025-01-03 11:39:27.312218	285.1	17.6	-91.8	4.7
2025-01-03 11:39:28.471600	284.9	17.5	-92.3	3.5
2025-01-03 11:39:29.623897	284.8	17.4	-92.4	4.3
2025-01-03 11:39:30.772540	284.6	17.3	-92.0	3.2
2025-01-03 11:39:31.928604	284.4	17.2	-92.2	1.7
2025-01-03 11:39:33.088784	284.3	17.1	-91.8	2.5
2025-01-03 11:39:34.244485	284.1	17.0	-91.7	1.4
2025-01-03 11:39:35.402611	283.9	16.9	-92.2	2.9
2025-01-03 11:39:36.567384	283.8	16.8	-92.0	2.1
2025-01-03 11:39:37.727014	283.6	16.7	-92.0	4.2
2025-01-03 11:39:38.890697	283.5	16.6	-92.1	2.9
2025-01-03 11:39:40.064328	283.3	16.5	-92.0	0.7
2025-01-03 11:39:41.232951	283.1	16.4	-91.8	4.1
2025-01-03 11:39:42.385930	283.0	16.3	-92.0	1.9
2025-01-03 11:39:43.550551	282.8	16.2	-91.8	3.7
2025-01-03 11:39:44.710653	282.7	16.1	-92.2	4.2
2025-01-03 11:39:45.874896	282.5	16.0	-92.0	3.6
2025-01-03 11:39:47.039917	282.3	15.9	-90.3	3.0
2025-01-03 11:39:48.201988	282.2	15.8	-91.7	2.9
2025-01-03 11:39:49.359879	282.0	15.7	-91.8	1.8
2025-01-03 11:39:50.520965	281.9	15.6	-92.0	2.6
2025-01-03 11:39:51.687884	281.7	15.5	-91.6	2.0
2025-01-03 11:39:52.842351	281.6	15.4	-91.8	2.4
2025-01-03 11:39:54.002461	281.4	15.3	-92.2	2.2
2025-01-03 11:39:55.165752	281.3	15.2	-91.8	4.2
2025-01-03 11:39:56.335706	281.2	15.1	-92.0	1.6
2025-01-03 11:39:57.500084	281.0	15.0	-92.2	5.5
2025-01-03 11:39:58.659550	280.9	14.9	-92.0	4.3
2025-01-03 11:39:59.822646	280.7	14.8	-92.0	7.4
2025-01-03 11:40:00.965334	280.6	14.7	-92.2	5.8
2025-01-03 11:40:02.123042	280.4	14.6	-91.8	5.9
#Closed at: 2025-01-03 11:32:41.398342