passes_logs/2025/01/03/LEX_Murmansk/LEX_Murmansk__20250103_131243_NOAA_19_rec.log

#Pass ID: 20250103_131243_NOAA 19
#Satellite: NOAA 19
#Configuration: NOAA 19
#Start time: 2025-01-03 13:12:38.832121

#LorettStation: 1.0.0 05.05.2024
#Station: LEX_Murmansk
#Location: 33.156738 lon 68.926811 lat
#TLE: 1 33591U 09005A   25002.89767470  .00000571  00000+0  32860-3 0  9996
#TLE: 2 33591  99.0216  66.5655 0014695  89.7532 270.5323 14.13248849819837

#Time	Az	El	Level	SNR
2025-01-03 13:12:51.087359	39.3	15.9	-91.4	1.4
2025-01-03 13:12:52.235395	39.2	16.0	-91.2	0.1
2025-01-03 13:12:53.380170	39.0	16.1	-91.2	2.7
2025-01-03 13:12:54.525714	38.8	16.1	-92.0	2.5
2025-01-03 13:12:55.669900	38.6	16.2	-91.7	2.3
2025-01-03 13:12:56.813562	38.4	16.3	-91.9	1.9
2025-01-03 13:12:57.968912	38.2	16.4	-92.1	2.9
2025-01-03 13:12:59.122939	38.0	16.5	-91.8	3.4
2025-01-03 13:13:00.261797	37.8	16.6	-91.4	0.5
2025-01-03 13:13:01.402545	37.6	16.6	-92.1	1.9
2025-01-03 13:13:02.553837	37.4	16.7	-91.5	1.2
2025-01-03 13:13:03.706426	37.2	16.8	-92.0	3.0
2025-01-03 13:13:04.856126	37.0	16.9	-91.8	6.7
2025-01-03 13:13:06.001312	36.8	17.0	-91.8	3.9
2025-01-03 13:13:07.154029	36.6	17.0	-91.8	1.7
2025-01-03 13:13:08.300852	36.4	17.1	-91.5	3.0
2025-01-03 13:13:09.446693	36.2	17.2	-91.7	2.9
2025-01-03 13:13:10.595029	36.0	17.3	-91.6	0.6
2025-01-03 13:13:11.743789	35.8	17.4	-88.2	2.4
2025-01-03 13:13:12.891770	35.6	17.5	-91.0	0.8
2025-01-03 13:13:14.038952	35.4	17.5	-91.3	2.1
2025-01-03 13:13:15.185099	35.2	17.6	-91.5	4.3
2025-01-03 13:13:16.332112	35.0	17.7	-91.7	3.0
2025-01-03 13:13:17.479446	34.8	17.8	-91.8	4.9
2025-01-03 13:13:18.624873	34.6	17.9	-91.4	4.4
2025-01-03 13:13:19.773778	34.4	17.9	-91.5	3.9
2025-01-03 13:13:20.926352	34.2	18.0	-91.4	1.9
2025-01-03 13:13:22.072566	33.9	18.1	-90.6	3.4
2025-01-03 13:13:23.217980	33.7	18.2	-90.8	3.1
2025-01-03 13:13:24.366447	33.5	18.3	-91.1	5.7
2025-01-03 13:13:25.509339	33.3	18.4	-91.6	5.4
2025-01-03 13:13:26.659487	33.1	18.4	-91.7	4.3
2025-01-03 13:13:27.809650	32.8	18.5	-91.5	4.3
2025-01-03 13:13:28.954151	32.6	18.6	-91.4	5.2
2025-01-03 13:13:30.101762	32.4	18.7	-91.2	5.3
2025-01-03 13:13:31.249103	32.2	18.8	-91.1	1.7
2025-01-03 13:13:32.395978	32.0	18.8	-91.4	1.2
2025-01-03 13:13:33.538143	31.7	18.9	-91.6	1.4
2025-01-03 13:13:34.686550	31.5	19.0	-91.2	1.9
2025-01-03 13:13:35.834345	31.3	19.1	-91.7	3.9
2025-01-03 13:13:36.981000	31.0	19.1	-91.7	5.7
2025-01-03 13:13:38.130998	30.8	19.2	-91.7	7.3
2025-01-03 13:13:39.272638	30.6	19.3	-91.6	5.3
2025-01-03 13:13:40.416881	30.3	19.4	-91.9	10.5
2025-01-03 13:13:41.570041	30.1	19.5	-91.7	10.0
2025-01-03 13:13:42.717582	29.9	19.5	-92.2	8.7
2025-01-03 13:13:43.873401	29.6	19.6	-92.1	6.9
2025-01-03 13:13:45.023649	29.4	19.7	-91.6	7.6
2025-01-03 13:13:46.170787	29.2	19.8	-91.4	3.9
2025-01-03 13:13:47.315346	28.9	19.8	-91.5	4.0
2025-01-03 13:13:48.476060	28.7	19.9	-91.9	8.4
2025-01-03 13:13:49.621350	28.4	20.0	-91.8	9.5
2025-01-03 13:13:50.769467	28.2	20.1	-91.6	10.2
2025-01-03 13:13:51.921312	27.9	20.1	-92.0	10.9
2025-01-03 13:13:53.073494	27.7	20.2	-91.8	10.1
2025-01-03 13:13:54.231872	27.4	20.3	-91.7	5.9
2025-01-03 13:13:55.375662	27.2	20.4	-91.7	4.3
2025-01-03 13:13:56.530501	26.9	20.4	-91.4	4.4
2025-01-03 13:13:57.678334	26.7	20.5	-91.8	2.4
2025-01-03 13:13:58.826826	26.4	20.6	-92.2	2.9
2025-01-03 13:13:59.976719	26.2	20.6	-92.0	2.7
2025-01-03 13:14:01.118811	25.9	20.7	-91.8	8.2
2025-01-03 13:14:02.266564	25.7	20.8	-91.9	4.0
2025-01-03 13:14:03.406584	25.4	20.9	-91.7	5.3
2025-01-03 13:14:04.550204	25.1	20.9	-92.2	11.8
2025-01-03 13:14:05.693098	24.9	21.0	-91.8	10.5
2025-01-03 13:14:06.840806	24.6	21.1	-91.9	8.5
2025-01-03 13:14:07.987838	24.4	21.1	-91.9	11.2
2025-01-03 13:14:09.133596	24.1	21.2	-91.5	8.4
2025-01-03 13:14:10.280820	23.8	21.3	-91.5	6.0
2025-01-03 13:14:11.438264	23.6	21.3	-92.0	8.6
2025-01-03 13:14:12.584511	23.3	21.4	-92.1	6.8
2025-01-03 13:14:13.733412	23.0	21.5	-91.8	3.1
2025-01-03 13:14:14.881060	22.8	21.5	-91.9	6.2
2025-01-03 13:14:16.042178	22.5	21.6	-91.8	7.1
2025-01-03 13:14:17.187382	22.2	21.7	-91.8	7.0
2025-01-03 13:14:18.335000	21.9	21.7	-91.4	7.2
2025-01-03 13:14:19.485545	21.7	21.8	-91.8	10.9
2025-01-03 13:14:20.631108	21.4	21.9	-92.1	10.2
2025-01-03 13:14:21.782325	21.1	21.9	-91.7	8.1
2025-01-03 13:14:22.925936	20.8	22.0	-92.2	8.6
2025-01-03 13:14:24.075392	20.6	22.1	-91.2	5.1
2025-01-03 13:14:25.225367	20.3	22.1	-91.6	1.9
2025-01-03 13:14:26.368745	20.0	22.2	-91.9	3.5
2025-01-03 13:14:27.517391	19.7	22.2	-91.6	2.2
2025-01-03 13:14:28.663402	19.4	22.3	-91.9	3.5
2025-01-03 13:14:29.809220	19.2	22.4	-91.7	3.3
2025-01-03 13:14:30.959083	18.9	22.4	-91.8	3.7
2025-01-03 13:14:32.105946	18.6	22.5	-91.9	4.3
2025-01-03 13:14:33.256184	18.3	22.5	-92.0	3.1
2025-01-03 13:14:34.403186	18.0	22.6	-91.8	6.9
2025-01-03 13:14:35.548266	17.7	22.6	-92.1	7.5
2025-01-03 13:14:36.707075	17.4	22.7	-91.9	10.7
2025-01-03 13:14:37.857867	17.1	22.7	-92.2	13.5
2025-01-03 13:14:39.004641	16.8	22.8	-92.0	11.9
2025-01-03 13:14:40.154920	16.5	22.9	-91.6	9.7
2025-01-03 13:14:41.313561	16.2	22.9	-91.6	8.0
2025-01-03 13:14:42.468134	15.9	23.0	-92.0	8.1
2025-01-03 13:14:43.625533	15.6	23.0	-92.3	7.1
2025-01-03 13:14:44.776484	15.4	23.1	-91.8	5.5
2025-01-03 13:14:45.926200	15.1	23.1	-92.0	5.6
2025-01-03 13:14:47.074728	14.8	23.2	-91.7	5.2
2025-01-03 13:14:48.227286	14.5	23.2	-91.4	3.5
2025-01-03 13:14:49.377963	14.1	23.3	-92.0	9.5
2025-01-03 13:14:50.531434	13.8	23.3	-92.3	10.5
2025-01-03 13:14:51.679328	13.5	23.3	-92.1	11.9
2025-01-03 13:14:52.835105	13.2	23.4	-91.9	7.1
2025-01-03 13:14:53.979949	12.9	23.4	-92.0	13.3
2025-01-03 13:14:55.132553	12.6	23.5	-91.9	11.0
2025-01-03 13:14:56.288453	12.3	23.5	-91.8	10.3
2025-01-03 13:14:57.440755	12.0	23.6	-91.8	6.1
2025-01-03 13:14:58.592540	11.7	23.6	-91.9	7.4
2025-01-03 13:14:59.755527	11.4	23.6	-91.8	6.3
2025-01-03 13:15:00.896159	11.1	23.7	-92.2	6.8
2025-01-03 13:15:02.040950	10.8	23.7	-92.3	5.6
2025-01-03 13:15:03.200738	10.5	23.8	-92.0	3.0
2025-01-03 13:15:04.347900	10.1	23.8	-91.6	4.5
2025-01-03 13:15:05.491338	9.8	23.8	-92.3	5.6
2025-01-03 13:15:06.636902	9.5	23.9	-91.9	5.4
2025-01-03 13:15:07.788707	9.2	23.9	-92.0	2.8
2025-01-03 13:15:08.938779	8.9	23.9	-92.2	5.4
2025-01-03 13:15:10.086522	8.6	24.0	-91.7	7.2
2025-01-03 13:15:11.236117	8.3	24.0	-91.4	6.7
2025-01-03 13:15:12.386022	7.9	24.0	-91.9	6.7
2025-01-03 13:15:13.531344	7.6	24.0	-91.6	8.5
2025-01-03 13:15:14.687832	7.3	24.1	-92.0	6.7
2025-01-03 13:15:15.841640	7.0	24.1	-92.4	11.1
2025-01-03 13:15:16.996168	6.7	24.1	-92.1	10.6
2025-01-03 13:15:18.152740	6.3	24.1	-91.4	6.6
2025-01-03 13:15:19.299744	6.0	24.2	-91.7	8.1
2025-01-03 13:15:20.447295	5.7	24.2	-91.9	8.0
2025-01-03 13:15:21.599197	5.4	24.2	-91.5	9.3
2025-01-03 13:15:22.750910	5.1	24.2	-91.8	7.9
2025-01-03 13:15:23.901585	4.7	24.3	-91.4	8.0
2025-01-03 13:15:25.061048	4.4	24.3	-90.1	8.7
2025-01-03 13:15:26.207102	4.1	24.3	-91.2	4.8
2025-01-03 13:15:27.364042	3.8	24.3	-91.4	5.5
2025-01-03 13:15:28.515872	3.4	24.3	-91.5	9.3
2025-01-03 13:15:29.666198	3.1	24.3	-91.1	5.3
2025-01-03 13:15:30.822295	2.8	24.4	-91.9	4.7
2025-01-03 13:15:31.972485	2.5	24.4	-91.6	7.1
2025-01-03 13:15:33.122726	2.1	24.4	-91.6	8.9
2025-01-03 13:15:34.273896	1.8	24.4	-91.9	5.1
2025-01-03 13:15:35.427812	1.5	24.4	-91.9	5.2
2025-01-03 13:15:36.578886	1.2	24.4	-91.7	7.2
2025-01-03 13:15:37.733676	0.8	24.4	-91.7	7.7
2025-01-03 13:15:38.886831	0.5	24.4	-91.9	8.3
2025-01-03 13:15:40.037590	0.2	24.4	-91.4	10.7
2025-01-03 13:15:41.183565	359.9	24.4	-91.7	10.1
2025-01-03 13:15:42.327225	359.5	24.4	-91.1	9.5
2025-01-03 13:15:43.480371	359.2	24.5	-91.9	12.4
2025-01-03 13:15:44.626046	358.9	24.5	-91.9	13.5
2025-01-03 13:15:45.773499	358.5	24.5	-91.5	12.5
2025-01-03 13:15:46.923290	358.2	24.5	-91.6	13.9
2025-01-03 13:15:48.077664	357.9	24.5	-91.4	9.6
2025-01-03 13:15:49.237625	357.6	24.5	-91.2	14.0
2025-01-03 13:15:50.379986	357.2	24.5	-91.2	11.6
2025-01-03 13:15:51.530764	356.9	24.4	-91.4	6.2
2025-01-03 13:15:52.678246	356.6	24.4	-91.9	10.7
2025-01-03 13:15:53.829518	356.3	24.4	-91.4	7.8
2025-01-03 13:15:54.984188	355.9	24.4	-91.3	10.5
2025-01-03 13:15:56.132087	355.6	24.4	-91.0	9.3
2025-01-03 13:15:57.285260	355.3	24.4	-91.0	5.2
2025-01-03 13:15:58.436172	355.0	24.4	-91.1	6.3
2025-01-03 13:15:59.591029	354.6	24.4	-90.9	9.9
2025-01-03 13:16:00.735138	354.3	24.4	-91.0	6.5
2025-01-03 13:16:01.882553	354.0	24.4	-90.9	5.1
2025-01-03 13:16:03.029100	353.7	24.4	-91.7	6.0
2025-01-03 13:16:04.173002	353.3	24.3	-91.4	5.6
2025-01-03 13:16:05.320302	353.0	24.3	-91.5	5.2
2025-01-03 13:16:06.469442	352.7	24.3	-91.8	5.7
2025-01-03 13:16:07.627188	352.4	24.3	-91.8	7.5
2025-01-03 13:16:08.773690	352.0	24.3	-92.0	3.5
2025-01-03 13:16:09.922437	351.7	24.2	-91.5	5.1
2025-01-03 13:16:11.076278	351.4	24.2	-91.5	4.4
2025-01-03 13:16:12.221176	351.1	24.2	-91.7	3.9
2025-01-03 13:16:13.371200	350.8	24.2	-91.7	5.9
2025-01-03 13:16:14.517154	350.4	24.2	-91.6	6.0
2025-01-03 13:16:15.663935	350.1	24.1	-91.7	5.0
2025-01-03 13:16:16.816322	349.8	24.1	-91.8	3.7
2025-01-03 13:16:17.965727	349.5	24.1	-91.3	4.6
2025-01-03 13:16:19.113987	349.2	24.1	-91.3	5.5
2025-01-03 13:16:20.260884	348.8	24.0	-91.6	4.3
2025-01-03 13:16:21.403789	348.5	24.0	-91.3	6.1
2025-01-03 13:16:22.562146	348.2	24.0	-91.0	5.8
2025-01-03 13:16:23.695290	347.9	23.9	-91.6	4.5
2025-01-03 13:16:24.838522	347.6	23.9	-91.6	4.1
2025-01-03 13:16:25.979719	347.3	23.9	-91.8	6.4
2025-01-03 13:16:27.124337	347.0	23.8	-91.5	7.7
2025-01-03 13:16:28.277743	346.6	23.8	-91.2	3.0
2025-01-03 13:16:29.430072	346.3	23.8	-91.7	5.7
2025-01-03 13:16:30.578631	346.0	23.7	-91.9	5.2
2025-01-03 13:16:31.730681	345.7	23.7	-91.7	4.4
2025-01-03 13:16:32.880469	345.4	23.7	-90.6	3.1
2025-01-03 13:16:34.032142	345.1	23.6	-91.8	6.6
2025-01-03 13:16:35.182888	344.8	23.6	-91.3	2.8
2025-01-03 13:16:36.337190	344.5	23.5	-91.3	2.5
2025-01-03 13:16:37.490450	344.2	23.5	-91.7	4.6
2025-01-03 13:16:38.639929	343.8	23.5	-91.3	5.0
2025-01-03 13:16:39.798607	343.5	23.4	-91.4	4.0
2025-01-03 13:16:40.951563	343.2	23.4	-91.5	5.0
2025-01-03 13:16:42.101971	342.9	23.3	-90.9	4.8
2025-01-03 13:16:43.252031	342.6	23.3	-91.5	3.2
2025-01-03 13:16:44.417444	342.3	23.2	-91.6	8.1
2025-01-03 13:16:45.561597	342.0	23.2	-91.5	5.6
2025-01-03 13:16:46.707462	341.7	23.1	-91.6	5.3
2025-01-03 13:16:47.861575	341.4	23.1	-91.8	7.5
2025-01-03 13:16:49.006913	341.1	23.0	-91.6	6.0
2025-01-03 13:16:50.155691	340.8	23.0	-91.6	5.0
2025-01-03 13:16:51.311538	340.5	22.9	-91.3	5.5
2025-01-03 13:16:52.463131	340.2	22.9	-91.6	6.7
2025-01-03 13:16:53.613683	339.9	22.8	-91.6	7.1
2025-01-03 13:16:54.760357	339.6	22.8	-92.1	5.5
2025-01-03 13:16:55.911546	339.4	22.7	-91.6	7.8
2025-01-03 13:16:57.057513	339.1	22.7	-91.4	6.8
2025-01-03 13:16:58.204490	338.8	22.6	-91.6	4.5
2025-01-03 13:16:59.354412	338.5	22.6	-91.1	4.2
2025-01-03 13:17:00.494496	338.2	22.5	-91.6	5.6
2025-01-03 13:17:01.643418	337.9	22.4	-91.8	5.5
2025-01-03 13:17:02.791702	337.6	22.4	-91.1	4.5
2025-01-03 13:17:03.939743	337.3	22.3	-91.0	4.0
2025-01-03 13:17:05.087630	337.1	22.3	-90.6	3.4
2025-01-03 13:17:06.230952	336.8	22.2	-90.4	1.8
2025-01-03 13:17:07.369313	336.5	22.1	-90.4	3.8
2025-01-03 13:17:08.517664	336.2	22.1	-90.7	3.3
2025-01-03 13:17:09.663353	335.9	22.0	-90.6	1.4
2025-01-03 13:17:10.813002	335.7	22.0	-91.8	3.0
2025-01-03 13:17:11.961182	335.4	21.9	-91.9	4.9
2025-01-03 13:17:13.112222	335.1	21.8	-91.7	4.8
2025-01-03 13:17:14.256848	334.8	21.8	-91.3	3.0
2025-01-03 13:17:15.407402	334.6	21.7	-91.7	3.2
2025-01-03 13:17:16.557269	334.3	21.6	-91.9	3.8
2025-01-03 13:17:17.712728	334.0	21.6	-92.1	3.0
2025-01-03 13:17:18.863492	333.7	21.5	-91.7	3.5
2025-01-03 13:17:20.017844	333.5	21.4	-91.8	2.3
2025-01-03 13:17:21.171029	333.2	21.4	-91.2	5.0
2025-01-03 13:17:22.318222	332.9	21.3	-91.3	2.3
2025-01-03 13:17:23.461344	332.7	21.2	-91.6	4.4
2025-01-03 13:17:24.609124	332.4	21.2	-91.9	6.0
2025-01-03 13:17:25.758345	332.1	21.1	-91.8	6.0
2025-01-03 13:17:26.903676	331.9	21.0	-91.6	2.9
2025-01-03 13:17:28.055561	331.6	21.0	-91.4	5.0
2025-01-03 13:17:29.206546	331.4	20.9	-91.5	3.7
2025-01-03 13:17:30.359636	331.1	20.8	-91.7	5.3
2025-01-03 13:17:31.507216	330.8	20.8	-91.5	5.1
2025-01-03 13:17:32.653713	330.6	20.7	-91.8	5.4
2025-01-03 13:17:33.809054	330.3	20.6	-92.0	4.0
2025-01-03 13:17:34.959456	330.1	20.5	-91.9	5.6
2025-01-03 13:17:36.105582	329.8	20.5	-91.9	6.1
2025-01-03 13:17:37.251630	329.6	20.4	-91.5	3.8
2025-01-03 13:17:38.401915	329.3	20.3	-91.5	4.9
2025-01-03 13:17:39.554691	329.1	20.2	-91.8	4.4
2025-01-03 13:17:40.705554	328.8	20.2	-91.9	4.8
2025-01-03 13:17:41.849264	328.6	20.1	-91.7	2.8
2025-01-03 13:17:42.998383	328.3	20.0	-91.7	2.7
2025-01-03 13:17:44.145658	328.1	19.9	-91.7	2.0
2025-01-03 13:17:45.295200	327.8	19.9	-91.4	3.3
2025-01-03 13:17:46.443255	327.6	19.8	-91.7	2.9
2025-01-03 13:17:47.590660	327.4	19.7	-91.7	2.3
2025-01-03 13:17:48.739064	327.1	19.6	-91.5	2.2
2025-01-03 13:17:49.889854	326.9	19.6	-91.9	0.3
2025-01-03 13:17:51.039955	326.6	19.5	-91.7	1.3
2025-01-03 13:17:52.186666	326.4	19.4	-91.5	1.4
2025-01-03 13:17:53.335109	326.2	19.3	-91.5	1.7
2025-01-03 13:17:54.480786	325.9	19.3	-91.9	2.2
2025-01-03 13:17:55.631006	325.7	19.2	-91.9	3.1
2025-01-03 13:17:56.777499	325.5	19.1	-92.1	3.8
2025-01-03 13:17:57.932439	325.2	19.0	-91.9	2.2
2025-01-03 13:17:59.085611	325.0	18.9	-91.3	2.0
2025-01-03 13:18:00.229931	324.8	18.9	-92.1	2.5
2025-01-03 13:18:01.375305	324.6	18.8	-92.2	3.1
2025-01-03 13:18:02.530648	324.3	18.7	-92.0	1.7
2025-01-03 13:18:03.679394	324.1	18.6	-92.3	1.1
2025-01-03 13:18:04.827223	323.9	18.6	-92.5	2.3
2025-01-03 13:18:05.977223	323.7	18.5	-92.2	4.0
2025-01-03 13:18:07.133809	323.5	18.4	-92.2	3.6
2025-01-03 13:18:08.281552	323.2	18.3	-91.8	3.0
2025-01-03 13:18:09.427877	323.0	18.2	-92.4	2.3
2025-01-03 13:18:10.576875	322.8	18.1	-92.5	5.8
2025-01-03 13:18:11.722136	322.6	18.1	-92.3	1.4
2025-01-03 13:18:12.866337	322.4	18.0	-92.5	1.6
2025-01-03 13:18:14.013042	322.2	17.9	-92.6	4.0
2025-01-03 13:18:15.163564	321.9	17.8	-91.7	3.3
2025-01-03 13:18:16.315711	321.7	17.7	-92.0	5.8
2025-01-03 13:18:17.458374	321.5	17.7	-92.5	4.9
2025-01-03 13:18:18.607688	321.3	17.6	-92.2	2.6
2025-01-03 13:18:19.761862	321.1	17.5	-92.4	2.7
2025-01-03 13:18:20.905334	320.9	17.4	-92.4	3.0
2025-01-03 13:18:22.050203	320.7	17.3	-91.6	4.6
2025-01-03 13:18:23.200909	320.5	17.3	-91.8	3.8
2025-01-03 13:18:24.347942	320.3	17.2	-92.1	3.2
2025-01-03 13:18:25.494617	320.1	17.1	-92.4	4.0
2025-01-03 13:18:26.641016	319.9	17.0	-91.8	6.3
2025-01-03 13:18:27.790451	319.7	16.9	-91.9	1.4
2025-01-03 13:18:28.938454	319.5	16.8	-92.2	5.0
2025-01-03 13:18:30.097263	319.3	16.8	-92.1	1.8
2025-01-03 13:18:31.254110	319.1	16.7	-91.9	3.3
2025-01-03 13:18:32.399898	318.9	16.6	-91.9	3.1
2025-01-03 13:18:33.548723	318.7	16.5	-91.8	5.0
2025-01-03 13:18:34.696896	318.5	16.4	-92.2	3.9
2025-01-03 13:18:35.845503	318.3	16.3	-92.1	3.8
2025-01-03 13:18:36.991648	318.1	16.3	-92.2	6.5
2025-01-03 13:18:38.138662	317.9	16.2	-92.0	3.4
2025-01-03 13:18:39.290982	317.7	16.1	-92.1	7.1
2025-01-03 13:18:40.447821	317.6	16.0	-92.5	6.2
2025-01-03 13:18:41.595540	317.4	15.9	-92.2	8.1
2025-01-03 13:18:42.754361	317.2	15.8	-92.2	8.1
2025-01-03 13:18:43.906039	317.0	15.8	-92.4	8.6
2025-01-03 13:18:45.058126	316.8	15.7	-92.4	4.3
2025-01-03 13:18:46.210488	316.6	15.6	-92.2	4.7
2025-01-03 13:18:47.358801	316.4	15.5	-91.9	4.4
2025-01-03 13:18:48.516310	316.3	15.4	-92.2	4.4
2025-01-03 13:18:49.662604	316.1	15.3	-92.4	1.6
2025-01-03 13:18:50.808379	315.9	15.3	-92.4	1.6
2025-01-03 13:18:51.967534	315.7	15.2	-92.7	3.7
2025-01-03 13:18:53.114907	315.6	15.1	-92.0	7.0
2025-01-03 13:18:54.261771	315.4	15.0	-92.0	3.1
2025-01-03 13:18:55.408306	315.2	14.9	-92.2	5.5
2025-01-03 13:18:56.553748	315.0	14.8	-92.0	3.2
2025-01-03 13:18:57.700526	314.9	14.8	-92.1	4.0
2025-01-03 13:18:58.848446	314.7	14.7	-92.5	3.5
#Closed at: 2025-01-03 13:12:43.884066