passes_logs/2025/01/03/LEX_Murmansk/LEX_Murmansk__20250103_101942_NOAA_18_rec.log

#Pass ID: 20250103_101942_NOAA 18
#Satellite: NOAA 18
#Configuration: NOAA 18
#Start time: 2025-01-03 10:19:37.109228

#LorettStation: 1.0.0 05.05.2024
#Station: LEX_Murmansk
#Location: 33.156738 lon 68.926811 lat
#TLE: 1 28654U 05018A   25002.84587038  .00000654  00000+0  37076-3 0  9991
#TLE: 2 28654  98.8584  84.0197 0013777 213.7552 146.2745 14.13474254 11464

#Time	Az	El	Level	SNR
2025-01-03 10:19:49.329290	24.6	16.3	-91.2	4.7
2025-01-03 10:19:51.636298	24.6	16.6	-92.1	7.4
2025-01-03 10:19:53.927343	24.6	16.8	-92.3	5.1
2025-01-03 10:19:56.230748	24.5	17.1	-91.5	3.3
2025-01-03 10:19:58.523968	24.5	17.3	-91.9	8.2
2025-01-03 10:20:00.814981	24.5	17.6	-92.4	6.7
2025-01-03 10:20:03.110181	24.4	17.9	-91.7	4.4
2025-01-03 10:20:05.411389	24.4	18.1	-92.0	7.6
2025-01-03 10:20:07.709172	24.4	18.4	-92.3	12.6
2025-01-03 10:20:10.014529	24.3	18.7	-92.3	8.3
2025-01-03 10:20:12.295666	24.3	19.0	-91.3	8.2
2025-01-03 10:20:14.539612	24.2	19.2	-91.8	13.0
2025-01-03 10:20:16.784414	24.2	19.5	-92.2	8.6
2025-01-03 10:20:19.026235	24.2	19.8	-92.0	6.1
2025-01-03 10:20:21.276928	24.1	20.1	-91.3	12.2
2025-01-03 10:20:23.583683	24.1	20.4	-92.3	11.5
2025-01-03 10:20:25.882726	24.0	20.7	-90.7	8.6
2025-01-03 10:20:28.179996	24.0	21.0	-90.2	10.6
2025-01-03 10:20:30.475715	23.9	21.3	-90.6	12.8
2025-01-03 10:20:32.781733	23.9	21.6	-90.6	9.5
2025-01-03 10:20:35.084205	23.8	21.9	-90.3	6.7
2025-01-03 10:20:37.374886	23.8	22.2	-91.1	11.7
2025-01-03 10:20:39.686104	23.7	22.5	-91.8	12.3
2025-01-03 10:20:41.984153	23.7	22.9	-92.3	14.2
2025-01-03 10:20:44.286136	23.6	23.2	-90.6	13.2
2025-01-03 10:20:46.585727	23.6	23.5	-90.8	13.3
2025-01-03 10:20:48.900117	23.5	23.9	-91.0	11.3
2025-01-03 10:20:51.200795	23.4	24.2	-91.7	10.4
2025-01-03 10:20:53.493081	23.4	24.6	-92.3	7.2
2025-01-03 10:20:55.797446	23.3	24.9	-92.4	13.1
2025-01-03 10:20:58.094441	23.3	25.3	-92.3	11.3
2025-01-03 10:21:00.382066	23.2	25.6	-92.4	13.1
2025-01-03 10:21:02.682384	23.1	26.0	-91.2	11.9
2025-01-03 10:21:04.989875	23.0	26.4	-90.9	11.6
2025-01-03 10:21:07.293898	23.0	26.7	-90.7	8.9
2025-01-03 10:21:09.594685	22.9	27.1	-92.7	5.9
2025-01-03 10:21:11.891613	22.8	27.5	-92.3	12.7
2025-01-03 10:21:14.190858	22.7	27.9	-91.7	14.0
2025-01-03 10:21:16.495452	22.7	28.3	-92.3	10.2
2025-01-03 10:21:18.802504	22.6	28.7	-92.4	13.0
2025-01-03 10:21:21.109988	22.5	29.1	-91.7	13.3
2025-01-03 10:21:23.410672	22.4	29.5	-90.5	8.1
2025-01-03 10:21:25.706497	22.3	29.9	-90.6	8.5
2025-01-03 10:21:28.009884	22.2	30.4	-90.9	7.0
2025-01-03 10:21:30.321966	22.1	30.8	-92.0	7.2
2025-01-03 10:21:32.620134	22.0	31.2	-92.1	5.8
2025-01-03 10:21:34.925149	21.9	31.7	-92.4	7.4
2025-01-03 10:21:37.234449	21.8	32.1	-92.0	12.0
2025-01-03 10:21:39.537127	21.7	32.6	-92.0	9.3
2025-01-03 10:21:41.844750	21.6	33.1	-92.2	12.8
2025-01-03 10:21:44.144084	21.5	33.5	-91.8	5.6
2025-01-03 10:21:46.450277	21.4	34.0	-91.9	12.4
2025-01-03 10:21:48.750036	21.3	34.5	-90.5	12.8
2025-01-03 10:21:51.052458	21.1	35.0	-90.2	8.1
2025-01-03 10:21:53.352749	21.0	35.5	-90.2	11.7
2025-01-03 10:21:55.655153	20.9	36.0	-91.9	15.3
2025-01-03 10:21:57.969713	20.7	36.5	-91.9	9.4
2025-01-03 10:22:00.268842	20.6	37.1	-91.5	14.8
2025-01-03 10:22:02.568792	20.4	37.6	-91.7	11.7
2025-01-03 10:22:04.878107	20.3	38.1	-92.2	16.8
2025-01-03 10:22:07.179502	20.1	38.7	-91.7	16.8
2025-01-03 10:22:09.487556	20.0	39.3	-91.8	15.2
2025-01-03 10:22:11.784828	19.8	39.8	-92.0	20.8
2025-01-03 10:22:14.087236	19.6	40.4	-91.2	17.4
2025-01-03 10:22:16.384605	19.4	41.0	-92.0	16.7
2025-01-03 10:22:18.686131	19.2	41.6	-92.2	15.0
2025-01-03 10:22:20.986115	19.0	42.2	-92.2	13.2
2025-01-03 10:22:23.286789	18.8	42.8	-91.2	16.5
2025-01-03 10:22:25.587394	18.6	43.4	-92.1	20.7
2025-01-03 10:22:27.890879	18.4	44.1	-92.0	22.6
2025-01-03 10:22:30.189302	18.2	44.7	-91.2	17.7
2025-01-03 10:22:32.483257	17.9	45.4	-91.9	20.0
2025-01-03 10:22:34.796115	17.7	46.0	-91.8	19.1
2025-01-03 10:22:37.097408	17.4	46.7	-91.6	14.0
2025-01-03 10:22:39.393627	17.1	47.4	-91.9	14.6
2025-01-03 10:22:41.699780	16.8	48.1	-91.9	15.3
2025-01-03 10:22:43.996771	16.5	48.8	-91.8	18.8
2025-01-03 10:22:46.294957	16.2	49.5	-91.2	14.4
2025-01-03 10:22:48.591865	15.9	50.2	-91.4	9.4
2025-01-03 10:22:50.892272	15.5	51.0	-92.0	8.7
2025-01-03 10:22:53.190745	15.1	51.7	-91.6	14.1
2025-01-03 10:22:55.500879	14.7	52.5	-91.7	12.5
2025-01-03 10:22:57.813589	14.3	53.3	-92.0	13.8
2025-01-03 10:23:00.129670	13.9	54.1	-91.4	9.9
2025-01-03 10:23:02.423625	13.4	54.8	-90.9	10.7
2025-01-03 10:23:04.720870	12.9	55.6	-92.0	14.2
2025-01-03 10:23:07.034982	12.4	56.5	-92.0	14.9
2025-01-03 10:23:09.344476	11.9	57.3	-91.6	16.0
2025-01-03 10:23:11.648570	11.3	58.1	-91.9	9.6
2025-01-03 10:23:13.947520	10.7	59.0	-92.2	13.4
2025-01-03 10:23:16.247799	10.0	59.8	-91.5	20.4
2025-01-03 10:23:18.543416	9.3	60.7	-91.9	20.6
2025-01-03 10:23:20.853687	8.5	61.5	-91.8	20.2
2025-01-03 10:23:23.157748	7.7	62.4	-90.7	8.9
2025-01-03 10:23:25.455350	6.8	63.3	-92.0	8.6
2025-01-03 10:23:27.753054	5.9	64.1	-92.1	18.3
2025-01-03 10:23:30.052573	4.9	65.0	-91.7	14.5
2025-01-03 10:23:32.355976	3.8	65.9	-91.7	21.8
2025-01-03 10:23:34.659251	2.5	66.8	-91.8	20.6
2025-01-03 10:23:36.971386	1.2	67.7	-91.9	13.1
2025-01-03 10:23:39.279015	359.8	68.6	-91.0	18.0
2025-01-03 10:23:41.571208	358.2	69.4	-91.8	13.3
2025-01-03 10:23:43.881765	356.5	70.3	-91.8	18.7
2025-01-03 10:23:46.189234	354.6	71.2	-91.7	19.8
2025-01-03 10:23:48.491408	352.6	72.0	-91.9	14.9
2025-01-03 10:23:50.801211	350.3	72.8	-92.1	14.9
2025-01-03 10:23:53.104058	347.8	73.7	-91.7	14.9
2025-01-03 10:23:55.401822	345.0	74.4	-91.7	15.1
2025-01-03 10:23:57.671357	341.9	75.2	-92.1	17.5
2025-01-03 10:23:59.914536	338.6	75.8	-92.1	15.8
2025-01-03 10:24:02.157877	334.9	76.5	-89.1	11.2
2025-01-03 10:24:04.400889	330.9	77.0	-90.9	17.6
2025-01-03 10:24:06.678185	326.4	77.6	-91.0	19.8
2025-01-03 10:24:08.986292	321.5	78.0	-90.9	16.2
2025-01-03 10:24:11.288431	316.3	78.4	-91.7	20.7
2025-01-03 10:24:13.588088	310.8	78.6	-91.5	26.8
2025-01-03 10:24:15.899750	305.1	78.8	-91.2	23.1
2025-01-03 10:24:18.214897	299.2	78.8	-90.4	21.3
2025-01-03 10:24:20.529058	293.4	78.7	-90.7	21.2
2025-01-03 10:24:22.842138	287.7	78.5	-91.9	22.9
2025-01-03 10:24:25.148784	282.3	78.2	-91.4	24.5
2025-01-03 10:24:27.451947	277.2	77.8	-92.2	24.4
2025-01-03 10:24:29.757563	272.5	77.3	-91.7	25.2
2025-01-03 10:24:32.065365	268.2	76.8	-90.2	18.2
2025-01-03 10:24:34.369034	264.2	76.2	-90.3	22.9
2025-01-03 10:24:36.663985	260.6	75.5	-90.9	15.8
2025-01-03 10:24:38.967026	257.3	74.8	-92.1	17.4
2025-01-03 10:24:41.277511	254.4	74.0	-91.5	25.1
2025-01-03 10:24:43.582365	251.7	73.2	-92.2	18.7
2025-01-03 10:24:45.891639	249.3	72.4	-92.2	22.6
2025-01-03 10:24:48.194445	247.2	71.6	-91.7	21.2
2025-01-03 10:24:50.494889	245.2	70.7	-91.9	17.0
2025-01-03 10:24:52.796172	243.4	69.8	-92.2	20.9
2025-01-03 10:24:55.098052	241.8	69.0	-91.8	15.3
2025-01-03 10:24:57.393355	240.3	68.1	-91.8	20.6
2025-01-03 10:24:59.677334	238.9	67.2	-92.0	17.3
2025-01-03 10:25:01.918533	237.7	66.3	-90.6	17.5
2025-01-03 10:25:04.161647	236.6	65.5	-91.8	17.5
2025-01-03 10:25:06.404063	235.5	64.6	-91.8	20.7
2025-01-03 10:25:08.671360	234.6	63.7	-92.1	17.9
2025-01-03 10:25:10.973102	233.7	62.8	-92.1	16.5
2025-01-03 10:25:13.274990	232.8	62.0	-91.5	19.0
2025-01-03 10:25:15.571129	232.0	61.1	-92.1	12.0
2025-01-03 10:25:17.869575	231.3	60.2	-90.4	17.1
2025-01-03 10:25:20.175107	230.6	59.4	-89.9	23.2
2025-01-03 10:25:22.470289	229.9	58.5	-90.9	21.0
2025-01-03 10:25:24.772313	229.3	57.7	-90.9	19.9
2025-01-03 10:25:27.084331	228.7	56.9	-90.6	19.7
2025-01-03 10:25:29.389367	228.2	56.0	-91.0	21.1
2025-01-03 10:25:31.695423	227.7	55.2	-91.7	19.8
2025-01-03 10:25:33.989884	227.2	54.4	-92.0	18.7
2025-01-03 10:25:36.298645	226.8	53.6	-91.5	24.4
2025-01-03 10:25:38.600139	226.3	52.9	-91.7	16.4
2025-01-03 10:25:40.898756	225.9	52.1	-92.0	21.3
2025-01-03 10:25:43.208692	225.6	51.3	-91.5	24.3
2025-01-03 10:25:45.507563	225.2	50.6	-91.5	20.1
2025-01-03 10:25:47.804292	224.8	49.8	-92.3	20.9
2025-01-03 10:25:50.105597	224.5	49.1	-91.5	19.2
2025-01-03 10:25:52.406553	224.2	48.4	-92.1	17.7
2025-01-03 10:25:54.707023	223.9	47.7	-90.4	8.9
2025-01-03 10:25:57.025012	223.6	47.0	-90.4	7.8
2025-01-03 10:25:59.325692	223.3	46.3	-90.7	8.9
2025-01-03 10:26:01.621810	223.1	45.6	-91.0	5.6
2025-01-03 10:26:03.926313	222.8	45.0	-91.2	7.8
2025-01-03 10:26:06.226023	222.6	44.3	-91.6	11.3
2025-01-03 10:26:08.526263	222.4	43.7	-91.9	11.3
2025-01-03 10:26:10.824330	222.1	43.0	-91.7	15.1
2025-01-03 10:26:13.130518	221.9	42.4	-91.4	7.9
2025-01-03 10:26:15.440023	221.7	41.8	-92.3	10.7
2025-01-03 10:26:17.743299	221.5	41.2	-92.0	8.2
2025-01-03 10:26:20.054130	221.3	40.6	-92.0	9.6
2025-01-03 10:26:22.357578	221.1	40.0	-91.9	16.5
2025-01-03 10:26:24.662292	221.0	39.4	-92.5	14.1
2025-01-03 10:26:26.971268	220.8	38.8	-92.1	18.6
2025-01-03 10:26:29.280160	220.6	38.3	-91.9	12.3
2025-01-03 10:26:31.581927	220.5	37.7	-92.3	18.9
2025-01-03 10:26:33.876897	220.3	37.2	-92.1	19.6
2025-01-03 10:26:36.185146	220.2	36.7	-91.7	14.7
2025-01-03 10:26:38.497980	220.0	36.1	-92.2	8.6
2025-01-03 10:26:40.796929	219.9	35.6	-92.5	16.6
2025-01-03 10:26:43.103157	219.8	35.1	-92.2	17.8
2025-01-03 10:26:45.408058	219.6	34.6	-92.0	12.3
2025-01-03 10:26:47.709100	219.5	34.1	-92.6	14.8
2025-01-03 10:26:50.011001	219.4	33.6	-92.2	10.7
2025-01-03 10:26:52.311894	219.3	33.1	-91.5	17.2
2025-01-03 10:26:54.606646	219.2	32.7	-92.0	7.6
2025-01-03 10:26:56.917760	219.1	32.2	-92.3	10.7
2025-01-03 10:26:59.224137	219.0	31.7	-91.5	12.2
2025-01-03 10:27:01.510550	218.8	31.3	-92.1	6.8
2025-01-03 10:27:03.803778	218.7	30.8	-90.5	13.2
2025-01-03 10:27:06.109526	218.7	30.4	-91.0	7.2
2025-01-03 10:27:08.404016	218.6	30.0	-90.6	11.9
2025-01-03 10:27:10.702972	218.5	29.6	-92.2	10.3
2025-01-03 10:27:12.997950	218.4	29.1	-92.2	7.4
2025-01-03 10:27:15.291567	218.3	28.7	-91.7	10.9
2025-01-03 10:27:17.587681	218.2	28.3	-92.0	13.5
2025-01-03 10:27:19.883196	218.1	27.9	-90.9	7.4
2025-01-03 10:27:22.180668	218.0	27.5	-90.9	7.9
2025-01-03 10:27:24.474733	218.0	27.1	-90.7	9.8
2025-01-03 10:27:26.772690	217.9	26.7	-92.5	11.0
2025-01-03 10:27:29.075452	217.8	26.4	-90.3	8.6
2025-01-03 10:27:31.374675	217.7	26.0	-90.6	13.3
2025-01-03 10:27:33.676729	217.7	25.6	-91.3	12.0
2025-01-03 10:27:35.980874	217.6	25.3	-90.4	13.0
2025-01-03 10:27:38.280630	217.5	24.9	-90.5	12.4
2025-01-03 10:27:40.585741	217.5	24.5	-92.2	13.0
2025-01-03 10:27:42.893877	217.4	24.2	-91.4	15.5
2025-01-03 10:27:45.205062	217.3	23.8	-90.4	14.0
2025-01-03 10:27:47.512222	217.3	23.5	-91.2	13.0
2025-01-03 10:27:49.809068	217.2	23.2	-92.0	16.0
2025-01-03 10:27:52.118885	217.2	22.8	-91.8	10.6
2025-01-03 10:27:54.430615	217.1	22.5	-91.7	12.3
2025-01-03 10:27:56.734257	217.1	22.2	-91.3	13.7
2025-01-03 10:27:59.037879	217.0	21.8	-91.1	14.0
2025-01-03 10:28:01.324768	217.0	21.5	-90.2	12.5
2025-01-03 10:28:03.634081	216.9	21.2	-91.2	13.0
2025-01-03 10:28:05.937495	216.9	20.9	-92.1	10.8
2025-01-03 10:28:08.242310	216.8	20.6	-92.0	12.1
2025-01-03 10:28:10.549639	216.8	20.3	-92.5	11.1
2025-01-03 10:28:12.851045	216.7	20.0	-92.1	10.0
2025-01-03 10:28:15.158160	216.7	19.7	-91.9	9.2
2025-01-03 10:28:17.457290	216.6	19.4	-92.1	10.6
2025-01-03 10:28:19.753943	216.6	19.1	-92.0	11.1
2025-01-03 10:28:22.051723	216.5	18.8	-92.5	8.0
2025-01-03 10:28:24.350317	216.5	18.6	-91.6	10.1
2025-01-03 10:28:26.646961	216.5	18.3	-92.3	11.0
2025-01-03 10:28:28.948696	216.4	18.0	-92.6	12.2
2025-01-03 10:28:31.252114	216.4	17.7	-91.3	12.2
2025-01-03 10:28:33.553291	216.3	17.5	-92.4	10.7
2025-01-03 10:28:35.856548	216.3	17.2	-92.6	11.7
2025-01-03 10:28:38.154157	216.3	16.9	-92.0	9.6
2025-01-03 10:28:40.454651	216.2	16.7	-90.0	7.0
2025-01-03 10:28:42.764059	216.2	16.4	-92.1	9.1
2025-01-03 10:28:45.068905	216.2	16.2	-92.0	9.2
2025-01-03 10:28:47.368285	216.1	15.9	-92.4	10.9
2025-01-03 10:28:49.669110	216.1	15.7	-92.3	8.7
2025-01-03 10:28:51.966030	216.1	15.4	-92.2	6.6
2025-01-03 10:28:54.265889	216.0	15.2	-91.8	5.0
2025-01-03 10:28:56.562933	216.0	14.9	-92.6	7.0
2025-01-03 10:28:58.867305	216.0	14.7	-92.4	5.6
2025-01-03 10:29:01.165721	215.9	14.4	-92.2	7.3
#Closed at: 2025-01-03 10:19:42.155047