passes_logs/2025/01/03/LEX_Murmansk/LEX_Murmansk__20250103_183848_NOAA_18_rec.log

#Pass ID: 20250103_183848_NOAA 18
#Satellite: NOAA 18
#Configuration: NOAA 18
#Start time: 2025-01-03 18:38:43.234597

#LorettStation: 1.0.0 05.05.2024
#Station: LEX_Murmansk
#Location: 33.156738 lon 68.926811 lat
#TLE: 1 28654U 05018A   25002.84587038  .00000654  00000+0  37076-3 0  9991
#TLE: 2 28654  98.8584  84.0197 0013777 213.7552 146.2745 14.13474254 11464

#Time	Az	El	Level	SNR
2025-01-03 18:38:55.454304	145.1	16.3	-88.9	5.6
2025-01-03 18:38:57.752611	145.1	16.6	-89.3	4.2
2025-01-03 18:39:00.044281	145.1	16.8	-89.3	4.8
2025-01-03 18:39:02.336034	145.0	17.1	-89.5	5.9
2025-01-03 18:39:04.633013	145.0	17.3	-89.4	5.4
2025-01-03 18:39:06.928674	145.0	17.6	-86.8	5.7
2025-01-03 18:39:09.243450	145.0	17.9	-88.6	6.1
2025-01-03 18:39:11.547175	144.9	18.2	-88.7	6.2
2025-01-03 18:39:13.846574	144.9	18.4	-89.2	8.6
2025-01-03 18:39:16.146029	144.9	18.7	-88.9	8.7
2025-01-03 18:39:18.457263	144.8	19.0	-88.5	8.8
2025-01-03 18:39:20.748968	144.8	19.3	-88.9	10.1
2025-01-03 18:39:23.059706	144.7	19.6	-89.0	9.1
2025-01-03 18:39:25.358274	144.7	19.9	-88.7	8.9
2025-01-03 18:39:27.663690	144.7	20.2	-88.6	6.2
2025-01-03 18:39:29.956903	144.6	20.4	-88.6	6.2
2025-01-03 18:39:32.256682	144.6	20.7	-88.9	9.1
2025-01-03 18:39:34.559103	144.6	21.1	-88.3	11.3
2025-01-03 18:39:36.863066	144.5	21.4	-87.1	11.5
2025-01-03 18:39:39.160423	144.5	21.7	-88.3	10.8
2025-01-03 18:39:41.458338	144.4	22.0	-88.1	10.1
2025-01-03 18:39:43.757427	144.4	22.3	-88.2	10.0
2025-01-03 18:39:46.061338	144.3	22.6	-89.1	5.6
2025-01-03 18:39:48.372764	144.3	23.0	-88.9	8.1
2025-01-03 18:39:50.666890	144.3	23.3	-88.4	7.7
2025-01-03 18:39:52.960912	144.2	23.6	-88.6	9.2
2025-01-03 18:39:55.259744	144.2	24.0	-88.6	7.6
2025-01-03 18:39:57.565464	144.1	24.3	-89.3	9.9
2025-01-03 18:39:59.855192	144.0	24.7	-90.0	10.1
2025-01-03 18:40:02.147104	144.0	25.0	-89.0	4.8
2025-01-03 18:40:04.441618	143.9	25.4	-89.3	7.7
2025-01-03 18:40:06.736677	143.9	25.7	-89.8	10.1
2025-01-03 18:40:09.036011	143.8	26.1	-89.6	9.7
2025-01-03 18:40:11.336217	143.8	26.5	-89.0	10.8
2025-01-03 18:40:13.635748	143.7	26.9	-89.4	8.8
2025-01-03 18:40:15.929652	143.6	27.2	-89.4	7.5
2025-01-03 18:40:18.198146	143.6	27.6	-89.3	6.0
2025-01-03 18:40:20.439642	143.5	28.0	-89.2	7.5
2025-01-03 18:40:22.681522	143.5	28.4	-89.2	8.9
2025-01-03 18:40:24.921529	143.4	28.8	-89.7	6.3
2025-01-03 18:40:27.191063	143.3	29.2	-88.9	4.1
2025-01-03 18:40:29.489491	143.2	29.6	-89.6	7.9
2025-01-03 18:40:31.775129	143.2	30.0	-89.4	5.5
2025-01-03 18:40:34.074571	143.1	30.5	-89.5	4.6
2025-01-03 18:40:36.373828	143.0	30.9	-89.1	5.4
2025-01-03 18:40:38.665538	142.9	31.3	-88.3	3.6
2025-01-03 18:40:40.972485	142.8	31.8	-88.5	4.5
2025-01-03 18:40:43.263890	142.7	32.2	-88.7	6.8
2025-01-03 18:40:45.560524	142.7	32.7	-88.9	8.9
2025-01-03 18:40:47.859790	142.6	33.2	-88.6	5.6
2025-01-03 18:40:50.129731	142.5	33.6	-88.5	5.0
2025-01-03 18:40:52.387426	142.4	34.1	-88.5	7.7
2025-01-03 18:40:54.671088	142.3	34.6	-89.8	5.8
2025-01-03 18:40:56.963107	142.2	35.1	-90.0	12.2
2025-01-03 18:40:59.260019	142.1	35.6	-89.3	11.2
2025-01-03 18:41:01.560665	141.9	36.1	-89.7	11.1
2025-01-03 18:41:03.863743	141.8	36.6	-89.8	13.4
2025-01-03 18:41:06.162683	141.7	37.2	-89.5	11.0
2025-01-03 18:41:08.456935	141.6	37.7	-89.4	7.6
2025-01-03 18:41:10.752587	141.4	38.2	-90.1	9.7
2025-01-03 18:41:13.059585	141.3	38.8	-89.4	9.4
2025-01-03 18:41:15.354661	141.2	39.4	-89.6	14.6
2025-01-03 18:41:17.659996	141.0	39.9	-89.6	11.6
2025-01-03 18:41:19.957402	140.9	40.5	-89.9	12.4
2025-01-03 18:41:22.265876	140.7	41.1	-89.5	14.6
2025-01-03 18:41:24.563240	140.6	41.7	-89.3	13.5
2025-01-03 18:41:26.857078	140.4	42.3	-89.5	10.8
2025-01-03 18:41:29.150732	140.2	42.9	-89.6	7.8
2025-01-03 18:41:31.455315	140.0	43.6	-89.3	8.1
2025-01-03 18:41:33.754805	139.8	44.2	-89.4	13.3
2025-01-03 18:41:36.051606	139.6	44.9	-89.7	13.8
2025-01-03 18:41:38.363734	139.4	45.5	-89.1	12.8
2025-01-03 18:41:40.666226	139.2	46.2	-89.6	7.5
2025-01-03 18:41:42.965253	139.0	46.9	-89.5	6.9
2025-01-03 18:41:45.261023	138.8	47.6	-89.6	9.0
2025-01-03 18:41:47.553922	138.5	48.3	-89.5	6.1
2025-01-03 18:41:49.844860	138.2	49.0	-89.2	10.8
2025-01-03 18:41:52.142250	138.0	49.7	-89.4	6.6
2025-01-03 18:41:54.437850	137.7	50.4	-89.3	12.2
2025-01-03 18:41:56.729777	137.4	51.2	-89.6	13.7
2025-01-03 18:41:59.026721	137.1	51.9	-89.6	9.3
2025-01-03 18:42:01.319621	136.7	52.7	-89.6	9.5
2025-01-03 18:42:03.614324	136.4	53.5	-90.1	17.3
2025-01-03 18:42:05.902991	136.0	54.3	-89.5	17.5
2025-01-03 18:42:08.200105	135.6	55.1	-89.4	13.1
2025-01-03 18:42:10.494590	135.2	55.9	-89.7	7.6
2025-01-03 18:42:12.787560	134.8	56.7	-89.7	16.8
2025-01-03 18:42:15.081888	134.3	57.5	-89.6	15.8
2025-01-03 18:42:17.376629	133.8	58.4	-89.6	15.5
2025-01-03 18:42:19.675231	133.2	59.2	-89.8	11.1
2025-01-03 18:42:21.973819	132.7	60.1	-89.6	14.1
2025-01-03 18:42:24.265415	132.1	61.0	-89.4	17.3
2025-01-03 18:42:26.553177	131.4	61.8	-89.2	12.1
2025-01-03 18:42:28.794602	130.7	62.7	-89.4	16.5
2025-01-03 18:42:31.035185	130.0	63.6	-89.4	19.2
2025-01-03 18:42:33.277703	129.2	64.4	-88.7	16.0
2025-01-03 18:42:35.546795	128.3	65.3	-89.1	9.3
2025-01-03 18:42:37.825402	127.4	66.2	-89.1	16.1
2025-01-03 18:42:40.083796	126.3	67.1	-89.9	11.7
2025-01-03 18:42:42.360053	125.2	68.0	-89.9	19.9
2025-01-03 18:42:44.652316	124.0	69.0	-90.1	20.5
2025-01-03 18:42:46.942579	122.6	69.9	-90.1	18.0
2025-01-03 18:42:49.237982	121.1	70.8	-89.9	16.7
2025-01-03 18:42:51.528815	119.4	71.7	-90.2	9.8
2025-01-03 18:42:53.818991	117.6	72.6	-89.9	17.3
2025-01-03 18:42:56.113839	115.5	73.5	-89.7	8.8
2025-01-03 18:42:58.408181	113.2	74.3	-89.8	17.8
2025-01-03 18:43:00.694590	110.6	75.2	-89.9	19.0
2025-01-03 18:43:02.979623	107.7	76.0	-90.2	11.2
2025-01-03 18:43:05.267084	104.5	76.8	-89.4	19.3
2025-01-03 18:43:07.556401	100.8	77.5	-90.0	13.3
2025-01-03 18:43:09.842161	96.7	78.2	-90.1	17.3
2025-01-03 18:43:12.154505	92.0	78.8	-89.8	7.4
2025-01-03 18:43:14.461583	86.8	79.4	-89.9	9.8
2025-01-03 18:43:16.761646	81.1	79.8	-89.8	17.3
2025-01-03 18:43:19.068351	74.9	80.2	-89.5	11.5
2025-01-03 18:43:21.368767	68.4	80.4	-89.5	17.4
2025-01-03 18:43:23.666742	61.7	80.5	-90.1	13.0
2025-01-03 18:43:25.959537	54.9	80.4	-90.0	12.8
2025-01-03 18:43:28.252950	48.3	80.3	-89.5	19.4
2025-01-03 18:43:30.551897	41.9	80.0	-90.1	14.8
2025-01-03 18:43:32.860798	36.0	79.6	-89.7	18.5
2025-01-03 18:43:35.157853	30.6	79.1	-89.4	18.0
2025-01-03 18:43:37.453680	25.7	78.5	-90.0	18.7
2025-01-03 18:43:39.753764	21.4	77.8	-89.9	18.2
2025-01-03 18:43:42.055872	17.5	77.1	-89.6	18.2
2025-01-03 18:43:44.355544	14.0	76.3	-89.7	15.9
2025-01-03 18:43:46.654596	10.9	75.5	-89.9	16.0
2025-01-03 18:43:48.958797	8.2	74.7	-90.0	16.9
2025-01-03 18:43:51.243082	5.8	73.8	-89.4	18.8
2025-01-03 18:43:53.488174	3.7	73.0	-89.8	17.1
2025-01-03 18:43:55.730194	1.8	72.1	-90.1	17.9
2025-01-03 18:43:57.970670	0.0	71.2	-89.8	17.3
2025-01-03 18:44:00.217941	358.5	70.4	-89.9	19.1
2025-01-03 18:44:02.504615	357.1	69.4	-90.1	18.0
2025-01-03 18:44:04.789757	355.8	68.5	-90.3	21.3
2025-01-03 18:44:07.084828	354.6	67.6	-90.0	18.7
2025-01-03 18:44:09.380178	353.5	66.7	-89.9	21.8
2025-01-03 18:44:11.676176	352.5	65.8	-90.3	23.3
2025-01-03 18:44:13.975214	351.5	64.9	-90.2	21.8
2025-01-03 18:44:16.287461	350.7	64.0	-89.5	23.7
2025-01-03 18:44:18.586498	349.9	63.1	-90.3	20.8
2025-01-03 18:44:20.885563	349.2	62.2	-90.0	22.9
2025-01-03 18:44:23.162270	348.5	61.3	-89.8	19.2
2025-01-03 18:44:25.425363	347.9	60.5	-89.8	21.2
2025-01-03 18:44:27.714111	347.3	59.6	-90.2	20.8
2025-01-03 18:44:29.988453	346.8	58.8	-90.0	15.2
2025-01-03 18:44:32.281368	346.2	57.9	-89.5	20.3
2025-01-03 18:44:34.578416	345.8	57.1	-89.2	13.3
2025-01-03 18:44:36.880406	345.3	56.2	-89.4	18.3
2025-01-03 18:44:39.179697	344.9	55.4	-89.8	15.6
2025-01-03 18:44:41.462394	344.5	54.6	-90.0	12.2
2025-01-03 18:44:43.738513	344.1	53.8	-89.9	12.2
2025-01-03 18:44:46.029184	343.7	53.1	-89.9	13.8
2025-01-03 18:44:48.317440	343.4	52.3	-89.7	11.6
2025-01-03 18:44:50.626242	343.1	51.5	-90.3	7.8
2025-01-03 18:44:52.921619	342.8	50.8	-89.9	11.4
2025-01-03 18:44:55.216864	342.5	50.0	-90.0	10.4
2025-01-03 18:44:57.511927	342.2	49.3	-89.7	4.7
2025-01-03 18:44:59.809944	341.9	48.6	-89.8	10.3
2025-01-03 18:45:02.103244	341.7	47.9	-89.9	5.2
2025-01-03 18:45:04.402681	341.4	47.2	-89.8	14.5
2025-01-03 18:45:06.702056	341.2	46.5	-90.0	13.3
2025-01-03 18:45:09.011273	341.0	45.8	-90.2	13.5
2025-01-03 18:45:11.314105	340.8	45.2	-89.6	18.0
2025-01-03 18:45:13.612620	340.6	44.5	-90.1	19.9
2025-01-03 18:45:15.917455	340.4	43.9	-89.9	21.5
2025-01-03 18:45:18.206831	340.2	43.2	-90.1	18.3
2025-01-03 18:45:20.493717	340.0	42.6	-90.2	14.5
2025-01-03 18:45:22.744468	339.8	42.0	-90.6	18.7
2025-01-03 18:45:24.987880	339.7	41.4	-90.2	12.2
2025-01-03 18:45:27.233286	339.5	40.8	-90.1	17.6
2025-01-03 18:45:29.479752	339.4	40.3	-90.0	14.1
2025-01-03 18:45:31.760277	339.2	39.7	-90.1	15.8
2025-01-03 18:45:34.050541	339.1	39.1	-90.5	16.2
2025-01-03 18:45:36.311664	338.9	38.6	-90.3	16.3
2025-01-03 18:45:38.582890	338.8	38.0	-90.1	9.2
2025-01-03 18:45:40.869164	338.7	37.5	-90.4	12.0
2025-01-03 18:45:43.141570	338.6	37.0	-90.2	6.5
2025-01-03 18:45:45.413538	338.5	36.4	-90.1	13.0
2025-01-03 18:45:47.688057	338.3	35.9	-90.4	10.0
2025-01-03 18:45:49.977046	338.2	35.4	-90.8	14.7
2025-01-03 18:45:52.246442	338.1	34.9	-90.2	14.5
2025-01-03 18:45:54.532676	338.0	34.4	-90.8	10.3
2025-01-03 18:45:56.816479	337.9	34.0	-91.0	13.2
2025-01-03 18:45:59.104672	337.8	33.5	-90.3	7.7
2025-01-03 18:46:01.391105	337.7	33.0	-90.5	10.9
2025-01-03 18:46:03.684539	337.6	32.5	-90.6	11.3
2025-01-03 18:46:05.974454	337.5	32.1	-90.3	11.2
2025-01-03 18:46:08.269039	337.5	31.6	-90.2	14.9
2025-01-03 18:46:10.568915	337.4	31.2	-90.8	12.6
2025-01-03 18:46:12.873196	337.3	30.7	-90.5	11.7
2025-01-03 18:46:15.167788	337.2	30.3	-90.1	6.2
2025-01-03 18:46:17.473983	337.1	29.9	-90.4	7.5
2025-01-03 18:46:19.773633	337.1	29.5	-90.4	11.8
2025-01-03 18:46:22.071335	337.0	29.1	-90.2	9.8
2025-01-03 18:46:24.370351	336.9	28.6	-90.1	7.1
2025-01-03 18:46:26.662653	336.9	28.2	-90.5	10.2
2025-01-03 18:46:28.945026	336.8	27.9	-90.8	6.0
2025-01-03 18:46:31.186079	336.7	27.5	-90.1	7.9
2025-01-03 18:46:33.427996	336.7	27.1	-89.8	11.5
2025-01-03 18:46:35.672671	336.6	26.7	-90.1	9.1
2025-01-03 18:46:37.915804	336.5	26.4	-90.2	10.2
2025-01-03 18:46:40.187212	336.5	26.0	-89.5	5.7
2025-01-03 18:46:42.448941	336.4	25.6	-90.4	7.3
2025-01-03 18:46:44.731161	336.4	25.3	-90.5	6.7
2025-01-03 18:46:47.018988	336.3	24.9	-90.4	5.2
2025-01-03 18:46:49.301242	336.3	24.6	-89.9	10.1
2025-01-03 18:46:51.566359	336.2	24.2	-90.2	11.5
2025-01-03 18:46:53.851339	336.2	23.9	-90.1	8.4
2025-01-03 18:46:56.136032	336.1	23.5	-89.8	9.0
2025-01-03 18:46:58.413966	336.1	23.2	-90.3	9.5
2025-01-03 18:47:00.686116	336.0	22.9	-89.9	12.6
2025-01-03 18:47:02.959655	336.0	22.6	-90.3	11.1
2025-01-03 18:47:05.257220	335.9	22.2	-89.9	13.5
2025-01-03 18:47:07.555970	335.9	21.9	-89.6	6.5
2025-01-03 18:47:09.866597	335.9	21.6	-90.3	7.2
2025-01-03 18:47:12.160160	335.8	21.3	-90.0	8.9
2025-01-03 18:47:14.470967	335.8	21.0	-90.2	5.9
2025-01-03 18:47:16.762345	335.7	20.7	-90.6	9.0
2025-01-03 18:47:19.037633	335.7	20.4	-90.5	7.4
2025-01-03 18:47:21.318007	335.7	20.1	-90.3	6.8
2025-01-03 18:47:23.597369	335.6	19.8	-91.0	5.6
2025-01-03 18:47:25.885552	335.6	19.5	-90.9	6.4
2025-01-03 18:47:28.184315	335.6	19.2	-89.7	4.4
2025-01-03 18:47:30.451594	335.5	19.0	-90.8	6.7
2025-01-03 18:47:32.733441	335.5	18.7	-90.4	10.1
2025-01-03 18:47:34.999676	335.5	18.4	-90.7	5.7
2025-01-03 18:47:37.274019	335.4	18.1	-90.5	5.5
2025-01-03 18:47:39.548568	335.4	17.9	-90.7	5.1
2025-01-03 18:47:41.814262	335.4	17.6	-90.5	8.5
2025-01-03 18:47:44.107681	335.3	17.3	-90.2	6.3
2025-01-03 18:47:46.393559	335.3	17.1	-90.6	5.3
2025-01-03 18:47:48.685943	335.3	16.8	-91.0	5.4
2025-01-03 18:47:50.971484	335.3	16.6	-90.4	4.8
2025-01-03 18:47:53.265264	335.2	16.3	-90.0	2.9
2025-01-03 18:47:55.566139	335.2	16.1	-90.9	4.5
2025-01-03 18:47:57.862154	335.2	15.8	-90.4	5.1
2025-01-03 18:48:00.158832	335.2	15.6	-90.3	6.4
2025-01-03 18:48:02.447510	335.1	15.3	-90.7	5.6
2025-01-03 18:48:04.717128	335.1	15.1	-90.6	6.4
2025-01-03 18:48:07.002133	335.1	14.8	-90.8	4.9
2025-01-03 18:48:09.283913	335.1	14.6	-90.5	3.2
#Closed at: 2025-01-03 18:38:48.261122