passes_logs/2025/01/03/LEX_Murmansk/LEX_Murmansk__20250103_083859_NOAA_18_rec.log

#Pass ID: 20250103_083859_NOAA 18
#Satellite: NOAA 18
#Configuration: NOAA 18
#Start time: 2025-01-03 08:38:55.013910

#LorettStation: 1.0.0 05.05.2024
#Station: LEX_Murmansk
#Location: 33.156738 lon 68.926811 lat
#TLE: 1 28654U 05018A   25002.84587038  .00000654  00000+0  37076-3 0  9991
#TLE: 2 28654  98.8584  84.0197 0013777 213.7552 146.2745 14.13474254 11464

#Time	Az	El	Level	SNR
2025-01-03 08:39:07.136851	32.5	16.1	-90.8	4.1
2025-01-03 08:39:08.287319	32.6	16.3	-90.5	4.1
2025-01-03 08:39:09.430033	32.7	16.4	-91.5	4.4
2025-01-03 08:39:10.575425	32.8	16.5	-91.4	5.0
2025-01-03 08:39:11.725104	32.9	16.6	-91.2	4.0
2025-01-03 08:39:12.872720	33.1	16.7	-91.5	5.0
2025-01-03 08:39:14.026052	33.2	16.8	-91.4	7.6
2025-01-03 08:39:15.174827	33.3	16.9	-90.9	2.3
2025-01-03 08:39:16.322783	33.4	17.0	-90.9	4.6
2025-01-03 08:39:17.465788	33.5	17.2	-91.3	5.5
2025-01-03 08:39:18.611237	33.7	17.3	-90.7	8.1
2025-01-03 08:39:19.759249	33.8	17.4	-92.3	10.7
2025-01-03 08:39:20.910826	33.9	17.5	-92.6	10.1
2025-01-03 08:39:22.059738	34.1	17.6	-92.2	9.5
2025-01-03 08:39:23.207420	34.2	17.7	-91.9	11.5
2025-01-03 08:39:24.351511	34.3	17.8	-92.5	9.4
2025-01-03 08:39:25.500691	34.4	18.0	-92.5	7.1
2025-01-03 08:39:26.648376	34.6	18.1	-92.1	7.1
2025-01-03 08:39:27.800191	34.7	18.2	-92.2	7.4
2025-01-03 08:39:28.946856	34.8	18.3	-92.6	7.5
2025-01-03 08:39:30.094324	35.0	18.4	-91.9	4.1
2025-01-03 08:39:31.244259	35.1	18.6	-91.9	5.7
2025-01-03 08:39:32.391651	35.2	18.7	-92.1	9.0
2025-01-03 08:39:33.541389	35.4	18.8	-92.3	4.7
2025-01-03 08:39:34.687194	35.5	18.9	-92.1	7.0
2025-01-03 08:39:35.838445	35.7	19.0	-92.0	9.4
2025-01-03 08:39:36.984066	35.8	19.2	-92.5	10.9
2025-01-03 08:39:38.134640	35.9	19.3	-92.3	8.5
2025-01-03 08:39:39.283492	36.1	19.4	-91.9	8.9
2025-01-03 08:39:40.431103	36.2	19.5	-92.5	8.6
2025-01-03 08:39:41.579706	36.4	19.6	-92.4	9.6
2025-01-03 08:39:42.730813	36.5	19.8	-92.3	13.6
2025-01-03 08:39:43.882861	36.7	19.9	-92.6	12.6
2025-01-03 08:39:45.032180	36.8	20.0	-92.2	12.4
2025-01-03 08:39:46.177526	37.0	20.1	-92.1	11.0
2025-01-03 08:39:47.330721	37.1	20.3	-92.3	12.2
2025-01-03 08:39:48.483984	37.3	20.4	-92.1	7.2
2025-01-03 08:39:49.632187	37.4	20.5	-92.7	6.0
2025-01-03 08:39:50.782174	37.6	20.6	-92.6	11.1
2025-01-03 08:39:51.929485	37.7	20.8	-92.8	5.7
2025-01-03 08:39:53.082360	37.9	20.9	-91.7	7.5
2025-01-03 08:39:54.234911	38.0	21.0	-92.1	11.0
2025-01-03 08:39:55.383254	38.2	21.2	-92.5	15.8
2025-01-03 08:39:56.530636	38.3	21.3	-92.3	13.6
2025-01-03 08:39:57.678090	38.5	21.4	-92.5	12.6
2025-01-03 08:39:58.833359	38.7	21.5	-92.6	13.4
2025-01-03 08:39:59.981208	38.8	21.7	-92.6	9.7
2025-01-03 08:40:01.127450	39.0	21.8	-92.4	9.0
2025-01-03 08:40:02.273685	39.2	21.9	-91.9	10.5
2025-01-03 08:40:03.421367	39.3	22.1	-92.6	10.8
2025-01-03 08:40:04.569329	39.5	22.2	-92.8	10.4
2025-01-03 08:40:05.722239	39.7	22.3	-92.7	12.2
2025-01-03 08:40:06.876260	39.8	22.5	-92.3	14.7
2025-01-03 08:40:08.020289	40.0	22.6	-92.5	5.8
2025-01-03 08:40:09.169862	40.2	22.7	-92.3	7.2
2025-01-03 08:40:10.320338	40.4	22.9	-92.2	11.4
2025-01-03 08:40:11.468315	40.5	23.0	-92.6	9.0
2025-01-03 08:40:12.613257	40.7	23.1	-93.1	11.7
2025-01-03 08:40:13.762949	40.9	23.3	-92.6	12.4
2025-01-03 08:40:14.910366	41.1	23.4	-92.6	14.5
2025-01-03 08:40:16.058586	41.3	23.5	-92.3	11.2
2025-01-03 08:40:17.208956	41.5	23.7	-92.3	12.2
2025-01-03 08:40:18.354660	41.6	23.8	-92.3	11.1
2025-01-03 08:40:19.502326	41.8	23.9	-92.6	8.5
2025-01-03 08:40:20.647377	42.0	24.1	-92.9	8.6
2025-01-03 08:40:21.801491	42.2	24.2	-93.0	10.7
2025-01-03 08:40:22.948885	42.4	24.3	-92.7	10.5
2025-01-03 08:40:24.106154	42.6	24.5	-92.2	9.3
2025-01-03 08:40:25.259513	42.8	24.6	-92.2	9.0
2025-01-03 08:40:26.407941	43.0	24.8	-92.9	9.5
2025-01-03 08:40:27.556495	43.2	24.9	-92.9	5.9
2025-01-03 08:40:28.702431	43.4	25.0	-92.6	4.5
2025-01-03 08:40:29.847903	43.6	25.2	-93.0	5.0
2025-01-03 08:40:30.995340	43.8	25.3	-92.8	5.3
2025-01-03 08:40:32.140990	44.0	25.5	-92.3	9.5
2025-01-03 08:40:33.293279	44.2	25.6	-92.3	11.8
2025-01-03 08:40:34.442658	44.4	25.8	-92.9	9.3
2025-01-03 08:40:35.586196	44.6	25.9	-92.4	9.9
2025-01-03 08:40:36.745006	44.9	26.0	-92.6	11.8
2025-01-03 08:40:37.892601	45.1	26.2	-92.9	11.3
2025-01-03 08:40:39.041706	45.3	26.3	-92.9	10.0
2025-01-03 08:40:40.186927	45.5	26.5	-92.0	8.5
2025-01-03 08:40:41.337117	45.7	26.6	-92.4	8.6
2025-01-03 08:40:42.488732	46.0	26.8	-92.4	8.9
2025-01-03 08:40:43.636775	46.2	26.9	-92.9	8.6
2025-01-03 08:40:44.787696	46.4	27.0	-92.8	12.0
2025-01-03 08:40:45.936492	46.6	27.2	-92.4	7.3
2025-01-03 08:40:47.079355	46.9	27.3	-92.5	6.6
2025-01-03 08:40:48.229239	47.1	27.5	-92.5	11.3
2025-01-03 08:40:49.381267	47.3	27.6	-92.5	13.0
2025-01-03 08:40:50.536226	47.6	27.8	-92.7	6.8
2025-01-03 08:40:51.685046	47.8	27.9	-92.7	11.1
2025-01-03 08:40:52.835464	48.1	28.1	-93.0	11.6
2025-01-03 08:40:53.984324	48.3	28.2	-92.0	9.5
2025-01-03 08:40:55.131315	48.5	28.4	-92.3	12.5
2025-01-03 08:40:56.281142	48.8	28.5	-92.4	13.5
2025-01-03 08:40:57.434636	49.1	28.7	-92.9	9.4
2025-01-03 08:40:58.589096	49.3	28.8	-92.7	8.7
2025-01-03 08:40:59.742921	49.6	28.9	-92.9	10.8
2025-01-03 08:41:00.885051	49.8	29.1	-92.9	11.7
2025-01-03 08:41:02.034115	50.1	29.2	-93.0	13.0
2025-01-03 08:41:03.184404	50.3	29.4	-92.3	10.0
2025-01-03 08:41:04.338227	50.6	29.5	-92.2	10.6
2025-01-03 08:41:05.490429	50.9	29.7	-92.8	7.1
2025-01-03 08:41:06.636448	51.1	29.8	-92.8	7.4
2025-01-03 08:41:07.781811	51.4	30.0	-92.1	8.8
2025-01-03 08:41:08.926030	51.7	30.1	-92.6	8.4
2025-01-03 08:41:10.079562	52.0	30.3	-92.5	6.1
2025-01-03 08:41:11.232894	52.2	30.4	-92.3	13.5
2025-01-03 08:41:12.383480	52.5	30.6	-92.6	14.9
2025-01-03 08:41:13.537183	52.8	30.7	-92.9	14.1
2025-01-03 08:41:14.689898	53.1	30.9	-92.6	15.2
2025-01-03 08:41:15.835955	53.4	31.0	-92.7	14.8
2025-01-03 08:41:16.980763	53.7	31.2	-92.9	14.7
2025-01-03 08:41:18.129684	54.0	31.3	-92.0	12.0
2025-01-03 08:41:19.275899	54.3	31.5	-92.3	13.3
2025-01-03 08:41:20.426026	54.6	31.6	-92.9	9.6
2025-01-03 08:41:21.573441	54.9	31.8	-92.3	8.8
2025-01-03 08:41:22.723567	55.2	31.9	-92.6	12.5
2025-01-03 08:41:23.871156	55.5	32.1	-92.8	16.5
2025-01-03 08:41:25.017972	55.8	32.2	-92.7	17.4
2025-01-03 08:41:26.163332	56.1	32.4	-92.1	17.8
2025-01-03 08:41:27.303808	56.4	32.5	-92.2	17.9
2025-01-03 08:41:28.455789	56.8	32.7	-92.5	16.7
2025-01-03 08:41:29.604514	57.1	32.8	-92.6	10.4
2025-01-03 08:41:30.751219	57.4	33.0	-92.8	20.3
2025-01-03 08:41:31.902997	57.7	33.1	-92.7	15.4
2025-01-03 08:41:33.049034	58.1	33.2	-92.2	10.9
2025-01-03 08:41:34.196629	58.4	33.4	-92.3	16.4
2025-01-03 08:41:35.344135	58.7	33.5	-92.5	18.5
2025-01-03 08:41:36.496831	59.1	33.7	-92.8	16.1
2025-01-03 08:41:37.639322	59.4	33.8	-92.6	17.4
2025-01-03 08:41:38.786536	59.8	34.0	-92.5	18.9
2025-01-03 08:41:39.933484	60.1	34.1	-92.9	19.4
2025-01-03 08:41:41.077597	60.5	34.3	-92.3	19.2
2025-01-03 08:41:42.229549	60.8	34.4	-92.1	18.5
2025-01-03 08:41:43.381197	61.2	34.5	-92.6	21.9
2025-01-03 08:41:44.530729	61.5	34.7	-92.7	13.6
2025-01-03 08:41:45.679359	61.9	34.8	-92.4	17.9
2025-01-03 08:41:46.826214	62.3	35.0	-92.6	20.0
2025-01-03 08:41:47.979872	62.6	35.1	-92.8	14.2
2025-01-03 08:41:49.124748	63.0	35.2	-92.5	14.3
2025-01-03 08:41:50.275535	63.4	35.4	-92.2	10.8
2025-01-03 08:41:51.427021	63.8	35.5	-92.3	17.0
2025-01-03 08:41:52.572350	64.2	35.7	-92.8	17.3
2025-01-03 08:41:53.722854	64.5	35.8	-92.6	20.9
2025-01-03 08:41:54.870101	64.9	35.9	-92.8	16.4
2025-01-03 08:41:56.017924	65.3	36.1	-92.8	11.6
2025-01-03 08:41:57.170571	65.7	36.2	-92.2	12.3
2025-01-03 08:41:58.317264	66.1	36.3	-92.0	15.9
2025-01-03 08:41:59.463729	66.5	36.5	-92.5	9.2
2025-01-03 08:42:00.607849	66.9	36.6	-92.8	9.1
2025-01-03 08:42:01.752492	67.3	36.7	-92.6	15.0
2025-01-03 08:42:02.897087	67.7	36.8	-93.0	17.7
2025-01-03 08:42:04.045407	68.2	37.0	-92.5	15.7
2025-01-03 08:42:05.194569	68.6	37.1	-91.9	17.0
2025-01-03 08:42:06.342903	69.0	37.2	-92.3	18.3
2025-01-03 08:42:07.493395	69.4	37.3	-92.7	19.4
2025-01-03 08:42:08.636935	69.9	37.5	-93.0	18.6
2025-01-03 08:42:09.792829	70.3	37.6	-92.6	18.1
2025-01-03 08:42:10.946768	70.7	37.7	-92.8	11.9
2025-01-03 08:42:12.097601	71.2	37.8	-92.2	14.8
2025-01-03 08:42:13.250549	71.6	37.9	-92.5	19.5
2025-01-03 08:42:14.405668	72.1	38.1	-93.0	15.1
2025-01-03 08:42:15.553673	72.5	38.2	-92.7	13.9
2025-01-03 08:42:16.705500	72.9	38.3	-92.6	17.6
2025-01-03 08:42:17.863967	73.4	38.4	-92.7	19.7
2025-01-03 08:42:19.011623	73.9	38.5	-92.9	16.4
2025-01-03 08:42:20.157812	74.3	38.6	-92.3	17.8
2025-01-03 08:42:21.306924	74.8	38.7	-92.0	15.7
2025-01-03 08:42:22.457470	75.2	38.8	-92.8	18.7
2025-01-03 08:42:23.607032	75.7	38.9	-92.9	16.9
2025-01-03 08:42:24.759683	76.2	39.0	-92.8	22.7
2025-01-03 08:42:25.903919	76.7	39.1	-92.8	17.2
2025-01-03 08:42:27.047673	77.1	39.2	-92.5	14.0
2025-01-03 08:42:28.193840	77.6	39.3	-92.1	15.4
2025-01-03 08:42:29.342907	78.1	39.4	-92.3	19.5
2025-01-03 08:42:30.490582	78.6	39.5	-93.0	11.8
2025-01-03 08:42:31.640204	79.1	39.6	-92.7	8.8
2025-01-03 08:42:32.787286	79.6	39.7	-93.2	16.5
2025-01-03 08:42:33.934210	80.0	39.7	-92.6	12.3
2025-01-03 08:42:35.087781	80.5	39.8	-92.5	8.3
2025-01-03 08:42:36.236000	81.0	39.9	-92.5	17.6
2025-01-03 08:42:37.384445	81.5	40.0	-92.4	18.0
2025-01-03 08:42:38.532718	82.0	40.1	-92.8	13.0
2025-01-03 08:42:39.685952	82.5	40.1	-92.7	17.8
2025-01-03 08:42:40.832430	83.1	40.2	-93.0	13.5
2025-01-03 08:42:41.980701	83.6	40.3	-92.6	14.7
2025-01-03 08:42:43.134611	84.1	40.3	-92.4	18.6
2025-01-03 08:42:44.281443	84.6	40.4	-92.4	15.9
2025-01-03 08:42:45.434650	85.1	40.5	-92.6	16.4
2025-01-03 08:42:46.585721	85.6	40.5	-92.7	13.2
2025-01-03 08:42:47.731865	86.1	40.6	-92.8	14.2
2025-01-03 08:42:48.877929	86.7	40.6	-92.6	17.3
2025-01-03 08:42:50.028945	87.2	40.7	-92.9	12.0
2025-01-03 08:42:51.184611	87.7	40.7	-92.1	15.4
2025-01-03 08:42:52.330933	88.2	40.8	-92.5	13.5
2025-01-03 08:42:53.477848	88.8	40.8	-92.9	7.9
2025-01-03 08:42:54.630563	89.3	40.9	-93.1	9.2
2025-01-03 08:42:55.786736	89.8	40.9	-92.7	6.9
2025-01-03 08:42:56.939992	90.3	40.9	-92.9	12.8
2025-01-03 08:42:58.089874	90.9	41.0	-92.1	11.7
2025-01-03 08:42:59.236609	91.4	41.0	-92.4	18.7
2025-01-03 08:43:00.379192	91.9	41.0	-92.8	17.7
2025-01-03 08:43:01.522431	92.5	41.0	-93.0	6.5
2025-01-03 08:43:02.671358	93.0	41.1	-92.9	16.0
2025-01-03 08:43:03.833836	93.6	41.1	-93.1	9.4
2025-01-03 08:43:04.987073	94.1	41.1	-93.1	17.3
2025-01-03 08:43:06.136358	94.6	41.1	-92.2	11.3
2025-01-03 08:43:07.278808	95.2	41.1	-92.4	18.1
2025-01-03 08:43:08.423650	95.7	41.1	-92.5	15.5
2025-01-03 08:43:09.563889	96.2	41.1	-92.7	14.4
2025-01-03 08:43:10.719284	96.8	41.1	-92.2	14.0
2025-01-03 08:43:11.874142	97.3	41.1	-92.7	15.9
2025-01-03 08:43:13.031571	97.9	41.1	-92.9	14.9
2025-01-03 08:43:14.183058	98.4	41.1	-92.6	15.0
2025-01-03 08:43:15.330331	98.9	41.1	-92.0	13.1
2025-01-03 08:43:16.476639	99.5	41.1	-92.7	9.1
2025-01-03 08:43:17.624374	100.0	41.1	-93.0	8.2
2025-01-03 08:43:18.776571	100.5	41.1	-92.5	11.1
2025-01-03 08:43:19.928530	101.1	41.1	-92.8	6.4
2025-01-03 08:43:21.080263	101.6	41.0	-91.8	5.5
2025-01-03 08:43:22.230811	102.2	41.0	-91.9	5.7
2025-01-03 08:43:23.380330	102.7	41.0	-91.7	6.6
2025-01-03 08:43:24.527088	103.2	41.0	-92.7	5.9
2025-01-03 08:43:25.677471	103.8	40.9	-92.5	10.1
2025-01-03 08:43:26.825524	104.3	40.9	-92.8	12.5
2025-01-03 08:43:27.971728	104.8	40.8	-92.8	10.9
2025-01-03 08:43:29.118248	105.3	40.8	-92.3	9.9
2025-01-03 08:43:30.265564	105.9	40.8	-91.5	15.4
2025-01-03 08:43:31.421852	106.4	40.7	-92.9	14.1
2025-01-03 08:43:32.575003	106.9	40.7	-93.0	12.7
2025-01-03 08:43:33.722876	107.4	40.6	-92.6	14.7
2025-01-03 08:43:34.878084	108.0	40.6	-92.6	15.9
2025-01-03 08:43:36.025914	108.5	40.5	-92.6	13.2
2025-01-03 08:43:37.173891	109.0	40.4	-90.4	10.3
2025-01-03 08:43:38.327184	109.5	40.4	-92.0	15.7
2025-01-03 08:43:39.479913	110.0	40.3	-92.6	11.5
2025-01-03 08:43:40.627578	110.6	40.3	-92.8	10.7
2025-01-03 08:43:41.774948	111.1	40.2	-92.9	14.6
2025-01-03 08:43:42.932435	111.6	40.1	-93.1	11.7
2025-01-03 08:43:44.078762	112.1	40.0	-92.1	12.4
2025-01-03 08:43:45.231263	112.6	40.0	-91.9	17.4
2025-01-03 08:43:46.385858	113.1	39.9	-92.6	18.7
2025-01-03 08:43:47.533527	113.6	39.8	-92.6	13.1
2025-01-03 08:43:48.680871	114.1	39.7	-92.6	14.1
2025-01-03 08:43:49.826626	114.6	39.6	-92.0	14.9
2025-01-03 08:43:50.976534	115.1	39.5	-92.6	11.5
2025-01-03 08:43:52.131070	115.5	39.5	-90.6	10.3
2025-01-03 08:43:53.280486	116.0	39.4	-91.0	17.3
2025-01-03 08:43:54.430082	116.5	39.3	-91.3	10.9
2025-01-03 08:43:55.577463	117.0	39.2	-90.1	9.4
2025-01-03 08:43:56.727664	117.5	39.1	-91.3	16.6
2025-01-03 08:43:57.876763	117.9	39.0	-91.5	14.5
2025-01-03 08:43:59.023915	118.4	38.9	-90.8	11.4
2025-01-03 08:44:00.173082	118.9	38.8	-91.4	9.4
2025-01-03 08:44:01.314041	119.4	38.7	-92.2	16.3
2025-01-03 08:44:02.458604	119.8	38.6	-92.7	11.1
2025-01-03 08:44:03.614338	120.3	38.5	-92.2	12.3
2025-01-03 08:44:04.767505	120.7	38.4	-91.1	12.9
2025-01-03 08:44:05.916847	121.2	38.2	-91.8	10.0
2025-01-03 08:44:07.067101	121.6	38.1	-92.2	7.7
2025-01-03 08:44:08.213057	122.1	38.0	-91.7	19.6
2025-01-03 08:44:09.360167	122.5	37.9	-92.6	17.7
2025-01-03 08:44:10.508649	123.0	37.8	-92.0	12.7
2025-01-03 08:44:11.661781	123.4	37.7	-91.1	12.6
2025-01-03 08:44:12.811470	123.9	37.5	-92.9	22.4
2025-01-03 08:44:13.952400	124.3	37.4	-92.6	11.9
2025-01-03 08:44:15.101719	124.7	37.3	-92.5	9.1
2025-01-03 08:44:16.252238	125.1	37.2	-92.3	18.7
2025-01-03 08:44:17.394536	125.6	37.1	-92.3	12.6
2025-01-03 08:44:18.544062	126.0	36.9	-92.6	13.4
2025-01-03 08:44:19.699857	126.4	36.8	-92.6	18.0
2025-01-03 08:44:20.849719	126.8	36.7	-92.8	17.8
2025-01-03 08:44:22.003165	127.2	36.5	-92.8	14.9
2025-01-03 08:44:23.148662	127.6	36.4	-92.0	11.4
2025-01-03 08:44:24.305557	128.0	36.3	-91.6	15.5
2025-01-03 08:44:25.460891	128.4	36.1	-92.2	15.4
2025-01-03 08:44:26.613720	128.8	36.0	-92.5	14.3
2025-01-03 08:44:27.760083	129.2	35.9	-92.7	17.1
2025-01-03 08:44:28.913707	129.6	35.7	-92.4	13.6
2025-01-03 08:44:30.060794	130.0	35.6	-92.2	19.5
2025-01-03 08:44:31.210225	130.4	35.5	-92.1	14.4
2025-01-03 08:44:32.363486	130.8	35.3	-92.2	13.7
2025-01-03 08:44:33.516483	131.2	35.2	-92.6	16.2
2025-01-03 08:44:34.673887	131.5	35.0	-92.6	10.8
2025-01-03 08:44:35.828778	131.9	34.9	-92.4	12.6
2025-01-03 08:44:36.972450	132.3	34.8	-92.7	20.9
2025-01-03 08:44:38.128396	132.6	34.6	-92.1	13.7
2025-01-03 08:44:39.279425	133.0	34.5	-92.1	9.6
2025-01-03 08:44:40.429905	133.4	34.3	-92.6	7.6
2025-01-03 08:44:41.586438	133.7	34.2	-92.3	14.7
2025-01-03 08:44:42.737099	134.1	34.0	-92.5	15.0
2025-01-03 08:44:43.885230	134.4	33.9	-92.7	14.0
2025-01-03 08:44:45.032080	134.8	33.7	-92.9	7.9
2025-01-03 08:44:46.180218	135.1	33.6	-92.3	8.2
2025-01-03 08:44:47.330100	135.5	33.4	-92.7	7.4
2025-01-03 08:44:48.477241	135.8	33.3	-93.0	6.2
2025-01-03 08:44:49.626771	136.1	33.2	-92.6	7.0
2025-01-03 08:44:50.792989	136.5	33.0	-92.9	10.8
2025-01-03 08:44:51.939735	136.8	32.9	-93.0	8.3
2025-01-03 08:44:53.085624	137.1	32.7	-92.3	8.7
2025-01-03 08:44:54.230968	137.4	32.6	-92.3	14.2
2025-01-03 08:44:55.380027	137.8	32.4	-92.9	14.7
2025-01-03 08:44:56.532069	138.1	32.3	-92.6	7.6
2025-01-03 08:44:57.683465	138.4	32.1	-92.9	13.4
2025-01-03 08:44:58.840935	138.7	32.0	-92.7	12.6
2025-01-03 08:44:59.988658	139.0	31.8	-92.8	7.3
2025-01-03 08:45:01.132220	139.3	31.7	-92.5	7.0
2025-01-03 08:45:02.279126	139.6	31.5	-92.4	12.4
2025-01-03 08:45:03.437559	139.9	31.4	-92.5	10.2
2025-01-03 08:45:04.588524	140.2	31.2	-91.1	8.2
2025-01-03 08:45:05.732966	140.5	31.1	-92.6	10.7
2025-01-03 08:45:06.883740	140.8	30.9	-92.2	7.9
2025-01-03 08:45:08.035557	141.1	30.8	-92.5	7.0
2025-01-03 08:45:09.185285	141.4	30.6	-92.2	8.9
2025-01-03 08:45:10.330957	141.7	30.5	-91.7	5.9
2025-01-03 08:45:11.484878	142.0	30.3	-92.5	3.8
2025-01-03 08:45:12.633073	142.3	30.2	-92.3	7.3
2025-01-03 08:45:13.779913	142.5	30.0	-92.7	5.0
2025-01-03 08:45:14.939443	142.8	29.9	-92.5	5.1
2025-01-03 08:45:16.086312	143.1	29.7	-91.6	9.0
2025-01-03 08:45:17.234592	143.4	29.6	-91.9	8.5
2025-01-03 08:45:18.381214	143.6	29.4	-91.5	8.4
2025-01-03 08:45:19.526891	143.9	29.3	-92.2	6.1
2025-01-03 08:45:20.676062	144.1	29.1	-92.6	6.5
2025-01-03 08:45:21.823316	144.4	29.0	-92.4	9.1
2025-01-03 08:45:22.976695	144.7	28.8	-92.6	6.2
2025-01-03 08:45:24.125284	144.9	28.7	-92.1	5.4
2025-01-03 08:45:25.276281	145.2	28.5	-92.2	4.8
2025-01-03 08:45:26.422309	145.4	28.4	-92.9	3.1
2025-01-03 08:45:27.573219	145.7	28.2	-92.4	3.3
2025-01-03 08:45:28.720603	145.9	28.1	-92.6	4.7
2025-01-03 08:45:29.865939	146.2	27.9	-92.9	6.1
2025-01-03 08:45:31.013755	146.4	27.8	-92.4	4.8
2025-01-03 08:45:32.159212	146.7	27.6	-92.0	7.4
2025-01-03 08:45:33.311366	146.9	27.5	-92.1	10.1
2025-01-03 08:45:34.461434	147.1	27.3	-92.8	7.6
2025-01-03 08:45:35.619725	147.4	27.2	-92.3	10.3
2025-01-03 08:45:36.775181	147.6	27.0	-92.8	10.9
2025-01-03 08:45:37.926215	147.8	26.9	-92.5	10.5
2025-01-03 08:45:39.080811	148.1	26.7	-90.5	7.4
2025-01-03 08:45:40.234369	148.3	26.6	-92.3	11.9
2025-01-03 08:45:41.387858	148.5	26.4	-92.4	11.8
2025-01-03 08:45:42.538081	148.7	26.3	-92.5	8.1
2025-01-03 08:45:43.688231	149.0	26.2	-92.6	10.3
2025-01-03 08:45:44.837263	149.2	26.0	-92.2	10.9
2025-01-03 08:45:45.993432	149.4	25.9	-92.3	8.1
2025-01-03 08:45:47.148081	149.6	25.7	-91.9	9.1
2025-01-03 08:45:48.290121	149.8	25.6	-91.8	9.8
2025-01-03 08:45:49.438633	150.0	25.4	-91.2	10.3
2025-01-03 08:45:50.585699	150.2	25.3	-92.4	12.8
2025-01-03 08:45:51.742321	150.4	25.2	-92.2	11.9
2025-01-03 08:45:52.898666	150.6	25.0	-92.4	12.1
2025-01-03 08:45:54.049413	150.9	24.9	-92.2	12.8
2025-01-03 08:45:55.202533	151.1	24.7	-92.0	12.8
2025-01-03 08:45:56.345194	151.3	24.6	-92.3	13.4
2025-01-03 08:45:57.498131	151.5	24.4	-92.5	12.7
2025-01-03 08:45:58.640457	151.6	24.3	-92.6	13.2
2025-01-03 08:45:59.790306	151.8	24.2	-92.2	13.5
2025-01-03 08:46:00.932029	152.0	24.0	-92.5	9.8
2025-01-03 08:46:02.077925	152.2	23.9	-91.9	7.5
2025-01-03 08:46:03.230714	152.4	23.8	-91.9	7.0
2025-01-03 08:46:04.377364	152.6	23.6	-92.4	8.5
2025-01-03 08:46:05.532889	152.8	23.5	-92.7	7.0
2025-01-03 08:46:06.675650	153.0	23.3	-92.3	10.9
2025-01-03 08:46:07.827733	153.2	23.2	-92.4	13.1
2025-01-03 08:46:08.976523	153.3	23.1	-92.6	11.2
2025-01-03 08:46:10.131704	153.5	22.9	-92.1	12.2
2025-01-03 08:46:11.284012	153.7	22.8	-92.2	10.8
2025-01-03 08:46:12.436025	153.9	22.7	-92.4	10.4
2025-01-03 08:46:13.586704	154.1	22.5	-92.3	10.5
2025-01-03 08:46:14.731741	154.2	22.4	-92.1	7.0
2025-01-03 08:46:15.882201	154.4	22.3	-92.8	8.7
2025-01-03 08:46:17.013745	154.6	22.1	-92.7	9.2
2025-01-03 08:46:18.163042	154.7	22.0	-92.4	8.6
2025-01-03 08:46:19.308660	154.9	21.9	-91.9	9.7
2025-01-03 08:46:20.460562	155.1	21.7	-92.6	8.3
2025-01-03 08:46:21.607361	155.2	21.6	-92.8	8.8
2025-01-03 08:46:22.753479	155.4	21.5	-92.4	10.6
2025-01-03 08:46:23.905768	155.6	21.3	-92.7	8.1
2025-01-03 08:46:25.051251	155.7	21.2	-92.3	7.9
2025-01-03 08:46:26.198910	155.9	21.1	-92.2	6.5
2025-01-03 08:46:27.347759	156.1	20.9	-92.4	7.2
2025-01-03 08:46:28.493002	156.2	20.8	-92.4	7.7
2025-01-03 08:46:29.643929	156.4	20.7	-92.6	8.2
2025-01-03 08:46:30.790004	156.5	20.6	-92.7	10.0
2025-01-03 08:46:31.935359	156.7	20.4	-92.5	6.0
2025-01-03 08:46:33.083037	156.8	20.3	-91.4	7.6
2025-01-03 08:46:34.240083	157.0	20.2	-92.2	7.9
2025-01-03 08:46:35.390895	157.1	20.1	-92.7	10.8
2025-01-03 08:46:36.544090	157.3	19.9	-92.1	7.3
2025-01-03 08:46:37.690092	157.4	19.8	-92.8	9.9
2025-01-03 08:46:38.840291	157.6	19.7	-92.8	10.9
2025-01-03 08:46:39.988159	157.7	19.5	-92.4	7.1
2025-01-03 08:46:41.137598	157.9	19.4	-92.2	7.8
2025-01-03 08:46:42.284720	158.0	19.3	-92.1	8.7
2025-01-03 08:46:43.432666	158.2	19.2	-92.4	7.6
2025-01-03 08:46:44.582004	158.3	19.1	-92.5	6.5
2025-01-03 08:46:45.731965	158.4	18.9	-92.1	5.2
2025-01-03 08:46:46.880558	158.6	18.8	-92.5	5.3
2025-01-03 08:46:48.032435	158.7	18.7	-92.6	6.0
2025-01-03 08:46:49.177939	158.9	18.6	-91.9	5.1
2025-01-03 08:46:50.324751	159.0	18.4	-92.1	8.6
2025-01-03 08:46:51.475330	159.1	18.3	-92.6	5.5
2025-01-03 08:46:52.644739	159.3	18.2	-92.4	6.3
2025-01-03 08:46:53.801187	159.4	18.1	-92.6	9.3
2025-01-03 08:46:54.943203	159.5	18.0	-93.0	6.7
2025-01-03 08:46:56.088418	159.7	17.8	-92.2	7.1
2025-01-03 08:46:57.240396	159.8	17.7	-92.3	7.9
2025-01-03 08:46:58.391836	159.9	17.6	-91.2	5.5
2025-01-03 08:46:59.540040	160.1	17.5	-92.9	5.6
2025-01-03 08:47:00.682630	160.2	17.4	-92.4	7.1
2025-01-03 08:47:01.826077	160.3	17.3	-92.7	8.7
2025-01-03 08:47:02.973131	160.4	17.1	-92.2	8.2
2025-01-03 08:47:04.132388	160.6	17.0	-92.0	7.1
2025-01-03 08:47:05.281701	160.7	16.9	-92.3	7.6
2025-01-03 08:47:06.432491	160.8	16.8	-92.7	5.8
2025-01-03 08:47:07.584916	160.9	16.7	-92.5	5.7
2025-01-03 08:47:08.730998	161.1	16.6	-92.6	5.2
2025-01-03 08:47:09.877366	161.2	16.5	-92.3	9.5
2025-01-03 08:47:11.033603	161.3	16.3	-92.5	8.2
2025-01-03 08:47:12.188567	161.4	16.2	-92.2	8.0
2025-01-03 08:47:13.336873	161.5	16.1	-92.2	6.3
2025-01-03 08:47:14.482092	161.7	16.0	-92.3	5.8
2025-01-03 08:47:15.632137	161.8	15.9	-92.3	7.0
2025-01-03 08:47:16.780440	161.9	15.8	-92.6	7.0
2025-01-03 08:47:17.927499	162.0	15.7	-92.3	7.2
2025-01-03 08:47:19.075972	162.1	15.6	-92.2	8.2
2025-01-03 08:47:20.223772	162.2	15.5	-92.3	7.6
2025-01-03 08:47:21.371684	162.3	15.3	-92.4	8.9
2025-01-03 08:47:22.517540	162.5	15.2	-92.3	9.4
2025-01-03 08:47:23.669914	162.6	15.1	-92.7	8.3
2025-01-03 08:47:24.821907	162.7	15.0	-92.8	9.2
2025-01-03 08:47:25.979844	162.8	14.9	-93.0	7.6
2025-01-03 08:47:27.127564	162.9	14.8	-92.0	8.8
2025-01-03 08:47:28.275406	163.0	14.7	-92.3	8.4
2025-01-03 08:47:29.428654	163.1	14.6	-92.6	8.3
2025-01-03 08:47:30.567281	163.2	14.5	-92.2	7.1
#Closed at: 2025-01-03 08:38:59.939601