passes_logs/2025/01/03/LEX_Murmansk/LEX_Murmansk__20250103_202022_NOAA_18_rec.log

#Pass ID: 20250103_202022_NOAA 18
#Satellite: NOAA 18
#Configuration: NOAA 18
#Start time: 2025-01-03 20:20:17.163583

#LorettStation: 1.0.0 05.05.2024
#Station: LEX_Murmansk
#Location: 33.156738 lon 68.926811 lat
#TLE: 1 28654U 05018A   25002.84587038  .00000654  00000+0  37076-3 0  9991
#TLE: 2 28654  98.8584  84.0197 0013777 213.7552 146.2745 14.13474254 11464

#Time	Az	El	Level	SNR
2025-01-03 20:20:29.282632	199.7	16.1	-90.1	5.9
2025-01-03 20:20:30.446417	199.9	16.3	-90.4	3.3
2025-01-03 20:20:31.605422	200.0	16.4	-90.2	4.7
2025-01-03 20:20:32.772810	200.1	16.5	-90.5	4.7
2025-01-03 20:20:33.932049	200.2	16.6	-90.4	4.2
2025-01-03 20:20:35.092442	200.4	16.7	-90.3	5.9
2025-01-03 20:20:36.260939	200.5	16.8	-90.3	3.7
2025-01-03 20:20:37.419355	200.6	16.9	-90.6	5.6
2025-01-03 20:20:38.580965	200.7	17.1	-90.5	3.7
2025-01-03 20:20:39.742929	200.9	17.2	-90.0	6.7
2025-01-03 20:20:40.904818	201.0	17.3	-89.8	8.2
2025-01-03 20:20:42.069054	201.1	17.4	-90.1	8.1
2025-01-03 20:20:43.234074	201.3	17.5	-90.1	6.3
2025-01-03 20:20:44.390692	201.4	17.6	-89.8	6.7
2025-01-03 20:20:45.559744	201.5	17.7	-90.4	5.3
2025-01-03 20:20:46.725034	201.7	17.9	-90.3	6.8
2025-01-03 20:20:47.888279	201.8	18.0	-90.7	5.0
2025-01-03 20:20:49.053298	201.9	18.1	-90.5	6.7
2025-01-03 20:20:50.219299	202.1	18.2	-90.3	6.3
2025-01-03 20:20:51.380399	202.2	18.3	-90.2	6.4
2025-01-03 20:20:52.545621	202.3	18.5	-90.5	5.4
2025-01-03 20:20:53.706864	202.5	18.6	-90.2	7.5
2025-01-03 20:20:54.869179	202.6	18.7	-90.2	6.7
2025-01-03 20:20:56.035116	202.8	18.8	-90.1	6.5
2025-01-03 20:20:57.210887	202.9	18.9	-90.4	6.7
2025-01-03 20:20:58.370176	203.1	19.1	-90.3	6.9
2025-01-03 20:20:59.532873	203.2	19.2	-90.3	5.9
2025-01-03 20:21:00.680247	203.3	19.3	-90.6	9.0
2025-01-03 20:21:01.841136	203.5	19.4	-90.6	8.6
2025-01-03 20:21:03.004503	203.6	19.6	-90.4	7.5
2025-01-03 20:21:04.166485	203.8	19.7	-90.1	6.2
2025-01-03 20:21:05.335360	203.9	19.8	-89.5	9.3
2025-01-03 20:21:06.499199	204.1	19.9	-90.2	5.8
2025-01-03 20:21:07.658561	204.2	20.1	-90.5	7.8
2025-01-03 20:21:08.832195	204.4	20.2	-90.4	11.3
2025-01-03 20:21:09.993283	204.6	20.3	-90.3	9.9
2025-01-03 20:21:11.149050	204.7	20.4	-90.0	12.8
2025-01-03 20:21:12.311944	204.9	20.6	-89.9	12.1
2025-01-03 20:21:13.470565	205.0	20.7	-89.9	10.7
2025-01-03 20:21:14.638502	205.2	20.8	-89.9	9.3
2025-01-03 20:21:15.803656	205.4	20.9	-89.9	9.8
2025-01-03 20:21:16.968099	205.5	21.1	-89.9	9.1
2025-01-03 20:21:18.133535	205.7	21.2	-89.8	9.5
2025-01-03 20:21:19.300492	205.9	21.3	-90.0	11.0
2025-01-03 20:21:20.463302	206.0	21.5	-90.2	8.1
2025-01-03 20:21:21.617370	206.2	21.6	-90.2	6.9
2025-01-03 20:21:22.780968	206.4	21.7	-90.0	7.4
2025-01-03 20:21:23.941557	206.5	21.8	-90.3	5.7
2025-01-03 20:21:25.110729	206.7	22.0	-90.0	3.8
2025-01-03 20:21:26.266446	206.9	22.1	-89.9	12.4
2025-01-03 20:21:27.428144	207.1	22.2	-90.1	10.0
2025-01-03 20:21:28.588503	207.2	22.4	-90.2	10.5
2025-01-03 20:21:29.752821	207.4	22.5	-90.1	12.4
2025-01-03 20:21:30.911601	207.6	22.6	-90.1	12.3
2025-01-03 20:21:32.079321	207.8	22.8	-89.8	11.9
2025-01-03 20:21:33.239181	208.0	22.9	-89.7	13.3
2025-01-03 20:21:34.404067	208.1	23.0	-90.3	12.1
2025-01-03 20:21:35.564466	208.3	23.2	-90.2	11.1
2025-01-03 20:21:36.719229	208.5	23.3	-90.4	13.7
2025-01-03 20:21:37.877820	208.7	23.4	-90.0	11.9
2025-01-03 20:21:39.037977	208.9	23.6	-90.1	10.6
2025-01-03 20:21:40.201803	209.1	23.7	-90.2	9.9
2025-01-03 20:21:41.366014	209.3	23.9	-90.2	11.7
2025-01-03 20:21:42.530142	209.5	24.0	-90.5	6.7
2025-01-03 20:21:43.693552	209.7	24.1	-90.3	9.1
2025-01-03 20:21:44.855452	209.9	24.3	-90.1	8.4
2025-01-03 20:21:46.018764	210.1	24.4	-90.0	6.1
2025-01-03 20:21:47.184141	210.3	24.5	-90.0	9.9
2025-01-03 20:21:48.343871	210.5	24.7	-89.8	8.7
2025-01-03 20:21:49.509823	210.7	24.8	-89.3	10.6
2025-01-03 20:21:50.669842	210.9	25.0	-90.1	10.4
2025-01-03 20:21:51.825671	211.1	25.1	-90.3	11.6
2025-01-03 20:21:52.990524	211.3	25.2	-90.6	9.6
2025-01-03 20:21:54.157005	211.5	25.4	-90.6	10.1
2025-01-03 20:21:55.317915	211.7	25.5	-90.4	10.9
2025-01-03 20:21:56.487044	212.0	25.7	-90.3	10.9
2025-01-03 20:21:57.653324	212.2	25.8	-90.6	11.7
2025-01-03 20:21:58.815625	212.4	25.9	-90.7	10.7
2025-01-03 20:21:59.979563	212.6	26.1	-90.3	8.3
2025-01-03 20:22:01.130470	212.9	26.2	-89.9	4.7
2025-01-03 20:22:02.291048	213.1	26.4	-90.2	10.8
2025-01-03 20:22:03.455287	213.3	26.5	-89.0	5.7
2025-01-03 20:22:04.613293	213.5	26.7	-90.0	4.6
2025-01-03 20:22:05.767019	213.8	26.8	-89.7	7.8
2025-01-03 20:22:06.897525	214.0	26.9	-90.2	9.3
2025-01-03 20:22:08.019885	214.2	27.1	-90.2	8.2
2025-01-03 20:22:09.141443	214.5	27.2	-90.0	9.8
2025-01-03 20:22:10.262158	214.7	27.4	-90.2	6.9
2025-01-03 20:22:11.382488	214.9	27.5	-90.2	10.1
2025-01-03 20:22:12.504401	215.2	27.6	-90.4	7.1
2025-01-03 20:22:13.624261	215.4	27.8	-90.5	7.1
2025-01-03 20:22:14.752171	215.6	27.9	-90.5	6.9
2025-01-03 20:22:15.899056	215.9	28.1	-90.4	6.8
2025-01-03 20:22:17.060200	216.1	28.2	-90.7	8.2
2025-01-03 20:22:18.217457	216.4	28.3	-90.6	7.9
2025-01-03 20:22:19.379613	216.6	28.5	-90.5	9.8
2025-01-03 20:22:20.531232	216.9	28.6	-90.7	9.6
2025-01-03 20:22:21.681911	217.2	28.8	-90.5	7.2
2025-01-03 20:22:22.841509	217.4	28.9	-90.7	8.7
2025-01-03 20:22:24.004692	217.7	29.1	-90.6	4.2
2025-01-03 20:22:25.164246	218.0	29.2	-90.5	6.1
2025-01-03 20:22:26.331567	218.2	29.4	-90.7	6.2
2025-01-03 20:22:27.486747	218.5	29.5	-90.6	5.6
2025-01-03 20:22:28.650956	218.8	29.7	-90.6	7.4
2025-01-03 20:22:29.812304	219.1	29.8	-90.8	9.3
2025-01-03 20:22:30.977109	219.3	30.0	-90.8	11.6
2025-01-03 20:22:32.136677	219.6	30.1	-90.6	11.1
2025-01-03 20:22:33.297166	219.9	30.2	-90.5	10.3
2025-01-03 20:22:34.459416	220.2	30.4	-90.5	6.8
2025-01-03 20:22:35.623221	220.5	30.5	-90.8	7.0
2025-01-03 20:22:36.783831	220.8	30.7	-90.7	10.9
2025-01-03 20:22:37.947437	221.1	30.8	-90.6	11.4
2025-01-03 20:22:39.113569	221.4	31.0	-90.4	14.3
2025-01-03 20:22:40.278131	221.7	31.1	-90.2	12.2
2025-01-03 20:22:41.438895	222.0	31.3	-90.6	12.3
2025-01-03 20:22:42.595872	222.3	31.4	-90.7	12.6
2025-01-03 20:22:43.760414	222.6	31.6	-90.5	13.2
2025-01-03 20:22:44.914415	222.9	31.7	-90.1	11.3
2025-01-03 20:22:46.073237	223.2	31.8	-90.4	8.1
2025-01-03 20:22:47.231971	223.5	32.0	-90.5	14.8
2025-01-03 20:22:48.386515	223.9	32.1	-90.8	15.2
2025-01-03 20:22:49.535773	224.2	32.3	-90.8	9.2
2025-01-03 20:22:50.661573	224.5	32.4	-90.6	12.4
2025-01-03 20:22:51.782735	224.8	32.6	-90.6	17.7
2025-01-03 20:22:52.905414	225.1	32.7	-90.4	17.2
2025-01-03 20:22:54.026257	225.5	32.8	-90.8	18.4
2025-01-03 20:22:55.146664	225.8	33.0	-90.5	17.8
2025-01-03 20:22:56.267400	226.1	33.1	-90.6	18.2
2025-01-03 20:22:57.388662	226.4	33.2	-91.0	18.7
2025-01-03 20:22:58.521819	226.8	33.4	-90.2	14.3
2025-01-03 20:22:59.684014	227.1	33.5	-90.5	16.9
2025-01-03 20:23:00.836083	227.5	33.7	-90.7	20.1
2025-01-03 20:23:01.990996	227.8	33.8	-90.7	14.3
2025-01-03 20:23:03.139742	228.2	33.9	-90.6	18.3
2025-01-03 20:23:04.304212	228.5	34.1	-90.7	19.8
2025-01-03 20:23:05.467291	228.9	34.2	-90.7	20.3
2025-01-03 20:23:06.631510	229.3	34.3	-90.8	19.2
2025-01-03 20:23:07.797702	229.6	34.5	-90.9	19.4
2025-01-03 20:23:08.963613	230.0	34.6	-90.5	14.6
2025-01-03 20:23:10.122268	230.4	34.8	-90.4	12.1
2025-01-03 20:23:11.286013	230.8	34.9	-90.6	16.5
2025-01-03 20:23:12.448834	231.2	35.0	-91.0	10.2
2025-01-03 20:23:13.613732	231.5	35.2	-90.8	8.8
2025-01-03 20:23:14.775744	231.9	35.3	-91.0	16.5
2025-01-03 20:23:15.939011	232.3	35.4	-90.7	11.4
2025-01-03 20:23:17.095457	232.7	35.5	-90.5	9.7
2025-01-03 20:23:18.254484	233.1	35.7	-90.4	16.0
2025-01-03 20:23:19.418975	233.5	35.8	-90.7	14.2
2025-01-03 20:23:20.579145	233.9	35.9	-90.7	14.9
2025-01-03 20:23:21.737565	234.3	36.1	-90.6	16.1
2025-01-03 20:23:22.865106	234.7	36.2	-90.5	13.4
2025-01-03 20:23:23.986098	235.1	36.3	-90.7	10.7
2025-01-03 20:23:25.136055	235.5	36.4	-90.3	11.6
2025-01-03 20:23:26.292586	235.9	36.5	-91.0	16.7
2025-01-03 20:23:27.453896	236.4	36.7	-91.0	12.3
2025-01-03 20:23:28.620697	236.8	36.8	-90.7	11.5
2025-01-03 20:23:29.784105	237.2	36.9	-90.8	17.4
2025-01-03 20:23:30.949302	237.6	37.0	-90.8	14.8
2025-01-03 20:23:32.113611	238.1	37.1	-90.9	15.1
2025-01-03 20:23:33.270896	238.5	37.2	-90.6	16.6
2025-01-03 20:23:34.436306	239.0	37.3	-90.9	16.3
2025-01-03 20:23:35.601046	239.4	37.5	-91.1	15.3
2025-01-03 20:23:36.766274	239.8	37.6	-90.6	12.8
2025-01-03 20:23:37.926721	240.3	37.7	-90.9	13.6
2025-01-03 20:23:39.095123	240.7	37.8	-90.5	11.8
2025-01-03 20:23:40.259986	241.2	37.9	-90.8	14.3
2025-01-03 20:23:41.412735	241.6	38.0	-90.8	11.8
2025-01-03 20:23:42.581500	242.1	38.1	-90.8	6.5
2025-01-03 20:23:43.742620	242.6	38.2	-91.0	11.4
2025-01-03 20:23:44.909752	243.0	38.3	-91.1	10.4
2025-01-03 20:23:46.070778	243.5	38.4	-91.0	5.9
2025-01-03 20:23:47.234069	244.0	38.5	-90.8	8.2
2025-01-03 20:23:48.396120	244.4	38.6	-90.4	13.8
2025-01-03 20:23:49.560841	244.9	38.6	-90.8	9.5
2025-01-03 20:23:50.728104	245.4	38.7	-91.0	15.9
2025-01-03 20:23:51.890937	245.9	38.8	-91.0	14.5
2025-01-03 20:23:53.057229	246.4	38.9	-90.9	16.2
2025-01-03 20:23:54.208306	246.8	39.0	-90.6	16.7
2025-01-03 20:23:55.372868	247.3	39.1	-91.1	16.5
2025-01-03 20:23:56.507292	247.8	39.1	-90.7	18.2
2025-01-03 20:23:57.630016	248.3	39.2	-90.8	15.4
2025-01-03 20:23:58.751067	248.8	39.3	-91.0	16.5
2025-01-03 20:23:59.871686	249.2	39.3	-91.1	17.4
2025-01-03 20:24:00.992726	249.7	39.4	-90.6	11.6
2025-01-03 20:24:02.117517	250.2	39.5	-90.4	10.5
2025-01-03 20:24:03.238711	250.7	39.5	-90.8	17.0
2025-01-03 20:24:04.359825	251.2	39.6	-90.6	16.9
2025-01-03 20:24:05.518353	251.7	39.7	-91.1	11.2
2025-01-03 20:24:06.677600	252.2	39.7	-90.6	16.6
2025-01-03 20:24:07.841824	252.7	39.8	-90.9	15.5
2025-01-03 20:24:08.999764	253.2	39.8	-90.9	9.6
2025-01-03 20:24:10.155459	253.7	39.9	-90.8	14.1
2025-01-03 20:24:11.317429	254.2	39.9	-90.7	17.9
2025-01-03 20:24:12.481620	254.7	40.0	-90.8	15.3
2025-01-03 20:24:13.641117	255.3	40.0	-90.9	14.5
2025-01-03 20:24:14.812818	255.8	40.0	-91.2	18.9
2025-01-03 20:24:15.978205	256.3	40.1	-90.7	13.1
2025-01-03 20:24:17.136106	256.8	40.1	-91.0	18.0
2025-01-03 20:24:18.304455	257.3	40.1	-90.6	11.5
2025-01-03 20:24:19.470308	257.9	40.2	-90.5	17.6
2025-01-03 20:24:20.635938	258.4	40.2	-90.9	6.9
2025-01-03 20:24:21.793619	258.9	40.2	-90.8	19.1
2025-01-03 20:24:22.957920	259.4	40.3	-91.0	12.2
2025-01-03 20:24:24.119096	260.0	40.3	-91.0	9.3
2025-01-03 20:24:25.285401	260.5	40.3	-91.0	13.2
2025-01-03 20:24:26.452259	261.0	40.3	-91.1	6.1
2025-01-03 20:24:27.613219	261.5	40.3	-91.1	8.2
2025-01-03 20:24:28.777509	262.1	40.3	-91.0	14.1
2025-01-03 20:24:29.939217	262.6	40.3	-91.1	6.9
2025-01-03 20:24:31.100358	263.1	40.3	-90.9	9.5
2025-01-03 20:24:32.259959	263.7	40.3	-90.8	8.8
2025-01-03 20:24:33.423541	264.2	40.3	-91.1	11.9
2025-01-03 20:24:34.582259	264.7	40.3	-90.0	5.2
2025-01-03 20:24:35.740145	265.2	40.3	-90.5	9.6
2025-01-03 20:24:36.904540	265.8	40.3	-90.5	14.3
2025-01-03 20:24:38.068568	266.3	40.3	-90.6	8.7
2025-01-03 20:24:39.227208	266.8	40.3	-89.7	9.7
2025-01-03 20:24:40.390542	267.3	40.3	-91.0	18.7
2025-01-03 20:24:41.549152	267.9	40.2	-91.0	8.7
2025-01-03 20:24:42.703250	268.4	40.2	-91.0	13.8
2025-01-03 20:24:43.862741	268.9	40.2	-90.9	14.0
2025-01-03 20:24:45.021822	269.4	40.2	-91.0	11.6
2025-01-03 20:24:46.187129	269.9	40.1	-90.8	15.8
2025-01-03 20:24:47.350484	270.5	40.1	-90.3	21.0
2025-01-03 20:24:48.519000	271.0	40.1	-90.4	14.0
2025-01-03 20:24:49.683258	271.5	40.0	-90.4	19.4
2025-01-03 20:24:50.843539	272.0	40.0	-90.4	19.1
2025-01-03 20:24:52.001220	272.5	39.9	-90.7	17.4
2025-01-03 20:24:53.170685	273.0	39.9	-90.5	17.3
2025-01-03 20:24:54.337169	273.6	39.8	-90.5	18.2
2025-01-03 20:24:55.499199	274.1	39.8	-90.8	15.8
2025-01-03 20:24:56.679435	274.6	39.7	-90.5	16.4
2025-01-03 20:24:57.838525	275.1	39.7	-90.7	15.1
2025-01-03 20:24:59.000528	275.6	39.6	-90.1	20.0
2025-01-03 20:25:00.157841	276.1	39.6	-90.1	18.5
2025-01-03 20:25:01.316373	276.6	39.5	-90.3	19.1
2025-01-03 20:25:02.475131	277.1	39.4	-90.4	20.0
2025-01-03 20:25:03.638304	277.6	39.4	-89.3	19.8
2025-01-03 20:25:04.801500	278.1	39.3	-89.8	15.8
2025-01-03 20:25:05.959098	278.6	39.2	-90.4	16.4
2025-01-03 20:25:07.123900	279.1	39.1	-90.3	17.9
2025-01-03 20:25:08.281996	279.6	39.1	-90.3	17.7
2025-01-03 20:25:09.445811	280.1	39.0	-90.3	19.2
2025-01-03 20:25:10.618786	280.5	38.9	-90.5	20.0
2025-01-03 20:25:11.777670	281.0	38.8	-90.2	15.9
2025-01-03 20:25:12.935854	281.5	38.7	-90.6	20.2
2025-01-03 20:25:14.103099	282.0	38.7	-89.9	11.1
2025-01-03 20:25:15.264509	282.5	38.6	-90.1	16.8
2025-01-03 20:25:16.429149	282.9	38.5	-90.5	16.8
2025-01-03 20:25:17.594039	283.4	38.4	-90.6	16.4
2025-01-03 20:25:18.762996	283.9	38.3	-90.7	19.2
2025-01-03 20:25:19.925230	284.3	38.2	-90.6	18.3
2025-01-03 20:25:21.089155	284.8	38.1	-88.8	14.8
2025-01-03 20:25:22.251239	285.3	38.0	-90.3	7.6
2025-01-03 20:25:23.409735	285.7	37.9	-90.7	13.8
2025-01-03 20:25:24.574004	286.2	37.8	-89.1	16.2
2025-01-03 20:25:25.735697	286.6	37.7	-90.5	19.6
2025-01-03 20:25:26.900150	287.1	37.6	-89.9	20.1
2025-01-03 20:25:28.054806	287.5	37.5	-89.9	13.7
2025-01-03 20:25:29.215431	288.0	37.4	-90.3	9.2
2025-01-03 20:25:30.375951	288.4	37.2	-90.1	17.2
2025-01-03 20:25:31.547474	288.8	37.1	-89.8	15.8
2025-01-03 20:25:32.705498	289.3	37.0	-90.2	15.3
2025-01-03 20:25:33.874367	289.7	36.9	-89.8	15.4
2025-01-03 20:25:35.033846	290.1	36.8	-90.1	15.1
2025-01-03 20:25:36.190967	290.5	36.7	-90.2	13.2
2025-01-03 20:25:37.349643	291.0	36.5	-90.1	16.6
2025-01-03 20:25:38.511580	291.4	36.4	-90.2	19.2
2025-01-03 20:25:39.675329	291.8	36.3	-90.4	15.8
2025-01-03 20:25:40.828040	292.2	36.2	-90.2	16.4
2025-01-03 20:25:41.976700	292.6	36.1	-88.1	13.5
2025-01-03 20:25:43.107463	293.0	35.9	-88.5	10.4
2025-01-03 20:25:44.228570	293.4	35.8	-90.0	15.6
2025-01-03 20:25:45.348896	293.8	35.7	-90.0	11.0
2025-01-03 20:25:46.469450	294.2	35.6	-89.8	7.7
2025-01-03 20:25:47.589869	294.5	35.4	-90.3	8.6
2025-01-03 20:25:48.709952	294.9	35.3	-90.2	12.1
2025-01-03 20:25:49.834385	295.3	35.2	-90.3	10.7
2025-01-03 20:25:50.958595	295.7	35.1	-90.4	10.3
2025-01-03 20:25:52.107822	296.0	34.9	-90.2	8.4
2025-01-03 20:25:53.265905	296.4	34.8	-89.9	10.0
2025-01-03 20:25:54.429164	296.8	34.7	-90.2	8.5
2025-01-03 20:25:55.575977	297.2	34.5	-90.1	7.7
2025-01-03 20:25:56.733925	297.5	34.4	-89.9	10.0
2025-01-03 20:25:57.901969	297.9	34.3	-90.3	10.2
2025-01-03 20:25:59.068730	298.3	34.1	-90.1	8.0
2025-01-03 20:26:00.219190	298.6	34.0	-90.0	10.3
2025-01-03 20:26:01.391507	299.0	33.8	-90.1	7.6
2025-01-03 20:26:02.548630	299.3	33.7	-90.3	5.8
2025-01-03 20:26:03.710732	299.7	33.6	-90.3	6.1
2025-01-03 20:26:04.874937	300.0	33.4	-90.0	11.4
2025-01-03 20:26:06.040216	300.4	33.3	-88.7	6.8
2025-01-03 20:26:07.199813	300.7	33.1	-89.7	10.7
2025-01-03 20:26:08.355132	301.1	33.0	-89.7	11.1
2025-01-03 20:26:09.518994	301.4	32.9	-90.3	6.5
2025-01-03 20:26:10.679342	301.7	32.7	-90.1	12.2
2025-01-03 20:26:11.842920	302.1	32.6	-90.3	11.8
2025-01-03 20:26:13.013902	302.4	32.4	-90.3	9.9
2025-01-03 20:26:14.178174	302.7	32.3	-90.1	10.9
2025-01-03 20:26:15.338660	303.1	32.1	-90.1	12.1
2025-01-03 20:26:16.501837	303.4	32.0	-90.3	8.7
2025-01-03 20:26:17.654761	303.7	31.9	-90.3	9.3
2025-01-03 20:26:18.819269	304.0	31.7	-90.2	9.8
2025-01-03 20:26:19.978170	304.3	31.6	-89.8	17.6
2025-01-03 20:26:21.141063	304.6	31.4	-89.7	10.7
2025-01-03 20:26:22.299034	304.9	31.3	-89.6	14.6
2025-01-03 20:26:23.449171	305.2	31.1	-90.4	9.0
2025-01-03 20:26:24.599390	305.5	31.0	-90.1	11.8
2025-01-03 20:26:25.728877	305.8	30.9	-90.3	15.3
2025-01-03 20:26:26.880394	306.1	30.7	-90.2	10.8
2025-01-03 20:26:28.029671	306.4	30.6	-90.0	7.5
2025-01-03 20:26:29.185554	306.7	30.4	-89.9	9.3
2025-01-03 20:26:30.337898	307.0	30.3	-89.8	5.7
2025-01-03 20:26:31.495669	307.3	30.1	-89.8	7.6
2025-01-03 20:26:32.646039	307.6	30.0	-89.9	9.3
2025-01-03 20:26:33.803736	307.8	29.8	-89.9	13.2
2025-01-03 20:26:34.966648	308.1	29.7	-89.8	10.9
2025-01-03 20:26:36.127602	308.4	29.5	-89.4	9.1
2025-01-03 20:26:37.289483	308.7	29.4	-89.2	13.7
2025-01-03 20:26:38.447520	308.9	29.3	-89.7	8.3
2025-01-03 20:26:39.612145	309.2	29.1	-89.8	7.6
2025-01-03 20:26:40.769264	309.5	29.0	-90.3	16.1
2025-01-03 20:26:41.938752	309.7	28.8	-90.1	15.2
2025-01-03 20:26:43.101303	310.0	28.7	-90.1	14.4
2025-01-03 20:26:44.263374	310.3	28.5	-89.8	15.0
2025-01-03 20:26:45.428011	310.5	28.4	-90.1	12.9
2025-01-03 20:26:46.601352	310.8	28.2	-90.6	15.8
2025-01-03 20:26:47.757251	311.0	28.1	-90.4	14.6
2025-01-03 20:26:48.931513	311.3	27.9	-89.7	10.5
2025-01-03 20:26:50.091668	311.5	27.8	-90.1	18.2
2025-01-03 20:26:51.251774	311.8	27.7	-89.6	10.4
2025-01-03 20:26:52.406064	312.0	27.5	-90.3	13.2
2025-01-03 20:26:53.570759	312.3	27.4	-90.4	7.7
2025-01-03 20:26:54.734571	312.5	27.2	-90.4	11.5
2025-01-03 20:26:55.895601	312.7	27.1	-90.2	17.6
2025-01-03 20:26:57.063049	313.0	26.9	-90.1	7.5
2025-01-03 20:26:58.220186	313.2	26.8	-89.9	11.6
2025-01-03 20:26:59.388172	313.4	26.7	-90.4	13.1
2025-01-03 20:27:00.538921	313.7	26.5	-90.8	9.2
2025-01-03 20:27:01.693331	313.9	26.4	-90.5	8.8
2025-01-03 20:27:02.848606	314.1	26.2	-90.0	9.6
2025-01-03 20:27:04.009540	314.3	26.1	-89.4	6.6
2025-01-03 20:27:05.174483	314.6	25.9	-90.4	12.3
2025-01-03 20:27:06.339082	314.8	25.8	-90.6	7.7
2025-01-03 20:27:07.502731	315.0	25.7	-90.5	12.1
2025-01-03 20:27:08.668113	315.2	25.5	-90.4	11.5
2025-01-03 20:27:09.832403	315.4	25.4	-90.6	9.1
2025-01-03 20:27:10.986694	315.6	25.2	-90.6	9.8
2025-01-03 20:27:12.147660	315.9	25.1	-90.4	7.0
2025-01-03 20:27:13.299567	316.1	25.0	-90.2	12.9
2025-01-03 20:27:14.453685	316.3	24.8	-90.6	6.2
2025-01-03 20:27:15.611759	316.5	24.7	-90.7	7.3
2025-01-03 20:27:16.747954	316.7	24.6	-90.4	11.9
2025-01-03 20:27:17.868623	316.9	24.4	-90.4	13.1
2025-01-03 20:27:18.991380	317.1	24.3	-90.7	6.6
2025-01-03 20:27:20.112864	317.3	24.2	-90.2	6.0
2025-01-03 20:27:21.234330	317.5	24.0	-89.2	8.2
2025-01-03 20:27:22.355040	317.6	23.9	-90.3	7.5
2025-01-03 20:27:23.475737	317.8	23.8	-90.3	7.6
2025-01-03 20:27:24.600498	318.0	23.6	-90.5	6.4
2025-01-03 20:27:25.731202	318.2	23.5	-90.4	11.3
2025-01-03 20:27:26.892173	318.4	23.4	-90.3	7.6
2025-01-03 20:27:28.054381	318.6	23.2	-90.5	10.6
2025-01-03 20:27:29.215843	318.8	23.1	-90.4	6.8
2025-01-03 20:27:30.370540	318.9	23.0	-90.5	4.8
2025-01-03 20:27:31.535857	319.1	22.8	-90.6	5.8
2025-01-03 20:27:32.692427	319.3	22.7	-89.9	5.1
2025-01-03 20:27:33.852448	319.5	22.6	-89.2	7.6
2025-01-03 20:27:35.018668	319.7	22.4	-90.7	6.5
2025-01-03 20:27:36.184215	319.9	22.3	-90.5	5.1
2025-01-03 20:27:37.347590	320.0	22.2	-90.6	7.2
2025-01-03 20:27:38.510345	320.2	22.0	-90.3	6.7
2025-01-03 20:27:39.668363	320.4	21.9	-90.4	5.8
2025-01-03 20:27:40.825299	320.5	21.8	-90.8	8.7
2025-01-03 20:27:41.989685	320.7	21.6	-90.6	5.8
2025-01-03 20:27:43.148621	320.9	21.5	-90.7	6.6
2025-01-03 20:27:44.308768	321.1	21.4	-90.6	7.1
2025-01-03 20:27:45.477456	321.2	21.3	-91.1	4.5
2025-01-03 20:27:46.639212	321.4	21.1	-90.5	7.7
2025-01-03 20:27:47.807018	321.6	21.0	-90.9	8.0
2025-01-03 20:27:48.964707	321.7	20.9	-91.1	11.0
2025-01-03 20:27:50.131343	321.9	20.7	-90.5	4.2
2025-01-03 20:27:51.300217	322.0	20.6	-89.9	6.7
2025-01-03 20:27:52.458092	322.2	20.5	-90.0	6.5
2025-01-03 20:27:53.627133	322.4	20.4	-90.2	5.4
2025-01-03 20:27:54.791020	322.5	20.2	-90.7	7.7
2025-01-03 20:27:55.951767	322.7	20.1	-91.2	5.9
2025-01-03 20:27:57.119459	322.8	20.0	-91.0	1.9
2025-01-03 20:27:58.283748	323.0	19.9	-91.0	6.4
2025-01-03 20:27:59.449533	323.1	19.7	-91.3	3.8
2025-01-03 20:28:00.592469	323.3	19.6	-91.3	5.7
2025-01-03 20:28:01.755343	323.4	19.5	-91.2	4.2
2025-01-03 20:28:02.912364	323.6	19.4	-91.3	9.4
2025-01-03 20:28:04.073849	323.7	19.2	-90.8	6.2
2025-01-03 20:28:05.233469	323.9	19.1	-91.0	6.3
2025-01-03 20:28:06.401532	324.0	19.0	-91.1	8.3
2025-01-03 20:28:07.566797	324.2	18.9	-90.8	6.0
2025-01-03 20:28:08.732320	324.3	18.8	-90.8	7.5
2025-01-03 20:28:09.895102	324.4	18.6	-90.9	5.0
2025-01-03 20:28:11.044428	324.6	18.5	-90.7	4.3
2025-01-03 20:28:12.205762	324.7	18.4	-90.3	4.2
2025-01-03 20:28:13.338558	324.9	18.3	-90.8	4.6
2025-01-03 20:28:14.459161	325.0	18.2	-91.0	7.6
2025-01-03 20:28:15.582028	325.1	18.1	-91.3	4.9
2025-01-03 20:28:16.702194	325.2	17.9	-91.0	6.2
2025-01-03 20:28:17.822670	325.4	17.8	-90.9	7.1
2025-01-03 20:28:18.944478	325.5	17.7	-90.9	4.4
2025-01-03 20:28:20.069409	325.6	17.6	-91.1	7.9
2025-01-03 20:28:21.189644	325.8	17.5	-91.1	4.2
2025-01-03 20:28:22.352505	325.9	17.4	-91.3	4.9
2025-01-03 20:28:23.502418	326.0	17.3	-91.2	4.2
2025-01-03 20:28:24.666495	326.1	17.2	-91.2	3.6
2025-01-03 20:28:25.812268	326.3	17.0	-91.0	5.0
2025-01-03 20:28:26.976790	326.4	16.9	-91.1	6.8
2025-01-03 20:28:28.138129	326.5	16.8	-90.1	3.4
2025-01-03 20:28:29.301364	326.7	16.7	-90.8	5.7
2025-01-03 20:28:30.462611	326.8	16.6	-90.5	3.7
2025-01-03 20:28:31.620341	326.9	16.5	-91.3	6.0
2025-01-03 20:28:32.778220	327.0	16.4	-90.8	6.5
2025-01-03 20:28:33.942947	327.1	16.2	-91.2	3.9
2025-01-03 20:28:35.102470	327.3	16.1	-90.7	5.3
2025-01-03 20:28:36.260240	327.4	16.0	-90.7	8.2
2025-01-03 20:28:37.410838	327.5	15.9	-90.7	6.0
2025-01-03 20:28:38.565174	327.6	15.8	-90.7	5.4
2025-01-03 20:28:39.692908	327.7	15.7	-91.0	9.7
2025-01-03 20:28:40.838100	327.9	15.6	-90.9	5.9
2025-01-03 20:28:41.988578	328.0	15.5	-90.6	7.3
2025-01-03 20:28:43.138467	328.1	15.4	-91.1	5.7
2025-01-03 20:28:44.298715	328.2	15.3	-90.8	9.4
2025-01-03 20:28:45.438049	328.3	15.2	-90.5	5.6
2025-01-03 20:28:46.593132	328.4	15.1	-91.1	4.1
2025-01-03 20:28:47.754620	328.5	14.9	-90.8	5.7
2025-01-03 20:28:48.917358	328.6	14.8	-91.1	5.9
2025-01-03 20:28:50.080573	328.8	14.7	-90.8	7.3
2025-01-03 20:28:51.238659	328.9	14.6	-91.0	7.1
2025-01-03 20:28:52.391414	329.0	14.5	-90.9	9.1
#Closed at: 2025-01-03 20:20:22.072019