passes_logs/2025/01/03/LEX_Murmansk/LEX_Murmansk__20250103_081108_NOAA_19_rec.log

#Pass ID: 20250103_081108_NOAA 19
#Satellite: NOAA 19
#Configuration: NOAA 19
#Start time: 2025-01-03 08:11:03.788866

#LorettStation: 1.0.0 05.05.2024
#Station: LEX_Murmansk
#Location: 33.156738 lon 68.926811 lat
#TLE: 1 33591U 09005A   25002.89767470  .00000571  00000+0  32860-3 0  9996
#TLE: 2 33591  99.0216  66.5655 0014695  89.7532 270.5323 14.13248849819837

#Time	Az	El	Level	SNR
2025-01-03 08:11:15.899873	29.0	16.3	-91.8	4.2
2025-01-03 08:11:18.234727	29.2	16.5	-91.6	2.0
2025-01-03 08:11:20.557512	29.3	16.8	-91.6	4.6
2025-01-03 08:11:22.879042	29.4	17.0	-91.9	2.0
2025-01-03 08:11:25.197162	29.6	17.3	-91.1	2.4
2025-01-03 08:11:27.527950	29.7	17.6	-91.9	2.5
2025-01-03 08:11:29.850353	29.8	17.8	-92.0	4.8
2025-01-03 08:11:32.182559	30.0	18.1	-91.4	4.7
2025-01-03 08:11:34.510582	30.1	18.4	-91.6	3.5
2025-01-03 08:11:36.840039	30.3	18.6	-92.0	3.7
2025-01-03 08:11:39.170757	30.4	18.9	-91.4	5.7
2025-01-03 08:11:41.493513	30.6	19.2	-91.9	3.5
2025-01-03 08:11:43.906264	30.7	19.5	-92.1	3.8
2025-01-03 08:11:46.218936	30.9	19.8	-91.4	7.1
2025-01-03 08:11:48.551918	31.1	20.0	-92.1	7.2
2025-01-03 08:11:50.869722	31.2	20.3	-91.2	5.3
2025-01-03 08:11:53.192475	31.4	20.6	-91.0	9.5
2025-01-03 08:11:55.506883	31.6	20.9	-91.2	8.1
2025-01-03 08:11:57.835033	31.7	21.2	-90.8	4.1
2025-01-03 08:12:00.154985	31.9	21.5	-91.5	1.0
2025-01-03 08:12:02.474609	32.1	21.8	-91.8	11.0
2025-01-03 08:12:04.808400	32.3	22.1	-92.1	10.4
2025-01-03 08:12:07.130592	32.5	22.5	-91.6	6.0
2025-01-03 08:12:09.469734	32.6	22.8	-91.8	11.2
2025-01-03 08:12:11.793610	32.8	23.1	-91.6	9.4
2025-01-03 08:12:14.116751	33.0	23.4	-91.7	3.1
2025-01-03 08:12:16.448579	33.2	23.8	-92.2	3.0
2025-01-03 08:12:18.791475	33.4	24.1	-91.6	8.2
2025-01-03 08:12:21.112273	33.6	24.4	-91.5	12.1
2025-01-03 08:12:23.444969	33.9	24.8	-92.2	7.0
2025-01-03 08:12:25.777975	34.1	25.1	-92.1	6.5
2025-01-03 08:12:28.110358	34.3	25.5	-92.0	9.6
2025-01-03 08:12:30.418173	34.5	25.8	-91.4	3.8
2025-01-03 08:12:32.658901	34.7	26.2	-92.1	4.3
2025-01-03 08:12:34.900210	35.0	26.5	-92.0	3.9
2025-01-03 08:12:37.154810	35.2	26.9	-92.2	6.4
2025-01-03 08:12:39.410689	35.4	27.2	-92.1	6.9
2025-01-03 08:12:41.689883	35.7	27.6	-91.7	6.2
2025-01-03 08:12:43.993277	35.9	28.0	-91.8	10.2
2025-01-03 08:12:46.302728	36.2	28.3	-91.6	8.3
2025-01-03 08:12:48.633119	36.5	28.7	-91.8	3.2
2025-01-03 08:12:50.969543	36.8	29.1	-92.0	4.4
2025-01-03 08:12:53.295837	37.0	29.5	-91.8	7.5
2025-01-03 08:12:55.630133	37.3	29.9	-92.2	12.8
2025-01-03 08:12:57.966615	37.6	30.3	-91.1	9.4
2025-01-03 08:13:00.287235	37.9	30.8	-91.6	5.2
2025-01-03 08:13:02.610500	38.2	31.2	-92.2	11.3
2025-01-03 08:13:04.944938	38.6	31.6	-92.1	7.4
2025-01-03 08:13:07.278498	38.9	32.0	-91.9	1.8
2025-01-03 08:13:09.606603	39.2	32.5	-91.4	4.4
2025-01-03 08:13:11.935180	39.6	32.9	-92.2	8.6
2025-01-03 08:13:14.263177	39.9	33.3	-91.8	11.5
2025-01-03 08:13:16.589956	40.3	33.8	-92.2	11.5
2025-01-03 08:13:18.916791	40.7	34.2	-91.6	9.4
2025-01-03 08:13:21.242247	41.0	34.7	-92.0	15.5
2025-01-03 08:13:23.570310	41.4	35.2	-92.1	9.5
2025-01-03 08:13:25.898668	41.9	35.6	-91.8	4.3
2025-01-03 08:13:28.231979	42.3	36.1	-90.6	3.9
2025-01-03 08:13:30.531155	42.7	36.6	-91.8	13.4
2025-01-03 08:13:32.862753	43.1	37.1	-91.8	15.3
2025-01-03 08:13:35.190911	43.6	37.6	-91.5	11.2
2025-01-03 08:13:37.521182	44.1	38.1	-92.1	10.7
2025-01-03 08:13:39.847719	44.5	38.6	-92.1	14.9
2025-01-03 08:13:42.169111	45.0	39.1	-91.7	13.9
2025-01-03 08:13:44.477349	45.6	39.6	-92.0	8.2
2025-01-03 08:13:46.810657	46.1	40.1	-91.8	1.4
2025-01-03 08:13:49.140592	46.6	40.7	-91.6	10.6
2025-01-03 08:13:51.467021	47.2	41.2	-92.3	16.7
2025-01-03 08:13:53.800898	47.8	41.7	-91.8	18.0
2025-01-03 08:13:56.126212	48.4	42.3	-91.6	13.7
2025-01-03 08:13:58.452345	49.0	42.8	-91.9	11.9
2025-01-03 08:14:00.768702	49.6	43.3	-91.7	13.7
2025-01-03 08:14:03.098805	50.3	43.9	-91.2	14.9
2025-01-03 08:14:05.429894	51.0	44.4	-92.3	10.5
2025-01-03 08:14:07.761394	51.7	45.0	-91.9	2.0
2025-01-03 08:14:10.083294	52.5	45.6	-92.1	5.0
2025-01-03 08:14:12.418124	53.2	46.1	-91.3	6.9
2025-01-03 08:14:14.744292	54.0	46.7	-92.1	10.0
2025-01-03 08:14:17.077618	54.8	47.3	-92.0	8.7
2025-01-03 08:14:19.417042	55.7	47.8	-92.6	2.6
2025-01-03 08:14:21.737478	56.6	48.4	-92.3	1.2
2025-01-03 08:14:24.033527	57.5	49.0	-92.3	1.9
2025-01-03 08:14:26.275649	58.4	49.5	-90.7	3.2
2025-01-03 08:14:28.516464	59.3	50.1	-91.7	1.7
2025-01-03 08:14:30.758183	60.3	50.6	-92.7	2.9
2025-01-03 08:14:33.025298	61.3	51.1	-92.0	2.5
2025-01-03 08:14:35.341926	62.4	51.7	-92.2	3.2
2025-01-03 08:14:37.660220	63.6	52.3	-92.0	3.6
2025-01-03 08:14:39.995358	64.7	52.8	-91.9	5.0
2025-01-03 08:14:42.331254	66.0	53.3	-92.0	11.5
2025-01-03 08:14:44.651035	67.2	53.9	-92.4	7.6
2025-01-03 08:14:46.989136	68.5	54.4	-92.1	9.1
2025-01-03 08:14:49.312570	69.9	54.9	-91.7	7.1
2025-01-03 08:14:51.636172	71.3	55.4	-92.3	15.5
2025-01-03 08:14:53.960453	72.8	55.9	-92.4	13.1
2025-01-03 08:14:56.293336	74.3	56.4	-91.8	16.1
2025-01-03 08:14:58.626294	75.9	56.9	-92.1	11.9
2025-01-03 08:15:00.937568	77.5	57.3	-92.2	11.2
2025-01-03 08:15:03.262930	79.1	57.7	-91.8	4.4
2025-01-03 08:15:05.592357	80.9	58.1	-91.8	5.9
2025-01-03 08:15:07.926530	82.6	58.5	-92.0	3.6
2025-01-03 08:15:10.257052	84.5	58.9	-91.7	5.6
2025-01-03 08:15:12.576743	86.3	59.2	-92.3	9.7
2025-01-03 08:15:14.899576	88.2	59.5	-92.5	14.2
2025-01-03 08:15:17.213262	90.2	59.8	-92.1	13.8
2025-01-03 08:15:19.544387	92.2	60.0	-92.5	14.1
2025-01-03 08:15:21.871398	94.2	60.3	-92.4	14.7
2025-01-03 08:15:24.191258	96.3	60.5	-92.1	3.3
2025-01-03 08:15:26.523159	98.4	60.6	-92.6	8.8
2025-01-03 08:15:28.852171	100.5	60.7	-92.7	7.7
2025-01-03 08:15:31.178591	102.7	60.8	-92.3	5.8
2025-01-03 08:15:33.502158	104.8	60.9	-92.6	9.7
2025-01-03 08:15:35.820832	107.0	60.9	-92.2	8.5
2025-01-03 08:15:38.147051	109.1	60.9	-92.1	15.4
2025-01-03 08:15:40.470840	111.3	60.8	-92.2	14.0
2025-01-03 08:15:42.794022	113.4	60.7	-92.3	12.8
2025-01-03 08:15:45.121428	115.5	60.6	-92.4	17.2
2025-01-03 08:15:47.449714	117.6	60.4	-92.5	17.9
2025-01-03 08:15:49.777672	119.7	60.3	-92.1	17.6
2025-01-03 08:15:52.099359	121.7	60.0	-91.9	17.5
2025-01-03 08:15:54.420844	123.7	59.8	-92.6	16.1
2025-01-03 08:15:56.750790	125.7	59.5	-92.5	19.4
2025-01-03 08:15:59.083557	127.6	59.2	-92.3	19.4
2025-01-03 08:16:01.396965	129.5	58.9	-92.3	17.8
2025-01-03 08:16:03.720873	131.3	58.5	-92.6	15.5
2025-01-03 08:16:06.049670	133.0	58.1	-92.5	18.6
2025-01-03 08:16:08.378234	134.8	57.7	-92.0	18.2
2025-01-03 08:16:10.708573	136.4	57.3	-92.1	15.3
2025-01-03 08:16:13.038890	138.1	56.8	-92.2	13.9
2025-01-03 08:16:15.346360	139.6	56.4	-92.2	15.0
2025-01-03 08:16:17.672404	141.1	55.9	-92.3	14.0
2025-01-03 08:16:19.999158	142.6	55.4	-92.2	18.7
2025-01-03 08:16:22.323949	144.0	54.9	-92.1	18.5
2025-01-03 08:16:24.649685	145.4	54.4	-92.7	14.8
2025-01-03 08:16:26.973532	146.7	53.9	-92.5	10.8
2025-01-03 08:16:29.298955	147.9	53.3	-92.4	11.5
2025-01-03 08:16:31.616674	149.2	52.8	-92.5	11.3
2025-01-03 08:16:33.952167	150.3	52.2	-92.5	8.1
2025-01-03 08:16:36.280564	151.5	51.7	-92.4	8.6
2025-01-03 08:16:38.601641	152.6	51.1	-92.7	7.9
2025-01-03 08:16:40.933533	153.6	50.6	-92.1	7.5
2025-01-03 08:16:43.256977	154.6	50.0	-92.5	3.7
2025-01-03 08:16:45.578762	155.6	49.4	-92.6	8.9
2025-01-03 08:16:47.904898	156.6	48.9	-93.0	5.3
2025-01-03 08:16:50.237475	157.5	48.3	-92.8	3.2
2025-01-03 08:16:52.559680	158.3	47.7	-92.6	9.5
2025-01-03 08:16:54.878066	159.2	47.2	-92.8	10.2
2025-01-03 08:16:57.196899	160.0	46.6	-92.5	11.5
2025-01-03 08:16:59.526389	160.8	46.0	-92.8	12.5
2025-01-03 08:17:01.840775	161.5	45.5	-92.3	19.5
2025-01-03 08:17:04.165994	162.3	44.9	-92.3	14.9
2025-01-03 08:17:06.494771	163.0	44.3	-92.6	10.9
2025-01-03 08:17:08.828301	163.7	43.8	-92.3	16.6
2025-01-03 08:17:11.156018	164.3	43.2	-92.2	10.6
2025-01-03 08:17:13.427369	165.0	42.7	-92.5	7.9
2025-01-03 08:17:15.668861	165.6	42.2	-92.7	7.6
2025-01-03 08:17:17.911072	166.1	41.7	-92.6	7.2
2025-01-03 08:17:20.153837	166.7	41.1	-92.2	13.2
2025-01-03 08:17:22.446844	167.3	40.6	-92.4	9.1
2025-01-03 08:17:24.765438	167.8	40.1	-92.7	12.6
2025-01-03 08:17:27.075989	168.3	39.6	-92.0	11.0
2025-01-03 08:17:29.399424	168.8	39.1	-92.4	10.2
2025-01-03 08:17:31.727421	169.3	38.6	-92.6	12.4
2025-01-03 08:17:34.046009	169.8	38.1	-92.6	8.1
2025-01-03 08:17:36.374747	170.3	37.6	-92.3	9.2
2025-01-03 08:17:38.679679	170.7	37.1	-92.4	13.5
2025-01-03 08:17:40.957764	171.2	36.6	-92.1	8.4
2025-01-03 08:17:43.244949	171.6	36.1	-92.2	11.6
2025-01-03 08:17:45.550611	172.0	35.6	-92.3	9.2
2025-01-03 08:17:47.873025	172.4	35.2	-91.8	10.9
2025-01-03 08:17:50.188890	172.8	34.7	-92.1	5.5
2025-01-03 08:17:52.514258	173.2	34.2	-92.4	10.1
2025-01-03 08:17:54.847429	173.6	33.8	-92.2	10.5
2025-01-03 08:17:57.171498	173.9	33.3	-91.9	11.4
2025-01-03 08:17:59.501772	174.3	32.9	-92.1	7.1
2025-01-03 08:18:01.818025	174.6	32.4	-92.3	14.1
2025-01-03 08:18:04.148171	175.0	32.0	-92.5	10.4
2025-01-03 08:18:06.481849	175.3	31.6	-92.5	12.2
2025-01-03 08:18:08.811428	175.6	31.1	-92.4	7.6
2025-01-03 08:18:11.141944	175.9	30.7	-92.4	5.6
2025-01-03 08:18:13.465663	176.2	30.3	-92.8	2.3
2025-01-03 08:18:15.807114	176.5	29.9	-92.1	8.4
2025-01-03 08:18:18.134442	176.8	29.5	-92.2	5.9
2025-01-03 08:18:20.464158	177.1	29.1	-92.2	9.2
2025-01-03 08:18:22.787097	177.4	28.7	-92.4	14.7
2025-01-03 08:18:25.118323	177.7	28.3	-91.9	11.8
2025-01-03 08:18:27.444069	177.9	27.9	-91.6	6.3
2025-01-03 08:18:29.772889	178.2	27.5	-92.5	8.7
2025-01-03 08:18:32.081563	178.4	27.2	-92.4	6.7
2025-01-03 08:18:34.408451	178.7	26.8	-92.6	7.5
2025-01-03 08:18:36.731590	178.9	26.4	-92.6	11.6
2025-01-03 08:18:39.059471	179.2	26.1	-92.6	11.9
2025-01-03 08:18:41.385709	179.4	25.7	-92.1	9.9
2025-01-03 08:18:43.704500	179.6	25.4	-92.1	10.6
2025-01-03 08:18:46.025094	179.8	25.0	-92.4	6.8
2025-01-03 08:18:48.355675	180.0	24.7	-92.4	9.7
2025-01-03 08:18:50.683040	180.3	24.3	-92.4	10.1
2025-01-03 08:18:52.997907	180.5	24.0	-92.7	10.3
2025-01-03 08:18:55.300792	180.7	23.7	-92.0	11.8
2025-01-03 08:18:57.621513	180.9	23.3	-92.4	8.7
2025-01-03 08:18:59.950948	181.1	23.0	-92.4	6.5
2025-01-03 08:19:02.263881	181.2	22.7	-92.3	10.7
2025-01-03 08:19:04.595745	181.4	22.4	-92.5	7.2
2025-01-03 08:19:06.921613	181.6	22.1	-92.6	9.7
2025-01-03 08:19:09.232131	181.8	21.7	-92.4	7.9
2025-01-03 08:19:11.569344	182.0	21.4	-92.5	8.2
2025-01-03 08:19:13.890428	182.2	21.1	-92.7	4.8
2025-01-03 08:19:16.221731	182.3	20.8	-92.4	5.2
2025-01-03 08:19:18.534944	182.5	20.5	-92.6	3.1
2025-01-03 08:19:20.850713	182.7	20.2	-92.5	7.8
2025-01-03 08:19:23.168211	182.8	20.0	-92.5	8.6
2025-01-03 08:19:25.495095	183.0	19.7	-92.6	9.4
2025-01-03 08:19:27.826842	183.1	19.4	-92.6	8.0
2025-01-03 08:19:30.163225	183.3	19.1	-92.2	5.9
2025-01-03 08:19:32.485779	183.4	18.8	-93.1	3.4
2025-01-03 08:19:34.812467	183.6	18.5	-92.6	5.3
2025-01-03 08:19:37.138690	183.7	18.3	-92.3	3.7
2025-01-03 08:19:39.466924	183.9	18.0	-92.6	4.8
2025-01-03 08:19:41.796577	184.0	17.7	-92.6	6.6
2025-01-03 08:19:44.121777	184.2	17.5	-92.4	3.8
2025-01-03 08:19:46.446301	184.3	17.2	-92.6	3.1
2025-01-03 08:19:48.774789	184.4	16.9	-92.9	4.9
2025-01-03 08:19:51.105635	184.6	16.7	-92.6	5.4
2025-01-03 08:19:53.427265	184.7	16.4	-92.5	7.8
2025-01-03 08:19:55.751695	184.8	16.2	-92.9	7.8
2025-01-03 08:19:58.066380	184.9	15.9	-92.6	1.9
2025-01-03 08:20:00.381907	185.1	15.7	-91.9	5.1
2025-01-03 08:20:02.704218	185.2	15.4	-92.8	6.0
2025-01-03 08:20:05.033408	185.3	15.2	-92.5	4.1
2025-01-03 08:20:07.357782	185.4	15.0	-91.9	4.8
2025-01-03 08:20:09.689233	185.5	14.7	-92.4	3.2
2025-01-03 08:20:12.020201	185.7	14.5	-92.6	1.3
#Closed at: 2025-01-03 08:11:08.728743