passes_logs/2025/01/03/LEX_Murmansk/LEX_Murmansk__20250103_163050_NOAA_19_rec.log

#Pass ID: 20250103_163050_NOAA 19
#Satellite: NOAA 19
#Configuration: NOAA 19
#Start time: 2025-01-03 16:30:45.098155

#LorettStation: 1.0.0 05.05.2024
#Station: LEX_Murmansk
#Location: 33.156738 lon 68.926811 lat
#TLE: 1 33591U 09005A   25002.89767470  .00000571  00000+0  32860-3 0  9996
#TLE: 2 33591  99.0216  66.5655 0014695  89.7532 270.5323 14.13248849819837

#Time	Az	El	Level	SNR
2025-01-03 16:30:57.272228	116.6	16.3	-91.6	5.5
2025-01-03 16:30:58.441495	116.5	16.4	-91.2	3.9
2025-01-03 16:30:59.599964	116.4	16.5	-91.8	5.4
2025-01-03 16:31:00.757312	116.4	16.6	-92.1	4.7
2025-01-03 16:31:01.924491	116.3	16.8	-92.2	9.1
2025-01-03 16:31:03.087328	116.2	16.9	-90.9	6.6
2025-01-03 16:31:04.247767	116.1	17.0	-91.1	5.1
2025-01-03 16:31:05.411604	116.0	17.1	-90.7	3.4
2025-01-03 16:31:06.579220	115.9	17.3	-91.6	3.7
2025-01-03 16:31:07.745596	115.8	17.4	-91.4	2.8
2025-01-03 16:31:08.913974	115.7	17.5	-91.9	3.7
2025-01-03 16:31:10.073815	115.7	17.6	-90.9	8.3
2025-01-03 16:31:11.240817	115.6	17.8	-91.0	9.7
2025-01-03 16:31:12.410498	115.5	17.9	-90.7	10.7
2025-01-03 16:31:13.577312	115.4	18.0	-91.0	11.1
2025-01-03 16:31:14.738746	115.3	18.2	-91.1	6.2
2025-01-03 16:31:15.902317	115.2	18.3	-91.1	6.2
2025-01-03 16:31:17.072015	115.1	18.4	-90.7	9.1
2025-01-03 16:31:18.227939	115.0	18.6	-90.8	10.1
2025-01-03 16:31:19.390607	114.9	18.7	-91.1	10.3
2025-01-03 16:31:20.551202	114.8	18.8	-91.0	7.1
2025-01-03 16:31:21.716668	114.7	19.0	-91.3	3.4
2025-01-03 16:31:22.880237	114.6	19.1	-91.4	5.4
2025-01-03 16:31:24.047325	114.5	19.2	-90.8	3.2
2025-01-03 16:31:25.200745	114.4	19.4	-91.1	4.3
2025-01-03 16:31:26.363125	114.3	19.5	-90.8	6.4
2025-01-03 16:31:27.523349	114.2	19.7	-91.3	11.0
2025-01-03 16:31:28.672134	114.1	19.8	-91.0	12.3
2025-01-03 16:31:29.825323	114.0	19.9	-91.6	12.1
2025-01-03 16:31:30.991685	113.9	20.1	-92.5	11.2
2025-01-03 16:31:32.157820	113.8	20.2	-92.2	11.0
2025-01-03 16:31:33.321353	113.7	20.4	-92.1	8.9
2025-01-03 16:31:34.485826	113.6	20.5	-91.3	11.7
2025-01-03 16:31:35.645643	113.5	20.6	-91.2	11.6
2025-01-03 16:31:36.811770	113.4	20.8	-91.0	7.2
2025-01-03 16:31:37.976046	113.2	20.9	-90.8	5.4
2025-01-03 16:31:39.143352	113.1	21.1	-90.9	2.9
2025-01-03 16:31:40.305038	113.0	21.2	-91.3	2.5
2025-01-03 16:31:41.472689	112.9	21.4	-92.5	2.5
2025-01-03 16:31:42.633727	112.8	21.5	-92.1	6.4
2025-01-03 16:31:43.797911	112.7	21.7	-92.0	7.4
2025-01-03 16:31:44.960291	112.6	21.8	-92.6	11.6
2025-01-03 16:31:46.121073	112.4	22.0	-91.9	9.3
2025-01-03 16:31:47.281085	112.3	22.1	-91.7	6.7
2025-01-03 16:31:48.443098	112.2	22.3	-91.6	5.5
2025-01-03 16:31:49.615972	112.1	22.4	-92.3	6.3
2025-01-03 16:31:50.779268	111.9	22.6	-92.5	4.8
2025-01-03 16:31:51.946624	111.8	22.7	-92.2	7.5
2025-01-03 16:31:53.123796	111.7	22.9	-91.9	8.6
2025-01-03 16:31:54.278448	111.6	23.0	-90.9	6.1
2025-01-03 16:31:55.434686	111.4	23.2	-91.0	4.0
2025-01-03 16:31:56.610812	111.3	23.3	-91.4	5.9
2025-01-03 16:31:57.772675	111.2	23.5	-91.3	1.7
2025-01-03 16:31:58.929102	111.0	23.7	-91.4	3.8
2025-01-03 16:32:00.096280	110.9	23.8	-91.2	5.6
2025-01-03 16:32:01.250446	110.8	24.0	-91.1	8.3
2025-01-03 16:32:02.414210	110.6	24.1	-91.3	9.9
2025-01-03 16:32:03.579624	110.5	24.3	-91.5	10.2
2025-01-03 16:32:04.743278	110.3	24.5	-91.7	7.4
2025-01-03 16:32:05.911621	110.2	24.6	-91.2	4.2
2025-01-03 16:32:07.076028	110.1	24.8	-90.9	4.4
2025-01-03 16:32:08.242959	109.9	25.0	-92.1	3.7
2025-01-03 16:32:09.399254	109.8	25.1	-92.2	4.4
2025-01-03 16:32:10.564733	109.6	25.3	-92.5	3.6
2025-01-03 16:32:11.728670	109.5	25.5	-91.8	2.3
2025-01-03 16:32:12.893047	109.3	25.6	-91.6	3.6
2025-01-03 16:32:14.061354	109.2	25.8	-91.2	2.1
2025-01-03 16:32:15.220380	109.0	26.0	-90.9	0.9
2025-01-03 16:32:16.384955	108.9	26.1	-90.8	2.9
2025-01-03 16:32:17.550342	108.7	26.3	-91.8	0.3
2025-01-03 16:32:18.717259	108.5	26.5	-92.4	2.6
2025-01-03 16:32:19.878920	108.4	26.6	-92.3	2.9
2025-01-03 16:32:21.044234	108.2	26.8	-92.1	3.0
2025-01-03 16:32:22.212097	108.0	27.0	-91.7	3.0
2025-01-03 16:32:23.372137	107.9	27.2	-91.8	2.2
2025-01-03 16:32:24.539889	107.7	27.3	-91.9	5.3
2025-01-03 16:32:25.702434	107.5	27.5	-92.4	3.6
2025-01-03 16:32:26.856604	107.4	27.7	-92.7	7.6
2025-01-03 16:32:28.021969	107.2	27.9	-92.6	10.0
2025-01-03 16:32:29.187075	107.0	28.1	-92.3	10.1
2025-01-03 16:32:30.352681	106.8	28.2	-92.3	6.7
2025-01-03 16:32:31.528941	106.6	28.4	-92.3	2.0
2025-01-03 16:32:32.693689	106.5	28.6	-91.3	2.6
2025-01-03 16:32:33.860664	106.3	28.8	-91.7	0.5
2025-01-03 16:32:35.019715	106.1	29.0	-91.9	4.4
2025-01-03 16:32:36.199513	105.9	29.2	-91.0	6.3
2025-01-03 16:32:37.372397	105.7	29.3	-91.7	12.8
2025-01-03 16:32:38.539797	105.5	29.5	-91.9	14.5
2025-01-03 16:32:39.699898	105.3	29.7	-91.8	14.8
2025-01-03 16:32:40.867576	105.1	29.9	-91.3	12.1
2025-01-03 16:32:42.036379	104.9	30.1	-91.5	12.9
2025-01-03 16:32:43.201535	104.7	30.3	-91.5	8.3
2025-01-03 16:32:44.366928	104.5	30.5	-91.8	12.6
2025-01-03 16:32:45.528962	104.3	30.7	-92.6	18.9
2025-01-03 16:32:46.694418	104.1	30.9	-91.7	18.3
2025-01-03 16:32:47.855441	103.9	31.1	-91.4	16.1
2025-01-03 16:32:49.020453	103.7	31.3	-91.1	11.6
2025-01-03 16:32:50.187270	103.4	31.4	-91.8	6.1
2025-01-03 16:32:51.366114	103.2	31.6	-92.0	4.1
2025-01-03 16:32:52.535138	103.0	31.8	-92.5	5.1
2025-01-03 16:32:53.692444	102.8	32.0	-92.0	4.1
2025-01-03 16:32:54.855399	102.5	32.2	-92.0	8.2
2025-01-03 16:32:56.016223	102.3	32.4	-92.2	12.0
2025-01-03 16:32:57.196853	102.1	32.6	-92.0	15.6
2025-01-03 16:32:58.363373	101.8	32.8	-91.9	14.7
2025-01-03 16:32:59.522658	101.6	33.0	-92.0	12.7
2025-01-03 16:33:00.674094	101.3	33.2	-92.2	8.7
2025-01-03 16:33:01.838665	101.1	33.4	-92.1	8.5
2025-01-03 16:33:03.003396	100.8	33.6	-91.6	9.4
2025-01-03 16:33:04.152664	100.6	33.8	-92.1	11.4
2025-01-03 16:33:05.316702	100.3	34.0	-91.9	14.5
2025-01-03 16:33:06.481348	100.1	34.3	-92.2	17.0
2025-01-03 16:33:07.648588	99.8	34.5	-92.5	16.4
2025-01-03 16:33:08.811590	99.5	34.7	-92.3	11.6
2025-01-03 16:33:09.974603	99.3	34.9	-92.3	9.5
2025-01-03 16:33:11.137432	99.0	35.1	-91.9	7.3
2025-01-03 16:33:12.301910	98.7	35.3	-92.0	3.3
2025-01-03 16:33:13.464554	98.4	35.5	-92.0	5.4
2025-01-03 16:33:14.633290	98.1	35.7	-92.5	11.4
2025-01-03 16:33:15.791771	97.9	35.9	-92.5	11.8
2025-01-03 16:33:16.972759	97.6	36.1	-92.3	16.7
2025-01-03 16:33:18.137810	97.3	36.3	-92.3	17.0
2025-01-03 16:33:19.285364	97.0	36.6	-92.1	15.9
2025-01-03 16:33:20.458544	96.7	36.8	-92.4	12.6
2025-01-03 16:33:21.623539	96.3	37.0	-92.6	9.0
2025-01-03 16:33:22.795935	96.0	37.2	-92.2	7.0
2025-01-03 16:33:23.961039	95.7	37.4	-92.1	7.9
2025-01-03 16:33:25.124114	95.4	37.6	-92.0	8.4
2025-01-03 16:33:26.274076	95.1	37.8	-92.2	8.2
2025-01-03 16:33:27.433441	94.7	38.0	-91.8	9.4
2025-01-03 16:33:28.600548	94.4	38.3	-92.1	6.5
2025-01-03 16:33:29.762752	94.1	38.5	-92.2	7.8
2025-01-03 16:33:30.931510	93.7	38.7	-92.1	8.5
2025-01-03 16:33:32.091465	93.4	38.9	-92.5	5.2
2025-01-03 16:33:33.260013	93.0	39.1	-92.2	1.9
2025-01-03 16:33:34.416604	92.7	39.3	-92.4	4.7
2025-01-03 16:33:35.578667	92.3	39.5	-92.2	5.4
2025-01-03 16:33:36.746901	91.9	39.8	-91.9	5.0
2025-01-03 16:33:37.912578	91.6	40.0	-92.0	11.0
2025-01-03 16:33:39.078687	91.2	40.2	-91.7	14.3
2025-01-03 16:33:40.244919	90.8	40.4	-91.6	15.7
2025-01-03 16:33:41.408572	90.4	40.6	-91.8	14.3
2025-01-03 16:33:42.579815	90.0	40.8	-91.1	12.8
2025-01-03 16:33:43.742278	89.6	41.1	-91.8	9.2
2025-01-03 16:33:44.903843	89.2	41.3	-91.0	7.9
2025-01-03 16:33:46.059577	88.8	41.5	-91.1	8.5
2025-01-03 16:33:47.223691	88.4	41.7	-90.8	3.4
2025-01-03 16:33:48.388472	88.0	41.9	-90.6	5.3
2025-01-03 16:33:49.549311	87.6	42.1	-91.5	8.0
2025-01-03 16:33:50.712539	87.1	42.3	-91.8	5.9
2025-01-03 16:33:51.886146	86.7	42.5	-91.8	9.3
2025-01-03 16:33:53.043425	86.3	42.7	-92.0	11.8
2025-01-03 16:33:54.216418	85.8	43.0	-91.7	11.1
2025-01-03 16:33:55.356566	85.4	43.2	-91.3	7.9
2025-01-03 16:33:56.479046	84.9	43.4	-92.2	7.3
2025-01-03 16:33:57.598832	84.5	43.6	-92.5	6.3
2025-01-03 16:33:58.719092	84.0	43.8	-92.0	2.9
2025-01-03 16:33:59.838975	83.6	44.0	-92.5	2.2
2025-01-03 16:34:00.959812	83.1	44.2	-92.4	5.7
2025-01-03 16:34:02.084547	82.6	44.3	-92.2	6.1
2025-01-03 16:34:03.204920	82.2	44.5	-92.4	7.2
2025-01-03 16:34:04.367950	81.7	44.7	-92.2	9.8
2025-01-03 16:34:05.528038	81.1	44.9	-91.5	9.8
2025-01-03 16:34:06.698415	80.6	45.1	-90.9	10.1
2025-01-03 16:34:07.854151	80.1	45.3	-91.3	11.8
2025-01-03 16:34:09.013953	79.6	45.5	-90.7	9.2
2025-01-03 16:34:10.176520	79.1	45.7	-91.0	8.7
2025-01-03 16:34:11.342840	78.5	45.9	-91.4	6.8
2025-01-03 16:34:12.506464	78.0	46.1	-91.1	9.4
2025-01-03 16:34:13.669380	77.4	46.3	-92.0	5.5
2025-01-03 16:34:14.830068	76.9	46.5	-91.8	4.3
2025-01-03 16:34:15.993906	76.3	46.6	-91.7	9.6
2025-01-03 16:34:17.157539	75.7	46.8	-91.2	8.4
2025-01-03 16:34:18.323412	75.2	47.0	-91.2	11.0
2025-01-03 16:34:19.485130	74.6	47.2	-91.1	14.2
2025-01-03 16:34:20.648387	74.0	47.3	-91.2	13.5
2025-01-03 16:34:21.818199	73.4	47.5	-91.4	10.5
2025-01-03 16:34:22.977199	72.8	47.7	-91.5	5.5
2025-01-03 16:34:24.144485	72.2	47.8	-91.7	7.3
2025-01-03 16:34:25.310296	71.5	48.0	-91.3	7.3
2025-01-03 16:34:26.473665	70.9	48.1	-91.7	4.6
2025-01-03 16:34:27.634385	70.3	48.3	-92.5	5.0
2025-01-03 16:34:28.799438	69.7	48.4	-92.5	3.9
2025-01-03 16:34:29.968525	69.0	48.6	-92.4	4.1
2025-01-03 16:34:31.129848	68.4	48.7	-92.5	0.6
2025-01-03 16:34:32.295428	67.7	48.9	-91.0	0.8
2025-01-03 16:34:33.456616	67.1	49.0	-91.5	2.1
2025-01-03 16:34:34.624813	66.4	49.1	-91.7	2.2
2025-01-03 16:34:35.779165	65.7	49.3	-91.4	1.8
2025-01-03 16:34:36.942100	65.0	49.4	-90.9	5.8
2025-01-03 16:34:38.104560	64.4	49.5	-91.4	4.3
2025-01-03 16:34:39.248870	63.7	49.6	-91.9	3.4
2025-01-03 16:34:40.413872	63.0	49.7	-92.0	4.3
2025-01-03 16:34:41.575528	62.3	49.9	-92.2	8.1
2025-01-03 16:34:42.740971	61.6	50.0	-91.9	6.0
2025-01-03 16:34:43.902990	60.9	50.1	-92.0	5.3
2025-01-03 16:34:45.069625	60.2	50.1	-90.4	4.1
2025-01-03 16:34:46.228436	59.5	50.2	-91.7	0.7
2025-01-03 16:34:47.396549	58.7	50.3	-92.0	2.3
2025-01-03 16:34:48.561061	58.0	50.4	-92.1	2.6
2025-01-03 16:34:49.729016	57.3	50.5	-91.9	3.0
2025-01-03 16:34:50.894664	56.6	50.6	-91.8	3.1
2025-01-03 16:34:52.056439	55.8	50.6	-92.2	5.1
2025-01-03 16:34:53.224078	55.1	50.7	-92.2	3.9
2025-01-03 16:34:54.386705	54.3	50.7	-92.3	4.3
2025-01-03 16:34:55.553507	53.6	50.8	-92.2	5.5
2025-01-03 16:34:56.820270	52.8	50.8	-92.3	2.2
2025-01-03 16:34:57.978986	52.0	50.9	-92.6	2.4
2025-01-03 16:34:59.145334	51.3	50.9	-92.2	4.4
2025-01-03 16:35:00.297600	50.5	50.9	-92.0	2.7
2025-01-03 16:35:01.455685	49.8	51.0	-91.9	5.4
2025-01-03 16:35:02.618430	49.0	51.0	-92.0	7.2
2025-01-03 16:35:03.783647	48.3	51.0	-92.4	8.5
2025-01-03 16:35:04.949790	47.5	51.0	-92.4	9.6
2025-01-03 16:35:06.115001	46.8	51.0	-91.5	8.8
2025-01-03 16:35:07.274455	46.0	51.0	-91.7	6.5
2025-01-03 16:35:08.442949	45.3	51.0	-91.9	10.7
2025-01-03 16:35:09.603530	44.5	51.0	-92.4	12.4
2025-01-03 16:35:10.773004	43.7	51.0	-92.4	12.2
2025-01-03 16:35:11.938173	43.0	51.0	-92.5	12.0
2025-01-03 16:35:13.092887	42.2	50.9	-92.3	13.9
2025-01-03 16:35:14.258592	41.5	50.9	-91.8	9.3
2025-01-03 16:35:15.418247	40.7	50.9	-92.2	13.0
2025-01-03 16:35:16.575440	40.0	50.8	-92.5	9.4
2025-01-03 16:35:17.740597	39.3	50.8	-92.5	12.2
2025-01-03 16:35:18.907756	38.5	50.7	-92.6	9.8
2025-01-03 16:35:20.069118	37.8	50.7	-92.5	6.9
2025-01-03 16:35:21.233295	37.0	50.6	-92.5	8.1
2025-01-03 16:35:22.395164	36.3	50.5	-92.0	7.5
2025-01-03 16:35:23.558938	35.6	50.5	-92.4	8.4
2025-01-03 16:35:24.723987	34.8	50.4	-92.8	6.9
2025-01-03 16:35:25.890946	34.1	50.3	-92.4	7.3
2025-01-03 16:35:27.048098	33.4	50.2	-92.6	10.3
2025-01-03 16:35:28.207390	32.7	50.1	-92.1	8.9
2025-01-03 16:35:29.375081	32.0	50.0	-92.4	8.5
2025-01-03 16:35:30.539190	31.3	49.9	-92.6	8.7
2025-01-03 16:35:31.703669	30.6	49.8	-92.7	5.9
2025-01-03 16:35:32.862392	29.9	49.7	-92.6	5.3
2025-01-03 16:35:34.030200	29.2	49.6	-92.6	7.8
2025-01-03 16:35:35.188952	28.5	49.5	-92.3	5.9
2025-01-03 16:35:36.352490	27.8	49.4	-92.4	5.5
2025-01-03 16:35:37.517321	27.1	49.2	-92.5	10.3
2025-01-03 16:35:38.681387	26.5	49.1	-92.0	5.8
2025-01-03 16:35:39.844108	25.8	49.0	-92.3	4.8
2025-01-03 16:35:41.009314	25.2	48.8	-92.4	9.3
2025-01-03 16:35:42.173544	24.5	48.7	-92.3	4.4
2025-01-03 16:35:43.334220	23.9	48.6	-92.1	3.3
2025-01-03 16:35:44.495960	23.2	48.4	-92.6	6.7
2025-01-03 16:35:45.658020	22.6	48.3	-92.4	4.2
2025-01-03 16:35:46.816968	22.0	48.1	-92.6	4.0
2025-01-03 16:35:47.970524	21.3	48.0	-92.2	9.4
2025-01-03 16:35:49.132035	20.7	47.8	-92.1	9.7
2025-01-03 16:35:50.265421	20.1	47.6	-92.4	5.3
2025-01-03 16:35:51.385666	19.6	47.5	-92.4	8.7
2025-01-03 16:35:52.505781	19.0	47.3	-92.6	10.3
2025-01-03 16:35:53.627477	18.4	47.2	-92.6	10.1
2025-01-03 16:35:54.747948	17.9	47.0	-92.8	7.5
2025-01-03 16:35:55.868223	17.3	46.8	-92.6	10.8
2025-01-03 16:35:56.988321	16.7	46.6	-92.8	12.4
2025-01-03 16:35:58.112162	16.2	46.5	-92.4	12.7
2025-01-03 16:35:59.259478	15.7	46.3	-91.9	10.4
2025-01-03 16:36:00.410471	15.1	46.1	-92.0	14.4
2025-01-03 16:36:01.570092	14.6	45.9	-92.5	15.2
2025-01-03 16:36:02.724622	14.0	45.7	-92.2	11.2
2025-01-03 16:36:03.847002	13.5	45.6	-92.5	12.3
2025-01-03 16:36:05.016208	13.0	45.4	-92.9	13.8
2025-01-03 16:36:06.158574	12.5	45.2	-92.2	12.7
2025-01-03 16:36:07.316450	12.0	45.0	-92.4	14.5
2025-01-03 16:36:08.462733	11.5	44.8	-92.2	18.3
2025-01-03 16:36:09.620411	11.0	44.6	-92.7	19.4
2025-01-03 16:36:10.774572	10.5	44.4	-92.1	17.7
2025-01-03 16:36:11.932041	10.0	44.2	-92.6	17.9
2025-01-03 16:36:13.091462	9.5	44.0	-92.5	19.7
2025-01-03 16:36:14.256370	9.0	43.8	-92.0	17.3
2025-01-03 16:36:15.420630	8.6	43.6	-92.4	18.8
2025-01-03 16:36:16.576548	8.1	43.4	-92.6	15.4
2025-01-03 16:36:17.744999	7.6	43.2	-92.7	16.8
2025-01-03 16:36:18.907346	7.2	43.0	-92.4	16.2
2025-01-03 16:36:20.075836	6.7	42.7	-92.0	16.1
2025-01-03 16:36:21.240083	6.3	42.5	-92.0	17.9
2025-01-03 16:36:22.402502	5.9	42.3	-92.2	14.1
2025-01-03 16:36:23.568210	5.4	42.1	-92.6	15.4
2025-01-03 16:36:24.725834	5.0	41.9	-92.7	14.0
2025-01-03 16:36:25.892509	4.6	41.7	-92.7	13.5
2025-01-03 16:36:27.031079	4.2	41.5	-92.3	14.0
2025-01-03 16:36:28.176061	3.8	41.3	-92.4	8.5
2025-01-03 16:36:29.338809	3.4	41.1	-92.6	7.9
2025-01-03 16:36:30.479609	3.0	40.8	-91.5	9.7
2025-01-03 16:36:31.645038	2.6	40.6	-91.7	6.2
2025-01-03 16:36:32.795280	2.2	40.4	-91.2	4.1
2025-01-03 16:36:33.959784	1.8	40.2	-91.3	6.3
2025-01-03 16:36:35.119228	1.5	40.0	-91.2	9.2
2025-01-03 16:36:36.272318	1.1	39.8	-91.3	5.5
2025-01-03 16:36:37.432086	0.7	39.6	-91.1	7.3
2025-01-03 16:36:38.603054	0.4	39.3	-92.6	7.7
2025-01-03 16:36:39.767759	0.0	39.1	-92.6	6.8
2025-01-03 16:36:40.932163	359.7	38.9	-92.6	9.8
2025-01-03 16:36:42.099183	359.3	38.7	-92.4	13.7
2025-01-03 16:36:43.260360	359.0	38.5	-90.8	9.1
2025-01-03 16:36:44.424600	358.6	38.3	-91.4	12.0
2025-01-03 16:36:45.589442	358.3	38.1	-91.9	12.7
2025-01-03 16:36:46.748983	358.0	37.8	-91.9	12.2
2025-01-03 16:36:47.906045	357.7	37.6	-92.3	13.4
2025-01-03 16:36:49.075086	357.3	37.4	-91.4	14.1
2025-01-03 16:36:50.230913	357.0	37.2	-90.9	14.7
2025-01-03 16:36:51.393047	356.7	37.0	-91.2	13.2
2025-01-03 16:36:52.547601	356.4	36.8	-92.7	15.4
2025-01-03 16:36:53.711988	356.1	36.6	-92.8	13.1
2025-01-03 16:36:54.879860	355.8	36.4	-92.6	11.3
2025-01-03 16:36:56.039869	355.5	36.2	-91.4	12.8
2025-01-03 16:36:57.201206	355.2	35.9	-91.6	7.0
2025-01-03 16:36:58.353611	354.9	35.7	-91.6	7.0
2025-01-03 16:36:59.518637	354.6	35.5	-91.7	6.2
2025-01-03 16:37:00.662786	354.4	35.3	-91.8	4.2
2025-01-03 16:37:01.828653	354.1	35.1	-91.8	3.7
2025-01-03 16:37:02.995039	353.8	34.9	-91.7	7.7
2025-01-03 16:37:04.159524	353.5	34.7	-91.3	4.9
2025-01-03 16:37:05.322587	353.3	34.5	-91.0	3.9
2025-01-03 16:37:06.486445	353.0	34.3	-91.3	8.5
2025-01-03 16:37:07.648999	352.7	34.1	-92.7	10.0
2025-01-03 16:37:08.811091	352.5	33.9	-92.7	8.9
2025-01-03 16:37:09.979482	352.2	33.7	-92.9	10.9
2025-01-03 16:37:11.144597	352.0	33.5	-92.7	10.3
2025-01-03 16:37:12.312544	351.7	33.3	-92.6	10.2
2025-01-03 16:37:13.477527	351.5	33.1	-92.9	10.1
2025-01-03 16:37:14.637938	351.2	32.9	-92.6	9.4
2025-01-03 16:37:15.779809	351.0	32.7	-93.2	6.9
2025-01-03 16:37:16.941495	350.8	32.5	-93.0	5.8
2025-01-03 16:37:18.096473	350.5	32.3	-92.7	4.7
2025-01-03 16:37:19.260619	350.3	32.1	-92.6	3.1
2025-01-03 16:37:20.422318	350.1	31.9	-92.9	5.0
2025-01-03 16:37:21.588543	349.9	31.7	-92.9	5.9
2025-01-03 16:37:22.753436	349.6	31.5	-92.7	2.0
2025-01-03 16:37:23.917880	349.4	31.3	-93.2	4.2
2025-01-03 16:37:25.085385	349.2	31.1	-92.5	5.4
2025-01-03 16:37:26.246397	349.0	30.9	-92.6	5.5
2025-01-03 16:37:27.411590	348.8	30.7	-92.5	6.7
2025-01-03 16:37:28.576716	348.6	30.5	-92.5	6.8
2025-01-03 16:37:29.744163	348.4	30.3	-92.3	8.6
2025-01-03 16:37:30.905835	348.2	30.1	-91.8	8.2
2025-01-03 16:37:32.071245	348.0	30.0	-91.7	11.6
2025-01-03 16:37:33.238221	347.8	29.8	-91.6	12.9
2025-01-03 16:37:34.404169	347.6	29.6	-92.0	10.2
2025-01-03 16:37:35.567504	347.4	29.4	-92.1	8.5
2025-01-03 16:37:36.724054	347.2	29.2	-92.4	8.4
2025-01-03 16:37:37.884448	347.0	29.0	-93.1	7.1
2025-01-03 16:37:39.050002	346.8	28.8	-92.8	8.5
2025-01-03 16:37:40.213620	346.6	28.7	-92.1	2.6
2025-01-03 16:37:41.377595	346.4	28.5	-92.2	1.9
2025-01-03 16:37:42.541077	346.3	28.3	-92.6	5.8
2025-01-03 16:37:43.707175	346.1	28.1	-91.9	3.3
2025-01-03 16:37:44.876156	345.9	27.9	-92.7	6.0
2025-01-03 16:37:46.046707	345.7	27.8	-92.3	7.8
2025-01-03 16:37:47.207213	345.6	27.6	-92.1	4.7
2025-01-03 16:37:48.376315	345.4	27.4	-92.0	10.0
2025-01-03 16:37:49.547490	345.2	27.2	-92.8	12.1
2025-01-03 16:37:50.708337	345.0	27.1	-92.5	5.5
2025-01-03 16:37:51.873791	344.9	26.9	-92.5	13.9
2025-01-03 16:37:53.035896	344.7	26.7	-92.4	8.7
2025-01-03 16:37:54.204960	344.6	26.5	-92.2	5.9
2025-01-03 16:37:55.370473	344.4	26.4	-92.2	6.4
2025-01-03 16:37:56.535538	344.2	26.2	-92.3	5.9
2025-01-03 16:37:57.699098	344.1	26.0	-92.4	2.6
2025-01-03 16:37:58.858901	343.9	25.8	-92.5	4.6
2025-01-03 16:38:00.020796	343.8	25.7	-92.9	3.4
2025-01-03 16:38:01.168070	343.6	25.5	-92.3	4.4
2025-01-03 16:38:02.336600	343.5	25.3	-92.0	3.5
2025-01-03 16:38:03.501548	343.3	25.2	-92.7	10.9
2025-01-03 16:38:04.663359	343.2	25.0	-92.9	9.1
2025-01-03 16:38:05.825488	343.0	24.9	-92.4	9.0
2025-01-03 16:38:06.985873	342.9	24.7	-92.6	14.6
2025-01-03 16:38:08.145168	342.7	24.5	-92.4	9.0
2025-01-03 16:38:09.303769	342.6	24.4	-92.2	7.8
2025-01-03 16:38:10.467605	342.5	24.2	-92.4	10.8
2025-01-03 16:38:11.637113	342.3	24.0	-92.3	9.5
2025-01-03 16:38:12.805163	342.2	23.9	-92.5	4.2
2025-01-03 16:38:13.975975	342.1	23.7	-92.7	5.6
2025-01-03 16:38:15.144441	341.9	23.6	-92.3	6.4
2025-01-03 16:38:16.307494	341.8	23.4	-92.4	4.4
2025-01-03 16:38:17.467468	341.7	23.2	-92.5	6.5
2025-01-03 16:38:18.634006	341.5	23.1	-92.6	4.6
2025-01-03 16:38:19.794783	341.4	22.9	-92.4	5.6
2025-01-03 16:38:20.959464	341.3	22.8	-92.6	13.4
2025-01-03 16:38:22.137518	341.1	22.6	-92.4	3.5
2025-01-03 16:38:23.298990	341.0	22.5	-92.3	10.5
2025-01-03 16:38:24.464492	340.9	22.3	-92.4	8.3
2025-01-03 16:38:25.631807	340.8	22.2	-92.2	13.4
2025-01-03 16:38:26.789842	340.7	22.0	-92.2	4.1
2025-01-03 16:38:27.950552	340.5	21.9	-92.5	6.2
2025-01-03 16:38:29.115729	340.4	21.7	-92.5	2.6
2025-01-03 16:38:30.281402	340.3	21.6	-92.3	2.8
2025-01-03 16:38:31.447809	340.2	21.4	-92.7	1.7
2025-01-03 16:38:32.597630	340.1	21.3	-92.7	3.2
2025-01-03 16:38:33.763633	340.0	21.1	-92.7	2.2
2025-01-03 16:38:34.928602	339.9	21.0	-92.7	6.7
2025-01-03 16:38:36.096396	339.7	20.8	-92.4	6.0
2025-01-03 16:38:37.256404	339.6	20.7	-92.2	6.7
2025-01-03 16:38:38.417349	339.5	20.6	-92.3	5.7
2025-01-03 16:38:39.582579	339.4	20.4	-92.7	6.1
2025-01-03 16:38:40.746677	339.3	20.3	-92.8	1.9
2025-01-03 16:38:41.913511	339.2	20.1	-92.5	2.4
2025-01-03 16:38:43.076186	339.1	20.0	-92.3	3.3
2025-01-03 16:38:44.242301	339.0	19.9	-92.2	0.8
2025-01-03 16:38:45.407954	338.9	19.7	-92.3	0.9
2025-01-03 16:38:46.577499	338.8	19.6	-92.7	3.1
2025-01-03 16:38:47.734425	338.7	19.4	-92.4	3.0
2025-01-03 16:38:48.892691	338.6	19.3	-92.4	4.7
2025-01-03 16:38:50.056966	338.5	19.2	-92.7	2.8
2025-01-03 16:38:51.223325	338.4	19.0	-92.6	4.8
2025-01-03 16:38:52.387827	338.3	18.9	-92.6	0.9
2025-01-03 16:38:53.552221	338.2	18.8	-92.6	3.4
2025-01-03 16:38:54.718705	338.1	18.6	-91.9	4.9
2025-01-03 16:38:55.883530	338.0	18.5	-92.6	1.1
2025-01-03 16:38:57.047094	337.9	18.4	-92.7	4.5
2025-01-03 16:38:58.211548	337.8	18.2	-92.5	1.4
2025-01-03 16:38:59.377308	337.7	18.1	-92.4	2.6
2025-01-03 16:39:00.530954	337.6	18.0	-92.5	4.8
2025-01-03 16:39:01.690371	337.5	17.8	-92.9	1.1
2025-01-03 16:39:02.857029	337.4	17.7	-92.8	3.5
2025-01-03 16:39:04.021661	337.4	17.6	-92.7	1.9
2025-01-03 16:39:05.186114	337.3	17.4	-92.5	2.6
2025-01-03 16:39:06.346408	337.2	17.3	-92.3	2.0
2025-01-03 16:39:07.506434	337.1	17.2	-92.8	3.4
2025-01-03 16:39:08.669499	337.0	17.1	-92.6	3.6
2025-01-03 16:39:09.832487	336.9	16.9	-92.4	1.7
2025-01-03 16:39:11.109846	336.8	16.8	-92.3	3.5
2025-01-03 16:39:12.268827	336.8	16.7	-92.3	2.0
2025-01-03 16:39:13.433767	336.7	16.6	-92.4	5.1
2025-01-03 16:39:14.599386	336.6	16.4	-92.6	4.9
2025-01-03 16:39:15.771360	336.5	16.3	-92.6	2.1
2025-01-03 16:39:16.931862	336.4	16.2	-92.6	2.9
2025-01-03 16:39:18.098007	336.3	16.1	-92.0	4.7
2025-01-03 16:39:19.261197	336.3	15.9	-92.3	3.9
2025-01-03 16:39:20.426644	336.2	15.8	-92.6	10.1
2025-01-03 16:39:21.594505	336.1	15.7	-92.7	9.6
2025-01-03 16:39:22.759499	336.0	15.6	-92.7	2.7
2025-01-03 16:39:23.922249	336.0	15.5	-92.6	5.3
2025-01-03 16:39:25.084128	335.9	15.3	-92.1	1.1
2025-01-03 16:39:26.245885	335.8	15.2	-92.3	1.9
2025-01-03 16:39:27.407400	335.7	15.1	-92.6	3.5
2025-01-03 16:39:28.576623	335.7	15.0	-92.2	1.2
2025-01-03 16:39:29.738036	335.6	14.9	-92.7	1.7
2025-01-03 16:39:30.902787	335.5	14.8	-92.9	1.6
2025-01-03 16:39:32.071247	335.4	14.6	-92.9	4.8
2025-01-03 16:39:33.231986	335.4	14.5	-92.8	2.2
#Closed at: 2025-01-03 16:30:50.088217