passes_logs/2025/01/03/LEX_Murmansk/LEX_Murmansk__20250103_095157_NOAA_19_rec.log

#Pass ID: 20250103_095157_NOAA 19
#Satellite: NOAA 19
#Configuration: NOAA 19
#Start time: 2025-01-03 09:51:52.745244

#LorettStation: 1.0.0 05.05.2024
#Station: LEX_Murmansk
#Location: 33.156738 lon 68.926811 lat
#TLE: 1 33591U 09005A   25002.89767470  .00000571  00000+0  32860-3 0  9996
#TLE: 2 33591  99.0216  66.5655 0014695  89.7532 270.5323 14.13248849819837

#Time	Az	El	Level	SNR
2025-01-03 09:52:04.860497	23.8	16.3	-91.9	2.4
2025-01-03 09:52:07.158829	23.6	16.5	-92.0	6.1
2025-01-03 09:52:09.459767	23.5	16.8	-91.7	9.5
2025-01-03 09:52:11.759411	23.4	17.0	-92.0	3.4
2025-01-03 09:52:14.056352	23.2	17.3	-91.8	9.1
2025-01-03 09:52:16.464590	23.1	17.5	-91.9	6.9
2025-01-03 09:52:18.777677	22.9	17.8	-92.1	1.5
2025-01-03 09:52:21.074872	22.8	18.1	-91.8	3.3
2025-01-03 09:52:23.374308	22.6	18.3	-90.4	6.8
2025-01-03 09:52:25.677466	22.5	18.6	-91.5	7.6
2025-01-03 09:52:27.987306	22.3	18.9	-90.7	5.2
2025-01-03 09:52:30.292222	22.2	19.2	-90.0	6.6
2025-01-03 09:52:32.602668	22.0	19.4	-91.7	7.4
2025-01-03 09:52:34.900183	21.9	19.7	-92.2	3.3
2025-01-03 09:52:37.209520	21.7	20.0	-91.9	0.2
2025-01-03 09:52:39.517250	21.5	20.3	-91.9	4.6
2025-01-03 09:52:41.816924	21.3	20.6	-92.5	10.3
2025-01-03 09:52:44.133379	21.2	20.9	-92.0	7.6
2025-01-03 09:52:46.426628	21.0	21.2	-92.1	10.3
2025-01-03 09:52:48.724555	20.8	21.5	-92.4	10.1
2025-01-03 09:52:51.021804	20.6	21.8	-92.5	3.9
2025-01-03 09:52:53.320067	20.4	22.1	-91.7	0.6
2025-01-03 09:52:55.626881	20.2	22.4	-92.4	6.6
2025-01-03 09:52:57.936637	20.0	22.7	-92.5	11.8
2025-01-03 09:53:00.238853	19.8	23.0	-92.2	7.5
2025-01-03 09:53:02.540203	19.6	23.3	-92.4	9.2
2025-01-03 09:53:04.843601	19.4	23.6	-92.5	11.5
2025-01-03 09:53:07.145091	19.2	24.0	-91.7	2.4
2025-01-03 09:53:09.438315	19.0	24.3	-92.4	2.1
2025-01-03 09:53:11.734773	18.7	24.6	-92.3	4.3
2025-01-03 09:53:14.026058	18.5	25.0	-92.2	10.3
2025-01-03 09:53:16.330125	18.3	25.3	-92.1	9.3
2025-01-03 09:53:18.625352	18.0	25.6	-91.5	8.1
2025-01-03 09:53:20.925734	17.8	26.0	-91.8	8.0
2025-01-03 09:53:23.231875	17.5	26.3	-91.0	7.0
2025-01-03 09:53:25.534670	17.3	26.7	-91.3	2.5
2025-01-03 09:53:27.832315	17.0	27.1	-91.7	0.0
2025-01-03 09:53:30.140876	16.7	27.4	-92.0	7.6
2025-01-03 09:53:32.455026	16.5	27.8	-92.2	9.6
2025-01-03 09:53:34.762176	16.2	28.2	-92.3	3.4
2025-01-03 09:53:37.067272	15.9	28.5	-91.7	6.7
2025-01-03 09:53:39.369954	15.6	28.9	-92.0	7.8
2025-01-03 09:53:41.672592	15.3	29.3	-92.6	5.6
2025-01-03 09:53:43.979588	15.0	29.7	-92.0	2.3
2025-01-03 09:53:46.275191	14.6	30.1	-91.9	3.8
2025-01-03 09:53:48.533803	14.3	30.5	-92.1	10.1
2025-01-03 09:53:50.776866	14.0	30.9	-92.1	11.7
2025-01-03 09:53:53.019678	13.7	31.3	-91.8	7.2
2025-01-03 09:53:55.264751	13.3	31.7	-91.9	4.2
2025-01-03 09:53:57.551024	12.9	32.1	-92.6	14.1
2025-01-03 09:53:59.855974	12.6	32.5	-92.2	9.1
2025-01-03 09:54:02.145686	12.2	32.9	-91.8	4.2
2025-01-03 09:54:04.448760	11.8	33.3	-91.2	4.8
2025-01-03 09:54:06.750544	11.4	33.8	-91.7	10.4
2025-01-03 09:54:09.057183	11.0	34.2	-91.2	14.3
2025-01-03 09:54:11.359367	10.5	34.6	-90.9	8.5
2025-01-03 09:54:13.650894	10.1	35.1	-92.3	9.8
2025-01-03 09:54:15.965285	9.7	35.5	-92.4	15.8
2025-01-03 09:54:18.270193	9.2	36.0	-92.3	15.5
2025-01-03 09:54:20.568530	8.7	36.5	-92.4	7.0
2025-01-03 09:54:22.863876	8.2	36.9	-92.5	3.6
2025-01-03 09:54:25.160011	7.7	37.4	-91.6	6.1
2025-01-03 09:54:27.464591	7.2	37.8	-92.8	15.8
2025-01-03 09:54:29.766498	6.7	38.3	-92.5	14.6
2025-01-03 09:54:32.062616	6.1	38.8	-92.5	11.0
2025-01-03 09:54:34.370091	5.5	39.3	-92.2	12.2
2025-01-03 09:54:36.670150	4.9	39.8	-92.7	16.1
2025-01-03 09:54:38.969265	4.3	40.3	-92.3	16.4
2025-01-03 09:54:41.276657	3.7	40.7	-91.9	6.1
2025-01-03 09:54:43.580016	3.1	41.2	-92.5	5.9
2025-01-03 09:54:45.879903	2.4	41.7	-92.2	9.7
2025-01-03 09:54:48.176869	1.7	42.2	-91.9	14.2
2025-01-03 09:54:50.480925	1.0	42.7	-92.3	19.6
2025-01-03 09:54:52.789759	0.3	43.2	-92.6	13.7
2025-01-03 09:54:55.090643	359.5	43.7	-92.3	11.7
2025-01-03 09:54:57.390351	358.8	44.2	-91.0	12.1
2025-01-03 09:54:59.691748	358.0	44.7	-91.9	16.9
2025-01-03 09:55:01.982301	357.1	45.2	-91.9	16.3
2025-01-03 09:55:04.277671	356.3	45.7	-90.8	8.2
2025-01-03 09:55:06.573260	355.4	46.2	-91.6	5.0
2025-01-03 09:55:08.884526	354.5	46.7	-91.5	5.4
2025-01-03 09:55:11.192724	353.6	47.2	-88.5	5.1
2025-01-03 09:55:13.504132	352.6	47.7	-92.0	14.1
2025-01-03 09:55:15.799705	351.6	48.2	-92.2	14.7
2025-01-03 09:55:18.102361	350.5	48.7	-90.6	10.5
2025-01-03 09:55:20.397092	349.5	49.2	-91.9	6.3
2025-01-03 09:55:22.686817	348.4	49.7	-92.4	4.8
2025-01-03 09:55:24.991032	347.2	50.1	-92.0	9.1
2025-01-03 09:55:27.284936	346.1	50.6	-92.2	13.3
2025-01-03 09:55:29.593199	344.9	51.1	-92.7	13.5
2025-01-03 09:55:31.897439	343.6	51.5	-92.7	4.1
2025-01-03 09:55:34.190849	342.3	51.9	-92.2	3.7
2025-01-03 09:55:36.489496	341.0	52.3	-92.5	7.6
2025-01-03 09:55:38.783140	339.7	52.8	-92.3	4.4
2025-01-03 09:55:41.094074	338.3	53.1	-91.7	10.6
2025-01-03 09:55:43.390536	336.8	53.5	-91.9	4.0
2025-01-03 09:55:45.690277	335.4	53.9	-92.0	12.9
2025-01-03 09:55:47.987791	333.9	54.2	-92.5	16.7
2025-01-03 09:55:50.285541	332.3	54.6	-92.0	12.6
2025-01-03 09:55:52.584534	330.7	54.9	-92.7	9.5
2025-01-03 09:55:54.879662	329.1	55.2	-92.7	5.6
2025-01-03 09:55:57.175543	327.5	55.4	-91.9	8.8
2025-01-03 09:55:59.475807	325.8	55.7	-92.4	16.3
2025-01-03 09:56:01.765655	324.1	55.9	-92.4	13.3
2025-01-03 09:56:04.064969	322.4	56.1	-92.1	16.0
2025-01-03 09:56:06.358666	320.7	56.2	-92.3	16.4
2025-01-03 09:56:08.653417	318.9	56.4	-92.1	13.9
2025-01-03 09:56:10.954046	317.1	56.5	-91.8	15.9
2025-01-03 09:56:13.255446	315.3	56.6	-91.8	10.2
2025-01-03 09:56:15.559063	313.5	56.7	-92.1	12.4
2025-01-03 09:56:17.857249	311.7	56.7	-92.4	7.2
2025-01-03 09:56:20.153795	309.9	56.7	-91.9	7.4
2025-01-03 09:56:22.452842	308.0	56.7	-92.3	7.1
2025-01-03 09:56:24.758859	306.2	56.6	-92.2	5.6
2025-01-03 09:56:27.064160	304.4	56.6	-91.8	8.0
2025-01-03 09:56:29.362917	302.6	56.5	-91.8	4.1
2025-01-03 09:56:31.673985	300.8	56.3	-92.0	7.3
2025-01-03 09:56:33.974554	299.1	56.2	-92.4	11.4
2025-01-03 09:56:36.269449	297.3	56.0	-91.9	9.1
2025-01-03 09:56:38.563900	295.6	55.8	-92.4	10.4
2025-01-03 09:56:40.879465	293.9	55.6	-92.3	14.0
2025-01-03 09:56:43.186090	292.3	55.3	-91.8	10.1
2025-01-03 09:56:45.492378	290.6	55.0	-92.6	13.5
2025-01-03 09:56:47.787012	289.0	54.7	-92.1	9.8
2025-01-03 09:56:50.098388	287.5	54.4	-92.1	13.0
2025-01-03 09:56:52.395479	285.9	54.1	-91.8	12.1
2025-01-03 09:56:54.683380	284.5	53.7	-92.6	13.5
2025-01-03 09:56:56.985718	283.0	53.3	-92.4	12.7
2025-01-03 09:56:59.277834	281.6	53.0	-91.7	12.6
2025-01-03 09:57:01.562577	280.2	52.6	-92.5	13.8
2025-01-03 09:57:03.858464	278.9	52.2	-92.0	10.5
2025-01-03 09:57:06.162434	277.6	51.7	-92.0	13.0
2025-01-03 09:57:08.467225	276.3	51.3	-91.7	13.2
2025-01-03 09:57:10.766935	275.1	50.8	-92.6	10.4
2025-01-03 09:57:13.071604	273.9	50.4	-91.7	9.5
2025-01-03 09:57:15.368160	272.7	49.9	-92.1	9.7
2025-01-03 09:57:17.671750	271.6	49.4	-92.3	7.2
2025-01-03 09:57:19.973268	270.5	49.0	-92.6	10.3
2025-01-03 09:57:22.274962	269.5	48.5	-91.9	6.8
2025-01-03 09:57:24.583592	268.4	48.0	-92.2	11.4
2025-01-03 09:57:26.877191	267.5	47.5	-92.4	11.5
2025-01-03 09:57:29.175970	266.5	47.0	-91.5	9.1
2025-01-03 09:57:31.478299	265.6	46.5	-91.1	14.8
2025-01-03 09:57:33.775677	264.7	46.0	-92.2	14.5
2025-01-03 09:57:36.078572	263.8	45.5	-92.0	19.2
2025-01-03 09:57:38.377753	263.0	45.0	-91.9	18.3
2025-01-03 09:57:40.681711	262.2	44.5	-92.6	20.3
2025-01-03 09:57:42.983145	261.4	44.0	-92.3	20.6
2025-01-03 09:57:45.283614	260.6	43.5	-91.0	16.5
2025-01-03 09:57:47.593465	259.9	43.0	-91.6	15.9
2025-01-03 09:57:49.892427	259.1	42.5	-91.7	12.5
2025-01-03 09:57:52.195099	258.4	42.0	-92.1	5.6
2025-01-03 09:57:54.495517	257.8	41.5	-92.1	9.5
2025-01-03 09:57:56.795013	257.1	41.0	-91.7	3.4
2025-01-03 09:57:59.099357	256.5	40.5	-91.3	7.2
2025-01-03 09:58:01.402441	255.9	40.0	-91.3	8.3
2025-01-03 09:58:03.700392	255.3	39.5	-91.5	6.9
2025-01-03 09:58:06.001713	254.7	39.0	-92.5	11.6
2025-01-03 09:58:08.305097	254.1	38.6	-92.1	13.2
2025-01-03 09:58:10.601453	253.6	38.1	-92.2	13.0
2025-01-03 09:58:12.911680	253.0	37.6	-92.4	7.1
2025-01-03 09:58:15.215761	252.5	37.1	-92.5	3.2
2025-01-03 09:58:17.519691	252.0	36.7	-92.6	2.8
2025-01-03 09:58:19.822666	251.5	36.2	-92.4	7.8
2025-01-03 09:58:22.117699	251.1	35.8	-92.4	8.9
2025-01-03 09:58:24.410924	250.6	35.3	-92.4	10.2
2025-01-03 09:58:26.705845	250.2	34.9	-92.5	14.6
2025-01-03 09:58:29.005441	249.7	34.4	-92.6	19.8
2025-01-03 09:58:31.303835	249.3	34.0	-92.0	20.1
2025-01-03 09:58:33.604086	248.9	33.5	-92.1	14.9
2025-01-03 09:58:35.905837	248.5	33.1	-92.3	11.0
2025-01-03 09:58:38.183756	248.1	32.7	-91.7	15.5
2025-01-03 09:58:40.424590	247.7	32.3	-92.3	7.9
2025-01-03 09:58:42.667321	247.4	31.9	-91.7	17.2
2025-01-03 09:58:44.913586	247.0	31.5	-92.2	16.5
2025-01-03 09:58:47.187765	246.7	31.1	-91.9	23.3
2025-01-03 09:58:49.487821	246.3	30.7	-92.3	17.3
2025-01-03 09:58:51.770500	246.0	30.3	-92.6	18.1
2025-01-03 09:58:54.073392	245.7	29.9	-92.0	11.7
2025-01-03 09:58:56.365376	245.4	29.5	-92.0	17.1
2025-01-03 09:58:58.667230	245.0	29.1	-92.4	16.8
2025-01-03 09:59:00.967943	244.7	28.7	-92.4	14.0
2025-01-03 09:59:03.267666	244.4	28.3	-92.1	16.8
2025-01-03 09:59:05.577373	244.2	28.0	-92.3	17.4
2025-01-03 09:59:07.885973	243.9	27.6	-92.6	16.6
2025-01-03 09:59:10.186896	243.6	27.2	-91.9	15.8
2025-01-03 09:59:12.488197	243.3	26.9	-92.3	4.7
2025-01-03 09:59:14.798992	243.1	26.5	-92.5	11.8
2025-01-03 09:59:17.094108	242.8	26.1	-91.7	7.6
2025-01-03 09:59:19.396518	242.6	25.8	-91.9	12.7
2025-01-03 09:59:21.696074	242.3	25.4	-92.6	11.0
2025-01-03 09:59:24.002485	242.1	25.1	-92.7	5.6
2025-01-03 09:59:26.298977	241.8	24.8	-92.0	2.4
2025-01-03 09:59:28.595987	241.6	24.4	-92.8	2.3
2025-01-03 09:59:30.897908	241.4	24.1	-92.5	2.0
2025-01-03 09:59:33.202980	241.2	23.8	-92.2	1.5
2025-01-03 09:59:35.500687	240.9	23.4	-92.2	2.1
2025-01-03 09:59:37.801237	240.7	23.1	-92.6	1.5
2025-01-03 09:59:40.109131	240.5	22.8	-92.0	0.6
2025-01-03 09:59:42.402156	240.3	22.5	-92.5	4.2
2025-01-03 09:59:44.702932	240.1	22.2	-92.5	4.3
2025-01-03 09:59:47.009277	239.9	21.9	-92.2	2.6
2025-01-03 09:59:49.311990	239.7	21.6	-92.1	7.6
2025-01-03 09:59:51.630089	239.6	21.3	-92.6	9.4
2025-01-03 09:59:53.930158	239.4	21.0	-92.2	9.0
2025-01-03 09:59:56.225028	239.2	20.7	-92.4	6.7
2025-01-03 09:59:58.523352	239.0	20.4	-92.6	4.7
2025-01-03 10:00:00.813033	238.8	20.1	-92.3	10.5
2025-01-03 10:00:03.110647	238.7	19.8	-92.3	8.3
2025-01-03 10:00:05.412265	238.5	19.5	-92.5	11.0
2025-01-03 10:00:07.716718	238.3	19.3	-92.6	11.7
2025-01-03 10:00:10.009379	238.2	19.0	-92.2	3.6
2025-01-03 10:00:12.317556	238.0	18.7	-92.2	6.5
2025-01-03 10:00:14.610061	237.9	18.4	-92.3	0.9
2025-01-03 10:00:16.910908	237.7	18.2	-92.5	3.6
2025-01-03 10:00:19.205131	237.6	17.9	-92.3	8.8
2025-01-03 10:00:21.503339	237.4	17.7	-92.9	7.1
2025-01-03 10:00:23.802388	237.3	17.4	-92.2	10.1
2025-01-03 10:00:26.096784	237.2	17.1	-92.4	2.4
2025-01-03 10:00:28.393984	237.0	16.9	-92.3	3.3
2025-01-03 10:00:30.697993	236.9	16.6	-92.8	8.0
2025-01-03 10:00:32.993571	236.7	16.4	-92.5	9.3
2025-01-03 10:00:35.301044	236.6	16.1	-92.0	9.2
2025-01-03 10:00:37.600142	236.5	15.9	-92.3	5.2
2025-01-03 10:00:39.901496	236.4	15.6	-92.6	2.9
2025-01-03 10:00:42.197656	236.2	15.4	-91.8	7.8
2025-01-03 10:00:44.488916	236.1	15.2	-91.7	5.6
2025-01-03 10:00:46.791088	236.0	14.9	-92.3	7.5
2025-01-03 10:00:49.091397	235.9	14.7	-92.0	7.6
2025-01-03 10:00:51.389371	235.8	14.5	-92.4	2.7
#Closed at: 2025-01-03 09:51:57.670556