passes_logs/2025/01/03/LEX_Murmansk/LEX_Murmansk__20250103_195359_NOAA_19_rec.log

#Pass ID: 20250103_195359_NOAA 19
#Satellite: NOAA 19
#Configuration: NOAA 19
#Start time: 2025-01-03 19:53:54.755573

#LorettStation: 1.0.0 05.05.2024
#Station: LEX_Murmansk
#Location: 33.156738 lon 68.926811 lat
#TLE: 1 33591U 09005A   25002.89767470  .00000571  00000+0  32860-3 0  9996
#TLE: 2 33591  99.0216  66.5655 0014695  89.7532 270.5323 14.13248849819837

#Time	Az	El	Level	SNR
2025-01-03 19:54:06.953894	227.8	15.9	-90.4	5.0
2025-01-03 19:54:08.101123	228.0	16.0	-90.1	5.4
2025-01-03 19:54:09.244882	228.2	16.1	-90.5	6.0
2025-01-03 19:54:10.395481	228.4	16.2	-90.4	5.1
2025-01-03 19:54:11.545165	228.6	16.3	-90.2	5.1
2025-01-03 19:54:12.696655	228.8	16.3	-90.4	5.1
2025-01-03 19:54:13.849319	228.9	16.4	-90.9	1.2
2025-01-03 19:54:14.999842	229.1	16.5	-90.7	3.5
2025-01-03 19:54:16.149052	229.3	16.6	-90.6	3.9
2025-01-03 19:54:17.293575	229.5	16.7	-90.7	1.7
2025-01-03 19:54:18.439035	229.7	16.8	-90.4	3.8
2025-01-03 19:54:19.594672	229.9	16.9	-90.5	3.9
2025-01-03 19:54:20.746693	230.1	17.0	-90.6	6.8
2025-01-03 19:54:21.892478	230.3	17.0	-90.5	7.0
2025-01-03 19:54:23.043087	230.5	17.1	-90.8	9.2
2025-01-03 19:54:24.204544	230.7	17.2	-90.8	4.6
2025-01-03 19:54:25.354124	230.9	17.3	-90.6	3.6
2025-01-03 19:54:26.500304	231.1	17.4	-90.2	6.4
2025-01-03 19:54:27.654642	231.3	17.5	-90.3	4.4
2025-01-03 19:54:28.807635	231.5	17.6	-90.3	7.0
2025-01-03 19:54:29.958779	231.7	17.6	-90.1	6.3
2025-01-03 19:54:31.104406	231.9	17.7	-90.0	7.2
2025-01-03 19:54:32.256701	232.1	17.8	-89.3	6.8
2025-01-03 19:54:33.405996	232.3	17.9	-90.3	4.8
2025-01-03 19:54:34.553689	232.5	18.0	-90.4	3.0
2025-01-03 19:54:35.698666	232.7	18.1	-89.9	2.0
2025-01-03 19:54:36.846026	232.9	18.2	-90.1	2.6
2025-01-03 19:54:37.970910	233.1	18.2	-90.2	2.3
2025-01-03 19:54:39.091907	233.3	18.3	-90.1	3.8
2025-01-03 19:54:40.214837	233.5	18.4	-90.3	4.6
2025-01-03 19:54:41.334947	233.8	18.5	-90.1	7.7
2025-01-03 19:54:42.455867	234.0	18.6	-90.4	9.3
2025-01-03 19:54:43.576381	234.2	18.7	-90.7	9.3
2025-01-03 19:54:44.698895	234.4	18.7	-90.6	8.9
2025-01-03 19:54:45.821853	234.6	18.8	-90.6	7.1
2025-01-03 19:54:46.972083	234.8	18.9	-90.9	8.0
2025-01-03 19:54:48.128052	235.0	19.0	-90.8	9.2
2025-01-03 19:54:49.276064	235.3	19.1	-90.6	5.0
2025-01-03 19:54:50.420674	235.5	19.2	-91.0	4.7
2025-01-03 19:54:51.568754	235.7	19.3	-91.0	8.2
2025-01-03 19:54:52.724510	235.9	19.3	-90.9	9.4
2025-01-03 19:54:53.876343	236.2	19.4	-90.6	9.8
2025-01-03 19:54:55.025791	236.4	19.5	-90.6	6.2
2025-01-03 19:54:56.175060	236.6	19.6	-91.0	6.6
2025-01-03 19:54:57.318676	236.9	19.7	-90.6	3.4
2025-01-03 19:54:58.474572	237.1	19.8	-91.0	3.5
2025-01-03 19:54:59.626797	237.3	19.8	-90.5	3.5
2025-01-03 19:55:00.768736	237.6	19.9	-91.0	2.6
2025-01-03 19:55:01.922894	237.8	20.0	-90.9	4.3
2025-01-03 19:55:03.072336	238.0	20.1	-90.7	3.3
2025-01-03 19:55:04.223197	238.3	20.2	-90.8	4.5
2025-01-03 19:55:05.367018	238.5	20.3	-90.6	5.5
2025-01-03 19:55:06.515466	238.7	20.3	-91.0	7.2
2025-01-03 19:55:07.673827	239.0	20.4	-91.1	6.6
2025-01-03 19:55:08.829425	239.2	20.5	-91.2	7.3
2025-01-03 19:55:09.979678	239.5	20.6	-90.9	5.0
2025-01-03 19:55:11.127034	239.7	20.7	-91.1	4.2
2025-01-03 19:55:12.275373	240.0	20.7	-91.0	4.9
2025-01-03 19:55:13.422597	240.2	20.8	-90.7	3.5
2025-01-03 19:55:14.564440	240.5	20.9	-90.9	5.3
2025-01-03 19:55:15.714243	240.7	21.0	-91.2	5.0
2025-01-03 19:55:16.854499	241.0	21.1	-90.5	2.8
2025-01-03 19:55:17.981564	241.2	21.1	-90.7	5.3
2025-01-03 19:55:19.128274	241.5	21.2	-91.1	8.4
2025-01-03 19:55:20.268133	241.7	21.3	-90.9	7.6
2025-01-03 19:55:21.422440	242.0	21.4	-90.8	5.8
2025-01-03 19:55:22.558174	242.2	21.5	-91.0	4.9
2025-01-03 19:55:23.708713	242.5	21.5	-91.2	3.6
2025-01-03 19:55:24.862870	242.8	21.6	-90.8	2.5
2025-01-03 19:55:26.010441	243.0	21.7	-90.9	3.4
2025-01-03 19:55:27.157684	243.3	21.8	-91.0	2.7
2025-01-03 19:55:28.310405	243.5	21.8	-91.1	1.0
2025-01-03 19:55:29.456059	243.8	21.9	-90.9	2.1
2025-01-03 19:55:30.605242	244.1	22.0	-90.9	4.2
2025-01-03 19:55:31.755173	244.3	22.1	-91.2	4.4
2025-01-03 19:55:32.906750	244.6	22.1	-91.0	5.9
2025-01-03 19:55:34.053362	244.9	22.2	-90.9	4.7
2025-01-03 19:55:35.199138	245.2	22.3	-91.3	0.8
2025-01-03 19:55:36.345213	245.4	22.4	-90.9	4.4
2025-01-03 19:55:37.488389	245.7	22.4	-90.5	2.2
2025-01-03 19:55:38.611830	246.0	22.5	-90.9	3.7
2025-01-03 19:55:39.756202	246.2	22.6	-91.1	3.0
2025-01-03 19:55:40.903476	246.5	22.7	-90.9	3.7
2025-01-03 19:55:42.045427	246.8	22.7	-91.0	2.8
2025-01-03 19:55:43.193583	247.1	22.8	-91.3	4.2
2025-01-03 19:55:44.344522	247.4	22.9	-90.8	4.0
2025-01-03 19:55:45.491640	247.6	22.9	-91.2	3.0
2025-01-03 19:55:46.634696	247.9	23.0	-91.3	4.1
2025-01-03 19:55:47.788046	248.2	23.1	-91.1	5.4
2025-01-03 19:55:48.938983	248.5	23.1	-91.2	3.6
2025-01-03 19:55:50.092146	248.8	23.2	-90.6	4.3
2025-01-03 19:55:51.239978	249.1	23.3	-90.6	2.7
2025-01-03 19:55:52.390739	249.4	23.3	-91.1	3.8
2025-01-03 19:55:53.542531	249.7	23.4	-91.0	1.5
2025-01-03 19:55:54.685337	250.0	23.5	-90.5	1.0
2025-01-03 19:55:55.836907	250.3	23.5	-91.1	1.7
2025-01-03 19:55:56.982574	250.5	23.6	-91.1	2.2
2025-01-03 19:55:58.128975	250.8	23.7	-91.0	3.3
2025-01-03 19:55:59.286124	251.1	23.7	-91.0	2.8
2025-01-03 19:56:00.428333	251.4	23.8	-91.1	6.7
2025-01-03 19:56:01.582655	251.7	23.9	-91.1	10.1
2025-01-03 19:56:02.730514	252.0	23.9	-90.9	9.8
2025-01-03 19:56:03.882594	252.3	24.0	-90.5	11.2
2025-01-03 19:56:05.026138	252.6	24.0	-90.6	7.5
2025-01-03 19:56:06.182950	253.0	24.1	-91.1	4.2
2025-01-03 19:56:07.336039	253.3	24.2	-91.1	4.4
2025-01-03 19:56:08.488397	253.6	24.2	-90.9	5.1
2025-01-03 19:56:09.634762	253.9	24.3	-90.1	5.4
2025-01-03 19:56:10.789675	254.2	24.3	-91.0	4.2
2025-01-03 19:56:11.935704	254.5	24.4	-90.8	4.2
2025-01-03 19:56:13.086322	254.8	24.4	-90.9	4.1
2025-01-03 19:56:14.244348	255.1	24.5	-90.5	4.0
2025-01-03 19:56:15.391858	255.4	24.5	-90.6	6.9
2025-01-03 19:56:16.559442	255.8	24.6	-90.7	6.1
2025-01-03 19:56:17.713670	256.1	24.6	-90.5	8.5
2025-01-03 19:56:18.864192	256.4	24.7	-90.7	9.5
2025-01-03 19:56:20.013345	256.7	24.7	-90.7	11.5
2025-01-03 19:56:21.160030	257.0	24.8	-90.6	10.5
2025-01-03 19:56:22.309979	257.3	24.8	-90.2	9.0
2025-01-03 19:56:23.453951	257.7	24.9	-90.7	8.6
2025-01-03 19:56:24.607836	258.0	24.9	-90.6	6.9
2025-01-03 19:56:25.753904	258.3	25.0	-90.3	4.9
2025-01-03 19:56:26.904605	258.6	25.0	-90.4	6.2
2025-01-03 19:56:28.058758	258.9	25.1	-90.4	5.1
2025-01-03 19:56:29.215992	259.3	25.1	-90.3	2.0
2025-01-03 19:56:30.372206	259.6	25.1	-90.6	4.4
2025-01-03 19:56:31.520861	259.9	25.2	-90.9	3.4
2025-01-03 19:56:32.670658	260.3	25.2	-90.4	3.6
2025-01-03 19:56:33.817563	260.6	25.3	-90.7	4.1
2025-01-03 19:56:34.971136	260.9	25.3	-91.0	5.8
2025-01-03 19:56:36.121759	261.2	25.3	-90.7	8.9
2025-01-03 19:56:37.276497	261.6	25.4	-89.6	7.7
2025-01-03 19:56:38.429008	261.9	25.4	-90.6	8.9
2025-01-03 19:56:39.575654	262.2	25.5	-90.7	10.2
2025-01-03 19:56:40.725670	262.6	25.5	-91.0	9.0
2025-01-03 19:56:41.875103	262.9	25.5	-90.7	10.2
2025-01-03 19:56:43.023573	263.2	25.6	-90.6	11.2
2025-01-03 19:56:44.177010	263.6	25.6	-90.8	12.2
2025-01-03 19:56:45.323846	263.9	25.6	-90.3	9.7
2025-01-03 19:56:46.470713	264.2	25.6	-90.6	9.3
2025-01-03 19:56:47.617757	264.6	25.7	-89.8	8.8
2025-01-03 19:56:48.772091	264.9	25.7	-90.2	6.3
2025-01-03 19:56:49.920025	265.2	25.7	-90.4	9.0
2025-01-03 19:56:51.069463	265.6	25.7	-90.2	8.2
2025-01-03 19:56:52.216353	265.9	25.8	-90.3	5.5
2025-01-03 19:56:53.364416	266.3	25.8	-90.0	7.8
2025-01-03 19:56:54.515186	266.6	25.8	-90.0	9.7
2025-01-03 19:56:55.666421	266.9	25.8	-90.3	6.9
2025-01-03 19:56:56.816238	267.3	25.9	-89.6	5.4
2025-01-03 19:56:57.957515	267.6	25.9	-89.8	11.1
2025-01-03 19:56:59.107085	268.0	25.9	-89.9	10.9
2025-01-03 19:57:00.251237	268.3	25.9	-89.8	8.5
2025-01-03 19:57:01.396383	268.6	25.9	-90.1	8.7
2025-01-03 19:57:02.544337	269.0	25.9	-90.3	10.9
2025-01-03 19:57:03.691514	269.3	25.9	-90.2	14.0
2025-01-03 19:57:04.845670	269.7	26.0	-89.0	7.3
2025-01-03 19:57:05.994842	270.0	26.0	-90.2	11.4
2025-01-03 19:57:07.149760	270.3	26.0	-90.0	12.7
2025-01-03 19:57:08.297142	270.7	26.0	-90.1	12.0
2025-01-03 19:57:09.443950	271.0	26.0	-90.4	11.6
2025-01-03 19:57:10.596753	271.4	26.0	-90.2	11.0
2025-01-03 19:57:11.741141	271.7	26.0	-90.3	4.6
2025-01-03 19:57:12.888685	272.1	26.0	-90.3	6.9
2025-01-03 19:57:14.033470	272.4	26.0	-90.4	10.8
2025-01-03 19:57:15.181272	272.7	26.0	-90.4	5.4
2025-01-03 19:57:16.330541	273.1	26.0	-90.0	6.6
2025-01-03 19:57:17.482747	273.4	26.0	-90.4	6.8
2025-01-03 19:57:18.638725	273.8	26.0	-90.1	3.4
2025-01-03 19:57:19.785535	274.1	26.0	-90.1	4.0
2025-01-03 19:57:20.931590	274.5	26.0	-89.7	5.0
2025-01-03 19:57:22.076556	274.8	26.0	-89.9	3.2
2025-01-03 19:57:23.224491	275.1	26.0	-89.8	3.9
2025-01-03 19:57:24.367994	275.5	26.0	-89.8	5.2
2025-01-03 19:57:25.515961	275.8	26.0	-90.2	4.2
2025-01-03 19:57:26.672255	276.2	26.0	-90.0	4.4
2025-01-03 19:57:27.816808	276.5	26.0	-89.5	2.2
2025-01-03 19:57:28.968622	276.9	26.0	-89.5	3.4
2025-01-03 19:57:30.114614	277.2	26.0	-89.3	3.1
2025-01-03 19:57:31.264264	277.5	25.9	-89.9	4.1
2025-01-03 19:57:32.421148	277.9	25.9	-90.1	3.9
2025-01-03 19:57:33.568324	278.2	25.9	-89.8	4.6
2025-01-03 19:57:34.720841	278.6	25.9	-90.0	2.3
2025-01-03 19:57:35.868937	278.9	25.9	-90.2	3.8
2025-01-03 19:57:37.019554	279.2	25.9	-90.0	3.1
2025-01-03 19:57:38.166740	279.6	25.8	-89.4	3.3
2025-01-03 19:57:39.312290	279.9	25.8	-90.2	4.3
2025-01-03 19:57:40.468125	280.3	25.8	-89.8	6.1
2025-01-03 19:57:41.610092	280.6	25.8	-89.7	5.5
2025-01-03 19:57:42.759592	280.9	25.8	-90.2	7.4
2025-01-03 19:57:43.913160	281.3	25.7	-90.1	3.4
2025-01-03 19:57:45.066119	281.6	25.7	-90.2	4.9
2025-01-03 19:57:46.202161	281.9	25.7	-90.0	0.7
2025-01-03 19:57:47.341925	282.3	25.7	-90.0	3.8
2025-01-03 19:57:48.462399	282.6	25.6	-90.1	5.3
2025-01-03 19:57:49.583630	282.9	25.6	-89.9	5.0
2025-01-03 19:57:50.710303	283.3	25.6	-90.1	4.4
2025-01-03 19:57:51.830737	283.6	25.5	-90.0	4.4
2025-01-03 19:57:52.950779	283.9	25.5	-90.1	3.4
2025-01-03 19:57:54.071110	284.2	25.5	-90.1	5.1
2025-01-03 19:57:55.192633	284.6	25.5	-90.2	6.3
2025-01-03 19:57:56.322430	284.9	25.4	-89.7	6.1
2025-01-03 19:57:57.469856	285.2	25.4	-90.2	3.8
2025-01-03 19:57:58.620268	285.5	25.3	-89.9	2.8
2025-01-03 19:57:59.771516	285.9	25.3	-89.6	2.9
2025-01-03 19:58:00.912280	286.2	25.3	-89.3	7.7
2025-01-03 19:58:02.065585	286.5	25.2	-89.4	5.9
2025-01-03 19:58:03.223653	286.9	25.2	-89.7	6.9
2025-01-03 19:58:04.378716	287.2	25.2	-89.5	8.7
2025-01-03 19:58:05.521348	287.5	25.1	-90.0	4.1
2025-01-03 19:58:06.671733	287.8	25.1	-89.9	4.2
2025-01-03 19:58:07.830341	288.2	25.0	-90.1	9.6
2025-01-03 19:58:08.979678	288.5	25.0	-89.7	4.4
2025-01-03 19:58:10.132175	288.8	24.9	-89.4	7.7
2025-01-03 19:58:11.275657	289.1	24.9	-89.5	5.0
2025-01-03 19:58:12.429118	289.4	24.8	-89.7	6.7
2025-01-03 19:58:13.575275	289.8	24.8	-89.8	7.8
2025-01-03 19:58:14.722159	290.1	24.7	-89.3	6.6
2025-01-03 19:58:15.868634	290.4	24.7	-89.5	9.9
2025-01-03 19:58:17.014578	290.7	24.6	-89.6	9.5
2025-01-03 19:58:18.161060	291.0	24.6	-89.6	4.3
2025-01-03 19:58:19.316445	291.3	24.5	-89.7	10.2
2025-01-03 19:58:20.475337	291.7	24.5	-90.0	6.2
2025-01-03 19:58:21.624792	292.0	24.4	-90.1	4.0
2025-01-03 19:58:22.782935	292.3	24.4	-90.0	6.1
2025-01-03 19:58:23.930140	292.6	24.3	-89.7	11.1
2025-01-03 19:58:25.079216	292.9	24.3	-89.6	4.8
2025-01-03 19:58:26.233719	293.2	24.2	-89.9	5.9
2025-01-03 19:58:27.382005	293.5	24.2	-90.1	8.0
2025-01-03 19:58:28.531296	293.8	24.1	-90.0	4.6
2025-01-03 19:58:29.684865	294.1	24.0	-89.8	4.1
2025-01-03 19:58:30.834177	294.4	24.0	-89.9	6.5
2025-01-03 19:58:31.980680	294.7	23.9	-90.3	4.8
2025-01-03 19:58:33.130606	295.0	23.9	-89.9	9.0
2025-01-03 19:58:34.286503	295.3	23.8	-90.0	5.2
2025-01-03 19:58:35.432854	295.6	23.7	-89.9	13.5
2025-01-03 19:58:36.591650	295.9	23.7	-89.6	5.7
2025-01-03 19:58:37.742470	296.2	23.6	-89.2	8.1
2025-01-03 19:58:38.891815	296.5	23.5	-89.3	10.4
2025-01-03 19:58:40.042370	296.8	23.5	-89.4	9.4
2025-01-03 19:58:41.195462	297.1	23.4	-89.3	2.5
2025-01-03 19:58:42.348165	297.4	23.4	-89.2	4.5
2025-01-03 19:58:43.496736	297.7	23.3	-89.4	9.1
2025-01-03 19:58:44.644014	298.0	23.2	-89.8	4.4
2025-01-03 19:58:45.792356	298.3	23.2	-89.6	4.9
2025-01-03 19:58:46.944606	298.5	23.1	-89.6	4.3
2025-01-03 19:58:48.098849	298.8	23.0	-89.7	4.6
2025-01-03 19:58:49.249936	299.1	22.9	-89.5	2.2
2025-01-03 19:58:50.403406	299.4	22.9	-89.0	2.7
2025-01-03 19:58:51.555081	299.7	22.8	-89.4	6.8
2025-01-03 19:58:52.697323	300.0	22.7	-89.5	3.7
2025-01-03 19:58:53.845048	300.2	22.7	-89.7	3.7
2025-01-03 19:58:55.000126	300.5	22.6	-89.6	3.1
2025-01-03 19:58:56.152859	300.8	22.5	-89.6	6.2
2025-01-03 19:58:57.298554	301.1	22.5	-89.7	3.5
2025-01-03 19:58:58.442021	301.3	22.4	-89.8	3.9
2025-01-03 19:58:59.594543	301.6	22.3	-90.1	4.3
2025-01-03 19:59:00.744354	301.9	22.2	-89.1	1.9
2025-01-03 19:59:01.897028	302.2	22.2	-89.5	1.0
2025-01-03 19:59:03.051886	302.4	22.1	-89.7	4.3
2025-01-03 19:59:04.206461	302.7	22.0	-89.4	2.7
2025-01-03 19:59:05.359648	303.0	21.9	-89.8	5.2
2025-01-03 19:59:06.503712	303.2	21.9	-89.6	4.6
2025-01-03 19:59:07.656368	303.5	21.8	-89.6	2.7
2025-01-03 19:59:08.802519	303.8	21.7	-89.7	3.4
2025-01-03 19:59:09.957869	304.0	21.6	-87.8	4.8
2025-01-03 19:59:11.107848	304.3	21.5	-88.6	4.3
2025-01-03 19:59:12.254867	304.5	21.5	-89.5	2.3
2025-01-03 19:59:13.409322	304.8	21.4	-89.6	1.8
2025-01-03 19:59:14.556092	305.1	21.3	-90.0	4.2
2025-01-03 19:59:15.705759	305.3	21.2	-89.5	1.2
2025-01-03 19:59:16.851094	305.6	21.2	-89.3	2.7
2025-01-03 19:59:18.002814	305.8	21.1	-89.6	3.5
2025-01-03 19:59:19.162562	306.1	21.0	-89.8	4.8
2025-01-03 19:59:20.317077	306.3	20.9	-89.6	1.9
2025-01-03 19:59:21.464461	306.6	20.8	-87.6	3.4
2025-01-03 19:59:22.607192	306.8	20.8	-89.4	4.7
2025-01-03 19:59:23.757849	307.1	20.7	-89.2	4.2
2025-01-03 19:59:24.911184	307.3	20.6	-89.6	3.7
2025-01-03 19:59:26.056998	307.5	20.5	-89.5	3.9
2025-01-03 19:59:27.214358	307.8	20.4	-89.5	3.8
2025-01-03 19:59:28.360790	308.0	20.4	-89.9	4.3
2025-01-03 19:59:29.507937	308.3	20.3	-90.0	3.6
2025-01-03 19:59:30.655610	308.5	20.2	-89.8	4.3
2025-01-03 19:59:31.807381	308.8	20.1	-90.0	4.6
2025-01-03 19:59:32.938695	309.0	20.0	-89.2	3.0
2025-01-03 19:59:34.059302	309.2	19.9	-89.2	2.6
2025-01-03 19:59:35.179769	309.4	19.9	-88.4	3.4
2025-01-03 19:59:36.300171	309.7	19.8	-89.0	3.3
2025-01-03 19:59:37.421249	309.9	19.7	-88.9	2.4
2025-01-03 19:59:38.541956	310.1	19.6	-90.1	4.6
2025-01-03 19:59:39.664574	310.3	19.5	-89.6	3.5
2025-01-03 19:59:40.786649	310.6	19.5	-90.1	2.2
2025-01-03 19:59:41.933418	310.8	19.4	-90.3	2.6
2025-01-03 19:59:43.083441	311.0	19.3	-89.9	3.4
2025-01-03 19:59:44.230176	311.2	19.2	-89.7	2.0
2025-01-03 19:59:45.375520	311.5	19.1	-89.7	1.6
2025-01-03 19:59:46.518510	311.7	19.0	-90.1	3.7
2025-01-03 19:59:47.670284	311.9	19.0	-90.1	5.4
2025-01-03 19:59:48.824582	312.1	18.9	-89.8	2.5
2025-01-03 19:59:49.971168	312.3	18.8	-90.2	6.1
2025-01-03 19:59:51.121350	312.6	18.7	-90.1	4.4
2025-01-03 19:59:52.273319	312.8	18.6	-90.2	1.5
2025-01-03 19:59:53.420826	313.0	18.5	-87.7	3.8
2025-01-03 19:59:54.567597	313.2	18.4	-90.8	6.0
2025-01-03 19:59:55.714185	313.4	18.4	-90.9	5.4
2025-01-03 19:59:56.863372	313.6	18.3	-90.7	7.2
2025-01-03 19:59:58.011036	313.8	18.2	-90.4	4.9
2025-01-03 19:59:59.164305	314.0	18.1	-90.2	6.9
2025-01-03 20:00:00.307102	314.3	18.0	-91.0	4.9
2025-01-03 20:00:01.447487	314.5	17.9	-90.8	4.2
2025-01-03 20:00:02.599966	314.7	17.8	-91.0	2.5
2025-01-03 20:00:03.749621	314.9	17.8	-89.5	2.2
2025-01-03 20:00:04.902727	315.1	17.7	-87.7	3.3
2025-01-03 20:00:06.051015	315.3	17.6	-90.4	3.9
2025-01-03 20:00:07.205045	315.5	17.5	-89.5	2.3
2025-01-03 20:00:08.349478	315.7	17.4	-90.8	3.4
2025-01-03 20:00:09.500657	315.9	17.3	-90.5	4.1
2025-01-03 20:00:10.652339	316.1	17.2	-90.7	3.1
2025-01-03 20:00:11.804982	316.3	17.2	-90.8	1.4
2025-01-03 20:00:12.959344	316.5	17.1	-90.9	2.7
2025-01-03 20:00:14.103331	316.7	17.0	-91.0	2.4
2025-01-03 20:00:15.252636	316.9	16.9	-90.1	2.8
2025-01-03 20:00:16.397374	317.1	16.8	-90.8	3.0
2025-01-03 20:00:17.544712	317.2	16.7	-91.2	3.8
2025-01-03 20:00:18.700970	317.4	16.6	-90.3	2.6
2025-01-03 20:00:19.844232	317.6	16.6	-90.5	3.0
2025-01-03 20:00:20.994745	317.8	16.5	-90.8	2.7
2025-01-03 20:00:22.149867	318.0	16.4	-90.8	4.0
2025-01-03 20:00:23.317206	318.2	16.3	-90.8	3.3
2025-01-03 20:00:24.463182	318.4	16.2	-90.8	4.3
2025-01-03 20:00:25.613114	318.6	16.1	-91.2	4.1
2025-01-03 20:00:26.756834	318.7	16.0	-90.8	2.5
2025-01-03 20:00:27.902127	318.9	16.0	-91.1	3.8
2025-01-03 20:00:29.048088	319.1	15.9	-90.7	3.1
2025-01-03 20:00:30.187966	319.3	15.8	-91.0	2.1
2025-01-03 20:00:31.334878	319.5	15.7	-91.1	1.9
2025-01-03 20:00:32.463109	319.6	15.6	-90.7	3.2
2025-01-03 20:00:33.584440	319.8	15.5	-90.8	2.0
2025-01-03 20:00:34.704759	320.0	15.4	-90.8	3.0
2025-01-03 20:00:35.825741	320.2	15.4	-91.2	3.0
2025-01-03 20:00:36.946331	320.3	15.3	-89.5	2.8
2025-01-03 20:00:38.067168	320.5	15.2	-91.2	2.6
2025-01-03 20:00:39.190369	320.7	15.1	-91.1	3.4
2025-01-03 20:00:40.312870	320.8	15.0	-91.0	3.8
2025-01-03 20:00:41.451854	321.0	14.9	-91.2	3.4
2025-01-03 20:00:42.601668	321.2	14.9	-91.4	1.7
2025-01-03 20:00:43.749757	321.3	14.8	-91.1	2.1
2025-01-03 20:00:44.896827	321.5	14.7	-90.8	5.7
#Closed at: 2025-01-03 19:53:59.764756