passes_logs/2025/01/03/LEX_Murmansk/LEX_Murmansk__20250103_134054_NOAA_18_rec.log

#Pass ID: 20250103_134054_NOAA 18
#Satellite: NOAA 18
#Configuration: NOAA 18
#Start time: 2025-01-03 13:40:49.761093

#LorettStation: 1.0.0 05.05.2024
#Station: LEX_Murmansk
#Location: 33.156738 lon 68.926811 lat
#TLE: 1 28654U 05018A   25002.84587038  .00000654  00000+0  37076-3 0  9991
#TLE: 2 28654  98.8584  84.0197 0013777 213.7552 146.2745 14.13474254 11464

#Time	Az	El	Level	SNR
2025-01-03 13:41:02.041952	31.4	15.9	-91.5	4.4
2025-01-03 13:41:03.195135	31.2	16.0	-91.1	5.0
2025-01-03 13:41:04.349388	31.0	16.1	-90.7	5.1
2025-01-03 13:41:05.501166	30.8	16.2	-91.7	6.9
2025-01-03 13:41:06.654539	30.7	16.3	-92.3	5.4
2025-01-03 13:41:07.816202	30.5	16.3	-91.3	5.9
2025-01-03 13:41:08.971127	30.3	16.4	-91.6	4.7
2025-01-03 13:41:10.129833	30.1	16.5	-91.1	4.0
2025-01-03 13:41:11.287017	29.9	16.6	-91.5	6.5
2025-01-03 13:41:12.444172	29.7	16.7	-91.7	3.3
2025-01-03 13:41:13.599457	29.5	16.8	-91.9	6.4
2025-01-03 13:41:14.752269	29.4	16.9	-91.7	8.8
2025-01-03 13:41:15.911175	29.2	17.0	-92.1	4.4
2025-01-03 13:41:17.071495	29.0	17.0	-91.4	9.2
2025-01-03 13:41:18.226646	28.8	17.1	-91.5	9.5
2025-01-03 13:41:19.386933	28.6	17.2	-92.0	8.3
2025-01-03 13:41:20.545023	28.4	17.3	-92.4	6.3
2025-01-03 13:41:21.711041	28.2	17.4	-91.8	7.3
2025-01-03 13:41:22.861285	28.0	17.5	-92.1	9.5
2025-01-03 13:41:24.019360	27.8	17.6	-92.5	8.5
2025-01-03 13:41:25.182727	27.6	17.6	-91.7	10.9
2025-01-03 13:41:26.339509	27.4	17.7	-91.3	9.0
2025-01-03 13:41:27.501332	27.2	17.8	-91.8	11.6
2025-01-03 13:41:28.660282	27.0	17.9	-92.2	11.5
2025-01-03 13:41:29.816296	26.8	18.0	-92.5	12.7
2025-01-03 13:41:30.981643	26.6	18.1	-92.2	5.8
2025-01-03 13:41:32.139207	26.4	18.2	-92.1	6.6
2025-01-03 13:41:33.294290	26.2	18.2	-92.0	11.5
2025-01-03 13:41:34.443258	26.0	18.3	-92.5	9.6
2025-01-03 13:41:35.605362	25.8	18.4	-92.6	7.7
2025-01-03 13:41:36.760350	25.6	18.5	-92.4	12.1
2025-01-03 13:41:37.915998	25.3	18.6	-92.4	9.4
2025-01-03 13:41:39.078585	25.1	18.7	-92.1	12.0
2025-01-03 13:41:40.240002	24.9	18.8	-92.1	7.3
2025-01-03 13:41:41.397426	24.7	18.8	-92.7	7.8
2025-01-03 13:41:42.558870	24.5	18.9	-92.6	7.7
2025-01-03 13:41:43.715331	24.3	19.0	-92.8	7.6
2025-01-03 13:41:44.885439	24.0	19.1	-91.7	11.7
2025-01-03 13:41:46.048578	23.8	19.2	-90.7	9.6
2025-01-03 13:41:47.205314	23.6	19.3	-91.0	12.0
2025-01-03 13:41:48.358340	23.4	19.4	-90.8	13.1
2025-01-03 13:41:49.517787	23.2	19.4	-90.8	11.0
2025-01-03 13:41:50.672978	22.9	19.5	-91.6	12.0
2025-01-03 13:41:51.831667	22.7	19.6	-91.5	11.2
2025-01-03 13:41:52.982899	22.5	19.7	-92.6	9.7
2025-01-03 13:41:54.146426	22.2	19.8	-91.9	6.6
2025-01-03 13:41:55.306508	22.0	19.8	-92.2	10.7
2025-01-03 13:41:56.465744	21.8	19.9	-92.0	4.3
2025-01-03 13:41:57.621673	21.6	20.0	-91.5	4.3
2025-01-03 13:41:58.774975	21.3	20.1	-91.7	10.0
2025-01-03 13:41:59.926564	21.1	20.2	-91.8	5.9
2025-01-03 13:42:01.074392	20.9	20.3	-91.8	8.4
2025-01-03 13:42:02.229759	20.6	20.3	-91.5	11.1
2025-01-03 13:42:03.382103	20.4	20.4	-91.5	11.7
2025-01-03 13:42:04.538248	20.1	20.5	-92.1	13.3
2025-01-03 13:42:05.692517	19.9	20.6	-91.8	11.7
2025-01-03 13:42:06.847658	19.7	20.7	-91.6	13.2
2025-01-03 13:42:08.010469	19.4	20.7	-91.8	8.8
2025-01-03 13:42:09.167010	19.2	20.8	-91.4	10.0
2025-01-03 13:42:10.330522	18.9	20.9	-91.3	10.3
2025-01-03 13:42:11.495839	18.7	21.0	-91.8	8.8
2025-01-03 13:42:12.646704	18.4	21.1	-91.9	9.0
2025-01-03 13:42:13.804296	18.2	21.1	-91.7	10.6
2025-01-03 13:42:14.964555	17.9	21.2	-91.6	13.5
2025-01-03 13:42:16.121880	17.7	21.3	-91.2	12.6
2025-01-03 13:42:17.275496	17.4	21.4	-92.3	11.5
2025-01-03 13:42:18.432100	17.2	21.4	-92.2	8.4
2025-01-03 13:42:19.587810	16.9	21.5	-92.5	8.4
2025-01-03 13:42:20.743675	16.6	21.6	-92.7	9.8
2025-01-03 13:42:21.904280	16.4	21.7	-92.7	10.3
2025-01-03 13:42:23.057240	16.1	21.7	-92.5	6.1
2025-01-03 13:42:24.221623	15.9	21.8	-92.4	6.9
2025-01-03 13:42:25.378781	15.6	21.9	-92.6	10.5
2025-01-03 13:42:26.532369	15.3	22.0	-92.9	6.9
2025-01-03 13:42:27.690083	15.1	22.0	-92.7	9.5
2025-01-03 13:42:28.844435	14.8	22.1	-92.2	10.3
2025-01-03 13:42:30.006603	14.5	22.2	-92.3	14.1
2025-01-03 13:42:31.167350	14.3	22.3	-92.3	12.4
2025-01-03 13:42:32.326583	14.0	22.3	-92.2	14.7
2025-01-03 13:42:33.478572	13.7	22.4	-92.4	11.0
2025-01-03 13:42:34.637381	13.4	22.5	-92.2	9.3
2025-01-03 13:42:35.798740	13.2	22.5	-92.6	14.9
2025-01-03 13:42:36.958186	12.9	22.6	-92.1	11.0
2025-01-03 13:42:38.117613	12.6	22.7	-91.9	11.7
2025-01-03 13:42:39.266813	12.3	22.7	-92.1	14.9
2025-01-03 13:42:40.418980	12.1	22.8	-92.5	12.2
2025-01-03 13:42:41.577246	11.8	22.9	-92.5	18.1
2025-01-03 13:42:42.734256	11.5	22.9	-92.3	18.2
2025-01-03 13:42:43.895308	11.2	23.0	-92.7	15.5
2025-01-03 13:42:45.046834	10.9	23.1	-92.6	12.2
2025-01-03 13:42:46.204909	10.7	23.1	-91.8	15.2
2025-01-03 13:42:47.365697	10.4	23.2	-91.5	12.4
2025-01-03 13:42:48.522237	10.1	23.3	-91.9	8.8
2025-01-03 13:42:49.681481	9.8	23.3	-91.4	15.3
2025-01-03 13:42:50.843565	9.5	23.4	-92.1	16.0
2025-01-03 13:42:52.001479	9.2	23.5	-91.6	7.6
2025-01-03 13:42:53.156830	8.9	23.5	-91.6	8.1
2025-01-03 13:42:54.313596	8.6	23.6	-91.7	12.7
2025-01-03 13:42:55.469890	8.3	23.6	-92.4	11.1
2025-01-03 13:42:56.628516	8.0	23.7	-92.6	11.1
2025-01-03 13:42:57.781234	7.7	23.8	-92.5	15.5
2025-01-03 13:42:58.941393	7.4	23.8	-92.2	14.2
2025-01-03 13:43:00.094174	7.1	23.9	-92.1	16.1
2025-01-03 13:43:01.244347	6.8	23.9	-92.3	15.7
2025-01-03 13:43:02.400278	6.5	24.0	-92.6	16.5
2025-01-03 13:43:03.554826	6.2	24.0	-92.6	13.4
2025-01-03 13:43:04.712243	5.9	24.1	-92.7	16.0
2025-01-03 13:43:05.868925	5.6	24.1	-92.8	15.0
2025-01-03 13:43:07.030304	5.3	24.2	-92.6	11.1
2025-01-03 13:43:08.191218	5.0	24.2	-92.0	12.6
2025-01-03 13:43:09.348297	4.7	24.3	-91.2	13.5
2025-01-03 13:43:10.504203	4.4	24.3	-92.0	10.2
2025-01-03 13:43:11.667669	4.1	24.4	-92.0	11.9
2025-01-03 13:43:12.823440	3.8	24.4	-91.9	14.4
2025-01-03 13:43:13.981221	3.5	24.5	-92.0	14.2
2025-01-03 13:43:15.138834	3.2	24.5	-92.1	12.4
2025-01-03 13:43:16.295184	2.8	24.6	-91.2	14.8
2025-01-03 13:43:17.453043	2.5	24.6	-91.9	13.1
2025-01-03 13:43:18.615630	2.2	24.7	-91.8	14.4
2025-01-03 13:43:19.777669	1.9	24.7	-92.0	15.9
2025-01-03 13:43:20.927417	1.6	24.7	-91.5	11.2
2025-01-03 13:43:22.082746	1.3	24.8	-91.3	9.2
2025-01-03 13:43:23.236275	1.0	24.8	-91.5	14.4
2025-01-03 13:43:24.392528	0.6	24.9	-91.8	14.5
2025-01-03 13:43:25.553974	0.3	24.9	-92.1	10.6
2025-01-03 13:43:26.706124	360.0	24.9	-91.9	9.8
2025-01-03 13:43:27.865687	359.7	25.0	-92.0	14.8
2025-01-03 13:43:29.024170	359.3	25.0	-92.1	10.3
2025-01-03 13:43:30.183963	359.0	25.1	-91.5	12.3
2025-01-03 13:43:31.343403	358.7	25.1	-91.9	13.7
2025-01-03 13:43:32.494664	358.4	25.1	-92.7	9.3
2025-01-03 13:43:33.653572	358.1	25.2	-92.7	8.8
2025-01-03 13:43:34.821729	357.7	25.2	-92.9	15.8
2025-01-03 13:43:35.981608	357.4	25.2	-92.5	13.5
2025-01-03 13:43:37.143262	357.1	25.2	-92.2	12.6
2025-01-03 13:43:38.299263	356.7	25.3	-92.2	15.4
2025-01-03 13:43:39.450808	356.4	25.3	-92.6	17.1
2025-01-03 13:43:40.610250	356.1	25.3	-92.5	17.9
2025-01-03 13:43:41.762488	355.8	25.3	-92.9	15.6
2025-01-03 13:43:42.917059	355.4	25.4	-92.5	16.4
2025-01-03 13:43:44.075550	355.1	25.4	-92.0	16.2
2025-01-03 13:43:45.233964	354.8	25.4	-92.3	17.0
2025-01-03 13:43:46.386462	354.4	25.4	-92.7	16.5
2025-01-03 13:43:47.544732	354.1	25.5	-92.9	15.1
2025-01-03 13:43:48.707404	353.8	25.5	-92.7	14.9
2025-01-03 13:43:49.863591	353.4	25.5	-92.6	17.9
2025-01-03 13:43:51.021958	353.1	25.5	-92.5	9.5
2025-01-03 13:43:52.181787	352.8	25.5	-92.3	12.2
2025-01-03 13:43:53.339792	352.4	25.5	-92.2	13.9
2025-01-03 13:43:54.500716	352.1	25.5	-92.7	8.4
2025-01-03 13:43:55.659570	351.8	25.6	-92.6	11.6
2025-01-03 13:43:56.820131	351.4	25.6	-89.6	10.6
2025-01-03 13:43:57.979302	351.1	25.6	-92.5	10.1
2025-01-03 13:43:59.135423	350.8	25.6	-92.3	9.9
2025-01-03 13:44:00.286431	350.4	25.6	-92.5	13.7
2025-01-03 13:44:01.448318	350.1	25.6	-92.7	11.9
2025-01-03 13:44:02.607832	349.8	25.6	-92.8	13.4
2025-01-03 13:44:03.759724	349.4	25.6	-92.7	16.9
2025-01-03 13:44:04.920362	349.1	25.6	-92.6	13.6
2025-01-03 13:44:06.078711	348.8	25.6	-92.1	14.8
2025-01-03 13:44:07.238638	348.4	25.6	-92.2	15.7
2025-01-03 13:44:08.396074	348.1	25.6	-92.4	13.8
2025-01-03 13:44:09.553266	347.8	25.6	-92.7	15.0
2025-01-03 13:44:10.709409	347.4	25.6	-92.0	11.2
2025-01-03 13:44:11.870916	347.1	25.6	-92.5	11.1
2025-01-03 13:44:13.028247	346.7	25.6	-92.4	8.4
2025-01-03 13:44:14.172274	346.4	25.6	-92.0	7.9
2025-01-03 13:44:15.333744	346.1	25.6	-92.2	7.2
2025-01-03 13:44:16.492108	345.7	25.6	-92.5	7.5
2025-01-03 13:44:17.648357	345.4	25.6	-92.2	10.2
2025-01-03 13:44:18.800221	345.1	25.6	-92.7	11.4
2025-01-03 13:44:19.960478	344.7	25.6	-92.6	8.9
2025-01-03 13:44:21.113743	344.4	25.6	-92.2	10.1
2025-01-03 13:44:22.271478	344.1	25.5	-92.4	14.0
2025-01-03 13:44:23.430446	343.7	25.5	-92.5	11.7
2025-01-03 13:44:24.585532	343.4	25.5	-92.6	9.1
2025-01-03 13:44:25.742291	343.1	25.5	-92.9	12.2
2025-01-03 13:44:26.906573	342.7	25.5	-92.8	10.7
2025-01-03 13:44:28.064840	342.4	25.5	-92.5	7.8
2025-01-03 13:44:29.222947	342.1	25.4	-92.0	13.0
2025-01-03 13:44:30.377399	341.7	25.4	-92.3	9.4
2025-01-03 13:44:31.540137	341.4	25.4	-92.6	6.9
2025-01-03 13:44:32.692821	341.1	25.4	-91.9	11.2
2025-01-03 13:44:33.859666	340.8	25.4	-92.4	12.5
2025-01-03 13:44:35.023549	340.4	25.3	-93.0	8.4
2025-01-03 13:44:36.185183	340.1	25.3	-92.5	10.7
2025-01-03 13:44:37.337013	339.8	25.3	-92.4	12.1
2025-01-03 13:44:38.496545	339.4	25.2	-92.7	6.5
2025-01-03 13:44:39.652289	339.1	25.2	-92.7	8.2
2025-01-03 13:44:40.807245	338.8	25.2	-92.5	14.1
2025-01-03 13:44:41.965881	338.5	25.2	-92.5	7.7
2025-01-03 13:44:43.124415	338.1	25.1	-92.3	9.6
2025-01-03 13:44:44.287840	337.8	25.1	-92.5	10.9
2025-01-03 13:44:45.450012	337.5	25.1	-92.1	10.6
2025-01-03 13:44:46.604791	337.2	25.0	-91.9	8.5
2025-01-03 13:44:47.767548	336.8	25.0	-92.0	12.3
2025-01-03 13:44:48.930044	336.5	25.0	-92.3	9.6
2025-01-03 13:44:50.091782	336.2	24.9	-91.8	8.6
2025-01-03 13:44:51.244124	335.9	24.9	-91.5	10.7
2025-01-03 13:44:52.404006	335.5	24.8	-92.0	13.4
2025-01-03 13:44:53.559782	335.2	24.8	-92.1	6.8
2025-01-03 13:44:54.720128	334.9	24.8	-91.7	15.6
2025-01-03 13:44:55.884293	334.6	24.7	-92.3	13.2
2025-01-03 13:44:57.041628	334.3	24.7	-92.0	9.0
2025-01-03 13:44:58.196269	334.0	24.6	-91.9	14.5
2025-01-03 13:44:59.359465	333.6	24.6	-92.4	10.7
2025-01-03 13:45:00.506483	333.3	24.5	-92.0	8.3
2025-01-03 13:45:01.664646	333.0	24.5	-92.3	6.9
2025-01-03 13:45:02.824929	332.7	24.5	-92.1	10.7
2025-01-03 13:45:03.983882	332.4	24.4	-92.5	9.4
2025-01-03 13:45:05.142962	332.1	24.4	-91.8	11.9
2025-01-03 13:45:06.296556	331.8	24.3	-91.9	12.4
2025-01-03 13:45:07.456206	331.5	24.3	-92.5	11.4
2025-01-03 13:45:08.614435	331.2	24.2	-92.7	11.0
2025-01-03 13:45:09.779050	330.8	24.2	-92.4	16.1
2025-01-03 13:45:10.933438	330.5	24.1	-92.5	12.8
2025-01-03 13:45:12.092914	330.2	24.0	-92.4	8.9
2025-01-03 13:45:13.244703	329.9	24.0	-92.3	11.2
2025-01-03 13:45:14.407014	329.6	23.9	-92.1	11.5
2025-01-03 13:45:15.566929	329.3	23.9	-92.2	13.3
2025-01-03 13:45:16.723732	329.0	23.8	-92.6	14.6
2025-01-03 13:45:17.884550	328.7	23.8	-92.5	10.6
2025-01-03 13:45:19.043289	328.4	23.7	-92.4	12.9
2025-01-03 13:45:20.200362	328.1	23.7	-92.1	11.8
2025-01-03 13:45:21.352129	327.8	23.6	-92.5	16.9
2025-01-03 13:45:22.507747	327.5	23.5	-92.5	10.8
2025-01-03 13:45:23.659839	327.3	23.5	-92.3	12.9
2025-01-03 13:45:24.819523	327.0	23.4	-92.9	13.7
2025-01-03 13:45:25.970007	326.7	23.3	-92.5	11.2
2025-01-03 13:45:27.128921	326.4	23.3	-92.0	9.7
2025-01-03 13:45:28.286595	326.1	23.2	-92.3	11.2
2025-01-03 13:45:29.439084	325.8	23.2	-92.0	8.4
2025-01-03 13:45:30.596070	325.5	23.1	-92.7	9.3
2025-01-03 13:45:31.758844	325.2	23.0	-92.4	13.6
2025-01-03 13:45:32.914202	324.9	23.0	-92.6	12.1
2025-01-03 13:45:34.069938	324.7	22.9	-92.5	9.4
2025-01-03 13:45:35.226091	324.4	22.8	-92.6	13.0
2025-01-03 13:45:36.386914	324.1	22.8	-92.6	8.7
2025-01-03 13:45:37.541841	323.8	22.7	-92.8	5.3
2025-01-03 13:45:38.705108	323.5	22.6	-92.9	8.4
2025-01-03 13:45:39.860449	323.3	22.6	-92.8	6.6
2025-01-03 13:45:41.018049	323.0	22.5	-92.8	7.8
2025-01-03 13:45:42.172832	322.7	22.4	-92.7	7.8
2025-01-03 13:45:43.335424	322.4	22.3	-92.4	9.3
2025-01-03 13:45:44.496629	322.2	22.3	-92.7	10.5
2025-01-03 13:45:45.654253	321.9	22.2	-92.6	10.1
2025-01-03 13:45:46.813137	321.6	22.1	-92.4	11.9
2025-01-03 13:45:47.973466	321.4	22.1	-92.3	9.0
2025-01-03 13:45:49.127936	321.1	22.0	-91.6	6.1
2025-01-03 13:45:50.287076	320.8	21.9	-91.7	6.5
2025-01-03 13:45:51.447646	320.6	21.8	-92.2	10.8
2025-01-03 13:45:52.609588	320.3	21.8	-92.4	10.1
2025-01-03 13:45:53.758485	320.0	21.7	-92.4	10.0
2025-01-03 13:45:54.924072	319.8	21.6	-92.7	7.5
2025-01-03 13:45:56.082969	319.5	21.5	-92.8	12.1
2025-01-03 13:45:57.239060	319.3	21.5	-92.1	9.7
2025-01-03 13:45:58.398358	319.0	21.4	-92.1	10.0
2025-01-03 13:45:59.545652	318.7	21.3	-92.7	11.8
2025-01-03 13:46:00.669531	318.5	21.2	-92.5	8.7
2025-01-03 13:46:01.792962	318.3	21.1	-92.5	12.0
2025-01-03 13:46:02.928844	318.0	21.1	-92.8	11.7
2025-01-03 13:46:04.072453	317.8	21.0	-92.6	8.7
2025-01-03 13:46:05.209254	317.5	20.9	-92.6	8.6
2025-01-03 13:46:06.359508	317.3	20.8	-92.1	6.3
2025-01-03 13:46:07.505293	317.0	20.8	-92.6	6.0
2025-01-03 13:46:08.630044	316.8	20.7	-92.4	8.3
2025-01-03 13:46:09.785496	316.5	20.6	-92.6	9.1
2025-01-03 13:46:10.945010	316.3	20.5	-92.6	6.0
2025-01-03 13:46:12.098552	316.1	20.4	-92.5	6.9
2025-01-03 13:46:13.248307	315.8	20.4	-92.2	7.7
2025-01-03 13:46:14.410840	315.6	20.3	-92.8	8.3
2025-01-03 13:46:15.567575	315.3	20.2	-92.8	4.7
2025-01-03 13:46:16.727676	315.1	20.1	-92.8	4.5
2025-01-03 13:46:17.885124	314.9	20.0	-92.8	5.3
2025-01-03 13:46:19.042735	314.6	19.9	-93.0	5.1
2025-01-03 13:46:20.194668	314.4	19.9	-92.2	4.4
2025-01-03 13:46:21.355645	314.2	19.8	-92.1	5.8
2025-01-03 13:46:22.513961	313.9	19.7	-92.8	4.9
2025-01-03 13:46:23.672365	313.7	19.6	-92.7	6.5
2025-01-03 13:46:24.810478	313.5	19.5	-92.9	7.7
2025-01-03 13:46:25.976293	313.3	19.5	-93.0	7.9
2025-01-03 13:46:27.133360	313.0	19.4	-92.7	4.2
2025-01-03 13:46:28.289937	312.8	19.3	-92.6	8.3
2025-01-03 13:46:29.446719	312.6	19.2	-92.9	7.1
2025-01-03 13:46:30.608310	312.4	19.1	-92.9	5.6
2025-01-03 13:46:31.766040	312.1	19.0	-92.6	7.6
2025-01-03 13:46:32.914563	311.9	18.9	-93.0	10.1
2025-01-03 13:46:34.053871	311.7	18.9	-92.4	9.5
2025-01-03 13:46:35.174221	311.5	18.8	-92.2	11.0
2025-01-03 13:46:36.295549	311.3	18.7	-92.2	11.1
2025-01-03 13:46:37.416118	311.1	18.6	-92.4	10.6
2025-01-03 13:46:38.536264	310.9	18.5	-92.4	9.7
2025-01-03 13:46:39.656367	310.7	18.4	-92.6	8.3
2025-01-03 13:46:40.776512	310.5	18.4	-92.2	7.1
2025-01-03 13:46:41.898381	310.3	18.3	-92.3	11.3
2025-01-03 13:46:43.045061	310.1	18.2	-92.1	6.6
2025-01-03 13:46:44.198763	309.8	18.1	-92.4	4.3
2025-01-03 13:46:45.351820	309.6	18.0	-92.5	11.0
2025-01-03 13:46:46.506291	309.4	17.9	-92.6	8.9
2025-01-03 13:46:47.666373	309.2	17.9	-92.4	6.6
2025-01-03 13:46:48.824879	309.0	17.8	-92.5	7.9
2025-01-03 13:46:49.986074	308.8	17.7	-92.8	7.3
2025-01-03 13:46:51.148776	308.6	17.6	-92.7	6.2
2025-01-03 13:46:52.308545	308.4	17.5	-92.4	9.6
2025-01-03 13:46:53.463672	308.2	17.4	-92.4	6.7
2025-01-03 13:46:54.622224	308.0	17.3	-92.7	8.1
2025-01-03 13:46:55.780616	307.8	17.2	-92.6	6.0
2025-01-03 13:46:56.936139	307.6	17.2	-92.2	4.2
2025-01-03 13:46:58.093928	307.4	17.1	-92.2	8.3
2025-01-03 13:46:59.251536	307.3	17.0	-92.5	7.9
2025-01-03 13:47:00.400908	307.1	16.9	-92.3	8.4
2025-01-03 13:47:01.558289	306.9	16.8	-92.8	12.0
2025-01-03 13:47:02.714485	306.7	16.7	-92.5	13.0
2025-01-03 13:47:03.873683	306.5	16.6	-92.8	10.4
2025-01-03 13:47:05.023451	306.3	16.6	-92.7	10.1
2025-01-03 13:47:06.178928	306.1	16.5	-92.4	11.5
2025-01-03 13:47:07.344825	305.9	16.4	-92.5	13.0
2025-01-03 13:47:08.494464	305.8	16.3	-92.3	11.0
2025-01-03 13:47:09.636115	305.6	16.2	-92.7	8.4
2025-01-03 13:47:10.793369	305.4	16.1	-92.8	7.2
2025-01-03 13:47:11.950077	305.2	16.0	-93.0	7.0
2025-01-03 13:47:13.109115	305.0	15.9	-92.7	7.9
2025-01-03 13:47:14.265877	304.9	15.9	-92.4	14.9
2025-01-03 13:47:15.424096	304.7	15.8	-92.6	9.8
2025-01-03 13:47:16.573669	304.5	15.7	-92.3	7.8
2025-01-03 13:47:17.725287	304.3	15.6	-92.5	10.5
2025-01-03 13:47:18.885603	304.2	15.5	-92.5	9.6
2025-01-03 13:47:20.043600	304.0	15.4	-92.3	6.6
2025-01-03 13:47:21.204178	303.8	15.3	-92.1	8.3
2025-01-03 13:47:22.358412	303.6	15.2	-92.1	11.3
2025-01-03 13:47:23.493930	303.5	15.2	-92.7	7.3
2025-01-03 13:47:24.638138	303.3	15.1	-92.6	14.5
2025-01-03 13:47:25.794604	303.1	15.0	-92.2	7.5
2025-01-03 13:47:26.953345	303.0	14.9	-92.2	5.6
2025-01-03 13:47:28.116810	302.8	14.8	-92.2	6.7
2025-01-03 13:47:29.271098	302.6	14.7	-92.1	7.6
2025-01-03 13:47:30.418303	302.5	14.6	-92.4	8.3
#Closed at: 2025-01-03 13:40:54.838819