passes_logs/2025/01/03/LEX_Murmansk/LEX_Murmansk__20250103_152017_NOAA_18_rec.log

#Pass ID: 20250103_152017_NOAA 18
#Satellite: NOAA 18
#Configuration: NOAA 18
#Start time: 2025-01-03 15:20:12.279289

#LorettStation: 1.0.0 05.05.2024
#Station: LEX_Murmansk
#Location: 33.156738 lon 68.926811 lat
#TLE: 1 28654U 05018A   25002.84587038  .00000654  00000+0  37076-3 0  9991
#TLE: 2 28654  98.8584  84.0197 0013777 213.7552 146.2745 14.13474254 11464

#Time	Az	El	Level	SNR
2025-01-03 15:20:28.947997	55.4	16.3	-92.0	7.2
2025-01-03 15:20:30.109715	55.2	16.3	-91.8	5.4
2025-01-03 15:20:31.279121	55.0	16.4	-92.0	4.2
2025-01-03 15:20:32.445824	54.8	16.5	-92.3	5.9
2025-01-03 15:20:33.611176	54.7	16.6	-92.0	6.1
2025-01-03 15:20:34.779389	54.5	16.7	-91.8	6.7
2025-01-03 15:20:35.941151	54.3	16.8	-91.7	3.6
2025-01-03 15:20:37.103154	54.1	16.9	-91.9	4.9
2025-01-03 15:20:38.269083	53.9	17.0	-91.6	13.8
2025-01-03 15:20:39.433305	53.7	17.0	-92.0	8.4
2025-01-03 15:20:40.599819	53.5	17.1	-91.8	9.6
2025-01-03 15:20:41.764326	53.3	17.2	-92.3	10.2
2025-01-03 15:20:42.933016	53.1	17.3	-92.4	15.9
2025-01-03 15:20:44.088595	52.9	17.4	-91.4	12.2
2025-01-03 15:20:45.255070	52.7	17.5	-91.5	13.4
2025-01-03 15:20:46.418654	52.5	17.6	-92.1	9.2
2025-01-03 15:20:47.574432	52.3	17.7	-92.4	10.7
2025-01-03 15:20:48.742091	52.1	17.7	-92.1	9.1
2025-01-03 15:20:49.907443	51.9	17.8	-92.4	13.1
2025-01-03 15:20:51.070632	51.7	17.9	-91.9	12.0
2025-01-03 15:20:52.235368	51.5	18.0	-91.9	12.7
2025-01-03 15:20:53.404476	51.3	18.1	-91.8	13.6
2025-01-03 15:20:54.570104	51.1	18.2	-92.2	9.2
2025-01-03 15:20:55.736130	50.9	18.3	-92.5	10.5
2025-01-03 15:20:56.901818	50.7	18.4	-92.4	7.7
2025-01-03 15:20:58.058093	50.5	18.4	-92.0	3.8
2025-01-03 15:20:59.225129	50.3	18.5	-91.7	9.3
2025-01-03 15:21:00.377023	50.1	18.6	-91.4	10.3
2025-01-03 15:21:01.537106	49.9	18.7	-92.2	7.0
2025-01-03 15:21:02.698056	49.7	18.8	-92.2	7.8
2025-01-03 15:21:03.860635	49.4	18.9	-92.4	10.6
2025-01-03 15:21:05.026939	49.2	19.0	-92.3	12.2
2025-01-03 15:21:06.189426	49.0	19.0	-92.1	12.6
2025-01-03 15:21:07.351737	48.8	19.1	-92.0	9.5
2025-01-03 15:21:08.520379	48.6	19.2	-92.1	7.8
2025-01-03 15:21:09.686614	48.3	19.3	-91.7	8.6
2025-01-03 15:21:10.843851	48.1	19.4	-92.5	14.1
2025-01-03 15:21:12.006754	47.9	19.5	-92.1	9.7
2025-01-03 15:21:13.170799	47.7	19.5	-91.3	9.0
2025-01-03 15:21:14.337965	47.4	19.6	-92.0	13.2
2025-01-03 15:21:15.502970	47.2	19.7	-91.9	12.9
2025-01-03 15:21:16.671365	47.0	19.8	-92.6	9.3
2025-01-03 15:21:17.826301	46.8	19.9	-92.3	10.9
2025-01-03 15:21:18.989911	46.5	20.0	-92.2	7.1
2025-01-03 15:21:20.157327	46.3	20.1	-91.4	4.3
2025-01-03 15:21:21.324038	46.1	20.1	-92.2	7.2
2025-01-03 15:21:22.490503	45.8	20.2	-92.4	4.8
2025-01-03 15:21:23.652201	45.6	20.3	-92.2	2.8
2025-01-03 15:21:24.813145	45.3	20.4	-92.3	10.8
2025-01-03 15:21:25.978888	45.1	20.5	-92.3	8.2
2025-01-03 15:21:27.140888	44.9	20.5	-91.4	4.9
2025-01-03 15:21:28.302040	44.6	20.6	-91.9	8.2
2025-01-03 15:21:29.467170	44.4	20.7	-92.5	8.0
2025-01-03 15:21:30.629499	44.1	20.8	-92.6	13.4
2025-01-03 15:21:31.799311	43.9	20.9	-92.0	12.4
2025-01-03 15:21:32.957139	43.6	21.0	-92.1	11.2
2025-01-03 15:21:34.120921	43.4	21.0	-91.8	10.8
2025-01-03 15:21:35.290614	43.1	21.1	-91.2	13.0
2025-01-03 15:21:36.449767	42.9	21.2	-92.1	10.9
2025-01-03 15:21:37.611573	42.6	21.3	-91.9	10.8
2025-01-03 15:21:38.772558	42.4	21.3	-92.3	14.6
2025-01-03 15:21:39.933398	42.1	21.4	-92.3	12.0
2025-01-03 15:21:41.095770	41.9	21.5	-91.1	11.1
2025-01-03 15:21:42.256988	41.6	21.6	-91.5	11.5
2025-01-03 15:21:43.424200	41.4	21.7	-91.8	9.8
2025-01-03 15:21:44.583175	41.1	21.7	-91.7	9.7
2025-01-03 15:21:45.745431	40.8	21.8	-91.0	10.6
2025-01-03 15:21:46.908295	40.6	21.9	-91.0	11.5
2025-01-03 15:21:48.068204	40.3	22.0	-90.2	6.2
2025-01-03 15:21:49.229466	40.0	22.0	-90.0	10.8
2025-01-03 15:21:50.398817	39.8	22.1	-89.5	10.4
2025-01-03 15:21:51.560323	39.5	22.2	-89.9	7.5
2025-01-03 15:21:52.729477	39.2	22.3	-91.2	11.3
2025-01-03 15:21:53.897659	39.0	22.3	-90.7	8.8
2025-01-03 15:21:55.061820	38.7	22.4	-90.4	12.7
2025-01-03 15:21:56.230990	38.4	22.5	-90.4	14.3
2025-01-03 15:21:57.388409	38.1	22.6	-90.5	10.4
2025-01-03 15:21:58.549747	37.9	22.6	-89.9	11.7
2025-01-03 15:21:59.713545	37.6	22.7	-90.4	10.5
2025-01-03 15:22:00.869181	37.3	22.8	-90.8	9.0
2025-01-03 15:22:02.029716	37.0	22.8	-90.9	6.2
2025-01-03 15:22:03.188952	36.8	22.9	-90.2	8.7
2025-01-03 15:22:04.350924	36.5	23.0	-90.8	11.1
2025-01-03 15:22:05.512845	36.2	23.0	-91.0	10.1
2025-01-03 15:22:06.677373	35.9	23.1	-90.7	9.0
2025-01-03 15:22:07.848198	35.6	23.2	-91.1	11.9
2025-01-03 15:22:09.012853	35.3	23.2	-90.3	11.7
2025-01-03 15:22:10.177387	35.0	23.3	-90.2	10.4
2025-01-03 15:22:11.350723	34.8	23.4	-90.3	10.1
2025-01-03 15:22:12.515038	34.5	23.4	-90.8	12.1
2025-01-03 15:22:13.680885	34.2	23.5	-91.6	10.0
2025-01-03 15:22:14.846422	33.9	23.6	-92.0	11.7
2025-01-03 15:22:16.011853	33.6	23.6	-91.7	8.9
2025-01-03 15:22:17.173370	33.3	23.7	-90.9	4.9
2025-01-03 15:22:18.334905	33.0	23.7	-91.5	9.8
2025-01-03 15:22:19.510121	32.7	23.8	-92.2	6.2
2025-01-03 15:22:20.675380	32.4	23.9	-91.8	7.7
2025-01-03 15:22:21.848406	32.1	23.9	-91.8	13.4
2025-01-03 15:22:23.013605	31.8	24.0	-91.2	9.1
2025-01-03 15:22:24.177557	31.5	24.0	-91.6	10.9
2025-01-03 15:22:25.335619	31.2	24.1	-91.5	12.7
2025-01-03 15:22:26.499462	30.9	24.1	-92.2	11.2
2025-01-03 15:22:27.665659	30.6	24.2	-91.7	15.4
2025-01-03 15:22:28.826902	30.3	24.3	-92.0	12.7
2025-01-03 15:22:29.993676	30.0	24.3	-92.0	13.1
2025-01-03 15:22:31.158582	29.7	24.4	-91.5	11.7
2025-01-03 15:22:32.321926	29.3	24.4	-91.4	8.9
2025-01-03 15:22:33.489091	29.0	24.5	-91.4	8.6
2025-01-03 15:22:34.650356	28.7	24.5	-91.9	8.3
2025-01-03 15:22:35.816883	28.4	24.6	-92.1	14.2
2025-01-03 15:22:36.977361	28.1	24.6	-92.1	7.5
2025-01-03 15:22:38.136495	27.8	24.7	-91.6	9.4
2025-01-03 15:22:39.301775	27.5	24.7	-91.6	16.0
2025-01-03 15:22:40.465034	27.2	24.8	-91.6	13.8
2025-01-03 15:22:41.632624	26.8	24.8	-91.7	11.0
2025-01-03 15:22:42.800540	26.5	24.8	-91.8	13.8
2025-01-03 15:22:43.968656	26.2	24.9	-92.0	15.5
2025-01-03 15:22:45.133036	25.9	24.9	-91.7	15.3
2025-01-03 15:22:46.300556	25.6	25.0	-91.7	14.7
2025-01-03 15:22:47.463109	25.2	25.0	-91.7	13.7
2025-01-03 15:22:48.621708	24.9	25.0	-91.6	13.1
2025-01-03 15:22:49.789212	24.6	25.1	-91.6	16.5
2025-01-03 15:22:50.953607	24.3	25.1	-91.8	10.3
2025-01-03 15:22:52.120873	23.9	25.2	-91.6	9.7
2025-01-03 15:22:53.285705	23.6	25.2	-91.3	9.6
2025-01-03 15:22:54.454180	23.3	25.2	-91.5	9.1
2025-01-03 15:22:55.621579	23.0	25.3	-91.4	8.1
2025-01-03 15:22:56.781860	22.6	25.3	-92.0	10.8
2025-01-03 15:22:57.944945	22.3	25.3	-91.4	9.7
2025-01-03 15:22:59.109020	22.0	25.4	-91.0	8.6
2025-01-03 15:23:00.265059	21.6	25.4	-90.5	12.2
2025-01-03 15:23:01.427759	21.3	25.4	-91.6	11.7
2025-01-03 15:23:02.592255	21.0	25.4	-91.5	9.9
2025-01-03 15:23:03.756234	20.7	25.5	-91.9	13.6
2025-01-03 15:23:04.917660	20.3	25.5	-91.8	11.3
2025-01-03 15:23:06.082187	20.0	25.5	-91.6	8.1
2025-01-03 15:23:07.255149	19.7	25.5	-91.2	11.4
2025-01-03 15:23:08.418048	19.3	25.6	-91.3	12.7
2025-01-03 15:23:09.577369	19.0	25.6	-91.5	13.8
2025-01-03 15:23:10.741598	18.7	25.6	-91.9	11.0
2025-01-03 15:23:11.906916	18.3	25.6	-91.8	13.5
2025-01-03 15:23:13.078717	18.0	25.6	-91.4	12.9
2025-01-03 15:23:14.245781	17.6	25.7	-90.8	13.3
2025-01-03 15:23:15.408351	17.3	25.7	-91.2	11.0
2025-01-03 15:23:16.573482	17.0	25.7	-91.5	9.5
2025-01-03 15:23:17.733460	16.6	25.7	-91.8	12.8
2025-01-03 15:23:18.901784	16.3	25.7	-91.6	11.1
2025-01-03 15:23:20.066462	16.0	25.7	-91.7	6.9
2025-01-03 15:23:21.232519	15.6	25.7	-91.4	12.1
2025-01-03 15:23:22.388541	15.3	25.8	-91.3	9.2
2025-01-03 15:23:23.557999	14.9	25.8	-92.0	9.1
2025-01-03 15:23:24.719941	14.6	25.8	-91.8	11.2
2025-01-03 15:23:25.884900	14.3	25.8	-91.4	12.7
2025-01-03 15:23:27.051738	13.9	25.8	-91.3	8.4
2025-01-03 15:23:28.213638	13.6	25.8	-91.3	12.8
2025-01-03 15:23:29.382286	13.3	25.8	-91.1	11.0
2025-01-03 15:23:30.546491	12.9	25.8	-91.9	11.0
2025-01-03 15:23:31.711051	12.6	25.8	-91.2	12.8
2025-01-03 15:23:32.883737	12.2	25.8	-91.4	13.0
2025-01-03 15:23:34.045076	11.9	25.8	-91.6	9.7
2025-01-03 15:23:35.212173	11.6	25.8	-91.5	10.1
2025-01-03 15:23:36.374999	11.2	25.8	-91.3	11.8
2025-01-03 15:23:37.537684	10.9	25.8	-92.0	13.3
2025-01-03 15:23:38.702059	10.5	25.8	-91.5	11.4
2025-01-03 15:23:39.865729	10.2	25.8	-91.5	12.7
2025-01-03 15:23:41.035958	9.9	25.8	-91.9	12.3
2025-01-03 15:23:42.199699	9.5	25.7	-91.7	13.6
2025-01-03 15:23:43.366872	9.2	25.7	-91.9	10.0
2025-01-03 15:23:44.532734	8.9	25.7	-92.9	13.0
2025-01-03 15:23:45.701242	8.5	25.7	-92.2	12.8
2025-01-03 15:23:46.864076	8.2	25.7	-92.0	13.6
2025-01-03 15:23:48.027363	7.8	25.7	-92.7	10.7
2025-01-03 15:23:49.191933	7.5	25.7	-92.1	9.4
2025-01-03 15:23:50.356758	7.2	25.6	-92.3	12.9
2025-01-03 15:23:51.523290	6.8	25.6	-92.7	8.0
2025-01-03 15:23:52.687064	6.5	25.6	-92.5	9.2
2025-01-03 15:23:53.847333	6.2	25.6	-92.5	8.4
2025-01-03 15:23:55.012329	5.8	25.6	-92.5	8.0
2025-01-03 15:23:56.174985	5.5	25.5	-92.0	6.9
2025-01-03 15:23:57.339689	5.2	25.5	-91.9	11.6
2025-01-03 15:23:58.502322	4.8	25.5	-92.3	8.3
2025-01-03 15:23:59.666733	4.5	25.5	-92.4	7.3
2025-01-03 15:24:00.818489	4.2	25.4	-92.2	10.7
2025-01-03 15:24:01.982041	3.8	25.4	-92.3	7.0
2025-01-03 15:24:03.143297	3.5	25.4	-92.1	7.4
2025-01-03 15:24:04.312048	3.2	25.4	-92.1	11.7
2025-01-03 15:24:05.476013	2.9	25.3	-92.5	5.5
2025-01-03 15:24:06.639103	2.5	25.3	-92.3	6.8
2025-01-03 15:24:07.801249	2.2	25.3	-92.4	10.6
2025-01-03 15:24:08.958201	1.9	25.2	-92.5	8.3
2025-01-03 15:24:10.126993	1.5	25.2	-91.9	10.5
2025-01-03 15:24:11.283823	1.2	25.2	-91.9	14.6
2025-01-03 15:24:12.451394	0.9	25.1	-92.0	8.7
2025-01-03 15:24:13.616498	0.6	25.1	-92.6	9.7
2025-01-03 15:24:14.779803	0.2	25.0	-92.4	14.1
2025-01-03 15:24:15.944997	359.9	25.0	-92.7	9.9
2025-01-03 15:24:17.108217	359.6	25.0	-92.0	9.1
2025-01-03 15:24:18.271284	359.3	24.9	-91.6	13.8
2025-01-03 15:24:19.435676	359.0	24.9	-92.2	9.7
2025-01-03 15:24:20.600962	358.6	24.8	-91.9	9.1
2025-01-03 15:24:21.763837	358.3	24.8	-92.2	14.5
2025-01-03 15:24:22.929184	358.0	24.8	-92.8	12.0
2025-01-03 15:24:24.091380	357.7	24.7	-92.2	7.1
2025-01-03 15:24:25.251814	357.4	24.7	-92.4	16.3
2025-01-03 15:24:26.414200	357.1	24.6	-92.3	15.2
2025-01-03 15:24:27.582598	356.7	24.6	-92.5	9.3
2025-01-03 15:24:28.742343	356.4	24.5	-92.3	13.7
2025-01-03 15:24:29.916894	356.1	24.5	-92.2	13.7
2025-01-03 15:24:31.081876	355.8	24.4	-91.9	9.5
2025-01-03 15:24:32.246025	355.5	24.4	-92.1	15.4
2025-01-03 15:24:33.413930	355.2	24.3	-91.9	17.9
2025-01-03 15:24:34.578436	354.9	24.3	-92.5	9.9
2025-01-03 15:24:35.738938	354.6	24.2	-92.2	19.2
2025-01-03 15:24:36.902969	354.3	24.1	-92.1	13.9
2025-01-03 15:24:38.069772	354.0	24.1	-91.8	8.6
2025-01-03 15:24:39.242918	353.7	24.0	-91.6	14.7
2025-01-03 15:24:40.405198	353.4	24.0	-92.1	16.6
2025-01-03 15:24:41.570674	353.1	23.9	-91.8	9.8
2025-01-03 15:24:42.733308	352.8	23.9	-92.5	17.3
2025-01-03 15:24:43.905417	352.5	23.8	-92.3	14.7
2025-01-03 15:24:45.071599	352.2	23.7	-92.1	9.5
2025-01-03 15:24:46.231685	351.9	23.7	-91.5	15.8
2025-01-03 15:24:47.397096	351.6	23.6	-92.3	13.8
2025-01-03 15:24:48.554166	351.3	23.6	-92.5	7.3
2025-01-03 15:24:49.720211	351.0	23.5	-92.5	10.6
2025-01-03 15:24:50.881920	350.7	23.4	-92.2	11.5
2025-01-03 15:24:52.040897	350.4	23.4	-92.5	10.2
2025-01-03 15:24:53.204149	350.1	23.3	-92.1	13.1
2025-01-03 15:24:54.369582	349.8	23.2	-92.1	15.1
2025-01-03 15:24:55.537979	349.5	23.2	-92.4	10.3
2025-01-03 15:24:56.698143	349.2	23.1	-92.7	12.1
2025-01-03 15:24:57.861369	349.0	23.0	-93.0	14.9
2025-01-03 15:24:59.018164	348.7	23.0	-92.6	12.7
2025-01-03 15:25:00.181478	348.4	22.9	-92.1	9.7
2025-01-03 15:25:01.338032	348.1	22.8	-91.5	13.1
2025-01-03 15:25:02.505803	347.8	22.8	-92.4	13.3
2025-01-03 15:25:03.675571	347.6	22.7	-92.5	11.2
2025-01-03 15:25:04.836978	347.3	22.6	-92.2	13.3
2025-01-03 15:25:06.002684	347.0	22.5	-90.2	8.2
2025-01-03 15:25:07.165906	346.7	22.5	-91.3	7.0
2025-01-03 15:25:08.322476	346.4	22.4	-91.6	12.6
2025-01-03 15:25:09.471123	346.2	22.3	-91.9	9.1
2025-01-03 15:25:10.630801	345.9	22.3	-92.4	11.4
2025-01-03 15:25:11.769697	345.6	22.2	-92.4	12.2
2025-01-03 15:25:12.890992	345.4	22.1	-91.0	9.9
2025-01-03 15:25:14.010883	345.1	22.0	-92.2	10.0
2025-01-03 15:25:15.131551	344.9	22.0	-91.5	14.6
2025-01-03 15:25:16.253993	344.6	21.9	-91.8	12.3
2025-01-03 15:25:17.374894	344.4	21.8	-90.9	8.4
2025-01-03 15:25:18.495882	344.1	21.7	-91.7	13.4
2025-01-03 15:25:19.622677	343.9	21.7	-92.0	9.5
2025-01-03 15:25:20.775466	343.6	21.6	-92.2	12.2
2025-01-03 15:25:21.932006	343.3	21.5	-92.3	9.8
2025-01-03 15:25:23.094710	343.1	21.4	-92.2	11.3
2025-01-03 15:25:24.254228	342.8	21.4	-91.8	3.9
2025-01-03 15:25:25.409187	342.6	21.3	-91.3	9.5
2025-01-03 15:25:26.564925	342.3	21.2	-92.2	3.7
2025-01-03 15:25:27.732232	342.1	21.1	-92.0	9.7
2025-01-03 15:25:28.892789	341.8	21.0	-92.2	10.9
2025-01-03 15:25:30.055424	341.6	21.0	-92.3	5.6
2025-01-03 15:25:31.217225	341.3	20.9	-92.1	5.1
2025-01-03 15:25:32.383701	341.1	20.8	-91.5	11.4
2025-01-03 15:25:33.543167	340.8	20.7	-92.1	2.9
2025-01-03 15:25:34.703092	340.6	20.6	-92.1	9.3
2025-01-03 15:25:35.871190	340.3	20.6	-91.9	7.9
2025-01-03 15:25:37.031637	340.1	20.5	-92.0	5.6
2025-01-03 15:25:38.194408	339.9	20.4	-91.7	7.3
2025-01-03 15:25:39.352430	339.6	20.3	-90.8	5.0
2025-01-03 15:25:40.522655	339.4	20.2	-91.7	7.0
2025-01-03 15:25:41.686565	339.2	20.1	-91.8	6.3
2025-01-03 15:25:42.849857	338.9	20.1	-91.9	6.1
2025-01-03 15:25:44.009278	338.7	20.0	-92.1	6.6
2025-01-03 15:25:45.177568	338.5	19.9	-91.5	3.6
2025-01-03 15:25:46.344644	338.2	19.8	-91.6	5.3
2025-01-03 15:25:47.508436	338.0	19.7	-91.8	4.2
2025-01-03 15:25:48.660935	337.8	19.6	-92.3	4.8
2025-01-03 15:25:49.814993	337.5	19.6	-92.2	5.9
2025-01-03 15:25:50.983283	337.3	19.5	-92.1	10.6
2025-01-03 15:25:52.142864	337.1	19.4	-91.7	8.4
2025-01-03 15:25:53.313640	336.9	19.3	-91.8	4.4
2025-01-03 15:25:54.473430	336.6	19.2	-92.5	7.6
2025-01-03 15:25:55.631288	336.4	19.1	-92.7	6.8
2025-01-03 15:25:56.796987	336.2	19.0	-92.7	6.6
2025-01-03 15:25:57.957527	336.0	19.0	-92.5	7.5
2025-01-03 15:25:59.115479	335.8	18.9	-92.0	5.6
2025-01-03 15:26:00.280435	335.5	18.8	-92.0	8.4
2025-01-03 15:26:01.435475	335.3	18.7	-92.4	7.3
2025-01-03 15:26:02.599653	335.1	18.6	-92.8	10.5
2025-01-03 15:26:03.761138	334.9	18.5	-92.6	9.1
2025-01-03 15:26:04.926297	334.7	18.4	-92.7	6.8
2025-01-03 15:26:06.091072	334.5	18.4	-91.9	5.9
2025-01-03 15:26:07.252890	334.3	18.3	-91.7	5.2
2025-01-03 15:26:08.409627	334.1	18.2	-91.7	10.6
2025-01-03 15:26:09.567295	333.9	18.1	-92.4	6.9
2025-01-03 15:26:10.730196	333.7	18.0	-92.2	3.9
2025-01-03 15:26:11.892842	333.4	17.9	-92.3	8.7
2025-01-03 15:26:13.053262	333.2	17.8	-92.4	2.8
2025-01-03 15:26:14.222973	333.0	17.8	-92.0	3.9
2025-01-03 15:26:15.381325	332.8	17.7	-92.2	6.4
2025-01-03 15:26:16.544083	332.6	17.6	-92.7	6.5
2025-01-03 15:26:17.707235	332.4	17.5	-92.6	4.5
2025-01-03 15:26:18.864558	332.2	17.4	-92.8	4.4
2025-01-03 15:26:20.022824	332.1	17.3	-92.7	5.3
2025-01-03 15:26:21.190560	331.9	17.2	-92.3	4.1
2025-01-03 15:26:22.348901	331.7	17.1	-91.9	2.2
2025-01-03 15:26:23.514930	331.5	17.1	-92.3	5.4
2025-01-03 15:26:24.678516	331.3	17.0	-92.2	4.9
2025-01-03 15:26:25.839582	331.1	16.9	-92.4	5.4
2025-01-03 15:26:27.002707	330.9	16.8	-92.8	3.9
2025-01-03 15:26:28.159956	330.7	16.7	-91.5	5.5
2025-01-03 15:26:29.324640	330.5	16.6	-91.8	2.2
2025-01-03 15:26:30.483891	330.3	16.5	-92.6	4.5
2025-01-03 15:26:31.646335	330.2	16.4	-92.8	6.2
2025-01-03 15:26:32.813015	330.0	16.3	-92.7	7.6
2025-01-03 15:26:33.983765	329.8	16.3	-92.3	6.1
2025-01-03 15:26:35.148021	329.6	16.2	-91.8	3.9
2025-01-03 15:26:36.309016	329.4	16.1	-91.8	11.4
2025-01-03 15:26:37.470765	329.2	16.0	-92.6	6.0
2025-01-03 15:26:38.640191	329.1	15.9	-92.7	7.4
2025-01-03 15:26:39.806975	328.9	15.8	-92.6	12.1
2025-01-03 15:26:40.965408	328.7	15.7	-92.4	6.8
2025-01-03 15:26:42.136425	328.5	15.6	-92.0	11.2
2025-01-03 15:26:43.300895	328.4	15.6	-91.6	7.1
2025-01-03 15:26:44.474333	328.2	15.5	-92.6	6.8
2025-01-03 15:26:45.639855	328.0	15.4	-92.5	8.2
2025-01-03 15:26:46.804530	327.8	15.3	-92.7	6.2
2025-01-03 15:26:47.965788	327.7	15.2	-92.3	6.1
2025-01-03 15:26:49.122089	327.5	15.1	-92.1	7.6
2025-01-03 15:26:50.285275	327.3	15.0	-91.8	8.8
2025-01-03 15:26:51.445701	327.2	14.9	-92.1	7.4
2025-01-03 15:26:52.612472	327.0	14.9	-92.4	7.1
2025-01-03 15:26:53.774092	326.8	14.8	-92.5	9.3
2025-01-03 15:26:54.940566	326.7	14.7	-92.4	8.1
2025-01-03 15:26:56.098757	326.5	14.6	-92.4	5.8
#Closed at: 2025-01-03 15:20:17.245140