passes_logs/2025/01/20/XPeterburg/XPeterburg__20250120_115324_FENGYUN_3D_rec.log

#Pass ID: 20250120_115324_FENGYUN 3D
#Satellite: FENGYUN 3D
#Configuration: FENGYUN 3D
#Start time: 2025-01-20 11:53:19

#Version: 1.5.20200625
#Station: XPeterburg
#Location: 30.318091 lon 59.932769 lat
#TLE: 1 43010U 17072A   25020.13154983  .00000312  00000+0  16958-3 0  9995
#TLE: 2 43010  98.9429 342.4118 0002535  80.2667 279.8795 14.19547046372198

#Time	Az	El	Level	Level2	SNR	BER	Gain	Gain2
2025-01-20 11:53:19.22	181.11	68.13	-40.0	-43.5	3.3	8391277	97	3662
2025-01-20 11:53:19.62	181.29	68.30	-39.6	-56.2	3.6	7379585	72	16697
2025-01-20 11:53:20.02	181.47	68.47	-40.1	-43.5	3.3	8412334	97	3659
2025-01-20 11:53:20.42	181.65	68.64	-39.9	-44.2	3.6	8370689	98	4034
2025-01-20 11:53:20.82	181.84	68.82	-39.9	-42.8	3.3	8436092	98	3424
2025-01-20 11:53:21.23	182.03	68.99	-39.9	-44.2	3.6	8411178	98	4022
2025-01-20 11:53:21.63	182.22	69.17	-39.9	-42.9	3.3	8417724	98	3472
2025-01-20 11:53:22.03	182.42	69.34	-39.9	-44.2	3.6	8394824	98	4019
2025-01-20 11:53:22.43	182.62	69.51	-39.9	-43.0	3.3	8424133	98	3504
2025-01-20 11:53:22.83	182.82	69.68	-39.9	-44.2	3.6	8383186	98	4042
2025-01-20 11:53:23.23	183.03	69.86	-39.9	-43.1	3.4	8421775	98	3550
2025-01-20 11:53:23.63	183.24	70.03	-40.0	-44.3	3.6	8387523	98	4043
2025-01-20 11:53:24.04	183.46	70.21	-40.0	-43.4	3.4	8432750	98	3659
2025-01-20 11:53:24.44	183.68	70.38	-40.0	-42.8	3.3	8401165	98	3416
2025-01-20 11:53:24.84	183.91	70.56	-40.0	-44.2	3.5	8399974	97	3982
2025-01-20 11:53:25.24	184.14	70.73	-40.0	-43.4	3.3	8427738	97	3647
2025-01-20 11:53:25.64	184.37	70.90	-40.0	-44.4	3.5	8431560	97	4072
2025-01-20 11:53:26.04	184.60	71.08	-40.0	-43.3	3.3	8419876	97	3615
2025-01-20 11:53:26.44	184.85	71.25	-40.0	-44.7	3.6	8392639	97	4242
2025-01-20 11:53:26.84	185.09	71.42	-40.0	-43.4	3.3	8405445	97	3660
2025-01-20 11:53:27.24	185.34	71.60	-40.0	-44.9	3.6	8386585	97	4309
2025-01-20 11:53:27.65	185.61	71.77	-40.0	-43.4	3.3	8405685	97	3655
2025-01-20 11:53:28.05	185.87	71.95	-40.0	-44.8	3.6	8394470	97	4301
2025-01-20 11:53:28.45	186.13	72.12	-40.0	-43.5	3.3	8446346	97	3690
2025-01-20 11:53:28.85	186.41	72.29	-40.0	-44.8	3.6	8406761	97	4299
2025-01-20 11:53:29.25	186.68	72.47	-40.0	-43.6	3.4	8436687	97	3725
2025-01-20 11:53:29.65	186.97	72.64	-40.0	-44.8	3.6	8399494	97	4312
2025-01-20 11:53:30.06	187.26	72.82	-40.0	-43.7	3.4	8449172	97	3783
2025-01-20 11:53:30.46	187.56	72.99	-40.0	-44.9	3.6	8397422	97	4310
2025-01-20 11:53:30.86	187.86	73.16	-40.0	-43.9	3.4	8433723	97	3859
2025-01-20 11:53:31.26	188.17	73.33	-40.0	-43.4	3.3	8396701	97	3630
2025-01-20 11:53:31.66	188.49	73.50	-40.0	-44.2	3.5	8418651	97	3975
2025-01-20 11:53:32.06	188.81	73.68	-40.0	-43.3	3.3	8380874	97	3625
2025-01-20 11:53:32.47	189.15	73.85	-40.0	-44.3	3.5	8413307	97	4057
2025-01-20 11:53:32.87	189.48	74.02	-40.0	-43.4	3.3	8400455	97	3650
2025-01-20 11:53:33.27	189.83	74.19	-40.0	-44.4	3.5	8429283	97	4079
2025-01-20 11:53:33.67	190.18	74.36	-40.0	-43.4	3.3	8429248	97	3648
2025-01-20 11:53:34.07	190.54	74.53	-40.0	-44.6	3.6	8435462	97	4197
2025-01-20 11:53:34.47	190.91	74.70	-40.0	-43.4	3.3	8416889	97	3633
2025-01-20 11:53:34.87	191.29	74.87	-40.0	-44.9	3.6	8428070	97	4325
2025-01-20 11:53:35.28	191.68	75.05	-40.0	-43.4	3.3	8419589	97	3641
2025-01-20 11:53:35.68	192.08	75.21	-40.0	-44.8	3.6	8388084	97	4294
2025-01-20 11:53:36.08	192.48	75.38	-40.0	-43.4	3.3	8423137	97	3657
2025-01-20 11:53:36.48	192.90	75.55	-40.0	-44.8	3.6	8393726	97	4295
2025-01-20 11:53:36.88	193.32	75.72	-40.0	-43.5	3.3	8437534	97	3694
2025-01-20 11:53:37.28	193.76	75.88	-40.0	-44.8	3.6	8401336	97	4283
2025-01-20 11:53:37.68	194.20	76.05	-40.0	-43.4	3.4	8390647	98	3634
2025-01-20 11:53:38.09	194.67	76.22	-40.0	-43.0	3.3	8416500	98	3472
2025-01-20 11:53:38.49	195.14	76.38	-39.9	-43.5	3.5	8391826	98	3714
2025-01-20 11:53:38.89	195.62	76.55	-39.9	-42.7	3.3	8411476	98	3401
2025-01-20 11:53:39.29	196.11	76.71	-39.9	-43.7	3.5	8442375	98	3829
2025-01-20 11:53:39.69	196.62	76.87	-39.9	-42.7	3.3	8418090	98	3415
2025-01-20 11:53:40.09	197.14	77.03	-39.9	-44.0	3.6	8397193	98	3949
2025-01-20 11:53:40.49	197.67	77.19	-39.9	-42.7	3.3	8408992	98	3403
2025-01-20 11:53:40.89	198.21	77.35	-39.9	-44.1	3.6	8401714	98	4014
2025-01-20 11:53:41.29	198.77	77.51	-39.9	-42.8	3.3	8434902	98	3427
2025-01-20 11:53:41.70	199.36	77.67	-39.9	-44.1	3.6	8396598	98	4006
2025-01-20 11:53:42.10	199.95	77.83	-39.9	-42.7	3.3	8446025	98	3413
2025-01-20 11:53:42.50	200.55	77.99	-39.9	-44.1	3.6	8412002	98	4005
2025-01-20 11:53:42.90	201.18	78.14	-39.9	-42.9	3.4	8443817	98	3476
2025-01-20 11:53:43.30	201.81	78.29	-39.9	-44.2	3.6	8407253	98	4013
2025-01-20 11:53:43.70	202.47	78.44	-39.9	-43.1	3.4	8421466	98	3538
2025-01-20 11:53:44.10	203.14	78.59	-39.9	-44.2	3.6	8392112	98	4043
2025-01-20 11:53:44.51	203.85	78.75	-39.9	-43.3	3.4	8413593	98	3620
2025-01-20 11:53:44.91	204.56	78.89	-39.9	-42.8	3.3	8395271	98	3420
2025-01-20 11:53:45.31	205.29	79.04	-39.9	-43.4	3.4	8425014	98	3685
2025-01-20 11:53:45.71	206.04	79.18	-39.9	-42.7	3.3	8387866	98	3418
2025-01-20 11:53:46.11	206.81	79.33	-39.9	-43.7	3.5	8434581	98	3797
2025-01-20 11:53:46.51	207.60	79.47	-39.8	-42.5	3.3	8442180	98	3334
2025-01-20 11:53:46.91	208.41	79.60	-39.8	-44.1	3.6	8440601	97	4023
2025-01-20 11:53:47.32	209.27	79.74	-39.8	-42.7	3.3	8434547	97	3436
2025-01-20 11:53:47.72	210.12	79.88	-39.7	-43.4	3.6	8432624	97	3780
2025-01-20 11:53:48.12	211.00	80.01	-39.6	-41.9	3.3	8431915	97	3217
2025-01-20 11:53:48.52	211.91	80.14	-39.6	-43.3	3.6	8400638	97	3768
2025-01-20 11:53:48.92	212.84	80.27	-39.6	-41.9	3.3	8413375	97	3206
2025-01-20 11:53:49.32	213.79	80.39	-39.6	-43.4	3.6	8394824	97	3787
2025-01-20 11:53:49.73	214.80	80.52	-39.6	-41.9	3.3	8437294	97	3222
2025-01-20 11:53:50.13	215.80	80.64	-39.6	-43.4	3.6	8411155	97	3796
2025-01-20 11:53:50.53	216.83	80.76	-39.7	-42.4	3.3	8430656	97	3371
2025-01-20 11:53:50.93	217.89	80.87	-39.7	-43.8	3.6	8403350	97	3918
2025-01-20 11:53:51.33	218.97	80.98	-39.7	-42.8	3.4	8428516	97	3502
2025-01-20 11:53:51.73	220.09	81.09	-39.7	-43.7	3.6	8406692	97	3881
2025-01-20 11:53:52.13	221.22	81.19	-39.5	-42.1	3.4	8434215	97	3320
2025-01-20 11:53:52.54	222.42	81.29	-39.4	-41.1	3.3	8403717	97	2982
2025-01-20 11:53:52.94	223.61	81.39	-39.2	-41.5	3.6	8404369	96	3235
2025-01-20 11:53:53.34	224.83	81.48	-39.1	-40.7	3.5	8402984	96	2948
2025-01-20 11:53:53.74	226.08	81.57	-39.2	-41.8	3.6	8398784	96	3332
2025-01-20 11:53:54.14	227.35	81.66	-39.2	-41.2	3.4	8388462	96	3067
2025-01-20 11:53:54.54	228.65	81.74	-39.4	-43.0	3.6	8409404	96	3730
2025-01-20 11:53:54.94	229.97	81.82	-39.5	-42.1	3.3	8416488	96	3312
2025-01-20 11:53:55.35	231.36	81.89	-39.6	-43.9	3.6	8430931	96	4049
2025-01-20 11:53:55.75	232.73	81.96	-39.7	-42.8	3.3	8420242	96	3519
2025-01-20 11:53:56.15	234.13	82.02	-39.7	-44.3	3.6	8403888	96	4172
2025-01-20 11:53:56.55	235.55	82.08	-39.8	-43.1	3.3	8430393	96	3633
2025-01-20 11:53:56.95	236.99	82.14	-39.8	-44.6	3.6	8395111	96	4284
2025-01-20 11:53:57.36	238.48	82.19	-39.8	-43.3	3.3	8426319	96	3701
2025-01-20 11:53:57.76	239.96	82.23	-39.7	-44.5	3.6	8391082	96	4262
2025-01-20 11:53:58.16	241.45	82.27	-39.7	-43.4	3.4	8429122	96	3756
2025-01-20 11:53:58.56	242.95	82.30	-39.7	-44.5	3.6	8391998	96	4263
2025-01-20 11:53:58.96	244.47	82.33	-39.7	-43.5	3.4	8439582	96	3782
2025-01-20 11:53:59.36	246.00	82.35	-39.8	-43.0	3.3	8413604	96	3575
2025-01-20 11:53:59.76	247.54	82.37	-39.8	-43.8	3.5	8432739	96	3903
2025-01-20 11:54:00.18	249.16	82.38	-39.7	-43.1	3.3	8410308	96	3616
2025-01-20 11:54:00.58	250.70	82.39	-39.8	-44.2	3.5	8449539	96	4068
2025-01-20 11:54:00.98	252.25	82.39	-39.8	-43.2	3.3	8418685	96	3650
2025-01-20 11:54:01.38	253.80	82.39	-40.0	-44.4	3.7	8392753	97	4116
2025-01-20 11:54:01.78	255.34	82.38	-40.0	-43.1	3.3	8422325	97	3529
2025-01-20 11:54:02.19	256.92	82.36	-39.9	-44.6	3.6	8340122	97	4209
2025-01-20 11:54:02.59	258.45	82.34	-39.9	-43.2	3.3	8418113	97	3569
2025-01-20 11:54:02.99	259.97	82.31	-39.9	-44.5	3.6	8390567	97	4184
2025-01-20 11:54:03.39	261.48	82.28	-39.9	-43.2	3.3	8450317	97	3592
2025-01-20 11:54:03.79	262.98	82.24	-39.9	-44.5	3.6	8395294	97	4189
2025-01-20 11:54:04.19	264.46	82.20	-40.0	-43.1	3.4	8408260	98	3528
2025-01-20 11:54:04.60	265.96	82.15	-40.0	-42.7	3.3	8411556	98	3373
2025-01-20 11:54:05.00	267.40	82.10	-39.8	-43.3	3.5	8394470	98	3655
2025-01-20 11:54:05.40	268.82	82.04	-39.9	-42.6	3.3	8424797	98	3356
2025-01-20 11:54:05.80	270.23	81.98	-39.8	-43.4	3.5	8450031	98	3694
2025-01-20 11:54:06.20	271.61	81.91	-39.8	-42.9	3.3	8418354	97	3495
2025-01-20 11:54:06.60	272.96	81.84	-39.7	-43.7	3.6	8399196	97	3872
2025-01-20 11:54:07.00	274.29	81.77	-39.7	-42.3	3.3	8406246	97	3314
2025-01-20 11:54:07.41	275.63	81.68	-39.6	-43.4	3.6	8402790	97	3794
2025-01-20 11:54:07.81	276.91	81.60	-39.5	-41.5	3.3	8438163	97	3094
2025-01-20 11:54:08.21	278.17	81.51	-39.4	-42.8	3.6	8408008	97	3615
2025-01-20 11:54:08.61	279.39	81.42	-39.5	-41.5	3.4	8430210	97	3114
2025-01-20 11:54:09.01	280.60	81.32	-39.4	-42.8	3.6	8395431	97	3608
2025-01-20 11:54:09.41	281.77	81.22	-39.3	-41.2	3.4	8436012	97	3029
2025-01-20 11:54:09.82	282.94	81.12	-39.4	-42.7	3.6	8405101	97	3574
2025-01-20 11:54:10.22	284.06	81.01	-39.4	-41.4	3.4	8432498	97	3096
2025-01-20 11:54:10.62	285.15	80.90	-39.4	-42.5	3.6	8383014	97	3527
2025-01-20 11:54:11.02	286.22	80.79	-39.5	-41.7	3.4	8433929	97	3171
2025-01-20 11:54:11.42	287.26	80.67	-39.5	-42.9	3.6	8395202	97	3645
2025-01-20 11:54:11.83	288.29	80.55	-39.6	-42.3	3.4	8428642	97	3367
2025-01-20 11:54:12.23	289.28	80.43	-39.7	-42.1	3.3	8395179	97	3267
2025-01-20 11:54:12.63	290.24	80.31	-39.7	-43.1	3.4	8436573	97	3649
2025-01-20 11:54:13.03	291.17	80.18	-39.8	-42.6	3.3	8429489	97	3402
2025-01-20 11:54:13.43	292.08	80.05	-39.8	-43.6	3.5	8439514	97	3816
2025-01-20 11:54:13.83	292.97	79.92	-39.8	-42.7	3.3	8421306	97	3443
2025-01-20 11:54:14.23	293.84	79.78	-39.8	-44.0	3.6	8445041	97	3985
2025-01-20 11:54:14.63	294.68	79.65	-39.8	-42.9	3.3	8421203	97	3482
2025-01-20 11:54:15.04	295.52	79.51	-39.9	-44.4	3.6	8386631	97	4128
2025-01-20 11:54:15.44	296.31	79.37	-39.9	-42.9	3.3	8416294	97	3505
2025-01-20 11:54:15.84	297.09	79.23	-39.9	-44.5	3.6	8404518	97	4193
2025-01-20 11:54:16.24	297.84	79.08	-39.9	-43.3	3.3	8449619	97	3636
2025-01-20 11:54:16.64	298.58	78.94	-40.0	-44.8	3.6	8403923	97	4298
2025-01-20 11:54:17.04	299.29	78.79	-40.0	-43.3	3.4	8391323	98	3571
2025-01-20 11:54:17.45	300.00	78.64	-39.9	-44.2	3.6	8358764	98	4028
2025-01-20 11:54:17.85	300.68	78.49	-39.9	-42.9	3.4	8430644	98	3512
2025-01-20 11:54:18.25	301.34	78.34	-39.8	-43.8	3.6	8417095	98	3884
2025-01-20 11:54:18.65	301.98	78.19	-39.8	-43.3	3.4	8426548	97	3687
2025-01-20 11:54:19.05	302.61	78.03	-39.8	-42.7	3.3	8402137	97	3427
2025-01-20 11:54:19.45	303.22	77.88	-39.8	-43.3	3.5	8400409	97	3685
2025-01-20 11:54:19.85	303.81	77.72	-39.8	-42.7	3.3	8408557	97	3437
2025-01-20 11:54:20.25	304.39	77.56	-40.0	-44.2	3.5	8416934	97	4013
2025-01-20 11:54:20.66	304.97	77.40	-40.0	-43.4	3.3	8400821	97	3621
2025-01-20 11:54:21.06	305.52	77.24	-40.0	-44.8	3.6	8362598	97	4292
2025-01-20 11:54:21.46	306.05	77.08	-40.0	-43.4	3.3	8441986	97	3652
2025-01-20 11:54:21.86	306.57	76.92	-40.0	-44.7	3.6	8427211	97	4268
2025-01-20 11:54:22.26	307.08	76.76	-39.9	-43.3	3.3	8437248	97	3636
2025-01-20 11:54:22.66	307.58	76.60	-39.9	-44.6	3.6	8404678	97	4222
2025-01-20 11:54:23.07	308.07	76.43	-39.9	-43.3	3.4	8421249	97	3644
2025-01-20 11:54:23.47	308.54	76.27	-39.9	-44.6	3.6	8409599	97	4225
2025-01-20 11:54:23.87	309.00	76.10	-39.9	-43.4	3.3	8431240	97	3680
2025-01-20 11:54:24.27	309.45	75.94	-40.0	-44.8	3.6	8387889	97	4276
2025-01-20 11:54:24.67	309.89	75.77	-40.0	-43.7	3.4	8426605	97	3781
2025-01-20 11:54:25.07	310.32	75.60	-40.0	-44.8	3.6	8396701	97	4304
2025-01-20 11:54:25.47	310.73	75.44	-40.0	-43.9	3.4	8433986	97	3878
2025-01-20 11:54:25.88	311.15	75.26	-40.0	-43.4	3.3	8393199	97	3653
2025-01-20 11:54:26.28	311.55	75.10	-40.0	-44.0	3.4	8434329	97	3924
2025-01-20 11:54:26.68	311.94	74.93	-40.0	-43.3	3.3	8422576	97	3635
2025-01-20 11:54:27.08	312.32	74.76	-39.9	-44.2	3.5	8429363	97	4015
2025-01-20 11:54:27.48	312.69	74.59	-40.0	-43.3	3.3	8426651	97	3611
2025-01-20 11:54:27.88	313.05	74.42	-40.0	-44.5	3.6	8398521	97	4137
2025-01-20 11:54:28.29	313.41	74.25	-39.9	-43.2	3.3	8426479	97	3595
2025-01-20 11:54:28.69	313.76	74.08	-40.0	-44.7	3.6	8390087	97	4226
2025-01-20 11:54:29.09	314.10	73.90	-40.0	-43.3	3.3	8405754	97	3625
2025-01-20 11:54:29.49	314.43	73.73	-40.0	-44.8	3.6	8404003	97	4280
2025-01-20 11:54:29.89	314.76	73.56	-40.0	-43.6	3.3	8437110	97	3705
2025-01-20 11:54:30.30	315.08	73.39	-40.0	-44.9	3.6	8404266	97	4320
2025-01-20 11:54:30.70	315.39	73.21	-40.0	-43.7	3.4	8445476	97	3760
2025-01-20 11:54:31.10	315.69	73.04	-40.0	-44.8	3.6	8407939	97	4272
2025-01-20 11:54:31.50	315.99	72.87	-40.0	-43.7	3.4	8434970	97	3760
2025-01-20 11:54:31.90	316.28	72.70	-40.0	-44.7	3.6	8398864	97	4269
2025-01-20 11:54:32.31	316.58	72.52	-39.9	-43.6	3.4	8443943	97	3770
2025-01-20 11:54:32.71	316.85	72.35	-39.9	-43.1	3.3	8399219	97	3554
2025-01-20 11:54:33.11	317.13	72.18	-39.9	-43.8	3.5	8419372	97	3858
2025-01-20 11:54:33.51	317.40	72.00	-40.0	-43.2	3.3	8390213	97	3590
2025-01-20 11:54:33.91	317.66	71.83	-40.0	-44.3	3.5	8412563	97	4042
2025-01-20 11:54:34.31	317.92	71.66	-40.0	-43.4	3.3	8433151	97	3639
2025-01-20 11:54:34.72	318.18	71.48	-40.0	-44.7	3.6	8428905	97	4223
2025-01-20 11:54:35.12	318.42	71.31	-40.0	-43.4	3.3	8424957	97	3641
2025-01-20 11:54:35.52	318.67	71.13	-40.0	-44.7	3.6	8427806	97	4222
2025-01-20 11:54:35.92	318.90	70.96	-40.0	-43.4	3.3	8439777	97	3637
2025-01-20 11:54:36.32	319.14	70.79	-40.0	-44.8	3.6	8396690	97	4283
2025-01-20 11:54:36.72	319.37	70.62	-40.0	-43.3	3.3	8420883	97	3615
2025-01-20 11:54:37.12	319.59	70.44	-40.0	-44.8	3.6	8392650	97	4277
2025-01-20 11:54:37.53	319.82	70.26	-40.0	-43.1	3.3	8426811	98	3496

#Closed at: 2025-01-20 11:54:37