passes_logs/2025/01/20/XPeterburg/XPeterburg__20250120_020043_FENGYUN_3D_rec.log

#Pass ID: 20250120_020043_FENGYUN 3D
#Satellite: FENGYUN 3D
#Configuration: FENGYUN 3D
#Start time: 2025-01-20 02:00:37

#Version: 1.5.20200625
#Station: XPeterburg
#Location: 30.318091 lon 59.932769 lat
#TLE: 1 43010U 17072A   25017.17120147  .00000215  00000+0  12361-3 0  9996
#TLE: 2 43010  98.9425 339.4233 0002540  85.3452 274.8014 14.19544865371770

#Time	Az	El	Level	Level2	SNR	BER	Gain	Gain2
2025-01-20 02:00:37.38	357.59	67.90	-39.2	-42.8	3.3	8394390	95	3745
2025-01-20 02:00:37.78	357.38	68.06	-38.6	-53.5	3.5	7524238	73	13740
2025-01-20 02:00:38.19	357.16	68.23	-39.2	-42.8	3.3	8400169	95	3737
2025-01-20 02:00:38.59	356.94	68.40	-39.2	-44.1	3.6	8416660	95	4325
2025-01-20 02:00:38.99	356.72	68.56	-39.2	-42.8	3.3	8440109	95	3728
2025-01-20 02:00:39.39	356.49	68.73	-39.2	-44.3	3.6	8434329	95	4414
2025-01-20 02:00:39.79	356.26	68.90	-39.2	-42.8	3.3	8445682	95	3721
2025-01-20 02:00:40.20	356.03	69.07	-39.2	-44.3	3.6	8395454	95	4421
2025-01-20 02:00:40.60	355.79	69.23	-39.2	-42.9	3.4	8427452	95	3780
2025-01-20 02:00:41.00	355.55	69.40	-39.2	-44.2	3.6	8387752	95	4371
2025-01-20 02:00:41.40	355.30	69.56	-39.2	-43.0	3.4	8414897	95	3824
2025-01-20 02:00:41.80	355.05	69.73	-39.2	-44.3	3.6	8390739	95	4432
2025-01-20 02:00:42.21	354.79	69.90	-39.3	-43.5	3.4	8393600	95	3969
2025-01-20 02:00:42.61	354.53	70.07	-39.1	-43.6	3.6	8397869	96	4116
2025-01-20 02:00:43.01	354.27	70.23	-39.1	-42.8	3.4	8386676	96	3755
2025-01-20 02:00:43.42	353.99	70.40	-39.1	-42.1	3.3	8408901	96	3483
2025-01-20 02:00:43.82	353.72	70.57	-39.1	-42.9	3.5	8453132	96	3791
2025-01-20 02:00:44.22	353.44	70.73	-39.1	-42.1	3.3	8408226	96	3488
2025-01-20 02:00:44.62	353.16	70.90	-39.1	-43.2	3.5	8452651	96	3912
2025-01-20 02:00:45.02	352.87	71.06	-39.1	-42.2	3.3	8400318	96	3507
2025-01-20 02:00:45.43	352.57	71.23	-39.1	-43.1	3.5	8403385	96	3899
2025-01-20 02:00:45.83	352.27	71.40	-39.1	-42.2	3.3	8395809	96	3505
2025-01-20 02:00:46.23	351.96	71.56	-39.1	-43.5	3.6	8411304	96	4063
2025-01-20 02:00:46.63	351.65	71.72	-39.2	-42.2	3.3	8402343	96	3506
2025-01-20 02:00:47.03	351.33	71.89	-39.2	-43.6	3.6	8415790	96	4113
2025-01-20 02:00:47.44	351.00	72.06	-39.1	-42.3	3.3	8446735	96	3526
2025-01-20 02:00:47.84	350.67	72.22	-39.1	-43.7	3.6	8409736	96	4140
2025-01-20 02:00:48.24	350.33	72.38	-39.2	-42.3	3.3	8435657	96	3523
2025-01-20 02:00:48.64	349.99	72.54	-39.2	-43.7	3.6	8410766	96	4145
2025-01-20 02:00:49.04	349.64	72.71	-39.1	-42.4	3.3	8433551	96	3581
2025-01-20 02:00:49.45	349.27	72.87	-39.1	-43.6	3.6	8400672	96	4126
2025-01-20 02:00:49.85	348.91	73.03	-39.3	-42.5	3.4	8378391	97	3564
2025-01-20 02:00:50.25	348.54	73.19	-39.1	-43.6	3.6	8403785	96	4135
2025-01-20 02:00:50.65	348.16	73.36	-39.2	-42.8	3.4	8384845	96	3763
2025-01-20 02:00:51.05	347.77	73.52	-39.1	-42.2	3.3	8390693	96	3496
2025-01-20 02:00:51.46	347.37	73.68	-39.1	-42.9	3.5	8425895	96	3792
2025-01-20 02:00:51.86	346.96	73.84	-39.1	-42.3	3.3	8411647	96	3519
2025-01-20 02:00:52.26	346.55	74.00	-39.1	-43.1	3.5	8440967	96	3904
2025-01-20 02:00:52.66	346.13	74.15	-39.1	-42.2	3.3	8412586	96	3502
2025-01-20 02:00:53.07	345.69	74.31	-39.1	-43.4	3.6	8446735	96	4034
2025-01-20 02:00:53.47	345.25	74.47	-39.1	-42.1	3.3	8420139	96	3479
2025-01-20 02:00:53.87	344.80	74.63	-39.2	-43.7	3.6	8396015	96	4167
2025-01-20 02:00:54.27	344.35	74.78	-39.2	-42.3	3.3	8408260	96	3520
2025-01-20 02:00:54.68	343.87	74.94	-39.2	-43.7	3.6	8392055	96	4139
2025-01-20 02:00:55.08	343.39	75.09	-39.2	-42.4	3.3	8412940	96	3556
2025-01-20 02:00:55.48	342.90	75.24	-39.2	-43.8	3.6	8402103	96	4176
2025-01-20 02:00:55.88	342.40	75.40	-39.1	-42.3	3.3	8429660	96	3527
2025-01-20 02:00:56.28	341.89	75.55	-39.1	-43.6	3.6	8409885	96	4104
2025-01-20 02:00:56.69	341.36	75.70	-39.1	-42.2	3.4	8442077	96	3534
2025-01-20 02:00:57.09	340.83	75.85	-39.1	-43.5	3.6	8420036	96	4105
2025-01-20 02:00:57.49	340.28	76.00	-39.1	-42.3	3.4	8443668	96	3545
2025-01-20 02:00:57.89	339.73	76.14	-39.1	-43.4	3.6	8400775	96	4055
2025-01-20 02:00:58.29	339.16	76.29	-39.1	-42.5	3.4	8433906	96	3655
2025-01-20 02:00:58.70	338.56	76.44	-39.1	-42.1	3.3	8390098	96	3463
2025-01-20 02:00:59.10	337.97	76.58	-39.1	-42.9	3.4	8423171	96	3777
2025-01-20 02:00:59.50	337.36	76.72	-39.1	-42.2	3.3	8385852	96	3502
2025-01-20 02:00:59.90	336.74	76.86	-39.1	-43.2	3.5	8423023	96	3913
2025-01-20 02:01:00.30	336.11	77.00	-39.1	-42.2	3.3	8423847	96	3487
2025-01-20 02:01:00.71	335.44	77.14	-39.2	-43.4	3.6	8422794	96	4017
2025-01-20 02:01:01.11	334.78	77.28	-39.1	-42.2	3.3	8425346	96	3518
2025-01-20 02:01:01.51	334.10	77.41	-39.1	-43.6	3.6	8429203	96	4126
2025-01-20 02:01:01.91	333.41	77.54	-39.1	-42.2	3.3	8413398	96	3484
2025-01-20 02:01:02.31	332.70	77.67	-39.1	-43.6	3.6	8400913	96	4128
2025-01-20 02:01:02.72	331.96	77.81	-39.1	-42.3	3.3	8417701	96	3521
2025-01-20 02:01:03.12	331.22	77.93	-39.1	-43.7	3.6	8387649	96	4140
2025-01-20 02:01:03.52	330.47	78.06	-39.1	-42.5	3.4	8445693	96	3617
2025-01-20 02:01:03.92	329.69	78.18	-39.2	-43.7	3.6	8398750	96	4145
2025-01-20 02:01:04.32	328.91	78.30	-39.1	-42.5	3.4	8439250	96	3623
2025-01-20 02:01:04.73	328.08	78.43	-39.1	-43.7	3.6	8387775	96	4156
2025-01-20 02:01:05.13	327.26	78.54	-39.1	-42.4	3.4	8451107	96	3604
2025-01-20 02:01:05.53	326.42	78.66	-39.1	-43.5	3.6	8404460	96	4068
2025-01-20 02:01:05.93	325.56	78.77	-39.1	-42.5	3.4	8425037	96	3652
2025-01-20 02:01:06.33	324.69	78.88	-39.1	-41.9	3.3	8405307	96	3402
2025-01-20 02:01:06.74	323.77	78.99	-39.0	-42.4	3.5	8445121	96	3640
2025-01-20 02:01:07.14	322.86	79.09	-39.0	-41.6	3.3	8399997	96	3333
2025-01-20 02:01:07.54	321.93	79.20	-39.0	-42.5	3.5	8392398	96	3690
2025-01-20 02:01:07.94	320.99	79.29	-39.0	-41.5	3.3	8401863	96	3290
2025-01-20 02:01:08.35	320.00	79.39	-38.9	-42.7	3.6	8420471	96	3789
2025-01-20 02:01:08.75	319.02	79.49	-39.0	-41.5	3.3	8443233	96	3289
2025-01-20 02:01:09.15	318.02	79.58	-39.0	-43.1	3.6	8421707	96	3941
2025-01-20 02:01:09.55	317.00	79.66	-39.0	-41.7	3.3	8431983	96	3366
2025-01-20 02:01:09.95	315.96	79.75	-39.1	-43.3	3.6	8437065	96	4022
2025-01-20 02:01:10.36	314.89	79.83	-39.1	-42.1	3.3	8435531	96	3474
2025-01-20 02:01:10.76	313.82	79.91	-39.1	-43.5	3.6	8400707	96	4077
2025-01-20 02:01:11.16	312.73	79.98	-39.1	-42.3	3.3	8417175	96	3564
2025-01-20 02:01:11.56	311.63	80.05	-39.2	-43.7	3.6	8396427	96	4132
2025-01-20 02:01:11.97	310.49	80.12	-39.2	-42.8	3.4	8423812	96	3719
2025-01-20 02:01:12.37	309.35	80.18	-39.2	-43.7	3.6	8384113	96	4167
2025-01-20 02:01:12.77	308.21	80.24	-39.1	-42.8	3.4	8398029	96	3755
2025-01-20 02:01:13.17	307.05	80.29	-39.1	-42.3	3.3	8388942	96	3532
2025-01-20 02:01:13.57	305.87	80.34	-39.1	-43.0	3.5	8440681	96	3818
2025-01-20 02:01:13.98	304.66	80.39	-39.2	-42.2	3.3	8409061	96	3513
2025-01-20 02:01:14.38	303.46	80.43	-39.1	-42.9	3.5	8433460	96	3797
2025-01-20 02:01:14.78	302.26	80.47	-39.1	-42.2	3.3	8415138	96	3505
2025-01-20 02:01:15.18	301.04	80.51	-39.1	-43.1	3.5	8441631	96	3884
2025-01-20 02:01:15.59	299.79	80.54	-39.1	-42.1	3.3	8392032	96	3478
2025-01-20 02:01:15.99	298.55	80.56	-39.1	-43.3	3.6	8402229	96	3993
2025-01-20 02:01:16.39	297.32	80.58	-39.1	-42.1	3.3	8408168	96	3477
2025-01-20 02:01:16.79	296.07	80.60	-39.1	-43.5	3.6	8407505	96	4084
2025-01-20 02:01:17.19	294.82	80.61	-39.1	-42.1	3.3	8432418	96	3465
2025-01-20 02:01:17.60	293.54	80.62	-39.1	-43.5	3.6	8412757	96	4095
2025-01-20 02:01:18.00	292.29	80.63	-39.1	-42.2	3.3	8431983	96	3500
2025-01-20 02:01:18.40	291.04	80.63	-39.1	-43.5	3.6	8415893	96	4100
2025-01-20 02:01:18.80	289.79	80.62	-39.1	-42.4	3.4	8423000	96	3582
2025-01-20 02:01:19.20	288.54	80.61	-39.1	-43.6	3.6	8396461	96	4113
2025-01-20 02:01:19.61	287.26	80.60	-39.1	-42.4	3.4	8441093	96	3588
2025-01-20 02:01:20.01	286.02	80.58	-39.1	-43.4	3.6	8413284	96	4049
2025-01-20 02:01:20.41	284.78	80.55	-39.1	-42.5	3.4	8422874	96	3660
2025-01-20 02:01:20.81	283.55	80.53	-39.1	-42.0	3.3	8405948	96	3428
2025-01-20 02:01:21.22	282.30	80.50	-39.1	-42.6	3.5	8429718	96	3701
2025-01-20 02:01:21.62	281.09	80.46	-39.1	-41.8	3.3	8391231	96	3389
2025-01-20 02:01:22.02	279.88	80.42	-39.0	-42.7	3.5	8431961	96	3736
2025-01-20 02:01:22.42	278.69	80.38	-39.0	-41.7	3.3	8423984	96	3360
2025-01-20 02:01:22.82	277.51	80.33	-39.0	-42.8	3.6	8442741	96	3835
2025-01-20 02:01:23.23	276.31	80.27	-39.0	-41.6	3.3	8426879	96	3335
2025-01-20 02:01:23.63	275.16	80.22	-39.0	-42.7	3.6	8446151	96	3800
2025-01-20 02:01:24.03	274.02	80.16	-39.0	-41.5	3.3	8416660	96	3283
2025-01-20 02:01:24.43	272.89	80.09	-39.0	-43.0	3.6	8393543	96	3909
2025-01-20 02:01:24.84	271.75	80.02	-39.0	-41.6	3.3	8410285	96	3322
2025-01-20 02:01:25.24	270.65	79.95	-39.0	-43.2	3.6	8406623	96	3974
2025-01-20 02:01:25.64	269.57	79.88	-39.0	-41.9	3.3	8440887	96	3404
2025-01-20 02:01:26.04	268.51	79.80	-39.1	-43.3	3.6	8411373	96	4015
2025-01-20 02:01:26.45	267.44	79.72	-39.1	-42.1	3.4	8447490	96	3505
2025-01-20 02:01:26.85	266.41	79.63	-39.1	-43.5	3.6	8410812	96	4096
2025-01-20 02:01:27.25	265.40	79.54	-39.1	-42.4	3.4	8442008	96	3581
2025-01-20 02:01:27.65	264.41	79.45	-39.1	-43.5	3.6	8393531	96	4080
2025-01-20 02:01:28.05	263.43	79.36	-39.0	-42.5	3.4	8391380	96	3670
2025-01-20 02:01:28.46	262.45	79.26	-39.0	-41.8	3.3	8405067	96	3408
2025-01-20 02:01:28.86	261.51	79.16	-39.1	-42.9	3.5	8374980	96	3804
2025-01-20 02:01:29.26	260.58	79.05	-39.1	-42.1	3.3	8401863	96	3475
2025-01-20 02:01:29.66	259.68	78.95	-39.1	-43.0	3.5	8417907	96	3855
2025-01-20 02:01:30.07	258.77	78.84	-39.1	-42.1	3.3	8392490	96	3465
2025-01-20 02:01:30.47	257.90	78.73	-39.1	-43.3	3.6	8413982	96	3999
2025-01-20 02:01:30.87	257.05	78.61	-39.1	-42.0	3.3	8423572	96	3434
2025-01-20 02:01:31.27	256.22	78.50	-39.1	-43.4	3.6	8427932	96	4051
2025-01-20 02:01:31.68	255.38	78.38	-39.1	-42.1	3.3	8421249	96	3464
2025-01-20 02:01:32.08	254.58	78.26	-39.1	-43.5	3.6	8437145	96	4073
2025-01-20 02:01:32.48	253.80	78.14	-39.1	-42.1	3.3	8424922	96	3465
2025-01-20 02:01:32.88	253.03	78.01	-39.1	-43.6	3.6	8401382	96	4091
2025-01-20 02:01:33.28	252.28	77.88	-39.1	-42.3	3.3	8414234	96	3525
2025-01-20 02:01:33.69	251.53	77.75	-39.1	-43.7	3.6	8393108	96	4148
2025-01-20 02:01:34.09	250.81	77.62	-39.1	-42.3	3.3	8444732	96	3559
2025-01-20 02:01:34.49	250.11	77.49	-39.1	-43.6	3.6	8390167	96	4102
2025-01-20 02:01:34.89	249.42	77.36	-39.1	-42.4	3.4	8449699	96	3595
2025-01-20 02:01:35.29	248.75	77.22	-39.1	-43.6	3.6	8394824	96	4125
2025-01-20 02:01:35.70	248.08	77.08	-39.1	-42.6	3.4	8443668	96	3661
2025-01-20 02:01:36.10	247.43	76.95	-39.1	-42.2	3.3	8418605	96	3492
2025-01-20 02:01:36.50	246.80	76.81	-39.1	-42.9	3.5	8450088	96	3786
2025-01-20 02:01:36.90	246.19	76.67	-39.1	-42.2	3.3	8408523	96	3507
2025-01-20 02:01:37.30	245.58	76.52	-39.1	-43.1	3.5	8411281	96	3892
2025-01-20 02:01:37.71	244.98	76.38	-39.1	-42.2	3.3	8416751	96	3499
2025-01-20 02:01:38.11	244.40	76.23	-39.1	-43.4	3.6	8402000	96	4030
2025-01-20 02:01:38.51	243.84	76.09	-39.1	-42.1	3.3	8387855	96	3485
2025-01-20 02:01:38.91	243.29	75.94	-39.1	-43.6	3.6	8420288	96	4125
2025-01-20 02:01:39.32	242.74	75.79	-39.2	-42.2	3.3	8432292	96	3495
2025-01-20 02:01:39.72	242.21	75.64	-39.1	-43.6	3.6	8413993	96	4113
2025-01-20 02:01:40.12	241.69	75.49	-39.1	-42.3	3.3	8438873	96	3539
2025-01-20 02:01:40.52	241.19	75.34	-39.1	-43.7	3.6	8407379	96	4162
2025-01-20 02:01:40.92	240.69	75.18	-39.2	-42.5	3.4	8441562	96	3595
2025-01-20 02:01:41.33	240.19	75.03	-39.1	-43.7	3.6	8395809	96	4147
2025-01-20 02:01:41.73	239.72	74.87	-39.1	-42.5	3.4	8446598	96	3601
2025-01-20 02:01:42.13	239.26	74.72	-39.1	-43.6	3.6	8389972	96	4119
2025-01-20 02:01:42.53	238.80	74.56	-39.1	-42.5	3.4	8430301	96	3648
2025-01-20 02:01:42.93	238.36	74.41	-39.1	-43.7	3.6	8396587	96	4149
2025-01-20 02:01:43.34	237.91	74.25	-39.1	-42.6	3.4	8425392	96	3679
2025-01-20 02:01:43.74	237.48	74.09	-39.1	-42.2	3.3	8388427	96	3501
2025-01-20 02:01:44.14	237.07	73.93	-39.0	-42.9	3.5	8397548	96	3822
2025-01-20 02:01:44.54	236.66	73.77	-39.1	-42.0	3.3	8424087	96	3471
2025-01-20 02:01:44.94	236.26	73.61	-39.1	-43.6	3.6	8391174	96	4093
2025-01-20 02:01:45.35	235.85	73.45	-39.1	-42.2	3.3	8430015	96	3504
2025-01-20 02:01:45.75	235.47	73.29	-39.1	-43.6	3.6	8394390	96	4123
2025-01-20 02:01:46.15	235.09	73.13	-39.1	-42.2	3.3	8414566	96	3494
2025-01-20 02:01:46.55	234.72	72.97	-39.1	-43.7	3.6	8392158	96	4159
2025-01-20 02:01:46.96	234.35	72.80	-39.2	-42.3	3.3	8401348	96	3547
2025-01-20 02:01:47.36	234.00	72.64	-39.1	-43.6	3.6	8399185	96	4128
2025-01-20 02:01:47.76	233.65	72.48	-39.1	-42.3	3.4	8388771	96	3573
2025-01-20 02:01:48.16	233.31	72.31	-39.1	-43.6	3.6	8350833	96	4140
2025-01-20 02:01:48.56	232.98	72.15	-39.1	-42.6	3.4	8436607	96	3653
2025-01-20 02:01:48.97	232.64	71.98	-39.1	-42.1	3.3	8414417	96	3474
2025-01-20 02:01:49.37	232.32	71.82	-39.1	-42.9	3.4	8445774	96	3807
2025-01-20 02:01:49.77	232.00	71.65	-39.1	-42.2	3.3	8419635	96	3504
2025-01-20 02:01:50.17	231.69	71.49	-39.2	-43.2	3.5	8435943	96	3919
2025-01-20 02:01:50.57	231.39	71.33	-39.1	-42.2	3.3	8410961	96	3510
2025-01-20 02:01:50.98	231.08	71.16	-39.1	-43.2	3.5	8402332	96	3919
2025-01-20 02:01:51.38	230.79	70.99	-39.2	-42.3	3.3	8417186	96	3521
2025-01-20 02:01:51.78	230.50	70.83	-39.1	-43.5	3.6	8415058	96	4045
2025-01-20 02:01:52.18	230.22	70.66	-39.2	-42.2	3.3	8410125	96	3498
2025-01-20 02:01:52.59	229.94	70.49	-39.1	-43.7	3.6	8409873	96	4148
2025-01-20 02:01:52.99	229.67	70.32	-39.1	-42.2	3.3	8441345	96	3515

#Closed at: 2025-01-20 02:01:53