passes_logs/2025/01/20/XPeterburg/XPeterburg__20250120_101803_SUOMI_NPP_rec.log

#Pass ID: 20250120_101803_SUOMI NPP
#Satellite: SUOMI NPP
#Configuration: NPP
#Start time: 2025-01-20 10:17:58

#Version: 1.5.20200625
#Station: XPeterburg
#Location: 30.318091 lon 59.932769 lat
#TLE: 1 37849U 11061A   25020.13575989  .00000285  00000+0  15583-3 0  9995
#TLE: 2 37849  98.7451 321.0593 0001471  33.1745 326.9523 14.19541292685643

#Time	Az	El	Level	Level2	SNR	BER	Gain	Gain2
2025-01-20 10:17:58.25	149.35	68.00	-39.9	-47.9	3.3	15352378	96	3112
2025-01-20 10:17:58.65	149.26	68.18	-39.6	-60.2	3.5	15254722	73	13158
2025-01-20 10:17:59.06	149.17	68.37	-40.1	-48.2	3.4	15171714	97	3101
2025-01-20 10:17:59.46	149.08	68.55	-39.8	-48.2	3.6	15171714	98	3231
2025-01-20 10:17:59.86	148.98	68.73	-39.9	-47.2	3.4	15147659	98	2874
2025-01-20 10:18:00.27	148.88	68.91	-39.9	-48.3	3.6	15195510	98	3241
2025-01-20 10:18:00.67	148.78	69.10	-40.1	-47.9	3.4	15186828	98	3036
2025-01-20 10:18:01.07	148.68	69.28	-39.9	-48.3	3.4	15156784	98	3241
2025-01-20 10:18:01.47	148.58	69.46	-39.9	-47.8	3.5	15180595	98	3060
2025-01-20 10:18:01.87	148.47	69.64	-39.9	-46.9	3.3	15167541	98	2766
2025-01-20 10:18:02.28	148.36	69.83	-39.9	-48.0	3.6	15215156	98	3126
2025-01-20 10:18:02.68	148.25	70.01	-39.9	-47.0	3.4	15175064	98	2793
2025-01-20 10:18:03.08	148.14	70.19	-39.9	-48.2	3.6	15209762	98	3211
2025-01-20 10:18:03.48	148.03	70.38	-39.9	-47.1	3.4	15186172	98	2814
2025-01-20 10:18:03.88	147.91	70.56	-39.9	-48.3	3.6	15186943	98	3234
2025-01-20 10:18:04.29	147.79	70.75	-40.3	-47.7	3.4	15186943	99	2868
2025-01-20 10:18:04.69	147.67	70.93	-39.9	-48.3	3.6	15152404	98	3248
2025-01-20 10:18:05.09	147.55	71.12	-40.1	-48.0	3.5	15168380	98	3061
2025-01-20 10:18:05.49	147.42	71.30	-39.9	-48.3	3.3	15125419	98	3242
2025-01-20 10:18:05.90	147.29	71.49	-39.9	-47.8	3.5	15184059	98	3057
2025-01-20 10:18:06.30	147.16	71.68	-39.9	-47.0	3.3	15169952	98	2783
2025-01-20 10:18:06.70	147.02	71.86	-39.9	-48.0	3.6	15228485	98	3139
2025-01-20 10:18:07.10	146.88	72.05	-39.9	-47.0	3.3	15145866	98	2801
2025-01-20 10:18:07.50	146.74	72.23	-40.4	-48.5	3.6	15218986	99	3158
2025-01-20 10:18:07.90	146.60	72.42	-40.4	-47.6	3.4	15133575	99	2822
2025-01-20 10:18:08.31	146.45	72.61	-39.9	-48.3	3.6	15205375	98	3249
2025-01-20 10:18:08.71	146.30	72.80	-39.9	-47.2	3.4	15146789	98	2864
2025-01-20 10:18:09.11	146.15	72.98	-39.9	-48.3	3.6	15243438	98	3242
2025-01-20 10:18:09.51	145.99	73.17	-40.1	-47.9	3.4	15243438	98	3030
2025-01-20 10:18:09.91	145.83	73.36	-39.9	-48.3	2.8	15106689	98	3254
2025-01-20 10:18:10.31	145.66	73.54	-40.3	-48.2	3.5	15221519	99	3060
2025-01-20 10:18:10.72	145.49	73.74	-40.3	-47.4	3.3	15089363	99	2764
2025-01-20 10:18:11.12	145.31	73.92	-39.9	-48.1	3.6	15222236	98	3164
2025-01-20 10:18:11.52	145.14	74.11	-39.8	-47.0	3.4	15114074	98	2814
2025-01-20 10:18:11.92	144.95	74.30	-39.9	-48.2	3.6	15255638	98	3204
2025-01-20 10:18:12.33	144.76	74.49	-39.9	-47.1	3.4	15124893	98	2831
2025-01-20 10:18:12.73	144.57	74.68	-39.9	-48.3	3.6	15245574	98	3243
2025-01-20 10:18:13.13	144.37	74.87	-39.9	-47.1	3.4	15143257	98	2843
2025-01-20 10:18:13.53	144.17	75.05	-39.9	-48.3	3.6	15218360	98	3251
2025-01-20 10:18:13.93	143.96	75.24	-39.9	-47.3	3.4	15150382	98	2910
2025-01-20 10:18:14.33	143.75	75.43	-39.9	-48.3	3.6	15150382	98	3254
2025-01-20 10:18:14.74	143.53	75.62	-39.9	-47.5	3.4	15223266	98	2946
2025-01-20 10:18:15.14	143.30	75.81	-39.9	-48.3	3.6	15166351	98	3267
2025-01-20 10:18:15.54	143.07	76.00	-40.1	-48.0	3.5	15204185	98	3081
2025-01-20 10:18:15.94	142.83	76.19	-40.1	-47.3	3.3	15138275	98	2829
2025-01-20 10:18:16.34	142.59	76.38	-39.9	-47.8	3.5	15199081	98	3086
2025-01-20 10:18:16.75	142.33	76.57	-39.9	-47.0	3.3	15156173	98	2796
2025-01-20 10:18:17.15	142.07	76.76	-39.8	-48.0	3.6	15196968	98	3141
2025-01-20 10:18:17.55	141.80	76.95	-39.9	-47.0	3.3	15166252	98	2783
2025-01-20 10:18:17.95	141.53	77.14	-40.1	-48.6	3.6	15198867	98	3290
2025-01-20 10:18:18.36	141.24	77.33	-40.1	-47.6	3.4	15148277	98	2912
2025-01-20 10:18:18.76	140.95	77.52	-39.9	-48.3	3.6	15190811	98	3251
2025-01-20 10:18:19.16	140.64	77.70	-40.3	-47.8	3.4	15116859	99	2905
2025-01-20 10:18:19.56	140.33	77.89	-39.9	-48.3	3.6	15116859	98	3235
2025-01-20 10:18:19.96	140.01	78.08	-40.3	-47.9	3.4	15194549	99	2951
2025-01-20 10:18:20.36	139.68	78.27	-39.9	-48.3	2.8	15110061	98	3241
2025-01-20 10:18:20.77	139.33	78.46	-40.3	-48.2	3.5	15200782	99	3054
2025-01-20 10:18:21.17	138.97	78.65	-40.3	-47.4	3.3	15092216	99	2779
2025-01-20 10:18:21.57	138.60	78.83	-39.9	-48.1	3.6	15215827	98	3165
2025-01-20 10:18:21.97	138.22	79.02	-39.9	-47.0	3.3	15121643	98	2801
2025-01-20 10:18:22.37	137.83	79.21	-39.9	-48.4	3.6	15265434	98	3266
2025-01-20 10:18:22.78	137.41	79.40	-39.9	-47.3	3.4	15131240	98	2877
2025-01-20 10:18:23.18	136.99	79.58	-39.9	-48.3	3.6	15245872	98	3251
2025-01-20 10:18:23.58	136.55	79.77	-40.4	-47.8	3.4	15095382	99	2900
2025-01-20 10:18:23.98	136.09	79.95	-39.9	-48.3	3.6	15226516	98	3222
2025-01-20 10:18:24.39	135.61	80.14	-40.4	-48.1	3.5	15226516	99	3009
2025-01-20 10:18:24.79	135.12	80.33	-40.4	-47.4	3.3	15078598	99	2762
2025-01-20 10:18:25.19	134.60	80.51	-39.9	-47.8	3.5	15240936	98	3076
2025-01-20 10:18:25.59	134.07	80.69	-39.9	-47.0	3.3	15104270	98	2791
2025-01-20 10:18:25.99	133.52	80.87	-40.3	-48.7	3.0	15284111	99	3225
2025-01-20 10:18:26.39	132.94	81.05	-40.3	-47.5	3.4	15065505	99	2836
2025-01-20 10:18:26.80	132.33	81.24	-39.9	-48.3	3.6	15298629	98	3248
2025-01-20 10:18:27.20	131.70	81.42	-39.9	-47.4	3.4	15054023	98	2918
2025-01-20 10:18:27.60	131.05	81.60	-39.9	-48.3	3.6	15272583	98	3239
2025-01-20 10:18:28.00	130.37	81.77	-40.3	-47.9	3.5	15077011	99	2935
2025-01-20 10:18:28.40	129.66	81.95	-39.9	-48.2	3.0	15267097	98	3223
2025-01-20 10:18:28.81	128.89	82.13	-39.9	-47.6	3.5	15089286	98	3014
2025-01-20 10:18:29.21	128.11	82.31	-39.9	-46.9	3.3	15256599	98	2752
2025-01-20 10:18:29.61	127.30	82.48	-39.9	-47.8	3.5	15256599	98	3069
2025-01-20 10:18:30.01	126.44	82.65	-39.9	-46.9	3.3	15099655	98	2760
2025-01-20 10:18:30.42	125.52	82.82	-39.8	-47.9	3.6	15271965	98	3097
2025-01-20 10:18:30.82	124.58	82.99	-39.8	-46.7	3.4	15087867	98	2706
2025-01-20 10:18:31.22	123.60	83.16	-39.8	-47.7	3.6	15267265	98	3037
2025-01-20 10:18:31.62	122.56	83.32	-39.8	-47.0	3.4	15095237	97	2815
2025-01-20 10:18:32.02	121.47	83.48	-39.8	-48.1	3.6	15275375	97	3206
2025-01-20 10:18:32.43	120.30	83.65	-39.8	-47.1	3.4	15109489	97	2838
2025-01-20 10:18:32.83	119.09	83.80	-39.9	-48.5	3.6	15243919	97	3311
2025-01-20 10:18:33.23	117.83	83.96	-39.9	-47.7	3.4	15119689	97	3030
2025-01-20 10:18:33.63	116.50	84.11	-39.9	-48.8	3.6	15248931	97	3414
2025-01-20 10:18:34.04	115.06	84.26	-40.1	-48.5	3.4	15093894	97	3223
2025-01-20 10:18:34.44	113.58	84.40	-39.8	-48.0	3.6	15093894	98	3145
2025-01-20 10:18:34.84	112.03	84.54	-40.3	-47.8	3.5	15206336	99	2920
2025-01-20 10:18:35.24	110.39	84.68	-40.3	-46.8	3.3	15084182	99	2614
2025-01-20 10:18:35.65	108.63	84.81	-40.0	-47.8	3.6	15218429	98	3021
2025-01-20 10:18:36.05	106.81	84.94	-40.0	-46.8	3.4	15078636	98	2703
2025-01-20 10:18:36.45	104.91	85.06	-39.9	-48.3	3.6	15227905	97	3233
2025-01-20 10:18:36.85	102.92	85.18	-39.9	-47.4	3.4	15097793	97	2918
2025-01-20 10:18:37.25	100.82	85.29	-39.9	-48.8	3.6	15277374	97	3417
2025-01-20 10:18:37.66	98.58	85.39	-40.1	-47.6	3.4	15071327	98	2936
2025-01-20 10:18:38.06	96.29	85.49	-39.8	-48.2	3.6	15261558	98	3223
2025-01-20 10:18:38.46	93.91	85.58	-39.9	-47.4	3.4	15102455	98	2939
2025-01-20 10:18:38.86	91.43	85.66	-39.8	-48.2	3.2	15301147	98	3229
2025-01-20 10:18:39.26	88.86	85.73	-39.8	-47.5	3.5	15109100	98	2965
2025-01-20 10:18:39.66	86.21	85.79	-39.9	-46.8	3.3	15109100	98	2724
2025-01-20 10:18:40.07	83.42	85.85	-39.8	-47.7	3.5	15268486	98	3050
2025-01-20 10:18:40.47	80.63	85.89	-39.8	-46.7	3.3	15095230	98	2723
2025-01-20 10:18:40.87	77.79	85.92	-39.9	-47.8	3.5	15264114	98	3071
2025-01-20 10:18:41.27	74.90	85.95	-39.8	-46.8	3.4	15103317	98	2757
2025-01-20 10:18:41.67	71.99	85.96	-39.9	-48.0	3.6	15261413	98	3136
2025-01-20 10:18:42.08	68.99	85.97	-39.8	-46.9	3.4	15116790	98	2776
2025-01-20 10:18:42.48	66.07	85.96	-39.8	-47.8	3.6	15260612	98	3087
2025-01-20 10:18:42.88	63.17	85.94	-39.8	-46.5	3.4	15125144	98	2675
2025-01-20 10:18:43.28	60.30	85.91	-39.8	-48.1	3.6	15236785	97	3182
2025-01-20 10:18:43.68	57.48	85.87	-39.8	-46.9	3.4	15137672	97	2791
2025-01-20 10:18:44.09	54.65	85.82	-39.8	-47.8	3.6	15238647	97	3092
2025-01-20 10:18:44.49	51.96	85.77	-40.0	-47.7	3.4	15238647	97	2969
2025-01-20 10:18:44.89	49.34	85.70	-39.8	-48.3	2.8	15100608	97	3246
2025-01-20 10:18:45.29	46.81	85.62	-40.1	-48.6	3.5	15222747	97	3261
2025-01-20 10:18:45.69	44.37	85.54	-40.1	-47.7	3.3	15082466	97	2937
2025-01-20 10:18:46.09	42.03	85.45	-40.3	-48.2	3.6	15217094	99	3064
2025-01-20 10:18:46.49	39.78	85.35	-40.3	-47.2	3.4	15078010	99	2727
2025-01-20 10:18:46.90	37.58	85.24	-39.8	-48.1	3.6	15240104	98	3166
2025-01-20 10:18:47.30	35.53	85.13	-39.9	-47.2	3.4	15105232	98	2859
2025-01-20 10:18:47.70	33.57	85.01	-39.9	-48.3	3.6	15289489	98	3247
2025-01-20 10:18:48.10	31.71	84.89	-39.9	-47.2	3.4	15107765	98	2876
2025-01-20 10:18:48.50	29.94	84.76	-39.8	-48.1	3.6	15268211	98	3195
2025-01-20 10:18:48.90	28.25	84.63	-39.8	-47.2	3.4	15096321	98	2865
2025-01-20 10:18:49.31	26.61	84.48	-39.8	-47.8	3.6	15258163	98	3076
2025-01-20 10:18:49.71	25.09	84.34	-39.8	-47.0	3.5	15258163	98	2837
2025-01-20 10:18:50.11	23.64	84.20	-39.8	-47.8	3.3	15121849	98	3105
2025-01-20 10:18:50.51	22.27	84.05	-40.1	-47.9	3.5	15239028	98	3050
2025-01-20 10:18:50.91	20.96	83.90	-40.0	-47.1	3.3	15086082	98	2783
2025-01-20 10:18:51.31	19.72	83.74	-39.9	-47.9	3.6	15243492	98	3090
2025-01-20 10:18:51.71	18.54	83.58	-39.8	-46.9	3.4	15109413	98	2764
2025-01-20 10:18:52.11	17.42	83.42	-39.8	-48.0	3.6	15272956	98	3143
2025-01-20 10:18:52.51	16.35	83.26	-39.8	-46.7	3.4	15106781	98	2734
2025-01-20 10:18:52.92	15.31	83.09	-39.8	-47.8	3.6	15256454	98	3104
2025-01-20 10:18:53.32	14.34	82.93	-39.8	-46.9	3.4	15116188	98	2767
2025-01-20 10:18:53.72	13.42	82.76	-39.8	-48.0	3.6	15242858	98	3145
2025-01-20 10:18:54.12	12.54	82.59	-39.8	-47.2	3.4	15132728	98	2880
2025-01-20 10:18:54.52	11.70	82.42	-39.8	-48.1	3.6	15132728	98	3186
2025-01-20 10:18:54.92	10.90	82.24	-39.9	-47.4	3.4	15240669	98	2923
2025-01-20 10:18:55.32	10.13	82.07	-39.9	-48.1	3.2	15137565	98	3194
2025-01-20 10:18:55.73	9.38	81.89	-40.0	-48.0	3.5	15228118	98	3076
2025-01-20 10:18:56.13	8.68	81.71	-40.0	-47.2	3.3	15113609	98	2816
2025-01-20 10:18:56.53	8.01	81.53	-39.9	-47.8	3.5	15185226	98	3085
2025-01-20 10:18:56.93	7.37	81.36	-39.9	-46.9	3.4	15162590	98	2762
2025-01-20 10:18:57.33	6.75	81.18	-39.9	-47.9	3.6	15206245	98	3095
2025-01-20 10:18:57.74	6.14	80.99	-39.8	-46.9	3.4	15174743	98	2774
2025-01-20 10:18:58.14	5.58	80.81	-39.9	-48.1	3.6	15189704	98	3194
2025-01-20 10:18:58.54	5.03	80.63	-39.9	-47.1	3.4	15179664	98	2836
2025-01-20 10:18:58.94	4.51	80.44	-39.9	-48.3	3.6	15184448	98	3237
2025-01-20 10:18:59.34	4.01	80.26	-40.3	-47.8	3.4	15184448	99	2896
2025-01-20 10:18:59.75	3.51	80.07	-39.9	-48.3	3.6	15164268	98	3243
2025-01-20 10:19:00.15	3.04	79.89	-39.9	-47.5	3.4	15169395	98	2963
2025-01-20 10:19:00.55	2.59	79.70	-39.9	-48.3	3.6	15176239	98	3257
2025-01-20 10:19:00.95	2.16	79.52	-40.1	-47.9	3.5	15219146	98	3050
2025-01-20 10:19:01.35	1.74	79.33	-39.9	-48.3	2.9	15130851	98	3254
2025-01-20 10:19:01.76	1.33	79.14	-39.9	-47.8	3.5	15165290	98	3061
2025-01-20 10:19:02.16	0.94	78.96	-39.9	-46.9	3.3	15163948	98	2769
2025-01-20 10:19:02.56	0.57	78.77	-40.1	-48.4	3.5	15187713	98	3207
2025-01-20 10:19:02.96	0.20	78.58	-40.1	-47.5	3.3	15153778	98	2882
2025-01-20 10:19:03.36	359.85	78.40	-39.8	-48.2	3.6	15169929	98	3222
2025-01-20 10:19:03.76	359.51	78.21	-39.9	-47.2	3.4	15163589	98	2857
2025-01-20 10:19:04.17	359.18	78.02	-39.9	-48.3	3.6	15187477	98	3255
2025-01-20 10:19:04.57	358.86	77.83	-39.9	-47.1	3.4	15187477	98	2845
2025-01-20 10:19:04.97	358.55	77.64	-39.9	-48.3	3.6	15198287	98	3240
2025-01-20 10:19:05.37	358.25	77.45	-39.9	-47.3	3.4	15174064	98	2888
2025-01-20 10:19:05.77	357.96	77.27	-39.9	-48.3	3.6	15198455	98	3233
2025-01-20 10:19:06.18	357.68	77.07	-40.4	-48.0	3.4	15133895	99	2966
2025-01-20 10:19:06.58	357.40	76.89	-39.9	-48.4	3.6	15215652	98	3269
2025-01-20 10:19:06.98	357.14	76.70	-40.4	-48.2	3.5	15089050	99	3036
2025-01-20 10:19:07.38	356.88	76.51	-40.4	-47.4	3.3	15207443	99	2770
2025-01-20 10:19:07.78	356.63	76.32	-39.9	-48.0	3.5	15129447	98	3122
2025-01-20 10:19:08.19	356.39	76.13	-39.9	-47.1	3.3	15214927	98	2818
2025-01-20 10:19:08.59	356.15	75.94	-39.9	-48.2	3.6	15192878	98	3214
2025-01-20 10:19:08.99	355.92	75.75	-39.9	-47.1	3.4	15206314	98	2824
2025-01-20 10:19:09.39	355.70	75.56	-39.9	-48.3	3.6	15206314	98	3251
2025-01-20 10:19:09.79	355.48	75.38	-40.4	-47.7	3.4	15132270	99	2881
2025-01-20 10:19:10.20	355.27	75.18	-39.9	-48.3	3.6	15202301	98	3246
2025-01-20 10:19:10.60	355.06	75.00	-39.9	-47.5	3.4	15151260	98	2950
2025-01-20 10:19:11.00	354.86	74.81	-39.9	-48.3	3.4	15185577	98	3258
2025-01-20 10:19:11.40	354.67	74.62	-39.9	-47.5	3.4	15199806	98	2974
2025-01-20 10:19:11.80	354.48	74.43	-39.9	-48.3	3.2	15181541	98	3244
2025-01-20 10:19:12.20	354.29	74.25	-40.3	-48.2	3.5	15180572	99	3052
2025-01-20 10:19:12.61	354.11	74.05	-40.3	-47.4	3.3	15149963	99	2774
2025-01-20 10:19:13.01	353.93	73.87	-40.1	-48.6	3.6	15168479	98	3284
2025-01-20 10:19:13.41	353.76	73.68	-40.1	-47.6	3.3	15136474	98	2907
2025-01-20 10:19:13.81	353.59	73.49	-39.9	-48.3	3.6	15181198	98	3240
2025-01-20 10:19:14.22	353.42	73.30	-40.4	-47.8	3.4	15120689	99	2893
2025-01-20 10:19:14.62	353.26	73.12	-39.9	-48.3	3.6	15120689	98	3228
2025-01-20 10:19:15.02	353.11	72.93	-40.4	-48.1	3.5	15195014	99	2987
2025-01-20 10:19:15.42	352.95	72.74	-39.9	-48.3	3.3	15104804	98	3253
2025-01-20 10:19:15.82	352.80	72.56	-39.9	-47.8	3.5	15203407	98	3056
2025-01-20 10:19:16.22	352.66	72.37	-39.9	-46.9	3.3	15127822	98	2758
2025-01-20 10:19:16.63	352.51	72.18	-40.3	-48.6	3.6	15243980	99	3172
2025-01-20 10:19:17.03	352.37	72.00	-40.4	-47.5	3.4	15095619	99	2805
2025-01-20 10:19:17.43	352.24	71.81	-39.9	-48.3	3.6	15198272	98	3233
2025-01-20 10:19:17.83	352.10	71.63	-39.9	-47.2	3.4	15128456	98	2846
2025-01-20 10:19:18.23	351.97	71.44	-39.9	-48.3	3.6	15244903	98	3254
2025-01-20 10:19:18.63	351.84	71.26	-39.9	-47.4	3.4	15143417	98	2914
2025-01-20 10:19:19.04	351.72	71.07	-39.9	-48.4	3.6	15243598	98	3274
2025-01-20 10:19:19.44	351.59	70.88	-39.9	-47.4	3.4	15243598	98	2937
2025-01-20 10:19:19.84	351.47	70.70	-39.9	-48.3	3.6	15136322	98	3242
2025-01-20 10:19:20.24	351.36	70.52	-40.4	-48.1	3.5	15221618	99	3006
2025-01-20 10:19:20.65	351.24	70.33	-39.9	-48.3	2.8	15118698	98	3257

#Closed at: 2025-01-20 10:19:21