passes_logs/2025/01/20/XPeterburg/XPeterburg__20250120_002519_SUOMI_NPP_rec.log

#Pass ID: 20250120_002519_SUOMI NPP
#Satellite: SUOMI NPP
#Configuration: NPP
#Start time: 2025-01-20 00:25:14

#Version: 1.5.20200625
#Station: XPeterburg
#Location: 30.318091 lon 59.932769 lat
#TLE: 1 37849U 11061A   25017.17539025  .00000183  00000+0  10766-3 0  9991
#TLE: 2 37849  98.7449 318.1364 0001599  37.8052 322.3236 14.19539290685226

#Time	Az	El	Level	Level2	SNR	BER	Gain	Gain2
2025-01-20 00:25:14.81	17.54	67.86	-39.6	-47.0	3.3	15352348	96	2871
2025-01-20 00:25:15.21	17.52	68.04	-39.6	-59.2	3.6	15283264	73	11692
2025-01-20 00:25:15.61	17.51	68.22	-39.6	-47.1	3.3	15209548	96	2914
2025-01-20 00:25:16.01	17.49	68.40	-39.9	-48.4	3.4	15209548	97	3274
2025-01-20 00:25:16.41	17.47	68.59	-39.8	-47.3	3.4	15115852	97	2898
2025-01-20 00:25:16.81	17.45	68.77	-39.6	-47.9	3.6	15224060	97	3201
2025-01-20 00:25:17.22	17.44	68.96	-39.6	-47.0	3.4	15135429	97	2865
2025-01-20 00:25:17.62	17.42	69.14	-39.6	-47.9	3.6	15199256	97	3201
2025-01-20 00:25:18.02	17.40	69.32	-39.8	-47.7	3.5	15174346	97	3051
2025-01-20 00:25:18.42	17.38	69.51	-39.8	-47.0	3.3	15165153	97	2798
2025-01-20 00:25:18.82	17.36	69.69	-39.8	-48.1	3.6	15161300	97	3186
2025-01-20 00:25:19.23	17.34	69.88	-39.8	-47.1	3.4	15131408	97	2853
2025-01-20 00:25:19.63	17.32	70.07	-39.6	-47.9	3.6	15177238	97	3201
2025-01-20 00:25:20.03	17.30	70.25	-39.6	-46.8	3.4	15164413	97	2812
2025-01-20 00:25:20.43	17.28	70.44	-39.6	-47.9	3.6	15205108	97	3192
2025-01-20 00:25:20.83	17.25	70.63	-39.6	-46.9	3.4	15205108	97	2848
2025-01-20 00:25:21.23	17.23	70.81	-39.6	-47.9	3.6	15159889	97	3192
2025-01-20 00:25:21.64	17.21	71.01	-39.6	-47.0	3.4	15197738	97	2886
2025-01-20 00:25:22.04	17.19	71.19	-39.6	-47.9	3.6	15173545	97	3205
2025-01-20 00:25:22.44	17.16	71.38	-39.8	-47.7	3.5	15185424	97	3040
2025-01-20 00:25:22.84	17.14	71.57	-39.8	-47.0	3.3	15147453	97	2806
2025-01-20 00:25:23.24	17.11	71.76	-39.6	-47.6	3.5	15172355	97	3080
2025-01-20 00:25:23.64	17.09	71.95	-39.6	-46.6	3.4	15163421	97	2763
2025-01-20 00:25:24.05	17.06	72.14	-39.7	-48.1	2.9	15230461	97	3237
2025-01-20 00:25:24.45	17.03	72.33	-39.7	-47.0	3.4	15135299	97	2822
2025-01-20 00:25:24.85	17.01	72.52	-39.6	-47.9	3.6	15203414	97	3204
2025-01-20 00:25:25.25	16.98	72.71	-39.6	-46.9	3.4	15142753	97	2837
2025-01-20 00:25:25.66	16.95	72.91	-39.6	-47.9	3.6	15242279	97	3214
2025-01-20 00:25:26.06	16.92	73.10	-39.6	-46.9	3.4	15242279	97	2858
2025-01-20 00:25:26.46	16.89	73.29	-39.5	-47.9	3.6	15143707	97	3202
2025-01-20 00:25:26.86	16.86	73.48	-39.5	-47.0	3.4	15231628	97	2917
2025-01-20 00:25:27.26	16.83	73.67	-39.5	-47.8	3.1	15143287	97	3180
2025-01-20 00:25:27.67	16.79	73.87	-39.8	-47.6	3.5	15217292	97	3054
2025-01-20 00:25:28.07	16.76	74.06	-39.8	-46.9	3.4	15132354	97	2797
2025-01-20 00:25:28.47	16.72	74.26	-39.6	-47.6	3.6	15194816	97	3100
2025-01-20 00:25:28.87	16.69	74.45	-39.6	-46.6	3.4	15134933	97	2772
2025-01-20 00:25:29.27	16.65	74.64	-39.6	-47.8	3.6	15244834	97	3176
2025-01-20 00:25:29.67	16.62	74.84	-39.6	-46.8	3.4	15140281	97	2830
2025-01-20 00:25:30.07	16.58	75.03	-39.6	-47.8	3.6	15225967	97	3173
2025-01-20 00:25:30.48	16.54	75.23	-39.6	-46.9	3.4	15149627	97	2853
2025-01-20 00:25:30.88	16.50	75.42	-39.6	-47.9	3.6	15149627	97	3203
2025-01-20 00:25:31.28	16.45	75.62	-39.8	-47.6	3.5	15229202	97	3014
2025-01-20 00:25:31.68	16.41	75.81	-39.6	-47.9	2.6	15123199	97	3205
2025-01-20 00:25:32.09	16.37	76.01	-39.6	-47.5	3.5	15207977	97	3040
2025-01-20 00:25:32.49	16.32	76.21	-39.6	-46.6	3.3	15137191	97	2746
2025-01-20 00:25:32.89	16.27	76.41	-39.8	-48.2	3.6	15240562	97	3216
2025-01-20 00:25:33.29	16.23	76.60	-39.8	-47.1	3.4	15093711	97	2868
2025-01-20 00:25:33.70	16.17	76.80	-39.6	-47.9	3.6	15227478	97	3200
2025-01-20 00:25:34.10	16.12	77.00	-39.8	-47.3	3.4	15074768	97	2916
2025-01-20 00:25:34.50	16.07	77.20	-39.6	-47.9	3.6	15227821	97	3218
2025-01-20 00:25:34.90	16.01	77.39	-39.8	-47.5	3.4	15067039	97	2984
2025-01-20 00:25:35.30	15.96	77.59	-39.6	-48.0	3.6	15235900	97	3223
2025-01-20 00:25:35.71	15.90	77.80	-39.6	-47.2	3.5	15107322	97	2955
2025-01-20 00:25:36.11	15.84	77.99	-39.6	-46.5	3.3	15107322	97	2718
2025-01-20 00:25:36.51	15.77	78.19	-39.6	-47.5	3.5	15281974	97	3047
2025-01-20 00:25:36.91	15.71	78.39	-39.6	-46.5	3.3	15108146	97	2739
2025-01-20 00:25:37.31	15.64	78.59	-39.6	-47.6	3.6	15261413	97	3087
2025-01-20 00:25:37.72	15.57	78.79	-39.6	-46.6	3.4	15098548	97	2758
2025-01-20 00:25:38.12	15.49	78.99	-39.6	-47.8	3.6	15268280	97	3179
2025-01-20 00:25:38.52	15.42	79.19	-39.6	-46.7	3.4	15113243	97	2787
2025-01-20 00:25:38.92	15.34	79.39	-39.6	-47.9	3.6	15260765	97	3195
2025-01-20 00:25:39.32	15.26	79.59	-39.6	-46.8	3.4	15122200	97	2846
2025-01-20 00:25:39.73	15.17	79.79	-39.6	-47.8	3.6	15238342	97	3185
2025-01-20 00:25:40.13	15.08	79.99	-39.6	-46.8	3.4	15132087	97	2838
2025-01-20 00:25:40.53	14.99	80.19	-39.6	-47.9	3.6	15238197	97	3201
2025-01-20 00:25:40.93	14.89	80.39	-39.6	-47.0	3.4	15238197	97	2884
2025-01-20 00:25:41.33	14.79	80.60	-39.6	-47.8	3.6	15151611	97	3175
2025-01-20 00:25:41.73	14.68	80.80	-39.8	-47.7	3.5	15236717	97	3047
2025-01-20 00:25:42.13	14.57	81.00	-39.8	-46.9	3.3	15119171	97	2800
2025-01-20 00:25:42.54	14.46	81.20	-39.6	-47.4	3.5	15214103	97	3044
2025-01-20 00:25:42.94	14.33	81.40	-39.6	-46.6	3.3	15136039	97	2760
2025-01-20 00:25:43.34	14.21	81.61	-39.6	-47.7	3.6	15253829	97	3154
2025-01-20 00:25:43.74	14.07	81.81	-39.6	-46.7	3.4	15128410	97	2799
2025-01-20 00:25:44.14	13.93	82.01	-39.6	-47.9	3.6	15236824	97	3212
2025-01-20 00:25:44.54	13.79	82.21	-39.6	-46.8	3.4	15143463	97	2823
2025-01-20 00:25:44.94	13.63	82.41	-39.5	-47.9	3.6	15228546	97	3205
2025-01-20 00:25:45.35	13.46	82.62	-39.8	-47.3	3.4	15106971	97	2920
2025-01-20 00:25:45.75	13.29	82.82	-39.6	-47.8	3.6	15209640	97	3188
2025-01-20 00:25:46.15	13.10	83.02	-39.5	-47.0	3.4	15209640	97	2907
2025-01-20 00:25:46.55	12.91	83.23	-39.5	-47.8	3.5	15128707	97	3182
2025-01-20 00:25:46.96	12.69	83.43	-39.5	-47.2	3.5	15253196	97	2959
2025-01-20 00:25:47.36	12.47	83.63	-39.5	-46.4	3.3	15132293	97	2711
2025-01-20 00:25:47.76	12.23	83.84	-39.7	-47.8	3.5	15234954	97	3118
2025-01-20 00:25:48.16	11.98	84.04	-39.7	-46.9	3.4	15100700	97	2800
2025-01-20 00:25:48.56	11.71	84.24	-42.5	-52.4	3.6	15231849	97	3824
2025-01-20 00:25:48.96	11.42	84.44	-39.7	-47.1	3.4	15080802	97	2868
2025-01-20 00:25:49.37	11.10	84.65	-39.5	-47.7	3.6	15230651	97	3167
2025-01-20 00:25:49.77	10.76	84.85	-39.7	-47.3	3.4	15071739	97	2944
2025-01-20 00:25:50.17	10.40	85.06	-39.5	-47.8	3.6	15246452	97	3175
2025-01-20 00:25:50.57	10.00	85.26	-39.7	-47.6	3.5	15072517	97	3044
2025-01-20 00:25:50.97	9.56	85.46	-39.7	-46.7	3.3	15072517	97	2767
2025-01-20 00:25:51.37	9.09	85.66	-39.8	-47.9	3.5	15250556	97	3155
2025-01-20 00:25:51.78	8.56	85.87	-39.8	-47.0	3.4	15066017	97	2844
2025-01-20 00:25:52.18	7.98	86.07	-39.5	-47.8	3.6	15273429	97	3179
2025-01-20 00:25:52.58	7.34	86.27	-39.5	-46.7	3.4	15066963	97	2802
2025-01-20 00:25:52.98	6.63	86.47	-39.5	-47.7	3.6	15280937	97	3169
2025-01-20 00:25:53.38	5.84	86.67	-39.7	-47.3	3.4	15073883	97	2941
2025-01-20 00:25:53.79	4.92	86.87	-39.5	-47.8	3.6	15277755	97	3170
2025-01-20 00:25:54.19	3.89	87.07	-39.8	-47.7	3.5	15056083	97	3068
2025-01-20 00:25:54.59	2.72	87.27	-39.7	-46.8	3.3	15248939	97	2773
2025-01-20 00:25:54.99	1.37	87.46	-39.7	-47.9	3.6	15058052	97	3143
2025-01-20 00:25:55.39	359.79	87.66	-39.7	-46.9	3.3	15234664	97	2819
2025-01-20 00:25:55.80	357.87	87.86	-39.5	-47.7	3.6	15234664	97	3150
2025-01-20 00:25:56.20	355.63	88.05	-39.5	-46.5	3.4	15112289	97	2757
2025-01-20 00:25:56.60	352.91	88.23	-39.5	-47.8	3.6	15238037	97	3183
2025-01-20 00:25:57.00	349.56	88.41	-39.7	-47.1	3.4	15129295	97	2877
2025-01-20 00:25:57.40	345.37	88.59	-39.5	-47.6	3.6	15212402	97	3140
2025-01-20 00:25:57.81	339.88	88.76	-39.7	-47.5	3.4	15134269	97	3000
2025-01-20 00:25:58.21	332.96	88.91	-39.5	-47.8	2.6	15154556	97	3181
2025-01-20 00:25:58.61	324.02	89.04	-39.5	-47.2	3.5	15162277	97	2990
2025-01-20 00:25:59.01	312.67	89.14	-39.5	-46.4	3.3	15189994	97	2712
2025-01-20 00:25:59.41	299.08	89.19	-39.5	-47.5	3.6	15198089	97	3077
2025-01-20 00:25:59.81	284.35	89.20	-39.5	-46.5	3.4	15192169	97	2744
2025-01-20 00:26:00.22	269.96	89.15	-39.5	-47.6	3.6	15190177	97	3126
2025-01-20 00:26:00.62	257.99	89.06	-39.5	-46.5	3.4	15194061	97	2765
2025-01-20 00:26:01.02	248.46	88.94	-39.5	-47.7	3.6	15194061	97	3179
2025-01-20 00:26:01.42	241.07	88.80	-39.5	-46.6	3.4	15163574	97	2792
2025-01-20 00:26:01.82	235.34	88.63	-39.5	-47.8	3.6	15213798	97	3193
2025-01-20 00:26:02.23	230.76	88.46	-39.5	-46.7	3.4	15156784	97	2812
2025-01-20 00:26:02.63	227.22	88.28	-39.5	-47.8	3.6	15223526	97	3192
2025-01-20 00:26:03.03	224.36	88.09	-39.5	-47.0	3.4	15145156	97	2897
2025-01-20 00:26:03.43	222.01	87.90	-39.5	-47.7	3.6	15234313	97	3174
2025-01-20 00:26:03.83	220.05	87.71	-39.7	-47.5	3.5	15104621	97	3015
2025-01-20 00:26:04.23	218.40	87.52	-39.7	-46.8	3.3	15236633	97	2780
2025-01-20 00:26:04.64	216.95	87.32	-39.5	-47.3	3.5	15109436	97	3013
2025-01-20 00:26:05.04	215.74	87.12	-39.5	-46.4	3.4	15226448	97	2717
2025-01-20 00:26:05.44	214.68	86.92	-39.7	-47.9	3.6	15099189	97	3164
2025-01-20 00:26:05.84	213.75	86.72	-39.7	-46.9	3.4	15099189	97	2815
2025-01-20 00:26:06.24	212.93	86.52	-39.5	-47.7	3.6	15249031	97	3158
2025-01-20 00:26:06.65	212.18	86.32	-39.5	-46.7	3.4	15108833	97	2824
2025-01-20 00:26:07.05	211.52	86.12	-39.5	-47.7	3.6	15216766	97	3163
2025-01-20 00:26:07.45	210.93	85.92	-39.5	-46.7	3.4	15174713	97	2813
2025-01-20 00:26:07.85	210.40	85.72	-39.5	-47.7	3.6	15222175	97	3183
2025-01-20 00:26:08.26	209.90	85.51	-39.7	-47.4	3.4	15121490	97	2982
2025-01-20 00:26:08.66	209.46	85.31	-39.5	-47.7	2.7	15217720	97	3167
2025-01-20 00:26:09.06	209.05	85.11	-39.5	-47.1	3.5	15125053	97	2962
2025-01-20 00:26:09.46	208.68	84.90	-39.5	-46.3	3.3	15209083	97	2700
2025-01-20 00:26:09.86	208.33	84.70	-39.5	-47.4	3.6	15182510	97	3050
2025-01-20 00:26:10.27	208.00	84.49	-39.5	-46.4	3.4	15189758	97	2737
2025-01-20 00:26:10.67	207.71	84.29	-39.7	-48.1	3.0	15125152	97	3223
2025-01-20 00:26:11.07	207.43	84.09	-39.7	-47.0	3.4	15125152	97	2834
2025-01-20 00:26:11.47	207.17	83.89	-39.5	-47.6	3.6	15203460	97	3142
2025-01-20 00:26:11.87	206.93	83.68	-39.7	-47.2	3.4	15152626	97	2929
2025-01-20 00:26:12.28	206.70	83.48	-39.5	-47.6	3.6	15149276	97	3147
2025-01-20 00:26:12.68	206.49	83.27	-39.5	-47.1	3.4	15156333	97	2943
2025-01-20 00:26:13.08	206.29	83.07	-39.5	-46.3	3.3	15184295	97	2687
2025-01-20 00:26:13.48	206.11	82.87	-39.5	-47.3	3.5	15204368	97	3012
2025-01-20 00:26:13.88	205.93	82.67	-39.5	-46.4	3.4	15181915	97	2728
2025-01-20 00:26:14.28	205.76	82.47	-39.7	-48.0	3.6	15190719	97	3188
2025-01-20 00:26:14.69	205.60	82.26	-39.7	-46.9	3.4	15148994	97	2816
2025-01-20 00:26:15.09	205.45	82.06	-39.5	-47.8	3.6	15173316	97	3188
2025-01-20 00:26:15.49	205.31	81.86	-39.5	-46.6	3.4	15167327	97	2781
2025-01-20 00:26:15.89	205.17	81.65	-39.5	-47.7	3.6	15167327	97	3151
2025-01-20 00:26:16.29	205.04	81.45	-39.5	-46.8	3.4	15215034	97	2861
2025-01-20 00:26:16.70	204.92	81.25	-39.5	-47.6	3.6	15155891	97	3141
2025-01-20 00:26:17.10	204.80	81.04	-39.6	-47.2	3.5	15202682	97	2934
2025-01-20 00:26:17.50	204.69	80.84	-39.5	-47.6	3.3	15121742	97	3141
2025-01-20 00:26:17.90	204.58	80.64	-39.7	-47.6	3.5	15192756	97	3062
2025-01-20 00:26:18.31	204.48	80.44	-39.7	-46.9	3.3	15108901	97	2804
2025-01-20 00:26:18.71	204.38	80.24	-39.7	-48.0	3.8	15185111	97	3201
2025-01-20 00:26:19.11	204.29	80.04	-39.7	-47.0	3.4	15098068	97	2864
2025-01-20 00:26:19.51	204.20	79.84	-39.5	-47.7	3.6	15212135	97	3162
2025-01-20 00:26:19.91	204.11	79.63	-39.5	-46.7	3.4	15124473	97	2818
2025-01-20 00:26:20.31	204.03	79.44	-39.5	-47.7	3.6	15262184	97	3158
2025-01-20 00:26:20.72	203.95	79.23	-39.5	-46.8	3.4	15135200	97	2851
2025-01-20 00:26:21.12	203.87	79.03	-39.5	-47.6	3.6	15135200	97	3158
2025-01-20 00:26:21.52	203.80	78.83	-39.7	-47.5	3.5	15238990	97	3014
2025-01-20 00:26:21.92	203.73	78.63	-39.7	-46.7	3.3	15099266	97	2766
2025-01-20 00:26:22.32	203.66	78.43	-39.5	-47.2	3.5	15222793	97	3000
2025-01-20 00:26:22.73	203.59	78.23	-39.5	-46.3	3.4	15111740	97	2704
2025-01-20 00:26:23.13	203.53	78.03	-39.6	-48.0	3.0	15268234	97	3217
2025-01-20 00:26:23.53	203.46	77.83	-39.6	-46.9	3.4	15076759	97	2825
2025-01-20 00:26:23.93	203.40	77.64	-39.5	-47.6	3.6	15255187	97	3151
2025-01-20 00:26:24.33	203.35	77.44	-39.5	-46.8	3.4	15099815	97	2846
2025-01-20 00:26:24.73	203.29	77.24	-39.5	-47.7	3.6	15282287	97	3167
2025-01-20 00:26:25.14	203.24	77.04	-39.5	-46.9	3.5	15095687	97	2893
2025-01-20 00:26:25.54	203.18	76.84	-39.5	-47.7	3.4	15267433	97	3166
2025-01-20 00:26:25.94	203.13	76.64	-39.7	-47.5	3.5	15267433	97	3040
2025-01-20 00:26:26.34	203.08	76.45	-39.7	-46.7	3.3	15066337	97	2762
2025-01-20 00:26:26.74	203.04	76.25	-39.6	-47.9	3.8	15286407	97	3176
2025-01-20 00:26:27.14	202.99	76.06	-39.7	-46.9	3.4	15027877	97	2828
2025-01-20 00:26:27.55	202.94	75.85	-39.5	-47.6	3.6	15269699	97	3140
2025-01-20 00:26:27.95	202.90	75.66	-39.5	-46.6	3.4	15056663	97	2802
2025-01-20 00:26:28.35	202.86	75.46	-39.5	-47.7	3.6	15276229	97	3177
2025-01-20 00:26:28.75	202.82	75.27	-39.7	-47.3	3.4	15081253	97	2938
2025-01-20 00:26:29.15	202.78	75.07	-39.5	-47.7	3.6	15261642	97	3164
2025-01-20 00:26:29.56	202.74	74.87	-39.5	-47.0	3.5	15081138	97	2926
2025-01-20 00:26:29.96	202.70	74.68	-39.5	-46.3	3.3	15252113	97	2695
2025-01-20 00:26:30.36	202.66	74.49	-39.5	-47.3	3.5	15141632	97	3012
2025-01-20 00:26:30.76	202.63	74.29	-39.6	-46.4	3.3	15251487	97	2720
2025-01-20 00:26:31.16	202.59	74.10	-39.5	-47.5	3.6	15251487	97	3074
2025-01-20 00:26:31.56	202.56	73.91	-39.5	-46.6	3.3	15121704	97	2766
2025-01-20 00:26:31.97	202.53	73.71	-39.5	-47.7	3.6	15255577	97	3166
2025-01-20 00:26:32.37	202.50	73.52	-39.5	-46.6	3.4	15112007	97	2783
2025-01-20 00:26:32.77	202.46	73.33	-39.5	-47.8	3.6	15272254	97	3177
2025-01-20 00:26:33.17	202.43	73.13	-39.6	-46.6	3.4	15115447	97	2785
2025-01-20 00:26:33.57	202.40	72.94	-39.5	-47.7	3.6	15280548	97	3161
2025-01-20 00:26:33.98	202.37	72.75	-39.8	-47.3	3.4	15061363	97	2940
2025-01-20 00:26:34.38	202.35	72.56	-39.6	-47.9	3.6	15237632	97	3205
2025-01-20 00:26:34.78	202.32	72.37	-39.8	-47.6	3.4	15068313	97	3020
2025-01-20 00:26:35.18	202.29	72.18	-39.6	-47.9	3.1	15286018	97	3204
2025-01-20 00:26:35.58	202.26	71.99	-39.5	-47.2	3.5	15064506	97	2971
2025-01-20 00:26:35.99	202.24	71.79	-39.5	-46.4	3.3	15064506	97	2696
2025-01-20 00:26:36.39	202.21	71.60	-39.8	-48.1	3.6	15278945	97	3198
2025-01-20 00:26:36.79	202.19	71.41	-39.8	-47.0	3.4	15063919	97	2836
2025-01-20 00:26:37.19	202.16	71.22	-39.5	-47.8	3.6	15280303	97	3182
2025-01-20 00:26:37.59	202.14	71.04	-39.5	-46.7	3.4	15073402	97	2811
2025-01-20 00:26:37.99	202.12	70.85	-39.6	-47.9	3.6	15253814	97	3204
2025-01-20 00:26:38.40	202.10	70.66	-39.5	-46.9	3.5	15119964	97	2862
2025-01-20 00:26:38.80	202.07	70.47	-39.5	-47.8	3.6	15255859	97	3175

#Closed at: 2025-01-20 00:26:39