passes_logs/2026/01/10/PlanumMoscow/PlanumMoscow__20260110_181003_METOP-C_rec.log

#Pass ID: 20260110_181003_METOP-C
#Satellite: METOP-C
#Configuration: METOP-C
#Start time: 2026-01-10 18:10:08.373443

#LorettStation: 1.0.0 05.05.2024
#Station: PlanumMoscow
#Location: 37.6253844 lon 55.6713361 lat
#TLE: 1 43689U 18087A   25293.88981035  .00000265  00000+0  14109-3 0  9997
#TLE: 2 43689  98.7006 352.4487 0002041 122.1097 238.0279 14.21482740360838

#Time	Az	El	Level	SNR
2026-01-10 18:13:46.795830	168.8	29.7	-66.9	5.5
2026-01-10 18:13:49.040851	168.9	30.1	-66.9	5.3
2026-01-10 18:13:51.284426	169.0	30.5	-66.8	1.3
2026-01-10 18:13:53.526949	169.1	31.0	-66.8	4.7
2026-01-10 18:13:55.770018	169.1	31.4	-66.8	4.6
2026-01-10 18:13:58.015029	169.2	31.9	-67.5	4.8
2026-01-10 18:14:00.262051	169.3	32.4	-66.9	4.7
2026-01-10 18:14:02.504576	169.4	32.8	-67.4	5.1
2026-01-10 18:14:04.748092	169.5	33.3	-66.6	3.8
2026-01-10 18:14:06.991616	169.6	33.8	-67.4	4.2
2026-01-10 18:14:09.235131	169.7	34.3	-67.7	5.2
2026-01-10 18:14:11.479647	169.8	34.8	-67.5	4.9
2026-01-10 18:14:13.723163	170.0	35.3	-67.4	4.4
2026-01-10 18:14:15.965689	170.1	35.8	-67.5	5.6
2026-01-10 18:14:18.208214	170.2	36.3	-67.5	4.0
2026-01-10 18:14:20.451244	170.3	36.9	-68.0	5.4
2026-01-10 18:14:22.694264	170.4	37.4	-67.9	4.0
2026-01-10 18:14:24.938276	170.6	38.0	-67.1	2.4
2026-01-10 18:14:27.181296	170.7	38.5	-68.1	4.5
2026-01-10 18:14:29.424812	170.8	39.1	-68.2	4.3
2026-01-10 18:14:31.668327	171.0	39.7	-68.1	2.4
2026-01-10 18:14:33.911842	171.1	40.2	-68.4	2.9
2026-01-10 18:14:36.155854	171.3	40.8	-68.3	2.5
2026-01-10 18:14:38.400379	171.5	41.5	-68.9	3.2
2026-01-10 18:14:40.643894	171.6	42.1	-68.5	0.0
2026-01-10 18:14:42.888410	171.8	42.7	-68.5	0.0
2026-01-10 18:14:45.132421	172.0	43.3	-68.8	0.0
2026-01-10 18:14:47.376937	172.2	44.0	-69.0	0.0
2026-01-10 18:14:49.621452	172.4	44.6	-68.8	0.0
2026-01-10 18:14:51.864472	172.6	45.3	-68.9	0.0
2026-01-10 18:14:54.108492	172.8	46.0	-69.4	0.0
2026-01-10 18:14:56.352008	173.0	46.7	-69.7	0.0
2026-01-10 18:14:58.595029	173.2	47.4	-69.9	0.0
2026-01-10 18:15:00.838049	173.4	48.1	-70.0	0.0
2026-01-10 18:15:03.085071	173.7	48.8	-70.2	0.0
2026-01-10 18:15:05.329587	174.0	49.6	-70.3	0.0
2026-01-10 18:15:07.573597	174.2	50.3	-70.1	0.0
2026-01-10 18:15:09.816617	174.5	51.1	-70.6	0.0
2026-01-10 18:15:12.064629	174.8	51.9	-70.7	0.0
2026-01-10 18:15:14.308146	175.1	52.7	-70.8	0.0
2026-01-10 18:15:16.552158	175.5	53.4	-70.8	0.0
2026-01-10 18:15:18.795673	175.8	54.3	-71.1	0.0
2026-01-10 18:15:21.039684	176.2	55.1	-71.2	0.0
2026-01-10 18:15:23.283704	176.6	55.9	-70.9	0.0
2026-01-10 18:15:25.528211	177.0	56.8	-71.1	0.0
2026-01-10 18:15:27.771230	177.5	57.6	-71.3	0.0
2026-01-10 18:15:30.014250	177.9	58.5	-71.3	0.0
2026-01-10 18:15:32.256775	178.4	59.4	-71.1	0.0
2026-01-10 18:15:34.500794	179.0	60.2	-71.5	0.0
2026-01-10 18:15:36.747806	179.6	61.1	-71.2	0.0
2026-01-10 18:15:38.990825	180.2	62.0	-71.5	0.0
2026-01-10 18:15:41.233845	180.9	63.0	-71.4	0.0
2026-01-10 18:15:43.476378	181.6	63.9	-71.6	0.0
2026-01-10 18:15:45.719399	182.4	64.8	-71.5	0.0
2026-01-10 18:15:47.964410	183.2	65.8	-71.4	0.0
2026-01-10 18:15:50.206935	184.1	66.7	-71.4	0.0
2026-01-10 18:15:52.450947	185.1	67.7	-71.3	0.0
2026-01-10 18:15:54.695462	186.3	68.6	-71.3	0.0
2026-01-10 18:15:56.939474	187.5	69.6	-71.3	0.0
2026-01-10 18:15:59.183485	188.8	70.5	-71.0	0.0
2026-01-10 18:16:01.427001	190.3	71.5	-71.1	0.0
2026-01-10 18:16:03.670022	192.0	72.4	-71.4	0.0
2026-01-10 18:16:05.914034	193.9	73.4	-71.4	0.0
2026-01-10 18:16:08.157550	196.0	74.3	-71.5	0.0
2026-01-10 18:16:10.400569	198.3	75.2	-71.6	0.0
2026-01-10 18:16:12.642598	201.0	76.1	-71.0	0.0
2026-01-10 18:16:14.886609	204.1	77.0	-71.1	0.0
2026-01-10 18:16:17.129134	207.6	77.8	-71.2	0.0
2026-01-10 18:16:19.373145	211.6	78.6	-71.2	0.0
2026-01-10 18:16:21.620681	216.3	79.3	-71.3	0.0
2026-01-10 18:16:23.863701	221.5	80.0	-70.5	0.0
2026-01-10 18:16:26.106236	227.4	80.5	-71.3	0.0
2026-01-10 18:16:28.349770	234.0	81.0	-71.9	0.0
2026-01-10 18:16:30.594287	241.2	81.3	-71.7	0.0
2026-01-10 18:16:32.836810	248.8	81.5	-70.9	0.0
2026-01-10 18:16:35.080326	256.6	81.5	-70.8	0.0
2026-01-10 18:16:37.324842	264.3	81.4	-71.4	0.0
2026-01-10 18:16:39.568853	271.7	81.1	-71.0	0.0
2026-01-10 18:16:41.812864	278.4	80.7	-70.4	0.0
2026-01-10 18:16:44.055884	284.5	80.1	-70.1	0.0
2026-01-10 18:16:46.298407	290.0	79.5	-70.9	0.0
2026-01-10 18:16:48.542419	294.7	78.8	-70.2	0.0
2026-01-10 18:16:50.785440	298.9	78.0	-70.5	0.0
2026-01-10 18:16:53.027964	302.6	77.2	-70.6	0.0
2026-01-10 18:16:55.273489	305.8	76.4	-70.1	0.0
2026-01-10 18:16:57.516022	308.5	75.5	-70.5	0.0
2026-01-10 18:16:59.759553	311.0	74.6	-70.7	0.0
2026-01-10 18:17:02.002078	313.2	73.6	-71.2	0.0
2026-01-10 18:17:04.245096	315.1	72.7	-70.9	0.0
2026-01-10 18:17:06.489106	316.8	71.8	-70.7	0.0
2026-01-10 18:17:08.733118	318.4	70.8	-70.7	0.0
2026-01-10 18:17:10.980633	319.8	69.9	-70.5	0.0
2026-01-10 18:17:13.224644	321.0	68.9	-70.4	0.0
2026-01-10 18:17:15.468161	322.1	67.9	-69.4	0.0
2026-01-10 18:17:17.712171	323.2	67.0	-69.9	0.0
2026-01-10 18:17:19.957687	324.1	66.0	-69.5	0.0
2026-01-10 18:17:22.200707	325.0	65.1	-69.8	0.0
2026-01-10 18:17:24.444222	325.8	64.2	-69.0	0.0
2026-01-10 18:17:26.686756	326.5	63.3	-69.8	0.0
2026-01-10 18:17:28.929775	327.2	62.3	-70.1	0.0
2026-01-10 18:17:31.173796	327.9	61.4	-69.9	0.0
2026-01-10 18:17:33.417815	328.4	60.5	-69.6	0.0
2026-01-10 18:17:35.662322	329.0	59.6	-70.1	0.0
2026-01-10 18:17:37.906838	329.5	58.8	-69.8	0.0
2026-01-10 18:17:40.151345	330.0	57.9	-69.8	0.0
2026-01-10 18:17:42.395861	330.4	57.0	-69.3	0.0
2026-01-10 18:17:44.639872	330.9	56.2	-69.3	0.0
2026-01-10 18:17:46.884883	331.3	55.4	-69.8	0.0
2026-01-10 18:17:49.128894	331.7	54.5	-70.4	0.0
2026-01-10 18:17:51.372410	332.0	53.7	-69.1	0.0
2026-01-10 18:17:53.615925	332.4	52.9	-69.4	0.0
2026-01-10 18:17:55.859936	332.7	52.2	-68.4	0.0
2026-01-10 18:17:58.103948	333.0	51.4	-69.6	0.0
2026-01-10 18:18:00.347463	333.3	50.6	-69.8	0.0
2026-01-10 18:18:02.592981	333.6	49.9	-69.2	0.0
2026-01-10 18:18:04.836993	333.8	49.1	-68.8	0.0
2026-01-10 18:18:07.081500	334.1	48.4	-69.6	0.0
2026-01-10 18:18:09.324520	334.3	47.7	-69.9	0.0
2026-01-10 18:18:11.570036	334.5	47.0	-70.1	0.0
2026-01-10 18:18:13.814543	334.8	46.3	-69.4	0.0
2026-01-10 18:18:16.059050	335.0	45.6	-70.5	0.0
2026-01-10 18:18:18.302565	335.2	44.9	-69.4	0.0
2026-01-10 18:18:20.547072	335.4	44.3	-69.0	0.0
2026-01-10 18:18:22.791579	335.6	43.6	-69.7	0.0
2026-01-10 18:18:25.036086	335.8	43.0	-69.8	0.0
2026-01-10 18:18:27.280593	335.9	42.4	-68.5	0.0
2026-01-10 18:18:29.523613	336.1	41.7	-67.7	0.0
2026-01-10 18:18:31.768120	336.3	41.1	-69.1	0.0
2026-01-10 18:18:34.012627	336.4	40.5	-69.1	0.0
2026-01-10 18:18:36.257134	336.6	39.9	-68.6	0.0
2026-01-10 18:18:38.501145	336.7	39.4	-68.2	0.0
2026-01-10 18:18:40.745155	336.9	38.8	-68.5	0.0
2026-01-10 18:18:42.989662	337.0	38.2	-68.3	0.0
2026-01-10 18:18:45.233673	337.1	37.7	-68.5	0.0
2026-01-10 18:18:47.478684	337.3	37.1	-68.7	0.0
2026-01-10 18:18:49.723191	337.4	36.6	-69.6	0.0
2026-01-10 18:18:51.967202	337.5	36.1	-68.7	0.0
2026-01-10 18:18:54.211709	337.6	35.6	-67.8	0.0
2026-01-10 18:18:56.455720	337.7	35.1	-68.1	0.0
2026-01-10 18:18:58.699732	337.8	34.6	-68.7	0.0
2026-01-10 18:19:00.943743	337.9	34.1	-69.0	0.0
2026-01-10 18:19:03.188250	338.1	33.6	-67.4	0.0
2026-01-10 18:19:05.432756	338.2	33.1	-68.7	0.0
2026-01-10 18:19:07.677263	338.3	32.6	-68.1	0.0
2026-01-10 18:19:09.921770	338.3	32.2	-68.0	0.0
2026-01-10 18:19:12.165782	338.4	31.7	-68.1	0.0
2026-01-10 18:19:14.410289	338.5	31.3	-68.6	0.0
2026-01-10 18:19:16.654301	338.6	30.8	-68.4	0.0
2026-01-10 18:19:18.898808	338.7	30.4	-68.6	0.0
2026-01-10 18:19:21.142827	338.8	29.9	-68.1	0.0
2026-01-10 18:19:23.387334	338.9	29.5	-68.2	0.0
2026-01-10 18:19:25.631841	339.0	29.1	-67.0	0.0
2026-01-10 18:19:27.875851	339.0	28.7	-67.0	0.0
2026-01-10 18:19:30.120358	339.1	28.3	-67.4	0.0
2026-01-10 18:19:32.364865	339.2	27.9	-66.6	0.0
2026-01-10 18:19:34.609372	339.3	27.5	-67.2	0.0
2026-01-10 18:19:36.856384	339.3	27.1	-67.6	0.3
2026-01-10 18:19:39.100891	339.4	26.7	-67.5	0.0
2026-01-10 18:19:41.345398	339.5	26.4	-67.3	0.0
2026-01-10 18:19:43.589905	339.6	26.0	-67.5	0.0
2026-01-10 18:19:45.833915	339.6	25.6	-67.4	0.0
2026-01-10 18:19:48.078422	339.7	25.3	-67.8	0.0
2026-01-10 18:19:50.322929	339.8	24.9	-67.4	0.0
2026-01-10 18:19:52.567436	339.8	24.5	-67.6	0.3
2026-01-10 18:19:54.814951	339.9	24.2	-67.4	1.3
2026-01-10 18:19:57.058963	339.9	23.9	-67.0	0.0
2026-01-10 18:19:59.302974	340.0	23.5	-68.0	1.0
2026-01-10 18:20:01.547481	340.1	23.2	-67.2	0.1
2026-01-10 18:20:03.791492	340.1	22.9	-67.5	1.2
2026-01-10 18:20:06.035999	340.2	22.5	-67.0	2.4
2026-01-10 18:20:08.280506	340.2	22.2	-66.6	3.9
2026-01-10 18:20:10.525013	340.3	21.9	-66.2	2.0
2026-01-10 18:20:12.773025	340.3	21.6	-67.2	3.0
2026-01-10 18:20:15.017533	340.4	21.3	-67.1	2.5
2026-01-10 18:20:17.261544	340.4	21.0	-66.8	1.1
2026-01-10 18:20:19.505555	340.5	20.7	-66.9	3.0
2026-01-10 18:20:21.750071	340.5	20.4	-66.9	4.4
2026-01-10 18:20:23.994578	340.6	20.1	-66.5	3.0
2026-01-10 18:20:26.239085	340.6	19.8	-66.4	3.6
2026-01-10 18:20:28.483601	340.7	19.5	-66.0	2.5
2026-01-10 18:20:30.727612	340.7	19.2	-64.7	1.7
2026-01-10 18:20:32.971623	340.8	18.9	-65.8	0.8
2026-01-10 18:20:35.215138	340.8	18.6	-66.1	1.0
2026-01-10 18:20:37.459645	340.9	18.4	-65.7	3.8
2026-01-10 18:20:39.704152	340.9	18.1	-66.1	2.8
2026-01-10 18:20:41.948658	341.0	17.8	-66.0	1.8
2026-01-10 18:20:44.193165	341.0	17.6	-66.1	3.6
2026-01-10 18:20:46.437177	341.0	17.3	-66.4	4.9
2026-01-10 18:20:48.681187	341.1	17.0	-65.7	2.3
2026-01-10 18:20:50.925694	341.1	16.8	-66.2	3.8
2026-01-10 18:20:53.170201	341.2	16.5	-65.8	2.0
2026-01-10 18:20:55.413718	341.2	16.3	-65.7	3.1
2026-01-10 18:20:57.658224	341.3	16.0	-65.4	0.7
2026-01-10 18:20:59.902236	341.3	15.8	-65.7	3.8
2026-01-10 18:21:02.146743	341.3	15.5	-65.6	1.9
2026-01-10 18:21:04.394755	341.4	15.3	-65.0	2.9
2026-01-10 18:21:06.639262	341.4	15.0	-65.1	1.5
2026-01-10 18:21:08.883769	341.4	14.8	-64.1	1.3
2026-01-10 18:21:11.128276	341.5	14.6	-64.1	0.0
2026-01-10 18:21:13.372286	341.5	14.3	-64.4	0.0
2026-01-10 18:21:15.616298	341.6	14.1	-64.4	0.0
2026-01-10 18:21:17.860804	341.6	13.9	-64.0	1.4
2026-01-10 18:21:20.105311	341.6	13.7	-63.6	0.0
2026-01-10 18:21:22.349818	341.7	13.4	-64.1	0.0
2026-01-10 18:21:24.594325	341.7	13.2	-63.9	0.0
2026-01-10 18:21:26.837841	341.7	13.0	-64.9	0.4
2026-01-10 18:21:29.084388	341.8	12.8	-65.5	1.6
2026-01-10 18:21:31.328894	341.8	12.6	-65.2	2.2
2026-01-10 18:21:33.572412	341.8	12.3	-65.6	2.3
2026-01-10 18:21:35.816423	341.9	12.1	-65.6	2.8
2026-01-10 18:21:38.062435	341.9	11.9	-65.8	0.9
2026-01-10 18:21:40.306941	341.9	11.7	-65.5	0.8
2026-01-10 18:21:42.551448	342.0	11.5	-65.5	2.3
2026-01-10 18:21:44.795460	342.0	11.3	-65.6	3.0
2026-01-10 18:21:47.039471	342.0	11.1	-65.7	1.1
2026-01-10 18:21:49.283978	342.1	10.9	-64.4	0.0
2026-01-10 18:21:51.528484	342.1	10.7	-64.6	0.0
2026-01-10 18:21:53.772992	342.1	10.5	-65.5	1.1
2026-01-10 18:21:56.017003	342.2	10.3	-65.1	1.9
2026-01-10 18:21:58.261510	342.2	10.1	-65.6	0.0
2026-01-10 18:22:00.506016	342.2	9.9	-64.8	0.8
2026-01-10 18:22:02.750037	342.2	9.7	-64.8	0.1
2026-01-10 18:22:04.993554	342.3	9.5	-65.1	0.0
2026-01-10 18:22:07.240061	342.3	9.3	-65.3	1.0
2026-01-10 18:22:09.484568	342.3	9.1	-65.5	0.0
2026-01-10 18:22:11.729075	342.4	9.0	-65.2	0.0
2026-01-10 18:22:13.973087	342.4	8.8	-65.4	0.2
2026-01-10 18:22:16.217593	342.4	8.6	-64.6	0.3
2026-01-10 18:22:18.462100	342.4	8.4	-64.8	0.0
2026-01-10 18:22:20.706607	342.5	8.2	-64.0	0.0
2026-01-10 18:22:22.955115	342.5	8.0	-64.8	0.0
2026-01-10 18:22:25.199622	342.5	7.9	-64.7	0.0
2026-01-10 18:22:27.444129	342.5	7.7	-64.4	0.0
2026-01-10 18:22:29.688644	342.6	7.5	-63.8	0.0
2026-01-10 18:22:31.932656	342.6	7.3	-64.1	0.0
2026-01-10 18:22:34.177202	342.6	7.2	-64.2	0.0
2026-01-10 18:22:36.421718	342.7	7.0	-64.2	0.0
2026-01-10 18:22:38.665781	342.7	6.8	-63.1	0.0
2026-01-10 18:22:40.909802	342.7	6.6	-64.1	0.0
2026-01-10 18:22:43.154346	342.7	6.5	-64.9	0.0
2026-01-10 18:22:45.398358	342.8	6.3	-64.4	0.0
2026-01-10 18:22:47.642377	342.8	6.1	-64.4	0.0
2026-01-10 18:22:49.886922	342.8	6.0	-64.9	0.0
2026-01-10 18:22:52.131437	342.8	5.8	-65.6	0.0
2026-01-10 18:22:54.375985	342.9	5.6	-67.9	0.0
2026-01-10 18:22:56.619510	342.9	5.5	-67.2	0.0
2026-01-10 18:22:58.864017	342.9	5.3	-67.6	0.0
2026-01-10 18:23:01.108562	342.9	5.2	-67.0	0.0
2026-01-10 18:23:03.353069	343.0	5.0	-66.3	0.0
#Closed at: 2026-01-10 18:10:03.375760