passes_logs/2026/01/10/PlanumMoscow/PlanumMoscow__20260110_000435_METEOR-M2_4_rec.log

#Pass ID: 20260110_000435_METEOR-M2 4
#Satellite: METEOR-M2 4
#Configuration: METEOR-M2 4
#Start time: 2026-01-10 00:04:40.503936

#LorettStation: 1.0.0 05.05.2024
#Station: PlanumMoscow
#Location: 37.6253844 lon 55.6713361 lat
#TLE: 1 59051U 24039A   25293.94737965  .00000087  00000+0  58459-4 0  9998
#TLE: 2 59051  98.6671 251.7071 0007726 135.4772 224.7028 14.22388966 85257

#Time	Az	El	Level	SNR
2026-01-10 00:08:21.151574	47.2	24.5	-64.3	9.3
2026-01-10 00:08:23.396585	47.6	24.7	-64.9	10.0
2026-01-10 00:08:25.640101	48.1	25.0	-64.6	10.4
2026-01-10 00:08:27.883617	48.5	25.3	-64.8	10.1
2026-01-10 00:08:30.127639	49.0	25.5	-64.8	10.9
2026-01-10 00:08:32.376651	49.5	25.8	-64.9	10.7
2026-01-10 00:08:34.620662	50.0	26.0	-65.2	11.2
2026-01-10 00:08:36.864177	50.5	26.3	-65.3	12.3
2026-01-10 00:08:39.108684	51.0	26.6	-65.2	12.4
2026-01-10 00:08:41.350712	51.5	26.8	-65.3	11.7
2026-01-10 00:08:43.594228	52.0	27.1	-64.3	9.5
2026-01-10 00:08:45.838743	52.5	27.3	-65.6	12.9
2026-01-10 00:08:48.082268	53.0	27.6	-65.1	13.1
2026-01-10 00:08:50.326280	53.6	27.9	-64.8	13.3
2026-01-10 00:08:52.570786	54.1	28.1	-61.6	8.6
2026-01-10 00:08:54.815293	54.7	28.4	-65.7	13.6
2026-01-10 00:08:57.057818	55.2	28.6	-65.5	13.3
2026-01-10 00:08:59.300838	55.8	28.9	-65.2	13.3
2026-01-10 00:09:01.543859	56.4	29.2	-64.9	13.8
2026-01-10 00:09:03.785887	57.0	29.4	-65.0	12.9
2026-01-10 00:09:06.031394	57.6	29.7	-65.3	14.4
2026-01-10 00:09:08.275405	58.2	29.9	-65.0	14.0
2026-01-10 00:09:10.518920	58.8	30.2	-64.7	12.6
2026-01-10 00:09:12.762443	59.5	30.4	-64.5	12.8
2026-01-10 00:09:15.005960	60.1	30.7	-64.0	11.1
2026-01-10 00:09:17.249971	60.8	30.9	-64.8	12.8
2026-01-10 00:09:19.492495	61.4	31.2	-65.0	13.0
2026-01-10 00:09:21.737028	62.1	31.4	-62.9	9.5
2026-01-10 00:09:23.980543	62.8	31.7	-63.5	11.9
2026-01-10 00:09:26.224554	63.5	31.9	-64.1	12.8
2026-01-10 00:09:28.467078	64.2	32.1	-62.7	10.0
2026-01-10 00:09:30.711090	64.9	32.4	-62.6	11.1
2026-01-10 00:09:32.954605	65.6	32.6	-62.6	12.1
2026-01-10 00:09:35.199616	66.4	32.8	-63.1	12.5
2026-01-10 00:09:37.441151	67.1	33.1	-63.4	12.6
2026-01-10 00:09:39.683179	67.9	33.3	-59.9	7.9
2026-01-10 00:09:41.925703	68.6	33.5	-62.4	10.6
2026-01-10 00:09:44.168733	69.4	33.7	-63.8	12.3
2026-01-10 00:09:46.414240	70.2	33.9	-62.6	10.2
2026-01-10 00:09:48.658251	71.0	34.1	-62.3	9.1
2026-01-10 00:09:50.902262	71.8	34.3	-61.1	6.3
2026-01-10 00:09:53.146273	72.6	34.5	-62.9	9.6
2026-01-10 00:09:55.388797	73.4	34.7	-62.7	9.1
2026-01-10 00:09:57.630825	74.3	34.9	-63.0	10.7
2026-01-10 00:09:59.873348	75.1	35.1	-61.7	10.7
2026-01-10 00:10:02.117864	76.0	35.3	-61.7	11.2
2026-01-10 00:10:04.362371	76.8	35.4	-62.5	11.4
2026-01-10 00:10:06.606383	77.7	35.6	-61.8	10.5
2026-01-10 00:10:08.850908	78.6	35.7	-62.4	10.3
2026-01-10 00:10:11.094920	79.5	35.9	-62.7	9.1
2026-01-10 00:10:13.338931	80.4	36.0	-64.0	10.9
2026-01-10 00:10:15.582448	81.3	36.2	-64.2	11.2
2026-01-10 00:10:17.829965	82.2	36.3	-64.1	11.7
2026-01-10 00:10:20.073490	83.1	36.4	-63.6	9.2
2026-01-10 00:10:22.317996	84.0	36.5	-64.0	11.8
2026-01-10 00:10:24.562513	84.9	36.6	-64.3	11.9
2026-01-10 00:10:26.806028	85.9	36.7	-64.2	12.4
2026-01-10 00:10:29.049047	86.8	36.8	-64.2	12.2
2026-01-10 00:10:31.292562	87.8	36.9	-63.8	10.9
2026-01-10 00:10:33.536573	88.7	36.9	-64.5	11.7
2026-01-10 00:10:35.780584	89.7	37.0	-64.9	13.3
2026-01-10 00:10:38.023603	90.6	37.1	-64.9	12.9
2026-01-10 00:10:40.266135	91.6	37.1	-64.2	11.8
2026-01-10 00:10:42.507676	92.5	37.1	-63.5	10.1
2026-01-10 00:10:44.750200	93.5	37.2	-66.0	11.6
2026-01-10 00:10:46.993724	94.5	37.2	-65.1	12.4
2026-01-10 00:10:49.236247	95.4	37.2	-65.2	12.0
2026-01-10 00:10:51.481763	96.4	37.2	-65.4	13.2
2026-01-10 00:10:53.725774	97.4	37.2	-66.1	12.7
2026-01-10 00:10:55.969785	98.3	37.2	-66.0	14.2
2026-01-10 00:10:58.212309	99.3	37.1	-65.7	12.7
2026-01-10 00:11:00.454834	100.3	37.1	-66.0	12.5
2026-01-10 00:11:02.696862	101.2	37.0	-66.3	14.0
2026-01-10 00:11:04.939386	102.2	37.0	-66.3	12.6
2026-01-10 00:11:07.184411	103.1	36.9	-66.7	13.8
2026-01-10 00:11:09.427926	104.1	36.9	-66.8	14.0
2026-01-10 00:11:11.672442	105.0	36.8	-66.3	14.3
2026-01-10 00:11:13.916957	106.0	36.7	-66.4	13.0
2026-01-10 00:11:16.160968	106.9	36.6	-66.7	15.0
2026-01-10 00:11:18.404988	107.8	36.5	-66.5	14.3
2026-01-10 00:11:20.649504	108.7	36.4	-66.8	15.4
2026-01-10 00:11:22.893020	109.7	36.3	-66.6	14.3
2026-01-10 00:11:25.135543	110.6	36.1	-66.6	14.8
2026-01-10 00:11:27.379554	111.5	36.0	-66.5	14.8
2026-01-10 00:11:29.624070	112.4	35.8	-64.6	10.2
2026-01-10 00:11:31.867595	113.3	35.7	-66.5	14.3
2026-01-10 00:11:34.111110	114.1	35.5	-66.3	14.2
2026-01-10 00:11:36.354131	115.0	35.4	-66.8	14.7
2026-01-10 00:11:38.597656	115.9	35.2	-66.0	13.8
2026-01-10 00:11:40.842163	116.7	35.0	-66.8	13.8
2026-01-10 00:11:43.085182	117.6	34.9	-66.3	13.7
2026-01-10 00:11:45.328698	118.4	34.7	-66.7	13.0
2026-01-10 00:11:47.572709	119.2	34.5	-66.3	11.8
2026-01-10 00:11:49.816224	120.0	34.3	-66.7	13.7
2026-01-10 00:11:52.060235	120.9	34.1	-66.3	13.5
2026-01-10 00:11:54.303254	121.7	33.9	-66.4	13.6
2026-01-10 00:11:56.547265	122.4	33.7	-66.3	14.1
2026-01-10 00:11:58.790780	123.2	33.4	-65.9	12.9
2026-01-10 00:12:01.033800	124.0	33.2	-66.6	14.4
2026-01-10 00:12:03.277324	124.7	33.0	-65.7	13.2
2026-01-10 00:12:05.521335	125.5	32.8	-66.5	14.2
2026-01-10 00:12:07.765346	126.2	32.5	-66.4	15.1
2026-01-10 00:12:10.009358	126.9	32.3	-66.7	14.9
2026-01-10 00:12:12.253874	127.7	32.1	-66.6	14.7
2026-01-10 00:12:14.496894	128.4	31.8	-66.5	13.8
2026-01-10 00:12:16.740409	129.1	31.6	-66.6	14.4
2026-01-10 00:12:18.983924	129.7	31.3	-66.7	14.0
2026-01-10 00:12:21.227936	130.4	31.1	-66.1	15.2
2026-01-10 00:12:23.471947	131.1	30.8	-66.4	15.1
2026-01-10 00:12:25.715958	131.7	30.6	-65.9	14.3
2026-01-10 00:12:27.960474	132.4	30.3	-66.4	14.8
2026-01-10 00:12:30.204981	133.0	30.1	-66.5	15.3
2026-01-10 00:12:32.448992	133.6	29.8	-66.9	14.8
2026-01-10 00:12:34.690037	134.3	29.6	-66.5	14.4
2026-01-10 00:12:36.932074	134.9	29.3	-66.2	14.1
2026-01-10 00:12:39.175093	135.5	29.0	-66.2	14.3
2026-01-10 00:12:41.417123	136.0	28.8	-66.8	14.5
2026-01-10 00:12:43.663170	136.6	28.5	-66.6	14.9
2026-01-10 00:12:45.907686	137.2	28.3	-66.4	14.0
2026-01-10 00:12:48.152193	137.8	28.0	-66.6	14.6
2026-01-10 00:12:50.397205	138.3	27.7	-66.6	14.3
2026-01-10 00:12:52.640232	138.8	27.5	-66.7	14.8
2026-01-10 00:12:54.883747	139.4	27.2	-66.7	14.5
2026-01-10 00:12:57.127757	139.9	26.9	-66.5	14.6
2026-01-10 00:12:59.371272	140.4	26.7	-66.6	14.6
2026-01-10 00:13:01.614291	140.9	26.4	-66.2	14.0
2026-01-10 00:13:03.858302	141.4	26.2	-66.5	14.7
2026-01-10 00:13:06.101818	141.9	25.9	-66.7	14.8
2026-01-10 00:13:08.344837	142.4	25.6	-66.1	13.6
2026-01-10 00:13:10.588849	142.9	25.4	-66.4	14.9
2026-01-10 00:13:12.832365	143.3	25.1	-66.4	15.4
2026-01-10 00:13:15.075385	143.8	24.9	-66.0	13.9
2026-01-10 00:13:17.316917	144.3	24.6	-65.9	13.8
2026-01-10 00:13:19.560936	144.7	24.3	-66.5	14.7
2026-01-10 00:13:21.803470	145.1	24.1	-66.1	14.5
2026-01-10 00:13:24.046507	145.6	23.8	-66.5	15.3
2026-01-10 00:13:26.290023	146.0	23.6	-66.6	14.7
2026-01-10 00:13:28.534033	146.4	23.3	-66.7	14.2
2026-01-10 00:13:30.778540	146.8	23.1	-66.6	14.2
2026-01-10 00:13:33.021559	147.2	22.8	-66.7	14.4
2026-01-10 00:13:35.264579	147.6	22.5	-66.7	14.1
2026-01-10 00:13:37.507597	148.0	22.3	-66.9	13.9
2026-01-10 00:13:39.750626	148.4	22.0	-66.9	14.3
2026-01-10 00:13:41.995152	148.8	21.8	-67.3	14.6
2026-01-10 00:13:44.239162	149.2	21.6	-66.5	13.2
2026-01-10 00:13:46.483173	149.5	21.3	-66.9	14.5
2026-01-10 00:13:48.727697	149.9	21.1	-67.4	14.1
2026-01-10 00:13:50.972213	150.3	20.8	-67.2	14.2
2026-01-10 00:13:53.216225	150.6	20.6	-67.3	14.1
2026-01-10 00:13:55.460235	151.0	20.3	-67.0	12.7
2026-01-10 00:13:57.704751	151.3	20.1	-67.1	13.6
2026-01-10 00:13:59.948267	151.6	19.9	-67.1	13.7
2026-01-10 00:14:02.192278	152.0	19.6	-67.2	13.4
2026-01-10 00:14:04.437298	152.3	19.4	-67.0	13.5
2026-01-10 00:14:06.680320	152.6	19.1	-67.0	13.6
2026-01-10 00:14:08.922852	152.9	18.9	-67.3	14.2
2026-01-10 00:14:11.166375	153.2	18.7	-67.3	13.8
2026-01-10 00:14:13.410890	153.6	18.4	-66.8	13.1
2026-01-10 00:14:15.654902	153.9	18.2	-67.0	13.6
2026-01-10 00:14:17.898913	154.2	18.0	-67.3	13.7
2026-01-10 00:14:20.143925	154.5	17.8	-66.9	13.7
2026-01-10 00:14:22.387440	154.7	17.5	-66.9	13.1
2026-01-10 00:14:24.630954	155.0	17.3	-66.6	12.2
2026-01-10 00:14:26.874478	155.3	17.1	-67.2	13.4
2026-01-10 00:14:29.117994	155.6	16.9	-67.1	12.9
2026-01-10 00:14:31.362500	155.9	16.7	-66.2	11.9
2026-01-10 00:14:33.607015	156.1	16.4	-66.8	13.3
2026-01-10 00:14:35.850530	156.4	16.2	-66.3	12.8
2026-01-10 00:14:38.094054	156.7	16.0	-67.1	12.9
2026-01-10 00:14:40.338561	156.9	15.8	-66.9	12.6
2026-01-10 00:14:42.581085	157.2	15.6	-66.4	12.5
2026-01-10 00:14:44.823617	157.4	15.4	-66.3	11.0
2026-01-10 00:14:47.067140	157.7	15.2	-66.3	11.3
2026-01-10 00:14:49.308672	157.9	14.9	-66.4	10.8
2026-01-10 00:14:51.551692	158.2	14.7	-66.1	10.7
2026-01-10 00:14:53.797720	158.4	14.5	-66.5	11.1
2026-01-10 00:14:56.040749	158.6	14.3	-66.7	11.8
2026-01-10 00:14:58.283274	158.9	14.1	-66.4	10.7
2026-01-10 00:15:00.526293	159.1	13.9	-66.7	10.6
2026-01-10 00:15:02.769312	159.3	13.7	-66.2	10.2
2026-01-10 00:15:05.012332	159.6	13.5	-66.7	10.7
2026-01-10 00:15:07.256343	159.8	13.3	-66.5	9.2
2026-01-10 00:15:09.499362	160.0	13.1	-66.6	10.9
2026-01-10 00:15:11.742878	160.2	12.9	-66.2	9.7
2026-01-10 00:15:13.984906	160.4	12.7	-66.1	10.3
2026-01-10 00:15:16.227430	160.6	12.5	-66.5	10.3
2026-01-10 00:15:18.469954	160.8	12.3	-66.6	10.0
2026-01-10 00:15:20.713965	161.0	12.2	-66.2	10.7
2026-01-10 00:15:22.956497	161.2	12.0	-66.3	10.4
2026-01-10 00:15:25.198526	161.4	11.8	-66.5	10.0
2026-01-10 00:15:27.442041	161.6	11.6	-66.0	9.8
2026-01-10 00:15:29.686548	161.8	11.4	-66.2	10.2
2026-01-10 00:15:31.931560	162.0	11.2	-66.1	9.9
2026-01-10 00:15:34.180084	162.2	11.0	-66.2	9.8
2026-01-10 00:15:36.423600	162.4	10.8	-66.2	8.8
2026-01-10 00:15:38.667115	162.6	10.7	-66.1	9.8
2026-01-10 00:15:40.911126	162.8	10.5	-66.1	9.0
2026-01-10 00:15:43.154642	163.0	10.3	-66.1	9.6
2026-01-10 00:15:45.398652	163.1	10.1	-65.1	7.8
2026-01-10 00:15:47.642167	163.3	9.9	-65.5	7.8
2026-01-10 00:15:49.885682	163.5	9.8	-65.7	9.2
2026-01-10 00:15:52.128701	163.7	9.6	-65.9	9.1
2026-01-10 00:15:54.371225	163.8	9.4	-65.5	8.6
2026-01-10 00:15:56.614244	164.0	9.2	-66.2	9.1
2026-01-10 00:15:58.857264	164.2	9.1	-65.8	8.2
2026-01-10 00:16:01.099292	164.3	8.9	-65.7	8.8
2026-01-10 00:16:03.342321	164.5	8.7	-65.0	6.2
2026-01-10 00:16:05.585341	164.7	8.6	-65.7	8.7
2026-01-10 00:16:07.829352	164.8	8.4	-65.6	7.8
2026-01-10 00:16:10.072868	165.0	8.2	-65.2	6.3
2026-01-10 00:16:12.316382	165.1	8.1	-65.4	7.5
2026-01-10 00:16:14.560401	165.3	7.9	-65.9	8.4
2026-01-10 00:16:16.804413	165.4	7.7	-65.5	7.5
2026-01-10 00:16:19.048424	165.6	7.6	-65.4	6.8
2026-01-10 00:16:21.293436	165.7	7.4	-65.4	6.1
2026-01-10 00:16:23.536951	165.9	7.2	-65.6	7.6
2026-01-10 00:16:25.780467	166.0	7.1	-65.8	6.5
2026-01-10 00:16:28.024984	166.2	6.9	-65.4	7.5
2026-01-10 00:16:30.268003	166.3	6.8	-65.7	6.1
2026-01-10 00:16:32.515519	166.5	6.6	-65.6	7.5
2026-01-10 00:16:34.759530	166.6	6.4	-65.4	6.8
2026-01-10 00:16:37.002550	166.7	6.3	-65.9	5.7
2026-01-10 00:16:39.246084	166.9	6.1	-65.8	6.4
2026-01-10 00:16:41.489600	167.0	6.0	-67.7	7.3
2026-01-10 00:16:43.733115	167.2	5.8	-71.5	0.0
2026-01-10 00:16:45.976631	167.3	5.7	-71.0	0.0
2026-01-10 00:16:48.222643	167.4	5.5	-72.0	0.0
2026-01-10 00:16:50.466654	167.5	5.4	-72.9	0.0
2026-01-10 00:16:52.710169	167.7	5.2	-73.1	0.0
2026-01-10 00:16:54.954676	167.8	5.1	-71.9	0.0
#Closed at: 2026-01-10 00:04:35.506295