passes_logs/2026/01/10/PlanumMoscow/PlanumMoscow__20260110_082026_METOP-C_rec.log

#Pass ID: 20260110_082026_METOP-C
#Satellite: METOP-C
#Configuration: METOP-C
#Start time: 2026-01-10 08:20:31.801672

#LorettStation: 1.0.0 05.05.2024
#Station: PlanumMoscow
#Location: 37.6253844 lon 55.6713361 lat
#TLE: 1 43689U 18087A   25293.88981035  .00000265  00000+0  14109-3 0  9997
#TLE: 2 43689  98.7006 352.4487 0002041 122.1097 238.0279 14.21482740360838

#Time	Az	El	Level	SNR
2026-01-10 08:24:10.221151	359.0	27.8	-63.3	0.7
2026-01-10 08:24:12.463674	358.7	28.1	-62.9	0.0
2026-01-10 08:24:14.705748	358.4	28.5	-61.2	0.0
2026-01-10 08:24:16.948271	358.1	28.9	-62.1	0.0
2026-01-10 08:24:19.191786	357.8	29.2	-62.2	0.0
2026-01-10 08:24:21.436293	357.4	29.6	-64.2	0.0
2026-01-10 08:24:23.680305	357.1	30.0	-62.9	0.0
2026-01-10 08:24:25.923821	356.7	30.4	-61.1	0.0
2026-01-10 08:24:28.166840	356.4	30.8	-63.8	2.1
2026-01-10 08:24:30.410355	356.0	31.2	-63.0	0.4
2026-01-10 08:24:32.653375	355.6	31.6	-64.5	4.9
2026-01-10 08:24:34.896889	355.2	32.0	-63.1	1.2
2026-01-10 08:24:37.140946	354.8	32.4	-63.6	2.5
2026-01-10 08:24:39.384003	354.4	32.8	-64.3	2.5
2026-01-10 08:24:41.628014	354.0	33.2	-63.6	0.0
2026-01-10 08:24:43.872025	353.5	33.6	-64.1	0.0
2026-01-10 08:24:46.115541	353.1	34.0	-64.6	1.6
2026-01-10 08:24:48.359551	352.6	34.4	-65.1	3.6
2026-01-10 08:24:50.604066	352.2	34.9	-64.7	1.8
2026-01-10 08:24:52.848581	351.7	35.3	-65.5	2.6
2026-01-10 08:24:55.092107	351.2	35.7	-65.7	1.9
2026-01-10 08:24:57.335628	350.7	36.2	-65.0	0.0
2026-01-10 08:24:59.578648	350.2	36.6	-66.1	2.1
2026-01-10 08:25:01.822659	349.6	37.1	-65.7	0.0
2026-01-10 08:25:04.067174	349.1	37.5	-65.3	2.7
2026-01-10 08:25:06.311185	348.5	38.0	-66.0	2.5
2026-01-10 08:25:08.555204	347.9	38.4	-65.8	2.2
2026-01-10 08:25:10.798223	347.3	38.9	-65.8	3.8
2026-01-10 08:25:13.040251	346.7	39.3	-66.1	1.9
2026-01-10 08:25:15.286262	346.1	39.8	-67.0	3.6
2026-01-10 08:25:17.530282	345.4	40.2	-67.2	3.6
2026-01-10 08:25:19.774789	344.7	40.7	-65.7	0.0
2026-01-10 08:25:22.017808	344.0	41.2	-67.1	0.0
2026-01-10 08:25:24.261324	343.3	41.6	-66.7	0.8
2026-01-10 08:25:26.505336	342.6	42.1	-67.1	1.1
2026-01-10 08:25:28.748355	341.8	42.6	-67.6	0.0
2026-01-10 08:25:30.991374	341.1	43.0	-67.3	1.9
2026-01-10 08:25:33.234890	340.2	43.5	-67.8	1.3
2026-01-10 08:25:35.478406	339.4	44.0	-68.2	2.7
2026-01-10 08:25:37.722417	338.6	44.4	-68.8	0.0
2026-01-10 08:25:39.965933	337.7	44.9	-68.0	0.0
2026-01-10 08:25:42.211440	336.8	45.4	-68.5	1.8
2026-01-10 08:25:44.454460	335.9	45.8	-68.7	0.8
2026-01-10 08:25:46.698974	334.9	46.3	-69.2	0.0
2026-01-10 08:25:48.943497	333.9	46.7	-69.0	0.0
2026-01-10 08:25:51.187509	332.9	47.2	-69.3	0.0
2026-01-10 08:25:53.431520	331.8	47.6	-69.4	0.0
2026-01-10 08:25:55.676540	330.8	48.0	-68.6	0.0
2026-01-10 08:25:57.919560	329.7	48.5	-69.5	0.0
2026-01-10 08:26:00.164108	328.5	48.9	-69.0	0.0
2026-01-10 08:26:02.407622	327.4	49.3	-69.5	0.0
2026-01-10 08:26:04.651138	326.2	49.7	-68.7	0.0
2026-01-10 08:26:06.895645	324.9	50.1	-69.8	0.0
2026-01-10 08:26:09.139160	323.7	50.5	-69.9	0.0
2026-01-10 08:26:11.380700	322.4	50.8	-67.7	0.0
2026-01-10 08:26:13.622727	321.0	51.2	-70.4	0.0
2026-01-10 08:26:15.866242	319.7	51.5	-70.6	0.0
2026-01-10 08:26:18.110253	318.3	51.9	-68.1	0.0
2026-01-10 08:26:20.353768	316.9	52.2	-66.8	0.0
2026-01-10 08:26:22.597779	315.4	52.5	-69.9	0.0
2026-01-10 08:26:24.841294	314.0	52.7	-70.3	0.0
2026-01-10 08:26:27.085305	312.4	53.0	-70.0	0.0
2026-01-10 08:26:29.328324	310.9	53.2	-69.2	0.0
2026-01-10 08:26:31.570847	309.4	53.4	-70.0	0.0
2026-01-10 08:26:33.814369	307.8	53.6	-69.9	0.0
2026-01-10 08:26:36.061382	306.2	53.8	-69.5	0.0
2026-01-10 08:26:38.304401	304.6	54.0	-68.4	0.0
2026-01-10 08:26:40.547431	302.9	54.1	-69.7	0.0
2026-01-10 08:26:42.790451	301.3	54.2	-68.9	0.0
2026-01-10 08:26:45.038967	299.6	54.3	-68.8	0.0
2026-01-10 08:26:47.282978	298.0	54.3	-68.0	0.0
2026-01-10 08:26:49.526988	296.3	54.4	-69.1	0.0
2026-01-10 08:26:51.769511	294.6	54.4	-68.9	0.0
2026-01-10 08:26:54.016522	293.0	54.4	-68.7	0.0
2026-01-10 08:26:56.260038	291.3	54.3	-67.7	0.0
2026-01-10 08:26:58.503552	289.6	54.3	-69.4	0.0
2026-01-10 08:27:00.747564	288.0	54.2	-68.5	0.0
2026-01-10 08:27:02.991079	286.3	54.1	-67.1	0.0
2026-01-10 08:27:05.234611	284.7	53.9	-68.5	0.0
2026-01-10 08:27:07.478127	283.1	53.8	-68.7	0.0
2026-01-10 08:27:09.723652	281.5	53.6	-68.7	0.0
2026-01-10 08:27:11.967168	279.9	53.4	-68.6	0.0
2026-01-10 08:27:14.209197	278.4	53.2	-69.0	0.0
2026-01-10 08:27:16.455713	276.8	52.9	-69.0	0.0
2026-01-10 08:27:18.699723	275.3	52.7	-68.3	0.0
2026-01-10 08:27:20.944230	273.8	52.4	-68.3	0.0
2026-01-10 08:27:23.188242	272.4	52.1	-69.0	0.0
2026-01-10 08:27:25.434758	271.0	51.8	-68.8	0.0
2026-01-10 08:27:27.678770	269.6	51.4	-66.5	0.0
2026-01-10 08:27:29.920301	268.3	51.1	-67.4	0.0
2026-01-10 08:27:32.162825	266.9	50.7	-68.9	0.0
2026-01-10 08:27:34.405357	265.6	50.4	-67.3	0.0
2026-01-10 08:27:36.648881	264.4	50.0	-67.7	0.0
2026-01-10 08:27:38.894903	263.2	49.6	-66.9	0.0
2026-01-10 08:27:41.138913	262.0	49.2	-67.3	0.0
2026-01-10 08:27:43.382924	260.8	48.8	-66.8	0.0
2026-01-10 08:27:45.626440	259.7	48.4	-65.9	0.0
2026-01-10 08:27:47.869955	258.6	47.9	-65.8	0.0
2026-01-10 08:27:50.113471	257.5	47.5	-65.3	0.0
2026-01-10 08:27:52.356491	256.5	47.0	-66.2	0.0
2026-01-10 08:27:54.600501	255.4	46.6	-65.7	0.0
2026-01-10 08:27:56.844025	254.5	46.1	-65.7	0.0
2026-01-10 08:27:59.088045	253.5	45.7	-67.1	0.0
2026-01-10 08:28:01.331560	252.6	45.2	-66.5	0.0
2026-01-10 08:28:03.575075	251.7	44.8	-66.1	0.0
2026-01-10 08:28:05.818590	250.8	44.3	-66.3	0.0
2026-01-10 08:28:08.063104	250.0	43.8	-65.1	0.0
2026-01-10 08:28:10.305628	249.1	43.4	-64.4	0.0
2026-01-10 08:28:12.547161	248.3	42.9	-65.9	0.0
2026-01-10 08:28:14.791181	247.6	42.4	-64.8	0.0
2026-01-10 08:28:17.035687	246.8	41.9	-65.0	0.0
2026-01-10 08:28:19.279202	246.1	41.5	-64.6	0.0
2026-01-10 08:28:21.522221	245.4	41.0	-65.5	0.0
2026-01-10 08:28:23.766232	244.7	40.5	-65.8	0.0
2026-01-10 08:28:26.009747	244.0	40.1	-64.2	0.0
2026-01-10 08:28:28.253263	243.3	39.6	-65.3	0.0
2026-01-10 08:28:30.497291	242.7	39.2	-65.2	0.0
2026-01-10 08:28:32.741310	242.1	38.7	-65.1	0.0
2026-01-10 08:28:34.984338	241.5	38.2	-64.3	0.0
2026-01-10 08:28:37.228358	240.9	37.8	-64.9	0.0
2026-01-10 08:28:39.472370	240.3	37.3	-64.7	0.0
2026-01-10 08:28:41.716381	239.8	36.9	-64.1	0.0
2026-01-10 08:28:43.959896	239.2	36.4	-63.8	0.0
2026-01-10 08:28:46.201428	238.7	36.0	-61.8	0.0
2026-01-10 08:28:48.444942	238.2	35.6	-63.3	0.0
2026-01-10 08:28:50.688954	237.7	35.1	-62.1	0.0
2026-01-10 08:28:52.932468	237.2	34.7	-63.2	0.0
2026-01-10 08:28:55.176480	236.8	34.3	-63.4	0.0
2026-01-10 08:28:57.419995	236.3	33.8	-62.3	0.0
2026-01-10 08:28:59.664502	235.9	33.4	-65.6	0.0
2026-01-10 08:29:01.909017	235.4	33.0	-63.8	0.0
2026-01-10 08:29:04.153028	235.0	32.6	-63.5	0.0
2026-01-10 08:29:06.397040	234.6	32.2	-63.2	0.0
2026-01-10 08:29:08.643060	234.2	31.8	-64.2	0.0
2026-01-10 08:29:10.888576	233.8	31.4	-63.6	0.0
2026-01-10 08:29:13.132587	233.4	31.0	-63.8	0.0
2026-01-10 08:29:15.375113	233.1	30.6	-63.3	0.0
2026-01-10 08:29:17.619124	232.7	30.2	-63.7	0.0
2026-01-10 08:29:19.863135	232.3	29.8	-61.1	0.0
2026-01-10 08:29:22.106651	232.0	29.4	-63.0	0.0
2026-01-10 08:29:24.348678	231.7	29.0	-64.1	0.0
2026-01-10 08:29:26.590704	231.3	28.7	-64.6	0.0
2026-01-10 08:29:28.833227	231.0	28.3	-64.4	0.0
2026-01-10 08:29:31.075752	230.7	27.9	-64.6	0.0
2026-01-10 08:29:33.321773	230.4	27.6	-64.3	0.8
2026-01-10 08:29:35.563801	230.1	27.2	-64.1	0.0
2026-01-10 08:29:37.807325	229.8	26.9	-63.9	1.3
2026-01-10 08:29:40.050344	229.5	26.5	-62.6	0.0
2026-01-10 08:29:42.294356	229.2	26.2	-63.0	0.9
2026-01-10 08:29:44.538366	229.0	25.8	-64.0	2.8
2026-01-10 08:29:46.782377	228.7	25.5	-64.3	3.0
2026-01-10 08:29:49.027892	228.4	25.1	-63.3	2.1
2026-01-10 08:29:51.269425	228.2	24.8	-63.8	2.6
2026-01-10 08:29:53.512444	227.9	24.5	-64.2	2.6
2026-01-10 08:29:55.755959	227.7	24.2	-63.8	3.2
2026-01-10 08:29:58.000997	227.4	23.8	-63.5	4.5
2026-01-10 08:30:00.244017	227.2	23.5	-61.1	0.0
2026-01-10 08:30:02.487039	227.0	23.2	-63.8	4.5
2026-01-10 08:30:04.730059	226.7	22.9	-63.8	4.6
2026-01-10 08:30:06.974070	226.5	22.6	-63.0	3.5
2026-01-10 08:30:09.217586	226.3	22.3	-64.2	4.3
2026-01-10 08:30:11.461101	226.1	22.0	-64.8	5.7
2026-01-10 08:30:13.705128	225.9	21.7	-62.6	4.4
2026-01-10 08:30:15.949139	225.7	21.4	-62.4	3.2
2026-01-10 08:30:18.193150	225.5	21.1	-64.2	5.0
2026-01-10 08:30:20.436170	225.3	20.8	-64.3	4.8
2026-01-10 08:30:22.678197	225.1	20.5	-63.9	5.6
2026-01-10 08:30:24.920727	224.9	20.2	-62.7	4.3
2026-01-10 08:30:27.165234	224.7	20.0	-63.2	3.3
2026-01-10 08:30:29.408254	224.5	19.7	-64.0	6.3
2026-01-10 08:30:31.651778	224.3	19.4	-64.1	6.6
2026-01-10 08:30:33.895294	224.2	19.1	-63.7	4.5
2026-01-10 08:30:36.138809	224.0	18.9	-63.0	4.8
2026-01-10 08:30:38.381828	223.8	18.6	-62.9	2.3
2026-01-10 08:30:40.625344	223.6	18.3	-63.2	3.1
2026-01-10 08:30:42.869365	223.5	18.1	-63.6	5.3
2026-01-10 08:30:45.111899	223.3	17.8	-63.2	4.7
2026-01-10 08:30:47.353944	223.2	17.5	-63.5	5.7
2026-01-10 08:30:49.597965	223.0	17.3	-63.9	5.8
2026-01-10 08:30:51.840489	222.9	17.0	-62.8	3.0
2026-01-10 08:30:54.082526	222.7	16.8	-63.8	4.6
2026-01-10 08:30:56.326536	222.6	16.5	-64.1	5.0
2026-01-10 08:30:58.570547	222.4	16.3	-63.7	2.9
2026-01-10 08:31:00.814558	222.3	16.0	-63.7	5.5
2026-01-10 08:31:03.058570	222.1	15.8	-64.6	6.6
2026-01-10 08:31:05.302589	222.0	15.6	-63.9	2.7
2026-01-10 08:31:07.546600	221.9	15.3	-64.2	5.3
2026-01-10 08:31:09.789620	221.7	15.1	-64.2	6.6
2026-01-10 08:31:12.032143	221.6	14.9	-64.0	6.5
2026-01-10 08:31:14.276659	221.5	14.6	-64.4	7.8
2026-01-10 08:31:16.519724	221.3	14.4	-63.8	6.9
2026-01-10 08:31:18.762301	221.2	14.2	-64.9	8.0
2026-01-10 08:31:21.004826	221.1	14.0	-65.6	8.5
2026-01-10 08:31:23.248388	221.0	13.7	-65.1	7.5
2026-01-10 08:31:25.491903	220.8	13.5	-64.9	6.5
2026-01-10 08:31:27.735915	220.7	13.3	-65.6	8.7
2026-01-10 08:31:29.980422	220.6	13.1	-65.6	8.7
2026-01-10 08:31:32.224434	220.5	12.9	-65.6	5.9
2026-01-10 08:31:34.468445	220.4	12.7	-65.8	8.6
2026-01-10 08:31:36.710473	220.3	12.4	-66.3	9.5
2026-01-10 08:31:38.953997	220.2	12.2	-65.6	7.9
2026-01-10 08:31:41.197512	220.1	12.0	-65.4	8.2
2026-01-10 08:31:43.441028	220.0	11.8	-66.1	8.7
2026-01-10 08:31:45.685040	219.9	11.6	-66.0	9.5
2026-01-10 08:31:47.929605	219.7	11.4	-66.2	9.8
2026-01-10 08:31:50.173617	219.6	11.2	-64.9	8.2
2026-01-10 08:31:52.419148	219.5	11.0	-66.3	8.8
2026-01-10 08:31:54.661682	219.4	10.8	-65.5	8.5
2026-01-10 08:31:56.905693	219.4	10.6	-66.5	9.6
2026-01-10 08:31:59.149713	219.3	10.4	-66.0	8.6
2026-01-10 08:32:01.393237	219.2	10.2	-65.8	8.4
2026-01-10 08:32:03.636286	219.1	10.0	-66.2	8.5
2026-01-10 08:32:05.880305	219.0	9.8	-65.8	6.6
2026-01-10 08:32:08.128821	218.9	9.6	-65.7	5.9
2026-01-10 08:32:10.372366	218.8	9.5	-65.9	7.2
2026-01-10 08:32:12.615920	218.7	9.3	-65.6	6.9
2026-01-10 08:32:14.859436	218.6	9.1	-66.5	8.1
2026-01-10 08:32:17.102464	218.5	8.9	-66.3	7.0
2026-01-10 08:32:19.345491	218.5	8.7	-66.6	8.2
2026-01-10 08:32:21.589511	218.4	8.5	-65.9	7.4
2026-01-10 08:32:23.833554	218.3	8.4	-66.8	8.0
2026-01-10 08:32:26.075580	218.2	8.2	-65.8	6.0
2026-01-10 08:32:28.318104	218.1	8.0	-66.1	8.4
2026-01-10 08:32:30.561638	218.0	7.8	-66.6	6.8
2026-01-10 08:32:32.805650	218.0	7.6	-66.2	7.2
2026-01-10 08:32:35.049661	217.9	7.5	-66.3	7.3
2026-01-10 08:32:37.293672	217.8	7.3	-66.7	5.6
2026-01-10 08:32:39.537204	217.7	7.1	-66.4	7.5
2026-01-10 08:32:41.779729	217.7	7.0	-66.8	7.4
2026-01-10 08:32:44.024235	217.6	6.8	-66.0	6.6
2026-01-10 08:32:46.268247	217.5	6.6	-66.8	6.5
2026-01-10 08:32:48.512788	217.5	6.5	-67.1	7.0
2026-01-10 08:32:50.754817	217.4	6.3	-66.5	6.3
2026-01-10 08:32:52.998332	217.3	6.1	-66.6	5.5
2026-01-10 08:32:55.240369	217.2	6.0	-67.2	2.8
2026-01-10 08:32:57.485885	217.2	5.8	-67.7	0.0
2026-01-10 08:32:59.729897	217.1	5.6	-68.7	0.0
2026-01-10 08:33:01.972917	217.0	5.5	-70.2	0.0
2026-01-10 08:33:04.215440	217.0	5.3	-73.0	0.0
2026-01-10 08:33:06.459957	216.9	5.1	-73.0	0.0
2026-01-10 08:33:08.704473	216.8	5.0	-72.7	0.0
#Closed at: 2026-01-10 08:20:26.803860