passes_logs/2026/01/10/PlanumMoscow/PlanumMoscow__20260110_153517_METEOR-M2_3_rec.log

#Pass ID: 20260110_153517_METEOR-M2 3
#Satellite: METEOR-M2 3
#Configuration: METEOR-M2 3
#Start time: 2026-01-10 15:35:22.556157

#LorettStation: 1.0.0 05.05.2024
#Station: PlanumMoscow
#Location: 37.6253844 lon 55.6713361 lat
#TLE: 1 57166U 23091A   25293.99389264  .00000062  00000+0  46113-4 0  9997
#TLE: 2 57166  98.6457 348.4330 0004759 135.3141 224.8422 14.24016546120475

#Time	Az	El	Level	SNR
2026-01-10 15:39:00.973179	56.0	14.5	-64.8	12.0
2026-01-10 15:39:02.096947	55.7	14.6	-65.3	12.0
2026-01-10 15:39:03.218704	55.5	14.6	-65.4	12.4
2026-01-10 15:39:04.340990	55.3	14.6	-65.8	12.4
2026-01-10 15:39:05.463284	55.0	14.6	-65.8	12.4
2026-01-10 15:39:06.584548	54.8	14.7	-65.5	11.6
2026-01-10 15:39:07.706801	54.6	14.7	-65.2	10.5
2026-01-10 15:39:08.828088	54.3	14.7	-65.0	10.9
2026-01-10 15:39:09.953381	54.1	14.7	-65.7	12.4
2026-01-10 15:39:11.075635	53.9	14.7	-65.4	12.4
2026-01-10 15:39:12.197392	53.6	14.8	-65.4	12.1
2026-01-10 15:39:13.319645	53.4	14.8	-65.2	12.0
2026-01-10 15:39:14.441899	53.2	14.8	-63.8	10.2
2026-01-10 15:39:15.564152	52.9	14.8	-65.6	12.7
2026-01-10 15:39:16.685424	52.7	14.8	-65.5	12.5
2026-01-10 15:39:17.812183	52.5	14.9	-65.4	13.0
2026-01-10 15:39:18.933941	52.2	14.9	-65.4	12.2
2026-01-10 15:39:20.056194	52.0	14.9	-65.1	12.0
2026-01-10 15:39:21.177952	51.8	14.9	-65.3	12.8
2026-01-10 15:39:22.299709	51.5	14.9	-65.0	12.3
2026-01-10 15:39:23.421963	51.3	14.9	-65.4	12.5
2026-01-10 15:39:24.543721	51.0	15.0	-65.1	12.6
2026-01-10 15:39:25.664488	50.8	15.0	-65.0	12.4
2026-01-10 15:39:26.789760	50.6	15.0	-64.8	10.7
2026-01-10 15:39:27.912518	50.3	15.0	-64.8	11.2
2026-01-10 15:39:29.034277	50.1	15.0	-65.0	12.0
2026-01-10 15:39:30.156531	49.8	15.0	-64.7	11.7
2026-01-10 15:39:31.278784	49.6	15.0	-65.0	12.8
2026-01-10 15:39:32.400542	49.4	15.0	-64.6	11.3
2026-01-10 15:39:33.521309	49.1	15.1	-64.8	12.1
2026-01-10 15:39:34.647573	48.9	15.1	-64.5	12.4
2026-01-10 15:39:35.768341	48.6	15.1	-64.5	12.2
2026-01-10 15:39:36.890107	48.4	15.1	-65.7	12.5
2026-01-10 15:39:38.012865	48.2	15.1	-64.9	11.9
2026-01-10 15:39:39.135119	47.9	15.1	-65.3	12.5
2026-01-10 15:39:40.256382	47.7	15.1	-65.3	12.4
2026-01-10 15:39:41.378635	47.4	15.1	-65.8	12.4
2026-01-10 15:39:42.504402	47.2	15.1	-65.2	11.3
2026-01-10 15:39:43.626160	47.0	15.1	-65.3	11.5
2026-01-10 15:39:44.747918	46.7	15.1	-65.3	11.3
2026-01-10 15:39:45.870172	46.5	15.1	-65.2	12.0
2026-01-10 15:39:46.992425	46.2	15.2	-65.5	12.1
2026-01-10 15:39:48.114183	46.0	15.2	-65.5	11.7
2026-01-10 15:39:49.236437	45.7	15.2	-65.3	11.1
2026-01-10 15:39:50.363196	45.5	15.2	-63.0	7.6
2026-01-10 15:39:51.484955	45.3	15.2	-64.9	11.1
2026-01-10 15:39:52.606225	45.0	15.2	-65.2	11.7
2026-01-10 15:39:53.728478	44.8	15.2	-64.7	11.5
2026-01-10 15:39:54.850732	44.5	15.2	-65.4	11.6
2026-01-10 15:39:55.972490	44.3	15.2	-64.3	7.5
2026-01-10 15:39:57.094744	44.1	15.2	-65.0	10.9
2026-01-10 15:39:58.216510	43.8	15.2	-64.9	11.3
2026-01-10 15:39:59.338763	43.6	15.2	-65.1	10.9
2026-01-10 15:40:00.461017	43.3	15.2	-64.6	10.0
2026-01-10 15:40:01.582775	43.1	15.2	-64.7	9.9
2026-01-10 15:40:02.704532	42.8	15.2	-64.6	11.0
2026-01-10 15:40:03.825299	42.6	15.2	-64.3	7.1
2026-01-10 15:40:04.947057	42.4	15.2	-65.0	10.5
2026-01-10 15:40:06.067824	42.1	15.2	-65.3	9.7
2026-01-10 15:40:07.189583	41.9	15.2	-64.9	10.6
2026-01-10 15:40:08.311351	41.6	15.2	-64.5	8.5
2026-01-10 15:40:09.433109	41.4	15.2	-65.1	11.4
2026-01-10 15:40:10.554867	41.2	15.1	-65.5	10.1
2026-01-10 15:40:11.676624	40.9	15.1	-65.3	11.2
2026-01-10 15:40:12.798383	40.7	15.1	-65.0	9.5
2026-01-10 15:40:13.919149	40.4	15.1	-65.1	10.9
2026-01-10 15:40:15.039916	40.2	15.1	-65.4	9.9
2026-01-10 15:40:16.163684	40.0	15.1	-64.6	10.4
2026-01-10 15:40:17.285442	39.7	15.1	-65.1	11.3
2026-01-10 15:40:18.406704	39.5	15.1	-62.6	7.2
2026-01-10 15:40:19.527965	39.2	15.1	-65.9	11.6
2026-01-10 15:40:20.649229	39.0	15.1	-65.5	12.0
2026-01-10 15:40:21.770491	38.8	15.1	-64.8	10.3
2026-01-10 15:40:22.893249	38.5	15.1	-65.1	10.7
2026-01-10 15:40:24.020504	38.3	15.0	-63.2	9.4
2026-01-10 15:40:25.142262	38.0	15.0	-62.5	6.7
2026-01-10 15:40:26.264020	37.8	15.0	-62.0	5.4
2026-01-10 15:40:27.385788	37.6	15.0	-63.9	9.3
2026-01-10 15:40:28.507546	37.3	15.0	-63.8	9.4
2026-01-10 15:40:29.629304	37.1	15.0	-63.2	7.3
2026-01-10 15:40:30.751061	36.8	15.0	-63.8	8.3
2026-01-10 15:40:31.872819	36.6	14.9	-64.1	9.6
2026-01-10 15:40:32.995073	36.4	14.9	-63.2	8.7
2026-01-10 15:40:34.116830	36.1	14.9	-63.3	7.8
2026-01-10 15:40:35.238589	35.9	14.9	-62.9	6.7
2026-01-10 15:40:36.360843	35.7	14.9	-62.9	6.0
2026-01-10 15:40:37.482104	35.4	14.9	-62.7	7.1
2026-01-10 15:40:38.603862	35.2	14.8	-62.1	5.7
2026-01-10 15:40:39.724134	34.9	14.8	-62.9	6.8
2026-01-10 15:40:40.844406	34.7	14.8	-62.9	6.6
2026-01-10 15:40:41.965668	34.5	14.8	-63.5	7.2
2026-01-10 15:40:43.086433	34.2	14.8	-63.3	7.2
2026-01-10 15:40:44.207696	34.0	14.8	-63.5	6.7
2026-01-10 15:40:45.329463	33.8	14.7	-63.6	6.6
2026-01-10 15:40:46.452221	33.5	14.7	-62.4	6.7
2026-01-10 15:40:47.573483	33.3	14.7	-63.7	7.0
2026-01-10 15:40:48.695736	33.1	14.7	-64.0	6.5
2026-01-10 15:40:49.817990	32.8	14.6	-64.1	6.4
2026-01-10 15:40:50.939747	32.6	14.6	-64.1	6.7
2026-01-10 15:40:52.062001	32.4	14.6	-64.4	6.4
2026-01-10 15:40:53.183759	32.1	14.6	-64.4	6.6
2026-01-10 15:40:54.305517	31.9	14.5	-62.7	3.5
2026-01-10 15:40:55.427275	31.7	14.5	-64.3	7.2
2026-01-10 15:40:56.549528	31.4	14.5	-63.7	6.2
2026-01-10 15:40:57.672288	31.2	14.5	-64.5	7.1
2026-01-10 15:40:58.794550	31.0	14.4	-64.3	6.9
2026-01-10 15:40:59.916803	30.8	14.4	-64.3	6.8
2026-01-10 15:41:01.039056	30.5	14.4	-64.1	5.4
2026-01-10 15:41:02.159822	30.3	14.4	-64.4	6.5
2026-01-10 15:41:03.281580	30.1	14.3	-64.3	6.7
2026-01-10 15:41:04.403834	29.8	14.3	-64.3	6.4
2026-01-10 15:41:05.526087	29.6	14.3	-64.2	6.5
2026-01-10 15:41:06.648341	29.4	14.3	-64.1	7.1
2026-01-10 15:41:07.770098	29.2	14.2	-64.5	7.0
2026-01-10 15:41:08.892352	28.9	14.2	-64.3	7.3
2026-01-10 15:41:10.013614	28.7	14.2	-64.7	7.2
2026-01-10 15:41:11.135372	28.5	14.1	-63.9	7.3
2026-01-10 15:41:12.257130	28.3	14.1	-64.4	7.8
2026-01-10 15:41:13.378401	28.0	14.1	-64.5	7.8
2026-01-10 15:41:14.500654	27.8	14.0	-64.1	7.4
2026-01-10 15:41:15.622412	27.6	14.0	-64.1	7.5
2026-01-10 15:41:16.744666	27.4	14.0	-64.4	7.4
2026-01-10 15:41:17.866919	27.1	13.9	-64.5	7.9
2026-01-10 15:41:18.988180	26.9	13.9	-64.7	7.6
2026-01-10 15:41:20.110434	26.7	13.9	-64.5	7.7
2026-01-10 15:41:21.232191	26.5	13.8	-64.7	7.8
2026-01-10 15:41:22.353464	26.3	13.8	-64.2	7.7
2026-01-10 15:41:23.475221	26.0	13.8	-64.4	8.1
2026-01-10 15:41:24.597475	25.8	13.7	-64.3	8.3
2026-01-10 15:41:25.718737	25.6	13.7	-64.3	7.6
2026-01-10 15:41:26.839505	25.4	13.7	-63.9	7.0
2026-01-10 15:41:27.961263	25.2	13.6	-64.8	8.7
2026-01-10 15:41:29.083021	25.0	13.6	-64.4	8.9
2026-01-10 15:41:30.204284	24.7	13.6	-65.2	9.8
2026-01-10 15:41:31.326050	24.5	13.5	-65.5	10.6
2026-01-10 15:41:32.448304	24.3	13.5	-65.4	9.9
2026-01-10 15:41:33.570557	24.1	13.4	-65.8	9.6
2026-01-10 15:41:34.691325	23.9	13.4	-65.5	8.6
2026-01-10 15:41:35.813578	23.7	13.4	-65.9	8.9
2026-01-10 15:41:36.934840	23.5	13.3	-66.1	8.9
2026-01-10 15:41:38.057107	23.2	13.3	-66.2	9.0
2026-01-10 15:41:39.179361	23.0	13.2	-66.1	9.2
2026-01-10 15:41:40.301119	22.8	13.2	-65.4	7.9
2026-01-10 15:41:41.423380	22.6	13.2	-66.7	10.5
2026-01-10 15:41:42.543683	22.4	13.1	-66.3	10.8
2026-01-10 15:41:43.665441	22.2	13.1	-66.3	10.8
2026-01-10 15:41:44.787199	22.0	13.0	-66.0	10.9
2026-01-10 15:41:45.908462	21.8	13.0	-65.3	8.1
2026-01-10 15:41:47.029783	21.6	13.0	-66.1	11.8
2026-01-10 15:41:48.150550	21.4	12.9	-65.8	11.8
2026-01-10 15:41:49.271811	21.2	12.9	-65.7	12.0
2026-01-10 15:41:50.393123	20.9	12.8	-66.2	11.2
2026-01-10 15:41:51.514882	20.7	12.8	-66.2	12.4
2026-01-10 15:41:52.636639	20.5	12.8	-65.9	11.2
2026-01-10 15:41:53.758893	20.3	12.7	-66.0	11.6
2026-01-10 15:41:54.881146	20.1	12.7	-65.2	8.3
2026-01-10 15:41:56.002904	19.9	12.6	-65.7	10.4
2026-01-10 15:41:57.125663	19.7	12.6	-65.9	10.7
2026-01-10 15:41:58.247420	19.5	12.5	-65.8	10.7
2026-01-10 15:41:59.369178	19.3	12.5	-65.1	7.6
2026-01-10 15:42:00.490440	19.1	12.4	-65.6	8.6
2026-01-10 15:42:01.611703	18.9	12.4	-66.4	9.4
2026-01-10 15:42:02.733470	18.7	12.4	-66.5	9.6
2026-01-10 15:42:03.855228	18.5	12.3	-66.4	8.2
2026-01-10 15:42:04.976491	18.3	12.3	-66.4	8.7
2026-01-10 15:42:06.098744	18.1	12.2	-66.6	8.9
2026-01-10 15:42:07.220018	17.9	12.2	-66.6	8.7
2026-01-10 15:42:08.341790	17.7	12.1	-66.6	5.5
2026-01-10 15:42:09.464043	17.5	12.1	-66.6	7.3
2026-01-10 15:42:10.586297	17.4	12.0	-66.1	5.7
2026-01-10 15:42:11.708055	17.2	12.0	-65.5	6.3
2026-01-10 15:42:12.829813	17.0	11.9	-66.3	7.4
2026-01-10 15:42:13.950580	16.8	11.9	-66.0	7.7
2026-01-10 15:42:15.072833	16.6	11.8	-66.4	7.9
2026-01-10 15:42:16.194591	16.4	11.8	-65.2	3.3
2026-01-10 15:42:17.316350	16.2	11.7	-65.5	6.7
2026-01-10 15:42:18.438603	16.0	11.7	-65.5	5.6
2026-01-10 15:42:19.560361	15.8	11.6	-65.8	6.4
2026-01-10 15:42:20.682624	15.6	11.6	-66.3	6.8
2026-01-10 15:42:21.804877	15.4	11.5	-65.9	7.9
2026-01-10 15:42:22.926635	15.3	11.5	-65.9	7.8
2026-01-10 15:42:24.050393	15.1	11.4	-65.5	4.4
2026-01-10 15:42:25.173647	14.9	11.4	-65.9	6.2
2026-01-10 15:42:26.294414	14.7	11.3	-65.5	5.4
2026-01-10 15:42:27.416172	14.5	11.3	-65.9	6.9
2026-01-10 15:42:28.538436	14.3	11.2	-65.3	5.8
2026-01-10 15:42:29.660690	14.1	11.2	-64.7	4.1
2026-01-10 15:42:30.781952	14.0	11.1	-65.1	4.3
2026-01-10 15:42:31.902718	13.8	11.1	-64.9	6.1
2026-01-10 15:42:33.024477	13.6	11.0	-66.4	6.3
2026-01-10 15:42:34.146236	13.4	11.0	-64.9	4.5
2026-01-10 15:42:35.267993	13.2	10.9	-63.1	3.0
2026-01-10 15:42:36.390247	13.1	10.9	-65.0	5.2
2026-01-10 15:42:37.512005	12.9	10.8	-65.7	6.1
2026-01-10 15:42:38.634258	12.7	10.8	-65.2	5.3
2026-01-10 15:42:39.756016	12.5	10.7	-65.6	4.9
2026-01-10 15:42:40.877774	12.3	10.7	-65.8	7.1
2026-01-10 15:42:42.000027	12.2	10.6	-65.8	7.9
2026-01-10 15:42:43.121290	12.0	10.6	-64.4	5.2
2026-01-10 15:42:44.243057	11.8	10.5	-64.6	7.4
2026-01-10 15:42:45.363823	11.6	10.5	-65.0	8.3
2026-01-10 15:42:46.486581	11.5	10.4	-64.6	5.9
2026-01-10 15:42:47.608339	11.3	10.4	-62.5	3.3
2026-01-10 15:42:48.729105	11.1	10.3	-64.7	7.2
2026-01-10 15:42:49.849872	11.0	10.2	-65.0	5.9
2026-01-10 15:42:50.972125	10.8	10.2	-63.8	8.1
2026-01-10 15:42:52.092892	10.6	10.1	-63.8	7.8
2026-01-10 15:42:53.214154	10.4	10.1	-62.7	6.8
2026-01-10 15:42:54.335426	10.3	10.0	-63.9	7.0
2026-01-10 15:42:55.458680	10.1	10.0	-64.5	7.3
2026-01-10 15:42:56.579942	9.9	9.9	-61.8	3.4
2026-01-10 15:42:57.702195	9.8	9.9	-64.2	8.9
2026-01-10 15:42:58.823953	9.6	9.8	-62.4	4.0
2026-01-10 15:42:59.946207	9.4	9.8	-63.6	6.4
2026-01-10 15:43:01.068460	9.3	9.7	-63.1	6.2
2026-01-10 15:43:02.190714	9.1	9.7	-64.2	7.5
2026-01-10 15:43:03.312967	8.9	9.6	-63.9	7.0
2026-01-10 15:43:04.433735	8.8	9.5	-64.6	6.1
2026-01-10 15:43:05.555493	8.6	9.5	-64.1	6.8
2026-01-10 15:43:06.675270	8.5	9.4	-62.7	3.0
2026-01-10 15:43:07.796532	8.3	9.4	-62.8	3.6
2026-01-10 15:43:08.917795	8.1	9.3	-63.6	5.4
2026-01-10 15:43:10.038562	8.0	9.3	-62.1	0.0
2026-01-10 15:43:11.160815	7.8	9.2	-62.5	2.4
2026-01-10 15:43:12.282573	7.7	9.2	-64.1	3.8
2026-01-10 15:43:13.404827	7.5	9.1	-63.3	3.2
2026-01-10 15:43:14.526585	7.3	9.0	-63.3	2.2
2026-01-10 15:43:15.648342	7.2	9.0	-63.3	2.6
2026-01-10 15:43:16.770596	7.0	8.9	-61.8	0.0
2026-01-10 15:43:17.891859	6.9	8.9	-62.6	0.0
2026-01-10 15:43:19.014113	6.7	8.8	-61.6	0.0
2026-01-10 15:43:20.135376	6.6	8.8	-61.9	0.0
2026-01-10 15:43:21.257133	6.4	8.7	-62.3	0.0
2026-01-10 15:43:22.378396	6.3	8.7	-61.6	0.0
2026-01-10 15:43:23.498674	6.1	8.6	-61.4	0.0
2026-01-10 15:43:24.619936	5.9	8.5	-62.1	0.0
2026-01-10 15:43:25.741198	5.8	8.5	-61.0	0.0
2026-01-10 15:43:26.861964	5.6	8.4	-64.4	0.0
2026-01-10 15:43:27.984218	5.5	8.4	-63.8	0.0
2026-01-10 15:43:29.107480	5.3	8.3	-61.1	0.0
2026-01-10 15:43:30.228743	5.2	8.3	-60.0	0.0
2026-01-10 15:43:31.349016	5.0	8.2	-61.4	0.0
2026-01-10 15:43:32.470774	4.9	8.1	-62.1	0.0
2026-01-10 15:43:33.592541	4.8	8.1	-62.0	0.0
2026-01-10 15:43:34.714308	4.6	8.0	-62.4	0.0
2026-01-10 15:43:35.836571	4.5	8.0	-63.5	0.0
2026-01-10 15:43:36.958834	4.3	7.9	-62.2	0.0
2026-01-10 15:43:38.081087	4.2	7.9	-62.7	0.0
2026-01-10 15:43:39.203341	4.0	7.8	-60.5	0.0
2026-01-10 15:43:40.325098	3.9	7.7	-61.2	0.0
2026-01-10 15:43:41.446856	3.7	7.7	-60.1	0.0
2026-01-10 15:43:42.568614	3.6	7.6	-61.1	0.0
2026-01-10 15:43:43.690867	3.5	7.6	-61.4	0.0
2026-01-10 15:43:44.816130	3.3	7.5	-61.9	0.0
2026-01-10 15:43:45.937392	3.2	7.5	-60.8	0.0
2026-01-10 15:43:47.060646	3.0	7.4	-62.3	0.0
2026-01-10 15:43:48.182899	2.9	7.3	-61.8	0.0
2026-01-10 15:43:49.305658	2.8	7.3	-61.4	0.0
2026-01-10 15:43:50.426920	2.6	7.2	-60.4	0.0
2026-01-10 15:43:51.549174	2.5	7.2	-62.9	0.0
2026-01-10 15:43:52.671427	2.3	7.1	-62.5	0.0
2026-01-10 15:43:53.793185	2.2	7.1	-61.4	0.0
2026-01-10 15:43:54.915447	2.1	7.0	-63.2	0.0
2026-01-10 15:43:56.037206	1.9	6.9	-60.2	0.0
2026-01-10 15:43:57.158467	1.8	6.9	-62.3	0.0
2026-01-10 15:43:58.279729	1.7	6.8	-62.0	0.0
2026-01-10 15:43:59.400992	1.5	6.8	-62.5	0.0
2026-01-10 15:44:00.522254	1.4	6.7	-62.8	0.0
2026-01-10 15:44:01.646527	1.3	6.6	-62.3	0.0
2026-01-10 15:44:02.767798	1.1	6.6	-60.4	0.0
2026-01-10 15:44:03.890060	1.0	6.5	-60.8	0.0
2026-01-10 15:44:05.012314	0.9	6.5	-61.3	0.0
2026-01-10 15:44:06.134071	0.7	6.4	-60.7	0.0
2026-01-10 15:44:07.254855	0.6	6.4	-61.6	0.0
2026-01-10 15:44:08.376117	0.5	6.3	-63.0	0.0
2026-01-10 15:44:09.499875	0.3	6.2	-62.9	0.0
2026-01-10 15:44:10.621633	0.2	6.2	-63.3	0.0
2026-01-10 15:44:11.742895	0.1	6.1	-63.4	0.0
2026-01-10 15:44:12.864166	360.0	6.1	-63.3	0.0
2026-01-10 15:44:13.987429	359.8	6.0	-63.1	0.0
2026-01-10 15:44:15.108196	359.7	6.0	-63.1	0.0
2026-01-10 15:44:16.229458	359.6	5.9	-67.7	0.0
2026-01-10 15:44:17.354224	359.4	5.8	-67.9	0.0
2026-01-10 15:44:18.475486	359.3	5.8	-68.8	0.0
2026-01-10 15:44:19.597244	359.2	5.7	-68.8	0.0
2026-01-10 15:44:20.718011	359.1	5.7	-68.0	0.0
2026-01-10 15:44:21.839778	359.0	5.6	-65.2	0.0
2026-01-10 15:44:22.961050	358.8	5.6	-70.0	0.0
2026-01-10 15:44:24.082808	358.7	5.5	-70.9	0.0
2026-01-10 15:44:25.204070	358.6	5.4	-71.2	0.0
2026-01-10 15:44:26.326323	358.5	5.4	-72.1	0.0
2026-01-10 15:44:27.448576	358.3	5.3	-71.9	0.0
2026-01-10 15:44:28.570335	358.2	5.3	-72.2	0.0
2026-01-10 15:44:29.691598	358.1	5.2	-72.1	0.0
2026-01-10 15:44:30.813355	358.0	5.1	-72.6	0.0
2026-01-10 15:44:31.935114	357.9	5.1	-72.1	0.0
2026-01-10 15:44:33.056871	357.7	5.0	-71.7	0.0
2026-01-10 15:44:34.178135	357.6	5.0	-72.1	0.0
#Closed at: 2026-01-10 15:35:17.558095