passes_logs/2026/01/10/PlanumMoscow/PlanumMoscow__20260110_014440_METEOR-M2_4_rec.log

#Pass ID: 20260110_014440_METEOR-M2 4
#Satellite: METEOR-M2 4
#Configuration: METEOR-M2 4
#Start time: 2026-01-10 01:44:45.801533

#LorettStation: 1.0.0 05.05.2024
#Station: PlanumMoscow
#Location: 37.6253844 lon 55.6713361 lat
#TLE: 1 59051U 24039A   25293.94737965  .00000087  00000+0  58459-4 0  9998
#TLE: 2 59051  98.6671 251.7071 0007726 135.4772 224.7028 14.22388966 85257

#Time	Az	El	Level	SNR
2026-01-10 01:48:24.278176	355.2	26.9	-60.0	5.5
2026-01-10 01:48:26.522195	354.8	27.2	-60.2	5.3
2026-01-10 01:48:28.765710	354.4	27.6	-59.7	5.3
2026-01-10 01:48:31.009722	354.1	27.9	-59.6	5.8
2026-01-10 01:48:33.252741	353.7	28.3	-59.7	5.8
2026-01-10 01:48:35.495761	353.3	28.6	-59.3	4.9
2026-01-10 01:48:37.739277	352.9	28.9	-59.7	4.9
2026-01-10 01:48:39.982799	352.5	29.3	-59.2	4.9
2026-01-10 01:48:42.226314	352.1	29.6	-59.1	4.8
2026-01-10 01:48:44.469830	351.6	30.0	-59.6	5.3
2026-01-10 01:48:46.712848	351.2	30.3	-59.8	5.6
2026-01-10 01:48:48.956860	350.7	30.7	-59.9	5.6
2026-01-10 01:48:51.199383	350.3	31.1	-60.5	6.6
2026-01-10 01:48:53.443890	349.8	31.4	-60.5	7.1
2026-01-10 01:48:55.688910	349.3	31.8	-60.4	7.2
2026-01-10 01:48:57.932425	348.8	32.2	-60.7	6.8
2026-01-10 01:49:00.176945	348.3	32.5	-60.5	7.1
2026-01-10 01:49:02.420956	347.8	32.9	-60.7	6.8
2026-01-10 01:49:04.664472	347.3	33.3	-60.9	7.2
2026-01-10 01:49:06.907491	346.8	33.6	-60.8	7.0
2026-01-10 01:49:09.151512	346.2	34.0	-60.9	7.6
2026-01-10 01:49:11.396523	345.6	34.4	-61.0	7.5
2026-01-10 01:49:13.639047	345.1	34.8	-61.2	7.4
2026-01-10 01:49:15.883562	344.5	35.2	-61.4	7.2
2026-01-10 01:49:18.127573	343.9	35.5	-61.5	6.9
2026-01-10 01:49:20.371585	343.2	35.9	-61.5	7.2
2026-01-10 01:49:22.615595	342.6	36.3	-61.8	7.1
2026-01-10 01:49:24.863616	342.0	36.7	-61.9	6.7
2026-01-10 01:49:27.108123	341.3	37.1	-61.9	6.8
2026-01-10 01:49:29.352135	340.6	37.5	-61.8	7.4
2026-01-10 01:49:31.595659	339.9	37.9	-62.3	6.8
2026-01-10 01:49:33.840175	339.2	38.2	-62.4	6.5
2026-01-10 01:49:36.084186	338.5	38.6	-62.4	6.7
2026-01-10 01:49:38.328693	337.7	39.0	-62.1	7.0
2026-01-10 01:49:40.572713	336.9	39.4	-62.5	6.9
2026-01-10 01:49:42.816724	336.1	39.8	-62.7	7.0
2026-01-10 01:49:45.060240	335.3	40.1	-63.1	6.9
2026-01-10 01:49:47.303755	334.5	40.5	-63.3	7.2
2026-01-10 01:49:49.545287	333.7	40.9	-63.7	7.0
2026-01-10 01:49:51.788813	332.8	41.2	-63.8	7.1
2026-01-10 01:49:54.030345	331.9	41.6	-63.6	7.3
2026-01-10 01:49:56.273364	331.0	42.0	-63.7	7.5
2026-01-10 01:49:58.518375	330.1	42.3	-64.0	7.6
2026-01-10 01:50:00.762387	329.1	42.7	-64.1	7.6
2026-01-10 01:50:03.005901	328.2	43.0	-64.5	8.6
2026-01-10 01:50:05.253913	327.2	43.3	-64.5	9.2
2026-01-10 01:50:07.498925	326.2	43.7	-64.7	9.4
2026-01-10 01:50:09.741945	325.1	44.0	-65.0	9.7
2026-01-10 01:50:11.985468	324.1	44.3	-64.9	9.7
2026-01-10 01:50:14.227000	323.0	44.6	-65.3	9.8
2026-01-10 01:50:16.471011	321.9	44.9	-65.9	9.9
2026-01-10 01:50:18.715023	320.8	45.2	-65.7	9.7
2026-01-10 01:50:20.957549	319.7	45.5	-66.3	10.3
2026-01-10 01:50:23.200074	318.5	45.7	-66.3	9.4
2026-01-10 01:50:25.443589	317.4	46.0	-66.4	10.0
2026-01-10 01:50:27.690113	316.2	46.2	-66.6	9.9
2026-01-10 01:50:29.934133	315.0	46.5	-66.5	11.5
2026-01-10 01:50:32.178151	313.7	46.7	-66.9	11.8
2026-01-10 01:50:34.420181	312.5	46.9	-66.7	12.2
2026-01-10 01:50:36.663704	311.2	47.1	-66.3	12.5
2026-01-10 01:50:38.907715	310.0	47.2	-66.5	12.7
2026-01-10 01:50:41.151725	308.7	47.4	-66.9	12.6
2026-01-10 01:50:43.397746	307.4	47.6	-67.0	12.0
2026-01-10 01:50:45.641261	306.1	47.7	-67.2	11.3
2026-01-10 01:50:47.884281	304.7	47.8	-67.2	8.6
2026-01-10 01:50:50.127797	303.4	47.9	-67.0	11.3
2026-01-10 01:50:52.372304	302.1	48.0	-66.7	11.5
2026-01-10 01:50:54.615325	300.7	48.0	-65.9	11.2
2026-01-10 01:50:56.858345	299.4	48.1	-66.6	12.1
2026-01-10 01:50:59.101860	298.0	48.1	-66.3	12.2
2026-01-10 01:51:01.343887	296.7	48.1	-64.9	9.5
2026-01-10 01:51:03.588403	295.3	48.1	-65.9	12.0
2026-01-10 01:51:05.831424	294.0	48.1	-66.3	12.2
2026-01-10 01:51:08.075940	292.6	48.0	-66.6	11.1
2026-01-10 01:51:10.319951	291.3	48.0	-66.2	10.7
2026-01-10 01:51:12.563467	289.9	47.9	-66.3	10.1
2026-01-10 01:51:14.807479	288.6	47.8	-66.4	9.7
2026-01-10 01:51:17.051490	287.3	47.7	-66.4	9.7
2026-01-10 01:51:19.295501	285.9	47.6	-66.4	9.5
2026-01-10 01:51:21.539513	284.6	47.4	-66.0	10.2
2026-01-10 01:51:23.783523	283.3	47.3	-65.7	10.5
2026-01-10 01:51:26.026544	282.1	47.1	-65.4	10.6
2026-01-10 01:51:28.269075	280.8	46.9	-65.6	10.3
2026-01-10 01:51:30.511112	279.6	46.7	-65.5	10.4
2026-01-10 01:51:32.755124	278.3	46.5	-65.6	9.9
2026-01-10 01:51:34.999639	277.1	46.3	-65.7	9.5
2026-01-10 01:51:37.242164	275.9	46.0	-65.7	8.0
2026-01-10 01:51:39.487680	274.7	45.8	-65.9	8.6
2026-01-10 01:51:41.732691	273.6	45.5	-66.0	8.3
2026-01-10 01:51:43.976207	272.4	45.2	-65.7	7.8
2026-01-10 01:51:46.218730	271.3	45.0	-66.2	8.7
2026-01-10 01:51:48.462245	270.2	44.7	-65.8	9.6
2026-01-10 01:51:50.707752	269.1	44.4	-65.6	9.5
2026-01-10 01:51:52.950772	268.1	44.0	-65.4	9.4
2026-01-10 01:51:55.194287	267.0	43.7	-64.9	10.0
2026-01-10 01:51:57.438298	266.0	43.4	-65.5	10.0
2026-01-10 01:51:59.681813	265.0	43.1	-65.0	9.8
2026-01-10 01:52:01.925825	264.0	42.7	-64.9	9.6
2026-01-10 01:52:04.169340	263.1	42.4	-65.5	9.7
2026-01-10 01:52:06.412360	262.2	42.0	-65.8	8.7
2026-01-10 01:52:08.656380	261.2	41.7	-65.2	6.6
2026-01-10 01:52:10.900390	260.4	41.3	-65.1	8.5
2026-01-10 01:52:13.144401	259.5	40.9	-65.8	8.6
2026-01-10 01:52:15.387916	258.6	40.6	-65.8	9.1
2026-01-10 01:52:17.631431	257.8	40.2	-65.0	9.0
2026-01-10 01:52:19.875443	257.0	39.8	-63.9	9.0
2026-01-10 01:52:22.118967	256.2	39.4	-64.3	8.2
2026-01-10 01:52:24.362005	255.4	39.0	-64.4	8.8
2026-01-10 01:52:26.607017	254.7	38.7	-63.8	7.8
2026-01-10 01:52:28.851524	253.9	38.3	-63.3	7.8
2026-01-10 01:52:31.097040	253.2	37.9	-63.5	7.9
2026-01-10 01:52:33.341547	252.5	37.5	-64.0	7.4
2026-01-10 01:52:35.585063	251.8	37.1	-63.6	6.3
2026-01-10 01:52:37.829074	251.1	36.7	-63.0	3.9
2026-01-10 01:52:40.073085	250.5	36.3	-63.8	6.6
2026-01-10 01:52:42.317609	249.8	36.0	-62.3	5.2
2026-01-10 01:52:44.559646	249.2	35.6	-63.6	5.0
2026-01-10 01:52:46.802666	248.6	35.2	-64.6	6.8
2026-01-10 01:52:49.045686	248.0	34.8	-63.5	6.2
2026-01-10 01:52:51.288705	247.4	34.4	-62.1	5.4
2026-01-10 01:52:53.533212	246.8	34.0	-63.2	5.4
2026-01-10 01:52:55.774249	246.3	33.7	-63.3	5.6
2026-01-10 01:52:58.017764	245.7	33.3	-60.9	4.5
2026-01-10 01:53:00.261776	245.2	32.9	-61.8	5.9
2026-01-10 01:53:02.505291	244.7	32.5	-62.7	3.4
2026-01-10 01:53:04.750329	244.2	32.2	-63.5	4.9
2026-01-10 01:53:06.992357	243.7	31.8	-64.0	5.8
2026-01-10 01:53:09.234882	243.2	31.4	-62.2	3.6
2026-01-10 01:53:11.478901	242.7	31.1	-62.6	4.8
2026-01-10 01:53:13.723417	242.2	30.7	-64.3	4.3
2026-01-10 01:53:15.967429	241.8	30.3	-63.0	2.1
2026-01-10 01:53:18.209951	241.4	30.0	-62.3	3.5
2026-01-10 01:53:20.452994	240.9	29.6	-61.6	3.5
2026-01-10 01:53:22.697005	240.5	29.3	-60.8	1.3
2026-01-10 01:53:24.940520	240.1	28.9	-60.7	2.0
2026-01-10 01:53:27.184036	239.7	28.6	-58.6	0.0
2026-01-10 01:53:29.430561	239.3	28.2	-61.4	5.0
2026-01-10 01:53:31.673086	238.9	27.9	-60.9	0.0
2026-01-10 01:53:33.915610	238.5	27.5	-57.1	0.0
2026-01-10 01:53:36.160135	238.1	27.2	-63.2	6.2
2026-01-10 01:53:38.403651	237.8	26.9	-62.8	4.1
2026-01-10 01:53:40.647663	237.4	26.5	-63.0	5.1
2026-01-10 01:53:42.889692	237.1	26.2	-63.4	5.5
2026-01-10 01:53:45.133703	236.7	25.9	-63.9	4.9
2026-01-10 01:53:47.376228	236.4	25.6	-62.5	3.6
2026-01-10 01:53:49.620735	236.1	25.2	-62.2	3.7
2026-01-10 01:53:51.863754	235.7	24.9	-57.0	0.0
2026-01-10 01:53:54.107766	235.4	24.6	-62.6	4.2
2026-01-10 01:53:56.351280	235.1	24.3	-62.4	4.9
2026-01-10 01:53:58.594299	234.8	24.0	-61.9	5.5
2026-01-10 01:54:00.836821	234.5	23.7	-61.9	5.5
2026-01-10 01:54:03.078848	234.2	23.4	-62.2	3.5
2026-01-10 01:54:05.323859	233.9	23.1	-63.3	4.7
2026-01-10 01:54:07.567375	233.7	22.8	-63.7	5.1
2026-01-10 01:54:09.810395	233.4	22.5	-63.1	4.5
2026-01-10 01:54:12.053920	233.1	22.2	-63.3	4.1
2026-01-10 01:54:14.297435	232.9	21.9	-64.5	3.6
2026-01-10 01:54:16.540950	232.6	21.6	-64.1	3.7
2026-01-10 01:54:18.785962	232.3	21.3	-63.6	5.4
2026-01-10 01:54:21.029477	232.1	21.1	-63.5	5.2
2026-01-10 01:54:23.272000	231.9	20.8	-64.3	6.6
2026-01-10 01:54:25.516524	231.6	20.5	-63.2	4.4
2026-01-10 01:54:27.761031	231.4	20.2	-63.3	5.2
2026-01-10 01:54:30.004051	231.1	20.0	-63.0	6.0
2026-01-10 01:54:32.248558	230.9	19.7	-60.3	0.0
2026-01-10 01:54:34.492569	230.7	19.4	-64.7	5.9
2026-01-10 01:54:36.735588	230.5	19.2	-63.7	6.6
2026-01-10 01:54:38.982609	230.3	18.9	-64.8	7.5
2026-01-10 01:54:41.227124	230.0	18.6	-59.7	0.0
2026-01-10 01:54:43.471136	229.8	18.4	-65.5	7.6
2026-01-10 01:54:45.714651	229.6	18.1	-65.2	6.0
2026-01-10 01:54:47.958663	229.4	17.9	-63.1	6.0
2026-01-10 01:54:50.202180	229.2	17.6	-64.0	7.0
2026-01-10 01:54:52.445200	229.0	17.4	-64.5	6.1
2026-01-10 01:54:54.688221	228.8	17.1	-63.9	5.7
2026-01-10 01:54:56.932232	228.7	16.9	-64.2	7.2
2026-01-10 01:54:59.175747	228.5	16.6	-64.4	5.9
2026-01-10 01:55:01.418767	228.3	16.4	-65.2	8.0
2026-01-10 01:55:03.662284	228.1	16.2	-65.1	6.9
2026-01-10 01:55:05.905304	227.9	15.9	-65.1	8.0
2026-01-10 01:55:08.149314	227.8	15.7	-64.7	7.4
2026-01-10 01:55:10.396831	227.6	15.5	-65.3	7.4
2026-01-10 01:55:12.641338	227.4	15.2	-65.1	7.8
2026-01-10 01:55:14.886350	227.3	15.0	-65.3	7.2
2026-01-10 01:55:17.129865	227.1	14.8	-65.0	9.0
2026-01-10 01:55:19.373877	226.9	14.5	-65.3	9.2
2026-01-10 01:55:21.617390	226.8	14.3	-65.2	9.3
2026-01-10 01:55:23.861898	226.6	14.1	-65.0	8.1
2026-01-10 01:55:26.111423	226.5	13.9	-64.9	9.0
2026-01-10 01:55:28.355930	226.3	13.7	-65.6	7.9
2026-01-10 01:55:30.598951	226.2	13.4	-66.3	7.6
2026-01-10 01:55:32.842466	226.0	13.2	-66.1	9.4
2026-01-10 01:55:35.086477	225.9	13.0	-66.1	9.9
2026-01-10 01:55:37.329992	225.7	12.8	-66.1	6.6
2026-01-10 01:55:39.574514	225.6	12.6	-65.6	9.2
2026-01-10 01:55:41.820033	225.5	12.4	-66.5	9.3
2026-01-10 01:55:44.063053	225.3	12.2	-66.3	10.0
2026-01-10 01:55:46.306567	225.2	12.0	-66.4	9.9
2026-01-10 01:55:48.550083	225.1	11.8	-65.5	8.8
2026-01-10 01:55:50.793102	224.9	11.6	-66.4	10.1
2026-01-10 01:55:53.035626	224.8	11.4	-66.2	9.9
2026-01-10 01:55:55.278149	224.7	11.2	-66.3	9.3
2026-01-10 01:55:57.521664	224.6	11.0	-66.3	9.8
2026-01-10 01:55:59.766171	224.4	10.8	-66.0	8.5
2026-01-10 01:56:02.010182	224.3	10.6	-66.1	9.3
2026-01-10 01:56:04.252706	224.2	10.4	-66.7	9.4
2026-01-10 01:56:06.495725	224.1	10.2	-65.8	6.5
2026-01-10 01:56:08.739240	224.0	10.0	-66.6	8.8
2026-01-10 01:56:10.983250	223.8	9.8	-66.3	9.1
2026-01-10 01:56:13.227774	223.7	9.6	-66.4	7.9
2026-01-10 01:56:15.472281	223.6	9.5	-66.3	8.4
2026-01-10 01:56:17.716796	223.5	9.3	-66.3	9.4
2026-01-10 01:56:19.959815	223.4	9.1	-65.9	8.1
2026-01-10 01:56:22.202846	223.3	8.9	-66.6	9.3
2026-01-10 01:56:24.445873	223.2	8.7	-66.4	8.7
2026-01-10 01:56:26.688395	223.1	8.6	-66.5	9.3
2026-01-10 01:56:28.932413	223.0	8.4	-66.5	7.9
2026-01-10 01:56:31.176920	222.9	8.2	-67.0	9.9
2026-01-10 01:56:33.420931	222.8	8.0	-66.7	10.6
2026-01-10 01:56:35.664942	222.7	7.8	-67.1	10.5
2026-01-10 01:56:37.910449	222.6	7.7	-67.4	9.7
2026-01-10 01:56:40.153469	222.5	7.5	-67.8	11.3
2026-01-10 01:56:42.395993	222.4	7.3	-67.9	11.3
2026-01-10 01:56:44.639508	222.3	7.2	-68.0	11.4
2026-01-10 01:56:46.884519	222.2	7.0	-68.1	11.4
2026-01-10 01:56:49.129530	222.1	6.8	-67.9	11.2
2026-01-10 01:56:51.373541	222.0	6.7	-68.2	11.3
2026-01-10 01:56:53.615568	221.9	6.5	-67.9	11.5
2026-01-10 01:56:55.859082	221.8	6.3	-67.9	10.1
2026-01-10 01:56:58.103094	221.7	6.2	-67.8	11.6
2026-01-10 01:57:00.347105	221.7	6.0	-68.5	9.2
2026-01-10 01:57:02.589630	221.6	5.8	-69.3	0.0
2026-01-10 01:57:04.833146	221.5	5.7	-69.9	0.0
2026-01-10 01:57:07.077157	221.4	5.5	-71.0	0.0
2026-01-10 01:57:09.321682	221.3	5.4	-72.6	0.0
2026-01-10 01:57:11.565693	221.2	5.2	-72.6	0.0
2026-01-10 01:57:13.810200	221.2	5.0	-72.2	0.0
#Closed at: 2026-01-10 01:44:40.803486