passes_logs/2026/01/10/PlanumMoscow/PlanumMoscow__20260110_234307_METEOR-M2_4_rec.log

#Pass ID: 20260110_234307_METEOR-M2 4
#Satellite: METEOR-M2 4
#Configuration: METEOR-M2 4
#Start time: 2026-01-10 23:43:12.317367

#LorettStation: 1.0.0 05.05.2024
#Station: PlanumMoscow
#Location: 37.6253844 lon 55.6713361 lat
#TLE: 1 59051U 24039A   25293.94737965  .00000087  00000+0  58459-4 0  9998
#TLE: 2 59051  98.6671 251.7071 0007726 135.4772 224.7028 14.22388966 85257

#Time	Az	El	Level	SNR
2026-01-10 23:46:50.744102	55.9	20.7	-65.3	12.7
2026-01-10 23:46:51.866355	56.2	20.8	-65.4	12.3
2026-01-10 23:46:52.987618	56.4	20.9	-65.8	12.8
2026-01-10 23:46:54.109881	56.6	21.0	-65.7	12.8
2026-01-10 23:46:55.232135	56.9	21.0	-65.7	12.3
2026-01-10 23:46:56.352909	57.1	21.1	-65.6	12.3
2026-01-10 23:46:57.475668	57.4	21.2	-66.0	12.6
2026-01-10 23:46:58.597427	57.6	21.3	-66.0	13.4
2026-01-10 23:46:59.719232	57.9	21.4	-65.3	11.3
2026-01-10 23:47:00.840990	58.1	21.5	-65.7	12.8
2026-01-10 23:47:01.962261	58.4	21.5	-65.6	13.0
2026-01-10 23:47:03.084514	58.6	21.6	-66.2	12.9
2026-01-10 23:47:04.206272	58.9	21.7	-66.3	13.6
2026-01-10 23:47:05.328564	59.1	21.8	-65.6	13.2
2026-01-10 23:47:06.450817	59.4	21.9	-65.7	12.8
2026-01-10 23:47:07.572584	59.7	21.9	-65.3	11.9
2026-01-10 23:47:08.694837	59.9	22.0	-66.3	12.7
2026-01-10 23:47:09.816130	60.2	22.1	-66.0	13.1
2026-01-10 23:47:10.938888	60.4	22.2	-64.9	11.2
2026-01-10 23:47:12.061150	60.7	22.3	-65.5	12.7
2026-01-10 23:47:13.181919	61.0	22.3	-65.4	12.0
2026-01-10 23:47:14.304173	61.2	22.4	-65.6	12.2
2026-01-10 23:47:15.426466	61.5	22.5	-64.8	11.2
2026-01-10 23:47:16.548719	61.8	22.6	-65.4	12.5
2026-01-10 23:47:17.670486	62.0	22.6	-65.6	12.8
2026-01-10 23:47:18.791748	62.3	22.7	-65.7	12.5
2026-01-10 23:47:19.913551	62.6	22.8	-65.7	13.3
2026-01-10 23:47:21.035805	62.9	22.9	-66.0	13.3
2026-01-10 23:47:22.159066	63.1	22.9	-65.7	12.3
2026-01-10 23:47:23.280824	63.4	23.0	-66.0	13.3
2026-01-10 23:47:24.402582	63.7	23.1	-66.0	12.5
2026-01-10 23:47:25.523388	64.0	23.2	-65.9	13.1
2026-01-10 23:47:26.645641	64.2	23.2	-66.0	12.4
2026-01-10 23:47:27.767904	64.5	23.3	-65.9	12.0
2026-01-10 23:47:28.889662	64.8	23.4	-66.1	12.8
2026-01-10 23:47:30.010973	65.1	23.5	-66.1	12.8
2026-01-10 23:47:31.132730	65.4	23.5	-65.4	12.6
2026-01-10 23:47:32.254992	65.7	23.6	-66.2	13.0
2026-01-10 23:47:33.376750	66.0	23.7	-65.8	12.4
2026-01-10 23:47:34.500508	66.2	23.7	-65.8	12.4
2026-01-10 23:47:35.622316	66.5	23.8	-65.7	13.8
2026-01-10 23:47:36.744569	66.8	23.9	-66.0	13.4
2026-01-10 23:47:37.864872	67.1	23.9	-65.8	13.2
2026-01-10 23:47:38.986630	67.4	24.0	-65.4	13.1
2026-01-10 23:47:40.108427	67.7	24.1	-65.6	13.1
2026-01-10 23:47:41.229689	68.0	24.1	-64.9	12.4
2026-01-10 23:47:42.350464	68.3	24.2	-65.2	13.1
2026-01-10 23:47:43.472230	68.6	24.3	-65.6	13.1
2026-01-10 23:47:44.593988	68.9	24.3	-65.7	12.9
2026-01-10 23:47:45.716281	69.2	24.4	-65.0	12.6
2026-01-10 23:47:46.838544	69.5	24.5	-65.1	11.9
2026-01-10 23:47:47.960806	69.8	24.5	-64.9	12.1
2026-01-10 23:47:49.082564	70.1	24.6	-64.2	12.7
2026-01-10 23:47:50.204360	70.4	24.7	-64.9	11.9
2026-01-10 23:47:51.326118	70.7	24.7	-64.8	12.1
2026-01-10 23:47:52.447884	71.0	24.8	-65.0	11.9
2026-01-10 23:47:53.569650	71.4	24.8	-65.1	12.2
2026-01-10 23:47:54.691408	71.7	24.9	-64.9	12.0
2026-01-10 23:47:55.811711	72.0	24.9	-64.9	11.9
2026-01-10 23:47:56.934470	72.3	25.0	-64.6	11.0
2026-01-10 23:47:58.055769	72.6	25.1	-64.7	12.8
2026-01-10 23:47:59.177031	72.9	25.1	-63.9	11.8
2026-01-10 23:48:00.299285	73.2	25.2	-64.8	10.9
2026-01-10 23:48:01.421538	73.6	25.2	-64.3	11.2
2026-01-10 23:48:02.543296	73.9	25.3	-65.0	12.4
2026-01-10 23:48:03.665072	74.2	25.3	-61.9	6.5
2026-01-10 23:48:04.788418	74.5	25.4	-64.8	11.9
2026-01-10 23:48:05.910672	74.8	25.4	-65.3	11.4
2026-01-10 23:48:07.031936	75.2	25.5	-64.9	11.3
2026-01-10 23:48:08.153207	75.5	25.5	-64.7	9.7
2026-01-10 23:48:09.277470	75.8	25.6	-63.1	9.9
2026-01-10 23:48:10.399761	76.1	25.6	-64.4	10.2
2026-01-10 23:48:11.522014	76.5	25.7	-62.3	7.7
2026-01-10 23:48:12.643286	76.8	25.7	-64.4	11.4
2026-01-10 23:48:13.765540	77.1	25.8	-63.0	8.6
2026-01-10 23:48:14.887793	77.5	25.8	-63.9	10.5
2026-01-10 23:48:16.010085	77.8	25.8	-63.8	10.7
2026-01-10 23:48:17.132339	78.1	25.9	-62.2	8.3
2026-01-10 23:48:18.254600	78.4	25.9	-63.1	9.5
2026-01-10 23:48:19.376854	78.8	26.0	-63.6	11.0
2026-01-10 23:48:20.498642	79.1	26.0	-64.1	9.9
2026-01-10 23:48:21.623401	79.4	26.0	-62.5	8.0
2026-01-10 23:48:22.745655	79.8	26.1	-61.8	4.9
2026-01-10 23:48:23.867916	80.1	26.1	-60.1	7.5
2026-01-10 23:48:24.990169	80.5	26.1	-61.5	7.6
2026-01-10 23:48:26.112464	80.8	26.2	-63.4	10.5
2026-01-10 23:48:27.233725	81.1	26.2	-63.5	10.6
2026-01-10 23:48:28.355979	81.5	26.2	-63.5	10.8
2026-01-10 23:48:29.477737	81.8	26.3	-63.1	9.4
2026-01-10 23:48:30.600029	82.2	26.3	-63.6	7.0
2026-01-10 23:48:31.722282	82.5	26.3	-63.8	9.1
2026-01-10 23:48:32.844544	82.8	26.3	-64.0	9.6
2026-01-10 23:48:33.966797	83.2	26.4	-64.0	8.8
2026-01-10 23:48:35.089051	83.5	26.4	-63.2	8.2
2026-01-10 23:48:36.212346	83.9	26.4	-63.7	10.8
2026-01-10 23:48:37.334597	84.2	26.4	-61.3	5.7
2026-01-10 23:48:38.455868	84.6	26.5	-62.2	8.9
2026-01-10 23:48:39.578122	84.9	26.5	-63.2	9.7
2026-01-10 23:48:40.700375	85.2	26.5	-62.6	9.8
2026-01-10 23:48:41.821671	85.6	26.5	-64.2	7.9
2026-01-10 23:48:42.943924	85.9	26.5	-63.7	9.3
2026-01-10 23:48:44.066178	86.3	26.6	-64.2	9.9
2026-01-10 23:48:45.187943	86.6	26.6	-62.9	9.4
2026-01-10 23:48:46.309739	87.0	26.6	-63.1	9.6
2026-01-10 23:48:47.432497	87.3	26.6	-60.7	4.3
2026-01-10 23:48:48.554750	87.7	26.6	-62.1	8.3
2026-01-10 23:48:49.677011	88.0	26.6	-62.7	9.2
2026-01-10 23:48:50.799265	88.4	26.6	-63.8	10.2
2026-01-10 23:48:51.920557	88.7	26.6	-63.3	8.4
2026-01-10 23:48:53.042810	89.1	26.7	-61.8	6.3
2026-01-10 23:48:54.165072	89.4	26.7	-64.1	10.2
2026-01-10 23:48:55.287325	89.8	26.7	-62.4	8.2
2026-01-10 23:48:56.408588	90.1	26.7	-63.4	9.1
2026-01-10 23:48:57.530880	90.5	26.7	-63.0	9.7
2026-01-10 23:48:58.653133	90.8	26.7	-63.3	7.8
2026-01-10 23:48:59.775395	91.2	26.7	-62.1	6.9
2026-01-10 23:49:00.897648	91.5	26.7	-63.7	10.5
2026-01-10 23:49:02.019941	91.9	26.7	-64.4	9.4
2026-01-10 23:49:03.142195	92.2	26.7	-63.4	7.5
2026-01-10 23:49:04.263953	92.6	26.7	-64.3	9.2
2026-01-10 23:49:05.391207	92.9	26.7	-62.8	8.6
2026-01-10 23:49:06.513461	93.3	26.7	-63.1	9.3
2026-01-10 23:49:07.634763	93.6	26.7	-60.9	4.1
2026-01-10 23:49:08.757016	94.0	26.6	-64.2	6.9
2026-01-10 23:49:09.878286	94.3	26.6	-63.0	7.8
2026-01-10 23:49:11.000540	94.7	26.6	-63.8	9.4
2026-01-10 23:49:12.122793	95.0	26.6	-61.9	6.7
2026-01-10 23:49:13.244079	95.4	26.6	-62.8	8.3
2026-01-10 23:49:14.366333	95.7	26.6	-62.8	8.4
2026-01-10 23:49:15.488594	96.0	26.6	-62.8	6.9
2026-01-10 23:49:16.610848	96.4	26.6	-64.2	11.4
2026-01-10 23:49:17.733140	96.7	26.5	-64.0	9.0
2026-01-10 23:49:18.855393	97.1	26.5	-63.0	8.0
2026-01-10 23:49:19.977647	97.4	26.5	-63.8	7.9
2026-01-10 23:49:21.099413	97.8	26.5	-63.4	10.5
2026-01-10 23:49:22.223172	98.1	26.5	-63.4	8.9
2026-01-10 23:49:23.344992	98.5	26.4	-64.5	10.0
2026-01-10 23:49:24.467246	98.8	26.4	-64.2	11.1
2026-01-10 23:49:25.589499	99.2	26.4	-64.1	10.1
2026-01-10 23:49:26.711753	99.5	26.4	-64.2	11.4
2026-01-10 23:49:27.834006	99.8	26.3	-65.4	12.4
2026-01-10 23:49:28.956260	100.2	26.3	-64.6	10.6
2026-01-10 23:49:30.078018	100.5	26.3	-65.2	11.8
2026-01-10 23:49:31.200280	100.9	26.3	-64.7	11.1
2026-01-10 23:49:32.321574	101.2	26.2	-64.3	10.4
2026-01-10 23:49:33.443827	101.6	26.2	-64.1	9.8
2026-01-10 23:49:34.565139	101.9	26.2	-65.4	13.6
2026-01-10 23:49:35.687392	102.2	26.1	-64.9	12.1
2026-01-10 23:49:36.809654	102.6	26.1	-65.6	12.8
2026-01-10 23:49:37.931412	102.9	26.1	-64.7	11.6
2026-01-10 23:49:39.052704	103.2	26.0	-65.7	13.5
2026-01-10 23:49:40.176968	103.6	26.0	-65.7	13.2
2026-01-10 23:49:41.298734	103.9	25.9	-65.7	12.7
2026-01-10 23:49:42.420987	104.2	25.9	-65.8	13.4
2026-01-10 23:49:43.543240	104.6	25.9	-65.6	11.2
2026-01-10 23:49:44.664534	104.9	25.8	-65.8	14.0
2026-01-10 23:49:45.786787	105.2	25.8	-65.9	14.1
2026-01-10 23:49:46.909049	105.6	25.7	-65.4	13.1
2026-01-10 23:49:48.030832	105.9	25.7	-65.5	13.4
2026-01-10 23:49:49.153085	106.2	25.7	-65.5	13.9
2026-01-10 23:49:50.275339	106.6	25.6	-66.3	13.9
2026-01-10 23:49:51.397592	106.9	25.6	-66.1	13.6
2026-01-10 23:49:52.519846	107.2	25.5	-66.1	12.9
2026-01-10 23:49:53.642108	107.5	25.5	-66.1	12.5
2026-01-10 23:49:54.763896	107.9	25.4	-66.3	13.2
2026-01-10 23:49:55.885654	108.2	25.4	-65.8	12.9
2026-01-10 23:49:57.006925	108.5	25.3	-66.5	13.6
2026-01-10 23:49:58.128218	108.8	25.3	-66.3	11.6
2026-01-10 23:49:59.250472	109.2	25.2	-66.5	13.9
2026-01-10 23:50:00.372279	109.5	25.2	-66.7	14.5
2026-01-10 23:50:01.494532	109.8	25.1	-66.7	13.7
2026-01-10 23:50:02.616786	110.1	25.0	-66.0	13.9
2026-01-10 23:50:03.739039	110.4	25.0	-66.3	14.0
2026-01-10 23:50:04.861292	110.7	24.9	-66.6	14.3
2026-01-10 23:50:05.982115	111.0	24.9	-66.0	12.0
2026-01-10 23:50:07.104368	111.4	24.8	-66.5	13.8
2026-01-10 23:50:08.228630	111.7	24.8	-66.4	13.7
2026-01-10 23:50:09.350883	112.0	24.7	-66.7	14.7
2026-01-10 23:50:10.472664	112.3	24.6	-66.6	14.0
2026-01-10 23:50:11.594917	112.6	24.6	-66.4	14.3
2026-01-10 23:50:12.716694	112.9	24.5	-67.1	15.5
2026-01-10 23:50:13.838945	113.2	24.4	-67.0	15.1
2026-01-10 23:50:14.960703	113.5	24.4	-66.9	14.5
2026-01-10 23:50:16.082502	113.8	24.3	-67.0	14.0
2026-01-10 23:50:17.204756	114.1	24.3	-66.5	13.9
2026-01-10 23:50:18.327016	114.4	24.2	-67.0	14.7
2026-01-10 23:50:19.448775	114.7	24.1	-66.8	14.9
2026-01-10 23:50:20.570579	115.0	24.1	-66.8	14.2
2026-01-10 23:50:21.692337	115.3	24.0	-66.6	14.5
2026-01-10 23:50:22.814598	115.6	23.9	-66.6	13.9
2026-01-10 23:50:23.936356	115.9	23.9	-66.8	15.1
2026-01-10 23:50:25.058609	116.2	23.8	-67.0	14.5
2026-01-10 23:50:26.180414	116.5	23.7	-67.0	14.7
2026-01-10 23:50:27.302667	116.8	23.6	-66.9	14.3
2026-01-10 23:50:28.424434	117.1	23.6	-66.8	14.6
2026-01-10 23:50:29.546687	117.4	23.5	-66.9	14.1
2026-01-10 23:50:30.668483	117.7	23.4	-67.0	14.9
2026-01-10 23:50:31.790736	117.9	23.4	-66.9	14.9
2026-01-10 23:50:32.912494	118.2	23.3	-67.1	14.6
2026-01-10 23:50:34.034756	118.5	23.2	-67.0	14.3
2026-01-10 23:50:35.157010	118.8	23.1	-66.9	14.3
2026-01-10 23:50:36.278798	119.1	23.1	-66.9	14.4
2026-01-10 23:50:37.400555	119.3	23.0	-66.8	14.6
2026-01-10 23:50:38.522817	119.6	22.9	-66.7	14.7
2026-01-10 23:50:39.645070	119.9	22.8	-66.9	13.7
2026-01-10 23:50:40.766332	120.2	22.8	-67.1	15.1
2026-01-10 23:50:41.888625	120.4	22.7	-67.2	15.1
2026-01-10 23:50:43.010383	120.7	22.6	-67.3	15.0
2026-01-10 23:50:44.132645	121.0	22.5	-67.0	14.2
2026-01-10 23:50:45.254899	121.3	22.4	-66.9	15.1
2026-01-10 23:50:46.376700	121.5	22.4	-67.1	13.6
2026-01-10 23:50:47.498953	121.8	22.3	-67.1	13.8
2026-01-10 23:50:48.620215	122.1	22.2	-66.9	14.2
2026-01-10 23:50:49.741974	122.3	22.1	-67.0	14.2
2026-01-10 23:50:50.863732	122.6	22.1	-67.1	14.8
2026-01-10 23:50:51.986022	122.9	22.0	-66.9	14.3
2026-01-10 23:50:53.107781	123.1	21.9	-67.0	14.4
2026-01-10 23:50:54.230034	123.4	21.8	-67.0	14.6
2026-01-10 23:50:55.352287	123.6	21.7	-67.1	14.8
2026-01-10 23:50:56.474550	123.9	21.6	-67.1	14.4
2026-01-10 23:50:57.596843	124.1	21.6	-66.6	13.7
2026-01-10 23:50:58.719096	124.4	21.5	-67.3	14.2
2026-01-10 23:50:59.840369	124.7	21.4	-66.9	14.1
2026-01-10 23:51:00.962623	124.9	21.3	-67.0	14.5
2026-01-10 23:51:02.086420	125.2	21.2	-66.8	13.7
2026-01-10 23:51:03.208673	125.4	21.2	-67.2	14.6
2026-01-10 23:51:04.330935	125.7	21.1	-67.2	14.3
2026-01-10 23:51:05.453188	125.9	21.0	-67.3	14.4
2026-01-10 23:51:06.575442	126.1	20.9	-67.0	13.4
2026-01-10 23:51:07.697732	126.4	20.8	-67.3	13.9
2026-01-10 23:51:08.819986	126.6	20.7	-67.0	13.8
2026-01-10 23:51:09.942248	126.9	20.6	-67.1	14.2
2026-01-10 23:51:11.064501	127.1	20.6	-67.3	13.9
2026-01-10 23:51:12.185795	127.3	20.5	-67.3	14.2
2026-01-10 23:51:13.308048	127.6	20.4	-67.1	14.4
2026-01-10 23:51:14.429310	127.8	20.3	-67.0	13.6
2026-01-10 23:51:15.551102	128.1	20.2	-66.9	12.8
2026-01-10 23:51:16.673355	128.3	20.1	-67.0	13.7
2026-01-10 23:51:17.795113	128.5	20.0	-67.2	13.8
2026-01-10 23:51:18.917367	128.8	20.0	-67.3	13.9
2026-01-10 23:51:20.039629	129.0	19.9	-67.1	14.0
2026-01-10 23:51:21.161883	129.2	19.8	-67.0	13.4
2026-01-10 23:51:22.284136	129.4	19.7	-66.9	13.4
2026-01-10 23:51:23.406428	129.7	19.6	-67.0	13.6
2026-01-10 23:51:24.528682	129.9	19.5	-66.9	13.8
2026-01-10 23:51:25.651944	130.1	19.4	-66.9	13.7
2026-01-10 23:51:26.774198	130.3	19.4	-67.1	13.9
2026-01-10 23:51:27.896489	130.6	19.3	-67.1	14.2
2026-01-10 23:51:29.018742	130.8	19.2	-67.0	13.9
2026-01-10 23:51:30.141004	131.0	19.1	-67.4	14.0
2026-01-10 23:51:31.263258	131.2	19.0	-67.2	13.7
2026-01-10 23:51:32.385511	131.4	18.9	-67.1	13.6
2026-01-10 23:51:33.506804	131.6	18.8	-67.0	13.4
2026-01-10 23:51:34.633059	131.9	18.7	-67.1	13.6
2026-01-10 23:51:35.756320	132.1	18.7	-67.0	13.4
2026-01-10 23:51:36.878574	132.3	18.6	-66.9	13.8
2026-01-10 23:51:38.000355	132.5	18.5	-66.9	13.0
2026-01-10 23:51:39.122608	132.7	18.4	-66.8	13.0
2026-01-10 23:51:40.244862	132.9	18.3	-66.8	12.9
2026-01-10 23:51:41.367124	133.1	18.2	-66.8	12.7
2026-01-10 23:51:42.488883	133.3	18.1	-66.7	13.7
2026-01-10 23:51:43.610697	133.5	18.0	-66.8	13.3
2026-01-10 23:51:44.732951	133.7	17.9	-66.8	13.6
2026-01-10 23:51:45.855212	133.9	17.9	-66.8	13.5
2026-01-10 23:51:46.976970	134.1	17.8	-66.5	13.9
2026-01-10 23:51:48.099223	134.3	17.7	-66.7	12.5
2026-01-10 23:51:49.221012	134.5	17.6	-66.7	13.7
2026-01-10 23:51:50.343265	134.7	17.5	-67.0	13.4
2026-01-10 23:51:51.465023	134.9	17.4	-67.0	13.2
2026-01-10 23:51:52.590277	135.1	17.3	-67.1	13.3
2026-01-10 23:51:53.712066	135.3	17.2	-67.0	12.3
2026-01-10 23:51:54.834320	135.5	17.1	-67.3	13.5
2026-01-10 23:51:55.956087	135.7	17.1	-67.1	13.7
2026-01-10 23:51:57.078340	135.9	17.0	-67.0	12.5
2026-01-10 23:51:58.199632	136.1	16.9	-67.0	13.0
2026-01-10 23:51:59.321390	136.3	16.8	-66.4	12.3
2026-01-10 23:52:00.443148	136.4	16.7	-66.7	13.2
2026-01-10 23:52:01.565410	136.6	16.6	-66.9	13.3
2026-01-10 23:52:02.687663	136.8	16.5	-66.8	13.1
2026-01-10 23:52:03.809451	137.0	16.4	-67.2	12.9
2026-01-10 23:52:04.931704	137.2	16.4	-67.0	13.6
2026-01-10 23:52:06.053958	137.4	16.3	-67.2	12.9
2026-01-10 23:52:07.176219	137.5	16.2	-66.7	11.6
2026-01-10 23:52:08.298473	137.7	16.1	-66.6	12.9
2026-01-10 23:52:09.419765	137.9	16.0	-66.7	12.5
2026-01-10 23:52:10.543019	138.1	15.9	-66.7	13.0
2026-01-10 23:52:11.665281	138.3	15.8	-67.0	13.2
2026-01-10 23:52:12.787535	138.4	15.7	-67.0	13.0
2026-01-10 23:52:13.909788	138.6	15.7	-66.8	13.2
2026-01-10 23:52:15.031592	138.8	15.6	-67.2	13.6
2026-01-10 23:52:16.153350	139.0	15.5	-67.1	13.4
2026-01-10 23:52:17.275603	139.1	15.4	-66.8	12.8
2026-01-10 23:52:18.397369	139.3	15.3	-66.6	13.1
2026-01-10 23:52:19.519157	139.5	15.2	-66.9	13.2
2026-01-10 23:52:20.641411	139.6	15.1	-66.8	13.1
2026-01-10 23:52:21.763664	139.8	15.0	-66.8	13.5
2026-01-10 23:52:22.885430	140.0	15.0	-67.1	12.5
2026-01-10 23:52:24.007683	140.1	14.9	-66.4	13.1
2026-01-10 23:52:25.128977	140.3	14.8	-66.9	11.9
2026-01-10 23:52:26.251230	140.5	14.7	-67.0	13.8
2026-01-10 23:52:27.372997	140.6	14.6	-66.8	12.0
2026-01-10 23:52:28.495250	140.8	14.5	-66.8	13.3
2026-01-10 23:52:29.617504	141.0	14.4	-67.3	12.4
2026-01-10 23:52:30.739293	141.1	14.3	-67.1	12.4
2026-01-10 23:52:31.861546	141.3	14.3	-67.0	12.1
2026-01-10 23:52:32.983808	141.4	14.2	-66.6	12.1
2026-01-10 23:52:34.106062	141.6	14.1	-67.4	12.4
2026-01-10 23:52:35.228315	141.8	14.0	-66.6	12.1
2026-01-10 23:52:36.349127	141.9	13.9	-67.2	11.7
2026-01-10 23:52:37.471381	142.1	13.8	-66.8	11.7
2026-01-10 23:52:38.593642	142.2	13.7	-67.1	12.0
2026-01-10 23:52:39.715898	142.4	13.7	-67.3	11.9
2026-01-10 23:52:40.838149	142.5	13.6	-67.1	11.6
2026-01-10 23:52:41.959937	142.7	13.5	-67.1	12.3
2026-01-10 23:52:43.081695	142.8	13.4	-67.2	12.9
2026-01-10 23:52:44.203948	143.0	13.3	-67.2	12.1
2026-01-10 23:52:45.327715	143.1	13.2	-66.8	12.1
2026-01-10 23:52:46.449968	143.3	13.1	-66.6	11.7
2026-01-10 23:52:47.571756	143.4	13.1	-66.6	11.9
2026-01-10 23:52:48.694010	143.6	13.0	-67.3	12.8
2026-01-10 23:52:49.815271	143.7	12.9	-67.0	11.7
2026-01-10 23:52:50.937525	143.9	12.8	-67.2	11.9
2026-01-10 23:52:52.059778	144.0	12.7	-67.1	11.8
2026-01-10 23:52:53.181566	144.1	12.6	-67.0	11.1
2026-01-10 23:52:54.302827	144.3	12.6	-67.0	11.8
2026-01-10 23:52:55.425586	144.4	12.5	-67.0	11.2
2026-01-10 23:52:56.547840	144.6	12.4	-67.3	11.8
2026-01-10 23:52:57.670093	144.7	12.3	-67.3	12.0
2026-01-10 23:52:58.791880	144.9	12.2	-67.4	11.5
2026-01-10 23:52:59.914134	145.0	12.1	-67.1	11.9
2026-01-10 23:53:01.036395	145.1	12.1	-67.6	11.3
2026-01-10 23:53:02.158649	145.3	12.0	-66.5	10.5
2026-01-10 23:53:03.280406	145.4	11.9	-67.0	10.8
2026-01-10 23:53:04.401206	145.5	11.8	-67.4	11.1
2026-01-10 23:53:05.522964	145.7	11.7	-67.3	11.2
2026-01-10 23:53:06.645226	145.8	11.6	-67.5	11.8
2026-01-10 23:53:07.767479	145.9	11.6	-67.2	11.2
2026-01-10 23:53:08.889237	146.1	11.5	-66.6	11.5
2026-01-10 23:53:10.010026	146.2	11.4	-67.0	11.3
2026-01-10 23:53:11.132280	146.3	11.3	-66.8	10.8
2026-01-10 23:53:12.253552	146.5	11.2	-67.2	11.2
2026-01-10 23:53:13.374815	146.6	11.1	-67.0	11.0
2026-01-10 23:53:14.497068	146.7	11.1	-66.5	10.0
2026-01-10 23:53:15.618866	146.9	11.0	-67.4	11.0
2026-01-10 23:53:16.741120	147.0	10.9	-67.1	10.7
2026-01-10 23:53:17.863374	147.1	10.8	-66.7	11.8
2026-01-10 23:53:18.985636	147.2	10.7	-66.6	10.6
2026-01-10 23:53:20.107889	147.4	10.7	-66.7	10.9
2026-01-10 23:53:21.233680	147.5	10.6	-66.8	10.9
2026-01-10 23:53:22.355933	147.6	10.5	-66.3	9.3
2026-01-10 23:53:23.478195	147.7	10.4	-66.8	9.9
2026-01-10 23:53:24.625454	147.9	10.3	-66.8	10.4
2026-01-10 23:53:25.747708	148.0	10.3	-66.9	10.7
2026-01-10 23:53:26.869002	148.1	10.2	-67.0	10.9
2026-01-10 23:53:27.991255	148.2	10.1	-66.9	10.2
2026-01-10 23:53:29.113509	148.4	10.0	-67.0	10.7
2026-01-10 23:53:30.235762	148.5	9.9	-67.0	10.3
2026-01-10 23:53:31.358024	148.6	9.9	-67.1	11.1
2026-01-10 23:53:32.479309	148.7	9.8	-66.1	8.5
2026-01-10 23:53:33.601563	148.8	9.7	-66.8	10.2
2026-01-10 23:53:34.722825	149.0	9.6	-66.6	9.9
2026-01-10 23:53:35.845087	149.1	9.5	-66.7	10.2
2026-01-10 23:53:36.966350	149.2	9.5	-66.5	9.3
2026-01-10 23:53:38.088139	149.3	9.4	-67.0	9.9
2026-01-10 23:53:39.210392	149.4	9.3	-66.4	10.2
2026-01-10 23:53:40.332159	149.5	9.2	-66.6	10.3
2026-01-10 23:53:41.453422	149.6	9.2	-66.7	9.9
2026-01-10 23:53:42.574218	149.8	9.1	-66.7	9.9
2026-01-10 23:53:43.695481	149.9	9.0	-66.6	10.3
2026-01-10 23:53:44.821256	150.0	8.9	-66.5	10.4
2026-01-10 23:53:45.942519	150.1	8.8	-66.5	10.0
2026-01-10 23:53:47.064306	150.2	8.8	-65.9	8.5
2026-01-10 23:53:48.186560	150.3	8.7	-66.2	9.8
2026-01-10 23:53:49.308318	150.4	8.6	-66.5	9.8
2026-01-10 23:53:50.429094	150.5	8.5	-66.1	8.8
2026-01-10 23:53:51.549908	150.6	8.5	-66.6	9.6
2026-01-10 23:53:52.671666	150.8	8.4	-66.7	9.4
2026-01-10 23:53:53.793919	150.9	8.3	-66.5	9.3
2026-01-10 23:53:54.916183	151.0	8.2	-66.4	8.9
2026-01-10 23:53:56.036949	151.1	8.2	-66.6	9.4
2026-01-10 23:53:57.158707	151.2	8.1	-66.3	8.8
2026-01-10 23:53:58.280018	151.3	8.0	-66.7	8.5
2026-01-10 23:53:59.400299	151.4	7.9	-66.2	9.0
2026-01-10 23:54:00.522560	151.5	7.9	-66.6	8.4
2026-01-10 23:54:01.644318	151.6	7.8	-66.6	8.2
2026-01-10 23:54:02.766572	151.7	7.7	-66.5	8.4
2026-01-10 23:54:03.887865	151.8	7.6	-66.3	8.5
2026-01-10 23:54:05.009623	151.9	7.6	-66.3	8.2
2026-01-10 23:54:06.131885	152.0	7.5	-66.3	8.3
2026-01-10 23:54:07.253643	152.1	7.4	-66.0	8.1
2026-01-10 23:54:08.374936	152.2	7.3	-66.0	8.9
2026-01-10 23:54:09.496694	152.3	7.3	-65.8	8.6
2026-01-10 23:54:10.618462	152.4	7.2	-66.1	8.2
2026-01-10 23:54:11.739227	152.5	7.1	-66.3	7.8
2026-01-10 23:54:12.860992	152.6	7.0	-66.5	7.7
2026-01-10 23:54:13.981788	152.7	7.0	-66.4	6.9
2026-01-10 23:54:15.104042	152.8	6.9	-66.3	6.7
2026-01-10 23:54:16.226808	152.9	6.8	-66.3	6.9
2026-01-10 23:54:17.347124	153.0	6.7	-65.7	7.4
2026-01-10 23:54:18.468881	153.1	6.7	-65.9	8.5
2026-01-10 23:54:19.591135	153.2	6.6	-65.7	8.4
2026-01-10 23:54:20.712892	153.3	6.5	-66.0	7.5
2026-01-10 23:54:21.835651	153.4	6.4	-66.1	6.2
2026-01-10 23:54:22.957904	153.5	6.4	-65.8	6.3
2026-01-10 23:54:24.080158	153.6	6.3	-66.3	6.2
2026-01-10 23:54:25.201915	153.7	6.2	-66.2	6.2
2026-01-10 23:54:26.323177	153.8	6.2	-65.9	6.7
2026-01-10 23:54:27.444441	153.9	6.1	-65.9	7.1
2026-01-10 23:54:28.566198	154.0	6.0	-66.1	8.1
2026-01-10 23:54:29.687956	154.0	5.9	-68.4	6.5
2026-01-10 23:54:30.809218	154.1	5.9	-70.4	0.0
2026-01-10 23:54:31.931481	154.2	5.8	-70.0	0.0
2026-01-10 23:54:33.053239	154.3	5.7	-69.5	0.0
2026-01-10 23:54:34.175996	154.4	5.7	-70.5	0.0
2026-01-10 23:54:35.297754	154.5	5.6	-71.1	0.0
2026-01-10 23:54:36.419031	154.6	5.5	-70.2	0.0
2026-01-10 23:54:37.541284	154.7	5.4	-71.5	0.0
2026-01-10 23:54:38.662547	154.8	5.4	-72.2	0.0
2026-01-10 23:54:39.784801	154.9	5.3	-72.7	0.0
2026-01-10 23:54:40.907054	154.9	5.2	-72.3	0.0
2026-01-10 23:54:42.028814	155.0	5.2	-72.0	0.0
2026-01-10 23:54:43.151068	155.1	5.1	-71.7	0.0
2026-01-10 23:54:44.272826	155.2	5.0	-71.5	0.0
#Closed at: 2026-01-10 23:43:07.319096