passes_logs/2026/01/10/PlanumMoscow/PlanumMoscow__20260110_072339_METEOR-M2_3_rec.log

#Pass ID: 20260110_072339_METEOR-M2 3
#Satellite: METEOR-M2 3
#Configuration: METEOR-M2 3
#Start time: 2026-01-10 07:23:44.572518

#LorettStation: 1.0.0 05.05.2024
#Station: PlanumMoscow
#Location: 37.6253844 lon 55.6713361 lat
#TLE: 1 57166U 23091A   25293.99389264  .00000062  00000+0  46113-4 0  9997
#TLE: 2 57166  98.6457 348.4330 0004759 135.3141 224.8422 14.24016546120475

#Time	Az	El	Level	SNR
2026-01-10 07:27:23.034283	19.6	29.5	-62.7	10.3
2026-01-10 07:27:25.277351	19.7	29.9	-62.4	11.2
2026-01-10 07:27:27.520866	19.7	30.3	-64.0	12.0
2026-01-10 07:27:29.763398	19.8	30.8	-62.3	10.0
2026-01-10 07:27:32.006915	19.9	31.2	-62.2	10.1
2026-01-10 07:27:34.250927	19.9	31.6	-63.0	10.6
2026-01-10 07:27:36.494442	20.0	32.1	-64.1	10.0
2026-01-10 07:27:38.739967	20.1	32.6	-62.1	8.3
2026-01-10 07:27:40.983482	20.1	33.1	-61.8	5.1
2026-01-10 07:27:43.227493	20.2	33.5	-62.9	7.9
2026-01-10 07:27:45.473513	20.3	34.0	-63.6	8.3
2026-01-10 07:27:47.717524	20.4	34.5	-64.0	10.6
2026-01-10 07:27:49.961040	20.4	35.0	-62.0	9.6
2026-01-10 07:27:52.205051	20.5	35.5	-62.3	6.7
2026-01-10 07:27:54.449577	20.6	36.1	-60.3	6.7
2026-01-10 07:27:56.693589	20.7	36.6	-60.8	5.4
2026-01-10 07:27:58.937104	20.8	37.1	-62.0	3.9
2026-01-10 07:28:01.181620	20.8	37.7	-61.9	7.9
2026-01-10 07:28:03.425136	20.9	38.2	-61.6	7.9
2026-01-10 07:28:05.669156	21.0	38.8	-60.4	5.2
2026-01-10 07:28:07.913663	21.1	39.4	-63.2	9.3
2026-01-10 07:28:10.156685	21.2	40.0	-59.9	2.5
2026-01-10 07:28:12.401201	21.3	40.6	-62.3	6.2
2026-01-10 07:28:14.644717	21.4	41.2	-63.3	7.7
2026-01-10 07:28:16.888737	21.5	41.8	-62.5	7.4
2026-01-10 07:28:19.130764	21.7	42.4	-60.8	4.3
2026-01-10 07:28:21.374775	21.8	43.1	-60.8	5.2
2026-01-10 07:28:23.617796	21.9	43.7	-62.2	7.6
2026-01-10 07:28:25.859825	22.0	44.4	-60.4	7.7
2026-01-10 07:28:28.102844	22.2	45.0	-61.5	6.8
2026-01-10 07:28:30.346359	22.3	45.7	-62.3	8.4
2026-01-10 07:28:32.590369	22.4	46.4	-61.7	6.9
2026-01-10 07:28:34.834381	22.6	47.1	-62.9	7.5
2026-01-10 07:28:37.078401	22.8	47.8	-63.6	7.3
2026-01-10 07:28:39.320924	22.9	48.6	-62.3	4.8
2026-01-10 07:28:41.563449	23.1	49.3	-61.4	3.1
2026-01-10 07:28:43.809972	23.3	50.1	-59.0	2.7
2026-01-10 07:28:46.053983	23.5	50.8	-61.9	4.6
2026-01-10 07:28:48.297002	23.7	51.6	-63.1	6.7
2026-01-10 07:28:50.541509	23.9	52.4	-62.8	8.1
2026-01-10 07:28:52.784040	24.1	53.2	-62.8	9.0
2026-01-10 07:28:55.027555	24.3	54.0	-61.3	4.4
2026-01-10 07:28:57.272070	24.6	54.9	-63.3	6.5
2026-01-10 07:28:59.516082	24.8	55.7	-63.6	6.8
2026-01-10 07:29:01.761094	25.1	56.6	-63.2	6.6
2026-01-10 07:29:04.004609	25.4	57.4	-65.9	7.3
2026-01-10 07:29:06.248621	25.7	58.3	-65.6	8.7
2026-01-10 07:29:08.491649	26.1	59.2	-65.6	7.5
2026-01-10 07:29:10.737156	26.4	60.1	-66.7	9.1
2026-01-10 07:29:12.981169	26.8	61.1	-65.5	7.0
2026-01-10 07:29:15.225180	27.2	62.0	-67.0	9.1
2026-01-10 07:29:17.468201	27.7	62.9	-66.9	9.2
2026-01-10 07:29:19.711716	28.1	63.9	-67.2	10.1
2026-01-10 07:29:21.956223	28.7	64.9	-66.5	9.5
2026-01-10 07:29:24.199738	29.2	65.8	-65.7	8.3
2026-01-10 07:29:26.442758	29.9	66.8	-66.4	10.6
2026-01-10 07:29:28.686770	30.5	67.8	-66.1	9.2
2026-01-10 07:29:30.931781	31.3	68.8	-67.1	12.1
2026-01-10 07:29:33.175793	32.1	69.9	-67.6	12.3
2026-01-10 07:29:35.419804	33.1	70.9	-67.2	13.4
2026-01-10 07:29:37.663319	34.1	71.9	-65.7	13.1
2026-01-10 07:29:39.906836	35.3	72.9	-67.4	12.9
2026-01-10 07:29:42.152351	36.6	74.0	-67.5	13.0
2026-01-10 07:29:44.394876	38.1	75.0	-67.4	11.8
2026-01-10 07:29:46.637400	39.9	76.0	-66.9	11.4
2026-01-10 07:29:48.881906	41.9	77.0	-66.9	12.2
2026-01-10 07:29:51.125926	44.3	78.1	-67.5	14.5
2026-01-10 07:29:53.369938	47.1	79.0	-67.2	13.6
2026-01-10 07:29:55.614951	50.5	80.0	-67.3	13.4
2026-01-10 07:29:57.859457	54.7	80.9	-67.8	14.2
2026-01-10 07:30:00.102973	59.7	81.8	-67.2	12.2
2026-01-10 07:30:02.346984	66.0	82.6	-68.3	13.5
2026-01-10 07:30:04.591491	73.6	83.3	-67.7	14.2
2026-01-10 07:30:06.834015	82.8	83.9	-67.7	12.3
2026-01-10 07:30:09.078531	93.6	84.2	-67.8	12.8
2026-01-10 07:30:11.322543	105.3	84.4	-68.0	14.1
2026-01-10 07:30:13.566059	117.1	84.3	-68.1	14.4
2026-01-10 07:30:15.808583	128.1	84.0	-67.7	13.0
2026-01-10 07:30:18.052099	137.7	83.4	-67.7	14.4
2026-01-10 07:30:20.295614	145.7	82.8	-68.2	14.9
2026-01-10 07:30:22.539625	152.2	82.0	-67.9	14.8
2026-01-10 07:30:24.787655	157.5	81.1	-68.1	14.5
2026-01-10 07:30:27.031170	161.9	80.2	-68.2	14.7
2026-01-10 07:30:29.275191	165.4	79.3	-68.3	15.2
2026-01-10 07:30:31.518707	168.4	78.3	-68.3	14.8
2026-01-10 07:30:33.763213	170.8	77.3	-68.6	15.0
2026-01-10 07:30:36.007224	173.0	76.2	-68.6	14.9
2026-01-10 07:30:38.250252	174.8	75.2	-68.5	15.4
2026-01-10 07:30:40.493774	176.3	74.2	-68.2	15.1
2026-01-10 07:30:42.737785	177.7	73.1	-68.5	15.5
2026-01-10 07:30:44.982292	178.9	72.1	-68.3	16.2
2026-01-10 07:30:47.226816	180.0	71.1	-68.2	16.0
2026-01-10 07:30:49.470331	180.9	70.1	-68.1	15.4
2026-01-10 07:30:51.714342	181.8	69.0	-68.8	14.9
2026-01-10 07:30:53.958859	182.5	68.0	-68.9	14.5
2026-01-10 07:30:56.201877	183.2	67.0	-69.0	13.9
2026-01-10 07:30:58.447421	183.9	66.0	-69.4	12.9
2026-01-10 07:31:00.689464	184.4	65.0	-69.3	13.1
2026-01-10 07:31:02.932979	185.0	64.1	-69.5	13.0
2026-01-10 07:31:05.178019	185.5	63.1	-69.3	13.5
2026-01-10 07:31:07.422525	185.9	62.2	-69.0	13.9
2026-01-10 07:31:09.666536	186.3	61.2	-68.6	13.6
2026-01-10 07:31:11.910548	186.7	60.3	-68.3	14.3
2026-01-10 07:31:14.158063	187.1	59.4	-68.6	13.9
2026-01-10 07:31:16.402570	187.4	58.5	-68.4	14.0
2026-01-10 07:31:18.645589	187.8	57.6	-68.5	13.6
2026-01-10 07:31:20.889105	188.0	56.7	-68.1	12.9
2026-01-10 07:31:23.132125	188.3	55.8	-67.7	14.1
2026-01-10 07:31:25.375145	188.6	55.0	-67.4	13.6
2026-01-10 07:31:27.619181	188.8	54.1	-67.8	14.1
2026-01-10 07:31:29.864212	189.1	53.3	-67.6	13.5
2026-01-10 07:31:32.107231	189.3	52.5	-67.6	14.4
2026-01-10 07:31:34.349754	189.5	51.7	-67.3	13.5
2026-01-10 07:31:36.592783	189.7	50.9	-67.9	13.4
2026-01-10 07:31:38.838804	189.9	50.1	-67.8	13.2
2026-01-10 07:31:41.080831	190.1	49.4	-67.7	13.6
2026-01-10 07:31:43.323354	190.3	48.6	-67.2	13.6
2026-01-10 07:31:45.564887	190.4	47.9	-67.1	12.0
2026-01-10 07:31:47.811403	190.6	47.2	-67.4	12.0
2026-01-10 07:31:50.055910	190.7	46.5	-67.5	13.6
2026-01-10 07:31:52.298930	190.9	45.8	-65.8	11.6
2026-01-10 07:31:54.541454	191.0	45.1	-64.8	8.5
2026-01-10 07:31:56.785465	191.2	44.4	-66.4	14.7
2026-01-10 07:31:59.028980	191.3	43.7	-65.2	12.9
2026-01-10 07:32:01.271512	191.4	43.1	-65.7	13.6
2026-01-10 07:32:03.517027	191.5	42.4	-65.4	12.7
2026-01-10 07:32:05.761038	191.6	41.8	-65.1	13.1
2026-01-10 07:32:08.003562	191.8	41.2	-64.8	13.5
2026-01-10 07:32:10.245591	191.9	40.6	-64.8	12.0
2026-01-10 07:32:12.488610	192.0	40.0	-65.2	14.1
2026-01-10 07:32:14.732621	192.1	39.4	-65.4	15.1
2026-01-10 07:32:16.975649	192.2	38.8	-62.9	12.8
2026-01-10 07:32:19.219165	192.3	38.2	-65.5	14.6
2026-01-10 07:32:21.463672	192.3	37.7	-65.3	13.8
2026-01-10 07:32:23.707684	192.4	37.1	-65.1	11.9
2026-01-10 07:32:25.950703	192.5	36.6	-66.0	10.5
2026-01-10 07:32:28.194218	192.6	36.0	-65.5	12.0
2026-01-10 07:32:30.437238	192.7	35.5	-65.0	13.1
2026-01-10 07:32:32.680258	192.8	35.0	-65.6	11.7
2026-01-10 07:32:34.923781	192.8	34.5	-65.3	13.2
2026-01-10 07:32:37.169288	192.9	34.0	-64.9	13.3
2026-01-10 07:32:39.412812	193.0	33.5	-64.3	11.3
2026-01-10 07:32:41.656327	193.1	33.0	-64.9	12.8
2026-01-10 07:32:43.901852	193.1	32.5	-63.4	8.6
2026-01-10 07:32:46.144880	193.2	32.0	-64.0	11.6
2026-01-10 07:32:48.388395	193.2	31.6	-64.8	10.4
2026-01-10 07:32:50.629927	193.3	31.1	-65.2	14.0
2026-01-10 07:32:52.877444	193.4	30.7	-65.5	13.5
2026-01-10 07:32:55.119976	193.4	30.2	-65.1	12.8
2026-01-10 07:32:57.363986	193.5	29.8	-65.3	13.8
2026-01-10 07:32:59.606510	193.5	29.4	-64.2	12.5
2026-01-10 07:33:01.849529	193.6	28.9	-64.6	12.3
2026-01-10 07:33:04.093540	193.7	28.5	-65.5	12.5
2026-01-10 07:33:06.335073	193.7	28.1	-65.2	11.6
2026-01-10 07:33:08.577111	193.8	27.7	-65.6	13.1
2026-01-10 07:33:10.819634	193.8	27.3	-64.8	12.8
2026-01-10 07:33:13.062655	193.9	26.9	-65.3	13.6
2026-01-10 07:33:15.305683	193.9	26.5	-65.7	13.6
2026-01-10 07:33:17.552703	194.0	26.2	-61.8	9.4
2026-01-10 07:33:19.796218	194.0	25.8	-65.5	13.7
2026-01-10 07:33:22.039237	194.1	25.4	-64.2	8.8
2026-01-10 07:33:24.282752	194.1	25.0	-65.1	13.5
2026-01-10 07:33:26.525277	194.1	24.7	-65.1	10.3
2026-01-10 07:33:28.769287	194.2	24.3	-64.9	11.2
2026-01-10 07:33:31.014794	194.2	24.0	-64.8	12.2
2026-01-10 07:33:33.258310	194.3	23.6	-65.7	11.8
2026-01-10 07:33:35.503322	194.3	23.3	-65.2	12.6
2026-01-10 07:33:37.746341	194.4	23.0	-65.3	11.6
2026-01-10 07:33:39.990848	194.4	22.6	-65.0	12.4
2026-01-10 07:33:42.235354	194.4	22.3	-63.6	9.4
2026-01-10 07:33:44.478870	194.5	22.0	-65.0	11.5
2026-01-10 07:33:46.722386	194.5	21.6	-64.7	11.5
2026-01-10 07:33:48.964910	194.5	21.3	-64.9	4.6
2026-01-10 07:33:51.205948	194.6	21.0	-64.0	7.8
2026-01-10 07:33:53.448970	194.6	20.7	-63.6	9.5
2026-01-10 07:33:55.692006	194.7	20.4	-63.6	9.4
2026-01-10 07:33:57.935522	194.7	20.1	-63.4	10.0
2026-01-10 07:34:00.182037	194.7	19.8	-62.4	9.9
2026-01-10 07:34:02.425055	194.8	19.5	-63.1	7.8
2026-01-10 07:34:04.668587	194.8	19.2	-63.2	11.0
2026-01-10 07:34:06.899148	194.8	18.9	-63.2	11.8
2026-01-10 07:34:09.143158	194.9	18.7	-62.0	9.6
2026-01-10 07:34:11.385186	194.9	18.4	-64.3	8.8
2026-01-10 07:34:13.627223	194.9	18.1	-63.5	8.8
2026-01-10 07:34:15.875738	194.9	17.8	-63.4	9.0
2026-01-10 07:34:18.119749	195.0	17.6	-64.4	12.3
2026-01-10 07:34:20.364761	195.0	17.3	-63.9	8.1
2026-01-10 07:34:22.609276	195.0	17.0	-65.6	12.2
2026-01-10 07:34:24.854297	195.1	16.8	-65.4	10.2
2026-01-10 07:34:27.099309	195.1	16.5	-65.6	12.5
2026-01-10 07:34:29.342824	195.1	16.2	-65.0	9.5
2026-01-10 07:34:31.586835	195.1	16.0	-64.6	10.4
2026-01-10 07:34:33.831342	195.2	15.7	-65.4	11.5
2026-01-10 07:34:36.075354	195.2	15.5	-64.4	12.9
2026-01-10 07:34:38.319365	195.2	15.2	-63.1	8.9
2026-01-10 07:34:40.561890	195.3	15.0	-64.2	10.7
2026-01-10 07:34:42.805910	195.3	14.8	-63.9	8.3
2026-01-10 07:34:45.048945	195.3	14.5	-64.5	7.6
2026-01-10 07:34:47.293957	195.3	14.3	-62.8	9.6
2026-01-10 07:34:49.537472	195.4	14.0	-65.0	7.7
2026-01-10 07:34:51.780987	195.4	13.8	-63.7	7.0
2026-01-10 07:34:54.022521	195.4	13.6	-65.2	10.8
2026-01-10 07:34:56.268037	195.4	13.4	-64.3	9.7
2026-01-10 07:34:58.512058	195.5	13.1	-64.9	9.6
2026-01-10 07:35:00.754581	195.5	12.9	-64.1	5.5
2026-01-10 07:35:02.998114	195.5	12.7	-64.9	7.0
2026-01-10 07:35:05.242145	195.5	12.5	-62.4	8.0
2026-01-10 07:35:07.485165	195.6	12.2	-63.6	10.6
2026-01-10 07:35:09.729175	195.6	12.0	-63.4	6.8
2026-01-10 07:35:11.973204	195.6	11.8	-64.5	9.4
2026-01-10 07:35:14.217729	195.6	11.6	-63.3	6.1
2026-01-10 07:35:16.462236	195.6	11.4	-63.1	9.9
2026-01-10 07:35:18.705752	195.7	11.2	-63.9	8.6
2026-01-10 07:35:20.948773	195.7	11.0	-62.9	7.1
2026-01-10 07:35:23.193280	195.7	10.8	-63.9	4.4
2026-01-10 07:35:25.436301	195.7	10.6	-64.4	5.1
2026-01-10 07:35:27.679320	195.7	10.4	-64.5	8.6
2026-01-10 07:35:29.922844	195.8	10.2	-63.6	9.0
2026-01-10 07:35:32.166358	195.8	10.0	-63.1	5.3
2026-01-10 07:35:34.410866	195.8	9.8	-61.0	0.0
2026-01-10 07:35:36.654381	195.8	9.6	-62.8	7.0
2026-01-10 07:35:38.898392	195.8	9.4	-61.9	5.7
2026-01-10 07:35:41.142403	195.9	9.2	-63.0	6.3
2026-01-10 07:35:43.386414	195.9	9.0	-63.1	3.4
2026-01-10 07:35:45.631435	195.9	8.8	-64.4	8.0
2026-01-10 07:35:47.874959	195.9	8.6	-61.9	0.0
2026-01-10 07:35:50.118971	195.9	8.4	-61.7	1.8
2026-01-10 07:35:52.362486	196.0	8.3	-63.7	0.0
2026-01-10 07:35:54.609507	196.0	8.1	-60.8	0.0
2026-01-10 07:35:56.853519	196.0	7.9	-64.9	1.4
2026-01-10 07:35:59.097530	196.0	7.7	-63.2	7.5
2026-01-10 07:36:01.341540	196.0	7.5	-62.6	3.8
2026-01-10 07:36:03.584560	196.1	7.4	-61.1	6.3
2026-01-10 07:36:05.828571	196.1	7.2	-62.1	5.4
2026-01-10 07:36:08.071591	196.1	7.0	-63.0	7.0
2026-01-10 07:36:10.313627	196.1	6.8	-61.9	4.7
2026-01-10 07:36:12.556647	196.1	6.7	-61.5	0.8
2026-01-10 07:36:14.801703	196.1	6.5	-62.3	0.0
2026-01-10 07:36:17.046714	196.2	6.3	-61.0	1.7
2026-01-10 07:36:19.290725	196.2	6.1	-62.6	0.3
2026-01-10 07:36:21.534241	196.2	6.0	-65.0	6.8
2026-01-10 07:36:23.778252	196.2	5.8	-71.5	0.0
2026-01-10 07:36:26.021776	196.2	5.6	-71.8	0.0
2026-01-10 07:36:28.265292	196.2	5.5	-72.8	0.0
2026-01-10 07:36:30.510304	196.3	5.3	-72.2	0.0
2026-01-10 07:36:32.753819	196.3	5.2	-72.6	0.0
2026-01-10 07:36:34.996838	196.3	5.0	-73.0	0.0
#Closed at: 2026-01-10 07:23:39.575048