passes_logs/2026/01/10/PlanumMoscow/PlanumMoscow__20260110_032526_METEOR-M2_4_rec.log

#Pass ID: 20260110_032526_METEOR-M2 4
#Satellite: METEOR-M2 4
#Configuration: METEOR-M2 4
#Start time: 2026-01-10 03:25:31.761512

#LorettStation: 1.0.0 05.05.2024
#Station: PlanumMoscow
#Location: 37.6253844 lon 55.6713361 lat
#TLE: 1 59051U 24039A   25293.94737965  .00000087  00000+0  58459-4 0  9998
#TLE: 2 59051  98.6671 251.7071 0007726 135.4772 224.7028 14.22388966 85257

#Time	Az	El	Level	SNR
2026-01-10 03:29:10.155494	327.4	13.4	-65.7	11.5
2026-01-10 03:29:11.275768	327.2	13.4	-66.2	11.8
2026-01-10 03:29:12.398022	327.0	13.4	-66.2	11.9
2026-01-10 03:29:13.519779	326.7	13.5	-66.1	11.5
2026-01-10 03:29:14.641536	326.5	13.5	-66.3	11.3
2026-01-10 03:29:15.763790	326.3	13.5	-66.4	11.4
2026-01-10 03:29:16.885548	326.1	13.5	-66.4	11.7
2026-01-10 03:29:18.006809	325.8	13.5	-66.2	12.0
2026-01-10 03:29:19.129071	325.6	13.5	-66.3	11.8
2026-01-10 03:29:20.250829	325.4	13.6	-66.6	11.8
2026-01-10 03:29:21.373082	325.2	13.6	-66.5	12.0
2026-01-10 03:29:22.494840	324.9	13.6	-66.6	11.9
2026-01-10 03:29:23.617093	324.7	13.6	-66.3	11.9
2026-01-10 03:29:24.738356	324.5	13.6	-66.7	12.2
2026-01-10 03:29:25.860113	324.3	13.6	-66.5	12.0
2026-01-10 03:29:26.982375	324.0	13.6	-66.7	12.3
2026-01-10 03:29:28.108647	323.8	13.6	-66.5	11.9
2026-01-10 03:29:29.230405	323.6	13.7	-66.3	12.1
2026-01-10 03:29:30.351171	323.4	13.7	-66.6	12.2
2026-01-10 03:29:31.472433	323.1	13.7	-67.0	11.9
2026-01-10 03:29:32.593696	322.9	13.7	-66.8	12.3
2026-01-10 03:29:33.715454	322.7	13.7	-66.8	12.1
2026-01-10 03:29:34.836221	322.4	13.7	-66.7	11.8
2026-01-10 03:29:35.958979	322.2	13.7	-66.7	11.6
2026-01-10 03:29:37.081233	322.0	13.7	-66.6	11.7
2026-01-10 03:29:38.203486	321.8	13.7	-66.9	11.9
2026-01-10 03:29:39.325243	321.5	13.7	-66.5	12.0
2026-01-10 03:29:40.448000	321.3	13.7	-66.4	12.2
2026-01-10 03:29:41.570254	321.1	13.7	-66.5	11.7
2026-01-10 03:29:42.692012	320.8	13.7	-66.6	12.0
2026-01-10 03:29:43.813274	320.6	13.7	-66.5	12.1
2026-01-10 03:29:44.936032	320.4	13.8	-66.6	12.0
2026-01-10 03:29:46.058285	320.2	13.8	-66.6	12.3
2026-01-10 03:29:47.180539	319.9	13.8	-66.7	11.7
2026-01-10 03:29:48.302297	319.7	13.8	-66.7	12.5
2026-01-10 03:29:49.424550	319.5	13.8	-66.3	11.1
2026-01-10 03:29:50.546307	319.2	13.8	-66.8	12.9
2026-01-10 03:29:51.667570	319.0	13.8	-66.6	12.1
2026-01-10 03:29:52.789328	318.8	13.8	-66.8	12.0
2026-01-10 03:29:53.910589	318.6	13.8	-66.8	12.4
2026-01-10 03:29:55.032888	318.3	13.8	-66.9	12.7
2026-01-10 03:29:56.155141	318.1	13.8	-66.7	12.1
2026-01-10 03:29:57.276900	317.9	13.8	-66.8	12.9
2026-01-10 03:29:58.399153	317.6	13.8	-66.5	12.4
2026-01-10 03:29:59.523416	317.4	13.8	-66.8	12.6
2026-01-10 03:30:00.645174	317.2	13.8	-66.7	12.6
2026-01-10 03:30:01.767427	317.0	13.8	-66.7	11.2
2026-01-10 03:30:02.889185	316.7	13.8	-66.9	12.0
2026-01-10 03:30:04.011438	316.5	13.8	-66.8	12.9
2026-01-10 03:30:05.133195	316.3	13.8	-66.8	12.4
2026-01-10 03:30:06.254954	316.0	13.8	-66.8	12.3
2026-01-10 03:30:07.376712	315.8	13.7	-67.1	12.9
2026-01-10 03:30:08.498470	315.6	13.7	-67.0	12.3
2026-01-10 03:30:09.619732	315.4	13.7	-66.8	12.5
2026-01-10 03:30:10.741490	315.1	13.7	-67.0	12.4
2026-01-10 03:30:11.862753	314.9	13.7	-66.9	11.9
2026-01-10 03:30:12.985006	314.7	13.7	-67.2	12.4
2026-01-10 03:30:14.106764	314.4	13.7	-67.0	11.8
2026-01-10 03:30:15.228026	314.2	13.7	-67.1	12.2
2026-01-10 03:30:16.350279	314.0	13.7	-67.3	12.6
2026-01-10 03:30:17.472037	313.8	13.7	-66.9	12.1
2026-01-10 03:30:18.594290	313.5	13.7	-66.9	12.2
2026-01-10 03:30:19.716047	313.3	13.7	-67.3	11.8
2026-01-10 03:30:20.838301	313.1	13.7	-67.1	12.5
2026-01-10 03:30:21.960554	312.8	13.6	-67.3	11.7
2026-01-10 03:30:23.082808	312.6	13.6	-67.2	12.1
2026-01-10 03:30:24.205566	312.4	13.6	-67.1	11.8
2026-01-10 03:30:25.327324	312.2	13.6	-67.2	11.7
2026-01-10 03:30:26.449593	311.9	13.6	-67.2	12.1
2026-01-10 03:30:27.571847	311.7	13.6	-67.0	12.0
2026-01-10 03:30:28.693604	311.5	13.6	-67.3	11.9
2026-01-10 03:30:29.815857	311.3	13.6	-67.2	11.7
2026-01-10 03:30:30.940625	311.0	13.5	-67.3	12.0
2026-01-10 03:30:32.061887	310.8	13.5	-67.3	11.2
2026-01-10 03:30:33.184141	310.6	13.5	-67.5	12.3
2026-01-10 03:30:34.304908	310.4	13.5	-67.3	12.2
2026-01-10 03:30:35.427161	310.1	13.5	-67.4	11.8
2026-01-10 03:30:36.549414	309.9	13.5	-67.4	11.4
2026-01-10 03:30:37.671677	309.7	13.5	-67.2	12.2
2026-01-10 03:30:38.793434	309.5	13.4	-67.0	11.4
2026-01-10 03:30:39.915191	309.2	13.4	-67.2	12.0
2026-01-10 03:30:41.036949	309.0	13.4	-67.1	11.7
2026-01-10 03:30:42.158211	308.8	13.4	-66.9	11.9
2026-01-10 03:30:43.279969	308.6	13.4	-67.2	11.7
2026-01-10 03:30:44.401726	308.3	13.3	-67.4	11.5
2026-01-10 03:30:45.523979	308.1	13.3	-67.2	11.0
2026-01-10 03:30:46.645737	307.9	13.3	-66.8	11.3
2026-01-10 03:30:47.767494	307.7	13.3	-66.9	10.5
2026-01-10 03:30:48.888755	307.5	13.3	-67.0	11.3
2026-01-10 03:30:50.011009	307.2	13.2	-67.4	11.3
2026-01-10 03:30:51.131773	307.0	13.2	-67.1	11.2
2026-01-10 03:30:52.254027	306.8	13.2	-67.2	11.1
2026-01-10 03:30:53.376289	306.6	13.2	-66.8	10.9
2026-01-10 03:30:54.502047	306.4	13.2	-66.4	10.1
2026-01-10 03:30:55.623805	306.1	13.1	-66.0	9.1
2026-01-10 03:30:56.745563	305.9	13.1	-66.4	10.1
2026-01-10 03:30:57.867320	305.7	13.1	-66.6	9.6
2026-01-10 03:30:58.988090	305.5	13.1	-66.6	9.9
2026-01-10 03:31:00.109847	305.3	13.0	-66.3	9.7
2026-01-10 03:31:01.230613	305.0	13.0	-66.6	9.3
2026-01-10 03:31:02.352867	304.8	13.0	-66.2	9.2
2026-01-10 03:31:03.474129	304.6	13.0	-66.6	9.4
2026-01-10 03:31:04.597383	304.4	12.9	-66.7	9.6
2026-01-10 03:31:05.719636	304.2	12.9	-66.2	9.6
2026-01-10 03:31:06.841890	304.0	12.9	-66.4	9.2
2026-01-10 03:31:07.963648	303.7	12.9	-66.4	9.0
2026-01-10 03:31:09.085901	303.5	12.8	-66.3	9.6
2026-01-10 03:31:10.207162	303.3	12.8	-66.3	9.3
2026-01-10 03:31:11.328920	303.1	12.8	-66.4	9.6
2026-01-10 03:31:12.450182	302.9	12.7	-66.2	8.9
2026-01-10 03:31:13.571443	302.7	12.7	-66.3	8.9
2026-01-10 03:31:14.692704	302.5	12.7	-66.3	9.3
2026-01-10 03:31:15.814463	302.2	12.7	-65.6	7.9
2026-01-10 03:31:16.936223	302.0	12.6	-66.3	9.5
2026-01-10 03:31:18.058476	301.8	12.6	-66.3	8.6
2026-01-10 03:31:19.180234	301.6	12.6	-66.2	9.9
2026-01-10 03:31:20.302992	301.4	12.5	-66.1	9.5
2026-01-10 03:31:21.424252	301.2	12.5	-66.2	9.5
2026-01-10 03:31:22.546011	301.0	12.5	-66.0	9.3
2026-01-10 03:31:23.668264	300.8	12.4	-65.9	9.1
2026-01-10 03:31:24.790022	300.6	12.4	-66.1	8.8
2026-01-10 03:31:25.912780	300.3	12.4	-66.1	8.9
2026-01-10 03:31:27.034537	300.1	12.3	-66.4	8.4
2026-01-10 03:31:28.156791	299.9	12.3	-66.2	9.7
2026-01-10 03:31:29.279044	299.7	12.3	-66.2	9.2
2026-01-10 03:31:30.400305	299.5	12.2	-66.2	9.3
2026-01-10 03:31:31.522064	299.3	12.2	-66.1	9.2
2026-01-10 03:31:32.643326	299.1	12.2	-66.4	9.3
2026-01-10 03:31:33.765084	298.9	12.1	-66.4	9.6
2026-01-10 03:31:34.887345	298.7	12.1	-66.2	9.8
2026-01-10 03:31:36.008111	298.5	12.1	-66.4	9.5
2026-01-10 03:31:37.130366	298.3	12.0	-66.1	9.6
2026-01-10 03:31:38.252123	298.1	12.0	-66.2	10.0
2026-01-10 03:31:39.373384	297.9	12.0	-66.0	9.9
2026-01-10 03:31:40.494151	297.7	11.9	-65.9	9.6
2026-01-10 03:31:41.617909	297.5	11.9	-65.9	9.9
2026-01-10 03:31:42.739667	297.3	11.8	-66.0	9.7
2026-01-10 03:31:43.861920	297.1	11.8	-65.7	9.8
2026-01-10 03:31:44.984174	296.9	11.8	-66.1	9.6
2026-01-10 03:31:46.105931	296.7	11.7	-65.9	9.4
2026-01-10 03:31:47.227689	296.5	11.7	-66.0	9.2
2026-01-10 03:31:48.349446	296.3	11.7	-66.2	9.6
2026-01-10 03:31:49.471212	296.1	11.6	-65.9	9.3
2026-01-10 03:31:50.592969	295.9	11.6	-65.3	9.0
2026-01-10 03:31:51.714726	295.7	11.5	-65.8	9.0
2026-01-10 03:31:52.835989	295.5	11.5	-66.0	9.4
2026-01-10 03:31:53.958251	295.3	11.5	-66.0	9.1
2026-01-10 03:31:55.079514	295.1	11.4	-67.1	10.7
2026-01-10 03:31:56.200785	294.9	11.4	-67.0	10.5
2026-01-10 03:31:57.322055	294.7	11.3	-67.1	10.7
2026-01-10 03:31:58.444308	294.5	11.3	-67.4	10.4
2026-01-10 03:31:59.566066	294.3	11.3	-65.8	7.6
2026-01-10 03:32:00.688328	294.1	11.2	-67.1	10.2
2026-01-10 03:32:01.809093	293.9	11.2	-66.9	10.0
2026-01-10 03:32:02.931355	293.7	11.1	-67.0	10.2
2026-01-10 03:32:04.053609	293.6	11.1	-67.3	10.4
2026-01-10 03:32:05.174376	293.4	11.0	-67.3	9.9
2026-01-10 03:32:06.296629	293.2	11.0	-67.2	10.4
2026-01-10 03:32:07.418387	293.0	11.0	-67.1	9.7
2026-01-10 03:32:08.540145	292.8	10.9	-66.8	9.9
2026-01-10 03:32:09.662399	292.6	10.9	-66.9	9.7
2026-01-10 03:32:10.784157	292.4	10.8	-66.9	10.7
2026-01-10 03:32:11.905427	292.2	10.8	-66.3	8.9
2026-01-10 03:32:13.027185	292.0	10.7	-66.8	9.4
2026-01-10 03:32:14.149438	291.9	10.7	-66.9	9.6
2026-01-10 03:32:15.271692	291.7	10.6	-66.8	8.9
2026-01-10 03:32:16.393954	291.5	10.6	-66.7	9.2
2026-01-10 03:32:17.515216	291.3	10.6	-66.9	9.0
2026-01-10 03:32:18.636478	291.1	10.5	-66.9	9.3
2026-01-10 03:32:19.758731	290.9	10.5	-66.3	8.5
2026-01-10 03:32:20.881489	290.8	10.4	-67.0	9.2
2026-01-10 03:32:22.002750	290.6	10.4	-66.9	9.7
2026-01-10 03:32:23.123515	290.4	10.3	-66.7	9.2
2026-01-10 03:32:24.245769	290.2	10.3	-66.8	9.5
2026-01-10 03:32:25.367031	290.0	10.2	-67.0	9.1
2026-01-10 03:32:26.488788	289.8	10.2	-66.8	8.2
2026-01-10 03:32:27.610051	289.7	10.1	-66.0	7.7
2026-01-10 03:32:28.735313	289.5	10.1	-67.2	9.6
2026-01-10 03:32:29.858101	289.3	10.1	-67.1	9.0
2026-01-10 03:32:30.979858	289.1	10.0	-67.0	9.5
2026-01-10 03:32:32.102111	289.0	10.0	-67.0	9.1
2026-01-10 03:32:33.224365	288.8	9.9	-66.9	9.7
2026-01-10 03:32:34.346122	288.6	9.9	-65.9	7.7
2026-01-10 03:32:35.468376	288.4	9.8	-66.2	8.9
2026-01-10 03:32:36.590134	288.3	9.8	-66.5	9.4
2026-01-10 03:32:37.712387	288.1	9.7	-66.7	8.9
2026-01-10 03:32:38.834650	287.9	9.7	-67.0	8.5
2026-01-10 03:32:39.956407	287.7	9.6	-66.5	7.2
2026-01-10 03:32:41.078165	287.6	9.6	-66.3	8.4
2026-01-10 03:32:42.199427	287.4	9.5	-66.2	7.8
2026-01-10 03:32:43.321184	287.2	9.5	-66.3	8.2
2026-01-10 03:32:44.441951	287.1	9.4	-66.7	8.3
2026-01-10 03:32:45.563214	286.9	9.4	-65.4	6.2
2026-01-10 03:32:46.685468	286.7	9.3	-66.6	8.8
2026-01-10 03:32:47.806730	286.5	9.3	-65.0	6.1
2026-01-10 03:32:48.928984	286.4	9.2	-66.4	7.3
2026-01-10 03:32:50.051237	286.2	9.2	-66.7	8.4
2026-01-10 03:32:51.172995	286.0	9.1	-66.7	8.0
2026-01-10 03:32:52.298753	285.9	9.1	-66.6	8.9
2026-01-10 03:32:53.421007	285.7	9.0	-66.8	8.3
2026-01-10 03:32:54.542765	285.5	9.0	-66.6	7.6
2026-01-10 03:32:55.665018	285.4	8.9	-66.0	8.3
2026-01-10 03:32:56.786776	285.2	8.9	-66.6	7.5
2026-01-10 03:32:57.909029	285.0	8.8	-66.5	7.6
2026-01-10 03:32:59.031283	284.9	8.8	-66.9	8.7
2026-01-10 03:33:00.155051	284.7	8.7	-66.7	8.0
2026-01-10 03:33:01.276817	284.6	8.7	-66.9	7.9
2026-01-10 03:33:02.398575	284.4	8.6	-66.4	8.5
2026-01-10 03:33:03.519838	284.2	8.6	-65.6	8.6
2026-01-10 03:33:04.641595	284.1	8.5	-66.4	7.9
2026-01-10 03:33:05.763352	283.9	8.5	-66.1	7.2
2026-01-10 03:33:06.885110	283.8	8.4	-65.6	7.6
2026-01-10 03:33:08.007374	283.6	8.4	-66.2	8.1
2026-01-10 03:33:09.129140	283.4	8.3	-65.9	6.8
2026-01-10 03:33:10.248915	283.3	8.3	-65.6	7.6
2026-01-10 03:33:11.371168	283.1	8.2	-65.1	5.3
2026-01-10 03:33:12.493421	283.0	8.2	-64.9	5.0
2026-01-10 03:33:13.615675	282.8	8.1	-64.9	5.7
2026-01-10 03:33:14.738433	282.7	8.1	-65.9	7.8
2026-01-10 03:33:15.860697	282.5	8.0	-65.1	7.7
2026-01-10 03:33:16.982455	282.4	8.0	-65.7	6.9
2026-01-10 03:33:18.104708	282.2	7.9	-66.5	7.1
2026-01-10 03:33:19.226465	282.0	7.8	-66.4	7.4
2026-01-10 03:33:20.348719	281.9	7.8	-66.0	7.4
2026-01-10 03:33:21.469981	281.7	7.7	-66.6	7.3
2026-01-10 03:33:22.592235	281.6	7.7	-66.5	5.3
2026-01-10 03:33:23.713002	281.4	7.6	-66.2	6.9
2026-01-10 03:33:24.834265	281.3	7.6	-65.3	3.4
2026-01-10 03:33:25.956526	281.1	7.5	-65.8	4.3
2026-01-10 03:33:27.078780	281.0	7.5	-65.3	5.3
2026-01-10 03:33:28.200538	280.8	7.4	-66.1	4.6
2026-01-10 03:33:29.322295	280.7	7.4	-65.9	5.7
2026-01-10 03:33:30.444549	280.6	7.3	-66.2	6.1
2026-01-10 03:33:31.564323	280.4	7.3	-65.5	3.5
2026-01-10 03:33:32.686577	280.3	7.2	-65.9	6.2
2026-01-10 03:33:33.808830	280.1	7.2	-66.3	5.9
2026-01-10 03:33:34.929101	280.0	7.1	-66.9	6.2
2026-01-10 03:33:36.051354	279.8	7.0	-66.9	6.1
2026-01-10 03:33:37.173111	279.7	7.0	-66.8	6.7
2026-01-10 03:33:38.294374	279.5	6.9	-66.5	6.4
2026-01-10 03:33:39.415635	279.4	6.9	-66.4	6.1
2026-01-10 03:33:40.537393	279.3	6.8	-66.2	5.4
2026-01-10 03:33:41.659647	279.1	6.8	-66.9	6.4
2026-01-10 03:33:42.781404	279.0	6.7	-66.6	5.6
2026-01-10 03:33:43.903657	278.8	6.7	-66.5	6.4
2026-01-10 03:33:45.025911	278.7	6.6	-66.9	6.3
2026-01-10 03:33:46.146677	278.5	6.6	-66.8	5.5
2026-01-10 03:33:47.267443	278.4	6.5	-66.4	6.0
2026-01-10 03:33:48.389202	278.3	6.5	-66.6	5.8
2026-01-10 03:33:49.496623	278.1	6.4	-66.6	6.1
2026-01-10 03:33:50.618876	278.0	6.3	-66.4	6.4
2026-01-10 03:33:51.741129	277.9	6.3	-65.7	6.9
2026-01-10 03:33:52.862895	277.7	6.2	-66.2	6.2
2026-01-10 03:33:53.985654	277.6	6.2	-66.8	5.5
2026-01-10 03:33:55.110915	277.5	6.1	-67.1	5.5
2026-01-10 03:33:56.232177	277.3	6.1	-66.7	6.2
2026-01-10 03:33:57.354430	277.2	6.0	-67.0	6.4
2026-01-10 03:33:58.476684	277.0	6.0	-69.2	0.6
2026-01-10 03:33:59.598442	276.9	5.9	-69.4	0.0
2026-01-10 03:34:00.720199	276.8	5.9	-71.2	0.0
2026-01-10 03:34:01.841957	276.6	5.8	-71.3	0.0
2026-01-10 03:34:02.963714	276.5	5.7	-71.0	0.0
2026-01-10 03:34:04.085968	276.4	5.7	-71.2	0.0
2026-01-10 03:34:05.207726	276.3	5.6	-71.4	0.0
2026-01-10 03:34:06.329988	276.1	5.6	-71.5	0.0
2026-01-10 03:34:07.451250	276.0	5.5	-71.6	0.0
2026-01-10 03:34:08.573503	275.9	5.5	-72.5	0.0
2026-01-10 03:34:09.695757	275.7	5.4	-73.1	0.0
2026-01-10 03:34:10.816521	275.6	5.4	-73.3	0.0
2026-01-10 03:34:11.938774	275.5	5.3	-73.3	0.0
2026-01-10 03:34:13.060532	275.4	5.3	-73.3	0.0
2026-01-10 03:34:14.181793	275.2	5.2	-73.2	0.0
2026-01-10 03:34:15.303054	275.1	5.1	-73.4	0.0
2026-01-10 03:34:16.425308	275.0	5.1	-73.2	0.0
2026-01-10 03:34:17.547065	274.8	5.0	-73.4	0.0
2026-01-10 03:34:18.668823	274.7	5.0	-73.1	0.0
#Closed at: 2026-01-10 03:25:26.763716