passes_logs/2026/01/10/PlanumMoscow/PlanumMoscow__20260110_171231_METEOR-M2_3_rec.log

#Pass ID: 20260110_171231_METEOR-M2 3
#Satellite: METEOR-M2 3
#Configuration: METEOR-M2 3
#Start time: 2026-01-10 17:12:36.683572

#LorettStation: 1.0.0 05.05.2024
#Station: PlanumMoscow
#Location: 37.6253844 lon 55.6713361 lat
#TLE: 1 57166U 23091A   25293.99389264  .00000062  00000+0  46113-4 0  9997
#TLE: 2 57166  98.6457 348.4330 0004759 135.3141 224.8422 14.24016546120475

#Time	Az	El	Level	SNR
2026-01-10 17:16:15.091455	129.7	28.3	-64.4	15.1
2026-01-10 17:16:17.334971	129.4	28.7	-64.5	15.2
2026-01-10 17:16:19.578546	129.1	29.0	-64.6	15.6
2026-01-10 17:16:21.822567	128.7	29.4	-64.6	15.1
2026-01-10 17:16:24.066579	128.4	29.8	-64.1	15.5
2026-01-10 17:16:26.315128	128.0	30.2	-64.0	13.4
2026-01-10 17:16:28.559149	127.7	30.6	-64.6	16.0
2026-01-10 17:16:30.802690	127.3	31.0	-64.4	14.5
2026-01-10 17:16:33.051719	126.9	31.4	-64.3	16.0
2026-01-10 17:16:35.295765	126.5	31.8	-64.1	14.5
2026-01-10 17:16:37.540281	126.1	32.2	-64.8	15.5
2026-01-10 17:16:39.783829	125.7	32.6	-64.8	14.8
2026-01-10 17:16:42.026860	125.3	33.0	-64.6	15.8
2026-01-10 17:16:44.270385	124.9	33.5	-65.1	15.3
2026-01-10 17:16:46.513446	124.4	33.9	-64.7	15.1
2026-01-10 17:16:48.757466	124.0	34.3	-64.4	14.6
2026-01-10 17:16:51.000520	123.5	34.7	-64.8	14.5
2026-01-10 17:16:53.244075	123.1	35.2	-64.8	15.3
2026-01-10 17:16:55.488096	122.6	35.6	-65.0	15.3
2026-01-10 17:16:57.732117	122.1	36.1	-64.6	15.0
2026-01-10 17:16:59.974184	121.5	36.5	-65.8	15.1
2026-01-10 17:17:02.218706	121.0	37.0	-65.7	13.3
2026-01-10 17:17:04.462231	120.5	37.4	-65.5	12.3
2026-01-10 17:17:06.705282	119.9	37.9	-64.5	10.8
2026-01-10 17:17:08.951808	119.3	38.3	-65.5	13.2
2026-01-10 17:17:11.193869	118.7	38.8	-65.3	13.5
2026-01-10 17:17:13.436898	118.1	39.3	-65.8	12.5
2026-01-10 17:17:15.680415	117.5	39.7	-66.1	13.8
2026-01-10 17:17:17.923475	116.8	40.2	-65.7	13.2
2026-01-10 17:17:20.166008	116.1	40.7	-65.9	14.3
2026-01-10 17:17:22.410057	115.4	41.2	-63.6	12.8
2026-01-10 17:17:24.654108	114.7	41.6	-65.3	13.6
2026-01-10 17:17:26.896192	114.0	42.1	-64.7	12.2
2026-01-10 17:17:29.140707	113.2	42.6	-64.2	10.4
2026-01-10 17:17:31.384243	112.5	43.1	-65.3	13.7
2026-01-10 17:17:33.627807	111.7	43.6	-63.3	9.8
2026-01-10 17:17:35.871837	110.8	44.0	-65.9	15.0
2026-01-10 17:17:38.115375	110.0	44.5	-65.6	14.2
2026-01-10 17:17:40.358890	109.1	45.0	-65.6	14.2
2026-01-10 17:17:42.602447	108.2	45.5	-64.8	10.4
2026-01-10 17:17:44.845476	107.3	45.9	-64.9	13.1
2026-01-10 17:17:47.088041	106.3	46.4	-66.0	13.4
2026-01-10 17:17:49.332556	105.3	46.9	-65.5	12.4
2026-01-10 17:17:51.576073	104.3	47.3	-65.4	12.4
2026-01-10 17:17:53.822640	103.2	47.8	-64.8	12.9
2026-01-10 17:17:56.067164	102.2	48.2	-65.3	12.8
2026-01-10 17:17:58.310711	101.0	48.7	-66.2	13.0
2026-01-10 17:18:00.554253	99.9	49.1	-64.8	11.5
2026-01-10 17:18:02.799760	98.7	49.5	-66.0	12.1
2026-01-10 17:18:05.042837	97.5	49.9	-65.0	10.2
2026-01-10 17:18:07.286898	96.3	50.3	-65.2	11.3
2026-01-10 17:18:09.532918	95.0	50.7	-65.6	11.9
2026-01-10 17:18:11.777466	93.7	51.1	-65.5	12.8
2026-01-10 17:18:14.021974	92.3	51.5	-64.2	8.3
2026-01-10 17:18:16.266488	90.9	51.8	-64.4	9.2
2026-01-10 17:18:18.510037	89.5	52.2	-65.1	11.3
2026-01-10 17:18:20.754110	88.1	52.5	-64.4	10.3
2026-01-10 17:18:22.998617	86.6	52.8	-64.0	7.9
2026-01-10 17:18:25.243124	85.1	53.1	-64.2	10.4
2026-01-10 17:18:27.487648	83.6	53.4	-63.5	8.7
2026-01-10 17:18:29.731188	82.0	53.6	-63.1	8.2
2026-01-10 17:18:31.975703	80.4	53.8	-64.6	9.1
2026-01-10 17:18:34.220252	78.8	54.0	-63.5	8.6
2026-01-10 17:18:36.464785	77.2	54.2	-65.1	10.3
2026-01-10 17:18:38.708837	75.5	54.4	-65.4	9.7
2026-01-10 17:18:40.953352	73.9	54.5	-64.9	10.4
2026-01-10 17:18:43.197899	72.2	54.6	-62.7	4.8
2026-01-10 17:18:45.447407	70.5	54.7	-62.4	4.9
2026-01-10 17:18:47.691923	68.8	54.8	-61.7	3.6
2026-01-10 17:18:49.935470	67.1	54.8	-61.2	1.5
2026-01-10 17:18:52.178994	65.4	54.8	-63.5	6.8
2026-01-10 17:18:54.423037	63.6	54.8	-62.9	3.6
2026-01-10 17:18:56.667057	61.9	54.8	-64.5	8.0
2026-01-10 17:18:58.911605	60.2	54.7	-63.7	6.3
2026-01-10 17:19:01.155626	58.5	54.6	-64.7	8.1
2026-01-10 17:19:03.401175	56.9	54.5	-62.8	3.2
2026-01-10 17:19:05.645690	55.2	54.4	-61.0	1.6
2026-01-10 17:19:07.889741	53.5	54.2	-64.8	6.7
2026-01-10 17:19:10.133752	51.9	54.0	-64.4	6.9
2026-01-10 17:19:12.377274	50.3	53.8	-63.3	4.3
2026-01-10 17:19:14.621822	48.7	53.6	-62.2	1.7
2026-01-10 17:19:16.866337	47.2	53.3	-63.4	7.2
2026-01-10 17:19:19.114887	45.6	53.1	-63.2	3.7
2026-01-10 17:19:21.359402	44.1	52.8	-63.4	7.1
2026-01-10 17:19:23.602942	42.7	52.5	-62.7	6.8
2026-01-10 17:19:25.846953	41.2	52.2	-60.1	0.0
2026-01-10 17:19:28.091005	39.8	51.8	-62.0	5.8
2026-01-10 17:19:30.335512	38.5	51.5	-62.1	4.6
2026-01-10 17:19:32.580028	37.1	51.1	-61.5	2.6
2026-01-10 17:19:34.824574	35.8	50.7	-62.3	3.9
2026-01-10 17:19:37.071099	34.5	50.3	-61.2	4.1
2026-01-10 17:19:39.315647	33.3	49.9	-62.6	5.9
2026-01-10 17:19:41.559658	32.1	49.5	-61.8	1.9
2026-01-10 17:19:43.804165	30.9	49.1	-62.6	7.0
2026-01-10 17:19:46.047715	29.8	48.6	-61.1	4.3
2026-01-10 17:19:48.292231	28.7	48.2	-60.0	3.7
2026-01-10 17:19:50.536273	27.6	47.8	-60.1	0.6
2026-01-10 17:19:52.780789	26.5	47.3	-61.7	7.7
2026-01-10 17:19:55.024839	25.5	46.8	-62.7	7.2
2026-01-10 17:19:57.268851	24.5	46.4	-60.8	2.4
2026-01-10 17:19:59.513366	23.6	45.9	-61.9	6.2
2026-01-10 17:20:01.757910	22.7	45.4	-61.8	7.4
2026-01-10 17:20:04.001931	21.8	45.0	-60.8	3.9
2026-01-10 17:20:06.245976	20.9	44.5	-61.1	7.0
2026-01-10 17:20:08.490491	20.0	44.0	-61.1	6.4
2026-01-10 17:20:10.734548	19.2	43.5	-62.6	6.4
2026-01-10 17:20:12.978065	18.4	43.1	-63.2	7.1
2026-01-10 17:20:15.222580	17.6	42.6	-63.4	6.2
2026-01-10 17:20:17.466140	16.9	42.1	-62.9	8.2
2026-01-10 17:20:19.710655	16.2	41.6	-63.7	8.4
2026-01-10 17:20:21.959204	15.5	41.2	-62.7	7.6
2026-01-10 17:20:24.203720	14.8	40.7	-61.3	5.6
2026-01-10 17:20:26.448266	14.1	40.2	-60.1	4.0
2026-01-10 17:20:28.692773	13.4	39.8	-62.2	6.8
2026-01-10 17:20:30.936793	12.8	39.3	-62.7	7.2
2026-01-10 17:20:33.180845	12.2	38.8	-61.7	6.2
2026-01-10 17:20:35.425360	11.6	38.4	-63.7	8.4
2026-01-10 17:20:37.670907	11.0	37.9	-61.2	4.3
2026-01-10 17:20:39.914926	10.5	37.4	-63.6	9.4
2026-01-10 17:20:42.158473	9.9	37.0	-60.9	4.5
2026-01-10 17:20:44.402484	9.4	36.5	-63.6	9.6
2026-01-10 17:20:46.646032	8.9	36.1	-64.3	11.8
2026-01-10 17:20:48.890043	8.4	35.6	-63.9	9.5
2026-01-10 17:20:51.134600	7.9	35.2	-63.5	9.8
2026-01-10 17:20:53.379107	7.4	34.8	-62.4	7.9
2026-01-10 17:20:55.623168	7.0	34.3	-62.3	8.0
2026-01-10 17:20:57.868675	6.5	33.9	-61.6	10.6
2026-01-10 17:21:00.113182	6.1	33.5	-63.0	10.1
2026-01-10 17:21:02.357251	5.6	33.1	-62.3	9.8
2026-01-10 17:21:04.601262	5.2	32.7	-63.6	8.7
2026-01-10 17:21:06.845779	4.8	32.2	-63.7	8.9
2026-01-10 17:21:09.090326	4.4	31.8	-63.7	10.2
2026-01-10 17:21:11.333892	4.0	31.4	-61.6	5.1
2026-01-10 17:21:13.577904	3.7	31.0	-63.5	10.7
2026-01-10 17:21:15.823420	3.3	30.6	-62.0	7.2
2026-01-10 17:21:18.066471	2.9	30.2	-61.3	8.6
2026-01-10 17:21:20.309986	2.6	29.9	-62.6	8.4
2026-01-10 17:21:22.554042	2.3	29.5	-61.3	6.1
2026-01-10 17:21:24.799557	1.9	29.1	-63.2	9.6
2026-01-10 17:21:27.044064	1.6	28.7	-62.4	8.7
2026-01-10 17:21:29.288100	1.3	28.4	-62.7	10.8
2026-01-10 17:21:31.532616	1.0	28.0	-63.2	9.3
2026-01-10 17:21:33.780163	0.7	27.6	-64.1	11.2
2026-01-10 17:21:36.026679	0.4	27.3	-64.5	11.3
2026-01-10 17:21:38.270816	0.1	26.9	-64.8	11.0
2026-01-10 17:21:40.514248	359.8	26.6	-64.3	11.0
2026-01-10 17:21:42.758268	359.5	26.2	-64.0	11.5
2026-01-10 17:21:45.002816	359.3	25.9	-64.3	11.9
2026-01-10 17:21:47.247331	359.0	25.5	-64.0	10.8
2026-01-10 17:21:49.493385	358.7	25.2	-63.5	9.2
2026-01-10 17:21:51.737900	358.5	24.9	-64.3	11.2
2026-01-10 17:21:53.980953	358.2	24.5	-61.6	6.9
2026-01-10 17:21:56.224511	358.0	24.2	-63.7	9.6
2026-01-10 17:21:58.471533	357.8	23.9	-64.3	11.0
2026-01-10 17:22:00.716577	357.5	23.6	-64.1	10.6
2026-01-10 17:22:02.961092	357.3	23.2	-62.8	9.6
2026-01-10 17:22:05.204639	357.1	22.9	-62.7	7.0
2026-01-10 17:22:07.449659	356.9	22.6	-63.5	8.8
2026-01-10 17:22:09.693208	356.7	22.3	-61.3	5.2
2026-01-10 17:22:11.939261	356.5	22.0	-65.4	9.3
2026-01-10 17:22:14.183777	356.2	21.7	-64.9	9.4
2026-01-10 17:22:16.427822	356.0	21.4	-64.4	9.0
2026-01-10 17:22:18.672338	355.9	21.1	-62.7	8.1
2026-01-10 17:22:20.916380	355.7	20.8	-63.7	7.8
2026-01-10 17:22:23.163425	355.5	20.6	-64.5	7.4
2026-01-10 17:22:25.406980	355.3	20.3	-64.5	9.2
2026-01-10 17:22:27.651000	355.1	20.0	-63.3	7.1
2026-01-10 17:22:29.893574	354.9	19.7	-63.1	9.2
2026-01-10 17:22:32.138081	354.8	19.4	-63.6	6.0
2026-01-10 17:22:34.382101	354.6	19.2	-64.5	7.1
2026-01-10 17:22:36.626143	354.4	18.9	-64.6	8.9
2026-01-10 17:22:38.870193	354.2	18.6	-63.6	7.5
2026-01-10 17:22:41.114700	354.1	18.4	-64.3	7.9
2026-01-10 17:22:43.358720	353.9	18.1	-63.6	6.6
2026-01-10 17:22:45.603754	353.8	17.8	-64.2	8.9
2026-01-10 17:22:47.847765	353.6	17.6	-64.5	9.0
2026-01-10 17:22:50.091820	353.5	17.3	-64.3	8.1
2026-01-10 17:22:52.335878	353.3	17.1	-62.8	5.3
2026-01-10 17:22:54.582393	353.2	16.8	-64.2	6.4
2026-01-10 17:22:56.826405	353.0	16.6	-63.7	5.8
2026-01-10 17:22:59.069952	352.9	16.3	-62.0	1.8
2026-01-10 17:23:01.313982	352.7	16.1	-64.2	7.5
2026-01-10 17:23:03.558529	352.6	15.9	-62.9	4.9
2026-01-10 17:23:05.803037	352.5	15.6	-61.8	4.0
2026-01-10 17:23:08.047551	352.3	15.4	-62.0	1.3
2026-01-10 17:23:10.294133	352.2	15.1	-61.1	0.0
2026-01-10 17:23:12.538649	352.1	14.9	-60.9	3.0
2026-01-10 17:23:14.782690	352.0	14.7	-62.3	2.3
2026-01-10 17:23:17.027197	351.8	14.5	-64.7	5.3
2026-01-10 17:23:19.275717	351.7	14.2	-64.1	6.0
2026-01-10 17:23:21.541228	351.6	14.0	-64.2	6.3
2026-01-10 17:23:23.785271	351.5	13.8	-65.1	7.8
2026-01-10 17:23:26.029778	351.4	13.6	-62.6	6.0
2026-01-10 17:23:28.273294	351.3	13.3	-64.4	5.5
2026-01-10 17:23:30.517860	351.1	13.1	-64.5	7.5
2026-01-10 17:23:32.762376	351.0	12.9	-63.7	5.0
2026-01-10 17:23:35.007427	350.9	12.7	-62.9	4.5
2026-01-10 17:23:37.251439	350.8	12.5	-64.5	7.1
2026-01-10 17:23:39.495458	350.7	12.3	-64.3	6.6
2026-01-10 17:23:41.738513	350.6	12.1	-63.1	4.4
2026-01-10 17:23:43.983028	350.5	11.9	-64.7	6.7
2026-01-10 17:23:46.226592	350.4	11.7	-64.5	6.8
2026-01-10 17:23:48.469613	350.3	11.5	-63.9	6.7
2026-01-10 17:23:50.713632	350.2	11.3	-63.9	4.8
2026-01-10 17:23:52.957687	350.1	11.1	-64.3	5.6
2026-01-10 17:23:55.203212	350.0	10.9	-63.7	4.0
2026-01-10 17:23:57.446273	349.9	10.7	-64.8	5.7
2026-01-10 17:23:59.690294	349.8	10.5	-64.7	3.6
2026-01-10 17:24:01.933363	349.8	10.3	-64.4	4.2
2026-01-10 17:24:04.174945	349.7	10.1	-64.2	3.9
2026-01-10 17:24:06.418461	349.6	9.9	-63.8	2.7
2026-01-10 17:24:08.661977	349.5	9.7	-64.4	3.4
2026-01-10 17:24:10.905997	349.4	9.5	-63.9	0.0
2026-01-10 17:24:13.149082	349.3	9.3	-64.8	0.2
2026-01-10 17:24:15.399657	349.2	9.2	-65.1	0.5
2026-01-10 17:24:17.643669	349.2	9.0	-64.2	0.0
2026-01-10 17:24:19.888185	349.1	8.8	-65.8	0.1
2026-01-10 17:24:22.138198	349.0	8.6	-61.2	0.0
2026-01-10 17:24:24.381719	348.9	8.4	-64.9	0.0
2026-01-10 17:24:26.625730	348.8	8.2	-65.7	2.0
2026-01-10 17:24:28.871237	348.8	8.1	-65.4	1.8
2026-01-10 17:24:31.119766	348.7	7.9	-65.6	2.8
2026-01-10 17:24:33.363284	348.6	7.7	-64.6	0.8
2026-01-10 17:24:35.607295	348.5	7.5	-65.5	4.0
2026-01-10 17:24:37.850811	348.5	7.4	-64.7	1.5
2026-01-10 17:24:40.094327	348.4	7.2	-64.9	1.6
2026-01-10 17:24:42.337843	348.3	7.0	-64.5	0.9
2026-01-10 17:24:44.581358	348.3	6.9	-64.6	0.5
2026-01-10 17:24:46.823388	348.2	6.7	-65.7	0.0
2026-01-10 17:24:49.065920	348.1	6.5	-65.0	0.0
2026-01-10 17:24:51.309941	348.1	6.4	-66.2	0.0
2026-01-10 17:24:53.553456	348.0	6.2	-66.2	0.0
2026-01-10 17:24:55.798486	347.9	6.0	-65.9	0.0
2026-01-10 17:24:58.040515	347.9	5.9	-67.0	0.0
2026-01-10 17:25:00.284536	347.8	5.7	-66.2	0.0
2026-01-10 17:25:02.529042	347.7	5.5	-67.9	0.0
2026-01-10 17:25:04.772063	347.7	5.4	-65.8	0.0
2026-01-10 17:25:07.016074	347.6	5.2	-66.7	0.0
2026-01-10 17:25:09.258600	347.6	5.1	-66.1	0.0
#Closed at: 2026-01-10 17:12:31.685477