passes_logs/2025/01/02/LEX_Murmansk/LEX_Murmansk__20250102_085144_NOAA_18_rec.log

#Pass ID: 20250102_085144_NOAA 18
#Satellite: NOAA 18
#Configuration: NOAA 18
#Start time: 2025-01-02 08:51:39.684607

#LorettStation: 1.0.0 05.05.2024
#Station: LEX_Murmansk
#Location: 33.156738 lon 68.926811 lat
#TLE: 1 28654U 05018A   25001.78406204  .00000701  00000+0  39590-3 0  9994
#TLE: 2 28654  98.8586  82.9683 0013729 216.8395 143.1835 14.13472842 11310

#Time	Az	El	Level	SNR
2025-01-02 08:51:51.865289	31.0	16.2	-92.2	5.4
2025-01-02 08:51:54.190634	31.2	16.4	-92.5	5.7
2025-01-02 08:51:56.513297	31.4	16.7	-93.0	4.1
2025-01-02 08:51:58.847119	31.6	16.9	-92.7	5.9
2025-01-02 08:52:01.140208	31.8	17.1	-92.2	3.9
2025-01-02 08:52:03.389767	32.0	17.4	-92.3	4.6
2025-01-02 08:52:05.631901	32.2	17.6	-92.8	5.5
2025-01-02 08:52:07.872913	32.5	17.8	-92.9	14.2
2025-01-02 08:52:10.123083	32.7	18.1	-92.6	8.4
2025-01-02 08:52:12.445440	32.9	18.3	-93.0	5.0
2025-01-02 08:52:14.761288	33.1	18.6	-92.9	10.5
2025-01-02 08:52:17.088516	33.4	18.8	-92.3	5.6
2025-01-02 08:52:19.410253	33.6	19.1	-92.8	14.1
2025-01-02 08:52:21.727957	33.8	19.4	-92.5	13.4
2025-01-02 08:52:24.061702	34.1	19.6	-92.3	9.7
2025-01-02 08:52:26.389966	34.3	19.9	-93.0	11.1
2025-01-02 08:52:28.720863	34.6	20.1	-91.6	8.4
2025-01-02 08:52:31.039469	34.9	20.4	-92.4	5.6
2025-01-02 08:52:33.366177	35.1	20.7	-92.6	9.9
2025-01-02 08:52:35.695055	35.4	21.0	-92.7	11.9
2025-01-02 08:52:38.021693	35.7	21.2	-92.2	13.1
2025-01-02 08:52:40.341066	35.9	21.5	-92.4	11.3
2025-01-02 08:52:42.672908	36.2	21.8	-92.7	11.0
2025-01-02 08:52:45.001458	36.5	22.1	-92.5	14.6
2025-01-02 08:52:47.330030	36.8	22.3	-92.8	12.4
2025-01-02 08:52:49.651709	37.1	22.6	-92.6	5.3
2025-01-02 08:52:51.978466	37.4	22.9	-92.6	6.3
2025-01-02 08:52:54.313299	37.7	23.2	-92.1	15.1
2025-01-02 08:52:56.645843	38.0	23.5	-92.3	13.0
2025-01-02 08:52:58.970092	38.3	23.8	-92.3	9.1
2025-01-02 08:53:01.280797	38.7	24.1	-92.3	14.6
2025-01-02 08:53:03.602331	39.0	24.4	-92.4	16.7
2025-01-02 08:53:05.933649	39.3	24.7	-92.6	11.8
2025-01-02 08:53:08.259687	39.7	25.0	-92.4	11.3
2025-01-02 08:53:10.573534	40.0	25.3	-92.7	9.3
2025-01-02 08:53:12.894132	40.4	25.6	-92.9	12.0
2025-01-02 08:53:15.221400	40.7	25.9	-92.0	10.8
2025-01-02 08:53:17.548629	41.1	26.3	-92.8	8.8
2025-01-02 08:53:19.872176	41.5	26.6	-92.3	11.0
2025-01-02 08:53:22.211155	41.9	26.9	-91.8	11.5
2025-01-02 08:53:24.535258	42.3	27.2	-92.5	7.8
2025-01-02 08:53:26.861122	42.6	27.5	-93.0	15.0
2025-01-02 08:53:29.182947	43.1	27.9	-92.4	12.3
2025-01-02 08:53:31.504667	43.5	28.2	-93.0	15.6
2025-01-02 08:53:33.824012	43.9	28.5	-92.9	13.6
2025-01-02 08:53:36.148038	44.3	28.9	-92.4	8.1
2025-01-02 08:53:38.484725	44.8	29.2	-92.5	10.2
2025-01-02 08:53:40.803064	45.2	29.5	-92.7	10.9
2025-01-02 08:53:43.126448	45.7	29.9	-91.5	9.9
2025-01-02 08:53:45.459782	46.1	30.2	-92.1	6.5
2025-01-02 08:53:47.784455	46.6	30.6	-92.4	10.8
2025-01-02 08:53:50.107944	47.1	30.9	-92.4	9.6
2025-01-02 08:53:52.435495	47.6	31.3	-92.9	13.8
2025-01-02 08:53:54.767454	48.1	31.6	-92.5	17.8
2025-01-02 08:53:57.094770	48.7	32.0	-91.9	12.8
2025-01-02 08:53:59.418812	49.2	32.3	-92.8	18.2
2025-01-02 08:54:01.715493	49.7	32.7	-92.8	18.8
2025-01-02 08:54:03.963209	50.3	33.0	-91.8	13.6
2025-01-02 08:54:06.203889	50.8	33.4	-91.1	14.1
2025-01-02 08:54:08.446230	51.4	33.7	-90.8	10.7
2025-01-02 08:54:10.700850	51.9	34.1	-91.6	16.7
2025-01-02 08:54:13.022079	52.5	34.4	-92.3	18.5
2025-01-02 08:54:15.332624	53.2	34.8	-92.9	17.9
2025-01-02 08:54:17.656129	53.8	35.1	-92.6	15.4
2025-01-02 08:54:19.990098	54.4	35.5	-93.0	13.0
2025-01-02 08:54:22.318819	55.1	35.9	-92.6	22.1
2025-01-02 08:54:24.648759	55.8	36.2	-92.4	19.5
2025-01-02 08:54:27.001637	56.5	36.6	-91.7	14.0
2025-01-02 08:54:29.331300	57.2	37.0	-91.5	16.4
2025-01-02 08:54:31.657978	57.9	37.3	-92.5	8.2
2025-01-02 08:54:33.989736	58.6	37.7	-92.3	13.4
2025-01-02 08:54:36.304687	59.4	38.0	-92.2	19.5
2025-01-02 08:54:38.632803	60.1	38.4	-92.7	20.7
2025-01-02 08:54:40.951124	60.9	38.8	-92.4	17.1
2025-01-02 08:54:43.269193	61.7	39.1	-92.2	19.7
2025-01-02 08:54:45.585782	62.5	39.5	-92.6	16.4
2025-01-02 08:54:47.912377	63.4	39.8	-92.0	19.6
2025-01-02 08:54:50.224070	64.2	40.1	-92.1	18.3
2025-01-02 08:54:52.552813	65.1	40.5	-92.3	17.2
2025-01-02 08:54:54.881095	66.0	40.8	-92.4	19.4
2025-01-02 08:54:57.201957	66.9	41.1	-92.0	14.0
2025-01-02 08:54:59.527853	67.8	41.5	-92.5	11.8
2025-01-02 08:55:01.838786	68.8	41.8	-92.3	18.1
2025-01-02 08:55:04.165326	69.7	42.1	-91.7	15.8
2025-01-02 08:55:06.490493	70.7	42.4	-92.1	15.5
2025-01-02 08:55:08.807797	71.7	42.7	-92.3	15.7
2025-01-02 08:55:11.134212	72.7	43.0	-92.2	10.4
2025-01-02 08:55:13.453256	73.8	43.3	-92.6	12.5
2025-01-02 08:55:15.783259	74.8	43.6	-92.5	18.7
2025-01-02 08:55:18.112757	75.9	43.8	-92.7	15.1
2025-01-02 08:55:20.424285	77.0	44.1	-92.7	17.8
2025-01-02 08:55:22.744378	78.1	44.3	-92.7	15.9
2025-01-02 08:55:25.044224	79.2	44.6	-92.4	12.1
2025-01-02 08:55:27.288604	80.3	44.8	-92.2	14.6
2025-01-02 08:55:29.531083	81.4	45.0	-92.6	5.7
2025-01-02 08:55:31.779030	82.5	45.2	-92.6	11.7
2025-01-02 08:55:34.070263	83.7	45.4	-92.5	8.4
2025-01-02 08:55:36.383446	84.9	45.6	-92.4	10.7
2025-01-02 08:55:38.699343	86.1	45.7	-92.7	7.7
2025-01-02 08:55:41.020381	87.3	45.9	-92.3	9.0
2025-01-02 08:55:43.345068	88.6	46.0	-92.3	15.5
2025-01-02 08:55:45.661893	89.8	46.2	-92.8	14.8
2025-01-02 08:55:47.987294	91.1	46.3	-93.0	13.6
2025-01-02 08:55:50.300969	92.3	46.4	-92.7	14.6
2025-01-02 08:55:52.579520	93.6	46.5	-93.1	9.7
2025-01-02 08:55:54.881770	94.9	46.5	-92.7	10.9
2025-01-02 08:55:57.185051	96.1	46.6	-92.3	10.2
2025-01-02 08:55:59.480186	97.4	46.6	-92.6	8.7
2025-01-02 08:56:01.792774	98.7	46.7	-93.2	12.2
2025-01-02 08:56:04.114889	100.0	46.7	-92.4	9.2
2025-01-02 08:56:06.440211	101.3	46.7	-92.9	14.7
2025-01-02 08:56:08.767432	102.6	46.6	-93.3	15.7
2025-01-02 08:56:11.089167	103.8	46.6	-92.2	17.5
2025-01-02 08:56:13.417893	105.1	46.5	-92.5	18.5
2025-01-02 08:56:15.744788	106.4	46.5	-92.3	17.1
2025-01-02 08:56:18.077291	107.7	46.4	-92.3	17.1
2025-01-02 08:56:20.393393	109.0	46.3	-92.3	16.4
2025-01-02 08:56:22.721462	110.2	46.2	-92.7	17.6
2025-01-02 08:56:25.038815	111.5	46.0	-92.7	18.8
2025-01-02 08:56:27.366169	112.7	45.9	-92.6	19.8
2025-01-02 08:56:29.693077	113.9	45.7	-92.8	17.1
2025-01-02 08:56:32.011566	115.1	45.6	-92.9	13.6
2025-01-02 08:56:34.326672	116.3	45.4	-92.6	16.7
2025-01-02 08:56:36.574259	117.5	45.2	-93.0	11.1
2025-01-02 08:56:38.816218	118.6	45.0	-92.7	13.0
2025-01-02 08:56:41.056967	119.7	44.8	-92.2	5.5
2025-01-02 08:56:43.315613	120.9	44.6	-92.4	11.0
2025-01-02 08:56:45.635502	122.0	44.3	-92.8	9.0
2025-01-02 08:56:47.945913	123.1	44.1	-92.6	13.0
2025-01-02 08:56:50.278200	124.2	43.8	-92.3	15.0
2025-01-02 08:56:52.604022	125.3	43.5	-92.7	13.4
2025-01-02 08:56:54.929072	126.3	43.3	-92.6	11.6
2025-01-02 08:56:57.250324	127.4	43.0	-92.0	16.2
2025-01-02 08:56:59.577578	128.4	42.7	-92.8	14.7
2025-01-02 08:57:01.893973	129.4	42.4	-92.7	16.0
2025-01-02 08:57:04.216193	130.4	42.1	-92.4	17.5
2025-01-02 08:57:06.545408	131.3	41.8	-92.9	17.9
2025-01-02 08:57:08.868681	132.3	41.4	-93.0	21.3
2025-01-02 08:57:11.182640	133.2	41.1	-92.8	18.6
2025-01-02 08:57:13.508484	134.1	40.8	-92.9	19.6
2025-01-02 08:57:15.826813	135.0	40.4	-92.7	19.1
2025-01-02 08:57:18.147909	135.9	40.1	-92.3	17.4
2025-01-02 08:57:20.478610	136.7	39.8	-92.7	15.4
2025-01-02 08:57:22.794073	137.6	39.4	-92.8	17.7
2025-01-02 08:57:25.112513	138.4	39.1	-92.5	6.0
2025-01-02 08:57:27.432552	139.2	38.7	-92.6	13.2
2025-01-02 08:57:29.758565	140.0	38.3	-92.8	13.5
2025-01-02 08:57:32.076888	140.7	38.0	-92.8	6.7
2025-01-02 08:57:34.402496	141.5	37.6	-92.8	12.9
2025-01-02 08:57:36.732394	142.2	37.3	-92.8	14.8
2025-01-02 08:57:39.062492	143.0	36.9	-92.3	10.1
2025-01-02 08:57:41.390734	143.7	36.5	-92.6	16.0
2025-01-02 08:57:43.716863	144.4	36.2	-92.8	16.3
2025-01-02 08:57:46.052514	145.0	35.8	-92.2	15.1
2025-01-02 08:57:48.378618	145.7	35.4	-92.4	15.3
2025-01-02 08:57:50.702266	146.4	35.1	-92.7	14.7
2025-01-02 08:57:53.028865	147.0	34.7	-92.8	11.2
2025-01-02 08:57:55.356298	147.6	34.3	-92.5	14.0
2025-01-02 08:57:57.677342	148.2	34.0	-92.7	12.3
2025-01-02 08:58:00.003449	148.8	33.6	-93.2	8.1
2025-01-02 08:58:02.314411	149.4	33.2	-92.2	11.2
2025-01-02 08:58:04.637314	149.9	32.9	-92.9	8.0
2025-01-02 08:58:06.970656	150.5	32.5	-92.7	9.0
2025-01-02 08:58:09.314051	151.1	32.2	-92.5	10.1
2025-01-02 08:58:11.647685	151.6	31.8	-93.2	8.6
2025-01-02 08:58:13.975110	152.1	31.5	-93.0	8.0
2025-01-02 08:58:16.301674	152.6	31.1	-92.3	10.6
2025-01-02 08:58:18.628120	153.1	30.7	-92.5	9.5
2025-01-02 08:58:20.948523	153.6	30.4	-92.5	8.3
2025-01-02 08:58:23.281892	154.1	30.0	-92.4	8.1
2025-01-02 08:58:25.607631	154.6	29.7	-92.9	5.8
2025-01-02 08:58:27.936370	155.0	29.4	-92.3	4.6
2025-01-02 08:58:30.260585	155.5	29.0	-91.9	9.3
2025-01-02 08:58:32.584475	155.9	28.7	-92.6	8.2
2025-01-02 08:58:34.903119	156.3	28.3	-92.8	13.1
2025-01-02 08:58:37.235398	156.8	28.0	-92.8	11.7
2025-01-02 08:58:39.564232	157.2	27.7	-93.2	9.9
2025-01-02 08:58:41.889499	157.6	27.3	-93.1	6.7
2025-01-02 08:58:44.216669	158.0	27.0	-92.7	7.4
2025-01-02 08:58:46.540390	158.4	26.7	-92.9	6.0
2025-01-02 08:58:48.868992	158.8	26.4	-93.2	8.7
2025-01-02 08:58:51.192220	159.1	26.0	-92.8	11.7
2025-01-02 08:58:53.516919	159.5	25.7	-93.1	12.7
2025-01-02 08:58:55.834473	159.9	25.4	-92.9	15.9
2025-01-02 08:58:58.164109	160.2	25.1	-92.1	12.2
2025-01-02 08:59:00.480052	160.6	24.8	-92.7	9.5
2025-01-02 08:59:02.799225	160.9	24.5	-92.7	10.7
2025-01-02 08:59:05.122600	161.2	24.2	-93.0	6.5
2025-01-02 08:59:07.446092	161.6	23.9	-92.8	8.8
2025-01-02 08:59:09.775679	161.9	23.6	-93.0	12.6
2025-01-02 08:59:12.086256	162.2	23.3	-93.0	11.1
2025-01-02 08:59:14.416855	162.5	23.0	-92.9	15.9
2025-01-02 08:59:16.746192	162.8	22.7	-93.1	16.3
2025-01-02 08:59:19.071923	163.1	22.4	-92.7	10.9
2025-01-02 08:59:21.390147	163.4	22.1	-92.9	9.7
2025-01-02 08:59:23.713399	163.7	21.8	-92.9	7.0
2025-01-02 08:59:26.046534	164.0	21.5	-93.0	5.7
2025-01-02 08:59:28.385593	164.3	21.3	-92.7	10.2
2025-01-02 08:59:30.713626	164.6	21.0	-92.9	11.4
2025-01-02 08:59:33.045888	164.8	20.7	-93.0	7.2
2025-01-02 08:59:35.369041	165.1	20.4	-92.7	7.2
2025-01-02 08:59:37.692552	165.4	20.2	-93.1	4.7
2025-01-02 08:59:40.027609	165.6	19.9	-93.2	4.0
2025-01-02 08:59:42.347066	165.9	19.6	-92.3	8.2
2025-01-02 08:59:44.668601	166.1	19.4	-93.2	9.1
2025-01-02 08:59:46.990393	166.4	19.1	-93.2	7.5
2025-01-02 08:59:49.310280	166.6	18.8	-92.7	8.4
2025-01-02 08:59:51.635797	166.8	18.6	-93.2	6.7
2025-01-02 08:59:53.960725	167.1	18.3	-92.8	4.5
2025-01-02 08:59:56.289850	167.3	18.1	-92.3	3.9
2025-01-02 08:59:58.616357	167.5	17.8	-93.4	5.1
2025-01-02 09:00:00.930744	167.8	17.6	-93.4	7.0
2025-01-02 09:00:03.250628	168.0	17.3	-92.9	4.5
2025-01-02 09:00:05.571614	168.2	17.1	-93.0	3.9
2025-01-02 09:00:07.903950	168.4	16.8	-93.0	5.4
2025-01-02 09:00:10.231698	168.6	16.6	-92.4	4.2
2025-01-02 09:00:12.557239	168.8	16.4	-93.0	4.1
2025-01-02 09:00:14.881084	169.0	16.1	-93.3	5.3
2025-01-02 09:00:17.203296	169.2	15.9	-92.8	5.2
2025-01-02 09:00:19.527164	169.4	15.6	-92.8	8.4
2025-01-02 09:00:21.805445	169.6	15.4	-93.2	7.9
2025-01-02 09:00:24.051449	169.8	15.2	-93.0	6.7
2025-01-02 09:00:26.292495	170.0	15.0	-92.7	6.2
2025-01-02 09:00:28.534811	170.2	14.8	-92.3	5.1
2025-01-02 09:00:30.820797	170.3	14.5	-93.0	6.3
#Closed at: 2025-01-02 08:51:44.679425