passes_logs/2025/01/02/LEX_Murmansk/LEX_Murmansk__20250102_082341_NOAA_19_rec.log

#Pass ID: 20250102_082341_NOAA 19
#Satellite: NOAA 19
#Configuration: NOAA 19
#Start time: 2025-01-02 08:23:36.700449

#LorettStation: 1.0.0 05.05.2024
#Station: LEX_Murmansk
#Location: 33.156738 lon 68.926811 lat
#TLE: 1 33591U 09005A   25001.83569820  .00001454  00000+0  79919-3 0  9995
#TLE: 2 33591  99.0217  65.4951 0014707  92.5482 267.7374 14.13252981819684

#Time	Az	El	Level	SNR
2025-01-02 08:23:48.831285	28.0	16.3	-92.5	3.9
2025-01-02 08:23:51.159830	28.1	16.5	-91.7	2.6
2025-01-02 08:23:53.478699	28.2	16.8	-92.1	4.7
2025-01-02 08:23:55.824013	28.3	17.1	-92.2	7.5
2025-01-02 08:23:58.151354	28.4	17.3	-91.7	5.7
2025-01-02 08:24:00.463564	28.5	17.6	-92.2	6.0
2025-01-02 08:24:02.786496	28.6	17.9	-92.3	3.8
2025-01-02 08:24:05.113658	28.7	18.1	-91.9	4.3
2025-01-02 08:24:07.437535	28.8	18.4	-92.0	2.8
2025-01-02 08:24:09.765429	28.9	18.7	-92.1	9.4
2025-01-02 08:24:12.091383	29.0	19.0	-92.1	8.5
2025-01-02 08:24:14.416397	29.1	19.3	-92.2	7.7
2025-01-02 08:24:16.744818	29.2	19.5	-92.1	10.3
2025-01-02 08:24:19.071445	29.4	19.8	-92.0	4.2
2025-01-02 08:24:21.393732	29.5	20.1	-92.3	4.8
2025-01-02 08:24:23.720750	29.6	20.4	-92.4	6.9
2025-01-02 08:24:26.052241	29.7	20.7	-92.0	11.7
2025-01-02 08:24:28.374385	29.8	21.0	-92.2	7.9
2025-01-02 08:24:30.704788	30.0	21.3	-92.3	8.4
2025-01-02 08:24:33.033233	30.1	21.7	-92.4	12.2
2025-01-02 08:24:35.357269	30.2	22.0	-92.1	3.1
2025-01-02 08:24:37.688986	30.4	22.3	-92.6	1.8
2025-01-02 08:24:40.012801	30.5	22.6	-92.4	6.6
2025-01-02 08:24:42.333103	30.6	22.9	-91.9	13.7
2025-01-02 08:24:44.672869	30.8	23.3	-92.4	5.9
2025-01-02 08:24:47.003620	30.9	23.6	-92.4	10.8
2025-01-02 08:24:49.334570	31.1	24.0	-91.9	9.2
2025-01-02 08:24:51.662492	31.2	24.3	-92.2	3.6
2025-01-02 08:24:54.000263	31.4	24.7	-92.5	3.3
2025-01-02 08:24:56.328475	31.5	25.0	-92.4	7.2
2025-01-02 08:24:58.659572	31.7	25.4	-92.2	10.5
2025-01-02 08:25:00.964001	31.8	25.7	-92.6	8.5
2025-01-02 08:25:03.225711	32.0	26.1	-92.5	4.5
2025-01-02 08:25:05.468734	32.2	26.4	-92.5	7.2
2025-01-02 08:25:07.711806	32.3	26.8	-92.6	1.6
2025-01-02 08:25:09.958740	32.5	27.2	-92.5	1.8
2025-01-02 08:25:12.269643	32.7	27.6	-92.5	2.4
2025-01-02 08:25:14.584221	32.9	27.9	-92.5	7.6
2025-01-02 08:25:16.859819	33.0	28.3	-92.3	4.7
2025-01-02 08:25:19.174012	33.2	28.7	-92.2	5.1
2025-01-02 08:25:21.482730	33.4	29.1	-92.7	7.8
2025-01-02 08:25:23.800734	33.6	29.5	-92.5	7.2
2025-01-02 08:25:26.125800	33.8	30.0	-92.2	2.8
2025-01-02 08:25:28.441434	34.0	30.4	-92.2	2.0
2025-01-02 08:25:30.717462	34.3	30.8	-92.3	6.9
2025-01-02 08:25:33.011479	34.5	31.2	-92.4	11.9
2025-01-02 08:25:35.324826	34.7	31.7	-92.3	6.2
2025-01-02 08:25:37.638864	34.9	32.1	-92.5	6.6
2025-01-02 08:25:39.966235	35.2	32.6	-92.4	11.3
2025-01-02 08:25:42.287448	35.4	33.0	-92.0	5.7
2025-01-02 08:25:44.611784	35.7	33.5	-88.6	1.9
2025-01-02 08:25:46.940719	35.9	34.0	-92.3	5.6
2025-01-02 08:25:49.272612	36.2	34.5	-92.0	12.0
2025-01-02 08:25:51.604856	36.5	35.0	-92.5	12.4
2025-01-02 08:25:53.934097	36.8	35.5	-92.2	8.5
2025-01-02 08:25:56.258457	37.1	36.0	-92.1	10.3
2025-01-02 08:25:58.554530	37.4	36.5	-92.2	16.0
2025-01-02 08:26:00.848236	37.7	37.0	-92.0	8.0
2025-01-02 08:26:03.145747	38.0	37.5	-91.7	4.2
2025-01-02 08:26:05.456580	38.3	38.0	-92.6	7.8
2025-01-02 08:26:07.776033	38.7	38.5	-92.5	13.6
2025-01-02 08:26:10.103452	39.0	39.1	-92.0	14.2
2025-01-02 08:26:12.428794	39.4	39.6	-92.7	10.6
2025-01-02 08:26:14.749373	39.8	40.2	-92.1	8.8
2025-01-02 08:26:17.069577	40.2	40.8	-92.6	18.2
2025-01-02 08:26:19.403315	40.6	41.4	-92.9	11.7
2025-01-02 08:26:21.732051	41.0	41.9	-92.4	4.6
2025-01-02 08:26:24.055774	41.4	42.5	-92.6	6.4
2025-01-02 08:26:26.383295	41.9	43.1	-92.5	12.2
2025-01-02 08:26:28.710680	42.3	43.7	-92.3	17.7
2025-01-02 08:26:31.043070	42.8	44.4	-93.0	14.1
2025-01-02 08:26:33.366834	43.3	45.0	-92.6	11.7
2025-01-02 08:26:35.690212	43.8	45.6	-92.6	9.2
2025-01-02 08:26:38.030774	44.4	46.2	-92.7	16.6
2025-01-02 08:26:40.354542	44.9	46.9	-92.1	10.3
2025-01-02 08:26:42.692758	45.5	47.5	-92.8	5.0
2025-01-02 08:26:45.015224	46.2	48.2	-92.3	2.7
2025-01-02 08:26:47.339429	46.8	48.9	-92.1	2.4
2025-01-02 08:26:49.670354	47.5	49.5	-92.0	6.1
2025-01-02 08:26:52.002555	48.2	50.2	-92.0	11.8
2025-01-02 08:26:54.325354	48.9	50.9	-92.5	5.5
2025-01-02 08:26:56.655521	49.7	51.6	-92.7	1.9
2025-01-02 08:26:58.985880	50.5	52.3	-92.8	10.8
2025-01-02 08:27:01.295077	51.3	53.0	-92.7	13.5
2025-01-02 08:27:03.548716	52.1	53.6	-93.0	10.6
2025-01-02 08:27:05.789854	53.0	54.3	-92.8	6.0
2025-01-02 08:27:08.031196	54.0	55.0	-92.8	5.0
2025-01-02 08:27:10.275072	54.9	55.7	-92.4	2.8
2025-01-02 08:27:12.592662	56.0	56.4	-92.6	10.8
2025-01-02 08:27:14.897878	57.1	57.1	-93.1	13.8
2025-01-02 08:27:17.220026	58.3	57.8	-92.6	14.6
2025-01-02 08:27:19.550701	59.5	58.5	-92.9	12.7
2025-01-02 08:27:21.874587	60.8	59.2	-92.8	11.5
2025-01-02 08:27:24.196453	62.2	59.9	-92.4	6.7
2025-01-02 08:27:26.512595	63.6	60.5	-92.5	18.4
2025-01-02 08:27:28.830375	65.1	61.2	-92.5	16.8
2025-01-02 08:27:31.157792	66.7	61.9	-92.4	16.7
2025-01-02 08:27:33.489601	68.4	62.5	-92.8	10.6
2025-01-02 08:27:35.815396	70.2	63.1	-92.8	4.0
2025-01-02 08:27:38.141645	72.1	63.8	-92.2	5.8
2025-01-02 08:27:40.482633	74.0	64.3	-92.8	8.6
2025-01-02 08:27:42.807736	76.1	64.9	-93.1	6.0
2025-01-02 08:27:45.135071	78.3	65.4	-92.7	10.0
2025-01-02 08:27:47.471732	80.6	66.0	-92.9	15.9
2025-01-02 08:27:49.791451	83.0	66.4	-92.9	14.8
2025-01-02 08:27:52.125888	85.5	66.9	-92.5	14.8
2025-01-02 08:27:54.449943	88.1	67.3	-92.5	10.0
2025-01-02 08:27:56.782581	90.8	67.6	-92.8	6.9
2025-01-02 08:27:59.107957	93.6	68.0	-93.0	10.0
2025-01-02 08:28:01.420509	96.4	68.2	-92.4	8.4
2025-01-02 08:28:03.733639	99.3	68.4	-93.0	7.8
2025-01-02 08:28:06.062851	102.3	68.6	-92.6	11.3
2025-01-02 08:28:08.394245	105.4	68.7	-92.3	12.2
2025-01-02 08:28:10.715996	108.4	68.8	-92.6	11.2
2025-01-02 08:28:13.037454	111.5	68.8	-92.8	18.5
2025-01-02 08:28:15.332424	114.5	68.7	-92.6	17.8
2025-01-02 08:28:17.580635	117.4	68.6	-93.0	20.2
2025-01-02 08:28:19.820420	120.3	68.4	-92.9	23.0
2025-01-02 08:28:22.063247	123.1	68.2	-92.7	20.9
2025-01-02 08:28:24.320649	125.9	68.0	-92.7	18.7
2025-01-02 08:28:26.635852	128.7	67.7	-92.8	18.2
2025-01-02 08:28:28.959567	131.4	67.3	-92.6	16.0
2025-01-02 08:28:31.279935	134.0	66.9	-92.0	10.4
2025-01-02 08:28:33.604067	136.5	66.5	-92.7	13.8
2025-01-02 08:28:35.927092	138.9	66.0	-92.5	10.4
2025-01-02 08:28:38.254100	141.2	65.5	-92.5	8.2
2025-01-02 08:28:40.582204	143.4	65.0	-92.6	11.7
2025-01-02 08:28:42.897566	145.5	64.4	-92.8	8.0
2025-01-02 08:28:45.224086	147.4	63.8	-92.4	7.9
2025-01-02 08:28:47.554703	149.3	63.2	-93.0	9.3
2025-01-02 08:28:49.883985	151.1	62.6	-93.3	9.9
2025-01-02 08:28:52.202724	152.8	61.9	-92.5	8.9
2025-01-02 08:28:54.529791	154.4	61.3	-92.7	10.5
2025-01-02 08:28:56.858419	156.0	60.6	-92.7	5.7
2025-01-02 08:28:59.192154	157.4	59.9	-92.8	6.0
2025-01-02 08:29:01.508305	158.8	59.2	-93.0	7.6
2025-01-02 08:29:03.822875	160.1	58.5	-92.9	4.6
2025-01-02 08:29:06.156336	161.3	57.8	-92.5	3.8
2025-01-02 08:29:08.489006	162.5	57.1	-92.7	6.0
2025-01-02 08:29:10.815202	163.6	56.4	-92.9	5.8
2025-01-02 08:29:13.148258	164.7	55.7	-92.6	6.5
2025-01-02 08:29:15.477641	165.7	55.0	-92.8	7.6
2025-01-02 08:29:17.815195	166.7	54.3	-92.9	6.3
2025-01-02 08:29:20.134656	167.6	53.6	-92.6	13.1
2025-01-02 08:29:22.463847	168.5	52.9	-92.6	7.2
2025-01-02 08:29:24.790098	169.3	52.2	-92.5	11.0
2025-01-02 08:29:27.121732	170.1	51.5	-92.2	9.0
2025-01-02 08:29:29.451437	170.9	50.8	-92.9	7.0
2025-01-02 08:29:31.783333	171.6	50.1	-92.8	5.0
2025-01-02 08:29:34.106564	172.3	49.5	-92.2	6.8
2025-01-02 08:29:36.430365	173.0	48.8	-91.9	6.4
2025-01-02 08:29:38.757000	173.6	48.1	-92.6	4.9
2025-01-02 08:29:41.085581	174.2	47.5	-92.3	5.7
2025-01-02 08:29:43.413064	174.8	46.8	-92.8	7.0
2025-01-02 08:29:45.739217	175.4	46.2	-92.2	14.6
2025-01-02 08:29:48.068350	175.9	45.5	-92.1	9.3
2025-01-02 08:29:50.386700	176.4	44.9	-92.7	13.1
2025-01-02 08:29:52.718465	177.0	44.3	-92.4	15.4
2025-01-02 08:29:55.031538	177.4	43.7	-92.2	16.4
2025-01-02 08:29:57.295253	177.9	43.1	-92.2	15.0
2025-01-02 08:29:59.536198	178.3	42.5	-92.7	11.0
2025-01-02 08:30:01.776011	178.7	41.9	-92.5	17.4
2025-01-02 08:30:04.020108	179.1	41.4	-92.7	10.0
2025-01-02 08:30:06.340832	179.5	40.8	-92.4	14.6
2025-01-02 08:30:08.655386	179.9	40.2	-92.4	9.1
2025-01-02 08:30:10.996004	180.3	39.7	-92.6	9.8
2025-01-02 08:30:13.326813	180.7	39.1	-92.3	14.4
2025-01-02 08:30:15.653165	181.0	38.5	-92.7	12.4
2025-01-02 08:30:17.978820	181.4	38.0	-93.4	12.9
2025-01-02 08:30:20.306664	181.7	37.5	-92.6	13.2
2025-01-02 08:30:22.628608	182.0	37.0	-92.8	7.7
2025-01-02 08:30:24.942300	182.3	36.4	-93.1	6.1
2025-01-02 08:30:27.246502	182.6	35.9	-92.7	12.0
2025-01-02 08:30:29.536294	182.9	35.4	-93.0	5.3
2025-01-02 08:30:31.832941	183.2	34.9	-92.8	9.1
2025-01-02 08:30:34.118141	183.5	34.5	-92.6	11.5
2025-01-02 08:30:36.396792	183.8	34.0	-92.7	12.5
2025-01-02 08:30:38.697552	184.0	33.5	-93.1	10.4
2025-01-02 08:30:41.010860	184.3	33.0	-93.2	6.3
2025-01-02 08:30:43.329963	184.5	32.6	-93.0	11.1
2025-01-02 08:30:45.655166	184.8	32.1	-93.0	9.1
2025-01-02 08:30:47.977933	185.0	31.7	-93.0	6.8
2025-01-02 08:30:50.309608	185.2	31.2	-92.3	10.0
2025-01-02 08:30:52.637234	185.4	30.8	-92.9	10.4
2025-01-02 08:30:54.949412	185.7	30.4	-93.2	6.5
2025-01-02 08:30:57.276932	185.9	29.9	-92.7	5.7
2025-01-02 08:30:59.609136	186.1	29.5	-92.9	4.3
2025-01-02 08:31:01.919109	186.3	29.1	-93.1	6.6
2025-01-02 08:31:04.239416	186.5	28.7	-92.7	11.6
2025-01-02 08:31:06.565211	186.7	28.3	-92.8	9.9
2025-01-02 08:31:08.888861	186.9	27.9	-93.1	9.2
2025-01-02 08:31:11.215323	187.0	27.5	-92.4	9.3
2025-01-02 08:31:13.533080	187.2	27.1	-92.5	8.4
2025-01-02 08:31:15.851588	187.4	26.7	-92.6	11.1
2025-01-02 08:31:18.178730	187.6	26.4	-92.4	9.9
2025-01-02 08:31:20.503406	187.7	26.0	-92.8	10.7
2025-01-02 08:31:22.829604	187.9	25.6	-92.9	10.6
2025-01-02 08:31:25.146181	188.1	25.3	-92.8	9.8
2025-01-02 08:31:27.476081	188.2	24.9	-92.7	5.8
2025-01-02 08:31:29.802733	188.4	24.5	-92.4	8.0
2025-01-02 08:31:32.131237	188.5	24.2	-92.6	6.0
2025-01-02 08:31:34.454148	188.7	23.9	-92.6	7.4
2025-01-02 08:31:36.784002	188.8	23.5	-92.1	10.1
2025-01-02 08:31:39.107354	189.0	23.2	-92.4	9.2
2025-01-02 08:31:41.436101	189.1	22.8	-92.5	8.8
2025-01-02 08:31:43.762080	189.2	22.5	-93.1	14.4
2025-01-02 08:31:46.090290	189.4	22.2	-92.4	8.9
2025-01-02 08:31:48.414046	189.5	21.9	-92.4	7.4
2025-01-02 08:31:50.749975	189.6	21.6	-92.8	4.2
2025-01-02 08:31:53.077910	189.7	21.2	-92.9	2.2
2025-01-02 08:31:55.399944	189.9	20.9	-93.2	5.6
2025-01-02 08:31:57.729041	190.0	20.6	-93.0	9.3
2025-01-02 08:32:00.062047	190.1	20.3	-92.9	5.9
2025-01-02 08:32:02.375975	190.2	20.0	-92.6	10.5
2025-01-02 08:32:04.696067	190.3	19.7	-92.7	12.6
2025-01-02 08:32:07.024839	190.5	19.4	-93.0	11.3
2025-01-02 08:32:09.347417	190.6	19.2	-92.4	10.6
2025-01-02 08:32:11.672812	190.7	18.9	-92.8	8.8
2025-01-02 08:32:14.000106	190.8	18.6	-91.6	3.9
2025-01-02 08:32:16.327692	190.9	18.3	-91.3	2.9
2025-01-02 08:32:18.661162	191.0	18.0	-92.0	2.2
2025-01-02 08:32:20.977651	191.1	17.8	-91.9	1.8
2025-01-02 08:32:23.264402	191.2	17.5	-91.6	4.5
2025-01-02 08:32:25.506043	191.3	17.2	-91.7	2.1
2025-01-02 08:32:27.747824	191.4	17.0	-91.6	5.7
2025-01-02 08:32:29.996018	191.5	16.7	-91.8	7.8
2025-01-02 08:32:32.285292	191.6	16.5	-92.7	8.1
2025-01-02 08:32:34.601535	191.7	16.2	-92.5	5.5
2025-01-02 08:32:36.916234	191.8	16.0	-92.5	4.3
2025-01-02 08:32:39.246928	191.8	15.7	-92.1	3.9
2025-01-02 08:32:41.572784	191.9	15.5	-92.7	5.1
2025-01-02 08:32:43.890576	192.0	15.2	-92.9	3.9
2025-01-02 08:32:46.151198	192.1	15.0	-92.1	3.1
2025-01-02 08:32:48.456659	192.2	14.7	-92.7	2.9
2025-01-02 08:32:50.765919	192.3	14.5	-92.3	2.3
#Closed at: 2025-01-02 08:23:41.619814