passes_logs/2025/01/02/LEX_Murmansk/LEX_Murmansk__20250102_121317_NOAA_18_rec.log

#Pass ID: 20250102_121317_NOAA 18
#Satellite: NOAA 18
#Configuration: NOAA 18
#Start time: 2025-01-02 12:13:12.390064

#LorettStation: 1.0.0 05.05.2024
#Station: LEX_Murmansk
#Location: 33.156738 lon 68.926811 lat
#TLE: 1 28654U 05018A   25001.78406204  .00000701  00000+0  39590-3 0  9994
#TLE: 2 28654  98.8586  82.9683 0013729 216.8395 143.1835 14.13472842 11310

#Time	Az	El	Level	SNR
2025-01-02 12:13:24.669417	23.8	16.1	-92.0	8.1
2025-01-02 12:13:25.824223	23.7	16.2	-92.4	7.0
2025-01-02 12:13:26.974304	23.5	16.3	-92.5	7.3
2025-01-02 12:13:28.125799	23.4	16.4	-92.0	4.7
2025-01-02 12:13:29.272125	23.3	16.5	-91.3	4.4
2025-01-02 12:13:30.425856	23.1	16.6	-92.5	4.2
2025-01-02 12:13:31.578112	23.0	16.8	-92.4	6.3
2025-01-02 12:13:32.735604	22.9	16.9	-92.4	3.0
2025-01-02 12:13:33.886048	22.7	17.0	-92.0	7.6
2025-01-02 12:13:35.041447	22.6	17.1	-92.0	2.3
2025-01-02 12:13:36.193718	22.4	17.2	-91.9	3.8
2025-01-02 12:13:37.346717	22.3	17.3	-92.3	1.8
2025-01-02 12:13:38.504973	22.2	17.4	-92.6	3.2
2025-01-02 12:13:39.653142	22.0	17.5	-92.7	4.8
2025-01-02 12:13:40.809139	21.9	17.6	-92.3	7.5
2025-01-02 12:13:41.957036	21.7	17.7	-92.6	2.9
2025-01-02 12:13:43.110575	21.6	17.9	-91.6	5.6
2025-01-02 12:13:44.263788	21.4	18.0	-91.9	5.4
2025-01-02 12:13:45.415567	21.3	18.1	-90.4	8.1
2025-01-02 12:13:46.566698	21.1	18.2	-90.5	7.5
2025-01-02 12:13:47.715641	21.0	18.3	-90.2	6.9
2025-01-02 12:13:48.871399	20.8	18.4	-90.3	10.1
2025-01-02 12:13:50.028813	20.7	18.5	-90.1	13.2
2025-01-02 12:13:51.190392	20.5	18.6	-90.1	11.3
2025-01-02 12:13:52.348539	20.4	18.8	-90.3	12.4
2025-01-02 12:13:53.505375	20.2	18.9	-90.3	6.7
2025-01-02 12:13:54.650254	20.0	19.0	-90.5	8.0
2025-01-02 12:13:55.802134	19.9	19.1	-90.8	7.8
2025-01-02 12:13:56.958713	19.7	19.2	-90.5	4.6
2025-01-02 12:13:58.117200	19.5	19.3	-90.3	2.4
2025-01-02 12:13:59.268845	19.4	19.4	-90.3	7.7
2025-01-02 12:14:00.409231	19.2	19.6	-90.2	7.6
2025-01-02 12:14:01.562812	19.1	19.7	-90.4	6.7
2025-01-02 12:14:02.716624	18.9	19.8	-90.5	11.1
2025-01-02 12:14:03.869277	18.7	19.9	-90.2	7.1
2025-01-02 12:14:05.017479	18.5	20.0	-89.7	5.8
2025-01-02 12:14:06.168024	18.4	20.1	-88.4	10.6
2025-01-02 12:14:07.313371	18.2	20.2	-86.1	3.5
2025-01-02 12:14:08.461480	18.0	20.4	-87.3	3.6
2025-01-02 12:14:09.615393	17.9	20.5	-87.6	7.7
2025-01-02 12:14:10.766042	17.7	20.6	-90.7	11.8
2025-01-02 12:14:11.924144	17.5	20.7	-90.4	9.5
2025-01-02 12:14:13.078094	17.3	20.8	-90.1	3.1
2025-01-02 12:14:14.231675	17.1	21.0	-90.1	6.5
2025-01-02 12:14:15.386319	17.0	21.1	-90.5	6.6
2025-01-02 12:14:16.546136	16.8	21.2	-90.6	3.3
2025-01-02 12:14:17.692901	16.6	21.3	-89.9	7.2
2025-01-02 12:14:18.843773	16.4	21.4	-89.9	9.7
2025-01-02 12:14:19.996518	16.2	21.5	-89.7	6.3
2025-01-02 12:14:21.151412	16.0	21.7	-89.6	5.4
2025-01-02 12:14:22.302121	15.8	21.8	-89.6	6.5
2025-01-02 12:14:23.455575	15.6	21.9	-89.2	5.9
2025-01-02 12:14:24.606699	15.4	22.0	-89.7	6.8
2025-01-02 12:14:25.757522	15.2	22.1	-89.4	8.5
2025-01-02 12:14:26.904175	15.0	22.3	-90.3	6.6
2025-01-02 12:14:28.056646	14.9	22.4	-90.3	11.2
2025-01-02 12:14:29.206691	14.7	22.5	-90.2	11.8
2025-01-02 12:14:30.361460	14.4	22.6	-90.8	11.3
2025-01-02 12:14:31.514964	14.2	22.7	-90.0	6.6
2025-01-02 12:14:32.664393	14.0	22.9	-89.5	10.5
2025-01-02 12:14:33.812572	13.8	23.0	-89.6	6.0
2025-01-02 12:14:34.960477	13.6	23.1	-90.0	6.6
2025-01-02 12:14:36.112663	13.4	23.2	-90.2	9.2
2025-01-02 12:14:37.262478	13.2	23.4	-90.4	10.7
2025-01-02 12:14:38.416632	13.0	23.5	-90.5	11.8
2025-01-02 12:14:39.571055	12.8	23.6	-90.0	9.8
2025-01-02 12:14:40.719876	12.6	23.7	-90.3	11.6
2025-01-02 12:14:41.875073	12.3	23.8	-90.3	10.9
2025-01-02 12:14:43.028911	12.1	24.0	-89.6	9.9
2025-01-02 12:14:44.179595	11.9	24.1	-89.3	7.9
2025-01-02 12:14:45.333390	11.7	24.2	-89.8	4.2
2025-01-02 12:14:46.484640	11.4	24.3	-89.9	7.1
2025-01-02 12:14:47.637761	11.2	24.5	-89.9	4.1
2025-01-02 12:14:48.789812	11.0	24.6	-90.0	8.4
2025-01-02 12:14:49.947167	10.8	24.7	-89.8	5.8
2025-01-02 12:14:51.097384	10.5	24.8	-89.0	4.9
2025-01-02 12:14:52.247477	10.3	25.0	-89.1	5.8
2025-01-02 12:14:53.394303	10.1	25.1	-89.1	5.3
2025-01-02 12:14:54.542461	9.8	25.2	-88.7	5.7
2025-01-02 12:14:55.695959	9.6	25.3	-89.1	6.4
2025-01-02 12:14:56.854509	9.3	25.4	-89.5	6.3
2025-01-02 12:14:58.012885	9.1	25.6	-89.2	7.6
2025-01-02 12:14:59.159060	8.8	25.7	-89.1	10.4
2025-01-02 12:15:00.302095	8.6	25.8	-89.0	8.1
2025-01-02 12:15:01.447634	8.3	25.9	-89.2	7.3
2025-01-02 12:15:02.600015	8.1	26.1	-89.1	6.4
2025-01-02 12:15:03.749800	7.8	26.2	-89.2	5.6
2025-01-02 12:15:04.900686	7.6	26.3	-89.3	5.5
2025-01-02 12:15:06.054643	7.3	26.4	-89.5	6.8
2025-01-02 12:15:07.203895	7.1	26.5	-89.2	8.7
2025-01-02 12:15:08.354135	6.8	26.7	-89.2	6.0
2025-01-02 12:15:09.507262	6.5	26.8	-88.9	4.9
2025-01-02 12:15:10.659003	6.3	26.9	-88.7	12.4
2025-01-02 12:15:11.810809	6.0	27.0	-88.9	7.4
2025-01-02 12:15:12.963681	5.7	27.2	-88.8	6.5
2025-01-02 12:15:14.122767	5.5	27.3	-89.2	7.9
2025-01-02 12:15:15.274075	5.2	27.4	-89.0	9.9
2025-01-02 12:15:16.430372	4.9	27.5	-89.0	6.1
2025-01-02 12:15:17.578660	4.6	27.6	-89.2	3.0
2025-01-02 12:15:18.730951	4.4	27.8	-89.0	8.7
2025-01-02 12:15:19.886104	4.1	27.9	-89.1	3.3
2025-01-02 12:15:21.039682	3.8	28.0	-88.9	5.0
2025-01-02 12:15:22.190038	3.5	28.1	-89.0	7.1
2025-01-02 12:15:23.343969	3.2	28.2	-88.4	8.6
2025-01-02 12:15:24.497008	2.9	28.4	-88.9	5.1
2025-01-02 12:15:25.650610	2.6	28.5	-89.0	10.7
2025-01-02 12:15:26.806114	2.3	28.6	-89.2	11.2
2025-01-02 12:15:27.963845	2.0	28.7	-89.3	8.9
2025-01-02 12:15:29.110306	1.7	28.8	-88.7	9.8
2025-01-02 12:15:30.260619	1.4	29.0	-88.9	8.1
2025-01-02 12:15:31.413434	1.1	29.1	-88.8	6.5
2025-01-02 12:15:32.564671	0.8	29.2	-89.2	7.1
2025-01-02 12:15:33.714979	0.5	29.3	-89.4	6.8
2025-01-02 12:15:34.866558	0.2	29.4	-88.8	13.5
2025-01-02 12:15:36.020724	359.9	29.5	-89.1	7.0
2025-01-02 12:15:37.168869	359.6	29.7	-88.8	5.6
2025-01-02 12:15:38.325699	359.2	29.8	-88.7	4.8
2025-01-02 12:15:39.476136	358.9	29.9	-88.7	5.5
2025-01-02 12:15:40.619849	358.6	30.0	-89.0	6.9
2025-01-02 12:15:41.769325	358.3	30.1	-89.0	4.9
2025-01-02 12:15:42.919096	358.0	30.2	-88.9	5.4
2025-01-02 12:15:44.073178	357.6	30.3	-89.1	6.0
2025-01-02 12:15:45.230068	357.3	30.4	-89.4	6.0
2025-01-02 12:15:46.381128	357.0	30.6	-89.1	5.0
2025-01-02 12:15:47.529104	356.6	30.7	-89.1	5.4
2025-01-02 12:15:48.681320	356.3	30.8	-88.8	7.5
2025-01-02 12:15:49.832737	355.9	30.9	-89.0	7.3
2025-01-02 12:15:50.982525	355.6	31.0	-88.6	9.0
2025-01-02 12:15:52.143315	355.2	31.1	-89.1	8.4
2025-01-02 12:15:53.300786	354.9	31.2	-88.6	10.4
2025-01-02 12:15:54.451650	354.5	31.3	-89.2	6.4
2025-01-02 12:15:55.605350	354.2	31.4	-89.3	7.8
2025-01-02 12:15:56.754393	353.8	31.5	-89.6	10.6
2025-01-02 12:15:57.910166	353.5	31.6	-90.0	9.0
2025-01-02 12:15:59.067529	353.1	31.7	-89.7	8.5
2025-01-02 12:16:00.208507	352.8	31.8	-88.2	7.6
2025-01-02 12:16:01.354324	352.4	31.9	-89.4	5.8
2025-01-02 12:16:02.511783	352.0	32.0	-88.9	9.0
2025-01-02 12:16:03.663182	351.7	32.1	-86.8	5.5
2025-01-02 12:16:04.824881	351.3	32.2	-87.0	4.3
2025-01-02 12:16:05.971709	350.9	32.3	-86.4	3.6
2025-01-02 12:16:07.125832	350.5	32.4	-90.3	4.9
2025-01-02 12:16:08.272854	350.2	32.5	-90.7	6.3
2025-01-02 12:16:09.414112	349.8	32.6	-91.1	7.6
2025-01-02 12:16:10.563135	349.4	32.7	-90.7	7.0
2025-01-02 12:16:11.708599	349.0	32.7	-91.1	6.3
2025-01-02 12:16:12.861851	348.6	32.8	-90.8	9.7
2025-01-02 12:16:14.015425	348.3	32.9	-90.5	5.3
2025-01-02 12:16:15.166085	347.9	33.0	-90.2	8.7
2025-01-02 12:16:16.322240	347.5	33.1	-90.1	16.5
2025-01-02 12:16:17.480856	347.1	33.2	-90.7	6.2
2025-01-02 12:16:18.635090	346.7	33.3	-90.4	5.7
2025-01-02 12:16:19.793488	346.3	33.3	-90.4	7.0
2025-01-02 12:16:20.952674	345.9	33.4	-90.3	10.6
2025-01-02 12:16:22.102176	345.5	33.5	-89.8	6.6
2025-01-02 12:16:23.248327	345.1	33.6	-89.8	10.0
2025-01-02 12:16:24.407520	344.7	33.6	-89.6	10.7
2025-01-02 12:16:25.565659	344.3	33.7	-90.0	7.5
2025-01-02 12:16:26.728905	343.8	33.8	-90.1	8.2
2025-01-02 12:16:27.876629	343.4	33.9	-90.2	11.8
2025-01-02 12:16:29.029228	343.0	33.9	-90.3	9.7
2025-01-02 12:16:30.185457	342.6	34.0	-90.0	10.2
2025-01-02 12:16:31.337256	342.2	34.1	-90.1	16.8
2025-01-02 12:16:32.494638	341.8	34.1	-89.5	8.9
2025-01-02 12:16:33.651099	341.3	34.2	-89.8	6.2
2025-01-02 12:16:34.803162	340.9	34.2	-90.0	14.9
2025-01-02 12:16:35.958817	340.5	34.3	-89.6	14.8
2025-01-02 12:16:37.116780	340.1	34.4	-89.5	11.3
2025-01-02 12:16:38.267433	339.6	34.4	-88.8	11.2
2025-01-02 12:16:39.413992	339.2	34.5	-89.1	4.9
2025-01-02 12:16:40.565377	338.8	34.5	-89.2	11.4
2025-01-02 12:16:41.714170	338.4	34.6	-88.9	10.5
2025-01-02 12:16:42.871097	337.9	34.6	-89.1	12.9
2025-01-02 12:16:44.028441	337.5	34.7	-89.3	16.9
2025-01-02 12:16:45.178118	337.1	34.7	-89.0	11.0
2025-01-02 12:16:46.336813	336.6	34.8	-88.9	12.6
2025-01-02 12:16:47.491382	336.2	34.8	-89.3	13.9
2025-01-02 12:16:48.645277	335.7	34.8	-89.5	11.4
2025-01-02 12:16:49.794277	335.3	34.9	-90.0	10.8
2025-01-02 12:16:50.940752	334.9	34.9	-89.3	7.4
2025-01-02 12:16:52.092830	334.4	34.9	-88.9	12.4
2025-01-02 12:16:53.249745	334.0	35.0	-89.0	15.5
2025-01-02 12:16:54.396580	333.5	35.0	-89.3	8.5
2025-01-02 12:16:55.536927	333.1	35.0	-89.2	6.9
2025-01-02 12:16:56.687842	332.7	35.1	-89.9	10.6
2025-01-02 12:16:57.813681	332.2	35.1	-89.6	9.7
2025-01-02 12:16:58.934762	331.8	35.1	-89.3	9.1
2025-01-02 12:17:00.054879	331.4	35.1	-89.0	10.9
2025-01-02 12:17:01.175594	330.9	35.1	-89.5	5.5
2025-01-02 12:17:02.295737	330.5	35.2	-89.7	10.3
2025-01-02 12:17:03.417604	330.1	35.2	-89.9	7.2
2025-01-02 12:17:04.540682	329.6	35.2	-89.7	8.9
2025-01-02 12:17:05.664674	329.2	35.2	-89.9	10.3
2025-01-02 12:17:06.816899	328.7	35.2	-90.3	15.6
2025-01-02 12:17:07.966066	328.3	35.2	-90.1	10.4
2025-01-02 12:17:09.120827	327.8	35.2	-90.0	8.9
2025-01-02 12:17:10.255874	327.4	35.2	-89.9	12.1
2025-01-02 12:17:11.402872	327.0	35.2	-90.1	12.8
2025-01-02 12:17:12.551413	326.5	35.2	-89.8	13.0
2025-01-02 12:17:13.703383	326.1	35.2	-89.7	11.5
2025-01-02 12:17:14.852721	325.6	35.2	-89.7	13.8
2025-01-02 12:17:16.003050	325.2	35.2	-89.1	10.8
2025-01-02 12:17:17.159201	324.7	35.2	-88.7	12.9
2025-01-02 12:17:18.305545	324.3	35.2	-89.2	11.0
2025-01-02 12:17:19.456246	323.8	35.2	-89.7	8.9
2025-01-02 12:17:20.603267	323.4	35.1	-90.3	12.1
2025-01-02 12:17:21.759992	322.9	35.1	-90.3	14.4
2025-01-02 12:17:22.911162	322.5	35.1	-90.5	10.1
2025-01-02 12:17:24.061915	322.0	35.1	-89.1	6.9
2025-01-02 12:17:25.217365	321.6	35.1	-89.2	8.2
2025-01-02 12:17:26.367986	321.1	35.0	-89.1	7.0
2025-01-02 12:17:27.517665	320.7	35.0	-89.2	8.3
2025-01-02 12:17:28.672426	320.3	35.0	-89.1	8.6
2025-01-02 12:17:29.820039	319.8	34.9	-89.4	8.6
2025-01-02 12:17:30.973700	319.4	34.9	-89.6	8.1
2025-01-02 12:17:32.138535	318.9	34.9	-89.8	7.5
2025-01-02 12:17:33.295630	318.5	34.8	-89.9	10.4
2025-01-02 12:17:34.441275	318.1	34.8	-89.9	7.1
2025-01-02 12:17:35.590705	317.6	34.8	-89.7	8.1
2025-01-02 12:17:36.739706	317.2	34.7	-89.2	10.2
2025-01-02 12:17:37.889168	316.8	34.7	-89.4	4.0
2025-01-02 12:17:39.037625	316.3	34.6	-89.3	7.1
2025-01-02 12:17:40.193147	315.9	34.6	-89.2	11.4
2025-01-02 12:17:41.349365	315.5	34.5	-89.9	10.5
2025-01-02 12:17:42.501102	315.0	34.5	-89.5	7.5
2025-01-02 12:17:43.651477	314.6	34.4	-90.0	12.5
2025-01-02 12:17:44.802968	314.2	34.4	-90.0	14.5
2025-01-02 12:17:45.960518	313.7	34.3	-89.7	8.7
2025-01-02 12:17:47.112816	313.3	34.3	-89.9	7.3
2025-01-02 12:17:48.265699	312.9	34.2	-89.8	10.5
2025-01-02 12:17:49.423742	312.5	34.1	-90.4	4.3
2025-01-02 12:17:50.569243	312.1	34.1	-90.0	7.6
2025-01-02 12:17:51.734431	311.6	34.0	-90.2	14.2
2025-01-02 12:17:52.888463	311.2	33.9	-90.1	9.1
2025-01-02 12:17:54.045081	310.8	33.9	-89.7	7.6
2025-01-02 12:17:55.201436	310.4	33.8	-89.4	13.8
2025-01-02 12:17:56.361144	310.0	33.7	-90.0	5.7
2025-01-02 12:17:57.516635	309.6	33.7	-89.9	7.6
2025-01-02 12:17:58.670952	309.2	33.6	-88.9	10.0
2025-01-02 12:17:59.828276	308.7	33.5	-88.7	5.6
2025-01-02 12:18:00.972825	308.3	33.4	-87.9	6.7
2025-01-02 12:18:02.124584	307.9	33.3	-87.5	8.9
2025-01-02 12:18:03.277261	307.5	33.3	-88.3	10.4
2025-01-02 12:18:04.427142	307.1	33.2	-88.6	4.0
2025-01-02 12:18:05.579876	306.7	33.1	-88.9	8.0
2025-01-02 12:18:06.729371	306.4	33.0	-89.2	13.4
2025-01-02 12:18:07.883210	306.0	32.9	-89.6	7.7
2025-01-02 12:18:09.036222	305.6	32.8	-89.1	7.3
2025-01-02 12:18:10.194726	305.2	32.8	-89.3	10.0
2025-01-02 12:18:11.344501	304.8	32.7	-90.1	11.4
2025-01-02 12:18:12.501460	304.4	32.6	-90.3	6.9
2025-01-02 12:18:13.647467	304.0	32.5	-89.9	6.8
2025-01-02 12:18:14.803755	303.7	32.4	-89.9	16.1
2025-01-02 12:18:15.930008	303.3	32.3	-90.3	9.1
2025-01-02 12:18:17.076766	302.9	32.2	-89.6	5.4
2025-01-02 12:18:18.230365	302.5	32.1	-90.1	12.4
2025-01-02 12:18:19.380582	302.2	32.0	-90.3	10.8
2025-01-02 12:18:20.535685	301.8	31.9	-90.0	6.4
2025-01-02 12:18:21.694121	301.4	31.8	-89.6	12.3
2025-01-02 12:18:22.848629	301.1	31.7	-89.7	9.8
2025-01-02 12:18:24.010264	300.7	31.6	-89.3	7.5
2025-01-02 12:18:25.164984	300.3	31.5	-89.1	14.1
2025-01-02 12:18:26.317835	300.0	31.4	-89.6	10.9
2025-01-02 12:18:27.463468	299.6	31.3	-89.3	6.2
2025-01-02 12:18:28.617606	299.3	31.2	-89.7	6.4
2025-01-02 12:18:29.765960	298.9	31.1	-89.7	9.7
2025-01-02 12:18:30.923893	298.6	31.0	-89.6	6.5
2025-01-02 12:18:32.072749	298.2	30.9	-89.0	6.1
2025-01-02 12:18:33.222281	297.9	30.8	-89.2	6.3
2025-01-02 12:18:34.376285	297.6	30.7	-89.4	7.9
2025-01-02 12:18:35.537309	297.2	30.5	-89.9	7.6
2025-01-02 12:18:36.682860	296.9	30.4	-89.8	9.1
2025-01-02 12:18:37.834518	296.5	30.3	-89.9	9.5
2025-01-02 12:18:38.984607	296.2	30.2	-89.4	9.8
2025-01-02 12:18:40.139242	295.9	30.1	-89.6	12.0
2025-01-02 12:18:41.293560	295.6	30.0	-89.7	13.5
2025-01-02 12:18:42.439614	295.2	29.9	-90.1	13.4
2025-01-02 12:18:43.594893	294.9	29.8	-90.0	14.8
2025-01-02 12:18:44.743189	294.6	29.6	-90.1	15.4
2025-01-02 12:18:45.894135	294.3	29.5	-90.0	13.9
2025-01-02 12:18:47.051466	294.0	29.4	-89.7	12.2
2025-01-02 12:18:48.198803	293.6	29.3	-90.0	14.3
2025-01-02 12:18:49.350586	293.3	29.2	-89.4	14.1
2025-01-02 12:18:50.503729	293.0	29.1	-89.9	13.4
2025-01-02 12:18:51.658133	292.7	28.9	-90.1	14.0
2025-01-02 12:18:52.818018	292.4	28.8	-90.3	15.4
2025-01-02 12:18:53.970779	292.1	28.7	-90.1	9.0
2025-01-02 12:18:55.119668	291.8	28.6	-89.9	14.7
2025-01-02 12:18:56.270803	291.5	28.5	-90.3	16.4
2025-01-02 12:18:57.423610	291.2	28.4	-90.5	11.5
2025-01-02 12:18:58.582121	290.9	28.2	-90.2	12.8
2025-01-02 12:18:59.735509	290.6	28.1	-90.6	17.3
2025-01-02 12:19:00.874504	290.3	28.0	-90.7	9.4
2025-01-02 12:19:02.028394	290.1	27.9	-90.3	8.2
2025-01-02 12:19:03.184036	289.8	27.7	-90.3	11.3
2025-01-02 12:19:04.336692	289.5	27.6	-90.4	13.8
2025-01-02 12:19:05.484554	289.2	27.5	-90.7	8.2
2025-01-02 12:19:06.644873	288.9	27.4	-90.8	10.8
2025-01-02 12:19:07.791972	288.7	27.3	-90.8	11.3
2025-01-02 12:19:08.940765	288.4	27.1	-90.3	5.7
2025-01-02 12:19:10.088246	288.1	27.0	-87.4	5.3
2025-01-02 12:19:11.237373	287.8	26.9	-86.9	6.0
2025-01-02 12:19:12.390185	287.6	26.8	-87.0	4.7
2025-01-02 12:19:13.540254	287.3	26.6	-89.7	9.0
2025-01-02 12:19:14.694728	287.0	26.5	-90.1	9.8
2025-01-02 12:19:15.844971	286.8	26.4	-90.5	8.3
2025-01-02 12:19:16.987102	286.5	26.3	-90.5	8.6
2025-01-02 12:19:18.134395	286.3	26.2	-89.7	9.7
2025-01-02 12:19:19.280122	286.0	26.0	-89.9	10.5
2025-01-02 12:19:20.431498	285.8	25.9	-90.1	8.5
2025-01-02 12:19:21.582228	285.5	25.8	-90.2	8.7
2025-01-02 12:19:22.728958	285.3	25.7	-90.1	7.3
2025-01-02 12:19:23.887161	285.0	25.5	-89.9	8.3
2025-01-02 12:19:25.037268	284.8	25.4	-89.3	5.2
2025-01-02 12:19:26.196104	284.5	25.3	-89.3	7.2
2025-01-02 12:19:27.346951	284.3	25.2	-89.3	5.3
2025-01-02 12:19:28.508109	284.0	25.0	-89.8	5.1
2025-01-02 12:19:29.663515	283.8	24.9	-90.1	7.0
2025-01-02 12:19:30.813533	283.6	24.8	-89.8	8.3
2025-01-02 12:19:31.965523	283.3	24.7	-89.9	5.1
2025-01-02 12:19:33.118487	283.1	24.5	-89.2	7.6
2025-01-02 12:19:34.270648	282.9	24.4	-89.4	9.4
2025-01-02 12:19:35.421992	282.6	24.3	-89.3	5.6
2025-01-02 12:19:36.574556	282.4	24.2	-88.4	5.7
2025-01-02 12:19:37.729506	282.2	24.0	-88.9	7.6
2025-01-02 12:19:38.882174	282.0	23.9	-89.0	9.8
2025-01-02 12:19:40.035955	281.7	23.8	-89.3	7.1
2025-01-02 12:19:41.186965	281.5	23.7	-89.7	8.0
2025-01-02 12:19:42.336970	281.3	23.6	-90.5	9.3
2025-01-02 12:19:43.492741	281.1	23.4	-90.8	8.0
2025-01-02 12:19:44.646206	280.9	23.3	-90.9	11.4
2025-01-02 12:19:45.802497	280.7	23.2	-90.3	9.4
2025-01-02 12:19:46.956632	280.4	23.1	-89.9	10.0
2025-01-02 12:19:48.112103	280.2	22.9	-90.4	6.4
2025-01-02 12:19:49.261821	280.0	22.8	-90.4	7.6
2025-01-02 12:19:50.415899	279.8	22.7	-90.6	6.8
2025-01-02 12:19:51.569758	279.6	22.6	-91.1	8.2
2025-01-02 12:19:52.722247	279.4	22.5	-90.5	9.4
2025-01-02 12:19:53.875268	279.2	22.3	-90.3	7.1
2025-01-02 12:19:55.021805	279.0	22.2	-90.0	5.3
2025-01-02 12:19:56.171956	278.8	22.1	-90.5	9.3
2025-01-02 12:19:57.326392	278.6	22.0	-90.6	9.4
2025-01-02 12:19:58.479353	278.4	21.8	-89.7	7.0
2025-01-02 12:19:59.627288	278.2	21.7	-88.8	4.5
2025-01-02 12:20:00.773143	278.0	21.6	-88.8	8.0
2025-01-02 12:20:01.923089	277.8	21.5	-88.6	3.5
2025-01-02 12:20:03.075856	277.7	21.4	-88.3	5.4
2025-01-02 12:20:04.230084	277.5	21.2	-88.2	4.4
2025-01-02 12:20:05.388186	277.3	21.1	-88.8	4.6
2025-01-02 12:20:06.546512	277.1	21.0	-88.6	5.8
2025-01-02 12:20:07.699506	276.9	20.9	-88.8	6.6
2025-01-02 12:20:08.848621	276.7	20.8	-89.1	7.3
2025-01-02 12:20:09.993996	276.5	20.6	-89.8	7.4
2025-01-02 12:20:11.136889	276.4	20.5	-90.0	7.1
2025-01-02 12:20:12.283821	276.2	20.4	-89.9	6.5
2025-01-02 12:20:13.436815	276.0	20.3	-90.2	5.8
2025-01-02 12:20:14.591809	275.8	20.2	-89.4	3.0
2025-01-02 12:20:15.745176	275.7	20.1	-88.9	6.0
2025-01-02 12:20:16.893154	275.5	19.9	-88.9	4.0
2025-01-02 12:20:18.037144	275.3	19.8	-88.7	5.4
2025-01-02 12:20:19.191631	275.1	19.7	-88.7	5.7
2025-01-02 12:20:20.337931	275.0	19.6	-89.0	7.5
2025-01-02 12:20:21.488257	274.8	19.5	-89.6	6.0
2025-01-02 12:20:22.636612	274.6	19.4	-89.8	3.8
2025-01-02 12:20:23.784460	274.5	19.2	-89.5	8.2
2025-01-02 12:20:24.942568	274.3	19.1	-89.6	4.8
2025-01-02 12:20:26.099236	274.2	19.0	-89.4	7.0
2025-01-02 12:20:27.257672	274.0	18.9	-89.3	8.6
2025-01-02 12:20:28.407416	273.8	18.8	-89.8	7.6
2025-01-02 12:20:29.560659	273.7	18.7	-89.5	6.3
2025-01-02 12:20:30.703689	273.5	18.6	-89.6	9.1
2025-01-02 12:20:31.850588	273.4	18.4	-89.6	8.4
2025-01-02 12:20:32.998652	273.2	18.3	-89.5	5.1
2025-01-02 12:20:34.146655	273.1	18.2	-89.5	9.5
2025-01-02 12:20:35.304138	272.9	18.1	-88.8	5.4
2025-01-02 12:20:36.451569	272.7	18.0	-89.3	2.8
2025-01-02 12:20:37.607374	272.6	17.9	-89.3	4.9
2025-01-02 12:20:38.754569	272.4	17.8	-89.6	3.4
2025-01-02 12:20:39.911561	272.3	17.7	-89.4	4.4
2025-01-02 12:20:41.064516	272.2	17.5	-89.0	3.6
2025-01-02 12:20:42.214094	272.0	17.4	-88.8	5.1
2025-01-02 12:20:43.374504	271.9	17.3	-89.0	4.7
2025-01-02 12:20:44.524892	271.7	17.2	-89.1	3.9
2025-01-02 12:20:45.682997	271.6	17.1	-89.4	4.8
2025-01-02 12:20:46.833302	271.4	17.0	-89.3	5.8
2025-01-02 12:20:47.988234	271.3	16.9	-89.5	4.2
2025-01-02 12:20:49.108939	271.2	16.8	-89.6	5.5
2025-01-02 12:20:50.233037	271.0	16.7	-89.6	3.5
2025-01-02 12:20:51.373789	270.9	16.6	-89.6	7.1
2025-01-02 12:20:52.509618	270.7	16.5	-89.7	4.1
2025-01-02 12:20:53.635298	270.6	16.4	-89.6	6.2
2025-01-02 12:20:54.758266	270.5	16.2	-89.5	5.1
2025-01-02 12:20:55.877879	270.3	16.1	-89.0	8.2
2025-01-02 12:20:56.998846	270.2	16.0	-88.6	7.3
2025-01-02 12:20:58.120334	270.1	15.9	-88.2	9.2
2025-01-02 12:20:59.241054	270.0	15.8	-88.7	8.0
2025-01-02 12:21:00.361290	269.8	15.7	-88.6	9.1
2025-01-02 12:21:01.482868	269.7	15.6	-88.5	7.7
2025-01-02 12:21:02.604174	269.6	15.5	-88.5	8.4
2025-01-02 12:21:03.724997	269.5	15.4	-88.7	6.0
2025-01-02 12:21:04.938198	269.3	15.3	-88.9	5.9
2025-01-02 12:21:10.662556	268.7	14.8	-89.6	9.0
2025-01-02 12:21:11.796624	268.6	14.7	-89.6	8.7
2025-01-02 12:21:12.922648	268.5	14.6	-90.1	10.1
#Closed at: 2025-01-02 12:13:17.471436