passes_logs/2025/01/02/LEX_Murmansk/LEX_Murmansk__20250102_103229_NOAA_18_rec.log

#Pass ID: 20250102_103229_NOAA 18
#Satellite: NOAA 18
#Configuration: NOAA 18
#Start time: 2025-01-02 10:32:24.626190

#LorettStation: 1.0.0 05.05.2024
#Station: LEX_Murmansk
#Location: 33.156738 lon 68.926811 lat
#TLE: 1 28654U 05018A   25001.78406204  .00000701  00000+0  39590-3 0  9994
#TLE: 2 28654  98.8586  82.9683 0013729 216.8395 143.1835 14.13472842 11310

#Time	Az	El	Level	SNR
2025-01-02 10:32:36.802971	24.1	16.3	-92.3	10.4
2025-01-02 10:32:39.099409	24.1	16.5	-91.8	5.9
2025-01-02 10:32:41.391424	24.0	16.8	-92.6	6.7
2025-01-02 10:32:43.685879	23.9	17.1	-92.6	5.5
2025-01-02 10:32:45.982538	23.9	17.3	-92.5	2.9
2025-01-02 10:32:48.279992	23.8	17.6	-92.4	12.8
2025-01-02 10:32:50.582258	23.7	17.8	-92.8	11.1
2025-01-02 10:32:52.877916	23.7	18.1	-92.7	11.7
2025-01-02 10:32:55.177129	23.6	18.4	-91.7	15.3
2025-01-02 10:32:57.474620	23.5	18.7	-92.9	6.3
2025-01-02 10:32:59.772959	23.4	18.9	-92.5	9.0
2025-01-02 10:33:02.058775	23.4	19.2	-92.5	10.2
2025-01-02 10:33:04.353941	23.3	19.5	-92.3	12.7
2025-01-02 10:33:06.644250	23.2	19.8	-92.6	11.5
2025-01-02 10:33:08.932196	23.1	20.1	-92.6	8.8
2025-01-02 10:33:11.226918	23.0	20.4	-92.0	12.2
2025-01-02 10:33:13.484074	23.0	20.6	-92.8	8.1
2025-01-02 10:33:15.724689	22.9	20.9	-91.4	6.9
2025-01-02 10:33:17.966151	22.8	21.2	-91.0	6.5
2025-01-02 10:33:20.213308	22.7	21.5	-92.1	11.2
2025-01-02 10:33:22.502177	22.6	21.8	-92.7	8.2
2025-01-02 10:33:24.788482	22.5	22.1	-92.6	9.8
2025-01-02 10:33:27.074263	22.4	22.5	-92.7	7.7
2025-01-02 10:33:29.369546	22.3	22.8	-92.1	12.2
2025-01-02 10:33:31.659135	22.2	23.1	-93.0	5.9
2025-01-02 10:33:33.922864	22.1	23.4	-92.4	14.3
2025-01-02 10:33:36.202921	22.0	23.8	-92.0	6.7
2025-01-02 10:33:38.488141	21.9	24.1	-91.8	6.2
2025-01-02 10:33:40.774757	21.8	24.4	-92.0	18.7
2025-01-02 10:33:43.065469	21.7	24.8	-92.3	20.7
2025-01-02 10:33:45.352830	21.5	25.1	-91.8	14.4
2025-01-02 10:33:47.649716	21.4	25.5	-92.3	5.8
2025-01-02 10:33:49.943671	21.3	25.8	-92.7	12.1
2025-01-02 10:33:52.236988	21.2	26.2	-92.3	12.7
2025-01-02 10:33:54.536345	21.0	26.6	-92.6	11.5
2025-01-02 10:33:56.823909	20.9	26.9	-92.8	11.0
2025-01-02 10:33:59.122174	20.8	27.3	-92.2	12.3
2025-01-02 10:34:01.409853	20.6	27.7	-92.6	10.5
2025-01-02 10:34:03.714005	20.5	28.1	-92.7	4.4
2025-01-02 10:34:06.009685	20.3	28.5	-92.9	5.0
2025-01-02 10:34:08.304379	20.2	28.9	-92.0	12.7
2025-01-02 10:34:10.597288	20.0	29.3	-92.4	14.3
2025-01-02 10:34:12.893034	19.9	29.7	-92.5	17.2
2025-01-02 10:34:15.188679	19.7	30.1	-92.0	11.3
2025-01-02 10:34:17.485051	19.5	30.5	-92.8	13.9
2025-01-02 10:34:19.774909	19.4	30.9	-92.5	12.6
2025-01-02 10:34:22.075132	19.2	31.4	-92.2	4.3
2025-01-02 10:34:24.365449	19.0	31.8	-92.3	9.6
2025-01-02 10:34:26.653035	18.8	32.2	-92.9	17.5
2025-01-02 10:34:28.926788	18.6	32.7	-92.7	10.1
2025-01-02 10:34:31.169717	18.4	33.1	-92.0	13.0
2025-01-02 10:34:33.411364	18.2	33.6	-92.9	8.8
2025-01-02 10:34:35.652019	18.0	34.1	-93.1	12.0
2025-01-02 10:34:37.910762	17.8	34.5	-92.7	15.2
2025-01-02 10:34:40.196791	17.6	35.0	-92.5	8.5
2025-01-02 10:34:42.489383	17.4	35.5	-93.0	12.8
2025-01-02 10:34:44.787354	17.1	36.0	-92.7	13.9
2025-01-02 10:34:47.083344	16.9	36.5	-92.7	12.1
2025-01-02 10:34:49.384798	16.6	37.0	-92.8	19.3
2025-01-02 10:34:51.680722	16.4	37.5	-91.1	15.5
2025-01-02 10:34:53.974928	16.1	38.0	-91.8	13.9
2025-01-02 10:34:56.268143	15.8	38.6	-92.1	13.2
2025-01-02 10:34:58.563292	15.5	39.1	-92.9	5.7
2025-01-02 10:35:00.849821	15.2	39.7	-92.9	22.3
2025-01-02 10:35:03.153699	14.9	40.2	-92.2	17.9
2025-01-02 10:35:05.440527	14.6	40.8	-93.0	18.1
2025-01-02 10:35:07.737890	14.3	41.3	-93.2	18.4
2025-01-02 10:35:10.028795	13.9	41.9	-92.9	16.3
2025-01-02 10:35:12.328878	13.6	42.5	-92.7	17.9
2025-01-02 10:35:14.616305	13.2	43.1	-92.9	11.3
2025-01-02 10:35:16.909790	12.8	43.7	-92.6	18.8
2025-01-02 10:35:19.211327	12.4	44.3	-92.3	18.3
2025-01-02 10:35:21.506037	12.0	44.9	-92.5	17.4
2025-01-02 10:35:23.803094	11.5	45.6	-92.7	19.7
2025-01-02 10:35:26.109730	11.1	46.2	-92.4	16.4
2025-01-02 10:35:28.417198	10.6	46.8	-92.1	18.0
2025-01-02 10:35:30.710667	10.1	47.5	-92.4	16.6
2025-01-02 10:35:33.001141	9.6	48.2	-92.7	20.2
2025-01-02 10:35:35.295247	9.1	48.8	-92.0	16.5
2025-01-02 10:35:37.590673	8.5	49.5	-92.4	9.6
2025-01-02 10:35:39.883501	7.9	50.2	-93.0	13.8
2025-01-02 10:35:42.148544	7.3	50.8	-92.4	7.8
2025-01-02 10:35:44.390008	6.7	51.5	-92.2	15.7
2025-01-02 10:35:46.631209	6.0	52.2	-92.6	18.4
2025-01-02 10:35:48.876869	5.3	52.9	-93.1	18.7
2025-01-02 10:35:51.154811	4.6	53.6	-92.5	4.3
2025-01-02 10:35:53.447268	3.8	54.3	-92.8	6.8
2025-01-02 10:35:55.736256	3.0	55.0	-91.4	9.6
2025-01-02 10:35:58.031522	2.2	55.7	-91.3	13.5
2025-01-02 10:36:00.321424	1.2	56.5	-92.3	12.8
2025-01-02 10:36:02.619430	0.3	57.2	-92.5	4.0
2025-01-02 10:36:04.902493	359.3	57.9	-92.6	7.0
2025-01-02 10:36:07.193963	358.2	58.6	-92.4	13.7
2025-01-02 10:36:09.494659	357.1	59.4	-92.6	19.0
2025-01-02 10:36:11.791876	355.9	60.1	-92.9	21.7
2025-01-02 10:36:14.093430	354.6	60.8	-92.2	16.5
2025-01-02 10:36:16.391551	353.3	61.5	-92.4	17.8
2025-01-02 10:36:18.693282	351.9	62.2	-92.8	15.4
2025-01-02 10:36:20.985053	350.4	62.9	-93.1	22.3
2025-01-02 10:36:23.283133	348.8	63.6	-92.2	20.6
2025-01-02 10:36:25.572950	347.1	64.3	-92.7	23.5
2025-01-02 10:36:27.872025	345.3	65.0	-93.4	15.8
2025-01-02 10:36:30.170203	343.4	65.6	-92.5	12.6
2025-01-02 10:36:32.468090	341.4	66.2	-92.8	13.2
2025-01-02 10:36:34.763460	339.3	66.8	-92.6	20.1
2025-01-02 10:36:37.062592	337.0	67.4	-92.6	10.2
2025-01-02 10:36:39.355064	334.7	68.0	-92.3	8.6
2025-01-02 10:36:41.649814	332.2	68.5	-92.6	10.8
2025-01-02 10:36:43.943063	329.6	68.9	-93.0	11.1
2025-01-02 10:36:46.230926	326.8	69.4	-92.5	13.7
2025-01-02 10:36:48.531126	323.9	69.8	-92.6	13.0
2025-01-02 10:36:50.824951	321.0	70.1	-93.4	13.0
2025-01-02 10:36:53.120773	317.9	70.4	-92.7	10.5
2025-01-02 10:36:55.413070	314.7	70.6	-92.8	11.0
2025-01-02 10:36:57.699525	311.5	70.8	-93.3	14.0
2025-01-02 10:36:59.944494	308.2	70.9	-91.7	12.8
2025-01-02 10:37:02.186150	305.0	71.0	-91.4	16.0
2025-01-02 10:37:04.433288	301.7	71.0	-92.9	20.0
2025-01-02 10:37:06.703840	298.4	70.9	-93.2	21.0
2025-01-02 10:37:09.000966	295.1	70.8	-93.3	18.3
2025-01-02 10:37:11.289723	291.9	70.6	-92.5	23.6
2025-01-02 10:37:13.577512	288.7	70.4	-93.1	24.2
2025-01-02 10:37:15.868636	285.7	70.1	-92.8	25.6
2025-01-02 10:37:18.169352	282.7	69.7	-92.2	23.1
2025-01-02 10:37:20.462637	279.8	69.3	-93.2	25.0
2025-01-02 10:37:22.751860	277.1	68.9	-92.9	25.5
2025-01-02 10:37:25.047962	274.5	68.4	-92.6	27.2
2025-01-02 10:37:27.333274	272.0	67.9	-92.3	25.8
2025-01-02 10:37:29.613317	269.6	67.4	-92.8	26.7
2025-01-02 10:37:31.888944	267.4	66.8	-92.8	24.5
2025-01-02 10:37:34.162124	265.3	66.2	-92.1	24.8
2025-01-02 10:37:36.443549	263.3	65.6	-92.7	24.7
2025-01-02 10:37:38.740832	261.4	64.9	-92.8	25.0
2025-01-02 10:37:41.029930	259.6	64.3	-92.8	25.2
2025-01-02 10:37:43.323452	257.9	63.6	-92.2	20.2
2025-01-02 10:37:45.615134	256.4	62.9	-93.6	24.0
2025-01-02 10:37:47.908868	254.9	62.2	-93.1	24.9
2025-01-02 10:37:50.203630	253.4	61.5	-92.4	21.6
2025-01-02 10:37:52.494430	252.1	60.8	-93.0	19.4
2025-01-02 10:37:54.787715	250.9	60.0	-92.8	20.5
2025-01-02 10:37:57.089141	249.7	59.3	-92.9	15.4
2025-01-02 10:37:59.382358	248.5	58.6	-93.0	13.7
2025-01-02 10:38:01.666901	247.5	57.9	-93.2	12.0
2025-01-02 10:38:03.969579	246.5	57.1	-93.3	10.9
2025-01-02 10:38:06.272523	245.5	56.4	-92.6	12.6
2025-01-02 10:38:08.562423	244.6	55.7	-93.0	8.5
2025-01-02 10:38:10.851412	243.7	54.9	-93.2	17.8
2025-01-02 10:38:13.119349	242.9	54.2	-92.7	13.7
2025-01-02 10:38:15.360763	242.2	53.5	-92.9	16.6
2025-01-02 10:38:17.603436	241.5	52.8	-93.5	10.9
2025-01-02 10:38:19.850061	240.8	52.1	-93.5	13.7
2025-01-02 10:38:22.130323	240.1	51.4	-92.8	8.9
2025-01-02 10:38:24.422124	239.5	50.7	-92.9	12.9
2025-01-02 10:38:26.703827	238.8	50.1	-93.4	9.4
2025-01-02 10:38:29.003356	238.3	49.4	-92.9	4.5
2025-01-02 10:38:31.297277	237.7	48.7	-92.9	7.8
2025-01-02 10:38:33.595019	237.2	48.0	-92.1	4.9
2025-01-02 10:38:35.883738	236.6	47.4	-92.1	6.1
2025-01-02 10:38:38.176954	236.1	46.7	-93.1	5.2
2025-01-02 10:38:40.481442	235.7	46.1	-93.4	7.7
2025-01-02 10:38:42.776959	235.2	45.4	-93.1	13.3
2025-01-02 10:38:45.074925	234.8	44.8	-92.6	11.4
2025-01-02 10:38:47.362165	234.4	44.2	-92.8	12.0
2025-01-02 10:38:49.649963	234.0	43.6	-93.1	12.7
2025-01-02 10:38:51.922125	233.6	43.0	-93.0	6.1
2025-01-02 10:38:54.196307	233.2	42.4	-92.4	9.7
2025-01-02 10:38:56.471974	232.9	41.8	-92.8	10.5
2025-01-02 10:38:58.762405	232.5	41.2	-93.5	15.3
2025-01-02 10:39:01.051523	232.2	40.6	-93.7	10.3
2025-01-02 10:39:03.344063	231.9	40.1	-92.6	17.2
2025-01-02 10:39:05.642665	231.5	39.5	-93.3	13.5
2025-01-02 10:39:07.942175	231.2	39.0	-92.9	17.8
2025-01-02 10:39:10.244853	231.0	38.4	-92.7	19.5
2025-01-02 10:39:12.549160	230.7	37.9	-92.5	18.4
2025-01-02 10:39:14.848202	230.4	37.4	-93.4	19.6
2025-01-02 10:39:17.139110	230.1	36.8	-92.6	14.4
2025-01-02 10:39:19.433465	229.9	36.3	-92.8	17.3
2025-01-02 10:39:21.737156	229.6	35.8	-93.0	20.1
2025-01-02 10:39:24.027724	229.4	35.3	-93.0	13.8
2025-01-02 10:39:26.321191	229.2	34.8	-92.8	17.9
2025-01-02 10:39:28.616324	228.9	34.3	-93.0	18.8
2025-01-02 10:39:30.920725	228.7	33.9	-93.3	19.6
2025-01-02 10:39:33.213218	228.5	33.4	-92.6	17.8
2025-01-02 10:39:35.486767	228.3	32.9	-93.3	10.7
2025-01-02 10:39:37.728288	228.1	32.5	-93.3	13.7
2025-01-02 10:39:39.970261	227.9	32.0	-93.0	10.4
2025-01-02 10:39:42.216028	227.7	31.6	-92.6	15.0
2025-01-02 10:39:44.484082	227.6	31.2	-93.3	16.0
2025-01-02 10:39:46.776023	227.4	30.7	-93.3	16.6
2025-01-02 10:39:49.063102	227.2	30.3	-92.5	10.4
2025-01-02 10:39:51.353360	227.0	29.9	-92.8	9.0
2025-01-02 10:39:53.656956	226.9	29.5	-92.9	5.9
2025-01-02 10:39:55.949731	226.7	29.1	-92.6	7.8
2025-01-02 10:39:58.237196	226.6	28.7	-92.4	5.6
2025-01-02 10:40:00.532738	226.4	28.3	-92.7	2.3
2025-01-02 10:40:02.829721	226.3	27.9	-93.3	5.3
2025-01-02 10:40:05.129111	226.1	27.5	-93.0	4.0
2025-01-02 10:40:07.419834	226.0	27.1	-92.8	2.6
2025-01-02 10:40:09.710735	225.8	26.7	-93.4	3.9
2025-01-02 10:40:12.011613	225.7	26.3	-91.8	5.7
2025-01-02 10:40:14.299502	225.6	26.0	-91.4	2.5
2025-01-02 10:40:16.598608	225.4	25.6	-93.3	6.1
2025-01-02 10:40:18.892843	225.3	25.3	-93.2	9.2
2025-01-02 10:40:21.183887	225.2	24.9	-92.6	8.7
2025-01-02 10:40:23.475233	225.1	24.6	-93.0	8.0
2025-01-02 10:40:25.778149	225.0	24.2	-93.4	13.0
2025-01-02 10:40:28.073546	224.9	23.9	-93.0	8.9
2025-01-02 10:40:30.374183	224.7	23.5	-92.6	11.3
2025-01-02 10:40:32.661615	224.6	23.2	-93.4	11.8
2025-01-02 10:40:34.960818	224.5	22.9	-93.1	10.4
2025-01-02 10:40:37.255371	224.4	22.5	-92.3	11.6
2025-01-02 10:40:39.556470	224.3	22.2	-92.8	9.7
2025-01-02 10:40:41.848400	224.2	21.9	-93.2	13.2
2025-01-02 10:40:44.142806	224.1	21.6	-92.9	13.2
2025-01-02 10:40:46.436215	224.0	21.3	-92.6	14.3
2025-01-02 10:40:48.727434	223.9	21.0	-92.8	14.9
2025-01-02 10:40:51.028537	223.8	20.7	-93.2	10.8
2025-01-02 10:40:53.317360	223.8	20.4	-92.5	11.4
2025-01-02 10:40:55.611904	223.7	20.1	-93.4	12.3
2025-01-02 10:40:57.905519	223.6	19.8	-93.0	11.8
2025-01-02 10:41:00.202040	223.5	19.5	-92.2	13.8
2025-01-02 10:41:02.500670	223.4	19.2	-93.2	9.9
2025-01-02 10:41:04.796631	223.3	18.9	-93.0	14.9
2025-01-02 10:41:07.091239	223.3	18.6	-92.6	7.7
2025-01-02 10:41:09.387000	223.2	18.4	-92.4	9.4
2025-01-02 10:41:11.684495	223.1	18.1	-93.3	11.7
2025-01-02 10:41:13.987428	223.0	17.8	-93.3	13.6
2025-01-02 10:41:16.280368	223.0	17.6	-91.2	11.5
2025-01-02 10:41:18.582633	222.9	17.3	-91.9	10.5
2025-01-02 10:41:20.872862	222.8	17.0	-93.5	12.8
2025-01-02 10:41:23.152647	222.8	16.8	-92.9	9.9
2025-01-02 10:41:25.442034	222.7	16.5	-93.2	11.3
2025-01-02 10:41:27.739589	222.6	16.3	-93.8	13.1
2025-01-02 10:41:30.039597	222.6	16.0	-93.5	9.9
2025-01-02 10:41:32.333253	222.5	15.8	-93.0	8.4
2025-01-02 10:41:34.620463	222.4	15.5	-93.4	6.1
2025-01-02 10:41:36.913605	222.4	15.3	-93.3	10.7
2025-01-02 10:41:39.209431	222.3	15.0	-92.6	9.0
2025-01-02 10:41:41.505533	222.2	14.8	-93.0	6.1
2025-01-02 10:41:43.804909	222.2	14.5	-93.6	8.3
#Closed at: 2025-01-02 10:32:29.608982