passes_logs/2025/01/02/LEX_Murmansk/LEX_Murmansk__20250102_150404_NOAA_19_rec.log

#Pass ID: 20250102_150404_NOAA 19
#Satellite: NOAA 19
#Configuration: NOAA 19
#Start time: 2025-01-02 15:03:59.124969

#LorettStation: 1.0.0 05.05.2024
#Station: LEX_Murmansk
#Location: 33.156738 lon 68.926811 lat
#TLE: 1 33591U 09005A   25001.83569820  .00001454  00000+0  79919-3 0  9995
#TLE: 2 33591  99.0217  65.4951 0014707  92.5482 267.7374 14.13252981819684

#Time	Az	El	Level	SNR
2025-01-02 15:04:15.777784	76.3	16.4	-91.3	2.7
2025-01-02 15:04:16.938467	76.1	16.5	-91.2	4.6
2025-01-02 15:04:18.099417	76.0	16.6	-91.8	4.0
2025-01-02 15:04:19.258764	75.8	16.7	-91.7	2.1
2025-01-02 15:04:20.418226	75.6	16.8	-91.9	8.2
2025-01-02 15:04:21.582630	75.5	16.9	-92.2	7.1
2025-01-02 15:04:22.747817	75.3	17.0	-92.2	11.6
2025-01-02 15:04:23.913737	75.1	17.2	-92.0	9.7
2025-01-02 15:04:25.078710	75.0	17.3	-91.6	14.5
2025-01-02 15:04:26.241810	74.8	17.4	-91.5	5.7
2025-01-02 15:04:27.407598	74.6	17.5	-91.7	6.7
2025-01-02 15:04:28.573329	74.5	17.6	-92.1	14.8
2025-01-02 15:04:29.739400	74.3	17.7	-92.0	12.8
2025-01-02 15:04:30.900718	74.1	17.8	-91.6	2.0
2025-01-02 15:04:32.053726	73.9	17.9	-91.3	13.7
2025-01-02 15:04:33.220044	73.8	18.0	-91.0	0.5
2025-01-02 15:04:34.376541	73.6	18.1	-92.0	2.7
2025-01-02 15:04:35.540481	73.4	18.2	-92.1	4.0
2025-01-02 15:04:36.704215	73.2	18.3	-92.0	4.3
2025-01-02 15:04:37.868565	73.0	18.4	-91.9	5.5
2025-01-02 15:04:39.024067	72.9	18.5	-92.3	10.1
2025-01-02 15:04:40.186611	72.7	18.6	-91.8	14.6
2025-01-02 15:04:41.344015	72.5	18.7	-91.5	12.0
2025-01-02 15:04:42.507302	72.3	18.8	-92.0	11.4
2025-01-02 15:04:43.669308	72.1	18.9	-91.5	8.3
2025-01-02 15:04:44.838413	71.9	19.0	-91.8	3.1
2025-01-02 15:04:46.009062	71.7	19.1	-91.7	7.8
2025-01-02 15:04:47.171588	71.5	19.2	-91.1	10.8
2025-01-02 15:04:48.332963	71.3	19.3	-91.0	14.7
2025-01-02 15:04:49.497632	71.1	19.5	-91.5	15.1
2025-01-02 15:04:50.659763	70.9	19.6	-91.8	6.5
2025-01-02 15:04:51.817457	70.8	19.7	-91.5	2.7
2025-01-02 15:04:52.986365	70.5	19.8	-91.5	4.9
2025-01-02 15:04:54.145059	70.3	19.9	-90.6	2.3
2025-01-02 15:04:55.306172	70.1	20.0	-91.0	2.0
2025-01-02 15:04:56.472356	69.9	20.1	-92.4	5.1
2025-01-02 15:04:57.632036	69.7	20.2	-92.3	4.9
2025-01-02 15:04:58.798469	69.5	20.3	-92.2	8.1
2025-01-02 15:04:59.959381	69.3	20.4	-92.0	12.7
2025-01-02 15:05:01.113441	69.1	20.5	-91.6	15.5
2025-01-02 15:05:02.274291	68.9	20.6	-91.6	8.8
2025-01-02 15:05:03.443453	68.7	20.7	-91.9	11.4
2025-01-02 15:05:04.603347	68.5	20.8	-92.0	8.1
2025-01-02 15:05:05.764908	68.3	20.9	-91.9	3.6
2025-01-02 15:05:06.929291	68.0	21.0	-92.0	7.6
2025-01-02 15:05:08.095721	67.8	21.2	-92.1	10.1
2025-01-02 15:05:09.258745	67.6	21.3	-92.0	6.5
2025-01-02 15:05:10.421711	67.4	21.4	-92.3	11.3
2025-01-02 15:05:11.578982	67.2	21.5	-92.4	16.0
2025-01-02 15:05:12.736396	66.9	21.6	-92.5	10.0
2025-01-02 15:05:13.900232	66.7	21.7	-92.4	9.4
2025-01-02 15:05:15.061882	66.5	21.8	-92.0	5.3
2025-01-02 15:05:16.227531	66.3	21.9	-91.9	3.6
2025-01-02 15:05:17.392862	66.0	22.0	-91.6	4.5
2025-01-02 15:05:18.561232	65.8	22.1	-92.4	4.2
2025-01-02 15:05:19.722977	65.6	22.2	-92.0	6.2
2025-01-02 15:05:20.890457	65.3	22.3	-92.4	10.4
2025-01-02 15:05:22.051711	65.1	22.4	-92.0	10.4
2025-01-02 15:05:23.221146	64.8	22.5	-91.9	9.0
2025-01-02 15:05:24.384795	64.6	22.6	-91.6	12.4
2025-01-02 15:05:25.548679	64.4	22.8	-91.6	8.8
2025-01-02 15:05:26.718727	64.1	22.9	-91.9	5.5
2025-01-02 15:05:27.882530	63.9	23.0	-91.7	7.8
2025-01-02 15:05:29.045559	63.6	23.1	-91.5	12.2
2025-01-02 15:05:30.213351	63.4	23.2	-91.5	7.5
2025-01-02 15:05:31.377092	63.1	23.3	-91.5	13.1
2025-01-02 15:05:32.541755	62.9	23.4	-91.5	9.5
2025-01-02 15:05:33.706022	62.6	23.5	-91.6	7.6
2025-01-02 15:05:34.870085	62.4	23.6	-92.2	13.5
2025-01-02 15:05:36.035395	62.1	23.7	-92.5	6.7
2025-01-02 15:05:37.204352	61.8	23.8	-92.4	4.0
2025-01-02 15:05:38.402422	61.6	23.9	-92.0	3.2
2025-01-02 15:05:39.565618	61.3	24.0	-92.2	3.0
2025-01-02 15:05:40.732700	61.0	24.1	-92.3	2.6
2025-01-02 15:05:41.903063	60.8	24.2	-92.1	2.6
2025-01-02 15:05:43.066708	60.5	24.3	-92.0	8.6
2025-01-02 15:05:44.233411	60.2	24.4	-91.9	8.6
2025-01-02 15:05:45.397927	60.0	24.5	-92.1	10.2
2025-01-02 15:05:46.558767	59.7	24.6	-91.9	6.9
2025-01-02 15:05:47.720666	59.4	24.7	-92.2	6.8
2025-01-02 15:05:48.885540	59.1	24.8	-92.2	9.0
2025-01-02 15:05:50.056992	58.8	24.9	-92.0	7.5
2025-01-02 15:05:51.218774	58.6	25.0	-92.1	5.2
2025-01-02 15:05:52.382318	58.3	25.1	-92.5	4.5
2025-01-02 15:05:53.540267	58.0	25.2	-92.7	4.6
2025-01-02 15:05:54.705501	57.7	25.3	-92.6	9.1
2025-01-02 15:05:55.870553	57.4	25.4	-92.4	10.4
2025-01-02 15:05:57.042305	57.1	25.5	-92.3	12.0
2025-01-02 15:05:58.204575	56.8	25.6	-91.9	10.7
2025-01-02 15:05:59.373464	56.5	25.7	-92.1	9.3
2025-01-02 15:06:00.527006	56.3	25.8	-91.9	3.2
2025-01-02 15:06:01.687333	56.0	25.9	-92.5	4.3
2025-01-02 15:06:02.852857	55.7	26.0	-92.0	3.6
2025-01-02 15:06:04.014489	55.4	26.1	-91.6	5.1
2025-01-02 15:06:05.182509	55.1	26.2	-91.5	1.2
2025-01-02 15:06:06.348336	54.7	26.3	-91.6	2.1
2025-01-02 15:06:07.516681	54.4	26.4	-91.8	2.6
2025-01-02 15:06:08.681479	54.1	26.5	-91.8	2.6
2025-01-02 15:06:09.842520	53.8	26.6	-92.0	8.1
2025-01-02 15:06:11.009948	53.5	26.7	-92.4	4.0
2025-01-02 15:06:12.172278	53.2	26.8	-91.8	4.9
2025-01-02 15:06:13.340611	52.9	26.9	-91.7	5.4
2025-01-02 15:06:14.493679	52.6	26.9	-92.1	1.1
2025-01-02 15:06:15.624698	52.3	27.0	-92.3	2.5
2025-01-02 15:06:16.781504	51.9	27.1	-92.2	3.0
2025-01-02 15:06:17.949842	51.6	27.2	-92.0	3.8
2025-01-02 15:06:19.109210	51.3	27.3	-91.9	3.3
2025-01-02 15:06:20.278346	51.0	27.4	-91.7	2.4
2025-01-02 15:06:21.444231	50.6	27.5	-92.3	4.5
2025-01-02 15:06:22.609147	50.3	27.6	-91.9	6.7
2025-01-02 15:06:23.767719	50.0	27.6	-92.0	1.7
2025-01-02 15:06:24.932245	49.6	27.7	-91.3	4.2
2025-01-02 15:06:26.096900	49.3	27.8	-91.2	4.1
2025-01-02 15:06:27.259993	49.0	27.9	-91.3	6.4
2025-01-02 15:06:28.426012	48.6	28.0	-91.5	3.0
2025-01-02 15:06:29.589566	48.3	28.0	-92.3	4.5
2025-01-02 15:06:30.751222	47.9	28.1	-92.0	3.2
2025-01-02 15:06:31.911327	47.6	28.2	-92.3	4.1
2025-01-02 15:06:33.076422	47.3	28.3	-91.9	3.6
2025-01-02 15:06:34.241782	46.9	28.4	-91.9	2.8
2025-01-02 15:06:35.403497	46.6	28.4	-92.2	2.9
2025-01-02 15:06:36.569070	46.2	28.5	-91.9	3.6
2025-01-02 15:06:37.730495	45.9	28.6	-92.0	3.0
2025-01-02 15:06:38.888746	45.5	28.7	-91.6	4.5
2025-01-02 15:06:40.050310	45.2	28.7	-91.5	5.2
2025-01-02 15:06:41.224745	44.8	28.8	-91.7	7.0
2025-01-02 15:06:42.392194	44.4	28.9	-91.9	7.2
2025-01-02 15:06:43.551527	44.1	28.9	-91.9	10.6
2025-01-02 15:06:44.717228	43.7	29.0	-91.5	11.7
2025-01-02 15:06:45.880746	43.4	29.1	-92.0	5.2
2025-01-02 15:06:47.046163	43.0	29.1	-92.2	8.8
2025-01-02 15:06:48.209812	42.6	29.2	-91.6	6.6
2025-01-02 15:06:49.372400	42.3	29.3	-91.8	5.2
2025-01-02 15:06:50.528967	41.9	29.3	-91.9	4.4
2025-01-02 15:06:51.692426	41.5	29.4	-91.8	2.9
2025-01-02 15:06:52.851344	41.1	29.4	-91.9	1.7
2025-01-02 15:06:54.015414	40.8	29.5	-91.8	5.0
2025-01-02 15:06:55.185391	40.4	29.5	-91.4	5.3
2025-01-02 15:06:56.350344	40.0	29.6	-91.5	3.0
2025-01-02 15:06:57.519729	39.6	29.7	-91.9	10.1
2025-01-02 15:06:58.683637	39.3	29.7	-92.2	12.6
2025-01-02 15:06:59.849127	38.9	29.8	-92.4	12.5
2025-01-02 15:07:00.999053	38.5	29.8	-92.1	11.0
2025-01-02 15:07:02.159900	38.1	29.9	-92.3	12.3
2025-01-02 15:07:03.325422	37.8	29.9	-91.9	7.9
2025-01-02 15:07:04.488256	37.4	29.9	-92.2	9.8
2025-01-02 15:07:05.655307	37.0	30.0	-92.6	10.4
2025-01-02 15:07:06.820572	36.6	30.0	-92.4	7.4
2025-01-02 15:07:07.981406	36.2	30.1	-92.6	3.1
2025-01-02 15:07:09.144204	35.8	30.1	-92.3	6.5
2025-01-02 15:07:10.317188	35.4	30.2	-92.5	4.8
2025-01-02 15:07:11.480977	35.0	30.2	-92.1	3.1
2025-01-02 15:07:12.646779	34.7	30.2	-92.0	4.6
2025-01-02 15:07:13.809358	34.3	30.3	-91.9	3.3
2025-01-02 15:07:14.973776	33.9	30.3	-92.0	3.4
2025-01-02 15:07:16.137368	33.5	30.3	-91.8	3.9
2025-01-02 15:07:17.302312	33.1	30.4	-91.7	3.3
2025-01-02 15:07:18.467107	32.7	30.4	-92.2	5.8
2025-01-02 15:07:19.630612	32.3	30.4	-92.3	5.1
2025-01-02 15:07:20.806018	31.9	30.4	-92.6	6.6
2025-01-02 15:07:21.965374	31.5	30.5	-92.3	7.7
2025-01-02 15:07:23.128039	31.1	30.5	-92.2	6.6
2025-01-02 15:07:24.296994	30.7	30.5	-92.2	7.4
2025-01-02 15:07:25.462389	30.3	30.5	-92.1	10.3
2025-01-02 15:07:26.627266	29.9	30.5	-92.4	8.5
2025-01-02 15:07:27.792961	29.5	30.5	-92.7	9.2
2025-01-02 15:07:28.956433	29.1	30.6	-92.6	13.2
2025-01-02 15:07:30.115828	28.7	30.6	-92.1	11.3
2025-01-02 15:07:31.273810	28.3	30.6	-92.2	4.9
2025-01-02 15:07:32.408446	27.9	30.6	-92.3	4.0
2025-01-02 15:07:33.529024	27.5	30.6	-92.2	3.7
2025-01-02 15:07:34.650486	27.2	30.6	-92.3	6.6
2025-01-02 15:07:35.771126	26.8	30.6	-92.3	4.6
2025-01-02 15:07:36.891711	26.4	30.6	-92.0	6.9
2025-01-02 15:07:38.012654	26.0	30.6	-92.3	7.5
2025-01-02 15:07:39.134615	25.6	30.6	-92.3	6.1
2025-01-02 15:07:40.258188	25.2	30.6	-91.3	4.2
2025-01-02 15:07:41.412729	24.8	30.6	-92.3	5.0
2025-01-02 15:07:42.573608	24.4	30.6	-92.2	2.3
2025-01-02 15:07:43.726639	24.0	30.6	-92.2	1.8
2025-01-02 15:07:44.889310	23.6	30.6	-92.2	2.1
2025-01-02 15:07:46.042131	23.2	30.6	-92.2	4.1
2025-01-02 15:07:47.203134	22.8	30.6	-92.1	5.2
2025-01-02 15:07:48.367003	22.4	30.6	-92.0	1.9
2025-01-02 15:07:49.542378	22.0	30.6	-92.2	7.6
2025-01-02 15:07:50.699716	21.6	30.5	-92.3	4.4
2025-01-02 15:07:51.861940	21.2	30.5	-92.1	4.5
2025-01-02 15:07:53.018286	20.8	30.5	-92.5	7.1
2025-01-02 15:07:54.183594	20.5	30.5	-92.3	5.3
2025-01-02 15:07:55.347391	20.1	30.5	-92.3	4.4
2025-01-02 15:07:56.507039	19.7	30.4	-92.3	8.4
2025-01-02 15:07:57.676010	19.3	30.4	-92.3	5.9
2025-01-02 15:07:58.827662	18.9	30.4	-92.7	7.1
2025-01-02 15:07:59.984259	18.5	30.4	-92.4	8.2
2025-01-02 15:08:01.112835	18.1	30.3	-91.9	10.5
2025-01-02 15:08:02.258833	17.7	30.3	-92.3	6.2
2025-01-02 15:08:03.407430	17.3	30.3	-92.0	7.0
2025-01-02 15:08:04.559973	16.9	30.2	-92.3	7.9
2025-01-02 15:08:05.716770	16.5	30.2	-92.1	8.0
2025-01-02 15:08:06.875509	16.2	30.2	-92.0	7.4
2025-01-02 15:08:08.034067	15.8	30.1	-92.4	12.5
2025-01-02 15:08:09.191193	15.4	30.1	-92.0	7.7
2025-01-02 15:08:10.357903	15.0	30.1	-91.9	9.9
2025-01-02 15:08:11.519980	14.6	30.0	-92.1	9.3
2025-01-02 15:08:12.680086	14.2	30.0	-91.9	11.7
2025-01-02 15:08:13.842221	13.8	29.9	-92.4	11.2
2025-01-02 15:08:15.018634	13.5	29.9	-92.1	8.1
2025-01-02 15:08:16.183508	13.1	29.8	-91.8	10.9
2025-01-02 15:08:17.343015	12.7	29.8	-92.1	10.3
2025-01-02 15:08:18.502310	12.3	29.7	-92.4	8.2
2025-01-02 15:08:19.664156	11.9	29.7	-92.2	10.0
2025-01-02 15:08:20.829812	11.6	29.6	-92.2	8.2
2025-01-02 15:08:21.989407	11.2	29.6	-92.2	7.9
2025-01-02 15:08:23.152288	10.8	29.5	-91.9	4.8
2025-01-02 15:08:24.316293	10.4	29.5	-92.0	4.9
2025-01-02 15:08:25.479756	10.1	29.4	-92.4	4.5
2025-01-02 15:08:26.645124	9.7	29.3	-92.6	2.8
2025-01-02 15:08:27.809569	9.3	29.3	-92.4	3.3
2025-01-02 15:08:28.974847	9.0	29.2	-92.4	5.9
2025-01-02 15:08:30.137927	8.6	29.2	-92.3	7.2
2025-01-02 15:08:31.298046	8.2	29.1	-92.2	5.9
2025-01-02 15:08:32.457993	7.9	29.0	-92.5	6.9
2025-01-02 15:08:33.623075	7.5	29.0	-92.4	6.8
2025-01-02 15:08:34.781744	7.2	28.9	-92.2	7.9
2025-01-02 15:08:35.947051	6.8	28.8	-92.4	7.4
2025-01-02 15:08:37.068299	6.4	28.8	-92.0	5.7
2025-01-02 15:08:38.189548	6.1	28.7	-92.6	5.5
2025-01-02 15:08:39.310069	5.8	28.6	-92.1	5.0
2025-01-02 15:08:40.435177	5.4	28.6	-92.9	3.2
2025-01-02 15:08:41.556320	5.1	28.5	-92.6	2.9
2025-01-02 15:08:42.677533	4.7	28.4	-92.7	4.5
2025-01-02 15:08:43.803935	4.4	28.3	-92.5	6.8
2025-01-02 15:08:44.930914	4.1	28.3	-92.2	5.0
2025-01-02 15:08:46.085362	3.7	28.2	-92.1	8.8
2025-01-02 15:08:47.246262	3.4	28.1	-92.1	10.0
2025-01-02 15:08:48.422263	3.0	28.0	-91.9	8.0
2025-01-02 15:08:49.575420	2.7	28.0	-92.2	5.2
2025-01-02 15:08:50.732130	2.4	27.9	-92.6	5.2
2025-01-02 15:08:51.899110	2.0	27.8	-92.4	6.7
2025-01-02 15:08:53.055885	1.7	27.7	-92.4	6.4
2025-01-02 15:08:54.220509	1.4	27.6	-92.1	7.1
2025-01-02 15:08:55.386767	1.0	27.5	-91.8	8.0
2025-01-02 15:08:56.548781	0.7	27.5	-92.3	7.7
2025-01-02 15:08:57.726322	0.4	27.4	-92.4	6.3
2025-01-02 15:08:58.886255	0.1	27.3	-92.3	4.2
2025-01-02 15:09:00.050582	359.7	27.2	-92.0	4.4
2025-01-02 15:09:01.198120	359.4	27.1	-92.3	1.4
2025-01-02 15:09:02.357096	359.1	27.0	-92.2	6.2
2025-01-02 15:09:03.530022	358.8	26.9	-92.4	3.0
2025-01-02 15:09:04.695305	358.5	26.8	-92.7	4.3
2025-01-02 15:09:05.857415	358.1	26.8	-92.7	2.7
2025-01-02 15:09:07.024786	357.8	26.7	-92.5	6.8
2025-01-02 15:09:08.183938	357.5	26.6	-92.2	3.0
2025-01-02 15:09:09.356864	357.2	26.5	-92.0	3.8
2025-01-02 15:09:10.520294	356.9	26.4	-92.2	4.1
2025-01-02 15:09:11.689336	356.6	26.3	-92.3	3.9
2025-01-02 15:09:12.844854	356.3	26.2	-92.0	3.9
2025-01-02 15:09:14.010630	356.0	26.1	-92.2	3.6
2025-01-02 15:09:15.173677	355.7	26.0	-91.9	4.7
2025-01-02 15:09:16.337067	355.4	25.9	-92.3	2.1
2025-01-02 15:09:17.498567	355.1	25.8	-92.2	4.3
2025-01-02 15:09:18.661714	354.8	25.7	-92.4	5.2
2025-01-02 15:09:19.826189	354.5	25.6	-92.2	5.1
2025-01-02 15:09:20.991516	354.2	25.5	-92.1	6.8
2025-01-02 15:09:22.155458	353.9	25.4	-92.0	3.9
2025-01-02 15:09:23.319492	353.6	25.3	-91.9	6.3
2025-01-02 15:09:24.483286	353.3	25.2	-92.0	5.2
2025-01-02 15:09:25.652122	353.1	25.1	-92.4	7.4
2025-01-02 15:09:26.813680	352.8	25.0	-92.3	5.3
2025-01-02 15:09:27.977140	352.5	24.9	-92.0	8.8
2025-01-02 15:09:29.145369	352.2	24.8	-91.7	6.7
2025-01-02 15:09:30.303765	351.9	24.7	-91.9	10.4
2025-01-02 15:09:31.472949	351.7	24.6	-91.9	9.3
2025-01-02 15:09:32.634063	351.4	24.5	-92.2	13.4
2025-01-02 15:09:33.799675	351.1	24.4	-92.6	10.1
2025-01-02 15:09:34.961125	350.9	24.3	-92.6	9.3
2025-01-02 15:09:36.126960	350.6	24.2	-92.2	13.0
2025-01-02 15:09:37.308223	350.3	24.1	-91.8	12.6
2025-01-02 15:09:38.455552	350.1	24.0	-92.2	10.1
2025-01-02 15:09:39.604579	349.8	23.9	-92.6	12.0
2025-01-02 15:09:40.766123	349.5	23.8	-92.4	12.4
2025-01-02 15:09:41.924593	349.3	23.7	-92.3	7.6
2025-01-02 15:09:43.081432	349.0	23.6	-92.3	8.5
2025-01-02 15:09:44.249766	348.8	23.5	-92.2	4.8
2025-01-02 15:09:45.410861	348.5	23.4	-92.2	7.0
2025-01-02 15:09:46.567197	348.3	23.3	-92.4	5.1
2025-01-02 15:09:47.710954	348.0	23.2	-92.0	5.4
2025-01-02 15:09:48.831538	347.8	23.1	-92.6	2.2
2025-01-02 15:09:49.951946	347.5	23.0	-92.6	4.1
2025-01-02 15:09:51.071890	347.3	22.9	-92.2	4.9
2025-01-02 15:09:52.191892	347.1	22.8	-92.2	3.5
2025-01-02 15:09:53.311966	346.8	22.7	-92.2	2.7
2025-01-02 15:09:54.432068	346.6	22.6	-92.1	5.4
2025-01-02 15:09:55.556698	346.4	22.5	-92.6	3.0
2025-01-02 15:09:56.700675	346.1	22.4	-92.3	5.3
2025-01-02 15:09:57.857936	345.9	22.3	-92.5	5.7
2025-01-02 15:09:59.013720	345.7	22.1	-92.4	6.6
2025-01-02 15:10:00.174379	345.4	22.0	-91.8	8.2
2025-01-02 15:10:01.325523	345.2	21.9	-92.0	12.7
2025-01-02 15:10:02.487842	345.0	21.8	-92.3	9.6
2025-01-02 15:10:03.650556	344.7	21.7	-92.2	9.3
2025-01-02 15:10:04.810942	344.5	21.6	-92.1	12.0
2025-01-02 15:10:05.975083	344.3	21.5	-92.1	5.8
2025-01-02 15:10:07.132706	344.1	21.4	-91.7	8.3
2025-01-02 15:10:08.294309	343.9	21.3	-91.9	8.0
2025-01-02 15:10:09.460185	343.6	21.2	-92.4	7.5
2025-01-02 15:10:10.619637	343.4	21.1	-90.6	5.4
2025-01-02 15:10:11.779253	343.2	21.0	-91.2	2.9
2025-01-02 15:10:12.939120	343.0	20.9	-91.4	2.3
2025-01-02 15:10:14.100890	342.8	20.8	-91.3	2.2
2025-01-02 15:10:15.259542	342.6	20.7	-90.8	2.2
2025-01-02 15:10:16.422892	342.3	20.6	-91.5	4.4
2025-01-02 15:10:17.583218	342.1	20.4	-92.5	4.0
2025-01-02 15:10:18.745665	341.9	20.3	-92.5	2.3
2025-01-02 15:10:19.909562	341.7	20.2	-92.3	2.3
2025-01-02 15:10:21.078310	341.5	20.1	-91.8	3.8
2025-01-02 15:10:22.242791	341.3	20.0	-91.7	2.3
2025-01-02 15:10:23.400284	341.1	19.9	-92.1	3.2
2025-01-02 15:10:24.568299	340.9	19.8	-92.3	2.2
2025-01-02 15:10:25.719482	340.7	19.7	-92.2	3.0
2025-01-02 15:10:26.881714	340.5	19.6	-92.0	4.6
2025-01-02 15:10:28.050605	340.3	19.5	-92.2	2.4
2025-01-02 15:10:29.218892	340.1	19.4	-92.5	1.5
2025-01-02 15:10:30.385681	339.9	19.3	-92.4	2.7
2025-01-02 15:10:31.542179	339.7	19.2	-92.6	1.6
2025-01-02 15:10:32.702171	339.5	19.1	-92.3	1.3
2025-01-02 15:10:33.874954	339.3	19.0	-91.9	0.8
2025-01-02 15:10:35.037107	339.2	18.9	-92.0	2.1
2025-01-02 15:10:36.198035	339.0	18.7	-92.2	1.9
2025-01-02 15:10:37.357890	338.8	18.6	-91.9	1.0
2025-01-02 15:10:38.522873	338.6	18.5	-91.8	2.4
2025-01-02 15:10:39.688212	338.4	18.4	-92.4	1.2
2025-01-02 15:10:40.853764	338.2	18.3	-92.4	0.3
2025-01-02 15:10:42.019311	338.1	18.2	-92.0	5.9
2025-01-02 15:10:43.180906	337.9	18.1	-91.7	8.0
2025-01-02 15:10:44.345847	337.7	18.0	-92.0	8.8
2025-01-02 15:10:45.510474	337.5	17.9	-92.0	8.7
2025-01-02 15:10:46.673227	337.3	17.8	-92.4	3.0
2025-01-02 15:10:47.836200	337.2	17.7	-92.5	5.1
2025-01-02 15:10:48.993692	337.0	17.6	-92.2	1.7
2025-01-02 15:10:50.161012	336.8	17.5	-91.9	3.0
2025-01-02 15:10:51.327414	336.7	17.4	-91.9	2.5
2025-01-02 15:10:52.492879	336.5	17.3	-92.3	1.6
2025-01-02 15:10:53.653827	336.3	17.2	-91.8	0.8
2025-01-02 15:10:54.813699	336.1	17.1	-91.8	2.4
2025-01-02 15:10:55.975643	336.0	17.0	-92.0	1.7
2025-01-02 15:10:57.147168	335.8	16.9	-91.8	2.0
2025-01-02 15:10:58.308995	335.6	16.8	-92.0	3.2
2025-01-02 15:10:59.473970	335.5	16.7	-92.3	3.0
2025-01-02 15:11:00.637088	335.3	16.6	-92.0	2.6
2025-01-02 15:11:01.797168	335.2	16.5	-92.1	3.3
2025-01-02 15:11:02.971479	335.0	16.4	-92.3	2.1
2025-01-02 15:11:04.138822	334.8	16.3	-92.1	1.8
2025-01-02 15:11:05.302776	334.7	16.2	-92.3	1.8
2025-01-02 15:11:06.461733	334.5	16.1	-92.3	1.0
2025-01-02 15:11:07.624931	334.4	16.0	-92.3	1.2
2025-01-02 15:11:08.791379	334.2	15.9	-92.4	3.3
2025-01-02 15:11:09.961327	334.1	15.8	-92.1	2.4
2025-01-02 15:11:11.125805	333.9	15.7	-91.7	3.6
2025-01-02 15:11:12.289731	333.8	15.6	-91.7	2.2
2025-01-02 15:11:13.448537	333.6	15.5	-91.9	1.4
2025-01-02 15:11:14.614200	333.5	15.4	-92.1	4.8
2025-01-02 15:11:15.776377	333.3	15.3	-92.5	1.6
2025-01-02 15:11:16.942652	333.2	15.2	-92.5	4.4
2025-01-02 15:11:18.103831	333.0	15.1	-92.2	3.8
2025-01-02 15:11:19.268686	332.9	15.0	-92.0	2.0
2025-01-02 15:11:20.429253	332.7	14.9	-92.3	3.9
2025-01-02 15:11:21.593862	332.6	14.8	-92.2	3.5
2025-01-02 15:11:22.758688	332.4	14.7	-92.0	7.3
2025-01-02 15:11:23.918317	332.3	14.6	-92.1	1.4
#Closed at: 2025-01-02 15:04:04.034400