passes_logs/2025/01/02/LEX_Murmansk/LEX_Murmansk__20250102_171141_NOAA_18_rec.log

#Pass ID: 20250102_171141_NOAA 18
#Satellite: NOAA 18
#Configuration: NOAA 18
#Start time: 2025-01-02 17:11:36.872285

#LorettStation: 1.0.0 05.05.2024
#Station: LEX_Murmansk
#Location: 33.156738 lon 68.926811 lat
#TLE: 1 28654U 05018A   25001.78406204  .00000701  00000+0  39590-3 0  9994
#TLE: 2 28654  98.8586  82.9683 0013729 216.8395 143.1835 14.13472842 11310

#Time	Az	El	Level	SNR
2025-01-02 17:11:50.967035	102.4	16.4	-91.6	6.3
2025-01-02 17:11:52.112623	102.3	16.5	-91.2	9.1
2025-01-02 17:11:53.260223	102.1	16.6	-91.1	6.9
2025-01-02 17:11:54.409348	102.0	16.7	-91.8	8.0
2025-01-02 17:11:55.558842	101.9	16.8	-91.2	4.8
2025-01-02 17:11:56.701330	101.8	16.9	-91.5	10.2
2025-01-02 17:11:57.852346	101.7	17.1	-91.6	17.3
2025-01-02 17:11:59.004630	101.6	17.2	-91.4	5.5
2025-01-02 17:12:00.153432	101.5	17.3	-91.5	11.6
2025-01-02 17:12:01.291705	101.3	17.4	-91.4	5.5
2025-01-02 17:12:02.437254	101.2	17.5	-92.1	13.1
2025-01-02 17:12:03.593211	101.1	17.6	-91.2	6.8
2025-01-02 17:12:04.740004	101.0	17.8	-91.2	7.1
2025-01-02 17:12:05.892402	100.9	17.9	-91.3	4.2
2025-01-02 17:12:07.045543	100.7	18.0	-91.1	8.0
2025-01-02 17:12:08.199021	100.6	18.1	-91.1	8.1
2025-01-02 17:12:09.352465	100.5	18.2	-91.2	7.8
2025-01-02 17:12:10.504296	100.4	18.4	-91.5	7.2
2025-01-02 17:12:11.654310	100.2	18.5	-91.0	6.7
2025-01-02 17:12:12.805561	100.1	18.6	-92.6	5.9
2025-01-02 17:12:13.952467	100.0	18.7	-92.6	6.1
2025-01-02 17:12:15.085687	99.9	18.9	-92.3	3.3
2025-01-02 17:12:16.207287	99.7	19.0	-92.2	3.2
2025-01-02 17:12:17.327802	99.6	19.1	-92.1	3.0
2025-01-02 17:12:18.447829	99.5	19.2	-92.2	3.5
2025-01-02 17:12:19.569249	99.3	19.3	-92.4	7.5
2025-01-02 17:12:20.689124	99.2	19.5	-92.6	4.4
2025-01-02 17:12:21.810243	99.1	19.6	-92.2	9.3
2025-01-02 17:12:22.932851	98.9	19.7	-92.5	5.2
2025-01-02 17:12:24.078873	98.8	19.8	-92.6	6.3
2025-01-02 17:12:25.225792	98.7	20.0	-91.9	2.5
2025-01-02 17:12:26.376006	98.5	20.1	-91.9	4.0
2025-01-02 17:12:27.518288	98.4	20.2	-92.0	5.5
2025-01-02 17:12:28.673427	98.2	20.3	-91.9	9.8
2025-01-02 17:12:29.819299	98.1	20.5	-91.9	5.1
2025-01-02 17:12:30.968512	98.0	20.6	-91.4	4.0
2025-01-02 17:12:32.109029	97.8	20.7	-90.7	4.5
2025-01-02 17:12:33.260569	97.7	20.9	-91.0	5.2
2025-01-02 17:12:34.402339	97.5	21.0	-91.9	4.8
2025-01-02 17:12:35.547931	97.4	21.1	-90.9	12.2
2025-01-02 17:12:36.698470	97.2	21.2	-91.4	7.9
2025-01-02 17:12:37.844415	97.1	21.4	-91.6	10.0
2025-01-02 17:12:38.999279	96.9	21.5	-92.0	5.5
2025-01-02 17:12:40.145839	96.8	21.6	-92.2	7.3
2025-01-02 17:12:41.295136	96.6	21.8	-91.9	6.8
2025-01-02 17:12:42.450138	96.4	21.9	-92.5	10.5
2025-01-02 17:12:43.600363	96.3	22.0	-91.4	16.2
2025-01-02 17:12:44.745207	96.1	22.2	-91.6	4.0
2025-01-02 17:12:45.880752	96.0	22.3	-91.5	8.0
2025-01-02 17:12:47.018254	95.8	22.4	-91.6	4.9
2025-01-02 17:12:48.141682	95.6	22.6	-91.6	4.4
2025-01-02 17:12:49.281036	95.5	22.7	-91.4	10.2
2025-01-02 17:12:50.427921	95.3	22.8	-92.2	7.1
2025-01-02 17:12:51.581602	95.1	23.0	-92.6	4.6
2025-01-02 17:12:52.714342	95.0	23.1	-92.6	6.0
2025-01-02 17:12:53.853931	94.8	23.3	-92.5	3.9
2025-01-02 17:12:55.006941	94.6	23.4	-92.4	4.4
2025-01-02 17:12:56.157502	94.4	23.5	-92.4	4.1
2025-01-02 17:12:57.302397	94.3	23.7	-92.1	5.4
2025-01-02 17:12:58.451041	94.1	23.8	-92.2	3.7
2025-01-02 17:12:59.599954	93.9	24.0	-92.5	9.6
2025-01-02 17:13:00.752395	93.7	24.1	-92.7	4.0
2025-01-02 17:13:01.896856	93.5	24.2	-92.4	7.4
2025-01-02 17:13:03.045813	93.4	24.4	-92.0	10.4
2025-01-02 17:13:04.188924	93.2	24.5	-92.3	12.0
2025-01-02 17:13:05.315159	93.0	24.7	-92.3	9.2
2025-01-02 17:13:06.464592	92.8	24.8	-92.5	7.8
2025-01-02 17:13:07.607512	92.6	24.9	-92.6	5.3
2025-01-02 17:13:08.747347	92.4	25.1	-92.3	11.5
2025-01-02 17:13:09.893218	92.2	25.2	-92.5	8.3
2025-01-02 17:13:11.034643	92.0	25.4	-92.4	7.3
2025-01-02 17:13:12.181014	91.8	25.5	-92.2	9.6
2025-01-02 17:13:13.324296	91.6	25.7	-91.9	7.0
2025-01-02 17:13:14.449503	91.4	25.8	-92.3	9.8
2025-01-02 17:13:15.597374	91.2	25.9	-92.6	4.9
2025-01-02 17:13:16.736183	91.0	26.1	-92.1	7.5
2025-01-02 17:13:17.882513	90.8	26.2	-92.4	15.4
2025-01-02 17:13:19.036252	90.6	26.4	-92.6	9.8
2025-01-02 17:13:20.181158	90.4	26.5	-91.6	9.2
2025-01-02 17:13:21.334691	90.2	26.7	-92.0	9.3
2025-01-02 17:13:22.482550	90.0	26.8	-92.3	9.4
2025-01-02 17:13:23.638508	89.7	27.0	-92.5	8.3
2025-01-02 17:13:24.789171	89.5	27.1	-92.3	5.9
2025-01-02 17:13:25.938925	89.3	27.3	-92.6	4.8
2025-01-02 17:13:27.084821	89.1	27.4	-91.9	3.5
2025-01-02 17:13:28.236930	88.8	27.6	-92.2	5.0
2025-01-02 17:13:29.393510	88.6	27.7	-92.4	4.1
2025-01-02 17:13:30.537762	88.4	27.9	-92.3	5.6
2025-01-02 17:13:31.681828	88.1	28.0	-92.7	6.6
2025-01-02 17:13:32.804703	87.9	28.2	-92.4	10.3
2025-01-02 17:13:33.947096	87.7	28.3	-92.5	18.0
2025-01-02 17:13:35.091120	87.4	28.5	-92.1	13.6
2025-01-02 17:13:36.235123	87.2	28.6	-92.3	10.9
2025-01-02 17:13:37.388718	87.0	28.8	-92.5	15.7
2025-01-02 17:13:38.536330	86.7	28.9	-92.9	10.2
2025-01-02 17:13:39.682316	86.5	29.1	-92.2	13.2
2025-01-02 17:13:40.833763	86.2	29.2	-92.1	8.9
2025-01-02 17:13:41.980342	85.9	29.4	-92.5	19.5
2025-01-02 17:13:43.125561	85.7	29.5	-91.6	13.0
2025-01-02 17:13:44.276232	85.4	29.7	-91.9	19.6
2025-01-02 17:13:45.421066	85.2	29.8	-92.5	18.4
2025-01-02 17:13:46.572592	84.9	30.0	-92.5	11.3
2025-01-02 17:13:47.719294	84.6	30.1	-92.3	17.1
2025-01-02 17:13:48.869423	84.4	30.3	-92.4	12.2
2025-01-02 17:13:50.016654	84.1	30.4	-92.3	7.3
2025-01-02 17:13:51.161741	83.8	30.6	-91.8	8.8
2025-01-02 17:13:52.314350	83.6	30.7	-91.6	11.5
2025-01-02 17:13:53.461253	83.3	30.9	-92.4	22.1
2025-01-02 17:13:54.619073	83.0	31.0	-92.8	12.7
2025-01-02 17:13:55.766966	82.7	31.2	-92.3	9.5
2025-01-02 17:13:56.911585	82.4	31.4	-92.6	18.0
2025-01-02 17:13:58.057184	82.1	31.5	-92.5	11.9
2025-01-02 17:13:59.205182	81.8	31.7	-91.9	21.5
2025-01-02 17:14:00.347518	81.5	31.8	-92.2	26.5
2025-01-02 17:14:01.492916	81.2	32.0	-92.4	15.3
2025-01-02 17:14:02.644088	80.9	32.1	-92.3	17.3
2025-01-02 17:14:03.799515	80.6	32.3	-92.5	17.2
2025-01-02 17:14:04.941514	80.3	32.4	-92.5	19.7
2025-01-02 17:14:06.082858	80.0	32.6	-92.3	11.5
2025-01-02 17:14:07.202629	79.7	32.7	-92.0	14.8
2025-01-02 17:14:08.323869	79.4	32.9	-92.5	21.5
2025-01-02 17:14:09.443567	79.1	33.0	-92.2	14.1
2025-01-02 17:14:10.564165	78.8	33.2	-92.7	8.8
2025-01-02 17:14:11.685088	78.5	33.3	-92.5	15.0
2025-01-02 17:14:12.806063	78.2	33.5	-92.4	18.4
2025-01-02 17:14:13.930259	77.8	33.6	-92.5	13.0
2025-01-02 17:14:15.068098	77.5	33.8	-92.5	11.1
2025-01-02 17:14:16.211630	77.2	33.9	-92.3	13.8
2025-01-02 17:14:17.360349	76.8	34.0	-92.2	17.1
2025-01-02 17:14:18.506956	76.5	34.2	-92.5	22.9
2025-01-02 17:14:19.656477	76.1	34.3	-92.6	19.8
2025-01-02 17:14:20.803317	75.8	34.5	-92.6	20.0
2025-01-02 17:14:21.950478	75.4	34.6	-92.7	19.0
2025-01-02 17:14:23.101725	75.1	34.8	-92.2	14.6
2025-01-02 17:14:24.247151	74.7	34.9	-92.2	19.3
2025-01-02 17:14:25.401370	74.4	35.1	-91.9	17.8
2025-01-02 17:14:26.547132	74.0	35.2	-92.5	14.4
2025-01-02 17:14:27.690651	73.6	35.4	-92.9	21.1
2025-01-02 17:14:28.836521	73.3	35.5	-92.5	20.8
2025-01-02 17:14:29.987469	72.9	35.6	-92.5	17.5
2025-01-02 17:14:31.149667	72.5	35.8	-92.0	19.0
2025-01-02 17:14:32.299086	72.1	35.9	-92.0	19.2
2025-01-02 17:14:33.445846	71.7	36.1	-92.6	14.6
2025-01-02 17:14:34.597833	71.3	36.2	-92.5	11.7
2025-01-02 17:14:35.752667	71.0	36.3	-92.5	16.5
2025-01-02 17:14:36.906098	70.6	36.5	-92.6	16.7
2025-01-02 17:14:38.055950	70.2	36.6	-92.5	8.6
2025-01-02 17:14:39.204660	69.8	36.8	-92.1	15.6
2025-01-02 17:14:40.344486	69.4	36.9	-92.0	18.7
2025-01-02 17:14:41.491572	68.9	37.0	-92.6	12.8
2025-01-02 17:14:42.627038	68.5	37.2	-92.4	13.8
2025-01-02 17:14:43.752792	68.1	37.3	-92.4	18.5
2025-01-02 17:14:44.895674	67.7	37.4	-92.6	17.2
2025-01-02 17:14:46.033749	67.3	37.5	-92.5	19.2
2025-01-02 17:14:47.174759	66.9	37.7	-92.3	16.9
2025-01-02 17:14:48.298700	66.5	37.8	-91.9	18.9
2025-01-02 17:14:49.433987	66.0	37.9	-92.1	14.9
2025-01-02 17:14:50.576059	65.6	38.0	-92.5	17.4
2025-01-02 17:14:51.720949	65.2	38.1	-92.5	17.9
2025-01-02 17:14:52.863900	64.7	38.3	-92.5	22.3
2025-01-02 17:14:54.009119	64.3	38.4	-92.6	14.3
2025-01-02 17:14:55.150317	63.8	38.5	-91.8	13.3
2025-01-02 17:14:56.282976	63.4	38.6	-92.3	18.7
2025-01-02 17:14:57.422787	63.0	38.7	-92.1	19.3
2025-01-02 17:14:58.569780	62.5	38.8	-92.6	21.3
2025-01-02 17:14:59.713913	62.0	38.9	-92.1	19.9
2025-01-02 17:15:00.853481	61.6	39.1	-92.4	18.4
2025-01-02 17:15:01.997660	61.1	39.2	-92.3	19.6
2025-01-02 17:15:03.139748	60.6	39.3	-92.4	17.8
2025-01-02 17:15:04.286752	60.2	39.4	-92.1	18.4
2025-01-02 17:15:05.438017	59.7	39.5	-92.7	14.2
2025-01-02 17:15:06.585278	59.2	39.6	-92.3	9.4
2025-01-02 17:15:07.737319	58.7	39.7	-92.4	16.8
2025-01-02 17:15:08.890219	58.3	39.8	-92.6	19.5
2025-01-02 17:15:10.038649	57.8	39.8	-92.1	10.1
2025-01-02 17:15:11.184805	57.3	39.9	-92.1	13.2
2025-01-02 17:15:12.310410	56.8	40.0	-92.0	19.8
2025-01-02 17:15:13.443332	56.3	40.1	-92.6	14.1
2025-01-02 17:15:14.579249	55.8	40.2	-92.4	11.8
2025-01-02 17:15:15.721145	55.3	40.3	-92.3	14.8
2025-01-02 17:15:16.864834	54.8	40.3	-92.6	16.3
2025-01-02 17:15:18.011994	54.3	40.4	-92.8	14.7
2025-01-02 17:15:19.161682	53.8	40.5	-92.3	15.4
2025-01-02 17:15:20.304877	53.3	40.6	-92.1	17.2
2025-01-02 17:15:21.456060	52.8	40.6	-92.5	19.8
2025-01-02 17:15:22.600601	52.3	40.7	-92.4	20.8
2025-01-02 17:15:23.745886	51.8	40.8	-92.3	19.6
2025-01-02 17:15:24.899091	51.3	40.8	-92.4	17.5
2025-01-02 17:15:26.054778	50.7	40.9	-92.2	15.2
2025-01-02 17:15:27.208956	50.2	40.9	-92.4	14.8
2025-01-02 17:15:28.364350	49.7	41.0	-92.4	19.6
2025-01-02 17:15:29.510883	49.2	41.1	-92.6	13.8
2025-01-02 17:15:30.662582	48.6	41.1	-92.5	15.7
2025-01-02 17:15:31.811496	48.1	41.1	-92.7	18.0
2025-01-02 17:15:32.960275	47.6	41.2	-92.7	15.3
2025-01-02 17:15:34.106524	47.1	41.2	-92.1	14.2
2025-01-02 17:15:35.251866	46.5	41.3	-92.3	18.7
2025-01-02 17:15:36.399529	46.0	41.3	-92.3	18.5
2025-01-02 17:15:37.551914	45.5	41.3	-92.8	17.6
2025-01-02 17:15:38.700111	44.9	41.4	-92.3	19.2
2025-01-02 17:15:39.844381	44.4	41.4	-92.6	20.5
2025-01-02 17:15:40.989073	43.9	41.4	-92.5	18.7
2025-01-02 17:15:42.126332	43.3	41.4	-92.0	18.9
2025-01-02 17:15:43.273487	42.8	41.5	-92.4	20.1
2025-01-02 17:15:44.415050	42.3	41.5	-92.4	18.8
2025-01-02 17:15:45.566666	41.7	41.5	-92.6	19.3
2025-01-02 17:15:46.703274	41.2	41.5	-92.4	19.6
2025-01-02 17:15:47.846911	40.6	41.5	-92.5	17.3
2025-01-02 17:15:48.996459	40.1	41.5	-92.6	20.3
2025-01-02 17:15:50.144935	39.6	41.5	-92.2	16.9
2025-01-02 17:15:51.283295	39.0	41.5	-92.2	14.1
2025-01-02 17:15:52.430591	38.5	41.5	-92.8	16.9
2025-01-02 17:15:53.576446	38.0	41.5	-92.6	15.1
2025-01-02 17:15:54.725199	37.4	41.5	-92.6	15.7
2025-01-02 17:15:55.882219	36.9	41.5	-92.4	18.8
2025-01-02 17:15:57.029425	36.3	41.4	-92.3	13.6
2025-01-02 17:15:58.179337	35.8	41.4	-92.1	18.4
2025-01-02 17:15:59.336768	35.3	41.4	-92.3	17.6
2025-01-02 17:16:00.483531	34.7	41.4	-92.8	10.7
2025-01-02 17:16:01.639144	34.2	41.4	-92.7	14.3
2025-01-02 17:16:02.784233	33.6	41.3	-92.6	19.8
2025-01-02 17:16:03.929646	33.1	41.3	-92.1	12.3
2025-01-02 17:16:05.070228	32.6	41.3	-92.6	10.1
2025-01-02 17:16:06.220833	32.1	41.2	-92.1	18.7
2025-01-02 17:16:07.374514	31.5	41.2	-92.0	19.7
2025-01-02 17:16:08.521102	31.0	41.1	-92.3	11.4
2025-01-02 17:16:09.668352	30.5	41.1	-92.7	9.7
2025-01-02 17:16:10.814676	29.9	41.0	-92.3	17.3
2025-01-02 17:16:11.964490	29.4	41.0	-92.5	7.9
2025-01-02 17:16:13.110766	28.9	40.9	-92.5	12.7
2025-01-02 17:16:14.256222	28.4	40.9	-92.0	23.7
2025-01-02 17:16:15.402125	27.9	40.8	-92.4	21.2
2025-01-02 17:16:16.554989	27.3	40.7	-92.6	12.7
2025-01-02 17:16:17.699681	26.8	40.7	-92.3	14.2
2025-01-02 17:16:18.857793	26.3	40.6	-92.6	17.0
2025-01-02 17:16:19.990426	25.8	40.5	-92.6	9.0
2025-01-02 17:16:21.134398	25.3	40.5	-92.2	11.8
2025-01-02 17:16:22.281373	24.8	40.4	-91.9	14.4
2025-01-02 17:16:23.425278	24.3	40.3	-92.3	14.4
2025-01-02 17:16:24.570192	23.8	40.2	-92.1	11.7
2025-01-02 17:16:25.709323	23.3	40.2	-92.7	14.8
2025-01-02 17:16:26.830473	22.8	40.1	-92.8	21.8
2025-01-02 17:16:27.951110	22.3	40.0	-92.5	14.0
2025-01-02 17:16:29.072031	21.9	39.9	-92.3	13.4
2025-01-02 17:16:30.193551	21.4	39.8	-92.3	16.1
2025-01-02 17:16:31.314402	20.9	39.7	-92.3	22.5
2025-01-02 17:16:32.435000	20.5	39.6	-92.2	16.2
2025-01-02 17:16:33.559679	20.0	39.5	-92.7	13.8
2025-01-02 17:16:34.699249	19.5	39.4	-92.8	15.3
2025-01-02 17:16:35.857750	19.0	39.3	-92.4	21.1
2025-01-02 17:16:37.009742	18.6	39.2	-92.4	10.1
2025-01-02 17:16:38.162294	18.1	39.1	-92.2	11.5
2025-01-02 17:16:39.308475	17.6	39.0	-92.4	13.6
2025-01-02 17:16:40.456672	17.2	38.9	-92.5	8.8
2025-01-02 17:16:41.606106	16.7	38.8	-92.6	9.0
2025-01-02 17:16:42.751329	16.3	38.7	-92.8	14.9
2025-01-02 17:16:43.903903	15.8	38.6	-92.6	16.7
2025-01-02 17:16:45.054871	15.4	38.5	-92.6	11.6
2025-01-02 17:16:46.202361	14.9	38.3	-92.3	13.8
2025-01-02 17:16:47.350069	14.5	38.2	-92.8	14.3
2025-01-02 17:16:48.495250	14.0	38.1	-92.9	7.0
2025-01-02 17:16:49.642568	13.6	38.0	-92.6	8.8
2025-01-02 17:16:50.790534	13.2	37.9	-92.8	18.8
2025-01-02 17:16:51.939159	12.7	37.7	-92.9	7.5
2025-01-02 17:16:53.086918	12.3	37.6	-92.2	11.5
2025-01-02 17:16:54.240556	11.9	37.5	-92.4	21.7
2025-01-02 17:16:55.395759	11.5	37.4	-92.5	12.2
2025-01-02 17:16:56.545751	11.0	37.2	-92.8	9.2
2025-01-02 17:16:57.697048	10.6	37.1	-92.6	8.9
2025-01-02 17:16:58.848609	10.2	37.0	-92.9	17.3
2025-01-02 17:16:59.996221	9.8	36.8	-92.7	9.6
2025-01-02 17:17:01.143284	9.4	36.7	-92.3	11.6
2025-01-02 17:17:02.292467	9.0	36.6	-92.2	15.8
2025-01-02 17:17:03.443948	8.6	36.4	-92.5	11.6
2025-01-02 17:17:04.589997	8.2	36.3	-92.8	8.4
2025-01-02 17:17:05.739389	7.8	36.1	-92.9	19.9
2025-01-02 17:17:06.892392	7.4	36.0	-92.9	16.6
2025-01-02 17:17:08.041549	7.1	35.9	-92.3	16.9
2025-01-02 17:17:09.191946	6.7	35.7	-92.2	15.8
2025-01-02 17:17:10.336908	6.3	35.6	-92.6	21.6
2025-01-02 17:17:11.483690	5.9	35.4	-92.7	12.8
2025-01-02 17:17:12.615140	5.6	35.3	-92.8	14.3
2025-01-02 17:17:13.735341	5.2	35.2	-92.7	19.3
2025-01-02 17:17:14.856931	4.8	35.0	-92.8	14.3
2025-01-02 17:17:15.977570	4.5	34.9	-92.8	9.7
2025-01-02 17:17:17.097151	4.1	34.7	-92.3	14.9
2025-01-02 17:17:18.219825	3.8	34.6	-92.6	11.2
2025-01-02 17:17:19.343768	3.5	34.4	-92.2	18.6
2025-01-02 17:17:20.465813	3.1	34.3	-92.8	14.4
2025-01-02 17:17:21.600543	2.8	34.2	-92.7	15.5
2025-01-02 17:17:22.735813	2.4	34.0	-92.8	15.0
2025-01-02 17:17:23.881812	2.1	33.9	-92.6	12.8
2025-01-02 17:17:25.022682	1.8	33.7	-92.9	14.0
2025-01-02 17:17:26.174310	1.4	33.6	-91.9	5.3
2025-01-02 17:17:27.317300	1.1	33.4	-92.2	10.7
2025-01-02 17:17:28.466899	0.8	33.3	-92.3	5.5
2025-01-02 17:17:29.613541	0.5	33.1	-91.9	8.2
2025-01-02 17:17:30.759853	0.1	33.0	-92.4	9.8
2025-01-02 17:17:31.910784	359.8	32.8	-92.5	7.9
2025-01-02 17:17:33.064143	359.5	32.7	-92.6	6.6
2025-01-02 17:17:34.208052	359.2	32.5	-92.4	8.7
2025-01-02 17:17:35.348849	358.9	32.4	-92.3	10.8
2025-01-02 17:17:36.483394	358.6	32.2	-92.5	5.6
2025-01-02 17:17:37.606689	358.3	32.1	-92.4	5.6
2025-01-02 17:17:38.738240	358.0	31.9	-92.9	7.0
2025-01-02 17:17:39.878295	357.7	31.8	-92.9	12.5
2025-01-02 17:17:41.017167	357.4	31.6	-92.7	6.1
2025-01-02 17:17:42.157849	357.1	31.5	-92.0	6.0
2025-01-02 17:17:43.281419	356.8	31.3	-92.1	8.2
2025-01-02 17:17:44.423337	356.5	31.2	-92.9	8.8
2025-01-02 17:17:45.567089	356.3	31.0	-92.2	8.6
2025-01-02 17:17:46.719092	356.0	30.8	-92.6	5.7
2025-01-02 17:17:47.865931	355.7	30.7	-92.9	10.5
2025-01-02 17:17:49.016956	355.4	30.5	-92.7	12.7
2025-01-02 17:17:50.161513	355.2	30.4	-92.1	12.9
2025-01-02 17:17:51.307207	354.9	30.2	-92.3	9.0
2025-01-02 17:17:52.452852	354.6	30.1	-92.5	15.6
2025-01-02 17:17:53.596534	354.4	29.9	-92.5	11.0
2025-01-02 17:17:54.741950	354.1	29.8	-92.8	11.5
2025-01-02 17:17:55.891908	353.8	29.6	-92.1	8.1
2025-01-02 17:17:57.038974	353.6	29.5	-92.5	9.5
2025-01-02 17:17:58.184815	353.3	29.3	-92.3	9.4
2025-01-02 17:17:59.328891	353.1	29.2	-92.1	8.0
2025-01-02 17:18:00.473455	352.8	29.0	-92.6	4.1
2025-01-02 17:18:01.620996	352.6	28.9	-92.8	5.3
2025-01-02 17:18:02.768149	352.3	28.7	-92.8	9.0
2025-01-02 17:18:03.916504	352.1	28.6	-92.5	9.0
2025-01-02 17:18:05.072960	351.8	28.4	-92.3	5.3
2025-01-02 17:18:06.220534	351.6	28.3	-92.5	5.9
2025-01-02 17:18:07.370712	351.4	28.1	-92.8	12.8
2025-01-02 17:18:08.521148	351.1	28.0	-92.5	8.2
2025-01-02 17:18:09.672768	350.9	27.8	-92.6	6.9
2025-01-02 17:18:10.833476	350.7	27.7	-92.1	10.2
2025-01-02 17:18:11.985186	350.4	27.5	-92.8	6.7
2025-01-02 17:18:13.132296	350.2	27.4	-92.6	8.6
2025-01-02 17:18:14.282752	350.0	27.2	-92.5	5.3
2025-01-02 17:18:15.423672	349.8	27.1	-92.9	5.3
2025-01-02 17:18:16.574833	349.5	26.9	-92.8	10.7
2025-01-02 17:18:17.722842	349.3	26.8	-92.9	11.4
2025-01-02 17:18:18.866521	349.1	26.6	-92.8	6.8
2025-01-02 17:18:20.016247	348.9	26.5	-92.7	8.9
2025-01-02 17:18:21.167997	348.7	26.3	-92.6	7.6
2025-01-02 17:18:22.319468	348.5	26.2	-92.1	6.2
2025-01-02 17:18:23.464609	348.3	26.0	-92.7	5.1
2025-01-02 17:18:24.623330	348.1	25.9	-92.7	7.6
2025-01-02 17:18:25.772762	347.9	25.7	-92.8	12.4
2025-01-02 17:18:26.923987	347.7	25.6	-93.1	5.8
2025-01-02 17:18:28.068919	347.5	25.5	-92.6	4.3
2025-01-02 17:18:29.212473	347.3	25.3	-92.4	11.7
2025-01-02 17:18:30.365436	347.1	25.2	-92.7	14.6
2025-01-02 17:18:31.514180	346.9	25.0	-92.7	8.0
2025-01-02 17:18:32.665861	346.7	24.9	-92.6	5.3
2025-01-02 17:18:33.814469	346.5	24.7	-92.5	6.8
2025-01-02 17:18:34.963742	346.3	24.6	-92.8	8.6
2025-01-02 17:18:36.111960	346.1	24.4	-92.1	7.7
2025-01-02 17:18:37.262022	345.9	24.3	-92.1	15.4
2025-01-02 17:18:38.416352	345.7	24.2	-92.2	7.5
2025-01-02 17:18:39.563675	345.5	24.0	-92.5	10.1
2025-01-02 17:18:40.712542	345.4	23.9	-92.5	8.5
2025-01-02 17:18:41.853100	345.2	23.7	-92.8	9.3
2025-01-02 17:18:42.991169	345.0	23.6	-92.8	5.2
2025-01-02 17:18:44.127290	344.8	23.5	-92.6	5.3
2025-01-02 17:18:45.251434	344.7	23.3	-92.2	5.2
2025-01-02 17:18:46.371545	344.5	23.2	-92.5	7.3
2025-01-02 17:18:47.492672	344.3	23.1	-92.6	5.7
2025-01-02 17:18:48.612809	344.2	22.9	-92.7	4.2
2025-01-02 17:18:49.734364	344.0	22.8	-92.6	6.7
2025-01-02 17:18:50.855199	343.8	22.7	-92.7	7.7
2025-01-02 17:18:51.977967	343.7	22.5	-92.8	10.8
2025-01-02 17:18:53.115622	343.5	22.4	-92.4	13.1
2025-01-02 17:18:54.256004	343.3	22.3	-92.4	13.6
2025-01-02 17:18:55.400032	343.2	22.1	-92.4	5.6
2025-01-02 17:18:56.547989	343.0	22.0	-92.6	7.5
2025-01-02 17:18:57.695642	342.9	21.9	-92.7	12.3
2025-01-02 17:18:58.849097	342.7	21.7	-92.7	9.0
2025-01-02 17:19:00.001260	342.6	21.6	-92.7	9.8
2025-01-02 17:19:01.141299	342.4	21.5	-92.2	3.6
2025-01-02 17:19:02.293335	342.2	21.3	-92.2	4.9
2025-01-02 17:19:03.449746	342.1	21.2	-92.6	5.5
2025-01-02 17:19:04.605409	341.9	21.1	-92.8	6.2
2025-01-02 17:19:05.752546	341.8	20.9	-92.5	6.9
2025-01-02 17:19:06.895649	341.6	20.8	-92.7	6.5
2025-01-02 17:19:08.046008	341.5	20.7	-92.6	5.9
2025-01-02 17:19:09.193269	341.4	20.5	-92.2	5.3
2025-01-02 17:19:10.339881	341.2	20.4	-92.1	3.9
2025-01-02 17:19:11.495176	341.1	20.3	-92.5	4.2
2025-01-02 17:19:12.639293	340.9	20.2	-92.6	5.9
2025-01-02 17:19:13.777836	340.8	20.0	-92.6	2.3
2025-01-02 17:19:14.905505	340.6	19.9	-92.6	4.1
2025-01-02 17:19:16.049582	340.5	19.8	-92.2	3.9
2025-01-02 17:19:17.192101	340.4	19.7	-92.1	3.0
2025-01-02 17:19:18.345292	340.2	19.5	-92.3	5.3
2025-01-02 17:19:19.485490	340.1	19.4	-92.9	4.9
2025-01-02 17:19:20.628128	340.0	19.3	-92.6	4.6
2025-01-02 17:19:21.770230	339.8	19.2	-92.7	4.3
2025-01-02 17:19:22.917604	339.7	19.0	-92.9	5.9
2025-01-02 17:19:24.059761	339.6	18.9	-92.5	4.9
2025-01-02 17:19:25.207188	339.4	18.8	-91.8	3.9
2025-01-02 17:19:26.354883	339.3	18.7	-92.6	5.0
2025-01-02 17:19:27.504125	339.2	18.5	-92.8	3.6
2025-01-02 17:19:28.668729	339.1	18.4	-93.0	6.1
2025-01-02 17:19:29.818880	338.9	18.3	-92.5	3.6
2025-01-02 17:19:30.964317	338.8	18.2	-92.7	4.3
2025-01-02 17:19:32.111695	338.7	18.1	-92.4	4.9
2025-01-02 17:19:33.256693	338.6	17.9	-92.0	7.1
2025-01-02 17:19:34.403789	338.4	17.8	-92.8	7.6
2025-01-02 17:19:35.541259	338.3	17.7	-92.7	3.5
2025-01-02 17:19:36.679544	338.2	17.6	-92.7	4.7
2025-01-02 17:19:37.810057	338.1	17.5	-92.5	6.0
2025-01-02 17:19:38.954957	338.0	17.4	-92.7	5.7
2025-01-02 17:19:40.091475	337.9	17.2	-92.3	4.6
2025-01-02 17:19:41.233279	337.7	17.1	-92.2	4.5
2025-01-02 17:19:42.374337	337.6	17.0	-91.4	7.2
2025-01-02 17:19:43.517696	337.5	16.9	-92.5	6.7
2025-01-02 17:19:44.664330	337.4	16.8	-92.3	5.1
2025-01-02 17:19:45.807578	337.3	16.7	-92.7	5.4
2025-01-02 17:19:46.954572	337.2	16.5	-92.7	8.0
2025-01-02 17:19:48.095715	337.1	16.4	-92.1	5.9
2025-01-02 17:19:49.221251	337.0	16.3	-92.0	9.8
2025-01-02 17:19:50.363562	336.9	16.2	-92.6	4.3
2025-01-02 17:19:51.506894	336.7	16.1	-92.7	6.9
2025-01-02 17:19:52.654189	336.6	16.0	-92.5	5.0
2025-01-02 17:19:53.801791	336.5	15.9	-92.5	14.6
2025-01-02 17:19:54.937659	336.4	15.8	-92.3	4.8
2025-01-02 17:19:56.087632	336.3	15.6	-92.3	9.1
2025-01-02 17:19:57.237013	336.2	15.5	-92.2	11.0
2025-01-02 17:19:58.381514	336.1	15.4	-92.1	12.9
2025-01-02 17:19:59.516705	336.0	15.3	-92.5	4.3
2025-01-02 17:20:00.644541	335.9	15.2	-92.9	9.9
2025-01-02 17:20:01.772762	335.8	15.1	-92.5	6.5
2025-01-02 17:20:02.905162	335.7	15.0	-92.4	7.4
2025-01-02 17:20:04.044471	335.6	14.9	-92.7	5.0
2025-01-02 17:20:05.183224	335.5	14.8	-92.1	4.1
2025-01-02 17:20:06.318383	335.4	14.7	-91.3	7.8
2025-01-02 17:20:07.459042	335.3	14.6	-91.7	4.2
2025-01-02 17:20:08.605549	335.2	14.5	-90.7	4.6
#Closed at: 2025-01-02 17:11:41.789523