passes_logs/2025/01/02/LEX_Murmansk/LEX_Murmansk__20250102_182352_NOAA_19_rec.log

#Pass ID: 20250102_182352_NOAA 19
#Satellite: NOAA 19
#Configuration: NOAA 19
#Start time: 2025-01-02 18:23:47.436318

#LorettStation: 1.0.0 05.05.2024
#Station: LEX_Murmansk
#Location: 33.156738 lon 68.926811 lat
#TLE: 1 33591U 09005A   25001.83569820  .00001454  00000+0  79919-3 0  9995
#TLE: 2 33591  99.0217  65.4951 0014707  92.5482 267.7374 14.13252981819684

#Time	Az	El	Level	SNR
2025-01-02 18:23:59.651610	174.6	16.3	-92.5	4.3
2025-01-02 18:24:01.952972	174.7	16.5	-91.8	2.1
2025-01-02 18:24:04.273026	174.8	16.8	-92.2	1.6
2025-01-02 18:24:06.579305	175.0	17.1	-92.3	2.6
2025-01-02 18:24:08.897333	175.1	17.3	-92.2	4.0
2025-01-02 18:24:11.208502	175.2	17.6	-90.6	6.0
2025-01-02 18:24:13.513184	175.4	17.8	-92.3	3.4
2025-01-02 18:24:15.834756	175.5	18.1	-92.4	9.0
2025-01-02 18:24:18.144103	175.6	18.4	-92.1	3.7
2025-01-02 18:24:20.464056	175.8	18.7	-92.5	2.9
2025-01-02 18:24:22.775040	175.9	18.9	-92.2	1.9
2025-01-02 18:24:25.086740	176.1	19.2	-92.4	6.1
2025-01-02 18:24:27.396339	176.2	19.5	-92.7	6.8
2025-01-02 18:24:29.715540	176.4	19.8	-93.1	2.6
2025-01-02 18:24:32.036874	176.5	20.1	-92.8	6.1
2025-01-02 18:24:34.350161	176.7	20.4	-92.5	3.8
2025-01-02 18:24:36.657006	176.8	20.7	-92.3	1.8
2025-01-02 18:24:38.983711	177.0	21.0	-92.9	3.6
2025-01-02 18:24:41.293558	177.2	21.3	-92.2	8.3
2025-01-02 18:24:43.613253	177.3	21.6	-92.6	6.3
2025-01-02 18:24:45.938519	177.5	21.9	-92.2	5.7
2025-01-02 18:24:48.255515	177.7	22.2	-92.3	11.6
2025-01-02 18:24:50.563819	177.9	22.5	-92.3	11.1
2025-01-02 18:24:52.879034	178.1	22.8	-92.6	1.9
2025-01-02 18:24:55.191334	178.2	23.1	-92.5	2.9
2025-01-02 18:24:57.506178	178.4	23.5	-92.8	7.8
2025-01-02 18:24:59.818082	178.6	23.8	-91.8	12.8
2025-01-02 18:25:02.115826	178.8	24.1	-92.0	10.4
2025-01-02 18:25:04.425653	179.0	24.5	-92.4	10.2
2025-01-02 18:25:06.724126	179.2	24.8	-92.5	11.7
2025-01-02 18:25:09.044219	179.4	25.1	-92.0	3.9
2025-01-02 18:25:11.347394	179.7	25.5	-92.4	2.5
2025-01-02 18:25:13.658575	179.9	25.9	-92.9	9.6
2025-01-02 18:25:15.977106	180.1	26.2	-92.5	12.3
2025-01-02 18:25:18.283579	180.3	26.6	-92.5	4.5
2025-01-02 18:25:20.596347	180.6	26.9	-92.6	12.7
2025-01-02 18:25:22.904180	180.8	27.3	-92.4	13.8
2025-01-02 18:25:25.221960	181.0	27.7	-92.3	3.7
2025-01-02 18:25:27.522605	181.3	28.1	-92.7	4.0
2025-01-02 18:25:29.828242	181.6	28.5	-92.6	3.5
2025-01-02 18:25:32.140165	181.8	28.8	-92.4	8.9
2025-01-02 18:25:34.458410	182.1	29.2	-92.3	7.6
2025-01-02 18:25:36.765762	182.4	29.6	-92.7	5.9
2025-01-02 18:25:39.073259	182.6	30.0	-92.3	6.1
2025-01-02 18:25:41.379370	182.9	30.5	-92.4	10.6
2025-01-02 18:25:43.686842	183.2	30.9	-92.5	2.8
2025-01-02 18:25:46.002915	183.5	31.3	-92.8	5.0
2025-01-02 18:25:48.315416	183.8	31.7	-92.6	6.0
2025-01-02 18:25:50.629552	184.2	32.1	-92.7	6.4
2025-01-02 18:25:52.919940	184.5	32.6	-92.5	10.9
2025-01-02 18:25:55.167236	184.8	33.0	-92.4	7.4
2025-01-02 18:25:57.408960	185.1	33.4	-92.6	7.8
2025-01-02 18:25:59.650375	185.5	33.9	-92.7	8.4
2025-01-02 18:26:01.906421	185.8	34.3	-92.6	6.8
2025-01-02 18:26:04.206107	186.2	34.8	-92.7	1.8
2025-01-02 18:26:06.506896	186.6	35.3	-93.0	5.5
2025-01-02 18:26:08.815349	187.0	35.7	-92.3	13.6
2025-01-02 18:26:11.133432	187.4	36.2	-92.6	9.1
2025-01-02 18:26:13.433872	187.8	36.7	-92.6	7.9
2025-01-02 18:26:15.746559	188.2	37.2	-92.9	5.2
2025-01-02 18:26:18.049062	188.7	37.7	-92.4	14.9
2025-01-02 18:26:20.358336	189.1	38.2	-92.2	6.4
2025-01-02 18:26:22.658284	189.6	38.7	-92.8	3.2
2025-01-02 18:26:24.948568	190.1	39.2	-92.9	2.7
2025-01-02 18:26:27.215355	190.6	39.7	-92.6	9.5
2025-01-02 18:26:29.507713	191.1	40.2	-92.8	15.8
2025-01-02 18:26:31.801390	191.6	40.7	-92.7	8.5
2025-01-02 18:26:34.107781	192.2	41.3	-92.5	13.6
2025-01-02 18:26:36.415347	192.7	41.8	-92.7	16.3
2025-01-02 18:26:38.723047	193.3	42.4	-92.5	17.2
2025-01-02 18:26:41.021961	193.9	42.9	-92.7	9.8
2025-01-02 18:26:43.327011	194.6	43.4	-92.2	3.0
2025-01-02 18:26:45.637276	195.2	44.0	-92.7	6.8
2025-01-02 18:26:47.954842	195.9	44.6	-92.6	12.9
2025-01-02 18:26:50.263438	196.6	45.1	-92.4	17.9
2025-01-02 18:26:52.564942	197.3	45.7	-92.4	14.1
2025-01-02 18:26:54.878970	198.0	46.3	-92.8	10.5
2025-01-02 18:26:57.181779	198.8	46.8	-92.7	7.9
2025-01-02 18:26:59.498398	199.6	47.4	-92.9	19.3
2025-01-02 18:27:01.797230	200.4	48.0	-92.9	12.5
2025-01-02 18:27:04.101616	201.3	48.6	-92.5	8.8
2025-01-02 18:27:06.418635	202.2	49.1	-92.7	4.9
2025-01-02 18:27:08.728671	203.1	49.7	-92.9	2.6
2025-01-02 18:27:11.034896	204.1	50.3	-92.6	3.1
2025-01-02 18:27:13.339237	205.1	50.9	-92.2	7.1
2025-01-02 18:27:15.656582	206.1	51.4	-92.9	14.7
2025-01-02 18:27:17.969778	207.2	52.0	-92.6	9.4
2025-01-02 18:27:20.285527	208.3	52.6	-92.5	5.9
2025-01-02 18:27:22.593573	209.5	53.1	-92.8	10.9
2025-01-02 18:27:24.903604	210.7	53.7	-92.5	13.5
2025-01-02 18:27:27.211085	211.9	54.2	-92.2	14.2
2025-01-02 18:27:29.530119	213.2	54.8	-92.7	9.6
2025-01-02 18:27:31.835096	214.6	55.3	-92.6	7.0
2025-01-02 18:27:34.140822	216.0	55.8	-92.7	4.1
2025-01-02 18:27:36.449868	217.4	56.3	-92.6	8.9
2025-01-02 18:27:38.764686	218.9	56.8	-92.5	9.4
2025-01-02 18:27:41.072233	220.5	57.3	-92.4	16.6
2025-01-02 18:27:43.382260	222.1	57.8	-92.5	22.0
2025-01-02 18:27:45.689825	223.8	58.2	-92.5	19.8
2025-01-02 18:27:47.993275	225.5	58.6	-92.7	18.9
2025-01-02 18:27:50.304648	227.3	59.0	-92.7	12.8
2025-01-02 18:27:52.612613	229.1	59.4	-92.7	14.7
2025-01-02 18:27:54.917474	231.0	59.8	-92.7	13.9
2025-01-02 18:27:57.227436	232.9	60.1	-92.5	9.5
2025-01-02 18:27:59.533601	234.9	60.4	-92.4	18.8
2025-01-02 18:28:01.836377	236.9	60.6	-92.8	17.1
2025-01-02 18:28:04.146531	239.0	60.9	-92.4	15.8
2025-01-02 18:28:06.430134	241.0	61.1	-93.0	18.3
2025-01-02 18:28:08.677157	243.1	61.3	-92.8	16.2
2025-01-02 18:28:10.918890	245.2	61.4	-91.9	13.0
2025-01-02 18:28:13.163048	247.3	61.5	-92.1	9.4
2025-01-02 18:28:15.429381	249.5	61.6	-92.6	12.0
2025-01-02 18:28:17.721437	251.7	61.6	-92.6	5.6
2025-01-02 18:28:19.991011	253.8	61.6	-92.6	9.1
2025-01-02 18:28:22.281247	256.0	61.6	-92.0	4.3
2025-01-02 18:28:24.578005	258.2	61.5	-93.0	8.2
2025-01-02 18:28:26.891620	260.4	61.4	-92.7	5.1
2025-01-02 18:28:29.204257	262.5	61.3	-92.5	8.1
2025-01-02 18:28:31.500952	264.6	61.1	-92.8	6.1
2025-01-02 18:28:33.816623	266.7	60.9	-93.1	8.6
2025-01-02 18:28:36.132112	268.8	60.6	-92.5	13.4
2025-01-02 18:28:38.449096	270.8	60.4	-92.9	4.9
2025-01-02 18:28:40.752341	272.8	60.1	-92.0	9.0
2025-01-02 18:28:43.075547	274.7	59.7	-91.5	2.9
2025-01-02 18:28:45.390942	276.6	59.4	-91.8	8.5
2025-01-02 18:28:47.699523	278.4	59.0	-92.0	16.7
2025-01-02 18:28:50.006758	280.2	58.6	-91.9	10.4
2025-01-02 18:28:52.308351	281.9	58.2	-92.3	10.3
2025-01-02 18:28:54.631855	283.6	57.7	-92.4	13.9
2025-01-02 18:28:56.952496	285.2	57.3	-92.7	13.7
2025-01-02 18:28:59.268456	286.8	56.8	-92.1	17.9
2025-01-02 18:29:01.564596	288.2	56.3	-92.9	11.9
2025-01-02 18:29:03.879207	289.7	55.8	-92.5	15.4
2025-01-02 18:29:06.169611	291.1	55.3	-91.5	7.5
2025-01-02 18:29:08.410829	292.4	54.8	-91.4	10.5
2025-01-02 18:29:10.651962	293.6	54.2	-92.0	14.4
2025-01-02 18:29:12.894631	294.9	53.7	-91.7	11.3
2025-01-02 18:29:15.159962	296.0	53.2	-91.7	10.9
2025-01-02 18:29:17.463950	297.2	52.6	-92.3	6.8
2025-01-02 18:29:19.767514	298.3	52.0	-92.8	3.8
2025-01-02 18:29:22.077830	299.4	51.5	-92.5	5.6
2025-01-02 18:29:24.387833	300.4	50.9	-92.5	5.3
2025-01-02 18:29:26.694474	301.4	50.3	-92.8	4.9
2025-01-02 18:29:28.992885	302.4	49.8	-92.5	7.8
2025-01-02 18:29:31.300287	303.3	49.2	-92.4	5.8
2025-01-02 18:29:33.613901	304.2	48.6	-92.5	8.0
2025-01-02 18:29:35.918949	305.1	48.0	-92.8	9.5
2025-01-02 18:29:38.230951	305.9	47.4	-92.4	11.7
2025-01-02 18:29:40.537332	306.7	46.9	-91.4	11.2
2025-01-02 18:29:42.850952	307.5	46.3	-92.5	17.8
2025-01-02 18:29:45.151495	308.2	45.7	-92.4	9.6
2025-01-02 18:29:47.466946	308.9	45.2	-92.6	10.7
2025-01-02 18:29:49.776324	309.6	44.6	-92.5	11.2
2025-01-02 18:29:52.080675	310.3	44.1	-92.0	7.6
2025-01-02 18:29:54.391810	311.0	43.5	-92.0	6.6
2025-01-02 18:29:56.696808	311.6	42.9	-92.2	2.5
2025-01-02 18:29:59.014225	312.2	42.4	-92.2	6.1
2025-01-02 18:30:01.306855	312.8	41.9	-90.4	6.7
2025-01-02 18:30:03.619035	313.3	41.3	-91.0	11.7
2025-01-02 18:30:05.932772	313.9	40.8	-91.4	16.3
2025-01-02 18:30:08.237898	314.4	40.3	-92.2	19.2
2025-01-02 18:30:10.555572	314.9	39.7	-92.8	16.4
2025-01-02 18:30:12.851985	315.4	39.2	-92.6	6.5
2025-01-02 18:30:15.166467	315.9	38.7	-92.9	5.1
2025-01-02 18:30:17.481512	316.4	38.2	-92.7	7.9
2025-01-02 18:30:19.799649	316.9	37.7	-92.7	4.8
2025-01-02 18:30:22.110905	317.3	37.2	-92.4	7.2
2025-01-02 18:30:24.427733	317.7	36.7	-92.7	5.6
2025-01-02 18:30:26.740049	318.1	36.2	-92.9	11.9
2025-01-02 18:30:29.054732	318.6	35.8	-92.5	11.9
2025-01-02 18:30:31.374973	319.0	35.3	-92.6	11.2
2025-01-02 18:30:33.680429	319.3	34.8	-92.8	8.5
2025-01-02 18:30:35.985239	319.7	34.4	-92.6	6.7
2025-01-02 18:30:38.290674	320.1	33.9	-92.4	3.7
2025-01-02 18:30:40.599193	320.4	33.5	-92.7	7.9
2025-01-02 18:30:42.911880	320.8	33.0	-92.9	7.9
2025-01-02 18:30:45.233146	321.1	32.6	-92.6	10.4
2025-01-02 18:30:47.544201	321.4	32.1	-92.6	14.4
2025-01-02 18:30:49.857086	321.7	31.7	-92.2	11.9
2025-01-02 18:30:52.170171	322.1	31.3	-92.2	12.9
2025-01-02 18:30:54.443779	322.4	30.9	-92.7	9.7
2025-01-02 18:30:56.751137	322.7	30.5	-92.8	4.2
2025-01-02 18:30:59.052764	322.9	30.0	-92.4	6.6
2025-01-02 18:31:01.349126	323.2	29.6	-92.6	7.8
2025-01-02 18:31:03.655949	323.5	29.2	-92.8	8.5
2025-01-02 18:31:05.975324	323.8	28.9	-92.9	10.7
2025-01-02 18:31:08.308458	324.0	28.5	-92.6	8.7
2025-01-02 18:31:10.626140	324.3	28.1	-92.9	5.9
2025-01-02 18:31:12.925533	324.5	27.7	-92.7	4.5
2025-01-02 18:31:15.234055	324.8	27.3	-92.3	0.7
2025-01-02 18:31:17.546572	325.0	27.0	-92.8	7.4
2025-01-02 18:31:19.844931	325.3	26.6	-92.6	5.3
2025-01-02 18:31:22.150209	325.5	26.2	-92.4	7.1
2025-01-02 18:31:24.456775	325.7	25.9	-92.9	6.0
2025-01-02 18:31:26.771071	325.9	25.5	-92.8	4.2
2025-01-02 18:31:29.083798	326.1	25.2	-92.7	5.2
2025-01-02 18:31:31.382103	326.4	24.8	-92.5	0.2
2025-01-02 18:31:33.693615	326.6	24.5	-92.7	4.2
2025-01-02 18:31:36.014257	326.8	24.1	-92.7	12.2
2025-01-02 18:31:38.332442	327.0	23.8	-92.2	3.1
2025-01-02 18:31:40.656303	327.2	23.5	-93.0	3.2
2025-01-02 18:31:42.959311	327.3	23.2	-92.8	1.9
2025-01-02 18:31:45.268375	327.5	22.8	-92.6	1.3
2025-01-02 18:31:47.579177	327.7	22.5	-92.3	4.0
2025-01-02 18:31:49.893719	327.9	22.2	-92.6	5.3
2025-01-02 18:31:52.206776	328.1	21.9	-92.0	7.7
2025-01-02 18:31:54.527714	328.2	21.6	-92.2	4.0
2025-01-02 18:31:56.832008	328.4	21.3	-92.6	2.0
2025-01-02 18:31:59.145009	328.6	21.0	-92.5	3.5
2025-01-02 18:32:01.451536	328.7	20.7	-92.7	1.2
2025-01-02 18:32:03.763239	328.9	20.4	-92.7	1.4
2025-01-02 18:32:06.071067	329.1	20.1	-92.5	1.1
2025-01-02 18:32:08.375738	329.2	19.8	-92.6	0.1
2025-01-02 18:32:10.669389	329.4	19.5	-92.8	4.9
2025-01-02 18:32:12.910373	329.5	19.3	-92.7	0.9
2025-01-02 18:32:15.150721	329.7	19.0	-92.2	3.5
2025-01-02 18:32:17.391730	329.8	18.7	-92.5	2.8
2025-01-02 18:32:19.656005	329.9	18.5	-92.9	3.4
2025-01-02 18:32:21.959288	330.1	18.2	-92.4	2.4
2025-01-02 18:32:24.257819	330.2	17.9	-92.6	4.5
2025-01-02 18:32:26.577838	330.4	17.7	-93.0	2.4
2025-01-02 18:32:28.879866	330.5	17.4	-92.5	2.5
2025-01-02 18:32:31.185482	330.6	17.1	-91.5	3.5
2025-01-02 18:32:33.493081	330.8	16.9	-92.7	2.9
2025-01-02 18:32:35.799327	330.9	16.6	-92.5	1.7
2025-01-02 18:32:38.107511	331.0	16.4	-92.3	1.9
2025-01-02 18:32:40.422453	331.1	16.1	-92.7	3.4
2025-01-02 18:32:42.738297	331.3	15.9	-92.8	4.0
2025-01-02 18:32:45.043115	331.4	15.6	-92.4	3.4
2025-01-02 18:32:47.361734	331.5	15.4	-92.5	3.0
2025-01-02 18:32:49.670380	331.6	15.2	-92.6	6.5
2025-01-02 18:32:51.978426	331.7	14.9	-92.7	1.1
2025-01-02 18:32:54.389892	331.8	14.7	-92.9	1.7
#Closed at: 2025-01-02 18:23:52.447022