passes_logs/2025/01/02/LEX_Murmansk/LEX_Murmansk__20250102_200704_NOAA_19_rec.log

#Pass ID: 20250102_200704_NOAA 19
#Satellite: NOAA 19
#Configuration: NOAA 19
#Start time: 2025-01-02 20:06:58.943996

#LorettStation: 1.0.0 05.05.2024
#Station: LEX_Murmansk
#Location: 33.156738 lon 68.926811 lat
#TLE: 1 33591U 09005A   25001.83569820  .00001454  00000+0  79919-3 0  9995
#TLE: 2 33591  99.0217  65.4951 0014707  92.5482 267.7374 14.13252981819684

#Time	Az	El	Level	SNR
2025-01-02 20:07:11.228997	237.0	15.8	-92.1	12.4
2025-01-02 20:07:12.379456	237.2	15.9	-92.1	12.4
2025-01-02 20:07:13.529838	237.4	16.0	-91.8	7.3
2025-01-02 20:07:14.675369	237.6	16.0	-92.1	8.3
2025-01-02 20:07:15.829288	237.8	16.1	-92.0	1.8
2025-01-02 20:07:16.977917	238.0	16.2	-92.4	11.2
2025-01-02 20:07:18.127327	238.2	16.3	-92.3	5.3
2025-01-02 20:07:19.274873	238.4	16.3	-92.3	9.0
2025-01-02 20:07:20.430022	238.6	16.4	-92.8	5.4
2025-01-02 20:07:21.583333	238.8	16.5	-92.6	9.0
2025-01-02 20:07:22.739625	239.0	16.6	-93.0	11.6
2025-01-02 20:07:23.888890	239.2	16.6	-92.9	11.9
2025-01-02 20:07:25.032986	239.4	16.7	-92.5	7.4
2025-01-02 20:07:26.185460	239.6	16.8	-92.3	3.7
2025-01-02 20:07:27.335250	239.8	16.9	-92.5	0.8
2025-01-02 20:07:28.482284	240.0	16.9	-92.5	2.2
2025-01-02 20:07:29.629756	240.2	17.0	-92.5	3.3
2025-01-02 20:07:30.786809	240.5	17.1	-93.0	2.8
2025-01-02 20:07:31.933872	240.7	17.2	-92.7	5.3
2025-01-02 20:07:33.084012	240.9	17.2	-92.6	6.8
2025-01-02 20:07:34.238442	241.1	17.3	-92.3	8.3
2025-01-02 20:07:35.391653	241.3	17.4	-92.4	6.3
2025-01-02 20:07:36.537717	241.5	17.5	-92.4	3.0
2025-01-02 20:07:37.683534	241.8	17.5	-92.0	7.5
2025-01-02 20:07:38.834878	242.0	17.6	-92.4	3.6
2025-01-02 20:07:39.985855	242.2	17.7	-92.5	5.2
2025-01-02 20:07:41.136064	242.4	17.8	-92.7	5.5
2025-01-02 20:07:42.285827	242.7	17.8	-92.5	3.7
2025-01-02 20:07:43.432265	242.9	17.9	-92.4	8.0
2025-01-02 20:07:44.577177	243.1	18.0	-92.6	9.3
2025-01-02 20:07:45.724656	243.3	18.0	-92.6	5.3
2025-01-02 20:07:46.873466	243.6	18.1	-92.4	8.8
2025-01-02 20:07:48.023567	243.8	18.2	-92.4	2.4
2025-01-02 20:07:49.175771	244.0	18.3	-92.4	5.6
2025-01-02 20:07:50.323580	244.3	18.3	-92.4	2.7
2025-01-02 20:07:51.468048	244.5	18.4	-92.5	3.0
2025-01-02 20:07:52.626006	244.7	18.5	-92.6	1.0
2025-01-02 20:07:53.773899	245.0	18.5	-92.4	1.7
2025-01-02 20:07:54.919947	245.2	18.6	-92.4	4.3
2025-01-02 20:07:56.068427	245.4	18.7	-92.6	4.4
2025-01-02 20:07:57.221424	245.7	18.7	-92.5	6.8
2025-01-02 20:07:58.368403	245.9	18.8	-92.7	13.1
2025-01-02 20:07:59.518154	246.1	18.9	-92.6	9.3
2025-01-02 20:08:00.655880	246.4	18.9	-92.7	9.7
2025-01-02 20:08:01.799734	246.6	19.0	-92.5	6.5
2025-01-02 20:08:02.947369	246.9	19.1	-92.6	4.7
2025-01-02 20:08:04.098796	247.1	19.1	-92.0	6.0
2025-01-02 20:08:05.247412	247.4	19.2	-92.5	4.5
2025-01-02 20:08:06.396885	247.6	19.3	-92.6	7.0
2025-01-02 20:08:07.546915	247.9	19.3	-92.7	6.3
2025-01-02 20:08:08.702253	248.1	19.4	-92.7	5.0
2025-01-02 20:08:09.866449	248.4	19.5	-92.6	4.4
2025-01-02 20:08:11.018715	248.6	19.5	-92.5	3.0
2025-01-02 20:08:12.163556	248.9	19.6	-92.5	9.2
2025-01-02 20:08:13.313411	249.1	19.7	-92.6	6.1
2025-01-02 20:08:14.462677	249.4	19.7	-92.5	2.1
2025-01-02 20:08:15.608842	249.6	19.8	-92.5	1.2
2025-01-02 20:08:16.759522	249.9	19.9	-92.9	3.0
2025-01-02 20:08:17.910534	250.1	19.9	-92.9	2.4
2025-01-02 20:08:19.060327	250.4	20.0	-92.3	2.4
2025-01-02 20:08:20.319929	250.7	20.1	-92.5	2.0
2025-01-02 20:08:21.468483	250.9	20.1	-93.1	1.0
2025-01-02 20:08:22.621138	251.2	20.2	-92.2	3.3
2025-01-02 20:08:23.777724	251.5	20.2	-92.6	1.4
2025-01-02 20:08:24.923377	251.7	20.3	-92.7	4.3
2025-01-02 20:08:26.073007	252.0	20.4	-92.7	3.6
2025-01-02 20:08:27.223430	252.2	20.4	-92.6	2.1
2025-01-02 20:08:28.370080	252.5	20.5	-92.3	4.8
2025-01-02 20:08:29.518112	252.8	20.5	-92.9	8.7
2025-01-02 20:08:30.671117	253.0	20.6	-92.6	5.6
2025-01-02 20:08:31.820131	253.3	20.6	-92.9	5.3
2025-01-02 20:08:32.972172	253.6	20.7	-92.3	1.4
2025-01-02 20:08:34.124091	253.9	20.8	-92.6	3.6
2025-01-02 20:08:35.270538	254.1	20.8	-92.6	2.0
2025-01-02 20:08:36.421476	254.4	20.9	-92.8	4.7
2025-01-02 20:08:37.575949	254.7	20.9	-92.8	6.5
2025-01-02 20:08:38.723387	254.9	21.0	-92.6	2.6
2025-01-02 20:08:39.868897	255.2	21.0	-92.7	2.4
2025-01-02 20:08:41.025897	255.5	21.1	-92.7	4.0
2025-01-02 20:08:42.176051	255.8	21.1	-92.9	6.9
2025-01-02 20:08:43.326888	256.1	21.2	-92.6	8.1
2025-01-02 20:08:44.473275	256.3	21.2	-92.7	2.7
2025-01-02 20:08:45.625917	256.6	21.3	-93.0	2.4
2025-01-02 20:08:46.774161	256.9	21.3	-92.4	3.0
2025-01-02 20:08:47.922260	257.2	21.4	-92.9	4.3
2025-01-02 20:08:49.065508	257.5	21.4	-93.0	3.8
2025-01-02 20:08:50.214515	257.7	21.5	-92.5	0.1
2025-01-02 20:08:51.364543	258.0	21.5	-92.7	1.1
2025-01-02 20:08:52.510255	258.3	21.6	-93.1	3.7
2025-01-02 20:08:53.659282	258.6	21.6	-92.8	2.9
2025-01-02 20:08:54.821422	258.9	21.7	-92.6	2.7
2025-01-02 20:08:55.972564	259.2	21.7	-92.9	2.9
2025-01-02 20:08:57.120756	259.5	21.8	-92.4	4.4
2025-01-02 20:08:58.268688	259.8	21.8	-92.7	5.1
2025-01-02 20:08:59.422445	260.0	21.9	-93.2	7.8
2025-01-02 20:09:00.569432	260.3	21.9	-92.7	4.8
2025-01-02 20:09:01.716315	260.6	21.9	-92.9	7.4
2025-01-02 20:09:02.871930	260.9	22.0	-92.9	8.0
2025-01-02 20:09:04.018874	261.2	22.0	-93.0	6.8
2025-01-02 20:09:05.166553	261.5	22.1	-92.7	10.9
2025-01-02 20:09:06.312929	261.8	22.1	-92.7	8.1
2025-01-02 20:09:07.464659	262.1	22.1	-93.0	9.4
2025-01-02 20:09:08.614910	262.4	22.2	-93.1	9.0
2025-01-02 20:09:09.767100	262.7	22.2	-92.9	4.9
2025-01-02 20:09:10.917425	263.0	22.2	-92.7	3.4
2025-01-02 20:09:12.069405	263.3	22.3	-92.8	6.5
2025-01-02 20:09:13.216606	263.6	22.3	-92.9	4.1
2025-01-02 20:09:14.363671	263.9	22.4	-92.2	5.3
2025-01-02 20:09:15.529015	264.2	22.4	-92.8	6.6
2025-01-02 20:09:16.681614	264.5	22.4	-92.9	10.3
2025-01-02 20:09:17.834447	264.8	22.4	-92.8	10.9
2025-01-02 20:09:18.979026	265.1	22.5	-92.7	9.6
2025-01-02 20:09:20.125883	265.4	22.5	-92.8	11.2
2025-01-02 20:09:21.274320	265.7	22.5	-92.0	13.6
2025-01-02 20:09:22.415967	266.0	22.6	-92.0	12.0
2025-01-02 20:09:23.558659	266.3	22.6	-92.1	10.9
2025-01-02 20:09:24.686664	266.6	22.6	-91.7	13.1
2025-01-02 20:09:25.806664	266.9	22.6	-91.7	12.5
2025-01-02 20:09:26.926815	267.2	22.7	-92.0	9.2
2025-01-02 20:09:28.048129	267.5	22.7	-91.6	7.5
2025-01-02 20:09:29.169111	267.8	22.7	-91.4	9.2
2025-01-02 20:09:30.289154	268.1	22.7	-92.4	4.4
2025-01-02 20:09:31.413267	268.4	22.8	-92.9	3.7
2025-01-02 20:09:32.540493	268.7	22.8	-92.9	7.1
2025-01-02 20:09:33.686595	269.0	22.8	-92.9	2.6
2025-01-02 20:09:34.831093	269.3	22.8	-93.0	3.0
2025-01-02 20:09:35.979442	269.6	22.8	-93.1	3.3
2025-01-02 20:09:37.122868	269.9	22.9	-92.5	5.0
2025-01-02 20:09:38.267868	270.2	22.9	-92.9	2.5
2025-01-02 20:09:39.414697	270.5	22.9	-93.0	5.7
2025-01-02 20:09:40.561238	270.8	22.9	-92.6	4.1
2025-01-02 20:09:41.712613	271.1	22.9	-92.7	2.8
2025-01-02 20:09:42.861974	271.5	22.9	-92.9	7.5
2025-01-02 20:09:44.009755	271.8	23.0	-93.1	5.9
2025-01-02 20:09:45.160482	272.1	23.0	-92.6	7.7
2025-01-02 20:09:46.307900	272.4	23.0	-92.6	10.5
2025-01-02 20:09:47.456617	272.7	23.0	-92.7	7.8
2025-01-02 20:09:48.602636	273.0	23.0	-92.8	7.8
2025-01-02 20:09:49.753070	273.3	23.0	-92.9	8.0
2025-01-02 20:09:50.905182	273.6	23.0	-92.5	7.8
2025-01-02 20:09:52.059607	274.0	23.0	-92.8	8.8
2025-01-02 20:09:53.216058	274.3	23.0	-92.7	8.0
2025-01-02 20:09:54.360681	274.6	23.0	-92.1	5.4
2025-01-02 20:09:55.513052	274.9	23.0	-92.3	6.3
2025-01-02 20:09:56.664622	275.2	23.0	-92.7	10.3
2025-01-02 20:09:57.813403	275.5	23.1	-92.9	7.1
2025-01-02 20:09:58.966999	275.8	23.1	-92.8	6.9
2025-01-02 20:10:00.116884	276.1	23.1	-92.7	8.0
2025-01-02 20:10:01.259057	276.5	23.1	-92.7	3.4
2025-01-02 20:10:02.405180	276.8	23.1	-92.7	3.3
2025-01-02 20:10:03.554488	277.1	23.1	-93.1	8.2
2025-01-02 20:10:04.704747	277.4	23.0	-92.7	5.3
2025-01-02 20:10:05.863365	277.7	23.0	-92.7	3.3
2025-01-02 20:10:07.011462	278.0	23.0	-92.8	7.8
2025-01-02 20:10:08.156224	278.3	23.0	-89.5	4.8
2025-01-02 20:10:09.305535	278.6	23.0	-92.5	3.4
2025-01-02 20:10:10.446833	279.0	23.0	-93.2	3.6
2025-01-02 20:10:11.606356	279.3	23.0	-92.9	5.7
2025-01-02 20:10:12.749877	279.6	23.0	-92.9	4.1
2025-01-02 20:10:13.900166	279.9	23.0	-92.7	3.5
2025-01-02 20:10:15.051062	280.2	23.0	-93.0	4.2
2025-01-02 20:10:16.204996	280.5	23.0	-92.4	3.7
2025-01-02 20:10:17.357122	280.8	23.0	-92.8	4.0
2025-01-02 20:10:18.505292	281.1	23.0	-92.8	4.3
2025-01-02 20:10:19.656127	281.4	22.9	-92.9	4.4
2025-01-02 20:10:20.807559	281.8	22.9	-92.7	2.9
2025-01-02 20:10:21.962655	282.1	22.9	-92.9	9.1
2025-01-02 20:10:23.111718	282.4	22.9	-92.8	5.2
2025-01-02 20:10:24.261237	282.7	22.9	-92.6	10.1
2025-01-02 20:10:25.413368	283.0	22.9	-92.8	11.1
2025-01-02 20:10:26.562511	283.3	22.8	-93.1	7.4
2025-01-02 20:10:27.716043	283.6	22.8	-93.2	6.5
2025-01-02 20:10:28.865357	283.9	22.8	-92.9	4.3
2025-01-02 20:10:30.013863	284.2	22.8	-92.6	7.5
2025-01-02 20:10:31.162690	284.5	22.8	-92.6	9.7
2025-01-02 20:10:32.312853	284.8	22.7	-92.7	9.2
2025-01-02 20:10:33.468627	285.2	22.7	-92.6	12.9
2025-01-02 20:10:34.617678	285.5	22.7	-92.7	16.0
2025-01-02 20:10:35.765492	285.8	22.7	-92.6	3.3
2025-01-02 20:10:36.917986	286.1	22.6	-93.0	4.4
2025-01-02 20:10:38.070116	286.4	22.6	-93.0	10.8
2025-01-02 20:10:39.218748	286.7	22.6	-92.4	6.3
2025-01-02 20:10:40.367376	287.0	22.6	-92.6	10.2
2025-01-02 20:10:41.518612	287.3	22.5	-92.8	5.6
2025-01-02 20:10:42.665276	287.6	22.5	-92.9	6.5
2025-01-02 20:10:43.814143	287.9	22.5	-92.8	8.6
2025-01-02 20:10:44.964095	288.2	22.4	-92.9	11.3
2025-01-02 20:10:46.115397	288.5	22.4	-92.7	13.3
2025-01-02 20:10:47.264851	288.8	22.4	-92.6	9.9
2025-01-02 20:10:48.412204	289.1	22.3	-92.8	7.9
2025-01-02 20:10:49.563585	289.4	22.3	-92.7	8.8
2025-01-02 20:10:50.710581	289.7	22.3	-93.0	5.5
2025-01-02 20:10:51.858842	290.0	22.2	-93.1	9.8
2025-01-02 20:10:53.008520	290.3	22.2	-92.8	5.7
2025-01-02 20:10:54.161833	290.6	22.2	-92.6	4.8
2025-01-02 20:10:55.306649	290.9	22.1	-92.7	5.4
2025-01-02 20:10:56.457987	291.2	22.1	-93.0	5.8
2025-01-02 20:10:57.601453	291.5	22.0	-92.7	9.4
2025-01-02 20:10:58.746594	291.7	22.0	-93.2	4.6
2025-01-02 20:10:59.896042	292.0	22.0	-92.4	13.2
2025-01-02 20:11:01.037057	292.3	21.9	-92.9	7.9
2025-01-02 20:11:02.188345	292.6	21.9	-92.7	5.0
2025-01-02 20:11:03.338086	292.9	21.8	-92.5	5.5
2025-01-02 20:11:04.487896	293.2	21.8	-92.8	5.3
2025-01-02 20:11:05.646358	293.5	21.7	-92.7	8.0
2025-01-02 20:11:06.791633	293.8	21.7	-92.8	11.9
2025-01-02 20:11:07.947003	294.1	21.7	-92.8	10.2
2025-01-02 20:11:09.094279	294.3	21.6	-93.0	8.9
2025-01-02 20:11:10.244557	294.6	21.6	-92.6	7.7
2025-01-02 20:11:11.391842	294.9	21.5	-92.9	4.3
2025-01-02 20:11:12.545537	295.2	21.5	-93.0	3.6
2025-01-02 20:11:13.697638	295.5	21.4	-93.1	3.6
2025-01-02 20:11:14.849411	295.8	21.4	-92.8	7.4
2025-01-02 20:11:16.000125	296.0	21.3	-92.9	6.4
2025-01-02 20:11:17.152531	296.3	21.3	-92.5	4.0
2025-01-02 20:11:18.295491	296.6	21.2	-92.7	9.1
2025-01-02 20:11:19.441959	296.9	21.2	-92.8	8.4
2025-01-02 20:11:20.593793	297.2	21.1	-92.9	4.4
2025-01-02 20:11:21.742605	297.4	21.1	-92.8	9.0
2025-01-02 20:11:22.890278	297.7	21.0	-93.1	8.8
2025-01-02 20:11:24.040274	298.0	21.0	-92.7	8.3
2025-01-02 20:11:25.185938	298.3	20.9	-92.7	2.1
2025-01-02 20:11:26.332407	298.5	20.9	-92.7	10.6
2025-01-02 20:11:27.481494	298.8	20.8	-92.8	3.3
2025-01-02 20:11:28.629083	299.1	20.7	-93.1	2.5
2025-01-02 20:11:29.772364	299.3	20.7	-93.2	2.3
2025-01-02 20:11:30.919597	299.6	20.6	-92.7	2.2
2025-01-02 20:11:32.071182	299.9	20.6	-92.9	2.5
2025-01-02 20:11:33.220336	300.1	20.5	-92.9	0.9
2025-01-02 20:11:34.387550	300.4	20.5	-92.7	1.5
2025-01-02 20:11:35.533028	300.7	20.4	-93.0	5.7
2025-01-02 20:11:36.690354	300.9	20.3	-93.2	5.9
2025-01-02 20:11:37.841412	301.2	20.3	-92.9	5.2
2025-01-02 20:11:38.986886	301.5	20.2	-92.9	8.9
2025-01-02 20:11:40.134623	301.7	20.2	-93.0	8.1
2025-01-02 20:11:41.283277	302.0	20.1	-92.3	7.7
2025-01-02 20:11:42.435220	302.2	20.0	-93.0	5.9
2025-01-02 20:11:43.583589	302.5	20.0	-92.9	8.2
2025-01-02 20:11:44.736770	302.8	19.9	-93.1	4.5
2025-01-02 20:11:45.882477	303.0	19.9	-93.0	4.5
2025-01-02 20:11:47.027811	303.3	19.8	-92.7	6.2
2025-01-02 20:11:48.180649	303.5	19.7	-92.8	2.5
2025-01-02 20:11:49.325444	303.8	19.7	-92.9	1.4
2025-01-02 20:11:50.475103	304.0	19.6	-92.6	5.0
2025-01-02 20:11:51.624915	304.3	19.5	-92.7	2.0
2025-01-02 20:11:52.774695	304.5	19.5	-93.1	3.3
2025-01-02 20:11:53.926635	304.8	19.4	-92.6	2.4
2025-01-02 20:11:55.071043	305.0	19.3	-92.6	1.0
2025-01-02 20:11:56.226035	305.3	19.3	-92.6	0.5
2025-01-02 20:11:57.371688	305.5	19.2	-93.0	3.7
2025-01-02 20:11:58.523734	305.8	19.1	-92.7	4.0
2025-01-02 20:11:59.665614	306.0	19.1	-92.6	2.5
2025-01-02 20:12:00.806574	306.2	19.0	-93.0	1.4
2025-01-02 20:12:01.957504	306.5	18.9	-92.9	5.0
2025-01-02 20:12:03.101465	306.7	18.9	-92.6	3.7
2025-01-02 20:12:04.258188	307.0	18.8	-92.9	1.2
2025-01-02 20:12:05.393689	307.2	18.7	-92.8	4.5
2025-01-02 20:12:06.537715	307.4	18.7	-92.9	1.2
2025-01-02 20:12:07.674007	307.7	18.6	-92.7	2.9
2025-01-02 20:12:08.795122	307.9	18.5	-93.2	2.9
2025-01-02 20:12:09.918310	308.1	18.5	-92.8	3.1
2025-01-02 20:12:11.038794	308.4	18.4	-92.9	4.9
2025-01-02 20:12:12.159493	308.6	18.3	-92.6	4.9
2025-01-02 20:12:13.280258	308.8	18.3	-92.7	2.8
2025-01-02 20:12:14.401688	309.0	18.2	-92.8	2.4
2025-01-02 20:12:15.525351	309.3	18.1	-92.8	1.5
2025-01-02 20:12:16.664113	309.5	18.0	-92.7	3.2
2025-01-02 20:12:17.813797	309.7	18.0	-93.1	4.6
2025-01-02 20:12:18.970528	309.9	17.9	-93.0	6.9
2025-01-02 20:12:20.118530	310.2	17.8	-92.8	8.6
2025-01-02 20:12:21.252923	310.4	17.8	-92.7	4.9
2025-01-02 20:12:22.398149	310.6	17.7	-92.9	2.7
2025-01-02 20:12:23.545135	310.8	17.6	-93.1	5.6
2025-01-02 20:12:24.693692	311.0	17.5	-92.9	7.6
2025-01-02 20:12:25.839825	311.3	17.5	-93.2	4.1
2025-01-02 20:12:26.994037	311.5	17.4	-92.7	7.2
2025-01-02 20:12:28.146484	311.7	17.3	-92.7	5.6
2025-01-02 20:12:29.291429	311.9	17.3	-92.6	2.5
2025-01-02 20:12:30.442433	312.1	17.2	-93.0	6.4
2025-01-02 20:12:31.589811	312.4	17.1	-93.1	3.3
2025-01-02 20:12:32.736281	312.6	17.0	-92.8	2.5
2025-01-02 20:12:33.888466	312.8	17.0	-93.2	1.8
2025-01-02 20:12:35.041899	313.0	16.9	-92.9	3.0
2025-01-02 20:12:36.193578	313.2	16.8	-92.9	1.9
2025-01-02 20:12:37.346412	313.4	16.7	-92.5	1.8
2025-01-02 20:12:38.492247	313.6	16.7	-92.9	1.6
2025-01-02 20:12:39.642282	313.8	16.6	-93.1	6.3
2025-01-02 20:12:40.790945	314.0	16.5	-92.7	2.6
2025-01-02 20:12:41.939465	314.2	16.4	-92.5	2.3
2025-01-02 20:12:43.091830	314.4	16.4	-92.6	2.0
2025-01-02 20:12:44.240693	314.7	16.3	-93.0	2.3
2025-01-02 20:12:45.386511	314.9	16.2	-92.7	6.4
2025-01-02 20:12:46.533667	315.1	16.1	-92.8	6.6
2025-01-02 20:12:47.683427	315.3	16.1	-92.9	2.5
2025-01-02 20:12:48.833469	315.5	16.0	-92.9	3.0
2025-01-02 20:12:49.981762	315.7	15.9	-92.7	6.3
2025-01-02 20:12:51.127354	315.9	15.8	-92.8	4.3
2025-01-02 20:12:52.278382	316.0	15.8	-92.5	8.3
2025-01-02 20:12:53.426481	316.2	15.7	-93.0	5.2
2025-01-02 20:12:54.574446	316.4	15.6	-92.8	10.8
2025-01-02 20:12:55.723742	316.6	15.5	-92.9	6.2
2025-01-02 20:12:56.875168	316.8	15.5	-92.9	6.1
2025-01-02 20:12:58.024022	317.0	15.4	-92.6	5.8
2025-01-02 20:12:59.171170	317.2	15.3	-92.6	6.2
2025-01-02 20:13:00.315613	317.4	15.2	-93.0	1.3
2025-01-02 20:13:01.464522	317.6	15.2	-92.7	3.1
2025-01-02 20:13:02.614342	317.8	15.1	-93.0	2.8
2025-01-02 20:13:03.770919	318.0	15.0	-92.9	0.2
2025-01-02 20:13:04.922510	318.2	14.9	-93.0	1.5
2025-01-02 20:13:06.067060	318.3	14.9	-92.9	1.0
2025-01-02 20:13:07.221666	318.5	14.8	-92.8	2.3
2025-01-02 20:13:08.365849	318.7	14.7	-93.0	2.8
#Closed at: 2025-01-02 20:07:04.031737