passes_logs/2025/01/02/LEX_Murmansk/LEX_Murmansk__20250102_114512_NOAA_19_rec.log

#Pass ID: 20250102_114512_NOAA 19
#Satellite: NOAA 19
#Configuration: NOAA 19
#Start time: 2025-01-02 11:45:07.285292

#LorettStation: 1.0.0 05.05.2024
#Station: LEX_Murmansk
#Location: 33.156738 lon 68.926811 lat
#TLE: 1 33591U 09005A   25001.83569820  .00001454  00000+0  79919-3 0  9995
#TLE: 2 33591  99.0217  65.4951 0014707  92.5482 267.7374 14.13252981819684

#Time	Az	El	Level	SNR
2025-01-02 11:45:21.449902	26.0	16.2	-92.2	2.5
2025-01-02 11:45:22.608459	25.9	16.3	-92.6	4.0
2025-01-02 11:45:23.772040	25.7	16.4	-92.4	7.0
2025-01-02 11:45:24.934724	25.5	16.5	-92.4	5.0
2025-01-02 11:45:26.094100	25.4	16.6	-92.2	4.0
2025-01-02 11:45:27.261197	25.2	16.7	-91.9	0.9
2025-01-02 11:45:28.421476	25.0	16.8	-92.1	5.3
2025-01-02 11:45:29.586315	24.9	16.9	-92.2	1.5
2025-01-02 11:45:30.754539	24.7	17.0	-92.1	3.9
2025-01-02 11:45:31.914583	24.5	17.1	-92.0	2.6
2025-01-02 11:45:33.070138	24.3	17.2	-92.1	1.7
2025-01-02 11:45:34.228768	24.2	17.3	-91.9	2.4
2025-01-02 11:45:35.390711	24.0	17.4	-92.1	2.8
2025-01-02 11:45:36.550723	23.8	17.5	-92.1	1.9
2025-01-02 11:45:37.713837	23.6	17.6	-92.3	3.5
2025-01-02 11:45:38.875602	23.5	17.7	-92.5	2.1
2025-01-02 11:45:40.031730	23.3	17.8	-92.6	4.7
2025-01-02 11:45:41.174897	23.1	17.9	-91.9	9.2
2025-01-02 11:45:42.339331	22.9	18.0	-92.0	4.1
2025-01-02 11:45:43.504729	22.7	18.1	-92.5	9.5
2025-01-02 11:45:44.664468	22.5	18.2	-92.2	5.2
2025-01-02 11:45:45.824468	22.3	18.3	-91.8	4.5
2025-01-02 11:45:46.988848	22.2	18.4	-92.0	3.7
2025-01-02 11:45:48.154346	22.0	18.5	-90.8	2.1
2025-01-02 11:45:49.313121	21.8	18.6	-91.9	7.6
2025-01-02 11:45:50.476914	21.6	18.7	-92.6	6.1
2025-01-02 11:45:51.634889	21.4	18.8	-92.8	10.7
2025-01-02 11:45:52.795889	21.2	18.9	-92.6	14.1
2025-01-02 11:45:53.959987	21.0	19.0	-92.6	10.1
2025-01-02 11:45:55.124424	20.8	19.1	-92.2	2.9
2025-01-02 11:45:56.287816	20.6	19.2	-92.1	1.7
2025-01-02 11:45:57.456444	20.4	19.3	-92.3	1.2
2025-01-02 11:45:58.622597	20.2	19.4	-92.6	1.4
2025-01-02 11:45:59.785656	20.0	19.5	-92.8	0.8
2025-01-02 11:46:00.945999	19.8	19.6	-92.9	4.3
2025-01-02 11:46:02.105201	19.6	19.7	-92.4	5.8
2025-01-02 11:46:03.269938	19.4	19.8	-92.5	0.1
2025-01-02 11:46:04.431846	19.2	19.9	-93.0	5.0
2025-01-02 11:46:05.600357	18.9	20.0	-92.8	1.5
2025-01-02 11:46:06.732799	18.7	20.1	-92.7	4.8
2025-01-02 11:46:07.897008	18.5	20.2	-92.8	0.8
2025-01-02 11:46:09.056448	18.3	20.3	-92.6	4.1
2025-01-02 11:46:10.216392	18.1	20.4	-92.3	4.0
2025-01-02 11:46:11.380526	17.9	20.5	-92.9	3.6
2025-01-02 11:46:12.544596	17.7	20.6	-93.2	12.4
2025-01-02 11:46:13.707612	17.4	20.7	-93.1	8.9
2025-01-02 11:46:14.876913	17.2	20.8	-92.9	2.6
2025-01-02 11:46:16.037451	17.0	20.9	-92.6	5.8
2025-01-02 11:46:17.193005	16.8	21.0	-92.1	7.0
2025-01-02 11:46:18.353377	16.5	21.1	-92.1	1.0
2025-01-02 11:46:19.515824	16.3	21.2	-92.7	2.9
2025-01-02 11:46:20.677483	16.1	21.3	-92.8	0.8
2025-01-02 11:46:21.836247	15.8	21.4	-92.8	1.6
2025-01-02 11:46:23.008892	15.6	21.5	-93.1	3.5
2025-01-02 11:46:24.168655	15.4	21.6	-92.5	4.0
2025-01-02 11:46:25.329777	15.1	21.7	-92.5	10.1
2025-01-02 11:46:26.490927	14.9	21.8	-92.9	5.7
2025-01-02 11:46:27.655726	14.7	21.9	-93.1	6.7
2025-01-02 11:46:28.817584	14.4	22.0	-92.0	5.2
2025-01-02 11:46:29.979754	14.2	22.1	-92.8	3.0
2025-01-02 11:46:31.143133	13.9	22.2	-92.3	5.2
2025-01-02 11:46:32.296272	13.7	22.3	-92.3	1.7
2025-01-02 11:46:33.455163	13.5	22.4	-92.5	6.3
2025-01-02 11:46:34.615487	13.2	22.5	-91.7	6.0
2025-01-02 11:46:35.776437	13.0	22.6	-91.5	8.0
2025-01-02 11:46:36.933776	12.7	22.7	-91.9	7.5
2025-01-02 11:46:38.098792	12.4	22.8	-91.4	9.1
2025-01-02 11:46:39.258508	12.2	22.9	-92.1	3.3
2025-01-02 11:46:40.423703	11.9	23.0	-92.2	8.3
2025-01-02 11:46:41.588497	11.7	23.1	-92.9	6.7
2025-01-02 11:46:42.751748	11.4	23.2	-92.7	2.1
2025-01-02 11:46:43.918591	11.2	23.3	-92.6	4.7
2025-01-02 11:46:45.081146	10.9	23.4	-92.2	2.0
2025-01-02 11:46:46.246727	10.6	23.5	-92.0	6.7
2025-01-02 11:46:47.410517	10.4	23.6	-92.4	5.8
2025-01-02 11:46:48.575005	10.1	23.7	-92.7	6.3
2025-01-02 11:46:49.739549	9.8	23.8	-92.4	6.5
2025-01-02 11:46:50.898583	9.6	23.9	-92.8	12.9
2025-01-02 11:46:52.061762	9.3	23.9	-92.8	9.2
2025-01-02 11:46:53.222819	9.0	24.0	-92.8	3.5
2025-01-02 11:46:54.388648	8.7	24.1	-92.9	5.2
2025-01-02 11:46:55.551969	8.4	24.2	-92.9	3.0
2025-01-02 11:46:56.718322	8.2	24.3	-93.0	5.5
2025-01-02 11:46:57.881767	7.9	24.4	-92.8	6.4
2025-01-02 11:46:59.039309	7.6	24.5	-92.7	8.1
2025-01-02 11:47:00.200729	7.3	24.6	-92.3	11.1
2025-01-02 11:47:01.361752	7.0	24.7	-92.4	7.6
2025-01-02 11:47:02.520101	6.7	24.8	-92.9	10.6
2025-01-02 11:47:03.678029	6.5	24.9	-92.8	9.0
2025-01-02 11:47:04.841965	6.2	25.0	-92.7	6.3
2025-01-02 11:47:06.010102	5.9	25.1	-92.6	3.7
2025-01-02 11:47:07.172097	5.6	25.1	-92.1	0.7
2025-01-02 11:47:08.334862	5.3	25.2	-92.8	1.6
2025-01-02 11:47:09.500672	5.0	25.3	-93.0	5.8
2025-01-02 11:47:10.664342	4.7	25.4	-92.7	5.0
2025-01-02 11:47:11.833699	4.4	25.5	-92.2	4.6
2025-01-02 11:47:12.992579	4.1	25.6	-92.5	6.2
2025-01-02 11:47:14.152219	3.8	25.7	-91.2	5.1
2025-01-02 11:47:15.322000	3.5	25.7	-91.3	8.5
2025-01-02 11:47:16.484449	3.2	25.8	-92.1	8.1
2025-01-02 11:47:17.653244	2.8	25.9	-91.7	12.1
2025-01-02 11:47:18.818348	2.5	26.0	-91.6	4.3
2025-01-02 11:47:19.986137	2.2	26.1	-91.5	4.1
2025-01-02 11:47:21.145209	1.9	26.2	-91.2	4.8
2025-01-02 11:47:22.306191	1.6	26.2	-91.1	6.8
2025-01-02 11:47:23.462487	1.3	26.3	-93.0	5.0
2025-01-02 11:47:24.628047	1.0	26.4	-92.7	9.0
2025-01-02 11:47:25.794566	0.6	26.5	-93.0	6.5
2025-01-02 11:47:26.955124	0.3	26.6	-92.7	6.2
2025-01-02 11:47:28.117818	360.0	26.6	-92.4	10.9
2025-01-02 11:47:29.276613	359.7	26.7	-92.6	7.7
2025-01-02 11:47:30.441211	359.3	26.8	-93.0	6.2
2025-01-02 11:47:31.607171	359.0	26.9	-92.6	5.9
2025-01-02 11:47:32.767678	358.7	26.9	-93.1	10.6
2025-01-02 11:47:33.934133	358.3	27.0	-92.5	6.0
2025-01-02 11:47:35.110638	358.0	27.1	-92.5	5.8
2025-01-02 11:47:36.278839	357.7	27.1	-92.6	2.2
2025-01-02 11:47:37.440614	357.3	27.2	-92.7	4.3
2025-01-02 11:47:38.607974	357.0	27.3	-92.7	4.0
2025-01-02 11:47:39.772322	356.6	27.4	-92.5	2.9
2025-01-02 11:47:40.937259	356.3	27.4	-92.8	5.6
2025-01-02 11:47:42.104266	356.0	27.5	-92.6	6.6
2025-01-02 11:47:43.265062	355.6	27.6	-92.7	2.7
2025-01-02 11:47:44.425496	355.3	27.6	-93.2	6.1
2025-01-02 11:47:45.585076	354.9	27.7	-93.0	10.5
2025-01-02 11:47:46.750062	354.6	27.7	-93.1	10.2
2025-01-02 11:47:47.911242	354.2	27.8	-93.1	10.5
2025-01-02 11:47:49.075634	353.9	27.9	-92.7	11.6
2025-01-02 11:47:50.241112	353.5	27.9	-92.5	10.5
2025-01-02 11:47:51.405556	353.2	28.0	-92.5	13.1
2025-01-02 11:47:52.574286	352.8	28.0	-92.7	6.1
2025-01-02 11:47:53.731135	352.5	28.1	-93.1	7.0
2025-01-02 11:47:54.894835	352.1	28.1	-93.0	6.4
2025-01-02 11:47:56.056994	351.8	28.2	-92.9	6.0
2025-01-02 11:47:57.220800	351.4	28.3	-92.6	4.0
2025-01-02 11:47:58.382412	351.0	28.3	-92.9	1.4
2025-01-02 11:47:59.543458	350.7	28.4	-92.5	8.3
2025-01-02 11:48:00.695194	350.3	28.4	-93.1	4.9
2025-01-02 11:48:01.860180	349.9	28.4	-93.1	5.8
2025-01-02 11:48:03.019350	349.6	28.5	-93.2	8.6
2025-01-02 11:48:04.187672	349.2	28.5	-92.5	12.2
2025-01-02 11:48:05.352438	348.8	28.6	-92.7	5.9
2025-01-02 11:48:06.517309	348.5	28.6	-92.6	9.5
2025-01-02 11:48:07.685789	348.1	28.7	-92.9	13.0
2025-01-02 11:48:08.849831	347.7	28.7	-93.0	11.1
2025-01-02 11:48:10.013451	347.4	28.7	-92.8	7.4
2025-01-02 11:48:11.176981	347.0	28.8	-92.2	9.8
2025-01-02 11:48:12.345667	346.6	28.8	-92.5	3.5
2025-01-02 11:48:13.504254	346.2	28.9	-92.3	6.4
2025-01-02 11:48:14.668049	345.9	28.9	-92.4	3.0
2025-01-02 11:48:15.831064	345.5	28.9	-92.8	1.5
2025-01-02 11:48:16.991010	345.1	28.9	-92.6	3.8
2025-01-02 11:48:18.158604	344.7	29.0	-92.8	3.6
2025-01-02 11:48:19.320478	344.4	29.0	-92.9	3.6
2025-01-02 11:48:20.488380	344.0	29.0	-93.1	2.5
2025-01-02 11:48:21.650030	343.6	29.1	-92.9	5.4
2025-01-02 11:48:22.814143	343.2	29.1	-92.9	2.7
2025-01-02 11:48:23.974833	342.9	29.1	-92.8	4.6
2025-01-02 11:48:25.141783	342.5	29.1	-92.4	0.6
2025-01-02 11:48:26.307969	342.1	29.1	-92.5	3.2
2025-01-02 11:48:27.474274	341.7	29.2	-93.1	5.0
2025-01-02 11:48:28.637509	341.3	29.2	-93.3	8.0
2025-01-02 11:48:29.804123	340.9	29.2	-93.1	8.4
2025-01-02 11:48:30.962767	340.6	29.2	-92.9	12.6
2025-01-02 11:48:32.124725	340.2	29.2	-92.6	11.5
2025-01-02 11:48:33.288896	339.8	29.2	-92.4	10.6
2025-01-02 11:48:34.458957	339.4	29.2	-92.7	9.8
2025-01-02 11:48:35.617791	339.0	29.2	-92.8	10.7
2025-01-02 11:48:36.782378	338.6	29.3	-92.9	11.1
2025-01-02 11:48:37.946112	338.3	29.3	-93.0	6.6
2025-01-02 11:48:39.114374	337.9	29.3	-92.8	8.1
2025-01-02 11:48:40.277780	337.5	29.3	-92.4	9.2
2025-01-02 11:48:41.445372	337.1	29.3	-92.6	10.8
2025-01-02 11:48:42.606304	336.7	29.3	-92.4	8.8
2025-01-02 11:48:43.763374	336.3	29.3	-92.6	6.6
2025-01-02 11:48:44.932787	336.0	29.3	-93.0	11.3
2025-01-02 11:48:46.091459	335.6	29.3	-92.8	7.0
2025-01-02 11:48:47.256505	335.2	29.3	-92.8	5.4
2025-01-02 11:48:48.420545	334.8	29.2	-92.8	4.8
2025-01-02 11:48:49.589156	334.4	29.2	-93.1	5.7
2025-01-02 11:48:50.750774	334.0	29.2	-93.2	3.3
2025-01-02 11:48:51.888464	333.7	29.2	-92.9	6.8
2025-01-02 11:48:53.015947	333.3	29.2	-92.7	7.3
2025-01-02 11:48:54.170192	332.9	29.2	-92.7	6.0
2025-01-02 11:48:55.333719	332.5	29.2	-92.5	4.8
2025-01-02 11:48:56.497309	332.2	29.2	-92.6	7.1
2025-01-02 11:48:57.665021	331.8	29.1	-92.7	4.9
2025-01-02 11:48:58.830801	331.4	29.1	-92.8	4.5
2025-01-02 11:48:59.992789	331.0	29.1	-92.8	6.7
2025-01-02 11:49:01.147817	330.6	29.1	-92.5	3.9
2025-01-02 11:49:02.306240	330.3	29.0	-92.7	6.0
2025-01-02 11:49:03.465970	329.9	29.0	-92.8	7.0
2025-01-02 11:49:04.628172	329.5	29.0	-92.8	1.0
2025-01-02 11:49:05.785218	329.1	29.0	-92.9	3.7
2025-01-02 11:49:06.944839	328.8	28.9	-93.2	8.7
2025-01-02 11:49:08.108321	328.4	28.9	-92.8	8.5
2025-01-02 11:49:09.273729	328.0	28.9	-92.9	7.5
2025-01-02 11:49:10.439423	327.6	28.8	-93.1	6.9
2025-01-02 11:49:11.603518	327.3	28.8	-93.0	6.7
2025-01-02 11:49:12.770710	326.9	28.8	-92.9	5.2
2025-01-02 11:49:13.940708	326.5	28.7	-93.0	10.9
2025-01-02 11:49:15.105987	326.1	28.7	-92.9	11.8
2025-01-02 11:49:16.264938	325.8	28.6	-92.8	6.7
2025-01-02 11:49:17.429353	325.4	28.6	-92.9	14.4
2025-01-02 11:49:18.592080	325.0	28.6	-92.7	9.7
2025-01-02 11:49:19.757447	324.7	28.5	-93.0	10.7
2025-01-02 11:49:20.921151	324.3	28.5	-93.0	11.1
2025-01-02 11:49:22.086903	323.9	28.4	-92.7	12.7
2025-01-02 11:49:23.250192	323.6	28.4	-91.9	8.8
2025-01-02 11:49:24.409723	323.2	28.3	-92.9	8.3
2025-01-02 11:49:25.573810	322.8	28.3	-92.8	11.4
2025-01-02 11:49:26.742261	322.5	28.2	-92.8	5.9
2025-01-02 11:49:27.903806	322.1	28.2	-92.9	11.9
2025-01-02 11:49:29.067731	321.8	28.1	-92.7	14.1
2025-01-02 11:49:30.234526	321.4	28.1	-92.7	11.6
2025-01-02 11:49:31.393407	321.1	28.0	-93.1	8.4
2025-01-02 11:49:32.556750	320.7	27.9	-92.8	8.9
2025-01-02 11:49:33.715788	320.3	27.9	-93.3	9.8
2025-01-02 11:49:34.882538	320.0	27.8	-92.5	9.6
2025-01-02 11:49:36.046177	319.6	27.8	-92.4	6.4
2025-01-02 11:49:37.205872	319.3	27.7	-92.4	5.0
2025-01-02 11:49:38.372281	318.9	27.6	-92.8	5.8
2025-01-02 11:49:39.537574	318.6	27.6	-92.7	15.7
2025-01-02 11:49:40.702675	318.3	27.5	-92.6	9.2
2025-01-02 11:49:41.866063	317.9	27.4	-92.7	10.7
2025-01-02 11:49:43.029511	317.6	27.4	-92.7	13.2
2025-01-02 11:49:44.185842	317.2	27.3	-92.9	8.7
2025-01-02 11:49:45.347768	316.9	27.2	-92.8	11.0
2025-01-02 11:49:46.509083	316.6	27.2	-93.0	13.9
2025-01-02 11:49:47.668959	316.2	27.1	-92.8	6.7
2025-01-02 11:49:48.828893	315.9	27.0	-92.6	12.3
2025-01-02 11:49:49.992797	315.6	27.0	-92.7	10.6
2025-01-02 11:49:51.156520	315.2	26.9	-92.2	9.2
2025-01-02 11:49:52.320245	314.9	26.8	-92.5	6.4
2025-01-02 11:49:53.482356	314.6	26.7	-92.6	8.5
2025-01-02 11:49:54.641409	314.2	26.7	-93.0	7.2
2025-01-02 11:49:55.802665	313.9	26.6	-92.6	4.6
2025-01-02 11:49:56.966466	313.6	26.5	-92.6	6.0
2025-01-02 11:49:58.134224	313.3	26.4	-92.5	10.8
2025-01-02 11:49:59.293472	312.9	26.4	-92.7	5.4
2025-01-02 11:50:00.450876	312.6	26.3	-92.9	9.6
2025-01-02 11:50:01.607873	312.3	26.2	-92.9	5.5
2025-01-02 11:50:02.769961	312.0	26.1	-92.9	2.8
2025-01-02 11:50:03.929560	311.7	26.0	-93.1	4.1
2025-01-02 11:50:05.094515	311.4	25.9	-92.5	6.9
2025-01-02 11:50:06.253527	311.1	25.9	-92.9	3.4
2025-01-02 11:50:07.417808	310.8	25.8	-93.1	3.5
2025-01-02 11:50:08.585184	310.4	25.7	-92.8	6.6
2025-01-02 11:50:09.741076	310.1	25.6	-93.0	4.0
2025-01-02 11:50:10.905864	309.8	25.5	-93.0	3.1
2025-01-02 11:50:12.064571	309.5	25.4	-92.7	5.1
2025-01-02 11:50:13.232162	309.2	25.4	-92.7	3.7
2025-01-02 11:50:14.390142	308.9	25.3	-92.1	9.5
2025-01-02 11:50:15.556215	308.6	25.2	-92.4	8.3
2025-01-02 11:50:16.718898	308.3	25.1	-92.1	3.2
2025-01-02 11:50:17.886229	308.0	25.0	-92.2	6.3
2025-01-02 11:50:19.053167	307.8	24.9	-92.1	1.4
2025-01-02 11:50:20.221173	307.5	24.8	-91.4	2.8
2025-01-02 11:50:21.386153	307.2	24.7	-92.8	6.8
2025-01-02 11:50:22.551188	306.9	24.6	-93.0	9.9
2025-01-02 11:50:23.714911	306.6	24.5	-92.7	6.8
2025-01-02 11:50:24.867894	306.3	24.5	-92.3	10.4
2025-01-02 11:50:26.035880	306.0	24.4	-92.1	10.2
2025-01-02 11:50:27.197274	305.8	24.3	-91.9	6.2
2025-01-02 11:50:28.363514	305.5	24.2	-92.1	10.4
2025-01-02 11:50:29.527605	305.2	24.1	-92.8	11.5
2025-01-02 11:50:30.688998	304.9	24.0	-92.5	10.7
2025-01-02 11:50:31.856645	304.6	23.9	-93.0	14.2
2025-01-02 11:50:33.019727	304.4	23.8	-92.6	14.4
2025-01-02 11:50:34.182979	304.1	23.7	-92.2	12.3
2025-01-02 11:50:35.346337	303.8	23.6	-92.4	13.6
2025-01-02 11:50:36.509462	303.6	23.5	-92.8	12.5
2025-01-02 11:50:37.677119	303.3	23.4	-92.9	9.1
2025-01-02 11:50:38.834410	303.0	23.3	-92.9	7.0
2025-01-02 11:50:39.996728	302.8	23.2	-92.8	6.7
2025-01-02 11:50:41.157814	302.5	23.1	-92.2	7.2
2025-01-02 11:50:42.314307	302.3	23.0	-92.4	4.3
2025-01-02 11:50:43.477893	302.0	22.9	-92.5	7.4
2025-01-02 11:50:44.633276	301.7	22.8	-92.5	2.8
2025-01-02 11:50:45.789786	301.5	22.7	-92.8	6.3
2025-01-02 11:50:46.956670	301.2	22.6	-92.4	5.9
2025-01-02 11:50:48.110777	301.0	22.5	-92.1	4.0
2025-01-02 11:50:49.230527	300.7	22.4	-92.1	2.3
2025-01-02 11:50:50.350281	300.5	22.3	-92.8	3.1
2025-01-02 11:50:51.471332	300.3	22.3	-92.9	5.0
2025-01-02 11:50:52.592391	300.0	22.2	-92.5	4.0
2025-01-02 11:50:53.713582	299.8	22.1	-92.6	4.2
2025-01-02 11:50:54.834078	299.6	22.0	-92.7	2.8
2025-01-02 11:50:55.974821	299.3	21.9	-92.9	4.6
2025-01-02 11:50:57.133953	299.1	21.8	-92.6	1.9
2025-01-02 11:50:58.288697	298.9	21.7	-92.4	5.3
2025-01-02 11:50:59.447651	298.6	21.6	-92.8	10.1
2025-01-02 11:51:00.606256	298.4	21.5	-93.2	5.6
2025-01-02 11:51:01.765001	298.2	21.4	-92.9	9.9
2025-01-02 11:51:02.928312	297.9	21.3	-92.7	3.7
2025-01-02 11:51:04.085699	297.7	21.2	-92.4	12.7
2025-01-02 11:51:05.253371	297.5	21.1	-92.6	11.1
2025-01-02 11:51:06.416645	297.2	21.0	-91.6	11.0
2025-01-02 11:51:07.584479	297.0	20.9	-91.9	13.1
2025-01-02 11:51:08.738931	296.8	20.8	-92.5	7.4
2025-01-02 11:51:09.897114	296.6	20.7	-92.6	6.4
2025-01-02 11:51:11.058009	296.3	20.6	-91.9	6.9
2025-01-02 11:51:12.213242	296.1	20.5	-92.1	3.7
2025-01-02 11:51:13.377730	295.9	20.4	-91.8	3.4
2025-01-02 11:51:14.537579	295.7	20.3	-91.9	3.5
2025-01-02 11:51:15.703657	295.5	20.2	-91.7	3.0
2025-01-02 11:51:16.860892	295.3	20.1	-92.4	5.3
2025-01-02 11:51:18.025924	295.1	19.9	-92.2	3.9
2025-01-02 11:51:19.187798	294.8	19.8	-92.6	3.4
2025-01-02 11:51:20.353784	294.6	19.7	-92.8	3.5
2025-01-02 11:51:21.512590	294.4	19.6	-93.0	4.3
2025-01-02 11:51:22.674610	294.2	19.5	-92.9	3.0
2025-01-02 11:51:23.835893	294.0	19.4	-92.8	5.4
2025-01-02 11:51:24.984777	293.8	19.3	-93.1	5.1
2025-01-02 11:51:26.142500	293.6	19.2	-92.5	5.8
2025-01-02 11:51:27.307438	293.4	19.1	-92.3	4.4
2025-01-02 11:51:28.471720	293.2	19.0	-93.0	5.8
2025-01-02 11:51:29.633603	293.0	18.9	-92.9	8.6
2025-01-02 11:51:30.796543	292.8	18.8	-92.8	9.8
2025-01-02 11:51:31.958908	292.6	18.7	-92.4	6.0
2025-01-02 11:51:33.119041	292.4	18.6	-92.6	7.4
2025-01-02 11:51:34.271195	292.2	18.5	-92.6	4.3
2025-01-02 11:51:35.438270	292.0	18.4	-92.8	6.6
2025-01-02 11:51:36.598606	291.9	18.3	-93.0	5.8
2025-01-02 11:51:37.763333	291.7	18.2	-92.8	2.8
2025-01-02 11:51:38.925240	291.5	18.1	-92.7	5.6
2025-01-02 11:51:40.092236	291.3	18.0	-92.7	5.5
2025-01-02 11:51:41.256301	291.1	17.9	-92.6	3.9
2025-01-02 11:51:42.420799	290.9	17.8	-93.0	3.9
2025-01-02 11:51:43.582547	290.7	17.7	-92.9	6.4
2025-01-02 11:51:44.744821	290.6	17.6	-93.2	3.7
2025-01-02 11:51:45.908890	290.4	17.5	-93.0	5.8
2025-01-02 11:51:47.073807	290.2	17.4	-92.5	5.1
2025-01-02 11:51:48.241964	290.0	17.3	-92.7	5.7
2025-01-02 11:51:49.408372	289.8	17.2	-92.7	6.2
2025-01-02 11:51:50.577212	289.7	17.1	-92.8	6.2
2025-01-02 11:51:51.741251	289.5	17.0	-92.9	9.3
2025-01-02 11:51:52.910585	289.3	16.9	-92.9	8.0
2025-01-02 11:51:54.069517	289.1	16.8	-92.3	6.1
2025-01-02 11:51:55.232222	289.0	16.7	-92.5	1.3
2025-01-02 11:51:56.398419	288.8	16.6	-92.6	3.8
2025-01-02 11:51:57.563343	288.6	16.5	-93.0	3.3
2025-01-02 11:51:58.731091	288.5	16.4	-93.1	2.0
2025-01-02 11:51:59.892692	288.3	16.3	-93.3	3.7
2025-01-02 11:52:01.043201	288.1	16.2	-91.6	0.2
2025-01-02 11:52:02.210657	288.0	16.1	-91.9	2.5
2025-01-02 11:52:03.368326	287.8	16.0	-91.7	1.6
2025-01-02 11:52:04.534382	287.6	15.9	-91.9	2.8
2025-01-02 11:52:05.698466	287.5	15.8	-92.8	1.8
2025-01-02 11:52:06.861937	287.3	15.7	-92.6	3.5
2025-01-02 11:52:08.024136	287.2	15.6	-92.8	3.4
2025-01-02 11:52:09.184181	287.0	15.6	-92.4	6.7
2025-01-02 11:52:10.348874	286.8	15.5	-92.9	7.8
2025-01-02 11:52:11.521161	286.7	15.4	-93.2	8.3
2025-01-02 11:52:12.691774	286.5	15.3	-93.0	7.6
2025-01-02 11:52:13.852570	286.4	15.2	-93.0	4.6
2025-01-02 11:52:15.013192	286.2	15.1	-92.9	6.3
2025-01-02 11:52:16.173534	286.1	15.0	-92.2	1.8
2025-01-02 11:52:17.339760	285.9	14.9	-92.4	1.0
2025-01-02 11:52:18.499818	285.8	14.8	-92.6	3.7
2025-01-02 11:52:19.666993	285.6	14.7	-92.4	2.7
2025-01-02 11:52:20.825792	285.5	14.6	-93.0	2.1
#Closed at: 2025-01-02 11:45:12.237979