passes_logs/2025/01/02/LEX_Murmansk/LEX_Murmansk__20250102_185133_NOAA_18_rec.log

#Pass ID: 20250102_185133_NOAA 18
#Satellite: NOAA 18
#Configuration: NOAA 18
#Start time: 2025-01-02 18:51:28.775692

#LorettStation: 1.0.0 05.05.2024
#Station: LEX_Murmansk
#Location: 33.156738 lon 68.926811 lat
#TLE: 1 28654U 05018A   25001.78406204  .00000701  00000+0  39590-3 0  9994
#TLE: 2 28654  98.8586  82.9683 0013729 216.8395 143.1835 14.13472842 11310

#Time	Az	El	Level	SNR
2025-01-02 18:51:40.899772	151.7	16.3	-92.6	3.9
2025-01-02 18:51:43.141469	151.7	16.6	-92.3	2.9
2025-01-02 18:51:45.431586	151.7	16.8	-92.5	3.8
2025-01-02 18:51:47.725457	151.7	17.1	-92.6	4.6
2025-01-02 18:51:50.016293	151.7	17.3	-92.5	3.5
2025-01-02 18:51:52.306828	151.7	17.6	-92.5	4.8
2025-01-02 18:51:54.600656	151.7	17.9	-92.7	5.4
2025-01-02 18:51:56.903451	151.7	18.1	-92.4	6.5
2025-01-02 18:51:59.189885	151.7	18.4	-92.4	3.6
2025-01-02 18:52:01.458135	151.7	18.7	-92.5	3.4
2025-01-02 18:52:03.738223	151.7	19.0	-92.7	5.2
2025-01-02 18:52:06.028928	151.7	19.3	-92.3	7.3
2025-01-02 18:52:08.318678	151.7	19.5	-92.3	3.6
2025-01-02 18:52:10.610801	151.7	19.8	-92.7	8.6
2025-01-02 18:52:12.901327	151.7	20.1	-92.8	6.1
2025-01-02 18:52:15.198456	151.7	20.4	-92.3	5.1
2025-01-02 18:52:17.485064	151.7	20.7	-92.8	2.9
2025-01-02 18:52:19.784720	151.7	21.0	-92.1	8.6
2025-01-02 18:52:22.073533	151.7	21.3	-92.5	5.1
2025-01-02 18:52:24.370352	151.7	21.6	-92.2	6.6
2025-01-02 18:52:26.662730	151.7	22.0	-92.3	10.0
2025-01-02 18:52:28.959187	151.7	22.3	-92.5	10.5
2025-01-02 18:52:31.263484	151.7	22.6	-92.0	9.1
2025-01-02 18:52:33.562314	151.8	22.9	-92.6	3.8
2025-01-02 18:52:35.860635	151.8	23.3	-92.7	6.0
2025-01-02 18:52:38.158118	151.8	23.6	-92.4	7.6
2025-01-02 18:52:40.458903	151.8	23.9	-92.5	10.1
2025-01-02 18:52:42.751231	151.8	24.3	-92.8	12.6
2025-01-02 18:52:45.039717	151.8	24.6	-92.4	10.5
2025-01-02 18:52:47.329650	151.8	25.0	-91.7	7.0
2025-01-02 18:52:49.626543	151.8	25.3	-92.7	5.3
2025-01-02 18:52:51.918272	151.8	25.7	-93.0	7.4
2025-01-02 18:52:54.216501	151.8	26.1	-91.7	11.6
2025-01-02 18:52:56.517651	151.8	26.5	-92.8	9.0
2025-01-02 18:52:58.811444	151.8	26.8	-92.9	9.7
2025-01-02 18:53:01.096551	151.8	27.2	-92.5	6.6
2025-01-02 18:53:03.390726	151.8	27.6	-92.5	11.6
2025-01-02 18:53:05.684196	151.8	28.0	-92.8	10.0
2025-01-02 18:53:07.966527	151.8	28.4	-92.7	9.9
2025-01-02 18:53:10.212549	151.8	28.8	-92.7	5.1
2025-01-02 18:53:12.452701	151.8	29.2	-92.7	6.8
2025-01-02 18:53:14.696240	151.8	29.6	-92.6	16.0
2025-01-02 18:53:16.948164	151.8	30.0	-92.7	15.5
2025-01-02 18:53:19.246640	151.8	30.4	-92.8	7.9
2025-01-02 18:53:21.534863	151.8	30.9	-93.5	6.6
2025-01-02 18:53:23.832061	151.8	31.3	-93.0	5.6
2025-01-02 18:53:26.128875	151.8	31.8	-92.3	5.5
2025-01-02 18:53:28.423690	151.8	32.2	-92.5	10.2
2025-01-02 18:53:30.717201	151.8	32.7	-93.1	8.4
2025-01-02 18:53:33.025924	151.8	33.2	-92.8	12.3
2025-01-02 18:53:35.317405	151.8	33.6	-92.3	9.4
2025-01-02 18:53:37.613270	151.8	34.1	-93.1	3.2
2025-01-02 18:53:39.909000	151.8	34.6	-92.7	8.2
2025-01-02 18:53:42.199368	151.8	35.1	-92.0	4.2
2025-01-02 18:53:44.495868	151.7	35.6	-93.1	11.2
2025-01-02 18:53:46.792580	151.7	36.2	-93.0	4.6
2025-01-02 18:53:49.089266	151.7	36.7	-92.4	12.3
2025-01-02 18:53:51.386812	151.7	37.2	-92.7	13.7
2025-01-02 18:53:53.675705	151.7	37.8	-92.9	12.9
2025-01-02 18:53:55.966799	151.7	38.3	-92.8	10.8
2025-01-02 18:53:58.213745	151.7	38.9	-92.6	10.9
2025-01-02 18:54:00.456751	151.7	39.4	-92.9	12.6
2025-01-02 18:54:02.698688	151.7	40.0	-93.0	13.7
2025-01-02 18:54:04.943110	151.7	40.5	-92.8	16.7
2025-01-02 18:54:07.225485	151.7	41.1	-92.4	20.6
2025-01-02 18:54:09.505777	151.7	41.7	-93.0	11.5
2025-01-02 18:54:11.799852	151.7	42.4	-92.6	16.7
2025-01-02 18:54:14.089314	151.7	43.0	-92.0	9.5
2025-01-02 18:54:16.386932	151.6	43.6	-92.2	14.3
2025-01-02 18:54:18.682849	151.6	44.3	-92.4	17.0
2025-01-02 18:54:20.981346	151.6	44.9	-92.6	15.2
2025-01-02 18:54:23.274969	151.6	45.6	-91.0	11.4
2025-01-02 18:54:25.578488	151.6	46.3	-92.3	11.3
2025-01-02 18:54:27.874696	151.6	47.0	-92.7	16.7
2025-01-02 18:54:30.175048	151.6	47.7	-92.3	16.7
2025-01-02 18:54:32.470289	151.5	48.4	-92.9	10.0
2025-01-02 18:54:34.757218	151.5	49.1	-92.8	14.2
2025-01-02 18:54:37.050994	151.5	49.9	-92.6	2.3
2025-01-02 18:54:39.347468	151.5	50.6	-92.4	12.5
2025-01-02 18:54:41.650821	151.4	51.4	-93.2	9.9
2025-01-02 18:54:43.948301	151.4	52.2	-92.6	6.0
2025-01-02 18:54:46.248476	151.4	53.0	-92.4	17.1
2025-01-02 18:54:48.541124	151.4	53.8	-92.9	12.1
2025-01-02 18:54:50.835390	151.3	54.6	-92.9	13.7
2025-01-02 18:54:53.121819	151.3	55.4	-92.3	5.8
2025-01-02 18:54:55.414168	151.3	56.2	-92.6	12.3
2025-01-02 18:54:57.713252	151.2	57.1	-92.3	14.8
2025-01-02 18:55:00.006550	151.2	58.0	-91.0	7.8
2025-01-02 18:55:02.294213	151.1	58.8	-92.0	14.0
2025-01-02 18:55:04.599219	151.1	59.7	-92.8	16.2
2025-01-02 18:55:06.882746	151.0	60.6	-93.0	19.0
2025-01-02 18:55:09.196395	151.0	61.6	-92.7	13.9
2025-01-02 18:55:11.493360	150.9	62.5	-92.8	12.4
2025-01-02 18:55:13.791897	150.8	63.4	-92.7	20.5
2025-01-02 18:55:16.078101	150.7	64.4	-92.0	19.5
2025-01-02 18:55:18.370455	150.7	65.4	-92.2	15.6
2025-01-02 18:55:20.660878	150.6	66.3	-92.4	7.6
2025-01-02 18:55:22.956880	150.5	67.3	-92.7	9.1
2025-01-02 18:55:25.258961	150.3	68.3	-92.1	18.1
2025-01-02 18:55:27.547966	150.2	69.3	-93.3	9.3
2025-01-02 18:55:29.838677	150.1	70.4	-92.8	16.9
2025-01-02 18:55:32.133078	149.9	71.4	-91.7	7.0
2025-01-02 18:55:34.433149	149.7	72.5	-92.6	19.9
2025-01-02 18:55:36.730085	149.5	73.5	-92.7	21.3
2025-01-02 18:55:39.025647	149.3	74.6	-92.8	17.7
2025-01-02 18:55:41.317991	149.0	75.6	-92.5	17.6
2025-01-02 18:55:43.610431	148.7	76.7	-92.6	13.7
2025-01-02 18:55:45.910822	148.3	77.8	-92.9	23.6
2025-01-02 18:55:48.205611	147.8	78.9	-92.4	20.2
2025-01-02 18:55:50.497504	147.2	80.0	-92.5	20.3
2025-01-02 18:55:52.793531	146.5	81.1	-93.2	25.1
2025-01-02 18:55:55.107535	145.5	82.2	-92.9	16.6
2025-01-02 18:55:57.400822	144.3	83.4	-92.6	27.6
2025-01-02 18:55:59.694526	142.5	84.5	-92.8	21.9
2025-01-02 18:56:01.984654	139.8	85.6	-93.2	14.6
2025-01-02 18:56:04.282698	135.3	86.7	-92.3	23.4
2025-01-02 18:56:06.568605	126.7	87.7	-92.8	12.0
2025-01-02 18:56:08.870927	104.8	88.6	-93.2	26.0
2025-01-02 18:56:11.166111	50.3	89.0	-92.2	19.0
2025-01-02 18:56:13.462348	9.7	88.3	-93.0	20.1
2025-01-02 18:56:15.752318	355.2	87.3	-93.0	25.1
2025-01-02 18:56:18.046671	348.8	86.2	-92.2	23.5
2025-01-02 18:56:20.341694	345.2	85.1	-92.5	24.4
2025-01-02 18:56:22.633804	342.9	84.0	-92.8	22.5
2025-01-02 18:56:24.914242	341.4	82.9	-92.8	23.5
2025-01-02 18:56:27.208672	340.3	81.8	-91.9	21.7
2025-01-02 18:56:29.508745	339.4	80.7	-92.8	24.9
2025-01-02 18:56:31.807496	338.7	79.6	-93.1	17.2
2025-01-02 18:56:34.101935	338.2	78.5	-92.4	22.9
2025-01-02 18:56:36.408305	337.8	77.4	-92.8	24.3
2025-01-02 18:56:38.706669	337.4	76.3	-92.7	18.7
2025-01-02 18:56:41.001306	337.1	75.2	-92.8	19.2
2025-01-02 18:56:43.292883	336.8	74.2	-92.3	11.0
2025-01-02 18:56:45.585338	336.6	73.1	-93.0	8.5
2025-01-02 18:56:47.839286	336.4	72.1	-92.8	17.6
2025-01-02 18:56:50.082258	336.2	71.0	-92.0	16.5
2025-01-02 18:56:52.321929	336.1	70.0	-91.8	15.9
2025-01-02 18:56:54.566746	336.0	69.0	-92.8	14.0
2025-01-02 18:56:56.849811	335.8	68.0	-92.6	17.1
2025-01-02 18:56:59.140154	335.7	67.0	-92.1	20.0
2025-01-02 18:57:01.422952	335.6	66.0	-92.3	20.8
2025-01-02 18:57:03.692529	335.5	65.1	-92.9	21.5
2025-01-02 18:57:05.953565	335.4	64.1	-92.7	21.0
2025-01-02 18:57:08.233050	335.4	63.2	-91.9	20.2
2025-01-02 18:57:10.522994	335.3	62.3	-92.7	20.3
2025-01-02 18:57:12.821399	335.2	61.3	-92.7	23.3
2025-01-02 18:57:15.115953	335.2	60.4	-92.2	15.1
2025-01-02 18:57:17.408664	335.1	59.5	-92.3	20.5
2025-01-02 18:57:19.703500	335.1	58.6	-92.8	19.2
2025-01-02 18:57:21.994249	335.0	57.7	-92.7	13.9
2025-01-02 18:57:24.283399	335.0	56.9	-92.5	20.0
2025-01-02 18:57:26.588992	335.0	56.0	-92.5	14.4
2025-01-02 18:57:28.883841	334.9	55.2	-92.8	20.6
2025-01-02 18:57:31.176353	334.9	54.4	-92.5	19.8
2025-01-02 18:57:33.468245	334.8	53.6	-92.8	18.3
2025-01-02 18:57:35.764337	334.8	52.8	-92.9	14.5
2025-01-02 18:57:38.053093	334.8	52.0	-92.7	11.0
2025-01-02 18:57:40.339412	334.8	51.2	-92.3	13.2
2025-01-02 18:57:42.629218	334.7	50.5	-92.8	7.7
2025-01-02 18:57:44.918831	334.7	49.7	-92.7	4.3
2025-01-02 18:57:47.211088	334.7	49.0	-92.6	4.5
2025-01-02 18:57:49.511212	334.7	48.2	-92.9	7.5
2025-01-02 18:57:51.801685	334.7	47.5	-92.8	18.4
2025-01-02 18:57:54.095589	334.6	46.8	-92.6	15.5
2025-01-02 18:57:56.392226	334.6	46.1	-92.2	17.8
2025-01-02 18:57:58.682468	334.6	45.5	-93.3	16.6
2025-01-02 18:58:00.972749	334.6	44.8	-92.9	20.0
2025-01-02 18:58:03.267232	334.6	44.1	-92.3	20.6
2025-01-02 18:58:05.556305	334.6	43.5	-93.0	14.5
2025-01-02 18:58:07.855186	334.6	42.9	-92.6	18.4
2025-01-02 18:58:10.146121	334.6	42.2	-92.2	14.5
2025-01-02 18:58:12.444957	334.5	41.6	-92.6	17.6
2025-01-02 18:58:14.748118	334.5	41.0	-92.8	21.5
2025-01-02 18:58:17.045077	334.5	40.4	-92.8	16.3
2025-01-02 18:58:19.334395	334.5	39.8	-92.1	13.5
2025-01-02 18:58:21.617097	334.5	39.3	-92.8	14.8
2025-01-02 18:58:23.864369	334.5	38.7	-92.7	17.0
2025-01-02 18:58:26.105774	334.5	38.2	-92.3	4.4
2025-01-02 18:58:28.346913	334.5	37.6	-91.8	13.1
2025-01-02 18:58:30.592163	334.5	37.1	-93.0	9.4
2025-01-02 18:58:32.884789	334.5	36.6	-91.9	8.1
2025-01-02 18:58:35.174270	334.5	36.1	-91.2	13.0
2025-01-02 18:58:37.466616	334.5	35.5	-91.7	12.1
2025-01-02 18:58:39.764719	334.5	35.0	-91.8	16.7
2025-01-02 18:58:42.061032	334.5	34.5	-92.4	10.5
2025-01-02 18:58:44.348116	334.5	34.0	-91.4	14.3
2025-01-02 18:58:46.642174	334.5	33.6	-91.7	9.2
2025-01-02 18:58:48.934824	334.5	33.1	-91.9	16.9
2025-01-02 18:58:51.230065	334.5	32.6	-90.8	7.1
2025-01-02 18:58:53.518481	334.5	32.2	-92.9	12.3
2025-01-02 18:58:55.807377	334.5	31.7	-93.2	12.8
2025-01-02 18:58:58.102162	334.5	31.3	-92.2	7.3
2025-01-02 18:59:00.393036	334.5	30.8	-92.5	16.1
2025-01-02 18:59:02.683372	334.5	30.4	-93.2	13.2
2025-01-02 18:59:04.971617	334.5	30.0	-93.1	12.3
2025-01-02 18:59:07.270958	334.5	29.5	-92.4	11.6
2025-01-02 18:59:09.561776	334.5	29.1	-93.1	14.6
2025-01-02 18:59:11.855714	334.5	28.7	-93.0	16.1
2025-01-02 18:59:14.150510	334.5	28.3	-92.5	10.3
2025-01-02 18:59:16.437452	334.5	27.9	-92.8	3.8
2025-01-02 18:59:18.736034	334.5	27.5	-92.7	11.3
2025-01-02 18:59:21.025822	334.5	27.1	-93.2	12.8
2025-01-02 18:59:23.328738	334.5	26.7	-92.4	8.8
2025-01-02 18:59:25.619097	334.5	26.4	-92.8	9.8
2025-01-02 18:59:27.903355	334.5	26.0	-93.2	7.7
2025-01-02 18:59:30.201426	334.5	25.6	-92.7	10.8
2025-01-02 18:59:32.497460	334.5	25.3	-92.7	8.4
2025-01-02 18:59:34.787196	334.5	24.9	-93.2	13.3
2025-01-02 18:59:37.079287	334.5	24.6	-92.7	7.1
2025-01-02 18:59:39.378780	334.5	24.2	-92.5	12.5
2025-01-02 18:59:41.671324	334.5	23.9	-93.3	5.3
2025-01-02 18:59:43.973633	334.5	23.5	-93.0	7.0
2025-01-02 18:59:46.276440	334.5	23.2	-92.5	7.5
2025-01-02 18:59:48.561995	334.5	22.9	-92.8	7.3
2025-01-02 18:59:50.856774	334.5	22.5	-93.2	11.0
2025-01-02 18:59:53.153516	334.5	22.2	-92.4	7.0
2025-01-02 18:59:55.451388	334.5	21.9	-92.9	4.8
2025-01-02 18:59:57.745334	334.5	21.6	-93.7	9.0
2025-01-02 19:00:00.031885	334.5	21.3	-93.2	4.6
2025-01-02 19:00:02.322749	334.5	21.0	-92.7	12.7
2025-01-02 19:00:04.614710	334.5	20.7	-93.1	11.1
2025-01-02 19:00:06.920682	334.5	20.4	-92.9	9.0
2025-01-02 19:00:09.214885	334.5	20.1	-92.5	8.7
2025-01-02 19:00:11.506959	334.5	19.8	-93.1	6.3
2025-01-02 19:00:13.802054	334.6	19.5	-93.4	4.5
2025-01-02 19:00:16.097597	334.6	19.2	-93.0	3.7
2025-01-02 19:00:18.388231	334.6	18.9	-92.7	6.2
2025-01-02 19:00:20.680647	334.6	18.6	-93.1	8.3
2025-01-02 19:00:22.983821	334.6	18.4	-93.1	5.5
2025-01-02 19:00:25.273176	334.6	18.1	-92.4	3.2
2025-01-02 19:00:27.576207	334.6	17.8	-93.2	4.3
2025-01-02 19:00:29.871766	334.6	17.6	-92.9	4.3
2025-01-02 19:00:32.171422	334.6	17.3	-92.8	3.7
2025-01-02 19:00:34.461078	334.6	17.0	-93.0	4.3
2025-01-02 19:00:36.750421	334.6	16.8	-92.9	8.4
2025-01-02 19:00:39.049045	334.6	16.5	-92.9	5.9
2025-01-02 19:00:41.347038	334.6	16.3	-92.2	7.8
2025-01-02 19:00:43.647589	334.6	16.0	-93.1	5.5
2025-01-02 19:00:45.942947	334.6	15.8	-93.0	5.0
2025-01-02 19:00:48.237359	334.6	15.5	-92.7	6.5
2025-01-02 19:00:50.533418	334.6	15.3	-93.2	5.2
2025-01-02 19:00:52.831290	334.6	15.0	-92.8	4.0
2025-01-02 19:00:55.103499	334.7	14.8	-92.4	2.3
2025-01-02 19:00:57.396584	334.7	14.6	-92.8	4.5
#Closed at: 2025-01-02 18:51:33.723290