passes_logs/2025/01/02/LEX_Murmansk/LEX_Murmansk__20250102_132506_NOAA_19_rec.log

#Pass ID: 20250102_132506_NOAA 19
#Satellite: NOAA 19
#Configuration: NOAA 19
#Start time: 2025-01-02 13:25:01.790111

#LorettStation: 1.0.0 05.05.2024
#Station: LEX_Murmansk
#Location: 33.156738 lon 68.926811 lat
#TLE: 1 33591U 09005A   25001.83569820  .00001454  00000+0  79919-3 0  9995
#TLE: 2 33591  99.0217  65.4951 0014707  92.5482 267.7374 14.13252981819684

#Time	Az	El	Level	SNR
2025-01-02 13:25:13.909604	42.4	15.9	-91.0	2.5
2025-01-02 13:25:15.080183	42.2	16.0	-89.8	4.4
2025-01-02 13:25:16.242612	42.0	16.0	-90.6	1.8
2025-01-02 13:25:17.404187	41.9	16.1	-90.8	1.4
2025-01-02 13:25:18.568738	41.7	16.2	-90.8	0.8
2025-01-02 13:25:19.732671	41.5	16.3	-90.9	3.6
2025-01-02 13:25:20.895759	41.3	16.4	-91.0	3.4
2025-01-02 13:25:22.057324	41.1	16.5	-91.1	2.6
2025-01-02 13:25:23.226164	40.9	16.6	-91.0	3.1
2025-01-02 13:25:24.386434	40.7	16.6	-91.2	2.4
2025-01-02 13:25:25.554267	40.5	16.7	-91.2	2.2
2025-01-02 13:25:26.717020	40.3	16.8	-91.2	4.1
2025-01-02 13:25:27.866981	40.1	16.9	-91.0	3.1
2025-01-02 13:25:29.018394	39.9	17.0	-90.8	3.8
2025-01-02 13:25:30.158266	39.7	17.1	-90.4	1.1
2025-01-02 13:25:31.278592	39.5	17.1	-90.3	1.9
2025-01-02 13:25:32.399477	39.3	17.2	-90.7	3.5
2025-01-02 13:25:33.519453	39.1	17.3	-90.6	2.9
2025-01-02 13:25:34.639988	38.9	17.4	-90.8	3.3
2025-01-02 13:25:35.760522	38.7	17.5	-90.8	2.7
2025-01-02 13:25:36.885069	38.5	17.5	-90.8	3.2
2025-01-02 13:25:38.007650	38.3	17.6	-91.0	3.2
2025-01-02 13:25:39.163999	38.1	17.7	-90.4	3.3
2025-01-02 13:25:40.335006	37.9	17.8	-90.6	1.7
2025-01-02 13:25:41.491160	37.6	17.9	-90.6	2.8
2025-01-02 13:25:42.646919	37.4	17.9	-90.7	1.1
2025-01-02 13:25:43.811321	37.2	18.0	-91.0	2.4
2025-01-02 13:25:44.974965	37.0	18.1	-91.0	6.3
2025-01-02 13:25:46.129017	36.8	18.2	-90.4	4.3
2025-01-02 13:25:47.288476	36.6	18.3	-90.5	5.1
2025-01-02 13:25:48.437424	36.3	18.3	-90.4	5.9
2025-01-02 13:25:49.598792	36.1	18.4	-90.9	5.1
2025-01-02 13:25:50.724655	35.9	18.5	-91.2	3.8
2025-01-02 13:25:51.866520	35.7	18.6	-90.6	3.5
2025-01-02 13:25:53.019462	35.5	18.7	-90.4	5.2
2025-01-02 13:25:54.165659	35.2	18.7	-90.2	8.0
2025-01-02 13:25:55.318071	35.0	18.8	-89.9	3.0
2025-01-02 13:25:56.469030	34.8	18.9	-90.4	4.8
2025-01-02 13:25:57.631440	34.6	19.0	-90.4	4.1
2025-01-02 13:25:58.791372	34.3	19.1	-90.0	7.9
2025-01-02 13:25:59.956088	34.1	19.1	-89.7	5.8
2025-01-02 13:26:01.109866	33.9	19.2	-89.7	6.6
2025-01-02 13:26:02.268294	33.6	19.3	-89.7	4.1
2025-01-02 13:26:03.425338	33.4	19.4	-89.8	3.8
2025-01-02 13:26:04.584857	33.1	19.5	-89.8	3.1
2025-01-02 13:26:05.749585	32.9	19.5	-89.7	1.9
2025-01-02 13:26:06.908070	32.7	19.6	-90.1	5.2
2025-01-02 13:26:08.073685	32.4	19.7	-90.4	5.8
2025-01-02 13:26:09.227414	32.2	19.8	-90.0	3.1
2025-01-02 13:26:10.382350	31.9	19.8	-90.0	6.7
2025-01-02 13:26:11.537281	31.7	19.9	-89.8	11.2
2025-01-02 13:26:12.704559	31.4	20.0	-90.0	11.3
2025-01-02 13:26:13.858082	31.2	20.1	-89.8	9.8
2025-01-02 13:26:15.020577	31.0	20.1	-89.8	3.8
2025-01-02 13:26:16.185084	30.7	20.2	-90.0	4.6
2025-01-02 13:26:17.336375	30.5	20.3	-90.0	2.0
2025-01-02 13:26:18.490102	30.2	20.4	-90.7	3.5
2025-01-02 13:26:19.641413	30.0	20.4	-90.7	10.5
2025-01-02 13:26:20.777690	29.7	20.5	-90.6	6.5
2025-01-02 13:26:21.936354	29.4	20.6	-90.5	8.1
2025-01-02 13:26:23.086296	29.2	20.7	-90.3	16.3
2025-01-02 13:26:24.231550	28.9	20.7	-90.2	11.5
2025-01-02 13:26:25.392261	28.7	20.8	-90.3	11.1
2025-01-02 13:26:26.550260	28.4	20.9	-90.7	3.8
2025-01-02 13:26:27.699489	28.2	20.9	-90.9	5.4
2025-01-02 13:26:28.861645	27.9	21.0	-91.2	3.1
2025-01-02 13:26:30.027187	27.6	21.1	-91.1	5.8
2025-01-02 13:26:31.190254	27.4	21.2	-90.5	2.6
2025-01-02 13:26:32.351681	27.1	21.2	-90.5	3.3
2025-01-02 13:26:33.516189	26.8	21.3	-90.4	2.5
2025-01-02 13:26:34.677784	26.6	21.4	-90.5	1.5
2025-01-02 13:26:35.842165	26.3	21.4	-90.7	3.7
2025-01-02 13:26:37.007167	26.0	21.5	-90.7	5.8
2025-01-02 13:26:38.164624	25.7	21.6	-90.6	7.3
2025-01-02 13:26:39.341600	25.5	21.6	-90.5	13.3
2025-01-02 13:26:40.498691	25.2	21.7	-90.7	10.7
2025-01-02 13:26:41.664962	24.9	21.8	-90.8	9.6
2025-01-02 13:26:42.827637	24.6	21.8	-91.0	7.9
2025-01-02 13:26:43.994622	24.3	21.9	-90.9	3.7
2025-01-02 13:26:45.155147	24.1	21.9	-90.6	5.7
2025-01-02 13:26:46.320701	23.8	22.0	-90.4	4.6
2025-01-02 13:26:47.480037	23.5	22.1	-90.9	5.6
2025-01-02 13:26:48.648081	23.2	22.1	-91.0	13.1
2025-01-02 13:26:49.808624	22.9	22.2	-91.3	7.1
2025-01-02 13:26:50.973751	22.6	22.3	-91.6	9.5
2025-01-02 13:26:52.137229	22.4	22.3	-91.2	3.3
2025-01-02 13:26:53.301858	22.1	22.4	-90.9	5.4
2025-01-02 13:26:54.463549	21.8	22.4	-91.6	9.4
2025-01-02 13:26:55.628597	21.5	22.5	-91.3	9.0
2025-01-02 13:26:56.792168	21.2	22.6	-91.3	8.6
2025-01-02 13:26:57.951464	20.9	22.6	-91.6	5.6
2025-01-02 13:26:59.116519	20.6	22.7	-90.7	5.6
2025-01-02 13:27:00.272070	20.3	22.7	-91.1	2.8
2025-01-02 13:27:01.422418	20.0	22.8	-91.2	6.1
2025-01-02 13:27:02.586692	19.7	22.8	-91.1	3.4
2025-01-02 13:27:03.759151	19.4	22.9	-90.8	1.7
2025-01-02 13:27:04.920979	19.1	22.9	-91.2	2.3
2025-01-02 13:27:06.085642	18.8	23.0	-90.7	7.6
2025-01-02 13:27:07.242712	18.5	23.0	-90.9	4.9
2025-01-02 13:27:08.404270	18.2	23.1	-90.8	6.3
2025-01-02 13:27:09.565555	17.9	23.1	-91.1	12.3
2025-01-02 13:27:10.726004	17.6	23.2	-91.2	12.4
2025-01-02 13:27:11.887461	17.3	23.2	-91.0	8.8
2025-01-02 13:27:13.044394	17.0	23.3	-91.2	15.3
2025-01-02 13:27:14.210699	16.7	23.3	-90.9	12.7
2025-01-02 13:27:15.369049	16.4	23.4	-91.2	9.2
2025-01-02 13:27:16.531267	16.1	23.4	-91.3	10.8
2025-01-02 13:27:17.693030	15.8	23.5	-91.2	4.8
2025-01-02 13:27:18.859992	15.5	23.5	-91.3	4.9
2025-01-02 13:27:20.016120	15.2	23.5	-91.2	4.5
2025-01-02 13:27:21.177133	14.9	23.6	-90.6	4.2
2025-01-02 13:27:22.337783	14.5	23.6	-90.7	5.3
2025-01-02 13:27:23.500748	14.2	23.7	-91.1	5.6
2025-01-02 13:27:24.664128	13.9	23.7	-90.6	8.4
2025-01-02 13:27:25.819482	13.6	23.7	-90.2	3.9
2025-01-02 13:27:26.984588	13.3	23.8	-90.6	8.4
2025-01-02 13:27:28.143387	13.0	23.8	-90.2	9.9
2025-01-02 13:27:29.305587	12.6	23.8	-90.2	11.2
2025-01-02 13:27:30.473410	12.3	23.9	-90.3	5.4
2025-01-02 13:27:31.626596	12.0	23.9	-91.2	6.6
2025-01-02 13:27:32.784708	11.7	23.9	-91.3	6.9
2025-01-02 13:27:33.955574	11.4	24.0	-91.0	5.2
2025-01-02 13:27:35.120084	11.1	24.0	-90.8	6.1
2025-01-02 13:27:36.287744	10.7	24.0	-90.8	3.4
2025-01-02 13:27:37.448605	10.4	24.1	-91.3	5.6
2025-01-02 13:27:38.613481	10.1	24.1	-91.3	3.4
2025-01-02 13:27:39.763465	9.8	24.1	-90.9	1.7
2025-01-02 13:27:40.920814	9.4	24.1	-91.0	3.5
2025-01-02 13:27:42.084355	9.1	24.2	-91.3	5.5
2025-01-02 13:27:43.241479	8.8	24.2	-90.7	2.7
2025-01-02 13:27:44.403346	8.5	24.2	-91.0	1.5
2025-01-02 13:27:45.564636	8.1	24.2	-90.8	3.1
2025-01-02 13:27:46.733253	7.8	24.3	-91.2	2.6
2025-01-02 13:27:47.902489	7.5	24.3	-91.1	5.3
2025-01-02 13:27:49.068837	7.2	24.3	-91.0	7.6
2025-01-02 13:27:50.230792	6.8	24.3	-91.0	4.2
2025-01-02 13:27:51.400177	6.5	24.3	-90.9	6.7
2025-01-02 13:27:52.564959	6.2	24.3	-91.4	8.2
2025-01-02 13:27:53.732926	5.9	24.4	-91.4	7.8
2025-01-02 13:27:54.896354	5.5	24.4	-91.3	8.6
2025-01-02 13:27:56.056899	5.2	24.4	-91.2	8.3
2025-01-02 13:27:57.223431	4.9	24.4	-91.0	9.7
2025-01-02 13:27:58.376492	4.5	24.4	-90.9	5.2
2025-01-02 13:27:59.542127	4.2	24.4	-91.5	4.9
2025-01-02 13:28:00.694505	3.9	24.4	-91.1	12.1
2025-01-02 13:28:01.859363	3.6	24.4	-90.9	9.0
2025-01-02 13:28:03.024506	3.2	24.4	-91.1	11.4
2025-01-02 13:28:04.197639	2.9	24.4	-90.6	10.8
2025-01-02 13:28:05.361825	2.6	24.4	-91.1	8.6
2025-01-02 13:28:06.525194	2.2	24.4	-91.4	8.0
2025-01-02 13:28:07.682460	1.9	24.4	-91.1	8.4
2025-01-02 13:28:08.850017	1.6	24.4	-91.4	6.9
2025-01-02 13:28:10.014050	1.2	24.4	-91.5	7.5
2025-01-02 13:28:11.170444	0.9	24.4	-91.1	6.2
2025-01-02 13:28:12.309674	0.6	24.4	-91.3	3.0
2025-01-02 13:28:13.431593	0.3	24.4	-91.4	8.2
2025-01-02 13:28:14.552114	359.9	24.4	-91.4	4.7
2025-01-02 13:28:15.674362	359.6	24.4	-91.5	7.7
2025-01-02 13:28:16.794533	359.3	24.4	-91.2	7.3
2025-01-02 13:28:17.914775	359.0	24.4	-91.0	6.5
2025-01-02 13:28:19.035309	358.7	24.4	-91.3	8.4
2025-01-02 13:28:20.160894	358.4	24.4	-91.0	5.1
2025-01-02 13:28:21.282618	358.0	24.4	-91.1	5.0
2025-01-02 13:28:22.429739	357.7	24.4	-90.8	6.0
2025-01-02 13:28:23.578132	357.4	24.4	-91.0	11.6
2025-01-02 13:28:24.730038	357.1	24.4	-91.1	7.3
2025-01-02 13:28:25.873929	356.7	24.3	-91.3	11.2
2025-01-02 13:28:27.035037	356.4	24.3	-91.6	10.9
2025-01-02 13:28:28.189440	356.1	24.3	-91.3	15.5
2025-01-02 13:28:29.349366	355.8	24.3	-91.5	11.8
2025-01-02 13:28:30.505279	355.4	24.3	-91.3	11.7
2025-01-02 13:28:31.667131	355.1	24.3	-91.4	12.9
2025-01-02 13:28:32.833064	354.8	24.2	-91.4	13.4
2025-01-02 13:28:33.993779	354.5	24.2	-91.1	15.3
2025-01-02 13:28:35.151945	354.1	24.2	-91.2	5.3
2025-01-02 13:28:36.311873	353.8	24.2	-91.3	11.4
2025-01-02 13:28:37.478039	353.5	24.2	-91.6	10.8
2025-01-02 13:28:38.639303	353.2	24.1	-91.7	3.6
2025-01-02 13:28:39.805699	352.8	24.1	-90.8	5.6
2025-01-02 13:28:40.967035	352.5	24.1	-91.5	4.6
2025-01-02 13:28:42.131867	352.2	24.0	-91.0	10.3
2025-01-02 13:28:43.288016	351.9	24.0	-90.8	13.9
2025-01-02 13:28:44.452918	351.6	24.0	-91.1	16.5
2025-01-02 13:28:45.619368	351.2	24.0	-91.8	8.2
2025-01-02 13:28:46.785122	350.9	23.9	-91.6	7.6
2025-01-02 13:28:47.940490	350.6	23.9	-91.4	3.8
2025-01-02 13:28:49.116954	350.3	23.9	-91.1	5.7
2025-01-02 13:28:50.280522	350.0	23.8	-90.8	9.7
2025-01-02 13:28:51.445083	349.6	23.8	-90.9	7.0
2025-01-02 13:28:52.609086	349.3	23.8	-91.2	7.6
2025-01-02 13:28:53.773492	349.0	23.7	-91.3	11.0
2025-01-02 13:28:54.943279	348.7	23.7	-91.5	10.5
2025-01-02 13:28:56.109466	348.4	23.6	-91.2	10.3
2025-01-02 13:28:57.271270	348.1	23.6	-91.2	5.4
2025-01-02 13:28:58.427471	347.8	23.6	-91.1	9.6
2025-01-02 13:28:59.590992	347.4	23.5	-91.3	8.6
2025-01-02 13:29:00.748186	347.1	23.5	-91.4	7.0
2025-01-02 13:29:01.909490	346.8	23.4	-91.1	7.0
2025-01-02 13:29:03.072389	346.5	23.4	-90.3	9.7
2025-01-02 13:29:04.236144	346.2	23.3	-90.4	8.2
2025-01-02 13:29:05.400873	345.9	23.3	-91.2	7.9
2025-01-02 13:29:06.560958	345.6	23.2	-91.4	8.6
2025-01-02 13:29:07.722745	345.3	23.2	-91.4	6.3
2025-01-02 13:29:08.879243	345.0	23.2	-91.1	7.9
2025-01-02 13:29:10.044181	344.7	23.1	-91.2	10.4
2025-01-02 13:29:11.212834	344.4	23.1	-91.3	4.4
2025-01-02 13:29:12.373673	344.1	23.0	-91.0	9.4
2025-01-02 13:29:13.530525	343.8	23.0	-91.2	6.4
2025-01-02 13:29:14.692437	343.5	22.9	-90.9	7.3
2025-01-02 13:29:15.858638	343.2	22.8	-91.2	11.4
2025-01-02 13:29:17.021338	342.9	22.8	-90.9	7.9
2025-01-02 13:29:18.182629	342.6	22.7	-90.6	11.5
2025-01-02 13:29:19.341163	342.3	22.7	-90.7	12.6
2025-01-02 13:29:20.510836	342.0	22.6	-91.1	10.4
2025-01-02 13:29:21.673811	341.7	22.6	-91.1	11.8
2025-01-02 13:29:22.837269	341.4	22.5	-91.1	14.5
2025-01-02 13:29:23.997917	341.1	22.5	-91.4	10.5
2025-01-02 13:29:25.160495	340.8	22.4	-91.3	9.4
2025-01-02 13:29:26.326146	340.5	22.3	-90.3	8.7
2025-01-02 13:29:27.481440	340.3	22.3	-91.1	12.9
2025-01-02 13:29:28.640478	340.0	22.2	-91.8	10.8
2025-01-02 13:29:29.804363	339.7	22.2	-91.6	8.0
2025-01-02 13:29:30.974486	339.4	22.1	-91.3	5.9
2025-01-02 13:29:32.138533	339.1	22.0	-91.2	6.1
2025-01-02 13:29:33.307642	338.8	22.0	-91.2	12.4
2025-01-02 13:29:34.471437	338.5	21.9	-91.4	9.2
2025-01-02 13:29:35.637405	338.3	21.9	-91.4	11.0
2025-01-02 13:29:36.800635	338.0	21.8	-91.5	7.6
2025-01-02 13:29:37.960576	337.7	21.7	-91.3	10.1
2025-01-02 13:29:39.122851	337.4	21.7	-91.0	11.7
2025-01-02 13:29:40.287290	337.2	21.6	-91.0	12.3
2025-01-02 13:29:41.452819	336.9	21.5	-91.1	8.1
2025-01-02 13:29:42.615238	336.6	21.5	-91.2	8.9
2025-01-02 13:29:43.777999	336.3	21.4	-91.4	2.8
2025-01-02 13:29:44.940516	336.1	21.3	-91.4	2.9
2025-01-02 13:29:46.105164	335.8	21.3	-91.2	10.1
2025-01-02 13:29:47.265308	335.5	21.2	-91.1	6.4
2025-01-02 13:29:48.425920	335.3	21.1	-91.1	3.5
2025-01-02 13:29:49.587169	335.0	21.0	-91.2	5.9
2025-01-02 13:29:50.753297	334.7	21.0	-91.2	2.5
2025-01-02 13:29:51.912751	334.5	20.9	-90.9	2.7
2025-01-02 13:29:53.077340	334.2	20.8	-91.0	3.4
2025-01-02 13:29:54.236308	334.0	20.8	-91.2	3.8
2025-01-02 13:29:55.394374	333.7	20.7	-91.0	1.9
2025-01-02 13:29:56.554523	333.4	20.6	-91.1	3.5
2025-01-02 13:29:57.718611	333.2	20.5	-90.8	4.2
2025-01-02 13:29:58.873351	332.9	20.5	-91.1	3.6
2025-01-02 13:30:00.040381	332.7	20.4	-91.2	4.9
2025-01-02 13:30:01.187925	332.4	20.3	-90.7	0.7
2025-01-02 13:30:02.349935	332.2	20.2	-90.5	3.1
2025-01-02 13:30:03.510704	331.9	20.2	-91.3	3.6
2025-01-02 13:30:04.674092	331.7	20.1	-91.4	3.8
2025-01-02 13:30:05.837632	331.4	20.0	-91.4	2.7
2025-01-02 13:30:07.004443	331.2	19.9	-90.7	3.5
2025-01-02 13:30:08.163262	330.9	19.9	-90.9	1.8
2025-01-02 13:30:09.320014	330.7	19.8	-91.1	1.6
2025-01-02 13:30:10.483165	330.4	19.7	-91.4	1.6
2025-01-02 13:30:11.645127	330.2	19.6	-91.2	1.0
2025-01-02 13:30:12.807768	330.0	19.6	-91.2	0.3
2025-01-02 13:30:13.969488	329.7	19.5	-91.1	1.5
2025-01-02 13:30:15.132430	329.5	19.4	-90.7	1.0
2025-01-02 13:30:16.290325	329.2	19.3	-90.3	3.6
2025-01-02 13:30:17.457487	329.0	19.2	-89.5	1.4
2025-01-02 13:30:18.618203	328.8	19.2	-90.1	3.3
2025-01-02 13:30:19.784340	328.5	19.1	-90.1	3.3
2025-01-02 13:30:20.951970	328.3	19.0	-90.5	5.5
2025-01-02 13:30:22.116201	328.1	18.9	-89.8	2.1
2025-01-02 13:30:23.278385	327.8	18.9	-89.3	3.1
2025-01-02 13:30:24.448275	327.6	18.8	-89.3	0.8
2025-01-02 13:30:25.608791	327.4	18.7	-89.4	2.5
2025-01-02 13:30:26.771856	327.2	18.6	-89.6	3.1
2025-01-02 13:30:27.935982	326.9	18.5	-89.3	2.4
2025-01-02 13:30:29.095781	326.7	18.4	-89.4	2.8
2025-01-02 13:30:30.260730	326.5	18.4	-89.3	2.2
2025-01-02 13:30:31.416678	326.3	18.3	-89.7	0.4
2025-01-02 13:30:32.580770	326.0	18.2	-89.2	3.7
2025-01-02 13:30:33.739445	325.8	18.1	-90.4	1.9
2025-01-02 13:30:34.904262	325.6	18.0	-90.5	1.2
2025-01-02 13:30:36.061955	325.4	18.0	-90.6	1.2
2025-01-02 13:30:37.224201	325.2	17.9	-90.5	2.3
2025-01-02 13:30:38.384404	325.0	17.8	-90.5	2.2
2025-01-02 13:30:39.548217	324.7	17.7	-90.7	1.7
2025-01-02 13:30:40.712341	324.5	17.6	-89.4	1.3
2025-01-02 13:30:41.873084	324.3	17.5	-90.3	2.5
2025-01-02 13:30:43.029745	324.1	17.5	-90.7	1.3
2025-01-02 13:30:44.165867	323.9	17.4	-90.1	2.0
2025-01-02 13:30:45.316451	323.7	17.3	-90.5	2.8
2025-01-02 13:30:46.493742	323.5	17.2	-90.8	2.7
2025-01-02 13:30:47.658587	323.3	17.1	-91.1	2.8
2025-01-02 13:30:48.813049	323.1	17.1	-90.8	3.8
2025-01-02 13:30:49.979516	322.9	17.0	-90.3	0.5
2025-01-02 13:30:51.136715	322.7	16.9	-90.4	4.4
2025-01-02 13:30:52.300933	322.5	16.8	-90.5	2.4
2025-01-02 13:30:53.458094	322.3	16.7	-90.7	5.4
2025-01-02 13:30:54.625363	322.1	16.6	-90.8	4.3
2025-01-02 13:30:55.790055	321.9	16.6	-90.8	3.9
2025-01-02 13:30:56.954549	321.7	16.5	-91.2	2.6
2025-01-02 13:30:58.118503	321.5	16.4	-90.8	2.6
2025-01-02 13:30:59.273659	321.3	16.3	-90.4	3.4
2025-01-02 13:31:00.430894	321.1	16.2	-90.6	1.5
2025-01-02 13:31:01.592713	320.9	16.1	-90.9	2.8
2025-01-02 13:31:02.756820	320.7	16.0	-91.0	2.5
2025-01-02 13:31:03.918309	320.5	16.0	-91.2	2.0
2025-01-02 13:31:05.081986	320.4	15.9	-91.1	1.6
2025-01-02 13:31:06.243901	320.2	15.8	-90.8	0.9
2025-01-02 13:31:07.412595	320.0	15.7	-91.1	2.6
2025-01-02 13:31:08.573532	319.8	15.6	-90.8	3.1
2025-01-02 13:31:09.735711	319.6	15.5	-90.3	3.0
2025-01-02 13:31:10.900569	319.4	15.5	-90.2	3.2
2025-01-02 13:31:12.069061	319.2	15.4	-90.4	4.0
2025-01-02 13:31:13.232920	319.1	15.3	-90.3	5.3
2025-01-02 13:31:14.398950	318.9	15.2	-90.7	3.6
2025-01-02 13:31:15.567496	318.7	15.1	-90.4	5.1
2025-01-02 13:31:16.732372	318.5	15.0	-90.7	3.5
2025-01-02 13:31:17.896821	318.3	14.9	-90.8	4.7
2025-01-02 13:31:19.048320	318.2	14.9	-90.6	1.4
2025-01-02 13:31:20.210068	318.0	14.8	-90.3	3.4
2025-01-02 13:31:21.368906	317.8	14.7	-90.2	2.0
2025-01-02 13:31:22.536222	317.6	14.6	-90.2	0.0
#Closed at: 2025-01-02 13:25:06.701846