passes_logs/2025/01/02/LEX_Murmansk/LEX_Murmansk__20250102_064320_NOAA_19_rec.log

#Pass ID: 20250102_064320_NOAA 19
#Satellite: NOAA 19
#Configuration: NOAA 19
#Start time: 2025-01-02 06:43:15.327902

#LorettStation: 1.0.0 05.05.2024
#Station: LEX_Murmansk
#Location: 33.156738 lon 68.926811 lat
#TLE: 1 33591U 09005A   25001.83569820  .00001454  00000+0  79919-3 0  9995
#TLE: 2 33591  99.0217  65.4951 0014707  92.5482 267.7374 14.13252981819684

#Time	Az	El	Level	SNR
2025-01-02 06:43:27.458744	41.2	15.9	-92.0	2.6
2025-01-02 06:43:28.613260	41.4	16.0	-92.3	2.4
2025-01-02 06:43:29.765850	41.6	16.1	-92.1	3.2
2025-01-02 06:43:30.929403	41.8	16.2	-92.2	4.8
2025-01-02 06:43:32.084292	42.0	16.2	-92.1	1.3
2025-01-02 06:43:33.231433	42.2	16.3	-92.1	2.0
2025-01-02 06:43:34.384733	42.4	16.4	-92.4	2.7
2025-01-02 06:43:35.537969	42.6	16.5	-92.2	3.2
2025-01-02 06:43:36.694484	42.7	16.6	-92.7	2.9
2025-01-02 06:43:37.850394	42.9	16.7	-92.5	1.6
2025-01-02 06:43:39.010537	43.1	16.7	-92.2	3.4
2025-01-02 06:43:40.168598	43.3	16.8	-92.3	3.8
2025-01-02 06:43:41.320849	43.5	16.9	-92.2	0.8
2025-01-02 06:43:42.478198	43.7	17.0	-92.4	2.2
2025-01-02 06:43:43.625715	43.9	17.1	-92.7	3.7
2025-01-02 06:43:44.779858	44.1	17.2	-92.6	2.7
2025-01-02 06:43:45.932659	44.3	17.3	-92.6	2.4
2025-01-02 06:43:47.091643	44.5	17.3	-91.7	6.2
2025-01-02 06:43:48.235722	44.7	17.4	-92.0	3.0
2025-01-02 06:43:49.391193	44.9	17.5	-92.1	4.3
2025-01-02 06:43:50.544466	45.1	17.6	-92.4	4.0
2025-01-02 06:43:51.699739	45.3	17.7	-92.4	2.1
2025-01-02 06:43:52.855709	45.5	17.8	-92.3	2.0
2025-01-02 06:43:54.004018	45.7	17.9	-92.0	3.9
2025-01-02 06:43:55.160702	46.0	17.9	-91.9	3.8
2025-01-02 06:43:56.321808	46.2	18.0	-92.2	5.1
2025-01-02 06:43:57.470552	46.4	18.1	-92.7	6.7
2025-01-02 06:43:58.634356	46.6	18.2	-92.3	8.4
2025-01-02 06:43:59.786435	46.8	18.3	-92.2	9.1
2025-01-02 06:44:00.936523	47.0	18.4	-92.6	6.4
2025-01-02 06:44:02.095466	47.2	18.5	-92.3	6.8
2025-01-02 06:44:03.255208	47.5	18.5	-92.3	3.2
2025-01-02 06:44:04.408629	47.7	18.6	-92.5	6.4
2025-01-02 06:44:05.560034	47.9	18.7	-92.5	5.8
2025-01-02 06:44:06.713349	48.1	18.8	-92.0	5.6
2025-01-02 06:44:07.859564	48.3	18.9	-92.3	6.1
2025-01-02 06:44:09.015994	48.6	19.0	-92.4	7.9
2025-01-02 06:44:10.175843	48.8	19.0	-92.0	8.2
2025-01-02 06:44:11.326475	49.0	19.1	-92.1	8.1
2025-01-02 06:44:12.477450	49.2	19.2	-92.8	8.1
2025-01-02 06:44:13.621380	49.5	19.3	-92.2	7.2
2025-01-02 06:44:14.779049	49.7	19.4	-92.4	3.6
2025-01-02 06:44:15.930547	49.9	19.5	-92.6	3.8
2025-01-02 06:44:17.083657	50.1	19.5	-92.2	4.6
2025-01-02 06:44:18.238037	50.4	19.6	-92.0	1.9
2025-01-02 06:44:19.405024	50.6	19.7	-92.9	5.7
2025-01-02 06:44:20.565344	50.8	19.8	-92.8	7.4
2025-01-02 06:44:21.719016	51.1	19.9	-92.8	9.2
2025-01-02 06:44:22.865938	51.3	19.9	-92.3	11.5
2025-01-02 06:44:24.021730	51.6	20.0	-92.5	10.5
2025-01-02 06:44:25.166515	51.8	20.1	-92.1	9.7
2025-01-02 06:44:26.307828	52.0	20.2	-91.8	6.9
2025-01-02 06:44:27.427809	52.3	20.3	-92.1	6.5
2025-01-02 06:44:28.549426	52.5	20.3	-92.4	7.7
2025-01-02 06:44:29.669738	52.7	20.4	-92.2	6.1
2025-01-02 06:44:30.790843	53.0	20.5	-92.8	7.1
2025-01-02 06:44:31.911574	53.2	20.6	-92.2	12.2
2025-01-02 06:44:33.031143	53.5	20.7	-92.2	12.0
2025-01-02 06:44:34.152054	53.7	20.7	-92.1	13.7
2025-01-02 06:44:35.296807	53.9	20.8	-91.6	13.3
2025-01-02 06:44:36.448338	54.2	20.9	-92.6	11.9
2025-01-02 06:44:37.601719	54.5	21.0	-93.0	7.6
2025-01-02 06:44:38.758100	54.7	21.0	-92.9	4.4
2025-01-02 06:44:39.900736	55.0	21.1	-92.7	5.2
2025-01-02 06:44:41.053923	55.2	21.2	-92.5	5.6
2025-01-02 06:44:42.219662	55.5	21.3	-92.2	0.8
2025-01-02 06:44:43.369771	55.7	21.4	-92.5	4.8
2025-01-02 06:44:44.514131	56.0	21.4	-92.6	6.9
2025-01-02 06:44:45.666021	56.3	21.5	-92.5	8.6
2025-01-02 06:44:46.814563	56.5	21.6	-92.5	9.9
2025-01-02 06:44:47.967646	56.8	21.7	-92.8	11.8
2025-01-02 06:44:49.123238	57.0	21.7	-92.5	13.1
2025-01-02 06:44:50.283012	57.3	21.8	-92.6	13.6
2025-01-02 06:44:51.437618	57.6	21.9	-93.0	13.3
2025-01-02 06:44:52.589327	57.8	21.9	-92.5	11.7
2025-01-02 06:44:53.745396	58.1	22.0	-92.5	7.2
2025-01-02 06:44:54.899868	58.4	22.1	-92.2	8.1
2025-01-02 06:44:56.054251	58.7	22.2	-92.3	9.3
2025-01-02 06:44:57.227508	58.9	22.2	-92.3	7.2
2025-01-02 06:44:58.376192	59.2	22.3	-91.9	9.2
2025-01-02 06:44:59.527615	59.5	22.4	-91.1	9.7
2025-01-02 06:45:00.679134	59.8	22.5	-92.1	13.5
2025-01-02 06:45:01.821378	60.0	22.5	-92.1	14.8
2025-01-02 06:45:02.975849	60.3	22.6	-92.2	13.8
2025-01-02 06:45:04.133474	60.6	22.7	-92.0	11.5
2025-01-02 06:45:05.295983	60.9	22.7	-92.0	9.2
2025-01-02 06:45:06.444854	61.2	22.8	-91.4	7.3
2025-01-02 06:45:07.599528	61.5	22.9	-92.6	4.5
2025-01-02 06:45:08.757676	61.7	22.9	-92.0	2.1
2025-01-02 06:45:09.903126	62.0	23.0	-92.0	4.6
2025-01-02 06:45:11.051202	62.3	23.1	-91.7	4.6
2025-01-02 06:45:12.199048	62.6	23.1	-91.9	3.7
2025-01-02 06:45:13.351688	62.9	23.2	-92.0	5.1
2025-01-02 06:45:14.519246	63.2	23.3	-92.0	8.9
2025-01-02 06:45:15.674025	63.5	23.3	-92.1	8.5
2025-01-02 06:45:16.829009	63.8	23.4	-92.3	9.9
2025-01-02 06:45:17.981338	64.1	23.4	-92.4	13.3
2025-01-02 06:45:19.138761	64.4	23.5	-91.3	12.5
2025-01-02 06:45:20.289759	64.7	23.6	-91.8	11.2
2025-01-02 06:45:21.445248	65.0	23.6	-92.2	11.2
2025-01-02 06:45:22.597140	65.3	23.7	-92.7	10.2
2025-01-02 06:45:23.756172	65.6	23.7	-92.2	5.7
2025-01-02 06:45:24.912380	65.9	23.8	-92.5	7.6
2025-01-02 06:45:26.072016	66.2	23.9	-91.7	6.5
2025-01-02 06:45:27.222521	66.5	23.9	-91.8	5.2
2025-01-02 06:45:28.375287	66.8	24.0	-91.7	5.9
2025-01-02 06:45:29.542414	67.1	24.0	-92.3	8.8
2025-01-02 06:45:30.696526	67.4	24.1	-92.1	9.5
2025-01-02 06:45:31.837843	67.7	24.1	-92.4	8.2
2025-01-02 06:45:32.992771	68.0	24.2	-92.1	7.7
2025-01-02 06:45:34.142716	68.3	24.2	-92.0	8.6
2025-01-02 06:45:35.290749	68.6	24.3	-91.7	12.3
2025-01-02 06:45:36.443766	69.0	24.3	-92.2	10.1
2025-01-02 06:45:37.613475	69.3	24.4	-92.7	6.6
2025-01-02 06:45:38.763982	69.6	24.4	-92.0	5.7
2025-01-02 06:45:39.924938	69.9	24.5	-92.6	5.8
2025-01-02 06:45:41.076892	70.2	24.5	-92.3	5.9
2025-01-02 06:45:42.228485	70.5	24.6	-91.7	4.2
2025-01-02 06:45:43.381497	70.9	24.6	-92.2	3.3
2025-01-02 06:45:44.534446	71.2	24.7	-92.9	2.7
2025-01-02 06:45:45.691523	71.5	24.7	-92.7	3.9
2025-01-02 06:45:46.847425	71.8	24.8	-92.8	2.4
2025-01-02 06:45:47.993510	72.1	24.8	-92.5	3.5
2025-01-02 06:45:49.143517	72.5	24.8	-92.3	6.7
2025-01-02 06:45:50.291276	72.8	24.9	-92.3	4.9
2025-01-02 06:45:51.452662	73.1	24.9	-92.7	5.5
2025-01-02 06:45:52.609606	73.4	25.0	-92.7	3.2
2025-01-02 06:45:53.752490	73.8	25.0	-92.4	3.2
2025-01-02 06:45:54.906530	74.1	25.0	-92.6	5.9
2025-01-02 06:45:56.057899	74.4	25.1	-92.5	4.9
2025-01-02 06:45:57.206496	74.7	25.1	-92.4	8.6
2025-01-02 06:45:58.354315	75.1	25.1	-92.3	6.9
2025-01-02 06:45:59.507513	75.4	25.2	-92.8	5.6
2025-01-02 06:46:00.648676	75.7	25.2	-92.9	3.1
2025-01-02 06:46:01.796491	76.1	25.2	-92.6	1.8
2025-01-02 06:46:02.955841	76.4	25.3	-92.8	5.2
2025-01-02 06:46:04.109014	76.7	25.3	-92.4	2.4
2025-01-02 06:46:05.267502	77.1	25.3	-92.4	1.7
2025-01-02 06:46:06.421036	77.4	25.4	-92.8	1.8
2025-01-02 06:46:07.577245	77.7	25.4	-92.8	2.1
2025-01-02 06:46:08.730872	78.1	25.4	-93.1	1.7
2025-01-02 06:46:09.880791	78.4	25.4	-93.0	1.5
2025-01-02 06:46:11.034679	78.7	25.5	-92.8	4.3
2025-01-02 06:46:12.182689	79.1	25.5	-91.3	4.6
2025-01-02 06:46:13.339878	79.4	25.5	-91.2	2.4
2025-01-02 06:46:14.495855	79.7	25.5	-91.5	2.9
2025-01-02 06:46:15.656099	80.1	25.5	-91.8	2.7
2025-01-02 06:46:16.814328	80.4	25.6	-91.3	2.4
2025-01-02 06:46:17.959923	80.8	25.6	-91.5	5.2
2025-01-02 06:46:19.109117	81.1	25.6	-92.2	2.7
2025-01-02 06:46:20.265140	81.4	25.6	-91.8	5.6
2025-01-02 06:46:21.419693	81.8	25.6	-92.4	4.6
2025-01-02 06:46:22.569945	82.1	25.6	-92.6	3.5
2025-01-02 06:46:23.725890	82.4	25.7	-92.7	2.5
2025-01-02 06:46:24.881514	82.8	25.7	-92.8	4.0
2025-01-02 06:46:26.037969	83.1	25.7	-92.4	6.5
2025-01-02 06:46:27.192546	83.5	25.7	-92.5	2.8
2025-01-02 06:46:28.344757	83.8	25.7	-92.3	2.9
2025-01-02 06:46:29.501098	84.2	25.7	-92.8	3.3
2025-01-02 06:46:30.646797	84.5	25.7	-92.8	1.4
2025-01-02 06:46:31.794440	84.8	25.7	-93.1	2.2
2025-01-02 06:46:32.946502	85.2	25.7	-92.8	3.2
2025-01-02 06:46:34.100142	85.5	25.7	-92.7	2.3
2025-01-02 06:46:35.259259	85.9	25.7	-92.1	2.0
2025-01-02 06:46:36.422911	86.2	25.7	-92.3	4.4
2025-01-02 06:46:37.573996	86.5	25.7	-92.5	2.8
2025-01-02 06:46:38.730534	86.9	25.7	-92.4	4.3
2025-01-02 06:46:39.885952	87.2	25.7	-92.3	2.8
2025-01-02 06:46:41.037074	87.6	25.7	-93.0	3.5
2025-01-02 06:46:42.199192	87.9	25.7	-92.3	2.2
2025-01-02 06:46:43.356845	88.3	25.7	-92.1	2.0
2025-01-02 06:46:44.510380	88.6	25.7	-93.0	4.8
2025-01-02 06:46:45.659631	88.9	25.7	-92.6	6.9
2025-01-02 06:46:46.813029	89.3	25.7	-92.4	4.5
2025-01-02 06:46:47.961381	89.6	25.7	-92.3	5.9
2025-01-02 06:46:49.124078	90.0	25.7	-92.1	2.4
2025-01-02 06:46:50.275750	90.3	25.7	-92.1	3.6
2025-01-02 06:46:51.429930	90.6	25.6	-92.8	4.2
2025-01-02 06:46:52.590066	91.0	25.6	-92.7	4.4
2025-01-02 06:46:53.736801	91.3	25.6	-92.8	5.4
2025-01-02 06:46:54.889492	91.7	25.6	-92.4	5.7
2025-01-02 06:46:56.042129	92.0	25.6	-92.2	8.0
2025-01-02 06:46:57.198664	92.3	25.6	-92.1	7.3
2025-01-02 06:46:58.355980	92.7	25.5	-92.3	7.5
2025-01-02 06:46:59.504669	93.0	25.5	-92.5	5.5
2025-01-02 06:47:00.653563	93.3	25.5	-92.7	5.7
2025-01-02 06:47:01.809021	93.7	25.5	-92.9	8.2
2025-01-02 06:47:02.963746	94.0	25.5	-92.4	7.8
2025-01-02 06:47:04.124496	94.4	25.4	-92.1	9.4
2025-01-02 06:47:05.276809	94.7	25.4	-92.1	6.8
2025-01-02 06:47:06.435413	95.0	25.4	-92.5	6.7
2025-01-02 06:47:07.593476	95.4	25.4	-92.5	6.9
2025-01-02 06:47:08.741393	95.7	25.3	-92.7	6.2
2025-01-02 06:47:09.895164	96.0	25.3	-92.9	5.4
2025-01-02 06:47:11.054933	96.4	25.3	-91.5	3.7
2025-01-02 06:47:12.213473	96.7	25.2	-91.7	5.1
2025-01-02 06:47:13.366310	97.0	25.2	-91.5	4.2
2025-01-02 06:47:14.515890	97.3	25.2	-91.2	3.1
2025-01-02 06:47:15.670554	97.7	25.1	-91.4	0.9
2025-01-02 06:47:16.825149	98.0	25.1	-92.0	3.5
2025-01-02 06:47:17.984111	98.3	25.1	-91.6	3.0
2025-01-02 06:47:19.137521	98.7	25.0	-91.1	3.4
2025-01-02 06:47:20.291597	99.0	25.0	-91.2	6.8
2025-01-02 06:47:21.453734	99.3	24.9	-91.3	6.6
2025-01-02 06:47:22.610074	99.6	24.9	-91.5	3.8
2025-01-02 06:47:23.767901	100.0	24.9	-91.5	2.5
2025-01-02 06:47:24.919942	100.3	24.8	-91.6	3.5
2025-01-02 06:47:26.074899	100.6	24.8	-91.6	2.9
2025-01-02 06:47:27.235670	100.9	24.7	-92.5	4.8
2025-01-02 06:47:28.388693	101.3	24.7	-92.3	3.6
2025-01-02 06:47:29.538927	101.6	24.7	-92.8	7.2
2025-01-02 06:47:30.698939	101.9	24.6	-92.6	4.9
2025-01-02 06:47:31.850559	102.2	24.6	-92.6	2.8
2025-01-02 06:47:33.008920	102.5	24.5	-92.6	5.1
2025-01-02 06:47:34.166548	102.9	24.5	-92.2	3.7
2025-01-02 06:47:35.320898	103.2	24.4	-92.4	5.4
2025-01-02 06:47:36.470101	103.5	24.4	-92.4	6.0
2025-01-02 06:47:37.629490	103.8	24.3	-92.6	8.8
2025-01-02 06:47:38.784769	104.1	24.3	-92.8	10.1
2025-01-02 06:47:39.939968	104.4	24.2	-92.5	6.9
2025-01-02 06:47:41.097418	104.7	24.2	-92.0	5.8
2025-01-02 06:47:42.254983	105.1	24.1	-92.1	7.2
2025-01-02 06:47:43.413108	105.4	24.1	-92.3	7.6
2025-01-02 06:47:44.578783	105.7	24.0	-92.5	7.3
2025-01-02 06:47:45.718523	106.0	23.9	-92.3	5.7
2025-01-02 06:47:46.867400	106.3	23.9	-92.7	6.4
2025-01-02 06:47:47.994444	106.6	23.8	-92.7	3.8
2025-01-02 06:47:49.114780	106.9	23.8	-92.2	4.1
2025-01-02 06:47:50.234833	107.2	23.7	-92.1	4.6
2025-01-02 06:47:51.355620	107.5	23.7	-92.3	4.9
2025-01-02 06:47:52.489215	107.8	23.6	-92.4	6.6
2025-01-02 06:47:53.611961	108.0	23.5	-92.3	6.8
2025-01-02 06:47:54.732372	108.3	23.5	-92.4	7.2
2025-01-02 06:47:55.861466	108.6	23.4	-92.4	8.1
2025-01-02 06:47:57.006089	108.9	23.4	-92.6	9.8
2025-01-02 06:47:58.157751	109.2	23.3	-92.5	10.7
2025-01-02 06:47:59.315283	109.5	23.2	-92.1	11.5
2025-01-02 06:48:00.452867	109.8	23.2	-92.7	10.2
2025-01-02 06:48:01.605010	110.1	23.1	-93.0	10.0
2025-01-02 06:48:02.753956	110.4	23.0	-92.8	7.3
2025-01-02 06:48:03.903585	110.7	23.0	-92.8	8.3
2025-01-02 06:48:05.051233	110.9	22.9	-92.5	9.5
2025-01-02 06:48:06.201077	111.2	22.8	-92.7	11.4
2025-01-02 06:48:07.348925	111.5	22.8	-92.8	11.2
2025-01-02 06:48:08.502469	111.8	22.7	-92.7	10.5
2025-01-02 06:48:09.653458	112.1	22.6	-92.2	7.1
2025-01-02 06:48:10.810422	112.4	22.6	-92.9	9.7
2025-01-02 06:48:11.957048	112.6	22.5	-93.1	9.1
2025-01-02 06:48:13.110553	112.9	22.4	-92.8	8.0
2025-01-02 06:48:14.268959	113.2	22.4	-92.6	10.2
2025-01-02 06:48:15.418709	113.5	22.3	-92.8	8.2
2025-01-02 06:48:16.574387	113.8	22.2	-92.5	7.4
2025-01-02 06:48:17.732800	114.0	22.1	-92.2	8.5
2025-01-02 06:48:18.886643	114.3	22.1	-92.8	8.9
2025-01-02 06:48:20.048456	114.6	22.0	-92.4	8.1
2025-01-02 06:48:21.200954	114.8	21.9	-92.7	10.8
2025-01-02 06:48:22.362224	115.1	21.9	-92.4	9.5
2025-01-02 06:48:23.516193	115.4	21.8	-92.6	6.5
2025-01-02 06:48:24.664728	115.7	21.7	-92.6	8.4
2025-01-02 06:48:25.819965	115.9	21.6	-92.4	10.7
2025-01-02 06:48:26.974009	116.2	21.6	-92.7	7.9
2025-01-02 06:48:28.124729	116.4	21.5	-92.2	6.0
2025-01-02 06:48:29.275443	116.7	21.4	-92.2	9.3
2025-01-02 06:48:30.424473	117.0	21.3	-92.8	6.4
2025-01-02 06:48:31.579369	117.2	21.2	-92.6	3.7
2025-01-02 06:48:32.728297	117.5	21.2	-92.0	10.0
2025-01-02 06:48:33.879843	117.7	21.1	-92.7	9.7
2025-01-02 06:48:35.031452	118.0	21.0	-92.5	5.4
2025-01-02 06:48:36.186635	118.2	20.9	-92.1	10.0
2025-01-02 06:48:37.332998	118.5	20.9	-92.2	10.8
2025-01-02 06:48:38.469601	118.7	20.8	-92.4	8.8
2025-01-02 06:48:39.590875	119.0	20.7	-92.5	6.9
2025-01-02 06:48:40.712886	119.2	20.6	-92.8	12.8
2025-01-02 06:48:41.833956	119.5	20.5	-92.5	12.5
2025-01-02 06:48:42.954756	119.7	20.5	-92.2	8.4
2025-01-02 06:48:44.076070	120.0	20.4	-92.0	9.2
2025-01-02 06:48:45.200259	120.2	20.3	-92.3	14.3
2025-01-02 06:48:46.323690	120.4	20.2	-91.7	11.9
2025-01-02 06:48:47.483554	120.7	20.2	-92.4	12.4
2025-01-02 06:48:48.633768	120.9	20.1	-90.4	10.1
2025-01-02 06:48:49.792228	121.2	20.0	-92.4	12.4
2025-01-02 06:48:50.935379	121.4	19.9	-92.6	11.4
2025-01-02 06:48:52.090049	121.6	19.8	-92.5	11.5
2025-01-02 06:48:53.242966	121.9	19.7	-91.7	10.9
2025-01-02 06:48:54.400059	122.1	19.7	-92.2	11.3
2025-01-02 06:48:55.557306	122.3	19.6	-92.3	11.3
2025-01-02 06:48:56.707772	122.6	19.5	-92.3	12.7
2025-01-02 06:48:57.865723	122.8	19.4	-92.5	11.8
2025-01-02 06:48:59.022328	123.0	19.3	-92.9	12.7
2025-01-02 06:49:00.167451	123.3	19.2	-92.7	13.9
2025-01-02 06:49:01.323249	123.5	19.2	-92.1	13.7
2025-01-02 06:49:02.476758	123.7	19.1	-92.6	7.9
2025-01-02 06:49:03.627165	123.9	19.0	-93.0	9.0
2025-01-02 06:49:04.775219	124.2	18.9	-92.7	13.9
2025-01-02 06:49:05.929546	124.4	18.8	-92.4	9.4
2025-01-02 06:49:07.080350	124.6	18.7	-92.4	8.2
2025-01-02 06:49:08.240861	124.8	18.7	-92.7	11.3
2025-01-02 06:49:09.389187	125.0	18.6	-92.6	7.3
2025-01-02 06:49:10.556377	125.3	18.5	-92.3	4.9
2025-01-02 06:49:11.702100	125.5	18.4	-91.5	9.5
2025-01-02 06:49:12.826136	125.7	18.3	-91.9	9.7
2025-01-02 06:49:13.967430	125.9	18.2	-92.1	5.5
2025-01-02 06:49:15.109655	126.1	18.2	-90.9	4.3
2025-01-02 06:49:16.255040	126.3	18.1	-91.4	7.5
2025-01-02 06:49:17.397251	126.5	18.0	-91.4	6.4
2025-01-02 06:49:18.541488	126.7	17.9	-91.6	7.9
2025-01-02 06:49:19.691153	126.9	17.8	-92.9	10.2
2025-01-02 06:49:20.844319	127.1	17.7	-92.8	7.9
2025-01-02 06:49:21.992865	127.4	17.6	-91.9	7.0
2025-01-02 06:49:23.151076	127.6	17.6	-92.4	8.9
2025-01-02 06:49:24.309241	127.8	17.5	-92.5	9.0
2025-01-02 06:49:25.466256	128.0	17.4	-92.3	7.6
2025-01-02 06:49:26.624147	128.2	17.3	-92.5	8.2
2025-01-02 06:49:27.775521	128.4	17.2	-92.5	8.7
2025-01-02 06:49:28.932862	128.6	17.1	-92.6	5.5
2025-01-02 06:49:30.084497	128.8	17.0	-92.3	5.2
2025-01-02 06:49:31.237056	129.0	17.0	-91.9	7.5
2025-01-02 06:49:32.398349	129.2	16.9	-92.4	6.1
2025-01-02 06:49:33.551855	129.4	16.8	-92.4	5.7
2025-01-02 06:49:34.710231	129.6	16.7	-92.4	8.9
2025-01-02 06:49:35.871928	129.8	16.6	-92.1	8.6
2025-01-02 06:49:37.028116	129.9	16.5	-92.5	5.3
2025-01-02 06:49:38.183337	130.1	16.4	-91.9	6.8
2025-01-02 06:49:39.333739	130.3	16.4	-92.2	7.1
2025-01-02 06:49:40.491801	130.5	16.3	-92.5	4.4
2025-01-02 06:49:41.644597	130.7	16.2	-92.9	3.4
2025-01-02 06:49:42.794762	130.9	16.1	-92.3	6.7
2025-01-02 06:49:43.957048	131.1	16.0	-92.7	5.4
2025-01-02 06:49:45.113365	131.3	15.9	-92.7	5.3
2025-01-02 06:49:46.263069	131.4	15.8	-92.4	6.4
2025-01-02 06:49:47.416548	131.6	15.8	-92.5	3.2
2025-01-02 06:49:48.566637	131.8	15.7	-93.1	4.2
2025-01-02 06:49:49.713486	132.0	15.6	-93.1	4.4
2025-01-02 06:49:50.870789	132.2	15.5	-92.8	3.1
2025-01-02 06:49:52.024630	132.3	15.4	-92.9	2.0
2025-01-02 06:49:53.179020	132.5	15.3	-92.6	1.9
2025-01-02 06:49:54.340950	132.7	15.2	-92.5	3.8
2025-01-02 06:49:55.488568	132.9	15.2	-93.1	2.9
2025-01-02 06:49:56.647114	133.1	15.1	-93.0	4.1
2025-01-02 06:49:57.792042	133.2	15.0	-92.8	4.2
2025-01-02 06:49:58.953055	133.4	14.9	-92.8	3.6
2025-01-02 06:50:00.116565	133.6	14.8	-92.3	1.0
2025-01-02 06:50:01.271972	133.7	14.7	-92.7	3.1
2025-01-02 06:50:02.416348	133.9	14.7	-92.7	1.8
#Closed at: 2025-01-02 06:43:20.242774