passes_logs/2025/01/02/LEX_Murmansk/LEX_Murmansk__20250102_203326_NOAA_18_rec.log

#Pass ID: 20250102_203326_NOAA 18
#Satellite: NOAA 18
#Configuration: NOAA 18
#Start time: 2025-01-02 20:33:21.552454

#LorettStation: 1.0.0 05.05.2024
#Station: LEX_Murmansk
#Location: 33.156738 lon 68.926811 lat
#TLE: 1 28654U 05018A   25001.78406204  .00000701  00000+0  39590-3 0  9994
#TLE: 2 28654  98.8586  82.9683 0013729 216.8395 143.1835 14.13472842 11310

#Time	Az	El	Level	SNR
2025-01-02 20:33:33.873862	207.4	16.1	-92.5	7.1
2025-01-02 20:33:35.018720	207.6	16.2	-92.7	8.3
2025-01-02 20:33:36.166174	207.7	16.3	-92.5	8.3
2025-01-02 20:33:37.306335	207.9	16.4	-92.3	6.9
2025-01-02 20:33:38.467253	208.0	16.5	-92.6	9.2
2025-01-02 20:33:39.613384	208.1	16.6	-92.7	7.9
2025-01-02 20:33:40.757456	208.3	16.7	-92.6	4.9
2025-01-02 20:33:41.907509	208.4	16.8	-92.7	5.2
2025-01-02 20:33:43.058636	208.6	17.0	-92.9	5.2
2025-01-02 20:33:44.207539	208.7	17.1	-92.0	4.8
2025-01-02 20:33:45.357431	208.9	17.2	-91.3	5.6
2025-01-02 20:33:46.502441	209.0	17.3	-92.2	4.8
2025-01-02 20:33:47.653782	209.1	17.4	-91.7	4.1
2025-01-02 20:33:48.800252	209.3	17.5	-92.8	4.8
2025-01-02 20:33:49.953149	209.4	17.6	-92.5	5.4
2025-01-02 20:33:51.101236	209.6	17.7	-92.2	6.6
2025-01-02 20:33:52.248169	209.7	17.8	-92.3	5.2
2025-01-02 20:33:53.395901	209.9	17.9	-91.9	5.6
2025-01-02 20:33:54.541714	210.1	18.0	-92.6	7.9
2025-01-02 20:33:55.685736	210.2	18.2	-92.9	8.3
2025-01-02 20:33:56.837329	210.4	18.3	-92.5	9.0
2025-01-02 20:33:57.986549	210.5	18.4	-92.3	6.9
2025-01-02 20:33:59.139461	210.7	18.5	-92.0	6.0
2025-01-02 20:34:00.279067	210.8	18.6	-91.6	4.3
2025-01-02 20:34:01.416760	211.0	18.7	-92.4	7.5
2025-01-02 20:34:02.565563	211.2	18.8	-92.6	6.3
2025-01-02 20:34:03.715318	211.3	18.9	-92.5	8.5
2025-01-02 20:34:04.866956	211.5	19.0	-92.6	7.3
2025-01-02 20:34:06.017577	211.6	19.2	-92.8	4.4
2025-01-02 20:34:07.166579	211.8	19.3	-92.4	5.8
2025-01-02 20:34:08.315128	212.0	19.4	-92.4	10.6
2025-01-02 20:34:09.463473	212.1	19.5	-92.5	10.0
2025-01-02 20:34:10.609512	212.3	19.6	-92.7	9.5
2025-01-02 20:34:11.767267	212.5	19.7	-92.8	10.4
2025-01-02 20:34:12.919794	212.7	19.8	-92.9	10.6
2025-01-02 20:34:14.066981	212.8	20.0	-92.2	6.4
2025-01-02 20:34:15.209577	213.0	20.1	-92.2	10.0
2025-01-02 20:34:16.359016	213.2	20.2	-92.6	11.7
2025-01-02 20:34:17.511692	213.4	20.3	-92.5	11.3
2025-01-02 20:34:18.667014	213.5	20.4	-92.7	13.5
2025-01-02 20:34:19.812910	213.7	20.5	-92.7	10.0
2025-01-02 20:34:20.953665	213.9	20.6	-92.9	8.7
2025-01-02 20:34:22.075975	214.1	20.8	-92.6	5.9
2025-01-02 20:34:23.197694	214.3	20.9	-92.0	6.3
2025-01-02 20:34:24.318208	214.4	21.0	-92.3	10.3
2025-01-02 20:34:25.420333	214.6	21.1	-92.9	12.1
2025-01-02 20:34:26.541592	214.8	21.2	-92.9	8.2
2025-01-02 20:34:27.662103	215.0	21.3	-93.0	8.0
2025-01-02 20:34:28.782268	215.2	21.4	-92.6	11.3
2025-01-02 20:34:29.915184	215.4	21.6	-93.1	9.9
2025-01-02 20:34:31.066219	215.6	21.7	-92.3	13.0
2025-01-02 20:34:32.215191	215.7	21.8	-92.4	13.4
2025-01-02 20:34:33.357991	215.9	21.9	-91.7	11.6
2025-01-02 20:34:34.503058	216.1	22.0	-92.7	10.1
2025-01-02 20:34:35.648101	216.3	22.2	-92.5	15.7
2025-01-02 20:34:36.800801	216.5	22.3	-92.3	16.0
2025-01-02 20:34:37.943837	216.7	22.4	-92.9	18.5
2025-01-02 20:34:39.090245	216.9	22.5	-92.3	10.5
2025-01-02 20:34:40.238862	217.1	22.6	-92.0	14.3
2025-01-02 20:34:41.384794	217.3	22.8	-92.6	13.1
2025-01-02 20:34:42.539383	217.6	22.9	-92.8	7.0
2025-01-02 20:34:43.685009	217.8	23.0	-92.5	11.3
2025-01-02 20:34:44.831052	218.0	23.1	-92.7	15.7
2025-01-02 20:34:45.978948	218.2	23.2	-92.7	7.1
2025-01-02 20:34:47.133943	218.4	23.4	-91.8	9.4
2025-01-02 20:34:48.281325	218.6	23.5	-91.8	8.9
2025-01-02 20:34:49.429168	218.8	23.6	-93.1	12.9
2025-01-02 20:34:50.581613	219.1	23.7	-92.8	12.2
2025-01-02 20:34:51.728106	219.3	23.8	-93.0	14.7
2025-01-02 20:34:52.874868	219.5	24.0	-92.8	14.5
2025-01-02 20:34:54.021784	219.7	24.1	-93.1	6.8
2025-01-02 20:34:55.171086	219.9	24.2	-92.6	7.0
2025-01-02 20:34:56.325170	220.2	24.3	-92.0	13.0
2025-01-02 20:34:57.480193	220.4	24.4	-92.8	9.0
2025-01-02 20:34:58.631980	220.6	24.6	-92.6	11.6
2025-01-02 20:34:59.779368	220.9	24.7	-92.9	9.7
2025-01-02 20:35:00.914764	221.1	24.8	-92.7	8.7
2025-01-02 20:35:02.061915	221.3	24.9	-92.5	7.2
2025-01-02 20:35:03.209944	221.6	25.1	-92.3	9.0
2025-01-02 20:35:04.357388	221.8	25.2	-92.7	7.8
2025-01-02 20:35:05.503102	222.0	25.3	-92.6	6.2
2025-01-02 20:35:06.648091	222.3	25.4	-92.5	6.7
2025-01-02 20:35:07.789801	222.5	25.5	-93.0	9.3
2025-01-02 20:35:08.934035	222.8	25.7	-92.9	6.1
2025-01-02 20:35:10.070934	223.0	25.8	-92.4	5.5
2025-01-02 20:35:11.192824	223.3	25.9	-92.1	6.1
2025-01-02 20:35:12.316366	223.5	26.0	-92.3	3.4
2025-01-02 20:35:13.437197	223.8	26.1	-92.7	5.6
2025-01-02 20:35:14.557528	224.0	26.3	-92.6	6.7
2025-01-02 20:35:15.677457	224.3	26.4	-92.7	6.2
2025-01-02 20:35:16.798167	224.5	26.5	-92.8	7.0
2025-01-02 20:35:17.918282	224.8	26.6	-92.6	5.2
2025-01-02 20:35:19.064116	225.0	26.7	-92.6	7.7
2025-01-02 20:35:20.210269	225.3	26.9	-92.3	8.1
2025-01-02 20:35:21.341623	225.6	27.0	-92.8	6.4
2025-01-02 20:35:22.475415	225.8	27.1	-92.9	4.3
2025-01-02 20:35:23.616772	226.1	27.2	-93.2	4.3
2025-01-02 20:35:24.758589	226.4	27.4	-92.8	3.9
2025-01-02 20:35:25.899323	226.6	27.5	-93.5	4.7
2025-01-02 20:35:27.045184	226.9	27.6	-92.7	5.1
2025-01-02 20:35:28.191074	227.2	27.7	-92.5	3.9
2025-01-02 20:35:29.348976	227.5	27.8	-92.5	2.1
2025-01-02 20:35:30.504910	227.8	28.0	-92.6	3.1
2025-01-02 20:35:31.648954	228.0	28.1	-92.9	5.4
2025-01-02 20:35:32.808658	228.3	28.2	-92.4	4.9
2025-01-02 20:35:33.960809	228.6	28.3	-92.8	4.9
2025-01-02 20:35:35.111555	228.9	28.4	-92.3	3.8
2025-01-02 20:35:36.257868	229.2	28.6	-92.3	6.4
2025-01-02 20:35:37.412392	229.5	28.7	-92.8	9.8
2025-01-02 20:35:38.560676	229.8	28.8	-92.8	7.2
2025-01-02 20:35:39.710122	230.1	28.9	-93.3	6.4
2025-01-02 20:35:40.855816	230.4	29.0	-92.8	9.6
2025-01-02 20:35:41.994145	230.7	29.1	-92.7	5.2
2025-01-02 20:35:43.140098	231.0	29.3	-92.3	7.5
2025-01-02 20:35:44.291486	231.3	29.4	-92.3	5.1
2025-01-02 20:35:45.443194	231.6	29.5	-92.3	6.9
2025-01-02 20:35:46.595827	232.0	29.6	-92.4	3.6
2025-01-02 20:35:47.744324	232.3	29.7	-92.8	6.1
2025-01-02 20:35:48.893615	232.6	29.8	-93.2	2.9
2025-01-02 20:35:50.043919	232.9	30.0	-92.8	3.4
2025-01-02 20:35:51.183434	233.2	30.1	-92.6	7.5
2025-01-02 20:35:52.332494	233.6	30.2	-92.9	4.2
2025-01-02 20:35:53.474344	233.9	30.3	-93.2	9.0
2025-01-02 20:35:54.616353	234.2	30.4	-93.1	9.7
2025-01-02 20:35:55.736711	234.5	30.5	-93.2	14.3
2025-01-02 20:35:56.859093	234.9	30.6	-93.4	10.8
2025-01-02 20:35:57.980075	235.2	30.7	-93.2	12.3
2025-01-02 20:35:59.101524	235.5	30.8	-92.5	11.0
2025-01-02 20:36:00.222763	235.8	31.0	-92.8	5.5
2025-01-02 20:36:01.343717	236.2	31.1	-92.8	8.1
2025-01-02 20:36:02.464722	236.5	31.2	-93.2	12.7
2025-01-02 20:36:03.596535	236.8	31.3	-93.2	7.3
2025-01-02 20:36:04.742122	237.2	31.4	-93.1	12.9
2025-01-02 20:36:05.890259	237.5	31.5	-92.7	10.2
2025-01-02 20:36:07.035373	237.9	31.6	-92.8	7.4
2025-01-02 20:36:08.173591	238.3	31.7	-92.6	6.0
2025-01-02 20:36:09.297047	238.6	31.8	-92.8	5.4
2025-01-02 20:36:10.443629	239.0	31.9	-92.8	6.9
2025-01-02 20:36:11.583820	239.3	32.0	-93.2	10.6
2025-01-02 20:36:12.731747	239.7	32.1	-93.1	19.1
2025-01-02 20:36:13.878132	240.0	32.2	-92.7	16.0
2025-01-02 20:36:15.023505	240.4	32.3	-93.1	12.6
2025-01-02 20:36:16.171887	240.8	32.4	-92.6	13.8
2025-01-02 20:36:17.326215	241.2	32.5	-92.2	14.6
2025-01-02 20:36:18.478266	241.5	32.6	-92.8	11.7
2025-01-02 20:36:19.637257	241.9	32.7	-92.9	13.7
2025-01-02 20:36:20.782794	242.3	32.8	-93.2	13.3
2025-01-02 20:36:21.929347	242.7	32.9	-93.3	9.7
2025-01-02 20:36:23.087588	243.1	33.0	-92.5	8.1
2025-01-02 20:36:24.238799	243.4	33.0	-92.2	20.6
2025-01-02 20:36:25.388576	243.8	33.1	-92.7	14.4
2025-01-02 20:36:26.535247	244.2	33.2	-93.2	16.1
2025-01-02 20:36:27.667496	244.6	33.3	-93.0	14.7
2025-01-02 20:36:28.828505	245.0	33.4	-93.0	12.7
2025-01-02 20:36:29.974390	245.4	33.5	-93.0	16.3
2025-01-02 20:36:31.121584	245.8	33.6	-92.1	12.2
2025-01-02 20:36:32.272601	246.2	33.6	-92.5	18.7
2025-01-02 20:36:33.429724	246.6	33.7	-92.9	16.9
2025-01-02 20:36:34.574835	247.0	33.8	-93.1	17.9
2025-01-02 20:36:35.724892	247.4	33.9	-92.8	10.7
2025-01-02 20:36:36.873183	247.8	34.0	-92.7	14.4
2025-01-02 20:36:38.019695	248.2	34.0	-93.0	10.1
2025-01-02 20:36:39.171787	248.6	34.1	-92.4	16.0
2025-01-02 20:36:40.318133	249.0	34.2	-92.5	24.9
2025-01-02 20:36:41.464433	249.5	34.2	-92.9	12.9
2025-01-02 20:36:42.615274	249.9	34.3	-92.9	11.1
2025-01-02 20:36:43.766989	250.3	34.4	-92.8	15.4
2025-01-02 20:36:44.920015	250.7	34.4	-92.7	11.5
2025-01-02 20:36:46.067368	251.1	34.5	-92.6	8.9
2025-01-02 20:36:47.217472	251.6	34.6	-92.5	17.8
2025-01-02 20:36:48.370562	252.0	34.6	-92.7	16.3
2025-01-02 20:36:49.523839	252.4	34.7	-92.9	13.6
2025-01-02 20:36:50.667504	252.8	34.8	-92.8	14.1
2025-01-02 20:36:51.813939	253.3	34.8	-93.0	16.8
2025-01-02 20:36:52.966906	253.7	34.9	-92.9	17.2
2025-01-02 20:36:54.113753	254.1	34.9	-92.9	21.2
2025-01-02 20:36:55.265267	254.6	35.0	-92.5	14.8
2025-01-02 20:36:56.414245	255.0	35.0	-93.0	14.4
2025-01-02 20:36:57.571579	255.4	35.1	-93.0	12.6
2025-01-02 20:36:58.719917	255.9	35.1	-93.1	12.3
2025-01-02 20:36:59.868065	256.3	35.2	-92.9	15.0
2025-01-02 20:37:01.006551	256.7	35.2	-93.0	9.3
2025-01-02 20:37:02.153794	257.2	35.2	-92.8	10.3
2025-01-02 20:37:03.305199	257.6	35.3	-92.9	13.2
2025-01-02 20:37:04.457524	258.1	35.3	-92.6	11.5
2025-01-02 20:37:05.604211	258.5	35.3	-92.8	10.0
2025-01-02 20:37:06.752554	259.0	35.4	-93.1	14.0
2025-01-02 20:37:07.901994	259.4	35.4	-92.6	20.5
2025-01-02 20:37:09.050559	259.8	35.4	-92.7	13.7
2025-01-02 20:37:10.196458	260.3	35.5	-92.5	17.0
2025-01-02 20:37:11.354621	260.7	35.5	-92.7	13.8
2025-01-02 20:37:12.505561	261.2	35.5	-92.4	12.9
2025-01-02 20:37:13.648295	261.6	35.5	-92.9	18.5
2025-01-02 20:37:14.799264	262.1	35.6	-92.8	16.5
2025-01-02 20:37:15.946128	262.5	35.6	-92.4	16.0
2025-01-02 20:37:17.096641	263.0	35.6	-92.4	15.0
2025-01-02 20:37:18.246823	263.4	35.6	-92.4	16.8
2025-01-02 20:37:19.392439	263.9	35.6	-92.6	16.4
2025-01-02 20:37:20.543112	264.3	35.6	-93.0	12.7
2025-01-02 20:37:21.691962	264.8	35.6	-92.7	16.2
2025-01-02 20:37:22.836230	265.2	35.6	-92.8	11.2
2025-01-02 20:37:23.990856	265.7	35.6	-93.2	8.2
2025-01-02 20:37:25.150004	266.2	35.7	-92.7	9.2
2025-01-02 20:37:26.297184	266.6	35.7	-92.3	15.8
2025-01-02 20:37:27.448597	267.1	35.6	-92.7	10.1
2025-01-02 20:37:28.596419	267.5	35.6	-93.2	6.0
2025-01-02 20:37:29.741176	268.0	35.6	-92.8	10.2
2025-01-02 20:37:30.885475	268.4	35.6	-92.6	15.1
2025-01-02 20:37:32.038828	268.9	35.6	-93.2	7.5
2025-01-02 20:37:33.190253	269.3	35.6	-92.7	8.1
2025-01-02 20:37:34.337647	269.8	35.6	-92.9	11.5
2025-01-02 20:37:35.506421	270.2	35.6	-93.1	6.9
2025-01-02 20:37:36.659098	270.7	35.6	-92.8	8.4
2025-01-02 20:37:37.807126	271.1	35.5	-92.9	15.2
2025-01-02 20:37:38.952713	271.6	35.5	-92.9	11.2
2025-01-02 20:37:40.101728	272.0	35.5	-92.3	9.1
2025-01-02 20:37:41.250711	272.5	35.5	-92.6	14.8
2025-01-02 20:37:42.401317	272.9	35.5	-92.9	12.4
2025-01-02 20:37:43.551963	273.4	35.4	-93.0	8.8
2025-01-02 20:37:44.707610	273.8	35.4	-93.2	13.9
2025-01-02 20:37:45.852853	274.2	35.4	-92.7	14.7
2025-01-02 20:37:47.002246	274.7	35.3	-92.5	9.1
2025-01-02 20:37:48.156843	275.1	35.3	-92.4	10.0
2025-01-02 20:37:49.311453	275.6	35.3	-92.5	16.0
2025-01-02 20:37:50.459321	276.0	35.2	-93.0	12.5
2025-01-02 20:37:51.612992	276.5	35.2	-92.9	12.9
2025-01-02 20:37:52.769772	276.9	35.1	-93.0	17.3
2025-01-02 20:37:53.920024	277.3	35.1	-91.0	15.6
2025-01-02 20:37:55.063899	277.8	35.0	-92.5	15.7
2025-01-02 20:37:56.217011	278.2	35.0	-92.5	16.2
2025-01-02 20:37:57.363827	278.6	34.9	-92.5	15.8
2025-01-02 20:37:58.504891	279.1	34.9	-93.1	15.8
2025-01-02 20:37:59.658337	279.5	34.8	-93.1	14.5
2025-01-02 20:38:00.784062	279.9	34.8	-93.0	17.8
2025-01-02 20:38:01.903960	280.3	34.7	-93.1	11.3
2025-01-02 20:38:03.026432	280.8	34.7	-92.8	10.9
2025-01-02 20:38:04.147113	281.2	34.6	-92.6	11.1
2025-01-02 20:38:05.268069	281.6	34.5	-92.6	10.8
2025-01-02 20:38:06.389746	282.0	34.5	-92.7	14.3
2025-01-02 20:38:07.510810	282.4	34.4	-93.1	11.6
2025-01-02 20:38:08.637143	282.8	34.4	-93.0	14.2
2025-01-02 20:38:09.785216	283.2	34.3	-93.2	11.8
2025-01-02 20:38:10.928655	283.6	34.2	-92.7	9.0
2025-01-02 20:38:12.073301	284.1	34.1	-92.5	9.0
2025-01-02 20:38:13.213601	284.5	34.1	-92.0	10.8
2025-01-02 20:38:14.360522	284.9	34.0	-93.0	9.6
2025-01-02 20:38:15.510276	285.3	33.9	-93.0	8.8
2025-01-02 20:38:16.662969	285.7	33.8	-93.1	16.4
2025-01-02 20:38:17.819770	286.1	33.8	-92.7	11.0
2025-01-02 20:38:18.968150	286.5	33.7	-92.6	10.0
2025-01-02 20:38:20.116352	286.9	33.6	-92.3	12.0
2025-01-02 20:38:21.256821	287.3	33.5	-92.3	11.6
2025-01-02 20:38:22.405203	287.7	33.4	-92.8	10.4
2025-01-02 20:38:23.563332	288.1	33.4	-92.4	5.3
2025-01-02 20:38:24.707705	288.5	33.3	-93.1	5.8
2025-01-02 20:38:25.856818	288.9	33.2	-93.2	6.7
2025-01-02 20:38:27.005603	289.3	33.1	-92.7	9.2
2025-01-02 20:38:28.152312	289.6	33.0	-92.2	5.9
2025-01-02 20:38:29.296610	290.0	32.9	-92.7	9.1
2025-01-02 20:38:30.439267	290.4	32.8	-92.8	6.4
2025-01-02 20:38:31.581601	290.8	32.7	-93.0	7.4
2025-01-02 20:38:32.707439	291.2	32.6	-89.5	8.1
2025-01-02 20:38:33.844701	291.5	32.6	-92.8	14.1
2025-01-02 20:38:34.994698	291.9	32.5	-92.6	7.2
2025-01-02 20:38:36.139770	292.3	32.4	-92.5	3.6
2025-01-02 20:38:37.287652	292.6	32.3	-92.4	14.5
2025-01-02 20:38:38.437782	293.0	32.2	-91.4	9.4
2025-01-02 20:38:39.583486	293.4	32.1	-92.3	11.3
2025-01-02 20:38:40.736779	293.7	32.0	-92.2	12.0
2025-01-02 20:38:41.891897	294.1	31.9	-93.0	10.8
2025-01-02 20:38:43.042128	294.5	31.8	-92.5	6.2
2025-01-02 20:38:44.193069	294.8	31.7	-92.1	11.1
2025-01-02 20:38:45.337743	295.2	31.5	-92.5	9.5
2025-01-02 20:38:46.483847	295.5	31.4	-92.4	11.1
2025-01-02 20:38:47.625638	295.9	31.3	-92.7	8.8
2025-01-02 20:38:48.769690	296.2	31.2	-91.9	12.7
2025-01-02 20:38:49.921011	296.6	31.1	-92.5	15.2
2025-01-02 20:38:51.076789	296.9	31.0	-92.2	7.2
2025-01-02 20:38:52.228070	297.2	30.9	-92.0	15.2
2025-01-02 20:38:53.381396	297.6	30.8	-92.3	10.4
2025-01-02 20:38:54.534015	297.9	30.7	-92.9	9.6
2025-01-02 20:38:55.676325	298.3	30.6	-92.7	9.7
2025-01-02 20:38:56.826509	298.6	30.5	-93.0	12.3
2025-01-02 20:38:57.967710	298.9	30.4	-93.0	10.4
2025-01-02 20:38:59.110475	299.2	30.2	-92.0	8.7
2025-01-02 20:39:00.231517	299.6	30.1	-92.1	9.5
2025-01-02 20:39:01.375979	299.9	30.0	-92.7	14.0
2025-01-02 20:39:02.512869	300.2	29.9	-92.6	10.7
2025-01-02 20:39:03.661984	300.5	29.8	-92.9	8.3
2025-01-02 20:39:04.809353	300.8	29.7	-93.0	12.5
2025-01-02 20:39:05.957672	301.1	29.6	-93.0	14.7
2025-01-02 20:39:07.101550	301.5	29.4	-92.5	10.9
2025-01-02 20:39:08.257605	301.8	29.3	-92.5	15.9
2025-01-02 20:39:09.403666	302.1	29.2	-92.9	19.4
2025-01-02 20:39:10.551225	302.4	29.1	-88.7	13.1
2025-01-02 20:39:11.699115	302.7	29.0	-93.1	12.9
2025-01-02 20:39:12.848418	303.0	28.9	-93.1	11.4
2025-01-02 20:39:13.995495	303.3	28.7	-92.7	13.0
2025-01-02 20:39:15.144212	303.6	28.6	-91.4	11.2
2025-01-02 20:39:16.295148	303.9	28.5	-92.3	9.9
2025-01-02 20:39:17.455115	304.2	28.4	-93.1	14.2
2025-01-02 20:39:18.602508	304.5	28.3	-92.8	10.3
2025-01-02 20:39:19.750253	304.7	28.1	-92.8	14.0
2025-01-02 20:39:20.896563	305.0	28.0	-91.8	17.3
2025-01-02 20:39:22.042794	305.3	27.9	-93.1	14.2
2025-01-02 20:39:23.191396	305.6	27.8	-92.1	14.2
2025-01-02 20:39:24.338367	305.9	27.7	-92.4	15.8
2025-01-02 20:39:25.491470	306.2	27.5	-92.7	11.4
2025-01-02 20:39:26.644169	306.4	27.4	-92.8	9.7
2025-01-02 20:39:27.802451	306.7	27.3	-93.0	15.9
2025-01-02 20:39:28.956011	307.0	27.2	-92.7	10.8
2025-01-02 20:39:30.106001	307.2	27.1	-92.2	7.1
2025-01-02 20:39:31.252421	307.5	26.9	-92.3	14.3
2025-01-02 20:39:32.396097	307.8	26.8	-92.6	13.7
2025-01-02 20:39:33.540149	308.0	26.7	-92.7	9.2
2025-01-02 20:39:34.685345	308.3	26.6	-92.9	12.8
2025-01-02 20:39:35.836032	308.6	26.5	-92.6	13.1
2025-01-02 20:39:36.988856	308.8	26.3	-92.8	10.0
2025-01-02 20:39:38.135676	309.1	26.2	-92.1	9.6
2025-01-02 20:39:39.286821	309.3	26.1	-92.3	13.1
2025-01-02 20:39:40.433720	309.6	26.0	-93.2	9.9
2025-01-02 20:39:41.579820	309.8	25.8	-92.2	12.6
2025-01-02 20:39:42.728789	310.1	25.7	-92.7	14.8
2025-01-02 20:39:43.872490	310.3	25.6	-93.1	8.4
2025-01-02 20:39:45.022341	310.6	25.5	-93.1	11.3
2025-01-02 20:39:46.167775	310.8	25.4	-92.7	15.0
2025-01-02 20:39:47.314716	311.1	25.2	-92.7	13.2
2025-01-02 20:39:48.463724	311.3	25.1	-92.7	15.3
2025-01-02 20:39:49.608874	311.5	25.0	-93.0	8.0
2025-01-02 20:39:50.753538	311.8	24.9	-93.2	8.7
2025-01-02 20:39:51.886285	312.0	24.7	-93.2	12.3
2025-01-02 20:39:53.007367	312.2	24.6	-93.3	8.8
2025-01-02 20:39:54.126723	312.5	24.5	-92.8	7.7
2025-01-02 20:39:55.247760	312.7	24.4	-92.8	17.4
2025-01-02 20:39:56.368474	312.9	24.3	-92.8	10.1
2025-01-02 20:39:57.488654	313.1	24.2	-93.0	7.9
2025-01-02 20:39:58.612021	313.3	24.0	-93.1	9.2
2025-01-02 20:39:59.735211	313.6	23.9	-92.9	8.3
2025-01-02 20:40:00.869407	313.8	23.8	-93.0	11.1
2025-01-02 20:40:02.012176	314.0	23.7	-93.1	4.8
2025-01-02 20:40:03.162400	314.2	23.6	-93.1	6.8
2025-01-02 20:40:04.307558	314.4	23.4	-92.9	9.7
2025-01-02 20:40:05.451059	314.6	23.3	-92.9	5.8
2025-01-02 20:40:06.602190	314.9	23.2	-93.3	3.2
2025-01-02 20:40:07.751392	315.1	23.1	-93.0	3.2
2025-01-02 20:40:08.905025	315.3	23.0	-93.3	6.6
2025-01-02 20:40:10.054363	315.5	22.8	-92.9	7.9
2025-01-02 20:40:11.209787	315.7	22.7	-93.0	6.8
2025-01-02 20:40:12.356144	315.9	22.6	-93.0	6.9
2025-01-02 20:40:13.505740	316.1	22.5	-93.1	6.8
2025-01-02 20:40:14.650358	316.3	22.4	-93.0	5.3
2025-01-02 20:40:15.799192	316.5	22.2	-93.2	6.7
2025-01-02 20:40:16.947419	316.7	22.1	-92.0	5.6
2025-01-02 20:40:18.098696	316.9	22.0	-92.6	4.3
2025-01-02 20:40:19.241474	317.1	21.9	-92.7	6.1
2025-01-02 20:40:20.390971	317.3	21.8	-93.1	12.3
2025-01-02 20:40:21.539806	317.5	21.6	-93.1	5.1
2025-01-02 20:40:22.687246	317.7	21.5	-92.7	12.0
2025-01-02 20:40:23.832261	317.9	21.4	-93.1	13.2
2025-01-02 20:40:24.978891	318.1	21.3	-93.2	4.1
2025-01-02 20:40:26.133684	318.2	21.2	-92.4	5.8
2025-01-02 20:40:27.282641	318.4	21.1	-92.6	3.0
2025-01-02 20:40:28.429545	318.6	20.9	-92.4	7.5
2025-01-02 20:40:29.576233	318.8	20.8	-92.6	7.6
2025-01-02 20:40:30.723673	319.0	20.7	-93.1	3.1
2025-01-02 20:40:31.867953	319.2	20.6	-93.1	9.9
2025-01-02 20:40:33.015727	319.3	20.5	-92.8	9.4
2025-01-02 20:40:34.160317	319.5	20.4	-92.8	8.9
2025-01-02 20:40:35.314353	319.7	20.2	-92.8	10.7
2025-01-02 20:40:36.459292	319.9	20.1	-93.0	2.5
2025-01-02 20:40:37.607723	320.0	20.0	-93.1	4.9
2025-01-02 20:40:38.758020	320.2	19.9	-93.0	4.9
2025-01-02 20:40:39.904508	320.4	19.8	-92.9	3.0
2025-01-02 20:40:41.049577	320.6	19.7	-92.4	4.2
2025-01-02 20:40:42.193902	320.7	19.6	-92.7	4.6
2025-01-02 20:40:43.347307	320.9	19.5	-92.8	9.4
2025-01-02 20:40:44.496803	321.1	19.3	-93.4	7.5
2025-01-02 20:40:45.643867	321.2	19.2	-93.0	1.7
2025-01-02 20:40:46.794560	321.4	19.1	-93.2	9.9
2025-01-02 20:40:47.939974	321.6	19.0	-93.0	8.0
2025-01-02 20:40:49.088406	321.7	18.9	-92.5	6.7
2025-01-02 20:40:50.239562	321.9	18.8	-92.5	9.4
2025-01-02 20:40:51.391585	322.0	18.7	-93.1	13.4
2025-01-02 20:40:52.536276	322.2	18.6	-93.6	10.7
2025-01-02 20:40:53.682563	322.4	18.4	-93.3	7.0
2025-01-02 20:40:54.831803	322.5	18.3	-93.4	13.5
2025-01-02 20:40:55.978423	322.7	18.2	-93.3	6.4
2025-01-02 20:40:57.126961	322.8	18.1	-92.4	4.6
2025-01-02 20:40:58.276329	323.0	18.0	-92.6	10.0
2025-01-02 20:40:59.426000	323.1	17.9	-93.3	5.3
2025-01-02 20:41:00.566524	323.3	17.8	-93.4	4.2
2025-01-02 20:41:01.716455	323.4	17.7	-92.9	6.4
2025-01-02 20:41:02.859167	323.6	17.6	-93.1	7.0
2025-01-02 20:41:04.014624	323.7	17.5	-93.3	4.1
2025-01-02 20:41:05.158511	323.9	17.4	-92.6	3.5
2025-01-02 20:41:06.310013	324.0	17.2	-92.9	7.3
2025-01-02 20:41:07.455118	324.2	17.1	-93.2	3.4
2025-01-02 20:41:08.603615	324.3	17.0	-93.1	3.8
2025-01-02 20:41:09.750654	324.5	16.9	-93.2	9.4
2025-01-02 20:41:10.905160	324.6	16.8	-93.2	4.2
2025-01-02 20:41:12.061167	324.8	16.7	-93.1	7.7
2025-01-02 20:41:13.202725	324.9	16.6	-92.5	5.3
2025-01-02 20:41:14.350433	325.0	16.5	-92.6	9.5
2025-01-02 20:41:15.499972	325.2	16.4	-93.3	5.2
2025-01-02 20:41:16.648322	325.3	16.3	-93.0	2.6
2025-01-02 20:41:17.795321	325.5	16.2	-92.4	3.7
2025-01-02 20:41:18.943912	325.6	16.1	-93.3	7.4
2025-01-02 20:41:20.094020	325.7	16.0	-92.8	7.3
2025-01-02 20:41:21.237468	325.9	15.9	-92.4	10.9
2025-01-02 20:41:22.384518	326.0	15.8	-93.1	8.5
2025-01-02 20:41:23.535821	326.1	15.7	-93.1	10.8
2025-01-02 20:41:24.692646	326.3	15.6	-93.4	5.7
2025-01-02 20:41:25.839658	326.4	15.5	-92.8	5.8
2025-01-02 20:41:26.988961	326.5	15.4	-93.1	5.3
2025-01-02 20:41:28.138774	326.7	15.3	-92.6	4.9
2025-01-02 20:41:29.276616	326.8	15.2	-92.2	6.4
2025-01-02 20:41:30.419520	326.9	15.1	-93.2	5.5
2025-01-02 20:41:31.557233	327.0	15.0	-93.0	4.0
2025-01-02 20:41:32.677776	327.2	14.9	-93.2	4.3
2025-01-02 20:41:33.798721	327.3	14.8	-92.9	6.2
2025-01-02 20:41:34.918772	327.4	14.7	-93.0	10.3
2025-01-02 20:41:36.039567	327.5	14.6	-93.0	3.3
#Closed at: 2025-01-02 20:33:26.635479