passes_logs/2025/01/02/LEX_Murmansk/LEX_Murmansk__20250102_164314_NOAA_19_rec.log

#Pass ID: 20250102_164314_NOAA 19
#Satellite: NOAA 19
#Configuration: NOAA 19
#Start time: 2025-01-02 16:43:09.776677

#LorettStation: 1.0.0 05.05.2024
#Station: LEX_Murmansk
#Location: 33.156738 lon 68.926811 lat
#TLE: 1 33591U 09005A   25001.83569820  .00001454  00000+0  79919-3 0  9995
#TLE: 2 33591  99.0217  65.4951 0014707  92.5482 267.7374 14.13252981819684

#Time	Az	El	Level	SNR
2025-01-02 16:43:22.025715	122.7	16.3	-92.2	3.5
2025-01-02 16:43:24.329969	122.6	16.5	-91.8	6.6
2025-01-02 16:43:26.639276	122.4	16.8	-92.2	15.6
2025-01-02 16:43:28.958198	122.3	17.0	-92.3	7.5
2025-01-02 16:43:31.285495	122.1	17.3	-91.8	6.7
2025-01-02 16:43:33.614629	122.0	17.6	-92.2	6.2
2025-01-02 16:43:35.948458	121.8	17.8	-92.7	1.9
2025-01-02 16:43:38.274638	121.7	18.1	-92.2	2.0
2025-01-02 16:43:40.599924	121.5	18.4	-91.9	5.0
2025-01-02 16:43:42.924834	121.4	18.6	-92.5	10.8
2025-01-02 16:43:45.250016	121.2	18.9	-92.2	6.9
2025-01-02 16:43:47.582423	121.1	19.2	-92.4	12.1
2025-01-02 16:43:49.917701	120.9	19.5	-92.1	9.3
2025-01-02 16:43:52.240018	120.7	19.8	-91.9	3.3
2025-01-02 16:43:54.563121	120.5	20.0	-92.6	2.8
2025-01-02 16:43:56.891696	120.4	20.3	-92.2	9.1
2025-01-02 16:43:59.218519	120.2	20.6	-91.9	8.2
2025-01-02 16:44:01.530481	120.0	20.9	-92.1	10.1
2025-01-02 16:44:03.860139	119.8	21.2	-91.8	8.5
2025-01-02 16:44:06.181174	119.6	21.5	-91.3	9.0
2025-01-02 16:44:08.506781	119.4	21.8	-91.4	2.2
2025-01-02 16:44:10.822561	119.2	22.1	-92.2	2.4
2025-01-02 16:44:13.145275	119.0	22.4	-91.8	8.0
2025-01-02 16:44:15.470967	118.8	22.8	-92.4	7.4
2025-01-02 16:44:17.793069	118.6	23.1	-92.2	5.4
2025-01-02 16:44:20.118316	118.4	23.4	-92.0	14.5
2025-01-02 16:44:22.444418	118.2	23.7	-92.1	16.6
2025-01-02 16:44:24.768121	117.9	24.1	-92.2	2.8
2025-01-02 16:44:27.083364	117.7	24.4	-91.9	1.3
2025-01-02 16:44:29.407605	117.5	24.7	-91.8	3.7
2025-01-02 16:44:31.719621	117.2	25.1	-91.8	5.8
2025-01-02 16:44:33.959821	117.0	25.4	-91.7	7.3
2025-01-02 16:44:36.202906	116.8	25.7	-91.9	4.3
2025-01-02 16:44:38.443568	116.5	26.1	-91.8	3.1
2025-01-02 16:44:40.704692	116.2	26.4	-92.5	2.5
2025-01-02 16:44:42.971639	116.0	26.8	-92.4	2.2
2025-01-02 16:44:45.471863	115.7	27.2	-92.3	1.1
2025-01-02 16:44:47.769319	115.4	27.5	-91.9	3.5
2025-01-02 16:44:50.077861	115.1	27.9	-91.9	3.6
2025-01-02 16:44:52.376382	114.8	28.3	-90.7	2.9
2025-01-02 16:44:54.701774	114.5	28.6	-92.4	5.3
2025-01-02 16:44:57.023925	114.2	29.0	-92.2	4.5
2025-01-02 16:44:59.346763	113.9	29.4	-91.6	2.5
2025-01-02 16:45:01.637201	113.6	29.8	-92.6	3.6
2025-01-02 16:45:03.962506	113.2	30.2	-92.7	3.1
2025-01-02 16:45:06.284634	112.9	30.6	-92.1	7.4
2025-01-02 16:45:08.599807	112.5	31.0	-92.4	15.4
2025-01-02 16:45:10.926420	112.2	31.4	-92.5	8.7
2025-01-02 16:45:13.256121	111.8	31.8	-91.9	11.9
2025-01-02 16:45:15.575538	111.4	32.3	-92.5	16.7
2025-01-02 16:45:17.903157	111.0	32.7	-92.3	9.0
2025-01-02 16:45:20.223794	110.6	33.1	-92.1	1.3
2025-01-02 16:45:22.554002	110.2	33.5	-92.7	5.8
2025-01-02 16:45:24.886090	109.8	34.0	-92.6	12.8
2025-01-02 16:45:27.216996	109.4	34.4	-91.9	17.7
2025-01-02 16:45:29.548477	108.9	34.9	-92.6	14.3
2025-01-02 16:45:31.867808	108.5	35.3	-92.0	13.4
2025-01-02 16:45:34.199965	108.0	35.8	-91.6	21.9
2025-01-02 16:45:36.527593	107.5	36.2	-91.9	9.9
2025-01-02 16:45:38.852489	107.0	36.7	-91.6	2.3
2025-01-02 16:45:41.175401	106.5	37.2	-91.6	2.9
2025-01-02 16:45:43.500855	105.9	37.6	-91.6	6.3
2025-01-02 16:45:45.825879	105.4	38.1	-92.1	11.7
2025-01-02 16:45:48.117689	104.8	38.6	-91.6	9.9
2025-01-02 16:45:50.359219	104.3	39.0	-91.6	2.1
2025-01-02 16:45:52.600232	103.7	39.5	-92.4	9.1
2025-01-02 16:45:54.841505	103.1	40.0	-92.4	8.7
2025-01-02 16:45:57.106580	102.5	40.4	-92.6	10.7
2025-01-02 16:45:59.421574	101.8	40.9	-92.4	3.8
2025-01-02 16:46:01.727453	101.2	41.4	-92.4	3.4
2025-01-02 16:46:04.042791	100.5	41.9	-92.8	3.5
2025-01-02 16:46:06.329949	99.8	42.4	-92.4	8.2
2025-01-02 16:46:08.632056	99.1	42.9	-92.4	16.8
2025-01-02 16:46:10.925977	98.3	43.4	-92.9	11.8
2025-01-02 16:46:13.245359	97.5	43.9	-92.1	5.7
2025-01-02 16:46:15.566107	96.7	44.4	-91.3	13.5
2025-01-02 16:46:17.852615	95.9	44.9	-91.8	16.3
2025-01-02 16:46:20.133764	95.0	45.4	-91.6	13.9
2025-01-02 16:46:22.438663	94.2	45.9	-91.4	5.7
2025-01-02 16:46:24.752865	93.2	46.4	-92.1	3.4
2025-01-02 16:46:27.067442	92.3	46.9	-92.2	3.3
2025-01-02 16:46:29.393641	91.3	47.4	-92.1	2.7
2025-01-02 16:46:31.714014	90.3	47.8	-92.5	12.5
2025-01-02 16:46:34.046092	89.3	48.3	-92.5	8.9
2025-01-02 16:46:36.370480	88.2	48.8	-92.1	4.2
2025-01-02 16:46:38.691759	87.1	49.3	-92.5	5.2
2025-01-02 16:46:41.016567	86.0	49.7	-92.3	3.6
2025-01-02 16:46:43.339651	84.8	50.2	-92.1	9.2
2025-01-02 16:46:45.669742	83.6	50.6	-92.2	7.3
2025-01-02 16:46:48.005296	82.3	51.1	-92.5	9.9
2025-01-02 16:46:50.303597	81.0	51.5	-92.2	6.8
2025-01-02 16:46:52.545179	79.8	51.9	-92.5	6.2
2025-01-02 16:46:54.786106	78.4	52.3	-92.5	2.6
2025-01-02 16:46:57.029920	77.1	52.7	-92.4	5.0
2025-01-02 16:46:59.294917	75.7	53.0	-92.0	6.6
2025-01-02 16:47:01.599009	74.2	53.4	-92.7	9.8
2025-01-02 16:47:03.907876	72.8	53.7	-92.4	15.5
2025-01-02 16:47:06.187389	71.3	54.1	-92.4	15.0
2025-01-02 16:47:08.490356	69.7	54.4	-92.3	13.8
2025-01-02 16:47:10.788988	68.1	54.6	-92.4	5.9
2025-01-02 16:47:13.108207	66.5	54.9	-92.7	8.3
2025-01-02 16:47:15.432237	64.8	55.1	-92.3	10.9
2025-01-02 16:47:17.759574	63.1	55.4	-92.5	8.6
2025-01-02 16:47:20.075576	61.4	55.5	-92.5	14.1
2025-01-02 16:47:22.408642	59.7	55.7	-92.5	13.8
2025-01-02 16:47:24.727593	57.9	55.9	-92.2	15.6
2025-01-02 16:47:27.050232	56.2	56.0	-92.6	11.6
2025-01-02 16:47:29.371142	54.4	56.1	-92.3	13.1
2025-01-02 16:47:31.698254	52.6	56.1	-92.6	10.0
2025-01-02 16:47:34.024943	50.8	56.2	-92.2	12.2
2025-01-02 16:47:36.346740	49.0	56.2	-92.5	5.9
2025-01-02 16:47:38.657217	47.2	56.1	-92.4	6.4
2025-01-02 16:47:40.989069	45.4	56.1	-92.3	5.0
2025-01-02 16:47:43.321093	43.6	56.0	-92.3	5.4
2025-01-02 16:47:45.653515	41.8	55.9	-92.5	6.0
2025-01-02 16:47:47.970784	40.0	55.8	-91.9	5.8
2025-01-02 16:47:50.301150	38.3	55.6	-91.7	3.2
2025-01-02 16:47:52.632197	36.6	55.4	-90.5	6.0
2025-01-02 16:47:54.954376	34.9	55.2	-92.1	4.3
2025-01-02 16:47:57.282149	33.2	55.0	-92.0	5.2
2025-01-02 16:47:59.599280	31.6	54.8	-92.2	11.6
2025-01-02 16:48:01.860396	30.0	54.5	-92.3	9.3
2025-01-02 16:48:04.102637	28.5	54.2	-91.7	10.4
2025-01-02 16:48:06.343695	27.0	53.9	-91.6	9.7
2025-01-02 16:48:08.594229	25.5	53.6	-92.1	10.3
2025-01-02 16:48:10.876657	24.0	53.2	-92.1	10.5
2025-01-02 16:48:13.156162	22.6	52.9	-91.8	9.5
2025-01-02 16:48:15.451898	21.2	52.5	-92.2	6.4
2025-01-02 16:48:17.761123	19.8	52.1	-92.2	5.1
2025-01-02 16:48:20.084706	18.5	51.7	-91.6	7.4
2025-01-02 16:48:22.411102	17.2	51.3	-91.0	2.5
2025-01-02 16:48:24.743178	15.9	50.8	-91.1	3.0
2025-01-02 16:48:27.062912	14.7	50.4	-91.4	8.2
2025-01-02 16:48:29.392307	13.5	50.0	-90.9	5.8
2025-01-02 16:48:31.716792	12.3	49.5	-91.8	5.2
2025-01-02 16:48:33.994363	11.2	49.0	-92.7	8.8
2025-01-02 16:48:36.289025	10.2	48.6	-91.8	4.8
2025-01-02 16:48:38.566172	9.1	48.1	-91.9	9.4
2025-01-02 16:48:40.862169	8.1	47.6	-92.5	5.0
2025-01-02 16:48:43.164136	7.1	47.1	-92.1	10.3
2025-01-02 16:48:45.482812	6.2	46.6	-91.8	12.1
2025-01-02 16:48:47.751764	5.3	46.2	-91.9	10.3
2025-01-02 16:48:50.057388	4.4	45.7	-91.8	14.0
2025-01-02 16:48:52.367038	3.5	45.2	-91.7	12.7
2025-01-02 16:48:54.688636	2.7	44.7	-91.9	16.8
2025-01-02 16:48:57.005576	1.8	44.2	-92.1	16.8
2025-01-02 16:48:59.325519	1.0	43.7	-91.9	21.0
2025-01-02 16:49:01.637804	0.3	43.2	-92.1	19.6
2025-01-02 16:49:03.965261	359.5	42.7	-92.2	14.7
2025-01-02 16:49:06.288632	358.8	42.2	-91.7	7.4
2025-01-02 16:49:08.600363	358.1	41.7	-91.6	10.3
2025-01-02 16:49:10.927079	357.4	41.2	-92.0	6.6
2025-01-02 16:49:13.227935	356.8	40.7	-91.6	5.8
2025-01-02 16:49:15.507070	356.1	40.2	-91.6	9.5
2025-01-02 16:49:17.796468	355.5	39.7	-90.4	6.8
2025-01-02 16:49:20.091398	354.9	39.3	-91.3	11.0
2025-01-02 16:49:22.413685	354.3	38.8	-91.4	12.3
2025-01-02 16:49:24.735021	353.8	38.3	-92.3	19.0
2025-01-02 16:49:27.049274	353.2	37.8	-92.3	14.8
2025-01-02 16:49:29.320899	352.7	37.4	-92.3	8.4
2025-01-02 16:49:31.628789	352.2	36.9	-91.9	6.2
2025-01-02 16:49:33.939019	351.7	36.4	-92.5	3.4
2025-01-02 16:49:36.250939	351.2	36.0	-92.2	1.4
2025-01-02 16:49:38.564060	350.7	35.5	-92.4	3.1
2025-01-02 16:49:40.894891	350.2	35.1	-92.2	6.6
2025-01-02 16:49:43.220210	349.8	34.6	-91.8	10.5
2025-01-02 16:49:45.540832	349.4	34.2	-92.3	12.4
2025-01-02 16:49:47.862864	348.9	33.8	-92.1	7.4
2025-01-02 16:49:50.187497	348.5	33.3	-92.1	4.4
2025-01-02 16:49:52.508111	348.1	32.9	-92.2	3.4
2025-01-02 16:49:54.796423	347.7	32.5	-92.1	3.5
2025-01-02 16:49:57.082681	347.3	32.1	-91.7	2.3
2025-01-02 16:49:59.400659	347.0	31.7	-91.5	5.0
2025-01-02 16:50:01.714453	346.6	31.2	-91.8	6.1
2025-01-02 16:50:04.047036	346.2	30.8	-91.7	10.6
2025-01-02 16:50:06.372431	345.9	30.4	-91.6	9.1
2025-01-02 16:50:08.697083	345.6	30.0	-92.6	7.0
2025-01-02 16:50:11.025211	345.2	29.6	-92.6	5.5
2025-01-02 16:50:13.356366	344.9	29.2	-92.0	0.5
2025-01-02 16:50:15.682559	344.6	28.9	-92.3	3.9
2025-01-02 16:50:17.999533	344.3	28.5	-92.4	2.8
2025-01-02 16:50:20.320043	344.0	28.1	-92.1	4.2
2025-01-02 16:50:22.658699	343.7	27.7	-92.5	3.4
2025-01-02 16:50:24.944831	343.4	27.4	-91.8	8.2
2025-01-02 16:50:27.230541	343.1	27.0	-91.3	3.1
2025-01-02 16:50:29.507376	342.9	26.6	-91.8	2.7
2025-01-02 16:50:31.813224	342.6	26.3	-91.7	2.1
2025-01-02 16:50:34.112476	342.3	25.9	-91.4	5.4
2025-01-02 16:50:36.407610	342.1	25.6	-91.6	10.6
2025-01-02 16:50:38.718534	341.8	25.3	-91.7	13.9
2025-01-02 16:50:41.042714	341.6	24.9	-92.2	6.2
2025-01-02 16:50:43.362365	341.4	24.6	-91.5	5.4
2025-01-02 16:50:45.684435	341.1	24.2	-91.7	7.2
2025-01-02 16:50:47.997816	340.9	23.9	-91.5	8.0
2025-01-02 16:50:50.282497	340.7	23.6	-91.6	4.9
2025-01-02 16:50:52.566333	340.5	23.3	-92.0	10.5
2025-01-02 16:50:54.839162	340.3	23.0	-92.7	11.9
2025-01-02 16:50:57.137359	340.1	22.7	-92.2	14.5
2025-01-02 16:50:59.454276	339.9	22.3	-92.1	4.2
2025-01-02 16:51:01.752060	339.7	22.0	-92.8	2.1
2025-01-02 16:51:04.064210	339.5	21.7	-92.2	2.4
2025-01-02 16:51:06.343812	339.3	21.4	-92.1	5.4
2025-01-02 16:51:08.636105	339.1	21.1	-92.8	7.6
2025-01-02 16:51:10.942956	338.9	20.8	-92.2	6.1
2025-01-02 16:51:13.266038	338.7	20.5	-92.3	3.9
2025-01-02 16:51:15.593287	338.5	20.3	-92.5	3.6
2025-01-02 16:51:17.902691	338.4	20.0	-92.6	0.3
2025-01-02 16:51:20.225016	338.2	19.7	-92.3	1.2
2025-01-02 16:51:22.528334	338.0	19.4	-92.2	3.5
2025-01-02 16:51:24.827784	337.9	19.1	-92.4	1.5
2025-01-02 16:51:27.126291	337.7	18.9	-91.9	2.4
2025-01-02 16:51:29.446375	337.5	18.6	-92.4	3.1
2025-01-02 16:51:31.764375	337.4	18.3	-92.7	2.0
2025-01-02 16:51:34.104840	337.2	18.0	-92.2	3.6
2025-01-02 16:51:36.425921	337.1	17.8	-92.6	3.2
2025-01-02 16:51:38.741670	336.9	17.5	-92.6	2.6
2025-01-02 16:51:41.016711	336.8	17.3	-92.6	2.1
2025-01-02 16:51:43.306033	336.7	17.0	-92.2	1.4
2025-01-02 16:51:45.619119	336.5	16.8	-92.6	2.1
2025-01-02 16:51:47.896287	336.4	16.5	-92.6	4.0
2025-01-02 16:51:50.198599	336.3	16.3	-90.9	4.7
2025-01-02 16:51:52.509417	336.1	16.0	-91.7	4.5
2025-01-02 16:51:54.833560	336.0	15.8	-91.6	3.6
2025-01-02 16:51:57.246175	335.9	15.5	-91.3	2.3
2025-01-02 16:51:59.573944	335.7	15.3	-91.5	2.3
2025-01-02 16:52:01.891682	335.6	15.0	-92.5	2.1
2025-01-02 16:52:04.216914	335.5	14.8	-91.8	5.9
2025-01-02 16:52:06.527755	335.4	14.6	-92.7	5.6
#Closed at: 2025-01-02 16:43:14.827448