passes_logs/2025/01/02/LEX_Murmansk/LEX_Murmansk__20250102_153249_NOAA_18_rec.log

#Pass ID: 20250102_153249_NOAA 18
#Satellite: NOAA 18
#Configuration: NOAA 18
#Start time: 2025-01-02 15:32:44.515692

#LorettStation: 1.0.0 05.05.2024
#Station: LEX_Murmansk
#Location: 33.156738 lon 68.926811 lat
#TLE: 1 28654U 05018A   25001.78406204  .00000701  00000+0  39590-3 0  9994
#TLE: 2 28654  98.8586  82.9683 0013729 216.8395 143.1835 14.13472842 11310

#Time	Az	El	Level	SNR
2025-01-02 15:32:56.686085	60.6	15.9	-91.2	3.2
2025-01-02 15:32:57.834870	60.4	16.0	-91.5	8.6
2025-01-02 15:32:58.986718	60.2	16.1	-91.4	11.5
2025-01-02 15:33:00.139493	60.1	16.2	-90.4	5.0
2025-01-02 15:33:01.280488	59.9	16.3	-90.9	6.5
2025-01-02 15:33:02.423080	59.7	16.4	-91.3	9.8
2025-01-02 15:33:03.579955	59.5	16.5	-91.3	10.3
2025-01-02 15:33:04.739257	59.3	16.6	-91.6	6.3
2025-01-02 15:33:05.897883	59.2	16.6	-91.8	9.1
2025-01-02 15:33:07.043465	59.0	16.7	-90.8	4.6
2025-01-02 15:33:08.189446	58.8	16.8	-90.9	8.7
2025-01-02 15:33:09.339968	58.6	16.9	-91.0	5.1
2025-01-02 15:33:10.481973	58.4	17.0	-91.2	4.3
2025-01-02 15:33:11.612700	58.3	17.1	-91.5	5.2
2025-01-02 15:33:12.764570	58.1	17.2	-91.1	12.6
2025-01-02 15:33:13.901285	57.9	17.3	-91.7	5.0
2025-01-02 15:33:15.054087	57.7	17.4	-91.9	7.1
2025-01-02 15:33:16.197424	57.5	17.4	-91.4	6.7
2025-01-02 15:33:17.351077	57.3	17.5	-91.4	9.0
2025-01-02 15:33:18.497678	57.1	17.6	-91.5	9.1
2025-01-02 15:33:19.656230	56.9	17.7	-92.1	16.6
2025-01-02 15:33:20.819644	56.7	17.8	-92.0	13.9
2025-01-02 15:33:21.974671	56.5	17.9	-90.3	8.1
2025-01-02 15:33:23.127032	56.3	18.0	-90.8	10.8
2025-01-02 15:33:24.282259	56.2	18.1	-89.6	7.3
2025-01-02 15:33:25.441997	56.0	18.2	-91.3	3.0
2025-01-02 15:33:26.592820	55.8	18.3	-91.9	11.7
2025-01-02 15:33:27.746746	55.6	18.3	-91.9	7.6
2025-01-02 15:33:28.898398	55.3	18.4	-91.4	9.8
2025-01-02 15:33:30.049462	55.1	18.5	-92.1	7.3
2025-01-02 15:33:31.201940	54.9	18.6	-91.6	6.9
2025-01-02 15:33:32.357333	54.7	18.7	-91.7	7.2
2025-01-02 15:33:33.511746	54.5	18.8	-91.5	2.7
2025-01-02 15:33:34.668627	54.3	18.9	-91.1	5.6
2025-01-02 15:33:35.830162	54.1	19.0	-91.3	12.7
2025-01-02 15:33:36.984483	53.9	19.1	-91.6	7.4
2025-01-02 15:33:38.139503	53.7	19.1	-91.5	4.2
2025-01-02 15:33:39.287186	53.5	19.2	-91.7	13.1
2025-01-02 15:33:40.437487	53.3	19.3	-91.9	4.8
2025-01-02 15:33:41.596104	53.0	19.4	-91.6	12.6
2025-01-02 15:33:42.751454	52.8	19.5	-91.7	11.1
2025-01-02 15:33:43.908457	52.6	19.6	-91.1	11.9
2025-01-02 15:33:45.068720	52.4	19.7	-91.2	6.6
2025-01-02 15:33:46.224235	52.2	19.8	-91.3	11.0
2025-01-02 15:33:47.378891	51.9	19.8	-91.3	18.1
2025-01-02 15:33:48.530762	51.7	19.9	-91.6	14.2
2025-01-02 15:33:49.685726	51.5	20.0	-92.0	11.3
2025-01-02 15:33:50.836670	51.3	20.1	-92.0	10.7
2025-01-02 15:33:51.993178	51.0	20.2	-92.0	12.7
2025-01-02 15:33:53.147982	50.8	20.3	-91.5	7.5
2025-01-02 15:33:54.308218	50.6	20.4	-91.5	6.7
2025-01-02 15:33:55.457132	50.3	20.5	-91.6	7.2
2025-01-02 15:33:56.604833	50.1	20.5	-91.6	6.8
2025-01-02 15:33:57.758941	49.9	20.6	-91.8	11.8
2025-01-02 15:33:58.913275	49.6	20.7	-92.2	8.6
2025-01-02 15:34:00.064474	49.4	20.8	-91.7	5.8
2025-01-02 15:34:01.213734	49.2	20.9	-91.7	8.1
2025-01-02 15:34:02.365434	48.9	21.0	-91.4	8.9
2025-01-02 15:34:03.515456	48.7	21.0	-91.9	12.3
2025-01-02 15:34:04.680071	48.4	21.1	-92.0	9.9
2025-01-02 15:34:05.838236	48.2	21.2	-92.0	10.7
2025-01-02 15:34:06.983932	48.0	21.3	-92.1	12.3
2025-01-02 15:34:08.129299	47.7	21.4	-91.9	10.8
2025-01-02 15:34:09.250754	47.5	21.5	-91.5	11.0
2025-01-02 15:34:10.353385	47.2	21.5	-91.4	14.0
2025-01-02 15:34:11.473761	47.0	21.6	-91.9	11.9
2025-01-02 15:34:12.595353	46.8	21.7	-91.7	10.6
2025-01-02 15:34:13.717162	46.5	21.8	-92.0	11.8
2025-01-02 15:34:14.837789	46.3	21.9	-91.8	10.6
2025-01-02 15:34:15.962005	46.0	21.9	-92.2	12.4
2025-01-02 15:34:17.108300	45.8	22.0	-91.5	11.4
2025-01-02 15:34:18.267588	45.5	22.1	-91.4	9.7
2025-01-02 15:34:19.404325	45.2	22.2	-91.9	14.6
2025-01-02 15:34:20.552173	45.0	22.3	-91.8	4.2
2025-01-02 15:34:21.704402	44.7	22.3	-92.1	15.3
2025-01-02 15:34:22.860246	44.5	22.4	-91.9	12.1
2025-01-02 15:34:24.009664	44.2	22.5	-92.1	8.2
2025-01-02 15:34:25.160758	43.9	22.6	-91.3	8.3
2025-01-02 15:34:26.313441	43.7	22.7	-91.7	13.0
2025-01-02 15:34:27.458395	43.4	22.7	-92.0	14.0
2025-01-02 15:34:28.612049	43.1	22.8	-92.0	12.8
2025-01-02 15:34:29.766328	42.9	22.9	-92.0	13.1
2025-01-02 15:34:30.919385	42.6	23.0	-92.2	13.4
2025-01-02 15:34:32.079538	42.3	23.0	-91.7	9.5
2025-01-02 15:34:33.231692	42.0	23.1	-92.0	9.2
2025-01-02 15:34:34.380783	41.8	23.2	-91.6	13.7
2025-01-02 15:34:35.527967	41.5	23.3	-92.3	10.2
2025-01-02 15:34:36.679329	41.2	23.3	-92.5	12.8
2025-01-02 15:34:37.817194	40.9	23.4	-92.1	12.9
2025-01-02 15:34:38.960574	40.7	23.5	-92.0	10.6
2025-01-02 15:34:40.111644	40.4	23.5	-91.8	9.6
2025-01-02 15:34:41.259190	40.1	23.6	-91.6	9.3
2025-01-02 15:34:42.416492	39.8	23.7	-91.8	12.1
2025-01-02 15:34:43.570585	39.5	23.8	-92.2	16.7
2025-01-02 15:34:44.717576	39.2	23.8	-92.4	15.7
2025-01-02 15:34:45.865725	38.9	23.9	-92.1	9.2
2025-01-02 15:34:47.016410	38.7	24.0	-92.5	12.6
2025-01-02 15:34:48.179549	38.4	24.0	-90.3	10.2
2025-01-02 15:34:49.336049	38.1	24.1	-90.1	12.5
2025-01-02 15:34:50.486398	37.8	24.2	-90.4	9.3
2025-01-02 15:34:51.635965	37.5	24.2	-91.1	6.4
2025-01-02 15:34:52.794888	37.2	24.3	-91.0	9.8
2025-01-02 15:34:53.954223	36.9	24.4	-90.5	7.8
2025-01-02 15:34:55.102450	36.6	24.4	-90.5	3.3
2025-01-02 15:34:56.259741	36.3	24.5	-90.6	16.4
2025-01-02 15:34:57.420109	36.0	24.5	-91.6	10.7
2025-01-02 15:34:58.571280	35.7	24.6	-92.1	11.5
2025-01-02 15:34:59.715835	35.4	24.7	-92.3	13.9
2025-01-02 15:35:00.861133	35.1	24.7	-92.1	12.1
2025-01-02 15:35:02.013823	34.8	24.8	-92.1	15.2
2025-01-02 15:35:03.167856	34.5	24.8	-91.7	11.5
2025-01-02 15:35:04.327486	34.2	24.9	-91.5	10.7
2025-01-02 15:35:05.476698	33.8	25.0	-92.3	7.8
2025-01-02 15:35:06.622476	33.5	25.0	-92.5	8.6
2025-01-02 15:35:07.776213	33.2	25.1	-92.2	13.1
2025-01-02 15:35:08.925061	32.9	25.1	-92.4	9.6
2025-01-02 15:35:10.050133	32.6	25.2	-91.8	5.7
2025-01-02 15:35:11.200519	32.3	25.2	-91.8	7.6
2025-01-02 15:35:12.339272	32.0	25.3	-92.0	15.4
2025-01-02 15:35:13.489198	31.7	25.3	-92.0	13.2
2025-01-02 15:35:14.636894	31.3	25.4	-92.1	15.4
2025-01-02 15:35:15.791042	31.0	25.4	-92.4	15.7
2025-01-02 15:35:16.942292	30.7	25.5	-92.4	17.3
2025-01-02 15:35:18.088646	30.4	25.5	-91.8	13.7
2025-01-02 15:35:19.232796	30.1	25.6	-92.1	11.8
2025-01-02 15:35:20.361298	29.8	25.6	-92.1	6.4
2025-01-02 15:35:21.506436	29.4	25.6	-92.5	8.7
2025-01-02 15:35:22.634693	29.1	25.7	-92.4	11.6
2025-01-02 15:35:23.772571	28.8	25.7	-92.5	16.5
2025-01-02 15:35:24.923121	28.5	25.8	-92.1	8.2
2025-01-02 15:35:26.074268	28.1	25.8	-91.9	9.3
2025-01-02 15:35:27.218311	27.8	25.9	-92.2	12.7
2025-01-02 15:35:28.362271	27.5	25.9	-91.7	13.5
2025-01-02 15:35:29.506613	27.2	25.9	-92.6	7.8
2025-01-02 15:35:30.662446	26.8	26.0	-92.4	9.8
2025-01-02 15:35:31.810773	26.5	26.0	-92.1	10.5
2025-01-02 15:35:32.966049	26.2	26.0	-92.4	9.0
2025-01-02 15:35:34.121494	25.8	26.1	-91.6	12.5
2025-01-02 15:35:35.272235	25.5	26.1	-91.9	13.2
2025-01-02 15:35:36.429221	25.2	26.1	-91.9	12.0
2025-01-02 15:35:37.580530	24.8	26.2	-92.3	12.6
2025-01-02 15:35:38.743106	24.5	26.2	-92.4	13.6
2025-01-02 15:35:39.895430	24.2	26.2	-92.2	15.3
2025-01-02 15:35:41.046950	23.8	26.3	-91.9	12.5
2025-01-02 15:35:42.207688	23.5	26.3	-91.9	10.8
2025-01-02 15:35:43.361962	23.2	26.3	-91.6	9.7
2025-01-02 15:35:44.511335	22.8	26.3	-92.5	9.5
2025-01-02 15:35:45.664730	22.5	26.3	-92.1	9.4
2025-01-02 15:35:46.819614	22.1	26.4	-92.4	16.6
2025-01-02 15:35:47.974011	21.8	26.4	-92.4	10.4
2025-01-02 15:35:49.131765	21.5	26.4	-91.8	7.6
2025-01-02 15:35:50.277362	21.1	26.4	-91.8	12.5
2025-01-02 15:35:51.438241	20.8	26.4	-92.1	9.4
2025-01-02 15:35:52.581740	20.4	26.5	-92.5	7.6
2025-01-02 15:35:53.726776	20.1	26.5	-92.5	9.4
2025-01-02 15:35:54.847569	19.8	26.5	-92.3	10.3
2025-01-02 15:35:55.995275	19.4	26.5	-92.4	9.1
2025-01-02 15:35:57.141050	19.1	26.5	-91.8	6.6
2025-01-02 15:35:58.289150	18.8	26.5	-91.9	10.8
2025-01-02 15:35:59.426376	18.4	26.5	-91.8	11.0
2025-01-02 15:36:00.571765	18.1	26.5	-92.5	11.9
2025-01-02 15:36:01.724531	17.7	26.6	-92.6	16.5
2025-01-02 15:36:02.877569	17.4	26.6	-92.1	12.5
2025-01-02 15:36:04.028464	17.0	26.6	-91.8	9.5
2025-01-02 15:36:05.175439	16.7	26.6	-91.8	7.7
2025-01-02 15:36:06.333804	16.4	26.6	-91.9	10.7
2025-01-02 15:36:07.481839	16.0	26.6	-92.2	8.8
2025-01-02 15:36:08.630673	15.7	26.6	-92.2	9.2
2025-01-02 15:36:09.787220	15.3	26.6	-92.3	9.8
2025-01-02 15:36:10.937732	15.0	26.6	-92.3	10.3
2025-01-02 15:36:12.087944	14.6	26.6	-91.8	8.2
2025-01-02 15:36:13.236307	14.3	26.6	-91.7	10.9
2025-01-02 15:36:14.390723	14.0	26.6	-91.5	11.5
2025-01-02 15:36:15.540687	13.6	26.6	-92.3	7.0
2025-01-02 15:36:16.680806	13.3	26.5	-92.5	11.3
2025-01-02 15:36:17.832403	12.9	26.5	-92.1	8.7
2025-01-02 15:36:18.968600	12.6	26.5	-91.2	6.2
2025-01-02 15:36:20.102108	12.3	26.5	-91.5	6.5
2025-01-02 15:36:21.257093	11.9	26.5	-91.8	10.8
2025-01-02 15:36:22.400995	11.6	26.5	-92.0	8.5
2025-01-02 15:36:23.547810	11.2	26.5	-91.9	4.2
2025-01-02 15:36:24.700678	10.9	26.5	-92.4	8.2
2025-01-02 15:36:25.858349	10.6	26.4	-92.3	10.0
2025-01-02 15:36:27.008236	10.2	26.4	-92.4	6.7
2025-01-02 15:36:28.157866	9.9	26.4	-91.7	7.9
2025-01-02 15:36:29.315765	9.5	26.4	-92.0	10.8
2025-01-02 15:36:30.467938	9.2	26.4	-92.0	7.1
2025-01-02 15:36:31.622865	8.9	26.3	-92.0	5.3
2025-01-02 15:36:32.771421	8.5	26.3	-92.2	9.7
2025-01-02 15:36:33.923992	8.2	26.3	-92.4	7.4
2025-01-02 15:36:35.083014	7.8	26.3	-91.9	8.1
2025-01-02 15:36:36.234101	7.5	26.3	-91.5	11.1
2025-01-02 15:36:37.388917	7.2	26.2	-92.0	10.7
2025-01-02 15:36:38.541145	6.8	26.2	-92.1	4.1
2025-01-02 15:36:39.693359	6.5	26.2	-92.3	7.7
2025-01-02 15:36:40.846605	6.2	26.1	-91.8	13.2
2025-01-02 15:36:42.007861	5.8	26.1	-91.9	3.8
2025-01-02 15:36:43.158998	5.5	26.1	-91.6	7.9
2025-01-02 15:36:44.314248	5.2	26.0	-91.6	7.2
2025-01-02 15:36:45.463714	4.8	26.0	-91.8	8.2
2025-01-02 15:36:46.618007	4.5	26.0	-91.7	5.6
2025-01-02 15:36:47.769367	4.2	25.9	-91.9	11.4
2025-01-02 15:36:48.920456	3.8	25.9	-92.3	12.7
2025-01-02 15:36:50.078104	3.5	25.9	-91.6	9.6
2025-01-02 15:36:51.226985	3.2	25.8	-91.2	12.8
2025-01-02 15:36:52.376911	2.9	25.8	-91.4	9.2
2025-01-02 15:36:53.530199	2.5	25.7	-91.8	10.8
2025-01-02 15:36:54.684634	2.2	25.7	-91.8	7.9
2025-01-02 15:36:55.841887	1.9	25.6	-91.8	14.5
2025-01-02 15:36:56.999537	1.6	25.6	-91.9	8.3
2025-01-02 15:36:58.146117	1.2	25.6	-91.4	11.5
2025-01-02 15:36:59.317237	0.9	25.5	-91.8	16.3
2025-01-02 15:37:00.462809	0.6	25.5	-92.0	10.1
2025-01-02 15:37:01.621666	0.3	25.4	-91.9	11.7
2025-01-02 15:37:02.772097	360.0	25.4	-91.5	14.8
2025-01-02 15:37:03.909746	359.6	25.3	-91.9	10.1
2025-01-02 15:37:05.030595	359.3	25.3	-91.7	9.7
2025-01-02 15:37:06.152925	359.0	25.2	-91.7	11.9
2025-01-02 15:37:07.273535	358.7	25.2	-91.4	15.2
2025-01-02 15:37:08.394240	358.4	25.1	-91.4	17.9
2025-01-02 15:37:09.514909	358.1	25.1	-91.6	13.1
2025-01-02 15:37:10.637065	357.8	25.0	-91.8	10.3
2025-01-02 15:37:11.757513	357.5	25.0	-91.8	18.9
2025-01-02 15:37:12.905805	357.2	24.9	-91.6	17.1
2025-01-02 15:37:14.059152	356.9	24.8	-91.5	13.9
2025-01-02 15:37:15.212431	356.6	24.8	-91.1	16.4
2025-01-02 15:37:16.361192	356.3	24.7	-91.2	16.8
2025-01-02 15:37:17.511364	356.0	24.7	-91.9	12.0
2025-01-02 15:37:18.659273	355.7	24.6	-92.3	10.3
2025-01-02 15:37:19.809555	355.4	24.5	-91.7	18.8
2025-01-02 15:37:20.959243	355.1	24.5	-92.0	10.3
2025-01-02 15:37:22.105237	354.8	24.4	-91.8	6.8
2025-01-02 15:37:23.263499	354.5	24.4	-91.8	11.8
2025-01-02 15:37:24.415140	354.2	24.3	-91.8	11.1
2025-01-02 15:37:25.567655	353.9	24.2	-92.0	11.3
2025-01-02 15:37:26.716327	353.6	24.2	-92.2	13.6
2025-01-02 15:37:27.868608	353.3	24.1	-92.3	12.3
2025-01-02 15:37:29.024330	353.0	24.0	-92.2	9.9
2025-01-02 15:37:30.177415	352.7	24.0	-91.7	6.1
2025-01-02 15:37:31.329262	352.4	23.9	-91.5	17.2
2025-01-02 15:37:32.481554	352.1	23.8	-91.9	5.5
2025-01-02 15:37:33.632572	351.8	23.8	-92.3	7.1
2025-01-02 15:37:34.795175	351.5	23.7	-92.2	12.6
2025-01-02 15:37:35.948256	351.3	23.6	-92.2	4.8
2025-01-02 15:37:37.096023	351.0	23.5	-91.9	7.5
2025-01-02 15:37:38.243867	350.7	23.5	-91.4	8.3
2025-01-02 15:37:39.375807	350.4	23.4	-91.9	13.0
2025-01-02 15:37:40.513533	350.1	23.3	-92.1	7.5
2025-01-02 15:37:41.665929	349.9	23.3	-92.0	11.5
2025-01-02 15:37:42.799473	349.6	23.2	-92.0	8.9
2025-01-02 15:37:43.952219	349.3	23.1	-92.4	10.3
2025-01-02 15:37:45.105290	349.0	23.0	-91.8	7.4
2025-01-02 15:37:46.252684	348.8	23.0	-91.9	17.4
2025-01-02 15:37:47.405708	348.5	22.9	-90.7	9.4
2025-01-02 15:37:48.561959	348.2	22.8	-91.2	8.6
2025-01-02 15:37:49.707665	347.9	22.7	-91.2	11.8
2025-01-02 15:37:50.855053	347.7	22.7	-91.7	9.5
2025-01-02 15:37:51.998078	347.4	22.6	-91.4	5.1
2025-01-02 15:37:53.124737	347.2	22.5	-90.2	6.9
2025-01-02 15:37:54.277851	346.9	22.4	-91.7	9.3
2025-01-02 15:37:55.424230	346.6	22.3	-91.9	6.2
2025-01-02 15:37:56.569838	346.4	22.3	-91.5	9.0
2025-01-02 15:37:57.716215	346.1	22.2	-91.9	9.2
2025-01-02 15:37:58.868933	345.9	22.1	-91.9	13.2
2025-01-02 15:38:00.020190	345.6	22.0	-92.1	5.8
2025-01-02 15:38:01.163794	345.3	21.9	-91.6	12.2
2025-01-02 15:38:02.312918	345.1	21.9	-91.3	11.3
2025-01-02 15:38:03.473116	344.8	21.8	-91.7	15.3
2025-01-02 15:38:04.621046	344.6	21.7	-92.1	11.9
2025-01-02 15:38:05.780390	344.3	21.6	-91.9	14.2
2025-01-02 15:38:06.937015	344.1	21.5	-92.2	9.5
2025-01-02 15:38:08.092639	343.8	21.5	-91.6	12.7
2025-01-02 15:38:09.247570	343.6	21.4	-91.6	14.8
2025-01-02 15:38:10.390217	343.3	21.3	-91.5	9.8
2025-01-02 15:38:11.539615	343.1	21.2	-92.2	15.8
2025-01-02 15:38:12.692350	342.8	21.1	-92.6	6.4
2025-01-02 15:38:13.847530	342.6	21.0	-92.3	9.5
2025-01-02 15:38:15.006145	342.4	20.9	-92.2	8.5
2025-01-02 15:38:16.158574	342.1	20.9	-91.8	5.3
2025-01-02 15:38:17.312809	341.9	20.8	-91.6	8.9
2025-01-02 15:38:18.470429	341.6	20.7	-91.5	4.3
2025-01-02 15:38:19.621810	341.4	20.6	-92.4	6.6
2025-01-02 15:38:20.783906	341.2	20.5	-92.3	2.6
2025-01-02 15:38:21.929686	340.9	20.4	-92.4	6.9
2025-01-02 15:38:23.077997	340.7	20.3	-91.4	5.3
2025-01-02 15:38:24.200722	340.5	20.3	-92.0	7.4
2025-01-02 15:38:25.346454	340.3	20.2	-91.3	7.6
2025-01-02 15:38:26.498884	340.0	20.1	-92.5	3.4
2025-01-02 15:38:27.641346	339.8	20.0	-92.4	5.9
2025-01-02 15:38:28.786279	339.6	19.9	-91.9	7.3
2025-01-02 15:38:29.928836	339.4	19.8	-92.3	7.4
2025-01-02 15:38:31.059315	339.1	19.7	-92.1	3.6
2025-01-02 15:38:32.184668	338.9	19.7	-91.5	7.5
2025-01-02 15:38:33.327610	338.7	19.6	-92.0	4.9
2025-01-02 15:38:34.470100	338.5	19.5	-92.4	5.7
2025-01-02 15:38:35.617161	338.3	19.4	-92.1	6.7
2025-01-02 15:38:36.759030	338.1	19.3	-92.0	7.1
2025-01-02 15:38:37.903284	337.9	19.2	-92.0	7.5
2025-01-02 15:38:39.057224	337.6	19.1	-91.6	9.7
2025-01-02 15:38:40.185346	337.4	19.0	-91.6	8.3
2025-01-02 15:38:41.319342	337.2	19.0	-91.8	5.2
2025-01-02 15:38:42.468396	337.0	18.9	-92.0	6.8
2025-01-02 15:38:43.607242	336.8	18.8	-92.3	6.4
2025-01-02 15:38:44.755927	336.6	18.7	-92.0	5.2
2025-01-02 15:38:45.905860	336.4	18.6	-92.1	6.0
2025-01-02 15:38:47.060520	336.2	18.5	-91.8	3.6
2025-01-02 15:38:48.215531	336.0	18.4	-91.6	7.5
2025-01-02 15:38:49.366855	335.8	18.3	-91.7	6.9
2025-01-02 15:38:50.516187	335.6	18.3	-91.6	8.2
2025-01-02 15:38:51.668858	335.4	18.2	-91.6	9.2
2025-01-02 15:38:52.819582	335.2	18.1	-91.7	5.3
2025-01-02 15:38:53.988283	335.0	18.0	-92.0	4.0
2025-01-02 15:38:55.134799	334.8	17.9	-91.5	5.1
2025-01-02 15:38:56.282193	334.6	17.8	-91.5	3.8
2025-01-02 15:38:57.420194	334.4	17.7	-91.7	7.6
2025-01-02 15:38:58.544517	334.2	17.6	-92.0	8.0
2025-01-02 15:38:59.687195	334.0	17.5	-92.2	9.1
2025-01-02 15:39:00.830856	333.8	17.4	-92.6	3.6
2025-01-02 15:39:01.976750	333.6	17.4	-92.3	5.9
2025-01-02 15:39:03.121972	333.5	17.3	-91.9	5.4
2025-01-02 15:39:04.254508	333.3	17.2	-91.5	3.8
2025-01-02 15:39:05.386028	333.1	17.1	-91.7	3.7
2025-01-02 15:39:06.527554	332.9	17.0	-92.5	3.1
2025-01-02 15:39:07.678463	332.7	16.9	-92.3	3.1
2025-01-02 15:39:08.819811	332.5	16.8	-92.1	5.6
2025-01-02 15:39:09.963940	332.4	16.7	-92.3	2.7
2025-01-02 15:39:11.094049	332.2	16.7	-91.9	4.8
2025-01-02 15:39:12.239754	332.0	16.6	-91.8	2.6
2025-01-02 15:39:13.386056	331.8	16.5	-91.8	3.3
2025-01-02 15:39:14.509571	331.6	16.4	-92.0	3.3
2025-01-02 15:39:15.653349	331.5	16.3	-92.1	3.6
2025-01-02 15:39:16.794832	331.3	16.2	-92.4	3.5
2025-01-02 15:39:17.944236	331.1	16.1	-92.1	3.2
2025-01-02 15:39:19.067181	330.9	16.0	-92.4	4.6
2025-01-02 15:39:20.204838	330.8	15.9	-91.7	3.3
2025-01-02 15:39:21.345177	330.6	15.9	-92.0	5.3
2025-01-02 15:39:22.492025	330.4	15.8	-92.2	4.8
2025-01-02 15:39:23.642274	330.3	15.7	-92.2	6.0
2025-01-02 15:39:24.789911	330.1	15.6	-92.6	7.0
2025-01-02 15:39:25.947986	329.9	15.5	-92.3	6.8
2025-01-02 15:39:27.099106	329.8	15.4	-91.6	4.8
2025-01-02 15:39:28.245150	329.6	15.3	-91.7	10.4
2025-01-02 15:39:29.400216	329.4	15.2	-91.5	13.1
2025-01-02 15:39:30.549307	329.3	15.1	-92.1	7.5
2025-01-02 15:39:31.678878	329.1	15.1	-92.4	6.4
2025-01-02 15:39:32.819029	329.0	15.0	-91.9	8.8
2025-01-02 15:39:33.969216	328.8	14.9	-91.9	4.4
2025-01-02 15:39:35.106514	328.6	14.8	-92.1	5.2
2025-01-02 15:39:36.254470	328.5	14.7	-91.4	10.5
2025-01-02 15:39:37.385368	328.3	14.6	-91.8	4.4
#Closed at: 2025-01-02 15:32:49.532017