passes_logs/2025/01/02/LEX_Murmansk/LEX_Murmansk__20250102_135334_NOAA_18_rec.log

#Pass ID: 20250102_135334_NOAA 18
#Satellite: NOAA 18
#Configuration: NOAA 18
#Start time: 2025-01-02 13:53:29.830521

#LorettStation: 1.0.0 05.05.2024
#Station: LEX_Murmansk
#Location: 33.156738 lon 68.926811 lat
#TLE: 1 28654U 05018A   25001.78406204  .00000701  00000+0  39590-3 0  9994
#TLE: 2 28654  98.8586  82.9683 0013729 216.8395 143.1835 14.13472842 11310

#Time	Az	El	Level	SNR
2025-01-02 13:53:41.992728	33.5	15.9	-90.6	6.6
2025-01-02 13:53:43.151340	33.3	16.0	-90.6	5.3
2025-01-02 13:53:44.301294	33.1	16.1	-90.4	5.5
2025-01-02 13:53:45.449257	32.9	16.1	-90.3	6.0
2025-01-02 13:53:46.596383	32.7	16.2	-90.9	5.4
2025-01-02 13:53:47.746768	32.6	16.3	-90.1	5.3
2025-01-02 13:53:48.908216	32.4	16.4	-91.1	4.9
2025-01-02 13:53:50.053360	32.2	16.5	-90.7	5.6
2025-01-02 13:53:51.207228	32.0	16.6	-90.2	3.0
2025-01-02 13:53:52.362658	31.8	16.7	-91.1	3.5
2025-01-02 13:53:53.528901	31.6	16.7	-91.6	3.8
2025-01-02 13:53:54.676643	31.4	16.8	-91.1	3.4
2025-01-02 13:53:55.831211	31.2	16.9	-91.4	5.5
2025-01-02 13:53:56.982532	31.1	17.0	-91.6	3.3
2025-01-02 13:53:58.127901	30.9	17.1	-90.9	6.1
2025-01-02 13:53:59.286988	30.7	17.2	-91.2	8.6
2025-01-02 13:54:00.429867	30.5	17.2	-91.3	7.6
2025-01-02 13:54:01.581381	30.3	17.3	-91.8	7.8
2025-01-02 13:54:02.735982	30.1	17.4	-91.9	6.9
2025-01-02 13:54:03.887999	29.9	17.5	-92.0	9.6
2025-01-02 13:54:05.043272	29.7	17.6	-91.7	9.6
2025-01-02 13:54:06.192890	29.5	17.7	-91.0	7.4
2025-01-02 13:54:07.347566	29.3	17.7	-90.6	7.9
2025-01-02 13:54:08.514373	29.1	17.8	-91.7	8.8
2025-01-02 13:54:09.668181	28.9	17.9	-91.6	7.3
2025-01-02 13:54:10.822171	28.7	18.0	-91.8	10.9
2025-01-02 13:54:11.971975	28.4	18.1	-91.8	6.1
2025-01-02 13:54:13.115091	28.2	18.2	-91.0	4.7
2025-01-02 13:54:14.247161	28.0	18.2	-91.8	8.5
2025-01-02 13:54:15.367861	27.8	18.3	-91.3	10.1
2025-01-02 13:54:16.489795	27.6	18.4	-91.7	6.8
2025-01-02 13:54:17.609645	27.4	18.5	-91.6	6.8
2025-01-02 13:54:18.731172	27.2	18.6	-91.4	6.1
2025-01-02 13:54:19.851187	27.0	18.6	-91.6	11.3
2025-01-02 13:54:20.972772	26.8	18.7	-91.6	11.3
2025-01-02 13:54:22.098630	26.6	18.8	-91.4	8.7
2025-01-02 13:54:23.235683	26.4	18.9	-91.2	11.9
2025-01-02 13:54:24.360700	26.1	19.0	-91.3	15.0
2025-01-02 13:54:25.507647	25.9	19.0	-91.7	10.0
2025-01-02 13:54:26.644704	25.7	19.1	-91.7	8.5
2025-01-02 13:54:27.789548	25.5	19.2	-91.4	10.9
2025-01-02 13:54:28.941196	25.3	19.3	-90.5	8.1
2025-01-02 13:54:30.091949	25.0	19.4	-90.9	7.5
2025-01-02 13:54:31.244692	24.8	19.4	-90.7	9.2
2025-01-02 13:54:32.400909	24.6	19.5	-90.5	5.2
2025-01-02 13:54:33.555372	24.3	19.6	-91.2	7.9
2025-01-02 13:54:34.702854	24.1	19.7	-91.0	7.9
2025-01-02 13:54:35.850574	23.9	19.8	-92.6	14.0
2025-01-02 13:54:36.998862	23.7	19.8	-91.7	5.9
2025-01-02 13:54:38.148297	23.4	19.9	-90.9	4.8
2025-01-02 13:54:39.297776	23.2	20.0	-91.7	11.5
2025-01-02 13:54:40.431265	23.0	20.1	-91.6	12.0
2025-01-02 13:54:41.571381	22.7	20.1	-91.9	6.2
2025-01-02 13:54:42.726668	22.5	20.2	-91.9	12.7
2025-01-02 13:54:43.871409	22.2	20.3	-92.0	12.7
2025-01-02 13:54:45.011617	22.0	20.4	-92.3	9.8
2025-01-02 13:54:46.159250	21.8	20.5	-91.5	5.8
2025-01-02 13:54:47.305012	21.5	20.5	-91.5	7.6
2025-01-02 13:54:48.471004	21.3	20.6	-91.5	5.9
2025-01-02 13:54:49.611573	21.0	20.7	-92.2	7.9
2025-01-02 13:54:50.763054	20.8	20.8	-92.2	12.3
2025-01-02 13:54:51.909964	20.5	20.8	-92.2	12.2
2025-01-02 13:54:53.057715	20.3	20.9	-92.3	7.8
2025-01-02 13:54:54.209759	20.0	21.0	-91.8	11.0
2025-01-02 13:54:55.347674	19.8	21.1	-91.4	12.5
2025-01-02 13:54:56.500865	19.5	21.1	-92.1	9.5
2025-01-02 13:54:57.651697	19.3	21.2	-92.1	8.2
2025-01-02 13:54:58.807580	19.0	21.3	-92.2	11.9
2025-01-02 13:54:59.949659	18.8	21.3	-92.4	10.2
2025-01-02 13:55:01.091236	18.5	21.4	-91.9	4.2
2025-01-02 13:55:02.242921	18.2	21.5	-91.5	9.5
2025-01-02 13:55:03.399426	18.0	21.6	-91.6	9.4
2025-01-02 13:55:04.563800	17.7	21.6	-92.2	4.4
2025-01-02 13:55:05.712197	17.5	21.7	-91.8	8.2
2025-01-02 13:55:06.871126	17.2	21.8	-92.1	9.8
2025-01-02 13:55:08.016316	16.9	21.8	-91.8	6.5
2025-01-02 13:55:09.171509	16.7	21.9	-91.4	7.5
2025-01-02 13:55:10.316278	16.4	22.0	-91.8	11.7
2025-01-02 13:55:11.462627	16.1	22.0	-91.9	7.7
2025-01-02 13:55:12.609993	15.9	22.1	-92.4	7.2
2025-01-02 13:55:13.755087	15.6	22.2	-92.1	9.2
2025-01-02 13:55:14.908673	15.3	22.2	-92.3	9.4
2025-01-02 13:55:16.061341	15.0	22.3	-91.8	4.6
2025-01-02 13:55:17.217756	14.8	22.4	-91.5	10.7
2025-01-02 13:55:18.368821	14.5	22.4	-91.6	8.3
2025-01-02 13:55:19.515699	14.2	22.5	-92.4	8.8
2025-01-02 13:55:20.660484	13.9	22.6	-92.7	9.0
2025-01-02 13:55:21.806640	13.7	22.6	-92.1	15.8
2025-01-02 13:55:22.958151	13.4	22.7	-92.0	14.5
2025-01-02 13:55:24.113123	13.1	22.8	-91.1	13.4
2025-01-02 13:55:25.271208	12.8	22.8	-90.7	11.4
2025-01-02 13:55:26.421120	12.5	22.9	-90.9	15.5
2025-01-02 13:55:27.568745	12.2	22.9	-91.2	7.8
2025-01-02 13:55:28.725863	12.0	23.0	-91.2	13.8
2025-01-02 13:55:29.874754	11.7	23.1	-91.3	14.1
2025-01-02 13:55:31.024572	11.4	23.1	-92.4	8.1
2025-01-02 13:55:32.171703	11.1	23.2	-91.6	4.8
2025-01-02 13:55:33.321083	10.8	23.2	-91.7	11.9
2025-01-02 13:55:34.471984	10.5	23.3	-92.0	8.2
2025-01-02 13:55:35.624217	10.2	23.3	-92.3	7.8
2025-01-02 13:55:36.772898	9.9	23.4	-91.8	11.4
2025-01-02 13:55:37.922303	9.6	23.4	-92.5	15.0
2025-01-02 13:55:39.081810	9.3	23.5	-92.1	13.0
2025-01-02 13:55:40.232376	9.0	23.5	-91.9	14.3
2025-01-02 13:55:41.383846	8.7	23.6	-91.8	15.3
2025-01-02 13:55:42.535002	8.4	23.7	-92.0	16.9
2025-01-02 13:55:43.681929	8.2	23.7	-92.2	12.1
2025-01-02 13:55:44.827055	7.9	23.8	-92.3	20.2
2025-01-02 13:55:45.983174	7.5	23.8	-92.1	15.9
2025-01-02 13:55:47.142394	7.2	23.8	-91.9	13.8
2025-01-02 13:55:48.296737	6.9	23.9	-91.9	14.5
2025-01-02 13:55:49.447748	6.6	23.9	-91.8	12.4
2025-01-02 13:55:50.601490	6.3	24.0	-92.2	11.3
2025-01-02 13:55:51.751331	6.0	24.0	-92.3	15.6
2025-01-02 13:55:52.903279	5.7	24.1	-92.4	16.0
2025-01-02 13:55:54.044303	5.4	24.1	-92.2	10.7
2025-01-02 13:55:55.165634	5.1	24.2	-91.5	8.2
2025-01-02 13:55:56.285653	4.8	24.2	-91.6	15.5
2025-01-02 13:55:57.406265	4.5	24.2	-92.2	13.3
2025-01-02 13:55:58.526731	4.2	24.3	-91.9	8.8
2025-01-02 13:55:59.646962	3.9	24.3	-92.2	14.4
2025-01-02 13:56:00.770410	3.6	24.3	-92.1	17.2
2025-01-02 13:56:01.898598	3.3	24.4	-92.5	16.3
2025-01-02 13:56:03.042891	3.0	24.4	-92.2	13.7
2025-01-02 13:56:04.202958	2.7	24.5	-91.7	11.8
2025-01-02 13:56:05.349534	2.4	24.5	-92.2	16.3
2025-01-02 13:56:06.500917	2.0	24.5	-92.6	11.6
2025-01-02 13:56:07.651543	1.7	24.6	-92.6	9.4
2025-01-02 13:56:08.799562	1.4	24.6	-92.0	13.9
2025-01-02 13:56:09.944445	1.1	24.6	-92.3	9.5
2025-01-02 13:56:11.094416	0.8	24.6	-91.9	6.1
2025-01-02 13:56:12.225863	0.5	24.7	-91.7	9.8
2025-01-02 13:56:13.375396	0.1	24.7	-91.6	9.4
2025-01-02 13:56:14.523884	359.8	24.7	-92.1	7.5
2025-01-02 13:56:15.675471	359.5	24.8	-91.9	8.7
2025-01-02 13:56:16.824547	359.2	24.8	-92.1	13.5
2025-01-02 13:56:17.970014	358.9	24.8	-91.1	6.8
2025-01-02 13:56:19.115679	358.5	24.8	-90.5	10.2
2025-01-02 13:56:20.267824	358.2	24.9	-90.6	13.3
2025-01-02 13:56:21.425507	357.9	24.9	-91.1	12.9
2025-01-02 13:56:22.571817	357.6	24.9	-91.4	13.8
2025-01-02 13:56:23.724418	357.2	24.9	-91.6	10.9
2025-01-02 13:56:24.873515	356.9	24.9	-92.5	17.7
2025-01-02 13:56:26.038567	356.6	24.9	-92.2	16.4
2025-01-02 13:56:27.190386	356.3	25.0	-91.8	13.4
2025-01-02 13:56:28.339733	355.9	25.0	-91.8	15.5
2025-01-02 13:56:29.492627	355.6	25.0	-92.7	14.6
2025-01-02 13:56:30.641144	355.3	25.0	-92.1	14.1
2025-01-02 13:56:31.790825	355.0	25.0	-92.0	16.4
2025-01-02 13:56:32.941701	354.6	25.0	-92.1	16.2
2025-01-02 13:56:34.089529	354.3	25.0	-91.5	8.0
2025-01-02 13:56:35.237909	354.0	25.0	-91.9	15.3
2025-01-02 13:56:36.386238	353.7	25.1	-91.9	9.7
2025-01-02 13:56:37.537397	353.3	25.1	-92.5	8.2
2025-01-02 13:56:38.690637	353.0	25.1	-92.2	10.5
2025-01-02 13:56:39.842105	352.7	25.1	-92.0	14.7
2025-01-02 13:56:40.987526	352.4	25.1	-92.2	9.4
2025-01-02 13:56:42.132921	352.0	25.1	-91.3	5.4
2025-01-02 13:56:43.265751	351.7	25.1	-91.4	7.2
2025-01-02 13:56:44.418144	351.4	25.1	-92.0	17.6
2025-01-02 13:56:45.564702	351.0	25.1	-92.2	12.0
2025-01-02 13:56:46.720746	350.7	25.1	-91.9	9.8
2025-01-02 13:56:47.874992	350.4	25.1	-91.8	10.0
2025-01-02 13:56:49.033551	350.1	25.1	-92.6	7.6
2025-01-02 13:56:50.180066	349.7	25.1	-91.5	13.2
2025-01-02 13:56:51.331577	349.4	25.1	-91.6	10.1
2025-01-02 13:56:52.481367	349.1	25.1	-92.2	4.5
2025-01-02 13:56:53.637645	348.8	25.1	-92.4	9.9
2025-01-02 13:56:54.785149	348.4	25.0	-92.0	6.9
2025-01-02 13:56:55.934625	348.1	25.0	-92.3	7.9
2025-01-02 13:56:57.083429	347.8	25.0	-91.8	11.5
2025-01-02 13:56:58.238490	347.4	25.0	-91.6	10.2
2025-01-02 13:56:59.387143	347.1	25.0	-92.0	7.1
2025-01-02 13:57:00.525857	346.8	25.0	-92.5	13.4
2025-01-02 13:57:01.673709	346.5	25.0	-92.0	12.8
2025-01-02 13:57:02.821079	346.1	25.0	-92.0	10.2
2025-01-02 13:57:03.972390	345.8	24.9	-92.0	13.2
2025-01-02 13:57:05.122442	345.5	24.9	-91.7	7.4
2025-01-02 13:57:06.279539	345.2	24.9	-91.7	13.3
2025-01-02 13:57:07.433735	344.8	24.9	-92.3	11.5
2025-01-02 13:57:08.587418	344.5	24.9	-91.7	14.6
2025-01-02 13:57:09.743246	344.2	24.8	-92.2	17.2
2025-01-02 13:57:10.894914	343.9	24.8	-92.1	10.0
2025-01-02 13:57:12.045442	343.6	24.8	-92.2	10.8
2025-01-02 13:57:13.199818	343.2	24.8	-91.7	12.1
2025-01-02 13:57:14.348623	342.9	24.7	-91.5	11.4
2025-01-02 13:57:15.505619	342.6	24.7	-92.0	11.3
2025-01-02 13:57:16.653120	342.3	24.7	-92.4	10.5
2025-01-02 13:57:17.802906	342.0	24.7	-91.8	14.6
2025-01-02 13:57:18.951344	341.6	24.6	-92.2	5.7
2025-01-02 13:57:20.101877	341.3	24.6	-91.4	6.5
2025-01-02 13:57:21.258133	341.0	24.6	-91.7	7.1
2025-01-02 13:57:22.412976	340.7	24.5	-91.9	7.2
2025-01-02 13:57:23.571644	340.4	24.5	-91.7	9.0
2025-01-02 13:57:24.721565	340.0	24.5	-91.9	12.7
2025-01-02 13:57:25.869474	339.7	24.4	-92.2	7.9
2025-01-02 13:57:27.015694	339.4	24.4	-91.8	7.0
2025-01-02 13:57:28.168494	339.1	24.4	-91.5	6.6
2025-01-02 13:57:29.326622	338.8	24.3	-91.7	7.3
2025-01-02 13:57:30.475461	338.5	24.3	-92.2	7.0
2025-01-02 13:57:31.628874	338.2	24.2	-92.3	8.8
2025-01-02 13:57:32.781307	337.9	24.2	-92.5	13.4
2025-01-02 13:57:33.936989	337.5	24.2	-92.0	12.8
2025-01-02 13:57:35.080674	337.2	24.1	-91.7	4.6
2025-01-02 13:57:36.236281	336.9	24.1	-91.6	10.8
2025-01-02 13:57:37.390714	336.6	24.0	-91.9	12.9
2025-01-02 13:57:38.547679	336.3	24.0	-92.0	5.4
2025-01-02 13:57:39.693427	336.0	24.0	-92.1	13.3
2025-01-02 13:57:40.839742	335.7	23.9	-91.8	7.5
2025-01-02 13:57:41.998335	335.4	23.9	-92.2	8.6
2025-01-02 13:57:43.144774	335.1	23.8	-91.7	4.6
2025-01-02 13:57:44.300214	334.8	23.8	-91.6	10.7
2025-01-02 13:57:45.452660	334.5	23.7	-91.8	7.3
2025-01-02 13:57:46.615417	334.2	23.7	-92.0	8.1
2025-01-02 13:57:47.768947	333.9	23.6	-92.3	11.7
2025-01-02 13:57:48.920841	333.6	23.6	-91.9	5.3
2025-01-02 13:57:50.069339	333.3	23.5	-91.7	8.0
2025-01-02 13:57:51.218444	333.0	23.5	-91.7	5.2
2025-01-02 13:57:52.374277	332.7	23.4	-91.5	12.4
2025-01-02 13:57:53.526164	332.4	23.3	-91.6	6.3
2025-01-02 13:57:54.675909	332.1	23.3	-91.8	8.7
2025-01-02 13:57:55.830412	331.8	23.2	-92.1	14.5
2025-01-02 13:57:56.978866	331.5	23.2	-91.0	7.7
2025-01-02 13:57:58.137090	331.2	23.1	-90.7	8.4
2025-01-02 13:57:59.289361	330.9	23.1	-90.6	7.9
2025-01-02 13:58:00.436323	330.7	23.0	-90.9	7.7
2025-01-02 13:58:01.592326	330.4	22.9	-91.3	6.4
2025-01-02 13:58:02.744017	330.1	22.9	-91.3	6.0
2025-01-02 13:58:03.896432	329.8	22.8	-91.0	4.7
2025-01-02 13:58:05.049474	329.5	22.8	-91.0	7.1
2025-01-02 13:58:06.202431	329.2	22.7	-90.6	10.4
2025-01-02 13:58:07.355784	328.9	22.6	-90.2	7.3
2025-01-02 13:58:08.505974	328.7	22.6	-90.8	10.5
2025-01-02 13:58:09.655087	328.4	22.5	-91.0	6.4
2025-01-02 13:58:10.808306	328.1	22.4	-90.5	14.1
2025-01-02 13:58:11.960783	327.8	22.4	-91.1	9.0
2025-01-02 13:58:13.108594	327.6	22.3	-91.5	7.3
2025-01-02 13:58:14.256594	327.3	22.3	-91.7	11.6
2025-01-02 13:58:15.407634	327.0	22.2	-91.2	6.5
2025-01-02 13:58:16.557410	326.7	22.1	-91.9	3.8
2025-01-02 13:58:17.708449	326.5	22.1	-91.9	5.0
2025-01-02 13:58:18.857831	326.2	22.0	-91.9	14.0
2025-01-02 13:58:20.009776	325.9	21.9	-92.0	12.0
2025-01-02 13:58:21.155480	325.7	21.8	-91.6	6.0
2025-01-02 13:58:22.311196	325.4	21.8	-91.2	15.0
2025-01-02 13:58:23.460325	325.1	21.7	-92.3	4.1
2025-01-02 13:58:24.614245	324.9	21.6	-92.1	13.4
2025-01-02 13:58:25.761209	324.6	21.6	-92.0	12.1
2025-01-02 13:58:26.911834	324.3	21.5	-91.9	7.2
2025-01-02 13:58:28.066902	324.1	21.4	-91.8	7.3
2025-01-02 13:58:29.213609	323.8	21.4	-91.6	6.2
2025-01-02 13:58:30.355460	323.6	21.3	-92.0	9.5
2025-01-02 13:58:31.496518	323.3	21.2	-92.3	11.5
2025-01-02 13:58:32.617488	323.1	21.1	-92.2	6.7
2025-01-02 13:58:33.737587	322.8	21.1	-91.8	8.3
2025-01-02 13:58:34.858514	322.6	21.0	-91.6	6.7
2025-01-02 13:58:35.979200	322.3	20.9	-91.6	3.8
2025-01-02 13:58:37.100662	322.1	20.8	-91.4	6.6
2025-01-02 13:58:38.221842	321.8	20.8	-91.6	11.8
2025-01-02 13:58:39.346488	321.6	20.7	-91.3	8.3
2025-01-02 13:58:40.492537	321.3	20.6	-92.5	6.1
2025-01-02 13:58:41.642941	321.1	20.6	-92.4	3.8
2025-01-02 13:58:42.788821	320.9	20.5	-92.1	8.4
2025-01-02 13:58:43.940754	320.6	20.4	-92.5	8.3
2025-01-02 13:58:45.087256	320.4	20.3	-92.2	3.5
2025-01-02 13:58:46.232581	320.1	20.2	-91.6	6.5
2025-01-02 13:58:47.384693	319.9	20.2	-91.7	4.9
2025-01-02 13:58:48.532671	319.7	20.1	-92.3	4.3
2025-01-02 13:58:49.682774	319.4	20.0	-92.5	5.0
2025-01-02 13:58:50.833909	319.2	19.9	-92.3	5.5
2025-01-02 13:58:51.981960	318.9	19.9	-91.9	3.0
2025-01-02 13:58:53.129812	318.7	19.8	-91.7	3.1
2025-01-02 13:58:54.278084	318.5	19.7	-91.8	5.1
2025-01-02 13:58:55.429350	318.3	19.6	-92.0	3.3
2025-01-02 13:58:56.580088	318.0	19.5	-92.3	4.4
2025-01-02 13:58:57.730454	317.8	19.5	-92.1	3.5
2025-01-02 13:58:58.877266	317.6	19.4	-92.4	5.5
2025-01-02 13:59:00.005118	317.3	19.3	-92.4	5.9
2025-01-02 13:59:01.150919	317.1	19.2	-91.5	1.6
2025-01-02 13:59:02.295839	316.9	19.1	-91.8	4.2
2025-01-02 13:59:03.454467	316.7	19.1	-92.2	6.2
2025-01-02 13:59:04.597042	316.4	19.0	-92.4	8.0
2025-01-02 13:59:05.739040	316.2	18.9	-92.0	5.1
2025-01-02 13:59:06.889596	316.0	18.8	-92.0	3.8
2025-01-02 13:59:08.015206	315.8	18.7	-92.0	7.2
2025-01-02 13:59:09.156058	315.6	18.6	-91.9	5.8
2025-01-02 13:59:10.303865	315.4	18.6	-91.6	7.8
2025-01-02 13:59:11.444057	315.2	18.5	-92.1	5.0
2025-01-02 13:59:12.600039	314.9	18.4	-92.0	6.6
2025-01-02 13:59:13.743143	314.7	18.3	-92.1	5.7
2025-01-02 13:59:14.886146	314.5	18.2	-92.3	9.6
2025-01-02 13:59:16.037175	314.3	18.2	-92.5	5.7
2025-01-02 13:59:17.185841	314.1	18.1	-91.3	3.7
2025-01-02 13:59:18.338832	313.9	18.0	-91.8	7.5
2025-01-02 13:59:19.507453	313.7	17.9	-92.4	4.5
2025-01-02 13:59:20.658254	313.5	17.8	-92.2	4.4
2025-01-02 13:59:21.812367	313.3	17.7	-92.4	4.4
2025-01-02 13:59:22.964333	313.1	17.7	-92.1	5.8
2025-01-02 13:59:24.114438	312.9	17.6	-92.1	3.0
2025-01-02 13:59:25.266132	312.7	17.5	-91.7	6.5
2025-01-02 13:59:26.415965	312.5	17.4	-91.5	6.1
2025-01-02 13:59:27.571257	312.3	17.3	-92.5	9.1
2025-01-02 13:59:28.722890	312.1	17.2	-92.6	10.1
2025-01-02 13:59:29.872050	311.9	17.1	-92.4	10.6
2025-01-02 13:59:31.023602	311.7	17.1	-92.7	7.7
2025-01-02 13:59:32.181057	311.5	17.0	-91.7	5.4
2025-01-02 13:59:33.330974	311.3	16.9	-92.0	7.3
2025-01-02 13:59:34.483689	311.1	16.8	-92.3	8.7
2025-01-02 13:59:35.632580	310.9	16.7	-92.3	6.0
2025-01-02 13:59:36.788870	310.7	16.6	-92.3	7.7
2025-01-02 13:59:37.932059	310.5	16.6	-92.2	7.0
2025-01-02 13:59:39.082711	310.3	16.5	-92.4	6.7
2025-01-02 13:59:40.234253	310.1	16.4	-92.0	6.0
2025-01-02 13:59:41.382020	310.0	16.3	-92.1	7.8
2025-01-02 13:59:42.527923	309.8	16.2	-92.2	3.8
2025-01-02 13:59:43.676827	309.6	16.1	-92.4	5.5
2025-01-02 13:59:44.826372	309.4	16.0	-92.5	15.2
2025-01-02 13:59:45.978391	309.2	16.0	-92.2	5.8
2025-01-02 13:59:47.128881	309.0	15.9	-91.8	4.2
2025-01-02 13:59:48.277904	308.9	15.8	-91.7	7.2
2025-01-02 13:59:49.437454	308.7	15.7	-92.5	9.0
2025-01-02 13:59:50.588057	308.5	15.6	-92.5	4.3
2025-01-02 13:59:51.738366	308.3	15.5	-92.6	10.4
2025-01-02 13:59:52.888298	308.2	15.5	-92.1	13.4
2025-01-02 13:59:54.038888	308.0	15.4	-92.7	7.2
2025-01-02 13:59:55.186713	307.8	15.3	-92.4	5.8
2025-01-02 13:59:56.337128	307.6	15.2	-92.3	9.4
2025-01-02 13:59:57.491797	307.5	15.1	-92.2	5.6
2025-01-02 13:59:58.646275	307.3	15.0	-92.5	8.1
2025-01-02 13:59:59.792834	307.1	14.9	-92.4	15.5
2025-01-02 14:00:00.939618	306.9	14.9	-91.9	12.0
2025-01-02 14:00:02.086528	306.8	14.8	-92.1	4.3
2025-01-02 14:00:03.236023	306.6	14.7	-91.7	7.4
2025-01-02 14:00:04.390997	306.4	14.6	-90.8	4.0
#Closed at: 2025-01-02 13:53:34.815792