passes_logs/2025/01/11/PPK-1/PPK-1__20250111_234016_TY-39_rec.log

#Pass ID: 20250111_234016_TY-39
#Satellite: TY-39
#Configuration: TY-39
#almurnet v.1.7.20230919.trace
#Start time: 2025-01-11 23:40:15

#Version: 2.2.20231116
#Station: PPK-1
#Location: 158.6 lon 53.06666 lat
#TLE: 1 51832U 22019J   25010.91040954  .00003368  00000+0  17400-3 0  9997
#TLE: 2 51832  97.4109  81.2067 0007776 249.7349 110.3049 15.16937468158529

#Time	Az	El	Level	Level2	SNR	BER	BlckErr	Temp	State
2025-01-11 23:40:15.25	21.16	7.89	-65.5	-70.5	3.3	0.00e+00	0	45	0
2025-01-11 23:40:17.14	21.26	8.06	-64.0	-67.9	3.4	0.00e+00	0	46	104
2025-01-11 23:40:19.03	21.37	8.24	-64.0	-68.4	3.3	0.00e+00	0	46	104
2025-01-11 23:40:20.93	21.47	8.41	-65.2	-70.1	3.7	0.00e+00	0	46	104
2025-01-11 23:40:22.83	21.58	8.59	-64.6	-68.6	3.7	0.00e+00	0	47	104
2025-01-11 23:40:24.73	21.69	8.76	-66.7	-72.4	3.6	0.00e+00	0	47	104
2025-01-11 23:40:26.63	21.80	8.94	-67.1	-73.1	3.6	0.00e+00	0	47	104
2025-01-11 23:40:28.52	21.91	9.12	-67.2	-73.3	3.6	0.00e+00	0	48	104
2025-01-11 23:40:30.42	22.02	9.30	-67.1	-73.1	3.6	0.00e+00	0	48	104
2025-01-11 23:40:32.32	22.13	9.49	-67.0	-72.7	3.7	0.00e+00	0	48	104
2025-01-11 23:40:34.22	22.25	9.67	-67.0	-72.8	3.7	0.00e+00	0	49	104
2025-01-11 23:40:36.12	22.37	9.86	-67.4	-73.0	3.7	0.00e+00	0	49	104
2025-01-11 23:40:38.02	22.49	10.05	-67.4	-73.1	3.6	0.00e+00	0	49	104
2025-01-11 23:40:39.92	22.61	10.24	-67.4	-73.2	3.6	0.00e+00	0	49	104
2025-01-11 23:40:41.82	22.73	10.43	-66.6	-71.0	3.4	0.00e+00	0	50	104
2025-01-11 23:40:43.72	22.86	10.63	-65.2	-68.9	3.7	0.00e+00	0	50	104
2025-01-11 23:40:45.62	22.98	10.82	-64.7	-68.4	3.7	0.00e+00	0	50	104
2025-01-11 23:40:47.52	23.11	11.02	-65.5	-70.2	3.4	0.00e+00	0	51	104
2025-01-11 23:40:49.42	23.24	11.22	-66.5	-71.7	3.4	0.00e+00	0	51	104
2025-01-11 23:40:51.31	23.37	11.42	-67.2	-73.1	3.6	0.00e+00	0	51	104
2025-01-11 23:40:53.21	23.51	11.63	-67.3	-73.1	3.6	0.00e+00	0	51	104
2025-01-11 23:40:55.11	23.65	11.83	-67.3	-72.9	3.7	0.00e+00	0	52	104
2025-01-11 23:40:57.01	23.78	12.04	-67.2	-72.6	3.7	0.00e+00	0	52	104
2025-01-11 23:40:58.91	23.93	12.25	-67.4	-73.1	3.7	0.00e+00	0	52	104
2025-01-11 23:41:00.81	24.07	12.47	-67.6	-73.5	3.6	0.00e+00	0	52	104
2025-01-11 23:41:02.71	24.22	12.68	-67.5	-73.3	3.6	0.00e+00	0	53	104
2025-01-11 23:41:04.61	24.36	12.90	-67.1	-72.2	3.5	0.00e+00	0	53	104
2025-01-11 23:41:06.51	24.52	13.12	-66.7	-71.1	3.6	0.00e+00	0	53	104
2025-01-11 23:41:08.41	24.67	13.34	-67.0	-71.7	3.7	0.00e+00	0	53	104
2025-01-11 23:41:10.31	24.83	13.57	-67.3	-72.6	3.6	0.00e+00	0	53	104
2025-01-11 23:41:12.20	24.98	13.80	-67.5	-73.3	3.6	0.00e+00	0	54	104
2025-01-11 23:41:14.10	25.15	14.03	-67.7	-73.6	3.6	0.00e+00	0	54	104
2025-01-11 23:41:16.00	25.31	14.26	-54.2	-57.1	12.9	2.77e-05	0	55	0
2025-01-11 23:41:17.89	25.48	14.49	-53.8	-56.3	12.9	6.24e-05	0	55	0
2025-01-11 23:41:19.79	25.65	14.73	-53.6	-56.0	12.4	2.77e-05	0	55	0
2025-01-11 23:41:21.68	25.82	14.97	-53.2	-55.6	12.4	1.80e-04	0	55	0
2025-01-11 23:41:23.58	26.00	15.22	-53.0	-55.6	13.0	6.24e-05	0	56	0
2025-01-11 23:41:25.47	26.18	15.46	-52.8	-55.3	13.4	6.90e-06	0	56	0
2025-01-11 23:41:27.37	26.36	15.71	-52.6	-54.9	13.5	0.00e+00	0	56	0
2025-01-11 23:41:29.27	26.55	15.97	-52.4	-55.1	13.5	0.00e+00	0	56	0
2025-01-11 23:41:31.17	26.74	16.23	-52.8	-55.8	13.3	0.00e+00	0	57	0
2025-01-11 23:41:33.06	26.93	16.48	-52.9	-56.0	13.3	0.00e+00	0	57	0
2025-01-11 23:41:34.96	27.13	16.75	-53.0	-56.3	13.1	2.08e-05	0	57	0
2025-01-11 23:41:36.85	27.33	17.01	-52.9	-56.0	13.2	4.85e-05	0	57	0
2025-01-11 23:41:38.75	27.54	17.28	-52.6	-55.3	13.6	1.38e-05	0	57	0
2025-01-11 23:41:40.64	27.75	17.55	-52.2	-54.5	13.9	6.90e-06	0	58	0
2025-01-11 23:41:42.53	27.96	17.83	-52.0	-54.7	13.7	0.00e+00	0	58	0
2025-01-11 23:41:44.43	28.18	18.11	-51.7	-54.2	14.0	0.00e+00	0	58	0
2025-01-11 23:41:46.32	28.40	18.39	-51.6	-54.4	14.1	0.00e+00	0	58	0
2025-01-11 23:41:48.21	28.63	18.68	-51.8	-54.9	13.9	0.00e+00	0	58	0
2025-01-11 23:41:50.10	28.86	18.97	-51.9	-55.0	13.9	0.00e+00	0	59	0
2025-01-11 23:41:51.99	29.10	19.27	-52.1	-55.4	13.9	0.00e+00	0	59	0
2025-01-11 23:41:53.89	29.34	19.57	-52.0	-55.2	13.9	0.00e+00	0	59	0
2025-01-11 23:41:55.79	29.59	19.87	-51.7	-54.5	14.0	0.00e+00	0	59	0
2025-01-11 23:41:57.69	29.84	20.18	-51.3	-53.8	14.1	0.00e+00	0	59	0
2025-01-11 23:41:59.59	30.10	20.49	-51.1	-53.9	14.3	0.00e+00	0	60	0
2025-01-11 23:42:01.49	30.37	20.81	-50.9	-53.5	14.5	0.00e+00	0	60	0
2025-01-11 23:42:03.39	30.64	21.13	-51.2	-54.0	14.5	0.00e+00	0	60	0
2025-01-11 23:42:05.29	30.92	21.46	-51.2	-54.2	14.5	0.00e+00	0	60	0
2025-01-11 23:42:07.19	31.21	21.79	-51.4	-54.6	14.3	0.00e+00	0	60	0
2025-01-11 23:42:09.09	31.50	22.13	-51.1	-53.8	14.5	0.00e+00	0	60	0
2025-01-11 23:42:10.99	31.80	22.47	-50.8	-53.3	14.7	0.00e+00	0	61	0
2025-01-11 23:42:12.89	32.10	22.81	-50.2	-52.7	15.0	0.00e+00	0	61	0
2025-01-11 23:42:14.79	32.42	23.16	-50.2	-52.7	15.0	0.00e+00	0	61	0
2025-01-11 23:42:16.69	32.74	23.52	-50.3	-52.8	15.0	0.00e+00	0	61	0
2025-01-11 23:42:18.59	33.07	23.88	-50.4	-53.0	15.0	0.00e+00	0	61	0
2025-01-11 23:42:20.49	33.41	24.25	-50.5	-53.2	14.9	0.00e+00	0	61	0
2025-01-11 23:42:22.39	33.76	24.62	-50.3	-52.8	15.0	0.00e+00	0	62	0
2025-01-11 23:42:24.29	34.11	25.00	-50.0	-52.6	15.1	0.00e+00	0	62	0
2025-01-11 23:42:26.19	34.48	25.38	-49.6	-51.9	15.3	0.00e+00	0	62	0
2025-01-11 23:42:28.09	34.85	25.77	-49.5	-52.2	15.2	0.00e+00	0	62	0
2025-01-11 23:42:29.99	35.24	26.16	-49.8	-52.9	15.2	0.00e+00	0	62	0
2025-01-11 23:42:31.89	35.63	26.56	-49.9	-53.0	15.1	0.00e+00	0	62	0
2025-01-11 23:42:33.79	36.04	26.97	-49.7	-52.7	15.1	0.00e+00	0	62	0
2025-01-11 23:42:35.68	36.46	27.38	-49.5	-52.1	15.4	0.00e+00	0	62	0
2025-01-11 23:42:37.58	36.89	27.80	-47.9	-50.4	15.4	0.00e+00	0	63	0
2025-01-11 23:42:39.48	37.33	28.22	-47.8	-50.3	15.3	0.00e+00	0	62	0
2025-01-11 23:42:41.38	37.78	28.65	-48.0	-50.6	15.3	0.00e+00	0	63	0
2025-01-11 23:42:43.28	38.25	29.09	-48.0	-50.8	15.3	0.00e+00	0	63	0
2025-01-11 23:42:45.18	38.74	29.53	-48.0	-50.6	15.3	0.00e+00	0	63	0
2025-01-11 23:42:47.08	39.23	29.98	-47.6	-49.9	15.5	0.00e+00	0	63	0
2025-01-11 23:42:48.98	39.74	30.43	-47.2	-49.6	15.5	0.00e+00	0	63	0
2025-01-11 23:42:50.88	40.27	30.89	-47.2	-49.6	15.5	0.00e+00	0	63	0
2025-01-11 23:42:52.78	40.82	31.36	-47.4	-49.9	15.4	0.00e+00	0	64	0
2025-01-11 23:42:54.68	41.38	31.83	-47.5	-50.2	15.3	0.00e+00	0	64	0
2025-01-11 23:42:56.57	41.95	32.31	-47.3	-49.7	15.3	0.00e+00	0	64	0
2025-01-11 23:42:58.47	42.55	32.80	-46.8	-49.2	15.4	0.00e+00	0	64	0
2025-01-11 23:43:00.37	43.17	33.29	-46.8	-49.3	15.7	0.00e+00	0	64	0
2025-01-11 23:43:02.27	43.80	33.78	-46.9	-49.5	15.4	0.00e+00	0	64	0
2025-01-11 23:43:04.17	44.46	34.29	-47.0	-49.7	15.4	0.00e+00	0	64	0
2025-01-11 23:43:06.07	45.14	34.80	-46.8	-49.3	15.6	0.00e+00	0	64	0
2025-01-11 23:43:07.97	45.84	35.31	-46.3	-48.7	15.7	0.00e+00	0	64	0
2025-01-11 23:43:09.87	46.57	35.83	-46.2	-48.7	15.7	0.00e+00	0	64	0
2025-01-11 23:43:11.77	47.32	36.35	-46.6	-49.3	15.5	0.00e+00	0	65	0
2025-01-11 23:43:13.67	48.09	36.88	-46.6	-49.3	15.4	0.00e+00	0	65	0
2025-01-11 23:43:15.57	48.90	37.41	-46.4	-49.0	15.9	0.00e+00	0	65	0
2025-01-11 23:43:17.46	49.72	37.95	-45.9	-48.5	15.9	0.00e+00	0	65	0
2025-01-11 23:43:19.36	50.58	38.48	-46.0	-48.6	15.9	0.00e+00	0	65	0
2025-01-11 23:43:21.26	51.47	39.03	-46.1	-48.9	15.8	0.00e+00	0	65	0
2025-01-11 23:43:23.16	52.40	39.57	-46.1	-48.9	15.8	0.00e+00	0	65	0
2025-01-11 23:43:25.06	53.35	40.12	-45.8	-48.2	15.9	0.00e+00	0	66	0
2025-01-11 23:43:26.96	54.34	40.66	-45.6	-48.4	16.0	0.00e+00	0	66	0
2025-01-11 23:43:28.86	55.36	41.21	-45.8	-48.8	15.9	0.00e+00	0	65	0
2025-01-11 23:43:30.76	56.42	41.76	-45.8	-48.9	15.9	0.00e+00	0	66	0
2025-01-11 23:43:32.66	57.52	42.30	-45.9	-48.9	15.9	0.00e+00	0	66	0
2025-01-11 23:43:34.56	58.66	42.84	-45.4	-48.0	16.1	0.00e+00	0	66	0
2025-01-11 23:43:36.46	59.84	43.38	-45.4	-48.0	16.1	0.00e+00	0	66	0
2025-01-11 23:43:38.35	61.05	43.91	-45.5	-48.2	16.1	0.00e+00	0	66	0
2025-01-11 23:43:40.25	62.31	44.44	-45.6	-48.3	16.1	0.00e+00	0	66	0
2025-01-11 23:43:42.15	63.61	44.96	-45.3	-47.7	16.2	0.00e+00	0	66	0
2025-01-11 23:43:44.05	64.96	45.47	-44.9	-47.5	16.3	0.00e+00	0	66	0
2025-01-11 23:43:45.95	66.36	45.97	-44.9	-47.5	16.3	0.00e+00	0	67	0
2025-01-11 23:43:47.85	67.80	46.46	-45.0	-47.7	16.2	0.00e+00	0	67	0
2025-01-11 23:43:49.75	69.28	46.93	-45.0	-47.7	16.3	0.00e+00	0	67	0
2025-01-11 23:43:51.65	70.82	47.39	-44.8	-47.3	16.3	0.00e+00	0	67	0
2025-01-11 23:43:53.55	72.39	47.84	-44.4	-47.1	16.3	0.00e+00	0	67	0
2025-01-11 23:43:55.45	74.02	48.26	-44.3	-46.8	16.1	0.00e+00	0	67	0
2025-01-11 23:43:57.35	75.69	48.67	-44.4	-47.0	16.2	0.00e+00	0	67	0
2025-01-11 23:43:59.24	77.40	49.05	-44.4	-46.9	16.3	0.00e+00	0	67	0
2025-01-11 23:44:01.14	79.15	49.41	-44.5	-47.1	16.3	0.00e+00	0	67	0
2025-01-11 23:44:03.04	80.95	49.75	-44.4	-47.0	16.3	0.00e+00	0	67	0
2025-01-11 23:44:04.94	82.79	50.05	-44.2	-46.5	16.4	0.00e+00	0	67	0
2025-01-11 23:44:06.84	84.67	50.33	-44.0	-46.7	16.4	0.00e+00	0	67	0
2025-01-11 23:44:08.74	86.58	50.58	-44.0	-46.7	16.5	0.00e+00	0	67	0
2025-01-11 23:44:10.64	88.52	50.80	-44.0	-46.6	16.4	0.00e+00	0	68	0
2025-01-11 23:44:12.54	90.49	50.98	-44.0	-46.7	16.4	0.00e+00	0	67	0
2025-01-11 23:44:14.44	92.48	51.13	-43.9	-46.5	16.1	0.00e+00	0	68	0
2025-01-11 23:44:16.34	94.48	51.25	-44.0	-46.6	16.1	0.00e+00	0	68	0
2025-01-11 23:44:18.24	96.51	51.33	-43.9	-46.5	16.1	0.00e+00	0	68	0
2025-01-11 23:44:20.14	98.54	51.37	-43.9	-46.5	16.2	0.00e+00	0	68	0
2025-01-11 23:44:22.03	100.56	51.38	-43.8	-46.3	16.4	0.00e+00	0	68	0
2025-01-11 23:44:23.93	102.59	51.35	-44.0	-46.7	16.4	0.00e+00	0	68	0
2025-01-11 23:44:25.83	104.62	51.28	-44.1	-46.8	16.4	0.00e+00	0	68	0
2025-01-11 23:44:27.73	106.63	51.18	-44.1	-46.8	16.4	0.00e+00	0	68	0
2025-01-11 23:44:29.63	108.63	51.04	-44.2	-47.2	16.5	0.00e+00	0	68	0
2025-01-11 23:44:31.53	110.61	50.87	-44.3	-47.2	16.4	0.00e+00	0	68	0
2025-01-11 23:44:33.43	112.56	50.66	-44.5	-47.6	16.3	0.00e+00	0	68	0
2025-01-11 23:44:35.33	114.49	50.42	-44.4	-47.4	16.2	0.00e+00	0	68	0
2025-01-11 23:44:37.23	116.38	50.16	-44.6	-47.9	16.1	0.00e+00	0	68	0
2025-01-11 23:44:39.13	118.24	49.86	-45.0	-48.1	16.1	0.00e+00	0	69	0
2025-01-11 23:44:41.03	120.06	49.53	-45.2	-48.7	16.1	0.00e+00	0	69	0
2025-01-11 23:44:42.92	121.83	49.18	-45.2	-48.5	16.1	0.00e+00	0	69	0
2025-01-11 23:44:44.82	123.56	48.80	-45.1	-48.4	16.2	0.00e+00	0	69	0
2025-01-11 23:44:46.72	125.25	48.40	-45.2	-48.5	16.1	0.00e+00	0	69	0
2025-01-11 23:44:48.62	126.90	47.98	-45.2	-48.5	16.2	0.00e+00	0	69	0
2025-01-11 23:44:50.52	128.50	47.54	-45.5	-48.7	16.2	0.00e+00	0	69	0
2025-01-11 23:44:52.42	130.06	47.09	-45.8	-48.7	16.0	0.00e+00	0	69	0
2025-01-11 23:44:54.32	131.57	46.61	-45.7	-48.7	16.0	0.00e+00	0	69	0
2025-01-11 23:44:56.22	133.03	46.13	-45.6	-48.4	16.0	0.00e+00	0	69	0
2025-01-11 23:44:58.12	134.44	45.63	-45.4	-48.1	16.0	0.00e+00	0	69	0
2025-01-11 23:45:00.02	135.81	45.12	-45.8	-48.7	16.0	0.00e+00	0	69	0
2025-01-11 23:45:01.92	137.14	44.60	-46.2	-49.5	15.8	0.00e+00	0	69	0
2025-01-11 23:45:03.81	138.41	44.07	-46.0	-48.7	15.7	0.00e+00	0	69	0
2025-01-11 23:45:05.71	139.65	43.54	-45.9	-48.5	15.9	0.00e+00	0	69	0
2025-01-11 23:45:07.61	140.85	42.99	-45.6	-47.9	16.0	0.00e+00	0	70	0
2025-01-11 23:45:09.51	142.00	42.45	-46.0	-48.7	15.8	0.00e+00	0	69	0
2025-01-11 23:45:11.41	143.12	41.90	-46.0	-48.6	15.9	0.00e+00	0	69	0
2025-01-11 23:45:13.31	144.20	41.35	-45.7	-48.2	16.0	0.00e+00	0	70	0
2025-01-11 23:45:15.21	145.24	40.80	-45.5	-48.2	16.1	0.00e+00	0	70	0
2025-01-11 23:45:17.11	146.24	40.25	-45.6	-48.4	16.1	0.00e+00	0	70	0
2025-01-11 23:45:19.01	147.21	39.70	-45.7	-48.7	16.0	0.00e+00	0	70	0
2025-01-11 23:45:20.91	148.15	39.15	-45.8	-48.9	16.0	0.00e+00	0	70	0
2025-01-11 23:45:22.81	149.06	38.61	-45.6	-48.4	16.1	0.00e+00	0	70	0
2025-01-11 23:45:24.70	149.93	38.06	-45.5	-48.1	16.1	0.00e+00	0	70	0
2025-01-11 23:45:26.60	150.77	37.52	-45.6	-48.5	16.1	0.00e+00	0	70	0
2025-01-11 23:45:28.50	151.59	36.98	-45.9	-49.0	16.0	0.00e+00	0	70	0
2025-01-11 23:45:30.40	152.38	36.45	-45.9	-49.0	16.1	0.00e+00	0	70	0
2025-01-11 23:45:32.30	153.14	35.92	-45.8	-48.7	16.1	0.00e+00	0	70	0
2025-01-11 23:45:34.20	153.87	35.40	-45.8	-48.8	16.0	0.00e+00	0	70	0
2025-01-11 23:45:36.10	154.59	34.88	-46.0	-49.2	16.0	0.00e+00	0	70	0
2025-01-11 23:45:38.00	155.28	34.36	-46.2	-49.7	15.8	0.00e+00	0	70	0
2025-01-11 23:45:39.90	155.94	33.85	-46.2	-49.1	15.8	0.00e+00	0	70	0
2025-01-11 23:45:41.80	156.59	33.35	-46.1	-48.8	15.9	0.00e+00	0	70	0
2025-01-11 23:45:43.70	157.22	32.85	-46.2	-49.0	16.0	0.00e+00	0	70	0
2025-01-11 23:45:45.60	157.82	32.36	-46.3	-49.3	15.9	0.00e+00	0	70	0
2025-01-11 23:45:47.49	158.40	31.88	-46.6	-49.9	15.8	0.00e+00	0	70	0
2025-01-11 23:45:49.39	158.97	31.40	-46.6	-49.9	15.8	0.00e+00	0	70	0
2025-01-11 23:45:51.29	159.53	30.93	-46.5	-49.7	15.7	0.00e+00	0	71	0
2025-01-11 23:45:53.19	160.06	30.46	-46.6	-49.9	15.5	0.00e+00	0	70	0
2025-01-11 23:45:55.09	160.58	30.00	-46.8	-49.9	15.4	0.00e+00	0	70	0
2025-01-11 23:45:56.99	161.08	29.54	-47.0	-50.2	15.4	0.00e+00	0	71	0
2025-01-11 23:45:58.89	161.57	29.10	-47.1	-50.4	15.2	0.00e+00	0	70	0
2025-01-11 23:46:00.79	162.05	28.65	-47.1	-50.4	15.2	0.00e+00	0	71	0
2025-01-11 23:46:02.69	162.51	28.22	-47.1	-50.4	15.2	0.00e+00	0	70	0
2025-01-11 23:46:04.59	162.95	27.79	-47.3	-50.7	15.1	0.00e+00	0	71	0
2025-01-11 23:46:06.49	163.39	27.36	-47.5	-50.6	15.3	0.00e+00	0	71	0
2025-01-11 23:46:08.38	163.81	26.95	-47.6	-51.0	15.2	0.00e+00	0	71	0
2025-01-11 23:46:10.28	164.22	26.54	-47.9	-50.9	15.1	0.00e+00	0	71	0
2025-01-11 23:46:12.18	164.62	26.13	-47.7	-50.5	15.3	0.00e+00	0	71	0
2025-01-11 23:46:14.08	165.01	25.73	-47.7	-50.5	15.1	0.00e+00	0	71	0
2025-01-11 23:46:15.98	165.39	25.34	-47.9	-51.1	15.0	0.00e+00	0	71	0
2025-01-11 23:46:17.88	165.76	24.95	-48.1	-51.4	14.8	0.00e+00	0	71	0
2025-01-11 23:46:19.78	166.12	24.57	-48.3	-51.4	14.6	0.00e+00	0	71	0
2025-01-11 23:46:21.68	166.47	24.19	-48.5	-51.7	14.7	0.00e+00	0	71	0
2025-01-11 23:46:23.58	166.81	23.82	-48.4	-51.5	15.0	0.00e+00	0	71	0
2025-01-11 23:46:25.48	167.15	23.46	-48.3	-51.3	15.2	0.00e+00	0	71	0
2025-01-11 23:46:27.38	167.47	23.10	-48.4	-51.5	15.2	0.00e+00	0	71	0
2025-01-11 23:46:29.27	167.79	22.74	-48.7	-52.2	15.1	0.00e+00	0	71	0
2025-01-11 23:46:31.17	168.09	22.39	-49.0	-52.2	14.9	0.00e+00	0	71	0
2025-01-11 23:46:33.07	168.40	22.05	-49.2	-52.5	14.9	0.00e+00	0	71	0
2025-01-11 23:46:34.97	168.69	21.71	-49.3	-52.3	14.9	0.00e+00	0	71	0
2025-01-11 23:46:36.87	168.98	21.37	-49.2	-52.0	15.0	0.00e+00	0	71	0
2025-01-11 23:46:38.77	169.26	21.04	-49.1	-52.0	15.0	0.00e+00	0	71	0
2025-01-11 23:46:40.67	169.53	20.72	-49.2	-52.1	14.9	0.00e+00	0	71	0
2025-01-11 23:46:42.57	169.80	20.40	-49.5	-52.6	14.8	0.00e+00	0	71	0
2025-01-11 23:46:44.47	170.06	20.08	-49.6	-53.0	14.6	0.00e+00	0	71	0
2025-01-11 23:46:46.37	170.32	19.77	-51.1	-54.5	14.7	0.00e+00	0	71	0
2025-01-11 23:46:48.27	170.57	19.46	-51.2	-54.6	14.6	0.00e+00	0	72	0
2025-01-11 23:46:50.16	170.81	19.16	-51.2	-54.7	14.5	0.00e+00	0	71	0
2025-01-11 23:46:52.06	171.05	18.86	-51.0	-54.3	14.7	0.00e+00	0	72	0
2025-01-11 23:46:53.96	171.29	18.56	-51.1	-54.3	14.8	0.00e+00	0	71	0
2025-01-11 23:46:55.86	171.52	18.27	-51.1	-54.4	14.7	0.00e+00	0	72	0
2025-01-11 23:46:57.76	171.74	17.98	-51.5	-54.6	14.6	0.00e+00	0	72	0
2025-01-11 23:46:59.66	171.96	17.70	-51.7	-55.1	14.5	0.00e+00	0	71	0
2025-01-11 23:47:01.56	172.18	17.42	-51.8	-54.9	14.4	0.00e+00	0	71	0
2025-01-11 23:47:03.46	172.39	17.14	-52.0	-55.3	14.2	0.00e+00	0	72	0
2025-01-11 23:47:05.36	172.60	16.87	-52.2	-55.6	14.1	0.00e+00	0	72	0
2025-01-11 23:47:07.26	172.80	16.60	-52.2	-55.7	14.1	0.00e+00	0	72	0
2025-01-11 23:47:09.16	173.00	16.33	-51.9	-54.9	14.3	0.00e+00	0	72	0
2025-01-11 23:47:11.05	173.19	16.07	-51.8	-54.8	14.3	0.00e+00	0	72	0
2025-01-11 23:47:12.95	173.38	15.81	-52.0	-55.3	14.2	0.00e+00	0	72	0
2025-01-11 23:47:14.85	173.57	15.56	-52.2	-55.5	14.2	0.00e+00	0	72	0
2025-01-11 23:47:16.75	173.76	15.30	-52.6	-55.9	13.9	0.00e+00	0	72	0
2025-01-11 23:47:18.65	173.94	15.05	-52.7	-56.2	13.8	0.00e+00	0	72	0
2025-01-11 23:47:20.55	174.11	14.81	-53.2	-56.6	13.5	0.00e+00	0	72	0
2025-01-11 23:47:22.45	174.29	14.56	-53.2	-56.6	13.4	1.38e-05	0	72	0
2025-01-11 23:47:24.35	174.46	14.32	-53.3	-56.4	13.2	1.38e-05	0	72	0
2025-01-11 23:47:26.25	174.63	14.08	-67.6	-73.3	3.7	6.90e-06	0	72	104
2025-01-11 23:47:28.15	174.79	13.85	-67.4	-73.4	3.7	6.90e-06	0	72	104
2025-01-11 23:47:30.05	174.95	13.61	-67.4	-73.2	3.7	6.90e-06	0	72	104
2025-01-11 23:47:31.95	175.11	13.38	-67.3	-73.3	3.6	6.90e-06	0	72	104
2025-01-11 23:47:33.85	175.27	13.16	-67.3	-73.3	3.6	6.90e-06	0	72	104
2025-01-11 23:47:35.74	175.42	12.93	-67.6	-73.7	3.6	6.90e-06	0	72	104
2025-01-11 23:47:37.64	175.57	12.71	-67.7	-73.7	3.6	6.90e-06	0	72	104
2025-01-11 23:47:39.54	175.72	12.49	-67.7	-73.6	3.7	6.90e-06	0	72	104
2025-01-11 23:47:41.44	175.86	12.27	-67.6	-73.4	3.7	6.90e-06	0	72	104
2025-01-11 23:47:43.34	176.01	12.06	-67.5	-73.4	3.7	6.90e-06	0	71	104
2025-01-11 23:47:45.24	176.15	11.85	-67.0	-72.9	3.6	6.90e-06	0	71	104
2025-01-11 23:47:47.14	176.29	11.63	-66.5	-73.0	3.6	6.90e-06	0	72	104
2025-01-11 23:47:49.04	176.42	11.43	-66.0	-72.9	3.6	6.90e-06	0	71	104
2025-01-11 23:47:50.94	176.56	11.22	-65.7	-72.3	3.7	6.90e-06	0	71	104
2025-01-11 23:47:52.84	176.69	11.02	-65.8	-72.8	3.7	6.90e-06	0	72	104
2025-01-11 23:47:54.74	176.82	10.81	-65.9	-72.2	3.6	6.90e-06	0	72	104
2025-01-11 23:47:56.63	176.95	10.62	-65.9	-72.1	3.5	6.90e-06	0	71	104
2025-01-11 23:47:58.53	177.07	10.42	-65.7	-71.7	3.5	6.90e-06	0	72	104
2025-01-11 23:48:00.43	177.20	10.22	-65.2	-70.7	3.4	6.90e-06	0	71	104
2025-01-11 23:48:02.33	177.32	10.03	-64.9	-70.8	3.7	6.90e-06	0	72	104
2025-01-11 23:48:04.23	177.44	9.83	-65.0	-70.8	3.7	6.90e-06	0	72	104
2025-01-11 23:48:06.13	177.56	9.64	-65.1	-71.0	3.6	6.90e-06	0	71	104
2025-01-11 23:48:08.03	177.68	9.46	-65.2	-71.0	3.5	6.90e-06	0	72	104
2025-01-11 23:48:09.93	177.79	9.27	-65.4	-71.4	3.5	6.90e-06	0	71	104
2025-01-11 23:48:11.83	177.90	9.08	-65.1	-70.3	3.4	6.90e-06	0	71	104
2025-01-11 23:48:13.73	178.02	8.90	-65.4	-70.8	3.7	6.90e-06	0	71	104
2025-01-11 23:48:15.63	178.13	8.72	-65.5	-71.0	3.7	6.90e-06	0	71	104
2025-01-11 23:48:17.52	178.23	8.54	-65.4	-70.9	3.5	6.90e-06	0	71	104
2025-01-11 23:48:19.42	178.34	8.36	-65.2	-71.1	3.5	6.90e-06	0	72	104
2025-01-11 23:48:21.32	178.45	8.18	-65.2	-71.0	3.4	6.90e-06	0	71	104
2025-01-11 23:48:23.22	178.55	8.01	-64.6	-70.2	3.3	6.90e-06	0	71	104

#Closed at: 2025-01-11 23:48:24
#Recorded file [27799 MB]: D:/data/31015_250112_114726.dat