passes_logs/2026/01/02/T1/T1__20260102_100914_SUOMI_NPP_rec.log

#Pass ID: 20260102_100914_SUOMI NPP
#Satellite: SUOMI NPP
#Configuration: NPP
#almurnet v.1.7.20251203
#Start time: 2026-01-02 10:09:15

#Version: 2.0.20230620
#Station: T1
#Location: 37.570604 lon 55.790049 lat
#TLE: 1 37849U 11061A   26001.07732418  .00000182  00000+0  10735-3 0  9990
#TLE: 2 37849  98.7795 303.2470 0002580  87.2016 272.9455 14.19520779734739

#Time	Az	El	Level	Level2	SNR	BER	BlckErr	Temp	State	Recorded	gain1	gain2
2026-01-02 10:09:15.55	165.19	5.08	-46.7	-64.4	3.8	1.49e+00	0	41	0	0	65	26914
2026-01-02 10:09:19.53	165.23	5.36	-48.3	-64.0	3.8	1.49e+00	0	41	104	0	67	22993
2026-01-02 10:09:23.52	165.28	5.66	-48.3	-64.1	3.8	1.49e+00	0	41	104	0	67	23291
2026-01-02 10:09:27.52	165.32	5.95	-48.2	-64.2	3.8	1.49e+00	0	42	104	0	67	23342
2026-01-02 10:09:31.51	165.36	6.25	-48.2	-63.6	3.8	1.49e+00	0	42	104	0	67	21996
2026-01-02 10:09:35.50	165.41	6.55	-48.2	-63.3	3.8	1.49e+00	0	42	104	0	67	21023
2026-01-02 10:09:39.49	165.45	6.86	-48.2	-63.1	3.8	1.49e+00	0	42	104	0	67	20609
2026-01-02 10:09:43.48	165.50	7.17	-48.2	-62.3	3.8	1.49e+00	0	42	104	0	67	18809
2026-01-02 10:09:47.47	165.54	7.48	-47.9	-59.6	4.5	1.13e+00	0	42	0	1048576	67	13772
2026-01-02 10:09:51.46	165.59	7.79	-47.5	-56.2	6.8	2.04e-01	0	42	0	8388608	66	9850
2026-01-02 10:09:55.45	165.64	8.12	-47.0	-54.1	8.8	4.19e-02	0	42	0	15728640	66	7746
2026-01-02 10:09:59.44	165.69	8.44	-47.2	-54.8	8.1	6.53e-02	0	43	0	23068672	65	8881
2026-01-02 10:10:03.43	165.74	8.77	-47.8	-58.1	5.3	4.60e-01	0	43	0	30408704	66	12358
2026-01-02 10:10:07.42	165.79	9.10	-47.9	-61.5	3.9	1.49e+00	0	43	104	33554432	67	17113
2026-01-02 10:10:11.42	165.84	9.44	-46.8	-56.7	6.2	1.38e+00	0	43	0	36700160	65	11136
2026-01-02 10:10:15.40	165.89	9.78	-44.7	-50.4	12.9	9.53e-05	0	43	0	44040192	61	6727
2026-01-02 10:10:19.40	165.95	10.13	-44.6	-49.5	13.7	3.19e-04	0	43	0	51380224	61	6130
2026-01-02 10:10:23.38	166.00	10.48	-44.5	-48.6	14.6	7.00e-07	0	43	0	58720256	60	5853
2026-01-02 10:10:27.37	166.06	10.84	-44.5	-48.2	15.0	0.00e+00	0	43	0	66060288	60	5575
2026-01-02 10:10:31.37	166.11	11.20	-44.3	-47.9	15.4	0.00e+00	0	43	0	73400320	60	5365
2026-01-02 10:10:35.35	166.17	11.57	-44.5	-48.0	15.3	0.00e+00	0	43	0	81788928	60	5421
2026-01-02 10:10:39.34	166.23	11.94	-44.3	-47.6	15.8	0.00e+00	0	43	0	89128960	60	5196
2026-01-02 10:10:43.33	166.29	12.32	-44.1	-47.3	16.0	0.00e+00	0	43	0	96468992	60	5031
2026-01-02 10:10:47.32	166.35	12.71	-43.9	-47.1	16.3	0.00e+00	0	43	0	103809024	59	5164
2026-01-02 10:10:51.32	166.41	13.10	-43.6	-46.6	16.7	0.00e+00	0	43	0	111149056	59	4883
2026-01-02 10:10:55.30	166.48	13.50	-43.5	-46.3	17.0	0.00e+00	0	43	0	118489088	58	5029
2026-01-02 10:10:59.29	166.54	13.90	-43.4	-46.2	17.1	0.00e+00	0	43	0	125829120	58	4945
2026-01-02 10:11:03.28	166.61	14.32	-43.2	-45.9	17.4	0.00e+00	0	43	0	133169152	58	4797
2026-01-02 10:11:07.27	166.68	14.73	-43.2	-45.9	17.5	0.00e+00	0	43	0	141557760	58	4785
2026-01-02 10:11:11.26	166.75	15.16	-42.9	-45.5	17.8	0.00e+00	0	44	0	148897792	57	4848
2026-01-02 10:11:15.25	166.82	15.59	-42.9	-45.4	17.9	0.00e+00	0	43	0	156237824	57	4780
2026-01-02 10:11:19.24	166.90	16.04	-42.9	-45.4	17.9	0.00e+00	0	43	0	163577856	57	4778
2026-01-02 10:11:23.23	166.97	16.49	-42.8	-45.4	17.9	0.00e+00	0	43	0	170917888	57	4780
2026-01-02 10:11:27.22	167.05	16.94	-42.7	-45.2	18.1	0.00e+00	0	43	0	178257920	57	4693
2026-01-02 10:11:31.21	167.13	17.41	-42.5	-44.9	18.4	0.00e+00	0	44	0	185597952	56	4806
2026-01-02 10:11:35.20	167.21	17.89	-42.3	-44.7	18.5	0.00e+00	0	43	0	193986560	56	4704
2026-01-02 10:11:39.19	167.30	18.37	-42.5	-45.0	18.3	0.00e+00	0	43	0	201326592	56	4848
2026-01-02 10:11:43.18	167.39	18.87	-42.8	-45.4	18.0	0.00e+00	0	43	0	208666624	56	5058
2026-01-02 10:11:47.16	167.47	19.37	-42.7	-45.2	18.2	0.00e+00	0	44	0	216006656	56	4943
2026-01-02 10:11:51.16	167.57	19.89	-42.7	-45.2	18.1	0.00e+00	0	44	0	223346688	56	4964
2026-01-02 10:11:55.14	167.66	20.41	-42.9	-45.5	17.9	0.00e+00	0	43	0	230686720	56	5109
2026-01-02 10:11:59.13	167.76	20.95	-43.1	-45.8	17.6	0.00e+00	0	43	0	238026752	56	5304
2026-01-02 10:12:03.12	167.86	21.50	-43.6	-46.3	17.1	0.00e+00	0	44	0	245366784	57	5293
2026-01-02 10:12:07.10	167.96	22.06	-43.6	-46.4	17.1	0.00e+00	0	44	0	253755392	58	5056
2026-01-02 10:12:11.09	168.07	22.63	-43.8	-46.6	16.9	0.00e+00	0	44	0	261095424	58	5197
2026-01-02 10:12:15.08	168.18	23.22	-43.8	-46.6	16.8	0.00e+00	0	44	0	268435456	58	5215
2026-01-02 10:12:19.07	168.30	23.82	-44.1	-47.1	16.4	0.00e+00	0	44	0	275775488	59	5174
2026-01-02 10:12:23.06	168.41	24.43	-43.9	-46.8	16.7	0.00e+00	0	44	0	283115520	59	5029
2026-01-02 10:12:27.05	168.54	25.06	-43.9	-46.7	16.8	0.00e+00	0	44	0	290455552	59	4944
2026-01-02 10:12:31.04	168.66	25.71	-44.2	-47.2	16.3	0.00e+00	0	44	0	297795584	59	5251
2026-01-02 10:12:35.03	168.80	26.37	-44.4	-47.3	16.2	0.00e+00	0	43	0	306184192	59	5322
2026-01-02 10:12:39.02	168.93	27.05	-43.9	-46.7	16.9	0.00e+00	0	44	0	313524224	59	4936
2026-01-02 10:12:43.01	169.08	27.74	-43.9	-46.6	16.9	0.00e+00	0	44	0	320864256	59	4898
2026-01-02 10:12:47.00	169.23	28.45	-44.1	-46.9	16.7	0.00e+00	0	44	0	328204288	59	5045
2026-01-02 10:12:50.99	169.38	29.18	-44.0	-46.8	16.7	0.00e+00	0	44	0	335544320	59	5008
2026-01-02 10:12:54.98	169.54	29.93	-44.2	-47.1	16.5	0.00e+00	0	44	0	342884352	59	5185
2026-01-02 10:12:58.97	169.71	30.70	-44.8	-48.1	15.6	0.00e+00	0	43	0	350224384	60	5479
2026-01-02 10:13:02.96	169.89	31.49	-45.0	-48.3	15.4	0.00e+00	0	44	0	358612992	60	5617
2026-01-02 10:13:06.95	170.07	32.30	-44.9	-48.1	15.6	0.00e+00	0	44	0	365953024	60	5481
2026-01-02 10:13:10.94	170.27	33.14	-45.4	-48.8	14.7	0.00e+00	0	44	0	373293056	61	5633
2026-01-02 10:13:14.93	170.47	34.00	-45.1	-48.3	15.4	0.00e+00	0	44	0	380633088	61	5318
2026-01-02 10:13:18.91	170.68	34.88	-44.1	-47.0	16.7	0.00e+00	0	44	0	387973120	60	4818
2026-01-02 10:13:22.90	170.91	35.78	-43.4	-46.0	17.6	0.00e+00	0	44	0	395313152	58	4845
2026-01-02 10:13:26.89	171.15	36.72	-42.8	-45.2	18.3	0.00e+00	0	44	0	402653184	57	4681
2026-01-02 10:13:30.88	171.40	37.67	-41.9	-44.3	19.0	0.00e+00	0	43	0	409993216	55	4706
2026-01-02 10:13:34.86	171.66	38.66	-41.9	-44.2	19.1	0.00e+00	0	44	0	418381824	54	4948
2026-01-02 10:13:38.85	171.94	39.68	-42.1	-44.4	18.9	0.00e+00	0	44	0	425721856	55	4780
2026-01-02 10:13:42.84	172.24	40.72	-43.4	-46.0	17.6	0.00e+00	0	44	0	433061888	57	5140
2026-01-02 10:13:46.83	172.56	41.80	-44.0	-46.7	16.8	0.00e+00	0	44	0	440401920	59	4957
2026-01-02 10:13:50.81	172.90	42.90	-43.9	-46.7	16.9	0.00e+00	0	43	0	447741952	59	4933
2026-01-02 10:13:54.81	173.26	44.05	-43.0	-45.5	18.0	0.00e+00	0	43	0	455081984	58	4584
2026-01-02 10:13:58.79	173.65	45.22	-44.2	-47.0	16.6	0.00e+00	0	44	0	462422016	59	5155
2026-01-02 10:14:02.79	174.07	46.43	-45.9	-49.6	14.1	0.00e+00	0	44	0	469762048	62	5817
2026-01-02 10:14:06.78	174.52	47.67	-45.3	-48.6	15.2	0.00e+00	0	44	0	478150656	62	5171
2026-01-02 10:14:10.77	175.01	48.94	-44.0	-46.7	17.0	0.00e+00	0	44	0	485490688	60	4697
2026-01-02 10:14:14.76	175.54	50.26	-42.3	-44.5	19.1	0.00e+00	0	44	0	492830720	56	4587
2026-01-02 10:14:18.75	176.12	51.60	-42.5	-44.8	18.5	0.00e+00	0	43	0	500170752	55	5022
2026-01-02 10:14:22.74	176.75	52.99	-41.9	-44.1	19.2	0.00e+00	0	44	0	507510784	55	4646
2026-01-02 10:14:26.73	177.44	54.41	-41.4	-43.6	19.7	0.00e+00	0	44	0	514850816	54	4625
2026-01-02 10:14:30.72	178.21	55.86	-40.1	-42.1	21.0	0.00e+00	0	44	0	522190848	52	4371
2026-01-02 10:14:34.71	179.05	57.35	-41.5	-43.7	19.6	0.00e+00	0	44	0	530579456	53	4961
2026-01-02 10:14:38.70	180.00	58.87	-40.8	-42.9	20.3	0.00e+00	0	44	0	537919488	53	4503
2026-01-02 10:14:42.69	181.06	60.43	-41.4	-43.6	19.6	0.00e+00	0	44	0	545259520	54	4626
2026-01-02 10:14:46.68	182.26	62.01	-40.3	-42.3	20.7	0.00e+00	0	43	0	552599552	52	4487
2026-01-02 10:14:50.67	183.62	63.62	-40.9	-43.1	20.1	0.00e+00	0	44	0	559939584	53	4601
2026-01-02 10:14:54.67	185.19	65.25	-41.5	-43.6	19.7	0.00e+00	0	44	0	567279616	54	4640
2026-01-02 10:14:58.66	187.00	66.90	-42.1	-44.4	19.0	0.00e+00	0	44	0	574619648	54	5058
2026-01-02 10:15:02.65	189.12	68.55	-42.8	-45.2	18.3	0.00e+00	0	44	0	583008256	57	4660
2026-01-02 10:15:06.64	191.61	70.20	-46.1	-49.9	13.9	1.50e-06	0	44	0	590348288	62	5995
2026-01-02 10:15:10.62	194.58	71.84	-45.7	-49.1	14.6	0.00e+00	0	44	0	597688320	63	5214
2026-01-02 10:15:14.61	198.17	73.44	-45.6	-49.3	14.8	7.00e-07	0	44	0	605028352	62	5595
2026-01-02 10:15:18.60	202.56	75.00	-42.8	-45.1	18.4	0.00e+00	0	44	0	612368384	57	4637
2026-01-02 10:15:22.58	207.96	76.46	-44.9	-48.1	15.7	0.00e+00	0	44	0	619708416	60	5466
2026-01-02 10:15:26.57	214.65	77.79	-43.6	-46.1	17.5	0.00e+00	0	44	0	627048448	58	4874
2026-01-02 10:15:30.56	222.88	78.94	-44.6	-47.7	16.2	0.00e+00	0	44	0	634388480	60	5223
2026-01-02 10:15:34.55	232.81	79.82	-44.0	-46.8	16.7	0.00e+00	0	44	0	641728512	59	5000
2026-01-02 10:15:38.54	244.23	80.35	-45.5	-49.0	14.8	0.00e+00	0	44	0	650117120	62	5439
2026-01-02 10:15:42.52	256.43	80.47	-45.2	-48.5	15.3	0.00e+00	0	44	0	657457152	62	5130
2026-01-02 10:15:46.52	268.45	80.17	-44.8	-47.9	16.1	0.00e+00	0	44	0	664797184	60	5352
2026-01-02 10:15:50.51	279.28	79.48	-45.7	-49.2	14.5	7.00e-07	0	44	0	672137216	62	5588
2026-01-02 10:15:54.50	288.47	78.48	-44.7	-47.8	15.9	0.00e+00	0	44	0	679477248	61	5000
2026-01-02 10:15:58.48	296.00	77.25	-45.7	-49.2	14.6	0.00e+00	0	44	0	686817280	62	5550
2026-01-02 10:16:02.47	302.10	75.85	-42.2	-44.4	19.1	0.00e+00	0	44	0	694157312	56	4531
2026-01-02 10:16:06.45	307.03	74.35	-45.6	-49.0	14.8	7.00e-07	0	44	0	702545920	62	5448
2026-01-02 10:16:10.44	311.05	72.77	-41.3	-43.4	19.9	0.00e+00	0	44	0	709885952	54	4525
2026-01-02 10:16:14.43	314.36	71.15	-46.8	-51.1	12.7	2.82e-05	0	44	0	717225984	64	6188
2026-01-02 10:16:18.42	317.12	69.51	-45.4	-48.6	15.2	0.00e+00	0	44	0	724566016	61	5526
2026-01-02 10:16:22.40	319.43	67.86	-45.7	-49.2	14.6	7.00e-07	0	44	0	731906048	62	5544
2026-01-02 10:16:26.40	321.41	66.21	-40.8	-42.9	20.4	0.00e+00	0	44	0	739246080	53	4506
2026-01-02 10:16:30.39	323.11	64.58	-41.0	-43.1	20.2	0.00e+00	0	44	0	746586112	54	4355
2026-01-02 10:16:34.37	324.58	62.97	-43.1	-45.7	18.1	0.00e+00	0	44	0	754974720	57	4952
2026-01-02 10:16:38.35	325.86	61.38	-41.6	-43.7	19.6	0.00e+00	0	44	0	762314752	54	4693
2026-01-02 10:16:42.34	327.00	59.81	-41.4	-43.6	19.8	0.00e+00	0	44	0	769654784	54	4608
2026-01-02 10:16:46.32	328.01	58.28	-45.3	-48.7	15.2	0.00e+00	0	44	0	776994816	61	5539
2026-01-02 10:16:50.31	328.91	56.77	-42.5	-44.9	18.7	0.00e+00	0	44	0	784334848	56	4802
2026-01-02 10:16:54.31	329.73	55.30	-42.8	-45.4	18.2	0.00e+00	0	44	0	791674880	56	5070
2026-01-02 10:16:58.30	330.46	53.87	-43.2	-45.9	17.8	0.00e+00	0	44	0	799014912	57	5085
2026-01-02 10:17:02.28	331.13	52.47	-42.4	-44.7	18.6	0.00e+00	0	44	0	806354944	55	4970
2026-01-02 10:17:06.28	331.74	51.10	-44.5	-47.4	16.5	0.00e+00	0	44	0	814743552	60	5067
2026-01-02 10:17:10.26	332.29	49.78	-43.7	-46.5	17.3	0.00e+00	0	44	0	822083584	59	4828
2026-01-02 10:17:14.25	332.81	48.48	-45.7	-49.3	14.6	0.00e+00	0	44	0	829423616	62	5596
2026-01-02 10:17:18.25	333.28	47.22	-43.2	-45.7	18.0	0.00e+00	0	44	0	836763648	58	4655
2026-01-02 10:17:22.24	333.72	46.00	-47.1	-52.2	11.5	5.39e-03	0	44	0	844103680	66	6268
2026-01-02 10:17:26.23	334.13	44.81	-43.4	-45.9	17.7	0.00e+00	0	44	0	851443712	58	4793
2026-01-02 10:17:30.23	334.51	43.65	-43.6	-46.2	17.6	0.00e+00	0	44	0	858783744	57	5250
2026-01-02 10:17:34.22	334.86	42.53	-45.4	-49.2	14.7	1.60e-05	0	44	0	867172352	62	5551
2026-01-02 10:17:38.23	335.19	41.44	-41.6	-43.9	19.5	0.00e+00	0	44	0	874512384	54	4779
2026-01-02 10:17:42.24	335.51	40.37	-43.0	-45.6	18.1	0.00e+00	0	44	0	881852416	57	4872
2026-01-02 10:17:46.24	335.80	39.34	-43.5	-46.3	17.4	0.00e+00	0	44	0	889192448	58	4988
2026-01-02 10:17:50.26	336.08	38.33	-43.7	-46.3	17.3	0.00e+00	0	44	0	896532480	58	5028
2026-01-02 10:17:54.27	336.34	37.36	-43.4	-46.0	17.6	0.00e+00	0	44	0	903872512	57	5126
2026-01-02 10:17:58.28	336.59	36.41	-46.5	-51.2	12.7	3.35e-05	0	44	0	912261120	63	6579
2026-01-02 10:18:02.29	336.82	35.49	-44.1	-47.4	16.2	0.00e+00	0	44	0	919601152	59	5376
2026-01-02 10:18:06.30	337.04	34.59	-42.1	-44.6	18.9	0.00e+00	0	44	0	926941184	55	4876
2026-01-02 10:18:10.31	337.26	33.72	-44.9	-48.3	15.5	0.00e+00	0	44	0	934281216	61	5308
2026-01-02 10:18:14.32	337.46	32.87	-46.1	-50.2	13.6	1.29e-05	0	44	0	941621248	63	5912
2026-01-02 10:18:18.33	337.65	32.04	-45.1	-48.8	15.0	0.00e+00	0	44	0	948961280	61	5608
2026-01-02 10:18:22.33	337.83	31.24	-43.9	-47.1	16.6	0.00e+00	0	44	0	957349888	59	5207
2026-01-02 10:18:26.34	338.01	30.46	-43.8	-46.7	16.9	0.00e+00	0	44	0	964689920	59	4980
2026-01-02 10:18:30.35	338.18	29.70	-43.3	-46.1	17.5	0.00e+00	0	44	0	972029952	58	4901
2026-01-02 10:18:34.36	338.34	28.96	-43.5	-46.4	17.3	0.00e+00	0	44	0	979369984	57	5348
2026-01-02 10:18:38.37	338.49	28.24	-44.9	-48.2	15.6	0.00e+00	0	44	0	986710016	60	5534
2026-01-02 10:18:42.38	338.64	27.53	-44.7	-48.0	15.7	0.00e+00	0	44	0	994050048	60	5454
2026-01-02 10:18:46.39	338.78	26.85	-43.4	-46.3	17.4	0.00e+00	0	44	0	1002438656	58	5005
2026-01-02 10:18:50.40	338.92	26.18	-42.2	-44.5	19.0	0.00e+00	0	44	0	1009778688	56	4583
2026-01-02 10:18:54.41	339.05	25.52	-41.4	-43.6	19.7	0.00e+00	0	44	0	1017118720	54	4645
2026-01-02 10:18:58.42	339.18	24.89	-40.9	-43.1	20.1	0.00e+00	0	44	0	1024458752	53	4640
2026-01-02 10:19:02.43	339.31	24.26	-41.1	-43.4	19.8	0.00e+00	0	44	0	1031798784	53	4773
2026-01-02 10:19:06.44	339.43	23.66	-41.3	-43.6	19.6	0.00e+00	0	44	0	1039138816	53	4878
2026-01-02 10:19:10.45	339.54	23.06	-41.9	-44.2	19.1	0.00e+00	0	44	0	1047527424	54	4962
2026-01-02 10:19:14.46	339.65	22.48	-42.4	-45.1	18.3	0.00e+00	0	44	0	1054867456	55	5160
2026-01-02 10:19:18.47	339.76	21.91	-42.4	-45.2	18.1	0.00e+00	0	44	0	1062207488	55	5264
2026-01-02 10:19:22.48	339.87	21.36	-42.1	-44.6	18.8	0.00e+00	0	44	0	1069547520	55	4887
2026-01-02 10:19:26.49	339.97	20.81	-42.2	-44.6	18.8	0.00e+00	0	44	0	1076887552	55	4894
2026-01-02 10:19:30.50	340.07	20.28	-42.1	-44.6	18.7	0.00e+00	0	44	0	1084227584	55	4908
2026-01-02 10:19:34.50	340.17	19.76	-42.1	-44.8	18.5	0.00e+00	0	44	0	1092616192	55	5024
2026-01-02 10:19:38.51	340.26	19.25	-41.9	-44.3	18.9	0.00e+00	0	44	0	1099956224	55	4754
2026-01-02 10:19:42.53	340.35	18.75	-41.7	-44.1	19.2	0.00e+00	0	44	0	1107296256	55	4602
2026-01-02 10:19:46.54	340.44	18.26	-41.6	-43.9	19.3	0.00e+00	0	44	0	1114636288	55	4516
2026-01-02 10:19:50.55	340.53	17.78	-41.6	-44.0	19.2	0.00e+00	0	44	0	1121976320	55	4560
2026-01-02 10:19:54.55	340.61	17.31	-41.9	-44.3	18.9	0.00e+00	0	44	0	1129316352	55	4754
2026-01-02 10:19:58.56	340.69	16.85	-42.3	-44.8	18.5	0.00e+00	0	44	0	1137704960	55	4984
2026-01-02 10:20:02.57	340.77	16.39	-43.0	-45.7	17.8	0.00e+00	0	44	0	1145044992	57	4935
2026-01-02 10:20:06.58	340.85	15.95	-43.1	-45.9	17.5	0.00e+00	0	43	0	1152385024	57	5097
2026-01-02 10:20:10.59	340.93	15.51	-43.1	-46.0	17.4	0.00e+00	0	44	0	1159725056	57	5157
2026-01-02 10:20:14.60	341.00	15.08	-43.0	-45.9	17.6	0.00e+00	0	44	0	1167065088	57	5061
2026-01-02 10:20:18.61	341.08	14.66	-42.9	-45.9	17.5	0.00e+00	0	44	0	1174405120	57	5067
2026-01-02 10:20:22.62	341.15	14.24	-42.7	-46.0	17.5	0.00e+00	0	44	0	1182793728	57	5101
2026-01-02 10:20:26.63	341.22	13.83	-42.6	-46.1	17.3	0.00e+00	0	43	0	1190133760	57	5204
2026-01-02 10:20:30.64	341.29	13.43	-42.6	-46.4	17.1	0.00e+00	0	44	0	1197473792	57	5341
2026-01-02 10:20:34.65	341.35	13.04	-42.8	-46.4	17.0	0.00e+00	0	43	0	1204813824	57	5373
2026-01-02 10:20:38.66	341.42	12.65	-43.2	-46.5	16.9	0.00e+00	0	44	0	1212153856	57	5448
2026-01-02 10:20:42.67	341.49	12.26	-43.3	-46.5	16.9	0.00e+00	0	43	0	1219493888	57	5410
2026-01-02 10:20:46.69	341.55	11.89	-43.3	-46.6	16.8	0.00e+00	0	44	0	1227882496	57	5467
2026-01-02 10:20:50.70	341.61	11.52	-43.4	-46.8	16.6	0.00e+00	0	44	0	1235222528	57	5608
2026-01-02 10:20:54.70	341.67	11.15	-43.7	-47.1	16.3	0.00e+00	0	43	0	1242562560	58	5486
2026-01-02 10:20:58.71	341.73	10.79	-43.6	-46.9	16.5	0.00e+00	0	43	0	1249902592	58	5344
2026-01-02 10:21:02.72	341.79	10.44	-43.8	-47.0	16.3	0.00e+00	0	44	0	1257242624	58	5437
2026-01-02 10:21:06.73	341.85	10.09	-43.5	-46.6	16.7	0.00e+00	0	44	0	1265631232	58	5208
2026-01-02 10:21:10.74	341.91	9.74	-43.5	-46.8	16.5	0.00e+00	0	44	0	1272971264	58	5299
2026-01-02 10:21:14.74	341.96	9.40	-43.3	-46.5	16.8	0.00e+00	0	43	0	1280311296	58	5122
2026-01-02 10:21:18.75	342.02	9.07	-43.2	-46.6	16.7	0.00e+00	0	44	0	1287651328	58	5200
2026-01-02 10:21:22.77	342.07	8.74	-48.6	-64.9	3.8	1.49e+00	0	43	104	1289748480	69	22775
2026-01-02 10:21:26.78	342.13	8.41	-49.1	-65.2	3.8	1.49e+00	0	44	104	1289748480	68	24896
2026-01-02 10:21:30.79	342.18	8.09	-50.1	-65.3	3.8	1.49e+00	0	44	104	1289748480	70	22378
2026-01-02 10:21:34.80	342.23	7.77	-49.8	-65.3	3.8	1.49e+00	0	44	104	1289748480	70	22360
2026-01-02 10:21:38.82	342.28	7.45	-50.1	-65.3	3.8	1.49e+00	0	44	104	1289748480	70	22398
2026-01-02 10:21:42.83	342.33	7.14	-50.0	-65.2	3.8	1.49e+00	0	44	104	1289748480	70	22204
2026-01-02 10:21:46.84	342.38	6.84	-49.8	-65.2	3.8	1.49e+00	0	43	104	1289748480	70	22203
2026-01-02 10:21:50.85	342.43	6.53	-49.8	-65.2	3.8	1.49e+00	0	43	104	1289748480	70	22182
2026-01-02 10:21:54.86	342.48	6.23	-49.8	-65.2	3.8	1.49e+00	0	43	104	1289748480	70	22098
2026-01-02 10:21:58.88	342.53	5.94	-49.8	-65.2	3.8	1.49e+00	0	44	104	1289748480	70	22080
2026-01-02 10:22:02.89	342.58	5.64	-49.8	-65.2	3.8	1.49e+00	0	43	104	1289748480	70	22020
2026-01-02 10:22:06.90	342.62	5.35	-49.8	-65.2	3.8	1.49e+00	0	44	104	1289748480	70	22012
2026-01-02 10:22:10.92	342.67	5.06	-49.7	-65.2	3.8	1.49e+00	0	43	104	1289748480	70	22073

#Closed at: 2026-01-02 10:22:12
#Recorded file [1289 MB]: D:/Data/31040_260102_130915.dat