passes_logs/2026/01/02/T1/T1__20260102_044743_FENGYUN_3E_rec.log

#Pass ID: 20260102_044743_FENGYUN 3E
#Satellite: FENGYUN 3E
#Configuration: FENGYUN 3E
#almurnet v.1.7.20251203
#Start time: 2026-01-02 04:47:44

#Version: 2.0.20230620
#Station: T1
#Location: 37.570604 lon 55.790049 lat
#TLE: 1 49008U 21062A   26001.26445318  .00000475  00000+0  24453-3 0  9990
#TLE: 2 49008  98.7480   6.5551 0001357 167.8415 192.2795 14.19884467232890

#Time	Az	El	Level	Level2	SNR	BER	BlckErr	Temp	State	Recorded	gain1	gain2
2026-01-02 04:47:44.53	11.19	5.10	-47.5	-60.6	3.8	8.47e-01	0	40	0	0	65	16271
2026-01-02 04:47:47.54	11.07	5.30	-47.5	-60.6	3.8	8.48e-01	0	40	104	0	64	17239
2026-01-02 04:47:50.56	10.94	5.51	-47.5	-60.7	3.8	8.47e-01	0	40	104	0	64	17386
2026-01-02 04:47:53.57	10.82	5.73	-47.5	-60.6	3.8	8.47e-01	0	40	104	0	64	17264
2026-01-02 04:47:56.58	10.69	5.94	-47.4	-60.4	3.8	8.48e-01	0	40	104	0	64	16768
2026-01-02 04:47:59.60	10.56	6.15	-47.4	-60.2	3.8	8.45e-01	0	41	104	0	64	16332
2026-01-02 04:48:02.61	10.43	6.37	-47.4	-59.9	3.8	8.46e-01	0	41	104	0	64	15798
2026-01-02 04:48:05.62	10.30	6.59	-47.4	-59.5	3.8	8.46e-01	0	41	104	0	64	15209
2026-01-02 04:48:08.63	10.16	6.80	-47.4	-59.4	3.8	8.47e-01	0	41	104	0	64	15022
2026-01-02 04:48:11.64	10.03	7.03	-47.4	-59.8	3.8	8.46e-01	0	41	104	0	64	15650
2026-01-02 04:48:14.65	9.89	7.25	-47.5	-60.7	3.8	8.47e-01	0	41	104	0	64	17364
2026-01-02 04:48:17.66	9.74	7.47	-47.5	-60.5	3.8	8.46e-01	0	41	104	0	64	16966
2026-01-02 04:48:20.68	9.60	7.70	-47.3	-58.1	3.9	8.43e-01	0	41	104	0	64	12811
2026-01-02 04:48:23.69	9.45	7.93	-46.7	-53.8	5.9	4.45e-01	0	42	0	1048576	64	7862
2026-01-02 04:48:26.70	9.30	8.16	-45.4	-49.7	10.0	1.16e-02	0	41	0	23068672	61	5812
2026-01-02 04:48:29.71	9.15	8.39	-44.0	-46.8	12.9	9.15e-05	0	42	0	44040192	58	4933
2026-01-02 04:48:32.72	9.00	8.62	-43.1	-45.5	14.2	1.10e-06	0	42	0	66060288	57	4509
2026-01-02 04:48:35.74	8.84	8.86	-43.8	-46.5	13.2	1.37e-05	0	42	0	88080384	57	5052
2026-01-02 04:48:38.75	8.68	9.10	-46.3	-52.4	7.3	4.90e-02	0	42	0	110100480	62	7520
2026-01-02 04:48:41.76	8.51	9.34	-46.2	-51.3	8.4	2.98e-01	0	42	0	126877696	63	6229
2026-01-02 04:48:44.76	8.35	9.58	-40.1	-41.5	18.1	0.00e+00	0	42	0	147849216	51	4013
2026-01-02 04:48:47.88	8.17	9.83	-39.6	-40.9	18.7	0.00e+00	0	42	0	170917888	50	3992
2026-01-02 04:48:50.75	8.01	10.07	-39.4	-40.7	18.9	0.00e+00	0	42	0	191889408	49	4114
2026-01-02 04:48:53.90	7.83	10.33	-39.4	-40.7	18.9	0.00e+00	0	42	0	213909504	49	4111
2026-01-02 04:48:56.76	7.66	10.56	-39.4	-40.7	19.0	0.00e+00	0	42	0	234881024	49	4112
2026-01-02 04:49:00.03	7.46	10.84	-39.3	-40.6	19.0	0.00e+00	0	42	0	257949696	49	4073
2026-01-02 04:49:02.96	7.28	11.09	-39.2	-40.5	19.1	0.00e+00	0	42	0	279969792	49	4035
2026-01-02 04:49:06.11	7.08	11.36	-39.3	-40.5	19.1	0.00e+00	0	42	0	301989888	49	4040
2026-01-02 04:49:09.12	6.89	11.62	-38.9	-40.2	19.5	0.00e+00	0	42	0	324009984	48	4106
2026-01-02 04:49:12.51	6.67	11.91	-39.0	-40.2	19.5	0.00e+00	0	42	0	349175808	48	4131
2026-01-02 04:49:15.47	6.47	12.18	-38.8	-40.0	19.6	0.00e+00	0	42	0	370147328	48	4039
2026-01-02 04:49:18.76	6.25	12.47	-38.7	-39.8	19.8	0.00e+00	0	42	0	394264576	48	3942
2026-01-02 04:49:21.49	6.06	12.71	-38.7	-39.9	19.8	0.00e+00	0	42	0	413138944	48	3983
2026-01-02 04:49:24.78	5.83	13.01	-38.8	-40.0	19.7	0.00e+00	0	42	0	437256192	48	4027
2026-01-02 04:49:27.50	5.63	13.26	-38.9	-40.0	19.7	0.00e+00	0	42	0	457179136	48	4041
2026-01-02 04:49:30.79	5.39	13.57	-38.6	-39.7	19.9	0.00e+00	0	42	0	481296384	48	3910
2026-01-02 04:49:33.52	5.18	13.82	-38.7	-39.8	19.9	0.00e+00	0	42	0	500170752	48	3948
2026-01-02 04:49:36.81	4.93	14.13	-38.4	-39.5	19.9	0.00e+00	0	42	0	524288000	47	4031
2026-01-02 04:49:39.58	4.72	14.40	-38.4	-39.5	19.9	0.00e+00	0	42	0	544210944	47	4048
2026-01-02 04:49:43.58	4.40	14.78	-38.4	-39.5	19.9	0.00e+00	0	42	0	572522496	46	4274
2026-01-02 04:49:46.33	4.17	15.05	-38.2	-39.3	20.2	0.00e+00	0	43	0	592445440	46	4168
2026-01-02 04:49:50.10	3.86	15.43	-37.9	-39.0	20.5	0.00e+00	0	43	0	619708416	46	4005
2026-01-02 04:49:52.93	3.62	15.71	-37.9	-38.9	20.5	0.00e+00	0	42	0	640679936	46	4001
2026-01-02 04:49:57.06	3.25	16.13	-37.8	-38.9	20.6	0.00e+00	0	43	0	670040064	46	3975
2026-01-02 04:49:59.81	3.01	16.41	-37.9	-39.0	20.5	0.00e+00	0	42	0	689963008	46	4006
2026-01-02 04:50:03.56	2.66	16.80	-37.9	-38.9	20.5	0.00e+00	0	43	0	717225984	46	4001
2026-01-02 04:50:06.32	2.40	17.08	-37.8	-38.9	20.6	0.00e+00	0	42	0	737148928	46	3975
2026-01-02 04:50:10.24	2.03	17.50	-37.7	-38.7	20.8	0.00e+00	0	43	0	765460480	46	3911
2026-01-02 04:50:12.98	1.76	17.79	-37.7	-38.7	20.8	0.00e+00	0	42	0	785383424	45	4117
2026-01-02 04:50:16.73	1.38	18.20	-37.4	-38.4	21.1	0.00e+00	0	43	0	811597824	45	3965
2026-01-02 04:50:19.48	1.09	18.50	-37.3	-38.2	21.2	0.00e+00	0	43	0	831520768	45	3900
2026-01-02 04:50:22.78	0.74	18.87	-36.8	-37.8	21.7	0.00e+00	0	43	0	855638016	44	3914
2026-01-02 04:50:25.50	0.45	19.17	-36.9	-37.8	21.6	0.00e+00	0	42	0	875560960	44	3950
2026-01-02 04:50:28.80	0.08	19.54	-36.9	-37.8	21.6	0.00e+00	0	43	0	899678208	44	3940
2026-01-02 04:50:31.70	359.75	19.88	-36.8	-37.7	21.7	0.00e+00	0	43	0	920649728	44	3897
2026-01-02 04:50:34.84	359.39	20.24	-36.6	-37.5	21.8	0.00e+00	0	43	0	942669824	43	4047
2026-01-02 04:50:37.71	359.05	20.58	-36.7	-37.6	21.7	0.00e+00	0	43	0	963641344	43	4091
2026-01-02 04:50:41.00	358.65	20.97	-36.7	-37.6	21.7	0.00e+00	0	43	0	987758592	43	4069
2026-01-02 04:50:43.72	358.31	21.29	-36.1	-37.0	22.3	0.00e+00	0	43	0	1006632960	42	4006
2026-01-02 04:50:47.01	357.89	21.69	-36.1	-36.9	22.4	0.00e+00	0	43	0	1030750208	42	3982
2026-01-02 04:50:49.74	357.53	22.02	-36.1	-37.0	22.3	0.00e+00	0	42	0	1050673152	42	4015
2026-01-02 04:50:53.15	357.07	22.44	-36.0	-36.8	22.4	0.00e+00	0	43	0	1074790400	42	3949
2026-01-02 04:50:55.95	356.68	22.79	-36.3	-37.2	22.1	0.00e+00	0	43	0	1095761920	42	4132
2026-01-02 04:50:59.31	356.21	23.21	-36.5	-37.4	22.0	0.00e+00	0	43	0	1119879168	43	3964
2026-01-02 04:51:02.03	355.82	23.56	-36.5	-37.4	22.0	0.00e+00	0	43	0	1138753536	43	3972
2026-01-02 04:51:05.34	355.32	23.99	-36.4	-37.3	22.0	0.00e+00	0	43	0	1162870784	42	4171
2026-01-02 04:51:08.06	354.91	24.34	-36.6	-37.4	21.9	0.00e+00	0	43	0	1182793728	42	4242
2026-01-02 04:51:11.38	354.39	24.78	-36.7	-37.5	21.8	0.00e+00	0	43	0	1206910976	43	4047
2026-01-02 04:51:14.16	353.94	25.14	-36.6	-37.5	21.9	0.00e+00	0	43	0	1226833920	43	4005
2026-01-02 04:51:17.46	353.40	25.58	-36.8	-37.7	21.7	0.00e+00	0	43	0	1250951168	43	4120
2026-01-02 04:51:20.18	352.94	25.95	-36.8	-37.7	21.7	0.00e+00	0	43	0	1269825536	43	4116
2026-01-02 04:51:23.47	352.37	26.40	-36.9	-37.8	21.6	0.00e+00	0	43	0	1293942784	43	4169
2026-01-02 04:51:26.20	351.88	26.77	-36.9	-37.9	21.6	0.00e+00	0	43	0	1313865728	43	4205
2026-01-02 04:51:29.49	351.28	27.23	-36.8	-37.6	21.7	0.00e+00	0	43	0	1337982976	43	4096
2026-01-02 04:51:32.22	350.77	27.61	-36.6	-37.5	21.9	0.00e+00	0	43	0	1356857344	43	4030
2026-01-02 04:51:35.78	350.08	28.11	-36.4	-37.3	22.1	0.00e+00	0	43	0	1383071744	42	4158
2026-01-02 04:51:38.49	349.54	28.50	-36.1	-37.0	22.3	0.00e+00	0	43	0	1402994688	42	4031
2026-01-02 04:51:41.78	348.87	28.97	-35.9	-36.7	22.6	0.00e+00	0	43	0	1426063360	41	4141
2026-01-02 04:51:44.60	348.27	29.37	-35.9	-36.8	22.6	0.00e+00	0	43	0	1447034880	41	4159
2026-01-02 04:51:47.75	347.59	29.83	-35.8	-36.7	22.6	0.00e+00	0	43	0	1469054976	41	4112
2026-01-02 04:51:50.62	346.96	30.25	-35.9	-36.7	22.5	0.00e+00	0	43	0	1490026496	41	4142
2026-01-02 04:51:53.77	346.24	30.71	-35.9	-36.8	22.5	0.00e+00	0	43	0	1513095168	41	4168
2026-01-02 04:51:56.63	345.57	31.13	-36.0	-36.8	22.5	0.00e+00	0	43	0	1533018112	41	4190
2026-01-02 04:51:59.92	344.77	31.61	-36.0	-36.9	22.4	0.00e+00	0	43	0	1557135360	41	4221
2026-01-02 04:52:02.84	344.05	32.04	-36.1	-36.9	22.4	0.00e+00	0	43	0	1578106880	42	4003
2026-01-02 04:52:06.84	343.02	32.64	-36.2	-37.1	22.3	0.00e+00	0	43	0	1607467008	42	4054
2026-01-02 04:52:09.59	342.29	33.05	-36.0	-36.9	22.5	0.00e+00	0	43	0	1627389952	42	3968
2026-01-02 04:52:13.24	341.30	33.59	-35.8	-36.7	22.7	0.00e+00	0	43	0	1653604352	41	4104
2026-01-02 04:52:16.20	340.47	34.03	-35.7	-36.5	22.7	0.00e+00	0	43	0	1674575872	41	4040
2026-01-02 04:52:19.49	339.52	34.51	-35.4	-36.3	23.0	0.00e+00	0	43	0	1698693120	41	3929
2026-01-02 04:52:22.21	338.71	34.92	-35.3	-36.2	23.0	0.00e+00	0	43	0	1717567488	41	3885
2026-01-02 04:52:25.65	337.66	35.42	-35.2	-36.1	23.2	0.00e+00	0	43	0	1742733312	41	3836
2026-01-02 04:52:28.71	336.69	35.87	-35.5	-36.4	22.8	0.00e+00	0	43	0	1764753408	41	3990
2026-01-02 04:52:31.62	335.75	36.29	-36.0	-36.9	22.4	0.00e+00	0	43	0	1785724928	41	4221
2026-01-02 04:52:34.62	334.76	36.72	-36.2	-37.1	22.4	0.00e+00	0	43	0	1807745024	42	4054
2026-01-02 04:52:37.82	333.66	37.18	-36.2	-37.0	22.4	0.00e+00	0	43	0	1830813696	42	4049
2026-01-02 04:52:40.77	332.63	37.59	-36.2	-37.1	22.3	0.00e+00	0	43	0	1851785216	42	4086
2026-01-02 04:52:44.11	331.42	38.05	-36.2	-37.1	22.3	0.00e+00	0	43	0	1875902464	42	4065
2026-01-02 04:52:46.85	330.41	38.42	-36.1	-36.9	22.5	0.00e+00	0	43	0	1895825408	42	3985
2026-01-02 04:52:50.15	329.16	38.86	-36.2	-37.0	22.4	0.00e+00	0	43	0	1919942656	42	4044
2026-01-02 04:52:53.10	328.01	39.25	-35.8	-36.7	22.6	0.00e+00	0	43	0	1940914176	42	3883
2026-01-02 04:52:56.91	326.49	39.73	-36.2	-37.0	22.3	0.00e+00	0	43	0	1968177152	42	4048
2026-01-02 04:52:59.77	325.32	40.08	-36.6	-37.5	22.0	0.00e+00	0	43	0	1989148672	42	4260
2026-01-02 04:53:02.97	323.97	40.46	-36.0	-36.8	22.6	0.00e+00	0	43	0	2012217344	42	3939
2026-01-02 04:53:05.98	322.68	40.81	-35.8	-36.7	22.7	0.00e+00	0	43	0	2034237440	42	3872
2026-01-02 04:53:08.99	321.36	41.14	-35.8	-36.7	22.7	0.00e+00	0	43	0	2056257536	42	3869
2026-01-02 04:53:12.00	320.01	41.46	-36.1	-37.0	22.4	0.00e+00	0	43	0	2077229056	42	4024
2026-01-02 04:53:15.01	318.64	41.76	-36.4	-37.3	22.1	0.00e+00	0	43	0	2099249152	42	4184
2026-01-02 04:53:18.01	317.25	42.04	-36.2	-37.1	22.3	0.00e+00	0	43	0	2121269248	42	4076
2026-01-02 04:53:21.02	315.83	42.31	-35.9	-36.7	22.6	0.00e+00	0	43	0	2142240768	42	3910
2026-01-02 04:53:24.03	314.38	42.56	-36.0	-36.8	22.6	0.00e+00	0	43	0	2164260864	42	3941
2026-01-02 04:53:27.04	312.91	42.79	-36.2	-37.1	22.3	0.00e+00	0	43	0	2186280960	42	4072
2026-01-02 04:53:30.05	311.42	42.99	-36.3	-37.2	22.2	0.00e+00	0	43	0	2208301056	42	4137
2026-01-02 04:53:33.06	309.92	43.18	-36.3	-37.1	22.3	0.00e+00	0	43	0	2229272576	42	4087
2026-01-02 04:53:36.18	308.34	43.35	-36.3	-37.2	22.2	0.00e+00	0	43	0	2252341248	42	4125
2026-01-02 04:53:39.12	306.84	43.49	-36.1	-37.0	22.4	0.00e+00	0	43	0	2273312768	42	4019
2026-01-02 04:53:42.75	304.96	43.64	-35.8	-36.6	22.7	0.00e+00	0	43	0	2299527168	42	3862
2026-01-02 04:53:45.75	303.40	43.73	-36.2	-37.1	22.3	0.00e+00	0	43	0	2321547264	42	4066
2026-01-02 04:53:48.75	301.84	43.80	-36.2	-37.1	22.3	0.00e+00	0	43	0	2342518784	42	4069
2026-01-02 04:53:51.76	300.26	43.84	-35.9	-36.7	22.6	0.00e+00	0	43	0	2364538880	42	3900
2026-01-02 04:53:54.76	298.68	43.86	-36.2	-37.0	22.4	0.00e+00	0	43	0	2386558976	42	4045
2026-01-02 04:53:57.77	297.10	43.86	-36.0	-36.8	22.5	0.00e+00	0	43	0	2407530496	42	3943
2026-01-02 04:54:00.78	295.52	43.83	-36.3	-37.2	22.2	0.00e+00	0	43	0	2429550592	42	4114
2026-01-02 04:54:03.75	293.96	43.78	-36.3	-37.2	22.2	0.00e+00	0	43	0	2451570688	42	4107
2026-01-02 04:54:07.27	292.13	43.69	-36.2	-37.1	22.4	0.00e+00	0	43	0	2476736512	42	4060
2026-01-02 04:54:10.26	290.57	43.58	-35.9	-36.7	22.7	0.00e+00	0	43	0	2497708032	42	3893
2026-01-02 04:54:13.27	289.03	43.46	-36.0	-36.8	22.5	0.00e+00	0	43	0	2519728128	42	3954
2026-01-02 04:54:16.27	287.49	43.31	-35.9	-36.7	22.7	0.00e+00	0	43	0	2541748224	42	3889
2026-01-02 04:54:19.26	285.98	43.13	-35.8	-36.7	22.7	0.00e+00	0	43	0	2562719744	42	3870
2026-01-02 04:54:22.64	284.30	42.92	-35.6	-36.5	22.9	0.00e+00	0	43	0	2587885568	42	3788
2026-01-02 04:54:25.36	282.95	42.72	-35.5	-36.3	23.0	0.00e+00	0	43	0	2606759936	41	3948
2026-01-02 04:54:28.66	281.35	42.46	-35.8	-36.6	22.7	0.00e+00	0	43	0	2630877184	41	4095
2026-01-02 04:54:31.38	280.05	42.23	-36.0	-36.9	22.5	0.00e+00	0	43	0	2650800128	41	4196
2026-01-02 04:54:34.78	278.45	41.92	-35.8	-36.7	22.6	0.00e+00	0	43	0	2674917376	41	4125
2026-01-02 04:54:37.51	277.19	41.66	-35.6	-36.4	22.8	0.00e+00	0	43	0	2694840320	41	4003
2026-01-02 04:54:40.80	275.69	41.32	-35.7	-36.6	22.7	0.00e+00	0	43	0	2718957568	41	4065
2026-01-02 04:54:43.60	274.45	41.02	-35.6	-36.5	22.8	0.00e+00	0	43	0	2738880512	41	4017
2026-01-02 04:54:47.06	272.94	40.63	-35.9	-36.7	22.6	0.00e+00	0	43	0	2764046336	41	4137
2026-01-02 04:54:49.77	271.78	40.31	-35.9	-36.8	22.5	0.00e+00	0	43	0	2782920704	41	4176
2026-01-02 04:54:53.07	270.41	39.92	-36.0	-36.8	22.3	0.00e+00	0	43	0	2807037952	41	4175
2026-01-02 04:54:56.21	269.13	39.52	-36.1	-37.0	22.4	0.00e+00	0	43	0	2830106624	42	4028
2026-01-02 04:54:59.25	267.92	39.13	-35.8	-36.7	22.7	0.00e+00	0	43	0	2852126720	42	3892
2026-01-02 04:55:02.25	266.76	38.74	-36.0	-36.9	22.5	0.00e+00	0	43	0	2873098240	42	3978
2026-01-02 04:55:05.26	265.62	38.33	-35.8	-36.7	22.7	0.00e+00	0	43	0	2895118336	42	3871
2026-01-02 04:55:08.27	264.51	37.92	-35.7	-36.5	22.8	0.00e+00	0	43	0	2917138432	41	4030
2026-01-02 04:55:11.28	263.43	37.50	-36.0	-36.9	22.4	0.00e+00	0	43	0	2938109952	41	4204
2026-01-02 04:55:14.27	262.38	37.08	-35.8	-36.6	22.7	0.00e+00	0	43	0	2960130048	41	4089
2026-01-02 04:55:17.57	261.26	36.60	-35.6	-36.4	22.9	0.00e+00	0	43	0	2984247296	41	3985
2026-01-02 04:55:20.29	260.36	36.21	-35.4	-36.2	23.0	0.00e+00	0	43	0	3004170240	41	3912
2026-01-02 04:55:23.65	259.27	35.72	-35.5	-36.4	22.9	0.00e+00	0	43	0	3028287488	41	3978
2026-01-02 04:55:26.45	258.39	35.31	-35.8	-36.7	22.6	0.00e+00	0	43	0	3048210432	41	4099
2026-01-02 04:55:29.74	257.39	34.82	-35.4	-36.3	22.9	0.00e+00	0	43	0	3072327680	41	3921
2026-01-02 04:55:32.46	256.58	34.42	-35.2	-36.1	23.1	0.00e+00	0	43	0	3091202048	41	3828
2026-01-02 04:55:35.79	255.61	33.92	-35.7	-36.6	22.7	0.00e+00	0	43	0	3115319296	41	4067
2026-01-02 04:55:38.51	254.85	33.52	-35.8	-36.6	22.7	0.00e+00	0	43	0	3135242240	41	4089
2026-01-02 04:55:41.80	253.95	33.03	-35.8	-36.6	22.7	0.00e+00	0	43	0	3159359488	41	4075
2026-01-02 04:55:44.52	253.23	32.62	-35.7	-36.5	22.8	0.00e+00	0	43	0	3178233856	41	4019
2026-01-02 04:55:47.82	252.37	32.13	-35.8	-36.7	22.6	0.00e+00	0	43	0	3202351104	41	4117
2026-01-02 04:55:50.60	251.67	31.72	-35.3	-36.2	23.1	0.00e+00	0	43	0	3222274048	41	3872
2026-01-02 04:55:54.59	250.70	31.12	-35.2	-36.0	23.2	0.00e+00	0	43	0	3251634176	41	3801
2026-01-02 04:55:57.33	250.05	30.72	-35.6	-36.4	22.9	0.00e+00	0	43	0	3270508544	41	3986
2026-01-02 04:56:01.11	249.19	30.16	-35.9	-36.8	22.5	0.00e+00	0	43	0	3297771520	41	4155
2026-01-02 04:56:03.93	248.56	29.75	-36.3	-37.2	22.2	0.00e+00	0	43	0	3318743040	42	4108
2026-01-02 04:56:07.10	247.87	29.29	-36.2	-37.0	22.3	0.00e+00	0	43	0	3341811712	42	4035
2026-01-02 04:56:10.47	247.16	28.80	-35.8	-36.7	22.6	0.00e+00	0	43	0	3365928960	42	3871
2026-01-02 04:56:13.25	246.59	28.41	-35.9	-36.7	22.6	0.00e+00	0	43	0	3385851904	42	3892
2026-01-02 04:56:16.67	245.91	27.92	-36.0	-36.8	22.5	0.00e+00	0	43	0	3409969152	42	3954
2026-01-02 04:56:19.46	245.37	27.52	-36.0	-36.8	22.5	0.00e+00	0	43	0	3430940672	42	3940
2026-01-02 04:56:22.76	244.75	27.06	-35.8	-36.7	22.6	0.00e+00	0	43	0	3454009344	42	3878
2026-01-02 04:56:25.47	244.26	26.68	-35.8	-36.7	22.7	0.00e+00	0	43	0	3473932288	42	3870
2026-01-02 04:56:28.77	243.67	26.23	-36.0	-36.9	22.4	0.00e+00	0	43	0	3498049536	42	3981
2026-01-02 04:56:31.62	243.17	25.84	-36.0	-36.9	22.5	0.00e+00	0	43	0	3517972480	42	3965
2026-01-02 04:56:34.87	242.62	25.40	-36.0	-36.8	22.5	0.00e+00	0	43	0	3542089728	42	3939
2026-01-02 04:56:37.76	242.14	25.01	-35.9	-36.7	22.5	0.00e+00	0	43	0	3563061248	42	3908
2026-01-02 04:56:40.91	241.64	24.59	-36.0	-36.9	22.4	0.00e+00	0	43	0	3585081344	42	3978
2026-01-02 04:56:43.85	241.18	24.21	-36.1	-36.9	22.4	0.00e+00	0	43	0	3607101440	42	3983
2026-01-02 04:56:47.02	240.69	23.79	-36.4	-37.3	22.0	0.00e+00	0	43	0	3629121536	42	4172
2026-01-02 04:56:49.88	240.27	23.43	-36.3	-37.2	22.2	0.00e+00	0	43	0	3650093056	42	4107
2026-01-02 04:56:53.03	239.81	23.02	-35.9	-36.8	22.5	0.00e+00	0	43	0	3673161728	42	3922
2026-01-02 04:56:55.90	239.41	22.66	-36.1	-36.9	22.3	0.00e+00	0	43	0	3694133248	42	3990
2026-01-02 04:56:59.11	238.96	22.26	-36.3	-37.2	22.1	0.00e+00	0	43	0	3717201920	42	4130
2026-01-02 04:57:02.36	238.52	21.86	-36.5	-37.4	22.0	0.00e+00	0	43	0	3740270592	42	4201
2026-01-02 04:57:05.26	238.14	21.50	-36.5	-37.3	22.0	0.00e+00	0	43	0	3761242112	42	4188
2026-01-02 04:57:08.41	237.74	21.12	-36.6	-37.5	21.8	0.00e+00	0	43	0	3784310784	42	4267
2026-01-02 04:57:11.27	237.38	20.78	-36.8	-37.7	21.6	0.00e+00	0	43	0	3804233728	43	4134
2026-01-02 04:57:14.62	236.97	20.38	-36.7	-37.6	21.7	0.00e+00	0	43	0	3828350976	43	4097
2026-01-02 04:57:17.34	236.65	20.06	-36.7	-37.6	21.8	0.00e+00	0	43	0	3848273920	43	4056
2026-01-02 04:57:20.63	236.27	19.68	-36.7	-37.6	21.7	0.00e+00	0	43	0	3872391168	43	4084
2026-01-02 04:57:23.35	235.96	19.37	-37.1	-38.0	21.4	0.00e+00	0	43	0	3892314112	43	4254
2026-01-02 04:57:26.65	235.59	19.00	-37.5	-38.4	21.1	0.00e+00	0	43	0	3915382784	44	4233
2026-01-02 04:57:29.37	235.29	18.69	-37.5	-38.4	21.1	0.00e+00	0	43	0	3935305728	44	4209
2026-01-02 04:57:32.67	234.94	18.32	-37.4	-38.3	21.2	0.00e+00	0	43	0	3959422976	44	4167
2026-01-02 04:57:35.61	234.64	18.00	-37.4	-38.3	21.2	0.00e+00	0	43	0	3980394496	44	4186
2026-01-02 04:57:39.23	234.27	17.61	-37.6	-38.5	21.0	0.00e+00	0	43	0	4006608896	44	4267
2026-01-02 04:57:42.11	233.99	17.30	-37.6	-38.5	21.0	0.00e+00	0	43	0	4027580416	44	4289
2026-01-02 04:57:45.32	233.68	16.96	-37.7	-38.6	20.9	0.00e+00	0	43	0	4050649088	44	4332
2026-01-02 04:57:48.17	233.41	16.66	-37.8	-38.8	20.7	0.00e+00	0	43	0	4070572032	45	4172
2026-01-02 04:57:51.74	233.08	16.29	-38.0	-38.9	20.6	0.00e+00	0	43	0	4096786432	45	4236
2026-01-02 04:57:54.46	232.83	16.01	-38.1	-39.1	20.5	0.00e+00	0	43	0	4116709376	45	4299
2026-01-02 04:57:57.75	232.54	15.67	-38.3	-39.3	20.3	0.00e+00	0	43	0	4139778048	46	4158
2026-01-02 04:58:00.57	232.29	15.39	-38.5	-39.5	20.0	0.00e+00	0	43	0	4160749568	46	4274
2026-01-02 04:58:03.72	232.02	15.08	-38.4	-39.3	20.2	0.00e+00	0	43	0	4182769664	46	4190
2026-01-02 04:58:06.59	231.78	14.79	-38.5	-39.5	20.1	0.00e+00	0	43	0	4203741184	46	4243
2026-01-02 04:58:09.74	231.53	14.49	-38.3	-39.2	20.3	0.00e+00	0	43	0	4226809856	46	4133
2026-01-02 04:58:12.86	231.28	14.19	-38.4	-39.3	20.1	0.00e+00	0	43	0	4248829952	46	4185
2026-01-02 04:58:15.77	231.05	13.91	-38.2	-39.2	20.3	0.00e+00	0	43	0	4269801472	46	4121
2026-01-02 04:58:19.07	230.80	13.60	-38.3	-39.3	20.2	0.00e+00	0	43	0	4293918720	46	4164
2026-01-02 04:58:21.79	230.59	13.34	-38.5	-39.4	20.0	0.00e+00	0	43	0	4313841664	46	4238
2026-01-02 04:58:25.09	230.35	13.04	-38.6	-39.6	19.9	0.00e+00	0	43	0	4337958912	46	4293
2026-01-02 04:58:27.89	230.15	12.78	-38.7	-39.7	19.8	0.00e+00	0	43	0	4357881856	47	4129
2026-01-02 04:58:31.23	229.91	12.48	-38.8	-39.8	19.6	0.00e+00	0	43	0	4381999104	47	4190
2026-01-02 04:58:33.96	229.72	12.23	-38.9	-39.9	19.5	0.00e+00	0	43	0	4401922048	47	4240
2026-01-02 04:58:37.25	229.49	11.94	-39.0	-40.1	19.4	0.00e+00	0	43	0	4424990720	47	4296
2026-01-02 04:58:39.97	229.31	11.70	-39.0	-40.1	19.4	0.00e+00	0	43	0	4444913664	47	4298
2026-01-02 04:58:43.28	229.09	11.41	-39.2	-40.3	19.2	0.00e+00	0	43	0	4469030912	47	4400
2026-01-02 04:58:46.30	228.90	11.15	-39.5	-40.6	19.1	0.00e+00	0	43	0	4491051008	48	4309
2026-01-02 04:58:49.32	228.71	10.89	-39.6	-40.6	19.1	0.00e+00	0	43	0	4512022528	48	4324
2026-01-02 04:58:52.25	228.52	10.64	-39.6	-40.6	19.0	0.00e+00	0	43	0	4534042624	48	4321
2026-01-02 04:58:55.60	228.32	10.36	-39.7	-40.8	18.8	0.00e+00	0	43	0	4558159872	48	4431
2026-01-02 04:58:58.33	228.16	10.13	-39.8	-40.8	18.8	0.00e+00	0	43	0	4577034240	49	4189
2026-01-02 04:59:01.56	227.96	9.86	-39.9	-41.0	18.6	0.00e+00	0	43	0	4601151488	49	4279
2026-01-02 04:59:04.42	227.80	9.63	-39.8	-41.0	18.7	0.00e+00	0	43	0	4621074432	49	4248
2026-01-02 04:59:07.57	227.62	9.37	-39.8	-40.9	18.7	0.00e+00	0	43	0	4644143104	49	4236
2026-01-02 04:59:10.47	227.46	9.14	-39.8	-40.9	18.6	0.00e+00	0	43	0	4665114624	49	4239
2026-01-02 04:59:13.62	227.28	8.89	-50.4	-60.8	3.8	8.47e-01	0	43	104	4682940416	70	12487
2026-01-02 04:59:16.49	227.13	8.66	-50.3	-61.4	3.8	8.46e-01	0	43	104	4682940416	70	13402
2026-01-02 04:59:19.65	226.96	8.41	-50.7	-61.5	3.8	8.47e-01	0	43	104	4682940416	70	13550
2026-01-02 04:59:22.51	226.81	8.19	-50.8	-61.6	3.8	8.46e-01	0	43	104	4682940416	71	12887
2026-01-02 04:59:25.72	226.65	7.94	-50.8	-61.6	3.8	8.46e-01	0	43	104	4682940416	71	12824
2026-01-02 04:59:28.59	226.50	7.72	-50.8	-61.5	3.8	8.46e-01	0	43	104	4682940416	71	12752
2026-01-02 04:59:31.75	226.35	7.48	-50.7	-61.5	3.8	8.47e-01	0	43	104	4682940416	71	12751
2026-01-02 04:59:34.61	226.21	7.27	-50.6	-61.6	3.8	8.46e-01	0	43	104	4682940416	71	12817
2026-01-02 04:59:37.77	226.05	7.03	-50.6	-61.4	3.8	8.47e-01	0	44	104	4682940416	71	12575
2026-01-02 04:59:40.64	225.92	6.82	-50.6	-61.4	3.8	8.47e-01	0	43	104	4682940416	71	12652
2026-01-02 04:59:43.80	225.77	6.59	-50.6	-61.5	3.8	8.47e-01	0	43	104	4682940416	71	12676
2026-01-02 04:59:46.67	225.64	6.38	-50.5	-61.4	3.8	8.47e-01	0	43	104	4682940416	71	12579
2026-01-02 04:59:49.82	225.50	6.15	-50.5	-61.4	3.8	8.46e-01	0	43	104	4682940416	71	12608
2026-01-02 04:59:52.69	225.37	5.95	-50.5	-61.4	3.8	8.46e-01	0	44	104	4682940416	71	12617
2026-01-02 04:59:55.84	225.23	5.72	-50.5	-61.4	3.8	8.48e-01	0	43	104	4682940416	71	12662
2026-01-02 04:59:58.71	225.11	5.52	-50.5	-61.4	3.8	8.47e-01	0	43	104	4682940416	71	12561
2026-01-02 05:00:01.85	224.98	5.30	-50.5	-61.4	3.8	8.46e-01	0	43	104	4682940416	71	12600
2026-01-02 05:00:04.72	224.86	5.10	-50.5	-61.4	3.8	8.47e-01	0	43	104	4682940416	71	12626

#Closed at: 2026-01-02 05:00:07
#Recorded file [4682 MB]: D:/Data/31040_260102_074744.dat