passes_logs/2026/01/02/T1/T1__20260102_070929_KHAYYAM_rec.log

#Pass ID: 20260102_070929_KHAYYAM
#Satellite: KHAYYAM
#Configuration: KHAYYAM_480M
#almurnet v.1.7.20251203
#Start time: 2026-01-02 07:09:29

#Version: 2.0.20230620
#Station: T1
#Location: 37.570604 lon 55.790049 lat
#TLE: 1 53370U 22096A   25365.91236145  .00003272  00000+0  13536-3 0  9993
#TLE: 2 53370  97.3565 268.1736 0001189  73.2664 286.8704 15.24655091189095

#Time	Az	El	Level	Level2	SNR	BER	BlckErr	Temp	State	Recorded	gain1	gain2
2026-01-02 07:09:29.02	136.53	4.96	-52.3	-56.8	3.6	0.00e+00	0	41	0	0	76	23899
2026-01-02 07:09:31.02	136.39	5.12	-52.3	-56.8	3.7	0.00e+00	0	42	104	0	75	25097
2026-01-02 07:09:33.03	136.25	5.28	-52.3	-56.7	3.7	0.00e+00	0	42	104	0	75	25075
2026-01-02 07:09:35.03	136.11	5.43	-52.3	-56.8	3.7	0.00e+00	0	42	104	0	75	25105
2026-01-02 07:09:37.03	135.96	5.59	-52.3	-56.8	3.7	0.00e+00	0	42	104	0	75	25176
2026-01-02 07:09:39.04	135.82	5.75	-52.3	-56.8	3.7	0.00e+00	0	43	104	0	75	25238
2026-01-02 07:09:41.04	135.67	5.91	-52.3	-56.8	3.7	0.00e+00	0	43	104	0	75	25155
2026-01-02 07:09:43.04	135.52	6.08	-52.3	-56.8	3.7	0.00e+00	0	43	104	0	75	25158
2026-01-02 07:09:45.05	135.37	6.24	-52.3	-56.7	3.7	0.00e+00	0	43	104	0	75	25078
2026-01-02 07:09:47.05	135.21	6.40	-52.3	-56.8	3.7	0.00e+00	0	43	104	0	75	25143
2026-01-02 07:09:49.06	135.06	6.57	-52.3	-56.8	3.7	0.00e+00	0	43	104	0	75	25101
2026-01-02 07:09:51.06	134.90	6.74	-52.3	-56.7	3.7	0.00e+00	0	44	104	0	75	25091
2026-01-02 07:09:53.07	134.73	6.91	-52.3	-56.7	3.7	0.00e+00	0	44	104	0	75	25072
2026-01-02 07:09:55.07	134.57	7.08	-52.3	-56.8	3.7	0.00e+00	0	44	104	0	75	25127
2026-01-02 07:09:57.08	134.40	7.25	-52.3	-56.7	3.7	0.00e+00	0	44	104	0	75	25068
2026-01-02 07:09:59.09	134.23	7.42	-52.3	-56.8	3.7	0.00e+00	0	44	104	0	75	25105
2026-01-02 07:10:01.09	134.06	7.60	-52.3	-56.7	3.7	0.00e+00	0	44	104	0	75	25083
2026-01-02 07:10:03.09	133.89	7.77	-52.3	-56.7	3.7	0.00e+00	0	44	104	0	75	25074
2026-01-02 07:10:05.10	133.71	7.95	-52.3	-56.7	3.7	0.00e+00	0	44	104	0	75	24982
2026-01-02 07:10:07.11	133.53	8.13	-52.2	-56.7	3.7	0.00e+00	0	44	104	0	75	24828
2026-01-02 07:10:09.11	133.35	8.31	-52.2	-56.6	3.7	0.00e+00	0	44	104	0	75	24752
2026-01-02 07:10:11.12	133.16	8.49	-52.2	-56.6	3.7	0.00e+00	0	45	104	0	75	24772
2026-01-02 07:10:13.12	132.97	8.67	-52.3	-56.7	3.7	0.00e+00	0	45	104	0	75	24886
2026-01-02 07:10:15.13	132.78	8.86	-52.3	-56.8	3.7	0.00e+00	0	45	104	0	75	25176
2026-01-02 07:10:17.14	132.58	9.04	-52.3	-56.8	3.7	0.00e+00	0	45	104	0	75	25135
2026-01-02 07:10:19.14	132.39	9.23	-52.4	-57.0	3.7	0.00e+00	0	45	104	0	75	25869
2026-01-02 07:10:21.14	132.18	9.42	-52.5	-57.0	3.7	0.00e+00	0	45	104	0	75	25835
2026-01-02 07:10:23.15	131.98	9.61	-52.5	-56.9	3.7	0.00e+00	0	45	104	0	75	25585
2026-01-02 07:10:25.16	131.77	9.80	-52.6	-57.1	3.7	0.00e+00	0	45	104	0	75	26248
2026-01-02 07:10:27.16	131.56	10.00	-52.2	-56.7	3.7	0.00e+00	0	45	104	0	75	24974
2026-01-02 07:10:29.16	131.34	10.19	-52.2	-56.9	3.7	0.00e+00	0	45	104	0	75	25430
2026-01-02 07:10:31.16	131.12	10.39	-51.9	-56.5	3.7	0.00e+00	0	45	104	0	75	24444
2026-01-02 07:10:33.16	130.90	10.59	-52.2	-56.8	3.7	0.00e+00	0	45	104	0	75	25155
2026-01-02 07:10:35.17	130.67	10.79	-51.9	-56.4	3.7	0.00e+00	0	45	104	0	75	24107
2026-01-02 07:10:37.17	130.44	11.00	-52.2	-56.6	3.7	0.00e+00	0	46	104	0	75	24764
2026-01-02 07:10:39.17	130.21	11.20	-52.0	-56.5	3.7	0.00e+00	0	46	104	0	75	24272
2026-01-02 07:10:41.18	129.97	11.41	-52.3	-56.8	3.7	0.00e+00	0	46	104	0	75	25203
2026-01-02 07:10:43.18	129.72	11.62	-52.5	-56.9	3.7	0.00e+00	0	46	104	0	75	25406
2026-01-02 07:10:45.19	129.48	11.83	-52.5	-56.8	3.7	0.00e+00	0	46	104	0	75	25351
2026-01-02 07:10:47.19	129.22	12.04	-52.7	-56.9	3.7	0.00e+00	0	46	104	0	75	25607
2026-01-02 07:10:49.20	128.97	12.26	-52.6	-56.9	3.7	0.00e+00	0	46	104	0	75	25460
2026-01-02 07:10:51.20	128.71	12.48	-52.6	-57.0	3.7	0.00e+00	0	46	104	0	76	24435
2026-01-02 07:10:53.21	128.44	12.70	-52.7	-57.1	3.7	0.00e+00	0	46	104	0	76	24553
2026-01-02 07:10:55.21	128.17	12.92	-52.4	-56.9	3.7	0.00e+00	0	46	104	0	76	24067
2026-01-02 07:10:57.21	127.89	13.14	-52.6	-57.1	3.7	0.00e+00	0	46	104	0	76	24552
2026-01-02 07:10:59.21	127.61	13.37	-52.4	-56.8	3.7	0.00e+00	0	46	104	0	76	23923
2026-01-02 07:11:01.21	127.32	13.59	-52.4	-56.9	3.7	0.00e+00	0	46	104	0	76	23991
2026-01-02 07:11:03.21	127.03	13.82	-52.8	-57.0	3.7	0.00e+00	0	46	104	0	76	24520
2026-01-02 07:11:05.22	126.73	14.06	-52.9	-57.2	3.7	0.00e+00	0	46	104	0	76	24956
2026-01-02 07:11:07.22	126.43	14.29	-53.0	-57.2	3.7	0.00e+00	0	46	104	0	76	25074
2026-01-02 07:11:09.23	126.12	14.53	-53.1	-57.3	3.7	0.00e+00	0	46	104	0	76	25239
2026-01-02 07:11:11.23	125.80	14.77	-53.1	-57.5	3.7	0.00e+00	0	46	104	0	76	25737
2026-01-02 07:11:13.23	125.48	15.01	-53.1	-57.5	3.7	0.00e+00	0	46	104	0	76	25756
2026-01-02 07:11:15.24	125.15	15.26	-52.9	-57.3	3.7	0.00e+00	0	46	104	0	76	25157
2026-01-02 07:11:17.24	124.82	15.50	-53.0	-57.4	3.7	0.00e+00	0	46	104	0	76	25659
2026-01-02 07:11:19.24	124.48	15.75	-52.9	-57.2	3.7	0.00e+00	0	46	104	0	76	25070
2026-01-02 07:11:21.25	124.13	16.00	-52.9	-57.2	3.7	0.00e+00	0	46	104	0	76	25085
2026-01-02 07:11:23.25	123.77	16.26	-52.8	-57.0	3.7	0.00e+00	0	46	104	0	76	24445
2026-01-02 07:11:25.26	123.41	16.51	-52.9	-57.1	3.7	0.00e+00	0	46	104	0	76	24782
2026-01-02 07:11:27.26	123.04	16.77	-52.9	-57.2	3.7	0.00e+00	0	46	104	0	76	24809
2026-01-02 07:11:29.27	122.66	17.03	-52.9	-57.3	3.7	0.00e+00	0	46	104	0	76	25141
2026-01-02 07:11:31.28	122.27	17.30	-52.8	-57.1	3.7	0.00e+00	0	46	104	0	76	24718
2026-01-02 07:11:33.29	121.87	17.57	-52.9	-57.3	3.7	0.00e+00	0	46	104	0	76	25299
2026-01-02 07:11:35.29	121.47	17.83	-52.9	-57.3	3.7	0.00e+00	0	47	104	0	76	25222
2026-01-02 07:11:37.30	121.06	18.11	-52.9	-57.3	3.7	0.00e+00	0	47	104	0	76	25326
2026-01-02 07:11:39.30	120.64	18.38	-53.0	-57.3	3.7	0.00e+00	0	46	104	0	76	25264
2026-01-02 07:11:41.31	120.21	18.66	-53.1	-57.4	3.7	0.00e+00	0	47	104	0	76	25559
2026-01-02 07:11:43.31	119.77	18.94	-52.9	-57.3	3.7	0.00e+00	0	46	104	0	76	25304
2026-01-02 07:11:45.32	119.32	19.22	-53.0	-57.4	3.7	0.00e+00	0	47	104	0	76	25605
2026-01-02 07:11:47.39	118.85	19.51	-53.1	-57.4	3.7	0.00e+00	0	47	104	0	76	25565
2026-01-02 07:11:49.46	118.36	19.81	-53.1	-57.5	3.7	0.00e+00	0	47	104	0	76	25971
2026-01-02 07:11:51.57	117.86	20.11	-53.1	-57.5	3.7	0.00e+00	0	47	104	0	76	25898
2026-01-02 07:11:53.57	117.37	20.40	-53.0	-57.3	3.7	0.00e+00	0	47	104	0	76	25296
2026-01-02 07:11:55.58	116.87	20.70	-53.1	-57.4	3.7	0.00e+00	0	47	104	0	76	25488
2026-01-02 07:11:57.78	116.31	21.02	-53.2	-57.7	3.7	0.00e+00	0	47	104	0	76	26478
2026-01-02 07:11:59.97	115.73	21.35	-53.1	-57.6	3.7	0.00e+00	0	47	104	0	76	26200
2026-01-02 07:12:02.23	115.13	21.69	-53.2	-57.7	3.7	0.00e+00	0	47	104	0	77	24821
2026-01-02 07:12:04.23	114.58	21.99	-53.2	-57.8	3.7	0.00e+00	0	47	104	0	77	25115
2026-01-02 07:12:06.24	114.01	22.30	-53.2	-57.7	3.7	0.00e+00	0	47	104	0	77	24931
2026-01-02 07:12:08.25	113.43	22.60	-53.1	-57.6	3.7	0.00e+00	0	47	104	0	77	24678
2026-01-02 07:12:10.27	112.84	22.92	-52.7	-57.3	3.7	0.00e+00	0	47	104	0	77	23808
2026-01-02 07:12:12.27	112.24	23.22	-52.9	-57.4	3.7	0.00e+00	0	47	104	0	77	24158
2026-01-02 07:12:14.27	111.62	23.54	-53.0	-57.6	3.7	0.00e+00	0	47	104	0	77	24770
2026-01-02 07:12:16.28	110.99	23.85	-53.0	-57.6	3.7	0.00e+00	0	47	104	0	77	24780
2026-01-02 07:12:18.29	110.34	24.17	-52.9	-57.3	3.7	0.00e+00	0	47	104	0	77	23953
2026-01-02 07:12:20.30	109.68	24.48	-52.6	-57.2	3.7	0.00e+00	0	47	104	0	77	23609
2026-01-02 07:12:22.30	109.01	24.80	-52.8	-57.5	3.7	0.00e+00	0	47	104	0	77	24395
2026-01-02 07:12:24.30	108.32	25.11	-53.0	-57.6	3.7	0.00e+00	0	47	104	0	77	24687
2026-01-02 07:12:26.30	107.61	25.43	-53.2	-57.6	3.7	0.00e+00	0	47	104	0	77	24797
2026-01-02 07:12:28.31	106.89	25.75	-53.2	-57.6	3.7	0.00e+00	0	47	104	0	77	24684
2026-01-02 07:12:30.32	106.15	26.07	-53.1	-57.6	3.7	0.00e+00	0	47	104	0	77	24777
2026-01-02 07:12:32.32	105.40	26.38	-53.1	-57.6	3.7	0.00e+00	0	47	104	0	77	24784
2026-01-02 07:12:34.32	104.63	26.70	-53.1	-57.7	3.7	0.00e+00	0	47	104	0	77	24925
2026-01-02 07:12:36.33	103.84	27.01	-53.2	-57.8	3.7	0.00e+00	0	47	104	0	77	25200
2026-01-02 07:12:38.34	103.03	27.33	-52.9	-57.5	3.7	0.00e+00	0	47	104	0	77	24407
2026-01-02 07:12:40.67	102.07	27.69	-53.2	-57.8	3.7	0.00e+00	0	47	104	0	77	25357
2026-01-02 07:12:43.02	101.08	28.06	-53.2	-57.7	3.7	0.00e+00	0	47	104	0	77	24858
2026-01-02 07:12:45.16	100.15	28.39	-53.2	-57.8	3.7	0.00e+00	0	47	104	0	77	25171
2026-01-02 07:12:47.34	99.19	28.72	-52.5	-56.9	3.7	0.00e+00	0	47	104	0	77	22770
2026-01-02 07:12:49.51	98.21	29.04	-52.9	-57.3	3.7	0.00e+00	0	47	104	0	77	23752
2026-01-02 07:12:51.86	97.12	29.39	-52.8	-57.3	3.7	0.00e+00	0	47	104	0	77	23926
2026-01-02 07:12:54.02	96.10	29.71	-53.0	-57.6	3.7	0.00e+00	0	47	104	0	77	24562
2026-01-02 07:12:56.18	95.05	30.02	-53.1	-57.7	3.7	0.00e+00	0	47	104	0	77	24960
2026-01-02 07:12:58.51	93.90	30.34	-53.1	-57.8	3.7	0.00e+00	0	47	104	0	77	25109
2026-01-02 07:13:00.52	92.89	30.62	-52.7	-57.6	3.7	0.00e+00	0	47	104	0	77	24525
2026-01-02 07:13:02.53	91.86	30.89	-52.8	-57.6	3.7	0.00e+00	0	47	104	0	77	24656
2026-01-02 07:13:04.54	90.81	31.15	-52.8	-57.6	3.7	0.00e+00	0	47	104	0	77	24575
2026-01-02 07:13:06.54	89.75	31.40	-52.9	-57.5	3.7	0.00e+00	0	47	104	0	77	24511
2026-01-02 07:13:08.54	88.67	31.65	-52.9	-57.7	3.7	0.00e+00	0	47	104	0	77	24943
2026-01-02 07:13:10.77	87.45	31.91	-52.7	-57.5	3.7	0.00e+00	0	47	104	0	76	25766
2026-01-02 07:13:12.77	86.33	32.13	-52.2	-57.1	3.7	0.00e+00	0	47	104	0	76	24740
2026-01-02 07:13:14.78	85.19	32.35	-52.4	-57.1	3.7	0.00e+00	0	47	104	0	76	24711
2026-01-02 07:13:16.79	84.04	32.56	-52.5	-57.5	3.7	0.00e+00	0	47	104	0	76	25758
2026-01-02 07:13:18.79	82.87	32.75	-52.5	-57.4	3.7	0.00e+00	0	47	104	0	76	25651
2026-01-02 07:13:20.80	81.69	32.94	-52.4	-57.3	3.7	0.00e+00	0	47	104	0	76	25160
2026-01-02 07:13:23.11	80.31	33.14	-52.6	-57.3	3.7	0.00e+00	0	47	104	0	76	25291
2026-01-02 07:13:25.12	79.09	33.30	-52.9	-57.5	3.7	0.00e+00	0	47	104	0	76	25887
2026-01-02 07:13:27.12	77.88	33.44	-53.1	-57.8	3.7	0.00e+00	0	47	104	0	76	26771
2026-01-02 07:13:29.17	76.61	33.58	-53.0	-57.3	3.7	0.00e+00	0	47	104	0	76	25363
2026-01-02 07:13:31.17	75.37	33.69	-52.9	-57.3	3.7	0.00e+00	0	47	104	0	76	25207
2026-01-02 07:13:33.18	74.12	33.80	-53.1	-57.5	3.7	0.00e+00	0	47	104	0	77	24301
2026-01-02 07:13:35.18	72.86	33.89	-53.1	-57.6	3.7	0.00e+00	0	47	104	0	77	24677
2026-01-02 07:13:37.19	71.59	33.96	-53.4	-58.0	3.7	0.00e+00	0	47	104	0	77	25698
2026-01-02 07:13:39.19	70.32	34.02	-53.4	-57.9	3.7	0.00e+00	0	47	104	0	77	25650
2026-01-02 07:13:41.20	69.04	34.07	-53.4	-58.0	3.7	0.00e+00	0	47	104	0	77	25729
2026-01-02 07:13:43.27	67.71	34.10	-53.5	-57.8	3.7	0.00e+00	0	47	104	0	77	25171
2026-01-02 07:13:45.53	66.27	34.11	-53.5	-58.0	3.7	0.00e+00	0	47	104	0	77	25765
2026-01-02 07:13:47.74	64.85	34.11	-53.4	-57.8	3.7	0.00e+00	0	47	104	0	77	25208
2026-01-02 07:13:49.84	63.51	34.09	-53.2	-57.8	3.7	0.00e+00	0	47	104	0	77	25204
2026-01-02 07:13:51.84	62.23	34.05	-53.4	-57.9	3.7	0.00e+00	0	47	104	0	77	25508
2026-01-02 07:13:53.85	60.96	34.00	-53.4	-58.0	3.7	0.00e+00	0	47	104	0	77	25717
2026-01-02 07:13:55.85	59.69	33.94	-53.1	-57.4	3.7	0.00e+00	0	47	104	0	77	24131
2026-01-02 07:13:57.86	58.42	33.86	-52.9	-57.4	3.7	0.00e+00	0	47	104	0	77	24231
2026-01-02 07:13:59.86	57.17	33.76	-53.3	-58.0	3.7	0.00e+00	0	47	104	0	77	25679
2026-01-02 07:14:01.87	55.92	33.65	-52.9	-57.3	3.7	0.00e+00	0	47	104	0	77	23837
2026-01-02 07:14:03.87	54.68	33.53	-52.7	-56.6	3.7	0.00e+00	0	47	104	0	77	22098
2026-01-02 07:14:05.88	53.45	33.39	-52.6	-56.7	3.7	0.00e+00	0	47	104	0	77	22218
2026-01-02 07:14:08.09	52.11	33.22	-53.3	-57.9	3.7	0.00e+00	0	47	104	0	77	25457
2026-01-02 07:14:10.39	50.73	33.04	-52.8	-57.4	3.7	0.00e+00	0	47	104	0	77	24123
2026-01-02 07:14:12.42	49.53	32.86	-53.3	-57.6	3.7	0.00e+00	0	47	104	0	77	24778
2026-01-02 07:14:14.43	48.36	32.67	-53.2	-57.7	3.7	0.00e+00	0	47	104	0	77	24860
2026-01-02 07:14:16.43	47.20	32.47	-53.1	-57.7	3.7	0.00e+00	0	47	104	0	77	24830
2026-01-02 07:14:18.45	46.05	32.25	-52.9	-57.0	3.7	0.00e+00	0	47	104	0	77	22970
2026-01-02 07:14:20.45	44.93	32.03	-52.7	-56.8	3.7	0.00e+00	0	47	104	0	77	22614
2026-01-02 07:14:22.46	43.82	31.80	-53.1	-57.4	3.7	0.00e+00	0	47	104	0	77	24068
2026-01-02 07:14:24.46	42.73	31.56	-53.1	-57.3	3.7	0.00e+00	0	47	104	0	77	23700
2026-01-02 07:14:26.47	41.66	31.32	-53.1	-57.3	3.7	0.00e+00	0	47	104	0	77	23833
2026-01-02 07:14:28.47	40.60	31.06	-52.6	-56.4	3.7	0.00e+00	0	47	104	0	77	21474
2026-01-02 07:14:30.48	39.57	30.80	-52.8	-56.7	3.7	0.00e+00	0	47	104	0	77	22337
2026-01-02 07:14:32.49	38.55	30.53	-53.1	-57.3	3.7	0.00e+00	0	47	104	0	77	23787
2026-01-02 07:14:34.49	37.55	30.25	-52.6	-56.4	3.7	0.00e+00	0	47	104	0	77	21475
2026-01-02 07:14:36.50	36.57	29.97	-52.3	-56.0	3.7	0.00e+00	0	47	104	0	76	21728
2026-01-02 07:14:38.50	35.61	29.69	-52.2	-55.8	3.7	0.00e+00	0	47	104	0	75	22558
2026-01-02 07:14:40.51	34.66	29.39	-51.5	-54.8	3.7	0.00e+00	0	47	104	0	75	20029
2026-01-02 07:14:42.53	33.73	29.10	-51.6	-54.9	3.7	0.00e+00	0	47	104	0	74	21375
2026-01-02 07:14:44.54	32.82	28.80	-51.6	-54.6	3.7	0.00e+00	0	47	104	0	74	20856
2026-01-02 07:14:46.54	31.94	28.50	-51.7	-55.8	3.7	0.00e+00	0	47	104	0	74	23875
2026-01-02 07:14:48.55	31.07	28.19	-52.2	-56.6	3.7	0.00e+00	0	47	104	0	75	24530
2026-01-02 07:14:50.65	30.18	27.87	-52.4	-57.1	3.7	0.00e+00	0	47	104	0	75	25998
2026-01-02 07:14:52.73	29.31	27.55	-51.7	-55.7	3.7	0.00e+00	0	47	104	0	75	22134
2026-01-02 07:14:54.74	28.50	27.23	-51.9	-56.2	3.7	0.00e+00	0	47	104	0	75	23494
2026-01-02 07:14:56.74	27.71	26.92	-52.0	-56.9	3.6	0.00e+00	0	47	104	0	75	25528
2026-01-02 07:14:58.74	26.93	26.61	-52.4	-57.0	3.7	0.00e+00	0	47	104	0	75	25717
2026-01-02 07:15:00.74	26.17	26.29	-52.6	-57.0	3.7	0.00e+00	0	47	104	0	75	25798
2026-01-02 07:15:02.75	25.42	25.98	-52.9	-57.6	3.7	0.00e+00	0	47	104	0	76	26027
2026-01-02 07:15:04.70	24.71	25.67	-52.7	-56.7	3.7	0.00e+00	0	47	104	0	76	23501
2026-01-02 07:15:06.85	23.95	25.33	-51.3	-54.5	3.7	0.00e+00	0	47	104	0	74	20582
2026-01-02 07:15:08.87	23.25	25.01	-50.4	-53.8	3.7	0.00e+00	0	47	104	0	72	21250
2026-01-02 07:15:10.87	22.57	24.70	-50.4	-54.1	3.7	0.00e+00	0	47	104	0	72	21889
2026-01-02 07:15:12.88	21.91	24.39	-50.5	-53.9	3.7	0.00e+00	0	47	104	0	72	21505
2026-01-02 07:15:14.89	21.25	24.07	-50.3	-53.6	3.7	0.00e+00	0	47	104	0	72	20857
2026-01-02 07:15:16.89	20.62	23.76	-50.2	-53.8	3.7	0.00e+00	0	47	104	0	72	21300
2026-01-02 07:15:18.89	20.00	23.45	-50.8	-54.2	3.7	0.00e+00	0	47	104	0	72	22270
2026-01-02 07:15:20.93	19.38	23.14	-52.2	-56.1	3.7	0.00e+00	0	47	104	0	75	23234
2026-01-02 07:15:22.97	18.78	22.82	-52.5	-56.7	3.7	0.00e+00	0	47	104	0	76	23564
2026-01-02 07:15:24.98	18.20	22.52	-52.5	-56.7	3.7	0.00e+00	0	47	104	0	76	23493
2026-01-02 07:15:26.99	17.63	22.21	-51.8	-56.4	3.7	0.00e+00	0	47	104	0	75	24074
2026-01-02 07:15:29.02	17.07	21.91	-51.8	-56.6	3.7	0.00e+00	0	47	104	0	75	24689
2026-01-02 07:15:31.12	16.50	21.59	-52.4	-57.2	3.7	0.00e+00	0	47	104	0	75	26436
2026-01-02 07:15:33.16	15.96	21.29	-52.3	-57.0	3.7	0.00e+00	0	47	104	0	75	25767
2026-01-02 07:15:35.22	15.43	20.98	-52.3	-57.1	3.7	0.00e+00	0	47	104	0	75	26096
2026-01-02 07:15:37.23	14.92	20.69	-52.4	-57.0	3.7	0.00e+00	0	47	104	0	75	25701
2026-01-02 07:15:39.24	14.42	20.40	-52.3	-56.6	3.7	0.00e+00	0	47	104	0	75	24570
2026-01-02 07:15:41.43	13.89	20.08	-52.8	-57.0	3.7	0.00e+00	0	47	104	0	76	24407
2026-01-02 07:15:43.77	13.34	19.75	-52.6	-57.0	3.7	0.00e+00	0	47	104	0	76	24448
2026-01-02 07:15:45.77	12.88	19.46	-51.3	-56.3	3.7	0.00e+00	0	47	104	0	74	25308
2026-01-02 07:15:48.06	12.37	19.14	-50.9	-56.0	3.7	0.00e+00	0	47	104	0	73	25890
2026-01-02 07:15:50.09	11.92	18.86	-50.7	-56.0	3.7	0.00e+00	0	47	104	0	73	25682
2026-01-02 07:15:52.10	11.49	18.58	-51.1	-56.0	3.7	0.00e+00	0	47	104	0	72	27298
2026-01-02 07:15:54.10	11.07	18.31	-51.0	-55.6	3.7	0.00e+00	0	47	104	0	72	26213
2026-01-02 07:15:56.11	10.65	18.04	-50.3	-55.8	3.7	0.00e+00	0	47	104	0	71	28291
2026-01-02 07:15:58.11	10.25	17.77	-50.0	-54.4	3.7	0.00e+00	0	47	104	0	71	24041
2026-01-02 07:16:00.12	9.85	17.50	-50.6	-54.9	3.7	0.00e+00	0	47	104	0	71	25567
2026-01-02 07:16:02.13	9.47	17.24	-50.2	-55.7	3.7	0.00e+00	0	47	104	0	72	26524
2026-01-02 07:16:04.16	9.08	16.98	-49.6	-55.1	3.7	0.00e+00	0	47	104	0	71	26001
2026-01-02 07:16:06.35	8.68	16.69	-50.4	-56.0	3.7	0.00e+00	0	47	104	0	71	28942
2026-01-02 07:16:08.51	8.28	16.42	-51.3	-56.4	3.7	0.00e+00	0	47	104	0	73	26952
2026-01-02 07:16:10.80	7.88	16.13	-50.9	-56.0	3.7	0.00e+00	0	47	104	0	73	25945
2026-01-02 07:16:12.81	7.53	15.88	-51.2	-56.1	3.7	0.00e+00	0	47	104	0	73	26109
2026-01-02 07:16:14.81	7.19	15.63	-51.2	-56.2	3.7	0.00e+00	0	47	104	0	73	26471
2026-01-02 07:16:16.82	6.86	15.38	-51.3	-56.5	3.7	0.00e+00	0	47	104	0	73	27415
2026-01-02 07:16:18.83	6.53	15.14	-50.9	-56.2	3.7	0.00e+00	0	47	104	0	73	26469
2026-01-02 07:16:21.00	6.18	14.88	-51.3	-56.6	3.7	0.00e+00	0	47	104	0	74	26074
2026-01-02 07:16:23.01	5.87	14.64	-50.1	-55.4	3.7	0.00e+00	0	47	104	0	71	26992
2026-01-02 07:16:25.01	5.56	14.40	-50.5	-55.6	3.7	0.00e+00	0	47	104	0	71	27826
2026-01-02 07:16:27.02	5.26	14.17	-49.9	-55.4	3.7	0.00e+00	0	47	104	0	71	26900
2026-01-02 07:16:29.02	4.96	13.94	-49.7	-55.1	3.7	0.00e+00	0	47	104	0	71	25993
2026-01-02 07:16:31.26	4.64	13.68	-49.6	-54.9	3.7	0.00e+00	0	47	104	0	70	27190
2026-01-02 07:16:33.26	4.35	13.46	-49.2	-55.1	3.7	0.00e+00	0	48	104	0	70	27650
2026-01-02 07:16:35.27	4.07	13.23	-49.2	-54.7	3.7	0.00e+00	0	47	104	0	70	26469
2026-01-02 07:16:37.27	3.80	13.01	-49.4	-55.1	3.7	0.00e+00	0	47	104	0	70	27569
2026-01-02 07:16:39.28	3.53	12.79	-49.8	-55.4	3.7	0.00e+00	0	47	104	0	70	28685
2026-01-02 07:16:41.28	3.26	12.57	-50.4	-55.9	3.7	0.00e+00	0	47	104	0	71	28675
2026-01-02 07:16:43.28	3.01	12.35	-50.8	-56.0	3.7	0.00e+00	0	47	104	0	73	25832
2026-01-02 07:16:45.29	2.75	12.14	-51.5	-56.5	3.7	0.00e+00	0	47	104	0	74	25898
2026-01-02 07:16:47.33	2.50	11.92	-51.4	-56.3	3.7	0.00e+00	0	47	104	0	74	25220
2026-01-02 07:16:49.33	2.25	11.71	-49.0	-54.0	3.7	0.00e+00	0	47	104	0	70	24520
2026-01-02 07:16:51.41	2.00	11.50	-51.8	-56.8	3.7	0.00e+00	0	47	104	0	74	26681
2026-01-02 07:16:53.41	1.76	11.29	-49.9	-55.8	3.7	0.00e+00	0	47	104	0	71	28332
2026-01-02 07:16:55.42	1.53	11.09	-51.0	-56.5	3.7	0.00e+00	0	47	104	0	72	29102
2026-01-02 07:16:57.43	1.30	10.89	-51.3	-56.6	3.7	0.00e+00	0	47	104	0	73	27580
2026-01-02 07:16:59.43	1.08	10.69	-47.6	-53.7	3.7	0.00e+00	0	47	104	0	67	27998
2026-01-02 07:17:01.43	0.86	10.49	-47.5	-53.9	3.8	0.00e+00	0	47	104	0	66	30187
2026-01-02 07:17:03.44	0.64	10.29	-48.5	-54.8	3.7	0.00e+00	0	47	104	0	68	30057
2026-01-02 07:17:05.45	0.43	10.09	-49.5	-55.6	3.7	0.00e+00	0	47	104	0	69	31198
2026-01-02 07:17:07.63	0.20	9.88	-50.2	-56.0	3.7	0.00e+00	0	47	104	0	71	28882
2026-01-02 07:17:09.63	359.99	9.69	-51.0	-56.1	3.7	0.00e+00	0	47	104	0	72	27610
2026-01-02 07:17:11.64	359.79	9.50	-50.9	-56.2	3.7	0.00e+00	0	47	104	0	73	26282
2026-01-02 07:17:14.01	359.56	9.28	-51.7	-56.7	3.7	0.00e+00	0	47	104	0	74	26402
2026-01-02 07:17:16.41	359.32	9.06	-52.2	-56.9	3.7	0.00e+00	0	47	104	0	74	27146
2026-01-02 07:17:18.57	359.12	8.86	-49.3	-55.2	3.7	0.00e+00	0	47	104	0	70	28073
2026-01-02 07:17:20.72	358.92	8.66	-49.5	-55.3	3.7	0.00e+00	0	47	104	0	70	28327
2026-01-02 07:17:22.88	358.72	8.47	-52.6	-57.4	3.7	0.00e+00	0	47	104	0	75	27078
2026-01-02 07:17:25.04	358.52	8.27	-53.1	-57.7	3.7	0.00e+00	0	47	104	0	77	24970
2026-01-02 07:17:27.21	358.33	8.08	-52.0	-57.1	3.7	0.00e+00	0	47	104	0	75	26219
2026-01-02 07:17:29.36	358.14	7.89	-53.0	-57.4	3.7	0.00e+00	0	47	104	0	77	24236
2026-01-02 07:17:31.52	357.95	7.70	-53.0	-57.7	3.7	0.00e+00	0	47	104	0	77	25074
2026-01-02 07:17:33.68	357.77	7.52	-53.0	-57.4	3.7	0.00e+00	0	47	104	0	77	24127
2026-01-02 07:17:35.84	357.59	7.33	-52.9	-57.7	3.7	0.00e+00	0	47	104	0	76	26475
2026-01-02 07:17:38.01	357.42	7.15	-53.6	-58.1	3.7	0.00e+00	0	47	104	0	77	26068
2026-01-02 07:17:40.19	357.24	6.96	-53.5	-58.0	3.7	0.00e+00	0	47	104	0	77	25966
2026-01-02 07:17:42.35	357.07	6.78	-53.3	-57.9	3.7	0.00e+00	0	47	104	0	77	25581
2026-01-02 07:17:44.52	356.90	6.60	-53.0	-57.3	3.7	0.00e+00	0	47	104	0	77	23805
2026-01-02 07:17:46.71	356.73	6.42	-52.8	-57.3	3.7	0.00e+00	0	47	104	0	76	25115
2026-01-02 07:17:48.87	356.57	6.25	-52.7	-57.3	3.7	0.00e+00	0	47	104	0	76	25164
2026-01-02 07:17:51.09	356.41	6.07	-52.8	-57.3	3.7	0.00e+00	0	47	104	0	76	25208
2026-01-02 07:17:53.25	356.25	5.90	-52.7	-57.3	3.7	0.00e+00	0	47	104	0	76	25117
2026-01-02 07:17:55.41	356.09	5.72	-52.7	-57.3	3.7	0.00e+00	0	47	104	0	76	25122
2026-01-02 07:17:57.57	355.94	5.55	-52.7	-57.3	3.7	0.00e+00	0	47	104	0	76	25132
2026-01-02 07:17:59.74	355.79	5.38	-52.7	-57.2	3.7	0.00e+00	0	47	104	0	76	25052
2026-01-02 07:18:02.04	355.63	5.20	-52.7	-57.2	3.7	0.00e+00	0	47	104	0	76	25012
2026-01-02 07:18:04.19	355.49	5.04	-52.7	-57.2	3.7	0.00e+00	0	47	104	0	76	24950

#Closed at: 2026-01-02 07:18:06
#Recorded file [0 MB]: D:/Data/31040_260102_100929.dat