passes_logs/2026/01/02/T1/T1__20260102_103011_NOAA_20_JPSS-1_rec.log

#Pass ID: 20260102_103011_NOAA 20 (JPSS-1)
#Satellite: NOAA 20 (JPSS-1)
#Configuration: NOAA 20
#almurnet v.1.7.20251203
#Start time: 2026-01-02 10:30:13

#Version: 2.0.20230620
#Station: T1
#Location: 37.570604 lon 55.790049 lat
#TLE: 1 43013U 17073A   26001.30344297  .00000183  00000+0  10758-3 0  9995
#TLE: 2 43013  98.7621 302.3885 0001938  59.1624 300.9742 14.19532032420790

#Time	Az	El	Level	Level2	SNR	BER	BlckErr	Temp	State	Recorded	gain1	gain2
2026-01-02 10:30:13.10	178.57	5.08	-48.8	-64.7	3.8	1.49e+00	0	39	0	0	69	22202
2026-01-02 10:30:17.11	178.70	5.37	-45.3	-64.0	3.8	1.49e+00	0	40	104	0	61	32527
2026-01-02 10:30:21.12	178.84	5.65	-45.5	-64.1	3.8	1.49e+00	0	39	104	0	61	32554
2026-01-02 10:30:25.14	178.98	5.94	-45.3	-63.6	3.8	1.49e+00	0	40	104	0	61	30833
2026-01-02 10:30:29.15	179.13	6.24	-45.4	-61.5	4.1	1.47e+00	0	40	104	0	61	24162
2026-01-02 10:30:33.17	179.28	6.53	-45.3	-59.0	4.9	8.05e-01	0	40	0	4194304	61	18101
2026-01-02 10:30:37.18	179.43	6.83	-45.1	-59.6	4.7	8.58e-01	0	40	0	11534336	61	19503
2026-01-02 10:30:41.20	179.58	7.14	-45.2	-63.3	3.8	1.49e+00	0	40	104	12582912	61	29900
2026-01-02 10:30:45.21	179.73	7.44	-44.4	-53.0	10.1	1.94e-02	0	40	0	17825792	60	9633
2026-01-02 10:30:49.22	179.89	7.75	-43.2	-48.5	14.7	0.00e+00	0	40	0	25165824	58	6448
2026-01-02 10:30:53.23	180.05	8.06	-42.9	-47.7	15.5	0.00e+00	0	40	0	32505856	57	6219
2026-01-02 10:30:57.24	180.22	8.38	-43.7	-50.0	13.2	8.30e-06	0	41	0	39845888	58	7664
2026-01-02 10:31:01.26	180.39	8.70	-44.6	-54.3	8.7	2.06e-02	0	41	0	48234496	60	11260
2026-01-02 10:31:05.27	180.56	9.03	-45.0	-58.3	5.3	4.97e-01	0	41	0	55574528	60	17760
2026-01-02 10:31:09.28	180.74	9.36	-46.3	-54.3	8.7	1.01e-01	0	41	0	61865984	63	9420
2026-01-02 10:31:13.29	180.91	9.69	-45.9	-51.8	11.4	7.29e-04	0	41	0	70254592	63	7078
2026-01-02 10:31:17.30	181.10	10.03	-45.7	-51.0	12.2	1.23e-04	0	41	0	77594624	62	6848
2026-01-02 10:31:21.31	181.29	10.37	-44.0	-47.2	16.2	0.00e+00	0	41	0	84934656	60	4955
2026-01-02 10:31:25.31	181.48	10.71	-43.5	-46.4	16.9	0.00e+00	0	41	0	92274688	59	4808
2026-01-02 10:31:29.32	181.67	11.07	-43.5	-46.5	16.9	0.00e+00	0	41	0	99614720	58	5106
2026-01-02 10:31:33.33	181.87	11.42	-43.4	-46.3	17.0	0.00e+00	0	41	0	106954752	58	5039
2026-01-02 10:31:37.34	182.08	11.78	-43.3	-46.2	17.1	0.00e+00	0	41	0	115343360	58	4972
2026-01-02 10:31:41.34	182.29	12.15	-43.3	-46.2	17.1	0.00e+00	0	41	0	122683392	58	4957
2026-01-02 10:31:45.35	182.50	12.52	-43.3	-46.1	17.3	0.00e+00	0	41	0	130023424	58	4920
2026-01-02 10:31:49.36	182.72	12.89	-43.2	-46.1	17.4	0.00e+00	0	41	0	137363456	58	4885
2026-01-02 10:31:53.36	182.95	13.28	-43.3	-46.1	17.3	0.00e+00	0	41	0	144703488	58	4921
2026-01-02 10:31:57.37	183.18	13.66	-43.3	-46.2	17.3	0.00e+00	0	41	0	152043520	58	4928
2026-01-02 10:32:01.38	183.41	14.06	-43.3	-46.2	17.3	0.00e+00	0	41	0	160432128	58	4933
2026-01-02 10:32:05.38	183.66	14.46	-43.4	-46.2	17.3	0.00e+00	0	41	0	167772160	58	4929
2026-01-02 10:32:09.39	183.90	14.86	-43.4	-46.1	17.3	0.00e+00	0	41	0	175112192	58	4909
2026-01-02 10:32:13.40	184.16	15.27	-43.4	-46.2	17.3	0.00e+00	0	41	0	182452224	58	4934
2026-01-02 10:32:17.41	184.42	15.69	-43.5	-46.3	17.2	0.00e+00	0	41	0	189792256	58	4989
2026-01-02 10:32:21.42	184.69	16.12	-43.3	-46.1	17.4	0.00e+00	0	41	0	197132288	58	4873
2026-01-02 10:32:25.43	184.97	16.55	-43.2	-46.0	17.5	0.00e+00	0	41	0	205520896	58	4842
2026-01-02 10:32:29.44	185.25	16.99	-43.1	-45.8	17.6	0.00e+00	0	41	0	212860928	58	4756
2026-01-02 10:32:33.45	185.55	17.44	-43.2	-45.9	17.6	0.00e+00	0	41	0	220200960	58	4787
2026-01-02 10:32:37.46	185.85	17.89	-43.1	-45.8	17.7	0.00e+00	0	41	0	227540992	58	4751
2026-01-02 10:32:41.47	186.16	18.36	-43.1	-45.8	17.8	0.00e+00	0	41	0	234881024	58	4715
2026-01-02 10:32:45.48	186.48	18.83	-43.0	-45.7	17.9	0.00e+00	0	41	0	242221056	58	4666
2026-01-02 10:32:49.49	186.81	19.31	-42.8	-45.4	18.1	0.00e+00	0	41	0	250609664	57	4788
2026-01-02 10:32:53.50	187.15	19.79	-42.5	-45.1	18.4	0.00e+00	0	41	0	257949696	57	4642
2026-01-02 10:32:57.50	187.50	20.29	-42.3	-44.8	18.7	0.00e+00	0	41	0	265289728	56	4748
2026-01-02 10:33:01.51	187.86	20.80	-42.1	-44.5	19.0	0.00e+00	0	41	0	272629760	56	4577
2026-01-02 10:33:05.52	188.23	21.31	-42.1	-44.5	19.1	0.00e+00	0	41	0	279969792	56	4555
2026-01-02 10:33:09.53	188.61	21.83	-41.9	-44.3	19.1	0.00e+00	0	41	0	287309824	55	4719
2026-01-02 10:33:13.54	189.01	22.37	-41.9	-44.3	19.1	0.00e+00	0	41	0	295698432	55	4726
2026-01-02 10:33:17.54	189.42	22.91	-41.8	-44.0	19.3	0.00e+00	0	41	0	303038464	55	4597
2026-01-02 10:33:21.55	189.85	23.46	-41.6	-43.9	19.5	0.00e+00	0	41	0	310378496	55	4527
2026-01-02 10:33:25.57	190.29	24.03	-41.5	-43.7	19.7	0.00e+00	0	41	0	317718528	54	4686
2026-01-02 10:33:29.57	190.74	24.60	-41.5	-43.8	19.7	0.00e+00	0	41	0	325058560	54	4709
2026-01-02 10:33:33.57	191.22	25.19	-41.5	-43.7	19.6	0.00e+00	0	41	0	332398592	54	4698
2026-01-02 10:33:37.58	191.71	25.79	-41.5	-43.8	19.6	0.00e+00	0	41	0	340787200	54	4726
2026-01-02 10:33:41.59	192.21	26.40	-41.7	-44.0	19.4	0.00e+00	0	41	0	348127232	54	4863
2026-01-02 10:33:45.60	192.74	27.02	-42.0	-44.3	19.1	0.00e+00	0	41	0	355467264	54	5037
2026-01-02 10:33:49.61	193.29	27.65	-42.4	-44.8	18.7	0.00e+00	0	42	0	362807296	55	5014
2026-01-02 10:33:53.62	193.86	28.29	-43.3	-45.9	17.8	0.00e+00	0	41	0	370147328	57	5064
2026-01-02 10:33:57.63	194.45	28.95	-43.8	-46.5	17.2	0.00e+00	0	41	0	377487360	58	5134
2026-01-02 10:34:01.63	195.07	29.62	-44.1	-47.0	16.7	0.00e+00	0	41	0	385875968	58	5446
2026-01-02 10:34:05.64	195.71	30.30	-44.5	-47.5	16.1	0.00e+00	0	41	0	393216000	59	5464
2026-01-02 10:34:09.64	196.38	30.99	-44.9	-48.1	15.7	0.00e+00	0	41	0	400556032	60	5486
2026-01-02 10:34:13.64	197.08	31.69	-45.1	-48.6	15.2	0.00e+00	0	41	0	407896064	61	5474
2026-01-02 10:34:17.65	197.81	32.41	-44.7	-47.8	16.0	0.00e+00	0	41	0	415236096	61	5009
2026-01-02 10:34:21.66	198.57	33.14	-44.6	-47.7	16.1	0.00e+00	0	41	0	422576128	61	4939
2026-01-02 10:34:25.67	199.37	33.89	-44.6	-47.6	16.2	0.00e+00	0	41	0	430964736	61	4902
2026-01-02 10:34:29.67	200.20	34.64	-44.4	-47.4	16.4	0.00e+00	0	41	0	438304768	60	5047
2026-01-02 10:34:33.68	201.07	35.40	-44.1	-46.9	16.9	0.00e+00	0	41	0	445644800	60	4777
2026-01-02 10:34:37.69	201.98	36.18	-43.7	-46.4	17.3	0.00e+00	0	41	0	452984832	59	4795
2026-01-02 10:34:41.70	202.94	36.97	-43.6	-46.3	17.5	0.00e+00	0	41	0	460324864	59	4717
2026-01-02 10:34:45.71	203.95	37.77	-43.2	-45.7	18.1	0.00e+00	0	41	0	467664896	58	4655
2026-01-02 10:34:49.72	205.00	38.58	-43.2	-45.7	18.0	0.00e+00	0	41	0	476053504	58	4673
2026-01-02 10:34:53.73	206.11	39.39	-43.2	-45.7	18.0	0.00e+00	0	41	0	483393536	58	4702
2026-01-02 10:34:57.73	207.27	40.21	-42.8	-45.2	18.5	0.00e+00	0	41	0	490733568	57	4670
2026-01-02 10:35:01.71	208.48	41.03	-43.0	-45.4	18.3	0.00e+00	0	41	0	498073600	57	4797
2026-01-02 10:35:05.72	209.77	41.87	-43.1	-45.6	18.1	0.00e+00	0	41	0	505413632	57	4892
2026-01-02 10:35:09.73	211.12	42.70	-43.6	-46.3	17.5	0.00e+00	0	41	0	512753664	57	5308
2026-01-02 10:35:13.74	212.55	43.54	-43.4	-46.0	17.7	0.00e+00	0	41	0	521142272	58	4866
2026-01-02 10:35:17.74	214.04	44.37	-44.6	-47.6	16.2	0.00e+00	0	41	0	528482304	59	5479
2026-01-02 10:35:21.75	215.62	45.19	-44.4	-47.2	16.6	0.00e+00	0	41	0	535822336	60	4954
2026-01-02 10:35:25.76	217.28	46.01	-45.2	-48.4	15.4	0.00e+00	0	41	0	543162368	61	5364
2026-01-02 10:35:29.76	219.03	46.82	-45.7	-49.2	14.6	7.00e-07	0	41	0	550502400	62	5559
2026-01-02 10:35:33.76	220.86	47.61	-45.9	-49.5	14.4	0.00e+00	0	41	0	557842432	62	5764
2026-01-02 10:35:37.77	222.80	48.39	-45.2	-48.5	15.4	0.00e+00	0	41	0	566231040	62	5116
2026-01-02 10:35:41.77	224.82	49.14	-45.5	-49.0	14.8	0.00e+00	0	41	0	573571072	62	5453
2026-01-02 10:35:45.78	226.95	49.86	-44.2	-47.2	16.6	0.00e+00	0	41	0	580911104	60	4977
2026-01-02 10:35:49.79	229.18	50.56	-44.9	-48.0	15.9	0.00e+00	0	41	0	588251136	60	5413
2026-01-02 10:35:53.80	231.51	51.21	-43.1	-45.5	18.3	0.00e+00	0	41	0	595591168	58	4582
2026-01-02 10:35:57.81	233.94	51.83	-42.9	-45.4	18.4	0.00e+00	0	41	0	602931200	57	4764
2026-01-02 10:36:01.82	236.47	52.39	-42.1	-44.4	19.1	0.00e+00	0	41	0	611319808	55	4813
2026-01-02 10:36:05.83	239.09	52.91	-42.1	-44.4	19.3	0.00e+00	0	41	0	618659840	56	4509
2026-01-02 10:36:09.84	241.80	53.36	-42.0	-44.3	19.3	0.00e+00	0	41	0	625999872	55	4749
2026-01-02 10:36:13.85	244.59	53.76	-41.8	-44.0	19.6	0.00e+00	0	41	0	633339904	55	4570
2026-01-02 10:36:17.86	247.45	54.08	-42.9	-45.3	18.5	0.00e+00	0	41	0	640679936	56	4995
2026-01-02 10:36:21.87	250.36	54.34	-42.9	-45.4	18.4	0.00e+00	0	41	0	648019968	56	5047
2026-01-02 10:36:25.88	253.32	54.52	-42.7	-45.1	18.6	0.00e+00	0	41	0	656408576	56	4911
2026-01-02 10:36:29.89	256.31	54.63	-42.8	-45.2	18.5	0.00e+00	0	41	0	663748608	56	4981
2026-01-02 10:36:33.90	259.32	54.66	-43.0	-45.4	18.3	0.00e+00	0	41	0	671088640	57	4809
2026-01-02 10:36:37.91	262.32	54.61	-43.0	-45.4	18.3	0.00e+00	0	41	0	678428672	57	4809
2026-01-02 10:36:41.92	265.30	54.49	-42.4	-44.7	19.0	0.00e+00	0	41	0	685768704	56	4675
2026-01-02 10:36:45.93	268.25	54.29	-41.3	-43.4	20.2	0.00e+00	0	41	0	693108736	54	4510
2026-01-02 10:36:49.94	271.15	54.02	-41.0	-43.1	20.4	0.00e+00	0	41	0	701497344	54	4362
2026-01-02 10:36:53.95	273.99	53.68	-41.3	-43.5	20.1	0.00e+00	0	41	0	708837376	53	4838
2026-01-02 10:36:57.96	276.76	53.27	-42.2	-44.5	19.1	0.00e+00	0	41	0	716177408	55	4818
2026-01-02 10:37:01.96	279.44	52.81	-41.9	-44.1	19.5	0.00e+00	0	41	0	723517440	55	4641
2026-01-02 10:37:05.96	282.03	52.28	-42.2	-44.5	19.1	0.00e+00	0	41	0	730857472	55	4860
2026-01-02 10:37:09.97	284.54	51.71	-42.8	-45.2	18.6	0.00e+00	0	41	0	738197504	56	4963
2026-01-02 10:37:13.98	286.94	51.09	-42.9	-45.3	18.5	0.00e+00	0	41	0	746586112	57	4732
2026-01-02 10:37:17.99	289.25	50.43	-44.1	-46.8	17.0	0.00e+00	0	41	0	753926144	58	5339
2026-01-02 10:37:22.01	291.46	49.73	-46.0	-49.7	14.2	1.50e-06	0	41	0	761266176	62	5923
2026-01-02 10:37:26.02	293.56	49.00	-46.5	-50.6	13.4	3.80e-06	0	41	0	768606208	63	6140
2026-01-02 10:37:30.02	295.56	48.24	-46.3	-50.2	13.6	1.44e-05	0	41	0	775946240	64	5558
2026-01-02 10:37:34.04	297.47	47.47	-47.0	-51.8	11.9	7.12e-04	0	41	0	783286272	65	6286
2026-01-02 10:37:38.04	299.28	46.67	-45.7	-49.2	14.7	0.00e+00	0	41	0	791674880	62	5554
2026-01-02 10:37:42.05	301.01	45.87	-43.6	-46.3	17.5	0.00e+00	0	41	0	799014912	59	4718
2026-01-02 10:37:46.06	302.65	45.05	-45.0	-48.2	15.6	0.00e+00	0	41	0	806354944	60	5570
2026-01-02 10:37:50.07	304.21	44.22	-44.0	-46.8	17.1	0.00e+00	0	41	0	813694976	60	4743
2026-01-02 10:37:54.09	305.69	43.39	-45.5	-49.0	14.9	0.00e+00	0	41	0	821035008	61	5755
2026-01-02 10:37:58.10	307.10	42.56	-43.8	-46.6	17.2	0.00e+00	0	41	0	828375040	59	4887
2026-01-02 10:38:02.11	308.43	41.73	-46.9	-52.1	11.6	7.48e-04	0	41	0	836763648	64	6911
2026-01-02 10:38:06.11	309.70	40.91	-45.6	-49.4	14.4	3.00e-06	0	41	0	844103680	63	5385
2026-01-02 10:38:10.12	310.91	40.08	-46.5	-51.0	12.6	2.24e-03	0	41	0	851443712	65	5731
2026-01-02 10:38:14.13	312.06	39.27	-45.8	-49.4	14.5	7.60e-06	0	41	0	858783744	62	5704
2026-01-02 10:38:18.14	313.15	38.46	-46.4	-50.9	12.5	1.20e-02	0	41	0	866123776	64	6023
2026-01-02 10:38:22.15	314.19	37.66	-44.8	-48.0	15.8	0.00e+00	0	41	0	873463808	60	5459
2026-01-02 10:38:26.15	315.18	36.87	-46.3	-50.7	13.0	1.04e-04	0	41	0	881852416	64	5884
2026-01-02 10:38:30.16	316.13	36.09	-43.7	-46.5	17.3	0.00e+00	0	41	0	889192448	59	4831
2026-01-02 10:38:34.17	317.03	35.32	-46.2	-50.2	13.6	3.80e-06	0	41	0	896532480	63	5908
2026-01-02 10:38:38.18	317.89	34.56	-44.4	-47.4	16.5	0.00e+00	0	41	0	903872512	60	5052
2026-01-02 10:38:42.19	318.72	33.81	-44.9	-48.5	15.4	0.00e+00	0	41	0	911212544	60	5760
2026-01-02 10:38:46.21	319.51	33.07	-45.3	-49.4	14.4	1.50e-06	0	41	0	918552576	61	6005
2026-01-02 10:38:50.21	320.26	32.35	-44.4	-47.5	16.3	0.00e+00	0	41	0	926941184	60	5147
2026-01-02 10:38:54.22	320.98	31.64	-45.0	-48.4	15.5	0.00e+00	0	41	0	934281216	60	5662
2026-01-02 10:38:58.23	321.68	30.94	-46.0	-50.6	13.2	2.74e-05	0	41	0	941621248	62	6547
2026-01-02 10:39:02.24	322.34	30.25	-45.2	-49.1	14.7	7.00e-07	0	41	0	948961280	62	5495
2026-01-02 10:39:06.24	322.98	29.58	-44.7	-47.9	15.9	0.00e+00	0	41	0	956301312	61	5093
2026-01-02 10:39:10.25	323.59	28.92	-45.3	-48.7	15.1	0.00e+00	0	41	0	963641344	61	5582
2026-01-02 10:39:14.26	324.18	28.27	-44.7	-48.0	15.9	0.00e+00	0	41	0	972029952	61	5103
2026-01-02 10:39:18.26	324.74	27.63	-43.5	-46.4	17.3	0.00e+00	0	41	0	979369984	59	4790
2026-01-02 10:39:22.28	325.29	27.00	-43.4	-46.4	17.4	0.00e+00	0	41	0	986710016	58	5064
2026-01-02 10:39:26.28	325.81	26.39	-44.1	-47.3	16.5	0.00e+00	0	41	0	994050048	58	5608
2026-01-02 10:39:30.29	326.32	25.79	-44.5	-47.7	16.1	0.00e+00	0	41	0	1001390080	60	5241
2026-01-02 10:39:34.30	326.80	25.19	-43.9	-46.8	16.9	0.00e+00	0	41	0	1008730112	59	4986
2026-01-02 10:39:38.31	327.27	24.61	-43.4	-46.2	17.5	0.00e+00	0	41	0	1017118720	58	4964
2026-01-02 10:39:42.32	327.73	24.04	-43.3	-46.4	17.3	0.00e+00	0	41	0	1024458752	58	5087
2026-01-02 10:39:46.33	328.17	23.48	-43.8	-46.9	16.8	0.00e+00	0	41	0	1031798784	58	5385
2026-01-02 10:39:50.34	328.59	22.94	-44.0	-46.8	16.9	0.00e+00	0	41	0	1039138816	58	5305
2026-01-02 10:39:54.35	329.00	22.40	-43.6	-46.3	17.4	0.00e+00	0	41	0	1046478848	58	5035
2026-01-02 10:39:58.36	329.40	21.87	-43.5	-46.1	17.6	0.00e+00	0	41	0	1054867456	58	4906
2026-01-02 10:40:02.37	329.78	21.35	-43.7	-46.7	17.0	0.00e+00	0	41	0	1062207488	58	5254
2026-01-02 10:40:06.38	330.15	20.84	-44.0	-47.5	16.2	0.00e+00	0	41	0	1069547520	58	5723
2026-01-02 10:40:10.40	330.51	20.34	-44.3	-47.7	15.9	0.00e+00	0	41	0	1076887552	59	5586
2026-01-02 10:40:14.41	330.86	19.84	-44.1	-47.1	16.5	0.00e+00	0	41	0	1084227584	59	5211
2026-01-02 10:40:18.41	331.20	19.36	-43.7	-46.5	17.2	0.00e+00	0	41	0	1091567616	59	4832
2026-01-02 10:40:22.43	331.53	18.89	-43.3	-45.9	17.7	0.00e+00	0	41	0	1099956224	58	4776
2026-01-02 10:40:26.43	331.85	18.42	-43.2	-45.9	17.7	0.00e+00	0	41	0	1107296256	58	4788
2026-01-02 10:40:30.45	332.16	17.96	-43.1	-46.1	17.5	0.00e+00	0	41	0	1114636288	58	4889
2026-01-02 10:40:34.45	332.46	17.51	-43.3	-46.4	17.2	0.00e+00	0	41	0	1121976320	58	5091
2026-01-02 10:40:38.46	332.76	17.07	-43.3	-46.3	17.3	0.00e+00	0	41	0	1129316352	58	5018
2026-01-02 10:40:42.47	333.04	16.63	-43.3	-46.1	17.5	0.00e+00	0	41	0	1136656384	58	4898
2026-01-02 10:40:46.48	333.32	16.20	-43.1	-46.0	17.6	0.00e+00	0	41	0	1145044992	58	4816
2026-01-02 10:40:50.48	333.59	15.78	-42.9	-45.6	17.9	0.00e+00	0	41	0	1152385024	57	4910
2026-01-02 10:40:54.49	333.86	15.37	-43.2	-45.9	17.6	0.00e+00	0	41	0	1159725056	57	5062
2026-01-02 10:40:58.50	334.11	14.96	-43.4	-46.1	17.4	0.00e+00	0	41	0	1167065088	57	5204
2026-01-02 10:41:02.51	334.36	14.55	-43.7	-46.7	16.9	0.00e+00	0	41	0	1174405120	58	5222
2026-01-02 10:41:06.52	334.61	14.16	-43.9	-47.0	16.6	0.00e+00	0	41	0	1181745152	58	5419
2026-01-02 10:41:10.53	334.85	13.77	-44.0	-47.2	16.3	0.00e+00	0	41	0	1190133760	58	5559
2026-01-02 10:41:14.54	335.08	13.38	-44.0	-47.1	16.4	0.00e+00	0	41	0	1197473792	58	5498
2026-01-02 10:41:18.55	335.31	13.00	-44.0	-47.0	16.5	0.00e+00	0	41	0	1204813824	58	5415
2026-01-02 10:41:22.56	335.53	12.63	-43.8	-46.8	16.7	0.00e+00	0	41	0	1212153856	58	5283
2026-01-02 10:41:26.56	335.74	12.26	-43.6	-46.8	16.7	0.00e+00	0	41	0	1219493888	58	5293
2026-01-02 10:41:30.57	335.96	11.90	-43.4	-46.6	16.9	0.00e+00	0	41	0	1226833920	58	5199
2026-01-02 10:41:34.57	336.16	11.54	-43.3	-46.7	16.7	0.00e+00	0	41	0	1235222528	58	5265
2026-01-02 10:41:38.59	336.37	11.19	-43.5	-46.9	16.6	0.00e+00	0	41	0	1242562560	58	5346
2026-01-02 10:41:42.60	336.57	10.84	-43.7	-47.1	16.2	0.00e+00	0	41	0	1249902592	58	5526
2026-01-02 10:41:46.61	336.76	10.49	-44.0	-47.6	15.8	0.00e+00	0	41	0	1257242624	58	5827
2026-01-02 10:41:50.62	336.95	10.16	-44.2	-47.8	15.6	0.00e+00	0	41	0	1264582656	59	5617
2026-01-02 10:41:54.63	337.14	9.82	-44.4	-48.0	15.3	0.00e+00	0	41	0	1271922688	59	5771
2026-01-02 10:41:58.63	337.32	9.49	-44.5	-48.2	15.2	0.00e+00	0	41	0	1280311296	59	5890
2026-01-02 10:42:02.64	337.50	9.16	-44.4	-48.1	15.2	0.00e+00	0	41	0	1287651328	59	5845
2026-01-02 10:42:06.65	337.67	8.84	-49.2	-64.8	3.8	1.49e+00	0	41	104	1291845632	69	22387
2026-01-02 10:42:10.67	337.84	8.52	-49.3	-65.1	3.9	1.49e+00	0	41	104	1291845632	69	23121
2026-01-02 10:42:14.68	338.01	8.21	-50.0	-65.2	3.8	1.49e+00	0	41	104	1291845632	70	22201
2026-01-02 10:42:18.69	338.18	7.90	-49.7	-65.2	3.8	1.49e+00	0	41	104	1291845632	70	22242
2026-01-02 10:42:22.70	338.34	7.59	-50.0	-65.2	3.8	1.49e+00	0	41	104	1291845632	70	22121
2026-01-02 10:42:26.71	338.50	7.29	-49.9	-65.2	3.8	1.49e+00	0	41	104	1291845632	70	22119
2026-01-02 10:42:30.73	338.66	6.98	-49.8	-65.2	3.8	1.49e+00	0	41	104	1291845632	70	22102
2026-01-02 10:42:34.74	338.81	6.69	-49.7	-65.1	3.8	1.49e+00	0	41	104	1291845632	70	21969
2026-01-02 10:42:38.76	338.96	6.39	-49.7	-65.1	3.8	1.49e+00	0	41	104	1291845632	70	21971
2026-01-02 10:42:42.77	339.11	6.10	-49.7	-65.1	3.8	1.49e+00	0	41	104	1291845632	70	21889
2026-01-02 10:42:46.78	339.25	5.81	-49.7	-65.1	3.8	1.49e+00	0	41	104	1291845632	70	21836
2026-01-02 10:42:50.80	339.40	5.53	-49.7	-65.1	3.8	1.49e+00	0	41	104	1291845632	70	21857
2026-01-02 10:42:54.81	339.54	5.25	-49.7	-65.1	3.8	1.49e+00	0	41	104	1291845632	70	21854
2026-01-02 10:42:58.83	339.68	4.97	-49.7	-65.1	3.8	1.49e+00	0	41	104	1291845632	70	21847

#Closed at: 2026-01-02 10:42:59
#Recorded file [1291 MB]: D:/Data/31040_260102_133013.dat