passes_logs/2026/01/02/T1/T1__20260102_213643_KHAYYAM_rec.log

#Pass ID: 20260102_213643_KHAYYAM
#Satellite: KHAYYAM
#Configuration: KHAYYAM_480M
#almurnet v.1.7.20251203
#Start time: 2026-01-02 21:36:43

#Version: 2.0.20230620
#Station: T1
#Location: 37.570604 lon 55.790049 lat
#TLE: 1 53370U 22096A   26002.29060447  .00010341  00000+0  42111-3 0  9999
#TLE: 2 53370  97.3571 269.5268 0001216  80.5229 279.6146 15.24671812189309

#Time	Az	El	Level	Level2	SNR	BER	BlckErr	Temp	State	Recorded	gain1	gain2
2026-01-02 21:36:43.60	10.18	5.01	-47.7	-53.6	3.4	0.00e+00	0	45	0	0	67	27638
2026-01-02 21:36:45.60	10.13	5.17	-47.2	-53.6	3.8	0.00e+00	0	46	104	0	65	30960
2026-01-02 21:36:47.61	10.08	5.33	-47.2	-53.6	3.7	0.00e+00	0	46	104	0	65	31144
2026-01-02 21:36:49.62	10.02	5.50	-47.2	-53.6	3.7	0.00e+00	0	46	104	0	65	30971
2026-01-02 21:36:51.63	9.97	5.66	-47.2	-53.6	3.8	0.00e+00	0	46	104	0	65	31078
2026-01-02 21:36:53.64	9.91	5.83	-47.2	-53.6	3.8	0.00e+00	0	46	104	0	65	30917
2026-01-02 21:36:55.65	9.86	6.00	-47.2	-53.5	3.8	0.00e+00	0	47	104	0	65	30832
2026-01-02 21:36:57.66	9.80	6.17	-47.3	-53.7	3.8	0.00e+00	0	47	104	0	65	31240
2026-01-02 21:36:59.67	9.74	6.34	-47.3	-53.6	3.7	0.00e+00	0	47	104	0	65	31158
2026-01-02 21:37:01.67	9.68	6.51	-47.2	-53.6	3.8	0.00e+00	0	47	104	0	65	30914
2026-01-02 21:37:03.68	9.62	6.69	-47.2	-53.6	3.7	0.00e+00	0	47	104	0	65	31130
2026-01-02 21:37:05.69	9.56	6.86	-47.2	-53.6	3.7	0.00e+00	0	47	104	0	65	30941
2026-01-02 21:37:07.70	9.50	7.04	-47.2	-53.6	3.7	0.00e+00	0	47	104	0	65	30918
2026-01-02 21:37:09.70	9.44	7.22	-47.2	-53.5	3.7	0.00e+00	0	48	104	0	65	30801
2026-01-02 21:37:11.71	9.37	7.40	-47.2	-53.6	3.7	0.00e+00	0	48	104	0	65	31012
2026-01-02 21:37:13.72	9.31	7.58	-47.3	-53.6	3.8	0.00e+00	0	48	104	0	65	31085
2026-01-02 21:37:15.73	9.24	7.77	-47.2	-53.6	3.7	0.00e+00	0	48	104	0	65	30927
2026-01-02 21:37:17.74	9.17	7.96	-47.3	-53.6	3.8	0.00e+00	0	48	104	0	65	31176
2026-01-02 21:37:19.75	9.10	8.14	-47.3	-53.6	3.8	0.00e+00	0	48	104	0	65	30991
2026-01-02 21:37:21.76	9.03	8.33	-47.2	-53.6	3.7	0.00e+00	0	49	104	0	65	31026
2026-01-02 21:37:23.76	8.96	8.53	-47.3	-53.6	3.7	0.00e+00	0	49	104	0	65	30986
2026-01-02 21:37:25.78	8.89	8.72	-47.3	-53.6	3.7	0.00e+00	0	49	104	0	65	31089
2026-01-02 21:37:27.78	8.81	8.92	-47.2	-53.6	3.7	0.00e+00	0	49	104	0	65	31089
2026-01-02 21:37:29.79	8.74	9.11	-47.1	-53.5	3.8	0.00e+00	0	49	104	0	65	30831
2026-01-02 21:37:31.86	8.66	9.32	-48.1	-54.2	3.7	0.00e+00	0	49	104	0	66	31540
2026-01-02 21:37:33.93	8.58	9.53	-47.0	-53.4	3.8	0.00e+00	0	49	104	0	66	28667
2026-01-02 21:37:36.03	8.49	9.74	-46.9	-53.3	3.8	0.00e+00	0	49	104	0	65	29864
2026-01-02 21:37:38.03	8.41	9.95	-47.3	-53.6	3.7	0.00e+00	0	49	104	0	65	30910
2026-01-02 21:37:40.30	8.32	10.19	-48.4	-54.6	3.7	0.00e+00	0	49	104	0	67	31150
2026-01-02 21:37:42.33	8.23	10.40	-48.3	-54.4	3.7	0.00e+00	0	49	104	0	68	28485
2026-01-02 21:37:44.34	8.14	10.62	-48.3	-54.2	3.7	0.00e+00	0	49	104	0	68	28148
2026-01-02 21:37:46.34	8.06	10.83	-48.5	-54.5	3.7	0.00e+00	0	49	104	0	68	29056
2026-01-02 21:37:48.35	7.97	11.05	-48.7	-54.8	3.7	0.00e+00	0	50	104	0	68	30081
2026-01-02 21:37:50.36	7.87	11.27	-50.0	-55.4	3.7	0.00e+00	0	49	104	0	70	28572
2026-01-02 21:37:52.36	7.78	11.50	-50.0	-55.8	3.7	0.00e+00	0	50	104	0	70	29924
2026-01-02 21:37:54.37	7.68	11.73	-50.0	-55.5	3.7	0.00e+00	0	49	104	0	70	28938
2026-01-02 21:37:56.38	7.58	11.96	-50.2	-55.8	3.7	0.00e+00	0	50	104	0	71	28211
2026-01-02 21:37:58.35	7.49	12.18	-50.3	-56.0	3.7	0.00e+00	0	50	104	0	71	29084
2026-01-02 21:38:00.42	7.38	12.43	-49.5	-54.9	3.7	0.00e+00	0	50	104	0	70	27088
2026-01-02 21:38:02.43	7.28	12.67	-50.0	-55.2	3.7	0.00e+00	0	50	104	0	70	27984
2026-01-02 21:38:04.44	7.17	12.91	-50.2	-55.6	3.7	0.00e+00	0	50	104	0	71	27699
2026-01-02 21:38:06.44	7.06	13.15	-50.5	-55.8	3.7	0.00e+00	0	50	104	0	72	26666
2026-01-02 21:38:08.45	6.95	13.40	-50.5	-56.1	3.7	0.00e+00	0	50	104	0	71	29185
2026-01-02 21:38:10.45	6.83	13.65	-50.2	-55.7	3.7	0.00e+00	0	50	104	0	71	28031
2026-01-02 21:38:12.48	6.72	13.91	-50.2	-55.8	3.7	0.00e+00	0	50	104	0	71	28293
2026-01-02 21:38:14.48	6.60	14.17	-50.4	-56.0	3.7	0.00e+00	0	50	104	0	71	29004
2026-01-02 21:38:16.49	6.48	14.43	-50.3	-55.2	3.7	0.00e+00	0	50	104	0	71	26415
2026-01-02 21:38:18.50	6.35	14.70	-50.8	-55.8	3.7	0.00e+00	0	50	104	0	73	25124
2026-01-02 21:38:20.51	6.22	14.97	-50.9	-56.2	3.7	0.00e+00	0	50	104	0	72	28129
2026-01-02 21:38:22.52	6.09	15.24	-50.8	-56.1	3.7	0.00e+00	0	50	104	0	72	27613
2026-01-02 21:38:24.52	5.96	15.52	-50.4	-55.5	3.7	0.00e+00	0	50	104	0	72	25697
2026-01-02 21:38:26.53	5.82	15.80	-51.5	-56.1	3.7	0.00e+00	0	50	104	0	73	26256
2026-01-02 21:38:28.53	5.68	16.08	-50.2	-55.2	3.7	0.00e+00	0	51	104	0	72	25082
2026-01-02 21:38:30.54	5.54	16.38	-50.5	-55.6	3.7	0.00e+00	0	50	104	0	72	26095
2026-01-02 21:38:32.54	5.39	16.67	-50.4	-54.8	3.7	0.00e+00	0	50	104	0	72	23910
2026-01-02 21:38:34.55	5.24	16.97	-50.8	-54.8	3.7	0.00e+00	0	50	104	0	72	23943
2026-01-02 21:38:36.56	5.09	17.27	-50.4	-54.6	3.7	0.00e+00	0	50	104	0	72	23188
2026-01-02 21:38:38.56	4.93	17.58	-50.3	-54.5	3.7	0.00e+00	0	50	104	0	72	22989
2026-01-02 21:38:40.57	4.77	17.89	-50.7	-55.0	3.7	0.00e+00	0	51	104	0	72	24490
2026-01-02 21:38:42.57	4.60	18.21	-50.7	-54.8	3.7	0.00e+00	0	50	104	0	72	23872
2026-01-02 21:38:44.58	4.43	18.53	-51.4	-55.5	3.7	0.00e+00	0	51	104	0	73	24368
2026-01-02 21:38:46.62	4.25	18.87	-51.0	-55.3	3.7	0.00e+00	0	51	104	0	73	23915
2026-01-02 21:38:48.69	4.07	19.21	-51.3	-55.1	3.7	0.00e+00	0	50	104	0	73	23276
2026-01-02 21:38:50.94	3.86	19.59	-51.2	-54.8	3.7	0.00e+00	0	51	104	0	73	22383
2026-01-02 21:38:52.95	3.67	19.94	-51.3	-56.5	3.7	0.00e+00	0	50	104	0	73	27316
2026-01-02 21:38:54.96	3.47	20.29	-52.1	-56.6	3.7	0.00e+00	0	51	104	0	74	26136
2026-01-02 21:38:56.96	3.27	20.65	-50.4	-55.9	3.7	0.00e+00	0	51	104	0	72	26942
2026-01-02 21:38:58.97	3.07	21.01	-50.2	-55.8	3.7	0.00e+00	0	51	104	0	72	26788
2026-01-02 21:39:00.98	2.85	21.39	-50.9	-56.1	3.7	0.00e+00	0	51	104	0	72	27618
2026-01-02 21:39:03.17	2.61	21.80	-51.2	-56.3	3.7	0.00e+00	0	51	104	0	73	26628
2026-01-02 21:39:05.21	2.39	22.19	-51.7	-56.6	3.7	0.00e+00	0	51	104	0	74	26104
2026-01-02 21:39:07.22	2.15	22.58	-51.6	-56.6	3.7	0.00e+00	0	51	104	0	73	27795
2026-01-02 21:39:09.23	1.91	22.98	-51.1	-56.2	3.7	0.00e+00	0	51	104	0	73	26517
2026-01-02 21:39:11.23	1.67	23.39	-51.6	-56.6	3.7	0.00e+00	0	51	104	0	73	27718
2026-01-02 21:39:13.28	1.41	23.81	-51.7	-56.7	3.7	0.00e+00	0	51	104	0	74	26280
2026-01-02 21:39:15.28	1.14	24.23	-52.0	-56.8	3.7	0.00e+00	0	51	104	0	74	26769
2026-01-02 21:39:17.29	0.87	24.66	-51.9	-56.9	3.7	0.00e+00	0	51	104	0	74	27135
2026-01-02 21:39:19.49	0.57	25.14	-52.3	-57.0	3.7	0.00e+00	0	51	104	0	75	25771
2026-01-02 21:39:21.49	0.28	25.59	-52.6	-56.9	3.7	0.00e+00	0	51	104	0	75	25650
2026-01-02 21:39:23.49	359.98	26.04	-52.7	-57.3	3.7	0.00e+00	0	51	104	0	76	25217
2026-01-02 21:39:25.50	359.67	26.51	-52.5	-57.0	3.7	0.00e+00	0	51	104	0	76	24424
2026-01-02 21:39:27.51	359.35	26.98	-52.4	-56.7	3.7	0.00e+00	0	51	104	0	76	23651
2026-01-02 21:39:29.51	359.02	27.46	-52.9	-57.4	3.7	0.00e+00	0	51	104	0	76	25467
2026-01-02 21:39:31.52	358.68	27.96	-52.5	-57.2	3.7	0.00e+00	0	51	104	0	76	24980
2026-01-02 21:39:33.53	358.32	28.46	-51.8	-56.3	3.7	0.00e+00	0	51	104	0	75	23719
2026-01-02 21:39:35.54	357.95	28.97	-52.3	-57.0	3.7	0.00e+00	0	51	104	0	75	25716
2026-01-02 21:39:37.54	357.57	29.49	-52.5	-57.3	3.7	0.00e+00	0	51	104	0	75	26725
2026-01-02 21:39:39.55	357.18	30.03	-53.0	-57.6	3.7	0.00e+00	0	51	104	0	76	26129
2026-01-02 21:39:41.56	356.77	30.57	-52.8	-57.4	3.7	0.00e+00	0	51	104	0	76	25456
2026-01-02 21:39:43.56	356.34	31.12	-52.5	-57.2	3.7	0.00e+00	0	51	104	0	76	24922
2026-01-02 21:39:45.57	355.90	31.69	-51.9	-56.7	3.7	0.00e+00	0	51	104	0	75	24956
2026-01-02 21:39:47.57	355.44	32.27	-52.0	-56.8	3.7	0.00e+00	0	51	104	0	75	25278
2026-01-02 21:39:49.58	354.97	32.86	-52.1	-57.1	3.7	0.00e+00	0	51	104	0	75	26267
2026-01-02 21:39:52.06	354.35	33.60	-52.0	-57.0	3.7	0.00e+00	0	51	104	0	75	25716
2026-01-02 21:39:54.13	353.81	34.23	-51.9	-56.6	3.7	0.00e+00	0	51	104	0	75	24564
2026-01-02 21:39:56.14	353.26	34.86	-51.7	-56.5	3.7	0.00e+00	0	51	104	0	75	24365
2026-01-02 21:39:58.14	352.70	35.50	-52.1	-57.1	3.7	0.00e+00	0	51	104	0	75	26157
2026-01-02 21:40:00.15	352.10	36.15	-52.1	-57.1	3.7	0.00e+00	0	51	104	0	75	26275
2026-01-02 21:40:02.19	351.47	36.82	-51.1	-56.3	3.7	0.00e+00	0	51	104	0	74	25319
2026-01-02 21:40:04.20	350.83	37.50	-50.6	-56.0	3.7	0.00e+00	0	51	104	0	73	25876
2026-01-02 21:40:06.20	350.15	38.18	-52.2	-57.1	3.7	0.00e+00	0	51	104	0	75	25991
2026-01-02 21:40:08.21	349.44	38.88	-52.6	-57.2	3.7	0.00e+00	0	51	104	0	75	26305
2026-01-02 21:40:10.22	348.70	39.59	-52.6	-57.3	3.7	0.00e+00	0	51	104	0	75	26639
2026-01-02 21:40:12.43	347.84	40.39	-52.6	-57.4	3.7	0.00e+00	0	51	104	0	76	25584
2026-01-02 21:40:14.62	346.94	41.19	-52.1	-57.1	3.7	0.00e+00	0	51	104	0	76	24562
2026-01-02 21:40:16.79	346.01	42.00	-52.8	-57.4	3.7	0.00e+00	0	51	104	0	76	25484
2026-01-02 21:40:18.94	345.03	42.81	-52.2	-57.1	3.7	0.00e+00	0	51	104	0	76	24614
2026-01-02 21:40:21.11	343.99	43.64	-51.3	-56.7	3.7	0.00e+00	0	51	104	0	74	26321
2026-01-02 21:40:23.62	342.72	44.61	-52.2	-57.1	3.7	0.00e+00	0	51	104	0	75	26237
2026-01-02 21:40:25.79	341.54	45.45	-53.0	-57.5	3.7	0.00e+00	0	51	104	0	76	25701
2026-01-02 21:40:27.95	340.31	46.30	-52.9	-57.6	3.7	0.00e+00	0	51	104	0	76	26106
2026-01-02 21:40:30.13	338.99	47.17	-51.9	-57.0	3.7	0.00e+00	0	51	104	0	75	25702
2026-01-02 21:40:32.43	337.52	48.08	-52.5	-57.3	3.7	0.00e+00	0	51	104	0	75	26638
2026-01-02 21:40:34.59	336.05	48.94	-52.7	-57.5	3.7	0.00e+00	0	51	104	0	76	25719
2026-01-02 21:40:37.12	334.22	49.94	-52.2	-57.1	3.7	0.00e+00	0	51	104	0	76	24659
2026-01-02 21:40:39.13	332.67	50.74	-52.8	-57.4	3.7	0.00e+00	0	51	104	0	76	25557
2026-01-02 21:40:41.17	331.01	51.53	-52.8	-57.4	3.7	0.00e+00	0	51	104	0	77	24196
2026-01-02 21:40:43.25	329.23	52.33	-52.7	-57.3	3.7	0.00e+00	0	51	104	0	77	23942
2026-01-02 21:40:45.18	327.48	53.06	-51.8	-56.7	3.7	0.00e+00	0	51	104	0	75	25011
2026-01-02 21:40:47.18	325.57	53.79	-52.3	-57.0	3.7	0.00e+00	0	51	104	0	75	25959
2026-01-02 21:40:49.19	323.55	54.51	-52.4	-57.3	3.7	0.00e+00	0	51	104	0	75	26744
2026-01-02 21:40:51.23	321.40	55.21	-52.3	-56.9	3.7	0.00e+00	0	51	104	0	75	25668
2026-01-02 21:40:53.23	319.18	55.87	-52.3	-56.9	3.7	0.00e+00	0	51	104	0	76	24225
2026-01-02 21:40:55.24	316.84	56.50	-52.1	-56.7	3.7	0.00e+00	0	51	104	0	75	25011
2026-01-02 21:40:57.24	314.41	57.08	-52.7	-57.1	3.7	0.00e+00	0	51	104	0	76	24676
2026-01-02 21:40:59.25	311.86	57.62	-52.3	-56.9	3.7	0.00e+00	0	51	104	0	76	24227
2026-01-02 21:41:01.26	309.21	58.11	-53.0	-57.6	3.7	0.00e+00	0	51	104	0	76	26062
2026-01-02 21:41:03.26	306.48	58.54	-52.9	-57.4	3.7	0.00e+00	0	51	104	0	76	25613
2026-01-02 21:41:05.27	303.65	58.92	-52.8	-57.2	3.7	0.00e+00	0	51	104	0	76	24875
2026-01-02 21:41:07.28	300.74	59.23	-52.9	-57.3	3.7	0.00e+00	0	51	104	0	76	25295
2026-01-02 21:41:09.28	297.79	59.48	-52.9	-57.2	3.7	0.00e+00	0	51	104	0	76	25029
2026-01-02 21:41:11.29	294.76	59.65	-52.8	-57.2	3.7	0.00e+00	0	51	104	0	76	25031
2026-01-02 21:41:13.30	291.71	59.76	-52.8	-57.0	3.7	0.00e+00	0	51	104	0	76	24425
2026-01-02 21:41:15.30	288.65	59.79	-52.7	-57.2	3.7	0.00e+00	0	51	104	0	76	25060
2026-01-02 21:41:17.66	285.05	59.74	-52.6	-57.1	3.7	0.00e+00	0	51	104	0	76	24720
2026-01-02 21:41:19.71	281.94	59.61	-52.8	-57.2	3.7	0.00e+00	0	51	104	0	76	25087
2026-01-02 21:41:21.72	278.93	59.41	-53.1	-57.5	3.7	0.00e+00	0	52	104	0	76	25944
2026-01-02 21:41:23.72	275.99	59.14	-52.9	-57.5	3.6	0.00e+00	0	52	104	0	76	25892
2026-01-02 21:41:25.73	273.10	58.80	-52.6	-57.3	3.7	0.00e+00	0	51	104	0	76	25324
2026-01-02 21:41:27.78	270.24	58.40	-53.1	-57.7	3.7	0.00e+00	0	51	104	0	77	25009
2026-01-02 21:41:29.85	267.44	57.93	-53.0	-57.6	3.7	0.00e+00	0	51	104	0	77	24570
2026-01-02 21:41:31.85	264.84	57.42	-52.7	-57.3	3.7	0.00e+00	0	51	104	0	77	23873
2026-01-02 21:41:33.97	262.19	56.83	-52.6	-57.3	3.7	0.00e+00	0	51	104	0	77	23812
2026-01-02 21:41:35.98	259.79	56.23	-52.7	-57.2	3.7	0.00e+00	0	51	104	0	76	24939
2026-01-02 21:41:37.99	257.49	55.58	-52.7	-57.4	3.7	0.00e+00	0	51	104	0	76	25533
2026-01-02 21:41:40.02	255.28	54.90	-53.0	-57.5	3.7	0.00e+00	0	51	104	0	77	24407
2026-01-02 21:41:42.03	253.20	54.19	-52.9	-57.4	3.7	0.00e+00	0	51	104	0	77	24216
2026-01-02 21:41:44.21	251.06	53.40	-52.9	-57.6	3.7	0.00e+00	0	51	104	0	77	24535
2026-01-02 21:41:46.34	249.08	52.60	-53.0	-57.7	3.7	0.00e+00	0	51	104	0	77	25046
2026-01-02 21:41:48.35	247.32	51.83	-52.5	-57.3	3.7	0.00e+00	0	51	104	0	77	23793
2026-01-02 21:41:50.45	245.57	51.02	-53.0	-57.7	3.7	0.00e+00	0	51	104	0	77	24892
2026-01-02 21:41:52.63	243.86	50.16	-52.9	-57.4	3.7	0.00e+00	0	51	104	0	77	24052
2026-01-02 21:41:54.66	242.35	49.35	-52.5	-57.4	3.7	0.00e+00	0	51	104	0	77	24112
2026-01-02 21:41:56.73	240.89	48.53	-52.5	-57.4	3.7	0.00e+00	0	51	104	0	76	25623
2026-01-02 21:41:58.74	239.55	47.72	-52.7	-57.6	3.7	0.00e+00	0	51	104	0	76	26039
2026-01-02 21:42:00.75	238.29	46.92	-53.1	-57.7	3.7	0.00e+00	0	51	104	0	76	26341
2026-01-02 21:42:02.76	237.08	46.12	-53.2	-57.7	3.7	0.00e+00	0	51	104	0	77	25029
2026-01-02 21:42:04.76	235.95	45.33	-53.1	-57.5	3.7	0.00e+00	0	51	104	0	77	24487
2026-01-02 21:42:07.04	234.72	44.44	-53.2	-57.6	3.7	0.00e+00	0	52	104	0	77	24685
2026-01-02 21:42:09.05	233.70	43.66	-52.2	-56.9	3.7	0.00e+00	0	51	104	0	76	23978
2026-01-02 21:42:11.06	232.72	42.89	-51.9	-56.5	3.7	0.00e+00	0	51	104	0	75	24452
2026-01-02 21:42:13.08	231.79	42.12	-52.4	-56.8	3.7	0.00e+00	0	51	104	0	75	25375
2026-01-02 21:42:15.16	230.88	41.34	-53.0	-57.4	3.7	0.00e+00	0	52	104	0	76	25446
2026-01-02 21:42:17.19	230.04	40.59	-53.2	-57.7	3.7	0.00e+00	0	51	104	0	76	26498
2026-01-02 21:42:19.20	229.24	39.86	-53.0	-57.7	3.6	0.00e+00	0	52	104	0	76	26402
2026-01-02 21:42:21.21	228.48	39.14	-52.7	-57.4	3.7	0.00e+00	0	51	104	0	76	25580
2026-01-02 21:42:23.22	227.75	38.43	-52.9	-57.4	3.7	0.00e+00	0	51	104	0	76	25564
2026-01-02 21:42:25.22	227.06	37.74	-53.0	-57.6	3.7	0.00e+00	0	52	104	0	77	24548
2026-01-02 21:42:27.28	226.38	37.04	-52.5	-57.4	3.7	0.00e+00	0	52	104	0	76	25464
2026-01-02 21:42:29.28	225.75	36.37	-52.0	-57.2	3.7	0.00e+00	0	51	104	0	75	26420
2026-01-02 21:42:31.29	225.14	35.71	-52.4	-57.4	3.7	0.00e+00	0	51	104	0	75	27170
2026-01-02 21:42:33.30	224.56	35.06	-52.6	-57.3	3.7	0.00e+00	0	52	104	0	76	25233
2026-01-02 21:42:35.30	224.01	34.43	-52.5	-57.2	3.7	0.00e+00	0	51	104	0	76	24902
2026-01-02 21:42:37.40	223.45	33.78	-52.7	-57.3	3.7	0.00e+00	0	51	104	0	76	25314
2026-01-02 21:42:39.41	222.94	33.16	-53.0	-57.3	3.7	0.00e+00	0	51	104	0	76	25186
2026-01-02 21:42:41.42	222.44	32.56	-53.1	-57.6	3.7	0.00e+00	0	51	104	0	76	26190
2026-01-02 21:42:43.42	221.97	31.98	-53.0	-57.5	3.7	0.00e+00	0	52	104	0	76	25941
2026-01-02 21:42:45.43	221.52	31.40	-52.7	-57.3	3.7	0.00e+00	0	52	104	0	76	25330
2026-01-02 21:42:47.44	221.08	30.84	-52.6	-57.3	3.7	0.00e+00	0	52	104	0	76	25109
2026-01-02 21:42:49.44	220.66	30.29	-52.5	-56.9	3.7	0.00e+00	0	51	104	0	76	24107
2026-01-02 21:42:51.45	220.25	29.74	-52.5	-57.1	3.7	0.00e+00	0	52	104	0	76	24529
2026-01-02 21:42:53.45	219.86	29.21	-52.5	-56.7	3.7	0.00e+00	0	52	104	0	76	23577
2026-01-02 21:42:55.46	219.48	28.69	-52.4	-56.6	3.7	0.00e+00	0	51	104	0	76	23411
2026-01-02 21:42:57.47	219.12	28.18	-52.7	-57.2	3.7	0.00e+00	0	51	104	0	76	24894
2026-01-02 21:42:59.47	218.77	27.68	-52.8	-57.2	3.7	0.00e+00	0	52	104	0	76	25076
2026-01-02 21:43:01.56	218.42	27.17	-52.7	-57.4	3.7	0.00e+00	0	51	104	0	76	25464
2026-01-02 21:43:03.56	218.09	26.69	-52.7	-57.2	3.7	0.00e+00	0	52	104	0	76	24901
2026-01-02 21:43:05.57	217.77	26.21	-52.6	-57.3	3.7	0.00e+00	0	51	104	0	76	25230
2026-01-02 21:43:07.58	217.46	25.75	-52.5	-57.3	3.7	0.00e+00	0	52	104	0	76	25192
2026-01-02 21:43:09.59	217.17	25.29	-52.2	-56.8	3.7	0.00e+00	0	51	104	0	76	23910
2026-01-02 21:43:11.59	216.88	24.85	-52.2	-56.9	3.7	0.00e+00	0	51	104	0	76	24131
2026-01-02 21:43:13.60	216.60	24.41	-52.6	-57.1	3.7	0.00e+00	0	51	104	0	76	24641
2026-01-02 21:43:15.71	216.32	23.96	-52.8	-57.3	3.7	0.00e+00	0	51	104	0	76	25224
2026-01-02 21:43:17.92	216.03	23.50	-52.6	-57.2	3.7	0.00e+00	0	52	104	0	76	24987
2026-01-02 21:43:20.14	215.75	23.04	-52.7	-57.2	3.7	0.00e+00	0	52	104	0	76	24960
2026-01-02 21:43:22.14	215.51	22.64	-52.5	-57.1	3.7	0.00e+00	0	51	104	0	76	24613
2026-01-02 21:43:24.14	215.27	22.24	-52.6	-57.2	3.7	0.00e+00	0	52	104	0	76	25006
2026-01-02 21:43:26.15	215.04	21.85	-52.4	-57.0	3.7	0.00e+00	0	52	104	0	76	24403
2026-01-02 21:43:28.15	214.82	21.47	-52.5	-57.1	3.7	0.00e+00	0	51	104	0	76	24618
2026-01-02 21:43:30.15	214.60	21.10	-52.3	-57.0	3.7	0.00e+00	0	52	104	0	76	24292
2026-01-02 21:43:32.16	214.39	20.73	-52.4	-57.0	3.7	0.00e+00	0	51	104	0	76	24320
2026-01-02 21:43:34.16	214.18	20.36	-52.1	-56.6	3.7	0.00e+00	0	52	104	0	76	23277
2026-01-02 21:43:36.17	213.98	20.01	-52.3	-56.8	3.7	0.00e+00	0	51	104	0	76	23861
2026-01-02 21:43:38.29	213.78	19.64	-52.3	-56.8	3.7	0.00e+00	0	52	104	0	76	23740
2026-01-02 21:43:40.28	213.59	19.29	-52.2	-56.5	3.7	0.00e+00	0	51	104	0	76	22996
2026-01-02 21:43:42.29	213.40	18.95	-52.5	-56.8	3.7	0.00e+00	0	51	104	0	76	23898
2026-01-02 21:43:44.29	213.23	18.62	-52.4	-56.9	3.7	0.00e+00	0	52	104	0	76	23994
2026-01-02 21:43:46.30	213.05	18.29	-52.4	-56.9	3.7	0.00e+00	0	52	104	0	76	24064
2026-01-02 21:43:48.35	212.88	17.96	-52.3	-56.9	3.7	0.00e+00	0	52	104	0	76	24086
2026-01-02 21:43:50.40	212.71	17.64	-52.3	-56.9	3.7	0.00e+00	0	52	104	0	76	24192
2026-01-02 21:43:52.63	212.53	17.29	-52.3	-56.9	3.7	0.00e+00	0	51	104	0	76	24041
2026-01-02 21:43:54.64	212.37	16.99	-52.4	-57.0	3.7	0.00e+00	0	52	104	0	76	24300
2026-01-02 21:43:56.65	212.21	16.68	-52.4	-56.9	3.7	0.00e+00	0	52	104	0	76	24103
2026-01-02 21:43:58.65	212.07	16.39	-52.3	-56.7	3.7	0.00e+00	0	52	104	0	76	23516
2026-01-02 21:44:00.61	211.92	16.10	-52.3	-56.7	3.7	0.00e+00	0	52	104	0	76	23624
2026-01-02 21:44:02.62	211.78	15.81	-52.4	-56.9	3.7	0.00e+00	0	52	104	0	76	24026
2026-01-02 21:44:04.81	211.63	15.50	-52.5	-57.0	3.7	0.00e+00	0	52	104	0	76	24308
2026-01-02 21:44:06.86	211.49	15.21	-52.5	-57.1	3.7	0.00e+00	0	51	104	0	76	24656
2026-01-02 21:44:08.86	211.35	14.94	-52.4	-57.0	3.7	0.00e+00	0	51	104	0	76	24431
2026-01-02 21:44:10.87	211.22	14.66	-52.6	-57.1	3.7	0.00e+00	0	51	104	0	76	24714
2026-01-02 21:44:12.87	211.10	14.40	-52.5	-57.0	3.7	0.00e+00	0	51	104	0	76	24507
2026-01-02 21:44:14.88	210.97	14.13	-52.4	-56.8	3.7	0.00e+00	0	52	104	0	76	23895
2026-01-02 21:44:16.88	210.85	13.87	-52.4	-56.8	3.7	0.00e+00	0	51	104	0	76	23824
2026-01-02 21:44:18.89	210.73	13.61	-52.1	-56.8	3.7	0.00e+00	0	51	104	0	76	23896
2026-01-02 21:44:20.89	210.62	13.36	-52.1	-56.7	3.7	0.00e+00	0	52	104	0	76	23475
2026-01-02 21:44:22.90	210.50	13.11	-52.2	-56.9	3.7	0.00e+00	0	52	104	0	76	24051
2026-01-02 21:44:24.90	210.39	12.86	-52.1	-56.9	3.7	0.00e+00	0	52	104	0	76	24196
2026-01-02 21:44:26.91	210.28	12.62	-52.2	-56.9	3.7	0.00e+00	0	52	104	0	76	24019
2026-01-02 21:44:28.85	210.18	12.39	-52.0	-56.9	3.7	0.00e+00	0	51	104	0	76	24040
2026-01-02 21:44:30.87	210.07	12.15	-52.1	-56.7	3.7	0.00e+00	0	52	104	0	76	23538
2026-01-02 21:44:32.88	209.97	11.91	-52.1	-56.7	3.7	0.00e+00	0	51	104	0	76	23605
2026-01-02 21:44:34.96	209.86	11.67	-51.8	-56.6	3.7	0.00e+00	0	51	104	0	75	24707
2026-01-02 21:44:37.22	209.75	11.41	-51.8	-56.5	3.7	0.00e+00	0	51	104	0	75	24468
2026-01-02 21:44:39.24	209.66	11.18	-51.5	-56.3	3.7	0.00e+00	0	52	104	0	74	25223
2026-01-02 21:44:41.25	209.56	10.96	-51.5	-56.3	3.7	0.00e+00	0	52	104	0	74	25294
2026-01-02 21:44:43.28	209.47	10.74	-51.2	-56.2	3.7	0.00e+00	0	51	104	0	74	24962
2026-01-02 21:44:45.29	209.38	10.52	-51.1	-56.0	3.7	0.00e+00	0	52	104	0	74	24410
2026-01-02 21:44:47.30	209.29	10.30	-50.9	-55.9	3.7	0.00e+00	0	52	104	0	73	25653
2026-01-02 21:44:49.53	209.19	10.07	-51.0	-56.0	3.7	0.00e+00	0	52	104	0	73	25787
2026-01-02 21:44:51.53	209.11	9.86	-51.0	-56.0	3.7	0.00e+00	0	52	104	
