passes_logs/2026/01/02/T1/T1__20260102_133000_AQUA_rec.log

#Pass ID: 20260102_133000_AQUA
#Satellite: AQUA
#Configuration: AQUA
#almurnet v.1.7.20251203
#Start time: 2026-01-02 13:30:00

#Version: 2.0.20230620
#Station: T1
#Location: 37.570604 lon 55.790049 lat
#TLE: 1 27424U 02022A   25365.92641127  .00002078  00000+0  42628-3 0  9999
#TLE: 2 27424  98.4058 327.1196 0001962  94.7781 340.6230 14.61783896258835

#Time	Az	El	Level	Level2	SNR	BER	BlckErr	Temp	State	Recorded	gain1	gain2
2026-01-02 13:30:00.13	228.73	4.98	-49.4	-70.4	3.8	7.47e-01	0	40	0	0	70	40269
2026-01-02 13:30:02.13	228.98	5.08	-49.4	-70.4	3.8	7.42e-01	0	41	104	0	69	42756
2026-01-02 13:30:04.14	229.23	5.19	-49.4	-70.4	3.8	7.48e-01	0	40	104	0	69	42556
2026-01-02 13:30:06.15	229.49	5.29	-49.4	-70.3	3.8	7.50e-01	0	41	104	0	69	42227
2026-01-02 13:30:08.16	229.75	5.39	-49.4	-70.3	3.8	7.46e-01	0	41	104	0	69	42253
2026-01-02 13:30:10.16	230.01	5.49	-49.4	-70.3	3.8	7.48e-01	0	41	104	0	69	42151
2026-01-02 13:30:12.17	230.28	5.60	-49.4	-70.3	3.8	7.47e-01	0	41	104	0	69	42231
2026-01-02 13:30:14.18	230.54	5.70	-49.4	-70.3	3.8	7.45e-01	0	41	104	0	69	42026
2026-01-02 13:30:16.19	230.81	5.80	-49.4	-70.2	3.8	7.47e-01	0	41	104	0	69	41656
2026-01-02 13:30:18.20	231.08	5.91	-49.4	-70.1	3.8	7.46e-01	0	41	104	0	69	41370
2026-01-02 13:30:20.21	231.35	6.01	-49.5	-70.2	3.8	7.48e-01	0	41	104	0	69	41923
2026-01-02 13:30:22.22	231.62	6.11	-49.3	-70.3	3.8	7.46e-01	0	41	104	0	69	42414
2026-01-02 13:30:24.23	231.90	6.21	-49.4	-70.4	3.8	7.48e-01	0	41	104	0	69	42527
2026-01-02 13:30:26.24	232.18	6.32	-49.4	-70.4	3.8	7.44e-01	0	42	104	0	69	42466
2026-01-02 13:30:28.24	232.46	6.42	-49.4	-70.4	3.8	7.45e-01	0	41	104	0	69	42509
2026-01-02 13:30:30.25	232.74	6.52	-49.3	-70.3	3.8	7.45e-01	0	42	104	0	69	42289
2026-01-02 13:30:32.26	233.02	6.62	-49.3	-70.1	3.8	7.47e-01	0	42	104	0	69	41286
2026-01-02 13:30:34.27	233.31	6.73	-49.3	-70.0	3.8	7.47e-01	0	42	104	0	69	40639
2026-01-02 13:30:36.28	233.60	6.83	-49.3	-69.9	3.8	7.46e-01	0	42	104	0	69	40337
2026-01-02 13:30:38.29	233.89	6.93	-49.3	-69.9	3.8	7.46e-01	0	42	104	0	69	40153
2026-01-02 13:30:40.30	234.18	7.03	-49.3	-70.1	3.8	7.46e-01	0	42	104	0	69	41203
2026-01-02 13:30:42.31	234.47	7.13	-49.3	-70.3	3.8	7.46e-01	0	42	104	0	69	41968
2026-01-02 13:30:44.31	234.77	7.23	-49.3	-70.2	3.8	7.48e-01	0	42	104	0	69	41649
2026-01-02 13:30:46.32	235.07	7.34	-49.3	-70.3	3.8	7.46e-01	0	42	104	0	69	41993
2026-01-02 13:30:48.33	235.37	7.44	-49.3	-70.1	3.8	7.49e-01	0	42	104	0	69	41361
2026-01-02 13:30:50.34	235.67	7.54	-49.3	-69.7	3.8	7.46e-01	0	42	104	0	69	39414
2026-01-02 13:30:52.35	235.98	7.64	-49.3	-70.2	3.8	7.48e-01	0	42	104	0	69	41485
2026-01-02 13:30:54.36	236.28	7.74	-49.3	-70.1	3.8	7.45e-01	0	42	104	0	69	41369
2026-01-02 13:30:56.36	236.59	7.84	-49.4	-69.7	3.8	7.47e-01	0	42	104	0	69	39192
2026-01-02 13:30:58.37	236.91	7.94	-49.3	-69.9	3.8	7.45e-01	0	42	104	0	69	40386
2026-01-02 13:31:00.38	237.22	8.04	-49.3	-69.9	3.8	7.43e-01	0	42	104	0	69	40179
2026-01-02 13:31:02.39	237.54	8.14	-49.4	-69.1	3.8	7.47e-01	0	42	104	0	69	36884
2026-01-02 13:31:04.40	237.86	8.24	-49.2	-68.1	3.8	7.44e-01	0	42	104	0	69	32908
2026-01-02 13:31:06.41	238.18	8.34	-49.0	-61.5	7.5	6.55e-01	0	43	0	1048576	69	15240
2026-01-02 13:31:08.42	238.50	8.43	-48.8	-59.4	9.7	6.28e-01	0	42	0	4718592	69	12047
2026-01-02 13:31:10.42	238.83	8.53	-49.3	-68.7	3.8	7.48e-01	0	42	104	7340032	69	34978
2026-01-02 13:31:12.43	239.15	8.63	-47.7	-54.4	14.6	6.07e-01	0	43	0	9437184	67	7571
2026-01-02 13:31:14.43	239.48	8.73	-45.1	-48.9	20.2	6.08e-01	0	43	0	13107200	62	5342
2026-01-02 13:31:16.43	239.81	8.82	-44.5	-48.0	21.1	6.07e-01	0	43	0	16777216	60	5454
2026-01-02 13:31:18.43	240.15	8.92	-45.9	-50.2	19.0	6.05e-01	0	42	0	20447232	62	6265
2026-01-02 13:31:20.44	240.49	9.02	-47.5	-53.9	15.3	6.07e-01	0	42	0	24117248	65	8064
2026-01-02 13:31:22.44	240.82	9.11	-47.9	-55.3	13.9	6.09e-01	0	43	0	28311552	67	8369
2026-01-02 13:31:24.44	241.16	9.21	-47.6	-53.5	15.3	6.08e-01	0	43	0	31981568	67	6844
2026-01-02 13:31:26.44	241.51	9.30	-48.3	-55.9	12.6	6.10e-01	0	42	0	35651584	68	8525
2026-01-02 13:31:28.45	241.85	9.40	-44.3	-47.8	21.4	6.05e-01	0	43	0	39321600	60	5301
2026-01-02 13:31:30.45	242.20	9.49	-43.9	-47.4	21.9	6.09e-01	0	43	0	42991616	59	5397
2026-01-02 13:31:32.45	242.55	9.58	-43.7	-47.6	21.8	6.09e-01	0	43	0	46661632	59	5501
2026-01-02 13:31:34.45	242.90	9.68	-43.4	-47.1	22.2	6.08e-01	0	43	0	50331648	58	5468
2026-01-02 13:31:36.45	243.26	9.77	-43.8	-46.8	22.5	6.06e-01	0	43	0	54525952	58	5321
2026-01-02 13:31:38.45	243.62	9.86	-43.6	-46.5	22.8	6.06e-01	0	43	0	58195968	58	5158
2026-01-02 13:31:40.45	243.98	9.95	-43.6	-46.6	22.7	6.07e-01	0	43	0	61865984	58	5185
2026-01-02 13:31:42.45	244.34	10.04	-43.6	-46.4	22.9	6.08e-01	0	43	0	65536000	58	5063
2026-01-02 13:31:44.46	244.70	10.13	-43.6	-46.4	22.9	6.07e-01	0	43	0	69206016	58	5087
2026-01-02 13:31:46.46	245.07	10.22	-43.6	-46.4	23.0	6.07e-01	0	43	0	72876032	58	5054
2026-01-02 13:31:48.46	245.44	10.31	-43.8	-46.7	22.7	6.07e-01	0	43	0	76546048	58	5245
2026-01-02 13:31:50.46	245.81	10.40	-43.3	-46.3	23.0	6.04e-01	0	43	0	80740352	58	5038
2026-01-02 13:31:52.46	246.18	10.49	-43.3	-46.2	23.2	6.07e-01	0	43	0	84410368	58	4935
2026-01-02 13:31:54.46	246.56	10.57	-43.4	-46.2	23.2	6.07e-01	0	43	0	88080384	58	4947
2026-01-02 13:31:56.47	246.94	10.66	-43.4	-46.3	23.0	6.06e-01	0	43	0	91750400	58	5021
2026-01-02 13:31:58.47	247.32	10.74	-43.3	-46.1	23.2	6.09e-01	0	43	0	95420416	58	4924
2026-01-02 13:32:00.48	247.70	10.83	-43.1	-46.0	23.4	6.07e-01	0	43	0	99090432	58	4832
2026-01-02 13:32:02.48	248.09	10.91	-43.2	-46.2	23.2	6.08e-01	0	43	0	103284736	58	4944
2026-01-02 13:32:04.48	248.48	11.00	-43.1	-46.1	23.3	6.08e-01	0	43	0	106954752	58	4883
2026-01-02 13:32:06.49	248.87	11.08	-43.2	-46.1	23.2	6.07e-01	0	43	0	110624768	58	4907
2026-01-02 13:32:08.49	249.26	11.16	-43.2	-46.1	23.2	6.07e-01	0	43	0	114294784	58	4921
2026-01-02 13:32:10.50	249.66	11.24	-43.2	-46.0	23.3	6.07e-01	0	43	0	117964800	58	4856
2026-01-02 13:32:12.50	250.05	11.32	-43.2	-46.1	23.3	6.09e-01	0	43	0	122159104	58	4872
2026-01-02 13:32:14.50	250.45	11.40	-43.2	-46.1	23.3	6.07e-01	0	43	0	125829120	58	4887
2026-01-02 13:32:16.51	250.85	11.48	-43.4	-46.2	23.2	6.06e-01	0	43	0	129499136	58	4944
2026-01-02 13:32:18.51	251.26	11.56	-43.2	-46.0	23.4	6.08e-01	0	43	0	133169152	58	4821
2026-01-02 13:32:20.51	251.66	11.63	-43.3	-46.0	23.4	6.06e-01	0	43	0	136839168	58	4857
2026-01-02 13:32:22.51	252.07	11.71	-43.2	-46.0	23.4	6.05e-01	0	43	0	140509184	58	4835
2026-01-02 13:32:24.52	252.48	11.78	-43.1	-45.8	23.6	6.06e-01	0	43	0	144179200	58	4739
2026-01-02 13:32:26.52	252.89	11.85	-43.3	-46.0	23.4	6.06e-01	0	43	0	148373504	58	4832
2026-01-02 13:32:28.52	253.31	11.93	-43.2	-45.9	23.5	6.08e-01	0	43	0	152043520	58	4792
2026-01-02 13:32:30.52	253.72	12.00	-43.2	-45.9	23.4	6.05e-01	0	43	0	155713536	58	4812
2026-01-02 13:32:32.53	254.14	12.07	-43.2	-45.9	23.5	6.07e-01	0	43	0	159383552	58	4804
2026-01-02 13:32:34.53	254.57	12.14	-43.1	-45.8	23.6	6.07e-01	0	43	0	163053568	58	4739
2026-01-02 13:32:36.53	254.99	12.20	-43.0	-45.8	23.6	6.06e-01	0	43	0	167247872	57	4991
2026-01-02 13:32:38.53	255.41	12.27	-42.9	-45.6	23.7	6.08e-01	0	43	0	170917888	57	4907
2026-01-02 13:32:40.54	255.84	12.33	-43.1	-45.8	23.6	6.07e-01	0	43	0	174587904	57	5032
2026-01-02 13:32:42.54	256.27	12.40	-42.9	-45.7	23.7	6.04e-01	0	43	0	178257920	57	4938
2026-01-02 13:32:44.55	256.70	12.46	-43.0	-45.8	23.6	6.06e-01	0	43	0	181927936	57	4984
2026-01-02 13:32:46.55	257.13	12.52	-42.9	-45.6	23.8	6.03e-01	0	43	0	185597952	57	4919
2026-01-02 13:32:48.56	257.57	12.58	-43.0	-45.7	23.7	6.09e-01	0	43	0	189267968	57	4957
2026-01-02 13:32:50.56	258.00	12.64	-43.0	-45.6	23.8	6.08e-01	0	43	0	193462272	57	4915
2026-01-02 13:32:52.57	258.44	12.70	-43.0	-45.7	23.7	6.05e-01	0	43	0	197132288	57	4955
2026-01-02 13:32:54.57	258.88	12.76	-43.0	-45.7	23.7	6.06e-01	0	43	0	200802304	57	4950
2026-01-02 13:32:56.57	259.33	12.81	-42.8	-45.5	23.9	6.06e-01	0	43	0	204472320	57	4867
2026-01-02 13:32:58.57	259.77	12.87	-42.8	-45.6	23.8	6.07e-01	0	43	0	208142336	57	4900
2026-01-02 13:33:00.57	260.21	12.92	-42.6	-45.5	23.9	6.06e-01	0	43	0	211812352	57	4844
2026-01-02 13:33:02.57	260.66	12.97	-42.8	-45.6	23.8	6.06e-01	0	43	0	215482368	57	4909
2026-01-02 13:33:04.57	261.11	13.02	-42.8	-45.5	23.8	6.07e-01	0	43	0	219676672	57	4863
2026-01-02 13:33:06.58	261.56	13.07	-42.9	-45.6	23.8	6.08e-01	0	43	0	223346688	57	4878
2026-01-02 13:33:08.58	262.01	13.12	-42.9	-45.5	23.9	6.04e-01	0	43	0	227016704	57	4844
2026-01-02 13:33:10.58	262.46	13.16	-43.0	-45.6	23.8	6.03e-01	0	43	0	230686720	57	4892
2026-01-02 13:33:12.59	262.92	13.20	-42.9	-45.5	23.9	6.08e-01	0	43	0	234356736	57	4850
2026-01-02 13:33:14.59	263.37	13.25	-42.8	-45.6	23.9	6.08e-01	0	43	0	238551040	57	4878
2026-01-02 13:33:16.60	263.83	13.29	-42.8	-45.5	23.9	6.06e-01	0	43	0	242221056	57	4825
2026-01-02 13:33:18.61	264.29	13.33	-42.8	-45.5	24.0	6.07e-01	0	43	0	245891072	57	4815
2026-01-02 13:33:20.61	264.75	13.37	-42.9	-45.6	23.9	6.07e-01	0	43	0	249561088	57	4877
2026-01-02 13:33:22.62	265.21	13.40	-43.0	-45.6	23.9	6.08e-01	0	43	0	253231104	57	4885
2026-01-02 13:33:24.62	265.67	13.44	-43.1	-45.8	23.7	6.06e-01	0	43	0	256901120	57	5024
2026-01-02 13:33:26.63	266.14	13.47	-43.0	-45.7	23.8	6.07e-01	0	43	0	261095424	57	4941
2026-01-02 13:33:28.64	266.60	13.50	-43.0	-45.7	23.7	6.06e-01	0	43	0	264765440	57	4953
2026-01-02 13:33:30.64	267.07	13.53	-42.8	-45.4	24.0	6.07e-01	0	43	0	268435456	57	4814
2026-01-02 13:33:32.65	267.53	13.56	-42.9	-45.6	23.8	6.07e-01	0	43	0	272105472	57	4892
2026-01-02 13:33:34.66	268.00	13.59	-42.8	-45.5	23.9	6.06e-01	0	43	0	275775488	57	4861
2026-01-02 13:33:36.67	268.47	13.61	-42.9	-45.5	23.9	6.09e-01	0	43	0	279445504	57	4869
2026-01-02 13:33:38.67	268.94	13.64	-42.9	-45.5	23.9	6.05e-01	0	43	0	283639808	57	4843
2026-01-02 13:33:40.68	269.41	13.66	-42.8	-45.4	24.0	6.08e-01	0	43	0	287309824	57	4780
2026-01-02 13:33:42.69	269.88	13.68	-42.9	-45.5	23.9	6.05e-01	0	43	0	290979840	57	4845
2026-01-02 13:33:44.69	270.35	13.70	-42.8	-45.5	23.9	6.06e-01	0	43	0	294649856	57	4835
2026-01-02 13:33:46.70	270.82	13.71	-42.9	-45.5	23.9	6.06e-01	0	43	0	298319872	57	4855
2026-01-02 13:33:48.71	271.30	13.73	-42.9	-45.5	23.9	6.07e-01	0	43	0	302514176	57	4832
2026-01-02 13:33:50.72	271.77	13.74	-42.9	-45.5	23.9	6.04e-01	0	43	0	306184192	57	4847
2026-01-02 13:33:52.72	272.24	13.75	-42.9	-45.5	23.9	6.06e-01	0	43	0	309854208	57	4843
2026-01-02 13:33:54.73	272.71	13.76	-42.8	-45.4	24.0	6.08e-01	0	43	0	313524224	57	4792
2026-01-02 13:33:56.74	273.19	13.77	-42.8	-45.5	23.9	6.05e-01	0	43	0	317194240	57	4838
2026-01-02 13:33:58.74	273.66	13.78	-42.9	-45.5	23.9	6.06e-01	0	43	0	320864256	57	4860
2026-01-02 13:34:00.75	274.14	13.78	-42.8	-45.4	24.0	6.06e-01	0	43	0	325058560	57	4788
2026-01-02 13:34:02.76	274.61	13.79	-42.7	-45.3	24.1	6.08e-01	0	43	0	328728576	57	4737
2026-01-02 13:34:04.76	275.08	13.79	-42.9	-45.5	23.9	6.07e-01	0	43	0	332398592	57	4832
2026-01-02 13:34:06.78	275.56	13.79	-42.9	-45.4	24.0	6.07e-01	0	43	0	336068608	57	4814
2026-01-02 13:34:08.78	276.03	13.78	-42.8	-45.4	24.0	6.06e-01	0	43	0	339738624	57	4803
2026-01-02 13:34:10.79	276.51	13.78	-42.7	-45.3	24.1	6.07e-01	0	43	0	343932928	57	4707
2026-01-02 13:34:12.80	276.98	13.77	-42.9	-45.6	23.9	6.06e-01	0	43	0	347602944	57	4878
2026-01-02 13:34:14.80	277.46	13.77	-42.8	-45.5	23.9	6.06e-01	0	43	0	351272960	57	4830
2026-01-02 13:34:16.81	277.93	13.76	-42.8	-45.4	24.0	6.06e-01	0	43	0	354942976	57	4806
2026-01-02 13:34:18.82	278.40	13.75	-43.0	-45.6	23.8	6.07e-01	0	43	0	358612992	57	4898
2026-01-02 13:34:20.82	278.87	13.74	-42.9	-45.5	23.9	6.06e-01	0	43	0	362283008	57	4853
2026-01-02 13:34:22.83	279.35	13.72	-42.9	-45.6	23.8	6.09e-01	0	43	0	366477312	57	4888
2026-01-02 13:34:24.84	279.82	13.71	-42.9	-45.6	23.8	6.05e-01	0	43	0	370147328	57	4880
2026-01-02 13:34:26.84	280.29	13.69	-42.7	-45.4	24.0	6.05e-01	0	43	0	373817344	57	4769
2026-01-02 13:34:28.85	280.76	13.67	-42.8	-45.3	24.0	6.07e-01	0	43	0	377487360	57	4743
2026-01-02 13:34:30.86	281.23	13.65	-43.0	-45.5	23.9	6.07e-01	0	43	0	381157376	57	4865
2026-01-02 13:34:32.86	281.70	13.63	-42.9	-45.4	24.0	6.07e-01	0	43	0	384827392	57	4799
2026-01-02 13:34:34.87	282.17	13.60	-42.9	-45.5	23.9	6.07e-01	0	43	0	389021696	57	4853
2026-01-02 13:34:36.88	282.63	13.58	-42.9	-45.4	23.9	6.07e-01	0	43	0	392691712	57	4803
2026-01-02 13:34:38.89	283.10	13.55	-42.9	-45.4	24.0	6.06e-01	0	43	0	396361728	57	4801
2026-01-02 13:34:40.89	283.57	13.52	-43.0	-45.6	23.8	6.06e-01	0	43	0	400031744	57	4872
2026-01-02 13:34:42.90	284.03	13.49	-42.8	-45.4	23.9	6.07e-01	0	43	0	403701760	57	4806
2026-01-02 13:34:44.91	284.49	13.46	-42.9	-45.6	23.8	6.05e-01	0	43	0	407896064	57	4886
2026-01-02 13:34:46.91	284.96	13.42	-42.8	-45.5	23.9	6.07e-01	0	43	0	411566080	57	4815
2026-01-02 13:34:48.92	285.42	13.39	-42.9	-45.6	23.8	6.08e-01	0	43	0	415236096	57	4896
2026-01-02 13:34:50.93	285.88	13.35	-42.9	-45.6	23.8	6.08e-01	0	43	0	418906112	57	4873
2026-01-02 13:34:52.94	286.34	13.31	-42.9	-45.6	23.8	6.07e-01	0	43	0	422576128	57	4910
2026-01-02 13:34:54.95	286.79	13.27	-43.0	-45.8	23.6	6.06e-01	0	43	0	426246144	57	4994
2026-01-02 13:34:56.95	287.25	13.23	-43.0	-45.7	23.7	6.08e-01	0	43	0	430440448	57	4937
2026-01-02 13:34:58.96	287.70	13.19	-43.1	-45.7	23.7	6.09e-01	0	43	0	434110464	57	4967
2026-01-02 13:35:00.95	288.15	13.14	-43.1	-45.7	23.7	6.09e-01	0	43	0	437780480	57	4951
2026-01-02 13:35:02.95	288.60	13.10	-43.1	-45.8	23.6	6.05e-01	0	43	0	441450496	57	4995
2026-01-02 13:35:04.96	289.05	13.05	-43.1	-45.8	23.5	6.06e-01	0	43	0	445120512	57	5034
2026-01-02 13:35:06.97	289.50	13.00	-43.0	-45.8	23.6	6.05e-01	0	43	0	448790528	57	4997
2026-01-02 13:35:08.97	289.95	12.95	-43.0	-45.8	23.6	6.06e-01	0	43	0	452984832	57	5023
2026-01-02 13:35:10.98	290.40	12.90	-43.0	-45.7	23.6	6.06e-01	0	43	0	456654848	57	4983
2026-01-02 13:35:12.99	290.84	12.84	-43.2	-45.9	23.5	6.06e-01	0	43	0	460324864	57	5057
2026-01-02 13:35:14.99	291.28	12.79	-43.2	-45.9	23.5	6.07e-01	0	43	0	463994880	57	5048
2026-01-02 13:35:17.00	291.72	12.73	-43.2	-45.8	23.5	6.07e-01	0	43	0	467664896	57	5031
2026-01-02 13:35:19.00	292.16	12.68	-43.3	-46.0	23.4	6.06e-01	0	43	0	471334912	57	5106
2026-01-02 13:35:21.01	292.60	12.62	-43.3	-46.0	23.4	6.07e-01	0	43	0	475529216	57	5127
2026-01-02 13:35:23.02	293.03	12.56	-43.3	-46.0	23.4	6.08e-01	0	43	0	479199232	57	5119
2026-01-02 13:35:25.02	293.46	12.50	-43.4	-46.1	23.2	6.07e-01	0	43	0	482869248	57	5217
2026-01-02 13:35:27.03	293.89	12.44	-43.3	-46.0	23.3	6.08e-01	0	43	0	486539264	57	5153
2026-01-02 13:35:29.03	294.32	12.37	-43.3	-46.0	23.4	6.06e-01	0	43	0	490209280	57	5126
2026-01-02 13:35:31.04	294.75	12.31	-43.4	-46.2	23.2	6.06e-01	0	43	0	494403584	57	5235
2026-01-02 13:35:33.05	295.17	12.24	-43.5	-46.3	23.0	6.06e-01	0	43	0	498073600	57	5334
2026-01-02 13:35:35.06	295.60	12.18	-43.4	-46.3	23.1	6.07e-01	0	43	0	501743616	57	5291
2026-01-02 13:35:37.06	296.02	12.11	-43.5	-46.3	23.0	6.07e-01	0	43	0	505413632	57	5331
2026-01-02 13:35:39.07	296.44	12.04	-43.5	-46.3	23.1	6.07e-01	0	43	0	509083648	57	5312
2026-01-02 13:35:41.08	296.85	11.97	-43.5	-46.3	23.1	6.07e-01	0	43	0	512753664	58	5000
2026-01-02 13:35:43.09	297.27	11.90	-43.6	-46.5	22.9	6.07e-01	0	43	0	516947968	58	5107
2026-01-02 13:35:45.09	297.68	11.83	-43.7	-46.6	22.7	6.07e-01	0	43	0	520617984	58	5203
2026-01-02 13:35:47.10	298.09	11.75	-43.6	-46.4	23.0	6.07e-01	0	43	0	524288000	58	5053
2026-01-02 13:35:49.10	298.50	11.68	-43.5	-46.3	22.9	6.06e-01	0	43	0	527958016	58	5014
2026-01-02 13:35:51.11	298.91	11.60	-43.7	-46.5	22.8	6.08e-01	0	43	0	531628032	58	5129
2026-01-02 13:35:53.12	299.31	11.53	-43.7	-46.6	22.8	6.07e-01	0	43	0	535298048	58	5179
2026-01-02 13:35:55.12	299.71	11.45	-43.7	-46.7	22.7	6.07e-01	0	43	0	539492352	58	5220
2026-01-02 13:35:57.13	300.11	11.37	-43.7	-46.6	22.7	6.07e-01	0	43	0	543162368	58	5207
2026-01-02 13:35:59.14	300.51	11.29	-43.8	-46.7	22.7	6.10e-01	0	43	0	546832384	58	5219
2026-01-02 13:36:01.15	300.90	11.21	-43.8	-46.6	22.7	6.08e-01	0	43	0	550502400	58	5187
2026-01-02 13:36:03.15	301.29	11.13	-43.9	-46.7	22.6	6.07e-01	0	44	0	554172416	58	5249
2026-01-02 13:36:05.16	301.69	11.05	-43.8	-46.7	22.6	6.07e-01	0	43	0	558366720	58	5236
2026-01-02 13:36:07.17	302.07	10.97	-43.9	-46.8	22.5	6.06e-01	0	43	0	562036736	58	5292
2026-01-02 13:36:09.18	302.46	10.89	-43.9	-46.9	22.5	6.07e-01	0	43	0	565706752	58	5352
2026-01-02 13:36:11.18	302.84	10.80	-43.6	-46.7	22.5	6.05e-01	0	43	0	569376768	58	5278
2026-01-02 13:36:13.19	303.22	10.72	-43.8	-46.9	22.4	6.08e-01	0	43	0	573046784	58	5376
2026-01-02 13:36:15.20	303.60	10.63	-43.8	-46.8	22.5	6.08e-01	0	43	0	576716800	58	5293
2026-01-02 13:36:17.20	303.98	10.55	-43.9	-46.9	22.4	6.07e-01	0	43	0	580911104	58	5343
2026-01-02 13:36:19.21	304.35	10.46	-43.9	-46.9	22.5	6.08e-01	0	43	0	584581120	58	5343
2026-01-02 13:36:21.22	304.72	10.37	-43.9	-47.0	22.3	6.08e-01	0	43	0	588251136	58	5445
2026-01-02 13:36:23.22	305.09	10.29	-44.0	-47.0	22.3	6.07e-01	0	43	0	591921152	58	5431
2026-01-02 13:36:25.22	305.46	10.20	-43.9	-47.0	22.3	6.05e-01	0	43	0	595591168	58	5453
2026-01-02 13:36:27.23	305.82	10.11	-43.8	-46.8	22.5	6.05e-01	0	43	0	599261184	58	5312
2026-01-02 13:36:29.23	306.18	10.02	-43.9	-47.0	22.3	6.07e-01	0	43	0	603455488	58	5424
2026-01-02 13:36:31.24	306.55	9.93	-43.9	-47.0	22.3	6.07e-01	0	43	0	607125504	58	5453
2026-01-02 13:36:33.24	306.90	9.84	-43.8	-47.0	22.3	6.05e-01	0	43	0	610795520	58	5421
2026-01-02 13:36:35.25	307.26	9.75	-43.8	-47.1	22.2	6.09e-01	0	43	0	614465536	58	5479
2026-01-02 13:36:37.26	307.61	9.65	-43.9	-47.1	22.1	6.06e-01	0	43	0	618135552	58	5509
2026-01-02 13:36:39.26	307.96	9.56	-44.0	-47.1	22.2	6.08e-01	0	43	0	621805568	58	5475
2026-01-02 13:36:41.27	308.31	9.47	-43.8	-47.0	22.2	6.03e-01	0	43	0	625999872	58	5463
2026-01-02 13:36:43.27	308.65	9.38	-43.8	-47.1	22.1	6.07e-01	0	43	0	629669888	58	5527
2026-01-02 13:36:45.28	309.00	9.28	-44.0	-47.3	22.0	6.05e-01	0	43	0	633339904	58	5599
2026-01-02 13:36:47.28	309.34	9.19	-44.0	-47.4	21.9	6.07e-01	0	43	0	637009920	58	5657
2026-01-02 13:36:49.29	309.68	9.09	-44.2	-47.3	21.8	6.05e-01	0	43	0	640679936	59	5337
2026-01-02 13:36:51.30	310.01	9.00	-44.2	-47.3	21.9	6.07e-01	0	43	0	644874240	59	5307
2026-01-02 13:36:53.30	310.35	8.90	-50.1	-70.5	3.8	7.46e-01	0	43	104	645398528	71	38365
2026-01-02 13:36:55.31	310.68	8.81	-50.4	-70.9	3.8	7.44e-01	0	43	104	645398528	71	40263
2026-01-02 13:36:57.32	311.01	8.71	-50.5	-71.0	3.8	7.47e-01	0	43	104	645398528	71	40851
2026-01-02 13:36:59.33	311.34	8.61	-50.4	-71.1	3.8	7.48e-01	0	43	104	645398528	71	41250
2026-01-02 13:37:01.33	311.66	8.52	-50.7	-71.1	3.8	7.44e-01	0	43	104	645398528	72	38825
2026-01-02 13:37:03.33	311.98	8.42	-50.6	-71.1	3.8	7.44e-01	0	43	104	645398528	72	38845
2026-01-02 13:37:05.34	312.30	8.32	-50.6	-71.1	3.8	7.49e-01	0	43	104	645398528	72	38831
2026-01-02 13:37:07.35	312.62	8.22	-50.5	-71.1	3.8	7.49e-01	0	43	104	645398528	72	38889
2026-01-02 13:37:09.36	312.94	8.13	-50.2	-71.1	3.8	7.45e-01	0	43	104	645398528	72	38797
2026-01-02 13:37:11.37	313.25	8.03	-50.3	-71.1	3.8	7.42e-01	0	43	104	645398528	72	38777
2026-01-02 13:37:13.38	313.56	7.93	-50.1	-71.0	3.8	7.43e-01	0	43	104	645398528	72	38687
2026-01-02 13:37:15.38	313.87	7.83	-50.1	-71.1	3.8	7.46e-01	0	43	104	645398528	72	38713
2026-01-02 13:37:17.39	314.18	7.73	-50.1	-71.0	3.8	7.44e-01	0	43	104	645398528	72	38585
2026-01-02 13:37:19.40	314.49	7.63	-50.1	-71.0	3.8	7.42e-01	0	43	104	645398528	72	38604
2026-01-02 13:37:21.41	314.79	7.53	-50.1	-71.0	3.8	7.48e-01	0	43	104	645398528	72	38570
2026-01-02 13:37:23.42	315.09	7.43	-50.1	-71.0	3.8	7.47e-01	0	43	104	645398528	72	38560
2026-01-02 13:37:25.43	315.39	7.33	-50.1	-71.0	3.8	7.44e-01	0	43	104	645398528	72	38575
2026-01-02 13:37:27.44	315.68	7.23	-50.1	-71.0	3.8	7.47e-01	0	43	104	645398528	72	38480
2026-01-02 13:37:29.45	315.98	7.13	-50.1	-71.0	3.8	7.46e-01	0	43	104	645398528	72	38590
2026-01-02 13:37:31.46	316.27	7.03	-50.1	-71.0	3.8	7.44e-01	0	43	104	645398528	72	38581
2026-01-02 13:37:33.46	316.56	6.93	-50.1	-71.0	3.8	7.41e-01	0	43	104	645398528	72	38500
2026-01-02 13:37:35.47	316.85	6.83	-50.1	-71.0	3.8	7.47e-01	0	43	104	645398528	72	38475
2026-01-02 13:37:37.48	317.13	6.73	-50.1	-71.0	3.8	7.47e-01	0	43	104	645398528	72	38494
2026-01-02 13:37:39.49	317.42	6.63	-50.1	-71.0	3.8	7.44e-01	0	43	104	645398528	72	38541
2026-01-02 13:37:41.50	317.70	6.53	-50.1	-71.0	3.8	7.44e-01	0	43	104	645398528	72	38569
2026-01-02 13:37:43.51	317.98	6.43	-50.1	-71.0	3.8	7.47e-01	0	43	104	645398528	72	38539
2026-01-02 13:37:45.51	318.25	6.32	-50.1	-71.0	3.8	7.47e-01	0	44	104	645398528	72	38524
2026-01-02 13:37:47.52	318.53	6.22	-50.1	-71.0	3.8	7.47e-01	0	43	104	645398528	72	38537
2026-01-02 13:37:49.53	318.80	6.12	-50.1	-71.0	3.8	7.45e-01	0	44	104	645398528	72	38536
2026-01-02 13:37:51.54	319.08	6.02	-50.1	-71.0	3.8	7.47e-01	0	44	104	645398528	72	38419
2026-01-02 13:37:53.55	319.35	5.92	-50.1	-71.0	3.8	7.49e-01	0	44	104	645398528	72	38444
2026-01-02 13:37:55.55	319.61	5.82	-50.1	-71.0	3.8	7.48e-01	0	44	104	645398528	72	38403
2026-01-02 13:37:57.56	319.88	5.72	-50.1	-71.0	3.8	7.45e-01	0	43	104	645398528	72	38482
2026-01-02 13:37:59.57	320.14	5.61	-50.1	-71.0	3.8	7.47e-01	0	44	104	645398528	72	38451
2026-01-02 13:38:01.58	320.40	5.51	-50.1	-71.0	3.8	7.46e-01	0	44	104	645398528	72	38464
2026-01-02 13:38:03.59	320.66	5.41	-50.1	-71.0	3.8	7.43e-01	0	44	104	645398528	72	38380
2026-01-02 13:38:05.59	320.92	5.31	-50.1	-71.0	3.8	7.47e-01	0	43	104	645398528	72	38378
2026-01-02 13:38:07.61	321.18	5.21	-50.1	-71.0	3.8	7.46e-01	0	44	104	645398528	72	38383
2026-01-02 13:38:09.61	321.43	5.11	-50.1	-71.0	3.8	7.43e-01	0	44	104	645398528	72	38338
2026-01-02 13:38:11.62	321.68	5.00	-50.1	-71.0	3.8	7.46e-01	0	43	104	645398528	72	38383

#Closed at: 2026-01-02 13:38:12
#Recorded file [645 MB]: D:/Data/31040_260102_163000.dat