passes_logs/2026/01/02/T1/T1__20260102_162125_FENGYUN_3E_rec.log

#Pass ID: 20260102_162125_FENGYUN 3E
#Satellite: FENGYUN 3E
#Configuration: FENGYUN 3E
#almurnet v.1.7.20251203
#Start time: 2026-01-02 16:21:28

#Version: 2.0.20230620
#Station: T1
#Location: 37.570604 lon 55.790049 lat
#TLE: 1 49008U 21062A   26001.96913326  .00000001  00000+0  21174-4 0  9999
#TLE: 2 49008  98.7479   7.2511 0001416 166.5636 193.5578 14.19883387232993

#Time	Az	El	Level	Level2	SNR	BER	BlckErr	Temp	State	Recorded	gain1	gain2
2026-01-02 16:21:28.06	234.87	5.10	-47.8	-59.7	3.8	8.47e-01	0	40	0	0	66	13817
2026-01-02 16:21:31.07	235.23	5.24	-47.7	-59.7	3.8	8.47e-01	0	40	104	0	66	13784
2026-01-02 16:21:34.08	235.59	5.37	-47.8	-59.7	3.8	8.47e-01	0	40	104	0	66	13734
2026-01-02 16:21:37.09	235.96	5.51	-47.7	-59.7	3.8	8.46e-01	0	40	104	0	66	13756
2026-01-02 16:21:40.11	236.32	5.65	-47.7	-59.7	3.8	8.46e-01	0	41	104	0	66	13747
2026-01-02 16:21:43.12	236.69	5.78	-47.8	-59.6	3.8	8.47e-01	0	40	104	0	66	13636
2026-01-02 16:21:46.13	237.07	5.92	-47.8	-59.5	3.8	8.47e-01	0	41	104	0	66	13568
2026-01-02 16:21:49.15	237.45	6.05	-47.8	-59.7	3.8	8.47e-01	0	41	104	0	66	13744
2026-01-02 16:21:52.16	237.83	6.19	-47.7	-59.6	3.8	8.48e-01	0	41	104	0	66	13655
2026-01-02 16:21:55.17	238.21	6.32	-47.7	-59.6	3.8	8.47e-01	0	41	104	0	66	13657
2026-01-02 16:21:58.19	238.60	6.46	-47.7	-59.7	3.8	8.47e-01	0	41	104	0	66	13759
2026-01-02 16:22:01.20	238.99	6.59	-47.8	-59.6	3.8	8.47e-01	0	41	104	0	66	13591
2026-01-02 16:22:04.21	239.38	6.73	-47.7	-59.4	3.8	8.47e-01	0	41	104	0	66	13383
2026-01-02 16:22:07.23	239.78	6.86	-47.7	-59.4	3.8	8.47e-01	0	41	104	0	66	13314
2026-01-02 16:22:10.24	240.18	6.99	-47.7	-59.4	3.8	8.48e-01	0	41	104	0	66	13324
2026-01-02 16:22:13.25	240.59	7.13	-47.7	-59.5	3.8	8.47e-01	0	42	104	0	66	13565
2026-01-02 16:22:16.26	241.00	7.26	-47.7	-59.5	3.8	8.46e-01	0	42	104	0	66	13548
2026-01-02 16:22:19.28	241.41	7.39	-47.8	-59.7	3.8	8.46e-01	0	42	104	0	66	13756
2026-01-02 16:22:22.29	241.83	7.52	-47.8	-59.4	3.8	8.45e-01	0	42	104	0	66	13350
2026-01-02 16:22:25.30	242.24	7.65	-47.7	-59.5	3.8	8.47e-01	0	42	104	0	66	13471
2026-01-02 16:22:28.31	242.67	7.78	-47.8	-59.4	3.8	8.46e-01	0	42	104	0	66	13340
2026-01-02 16:22:31.33	243.10	7.91	-47.8	-59.3	3.8	8.47e-01	0	42	104	0	66	13170
2026-01-02 16:22:34.34	243.53	8.03	-48.0	-59.4	3.8	8.46e-01	0	42	104	0	66	13314
2026-01-02 16:22:37.35	243.96	8.16	-47.8	-58.8	3.8	8.47e-01	0	42	104	0	66	12403
2026-01-02 16:22:40.36	244.40	8.29	-47.4	-56.0	4.2	8.39e-01	0	42	0	0	65	9504
2026-01-02 16:22:43.38	244.84	8.41	-46.7	-52.5	6.2	2.88e-01	0	42	0	9437184	63	7128
2026-01-02 16:22:46.39	245.28	8.54	-47.7	-58.3	3.8	8.47e-01	0	42	104	15728640	65	12466
2026-01-02 16:22:49.40	245.73	8.66	-41.6	-43.3	15.2	1.10e-06	0	42	0	31457280	54	4183
2026-01-02 16:22:52.42	246.18	8.78	-39.5	-40.8	17.7	0.00e+00	0	42	0	53477376	49	4155
2026-01-02 16:22:55.43	246.64	8.91	-41.3	-42.9	15.5	0.00e+00	0	42	0	74448896	52	4484
2026-01-02 16:22:58.44	247.10	9.03	-44.6	-47.6	10.9	2.18e-03	0	42	0	96468992	58	5440
2026-01-02 16:23:01.45	247.56	9.15	-45.5	-49.0	9.4	4.16e-02	0	42	0	118489088	61	5399
2026-01-02 16:23:04.46	248.03	9.26	-40.9	-42.4	16.1	0.00e+00	0	42	0	139460608	52	4242
2026-01-02 16:23:07.47	248.50	9.38	-39.9	-41.2	17.4	0.00e+00	0	42	0	161480704	50	4122
2026-01-02 16:23:10.48	248.97	9.50	-39.0	-40.2	18.4	0.00e+00	0	42	0	183500800	48	4142
2026-01-02 16:23:13.49	249.45	9.61	-38.5	-39.6	18.8	0.00e+00	0	42	0	205520896	47	4074
2026-01-02 16:23:16.50	249.93	9.73	-38.4	-39.5	18.8	0.00e+00	0	42	0	226492416	47	4049
2026-01-02 16:23:19.51	250.42	9.84	-38.2	-39.3	19.1	0.00e+00	0	42	0	248512512	46	4154
2026-01-02 16:23:22.52	250.91	9.95	-38.2	-39.3	19.0	0.00e+00	0	42	0	270532608	46	4180
2026-01-02 16:23:25.53	251.40	10.06	-38.1	-39.2	19.2	0.00e+00	0	42	0	292552704	46	4114
2026-01-02 16:23:28.54	251.89	10.17	-38.1	-39.2	19.2	0.00e+00	0	43	0	313524224	46	4102
2026-01-02 16:23:31.55	252.39	10.28	-38.0	-39.0	19.3	0.00e+00	0	43	0	335544320	46	4049
2026-01-02 16:23:34.55	252.89	10.38	-37.9	-38.9	19.5	0.00e+00	0	42	0	357564416	46	3975
2026-01-02 16:23:37.56	253.40	10.49	-37.8	-38.8	19.6	0.00e+00	0	42	0	379584512	46	3947
2026-01-02 16:23:40.58	253.91	10.59	-37.9	-39.0	19.4	0.00e+00	0	42	0	400556032	46	4017
2026-01-02 16:23:43.58	254.42	10.69	-37.9	-39.0	19.4	0.00e+00	0	42	0	422576128	46	4030
2026-01-02 16:23:46.60	254.94	10.79	-37.7	-38.8	19.6	0.00e+00	0	42	0	443547648	46	3939
2026-01-02 16:23:49.60	255.46	10.89	-37.7	-38.7	19.7	0.00e+00	0	42	0	465567744	46	3895
2026-01-02 16:23:52.62	255.98	10.98	-37.8	-38.8	19.6	0.00e+00	0	42	0	487587840	46	3922
2026-01-02 16:23:55.63	256.51	11.08	-37.8	-38.8	19.6	0.00e+00	0	43	0	509607936	46	3935
2026-01-02 16:23:58.64	257.04	11.17	-37.7	-38.7	19.7	0.00e+00	0	43	0	530579456	46	3895
2026-01-02 16:24:01.64	257.57	11.26	-37.7	-38.7	19.7	0.00e+00	0	43	0	552599552	46	3877
2026-01-02 16:24:04.65	258.11	11.35	-37.5	-38.5	19.9	0.00e+00	0	42	0	574619648	45	4013
2026-01-02 16:24:07.66	258.65	11.44	-37.6	-38.6	19.8	0.00e+00	0	43	0	596639744	45	4058
2026-01-02 16:24:10.67	259.19	11.52	-37.7	-38.8	19.6	0.00e+00	0	43	0	617611264	45	4159
2026-01-02 16:24:13.69	259.74	11.60	-37.6	-38.7	19.7	0.00e+00	0	42	0	639631360	45	4103
2026-01-02 16:24:16.70	260.28	11.68	-37.5	-38.6	19.9	0.00e+00	0	43	0	661651456	45	4055
2026-01-02 16:24:19.70	260.83	11.76	-37.5	-38.5	19.9	0.00e+00	0	43	0	682622976	45	4042
2026-01-02 16:24:22.71	261.39	11.84	-37.7	-38.7	19.7	0.00e+00	0	42	0	704643072	45	4120
2026-01-02 16:24:25.72	261.94	11.91	-37.7	-38.8	19.6	0.00e+00	0	43	0	726663168	45	4161
2026-01-02 16:24:28.73	262.50	11.99	-37.6	-38.6	19.8	0.00e+00	0	43	0	748683264	45	4091
2026-01-02 16:24:31.74	263.06	12.06	-37.7	-38.7	19.8	0.00e+00	0	43	0	769654784	45	4109
2026-01-02 16:24:34.75	263.63	12.12	-37.5	-38.6	19.9	0.00e+00	0	43	0	791674880	45	4066
2026-01-02 16:24:37.76	264.19	12.19	-37.4	-38.4	20.1	0.00e+00	0	43	0	813694976	45	3966
2026-01-02 16:24:40.77	264.76	12.25	-37.4	-38.4	20.0	0.00e+00	0	43	0	835715072	45	3973
2026-01-02 16:24:43.78	265.34	12.31	-37.5	-38.4	20.0	0.00e+00	0	43	0	856686592	45	3997
2026-01-02 16:24:46.79	265.91	12.37	-37.3	-38.3	20.1	0.00e+00	0	43	0	878706688	45	3927
2026-01-02 16:24:49.80	266.48	12.42	-37.4	-38.3	20.1	0.00e+00	0	43	0	900726784	45	3958
2026-01-02 16:24:52.81	267.06	12.48	-37.3	-38.2	20.2	0.00e+00	0	43	0	922746880	45	3900
2026-01-02 16:24:55.82	267.64	12.53	-37.1	-38.1	20.4	0.00e+00	0	43	0	943718400	45	3829
2026-01-02 16:24:58.84	268.23	12.58	-37.0	-37.9	20.5	0.00e+00	0	43	0	965738496	44	3996
2026-01-02 16:25:01.84	268.81	12.62	-37.2	-38.1	20.3	0.00e+00	0	43	0	987758592	44	4089
2026-01-02 16:25:04.85	269.39	12.66	-37.2	-38.2	20.2	0.00e+00	0	43	0	1008730112	44	4116
2026-01-02 16:25:07.86	269.98	12.70	-37.2	-38.2	20.3	0.00e+00	0	43	0	1030750208	44	4104
2026-01-02 16:25:10.87	270.57	12.74	-37.2	-38.2	20.2	0.00e+00	0	43	0	1052770304	44	4110
2026-01-02 16:25:13.88	271.16	12.77	-37.2	-38.1	20.3	0.00e+00	0	43	0	1073741824	44	4093
2026-01-02 16:25:16.89	271.75	12.81	-37.3	-38.3	20.2	0.00e+00	0	43	0	1095761920	44	4161
2026-01-02 16:25:19.90	272.34	12.84	-37.3	-38.3	20.2	0.00e+00	0	43	0	1117782016	44	4153
2026-01-02 16:25:22.91	272.93	12.86	-37.3	-38.3	20.1	0.00e+00	0	43	0	1138753536	44	4193
2026-01-02 16:25:25.92	273.52	12.89	-37.2	-38.2	20.2	0.00e+00	0	43	0	1160773632	44	4120
2026-01-02 16:25:28.92	274.12	12.91	-37.2	-38.1	20.3	0.00e+00	0	43	0	1182793728	44	4098
2026-01-02 16:25:31.93	274.71	12.92	-37.4	-38.4	20.1	0.00e+00	0	43	0	1204813824	44	4211
2026-01-02 16:25:34.94	275.31	12.94	-37.5	-38.5	20.0	0.00e+00	0	43	0	1225785344	44	4290
2026-01-02 16:25:37.95	275.90	12.95	-37.4	-38.4	20.1	0.00e+00	0	43	0	1247805440	44	4202
2026-01-02 16:25:40.96	276.50	12.96	-37.1	-38.1	20.3	0.00e+00	0	43	0	1269825536	44	4066
2026-01-02 16:25:43.97	277.10	12.97	-37.3	-38.3	20.2	0.00e+00	0	43	0	1291845632	44	4157
2026-01-02 16:25:46.98	277.70	12.97	-37.3	-38.3	20.2	0.00e+00	0	43	0	1312817152	44	4156
2026-01-02 16:25:49.99	278.29	12.97	-37.3	-38.3	20.2	0.00e+00	0	43	0	1334837248	44	4169
2026-01-02 16:25:53.00	278.89	12.97	-37.2	-38.2	20.2	0.00e+00	0	43	0	1356857344	44	4113
2026-01-02 16:25:56.01	279.49	12.97	-37.2	-38.1	20.3	0.00e+00	0	43	0	1377828864	44	4089
2026-01-02 16:25:59.02	280.08	12.96	-37.3	-38.3	20.2	0.00e+00	0	43	0	1399848960	44	4166
2026-01-02 16:26:02.03	280.68	12.95	-37.3	-38.3	20.1	0.00e+00	0	43	0	1421869056	44	4166
2026-01-02 16:26:05.04	281.28	12.94	-37.3	-38.3	20.1	0.00e+00	0	43	0	1443889152	44	4181
2026-01-02 16:26:08.05	281.87	12.92	-37.2	-38.2	20.3	0.00e+00	0	43	0	1464860672	44	4100
2026-01-02 16:26:11.06	282.47	12.90	-37.3	-38.3	20.2	0.00e+00	0	43	0	1486880768	44	4167
2026-01-02 16:26:14.07	283.06	12.88	-37.5	-38.4	20.1	0.00e+00	0	43	0	1508900864	44	4236
2026-01-02 16:26:17.08	283.65	12.86	-37.4	-38.4	20.0	0.00e+00	0	43	0	1530920960	44	4225
2026-01-02 16:26:20.09	284.24	12.83	-37.5	-38.5	20.0	0.00e+00	0	43	0	1551892480	44	4258
2026-01-02 16:26:23.10	284.84	12.80	-37.4	-38.4	20.1	0.00e+00	0	43	0	1573912576	44	4219
2026-01-02 16:26:26.12	285.43	12.77	-37.5	-38.5	20.0	0.00e+00	0	43	0	1595932672	44	4249
2026-01-02 16:26:29.13	286.01	12.73	-37.4	-38.4	20.1	0.00e+00	0	43	0	1617952768	44	4210
2026-01-02 16:26:32.13	286.60	12.69	-37.4	-38.4	20.0	0.00e+00	0	43	0	1638924288	44	4224
2026-01-02 16:26:35.14	287.18	12.65	-37.4	-38.4	20.0	0.00e+00	0	43	0	1660944384	44	4228
2026-01-02 16:26:38.16	287.77	12.61	-37.5	-38.5	19.9	0.00e+00	0	43	0	1681915904	44	4279
2026-01-02 16:26:41.17	288.35	12.56	-37.6	-38.6	19.8	0.00e+00	0	43	0	1703936000	44	4313
2026-01-02 16:26:44.18	288.93	12.52	-37.5	-38.4	20.0	0.00e+00	0	43	0	1725956096	44	4230
2026-01-02 16:26:47.19	289.51	12.46	-37.6	-38.6	19.9	0.00e+00	0	43	0	1747976192	44	4296
2026-01-02 16:26:50.20	290.08	12.41	-37.7	-38.7	19.7	0.00e+00	0	43	0	1768947712	45	4137
2026-01-02 16:26:53.21	290.66	12.36	-38.0	-39.0	19.4	0.00e+00	0	43	0	1790967808	45	4262
2026-01-02 16:26:56.22	291.23	12.30	-38.1	-39.1	19.3	0.00e+00	0	43	0	1812987904	45	4335
2026-01-02 16:26:59.23	291.80	12.24	-38.1	-39.1	19.3	0.00e+00	0	43	0	1835008000	45	4312
2026-01-02 16:27:02.24	292.37	12.17	-37.9	-38.9	19.6	0.00e+00	0	43	0	1855979520	45	4204
2026-01-02 16:27:05.25	292.93	12.11	-38.1	-39.1	19.4	0.00e+00	0	43	0	1877999616	45	4311
2026-01-02 16:27:08.26	293.49	12.04	-38.1	-39.1	19.4	0.00e+00	0	43	0	1900019712	45	4306
2026-01-02 16:27:11.27	294.05	11.97	-38.2	-39.3	19.1	0.00e+00	0	43	0	1922039808	45	4413
2026-01-02 16:27:14.27	294.61	11.90	-38.2	-39.2	19.2	0.00e+00	0	43	0	1943011328	46	4136
2026-01-02 16:27:17.29	295.16	11.82	-38.2	-39.3	19.2	0.00e+00	0	43	0	1965031424	46	4155
2026-01-02 16:27:20.30	295.71	11.75	-38.3	-39.3	19.1	0.00e+00	0	43	0	1987051520	46	4166
2026-01-02 16:27:23.31	296.26	11.67	-38.4	-39.5	19.0	0.00e+00	0	43	0	2008023040	46	4262
2026-01-02 16:27:26.32	296.81	11.59	-38.5	-39.6	18.8	0.00e+00	0	43	0	2030043136	46	4315
2026-01-02 16:27:29.33	297.35	11.51	-38.7	-39.8	18.7	0.00e+00	0	43	0	2052063232	46	4410
2026-01-02 16:27:32.34	297.89	11.42	-38.6	-39.7	18.7	0.00e+00	0	43	0	2074083328	47	4134
2026-01-02 16:27:35.35	298.43	11.34	-38.8	-39.9	18.6	0.00e+00	0	43	0	2095054848	47	4200
2026-01-02 16:27:38.36	298.96	11.25	-38.5	-39.6	18.8	0.00e+00	0	43	0	2117074944	47	4063
2026-01-02 16:27:41.38	299.49	11.16	-38.5	-39.6	18.8	0.00e+00	0	43	0	2139095040	47	4061
2026-01-02 16:27:44.39	300.02	11.06	-38.7	-39.8	18.6	0.00e+00	0	43	0	2161115136	47	4147
2026-01-02 16:27:47.40	300.54	10.97	-38.8	-39.9	18.5	0.00e+00	0	43	0	2182086656	47	4206
2026-01-02 16:27:50.41	301.06	10.87	-38.8	-40.0	18.4	0.00e+00	0	43	0	2204106752	47	4243
2026-01-02 16:27:53.42	301.58	10.78	-39.0	-40.1	18.3	0.00e+00	0	43	0	2226126848	47	4315
2026-01-02 16:27:56.44	302.09	10.68	-38.9	-40.0	18.4	0.00e+00	0	43	0	2248146944	47	4288
2026-01-02 16:27:59.44	302.60	10.58	-39.0	-40.1	18.3	0.00e+00	0	43	0	2269118464	47	4314
2026-01-02 16:28:02.45	303.11	10.47	-39.1	-40.2	18.1	0.00e+00	0	43	0	2291138560	47	4384
2026-01-02 16:28:05.46	303.61	10.37	-39.1	-40.2	18.2	0.00e+00	0	43	0	2313158656	47	4385
2026-01-02 16:28:08.47	304.11	10.27	-39.0	-40.1	18.3	0.00e+00	0	43	0	2334130176	47	4299
2026-01-02 16:28:11.48	304.61	10.16	-39.0	-40.1	18.3	0.00e+00	0	43	0	2356150272	47	4322
2026-01-02 16:28:14.49	305.10	10.05	-39.1	-40.2	18.2	0.00e+00	0	43	0	2378170368	47	4365
2026-01-02 16:28:17.50	305.59	9.94	-39.2	-40.4	18.0	0.00e+00	0	43	0	2399141888	47	4445
2026-01-02 16:28:20.51	306.07	9.83	-39.5	-40.6	18.0	0.00e+00	0	43	0	2421161984	48	4328
2026-01-02 16:28:23.52	306.56	9.72	-39.4	-40.5	18.1	0.00e+00	0	43	0	2443182080	48	4279
2026-01-02 16:28:26.53	307.03	9.61	-39.2	-40.3	18.3	0.00e+00	0	43	0	2465202176	48	4159
2026-01-02 16:28:29.54	307.51	9.49	-39.2	-40.3	18.3	0.00e+00	0	43	0	2486173696	48	4164
2026-01-02 16:28:32.55	307.98	9.38	-39.7	-40.9	17.7	0.00e+00	0	43	0	2508193792	48	4452
2026-01-02 16:28:35.56	308.45	9.26	-39.6	-40.8	17.7	0.00e+00	0	43	0	2530213888	48	4432
2026-01-02 16:28:38.57	308.91	9.14	-39.8	-41.1	17.5	0.00e+00	0	43	0	2552233984	49	4310
2026-01-02 16:28:41.59	309.37	9.02	-39.7	-41.0	17.6	0.00e+00	0	43	0	2573205504	49	4248
2026-01-02 16:28:44.60	309.83	8.90	-49.0	-60.1	3.8	8.48e-01	0	43	104	2582642688	67	13582
2026-01-02 16:28:47.61	310.28	8.78	-49.4	-60.4	3.8	8.47e-01	0	43	104	2582642688	68	13373
2026-01-02 16:28:50.63	310.73	8.66	-49.6	-60.6	3.8	8.46e-01	0	43	104	2582642688	68	13623
2026-01-02 16:28:53.64	311.18	8.54	-49.8	-60.5	3.8	8.47e-01	0	43	104	2582642688	69	12779
2026-01-02 16:28:56.65	311.62	8.42	-49.7	-60.6	3.8	8.47e-01	0	43	104	2582642688	69	12856
2026-01-02 16:28:59.67	312.06	8.29	-49.7	-60.6	3.8	8.47e-01	0	43	104	2582642688	69	12825
2026-01-02 16:29:02.68	312.49	8.17	-49.5	-60.5	3.8	8.47e-01	0	43	104	2582642688	69	12695
2026-01-02 16:29:05.69	312.93	8.04	-49.4	-60.4	3.8	8.46e-01	0	43	104	2582642688	69	12664
2026-01-02 16:29:08.71	313.35	7.91	-49.4	-60.4	3.8	8.47e-01	0	43	104	2582642688	69	12660
2026-01-02 16:29:11.72	313.78	7.79	-49.4	-60.5	3.8	8.47e-01	0	43	104	2582642688	69	12691
2026-01-02 16:29:14.73	314.20	7.66	-49.5	-60.5	3.8	8.47e-01	0	43	104	2582642688	69	12753
2026-01-02 16:29:17.75	314.62	7.53	-49.5	-60.5	3.8	8.47e-01	0	43	104	2582642688	69	12683
2026-01-02 16:29:20.76	315.03	7.40	-49.4	-60.4	3.8	8.48e-01	0	43	104	2582642688	69	12640
2026-01-02 16:29:23.78	315.44	7.27	-49.5	-60.5	3.8	8.46e-01	0	43	104	2582642688	69	12684
2026-01-02 16:29:26.79	315.85	7.14	-49.4	-60.5	3.8	8.47e-01	0	43	104	2582642688	69	12700
2026-01-02 16:29:29.80	316.25	7.01	-49.5	-60.5	3.8	8.45e-01	0	43	104	2582642688	69	12676
2026-01-02 16:29:32.81	316.65	6.88	-49.4	-60.4	3.8	8.47e-01	0	43	104	2582642688	69	12618
2026-01-02 16:29:35.83	317.04	6.75	-49.5	-60.5	3.8	8.47e-01	0	43	104	2582642688	69	12739
2026-01-02 16:29:38.84	317.44	6.61	-49.4	-60.5	3.8	8.46e-01	0	43	104	2582642688	69	12782
2026-01-02 16:29:41.86	317.83	6.48	-49.5	-60.5	3.8	8.49e-01	0	43	104	2582642688	69	12681
2026-01-02 16:29:44.87	318.21	6.35	-49.4	-60.5	3.8	8.47e-01	0	43	104	2582642688	69	12666
2026-01-02 16:29:47.88	318.59	6.21	-49.5	-60.4	3.8	8.47e-01	0	43	104	2582642688	69	12597
2026-01-02 16:29:50.90	318.97	6.08	-49.4	-60.4	3.8	8.46e-01	0	43	104	2582642688	69	12639
2026-01-02 16:29:53.91	319.35	5.95	-49.5	-60.5	3.8	8.47e-01	0	43	104	2582642688	69	12697
2026-01-02 16:29:56.92	319.72	5.81	-49.5	-60.5	3.8	8.48e-01	0	43	104	2582642688	69	12675
2026-01-02 16:29:59.94	320.09	5.68	-49.4	-60.4	3.8	8.47e-01	0	43	104	2582642688	69	12604
2026-01-02 16:30:02.95	320.46	5.54	-49.5	-60.4	3.8	8.47e-01	0	43	104	2582642688	69	12640
2026-01-02 16:30:05.96	320.82	5.41	-49.4	-60.4	3.8	8.46e-01	0	43	104	2582642688	69	12589
2026-01-02 16:30:08.97	321.18	5.27	-49.5	-60.4	3.8	8.47e-01	0	44	104	2582642688	69	12617
2026-01-02 16:30:11.99	321.53	5.14	-49.5	-60.4	3.8	8.48e-01	0	43	104	2582642688	69	12595
2026-01-02 16:30:15.00	321.89	5.00	-49.5	-60.5	3.8	8.47e-01	0	43	104	2582642688	69	12684

#Closed at: 2026-01-02 16:30:16
#Recorded file [2582 MB]: D:/Data/31040_260102_192128.dat