passes_logs/2026/01/02/T1/T1__20260102_143805_FENGYUN_3E_rec.log

#Pass ID: 20260102_143805_FENGYUN 3E
#Satellite: FENGYUN 3E
#Configuration: FENGYUN 3E
#almurnet v.1.7.20251203
#Start time: 2026-01-02 14:38:06

#Version: 2.0.20230620
#Station: T1
#Location: 37.570604 lon 55.790049 lat
#TLE: 1 49008U 21062A   26001.96913326  .00000001  00000+0  21174-4 0  9999
#TLE: 2 49008  98.7479   7.2511 0001416 166.5636 193.5578 14.19883387232993

#Time	Az	El	Level	Level2	SNR	BER	BlckErr	Temp	State	Recorded	gain1	gain2
2026-01-02 14:38:06.92	173.79	5.08	-48.5	-59.7	3.8	8.47e-01	0	38	0	0	66	13732
2026-01-02 14:38:10.93	173.89	5.36	-44.5	-59.1	3.8	8.47e-01	0	38	104	0	59	19324
2026-01-02 14:38:14.95	173.99	5.65	-44.4	-58.1	3.8	8.45e-01	0	38	104	0	59	17096
2026-01-02 14:38:18.97	174.10	5.95	-44.3	-56.8	3.8	8.44e-01	0	38	104	0	59	14845
2026-01-02 14:38:22.98	174.21	6.24	-44.3	-56.7	4.0	8.46e-01	0	39	104	0	59	14665
2026-01-02 14:38:27.00	174.32	6.54	-44.4	-58.4	3.8	8.47e-01	0	39	104	0	59	17716
2026-01-02 14:38:31.02	174.43	6.85	-44.4	-58.7	3.8	8.47e-01	0	39	104	0	59	18467
2026-01-02 14:38:35.03	174.55	7.15	-44.1	-53.9	4.9	7.97e-01	0	39	0	0	58	11282
2026-01-02 14:38:39.05	174.66	7.46	-42.3	-47.6	10.4	6.48e-03	0	39	0	24117248	55	6425
2026-01-02 14:38:43.07	174.78	7.78	-40.4	-43.6	14.5	1.10e-06	0	39	0	53477376	51	5118
2026-01-02 14:38:47.08	174.90	8.09	-39.6	-42.3	15.8	0.00e+00	0	39	0	81788928	49	4973
2026-01-02 14:38:51.10	175.03	8.42	-40.6	-44.0	14.2	1.10e-06	0	39	0	111149056	50	5689
2026-01-02 14:38:55.12	175.15	8.74	-42.4	-47.7	10.2	5.35e-03	0	39	0	140509184	54	6936
2026-01-02 14:38:59.14	175.28	9.07	-43.9	-54.5	4.6	7.89e-01	0	39	0	162529280	57	12750
2026-01-02 14:39:03.15	175.41	9.41	-43.7	-48.8	9.4	2.01e-02	0	39	0	181403648	58	6241
2026-01-02 14:39:07.17	175.55	9.75	-40.1	-42.4	15.8	0.00e+00	0	40	0	210763776	50	4742
2026-01-02 14:39:11.18	175.69	10.09	-39.1	-41.3	16.9	0.00e+00	0	39	0	240123904	48	4682
2026-01-02 14:39:15.19	175.83	10.44	-37.9	-40.0	17.9	0.00e+00	0	40	0	268435456	46	4497
2026-01-02 14:39:19.20	175.97	10.79	-37.2	-39.1	18.8	0.00e+00	0	40	0	297795584	45	4299
2026-01-02 14:39:23.21	176.12	11.15	-37.1	-38.7	19.1	0.00e+00	0	40	0	326107136	44	4354
2026-01-02 14:39:27.22	176.27	11.51	-37.0	-38.5	19.3	0.00e+00	0	40	0	355467264	44	4252
2026-01-02 14:39:31.23	176.42	11.88	-36.8	-38.2	19.6	0.00e+00	0	40	0	384827392	44	4127
2026-01-02 14:39:35.24	176.58	12.25	-36.9	-38.3	19.5	0.00e+00	0	40	0	413138944	44	4159
2026-01-02 14:39:39.25	176.74	12.63	-36.4	-37.8	19.9	0.00e+00	0	40	0	442499072	43	4177
2026-01-02 14:39:43.26	176.90	13.02	-36.6	-38.0	19.7	0.00e+00	0	40	0	470810624	43	4256
2026-01-02 14:39:47.28	177.07	13.41	-36.1	-37.5	20.2	0.00e+00	0	40	0	500170752	42	4248
2026-01-02 14:39:51.29	177.24	13.81	-36.0	-37.4	20.2	0.00e+00	0	40	0	529530880	42	4213
2026-01-02 14:39:55.31	177.42	14.21	-36.0	-37.4	20.3	0.00e+00	0	40	0	557842432	42	4197
2026-01-02 14:39:59.32	177.60	14.62	-36.0	-37.4	20.2	0.00e+00	0	40	0	587202560	42	4219
2026-01-02 14:40:03.34	177.79	15.04	-35.9	-37.3	20.3	0.00e+00	0	40	0	616562688	42	4169
2026-01-02 14:40:07.35	177.98	15.46	-35.9	-37.3	20.3	0.00e+00	0	40	0	644874240	42	4169
2026-01-02 14:40:11.36	178.18	15.89	-35.8	-37.3	20.2	0.00e+00	0	40	0	674234368	42	4154
2026-01-02 14:40:15.38	178.38	16.33	-35.7	-37.2	20.3	0.00e+00	0	40	0	703594496	42	4132
2026-01-02 14:40:19.39	178.59	16.78	-35.7	-37.2	20.3	0.00e+00	0	40	0	731906048	42	4107
2026-01-02 14:40:23.40	178.80	17.23	-35.6	-37.1	20.4	0.00e+00	0	40	0	761266176	41	4301
2026-01-02 14:40:27.42	179.02	17.70	-35.4	-36.9	20.5	0.00e+00	0	40	0	789577728	41	4202
2026-01-02 14:40:31.43	179.25	18.17	-35.2	-36.7	20.7	0.00e+00	0	40	0	818937856	41	4100
2026-01-02 14:40:35.44	179.48	18.65	-35.0	-36.4	20.9	0.00e+00	0	40	0	848297984	40	4215
2026-01-02 14:40:39.45	179.72	19.14	-34.8	-36.1	21.1	0.00e+00	0	40	0	876609536	40	4098
2026-01-02 14:40:43.47	179.97	19.64	-34.6	-36.0	21.4	0.00e+00	0	40	0	905969664	39	4245
2026-01-02 14:40:47.48	180.23	20.15	-34.7	-36.1	21.2	0.00e+00	0	40	0	935329792	39	4304
2026-01-02 14:40:51.49	180.49	20.66	-34.7	-36.1	21.2	0.00e+00	0	40	0	963641344	39	4322
2026-01-02 14:40:55.50	180.77	21.19	-34.9	-36.4	21.0	0.00e+00	0	40	0	993001472	39	4452
2026-01-02 14:40:59.51	181.05	21.73	-35.0	-36.4	20.9	0.00e+00	0	40	0	1021313024	39	4478
2026-01-02 14:41:03.53	181.34	22.28	-34.9	-36.4	21.0	0.00e+00	0	40	0	1050673152	39	4444
2026-01-02 14:41:07.54	181.64	22.85	-34.5	-35.9	21.4	0.00e+00	0	40	0	1080033280	39	4209
2026-01-02 14:41:11.55	181.95	23.42	-34.5	-35.8	21.5	0.00e+00	0	40	0	1108344832	39	4187
2026-01-02 14:41:15.56	182.28	24.01	-34.3	-35.6	21.7	0.00e+00	0	40	0	1137704960	39	4064
2026-01-02 14:41:19.57	182.61	24.60	-34.3	-35.6	21.7	0.00e+00	0	40	0	1167065088	39	4060
2026-01-02 14:41:23.59	182.96	25.22	-34.6	-35.9	21.4	0.00e+00	0	40	0	1195376640	39	4223
2026-01-02 14:41:27.60	183.32	25.84	-34.6	-35.9	21.4	0.00e+00	0	40	0	1224736768	39	4232
2026-01-02 14:41:31.62	183.70	26.48	-34.3	-35.7	21.6	0.00e+00	0	40	0	1253048320	39	4126
2026-01-02 14:41:35.63	184.09	27.13	-34.1	-35.5	21.7	0.00e+00	0	40	0	1282408448	38	4277
2026-01-02 14:41:39.64	184.50	27.80	-34.0	-35.3	21.9	0.00e+00	0	40	0	1311768576	38	4184
2026-01-02 14:41:43.65	184.92	28.48	-33.5	-34.9	22.3	0.00e+00	0	40	0	1340080128	37	4194
2026-01-02 14:41:47.67	185.36	29.18	-33.8	-35.1	22.2	0.00e+00	0	40	0	1369440256	37	4316
2026-01-02 14:41:51.68	185.82	29.89	-33.6	-34.9	22.4	0.00e+00	0	40	0	1398800384	37	4207
2026-01-02 14:41:55.70	186.30	30.63	-33.7	-35.0	22.3	0.00e+00	0	40	0	1427111936	37	4263
2026-01-02 14:41:59.71	186.81	31.37	-33.7	-34.9	22.4	0.00e+00	0	40	0	1456472064	37	4204
2026-01-02 14:42:03.72	187.33	32.13	-33.9	-35.1	22.2	0.00e+00	0	40	0	1485832192	37	4320
2026-01-02 14:42:07.73	187.88	32.91	-33.8	-35.0	22.2	0.00e+00	0	40	0	1514143744	37	4286
2026-01-02 14:42:11.74	188.46	33.71	-33.8	-35.1	22.2	0.00e+00	0	40	0	1543503872	37	4311
2026-01-02 14:42:15.75	189.06	34.53	-33.9	-35.2	22.1	0.00e+00	0	40	0	1571815424	37	4377
2026-01-02 14:42:19.77	189.70	35.37	-34.0	-35.3	22.0	0.00e+00	0	40	0	1601175552	37	4420
2026-01-02 14:42:23.78	190.37	36.22	-34.1	-35.5	21.9	0.00e+00	0	40	0	1630535680	37	4499
2026-01-02 14:42:27.80	191.08	37.09	-34.2	-35.6	21.9	0.00e+00	0	40	0	1658847232	38	4294
2026-01-02 14:42:31.81	191.82	37.98	-34.1	-35.4	21.9	0.00e+00	0	40	0	1688207360	38	4240
2026-01-02 14:42:35.82	192.60	38.89	-34.2	-35.6	21.8	0.00e+00	0	40	0	1717567488	38	4292
2026-01-02 14:42:39.84	193.44	39.82	-34.4	-35.7	21.8	0.00e+00	0	40	0	1745879040	38	4353
2026-01-02 14:42:43.85	194.31	40.76	-34.5	-35.8	21.7	0.00e+00	0	40	0	1775239168	39	4176
2026-01-02 14:42:47.86	195.24	41.73	-34.2	-35.5	22.0	0.00e+00	0	40	0	1803550720	38	4269
2026-01-02 14:42:51.87	196.23	42.70	-34.8	-36.2	21.4	0.00e+00	0	40	0	1832910848	38	4621
2026-01-02 14:42:55.89	197.28	43.70	-34.4	-35.7	21.8	0.00e+00	0	40	0	1862270976	39	4125
2026-01-02 14:42:59.90	198.39	44.71	-34.6	-35.9	21.7	0.00e+00	0	40	0	1890582528	39	4207
2026-01-02 14:43:03.92	199.58	45.74	-34.5	-35.8	21.9	0.00e+00	0	40	0	1919942656	39	4147
2026-01-02 14:43:07.93	200.85	46.78	-35.3	-36.2	22.0	0.00e+00	0	40	0	1949302784	41	3896
2026-01-02 14:43:11.94	202.20	47.82	-35.3	-36.2	22.1	0.00e+00	0	40	0	1977614336	41	3889
2026-01-02 14:43:15.95	203.64	48.88	-35.4	-36.3	22.1	0.00e+00	0	40	0	2006974464	40	4155
2026-01-02 14:43:19.97	205.19	49.94	-35.8	-36.7	21.6	0.00e+00	0	40	0	2036334592	41	4108
2026-01-02 14:43:23.98	206.85	51.00	-36.3	-37.2	20.9	0.00e+00	0	40	0	2064646144	42	4118
2026-01-02 14:43:28.00	208.63	52.06	-35.7	-36.6	21.7	0.00e+00	0	40	0	2094006272	42	3840
2026-01-02 14:43:32.01	210.54	53.11	-35.9	-36.8	21.5	0.00e+00	0	40	0	2122317824	41	4170
2026-01-02 14:43:36.03	212.59	54.15	-36.0	-36.9	21.4	0.00e+00	0	40	0	2151677952	41	4212
2026-01-02 14:43:40.04	214.79	55.17	-36.0	-36.9	21.5	0.00e+00	0	40	0	2181038080	42	3982
2026-01-02 14:43:44.05	217.15	56.17	-35.7	-36.6	21.8	0.00e+00	0	40	0	2209349632	42	3837
2026-01-02 14:43:48.06	219.68	57.13	-35.9	-36.9	21.5	0.00e+00	0	40	0	2238709760	41	4202
2026-01-02 14:43:52.08	222.39	58.06	-35.8	-36.7	21.6	0.00e+00	0	40	0	2268069888	41	4144
2026-01-02 14:43:56.10	225.30	58.93	-35.5	-36.3	21.9	0.00e+00	0	40	0	2296381440	41	3956
2026-01-02 14:44:00.11	228.38	59.75	-35.3	-36.2	22.1	0.00e+00	0	40	0	2325741568	41	3892
2026-01-02 14:44:04.12	231.66	60.49	-35.2	-36.1	22.2	0.00e+00	0	40	0	2355101696	40	4059
2026-01-02 14:44:08.14	235.13	61.16	-35.4	-36.3	22.0	0.00e+00	0	40	0	2383413248	40	4167
2026-01-02 14:44:12.15	238.77	61.73	-35.4	-36.3	22.0	0.00e+00	0	40	0	2412773376	40	4157
2026-01-02 14:44:16.17	242.57	62.21	-35.5	-36.4	21.9	0.00e+00	0	40	0	2441084928	40	4197
2026-01-02 14:44:20.18	246.50	62.58	-35.2	-36.1	22.2	0.00e+00	0	40	0	2470445056	40	4077
2026-01-02 14:44:24.19	250.53	62.84	-35.0	-35.9	22.4	0.00e+00	0	40	0	2499805184	40	3969
2026-01-02 14:44:28.20	254.62	62.97	-35.2	-36.0	22.3	0.00e+00	0	40	0	2528116736	40	4038
2026-01-02 14:44:32.22	258.75	62.99	-35.1	-36.0	22.2	0.00e+00	0	40	0	2557476864	40	4022
2026-01-02 14:44:36.23	262.86	62.88	-35.3	-36.2	22.0	0.00e+00	0	40	0	2586836992	40	4103
2026-01-02 14:44:40.24	266.90	62.65	-35.4	-36.3	21.9	0.00e+00	0	40	0	2615148544	40	4179
2026-01-02 14:44:44.25	270.86	62.31	-35.6	-36.4	21.8	0.00e+00	0	40	0	2644508672	41	4003
2026-01-02 14:44:48.27	274.69	61.86	-36.0	-36.9	21.4	0.00e+00	0	40	0	2672820224	41	4222
2026-01-02 14:44:52.28	278.36	61.31	-35.8	-36.7	21.6	0.00e+00	0	40	0	2702180352	41	4105
2026-01-02 14:44:56.30	281.87	60.66	-35.9	-36.9	21.4	0.00e+00	0	40	0	2731540480	41	4196
2026-01-02 14:45:00.31	285.19	59.94	-35.9	-36.8	21.3	0.00e+00	0	40	0	2759852032	41	4177
2026-01-02 14:45:04.32	288.32	59.14	-35.7	-36.5	21.6	0.00e+00	0	40	0	2789212160	41	4043
2026-01-02 14:45:08.34	291.26	58.28	-36.0	-36.9	21.1	0.00e+00	0	40	0	2818572288	41	4199
2026-01-02 14:45:12.35	294.01	57.37	-35.8	-36.7	20.9	0.00e+00	0	40	0	2846883840	41	4100
2026-01-02 14:45:16.37	296.59	56.42	-35.6	-36.5	20.6	0.00e+00	0	40	0	2876243968	41	4028
2026-01-02 14:45:20.38	298.98	55.43	-36.1	-37.0	20.9	0.00e+00	0	40	0	2905604096	41	4285
2026-01-02 14:45:24.39	301.21	54.42	-36.0	-36.9	21.2	0.00e+00	0	40	0	2933915648	42	4000
2026-01-02 14:45:28.41	303.30	53.39	-35.8	-36.7	21.6	0.00e+00	0	40	0	2963275776	42	3886
2026-01-02 14:45:32.42	305.24	52.34	-36.0	-37.0	21.2	0.00e+00	0	40	0	2991587328	41	4243
2026-01-02 14:45:36.44	307.05	51.29	-36.1	-37.0	21.3	0.00e+00	0	40	0	3020947456	42	4020
2026-01-02 14:45:40.45	308.73	50.23	-36.0	-36.9	21.2	0.00e+00	0	40	0	3050307584	42	3974
2026-01-02 14:45:44.46	310.30	49.18	-35.7	-36.6	21.7	0.00e+00	0	40	0	3078619136	42	3863
2026-01-02 14:45:48.48	311.77	48.12	-35.5	-36.4	21.8	0.00e+00	0	40	0	3107979264	41	3978
2026-01-02 14:45:52.49	313.14	47.08	-35.2	-36.0	22.2	0.00e+00	0	40	0	3137339392	41	3822
2026-01-02 14:45:56.51	314.43	46.04	-34.7	-35.6	22.5	0.00e+00	0	40	0	3165650944	39	4079
2026-01-02 14:46:00.52	315.63	45.02	-34.4	-35.2	23.0	0.00e+00	0	40	0	3195011072	39	3891
2026-01-02 14:46:04.54	316.77	44.01	-35.0	-35.8	22.5	0.00e+00	0	40	0	3223322624	39	4185
2026-01-02 14:46:08.54	317.82	43.01	-34.6	-35.5	22.8	0.00e+00	0	40	0	3252682752	39	4006
2026-01-02 14:46:12.55	318.82	42.03	-34.5	-35.3	22.9	0.00e+00	0	40	0	3282042880	39	3935
2026-01-02 14:46:16.55	319.76	41.07	-34.5	-35.3	22.8	0.00e+00	0	40	0	3310354432	39	3940
2026-01-02 14:46:20.55	320.65	40.13	-34.5	-35.3	22.9	0.00e+00	0	40	0	3339714560	39	3947
2026-01-02 14:46:24.56	321.49	39.20	-34.8	-35.7	22.5	0.00e+00	0	40	0	3368026112	39	4101
2026-01-02 14:46:28.58	322.29	38.29	-34.5	-35.4	22.8	0.00e+00	0	40	0	3397386240	39	3979
2026-01-02 14:46:32.57	323.04	37.41	-34.6	-35.5	22.7	0.00e+00	0	40	0	3426746368	39	4030
2026-01-02 14:46:36.57	323.75	36.54	-34.4	-35.3	23.0	0.00e+00	0	40	0	3455057920	39	3918
2026-01-02 14:46:40.57	324.43	35.69	-34.3	-35.2	22.9	0.00e+00	0	40	0	3484418048	39	3869
2026-01-02 14:46:44.57	325.07	34.85	-34.4	-35.2	22.9	0.00e+00	0	40	0	3512729600	39	3913
2026-01-02 14:46:48.58	325.69	34.04	-34.1	-35.0	23.0	0.00e+00	0	40	0	3542089728	39	3804
2026-01-02 14:46:52.57	326.27	33.24	-34.0	-34.9	23.3	0.00e+00	0	40	0	3570401280	38	3971
2026-01-02 14:46:56.57	326.83	32.46	-34.1	-35.0	23.2	0.00e+00	0	40	0	3599761408	38	4019
2026-01-02 14:47:00.57	327.36	31.70	-34.2	-35.0	23.1	0.00e+00	0	40	0	3628072960	38	4046
2026-01-02 14:47:04.57	327.87	30.95	-34.2	-35.0	23.1	0.00e+00	0	40	0	3657433088	38	4044
2026-01-02 14:47:08.59	328.36	30.22	-34.1	-35.0	23.0	0.00e+00	0	40	0	3685744640	38	4039
2026-01-02 14:47:12.58	328.82	29.51	-34.3	-35.2	22.9	0.00e+00	0	40	0	3715104768	38	4135
2026-01-02 14:47:16.58	329.27	28.81	-34.5	-35.4	22.8	0.00e+00	0	40	0	3743416320	38	4198
2026-01-02 14:47:20.59	329.70	28.13	-34.6	-35.4	22.7	0.00e+00	0	40	0	3772776448	38	4238
2026-01-02 14:47:24.59	330.11	27.46	-34.6	-35.4	22.8	0.00e+00	0	40	0	3802136576	38	4236
2026-01-02 14:47:28.60	330.51	26.81	-34.5	-35.4	22.8	0.00e+00	0	40	0	3830448128	38	4221
2026-01-02 14:47:32.60	330.89	26.17	-34.4	-35.3	22.8	0.00e+00	0	40	0	3859808256	38	4177
2026-01-02 14:47:36.61	331.26	25.54	-34.4	-35.2	22.9	0.00e+00	0	40	0	3888119808	38	4138
2026-01-02 14:47:40.61	331.61	24.93	-34.4	-35.2	22.9	0.00e+00	0	40	0	3917479936	38	4139
2026-01-02 14:47:44.62	331.95	24.33	-34.6	-35.4	22.7	0.00e+00	0	40	0	3946840064	38	4223
2026-01-02 14:47:48.63	332.28	23.75	-34.8	-35.7	22.4	0.00e+00	0	40	0	3975151616	39	4127
2026-01-02 14:47:52.63	332.60	23.17	-34.9	-35.8	22.3	0.00e+00	0	40	0	4004511744	39	4191
2026-01-02 14:47:56.63	332.90	22.61	-35.0	-35.9	22.2	0.00e+00	0	40	0	4032823296	39	4206
2026-01-02 14:48:00.64	333.20	22.06	-35.1	-36.0	22.2	0.00e+00	0	40	0	4062183424	39	4251
2026-01-02 14:48:04.65	333.49	21.52	-35.2	-36.1	22.1	0.00e+00	0	40	0	4091543552	39	4294
2026-01-02 14:48:08.66	333.77	20.99	-35.2	-36.0	22.1	0.00e+00	0	40	0	4119855104	39	4291
2026-01-02 14:48:12.67	334.03	20.47	-35.2	-36.2	21.9	0.00e+00	0	40	0	4149215232	40	4109
2026-01-02 14:48:16.68	334.30	19.96	-35.2	-36.2	21.9	0.00e+00	0	40	0	4177526784	40	4123
2026-01-02 14:48:20.68	334.55	19.46	-35.5	-36.4	21.6	0.00e+00	0	40	0	4206886912	40	4238
2026-01-02 14:48:24.69	334.79	18.97	-35.7	-36.6	21.5	0.00e+00	0	40	0	4235198464	40	4333
2026-01-02 14:48:28.69	335.03	18.49	-35.8	-36.8	21.3	0.00e+00	0	40	0	4264558592	41	4150
2026-01-02 14:48:32.70	335.26	18.02	-35.9	-36.9	21.3	0.00e+00	0	40	0	4293918720	41	4194
2026-01-02 14:48:36.71	335.49	17.56	-35.9	-36.8	21.3	0.00e+00	0	40	0	4322230272	41	4187
2026-01-02 14:48:40.71	335.71	17.10	-36.0	-36.9	21.2	0.00e+00	0	40	0	4351590400	41	4216
2026-01-02 14:48:44.71	335.92	16.66	-36.1	-37.1	21.0	0.00e+00	0	40	0	4379901952	41	4297
2026-01-02 14:48:48.72	336.13	16.22	-36.1	-37.0	21.1	0.00e+00	0	40	0	4409262080	41	4281
2026-01-02 14:48:52.72	336.33	15.78	-36.2	-37.1	21.0	0.00e+00	0	40	0	4437573632	41	4336
2026-01-02 14:48:56.73	336.52	15.36	-36.3	-37.3	20.8	0.00e+00	0	40	0	4466933760	42	4149
2026-01-02 14:49:00.74	336.72	14.94	-36.3	-37.2	20.9	0.00e+00	0	40	0	4495245312	42	4137
2026-01-02 14:49:04.75	336.90	14.53	-36.6	-37.6	20.5	0.00e+00	0	40	0	4524605440	42	4328
2026-01-02 14:49:08.74	337.08	14.13	-36.5	-37.6	20.5	0.00e+00	0	40	0	4553965568	42	4294
2026-01-02 14:49:12.75	337.26	13.73	-36.6	-37.7	20.4	0.00e+00	0	40	0	4582277120	42	4365
2026-01-02 14:49:16.76	337.44	13.34	-36.8	-37.9	20.2	0.00e+00	0	40	0	4611637248	43	4203
2026-01-02 14:49:20.77	337.60	12.95	-37.0	-38.0	20.0	0.00e+00	0	40	0	4639948800	43	4289
2026-01-02 14:49:24.78	337.77	12.57	-37.0	-38.1	19.9	0.00e+00	0	40	0	4669308928	43	4322
2026-01-02 14:49:28.79	337.93	12.20	-37.1	-38.2	19.8	0.00e+00	0	40	0	4698669056	43	4391
2026-01-02 14:49:32.79	338.09	11.83	-37.4	-38.5	19.7	0.00e+00	0	40	0	4726980608	44	4285
2026-01-02 14:49:36.79	338.24	11.47	-37.4	-38.5	19.7	0.00e+00	0	40	0	4756340736	44	4271
2026-01-02 14:49:40.80	338.40	11.11	-37.6	-38.8	19.4	0.00e+00	0	40	0	4784652288	44	4408
2026-01-02 14:49:44.81	338.54	10.76	-37.5	-38.7	19.5	0.00e+00	0	40	0	4814012416	44	4358
2026-01-02 14:49:48.82	338.69	10.41	-37.5	-38.8	19.3	0.00e+00	0	40	0	4843372544	44	4399
2026-01-02 14:49:52.83	338.83	10.06	-37.6	-38.8	19.3	0.00e+00	0	40	0	4871684096	45	4170
2026-01-02 14:49:56.84	338.97	9.73	-37.8	-39.1	19.1	0.00e+00	0	40	0	4901044224	45	4293
2026-01-02 14:50:00.84	339.11	9.39	-38.0	-39.2	18.9	0.00e+00	0	40	0	4929355776	45	4380
2026-01-02 14:50:04.84	339.24	9.06	-38.0	-39.3	18.8	0.00e+00	0	40	0	4958715904	45	4407
2026-01-02 14:50:08.86	339.37	8.74	-48.6	-59.8	3.8	8.47e-01	0	40	104	4966055936	66	13936
2026-01-02 14:50:12.87	339.50	8.41	-48.0	-60.0	3.8	8.47e-01	0	40	104	4966055936	66	14217
2026-01-02 14:50:16.89	339.63	8.10	-49.0	-60.3	3.8	8.47e-01	0	40	104	4966055936	68	13191
2026-01-02 14:50:20.90	339.75	7.78	-49.5	-60.3	3.8	8.47e-01	0	40	104	4966055936	68	13116
2026-01-02 14:50:24.91	339.87	7.47	-49.5	-60.3	3.8	8.47e-01	0	40	104	4966055936	68	13138
2026-01-02 14:50:28.93	339.99	7.16	-49.4	-60.3	3.8	8.46e-01	0	40	104	4966055936	68	13111
2026-01-02 14:50:32.94	340.11	6.86	-49.2	-60.2	3.8	8.46e-01	0	40	104	4966055936	68	13036
2026-01-02 14:50:36.96	340.23	6.56	-49.2	-60.1	3.8	8.47e-01	0	40	104	4966055936	68	12959
2026-01-02 14:50:40.98	340.34	6.26	-49.1	-60.2	3.8	8.46e-01	0	40	104	4966055936	68	12969
2026-01-02 14:50:45.00	340.45	5.97	-49.2	-60.2	3.8	8.46e-01	0	40	104	4966055936	68	12964
2026-01-02 14:50:49.01	340.56	5.68	-49.1	-60.2	3.8	8.47e-01	0	40	104	4966055936	68	13043
2026-01-02 14:50:53.03	340.67	5.39	-49.1	-60.2	3.8	8.46e-01	0	40	104	4966055936	68	12986
2026-01-02 14:50:57.05	340.78	5.11	-49.1	-60.1	3.8	8.47e-01	0	40	104	4966055936	68	12908

#Closed at: 2026-01-02 14:51:00
#Recorded file [4966 MB]: D:/Data/31040_260102_173806.dat