passes_logs/2026/01/02/T1/T1__20260102_093945_NOAA_21_JPSS-2_rec.log

#Pass ID: 20260102_093945_NOAA 21 (JPSS-2)
#Satellite: NOAA 21 (JPSS-2)
#Configuration: NOAA 21
#almurnet v.1.7.20251203
#Start time: 2026-01-02 09:39:46

#Version: 2.0.20230620
#Station: T1
#Location: 37.570604 lon 55.790049 lat
#TLE: 1 54234U 22150A   26001.26806856  .00000185  00000+0  10843-3 0  9990
#TLE: 2 54234  98.7484 302.3349 0001277 353.3887   6.7272 14.19530660162860

#Time	Az	El	Level	Level2	SNR	BER	BlckErr	Temp	State	Recorded	gain1	gain2
2026-01-02 09:39:46.43	152.05	5.05	-49.1	-61.9	3.8	1.49e+00	0	40	0	0	70	15078
2026-01-02 09:39:49.42	152.02	5.26	-49.1	-61.7	3.8	1.49e+00	0	41	104	0	70	14856
2026-01-02 09:39:52.41	151.98	5.48	-49.1	-62.1	3.8	1.49e+00	0	41	104	0	70	15539
2026-01-02 09:39:55.40	151.94	5.70	-49.1	-62.3	3.8	1.49e+00	0	41	104	0	70	15922
2026-01-02 09:39:58.39	151.90	5.92	-49.1	-62.2	3.8	1.49e+00	0	41	104	0	70	15612
2026-01-02 09:40:01.38	151.85	6.14	-49.1	-61.8	3.8	1.49e+00	0	41	104	0	70	14907
2026-01-02 09:40:04.37	151.81	6.37	-49.0	-61.5	3.8	1.49e+00	0	41	104	0	70	14415
2026-01-02 09:40:07.36	151.77	6.59	-49.0	-60.8	3.8	1.49e+00	0	41	104	0	70	13366
2026-01-02 09:40:10.35	151.73	6.82	-48.8	-59.3	4.1	1.48e+00	0	42	104	0	69	11870
2026-01-02 09:40:13.34	151.68	7.05	-48.6	-57.6	4.2	1.24e+00	0	42	104	0	69	9779
2026-01-02 09:40:16.33	151.64	7.28	-48.1	-55.1	6.2	3.21e-01	0	42	0	0	68	7740
2026-01-02 09:40:19.32	151.59	7.52	-46.9	-51.9	9.0	3.32e-02	0	42	0	0	65	6390
2026-01-02 09:40:22.31	151.54	7.76	-45.8	-49.5	11.6	8.06e-04	0	42	0	0	63	5451
2026-01-02 09:40:25.30	151.50	7.99	-44.7	-47.9	13.2	2.67e-05	0	42	0	0	61	5060
2026-01-02 09:40:28.29	151.45	8.24	-44.6	-47.7	13.4	1.83e-05	0	42	0	0	61	4976
2026-01-02 09:40:31.28	151.40	8.48	-45.3	-48.8	12.3	1.25e-04	0	42	0	0	61	5649
2026-01-02 09:40:34.27	151.35	8.73	-46.9	-51.9	9.0	1.71e-02	0	42	0	0	64	6769
2026-01-02 09:40:37.26	151.30	8.97	-48.4	-57.9	4.0	8.69e-01	0	42	104	0	67	11341
2026-01-02 09:40:40.25	151.24	9.22	-48.9	-59.4	4.1	1.48e+00	0	42	104	0	68	12737
2026-01-02 09:40:43.24	151.19	9.48	-49.1	-61.2	3.8	1.49e+00	0	42	104	0	68	15613
2026-01-02 09:40:46.23	151.13	9.73	-42.1	-44.2	17.0	0.00e+00	0	42	0	0	56	4430
2026-01-02 09:40:49.21	151.08	9.99	-41.7	-43.8	17.2	0.00e+00	0	43	0	0	55	4449
2026-01-02 09:40:52.20	151.02	10.25	-41.7	-43.7	17.3	0.00e+00	0	43	0	0	55	4437
2026-01-02 09:40:55.19	150.96	10.52	-41.4	-43.5	17.5	0.00e+00	0	42	0	0	54	4564
2026-01-02 09:40:58.18	150.90	10.78	-41.4	-43.4	17.6	0.00e+00	0	42	0	0	54	4535
2026-01-02 09:41:01.17	150.84	11.05	-41.3	-43.3	17.8	0.00e+00	0	43	0	0	54	4443
2026-01-02 09:41:04.17	150.78	11.33	-41.2	-43.2	17.8	0.00e+00	0	42	0	0	54	4393
2026-01-02 09:41:07.16	150.72	11.60	-41.1	-43.1	16.7	0.00e+00	0	43	0	0	54	4351
2026-01-02 09:41:10.16	150.65	11.88	-40.9	-42.9	18.1	0.00e+00	0	43	0	0	53	4506
2026-01-02 09:41:13.16	150.59	12.17	-41.0	-43.0	18.0	0.00e+00	0	43	0	0	53	4560
2026-01-02 09:41:16.15	150.52	12.45	-40.8	-42.7	18.3	0.00e+00	0	43	0	0	53	4427
2026-01-02 09:41:19.15	150.45	12.74	-40.7	-42.6	18.4	0.00e+00	0	43	0	0	53	4365
2026-01-02 09:41:22.15	150.38	13.03	-40.7	-42.6	18.4	0.00e+00	0	43	0	0	53	4355
2026-01-02 09:41:25.15	150.31	13.33	-40.6	-42.5	18.5	0.00e+00	0	43	0	0	53	4292
2026-01-02 09:41:28.15	150.24	13.63	-40.6	-42.5	18.6	0.00e+00	0	43	0	0	53	4296
2026-01-02 09:41:31.15	150.16	13.93	-40.5	-42.4	18.6	0.00e+00	0	43	0	0	53	4255
2026-01-02 09:41:34.14	150.08	14.24	-40.4	-42.3	18.7	0.00e+00	0	43	0	0	52	4449
2026-01-02 09:41:37.14	150.00	14.55	-40.4	-42.2	18.8	0.00e+00	0	43	0	0	52	4426
2026-01-02 09:41:40.13	149.92	14.87	-40.5	-42.3	18.6	0.00e+00	0	43	0	0	52	4493
2026-01-02 09:41:43.13	149.84	15.19	-40.3	-42.2	18.8	0.00e+00	0	43	0	0	52	4420
2026-01-02 09:41:46.12	149.76	15.51	-40.3	-42.1	18.9	0.00e+00	0	43	0	0	52	4384
2026-01-02 09:41:49.12	149.67	15.84	-40.3	-42.1	18.9	0.00e+00	0	43	0	0	52	4364
2026-01-02 09:41:52.11	149.58	16.17	-40.3	-42.1	18.9	0.00e+00	0	43	0	0	52	4366
2026-01-02 09:41:55.10	149.49	16.51	-40.4	-42.2	18.8	0.00e+00	0	43	0	0	52	4427
2026-01-02 09:41:58.10	149.40	16.85	-40.4	-42.2	18.8	0.00e+00	0	43	0	0	52	4431
2026-01-02 09:42:01.10	149.30	17.19	-40.3	-42.1	18.9	0.00e+00	0	43	0	0	52	4375
2026-01-02 09:42:04.09	149.20	17.54	-40.4	-42.2	18.8	0.00e+00	0	43	0	0	52	4428
2026-01-02 09:42:07.08	149.10	17.90	-40.3	-42.2	18.8	0.00e+00	0	43	0	0	52	4399
2026-01-02 09:42:10.08	149.00	18.26	-40.3	-42.1	18.9	0.00e+00	0	43	0	0	52	4389
2026-01-02 09:42:13.07	148.89	18.63	-40.3	-42.1	18.9	0.00e+00	0	43	0	0	52	4375
2026-01-02 09:42:16.06	148.79	19.00	-40.2	-42.0	19.0	0.00e+00	0	43	0	0	52	4334
2026-01-02 09:42:19.05	148.68	19.37	-40.0	-41.8	19.1	0.00e+00	0	43	0	0	52	4218
2026-01-02 09:42:22.04	148.56	19.75	-40.0	-41.8	19.1	0.00e+00	0	43	0	0	51	4486
2026-01-02 09:42:25.03	148.44	20.14	-39.6	-41.4	19.2	0.00e+00	0	43	0	0	51	4258
2026-01-02 09:42:28.03	148.32	20.54	-39.4	-41.2	19.3	0.00e+00	0	43	0	0	50	4411
2026-01-02 09:42:31.02	148.20	20.94	-39.2	-41.0	19.5	0.00e+00	0	43	0	0	50	4307
2026-01-02 09:42:34.02	148.07	21.35	-39.1	-40.8	19.6	0.00e+00	0	43	0	0	50	4240
2026-01-02 09:42:37.01	147.94	21.76	-39.0	-40.7	19.8	0.00e+00	0	43	0	0	49	4420
2026-01-02 09:42:40.00	147.81	22.18	-38.8	-40.5	20.0	0.00e+00	0	43	0	0	49	4334
2026-01-02 09:42:42.99	147.67	22.60	-38.5	-40.3	20.3	0.00e+00	0	43	0	0	49	4208
2026-01-02 09:42:45.98	147.52	23.04	-38.4	-40.2	20.3	0.00e+00	0	43	0	0	48	4395
2026-01-02 09:42:48.97	147.38	23.48	-38.4	-40.2	20.4	0.00e+00	0	44	0	0	48	4401
2026-01-02 09:42:51.96	147.23	23.93	-38.4	-40.1	20.4	0.00e+00	0	43	0	0	48	4383
2026-01-02 09:42:54.95	147.07	24.38	-38.5	-40.2	20.3	0.00e+00	0	43	0	0	48	4407
2026-01-02 09:42:57.95	146.91	24.85	-38.6	-40.3	20.3	0.00e+00	0	43	0	0	48	4443
2026-01-02 09:43:00.93	146.74	25.32	-38.7	-40.4	20.2	0.00e+00	0	43	0	0	48	4528
2026-01-02 09:43:03.93	146.57	25.80	-38.9	-40.6	20.1	0.00e+00	0	43	0	0	48	4601
2026-01-02 09:43:06.92	146.39	26.29	-39.0	-40.7	19.9	0.00e+00	0	43	0	0	48	4674
2026-01-02 09:43:09.92	146.21	26.78	-39.2	-40.9	19.7	0.00e+00	0	43	0	0	49	4535
2026-01-02 09:43:12.91	146.02	27.29	-39.3	-41.1	19.7	0.00e+00	0	43	0	0	49	4602
2026-01-02 09:43:15.91	145.83	27.81	-39.7	-41.5	19.3	0.00e+00	0	43	0	0	50	4581
2026-01-02 09:43:18.90	145.62	28.33	-39.9	-41.7	19.1	0.00e+00	0	43	0	0	50	4671
2026-01-02 09:43:21.89	145.42	28.86	-39.9	-41.7	19.1	0.00e+00	0	43	0	0	50	4687
2026-01-02 09:43:24.89	145.20	29.41	-39.8	-41.5	19.3	0.00e+00	0	43	0	0	50	4596
2026-01-02 09:43:27.88	144.97	29.96	-39.5	-41.3	19.5	0.00e+00	0	43	0	0	50	4474
2026-01-02 09:43:30.88	144.74	30.53	-39.5	-41.2	19.6	0.00e+00	0	43	0	0	50	4426
2026-01-02 09:43:33.86	144.50	31.10	-39.4	-41.2	19.6	0.00e+00	0	43	0	0	50	4412
2026-01-02 09:43:36.86	144.25	31.69	-39.4	-41.1	19.6	0.00e+00	0	44	0	0	50	4391
2026-01-02 09:43:39.86	143.99	32.29	-39.7	-41.4	19.3	0.00e+00	0	43	0	0	50	4542
2026-01-02 09:43:42.85	143.72	32.90	-39.8	-41.6	19.2	0.00e+00	0	43	0	0	50	4612
2026-01-02 09:43:45.85	143.44	33.52	-40.0	-41.8	19.0	0.00e+00	0	43	0	0	50	4735
2026-01-02 09:43:48.84	143.15	34.15	-40.3	-42.1	18.7	0.00e+00	0	43	0	0	51	4651
2026-01-02 09:43:51.84	142.84	34.80	-40.4	-42.3	18.6	0.00e+00	0	43	0	0	51	4725
2026-01-02 09:43:54.83	142.52	35.46	-40.9	-42.8	18.1	0.00e+00	0	43	0	0	52	4739
2026-01-02 09:43:57.83	142.19	36.13	-41.3	-43.4	17.5	0.00e+00	0	43	0	0	53	4772
2026-01-02 09:44:00.82	141.85	36.81	-41.6	-43.7	17.2	0.00e+00	0	43	0	0	53	4952
2026-01-02 09:44:03.82	141.49	37.51	-41.7	-43.8	17.1	0.00e+00	0	43	0	0	54	4712
2026-01-02 09:44:06.82	141.11	38.22	-41.4	-43.5	17.4	0.00e+00	0	43	0	0	54	4548
2026-01-02 09:44:09.82	140.72	38.95	-41.4	-43.4	17.5	0.00e+00	0	43	0	0	54	4517
2026-01-02 09:44:12.81	140.31	39.68	-41.5	-43.6	17.3	0.00e+00	0	43	0	0	54	4635
2026-01-02 09:44:15.80	139.87	40.43	-41.1	-43.0	17.9	0.00e+00	0	43	0	0	54	4328
2026-01-02 09:44:18.80	139.42	41.20	-40.7	-42.5	18.3	0.00e+00	0	44	0	0	53	4337
2026-01-02 09:44:21.79	138.95	41.98	-41.1	-43.1	17.7	0.00e+00	0	43	0	0	53	4618
2026-01-02 09:44:24.79	138.45	42.78	-41.5	-43.6	17.2	0.00e+00	0	43	0	0	53	4876
2026-01-02 09:44:27.79	137.92	43.59	-41.7	-43.8	17.1	0.00e+00	0	43	0	0	54	4748
2026-01-02 09:44:30.79	137.37	44.41	-42.1	-44.2	16.8	0.00e+00	0	43	0	0	54	4974
2026-01-02 09:44:33.79	136.78	45.25	-42.3	-44.4	16.6	0.00e+00	0	43	0	0	55	4797
2026-01-02 09:44:36.78	136.17	46.11	-42.1	-44.2	16.7	0.00e+00	0	43	0	0	55	4697
2026-01-02 09:44:39.78	135.51	46.97	-41.7	-43.8	17.2	0.00e+00	0	43	0	0	55	4475
2026-01-02 09:44:42.78	134.82	47.86	-41.7	-43.8	17.2	0.00e+00	0	43	0	0	55	4465
2026-01-02 09:44:45.78	134.09	48.75	-41.1	-43.1	17.8	0.00e+00	0	44	0	0	54	4355
2026-01-02 09:44:48.78	133.32	49.66	-41.2	-43.2	17.7	0.00e+00	0	43	0	0	54	4424
2026-01-02 09:44:51.78	132.49	50.58	-40.8	-42.7	18.1	0.00e+00	0	43	0	0	53	4440
2026-01-02 09:44:54.77	131.62	51.51	-41.1	-43.1	17.8	0.00e+00	0	43	0	0	53	4629
2026-01-02 09:44:57.77	130.68	52.46	-40.6	-42.5	18.2	0.00e+00	0	43	0	0	53	4327
2026-01-02 09:45:00.77	129.69	53.41	-40.5	-42.4	18.1	0.00e+00	0	43	0	0	52	4519
2026-01-02 09:45:03.77	128.62	54.37	-40.6	-42.5	18.3	0.00e+00	0	43	0	0	52	4589
2026-01-02 09:45:06.75	127.49	55.33	-40.2	-42.0	18.7	0.00e+00	0	43	0	0	52	4320
2026-01-02 09:45:09.75	126.27	56.31	-40.1	-41.9	19.0	0.00e+00	0	44	0	0	51	4504
2026-01-02 09:45:12.74	124.96	57.28	-39.6	-41.4	19.4	0.00e+00	0	43	0	0	51	4281
2026-01-02 09:45:15.73	123.56	58.26	-39.4	-41.2	19.7	0.00e+00	0	44	0	0	50	4403
2026-01-02 09:45:18.73	122.04	59.24	-39.5	-41.2	19.6	0.00e+00	0	43	0	0	50	4431
2026-01-02 09:45:21.72	120.41	60.21	-38.8	-40.5	20.2	0.00e+00	0	43	0	0	49	4308
2026-01-02 09:45:24.72	118.65	61.17	-38.7	-40.4	20.4	0.00e+00	0	43	0	0	49	4248
2026-01-02 09:45:27.70	116.76	62.12	-38.7	-40.4	20.4	0.00e+00	0	44	0	0	49	4271
2026-01-02 09:45:30.69	114.71	63.06	-38.8	-40.5	20.2	0.00e+00	0	43	0	0	48	4573
2026-01-02 09:45:33.69	112.49	63.97	-38.4	-40.1	20.6	0.00e+00	0	44	0	0	48	4342
2026-01-02 09:45:36.68	110.09	64.86	-38.4	-40.1	20.6	0.00e+00	0	44	0	0	48	4348
2026-01-02 09:45:39.66	107.51	65.71	-38.4	-40.1	20.7	0.00e+00	0	43	0	0	48	4344
2026-01-02 09:45:42.66	104.71	66.53	-38.1	-39.7	20.9	0.00e+00	0	43	0	0	48	4172
2026-01-02 09:45:45.65	101.70	67.30	-37.6	-39.2	21.2	0.00e+00	0	44	0	0	46	4419
2026-01-02 09:45:48.65	98.46	68.01	-37.8	-39.4	20.7	0.00e+00	0	43	0	0	46	4539
2026-01-02 09:45:51.64	95.01	68.66	-38.0	-39.7	20.6	0.00e+00	0	43	0	0	46	4660
2026-01-02 09:45:54.63	91.33	69.23	-38.1	-39.8	20.7	0.00e+00	0	43	0	0	47	4449
2026-01-02 09:45:57.62	87.45	69.72	-37.9	-39.6	20.8	0.00e+00	0	44	0	0	47	4358
2026-01-02 09:46:00.61	83.38	70.13	-38.2	-39.8	20.4	0.00e+00	0	43	0	0	47	4474
2026-01-02 09:46:03.61	79.13	70.43	-38.2	-39.8	20.5	0.00e+00	0	43	0	0	47	4465
2026-01-02 09:46:06.61	74.77	70.64	-38.6	-40.2	20.3	0.00e+00	0	43	0	0	48	4440
2026-01-02 09:46:09.61	70.33	70.73	-38.8	-40.5	20.3	0.00e+00	0	44	0	0	48	4557
2026-01-02 09:46:12.60	65.89	70.72	-38.2	-39.9	20.7	0.00e+00	0	44	0	0	48	4255
2026-01-02 09:46:15.59	61.48	70.60	-39.0	-40.8	20.1	0.00e+00	0	43	0	0	48	4709
2026-01-02 09:46:18.59	57.14	70.37	-38.2	-39.8	20.9	0.00e+00	0	43	0	0	48	4207
2026-01-02 09:46:21.58	52.95	70.04	-38.1	-39.7	20.7	0.00e+00	0	43	0	0	47	4409
2026-01-02 09:46:24.58	48.91	69.61	-37.7	-39.3	20.6	0.00e+00	0	43	0	0	47	4234
2026-01-02 09:46:27.57	45.08	69.10	-38.8	-40.4	19.9	0.00e+00	0	44	0	0	48	4532
2026-01-02 09:46:30.57	41.45	68.51	-38.4	-40.1	20.5	0.00e+00	0	43	0	0	48	4360
2026-01-02 09:46:33.55	38.06	67.85	-38.7	-40.4	20.3	0.00e+00	0	43	0	0	47	4771
2026-01-02 09:46:36.54	34.89	67.12	-37.8	-39.4	20.5	0.00e+00	0	43	0	0	47	4270
2026-01-02 09:46:39.54	31.93	66.35	-39.5	-41.2	19.6	0.00e+00	0	44	0	0	49	4692
2026-01-02 09:46:42.53	29.19	65.52	-38.6	-40.3	20.2	0.00e+00	0	44	0	0	49	4219
2026-01-02 09:46:45.52	26.65	64.66	-38.4	-40.1	20.5	0.00e+00	0	43	0	0	47	4609
2026-01-02 09:46:48.52	24.29	63.77	-39.1	-40.8	19.8	0.00e+00	0	43	0	0	50	4236
2026-01-02 09:46:51.52	22.11	62.85	-39.0	-40.7	20.1	0.00e+00	0	44	0	0	48	4693
2026-01-02 09:46:54.51	20.11	61.91	-39.6	-41.4	19.4	0.00e+00	0	44	0	0	51	4246
2026-01-02 09:46:57.51	18.24	60.96	-38.4	-40.0	20.7	0.00e+00	0	44	0	0	48	4332
2026-01-02 09:47:00.50	16.52	60.00	-39.5	-41.3	19.6	0.00e+00	0	43	0	0	49	4710
2026-01-02 09:47:03.49	14.92	59.03	-39.0	-40.6	20.1	0.00e+00	0	43	0	0	49	4381
2026-01-02 09:47:06.48	13.44	58.06	-39.4	-41.1	19.8	0.00e+00	0	43	0	0	49	4628
2026-01-02 09:47:09.48	12.06	57.08	-39.5	-41.3	19.1	0.00e+00	0	44	0	0	51	4226
2026-01-02 09:47:12.48	10.77	56.11	-39.2	-40.9	19.9	0.00e+00	0	44	0	0	49	4512
2026-01-02 09:47:15.47	9.58	55.14	-40.3	-42.2	18.8	0.00e+00	0	44	0	0	51	4666
2026-01-02 09:47:18.46	8.46	54.18	-41.6	-43.6	17.2	0.00e+00	0	43	0	0	54	4639
2026-01-02 09:47:21.46	7.42	53.22	-40.8	-42.7	18.2	0.00e+00	0	44	0	0	53	4395
2026-01-02 09:47:24.46	6.44	52.27	-41.1	-43.0	18.0	0.00e+00	0	43	0	0	53	4583
2026-01-02 09:47:27.45	5.52	51.34	-41.1	-43.0	17.9	0.00e+00	0	44	0	0	53	4592
2026-01-02 09:47:30.45	4.66	50.41	-40.8	-42.7	18.0	0.00e+00	0	44	0	0	53	4414
2026-01-02 09:47:33.44	3.85	49.50	-41.6	-43.6	17.4	0.00e+00	0	44	0	0	53	4892
2026-01-02 09:47:36.44	3.09	48.60	-42.5	-44.8	16.2	0.00e+00	0	44	0	0	55	4993
2026-01-02 09:47:39.43	2.37	47.71	-42.2	-44.4	16.5	0.00e+00	0	44	0	0	55	4804
2026-01-02 09:47:42.42	1.70	46.84	-41.5	-43.5	17.2	0.00e+00	0	44	0	0	55	4339
2026-01-02 09:47:45.41	1.06	45.98	-41.0	-43.0	18.0	0.00e+00	0	44	0	0	54	4296
2026-01-02 09:47:48.40	0.45	45.14	-42.4	-44.6	16.5	0.00e+00	0	44	0	0	55	4910
2026-01-02 09:47:51.40	359.88	44.30	-42.9	-45.2	15.5	0.00e+00	0	44	0	0	56	4976
2026-01-02 09:47:54.39	359.33	43.49	-42.9	-45.3	15.7	0.00e+00	0	43	0	0	56	4992
2026-01-02 09:47:57.39	358.81	42.68	-42.1	-44.2	16.9	0.00e+00	0	44	0	0	56	4438
2026-01-02 09:48:00.38	358.32	41.90	-41.1	-43.0	18.0	0.00e+00	0	44	0	0	54	4326
2026-01-02 09:48:03.37	357.85	41.12	-41.4	-43.4	17.6	0.00e+00	0	44	0	0	53	4796
2026-01-02 09:48:06.37	357.40	40.36	-42.1	-44.3	16.7	0.00e+00	0	44	0	0	54	5030
2026-01-02 09:48:09.37	356.98	39.61	-42.1	-44.3	16.4	0.00e+00	0	44	0	0	55	4733
2026-01-02 09:48:12.36	356.57	38.88	-41.6	-43.7	16.9	0.00e+00	0	44	0	0	55	4432
2026-01-02 09:48:15.36	356.18	38.16	-41.0	-43.1	17.8	0.00e+00	0	44	0	0	54	4381
2026-01-02 09:48:18.36	355.81	37.46	-40.5	-42.4	18.5	0.00e+00	0	44	0	0	53	4276
2026-01-02 09:48:21.35	355.46	36.77	-40.1	-42.0	18.8	0.00e+00	0	43	0	0	52	4317
2026-01-02 09:48:24.35	355.12	36.09	-40.4	-42.3	18.5	0.00e+00	0	44	0	0	52	4475
2026-01-02 09:48:27.34	354.79	35.42	-40.9	-42.8	18.1	0.00e+00	0	44	0	0	52	4757
2026-01-02 09:48:30.33	354.48	34.77	-41.0	-43.0	18.0	0.00e+00	0	44	0	0	52	4852
2026-01-02 09:48:33.33	354.18	34.13	-40.7	-42.7	18.1	0.00e+00	0	44	0	0	52	4703
2026-01-02 09:48:36.33	353.89	33.50	-40.5	-42.4	18.4	0.00e+00	0	44	0	0	52	4525
2026-01-02 09:48:39.32	353.61	32.89	-40.6	-42.5	18.3	0.00e+00	0	44	0	0	52	4589
2026-01-02 09:48:42.32	353.35	32.28	-40.7	-42.7	18.2	0.00e+00	0	44	0	0	52	4669
2026-01-02 09:48:45.31	353.09	31.69	-40.7	-42.6	18.2	0.00e+00	0	44	0	0	52	4631
2026-01-02 09:48:48.30	352.84	31.11	-40.3	-42.1	18.7	0.00e+00	0	44	0	0	52	4387
2026-01-02 09:48:51.30	352.61	30.54	-39.9	-41.7	19.1	0.00e+00	0	44	0	0	51	4428
2026-01-02 09:48:54.30	352.38	29.97	-39.6	-41.4	19.4	0.00e+00	0	44	0	0	51	4246
2026-01-02 09:48:57.29	352.16	29.42	-39.2	-40.9	19.8	0.00e+00	0	44	0	0	50	4285
2026-01-02 09:49:00.28	351.94	28.89	-39.2	-40.9	19.9	0.00e+00	0	43	0	0	50	4267
2026-01-02 09:49:03.27	351.74	28.36	-39.4	-41.1	19.8	0.00e+00	0	43	0	0	50	4375
2026-01-02 09:49:06.27	351.54	27.83	-39.5	-41.2	19.7	0.00e+00	0	44	0	0	50	4417
2026-01-02 09:49:09.27	351.35	27.32	-39.5	-41.2	19.6	0.00e+00	0	44	0	0	50	4439
2026-01-02 09:49:12.26	351.16	26.82	-39.2	-41.0	19.9	0.00e+00	0	43	0	0	50	4307
2026-01-02 09:49:15.26	350.98	26.32	-39.1	-40.9	20.0	0.00e+00	0	43	0	0	50	4274
2026-01-02 09:49:18.25	350.81	25.84	-39.3	-41.1	19.8	0.00e+00	0	43	0	0	50	4344
2026-01-02 09:49:21.25	350.64	25.36	-39.5	-41.3	19.6	0.00e+00	0	44	0	0	50	4447
2026-01-02 09:49:24.23	350.47	24.90	-39.8	-41.6	19.3	0.00e+00	0	44	0	0	50	4630
2026-01-02 09:49:27.23	350.32	24.44	-39.9	-41.8	19.1	0.00e+00	0	43	0	0	50	4730
2026-01-02 09:49:30.23	350.16	23.98	-40.0	-42.0	18.9	0.00e+00	0	44	0	0	50	4832
2026-01-02 09:49:33.23	350.01	23.54	-40.1	-42.1	18.9	0.00e+00	0	44	0	0	51	4601
2026-01-02 09:49:36.22	349.87	23.10	-39.8	-41.7	19.1	0.00e+00	0	44	0	0	51	4435
2026-01-02 09:49:39.21	349.73	22.67	-39.7	-41.5	19.3	0.00e+00	0	44	0	0	51	4310
2026-01-02 09:49:42.21	349.59	22.24	-39.6	-41.3	19.4	0.00e+00	0	44	0	0	51	4220
2026-01-02 09:49:45.20	349.46	21.83	-39.3	-41.0	19.6	0.00e+00	0	43	0	0	50	4338
2026-01-02 09:49:48.20	349.33	21.42	-39.1	-40.8	19.8	0.00e+00	0	44	0	0	50	4234
2026-01-02 09:49:51.19	349.21	21.01	-39.0	-40.7	19.9	0.00e+00	0	44	0	0	50	4179
2026-01-02 09:49:54.18	349.09	20.61	-39.1	-40.9	19.8	0.00e+00	0	44	0	0	50	4251
2026-01-02 09:49:57.18	348.97	20.22	-38.9	-40.7	20.0	0.00e+00	0	43	0	0	49	4393
2026-01-02 09:50:00.17	348.86	19.84	-38.9	-40.7	20.0	0.00e+00	0	43	0	0	49	4432
2026-01-02 09:50:03.16	348.74	19.46	-39.0	-40.8	19.9	0.00e+00	0	44	0	0	49	4486
2026-01-02 09:50:06.15	348.64	19.08	-39.2	-41.0	19.7	0.00e+00	0	44	0	0	49	4593
2026-01-02 09:50:09.13	348.53	18.72	-39.2	-41.1	19.7	0.00e+00	0	44	0	0	49	4607
2026-01-02 09:50:12.12	348.43	18.35	-39.4	-41.3	19.5	0.00e+00	0	44	0	0	49	4707
2026-01-02 09:50:15.12	348.33	17.99	-39.4	-41.4	19.4	0.00e+00	0	44	0	0	49	4785
2026-01-02 09:50:18.11	348.23	17.64	-39.5	-41.5	19.3	0.00e+00	0	43	0	0	49	4863
2026-01-02 09:50:21.10	348.14	17.29	-39.7	-41.7	19.1	0.00e+00	0	43	0	0	50	4680
2026-01-02 09:50:24.09	348.04	16.95	-40.0	-41.9	19.0	0.00e+00	0	44	0	0	50	4784
2026-01-02 09:50:27.08	347.95	16.61	-40.3	-42.2	18.7	0.00e+00	0	44	0	0	51	4665
2026-01-02 09:50:30.08	347.87	16.28	-40.3	-42.3	18.6	0.00e+00	0	44	0	0	51	4712
2026-01-02 09:50:33.06	347.78	15.95	-40.4	-42.4	18.4	0.00e+00	0	43	0	0	51	4801
2026-01-02 09:50:36.06	347.70	15.62	-40.6	-42.6	18.2	0.00e+00	0	44	0	0	51	4923
2026-01-02 09:50:39.04	347.61	15.30	-40.5	-42.6	18.2	0.00e+00	0	43	0	0	51	4895
2026-01-02 09:50:42.04	347.54	14.98	-40.6	-42.6	18.1	0.00e+00	0	44	0	0	52	4645
2026-01-02 09:50:45.03	347.46	14.67	-40.7	-42.7	18.0	0.00e+00	0	44	0	0	52	4704
2026-01-02 09:50:48.01	347.38	14.36	-40.6	-42.6	18.1	0.00e+00	0	44	0	0	52	4639
2026-01-02 09:50:51.00	347.31	14.06	-40.6	-42.8	18.0	0.00e+00	0	43	0	0	52	4715
2026-01-02 09:50:53.99	347.24	13.76	-40.3	-42.7	18.0	0.00e+00	0	44	0	0	52	4656
2026-01-02 09:50:56.99	347.16	13.46	-40.4	-42.7	18.0	0.00e+00	0	43	0	0	52	4701
2026-01-02 09:50:59.98	347.10	13.16	-40.3	-42.7	18.0	0.00e+00	0	43	0	0	52	4657
2026-01-02 09:51:02.98	347.03	12.87	-40.3	-42.7	18.0	0.00e+00	0	44	0	0	52	4657
2026-01-02 09:51:05.98	346.96	12.58	-40.3	-42.6	18.0	0.00e+00	0	43	0	0	52	4650
2026-01-02 09:51:08.97	346.90	12.30	-40.1	-42.5	18.1	0.00e+00	0	43	0	0	52	4590
2026-01-02 09:51:11.96	346.84	12.02	-40.0	-42.5	18.2	0.00e+00	0	44	0	0	51	4854
2026-01-02 09:51:14.95	346.77	11.74	-39.9	-42.7	18.1	0.00e+00	0	44	0	0	51	4939
2026-01-02 09:51:17.94	346.71	11.47	-40.1	-42.8	17.9	0.00e+00	0	44	0	0	51	5037
2026-01-02 09:51:20.93	346.65	11.20	-40.3	-42.9	17.8	0.00e+00	0	44	0	0	51	5099
2026-01-02 09:51:23.91	346.60	10.93	-40.1	-42.7	18.0	0.00e+00	0	43	0	0	51	4942
2026-01-02 09:51:26.90	346.54	10.66	-40.1	-42.7	18.0	0.00e+00	0	44	0	0	51	4974
2026-01-02 09:51:29.89	346.49	10.40	-40.2	-42.9	17.8	0.00e+00	0	44	0	0	51	5071
2026-01-02 09:51:32.89	346.43	10.14	-39.9	-42.9	17.8	0.00e+00	0	44	0	0	51	5058
2026-01-02 09:51:35.87	346.38	9.88	-39.7	-42.8	17.8	0.00e+00	0	44	0	0	51	5017
2026-01-02 09:51:38.85	346.33	9.63	-39.7	-42.9	17.7	0.00e+00	0	44	0	0	51	5079
2026-01-02 09:51:41.84	346.28	9.38	-39.6	-42.9	17.7	0.00e+00	0	44	0	0	51	5086
2026-01-02 09:51:44.84	346.23	9.13	-39.8	-43.2	17.4	0.00e+00	0	44	0	0	51	5250
2026-01-02 09:51:47.83	346.18	8.88	-47.1	-62.2	3.8	1.49e+00	0	44	104	0	64	22153
2026-01-02 09:51:50.83	346.13	8.63	-47.8	-62.4	3.8	1.49e+00	0	44	104	0	67	19054
2026-01-02 09:51:53.81	346.09	8.39	-49.0	-62.8	3.8	1.49e+00	0	44	104	0	69	17686
2026-01-02 09:51:56.81	346.04	8.15	-49.6	-62.8	3.8	1.49e+00	0	44	104	0	69	17739
2026-01-02 09:51:59.80	346.00	7.91	-49.7	-62.8	3.8	1.49e+00	0	44	104	0	70	16766
2026-01-02 09:52:02.78	345.95	7.68	-49.4	-62.8	3.8	1.49e+00	0	44	104	0	70	16771
2026-01-02 09:52:05.77	345.91	7.44	-49.8	-62.8	3.8	1.49e+00	0	43	104	0	70	16772
2026-01-02 09:52:08.76	345.87	7.21	-49.8	-62.7	3.8	1.49e+00	0	44	104	0	70	16691
2026-01-02 09:52:11.76	345.83	6.98	-49.7	-62.7	3.8	1.49e+00	0	44	104	0	70	16653
2026-01-02 09:52:14.75	345.79	6.75	-49.5	-62.7	3.8	1.49e+00	0	44	104	0	70	16660
2026-01-02 09:52:17.75	345.75	6.53	-49.5	-62.7	3.8	1.49e+00	0	44	104	0	70	16626
2026-01-02 09:52:20.74	345.71	6.31	-49.5	-62.7	3.8	1.49e+00	0	44	104	0	70	16633
2026-01-02 09:52:23.73	345.67	6.08	-49.5	-62.7	3.8	1.49e+00	0	44	104	0	70	16628
2026-01-02 09:52:26.72	345.64	5.86	-49.5	-62.7	3.8	1.49e+00	0	44	104	0	70	16613
2026-01-02 09:52:29.72	345.60	5.65	-49.5	-62.7	3.8	1.49e+00	0	44	104	0	70	16618
2026-01-02 09:52:32.71	345.57	5.43	-49.5	-62.7	3.8	1.49e+00	0	44	104	0	70	16597
2026-01-02 09:52:35.71	345.53	5.21	-49.5	-62.7	3.8	1.49e+00	0	44	104	0	70	16640
2026-01-02 09:52:38.70	345.50	5.00	-49.5	-62.7	3.8	1.49e+00	0	44	104	0	70	16653

#Closed at: 2026-01-02 09:52:39
#Recorded file [0 MB]: D:/Data/31040_260102_123946.dat