passes_logs/2026/01/02/T1/T1__20260102_231122_KHAYYAM_rec.log

#Pass ID: 20260102_231122_KHAYYAM
#Satellite: KHAYYAM
#Configuration: KHAYYAM_480M
#almurnet v.1.7.20251203
#Start time: 2026-01-02 23:11:24

#Version: 2.0.20230620
#Station: T1
#Location: 37.570604 lon 55.790049 lat
#TLE: 1 53370U 22096A   26002.29060447  .00010341  00000+0  42111-3 0  9999
#TLE: 2 53370  97.3571 269.5268 0001216  80.5229 279.6146 15.24671812189309

#Time	Az	El	Level	Level2	SNR	BER	BlckErr	Temp	State	Recorded	gain1	gain2
2026-01-02 23:11:24.00	345.60	5.10	-48.5	-54.6	3.4	0.00e+00	0	41	0	0	69	27640
2026-01-02 23:11:26.00	345.26	5.20	-48.4	-54.4	3.7	0.00e+00	0	41	104	0	67	30501
2026-01-02 23:11:28.01	344.91	5.30	-48.4	-54.5	3.7	0.00e+00	0	42	104	0	67	30565
2026-01-02 23:11:30.01	344.56	5.39	-48.4	-54.5	3.7	0.00e+00	0	42	104	0	67	30523
2026-01-02 23:11:32.02	344.21	5.49	-48.3	-54.4	3.7	0.00e+00	0	42	104	0	67	30493
2026-01-02 23:11:34.02	343.86	5.58	-48.3	-54.4	3.7	0.00e+00	0	42	104	0	67	30441
2026-01-02 23:11:36.03	343.50	5.68	-48.3	-54.5	3.7	0.00e+00	0	42	104	0	67	30580
2026-01-02 23:11:38.04	343.14	5.78	-48.3	-54.4	3.7	0.00e+00	0	42	104	0	67	30508
2026-01-02 23:11:40.04	342.78	5.87	-48.3	-54.5	3.7	0.00e+00	0	43	104	0	67	30557
2026-01-02 23:11:42.05	342.41	5.97	-48.3	-54.4	3.7	0.00e+00	0	42	104	0	67	30511
2026-01-02 23:11:44.05	342.04	6.06	-48.3	-54.4	3.7	0.00e+00	0	43	104	0	67	30311
2026-01-02 23:11:46.06	341.67	6.15	-48.3	-54.4	3.7	0.00e+00	0	43	104	0	67	30463
2026-01-02 23:11:48.07	341.29	6.25	-48.3	-54.4	3.7	0.00e+00	0	43	104	0	67	30502
2026-01-02 23:11:50.07	340.91	6.34	-48.3	-54.4	3.7	0.00e+00	0	43	104	0	67	30482
2026-01-02 23:11:52.08	340.53	6.43	-48.3	-54.4	3.7	0.00e+00	0	43	104	0	67	30453
2026-01-02 23:11:54.09	340.14	6.52	-48.3	-54.4	3.7	0.00e+00	0	43	104	0	67	30211
2026-01-02 23:11:56.09	339.76	6.62	-48.3	-54.4	3.7	0.00e+00	0	43	104	0	67	30288
2026-01-02 23:11:58.10	339.36	6.71	-48.3	-54.4	3.7	0.00e+00	0	44	104	0	67	30267
2026-01-02 23:12:00.11	338.97	6.80	-48.3	-54.4	3.7	0.00e+00	0	43	104	0	67	30232
2026-01-02 23:12:02.12	338.57	6.89	-48.3	-54.4	3.7	0.00e+00	0	44	104	0	67	30259
2026-01-02 23:12:04.12	338.17	6.97	-48.3	-54.4	3.7	0.00e+00	0	44	104	0	67	30232
2026-01-02 23:12:06.14	337.76	7.06	-48.3	-54.4	3.7	0.00e+00	0	44	104	0	67	30502
2026-01-02 23:12:08.14	337.36	7.15	-48.3	-54.4	3.7	0.00e+00	0	44	104	0	67	30403
2026-01-02 23:12:10.15	336.94	7.24	-48.3	-54.5	3.7	0.00e+00	0	44	104	0	67	30598
2026-01-02 23:12:12.16	336.53	7.32	-48.4	-54.4	3.7	0.00e+00	0	44	104	0	67	30405
2026-01-02 23:12:14.16	336.11	7.41	-48.4	-54.4	3.7	0.00e+00	0	44	104	0	67	30479
2026-01-02 23:12:16.16	335.70	7.49	-48.3	-54.4	3.7	0.00e+00	0	44	104	0	67	30431
2026-01-02 23:12:18.17	335.27	7.57	-48.3	-54.4	3.7	0.00e+00	0	44	104	0	67	30412
2026-01-02 23:12:20.18	334.84	7.66	-48.3	-54.4	3.7	0.00e+00	0	45	104	0	67	30373
2026-01-02 23:12:22.18	334.42	7.74	-48.3	-54.4	3.7	0.00e+00	0	45	104	0	67	30181
2026-01-02 23:12:24.19	333.98	7.82	-48.3	-54.4	3.7	0.00e+00	0	45	104	0	67	30305
2026-01-02 23:12:26.20	333.55	7.90	-48.3	-54.4	3.7	0.00e+00	0	45	104	0	67	30224
2026-01-02 23:12:28.21	333.11	7.98	-48.3	-54.4	3.7	0.00e+00	0	45	104	0	67	30356
2026-01-02 23:12:30.22	332.67	8.05	-48.3	-54.4	3.7	0.00e+00	0	45	104	0	67	30480
2026-01-02 23:12:32.22	332.22	8.13	-48.3	-54.4	3.7	0.00e+00	0	45	104	0	67	30282
2026-01-02 23:12:34.23	331.77	8.21	-48.3	-54.4	3.7	0.00e+00	0	45	104	0	67	30297
2026-01-02 23:12:36.24	331.32	8.28	-48.3	-54.4	3.7	0.00e+00	0	45	104	0	67	30205
2026-01-02 23:12:38.25	330.87	8.35	-48.3	-54.4	3.7	0.00e+00	0	45	104	0	67	30364
2026-01-02 23:12:40.25	330.41	8.43	-48.3	-54.4	3.7	0.00e+00	0	45	104	0	67	30219
2026-01-02 23:12:42.26	329.95	8.50	-48.3	-54.4	3.7	0.00e+00	0	45	104	0	67	30447
2026-01-02 23:12:44.27	329.49	8.57	-48.3	-54.4	3.7	0.00e+00	0	45	104	0	67	30434
2026-01-02 23:12:46.28	329.03	8.64	-48.3	-54.4	3.7	0.00e+00	0	45	104	0	67	30244
2026-01-02 23:12:48.29	328.56	8.70	-48.3	-54.3	3.7	0.00e+00	0	45	104	0	67	30132
2026-01-02 23:12:50.29	328.09	8.77	-48.2	-54.3	3.7	0.00e+00	0	45	104	0	67	30032
2026-01-02 23:12:52.30	327.61	8.83	-48.3	-54.4	3.7	0.00e+00	0	45	104	0	67	30413
2026-01-02 23:12:54.30	327.14	8.90	-48.2	-54.3	3.7	0.00e+00	0	45	104	0	67	30130
2026-01-02 23:12:56.31	326.66	8.96	-48.3	-54.4	3.7	0.00e+00	0	45	104	0	67	30207
2026-01-02 23:12:58.31	326.18	9.02	-48.3	-54.4	3.7	0.00e+00	0	45	104	0	67	30246
2026-01-02 23:13:00.32	325.70	9.08	-48.4	-54.5	3.7	0.00e+00	0	45	104	0	67	30872
2026-01-02 23:13:02.32	325.21	9.14	-48.4	-54.4	3.7	0.00e+00	0	45	104	0	67	30183
2026-01-02 23:13:04.32	324.73	9.19	-48.9	-54.8	3.7	0.00e+00	0	45	104	0	68	29872
2026-01-02 23:13:06.32	324.24	9.25	-49.6	-55.3	3.7	0.00e+00	0	46	104	0	70	28267
2026-01-02 23:13:08.32	323.75	9.30	-49.7	-55.3	3.7	0.00e+00	0	46	104	0	70	28461
2026-01-02 23:13:10.33	323.25	9.35	-50.9	-55.9	3.7	0.00e+00	0	46	104	0	72	26988
2026-01-02 23:13:12.34	322.75	9.40	-50.9	-55.9	3.7	0.00e+00	0	46	104	0	72	27089
2026-01-02 23:13:14.34	322.25	9.45	-51.9	-56.7	3.7	0.00e+00	0	46	104	0	74	26503
2026-01-02 23:13:16.35	321.75	9.50	-50.6	-55.9	3.7	0.00e+00	0	46	104	0	73	25451
2026-01-02 23:13:18.35	321.25	9.55	-49.4	-55.2	3.7	0.00e+00	0	46	104	0	70	27878
2026-01-02 23:13:20.36	320.74	9.59	-49.1	-55.0	3.7	0.00e+00	0	46	104	0	69	28813
2026-01-02 23:13:22.36	320.24	9.63	-49.9	-55.5	3.7	0.00e+00	0	46	104	0	70	28925
2026-01-02 23:13:24.37	319.72	9.67	-50.5	-55.7	3.7	0.00e+00	0	46	104	0	71	27997
2026-01-02 23:13:26.37	319.22	9.71	-50.4	-55.7	3.7	0.00e+00	0	46	104	0	71	27838
2026-01-02 23:13:28.37	318.70	9.75	-51.2	-56.2	3.7	0.00e+00	0	46	104	0	73	26325
2026-01-02 23:13:30.37	318.19	9.78	-51.2	-56.1	3.7	0.00e+00	0	46	104	0	73	26023
2026-01-02 23:13:32.38	317.67	9.82	-51.1	-56.0	3.7	0.00e+00	0	46	104	0	73	25830
2026-01-02 23:13:34.38	317.16	9.85	-50.9	-55.7	3.7	0.00e+00	0	46	104	0	73	24844
2026-01-02 23:13:36.39	316.64	9.88	-51.5	-56.4	3.6	0.00e+00	0	46	104	0	73	27033
2026-01-02 23:13:38.39	316.12	9.90	-51.7	-56.6	3.7	0.00e+00	0	46	104	0	74	26022
2026-01-02 23:13:40.39	315.60	9.93	-50.4	-55.6	3.7	0.00e+00	0	46	104	0	72	26022
2026-01-02 23:13:42.39	315.08	9.95	-50.3	-55.7	3.7	0.00e+00	0	46	104	0	72	26437
2026-01-02 23:13:44.40	314.55	9.98	-51.3	-55.8	3.7	0.00e+00	0	46	104	0	73	25119
2026-01-02 23:13:46.39	314.03	10.00	-51.1	-56.0	3.7	0.00e+00	0	46	104	0	73	25816
2026-01-02 23:13:48.40	313.51	10.02	-50.1	-55.5	3.7	0.00e+00	0	46	104	0	70	28996
2026-01-02 23:13:50.40	312.98	10.03	-49.8	-55.4	3.7	0.00e+00	0	46	104	0	70	28687
2026-01-02 23:13:52.40	312.46	10.05	-50.2	-55.4	3.7	0.00e+00	0	46	104	0	71	27052
2026-01-02 23:13:54.40	311.93	10.06	-51.1	-55.4	3.7	0.00e+00	0	46	104	0	72	25536
2026-01-02 23:13:56.41	311.40	10.07	-51.2	-55.7	3.7	0.00e+00	0	46	104	0	73	24966
2026-01-02 23:13:58.41	310.88	10.08	-51.4	-56.1	3.7	0.00e+00	0	46	104	0	74	24728
2026-01-02 23:14:00.42	310.35	10.08	-51.2	-55.6	3.7	0.00e+00	0	46	104	0	74	23307
2026-01-02 23:14:02.42	309.82	10.09	-51.2	-55.7	3.7	0.00e+00	0	46	104	0	73	24852
2026-01-02 23:14:04.42	309.29	10.09	-51.2	-55.5	3.7	0.00e+00	0	46	104	0	73	24406
2026-01-02 23:14:06.43	308.76	10.09	-50.7	-55.2	3.7	0.00e+00	0	46	104	0	73	23649
2026-01-02 23:14:08.43	308.23	10.09	-50.7	-55.0	3.7	0.00e+00	0	46	104	0	73	23102
2026-01-02 23:14:10.44	307.70	10.09	-50.9	-55.1	3.7	0.00e+00	0	46	104	0	73	23213
2026-01-02 23:14:12.44	307.17	10.08	-50.9	-55.4	3.7	0.00e+00	0	46	104	0	73	24023
2026-01-02 23:14:14.45	306.64	10.08	-51.2	-55.2	3.7	0.00e+00	0	46	104	0	73	23485
2026-01-02 23:14:16.45	306.11	10.07	-51.1	-55.2	3.7	0.00e+00	0	46	104	0	73	23477
2026-01-02 23:14:18.45	305.59	10.06	-51.2	-55.7	3.7	0.00e+00	0	46	104	0	73	25017
2026-01-02 23:14:20.45	305.06	10.04	-51.5	-56.0	3.7	0.00e+00	0	46	104	0	73	25888
2026-01-02 23:14:22.46	304.53	10.03	-51.8	-56.2	3.7	0.00e+00	0	46	104	0	74	25063
2026-01-02 23:14:24.47	304.01	10.01	-51.2	-55.5	3.7	0.00e+00	0	46	104	0	74	22930
2026-01-02 23:14:26.47	303.48	9.99	-51.2	-55.4	3.7	0.00e+00	0	46	104	0	74	22827
2026-01-02 23:14:28.47	302.96	9.97	-51.8	-56.3	3.7	0.00e+00	0	46	104	0	74	25173
2026-01-02 23:14:30.48	302.43	9.95	-51.7	-55.8	3.7	0.00e+00	0	46	104	0	74	23951
2026-01-02 23:14:32.48	301.91	9.93	-51.7	-56.0	3.7	0.00e+00	0	46	104	0	74	24290
2026-01-02 23:14:34.49	301.39	9.90	-51.7	-56.3	3.7	0.00e+00	0	46	104	0	74	25151
2026-01-02 23:14:36.49	300.87	9.87	-51.6	-56.2	3.7	0.00e+00	0	46	104	0	74	24892
2026-01-02 23:14:38.49	300.35	9.84	-51.8	-56.3	3.7	0.00e+00	0	46	104	0	74	25122
2026-01-02 23:14:40.49	299.83	9.81	-51.6	-56.0	3.7	0.00e+00	0	46	104	0	74	24337
2026-01-02 23:14:42.50	299.32	9.78	-51.6	-55.9	3.7	0.00e+00	0	46	104	0	74	24185
2026-01-02 23:14:44.51	298.80	9.74	-51.9	-56.3	3.7	0.00e+00	0	46	104	0	74	25371
2026-01-02 23:14:46.51	298.29	9.71	-51.7	-56.2	3.7	0.00e+00	0	47	104	0	74	25005
2026-01-02 23:14:48.52	297.77	9.67	-51.5	-55.8	3.7	0.00e+00	0	46	104	0	74	23927
2026-01-02 23:14:50.52	297.26	9.63	-51.7	-55.9	3.7	0.00e+00	0	46	104	0	74	23992
2026-01-02 23:14:52.52	296.76	9.58	-51.8	-56.3	3.7	0.00e+00	0	46	104	0	74	25236
2026-01-02 23:14:54.52	296.25	9.54	-51.5	-56.0	3.7	0.00e+00	0	46	104	0	74	24302
2026-01-02 23:14:56.52	295.75	9.50	-51.4	-56.1	3.7	0.00e+00	0	46	104	0	74	24659
2026-01-02 23:14:58.53	295.24	9.45	-51.8	-56.3	3.7	0.00e+00	0	46	104	0	74	25289
2026-01-02 23:15:00.54	294.74	9.40	-51.9	-56.4	3.7	0.00e+00	0	46	104	0	74	25443
2026-01-02 23:15:02.54	294.25	9.35	-52.1	-56.6	3.6	0.00e+00	0	46	104	0	74	26067
2026-01-02 23:15:04.54	293.75	9.30	-51.9	-56.1	3.7	0.00e+00	0	46	104	0	74	24644
2026-01-02 23:15:06.55	293.25	9.24	-51.7	-55.8	3.7	0.00e+00	0	46	104	0	74	23819
2026-01-02 23:15:08.55	292.76	9.19	-51.6	-55.5	3.7	0.00e+00	0	46	104	0	74	23082
2026-01-02 23:15:10.56	292.27	9.13	-51.6	-55.5	3.7	0.00e+00	0	46	104	0	74	23110
2026-01-02 23:15:12.57	291.78	9.07	-51.7	-56.0	3.7	0.00e+00	0	46	104	0	74	24457
2026-01-02 23:15:14.57	291.30	9.01	-51.4	-55.6	3.7	0.00e+00	0	46	104	0	74	23397
2026-01-02 23:15:16.57	290.82	8.95	-52.1	-56.6	3.7	0.00e+00	0	46	104	0	74	26066
2026-01-02 23:15:18.58	290.34	8.89	-52.0	-57.0	3.7	0.00e+00	0	46	104	0	75	25687
2026-01-02 23:15:20.58	289.86	8.83	-52.6	-57.1	3.7	0.00e+00	0	46	104	0	75	26145
2026-01-02 23:15:22.59	289.39	8.76	-52.4	-57.2	3.7	0.00e+00	0	46	104	0	76	24838
2026-01-02 23:15:24.60	288.91	8.69	-52.7	-57.3	3.7	0.00e+00	0	46	104	0	76	25190
2026-01-02 23:15:26.60	288.45	8.63	-52.6	-57.4	3.7	0.00e+00	0	46	104	0	76	25503
2026-01-02 23:15:28.60	287.98	8.56	-52.5	-57.3	3.7	0.00e+00	0	46	104	0	76	25171
2026-01-02 23:15:30.61	287.52	8.49	-52.4	-56.8	3.7	0.00e+00	0	46	104	0	76	23929
2026-01-02 23:15:32.62	287.05	8.42	-52.6	-57.0	3.7	0.00e+00	0	46	104	0	76	24470
2026-01-02 23:15:34.62	286.60	8.34	-52.0	-56.6	3.7	0.00e+00	0	46	104	0	76	23360
2026-01-02 23:15:36.63	286.14	8.27	-52.1	-57.0	3.7	0.00e+00	0	46	104	0	75	25772
2026-01-02 23:15:38.63	285.69	8.20	-52.0	-56.6	3.7	0.00e+00	0	47	104	0	75	24653
2026-01-02 23:15:40.64	285.24	8.12	-52.0	-56.6	3.6	0.00e+00	0	46	104	0	75	24534
2026-01-02 23:15:42.65	284.79	8.04	-52.0	-56.6	3.7	0.00e+00	0	46	104	0	75	24568
2026-01-02 23:15:44.65	284.35	7.96	-52.0	-56.6	3.7	0.00e+00	0	46	104	0	75	24597
2026-01-02 23:15:46.65	283.91	7.89	-52.0	-56.5	3.7	0.00e+00	0	46	104	0	75	24477
2026-01-02 23:15:48.66	283.47	7.81	-52.0	-56.6	3.7	0.00e+00	0	46	104	0	75	24590
2026-01-02 23:15:50.66	283.04	7.72	-52.0	-56.6	3.7	0.00e+00	0	47	104	0	75	24534
2026-01-02 23:15:52.67	282.61	7.64	-52.0	-56.5	3.7	0.00e+00	0	47	104	0	75	24481
2026-01-02 23:15:54.67	282.18	7.56	-52.0	-56.5	3.7	0.00e+00	0	46	104	0	75	24509
2026-01-02 23:15:56.68	281.75	7.48	-52.0	-56.6	3.7	0.00e+00	0	46	104	0	75	24562
2026-01-02 23:15:58.68	281.33	7.39	-52.0	-56.6	3.7	0.00e+00	0	47	104	0	75	24549
2026-01-02 23:16:00.69	280.91	7.31	-52.0	-56.6	3.7	0.00e+00	0	47	104	0	75	24597
2026-01-02 23:16:02.69	280.50	7.22	-51.9	-56.5	3.7	0.00e+00	0	46	104	0	75	24476
2026-01-02 23:16:04.69	280.09	7.13	-52.0	-56.6	3.7	0.00e+00	0	46	104	0	75	24607
2026-01-02 23:16:06.70	279.68	7.05	-52.0	-56.5	3.7	0.00e+00	0	47	104	0	75	24509
2026-01-02 23:16:08.70	279.27	6.96	-52.0	-56.6	3.7	0.00e+00	0	47	104	0	75	24619
2026-01-02 23:16:10.70	278.87	6.87	-52.0	-56.6	3.7	0.00e+00	0	47	104	0	75	24545
2026-01-02 23:16:12.71	278.47	6.78	-52.0	-56.6	3.7	0.00e+00	0	47	104	0	75	24556
2026-01-02 23:16:14.71	278.07	6.69	-52.0	-56.6	3.7	0.00e+00	0	47	104	0	75	24596
2026-01-02 23:16:16.71	277.68	6.60	-52.0	-56.6	3.7	0.00e+00	0	47	104	0	75	24552
2026-01-02 23:16:18.72	277.29	6.51	-52.0	-56.5	3.7	0.00e+00	0	46	104	0	75	24511
2026-01-02 23:16:20.72	276.90	6.41	-52.0	-56.6	3.7	0.00e+00	0	47	104	0	75	24542
2026-01-02 23:16:22.73	276.51	6.32	-52.0	-56.6	3.7	0.00e+00	0	47	104	0	75	24639
2026-01-02 23:16:24.73	276.13	6.23	-52.0	-56.6	3.7	0.00e+00	0	47	104	0	75	24676
2026-01-02 23:16:26.74	275.75	6.14	-52.0	-56.5	3.7	0.00e+00	0	47	104	0	75	24511
2026-01-02 23:16:28.74	275.38	6.04	-52.0	-56.5	3.7	0.00e+00	0	47	104	0	75	24515
2026-01-02 23:16:30.74	275.01	5.95	-52.0	-56.5	3.7	0.00e+00	0	47	104	0	75	24516
2026-01-02 23:16:32.72	274.64	5.85	-52.0	-56.6	3.7	0.00e+00	0	47	104	0	75	24544
2026-01-02 23:16:34.73	274.28	5.76	-52.0	-56.6	3.7	0.00e+00	0	47	104	0	75	24583
2026-01-02 23:16:36.73	273.91	5.66	-52.0	-56.6	3.7	0.00e+00	0	47	104	0	75	24572
2026-01-02 23:16:38.73	273.56	5.57	-52.0	-56.6	3.7	0.00e+00	0	47	104	0	75	24581
2026-01-02 23:16:40.73	273.20	5.47	-52.0	-56.5	3.7	0.00e+00	0	47	104	0	75	24500
2026-01-02 23:16:42.74	272.85	5.37	-52.0	-56.6	3.7	0.00e+00	0	46	104	0	75	24525
2026-01-02 23:16:44.74	272.50	5.27	-52.0	-56.6	3.7	0.00e+00	0	46	104	0	75	24532
2026-01-02 23:16:46.74	272.15	5.18	-52.0	-56.6	3.7	0.00e+00	0	46	104	0	75	24570
2026-01-02 23:16:48.75	271.80	5.08	-52.0	-56.5	3.7	0.00e+00	0	46	104	0	75	24457
2026-01-02 23:16:50.75	271.46	4.98	-52.0	-56.6	3.7	0.00e+00	0	46	104	0	75	24541

#Closed at: 2026-01-02 23:16:51
#Recorded file [0 MB]: D:/Data/31040_260103_021123.dat