passes_logs/2026/01/02/T1/T1__20260102_065440_SUOMI_NPP_rec.log

#Pass ID: 20260102_065440_SUOMI NPP
#Satellite: SUOMI NPP
#Configuration: NPP
#almurnet v.1.7.20251203
#Start time: 2026-01-02 06:54:40

#Version: 2.0.20230620
#Station: T1
#Location: 37.570604 lon 55.790049 lat
#TLE: 1 37849U 11061A   26001.07732418  .00000182  00000+0  10735-3 0  9990
#TLE: 2 37849  98.7795 303.2470 0002580  87.2016 272.9455 14.19520779734739

#Time	Az	El	Level	Level2	SNR	BER	BlckErr	Temp	State	Recorded	gain1	gain2
2026-01-02 06:54:40.08	55.96	5.00	-50.0	-65.4	3.8	1.49e+00	0	38	0	0	70	22552
2026-01-02 06:54:42.08	55.68	5.07	-50.0	-65.3	3.8	1.49e+00	0	38	104	0	71	21255
2026-01-02 06:54:44.09	55.41	5.13	-50.0	-65.4	3.8	1.49e+00	0	38	104	0	71	21295
2026-01-02 06:54:46.09	55.13	5.19	-50.0	-65.4	3.8	1.49e+00	0	38	104	0	71	21297
2026-01-02 06:54:48.10	54.85	5.25	-50.0	-65.4	3.8	1.49e+00	0	38	104	0	71	21321
2026-01-02 06:54:50.10	54.57	5.31	-50.0	-65.3	3.8	1.49e+00	0	38	104	0	71	21190
2026-01-02 06:54:52.11	54.29	5.36	-50.0	-65.4	3.8	1.49e+00	0	38	104	0	71	21262
2026-01-02 06:54:54.11	54.01	5.42	-50.0	-65.4	3.8	1.49e+00	0	38	104	0	71	21263
2026-01-02 06:54:56.12	53.73	5.48	-50.0	-65.4	3.8	1.49e+00	0	38	104	0	71	21288
2026-01-02 06:54:58.12	53.44	5.54	-50.0	-65.3	3.8	1.49e+00	0	38	104	0	71	21254
2026-01-02 06:55:00.12	53.16	5.59	-50.0	-65.4	3.8	1.49e+00	0	38	104	0	71	21311
2026-01-02 06:55:02.13	52.87	5.65	-50.0	-65.3	3.8	1.49e+00	0	39	104	0	71	21230
2026-01-02 06:55:04.14	52.58	5.71	-50.0	-65.4	3.8	1.49e+00	0	39	104	0	71	21315
2026-01-02 06:55:06.14	52.30	5.76	-49.9	-65.3	3.8	1.49e+00	0	39	104	0	71	21196
2026-01-02 06:55:08.15	52.01	5.82	-50.0	-65.4	3.8	1.49e+00	0	39	104	0	71	21309
2026-01-02 06:55:10.16	51.72	5.87	-50.0	-65.4	3.8	1.49e+00	0	39	104	0	71	21266
2026-01-02 06:55:12.16	51.42	5.92	-50.0	-65.4	3.8	1.49e+00	0	39	104	0	71	21280
2026-01-02 06:55:14.17	51.13	5.98	-50.0	-65.3	3.8	1.49e+00	0	39	104	0	71	21233
2026-01-02 06:55:16.17	50.84	6.03	-50.0	-65.3	3.8	1.49e+00	0	39	104	0	71	21183
2026-01-02 06:55:18.18	50.54	6.08	-50.0	-65.3	3.8	1.49e+00	0	39	104	0	71	21259
2026-01-02 06:55:20.18	50.25	6.13	-50.0	-65.4	3.8	1.49e+00	0	39	104	0	71	21331
2026-01-02 06:55:22.19	49.95	6.18	-50.0	-65.4	3.8	1.49e+00	0	39	104	0	71	21268
2026-01-02 06:55:24.20	49.65	6.23	-50.0	-65.4	3.8	1.49e+00	0	39	104	0	71	21295
2026-01-02 06:55:26.20	49.35	6.28	-50.0	-65.4	3.8	1.49e+00	0	39	104	0	71	21295
2026-01-02 06:55:28.21	49.05	6.33	-49.9	-65.3	3.8	1.49e+00	0	39	104	0	71	21240
2026-01-02 06:55:30.21	48.75	6.38	-50.0	-65.3	3.8	1.49e+00	0	40	104	0	71	21250
2026-01-02 06:55:32.22	48.45	6.42	-50.0	-65.3	3.8	1.49e+00	0	39	104	0	71	21245
2026-01-02 06:55:34.23	48.15	6.47	-50.0	-65.4	3.8	1.49e+00	0	39	104	0	71	21338
2026-01-02 06:55:36.23	47.84	6.52	-50.0	-65.4	3.8	1.49e+00	0	40	104	0	71	21274
2026-01-02 06:55:38.24	47.54	6.56	-50.0	-65.3	3.8	1.49e+00	0	40	104	0	71	21238
2026-01-02 06:55:40.24	47.23	6.61	-50.0	-65.4	3.8	1.49e+00	0	40	104	0	71	21277
2026-01-02 06:55:42.25	46.92	6.65	-50.0	-65.4	3.8	1.49e+00	0	40	104	0	71	21262
2026-01-02 06:55:44.25	46.62	6.69	-50.0	-65.4	3.8	1.49e+00	0	40	104	0	71	21332
2026-01-02 06:55:46.26	46.31	6.73	-50.0	-65.4	3.8	1.49e+00	0	39	104	0	71	21281
2026-01-02 06:55:48.27	46.00	6.78	-50.0	-65.3	3.8	1.49e+00	0	40	104	0	71	21229
2026-01-02 06:55:50.27	45.69	6.82	-50.0	-65.4	3.8	1.49e+00	0	40	104	0	71	21287
2026-01-02 06:55:52.28	45.37	6.86	-50.0	-65.4	3.8	1.49e+00	0	40	104	0	71	21299
2026-01-02 06:55:54.28	45.06	6.90	-50.0	-65.4	3.8	1.49e+00	0	40	104	0	71	21321
2026-01-02 06:55:56.28	44.75	6.94	-50.0	-65.4	3.8	1.49e+00	0	40	104	0	71	21317
2026-01-02 06:55:58.29	44.44	6.97	-50.0	-65.4	3.8	1.49e+00	0	40	104	0	71	21270
2026-01-02 06:56:00.29	44.12	7.01	-50.0	-65.4	3.8	1.49e+00	0	40	104	0	71	21286
2026-01-02 06:56:02.29	43.81	7.05	-50.0	-65.4	3.8	1.49e+00	0	40	104	0	71	21301
2026-01-02 06:56:04.30	43.49	7.08	-50.0	-65.4	3.8	1.49e+00	0	40	104	0	71	21312
2026-01-02 06:56:06.31	43.17	7.12	-50.0	-65.4	3.8	1.49e+00	0	40	104	0	71	21288
2026-01-02 06:56:08.31	42.86	7.15	-50.0	-65.4	3.8	1.49e+00	0	40	104	0	71	21314
2026-01-02 06:56:10.31	42.54	7.19	-50.0	-65.4	3.8	1.49e+00	0	40	104	0	71	21319
2026-01-02 06:56:12.32	42.22	7.22	-50.0	-65.3	3.8	1.49e+00	0	40	104	0	71	21256
2026-01-02 06:56:14.32	41.90	7.25	-50.0	-65.4	3.8	1.49e+00	0	40	104	0	71	21263
2026-01-02 06:56:16.33	41.58	7.28	-50.0	-65.4	3.8	1.49e+00	0	40	104	0	71	21302
2026-01-02 06:56:18.33	41.26	7.31	-50.0	-65.4	3.8	1.49e+00	0	40	104	0	71	21318
2026-01-02 06:56:20.34	40.93	7.34	-50.0	-65.4	3.8	1.49e+00	0	40	104	0	71	21328
2026-01-02 06:56:22.34	40.61	7.37	-50.0	-65.4	3.8	1.49e+00	0	40	104	0	71	21366
2026-01-02 06:56:24.34	40.29	7.40	-50.0	-65.3	3.8	1.49e+00	0	40	104	0	71	21222
2026-01-02 06:56:26.35	39.96	7.43	-50.0	-65.4	3.8	1.49e+00	0	40	104	0	71	21261
2026-01-02 06:56:28.36	39.64	7.45	-50.0	-65.4	3.8	1.49e+00	0	40	104	0	71	21297
2026-01-02 06:56:30.36	39.31	7.48	-50.0	-65.4	3.8	1.49e+00	0	40	104	0	71	21263
2026-01-02 06:56:32.37	38.99	7.50	-50.0	-65.3	3.8	1.49e+00	0	40	104	0	71	21251
2026-01-02 06:56:34.38	38.66	7.53	-50.0	-65.4	3.8	1.49e+00	0	40	104	0	71	21346
2026-01-02 06:56:36.38	38.33	7.55	-50.0	-65.4	3.8	1.49e+00	0	40	104	0	71	21370
2026-01-02 06:56:38.39	38.01	7.57	-50.0	-65.3	3.8	1.49e+00	0	40	104	0	71	21260
2026-01-02 06:56:40.40	37.68	7.59	-50.0	-65.4	3.8	1.49e+00	0	40	104	0	71	21298
2026-01-02 06:56:42.40	37.35	7.61	-50.0	-65.4	3.8	1.49e+00	0	40	104	0	71	21292
2026-01-02 06:56:44.41	37.02	7.63	-50.0	-65.3	3.8	1.49e+00	0	40	104	0	71	21228
2026-01-02 06:56:46.41	36.69	7.65	-50.0	-65.4	3.8	1.49e+00	0	40	104	0	71	21321
2026-01-02 06:56:48.42	36.36	7.67	-50.0	-65.3	3.8	1.49e+00	0	40	104	0	71	21227
2026-01-02 06:56:50.42	36.03	7.68	-50.0	-65.4	3.8	1.49e+00	0	40	104	0	71	21316
2026-01-02 06:56:52.43	35.70	7.70	-49.9	-65.3	3.8	1.49e+00	0	40	104	0	71	21258
2026-01-02 06:56:54.43	35.37	7.72	-50.0	-65.4	3.8	1.49e+00	0	40	104	0	71	21296
2026-01-02 06:56:56.44	35.04	7.73	-50.0	-65.3	3.8	1.49e+00	0	40	104	0	71	21244
2026-01-02 06:56:58.44	34.71	7.74	-50.0	-65.4	3.8	1.49e+00	0	40	104	0	71	21275
2026-01-02 06:57:00.44	34.38	7.76	-50.0	-65.4	3.8	1.49e+00	0	40	104	0	71	21262
2026-01-02 06:57:02.45	34.05	7.77	-50.0	-65.4	3.8	1.49e+00	0	40	104	0	71	21298
2026-01-02 06:57:04.45	33.71	7.78	-50.0	-65.4	3.8	1.49e+00	0	40	104	0	71	21265
2026-01-02 06:57:06.46	33.38	7.79	-50.0	-65.4	3.8	1.49e+00	0	41	104	0	71	21262
2026-01-02 06:57:08.46	33.05	7.80	-50.0	-65.3	3.8	1.49e+00	0	40	104	0	71	21234
2026-01-02 06:57:10.47	32.72	7.80	-50.0	-65.3	3.8	1.49e+00	0	40	104	0	71	21240
2026-01-02 06:57:12.47	32.38	7.81	-50.0	-65.4	3.8	1.49e+00	0	40	104	0	71	21330
2026-01-02 06:57:14.47	32.05	7.82	-50.0	-65.4	3.8	1.49e+00	0	40	104	0	71	21265
2026-01-02 06:57:16.48	31.72	7.82	-50.0	-65.3	3.8	1.49e+00	0	40	104	0	71	21215
2026-01-02 06:57:18.48	31.39	7.83	-50.0	-65.4	3.8	1.49e+00	0	40	104	0	71	21301
2026-01-02 06:57:20.48	31.05	7.83	-50.0	-65.4	3.8	1.49e+00	0	40	104	0	71	21273
2026-01-02 06:57:22.49	30.72	7.83	-50.0	-65.4	3.8	1.49e+00	0	40	104	0	71	21327
2026-01-02 06:57:24.49	30.39	7.83	-50.0	-65.4	3.8	1.49e+00	0	40	104	0	71	21355
2026-01-02 06:57:26.49	30.05	7.83	-50.0	-65.3	3.8	1.49e+00	0	40	104	0	71	21260
2026-01-02 06:57:28.50	29.72	7.83	-50.0	-65.4	3.8	1.49e+00	0	40	104	0	71	21317
2026-01-02 06:57:30.50	29.39	7.83	-50.0	-65.4	3.8	1.49e+00	0	40	104	0	71	21299
2026-01-02 06:57:32.50	29.05	7.83	-50.0	-65.3	3.8	1.49e+00	0	40	104	0	71	21205
2026-01-02 06:57:34.51	28.72	7.83	-50.0	-65.4	3.8	1.49e+00	0	40	104	0	71	21291
2026-01-02 06:57:36.51	28.39	7.82	-50.0	-65.4	3.8	1.49e+00	0	40	104	0	71	21310
2026-01-02 06:57:38.51	28.05	7.82	-50.0	-65.4	3.8	1.49e+00	0	40	104	0	71	21320
2026-01-02 06:57:40.52	27.72	7.81	-50.0	-65.3	3.8	1.49e+00	0	40	104	0	71	21220
2026-01-02 06:57:42.52	27.39	7.81	-50.0	-65.4	3.8	1.49e+00	0	40	104	0	71	21318
2026-01-02 06:57:44.53	27.06	7.80	-50.0	-65.4	3.8	1.49e+00	0	40	104	0	71	21344
2026-01-02 06:57:46.54	26.72	7.79	-50.0	-65.4	3.8	1.49e+00	0	40	104	0	71	21282
2026-01-02 06:57:48.54	26.39	7.78	-50.0	-65.4	3.8	1.49e+00	0	40	104	0	71	21291
2026-01-02 06:57:50.55	26.06	7.77	-50.0	-65.4	3.8	1.49e+00	0	40	104	0	71	21296
2026-01-02 06:57:52.55	25.73	7.76	-50.0	-65.4	3.8	1.49e+00	0	40	104	0	71	21366
2026-01-02 06:57:54.56	25.39	7.75	-50.0	-65.4	3.8	1.49e+00	0	41	104	0	71	21329
2026-01-02 06:57:56.56	25.06	7.73	-50.0	-65.4	3.8	1.49e+00	0	40	104	0	71	21282
2026-01-02 06:57:58.57	24.73	7.72	-50.0	-65.4	3.8	1.49e+00	0	40	104	0	71	21299
2026-01-02 06:58:00.57	24.40	7.70	-50.0	-65.3	3.8	1.49e+00	0	40	104	0	71	21260
2026-01-02 06:58:02.57	24.07	7.69	-50.0	-65.4	3.8	1.49e+00	0	40	104	0	71	21385
2026-01-02 06:58:04.58	23.74	7.67	-50.0	-65.3	3.8	1.49e+00	0	40	104	0	71	21211
2026-01-02 06:58:06.58	23.41	7.66	-50.0	-65.4	3.8	1.49e+00	0	40	104	0	71	21282
2026-01-02 06:58:08.59	23.08	7.64	-50.0	-65.4	3.8	1.49e+00	0	40	104	0	71	21324
2026-01-02 06:58:10.59	22.76	7.62	-50.0	-65.4	3.8	1.49e+00	0	40	104	0	71	21338
2026-01-02 06:58:12.60	22.43	7.60	-50.0	-65.4	3.8	1.49e+00	0	41	104	0	71	21288
2026-01-02 06:58:14.60	22.10	7.58	-50.0	-65.4	3.8	1.49e+00	0	40	104	0	71	21265
2026-01-02 06:58:16.60	21.77	7.56	-50.0	-65.4	3.8	1.49e+00	0	40	104	0	71	21316
2026-01-02 06:58:18.61	21.45	7.53	-50.0	-65.4	3.8	1.49e+00	0	40	104	0	71	21271
2026-01-02 06:58:20.61	21.12	7.51	-50.0	-65.4	3.8	1.49e+00	0	40	104	0	71	21310
2026-01-02 06:58:22.62	20.80	7.48	-50.0	-65.4	3.8	1.49e+00	0	41	104	0	71	21284
2026-01-02 06:58:24.63	20.47	7.46	-50.0	-65.4	3.8	1.49e+00	0	40	104	0	71	21299
2026-01-02 06:58:26.63	20.15	7.43	-50.0	-65.4	3.8	1.49e+00	0	40	104	0	71	21402
2026-01-02 06:58:28.64	19.82	7.41	-50.0	-65.3	3.8	1.49e+00	0	40	104	0	71	21244
2026-01-02 06:58:30.64	19.50	7.38	-50.0	-65.4	3.8	1.49e+00	0	40	104	0	71	21308
2026-01-02 06:58:32.65	19.18	7.35	-50.0	-65.4	3.8	1.49e+00	0	40	104	0	71	21309
2026-01-02 06:58:34.66	18.85	7.32	-50.0	-65.3	3.8	1.49e+00	0	40	104	0	71	21191
2026-01-02 06:58:36.66	18.53	7.29	-50.0	-65.4	3.8	1.49e+00	0	40	104	0	71	21348
2026-01-02 06:58:38.66	18.21	7.26	-50.0	-65.4	3.8	1.49e+00	0	40	104	0	71	21262
2026-01-02 06:58:40.67	17.89	7.23	-50.0	-65.4	3.8	1.49e+00	0	40	104	0	71	21289
2026-01-02 06:58:42.67	17.57	7.20	-50.0	-65.4	3.8	1.49e+00	0	40	104	0	71	21290
2026-01-02 06:58:44.68	17.26	7.16	-50.0	-65.4	3.8	1.49e+00	0	40	104	0	71	21320
2026-01-02 06:58:46.69	16.94	7.13	-50.0	-65.4	3.8	1.49e+00	0	40	104	0	71	21286
2026-01-02 06:58:48.69	16.62	7.09	-50.0	-65.3	3.8	1.49e+00	0	40	104	0	71	21258
2026-01-02 06:58:50.70	16.30	7.06	-50.0	-65.4	3.8	1.49e+00	0	40	104	0	71	21289
2026-01-02 06:58:52.70	15.99	7.02	-50.0	-65.4	3.8	1.49e+00	0	40	104	0	71	21330
2026-01-02 06:58:54.71	15.67	6.99	-50.0	-65.4	3.8	1.49e+00	0	40	104	0	71	21308
2026-01-02 06:58:56.71	15.36	6.95	-50.0	-65.4	3.8	1.49e+00	0	40	104	0	71	21280
2026-01-02 06:58:58.72	15.05	6.91	-50.0	-65.4	3.8	1.49e+00	0	40	104	0	71	21296
2026-01-02 06:59:00.73	14.74	6.87	-50.0	-65.4	3.8	1.49e+00	0	40	104	0	71	21310
2026-01-02 06:59:02.73	14.43	6.83	-50.0	-65.4	3.8	1.49e+00	0	40	104	0	71	21281
2026-01-02 06:59:04.74	14.11	6.79	-50.0	-65.4	3.8	1.49e+00	0	40	104	0	71	21351
2026-01-02 06:59:06.74	13.81	6.75	-50.0	-65.4	3.8	1.49e+00	0	40	104	0	71	21268
2026-01-02 06:59:08.74	13.50	6.70	-50.0	-65.4	3.8	1.49e+00	0	40	104	0	71	21300
2026-01-02 06:59:10.75	13.19	6.66	-50.0	-65.3	3.8	1.49e+00	0	40	104	0	71	21259
2026-01-02 06:59:12.76	12.88	6.62	-50.0	-65.4	3.8	1.49e+00	0	40	104	0	71	21278
2026-01-02 06:59:14.76	12.58	6.57	-50.0	-65.4	3.8	1.49e+00	0	40	104	0	71	21311
2026-01-02 06:59:16.77	12.27	6.53	-50.0	-65.4	3.8	1.49e+00	0	41	104	0	71	21280
2026-01-02 06:59:18.78	11.97	6.48	-50.0	-65.4	3.8	1.49e+00	0	40	104	0	71	21328
2026-01-02 06:59:20.78	11.67	6.44	-50.0	-65.4	3.8	1.49e+00	0	40	104	0	71	21373
2026-01-02 06:59:22.79	11.36	6.39	-50.0	-65.4	3.8	1.49e+00	0	40	104	0	71	21272
2026-01-02 06:59:24.79	11.06	6.34	-50.0	-65.4	3.8	1.49e+00	0	40	104	0	71	21330
2026-01-02 06:59:26.80	10.76	6.29	-50.0	-65.4	3.8	1.49e+00	0	40	104	0	71	21315
2026-01-02 06:59:28.80	10.47	6.24	-50.0	-65.4	3.8	1.49e+00	0	40	104	0	71	21270
2026-01-02 06:59:30.81	10.17	6.20	-50.0	-65.4	3.8	1.49e+00	0	40	104	0	71	21314
2026-01-02 06:59:32.81	9.87	6.15	-50.0	-65.4	3.8	1.49e+00	0	40	104	0	71	21348
2026-01-02 06:59:34.81	9.58	6.09	-50.0	-65.3	3.8	1.49e+00	0	40	104	0	71	21176
2026-01-02 06:59:36.82	9.28	6.04	-50.0	-65.3	3.8	1.49e+00	0	40	104	0	71	21245
2026-01-02 06:59:38.82	8.99	5.99	-50.0	-65.4	3.8	1.49e+00	0	40	104	0	71	21338
2026-01-02 06:59:40.83	8.70	5.94	-50.0	-65.4	3.8	1.49e+00	0	40	104	0	71	21324
2026-01-02 06:59:42.83	8.41	5.89	-50.0	-65.3	3.8	1.49e+00	0	40	104	0	71	21250
2026-01-02 06:59:44.84	8.12	5.83	-50.0	-65.4	3.8	1.49e+00	0	40	104	0	71	21287
2026-01-02 06:59:46.84	7.83	5.78	-50.0	-65.4	3.8	1.49e+00	0	40	104	0	71	21301
2026-01-02 06:59:48.85	7.54	5.72	-50.0	-65.4	3.8	1.49e+00	0	40	104	0	71	21348
2026-01-02 06:59:50.85	7.25	5.67	-50.0	-65.4	3.8	1.49e+00	0	40	104	0	71	21348
2026-01-02 06:59:52.86	6.97	5.61	-50.0	-65.4	3.8	1.49e+00	0	40	104	0	71	21290
2026-01-02 06:59:54.86	6.68	5.55	-50.0	-65.4	3.8	1.49e+00	0	40	104	0	71	21323
2026-01-02 06:59:56.86	6.40	5.50	-50.0	-65.4	3.8	1.49e+00	0	40	104	0	71	21323
2026-01-02 06:59:58.87	6.12	5.44	-50.0	-65.4	3.8	1.49e+00	0	40	104	0	71	21300
2026-01-02 07:00:00.88	5.84	5.38	-50.0	-65.4	3.8	1.49e+00	0	41	104	0	71	21298
2026-01-02 07:00:02.88	5.56	5.32	-50.0	-65.4	3.8	1.49e+00	0	40	104	0	71	21328
2026-01-02 07:00:04.89	5.28	5.26	-50.0	-65.4	3.8	1.49e+00	0	41	104	0	71	21320
2026-01-02 07:00:06.89	5.00	5.20	-50.0	-65.4	3.8	1.49e+00	0	40	104	0	71	21276
2026-01-02 07:00:08.89	4.72	5.15	-50.0	-65.4	3.8	1.49e+00	0	40	104	0	71	21289
2026-01-02 07:00:10.90	4.45	5.08	-50.0	-65.3	3.8	1.49e+00	0	40	104	0	71	21201
2026-01-02 07:00:12.91	4.17	5.02	-50.0	-65.4	3.8	1.49e+00	0	40	104	0	71	21335

#Closed at: 2026-01-02 07:00:14
#Recorded file [0 MB]: D:/Data/31040_260102_095440.dat