passes_logs/2026/01/02/T1/T1__20260102_015935_SUOMI_NPP_rec.log

#Pass ID: 20260102_015935_SUOMI NPP
#Satellite: SUOMI NPP
#Configuration: NPP
#almurnet v.1.7.20251203
#Start time: 2026-01-02 01:59:36

#Version: 2.0.20230620
#Station: T1
#Location: 37.570604 lon 55.790049 lat
#TLE: 1 37849U 11061A   26001.07732418  .00000182  00000+0  10735-3 0  9990
#TLE: 2 37849  98.7795 303.2470 0002580  87.2016 272.9455 14.19520779734739

#Time	Az	El	Level	Level2	SNR	BER	BlckErr	Temp	State	Recorded	gain1	gain2
2026-01-02 01:59:36.06	3.34	5.01	-50.1	-65.5	3.8	1.49e+00	0	41	0	0	70	23038
2026-01-02 01:59:39.06	3.03	5.17	-50.0	-65.5	3.8	1.49e+00	0	41	104	0	72	20396
2026-01-02 01:59:42.08	2.71	5.33	-50.1	-65.5	3.8	1.49e+00	0	41	104	0	72	20384
2026-01-02 01:59:45.09	2.39	5.48	-50.0	-65.5	3.8	1.49e+00	0	41	104	0	72	20417
2026-01-02 01:59:48.10	2.07	5.64	-50.0	-65.5	3.8	1.49e+00	0	41	104	0	72	20479
2026-01-02 01:59:51.11	1.74	5.80	-50.1	-65.5	3.8	1.49e+00	0	41	104	0	72	20406
2026-01-02 01:59:54.13	1.41	5.95	-50.1	-65.5	3.8	1.49e+00	0	41	104	0	72	20365
2026-01-02 01:59:57.14	1.08	6.11	-50.0	-65.5	3.8	1.49e+00	0	41	104	0	72	20426
2026-01-02 02:00:00.15	0.74	6.27	-50.0	-65.5	3.8	1.49e+00	0	41	104	0	72	20486
2026-01-02 02:00:03.16	0.40	6.43	-50.0	-65.5	3.8	1.49e+00	0	42	104	0	72	20442
2026-01-02 02:00:06.43	0.03	6.60	-50.0	-65.5	3.8	1.49e+00	0	42	104	0	72	20423
2026-01-02 02:00:09.17	359.71	6.74	-50.0	-65.5	3.8	1.49e+00	0	42	104	0	72	20360
2026-01-02 02:00:13.07	359.25	6.94	-50.0	-65.5	3.8	1.49e+00	0	42	104	0	72	20450
2026-01-02 02:00:15.82	358.93	7.09	-50.0	-65.5	3.8	1.49e+00	0	42	104	0	72	20397
2026-01-02 02:00:19.47	358.49	7.28	-50.0	-65.5	3.8	1.49e+00	0	42	104	0	72	20479
2026-01-02 02:00:22.30	358.14	7.42	-50.0	-65.5	3.8	1.49e+00	0	42	104	0	72	20400
2026-01-02 02:00:25.60	357.74	7.60	-50.0	-65.5	3.8	1.49e+00	0	42	104	0	72	20407
2026-01-02 02:00:28.33	357.40	7.74	-50.1	-65.5	3.8	1.49e+00	0	42	104	0	72	20425
2026-01-02 02:00:31.63	356.98	7.91	-50.1	-65.5	3.8	1.49e+00	0	42	104	0	72	20430
2026-01-02 02:00:34.36	356.64	8.05	-50.1	-65.5	3.8	1.49e+00	0	42	104	0	72	20392
2026-01-02 02:00:37.65	356.21	8.22	-50.1	-65.5	3.8	1.49e+00	0	42	104	0	72	20429
2026-01-02 02:00:40.38	355.86	8.36	-50.1	-65.5	3.8	1.49e+00	0	43	104	0	72	20415
2026-01-02 02:00:43.70	355.42	8.53	-50.1	-65.5	3.8	1.49e+00	0	42	104	0	72	20460
2026-01-02 02:00:46.49	355.05	8.68	-50.0	-65.5	3.8	1.49e+00	0	42	104	0	72	20434
2026-01-02 02:00:49.91	354.59	8.85	-50.1	-65.5	3.8	1.49e+00	0	42	104	0	72	20404
2026-01-02 02:00:52.70	354.22	8.99	-50.1	-65.5	3.8	1.49e+00	0	43	104	0	72	20450
2026-01-02 02:00:56.00	353.76	9.16	-50.1	-65.5	3.8	1.49e+00	0	43	104	0	72	20445
2026-01-02 02:00:58.72	353.38	9.30	-50.1	-65.5	3.8	1.49e+00	0	43	104	0	72	20438
2026-01-02 02:01:02.02	352.92	9.47	-50.1	-65.5	3.8	1.49e+00	0	42	104	0	72	20432
2026-01-02 02:01:04.75	352.53	9.60	-50.1	-65.5	3.8	1.49e+00	0	43	104	0	72	20427
2026-01-02 02:01:08.05	352.06	9.77	-50.1	-65.5	3.8	1.49e+00	0	43	104	0	72	20480
2026-01-02 02:01:10.77	351.67	9.91	-50.1	-65.6	3.8	1.49e+00	0	43	104	0	72	20568
2026-01-02 02:01:14.07	351.19	10.07	-50.1	-65.5	3.8	1.49e+00	0	43	104	0	72	20467
2026-01-02 02:01:16.80	350.78	10.20	-50.1	-65.5	3.8	1.49e+00	0	43	104	0	72	20428
2026-01-02 02:01:20.10	350.29	10.37	-50.1	-65.5	3.8	1.49e+00	0	43	104	0	72	20487
2026-01-02 02:01:22.82	349.88	10.50	-50.1	-65.5	3.8	1.49e+00	0	43	104	0	72	20476
2026-01-02 02:01:26.12	349.37	10.66	-50.1	-65.5	3.8	1.49e+00	0	43	104	0	72	20407
2026-01-02 02:01:28.85	348.95	10.79	-50.1	-65.5	3.8	1.49e+00	0	43	104	0	72	20485
2026-01-02 02:01:32.15	348.44	10.95	-50.1	-65.5	3.8	1.49e+00	0	43	104	0	72	20495
2026-01-02 02:01:34.87	348.01	11.08	-50.1	-65.5	3.8	1.49e+00	0	43	104	0	72	20453
2026-01-02 02:01:38.17	347.49	11.24	-50.1	-65.5	3.8	1.49e+00	0	43	104	0	72	20424
2026-01-02 02:01:40.90	347.05	11.36	-50.1	-65.5	3.8	1.49e+00	0	43	104	0	72	20460
2026-01-02 02:01:44.20	346.52	11.52	-50.1	-65.5	3.8	1.49e+00	0	43	104	0	72	20413
2026-01-02 02:01:46.92	346.07	11.64	-50.1	-65.5	3.8	1.49e+00	0	43	104	0	72	20443
2026-01-02 02:01:50.22	345.53	11.79	-50.1	-65.5	3.8	1.49e+00	0	43	104	0	72	20497
2026-01-02 02:01:53.09	345.05	11.92	-50.1	-65.5	3.8	1.49e+00	0	43	104	0	72	20440
2026-01-02 02:01:56.39	344.49	12.07	-50.1	-65.5	3.8	1.49e+00	0	43	104	0	72	20455
2026-01-02 02:01:59.12	344.03	12.19	-50.1	-65.5	3.8	1.49e+00	0	43	104	0	72	20440
2026-01-02 02:02:02.35	343.47	12.33	-50.1	-65.5	3.8	1.49e+00	0	43	104	0	72	20488
2026-01-02 02:02:05.22	342.98	12.46	-50.1	-65.5	3.8	1.49e+00	0	43	104	0	72	20437
2026-01-02 02:02:08.38	342.42	12.59	-50.1	-65.5	3.8	1.49e+00	0	43	104	0	72	20383
2026-01-02 02:02:11.25	341.92	12.71	-50.1	-65.5	3.8	1.49e+00	0	43	104	0	72	20460
2026-01-02 02:02:14.40	341.36	12.84	-50.1	-65.5	3.8	1.49e+00	0	43	104	0	72	20471
2026-01-02 02:02:17.27	340.84	12.96	-50.1	-65.6	3.8	1.49e+00	0	43	104	0	72	20560
2026-01-02 02:02:20.43	340.27	13.09	-50.1	-65.5	3.8	1.49e+00	0	43	104	0	72	20408
2026-01-02 02:02:23.30	339.75	13.20	-50.1	-65.5	3.8	1.49e+00	0	43	104	0	72	20530
2026-01-02 02:02:26.56	339.15	13.33	-50.1	-65.5	3.8	1.49e+00	0	43	104	0	72	20487
2026-01-02 02:02:29.51	338.60	13.44	-50.1	-65.5	3.8	1.49e+00	0	43	104	0	72	20494
2026-01-02 02:02:32.80	337.99	13.56	-50.1	-65.5	3.8	1.49e+00	0	43	104	0	72	20449
2026-01-02 02:02:35.67	337.45	13.67	-50.1	-65.5	3.8	1.49e+00	0	43	104	0	72	20413
2026-01-02 02:02:38.82	336.85	13.78	-50.1	-65.5	3.8	1.49e+00	0	43	104	0	72	20441
2026-01-02 02:02:41.69	336.30	13.88	-50.1	-65.5	3.8	1.49e+00	0	43	104	0	72	20499
2026-01-02 02:02:44.84	335.70	13.99	-50.1	-65.5	3.8	1.49e+00	0	43	104	0	72	20434
2026-01-02 02:02:47.71	335.14	14.08	-50.1	-65.5	3.8	1.49e+00	0	43	104	0	72	20520
2026-01-02 02:02:50.87	334.52	14.19	-50.1	-65.5	3.8	1.49e+00	0	43	104	0	72	20448
2026-01-02 02:02:53.74	333.96	14.28	-50.1	-65.5	3.8	1.49e+00	0	43	104	0	72	20385
2026-01-02 02:02:56.89	333.34	14.38	-50.1	-65.5	3.8	1.49e+00	0	43	104	0	72	20496
2026-01-02 02:02:59.77	332.76	14.46	-50.1	-65.6	3.8	1.49e+00	0	43	104	0	72	20550
2026-01-02 02:03:02.92	332.13	14.55	-50.1	-65.6	3.8	1.49e+00	0	43	104	0	72	20544
2026-01-02 02:03:05.79	331.55	14.63	-50.1	-65.5	3.8	1.49e+00	0	43	104	0	72	20448
2026-01-02 02:03:08.95	330.91	14.72	-50.1	-65.5	3.8	1.49e+00	0	43	104	0	72	20420
2026-01-02 02:03:11.82	330.33	14.79	-50.1	-65.5	3.8	1.49e+00	0	43	104	0	72	20524
2026-01-02 02:03:14.97	329.68	14.87	-50.1	-65.5	3.8	1.49e+00	0	44	104	0	72	20445
2026-01-02 02:03:17.84	329.09	14.94	-50.1	-65.5	3.8	1.49e+00	0	43	104	0	72	20535
2026-01-02 02:03:20.99	328.44	15.01	-50.1	-65.5	3.8	1.49e+00	0	43	104	0	72	20428
2026-01-02 02:03:23.86	327.85	15.07	-50.1	-65.5	3.8	1.49e+00	0	44	104	0	72	20480
2026-01-02 02:03:27.02	327.19	15.14	-50.1	-65.6	3.8	1.49e+00	0	43	104	0	72	20545
2026-01-02 02:03:29.89	326.59	15.20	-50.1	-65.5	3.8	1.49e+00	0	43	104	0	72	20446
2026-01-02 02:03:33.04	325.92	15.25	-50.1	-65.5	3.8	1.49e+00	0	43	104	0	72	20527
2026-01-02 02:03:35.91	325.32	15.30	-50.1	-65.5	3.8	1.49e+00	0	43	104	0	72	20427
2026-01-02 02:03:39.07	324.65	15.35	-50.1	-65.5	3.8	1.49e+00	0	43	104	0	72	20446
2026-01-02 02:03:41.94	324.04	15.40	-50.1	-65.5	3.8	1.49e+00	0	43	104	0	72	20481
2026-01-02 02:03:45.10	323.36	15.44	-50.1	-65.5	3.8	1.49e+00	0	43	104	0	72	20499
2026-01-02 02:03:47.97	322.75	15.48	-50.1	-65.5	3.8	1.49e+00	0	43	104	0	72	20526
2026-01-02 02:03:51.12	322.08	15.51	-50.1	-65.5	3.8	1.49e+00	0	43	104	0	72	20392
2026-01-02 02:03:54.02	321.45	15.54	-50.1	-65.5	3.8	1.49e+00	0	43	104	0	72	20508
2026-01-02 02:03:57.18	320.77	15.57	-50.1	-65.5	3.8	1.49e+00	0	44	104	0	72	20443
2026-01-02 02:04:00.11	320.14	15.60	-50.1	-65.5	3.8	1.49e+00	0	43	104	0	72	20467
2026-01-02 02:04:03.12	319.49	15.62	-50.1	-65.5	3.8	1.49e+00	0	44	104	0	72	20444
2026-01-02 02:04:06.13	318.84	15.63	-50.1	-65.5	3.8	1.49e+00	0	43	104	0	72	20412
2026-01-02 02:04:09.14	318.19	15.64	-50.1	-65.5	3.8	1.49e+00	0	43	104	0	72	20510
2026-01-02 02:04:12.15	317.54	15.65	-50.1	-65.5	3.8	1.49e+00	0	43	104	0	72	20478
2026-01-02 02:04:15.17	316.88	15.66	-50.1	-65.5	3.8	1.49e+00	0	43	104	0	72	20442
2026-01-02 02:04:18.18	316.23	15.66	-50.1	-65.5	3.8	1.49e+00	0	44	104	0	72	20515
2026-01-02 02:04:21.19	315.58	15.66	-50.1	-65.5	3.8	1.49e+00	0	44	104	0	72	20492
2026-01-02 02:04:24.13	314.94	15.65	-50.1	-65.5	3.8	1.49e+00	0	43	104	0	72	20474
2026-01-02 02:04:27.43	314.22	15.64	-50.1	-65.5	3.8	1.49e+00	0	44	104	0	72	20407
2026-01-02 02:04:30.39	313.58	15.63	-50.1	-65.6	3.8	1.49e+00	0	44	104	0	72	20545
2026-01-02 02:04:33.78	312.85	15.61	-50.1	-65.5	3.8	1.49e+00	0	43	104	0	72	20483
2026-01-02 02:04:36.50	312.26	15.59	-50.1	-65.5	3.8	1.49e+00	0	44	104	0	72	20527
2026-01-02 02:04:39.80	311.55	15.56	-50.1	-65.5	3.8	1.49e+00	0	43	104	0	72	20527
2026-01-02 02:04:42.52	310.97	15.53	-50.1	-65.5	3.8	1.49e+00	0	44	104	0	72	20498
2026-01-02 02:04:45.84	310.25	15.50	-50.1	-65.5	3.8	1.49e+00	0	44	104	0	72	20427
2026-01-02 02:04:48.56	309.67	15.47	-50.1	-65.5	3.8	1.49e+00	0	44	104	0	72	20449
2026-01-02 02:04:51.86	308.97	15.42	-50.1	-65.5	3.8	1.49e+00	0	44	104	0	72	20523
2026-01-02 02:04:54.58	308.39	15.38	-50.1	-65.5	3.8	1.49e+00	0	43	104	0	72	20446
2026-01-02 02:04:57.88	307.68	15.33	-50.1	-65.5	3.8	1.49e+00	0	43	104	0	72	20431
2026-01-02 02:05:00.64	307.10	15.29	-50.1	-65.5	3.8	1.49e+00	0	44	104	0	72	20494
2026-01-02 02:05:03.94	306.40	15.23	-50.1	-65.5	3.8	1.49e+00	0	43	104	0	72	20462
2026-01-02 02:05:06.67	305.83	15.17	-50.1	-65.5	3.8	1.49e+00	0	43	104	0	72	20451
2026-01-02 02:05:09.97	305.14	15.11	-50.1	-65.5	3.8	1.49e+00	0	44	104	0	72	20498
2026-01-02 02:05:12.69	304.57	15.05	-50.1	-65.5	3.8	1.49e+00	0	44	104	0	72	20456
2026-01-02 02:05:15.99	303.88	14.98	-50.1	-65.5	3.8	1.49e+00	0	44	104	0	72	20512
2026-01-02 02:05:18.72	303.32	14.91	-50.1	-65.5	3.8	1.49e+00	0	44	104	0	72	20431
2026-01-02 02:05:22.02	302.64	14.83	-50.1	-65.5	3.8	1.49e+00	0	44	104	0	72	20499
2026-01-02 02:05:24.75	302.08	14.76	-50.1	-65.5	3.8	1.49e+00	0	44	104	0	72	20525
2026-01-02 02:05:28.05	301.41	14.68	-50.1	-65.6	3.8	1.49e+00	0	44	104	0	72	20550
2026-01-02 02:05:30.77	300.86	14.60	-50.1	-65.5	3.8	1.49e+00	0	44	104	0	72	20457
2026-01-02 02:05:34.07	300.20	14.51	-50.1	-65.5	3.8	1.49e+00	0	44	104	0	72	20447
2026-01-02 02:05:36.80	299.65	14.43	-50.1	-65.5	3.8	1.49e+00	0	44	104	0	72	20500
2026-01-02 02:05:40.10	298.99	14.33	-50.1	-65.5	3.8	1.49e+00	0	44	104	0	72	20524
2026-01-02 02:05:42.89	298.44	14.24	-50.1	-65.5	3.8	1.49e+00	0	43	104	0	72	20440
2026-01-02 02:05:46.19	297.79	14.13	-50.1	-65.6	3.8	1.49e+00	0	44	104	0	72	20547
2026-01-02 02:05:48.91	297.26	14.04	-50.1	-65.5	3.8	1.49e+00	0	44	104	0	72	20450
2026-01-02 02:05:52.21	296.62	13.93	-50.1	-65.5	3.8	1.49e+00	0	44	104	0	72	20518
2026-01-02 02:05:54.94	296.10	13.84	-50.1	-65.5	3.8	1.49e+00	0	44	104	0	72	20538
2026-01-02 02:05:58.24	295.47	13.72	-50.1	-65.5	3.8	1.49e+00	0	44	104	0	72	20513
2026-01-02 02:06:00.97	294.95	13.62	-50.1	-65.6	3.8	1.49e+00	0	44	104	0	72	20576
2026-01-02 02:06:04.27	294.33	13.50	-50.1	-65.6	3.8	1.49e+00	0	44	104	0	72	20571
2026-01-02 02:06:07.14	293.79	13.39	-50.1	-65.6	3.8	1.49e+00	0	43	104	0	72	20539
2026-01-02 02:06:10.39	293.19	13.27	-50.1	-65.5	3.8	1.49e+00	0	44	104	0	72	20453
2026-01-02 02:06:13.77	292.57	13.13	-50.1	-65.6	3.8	1.49e+00	0	44	104	0	72	20555
2026-01-02 02:06:16.50	292.07	13.02	-50.1	-65.5	3.8	1.49e+00	0	44	104	0	72	20464
2026-01-02 02:06:19.80	291.47	12.89	-50.1	-65.5	3.8	1.49e+00	0	44	104	0	72	20486
2026-01-02 02:06:22.52	290.99	12.78	-50.1	-65.5	3.8	1.49e+00	0	44	104	0	72	20509
2026-01-02 02:06:25.82	290.40	12.64	-50.1	-65.5	3.8	1.49e+00	0	44	104	0	72	20482
2026-01-02 02:06:28.55	289.92	12.52	-50.1	-65.5	3.8	1.49e+00	0	44	104	0	72	20461
2026-01-02 02:06:31.84	289.34	12.38	-50.1	-65.5	3.8	1.49e+00	0	44	104	0	72	20405
2026-01-02 02:06:34.57	288.87	12.26	-50.1	-65.5	3.8	1.49e+00	0	44	104	0	72	20487
2026-01-02 02:06:37.88	288.30	12.12	-50.1	-65.6	3.8	1.49e+00	0	44	104	0	72	20562
2026-01-02 02:06:40.61	287.84	12.00	-50.1	-65.6	3.8	1.49e+00	0	44	104	0	72	20550
2026-01-02 02:06:43.91	287.29	11.85	-50.1	-65.6	3.8	1.49e+00	0	44	104	0	72	20567
2026-01-02 02:06:46.65	286.83	11.72	-50.1	-65.5	3.8	1.49e+00	0	44	104	0	72	20454
2026-01-02 02:06:49.95	286.28	11.57	-50.1	-65.6	3.8	1.49e+00	0	44	104	0	72	20560
2026-01-02 02:06:52.67	285.84	11.45	-50.1	-65.6	3.8	1.49e+00	0	44	104	0	72	20565
2026-01-02 02:06:55.97	285.30	11.29	-50.1	-65.5	3.8	1.49e+00	0	44	104	0	72	20504
2026-01-02 02:06:58.70	284.87	11.16	-50.1	-65.5	3.8	1.49e+00	0	44	104	0	72	20476
2026-01-02 02:07:02.00	284.34	11.01	-50.1	-65.6	3.8	1.49e+00	0	44	104	0	72	20564
2026-01-02 02:07:04.73	283.91	10.87	-50.1	-65.6	3.8	1.49e+00	0	44	104	0	72	20571
2026-01-02 02:07:08.02	283.40	10.72	-50.1	-65.5	3.8	1.49e+00	0	44	104	0	72	20524
2026-01-02 02:07:10.75	282.98	10.58	-50.1	-65.5	3.8	1.49e+00	0	44	104	0	72	20474
2026-01-02 02:07:14.05	282.48	10.42	-50.1	-65.5	3.8	1.49e+00	0	44	104	0	72	20522
2026-01-02 02:07:16.78	282.06	10.29	-50.1	-65.6	3.8	1.49e+00	0	44	104	0	72	20549
2026-01-02 02:07:20.08	281.57	10.12	-50.1	-65.5	3.8	1.49e+00	0	43	104	0	72	20512
2026-01-02 02:07:22.81	281.17	9.99	-50.1	-65.6	3.8	1.49e+00	0	44	104	0	72	20541
2026-01-02 02:07:26.11	280.68	9.82	-50.1	-65.5	3.8	1.49e+00	0	44	104	0	72	20538
2026-01-02 02:07:28.83	280.29	9.69	-50.1	-65.5	3.8	1.49e+00	0	44	104	0	72	20498
2026-01-02 02:07:32.13	279.81	9.52	-50.1	-65.5	3.8	1.49e+00	0	44	104	0	72	20509
2026-01-02 02:07:34.86	279.43	9.38	-50.1	-65.6	3.8	1.49e+00	0	44	104	0	72	20554
2026-01-02 02:07:38.16	278.96	9.21	-50.1	-65.5	3.8	1.49e+00	0	44	104	0	72	20528
2026-01-02 02:07:40.89	278.58	9.08	-50.1	-65.6	3.8	1.49e+00	0	44	104	0	72	20549
2026-01-02 02:07:44.19	278.13	8.91	-50.1	-65.5	3.8	1.49e+00	0	44	104	0	72	20512
2026-01-02 02:07:47.10	277.74	8.76	-50.1	-65.6	3.8	1.49e+00	0	44	104	0	72	20574
2026-01-02 02:07:50.12	277.33	8.60	-50.1	-65.5	3.8	1.49e+00	0	44	104	0	72	20491
2026-01-02 02:07:53.13	276.93	8.45	-50.1	-65.5	3.8	1.49e+00	0	44	104	0	72	20497
2026-01-02 02:07:56.06	276.54	8.30	-50.1	-65.5	3.8	1.49e+00	0	44	104	0	72	20521
2026-01-02 02:07:59.22	276.13	8.13	-50.1	-65.6	3.8	1.49e+00	0	44	104	0	72	20608
2026-01-02 02:08:02.09	275.76	7.98	-50.1	-65.6	3.8	1.49e+00	0	43	104	0	72	20578
2026-01-02 02:08:05.24	275.36	7.82	-50.1	-65.6	3.8	1.49e+00	0	44	104	0	72	20548
2026-01-02 02:08:08.11	275.00	7.67	-50.1	-65.5	3.8	1.49e+00	0	44	104	0	72	20535
2026-01-02 02:08:11.27	274.61	7.51	-50.1	-65.5	3.8	1.49e+00	0	44	104	0	72	20522
2026-01-02 02:08:14.35	274.23	7.34	-50.1	-65.5	3.8	1.49e+00	0	44	104	0	72	20532
2026-01-02 02:08:17.45	273.85	7.18	-50.1	-65.5	3.8	1.49e+00	0	44	104	0	72	20514
2026-01-02 02:08:20.76	273.45	7.01	-50.1	-65.5	3.8	1.49e+00	0	44	104	0	72	20505
2026-01-02 02:08:23.48	273.13	6.87	-50.1	-65.5	3.8	1.49e+00	0	44	104	0	72	20448
2026-01-02 02:08:26.78	272.74	6.70	-50.1	-65.5	3.8	1.49e+00	0	44	104	0	72	20488
2026-01-02 02:08:29.51	272.42	6.55	-50.1	-65.6	3.8	1.49e+00	0	44	104	0	72	20556
2026-01-02 02:08:32.81	272.04	6.38	-50.1	-65.5	3.8	1.49e+00	0	44	104	0	72	20536
2026-01-02 02:08:35.54	271.73	6.24	-50.1	-65.5	3.8	1.49e+00	0	44	104	0	72	20496
2026-01-02 02:08:38.84	271.36	6.06	-50.1	-65.6	3.8	1.49e+00	0	44	104	0	72	20545
2026-01-02 02:08:41.56	271.05	5.92	-50.1	-65.5	3.8	1.49e+00	0	44	104	0	72	20517
2026-01-02 02:08:44.86	270.69	5.75	-50.1	-65.5	3.8	1.49e+00	0	44	104	0	72	20479
2026-01-02 02:08:47.59	270.39	5.61	-50.1	-65.5	3.8	1.49e+00	0	44	104	0	72	20503
2026-01-02 02:08:50.89	270.04	5.43	-50.1	-65.5	3.8	1.49e+00	0	44	104	0	72	20515
2026-01-02 02:08:53.62	269.74	5.29	-50.1	-65.5	3.8	1.49e+00	0	44	104	0	72	20496
2026-01-02 02:08:56.92	269.40	5.12	-50.1	-65.5	3.8	1.49e+00	0	44	104	0	72	20433
2026-01-02 02:08:59.64	269.11	4.98	-50.1	-65.5	3.8	1.49e+00	0	44	104	0	72	20499

#Closed at: 2026-01-02 02:09:00
#Recorded file [0 MB]: D:/Data/31040_260102_045936.dat