passes_logs/2026/01/02/T1/T1__20260102_235954_SUOMI_NPP_rec.log

#Pass ID: 20260102_235954_SUOMI NPP
#Satellite: SUOMI NPP
#Configuration: NPP
#almurnet v.1.7.20251203
#Start time: 2026-01-02 23:59:54

#Version: 2.0.20230620
#Station: T1
#Location: 37.570604 lon 55.790049 lat
#TLE: 1 37849U 11061A   26001.07732418  .00000182  00000+0  10735-3 0  9990
#TLE: 2 37849  98.7795 303.2470 0002580  87.2016 272.9455 14.19520779734739

#Time	Az	El	Level	Level2	SNR	BER	BlckErr	Temp	State	Recorded	gain1	gain2
2026-01-02 23:59:54.28	14.85	5.02	-47.1	-63.8	3.8	1.49e+00	0	39	0	0	64	26487
2026-01-02 23:59:57.29	14.82	5.24	-47.0	-63.8	3.8	1.49e+00	0	39	104	0	64	26596
2026-01-03 00:00:00.30	14.79	5.45	-47.0	-63.8	3.8	1.49e+00	0	40	104	0	64	26755
2026-01-03 00:00:03.31	14.77	5.67	-47.0	-63.8	3.8	1.49e+00	0	40	104	0	64	26697
2026-01-03 00:00:06.33	14.74	5.89	-47.1	-63.8	3.8	1.49e+00	0	40	104	0	64	26511
2026-01-03 00:00:09.34	14.71	6.12	-47.0	-63.8	3.8	1.49e+00	0	40	104	0	64	26489
2026-01-03 00:00:12.35	14.68	6.34	-47.1	-63.8	3.8	1.49e+00	0	40	104	0	64	26524
2026-01-03 00:00:15.36	14.65	6.56	-47.0	-63.8	3.8	1.49e+00	0	40	104	0	64	26565
2026-01-03 00:00:18.38	14.62	6.79	-47.0	-63.8	3.8	1.49e+00	0	40	104	0	64	26613
2026-01-03 00:00:21.39	14.58	7.02	-47.0	-63.8	3.8	1.49e+00	0	40	104	0	64	26683
2026-01-03 00:00:24.41	14.55	7.26	-47.0	-63.5	3.8	1.49e+00	0	40	104	0	64	25674
2026-01-03 00:00:27.42	14.52	7.49	-47.0	-62.3	3.8	1.49e+00	0	40	104	0	64	22286
2026-01-03 00:00:30.43	14.48	7.73	-46.9	-60.1	4.2	1.42e+00	0	41	0	0	64	17374
2026-01-03 00:00:33.44	14.45	7.97	-46.7	-58.3	5.0	7.93e-01	0	41	0	4194304	64	14174
2026-01-03 00:00:36.45	14.41	8.21	-46.5	-56.4	6.2	3.14e-01	0	41	0	10485760	64	11344
2026-01-03 00:00:39.47	14.38	8.45	-46.3	-55.2	7.3	1.26e-01	0	41	0	15728640	64	9832
2026-01-03 00:00:42.48	14.34	8.69	-46.2	-54.7	7.7	8.33e-02	0	41	0	20971520	64	9316
2026-01-03 00:00:45.49	14.30	8.94	-46.3	-55.3	7.2	1.26e-01	0	41	0	27262976	64	10025
2026-01-03 00:00:48.50	14.26	9.19	-46.3	-55.6	6.9	3.87e-01	0	41	0	32505856	64	10373
2026-01-03 00:00:51.51	14.22	9.45	-46.2	-54.7	7.5	9.82e-01	0	41	0	34603008	64	9299
2026-01-03 00:00:54.52	14.18	9.70	-44.7	-49.4	13.2	1.83e-05	0	41	0	39845888	61	6011
2026-01-03 00:00:57.54	14.14	9.96	-44.6	-49.0	13.7	6.10e-06	0	41	0	46137344	61	5784
2026-01-03 00:01:00.55	14.10	10.22	-44.4	-48.8	13.9	6.10e-06	0	41	0	51380224	60	5966
2026-01-03 00:01:03.56	14.05	10.48	-44.0	-47.8	14.9	7.00e-07	0	41	0	57671680	59	5625
2026-01-03 00:01:06.56	14.01	10.75	-43.9	-47.5	15.2	0.00e+00	0	41	0	62914560	59	5432
2026-01-03 00:01:09.57	13.96	11.02	-43.7	-47.2	15.6	0.00e+00	0	41	0	68157440	59	5238
2026-01-03 00:01:12.58	13.91	11.29	-43.6	-47.0	15.7	0.00e+00	0	41	0	74448896	59	5112
2026-01-03 00:01:15.59	13.87	11.57	-43.4	-46.7	16.0	0.00e+00	0	41	0	79691776	58	5275
2026-01-03 00:01:18.60	13.82	11.84	-43.5	-46.8	16.0	0.00e+00	0	41	0	84934656	58	5284
2026-01-03 00:01:21.61	13.77	12.13	-43.3	-46.5	16.2	0.00e+00	0	41	0	91226112	58	5125
2026-01-03 00:01:24.61	13.72	12.41	-43.2	-46.5	16.3	0.00e+00	0	42	0	96468992	58	5104
2026-01-03 00:01:27.62	13.66	12.70	-43.2	-46.5	16.3	0.00e+00	0	41	0	102760448	58	5126
2026-01-03 00:01:30.70	13.61	13.00	-43.0	-46.3	16.5	0.00e+00	0	42	0	108003328	58	5010
2026-01-03 00:01:33.72	13.55	13.29	-43.2	-46.5	16.3	0.00e+00	0	42	0	114294784	58	5157
2026-01-03 00:01:37.26	13.48	13.64	-42.9	-46.1	16.7	0.00e+00	0	42	0	120586240	57	5206
2026-01-03 00:01:39.99	13.43	13.92	-42.8	-46.1	16.6	0.00e+00	0	42	0	125829120	57	5210
2026-01-03 00:01:43.28	13.37	14.25	-42.8	-46.0	16.9	0.00e+00	0	42	0	132120576	57	5114
2026-01-03 00:01:46.06	13.31	14.54	-42.7	-45.9	16.9	0.00e+00	0	42	0	137363456	57	5097
2026-01-03 00:01:50.06	13.22	14.96	-42.4	-45.4	17.4	0.00e+00	0	42	0	144703488	56	5072
2026-01-03 00:01:52.80	13.17	15.25	-42.2	-45.2	17.5	0.00e+00	0	42	0	149946368	56	4968
2026-01-03 00:01:56.54	13.08	15.65	-42.1	-45.0	17.7	0.00e+00	0	42	0	156237824	56	4848
2026-01-03 00:01:59.33	13.02	15.96	-41.7	-44.5	18.0	0.00e+00	0	42	0	161480704	55	4859
2026-01-03 00:02:02.79	12.94	16.34	-41.7	-44.4	18.2	0.00e+00	0	42	0	168820736	55	4797
2026-01-03 00:02:05.68	12.87	16.67	-41.7	-44.4	18.2	0.00e+00	0	42	0	174063616	55	4791
2026-01-03 00:02:08.82	12.79	17.03	-41.7	-44.3	18.3	0.00e+00	0	42	0	179306496	55	4750
2026-01-03 00:02:11.68	12.72	17.36	-41.8	-44.5	18.2	0.00e+00	0	42	0	184549376	55	4822
2026-01-03 00:02:14.93	12.63	17.74	-41.9	-44.5	18.1	0.00e+00	0	42	0	190840832	55	4843
2026-01-03 00:02:17.81	12.55	18.08	-41.8	-44.4	18.2	0.00e+00	0	42	0	196083712	55	4801
2026-01-03 00:02:21.10	12.46	18.48	-41.8	-44.4	18.2	0.00e+00	0	42	0	202375168	55	4801
2026-01-03 00:02:24.15	12.38	18.85	-41.6	-44.2	18.5	0.00e+00	0	42	0	208666624	55	4670
2026-01-03 00:02:27.01	12.29	19.21	-41.7	-44.3	18.4	0.00e+00	0	42	0	213909504	55	4709
2026-01-03 00:02:30.23	12.20	19.62	-42.0	-44.6	18.1	0.00e+00	0	42	0	220200960	55	4915
2026-01-03 00:02:33.38	12.10	20.02	-42.1	-44.8	17.9	0.00e+00	0	42	0	225443840	55	5018
2026-01-03 00:02:36.24	12.01	20.39	-42.3	-45.1	17.6	0.00e+00	0	42	0	230686720	55	5175
2026-01-03 00:02:39.52	11.90	20.83	-42.3	-45.1	17.6	0.00e+00	0	42	0	236978176	55	5193
2026-01-03 00:02:42.49	11.80	21.23	-42.4	-45.2	17.5	0.00e+00	0	42	0	242221056	55	5225
2026-01-03 00:02:45.79	11.68	21.68	-42.1	-44.7	18.0	0.00e+00	0	42	0	248512512	55	4930
2026-01-03 00:02:48.51	11.59	22.06	-42.1	-44.7	18.1	0.00e+00	0	42	0	253755392	55	4929
2026-01-03 00:02:51.81	11.46	22.53	-42.0	-44.4	18.3	0.00e+00	0	42	0	260046848	55	4780
2026-01-03 00:02:54.70	11.35	22.94	-41.8	-44.2	18.5	0.00e+00	0	42	0	265289728	55	4663
2026-01-03 00:02:57.67	11.24	23.38	-41.5	-43.8	18.8	0.00e+00	0	42	0	271581184	54	4734
2026-01-03 00:03:00.68	11.11	23.83	-41.2	-43.5	19.2	0.00e+00	0	42	0	276824064	54	4568
2026-01-03 00:03:03.69	10.99	24.28	-41.3	-43.5	19.2	0.00e+00	0	42	0	282066944	53	4854
2026-01-03 00:03:06.96	10.85	24.79	-41.2	-43.4	19.2	0.00e+00	0	42	0	288358400	53	4807
2026-01-03 00:03:09.68	10.72	25.21	-41.6	-43.9	18.8	0.00e+00	0	42	0	293601280	54	4812
2026-01-03 00:03:12.98	10.57	25.74	-41.7	-44.1	18.7	0.00e+00	0	42	0	299892736	54	4887
2026-01-03 00:03:15.70	10.44	26.18	-41.5	-43.8	18.9	0.00e+00	0	42	0	305135616	54	4725
2026-01-03 00:03:19.07	10.27	26.74	-41.3	-43.6	19.1	0.00e+00	0	42	0	311427072	53	4879
2026-01-03 00:03:22.10	10.12	27.25	-42.0	-44.4	18.3	0.00e+00	0	42	0	316669952	54	5085
2026-01-03 00:03:25.92	9.92	27.91	-42.6	-45.2	17.7	0.00e+00	0	42	0	324009984	55	5243
2026-01-03 00:03:28.65	9.76	28.39	-42.6	-45.3	17.7	0.00e+00	0	42	0	329252864	56	4991
2026-01-03 00:03:32.43	9.55	29.07	-42.4	-45.0	18.0	0.00e+00	0	42	0	336592896	56	4864
2026-01-03 00:03:35.49	9.36	29.63	-43.1	-45.8	17.2	0.00e+00	0	42	0	341835776	56	5328
2026-01-03 00:03:38.64	9.17	30.22	-43.5	-46.5	16.6	0.00e+00	0	42	0	348127232	58	5102
2026-01-03 00:03:41.50	8.98	30.76	-43.4	-46.2	16.8	0.00e+00	0	42	0	353370112	58	4956
2026-01-03 00:03:44.65	8.77	31.37	-44.0	-47.0	16.0	0.00e+00	0	42	0	359661568	58	5458
2026-01-03 00:03:47.85	8.55	32.01	-44.4	-47.7	15.4	0.00e+00	0	42	0	364904448	59	5554
2026-01-03 00:03:50.80	8.33	32.60	-44.5	-47.9	15.2	0.00e+00	0	42	0	371195904	59	5693
2026-01-03 00:03:53.99	8.09	33.26	-44.4	-47.7	15.5	0.00e+00	0	42	0	376438784	60	5222
2026-01-03 00:03:56.85	7.87	33.86	-44.7	-48.2	15.0	7.00e-07	0	42	0	381681664	60	5558
2026-01-03 00:04:00.00	7.61	34.54	-44.9	-48.6	14.6	1.50e-06	0	42	0	387973120	61	5465
2026-01-03 00:04:02.86	7.36	35.17	-43.8	-47.0	16.1	0.00e+00	0	42	0	393216000	59	5111
2026-01-03 00:04:06.01	7.08	35.87	-43.5	-46.6	16.5	0.00e+00	0	42	0	399507456	58	5202
2026-01-03 00:04:08.88	6.81	36.53	-44.1	-47.5	15.7	0.00e+00	0	42	0	404750336	58	5727
2026-01-03 00:04:12.02	6.51	37.26	-44.0	-47.1	16.2	0.00e+00	0	42	0	411041792	59	5180
2026-01-03 00:04:14.87	6.22	37.93	-43.1	-45.7	17.3	0.00e+00	0	42	0	416284672	58	4701
2026-01-03 00:04:18.32	5.85	38.77	-42.9	-45.5	17.4	0.00e+00	0	42	0	422576128	57	4844
2026-01-03 00:04:21.03	5.54	39.44	-43.9	-46.8	16.2	0.00e+00	0	42	0	427819008	58	5325
2026-01-03 00:04:24.33	5.15	40.27	-44.8	-48.4	14.8	0.00e+00	0	42	0	434110464	60	5681
2026-01-03 00:04:27.05	4.82	40.97	-44.2	-47.4	15.7	0.00e+00	0	42	0	438304768	59	5355
2026-01-03 00:04:30.74	4.34	41.95	-44.2	-47.2	15.9	0.00e+00	0	42	0	445644800	59	5244
2026-01-03 00:04:33.48	3.96	42.68	-44.5	-47.7	15.4	0.00e+00	0	42	0	450887680	59	5560
2026-01-03 00:04:37.18	3.42	43.70	-44.8	-48.4	14.9	0.00e+00	0	42	0	458227712	60	5657
2026-01-03 00:04:40.03	2.98	44.50	-45.0	-48.7	14.5	7.00e-07	0	42	0	463470592	61	5563
2026-01-03 00:04:43.32	2.44	45.44	-43.7	-46.6	16.5	0.00e+00	0	42	0	469762048	58	5210
2026-01-03 00:04:46.70	1.86	46.42	-43.7	-46.5	16.6	0.00e+00	0	42	0	476053504	58	5144
2026-01-03 00:04:49.42	1.36	47.23	-44.8	-48.2	15.0	0.00e+00	0	42	0	481296384	60	5591
2026-01-03 00:04:52.71	0.71	48.23	-43.6	-46.4	16.7	0.00e+00	0	42	0	486539264	58	5093
2026-01-03 00:04:55.71	0.09	49.15	-42.8	-45.4	17.7	0.00e+00	0	42	0	492830720	57	4771
2026-01-03 00:04:58.88	359.39	50.15	-41.8	-44.2	18.7	0.00e+00	0	42	0	498073600	55	4674
2026-01-03 00:05:01.74	358.71	51.06	-42.3	-44.7	18.2	0.00e+00	0	42	0	503316480	55	4946
2026-01-03 00:05:04.90	357.92	52.08	-42.3	-44.8	18.1	0.00e+00	0	42	0	509607936	55	5002
2026-01-03 00:05:07.76	357.14	53.02	-43.8	-46.8	16.3	0.00e+00	0	42	0	514850816	58	5337
2026-01-03 00:05:11.10	356.18	54.13	-42.7	-45.1	17.9	0.00e+00	0	42	0	521142272	57	4638
2026-01-03 00:05:14.01	355.27	55.12	-43.1	-45.8	17.3	0.00e+00	0	42	0	526385152	57	5009
2026-01-03 00:05:17.30	354.16	56.24	-41.5	-43.8	19.0	0.00e+00	0	42	0	532676608	54	4724
2026-01-03 00:05:20.02	353.18	57.18	-41.7	-44.1	18.7	0.00e+00	0	42	0	537919488	54	4877
2026-01-03 00:05:23.32	351.89	58.32	-42.8	-45.4	17.7	0.00e+00	0	42	0	544210944	56	5066
2026-01-03 00:05:26.23	350.65	59.34	-43.3	-46.2	16.9	0.00e+00	0	42	0	549453824	57	5252
2026-01-03 00:05:29.27	349.25	60.41	-43.9	-46.9	16.2	0.00e+00	0	42	0	555745280	59	5088
2026-01-03 00:05:32.28	347.75	61.47	-42.8	-45.3	17.8	0.00e+00	0	42	0	560988160	57	4748
2026-01-03 00:05:35.28	346.11	62.52	-41.0	-43.1	19.6	0.00e+00	0	42	0	566231040	54	4371
2026-01-03 00:05:38.26	344.34	63.56	-41.9	-44.3	18.7	0.00e+00	0	42	0	572522496	54	5009
2026-01-03 00:05:41.61	342.15	64.71	-41.4	-43.6	19.1	0.00e+00	0	43	0	578813952	54	4632
2026-01-03 00:05:44.32	340.21	65.64	-43.4	-46.3	16.9	0.00e+00	0	42	0	584056832	57	5299
2026-01-03 00:05:47.60	337.63	66.73	-42.7	-45.1	17.9	0.00e+00	0	42	0	590348288	57	4644
2026-01-03 00:05:50.77	334.87	67.75	-43.2	-45.8	17.3	0.00e+00	0	42	0	595591168	57	5026
2026-01-03 00:05:53.77	332.00	68.68	-44.6	-47.9	15.4	0.00e+00	0	42	0	601882624	60	5367
2026-01-03 00:05:57.30	328.27	69.72	-45.7	-49.5	14.1	4.50e-06	0	42	0	608174080	62	5768
2026-01-03 00:06:00.02	325.11	70.47	-45.3	-48.9	14.3	2.36e-05	0	42	0	613416960	62	5345
2026-01-03 00:06:03.33	320.92	71.30	-44.4	-47.5	15.8	0.00e+00	0	42	0	619708416	60	5153
2026-01-03 00:06:06.05	317.18	71.91	-44.3	-47.3	15.8	0.00e+00	0	42	0	623902720	59	5320
2026-01-03 00:06:09.33	312.32	72.55	-43.3	-46.0	17.2	0.00e+00	0	42	0	630194176	58	4818
2026-01-03 00:06:12.06	308.01	72.98	-44.4	-47.5	15.6	0.00e+00	0	43	0	635437056	59	5443
2026-01-03 00:06:15.35	302.54	73.38	-44.8	-48.1	15.2	0.00e+00	0	42	0	641728512	60	5484
2026-01-03 00:06:18.34	297.37	73.61	-45.2	-48.7	14.7	0.00e+00	0	43	0	646971392	60	5888
2026-01-03 00:06:21.78	291.29	73.71	-45.2	-48.8	14.3	0.00e+00	0	42	0	654311424	61	5611
2026-01-03 00:06:24.55	286.38	73.66	-44.7	-48.0	15.1	0.00e+00	0	42	0	659554304	61	5105
2026-01-03 00:06:27.85	280.62	73.46	-43.3	-46.0	17.2	0.00e+00	0	42	0	664797184	57	5123
2026-01-03 00:06:30.57	276.01	73.17	-42.4	-44.9	18.1	0.00e+00	0	42	0	670040064	55	5054
2026-01-03 00:06:33.91	270.63	72.69	-43.4	-46.1	17.0	0.00e+00	0	43	0	676331520	57	5204
2026-01-03 00:06:36.94	266.04	72.13	-44.6	-47.8	15.4	0.00e+00	0	43	0	682622976	59	5621
2026-01-03 00:06:40.24	261.40	71.42	-45.8	-49.7	13.4	7.00e-07	0	42	0	688914432	62	5894
2026-01-03 00:06:42.96	257.87	70.75	-46.1	-50.4	12.7	6.17e-05	0	43	0	694157312	63	6058
2026-01-03 00:06:46.26	253.94	69.86	-45.7	-49.8	13.5	1.59e-04	0	42	0	699400192	63	5609
2026-01-03 00:06:49.30	250.65	68.98	-45.0	-48.3	14.9	0.00e+00	0	43	0	705691648	61	5292
2026-01-03 00:06:52.59	247.41	67.97	-42.8	-45.3	17.8	0.00e+00	0	42	0	711983104	57	4746
2026-01-03 00:06:55.46	244.85	67.05	-43.1	-45.8	17.3	0.00e+00	0	43	0	717225984	58	4730
2026-01-03 00:06:58.80	242.14	65.95	-42.3	-44.7	18.3	0.00e+00	0	42	0	723517440	56	4666
2026-01-03 00:07:01.77	239.95	64.94	-40.3	-42.3	20.2	0.00e+00	0	42	0	728760320	52	4477
2026-01-03 00:07:04.78	237.93	63.90	-41.2	-43.4	19.4	0.00e+00	0	43	0	735051776	53	4785
2026-01-03 00:07:07.79	236.08	62.85	-41.2	-43.5	19.4	0.00e+00	0	43	0	740294656	53	4833
2026-01-03 00:07:10.79	234.39	61.80	-42.9	-45.5	17.6	0.00e+00	0	42	0	745537536	56	5147
2026-01-03 00:07:13.88	232.80	60.71	-44.0	-47.1	16.1	0.00e+00	0	42	0	751828992	58	5468
2026-01-03 00:07:16.73	231.45	59.71	-43.6	-46.4	16.8	0.00e+00	0	43	0	757071872	57	5365
2026-01-03 00:07:19.88	230.07	58.60	-42.5	-45.0	18.1	0.00e+00	0	42	0	763363328	56	4828
2026-01-03 00:07:22.74	228.92	57.60	-42.7	-45.2	17.8	0.00e+00	0	42	0	768606208	57	4693
2026-01-03 00:07:25.89	227.75	56.51	-41.4	-43.6	19.2	0.00e+00	0	43	0	773849088	54	4616
2026-01-03 00:07:28.75	226.76	55.53	-41.3	-43.5	19.3	0.00e+00	0	43	0	779091968	53	4840
2026-01-03 00:07:31.89	225.75	54.46	-42.3	-44.7	18.2	0.00e+00	0	43	0	785383424	55	4946
2026-01-03 00:07:34.75	224.89	53.50	-44.1	-47.2	16.0	0.00e+00	0	43	0	790626304	59	5219
2026-01-03 00:07:38.09	223.96	52.39	-42.8	-45.5	17.6	0.00e+00	0	42	0	796917760	57	4840
2026-01-03 00:07:41.00	223.21	51.44	-42.6	-45.1	17.9	0.00e+00	0	43	0	802160640	57	4638
2026-01-03 00:07:44.29	222.41	50.38	-42.5	-45.0	18.0	0.00e+00	0	42	0	808452096	56	4827
2026-01-03 00:07:47.01	221.79	49.52	-41.9	-44.3	18.5	0.00e+00	0	42	0	813694976	55	4718
2026-01-03 00:07:50.30	221.09	48.50	-41.8	-44.1	18.7	0.00e+00	0	42	0	819986432	55	4624
2026-01-03 00:07:53.02	220.54	47.66	-43.9	-46.7	16.4	0.00e+00	0	42	0	825229312	58	5279
2026-01-03 00:07:56.30	219.92	46.68	-45.0	-48.4	14.8	0.00e+00	0	43	0	831520768	60	5715
2026-01-03 00:07:59.02	219.44	45.87	-44.3	-47.4	15.7	0.00e+00	0	42	0	836763648	60	5076
2026-01-03 00:08:02.32	218.88	44.92	-44.1	-47.1	16.0	0.00e+00	0	43	0	842006528	59	5169
2026-01-03 00:08:05.25	218.41	44.08	-43.7	-46.5	16.5	0.00e+00	0	43	0	848297984	58	5154
2026-01-03 00:08:09.25	217.81	42.97	-45.2	-48.8	14.3	5.30e-06	0	43	0	855638016	62	5300
2026-01-03 00:08:12.00	217.42	42.22	-44.7	-48.1	15.0	0.00e+00	0	43	0	860880896	61	5200
2026-01-03 00:08:15.85	216.91	41.20	-43.4	-46.1	17.0	0.00e+00	0	43	0	868220928	58	4885
2026-01-03 00:08:18.60	216.56	40.48	-43.7	-46.4	16.6	0.00e+00	0	43	0	872415232	58	5090
2026-01-03 00:08:22.23	216.13	39.56	-45.1	-48.6	14.5	0.00e+00	0	43	0	879755264	60	5846
2026-01-03 00:08:25.09	215.80	38.84	-45.8	-50.1	13.1	3.50e-05	0	42	0	884998144	62	6158
2026-01-03 00:08:28.39	215.44	38.03	-45.7	-49.9	13.2	1.27e-04	0	43	0	891289600	63	5699
2026-01-03 00:08:31.25	215.14	37.35	-42.8	-45.5	17.5	0.00e+00	0	43	0	896532480	57	4827
2026-01-03 00:08:34.60	214.81	36.56	-42.4	-44.9	17.9	0.00e+00	0	43	0	902823936	55	5088
2026-01-03 00:08:37.32	214.55	35.94	-42.8	-45.3	17.6	0.00e+00	0	43	0	908066816	56	5031
2026-01-03 00:08:40.61	214.26	35.20	-44.9	-48.4	14.9	7.00e-07	0	43	0	914358272	60	5662
2026-01-03 00:08:43.41	214.01	34.58	-46.1	-50.5	12.6	2.38e-04	0	42	0	919601152	63	6101
2026-01-03 00:08:46.56	213.75	33.90	-45.2	-48.9	14.3	1.50e-06	0	43	0	925892608	62	5357
2026-01-03 00:08:49.45	213.52	33.28	-44.9	-48.3	14.8	0.00e+00	0	43	0	931135488	61	5296
2026-01-03 00:08:52.72	213.27	32.61	-44.1	-47.1	16.0	0.00e+00	0	43	0	937426944	60	4891
2026-01-03 00:08:55.46	213.06	32.05	-43.9	-46.8	16.2	0.00e+00	0	43	0	941621248	59	5017
2026-01-03 00:08:58.78	212.83	31.38	-44.7	-48.1	15.0	0.00e+00	0	43	0	947912704	60	5489
2026-01-03 00:09:01.57	212.64	30.84	-45.1	-48.9	14.2	0.00e+00	0	43	0	953155584	61	5669
2026-01-03 00:09:04.85	212.42	30.21	-46.3	-51.0	12.1	2.89e-04	0	43	0	959447040	63	6458
2026-01-03 00:09:07.71	212.24	29.67	-46.6	-51.6	11.3	7.51e-04	0	43	0	964689920	64	6539
2026-01-03 00:09:10.94	212.04	29.07	-46.3	-50.8	12.1	3.07e-04	0	42	0	970981376	64	5980
2026-01-03 00:09:13.80	211.88	28.55	-46.1	-50.5	12.6	6.86e-05	0	43	0	976224256	63	6102
2026-01-03 00:09:17.27	211.68	27.94	-44.8	-48.1	14.9	7.00e-07	0	42	0	982515712	61	5216
2026-01-03 00:09:19.99	211.53	27.46	-43.5	-46.2	16.7	0.00e+00	0	42	0	987758592	58	4964
2026-01-03 00:09:23.28	211.36	26.90	-42.1	-44.5	18.4	0.00e+00	0	42	0	994050048	56	4564
2026-01-03 00:09:26.00	211.22	26.44	-41.7	-44.0	18.7	0.00e+00	0	43	0	999292928	55	4576
2026-01-03 00:09:29.62	211.04	25.85	-42.4	-45.0	17.8	0.00e+00	0	42	0	1006632960	55	5126
2026-01-03 00:09:32.55	210.90	25.37	-43.9	-47.0	16.1	0.00e+00	0	43	0	1011875840	58	5412
2026-01-03 00:09:35.84	210.75	24.85	-45.4	-49.3	13.7	1.50e-06	0	42	0	1018167296	61	5954
2026-01-03 00:09:38.56	210.62	24.42	-45.1	-48.8	14.2	7.00e-07	0	42	0	1023410176	61	5652
2026-01-03 00:09:41.85	210.48	23.92	-44.3	-47.6	15.5	0.00e+00	0	42	0	1028653056	60	5182
2026-01-03 00:09:44.58	210.37	23.51	-43.7	-46.6	16.4	0.00e+00	0	43	0	1033895936	59	4899
2026-01-03 00:09:47.87	210.23	23.02	-43.4	-46.2	16.8	0.00e+00	0	42	0	1040187392	58	4948
2026-01-03 00:09:50.59	210.13	22.63	-43.5	-46.3	16.7	0.00e+00	0	43	0	1045430272	58	5002
2026-01-03 00:09:54.16	209.99	22.11	-43.1	-45.9	17.1	0.00e+00	0	43	0	1051721728	58	4762
2026-01-03 00:09:56.95	209.89	21.72	-42.9	-45.5	17.4	0.00e+00	0	43	0	1056964608	57	4855
2026-01-03 00:10:00.28	209.77	21.26	-42.9	-45.6	17.3	0.00e+00	0	43	0	1063256064	57	4877
2026-01-03 00:10:03.28	209.66	20.85	-42.8	-45.4	17.5	0.00e+00	0	43	0	1069547520	57	4772
2026-01-03 00:10:06.28	209.56	20.45	-43.0	-45.7	17.2	0.00e+00	0	43	0	1074790400	57	4964
2026-01-03 00:10:09.35	209.46	20.05	-43.2	-46.0	16.9	0.00e+00	0	42	0	1081081856	57	5140
2026-01-03 00:10:12.29	209.36	19.67	-43.1	-45.8	17.0	0.00e+00	0	43	0	1086324736	57	5032
2026-01-03 00:10:15.79	209.25	19.22	-42.8	-45.4	17.4	0.00e+00	0	42	0	1092616192	57	4806
2026-01-03 00:10:18.51	209.17	18.88	-43.0	-45.7	17.2	0.00e+00	0	43	0	1097859072	57	4954
2026-01-03 00:10:21.81	209.07	18.47	-43.4	-46.3	16.6	0.00e+00	0	43	0	1104150528	57	5280
2026-01-03 00:10:24.53	209.00	18.14	-43.8	-46.7	16.2	0.00e+00	0	43	0	1109393408	58	5274
2026-01-03 00:10:27.86	208.90	17.74	-44.4	-47.7	15.2	0.00e+00	0	42	0	1115684864	60	5265
2026-01-03 00:10:30.59	208.83	17.41	-44.8	-48.2	14.7	7.00e-07	0	43	0	1120927744	60	5579
2026-01-03 00:10:33.88	208.74	17.03	-44.6	-48.0	14.9	0.00e+00	0	43	0	1126170624	60	5462
2026-01-03 00:10:36.80	208.66	16.69	-44.1	-47.2	15.7	0.00e+00	0	42	0	1132462080	60	4982
2026-01-03 00:10:40.55	208.57	16.27	-43.6	-46.6	16.2	0.00e+00	0	43	0	1138753536	59	4886
2026-01-03 00:10:43.38	208.50	15.95	-43.4	-46.2	16.6	0.00e+00	0	42	0	1143996416	58	4976
2026-01-03 00:10:47.15	208.41	15.54	-43.7	-46.7	16.1	0.00e+00	0	43	0	1151336448	58	5258
2026-01-03 00:10:50.04	208.34	15.22	-44.3	-47.6	15.3	7.00e-07	0	43	0	1156579328	59	5466
2026-01-03 00:10:53.18	208.27	14.89	-44.7	-48.2	14.7	0.00e+00	0	43	0	1162870784	60	5549
2026-01-03 00:10:56.13	208.21	14.58	-45.0	-48.8	14.1	3.00e-06	0	43	0	1168113664	60	5935
2026-01-03 00:10:59.52	208.13	14.22	-44.9	-48.5	14.4	7.00e-07	0	43	0	1174405120	60	5744
2026-01-03 00:11:02.23	208.08	13.94	-44.5	-48.0	14.9	7.00e-07	0	43	0	1179648000	60	5410
2026-01-03 00:11:06.12	208.00	13.55	-43.8	-46.9	15.9	0.00e+00	0	43	0	1186988032	59	5078
2026-01-03 00:11:08.86	207.94	13.28	-43.5	-46.4	16.3	0.00e+00	0	43	0	1192230912	59	4812
2026-01-03 00:11:12.62	207.87	12.91	-43.1	-45.9	16.9	0.00e+00	0	43	0	1199570944	58	4793
2026-01-03 00:11:15.45	207.82	12.63	-42.9	-45.6	17.1	0.00e+00	0	43	0	1204813824	57	4920
2026-01-03 00:11:18.64	207.76	12.32	-42.9	-45.7	17.0	0.00e+00	0	43	0	1210056704	57	4940
2026-01-03 00:11:21.50	207.70	12.05	-42.7	-45.4	17.2	0.00e+00	0	43	0	1216348160	57	4806
2026-01-03 00:11:24.65	207.65	11.75	-42.9	-45.6	17.0	0.00e+00	0	43	0	1221591040	57	4920
2026-01-03 00:11:27.89	207.59	11.45	-43.0	-45.9	16.8	0.00e+00	0	43	0	1227882496	57	5061
2026-01-03 00:11:30.87	207.54	11.18	-43.2	-46.1	16.6	0.00e+00	0	43	0	1233125376	57	5176
2026-01-03 00:11:34.01	207.49	10.89	-43.4	-46.3	16.4	0.00e+00	0	43	0	1239416832	57	5317
2026-01-03 00:11:36.88	207.44	10.64	-43.5	-46.6	16.1	0.00e+00	0	42	0	1244659712	57	5493
2026-01-03 00:11:40.03	207.39	10.36	-43.8	-47.1	15.6	0.00e+00	0	43	0	1250951168	58	5476
2026-01-03 00:11:42.88	207.35	10.11	-43.8	-47.1	15.5	0.00e+00	0	42	0	1256194048	58	5496
2026-01-03 00:11:46.04	207.30	9.83	-44.0	-47.4	15.2	0.00e+00	0	43	0	1261436928	58	5707
2026-01-03 00:11:48.90	207.26	9.58	-44.1	-47.7	14.9	0.00e+00	0	43	0	1267728384	59	5540
2026-01-03 00:11:52.06	207.21	9.32	-44.1	-47.6	15.0	0.00e+00	0	43	0	1272971264	59	5500
2026-01-03 00:11:54.92	207.17	9.07	-44.4	-48.0	14.6	0.00e+00	0	43	0	1278214144	59	5740
2026-01-03 00:11:58.08	207.12	8.81	-49.0	-64.3	3.8	1.49e+00	0	43	104	1280311296	68	22379
2026-01-03 00:12:00.95	207.08	8.57	-49.3	-64.5	3.8	1.49e+00	0	43	104	1280311296	69	21617
2026-01-03 00:12:04.10	207.04	8.32	-49.3	-64.6	3.8	1.49e+00	0	43	104	1280311296	69	21774
2026-01-03 00:12:06.97	207.00	8.08	-49.3	-64.5	3.8	1.49e+00	0	43	104	1280311296	69	21747
2026-01-03 00:12:10.13	206.96	7.83	-49.4	-64.6	3.8	1.49e+00	0	43	104	1280311296	69	21818
2026-01-03 00:12:13.04	206.93	7.60	-49.4	-64.5	3.8	1.49e+00	0	43	104	1280311296	69	21684
2026-01-03 00:12:16.05	206.89	7.36	-49.1	-64.5	3.8	1.49e+00	0	42	104	1280311296	69	21634
2026-01-03 00:12:19.07	206.85	7.13	-49.1	-64.5	3.8	1.49e+00	0	43	104	1280311296	69	21569
2026-01-03 00:12:22.08	206.81	6.89	-49.1	-64.5	3.8	1.49e+00	0	42	104	1280311296	69	21616
2026-01-03 00:12:25.09	206.78	6.66	-49.1	-64.5	3.8	1.49e+00	0	43	104	1280311296	69	21682
2026-01-03 00:12:28.10	206.74	6.43	-49.1	-64.5	3.8	1.49e+00	0	43	104	1280311296	69	21603
2026-01-03 00:12:31.12	206.71	6.21	-49.1	-64.5	3.8	1.49e+00	0	43	104	1280311296	69	21610
2026-01-03 00:12:34.13	206.68	5.98	-49.1	-64.5	3.8	1.49e+00	0	43	104	1280311296	69	21626
2026-01-03 00:12:37.14	206.64	5.76	-49.1	-64.5	3.8	1.49e+00	0	43	104	1280311296	69	21668
2026-01-03 00:12:40.15	206.61	5.54	-49.1	-64.5	3.8	1.49e+00	0	43	104	1280311296	69	21696
2026-01-03 00:12:43.17	206.58	5.32	-49.1	-64.5	3.8	1.49e+00	0	43	104	1280311296	69	21635
2026-01-03 00:12:46.18	206.55	5.10	-49.1	-64.5	3.8	1.49e+00	0	43	104	1280311296	69	21610

#Closed at: 2026-01-03 00:12:49
#Recorded file [1280 MB]: D:/Data/31040_260103_025954.dat