passes_logs/2026/01/02/T1/T1__20260102_080141_NOAA_21_JPSS-2_rec.log

#Pass ID: 20260102_080141_NOAA 21 (JPSS-2)
#Satellite: NOAA 21 (JPSS-2)
#Configuration: NOAA 21
#almurnet v.1.7.20251203
#Start time: 2026-01-02 08:01:43

#Version: 2.0.20230620
#Station: T1
#Location: 37.570604 lon 55.790049 lat
#TLE: 1 54234U 22150A   26001.26806856  .00000185  00000+0  10843-3 0  9990
#TLE: 2 54234  98.7484 302.3349 0001277 353.3887   6.7272 14.19530660162860

#Time	Az	El	Level	Level2	SNR	BER	BlckErr	Temp	State	Recorded	gain1	gain2
2026-01-02 08:01:43.32	99.45	5.11	-49.2	-62.3	3.8	1.49e+00	0	38	0	0	70	15826
2026-01-02 08:01:46.32	99.17	5.28	-49.2	-62.2	3.8	1.49e+00	0	38	104	0	70	15592
2026-01-02 08:01:49.34	98.88	5.45	-49.2	-62.2	3.8	1.49e+00	0	38	104	0	70	15655
2026-01-02 08:01:52.35	98.59	5.62	-49.2	-62.2	3.8	1.49e+00	0	38	104	0	70	15607
2026-01-02 08:01:55.36	98.30	5.79	-49.2	-62.2	3.8	1.49e+00	0	38	104	0	70	15631
2026-01-02 08:01:58.37	98.00	5.97	-49.2	-62.2	3.8	1.49e+00	0	38	104	0	70	15660
2026-01-02 08:02:01.39	97.69	6.14	-49.2	-62.1	3.8	1.49e+00	0	38	104	0	70	15520
2026-01-02 08:02:04.40	97.39	6.31	-49.1	-62.0	3.8	1.49e+00	0	39	104	0	70	15304
2026-01-02 08:02:07.41	97.08	6.49	-49.1	-61.7	3.8	1.49e+00	0	38	104	0	70	14778
2026-01-02 08:02:10.43	96.76	6.66	-49.1	-61.6	3.8	1.49e+00	0	39	104	0	70	14558
2026-01-02 08:02:13.44	96.45	6.84	-49.1	-61.7	3.8	1.49e+00	0	39	104	0	70	14759
2026-01-02 08:02:16.45	96.12	7.01	-49.1	-61.7	3.8	1.49e+00	0	39	104	0	70	14733
2026-01-02 08:02:19.46	95.80	7.19	-49.0	-61.1	3.8	1.49e+00	0	39	104	0	70	13822
2026-01-02 08:02:22.48	95.47	7.36	-48.9	-60.0	3.9	1.49e+00	0	39	104	0	69	12848
2026-01-02 08:02:25.49	95.14	7.54	-48.9	-59.9	3.9	1.48e+00	0	39	104	0	69	12709
2026-01-02 08:02:28.50	94.80	7.71	-48.8	-58.6	4.2	1.47e+00	0	39	104	0	69	10939
2026-01-02 08:02:31.51	94.46	7.89	-48.4	-56.2	5.3	6.46e-01	0	39	0	0	68	8816
2026-01-02 08:02:34.53	94.11	8.07	-48.5	-57.7	4.0	6.86e-01	0	39	104	0	68	10437
2026-01-02 08:02:37.54	93.76	8.24	-48.8	-59.6	3.9	1.49e+00	0	39	104	0	68	12977
2026-01-02 08:02:40.55	93.41	8.42	-44.6	-47.7	13.2	7.01e-05	0	39	0	0	61	4938
2026-01-02 08:02:43.56	93.05	8.60	-42.4	-44.7	16.2	0.00e+00	0	39	0	0	56	4666
2026-01-02 08:02:46.58	92.68	8.77	-44.0	-46.7	14.2	0.00e+00	0	40	0	0	58	5245
2026-01-02 08:02:49.59	92.31	8.95	-47.6	-53.8	6.9	5.82e-02	0	40	0	0	65	7985
2026-01-02 08:02:52.60	91.94	9.13	-45.9	-49.8	11.1	6.32e-03	0	40	0	0	63	5645
2026-01-02 08:02:55.69	91.55	9.31	-47.8	-54.5	6.5	1.97e-02	0	40	0	0	66	8117
2026-01-02 08:02:58.65	91.18	9.49	-44.9	-48.0	13.0	4.65e-05	0	40	0	0	61	5143
2026-01-02 08:03:01.66	90.79	9.66	-43.9	-46.5	14.5	7.00e-07	0	40	0	0	59	4852
2026-01-02 08:03:04.71	90.40	9.84	-42.5	-44.7	16.3	0.00e+00	0	40	0	0	57	4423
2026-01-02 08:03:08.00	89.96	10.04	-41.7	-43.8	17.1	0.00e+00	0	40	0	0	55	4464
2026-01-02 08:03:10.72	89.60	10.20	-41.0	-43.0	17.8	0.00e+00	0	40	0	0	54	4329
2026-01-02 08:03:14.11	89.14	10.40	-40.8	-42.7	18.1	0.00e+00	0	40	0	0	53	4425
2026-01-02 08:03:16.94	88.75	10.57	-40.8	-42.8	18.0	0.00e+00	0	40	0	0	53	4462
2026-01-02 08:03:20.23	88.30	10.76	-40.9	-42.9	17.8	0.00e+00	0	40	0	0	53	4504
2026-01-02 08:03:22.96	87.92	10.92	-40.9	-42.9	17.9	0.00e+00	0	40	0	0	53	4523
2026-01-02 08:03:26.30	87.44	11.12	-41.0	-43.0	17.9	0.00e+00	0	40	0	0	53	4548
2026-01-02 08:03:29.31	87.01	11.29	-40.9	-42.9	17.9	0.00e+00	0	40	0	0	53	4527
2026-01-02 08:03:32.61	86.53	11.49	-40.9	-42.9	17.9	0.00e+00	0	40	0	0	53	4526
2026-01-02 08:03:35.36	86.12	11.65	-40.9	-42.9	17.9	0.00e+00	0	40	0	0	53	4524
2026-01-02 08:03:38.63	85.64	11.84	-40.8	-42.8	18.0	0.00e+00	0	40	0	0	53	4476
2026-01-02 08:03:41.49	85.20	12.00	-40.8	-42.7	18.0	0.00e+00	0	40	0	0	53	4437
2026-01-02 08:03:44.64	84.72	12.18	-40.8	-42.8	18.0	0.00e+00	0	40	0	0	53	4454
2026-01-02 08:03:47.51	84.28	12.35	-40.9	-42.9	17.9	0.00e+00	0	40	0	0	53	4540
2026-01-02 08:03:50.67	83.78	12.53	-40.8	-42.8	18.1	0.00e+00	0	40	0	0	53	4444
2026-01-02 08:03:53.73	83.30	12.71	-40.8	-42.8	18.0	0.00e+00	0	40	0	0	53	4470
2026-01-02 08:03:56.89	82.79	12.89	-41.0	-42.9	17.9	0.00e+00	0	40	0	0	53	4540
2026-01-02 08:03:59.76	82.33	13.05	-40.9	-42.9	18.0	0.00e+00	0	40	0	0	53	4496
2026-01-02 08:04:02.91	81.81	13.23	-40.9	-43.0	17.9	0.00e+00	0	40	0	0	53	4559
2026-01-02 08:04:05.87	81.32	13.39	-40.8	-42.8	18.1	0.00e+00	0	40	0	0	53	4467
2026-01-02 08:04:09.07	80.78	13.57	-40.7	-42.6	18.3	0.00e+00	0	40	0	0	53	4378
2026-01-02 08:04:11.93	80.29	13.73	-40.5	-42.3	18.5	0.00e+00	0	40	0	0	52	4488
2026-01-02 08:04:15.27	79.72	13.91	-40.6	-42.4	18.4	0.00e+00	0	40	0	0	52	4538
2026-01-02 08:04:18.20	79.21	14.07	-40.6	-42.5	18.2	0.00e+00	0	40	0	0	52	4597
2026-01-02 08:04:21.65	78.60	14.26	-40.7	-42.6	18.2	0.00e+00	0	40	0	0	52	4641
2026-01-02 08:04:24.37	78.12	14.40	-40.6	-42.5	18.3	0.00e+00	0	40	0	0	52	4592
2026-01-02 08:04:27.66	77.53	14.58	-40.7	-42.5	18.3	0.00e+00	0	40	0	0	52	4595
2026-01-02 08:04:30.56	77.00	14.73	-40.7	-42.6	18.2	0.00e+00	0	40	0	0	52	4648
2026-01-02 08:04:33.53	76.45	14.89	-40.5	-42.4	18.5	0.00e+00	0	40	0	0	52	4505
2026-01-02 08:04:36.54	75.89	15.04	-40.6	-42.4	18.5	0.00e+00	0	40	0	0	52	4524
2026-01-02 08:04:39.56	75.33	15.19	-40.7	-42.6	18.3	0.00e+00	0	40	0	0	52	4623
2026-01-02 08:04:42.57	74.75	15.35	-40.7	-42.5	18.4	0.00e+00	0	40	0	0	52	4590
2026-01-02 08:04:45.57	74.18	15.49	-40.6	-42.5	18.4	0.00e+00	0	40	0	0	52	4546
2026-01-02 08:04:48.58	73.60	15.64	-40.5	-42.4	18.5	0.00e+00	0	40	0	0	52	4525
2026-01-02 08:04:52.02	72.92	15.81	-40.5	-42.4	18.5	0.00e+00	0	40	0	0	52	4504
2026-01-02 08:04:54.75	72.38	15.94	-40.4	-42.3	18.7	0.00e+00	0	40	0	0	52	4461
2026-01-02 08:04:58.05	71.73	16.09	-40.4	-42.3	18.6	0.00e+00	0	40	0	0	52	4467
2026-01-02 08:05:00.77	71.18	16.22	-40.1	-41.9	19.0	0.00e+00	0	40	0	0	52	4282
2026-01-02 08:05:04.07	70.51	16.36	-40.1	-41.9	19.0	0.00e+00	0	40	0	0	51	4519
2026-01-02 08:05:06.79	69.95	16.48	-40.1	-41.9	19.0	0.00e+00	0	40	0	0	51	4494
2026-01-02 08:05:10.08	69.27	16.63	-40.0	-41.8	19.1	0.00e+00	0	40	0	0	51	4456
2026-01-02 08:05:12.80	68.70	16.74	-40.0	-41.8	19.1	0.00e+00	0	40	0	0	51	4449
2026-01-02 08:05:16.21	67.99	16.88	-40.1	-41.9	18.9	0.00e+00	0	40	0	0	51	4540
2026-01-02 08:05:19.01	67.39	16.99	-40.2	-42.0	18.8	0.00e+00	0	40	0	0	51	4582
2026-01-02 08:05:22.30	66.69	17.12	-40.2	-42.0	18.9	0.00e+00	0	40	0	0	51	4596
2026-01-02 08:05:25.02	66.10	17.23	-40.1	-41.9	19.0	0.00e+00	0	40	0	0	51	4531
2026-01-02 08:05:28.32	65.38	17.35	-39.8	-41.6	19.3	0.00e+00	0	40	0	0	51	4360
2026-01-02 08:05:31.04	64.79	17.45	-40.1	-41.9	19.1	0.00e+00	0	40	0	0	51	4498
2026-01-02 08:05:34.33	64.07	17.56	-39.9	-41.6	19.3	0.00e+00	0	40	0	0	51	4382
2026-01-02 08:05:37.07	63.46	17.65	-39.9	-41.7	19.2	0.00e+00	0	40	0	0	51	4395
2026-01-02 08:05:40.69	62.65	17.77	-39.9	-41.7	19.2	0.00e+00	0	40	0	0	51	4408
2026-01-02 08:05:43.56	62.00	17.86	-39.9	-41.7	19.2	0.00e+00	0	40	0	0	51	4413
2026-01-02 08:05:46.70	61.29	17.95	-40.2	-42.1	18.9	0.00e+00	0	41	0	0	51	4601
2026-01-02 08:05:49.54	60.65	18.04	-40.2	-42.1	18.9	0.00e+00	0	40	0	0	51	4603
2026-01-02 08:05:52.67	59.93	18.12	-40.1	-42.0	19.0	0.00e+00	0	40	0	0	51	4553
2026-01-02 08:05:55.52	59.28	18.19	-40.0	-41.8	19.1	0.00e+00	0	40	0	0	51	4460
2026-01-02 08:05:58.66	58.55	18.27	-40.1	-41.9	19.0	0.00e+00	0	41	0	0	51	4512
2026-01-02 08:06:01.50	57.89	18.34	-40.1	-41.9	19.1	0.00e+00	0	40	0	0	51	4499
2026-01-02 08:06:04.63	57.16	18.41	-40.2	-42.0	18.9	0.00e+00	0	40	0	0	51	4598
2026-01-02 08:06:07.48	56.49	18.46	-40.4	-42.2	18.7	0.00e+00	0	40	0	0	51	4701
2026-01-02 08:06:10.62	55.75	18.52	-40.2	-42.0	18.9	0.00e+00	0	40	0	0	51	4584
2026-01-02 08:06:13.47	55.08	18.57	-40.1	-41.9	19.1	0.00e+00	0	41	0	0	51	4504
2026-01-02 08:06:16.60	54.34	18.62	-40.1	-41.9	19.0	0.00e+00	0	40	0	0	51	4527
2026-01-02 08:06:19.45	53.66	18.66	-40.1	-41.9	19.0	0.00e+00	0	41	0	0	51	4537
2026-01-02 08:06:22.58	52.92	18.71	-40.0	-41.8	19.1	0.00e+00	0	40	0	0	51	4491
2026-01-02 08:06:25.43	52.24	18.74	-40.1	-41.9	19.1	0.00e+00	0	40	0	0	51	4521
2026-01-02 08:06:28.56	51.49	18.77	-40.2	-42.0	19.0	0.00e+00	0	40	0	0	51	4566
2026-01-02 08:06:31.41	50.81	18.79	-40.3	-42.1	18.9	0.00e+00	0	40	0	0	51	4626
2026-01-02 08:06:34.54	50.06	18.81	-40.1	-41.8	19.1	0.00e+00	0	41	0	0	51	4492
2026-01-02 08:06:37.39	49.37	18.83	-40.0	-41.8	19.2	0.00e+00	0	40	0	0	51	4442
2026-01-02 08:06:40.52	48.62	18.84	-39.7	-41.5	19.5	0.00e+00	0	40	0	0	51	4295
2026-01-02 08:06:43.37	47.94	18.85	-39.8	-41.6	19.3	0.00e+00	0	41	0	0	51	4341
2026-01-02 08:06:46.51	47.18	18.85	-40.0	-41.8	19.2	0.00e+00	0	41	0	0	51	4456
2026-01-02 08:06:49.36	46.50	18.85	-40.0	-41.7	19.2	0.00e+00	0	40	0	0	51	4435
2026-01-02 08:06:52.49	45.74	18.84	-40.0	-41.8	19.0	0.00e+00	0	41	0	0	51	4488
2026-01-02 08:06:55.34	45.06	18.83	-40.1	-41.9	19.0	0.00e+00	0	41	0	0	51	4508
2026-01-02 08:06:58.47	44.31	18.81	-40.1	-41.9	19.0	0.00e+00	0	41	0	0	51	4542
2026-01-02 08:07:01.32	43.62	18.79	-40.0	-41.7	19.1	0.00e+00	0	41	0	0	51	4439
2026-01-02 08:07:04.46	42.87	18.76	-39.7	-41.5	19.3	0.00e+00	0	41	0	0	51	4308
2026-01-02 08:07:07.31	42.19	18.73	-39.8	-41.5	19.3	0.00e+00	0	41	0	0	51	4334
2026-01-02 08:07:10.44	41.45	18.70	-40.0	-41.8	19.0	0.00e+00	0	40	0	0	51	4458
2026-01-02 08:07:13.28	40.77	18.66	-40.0	-41.8	19.0	0.00e+00	0	41	0	0	51	4479
2026-01-02 08:07:16.41	40.03	18.61	-40.0	-41.8	19.0	0.00e+00	0	41	0	0	51	4470
2026-01-02 08:07:19.27	39.35	18.56	-39.8	-41.6	19.1	0.00e+00	0	40	0	0	51	4356
2026-01-02 08:07:22.41	38.62	18.51	-39.7	-41.5	19.2	0.00e+00	0	40	0	0	51	4339
2026-01-02 08:07:25.26	37.95	18.45	-39.7	-41.5	19.2	0.00e+00	0	41	0	0	51	4333
2026-01-02 08:07:28.40	37.21	18.39	-39.5	-41.3	19.4	0.00e+00	0	40	0	0	51	4200
2026-01-02 08:07:31.26	36.55	18.33	-39.6	-41.4	19.3	0.00e+00	0	40	0	0	51	4255
2026-01-02 08:07:34.39	35.82	18.25	-39.6	-41.4	19.3	0.00e+00	0	41	0	0	51	4279
2026-01-02 08:07:37.23	35.17	18.18	-39.6	-41.4	19.3	0.00e+00	0	41	0	0	51	4245
2026-01-02 08:07:40.37	34.45	18.10	-39.6	-41.4	19.3	0.00e+00	0	41	0	0	50	4498
2026-01-02 08:07:43.22	33.80	18.02	-39.6	-41.5	19.1	0.00e+00	0	41	0	0	50	4566
2026-01-02 08:07:46.36	33.09	17.93	-39.6	-41.4	19.1	0.00e+00	0	40	0	0	50	4527
2026-01-02 08:07:49.21	32.45	17.85	-39.5	-41.3	19.2	0.00e+00	0	41	0	0	50	4470
2026-01-02 08:07:52.35	31.74	17.75	-39.6	-41.4	19.0	0.00e+00	0	41	0	0	50	4522
2026-01-02 08:07:55.21	31.11	17.65	-39.2	-41.1	19.1	0.00e+00	0	41	0	0	50	4345
2026-01-02 08:07:58.35	30.41	17.55	-39.2	-41.1	19.0	0.00e+00	0	41	0	0	50	4343
2026-01-02 08:08:01.20	29.79	17.45	-38.8	-40.6	19.4	0.00e+00	0	41	0	0	49	4365
2026-01-02 08:08:04.34	29.10	17.34	-39.0	-40.8	19.1	0.00e+00	0	41	0	0	49	4464
2026-01-02 08:08:07.19	28.49	17.23	-39.1	-40.9	19.0	0.00e+00	0	41	0	0	49	4510
2026-01-02 08:08:10.32	27.81	17.11	-38.8	-40.6	19.3	0.00e+00	0	41	0	0	49	4349
2026-01-02 08:08:13.17	27.21	17.00	-38.7	-40.5	19.4	0.00e+00	0	41	0	0	49	4336
2026-01-02 08:08:16.31	26.54	16.87	-38.7	-40.5	19.4	0.00e+00	0	41	0	0	49	4320
2026-01-02 08:08:19.17	25.94	16.76	-38.7	-40.5	19.3	0.00e+00	0	41	0	0	49	4323
2026-01-02 08:08:22.30	25.29	16.62	-38.7	-40.5	19.4	0.00e+00	0	41	0	0	49	4334
2026-01-02 08:08:25.15	24.71	16.50	-39.0	-40.8	19.2	0.00e+00	0	41	0	0	49	4472
2026-01-02 08:08:28.29	24.06	16.36	-39.1	-40.9	19.0	0.00e+00	0	41	0	0	49	4529
2026-01-02 08:08:31.14	23.49	16.24	-39.1	-41.0	18.9	0.00e+00	0	41	0	0	49	4558
2026-01-02 08:08:34.28	22.86	16.09	-39.0	-40.9	19.0	0.00e+00	0	41	0	0	49	4505
2026-01-02 08:08:37.14	22.29	15.96	-39.3	-41.2	18.8	0.00e+00	0	41	0	0	49	4680
2026-01-02 08:08:40.27	21.67	15.81	-39.5	-41.4	18.6	0.00e+00	0	41	0	0	49	4780
2026-01-02 08:08:43.12	21.12	15.68	-39.5	-41.4	18.5	0.00e+00	0	41	0	0	49	4780
2026-01-02 08:08:46.25	20.51	15.52	-39.3	-41.2	18.7	0.00e+00	0	41	0	0	49	4662
2026-01-02 08:08:49.10	19.97	15.38	-39.2	-41.2	18.6	0.00e+00	0	41	0	0	49	4660
2026-01-02 08:08:52.25	19.37	15.23	-39.2	-41.2	18.7	0.00e+00	0	41	0	0	49	4663
2026-01-02 08:08:55.12	18.84	15.08	-39.3	-41.2	18.8	0.00e+00	0	41	0	0	49	4678
2026-01-02 08:08:58.27	18.25	14.92	-39.4	-41.2	18.7	0.00e+00	0	41	0	0	49	4688
2026-01-02 08:09:01.12	17.73	14.77	-39.5	-41.4	18.6	0.00e+00	0	41	0	0	49	4788
2026-01-02 08:09:04.28	17.16	14.61	-39.6	-41.5	18.5	0.00e+00	0	41	0	0	50	4579
2026-01-02 08:09:07.14	16.65	14.46	-39.8	-41.7	18.3	0.00e+00	0	41	0	0	50	4683
2026-01-02 08:09:10.29	16.09	14.29	-39.6	-41.6	18.5	0.00e+00	0	41	0	0	50	4617
2026-01-02 08:09:13.15	15.58	14.13	-39.5	-41.6	18.5	0.00e+00	0	41	0	0	50	4605
2026-01-02 08:09:16.29	15.04	13.96	-39.5	-41.6	18.5	0.00e+00	0	41	0	0	50	4611
2026-01-02 08:09:19.16	14.55	13.81	-39.5	-41.6	18.5	0.00e+00	0	41	0	0	50	4608
2026-01-02 08:09:22.31	14.01	13.63	-39.3	-41.5	18.5	0.00e+00	0	41	0	0	50	4547
2026-01-02 08:09:25.17	13.53	13.48	-39.4	-41.4	18.5	0.00e+00	0	41	0	0	50	4530
2026-01-02 08:09:28.31	13.01	13.30	-39.4	-41.3	18.6	0.00e+00	0	41	0	0	50	4460
2026-01-02 08:09:31.18	12.54	13.14	-39.4	-41.3	18.6	0.00e+00	0	41	0	0	50	4475
2026-01-02 08:09:34.33	12.03	12.96	-39.5	-41.6	18.4	0.00e+00	0	41	0	0	50	4608
2026-01-02 08:09:37.19	11.57	12.80	-39.6	-41.7	18.3	0.00e+00	0	41	0	0	50	4655
2026-01-02 08:09:40.35	11.07	12.62	-39.6	-41.6	18.3	0.00e+00	0	41	0	0	50	4646
2026-01-02 08:09:43.21	10.63	12.46	-39.4	-41.5	18.5	0.00e+00	0	41	0	0	50	4557
2026-01-02 08:09:46.35	10.14	12.28	-39.6	-41.8	18.2	0.00e+00	0	41	0	0	50	4749
2026-01-02 08:09:49.21	9.70	12.11	-39.7	-41.9	18.1	0.00e+00	0	41	0	0	50	4773
2026-01-02 08:09:52.36	9.23	11.93	-39.8	-42.0	17.9	0.00e+00	0	41	0	0	50	4853
2026-01-02 08:09:55.22	8.80	11.77	-39.7	-42.0	17.9	0.00e+00	0	41	0	0	50	4850
2026-01-02 08:09:58.37	8.34	11.58	-39.8	-41.9	18.0	0.00e+00	0	41	0	0	50	4814
2026-01-02 08:10:01.23	7.92	11.42	-40.0	-42.1	17.8	0.00e+00	0	41	0	0	50	4919
2026-01-02 08:10:04.38	7.47	11.23	-39.9	-42.2	17.9	0.00e+00	0	41	0	0	50	4929
2026-01-02 08:10:07.25	7.06	11.06	-39.7	-42.1	17.9	0.00e+00	0	41	0	0	50	4894
2026-01-02 08:10:10.40	6.62	10.88	-39.8	-42.2	17.8	0.00e+00	0	41	0	0	50	4940
2026-01-02 08:10:13.26	6.23	10.71	-40.1	-42.5	17.5	0.00e+00	0	41	0	0	50	5108
2026-01-02 08:10:16.41	5.80	10.53	-40.2	-42.5	17.4	0.00e+00	0	41	0	0	51	4850
2026-01-02 08:10:19.27	5.41	10.36	-40.3	-42.5	17.4	0.00e+00	0	41	0	0	51	4852
2026-01-02 08:10:22.42	4.99	10.17	-40.4	-42.5	17.4	0.00e+00	0	41	0	0	51	4840
2026-01-02 08:10:25.29	4.61	10.01	-40.3	-42.4	17.6	0.00e+00	0	41	0	0	51	4764
2026-01-02 08:10:28.44	4.20	9.82	-40.7	-42.8	17.1	0.00e+00	0	41	0	0	52	4747
2026-01-02 08:10:31.30	3.83	9.65	-40.6	-42.9	17.0	0.00e+00	0	41	0	0	52	4792
2026-01-02 08:10:34.44	3.43	9.47	-40.5	-43.3	16.7	0.00e+00	0	41	0	0	52	5004
2026-01-02 08:10:37.31	3.07	9.30	-40.1	-43.2	16.7	0.00e+00	0	41	0	0	52	4975
2026-01-02 08:10:40.46	2.68	9.11	-40.3	-43.0	16.9	0.00e+00	0	41	0	0	52	4827
2026-01-02 08:10:43.32	2.33	8.95	-47.5	-58.8	3.9	4.95e-01	0	41	104	0	65	14172
2026-01-02 08:10:46.47	1.95	8.76	-48.4	-61.7	3.8	1.49e+00	0	41	104	0	67	17525
2026-01-02 08:10:49.33	1.61	8.59	-48.8	-61.9	3.8	1.49e+00	0	41	104	0	68	17082
2026-01-02 08:10:52.48	1.24	8.41	-48.4	-62.0	3.8	1.49e+00	0	41	104	0	68	17258
2026-01-02 08:10:55.35	0.91	8.24	-48.9	-62.1	3.8	1.49e+00	0	41	104	0	68	17300
2026-01-02 08:10:58.50	0.55	8.06	-49.0	-62.0	3.8	1.49e+00	0	41	104	0	68	17278
2026-01-02 08:11:01.37	0.22	7.89	-48.8	-62.0	3.8	1.49e+00	0	41	104	0	68	17256
2026-01-02 08:11:04.52	359.87	7.71	-49.0	-62.1	3.8	1.49e+00	0	41	104	0	68	17309
2026-01-02 08:11:07.39	359.55	7.54	-49.0	-62.0	3.8	1.49e+00	0	41	104	0	68	17242
2026-01-02 08:11:10.54	359.20	7.36	-48.8	-62.0	3.8	1.49e+00	0	41	104	0	68	17208
2026-01-02 08:11:13.41	358.89	7.19	-48.8	-62.0	3.8	1.49e+00	0	41	104	0	68	17186
2026-01-02 08:11:16.56	358.56	7.01	-48.8	-61.9	3.8	1.49e+00	0	41	104	0	68	17044
2026-01-02 08:11:19.42	358.26	6.84	-48.8	-62.0	3.8	1.49e+00	0	41	104	0	68	17105
2026-01-02 08:11:22.58	357.93	6.66	-48.7	-62.0	3.8	1.49e+00	0	41	104	0	68	17117
2026-01-02 08:11:25.44	357.63	6.49	-48.7	-61.9	3.8	1.49e+00	0	41	104	0	68	17056
2026-01-02 08:11:28.59	357.31	6.31	-48.7	-61.9	3.8	1.49e+00	0	41	104	0	68	17048
2026-01-02 08:11:31.46	357.03	6.15	-48.7	-62.0	3.8	1.49e+00	0	41	104	0	68	17085
2026-01-02 08:11:34.61	356.71	5.97	-48.7	-62.0	3.8	1.49e+00	0	41	104	0	68	17088
2026-01-02 08:11:37.47	356.44	5.81	-48.7	-61.9	3.8	1.49e+00	0	41	104	0	68	17050
2026-01-02 08:11:40.63	356.13	5.63	-48.8	-61.9	3.8	1.49e+00	0	41	104	0	68	17048
2026-01-02 08:11:43.49	355.86	5.46	-48.7	-61.9	3.8	1.49e+00	0	41	104	0	68	17018
2026-01-02 08:11:46.64	355.56	5.29	-48.7	-61.9	3.8	1.49e+00	0	41	104	0	68	17057
2026-01-02 08:11:49.50	355.29	5.12	-48.7	-61.9	3.8	1.49e+00	0	41	104	0	68	16999
2026-01-02 08:11:52.66	355.00	4.95	-48.7	-61.9	3.8	1.49e+00	0	41	104	0	68	17064

#Closed at: 2026-01-02 08:11:53
#Recorded file [0 MB]: D:/Data/31040_260102_110143.dat