passes_logs/2026/01/02/T1/T1__20260102_062840_FENGYUN_3E_rec.log

#Pass ID: 20260102_062840_FENGYUN 3E
#Satellite: FENGYUN 3E
#Configuration: FENGYUN 3E
#almurnet v.1.7.20251203
#Start time: 2026-01-02 06:28:40

#Version: 2.0.20230620
#Station: T1
#Location: 37.570604 lon 55.790049 lat
#TLE: 1 49008U 21062A   26001.26445318  .00000475  00000+0  24453-3 0  9990
#TLE: 2 49008  98.7480   6.5551 0001357 167.8415 192.2795 14.19884467232890

#Time	Az	El	Level	Level2	SNR	BER	BlckErr	Temp	State	Recorded	gain1	gain2
2026-01-02 06:28:40.28	1.54	4.99	-49.0	-61.3	3.8	8.47e-01	0	41	0	0	68	14860
2026-01-02 06:28:43.28	1.20	5.13	-49.7	-61.0	3.8	8.47e-01	0	41	104	0	69	13434
2026-01-02 06:28:46.27	0.85	5.27	-49.7	-61.0	3.8	8.47e-01	0	42	104	0	69	13521
2026-01-02 06:28:49.26	0.50	5.41	-49.7	-61.0	3.8	8.47e-01	0	42	104	0	69	13417
2026-01-02 06:28:52.26	0.15	5.55	-49.7	-61.0	3.8	8.47e-01	0	42	104	0	69	13521
2026-01-02 06:28:55.25	359.80	5.69	-49.7	-61.0	3.8	8.46e-01	0	42	104	0	69	13420
2026-01-02 06:28:58.24	359.44	5.83	-49.7	-61.0	3.8	8.46e-01	0	42	104	0	69	13524
2026-01-02 06:29:01.23	359.08	5.97	-49.7	-60.9	3.8	8.47e-01	0	42	104	0	69	13338
2026-01-02 06:29:04.22	358.71	6.11	-49.7	-61.0	3.8	8.47e-01	0	42	104	0	69	13466
2026-01-02 06:29:07.21	358.34	6.25	-49.7	-60.9	3.8	8.46e-01	0	42	104	0	69	13383
2026-01-02 06:29:10.21	357.97	6.38	-49.7	-60.9	3.8	8.46e-01	0	42	104	0	69	13390
2026-01-02 06:29:13.20	357.60	6.52	-49.7	-60.9	3.8	8.47e-01	0	43	104	0	69	13326
2026-01-02 06:29:16.20	357.22	6.66	-49.7	-60.9	3.8	8.48e-01	0	43	104	0	69	13359
2026-01-02 06:29:19.20	356.83	6.79	-49.7	-60.8	3.8	8.46e-01	0	43	104	0	69	13183
2026-01-02 06:29:22.19	356.44	6.93	-49.7	-60.8	3.8	8.47e-01	0	43	104	0	69	13194
2026-01-02 06:29:25.20	356.05	7.06	-49.7	-60.9	3.8	8.46e-01	0	43	104	0	69	13325
2026-01-02 06:29:28.19	355.66	7.20	-49.7	-60.9	3.8	8.46e-01	0	43	104	0	69	13396
2026-01-02 06:29:31.19	355.26	7.33	-49.7	-61.0	3.8	8.47e-01	0	43	104	0	69	13418
2026-01-02 06:29:34.18	354.86	7.47	-49.7	-60.8	3.8	8.48e-01	0	43	104	0	69	13235
2026-01-02 06:29:37.19	354.45	7.60	-49.7	-60.9	3.8	8.48e-01	0	43	104	0	69	13348
2026-01-02 06:29:40.18	354.04	7.73	-49.7	-60.9	3.8	8.46e-01	0	43	104	0	69	13317
2026-01-02 06:29:43.17	353.63	7.86	-49.6	-60.7	3.8	8.47e-01	0	43	104	0	69	13068
2026-01-02 06:29:46.17	353.21	7.99	-49.6	-60.7	3.8	8.47e-01	0	43	104	0	69	12991
2026-01-02 06:29:49.17	352.78	8.12	-49.7	-60.9	3.8	8.47e-01	0	43	104	0	69	13270
2026-01-02 06:29:52.16	352.36	8.25	-49.6	-60.4	3.8	8.47e-01	0	43	104	0	69	12602
2026-01-02 06:29:55.15	351.93	8.38	-49.5	-60.0	3.8	8.47e-01	0	43	104	0	69	12009
2026-01-02 06:29:58.15	351.50	8.51	-49.6	-60.6	3.8	8.47e-01	0	43	104	0	69	12915
2026-01-02 06:30:01.15	351.06	8.63	-49.2	-57.1	4.3	8.43e-01	0	43	104	0	68	9172
2026-01-02 06:30:04.15	350.62	8.76	-47.8	-52.6	7.0	1.89e-01	0	44	0	9437184	66	6073
2026-01-02 06:30:07.16	350.17	8.88	-46.6	-50.0	9.6	1.83e-02	0	44	0	31457280	64	5065
2026-01-02 06:30:10.16	349.72	9.01	-44.0	-45.9	13.8	1.37e-05	0	44	0	53477376	58	4470
2026-01-02 06:30:13.16	349.27	9.13	-42.6	-44.2	15.5	0.00e+00	0	44	0	74448896	55	4344
2026-01-02 06:30:16.16	348.81	9.25	-40.2	-41.3	18.3	0.00e+00	0	44	0	93323264	51	3956
2026-01-02 06:30:19.17	348.35	9.37	-40.2	-41.4	18.3	0.00e+00	0	44	0	115343360	50	4221
2026-01-02 06:30:22.18	347.88	9.49	-40.1	-41.3	18.3	0.00e+00	0	44	0	136314880	50	4192
2026-01-02 06:30:25.19	347.41	9.61	-39.9	-41.4	18.3	0.00e+00	0	44	0	158334976	50	4204
2026-01-02 06:30:28.19	346.94	9.73	-39.5	-41.2	18.5	0.00e+00	0	44	0	180355072	49	4384
2026-01-02 06:30:31.19	346.46	9.84	-39.4	-41.4	18.3	0.00e+00	0	44	0	202375168	49	4462
2026-01-02 06:30:34.19	345.98	9.95	-39.3	-41.2	18.5	0.00e+00	0	44	0	223346688	49	4346
2026-01-02 06:30:37.20	345.50	10.07	-39.2	-40.9	18.8	0.00e+00	0	44	0	245366784	49	4204
2026-01-02 06:30:40.21	345.01	10.18	-39.1	-40.8	18.9	0.00e+00	0	44	0	267386880	49	4157
2026-01-02 06:30:43.21	344.51	10.29	-39.3	-41.1	18.6	0.00e+00	0	44	0	288358400	49	4310
2026-01-02 06:30:46.20	344.02	10.39	-39.5	-41.3	18.4	0.00e+00	0	44	0	310378496	49	4397
2026-01-02 06:30:49.20	343.52	10.50	-39.8	-41.3	18.4	0.00e+00	0	44	0	332398592	49	4406
2026-01-02 06:30:52.21	343.02	10.60	-39.9	-41.1	18.6	0.00e+00	0	44	0	353370112	49	4336
2026-01-02 06:30:55.21	342.51	10.71	-39.4	-40.6	19.1	0.00e+00	0	44	0	375390208	49	4066
2026-01-02 06:30:58.20	342.00	10.81	-39.4	-40.5	19.2	0.00e+00	0	44	0	397410304	49	4039
2026-01-02 06:31:01.20	341.49	10.90	-39.4	-40.6	19.1	0.00e+00	0	44	0	418381824	49	4075
2026-01-02 06:31:04.21	340.97	11.00	-39.5	-40.7	18.9	0.00e+00	0	44	0	440401920	49	4140
2026-01-02 06:31:07.21	340.45	11.10	-39.7	-40.9	18.8	0.00e+00	0	44	0	462422016	49	4225
2026-01-02 06:31:10.21	339.92	11.19	-39.8	-41.1	18.6	0.00e+00	0	44	0	483393536	49	4327
2026-01-02 06:31:13.21	339.40	11.28	-39.5	-40.8	18.9	0.00e+00	0	44	0	505413632	49	4169
2026-01-02 06:31:16.22	338.86	11.37	-39.5	-40.8	18.9	0.00e+00	0	44	0	526385152	49	4161
2026-01-02 06:31:19.22	338.33	11.46	-39.5	-40.6	19.1	0.00e+00	0	44	0	548405248	49	4091
2026-01-02 06:31:22.22	337.79	11.54	-39.4	-40.6	19.1	0.00e+00	0	44	0	570425344	49	4060
2026-01-02 06:31:25.22	337.25	11.63	-39.2	-40.4	19.3	0.00e+00	0	44	0	591396864	49	3978
2026-01-02 06:31:28.22	336.71	11.71	-39.0	-40.1	19.6	0.00e+00	0	44	0	613416960	48	4074
2026-01-02 06:31:31.22	336.16	11.78	-38.9	-40.1	19.6	0.00e+00	0	44	0	635437056	48	4074
2026-01-02 06:31:34.22	335.61	11.86	-38.9	-40.0	19.7	0.00e+00	0	44	0	656408576	48	4019
2026-01-02 06:31:37.23	335.06	11.93	-39.0	-40.1	19.6	0.00e+00	0	44	0	678428672	48	4058
2026-01-02 06:31:40.23	334.50	12.01	-39.2	-40.2	19.5	0.00e+00	0	44	0	700448768	48	4126
2026-01-02 06:31:43.23	333.94	12.07	-39.3	-40.4	19.4	0.00e+00	0	44	0	721420288	48	4197
2026-01-02 06:31:46.23	333.38	12.14	-39.5	-40.6	19.1	0.00e+00	0	44	0	743440384	48	4299
2026-01-02 06:31:49.23	332.82	12.20	-39.5	-40.6	19.1	0.00e+00	0	44	0	765460480	48	4305
2026-01-02 06:31:52.23	332.25	12.27	-39.4	-40.5	19.2	0.00e+00	0	44	0	786432000	48	4268
2026-01-02 06:31:55.23	331.69	12.32	-39.1	-40.1	19.6	0.00e+00	0	44	0	808452096	48	4089
2026-01-02 06:31:58.24	331.11	12.38	-39.0	-40.0	19.8	0.00e+00	0	44	0	830472192	48	4015
2026-01-02 06:32:01.24	330.54	12.43	-38.9	-40.0	19.7	0.00e+00	0	44	0	852492288	48	4020
2026-01-02 06:32:04.24	329.97	12.48	-39.0	-40.0	19.7	0.00e+00	0	44	0	873463808	48	4051
2026-01-02 06:32:07.23	329.39	12.53	-39.0	-40.0	19.7	0.00e+00	0	44	0	895483904	48	4044
2026-01-02 06:32:10.23	328.81	12.58	-39.0	-40.0	19.7	0.00e+00	0	44	0	916455424	48	4048
2026-01-02 06:32:13.24	328.23	12.62	-39.2	-40.2	19.5	0.00e+00	0	44	0	938475520	48	4127
2026-01-02 06:32:16.24	327.65	12.66	-39.3	-40.3	19.4	0.00e+00	0	44	0	960495616	48	4193
2026-01-02 06:32:19.24	327.07	12.70	-39.4	-40.5	19.2	0.00e+00	0	44	0	982515712	48	4256
2026-01-02 06:32:22.25	326.48	12.73	-39.3	-40.5	19.2	0.00e+00	0	44	0	1003487232	48	4245
2026-01-02 06:32:25.25	325.89	12.76	-39.2	-40.3	19.4	0.00e+00	0	44	0	1025507328	48	4191
2026-01-02 06:32:28.25	325.31	12.79	-39.1	-40.2	19.4	0.00e+00	0	44	0	1046478848	48	4134
2026-01-02 06:32:31.25	324.72	12.81	-39.0	-40.1	19.6	0.00e+00	0	44	0	1068498944	48	4093
2026-01-02 06:32:34.24	324.13	12.83	-39.0	-40.1	19.7	0.00e+00	0	44	0	1090519040	48	4055
2026-01-02 06:32:37.24	323.54	12.85	-39.0	-40.1	19.6	0.00e+00	0	44	0	1111490560	48	4058
2026-01-02 06:32:40.24	322.95	12.87	-39.1	-40.1	19.6	0.00e+00	0	44	0	1133510656	48	4094
2026-01-02 06:32:43.24	322.36	12.88	-39.0	-40.0	19.7	0.00e+00	0	44	0	1155530752	48	4026
2026-01-02 06:32:46.25	321.76	12.89	-39.2	-40.2	19.5	0.00e+00	0	44	0	1176502272	48	4141
2026-01-02 06:32:49.25	321.17	12.90	-39.0	-40.1	19.6	0.00e+00	0	44	0	1198522368	48	4080
2026-01-02 06:32:52.26	320.58	12.90	-39.1	-40.1	19.6	0.00e+00	0	44	0	1220542464	48	4097
2026-01-02 06:32:55.26	319.98	12.91	-39.2	-40.2	19.5	0.00e+00	0	44	0	1241513984	48	4128
2026-01-02 06:32:58.26	319.39	12.90	-39.1	-40.1	19.6	0.00e+00	0	44	0	1263534080	48	4087
2026-01-02 06:33:01.27	318.80	12.90	-39.1	-40.2	19.5	0.00e+00	0	44	0	1285554176	48	4100
2026-01-02 06:33:04.26	318.20	12.89	-38.9	-39.9	19.7	0.00e+00	0	44	0	1306525696	48	3998
2026-01-02 06:33:07.27	317.61	12.88	-38.8	-39.8	19.9	0.00e+00	0	44	0	1328545792	48	3921
2026-01-02 06:33:10.27	317.02	12.87	-38.8	-39.7	19.9	0.00e+00	0	44	0	1350565888	48	3901
2026-01-02 06:33:13.26	316.43	12.85	-38.9	-39.9	19.8	0.00e+00	0	44	0	1371537408	48	3987
2026-01-02 06:33:16.26	315.84	12.83	-39.0	-40.0	19.7	0.00e+00	0	44	0	1393557504	48	4044
2026-01-02 06:33:19.26	315.25	12.81	-39.2	-40.2	19.5	0.00e+00	0	44	0	1415577600	48	4122
2026-01-02 06:33:22.27	314.66	12.78	-39.1	-40.2	19.5	0.00e+00	0	44	0	1436549120	48	4101
2026-01-02 06:33:25.27	314.07	12.75	-39.0	-40.0	19.6	0.00e+00	0	44	0	1458569216	48	4046
2026-01-02 06:33:28.27	313.48	12.72	-39.3	-40.4	19.3	0.00e+00	0	44	0	1480589312	48	4209
2026-01-02 06:33:31.28	312.90	12.69	-39.3	-40.4	19.2	0.00e+00	0	44	0	1501560832	48	4240
2026-01-02 06:33:34.28	312.31	12.65	-39.3	-40.4	19.3	0.00e+00	0	44	0	1523580928	48	4202
2026-01-02 06:33:37.28	311.73	12.61	-39.4	-40.5	19.2	0.00e+00	0	44	0	1544552448	48	4244
2026-01-02 06:33:40.28	311.15	12.56	-39.7	-40.7	19.0	0.00e+00	0	44	0	1566572544	48	4370
2026-01-02 06:33:43.28	310.57	12.52	-39.7	-40.8	18.9	0.00e+00	0	44	0	1588592640	48	4392
2026-01-02 06:33:46.28	310.00	12.47	-39.6	-40.7	19.0	0.00e+00	0	44	0	1609564160	48	4341
2026-01-02 06:33:49.28	309.42	12.42	-39.4	-40.5	19.2	0.00e+00	0	44	0	1631584256	48	4261
2026-01-02 06:33:52.28	308.85	12.36	-39.4	-40.5	19.2	0.00e+00	0	44	0	1653604352	48	4274
2026-01-02 06:33:55.29	308.27	12.31	-39.6	-40.7	19.0	0.00e+00	0	44	0	1675624448	48	4344
2026-01-02 06:33:58.29	307.71	12.25	-39.5	-40.5	19.1	0.00e+00	0	44	0	1696595968	48	4286
2026-01-02 06:34:01.27	307.14	12.19	-39.6	-40.7	19.0	0.00e+00	0	44	0	1718616064	48	4363
2026-01-02 06:34:04.28	306.58	12.12	-39.4	-40.5	19.2	0.00e+00	0	44	0	1739587584	48	4250
2026-01-02 06:34:07.28	306.02	12.06	-39.6	-40.6	19.1	0.00e+00	0	44	0	1761607680	48	4325
2026-01-02 06:34:10.28	305.46	11.99	-39.7	-40.7	19.0	0.00e+00	0	44	0	1783627776	48	4367
2026-01-02 06:34:13.28	304.90	11.91	-39.7	-40.7	18.9	0.00e+00	0	44	0	1804599296	49	4131
2026-01-02 06:34:16.29	304.35	11.84	-39.5	-40.5	19.1	0.00e+00	0	44	0	1826619392	49	4025
2026-01-02 06:34:19.29	303.80	11.76	-39.5	-40.6	19.1	0.00e+00	0	44	0	1848639488	49	4057
2026-01-02 06:34:22.29	303.25	11.68	-39.7	-40.8	18.9	0.00e+00	0	44	0	1870659584	49	4153
2026-01-02 06:34:25.29	302.70	11.60	-39.9	-41.0	18.7	0.00e+00	0	44	0	1891631104	49	4249
2026-01-02 06:34:28.29	302.16	11.52	-40.0	-41.1	18.6	0.00e+00	0	44	0	1913651200	49	4295
2026-01-02 06:34:31.30	301.62	11.43	-40.1	-41.2	18.5	0.00e+00	0	44	0	1935671296	49	4344
2026-01-02 06:34:34.30	301.09	11.35	-40.0	-41.1	18.6	0.00e+00	0	44	0	1956642816	49	4305
2026-01-02 06:34:37.30	300.56	11.26	-40.0	-41.0	18.6	0.00e+00	0	44	0	1978662912	49	4291
2026-01-02 06:34:40.31	300.03	11.16	-39.9	-41.0	18.6	0.00e+00	0	44	0	2000683008	49	4251
2026-01-02 06:34:43.31	299.50	11.07	-39.8	-40.8	18.8	0.00e+00	0	44	0	2021654528	49	4180
2026-01-02 06:34:46.30	298.98	10.97	-39.9	-41.0	18.5	0.00e+00	0	44	0	2043674624	49	4260
2026-01-02 06:34:49.30	298.46	10.88	-40.2	-41.3	18.3	0.00e+00	0	44	0	2064646144	49	4413
2026-01-02 06:34:52.31	297.95	10.78	-40.3	-41.5	18.2	0.00e+00	0	44	0	2086666240	50	4243
2026-01-02 06:34:55.31	297.43	10.68	-40.4	-41.5	18.1	0.00e+00	0	44	0	2108686336	50	4249
2026-01-02 06:34:58.31	296.93	10.57	-40.4	-41.5	18.1	0.00e+00	0	44	0	2129657856	50	4255
2026-01-02 06:35:01.32	296.42	10.47	-40.2	-41.3	18.3	0.00e+00	0	44	0	2151677952	50	4178
2026-01-02 06:35:04.32	295.92	10.36	-40.1	-41.2	18.4	0.00e+00	0	44	0	2173698048	50	4114
2026-01-02 06:35:07.33	295.42	10.25	-40.1	-41.2	18.4	0.00e+00	0	44	0	2194669568	50	4129
2026-01-02 06:35:10.33	294.93	10.14	-40.1	-41.2	18.4	0.00e+00	0	44	0	2216689664	50	4101
2026-01-02 06:35:13.33	294.44	10.03	-40.2	-41.3	18.3	0.00e+00	0	43	0	2238709760	50	4163
2026-01-02 06:35:16.34	293.95	9.92	-40.4	-41.5	18.1	0.00e+00	0	44	0	2260729856	50	4258
2026-01-02 06:35:19.35	293.47	9.80	-40.3	-41.4	18.2	0.00e+00	0	44	0	2281701376	50	4203
2026-01-02 06:35:22.35	292.99	9.69	-40.4	-41.5	18.0	0.00e+00	0	44	0	2303721472	50	4282
2026-01-02 06:35:25.35	292.52	9.57	-40.6	-41.7	17.8	0.00e+00	0	44	0	2325741568	50	4370
2026-01-02 06:35:28.35	292.05	9.45	-40.4	-41.5	18.0	0.00e+00	0	44	0	2346713088	50	4289
2026-01-02 06:35:31.35	291.58	9.33	-40.5	-41.7	17.9	0.00e+00	0	44	0	2368733184	50	4347
2026-01-02 06:35:34.36	291.12	9.21	-40.3	-41.5	18.1	0.00e+00	0	44	0	2390753280	50	4248
2026-01-02 06:35:37.36	290.66	9.09	-40.4	-41.5	18.0	0.00e+00	0	43	0	2411724800	50	4272
2026-01-02 06:35:40.37	290.20	8.97	-50.2	-60.3	3.8	8.45e-01	0	44	104	2429550592	69	12459
2026-01-02 06:35:43.38	289.75	8.84	-50.6	-61.4	3.8	8.47e-01	0	44	104	2429550592	70	13356
2026-01-02 06:35:46.39	289.30	8.72	-50.8	-61.6	3.8	8.46e-01	0	43	104	2429550592	71	12814
2026-01-02 06:35:49.39	288.86	8.59	-50.9	-61.6	3.8	8.46e-01	0	44	104	2429550592	71	12841
2026-01-02 06:35:52.40	288.42	8.46	-50.8	-61.6	3.8	8.47e-01	0	44	104	2429550592	71	12831
2026-01-02 06:35:55.41	287.98	8.34	-50.7	-61.6	3.8	8.47e-01	0	44	104	2429550592	71	12844
2026-01-02 06:35:58.42	287.55	8.21	-50.7	-61.5	3.8	8.47e-01	0	43	104	2429550592	71	12758
2026-01-02 06:36:01.42	287.12	8.08	-50.6	-61.5	3.8	8.47e-01	0	43	104	2429550592	71	12797
2026-01-02 06:36:04.43	286.70	7.94	-50.6	-61.5	3.8	8.46e-01	0	44	104	2429550592	71	12677
2026-01-02 06:36:07.44	286.28	7.81	-50.6	-61.4	3.8	8.46e-01	0	44	104	2429550592	71	12595
2026-01-02 06:36:10.44	285.86	7.68	-50.6	-61.5	3.8	8.45e-01	0	44	104	2429550592	71	12759
2026-01-02 06:36:13.45	285.45	7.55	-50.6	-61.5	3.8	8.47e-01	0	44	104	2429550592	71	12739
2026-01-02 06:36:16.46	285.04	7.41	-50.5	-61.5	3.8	8.48e-01	0	44	104	2429550592	71	12695
2026-01-02 06:36:19.47	284.63	7.28	-50.5	-61.4	3.8	8.47e-01	0	44	104	2429550592	71	12574
2026-01-02 06:36:22.47	284.23	7.14	-50.5	-61.5	3.8	8.48e-01	0	44	104	2429550592	71	12672
2026-01-02 06:36:25.48	283.83	7.01	-50.6	-61.4	3.8	8.46e-01	0	43	104	2429550592	71	12622
2026-01-02 06:36:28.49	283.44	6.87	-50.5	-61.4	3.8	8.47e-01	0	44	104	2429550592	71	12565
2026-01-02 06:36:31.50	283.05	6.74	-50.5	-61.4	3.8	8.46e-01	0	43	104	2429550592	71	12621
2026-01-02 06:36:34.51	282.66	6.60	-50.5	-61.4	3.8	8.48e-01	0	44	104	2429550592	71	12523
2026-01-02 06:36:37.52	282.28	6.46	-50.5	-61.4	3.8	8.47e-01	0	43	104	2429550592	71	12570
2026-01-02 06:36:40.52	281.90	6.32	-50.5	-61.4	3.8	8.47e-01	0	44	104	2429550592	71	12547
2026-01-02 06:36:43.53	281.52	6.18	-50.5	-61.4	3.8	8.47e-01	0	43	104	2429550592	71	12579
2026-01-02 06:36:46.54	281.15	6.04	-50.5	-61.4	3.8	8.46e-01	0	43	104	2429550592	71	12523
2026-01-02 06:36:49.55	280.78	5.90	-50.5	-61.3	3.8	8.47e-01	0	44	104	2429550592	71	12514
2026-01-02 06:36:52.55	280.42	5.77	-50.5	-61.4	3.8	8.46e-01	0	43	104	2429550592	71	12617
2026-01-02 06:36:55.56	280.05	5.63	-50.5	-61.4	3.8	8.46e-01	0	43	104	2429550592	71	12602
2026-01-02 06:36:58.57	279.70	5.48	-50.5	-61.4	3.8	8.47e-01	0	44	104	2429550592	71	12661
2026-01-02 06:37:01.57	279.34	5.34	-50.5	-61.4	3.8	8.47e-01	0	44	104	2429550592	71	12560
2026-01-02 06:37:04.55	278.99	5.20	-50.5	-61.4	3.8	8.47e-01	0	44	104	2429550592	71	12522
2026-01-02 06:37:07.55	278.65	5.06	-50.5	-61.4	3.8	8.47e-01	0	43	104	2429550592	71	12583

#Closed at: 2026-01-02 06:37:10
#Recorded file [2429 MB]: D:/Data/31040_260102_092840.dat