passes_logs/2026/01/02/T1/T1__20260102_084314_KHAYYAM_rec.log

#Pass ID: 20260102_084314_KHAYYAM
#Satellite: KHAYYAM
#Configuration: KHAYYAM_480M
#almurnet v.1.7.20251203
#Start time: 2026-01-02 08:43:15

#Version: 2.0.20230620
#Station: T1
#Location: 37.570604 lon 55.790049 lat
#TLE: 1 53370U 22096A   25365.91236145  .00003272  00000+0  13536-3 0  9993
#TLE: 2 53370  97.3565 268.1736 0001189  73.2664 286.8704 15.24655091189095

#Time	Az	El	Level	Level2	SNR	BER	BlckErr	Temp	State	Recorded	gain1	gain2
2026-01-02 08:43:15.18	197.84	5.07	-51.0	-55.7	3.5	0.00e+00	0	46	0	0	73	24982
2026-01-02 08:43:18.18	198.11	5.30	-51.0	-55.7	3.7	0.00e+00	0	46	104	0	72	26305
2026-01-02 08:43:21.19	198.40	5.53	-51.1	-55.7	3.7	0.00e+00	0	46	104	0	72	26522
2026-01-02 08:43:24.21	198.68	5.75	-51.0	-55.7	3.7	0.00e+00	0	47	104	0	72	26400
2026-01-02 08:43:27.22	198.98	5.99	-51.0	-55.7	3.7	0.00e+00	0	47	104	0	72	26384
2026-01-02 08:43:30.23	199.28	6.22	-51.0	-55.7	3.7	0.00e+00	0	47	104	0	72	26359
2026-01-02 08:43:33.24	199.58	6.46	-51.0	-55.7	3.7	0.00e+00	0	47	104	0	72	26328
2026-01-02 08:43:36.25	199.89	6.69	-51.0	-55.7	3.7	0.00e+00	0	47	104	0	72	26359
2026-01-02 08:43:39.26	200.21	6.94	-51.0	-55.6	3.7	0.00e+00	0	47	104	0	72	26248
2026-01-02 08:43:42.27	200.53	7.18	-51.0	-55.6	3.7	0.00e+00	0	48	104	0	72	26206
2026-01-02 08:43:45.29	200.87	7.43	-51.0	-55.7	3.7	0.00e+00	0	48	104	0	72	26404
2026-01-02 08:43:48.30	201.20	7.67	-51.0	-55.7	3.7	0.00e+00	0	48	104	0	72	26379
2026-01-02 08:43:51.31	201.55	7.92	-51.0	-55.7	3.7	0.00e+00	0	48	104	0	72	26359
2026-01-02 08:43:54.32	201.90	8.18	-51.0	-55.7	3.7	0.00e+00	0	48	104	0	72	26438
2026-01-02 08:43:57.33	202.26	8.43	-51.0	-55.6	3.7	0.00e+00	0	48	104	0	72	26220
2026-01-02 08:44:00.34	202.63	8.69	-51.0	-55.7	3.7	0.00e+00	0	48	104	0	72	26365
2026-01-02 08:44:03.35	203.01	8.95	-51.0	-55.7	3.7	0.00e+00	0	48	104	0	72	26327
2026-01-02 08:44:06.36	203.39	9.22	-50.8	-55.5	3.7	0.00e+00	0	49	104	0	72	25740
2026-01-02 08:44:09.37	203.78	9.49	-50.8	-55.6	3.7	0.00e+00	0	49	104	0	72	26158
2026-01-02 08:44:12.43	204.19	9.76	-50.7	-55.6	3.7	0.00e+00	0	49	104	0	72	26053
2026-01-02 08:44:15.28	204.58	10.02	-50.6	-55.6	3.7	0.00e+00	0	49	104	0	72	26088
2026-01-02 08:44:18.40	205.01	10.31	-37.2	-38.2	14.3	7.60e-03	0	49	0	134217728	46	15767
2026-01-02 08:44:21.26	205.42	10.57	-33.4	-34.3	17.5	0.00e+00	0	49	0	301989888	38	15865
2026-01-02 08:44:24.38	205.88	10.87	-32.8	-33.7	17.8	0.00e+00	0	50	0	486539264	37	15685
2026-01-02 08:44:27.24	206.30	11.14	-32.9	-33.8	17.8	0.00e+00	0	50	0	662700032	37	15911
2026-01-02 08:44:30.38	206.78	11.44	-32.6	-33.5	17.9	0.00e+00	0	50	0	847249408	37	15416
2026-01-02 08:44:33.23	207.23	11.71	-32.6	-33.5	17.9	0.00e+00	0	50	0	1023410176	37	15393
2026-01-02 08:44:36.37	207.73	12.02	-32.3	-33.1	18.3	0.00e+00	0	50	0	1207959552	36	15638
2026-01-02 08:44:39.22	208.20	12.30	-32.3	-33.2	18.5	0.00e+00	0	50	0	1375731712	36	15711
2026-01-02 08:44:42.35	208.73	12.62	-32.0	-32.9	18.7	0.00e+00	0	50	0	1568669696	36	15181
2026-01-02 08:44:45.21	209.22	12.91	-30.8	-31.6	18.2	0.00e+00	0	51	0	1736441856	33	15581
2026-01-02 08:44:48.35	209.77	13.23	-30.9	-31.7	18.2	0.00e+00	0	51	0	1929379840	33	15809
2026-01-02 08:44:51.20	210.29	13.52	-30.7	-31.6	18.4	0.00e+00	0	51	0	2097152000	33	15502
2026-01-02 08:44:54.35	210.87	13.85	-30.4	-31.3	18.6	0.00e+00	0	51	0	2290089984	32	15904
2026-01-02 08:44:57.19	211.41	14.15	-30.0	-30.9	18.8	0.00e+00	0	51	0	2457862144	32	15221
2026-01-02 08:45:00.33	212.02	14.48	-30.2	-31.0	18.6	0.00e+00	0	51	0	2650800128	32	15407
2026-01-02 08:45:03.19	212.60	14.79	-29.8	-30.6	18.7	0.00e+00	0	51	0	2818572288	31	15632
2026-01-02 08:45:06.33	213.24	15.13	-29.9	-30.7	18.8	0.00e+00	0	51	0	3003121664	31	15759
2026-01-02 08:45:09.18	213.84	15.44	-29.6	-30.5	18.8	0.00e+00	0	51	0	3179282432	31	15323
2026-01-02 08:45:12.32	214.52	15.79	-29.5	-30.4	19.0	0.00e+00	0	51	0	3363831808	30	16038
2026-01-02 08:45:15.18	215.15	16.11	-29.2	-30.1	19.1	0.00e+00	0	51	0	3539992576	30	15587
2026-01-02 08:45:18.31	215.86	16.46	-29.0	-29.9	19.1	0.00e+00	0	51	0	3724541952	29	16040
2026-01-02 08:45:21.17	216.53	16.78	-28.8	-29.7	19.3	0.00e+00	0	51	0	3892314112	29	15699
2026-01-02 08:45:24.30	217.27	17.14	-28.6	-29.5	19.4	0.00e+00	0	51	0	4085252096	29	15377
2026-01-02 08:45:27.15	217.97	17.47	-28.7	-29.6	19.3	0.00e+00	0	51	0	4253024256	29	15478
2026-01-02 08:45:30.29	218.77	17.83	-28.5	-29.3	19.3	0.00e+00	0	51	0	4445962240	28	15956
2026-01-02 08:45:33.13	219.50	18.16	-28.3	-29.2	19.4	0.00e+00	0	51	0	4613734400	28	15667
2026-01-02 08:45:36.27	220.33	18.53	-28.1	-28.9	19.6	0.00e+00	0	51	0	4798283776	28	15224
2026-01-02 08:45:39.13	221.11	18.86	-28.1	-29.0	19.6	0.00e+00	0	51	0	4974444544	28	15380
2026-01-02 08:45:42.25	221.99	19.23	-27.9	-28.8	19.8	0.00e+00	0	51	0	5158993920	27	15852
2026-01-02 08:45:45.11	222.81	19.57	-28.0	-28.8	19.7	0.00e+00	0	51	0	5335154688	27	15942
2026-01-02 08:45:48.24	223.73	19.94	-27.8	-28.6	20.0	0.00e+00	0	52	0	5519704064	27	15579
2026-01-02 08:45:51.09	224.59	20.27	-27.6	-28.4	20.1	0.00e+00	0	52	0	5695864832	27	15275
2026-01-02 08:45:54.22	225.57	20.64	-27.5	-28.4	20.0	0.00e+00	0	52	0	5880414208	26	16054
2026-01-02 08:45:57.07	226.48	20.98	-27.3	-28.2	20.2	0.00e+00	0	52	0	6048186368	26	15759
2026-01-02 08:46:00.21	227.50	21.34	-27.3	-28.1	20.1	0.00e+00	0	52	0	6241124352	26	15646
2026-01-02 08:46:03.06	228.46	21.68	-27.1	-27.9	20.2	0.00e+00	0	52	0	6408896512	26	15255
2026-01-02 08:46:06.19	229.53	22.04	-27.0	-27.9	20.3	0.00e+00	0	52	0	6601834496	26	15196
2026-01-02 08:46:09.05	230.54	22.37	-27.0	-27.8	20.2	0.00e+00	0	52	0	6769606656	25	15961
2026-01-02 08:46:12.18	231.67	22.73	-26.7	-27.6	20.3	0.00e+00	0	52	0	6954156032	25	15547
2026-01-02 08:46:15.03	232.73	23.05	-26.7	-27.6	20.3	0.00e+00	0	52	0	7130316800	25	15559
2026-01-02 08:46:18.17	233.92	23.39	-26.6	-27.4	20.2	0.00e+00	0	52	0	7314866176	24	16146
2026-01-02 08:46:21.02	235.02	23.71	-26.4	-27.3	20.6	0.00e+00	0	52	0	7482638336	24	15855
2026-01-02 08:46:24.16	236.27	24.04	-26.3	-27.1	20.6	0.00e+00	0	52	0	7675576320	24	15577
2026-01-02 08:46:27.01	237.42	24.34	-26.4	-27.2	20.5	0.00e+00	0	52	0	7843348480	24	15789
2026-01-02 08:46:30.15	238.73	24.66	-26.4	-27.2	20.6	0.00e+00	0	52	0	8036286464	24	15746
2026-01-02 08:46:32.98	239.92	24.94	-26.2	-27.0	20.7	0.00e+00	0	52	0	8204058624	24	15472
2026-01-02 08:46:36.12	241.28	25.24	-26.1	-26.9	20.7	0.00e+00	0	52	0	8396996608	23	16131
2026-01-02 08:46:38.96	242.53	25.50	-26.0	-26.9	20.8	0.00e+00	0	52	0	8564768768	23	16028
2026-01-02 08:46:42.09	243.93	25.78	-25.9	-26.7	21.0	0.00e+00	0	52	0	8749318144	23	15793
2026-01-02 08:46:44.95	245.24	26.02	-25.9	-26.7	20.9	0.00e+00	0	52	0	8925478912	23	15761
2026-01-02 08:46:48.09	246.70	26.27	-25.7	-26.5	20.9	0.00e+00	0	52	0	9110028288	23	15433
2026-01-02 08:46:50.94	248.04	26.48	-25.6	-26.4	20.9	0.00e+00	0	52	0	9286189056	22	16129
2026-01-02 08:46:54.07	249.54	26.70	-25.6	-26.5	21.2	0.00e+00	0	52	0	9470738432	23	15347
2026-01-02 08:46:56.92	250.92	26.88	-25.5	-26.3	21.2	0.00e+00	0	52	0	9646899200	23	15105
2026-01-02 08:47:00.06	252.47	27.06	-25.4	-26.2	21.2	0.00e+00	0	52	0	9831448576	22	15810
2026-01-02 08:47:02.90	253.88	27.21	-25.2	-26.0	21.2	0.00e+00	0	52	0	9999220736	22	15467
2026-01-02 08:47:06.05	255.46	27.36	-25.2	-26.1	21.3	0.00e+00	0	52	0	10192158720	22	15529
2026-01-02 08:47:08.89	256.90	27.48	-25.6	-26.5	21.2	0.00e+00	0	52	0	10359930880	22	16226
2026-01-02 08:47:12.03	258.50	27.58	-25.3	-26.1	21.3	0.00e+00	0	52	0	10552868864	22	15574
2026-01-02 08:47:14.88	259.96	27.66	-25.2	-26.0	21.2	0.00e+00	0	52	0	10720641024	22	15466
2026-01-02 08:47:18.01	261.58	27.73	-25.1	-26.0	21.5	0.00e+00	0	52	0	10905190400	22	15339
2026-01-02 08:47:20.85	263.05	27.76	-25.2	-26.0	21.6	0.00e+00	0	52	0	11072962560	22	15421
2026-01-02 08:47:23.99	264.67	27.79	-25.2	-26.1	21.8	0.00e+00	0	52	0	11265900544	22	15522
2026-01-02 08:47:26.85	266.16	27.79	-25.6	-26.5	21.5	0.00e+00	0	52	0	11433672704	22	16287
2026-01-02 08:47:29.99	267.79	27.76	-25.6	-26.4	21.5	0.00e+00	0	52	0	11626610688	22	16183
2026-01-02 08:47:32.83	269.25	27.72	-25.8	-26.7	21.3	0.00e+00	0	52	0	11794382848	22	16594
2026-01-02 08:47:35.96	270.87	27.66	-25.8	-26.6	21.4	0.00e+00	0	52	0	11987320832	22	16466
2026-01-02 08:47:38.82	272.33	27.58	-25.8	-26.6	21.4	0.00e+00	0	52	0	12155092992	23	15642
2026-01-02 08:47:41.95	273.93	27.47	-25.8	-26.6	21.4	0.00e+00	0	52	0	12339642368	23	15546
2026-01-02 08:47:44.81	275.37	27.35	-52.9	-57.4	3.7	0.00e+00	0	52	104	12499025920	76	25526
2026-01-02 08:47:47.94	276.94	27.21	-52.9	-57.4	3.7	0.00e+00	0	52	104	12499025920	76	25454
2026-01-02 08:47:50.79	278.35	27.06	-52.8	-57.4	3.7	0.00e+00	0	52	104	12499025920	76	25493
2026-01-02 08:47:53.92	279.88	26.87	-52.5	-57.1	3.7	0.00e+00	0	52	104	12499025920	76	24706
2026-01-02 08:47:56.78	281.27	26.69	-52.8	-57.5	3.7	0.00e+00	0	51	104	12499025920	76	25760
2026-01-02 08:47:59.91	282.76	26.47	-52.9	-57.4	3.7	0.00e+00	0	51	104	12499025920	76	25624
2026-01-02 08:48:02.77	284.10	26.26	-52.9	-57.4	3.7	0.00e+00	0	51	104	12499025920	76	25650
2026-01-02 08:48:05.90	285.55	26.01	-52.9	-57.4	3.7	0.00e+00	0	51	104	12499025920	76	25445
2026-01-02 08:48:08.76	286.85	25.77	-52.9	-57.4	3.7	0.00e+00	0	51	104	12499025920	76	25628
2026-01-02 08:48:11.90	288.25	25.49	-53.0	-57.5	3.7	0.00e+00	0	51	104	12499025920	76	25826
2026-01-02 08:48:14.76	289.51	25.23	-52.5	-57.2	3.7	0.00e+00	0	51	104	12499025920	76	24889
2026-01-02 08:48:17.90	290.85	24.93	-52.7	-57.0	3.7	0.00e+00	0	51	104	12499025920	76	24511
2026-01-02 08:48:20.75	292.05	24.65	-51.7	-56.4	3.7	0.00e+00	0	51	104	12499025920	75	24216
2026-01-02 08:48:23.88	293.34	24.34	-52.6	-56.8	3.7	0.00e+00	0	51	104	12499025920	75	25258
2026-01-02 08:48:26.73	294.49	24.04	-52.5	-56.8	3.7	0.00e+00	0	51	104	12499025920	76	23915
2026-01-02 08:48:29.87	295.73	23.71	-52.7	-56.9	3.7	0.00e+00	0	51	104	12499025920	76	24029
2026-01-02 08:48:32.72	296.83	23.40	-52.6	-56.9	3.7	0.00e+00	0	51	104	12499025920	76	24133
2026-01-02 08:48:35.86	298.01	23.05	-52.2	-56.8	3.7	0.00e+00	0	51	104	12499025920	76	23814
2026-01-02 08:48:38.71	299.06	22.73	-52.4	-57.0	3.7	0.00e+00	0	51	104	12499025920	76	24287
2026-01-02 08:48:41.85	300.19	22.38	-52.5	-57.0	3.7	0.00e+00	0	51	104	12499025920	76	24282
2026-01-02 08:48:44.70	301.18	22.05	-52.4	-56.9	3.7	0.00e+00	0	51	104	12499025920	76	24231
2026-01-02 08:48:47.84	302.26	21.69	-52.6	-56.9	3.7	0.00e+00	0	51	104	12499025920	76	23965
2026-01-02 08:48:50.69	303.21	21.36	-52.5	-56.7	3.7	0.00e+00	0	51	104	12499025920	76	23445
2026-01-02 08:48:53.83	304.23	21.00	-52.7	-57.0	3.7	0.00e+00	0	51	104	12499025920	76	24426
2026-01-02 08:48:56.68	305.13	20.66	-52.8	-57.1	3.7	0.00e+00	0	51	104	12499025920	76	24660
2026-01-02 08:48:59.82	306.10	20.30	-52.3	-56.8	3.7	0.00e+00	0	51	104	12499025920	76	23837
2026-01-02 08:49:02.66	306.95	19.96	-52.1	-56.6	3.7	0.00e+00	0	51	104	12499025920	76	23305
2026-01-02 08:49:05.80	307.87	19.60	-52.2	-56.9	3.7	0.00e+00	0	51	104	12499025920	76	24172
2026-01-02 08:49:08.64	308.68	19.26	-52.6	-56.9	3.7	0.00e+00	0	51	104	12499025920	76	24043
2026-01-02 08:49:11.78	309.55	18.90	-53.0	-57.4	3.7	0.00e+00	0	51	104	12499025920	76	25437
2026-01-02 08:49:14.63	310.33	18.57	-51.8	-56.8	3.7	0.00e+00	0	51	104	12499025920	75	25097
2026-01-02 08:49:17.77	311.15	18.20	-51.8	-56.6	3.7	0.00e+00	0	51	104	12499025920	75	24685
2026-01-02 08:49:20.62	311.89	17.88	-52.0	-56.7	3.7	0.00e+00	0	51	104	12499025920	75	24997
2026-01-02 08:49:23.76	312.67	17.52	-52.4	-57.0	3.7	0.00e+00	0	51	104	12499025920	75	25967
2026-01-02 08:49:26.61	313.37	17.19	-52.2	-56.6	3.7	0.00e+00	0	51	104	12499025920	75	24680
2026-01-02 08:49:29.74	314.11	16.84	-51.7	-56.6	3.7	0.00e+00	0	51	104	12499025920	75	24633
2026-01-02 08:49:32.58	314.77	16.52	-50.8	-56.2	3.7	0.00e+00	0	51	104	12499025920	73	26391
2026-01-02 08:49:35.72	315.48	16.17	-51.8	-56.6	3.7	0.00e+00	0	51	104	12499025920	74	26179
2026-01-02 08:49:38.57	316.11	15.86	-52.3	-57.0	3.7	0.00e+00	0	51	104	12499025920	75	25914
2026-01-02 08:49:41.71	316.78	15.51	-52.1	-57.0	3.7	0.00e+00	0	51	104	12499025920	75	25974
2026-01-02 08:49:44.56	317.38	15.20	-51.7	-56.7	3.7	0.00e+00	0	51	104	12499025920	75	24938
2026-01-02 08:49:47.69	318.01	14.87	-52.0	-56.8	3.7	0.00e+00	0	51	104	12499025920	75	25211
2026-01-02 08:49:50.55	318.58	14.56	-51.8	-56.6	3.7	0.00e+00	0	51	104	12499025920	75	24640
2026-01-02 08:49:53.67	319.19	14.23	-50.8	-55.8	3.7	0.00e+00	0	51	104	12499025920	73	25152
2026-01-02 08:49:56.52	319.73	13.94	-50.4	-55.7	3.7	0.00e+00	0	51	104	12499025920	72	26423
2026-01-02 08:49:59.65	320.31	13.61	-50.8	-56.1	3.7	0.00e+00	0	51	104	12499025920	72	27768
2026-01-02 08:50:02.49	320.82	13.32	-51.2	-56.4	3.7	0.00e+00	0	51	104	12499025920	73	27102
2026-01-02 08:50:05.63	321.37	13.00	-51.7	-56.8	3.7	0.00e+00	0	51	104	12499025920	74	26633
2026-01-02 08:50:08.48	321.86	12.72	-50.2	-55.7	3.7	0.00e+00	0	51	104	12499025920	72	26398
2026-01-02 08:50:11.61	322.38	12.41	-51.0	-56.3	3.7	0.00e+00	0	51	104	12499025920	72	28294
2026-01-02 08:50:14.47	322.85	12.13	-52.1	-56.4	3.7	0.00e+00	0	51	104	12499025920	74	25479
2026-01-02 08:50:17.59	323.35	11.82	-52.0	-56.7	3.7	0.00e+00	0	51	104	12499025920	75	24840
2026-01-02 08:50:20.45	323.80	11.55	-50.8	-56.0	3.7	0.00e+00	0	51	104	12499025920	73	25875
2026-01-02 08:50:23.60	324.28	11.25	-49.9	-55.6	3.7	0.00e+00	0	51	104	12499025920	71	27537
2026-01-02 08:50:26.47	324.70	10.98	-50.0	-55.6	3.7	0.00e+00	0	51	104	12499025920	71	27664
2026-01-02 08:50:29.61	325.16	10.69	-49.7	-55.4	3.7	0.00e+00	0	51	104	12499025920	71	26930
2026-01-02 08:50:32.47	325.57	10.43	-49.8	-55.4	3.7	0.00e+00	0	51	104	12499025920	70	28771
2026-01-02 08:50:35.62	326.01	10.14	-49.7	-55.4	3.7	0.00e+00	0	51	104	12499025920	70	28523
2026-01-02 08:50:38.48	326.39	9.88	-49.4	-55.1	3.7	0.00e+00	0	51	104	12499025920	70	27633
2026-01-02 08:50:41.62	326.81	9.60	-49.6	-55.4	3.7	0.00e+00	0	51	104	12499025920	70	28805
2026-01-02 08:50:44.49	327.19	9.35	-50.3	-55.9	3.7	0.00e+00	0	51	104	12499025920	71	28665
2026-01-02 08:50:47.63	327.59	9.07	-51.2	-56.4	3.7	0.00e+00	0	51	104	12499025920	73	26950
2026-01-02 08:50:50.50	327.94	8.83	-52.1	-57.0	3.7	0.00e+00	0	51	104	12499025920	74	27416
2026-01-02 08:50:53.65	328.33	8.56	-51.3	-56.1	3.7	0.00e+00	0	51	104	12499025920	74	24574
2026-01-02 08:50:56.51	328.67	8.32	-51.9	-56.6	3.7	0.00e+00	0	51	104	12499025920	75	24719
2026-01-02 08:50:59.66	329.04	8.05	-52.2	-56.7	3.7	0.00e+00	0	51	104	12499025920	74	26557
2026-01-02 08:51:02.52	329.37	7.82	-52.8	-56.8	3.7	0.00e+00	0	51	104	12499025920	76	23874
2026-01-02 08:51:05.67	329.72	7.56	-52.9	-57.2	3.7	0.00e+00	0	51	104	12499025920	77	23670
2026-01-02 08:51:08.53	330.04	7.33	-52.8	-57.0	3.7	0.00e+00	0	51	104	12499025920	77	22995
2026-01-02 08:51:11.68	330.38	7.07	-52.5	-57.0	3.7	0.00e+00	0	51	104	12499025920	76	24334
2026-01-02 08:51:14.54	330.68	6.85	-52.4	-56.9	3.7	0.00e+00	0	51	104	12499025920	76	24228
2026-01-02 08:51:17.70	331.01	6.60	-52.4	-56.9	3.7	0.00e+00	0	51	104	12499025920	76	24207
2026-01-02 08:51:20.56	331.30	6.38	-52.4	-56.9	3.7	0.00e+00	0	51	104	12499025920	76	24218
2026-01-02 08:51:23.70	331.61	6.13	-52.4	-56.9	3.7	0.00e+00	0	51	104	12499025920	76	24174
2026-01-02 08:51:26.57	331.89	5.92	-52.5	-56.9	3.7	0.00e+00	0	51	104	12499025920	76	24151
2026-01-02 08:51:29.71	332.19	5.68	-52.4	-56.9	3.7	0.00e+00	0	51	104	12499025920	76	24134
2026-01-02 08:51:32.57	332.46	5.46	-52.4	-56.9	3.7	0.00e+00	0	51	104	12499025920	76	24069
2026-01-02 08:51:35.71	332.75	5.23	-52.4	-56.9	3.7	0.00e+00	0	51	104	12499025920	76	23999
2026-01-02 08:51:38.58	333.01	5.02	-52.4	-56.9	3.7	0.00e+00	0	51	104	12499025920	76	24048

#Closed at: 2026-01-02 08:51:40
#Recorded file [12499 MB]: D:/Data/31040_260102_114315.dat