passes_logs/2026/01/02/T1/T1__20260102_224030_NOAA_20_JPSS-1_rec.log

#Pass ID: 20260102_224030_NOAA 20 (JPSS-1)
#Satellite: NOAA 20 (JPSS-1)
#Configuration: NOAA 20
#almurnet v.1.7.20251203
#Start time: 2026-01-02 22:40:32

#Version: 2.0.20230620
#Station: T1
#Location: 37.570604 lon 55.790049 lat
#TLE: 1 43013U 17073A   26002.21975278  .00000202  00000+0  11669-3 0  9999
#TLE: 2 43013  98.7622 303.2950 0001915  57.9213 302.2149 14.19532512420923

#Time	Az	El	Level	Level2	SNR	BER	BlckErr	Temp	State	Recorded	gain1	gain2
2026-01-02 22:40:32.13	24.36	5.13	-48.2	-63.8	3.8	1.49e+00	0	37	0	0	68	21184
2026-01-02 22:40:35.13	24.54	5.33	-48.1	-63.7	3.8	1.49e+00	0	37	104	0	66	23377
2026-01-02 22:40:38.14	24.73	5.52	-48.1	-63.7	3.8	1.49e+00	0	37	104	0	66	23346
2026-01-02 22:40:41.15	24.91	5.73	-48.1	-63.7	3.8	1.49e+00	0	37	104	0	66	23405
2026-01-02 22:40:44.16	25.10	5.93	-48.1	-63.6	3.8	1.49e+00	0	37	104	0	66	23291
2026-01-02 22:40:47.17	25.29	6.13	-48.1	-63.7	3.8	1.49e+00	0	37	104	0	66	23405
2026-01-02 22:40:50.18	25.49	6.34	-48.1	-63.6	3.8	1.49e+00	0	37	104	0	66	23105
2026-01-02 22:40:53.20	25.68	6.54	-48.0	-63.5	3.8	1.49e+00	0	38	104	0	66	23039
2026-01-02 22:40:56.21	25.88	6.75	-48.0	-63.5	3.8	1.49e+00	0	38	104	0	66	22975
2026-01-02 22:40:59.22	26.08	6.96	-48.0	-63.4	3.8	1.49e+00	0	38	104	0	66	22527
2026-01-02 22:41:02.23	26.29	7.17	-48.0	-63.1	3.8	1.49e+00	0	38	104	0	66	21964
2026-01-02 22:41:05.24	26.50	7.38	-48.0	-63.2	3.8	1.49e+00	0	38	104	0	66	22190
2026-01-02 22:41:08.26	26.71	7.59	-48.0	-63.4	3.8	1.49e+00	0	38	104	0	66	22701
2026-01-02 22:41:11.27	26.92	7.81	-48.0	-63.0	3.8	1.49e+00	0	38	104	0	66	21704
2026-01-02 22:41:14.28	27.13	8.03	-48.0	-62.2	3.8	1.49e+00	0	38	104	0	66	19684
2026-01-02 22:41:17.29	27.35	8.24	-47.9	-61.7	3.8	1.49e+00	0	38	104	0	66	18586
2026-01-02 22:41:20.31	27.58	8.46	-48.0	-61.8	3.8	1.49e+00	0	38	104	0	66	18877
2026-01-02 22:41:23.32	27.80	8.68	-47.9	-61.4	3.8	1.48e+00	0	38	104	0	66	18058
2026-01-02 22:41:26.34	28.03	8.91	-47.8	-59.1	4.5	1.20e+00	0	38	0	0	66	13835
2026-01-02 22:41:29.35	28.26	9.13	-47.7	-58.0	5.1	5.82e-01	0	39	0	6291456	66	12150
2026-01-02 22:41:32.36	28.50	9.36	-47.9	-60.6	3.9	1.49e+00	0	38	104	8388608	66	16389
2026-01-02 22:41:35.36	28.73	9.58	-43.6	-46.8	15.7	0.00e+00	0	39	0	12582912	59	5029
2026-01-02 22:41:38.37	28.98	9.81	-43.1	-46.1	16.5	0.00e+00	0	39	0	17825792	58	4892
2026-01-02 22:41:41.38	29.22	10.04	-42.9	-45.9	16.7	0.00e+00	0	39	0	24117248	57	5048
2026-01-02 22:41:44.44	29.48	10.28	-42.8	-45.6	17.0	0.00e+00	0	39	0	29360128	57	4902
2026-01-02 22:41:47.40	29.72	10.51	-42.8	-45.6	17.0	0.00e+00	0	39	0	34603008	57	4897
2026-01-02 22:41:50.40	29.98	10.75	-42.7	-45.6	17.0	0.00e+00	0	39	0	40894464	57	4907
2026-01-02 22:41:53.41	30.24	10.99	-42.7	-45.5	17.0	0.00e+00	0	39	0	46137344	57	4858
2026-01-02 22:41:56.42	30.51	11.23	-42.8	-45.5	17.1	0.00e+00	0	39	0	51380224	57	4868
2026-01-02 22:41:59.49	30.78	11.47	-42.7	-45.4	17.2	0.00e+00	0	39	0	57671680	57	4792
2026-01-02 22:42:02.42	31.05	11.71	-42.8	-45.5	17.1	0.00e+00	0	39	0	62914560	57	4853
2026-01-02 22:42:05.57	31.34	11.97	-42.7	-45.5	17.2	0.00e+00	0	39	0	69206016	57	4815
2026-01-02 22:42:08.43	31.61	12.20	-42.6	-45.3	17.3	0.00e+00	0	39	0	74448896	57	4750
2026-01-02 22:42:11.58	31.91	12.46	-42.5	-45.2	17.5	0.00e+00	0	39	0	80740352	56	4965
2026-01-02 22:42:14.44	32.18	12.70	-42.5	-45.2	17.5	0.00e+00	0	39	0	85983232	56	4961
2026-01-02 22:42:17.59	32.49	12.97	-42.4	-45.1	17.6	0.00e+00	0	39	0	91226112	56	4914
2026-01-02 22:42:20.45	32.78	13.21	-42.3	-45.0	17.7	0.00e+00	0	39	0	97517568	56	4834
2026-01-02 22:42:23.60	33.10	13.48	-42.3	-44.9	17.9	0.00e+00	0	39	0	102760448	56	4768
2026-01-02 22:42:26.85	33.44	13.76	-42.1	-44.6	18.2	0.00e+00	0	39	0	109051904	56	4613
2026-01-02 22:42:29.71	33.74	14.01	-42.1	-44.6	18.1	0.00e+00	0	39	0	114294784	56	4640
2026-01-02 22:42:32.90	34.08	14.29	-42.2	-44.8	17.9	0.00e+00	0	39	0	120586240	56	4755
2026-01-02 22:42:35.81	34.40	14.54	-42.4	-45.0	17.7	0.00e+00	0	39	0	125829120	56	4869
2026-01-02 22:42:38.96	34.75	14.82	-42.4	-45.1	17.7	0.00e+00	0	39	0	132120576	56	4888
2026-01-02 22:42:41.82	35.07	15.08	-42.6	-45.3	17.5	0.00e+00	0	39	0	137363456	56	4985
2026-01-02 22:42:44.97	35.43	15.36	-42.7	-45.5	17.3	0.00e+00	0	39	0	142606336	56	5107
2026-01-02 22:42:47.83	35.77	15.62	-42.8	-45.7	17.1	0.00e+00	0	39	0	147849216	56	5256
2026-01-02 22:42:50.99	36.14	15.91	-43.0	-45.9	16.9	0.00e+00	0	39	0	154140672	56	5375
2026-01-02 22:42:53.85	36.49	16.18	-43.1	-45.9	16.9	0.00e+00	0	39	0	159383552	57	5097
2026-01-02 22:42:57.00	36.88	16.47	-43.0	-45.8	17.1	0.00e+00	0	39	0	165675008	57	4991
2026-01-02 22:42:59.86	37.24	16.74	-42.9	-45.6	17.2	0.00e+00	0	39	0	170917888	57	4905
2026-01-02 22:43:03.01	37.64	17.04	-43.1	-45.9	16.9	0.00e+00	0	39	0	177209344	57	5058
2026-01-02 22:43:05.88	38.01	17.31	-43.2	-46.0	16.9	0.00e+00	0	39	0	182452224	57	5111
2026-01-02 22:43:09.03	38.43	17.61	-43.2	-46.0	16.8	0.00e+00	0	39	0	187695104	57	5138
2026-01-02 22:43:11.90	38.82	17.89	-43.1	-45.9	16.9	0.00e+00	0	39	0	193986560	57	5090
2026-01-02 22:43:15.14	39.26	18.21	-43.3	-46.1	16.8	0.00e+00	0	39	0	199229440	57	5195
2026-01-02 22:43:18.00	39.67	18.49	-43.2	-46.0	16.9	0.00e+00	0	39	0	204472320	57	5158
2026-01-02 22:43:21.16	40.12	18.80	-43.1	-45.9	17.0	0.00e+00	0	39	0	210763776	57	5068
2026-01-02 22:43:24.02	40.53	19.09	-43.0	-45.7	17.2	0.00e+00	0	39	0	216006656	57	4959
2026-01-02 22:43:27.17	41.00	19.40	-42.8	-45.5	17.4	0.00e+00	0	39	0	222298112	57	4829
2026-01-02 22:43:30.03	41.44	19.69	-42.8	-45.5	17.4	0.00e+00	0	39	0	227540992	57	4824
2026-01-02 22:43:33.18	41.92	20.01	-42.9	-45.5	17.4	0.00e+00	0	39	0	233832448	57	4864
2026-01-02 22:43:36.05	42.37	20.30	-42.7	-45.3	17.6	0.00e+00	0	39	0	239075328	57	4716
2026-01-02 22:43:39.20	42.88	20.63	-42.6	-45.2	17.7	0.00e+00	0	39	0	244318208	57	4656
2026-01-02 22:43:42.06	43.35	20.92	-42.5	-45.1	17.8	0.00e+00	0	39	0	249561088	57	4611
2026-01-02 22:43:45.30	43.89	21.26	-42.5	-45.0	17.9	0.00e+00	0	39	0	255852544	56	4854
2026-01-02 22:43:48.17	44.38	21.56	-42.1	-44.6	18.3	0.00e+00	0	39	0	261095424	56	4626
2026-01-02 22:43:51.53	44.96	21.91	-41.7	-44.1	18.6	0.00e+00	0	39	0	267386880	55	4640
2026-01-02 22:43:54.25	45.45	22.20	-41.7	-44.1	18.7	0.00e+00	0	39	0	272629760	55	4612
2026-01-02 22:43:57.54	46.04	22.55	-41.7	-44.1	18.6	0.00e+00	0	39	0	278921216	55	4636
2026-01-02 22:44:00.27	46.55	22.84	-41.3	-43.6	19.1	0.00e+00	0	39	0	284164096	54	4625
2026-01-02 22:44:03.67	47.19	23.20	-41.1	-43.3	19.4	0.00e+00	0	39	0	290455552	54	4488
2026-01-02 22:44:06.69	47.77	23.53	-41.0	-43.2	19.5	0.00e+00	0	39	0	295698432	53	4689
2026-01-02 22:44:09.99	48.42	23.88	-40.7	-42.9	19.8	0.00e+00	0	39	0	301989888	53	4516
2026-01-02 22:44:12.72	48.97	24.18	-40.7	-42.9	19.8	0.00e+00	0	39	0	307232768	53	4498
2026-01-02 22:44:16.01	49.64	24.54	-41.0	-43.2	19.5	0.00e+00	0	39	0	313524224	53	4686
2026-01-02 22:44:18.73	50.21	24.83	-41.3	-43.6	19.1	0.00e+00	0	39	0	318767104	53	4912
2026-01-02 22:44:22.03	50.91	25.19	-41.3	-43.5	19.2	0.00e+00	0	39	0	325058560	53	4870
2026-01-02 22:44:24.77	51.51	25.49	-41.2	-43.5	19.3	0.00e+00	0	39	0	330301440	53	4821
2026-01-02 22:44:28.06	52.24	25.85	-41.6	-43.9	18.8	0.00e+00	0	39	0	336592896	53	5099
2026-01-02 22:44:31.20	52.96	26.19	-41.9	-44.3	18.5	0.00e+00	0	39	0	341835776	54	5013
2026-01-02 22:44:34.06	53.62	26.50	-42.2	-44.7	18.1	0.00e+00	0	40	0	347078656	55	4958
2026-01-02 22:44:37.35	54.40	26.86	-42.8	-45.5	17.5	0.00e+00	0	39	0	353370112	56	5102
2026-01-02 22:44:40.08	55.06	27.15	-43.0	-45.7	17.3	0.00e+00	0	39	0	358612992	56	5250
2026-01-02 22:44:43.37	55.87	27.51	-43.3	-46.1	16.9	0.00e+00	0	39	0	364904448	57	5213
2026-01-02 22:44:46.09	56.55	27.80	-43.8	-46.7	16.3	0.00e+00	0	39	0	370147328	58	5276
2026-01-02 22:44:49.45	57.41	28.16	-43.6	-46.4	16.6	0.00e+00	0	39	0	376438784	58	5073
2026-01-02 22:44:52.30	58.16	28.46	-43.6	-46.5	16.6	0.00e+00	0	39	0	381681664	58	5115
2026-01-02 22:44:55.66	59.06	28.82	-44.5	-47.8	15.3	0.00e+00	0	39	0	387973120	59	5599
2026-01-02 22:44:58.39	59.80	29.11	-45.0	-48.6	14.4	0.00e+00	0	39	0	393216000	60	5824
2026-01-02 22:45:01.67	60.71	29.45	-45.4	-49.2	13.8	7.60e-06	0	39	0	399507456	61	5898
2026-01-02 22:45:04.40	61.49	29.73	-45.3	-49.1	13.9	2.20e-06	0	39	0	404750336	61	5846
2026-01-02 22:45:07.68	62.43	30.06	-45.7	-49.7	13.4	1.44e-05	0	39	0	409993216	62	5879
2026-01-02 22:45:10.42	63.24	30.34	-45.9	-50.1	12.9	5.26e-05	0	39	0	415236096	62	6172
2026-01-02 22:45:13.72	64.22	30.66	-45.9	-50.0	13.0	4.65e-05	0	39	0	421527552	62	6127
2026-01-02 22:45:16.43	65.05	30.93	-45.4	-49.2	13.9	4.50e-06	0	39	0	426770432	62	5535
2026-01-02 22:45:19.73	66.07	31.24	-45.3	-48.9	14.2	0.00e+00	0	39	0	433061888	62	5395
2026-01-02 22:45:22.46	66.94	31.50	-44.9	-48.4	14.7	7.00e-07	0	39	0	438304768	61	5396
2026-01-02 22:45:25.75	67.99	31.80	-44.2	-47.3	15.8	0.00e+00	0	39	0	444596224	60	5005
2026-01-02 22:45:28.48	68.88	32.04	-43.8	-46.7	16.4	0.00e+00	0	39	0	449839104	59	4944
2026-01-02 22:45:31.76	69.97	32.33	-44.0	-46.9	16.1	0.00e+00	0	39	0	456130560	59	5097
2026-01-02 22:45:34.54	70.91	32.57	-43.8	-46.7	16.3	0.00e+00	0	39	0	460324864	59	4981
2026-01-02 22:45:37.84	72.04	32.84	-43.6	-46.5	16.6	0.00e+00	0	39	0	466616320	59	4819
2026-01-02 22:45:40.55	72.98	33.06	-43.5	-46.3	16.8	0.00e+00	0	39	0	471859200	58	4986
2026-01-02 22:45:43.86	74.15	33.31	-43.4	-46.2	16.9	0.00e+00	0	39	0	478150656	58	4953
2026-01-02 22:45:46.57	75.12	33.51	-44.1	-47.1	16.0	0.00e+00	0	39	0	483393536	58	5517
2026-01-02 22:45:49.87	76.31	33.74	-44.6	-47.9	15.1	0.00e+00	0	39	0	489684992	59	5712
2026-01-02 22:45:52.63	77.32	33.93	-45.1	-48.8	14.3	1.50e-06	0	39	0	494927872	60	5942
2026-01-02 22:45:55.92	78.55	34.14	-45.5	-49.3	13.7	4.50e-06	0	39	0	501219328	61	5960
2026-01-02 22:45:58.65	79.57	34.30	-44.9	-48.4	14.7	1.50e-06	0	39	0	506462208	61	5376
2026-01-02 22:46:01.93	80.82	34.49	-44.7	-48.2	14.9	0.00e+00	0	39	0	511705088	61	5253
2026-01-02 22:46:04.65	81.86	34.63	-44.6	-48.0	15.1	0.00e+00	0	39	0	516947968	61	5140
2026-01-02 22:46:07.95	83.14	34.79	-43.5	-46.5	16.6	0.00e+00	0	39	0	523239424	59	4850
2026-01-02 22:46:10.68	84.20	34.91	-43.6	-46.6	16.6	0.00e+00	0	39	0	528482304	58	5179
2026-01-02 22:46:13.95	85.49	35.04	-44.3	-47.6	15.5	0.00e+00	0	39	0	534773760	59	5484
2026-01-02 22:46:16.69	86.57	35.14	-44.3	-47.6	15.5	0.00e+00	0	39	0	540016640	59	5503
2026-01-02 22:46:19.99	87.89	35.24	-44.6	-48.1	15.1	0.00e+00	0	39	0	546308096	60	5481
2026-01-02 22:46:22.70	88.97	35.31	-44.4	-47.7	15.5	0.00e+00	0	39	0	551550976	60	5225
2026-01-02 22:46:25.99	90.30	35.39	-45.2	-48.8	14.3	0.00e+00	0	39	0	557842432	61	5620
2026-01-02 22:46:28.70	91.39	35.43	-45.0	-48.7	14.3	0.00e+00	0	39	0	562036736	61	5562
2026-01-02 22:46:31.97	92.72	35.47	-44.3	-47.4	15.7	0.00e+00	0	39	0	568328192	60	5095
2026-01-02 22:46:34.80	93.86	35.50	-44.0	-47.0	16.1	0.00e+00	0	39	0	573571072	59	5147
2026-01-02 22:46:37.95	95.14	35.51	-44.1	-47.2	15.9	0.00e+00	0	39	0	579862528	59	5221
2026-01-02 22:46:40.80	96.30	35.50	-43.5	-46.3	16.7	0.00e+00	0	39	0	585105408	59	4751
2026-01-02 22:46:43.94	97.58	35.48	-44.1	-47.1	16.0	0.00e+00	0	39	0	591396864	58	5482
2026-01-02 22:46:46.80	98.74	35.45	-44.3	-47.4	15.7	0.00e+00	0	40	0	596639744	59	5393
2026-01-02 22:46:49.94	100.01	35.40	-43.4	-46.2	16.9	0.00e+00	0	39	0	601882624	58	4947
2026-01-02 22:46:52.80	101.16	35.34	-44.3	-47.4	15.7	0.00e+00	0	39	0	608174080	59	5355
2026-01-02 22:46:55.94	102.42	35.27	-45.1	-48.8	14.3	7.00e-07	0	39	0	613416960	60	5982
2026-01-02 22:46:58.80	103.57	35.18	-45.9	-50.1	13.1	2.74e-05	0	39	0	618659840	62	6163
2026-01-02 22:47:01.95	104.82	35.07	-45.1	-48.7	14.3	4.50e-06	0	39	0	624951296	62	5275
2026-01-02 22:47:04.81	105.95	34.96	-44.7	-48.1	15.0	0.00e+00	0	39	0	630194176	61	5162
2026-01-02 22:47:07.96	107.18	34.83	-44.1	-47.2	15.9	0.00e+00	0	39	0	636485632	60	4963
2026-01-02 22:47:10.82	108.30	34.70	-44.7	-48.1	15.1	0.00e+00	0	39	0	641728512	60	5477
2026-01-02 22:47:13.97	109.51	34.54	-44.2	-47.3	15.8	0.00e+00	0	39	0	646971392	60	5028
2026-01-02 22:47:16.83	110.60	34.38	-44.3	-47.4	15.6	0.00e+00	0	39	0	652214272	59	5374
2026-01-02 22:47:19.97	111.79	34.19	-44.2	-47.2	15.9	0.00e+00	0	40	0	658505728	59	5277
2026-01-02 22:47:22.83	112.86	34.01	-43.3	-46.2	16.9	0.00e+00	0	39	0	663748608	58	4940
2026-01-02 22:47:25.97	114.02	33.81	-43.1	-45.8	17.3	0.00e+00	0	39	0	670040064	58	4731
2026-01-02 22:47:28.84	115.06	33.61	-44.0	-47.0	16.1	0.00e+00	0	39	0	675282944	58	5429
2026-01-02 22:47:31.98	116.20	33.38	-44.0	-47.1	16.0	0.00e+00	0	39	0	681574400	59	5183
2026-01-02 22:47:34.83	117.21	33.16	-43.9	-46.9	16.2	0.00e+00	0	39	0	686817280	59	5055
2026-01-02 22:47:37.98	118.31	32.92	-43.6	-46.4	16.7	0.00e+00	0	39	0	692060160	59	4783
2026-01-02 22:47:40.83	119.30	32.68	-44.2	-47.2	15.9	0.00e+00	0	39	0	697303040	58	5571
2026-01-02 22:47:43.98	120.37	32.42	-44.5	-47.7	15.4	0.00e+00	0	39	0	703594496	60	5274
2026-01-02 22:47:46.84	121.33	32.17	-45.0	-48.5	14.5	7.00e-07	0	39	0	708837376	60	5785
2026-01-02 22:47:49.98	122.36	31.89	-45.0	-48.5	14.6	7.60e-06	0	39	0	715128832	62	5157
2026-01-02 22:47:52.84	123.29	31.63	-44.2	-47.3	15.8	0.00e+00	0	39	0	720371712	60	5008
2026-01-02 22:47:55.99	124.30	31.33	-44.9	-48.3	14.8	0.00e+00	0	39	0	726663168	60	5650
2026-01-02 22:47:58.85	125.19	31.06	-44.2	-47.3	15.7	0.00e+00	0	39	0	731906048	60	5039
2026-01-02 22:48:02.00	126.16	30.75	-45.5	-49.4	13.8	6.80e-06	0	39	0	737148928	61	6028
2026-01-02 22:48:04.86	127.03	30.47	-44.3	-47.6	15.5	0.00e+00	0	39	0	742391808	60	5167
2026-01-02 22:48:08.00	127.96	30.16	-45.6	-49.7	13.3	2.20e-06	0	39	0	748683264	61	6244
2026-01-02 22:48:10.86	128.80	29.86	-44.0	-47.1	16.1	0.00e+00	0	39	0	753926144	60	4881
2026-01-02 22:48:14.01	129.70	29.54	-44.8	-48.4	14.7	0.00e+00	0	39	0	760217600	60	5664
2026-01-02 22:48:16.86	130.50	29.24	-43.9	-46.9	16.1	0.00e+00	0	39	0	765460480	59	5086
2026-01-02 22:48:20.01	131.37	28.91	-44.1	-47.3	15.8	0.00e+00	0	39	0	770703360	58	5597
2026-01-02 22:48:22.87	132.14	28.61	-45.4	-49.2	13.9	9.90e-06	0	39	0	776994816	61	5890
2026-01-02 22:48:26.02	132.98	28.27	-44.0	-47.1	16.0	0.00e+00	0	39	0	782237696	60	4883
2026-01-02 22:48:28.88	133.72	27.97	-44.8	-48.3	14.4	0.00e+00	0	39	0	787480576	60	5612
2026-01-02 22:48:32.03	134.52	27.63	-43.6	-46.5	16.5	0.00e+00	0	39	0	793772032	59	4855
2026-01-02 22:48:34.88	135.24	27.32	-44.2	-47.4	15.7	0.00e+00	0	39	0	799014912	59	5352
2026-01-02 22:48:38.03	136.01	26.97	-44.0	-47.1	16.0	0.00e+00	0	39	0	805306368	60	4873
2026-01-02 22:48:40.89	136.69	26.66	-42.5	-45.0	17.9	0.00e+00	0	39	0	810549248	57	4592
2026-01-02 22:48:44.02	137.43	26.32	-43.2	-46.0	17.0	0.00e+00	0	39	0	815792128	57	5109
2026-01-02 22:48:46.88	138.09	26.00	-42.8	-45.4	17.5	0.00e+00	0	40	0	822083584	57	4809
2026-01-02 22:48:50.03	138.80	25.66	-41.6	-44.0	18.8	0.00e+00	0	39	0	827326464	55	4554
2026-01-02 22:48:52.89	139.44	25.35	-42.1	-44.6	18.2	0.00e+00	0	39	0	832569344	55	4894
2026-01-02 22:48:56.04	140.12	25.00	-41.2	-43.4	19.3	0.00e+00	0	39	0	838860800	54	4542
2026-01-02 22:48:58.90	140.73	24.69	-41.0	-43.3	19.5	0.00e+00	0	39	0	844103680	53	4734
2026-01-02 22:49:02.04	141.38	24.34	-41.4	-43.7	19.0	0.00e+00	0	39	0	850395136	53	4971
2026-01-02 22:49:04.90	141.96	24.03	-40.7	-42.9	19.8	0.00e+00	0	40	0	855638016	53	4540
2026-01-02 22:49:08.04	142.59	23.69	-40.5	-42.7	20.0	0.00e+00	0	39	0	860880896	52	4682
2026-01-02 22:49:10.90	143.15	23.38	-41.0	-43.3	19.5	0.00e+00	0	39	0	866123776	52	4988
2026-01-02 22:49:14.03	143.75	23.04	-40.7	-42.9	19.8	0.00e+00	0	39	0	872415232	52	4776
2026-01-02 22:49:16.88	144.29	22.73	-40.4	-42.5	20.2	0.00e+00	0	39	0	877658112	52	4573
2026-01-02 22:49:20.01	144.87	22.40	-41.3	-43.6	19.1	0.00e+00	0	39	0	883949568	53	4894
2026-01-02 22:49:22.86	145.38	22.09	-41.3	-43.6	19.1	0.00e+00	0	39	0	889192448	53	4922
2026-01-02 22:49:26.00	145.94	21.76	-40.8	-43.1	19.6	0.00e+00	0	39	0	894435328	53	4643
2026-01-02 22:49:28.84	146.43	21.46	-41.0	-43.3	19.4	0.00e+00	0	39	0	900726784	53	4754
2026-01-02 22:49:31.97	146.96	21.13	-41.3	-43.6	19.1	0.00e+00	0	39	0	905969664	53	4912
2026-01-02 22:49:34.82	147.44	20.83	-41.2	-43.5	19.2	0.00e+00	0	39	0	911212544	53	4841
2026-01-02 22:49:37.95	147.95	20.51	-41.3	-43.6	19.0	0.00e+00	0	39	0	917504000	53	4905
2026-01-02 22:49:40.79	148.41	20.21	-41.7	-44.1	18.6	0.00e+00	0	39	0	922746880	54	4907
2026-01-02 22:49:43.93	148.90	19.89	-41.8	-44.2	18.5	0.00e+00	0	40	0	927989760	54	4951
2026-01-02 22:49:46.77	149.34	19.60	-41.3	-43.6	19.1	0.00e+00	0	39	0	934281216	54	4622
2026-01-02 22:49:49.90	149.82	19.28	-41.9	-44.4	18.4	0.00e+00	0	39	0	939524096	54	5054
2026-01-02 22:49:52.74	150.24	18.99	-42.4	-45.1	17.7	0.00e+00	0	39	0	944766976	55	5180
2026-01-02 22:49:55.88	150.69	18.68	-42.3	-44.9	17.8	0.00e+00	0	39	0	951058432	55	5050
2026-01-02 22:49:58.73	151.10	18.40	-42.1	-44.6	18.1	0.00e+00	0	39	0	956301312	55	4917
2026-01-02 22:50:01.86	151.54	18.09	-42.9	-45.7	17.3	0.00e+00	0	39	0	962592768	56	5226
2026-01-02 22:50:04.71	151.93	17.81	-43.4	-46.4	16.5	0.00e+00	0	39	0	967835648	57	5360
2026-01-02 22:50:07.85	152.36	17.50	-43.0	-45.8	17.1	0.00e+00	0	39	0	973078528	57	4990
2026-01-02 22:50:10.70	152.74	17.22	-42.4	-45.0	17.8	0.00e+00	0	39	0	978321408	56	4861
2026-01-02 22:50:13.83	153.14	16.92	-42.4	-45.0	17.8	0.00e+00	0	39	0	984612864	56	4842
2026-01-02 22:50:16.68	153.51	16.65	-42.7	-45.4	17.4	0.00e+00	0	39	0	989855744	56	5094
2026-01-02 22:50:19.81	153.90	16.36	-43.0	-45.8	17.0	0.00e+00	0	39	0	996147200	56	5335
2026-01-02 22:50:22.67	154.25	16.09	-42.7	-45.5	17.4	0.00e+00	0	39	0	1001390080	56	5113
2026-01-02 22:50:25.82	154.63	15.79	-42.4	-45.1	17.7	0.00e+00	0	39	0	1006632960	56	4895
2026-01-02 22:50:28.68	154.97	15.53	-42.4	-45.0	17.8	0.00e+00	0	39	0	1012924416	56	4862
2026-01-02 22:50:31.82	155.34	15.24	-42.5	-45.3	17.6	0.00e+00	0	40	0	1018167296	56	4988
2026-01-02 22:50:34.67	155.67	14.98	-42.8	-45.5	17.3	0.00e+00	0	39	0	1023410176	56	5152
2026-01-02 22:50:37.80	156.02	14.70	-42.9	-45.7	17.1	0.00e+00	0	39	0	1029701632	56	5250
2026-01-02 22:50:40.65	156.33	14.44	-42.6	-45.4	17.4	0.00e+00	0	39	0	1034944512	56	5082
2026-01-02 22:50:43.79	156.68	14.16	-42.6	-45.3	17.5	0.00e+00	0	39	0	1041235968	56	5001
2026-01-02 22:50:46.64	156.98	13.91	-42.5	-45.1	17.6	0.00e+00	0	39	0	1046478848	56	4917
2026-01-02 22:50:49.77	157.31	13.64	-42.7	-45.4	17.3	0.00e+00	0	40	0	1051721728	56	5090
2026-01-02 22:50:52.63	157.61	13.39	-43.0	-45.8	17.0	0.00e+00	0	39	0	1056964608	56	5290
2026-01-02 22:50:55.77	157.92	13.12	-43.2	-46.0	16.7	0.00e+00	0	39	0	1063256064	57	5145
2026-01-02 22:50:58.62	158.21	12.88	-43.3	-46.2	16.6	0.00e+00	0	39	0	1068498944	57	5227
2026-01-02 22:51:01.75	158.52	12.61	-43.2	-46.0	16.7	6.77e-03	0	39	0	1074790400	57	5151
2026-01-02 22:51:04.60	158.79	12.37	-43.0	-45.8	16.9	1.01e-02	0	39	0	1080033280	57	5012
2026-01-02 22:51:07.73	159.09	12.11	-42.9	-45.7	17.0	0.00e+00	0	39	0	1085276160	57	4953
2026-01-02 22:51:10.58	159.36	11.87	-43.1	-45.9	16.8	1.09e-02	0	39	0	1090519040	57	5052
2026-01-02 22:51:13.72	159.65	11.61	-43.1	-45.9	16.7	7.58e-03	0	39	0	1096810496	57	5090
2026-01-02 22:51:16.57	159.90	11.38	-43.1	-46.0	16.7	0.00e+00	0	39	0	1102053376	57	5112
2026-01-02 22:51:19.70	160.18	11.13	-43.3	-46.2	16.5	0.00e+00	0	39	0	1108344832	57	5242
2026-01-02 22:51:22.55	160.43	10.90	-43.4	-46.3	16.3	0.00e+00	0	39	0	1113587712	57	5336
2026-01-02 22:51:25.69	160.71	10.65	-43.6	-46.7	16.0	0.00e+00	0	39	0	1118830592	57	5544
2026-01-02 22:51:28.53	160.95	10.42	-43.6	-46.6	16.0	0.00e+00	0	39	0	1125122048	57	5509
2026-01-02 22:51:31.67	161.21	10.18	-43.6	-46.7	15.9	0.00e+00	0	39	0	1130364928	57	5575
2026-01-02 22:51:34.52	161.45	9.96	-43.8	-47.0	15.7	0.00e+00	0	39	0	1135607808	58	5422
2026-01-02 22:51:37.66	161.70	9.71	-43.7	-46.9	15.7	0.00e+00	0	39	0	1141899264	58	5376
2026-01-02 22:51:40.51	161.93	9.49	-43.9	-47.1	15.5	0.00e+00	0	39	0	1147142144	58	5484
2026-01-02 22:51:43.65	162.18	9.25	-43.9	-47.2	15.4	0.00e+00	0	39	0	1153433600	58	5569
2026-01-02 22:51:46.50	162.40	9.04	-44.1	-47.5	15.1	0.00e+00	0	39	0	1158676480	58	5733
2026-01-02 22:51:49.63	162.64	8.80	-48.6	-63.8	3.8	1.49e+00	0	39	104	1160773632	67	22432
2026-01-02 22:51:52.47	162.85	8.59	-49.0	-64.3	3.8	1.49e+00	0	39	104	1160773632	68	22492
2026-01-02 22:51:55.60	163.08	8.36	-49.1	-64.4	3.8	1.49e+00	0	39	104	1160773632	69	21458
2026-01-02 22:51:58.45	163.29	8.15	-49.3	-64.5	3.8	1.49e+00	0	39	104	1160773632	69	21545
2026-01-02 22:52:01.58	163.52	7.92	-49.1	-64.5	3.8	1.49e+00	0	39	104	1160773632	69	21595
2026-01-02 22:52:04.44	163.72	7.71	-49.3	-64.5	3.8	1.49e+00	0	39	104	1160773632	69	21599
2026-01-02 22:52:07.59	163.94	7.49	-49.3	-64.5	3.8	1.49e+00	0	39	104	1160773632	69	21624
2026-01-02 22:52:10.43	164.14	7.28	-49.3	-64.5	3.8	1.49e+00	0	39	104	1160773632	69	21555
2026-01-02 22:52:13.57	164.35	7.06	-49.0	-64.5	3.8	1.49e+00	0	39	104	1160773632	69	21547
2026-01-02 22:52:16.41	164.54	6.86	-49.0	-64.4	3.8	1.49e+00	0	39	104	1160773632	69	21382
2026-01-02 22:52:19.55	164.75	6.64	-49.0	-64.4	3.8	1.49e+00	0	39	104	1160773632	69	21365
2026-01-02 22:52:22.40	164.94	6.44	-49.0	-64.4	3.8	1.49e+00	0	39	104	1160773632	69	21461
2026-01-02 22:52:25.53	165.14	6.23	-49.0	-64.4	3.8	1.49e+00	0	39	104	1160773632	69	21400
2026-01-02 22:52:28.38	165.32	6.03	-49.0	-64.4	3.8	1.49e+00	0	39	104	1160773632	69	21345
2026-01-02 22:52:31.52	165.52	5.82	-48.9	-64.4	3.8	1.49e+00	0	39	104	1160773632	69	21307
2026-01-02 22:52:34.37	165.70	5.62	-48.9	-64.4	3.8	1.49e+00	0	39	104	1160773632	69	21289
2026-01-02 22:52:37.51	165.89	5.41	-48.9	-64.4	3.8	1.49e+00	0	39	104	1160773632	69	21363
2026-01-02 22:52:40.36	166.06	5.22	-48.9	-64.4	3.8	1.49e+00	0	39	104	1160773632	69	21310
2026-01-02 22:52:43.50	166.25	5.01	-48.9	-64.3	3.8	1.49e+00	0	39	104	1160773632	69	21222

#Closed at: 2026-01-02 22:52:45
#Recorded file [1160 MB]: D:/Data/31040_260103_014032.dat