passes_logs/2026/01/02/T1/T1__20260102_083022_SUOMI_NPP_rec.log

#Pass ID: 20260102_083022_SUOMI NPP
#Satellite: SUOMI NPP
#Configuration: NPP
#almurnet v.1.7.20251203
#Start time: 2026-01-02 08:30:23

#Version: 2.0.20230620
#Station: T1
#Location: 37.570604 lon 55.790049 lat
#TLE: 1 37849U 11061A   26001.07732418  .00000182  00000+0  10735-3 0  9990
#TLE: 2 37849  98.7795 303.2470 0002580  87.2016 272.9455 14.19520779734739

#Time	Az	El	Level	Level2	SNR	BER	BlckErr	Temp	State	Recorded	gain1	gain2
2026-01-02 08:30:23.60	113.04	5.04	-48.4	-63.6	3.8	1.49e+00	0	39	0	0	68	20647
2026-01-02 08:30:26.60	112.81	5.23	-48.4	-63.6	3.8	1.49e+00	0	39	104	0	68	20628
2026-01-02 08:30:29.61	112.58	5.42	-48.3	-63.5	3.8	1.49e+00	0	39	104	0	68	20440
2026-01-02 08:30:32.62	112.35	5.61	-48.3	-63.5	3.8	1.49e+00	0	40	104	0	68	20348
2026-01-02 08:30:35.62	112.11	5.80	-48.3	-63.4	3.8	1.49e+00	0	40	104	0	68	20232
2026-01-02 08:30:38.63	111.87	5.99	-48.3	-63.3	3.8	1.49e+00	0	40	104	0	68	20052
2026-01-02 08:30:41.63	111.63	6.19	-48.3	-63.3	3.8	1.49e+00	0	40	104	0	68	20039
2026-01-02 08:30:44.64	111.38	6.38	-48.3	-63.4	3.8	1.49e+00	0	40	104	0	68	20167
2026-01-02 08:30:47.65	111.13	6.58	-48.3	-63.1	3.8	1.49e+00	0	40	104	0	68	19470
2026-01-02 08:30:50.66	110.87	6.77	-48.3	-62.6	3.8	1.49e+00	0	40	104	0	68	18499
2026-01-02 08:30:53.67	110.62	6.97	-48.3	-62.5	3.8	1.49e+00	0	40	104	0	68	18164
2026-01-02 08:30:56.67	110.36	7.17	-48.3	-62.1	3.8	1.49e+00	0	40	104	0	68	17379
2026-01-02 08:30:59.68	110.09	7.36	-48.2	-61.1	3.9	1.49e+00	0	41	104	0	68	15498
2026-01-02 08:31:02.69	109.82	7.56	-48.2	-61.0	4.0	1.48e+00	0	41	104	0	68	15386
2026-01-02 08:31:05.69	109.55	7.76	-48.3	-63.2	3.8	1.49e+00	0	41	104	0	68	19744
2026-01-02 08:31:08.70	109.27	7.97	-47.7	-57.8	4.9	1.11e+00	0	41	0	0	67	11261
2026-01-02 08:31:11.71	108.99	8.17	-45.9	-50.8	11.4	1.68e-03	0	41	0	6291456	63	6282
2026-01-02 08:31:14.72	108.71	8.37	-44.5	-48.3	14.0	4.50e-06	0	41	0	11534336	61	5303
2026-01-02 08:31:17.73	108.42	8.58	-44.8	-48.8	13.5	3.00e-06	0	41	0	16777216	60	5936
2026-01-02 08:31:20.74	108.13	8.78	-46.7	-53.1	8.9	8.19e-03	0	41	0	23068672	64	7791
2026-01-02 08:31:23.74	107.83	8.99	-48.1	-61.3	3.8	1.40e+00	0	41	104	27262976	66	17710
2026-01-02 08:31:26.74	107.53	9.19	-48.2	-63.4	3.8	4.70e-01	0	41	104	29360128	67	21379
2026-01-02 08:31:29.74	107.23	9.40	-46.5	-52.1	9.9	4.30e-01	0	41	0	32505856	64	6888
2026-01-02 08:31:32.74	106.92	9.61	-44.8	-48.6	13.7	6.80e-06	0	41	0	37748736	61	5521
2026-01-02 08:31:35.74	106.60	9.82	-45.3	-49.6	12.7	1.75e-05	0	41	0	42991616	61	6202
2026-01-02 08:31:38.75	106.28	10.03	-44.6	-48.4	14.1	6.80e-06	0	41	0	49283072	61	5342
2026-01-02 08:31:41.76	105.96	10.24	-44.3	-47.8	14.7	7.00e-07	0	41	0	54525952	60	5282
2026-01-02 08:31:44.76	105.63	10.46	-44.4	-48.0	14.5	0.00e+00	0	42	0	60817408	60	5419
2026-01-02 08:31:47.76	105.30	10.67	-44.4	-48.0	14.5	7.00e-07	0	42	0	66060288	60	5419
2026-01-02 08:31:50.77	104.96	10.89	-44.1	-47.5	15.0	0.00e+00	0	42	0	71303168	60	5113
2026-01-02 08:31:53.78	104.62	11.10	-44.5	-48.0	14.5	0.00e+00	0	42	0	77594624	60	5452
2026-01-02 08:31:56.78	104.27	11.32	-43.9	-47.1	15.4	0.00e+00	0	42	0	82837504	59	5162
2026-01-02 08:31:59.78	103.91	11.53	-44.1	-47.3	15.2	0.00e+00	0	42	0	88080384	59	5306
2026-01-02 08:32:02.79	103.55	11.75	-43.8	-46.9	15.6	0.00e+00	0	42	0	94371840	59	5095
2026-01-02 08:32:05.79	103.19	11.97	-43.5	-46.5	16.1	0.00e+00	0	42	0	99614720	58	5103
2026-01-02 08:32:08.79	102.82	12.19	-43.6	-46.5	16.0	0.00e+00	0	42	0	105906176	58	5149
2026-01-02 08:32:11.80	102.44	12.41	-43.4	-46.2	16.3	0.00e+00	0	42	0	111149056	58	4973
2026-01-02 08:32:14.80	102.06	12.63	-43.1	-45.9	16.6	0.00e+00	0	42	0	116391936	58	4813
2026-01-02 08:32:17.81	101.67	12.86	-43.2	-46.0	16.5	0.00e+00	0	42	0	122683392	58	4846
2026-01-02 08:32:20.82	101.28	13.08	-43.0	-45.8	16.7	0.00e+00	0	42	0	127926272	58	4713
2026-01-02 08:32:23.83	100.88	13.30	-43.2	-46.0	16.5	0.00e+00	0	42	0	133169152	57	5122
2026-01-02 08:32:26.83	100.47	13.53	-43.0	-45.7	16.8	0.00e+00	0	42	0	139460608	57	4975
2026-01-02 08:32:29.84	100.06	13.75	-42.6	-45.3	17.3	0.00e+00	0	42	0	144703488	57	4708
2026-01-02 08:32:32.84	99.64	13.98	-43.3	-46.3	16.3	0.00e+00	0	42	0	150994944	57	5283
2026-01-02 08:32:35.85	99.22	14.20	-42.7	-45.2	17.3	0.00e+00	0	42	0	156237824	57	4703
2026-01-02 08:32:38.85	98.78	14.43	-43.4	-46.4	16.2	0.00e+00	0	42	0	161480704	57	5350
2026-01-02 08:32:41.84	98.35	14.65	-43.5	-46.5	16.1	0.00e+00	0	42	0	167772160	57	5423
2026-01-02 08:32:44.85	97.90	14.88	-43.5	-46.4	16.2	0.00e+00	0	42	0	173015040	57	5399
2026-01-02 08:32:47.85	97.45	15.11	-43.9	-47.1	15.6	0.00e+00	0	42	0	178257920	58	5486
2026-01-02 08:32:50.86	96.99	15.34	-43.6	-46.6	16.0	0.00e+00	0	42	0	184549376	58	5215
2026-01-02 08:32:53.86	96.52	15.56	-43.7	-46.7	16.0	0.00e+00	0	42	0	189792256	58	5250
2026-01-02 08:32:56.87	96.05	15.79	-43.6	-46.5	16.2	0.00e+00	0	42	0	196083712	58	5128
2026-01-02 08:32:59.88	95.57	16.02	-43.9	-47.1	15.6	0.00e+00	0	42	0	201326592	58	5487
2026-01-02 08:33:02.89	95.08	16.25	-43.8	-46.9	15.9	0.00e+00	0	42	0	206569472	58	5354
2026-01-02 08:33:05.89	94.58	16.48	-43.6	-46.6	16.1	0.00e+00	0	42	0	212860928	58	5178
2026-01-02 08:33:08.90	94.08	16.71	-43.4	-46.2	16.5	0.00e+00	0	42	0	218103808	58	4977
2026-01-02 08:33:11.90	93.57	16.94	-43.6	-46.6	16.1	0.00e+00	0	42	0	223346688	58	5181
2026-01-02 08:33:14.90	93.05	17.16	-43.2	-46.1	16.6	0.00e+00	0	42	0	229638144	58	4873
2026-01-02 08:33:17.91	92.52	17.39	-43.4	-46.4	16.3	0.00e+00	0	42	0	234881024	58	5049
2026-01-02 08:33:20.91	91.98	17.62	-43.3	-46.2	16.5	0.00e+00	0	42	0	241172480	58	4944
2026-01-02 08:33:23.92	91.44	17.85	-43.5	-46.5	16.2	0.00e+00	0	42	0	246415360	58	5115
2026-01-02 08:33:26.92	90.89	18.07	-43.7	-46.8	16.0	0.00e+00	0	42	0	251658240	58	5314
2026-01-02 08:33:29.92	90.33	18.30	-43.6	-46.7	16.0	0.00e+00	0	42	0	257949696	58	5252
2026-01-02 08:33:32.92	89.76	18.52	-43.2	-46.2	16.6	0.00e+00	0	42	0	263192576	58	4949
2026-01-02 08:33:35.93	89.18	18.74	-42.9	-45.7	17.0	0.00e+00	0	42	0	268435456	57	4927
2026-01-02 08:33:38.93	88.60	18.97	-42.8	-45.5	17.2	0.00e+00	0	42	0	274726912	57	4839
2026-01-02 08:33:41.94	88.00	19.19	-42.8	-45.6	17.1	0.00e+00	0	42	0	279969792	57	4877
2026-01-02 08:33:44.93	87.40	19.41	-42.3	-44.9	17.8	0.00e+00	0	42	0	285212672	56	4812
2026-01-02 08:33:47.94	86.79	19.63	-41.8	-44.4	18.1	0.00e+00	0	42	0	291504128	55	4770
2026-01-02 08:33:50.95	86.17	19.84	-41.5	-43.9	18.6	0.00e+00	0	42	0	296747008	54	4790
2026-01-02 08:33:53.95	85.54	20.06	-41.7	-44.1	18.4	0.00e+00	0	42	0	303038464	54	4910
2026-01-02 08:33:56.96	84.90	20.27	-41.7	-44.3	18.2	0.00e+00	0	42	0	308281344	54	4991
2026-01-02 08:33:59.96	84.25	20.48	-41.7	-44.2	18.3	0.00e+00	0	42	0	313524224	54	4937
2026-01-02 08:34:02.96	83.59	20.69	-41.6	-44.0	18.4	0.00e+00	0	42	0	319815680	54	4865
2026-01-02 08:34:05.97	82.93	20.90	-41.5	-44.0	18.5	0.00e+00	0	42	0	325058560	54	4825
2026-01-02 08:34:08.97	82.25	21.11	-41.4	-43.9	18.6	0.00e+00	0	42	0	330301440	54	4770
2026-01-02 08:34:11.99	81.57	21.31	-41.5	-44.0	18.5	0.00e+00	0	42	0	336592896	54	4826
2026-01-02 08:34:14.99	80.88	21.51	-41.1	-43.6	18.7	0.00e+00	0	42	0	341835776	54	4599
2026-01-02 08:34:18.00	80.17	21.70	-40.9	-43.3	18.9	0.00e+00	0	42	0	348127232	53	4759
2026-01-02 08:34:21.00	79.46	21.90	-41.1	-43.5	18.8	0.00e+00	0	42	0	353370112	53	4833
2026-01-02 08:34:24.01	78.74	22.09	-41.0	-43.5	18.9	0.00e+00	0	42	0	358612992	53	4825
2026-01-02 08:34:27.01	78.02	22.27	-41.1	-43.4	18.9	0.00e+00	0	42	0	364904448	53	4809
2026-01-02 08:34:30.01	77.28	22.46	-40.8	-43.2	19.1	0.00e+00	0	42	0	370147328	53	4677
2026-01-02 08:34:33.01	76.54	22.63	-40.8	-43.2	19.1	0.00e+00	0	42	0	375390208	53	4662
2026-01-02 08:34:36.01	75.78	22.81	-41.0	-43.4	18.9	0.00e+00	0	42	0	381681664	53	4789
2026-01-02 08:34:39.01	75.02	22.98	-41.3	-43.7	18.7	0.00e+00	0	42	0	386924544	53	4973
2026-01-02 08:34:42.02	74.25	23.14	-41.2	-43.7	18.7	0.00e+00	0	42	0	393216000	53	4930
2026-01-02 08:34:45.02	73.47	23.31	-41.3	-43.8	18.6	0.00e+00	0	42	0	398458880	53	4995
2026-01-02 08:34:48.03	72.68	23.46	-41.5	-44.0	18.5	0.00e+00	0	42	0	403701760	53	5111
2026-01-02 08:34:51.03	71.89	23.61	-41.2	-43.7	18.7	0.00e+00	0	42	0	409993216	53	4927
2026-01-02 08:34:54.03	71.09	23.76	-40.9	-43.2	19.2	0.00e+00	0	42	0	415236096	53	4656
2026-01-02 08:34:57.04	70.28	23.90	-40.6	-42.9	19.4	0.00e+00	0	42	0	420478976	53	4524
2026-01-02 08:35:00.04	69.46	24.04	-40.9	-43.2	19.1	0.00e+00	0	42	0	426770432	53	4689
2026-01-02 08:35:03.03	68.64	24.17	-41.5	-43.9	18.5	0.00e+00	0	42	0	432013312	53	5059
2026-01-02 08:35:06.03	67.81	24.29	-42.9	-45.8	16.9	0.00e+00	0	42	0	438304768	56	5315
2026-01-02 08:35:09.02	66.98	24.41	-43.1	-46.0	16.7	0.00e+00	0	42	0	443547648	57	5156
2026-01-02 08:35:12.03	66.13	24.52	-42.7	-45.5	17.2	0.00e+00	0	42	0	448790528	57	4834
2026-01-02 08:35:15.03	65.29	24.63	-42.3	-45.0	17.6	0.00e+00	0	42	0	455081984	56	4837
2026-01-02 08:35:18.03	64.43	24.73	-42.5	-45.2	17.4	0.00e+00	0	42	0	460324864	56	4955
2026-01-02 08:35:21.04	63.57	24.82	-42.3	-45.0	17.5	0.00e+00	0	42	0	465567744	56	4866
2026-01-02 08:35:24.05	62.71	24.91	-42.6	-45.4	17.2	0.00e+00	0	42	0	471859200	56	5096
2026-01-02 08:35:27.04	61.84	24.98	-43.0	-46.0	16.7	0.00e+00	0	42	0	477102080	57	5107
2026-01-02 08:35:30.04	60.97	25.06	-43.0	-46.0	16.7	0.00e+00	0	42	0	482344960	57	5101
2026-01-02 08:35:33.04	60.09	25.12	-42.8	-45.7	17.0	0.00e+00	0	42	0	488636416	57	4957
2026-01-02 08:35:36.05	59.21	25.18	-42.6	-45.4	17.2	0.00e+00	0	42	0	493879296	56	5083
2026-01-02 08:35:39.05	58.33	25.23	-43.3	-46.5	16.2	0.00e+00	0	42	0	500170752	57	5422
2026-01-02 08:35:42.06	57.44	25.27	-43.2	-46.3	16.4	0.00e+00	0	42	0	505413632	57	5285
2026-01-02 08:35:45.06	56.56	25.31	-42.6	-45.4	17.2	0.00e+00	0	42	0	510656512	57	4790
2026-01-02 08:35:48.06	55.67	25.34	-42.1	-44.8	17.9	0.00e+00	0	42	0	516947968	56	4714
2026-01-02 08:35:51.07	54.78	25.36	-42.7	-45.6	17.1	0.00e+00	0	42	0	522190848	56	5165
2026-01-02 08:35:54.08	53.88	25.37	-43.2	-46.4	16.3	0.00e+00	0	42	0	527433728	57	5360
2026-01-02 08:35:57.09	52.99	25.38	-43.0	-46.0	16.6	0.00e+00	0	42	0	533725184	57	5129
2026-01-02 08:36:00.09	52.10	25.38	-42.4	-45.2	17.4	0.00e+00	0	42	0	538968064	56	4964
2026-01-02 08:36:03.10	51.20	25.37	-41.4	-43.9	18.5	0.00e+00	0	42	0	545259520	54	4763
2026-01-02 08:36:06.09	50.32	25.35	-41.5	-43.9	18.5	0.00e+00	0	42	0	550502400	54	4807
2026-01-02 08:36:09.10	49.42	25.32	-41.5	-44.1	18.4	0.00e+00	0	42	0	555745280	54	4871
2026-01-02 08:36:12.11	48.53	25.29	-40.9	-43.3	19.1	0.00e+00	0	42	0	562036736	54	4451
2026-01-02 08:36:15.11	47.65	25.25	-40.3	-42.5	19.8	0.00e+00	0	42	0	567279616	52	4569
2026-01-02 08:36:18.11	46.77	25.20	-40.3	-42.4	19.7	0.00e+00	0	42	0	572522496	52	4537
2026-01-02 08:36:21.11	45.89	25.15	-40.5	-42.7	19.6	0.00e+00	0	42	0	578813952	52	4695
2026-01-02 08:36:24.12	45.01	25.09	-40.8	-43.1	19.3	0.00e+00	0	42	0	584056832	52	4898
2026-01-02 08:36:27.13	44.13	25.02	-41.5	-43.9	18.6	0.00e+00	0	42	0	590348288	53	5049
2026-01-02 08:36:30.13	43.26	24.94	-41.2	-43.5	18.9	0.00e+00	0	42	0	595591168	53	4870
2026-01-02 08:36:33.14	42.40	24.86	-41.6	-44.0	18.5	0.00e+00	0	42	0	600834048	53	5156
2026-01-02 08:36:36.14	41.54	24.77	-41.8	-44.3	18.3	0.00e+00	0	42	0	607125504	54	4984
2026-01-02 08:36:39.15	40.68	24.68	-42.6	-45.3	17.3	0.00e+00	0	42	0	612368384	55	5295
2026-01-02 08:36:42.15	39.83	24.57	-41.8	-44.2	18.3	0.00e+00	0	43	0	617611264	55	4704
2026-01-02 08:36:45.16	38.98	24.46	-42.2	-44.9	17.7	0.00e+00	0	42	0	623902720	55	5060
2026-01-02 08:36:48.16	38.15	24.35	-42.8	-45.6	17.1	0.00e+00	0	42	0	629145600	56	5196
2026-01-02 08:36:51.17	37.31	24.23	-42.9	-45.7	17.1	0.00e+00	0	42	0	635437056	57	4930
2026-01-02 08:36:54.17	36.49	24.10	-43.2	-46.3	16.5	0.00e+00	0	42	0	640679936	57	5288
2026-01-02 08:36:57.19	35.67	23.97	-42.7	-45.5	17.2	0.00e+00	0	42	0	645922816	57	4848
2026-01-02 08:37:00.19	34.86	23.83	-42.6	-45.4	17.2	0.00e+00	0	42	0	652214272	56	5091
2026-01-02 08:37:03.20	34.05	23.68	-43.2	-46.3	16.5	0.00e+00	0	43	0	657457152	57	5285
2026-01-02 08:37:06.21	33.26	23.53	-42.8	-45.8	16.9	0.00e+00	0	42	0	662700032	57	5000
2026-01-02 08:37:09.21	32.47	23.38	-42.4	-45.2	17.5	0.00e+00	0	42	0	668991488	56	4933
2026-01-02 08:37:12.21	31.69	23.22	-42.6	-45.5	17.2	0.00e+00	0	42	0	674234368	56	5138
2026-01-02 08:37:15.22	30.92	23.06	-43.5	-46.8	16.0	0.00e+00	0	42	0	680525824	57	5598
2026-01-02 08:37:18.22	30.15	22.89	-42.8	-45.7	17.0	0.00e+00	0	42	0	685768704	57	4952
2026-01-02 08:37:21.22	29.40	22.72	-42.8	-45.7	17.0	0.00e+00	0	42	0	691011584	56	5221
2026-01-02 08:37:24.23	28.65	22.54	-43.3	-46.5	16.1	0.00e+00	0	42	0	697303040	57	5463
2026-01-02 08:37:27.24	27.91	22.36	-43.5	-46.9	15.9	0.00e+00	0	42	0	702545920	58	5350
2026-01-02 08:37:30.24	27.18	22.18	-42.4	-45.2	17.2	0.00e+00	0	42	0	707788800	56	4980
2026-01-02 08:37:33.25	26.46	21.99	-41.7	-44.3	18.2	0.00e+00	0	42	0	714080256	55	4729
2026-01-02 08:37:36.25	25.75	21.80	-42.3	-45.3	17.2	0.00e+00	0	42	0	719323136	55	5295
2026-01-02 08:37:39.26	25.05	21.60	-42.1	-45.0	17.4	0.00e+00	0	42	0	725614592	55	5141
2026-01-02 08:37:42.26	24.35	21.41	-41.4	-44.1	18.3	0.00e+00	0	42	0	730857472	54	4879
2026-01-02 08:37:45.27	23.67	21.21	-40.8	-43.3	19.1	0.00e+00	0	43	0	736100352	53	4742
2026-01-02 08:37:48.27	22.99	21.00	-41.3	-43.9	18.5	0.00e+00	0	42	0	742391808	53	5056
2026-01-02 08:37:51.27	22.33	20.80	-41.5	-44.1	18.3	0.00e+00	0	42	0	747634688	53	5166
2026-01-02 08:37:54.28	21.67	20.59	-41.7	-44.4	18.0	0.00e+00	0	42	0	752877568	54	5048
2026-01-02 08:37:57.27	21.02	20.38	-41.3	-43.8	18.6	0.00e+00	0	42	0	759169024	54	4748
2026-01-02 08:38:00.27	20.38	20.17	-41.7	-44.4	18.0	0.00e+00	0	43	0	764411904	54	5059
2026-01-02 08:38:03.28	19.75	19.96	-41.8	-44.6	17.9	0.00e+00	0	42	0	769654784	54	5170
2026-01-02 08:38:06.29	19.13	19.74	-41.9	-44.6	17.8	0.00e+00	0	42	0	775946240	54	5212
2026-01-02 08:38:09.30	18.51	19.52	-42.3	-45.2	17.3	0.00e+00	0	42	0	781189120	55	5226
2026-01-02 08:38:12.30	17.91	19.30	-41.4	-44.0	18.5	0.00e+00	0	42	0	787480576	54	4841
2026-01-02 08:38:15.30	17.32	19.09	-41.9	-44.6	17.9	0.00e+00	0	42	0	792723456	54	5176
2026-01-02 08:38:18.31	16.73	18.86	-41.8	-44.4	18.1	0.00e+00	0	42	0	797966336	54	5069
2026-01-02 08:38:21.31	16.15	18.64	-41.1	-43.5	18.9	0.00e+00	0	42	0	804257792	54	4557
2026-01-02 08:38:24.32	15.58	18.42	-40.8	-43.1	19.2	0.00e+00	0	43	0	809500672	53	4627
2026-01-02 08:38:27.32	15.02	18.19	-41.1	-43.5	19.0	0.00e+00	0	42	0	814743552	53	4818
2026-01-02 08:38:30.33	14.47	17.97	-41.6	-44.3	18.2	0.00e+00	0	42	0	821035008	54	5005
2026-01-02 08:38:33.33	13.92	17.74	-40.9	-43.5	18.9	0.00e+00	0	43	0	826277888	53	4868
2026-01-02 08:38:36.33	13.39	17.52	-40.8	-43.3	19.1	0.00e+00	0	42	0	832569344	53	4744
2026-01-02 08:38:39.33	12.86	17.29	-41.2	-43.8	18.7	0.00e+00	0	42	0	837812224	53	4987
2026-01-02 08:38:42.34	12.34	17.06	-41.2	-43.9	18.5	0.00e+00	0	42	0	843055104	53	5088
2026-01-02 08:38:45.35	11.82	16.84	-41.5	-44.3	18.1	0.00e+00	0	42	0	849346560	53	5312
2026-01-02 08:38:48.36	11.32	16.61	-40.9	-43.4	19.1	0.00e+00	0	42	0	854589440	53	4760
2026-01-02 08:38:51.36	10.82	16.38	-40.7	-43.2	19.2	0.00e+00	0	42	0	859832320	53	4665
2026-01-02 08:38:54.36	10.33	16.15	-41.4	-44.2	18.3	0.00e+00	0	43	0	866123776	53	5220
2026-01-02 08:38:57.36	9.85	15.93	-41.8	-44.8	17.7	0.00e+00	0	43	0	871366656	54	5319
2026-01-02 08:39:00.37	9.38	15.70	-41.5	-44.2	18.2	0.00e+00	0	43	0	877658112	54	4981
2026-01-02 08:39:03.37	8.91	15.47	-41.5	-44.1	18.3	0.00e+00	0	42	0	882900992	54	4919
2026-01-02 08:39:06.37	8.45	15.25	-41.5	-44.2	18.2	0.00e+00	0	42	0	888143872	54	4966
2026-01-02 08:39:09.37	8.00	15.02	-41.5	-44.2	18.3	0.00e+00	0	42	0	894435328	54	4934
2026-01-02 08:39:12.38	7.56	14.79	-42.4	-45.3	17.2	0.00e+00	0	42	0	899678208	55	5334
2026-01-02 08:39:15.39	7.12	14.57	-42.7	-46.0	16.7	0.00e+00	0	42	0	904921088	56	5409
2026-01-02 08:39:18.39	6.69	14.34	-42.3	-45.4	17.3	0.00e+00	0	42	0	911212544	56	5060
2026-01-02 08:39:21.39	6.26	14.12	-41.5	-44.2	18.2	0.00e+00	0	42	0	916455424	54	4981
2026-01-02 08:39:24.40	5.84	13.89	-41.4	-44.2	18.3	0.00e+00	0	42	0	922746880	54	4951
2026-01-02 08:39:27.40	5.43	13.67	-41.6	-44.5	17.9	0.00e+00	0	43	0	927989760	54	5133
2026-01-02 08:39:30.40	5.02	13.44	-41.6	-44.5	17.9	0.00e+00	0	42	0	933232640	54	5128
2026-01-02 08:39:33.41	4.62	13.22	-41.6	-44.5	17.9	0.00e+00	0	42	0	939524096	54	5144
2026-01-02 08:39:36.45	4.23	13.00	-41.9	-44.8	17.7	0.00e+00	0	42	0	944766976	54	5285
2026-01-02 08:39:39.58	3.82	12.76	-42.0	-44.8	17.5	0.00e+00	0	43	0	951058432	54	5338
2026-01-02 08:39:42.45	3.46	12.55	-42.2	-45.0	17.4	0.00e+00	0	43	0	956301312	55	5108
2026-01-02 08:39:45.61	3.06	12.32	-42.2	-45.4	17.0	0.00e+00	0	42	0	961544192	55	5364
2026-01-02 08:39:48.87	2.66	12.08	-42.6	-46.0	16.5	0.00e+00	0	43	0	967835648	55	5751
2026-01-02 08:39:51.88	2.30	11.87	-42.8	-45.9	16.7	0.00e+00	0	43	0	974127104	56	5375
2026-01-02 08:39:54.88	1.94	11.65	-42.1	-45.4	17.2	0.00e+00	0	43	0	979369984	56	5064
2026-01-02 08:39:57.89	1.59	11.43	-41.8	-45.5	16.9	0.00e+00	0	43	0	984612864	55	5440
2026-01-02 08:40:00.90	1.24	11.21	-42.3	-46.1	16.4	0.00e+00	0	43	0	990904320	55	5818
2026-01-02 08:40:03.91	0.90	11.00	-42.9	-46.6	16.0	0.00e+00	0	43	0	996147200	56	5854
2026-01-02 08:40:06.91	0.56	10.79	-43.2	-46.7	15.9	0.00e+00	0	42	0	1002438656	57	5553
2026-01-02 08:40:09.92	0.23	10.57	-43.0	-46.2	16.4	0.00e+00	0	43	0	1007681536	57	5229
2026-01-02 08:40:12.94	359.90	10.36	-42.7	-45.6	16.9	0.00e+00	0	43	0	1012924416	57	4898
2026-01-02 08:40:15.95	359.58	10.15	-42.8	-45.9	16.7	0.00e+00	0	43	0	1019215872	57	5055
2026-01-02 08:40:18.96	359.26	9.94	-43.3	-46.5	16.1	0.00e+00	0	42	0	1024458752	57	5445
2026-01-02 08:40:21.97	358.95	9.73	-43.8	-47.4	15.2	0.00e+00	0	42	0	1029701632	58	5689
2026-01-02 08:40:24.98	358.64	9.52	-43.7	-48.2	14.4	7.00e-07	0	42	0	1035993088	58	6233
2026-01-02 08:40:27.99	358.33	9.31	-43.0	-48.5	14.1	1.50e-06	0	43	0	1041235968	58	6454
2026-01-02 08:40:30.99	358.03	9.10	-42.9	-48.8	13.7	6.80e-06	0	43	0	1047527424	57	7098
2026-01-02 08:40:34.00	357.74	8.90	-47.8	-63.8	3.9	1.49e+00	0	42	104	1050673152	66	23842
2026-01-02 08:40:37.01	357.45	8.69	-49.0	-64.4	3.8	1.49e+00	0	43	104	1050673152	68	22595
2026-01-02 08:40:40.03	357.16	8.49	-49.0	-64.5	3.8	1.49e+00	0	43	104	1050673152	69	21558
2026-01-02 08:40:43.04	356.88	8.28	-48.5	-64.6	3.8	1.49e+00	0	43	104	1050673152	68	23056
2026-01-02 08:40:46.05	356.60	8.08	-49.2	-64.5	3.8	1.49e+00	0	43	104	1050673152	69	21749
2026-01-02 08:40:49.07	356.32	7.88	-49.3	-64.5	3.8	1.49e+00	0	43	104	1050673152	69	21736
2026-01-02 08:40:52.08	356.05	7.68	-49.3	-64.5	3.8	1.49e+00	0	43	104	1050673152	69	21699
2026-01-02 08:40:55.09	355.79	7.48	-49.3	-64.5	3.8	1.49e+00	0	43	104	1050673152	69	21683
2026-01-02 08:40:58.11	355.52	7.28	-49.3	-64.5	3.8	1.49e+00	0	42	104	1050673152	69	21662
2026-01-02 08:41:01.15	355.26	7.08	-49.1	-64.5	3.8	1.49e+00	0	43	104	1050673152	69	21713
2026-01-02 08:41:04.21	355.00	6.88	-49.1	-64.5	3.8	1.49e+00	0	43	104	1050673152	69	21632
2026-01-02 08:41:07.23	354.75	6.68	-49.1	-64.5	3.8	1.49e+00	0	42	104	1050673152	69	21585
2026-01-02 08:41:10.24	354.50	6.49	-49.1	-64.5	3.8	1.49e+00	0	43	104	1050673152	69	21536
2026-01-02 08:41:13.25	354.26	6.30	-49.0	-64.5	3.8	1.49e+00	0	43	104	1050673152	69	21561
2026-01-02 08:41:16.27	354.01	6.10	-49.0	-64.5	3.8	1.49e+00	0	43	104	1050673152	69	21520
2026-01-02 08:41:19.28	353.78	5.91	-48.8	-64.4	3.8	1.49e+00	0	43	104	1050673152	69	21266
2026-01-02 08:41:22.29	353.54	5.72	-48.8	-64.4	3.8	1.49e+00	0	43	104	1050673152	69	21390
2026-01-02 08:41:25.30	353.31	5.53	-48.9	-64.4	3.8	1.49e+00	0	43	104	1050673152	69	21355
2026-01-02 08:41:28.32	353.08	5.34	-49.0	-64.4	3.8	1.49e+00	0	43	104	1050673152	69	21375
2026-01-02 08:41:31.33	352.85	5.15	-49.0	-64.4	3.8	1.49e+00	0	43	104	1050673152	69	21501
2026-01-02 08:41:34.34	352.63	4.97	-49.1	-64.4	3.8	1.49e+00	0	43	104	1050673152	69	21496

#Closed at: 2026-01-02 08:41:35
#Recorded file [1050 MB]: D:/Data/31040_260102_113023.dat