passes_logs/2026/01/02/T1/T1__20260102_111055_FENGYUN_3D_rec.log

#Pass ID: 20260102_111055_FENGYUN 3D
#Satellite: FENGYUN 3D
#Configuration: FENGYUN 3D
#almurnet v.1.7.20251203
#Start time: 2026-01-02 11:10:56

#Version: 2.0.20230620
#Station: T1
#Location: 37.570604 lon 55.790049 lat
#TLE: 1 43010U 17072A   26001.33100487  .00000602  00000+0  30664-3 0  9999
#TLE: 2 43010  98.9910 332.9374 0001848 133.1047 227.0283 14.19692078421319

#Time	Az	El	Level	Level2	SNR	BER	BlckErr	Temp	State	Recorded	gain1	gain2
2026-01-02 11:10:56.49	136.18	5.05	-49.0	-61.2	3.8	8.47e-01	0	36	0	0	70	13965
2026-01-02 11:10:59.50	136.06	5.26	-49.0	-61.2	3.8	8.47e-01	0	37	104	0	70	13908
2026-01-02 11:11:02.51	135.94	5.47	-49.0	-61.2	3.8	8.46e-01	0	37	104	0	70	13998
2026-01-02 11:11:05.53	135.82	5.68	-49.0	-61.2	3.8	8.46e-01	0	37	104	0	70	14044
2026-01-02 11:11:08.54	135.70	5.90	-48.9	-60.6	3.8	8.47e-01	0	37	104	0	69	13812
2026-01-02 11:11:11.55	135.57	6.11	-48.8	-59.3	3.8	8.46e-01	0	37	104	0	69	11868
2026-01-02 11:11:14.57	135.44	6.33	-48.6	-58.4	3.9	8.43e-01	0	38	104	0	69	10748
2026-01-02 11:11:17.58	135.31	6.55	-48.6	-58.4	4.0	8.44e-01	0	37	104	0	69	10739
2026-01-02 11:11:20.59	135.18	6.77	-48.8	-59.4	3.8	8.47e-01	0	38	104	0	69	11987
2026-01-02 11:11:23.60	135.05	7.00	-48.7	-58.9	3.8	8.45e-01	0	37	104	0	69	11388
2026-01-02 11:11:26.62	134.91	7.22	-48.4	-57.0	4.4	8.31e-01	0	38	0	0	68	9617
2026-01-02 11:11:29.63	134.78	7.45	-47.0	-52.4	7.3	2.35e-01	0	38	0	6291456	66	6380
2026-01-02 11:11:32.64	134.64	7.68	-44.8	-48.2	11.7	1.63e-03	0	38	0	24117248	61	5244
2026-01-02 11:11:35.65	134.49	7.91	-42.5	-45.1	14.8	0.00e+00	0	38	0	40894464	57	4622
2026-01-02 11:11:38.67	134.35	8.14	-40.9	-43.1	16.5	0.00e+00	0	38	0	57671680	53	4636
2026-01-02 11:11:41.68	134.20	8.38	-41.0	-43.3	16.4	0.00e+00	0	38	0	74448896	53	4731
2026-01-02 11:11:44.69	134.05	8.61	-43.0	-45.7	14.3	0.00e+00	0	38	0	91226112	56	5221
2026-01-02 11:11:47.70	133.90	8.85	-46.2	-50.6	9.2	1.80e-02	0	38	0	108003328	63	6186
2026-01-02 11:11:50.71	133.74	9.09	-46.7	-51.6	8.1	4.68e-01	0	38	0	119537664	65	6173
2026-01-02 11:11:53.72	133.58	9.34	-44.7	-48.0	11.9	6.40e-01	0	38	0	127926272	61	5136
2026-01-02 11:11:56.73	133.42	9.58	-43.7	-46.6	13.4	1.13e-04	0	38	0	135266304	59	4892
2026-01-02 11:11:59.74	133.26	9.83	-42.9	-45.5	14.6	0.00e+00	0	38	0	153092096	57	4820
2026-01-02 11:12:02.74	133.09	10.08	-42.5	-45.0	15.1	0.00e+00	0	38	0	169869312	56	4831
2026-01-02 11:12:05.75	132.92	10.33	-40.7	-43.0	16.9	0.00e+00	0	39	0	186646528	53	4555
2026-01-02 11:12:08.76	132.75	10.59	-40.3	-42.4	17.4	0.00e+00	0	38	0	203423744	52	4530
2026-01-02 11:12:11.77	132.58	10.84	-39.7	-41.7	18.1	0.00e+00	0	39	0	220200960	51	4433
2026-01-02 11:12:14.78	132.40	11.10	-39.5	-41.5	18.3	0.00e+00	0	38	0	236978176	51	4335
2026-01-02 11:12:17.78	132.22	11.36	-39.4	-41.5	18.4	0.00e+00	0	39	0	253755392	50	4574
2026-01-02 11:12:20.79	132.03	11.63	-39.3	-41.4	18.5	0.00e+00	0	38	0	270532608	50	4514
2026-01-02 11:12:23.80	131.84	11.89	-39.1	-41.1	18.7	0.00e+00	0	39	0	288358400	50	4389
2026-01-02 11:12:26.81	131.65	12.16	-38.9	-40.9	18.9	0.00e+00	0	39	0	305135616	49	4539
2026-01-02 11:12:29.82	131.45	12.44	-38.9	-40.9	19.0	0.00e+00	0	39	0	321912832	49	4495
2026-01-02 11:12:32.83	131.25	12.71	-38.7	-40.6	19.2	0.00e+00	0	39	0	338690048	49	4379
2026-01-02 11:12:35.83	131.05	12.99	-38.6	-40.6	19.4	0.00e+00	0	39	0	355467264	49	4342
2026-01-02 11:12:38.84	130.84	13.27	-38.5	-40.4	19.4	0.00e+00	0	39	0	372244480	49	4281
2026-01-02 11:12:41.85	130.63	13.55	-38.7	-40.6	19.2	0.00e+00	0	39	0	390070272	48	4647
2026-01-02 11:12:44.86	130.41	13.84	-38.4	-40.3	19.6	0.00e+00	0	39	0	406847488	48	4477
2026-01-02 11:12:47.87	130.19	14.13	-38.4	-40.3	19.5	0.00e+00	0	39	0	423624704	48	4479
2026-01-02 11:12:50.88	129.96	14.42	-38.3	-40.2	19.7	0.00e+00	0	39	0	440401920	48	4415
2026-01-02 11:12:53.89	129.73	14.71	-38.1	-40.0	19.8	0.00e+00	0	39	0	457179136	48	4315
2026-01-02 11:12:56.90	129.50	15.01	-38.0	-39.9	20.0	0.00e+00	0	39	0	473956352	48	4261
2026-01-02 11:12:59.91	129.26	15.31	-37.8	-39.7	19.9	0.00e+00	0	39	0	490733568	47	4405
2026-01-02 11:13:02.91	129.01	15.62	-37.8	-39.7	19.9	0.00e+00	0	39	0	508559360	47	4422
2026-01-02 11:13:05.92	128.76	15.93	-37.6	-39.5	20.1	0.00e+00	0	39	0	525336576	47	4333
2026-01-02 11:13:08.93	128.51	16.24	-37.6	-39.5	20.1	0.00e+00	0	39	0	542113792	47	4311
2026-01-02 11:13:11.94	128.25	16.55	-37.5	-39.4	20.3	0.00e+00	0	39	0	558891008	47	4245
2026-01-02 11:13:14.94	127.98	16.87	-37.3	-39.2	20.4	0.00e+00	0	39	0	575668224	46	4416
2026-01-02 11:13:17.95	127.71	17.19	-37.3	-39.2	20.4	0.00e+00	0	39	0	592445440	46	4394
2026-01-02 11:13:20.96	127.43	17.52	-37.4	-39.3	20.3	0.00e+00	0	39	0	609222656	46	4467
2026-01-02 11:13:23.97	127.14	17.85	-37.3	-39.2	20.4	0.00e+00	0	39	0	627048448	46	4397
2026-01-02 11:13:26.98	126.85	18.18	-37.2	-39.1	20.5	0.00e+00	0	39	0	643825664	46	4371
2026-01-02 11:13:29.99	126.55	18.52	-37.1	-38.9	20.6	0.00e+00	0	39	0	660602880	46	4284
2026-01-02 11:13:32.99	126.25	18.86	-36.9	-38.7	20.8	0.00e+00	0	39	0	677380096	45	4428
2026-01-02 11:13:36.00	125.94	19.20	-36.7	-38.5	21.0	0.00e+00	0	39	0	694157312	45	4316
2026-01-02 11:13:39.01	125.62	19.55	-36.7	-38.5	21.0	0.00e+00	0	39	0	710934528	45	4333
2026-01-02 11:13:42.02	125.29	19.90	-36.7	-38.5	21.0	0.00e+00	0	39	0	727711744	45	4337
2026-01-02 11:13:45.03	124.96	20.26	-36.7	-38.6	21.0	0.00e+00	0	39	0	744488960	45	4360
2026-01-02 11:13:48.04	124.61	20.62	-36.7	-38.6	21.0	0.00e+00	0	39	0	762314752	45	4352
2026-01-02 11:13:51.05	124.26	20.98	-36.6	-38.4	21.1	0.00e+00	0	39	0	779091968	45	4282
2026-01-02 11:13:54.06	123.90	21.35	-36.6	-38.4	21.1	0.00e+00	0	39	0	795869184	44	4518
2026-01-02 11:13:57.08	123.53	21.72	-36.5	-38.3	21.3	0.00e+00	0	39	0	812646400	44	4453
2026-01-02 11:14:00.08	123.16	22.10	-36.6	-38.5	21.0	0.00e+00	0	39	0	829423616	44	4567
2026-01-02 11:14:03.09	122.77	22.48	-36.5	-38.3	21.2	0.00e+00	0	39	0	847249408	44	4485
2026-01-02 11:14:06.10	122.37	22.87	-36.4	-38.2	21.3	0.00e+00	0	39	0	864026624	44	4415
2026-01-02 11:14:09.10	121.97	23.25	-36.1	-37.9	21.6	0.00e+00	0	39	0	880803840	44	4245
2026-01-02 11:14:12.12	121.55	23.65	-36.0	-37.7	21.7	0.00e+00	0	39	0	897581056	44	4191
2026-01-02 11:14:15.13	121.12	24.05	-35.9	-37.6	21.7	0.00e+00	0	39	0	914358272	43	4387
2026-01-02 11:14:18.13	120.68	24.45	-36.0	-37.8	21.6	0.00e+00	0	39	0	931135488	43	4446
2026-01-02 11:14:21.14	120.23	24.86	-35.9	-37.7	21.7	0.00e+00	0	39	0	947912704	43	4395
2026-01-02 11:14:24.16	119.76	25.27	-35.6	-37.4	21.9	0.00e+00	0	39	0	964689920	43	4256
2026-01-02 11:14:27.16	119.29	25.68	-35.6	-37.4	21.8	0.00e+00	0	39	0	982515712	43	4279
2026-01-02 11:14:30.17	118.80	26.11	-35.6	-37.3	21.9	0.00e+00	0	39	0	999292928	43	4239
2026-01-02 11:14:33.18	118.30	26.53	-35.7	-37.5	21.8	0.00e+00	0	39	0	1016070144	43	4299
2026-01-02 11:14:36.19	117.78	26.96	-35.7	-37.5	21.8	0.00e+00	0	39	0	1032847360	42	4554
2026-01-02 11:14:39.20	117.25	27.39	-35.3	-37.1	22.1	0.00e+00	0	39	0	1049624576	42	4371
2026-01-02 11:14:42.21	116.71	27.83	-35.4	-37.1	22.1	0.00e+00	0	39	0	1066401792	42	4388
2026-01-02 11:14:45.22	116.15	28.27	-35.2	-37.0	22.2	0.00e+00	0	39	0	1083179008	42	4322
2026-01-02 11:14:48.23	115.57	28.71	-35.3	-37.1	22.2	0.00e+00	0	39	0	1099956224	42	4360
2026-01-02 11:14:51.24	114.98	29.16	-35.6	-37.4	21.9	0.00e+00	0	39	0	1117782016	42	4524
2026-01-02 11:14:54.25	114.37	29.61	-35.6	-37.4	21.9	0.00e+00	0	39	0	1134559232	42	4520
2026-01-02 11:14:57.26	113.74	30.07	-35.2	-36.9	22.4	0.00e+00	0	39	0	1151336448	42	4266
2026-01-02 11:15:00.26	113.10	30.53	-35.3	-37.1	22.2	0.00e+00	0	39	0	1168113664	42	4363
2026-01-02 11:15:03.27	112.43	30.99	-35.5	-37.3	22.0	0.00e+00	0	39	0	1184890880	42	4475
2026-01-02 11:15:06.28	111.75	31.45	-35.5	-37.3	22.0	0.00e+00	0	39	0	1201668096	42	4463
2026-01-02 11:15:09.29	111.04	31.92	-35.1	-36.8	22.4	0.00e+00	0	39	0	1218445312	42	4230
2026-01-02 11:15:12.30	110.32	32.39	-35.1	-36.9	22.4	0.00e+00	0	39	0	1236271104	42	4248
2026-01-02 11:15:15.31	109.57	32.86	-35.0	-36.8	22.5	0.00e+00	0	39	0	1253048320	42	4211
2026-01-02 11:15:18.32	108.81	33.34	-35.0	-36.7	22.5	0.00e+00	0	39	0	1269825536	42	4191
2026-01-02 11:15:21.33	108.01	33.81	-35.2	-36.9	22.3	0.00e+00	0	39	0	1286602752	42	4280
2026-01-02 11:15:24.34	107.20	34.29	-35.1	-36.9	22.3	0.00e+00	0	39	0	1303379968	42	4259
2026-01-02 11:15:27.35	106.36	34.76	-35.2	-36.9	22.3	0.00e+00	0	39	0	1320157184	42	4284
2026-01-02 11:15:30.36	105.50	35.24	-35.0	-36.8	22.4	0.00e+00	0	39	0	1337982976	42	4213
2026-01-02 11:15:33.37	104.61	35.72	-35.0	-36.8	22.4	0.00e+00	0	39	0	1354760192	42	4202
2026-01-02 11:15:36.38	103.69	36.19	-35.0	-36.8	22.5	0.00e+00	0	39	0	1371537408	42	4201
2026-01-02 11:15:39.39	102.75	36.66	-35.2	-37.0	22.2	0.00e+00	0	39	0	1388314624	42	4316
2026-01-02 11:15:42.40	101.78	37.13	-35.2	-37.0	22.3	0.00e+00	0	39	0	1405091840	42	4307
2026-01-02 11:15:45.41	100.78	37.60	-35.6	-37.5	21.9	0.00e+00	0	39	0	1421869056	42	4548
2026-01-02 11:15:48.42	99.75	38.07	-35.5	-37.3	22.1	0.00e+00	0	39	0	1438646272	42	4446
2026-01-02 11:15:51.43	98.69	38.52	-35.3	-37.1	22.2	0.00e+00	0	39	0	1456472064	42	4369
2026-01-02 11:15:54.44	97.60	38.98	-35.1	-36.8	22.5	0.00e+00	0	39	0	1473249280	42	4220
2026-01-02 11:15:57.44	96.49	39.42	-35.4	-37.2	22.1	0.00e+00	0	39	0	1490026496	42	4434
2026-01-02 11:16:00.45	95.34	39.87	-34.9	-36.6	22.6	0.00e+00	0	39	0	1506803712	41	4377
2026-01-02 11:16:03.46	94.15	40.30	-34.7	-36.5	22.8	0.00e+00	0	39	0	1523580928	41	4296
2026-01-02 11:16:06.47	92.94	40.72	-34.9	-36.6	22.6	0.00e+00	0	39	0	1540358144	41	4389
2026-01-02 11:16:09.48	91.70	41.13	-35.1	-36.8	22.5	0.00e+00	0	39	0	1557135360	41	4475
2026-01-02 11:16:12.49	90.42	41.54	-35.1	-36.8	22.6	0.00e+00	0	39	0	1573912576	41	4471
2026-01-02 11:16:15.50	89.11	41.93	-35.0	-36.8	22.6	0.00e+00	0	39	0	1591738368	41	4455
2026-01-02 11:16:18.51	87.77	42.30	-34.8	-36.5	22.8	0.00e+00	0	39	0	1608515584	41	4315
2026-01-02 11:16:21.52	86.40	42.67	-34.7	-36.4	22.8	0.00e+00	0	39	0	1625292800	41	4284
2026-01-02 11:16:24.52	85.00	43.01	-34.8	-36.5	22.8	0.00e+00	0	39	0	1642070016	41	4315
2026-01-02 11:16:27.53	83.57	43.34	-35.0	-36.8	22.6	0.00e+00	0	39	0	1658847232	41	4458
2026-01-02 11:16:30.54	82.11	43.65	-34.6	-36.3	23.0	0.00e+00	0	39	0	1675624448	41	4240
2026-01-02 11:16:33.53	80.63	43.95	-34.7	-36.5	22.8	0.00e+00	0	39	0	1693450240	41	4297
2026-01-02 11:16:36.54	79.11	44.22	-35.2	-37.0	22.4	0.00e+00	0	39	0	1710227456	41	4567
2026-01-02 11:16:39.55	77.57	44.47	-35.1	-36.9	22.4	0.00e+00	0	39	0	1727004672	41	4515
2026-01-02 11:16:42.56	76.01	44.70	-35.1	-36.9	22.5	0.00e+00	0	39	0	1743781888	41	4504
2026-01-02 11:16:45.57	74.42	44.91	-35.1	-36.9	22.5	0.00e+00	0	39	0	1760559104	41	4515
2026-01-02 11:16:48.58	72.82	45.09	-35.2	-36.9	22.5	0.00e+00	0	39	0	1777336320	41	4514
2026-01-02 11:16:51.59	71.19	45.25	-35.0	-36.7	22.6	0.00e+00	0	39	0	1794113536	41	4440
2026-01-02 11:16:54.60	69.55	45.39	-35.0	-36.8	22.6	0.00e+00	0	39	0	1811939328	41	4444
2026-01-02 11:16:57.61	67.90	45.49	-35.0	-36.7	22.6	0.00e+00	0	39	0	1828716544	41	4432
2026-01-02 11:17:00.63	66.24	45.58	-35.0	-36.7	22.7	0.00e+00	0	39	0	1845493760	41	4408
2026-01-02 11:17:03.64	64.57	45.63	-34.9	-36.6	22.7	0.00e+00	0	39	0	1862270976	41	4362
2026-01-02 11:17:06.64	62.90	45.66	-34.8	-36.5	22.8	0.00e+00	0	39	0	1879048192	41	4308
2026-01-02 11:17:09.65	61.23	45.66	-35.2	-37.0	22.4	0.00e+00	0	39	0	1895825408	41	4560
2026-01-02 11:17:12.66	59.56	45.63	-34.8	-36.5	22.8	0.00e+00	0	39	0	1912602624	41	4336
2026-01-02 11:17:15.67	57.89	45.58	-34.8	-36.5	22.8	0.00e+00	0	39	0	1929379840	41	4330
2026-01-02 11:17:18.67	56.24	45.50	-35.1	-36.8	22.6	0.00e+00	0	39	0	1947205632	41	4474
2026-01-02 11:17:21.68	54.59	45.40	-34.9	-36.7	22.7	0.00e+00	0	39	0	1963982848	41	4407
2026-01-02 11:17:24.70	52.94	45.27	-34.9	-36.6	22.8	0.00e+00	0	39	0	1980760064	41	4366
2026-01-02 11:17:27.71	51.32	45.11	-35.1	-36.9	22.5	0.00e+00	0	39	0	1997537280	41	4503
2026-01-02 11:17:30.72	49.71	44.93	-35.1	-36.8	22.6	0.00e+00	0	39	0	2014314496	41	4458
2026-01-02 11:17:33.72	48.13	44.72	-34.9	-36.6	22.7	0.00e+00	0	39	0	2031091712	41	4385
2026-01-02 11:17:36.73	46.57	44.50	-34.6	-36.3	23.0	0.00e+00	0	39	0	2048917504	41	4221
2026-01-02 11:17:39.74	45.03	44.25	-34.8	-36.5	22.8	0.00e+00	0	39	0	2065694720	41	4335
2026-01-02 11:17:42.75	43.51	43.98	-34.8	-36.6	22.8	0.00e+00	0	39	0	2082471936	41	4341
2026-01-02 11:17:45.76	42.02	43.69	-34.6	-36.3	23.0	0.00e+00	0	39	0	2099249152	41	4211
2026-01-02 11:17:48.77	40.56	43.38	-34.6	-36.3	23.0	0.00e+00	0	39	0	2116026368	41	4226
2026-01-02 11:17:51.78	39.13	43.05	-34.7	-36.5	22.8	0.00e+00	0	39	0	2132803584	41	4293
2026-01-02 11:17:54.79	37.73	42.70	-35.0	-36.7	22.6	0.00e+00	0	39	0	2149580800	41	4410
2026-01-02 11:17:57.80	36.35	42.34	-34.8	-36.6	22.7	0.00e+00	0	39	0	2167406592	41	4347
2026-01-02 11:18:00.80	35.02	41.97	-34.5	-36.3	23.0	0.00e+00	0	39	0	2184183808	41	4198
2026-01-02 11:18:03.81	33.71	41.58	-34.7	-36.4	22.8	0.00e+00	0	39	0	2200961024	41	4270
2026-01-02 11:18:06.82	32.43	41.18	-34.9	-36.6	22.6	0.00e+00	0	39	0	2217738240	41	4381
2026-01-02 11:18:09.83	31.19	40.77	-35.0	-36.7	22.6	0.00e+00	0	39	0	2234515456	41	4415
2026-01-02 11:18:12.84	29.97	40.35	-34.9	-36.6	22.7	0.00e+00	0	39	0	2251292672	41	4366
2026-01-02 11:18:15.85	28.79	39.92	-34.7	-36.4	22.8	0.00e+00	0	39	0	2268069888	41	4285
2026-01-02 11:18:18.85	27.65	39.48	-34.9	-36.6	23.2	0.00e+00	0	39	0	2284847104	41	4372
2026-01-02 11:18:21.87	26.52	39.04	-35.1	-36.8	23.1	0.00e+00	0	39	0	2302672896	41	4446
2026-01-02 11:18:24.88	25.43	38.58	-35.1	-36.7	23.1	0.00e+00	0	39	0	2319450112	41	4423
2026-01-02 11:18:27.89	24.38	38.13	-34.9	-36.5	23.2	0.00e+00	0	39	0	2336227328	41	4340
2026-01-02 11:18:30.90	23.35	37.67	-34.5	-36.2	23.5	0.00e+00	0	39	0	2353004544	41	4168
2026-01-02 11:18:33.91	22.35	37.20	-34.6	-36.2	23.6	0.00e+00	0	39	0	2369781760	41	4168
2026-01-02 11:18:36.92	21.38	36.73	-34.6	-36.3	23.5	0.00e+00	0	39	0	2386558976	41	4213
2026-01-02 11:18:39.93	20.44	36.26	-34.8	-36.4	23.4	0.00e+00	0	39	0	2404384768	41	4274
2026-01-02 11:18:42.94	19.52	35.79	-34.9	-36.5	23.3	0.00e+00	0	39	0	2421161984	41	4322
2026-01-02 11:18:45.95	18.63	35.31	-34.4	-36.1	23.7	0.00e+00	0	39	0	2437939200	40	4341
2026-01-02 11:18:48.96	17.77	34.84	-34.6	-36.2	23.5	0.00e+00	0	39	0	2454716416	40	4435
2026-01-02 11:18:51.96	16.93	34.37	-34.7	-36.3	23.4	0.00e+00	0	39	0	2471493632	40	4477
2026-01-02 11:18:54.97	16.12	33.89	-34.8	-36.5	23.3	0.00e+00	0	39	0	2488270848	40	4548
2026-01-02 11:18:57.98	15.33	33.42	-34.9	-36.5	23.3	0.00e+00	0	39	0	2505048064	40	4588
2026-01-02 11:19:00.99	14.56	32.95	-35.0	-36.7	23.2	0.00e+00	0	39	0	2522873856	40	4652
2026-01-02 11:19:04.00	13.81	32.48	-34.9	-36.5	23.2	0.00e+00	0	39	0	2539651072	40	4594
2026-01-02 11:19:07.01	13.09	32.01	-34.9	-36.5	23.2	0.00e+00	0	39	0	2556428288	40	4594
2026-01-02 11:19:10.02	12.39	31.54	-35.0	-36.7	23.2	0.00e+00	0	39	0	2573205504	40	4654
2026-01-02 11:19:13.03	11.70	31.08	-34.9	-36.5	23.2	0.00e+00	0	39	0	2589982720	40	4597
2026-01-02 11:19:16.04	11.04	30.62	-34.9	-36.5	23.2	0.00e+00	0	39	0	2606759936	40	4594
2026-01-02 11:19:19.05	10.40	30.16	-35.0	-36.6	23.2	0.00e+00	0	39	0	2623537152	40	4633
2026-01-02 11:19:22.06	9.77	29.71	-35.2	-36.9	23.0	0.00e+00	0	39	0	2641362944	41	4497
2026-01-02 11:19:25.07	9.16	29.26	-35.6	-37.3	22.6	0.00e+00	0	39	0	2658140160	41	4716
2026-01-02 11:19:28.08	8.57	28.81	-35.6	-37.3	22.6	0.00e+00	0	39	0	2674917376	42	4467
2026-01-02 11:19:31.09	7.99	28.37	-35.7	-37.4	22.5	0.00e+00	0	39	0	2691694592	42	4524
2026-01-02 11:19:34.10	7.43	27.93	-35.4	-37.0	22.8	0.00e+00	0	39	0	2708471808	42	4322
2026-01-02 11:19:37.11	6.89	27.49	-35.5	-37.1	22.7	0.00e+00	0	39	0	2725249024	42	4383
2026-01-02 11:19:40.12	6.36	27.06	-35.6	-37.3	22.5	0.00e+00	0	39	0	2742026240	42	4482
2026-01-02 11:19:43.13	5.85	26.63	-35.7	-37.4	22.5	0.00e+00	0	39	0	2759852032	42	4509
2026-01-02 11:19:46.14	5.34	26.21	-35.5	-37.2	22.6	0.00e+00	0	39	0	2776629248	42	4428
2026-01-02 11:19:49.15	4.86	25.79	-35.4	-37.1	22.8	0.00e+00	0	39	0	2793406464	42	4346
2026-01-02 11:19:52.16	4.38	25.38	-35.4	-37.1	22.7	0.00e+00	0	39	0	2810183680	42	4374
2026-01-02 11:19:55.17	3.92	24.97	-35.6	-37.3	22.6	0.00e+00	0	39	0	2826960896	42	4448
2026-01-02 11:19:58.18	3.47	24.56	-35.6	-37.3	22.5	0.00e+00	0	39	0	2843738112	42	4452
2026-01-02 11:20:01.19	3.03	24.16	-35.4	-37.1	22.7	0.00e+00	0	39	0	2861563904	42	4375
2026-01-02 11:20:04.20	2.60	23.76	-35.7	-37.4	22.4	0.00e+00	0	39	0	2878341120	42	4533
2026-01-02 11:20:07.21	2.19	23.37	-35.7	-37.5	22.4	0.00e+00	0	39	0	2895118336	42	4554
2026-01-02 11:20:10.22	1.78	22.98	-35.7	-37.4	22.5	0.00e+00	0	39	0	2911895552	42	4518
2026-01-02 11:20:13.22	1.39	22.60	-35.7	-37.5	22.4	0.00e+00	0	39	0	2928672768	42	4562
2026-01-02 11:20:16.23	1.00	22.22	-35.8	-37.5	22.3	0.00e+00	0	39	0	2945449984	42	4597
2026-01-02 11:20:19.25	0.62	21.84	-36.0	-37.7	22.1	0.00e+00	0	39	0	2962227200	42	4694
2026-01-02 11:20:22.25	0.26	21.47	-36.1	-37.8	22.0	0.00e+00	0	39	0	2979004416	42	4746
2026-01-02 11:20:25.26	359.90	21.10	-36.1	-37.8	22.0	0.00e+00	0	39	0	2996830208	42	4728
2026-01-02 11:20:28.27	359.55	20.74	-35.9	-37.6	22.1	0.00e+00	0	39	0	3013607424	43	4381
2026-01-02 11:20:31.28	359.21	20.38	-36.0	-37.7	22.1	0.00e+00	0	39	0	3030384640	43	4420
2026-01-02 11:20:34.29	358.88	20.02	-36.2	-37.9	21.9	0.00e+00	0	39	0	3047161856	43	4539
2026-01-02 11:20:37.30	358.55	19.67	-36.3	-38.1	21.8	0.00e+00	0	39	0	3063939072	43	4618
2026-01-02 11:20:40.31	358.23	19.32	-36.6	-38.3	21.5	0.00e+00	0	39	0	3080716288	43	4756
2026-01-02 11:20:43.31	357.92	18.98	-36.9	-38.7	21.4	0.00e+00	0	39	0	3097493504	44	4688
2026-01-02 11:20:46.32	357.62	18.64	-37.0	-38.9	21.2	0.00e+00	0	39	0	3114270720	44	4791
2026-01-02 11:20:49.33	357.32	18.31	-36.9	-38.8	21.2	0.00e+00	0	39	0	3132096512	44	4738
2026-01-02 11:20:52.34	357.03	17.97	-37.0	-38.8	21.2	0.00e+00	0	39	0	3148873728	44	4743
2026-01-02 11:20:55.35	356.75	17.65	-37.1	-38.9	21.2	0.00e+00	0	39	0	3165650944	44	4778
2026-01-02 11:20:58.36	356.47	17.32	-37.2	-38.9	21.1	0.00e+00	0	39	0	3182428160	45	4530
2026-01-02 11:21:01.37	356.20	17.00	-37.2	-39.0	21.1	0.00e+00	0	39	0	3199205376	45	4567
2026-01-02 11:21:04.38	355.94	16.68	-37.3	-39.1	21.0	0.00e+00	0	39	0	3217031168	45	4613
2026-01-02 11:21:07.39	355.68	16.37	-37.3	-39.2	20.8	0.00e+00	0	39	0	3233808384	45	4677
2026-01-02 11:21:10.39	355.43	16.06	-37.3	-39.3	20.7	0.00e+00	0	39	0	3250585600	45	4736
2026-01-02 11:21:13.40	355.18	15.75	-37.4	-39.4	20.6	0.00e+00	0	39	0	3267362816	45	4790
2026-01-02 11:21:16.41	354.94	15.45	-37.8	-39.7	20.4	0.00e+00	0	39	0	3284140032	46	4705
2026-01-02 11:21:19.42	354.70	15.15	-38.1	-40.1	20.1	0.00e+00	0	39	0	3300917248	46	4875
2026-01-02 11:21:22.43	354.47	14.85	-38.1	-40.1	20.0	0.00e+00	0	39	0	3317694464	46	4890
2026-01-02 11:21:25.44	354.24	14.55	-38.0	-40.1	20.0	0.00e+00	0	39	0	3334471680	47	4617
2026-01-02 11:21:28.44	354.01	14.26	-38.1	-40.1	20.0	0.00e+00	0	39	0	3352297472	47	4625
2026-01-02 11:21:31.46	353.79	13.97	-38.0	-40.0	20.1	0.00e+00	0	39	0	3369074688	47	4552
2026-01-02 11:21:34.47	353.58	13.69	-38.1	-40.0	20.0	0.00e+00	0	39	0	3385851904	47	4574
2026-01-02 11:21:37.48	353.37	13.40	-37.9	-39.9	20.1	0.00e+00	0	39	0	3402629120	47	4532
2026-01-02 11:21:40.49	353.16	13.12	-37.9	-40.1	20.0	0.00e+00	0	39	0	3419406336	47	4605
2026-01-02 11:21:43.49	352.96	12.85	-37.8	-40.1	20.0	0.00e+00	0	39	0	3436183552	47	4612
2026-01-02 11:21:46.50	352.76	12.57	-37.9	-40.2	19.9	0.00e+00	0	39	0	3452960768	47	4675
2026-01-02 11:21:49.51	352.57	12.30	-38.1	-40.4	19.7	0.00e+00	0	39	0	3469737984	47	4779
2026-01-02 11:21:52.52	352.38	12.03	-38.3	-40.5	19.5	0.00e+00	0	39	0	3487563776	47	4862
2026-01-02 11:21:55.53	352.19	11.77	-38.4	-40.5	19.5	0.00e+00	0	39	0	3504340992	47	4864
2026-01-02 11:21:58.54	352.01	11.50	-38.5	-40.6	19.4	0.00e+00	0	39	0	3521118208	47	4898
2026-01-02 11:22:01.54	351.83	11.24	-38.5	-40.6	19.4	0.00e+00	0	39	0	3537895424	47	4919
2026-01-02 11:22:04.55	351.65	10.98	-38.4	-40.7	19.3	0.00e+00	0	39	0	3554672640	47	4969
2026-01-02 11:22:07.56	351.48	10.73	-38.3	-40.7	19.3	0.00e+00	0	39	0	3571449856	47	4928
2026-01-02 11:22:10.57	351.31	10.47	-38.6	-40.9	19.1	0.00e+00	0	39	0	3588227072	47	5066
2026-01-02 11:22:13.58	351.14	10.22	-38.8	-40.8	19.4	0.00e+00	0	39	0	3606052864	48	4759
2026-01-02 11:22:16.59	350.98	9.97	-38.8	-40.8	19.3	0.00e+00	0	39	0	3622830080	48	4748
2026-01-02 11:22:19.60	350.82	9.73	-38.9	-40.9	19.3	0.00e+00	0	39	0	3639607296	48	4784
2026-01-02 11:22:22.61	350.66	9.48	-38.9	-41.0	19.1	0.00e+00	0	39	0	3656384512	48	4857
2026-01-02 11:22:25.62	350.51	9.24	-38.9	-41.1	19.0	0.00e+00	0	39	0	3673161728	48	4914
2026-01-02 11:22:28.63	350.35	9.00	-41.3	-43.9	16.3	0.00e+00	0	39	0	3689938944	53	5065
2026-01-02 11:22:31.65	350.20	8.76	-47.4	-61.7	3.8	8.47e-01	0	39	104	3692036096	66	18522
2026-01-02 11:22:34.66	350.06	8.52	-49.6	-62.0	3.8	8.46e-01	0	39	104	3692036096	69	16272
2026-01-02 11:22:37.67	349.91	8.29	-49.3	-62.1	3.8	8.47e-01	0	39	104	3692036096	70	15404
2026-01-02 11:22:40.68	349.77	8.05	-49.6	-62.1	3.8	8.47e-01	0	39	104	3692036096	70	15469
2026-01-02 11:22:43.70	349.63	7.82	-49.8	-62.1	3.8	8.48e-01	0	39	104	3692036096	70	15485
2026-01-02 11:22:46.71	349.49	7.59	-49.9	-62.1	3.8	8.47e-01	0	39	104	3692036096	70	15534
2026-01-02 11:22:49.72	349.36	7.37	-49.9	-62.1	3.8	8.48e-01	0	39	104	3692036096	70	15502
2026-01-02 11:22:52.74	349.22	7.14	-49.8	-62.1	3.8	8.47e-01	0	39	104	3692036096	70	15463
2026-01-02 11:22:55.75	349.09	6.92	-49.8	-62.1	3.8	8.46e-01	0	39	104	3692036096	70	15428
2026-01-02 11:22:58.76	348.97	6.70	-49.7	-62.0	3.8	8.46e-01	0	39	104	3692036096	70	15363
2026-01-02 11:23:01.78	348.84	6.48	-49.6	-62.0	3.8	8.46e-01	0	39	104	3692036096	70	15357
2026-01-02 11:23:04.79	348.72	6.26	-49.7	-62.0	3.8	8.47e-01	0	40	104	3692036096	70	15393
2026-01-02 11:23:07.80	348.59	6.04	-49.7	-62.0	3.8	8.46e-01	0	40	104	3692036096	70	15348
2026-01-02 11:23:10.81	348.47	5.83	-49.6	-62.0	3.8	8.46e-01	0	39	104	3692036096	70	15312
2026-01-02 11:23:13.83	348.35	5.62	-49.6	-62.0	3.8	8.47e-01	0	39	104	3692036096	70	15293
2026-01-02 11:23:16.84	348.24	5.40	-49.6	-62.0	3.8	8.46e-01	0	39	104	3692036096	70	15301
2026-01-02 11:23:19.85	348.12	5.19	-49.6	-62.0	3.8	8.48e-01	0	39	104	3692036096	70	15290
2026-01-02 11:23:22.87	348.01	4.99	-49.6	-62.0	3.8	8.46e-01	0	39	104	3692036096	70	15274

#Closed at: 2026-01-02 11:23:23
#Recorded file [3692 MB]: D:/Data/31040_260102_141056.dat