passes_logs/2026/01/02/T1/T1__20260102_125114_FENGYUN_3D_rec.log

#Pass ID: 20260102_125114_FENGYUN 3D
#Satellite: FENGYUN 3D
#Configuration: FENGYUN 3D
#almurnet v.1.7.20251203
#Start time: 2026-01-02 12:51:16

#Version: 2.0.20230620
#Station: T1
#Location: 37.570604 lon 55.790049 lat
#TLE: 1 43010U 17072A   26001.96529979  .00000409  00000+0  21503-3 0  9996
#TLE: 2 43010  98.9910 333.5811 0001886 133.0441 227.0893 14.19692048421405

#Time	Az	El	Level	Level2	SNR	BER	BlckErr	Temp	State	Recorded	gain1	gain2
2026-01-02 12:51:16.10	189.11	5.10	-47.3	-60.1	3.8	8.48e-01	0	40	0	0	66	15465
2026-01-02 12:51:19.11	189.26	5.30	-47.2	-59.2	3.8	8.46e-01	0	41	104	0	65	14863
2026-01-02 12:51:22.12	189.42	5.51	-47.2	-59.5	3.8	8.46e-01	0	41	104	0	65	15262
2026-01-02 12:51:25.13	189.59	5.72	-47.2	-59.9	3.8	8.46e-01	0	41	104	0	65	16070
2026-01-02 12:51:28.15	189.75	5.93	-47.2	-59.7	3.8	8.46e-01	0	41	104	0	65	15628
2026-01-02 12:51:31.16	189.92	6.14	-47.2	-59.2	3.8	8.46e-01	0	41	104	0	65	14821
2026-01-02 12:51:34.17	190.09	6.35	-47.2	-59.4	3.8	8.46e-01	0	41	104	0	65	15124
2026-01-02 12:51:37.19	190.26	6.56	-47.3	-60.1	3.8	8.46e-01	0	41	104	0	65	16366
2026-01-02 12:51:40.20	190.44	6.78	-47.1	-58.5	3.8	8.48e-01	0	41	104	0	65	13645
2026-01-02 12:51:43.21	190.62	7.00	-46.6	-55.0	4.8	8.04e-01	0	42	0	0	65	9159
2026-01-02 12:51:46.23	190.80	7.21	-46.6	-55.4	4.6	8.02e-01	0	42	0	0	65	9502
2026-01-02 12:51:49.24	190.98	7.43	-47.0	-57.5	4.0	8.46e-01	0	42	104	0	65	12151
2026-01-02 12:51:52.26	191.17	7.66	-44.0	-47.9	11.0	6.94e-03	0	42	0	10485760	60	5391
2026-01-02 12:51:55.27	191.35	7.88	-40.1	-42.5	16.4	0.00e+00	0	42	0	27262976	52	4556
2026-01-02 12:51:58.28	191.54	8.11	-38.5	-40.6	18.3	0.00e+00	0	42	0	44040192	48	4610
2026-01-02 12:52:01.29	191.74	8.33	-38.8	-40.9	17.9	0.00e+00	0	42	0	60817408	48	4790
2026-01-02 12:52:04.31	191.93	8.56	-40.6	-43.1	15.9	0.00e+00	0	42	0	77594624	51	5182
2026-01-02 12:52:07.32	192.13	8.79	-43.0	-46.4	12.7	6.75e-05	0	42	0	94371840	56	5661
2026-01-02 12:52:10.33	192.34	9.02	-44.3	-48.6	10.4	1.34e-02	0	42	0	111149056	60	5790
2026-01-02 12:52:13.34	192.54	9.26	-45.5	-51.0	7.8	1.61e-01	0	42	0	127926272	62	6877
2026-01-02 12:52:16.35	192.75	9.49	-41.6	-44.4	14.6	0.00e+00	0	42	0	145752064	55	4781
2026-01-02 12:52:19.36	192.96	9.73	-40.8	-43.2	15.8	0.00e+00	0	42	0	162529280	53	4700
2026-01-02 12:52:22.37	193.18	9.97	-40.2	-42.5	16.5	0.00e+00	0	42	0	179306496	52	4570
2026-01-02 12:52:25.38	193.39	10.22	-38.5	-40.6	18.4	0.00e+00	0	42	0	196083712	49	4369
2026-01-02 12:52:28.39	193.62	10.46	-37.9	-39.9	18.9	0.00e+00	0	43	0	212860928	47	4512
2026-01-02 12:52:31.40	193.84	10.71	-37.9	-40.0	18.8	0.00e+00	0	43	0	230686720	47	4551
2026-01-02 12:52:34.41	194.07	10.95	-37.8	-39.8	18.9	0.00e+00	0	43	0	247463936	47	4461
2026-01-02 12:52:37.42	194.30	11.20	-37.7	-39.7	19.0	0.00e+00	0	43	0	264241152	47	4402
2026-01-02 12:52:40.42	194.54	11.46	-37.6	-39.6	19.1	0.00e+00	0	43	0	281018368	47	4382
2026-01-02 12:52:43.44	194.78	11.71	-37.7	-39.7	19.1	0.00e+00	0	43	0	297795584	47	4402
2026-01-02 12:52:46.45	195.03	11.97	-37.5	-39.5	19.2	0.00e+00	0	43	0	314572800	47	4330
2026-01-02 12:52:49.46	195.28	12.23	-37.5	-39.5	19.3	0.00e+00	0	43	0	331350016	46	4571
2026-01-02 12:52:52.47	195.53	12.49	-37.5	-39.4	19.3	0.00e+00	0	43	0	348127232	46	4544
2026-01-02 12:52:55.48	195.79	12.75	-37.3	-39.3	19.5	0.00e+00	0	43	0	365953024	46	4481
2026-01-02 12:52:58.49	196.05	13.02	-37.3	-39.3	19.5	0.00e+00	0	43	0	382730240	46	4456
2026-01-02 12:53:01.50	196.32	13.29	-37.1	-39.1	19.7	0.00e+00	0	43	0	399507456	46	4342
2026-01-02 12:53:04.51	196.59	13.56	-37.1	-39.1	19.7	0.00e+00	0	43	0	416284672	46	4341
2026-01-02 12:53:07.52	196.86	13.83	-37.1	-39.0	19.7	0.00e+00	0	43	0	433061888	46	4334
2026-01-02 12:53:10.53	197.15	14.11	-36.9	-38.8	19.9	0.00e+00	0	43	0	449839104	45	4476
2026-01-02 12:53:13.54	197.43	14.39	-36.8	-38.7	20.0	0.00e+00	0	43	0	466616320	45	4437
2026-01-02 12:53:16.55	197.72	14.67	-36.8	-38.7	20.0	0.00e+00	0	43	0	484442112	45	4435
2026-01-02 12:53:19.56	198.02	14.95	-36.7	-38.7	20.1	0.00e+00	0	43	0	501219328	45	4396
2026-01-02 12:53:22.57	198.32	15.24	-36.7	-38.7	20.1	0.00e+00	0	43	0	517996544	45	4395
2026-01-02 12:53:25.59	198.63	15.53	-36.5	-38.4	20.3	0.00e+00	0	43	0	534773760	45	4274
2026-01-02 12:53:28.60	198.95	15.82	-36.2	-38.1	20.7	0.00e+00	0	43	0	551550976	44	4358
2026-01-02 12:53:31.61	199.27	16.12	-36.2	-38.0	20.7	0.00e+00	0	43	0	569376768	44	4327
2026-01-02 12:53:34.62	199.59	16.41	-36.3	-38.2	20.6	0.00e+00	0	43	0	586153984	44	4404
2026-01-02 12:53:37.63	199.93	16.71	-36.4	-38.2	20.5	0.00e+00	0	43	0	602931200	44	4435
2026-01-02 12:53:40.64	200.27	17.02	-36.1	-37.9	20.8	0.00e+00	0	43	0	619708416	44	4288
2026-01-02 12:53:43.65	200.61	17.32	-36.1	-37.9	20.8	0.00e+00	0	43	0	636485632	44	4288
2026-01-02 12:53:46.66	200.96	17.63	-35.9	-37.7	20.8	0.00e+00	0	43	0	653262848	43	4436
2026-01-02 12:53:49.67	201.32	17.94	-35.7	-37.5	21.1	0.00e+00	0	43	0	670040064	43	4294
2026-01-02 12:53:52.68	201.69	18.26	-35.5	-37.3	21.2	0.00e+00	0	43	0	686817280	43	4227
2026-01-02 12:53:55.69	202.07	18.57	-35.4	-37.2	21.4	0.00e+00	0	43	0	704643072	42	4397
2026-01-02 12:53:58.70	202.45	18.89	-35.3	-37.1	21.5	0.00e+00	0	43	0	721420288	42	4353
2026-01-02 12:54:01.71	202.84	19.22	-35.5	-37.3	21.3	0.00e+00	0	43	0	738197504	42	4456
2026-01-02 12:54:04.72	203.24	19.54	-35.7	-37.6	21.0	0.00e+00	0	43	0	754974720	42	4600
2026-01-02 12:54:07.73	203.64	19.87	-35.4	-37.2	21.3	0.00e+00	0	43	0	771751936	42	4431
2026-01-02 12:54:10.74	204.06	20.20	-35.3	-37.1	21.4	0.00e+00	0	43	0	788529152	42	4381
2026-01-02 12:54:13.75	204.48	20.54	-35.1	-36.9	21.6	0.00e+00	0	43	0	806354944	42	4259
2026-01-02 12:54:16.76	204.91	20.88	-35.0	-36.8	21.7	0.00e+00	0	43	0	823132160	42	4222
2026-01-02 12:54:19.77	205.36	21.22	-35.0	-36.8	21.7	0.00e+00	0	43	0	839909376	41	4465
2026-01-02 12:54:22.78	205.81	21.56	-35.2	-37.0	21.5	0.00e+00	0	43	0	856686592	41	4551
2026-01-02 12:54:25.79	206.27	21.91	-35.2	-37.0	21.5	0.00e+00	0	43	0	873463808	41	4584
2026-01-02 12:54:28.80	206.74	22.26	-35.1	-36.9	21.6	0.00e+00	0	43	0	890241024	41	4531
2026-01-02 12:54:31.81	207.23	22.61	-34.9	-36.7	21.8	0.00e+00	0	43	0	907018240	41	4422
2026-01-02 12:54:34.82	207.72	22.97	-34.7	-36.5	22.0	0.00e+00	0	43	0	924844032	41	4322
2026-01-02 12:54:37.83	208.22	23.32	-34.5	-36.3	22.1	0.00e+00	0	43	0	941621248	41	4211
2026-01-02 12:54:40.84	208.74	23.68	-34.5	-36.2	22.2	0.00e+00	0	43	0	958398464	40	4436
2026-01-02 12:54:43.85	209.27	24.05	-34.5	-36.3	22.1	0.00e+00	0	43	0	975175680	40	4454
2026-01-02 12:54:46.86	209.81	24.41	-34.6	-36.3	22.1	0.00e+00	0	43	0	991952896	40	4471
2026-01-02 12:54:49.87	210.36	24.78	-34.7	-36.5	21.9	0.00e+00	0	43	0	1008730112	40	4584
2026-01-02 12:54:52.88	210.93	25.15	-34.5	-36.3	22.2	0.00e+00	0	43	0	1025507328	40	4443
2026-01-02 12:54:55.89	211.50	25.53	-34.3	-36.0	22.4	0.00e+00	0	43	0	1042284544	40	4326
2026-01-02 12:54:58.90	212.10	25.90	-34.2	-36.0	22.4	0.00e+00	0	43	0	1060110336	40	4309
2026-01-02 12:55:01.91	212.70	26.28	-34.3	-36.0	22.4	0.00e+00	0	43	0	1076887552	40	4330
2026-01-02 12:55:04.92	213.32	26.66	-34.3	-36.1	22.3	0.00e+00	0	43	0	1093664768	40	4350
2026-01-02 12:55:07.93	213.96	27.04	-34.1	-35.8	22.5	0.00e+00	0	43	0	1110441984	40	4227
2026-01-02 12:55:10.94	214.60	27.42	-34.0	-35.8	22.6	0.00e+00	0	43	0	1127219200	40	4203
2026-01-02 12:55:13.95	215.27	27.81	-34.1	-35.8	22.6	0.00e+00	0	43	0	1145044992	40	4209
2026-01-02 12:55:16.96	215.95	28.19	-34.1	-35.8	22.5	0.00e+00	0	43	0	1161822208	40	4235
2026-01-02 12:55:19.97	216.65	28.58	-34.0	-35.7	22.7	0.00e+00	0	43	0	1178599424	39	4421
2026-01-02 12:55:22.98	217.36	28.96	-33.9	-35.7	22.8	0.00e+00	0	43	0	1195376640	39	4402
2026-01-02 12:55:25.99	218.09	29.35	-33.9	-35.6	22.8	0.00e+00	0	43	0	1212153856	39	4357
2026-01-02 12:55:29.00	218.84	29.74	-33.9	-35.6	22.8	0.00e+00	0	43	0	1228931072	39	4373
2026-01-02 12:55:32.01	219.61	30.13	-33.9	-35.6	22.8	0.00e+00	0	43	0	1245708288	39	4353
2026-01-02 12:55:35.02	220.39	30.51	-33.8	-35.5	22.8	0.00e+00	0	43	0	1262485504	39	4340
2026-01-02 12:55:38.03	221.19	30.90	-33.9	-35.7	22.8	0.00e+00	0	43	0	1280311296	39	4393
2026-01-02 12:55:41.05	222.02	31.29	-33.9	-35.6	22.9	0.00e+00	0	43	0	1297088512	39	4379
2026-01-02 12:55:44.05	222.86	31.67	-33.8	-35.5	23.0	0.00e+00	0	43	0	1313865728	39	4328
2026-01-02 12:55:47.06	223.72	32.05	-33.8	-35.5	22.9	0.00e+00	0	43	0	1330642944	39	4336
2026-01-02 12:55:50.08	224.60	32.43	-34.0	-35.8	22.8	0.00e+00	0	43	0	1347420160	39	4446
2026-01-02 12:55:53.09	225.50	32.81	-33.7	-35.4	22.9	0.00e+00	0	43	0	1364197376	39	4286
2026-01-02 12:55:56.10	226.43	33.18	-33.6	-35.3	23.1	0.00e+00	0	43	0	1382023168	39	4212
2026-01-02 12:55:59.11	227.37	33.55	-33.8	-35.6	22.8	0.00e+00	0	43	0	1398800384	39	4351
2026-01-02 12:56:02.13	228.34	33.92	-34.0	-35.7	22.7	0.00e+00	0	43	0	1415577600	39	4422
2026-01-02 12:56:05.14	229.32	34.28	-33.8	-35.5	22.8	0.00e+00	0	43	0	1432354816	39	4324
2026-01-02 12:56:08.14	230.33	34.63	-33.8	-35.5	22.9	0.00e+00	0	43	0	1449132032	39	4306
2026-01-02 12:56:11.15	231.36	34.98	-33.8	-35.5	22.8	0.00e+00	0	43	0	1465909248	39	4331
2026-01-02 12:56:14.16	232.41	35.33	-33.6	-35.4	23.1	0.00e+00	0	43	0	1483735040	39	4243
2026-01-02 12:56:17.17	233.48	35.66	-33.5	-35.2	23.2	0.00e+00	0	43	0	1500512256	38	4401
2026-01-02 12:56:20.18	234.57	35.99	-33.7	-35.5	23.0	0.00e+00	0	43	0	1517289472	38	4560
2026-01-02 12:56:23.19	235.69	36.31	-33.7	-35.4	23.0	0.00e+00	0	43	0	1534066688	38	4497
2026-01-02 12:56:26.20	236.83	36.62	-33.7	-35.4	23.0	0.00e+00	0	43	0	1550843904	38	4525
2026-01-02 12:56:29.21	237.98	36.92	-33.4	-35.1	23.2	0.00e+00	0	43	0	1567621120	38	4389
2026-01-02 12:56:32.22	239.16	37.21	-33.6	-35.3	23.1	0.00e+00	0	43	0	1584398336	38	4466
2026-01-02 12:56:35.23	240.36	37.49	-33.5	-35.2	23.2	0.00e+00	0	43	0	1601175552	38	4410
2026-01-02 12:56:38.24	241.58	37.76	-33.3	-35.0	23.4	0.00e+00	0	43	0	1619001344	38	4319
2026-01-02 12:56:41.25	242.82	38.01	-33.3	-35.0	23.3	0.00e+00	0	43	0	1635778560	38	4323
2026-01-02 12:56:44.26	244.08	38.26	-33.3	-35.0	23.3	0.00e+00	0	43	0	1652555776	38	4329
2026-01-02 12:56:47.27	245.35	38.48	-33.5	-35.3	23.1	0.00e+00	0	43	0	1669332992	38	4443
2026-01-02 12:56:50.29	246.65	38.70	-33.2	-34.9	23.4	0.00e+00	0	43	0	1686110208	38	4282
2026-01-02 12:56:53.30	247.96	38.90	-33.4	-35.0	23.3	0.00e+00	0	43	0	1703936000	38	4340
2026-01-02 12:56:56.31	249.28	39.08	-33.4	-35.1	23.2	0.00e+00	0	43	0	1720713216	38	4386
2026-01-02 12:56:59.32	250.62	39.25	-33.5	-35.3	23.1	0.00e+00	0	43	0	1737490432	38	4446
2026-01-02 12:57:02.33	251.97	39.40	-33.3	-35.0	23.4	0.00e+00	0	43	0	1754267648	38	4323
2026-01-02 12:57:05.33	253.33	39.53	-33.3	-35.0	23.4	0.00e+00	0	43	0	1771044864	38	4326
2026-01-02 12:57:08.34	254.70	39.64	-33.4	-35.2	23.2	0.00e+00	0	43	0	1787822080	38	4395
2026-01-02 12:57:11.36	256.09	39.74	-33.2	-34.9	23.4	0.00e+00	0	43	0	1804599296	38	4249
2026-01-02 12:57:14.37	257.48	39.82	-33.7	-35.4	23.0	0.00e+00	0	43	0	1821376512	38	4526
2026-01-02 12:57:17.38	258.87	39.88	-33.6	-35.4	23.0	0.00e+00	0	43	0	1839202304	38	4495
2026-01-02 12:57:20.39	260.27	39.92	-33.5	-35.3	23.1	0.00e+00	0	43	0	1855979520	38	4442
2026-01-02 12:57:23.40	261.67	39.94	-33.6	-35.4	23.0	0.00e+00	0	43	0	1872756736	38	4505
2026-01-02 12:57:26.41	263.07	39.95	-33.6	-35.3	23.1	0.00e+00	0	43	0	1889533952	38	4446
2026-01-02 12:57:29.41	264.47	39.93	-33.7	-35.4	23.0	0.00e+00	0	43	0	1906311168	38	4543
2026-01-02 12:57:32.43	265.88	39.90	-33.4	-35.1	23.2	0.00e+00	0	43	0	1923088384	38	4368
2026-01-02 12:57:35.44	267.27	39.85	-33.5	-35.1	23.8	0.00e+00	0	43	0	1939865600	38	4385
2026-01-02 12:57:38.45	268.66	39.78	-33.8	-35.4	23.5	0.00e+00	0	43	0	1956642816	38	4510
2026-01-02 12:57:41.46	270.05	39.69	-33.7	-35.3	23.6	0.00e+00	0	44	0	1974468608	38	4465
2026-01-02 12:57:44.47	271.42	39.58	-33.5	-35.1	23.8	0.00e+00	0	43	0	1991245824	38	4369
2026-01-02 12:57:47.48	272.79	39.46	-33.6	-35.3	23.7	0.00e+00	0	44	0	2008023040	38	4449
2026-01-02 12:57:50.48	274.14	39.31	-33.8	-35.4	23.6	0.00e+00	0	43	0	2024800256	38	4530
2026-01-02 12:57:53.49	275.48	39.15	-33.5	-35.1	23.8	0.00e+00	0	43	0	2041577472	38	4376
2026-01-02 12:57:56.51	276.81	38.98	-33.4	-35.0	23.9	0.00e+00	0	43	0	2059403264	38	4339
2026-01-02 12:57:59.51	278.12	38.79	-33.5	-35.1	23.8	0.00e+00	0	43	0	2076180480	38	4354
2026-01-02 12:58:02.53	279.42	38.58	-33.4	-35.0	23.9	0.00e+00	0	43	0	2092957696	38	4314
2026-01-02 12:58:05.54	280.70	38.36	-33.6	-35.2	23.7	0.00e+00	0	43	0	2109734912	38	4417
2026-01-02 12:58:08.55	281.97	38.13	-33.4	-35.0	23.9	0.00e+00	0	43	0	2126512128	38	4306
2026-01-02 12:58:11.56	283.21	37.88	-33.6	-35.3	23.6	0.00e+00	0	43	0	2143289344	38	4459
2026-01-02 12:58:14.57	284.44	37.62	-33.3	-34.9	24.0	0.00e+00	0	43	0	2160066560	38	4243
2026-01-02 12:58:17.58	285.64	37.34	-33.4	-35.0	23.9	0.00e+00	0	44	0	2176843776	38	4305
2026-01-02 12:58:20.59	286.83	37.06	-33.5	-35.2	23.7	0.00e+00	0	43	0	2194669568	38	4400
2026-01-02 12:58:23.61	287.99	36.76	-33.8	-35.4	23.6	0.00e+00	0	43	0	2211446784	38	4532
2026-01-02 12:58:26.62	289.14	36.46	-33.7	-35.3	23.6	0.00e+00	0	43	0	2228224000	38	4492
2026-01-02 12:58:29.63	290.26	36.14	-33.6	-35.2	23.7	0.00e+00	0	43	0	2245001216	38	4423
2026-01-02 12:58:32.63	291.36	35.82	-33.6	-35.2	23.7	0.00e+00	0	44	0	2261778432	38	4430
2026-01-02 12:58:35.64	292.44	35.49	-33.7	-35.4	23.5	0.00e+00	0	43	0	2278555648	38	4511
2026-01-02 12:58:38.65	293.49	35.15	-33.4	-35.0	23.9	0.00e+00	0	43	0	2296381440	38	4313
2026-01-02 12:58:41.66	294.53	34.81	-33.7	-35.3	23.6	0.00e+00	0	43	0	2313158656	38	4493
2026-01-02 12:58:44.67	295.54	34.46	-33.7	-35.4	23.5	0.00e+00	0	43	0	2329935872	38	4498
2026-01-02 12:58:47.68	296.54	34.10	-33.8	-35.4	23.6	0.00e+00	0	43	0	2346713088	38	4516
2026-01-02 12:58:50.69	297.51	33.74	-33.9	-35.5	23.4	0.00e+00	0	43	0	2363490304	38	4574
2026-01-02 12:58:53.70	298.46	33.37	-33.9	-35.5	23.4	0.00e+00	0	44	0	2380267520	38	4595
2026-01-02 12:58:56.71	299.38	33.00	-34.0	-35.6	23.4	0.00e+00	0	43	0	2397044736	38	4639
2026-01-02 12:58:59.72	300.29	32.63	-34.0	-35.6	23.3	0.00e+00	0	44	0	2414870528	38	4638
2026-01-02 12:59:02.73	301.18	32.25	-33.9	-35.6	23.4	0.00e+00	0	43	0	2431647744	38	4605
2026-01-02 12:59:05.74	302.05	31.87	-33.9	-35.5	23.4	0.00e+00	0	43	0	2448424960	38	4581
2026-01-02 12:59:08.75	302.90	31.49	-34.1	-35.8	23.2	0.00e+00	0	43	0	2465202176	38	4716
2026-01-02 12:59:11.76	303.72	31.11	-34.2	-35.9	23.1	0.00e+00	0	43	0	2481979392	39	4504
2026-01-02 12:59:14.77	304.53	30.73	-34.2	-35.9	23.1	0.00e+00	0	43	0	2498756608	39	4504
2026-01-02 12:59:17.78	305.32	30.34	-34.0	-35.7	23.3	0.00e+00	0	43	0	2515533824	39	4398
2026-01-02 12:59:20.79	306.10	29.96	-34.2	-35.9	23.1	0.00e+00	0	43	0	2532311040	39	4529
2026-01-02 12:59:23.80	306.85	29.57	-34.4	-36.1	22.9	0.00e+00	0	43	0	2550136832	39	4609
2026-01-02 12:59:26.81	307.59	29.19	-34.3	-35.9	23.1	0.00e+00	0	43	0	2566914048	39	4518
2026-01-02 12:59:29.82	308.31	28.80	-34.6	-36.3	22.6	0.00e+00	0	43	0	2583691264	40	4490
2026-01-02 12:59:32.83	309.01	28.42	-34.5	-36.2	22.7	0.00e+00	0	43	0	2600468480	40	4430
2026-01-02 12:59:35.84	309.70	28.03	-34.0	-35.7	23.2	0.00e+00	0	43	0	2617245696	40	4168
2026-01-02 12:59:38.85	310.37	27.65	-34.2	-35.9	23.1	0.00e+00	0	43	0	2635071488	40	4247
2026-01-02 12:59:41.86	311.02	27.27	-34.2	-35.9	23.0	0.00e+00	0	44	0	2651848704	40	4267
2026-01-02 12:59:44.87	311.66	26.89	-34.2	-35.9	23.1	0.00e+00	0	43	0	2668625920	40	4243
2026-01-02 12:59:47.88	312.29	26.52	-34.0	-35.7	23.2	0.00e+00	0	44	0	2685403136	40	4162
2026-01-02 12:59:50.89	312.90	26.14	-34.1	-35.8	23.1	0.00e+00	0	43	0	2702180352	40	4226
2026-01-02 12:59:53.90	313.49	25.77	-34.5	-36.2	22.7	0.00e+00	0	44	0	2718957568	40	4413
2026-01-02 12:59:56.91	314.08	25.39	-34.3	-36.0	22.9	0.00e+00	0	43	0	2735734784	40	4333
2026-01-02 12:59:59.92	314.65	25.03	-34.5	-36.2	22.7	0.00e+00	0	43	0	2753560576	40	4393
2026-01-02 13:00:02.93	315.20	24.66	-34.6	-36.3	22.6	0.00e+00	0	43	0	2770337792	40	4482
2026-01-02 13:00:06.20	315.80	24.26	-34.6	-36.3	22.6	0.00e+00	0	43	0	2788163584	40	4482
2026-01-02 13:00:09.07	316.30	23.92	-34.7	-36.3	22.6	0.00e+00	0	43	0	2804940800	40	4485
2026-01-02 13:00:12.22	316.85	23.54	-34.5	-36.2	22.7	0.00e+00	0	43	0	2821718016	40	4425
2026-01-02 13:00:15.09	317.33	23.20	-34.7	-36.4	22.5	0.00e+00	0	44	0	2838495232	40	4534
2026-01-02 13:00:18.24	317.85	22.83	-34.9	-36.6	22.3	0.00e+00	0	43	0	2856321024	40	4612
2026-01-02 13:00:21.11	318.32	22.50	-34.8	-36.5	22.3	0.00e+00	0	43	0	2872049664	40	4595
2026-01-02 13:00:24.26	318.82	22.13	-34.8	-36.5	22.4	0.00e+00	0	44	0	2889875456	40	4555
2026-01-02 13:00:27.13	319.26	21.80	-35.0	-36.7	22.2	0.00e+00	0	43	0	2905604096	40	4657
2026-01-02 13:00:30.29	319.74	21.44	-35.1	-36.8	22.0	0.00e+00	0	43	0	2923429888	40	4758
2026-01-02 13:00:33.15	320.16	21.12	-35.5	-37.2	21.7	0.00e+00	0	43	0	2940207104	41	4694
2026-01-02 13:00:36.31	320.62	20.77	-35.5	-37.2	21.7	0.00e+00	0	43	0	2958032896	41	4698
2026-01-02 13:00:39.17	321.03	20.45	-35.5	-37.2	21.7	0.00e+00	0	44	0	2973761536	41	4689
2026-01-02 13:00:42.33	321.47	20.10	-35.4	-37.2	21.7	0.00e+00	0	43	0	2991587328	41	4668
2026-01-02 13:00:45.19	321.86	19.79	-35.8	-37.5	21.4	0.00e+00	0	43	0	3007315968	42	4580
2026-01-02 13:00:48.35	322.28	19.45	-36.0	-37.8	21.2	0.00e+00	0	43	0	3025141760	42	4744
2026-01-02 13:00:51.21	322.65	19.14	-36.0	-37.8	21.2	0.00e+00	0	44	0	3041918976	42	4721
2026-01-02 13:00:54.37	323.06	18.81	-35.8	-37.6	21.4	0.00e+00	0	43	0	3059744768	42	4621
2026-01-02 13:00:57.24	323.42	18.50	-35.8	-37.6	21.4	0.00e+00	0	43	0	3075473408	42	4602
2026-01-02 13:01:00.39	323.81	18.18	-36.0	-37.8	21.2	0.00e+00	0	43	0	3093299200	42	4712
2026-01-02 13:01:03.26	324.15	17.88	-36.0	-37.8	21.1	0.00e+00	0	43	0	3109027840	42	4728
2026-01-02 13:01:06.41	324.53	17.56	-36.1	-37.8	21.1	0.00e+00	0	43	0	3126853632	43	4483
2026-01-02 13:01:09.27	324.86	17.27	-36.1	-37.8	21.1	0.00e+00	0	43	0	3143630848	43	4488
2026-01-02 13:01:12.43	325.22	16.95	-36.1	-37.9	21.1	0.00e+00	0	43	0	3160408064	43	4511
2026-01-02 13:01:15.30	325.54	16.67	-36.2	-38.0	20.9	0.00e+00	0	43	0	3177185280	43	4578
2026-01-02 13:01:18.45	325.88	16.36	-36.3	-38.2	20.8	0.00e+00	0	44	0	3195011072	43	4654
2026-01-02 13:01:21.32	326.19	16.08	-36.4	-38.3	20.7	0.00e+00	0	43	0	3210739712	43	4707
2026-01-02 13:01:24.47	326.52	15.77	-36.4	-38.3	20.6	0.00e+00	0	44	0	3228565504	43	4725
2026-01-02 13:01:27.34	326.82	15.50	-36.4	-38.2	20.7	0.00e+00	0	43	0	3244294144	43	4695
2026-01-02 13:01:30.49	327.14	15.20	-36.4	-38.3	20.6	0.00e+00	0	43	0	3262119936	43	4716
2026-01-02 13:01:33.36	327.43	14.93	-36.5	-38.3	20.6	0.00e+00	0	44	0	3278897152	43	4754
2026-01-02 13:01:36.51	327.74	14.63	-36.9	-38.7	20.4	0.00e+00	0	43	0	3296722944	44	4690
2026-01-02 13:01:39.38	328.01	14.37	-37.1	-39.0	20.1	0.00e+00	0	44	0	3312451584	44	4831
2026-01-02 13:01:42.53	328.31	14.08	-37.2	-39.1	20.0	0.00e+00	0	43	0	3330277376	45	4620
2026-01-02 13:01:45.40	328.58	13.82	-37.4	-39.2	19.8	0.00e+00	0	43	0	3346006016	45	4698
2026-01-02 13:01:48.55	328.87	13.54	-37.4	-39.3	19.8	0.00e+00	0	43	0	3363831808	45	4733
2026-01-02 13:01:51.42	329.13	13.28	-37.5	-39.4	19.6	0.00e+00	0	43	0	3380609024	45	4803
2026-01-02 13:01:54.57	329.40	13.00	-37.5	-39.4	19.7	0.00e+00	0	43	0	3398434816	45	4767
2026-01-02 13:01:57.44	329.65	12.75	-37.4	-39.3	19.7	0.00e+00	0	43	0	3414163456	45	4752
2026-01-02 13:02:00.59	329.92	12.48	-37.5	-39.4	19.6	0.00e+00	0	43	0	3431989248	45	4797
2026-01-02 13:02:03.46	330.16	12.23	-37.6	-39.6	19.5	0.00e+00	0	43	0	3447717888	45	4889
2026-01-02 13:02:06.61	330.42	11.96	-37.6	-39.6	19.5	0.00e+00	0	43	0	3465543680	46	4605
2026-01-02 13:02:09.48	330.66	11.72	-37.7	-39.6	19.4	0.00e+00	0	43	0	3481272320	46	4650
2026-01-02 13:02:12.63	330.91	11.46	-37.7	-39.6	19.4	0.00e+00	0	43	0	3499098112	46	4649
2026-01-02 13:02:15.50	331.13	11.22	-37.7	-39.6	19.4	0.00e+00	0	43	0	3515875328	46	4640
2026-01-02 13:02:18.66	331.38	10.96	-37.7	-39.7	19.3	0.00e+00	0	43	0	3533701120	46	4666
2026-01-02 13:02:21.52	331.60	10.73	-37.8	-39.8	19.2	0.00e+00	0	44	0	3549429760	46	4720
2026-01-02 13:02:24.67	331.83	10.47	-37.9	-39.9	19.1	0.00e+00	0	44	0	3567255552	46	4773
2026-01-02 13:02:27.54	332.04	10.24	-37.8	-39.8	19.2	0.00e+00	0	43	0	3582984192	46	4732
2026-01-02 13:02:30.69	332.27	9.99	-38.0	-39.9	19.1	0.00e+00	0	43	0	3600809984	46	4805
2026-01-02 13:02:33.56	332.48	9.77	-38.0	-39.9	19.0	0.00e+00	0	43	0	3617587200	46	4797
2026-01-02 13:02:36.71	332.70	9.52	-38.0	-40.0	18.9	0.00e+00	0	44	0	3635412992	46	4855
2026-01-02 13:02:39.58	332.90	9.30	-38.2	-40.2	18.7	0.00e+00	0	43	0	3651141632	47	4665
2026-01-02 13:02:42.74	333.12	9.05	-38.2	-40.2	18.7	0.00e+00	0	43	0	3668967424	47	4702
2026-01-02 13:02:45.61	333.31	8.83	-48.1	-60.4	3.8	8.47e-01	0	44	104	3675258880	66	16112
2026-01-02 13:02:48.76	333.52	8.60	-48.4	-60.8	3.8	8.46e-01	0	44	104	3675258880	67	15786
2026-01-02 13:02:51.63	333.71	8.38	-48.0	-60.9	3.8	8.48e-01	0	43	104	3675258880	67	16002
2026-01-02 13:02:54.79	333.91	8.14	-48.9	-61.1	3.8	8.47e-01	0	44	104	3675258880	68	15463
2026-01-02 13:02:57.66	334.09	7.93	-48.6	-61.1	3.8	8.47e-01	0	43	104	3675258880	68	15503
2026-01-02 13:03:00.82	334.29	7.70	-49.1	-61.1	3.8	8.46e-01	0	44	104	3675258880	68	15463
2026-01-02 13:03:03.69	334.47	7.49	-48.9	-61.1	3.8	8.47e-01	0	44	104	3675258880	68	15447
2026-01-02 13:03:06.84	334.66	7.26	-48.7	-61.1	3.8	8.47e-01	0	44	104	3675258880	68	15409
2026-01-02 13:03:09.71	334.83	7.06	-48.7	-61.0	3.8	8.46e-01	0	43	104	3675258880	68	15319
2026-01-02 13:03:12.87	335.02	6.83	-48.6	-61.0	3.8	8.47e-01	0	43	104	3675258880	68	15336
2026-01-02 13:03:15.73	335.19	6.63	-48.7	-61.0	3.8	8.46e-01	0	44	104	3675258880	68	15328
2026-01-02 13:03:18.89	335.37	6.41	-48.6	-61.0	3.8	8.47e-01	0	43	104	3675258880	68	15282
2026-01-02 13:03:21.76	335.54	6.21	-48.6	-61.0	3.8	8.47e-01	0	44	104	3675258880	68	15356
2026-01-02 13:03:24.92	335.71	5.99	-48.6	-61.0	3.8	8.48e-01	0	44	104	3675258880	68	15308
2026-01-02 13:03:27.79	335.87	5.79	-48.6	-61.0	3.8	8.47e-01	0	44	104	3675258880	68	15237
2026-01-02 13:03:30.95	336.05	5.58	-48.6	-61.0	3.8	8.46e-01	0	44	104	3675258880	68	15282
2026-01-02 13:03:33.82	336.20	5.38	-48.6	-60.9	3.8	8.47e-01	0	44	104	3675258880	68	15178
2026-01-02 13:03:36.97	336.37	5.17	-48.6	-61.0	3.8	8.47e-01	0	43	104	3675258880	68	15262
2026-01-02 13:03:39.84	336.52	4.98	-48.6	-60.9	3.8	8.47e-01	0	44	104	3675258880	68	15221

#Closed at: 2026-01-02 13:03:40
#Recorded file [3675 MB]: D:/Data/31040_260102_155116.dat