passes_logs/2026/01/02/T1/T1__20260102_221955_SUOMI_NPP_rec.log

#Pass ID: 20260102_221955_SUOMI NPP
#Satellite: SUOMI NPP
#Configuration: NPP
#almurnet v.1.7.20251203
#Start time: 2026-01-02 22:19:55

#Version: 2.0.20230620
#Station: T1
#Location: 37.570604 lon 55.790049 lat
#TLE: 1 37849U 11061A   26001.07732418  .00000182  00000+0  10735-3 0  9990
#TLE: 2 37849  98.7795 303.2470 0002580  87.2016 272.9455 14.19520779734739

#Time	Az	El	Level	Level2	SNR	BER	BlckErr	Temp	State	Recorded	gain1	gain2
2026-01-02 22:19:55.24	28.67	5.00	-47.4	-63.9	3.8	1.49e+00	0	38	0	0	66	24105
2026-01-02 22:19:58.24	28.92	5.18	-47.3	-63.9	3.8	1.49e+00	0	38	104	0	65	25356
2026-01-02 22:20:01.26	29.18	5.36	-47.3	-63.9	3.8	1.49e+00	0	38	104	0	65	25519
2026-01-02 22:20:04.27	29.43	5.55	-47.3	-63.9	3.8	1.49e+00	0	38	104	0	65	25528
2026-01-02 22:20:07.28	29.69	5.73	-47.4	-63.9	3.8	1.49e+00	0	38	104	0	65	25541
2026-01-02 22:20:10.30	29.95	5.91	-47.4	-63.9	3.8	1.49e+00	0	39	104	0	65	25397
2026-01-02 22:20:13.31	30.22	6.09	-47.3	-63.9	3.8	1.49e+00	0	39	104	0	65	25381
2026-01-02 22:20:16.32	30.49	6.28	-47.3	-63.7	3.8	1.49e+00	0	39	104	0	65	24878
2026-01-02 22:20:19.34	30.76	6.46	-47.3	-63.6	3.8	1.49e+00	0	39	104	0	65	24616
2026-01-02 22:20:22.35	31.04	6.65	-47.3	-63.6	3.8	1.49e+00	0	39	104	0	65	24555
2026-01-02 22:20:25.36	31.31	6.84	-47.3	-63.7	3.8	1.49e+00	0	39	104	0	65	24888
2026-01-02 22:20:28.38	31.60	7.03	-47.3	-63.7	3.8	1.49e+00	0	39	104	0	65	24880
2026-01-02 22:20:31.39	31.88	7.21	-47.3	-63.9	3.8	1.49e+00	0	39	104	0	65	25376
2026-01-02 22:20:34.40	32.17	7.40	-47.3	-63.9	3.8	1.49e+00	0	39	104	0	65	25277
2026-01-02 22:20:37.42	32.46	7.59	-47.3	-63.1	3.8	1.49e+00	0	39	104	0	65	23210
2026-01-02 22:20:40.43	32.76	7.79	-47.2	-62.7	3.8	1.49e+00	0	39	104	0	65	22249
2026-01-02 22:20:43.44	33.06	7.98	-47.3	-63.1	3.8	1.49e+00	0	39	104	0	65	23083
2026-01-02 22:20:46.45	33.36	8.17	-47.3	-63.2	3.8	1.49e+00	0	40	104	0	65	23382
2026-01-02 22:20:49.47	33.67	8.36	-47.3	-62.9	3.8	1.49e+00	0	39	104	0	65	22764
2026-01-02 22:20:52.48	33.98	8.56	-47.3	-63.1	3.8	1.49e+00	0	39	104	0	65	23256
2026-01-02 22:20:55.49	34.30	8.75	-47.3	-63.1	3.8	1.49e+00	0	39	104	0	65	23307
2026-01-02 22:20:58.51	34.62	8.95	-47.2	-61.0	3.9	1.49e+00	0	40	104	0	65	18195
2026-01-02 22:21:01.52	34.94	9.15	-48.4	-60.7	4.2	7.76e-01	0	40	0	4194304	67	15719
2026-01-02 22:21:04.53	35.27	9.34	-47.1	-55.3	4.8	1.49e+00	0	40	104	5242880	65	9439
2026-01-02 22:21:07.54	35.60	9.54	-44.4	-48.5	14.4	1.50e-06	0	40	0	9437184	60	5756
2026-01-02 22:21:10.55	35.94	9.74	-44.1	-48.2	14.6	0.00e+00	0	40	0	15728640	60	5557
2026-01-02 22:21:13.57	36.28	9.94	-43.7	-47.2	15.6	0.00e+00	0	40	0	20971520	59	5266
2026-01-02 22:21:16.58	36.63	10.14	-43.4	-46.8	16.0	0.00e+00	0	40	0	26214400	58	5326
2026-01-02 22:21:19.58	36.97	10.34	-43.4	-46.7	16.1	0.00e+00	0	40	0	32505856	58	5257
2026-01-02 22:21:22.59	37.33	10.54	-43.1	-46.2	16.6	0.00e+00	0	40	0	37748736	58	4965
2026-01-02 22:21:25.63	37.69	10.75	-43.2	-46.2	16.7	0.00e+00	0	40	0	44040192	58	4983
2026-01-02 22:21:29.09	38.11	10.98	-43.0	-46.0	16.8	0.00e+00	0	40	0	50331648	57	5158
2026-01-02 22:21:32.00	38.47	11.18	-43.1	-46.2	16.7	0.00e+00	0	40	0	55574528	57	5253
2026-01-02 22:21:35.30	38.88	11.40	-43.1	-46.1	16.7	0.00e+00	0	40	0	61865984	57	5213
2026-01-02 22:21:38.02	39.22	11.59	-43.0	-45.9	16.9	0.00e+00	0	40	0	67108864	57	5075
2026-01-02 22:21:41.33	39.65	11.82	-43.3	-46.3	16.7	0.00e+00	0	40	0	73400320	57	5282
2026-01-02 22:21:44.22	40.02	12.02	-43.4	-46.4	16.5	0.00e+00	0	40	0	78643200	57	5358
2026-01-02 22:21:47.37	40.44	12.23	-43.4	-46.3	16.6	0.00e+00	0	40	0	83886080	57	5323
2026-01-02 22:21:50.24	40.82	12.43	-43.2	-46.0	16.9	0.00e+00	0	40	0	90177536	57	5156
2026-01-02 22:21:53.51	41.26	12.66	-42.9	-45.7	17.2	0.00e+00	0	40	0	95420416	57	4941
2026-01-02 22:21:56.26	41.64	12.85	-42.6	-45.3	17.6	0.00e+00	0	40	0	100663296	57	4752
2026-01-02 22:21:59.55	42.10	13.08	-42.5	-45.1	17.8	0.00e+00	0	40	0	106954752	56	4916
2026-01-02 22:22:02.27	42.48	13.27	-42.5	-45.1	17.8	0.00e+00	0	40	0	112197632	56	4909
2026-01-02 22:22:05.63	42.96	13.50	-42.9	-45.6	17.4	0.00e+00	0	40	0	118489088	56	5175
2026-01-02 22:22:08.48	43.37	13.70	-42.6	-45.3	17.6	0.00e+00	0	40	0	123731968	56	4987
2026-01-02 22:22:11.77	43.86	13.93	-42.7	-45.4	17.5	0.00e+00	0	40	0	130023424	56	5089
2026-01-02 22:22:14.49	44.26	14.12	-42.8	-45.6	17.4	0.00e+00	0	40	0	135266304	56	5174
2026-01-02 22:22:17.79	44.76	14.35	-42.9	-45.6	17.3	0.00e+00	0	40	0	141557760	57	4916
2026-01-02 22:22:20.68	45.20	14.56	-42.9	-45.6	17.3	0.00e+00	0	40	0	146800640	57	4909
2026-01-02 22:22:23.83	45.69	14.78	-42.6	-45.3	17.7	0.00e+00	0	40	0	153092096	57	4716
2026-01-02 22:22:26.74	46.15	14.98	-42.5	-45.1	17.8	0.00e+00	0	40	0	158334976	56	4920
2026-01-02 22:22:29.94	46.66	15.21	-42.3	-44.9	17.9	0.00e+00	0	40	0	164626432	56	4814
2026-01-02 22:22:32.81	47.13	15.41	-42.4	-45.0	18.0	0.00e+00	0	40	0	169869312	56	4846
2026-01-02 22:22:35.96	47.65	15.63	-42.3	-44.8	18.1	0.00e+00	0	40	0	175112192	56	4750
2026-01-02 22:22:38.83	48.12	15.83	-42.2	-44.7	18.3	0.00e+00	0	40	0	180355072	56	4676
2026-01-02 22:22:42.04	48.67	16.06	-42.2	-44.7	18.2	0.00e+00	0	40	0	186646528	56	4701
2026-01-02 22:22:44.91	49.16	16.26	-42.4	-45.0	17.9	0.00e+00	0	40	0	191889408	56	4854
2026-01-02 22:22:48.09	49.71	16.48	-42.4	-45.0	17.9	0.00e+00	0	40	0	198180864	56	4865
2026-01-02 22:22:51.10	50.24	16.69	-42.5	-45.2	17.8	0.00e+00	0	40	0	203423744	56	4942
2026-01-02 22:22:54.49	50.85	16.93	-42.2	-44.8	18.1	0.00e+00	0	40	0	210763776	56	4732
2026-01-02 22:22:57.21	51.34	17.12	-42.4	-45.1	17.9	0.00e+00	0	40	0	214958080	56	4916
2026-01-02 22:23:00.56	51.95	17.35	-42.6	-45.3	17.6	0.00e+00	0	40	0	221249536	56	5018
2026-01-02 22:23:03.28	52.46	17.54	-42.4	-45.1	17.8	0.00e+00	0	40	0	226492416	56	4918
2026-01-02 22:23:06.58	53.08	17.77	-42.3	-45.0	17.9	0.00e+00	0	40	0	232783872	56	4864
2026-01-02 22:23:09.30	53.60	17.95	-42.4	-45.1	17.9	0.00e+00	0	40	0	238026752	56	4918
2026-01-02 22:23:12.79	54.28	18.19	-42.4	-45.1	17.8	0.00e+00	0	40	0	244318208	56	4910
2026-01-02 22:23:15.55	54.82	18.38	-42.5	-45.2	17.8	0.00e+00	0	40	0	249561088	56	4930
2026-01-02 22:23:18.85	55.48	18.60	-42.7	-45.6	17.4	0.00e+00	0	40	0	255852544	56	5181
2026-01-02 22:23:21.57	56.03	18.78	-42.7	-45.5	17.5	0.00e+00	0	40	0	261095424	56	5108
2026-01-02 22:23:24.86	56.70	19.00	-42.5	-45.2	17.8	0.00e+00	0	40	0	267386880	56	4937
2026-01-02 22:23:27.58	57.26	19.18	-43.0	-46.0	17.1	0.00e+00	0	40	0	272629760	56	5405
2026-01-02 22:23:30.99	57.98	19.40	-43.0	-45.9	17.1	0.00e+00	0	40	0	278921216	57	5054
2026-01-02 22:23:33.76	58.57	19.58	-42.8	-45.6	17.4	0.00e+00	0	40	0	284164096	57	4915
2026-01-02 22:23:37.15	59.30	19.79	-43.6	-46.8	16.3	0.00e+00	0	40	0	290455552	58	5319
2026-01-02 22:23:40.21	59.96	19.98	-43.5	-46.5	16.5	0.00e+00	0	40	0	295698432	58	5147
2026-01-02 22:23:43.13	60.61	20.17	-43.2	-46.1	17.1	0.00e+00	0	40	0	300941312	58	4884
2026-01-02 22:23:46.18	61.29	20.35	-43.3	-46.2	16.9	0.00e+00	0	40	0	307232768	58	4958
2026-01-02 22:23:49.05	61.94	20.53	-43.1	-45.9	17.2	0.00e+00	0	40	0	312475648	58	4798
2026-01-02 22:23:52.20	62.66	20.71	-43.3	-46.1	17.0	0.00e+00	0	40	0	318767104	57	5218
2026-01-02 22:23:55.37	63.39	20.90	-43.4	-46.3	16.8	0.00e+00	0	40	0	324009984	58	4987
2026-01-02 22:23:58.37	64.09	21.07	-42.5	-45.1	17.9	0.00e+00	0	40	0	330301440	57	4618
2026-01-02 22:24:01.38	64.80	21.24	-42.1	-44.6	18.5	0.00e+00	0	40	0	335544320	56	4605
2026-01-02 22:24:04.39	65.52	21.41	-42.6	-45.2	17.9	0.00e+00	0	40	0	341835776	56	4928
2026-01-02 22:24:07.40	66.25	21.57	-43.7	-46.7	16.5	0.00e+00	0	40	0	347078656	57	5531
2026-01-02 22:24:10.50	67.00	21.74	-43.5	-46.3	16.8	0.00e+00	0	40	0	352321536	58	5039
2026-01-02 22:24:13.36	67.71	21.89	-42.5	-45.1	18.0	0.00e+00	0	40	0	358612992	56	4883
2026-01-02 22:24:16.52	68.49	22.05	-43.0	-45.8	17.3	0.00e+00	0	40	0	363855872	56	5310
2026-01-02 22:24:19.38	69.21	22.19	-42.9	-45.7	17.4	0.00e+00	0	40	0	369098752	56	5244
2026-01-02 22:24:22.53	70.01	22.34	-43.3	-46.2	16.9	0.00e+00	0	40	0	375390208	57	5230
2026-01-02 22:24:25.40	70.75	22.47	-42.9	-45.6	17.5	0.00e+00	0	40	0	380633088	57	4884
2026-01-02 22:24:28.70	71.60	22.62	-42.8	-45.4	17.7	0.00e+00	0	40	0	386924544	56	5078
2026-01-02 22:24:31.47	72.32	22.74	-43.8	-46.8	16.3	0.00e+00	0	40	0	392167424	58	5307
2026-01-02 22:24:34.75	73.18	22.88	-43.8	-46.8	16.3	0.00e+00	0	40	0	398458880	58	5317
2026-01-02 22:24:37.61	73.94	22.99	-43.5	-46.4	16.7	0.00e+00	0	40	0	403701760	58	5092
2026-01-02 22:24:40.77	74.78	23.11	-43.6	-46.6	16.5	0.00e+00	0	40	0	409993216	58	5191
2026-01-02 22:24:43.63	75.55	23.22	-43.8	-46.7	16.4	0.00e+00	0	40	0	415236096	58	5279
2026-01-02 22:24:46.91	76.44	23.33	-43.9	-47.0	16.2	0.00e+00	0	40	0	421527552	58	5422
2026-01-02 22:24:49.64	77.18	23.42	-44.4	-47.7	15.5	0.00e+00	0	40	0	425721856	59	5570
2026-01-02 22:24:53.46	78.22	23.54	-43.9	-46.9	16.3	0.00e+00	0	40	0	433061888	59	5045
2026-01-02 22:24:56.20	78.98	23.62	-43.1	-45.9	17.2	0.00e+00	0	40	0	438304768	58	4776
2026-01-02 22:25:00.05	80.05	23.72	-42.4	-45.0	18.0	0.00e+00	0	40	0	445644800	56	4842
2026-01-02 22:25:03.09	80.90	23.79	-43.1	-46.0	17.1	0.00e+00	0	41	0	451936256	56	5421
2026-01-02 22:25:06.82	81.94	23.87	-42.9	-45.8	17.3	0.00e+00	0	40	0	458227712	57	4986
2026-01-02 22:25:09.60	82.72	23.93	-42.9	-45.6	17.6	0.00e+00	0	40	0	463470592	57	4885
2026-01-02 22:25:13.14	83.72	23.99	-43.1	-45.8	17.3	0.00e+00	0	40	0	469762048	57	5014
2026-01-02 22:25:16.01	84.54	24.03	-43.1	-45.8	17.3	0.00e+00	0	40	0	476053504	57	5030
2026-01-02 22:25:19.16	85.43	24.08	-43.2	-45.9	17.3	0.00e+00	0	40	0	481296384	57	5063
2026-01-02 22:25:22.07	86.26	24.11	-42.3	-44.7	18.4	0.00e+00	0	40	0	486539264	56	4702
2026-01-02 22:25:25.30	87.18	24.14	-42.9	-45.5	17.7	0.00e+00	0	40	0	492830720	56	5142
2026-01-02 22:25:28.26	88.03	24.15	-42.8	-45.3	17.8	0.00e+00	0	40	0	498073600	56	5034
2026-01-02 22:25:31.62	88.99	24.17	-42.4	-44.8	18.2	0.00e+00	0	40	0	504365056	56	4759
2026-01-02 22:25:34.34	89.77	24.17	-42.2	-44.7	18.4	0.00e+00	0	40	0	509607936	56	4676
2026-01-02 22:25:37.59	90.70	24.17	-42.6	-45.1	18.1	0.00e+00	0	40	0	515899392	56	4873
2026-01-02 22:25:40.73	91.60	24.16	-42.5	-45.0	18.1	0.00e+00	0	40	0	522190848	56	4830
2026-01-02 22:25:44.16	92.58	24.15	-42.2	-44.6	18.5	0.00e+00	0	40	0	528482304	56	4608
2026-01-02 22:25:46.88	93.36	24.13	-42.4	-44.8	18.3	0.00e+00	0	40	0	533725184	56	4742
2026-01-02 22:25:50.18	94.30	24.09	-42.5	-45.0	18.1	0.00e+00	0	41	0	540016640	56	4842
2026-01-02 22:25:52.90	95.07	24.06	-42.7	-45.2	17.8	0.00e+00	0	40	0	545259520	56	4968
2026-01-02 22:25:56.30	96.04	24.02	-42.4	-44.8	18.3	0.00e+00	0	40	0	551550976	56	4723
2026-01-02 22:25:59.29	96.89	23.97	-41.5	-43.8	19.1	0.00e+00	0	40	0	556793856	55	4463
2026-01-02 22:26:02.30	97.74	23.91	-41.8	-44.1	18.8	0.00e+00	0	40	0	562036736	55	4612
2026-01-02 22:26:05.38	98.61	23.85	-41.5	-43.8	19.0	0.00e+00	0	40	0	568328192	55	4485
2026-01-02 22:26:08.37	99.44	23.78	-41.3	-43.6	19.3	0.00e+00	0	40	0	573571072	54	4608
2026-01-02 22:26:11.42	100.29	23.71	-41.4	-43.7	19.2	0.00e+00	0	40	0	579862528	54	4656
2026-01-02 22:26:14.57	101.17	23.62	-40.9	-43.1	19.7	0.00e+00	0	40	0	585105408	53	4610
2026-01-02 22:26:17.44	101.96	23.54	-41.3	-43.5	19.3	0.00e+00	0	40	0	590348288	53	4830
2026-01-02 22:26:20.59	102.83	23.44	-41.9	-44.2	18.7	0.00e+00	0	40	0	596639744	54	4966
2026-01-02 22:26:23.46	103.61	23.35	-41.5	-43.8	19.1	0.00e+00	0	40	0	601882624	54	4738
2026-01-02 22:26:26.61	104.47	23.24	-40.9	-43.1	19.7	0.00e+00	0	40	0	608174080	53	4617
2026-01-02 22:26:29.47	105.24	23.14	-40.7	-42.8	19.9	0.00e+00	0	40	0	613416960	53	4488
2026-01-02 22:26:32.63	106.08	23.02	-40.1	-42.2	20.5	0.00e+00	0	40	0	619708416	52	4398
2026-01-02 22:26:35.83	106.93	22.89	-40.3	-42.3	20.4	0.00e+00	0	40	0	624951296	51	4758
2026-01-02 22:26:38.70	107.69	22.77	-40.9	-43.1	19.7	0.00e+00	0	40	0	630194176	52	4876
2026-01-02 22:26:41.85	108.52	22.64	-40.1	-42.1	20.5	0.00e+00	0	40	0	636485632	52	4373
2026-01-02 22:26:44.81	109.28	22.50	-40.3	-42.4	20.3	0.00e+00	0	40	0	641728512	51	4805
2026-01-02 22:26:47.99	110.10	22.36	-41.0	-43.2	19.5	0.00e+00	0	40	0	648019968	52	4966
2026-01-02 22:26:50.85	110.83	22.22	-40.7	-42.8	19.8	0.00e+00	0	40	0	653262848	52	4743
2026-01-02 22:26:54.01	111.63	22.06	-40.9	-43.1	19.6	0.00e+00	0	40	0	659554304	52	4898
2026-01-02 22:26:56.87	112.34	21.92	-41.0	-43.2	19.6	0.00e+00	0	40	0	664797184	52	4945
2026-01-02 22:27:00.02	113.12	21.76	-40.7	-42.9	19.8	0.00e+00	0	40	0	671088640	52	4792
2026-01-02 22:27:02.89	113.83	21.60	-41.1	-43.3	19.4	0.00e+00	0	40	0	676331520	52	5037
2026-01-02 22:27:06.04	114.59	21.43	-41.4	-43.7	19.0	0.00e+00	0	40	0	681574400	53	4962
2026-01-02 22:27:08.91	115.28	21.27	-42.2	-44.7	18.2	0.00e+00	0	40	0	686817280	55	4968
2026-01-02 22:27:12.05	116.03	21.09	-41.4	-43.7	19.0	0.00e+00	0	40	0	693108736	54	4677
2026-01-02 22:27:14.92	116.71	20.93	-41.1	-43.3	19.4	0.00e+00	0	40	0	698351616	54	4462
2026-01-02 22:27:18.04	117.43	20.74	-41.8	-44.2	18.6	0.00e+00	0	40	0	704643072	54	4939
2026-01-02 22:27:21.05	118.12	20.56	-42.6	-45.2	17.6	0.00e+00	0	40	0	709885952	55	5240
2026-01-02 22:27:24.06	118.81	20.38	-42.4	-44.8	18.1	0.00e+00	0	40	0	716177408	56	4756
2026-01-02 22:27:27.06	119.48	20.20	-41.3	-43.5	19.2	0.00e+00	0	40	0	721420288	54	4592
2026-01-02 22:27:30.20	120.18	20.00	-41.7	-44.0	18.8	0.00e+00	0	40	0	727711744	54	4832
2026-01-02 22:27:33.25	120.85	19.81	-42.5	-45.0	17.8	0.00e+00	0	40	0	732954624	55	5121
2026-01-02 22:27:36.50	121.55	19.60	-42.8	-45.3	17.7	0.00e+00	0	40	0	739246080	56	5031
2026-01-02 22:27:39.37	122.17	19.41	-42.9	-45.6	17.4	0.00e+00	0	40	0	744488960	56	5183
2026-01-02 22:27:42.52	122.83	19.21	-43.0	-45.6	17.4	0.00e+00	0	40	0	750780416	56	5188
2026-01-02 22:27:45.39	123.43	19.02	-42.7	-45.2	17.8	0.00e+00	0	40	0	756023296	56	4967
2026-01-02 22:27:48.54	124.08	18.81	-43.0	-45.6	17.4	0.00e+00	0	40	0	761266176	56	5199
2026-01-02 22:27:51.40	124.66	18.62	-42.2	-44.6	18.2	0.00e+00	0	40	0	766509056	56	4634
2026-01-02 22:27:54.56	125.29	18.40	-41.5	-43.9	18.8	0.00e+00	0	40	0	772800512	54	4780
2026-01-02 22:27:57.42	125.86	18.21	-42.4	-45.0	17.8	0.00e+00	0	40	0	778043392	55	5124
2026-01-02 22:28:00.57	126.47	17.99	-42.9	-45.5	17.5	0.00e+00	0	40	0	784334848	56	5120
2026-01-02 22:28:03.44	127.03	17.80	-42.5	-45.0	17.9	0.00e+00	0	40	0	789577728	56	4853
2026-01-02 22:28:06.59	127.63	17.58	-43.3	-46.1	16.9	0.00e+00	0	40	0	795869184	57	5175
2026-01-02 22:28:09.46	128.17	17.38	-43.2	-46.0	17.0	0.00e+00	0	40	0	801112064	57	5103
2026-01-02 22:28:12.80	128.78	17.14	-42.1	-44.5	18.4	0.00e+00	0	40	0	807403520	56	4548
2026-01-02 22:28:15.71	129.32	16.94	-42.1	-44.6	18.1	0.00e+00	0	40	0	812646400	55	4899
2026-01-02 22:28:19.26	129.95	16.69	-42.2	-44.7	18.0	0.00e+00	0	40	0	818937856	55	4933
2026-01-02 22:28:21.99	130.44	16.50	-41.7	-44.0	18.6	0.00e+00	0	40	0	824180736	55	4598
2026-01-02 22:28:25.28	131.01	16.27	-42.5	-45.1	17.6	0.00e+00	0	40	0	830472192	55	5178
2026-01-02 22:28:28.00	131.48	16.07	-43.2	-45.9	16.9	0.00e+00	0	40	0	835715072	57	5094
2026-01-02 22:28:31.30	132.05	15.84	-42.5	-45.0	17.8	0.00e+00	0	40	0	842006528	56	4866
2026-01-02 22:28:34.02	132.50	15.65	-42.2	-44.6	18.2	0.00e+00	0	40	0	847249408	56	4644
2026-01-02 22:28:37.31	133.05	15.41	-42.5	-45.1	17.8	0.00e+00	0	40	0	853540864	56	4876
2026-01-02 22:28:40.08	133.50	15.22	-42.2	-44.6	18.2	0.00e+00	0	40	0	857735168	56	4617
2026-01-02 22:28:43.69	134.08	14.96	-42.3	-44.8	18.0	0.00e+00	0	40	0	865075200	56	4748
2026-01-02 22:28:46.56	134.53	14.76	-43.4	-46.2	16.7	0.00e+00	0	40	0	870318080	57	5238
2026-01-02 22:28:49.72	135.03	14.53	-43.9	-46.9	15.9	0.00e+00	0	40	0	876609536	58	5395
2026-01-02 22:28:52.58	135.47	14.33	-43.5	-46.3	16.5	0.00e+00	0	40	0	881852416	58	5039
2026-01-02 22:28:55.73	135.95	14.11	-42.8	-45.5	17.4	0.00e+00	0	40	0	887095296	57	4832
2026-01-02 22:28:58.59	136.37	13.90	-42.6	-45.2	17.6	0.00e+00	0	40	0	893386752	57	4681
2026-01-02 22:29:01.79	136.85	13.68	-42.2	-44.7	18.1	0.00e+00	0	40	0	898629632	56	4656
2026-01-02 22:29:04.73	137.28	13.47	-41.6	-44.0	18.6	0.00e+00	0	40	0	904921088	55	4553
2026-01-02 22:29:07.88	137.73	13.25	-42.1	-44.6	18.0	0.00e+00	0	40	0	910163968	55	4903
2026-01-02 22:29:10.75	138.13	13.04	-42.6	-45.3	17.3	0.00e+00	0	40	0	915406848	55	5315
2026-01-02 22:29:13.90	138.57	12.82	-43.3	-46.1	16.7	0.00e+00	0	40	0	921698304	57	5201
2026-01-02 22:29:16.77	138.97	12.62	-43.0	-45.8	16.9	0.00e+00	0	40	0	926941184	57	5021
2026-01-02 22:29:19.92	139.40	12.40	-42.7	-45.4	17.3	0.00e+00	0	40	0	933232640	57	4798
2026-01-02 22:29:22.82	139.79	12.20	-42.7	-45.4	17.3	0.00e+00	0	40	0	938475520	57	4807
2026-01-02 22:29:26.31	140.25	11.96	-42.8	-45.5	17.2	0.00e+00	0	40	0	944766976	57	4839
2026-01-02 22:29:29.03	140.60	11.77	-42.7	-45.4	17.3	0.00e+00	0	40	0	950009856	57	4786
2026-01-02 22:29:32.32	141.02	11.54	-42.7	-45.4	17.3	0.00e+00	0	40	0	956301312	57	4775
2026-01-02 22:29:35.09	141.37	11.35	-42.7	-45.4	17.2	0.00e+00	0	40	0	961544192	57	4807
2026-01-02 22:29:38.39	141.79	11.12	-43.2	-46.1	16.6	0.00e+00	0	40	0	967835648	57	5165
2026-01-02 22:29:41.11	142.12	10.94	-43.6	-46.7	16.0	0.00e+00	0	40	0	973078528	58	5237
2026-01-02 22:29:44.58	142.54	10.70	-44.2	-47.5	15.2	0.00e+00	0	40	0	979369984	59	5406
2026-01-02 22:29:47.36	142.88	10.51	-44.3	-47.6	15.1	0.00e+00	0	40	0	984612864	59	5485
2026-01-02 22:29:50.79	143.28	10.28	-43.9	-47.1	15.6	0.00e+00	0	40	0	990904320	59	5175
2026-01-02 22:29:53.51	143.60	10.09	-43.6	-46.7	16.0	0.00e+00	0	40	0	996147200	59	4928
2026-01-02 22:29:56.81	143.98	9.87	-43.3	-46.3	16.3	0.00e+00	0	40	0	1002438656	58	5035
2026-01-02 22:29:59.53	144.29	9.69	-43.3	-46.2	16.3	0.00e+00	0	40	0	1006632960	58	4958
2026-01-02 22:30:02.77	144.65	9.47	-43.0	-45.9	16.5	0.00e+00	0	40	0	1012924416	58	4806
2026-01-02 22:30:05.64	144.97	9.28	-42.9	-45.8	16.7	0.00e+00	0	40	0	1018167296	57	4996
2026-01-02 22:30:08.79	145.31	9.07	-43.1	-46.0	16.4	0.00e+00	0	40	0	1024458752	57	5144
2026-01-02 22:30:11.66	145.62	8.88	-48.7	-64.1	3.8	1.49e+00	0	40	104	1026555904	68	22000
2026-01-02 22:30:14.81	145.95	8.68	-49.1	-64.4	3.8	1.49e+00	0	40	104	1026555904	69	21323
2026-01-02 22:30:17.68	146.25	8.49	-49.1	-64.5	3.8	1.49e+00	0	40	104	1026555904	69	21531
2026-01-02 22:30:20.84	146.58	8.28	-49.3	-64.5	3.8	1.49e+00	0	40	104	1026555904	69	21619
2026-01-02 22:30:23.71	146.87	8.10	-49.3	-64.5	3.8	1.49e+00	0	40	104	1026555904	69	21698
2026-01-02 22:30:26.86	147.19	7.89	-49.4	-64.5	3.8	1.49e+00	0	40	104	1026555904	69	21744
2026-01-02 22:30:29.73	147.48	7.71	-49.0	-64.5	3.8	1.49e+00	0	40	104	1026555904	69	21615
2026-01-02 22:30:32.89	147.79	7.51	-49.1	-64.5	3.8	1.49e+00	0	40	104	1026555904	69	21543
2026-01-02 22:30:35.76	148.07	7.32	-49.0	-64.5	3.8	1.49e+00	0	40	104	1026555904	69	21546
2026-01-02 22:30:38.91	148.37	7.12	-49.0	-64.4	3.8	1.49e+00	0	40	104	1026555904	69	21465
2026-01-02 22:30:41.78	148.64	6.94	-49.0	-64.4	3.8	1.49e+00	0	40	104	1026555904	69	21411
2026-01-02 22:30:44.93	148.93	6.74	-49.0	-64.4	3.8	1.49e+00	0	40	104	1026555904	69	21403
2026-01-02 22:30:47.80	149.20	6.56	-49.0	-64.4	3.8	1.49e+00	0	40	104	1026555904	69	21400
2026-01-02 22:30:50.96	149.49	6.36	-49.0	-64.4	3.8	1.49e+00	0	40	104	1026555904	69	21372
2026-01-02 22:30:53.83	149.74	6.19	-49.0	-64.4	3.8	1.49e+00	0	40	104	1026555904	69	21424
2026-01-02 22:30:56.98	150.02	5.99	-49.0	-64.4	3.8	1.49e+00	0	40	104	1026555904	69	21356
2026-01-02 22:30:59.85	150.28	5.81	-49.0	-64.4	3.8	1.49e+00	0	40	104	1026555904	69	21384
2026-01-02 22:31:03.01	150.55	5.62	-49.0	-64.4	3.8	1.49e+00	0	40	104	1026555904	69	21395
2026-01-02 22:31:05.88	150.79	5.45	-49.0	-64.4	3.8	1.49e+00	0	40	104	1026555904	69	21398
2026-01-02 22:31:09.03	151.06	5.25	-49.0	-64.4	3.8	1.49e+00	0	40	104	1026555904	69	21326
2026-01-02 22:31:11.90	151.30	5.08	-49.0	-64.4	3.8	1.49e+00	0	40	104	1026555904	69	21287

#Closed at: 2026-01-02 22:31:15
#Recorded file [1026 MB]: D:/Data/31040_260103_011955.dat