passes_logs/2026/01/02/T1/T1__20260102_001843_SUOMI_NPP_rec.log

#Pass ID: 20260102_001843_SUOMI NPP
#Satellite: SUOMI NPP
#Configuration: NPP
#almurnet v.1.7.20251203
#Start time: 2026-01-02 00:18:43

#Version: 2.0.20230620
#Station: T1
#Location: 37.570604 lon 55.790049 lat
#TLE: 1 37849U 11061A   26001.07732418  .00000182  00000+0  10735-3 0  9990
#TLE: 2 37849  98.7795 303.2470 0002580  87.2016 272.9455 14.19520779734739

#Time	Az	El	Level	Level2	SNR	BER	BlckErr	Temp	State	Recorded	gain1	gain2
2026-01-02 00:18:43.71	12.92	5.02	-49.9	-65.4	3.8	1.49e+00	0	36	0	0	70	22604
2026-01-02 00:18:46.72	12.85	5.23	-49.9	-65.4	3.8	1.49e+00	0	36	104	0	71	21360
2026-01-02 00:18:49.73	12.77	5.45	-49.9	-65.4	3.8	1.49e+00	0	37	104	0	71	21384
2026-01-02 00:18:52.74	12.69	5.66	-49.9	-65.4	3.8	1.49e+00	0	37	104	0	71	21349
2026-01-02 00:18:55.75	12.61	5.88	-49.9	-65.4	3.8	1.49e+00	0	37	104	0	71	21306
2026-01-02 00:18:58.77	12.52	6.10	-49.9	-65.4	3.8	1.49e+00	0	37	104	0	71	21353
2026-01-02 00:19:01.78	12.44	6.32	-49.9	-65.4	3.8	1.49e+00	0	37	104	0	71	21367
2026-01-02 00:19:04.79	12.35	6.54	-49.9	-65.4	3.8	1.49e+00	0	37	104	0	71	21354
2026-01-02 00:19:07.80	12.27	6.77	-49.9	-65.4	3.8	1.49e+00	0	37	104	0	71	21325
2026-01-02 00:19:10.82	12.18	6.99	-49.9	-65.4	3.8	1.49e+00	0	37	104	0	71	21327
2026-01-02 00:19:13.83	12.09	7.22	-49.9	-65.4	3.8	1.49e+00	0	37	104	0	71	21305
2026-01-02 00:19:16.84	12.00	7.45	-49.9	-65.4	3.8	1.49e+00	0	38	104	0	71	21299
2026-01-02 00:19:19.85	11.90	7.68	-49.9	-65.4	3.8	1.49e+00	0	38	104	0	71	21400
2026-01-02 00:19:22.87	11.81	7.92	-49.9	-65.4	3.8	1.49e+00	0	38	104	0	71	21374
2026-01-02 00:19:25.88	11.71	8.16	-49.9	-65.4	3.8	1.49e+00	0	38	104	0	71	21374
2026-01-02 00:19:28.89	11.61	8.39	-50.0	-65.4	3.8	1.49e+00	0	38	104	0	71	21337
2026-01-02 00:19:31.90	11.51	8.63	-49.9	-65.4	3.8	1.49e+00	0	38	104	0	71	21395
2026-01-02 00:19:34.91	11.41	8.88	-50.0	-65.4	3.8	1.49e+00	0	38	104	0	71	21360
2026-01-02 00:19:37.92	11.31	9.12	-49.9	-65.4	3.8	1.49e+00	0	38	104	0	71	21367
2026-01-02 00:19:40.94	11.20	9.37	-49.9	-65.4	3.8	1.49e+00	0	38	104	0	71	21387
2026-01-02 00:19:43.95	11.09	9.62	-49.9	-65.4	3.8	1.49e+00	0	38	104	0	71	21345
2026-01-02 00:19:46.96	10.98	9.87	-49.9	-65.4	3.8	1.49e+00	0	38	104	0	71	21348
2026-01-02 00:19:49.97	10.87	10.13	-49.9	-65.4	3.8	1.49e+00	0	38	104	0	71	21332
2026-01-02 00:19:52.99	10.75	10.39	-50.0	-65.4	3.8	1.49e+00	0	38	104	0	71	21387
2026-01-02 00:19:56.00	10.64	10.65	-50.0	-65.4	3.8	1.49e+00	0	39	104	0	71	21400
2026-01-02 00:19:59.01	10.52	10.91	-50.0	-65.4	3.8	1.49e+00	0	38	104	0	71	21427
2026-01-02 00:20:02.03	10.40	11.18	-50.0	-65.4	3.8	1.49e+00	0	39	104	0	71	21387
2026-01-02 00:20:05.04	10.27	11.44	-50.0	-65.4	3.8	1.49e+00	0	38	104	0	71	21390
2026-01-02 00:20:08.05	10.15	11.72	-50.0	-65.4	3.8	1.49e+00	0	39	104	0	71	21366
2026-01-02 00:20:11.06	10.02	11.99	-49.9	-65.4	3.8	1.49e+00	0	39	104	0	71	21379
2026-01-02 00:20:14.07	9.88	12.27	-49.9	-65.4	3.8	1.49e+00	0	38	104	0	71	21368
2026-01-02 00:20:17.09	9.75	12.55	-49.9	-65.4	3.8	1.49e+00	0	39	104	0	71	21369
2026-01-02 00:20:20.10	9.61	12.83	-49.9	-65.4	3.8	1.49e+00	0	39	104	0	71	21387
2026-01-02 00:20:23.11	9.47	13.12	-49.9	-65.5	3.8	1.49e+00	0	39	104	0	71	21507
2026-01-02 00:20:26.12	9.33	13.40	-50.0	-65.4	3.8	1.49e+00	0	39	104	0	71	21374
2026-01-02 00:20:29.17	9.18	13.70	-49.9	-65.4	3.8	1.49e+00	0	39	104	0	71	21482
2026-01-02 00:20:32.14	9.03	13.99	-49.9	-65.4	3.8	1.49e+00	0	39	104	0	71	21437
2026-01-02 00:20:35.18	8.88	14.30	-49.9	-65.4	3.8	1.49e+00	0	39	104	0	71	21282
2026-01-02 00:20:38.20	8.72	14.60	-50.0	-65.5	3.8	1.49e+00	0	39	104	0	71	21532
2026-01-02 00:20:41.21	8.56	14.91	-50.0	-65.4	3.8	1.49e+00	0	39	104	0	71	21462
2026-01-02 00:20:44.25	8.40	15.22	-49.9	-65.4	3.8	1.49e+00	0	39	104	0	71	21306
2026-01-02 00:20:47.26	8.23	15.53	-49.9	-65.4	3.8	1.49e+00	0	39	104	0	71	21497
2026-01-02 00:20:50.27	8.06	15.85	-50.0	-65.4	3.8	1.49e+00	0	39	104	0	71	21364
2026-01-02 00:20:53.29	7.88	16.17	-50.0	-65.4	3.8	1.49e+00	0	39	104	0	71	21386
2026-01-02 00:20:56.30	7.70	16.50	-50.0	-65.4	3.8	1.49e+00	0	39	104	0	71	21498
2026-01-02 00:20:59.36	7.52	16.83	-50.0	-65.4	3.8	1.49e+00	0	39	104	0	71	21402
2026-01-02 00:21:02.32	7.33	17.16	-50.0	-65.4	3.8	1.49e+00	0	39	104	0	71	21438
2026-01-02 00:21:05.71	7.12	17.54	-50.0	-65.4	3.8	1.49e+00	0	39	104	0	71	21431
2026-01-02 00:21:08.43	6.94	17.85	-50.0	-65.4	3.8	1.49e+00	0	39	104	0	71	21365
2026-01-02 00:21:11.73	6.72	18.24	-50.0	-65.4	3.8	1.49e+00	0	39	104	0	71	21363
2026-01-02 00:21:14.46	6.53	18.56	-50.0	-65.4	3.8	1.49e+00	0	39	104	0	71	21420
2026-01-02 00:21:17.76	6.30	18.95	-50.0	-65.4	3.8	1.49e+00	0	39	104	0	71	21465
2026-01-02 00:21:20.48	6.10	19.27	-50.0	-65.4	3.8	1.49e+00	0	39	104	0	71	21439
2026-01-02 00:21:23.78	5.86	19.67	-50.0	-65.4	3.8	1.49e+00	0	39	104	0	71	21388
2026-01-02 00:21:26.51	5.65	20.01	-50.0	-65.4	3.8	1.49e+00	0	39	104	0	71	21435
2026-01-02 00:21:29.81	5.39	20.42	-50.0	-65.4	3.8	1.49e+00	0	39	104	0	71	21418
2026-01-02 00:21:32.53	5.18	20.77	-50.0	-65.4	3.8	1.49e+00	0	39	104	0	71	21383
2026-01-02 00:21:35.83	4.91	21.19	-50.0	-65.4	3.8	1.49e+00	0	39	104	0	71	21347
2026-01-02 00:21:38.56	4.68	21.55	-50.0	-65.4	3.8	1.49e+00	0	39	104	0	71	21475
2026-01-02 00:21:41.86	4.39	21.99	-50.0	-65.4	3.8	1.49e+00	0	39	104	0	71	21416
2026-01-02 00:21:44.58	4.15	22.35	-50.0	-65.4	3.8	1.49e+00	0	39	104	0	71	21497
2026-01-02 00:21:47.88	3.85	22.80	-50.0	-65.4	3.8	1.49e+00	0	39	104	0	71	21392
2026-01-02 00:21:50.61	3.59	23.18	-50.0	-65.4	3.8	1.49e+00	0	39	104	0	71	21395
2026-01-02 00:21:53.91	3.27	23.64	-50.0	-65.4	3.8	1.49e+00	0	39	104	0	71	21432
2026-01-02 00:21:56.63	3.00	24.03	-50.0	-65.4	3.8	1.49e+00	0	39	104	0	71	21469
2026-01-02 00:21:59.93	2.67	24.50	-50.0	-65.4	3.8	1.49e+00	0	39	104	0	71	21482
2026-01-02 00:22:02.66	2.38	24.90	-50.0	-65.4	3.8	1.49e+00	0	39	104	0	71	21390
2026-01-02 00:22:05.96	2.02	25.39	-50.0	-65.4	3.8	1.49e+00	0	39	104	0	71	21418
2026-01-02 00:22:08.69	1.72	25.80	-50.0	-65.4	3.8	1.49e+00	0	39	104	0	71	21401
2026-01-02 00:22:11.99	1.34	26.31	-50.0	-65.4	3.8	1.49e+00	0	40	104	0	71	21394
2026-01-02 00:22:14.71	1.02	26.73	-50.0	-65.4	3.8	1.49e+00	0	40	104	0	71	21386
2026-01-02 00:22:18.01	0.62	27.25	-50.0	-65.4	3.8	1.49e+00	0	40	104	0	71	21446
2026-01-02 00:22:20.74	0.27	27.68	-50.0	-65.4	3.8	1.49e+00	0	39	104	0	71	21448
2026-01-02 00:22:24.04	359.85	28.22	-50.0	-65.4	3.8	1.49e+00	0	39	104	0	71	21443
2026-01-02 00:22:26.76	359.48	28.67	-50.0	-65.4	3.8	1.49e+00	0	39	104	0	71	21362
2026-01-02 00:22:30.06	359.03	29.22	-50.0	-65.4	3.8	1.49e+00	0	39	104	0	71	21372
2026-01-02 00:22:32.79	358.64	29.68	-50.0	-65.4	3.8	1.49e+00	0	40	104	0	71	21423
2026-01-02 00:22:36.09	358.15	30.25	-50.0	-65.4	3.8	1.49e+00	0	39	104	0	71	21429
2026-01-02 00:22:38.81	357.73	30.72	-50.0	-65.4	3.8	1.49e+00	0	39	104	0	71	21451
2026-01-02 00:22:42.11	357.21	31.30	-50.0	-65.4	3.8	1.49e+00	0	40	104	0	71	21425
2026-01-02 00:22:44.84	356.77	31.79	-50.0	-65.4	3.8	1.49e+00	0	39	104	0	71	21448
2026-01-02 00:22:48.13	356.21	32.39	-50.0	-65.4	3.8	1.49e+00	0	40	104	0	71	21488
2026-01-02 00:22:50.86	355.74	32.89	-50.0	-65.4	3.8	1.49e+00	0	40	104	0	71	21471
2026-01-02 00:22:54.16	355.14	33.51	-50.0	-65.4	3.8	1.49e+00	0	39	104	0	71	21432
2026-01-02 00:22:56.89	354.63	34.03	-50.0	-65.4	3.8	1.49e+00	0	40	104	0	71	21410
2026-01-02 00:23:00.19	353.99	34.66	-50.0	-65.4	3.8	1.49e+00	0	39	104	0	71	21456
2026-01-02 00:23:02.91	353.44	35.19	-50.0	-65.4	3.8	1.49e+00	0	39	104	0	71	21428
2026-01-02 00:23:06.18	352.76	35.83	-50.0	-65.4	3.8	1.49e+00	0	40	104	0	71	21480
2026-01-02 00:23:09.05	352.13	36.40	-50.0	-65.4	3.8	1.49e+00	0	40	104	0	71	21472
2026-01-02 00:23:12.20	351.43	37.03	-50.0	-65.4	3.8	1.49e+00	0	40	104	0	71	21424
2026-01-02 00:23:15.07	350.75	37.62	-50.0	-65.4	3.8	1.49e+00	0	39	104	0	71	21506
2026-01-02 00:23:18.23	349.99	38.26	-50.0	-65.4	3.8	1.49e+00	0	40	104	0	71	21336
2026-01-02 00:23:21.10	349.26	38.86	-50.0	-65.4	3.8	1.49e+00	0	39	104	0	71	21355
2026-01-02 00:23:24.25	348.43	39.52	-50.0	-65.4	3.8	1.49e+00	0	40	104	0	71	21447
2026-01-02 00:23:27.12	347.65	40.12	-50.0	-65.4	3.8	1.49e+00	0	40	104	0	71	21421
2026-01-02 00:23:30.28	346.75	40.79	-50.0	-65.4	3.8	1.49e+00	0	40	104	0	71	21481
2026-01-02 00:23:33.15	345.90	41.41	-50.0	-65.5	3.8	1.49e+00	0	40	104	0	71	21514
2026-01-02 00:23:36.31	344.93	42.08	-50.0	-65.4	3.8	1.49e+00	0	40	104	0	71	21458
2026-01-02 00:23:39.18	344.01	42.70	-50.0	-65.4	3.8	1.49e+00	0	40	104	0	71	21485
2026-01-02 00:23:42.33	342.96	43.38	-50.0	-65.4	3.8	1.49e+00	0	40	104	0	71	21500
2026-01-02 00:23:45.20	341.96	44.00	-50.0	-65.4	3.8	1.49e+00	0	40	104	0	71	21475
2026-01-02 00:23:48.36	340.81	44.68	-50.0	-65.4	3.8	1.49e+00	0	40	104	0	71	21486
2026-01-02 00:23:51.23	339.72	45.30	-50.0	-65.4	3.8	1.49e+00	0	40	104	0	71	21468
2026-01-02 00:23:54.43	338.46	45.99	-50.0	-65.5	3.8	1.49e+00	0	40	104	0	71	21523
2026-01-02 00:23:57.37	337.25	46.62	-50.0	-65.4	3.8	1.49e+00	0	40	104	0	71	21489
2026-01-02 00:24:00.65	335.85	47.31	-50.0	-65.4	3.8	1.49e+00	0	40	104	0	71	21494
2026-01-02 00:24:03.58	334.54	47.92	-50.0	-65.5	3.8	1.49e+00	0	40	104	0	71	21513
2026-01-02 00:24:06.74	333.06	48.57	-50.0	-65.4	3.8	1.49e+00	0	40	104	0	71	21458
2026-01-02 00:24:09.60	331.67	49.15	-50.0	-65.4	3.8	1.49e+00	0	39	104	0	71	21455
2026-01-02 00:24:12.76	330.08	49.78	-49.8	-65.4	3.8	1.49e+00	0	40	104	0	71	21461
2026-01-02 00:24:15.65	328.56	50.34	-49.7	-65.4	3.8	1.49e+00	0	40	104	0	71	21376
2026-01-02 00:24:18.80	326.84	50.93	-49.8	-65.4	3.8	1.49e+00	0	40	104	0	70	22740
2026-01-02 00:24:21.67	325.22	51.45	-49.9	-65.4	3.8	1.49e+00	0	40	104	0	70	22697
2026-01-02 00:24:24.83	323.36	52.00	-50.0	-65.4	3.8	1.49e+00	0	40	104	0	70	22711
2026-01-02 00:24:27.70	321.62	52.48	-50.0	-65.4	3.8	1.49e+00	0	40	104	0	70	22765
2026-01-02 00:24:30.85	319.64	52.97	-50.0	-65.4	3.8	1.49e+00	0	40	104	0	70	22743
2026-01-02 00:24:33.72	317.77	53.40	-50.0	-65.4	3.8	1.49e+00	0	40	104	0	70	22744
2026-01-02 00:24:36.88	315.66	53.83	-50.0	-65.4	3.8	1.49e+00	0	40	104	0	70	22686
2026-01-02 00:24:39.75	313.69	54.19	-50.0	-65.5	3.8	1.49e+00	0	40	104	0	70	22845
2026-01-02 00:24:42.90	311.47	54.55	-50.0	-65.5	3.8	1.49e+00	0	40	104	0	70	22812
2026-01-02 00:24:45.77	309.40	54.84	-50.0	-65.5	3.8	1.49e+00	0	40	104	0	70	22836
2026-01-02 00:24:48.93	307.07	55.12	-50.0	-65.4	3.8	1.49e+00	0	40	104	0	70	22708
2026-01-02 00:24:51.80	304.93	55.33	-50.0	-65.4	3.8	1.49e+00	0	40	104	0	70	22727
2026-01-02 00:24:54.96	302.52	55.52	-50.0	-65.4	3.8	1.49e+00	0	40	104	0	70	22688
2026-01-02 00:24:57.83	300.32	55.65	-50.0	-65.5	3.8	1.49e+00	0	40	104	0	70	22782
2026-01-02 00:25:00.98	297.88	55.74	-50.0	-65.5	3.8	1.49e+00	0	40	104	0	70	22799
2026-01-02 00:25:03.85	295.65	55.78	-50.0	-65.4	3.8	1.49e+00	0	40	104	0	70	22770
2026-01-02 00:25:07.01	293.19	55.77	-50.0	-65.4	3.8	1.49e+00	0	40	104	0	70	22735
2026-01-02 00:25:09.88	290.95	55.72	-50.0	-65.4	3.8	1.49e+00	0	40	104	0	70	22713
2026-01-02 00:25:13.03	288.52	55.62	-50.0	-65.4	3.8	1.49e+00	0	40	104	0	70	22713
2026-01-02 00:25:15.90	286.32	55.48	-50.0	-65.4	3.8	1.49e+00	0	40	104	0	70	22750
2026-01-02 00:25:19.06	283.92	55.28	-50.0	-65.5	3.8	1.49e+00	0	40	104	0	70	22830
2026-01-02 00:25:21.93	281.78	55.06	-50.0	-65.4	3.8	1.49e+00	0	40	104	0	70	22755
2026-01-02 00:25:25.08	279.47	54.77	-50.0	-65.4	3.8	1.49e+00	0	40	104	0	70	22737
2026-01-02 00:25:27.96	277.41	54.47	-50.0	-65.4	3.8	1.49e+00	0	40	104	0	70	22743
2026-01-02 00:25:31.11	275.20	54.10	-50.0	-65.4	3.8	1.49e+00	0	40	104	0	70	22771
2026-01-02 00:25:33.98	273.24	53.72	-50.0	-65.4	3.8	1.49e+00	0	40	104	0	70	22748
2026-01-02 00:25:37.13	271.14	53.28	-50.0	-65.5	3.8	1.49e+00	0	40	104	0	70	22819
2026-01-02 00:25:40.00	269.29	52.85	-50.0	-65.4	3.8	1.49e+00	0	40	104	0	70	22739
2026-01-02 00:25:43.16	267.32	52.34	-50.0	-65.4	3.8	1.49e+00	0	40	104	0	70	22753
2026-01-02 00:25:46.03	265.59	51.86	-50.0	-65.5	3.8	1.49e+00	0	40	104	0	70	22800
2026-01-02 00:25:49.18	263.75	51.30	-50.0	-65.5	3.8	1.49e+00	0	40	104	0	70	22838
2026-01-02 00:25:52.05	262.14	50.78	-50.0	-65.4	3.8	1.49e+00	0	40	104	0	70	22744
2026-01-02 00:25:55.21	260.43	50.18	-50.0	-65.4	3.8	1.49e+00	0	40	104	0	70	22726
2026-01-02 00:25:58.08	258.93	49.62	-50.0	-65.5	3.8	1.49e+00	0	40	104	0	70	22832
2026-01-02 00:26:01.14	257.40	49.01	-50.0	-65.5	3.8	1.49e+00	0	40	104	0	70	22799
2026-01-02 00:26:04.15	255.95	48.39	-50.0	-65.5	3.8	1.49e+00	0	40	104	0	70	22814
2026-01-02 00:26:07.17	254.55	47.77	-50.0	-65.5	3.8	1.49e+00	0	40	104	0	70	22827
2026-01-02 00:26:10.18	253.21	47.13	-50.0	-65.5	3.8	1.49e+00	0	40	104	0	70	22796
2026-01-02 00:26:13.19	251.93	46.49	-50.0	-65.4	3.8	1.49e+00	0	40	104	0	70	22737
2026-01-02 00:26:16.20	250.70	45.85	-50.0	-65.4	3.8	1.49e+00	0	40	104	0	70	22774
2026-01-02 00:26:19.22	249.51	45.20	-50.0	-65.4	3.8	1.49e+00	0	40	104	0	70	22755
2026-01-02 00:26:22.23	248.38	44.55	-50.0	-65.4	3.8	1.49e+00	0	40	104	0	70	22767
2026-01-02 00:26:25.27	247.28	43.89	-50.0	-65.5	3.8	1.49e+00	0	40	104	0	70	22798
2026-01-02 00:26:28.23	246.25	43.24	-50.0	-65.5	3.8	1.49e+00	0	40	104	0	70	22849
2026-01-02 00:26:31.78	245.07	42.48	-50.0	-65.5	3.8	1.49e+00	0	40	104	0	70	22889
2026-01-02 00:26:34.57	244.18	41.87	-50.0	-65.5	3.8	1.49e+00	0	40	104	0	70	22829
2026-01-02 00:26:37.93	243.16	41.15	-50.0	-65.5	3.8	1.49e+00	0	40	104	0	70	22789
2026-01-02 00:26:40.66	242.36	40.57	-50.0	-65.5	3.8	1.49e+00	0	40	104	0	70	22937
2026-01-02 00:26:43.95	241.43	39.87	-50.0	-65.5	3.8	1.49e+00	0	40	104	0	70	22784
2026-01-02 00:26:46.68	240.69	39.29	-50.0	-65.4	3.8	1.49e+00	0	40	104	0	70	22725
2026-01-02 00:26:49.98	239.83	38.60	-50.0	-65.5	3.8	1.49e+00	0	40	104	0	70	22812
2026-01-02 00:26:52.71	239.15	38.03	-50.0	-65.5	3.8	1.49e+00	0	40	104	0	70	22853
2026-01-02 00:26:56.01	238.35	37.36	-50.0	-65.5	3.8	1.49e+00	0	40	104	0	70	22843
2026-01-02 00:26:58.73	237.72	36.80	-50.0	-65.5	3.8	1.49e+00	0	40	104	0	70	22801
2026-01-02 00:27:02.03	236.99	36.14	-50.0	-65.5	3.8	1.49e+00	0	40	104	0	70	22844
2026-01-02 00:27:04.76	236.40	35.60	-50.0	-65.5	3.8	1.49e+00	0	40	104	0	70	22807
2026-01-02 00:27:08.06	235.71	34.95	-50.0	-65.5	3.8	1.49e+00	0	40	104	0	70	22857
2026-01-02 00:27:10.78	235.17	34.42	-50.0	-65.4	3.8	1.49e+00	0	40	104	0	70	22741
2026-01-02 00:27:14.08	234.53	33.79	-50.0	-65.4	3.8	1.49e+00	0	40	104	0	70	22743
2026-01-02 00:27:16.81	234.03	33.27	-50.0	-65.5	3.8	1.49e+00	0	40	104	0	70	22869
2026-01-02 00:27:20.11	233.43	32.66	-50.0	-65.4	3.8	1.49e+00	0	40	104	0	70	22749
2026-01-02 00:27:22.83	232.96	32.16	-50.0	-65.4	3.8	1.49e+00	0	40	104	0	70	22759
2026-01-02 00:27:26.13	232.41	31.56	-50.0	-65.5	3.8	1.49e+00	0	40	104	0	70	22888
2026-01-02 00:27:28.86	231.97	31.07	-50.0	-65.5	3.8	1.49e+00	0	40	104	0	70	22810
2026-01-02 00:27:32.16	231.45	30.48	-50.0	-65.5	3.8	1.49e+00	0	40	104	0	70	22823
2026-01-02 00:27:34.88	231.04	30.01	-50.0	-65.5	3.8	1.49e+00	0	40	104	0	70	22891
2026-01-02 00:27:38.18	230.55	29.44	-50.0	-65.4	3.8	1.49e+00	0	40	104	0	70	22745
2026-01-02 00:27:40.91	230.16	28.98	-50.0	-65.5	3.8	1.49e+00	0	40	104	0	70	22895
2026-01-02 00:27:44.21	229.71	28.43	-50.0	-65.5	3.8	1.49e+00	0	40	104	0	70	22825
2026-01-02 00:27:46.94	229.35	27.98	-50.0	-65.5	3.8	1.49e+00	0	40	104	0	70	22825
2026-01-02 00:27:50.36	228.90	27.43	-50.0	-65.5	3.8	1.49e+00	0	40	104	0	70	22827
2026-01-02 00:27:53.09	228.56	26.99	-50.0	-65.5	3.8	1.49e+00	0	40	104	0	70	22818
2026-01-02 00:27:56.39	228.16	26.47	-50.0	-65.5	3.8	1.49e+00	0	40	104	0	70	22813
2026-01-02 00:27:59.11	227.84	26.05	-50.0	-65.5	3.8	1.49e+00	0	40	104	0	70	22886
2026-01-02 00:28:02.41	227.47	25.55	-50.0	-65.5	3.8	1.49e+00	0	40	104	0	70	22887
2026-01-02 00:28:05.14	227.16	25.14	-50.0	-65.5	3.8	1.49e+00	0	41	104	0	70	22868
2026-01-02 00:28:08.44	226.81	24.65	-50.0	-65.4	3.8	1.49e+00	0	40	104	0	70	22750
2026-01-02 00:28:11.18	226.52	24.25	-50.0	-65.5	3.8	1.49e+00	0	40	104	0	70	22789
2026-01-02 00:28:14.42	226.19	23.78	-50.0	-65.5	3.8	1.49e+00	0	40	104	0	70	22820
2026-01-02 00:28:17.29	225.91	23.37	-50.0	-65.5	3.8	1.49e+00	0	40	104	0	70	22838
2026-01-02 00:28:20.44	225.60	22.93	-50.0	-65.5	3.8	1.49e+00	0	40	104	0	70	22870
2026-01-02 00:28:23.31	225.33	22.54	-50.0	-65.5	3.8	1.49e+00	0	40	104	0	70	22851
2026-01-02 00:28:26.47	225.05	22.11	-50.0	-65.5	3.8	1.49e+00	0	40	104	0	70	22903
2026-01-02 00:28:29.34	224.79	21.73	-50.0	-65.5	3.8	1.49e+00	0	41	104	0	70	22816
2026-01-02 00:28:32.49	224.52	21.31	-50.0	-65.5	3.8	1.49e+00	0	40	104	0	70	22824
2026-01-02 00:28:35.36	224.28	20.94	-50.0	-65.5	3.8	1.49e+00	0	40	104	0	70	22833
2026-01-02 00:28:38.64	224.01	20.51	-50.0	-65.5	3.8	1.49e+00	0	40	104	0	70	22876
2026-01-02 00:28:41.59	223.77	20.14	-50.0	-65.5	3.8	1.49e+00	0	40	104	0	70	22867
2026-01-02 00:28:44.75	223.53	19.75	-50.0	-65.5	3.8	1.49e+00	0	40	104	0	70	22806
2026-01-02 00:28:47.62	223.31	19.39	-50.0	-65.5	3.8	1.49e+00	0	40	104	0	70	22826
2026-01-02 00:28:50.77	223.08	19.01	-50.0	-65.5	3.8	1.49e+00	0	41	104	0	70	22974
2026-01-02 00:28:53.64	222.87	18.67	-50.0	-65.5	3.8	1.49e+00	0	40	104	0	70	22916
2026-01-02 00:28:56.80	222.65	18.29	-50.0	-65.4	3.8	1.49e+00	0	40	104	0	70	22724
2026-01-02 00:28:59.67	222.45	17.96	-50.0	-65.4	3.8	1.49e+00	0	41	104	0	70	22749
2026-01-02 00:29:02.82	222.24	17.60	-50.0	-65.5	3.8	1.49e+00	0	40	104	0	70	22803
2026-01-02 00:29:05.69	222.05	17.27	-50.0	-65.5	3.8	1.49e+00	0	40	104	0	70	22807
2026-01-02 00:29:08.85	221.85	16.91	-50.0	-65.5	3.8	1.49e+00	0	40	104	0	70	22894
2026-01-02 00:29:11.71	221.67	16.60	-50.0	-65.5	3.8	1.49e+00	0	40	104	0	70	22825
2026-01-02 00:29:14.87	221.48	16.25	-50.0	-65.5	3.8	1.49e+00	0	40	104	0	70	22815
2026-01-02 00:29:17.74	221.31	15.94	-50.0	-65.5	3.8	1.49e+00	0	40	104	0	70	22827
2026-01-02 00:29:20.89	221.12	15.61	-50.0	-65.5	3.8	1.49e+00	0	40	104	0	70	22890
2026-01-02 00:29:23.77	220.96	15.30	-50.0	-65.5	3.8	1.49e+00	0	40	104	0	70	22889
2026-01-02 00:29:26.92	220.78	14.97	-50.0	-65.5	3.8	1.49e+00	0	40	104	0	70	22871
2026-01-02 00:29:29.79	220.62	14.68	-50.0	-65.5	3.8	1.49e+00	0	41	104	0	70	22839
2026-01-02 00:29:32.95	220.45	14.36	-50.0	-65.5	3.8	1.49e+00	0	41	104	0	70	22817
2026-01-02 00:29:35.82	220.30	14.07	-50.0	-65.5	3.8	1.49e+00	0	40	104	0	70	22803
2026-01-02 00:29:38.97	220.14	13.76	-50.0	-65.5	3.8	1.49e+00	0	40	104	0	70	22828
2026-01-02 00:29:41.84	220.00	13.47	-50.0	-65.5	3.8	1.49e+00	0	40	104	0	70	22890
2026-01-02 00:29:45.00	219.84	13.17	-50.0	-65.5	3.8	1.49e+00	0	40	104	0	70	22789
2026-01-02 00:29:47.87	219.70	12.89	-50.0	-65.5	3.8	1.49e+00	0	40	104	0	70	22839
2026-01-02 00:29:51.03	219.55	12.59	-50.0	-65.5	3.8	1.49e+00	0	40	104	0	70	22882
2026-01-02 00:29:53.89	219.42	12.32	-50.0	-65.5	3.8	1.49e+00	0	41	104	0	70	22964
2026-01-02 00:29:57.05	219.28	12.03	-50.0	-65.4	3.8	1.49e+00	0	40	104	0	70	22776
2026-01-02 00:29:59.92	219.15	11.77	-50.0	-65.5	3.8	1.49e+00	0	41	104	0	70	22839
2026-01-02 00:30:03.09	219.01	11.48	-50.0	-65.5	3.8	1.49e+00	0	41	104	0	70	22896
2026-01-02 00:30:05.96	218.89	11.22	-50.0	-65.5	3.8	1.49e+00	0	41	104	0	70	22895
2026-01-02 00:30:09.12	218.76	10.94	-50.0	-65.5	3.8	1.49e+00	0	40	104	0	70	22844
2026-01-02 00:30:11.99	218.64	10.69	-50.0	-65.5	3.8	1.49e+00	0	40	104	0	70	22881
2026-01-02 00:30:15.14	218.51	10.41	-50.0	-65.5	3.8	1.49e+00	0	41	104	0	70	22961
2026-01-02 00:30:18.01	218.40	10.16	-50.0	-65.5	3.8	1.49e+00	0	40	104	0	70	22804
2026-01-02 00:30:21.17	218.28	9.89	-50.0	-65.5	3.8	1.49e+00	0	41	104	0	70	22833
2026-01-02 00:30:24.04	218.17	9.65	-50.0	-65.5	3.8	1.49e+00	0	40	104	0	70	22844
2026-01-02 00:30:27.19	218.05	9.39	-50.0	-65.5	3.8	1.49e+00	0	41	104	0	70	22908
2026-01-02 00:30:30.06	217.95	9.15	-50.0	-65.5	3.8	1.49e+00	0	41	104	0	70	22902
2026-01-02 00:30:33.22	217.83	8.89	-50.0	-65.5	3.8	1.49e+00	0	41	104	0	70	22857
2026-01-02 00:30:36.09	217.73	8.66	-50.0	-65.5	3.8	1.49e+00	0	40	104	0	70	22942
2026-01-02 00:30:39.24	217.62	8.40	-50.0	-65.5	3.8	1.49e+00	0	41	104	0	70	22855
2026-01-02 00:30:42.33	217.51	8.15	-50.0	-65.5	3.8	1.49e+00	0	41	104	0	70	22918
2026-01-02 00:30:45.75	217.40	7.88	-50.0	-65.5	3.8	1.49e+00	0	41	104	0	70	22896
2026-01-02 00:30:48.47	217.31	7.67	-50.0	-65.5	3.8	1.49e+00	0	40	104	0	70	22855
2026-01-02 00:30:51.77	217.20	7.41	-50.0	-65.5	3.8	1.49e+00	0	40	104	0	70	22866
2026-01-02 00:30:54.49	217.12	7.20	-50.0	-65.5	3.8	1.49e+00	0	41	104	0	70	22857
2026-01-02 00:30:57.79	217.01	6.95	-50.0	-65.5	3.8	1.49e+00	0	41	104	0	70	22885
2026-01-02 00:31:00.52	216.93	6.75	-50.0	-65.5	3.8	1.49e+00	0	41	104	0	70	22932
2026-01-02 00:31:03.82	216.83	6.50	-50.0	-65.5	3.8	1.49e+00	0	41	104	0	70	22859
2026-01-02 00:31:06.54	216.75	6.30	-50.0	-65.5	3.8	1.49e+00	0	41	104	0	70	22802
2026-01-02 00:31:09.84	216.65	6.05	-50.0	-65.5	3.8	1.49e+00	0	41	104	0	70	22922
2026-01-02 00:31:12.57	216.57	5.85	-50.0	-65.5	3.8	1.49e+00	0	41	104	0	70	22912
2026-01-02 00:31:15.96	216.48	5.61	-50.0	-65.5	3.8	1.49e+00	0	41	104	0	70	22892
2026-01-02 00:31:18.69	216.40	5.41	-50.0	-65.5	3.8	1.49e+00	0	41	104	0	70	22898
2026-01-02 00:31:21.99	216.31	5.17	-50.0	-65.5	3.8	1.49e+00	0	41	104	0	70	22819
2026-01-02 00:31:24.71	216.24	4.98	-50.0	-65.5	3.8	1.49e+00	0	41	104	0	70	22849

#Closed at: 2026-01-02 00:31:26
#Recorded file [0 MB]: D:/Data/31040_260102_031843.dat