passes_logs/2026/01/02/T1/T1__20260102_003937_NOAA_20_JPSS-1_rec.log

#Pass ID: 20260102_003937_NOAA 20 (JPSS-1)
#Satellite: NOAA 20 (JPSS-1)
#Configuration: NOAA 20
#almurnet v.1.7.20251203
#Start time: 2026-01-02 00:39:38

#Version: 2.0.20230620
#Station: T1
#Location: 37.570604 lon 55.790049 lat
#TLE: 1 43013U 17073A   26001.30344297  .00000183  00000+0  10758-3 0  9995
#TLE: 2 43013  98.7621 302.3885 0001938  59.1624 300.9742 14.19532032420790

#Time	Az	El	Level	Level2	SNR	BER	BlckErr	Temp	State	Recorded	gain1	gain2
2026-01-02 00:39:38.75	10.38	5.11	-50.0	-65.5	3.8	1.49e+00	0	39	0	0	70	22845
2026-01-02 00:39:41.76	10.24	5.32	-50.0	-65.5	3.8	1.49e+00	0	39	104	0	71	21582
2026-01-02 00:39:44.77	10.09	5.53	-50.0	-65.5	3.8	1.49e+00	0	39	104	0	71	21589
2026-01-02 00:39:47.78	9.94	5.73	-50.0	-65.5	3.8	1.49e+00	0	39	104	0	71	21537
2026-01-02 00:39:50.79	9.79	5.94	-50.0	-65.5	3.8	1.49e+00	0	39	104	0	71	21626
2026-01-02 00:39:53.80	9.64	6.15	-50.0	-65.5	3.8	1.49e+00	0	39	104	0	71	21512
2026-01-02 00:39:56.82	9.49	6.37	-50.0	-65.5	3.8	1.49e+00	0	39	104	0	71	21566
2026-01-02 00:39:59.83	9.33	6.58	-50.0	-65.5	3.8	1.49e+00	0	40	104	0	71	21554
2026-01-02 00:40:02.84	9.17	6.80	-50.0	-65.5	3.8	1.49e+00	0	40	104	0	71	21536
2026-01-02 00:40:05.85	9.01	7.01	-50.0	-65.5	3.8	1.49e+00	0	40	104	0	71	21650
2026-01-02 00:40:08.87	8.84	7.23	-50.0	-65.5	3.8	1.49e+00	0	40	104	0	71	21616
2026-01-02 00:40:11.88	8.68	7.45	-50.0	-65.5	3.8	1.49e+00	0	40	104	0	71	21564
2026-01-02 00:40:14.89	8.51	7.68	-50.0	-65.5	3.8	1.49e+00	0	40	104	0	71	21548
2026-01-02 00:40:17.91	8.33	7.90	-50.0	-65.4	3.8	1.49e+00	0	40	104	0	71	21501
2026-01-02 00:40:20.92	8.16	8.13	-50.0	-65.5	3.8	1.49e+00	0	40	104	0	71	21572
2026-01-02 00:40:23.93	7.98	8.35	-50.0	-65.5	3.8	1.49e+00	0	40	104	0	71	21623
2026-01-02 00:40:26.95	7.80	8.58	-50.0	-65.5	3.8	1.49e+00	0	40	104	0	71	21584
2026-01-02 00:40:29.96	7.61	8.81	-50.0	-65.5	3.8	1.49e+00	0	40	104	0	71	21525
2026-01-02 00:40:32.97	7.42	9.05	-50.0	-65.5	3.8	1.49e+00	0	40	104	0	71	21561
2026-01-02 00:40:35.99	7.23	9.28	-50.0	-65.5	3.8	1.49e+00	0	40	104	0	71	21610
2026-01-02 00:40:39.00	7.04	9.52	-50.1	-65.5	3.8	1.49e+00	0	40	104	0	71	21557
2026-01-02 00:40:42.01	6.84	9.76	-50.0	-65.5	3.8	1.49e+00	0	40	104	0	71	21628
2026-01-02 00:40:45.02	6.64	10.00	-50.0	-65.5	3.8	1.49e+00	0	41	104	0	71	21606
2026-01-02 00:40:48.04	6.43	10.24	-50.0	-65.5	3.8	1.49e+00	0	41	104	0	71	21596
2026-01-02 00:40:51.05	6.23	10.48	-50.0	-65.5	3.8	1.49e+00	0	41	104	0	71	21548
2026-01-02 00:40:54.06	6.01	10.73	-50.0	-65.5	3.8	1.49e+00	0	41	104	0	71	21567
2026-01-02 00:40:57.08	5.80	10.98	-50.0	-65.5	3.8	1.49e+00	0	41	104	0	71	21630
2026-01-02 00:41:00.09	5.58	11.23	-50.0	-65.5	3.8	1.49e+00	0	41	104	0	71	21621
2026-01-02 00:41:03.10	5.35	11.48	-50.0	-65.5	3.8	1.49e+00	0	41	104	0	71	21588
2026-01-02 00:41:06.11	5.13	11.74	-50.0	-65.5	3.8	1.49e+00	0	41	104	0	71	21533
2026-01-02 00:41:09.13	4.89	12.00	-50.0	-65.5	3.8	1.49e+00	0	41	104	0	71	21580
2026-01-02 00:41:12.14	4.66	12.25	-50.0	-65.5	3.8	1.49e+00	0	41	104	0	71	21524
2026-01-02 00:41:15.15	4.42	12.52	-50.0	-65.5	3.8	1.49e+00	0	41	104	0	71	21553
2026-01-02 00:41:18.16	4.17	12.78	-50.0	-65.5	3.8	1.49e+00	0	41	104	0	71	21558
2026-01-02 00:41:21.18	3.92	13.05	-50.0	-65.5	3.8	1.49e+00	0	41	104	0	71	21526
2026-01-02 00:41:24.19	3.67	13.32	-50.0	-65.5	3.8	1.49e+00	0	41	104	0	71	21521
2026-01-02 00:41:27.20	3.41	13.59	-50.0	-65.5	3.8	1.49e+00	0	41	104	0	71	21566
2026-01-02 00:41:30.22	3.14	13.86	-50.0	-65.5	3.8	1.49e+00	0	41	104	0	71	21519
2026-01-02 00:41:33.23	2.87	14.14	-50.0	-65.5	3.8	1.49e+00	0	41	104	0	71	21568
2026-01-02 00:41:36.25	2.60	14.42	-50.0	-65.5	3.8	1.49e+00	0	41	104	0	71	21552
2026-01-02 00:41:39.26	2.31	14.70	-50.0	-65.5	3.8	1.49e+00	0	41	104	0	71	21689
2026-01-02 00:41:42.27	2.03	14.98	-50.0	-65.5	3.8	1.49e+00	0	41	104	0	71	21606
2026-01-02 00:41:45.58	1.71	15.30	-50.0	-65.5	3.8	1.49e+00	0	41	104	0	71	21620
2026-01-02 00:41:48.31	1.44	15.56	-50.0	-65.5	3.8	1.49e+00	0	41	104	0	71	21602
2026-01-02 00:41:51.63	1.10	15.88	-50.0	-65.5	3.8	1.49e+00	0	41	104	0	71	21581
2026-01-02 00:41:54.42	0.81	16.15	-50.0	-65.5	3.8	1.49e+00	0	41	104	0	71	21563
2026-01-02 00:41:57.86	0.45	16.49	-50.0	-65.5	3.8	1.49e+00	0	41	104	0	71	21592
2026-01-02 00:42:00.65	0.15	16.77	-50.0	-65.5	3.8	1.49e+00	0	41	104	0	71	21638
2026-01-02 00:42:03.95	359.79	17.10	-50.0	-65.5	3.8	1.49e+00	0	41	104	0	71	21564
2026-01-02 00:42:06.67	359.48	17.38	-50.0	-65.5	3.8	1.49e+00	0	41	104	0	71	21559
2026-01-02 00:42:09.97	359.11	17.71	-50.0	-65.5	3.8	1.49e+00	0	41	104	0	71	21667
2026-01-02 00:42:12.70	358.79	18.00	-50.0	-65.5	3.8	1.49e+00	0	41	104	0	71	21603
2026-01-02 00:42:15.99	358.39	18.34	-50.0	-65.5	3.8	1.49e+00	0	41	104	0	71	21595
2026-01-02 00:42:18.72	358.06	18.63	-50.0	-65.5	3.8	1.49e+00	0	41	104	0	71	21555
2026-01-02 00:42:22.02	357.65	18.98	-50.0	-65.5	3.8	1.49e+00	0	41	104	0	71	21553
2026-01-02 00:42:24.74	357.30	19.27	-50.0	-65.5	3.8	1.49e+00	0	42	104	0	71	21625
2026-01-02 00:42:28.05	356.87	19.62	-50.0	-65.5	3.8	1.49e+00	0	41	104	0	71	21721
2026-01-02 00:42:30.77	356.51	19.92	-50.0	-65.5	3.8	1.49e+00	0	41	104	0	71	21619
2026-01-02 00:42:34.07	356.06	20.28	-50.0	-65.5	3.8	1.49e+00	0	41	104	0	71	21619
2026-01-02 00:42:36.79	355.68	20.58	-50.0	-65.5	3.8	1.49e+00	0	41	104	0	71	21569
2026-01-02 00:42:40.09	355.21	20.95	-50.0	-65.5	3.8	1.49e+00	0	41	104	0	71	21574
2026-01-02 00:42:42.82	354.81	21.26	-50.0	-65.5	3.8	1.49e+00	0	42	104	0	71	21580
2026-01-02 00:42:46.12	354.32	21.64	-50.0	-65.5	3.8	1.49e+00	0	41	104	0	71	21677
2026-01-02 00:42:48.85	353.91	21.95	-50.0	-65.5	3.8	1.49e+00	0	41	104	0	71	21581
2026-01-02 00:42:52.15	353.39	22.33	-50.0	-65.5	3.8	1.49e+00	0	41	104	0	71	21686
2026-01-02 00:42:54.87	352.96	22.64	-50.0	-65.5	3.8	1.49e+00	0	41	104	0	71	21640
2026-01-02 00:42:58.17	352.42	23.03	-50.0	-65.5	3.8	1.49e+00	0	41	104	0	71	21590
2026-01-02 00:43:00.90	351.96	23.35	-50.0	-65.5	3.8	1.49e+00	0	41	104	0	71	21576
2026-01-02 00:43:04.20	351.40	23.74	-50.1	-65.5	3.8	1.49e+00	0	41	104	0	71	21642
2026-01-02 00:43:06.92	350.92	24.07	-50.0	-65.5	3.8	1.49e+00	0	41	104	0	71	21604
2026-01-02 00:43:10.22	350.33	24.47	-50.1	-65.5	3.8	1.49e+00	0	41	104	0	71	21714
2026-01-02 00:43:12.94	349.83	24.80	-50.0	-65.5	3.8	1.49e+00	0	42	104	0	71	21686
2026-01-02 00:43:16.24	349.21	25.20	-50.0	-65.5	3.8	1.49e+00	0	41	104	0	71	21619
2026-01-02 00:43:18.97	348.69	25.53	-50.0	-65.5	3.8	1.49e+00	0	41	104	0	71	21665
2026-01-02 00:43:22.26	348.04	25.94	-50.0	-65.5	3.8	1.49e+00	0	42	104	0	71	21535
2026-01-02 00:43:24.99	347.49	26.27	-50.0	-65.5	3.8	1.49e+00	0	42	104	0	71	21611
2026-01-02 00:43:28.29	346.81	26.68	-50.0	-65.5	3.8	1.49e+00	0	42	104	0	71	21641
2026-01-02 00:43:31.02	346.23	27.02	-50.0	-65.5	3.8	1.49e+00	0	42	104	0	71	21572
2026-01-02 00:43:34.32	345.52	27.43	-50.1	-65.5	3.8	1.49e+00	0	42	104	0	71	21644
2026-01-02 00:43:37.14	344.89	27.79	-50.0	-65.5	3.8	1.49e+00	0	42	104	0	71	21707
2026-01-02 00:43:40.29	344.18	28.18	-50.1	-65.5	3.8	1.49e+00	0	42	104	0	71	21661
2026-01-02 00:43:43.16	343.51	28.54	-50.1	-65.5	3.8	1.49e+00	0	42	104	0	71	21561
2026-01-02 00:43:46.32	342.76	28.94	-50.0	-65.5	3.8	1.49e+00	0	41	104	0	71	21682
2026-01-02 00:43:49.19	342.06	29.30	-50.1	-65.5	3.8	1.49e+00	0	42	104	0	71	21678
2026-01-02 00:43:52.35	341.27	29.70	-50.0	-65.5	3.8	1.49e+00	0	42	104	0	71	21550
2026-01-02 00:43:55.22	340.53	30.06	-50.0	-65.5	3.8	1.49e+00	0	42	104	0	71	21614
2026-01-02 00:43:58.51	339.67	30.47	-50.1	-65.5	3.8	1.49e+00	0	42	104	0	71	21736
2026-01-02 00:44:01.47	338.87	30.84	-50.0	-65.5	3.8	1.49e+00	0	42	104	0	71	21619
2026-01-02 00:44:04.76	337.97	31.24	-50.0	-65.5	3.8	1.49e+00	0	42	104	0	71	21624
2026-01-02 00:44:07.62	337.16	31.60	-50.0	-65.5	3.8	1.49e+00	0	42	104	0	71	21644
2026-01-02 00:44:10.78	336.25	31.98	-50.0	-65.5	3.8	1.49e+00	0	42	104	0	71	21572
2026-01-02 00:44:13.65	335.40	32.33	-50.0	-65.5	3.8	1.49e+00	0	42	104	0	71	21600
2026-01-02 00:44:16.80	334.45	32.71	-50.0	-65.5	3.8	1.49e+00	0	42	104	0	71	21604
2026-01-02 00:44:19.68	333.56	33.05	-50.0	-65.5	3.8	1.49e+00	0	42	104	0	71	21567
2026-01-02 00:44:22.83	332.57	33.42	-50.0	-65.5	3.8	1.49e+00	0	42	104	0	71	21695
2026-01-02 00:44:25.70	331.64	33.75	-50.0	-65.5	3.8	1.49e+00	0	41	104	0	71	21611
2026-01-02 00:44:28.86	330.60	34.11	-50.0	-65.5	3.8	1.49e+00	0	42	104	0	71	21588
2026-01-02 00:44:31.72	329.64	34.43	-50.1	-65.5	3.8	1.49e+00	0	42	104	0	71	21585
2026-01-02 00:44:34.88	328.55	34.77	-50.1	-65.5	3.8	1.49e+00	0	42	104	0	71	21605
2026-01-02 00:44:37.75	327.55	35.08	-50.0	-65.5	3.8	1.49e+00	0	41	104	0	71	21607
2026-01-02 00:44:40.91	326.42	35.41	-50.0	-65.5	3.8	1.49e+00	0	42	104	0	71	21642
2026-01-02 00:44:43.77	325.37	35.70	-50.1	-65.5	3.8	1.49e+00	0	42	104	0	71	21555
2026-01-02 00:44:46.93	324.20	36.01	-50.1	-65.5	3.8	1.49e+00	0	42	104	0	71	21585
2026-01-02 00:44:49.80	323.12	36.28	-50.1	-65.5	3.8	1.49e+00	0	42	104	0	71	21549
2026-01-02 00:44:52.95	321.90	36.56	-50.1	-65.5	3.8	1.49e+00	0	42	104	0	71	21591
2026-01-02 00:44:55.82	320.78	36.81	-50.1	-65.5	3.8	1.49e+00	0	42	104	0	71	21642
2026-01-02 00:44:58.98	319.53	37.08	-50.1	-65.5	3.8	1.49e+00	0	42	104	0	71	21654
2026-01-02 00:45:01.84	318.37	37.30	-50.1	-65.5	3.8	1.49e+00	0	42	104	0	71	21600
2026-01-02 00:45:05.00	317.08	37.54	-50.0	-65.5	3.8	1.49e+00	0	42	104	0	71	21541
2026-01-02 00:45:07.87	315.89	37.74	-50.1	-65.5	3.8	1.49e+00	0	42	104	0	71	21672
2026-01-02 00:45:11.03	314.56	37.95	-50.1	-65.5	3.8	1.49e+00	0	42	104	0	71	21588
2026-01-02 00:45:13.89	313.35	38.12	-50.0	-65.5	3.8	1.49e+00	0	42	104	0	71	21578
2026-01-02 00:45:17.05	311.99	38.29	-50.1	-65.5	3.8	1.49e+00	0	42	104	0	71	21684
2026-01-02 00:45:19.92	310.74	38.44	-50.1	-65.5	3.8	1.49e+00	0	42	104	0	71	21644
2026-01-02 00:45:23.07	309.36	38.58	-50.1	-65.5	3.8	1.49e+00	0	42	104	0	71	21639
2026-01-02 00:45:25.94	308.10	38.69	-50.1	-65.5	3.8	1.49e+00	0	42	104	0	71	21652
2026-01-02 00:45:29.12	306.69	38.79	-50.1	-65.5	3.8	1.49e+00	0	42	104	0	71	21648
2026-01-02 00:45:31.98	305.41	38.87	-50.1	-65.5	3.8	1.49e+00	0	42	104	0	71	21678
2026-01-02 00:45:35.14	303.99	38.94	-50.1	-65.5	3.8	1.49e+00	0	42	104	0	71	21701
2026-01-02 00:45:38.01	302.70	38.98	-50.1	-65.5	3.8	1.49e+00	0	42	104	0	71	21691
2026-01-02 00:45:41.17	301.27	39.01	-50.1	-65.5	3.8	1.49e+00	0	42	104	0	71	21655
2026-01-02 00:45:44.04	299.98	39.02	-50.1	-65.5	3.8	1.49e+00	0	42	104	0	71	21650
2026-01-02 00:45:47.19	298.55	39.01	-50.1	-65.5	3.8	1.49e+00	0	42	104	0	71	21584
2026-01-02 00:45:50.06	297.26	38.98	-50.1	-65.5	3.8	1.49e+00	0	42	104	0	71	21720
2026-01-02 00:45:53.22	295.83	38.93	-50.1	-65.5	3.8	1.49e+00	0	41	104	0	71	21683
2026-01-02 00:45:56.09	294.54	38.87	-50.1	-65.5	3.8	1.49e+00	0	42	104	0	71	21644
2026-01-02 00:45:59.31	293.11	38.78	-50.0	-65.5	3.8	1.49e+00	0	42	104	0	71	21651
2026-01-02 00:46:02.17	291.84	38.69	-50.1	-65.5	3.8	1.49e+00	0	42	104	0	71	21738
2026-01-02 00:46:05.33	290.44	38.56	-50.1	-65.5	3.8	1.49e+00	0	42	104	0	71	21697
2026-01-02 00:46:08.20	289.18	38.43	-50.1	-65.5	3.8	1.49e+00	0	42	104	0	71	21688
2026-01-02 00:46:11.35	287.82	38.28	-50.1	-65.5	3.8	1.49e+00	0	42	104	0	71	21617
2026-01-02 00:46:14.22	286.58	38.12	-50.0	-65.5	3.8	1.49e+00	0	42	104	0	71	21694
2026-01-02 00:46:17.38	285.24	37.93	-50.1	-65.5	3.8	1.49e+00	0	42	104	0	71	21594
2026-01-02 00:46:20.25	284.03	37.74	-50.1	-65.5	3.8	1.49e+00	0	42	104	0	71	21594
2026-01-02 00:46:23.40	282.72	37.51	-50.1	-65.5	3.8	1.49e+00	0	42	104	0	71	21638
2026-01-02 00:46:26.27	281.55	37.30	-50.1	-65.5	3.8	1.49e+00	0	42	104	0	71	21682
2026-01-02 00:46:29.76	280.14	37.02	-50.1	-65.5	3.8	1.49e+00	0	42	104	0	71	21650
2026-01-02 00:46:32.52	279.04	36.79	-50.1	-65.5	3.8	1.49e+00	0	42	104	0	71	21655
2026-01-02 00:46:35.90	277.72	36.49	-50.1	-65.5	3.8	1.49e+00	0	42	104	0	71	21597
2026-01-02 00:46:38.63	276.67	36.24	-50.1	-65.5	3.8	1.49e+00	0	42	104	0	71	21603
2026-01-02 00:46:41.94	275.42	35.92	-50.1	-65.5	3.8	1.49e+00	0	42	104	0	71	21621
2026-01-02 00:46:44.66	274.41	35.65	-50.1	-65.5	3.8	1.49e+00	0	42	104	0	71	21670
2026-01-02 00:46:47.97	273.21	35.32	-50.1	-65.5	3.8	1.49e+00	0	42	104	0	71	21645
2026-01-02 00:46:50.69	272.24	35.03	-50.1	-65.5	3.8	1.49e+00	0	42	104	0	71	21688
2026-01-02 00:46:53.99	271.08	34.68	-50.1	-65.5	3.8	1.49e+00	0	42	104	0	71	21684
2026-01-02 00:46:56.72	270.14	34.38	-50.1	-65.5	3.8	1.49e+00	0	42	104	0	71	21658
2026-01-02 00:47:00.02	269.03	34.01	-50.1	-65.5	3.8	1.49e+00	0	42	104	0	71	21618
2026-01-02 00:47:02.74	268.14	33.70	-50.1	-65.5	3.8	1.49e+00	0	42	104	0	71	21598
2026-01-02 00:47:06.04	267.08	33.31	-50.1	-65.5	3.8	1.49e+00	0	42	104	0	71	21657
2026-01-02 00:47:08.77	266.21	32.99	-50.1	-65.5	3.8	1.49e+00	0	42	104	0	71	21653
2026-01-02 00:47:12.07	265.20	32.60	-50.1	-65.5	3.8	1.49e+00	0	42	104	0	71	21664
2026-01-02 00:47:14.79	264.38	32.27	-50.1	-65.5	3.8	1.49e+00	0	42	104	0	71	21634
2026-01-02 00:47:18.09	263.40	31.87	-50.1	-65.5	3.8	1.49e+00	0	42	104	0	71	21687
2026-01-02 00:47:20.82	262.62	31.53	-50.1	-65.5	3.8	1.49e+00	0	42	104	0	71	21731
2026-01-02 00:47:24.12	261.69	31.12	-50.1	-65.5	3.8	1.49e+00	0	42	104	0	71	21636
2026-01-02 00:47:26.84	260.94	30.78	-50.1	-65.5	3.8	1.49e+00	0	42	104	0	71	21630
2026-01-02 00:47:30.14	260.05	30.37	-50.1	-65.5	3.8	1.49e+00	0	42	104	0	71	21669
2026-01-02 00:47:32.87	259.33	30.03	-50.1	-65.5	3.8	1.49e+00	0	42	104	0	71	21695
2026-01-02 00:47:36.17	258.49	29.61	-50.0	-65.5	3.8	1.49e+00	0	42	104	0	71	21600
2026-01-02 00:47:38.90	257.80	29.27	-50.1	-65.5	3.8	1.49e+00	0	42	104	0	71	21701
2026-01-02 00:47:42.20	257.00	28.85	-50.1	-65.5	3.8	1.49e+00	0	42	104	0	71	21605
2026-01-02 00:47:45.15	256.29	28.48	-50.1	-65.5	3.8	1.49e+00	0	42	104	0	71	21636
2026-01-02 00:47:48.15	255.59	28.10	-50.1	-65.5	3.8	1.49e+00	0	42	104	0	71	21726
2026-01-02 00:47:51.17	254.90	27.72	-50.1	-65.5	3.8	1.49e+00	0	42	104	0	71	21748
2026-01-02 00:47:54.18	254.24	27.34	-50.1	-65.5	3.8	1.49e+00	0	42	104	0	71	21699
2026-01-02 00:47:57.19	253.58	26.97	-50.1	-65.5	3.8	1.49e+00	0	42	104	0	71	21672
2026-01-02 00:48:00.20	252.94	26.59	-50.1	-65.5	3.8	1.49e+00	0	42	104	0	71	21665
2026-01-02 00:48:03.22	252.32	26.22	-50.1	-65.5	3.8	1.49e+00	0	42	104	0	71	21739
2026-01-02 00:48:06.23	251.71	25.84	-50.1	-65.5	3.8	1.49e+00	0	42	104	0	71	21697
2026-01-02 00:48:09.24	251.12	25.47	-50.1	-65.5	3.8	1.49e+00	0	42	104	0	71	21741
2026-01-02 00:48:12.68	250.46	25.05	-50.1	-65.5	3.8	1.49e+00	0	42	104	0	71	21724
2026-01-02 00:48:15.61	249.91	24.69	-50.1	-65.5	3.8	1.49e+00	0	42	104	0	71	21632
2026-01-02 00:48:18.91	249.30	24.29	-50.1	-65.5	3.8	1.49e+00	0	42	104	0	71	21683
2026-01-02 00:48:21.63	248.81	23.96	-50.1	-65.5	3.8	1.49e+00	0	42	104	0	71	21609
2026-01-02 00:48:24.93	248.24	23.57	-50.1	-65.5	3.8	1.49e+00	0	42	104	0	71	21715
2026-01-02 00:48:27.66	247.77	23.24	-50.1	-65.5	3.8	1.49e+00	0	42	104	0	71	21695
2026-01-02 00:48:30.95	247.22	22.85	-50.1	-65.5	3.8	1.49e+00	0	42	104	0	71	21670
2026-01-02 00:48:33.68	246.78	22.53	-50.1	-65.5	3.8	1.49e+00	0	42	104	0	71	21670
2026-01-02 00:48:36.98	246.25	22.15	-50.1	-65.5	3.8	1.49e+00	0	42	104	0	71	21624
2026-01-02 00:48:39.71	245.83	21.83	-50.1	-65.5	3.8	1.49e+00	0	42	104	0	71	21690
2026-01-02 00:48:43.00	245.32	21.46	-50.1	-65.5	3.8	1.49e+00	0	42	104	0	71	21693
2026-01-02 00:48:45.73	244.92	21.14	-50.1	-65.5	3.8	1.49e+00	0	42	104	0	71	21668
2026-01-02 00:48:49.03	244.44	20.77	-50.1	-65.5	3.8	1.49e+00	0	42	104	0	71	21748
2026-01-02 00:48:51.75	244.05	20.47	-50.1	-65.5	3.8	1.49e+00	0	42	104	0	71	21699
2026-01-02 00:48:55.05	243.59	20.10	-50.1	-65.5	3.8	1.49e+00	0	42	104	0	71	21660
2026-01-02 00:48:57.78	243.22	19.80	-50.1	-65.5	3.8	1.49e+00	0	42	104	0	71	21705
2026-01-02 00:49:01.17	242.77	19.43	-50.1	-65.6	3.8	1.49e+00	0	42	104	0	71	21779
2026-01-02 00:49:03.90	242.41	19.14	-50.1	-65.5	3.8	1.49e+00	0	42	104	0	71	21740
2026-01-02 00:49:07.20	241.99	18.78	-50.1	-65.5	3.8	1.49e+00	0	42	104	0	71	21651
2026-01-02 00:49:09.93	241.65	18.49	-50.1	-65.5	3.8	1.49e+00	0	42	104	0	71	21684
2026-01-02 00:49:13.22	241.25	18.15	-50.1	-65.5	3.8	1.49e+00	0	42	104	0	71	21752
2026-01-02 00:49:15.94	240.92	17.86	-50.1	-65.5	3.8	1.49e+00	0	42	104	0	71	21678
2026-01-02 00:49:19.24	240.53	17.52	-50.1	-65.5	3.8	1.49e+00	0	42	104	0	71	21659
2026-01-02 00:49:21.97	240.22	17.24	-50.1	-65.5	3.8	1.49e+00	0	42	104	0	71	21710
2026-01-02 00:49:25.27	239.85	16.91	-50.1	-65.5	3.8	1.49e+00	0	42	104	0	71	21649
2026-01-02 00:49:28.25	239.52	16.61	-50.1	-65.5	3.8	1.49e+00	0	42	104	0	71	21709
2026-01-02 00:49:31.62	239.16	16.27	-50.1	-65.5	3.8	1.49e+00	0	42	104	0	71	21672
2026-01-02 00:49:34.34	238.87	16.00	-50.1	-65.5	3.8	1.49e+00	0	42	104	0	71	21628
2026-01-02 00:49:37.64	238.53	15.68	-50.1	-65.5	3.8	1.49e+00	0	42	104	0	71	21678
2026-01-02 00:49:40.37	238.25	15.42	-50.1	-65.5	3.8	1.49e+00	0	42	104	0	71	21647
2026-01-02 00:49:43.67	237.93	15.10	-50.1	-65.5	3.8	1.49e+00	0	42	104	0	71	21673
2026-01-02 00:49:46.39	237.66	14.84	-50.1	-65.5	3.8	1.49e+00	0	42	104	0	71	21745
2026-01-02 00:49:49.69	237.35	14.53	-50.1	-65.5	3.8	1.49e+00	0	42	104	0	71	21731
2026-01-02 00:49:52.42	237.09	14.27	-50.1	-65.5	3.8	1.49e+00	0	42	104	0	71	21719
2026-01-02 00:49:55.83	236.78	13.96	-50.1	-65.5	3.8	1.49e+00	0	42	104	0	71	21632
2026-01-02 00:49:58.62	236.53	13.70	-50.1	-65.5	3.8	1.49e+00	0	42	104	0	71	21639
2026-01-02 00:50:01.92	236.23	13.40	-50.1	-65.5	3.8	1.49e+00	0	42	104	0	71	21620
2026-01-02 00:50:04.65	236.00	13.16	-50.1	-65.5	3.8	1.49e+00	0	42	104	0	71	21692
2026-01-02 00:50:07.95	235.72	12.86	-50.1	-65.5	3.8	1.49e+00	0	42	104	0	71	21696
2026-01-02 00:50:10.67	235.49	12.62	-50.1	-65.5	3.8	1.49e+00	0	42	104	0	71	21687
2026-01-02 00:50:13.97	235.22	12.33	-50.1	-65.5	3.8	1.49e+00	0	42	104	0	71	21648
2026-01-02 00:50:16.70	235.00	12.09	-50.1	-65.5	3.8	1.49e+00	0	42	104	0	71	21624
2026-01-02 00:50:20.00	234.74	11.81	-50.1	-65.5	3.8	1.49e+00	0	42	104	0	71	21723
2026-01-02 00:50:22.73	234.53	11.58	-50.1	-65.5	3.8	1.49e+00	0	42	104	0	71	21659
2026-01-02 00:50:26.03	234.28	11.30	-50.1	-65.5	3.8	1.49e+00	0	42	104	0	71	21629
2026-01-02 00:50:28.75	234.07	11.07	-50.1	-65.5	3.8	1.49e+00	0	42	104	0	71	21701
2026-01-02 00:50:32.13	233.82	10.79	-50.1	-65.5	3.8	1.49e+00	0	42	104	0	71	21701
2026-01-02 00:50:34.85	233.63	10.56	-50.1	-65.5	3.8	1.49e+00	0	42	104	0	71	21714
2026-01-02 00:50:38.15	233.39	10.29	-50.1	-65.5	3.8	1.49e+00	0	42	104	0	71	21731
2026-01-02 00:50:40.88	233.20	10.07	-50.1	-65.5	3.8	1.49e+00	0	42	104	0	71	21748
2026-01-02 00:50:44.18	232.98	9.81	-50.1	-65.5	3.8	1.49e+00	0	42	104	0	71	21752
2026-01-02 00:50:46.90	232.79	9.59	-50.1	-65.5	3.8	1.49e+00	0	42	104	0	71	21733
2026-01-02 00:50:50.20	232.57	9.33	-50.1	-65.5	3.8	1.49e+00	0	42	104	0	71	21695
2026-01-02 00:50:52.92	232.40	9.11	-50.1	-65.5	3.8	1.49e+00	0	42	104	0	71	21678
2026-01-02 00:50:56.22	232.19	8.86	-50.1	-65.5	3.8	1.49e+00	0	42	104	0	71	21695
2026-01-02 00:50:58.95	232.01	8.65	-50.1	-65.5	3.8	1.49e+00	0	42	104	0	71	21705
2026-01-02 00:51:02.25	231.81	8.39	-50.1	-65.6	3.8	1.49e+00	0	42	104	0	71	21852
2026-01-02 00:51:04.97	231.64	8.19	-50.1	-65.5	3.8	1.49e+00	0	42	104	0	71	21629
2026-01-02 00:51:08.27	231.44	7.94	-50.1	-65.5	3.8	1.49e+00	0	42	104	0	71	21696
2026-01-02 00:51:11.13	231.28	7.72	-50.1	-65.6	3.8	1.49e+00	0	42	104	0	71	21759
2026-01-02 00:51:14.38	231.09	7.48	-50.1	-65.5	3.8	1.49e+00	0	42	104	0	71	21686
2026-01-02 00:51:17.46	230.91	7.25	-50.1	-65.5	3.8	1.49e+00	0	42	104	0	71	21715
2026-01-02 00:51:20.47	230.74	7.03	-50.1	-65.5	3.8	1.49e+00	0	42	104	0	71	21643
2026-01-02 00:51:23.48	230.58	6.81	-50.1	-65.5	3.8	1.49e+00	0	42	104	0	71	21729
2026-01-02 00:51:26.50	230.41	6.60	-50.1	-65.5	3.8	1.49e+00	0	42	104	0	71	21619
2026-01-02 00:51:29.51	230.25	6.38	-50.1	-65.5	3.8	1.49e+00	0	42	104	0	71	21677
2026-01-02 00:51:32.52	230.09	6.17	-50.1	-65.5	3.8	1.49e+00	0	42	104	0	71	21681
2026-01-02 00:51:35.53	229.93	5.96	-50.1	-65.5	3.8	1.49e+00	0	42	104	0	71	21750
2026-01-02 00:51:38.55	229.78	5.74	-50.1	-65.5	3.8	1.49e+00	0	42	104	0	71	21698
2026-01-02 00:51:41.57	229.63	5.53	-50.1	-65.5	3.8	1.49e+00	0	42	104	0	71	21731
2026-01-02 00:51:44.60	229.48	5.33	-50.1	-65.5	3.8	1.49e+00	0	42	104	0	71	21660
2026-01-02 00:51:47.62	229.33	5.12	-50.1	-65.5	3.8	1.49e+00	0	42	104	0	71	21680

#Closed at: 2026-01-02 00:51:50
#Recorded file [0 MB]: D:/Data/31040_260102_033938.dat