passes_logs/2026/01/02/T1/T1__20260102_233020_NOAA_21_JPSS-2_rec.log

#Pass ID: 20260102_233020_NOAA 21 (JPSS-2)
#Satellite: NOAA 21 (JPSS-2)
#Configuration: NOAA 21
#almurnet v.1.7.20251203
#Start time: 2026-01-02 23:30:21

#Version: 2.0.20230620
#Station: T1
#Location: 37.570604 lon 55.790049 lat
#TLE: 1 54234U 22150A   26002.25486487  .00000200  00000+0  11573-3 0  9993
#TLE: 2 54234  98.7485 303.3096 0001220 350.9074   9.2080 14.19531212163006

#Time	Az	El	Level	Level2	SNR	BER	BlckErr	Temp	State	Recorded	gain1	gain2
2026-01-02 23:30:21.24	17.55	5.09	-47.5	-61.5	3.8	1.49e+00	0	39	0	0	65	19316
2026-01-02 23:30:24.25	17.59	5.30	-47.4	-61.3	3.8	1.49e+00	0	39	104	0	65	18822
2026-01-02 23:30:27.26	17.64	5.52	-47.4	-61.1	3.8	1.49e+00	0	39	104	0	65	18390
2026-01-02 23:30:30.27	17.68	5.73	-47.4	-61.0	3.8	1.49e+00	0	39	104	0	65	18249
2026-01-02 23:30:33.28	17.72	5.95	-47.4	-61.2	3.8	1.49e+00	0	39	104	0	65	18601
2026-01-02 23:30:36.29	17.76	6.18	-47.4	-61.4	3.8	1.49e+00	0	39	104	0	65	19129
2026-01-02 23:30:39.31	17.81	6.40	-47.5	-61.4	3.8	1.49e+00	0	39	104	0	65	18956
2026-01-02 23:30:42.32	17.85	6.63	-47.4	-61.2	3.8	1.49e+00	0	39	104	0	65	18724
2026-01-02 23:30:45.33	17.90	6.85	-47.4	-61.2	3.8	1.49e+00	0	40	104	0	65	18539
2026-01-02 23:30:48.34	17.94	7.08	-47.4	-61.0	3.8	1.49e+00	0	39	104	0	65	18289
2026-01-02 23:30:51.35	17.99	7.32	-47.3	-59.6	3.9	1.49e+00	0	39	104	0	65	15496
2026-01-02 23:30:54.37	18.03	7.55	-47.1	-57.4	4.0	1.38e+00	0	40	104	0	65	11973
2026-01-02 23:30:57.38	18.08	7.79	-46.7	-55.0	5.6	5.00e-01	0	40	0	0	65	9120
2026-01-02 23:31:00.39	18.13	8.02	-46.5	-54.0	6.3	2.66e-01	0	40	0	0	65	8128
2026-01-02 23:31:03.40	18.17	8.27	-46.4	-53.3	6.9	1.73e-01	0	40	0	0	64	7939
2026-01-02 23:31:06.42	18.22	8.51	-46.2	-52.7	7.4	1.09e-01	0	40	0	0	64	7435
2026-01-02 23:31:09.43	18.27	8.75	-46.0	-52.2	7.9	7.61e-02	0	40	0	0	64	7013
2026-01-02 23:31:12.44	18.32	9.00	-46.1	-52.4	7.8	8.20e-02	0	40	0	0	64	7133
2026-01-02 23:31:15.45	18.37	9.25	-46.7	-55.5	4.2	1.49e+00	0	40	104	0	65	9710
2026-01-02 23:31:18.46	18.42	9.50	-43.3	-46.2	14.2	3.12e-05	0	40	0	0	58	4943
2026-01-02 23:31:21.47	18.47	9.76	-41.3	-43.6	16.6	0.00e+00	0	40	0	0	54	4599
2026-01-02 23:31:24.47	18.52	10.02	-40.5	-42.6	17.6	0.00e+00	0	40	0	0	53	4367
2026-01-02 23:31:27.42	18.58	10.27	-40.6	-42.8	17.4	0.00e+00	0	40	0	0	53	4458
2026-01-02 23:31:30.57	18.63	10.55	-40.2	-42.2	17.9	0.00e+00	0	40	0	0	52	4434
2026-01-02 23:31:33.64	18.69	10.82	-40.2	-42.3	17.9	0.00e+00	0	40	0	0	52	4469
2026-01-02 23:31:36.51	18.74	11.08	-40.1	-42.2	18.0	0.00e+00	0	40	0	0	52	4400
2026-01-02 23:31:39.87	18.80	11.38	-40.1	-42.0	18.2	0.00e+00	0	40	0	0	52	4335
2026-01-02 23:31:42.75	18.86	11.64	-40.1	-42.0	18.2	0.00e+00	0	40	0	0	51	4581
2026-01-02 23:31:45.90	18.92	11.94	-40.0	-41.9	18.3	0.00e+00	0	40	0	0	51	4538
2026-01-02 23:31:48.77	18.97	12.20	-40.0	-41.9	18.4	0.00e+00	0	40	0	0	51	4513
2026-01-02 23:31:52.23	19.04	12.53	-39.9	-41.8	18.5	0.00e+00	0	40	0	0	51	4490
2026-01-02 23:31:54.95	19.09	12.79	-39.9	-41.9	18.4	0.00e+00	0	40	0	0	51	4512
2026-01-02 23:31:58.25	19.16	13.11	-39.8	-41.7	18.6	0.00e+00	0	40	0	0	51	4429
2026-01-02 23:32:01.24	19.22	13.41	-39.7	-41.7	18.7	0.00e+00	0	40	0	0	51	4393
2026-01-02 23:32:04.82	19.30	13.76	-39.5	-41.5	18.9	0.00e+00	0	40	0	0	51	4315
2026-01-02 23:32:07.54	19.36	14.04	-39.6	-41.6	18.7	0.00e+00	0	40	0	0	51	4375
2026-01-02 23:32:10.83	19.43	14.37	-39.6	-41.6	18.8	0.00e+00	0	40	0	0	51	4350
2026-01-02 23:32:13.58	19.49	14.66	-39.5	-41.5	18.9	0.00e+00	0	40	0	0	50	4565
2026-01-02 23:32:16.88	19.56	15.00	-39.5	-41.5	18.8	0.00e+00	0	40	0	0	50	4571
2026-01-02 23:32:19.60	19.62	15.29	-39.4	-41.4	18.9	0.00e+00	0	40	0	0	50	4516
2026-01-02 23:32:22.90	19.70	15.65	-39.3	-41.3	19.1	0.00e+00	0	40	0	0	50	4450
2026-01-02 23:32:25.62	19.77	15.95	-39.4	-41.3	19.1	0.00e+00	0	40	0	0	50	4456
2026-01-02 23:32:29.49	19.86	16.37	-39.5	-41.3	19.0	0.00e+00	0	40	0	0	50	4490
2026-01-02 23:32:32.21	19.93	16.68	-39.4	-41.2	19.2	0.00e+00	0	40	0	0	50	4425
2026-01-02 23:32:35.50	20.01	17.05	-39.3	-41.1	19.3	0.00e+00	0	40	0	0	50	4347
2026-01-02 23:32:38.26	20.08	17.37	-39.4	-41.2	19.2	0.00e+00	0	40	0	0	50	4414
2026-01-02 23:32:41.55	20.17	17.76	-39.4	-41.2	19.2	0.00e+00	0	40	0	0	50	4424
2026-01-02 23:32:44.50	20.24	18.11	-39.4	-41.2	19.2	0.00e+00	0	40	0	0	50	4409
2026-01-02 23:32:47.80	20.33	18.51	-39.4	-41.3	19.2	0.00e+00	0	40	0	0	50	4449
2026-01-02 23:32:50.52	20.41	18.84	-39.4	-41.3	19.1	0.00e+00	0	40	0	0	50	4467
2026-01-02 23:32:53.81	20.50	19.25	-39.5	-41.4	19.0	0.00e+00	0	40	0	0	50	4501
2026-01-02 23:32:56.69	20.59	19.61	-39.5	-41.3	19.1	0.00e+00	0	40	0	0	50	4467
2026-01-02 23:32:59.84	20.68	20.02	-39.3	-41.1	19.3	0.00e+00	0	40	0	0	50	4367
2026-01-02 23:33:02.70	20.77	20.39	-39.3	-41.1	19.3	0.00e+00	0	40	0	0	50	4348
2026-01-02 23:33:05.93	20.87	20.82	-39.0	-40.7	19.6	0.00e+00	0	40	0	0	50	4187
2026-01-02 23:33:08.80	20.96	21.21	-38.8	-40.5	19.8	0.00e+00	0	40	0	0	49	4335
2026-01-02 23:33:11.96	21.06	21.64	-38.6	-40.3	19.9	0.00e+00	0	40	0	0	49	4233
2026-01-02 23:33:14.82	21.15	22.04	-38.5	-40.2	20.1	0.00e+00	0	40	0	0	48	4397
2026-01-02 23:33:18.00	21.26	22.49	-38.4	-40.1	20.2	0.00e+00	0	40	0	0	48	4354
2026-01-02 23:33:20.94	21.37	22.91	-38.3	-40.0	20.3	0.00e+00	0	40	0	0	48	4323
2026-01-02 23:33:24.09	21.48	23.37	-38.3	-40.0	20.2	0.00e+00	0	40	0	0	48	4337
2026-01-02 23:33:26.95	21.58	23.79	-38.3	-40.1	20.2	0.00e+00	0	40	0	0	48	4347
2026-01-02 23:33:30.10	21.70	24.27	-38.2	-39.9	20.5	0.00e+00	0	40	0	0	48	4270
2026-01-02 23:33:32.97	21.81	24.71	-38.2	-39.9	20.5	0.00e+00	0	40	0	0	48	4278
2026-01-02 23:33:36.11	21.94	25.20	-38.5	-40.2	20.2	0.00e+00	0	40	0	0	48	4415
2026-01-02 23:33:39.10	22.06	25.68	-38.6	-40.3	20.1	0.00e+00	0	40	0	0	48	4485
2026-01-02 23:33:42.49	22.20	26.23	-39.0	-40.7	19.7	0.00e+00	0	40	0	0	48	4695
2026-01-02 23:33:45.21	22.32	26.68	-39.3	-41.1	19.4	0.00e+00	0	40	0	0	49	4601
2026-01-02 23:33:48.84	22.48	27.30	-39.5	-41.3	19.1	0.00e+00	0	40	0	0	49	4755
2026-01-02 23:33:51.57	22.61	27.77	-39.8	-41.6	18.9	0.00e+00	0	40	0	0	50	4613
2026-01-02 23:33:54.86	22.76	28.34	-39.6	-41.4	19.0	0.00e+00	0	40	0	0	50	4527
2026-01-02 23:33:57.58	22.89	28.83	-39.4	-41.2	19.3	0.00e+00	0	40	0	0	50	4413
2026-01-02 23:34:01.24	23.08	29.50	-39.4	-41.2	19.3	0.00e+00	0	40	0	0	50	4413
2026-01-02 23:34:03.99	23.22	30.01	-39.4	-41.2	19.2	0.00e+00	0	40	0	0	50	4400
2026-01-02 23:34:07.78	23.43	30.73	-39.3	-41.1	19.3	0.00e+00	0	40	0	0	50	4351
2026-01-02 23:34:10.56	23.58	31.27	-39.3	-41.0	19.3	0.00e+00	0	40	0	0	50	4340
2026-01-02 23:34:14.59	23.82	32.08	-39.2	-41.0	19.3	0.00e+00	0	40	0	0	50	4310
2026-01-02 23:34:17.33	23.98	32.63	-39.2	-40.9	19.4	0.00e+00	0	40	0	0	50	4291
2026-01-02 23:34:21.11	24.22	33.42	-39.4	-41.2	19.3	0.00e+00	0	40	0	0	50	4425
2026-01-02 23:34:24.07	24.41	34.05	-39.7	-41.6	19.1	0.00e+00	0	40	0	0	50	4604
2026-01-02 23:34:27.40	24.64	34.77	-40.2	-42.1	18.6	0.00e+00	0	40	0	0	50	4903
2026-01-02 23:34:30.12	24.83	35.38	-40.6	-42.6	18.1	0.00e+00	0	40	0	0	51	4900
2026-01-02 23:34:33.48	25.08	36.14	-41.2	-43.3	17.3	0.00e+00	0	40	0	0	53	4733
2026-01-02 23:34:36.20	25.29	36.77	-42.2	-44.5	16.2	0.00e+00	0	40	0	0	54	5129
2026-01-02 23:34:39.51	25.56	37.55	-42.3	-44.7	16.0	0.00e+00	0	40	0	0	55	4944
2026-01-02 23:34:42.23	25.78	38.20	-42.0	-44.2	16.4	0.00e+00	0	40	0	0	55	4704
2026-01-02 23:34:45.52	26.07	39.02	-41.5	-43.6	17.0	0.00e+00	0	41	0	0	54	4628
2026-01-02 23:34:48.24	26.32	39.70	-41.4	-43.5	17.2	0.00e+00	0	40	0	0	54	4584
2026-01-02 23:34:51.54	26.63	40.55	-41.6	-43.7	16.9	0.00e+00	0	40	0	0	54	4702
2026-01-02 23:34:54.26	26.90	41.26	-41.4	-43.5	17.1	0.00e+00	0	40	0	0	54	4554
2026-01-02 23:34:57.56	27.25	42.15	-41.7	-43.9	16.8	0.00e+00	0	40	0	0	54	4775
2026-01-02 23:35:00.31	27.55	42.90	-41.6	-43.7	17.0	0.00e+00	0	40	0	0	54	4678
2026-01-02 23:35:03.53	27.92	43.80	-41.3	-43.4	17.3	0.00e+00	0	40	0	0	54	4506
2026-01-02 23:35:06.52	28.28	44.65	-41.3	-43.3	17.4	0.00e+00	0	41	0	0	54	4476
2026-01-02 23:35:09.53	28.67	45.53	-41.2	-43.2	17.5	0.00e+00	0	40	0	0	54	4414
2026-01-02 23:35:12.54	29.08	46.43	-41.3	-43.3	17.5	0.00e+00	0	41	0	0	54	4446
2026-01-02 23:35:15.55	29.51	47.34	-41.0	-42.9	17.7	0.00e+00	0	41	0	0	53	4527
2026-01-02 23:35:18.56	29.96	48.27	-40.5	-42.5	18.1	0.00e+00	0	41	0	0	53	4298
2026-01-02 23:35:21.57	30.45	49.22	-40.2	-42.1	18.4	0.00e+00	0	40	0	0	52	4386
2026-01-02 23:35:24.58	30.96	50.19	-40.4	-42.3	18.2	0.00e+00	0	41	0	0	52	4467
2026-01-02 23:35:27.59	31.51	51.18	-41.4	-43.5	17.3	0.00e+00	0	40	0	0	53	4839
2026-01-02 23:35:30.70	32.12	52.22	-41.6	-43.8	16.9	0.00e+00	0	41	0	0	53	4985
2026-01-02 23:35:33.72	32.75	53.25	-40.6	-42.6	18.0	0.00e+00	0	41	0	0	53	4380
2026-01-02 23:35:37.26	33.55	54.48	-39.7	-41.5	19.2	0.00e+00	0	41	0	0	51	4309
2026-01-02 23:35:40.27	34.28	55.54	-39.5	-41.3	19.4	0.00e+00	0	40	0	0	50	4459
2026-01-02 23:35:43.56	35.15	56.72	-39.7	-41.5	19.3	0.00e+00	0	40	0	0	50	4579
2026-01-02 23:35:46.28	35.92	57.71	-39.3	-41.1	19.6	0.00e+00	0	41	0	0	50	4368
2026-01-02 23:35:49.58	36.94	58.93	-38.5	-40.2	20.4	0.00e+00	0	41	0	0	49	4151
2026-01-02 23:35:52.29	37.86	59.94	-38.6	-40.2	20.2	0.00e+00	0	40	0	0	49	4180
2026-01-02 23:35:55.59	39.07	61.19	-38.7	-40.3	20.2	0.00e+00	0	40	0	0	49	4240
2026-01-02 23:35:58.47	40.22	62.28	-38.1	-39.7	20.7	0.00e+00	0	40	0	0	48	4156
2026-01-02 23:36:01.62	41.62	63.49	-37.5	-39.1	21.0	0.00e+00	0	41	0	0	46	4360
2026-01-02 23:36:04.85	43.20	64.74	-37.6	-39.2	21.2	0.00e+00	0	41	0	0	46	4402
2026-01-02 23:36:07.86	44.84	65.90	-38.0	-39.6	20.7	0.00e+00	0	41	0	0	46	4636
2026-01-02 23:36:10.87	46.66	67.05	-37.7	-39.3	20.8	0.00e+00	0	41	0	0	46	4480
2026-01-02 23:36:13.87	48.69	68.20	-37.5	-39.1	21.0	0.00e+00	0	41	0	0	46	4388
2026-01-02 23:36:16.98	51.04	69.38	-37.6	-39.2	20.9	0.00e+00	0	41	0	0	46	4435
2026-01-02 23:36:19.84	53.48	70.44	-37.7	-39.3	20.9	0.00e+00	0	41	0	0	46	4470
2026-01-02 23:36:22.99	56.50	71.58	-37.4	-39.0	21.0	0.00e+00	0	41	0	0	46	4332
2026-01-02 23:36:25.86	59.61	72.58	-37.5	-39.1	21.1	0.00e+00	0	41	0	0	46	4366
2026-01-02 23:36:29.09	63.59	73.65	-37.7	-39.4	20.9	0.00e+00	0	41	0	0	46	4502
2026-01-02 23:36:32.01	67.66	74.56	-37.6	-39.3	20.9	0.00e+00	0	41	0	0	46	4444
2026-01-02 23:36:35.17	72.64	75.45	-37.6	-39.2	20.9	0.00e+00	0	40	0	0	46	4437
2026-01-02 23:36:38.11	77.83	76.17	-37.8	-39.4	20.6	0.00e+00	0	41	0	0	46	4526
2026-01-02 23:36:41.50	84.49	76.86	-38.5	-40.3	19.7	0.00e+00	0	41	0	0	47	4711
2026-01-02 23:36:44.22	90.31	77.28	-38.2	-39.9	20.4	0.00e+00	0	41	0	0	47	4523
2026-01-02 23:36:47.85	98.59	77.63	-37.4	-39.0	21.3	0.00e+00	0	40	0	0	46	4314
2026-01-02 23:36:50.56	104.99	77.72	-37.9	-39.6	20.7	0.00e+00	0	40	0	0	46	4628
2026-01-02 23:36:53.86	112.78	77.63	-37.5	-39.1	21.2	0.00e+00	0	41	0	0	46	4375
2026-01-02 23:36:56.66	119.21	77.38	-37.0	-38.5	21.4	0.00e+00	0	41	0	0	46	4093
2026-01-02 23:37:00.11	126.67	76.87	-37.9	-39.6	20.6	0.00e+00	0	41	0	0	46	4629
2026-01-02 23:37:02.97	132.35	76.30	-38.1	-39.8	20.5	0.00e+00	0	41	0	0	47	4475
2026-01-02 23:37:06.12	138.01	75.55	-37.6	-39.2	20.8	0.00e+00	0	41	0	0	46	4422
2026-01-02 23:37:08.98	142.61	74.75	-38.2	-39.9	20.2	0.00e+00	0	41	0	0	47	4527
2026-01-02 23:37:12.15	147.14	73.79	-37.7	-39.4	20.8	0.00e+00	0	41	0	0	46	4502
2026-01-02 23:37:15.02	150.76	72.84	-37.5	-39.1	21.1	0.00e+00	0	41	0	0	46	4347
2026-01-02 23:37:18.17	154.27	71.75	-36.9	-38.5	21.1	0.00e+00	0	41	0	0	45	4317
2026-01-02 23:37:21.30	157.34	70.62	-38.0	-39.7	20.5	0.00e+00	0	41	0	0	46	4664
2026-01-02 23:37:24.16	159.83	69.56	-37.2	-38.8	21.5	0.00e+00	0	41	0	0	46	4218
2026-01-02 23:37:27.33	162.28	68.36	-38.1	-39.8	20.5	0.00e+00	0	41	0	0	46	4730
2026-01-02 23:37:30.19	164.25	67.27	-37.6	-39.2	20.9	0.00e+00	0	40	0	0	47	4164
2026-01-02 23:37:33.34	166.19	66.06	-38.1	-39.8	20.2	0.00e+00	0	41	0	0	46	4719
2026-01-02 23:37:36.21	167.78	64.95	-37.8	-39.4	20.6	0.00e+00	0	41	0	0	47	4290
2026-01-02 23:37:39.35	169.36	63.73	-37.4	-39.0	21.2	0.00e+00	0	40	0	0	46	4335
2026-01-02 23:37:42.22	170.66	62.63	-38.9	-40.6	19.5	0.00e+00	0	41	0	0	49	4387
2026-01-02 23:37:45.45	171.99	61.39	-37.5	-39.1	21.0	0.00e+00	0	40	0	0	47	4132
2026-01-02 23:37:48.31	173.07	60.30	-38.8	-40.5	20.1	0.00e+00	0	41	0	0	48	4577
2026-01-02 23:37:51.66	174.22	59.05	-38.7	-40.4	19.7	0.00e+00	0	41	0	0	49	4250
2026-01-02 23:37:54.38	175.07	58.04	-37.9	-39.5	20.6	0.00e+00	0	41	0	0	47	4312
2026-01-02 23:37:57.67	176.03	56.83	-40.8	-42.8	17.8	0.00e+00	0	40	0	0	52	4728
2026-01-02 23:38:00.40	176.76	55.84	-40.8	-42.8	17.1	0.00e+00	0	41	0	0	53	4487
2026-01-02 23:38:03.74	177.59	54.65	-39.3	-41.1	19.5	0.00e+00	0	41	0	0	50	4351
2026-01-02 23:38:06.46	178.22	53.70	-40.5	-42.4	18.3	0.00e+00	0	40	0	0	51	4790
2026-01-02 23:38:09.76	178.93	52.56	-41.5	-43.6	17.2	0.00e+00	0	40	0	0	53	4889
2026-01-02 23:38:12.48	179.48	51.64	-41.3	-43.4	17.2	0.00e+00	0	41	0	0	54	4499
2026-01-02 23:38:15.78	180.10	50.55	-40.3	-42.1	18.5	0.00e+00	0	41	0	0	52	4370
2026-01-02 23:38:18.50	180.58	49.66	-41.1	-43.1	17.6	0.00e+00	0	41	0	0	52	4917
2026-01-02 23:38:21.78	181.12	48.61	-41.0	-42.9	17.4	0.00e+00	0	41	0	0	53	4535
2026-01-02 23:38:24.58	181.56	47.73	-41.1	-43.1	17.4	0.00e+00	0	41	0	0	53	4605
2026-01-02 23:38:27.73	182.02	46.76	-40.5	-42.4	18.1	0.00e+00	0	41	0	0	53	4265
2026-01-02 23:38:30.86	182.45	45.82	-41.6	-43.7	16.9	0.00e+00	0	41	0	0	53	4955
2026-01-02 23:38:33.87	182.85	44.93	-43.3	-45.8	14.9	0.00e+00	0	41	0	0	57	5019
2026-01-02 23:38:36.87	183.22	44.06	-42.4	-44.6	16.3	0.00e+00	0	41	0	0	56	4615
2026-01-02 23:38:39.88	183.58	43.21	-41.8	-43.9	16.8	0.00e+00	0	41	0	0	55	4519
2026-01-02 23:38:42.86	183.91	42.39	-41.8	-44.0	16.6	0.00e+00	0	41	0	0	55	4576
2026-01-02 23:38:46.01	184.24	41.53	-41.0	-42.9	17.4	0.00e+00	0	41	0	0	53	4538
2026-01-02 23:38:48.88	184.54	40.77	-41.6	-43.7	17.0	0.00e+00	0	41	0	0	53	4938
2026-01-02 23:38:52.02	184.84	39.95	-41.8	-44.0	16.7	0.00e+00	0	41	0	0	54	4840
2026-01-02 23:38:54.89	185.11	39.22	-41.5	-43.6	16.9	0.00e+00	0	41	0	0	54	4641
2026-01-02 23:38:58.04	185.38	38.43	-40.8	-42.8	17.8	0.00e+00	0	41	0	0	53	4443
2026-01-02 23:39:00.90	185.63	37.73	-40.9	-42.8	17.8	0.00e+00	0	41	0	0	53	4489
2026-01-02 23:39:04.05	185.88	36.98	-40.8	-42.8	17.8	0.00e+00	0	41	0	0	53	4486
2026-01-02 23:39:06.91	186.10	36.31	-40.2	-42.1	18.2	0.00e+00	0	41	0	0	52	4389
2026-01-02 23:39:10.02	186.34	35.59	-40.4	-42.3	18.0	0.00e+00	0	41	0	0	52	4484
2026-01-02 23:39:13.02	186.55	34.92	-40.3	-42.3	18.1	0.00e+00	0	41	0	0	52	4456
2026-01-02 23:39:16.03	186.76	34.26	-40.7	-42.6	17.8	0.00e+00	0	41	0	0	52	4650
2026-01-02 23:39:19.03	186.96	33.61	-40.5	-42.4	18.1	0.00e+00	0	41	0	0	52	4529
2026-01-02 23:39:22.04	187.15	32.97	-39.4	-41.1	19.3	0.00e+00	0	41	0	0	50	4388
2026-01-02 23:39:25.05	187.34	32.35	-39.0	-40.7	19.8	0.00e+00	0	41	0	0	50	4147
2026-01-02 23:39:28.05	187.51	31.74	-38.8	-40.5	19.8	0.00e+00	0	41	0	0	49	4327
2026-01-02 23:39:31.06	187.69	31.14	-39.2	-40.9	19.5	0.00e+00	0	41	0	0	49	4529
2026-01-02 23:39:34.06	187.85	30.56	-39.1	-40.8	19.7	0.00e+00	0	41	0	0	49	4463
2026-01-02 23:39:37.07	188.01	29.98	-39.4	-41.2	19.4	0.00e+00	0	41	0	0	49	4657
2026-01-02 23:39:40.45	188.19	29.35	-39.7	-41.5	19.0	0.00e+00	0	41	0	0	49	4855
2026-01-02 23:39:43.20	188.33	28.84	-40.0	-41.9	18.7	0.00e+00	0	41	0	0	50	4760
2026-01-02 23:39:46.49	188.49	28.25	-40.3	-42.2	18.2	0.00e+00	0	41	0	0	51	4684
2026-01-02 23:39:49.22	188.62	27.77	-40.3	-42.3	18.2	0.00e+00	0	41	0	0	51	4719
2026-01-02 23:39:52.51	188.77	27.20	-40.1	-42.1	18.3	0.00e+00	0	41	0	0	51	4603
2026-01-02 23:39:55.23	188.89	26.73	-39.9	-41.8	18.6	0.00e+00	0	41	0	0	51	4450
2026-01-02 23:39:58.52	189.03	26.18	-39.2	-41.1	19.2	0.00e+00	0	41	0	0	50	4347
2026-01-02 23:40:01.24	189.14	25.74	-39.0	-40.8	19.5	0.00e+00	0	41	0	0	50	4221
2026-01-02 23:40:04.55	189.28	25.20	-38.6	-40.3	19.9	0.00e+00	0	41	0	0	49	4211
2026-01-02 23:40:07.27	189.38	24.77	-38.5	-40.2	19.9	0.00e+00	0	41	0	0	49	4180
2026-01-02 23:40:10.56	189.51	24.26	-38.7	-40.4	19.7	0.00e+00	0	41	0	0	49	4256
2026-01-02 23:40:13.28	189.61	23.84	-38.9	-40.7	19.5	0.00e+00	0	41	0	0	49	4409
2026-01-02 23:40:16.58	189.73	23.35	-39.1	-40.9	19.5	0.00e+00	0	41	0	0	49	4495
2026-01-02 23:40:19.30	189.83	22.95	-39.0	-40.7	19.7	0.00e+00	0	41	0	0	49	4423
2026-01-02 23:40:22.72	189.95	22.45	-38.8	-40.5	19.9	0.00e+00	0	41	0	0	49	4307
2026-01-02 23:40:25.44	190.04	22.06	-38.8	-40.5	19.9	0.00e+00	0	41	0	0	49	4305
2026-01-02 23:40:28.74	190.15	21.60	-38.7	-40.4	20.0	0.00e+00	0	41	0	0	49	4258
2026-01-02 23:40:31.45	190.23	21.23	-38.9	-40.7	19.7	0.00e+00	0	41	0	0	49	4421
2026-01-02 23:40:34.78	190.34	20.77	-39.0	-40.8	19.7	0.00e+00	0	41	0	0	49	4453
2026-01-02 23:40:37.57	190.42	20.40	-39.2	-41.0	19.4	0.00e+00	0	41	0	0	49	4596
2026-01-02 23:40:40.86	190.52	19.97	-39.3	-41.1	19.3	0.00e+00	0	41	0	0	49	4627
2026-01-02 23:40:43.59	190.60	19.61	-39.4	-41.2	19.2	0.00e+00	0	41	0	0	49	4677
2026-01-02 23:40:46.91	190.69	19.19	-39.5	-41.3	19.1	0.00e+00	0	41	0	0	49	4746
2026-01-02 23:40:49.80	190.78	18.83	-39.4	-41.2	19.2	0.00e+00	0	41	0	0	49	4692
2026-01-02 23:40:52.94	190.86	18.44	-39.4	-41.2	19.2	0.00e+00	0	41	0	0	49	4690
2026-01-02 23:40:55.81	190.94	18.09	-39.4	-41.3	19.1	0.00e+00	0	41	0	0	49	4714
2026-01-02 23:40:58.95	191.02	17.71	-39.3	-41.2	19.2	0.00e+00	0	41	0	0	49	4666
2026-01-02 23:41:01.82	191.09	17.37	-39.4	-41.2	19.1	0.00e+00	0	41	0	0	49	4686
2026-01-02 23:41:04.97	191.17	17.01	-39.4	-41.3	19.1	0.00e+00	0	41	0	0	49	4725
2026-01-02 23:41:07.83	191.24	16.68	-39.4	-41.3	19.1	0.00e+00	0	41	0	0	49	4708
2026-01-02 23:41:11.11	191.32	16.31	-39.6	-41.5	18.9	0.00e+00	0	41	0	0	49	4821
2026-01-02 23:41:13.83	191.38	16.00	-39.8	-41.7	18.7	0.00e+00	0	41	0	0	50	4662
2026-01-02 23:41:17.17	191.46	15.63	-39.7	-41.6	18.7	0.00e+00	0	41	0	0	50	4645
2026-01-02 23:41:19.89	191.52	15.34	-39.8	-41.7	18.6	0.00e+00	0	41	0	0	50	4680
2026-01-02 23:41:23.48	191.60	14.95	-39.9	-41.8	18.5	0.00e+00	0	41	0	0	50	4740
2026-01-02 23:41:26.23	191.66	14.66	-39.9	-41.8	18.5	0.00e+00	0	41	0	0	50	4734
2026-01-02 23:41:29.53	191.73	14.32	-39.9	-41.8	18.4	0.00e+00	0	41	0	0	50	4754
2026-01-02 23:41:32.25	191.79	14.04	-39.9	-41.9	18.3	0.00e+00	0	41	0	0	50	4775
2026-01-02 23:41:35.65	191.86	13.69	-40.0	-41.9	18.3	0.00e+00	0	41	0	0	50	4805
2026-01-02 23:41:38.37	191.92	13.42	-40.0	-42.0	18.3	0.00e+00	0	41	0	0	50	4838
2026-01-02 23:41:41.66	191.98	13.09	-40.1	-42.0	18.3	0.00e+00	0	41	0	0	50	4853
2026-01-02 23:41:44.49	192.04	12.81	-40.0	-41.9	18.4	0.00e+00	0	41	0	0	50	4800
2026-01-02 23:41:47.73	192.10	12.50	-40.0	-42.0	18.3	0.00e+00	0	41	0	0	50	4820
2026-01-02 23:41:51.01	192.16	12.18	-40.0	-42.0	18.2	0.00e+00	0	41	0	0	50	4844
2026-01-02 23:41:53.87	192.22	11.91	-39.9	-41.9	18.3	0.00e+00	0	41	0	0	50	4790
2026-01-02 23:41:57.02	192.27	11.62	-39.9	-41.8	18.4	0.00e+00	0	41	0	0	50	4753
2026-01-02 23:41:59.89	192.32	11.35	-40.0	-42.0	18.2	0.00e+00	0	41	0	0	50	4836
2026-01-02 23:42:03.05	192.38	11.06	-40.0	-41.9	18.3	0.00e+00	0	41	0	0	50	4810
2026-01-02 23:42:05.91	192.43	10.81	-40.0	-42.0	18.2	0.00e+00	0	41	0	0	50	4835
2026-01-02 23:42:09.06	192.48	10.53	-39.9	-41.9	18.3	0.00e+00	0	41	0	0	50	4779
2026-01-02 23:42:12.21	192.54	10.25	-40.0	-42.0	18.2	0.00e+00	0	41	0	0	50	4833
2026-01-02 23:42:15.46	192.59	9.96	-40.2	-42.2	18.0	0.00e+00	0	41	0	0	51	4674
2026-01-02 23:42:18.56	192.64	9.69	-40.2	-42.2	18.0	0.00e+00	0	41	0	0	51	4672
2026-01-02 23:42:21.42	192.69	9.45	-40.3	-42.3	17.9	0.00e+00	0	41	0	0	51	4707
2026-01-02 23:42:24.57	192.74	9.18	-40.4	-42.4	17.7	0.00e+00	0	41	0	0	51	4799
2026-01-02 23:42:27.44	192.78	8.94	-47.9	-60.9	3.8	1.49e+00	0	41	104	0	66	16957
2026-01-02 23:42:30.63	192.83	8.68	-48.6	-62.1	3.8	1.49e+00	0	41	104	0	68	17362
2026-01-02 23:42:33.56	192.88	8.44	-49.0	-62.2	3.8	1.49e+00	0	41	104	0	68	17604
2026-01-02 23:42:36.71	192.93	8.18	-49.3	-62.2	3.8	1.49e+00	0	41	104	0	69	16620
2026-01-02 23:42:39.58	192.97	7.95	-49.2	-62.2	3.8	1.49e+00	0	41	104	0	69	16670
2026-01-02 23:42:42.74	193.01	7.70	-49.2	-62.2	3.8	1.49e+00	0	41	104	0	69	16651
2026-01-02 23:42:45.61	193.06	7.47	-49.3	-62.3	3.8	1.49e+00	0	41	104	0	69	16706
2026-01-02 23:42:48.76	193.10	7.23	-49.3	-62.2	3.8	1.49e+00	0	41	104	0	69	16617
2026-01-02 23:42:51.63	193.14	7.00	-49.0	-62.2	3.8	1.49e+00	0	41	104	0	69	16616
2026-01-02 23:42:54.78	193.18	6.76	-49.0	-62.2	3.8	1.49e+00	0	41	104	0	69	16576
2026-01-02 23:42:57.65	193.22	6.54	-49.0	-62.2	3.8	1.49e+00	0	41	104	0	69	16554
2026-01-02 23:43:00.81	193.27	6.30	-49.0	-62.2	3.8	1.49e+00	0	41	104	0	69	16601
2026-01-02 23:43:03.67	193.30	6.09	-49.0	-62.2	3.8	1.49e+00	0	41	104	0	69	16574
2026-01-02 23:43:06.83	193.35	5.85	-49.0	-62.2	3.8	1.49e+00	0	41	104	0	69	16624
2026-01-02 23:43:09.69	193.38	5.64	-49.0	-62.2	3.8	1.49e+00	0	41	104	0	69	16570
2026-01-02 23:43:12.84	193.42	5.41	-49.0	-62.2	3.8	1.49e+00	0	41	104	0	69	16574
2026-01-02 23:43:15.71	193.46	5.21	-49.0	-62.2	3.8	1.49e+00	0	41	104	0	69	16559
2026-01-02 23:43:18.86	193.50	4.98	-49.0	-62.2	3.8	1.49e+00	0	41	104	0	69	16580

#Closed at: 2026-01-02 23:43:19
#Recorded file [0 MB]: D:/Data/31040_260103_023021.dat