passes_logs/2026/01/02/T1/T1__20260102_061719_FENGYUN_3G_rec.log

#Pass ID: 20260102_061719_FENGYUN 3G
#Satellite: FENGYUN 3G
#Configuration: FENGYUN 3G
#almurnet v.1.7.20251203
#Start time: 2026-01-02 06:17:21

#Version: 2.0.20230620
#Station: T1
#Location: 37.570604 lon 55.790049 lat
#TLE: 1 56232U 23055A   26001.34523675  .00043393  00000+0  69485-3 0  9993
#TLE: 2 56232  49.9927 126.3392 0004120 323.4974  36.5712 15.52620654154072

#Time	Az	El	Level	Level2	SNR	BER	BlckErr	Temp	State	Recorded	gain1	gain2
2026-01-02 06:17:21.09	259.03	5.13	-49.2	-68.8	3.8	8.47e-01	0	41	0	0	70	33517
2026-01-02 06:17:23.09	258.80	5.27	-48.9	-68.6	3.8	8.47e-01	0	41	104	0	69	34851
2026-01-02 06:17:25.10	258.58	5.42	-49.1	-68.7	3.8	8.48e-01	0	41	104	0	69	34948
2026-01-02 06:17:27.11	258.35	5.56	-49.0	-68.7	3.8	8.46e-01	0	41	104	0	69	35092
2026-01-02 06:17:29.12	258.11	5.71	-49.0	-68.7	3.8	8.46e-01	0	41	104	0	69	35029
2026-01-02 06:17:31.13	257.87	5.85	-49.0	-68.6	3.8	8.48e-01	0	41	104	0	69	34632
2026-01-02 06:17:33.14	257.63	6.00	-48.8	-68.5	3.8	8.48e-01	0	41	104	0	69	34105
2026-01-02 06:17:35.15	257.39	6.15	-48.9	-68.5	3.8	8.47e-01	0	41	104	0	69	34252
2026-01-02 06:17:37.15	257.14	6.30	-49.0	-68.6	3.8	8.48e-01	0	41	104	0	69	34850
2026-01-02 06:17:39.16	256.89	6.45	-49.0	-68.7	3.8	8.46e-01	0	41	104	0	69	35140
2026-01-02 06:17:41.17	256.64	6.60	-49.0	-68.6	3.8	8.47e-01	0	41	104	0	69	34814
2026-01-02 06:17:43.18	256.38	6.75	-49.1	-68.4	3.8	8.47e-01	0	41	104	0	69	33750
2026-01-02 06:17:45.19	256.11	6.91	-48.9	-68.0	3.8	8.48e-01	0	42	104	0	69	32524
2026-01-02 06:17:47.20	255.85	7.06	-49.0	-68.3	3.8	8.48e-01	0	42	104	0	69	33516
2026-01-02 06:17:49.21	255.58	7.21	-48.9	-68.6	3.8	8.46e-01	0	42	104	0	69	34767
2026-01-02 06:17:51.22	255.30	7.37	-48.9	-68.7	3.8	8.46e-01	0	42	104	0	69	35009
2026-01-02 06:17:53.22	255.03	7.53	-48.9	-68.7	3.8	8.46e-01	0	42	104	0	69	34940
2026-01-02 06:17:55.23	254.74	7.68	-49.0	-68.6	3.8	8.46e-01	0	42	104	0	69	34840
2026-01-02 06:17:57.24	254.45	7.84	-48.9	-68.3	3.8	8.48e-01	0	42	104	0	69	33395
2026-01-02 06:17:59.25	254.16	8.00	-48.9	-66.8	3.8	8.47e-01	0	42	104	0	69	28300
2026-01-02 06:18:01.26	253.87	8.16	-48.9	-65.9	3.8	8.47e-01	0	42	104	0	69	25433
2026-01-02 06:18:03.27	253.57	8.33	-48.8	-65.9	4.0	8.45e-01	0	42	104	0	69	25533
2026-01-02 06:18:05.27	253.26	8.49	-48.8	-64.4	4.4	8.41e-01	0	42	0	0	69	21335
2026-01-02 06:18:07.28	252.95	8.65	-48.6	-60.3	7.0	8.05e-01	0	42	0	0	69	13281
2026-01-02 06:18:09.29	252.64	8.82	-47.8	-55.9	11.3	2.51e-02	0	42	0	0	67	8969
2026-01-02 06:18:11.30	252.32	8.98	-46.9	-52.9	14.5	5.15e-04	0	42	0	0	65	7158
2026-01-02 06:18:13.31	251.99	9.15	-45.5	-49.7	17.7	0.00e+00	0	42	0	0	63	5549
2026-01-02 06:18:15.32	251.66	9.32	-47.5	-54.8	12.3	2.99e-04	0	42	0	0	66	8450
2026-01-02 06:18:17.38	251.32	9.49	-43.0	-45.8	21.7	9.60e-04	0	42	0	0	57	5020
2026-01-02 06:18:19.44	250.97	9.66	-42.9	-45.7	21.9	0.00e+00	0	42	0	0	57	4938
2026-01-02 06:18:21.47	250.62	9.84	-41.7	-44.2	23.1	0.00e+00	0	42	0	0	55	4657
2026-01-02 06:18:23.72	250.22	10.03	-41.7	-44.2	23.1	0.00e+00	0	42	0	0	54	4947
2026-01-02 06:18:25.72	249.87	10.20	-41.7	-44.2	23.1	0.00e+00	0	42	0	0	54	4943
2026-01-02 06:18:27.73	249.50	10.37	-41.6	-44.0	23.3	0.00e+00	0	42	0	0	54	4855
2026-01-02 06:18:29.73	249.14	10.55	-41.5	-43.9	23.4	0.00e+00	0	42	0	0	54	4790
2026-01-02 06:18:32.05	248.70	10.75	-41.6	-44.0	23.3	0.00e+00	0	43	0	0	54	4854
2026-01-02 06:18:34.05	248.32	10.93	-41.8	-44.3	23.1	0.00e+00	0	42	0	0	54	5010
2026-01-02 06:18:36.06	247.93	11.10	-41.4	-43.9	23.4	0.00e+00	0	43	0	0	54	4788
2026-01-02 06:18:38.06	247.54	11.28	-41.1	-43.6	23.8	0.00e+00	0	43	0	0	54	4603
2026-01-02 06:18:40.10	247.13	11.46	-40.9	-43.3	24.0	0.00e+00	0	43	0	0	53	4728
2026-01-02 06:18:42.23	246.70	11.65	-41.0	-43.4	23.9	0.00e+00	0	43	0	0	53	4790
2026-01-02 06:18:44.23	246.28	11.83	-41.0	-43.4	23.8	0.00e+00	0	43	0	0	53	4814
2026-01-02 06:18:46.24	245.86	12.02	-40.5	-42.8	24.4	0.00e+00	0	42	0	0	52	4733
2026-01-02 06:18:48.24	245.43	12.20	-40.4	-42.6	24.6	0.00e+00	0	42	0	0	52	4616
2026-01-02 06:18:50.25	245.00	12.38	-40.7	-42.9	24.3	0.00e+00	0	42	0	0	52	4791
2026-01-02 06:18:52.25	244.55	12.56	-40.8	-43.1	24.2	0.00e+00	0	43	0	0	52	4884
2026-01-02 06:18:54.28	244.10	12.75	-40.6	-42.9	24.4	0.00e+00	0	42	0	0	52	4771
2026-01-02 06:18:56.24	243.65	12.93	-40.2	-42.4	24.8	0.00e+00	0	42	0	0	52	4520
2026-01-02 06:18:58.24	243.19	13.11	-40.0	-42.1	25.0	0.00e+00	0	43	0	0	52	4389
2026-01-02 06:19:00.33	242.69	13.31	-40.3	-42.6	24.6	0.00e+00	0	43	0	0	52	4601
2026-01-02 06:19:02.55	242.16	13.51	-40.5	-42.7	24.6	0.00e+00	0	43	0	0	52	4679
2026-01-02 06:19:04.55	241.67	13.70	-40.4	-42.6	24.7	0.00e+00	0	43	0	0	52	4640
2026-01-02 06:19:06.56	241.17	13.89	-40.5	-42.8	24.5	0.00e+00	0	43	0	0	52	4707
2026-01-02 06:19:08.58	240.67	14.08	-40.0	-42.2	25.0	0.00e+00	0	43	0	0	52	4432
2026-01-02 06:19:10.58	240.15	14.26	-40.3	-42.6	24.7	0.00e+00	0	42	0	0	51	4917
2026-01-02 06:19:12.59	239.63	14.45	-40.4	-42.7	24.6	0.00e+00	0	43	0	0	51	4955
2026-01-02 06:19:14.61	239.09	14.64	-40.3	-42.6	24.8	0.00e+00	0	43	0	0	51	4872
2026-01-02 06:19:16.61	238.56	14.83	-39.8	-41.9	25.3	0.00e+00	0	43	0	0	51	4526
2026-01-02 06:19:18.62	238.01	15.02	-40.0	-42.1	25.1	0.00e+00	0	43	0	0	51	4629
2026-01-02 06:19:20.62	237.45	15.21	-39.9	-42.0	25.2	0.00e+00	0	43	0	0	51	4588
2026-01-02 06:19:22.66	236.87	15.40	-39.5	-41.7	25.6	0.00e+00	0	43	0	0	50	4658
2026-01-02 06:19:24.86	236.24	15.60	-39.1	-41.2	26.1	0.00e+00	0	43	0	0	50	4407
2026-01-02 06:19:27.01	235.61	15.80	-39.5	-41.6	25.6	0.00e+00	0	43	0	0	50	4630
2026-01-02 06:19:29.18	234.97	16.01	-39.7	-41.9	25.4	0.00e+00	0	43	0	0	50	4769
2026-01-02 06:19:31.43	234.29	16.21	-39.7	-41.9	25.4	0.00e+00	0	43	0	0	50	4772
2026-01-02 06:19:33.59	233.62	16.41	-39.4	-41.5	25.8	0.00e+00	0	43	0	0	50	4557
2026-01-02 06:19:36.09	232.84	16.64	-39.1	-41.2	26.0	0.00e+00	0	43	0	0	50	4425
2026-01-02 06:19:38.25	232.15	16.84	-38.9	-40.9	26.2	0.00e+00	0	43	0	0	49	4537
2026-01-02 06:19:40.48	231.43	17.04	-39.2	-41.3	25.9	0.00e+00	0	43	0	0	49	4721
2026-01-02 06:19:42.65	230.71	17.24	-38.9	-41.0	26.2	0.00e+00	0	43	0	0	49	4551
2026-01-02 06:19:44.93	229.95	17.44	-38.9	-40.9	26.2	0.00e+00	0	43	0	0	49	4516
2026-01-02 06:19:47.12	229.20	17.64	-39.2	-41.2	26.0	0.00e+00	0	43	0	0	49	4700
2026-01-02 06:19:49.62	228.34	17.85	-39.3	-41.4	25.8	0.00e+00	0	43	0	0	49	4793
2026-01-02 06:19:51.82	227.56	18.04	-39.2	-41.3	26.0	0.00e+00	0	43	0	0	49	4714
2026-01-02 06:19:54.04	226.77	18.23	-38.6	-40.6	26.5	0.00e+00	0	43	0	0	49	4353
2026-01-02 06:19:56.18	225.99	18.41	-38.9	-40.9	26.4	0.00e+00	0	43	0	0	49	4524
2026-01-02 06:19:58.28	225.22	18.58	-38.6	-40.6	26.5	0.00e+00	0	43	0	0	49	4373
2026-01-02 06:20:00.35	224.45	18.75	-38.3	-40.2	26.8	0.00e+00	0	43	0	0	48	4426
2026-01-02 06:20:02.67	223.57	18.93	-38.0	-40.0	27.0	0.00e+00	0	43	0	0	47	4567
2026-01-02 06:20:04.70	222.79	19.09	-38.0	-39.9	27.0	0.00e+00	0	43	0	0	47	4536
2026-01-02 06:20:06.71	222.01	19.25	-38.3	-40.3	26.6	0.00e+00	0	43	0	0	47	4743
2026-01-02 06:20:08.71	221.22	19.39	-38.5	-40.6	26.5	0.00e+00	0	43	0	0	47	4871
2026-01-02 06:20:10.72	220.42	19.54	-38.4	-40.4	26.7	0.00e+00	0	43	0	0	47	4771
2026-01-02 06:20:12.80	219.59	19.69	-38.4	-40.4	26.7	0.00e+00	0	43	0	0	47	4781
2026-01-02 06:20:14.87	218.74	19.83	-38.3	-40.3	26.7	0.00e+00	0	43	0	0	47	4746
2026-01-02 06:20:16.87	217.92	19.96	-38.5	-40.5	26.5	0.00e+00	0	43	0	0	47	4867
2026-01-02 06:20:18.99	217.04	20.10	-38.0	-40.0	27.0	0.00e+00	0	43	0	0	47	4573
2026-01-02 06:20:21.00	216.19	20.22	-38.1	-40.0	27.0	0.00e+00	0	43	0	0	47	4592
2026-01-02 06:20:23.00	215.35	20.34	-38.1	-40.1	27.0	0.00e+00	0	43	0	0	47	4607
2026-01-02 06:20:25.04	214.47	20.46	-38.1	-40.1	26.8	0.00e+00	0	43	0	0	47	4642
2026-01-02 06:20:27.05	213.60	20.56	-38.2	-40.2	26.8	0.00e+00	0	43	0	0	47	4693
2026-01-02 06:20:29.05	212.73	20.67	-38.4	-40.4	26.6	0.00e+00	0	43	0	0	47	4779
2026-01-02 06:20:31.06	211.85	20.77	-38.5	-40.5	26.3	0.00e+00	0	43	0	0	47	4851
2026-01-02 06:20:33.06	210.97	20.86	-38.5	-40.5	26.6	0.00e+00	0	43	0	0	47	4855
2026-01-02 06:20:35.19	210.02	20.95	-38.3	-40.3	26.7	0.00e+00	0	43	0	0	47	4747
2026-01-02 06:20:37.20	209.12	21.03	-38.0	-40.0	27.0	0.00e+00	0	43	0	0	47	4563
2026-01-02 06:20:39.21	208.21	21.11	-38.4	-40.4	26.7	0.00e+00	0	43	0	0	47	4777
2026-01-02 06:20:41.22	207.30	21.17	-38.1	-40.1	26.9	0.00e+00	0	43	0	0	47	4621
2026-01-02 06:20:43.49	206.26	21.24	-37.9	-39.9	27.1	0.00e+00	0	43	0	0	47	4505
2026-01-02 06:20:45.55	205.32	21.30	-38.1	-40.1	26.9	0.00e+00	0	43	0	0	47	4618
2026-01-02 06:20:47.55	204.40	21.35	-38.1	-40.1	27.0	0.00e+00	0	43	0	0	47	4600
2026-01-02 06:20:49.56	203.47	21.39	-37.7	-39.7	27.2	0.00e+00	0	43	0	0	47	4425
2026-01-02 06:20:51.58	202.53	21.42	-37.9	-39.9	27.1	0.00e+00	0	43	0	0	46	4762
2026-01-02 06:20:53.58	201.61	21.45	-37.8	-39.8	27.1	0.00e+00	0	43	0	0	46	4711
2026-01-02 06:20:55.58	200.68	21.47	-37.6	-39.5	27.4	0.00e+00	0	43	0	0	46	4578
2026-01-02 06:20:57.59	199.74	21.48	-37.6	-39.5	27.3	0.00e+00	0	43	0	0	46	4583
2026-01-02 06:20:59.60	198.80	21.49	-37.8	-39.8	27.1	0.00e+00	0	43	0	0	46	4745
2026-01-02 06:21:01.60	197.87	21.49	-37.8	-39.8	27.2	0.00e+00	0	43	0	0	46	4750
2026-01-02 06:21:03.61	196.93	21.48	-37.6	-39.6	27.3	0.00e+00	0	43	0	0	46	4629
2026-01-02 06:21:05.77	195.93	21.47	-38.1	-40.1	26.9	0.00e+00	0	43	0	0	46	4883
2026-01-02 06:21:08.13	194.83	21.44	-38.0	-40.0	27.0	0.00e+00	0	43	0	0	46	4845
2026-01-02 06:21:10.29	193.83	21.41	-37.9	-39.9	27.1	0.00e+00	0	43	0	0	46	4789
2026-01-02 06:21:12.47	192.82	21.37	-37.7	-39.6	27.3	0.00e+00	0	43	0	0	46	4634
2026-01-02 06:21:14.89	191.71	21.31	-37.6	-39.6	27.3	0.00e+00	0	43	0	0	46	4610
2026-01-02 06:21:16.90	190.78	21.26	-37.7	-39.7	27.2	0.00e+00	0	43	0	0	46	4687
2026-01-02 06:21:18.90	189.87	21.20	-37.7	-39.7	27.2	0.00e+00	0	43	0	0	46	4670
2026-01-02 06:21:20.90	188.96	21.14	-37.9	-39.9	27.1	0.00e+00	0	43	0	0	46	4794
2026-01-02 06:21:23.00	188.01	21.06	-38.0	-40.0	26.9	0.00e+00	0	43	0	0	46	4866
2026-01-02 06:21:25.01	187.10	20.98	-38.1	-40.1	26.9	0.00e+00	0	43	0	0	46	4910
2026-01-02 06:21:27.01	186.21	20.90	-38.0	-40.0	27.0	0.00e+00	0	43	0	0	46	4827
2026-01-02 06:21:29.01	185.32	20.81	-37.9	-39.9	27.0	0.00e+00	0	43	0	0	46	4794
2026-01-02 06:21:31.02	184.44	20.72	-38.1	-40.2	26.8	0.00e+00	0	43	0	0	46	4931
2026-01-02 06:21:33.03	183.56	20.61	-38.1	-40.2	26.8	0.00e+00	0	43	0	0	46	4927
2026-01-02 06:21:35.03	182.69	20.51	-38.1	-40.1	26.9	0.00e+00	0	43	0	0	46	4871
2026-01-02 06:21:37.04	181.82	20.40	-38.1	-40.1	26.9	0.00e+00	0	43	0	0	46	4903
2026-01-02 06:21:39.11	180.94	20.28	-37.9	-39.8	27.1	0.00e+00	0	43	0	0	46	4752
2026-01-02 06:21:41.14	180.08	20.15	-38.0	-40.0	26.9	0.00e+00	0	43	0	0	46	4843
2026-01-02 06:21:43.21	179.22	20.02	-38.2	-40.2	26.8	0.00e+00	0	43	0	0	47	4705
2026-01-02 06:21:45.22	178.39	19.89	-38.0	-40.0	27.0	0.00e+00	0	43	0	0	47	4556
2026-01-02 06:21:47.23	177.56	19.75	-38.4	-40.4	26.7	0.00e+00	0	43	0	0	47	4800
2026-01-02 06:21:49.24	176.75	19.61	-38.7	-40.7	26.4	0.00e+00	0	43	0	0	48	4699
2026-01-02 06:21:51.43	175.87	19.46	-38.6	-40.6	26.5	0.00e+00	0	43	0	0	48	4628
2026-01-02 06:21:53.60	175.01	19.30	-38.6	-40.6	26.5	0.00e+00	0	43	0	0	48	4605
2026-01-02 06:21:55.77	174.17	19.13	-38.8	-40.9	26.3	0.00e+00	0	43	0	0	48	4765
2026-01-02 06:21:57.96	173.32	18.96	-38.8	-40.9	26.3	0.00e+00	0	43	0	0	48	4764
2026-01-02 06:22:00.11	172.51	18.79	-39.1	-41.2	26.0	0.00e+00	0	43	0	0	48	4941
2026-01-02 06:22:02.55	171.59	18.60	-38.5	-40.5	26.6	0.00e+00	0	43	0	0	48	4552
2026-01-02 06:22:04.86	170.74	18.41	-38.4	-40.4	26.7	0.00e+00	0	43	0	0	48	4510
2026-01-02 06:22:06.87	170.01	18.24	-38.4	-40.4	26.7	0.00e+00	0	43	0	0	48	4515
2026-01-02 06:22:08.87	169.29	18.07	-39.0	-41.1	26.1	0.00e+00	0	43	0	0	48	4896
2026-01-02 06:22:10.89	168.58	17.89	-39.4	-41.5	25.8	0.00e+00	0	43	0	0	49	4826
2026-01-02 06:22:12.90	167.88	17.72	-39.4	-41.5	25.8	0.00e+00	0	43	0	0	49	4819
2026-01-02 06:22:14.90	167.19	17.54	-39.1	-41.2	25.9	0.00e+00	0	43	0	0	49	4686
2026-01-02 06:22:16.99	166.49	17.36	-38.7	-40.8	26.3	0.00e+00	0	43	0	0	49	4448
2026-01-02 06:22:19.00	165.81	17.18	-38.8	-40.8	26.2	0.00e+00	0	43	0	0	49	4487
2026-01-02 06:22:21.00	165.16	17.00	-38.9	-40.9	26.1	0.00e+00	0	43	0	0	49	4541
2026-01-02 06:22:23.00	164.51	16.82	-38.7	-40.7	26.4	0.00e+00	0	43	0	0	49	4429
2026-01-02 06:22:25.01	163.87	16.63	-38.9	-40.9	26.2	0.00e+00	0	43	0	0	49	4535
2026-01-02 06:22:27.05	163.23	16.44	-39.0	-41.1	26.1	0.00e+00	0	43	0	0	49	4611
2026-01-02 06:22:29.05	162.61	16.26	-39.4	-41.5	25.6	0.00e+00	0	43	0	0	49	4837
2026-01-02 06:22:31.06	162.00	16.07	-39.4	-41.4	25.7	0.00e+00	0	43	0	0	49	4811
2026-01-02 06:22:33.06	161.40	15.89	-39.5	-41.6	25.6	0.00e+00	0	43	0	0	49	4926
2026-01-02 06:22:35.07	160.81	15.70	-40.2	-42.4	24.9	0.00e+00	0	43	0	0	51	4771
2026-01-02 06:22:37.08	160.22	15.51	-39.6	-41.7	25.5	0.00e+00	0	43	0	0	51	4438
2026-01-02 06:22:39.11	159.64	15.32	-39.5	-41.6	25.6	0.00e+00	0	43	0	0	50	4613
2026-01-02 06:22:41.11	159.08	15.13	-39.6	-41.7	25.5	0.00e+00	0	43	0	0	50	4696
2026-01-02 06:22:43.12	158.52	14.95	-39.8	-41.9	25.4	0.00e+00	0	43	0	0	50	4774
2026-01-02 06:22:45.12	157.98	14.76	-40.0	-42.2	25.1	0.00e+00	0	43	0	0	50	4940
2026-01-02 06:22:47.19	157.42	14.56	-39.7	-41.8	24.1	0.00e+00	0	43	0	0	50	4744
2026-01-02 06:22:49.20	156.89	14.37	-39.8	-41.9	25.3	0.00e+00	0	43	0	0	50	4804
2026-01-02 06:22:51.20	156.38	14.19	-39.8	-42.0	25.2	0.00e+00	0	43	0	0	50	4821
2026-01-02 06:22:53.20	155.86	14.00	-40.3	-42.5	24.8	0.00e+00	0	43	0	0	51	4836
2026-01-02 06:22:55.21	155.36	13.81	-40.4	-42.6	24.6	0.00e+00	0	43	0	0	51	4917
2026-01-02 06:22:57.21	154.87	13.62	-40.5	-42.8	24.5	0.00e+00	0	43	0	0	52	4706
2026-01-02 06:22:59.22	154.38	13.44	-40.4	-42.6	24.6	0.00e+00	0	43	0	0	52	4628
2026-01-02 06:23:01.23	153.90	13.25	-40.3	-42.5	24.7	0.00e+00	0	43	0	0	52	4580
2026-01-02 06:23:03.26	153.42	13.06	-40.4	-42.7	24.5	0.00e+00	0	43	0	0	52	4679
2026-01-02 06:23:05.27	152.96	12.88	-40.7	-43.0	24.3	0.00e+00	0	43	0	0	52	4816
2026-01-02 06:23:07.33	152.49	12.69	-40.8	-43.1	24.1	0.00e+00	0	43	0	0	52	4917
2026-01-02 06:23:09.38	152.03	12.50	-40.7	-42.9	24.3	0.00e+00	0	43	0	0	52	4804
2026-01-02 06:23:11.38	151.59	12.31	-40.7	-43.0	24.2	0.00e+00	0	43	0	0	52	4833
2026-01-02 06:23:13.39	151.15	12.13	-40.9	-43.2	24.1	0.00e+00	0	43	0	0	52	4929
2026-01-02 06:23:15.39	150.73	11.95	-40.8	-43.1	24.1	0.00e+00	0	43	0	0	52	4897
2026-01-02 06:23:17.39	150.31	11.77	-41.0	-43.3	24.0	0.00e+00	0	43	0	0	52	5010
2026-01-02 06:23:19.40	149.89	11.59	-41.0	-43.3	23.9	0.00e+00	0	43	0	0	52	5033
2026-01-02 06:23:21.48	149.47	11.40	-41.2	-43.5	23.8	0.00e+00	0	43	0	0	52	5129
2026-01-02 06:23:23.49	149.07	11.22	-41.2	-43.6	23.6	0.00e+00	0	43	0	0	53	4898
2026-01-02 06:23:25.49	148.68	11.05	-41.3	-43.6	23.6	0.00e+00	0	43	0	0	53	4922
2026-01-02 06:23:27.50	148.29	10.87	-41.2	-43.5	22.7	0.00e+00	0	43	0	0	53	4863
2026-01-02 06:23:29.51	147.91	10.69	-41.5	-43.9	23.3	0.00e+00	0	43	0	0	53	5089
2026-01-02 06:23:31.76	147.49	10.50	-42.2	-44.7	22.6	0.00e+00	0	43	0	0	55	4970
2026-01-02 06:23:33.76	147.12	10.32	-42.2	-44.7	22.5	0.00e+00	0	43	0	0	55	4978
2026-01-02 06:23:35.76	146.76	10.15	-42.1	-44.6	22.7	0.00e+00	0	43	0	0	55	4888
2026-01-02 06:23:37.77	146.40	9.98	-41.8	-44.3	22.9	0.00e+00	0	43	0	0	55	4739
2026-01-02 06:23:39.84	146.04	9.80	-41.7	-44.2	23.0	0.00e+00	0	43	0	0	55	4696
2026-01-02 06:23:41.89	145.68	9.62	-41.7	-44.2	23.0	0.00e+00	0	43	0	0	55	4660
2026-01-02 06:23:43.90	145.34	9.46	-42.1	-44.7	22.5	0.00e+00	0	43	0	0	55	4960
2026-01-02 06:23:45.90	145.01	9.29	-42.3	-45.0	22.2	0.00e+00	0	43	0	0	55	5126
2026-01-02 06:23:48.03	144.66	9.11	-42.4	-45.0	22.3	0.00e+00	0	43	0	0	55	5129
2026-01-02 06:23:50.03	144.34	8.94	-49.6	-65.0	6.5	0.00e+00	0	43	0	0	69	22912
2026-01-02 06:23:52.04	144.02	8.78	-50.1	-69.0	3.8	8.40e-01	0	43	104	0	70	34098
2026-01-02 06:23:54.05	143.70	8.61	-50.2	-69.1	3.8	8.46e-01	0	43	104	0	71	32635
2026-01-02 06:23:56.06	143.39	8.45	-50.3	-69.2	3.8	8.47e-01	0	43	104	0	71	33064
2026-01-02 06:23:58.07	143.09	8.29	-50.4	-69.2	3.8	8.46e-01	0	43	104	0	71	33242
2026-01-02 06:24:00.07	142.79	8.13	-50.4	-69.2	3.8	8.46e-01	0	43	104	0	71	33242
2026-01-02 06:24:02.09	142.49	7.96	-50.3	-69.3	3.8	8.46e-01	0	43	104	0	71	33665
2026-01-02 06:24:04.09	142.20	7.80	-50.5	-69.4	3.8	8.47e-01	0	43	104	0	71	33719
2026-01-02 06:24:06.10	141.91	7.65	-50.4	-69.4	3.8	8.47e-01	0	43	104	0	71	33742
2026-01-02 06:24:08.11	141.63	7.49	-50.4	-69.3	3.8	8.47e-01	0	43	104	0	71	33528
2026-01-02 06:24:10.12	141.35	7.33	-50.3	-69.3	3.8	8.48e-01	0	43	104	0	71	33424
2026-01-02 06:24:12.12	141.08	7.18	-50.2	-69.3	3.8	8.47e-01	0	43	104	0	71	33372
2026-01-02 06:24:14.13	140.81	7.02	-50.2	-69.3	3.8	8.46e-01	0	43	104	0	71	33338
2026-01-02 06:24:16.14	140.54	6.87	-50.2	-69.3	3.8	8.47e-01	0	43	104	0	71	33372
2026-01-02 06:24:18.15	140.28	6.71	-50.2	-69.2	3.8	8.47e-01	0	43	104	0	71	33159
2026-01-02 06:24:20.16	140.02	6.56	-50.2	-69.2	3.8	8.47e-01	0	43	104	0	71	33211
2026-01-02 06:24:22.16	139.76	6.41	-50.2	-69.2	3.8	8.46e-01	0	43	104	0	71	33241
2026-01-02 06:24:24.17	139.51	6.26	-50.2	-69.2	3.8	8.48e-01	0	43	104	0	71	33237
2026-01-02 06:24:26.18	139.26	6.11	-50.2	-69.2	3.8	8.47e-01	0	43	104	0	71	33255
2026-01-02 06:24:28.19	139.02	5.96	-50.2	-69.2	3.8	8.47e-01	0	43	104	0	71	33149
2026-01-02 06:24:30.20	138.78	5.81	-50.2	-69.2	3.8	8.47e-01	0	43	104	0	71	33232
2026-01-02 06:24:32.21	138.54	5.67	-50.2	-69.2	3.8	8.46e-01	0	43	104	0	71	33117
2026-01-02 06:24:34.22	138.31	5.52	-50.2	-69.2	3.8	8.46e-01	0	43	104	0	71	33191
2026-01-02 06:24:36.23	138.08	5.38	-50.2	-69.2	3.8	8.46e-01	0	43	104	0	71	33189
2026-01-02 06:24:38.24	137.85	5.23	-50.2	-69.2	3.8	8.47e-01	0	43	104	0	71	33182
2026-01-02 06:24:40.24	137.62	5.09	-50.2	-69.2	3.8	8.47e-01	0	43	104	0	71	33106
2026-01-02 06:24:42.25	137.40	4.95	-50.2	-69.2	3.8	8.46e-01	0	43	104	0	71	33185

#Closed at: 2026-01-02 06:24:43
#Recorded file [0 MB]: D:/Data/31040_260102_091721.dat