passes_logs/2026/01/02/T1/T1__20260102_012002_FENGYUN_3D_rec.log

#Pass ID: 20260102_012002_FENGYUN 3D
#Satellite: FENGYUN 3D
#Configuration: FENGYUN 3D
#almurnet v.1.7.20251203
#Start time: 2026-01-02 01:20:02

#Version: 2.0.20230620
#Station: T1
#Location: 37.570604 lon 55.790049 lat
#TLE: 1 43010U 17072A   26001.33100487  .00000602  00000+0  30664-3 0  9999
#TLE: 2 43010  98.9910 332.9374 0001848 133.1047 227.0283 14.19692078421319

#Time	Az	El	Level	Level2	SNR	BER	BlckErr	Temp	State	Recorded	gain1	gain2
2026-01-02 01:20:02.85	19.68	5.06	-50.0	-62.4	3.8	8.46e-01	0	40	0	0	70	15977
2026-01-02 01:20:05.86	19.76	5.27	-50.0	-62.4	3.8	8.47e-01	0	40	104	0	71	15080
2026-01-02 01:20:08.88	19.84	5.48	-50.0	-62.4	3.8	8.47e-01	0	40	104	0	71	15081
2026-01-02 01:20:11.89	19.92	5.70	-50.0	-62.3	3.8	8.47e-01	0	40	104	0	71	15042
2026-01-02 01:20:14.90	20.00	5.92	-50.0	-62.4	3.8	8.46e-01	0	40	104	0	71	15091
2026-01-02 01:20:17.91	20.09	6.14	-50.0	-62.4	3.8	8.49e-01	0	41	104	0	71	15099
2026-01-02 01:20:20.93	20.17	6.36	-50.0	-62.4	3.8	8.48e-01	0	41	104	0	71	15090
2026-01-02 01:20:23.94	20.26	6.58	-50.0	-62.4	3.8	8.47e-01	0	41	104	0	71	15057
2026-01-02 01:20:26.95	20.35	6.80	-50.0	-62.4	3.8	8.47e-01	0	41	104	0	71	15089
2026-01-02 01:20:30.15	20.44	7.05	-50.0	-62.4	3.8	8.47e-01	0	41	104	0	71	15060
2026-01-02 01:20:33.02	20.53	7.26	-50.0	-62.4	3.8	8.46e-01	0	41	104	0	71	15089
2026-01-02 01:20:36.17	20.62	7.50	-50.0	-62.3	3.8	8.47e-01	0	41	104	0	71	15042
2026-01-02 01:20:39.04	20.71	7.73	-50.0	-62.4	3.8	8.48e-01	0	41	104	0	71	15110
2026-01-02 01:20:42.20	20.81	7.97	-50.0	-62.4	3.8	8.47e-01	0	41	104	0	71	15081
2026-01-02 01:20:45.13	20.90	8.20	-50.0	-62.4	3.8	8.46e-01	0	42	104	0	71	15083
2026-01-02 01:20:48.14	21.00	8.44	-50.0	-62.4	3.8	8.47e-01	0	42	104	0	71	15138
2026-01-02 01:20:51.16	21.10	8.68	-50.0	-62.4	3.8	8.46e-01	0	42	104	0	71	15104
2026-01-02 01:20:54.17	21.20	8.93	-50.0	-62.4	3.8	8.46e-01	0	41	104	0	71	15094
2026-01-02 01:20:57.18	21.30	9.17	-50.0	-62.4	3.8	8.47e-01	0	42	104	0	71	15075
2026-01-02 01:21:00.44	21.41	9.44	-50.0	-62.4	3.8	8.46e-01	0	42	104	0	71	15104
2026-01-02 01:21:03.30	21.51	9.68	-50.0	-62.4	3.8	8.47e-01	0	42	104	0	71	15119
2026-01-02 01:21:06.46	21.62	9.95	-50.0	-62.4	3.8	8.48e-01	0	42	104	0	71	15110
2026-01-02 01:21:09.33	21.72	10.19	-50.0	-62.4	3.8	8.46e-01	0	42	104	0	71	15111
2026-01-02 01:21:12.48	21.83	10.46	-50.0	-62.4	3.8	8.47e-01	0	42	104	0	71	15106
2026-01-02 01:21:15.35	21.94	10.71	-50.0	-62.4	3.8	8.47e-01	0	42	104	0	71	15146
2026-01-02 01:21:18.89	22.07	11.02	-50.0	-62.4	3.8	8.47e-01	0	42	104	0	71	15135
2026-01-02 01:21:21.62	22.17	11.27	-50.0	-62.3	3.8	8.47e-01	0	42	104	0	71	15051
2026-01-02 01:21:24.92	22.30	11.56	-50.0	-62.4	3.8	8.47e-01	0	42	104	0	71	15056
2026-01-02 01:21:27.64	22.41	11.81	-50.0	-62.3	3.8	8.47e-01	0	42	104	0	71	15028
2026-01-02 01:21:30.94	22.54	12.11	-50.0	-62.4	3.8	8.47e-01	0	42	104	0	71	15052
2026-01-02 01:21:33.67	22.65	12.37	-50.0	-62.3	3.8	8.46e-01	0	42	104	0	71	15037
2026-01-02 01:21:36.97	22.79	12.67	-50.0	-62.4	3.8	8.46e-01	0	43	104	0	71	15166
2026-01-02 01:21:39.69	22.90	12.93	-50.0	-62.4	3.8	8.47e-01	0	42	104	0	71	15221
2026-01-02 01:21:42.99	23.04	13.25	-50.0	-62.4	3.8	8.46e-01	0	42	104	0	71	15091
2026-01-02 01:21:45.72	23.16	13.51	-50.0	-62.3	3.8	8.46e-01	0	43	104	0	71	15028
2026-01-02 01:21:49.02	23.31	13.84	-50.0	-62.4	3.8	8.46e-01	0	42	104	0	71	15094
2026-01-02 01:21:51.74	23.43	14.11	-50.0	-62.4	3.8	8.47e-01	0	43	104	0	71	15079
2026-01-02 01:21:55.04	23.58	14.44	-50.0	-62.4	3.8	8.47e-01	0	43	104	0	71	15115
2026-01-02 01:21:57.77	23.71	14.72	-50.0	-62.4	3.8	8.47e-01	0	43	104	0	71	15112
2026-01-02 01:22:01.07	23.87	15.06	-50.0	-62.3	3.8	8.46e-01	0	43	104	0	71	15022
2026-01-02 01:22:03.79	24.00	15.34	-50.0	-62.4	3.8	8.48e-01	0	42	104	0	71	15070
2026-01-02 01:22:07.09	24.16	15.69	-50.0	-62.4	3.8	8.46e-01	0	43	104	0	71	15060
2026-01-02 01:22:09.82	24.30	15.98	-50.0	-62.4	3.8	8.47e-01	0	43	104	0	71	15163
2026-01-02 01:22:13.12	24.47	16.34	-50.0	-62.4	3.8	8.47e-01	0	43	104	0	71	15115
2026-01-02 01:22:15.84	24.61	16.64	-50.0	-62.4	3.8	8.47e-01	0	43	104	0	71	15173
2026-01-02 01:22:19.14	24.79	17.01	-50.0	-62.4	3.8	8.48e-01	0	43	104	0	71	15128
2026-01-02 01:22:21.87	24.94	17.32	-50.0	-62.4	3.8	8.47e-01	0	43	104	0	71	15099
2026-01-02 01:22:25.17	25.12	17.69	-50.0	-62.4	3.8	8.47e-01	0	43	104	0	71	15072
2026-01-02 01:22:28.08	25.29	18.03	-50.0	-62.4	3.8	8.46e-01	0	43	104	0	71	15149
2026-01-02 01:22:31.10	25.47	18.39	-50.0	-62.4	3.8	8.47e-01	0	43	104	0	71	15155
2026-01-02 01:22:34.11	25.65	18.75	-50.0	-62.4	3.8	8.46e-01	0	43	104	0	71	15148
2026-01-02 01:22:37.12	25.83	19.11	-50.0	-62.4	3.8	8.47e-01	0	43	104	0	71	15133
2026-01-02 01:22:40.13	26.02	19.48	-50.0	-62.4	3.8	8.47e-01	0	43	104	0	71	15147
2026-01-02 01:22:43.14	26.21	19.85	-50.0	-62.4	3.8	8.46e-01	0	43	104	0	71	15119
2026-01-02 01:22:46.16	26.41	20.23	-50.0	-62.4	3.8	8.48e-01	0	43	104	0	71	15202
2026-01-02 01:22:49.17	26.61	20.62	-50.0	-62.4	3.8	8.47e-01	0	43	104	0	71	15080
2026-01-02 01:22:52.28	26.82	21.02	-50.0	-62.4	3.8	8.47e-01	0	43	104	0	71	15126
2026-01-02 01:22:55.27	27.03	21.42	-50.0	-62.4	3.8	8.47e-01	0	43	104	0	71	15164
2026-01-02 01:22:58.59	27.27	21.86	-50.0	-62.4	3.8	8.47e-01	0	43	104	0	71	15104
2026-01-02 01:23:01.48	27.48	22.26	-50.0	-62.4	3.8	8.47e-01	0	43	104	0	71	15201
2026-01-02 01:23:04.63	27.72	22.69	-50.0	-62.4	3.8	8.47e-01	0	43	104	0	71	15100
2026-01-02 01:23:07.50	27.94	23.09	-50.0	-62.4	3.8	8.47e-01	0	43	104	0	71	15144
2026-01-02 01:23:10.66	28.20	23.54	-50.0	-62.4	3.8	8.46e-01	0	43	104	0	71	15082
2026-01-02 01:23:13.53	28.43	23.96	-50.0	-62.4	3.8	8.48e-01	0	43	104	0	71	15121
2026-01-02 01:23:16.68	28.70	24.42	-50.0	-62.4	3.8	8.48e-01	0	43	104	0	71	15062
2026-01-02 01:23:19.55	28.94	24.85	-50.0	-62.4	3.8	8.46e-01	0	43	104	0	71	15189
2026-01-02 01:23:22.71	29.22	25.33	-50.0	-62.4	3.8	8.46e-01	0	43	104	0	71	15109
2026-01-02 01:23:25.58	29.49	25.78	-50.0	-62.4	3.8	8.47e-01	0	43	104	0	71	15146
2026-01-02 01:23:28.74	29.78	26.27	-50.0	-62.4	3.8	8.47e-01	0	43	104	0	71	15129
2026-01-02 01:23:31.60	30.06	26.73	-50.0	-62.4	3.8	8.47e-01	0	43	104	0	71	15101
2026-01-02 01:23:34.76	30.37	27.24	-50.0	-62.4	3.8	8.47e-01	0	43	104	0	71	15108
2026-01-02 01:23:37.63	30.67	27.71	-50.0	-62.4	3.8	8.47e-01	0	43	104	0	71	15159
2026-01-02 01:23:40.78	31.00	28.24	-50.0	-62.4	3.8	8.47e-01	0	43	104	0	71	15144
2026-01-02 01:23:43.65	31.31	28.73	-50.0	-62.4	3.8	8.47e-01	0	43	104	0	71	15160
2026-01-02 01:23:46.81	31.67	29.28	-50.0	-62.4	3.8	8.46e-01	0	43	104	0	71	15074
2026-01-02 01:23:49.68	32.00	29.78	-50.0	-62.4	3.8	8.46e-01	0	43	104	0	71	15123
2026-01-02 01:23:52.83	32.38	30.35	-50.0	-62.4	3.8	8.48e-01	0	43	104	0	71	15166
2026-01-02 01:23:55.70	32.73	30.87	-50.0	-62.4	3.8	8.47e-01	0	43	104	0	71	15161
2026-01-02 01:23:58.86	33.14	31.46	-50.0	-62.4	3.8	8.46e-01	0	43	104	0	71	15175
2026-01-02 01:24:01.72	33.51	31.99	-50.0	-62.4	3.8	8.48e-01	0	43	104	0	71	15154
2026-01-02 01:24:04.88	33.95	32.60	-50.0	-62.4	3.8	8.48e-01	0	43	104	0	71	15179
2026-01-02 01:24:07.75	34.35	33.16	-50.0	-62.4	3.8	8.47e-01	0	43	104	0	71	15096
2026-01-02 01:24:10.91	34.82	33.79	-50.0	-62.4	3.8	8.46e-01	0	43	104	0	71	15118
2026-01-02 01:24:13.78	35.25	34.36	-50.0	-62.4	3.8	8.46e-01	0	43	104	0	71	15159
2026-01-02 01:24:16.93	35.75	35.01	-50.0	-62.4	3.8	8.47e-01	0	43	104	0	71	15137
2026-01-02 01:24:19.80	36.22	35.61	-50.0	-62.4	3.8	8.47e-01	0	43	104	0	71	15175
2026-01-02 01:24:22.96	36.76	36.27	-50.0	-62.4	3.8	8.47e-01	0	43	104	0	71	15150
2026-01-02 01:24:25.83	37.26	36.89	-50.0	-62.4	3.8	8.46e-01	0	43	104	0	71	15111
2026-01-02 01:24:28.98	37.84	37.58	-50.0	-62.4	3.8	8.48e-01	0	43	104	0	71	15169
2026-01-02 01:24:31.85	38.39	38.22	-50.0	-62.4	3.8	8.48e-01	0	43	104	0	71	15133
2026-01-02 01:24:35.00	39.02	38.93	-50.0	-62.4	3.8	8.48e-01	0	43	104	0	71	15173
2026-01-02 01:24:37.87	39.61	39.58	-50.0	-62.4	3.8	8.46e-01	0	43	104	0	71	15097
2026-01-02 01:24:41.02	40.30	40.31	-50.0	-62.4	3.8	8.47e-01	0	43	104	0	71	15099
2026-01-02 01:24:43.89	40.94	40.99	-50.0	-62.4	3.8	8.47e-01	0	43	104	0	71	15194
2026-01-02 01:24:47.05	41.69	41.74	-50.0	-62.4	3.8	8.48e-01	0	43	104	0	71	15147
2026-01-02 01:24:49.91	42.39	42.43	-50.0	-62.4	3.8	8.47e-01	0	43	104	0	71	15177
2026-01-02 01:24:53.07	43.21	43.20	-50.0	-62.4	3.8	8.47e-01	0	43	104	0	71	15132
2026-01-02 01:24:55.94	43.98	43.91	-50.0	-62.4	3.8	8.47e-01	0	43	104	0	71	15099
2026-01-02 01:24:59.09	44.87	44.70	-50.0	-62.4	3.8	8.48e-01	0	43	104	0	71	15156
2026-01-02 01:25:01.96	45.72	45.43	-50.0	-62.4	3.8	8.47e-01	0	43	104	0	71	15067
2026-01-02 01:25:05.12	46.71	46.23	-50.0	-62.4	3.8	8.47e-01	0	43	104	0	71	15056
2026-01-02 01:25:07.99	47.64	46.97	-50.0	-62.4	3.8	8.47e-01	0	43	104	0	71	15146
2026-01-02 01:25:11.14	48.72	47.78	-50.0	-62.4	3.8	8.48e-01	0	43	104	0	71	15155
2026-01-02 01:25:14.01	49.75	48.53	-50.0	-62.4	3.8	8.47e-01	0	43	104	0	71	15086
2026-01-02 01:25:17.17	50.95	49.35	-50.1	-62.4	3.8	8.47e-01	0	43	104	0	71	15116
2026-01-02 01:25:20.04	52.09	50.10	-50.0	-62.4	3.8	8.48e-01	0	43	104	0	71	15109
2026-01-02 01:25:23.20	53.42	50.93	-50.0	-62.4	3.8	8.47e-01	0	43	104	0	71	15079
2026-01-02 01:25:26.35	54.81	51.75	-50.0	-62.4	3.8	8.47e-01	0	43	104	0	71	15094
2026-01-02 01:25:29.48	56.28	52.56	-50.0	-62.4	3.8	8.46e-01	0	43	104	0	71	15180
2026-01-02 01:25:32.63	57.83	53.37	-50.1	-62.4	3.8	8.46e-01	0	43	104	0	71	15136
2026-01-02 01:25:35.49	59.32	54.10	-50.0	-62.4	3.8	8.47e-01	0	43	104	0	71	15146
2026-01-02 01:25:38.65	61.05	54.89	-50.0	-62.4	3.8	8.47e-01	0	43	104	0	71	15165
2026-01-02 01:25:41.57	62.74	55.61	-50.0	-62.4	3.8	8.47e-01	0	43	104	0	71	15131
2026-01-02 01:25:44.79	64.71	56.39	-50.0	-62.3	3.8	8.46e-01	0	43	104	0	71	15035
2026-01-02 01:25:47.72	66.59	57.07	-50.0	-62.4	3.8	8.48e-01	0	43	104	0	71	15159
2026-01-02 01:25:50.73	68.62	57.75	-50.0	-62.4	3.8	8.48e-01	0	43	104	0	71	15151
2026-01-02 01:25:53.75	70.76	58.41	-50.0	-62.4	3.8	8.47e-01	0	43	104	0	71	15087
2026-01-02 01:25:56.76	73.00	59.03	-50.0	-62.4	3.8	8.47e-01	0	43	104	0	71	15093
2026-01-02 01:25:59.77	75.35	59.61	-50.0	-62.4	3.8	8.45e-01	0	43	104	0	71	15166
2026-01-02 01:26:02.79	77.81	60.16	-50.0	-62.4	3.8	8.46e-01	0	44	104	0	71	15148
2026-01-02 01:26:05.80	80.36	60.66	-50.0	-62.4	3.8	8.47e-01	0	43	104	0	71	15140
2026-01-02 01:26:08.81	83.01	61.12	-50.0	-62.4	3.8	8.47e-01	0	43	104	0	71	15080
2026-01-02 01:26:11.82	85.75	61.52	-50.0	-62.4	3.8	8.47e-01	0	43	104	0	71	15071
2026-01-02 01:26:14.83	88.57	61.86	-50.0	-62.3	3.8	8.48e-01	0	43	104	0	71	15028
2026-01-02 01:26:17.85	91.48	62.15	-50.0	-62.4	3.8	8.47e-01	0	43	104	0	71	15077
2026-01-02 01:26:20.86	94.44	62.38	-50.0	-62.4	3.8	8.47e-01	0	43	104	0	71	15134
2026-01-02 01:26:23.87	97.45	62.54	-50.0	-62.4	3.8	8.47e-01	0	43	104	0	71	15112
2026-01-02 01:26:26.88	100.48	62.63	-50.0	-62.4	3.8	8.48e-01	0	43	104	0	71	15153
2026-01-02 01:26:29.89	103.54	62.66	-50.0	-62.4	3.8	8.47e-01	0	43	104	0	71	15118
2026-01-02 01:26:32.90	106.59	62.61	-50.0	-62.4	3.8	8.48e-01	0	43	104	0	71	15110
2026-01-02 01:26:35.91	109.63	62.50	-50.0	-62.4	3.8	8.46e-01	0	43	104	0	71	15079
2026-01-02 01:26:38.93	112.63	62.33	-50.0	-62.4	3.8	8.48e-01	0	43	104	0	71	15141
2026-01-02 01:26:41.94	115.58	62.09	-50.0	-62.4	3.8	8.47e-01	0	43	104	0	71	15076
2026-01-02 01:26:44.95	118.47	61.79	-50.0	-62.4	3.8	8.48e-01	0	43	104	0	71	15086
2026-01-02 01:26:47.96	121.28	61.43	-50.0	-62.4	3.8	8.46e-01	0	43	104	0	71	15093
2026-01-02 01:26:50.97	124.00	61.01	-50.0	-62.4	3.8	8.46e-01	0	43	104	0	71	15132
2026-01-02 01:26:53.99	126.64	60.54	-50.0	-62.4	3.8	8.47e-01	0	43	104	0	71	15159
2026-01-02 01:26:57.00	129.17	60.03	-50.0	-62.4	3.8	8.48e-01	0	43	104	0	71	15147
2026-01-02 01:27:00.02	131.60	59.47	-50.0	-62.4	3.8	8.47e-01	0	43	104	0	71	15159
2026-01-02 01:27:03.03	133.93	58.88	-50.0	-62.4	3.8	8.47e-01	0	43	104	0	71	15150
2026-01-02 01:27:06.04	136.14	58.25	-50.0	-62.4	3.8	8.46e-01	0	43	104	0	71	15098
2026-01-02 01:27:09.05	138.26	57.58	-50.0	-62.4	3.8	8.48e-01	0	43	104	0	71	15098
2026-01-02 01:27:12.06	140.27	56.90	-50.0	-62.4	3.8	8.47e-01	0	43	104	0	71	15126
2026-01-02 01:27:15.08	142.19	56.18	-50.1	-62.4	3.8	8.46e-01	0	43	104	0	71	15169
2026-01-02 01:27:18.09	144.01	55.45	-50.0	-62.4	3.8	8.48e-01	0	43	104	0	71	15089
2026-01-02 01:27:21.10	145.73	54.70	-50.0	-62.3	3.8	8.47e-01	0	43	104	0	71	15039
2026-01-02 01:27:24.12	147.37	53.94	-50.0	-62.4	3.8	8.46e-01	0	43	104	0	71	15076
2026-01-02 01:27:27.12	148.92	53.17	-50.0	-62.4	3.8	8.47e-01	0	43	104	0	71	15186
2026-01-02 01:27:30.14	150.40	52.39	-50.0	-62.4	3.8	8.48e-01	0	43	104	0	71	15185
2026-01-02 01:27:33.37	151.90	51.55	-50.0	-62.4	3.8	8.46e-01	0	43	104	0	71	15117
2026-01-02 01:27:36.37	153.21	50.76	-50.0	-62.4	3.8	8.47e-01	0	43	104	0	71	15120
2026-01-02 01:27:39.90	154.68	49.84	-50.0	-62.4	3.8	8.47e-01	0	43	104	0	71	15147
2026-01-02 01:27:42.62	155.75	49.12	-50.0	-62.4	3.8	8.46e-01	0	43	104	0	71	15177
2026-01-02 01:27:45.92	156.98	48.26	-50.0	-62.4	3.8	8.47e-01	0	43	104	0	71	15135
2026-01-02 01:27:48.65	157.95	47.55	-50.1	-62.4	3.8	8.48e-01	0	43	104	0	71	15176
2026-01-02 01:27:51.95	159.07	46.69	-50.1	-62.4	3.8	8.48e-01	0	43	104	0	71	15218
2026-01-02 01:27:54.67	159.95	45.99	-50.0	-62.4	3.8	8.48e-01	0	43	104	0	71	15177
2026-01-02 01:27:57.98	160.96	45.14	-50.0	-62.4	3.8	8.48e-01	0	43	104	0	71	15182
2026-01-02 01:28:00.70	161.76	44.46	-50.0	-62.4	3.8	8.46e-01	0	43	104	0	71	15132
2026-01-02 01:28:04.00	162.68	43.63	-50.1	-62.4	3.8	8.48e-01	0	43	104	0	71	15146
2026-01-02 01:28:06.72	163.41	42.95	-50.1	-62.4	3.8	8.47e-01	0	43	104	0	71	15155
2026-01-02 01:28:10.02	164.25	42.15	-50.0	-62.4	3.8	8.46e-01	0	43	104	0	71	15184
2026-01-02 01:28:12.75	164.91	41.49	-50.1	-62.4	3.8	8.47e-01	0	43	104	0	71	15186
2026-01-02 01:28:16.05	165.68	40.70	-50.1	-62.4	3.8	8.47e-01	0	43	104	0	71	15203
2026-01-02 01:28:18.77	166.29	40.06	-50.1	-62.4	3.8	8.48e-01	0	43	104	0	71	15163
2026-01-02 01:28:22.07	167.00	39.29	-50.1	-62.5	3.8	8.46e-01	0	43	104	0	71	15239
2026-01-02 01:28:24.80	167.56	38.67	-50.0	-62.4	3.8	8.47e-01	0	43	104	0	71	15197
2026-01-02 01:28:28.10	168.21	37.92	-50.1	-62.4	3.8	8.47e-01	0	43	104	0	71	15128
2026-01-02 01:28:30.82	168.72	37.32	-50.1	-62.4	3.8	8.46e-01	0	43	104	0	71	15149
2026-01-02 01:28:34.12	169.32	36.60	-50.1	-62.4	3.8	8.46e-01	0	43	104	0	71	15166
2026-01-02 01:28:36.84	169.80	36.01	-50.1	-62.4	3.8	8.46e-01	0	43	104	0	71	15214
2026-01-02 01:28:40.14	170.35	35.31	-50.1	-62.4	3.8	8.46e-01	0	43	104	0	71	15208
2026-01-02 01:28:42.87	170.79	34.74	-50.1	-62.4	3.8	8.47e-01	0	43	104	0	71	15217
2026-01-02 01:28:46.17	171.31	34.07	-50.1	-62.4	3.8	8.47e-01	0	43	104	0	71	15154
2026-01-02 01:28:49.09	171.75	33.48	-50.1	-62.4	3.8	8.47e-01	0	43	104	0	71	15199
2026-01-02 01:28:52.10	172.18	32.88	-50.1	-62.4	3.8	8.46e-01	0	43	104	0	71	15203
2026-01-02 01:28:55.11	172.61	32.30	-50.1	-62.4	3.8	8.47e-01	0	43	104	0	71	15134
2026-01-02 01:28:58.13	173.01	31.72	-50.1	-62.4	3.8	8.47e-01	0	43	104	0	71	15221
2026-01-02 01:29:01.14	173.41	31.15	-50.1	-62.4	3.8	8.47e-01	0	43	104	0	71	15214
2026-01-02 01:29:04.15	173.79	30.59	-50.1	-62.4	3.8	8.46e-01	0	43	104	0	71	15184
2026-01-02 01:29:07.16	174.15	30.05	-50.1	-62.4	3.8	8.46e-01	0	43	104	0	71	15126
2026-01-02 01:29:10.17	174.51	29.51	-50.1	-62.4	3.8	8.47e-01	0	43	104	0	71	15208
2026-01-02 01:29:13.19	174.86	28.97	-50.1	-62.4	3.8	8.47e-01	0	43	104	0	71	15148
2026-01-02 01:29:16.25	175.20	28.44	-50.1	-62.4	3.8	8.47e-01	0	43	104	0	71	15177
2026-01-02 01:29:19.78	175.57	27.84	-50.1	-62.5	3.8	8.46e-01	0	43	104	0	71	15240
2026-01-02 01:29:22.59	175.87	27.37	-50.1	-62.5	3.8	8.47e-01	0	43	104	0	71	15240
2026-01-02 01:29:25.89	176.20	26.83	-50.1	-62.4	3.8	8.47e-01	0	43	104	0	71	15215
2026-01-02 01:29:28.62	176.46	26.39	-50.1	-62.4	3.8	8.48e-01	0	43	104	0	71	15156
2026-01-02 01:29:31.92	176.78	25.87	-50.1	-62.4	3.8	8.48e-01	0	43	104	0	71	15146
2026-01-02 01:29:34.64	177.03	25.44	-50.1	-62.4	3.8	8.46e-01	0	43	104	0	71	15144
2026-01-02 01:29:37.94	177.32	24.93	-50.1	-62.4	3.8	8.48e-01	0	43	104	0	71	15178
2026-01-02 01:29:40.67	177.56	24.52	-50.1	-62.4	3.8	8.47e-01	0	43	104	0	71	15168
2026-01-02 01:29:43.97	177.84	24.03	-50.1	-62.4	3.8	8.47e-01	0	44	104	0	71	15225
2026-01-02 01:29:46.69	178.07	23.63	-50.1	-62.5	3.8	8.47e-01	0	43	104	0	71	15255
2026-01-02 01:29:49.99	178.33	23.15	-50.1	-62.5	3.8	8.47e-01	0	43	104	0	71	15258
2026-01-02 01:29:52.72	178.54	22.76	-50.1	-62.5	3.8	8.47e-01	0	43	104	0	71	15234
2026-01-02 01:29:56.02	178.80	22.30	-50.1	-62.5	3.8	8.48e-01	0	43	104	0	71	15252
2026-01-02 01:29:58.74	179.00	21.93	-50.1	-62.5	3.8	8.47e-01	0	43	104	0	71	15235
2026-01-02 01:30:02.04	179.24	21.48	-50.1	-62.4	3.8	8.47e-01	0	43	104	0	71	15174
2026-01-02 01:30:04.77	179.43	21.11	-50.1	-62.5	3.8	8.47e-01	0	44	104	0	71	15327
2026-01-02 01:30:08.07	179.66	20.68	-50.1	-62.5	3.8	8.47e-01	0	43	104	0	71	15228
2026-01-02 01:30:10.79	179.84	20.33	-50.1	-62.4	3.8	8.48e-01	0	43	104	0	71	15187
2026-01-02 01:30:14.09	180.06	19.90	-50.1	-62.5	3.8	8.48e-01	0	43	104	0	71	15226
2026-01-02 01:30:16.82	180.23	19.56	-50.1	-62.4	3.8	8.46e-01	0	43	104	0	71	15187
2026-01-02 01:30:20.12	180.44	19.15	-50.1	-62.4	3.8	8.47e-01	0	43	104	0	71	15210
2026-01-02 01:30:22.85	180.61	18.82	-50.1	-62.5	3.8	8.46e-01	0	44	104	0	71	15228
2026-01-02 01:30:26.15	180.80	18.42	-50.1	-62.4	3.8	8.48e-01	0	43	104	0	71	15187
2026-01-02 01:30:28.87	180.96	18.09	-50.1	-62.4	3.8	8.47e-01	0	43	104	0	71	15212
2026-01-02 01:30:32.18	181.15	17.70	-50.1	-62.5	3.8	8.47e-01	0	43	104	0	71	15231
2026-01-02 01:30:34.90	181.30	17.39	-50.1	-62.4	3.8	8.47e-01	0	43	104	0	71	15175
2026-01-02 01:30:38.20	181.49	17.01	-50.1	-62.4	3.8	8.46e-01	0	43	104	0	71	15208
2026-01-02 01:30:40.93	181.63	16.70	-50.1	-62.4	3.8	8.48e-01	0	43	104	0	71	15196
2026-01-02 01:30:44.23	181.80	16.34	-50.1	-62.5	3.8	8.47e-01	0	44	104	0	71	15227
2026-01-02 01:30:46.95	181.94	16.04	-50.1	-62.4	3.8	8.47e-01	0	43	104	0	71	15188
2026-01-02 01:30:50.25	182.11	15.68	-50.1	-62.5	3.8	8.47e-01	0	44	104	0	71	15246
2026-01-02 01:30:52.98	182.25	15.39	-50.1	-62.4	3.8	8.46e-01	0	43	104	0	71	15164
2026-01-02 01:30:56.28	182.41	15.04	-50.1	-62.4	3.8	8.47e-01	0	43	104	0	71	15224
2026-01-02 01:30:59.36	182.55	14.72	-50.1	-62.5	3.8	8.47e-01	0	43	104	0	71	15240
2026-01-02 01:31:02.48	182.70	14.40	-50.1	-62.4	3.8	8.48e-01	0	43	104	0	71	15216
2026-01-02 01:31:05.49	182.83	14.09	-50.1	-62.5	3.8	8.47e-01	0	43	104	0	71	15240
2026-01-02 01:31:08.51	182.97	13.79	-50.1	-62.5	3.8	8.47e-01	0	43	104	0	71	15245
2026-01-02 01:31:11.52	183.10	13.49	-50.1	-62.5	3.8	8.47e-01	0	43	104	0	71	15232
2026-01-02 01:31:14.45	183.23	13.20	-50.1	-62.5	3.8	8.46e-01	0	43	104	0	71	15267
2026-01-02 01:31:17.61	183.36	12.90	-50.1	-62.4	3.8	8.47e-01	0	43	104	0	71	15210
2026-01-02 01:31:20.48	183.48	12.62	-50.1	-62.4	3.8	8.48e-01	0	43	104	0	71	15204
2026-01-02 01:31:23.63	183.61	12.32	-50.1	-62.4	3.8	8.47e-01	0	43	104	0	71	15216
2026-01-02 01:31:26.51	183.72	12.05	-50.1	-62.4	3.8	8.47e-01	0	43	104	0	71	15155
2026-01-02 01:31:29.73	183.85	11.75	-50.1	-62.4	3.8	8.46e-01	0	43	104	0	71	15139
2026-01-02 01:31:32.59	183.96	11.49	-50.1	-62.5	3.8	8.48e-01	0	43	104	0	71	15268
2026-01-02 01:31:35.75	184.08	11.21	-50.1	-62.4	3.8	8.47e-01	0	43	104	0	71	15181
2026-01-02 01:31:38.62	184.19	10.95	-50.1	-62.4	3.8	8.46e-01	0	43	104	0	71	15214
2026-01-02 01:31:41.77	184.30	10.67	-50.1	-62.4	3.8	8.48e-01	0	43	104	0	71	15211
2026-01-02 01:31:44.64	184.41	10.42	-50.1	-62.5	3.8	8.47e-01	0	44	104	0	71	15234
2026-01-02 01:31:47.80	184.52	10.14	-50.1	-62.4	3.8	8.46e-01	0	43	104	0	71	15133
2026-01-02 01:31:50.67	184.62	9.90	-50.1	-62.4	3.8	8.47e-01	0	43	104	0	71	15098
2026-01-02 01:31:53.82	184.73	9.63	-50.1	-62.4	3.8	8.48e-01	0	44	104	0	71	15222
2026-01-02 01:31:56.69	184.82	9.39	-50.1	-62.5	3.8	8.46e-01	0	43	104	0	71	15235
2026-01-02 01:31:59.85	184.93	9.12	-50.1	-62.4	3.8	8.46e-01	0	43	104	0	71	15121
2026-01-02 01:32:02.71	185.02	8.89	-50.1	-62.4	3.8	8.46e-01	0	44	104	0	71	15160
2026-01-02 01:32:05.87	185.12	8.63	-50.1	-62.4	3.8	8.47e-01	0	43	104	0	71	15165
2026-01-02 01:32:08.74	185.22	8.40	-50.1	-62.4	3.8	8.47e-01	0	44	104	0	71	15156
2026-01-02 01:32:11.89	185.31	8.14	-50.1	-62.4	3.8	8.47e-01	0	43	104	0	71	15155
2026-01-02 01:32:14.76	185.40	7.91	-50.0	-62.4	3.8	8.47e-01	0	44	104	0	71	15166
2026-01-02 01:32:17.92	185.50	7.67	-50.0	-62.4	3.8	8.47e-01	0	43	104	0	71	15142
2026-01-02 01:32:20.78	185.58	7.44	-50.1	-62.4	3.8	8.47e-01	0	43	104	0	71	15175
2026-01-02 01:32:23.94	185.68	7.20	-50.1	-62.4	3.8	8.47e-01	0	43	104	0	71	15134
2026-01-02 01:32:26.81	185.76	6.98	-50.1	-62.4	3.8	8.47e-01	0	44	104	0	71	15182
2026-01-02 01:32:29.96	185.85	6.74	-50.0	-62.4	3.8	8.47e-01	0	43	104	0	71	15181
2026-01-02 01:32:32.84	185.93	6.52	-50.0	-62.4	3.8	8.48e-01	0	43	104	0	71	15123
2026-01-02 01:32:35.99	186.02	6.29	-50.0	-62.4	3.8	8.45e-01	0	43	104	0	71	15119
2026-01-02 01:32:38.86	186.10	6.07	-50.0	-62.4	3.8	8.47e-01	0	43	104	0	71	15214
2026-01-02 01:32:42.01	186.18	5.84	-50.0	-62.4	3.8	8.47e-01	0	43	104	0	71	15122
2026-01-02 01:32:44.88	186.26	5.63	-50.0	-62.4	3.8	8.46e-01	0	43	104	0	71	15136
2026-01-02 01:32:48.03	186.34	5.41	-50.0	-62.4	3.8	8.48e-01	0	43	104	0	71	15182
2026-01-02 01:32:50.90	186.42	5.20	-50.0	-62.4	3.8	8.47e-01	0	43	104	0	71	15151
2026-01-02 01:32:54.05	186.50	4.98	-50.0	-62.4	3.8	8.48e-01	0	43	104	0	71	15159

#Closed at: 2026-01-02 01:32:54
#Recorded file [0 MB]: D:/Data/31040_260102_042002.dat