passes_logs/2026/01/02/T1/T1__20260102_030724_FENGYUN_3E_rec.log

#Pass ID: 20260102_030724_FENGYUN 3E
#Satellite: FENGYUN 3E
#Configuration: FENGYUN 3E
#almurnet v.1.7.20251203
#Start time: 2026-01-02 03:07:23

#Version: 2.0.20230620
#Station: T1
#Location: 37.570604 lon 55.790049 lat
#TLE: 1 49008U 21062A   26001.26445318  .00000475  00000+0  24453-3 0  9990
#TLE: 2 49008  98.7480   6.5551 0001357 167.8415 192.2795 14.19884467232890

#Time	Az	El	Level	Level2	SNR	BER	BlckErr	Temp	State	Recorded	gain1	gain2
2026-01-02 03:07:23.87	22.68	4.98	-49.6	-60.9	3.8	8.46e-01	0	38	0	0	70	12529
2026-01-02 03:07:26.85	22.83	5.18	-49.6	-60.8	3.8	8.47e-01	0	38	104	0	69	13141
2026-01-02 03:07:29.85	22.98	5.39	-49.6	-60.7	3.8	8.46e-01	0	38	104	0	69	13068
2026-01-02 03:07:32.84	23.14	5.59	-49.6	-60.7	3.8	8.47e-01	0	38	104	0	69	13075
2026-01-02 03:07:35.84	23.30	5.80	-49.6	-60.9	3.8	8.46e-01	0	38	104	0	69	13304
2026-01-02 03:07:38.83	23.45	6.00	-49.6	-60.8	3.8	8.46e-01	0	38	104	0	69	13172
2026-01-02 03:07:41.82	23.62	6.21	-49.6	-60.7	3.8	8.46e-01	0	38	104	0	69	12982
2026-01-02 03:07:44.81	23.78	6.42	-49.5	-60.3	3.8	8.46e-01	0	39	104	0	69	12502
2026-01-02 03:07:47.80	23.94	6.63	-49.5	-59.9	3.8	8.46e-01	0	39	104	0	69	11911
2026-01-02 03:07:50.80	24.11	6.85	-49.4	-59.5	3.8	8.47e-01	0	39	104	0	69	11351
2026-01-02 03:07:53.80	24.28	7.06	-49.4	-59.7	3.8	8.46e-01	0	39	104	0	69	11633
2026-01-02 03:07:56.79	24.45	7.28	-49.5	-60.5	3.8	8.46e-01	0	39	104	0	69	12700
2026-01-02 03:07:59.78	24.63	7.49	-49.5	-60.6	3.8	8.47e-01	0	39	104	0	69	12818
2026-01-02 03:08:02.79	24.81	7.72	-49.3	-58.7	3.8	8.46e-01	0	39	104	0	69	10412
2026-01-02 03:08:05.79	24.99	7.94	-49.0	-56.6	4.5	8.27e-01	0	39	0	0	68	8591
2026-01-02 03:08:08.80	25.17	8.16	-48.7	-55.5	4.9	7.82e-01	0	39	0	0	68	7628
2026-01-02 03:08:11.80	25.35	8.39	-48.8	-55.7	4.8	7.93e-01	0	39	0	0	68	7776
2026-01-02 03:08:14.80	25.54	8.61	-48.8	-56.0	4.7	8.06e-01	0	39	0	0	68	8010
2026-01-02 03:08:17.81	25.73	8.84	-48.2	-54.0	5.8	5.11e-01	0	39	0	2097152	67	6755
2026-01-02 03:08:20.81	25.93	9.07	-47.6	-52.1	7.4	1.14e-01	0	39	0	23068672	65	6099
2026-01-02 03:08:23.81	26.12	9.31	-46.4	-49.3	10.5	6.43e-04	0	39	0	33554432	62	5227
2026-01-02 03:08:26.82	26.32	9.54	-41.1	-42.3	17.2	0.00e+00	0	40	0	55574528	52	4193
2026-01-02 03:08:29.83	26.52	9.78	-40.8	-42.0	17.7	0.00e+00	0	39	0	77594624	51	4248
2026-01-02 03:08:32.83	26.73	10.02	-39.7	-40.8	18.8	0.00e+00	0	40	0	99614720	50	3940
2026-01-02 03:08:35.83	26.94	10.26	-39.4	-40.4	19.2	0.00e+00	0	40	0	120586240	49	4004
2026-01-02 03:08:38.84	27.15	10.50	-39.1	-40.1	19.5	0.00e+00	0	40	0	142606336	49	3858
2026-01-02 03:08:41.85	27.37	10.75	-39.2	-40.3	19.3	0.00e+00	0	40	0	164626432	49	3922
2026-01-02 03:08:44.85	27.59	11.00	-39.1	-40.1	19.4	0.00e+00	0	40	0	185597952	49	3857
2026-01-02 03:08:47.85	27.81	11.25	-39.3	-40.4	19.2	0.00e+00	0	40	0	207618048	48	4214
2026-01-02 03:08:50.86	28.03	11.50	-39.2	-40.3	19.4	0.00e+00	0	40	0	229638144	48	4152
2026-01-02 03:08:53.86	28.26	11.75	-39.0	-40.1	19.6	0.00e+00	0	40	0	250609664	48	4070
2026-01-02 03:08:56.87	28.50	12.01	-39.1	-40.1	19.5	0.00e+00	0	40	0	272629760	48	4097
2026-01-02 03:08:59.87	28.73	12.27	-39.3	-40.4	19.3	0.00e+00	0	40	0	294649856	48	4198
2026-01-02 03:09:02.87	28.97	12.53	-39.1	-40.2	19.5	0.00e+00	0	40	0	315621376	48	4106
2026-01-02 03:09:05.88	29.22	12.79	-39.0	-40.1	19.6	0.00e+00	0	40	0	337641472	48	4062
2026-01-02 03:09:08.88	29.47	13.06	-39.4	-40.4	19.3	0.00e+00	0	40	0	359661568	48	4216
2026-01-02 03:09:11.87	29.72	13.32	-39.0	-40.1	19.7	0.00e+00	0	40	0	380633088	48	4052
2026-01-02 03:09:14.88	29.98	13.60	-38.9	-39.9	19.8	0.00e+00	0	40	0	402653184	48	3997
2026-01-02 03:09:17.88	30.24	13.87	-38.9	-39.9	19.9	0.00e+00	0	40	0	424673280	48	3962
2026-01-02 03:09:20.88	30.51	14.14	-38.9	-39.9	19.9	0.00e+00	0	40	0	445644800	48	3978
2026-01-02 03:09:23.89	30.78	14.42	-38.6	-39.6	20.1	0.00e+00	0	40	0	467664896	48	3841
2026-01-02 03:09:26.89	31.06	14.70	-38.3	-39.3	20.2	0.00e+00	0	40	0	489684992	47	3936
2026-01-02 03:09:29.89	31.34	14.99	-37.6	-38.7	20.4	0.00e+00	0	40	0	510656512	46	3881
2026-01-02 03:09:32.90	31.63	15.28	-38.1	-39.0	20.4	0.00e+00	0	40	0	532676608	46	4045
2026-01-02 03:09:35.91	31.92	15.57	-38.2	-39.1	20.4	0.00e+00	0	40	0	554696704	46	4094
2026-01-02 03:09:38.91	32.22	15.86	-38.2	-39.2	20.3	0.00e+00	0	40	0	575668224	46	4123
2026-01-02 03:09:41.92	32.53	16.15	-37.9	-38.8	20.6	0.00e+00	0	40	0	597688320	46	3957
2026-01-02 03:09:44.91	32.83	16.45	-37.9	-38.8	20.7	0.00e+00	0	40	0	619708416	46	3934
2026-01-02 03:09:47.92	33.15	16.75	-37.7	-38.6	20.8	0.00e+00	0	40	0	641728512	46	3854
2026-01-02 03:09:50.92	33.47	17.05	-37.6	-38.5	20.9	0.00e+00	0	40	0	662700032	45	4022
2026-01-02 03:09:53.92	33.80	17.36	-37.6	-38.6	20.7	0.00e+00	0	40	0	684720128	45	4069
2026-01-02 03:09:56.92	34.13	17.67	-37.5	-38.4	21.0	0.00e+00	0	40	0	706740224	45	3984
2026-01-02 03:09:59.92	34.47	17.98	-37.5	-38.4	21.0	0.00e+00	0	40	0	727711744	45	3990
2026-01-02 03:10:02.91	34.82	18.30	-37.4	-38.4	21.0	0.00e+00	0	40	0	749731840	45	3959
2026-01-02 03:10:05.92	35.18	18.62	-37.3	-38.2	21.2	0.00e+00	0	40	0	770703360	45	3904
2026-01-02 03:10:08.92	35.54	18.94	-37.3	-38.2	21.2	0.00e+00	0	40	0	792723456	45	3912
2026-01-02 03:10:11.92	35.91	19.26	-37.3	-38.2	21.3	0.00e+00	0	40	0	814743552	45	3880
2026-01-02 03:10:14.93	36.29	19.59	-37.4	-38.3	21.2	0.00e+00	0	40	0	835715072	45	3949
2026-01-02 03:10:17.93	36.67	19.92	-37.2	-38.1	21.3	0.00e+00	0	40	0	857735168	45	3863
2026-01-02 03:10:20.93	37.07	20.26	-37.0	-37.9	21.5	0.00e+00	0	40	0	879755264	44	3959
2026-01-02 03:10:23.93	37.47	20.60	-36.8	-37.6	21.7	0.00e+00	0	40	0	900726784	44	3862
2026-01-02 03:10:26.93	37.88	20.94	-36.9	-37.8	21.6	0.00e+00	0	40	0	922746880	44	3918
2026-01-02 03:10:29.93	38.30	21.28	-36.8	-37.7	21.7	0.00e+00	0	40	0	944766976	44	3892
2026-01-02 03:10:32.93	38.73	21.63	-36.8	-37.7	21.7	0.00e+00	0	40	0	965738496	44	3886
2026-01-02 03:10:35.94	39.17	21.98	-36.7	-37.6	21.8	0.00e+00	0	40	0	987758592	44	3856
2026-01-02 03:10:38.95	39.62	22.34	-36.7	-37.6	21.8	0.00e+00	0	40	0	1009778688	44	3855
2026-01-02 03:10:41.95	40.08	22.69	-36.7	-37.6	21.9	0.00e+00	0	40	0	1030750208	44	3830
2026-01-02 03:10:44.96	40.55	23.06	-36.7	-37.6	21.9	0.00e+00	0	40	0	1052770304	44	3825
2026-01-02 03:10:47.96	41.02	23.42	-36.4	-37.2	22.1	0.00e+00	0	40	0	1074790400	43	3909
2026-01-02 03:10:50.96	41.52	23.79	-36.2	-37.1	22.2	0.00e+00	0	40	0	1095761920	43	3831
2026-01-02 03:10:53.96	42.02	24.16	-36.2	-37.0	22.3	0.00e+00	0	40	0	1117782016	43	3808
2026-01-02 03:10:56.96	42.53	24.53	-36.3	-37.2	22.1	0.00e+00	0	40	0	1139802112	43	3890
2026-01-02 03:10:59.96	43.06	24.91	-36.4	-37.2	22.0	0.00e+00	0	40	0	1160773632	43	3900
2026-01-02 03:11:02.96	43.59	25.28	-36.2	-37.0	22.2	0.00e+00	0	40	0	1182793728	43	3816
2026-01-02 03:11:05.96	44.14	25.67	-36.1	-36.9	22.3	0.00e+00	0	40	0	1204813824	42	4001
2026-01-02 03:11:08.97	44.71	26.05	-36.0	-36.9	22.4	0.00e+00	0	40	0	1226833920	42	3974
2026-01-02 03:11:11.97	45.29	26.44	-35.9	-36.7	22.5	0.00e+00	0	40	0	1247805440	42	3901
2026-01-02 03:11:14.98	45.88	26.83	-36.0	-36.8	22.4	0.00e+00	0	40	0	1269825536	42	3946
2026-01-02 03:11:17.98	46.49	27.22	-35.9	-36.7	22.5	0.00e+00	0	40	0	1291845632	42	3901
2026-01-02 03:11:20.98	47.11	27.62	-35.7	-36.5	22.7	0.00e+00	0	40	0	1312817152	42	3803
2026-01-02 03:11:23.98	47.74	28.01	-35.7	-36.5	22.8	0.00e+00	0	40	0	1334837248	42	3810
2026-01-02 03:11:26.99	48.40	28.41	-35.7	-36.5	22.7	0.00e+00	0	40	0	1356857344	42	3823
2026-01-02 03:11:29.99	49.07	28.81	-35.7	-36.6	22.7	0.00e+00	0	40	0	1377828864	42	3838
2026-01-02 03:11:33.00	49.75	29.22	-35.7	-36.5	22.8	0.00e+00	0	40	0	1399848960	42	3812
2026-01-02 03:11:35.99	50.45	29.62	-35.7	-36.5	22.7	0.00e+00	0	40	0	1420820480	41	4040
2026-01-02 03:11:39.00	51.17	30.03	-35.6	-36.4	22.8	0.00e+00	0	40	0	1442840576	41	3982
2026-01-02 03:11:42.00	51.91	30.43	-35.6	-36.4	22.8	0.00e+00	0	40	0	1464860672	41	3977
2026-01-02 03:11:45.00	52.66	30.84	-35.7	-36.5	22.7	0.00e+00	0	40	0	1485832192	41	4026
2026-01-02 03:11:48.01	53.44	31.24	-35.7	-36.5	22.7	0.00e+00	0	40	0	1507852288	41	4026
2026-01-02 03:11:51.01	54.24	31.65	-35.7	-36.5	22.7	0.00e+00	0	40	0	1529872384	41	4047
2026-01-02 03:11:54.02	55.05	32.06	-35.6	-36.4	22.9	0.00e+00	0	40	0	1551892480	41	3989
2026-01-02 03:11:57.02	55.89	32.46	-35.9	-36.8	22.5	0.00e+00	0	40	0	1572864000	41	4152
2026-01-02 03:12:00.02	56.74	32.87	-35.7	-36.6	21.8	0.00e+00	0	40	0	1594884096	41	4069
2026-01-02 03:12:03.02	57.62	33.27	-36.0	-36.8	22.5	0.00e+00	0	40	0	1616904192	41	4180
2026-01-02 03:12:06.03	58.52	33.67	-35.8	-36.6	22.6	0.00e+00	0	40	0	1637875712	41	4097
2026-01-02 03:12:09.03	59.44	34.07	-35.7	-36.6	22.8	0.00e+00	0	40	0	1659895808	41	4060
2026-01-02 03:12:12.03	60.38	34.46	-35.5	-36.3	23.0	0.00e+00	0	40	0	1681915904	41	3933
2026-01-02 03:12:15.03	61.34	34.85	-35.6	-36.4	22.9	0.00e+00	0	40	0	1702887424	41	3987
2026-01-02 03:12:18.04	62.33	35.24	-35.7	-36.5	22.8	0.00e+00	0	40	0	1724907520	41	4038
2026-01-02 03:12:21.04	63.34	35.62	-35.8	-36.7	22.6	0.00e+00	0	40	0	1746927616	41	4109
2026-01-02 03:12:24.05	64.38	36.00	-35.6	-36.4	22.9	0.00e+00	0	40	0	1767899136	41	3991
2026-01-02 03:12:27.05	65.44	36.37	-35.7	-36.5	22.8	0.00e+00	0	40	0	1789919232	41	4051
2026-01-02 03:12:30.05	66.52	36.73	-35.7	-36.6	22.7	0.00e+00	0	40	0	1811939328	41	4065
2026-01-02 03:12:33.06	67.63	37.09	-35.7	-36.5	22.8	0.00e+00	0	40	0	1832910848	41	4047
2026-01-02 03:12:36.07	68.77	37.43	-35.6	-36.5	22.8	0.00e+00	0	40	0	1854930944	41	4011
2026-01-02 03:12:39.07	69.92	37.77	-35.5	-36.3	23.0	0.00e+00	0	40	0	1876951040	41	3947
2026-01-02 03:12:42.07	71.10	38.10	-35.7	-36.5	22.8	0.00e+00	0	40	0	1898971136	41	4025
2026-01-02 03:12:45.07	72.30	38.42	-35.9	-36.7	22.6	0.00e+00	0	40	0	1919942656	41	4122
2026-01-02 03:12:48.07	73.52	38.73	-36.0	-36.9	22.5	0.00e+00	0	40	0	1941962752	41	4208
2026-01-02 03:12:51.07	74.77	39.02	-36.0	-36.9	22.5	0.00e+00	0	40	0	1962934272	41	4195
2026-01-02 03:12:54.07	76.04	39.30	-36.2	-37.1	22.3	0.00e+00	0	40	0	1984954368	42	4052
2026-01-02 03:12:57.07	77.33	39.57	-35.6	-36.4	22.8	0.00e+00	0	40	0	2006974464	41	3992
2026-01-02 03:13:00.07	78.64	39.83	-35.8	-36.6	22.7	0.00e+00	0	40	0	2027945984	41	4076
2026-01-02 03:13:03.08	79.97	40.07	-35.7	-36.6	22.8	0.00e+00	0	40	0	2049966080	41	4059
2026-01-02 03:13:06.08	81.32	40.29	-35.5	-36.4	22.9	0.00e+00	0	40	0	2071986176	41	3960
2026-01-02 03:13:09.08	82.69	40.50	-35.8	-36.7	22.6	0.00e+00	0	40	0	2092957696	41	4115
2026-01-02 03:13:12.08	84.08	40.69	-35.4	-36.2	23.0	0.00e+00	0	40	0	2114977792	41	3913
2026-01-02 03:13:15.08	85.48	40.86	-35.6	-36.5	22.8	0.00e+00	0	40	0	2136997888	41	4009
2026-01-02 03:13:18.08	86.89	41.02	-35.8	-36.6	22.7	0.00e+00	0	40	0	2157969408	41	4074
2026-01-02 03:13:21.09	88.33	41.15	-35.9	-36.8	22.6	0.00e+00	0	40	0	2179989504	41	4148
2026-01-02 03:13:24.08	89.76	41.27	-36.2	-37.0	22.3	0.00e+00	0	40	0	2202009600	41	4281
2026-01-02 03:13:27.07	91.21	41.36	-36.0	-36.8	22.5	0.00e+00	0	40	0	2222981120	41	4189
2026-01-02 03:13:30.06	92.66	41.44	-35.9	-36.7	22.6	0.00e+00	0	40	0	2245001216	41	4142
2026-01-02 03:13:33.06	94.12	41.50	-35.7	-36.5	22.8	0.00e+00	0	40	0	2265972736	41	4027
2026-01-02 03:13:36.05	95.58	41.53	-35.8	-36.7	22.6	0.00e+00	0	40	0	2287992832	41	4110
2026-01-02 03:13:39.05	97.05	41.55	-35.9	-36.8	22.5	0.00e+00	0	40	0	2310012928	41	4156
2026-01-02 03:13:42.03	98.51	41.54	-36.0	-36.8	22.4	0.00e+00	0	40	0	2330984448	41	4175
2026-01-02 03:13:45.03	99.98	41.52	-36.2	-37.1	22.3	0.00e+00	0	40	0	2353004544	41	4296
2026-01-02 03:13:48.03	101.44	41.47	-36.1	-37.0	22.4	0.00e+00	0	40	0	2375024640	41	4253
2026-01-02 03:13:51.03	102.90	41.40	-35.8	-36.6	22.7	0.00e+00	0	40	0	2395996160	41	4089
2026-01-02 03:13:54.03	104.36	41.32	-35.8	-36.6	22.7	0.00e+00	0	40	0	2418016256	41	4064
2026-01-02 03:13:57.01	105.79	41.21	-35.8	-36.7	22.6	0.00e+00	0	40	0	2438987776	41	4112
2026-01-02 03:14:00.00	107.22	41.09	-36.0	-36.9	22.5	0.00e+00	0	40	0	2461007872	41	4205
2026-01-02 03:14:02.99	108.64	40.94	-36.0	-36.8	22.5	0.00e+00	0	40	0	2481979392	41	4174
2026-01-02 03:14:05.99	110.05	40.78	-36.4	-37.3	22.1	0.00e+00	0	40	0	2503999488	42	4156
2026-01-02 03:14:08.99	111.45	40.59	-36.3	-37.1	22.3	0.00e+00	0	40	0	2526019584	42	4087
2026-01-02 03:14:11.98	112.82	40.40	-35.9	-36.7	22.6	0.00e+00	0	40	0	2546991104	42	3890
2026-01-02 03:14:14.97	114.18	40.18	-36.4	-37.3	22.1	0.00e+00	0	40	0	2569011200	42	4156
2026-01-02 03:14:17.96	115.52	39.95	-36.0	-36.9	22.5	0.00e+00	0	40	0	2589982720	42	3973
2026-01-02 03:14:20.96	116.85	39.70	-35.8	-36.7	22.7	0.00e+00	0	40	0	2612002816	42	3884
2026-01-02 03:14:23.95	118.15	39.44	-35.8	-36.6	22.7	0.00e+00	0	40	0	2634022912	42	3852
2026-01-02 03:14:26.95	119.43	39.16	-35.8	-36.6	22.7	0.00e+00	0	40	0	2654994432	42	3852
2026-01-02 03:14:29.95	120.69	38.87	-35.7	-36.6	22.7	0.00e+00	0	40	0	2677014528	42	3831
2026-01-02 03:14:32.94	121.93	38.57	-35.9	-36.8	22.6	0.00e+00	0	40	0	2699034624	42	3932
2026-01-02 03:14:35.93	123.14	38.26	-36.1	-37.0	22.4	0.00e+00	0	40	0	2720006144	42	4007
2026-01-02 03:14:38.93	124.33	37.93	-36.1	-36.9	22.4	0.00e+00	0	40	0	2742026240	42	3997
2026-01-02 03:14:41.92	125.50	37.60	-36.0	-36.8	22.5	0.00e+00	0	40	0	2762997760	42	3954
2026-01-02 03:14:44.91	126.64	37.26	-35.9	-36.8	22.5	0.00e+00	0	40	0	2785017856	42	3918
2026-01-02 03:14:47.91	127.76	36.90	-35.8	-36.7	22.7	0.00e+00	0	40	0	2807037952	42	3873
2026-01-02 03:14:50.90	128.86	36.54	-35.8	-36.6	22.7	0.00e+00	0	40	0	2828009472	42	3855
2026-01-02 03:14:53.89	129.93	36.18	-35.9	-36.7	22.5	0.00e+00	0	40	0	2850029568	42	3895
2026-01-02 03:14:56.89	130.98	35.80	-35.6	-36.5	22.8	0.00e+00	0	40	0	2872049664	42	3781
2026-01-02 03:14:59.88	132.00	35.42	-35.8	-36.6	22.6	0.00e+00	0	40	0	2893021184	41	4082
2026-01-02 03:15:02.87	133.00	35.04	-36.1	-36.9	22.4	0.00e+00	0	40	0	2915041280	41	4233
2026-01-02 03:15:05.86	133.98	34.65	-36.0	-36.8	22.5	0.00e+00	0	40	0	2936012800	41	4181
2026-01-02 03:15:08.86	134.94	34.25	-35.8	-36.6	22.7	0.00e+00	0	40	0	2958032896	41	4080
2026-01-02 03:15:11.85	135.87	33.86	-35.7	-36.6	22.5	0.00e+00	0	40	0	2979004416	41	4066
2026-01-02 03:15:14.84	136.78	33.46	-35.9	-36.8	22.5	0.00e+00	0	40	0	3001024512	41	4155
2026-01-02 03:15:17.84	137.67	33.05	-36.3	-37.2	22.2	0.00e+00	0	40	0	3023044608	42	4121
2026-01-02 03:15:20.84	138.54	32.65	-36.2	-37.1	22.2	0.00e+00	0	40	0	3044016128	42	4083
2026-01-02 03:15:23.83	139.38	32.24	-35.9	-36.8	22.5	0.00e+00	0	40	0	3066036224	42	3915
2026-01-02 03:15:26.82	140.21	31.84	-35.8	-36.7	22.6	0.00e+00	0	40	0	3088056320	42	3873
2026-01-02 03:15:29.81	141.01	31.43	-36.1	-37.0	22.3	0.00e+00	0	40	0	3109027840	42	4009
2026-01-02 03:15:32.81	141.80	31.02	-36.2	-37.1	21.9	0.00e+00	0	40	0	3131047936	42	4069
2026-01-02 03:15:35.80	142.57	30.61	-36.1	-36.9	22.4	0.00e+00	0	40	0	3152019456	42	3981
2026-01-02 03:15:38.79	143.32	30.20	-36.2	-37.0	22.3	0.00e+00	0	40	0	3174039552	42	4035
2026-01-02 03:15:41.78	144.04	29.80	-36.3	-37.1	22.2	0.00e+00	0	40	0	3196059648	42	4085
2026-01-02 03:15:44.78	144.76	29.39	-36.2	-37.0	22.3	0.00e+00	0	40	0	3217031168	42	4039
2026-01-02 03:15:47.77	145.45	28.99	-36.3	-37.1	22.2	0.00e+00	0	40	0	3239051264	42	4076
2026-01-02 03:15:50.76	146.13	28.58	-36.1	-37.0	22.2	0.00e+00	0	40	0	3260022784	42	4012
2026-01-02 03:15:53.75	146.79	28.18	-36.3	-37.1	22.2	0.00e+00	0	40	0	3282042880	42	4092
2026-01-02 03:15:56.75	147.44	27.78	-36.3	-37.2	22.2	0.00e+00	0	40	0	3304062976	42	4099
2026-01-02 03:15:59.74	148.07	27.38	-36.1	-37.0	22.3	0.00e+00	0	40	0	3325034496	42	4032
2026-01-02 03:16:02.73	148.68	26.99	-36.2	-37.0	22.3	0.00e+00	0	40	0	3347054592	42	4049
2026-01-02 03:16:05.72	149.28	26.60	-36.3	-37.2	22.1	0.00e+00	0	40	0	3368026112	42	4107
2026-01-02 03:16:08.72	149.87	26.20	-36.5	-37.4	21.9	0.00e+00	0	40	0	3390046208	42	4204
2026-01-02 03:16:11.71	150.44	25.82	-36.5	-37.5	21.8	0.00e+00	0	40	0	3411017728	42	4244
2026-01-02 03:16:14.70	151.00	25.43	-36.4	-37.3	22.0	0.00e+00	0	40	0	3433037824	42	4176
2026-01-02 03:16:17.69	151.54	25.05	-36.5	-37.4	21.9	0.00e+00	0	40	0	3455057920	42	4196
2026-01-02 03:16:20.68	152.07	24.67	-36.4	-37.3	22.0	0.00e+00	0	40	0	3476029440	42	4155
2026-01-02 03:16:23.69	152.60	24.29	-36.5	-37.4	21.8	0.00e+00	0	40	0	3498049536	42	4221
2026-01-02 03:16:26.68	153.11	23.92	-36.6	-37.5	21.9	0.00e+00	0	40	0	3520069632	42	4248
2026-01-02 03:16:29.67	153.60	23.55	-36.6	-37.5	21.8	0.00e+00	0	40	0	3541041152	42	4274
2026-01-02 03:16:32.65	154.08	23.18	-36.4	-37.3	22.0	0.00e+00	0	40	0	3563061248	42	4179
2026-01-02 03:16:35.64	154.56	22.82	-36.3	-37.1	22.1	0.00e+00	0	40	0	3584032768	42	4082
2026-01-02 03:16:38.64	155.02	22.45	-36.5	-37.4	21.9	0.00e+00	0	40	0	3606052864	42	4195
2026-01-02 03:16:41.64	155.48	22.10	-36.7	-37.6	21.7	0.00e+00	0	40	0	3628072960	42	4313
2026-01-02 03:16:44.63	155.92	21.74	-36.9	-37.8	21.5	0.00e+00	0	40	0	3649044480	43	4154
2026-01-02 03:16:47.63	156.36	21.39	-36.7	-37.6	21.6	0.00e+00	0	40	0	3671064576	43	4085
2026-01-02 03:16:50.61	156.78	21.04	-36.7	-37.5	21.7	0.00e+00	0	40	0	3693084672	43	4041
2026-01-02 03:16:53.61	157.20	20.70	-36.6	-37.5	21.8	0.00e+00	0	40	0	3714056192	43	4012
2026-01-02 03:16:56.61	157.60	20.35	-36.8	-37.7	21.6	0.00e+00	0	40	0	3736076288	43	4110
2026-01-02 03:16:59.60	158.00	20.02	-36.9	-37.8	21.4	0.00e+00	0	40	0	3757047808	43	4191
2026-01-02 03:17:02.59	158.39	19.68	-37.0	-38.0	21.3	0.00e+00	0	40	0	3779067904	43	4256
2026-01-02 03:17:05.58	158.77	19.35	-37.1	-38.0	21.2	0.00e+00	0	40	0	3800039424	43	4266
2026-01-02 03:17:08.57	159.14	19.02	-37.5	-38.4	21.0	0.00e+00	0	40	0	3822059520	44	4219
2026-01-02 03:17:11.56	159.51	18.70	-37.3	-38.2	21.3	0.00e+00	0	40	0	3844079616	44	4123
2026-01-02 03:17:14.56	159.87	18.37	-37.3	-38.2	21.3	0.00e+00	0	40	0	3865051136	44	4110
2026-01-02 03:17:17.55	160.22	18.05	-37.4	-38.3	21.1	0.00e+00	0	40	0	3887071232	44	4177
2026-01-02 03:17:20.55	160.56	17.74	-37.3	-38.2	21.2	0.00e+00	0	40	0	3908042752	44	4131
2026-01-02 03:17:23.54	160.90	17.42	-37.4	-38.3	21.1	0.00e+00	0	40	0	3930062848	44	4158
2026-01-02 03:17:26.53	161.23	17.12	-37.6	-38.5	20.9	0.00e+00	0	40	0	3952082944	44	4253
2026-01-02 03:17:29.53	161.56	16.81	-37.6	-38.5	20.9	0.00e+00	0	40	0	3973054464	44	4257
2026-01-02 03:17:32.52	161.87	16.50	-37.8	-38.7	20.7	0.00e+00	0	40	0	3995074560	45	4127
2026-01-02 03:17:35.52	162.19	16.20	-37.9	-38.8	20.6	0.00e+00	0	40	0	4017094656	45	4178
2026-01-02 03:17:38.51	162.49	15.90	-38.1	-39.0	20.4	0.00e+00	0	40	0	4038066176	45	4286
2026-01-02 03:17:41.50	162.79	15.61	-38.1	-39.1	20.4	0.00e+00	0	40	0	4060086272	45	4307
2026-01-02 03:17:44.49	163.08	15.32	-38.3	-39.2	20.2	0.00e+00	0	40	0	4081057792	46	4144
2026-01-02 03:17:47.48	163.37	15.03	-38.3	-39.2	20.2	0.00e+00	0	40	0	4103077888	46	4141
2026-01-02 03:17:50.48	163.66	14.74	-38.3	-39.2	20.2	0.00e+00	0	40	0	4125097984	46	4135
2026-01-02 03:17:53.47	163.93	14.46	-38.3	-39.2	20.2	0.00e+00	0	40	0	4146069504	46	4136
2026-01-02 03:17:56.47	164.21	14.18	-38.3	-39.3	20.2	0.00e+00	0	40	0	4168089600	46	4151
2026-01-02 03:17:59.47	164.48	13.90	-38.5	-39.5	20.0	0.00e+00	0	40	0	4190109696	46	4251
2026-01-02 03:18:02.46	164.74	13.62	-38.6	-39.6	19.8	0.00e+00	0	40	0	4211081216	46	4317
2026-01-02 03:18:05.46	165.00	13.35	-38.7	-39.7	19.7	0.00e+00	0	40	0	4233101312	47	4131
2026-01-02 03:18:08.45	165.25	13.08	-38.8	-39.8	19.6	0.00e+00	0	40	0	4255121408	47	4180
2026-01-02 03:18:11.44	165.50	12.81	-38.9	-39.9	19.5	0.00e+00	0	40	0	4276092928	47	4220
2026-01-02 03:18:14.42	165.75	12.54	-38.9	-40.0	19.4	0.00e+00	0	40	0	4297064448	47	4270
2026-01-02 03:18:17.42	165.99	12.28	-39.0	-40.0	19.4	0.00e+00	0	40	0	4319084544	47	4286
2026-01-02 03:18:20.42	166.23	12.02	-39.0	-40.1	19.3	0.00e+00	0	40	0	4341104640	47	4316
2026-01-02 03:18:23.40	166.46	11.76	-39.0	-40.1	19.3	0.00e+00	0	40	0	4362076160	47	4330
2026-01-02 03:18:26.39	166.69	11.50	-39.1	-40.2	19.2	0.00e+00	0	40	0	4384096256	47	4349
2026-01-02 03:18:29.38	166.92	11.25	-39.2	-40.4	19.0	0.00e+00	0	40	0	4405067776	47	4453
2026-01-02 03:18:32.38	167.14	11.00	-39.2	-40.3	19.1	0.00e+00	0	40	0	4427087872	47	4423
2026-01-02 03:18:35.37	167.36	10.75	-39.2	-40.4	18.9	0.00e+00	0	40	0	4449107968	47	4479
2026-01-02 03:18:38.36	167.57	10.50	-39.2	-40.5	18.9	0.00e+00	0	40	0	4470079488	47	4504
2026-01-02 03:18:41.35	167.78	10.25	-39.4	-40.7	18.9	0.00e+00	0	40	0	4492099584	48	4367
2026-01-02 03:18:44.34	167.99	10.01	-39.5	-40.8	18.8	0.00e+00	0	40	0	4513071104	48	4399
2026-01-02 03:18:47.33	168.20	9.77	-39.7	-41.0	18.6	0.00e+00	0	40	0	4535091200	48	4522
2026-01-02 03:18:50.33	168.40	9.53	-39.9	-41.2	18.4	0.00e+00	0	40	0	4557111296	49	4372
2026-01-02 03:18:53.32	168.60	9.29	-39.9	-41.2	18.3	0.00e+00	0	40	0	4578082816	49	4376
2026-01-02 03:18:56.32	168.79	9.06	-40.0	-41.4	18.2	0.00e+00	0	40	0	4600102912	49	4455
2026-01-02 03:18:59.32	168.98	8.82	-49.7	-60.8	3.8	8.46e-01	0	40	104	4611637248	68	13977
2026-01-02 03:19:02.31	169.17	8.59	-50.5	-61.4	3.8	8.47e-01	0	40	104	4611637248	70	13366
2026-01-02 03:19:05.30	169.36	8.36	-50.7	-61.5	3.8	8.46e-01	0	40	104	4611637248	70	13505
2026-01-02 03:19:08.29	169.54	8.14	-50.9	-61.6	3.8	8.46e-01	0	40	104	4611637248	71	12860
2026-01-02 03:19:11.29	169.73	7.91	-50.8	-61.6	3.8	8.47e-01	0	40	104	4611637248	71	12920
2026-01-02 03:19:14.29	169.91	7.68	-50.9	-61.6	3.8	8.47e-01	0	40	104	4611637248	71	12876
2026-01-02 03:19:17.28	170.08	7.46	-50.8	-61.6	3.8	8.46e-01	0	40	104	4611637248	71	12909
2026-01-02 03:19:20.27	170.25	7.24	-50.7	-61.6	3.8	8.46e-01	0	40	104	4611637248	71	12843
2026-01-02 03:19:23.27	170.43	7.02	-50.8	-61.5	3.8	8.46e-01	0	40	104	4611637248	71	12788
2026-01-02 03:19:26.27	170.60	6.80	-50.5	-61.5	3.8	8.47e-01	0	40	104	4611637248	71	12691
2026-01-02 03:19:29.26	170.76	6.59	-50.5	-61.4	3.8	8.47e-01	0	40	104	4611637248	71	12658
2026-01-02 03:19:32.24	170.93	6.38	-50.5	-61.4	3.8	8.46e-01	0	40	104	4611637248	71	12652
2026-01-02 03:19:35.24	171.09	6.16	-50.5	-61.4	3.8	8.47e-01	0	40	104	4611637248	71	12597
2026-01-02 03:19:38.24	171.25	5.95	-50.5	-61.4	3.8	8.46e-01	0	40	104	4611637248	71	12581
2026-01-02 03:19:41.23	171.40	5.74	-50.5	-61.4	3.8	8.47e-01	0	40	104	4611637248	71	12647
2026-01-02 03:19:44.23	171.56	5.53	-50.5	-61.4	3.8	8.47e-01	0	40	104	4611637248	71	12606
2026-01-02 03:19:47.22	171.71	5.33	-50.5	-61.4	3.8	8.47e-01	0	40	104	4611637248	71	12605
2026-01-02 03:19:50.21	171.86	5.12	-50.5	-61.4	3.8	8.46e-01	0	40	104	4611637248	71	12620

#Closed at: 2026-01-02 03:19:53
#Recorded file [4611 MB]: D:/Data/31040_260102_060723.dat