passes_logs/2026/01/02/T1/T1__20260102_021638_AQUA_rec.log

#Pass ID: 20260102_021638_AQUA
#Satellite: AQUA
#Configuration: AQUA
#almurnet v.1.7.20251203
#Start time: 2026-01-02 02:16:39

#Version: 2.0.20230620
#Station: T1
#Location: 37.570604 lon 55.790049 lat
#TLE: 1 27424U 02022A   25365.92641127  .00002078  00000+0  42628-3 0  9999
#TLE: 2 27424  98.4058 327.1196 0001962  94.7781 340.6230 14.61783896258835

#Time	Az	El	Level	Level2	SNR	BER	BlckErr	Temp	State	Recorded	gain1	gain2
2026-01-02 02:16:39.06	7.94	5.06	-51.3	-72.0	3.8	7.45e-01	0	41	0	0	73	40721
2026-01-02 02:16:42.07	7.77	5.27	-51.3	-72.0	3.8	7.46e-01	0	41	104	0	73	40586
2026-01-02 02:16:45.08	7.59	5.49	-51.3	-72.0	3.8	7.49e-01	0	41	104	0	73	40708
2026-01-02 02:16:48.09	7.41	5.70	-51.3	-72.0	3.8	7.48e-01	0	41	104	0	73	40720
2026-01-02 02:16:51.11	7.23	5.92	-51.3	-72.0	3.8	7.47e-01	0	41	104	0	73	40625
2026-01-02 02:16:54.12	7.04	6.14	-51.2	-72.0	3.8	7.48e-01	0	41	104	0	73	40734
2026-01-02 02:16:57.14	6.85	6.36	-51.3	-72.0	3.8	7.47e-01	0	41	104	0	73	40747
2026-01-02 02:17:00.14	6.66	6.59	-51.3	-72.0	3.8	7.43e-01	0	41	104	0	73	40619
2026-01-02 02:17:03.16	6.46	6.81	-51.3	-72.0	3.8	7.48e-01	0	42	104	0	73	40679
2026-01-02 02:17:06.17	6.26	7.04	-51.2	-72.0	3.8	7.45e-01	0	42	104	0	73	40630
2026-01-02 02:17:09.27	6.05	7.27	-51.3	-72.0	3.8	7.47e-01	0	42	104	0	73	40675
2026-01-02 02:17:12.82	5.81	7.55	-51.3	-72.0	3.8	7.47e-01	0	42	104	0	73	40714
2026-01-02 02:17:15.60	5.61	7.76	-51.3	-72.0	3.8	7.45e-01	0	42	104	0	73	40781
2026-01-02 02:17:18.90	5.37	8.02	-51.3	-72.0	3.8	7.45e-01	0	42	104	0	73	40692
2026-01-02 02:17:21.62	5.17	8.24	-51.3	-72.0	3.8	7.47e-01	0	42	104	0	73	40719
2026-01-02 02:17:24.92	4.93	8.50	-51.3	-72.0	3.8	7.46e-01	0	42	104	0	73	40695
2026-01-02 02:17:27.65	4.72	8.72	-51.3	-72.0	3.8	7.44e-01	0	42	104	0	73	40682
2026-01-02 02:17:30.95	4.47	8.99	-51.3	-72.0	3.8	7.49e-01	0	42	104	0	73	40710
2026-01-02 02:17:33.67	4.25	9.21	-51.3	-72.0	3.8	7.46e-01	0	43	104	0	73	40710
2026-01-02 02:17:36.97	3.99	9.48	-51.3	-72.0	3.8	7.46e-01	0	43	104	0	73	40680
2026-01-02 02:17:39.70	3.76	9.71	-51.3	-72.0	3.8	7.47e-01	0	43	104	0	73	40717
2026-01-02 02:17:43.00	3.49	9.98	-51.3	-72.0	3.8	7.45e-01	0	43	104	0	73	40748
2026-01-02 02:17:45.72	3.26	10.22	-51.3	-72.0	3.8	7.45e-01	0	43	104	0	73	40680
2026-01-02 02:17:49.02	2.97	10.50	-51.3	-72.0	3.8	7.46e-01	0	43	104	0	73	40764
2026-01-02 02:17:51.75	2.73	10.73	-51.3	-72.0	3.8	7.47e-01	0	43	104	0	73	40707
2026-01-02 02:17:55.05	2.43	11.02	-51.3	-72.0	3.8	7.47e-01	0	43	104	0	73	40670
2026-01-02 02:17:57.78	2.18	11.26	-51.3	-72.0	3.8	7.43e-01	0	43	104	0	73	40699
2026-01-02 02:18:01.08	1.87	11.56	-51.3	-72.0	3.8	7.47e-01	0	43	104	0	73	40778
2026-01-02 02:18:03.80	1.60	11.80	-51.3	-72.0	3.8	7.49e-01	0	43	104	0	73	40724
2026-01-02 02:18:07.10	1.28	12.10	-51.3	-72.0	3.8	7.47e-01	0	43	104	0	73	40698
2026-01-02 02:18:09.83	1.01	12.35	-51.3	-72.0	3.8	7.44e-01	0	43	104	0	73	40731
2026-01-02 02:18:13.13	0.67	12.66	-51.3	-72.0	3.8	7.46e-01	0	43	104	0	73	40685
2026-01-02 02:18:15.85	0.38	12.91	-51.3	-72.0	3.8	7.45e-01	0	43	104	0	73	40613
2026-01-02 02:18:19.15	0.03	13.22	-51.3	-72.0	3.8	7.44e-01	0	43	104	0	73	40634
2026-01-02 02:18:21.88	359.73	13.48	-51.2	-72.0	3.8	7.46e-01	0	43	104	0	73	40714
2026-01-02 02:18:25.18	359.37	13.80	-51.3	-72.0	3.8	7.46e-01	0	43	104	0	73	40675
2026-01-02 02:18:28.28	359.01	14.10	-51.3	-72.0	3.8	7.48e-01	0	43	104	0	73	40687
2026-01-02 02:18:32.04	358.57	14.47	-51.3	-72.0	3.8	7.46e-01	0	43	104	0	73	40718
2026-01-02 02:18:34.77	358.24	14.75	-51.3	-72.0	3.8	7.47e-01	0	43	104	0	73	40686
2026-01-02 02:18:38.51	357.79	15.12	-51.3	-72.0	3.8	7.48e-01	0	43	104	0	73	40716
2026-01-02 02:18:41.24	357.44	15.40	-51.3	-72.0	3.8	7.44e-01	0	43	104	0	73	40731
2026-01-02 02:18:45.01	356.96	15.79	-51.3	-72.0	3.8	7.46e-01	0	43	104	0	73	40691
2026-01-02 02:18:47.75	356.59	16.07	-51.3	-72.0	3.8	7.44e-01	0	43	104	0	73	40767
2026-01-02 02:18:51.48	356.09	16.46	-51.3	-72.0	3.8	7.47e-01	0	43	104	0	73	40696
2026-01-02 02:18:54.22	355.71	16.75	-51.3	-72.0	3.8	7.49e-01	0	43	104	0	73	40769
2026-01-02 02:18:58.24	355.14	17.19	-51.3	-72.0	3.8	7.44e-01	0	43	104	0	73	40733
2026-01-02 02:19:00.98	354.74	17.48	-51.3	-72.0	3.8	7.49e-01	0	43	104	0	73	40729
2026-01-02 02:19:04.71	354.18	17.89	-51.3	-72.0	3.8	7.45e-01	0	44	104	0	73	40686
2026-01-02 02:19:07.47	353.75	18.20	-51.3	-72.0	3.8	7.47e-01	0	43	104	0	73	40656
2026-01-02 02:19:11.22	353.16	18.62	-51.3	-72.0	3.8	7.44e-01	0	43	104	0	73	40777
2026-01-02 02:19:13.96	352.72	18.93	-51.3	-72.0	3.8	7.44e-01	0	43	104	0	73	40805
2026-01-02 02:19:17.72	352.09	19.35	-51.3	-72.0	3.8	7.47e-01	0	43	104	0	73	40757
2026-01-02 02:19:20.60	351.60	19.69	-51.3	-72.0	3.8	7.48e-01	0	43	104	0	73	40801
2026-01-02 02:19:24.35	350.94	20.12	-51.3	-72.0	3.8	7.45e-01	0	43	104	0	73	40714
2026-01-02 02:19:27.09	350.45	20.44	-51.3	-72.0	3.8	7.48e-01	0	43	104	0	73	40764
2026-01-02 02:19:30.84	349.75	20.88	-51.3	-72.0	3.8	7.47e-01	0	44	104	0	73	40796
2026-01-02 02:19:33.59	349.23	21.21	-51.3	-72.0	3.8	7.46e-01	0	44	104	0	73	40767
2026-01-02 02:19:37.33	348.50	21.66	-51.3	-72.0	3.8	7.43e-01	0	43	104	0	73	40762
2026-01-02 02:19:40.08	347.95	21.99	-51.3	-72.0	3.8	7.43e-01	0	44	104	0	73	40729
2026-01-02 02:19:43.96	347.15	22.47	-51.3	-72.0	3.8	7.46e-01	0	44	104	0	73	40735
2026-01-02 02:19:46.71	346.57	22.80	-51.3	-72.0	3.8	7.43e-01	0	43	104	0	73	40840
2026-01-02 02:19:50.45	345.75	23.27	-51.3	-72.0	3.8	7.49e-01	0	44	104	0	73	40696
2026-01-02 02:19:53.19	345.14	23.61	-51.3	-72.0	3.8	7.46e-01	0	44	104	0	73	40711
2026-01-02 02:19:56.96	344.27	24.08	-51.3	-72.0	3.8	7.45e-01	0	44	104	0	73	40758
2026-01-02 02:19:59.71	343.62	24.42	-51.3	-72.0	3.8	7.47e-01	0	44	104	0	73	40673
2026-01-02 02:20:03.46	342.71	24.89	-51.3	-72.0	3.8	7.49e-01	0	44	104	0	73	40747
2026-01-02 02:20:06.19	342.03	25.23	-51.3	-72.0	3.8	7.47e-01	0	43	104	0	73	40708
2026-01-02 02:20:09.95	341.06	25.71	-51.3	-72.0	3.8	7.47e-01	0	44	104	0	73	40787
2026-01-02 02:20:12.74	340.32	26.06	-51.3	-72.0	3.8	7.46e-01	0	44	104	0	73	40733
2026-01-02 02:20:16.34	339.35	26.51	-51.3	-72.0	3.8	7.45e-01	0	44	104	0	73	40756
2026-01-02 02:20:19.21	338.55	26.87	-51.3	-72.0	3.8	7.44e-01	0	44	104	0	73	40776
2026-01-02 02:20:22.37	337.65	27.27	-51.3	-72.0	3.8	7.44e-01	0	44	104	0	73	40868
2026-01-02 02:20:25.23	336.81	27.63	-51.3	-72.0	3.8	7.46e-01	0	44	104	0	73	40731
2026-01-02 02:20:28.39	335.86	28.02	-51.3	-72.0	3.8	7.43e-01	0	43	104	0	73	40760
2026-01-02 02:20:31.26	334.98	28.37	-51.3	-72.0	3.8	7.44e-01	0	44	104	0	73	40841
2026-01-02 02:20:34.51	333.96	28.77	-51.3	-72.0	3.8	7.44e-01	0	43	104	0	73	40662
2026-01-02 02:20:37.46	333.00	29.13	-51.2	-71.9	3.8	7.47e-01	0	44	104	0	73	40388
2026-01-02 02:20:40.76	331.91	29.52	-51.2	-71.9	3.8	7.45e-01	0	43	104	0	73	40494
2026-01-02 02:20:43.63	330.94	29.86	-51.2	-72.0	3.8	7.46e-01	0	43	104	0	73	40529
2026-01-02 02:20:47.03	329.76	30.26	-51.2	-71.9	3.8	7.45e-01	0	44	104	0	73	40508
2026-01-02 02:20:49.75	328.80	30.57	-51.2	-72.0	3.8	7.46e-01	0	44	104	0	73	40568
2026-01-02 02:20:53.06	327.59	30.94	-51.2	-72.0	3.8	7.47e-01	0	44	104	0	73	40549
2026-01-02 02:20:55.78	326.59	31.24	-51.2	-72.0	3.8	7.46e-01	0	44	104	0	73	40558
2026-01-02 02:20:59.08	325.34	31.59	-51.2	-72.0	3.8	7.46e-01	0	44	104	0	73	40532
2026-01-02 02:21:01.81	324.28	31.87	-51.2	-72.0	3.8	7.50e-01	0	44	104	0	73	40555
2026-01-02 02:21:05.11	322.98	32.20	-51.2	-72.0	3.8	7.49e-01	0	44	104	0	73	40552
2026-01-02 02:21:07.83	321.89	32.47	-51.2	-72.0	3.8	7.46e-01	0	43	104	0	73	40534
2026-01-02 02:21:11.13	320.54	32.77	-51.2	-71.9	3.8	7.49e-01	0	44	104	0	73	40501
2026-01-02 02:21:13.86	319.40	33.02	-51.2	-72.0	3.8	7.42e-01	0	43	104	0	73	40569
2026-01-02 02:21:17.16	318.00	33.30	-51.2	-71.9	3.8	7.44e-01	0	44	104	0	73	40376
2026-01-02 02:21:19.88	316.83	33.51	-51.2	-72.0	3.8	7.45e-01	0	44	104	0	73	40529
2026-01-02 02:21:23.18	315.39	33.76	-51.2	-71.9	3.8	7.46e-01	0	44	104	0	73	40487
2026-01-02 02:21:26.18	314.07	33.97	-51.2	-72.0	3.8	7.45e-01	0	44	104	0	73	40512
2026-01-02 02:21:29.19	312.71	34.17	-51.2	-71.9	3.8	7.48e-01	0	44	104	0	73	40391
2026-01-02 02:21:32.20	311.35	34.34	-51.2	-72.0	3.8	7.45e-01	0	44	104	0	73	40571
2026-01-02 02:21:35.22	309.96	34.50	-51.3	-72.0	3.8	7.48e-01	0	44	104	0	73	40543
2026-01-02 02:21:38.23	308.57	34.65	-51.2	-71.9	3.8	7.48e-01	0	44	104	0	73	40504
2026-01-02 02:21:41.24	307.16	34.77	-51.2	-72.0	3.8	7.45e-01	0	43	104	0	73	40565
2026-01-02 02:21:44.26	305.74	34.88	-51.3	-72.0	3.8	7.44e-01	0	44	104	0	73	40553
2026-01-02 02:21:47.27	304.31	34.96	-51.3	-71.9	3.8	7.45e-01	0	44	104	0	73	40511
2026-01-02 02:21:50.38	302.83	35.03	-51.3	-72.0	3.8	7.44e-01	0	44	104	0	73	40557
2026-01-02 02:21:53.34	301.42	35.08	-51.3	-71.9	3.8	7.43e-01	0	44	104	0	73	40502
2026-01-02 02:21:56.88	299.72	35.10	-51.3	-72.0	3.8	7.44e-01	0	43	104	0	73	40559
2026-01-02 02:21:59.60	298.42	35.11	-51.2	-72.0	3.8	7.43e-01	0	44	104	0	73	40544
2026-01-02 02:22:02.90	296.83	35.09	-51.3	-72.0	3.8	7.43e-01	0	44	104	0	73	40554
2026-01-02 02:22:05.63	295.53	35.05	-51.3	-71.9	3.8	7.44e-01	0	44	104	0	73	40482
2026-01-02 02:22:08.93	293.95	34.99	-51.3	-72.0	3.8	7.44e-01	0	44	104	0	73	40543
2026-01-02 02:22:11.65	292.66	34.92	-51.3	-72.0	3.8	7.47e-01	0	44	104	0	73	40551
2026-01-02 02:22:14.95	291.10	34.82	-51.3	-72.0	3.8	7.49e-01	0	44	104	0	73	40550
2026-01-02 02:22:17.68	289.82	34.71	-51.2	-71.9	3.8	7.44e-01	0	44	104	0	73	40510
2026-01-02 02:22:20.98	288.28	34.56	-51.3	-71.9	3.8	7.46e-01	0	44	104	0	73	40499
2026-01-02 02:22:23.71	287.02	34.42	-51.3	-72.0	3.8	7.47e-01	0	44	104	0	73	40562
2026-01-02 02:22:27.01	285.51	34.24	-51.2	-72.0	3.8	7.40e-01	0	44	104	0	73	40602
2026-01-02 02:22:29.73	284.28	34.07	-51.3	-72.0	3.8	7.46e-01	0	44	104	0	73	40567
2026-01-02 02:22:33.03	282.81	33.84	-51.3	-71.9	3.8	7.46e-01	0	44	104	0	73	40489
2026-01-02 02:22:35.76	281.61	33.65	-51.2	-71.9	3.8	7.45e-01	0	44	104	0	73	40502
2026-01-02 02:22:39.06	280.17	33.39	-51.2	-71.9	3.8	7.49e-01	0	44	104	0	73	40406
2026-01-02 02:22:41.78	279.01	33.16	-51.3	-71.9	3.8	7.46e-01	0	44	104	0	73	40473
2026-01-02 02:22:45.08	277.62	32.88	-51.3	-71.9	3.8	7.43e-01	0	44	104	0	73	40417
2026-01-02 02:22:47.81	276.49	32.63	-51.3	-72.0	3.8	7.49e-01	0	44	104	0	73	40539
2026-01-02 02:22:51.11	275.15	32.31	-51.2	-72.0	3.8	7.50e-01	0	44	104	0	73	40533
2026-01-02 02:22:53.84	274.06	32.04	-51.3	-72.0	3.8	7.45e-01	0	44	104	0	73	40526
2026-01-02 02:22:57.14	272.77	31.70	-51.2	-72.0	3.8	7.49e-01	0	44	104	0	73	40533
2026-01-02 02:22:59.86	271.73	31.42	-51.2	-72.0	3.8	7.45e-01	0	44	104	0	73	40662
2026-01-02 02:23:03.16	270.49	31.06	-51.2	-72.0	3.8	7.47e-01	0	44	104	0	73	40513
2026-01-02 02:23:06.28	269.34	30.71	-51.3	-71.9	3.8	7.44e-01	0	44	104	0	73	40455
2026-01-02 02:23:09.38	268.23	30.36	-51.2	-71.9	3.8	7.45e-01	0	44	104	0	73	40492
2026-01-02 02:23:12.77	267.04	29.96	-51.3	-71.9	3.8	7.48e-01	0	44	104	0	73	40484
2026-01-02 02:23:15.50	266.10	29.64	-51.2	-71.9	3.8	7.46e-01	0	44	104	0	73	40497
2026-01-02 02:23:18.80	265.00	29.25	-51.2	-71.9	3.8	7.46e-01	0	44	104	0	73	40510
2026-01-02 02:23:21.53	264.10	28.92	-51.3	-71.9	3.8	7.47e-01	0	44	104	0	73	40491
2026-01-02 02:23:24.89	263.03	28.50	-51.3	-72.0	3.8	7.47e-01	0	44	104	0	73	40551
2026-01-02 02:23:27.62	262.18	28.17	-51.2	-71.9	3.8	7.51e-01	0	44	104	0	73	40503
2026-01-02 02:23:30.92	261.17	27.76	-51.2	-71.9	3.8	7.49e-01	0	44	104	0	73	40450
2026-01-02 02:23:33.64	260.37	27.42	-51.2	-72.0	3.8	7.45e-01	0	44	104	0	73	40537
2026-01-02 02:23:36.94	259.41	27.00	-51.3	-71.9	3.8	7.45e-01	0	44	104	0	73	40435
2026-01-02 02:23:39.67	258.64	26.66	-51.2	-71.9	3.8	7.45e-01	0	44	104	0	73	40401
2026-01-02 02:23:42.97	257.73	26.24	-51.3	-71.9	3.8	7.45e-01	0	44	104	0	73	40495
2026-01-02 02:23:45.69	257.00	25.89	-51.2	-71.9	3.8	7.45e-01	0	44	104	0	73	40481
2026-01-02 02:23:48.99	256.13	25.48	-51.3	-71.9	3.8	7.46e-01	0	44	104	0	73	40503
2026-01-02 02:23:51.72	255.43	25.13	-51.2	-71.9	3.8	7.43e-01	0	44	104	0	73	40493
2026-01-02 02:23:55.02	254.61	24.71	-51.3	-71.9	3.8	7.47e-01	0	44	104	0	73	40461
2026-01-02 02:23:57.75	253.95	24.37	-51.2	-71.9	3.8	7.46e-01	0	44	104	0	73	40474
2026-01-02 02:24:01.04	253.17	23.96	-51.2	-71.9	3.8	7.48e-01	0	44	104	0	73	40436
2026-01-02 02:24:03.77	252.54	23.61	-51.3	-71.9	3.8	7.49e-01	0	44	104	0	73	40467
2026-01-02 02:24:07.07	251.79	23.20	-51.3	-71.9	3.8	7.44e-01	0	44	104	0	73	40461
2026-01-02 02:24:09.80	251.19	22.86	-51.2	-72.0	3.8	7.42e-01	0	44	104	0	73	40523
2026-01-02 02:24:13.09	250.49	22.46	-51.2	-72.0	3.8	7.47e-01	0	44	104	0	73	40548
2026-01-02 02:24:15.82	249.92	22.12	-51.2	-71.9	3.8	7.46e-01	0	44	104	0	73	40472
2026-01-02 02:24:19.12	249.24	21.72	-51.2	-72.0	3.8	7.45e-01	0	44	104	0	73	40551
2026-01-02 02:24:21.85	248.70	21.39	-51.2	-72.0	3.8	7.44e-01	0	44	104	0	73	40520
2026-01-02 02:24:25.15	248.06	20.99	-51.3	-71.9	3.8	7.52e-01	0	44	104	0	73	40501
2026-01-02 02:24:27.87	247.55	20.67	-51.2	-71.9	3.8	7.48e-01	0	44	104	0	73	40427
2026-01-02 02:24:31.17	246.94	20.28	-51.3	-71.9	3.8	7.44e-01	0	44	104	0	73	40480
2026-01-02 02:24:33.90	246.45	19.96	-51.3	-72.0	3.8	7.46e-01	0	44	104	0	73	40540
2026-01-02 02:24:37.20	245.87	19.57	-51.3	-71.9	3.8	7.47e-01	0	44	104	0	73	40478
2026-01-02 02:24:39.93	245.40	19.26	-51.3	-71.9	3.8	7.48e-01	0	44	104	0	73	40506
2026-01-02 02:24:43.23	244.85	18.88	-51.3	-71.9	3.8	7.42e-01	0	44	104	0	73	40470
2026-01-02 02:24:45.95	244.41	18.57	-51.3	-71.9	3.8	7.46e-01	0	44	104	0	73	40490
2026-01-02 02:24:49.19	243.89	18.21	-51.3	-72.0	3.8	7.46e-01	0	44	104	0	73	40528
2026-01-02 02:24:52.06	243.44	17.89	-51.2	-71.9	3.8	7.46e-01	0	44	104	0	73	40406
2026-01-02 02:24:55.22	242.96	17.54	-51.2	-71.9	3.8	7.47e-01	0	44	104	0	73	40499
2026-01-02 02:24:58.09	242.54	17.22	-51.2	-71.9	3.8	7.48e-01	0	44	104	0	73	40434
2026-01-02 02:25:01.24	242.08	16.88	-51.2	-71.9	3.8	7.43e-01	0	44	104	0	73	40507
2026-01-02 02:25:04.11	241.67	16.57	-51.3	-71.9	3.8	7.46e-01	0	44	104	0	73	40484
2026-01-02 02:25:07.27	241.23	16.24	-51.3	-71.9	3.8	7.48e-01	0	44	104	0	73	40503
2026-01-02 02:25:10.14	240.85	15.94	-51.3	-72.0	3.8	7.48e-01	0	44	104	0	73	40571
2026-01-02 02:25:13.30	240.43	15.61	-51.2	-71.9	3.8	7.48e-01	0	44	104	0	73	40432
2026-01-02 02:25:16.31	240.04	15.30	-51.2	-71.9	3.8	7.44e-01	0	44	104	0	73	40491
2026-01-02 02:25:19.70	239.61	14.95	-51.2	-71.9	3.8	7.47e-01	0	44	104	0	73	40507
2026-01-02 02:25:22.64	239.25	14.66	-51.2	-72.0	3.8	7.45e-01	0	44	104	0	73	40535
2026-01-02 02:25:25.94	238.85	14.33	-51.2	-71.9	3.8	7.49e-01	0	44	104	0	73	40448
2026-01-02 02:25:28.66	238.53	14.06	-51.2	-71.9	3.8	7.46e-01	0	44	104	0	73	40511
2026-01-02 02:25:31.96	238.15	13.73	-51.3	-71.9	3.8	7.46e-01	0	44	104	0	73	40471
2026-01-02 02:25:34.69	237.84	13.47	-51.2	-72.0	3.8	7.47e-01	0	44	104	0	73	40571
2026-01-02 02:25:37.99	237.48	13.15	-51.3	-72.0	3.8	7.50e-01	0	44	104	0	73	40540
2026-01-02 02:25:40.72	237.18	12.89	-51.3	-71.9	3.8	7.48e-01	0	44	104	0	73	40505
2026-01-02 02:25:44.02	236.83	12.58	-51.2	-72.0	3.8	7.47e-01	0	44	104	0	73	40513
2026-01-02 02:25:46.74	236.55	12.33	-51.2	-72.0	3.8	7.46e-01	0	44	104	0	73	40536
2026-01-02 02:25:50.04	236.21	12.03	-51.2	-71.9	3.8	7.49e-01	0	44	104	0	73	40505
2026-01-02 02:25:52.77	235.94	11.78	-51.3	-72.0	3.8	7.43e-01	0	44	104	0	73	40563
2026-01-02 02:25:56.07	235.62	11.48	-51.2	-72.0	3.8	7.47e-01	0	44	104	0	73	40561
2026-01-02 02:25:58.79	235.36	11.23	-51.2	-72.0	3.8	7.44e-01	0	44	104	0	73	40545
2026-01-02 02:26:02.09	235.05	10.94	-51.2	-72.0	3.8	7.47e-01	0	44	104	0	73	40538
2026-01-02 02:26:04.82	234.80	10.70	-51.2	-71.9	3.8	7.45e-01	0	44	104	0	73	40463
2026-01-02 02:26:08.12	234.50	10.42	-51.2	-72.0	3.8	7.46e-01	0	44	104	0	73	40543
2026-01-02 02:26:10.84	234.26	10.18	-51.2	-71.9	3.8	7.46e-01	0	44	104	0	73	40510
2026-01-02 02:26:14.14	233.98	9.90	-51.2	-72.0	3.8	7.48e-01	0	44	104	0	73	40560
2026-01-02 02:26:16.87	233.75	9.67	-51.2	-71.9	3.8	7.46e-01	0	44	104	0	73	40459
2026-01-02 02:26:20.17	233.47	9.39	-51.2	-72.0	3.8	7.45e-01	0	44	104	0	73	40528
2026-01-02 02:26:22.89	233.25	9.17	-51.2	-71.9	3.8	7.48e-01	0	44	104	0	73	40492
2026-01-02 02:26:26.19	232.99	8.90	-51.2	-71.9	3.8	7.45e-01	0	44	104	0	73	40497
2026-01-02 02:26:28.92	232.77	8.67	-51.2	-71.9	3.8	7.44e-01	0	44	104	0	73	40424
2026-01-02 02:26:32.22	232.52	8.41	-51.2	-72.0	3.8	7.47e-01	0	44	104	0	73	40531
2026-01-02 02:26:34.95	232.31	8.19	-51.2	-71.9	3.8	7.47e-01	0	44	104	0	73	40441
2026-01-02 02:26:38.24	232.07	7.93	-51.2	-71.9	3.8	7.49e-01	0	44	104	0	73	40511
2026-01-02 02:26:40.97	231.87	7.71	-51.2	-71.9	3.8	7.45e-01	0	44	104	0	73	40463
2026-01-02 02:26:44.27	231.63	7.46	-51.2	-71.9	3.8	7.48e-01	0	44	104	0	73	40511
2026-01-02 02:26:47.00	231.44	7.25	-51.2	-71.9	3.8	7.46e-01	0	44	104	0	73	40467
2026-01-02 02:26:50.30	231.21	6.99	-51.2	-71.9	3.8	7.46e-01	0	44	104	0	73	40448
2026-01-02 02:26:53.12	231.02	6.78	-51.2	-72.0	3.8	7.46e-01	0	44	104	0	73	40540
2026-01-02 02:26:56.38	230.80	6.53	-51.2	-71.9	3.8	7.45e-01	0	44	104	0	73	40459
2026-01-02 02:26:59.66	230.59	6.29	-51.1	-71.9	3.8	7.46e-01	0	44	104	0	73	40422
2026-01-02 02:27:02.53	230.40	6.08	-51.2	-71.9	3.8	7.46e-01	0	44	104	0	73	40506
2026-01-02 02:27:05.69	230.20	5.85	-51.2	-72.0	3.8	7.47e-01	0	44	104	0	73	40569
2026-01-02 02:27:08.56	230.02	5.64	-51.2	-71.9	3.8	7.46e-01	0	44	104	0	73	40451
2026-01-02 02:27:11.74	229.83	5.41	-51.2	-72.0	3.8	7.47e-01	0	44	104	0	73	40512
2026-01-02 02:27:14.61	229.66	5.20	-51.3	-71.9	3.8	7.47e-01	0	44	104	0	73	40467
2026-01-02 02:27:17.77	229.47	4.98	-51.2	-71.9	3.8	7.48e-01	0	44	104	0	73	40437

#Closed at: 2026-01-02 02:27:18
#Recorded file [0 MB]: D:/Data/31040_260102_051639.dat