passes_logs/2026/01/02/T1/T1__20260102_115009_AQUA_rec.log

#Pass ID: 20260102_115009_AQUA
#Satellite: AQUA
#Configuration: AQUA
#almurnet v.1.7.20251203
#Start time: 2026-01-02 11:50:10

#Version: 2.0.20230620
#Station: T1
#Location: 37.570604 lon 55.790049 lat
#TLE: 1 27424U 02022A   25365.92641127  .00002078  00000+0  42628-3 0  9999
#TLE: 2 27424  98.4058 327.1196 0001962  94.7781 340.6230 14.61783896258835

#Time	Az	El	Level	Level2	SNR	BER	BlckErr	Temp	State	Recorded	gain1	gain2
2026-01-02 11:50:10.55	167.27	5.05	-50.7	-71.4	3.8	7.45e-01	0	37	0	0	72	40300
2026-01-02 11:50:13.56	167.31	5.28	-46.3	-68.0	3.9	7.45e-01	0	38	104	0	64	43077
2026-01-02 11:50:16.57	167.36	5.51	-46.5	-68.7	3.9	7.44e-01	0	38	104	0	64	46779
2026-01-02 11:50:19.58	167.40	5.74	-46.4	-70.4	3.8	7.46e-01	0	38	104	0	64	56600
2026-01-02 11:50:22.60	167.45	5.97	-46.6	-70.1	3.8	7.48e-01	0	38	104	0	64	54813
2026-01-02 11:50:25.61	167.49	6.21	-46.5	-66.6	4.5	7.23e-01	0	38	104	0	64	36651
2026-01-02 11:50:28.62	167.54	6.45	-46.3	-64.4	5.6	6.96e-01	0	38	0	524288	64	28552
2026-01-02 11:50:31.63	167.58	6.69	-46.3	-64.2	5.7	6.90e-01	0	39	0	2621440	64	27958
2026-01-02 11:50:34.65	167.63	6.94	-46.3	-64.5	5.5	6.98e-01	0	38	0	5242880	64	28892
2026-01-02 11:50:37.66	167.68	7.18	-46.3	-63.5	6.2	6.82e-01	0	39	0	8912896	64	25727
2026-01-02 11:50:40.67	167.73	7.43	-46.1	-60.0	9.5	6.27e-01	0	39	0	14680064	64	17220
2026-01-02 11:50:43.69	167.78	7.69	-45.8	-56.1	13.7	6.09e-01	0	39	0	20447232	63	11656
2026-01-02 11:50:46.70	167.83	7.94	-45.4	-53.5	16.3	6.06e-01	0	39	0	26214400	62	9169
2026-01-02 11:50:49.71	167.88	8.20	-45.1	-52.1	17.8	6.07e-01	0	39	0	31457280	62	7773
2026-01-02 11:50:52.73	167.93	8.46	-45.4	-53.8	16.2	6.09e-01	0	39	0	37224448	62	9389
2026-01-02 11:50:55.74	167.98	8.72	-46.0	-57.9	11.9	6.15e-01	0	39	0	42991616	62	15065
2026-01-02 11:50:58.75	168.04	8.99	-46.5	-67.2	3.9	7.36e-01	0	39	104	47185920	63	41932
2026-01-02 11:51:01.76	168.09	9.26	-47.2	-62.5	6.6	6.62e-01	0	39	104	48758784	65	21736
2026-01-02 11:51:04.77	168.15	9.54	-45.4	-52.8	16.2	6.09e-01	0	39	0	51380224	62	8460
2026-01-02 11:51:07.77	168.20	9.81	-44.1	-49.9	19.9	6.09e-01	0	39	0	57147392	60	6794
2026-01-02 11:51:10.79	168.26	10.09	-43.9	-49.4	20.6	6.06e-01	0	39	0	62914560	59	6785
2026-01-02 11:51:13.79	168.32	10.38	-43.9	-49.3	20.7	6.07e-01	0	39	0	68157440	59	6687
2026-01-02 11:51:16.80	168.38	10.67	-43.8	-49.1	20.9	6.07e-01	0	39	0	73924608	59	6557
2026-01-02 11:51:19.81	168.44	10.96	-43.5	-47.9	22.1	6.08e-01	0	40	0	79691776	58	6023
2026-01-02 11:51:22.82	168.50	11.25	-43.7	-47.3	22.8	6.06e-01	0	40	0	85458944	58	5636
2026-01-02 11:51:25.83	168.56	11.55	-44.3	-48.0	22.3	6.08e-01	0	40	0	90701824	59	5777
2026-01-02 11:51:28.84	168.63	11.86	-44.5	-48.0	22.1	6.06e-01	0	40	0	96468992	59	5731
2026-01-02 11:51:31.84	168.69	12.16	-44.1	-47.3	22.7	6.07e-01	0	40	0	102236160	59	5307
2026-01-02 11:51:34.85	168.76	12.48	-44.0	-47.2	19.8	6.08e-01	0	39	0	108003328	59	5257
2026-01-02 11:51:37.86	168.83	12.79	-43.9	-47.2	23.1	6.07e-01	0	40	0	113770496	59	5227
2026-01-02 11:51:40.87	168.90	13.11	-43.4	-46.4	23.6	6.09e-01	0	40	0	119013376	58	5099
2026-01-02 11:51:43.88	168.97	13.44	-43.3	-46.4	23.7	6.08e-01	0	40	0	124780544	58	5070
2026-01-02 11:51:46.89	169.04	13.77	-43.3	-46.3	23.8	6.07e-01	0	40	0	130547712	58	5032
2026-01-02 11:51:49.90	169.11	14.11	-43.1	-46.0	24.1	6.07e-01	0	40	0	136314880	58	4849
2026-01-02 11:51:52.92	169.19	14.45	-43.1	-45.9	24.2	6.07e-01	0	40	0	141557760	58	4804
2026-01-02 11:51:55.93	169.27	14.80	-43.1	-45.9	24.2	6.03e-01	0	40	0	147324928	58	4762
2026-01-02 11:51:58.93	169.34	15.15	-43.1	-45.9	24.2	6.07e-01	0	40	0	153092096	58	4791
2026-01-02 11:52:01.94	169.42	15.51	-43.2	-46.0	24.2	6.07e-01	0	40	0	158859264	58	4825
2026-01-02 11:52:04.95	169.51	15.87	-43.2	-45.9	24.3	6.08e-01	0	40	0	164102144	58	4774
2026-01-02 11:52:07.96	169.59	16.24	-43.3	-46.0	24.2	6.05e-01	0	40	0	169869312	58	4823
2026-01-02 11:52:10.97	169.68	16.62	-43.4	-46.0	24.2	6.05e-01	0	40	0	175636480	58	4844
2026-01-02 11:52:13.98	169.77	17.00	-43.2	-45.8	24.4	6.07e-01	0	40	0	181403648	58	4726
2026-01-02 11:52:16.99	169.86	17.39	-43.2	-45.8	24.3	6.07e-01	0	40	0	186646528	58	4755
2026-01-02 11:52:20.00	169.95	17.78	-43.1	-45.7	24.4	6.10e-01	0	40	0	192413696	58	4705
2026-01-02 11:52:23.01	170.05	18.19	-43.2	-45.9	24.3	6.07e-01	0	40	0	198180864	58	4772
2026-01-02 11:52:26.02	170.14	18.60	-43.2	-45.9	24.4	6.06e-01	0	40	0	203948032	58	4762
2026-01-02 11:52:29.03	170.24	19.02	-43.3	-45.9	24.3	6.06e-01	0	40	0	209190912	58	4809
2026-01-02 11:52:32.04	170.35	19.44	-43.3	-46.0	24.2	6.07e-01	0	40	0	214958080	58	4852
2026-01-02 11:52:35.05	170.45	19.88	-43.2	-45.9	24.3	6.07e-01	0	40	0	220725248	58	4796
2026-01-02 11:52:38.05	170.56	20.32	-43.3	-45.9	24.3	6.05e-01	0	40	0	226492416	58	4802
2026-01-02 11:52:41.06	170.67	20.77	-43.3	-45.9	24.2	6.06e-01	0	40	0	232259584	58	4814
2026-01-02 11:52:44.06	170.79	21.23	-43.5	-46.2	24.0	6.07e-01	0	40	0	237502464	58	4975
2026-01-02 11:52:47.07	170.91	21.70	-43.7	-46.4	23.9	6.07e-01	0	40	0	243269632	58	5064
2026-01-02 11:52:50.08	171.03	22.17	-43.7	-46.4	24.0	6.06e-01	0	40	0	249036800	58	5053
2026-01-02 11:52:53.08	171.15	22.66	-43.6	-46.3	24.0	6.07e-01	0	40	0	254279680	58	4993
2026-01-02 11:52:56.09	171.28	23.16	-43.6	-46.2	24.1	6.08e-01	0	40	0	260046848	58	4974
2026-01-02 11:52:59.10	171.42	23.67	-43.6	-46.3	24.0	6.05e-01	0	40	0	265814016	58	5010
2026-01-02 11:53:02.11	171.56	24.19	-43.6	-46.3	24.0	6.08e-01	0	40	0	271581184	58	5032
2026-01-02 11:53:05.11	171.70	24.72	-43.6	-46.4	23.9	6.08e-01	0	40	0	277348352	58	5064
2026-01-02 11:53:08.13	171.85	25.27	-43.8	-46.5	23.9	6.06e-01	0	40	0	282591232	58	5123
2026-01-02 11:53:11.14	172.00	25.82	-43.6	-46.3	24.1	6.05e-01	0	40	0	288358400	58	4989
2026-01-02 11:53:14.14	172.16	26.39	-43.6	-46.2	24.1	6.08e-01	0	40	0	294125568	58	4954
2026-01-02 11:53:17.15	172.32	26.97	-43.5	-46.1	24.3	6.06e-01	0	40	0	299892736	58	4885
2026-01-02 11:53:20.16	172.49	27.57	-43.2	-45.6	24.7	6.08e-01	0	40	0	305135616	58	4644
2026-01-02 11:53:23.17	172.67	28.17	-43.2	-45.6	24.7	6.07e-01	0	40	0	310902784	58	4633
2026-01-02 11:53:26.17	172.85	28.80	-43.1	-45.5	24.8	6.06e-01	0	40	0	316669952	58	4597
2026-01-02 11:53:29.19	173.04	29.44	-43.1	-45.6	24.7	6.06e-01	0	40	0	322437120	58	4610
2026-01-02 11:53:32.19	173.24	30.09	-42.9	-45.5	24.8	6.06e-01	0	40	0	327680000	57	4817
2026-01-02 11:53:35.20	173.44	30.76	-43.0	-45.5	24.8	6.07e-01	0	40	0	333447168	57	4865
2026-01-02 11:53:38.21	173.66	31.44	-43.1	-45.6	24.7	6.06e-01	0	40	0	339214336	57	4921
2026-01-02 11:53:41.21	173.88	32.14	-43.3	-45.8	24.5	6.07e-01	0	40	0	344981504	57	5013
2026-01-02 11:53:44.22	174.11	32.87	-43.6	-46.1	24.3	6.09e-01	0	40	0	350224384	57	5178
2026-01-02 11:53:47.22	174.36	33.60	-43.8	-46.4	24.0	6.05e-01	0	40	0	355991552	58	5061
2026-01-02 11:53:50.21	174.61	34.36	-44.0	-46.6	23.8	6.08e-01	0	41	0	361758720	58	5167
2026-01-02 11:53:53.22	174.88	35.13	-44.3	-46.9	23.6	6.05e-01	0	40	0	367525888	59	5070
2026-01-02 11:53:56.21	175.15	35.93	-44.5	-47.2	23.3	6.07e-01	0	40	0	372768768	59	5240
2026-01-02 11:53:59.22	175.45	36.74	-44.5	-47.3	23.1	6.07e-01	0	40	0	378535936	60	5005
2026-01-02 11:54:02.22	175.76	37.58	-44.8	-47.7	22.7	6.09e-01	0	40	0	384303104	60	5277
2026-01-02 11:54:05.22	176.08	38.44	-44.9	-47.8	22.6	6.07e-01	0	40	0	390070272	61	5022
2026-01-02 11:54:08.22	176.42	39.32	-45.1	-48.1	22.3	6.06e-01	0	40	0	395313152	61	5195
2026-01-02 11:54:11.22	176.78	40.23	-44.7	-47.5	22.9	6.07e-01	0	41	0	401080320	61	4834
2026-01-02 11:54:14.23	177.17	41.16	-44.4	-47.0	23.3	6.08e-01	0	40	0	406847488	60	4838
2026-01-02 11:54:17.23	177.57	42.11	-43.9	-46.4	24.0	6.05e-01	0	40	0	412090368	59	4793
2026-01-02 11:54:20.23	178.00	43.09	-43.8	-46.4	24.0	6.07e-01	0	41	0	417857536	59	4765
2026-01-02 11:54:23.23	178.46	44.09	-43.6	-46.2	24.2	6.07e-01	0	40	0	423624704	58	4934
2026-01-02 11:54:26.24	178.94	45.13	-43.1	-45.5	24.9	6.07e-01	0	40	0	429391872	58	4550
2026-01-02 11:54:29.25	179.46	46.18	-43.2	-45.6	24.7	6.06e-01	0	40	0	435159040	58	4637
2026-01-02 11:54:32.25	180.02	47.27	-43.6	-46.1	24.3	6.07e-01	0	41	0	440401920	58	4887
2026-01-02 11:54:35.25	180.61	48.38	-43.3	-45.7	24.6	6.07e-01	0	41	0	446169088	58	4693
2026-01-02 11:54:38.26	181.25	49.51	-43.1	-45.5	24.8	6.07e-01	0	40	0	451936256	58	4576
2026-01-02 11:54:41.27	181.95	50.68	-42.9	-45.2	25.0	6.06e-01	0	41	0	457179136	57	4695
2026-01-02 11:54:44.27	182.69	51.87	-42.8	-45.2	25.1	6.05e-01	0	41	0	462946304	57	4680
2026-01-02 11:54:47.27	183.50	53.08	-42.7	-45.1	25.2	6.08e-01	0	40	0	468713472	57	4617
2026-01-02 11:54:50.27	184.38	54.32	-42.7	-45.1	25.2	6.06e-01	0	41	0	474480640	56	4906
2026-01-02 11:54:53.27	185.33	55.59	-43.1	-45.5	24.8	6.07e-01	0	40	0	479723520	57	4829
2026-01-02 11:54:56.28	186.39	56.88	-43.6	-46.0	24.3	6.07e-01	0	41	0	485490688	58	4865
2026-01-02 11:54:59.29	187.54	58.19	-44.2	-46.8	23.7	6.06e-01	0	40	0	491257856	59	4995
2026-01-02 11:55:02.29	188.81	59.52	-44.6	-47.3	23.2	6.05e-01	0	41	0	497025024	59	5290
2026-01-02 11:55:05.30	190.23	60.87	-44.9	-47.7	22.8	6.07e-01	0	41	0	502267904	60	5227
2026-01-02 11:55:08.31	191.80	62.23	-45.4	-48.3	22.2	6.08e-01	0	41	0	508035072	61	5294
2026-01-02 11:55:11.31	193.55	63.59	-45.7	-49.0	21.5	6.09e-01	0	41	0	513802240	62	5412
2026-01-02 11:55:14.31	195.52	64.96	-46.6	-50.2	20.3	6.05e-01	0	41	0	519569408	64	5532
2026-01-02 11:55:17.31	197.74	66.32	-46.4	-50.1	20.3	6.07e-01	0	40	0	524812288	64	5528
2026-01-02 11:55:20.31	200.26	67.66	-47.2	-51.1	19.3	6.07e-01	0	41	0	530579456	65	5825
2026-01-02 11:55:23.31	203.13	68.99	-47.5	-51.6	18.9	6.09e-01	0	41	0	536346624	66	5790
2026-01-02 11:55:26.31	206.41	70.28	-47.1	-51.0	19.6	6.09e-01	0	41	0	542113792	66	5403
2026-01-02 11:55:29.32	210.19	71.52	-46.6	-50.3	20.2	6.07e-01	0	41	0	547356672	65	5288
2026-01-02 11:55:32.33	214.52	72.69	-46.2	-49.4	20.9	6.08e-01	0	41	0	553123840	64	5081
2026-01-02 11:55:35.33	219.47	73.76	-46.0	-49.2	21.2	6.08e-01	0	41	0	558891008	62	5533
2026-01-02 11:55:38.33	225.10	74.70	-46.1	-49.2	21.2	6.06e-01	0	41	0	564133888	63	5273
2026-01-02 11:55:41.34	231.47	75.50	-45.3	-48.4	22.1	6.07e-01	0	41	0	569901056	62	5063
2026-01-02 11:55:44.34	238.47	76.10	-44.7	-47.6	22.8	6.06e-01	0	40	0	575668224	61	4876
2026-01-02 11:55:47.35	246.04	76.49	-44.9	-47.7	22.8	6.06e-01	0	41	0	581435392	61	4934
2026-01-02 11:55:50.36	253.93	76.65	-44.5	-47.3	23.1	6.07e-01	0	41	0	587202560	61	4749
2026-01-02 11:55:53.35	261.80	76.55	-44.8	-47.7	22.7	6.07e-01	0	41	0	592445440	61	4969
2026-01-02 11:55:56.35	269.44	76.22	-45.0	-47.9	22.6	6.08e-01	0	41	0	598212608	61	5048
2026-01-02 11:55:59.36	276.62	75.67	-45.0	-47.8	22.7	6.07e-01	0	41	0	603979776	61	5023
2026-01-02 11:56:02.36	283.13	74.92	-45.2	-48.2	22.2	6.06e-01	0	41	0	609222656	61	5271
2026-01-02 11:56:05.37	288.95	74.00	-45.6	-48.7	21.8	6.05e-01	0	41	0	614989824	61	5584
2026-01-02 11:56:08.36	294.04	72.97	-45.6	-48.6	21.9	6.07e-01	0	41	0	620756992	61	5501
2026-01-02 11:56:11.37	298.53	71.82	-45.4	-48.4	22.1	6.08e-01	0	41	0	626524160	61	5364
2026-01-02 11:56:14.37	302.42	70.61	-46.0	-49.1	21.5	6.09e-01	0	41	0	631767040	62	5471
2026-01-02 11:56:17.38	305.82	69.33	-46.4	-49.6	21.0	6.07e-01	0	41	0	637534208	63	5509
2026-01-02 11:56:20.38	308.79	68.01	-46.1	-49.4	21.1	6.06e-01	0	41	0	643301376	63	5372
2026-01-02 11:56:23.38	311.39	66.67	-45.6	-48.6	21.9	6.08e-01	0	41	0	649068544	63	4879
2026-01-02 11:56:26.39	313.69	65.31	-45.1	-48.0	22.5	6.07e-01	0	41	0	654311424	62	4838
2026-01-02 11:56:29.39	315.71	63.95	-44.8	-47.7	22.8	6.07e-01	0	41	0	660078592	61	4946
2026-01-02 11:56:32.39	317.52	62.59	-44.6	-47.2	23.2	6.07e-01	0	41	0	665845760	61	4701
2026-01-02 11:56:35.40	319.13	61.23	-44.1	-46.8	23.6	6.07e-01	0	41	0	671612928	60	4736
2026-01-02 11:56:38.40	320.58	59.89	-44.0	-46.6	23.8	6.07e-01	0	41	0	676855808	59	4906
2026-01-02 11:56:41.40	321.88	58.56	-43.8	-46.5	24.0	6.06e-01	0	41	0	682622976	59	4864
2026-01-02 11:56:44.41	323.06	57.25	-43.3	-45.7	24.7	6.08e-01	0	41	0	688390144	58	4666
2026-01-02 11:56:47.42	324.14	55.96	-43.0	-45.5	24.9	6.08e-01	0	41	0	694157312	57	4824
2026-01-02 11:56:50.42	325.12	54.69	-42.8	-45.3	25.0	6.06e-01	0	41	0	699400192	57	4759
2026-01-02 11:56:53.42	326.02	53.45	-42.8	-45.3	25.1	6.09e-01	0	41	0	705167360	57	4718
2026-01-02 11:56:56.43	326.84	52.23	-43.1	-45.7	24.7	6.07e-01	0	41	0	710934528	57	4944
2026-01-02 11:56:59.43	327.60	51.04	-43.4	-45.9	24.5	6.06e-01	0	41	0	716701696	57	5049
2026-01-02 11:57:02.43	328.31	49.87	-43.5	-46.0	24.4	6.07e-01	0	41	0	721944576	57	5132
2026-01-02 11:57:05.44	328.96	48.73	-43.7	-46.4	24.0	6.07e-01	0	41	0	727711744	58	5094
2026-01-02 11:57:08.44	329.57	47.62	-43.4	-46.0	24.4	6.09e-01	0	41	0	733478912	58	4842
2026-01-02 11:57:11.44	330.13	46.54	-43.4	-46.0	24.4	6.07e-01	0	41	0	738721792	58	4852
2026-01-02 11:57:14.45	330.66	45.47	-43.5	-46.2	24.2	6.05e-01	0	41	0	744488960	58	4971
2026-01-02 11:57:17.45	331.16	44.44	-43.4	-45.9	24.4	6.06e-01	0	41	0	750256128	58	4805
2026-01-02 11:57:20.45	331.62	43.44	-43.7	-46.2	24.2	6.06e-01	0	41	0	756023296	58	4970
2026-01-02 11:57:23.46	332.06	42.45	-43.7	-46.4	24.0	6.06e-01	0	41	0	761790464	58	5097
2026-01-02 11:57:26.46	332.47	41.50	-43.9	-47.1	23.3	6.07e-01	0	41	0	767033344	58	5488
2026-01-02 11:57:29.46	332.86	40.57	-44.2	-47.1	23.3	6.07e-01	0	41	0	772800512	58	5493
2026-01-02 11:57:32.47	333.22	39.66	-44.3	-47.0	23.4	6.09e-01	0	41	0	778567680	59	5152
2026-01-02 11:57:35.47	333.57	38.77	-44.1	-47.0	23.5	6.08e-01	0	41	0	783810560	59	5102
2026-01-02 11:57:38.49	333.90	37.90	-43.9	-46.8	23.6	6.07e-01	0	41	0	789577728	59	5005
2026-01-02 11:57:41.49	334.22	37.06	-43.9	-46.5	23.9	6.06e-01	0	41	0	795344896	59	4852
2026-01-02 11:57:44.50	334.52	36.24	-43.6	-46.2	24.1	6.07e-01	0	41	0	801112064	59	4692
2026-01-02 11:57:47.50	334.80	35.45	-43.2	-45.8	24.4	6.05e-01	0	41	0	806879232	58	4748
2026-01-02 11:57:50.51	335.07	34.67	-42.5	-45.5	24.8	6.07e-01	0	41	0	812122112	57	4816
2026-01-02 11:57:53.51	335.33	33.91	-42.3	-45.2	25.0	6.06e-01	0	41	0	817889280	56	4951
2026-01-02 11:57:56.52	335.58	33.17	-42.2	-44.8	25.4	6.07e-01	0	41	0	823656448	56	4758
2026-01-02 11:57:59.52	335.81	32.45	-42.4	-44.9	25.3	6.05e-01	0	41	0	828899328	56	4799
2026-01-02 11:58:02.52	336.04	31.74	-42.3	-44.8	25.4	6.08e-01	0	41	0	834666496	56	4736
2026-01-02 11:58:05.53	336.25	31.06	-41.7	-44.5	25.6	6.07e-01	0	41	0	840433664	55	4844
2026-01-02 11:58:08.53	336.46	30.39	-41.6	-44.6	25.4	6.04e-01	0	41	0	846200832	55	4900
2026-01-02 11:58:11.54	336.66	29.73	-42.1	-44.8	25.3	6.08e-01	0	41	0	851443712	55	4987
2026-01-02 11:58:14.54	336.86	29.09	-42.2	-44.8	25.2	6.06e-01	0	41	0	857210880	55	5041
2026-01-02 11:58:17.55	337.04	28.47	-42.4	-45.2	24.9	6.07e-01	0	41	0	862978048	55	5240
2026-01-02 11:58:20.56	337.22	27.86	-42.8	-45.4	24.8	6.06e-01	0	41	0	868745216	56	5064
2026-01-02 11:58:23.56	337.39	27.27	-42.8	-45.4	24.8	6.06e-01	0	41	0	873988096	56	5062
2026-01-02 11:58:26.57	337.56	26.68	-42.8	-45.5	24.7	6.06e-01	0	41	0	879755264	56	5150
2026-01-02 11:58:29.58	337.72	26.11	-42.9	-45.8	24.4	6.08e-01	0	41	0	885522432	56	5295
2026-01-02 11:58:32.59	337.88	25.56	-43.2	-45.9	24.3	6.08e-01	0	41	0	891289600	56	5348
2026-01-02 11:58:35.60	338.03	25.01	-43.4	-46.0	24.3	6.02e-01	0	41	0	896532480	57	5108
2026-01-02 11:58:38.60	338.17	24.48	-43.0	-45.7	24.4	6.03e-01	0	41	0	902299648	57	4965
2026-01-02 11:58:41.60	338.31	23.96	-42.8	-45.7	24.5	6.05e-01	0	41	0	908066816	57	4945
2026-01-02 11:58:44.61	338.45	23.45	-42.7	-45.7	24.5	6.04e-01	0	41	0	913833984	57	4964
2026-01-02 11:58:47.62	338.58	22.95	-42.9	-45.8	24.4	6.04e-01	0	41	0	919076864	57	5007
2026-01-02 11:58:50.63	338.71	22.46	-43.2	-45.9	24.3	6.02e-01	0	41	0	924844032	57	5087
2026-01-02 11:58:53.63	338.83	21.98	-43.0	-45.8	24.3	6.05e-01	0	41	0	930611200	57	5033
2026-01-02 11:58:56.65	338.96	21.51	-42.6	-45.7	24.4	6.02e-01	0	41	0	936378368	57	4974
2026-01-02 11:58:59.66	339.07	21.05	-42.7	-45.7	24.5	6.04e-01	0	41	0	942145536	57	4935
2026-01-02 11:59:02.66	339.19	20.60	-42.9	-45.5	24.6	6.03e-01	0	41	0	947388416	57	4847
2026-01-02 11:59:05.66	339.30	20.16	-42.9	-45.6	24.5	6.03e-01	0	41	0	953155584	57	4919
2026-01-02 11:59:08.67	339.41	19.72	-42.4	-45.4	24.7	6.05e-01	0	41	0	958922752	56	5097
2026-01-02 11:59:11.67	339.51	19.30	-42.2	-45.3	24.7	6.03e-01	0	41	0	964165632	56	5035
2026-01-02 11:59:14.68	339.62	18.88	-42.4	-45.4	24.6	6.05e-01	0	41	0	969932800	56	5054
2026-01-02 11:59:17.68	339.72	18.47	-42.8	-45.4	24.7	6.04e-01	0	41	0	975699968	56	5046
2026-01-02 11:59:20.68	339.81	18.06	-42.9	-45.4	24.7	6.04e-01	0	41	0	981467136	56	5042
2026-01-02 11:59:23.70	339.91	17.67	-42.7	-45.3	24.8	6.03e-01	0	41	0	986710016	56	5004
2026-01-02 11:59:26.70	340.00	17.28	-42.6	-45.3	24.7	6.02e-01	0	41	0	992477184	56	5001
2026-01-02 11:59:29.71	340.09	16.89	-42.6	-45.2	24.8	6.06e-01	0	41	0	998244352	56	4972
2026-01-02 11:59:32.72	340.18	16.52	-42.7	-45.3	24.7	6.04e-01	0	41	0	1004011520	56	4997
2026-01-02 11:59:35.72	340.27	16.15	-42.7	-45.2	24.8	6.04e-01	0	41	0	1009254400	56	4937
2026-01-02 11:59:38.74	340.36	15.78	-42.8	-45.4	24.6	6.03e-01	0	41	0	1015021568	56	5072
2026-01-02 11:59:41.74	340.44	15.42	-42.6	-45.4	24.6	6.01e-01	0	41	0	1020788736	56	5098
2026-01-02 11:59:44.75	340.52	15.07	-42.6	-45.5	24.4	6.04e-01	0	41	0	1026555904	56	5145
2026-01-02 11:59:47.76	340.60	14.72	-42.7	-45.6	24.3	6.04e-01	0	41	0	1032323072	56	5214
2026-01-02 11:59:50.76	340.68	14.38	-42.6	-45.7	24.2	6.02e-01	0	41	0	1037565952	56	5219
2026-01-02 11:59:53.77	340.75	14.05	-42.5	-45.8	24.2	6.05e-01	0	41	0	1043333120	56	5292
2026-01-02 11:59:56.77	340.83	13.72	-42.1	-45.7	24.2	6.06e-01	0	41	0	1049100288	56	5268
2026-01-02 11:59:59.77	340.90	13.39	-41.8	-45.7	24.1	6.04e-01	0	41	0	1054343168	55	5549
2026-01-02 12:00:02.78	340.97	13.07	-41.6	-45.5	24.2	6.02e-01	0	41	0	1060110336	55	5443
2026-01-02 12:00:05.78	341.05	12.75	-41.8	-45.7	24.1	6.04e-01	0	41	0	1065877504	55	5538
2026-01-02 12:00:08.79	341.11	12.44	-42.1	-45.6	24.1	6.04e-01	0	41	0	1071644672	55	5525
2026-01-02 12:00:11.80	341.18	12.13	-42.4	-45.6	24.1	6.03e-01	0	41	0	1077411840	55	5520
2026-01-02 12:00:14.81	341.25	11.83	-42.5	-45.8	24.0	6.04e-01	0	41	0	1082654720	55	5605
2026-01-02 12:00:17.82	341.32	11.53	-42.5	-45.8	24.0	6.05e-01	0	41	0	1088421888	55	5617
2026-01-02 12:00:20.82	341.38	11.23	-42.6	-45.8	23.9	6.05e-01	0	41	0	1094189056	55	5643
2026-01-02 12:00:23.83	341.44	10.94	-42.8	-46.1	23.7	6.02e-01	0	41	0	1099431936	56	5465
2026-01-02 12:00:26.84	341.51	10.65	-43.0	-46.0	23.7	6.03e-01	0	41	0	1105199104	56	5460
2026-01-02 12:00:29.84	341.57	10.37	-43.1	-46.1	23.6	6.04e-01	0	41	0	1110966272	56	5494
2026-01-02 12:00:32.85	341.63	10.09	-43.2	-46.3	23.4	6.02e-01	0	41	0	1116733440	57	5289
2026-01-02 12:00:35.86	341.69	9.81	-43.2	-46.3	23.4	6.04e-01	0	41	0	1122500608	57	5338
2026-01-02 12:00:38.87	341.75	9.54	-43.4	-46.6	23.1	6.05e-01	0	41	0	1127743488	57	5480
2026-01-02 12:00:41.87	341.80	9.27	-43.2	-46.4	23.2	6.05e-01	0	41	0	1133510656	57	5386
2026-01-02 12:00:44.88	341.86	9.00	-48.1	-58.6	13.2	6.12e-01	0	41	0	1139277824	66	13073
2026-01-02 12:00:47.88	341.92	8.74	-48.4	-71.0	3.8	7.48e-01	0	41	104	1139277824	67	51014
2026-01-02 12:00:50.90	341.97	8.47	-49.0	-71.4	3.8	7.46e-01	0	41	104	1139277824	70	45292
2026-01-02 12:00:53.90	342.02	8.22	-50.1	-71.4	3.8	7.48e-01	0	41	104	1139277824	72	40488
2026-01-02 12:00:56.91	342.08	7.96	-51.0	-71.5	3.8	7.45e-01	0	41	104	1139277824	72	40849
2026-01-02 12:00:59.92	342.13	7.71	-50.8	-71.5	3.8	7.46e-01	0	41	104	1139277824	72	40802
2026-01-02 12:01:02.93	342.18	7.46	-51.2	-71.5	3.8	7.49e-01	0	41	104	1139277824	73	38335
2026-01-02 12:01:05.94	342.23	7.21	-51.3	-71.5	3.8	7.48e-01	0	41	104	1139277824	73	38363
2026-01-02 12:01:08.95	342.28	6.97	-50.7	-71.4	3.8	7.49e-01	0	41	104	1139277824	73	38184
2026-01-02 12:01:11.96	342.33	6.73	-50.5	-71.4	3.8	7.46e-01	0	41	104	1139277824	72	40294
2026-01-02 12:01:14.97	342.38	6.49	-50.5	-71.4	3.8	7.44e-01	0	41	104	1139277824	72	40248
2026-01-02 12:01:17.99	342.43	6.25	-50.5	-71.4	3.8	7.44e-01	0	41	104	1139277824	72	40091
2026-01-02 12:01:21.00	342.48	6.01	-50.4	-71.3	3.8	7.49e-01	0	41	104	1139277824	72	40018
2026-01-02 12:01:24.01	342.53	5.78	-50.5	-71.3	3.8	7.48e-01	0	41	104	1139277824	72	40034
2026-01-02 12:01:27.03	342.57	5.55	-50.4	-71.3	3.8	7.48e-01	0	41	104	1139277824	72	39999
2026-01-02 12:01:30.04	342.62	5.32	-50.4	-71.3	3.8	7.42e-01	0	41	104	1139277824	72	39837
2026-01-02 12:01:33.05	342.67	5.10	-50.4	-71.3	3.8	7.48e-01	0	41	104	1139277824	72	39938

#Closed at: 2026-01-02 12:01:36
#Recorded file [1139 MB]: D:/Data/31040_260102_145010.dat