passes_logs/2026/01/02/T1/T1__20260102_232232_FENGYUN_3D_rec.log

#Pass ID: 20260102_232232_FENGYUN 3D
#Satellite: FENGYUN 3D
#Configuration: FENGYUN 3D
#almurnet v.1.7.20251203
#Start time: 2026-01-02 23:22:32

#Version: 2.0.20230620
#Station: T1
#Location: 37.570604 lon 55.790049 lat
#TLE: 1 43010U 17072A   26002.31768531  .00000715  00000+0  35975-3 0  9993
#TLE: 2 43010  98.9910 333.9388 0001871 131.0716 229.0622 14.19693418421454

#Time	Az	El	Level	Level2	SNR	BER	BlckErr	Temp	State	Recorded	gain1	gain2
2026-01-02 23:22:32.93	46.50	5.03	-48.9	-61.2	3.8	8.47e-01	0	36	0	0	68	15663
2026-01-02 23:22:34.94	46.76	5.10	-48.9	-61.2	3.8	8.47e-01	0	37	104	0	69	14731
2026-01-02 23:22:36.94	47.03	5.17	-48.9	-61.2	3.8	8.47e-01	0	37	104	0	69	14782
2026-01-02 23:22:38.95	47.30	5.23	-48.9	-61.2	3.8	8.47e-01	0	37	104	0	69	14765
2026-01-02 23:22:40.95	47.58	5.30	-48.9	-61.2	3.8	8.46e-01	0	37	104	0	69	14739
2026-01-02 23:22:42.96	47.85	5.36	-48.9	-61.2	3.8	8.47e-01	0	37	104	0	69	14738
2026-01-02 23:22:44.97	48.12	5.43	-48.9	-61.2	3.8	8.46e-01	0	37	104	0	69	14776
2026-01-02 23:22:46.97	48.40	5.49	-48.9	-61.2	3.8	8.48e-01	0	37	104	0	69	14749
2026-01-02 23:22:48.98	48.68	5.56	-48.9	-61.2	3.8	8.47e-01	0	37	104	0	69	14810
2026-01-02 23:22:50.98	48.95	5.62	-48.9	-61.2	3.8	8.47e-01	0	38	104	0	69	14731
2026-01-02 23:22:52.99	49.23	5.68	-48.9	-61.2	3.8	8.47e-01	0	38	104	0	69	14871
2026-01-02 23:22:54.99	49.51	5.75	-48.9	-61.2	3.8	8.48e-01	0	38	104	0	69	14783
2026-01-02 23:22:57.00	49.79	5.81	-48.9	-61.2	3.8	8.47e-01	0	38	104	0	69	14794
2026-01-02 23:22:59.01	50.08	5.87	-48.9	-61.2	3.8	8.47e-01	0	38	104	0	69	14786
2026-01-02 23:23:01.01	50.36	5.93	-48.9	-61.2	3.8	8.47e-01	0	38	104	0	69	14740
2026-01-02 23:23:03.02	50.65	6.00	-48.9	-61.2	3.8	8.47e-01	0	38	104	0	69	14769
2026-01-02 23:23:05.02	50.93	6.06	-48.9	-61.2	3.8	8.47e-01	0	38	104	0	69	14798
2026-01-02 23:23:07.03	51.22	6.12	-48.9	-61.2	3.8	8.47e-01	0	38	104	0	69	14773
2026-01-02 23:23:09.04	51.51	6.18	-48.9	-61.2	3.8	8.47e-01	0	38	104	0	69	14800
2026-01-02 23:23:11.04	51.80	6.24	-48.9	-61.2	3.8	8.46e-01	0	38	104	0	69	14818
2026-01-02 23:23:13.05	52.09	6.30	-48.9	-61.2	3.8	8.47e-01	0	38	104	0	69	14773
2026-01-02 23:23:15.05	52.38	6.35	-48.9	-61.2	3.8	8.47e-01	0	38	104	0	69	14743
2026-01-02 23:23:17.06	52.67	6.41	-48.9	-61.2	3.8	8.46e-01	0	38	104	0	69	14778
2026-01-02 23:23:19.07	52.97	6.47	-48.9	-61.2	3.8	8.47e-01	0	38	104	0	69	14819
2026-01-02 23:23:21.08	53.26	6.53	-48.9	-61.2	3.8	8.47e-01	0	38	104	0	69	14743
2026-01-02 23:23:23.09	53.56	6.58	-48.9	-61.2	3.8	8.46e-01	0	38	104	0	69	14814
2026-01-02 23:23:25.09	53.86	6.64	-48.9	-61.2	3.8	8.46e-01	0	38	104	0	69	14797
2026-01-02 23:23:27.10	54.16	6.69	-48.9	-61.2	3.8	8.45e-01	0	38	104	0	69	14790
2026-01-02 23:23:29.11	54.46	6.75	-48.9	-61.2	3.8	8.46e-01	0	39	104	0	69	14842
2026-01-02 23:23:31.12	54.76	6.80	-48.9	-61.2	3.8	8.47e-01	0	38	104	0	69	14818
2026-01-02 23:23:33.13	55.06	6.86	-48.9	-61.2	3.8	8.48e-01	0	39	104	0	69	14777
2026-01-02 23:23:35.13	55.36	6.91	-48.9	-61.2	3.8	8.47e-01	0	38	104	0	69	14812
2026-01-02 23:23:37.14	55.67	6.96	-48.9	-61.2	3.8	8.47e-01	0	39	104	0	69	14807
2026-01-02 23:23:39.15	55.98	7.02	-48.9	-61.2	3.8	8.46e-01	0	39	104	0	69	14843
2026-01-02 23:23:41.16	56.28	7.07	-48.9	-61.2	3.8	8.46e-01	0	39	104	0	69	14813
2026-01-02 23:23:43.16	56.59	7.12	-48.9	-61.2	3.8	8.46e-01	0	39	104	0	69	14727
2026-01-02 23:23:45.17	56.90	7.17	-48.9	-61.2	3.8	8.46e-01	0	39	104	0	69	14764
2026-01-02 23:23:47.18	57.21	7.22	-48.9	-61.2	3.8	8.48e-01	0	39	104	0	69	14790
2026-01-02 23:23:49.27	57.53	7.27	-48.9	-61.2	3.8	8.47e-01	0	39	104	0	69	14802
2026-01-02 23:23:51.28	57.84	7.32	-48.9	-61.2	3.8	8.47e-01	0	39	104	0	69	14799
2026-01-02 23:23:53.29	58.16	7.37	-48.9	-61.2	3.8	8.47e-01	0	39	104	0	69	14820
2026-01-02 23:23:55.29	58.47	7.42	-48.9	-61.2	3.8	8.47e-01	0	39	104	0	69	14787
2026-01-02 23:23:57.30	58.78	7.46	-48.9	-61.2	3.8	8.47e-01	0	39	104	0	69	14786
2026-01-02 23:23:59.31	59.10	7.51	-48.9	-61.2	3.8	8.46e-01	0	39	104	0	69	14778
2026-01-02 23:24:01.32	59.42	7.55	-48.9	-61.2	3.8	8.47e-01	0	39	104	0	69	14796
2026-01-02 23:24:03.33	59.74	7.60	-48.9	-61.2	3.8	8.47e-01	0	39	104	0	69	14835
2026-01-02 23:24:05.34	60.06	7.64	-48.9	-61.2	3.8	8.47e-01	0	39	104	0	69	14774
2026-01-02 23:24:07.34	60.37	7.69	-48.9	-61.2	3.8	8.47e-01	0	39	104	0	69	14826
2026-01-02 23:24:09.35	60.69	7.73	-48.9	-61.2	3.8	8.47e-01	0	39	104	0	69	14773
2026-01-02 23:24:11.36	61.02	7.77	-48.9	-61.2	3.8	8.46e-01	0	39	104	0	69	14765
2026-01-02 23:24:13.37	61.34	7.81	-48.9	-61.2	3.8	8.47e-01	0	39	104	0	69	14753
2026-01-02 23:24:15.38	61.66	7.85	-48.9	-61.2	3.8	8.47e-01	0	39	104	0	69	14797
2026-01-02 23:24:17.38	61.99	7.89	-48.9	-61.2	3.8	8.47e-01	0	39	104	0	69	14727
2026-01-02 23:24:19.39	62.31	7.93	-48.9	-61.2	3.8	8.47e-01	0	39	104	0	69	14814
2026-01-02 23:24:21.40	62.64	7.97	-48.9	-61.2	3.8	8.46e-01	0	39	104	0	69	14805
2026-01-02 23:24:23.41	62.97	8.01	-48.9	-61.2	3.8	8.47e-01	0	39	104	0	69	14756
2026-01-02 23:24:25.41	63.29	8.05	-48.9	-61.2	3.8	8.47e-01	0	39	104	0	69	14797
2026-01-02 23:24:27.43	63.62	8.08	-48.9	-61.2	3.8	8.47e-01	0	39	104	0	69	14786
2026-01-02 23:24:29.43	63.95	8.12	-48.9	-61.2	3.8	8.47e-01	0	39	104	0	69	14798
2026-01-02 23:24:31.44	64.28	8.15	-48.9	-61.2	3.8	8.47e-01	0	39	104	0	69	14770
2026-01-02 23:24:33.45	64.61	8.19	-48.9	-61.2	3.8	8.47e-01	0	39	104	0	69	14757
2026-01-02 23:24:35.46	64.94	8.22	-48.9	-61.2	3.8	8.47e-01	0	39	104	0	69	14778
2026-01-02 23:24:37.46	65.27	8.25	-48.9	-61.2	3.8	8.46e-01	0	39	104	0	69	14778
2026-01-02 23:24:39.47	65.61	8.28	-48.9	-61.2	3.8	8.47e-01	0	39	104	0	69	14721
2026-01-02 23:24:41.48	65.94	8.31	-48.9	-61.2	3.8	8.47e-01	0	39	104	0	69	14784
2026-01-02 23:24:43.49	66.28	8.34	-48.9	-61.2	3.8	8.46e-01	0	39	104	0	69	14845
2026-01-02 23:24:45.50	66.61	8.37	-48.9	-61.2	3.8	8.47e-01	0	39	104	0	69	14784
2026-01-02 23:24:47.50	66.95	8.40	-48.9	-61.2	3.8	8.47e-01	0	39	104	0	69	14796
2026-01-02 23:24:49.51	67.28	8.43	-48.9	-61.2	3.8	8.47e-01	0	39	104	0	69	14731
2026-01-02 23:24:51.52	67.62	8.46	-48.9	-61.2	3.8	8.47e-01	0	39	104	0	69	14782
2026-01-02 23:24:53.53	67.96	8.48	-48.9	-61.2	3.8	8.47e-01	0	39	104	0	69	14806
2026-01-02 23:24:55.54	68.30	8.51	-48.9	-61.2	3.8	8.47e-01	0	39	104	0	69	14781
2026-01-02 23:24:57.55	68.64	8.53	-48.9	-61.2	3.8	8.47e-01	0	39	104	0	69	14711
2026-01-02 23:24:59.56	68.98	8.56	-48.9	-61.2	3.8	8.46e-01	0	39	104	0	69	14787
2026-01-02 23:25:01.56	69.31	8.58	-48.9	-61.2	3.8	8.47e-01	0	40	104	0	69	14822
2026-01-02 23:25:03.57	69.66	8.60	-48.9	-61.2	3.8	8.46e-01	0	40	104	0	69	14843
2026-01-02 23:25:05.58	70.00	8.62	-48.9	-61.2	3.8	8.48e-01	0	39	104	0	69	14818
2026-01-02 23:25:07.59	70.34	8.64	-48.9	-61.2	3.8	8.47e-01	0	39	104	0	69	14811
2026-01-02 23:25:09.60	70.68	8.66	-48.9	-61.2	3.8	8.46e-01	0	39	104	0	69	14786
2026-01-02 23:25:11.61	71.02	8.68	-48.9	-61.2	3.8	8.47e-01	0	39	104	0	69	14782
2026-01-02 23:25:13.61	71.36	8.70	-48.9	-61.2	3.8	8.48e-01	0	40	104	0	69	14762
2026-01-02 23:25:15.62	71.71	8.71	-48.9	-61.2	3.8	8.47e-01	0	40	104	0	69	14822
2026-01-02 23:25:17.63	72.05	8.73	-48.9	-61.2	3.8	8.47e-01	0	39	104	0	69	14782
2026-01-02 23:25:19.64	72.40	8.74	-48.9	-61.2	3.8	8.48e-01	0	40	104	0	69	14873
2026-01-02 23:25:21.65	72.74	8.76	-48.9	-61.2	3.8	8.47e-01	0	39	104	0	69	14762
2026-01-02 23:25:23.66	73.09	8.77	-48.9	-61.2	3.8	8.46e-01	0	40	104	0	69	14826
2026-01-02 23:25:25.67	73.43	8.78	-48.9	-61.2	3.8	8.47e-01	0	40	104	0	69	14787
2026-01-02 23:25:27.68	73.78	8.79	-48.9	-61.2	3.8	8.47e-01	0	40	104	0	69	14801
2026-01-02 23:25:29.69	74.12	8.80	-48.9	-61.2	3.8	8.46e-01	0	39	104	0	69	14779
2026-01-02 23:25:31.70	74.47	8.81	-48.9	-61.2	3.8	8.48e-01	0	40	104	0	69	14772
2026-01-02 23:25:33.70	74.81	8.82	-48.9	-61.2	3.8	8.47e-01	0	40	104	0	69	14777
2026-01-02 23:25:35.71	75.16	8.83	-48.9	-61.2	3.8	8.47e-01	0	40	104	0	69	14769
2026-01-02 23:25:37.72	75.51	8.84	-48.9	-61.2	3.8	8.48e-01	0	40	104	0	69	14768
2026-01-02 23:25:39.73	75.85	8.84	-48.9	-61.2	3.8	8.47e-01	0	40	104	0	69	14745
2026-01-02 23:25:41.74	76.20	8.85	-48.9	-61.2	3.8	8.47e-01	0	40	104	0	69	14743
2026-01-02 23:25:43.74	76.55	8.85	-48.9	-61.2	3.8	8.48e-01	0	39	104	0	69	14776
2026-01-02 23:25:45.75	76.89	8.85	-48.9	-61.2	3.8	8.48e-01	0	40	104	0	69	14814
2026-01-02 23:25:47.76	77.24	8.86	-48.9	-61.2	3.8	8.47e-01	0	40	104	0	69	14805
2026-01-02 23:25:49.77	77.59	8.86	-48.9	-61.2	3.8	8.46e-01	0	40	104	0	69	14754
2026-01-02 23:25:51.77	77.93	8.86	-48.9	-61.2	3.8	8.48e-01	0	40	104	0	69	14832
2026-01-02 23:25:53.77	78.28	8.86	-48.9	-61.2	3.8	8.47e-01	0	40	104	0	69	14777
2026-01-02 23:25:55.78	78.63	8.86	-48.9	-61.2	3.8	8.46e-01	0	40	104	0	69	14742
2026-01-02 23:25:57.79	78.97	8.85	-48.9	-61.2	3.8	8.48e-01	0	40	104	0	69	14724
2026-01-02 23:25:59.80	79.32	8.85	-48.9	-61.2	3.8	8.47e-01	0	40	104	0	69	14800
2026-01-02 23:26:01.81	79.67	8.85	-48.9	-61.2	3.8	8.47e-01	0	40	104	0	69	14799
2026-01-02 23:26:03.81	80.01	8.84	-48.9	-61.2	3.8	8.47e-01	0	40	104	0	69	14789
2026-01-02 23:26:05.82	80.36	8.84	-48.9	-61.2	3.8	8.46e-01	0	40	104	0	69	14795
2026-01-02 23:26:07.83	80.71	8.83	-48.9	-61.2	3.8	8.46e-01	0	40	104	0	69	14775
2026-01-02 23:26:09.83	81.05	8.82	-48.9	-61.2	3.8	8.47e-01	0	39	104	0	69	14768
2026-01-02 23:26:11.84	81.40	8.81	-48.9	-61.2	3.8	8.47e-01	0	40	104	0	69	14841
2026-01-02 23:26:13.85	81.74	8.80	-48.9	-61.2	3.8	8.46e-01	0	40	104	0	69	14729
2026-01-02 23:26:15.86	82.09	8.79	-48.9	-61.2	3.8	8.47e-01	0	40	104	0	69	14780
2026-01-02 23:26:17.87	82.44	8.78	-48.9	-61.2	3.8	8.47e-01	0	40	104	0	69	14802
2026-01-02 23:26:19.88	82.78	8.77	-48.9	-61.2	3.8	8.47e-01	0	40	104	0	69	14830
2026-01-02 23:26:21.89	83.13	8.76	-48.9	-61.2	3.8	8.47e-01	0	40	104	0	69	14777
2026-01-02 23:26:23.89	83.47	8.74	-48.9	-61.2	3.8	8.47e-01	0	40	104	0	69	14785
2026-01-02 23:26:25.90	83.82	8.73	-48.9	-61.2	3.8	8.47e-01	0	40	104	0	69	14775
2026-01-02 23:26:27.91	84.16	8.71	-48.9	-61.2	3.8	8.48e-01	0	40	104	0	69	14748
2026-01-02 23:26:29.92	84.50	8.70	-48.9	-61.2	3.8	8.47e-01	0	40	104	0	69	14808
2026-01-02 23:26:31.93	84.85	8.68	-48.9	-61.2	3.8	8.46e-01	0	40	104	0	69	14820
2026-01-02 23:26:33.94	85.19	8.66	-48.9	-61.2	3.8	8.46e-01	0	40	104	0	69	14740
2026-01-02 23:26:35.95	85.53	8.64	-48.9	-61.2	3.8	8.48e-01	0	40	104	0	69	14796
2026-01-02 23:26:37.96	85.88	8.62	-48.9	-61.2	3.8	8.47e-01	0	40	104	0	69	14868
2026-01-02 23:26:39.97	86.22	8.60	-48.9	-61.2	3.8	8.48e-01	0	40	104	0	69	14788
2026-01-02 23:26:41.98	86.56	8.58	-48.9	-61.2	3.8	8.46e-01	0	40	104	0	69	14826
2026-01-02 23:26:43.98	86.90	8.56	-48.9	-61.2	3.8	8.47e-01	0	40	104	0	69	14807
2026-01-02 23:26:45.99	87.24	8.53	-48.9	-61.2	3.8	8.47e-01	0	40	104	0	69	14790
2026-01-02 23:26:48.00	87.58	8.51	-48.9	-61.2	3.8	8.47e-01	0	40	104	0	69	14796
2026-01-02 23:26:50.01	87.92	8.48	-48.9	-61.2	3.8	8.46e-01	0	40	104	0	69	14710
2026-01-02 23:26:52.02	88.26	8.46	-48.9	-61.2	3.8	8.48e-01	0	40	104	0	69	14777
2026-01-02 23:26:54.03	88.60	8.43	-48.9	-61.2	3.8	8.46e-01	0	40	104	0	69	14843
2026-01-02 23:26:56.04	88.93	8.40	-48.9	-61.2	3.8	8.47e-01	0	40	104	0	69	14802
2026-01-02 23:26:58.05	89.27	8.37	-48.9	-61.2	3.8	8.48e-01	0	40	104	0	69	14878
2026-01-02 23:27:00.05	89.61	8.34	-48.9	-61.2	3.8	8.46e-01	0	40	104	0	69	14758
2026-01-02 23:27:02.06	89.94	8.31	-48.9	-61.2	3.8	8.47e-01	0	40	104	0	69	14821
2026-01-02 23:27:04.07	90.28	8.28	-48.9	-61.2	3.8	8.47e-01	0	40	104	0	69	14818
2026-01-02 23:27:06.08	90.61	8.25	-48.9	-61.2	3.8	8.46e-01	0	40	104	0	69	14809
2026-01-02 23:27:08.09	90.94	8.22	-48.9	-61.2	3.8	8.48e-01	0	40	104	0	69	14768
2026-01-02 23:27:10.10	91.28	8.18	-48.9	-61.2	3.8	8.46e-01	0	40	104	0	69	14819
2026-01-02 23:27:12.11	91.61	8.15	-48.9	-61.2	3.8	8.46e-01	0	40	104	0	69	14793
2026-01-02 23:27:14.11	91.94	8.12	-48.9	-61.2	3.8	8.47e-01	0	40	104	0	69	14787
2026-01-02 23:27:16.12	92.27	8.08	-48.9	-61.2	3.8	8.47e-01	0	40	104	0	69	14808
2026-01-02 23:27:18.13	92.60	8.04	-48.9	-61.2	3.8	8.47e-01	0	40	104	0	69	14816
2026-01-02 23:27:20.14	92.93	8.01	-48.9	-61.2	3.8	8.47e-01	0	40	104	0	69	14852
2026-01-02 23:27:22.15	93.26	7.97	-48.9	-61.2	3.8	8.47e-01	0	40	104	0	69	14795
2026-01-02 23:27:24.16	93.58	7.93	-48.9	-61.2	3.8	8.48e-01	0	40	104	0	69	14792
2026-01-02 23:27:26.16	93.91	7.89	-48.9	-61.2	3.8	8.48e-01	0	40	104	0	69	14790
2026-01-02 23:27:28.17	94.24	7.85	-48.9	-61.2	3.8	8.47e-01	0	40	104	0	69	14810
2026-01-02 23:27:30.18	94.56	7.81	-48.9	-61.2	3.8	8.46e-01	0	40	104	0	69	14762
2026-01-02 23:27:32.19	94.88	7.77	-48.9	-61.2	3.8	8.47e-01	0	40	104	0	69	14794
2026-01-02 23:27:34.20	95.21	7.72	-48.9	-61.2	3.8	8.46e-01	0	40	104	0	69	14754
2026-01-02 23:27:36.21	95.53	7.68	-48.9	-61.2	3.8	8.47e-01	0	40	104	0	69	14836
2026-01-02 23:27:38.21	95.85	7.64	-48.9	-61.2	3.8	8.48e-01	0	40	104	0	69	14783
2026-01-02 23:27:40.22	96.17	7.59	-48.9	-61.2	3.8	8.47e-01	0	40	104	0	69	14801
2026-01-02 23:27:42.23	96.49	7.55	-48.9	-61.2	3.8	8.47e-01	0	40	104	0	69	14832
2026-01-02 23:27:44.24	96.81	7.50	-48.9	-61.2	3.8	8.47e-01	0	40	104	0	69	14796
2026-01-02 23:27:46.25	97.13	7.46	-48.9	-61.2	3.8	8.48e-01	0	40	104	0	69	14797
2026-01-02 23:27:48.26	97.44	7.41	-48.9	-61.2	3.8	8.46e-01	0	40	104	0	69	14772
2026-01-02 23:27:50.27	97.76	7.36	-48.9	-61.2	3.8	8.47e-01	0	40	104	0	69	14783
2026-01-02 23:27:52.28	98.07	7.31	-48.9	-61.2	3.8	8.47e-01	0	40	104	0	69	14781
2026-01-02 23:27:54.28	98.38	7.26	-48.9	-61.2	3.8	8.47e-01	0	40	104	0	69	14758
2026-01-02 23:27:56.29	98.70	7.21	-48.9	-61.2	3.8	8.46e-01	0	40	104	0	69	14761
2026-01-02 23:27:58.30	99.01	7.16	-48.9	-61.2	3.8	8.48e-01	0	40	104	0	69	14748
2026-01-02 23:28:00.31	99.32	7.11	-48.9	-61.2	3.8	8.47e-01	0	40	104	0	69	14789
2026-01-02 23:28:02.32	99.63	7.06	-48.9	-61.2	3.8	8.47e-01	0	40	104	0	69	14791
2026-01-02 23:28:04.33	99.94	7.01	-48.9	-61.2	3.8	8.48e-01	0	40	104	0	69	14769
2026-01-02 23:28:06.33	100.24	6.96	-48.9	-61.2	3.8	8.46e-01	0	40	104	0	69	14784
2026-01-02 23:28:08.34	100.55	6.90	-48.9	-61.2	3.8	8.47e-01	0	40	104	0	69	14809
2026-01-02 23:28:10.35	100.85	6.85	-48.9	-61.2	3.8	8.47e-01	0	40	104	0	69	14780
2026-01-02 23:28:12.36	101.16	6.79	-48.9	-61.2	3.8	8.47e-01	0	40	104	0	69	14831
2026-01-02 23:28:14.36	101.46	6.74	-48.9	-61.2	3.8	8.47e-01	0	40	104	0	69	14813
2026-01-02 23:28:16.38	101.76	6.68	-48.9	-61.2	3.8	8.47e-01	0	40	104	0	69	14789
2026-01-02 23:28:18.38	102.06	6.63	-48.9	-61.2	3.8	8.47e-01	0	40	104	0	69	14761
2026-01-02 23:28:20.39	102.36	6.57	-48.9	-61.2	3.8	8.47e-01	0	40	104	0	69	14789
2026-01-02 23:28:22.40	102.66	6.51	-48.9	-61.2	3.8	8.47e-01	0	40	104	0	69	14737
2026-01-02 23:28:24.41	102.96	6.46	-48.9	-61.2	3.8	8.47e-01	0	40	104	0	69	14761
2026-01-02 23:28:26.42	103.25	6.40	-48.9	-61.2	3.8	8.47e-01	0	40	104	0	69	14817
2026-01-02 23:28:28.43	103.55	6.34	-48.9	-61.2	3.8	8.47e-01	0	40	104	0	69	14773
2026-01-02 23:28:30.44	103.84	6.28	-48.9	-61.2	3.8	8.47e-01	0	40	104	0	69	14850
2026-01-02 23:28:32.44	104.13	6.22	-48.9	-61.2	3.8	8.46e-01	0	40	104	0	69	14791
2026-01-02 23:28:34.45	104.43	6.16	-48.9	-61.2	3.8	8.46e-01	0	40	104	0	69	14786
2026-01-02 23:28:36.46	104.72	6.10	-48.9	-61.2	3.8	8.47e-01	0	40	104	0	69	14766
2026-01-02 23:28:38.47	105.01	6.04	-48.9	-61.2	3.8	8.46e-01	0	40	104	0	69	14834
2026-01-02 23:28:40.48	105.29	5.98	-48.9	-61.2	3.8	8.46e-01	0	40	104	0	69	14805
2026-01-02 23:28:42.49	105.58	5.91	-48.9	-61.2	3.8	8.47e-01	0	40	104	0	69	14808
2026-01-02 23:28:44.49	105.87	5.85	-48.9	-61.2	3.8	8.47e-01	0	40	104	0	69	14800
2026-01-02 23:28:46.50	106.15	5.79	-48.9	-61.2	3.8	8.47e-01	0	40	104	0	69	14776
2026-01-02 23:28:48.51	106.43	5.73	-48.9	-61.2	3.8	8.48e-01	0	40	104	0	69	14797
2026-01-02 23:28:50.52	106.72	5.66	-48.9	-61.2	3.8	8.46e-01	0	40	104	0	69	14819
2026-01-02 23:28:52.53	107.00	5.60	-48.9	-61.2	3.8	8.47e-01	0	40	104	0	69	14755
2026-01-02 23:28:54.54	107.28	5.53	-48.9	-61.2	3.8	8.48e-01	0	40	104	0	69	14792
2026-01-02 23:28:56.54	107.55	5.47	-48.9	-61.2	3.8	8.48e-01	0	40	104	0	69	14858
2026-01-02 23:28:58.55	107.83	5.40	-48.9	-61.2	3.8	8.46e-01	0	40	104	0	69	14797
2026-01-02 23:29:00.56	108.11	5.34	-48.9	-61.2	3.8	8.47e-01	0	40	104	0	69	14766
2026-01-02 23:29:02.57	108.38	5.27	-48.9	-61.2	3.8	8.47e-01	0	40	104	0	69	14770
2026-01-02 23:29:04.58	108.66	5.20	-48.9	-61.2	3.8	8.47e-01	0	40	104	0	69	14747
2026-01-02 23:29:06.59	108.93	5.14	-48.9	-61.2	3.8	8.47e-01	0	40	104	0	69	14782
2026-01-02 23:29:08.59	109.20	5.07	-48.9	-61.2	3.8	8.47e-01	0	40	104	0	69	14800
2026-01-02 23:29:10.60	109.47	5.00	-48.9	-61.2	3.8	8.46e-01	0	40	104	0	69	14826

#Closed at: 2026-01-02 23:29:11
#Recorded file [0 MB]: D:/Data/31040_260103_022232.dat