passes_logs/2026/01/02/T1/T1__20260102_215044_NOAA_21_JPSS-2_rec.log

#Pass ID: 20260102_215044_NOAA 21 (JPSS-2)
#Satellite: NOAA 21 (JPSS-2)
#Configuration: NOAA 21
#almurnet v.1.7.20251203
#Start time: 2026-01-02 21:50:45

#Version: 2.0.20230620
#Station: T1
#Location: 37.570604 lon 55.790049 lat
#TLE: 1 54234U 22150A   26002.25486487  .00000200  00000+0  11573-3 0  9993
#TLE: 2 54234  98.7485 303.3096 0001220 350.9074   9.2080 14.19531212163006

#Time	Az	El	Level	Level2	SNR	BER	BlckErr	Temp	State	Recorded	gain1	gain2
2026-01-02 21:50:45.99	34.32	5.10	-48.8	-62.0	3.8	1.49e+00	0	41	0	0	69	16261
2026-01-02 21:50:49.00	34.64	5.25	-48.8	-62.0	3.8	1.49e+00	0	41	104	0	68	17195
2026-01-02 21:50:52.01	34.96	5.41	-48.8	-62.0	3.8	1.49e+00	0	41	104	0	68	17240
2026-01-02 21:50:55.03	35.28	5.56	-48.8	-62.0	3.8	1.49e+00	0	42	104	0	68	17152
2026-01-02 21:50:58.04	35.61	5.72	-48.8	-62.0	3.8	1.49e+00	0	42	104	0	68	17162
2026-01-02 21:51:01.05	35.94	5.87	-48.8	-62.0	3.8	1.49e+00	0	42	104	0	68	17174
2026-01-02 21:51:04.06	36.28	6.03	-48.8	-62.0	3.8	1.49e+00	0	42	104	0	68	17121
2026-01-02 21:51:07.08	36.62	6.19	-48.8	-62.0	3.8	1.49e+00	0	42	104	0	68	17126
2026-01-02 21:51:10.09	36.96	6.34	-48.8	-61.9	3.8	1.49e+00	0	42	104	0	68	17070
2026-01-02 21:51:13.10	37.30	6.50	-48.8	-62.0	3.8	1.49e+00	0	42	104	0	68	17139
2026-01-02 21:51:16.12	37.65	6.65	-48.8	-61.9	3.8	1.49e+00	0	42	104	0	68	17053
2026-01-02 21:51:19.13	38.01	6.81	-48.8	-62.0	3.8	1.49e+00	0	42	104	0	68	17163
2026-01-02 21:51:22.14	38.36	6.96	-48.8	-62.0	3.8	1.49e+00	0	42	104	0	68	17089
2026-01-02 21:51:25.16	38.72	7.12	-48.8	-61.9	3.8	1.49e+00	0	42	104	0	68	16922
2026-01-02 21:51:28.17	39.09	7.27	-48.8	-61.7	3.8	1.49e+00	0	43	104	0	68	16644
2026-01-02 21:51:31.18	39.45	7.43	-48.8	-61.6	3.8	1.49e+00	0	42	104	0	68	16485
2026-01-02 21:51:34.19	39.82	7.59	-48.8	-61.6	3.8	1.49e+00	0	43	104	0	68	16359
2026-01-02 21:51:37.21	40.20	7.74	-48.8	-61.8	3.8	1.49e+00	0	43	104	0	68	16780
2026-01-02 21:51:40.22	40.58	7.90	-48.8	-61.8	3.8	1.49e+00	0	43	104	0	68	16717
2026-01-02 21:51:43.23	40.96	8.05	-48.7	-61.1	3.8	1.49e+00	0	43	104	0	68	15412
2026-01-02 21:51:46.25	41.35	8.21	-48.7	-60.9	3.8	1.49e+00	0	43	104	0	68	15140
2026-01-02 21:51:49.26	41.74	8.36	-48.7	-61.3	3.8	1.49e+00	0	43	104	0	68	15940
2026-01-02 21:51:52.28	42.13	8.52	-48.7	-61.4	3.8	1.49e+00	0	43	104	0	68	15952
2026-01-02 21:51:55.29	42.53	8.67	-48.7	-61.6	3.8	1.49e+00	0	43	104	0	68	16360
2026-01-02 21:51:58.30	42.94	8.83	-48.8	-61.6	3.8	1.49e+00	0	43	104	0	68	16473
2026-01-02 21:52:01.31	43.34	8.98	-48.2	-57.0	4.6	1.36e+00	0	43	104	0	68	9695
2026-01-02 21:52:04.24	43.74	9.13	-48.5	-61.5	3.8	1.49e+00	0	43	104	0	67	17116
2026-01-02 21:52:07.62	44.21	9.31	-42.8	-45.2	15.5	0.00e+00	0	43	0	0	57	4678
2026-01-02 21:52:10.34	44.59	9.44	-42.2	-44.4	16.3	0.00e+00	0	43	0	0	56	4532
2026-01-02 21:52:13.63	45.05	9.61	-41.2	-43.3	17.2	0.00e+00	0	43	0	0	54	4457
2026-01-02 21:52:16.58	45.47	9.76	-41.2	-43.3	17.3	0.00e+00	0	43	0	0	54	4451
2026-01-02 21:52:19.69	45.92	9.92	-41.2	-43.3	17.3	0.00e+00	0	43	0	0	54	4461
2026-01-02 21:52:22.99	46.40	10.08	-41.0	-43.0	17.6	0.00e+00	0	43	0	0	53	4569
2026-01-02 21:52:25.72	46.80	10.22	-40.9	-42.9	17.7	0.00e+00	0	43	0	0	53	4525
2026-01-02 21:52:29.02	47.29	10.38	-40.7	-42.7	17.9	0.00e+00	0	43	0	0	53	4410
2026-01-02 21:52:31.74	47.69	10.52	-40.6	-42.6	17.9	0.00e+00	0	43	0	0	53	4366
2026-01-02 21:52:35.03	48.19	10.68	-40.6	-42.6	18.0	0.00e+00	0	43	0	0	53	4367
2026-01-02 21:52:37.75	48.61	10.82	-40.7	-42.7	17.9	0.00e+00	0	43	0	0	53	4394
2026-01-02 21:52:41.08	49.12	10.98	-40.7	-42.7	17.8	0.00e+00	0	43	0	0	53	4409
2026-01-02 21:52:43.87	49.56	11.12	-40.7	-42.6	17.9	0.00e+00	0	43	0	0	53	4380
2026-01-02 21:52:47.23	50.08	11.28	-40.8	-42.8	17.8	0.00e+00	0	43	0	0	53	4446
2026-01-02 21:52:49.96	50.52	11.41	-40.7	-42.6	18.0	0.00e+00	0	44	0	0	53	4371
2026-01-02 21:52:53.25	51.05	11.57	-40.7	-42.6	17.9	0.00e+00	0	44	0	0	53	4384
2026-01-02 21:52:55.97	51.49	11.70	-41.0	-43.0	17.6	0.00e+00	0	43	0	0	53	4554
2026-01-02 21:52:59.26	52.02	11.85	-41.0	-43.0	17.6	0.00e+00	0	43	0	0	53	4572
2026-01-02 21:53:01.99	52.47	11.98	-41.0	-43.0	17.6	0.00e+00	0	44	0	0	53	4575
2026-01-02 21:53:05.28	53.02	12.14	-40.9	-42.9	17.7	0.00e+00	0	43	0	0	53	4530
2026-01-02 21:53:08.24	53.52	12.27	-40.8	-42.7	17.9	0.00e+00	0	43	0	0	53	4441
2026-01-02 21:53:12.22	54.20	12.45	-40.6	-42.6	18.1	0.00e+00	0	43	0	0	53	4345
2026-01-02 21:53:15.00	54.67	12.58	-40.6	-42.5	18.1	0.00e+00	0	44	0	0	53	4311
2026-01-02 21:53:18.64	55.30	12.74	-40.8	-42.7	17.9	0.00e+00	0	43	0	0	53	4437
2026-01-02 21:53:21.59	55.82	12.87	-40.8	-42.8	17.9	0.00e+00	0	43	0	0	53	4471
2026-01-02 21:53:24.60	56.35	13.00	-40.7	-42.7	18.0	0.00e+00	0	44	0	0	53	4424
2026-01-02 21:53:27.61	56.89	13.13	-40.7	-42.6	18.0	0.00e+00	0	44	0	0	53	4385
2026-01-02 21:53:30.61	57.43	13.26	-40.7	-42.6	18.0	0.00e+00	0	43	0	0	53	4385
2026-01-02 21:53:33.78	58.00	13.39	-40.7	-42.6	18.0	0.00e+00	0	43	0	0	53	4375
2026-01-02 21:53:36.72	58.54	13.52	-40.6	-42.6	18.1	0.00e+00	0	44	0	0	53	4348
2026-01-02 21:53:39.98	59.14	13.65	-40.4	-42.3	18.4	0.00e+00	0	43	0	0	52	4453
2026-01-02 21:53:42.85	59.67	13.77	-40.4	-42.3	18.4	0.00e+00	0	44	0	0	52	4453
2026-01-02 21:53:46.00	60.26	13.89	-40.3	-42.2	18.4	0.00e+00	0	44	0	0	52	4400
2026-01-02 21:53:48.86	60.80	14.00	-40.4	-42.3	18.4	0.00e+00	0	43	0	0	52	4478
2026-01-02 21:53:52.01	61.40	14.12	-40.2	-42.1	18.5	0.00e+00	0	44	0	0	52	4369
2026-01-02 21:53:54.88	61.95	14.23	-40.1	-42.0	18.6	0.00e+00	0	44	0	0	52	4318
2026-01-02 21:53:58.03	62.56	14.35	-40.3	-42.1	18.5	0.00e+00	0	44	0	0	52	4389
2026-01-02 21:54:00.89	63.12	14.45	-40.4	-42.4	18.4	0.00e+00	0	44	0	0	52	4496
2026-01-02 21:54:04.04	63.73	14.56	-40.1	-41.9	18.7	0.00e+00	0	44	0	0	52	4286
2026-01-02 21:54:06.91	64.30	14.66	-40.1	-41.9	18.7	0.00e+00	0	44	0	0	52	4290
2026-01-02 21:54:10.25	64.96	14.77	-40.2	-42.1	18.6	0.00e+00	0	43	0	0	52	4352
2026-01-02 21:54:13.15	65.54	14.87	-40.2	-42.0	18.6	0.00e+00	0	44	0	0	52	4324
2026-01-02 21:54:16.49	66.21	14.98	-40.0	-41.8	18.8	0.00e+00	0	43	0	0	52	4236
2026-01-02 21:54:19.40	66.80	15.07	-40.1	-42.0	18.8	0.00e+00	0	44	0	0	51	4557
2026-01-02 21:54:22.70	67.48	15.17	-40.4	-42.3	18.5	0.00e+00	0	44	0	0	51	4707
2026-01-02 21:54:25.52	68.05	15.25	-40.1	-42.0	18.8	0.00e+00	0	44	0	0	51	4550
2026-01-02 21:54:28.67	68.70	15.34	-40.0	-41.8	18.8	0.00e+00	0	44	0	0	51	4470
2026-01-02 21:54:31.53	69.30	15.42	-39.9	-41.7	19.0	0.00e+00	0	44	0	0	51	4425
2026-01-02 21:54:34.68	69.95	15.50	-40.0	-41.8	18.9	0.00e+00	0	43	0	0	51	4479
2026-01-02 21:54:37.64	70.58	15.57	-40.0	-41.9	18.9	0.00e+00	0	44	0	0	51	4500
2026-01-02 21:54:41.21	71.33	15.66	-40.1	-41.9	18.8	0.00e+00	0	44	0	0	51	4536
2026-01-02 21:54:43.98	71.91	15.72	-39.9	-41.7	19.0	0.00e+00	0	44	0	0	51	4417
2026-01-02 21:54:47.28	72.62	15.80	-39.9	-41.7	19.0	0.00e+00	0	44	0	0	51	4404
2026-01-02 21:54:50.01	73.20	15.86	-40.0	-41.8	19.0	0.00e+00	0	44	0	0	51	4456
2026-01-02 21:54:53.30	73.91	15.92	-39.9	-41.7	19.0	0.00e+00	0	44	0	0	51	4421
2026-01-02 21:54:56.03	74.49	15.97	-39.9	-41.7	19.1	0.00e+00	0	44	0	0	51	4393
2026-01-02 21:54:59.32	75.21	16.03	-39.9	-41.7	18.9	0.00e+00	0	44	0	0	51	4441
2026-01-02 21:55:02.05	75.80	16.08	-39.8	-41.6	19.2	0.00e+00	0	44	0	0	51	4360
2026-01-02 21:55:05.35	76.52	16.13	-39.8	-41.6	19.1	0.00e+00	0	44	0	0	51	4342
2026-01-02 21:55:08.31	77.16	16.17	-40.0	-41.8	18.8	0.00e+00	0	44	0	0	51	4488
2026-01-02 21:55:12.09	77.99	16.22	-40.1	-41.9	18.8	0.00e+00	0	44	0	0	51	4512
2026-01-02 21:55:14.90	78.61	16.25	-40.0	-41.8	18.8	0.00e+00	0	44	0	0	51	4477
2026-01-02 21:55:18.65	79.43	16.29	-40.0	-41.8	18.9	0.00e+00	0	44	0	0	51	4481
2026-01-02 21:55:21.63	80.09	16.32	-40.1	-41.9	18.8	0.00e+00	0	43	0	0	51	4510
2026-01-02 21:55:24.77	80.78	16.34	-39.9	-41.8	18.9	0.00e+00	0	44	0	0	51	4455
2026-01-02 21:55:27.63	81.42	16.36	-39.9	-41.7	19.0	0.00e+00	0	44	0	0	51	4418
2026-01-02 21:55:31.01	82.17	16.38	-40.0	-41.8	18.9	0.00e+00	0	44	0	0	51	4465
2026-01-02 21:55:33.72	82.77	16.39	-40.2	-42.0	18.7	0.00e+00	0	44	0	0	51	4584
2026-01-02 21:55:37.29	83.56	16.40	-40.0	-41.9	18.8	0.00e+00	0	44	0	0	51	4511
2026-01-02 21:55:40.01	84.17	16.41	-40.0	-41.9	18.8	0.00e+00	0	43	0	0	51	4519
2026-01-02 21:55:43.30	84.90	16.41	-39.9	-41.7	19.0	0.00e+00	0	44	0	0	51	4431
2026-01-02 21:55:46.04	85.51	16.41	-39.8	-41.6	19.1	0.00e+00	0	44	0	0	51	4391
2026-01-02 21:55:49.34	86.24	16.40	-39.9	-41.8	19.0	0.00e+00	0	44	0	0	51	4450
2026-01-02 21:55:52.15	86.86	16.39	-39.8	-41.6	19.1	0.00e+00	0	44	0	0	51	4389
2026-01-02 21:55:55.57	87.62	16.37	-39.9	-41.8	19.0	0.00e+00	0	43	0	0	51	4451
2026-01-02 21:55:58.30	88.23	16.36	-40.3	-42.2	18.6	0.00e+00	0	44	0	0	51	4660
2026-01-02 21:56:01.75	88.99	16.33	-39.9	-41.7	19.1	0.00e+00	0	44	0	0	51	4424
2026-01-02 21:56:04.47	89.59	16.31	-40.1	-42.0	18.7	0.00e+00	0	44	0	0	51	4571
2026-01-02 21:56:07.77	90.32	16.28	-40.3	-42.1	18.6	0.00e+00	0	44	0	0	51	4649
2026-01-02 21:56:10.49	90.92	16.25	-40.3	-42.1	18.6	0.00e+00	0	44	0	0	51	4643
2026-01-02 21:56:13.79	91.65	16.21	-39.9	-41.8	18.9	0.00e+00	0	43	0	0	51	4446
2026-01-02 21:56:16.51	92.24	16.18	-40.0	-41.8	19.0	0.00e+00	0	44	0	0	51	4455
2026-01-02 21:56:19.80	92.96	16.13	-40.0	-41.8	18.9	0.00e+00	0	44	0	0	51	4481
2026-01-02 21:56:22.60	93.57	16.09	-40.1	-42.0	18.7	0.00e+00	0	44	0	0	51	4550
2026-01-02 21:56:25.76	94.26	16.03	-40.0	-41.8	18.9	0.00e+00	0	44	0	0	51	4492
2026-01-02 21:56:28.62	94.88	15.98	-40.0	-41.8	18.9	0.00e+00	0	44	0	0	51	4457
2026-01-02 21:56:31.93	95.60	15.92	-40.0	-41.8	18.9	0.00e+00	0	44	0	0	51	4450
2026-01-02 21:56:34.65	96.18	15.87	-40.0	-41.8	18.9	0.00e+00	0	44	0	0	51	4488
2026-01-02 21:56:38.29	96.96	15.79	-40.0	-41.8	18.9	0.00e+00	0	44	0	0	51	4481
2026-01-02 21:56:41.14	97.57	15.73	-40.0	-41.8	19.0	0.00e+00	0	44	0	0	51	4447
2026-01-02 21:56:44.28	98.24	15.65	-39.8	-41.6	19.2	0.00e+00	0	44	0	0	51	4361
2026-01-02 21:56:47.13	98.84	15.58	-39.9	-41.7	19.1	0.00e+00	0	44	0	0	51	4407
2026-01-02 21:56:50.43	99.53	15.50	-39.8	-41.6	19.1	0.00e+00	0	44	0	0	51	4369
2026-01-02 21:56:53.33	100.14	15.42	-39.7	-41.5	19.2	0.00e+00	0	43	0	0	51	4306
2026-01-02 21:56:57.12	100.93	15.32	-40.0	-41.8	19.0	0.00e+00	0	44	0	0	51	4445
2026-01-02 21:56:59.90	101.50	15.24	-40.0	-41.8	19.0	0.00e+00	0	44	0	0	51	4474
2026-01-02 21:57:03.20	102.18	15.14	-39.9	-41.7	19.1	0.00e+00	0	44	0	0	51	4408
2026-01-02 21:57:05.92	102.74	15.06	-39.8	-41.6	19.2	0.00e+00	0	44	0	0	51	4344
2026-01-02 21:57:09.25	103.41	14.95	-39.8	-41.6	19.1	0.00e+00	0	43	0	0	51	4366
2026-01-02 21:57:11.97	103.96	14.86	-39.9	-41.7	19.1	0.00e+00	0	44	0	0	51	4405
2026-01-02 21:57:15.26	104.62	14.76	-39.9	-41.7	19.1	0.00e+00	0	44	0	0	51	4393
2026-01-02 21:57:17.98	105.17	14.66	-39.7	-41.5	19.2	0.00e+00	0	43	0	0	51	4313
2026-01-02 21:57:21.28	105.82	14.55	-39.9	-41.7	19.0	0.00e+00	0	43	0	0	51	4413
2026-01-02 21:57:24.00	106.35	14.45	-40.0	-41.8	18.9	0.00e+00	0	43	0	0	51	4482
2026-01-02 21:57:27.30	107.00	14.33	-40.1	-42.0	18.8	0.00e+00	0	44	0	0	51	4568
2026-01-02 21:57:30.02	107.53	14.23	-40.1	-41.9	18.8	0.00e+00	0	44	0	0	51	4526
2026-01-02 21:57:33.31	108.16	14.11	-40.1	-41.9	18.8	0.00e+00	0	44	0	0	51	4520
2026-01-02 21:57:36.35	108.74	13.99	-40.1	-41.9	18.8	0.00e+00	0	43	0	0	51	4522
2026-01-02 21:57:39.65	109.36	13.86	-40.4	-42.3	18.5	0.00e+00	0	43	0	0	51	4724
2026-01-02 21:57:42.42	109.88	13.75	-40.5	-42.4	18.4	0.00e+00	0	44	0	0	51	4770
2026-01-02 21:57:45.73	110.50	13.61	-40.6	-42.5	18.3	0.00e+00	0	44	0	0	51	4822
2026-01-02 21:57:48.50	111.01	13.50	-40.3	-42.2	18.4	0.00e+00	0	44	0	0	51	4697
2026-01-02 21:57:51.86	111.63	13.36	-40.3	-42.2	18.5	0.00e+00	0	44	0	0	51	4688
2026-01-02 21:57:54.58	112.12	13.24	-40.4	-42.4	18.4	0.00e+00	0	43	0	0	51	4763
2026-01-02 21:57:58.18	112.77	13.09	-40.6	-42.6	18.1	0.00e+00	0	44	0	0	52	4599
2026-01-02 21:58:01.01	113.28	12.96	-40.6	-42.6	18.1	0.00e+00	0	43	0	0	52	4600
2026-01-02 21:58:04.16	113.84	12.83	-40.4	-42.4	18.2	0.00e+00	0	43	0	0	52	4494
2026-01-02 21:58:07.15	114.36	12.69	-40.5	-42.4	18.1	0.00e+00	0	43	0	0	52	4513
2026-01-02 21:58:10.16	114.88	12.56	-40.7	-42.6	18.0	0.00e+00	0	43	0	0	52	4629
2026-01-02 21:58:13.17	115.40	12.42	-40.8	-42.8	17.9	0.00e+00	0	43	0	0	52	4712
2026-01-02 21:58:16.27	115.93	12.28	-40.8	-42.8	17.8	0.00e+00	0	43	0	0	52	4729
2026-01-02 21:58:19.57	116.49	12.12	-40.8	-42.8	17.8	0.00e+00	0	43	0	0	52	4727
2026-01-02 21:58:22.29	116.95	11.99	-40.7	-42.6	17.9	0.00e+00	0	44	0	0	52	4651
2026-01-02 21:58:25.59	117.50	11.84	-40.7	-42.7	17.9	0.00e+00	0	43	0	0	52	4674
2026-01-02 21:58:28.47	117.97	11.70	-40.8	-42.8	17.8	0.00e+00	0	43	0	0	52	4733
2026-01-02 21:58:31.84	118.52	11.54	-40.8	-42.8	17.8	0.00e+00	0	43	0	0	52	4713
2026-01-02 21:58:34.56	118.96	11.41	-40.9	-42.9	17.6	0.00e+00	0	43	0	0	52	4798
2026-01-02 21:58:37.85	119.48	11.25	-41.0	-43.0	17.5	0.00e+00	0	43	0	0	52	4858
2026-01-02 21:58:40.66	119.93	11.11	-40.8	-42.8	17.7	0.00e+00	0	43	0	0	52	4745
2026-01-02 21:58:43.81	120.42	10.95	-41.0	-43.0	17.5	0.00e+00	0	43	0	0	52	4850
2026-01-02 21:58:46.68	120.87	10.81	-41.0	-43.0	17.5	0.00e+00	0	43	0	0	52	4867
2026-01-02 21:58:50.05	121.38	10.64	-41.0	-43.0	17.5	0.00e+00	0	43	0	0	52	4859
2026-01-02 21:58:52.99	121.83	10.50	-41.1	-43.1	17.4	0.00e+00	0	43	0	0	52	4916
2026-01-02 21:58:56.29	122.33	10.33	-41.0	-43.1	17.4	0.00e+00	0	43	0	0	53	4599
2026-01-02 21:58:59.00	122.73	10.20	-41.1	-43.2	17.4	0.00e+00	0	43	0	0	53	4670
2026-01-02 21:59:02.31	123.22	10.03	-41.2	-43.3	17.3	0.00e+00	0	43	0	0	53	4717
2026-01-02 21:59:05.03	123.61	9.89	-41.1	-43.2	17.3	0.00e+00	0	43	0	0	53	4672
2026-01-02 21:59:08.30	124.09	9.72	-41.3	-43.3	17.2	0.00e+00	0	43	0	0	53	4740
2026-01-02 21:59:11.31	124.52	9.57	-41.3	-43.3	17.2	0.00e+00	0	43	0	0	53	4741
2026-01-02 21:59:14.31	124.94	9.41	-41.3	-43.4	17.1	0.00e+00	0	43	0	0	53	4796
2026-01-02 21:59:17.33	125.36	9.26	-41.4	-43.5	17.0	0.00e+00	0	43	0	0	53	4846
2026-01-02 21:59:20.34	125.78	9.10	-41.5	-43.7	16.8	0.00e+00	0	43	0	0	53	4935
2026-01-02 21:59:23.35	126.19	8.95	-49.7	-62.3	3.8	1.49e+00	0	43	104	0	69	16831
2026-01-02 21:59:26.37	126.60	8.79	-49.4	-62.5	3.8	1.49e+00	0	43	104	0	69	17214
2026-01-02 21:59:29.41	127.01	8.63	-49.6	-62.6	3.8	1.49e+00	0	43	104	0	69	17373
2026-01-02 21:59:32.51	127.42	8.47	-49.5	-62.7	3.8	1.49e+00	0	43	104	0	69	17571
2026-01-02 21:59:35.57	127.83	8.31	-49.3	-62.7	3.8	1.49e+00	0	43	104	0	70	16638
2026-01-02 21:59:38.59	128.22	8.16	-49.4	-62.7	3.8	1.49e+00	0	43	104	0	70	16588
2026-01-02 21:59:41.60	128.61	8.00	-49.5	-62.7	3.8	1.49e+00	0	43	104	0	70	16641
2026-01-02 21:59:44.61	128.99	7.84	-49.5	-62.7	3.8	1.49e+00	0	43	104	0	70	16593
2026-01-02 21:59:47.63	129.37	7.68	-49.4	-62.7	3.8	1.49e+00	0	43	104	0	70	16524
2026-01-02 21:59:50.64	129.75	7.53	-49.4	-62.6	3.8	1.49e+00	0	43	104	0	70	16499
2026-01-02 21:59:53.65	130.12	7.37	-49.4	-62.6	3.8	1.49e+00	0	43	104	0	70	16476
2026-01-02 21:59:56.66	130.49	7.21	-49.4	-62.6	3.8	1.49e+00	0	43	104	0	70	16474
2026-01-02 21:59:59.68	130.85	7.05	-49.4	-62.7	3.8	1.49e+00	0	43	104	0	70	16534
2026-01-02 22:00:02.69	131.21	6.90	-49.4	-62.6	3.8	1.49e+00	0	43	104	0	70	16440
2026-01-02 22:00:05.70	131.57	6.74	-49.4	-62.6	3.8	1.49e+00	0	43	104	0	70	16469
2026-01-02 22:00:08.71	131.92	6.58	-49.4	-62.6	3.8	1.49e+00	0	43	104	0	70	16456
2026-01-02 22:00:11.72	132.27	6.42	-49.4	-62.6	3.8	1.49e+00	0	43	104	0	70	16466
2026-01-02 22:00:14.74	132.62	6.27	-49.4	-62.6	3.8	1.49e+00	0	43	104	0	70	16473
2026-01-02 22:00:17.75	132.96	6.11	-49.4	-62.6	3.8	1.49e+00	0	43	104	0	70	16401
2026-01-02 22:00:20.76	133.30	5.95	-49.4	-62.6	3.8	1.49e+00	0	43	104	0	70	16392
2026-01-02 22:00:23.77	133.64	5.79	-49.4	-62.6	3.8	1.49e+00	0	43	104	0	70	16403
2026-01-02 22:00:26.79	133.97	5.64	-49.4	-62.6	3.8	1.49e+00	0	43	104	0	70	16472
2026-01-02 22:00:29.80	134.30	5.48	-49.4	-62.6	3.8	1.49e+00	0	43	104	0	70	16445
2026-01-02 22:00:32.82	134.62	5.32	-49.4	-62.6	3.8	1.49e+00	0	43	104	0	70	16415
2026-01-02 22:00:35.83	134.94	5.17	-49.4	-62.6	3.8	1.49e+00	0	43	104	0	70	16437
2026-01-02 22:00:38.84	135.26	5.01	-49.4	-62.6	3.8	1.49e+00	0	43	104	0	70	16432

#Closed at: 2026-01-02 22:00:40
#Recorded file [0 MB]: D:/Data/31040_260103_005045.dat