passes_logs/2026/01/02/T1/T1__20260102_053958_KHAYYAM_rec.log

#Pass ID: 20260102_053958_KHAYYAM
#Satellite: KHAYYAM
#Configuration: KHAYYAM_480M
#almurnet v.1.7.20251203
#Start time: 2026-01-02 05:40:00

#Version: 2.0.20230620
#Station: T1
#Location: 37.570604 lon 55.790049 lat
#TLE: 1 53370U 22096A   25365.91236145  .00003272  00000+0  13536-3 0  9993
#TLE: 2 53370  97.3565 268.1736 0001189  73.2664 286.8704 15.24655091189095

#Time	Az	El	Level	Level2	SNR	BER	BlckErr	Temp	State	Recorded	gain1	gain2
2026-01-02 05:40:00.26	61.13	5.29	-52.8	-57.3	3.6	0.00e+00	0	45	0	0	76	25273
2026-01-02 05:40:01.25	60.93	5.31	-52.8	-57.3	3.7	0.00e+00	0	45	104	0	76	25136
2026-01-02 05:40:02.26	60.72	5.33	-52.8	-57.3	3.7	0.00e+00	0	46	104	0	76	25232
2026-01-02 05:40:03.26	60.51	5.35	-52.8	-57.3	3.7	0.00e+00	0	46	104	0	76	25196
2026-01-02 05:40:04.26	60.30	5.37	-52.8	-57.3	3.7	0.00e+00	0	46	104	0	76	25169
2026-01-02 05:40:05.27	60.09	5.39	-52.8	-57.3	3.7	0.00e+00	0	46	104	0	76	25213
2026-01-02 05:40:06.27	59.88	5.41	-52.8	-57.3	3.7	0.00e+00	0	46	104	0	76	25222
2026-01-02 05:40:07.27	59.67	5.43	-52.8	-57.3	3.7	0.00e+00	0	46	104	0	76	25210
2026-01-02 05:40:08.28	59.46	5.45	-52.8	-57.3	3.7	0.00e+00	0	46	104	0	76	25185
2026-01-02 05:40:09.28	59.25	5.47	-52.8	-57.3	3.7	0.00e+00	0	46	104	0	76	25209
2026-01-02 05:40:10.29	59.03	5.49	-52.8	-57.3	3.7	0.00e+00	0	46	104	0	76	25227
2026-01-02 05:40:11.29	58.82	5.51	-52.8	-57.3	3.7	0.00e+00	0	47	104	0	76	25192
2026-01-02 05:40:12.30	58.61	5.53	-52.8	-57.3	3.7	0.00e+00	0	46	104	0	76	25202
2026-01-02 05:40:13.30	58.40	5.55	-52.8	-57.3	3.7	0.00e+00	0	47	104	0	76	25239
2026-01-02 05:40:14.30	58.18	5.57	-52.8	-57.3	3.7	0.00e+00	0	47	104	0	76	25266
2026-01-02 05:40:15.31	57.97	5.59	-52.8	-57.3	3.7	0.00e+00	0	47	104	0	76	25233
2026-01-02 05:40:16.31	57.76	5.60	-52.8	-57.3	3.7	0.00e+00	0	47	104	0	76	25214
2026-01-02 05:40:17.31	57.54	5.62	-52.8	-57.3	3.7	0.00e+00	0	47	104	0	76	25177
2026-01-02 05:40:18.32	57.33	5.64	-52.8	-57.3	3.7	0.00e+00	0	47	104	0	76	25204
2026-01-02 05:40:19.32	57.11	5.66	-52.8	-57.3	3.7	0.00e+00	0	47	104	0	76	25245
2026-01-02 05:40:20.33	56.90	5.67	-52.8	-57.3	3.7	0.00e+00	0	47	104	0	76	25243
2026-01-02 05:40:21.33	56.68	5.69	-52.8	-57.3	3.7	0.00e+00	0	47	104	0	76	25171
2026-01-02 05:40:22.33	56.47	5.70	-52.9	-57.3	3.7	0.00e+00	0	47	104	0	76	25309
2026-01-02 05:40:23.34	56.25	5.72	-52.9	-57.3	3.7	0.00e+00	0	47	104	0	76	25300
2026-01-02 05:40:24.34	56.03	5.74	-52.8	-57.3	3.7	0.00e+00	0	47	104	0	76	25231
2026-01-02 05:40:25.35	55.82	5.75	-52.8	-57.3	3.7	0.00e+00	0	47	104	0	76	25208
2026-01-02 05:40:26.35	55.60	5.76	-52.9	-57.3	3.7	0.00e+00	0	47	104	0	76	25201
2026-01-02 05:40:27.36	55.38	5.78	-52.8	-57.3	3.7	0.00e+00	0	48	104	0	76	25161
2026-01-02 05:40:28.36	55.17	5.79	-52.8	-57.3	3.7	0.00e+00	0	48	104	0	76	25194
2026-01-02 05:40:29.36	54.95	5.81	-52.8	-57.3	3.7	0.00e+00	0	48	104	0	76	25193
2026-01-02 05:40:30.37	54.73	5.82	-52.8	-57.3	3.7	0.00e+00	0	48	104	0	76	25276
2026-01-02 05:40:31.37	54.51	5.83	-52.8	-57.3	3.7	0.00e+00	0	48	104	0	76	25226
2026-01-02 05:40:32.38	54.29	5.85	-52.8	-57.3	3.7	0.00e+00	0	48	104	0	76	25272
2026-01-02 05:40:33.38	54.07	5.86	-52.8	-57.3	3.7	0.00e+00	0	48	104	0	76	25357
2026-01-02 05:40:34.38	53.86	5.87	-52.8	-57.3	3.7	0.00e+00	0	48	104	0	76	25228
2026-01-02 05:40:35.39	53.64	5.88	-52.8	-57.3	3.7	0.00e+00	0	48	104	0	76	25241
2026-01-02 05:40:36.39	53.42	5.90	-52.8	-57.3	3.7	0.00e+00	0	48	104	0	76	25311
2026-01-02 05:40:37.40	53.20	5.91	-52.8	-57.3	3.7	0.00e+00	0	48	104	0	76	25202
2026-01-02 05:40:38.40	52.98	5.92	-52.9	-57.3	3.7	0.00e+00	0	48	104	0	76	25267
2026-01-02 05:40:39.41	52.76	5.93	-52.8	-57.3	3.7	0.00e+00	0	48	104	0	76	25184
2026-01-02 05:40:40.41	52.54	5.94	-52.8	-57.3	3.7	0.00e+00	0	48	104	0	76	25214
2026-01-02 05:40:41.41	52.32	5.95	-52.8	-57.3	3.7	0.00e+00	0	48	104	0	76	25220
2026-01-02 05:40:42.42	52.09	5.96	-52.8	-57.3	3.7	0.00e+00	0	48	104	0	76	25216
2026-01-02 05:40:43.42	51.88	5.97	-52.8	-57.3	3.7	0.00e+00	0	48	104	0	76	25156
2026-01-02 05:40:44.43	51.65	5.98	-52.8	-57.3	3.7	0.00e+00	0	48	104	0	76	25260
2026-01-02 05:40:45.43	51.43	5.99	-52.9	-57.3	3.7	0.00e+00	0	48	104	0	76	25316
2026-01-02 05:40:46.43	51.21	6.00	-52.9	-57.3	3.7	0.00e+00	0	48	104	0	76	25277
2026-01-02 05:40:47.44	50.99	6.00	-52.9	-57.3	3.7	0.00e+00	0	48	104	0	76	25225
2026-01-02 05:40:48.44	50.77	6.01	-52.8	-57.3	3.7	0.00e+00	0	49	104	0	76	25350
2026-01-02 05:40:49.45	50.55	6.02	-52.8	-57.3	3.7	0.00e+00	0	49	104	0	76	25244
2026-01-02 05:40:50.45	50.32	6.03	-52.9	-57.3	3.7	0.00e+00	0	49	104	0	76	25222
2026-01-02 05:40:51.46	50.10	6.03	-52.8	-57.3	3.7	0.00e+00	0	49	104	0	76	25228
2026-01-02 05:40:52.46	49.88	6.04	-52.8	-57.3	3.7	0.00e+00	0	49	104	0	76	25237
2026-01-02 05:40:53.47	49.66	6.05	-52.9	-57.3	3.7	0.00e+00	0	49	104	0	76	25307
2026-01-02 05:40:54.47	49.43	6.05	-52.8	-57.3	3.7	0.00e+00	0	49	104	0	76	25211
2026-01-02 05:40:55.47	49.21	6.06	-52.8	-57.3	3.7	0.00e+00	0	49	104	0	76	25294
2026-01-02 05:40:56.48	48.99	6.06	-52.8	-57.3	3.7	0.00e+00	0	49	104	0	76	25224
2026-01-02 05:40:57.48	48.77	6.07	-52.8	-57.3	3.7	0.00e+00	0	49	104	0	76	25194
2026-01-02 05:40:58.49	48.54	6.07	-52.8	-57.3	3.7	0.00e+00	0	49	104	0	76	25346
2026-01-02 05:40:59.49	48.32	6.08	-52.8	-57.3	3.7	0.00e+00	0	49	104	0	76	25253
2026-01-02 05:41:00.50	48.10	6.08	-52.8	-57.3	3.7	0.00e+00	0	49	104	0	76	25269
2026-01-02 05:41:01.50	47.87	6.08	-52.8	-57.3	3.7	0.00e+00	0	49	104	0	76	25231
2026-01-02 05:41:02.51	47.65	6.09	-52.8	-57.3	3.7	0.00e+00	0	49	104	0	76	25227
2026-01-02 05:41:03.51	47.43	6.09	-52.8	-57.3	3.7	0.00e+00	0	49	104	0	76	25257
2026-01-02 05:41:04.51	47.21	6.09	-52.8	-57.3	3.7	0.00e+00	0	49	104	0	76	25296
2026-01-02 05:41:05.52	46.98	6.09	-52.8	-57.3	3.7	0.00e+00	0	49	104	0	76	25264
2026-01-02 05:41:06.52	46.76	6.10	-52.9	-57.3	3.7	0.00e+00	0	49	104	0	76	25213
2026-01-02 05:41:07.53	46.53	6.10	-52.8	-57.3	3.7	0.00e+00	0	49	104	0	76	25197
2026-01-02 05:41:08.53	46.31	6.10	-52.9	-57.3	3.7	0.00e+00	0	49	104	0	76	25253
2026-01-02 05:41:09.54	46.09	6.10	-52.9	-57.3	3.7	0.00e+00	0	49	104	0	76	25283
2026-01-02 05:41:10.54	45.86	6.10	-52.9	-57.3	3.7	0.00e+00	0	49	104	0	76	25266
2026-01-02 05:41:11.54	45.64	6.10	-52.9	-57.3	3.7	0.00e+00	0	49	104	0	76	25249
2026-01-02 05:41:12.55	45.42	6.10	-52.9	-57.3	3.7	0.00e+00	0	49	104	0	76	25277
2026-01-02 05:41:13.55	45.20	6.10	-52.9	-57.3	3.7	0.00e+00	0	49	104	0	76	25283
2026-01-02 05:41:14.56	44.97	6.10	-52.9	-57.3	3.7	0.00e+00	0	49	104	0	76	25217
2026-01-02 05:41:15.56	44.75	6.10	-52.8	-57.3	3.7	0.00e+00	0	49	104	0	76	25257
2026-01-02 05:41:16.57	44.52	6.10	-52.9	-57.3	3.7	0.00e+00	0	49	104	0	76	25321
2026-01-02 05:41:17.57	44.30	6.10	-52.9	-57.3	3.7	0.00e+00	0	49	104	0	76	25190
2026-01-02 05:41:18.58	44.08	6.09	-52.8	-57.3	3.7	0.00e+00	0	49	104	0	76	25237
2026-01-02 05:41:19.58	43.85	6.09	-52.9	-57.3	3.7	0.00e+00	0	49	104	0	76	25318
2026-01-02 05:41:20.58	43.63	6.09	-52.9	-57.3	3.7	0.00e+00	0	49	104	0	76	25261
2026-01-02 05:41:21.59	43.41	6.09	-52.9	-57.3	3.7	0.00e+00	0	49	104	0	76	25372
2026-01-02 05:41:22.59	43.19	6.08	-52.9	-57.3	3.7	0.00e+00	0	50	104	0	76	25252
2026-01-02 05:41:23.60	42.96	6.08	-52.9	-57.3	3.7	0.00e+00	0	49	104	0	76	25298
2026-01-02 05:41:24.60	42.74	6.07	-52.8	-57.3	3.7	0.00e+00	0	50	104	0	76	25315
2026-01-02 05:41:25.60	42.52	6.07	-52.9	-57.3	3.7	0.00e+00	0	49	104	0	76	25200
2026-01-02 05:41:26.61	42.29	6.07	-52.9	-57.3	3.7	0.00e+00	0	50	104	0	76	25316
2026-01-02 05:41:27.61	42.07	6.06	-52.8	-57.3	3.7	0.00e+00	0	50	104	0	76	25293
2026-01-02 05:41:28.62	41.85	6.05	-52.9	-57.3	3.7	0.00e+00	0	50	104	0	76	25328
2026-01-02 05:41:29.62	41.63	6.05	-52.9	-57.3	3.7	0.00e+00	0	50	104	0	76	25279
2026-01-02 05:41:30.63	41.40	6.04	-52.9	-57.3	3.7	0.00e+00	0	50	104	0	76	25292
2026-01-02 05:41:31.63	41.18	6.04	-52.8	-57.3	3.7	0.00e+00	0	50	104	0	76	25256
2026-01-02 05:41:32.63	40.96	6.03	-52.8	-57.3	3.7	0.00e+00	0	50	104	0	76	25254
2026-01-02 05:41:33.64	40.74	6.02	-52.8	-57.3	3.7	0.00e+00	0	50	104	0	76	25283
2026-01-02 05:41:34.64	40.52	6.02	-52.8	-57.3	3.7	0.00e+00	0	50	104	0	76	25337
2026-01-02 05:41:35.65	40.30	6.01	-52.9	-57.3	3.7	0.00e+00	0	50	104	0	76	25265
2026-01-02 05:41:36.65	40.08	6.00	-52.9	-57.3	3.7	0.00e+00	0	50	104	0	76	25278
2026-01-02 05:41:37.66	39.85	5.99	-52.9	-57.3	3.7	0.00e+00	0	50	104	0	76	25354
2026-01-02 05:41:38.66	39.63	5.98	-52.9	-57.3	3.7	0.00e+00	0	50	104	0	76	25245
2026-01-02 05:41:39.66	39.41	5.97	-52.8	-57.3	3.7	0.00e+00	0	50	104	0	76	25271
2026-01-02 05:41:40.67	39.19	5.96	-52.8	-57.3	3.7	0.00e+00	0	50	104	0	76	25238
2026-01-02 05:41:41.67	38.97	5.96	-52.9	-57.3	3.7	0.00e+00	0	50	104	0	76	25249
2026-01-02 05:41:42.67	38.75	5.95	-52.8	-57.3	3.7	0.00e+00	0	50	104	0	76	25214
2026-01-02 05:41:43.68	38.53	5.93	-52.8	-57.3	3.7	0.00e+00	0	50	104	0	76	25240
2026-01-02 05:41:44.68	38.31	5.92	-52.9	-57.3	3.7	0.00e+00	0	50	104	0	76	25315
2026-01-02 05:41:45.69	38.09	5.91	-52.9	-57.3	3.7	0.00e+00	0	50	104	0	76	25262
2026-01-02 05:41:46.69	37.87	5.90	-52.9	-57.3	3.7	0.00e+00	0	50	104	0	76	25309
2026-01-02 05:41:47.69	37.65	5.89	-52.9	-57.3	3.7	0.00e+00	0	50	104	0	76	25297
2026-01-02 05:41:48.70	37.43	5.88	-52.9	-57.3	3.7	0.00e+00	0	50	104	0	76	25244
2026-01-02 05:41:49.70	37.22	5.87	-52.9	-57.3	3.7	0.00e+00	0	50	104	0	76	25274
2026-01-02 05:41:50.71	37.00	5.85	-52.8	-57.3	3.7	0.00e+00	0	50	104	0	76	25282
2026-01-02 05:41:51.71	36.78	5.84	-52.9	-57.3	3.7	0.00e+00	0	50	104	0	76	25306
2026-01-02 05:41:52.71	36.56	5.83	-52.9	-57.3	3.7	0.00e+00	0	50	104	0	76	25312
2026-01-02 05:41:53.72	36.34	5.82	-52.9	-57.3	3.7	0.00e+00	0	50	104	0	76	25294
2026-01-02 05:41:54.72	36.13	5.80	-52.9	-57.3	3.7	0.00e+00	0	50	104	0	76	25292
2026-01-02 05:41:55.73	35.91	5.79	-52.9	-57.3	3.7	0.00e+00	0	50	104	0	76	25298
2026-01-02 05:41:56.73	35.69	5.77	-52.9	-57.3	3.7	0.00e+00	0	50	104	0	76	25267
2026-01-02 05:41:57.74	35.47	5.76	-52.9	-57.3	3.7	0.00e+00	0	50	104	0	76	25317
2026-01-02 05:41:58.74	35.26	5.74	-52.9	-57.3	3.7	0.00e+00	0	50	104	0	76	25230
2026-01-02 05:41:59.74	35.04	5.73	-52.8	-57.3	3.7	0.00e+00	0	50	104	0	76	25315
2026-01-02 05:42:00.75	34.83	5.71	-52.9	-57.3	3.7	0.00e+00	0	50	104	0	76	25352
2026-01-02 05:42:01.75	34.61	5.70	-52.9	-57.3	3.7	0.00e+00	0	50	104	0	76	25259
2026-01-02 05:42:02.75	34.40	5.68	-52.9	-57.3	3.7	0.00e+00	0	50	104	0	76	25329
2026-01-02 05:42:03.76	34.18	5.67	-52.9	-57.3	3.7	0.00e+00	0	50	104	0	76	25305
2026-01-02 05:42:04.76	33.97	5.65	-52.9	-57.3	3.7	0.00e+00	0	51	104	0	76	25299
2026-01-02 05:42:05.77	33.75	5.63	-52.9	-57.3	3.7	0.00e+00	0	50	104	0	76	25342
2026-01-02 05:42:06.77	33.54	5.61	-52.9	-57.3	3.7	0.00e+00	0	50	104	0	76	25275
2026-01-02 05:42:07.78	33.33	5.60	-52.8	-57.3	3.7	0.00e+00	0	50	104	0	76	25281
2026-01-02 05:42:08.78	33.11	5.58	-52.9	-57.3	3.7	0.00e+00	0	50	104	0	76	25280
2026-01-02 05:42:09.78	32.90	5.56	-52.8	-57.3	3.7	0.00e+00	0	50	104	0	76	25275
2026-01-02 05:42:10.79	32.69	5.54	-52.8	-57.3	3.7	0.00e+00	0	50	104	0	76	25298
2026-01-02 05:42:11.79	32.48	5.52	-52.9	-57.3	3.7	0.00e+00	0	50	104	0	76	25298
2026-01-02 05:42:12.80	32.26	5.50	-52.9	-57.3	3.7	0.00e+00	0	50	104	0	76	25305
2026-01-02 05:42:13.80	32.05	5.49	-52.9	-57.3	3.7	0.00e+00	0	50	104	0	76	25352
2026-01-02 05:42:14.80	31.84	5.47	-52.9	-57.3	3.7	0.00e+00	0	50	104	0	76	25215
2026-01-02 05:42:15.81	31.63	5.45	-52.9	-57.3	3.7	0.00e+00	0	50	104	0	76	25284
2026-01-02 05:42:16.81	31.42	5.43	-52.9	-57.3	3.7	0.00e+00	0	50	104	0	76	25303
2026-01-02 05:42:17.82	31.21	5.41	-52.8	-57.3	3.7	0.00e+00	0	50	104	0	76	25234
2026-01-02 05:42:18.82	31.00	5.39	-52.9	-57.3	3.7	0.00e+00	0	50	104	0	76	25259
2026-01-02 05:42:19.82	30.79	5.36	-52.9	-57.3	3.7	0.00e+00	0	50	104	0	76	25265
2026-01-02 05:42:20.83	30.58	5.34	-52.9	-57.4	3.7	0.00e+00	0	50	104	0	76	25390
2026-01-02 05:42:21.83	30.38	5.32	-52.9	-57.3	3.7	0.00e+00	0	50	104	0	76	25344
2026-01-02 05:42:22.84	30.17	5.30	-52.9	-57.3	3.6	0.00e+00	0	50	104	0	76	25348
2026-01-02 05:42:23.84	29.96	5.28	-52.9	-57.3	3.7	0.00e+00	0	50	104	0	76	25319
2026-01-02 05:42:24.85	29.75	5.26	-52.8	-57.3	3.7	0.00e+00	0	51	104	0	76	25361
2026-01-02 05:42:25.85	29.55	5.23	-52.9	-57.3	3.7	0.00e+00	0	50	104	0	76	25229
2026-01-02 05:42:26.85	29.34	5.21	-52.9	-57.3	3.7	0.00e+00	0	50	104	0	76	25285
2026-01-02 05:42:27.86	29.13	5.19	-52.9	-57.3	3.7	0.00e+00	0	51	104	0	76	25350
2026-01-02 05:42:28.86	28.93	5.16	-52.9	-57.3	3.7	0.00e+00	0	50	104	0	76	25335
2026-01-02 05:42:29.87	28.72	5.14	-52.9	-57.3	3.7	0.00e+00	0	51	104	0	76	25353
2026-01-02 05:42:30.87	28.52	5.12	-52.9	-57.3	3.7	0.00e+00	0	50	104	0	76	25228
2026-01-02 05:42:31.87	28.32	5.09	-52.9	-57.3	3.7	0.00e+00	0	51	104	0	76	25357
2026-01-02 05:42:32.88	28.11	5.07	-52.8	-57.3	3.7	0.00e+00	0	51	104	0	76	25255
2026-01-02 05:42:33.88	27.91	5.05	-52.8	-57.3	3.7	0.00e+00	0	51	104	0	76	25225
2026-01-02 05:42:34.89	27.71	5.02	-52.9	-57.3	3.7	0.00e+00	0	51	104	0	76	25269
2026-01-02 05:42:35.89	27.50	5.00	-52.9	-57.3	3.7	0.00e+00	0	51	104	0	76	25328
2026-01-02 05:42:36.90	27.30	4.97	-52.9	-57.3	3.7	0.00e+00	0	50	104	0	76	25243
2026-01-02 05:42:37.90	27.10	4.94	-52.9	-57.3	3.7	0.00e+00	0	50	104	0	76	25369
2026-01-02 05:42:38.90	26.90	4.92	-52.9	-57.4	3.7	0.00e+00	0	51	104	0	76	25386
2026-01-02 05:42:39.91	26.70	4.89	-52.9	-57.3	3.7	0.00e+00	0	51	104	0	76	25325
2026-01-02 05:42:40.91	26.50	4.87	-52.9	-57.3	3.7	0.00e+00	0	51	104	0	76	25316
2026-01-02 05:42:41.92	26.30	4.84	-52.9	-57.3	3.7	0.00e+00	0	51	104	0	76	25292
2026-01-02 05:42:42.92	26.10	4.81	-52.9	-57.3	3.7	0.00e+00	0	51	104	0	76	25338
2026-01-02 05:42:43.93	25.90	4.79	-52.9	-57.3	3.7	0.00e+00	0	51	104	0	76	25339
2026-01-02 05:42:44.93	25.70	4.76	-52.9	-57.4	3.7	0.00e+00	0	51	104	0	76	25438
2026-01-02 05:42:45.93	25.51	4.73	-52.9	-57.3	3.7	0.00e+00	0	51	104	0	76	25269
2026-01-02 05:42:46.94	25.31	4.71	-52.9	-57.4	3.7	0.00e+00	0	51	104	0	76	25391
2026-01-02 05:42:47.94	25.11	4.68	-52.9	-57.3	3.7	0.00e+00	0	50	104	0	76	25324

#Closed at: 2026-01-02 05:42:48
#Recorded file [0 MB]: D:/Data/31040_260102_084000.dat