passes_logs/2026/01/01/R2M6_AANII_01/R2M6_AANII_01__20260101_102954_SUOMI_NPP_rec.log

#Pass ID: 20260101_102954_SUOMI NPP
#Satellite: SUOMI NPP
#Configuration: NPP
#almurnet v.1.7.20240730
#Start time: 2026-01-01 10:29:55

#Version: 2.2.20231116
#Station: R2M6_AANII_01
#Location: 30.233357 lon 59.946436 lat
#TLE: 1 37849U 11061A   25364.87906317  .00000195  00000+0  11345-3 0  9992
#TLE: 2 37849  98.7794 302.0592 0002571  89.2401 270.9069 14.19520347734561

#Time	Az	El	Level	Level2	SNR	BER	BlckErr	Temp	State	Recorded	gain1	gain2
2026-01-01 10:29:55.32	163.56	7.06	-31.7	-37.5	4.6	1.39e+00	0	41	0	0	24	6995
2026-01-01 10:29:58.33	163.60	7.30	-31.6	-36.7	6.6	2.07e-01	0	41	0	1048576	24	6436
2026-01-01 10:30:01.34	163.63	7.53	-31.7	-36.9	6.5	2.14e-01	0	41	0	7340032	24	6561
2026-01-01 10:30:04.34	163.66	7.77	-31.3	-35.1	7.9	9.85e-02	0	41	0	12582912	24	5550
2026-01-01 10:30:07.35	163.70	8.01	-31.4	-35.5	7.5	9.34e-02	0	41	0	17825792	24	5764
2026-01-01 10:30:10.35	163.73	8.25	-31.5	-35.9	7.3	1.18e-01	0	41	0	24117248	24	5981
2026-01-01 10:30:13.36	163.77	8.50	-31.6	-36.2	7.0	1.18e-01	0	41	0	29360128	24	6148
2026-01-01 10:30:16.37	163.80	8.75	-31.3	-35.2	8.2	7.02e-02	0	41	0	35651584	23	5662
2026-01-01 10:30:19.38	163.84	9.00	-30.9	-33.7	9.4	1.96e-02	0	41	0	40894464	23	4976
2026-01-01 10:30:22.38	163.88	9.25	-30.7	-33.7	9.8	9.64e-03	0	42	0	46137344	22	5060
2026-01-01 10:30:25.40	163.91	9.51	-30.8	-33.8	9.8	9.71e-03	0	42	0	52428800	22	5118
2026-01-01 10:30:28.41	163.95	9.77	-30.7	-33.5	10.0	8.82e-03	0	41	0	57671680	22	4984
2026-01-01 10:30:31.40	163.99	10.03	-30.7	-33.6	9.9	7.73e-03	0	42	0	62914560	22	5032
2026-01-01 10:30:34.40	164.03	10.29	-30.8	-33.8	9.8	7.84e-03	0	42	0	69206016	22	5125
2026-01-01 10:30:37.39	164.07	10.55	-30.6	-33.4	10.2	8.91e-03	0	42	0	74448896	22	4932
2026-01-01 10:30:40.40	164.10	10.82	-30.5	-32.8	10.6	3.47e-03	0	42	0	80740352	22	4707
2026-01-01 10:30:43.41	164.15	11.10	-30.3	-32.3	11.1	2.11e-03	0	42	0	85983232	22	4494
2026-01-01 10:30:46.40	164.19	11.37	-30.3	-32.6	11.2	1.12e-03	0	42	0	91226112	21	4689
2026-01-01 10:30:49.40	164.23	11.65	-30.2	-32.2	11.5	8.37e-04	0	42	0	97517568	21	4536
2026-01-01 10:30:52.40	164.27	11.93	-30.2	-32.1	11.6	7.70e-04	0	42	0	102760448	21	4491
2026-01-01 10:30:55.41	164.31	12.22	-30.1	-31.9	11.7	7.12e-04	0	42	0	108003328	21	4438
2026-01-01 10:30:58.42	164.35	12.50	-30.0	-31.7	12.0	3.17e-04	0	42	0	114294784	21	4354
2026-01-01 10:31:01.43	164.40	12.80	-29.8	-31.1	12.4	2.12e-04	0	42	0	119537664	21	4145
2026-01-01 10:31:04.43	164.44	13.09	-29.8	-31.5	12.5	1.13e-04	0	42	0	125829120	20	4375
2026-01-01 10:31:07.43	164.49	13.39	-29.8	-31.4	12.6	8.31e-05	0	42	0	131072000	20	4338
2026-01-01 10:31:10.45	164.53	13.69	-29.7	-31.1	12.8	4.42e-05	0	42	0	136314880	20	4227
2026-01-01 10:31:13.46	164.58	14.00	-29.6	-30.8	13.0	2.89e-05	0	42	0	142606336	20	4127
2026-01-01 10:31:16.46	164.63	14.31	-29.4	-30.3	13.4	2.13e-05	0	43	0	147849216	20	3984
2026-01-01 10:31:19.47	164.68	14.63	-29.4	-30.6	13.6	7.60e-06	0	43	0	153092096	19	4140
2026-01-01 10:31:22.48	164.73	14.95	-29.3	-30.4	13.7	8.30e-06	0	43	0	159383552	19	4088
2026-01-01 10:31:25.48	164.78	15.27	-29.3	-30.4	13.7	1.50e-06	0	42	0	164626432	19	4086
2026-01-01 10:31:28.49	164.83	15.60	-29.3	-30.5	13.7	6.10e-06	0	42	0	170917888	19	4114
2026-01-01 10:31:31.50	164.88	15.93	-29.3	-30.3	13.8	4.50e-06	0	43	0	176160768	19	4075
2026-01-01 10:31:34.51	164.93	16.26	-29.3	-30.4	13.7	6.10e-06	0	43	0	181403648	19	4096
2026-01-01 10:31:37.52	164.99	16.61	-29.2	-30.2	13.9	1.50e-06	0	43	0	187695104	19	4029
2026-01-01 10:31:40.52	165.04	16.95	-29.3	-30.3	13.9	3.00e-06	0	43	0	192937984	19	4046
2026-01-01 10:31:43.53	165.10	17.30	-29.3	-30.2	13.9	3.00e-06	0	43	0	198180864	19	4030
2026-01-01 10:31:46.53	165.16	17.66	-29.1	-29.9	14.2	7.00e-07	0	43	0	204472320	19	3928
2026-01-01 10:31:49.55	165.21	18.02	-29.0	-29.4	14.4	7.00e-07	0	43	0	209715200	19	3799
2026-01-01 10:31:52.55	165.27	18.39	-29.1	-29.8	14.3	0.00e+00	0	43	0	216006656	19	3899
2026-01-01 10:31:55.55	165.33	18.76	-29.1	-29.9	14.2	0.00e+00	0	43	0	221249536	19	3913
2026-01-01 10:31:58.55	165.40	19.13	-29.2	-30.1	14.1	3.00e-06	0	43	0	226492416	19	3990
2026-01-01 10:32:01.55	165.46	19.52	-29.2	-30.1	14.1	7.00e-07	0	43	0	232783872	19	3968
2026-01-01 10:32:04.56	165.52	19.91	-29.3	-30.4	14.0	2.20e-06	0	43	0	238026752	19	4057
2026-01-01 10:32:07.57	165.59	20.30	-29.3	-30.2	14.1	1.50e-06	0	43	0	243269632	19	4005
2026-01-01 10:32:10.59	165.66	20.71	-29.4	-30.5	14.0	4.50e-06	0	43	0	249561088	19	4102
2026-01-01 10:32:13.58	165.73	21.11	-29.5	-30.8	13.7	9.10e-06	0	43	0	254803968	19	4187
2026-01-01 10:32:16.58	165.80	21.53	-29.6	-31.2	13.5	2.89e-05	0	43	0	261095424	19	4321
2026-01-01 10:32:19.59	165.87	21.95	-29.8	-31.6	13.2	2.67e-05	0	43	0	266338304	19	4446
2026-01-01 10:32:22.60	165.94	22.38	-29.9	-32.0	13.0	3.35e-05	0	43	0	271581184	19	4560
2026-01-01 10:32:25.62	166.02	22.82	-29.8	-31.6	13.3	3.50e-05	0	43	0	277872640	19	4443
2026-01-01 10:32:28.63	166.10	23.26	-29.9	-31.6	12.9	3.35e-05	0	43	0	283115520	20	4335
2026-01-01 10:32:31.64	166.18	23.72	-30.1	-31.9	12.7	9.15e-05	0	43	0	289406976	20	4432
2026-01-01 10:32:34.66	166.26	24.18	-30.2	-32.3	12.5	9.53e-05	0	43	0	294649856	20	4561
2026-01-01 10:32:37.66	166.34	24.64	-30.2	-32.3	12.5	6.79e-05	0	43	0	299892736	20	4567
2026-01-01 10:32:40.67	166.43	25.12	-30.1	-31.9	12.7	5.18e-05	0	43	0	306184192	20	4429
2026-01-01 10:32:43.68	166.52	25.61	-30.3	-32.5	12.3	1.43e-04	0	43	0	311427072	20	4654
2026-01-01 10:32:46.69	166.61	26.10	-30.4	-32.4	12.1	2.91e-04	0	43	0	316669952	21	4512
2026-01-01 10:32:49.70	166.70	26.61	-30.4	-32.3	12.1	3.33e-04	0	43	0	322961408	21	4495
2026-01-01 10:32:52.71	166.80	27.12	-30.3	-32.1	12.3	2.44e-04	0	43	0	328204288	21	4390
2026-01-01 10:32:55.72	166.90	27.64	-30.4	-32.4	12.1	3.51e-04	0	43	0	334495744	21	4491
2026-01-01 10:32:58.71	167.00	28.17	-30.5	-32.7	11.9	3.14e-04	0	43	0	339738624	21	4602
2026-01-01 10:33:01.71	167.10	28.72	-30.4	-32.2	12.2	4.32e-04	0	43	0	344981504	21	4432
2026-01-01 10:33:04.72	167.21	29.27	-30.1	-31.3	12.8	7.62e-05	0	43	0	351272960	21	4131
2026-01-01 10:33:07.72	167.33	29.83	-30.3	-32.0	12.4	1.25e-04	0	43	0	356515840	21	4370
2026-01-01 10:33:10.72	167.44	30.41	-30.8	-33.5	11.4	9.03e-04	0	43	0	361758720	21	4909
2026-01-01 10:33:13.74	167.56	31.00	-31.0	-33.5	11.0	1.82e-03	0	43	0	368050176	22	4826
2026-01-01 10:33:16.74	167.68	31.60	-31.2	-34.2	10.5	2.66e-03	0	43	0	373293056	22	5086
2026-01-01 10:33:19.74	167.81	32.21	-31.3	-34.5	10.3	5.81e-03	0	43	0	379584512	22	5197
2026-01-01 10:33:22.75	167.94	32.83	-31.3	-34.0	10.4	1.09e-02	0	43	0	384827392	23	4920
2026-01-01 10:33:25.78	168.08	33.48	-31.2	-33.8	10.6	3.00e-03	0	43	0	390070272	23	4839
2026-01-01 10:33:28.79	168.23	34.13	-31.1	-33.3	10.8	2.21e-03	0	43	0	396361728	23	4651
2026-01-01 10:33:31.79	168.37	34.79	-30.9	-32.8	11.3	3.34e-03	0	43	0	401604608	23	4463
2026-01-01 10:33:34.81	168.53	35.47	-29.4	-29.9	14.1	1.06e-05	0	43	0	406847488	20	3818
2026-01-01 10:33:37.81	168.69	36.17	-29.0	-29.4	14.8	4.50e-06	0	43	0	413138944	19	3778
2026-01-01 10:33:40.81	168.85	36.87	-29.1	-29.7	14.7	4.50e-06	0	43	0	418381824	19	3842
2026-01-01 10:33:43.83	169.03	37.60	-28.8	-29.0	15.1	6.80e-06	0	43	0	424673280	19	3665
2026-01-01 10:33:46.84	169.21	38.34	-28.5	-28.6	15.6	6.10e-06	0	43	0	429916160	18	3645
2026-01-01 10:33:49.84	169.40	39.10	-28.5	-29.3	15.5	5.30e-06	0	43	0	435159040	17	3911
2026-01-01 10:33:52.85	169.59	39.87	-28.9	-30.1	15.1	6.80e-06	0	43	0	441450496	17	4133
2026-01-01 10:33:55.85	169.80	40.66	-29.7	-31.0	13.9	1.29e-05	0	43	0	446693376	19	4222
2026-01-01 10:33:58.87	170.02	41.47	-30.2	-32.0	12.9	4.34e-05	0	43	0	451936256	20	4427
2026-01-01 10:34:01.88	170.25	42.30	-30.3	-31.9	12.5	1.17e-04	0	43	0	458227712	21	4329
2026-01-01 10:34:04.89	170.48	43.14	-30.1	-31.2	13.1	2.67e-05	0	43	0	463470592	21	4081
2026-01-01 10:34:07.90	170.74	44.01	-29.8	-31.0	13.5	7.60e-06	0	43	0	469762048	20	4124
2026-01-01 10:34:10.91	171.00	44.89	-29.8	-30.9	13.6	4.50e-06	0	43	0	475004928	20	4081
2026-01-01 10:34:13.92	171.28	45.79	-30.6	-32.7	12.1	1.29e-04	0	43	0	480247808	21	4579
2026-01-01 10:34:16.92	171.58	46.71	-31.0	-33.5	11.2	9.25e-04	0	43	0	486539264	22	4757
2026-01-01 10:34:19.92	171.89	47.65	-31.2	-33.9	11.0	1.77e-03	0	43	0	491782144	22	4920
2026-01-01 10:34:22.93	172.22	48.61	-30.8	-32.9	11.6	7.95e-04	0	43	0	498073600	22	4538
2026-01-01 10:34:25.94	172.57	49.59	-29.5	-30.1	14.1	1.06e-05	0	43	0	503316480	20	3865
2026-01-01 10:34:28.95	172.95	50.59	-28.1	-28.1	16.2	0.00e+00	0	43	0	508559360	17	3614
2026-01-01 10:34:31.96	173.35	51.62	-29.2	-30.3	14.8	0.00e+00	0	43	0	514850816	18	4085
2026-01-01 10:34:34.96	173.78	52.66	-29.7	-31.0	14.0	1.50e-06	0	43	0	520093696	19	4197
2026-01-01 10:34:37.97	174.24	53.72	-28.7	-29.0	15.5	0.00e+00	0	43	0	525336576	18	3738
2026-01-01 10:34:40.98	174.73	54.81	-28.8	-29.3	15.4	0.00e+00	0	43	0	531628032	18	3808
2026-01-01 10:34:43.97	175.26	55.91	-27.3	-26.8	17.3	0.00e+00	0	43	0	536870912	16	3398
2026-01-01 10:34:46.98	175.84	57.03	-27.1	-27.3	17.5	0.00e+00	0	43	0	543162368	14	3692
2026-01-01 10:34:49.99	176.46	58.18	-28.1	-28.6	16.2	0.00e+00	0	43	0	548405248	16	3821
2026-01-01 10:34:53.01	177.15	59.35	-27.8	-28.0	16.6	0.00e+00	0	43	0	553648128	16	3669
2026-01-01 10:34:56.02	177.89	60.53	-28.6	-29.2	15.6	0.00e+00	0	43	0	559939584	17	3889
2026-01-01 10:34:59.03	178.71	61.74	-28.3	-28.5	16.2	0.00e+00	0	43	0	565182464	17	3686
2026-01-01 10:35:02.02	179.60	62.95	-28.0	-27.8	16.6	0.00e+00	0	43	0	570425344	17	3530
2026-01-01 10:35:05.03	180.60	64.18	-29.2	-30.1	14.9	0.00e+00	0	43	0	576716800	18	4036
2026-01-01 10:35:08.04	181.70	65.43	-29.5	-30.6	14.4	7.00e-07	0	43	0	581959680	19	4084
2026-01-01 10:35:11.04	182.94	66.68	-28.5	-28.5	16.0	0.00e+00	0	43	0	588251136	18	3599
2026-01-01 10:35:14.04	184.32	67.94	-30.5	-32.7	12.6	3.12e-05	0	43	0	593494016	20	4658
2026-01-01 10:35:17.04	185.89	69.21	-30.3	-31.6	13.0	2.89e-05	0	43	0	598736896	21	4180
2026-01-01 10:35:20.05	187.69	70.48	-31.5	-34.3	10.5	1.10e-03	0	43	0	605028352	23	4987
2026-01-01 10:35:23.06	189.75	71.75	-31.4	-33.9	10.9	1.15e-03	0	43	0	610271232	23	4790
2026-01-01 10:35:26.06	192.12	73.00	-29.4	-30.1	14.8	7.00e-07	0	43	0	615514112	19	3938
2026-01-01 10:35:29.05	194.88	74.23	-31.3	-34.1	11.1	1.25e-03	0	43	0	621805568	22	4986
2026-01-01 10:35:32.06	198.14	75.44	-30.7	-32.8	12.3	8.54e-05	0	43	0	627048448	21	4588
2026-01-01 10:35:35.06	201.99	76.60	-31.6	-34.4	10.4	1.47e-03	0	43	0	632291328	23	4974
2026-01-01 10:35:38.06	206.57	77.70	-30.9	-32.4	11.9	1.06e-03	0	43	0	638582784	23	4260
2026-01-01 10:35:41.07	212.05	78.72	-31.1	-32.9	11.6	2.69e-03	0	43	0	643825664	23	4442
2026-01-01 10:35:44.09	218.60	79.63	-32.1	-35.9	9.0	1.29e-02	0	43	0	650117120	24	5562
2026-01-01 10:35:47.09	226.25	80.38	-31.2	-33.1	11.5	6.02e-04	0	43	0	655360000	23	4516
2026-01-01 10:35:50.10	235.07	80.94	-31.4	-33.8	11.0	1.83e-03	0	43	0	660602880	23	4740
2026-01-01 10:35:53.10	244.76	81.27	-30.5	-31.7	12.8	4.88e-05	0	43	0	666894336	22	4117
2026-01-01 10:35:56.12	254.96	81.33	-30.9	-33.5	12.0	2.83e-04	0	43	0	672137216	21	4804
2026-01-01 10:35:59.12	264.93	81.12	-32.6	-37.4	7.7	3.09e-02	0	43	0	678428672	25	6262
2026-01-01 10:36:02.13	274.21	80.67	-32.3	-36.1	8.3	7.39e-02	0	43	0	683671552	25	5594
2026-01-01 10:36:05.14	282.43	80.00	-32.5	-37.1	7.6	1.66e-02	0	44	0	688914432	25	6118
2026-01-01 10:36:08.15	289.48	79.16	-31.8	-34.2	9.6	1.99e-02	0	43	0	695205888	25	4777
2026-01-01 10:36:11.16	295.43	78.19	-30.3	-31.2	13.0	1.13e-04	0	43	0	700448768	22	3990
2026-01-01 10:36:14.17	300.41	77.13	-30.3	-31.1	13.0	3.99e-04	0	44	0	705691648	22	3958
2026-01-01 10:36:17.18	304.59	75.99	-29.1	-29.9	15.1	0.00e+00	0	43	0	711983104	18	3965
2026-01-01 10:36:20.19	308.11	74.80	-31.3	-34.1	10.9	2.75e-03	0	43	0	717225984	22	4990
2026-01-01 10:36:23.20	311.10	73.57	-29.6	-30.4	14.0	6.63e-05	0	43	0	723517440	20	3948
2026-01-01 10:36:26.21	313.65	72.33	-30.6	-32.6	12.4	0.00e+00	0	43	0	728760320	21	4520
2026-01-01 10:36:29.21	315.84	71.07	-32.3	-36.9	8.1	1.98e-02	0	43	0	734003200	24	6136
2026-01-01 10:36:32.22	317.75	69.80	-31.8	-35.1	9.3	2.35e-02	0	43	0	740294656	24	5215
2026-01-01 10:36:35.24	319.42	68.53	-32.3	-37.2	7.8	2.48e-02	0	43	0	745537536	24	6285
2026-01-01 10:36:38.24	320.89	67.27	-28.4	-28.4	15.9	0.00e+00	0	43	0	750780416	18	3575
2026-01-01 10:36:41.25	322.19	66.01	-29.4	-30.9	14.5	0.00e+00	0	43	0	757071872	18	4275
2026-01-01 10:36:44.26	323.35	64.76	-29.5	-30.1	14.2	9.10e-06	0	43	0	762314752	20	3849
2026-01-01 10:36:47.27	324.39	63.52	-30.3	-32.3	12.8	6.79e-05	0	43	0	768606208	20	4528
2026-01-01 10:36:50.29	325.34	62.30	-29.1	-29.9	15.0	0.00e+00	0	43	0	773849088	18	3983
2026-01-01 10:36:53.30	326.19	61.09	-28.9	-29.4	15.4	0.00e+00	0	43	0	779091968	18	3837
2026-01-01 10:36:56.31	326.96	59.90	-28.7	-29.0	15.7	0.00e+00	0	43	0	785383424	18	3720
2026-01-01 10:36:59.32	327.67	58.73	-31.8	-35.5	9.3	4.02e-03	0	43	0	790626304	23	5519
2026-01-01 10:37:02.33	328.32	57.58	-29.5	-30.0	14.2	1.44e-05	0	43	0	796917760	20	3837
2026-01-01 10:37:05.33	328.91	56.45	-29.1	-29.4	14.9	7.00e-07	0	43	0	802160640	19	3765
2026-01-01 10:37:08.35	329.47	55.33	-28.6	-28.9	15.5	0.00e+00	0	43	0	807403520	18	3709
2026-01-01 10:37:11.35	329.98	54.25	-28.9	-30.0	15.2	0.00e+00	0	43	0	813694976	17	4093
2026-01-01 10:37:14.36	330.45	53.18	-29.2	-29.8	14.7	1.50e-06	0	43	0	818937856	19	3857
2026-01-01 10:37:17.36	330.89	52.13	-29.6	-31.0	14.0	1.50e-06	0	43	0	824180736	19	4188
2026-01-01 10:37:20.37	331.31	51.10	-31.3	-34.6	10.4	5.82e-04	0	43	0	830472192	22	5211
2026-01-01 10:37:23.38	331.69	50.09	-30.4	-31.5	12.5	1.49e-03	0	43	0	835715072	22	4107
2026-01-01 10:37:26.38	332.06	49.11	-30.8	-33.2	11.7	1.81e-04	0	43	0	842006528	21	4772
2026-01-01 10:37:29.39	332.40	48.14	-31.5	-34.9	10.1	3.10e-03	0	43	0	847249408	22	5359
2026-01-01 10:37:32.40	332.72	47.19	-30.9	-33.2	11.5	3.35e-04	0	43	0	852492288	22	4666
2026-01-01 10:37:35.42	333.02	46.26	-31.6	-35.0	9.6	9.85e-03	0	43	0	858783744	23	5337
2026-01-01 10:37:38.43	333.31	45.36	-30.9	-32.7	11.3	2.43e-03	0	43	0	864026624	23	4423
2026-01-01 10:37:41.44	333.58	44.47	-29.3	-29.6	14.3	4.50e-06	0	43	0	869269504	20	3745
2026-01-01 10:37:44.46	333.84	43.60	-30.2	-32.2	12.6	1.75e-05	0	43	0	875560960	20	4532
2026-01-01 10:37:47.45	334.09	42.75	-30.8	-32.8	11.5	3.03e-03	0	43	0	880803840	22	4549
2026-01-01 10:37:50.46	334.32	41.92	-29.2	-29.8	14.6	0.00e+00	0	43	0	887095296	19	3875
2026-01-01 10:37:53.46	334.54	41.11	-29.1	-30.2	14.7	0.00e+00	0	43	0	892338176	18	4073
2026-01-01 10:37:56.47	334.75	40.31	-30.1	-31.8	12.8	5.56e-05	0	43	0	897581056	20	4391
2026-01-01 10:37:59.47	334.95	39.54	-29.2	-29.9	14.4	0.00e+00	0	43	0	903872512	19	3907
2026-01-01 10:38:02.48	335.15	38.78	-30.4	-32.7	12.3	8.62e-05	0	43	0	909115392	20	4691
2026-01-01 10:38:05.49	335.33	38.03	-30.4	-32.3	12.1	3.46e-04	0	43	0	914358272	21	4464
2026-01-01 10:38:08.50	335.51	37.30	-30.4	-32.3	12.3	8.31e-05	0	43	0	920649728	21	4458
2026-01-01 10:38:11.51	335.68	36.59	-31.3	-34.4	10.4	1.11e-03	0	44	0	925892608	22	5185
2026-01-01 10:38:14.51	335.85	35.89	-30.9	-33.3	11.1	4.67e-03	0	43	0	932184064	22	4737
2026-01-01 10:38:17.52	336.00	35.21	-30.0	-31.0	13.0	5.49e-05	0	43	0	937426944	21	4062
2026-01-01 10:38:20.54	336.16	34.53	-30.0	-31.1	12.9	4.50e-05	0	43	0	942669824	21	4091
2026-01-01 10:38:23.54	336.30	33.88	-31.1	-34.0	10.5	2.08e-03	0	43	0	948961280	22	5025
2026-01-01 10:38:26.55	336.44	33.24	-31.8	-35.8	8.8	4.32e-02	0	43	0	954204160	23	5719
2026-01-01 10:38:29.56	336.58	32.61	-31.9	-35.7	8.5	3.70e-02	0	43	0	959447040	24	5618
2026-01-01 10:38:32.58	336.71	31.99	-31.5	-34.1	9.7	1.56e-02	0	43	0	965738496	24	4909
2026-01-01 10:38:35.59	336.84	31.39	-30.1	-31.3	12.7	3.52e-04	0	43	0	970981376	21	4144
2026-01-01 10:38:38.58	336.96	30.80	-29.6	-30.5	13.7	1.29e-05	0	43	0	977272832	20	3980
2026-01-01 10:38:41.60	337.08	30.22	-29.3	-29.7	14.1	2.20e-06	0	43	0	982515712	20	3772
2026-01-01 10:38:44.61	337.19	29.65	-29.3	-30.1	14.2	1.50e-06	0	43	0	987758592	19	3970
2026-01-01 10:38:47.62	337.30	29.09	-29.9	-31.4	13.0	3.20e-05	0	43	0	994050048	20	4268
2026-01-01 10:38:50.63	337.41	28.54	-30.6	-33.0	11.6	6.69e-04	0	44	0	999292928	21	4727
2026-01-01 10:38:53.63	337.52	28.01	-31.1	-34.2	10.3	5.82e-03	0	43	0	1005584384	22	5111
2026-01-01 10:38:56.64	337.62	27.48	-31.1	-33.9	10.4	4.81e-03	0	44	0	1010827264	22	5004
2026-01-01 10:38:59.65	337.72	26.97	-30.2	-31.8	12.3	1.81e-04	0	43	0	1016070144	21	4315
2026-01-01 10:39:02.66	337.81	26.46	-29.6	-30.5	13.4	1.83e-05	0	43	0	1022361600	20	4020
2026-01-01 10:39:05.66	337.91	25.96	-28.8	-28.9	14.9	7.00e-07	0	43	0	1027604480	19	3656
2026-01-01 10:39:08.67	338.00	25.48	-28.7	-29.1	15.0	0.00e+00	0	44	0	1032847360	18	3796
2026-01-01 10:39:11.68	338.09	25.00	-28.4	-28.5	15.4	0.00e+00	0	43	0	1039138816	18	3632
2026-01-01 10:39:14.69	338.18	24.53	-28.3	-28.8	15.5	0.00e+00	0	43	0	1044381696	17	3806
2026-01-01 10:39:17.70	338.26	24.06	-28.2	-28.6	15.6	0.00e+00	0	43	0	1050673152	17	3751
2026-01-01 10:39:20.71	338.34	23.61	-28.3	-28.9	15.4	0.00e+00	0	43	0	1055916032	17	3828
2026-01-01 10:39:23.72	338.42	23.16	-28.3	-28.7	15.4	0.00e+00	0	43	0	1061158912	17	3795
2026-01-01 10:39:26.72	338.50	22.72	-28.7	-29.9	14.8	0.00e+00	0	43	0	1067450368	17	4108
2026-01-01 10:39:29.73	338.58	22.29	-29.2	-30.4	14.1	7.00e-07	0	43	0	1072693248	18	4171
2026-01-01 10:39:32.75	338.65	21.87	-28.9	-29.7	14.7	0.00e+00	0	43	0	1077936128	18	3946
2026-01-01 10:39:35.76	338.73	21.45	-28.5	-28.8	15.1	0.00e+00	0	43	0	1084227584	18	3725
2026-01-01 10:39:38.77	338.80	21.04	-28.1	-28.2	15.7	0.00e+00	0	43	0	1089470464	17	3670
2026-01-01 10:39:41.77	338.87	20.64	-28.2	-28.5	15.6	0.00e+00	0	43	0	1095761920	17	3741
2026-01-01 10:39:44.78	338.94	20.24	-28.4	-29.1	15.2	0.00e+00	0	43	0	1101004800	17	3879
2026-01-01 10:39:47.79	339.00	19.85	-28.5	-29.2	15.0	0.00e+00	0	43	0	1106247680	17	3924
2026-01-01 10:39:50.79	339.07	19.46	-28.8	-30.0	14.6	7.00e-07	0	43	0	1112539136	17	4148
2026-01-01 10:39:53.80	339.13	19.08	-28.5	-29.2	15.1	0.00e+00	0	43	0	1117782016	17	3937
2026-01-01 10:39:56.81	339.20	18.71	-28.3	-28.7	15.3	0.00e+00	0	43	0	1123024896	17	3793
2026-01-01 10:39:59.82	339.26	18.34	-28.4	-29.1	15.2	0.00e+00	0	44	0	1129316352	17	3889
2026-01-01 10:40:02.82	339.32	17.98	-28.6	-29.6	14.8	0.00e+00	0	43	0	1134559232	17	4033
2026-01-01 10:40:05.83	339.38	17.62	-28.8	-30.0	14.5	0.00e+00	0	43	0	1140850688	17	4162
2026-01-01 10:40:08.85	339.44	17.27	-29.3	-30.8	13.8	3.00e-06	0	43	0	1146093568	18	4299
2026-01-01 10:40:11.86	339.50	16.92	-29.4	-30.7	13.5	1.67e-05	0	43	0	1151336448	19	4183
2026-01-01 10:40:14.86	339.55	16.58	-29.5	-30.9	13.4	1.44e-05	0	43	0	1157627904	19	4225
2026-01-01 10:40:17.87	339.61	16.24	-29.6	-31.1	13.2	2.82e-05	0	43	0	1162870784	19	4299
2026-01-01 10:40:20.88	339.66	15.91	-29.8	-31.6	12.9	2.82e-05	0	43	0	1169162240	19	4473
2026-01-01 10:40:23.90	339.72	15.58	-29.7	-31.4	13.0	5.64e-05	0	43	0	1174405120	19	4404
2026-01-01 10:40:26.90	339.77	15.25	-29.7	-31.6	12.9	3.66e-05	0	43	0	1179648000	19	4454
2026-01-01 10:40:29.91	339.82	14.93	-29.9	-32.0	12.6	8.16e-05	0	43	0	1185939456	19	4611
2026-01-01 10:40:32.92	339.87	14.62	-29.8	-31.8	12.7	1.17e-04	0	43	0	1191182336	19	4524
2026-01-01 10:40:35.92	339.92	14.31	-29.9	-31.6	12.4	1.59e-04	0	44	0	1196425216	20	4387
2026-01-01 10:40:38.92	339.97	14.00	-29.9	-31.5	12.4	1.03e-04	0	43	0	1202716672	20	4372
2026-01-01 10:40:41.94	340.02	13.69	-30.0	-32.1	12.0	2.58e-04	0	43	0	1207959552	20	4562
2026-01-01 10:40:44.96	340.07	13.39	-30.1	-32.3	11.8	3.73e-04	0	43	0	1214251008	20	4647
2026-01-01 10:40:47.96	340.12	13.10	-30.1	-32.3	11.8	3.98e-04	0	43	0	1219493888	20	4631
2026-01-01 10:40:50.98	340.16	12.80	-29.9	-31.8	12.2	2.34e-04	0	43	0	1224736768	20	4467
2026-01-01 10:40:53.98	340.21	12.52	-29.8	-31.4	12.4	1.46e-04	0	43	0	1231028224	20	4352
2026-01-01 10:40:57.00	340.25	12.23	-29.8	-31.6	12.3	1.50e-04	0	44	0	1236271104	20	4404
2026-01-01 10:41:00.01	340.30	11.94	-29.9	-31.8	12.1	2.59e-04	0	43	0	1241513984	20	4481
2026-01-01 10:41:03.02	340.34	11.67	-29.8	-31.4	12.3	2.98e-04	0	43	0	1247805440	20	4362
2026-01-01 10:41:06.02	340.39	11.39	-29.9	-31.9	12.0	3.23e-04	0	43	0	1253048320	20	4526
2026-01-01 10:41:09.03	340.43	11.12	-29.9	-31.9	12.0	4.16e-04	0	43	0	1259339776	20	4514
2026-01-01 10:41:12.04	340.47	10.85	-30.0	-32.0	11.8	4.33e-04	0	43	0	1264582656	20	4560
2026-01-01 10:41:15.05	340.51	10.58	-30.0	-32.1	11.8	3.45e-04	0	43	0	1269825536	20	4601
2026-01-01 10:41:18.06	340.56	10.31	-30.1	-32.5	11.5	6.43e-04	0	43	0	1276116992	20	4726
2026-01-01 10:41:21.07	340.60	10.05	-29.9	-32.0	11.8	4.05e-04	0	43	0	1281359872	20	4573
2026-01-01 10:41:24.08	340.64	9.79	-29.9	-31.9	11.8	3.52e-04	0	43	0	1287651328	20	4541
2026-01-01 10:41:27.09	340.68	9.54	-29.8	-31.7	12.0	2.99e-04	0	43	0	1292894208	20	4460
2026-01-01 10:41:30.10	340.72	9.28	-29.7	-31.3	12.3	2.97e-04	0	43	0	1298137088	20	4324
2026-01-01 10:41:33.11	340.76	9.03	-29.5	-30.9	12.5	1.50e-04	0	43	0	1304428544	20	4212
2026-01-01 10:41:36.11	340.79	8.78	-29.5	-30.8	12.5	1.10e-04	0	43	0	1309671424	20	4186
2026-01-01 10:41:39.12	340.83	8.54	-29.6	-31.0	12.4	1.56e-04	0	43	0	1314914304	20	4239
2026-01-01 10:41:42.13	340.87	8.29	-29.7	-31.2	12.2	1.63e-04	0	43	0	1321205760	20	4326
2026-01-01 10:41:45.14	340.91	8.05	-29.7	-31.4	12.0	3.47e-04	0	43	0	1326448640	20	4383
2026-01-01 10:41:48.15	340.94	7.81	-29.4	-30.6	12.5	1.15e-04	0	44	0	1332740096	20	4136
2026-01-01 10:41:51.16	340.98	7.58	-29.5	-30.8	12.4	1.13e-04	0	43	0	1337982976	20	4190
2026-01-01 10:41:54.17	341.02	7.34	-29.5	-31.2	12.5	1.06e-04	0	43	0	1343225856	19	4402
2026-01-01 10:41:57.17	341.05	7.11	-30.0	-32.4	11.4	2.54e-04	0	43	0	1349517312	20	4756

#Closed at: 2026-01-01 10:42:00
#Recorded file [1349 MB]: D:/data/31010_260101_132957.dat