passes_logs/2026/01/01/R2M6_AANII_01/R2M6_AANII_01__20260101_223828_SUOMI_NPP_rec.log

#Pass ID: 20260101_223828_SUOMI NPP
#Satellite: SUOMI NPP
#Configuration: NPP
#almurnet v.1.7.20240730
#Start time: 2026-01-01 22:38:30

#Version: 2.2.20231116
#Station: R2M6_AANII_01
#Location: 30.233357 lon 59.946436 lat
#TLE: 1 37849U 11061A   26001.07732418  .00000182  00000+0  10735-3 0  9990
#TLE: 2 37849  98.7795 303.2470 0002580  87.2016 272.9455 14.19520779734739

#Time	Az	El	Level	Level2	SNR	BER	BlckErr	Temp	State	Recorded	gain1	gain2
2026-01-01 22:38:30.46	32.12	7.11	-31.5	-38.8	4.2	1.40e+00	0	40	0	0	23	8343
2026-01-01 22:38:33.46	32.44	7.28	-31.7	-39.5	4.8	8.52e-01	0	41	0	1048576	23	8893
2026-01-01 22:38:36.46	32.75	7.46	-31.7	-39.7	4.7	8.10e-01	0	41	0	7340032	23	8972
2026-01-01 22:38:39.48	33.08	7.64	-31.8	-39.8	4.7	8.62e-01	0	41	0	12582912	23	9074
2026-01-01 22:38:42.48	33.40	7.82	-31.7	-38.8	5.3	5.94e-01	0	41	0	17825792	23	8157
2026-01-01 22:38:45.48	33.73	8.00	-31.6	-37.9	5.9	3.79e-01	0	41	0	24117248	23	7466
2026-01-01 22:38:48.49	34.06	8.18	-31.6	-38.0	5.7	4.55e-01	0	41	0	29360128	23	7481
2026-01-01 22:38:51.50	34.40	8.36	-31.1	-35.8	7.8	8.55e-02	0	41	0	35651584	22	6171
2026-01-01 22:38:54.51	34.74	8.55	-30.5	-33.9	9.6	1.25e-02	0	41	0	40894464	21	5281
2026-01-01 22:38:57.53	35.09	8.73	-29.9	-32.3	11.1	1.74e-03	0	41	0	46137344	20	4745
2026-01-01 22:39:00.54	35.44	8.91	-29.9	-32.2	11.4	9.13e-04	0	41	0	52428800	20	4667
2026-01-01 22:39:03.53	35.79	9.10	-29.9	-32.0	11.6	9.50e-04	0	41	0	57671680	20	4583
2026-01-01 22:39:06.54	36.15	9.28	-29.8	-32.1	11.9	4.74e-04	0	42	0	62914560	19	4712
2026-01-01 22:39:09.55	36.51	9.46	-29.7	-32.0	12.0	3.90e-04	0	42	0	69206016	19	4681
2026-01-01 22:39:12.57	36.88	9.65	-29.6	-31.7	12.2	1.80e-04	0	42	0	74448896	19	4562
2026-01-01 22:39:15.56	37.25	9.83	-29.7	-31.8	12.3	1.40e-04	0	42	0	80740352	19	4592
2026-01-01 22:39:18.56	37.62	10.02	-29.6	-31.6	12.4	1.05e-04	0	42	0	85983232	19	4526
2026-01-01 22:39:21.57	38.00	10.20	-29.7	-31.8	12.3	1.82e-04	0	42	0	91226112	19	4585
2026-01-01 22:39:24.59	38.39	10.39	-29.6	-31.7	12.4	1.68e-04	0	42	0	97517568	19	4549
2026-01-01 22:39:27.60	38.78	10.58	-29.8	-32.1	12.0	2.38e-04	0	42	0	102760448	19	4711
2026-01-01 22:39:30.61	39.17	10.76	-29.9	-31.9	11.8	5.85e-04	0	42	0	109051904	20	4556
2026-01-01 22:39:33.60	39.57	10.95	-29.9	-31.9	11.9	4.36e-04	0	42	0	114294784	20	4529
2026-01-01 22:39:36.61	39.98	11.14	-30.0	-32.1	11.7	5.06e-04	0	42	0	119537664	20	4610
2026-01-01 22:39:39.62	40.39	11.32	-29.8	-31.6	12.1	3.28e-04	0	42	0	125829120	20	4435
2026-01-01 22:39:42.63	40.80	11.51	-29.7	-31.4	12.2	2.47e-04	0	42	0	131072000	20	4366
2026-01-01 22:39:45.63	41.22	11.70	-29.7	-31.3	12.3	2.05e-04	0	42	0	136314880	20	4337
2026-01-01 22:39:48.63	41.64	11.88	-29.5	-30.8	12.7	8.01e-05	0	42	0	142606336	20	4170
2026-01-01 22:39:51.63	42.07	12.07	-29.4	-30.8	13.0	2.82e-05	0	42	0	147849216	19	4232
2026-01-01 22:39:54.63	42.51	12.26	-29.3	-30.5	13.3	3.35e-05	0	42	0	153092096	19	4157
2026-01-01 22:39:57.63	42.95	12.44	-29.5	-31.1	12.9	5.49e-05	0	42	0	159383552	19	4320
2026-01-01 22:40:00.63	43.39	12.63	-29.8	-31.9	12.3	1.75e-04	0	42	0	164626432	19	4614
2026-01-01 22:40:03.64	43.84	12.82	-29.7	-31.6	12.6	8.69e-05	0	42	0	170917888	19	4500
2026-01-01 22:40:06.65	44.30	13.01	-29.8	-31.8	12.5	1.25e-04	0	42	0	176160768	19	4580
2026-01-01 22:40:09.66	44.77	13.19	-29.4	-30.8	13.2	3.73e-05	0	42	0	181403648	19	4225
2026-01-01 22:40:12.67	45.23	13.38	-29.6	-31.4	12.8	4.57e-05	0	42	0	187695104	19	4427
2026-01-01 22:40:15.67	45.71	13.56	-29.8	-32.0	12.4	1.39e-04	0	42	0	192937984	19	4618
2026-01-01 22:40:18.68	46.19	13.75	-29.8	-31.8	12.6	9.30e-05	0	43	0	198180864	19	4537
2026-01-01 22:40:21.70	46.68	13.94	-29.7	-31.6	12.8	4.95e-05	0	43	0	204472320	19	4465
2026-01-01 22:40:24.71	47.17	14.12	-29.8	-31.8	12.6	5.11e-05	0	42	0	209715200	19	4553
2026-01-01 22:40:27.72	47.67	14.31	-29.9	-31.8	12.2	1.61e-04	0	42	0	216006656	20	4462
2026-01-01 22:40:30.73	48.17	14.49	-29.8	-32.0	12.5	1.22e-04	0	43	0	221249536	19	4602
2026-01-01 22:40:33.75	48.69	14.67	-29.5	-30.9	13.2	2.05e-05	0	43	0	226492416	19	4260
2026-01-01 22:40:36.76	49.20	14.86	-29.3	-30.5	13.5	1.44e-05	0	43	0	232783872	19	4133
2026-01-01 22:40:39.76	49.72	15.04	-29.3	-30.5	13.5	1.14e-05	0	42	0	238026752	19	4163
2026-01-01 22:40:42.77	50.25	15.22	-29.4	-30.7	13.2	1.44e-05	0	43	0	244318208	19	4188
2026-01-01 22:40:45.77	50.79	15.40	-29.5	-31.1	13.0	2.51e-05	0	43	0	249561088	19	4297
2026-01-01 22:40:48.78	51.33	15.58	-29.5	-30.9	13.3	1.52e-05	0	43	0	254803968	19	4236
2026-01-01 22:40:51.79	51.88	15.76	-29.4	-30.7	13.4	2.82e-05	0	43	0	261095424	19	4175
2026-01-01 22:40:54.80	52.43	15.93	-29.4	-31.2	13.4	1.14e-05	0	43	0	266338304	18	4426
2026-01-01 22:40:57.80	52.99	16.11	-29.5	-31.4	13.3	1.22e-05	0	43	0	271581184	18	4481
2026-01-01 22:41:00.80	53.56	16.28	-29.6	-31.3	13.1	4.11e-05	0	43	0	277872640	19	4376
2026-01-01 22:41:03.81	54.13	16.45	-29.7	-31.4	13.0	6.40e-04	0	43	0	283115520	19	4410
2026-01-01 22:41:06.82	54.71	16.62	-29.7	-31.6	13.0	4.93e-04	0	43	0	289406976	19	4446
2026-01-01 22:41:09.83	55.30	16.79	-30.0	-31.9	12.2	2.67e-04	0	43	0	294649856	20	4490
2026-01-01 22:41:12.84	55.89	16.96	-30.1	-32.3	12.1	2.37e-04	0	43	0	299892736	20	4617
2026-01-01 22:41:15.85	56.49	17.13	-30.2	-32.4	11.9	3.42e-04	0	43	0	306184192	20	4649
2026-01-01 22:41:18.85	57.10	17.29	-30.2	-32.6	11.8	2.10e-03	0	43	0	311427072	20	4721
2026-01-01 22:41:21.86	57.71	17.45	-30.2	-32.5	11.9	1.51e-03	0	43	0	316669952	20	4667
2026-01-01 22:41:24.87	58.33	17.61	-30.5	-32.7	11.4	1.95e-03	0	43	0	322961408	21	4674
2026-01-01 22:41:27.89	58.96	17.77	-30.6	-33.1	11.2	2.72e-03	0	43	0	328204288	21	4827
2026-01-01 22:41:30.89	59.59	17.93	-30.7	-33.3	11.0	2.17e-03	0	43	0	334495744	21	4903
2026-01-01 22:41:33.90	60.23	18.08	-30.8	-33.8	10.6	4.25e-03	0	43	0	339738624	21	5101
2026-01-01 22:41:36.91	60.87	18.23	-30.3	-32.7	11.8	6.35e-04	0	43	0	344981504	20	4757
2026-01-01 22:41:39.93	61.52	18.38	-30.2	-32.3	12.1	2.10e-04	0	43	0	351272960	20	4590
2026-01-01 22:41:42.94	62.18	18.53	-30.1	-32.2	12.2	5.77e-04	0	43	0	356515840	20	4556
2026-01-01 22:41:45.95	62.84	18.67	-30.3	-32.7	11.8	1.20e-03	0	43	0	362807296	20	4761
2026-01-01 22:41:48.95	63.51	18.81	-29.9	-32.0	12.8	1.66e-03	0	43	0	368050176	19	4562
2026-01-01 22:41:51.97	64.19	18.94	-30.0	-31.7	12.5	1.48e-03	0	43	0	373293056	20	4396
2026-01-01 22:41:54.98	64.87	19.08	-29.9	-32.1	12.6	5.49e-05	0	43	0	379584512	19	4624
2026-01-01 22:41:57.99	65.56	19.21	-30.4	-33.0	11.6	4.49e-04	0	43	0	384827392	20	4855
2026-01-01 22:42:01.00	66.25	19.34	-30.2	-31.9	12.0	3.74e-04	0	43	0	390070272	21	4373
2026-01-01 22:42:04.01	66.95	19.46	-29.7	-31.3	13.2	2.89e-05	0	43	0	396361728	19	4341
2026-01-01 22:42:07.01	67.65	19.58	-29.6	-31.2	13.3	4.94e-04	0	43	0	401604608	19	4320
2026-01-01 22:42:10.02	68.36	19.69	-28.9	-29.8	14.5	7.00e-07	0	43	0	407896064	18	3995
2026-01-01 22:42:13.05	69.08	19.81	-28.8	-29.4	14.8	3.50e-05	0	43	0	413138944	18	3888
2026-01-01 22:42:16.05	69.80	19.91	-29.1	-30.4	14.1	1.50e-06	0	43	0	418381824	18	4172
2026-01-01 22:42:19.05	70.52	20.02	-29.0	-29.9	14.4	7.00e-07	0	43	0	424673280	18	4036
2026-01-01 22:42:22.04	71.24	20.12	-29.1	-30.3	14.2	7.00e-07	0	43	0	429916160	18	4145
2026-01-01 22:42:25.05	71.98	20.21	-29.1	-30.3	14.2	0.00e+00	0	43	0	435159040	18	4142
2026-01-01 22:42:28.06	72.72	20.31	-29.1	-30.3	14.2	1.50e-06	0	43	0	441450496	18	4144
2026-01-01 22:42:31.07	73.46	20.39	-29.3	-30.8	14.0	6.10e-06	0	43	0	446693376	18	4285
2026-01-01 22:42:34.08	74.21	20.48	-28.9	-29.9	14.5	7.00e-07	0	43	0	452984832	18	4009
2026-01-01 22:42:37.08	74.95	20.55	-29.4	-31.1	13.6	4.50e-06	0	43	0	458227712	18	4384
2026-01-01 22:42:40.08	75.71	20.63	-29.6	-31.0	13.4	1.60e-05	0	43	0	463470592	19	4258
2026-01-01 22:42:43.10	76.47	20.70	-29.4	-30.6	13.7	4.50e-06	0	43	0	469762048	19	4140
2026-01-01 22:42:46.09	77.22	20.76	-29.6	-31.1	13.4	1.52e-05	0	43	0	475004928	19	4295
2026-01-01 22:42:49.11	77.99	20.82	-29.2	-30.0	14.1	1.98e-05	0	43	0	481296384	19	3961
2026-01-01 22:42:52.11	78.75	20.87	-29.4	-30.6	13.7	5.87e-05	0	43	0	486539264	19	4126
2026-01-01 22:42:55.11	79.52	20.92	-29.3	-30.4	13.9	2.41e-04	0	43	0	491782144	19	4066
2026-01-01 22:42:58.12	80.29	20.97	-29.4	-31.0	13.8	2.20e-06	0	43	0	498073600	18	4355
2026-01-01 22:43:01.13	81.07	21.01	-29.6	-31.2	13.3	2.44e-05	0	43	0	503316480	19	4309
2026-01-01 22:43:04.14	81.84	21.04	-29.5	-30.9	13.5	3.04e-04	0	43	0	508559360	19	4224
2026-01-01 22:43:07.15	82.62	21.07	-30.0	-31.8	12.6	1.20e-04	0	43	0	514850816	20	4413
2026-01-01 22:43:10.16	83.40	21.09	-29.7	-30.9	13.1	2.74e-05	0	43	0	520093696	20	4130
2026-01-01 22:43:13.17	84.18	21.11	-29.6	-30.8	13.2	1.57e-04	0	43	0	526385152	20	4098
2026-01-01 22:43:16.18	84.96	21.12	-29.6	-31.1	13.4	7.17e-05	0	43	0	531628032	19	4291
2026-01-01 22:43:19.19	85.74	21.13	-29.4	-30.5	13.7	9.10e-06	0	43	0	536870912	19	4101
2026-01-01 22:43:22.20	86.52	21.13	-29.8	-31.6	13.0	5.49e-05	0	43	0	543162368	19	4459
2026-01-01 22:43:25.21	87.30	21.13	-29.7	-31.4	13.2	9.53e-05	0	43	0	548405248	19	4386
2026-01-01 22:43:28.20	88.08	21.12	-29.7	-31.4	13.2	3.50e-05	0	43	0	553648128	19	4365
2026-01-01 22:43:31.21	88.86	21.11	-29.5	-30.9	13.5	8.23e-05	0	43	0	559939584	19	4218
2026-01-01 22:43:34.22	89.64	21.09	-29.3	-30.5	13.8	3.58e-05	0	43	0	565182464	19	4098
2026-01-01 22:43:37.23	90.42	21.06	-29.8	-31.6	13.1	8.23e-05	0	43	0	571473920	19	4431
2026-01-01 22:43:40.24	91.20	21.03	-29.5	-30.8	13.6	7.60e-06	0	43	0	576716800	19	4187
2026-01-01 22:43:43.24	91.97	21.00	-29.4	-30.7	13.6	1.44e-05	0	43	0	581959680	19	4176
2026-01-01 22:43:46.25	92.75	20.96	-29.3	-30.4	13.9	8.30e-06	0	43	0	588251136	19	4067
2026-01-01 22:43:49.25	93.52	20.91	-29.3	-30.4	13.8	2.20e-06	0	43	0	593494016	19	4078
2026-01-01 22:43:52.26	94.29	20.86	-29.3	-30.4	13.8	1.67e-05	0	43	0	598736896	19	4075
2026-01-01 22:43:55.27	95.05	20.81	-29.3	-30.5	13.8	6.10e-06	0	43	0	605028352	19	4104
2026-01-01 22:43:58.27	95.82	20.75	-29.3	-30.5	13.8	2.20e-06	0	43	0	610271232	19	4101
2026-01-01 22:44:01.26	96.57	20.68	-29.4	-30.6	13.6	4.50e-06	0	43	0	616562688	19	4152
2026-01-01 22:44:04.27	97.33	20.61	-29.8	-31.7	12.9	7.55e-05	0	43	0	621805568	19	4477
2026-01-01 22:44:07.27	98.08	20.54	-29.1	-29.9	14.1	2.20e-06	0	43	0	627048448	19	3935
2026-01-01 22:44:10.28	98.84	20.46	-29.1	-29.9	14.1	3.80e-06	0	43	0	633339904	19	3940
2026-01-01 22:44:13.29	99.58	20.38	-29.1	-30.3	14.1	3.80e-06	0	43	0	638582784	18	4148
2026-01-01 22:44:16.30	100.33	20.29	-28.8	-29.6	14.6	3.80e-06	0	43	0	643825664	18	3952
2026-01-01 22:44:19.31	101.07	20.20	-29.1	-30.3	14.1	3.80e-06	0	43	0	650117120	18	4155
2026-01-01 22:44:22.31	101.80	20.10	-29.2	-30.5	14.0	6.80e-06	0	43	0	655360000	18	4212
2026-01-01 22:44:25.32	102.53	20.00	-29.3	-30.8	13.9	2.20e-06	0	43	0	661651456	18	4285
2026-01-01 22:44:28.33	103.26	19.89	-29.0	-30.0	14.3	3.80e-06	0	43	0	666894336	18	4065
2026-01-01 22:44:31.33	103.97	19.78	-29.2	-30.6	14.0	8.30e-06	0	43	0	672137216	18	4224
2026-01-01 22:44:34.33	104.69	19.67	-29.3	-30.9	13.7	2.20e-06	0	43	0	678428672	18	4330
2026-01-01 22:44:37.33	105.40	19.55	-29.0	-30.0	14.3	2.20e-06	0	43	0	683671552	18	4048
2026-01-01 22:44:40.34	106.10	19.43	-29.2	-30.6	13.9	4.50e-06	0	43	0	688914432	18	4242
2026-01-01 22:44:43.35	106.80	19.31	-29.5	-31.1	13.3	2.13e-05	0	43	0	695205888	19	4282
2026-01-01 22:44:46.36	107.50	19.18	-29.1	-29.9	14.1	8.30e-06	0	43	0	700448768	19	3944
2026-01-01 22:44:49.38	108.19	19.05	-28.9	-29.8	14.5	7.00e-07	0	43	0	706740224	18	3997
2026-01-01 22:44:52.38	108.87	18.91	-29.0	-30.2	14.2	2.20e-06	0	43	0	711983104	18	4116
2026-01-01 22:44:55.39	109.54	18.78	-29.3	-30.8	13.8	7.60e-06	0	43	0	717225984	18	4307
2026-01-01 22:44:58.39	110.21	18.63	-29.9	-32.0	12.6	8.62e-05	0	43	0	723517440	19	4614
2026-01-01 22:45:01.40	110.88	18.49	-29.9	-31.5	12.6	1.63e-04	0	43	0	728760320	20	4357
2026-01-01 22:45:04.41	111.53	18.34	-29.6	-31.3	13.1	5.03e-05	0	43	0	734003200	19	4368
2026-01-01 22:45:07.42	112.19	18.19	-29.9	-31.6	12.5	1.41e-04	0	43	0	740294656	20	4372
2026-01-01 22:45:10.43	112.83	18.04	-29.7	-31.2	12.8	5.56e-05	0	43	0	745537536	20	4246
2026-01-01 22:45:13.44	113.47	17.89	-29.5	-30.6	13.2	2.51e-05	0	43	0	751828992	20	4070
2026-01-01 22:45:16.45	114.11	17.73	-29.6	-30.8	13.0	2.67e-05	0	43	0	757071872	20	4123
2026-01-01 22:45:19.45	114.73	17.57	-30.0	-32.0	12.2	1.51e-04	0	43	0	762314752	20	4513
2026-01-01 22:45:22.45	115.35	17.41	-30.3	-32.8	11.6	8.15e-04	0	43	0	768606208	20	4812
2026-01-01 22:45:25.45	115.96	17.25	-30.3	-32.7	11.7	5.25e-04	0	43	0	773849088	20	4788
2026-01-01 22:45:28.45	116.57	17.08	-30.0	-32.0	12.1	2.30e-04	0	43	0	779091968	20	4554
2026-01-01 22:45:31.46	117.17	16.91	-30.1	-32.5	11.8	3.54e-04	0	43	0	785383424	20	4705
2026-01-01 22:45:34.47	117.76	16.74	-30.2	-32.6	11.6	6.65e-04	0	43	0	790626304	20	4753
2026-01-01 22:45:37.48	118.35	16.57	-29.8	-31.5	12.4	1.88e-04	0	43	0	796917760	20	4359
2026-01-01 22:45:40.50	118.93	16.40	-29.6	-31.0	12.8	9.38e-05	0	43	0	802160640	20	4192
2026-01-01 22:45:43.50	119.51	16.23	-29.7	-31.6	12.8	8.08e-05	0	43	0	807403520	19	4464
2026-01-01 22:45:46.51	120.08	16.05	-29.7	-31.6	12.8	9.15e-05	0	43	0	813694976	19	4472
2026-01-01 22:45:49.52	120.64	15.87	-30.0	-32.0	12.1	1.86e-04	0	43	0	818937856	20	4533
2026-01-01 22:45:52.53	121.19	15.69	-30.0	-31.9	12.1	2.68e-04	0	43	0	824180736	20	4508
2026-01-01 22:45:55.54	121.74	15.51	-29.6	-30.8	12.9	6.40e-05	0	43	0	830472192	20	4126
2026-01-01 22:45:58.55	122.29	15.33	-29.3	-30.6	13.4	1.98e-05	0	43	0	835715072	19	4153
2026-01-01 22:46:01.55	122.82	15.15	-29.8	-32.0	12.5	6.63e-05	0	43	0	842006528	19	4608
2026-01-01 22:46:04.56	123.35	14.97	-29.8	-31.8	12.5	1.03e-04	0	43	0	847249408	19	4564
2026-01-01 22:46:07.58	123.88	14.79	-29.5	-31.1	13.0	3.43e-05	0	43	0	852492288	19	4332
2026-01-01 22:46:10.60	124.40	14.60	-29.9	-32.1	12.3	1.20e-04	0	43	0	858783744	19	4659
2026-01-01 22:46:13.61	124.91	14.42	-30.0	-32.1	11.4	5.52e-04	0	43	0	864026624	20	4586
2026-01-01 22:46:16.61	125.41	14.23	-29.8	-31.9	12.4	1.51e-04	0	43	0	870318080	19	4609
2026-01-01 22:46:19.61	125.91	14.05	-29.6	-31.4	12.7	2.04e-04	0	43	0	875560960	19	4422
2026-01-01 22:46:22.62	126.40	13.86	-29.5	-31.0	13.0	6.02e-05	0	43	0	880803840	19	4303
2026-01-01 22:46:25.63	126.89	13.67	-29.5	-31.2	12.8	4.19e-05	0	43	0	887095296	19	4366
2026-01-01 22:46:28.64	127.37	13.48	-28.9	-29.6	13.9	9.90e-06	0	43	0	892338176	19	3877
2026-01-01 22:46:31.65	127.85	13.30	-29.1	-30.1	13.5	1.06e-05	0	43	0	897581056	19	4040
2026-01-01 22:46:34.65	128.32	13.11	-29.5	-31.2	12.7	5.87e-05	0	43	0	903872512	19	4395
2026-01-01 22:46:37.65	128.78	12.92	-29.8	-32.0	12.3	1.56e-04	0	43	0	909115392	19	4640
2026-01-01 22:46:40.66	129.24	12.73	-29.7	-31.8	12.3	2.38e-04	0	43	0	915406848	19	4591
2026-01-01 22:46:43.67	129.69	12.54	-29.8	-31.7	12.0	6.36e-04	0	43	0	920649728	20	4469
2026-01-01 22:46:46.67	130.13	12.35	-29.9	-32.0	11.7	5.71e-04	0	43	0	925892608	20	4562
2026-01-01 22:46:49.68	130.58	12.16	-29.5	-31.2	12.6	9.99e-05	0	43	0	932184064	19	4396
2026-01-01 22:46:52.69	131.01	11.97	-29.1	-30.7	13.3	4.24e-04	0	43	0	937426944	18	4325
2026-01-01 22:46:55.70	131.44	11.79	-29.3	-31.1	13.0	6.26e-04	0	43	0	942669824	18	4465
2026-01-01 22:46:58.70	131.87	11.60	-29.4	-31.5	12.7	4.62e-04	0	43	0	948961280	18	4585
2026-01-01 22:47:01.71	132.29	11.41	-29.5	-31.5	12.4	5.89e-04	0	43	0	954204160	19	4503
2026-01-01 22:47:04.72	132.70	11.22	-29.8	-32.1	12.0	1.32e-03	0	43	0	960495616	19	4715
2026-01-01 22:47:07.72	133.11	11.03	-30.1	-32.6	11.2	1.40e-03	0	43	0	965738496	20	4808
2026-01-01 22:47:10.73	133.51	10.84	-30.1	-32.8	10.9	2.01e-03	0	43	0	970981376	20	4916
2026-01-01 22:47:13.75	133.92	10.65	-29.6	-31.3	12.0	8.28e-04	0	43	0	977272832	20	4390
2026-01-01 22:47:16.76	134.31	10.46	-29.2	-30.7	12.8	3.30e-04	0	43	0	982515712	19	4271
2026-01-01 22:47:19.77	134.70	10.28	-29.2	-31.0	12.9	1.85e-04	0	43	0	987758592	18	4439
2026-01-01 22:47:22.78	135.08	10.09	-29.5	-31.3	12.4	4.97e-04	0	43	0	994050048	19	4429
2026-01-01 22:47:25.78	135.46	9.90	-29.7	-31.9	12.0	2.52e-04	0	43	0	999292928	19	4657
2026-01-01 22:47:28.79	135.84	9.71	-29.8	-32.2	11.7	5.32e-04	0	43	0	1005584384	19	4772
2026-01-01 22:47:31.80	136.21	9.53	-29.8	-32.2	11.7	8.51e-04	0	43	0	1010827264	19	4768
2026-01-01 22:47:34.81	136.58	9.34	-30.1	-32.9	10.7	2.46e-03	0	43	0	1016070144	20	4956
2026-01-01 22:47:37.81	136.94	9.16	-30.2	-33.4	10.3	5.58e-03	0	43	0	1022361600	20	5196
2026-01-01 22:47:40.81	137.29	8.97	-30.2	-33.6	10.0	6.78e-03	0	43	0	1027604480	20	5306
2026-01-01 22:47:43.82	137.65	8.79	-29.9	-32.5	10.8	1.88e-03	0	43	0	1032847360	20	4855
2026-01-01 22:47:46.83	138.00	8.60	-29.9	-32.9	11.1	1.31e-03	0	43	0	1039138816	19	5046
2026-01-01 22:47:49.84	138.34	8.42	-29.9	-32.5	10.8	1.87e-03	0	43	0	1044381696	20	4847
2026-01-01 22:47:52.85	138.68	8.23	-30.1	-33.0	10.5	2.90e-03	0	43	0	1050673152	20	5026
2026-01-01 22:47:55.85	139.02	8.05	-30.0	-32.9	10.5	4.36e-03	0	43	0	1055916032	20	4993
2026-01-01 22:47:58.84	139.35	7.87	-30.1	-33.3	10.1	5.65e-03	0	43	0	1061158912	20	5182
2026-01-01 22:48:01.86	139.68	7.69	-29.8	-32.1	10.9	1.84e-03	0	43	0	1067450368	20	4728
2026-01-01 22:48:04.86	140.00	7.51	-29.8	-32.6	10.5	2.86e-03	0	43	0	1072693248	20	4940
2026-01-01 22:48:07.87	140.32	7.32	-29.9	-33.3	10.3	5.12e-03	0	43	0	1077936128	19	5362
2026-01-01 22:48:10.86	140.63	7.14	-29.7	-33.1	10.4	3.31e-03	0	43	0	1084227584	19	5276
2026-01-01 22:48:13.86	140.95	6.97	-32.7	-45.2	3.8	1.49e+00	0	43	104	1087373312	25	15099

#Closed at: 2026-01-01 22:48:13
#Recorded file [1087 MB]: D:/data/31010_260102_013832.dat