passes_logs/2026/01/01/R2M6_AANII_01/R2M6_AANII_01__20260101_145907_FENGYUN_3E_rec.log

#Pass ID: 20260101_145907_FENGYUN 3E
#Satellite: FENGYUN 3E
#Configuration: FENGYUN 3E
#almurnet v.1.7.20240730
#Start time: 2026-01-01 14:59:07

#Version: 2.2.20231116
#Station: R2M6_AANII_01
#Location: 30.233357 lon 59.946436 lat
#TLE: 1 49008U 21062A   25365.98258168  .00000149  00000+0  90987-4 0  9990
#TLE: 2 49008  98.7481   6.2763 0001360 169.3782 190.7423 14.19883270232859

#Time	Az	El	Level	Level2	SNR	BER	BlckErr	Temp	State	Recorded	gain1	gain2
2026-01-01 14:59:07.09	172.23	6.98	-26.9	-29.1	5.6	7.64e-01	0	41	0	0	13	4667
2026-01-01 14:59:10.10	172.31	7.21	-28.3	-30.5	9.7	1.37e-02	0	41	0	7340032	17	4610
2026-01-01 14:59:13.11	172.39	7.45	-27.6	-29.2	10.8	3.40e-03	0	41	0	28311552	16	4317
2026-01-01 14:59:16.11	172.47	7.68	-25.8	-27.1	13.0	6.75e-05	0	41	0	50331648	12	4162
2026-01-01 14:59:19.11	172.55	7.92	-25.7	-26.8	13.3	2.51e-05	0	41	0	72351744	12	4065
2026-01-01 14:59:22.13	172.64	8.16	-25.8	-27.0	13.2	3.66e-05	0	42	0	93323264	12	4134
2026-01-01 14:59:25.14	172.72	8.40	-26.2	-27.8	12.7	7.09e-05	0	42	0	115343360	12	4361
2026-01-01 14:59:28.15	172.81	8.65	-25.2	-26.0	14.1	1.10e-06	0	42	0	137363456	11	3972
2026-01-01 14:59:31.16	172.90	8.89	-25.2	-26.0	14.2	4.50e-06	0	42	0	159383552	11	3975
2026-01-01 14:59:34.15	172.99	9.14	-25.2	-26.0	14.2	2.20e-06	0	42	0	180355072	11	3976
2026-01-01 14:59:37.16	173.08	9.39	-25.2	-26.1	14.2	0.00e+00	0	42	0	202375168	11	3995
2026-01-01 14:59:40.17	173.17	9.65	-25.2	-26.1	14.2	1.10e-06	0	42	0	224395264	11	3999
2026-01-01 14:59:43.18	173.26	9.90	-25.1	-25.8	14.3	2.20e-06	0	42	0	245366784	11	3915
2026-01-01 14:59:46.20	173.36	10.16	-24.9	-25.4	14.6	6.80e-06	0	42	0	267386880	11	3828
2026-01-01 14:59:49.22	173.45	10.43	-24.9	-25.5	14.5	9.10e-06	0	42	0	289406976	11	3843
2026-01-01 14:59:52.22	173.55	10.69	-25.0	-26.2	14.5	8.00e-06	0	42	0	311427072	10	4110
2026-01-01 14:59:55.24	173.65	10.96	-24.8	-25.7	14.8	0.00e+00	0	42	0	332398592	10	3982
2026-01-01 14:59:58.26	173.76	11.23	-24.8	-25.7	14.7	0.00e+00	0	42	0	354418688	10	3995
2026-01-01 15:00:01.27	173.86	11.50	-24.7	-25.6	14.9	0.00e+00	0	42	0	376438784	10	3961
2026-01-01 15:00:04.28	173.96	11.78	-24.8	-25.6	14.9	0.00e+00	0	42	0	398458880	10	3965
2026-01-01 15:00:07.29	174.07	12.06	-24.8	-25.8	14.8	0.00e+00	0	43	0	419430400	10	4003
2026-01-01 15:00:10.30	174.18	12.34	-24.7	-25.5	14.9	0.00e+00	0	42	0	441450496	10	3948
2026-01-01 15:00:13.32	174.29	12.63	-24.7	-25.5	14.9	0.00e+00	0	43	0	463470592	10	3937
2026-01-01 15:00:16.32	174.40	12.92	-24.6	-25.2	15.1	0.00e+00	0	42	0	484442112	10	3877
2026-01-01 15:00:19.32	174.52	13.21	-24.5	-25.1	15.2	0.00e+00	0	43	0	506462208	10	3830
2026-01-01 15:00:22.33	174.63	13.50	-24.2	-24.9	15.5	0.00e+00	0	43	0	528482304	9	3893
2026-01-01 15:00:25.34	174.75	13.80	-23.9	-24.6	16.0	0.00e+00	0	43	0	549453824	8	3927
2026-01-01 15:00:28.35	174.87	14.11	-23.8	-24.5	16.0	0.00e+00	0	43	0	571473920	8	3892
2026-01-01 15:00:31.36	175.00	14.41	-23.8	-24.5	16.0	0.00e+00	0	43	0	593494016	8	3901
2026-01-01 15:00:34.36	175.12	14.72	-24.0	-24.9	15.8	0.00e+00	0	43	0	615514112	8	3996
2026-01-01 15:00:37.38	175.25	15.04	-23.5	-24.0	16.3	0.00e+00	0	43	0	636485632	8	3780
2026-01-01 15:00:40.39	175.38	15.36	-23.4	-23.7	16.4	0.00e+00	0	43	0	658505728	8	3715
2026-01-01 15:00:43.38	175.52	15.68	-23.4	-24.2	16.4	0.00e+00	0	43	0	680525824	7	3950
2026-01-01 15:00:46.39	175.65	16.00	-23.6	-24.8	16.1	0.00e+00	0	43	0	702545920	7	4096
2026-01-01 15:00:49.41	175.79	16.34	-23.5	-24.4	16.3	0.00e+00	0	43	0	723517440	7	4008
2026-01-01 15:00:52.41	175.93	16.67	-23.2	-23.9	16.6	0.00e+00	0	43	0	745537536	7	3886
2026-01-01 15:00:55.42	176.08	17.01	-23.1	-23.7	16.6	0.00e+00	0	43	0	767557632	7	3844
2026-01-01 15:00:58.43	176.23	17.36	-23.1	-23.8	16.6	0.00e+00	0	43	0	788529152	7	3865
2026-01-01 15:01:01.44	176.38	17.71	-22.9	-23.3	16.8	0.00e+00	0	43	0	810549248	7	3766
2026-01-01 15:01:04.45	176.53	18.06	-23.0	-23.4	16.8	0.00e+00	0	43	0	832569344	7	3793
2026-01-01 15:01:07.46	176.69	18.42	-22.8	-23.6	16.9	0.00e+00	0	43	0	854589440	6	3952
2026-01-01 15:01:10.47	176.85	18.78	-22.7	-23.3	17.1	0.00e+00	0	43	0	875560960	6	3874
2026-01-01 15:01:13.48	177.02	19.15	-22.6	-23.0	17.2	0.00e+00	0	43	0	897581056	6	3807
2026-01-01 15:01:16.49	177.19	19.53	-22.5	-23.0	17.2	0.00e+00	0	43	0	919601152	6	3788
2026-01-01 15:01:19.51	177.36	19.91	-22.4	-23.2	17.3	0.00e+00	0	43	0	941621248	5	3950
2026-01-01 15:01:22.52	177.54	20.30	-22.3	-22.9	17.5	0.00e+00	0	43	0	962592768	5	3886
2026-01-01 15:01:25.53	177.72	20.69	-22.3	-23.0	17.5	0.00e+00	0	43	0	984612864	5	3907
2026-01-01 15:01:28.54	177.90	21.09	-22.4	-23.2	17.4	0.00e+00	0	43	0	1006632960	5	3962
2026-01-01 15:01:31.55	178.09	21.49	-22.4	-23.3	17.3	0.00e+00	0	43	0	1028653056	5	3989
2026-01-01 15:01:34.56	178.29	21.90	-22.5	-23.4	17.3	0.00e+00	0	43	0	1049624576	5	4015
2026-01-01 15:01:37.57	178.49	22.32	-22.6	-23.6	17.2	0.00e+00	0	43	0	1071644672	5	4069
2026-01-01 15:01:40.58	178.70	22.74	-22.5	-23.4	17.3	0.00e+00	0	43	0	1092616192	5	4017
2026-01-01 15:01:43.58	178.91	23.17	-22.5	-23.4	17.4	0.00e+00	0	43	0	1114636288	5	3995
2026-01-01 15:01:46.58	179.12	23.61	-22.4	-23.1	17.6	0.00e+00	0	43	0	1136656384	5	3919
2026-01-01 15:01:49.58	179.34	24.05	-22.3	-23.0	17.6	0.00e+00	0	43	0	1157627904	5	3893
2026-01-01 15:01:52.60	179.57	24.51	-22.2	-22.8	17.7	0.00e+00	0	43	0	1179648000	5	3846
2026-01-01 15:01:55.60	179.81	24.96	-22.0	-22.4	18.0	0.00e+00	0	43	0	1201668096	5	3752
2026-01-01 15:01:58.61	180.05	25.43	-22.3	-22.9	17.7	0.00e+00	0	43	0	1223688192	5	3862
2026-01-01 15:02:01.61	180.30	25.90	-22.1	-22.5	17.9	0.00e+00	0	43	0	1244659712	5	3786
2026-01-01 15:02:04.64	180.55	26.39	-22.1	-22.6	17.8	0.00e+00	0	43	0	1266679808	5	3813
2026-01-01 15:02:07.63	180.81	26.88	-21.9	-22.2	18.0	0.00e+00	0	43	0	1288699904	5	3722
2026-01-01 15:02:10.65	181.09	27.38	-21.6	-22.0	18.3	0.00e+00	0	43	0	1310720000	4	3774
2026-01-01 15:02:13.67	181.37	27.89	-21.5	-21.8	18.5	0.00e+00	0	43	0	1331691520	4	3715
2026-01-01 15:02:16.66	181.65	28.40	-21.6	-22.6	18.3	0.00e+00	0	43	0	1353711616	3	4012
2026-01-01 15:02:19.66	181.95	28.92	-22.3	-22.7	18.8	0.00e+00	0	43	0	1375731712	4	3795
2026-01-01 15:02:22.68	182.26	29.46	-22.1	-22.5	18.9	0.00e+00	0	43	0	1396703232	4	3742
2026-01-01 15:02:25.68	182.57	30.00	-22.3	-22.8	18.8	0.00e+00	0	43	0	1418723328	4	3808
2026-01-01 15:02:28.69	182.90	30.56	-22.3	-22.2	18.8	0.00e+00	0	43	0	1440743424	5	3588
2026-01-01 15:02:31.70	183.24	31.12	-22.4	-22.6	18.7	0.00e+00	0	43	0	1462763520	5	3668
2026-01-01 15:02:34.71	183.59	31.69	-22.6	-23.0	18.5	0.00e+00	0	43	0	1483735040	5	3750
2026-01-01 15:02:37.72	183.95	32.28	-22.5	-22.7	18.6	0.00e+00	0	43	0	1505755136	5	3677
2026-01-01 15:02:40.73	184.33	32.87	-22.8	-23.4	18.3	0.00e+00	0	43	0	1527775232	5	3855
2026-01-01 15:02:43.74	184.72	33.47	-22.7	-23.2	18.4	0.00e+00	0	43	0	1549795328	5	3791
2026-01-01 15:02:46.76	185.12	34.09	-22.6	-22.9	18.5	0.00e+00	0	43	0	1570766848	5	3742
2026-01-01 15:02:49.76	185.54	34.72	-22.5	-22.8	18.6	0.00e+00	0	43	0	1592786944	5	3713
2026-01-01 15:02:52.77	185.97	35.35	-22.2	-22.1	18.9	0.00e+00	0	43	0	1614807040	5	3551
2026-01-01 15:02:55.78	186.43	36.00	-22.3	-22.4	18.8	0.00e+00	0	43	0	1635778560	5	3611
2026-01-01 15:02:58.79	186.90	36.66	-22.1	-21.9	19.1	0.00e+00	0	43	0	1657798656	5	3512
2026-01-01 15:03:01.80	187.38	37.33	-22.4	-22.4	18.8	0.00e+00	0	43	0	1679818752	5	3631
2026-01-01 15:03:04.81	187.89	38.02	-22.9	-23.5	18.3	0.00e+00	0	43	0	1700790272	5	3857
2026-01-01 15:03:07.82	188.42	38.71	-22.7	-23.0	18.5	0.00e+00	0	43	0	1722810368	5	3757
2026-01-01 15:03:10.83	188.98	39.42	-22.8	-22.9	18.4	0.00e+00	0	43	0	1744830464	6	3621
2026-01-01 15:03:13.84	189.55	40.13	-23.0	-23.2	18.2	0.00e+00	0	43	0	1765801984	6	3706
2026-01-01 15:03:16.84	190.16	40.86	-22.7	-22.7	18.5	0.00e+00	0	43	0	1787822080	6	3571
2026-01-01 15:03:19.86	190.79	41.60	-22.8	-22.8	18.4	0.00e+00	0	43	0	1809842176	6	3604
2026-01-01 15:03:22.86	191.45	42.35	-22.6	-22.5	18.6	0.00e+00	0	44	0	1831862272	6	3534
2026-01-01 15:03:25.87	192.14	43.11	-23.3	-23.9	17.9	0.00e+00	0	43	0	1852833792	6	3852
2026-01-01 15:03:28.89	192.86	43.89	-23.4	-23.6	17.8	0.00e+00	0	43	0	1874853888	7	3690
2026-01-01 15:03:31.90	193.62	44.67	-23.3	-23.3	18.0	0.00e+00	0	44	0	1896873984	7	3623
2026-01-01 15:03:34.91	194.42	45.47	-23.3	-23.4	18.0	0.00e+00	0	44	0	1918894080	7	3622
2026-01-01 15:03:37.91	195.26	46.27	-23.3	-23.9	17.9	0.00e+00	0	44	0	1939865600	6	3861
2026-01-01 15:03:40.92	196.14	47.08	-23.5	-23.8	17.7	0.00e+00	0	44	0	1961885696	7	3729
2026-01-01 15:03:43.93	197.07	47.90	-24.2	-24.8	17.0	0.00e+00	0	43	0	1983905792	8	3840
2026-01-01 15:03:46.94	198.04	48.73	-23.8	-24.0	17.4	0.00e+00	0	43	0	2005925888	8	3666
2026-01-01 15:03:49.96	199.08	49.57	-24.4	-25.1	16.9	0.00e+00	0	43	0	2026897408	8	3929
2026-01-01 15:03:52.96	200.16	50.40	-24.7	-25.3	16.5	0.00e+00	0	43	0	2048917504	9	3856
2026-01-01 15:03:55.98	201.32	51.25	-24.1	-24.1	17.1	0.00e+00	0	43	0	2070937600	9	3593
2026-01-01 15:03:58.98	202.53	52.09	-24.7	-25.3	16.6	0.00e+00	0	44	0	2091909120	9	3852
2026-01-01 15:04:01.99	203.82	52.94	-24.6	-25.2	16.5	0.00e+00	0	44	0	2113929216	9	3846
2026-01-01 15:04:05.00	205.18	53.79	-24.5	-24.8	16.8	0.00e+00	0	43	0	2135949312	9	3752
2026-01-01 15:04:08.02	206.63	54.63	-24.2	-24.3	17.1	0.00e+00	0	44	0	2157969408	9	3622
2026-01-01 15:04:11.04	208.17	55.48	-23.7	-23.6	17.7	0.00e+00	0	44	0	2178940928	8	3577
2026-01-01 15:04:14.05	209.79	56.31	-23.8	-24.3	17.5	0.00e+00	0	44	0	2200961024	7	3845
2026-01-01 15:04:17.06	211.52	57.12	-24.2	-24.8	17.1	0.00e+00	0	43	0	2222981120	8	3847
2026-01-01 15:04:20.06	213.34	57.93	-24.1	-24.5	17.3	0.00e+00	0	43	0	2245001216	8	3773
2026-01-01 15:04:23.07	215.28	58.71	-23.4	-23.5	18.0	0.00e+00	0	44	0	2265972736	7	3656
2026-01-01 15:04:26.08	217.33	59.48	-23.9	-24.6	17.4	0.00e+00	0	43	0	2287992832	7	3916
2026-01-01 15:04:29.08	219.50	60.22	-23.4	-23.1	18.0	0.00e+00	0	44	0	2310012928	8	3459
2026-01-01 15:04:32.08	221.79	60.92	-23.9	-24.0	17.5	0.00e+00	0	44	0	2330984448	8	3675
2026-01-01 15:04:35.10	224.23	61.60	-23.9	-24.1	17.5	0.00e+00	0	44	0	2353004544	8	3690
2026-01-01 15:04:38.12	226.80	62.24	-23.5	-23.7	17.8	0.00e+00	0	44	0	2375024640	7	3701
2026-01-01 15:04:41.14	229.50	62.83	-23.5	-23.8	17.9	0.00e+00	0	43	0	2395996160	7	3719
2026-01-01 15:04:44.14	232.31	63.36	-23.2	-23.2	18.2	0.00e+00	0	44	0	2418016256	7	3589
2026-01-01 15:04:47.16	235.27	63.85	-22.7	-22.5	18.8	0.00e+00	0	44	0	2440036352	6	3537
2026-01-01 15:04:50.16	238.32	64.27	-23.0	-23.2	18.4	0.00e+00	0	44	0	2462056448	6	3696
2026-01-01 15:04:53.17	241.49	64.63	-22.8	-22.8	18.6	0.00e+00	0	44	0	2483027968	6	3603
2026-01-01 15:04:56.19	244.76	64.92	-22.6	-22.3	18.8	0.00e+00	0	44	0	2505048064	6	3496
2026-01-01 15:04:59.19	248.08	65.13	-22.3	-22.2	19.1	0.00e+00	0	44	0	2527068160	5	3567
2026-01-01 15:05:02.18	251.44	65.27	-23.1	-23.9	18.3	0.00e+00	0	43	0	2548039680	5	3942
2026-01-01 15:05:05.18	254.84	65.33	-22.9	-22.5	18.6	0.00e+00	0	43	0	2570059776	7	3433
2026-01-01 15:05:08.20	258.27	65.31	-22.6	-22.4	18.9	0.00e+00	0	44	0	2592079872	6	3505
2026-01-01 15:05:11.21	261.67	65.22	-23.3	-23.7	18.2	0.00e+00	0	44	0	2614099968	6	3801
2026-01-01 15:05:14.22	265.03	65.04	-22.5	-22.2	18.9	0.00e+00	0	43	0	2635071488	6	3467
2026-01-01 15:05:17.23	268.33	64.80	-22.5	-22.2	18.8	0.00e+00	0	43	0	2657091584	6	3472
2026-01-01 15:05:20.24	271.54	64.48	-22.4	-22.4	19.0	0.00e+00	0	44	0	2679111680	5	3600
2026-01-01 15:05:23.24	274.65	64.09	-23.0	-23.8	18.3	0.00e+00	0	43	0	2700083200	5	3927
2026-01-01 15:05:26.25	277.66	63.65	-23.2	-23.7	18.1	0.00e+00	0	44	0	2722103296	6	3795
2026-01-01 15:05:29.27	280.56	63.14	-23.6	-24.0	17.2	0.00e+00	0	44	0	2744123392	7	3766
2026-01-01 15:05:32.27	283.32	62.58	-23.4	-23.4	18.1	0.00e+00	0	43	0	2766143488	7	3634
2026-01-01 15:05:35.28	285.95	61.97	-23.9	-24.5	17.5	0.00e+00	0	44	0	2787115008	7	3882
2026-01-01 15:05:38.29	288.45	61.32	-24.0	-24.3	17.4	0.00e+00	0	43	0	2809135104	8	3722
2026-01-01 15:05:41.29	290.81	60.63	-23.8	-23.9	17.6	0.00e+00	0	44	0	2831155200	8	3639
2026-01-01 15:05:44.31	293.06	59.91	-23.9	-24.1	17.5	0.00e+00	0	43	0	2853175296	8	3686
2026-01-01 15:05:47.32	295.18	59.16	-24.2	-24.7	17.2	0.00e+00	0	44	0	2874146816	8	3826
2026-01-01 15:05:50.33	297.18	58.39	-24.1	-24.6	17.3	0.00e+00	0	43	0	2896166912	8	3782
2026-01-01 15:05:53.33	299.06	57.60	-23.8	-24.0	17.5	0.00e+00	0	43	0	2918187008	8	3653
2026-01-01 15:05:56.34	300.84	56.79	-23.9	-24.1	17.5	0.00e+00	0	44	0	2939158528	8	3693
2026-01-01 15:05:59.35	302.52	55.97	-24.3	-25.0	17.0	0.00e+00	0	44	0	2961178624	8	3891
2026-01-01 15:06:02.36	304.10	55.13	-24.0	-24.4	17.3	0.00e+00	0	43	0	2983198720	8	3738
2026-01-01 15:06:05.38	305.60	54.29	-24.6	-25.2	16.6	0.00e+00	0	44	0	3004170240	9	3827
2026-01-01 15:06:08.38	307.00	53.45	-24.1	-24.0	17.2	0.00e+00	0	44	0	3026190336	9	3568
2026-01-01 15:06:11.39	308.33	52.61	-24.1	-24.5	17.2	0.00e+00	0	44	0	3048210432	8	3771
2026-01-01 15:06:14.40	309.58	51.76	-24.5	-25.4	16.8	1.10e-06	0	44	0	3070230528	8	3982
2026-01-01 15:06:17.41	310.77	50.92	-24.5	-25.4	16.8	0.00e+00	0	44	0	3091202048	8	3984
2026-01-01 15:06:20.43	311.90	50.08	-24.7	-25.2	16.6	0.00e+00	0	44	0	3113222144	9	3836
2026-01-01 15:06:23.45	312.96	49.24	-24.5	-24.8	16.6	0.00e+00	0	44	0	3135242240	9	3738
2026-01-01 15:06:26.44	313.96	48.42	-23.5	-23.2	17.9	0.00e+00	0	43	0	3157262336	8	3494
2026-01-01 15:06:29.45	314.92	47.60	-23.3	-23.4	18.1	0.00e+00	0	44	0	3178233856	7	3618
2026-01-01 15:06:32.45	315.82	46.79	-23.5	-23.7	17.9	0.00e+00	0	43	0	3200253952	7	3707
2026-01-01 15:06:35.47	316.69	45.98	-22.9	-22.9	18.5	0.00e+00	0	43	0	3222274048	6	3625
2026-01-01 15:06:38.48	317.51	45.18	-22.7	-22.6	18.6	0.00e+00	0	44	0	3243245568	6	3566
2026-01-01 15:06:41.49	318.29	44.40	-22.9	-22.9	18.5	0.00e+00	0	44	0	3265265664	6	3626
2026-01-01 15:06:44.50	319.03	43.62	-23.1	-23.5	17.4	0.00e+00	0	44	0	3287285760	6	3751
2026-01-01 15:06:47.52	319.74	42.85	-22.4	-22.0	18.9	0.00e+00	0	44	0	3309305856	6	3425
2026-01-01 15:06:50.52	320.42	42.10	-22.6	-22.8	18.7	0.00e+00	0	44	0	3330277376	5	3699
2026-01-01 15:06:53.54	321.07	41.35	-22.8	-23.3	18.5	0.00e+00	0	44	0	3352297472	5	3802
2026-01-01 15:06:56.56	321.69	40.62	-22.5	-22.6	18.8	0.00e+00	0	43	0	3374317568	5	3657
2026-01-01 15:06:59.56	322.28	39.90	-22.8	-23.2	18.6	0.00e+00	0	44	0	3396337664	5	3801
2026-01-01 15:07:02.58	322.85	39.19	-23.1	-23.4	18.2	0.00e+00	0	44	0	3417309184	6	3729
2026-01-01 15:07:05.59	323.39	38.49	-23.3	-23.8	17.8	0.00e+00	0	44	0	3439329280	6	3835
2026-01-01 15:07:08.60	323.91	37.80	-23.3	-23.9	17.9	0.00e+00	0	44	0	3461349376	6	3842
2026-01-01 15:07:11.61	324.41	37.13	-22.8	-22.8	18.5	0.00e+00	0	43	0	3483369472	6	3595
2026-01-01 15:07:14.61	324.89	36.47	-22.8	-22.8	18.5	1.10e-06	0	44	0	3504340992	6	3598
2026-01-01 15:07:17.62	325.36	35.82	-22.3	-22.3	18.9	0.00e+00	0	44	0	3526361088	5	3594
2026-01-01 15:07:20.62	325.80	35.18	-22.3	-22.2	19.0	0.00e+00	0	44	0	3547332608	5	3571
2026-01-01 15:07:23.64	326.23	34.55	-22.4	-22.5	18.8	0.00e+00	0	44	0	3569352704	5	3637
2026-01-01 15:07:26.65	326.64	33.93	-22.8	-23.3	18.4	0.00e+00	0	43	0	3591372800	5	3818
2026-01-01 15:07:29.66	327.04	33.32	-22.6	-22.8	18.6	0.00e+00	0	44	0	3613392896	5	3708
2026-01-01 15:07:32.66	327.42	32.72	-22.8	-23.4	18.4	0.00e+00	0	44	0	3634364416	5	3840
2026-01-01 15:07:35.66	327.79	32.14	-22.9	-23.5	18.3	0.00e+00	0	44	0	3656384512	5	3862
2026-01-01 15:07:38.67	328.15	31.56	-22.7	-23.2	18.4	0.00e+00	0	44	0	3678404608	5	3802
2026-01-01 15:07:41.67	328.49	31.00	-22.6	-22.5	18.6	0.00e+00	0	43	0	3699376128	6	3534
2026-01-01 15:07:44.68	328.83	30.44	-22.5	-22.3	18.6	0.00e+00	0	44	0	3721396224	6	3498
2026-01-01 15:07:47.69	329.15	29.89	-22.7	-22.5	18.5	0.00e+00	0	44	0	3743416320	6	3546
2026-01-01 15:07:50.71	329.47	29.35	-22.8	-22.8	18.4	0.00e+00	0	44	0	3765436416	6	3596
2026-01-01 15:07:53.70	329.77	28.83	-22.9	-23.1	18.2	0.00e+00	0	44	0	3786407936	6	3674
2026-01-01 15:07:56.71	330.06	28.31	-23.1	-23.4	18.1	0.00e+00	0	44	0	3808428032	6	3739
2026-01-01 15:07:59.72	330.35	27.80	-22.9	-23.0	18.3	0.00e+00	0	44	0	3830448128	6	3636
2026-01-01 15:08:02.73	330.63	27.29	-22.8	-22.9	18.4	0.00e+00	0	44	0	3851419648	6	3617
2026-01-01 15:08:05.74	330.90	26.80	-22.9	-23.0	18.2	0.00e+00	0	44	0	3873439744	6	3656
2026-01-01 15:08:08.75	331.16	26.31	-23.0	-23.2	18.2	0.00e+00	0	44	0	3895459840	6	3689
2026-01-01 15:08:11.75	331.41	25.84	-23.0	-23.1	18.2	0.00e+00	0	43	0	3917479936	6	3681
2026-01-01 15:08:14.77	331.66	25.37	-22.8	-22.8	18.4	0.00e+00	0	44	0	3938451456	6	3596
2026-01-01 15:08:17.79	331.90	24.90	-22.8	-22.8	18.3	0.00e+00	0	44	0	3960471552	6	3593
2026-01-01 15:08:20.80	332.13	24.45	-22.7	-22.7	18.4	0.00e+00	0	44	0	3982491648	6	3584
2026-01-01 15:08:23.81	332.36	24.00	-22.8	-22.9	18.3	0.00e+00	0	44	0	4004511744	6	3618
2026-01-01 15:08:26.82	332.58	23.56	-22.8	-22.8	18.3	0.00e+00	0	44	0	4025483264	6	3602
2026-01-01 15:08:29.82	332.80	23.13	-22.9	-23.0	18.2	0.00e+00	0	44	0	4047503360	6	3654
2026-01-01 15:08:32.83	333.01	22.71	-23.1	-23.6	17.9	0.00e+00	0	44	0	4069523456	6	3771
2026-01-01 15:08:35.85	333.21	22.29	-23.1	-23.6	17.9	0.00e+00	0	44	0	4091543552	6	3777
2026-01-01 15:08:38.85	333.41	21.87	-23.3	-23.9	17.6	0.00e+00	0	44	0	4112515072	6	3841
2026-01-01 15:08:41.86	333.61	21.47	-23.4	-24.1	17.6	0.00e+00	0	44	0	4134535168	6	3905
2026-01-01 15:08:44.87	333.80	21.07	-23.4	-24.2	17.5	0.00e+00	0	44	0	4155506688	6	3923
2026-01-01 15:08:47.89	333.98	20.67	-23.5	-23.9	17.4	0.00e+00	0	44	0	4177526784	7	3738
2026-01-01 15:08:50.91	334.16	20.28	-23.6	-24.1	17.3	0.00e+00	0	44	0	4199546880	7	3793
2026-01-01 15:08:53.92	334.34	19.90	-23.6	-23.9	17.4	0.00e+00	0	44	0	4221566976	7	3751
2026-01-01 15:08:56.92	334.51	19.52	-23.6	-24.0	17.3	0.00e+00	0	44	0	4242538496	7	3767
2026-01-01 15:08:59.93	334.68	19.15	-23.7	-24.1	17.2	0.00e+00	0	44	0	4264558592	7	3806
2026-01-01 15:09:02.93	334.85	18.79	-23.8	-24.5	17.0	0.00e+00	0	44	0	4286578688	7	3887
2026-01-01 15:09:05.93	335.01	18.43	-24.0	-24.9	16.8	0.00e+00	0	44	0	4307550208	7	3984
2026-01-01 15:09:08.95	335.17	18.07	-24.7	-25.4	16.0	0.00e+00	0	44	0	4329570304	9	3884
2026-01-01 15:09:11.96	335.32	17.72	-23.9	-23.7	16.9	0.00e+00	0	44	0	4351590400	9	3515
2026-01-01 15:09:14.97	335.48	17.37	-24.1	-24.0	16.7	0.00e+00	0	44	0	4373610496	9	3581
2026-01-01 15:09:17.97	335.62	17.03	-24.3	-24.5	16.5	0.00e+00	0	44	0	4394582016	9	3687
2026-01-01 15:09:20.98	335.77	16.69	-24.3	-24.6	16.4	0.00e+00	0	44	0	4416602112	9	3706
2026-01-01 15:09:23.99	335.91	16.36	-24.5	-25.0	16.2	0.00e+00	0	44	0	4438622208	9	3799
2026-01-01 15:09:27.01	336.05	16.03	-24.6	-25.2	16.0	0.00e+00	0	44	0	4460642304	9	3857
2026-01-01 15:09:30.03	336.19	15.71	-24.4	-24.8	16.3	0.00e+00	0	44	0	4481613824	9	3744
2026-01-01 15:09:33.04	336.33	15.39	-24.4	-24.7	16.3	0.00e+00	0	44	0	4503633920	9	3721
2026-01-01 15:09:36.05	336.46	15.07	-24.5	-24.9	16.2	0.00e+00	0	44	0	4525654016	9	3791
2026-01-01 15:09:39.06	336.59	14.76	-24.5	-24.9	16.1	0.00e+00	0	44	0	4547674112	9	3779
2026-01-01 15:09:42.08	336.71	14.45	-24.6	-25.1	16.1	0.00e+00	0	44	0	4568645632	9	3818
2026-01-01 15:09:45.08	336.84	14.15	-24.5	-25.0	16.0	0.00e+00	0	44	0	4590665728	9	3815
2026-01-01 15:09:48.09	336.96	13.85	-24.6	-25.1	16.0	0.00e+00	0	44	0	4612685824	9	3831
2026-01-01 15:09:51.10	337.08	13.55	-24.7	-25.4	15.8	0.00e+00	0	44	0	4634705920	9	3896
2026-01-01 15:09:54.11	337.20	13.25	-24.8	-25.5	15.7	0.00e+00	0	44	0	4655677440	9	3934
2026-01-01 15:09:57.12	337.32	12.96	-24.9	-25.8	15.6	0.00e+00	0	44	0	4677697536	9	4008
2026-01-01 15:10:00.12	337.43	12.68	-25.0	-25.6	15.4	0.00e+00	0	44	0	4698669056	10	3853
2026-01-01 15:10:03.12	337.54	12.40	-25.1	-25.8	15.3	0.00e+00	0	44	0	4720689152	10	3896
2026-01-01 15:10:06.14	337.65	12.11	-25.4	-26.4	15.0	0.00e+00	0	44	0	4742709248	10	4040
2026-01-01 15:10:09.14	337.76	11.84	-25.4	-26.4	15.0	0.00e+00	0	44	0	4764729344	10	4041
2026-01-01 15:10:12.17	337.87	11.56	-25.5	-26.7	14.7	0.00e+00	0	44	0	4785700864	10	4132
2026-01-01 15:10:15.18	337.97	11.29	-25.7	-26.7	14.5	0.00e+00	0	44	0	4807720960	11	4012
2026-01-01 15:10:18.19	338.08	11.02	-25.8	-26.9	14.3	0.00e+00	0	44	0	4829741056	11	4061
2026-01-01 15:10:21.20	338.18	10.76	-26.0	-27.2	14.2	2.20e-06	0	44	0	4851761152	11	4135
2026-01-01 15:10:24.21	338.28	10.49	-26.3	-27.5	13.6	1.48e-05	0	44	0	4872732672	12	4126
2026-01-01 15:10:27.22	338.38	10.23	-25.7	-26.2	14.3	1.10e-06	0	44	0	4894752768	12	3799
2026-01-01 15:10:30.25	338.48	9.98	-25.7	-26.1	14.4	3.40e-06	0	44	0	4916772864	12	3783
2026-01-01 15:10:33.26	338.57	9.72	-25.8	-26.3	14.2	1.10e-06	0	44	0	4938792960	12	3824
2026-01-01 15:10:36.27	338.67	9.47	-26.0	-26.7	14.0	2.20e-06	0	44	0	4959764480	12	3930
2026-01-01 15:10:39.28	338.76	9.22	-26.0	-26.7	14.0	5.70e-06	0	44	0	4981784576	12	3924
2026-01-01 15:10:42.29	338.85	8.97	-26.1	-27.1	13.7	8.00e-06	0	44	0	5003804672	12	4018
2026-01-01 15:10:45.31	338.94	8.73	-26.0	-26.8	13.9	1.10e-06	0	44	0	5025824768	12	3955
2026-01-01 15:10:48.33	339.03	8.48	-26.0	-26.8	13.9	4.50e-06	0	44	0	5046796288	12	3942
2026-01-01 15:10:51.33	339.12	8.24	-26.1	-27.1	13.6	1.14e-05	0	44	0	5068816384	12	4035
2026-01-01 15:10:54.34	339.20	8.01	-26.1	-27.0	13.7	1.60e-05	0	44	0	5090836480	12	4013
2026-01-01 15:10:57.35	339.29	7.77	-26.0	-27.0	13.7	1.02e-05	0	44	0	5112856576	12	3994
2026-01-01 15:11:00.36	339.37	7.54	-26.1	-27.2	13.6	1.25e-05	0	44	0	5133828096	12	4049
2026-01-01 15:11:03.37	339.46	7.30	-26.2	-27.3	13.4	1.83e-05	0	44	0	5155848192	12	4090
2026-01-01 15:11:06.37	339.54	7.08	-30.9	-35.4	6.1	3.83e-03	0	44	0	5177868288	21	6068

#Closed at: 2026-01-01 15:11:08
#Recorded file [5177 MB]: D:/data/31010_260101_175908.dat